$ADVER,3080,2.3
$GPRMC,225422.167,A,3748.8016,N,12217.8614,W,0.18,314.12,220910,,,A*72
$GPRMC,225423.171,A,3748.8016,N,12217.8613,W,0.12,132.39,220910,,,A*76
$GPRMC,225424.000,A,3748.8015,N,12217.8612,W,0.46,86.83,220910,,,D*4F
$GPRMC,225425.000,A,3748.8015,N,12217.8611,W,0.24,88.98,220910,,,D*4D
$GPRMC,225426.000,A,3748.8015,N,12217.8611,W,0.21,145.75,220910,,,D*78
$GPRMC,225427.000,A,3748.8014,N,12217.8611,W,0.13,131.90,220910,,,D*71
$GPRMC,225428.000,A,3748.8014,N,12217.8610,W,0.18,86.19,220910,,,D*48
$GPRMC,225429.000,A,3748.8014,N,12217.8610,W,0.14,110.65,220910,,,D*70
$GPRMC,225430.000,A,3748.8014,N,12217.8609,W,0.12,149.28,220910,,,D*73
$GPRMC,225431.000,A,3748.8014,N,12217.8609,W,0.15,103.82,220910,,,D*7B
$GPRMC,225432.000,A,3748.8015,N,12217.8611,W,0.12,73.96,220910,,,D*44
$GPRMC,225433.000,A,3748.8015,N,12217.8613,W,0.26,101.42,220910,,,D*7D
$GPRMC,225434.000,A,3748.8015,N,12217.8613,W,0.06,289.63,220910,,,D*78
$GPRMC,225435.000,A,3748.8015,N,12217.8629,W,0.57,281.68,220910,,,D*77
$GPRMC,225436.000,A,3748.8015,N,12217.8631,W,0.32,0.86,220910,,,D*75
$GPRMC,225437.000,A,3748.8013,N,12217.8634,W,0.11,54.27,220910,,,D*4C
$GPRMC,225438.000,A,3748.8013,N,12217.8634,W,0.14,82.85,220910,,,D*45
$GPRMC,225439.000,A,3748.8009,N,12217.8636,W,0.55,34.20,220910,,,D*4A
$GPRMC,225440.000,A,3748.8012,N,12217.8636,W,1.82,27.01,220910,,,D*44
$GPRMC,225441.000,A,3748.8015,N,12217.8635,W,0.94,31.01,220910,,,D*40
$GPRMC,225442.000,A,3748.8014,N,12217.8639,W,0.33,0.53,220910,,,D*76
$GPRMC,225443.000,A,3748.8012,N,12217.8645,W,0.62,38.57,220910,,,D*41
$GPRMC,225444.000,A,3748.8011,N,12217.8662,W,0.50,345.13,220910,,,D*78
$GPRMC,225445.000,A,3748.8010,N,12217.8678,W,0.76,276.56,220910,,,D*77
$GPRMC,225446.000,A,3748.8013,N,12217.8689,W,0.67,299.24,220910,,,D*7D
$GPRMC,225447.000,A,3748.8015,N,12217.8700,W,0.77,271.21,220910,,,D*78
$GPRMC,225448.000,A,3748.8016,N,12217.8708,W,0.88,290.89,220910,,,D*71
$GPRMC,225449.000,A,3748.8018,N,12217.8714,W,0.61,281.25,220910,,,D*72
$GPRMC,225450.000,A,3748.8016,N,12217.8727,W,0.50,284.55,220910,,,A*71
$GPRMC,225451.000,A,3748.8015,N,12217.8727,W,0.16,139.48,220910,,,A*78
$GPRMC,225452.000,A,3748.8014,N,12217.8707,W,0.92,69.29,220910,,,A*47
$GPRMC,225453.000,A,3748.8007,N,12217.8696,W,1.17,185.06,220910,,,D*7A
$GPRMC,225454.000,A,3748.8006,N,12217.8689,W,0.55,154.84,220910,,,D*73
$GPRMC,225455.000,A,3748.8004,N,12217.8685,W,0.92,145.36,220910,,,A*7B
$GPRMC,225456.000,A,3748.8008,N,12217.8674,W,1.03,89.79,220910,,,A*49
$GPRMC,225457.000,A,3748.8019,N,12217.8663,W,1.08,92.12,220910,,,A*42
$GPRMC,225458.000,A,3748.8008,N,12217.8657,W,1.00,102.52,220910,,,A*7E
$GPRMC,225459.000,A,3748.8009,N,12217.8651,W,1.02,78.93,220910,,,A*4B
$GPRMC,225500.000,A,3748.8000,N,12217.8648,W,1.63,158.56,220910,,,A*7A
$GPRMC,225501.000,A,3748.7987,N,12217.8645,W,2.45,165.73,220910,,,A*71
$GPRMC,225502.000,A,3748.7975,N,12217.8638,W,2.34,163.15,220910,,,D*70
$GPRMC,225503.000,A,3748.7980,N,12217.8626,W,1.74,145.28,220910,,,D*79
$GPRMC,225504.000,A,3748.7995,N,12217.8613,W,1.07,156.21,220910,,,D*73
$GPRMC,225505.000,A,3748.7995,N,12217.8606,W,1.47,150.97,220910,,,D*79
$GPRMC,225506.000,A,3748.7994,N,12217.8600,W,1.84,135.26,220910,,,D*7B
$GPRMC,225507.000,A,3748.7988,N,12217.8595,W,1.91,124.28,220910,,,D*72
$GPRMC,225508.000,A,3748.7988,N,12217.8582,W,1.41,144.87,220910,,,D*75
$GPRMC,225509.000,A,3748.7991,N,12217.8573,W,1.43,142.62,220910,,,D*7D
$GPRMC,225510.000,A,3748.7993,N,12217.8567,W,1.81,104.47,220910,,,D*79
$GPRMC,225511.000,A,3748.7986,N,12217.8570,W,1.71,99.09,220910,,,D*4A
$GPRMC,225512.000,A,3748.7988,N,12217.8564,W,1.25,117.05,220910,,,D*78
$GPRMC,225513.000,A,3748.7987,N,12217.8560,W,0.72,137.24,220910,,,D*70
$GPRMC,225514.000,A,3748.7981,N,12217.8550,W,1.56,155.17,220910,,,D*71
$GPRMC,225515.000,A,3748.7985,N,12217.8536,W,1.50,134.07,220910,,,D*74
$GPRMC,225516.000,A,3748.7976,N,12217.8527,W,1.71,141.34,220910,,,D*7A
$GPRMC,225517.000,A,3748.7965,N,12217.8516,W,2.19,149.25,220910,,,D*7E
$GPRMC,225518.000,A,3748.7960,N,12217.8505,W,1.95,134.37,220910,,,D*78
$GPRMC,225519.000,A,3748.7955,N,12217.8495,W,1.35,147.10,220910,,,D*7C
$GPRMC,225520.000,A,3748.7958,N,12217.8486,W,1.25,126.61,220910,,,D*79
$GPRMC,225521.000,A,3748.7956,N,12217.8479,W,1.60,83.06,220910,,,D*48
$GPRMC,225522.000,A,3748.7950,N,12217.8472,W,1.14,108.66,220910,,,D*71
$GPRMC,225523.000,A,3748.7947,N,12217.8470,W,1.70,125.70,220910,,,D*7E
$GPRMC,225524.000,A,3748.7943,N,12217.8472,W,1.37,100.93,220910,,,D*76
$GPRMC,225525.000,A,3748.7944,N,12217.8469,W,1.70,129.52,220910,,,D*7F
$GPRMC,225526.000,A,3748.7950,N,12217.8463,W,1.47,131.23,220910,,,D*78
$GPRMC,225527.000,A,3748.7951,N,12217.8453,W,2.07,135.54,220910,,,D*78
$GPRMC,225528.000,A,3748.7942,N,12217.8443,W,1.90,165.56,220910,,,D*7E
$GPRMC,225529.000,A,3748.7934,N,12217.8433,W,1.10,151.94,220910,,,D*78
$GPRMC,225530.000,A,3748.7925,N,12217.8429,W,1.20,140.38,220910,,,D*7E
$GPRMC,225531.000,A,3748.7926,N,12217.8422,W,1.68,153.26,220910,,,D*76
$GPRMC,225532.000,A,3748.7922,N,12217.8422,W,1.91,160.04,220910,,,D*77
$GPRMC,225533.000,A,3748.7914,N,12217.8424,W,1.96,145.38,220910,,,D*7A
$GPRMC,225534.000,A,3748.7909,N,12217.8423,W,2.64,159.40,220910,,,D*7A
$GPRMC,225535.000,A,3748.7904,N,12217.8422,W,2.30,150.00,220910,,,D*7B
$GPRMC,225536.000,A,3748.7907,N,12217.8422,W,1.84,107.39,220910,,,D*7F
$GPRMC,225537.000,A,3748.7901,N,12217.8420,W,2.18,168.80,220910,,,D*77
$GPRMC,225538.000,A,3748.7897,N,12217.8419,W,2.40,184.78,220910,,,D*74
$GPRMC,225539.000,A,3748.7896,N,12217.8419,W,1.06,150.80,220910,,,D*7B
$GPRMC,225540.000,A,3748.7889,N,12217.8414,W,1.43,112.75,220910,,,D*7B
$GPRMC,225541.000,A,3748.7889,N,12217.8415,W,1.74,123.08,220910,,,D*77
$GPRMC,225542.000,A,3748.7883,N,12217.8416,W,1.82,118.81,220910,,,D*7D
$GPRMC,225543.000,A,3748.7878,N,12217.8405,W,2.19,135.93,220910,,,D*77
$GPRMC,225544.000,A,3748.7874,N,12217.8396,W,2.25,124.19,220910,,,D*7C
$GPRMC,225545.000,A,3748.7873,N,12217.8384,W,2.14,126.04,220910,,,D*75
$GPRMC,225546.000,A,3748.7876,N,12217.8367,W,2.01,115.47,220910,,,D*7D
$GPRMC,225547.000,A,3748.7882,N,12217.8353,W,2.58,92.16,220910,,,D*46
$GPRMC,225548.000,A,3748.7888,N,12217.8344,W,2.52,83.24,220910,,,D*4E
$GPRMC,225549.000,A,3748.7880,N,12217.8344,W,1.54,100.20,220910,,,D*7C
$GPRMC,225550.000,A,3748.7878,N,12217.8339,W,1.99,107.54,220910,,,D*7C
$GPRMC,225551.000,A,3748.7874,N,12217.8334,W,2.32,113.82,220910,,,D*70
$GPRMC,225552.000,A,3748.7869,N,12217.8329,W,2.34,115.03,220910,,,D*7A
$GPRMC,225553.000,A,3748.7869,N,12217.8324,W,2.10,109.75,220910,,,D*7C
$GPRMC,225554.000,A,3748.7871,N,12217.8320,W,1.92,117.76,220910,,,D*73
$GPRMC,225555.000,A,3748.7872,N,12217.8313,W,1.05,109.33,220910,,,D*71
$GPRMC,225556.000,A,3748.7869,N,12217.8313,W,1.38,138.17,220910,,,D*72
$GPRMC,225557.000,A,3748.7866,N,12217.8289,W,2.22,125.75,220910,,,D*7E
$GPRMC,225558.000,A,3748.7865,N,12217.8277,W,2.63,108.73,220910,,,D*7F
$GPRMC,225559.000,A,3748.7857,N,12217.8260,W,3.58,112.00,220910,,,D*7F
$GPRMC,225600.000,A,3748.7841,N,12217.8231,W,4.01,109.43,220910,,,D*75
$GPRMC,225601.000,A,3748.7816,N,12217.8226,W,3.61,132.80,220910,,,D*76
$GPRMC,225602.000,A,3748.7810,N,12217.8221,W,3.24,106.69,220910,,,D*75
$GPRMC,225603.000,A,3748.7815,N,12217.8216,W,2.51,82.52,220910,,,D*43
$GPRMC,225604.000,A,3748.7814,N,12217.8210,W,2.42,77.45,220910,,,D*4D
$GPRMC,225605.000,A,3748.7817,N,12217.8206,W,2.43,72.86,220910,,,D*43
$GPRMC,225606.000,A,3748.7821,N,12217.8201,W,2.64,70.18,220910,,,D*42
$GPRMC,225607.000,A,3748.7817,N,12217.8195,W,2.59,90.06,220910,,,A*42
$GPRMC,225608.000,A,3748.7811,N,12217.8186,W,2.47,109.00,220910,,,A*71
$GPRMC,225609.000,A,3748.7811,N,12217.8179,W,2.21,107.53,220910,,,A*78
$GPRMC,225609.000,A,3748.7810,N,12217.8173,W,2.57,115.73,220910,,,A*73
$GPRMC,225610.000,A,3748.7802,N,12217.8174,W,2.15,116.58,220910,,,A*73
$GPRMC,225611.000,A,3748.7801,N,12217.8167,W,2.03,105.78,220910,,,A*74
$GPRMC,225612.000,A,3748.7801,N,12217.8160,W,1.55,97.93,220910,,,A*4F
$GPRMC,225613.000,A,3748.7795,N,12217.8155,W,2.33,117.48,220910,,,A*76
$GPRMC,225614.000,A,3748.7791,N,12217.8149,W,2.28,94.65,220910,,,A*47
$GPRMC,225615.000,A,3748.7779,N,12217.8145,W,2.36,119.20,220910,,,A*76
$GPRMC,225616.000,A,3748.7776,N,12217.8142,W,1.97,100.37,220910,,,A*7B
$GPRMC,225617.000,A,3748.7761,N,12217.8139,W,2.07,117.42,220910,,,A*7E
$GPRMC,225618.000,A,3748.7755,N,12217.8135,W,1.94,88.76,220910,,,A*43
$GPRMC,225619.000,A,3748.7756,N,12217.8131,W,2.15,64.10,220910,,,A*4D
$GPRMC,225620.000,A,3748.7755,N,12217.8126,W,2.24,79.96,220910,,,D*47
$GPRMC,225621.000,A,3748.7758,N,12217.8119,W,2.09,83.75,220910,,,D*40
$GPRMC,225622.000,A,3748.7760,N,12217.8111,W,2.13,87.03,220910,,,D*4E
$GPRMC,225623.000,A,3748.7759,N,12217.8099,W,1.80,91.66,220910,,,D*49
$GPRMC,225624.000,A,3748.7764,N,12217.8078,W,2.11,75.97,220910,,,D*40
$GPRMC,225625.000,A,3748.7758,N,12217.8065,W,2.40,87.84,220910,,,D*49
$GPRMC,225626.000,A,3748.7749,N,12217.8056,W,2.37,95.46,220910,,,D*47
$GPRMC,225627.000,A,3748.7740,N,12217.8053,W,2.27,86.21,220910,,,D*48
$GPRMC,225628.000,A,3748.7736,N,12217.8048,W,2.37,82.14,220910,,,D*4F
$GPRMC,225629.000,A,3748.7729,N,12217.8042,W,2.19,86.67,220910,,,D*46
$GPRMC,225630.000,A,3748.7728,N,12217.8033,W,2.22,91.22,220910,,,D*46
$GPRMC,225631.000,A,3748.7731,N,12217.8028,W,2.10,92.19,220910,,,D*4F
$GPRMC,225632.000,A,3748.7724,N,12217.8025,W,2.37,111.09,220910,,,D*7B
$GPRMC,225633.000,A,3748.7719,N,12217.8018,W,2.72,107.77,220910,,,D*75
$GPRMC,225634.000,A,3748.7708,N,12217.8004,W,2.97,109.57,220910,,,D*78
$GPRMC,225635.000,A,3748.7695,N,12217.7999,W,2.73,101.88,220910,,,D*7E
$GPRMC,225636.000,A,3748.7685,N,12217.7995,W,2.52,94.39,220910,,,D*44
$GPRMC,225637.000,A,3748.7683,N,12217.7994,W,2.25,88.84,220910,,,D*49
$GPRMC,225638.000,A,3748.7677,N,12217.8001,W,2.10,85.76,220910,,,D*41
$GPRMC,225639.000,A,3748.7674,N,12217.8000,W,2.04,94.22,220910,,,D*46
$GPRMC,225640.000,A,3748.7673,N,12217.7998,W,1.86,91.28,220910,,,D*4E
$GPRMC,225641.000,A,3748.7671,N,12217.7995,W,1.88,94.22,220910,,,D*41
$GPRMC,225642.000,A,3748.7667,N,12217.7989,W,1.83,78.61,220910,,,D*46
$GPRMC,225643.000,A,3748.7664,N,12217.7988,W,1.95,105.20,220910,,,D*7C
$GPRMC,225644.000,A,3748.7658,N,12217.7980,W,2.27,115.04,220910,,,D*71
$GPRMC,225645.000,A,3748.7656,N,12217.7975,W,2.03,105.56,220910,,,D*74
$GPRMC,225646.000,A,3748.7648,N,12217.7964,W,2.11,107.13,220910,,,D*78
$GPRMC,225647.000,A,3748.7646,N,12217.7955,W,2.27,115.13,220910,,,D*73
$GPRMC,225648.000,A,3748.7641,N,12217.7949,W,2.11,103.41,220910,,,D*73
$GPRMC,225649.000,A,3748.7641,N,12217.7945,W,1.96,99.53,220910,,,D*43
$GPRMC,225650.000,A,3748.7640,N,12217.7940,W,2.05,117.19,220910,,,D*7F
$GPRMC,225651.000,A,3748.7640,N,12217.7936,W,2.11,110.48,220910,,,D*79
$GPRMC,225652.000,A,3748.7635,N,12217.7933,W,1.97,93.66,220910,,,D*46
$GPRMC,225653.000,A,3748.7624,N,12217.7928,W,2.21,107.37,220910,,,D*7B
$GPRMC,225654.000,A,3748.7610,N,12217.7925,W,2.18,115.91,220910,,,D*73
$GPRMC,225655.000,A,3748.7593,N,12217.7923,W,2.19,111.81,220910,,,D*78
$GPRMC,225656.000,A,3748.7597,N,12217.7919,W,1.38,89.91,220910,,,D*47
$GPRMC,225657.000,A,3748.7596,N,12217.7914,W,1.81,74.91,220910,,,D*4A
$GPRMC,225658.000,A,3748.7597,N,12217.7909,W,1.84,81.73,220910,,,D*4B
$GPRMC,225659.000,A,3748.7584,N,12217.7904,W,1.93,109.43,220910,,,D*71
$GPRMC,225700.000,A,3748.7581,N,12217.7899,W,1.63,92.54,220910,,,D*46
$GPRMC,225701.000,A,3748.7581,N,12217.7895,W,1.58,99.00,220910,,,D*49
$GPRMC,225702.000,A,3748.7577,N,12217.7889,W,1.27,88.03,220910,,,D*45
$GPRMC,225703.000,A,3748.7566,N,12217.7900,W,1.56,135.35,220910,,,D*70
$GPRMC,225704.000,A,3748.7565,N,12217.7902,W,1.36,99.12,220910,,,D*42
$GPRMC,225705.000,A,3748.7573,N,12217.7902,W,0.77,30.69,220910,,,D*4F
$GPRMC,225706.000,A,3748.7591,N,12217.7911,W,1.26,347.85,220910,,,D*76
$GPRMC,225707.000,A,3748.7595,N,12217.7910,W,0.80,317.87,220910,,,D*78
$GPRMC,225708.000,A,3748.7601,N,12217.7929,W,0.79,302.30,220910,,,D*7D
$GPRMC,225709.000,A,3748.7605,N,12217.7948,W,0.94,271.39,220910,,,D*70
$GPRMC,225710.000,A,3748.7620,N,12217.7964,W,1.57,256.47,220910,,,D*73
$GPRMC,225711.000,A,3748.7637,N,12217.7976,W,1.09,273.97,220910,,,D*76
$GPRMC,225712.000,A,3748.7643,N,12217.7983,W,1.54,269.96,220910,,,D*7E
$GPRMC,225713.000,A,3748.7638,N,12217.7999,W,1.63,256.75,220910,,,D*7D
$GPRMC,225714.000,A,3748.7636,N,12217.8007,W,1.45,267.59,220910,,,D*7D
$GPRMC,225715.000,A,3748.7632,N,12217.7996,W,0.46,220.19,220910,,,D*73
$GPRMC,225716.000,A,3748.7622,N,12217.7988,W,0.48,3.37,220910,,,D*7F
$GPRMC,225717.000,A,3748.7608,N,12217.7980,W,0.83,113.83,220910,,,D*76
$GPRMC,225718.000,A,3748.7601,N,12217.7972,W,0.89,136.62,220910,,,D*7F
$GPRMC,225719.000,A,3748.7595,N,12217.7963,W,0.59,103.46,220910,,,D*7D
$GPRMC,225720.000,A,3748.7589,N,12217.7958,W,0.57,100.16,220910,,,D*7A
$GPRMC,225721.000,A,3748.7581,N,12217.7943,W,1.15,160.43,220910,,,D*78
$GPRMC,225722.000,A,3748.7572,N,12217.7933,W,1.17,187.26,220910,,,D*78
$GPRMC,225723.000,A,3748.7572,N,12217.7922,W,0.41,199.69,220910,,,D*7F
$GPRMC,225724.000,A,3748.7564,N,12217.7909,W,0.53,171.75,220910,,,D*7E
$GPRMC,225725.000,A,3748.7558,N,12217.7895,W,0.65,143.71,220910,,,D*74
$GPRMC,225726.000,A,3748.7557,N,12217.7886,W,0.67,128.94,220910,,,D*7E
$GPRMC,225727.000,A,3748.7559,N,12217.7879,W,1.03,25.35,220910,,,D*45
$GPRMC,225728.000,A,3748.7551,N,12217.7870,W,2.07,50.20,220910,,,D*4A
$GPRMC,225729.000,A,3748.7538,N,12217.7865,W,1.99,65.13,220910,,,D*42
$GPRMC,225730.000,A,3748.7534,N,12217.7859,W,2.75,59.09,220910,,,D*4C
$GPRMC,225731.000,A,3748.7524,N,12217.7861,W,2.73,58.49,220910,,,D*44
$GPRMC,225732.000,A,3748.7512,N,12217.7870,W,2.47,44.33,220910,,,D*45
$GPRMC,225733.000,A,3748.7507,N,12217.7863,W,1.73,39.79,220910,,,D*42
$GPRMC,225734.000,A,3748.7492,N,12217.7865,W,1.62,47.65,220910,,,D*4A
$GPRMC,225735.000,A,3748.7481,N,12217.7860,W,1.53,54.38,220910,,,D*44
$GPRMC,225736.000,A,3748.7478,N,12217.7858,W,1.77,50.98,220910,,,D*42
$GPRMC,225737.000,A,3748.7480,N,12217.7847,W,2.77,36.84,220910,,,D*44
$GPRMC,225738.000,A,3748.7484,N,12217.7840,W,2.61,41.90,220910,,,D*4A
$GPRMC,225739.000,A,3748.7474,N,12217.7836,W,2.14,67.94,220910,,,D*47
$GPRMC,225740.000,A,3748.7486,N,12217.7830,W,2.13,59.27,220910,,,D*40
$GPRMC,225741.000,A,3748.7479,N,12217.7823,W,2.43,61.84,220910,,,D*44
$GPRMC,225742.000,A,3748.7486,N,12217.7817,W,2.42,75.96,220910,,,D*47
$GPRMC,225743.000,A,3748.7479,N,12217.7813,W,1.93,96.14,220910,,,D*4A
$GPRMC,225744.000,A,3748.7474,N,12217.7807,W,2.03,90.39,220910,,,D*46
$GPRMC,225745.000,A,3748.7458,N,12217.7796,W,2.14,103.07,220910,,,D*7E
$GPRMC,225746.000,A,3748.7447,N,12217.7793,W,1.86,112.42,220910,,,D*7F
$GPRMC,225747.000,A,3748.7440,N,12217.7781,W,2.02,103.14,220910,,,D*76
$GPRMC,225748.000,A,3748.7426,N,12217.7762,W,2.70,102.88,220910,,,D*75
$GPRMC,225749.000,A,3748.7421,N,12217.7750,W,3.00,113.83,220910,,,D*7F
$GPRMC,225750.000,A,3748.7431,N,12217.7741,W,2.24,112.37,220910,,,D*7F
$GPRMC,225751.000,A,3748.7428,N,12217.7726,W,2.65,109.32,220910,,,D*7D
$GPRMC,225752.000,A,3748.7432,N,12217.7710,W,3.07,98.05,220910,,,D*48
$GPRMC,225753.000,A,3748.7438,N,12217.7706,W,2.59,75.40,220910,,,D*4C
$GPRMC,225754.000,A,3748.7438,N,12217.7693,W,2.81,62.30,220910,,,D*42
$GPRMC,225755.000,A,3748.7427,N,12217.7678,W,2.80,72.91,220910,,,D*43
$GPRMC,225756.000,A,3748.7407,N,12217.7663,W,2.82,81.57,220910,,,D*4C
$GPRMC,225757.000,A,3748.7384,N,12217.7663,W,2.67,87.91,220910,,,D*46
$GPRMC,225758.000,A,3748.7359,N,12217.7679,W,1.99,84.96,220910,,,D*44
$GPRMC,225759.000,A,3748.7339,N,12217.7704,W,1.55,79.82,220910,,,D*4F
$GPRMC,225800.000,A,3748.7323,N,12217.7722,W,0.91,74.17,220910,,,D*4B
$GPRMC,225801.000,A,3748.7311,N,12217.7730,W,0.71,123.98,220910,,,D*72
$GPRMC,225802.000,A,3748.7294,N,12217.7724,W,1.06,96.14,220910,,,D*42
$GPRMC,225803.000,A,3748.7299,N,12217.7718,W,0.69,82.56,220910,,,D*4A
$GPRMC,225804.000,A,3748.7316,N,12217.7723,W,0.69,79.65,220910,,,D*47
$GPRMC,225805.000,A,3748.7327,N,12217.7715,W,1.34,77.54,220910,,,D*44
$GPRMC,225806.000,A,3748.7340,N,12217.7707,W,1.19,86.79,220910,,,D*4B
$GPRMC,225807.000,A,3748.7356,N,12217.7695,W,1.13,72.54,220910,,,D*49
$GPRMC,225808.000,A,3748.7367,N,12217.7682,W,1.67,51.14,220910,,,D*44
$GPRMC,225809.000,A,3748.7384,N,12217.7663,W,2.51,43.41,220910,,,D*42
$GPRMC,225810.000,A,3748.7393,N,12217.7649,W,2.12,50.02,220910,,,D*46
$GPRMC,225811.000,A,3748.7397,N,12217.7636,W,1.44,48.56,220910,,,D*43
$GPRMC,225812.000,A,3748.7395,N,12217.7632,W,1.72,46.91,220910,,,D*46
$GPRMC,225813.000,A,3748.7388,N,12217.7637,W,0.56,86.18,220910,,,D*44
$GPRMC,225814.000,A,3748.7383,N,12217.7643,W,0.19,324.20,220910,,,D*70
$GPRMC,225815.000,A,3748.7392,N,12217.7653,W,1.30,330.48,220910,,,D*71
$GPRMC,225816.000,A,3748.7407,N,12217.7661,W,1.71,341.40,220910,,,D*73
$GPRMC,225817.000,A,3748.7416,N,12217.7645,W,1.73,19.94,220910,,,D*41
$GPRMC,225818.000,A,3748.7419,N,12217.7635,W,1.88,19.82,220910,,,D*45
$GPRMC,225819.000,A,3748.7394,N,12217.7628,W,0.51,64.69,220910,,,D*40
$GPRMC,225820.000,A,3748.7386,N,12217.7628,W,0.63,245.67,220910,,,D*77
$GPRMC,225821.000,A,3748.7392,N,12217.7640,W,1.44,309.39,220910,,,D*7B
$GPRMC,225822.000,A,3748.7395,N,12217.7652,W,1.87,316.50,220910,,,D*72
$GPRMC,225823.000,A,3748.7409,N,12217.7655,W,2.19,308.33,220910,,,D*78
$GPRMC,225824.000,A,3748.7415,N,12217.7663,W,2.03,294.51,220910,,,D*7C
$GPRMC,225825.000,A,3748.7426,N,12217.7658,W,1.88,305.92,220910,,,D*73
$GPRMC,225826.000,A,3748.7436,N,12217.7661,W,1.77,318.01,220910,,,D*7D
$GPRMC,225827.000,A,3748.7444,N,12217.7660,W,1.92,304.70,220910,,,D*78
$GPRMC,225828.000,A,3748.7456,N,12217.7662,W,1.94,311.81,220910,,,D*7A
$GPRMC,225829.000,A,3748.7471,N,12217.7665,W,2.08,319.94,220910,,,D*73
$GPRMC,225830.000,A,3748.7481,N,12217.7671,W,2.39,341.13,220910,,,D*71
$GPRMC,225831.000,A,3748.7488,N,12217.7675,W,2.05,324.79,220910,,,D*7D
$GPRMC,225832.000,A,3748.7488,N,12217.7684,W,1.79,313.94,220910,,,D*7F
$GPRMC,225833.000,A,3748.7485,N,12217.7699,W,1.70,318.05,220910,,,D*75
$GPRMC,225834.000,A,3748.7490,N,12217.7704,W,2.18,348.04,220910,,,D*7A
$GPRMC,225835.000,A,3748.7501,N,12217.7698,W,2.59,16.75,220910,,,D*4D
$GPRMC,225836.000,A,3748.7534,N,12217.7684,W,5.49,11.19,220910,,,A*4B
$GPRMC,225837.000,A,3748.7555,N,12217.7677,W,6.37,6.87,220910,,,A*7A
$GPRMC,225838.000,A,3748.7575,N,12217.7662,W,5.41,12.62,220910,,,A*4F
$GPRMC,225839.000,A,3748.7605,N,12217.7644,W,6.92,22.55,220910,,,A*44
$GPRMC,225840.000,A,3748.7626,N,12217.7624,W,7.93,33.21,220910,,,A*4E
$GPRMC,225841.000,A,3748.7649,N,12217.7605,W,7.55,38.83,220910,,,A*4C
$GPRMC,225842.000,A,3748.7667,N,12217.7573,W,7.37,44.42,220910,,,A*43
$GPRMC,225843.000,A,3748.7689,N,12217.7548,W,6.79,36.70,220910,,,A*45
$GPRMC,225844.000,A,3748.7681,N,12217.7536,W,4.24,42.96,220910,,,A*42
$GPRMC,225845.000,A,3748.7684,N,12217.7520,W,2.56,56.62,220910,,,A*4C
$GPRMC,225846.000,A,3748.7673,N,12217.7511,W,1.02,79.90,220910,,,A*47
$GPRMC,225847.000,A,3748.7678,N,12217.7500,W,1.56,45.40,220910,,,A*4E
$GPRMC,225848.000,A,3748.7634,N,12217.7504,W,2.02,144.06,220910,,,A*7D
$GPRMC,225849.000,A,3748.7615,N,12217.7505,W,2.19,134.72,220910,,,A*70
$GPRMC,225850.000,A,3748.7599,N,12217.7516,W,2.71,134.21,220910,,,A*75
$GPRMC,225851.000,A,3748.7588,N,12217.7539,W,1.79,139.12,220910,,,A*7F
$GPRMC,225852.000,A,3748.7590,N,12217.7540,W,1.21,100.70,220910,,,A*78
$GPRMC,225853.000,A,3748.7604,N,12217.7538,W,0.69,69.28,220910,,,A*46
$GPRMC,225854.000,A,3748.7582,N,12217.7542,W,1.16,96.58,220910,,,A*4F
$GPRMC,225855.000,A,3748.7576,N,12217.7552,W,1.22,69.04,220910,,,A*4A
$GPRMC,225856.000,A,3748.7571,N,12217.7558,W,0.43,37.45,220910,,,A*4C
$GPRMC,225857.000,A,3748.7580,N,12217.7538,W,2.17,63.23,220910,,,A*47
$GPRMC,225858.000,A,3748.7570,N,12217.7553,W,1.51,35.96,220910,,,A*46
$GPRMC,225859.000,A,3748.7576,N,12217.7561,W,1.02,13.69,220910,,,A*42
$GPRMC,225900.000,A,3748.7570,N,12217.7568,W,0.23,65.83,220910,,,A*47
$GPRMC,225901.000,A,3748.7574,N,12217.7552,W,1.64,65.40,220910,,,A*46
$GPRMC,225902.000,A,3748.7578,N,12217.7543,W,1.58,110.01,220910,,,A*70
$GPRMC,225903.000,A,3748.7579,N,12217.7547,W,1.03,79.64,220910,,,A*47
$GPRMC,225904.000,A,3748.7577,N,12217.7562,W,0.55,75.08,220910,,,A*4D
$GPRMC,225905.000,A,3748.7572,N,12217.7567,W,1.38,68.48,220910,,,A*4E
$GPRMC,225906.000,A,3748.7569,N,12217.7571,W,0.96,48.09,220910,,,A*42
$GPRMC,225907.000,A,3748.7565,N,12217.7571,W,0.75,146.95,220910,,,A*78
$GPRMC,225908.000,A,3748.7557,N,12217.7577,W,1.53,192.79,220910,,,A*7E
$GPRMC,225909.000,A,3748.7546,N,12217.7575,W,2.62,178.21,220910,,,A*75
$GPRMC,225910.000,A,3748.7532,N,12217.7568,W,2.85,165.36,220910,,,A*71
$GPRMC,225911.000,A,3748.7528,N,12217.7572,W,1.67,127.56,220910,,,A*7F
$GPRMC,225912.000,A,3748.7515,N,12217.7569,W,1.94,127.37,220910,,,A*73
$GPRMC,225913.000,A,3748.7505,N,12217.7579,W,1.99,136.03,220910,,,A*78
$GPRMC,225914.000,A,3748.7488,N,12217.7580,W,2.15,137.22,220910,,,A*78
$GPRMC,225915.000,A,3748.7477,N,12217.7584,W,1.44,117.08,220910,,,A*70
$GPRMC,225916.000,A,3748.7477,N,12217.7587,W,1.41,86.85,220910,,,A*49
$GPRMC,225917.000,A,3748.7480,N,12217.7589,W,1.50,91.70,220910,,,A*42
$GPRMC,225918.000,A,3748.7474,N,12217.7598,W,1.06,140.39,220910,,,A*75
$GPRMC,225919.000,A,3748.7462,N,12217.7607,W,1.50,157.14,220910,,,A*7C
$GPRMC,225920.000,A,3748.7453,N,12217.7616,W,1.15,133.78,220910,,,A*7D
$GPRMC,225921.000,A,3748.7444,N,12217.7622,W,1.27,124.12,220910,,,A*76
$GPRMC,225922.000,A,3748.7427,N,12217.7627,W,2.29,156.60,220910,,,A*78
$GPRMC,225923.000,A,3748.7430,N,12217.7626,W,1.34,137.74,220910,,,A*73
$GPRMC,225924.000,A,3748.7427,N,12217.7615,W,1.55,142.33,220910,,,A*74
$GPRMC,225925.000,A,3748.7432,N,12217.7618,W,1.02,165.16,220910,,,A*7C
$GPRMC,225926.000,A,3748.7434,N,12217.7624,W,1.38,164.93,220910,,,A*73
$GPRMC,225927.000,A,3748.7437,N,12217.7633,W,0.43,184.30,220910,,,A*7D
$GPRMC,225928.000,A,3748.7436,N,12217.7635,W,1.03,181.68,220910,,,A*78
$GPRMC,225929.000,A,3748.7432,N,12217.7638,W,1.40,175.99,220910,,,A*72
$GPRMC,225930.000,A,3748.7424,N,12217.7637,W,1.45,172.23,220910,,,A*71
$GPRMC,225931.000,A,3748.7416,N,12217.7633,W,0.66,162.31,220910,,,A*77
$GPRMC,225932.000,A,3748.7409,N,12217.7630,W,1.41,166.78,220910,,,A*74
$GPRMC,225933.000,A,3748.7402,N,12217.7625,W,1.14,155.95,220910,,,A*79
$GPRMC,225934.000,A,3748.7391,N,12217.7621,W,0.66,113.62,220910,,,A*79
$GPRMC,225935.000,A,3748.7385,N,12217.7615,W,0.94,122.72,220910,,,A*74
$GPRMC,225936.000,A,3748.7379,N,12217.7610,W,0.89,121.73,220910,,,A*7F
$GPRMC,225937.000,A,3748.7378,N,12217.7599,W,0.83,123.92,220910,,,A*7A
$GPRMC,225938.000,A,3748.7386,N,12217.7586,W,0.90,42.89,220910,,,A*44
$GPRMC,225939.000,A,3748.7393,N,12217.7573,W,0.44,66.51,220910,,,A*41
$GPRMC,225940.000,A,3748.7399,N,12217.7563,W,0.18,335.46,220910,,,A*7E
$GPRMC,225941.000,A,3748.7405,N,12217.7558,W,0.53,333.63,220910,,,A*7B
$GPRMC,225942.000,A,3748.7407,N,12217.7548,W,0.27,73.89,220910,,,A*4B
$GPRMC,225943.000,A,3748.7411,N,12217.7520,W,1.14,96.86,220910,,,A*46
$GPRMC,225944.000,A,3748.7416,N,12217.7517,W,0.48,80.00,220910,,,A*43
$GPRMC,225945.000,A,3748.7421,N,12217.7521,W,0.24,31.70,220910,,,A*44
$GPRMC,225946.000,A,3748.7423,N,12217.7519,W,0.37,66.92,220910,,,A*42
$GPRMC,225947.000,A,3748.7425,N,12217.7521,W,0.27,66.24,220910,,,A*42
$GPRMC,225948.000,A,3748.7425,N,12217.7516,W,0.34,83.48,220910,,,A*4A
$GPRMC,225949.000,A,3748.7427,N,12217.7521,W,0.25,84.20,220910,,,A*44
$GPRMC,225950.000,A,3748.7432,N,12217.7519,W,0.52,23.22,220910,,,A*4C
$GPRMC,225951.000,A,3748.7439,N,12217.7510,W,1.07,18.54,220910,,,A*47
$GPRMC,225952.000,A,3748.7448,N,12217.7525,W,0.85,4.79,220910,,,A*7D
$GPRMC,225953.000,A,3748.7450,N,12217.7523,W,0.59,5.82,220910,,,A*77
$GPRMC,225954.000,A,3748.7458,N,12217.7538,W,0.72,346.50,220910,,,A*70
$GPRMC,225955.000,A,3748.7468,N,12217.7537,W,1.04,350.39,220910,,,A*75
$GPRMC,225956.000,A,3748.7473,N,12217.7530,W,1.02,351.46,220910,,,A*74
$GPRMC,225957.000,A,3748.7484,N,12217.7520,W,1.01,4.76,220910,,,A*7F
$GPRMC,225958.000,A,3748.7494,N,12217.7509,W,0.72,33.17,220910,,,A*4C
$GPRMC,225959.000,A,3748.7498,N,12217.7503,W,0.80,95.66,220910,,,A*4C
$GPRMC,230000.000,A,3748.7495,N,12217.7503,W,0.70,132.22,220910,,,A*73
$GPRMC,230001.000,A,3748.7493,N,12217.7506,W,0.29,111.88,220910,,,A*7C
$GPRMC,230002.000,A,3748.7489,N,12217.7510,W,0.53,139.99,220910,,,A*74
$GPRMC,230003.000,A,3748.7487,N,12217.7510,W,0.31,153.25,220910,,,A*74
$GPRMC,230004.000,A,3748.7485,N,12217.7514,W,0.52,157.39,220910,,,A*79
$GPRMC,230005.000,A,3748.7478,N,12217.7516,W,0.51,133.70,220910,,,A*74
$GPRMC,230006.000,A,3748.7476,N,12217.7520,W,0.26,204.73,220910,,,A*78
$GPRMC,230007.000,A,3748.7475,N,12217.7524,W,0.10,128.53,220910,,,A*74
$GPRMC,230008.000,A,3748.7475,N,12217.7525,W,0.26,2.45,220910,,,A*71
$GPRMC,230009.000,A,3748.7476,N,12217.7528,W,0.15,51.54,220910,,,A*48
$GPRMC,230010.000,A,3748.7472,N,12217.7532,W,0.14,50.78,220910,,,A*41
$GPRMC,230011.000,A,3748.7471,N,12217.7535,W,0.11,7.25,220910,,,A*7B
$GPRMC,230012.000,A,3748.7476,N,12217.7534,W,0.32,21.50,220910,,,A*49
$GPRMC,230013.000,A,3748.7473,N,12217.7539,W,0.11,120.64,220910,,,A*76
$GPRMC,230014.000,A,3748.7470,N,12217.7542,W,0.12,24.77,220910,,,A*4A
$GPRMC,230015.000,A,3748.7468,N,12217.7545,W,0.52,9.62,220910,,,A*7A
$GPRMC,230016.000,A,3748.7463,N,12217.7551,W,0.24,350.95,220910,,,A*71
$GPRMC,230017.000,A,3748.7451,N,12217.7563,W,0.56,204.86,220910,,,A*77
$GPRMC,230018.000,A,3748.7438,N,12217.7572,W,1.03,200.47,220910,,,A*7F
$GPRMC,230019.000,A,3748.7426,N,12217.7580,W,0.91,211.15,220910,,,A*71
$GPRMC,230020.000,A,3748.7421,N,12217.7585,W,0.95,196.55,220910,,,A*75
$GPRMC,230021.000,A,3748.7416,N,12217.7587,W,1.12,205.61,220910,,,A*72
$GPRMC,230022.000,A,3748.7413,N,12217.7589,W,0.98,225.95,220910,,,A*70
$GPRMC,230023.000,A,3748.7412,N,12217.7590,W,0.68,244.85,220910,,,A*71
$GPRMC,230024.000,A,3748.7411,N,12217.7592,W,0.79,268.05,220910,,,A*71
$GPRMC,230025.000,A,3748.7411,N,12217.7595,W,0.86,290.86,220910,,,A*7B
$GPRMC,230026.000,A,3748.7411,N,12217.7597,W,0.85,285.59,220910,,,A*7F
$GPRMC,230027.000,A,3748.7411,N,12217.7599,W,0.72,270.12,220910,,,A*7D
$GPRMC,230028.000,A,3748.7410,N,12217.7600,W,0.70,278.49,220910,,,A*74
$GPRMC,230029.000,A,3748.7410,N,12217.7601,W,0.79,273.29,220910,,,A*70
$GPRMC,230030.000,A,3748.7410,N,12217.7602,W,0.77,280.81,220910,,,A*7B
$GPRMC,230031.000,A,3748.7412,N,12217.7612,W,1.06,317.32,220910,,,A*79
$GPRMC,230032.000,A,3748.7420,N,12217.7626,W,1.82,282.30,220910,,,A*7F
$GPRMC,230033.000,A,3748.7427,N,12217.7627,W,0.94,296.10,220910,,,A*79
$GPRMC,230034.000,A,3748.7431,N,12217.7627,W,0.87,280.42,220910,,,A*7B
$GPRMC,230035.000,A,3748.7432,N,12217.7623,W,0.48,295.08,220910,,,A*74
$GPRMC,230036.000,A,3748.7440,N,12217.7615,W,0.48,289.64,220910,,,A*70
$GPRMC,230037.000,A,3748.7447,N,12217.7603,W,0.24,347.09,220910,,,A*73
$GPRMC,230038.000,A,3748.7442,N,12217.7596,W,1.00,184.28,220910,,,A*7F
$GPRMC,230039.000,A,3748.7450,N,12217.7586,W,0.28,38.35,220910,,,A*4D
$GPRMC,230040.000,A,3748.7459,N,12217.7576,W,1.47,41.63,220910,,,A*40
$GPRMC,230041.000,A,3748.7463,N,12217.7565,W,2.04,62.40,220910,,,A*4E
$GPRMC,230042.000,A,3748.7473,N,12217.7552,W,3.07,54.24,220910,,,A*4D
$GPRMC,230043.000,A,3748.7475,N,12217.7538,W,3.57,60.05,220910,,,A*47
$GPRMC,230044.000,A,3748.7484,N,12217.7526,W,2.76,45.34,220910,,,A*46
$GPRMC,230045.000,A,3748.7476,N,12217.7520,W,1.27,60.18,220910,,,A*42
$GPRMC,230046.000,A,3748.7458,N,12217.7516,W,0.99,180.70,220910,,,A*7D
$GPRMC,230047.000,A,3748.7447,N,12217.7510,W,0.68,150.14,220910,,,A*75
$GPRMC,230048.000,A,3748.7451,N,12217.7508,W,0.51,54.75,220910,,,A*4C
$GPRMC,230049.000,A,3748.7440,N,12217.7499,W,0.66,92.76,220910,,,A*49
$GPRMC,230050.000,A,3748.7447,N,12217.7496,W,0.66,41.17,220910,,,A*40
$GPRMC,230051.000,A,3748.7458,N,12217.7503,W,1.17,355.02,220910,,,A*77
$GPRMC,230052.000,A,3748.7465,N,12217.7502,W,1.49,9.80,220910,,,A*70
$GPRMC,230053.000,A,3748.7484,N,12217.7503,W,1.75,3.42,220910,,,A*74
$GPRMC,230054.000,A,3748.7491,N,12217.7508,W,1.02,10.36,220910,,,A*4D
$GPRMC,230055.000,A,3748.7499,N,12217.7512,W,1.86,19.72,220910,,,A*4A
$GPRMC,230056.000,A,3748.7495,N,12217.7512,W,1.17,26.02,220910,,,A*46
$GPRMC,230057.000,A,3748.7491,N,12217.7516,W,0.62,50.91,220910,,,A*4F
$GPRMC,230058.000,A,3748.7483,N,12217.7519,W,0.41,85.26,220910,,,A*49
$GPRMC,230059.000,A,3748.7478,N,12217.7522,W,0.48,95.56,220910,,,A*4B
$GPRMC,230100.000,A,3748.7475,N,12217.7525,W,0.36,97.11,220910,,,A*44
$GPRMC,230101.000,A,3748.7485,N,12217.7527,W,0.79,22.96,220910,,,A*42
$GPRMC,230102.000,A,3748.7491,N,12217.7528,W,1.11,14.84,220910,,,A*42
$GPRMC,230103.000,A,3748.7489,N,12217.7524,W,0.97,20.71,220910,,,A*44
$GPRMC,230104.000,A,3748.7476,N,12217.7521,W,0.72,130.09,220910,,,A*72
$GPRMC,230105.000,A,3748.7472,N,12217.7520,W,0.77,154.69,220910,,,A*77
$GPRMC,230106.000,A,3748.7455,N,12217.7513,W,0.67,127.43,220910,,,A*7C
$GPRMC,230107.000,A,3748.7446,N,12217.7507,W,0.55,79.74,220910,,,A*45
$GPRMC,230108.000,A,3748.7446,N,12217.7507,W,0.53,72.52,220910,,,A*43
$GPRMC,230109.000,A,3748.7444,N,12217.7514,W,0.70,25.17,220910,,,A*40
$GPRMC,230110.000,A,3748.7443,N,12217.7525,W,0.85,10.32,220910,,,A*46
$GPRMC,230111.000,A,3748.7444,N,12217.7529,W,1.63,7.92,220910,,,A*79
$GPRMC,230112.000,A,3748.7455,N,12217.7524,W,2.24,10.25,220910,,,A*4D
$GPRMC,230113.000,A,3748.7464,N,12217.7519,W,1.99,27.91,220910,,,A*4E
$GPRMC,230114.000,A,3748.7474,N,12217.7510,W,1.97,36.71,220910,,,A*41
$GPRMC,230115.000,A,3748.7485,N,12217.7493,W,1.87,31.97,220910,,,A*4A
$GPRMC,230116.000,A,3748.7493,N,12217.7482,W,1.72,45.23,220910,,,A*48
$GPRMC,230117.000,A,3748.7493,N,12217.7469,W,0.97,77.20,220910,,,A*44
$GPRMC,230118.000,A,3748.7495,N,12217.7454,W,1.23,89.54,220910,,,A*4F
$GPRMC,230119.000,A,3748.7475,N,12217.7453,W,1.86,110.27,220910,,,A*7D
$GPRMC,230120.000,A,3748.7459,N,12217.7454,W,1.90,114.73,220910,,,A*7C
$GPRMC,230121.000,A,3748.7440,N,12217.7457,W,1.68,145.73,220910,,,A*75
$GPRMC,230122.000,A,3748.7419,N,12217.7460,W,2.11,134.67,220910,,,A*70
$GPRMC,230123.000,A,3748.7407,N,12217.7459,W,1.88,135.63,220910,,,A*72
$GPRMC,230124.000,A,3748.7399,N,12217.7457,W,1.92,119.61,220910,,,A*7C
$GPRMC,230125.000,A,3748.7388,N,12217.7459,W,1.90,115.69,220910,,,A*75
$GPRMC,230126.000,A,3748.7379,N,12217.7461,W,1.78,159.91,220910,,,A*7A
$GPRMC,230127.000,A,3748.7367,N,12217.7460,W,1.45,169.77,220910,,,A*70
$GPRMC,230128.000,A,3748.7366,N,12217.7451,W,1.06,112.67,220910,,,A*76
$GPRMC,230129.000,A,3748.7369,N,12217.7440,W,0.91,100.50,220910,,,A*70
$GPRMC,230130.000,A,3748.7374,N,12217.7427,W,0.50,91.95,220910,,,A*48
$GPRMC,230131.000,A,3748.7363,N,12217.7432,W,0.41,154.39,220910,,,A*75
$GPRMC,230132.000,A,3748.7348,N,12217.7444,W,0.36,195.84,220910,,,A*75
$GPRMC,230133.000,A,3748.7338,N,12217.7451,W,0.59,104.98,220910,,,A*7B
$GPRMC,230134.000,A,3748.7341,N,12217.7451,W,0.20,219.03,220910,,,A*71
$GPRMC,230135.000,A,3748.7350,N,12217.7442,W,0.59,215.06,220910,,,A*75
$GPRMC,230136.000,A,3748.7353,N,12217.7439,W,1.08,235.23,220910,,,A*79
$GPRMC,230137.000,A,3748.7367,N,12217.7424,W,0.33,244.98,220910,,,A*7C
$GPRMC,230138.000,A,3748.7366,N,12217.7428,W,0.72,242.09,220910,,,A*75
$GPRMC,230139.000,A,3748.7361,N,12217.7436,W,0.44,239.30,220910,,,A*7F
$GPRMC,230140.000,A,3748.7352,N,12217.7447,W,0.94,231.27,220910,,,A*74
$GPRMC,230141.000,A,3748.7349,N,12217.7450,W,1.26,229.86,220910,,,A*73
$GPRMC,230142.000,A,3748.7352,N,12217.7446,W,0.94,228.51,220910,,,A*7E
$GPRMC,230143.000,A,3748.7348,N,12217.7446,W,0.79,197.79,220910,,,A*7A
$GPRMC,230144.000,A,3748.7348,N,12217.7440,W,0.31,168.08,220910,,,A*71
$GPRMC,230145.000,A,3748.7353,N,12217.7434,W,0.69,89.56,220910,,,A*41
$GPRMC,230146.000,A,3748.7358,N,12217.7430,W,0.27,340.05,220910,,,A*77
$GPRMC,230147.000,A,3748.7365,N,12217.7428,W,0.32,77.90,220910,,,A*4E
$GPRMC,230148.000,A,3748.7367,N,12217.7431,W,0.36,26.69,220910,,,A*4D
$GPRMC,230149.000,A,3748.7365,N,12217.7439,W,0.72,31.82,220910,,,A*45
$GPRMC,230150.000,A,3748.7369,N,12217.7431,W,1.56,56.54,220910,,,A*44
$GPRMC,230151.000,A,3748.7362,N,12217.7431,W,0.98,63.00,220910,,,A*4A
$GPRMC,230152.000,A,3748.7355,N,12217.7434,W,0.49,157.58,220910,,,A*7F
$GPRMC,230153.000,A,3748.7352,N,12217.7434,W,0.41,238.31,220910,,,A*74
$GPRMC,230154.000,A,3748.7373,N,12217.7425,W,0.19,9.57,220910,,,A*7D
$GPRMC,230155.000,A,3748.7384,N,12217.7421,W,0.48,58.02,220910,,,A*40
$GPRMC,230156.000,A,3748.7371,N,12217.7421,W,0.31,233.07,220910,,,A*7D
$GPRMC,230157.000,A,3748.7367,N,12217.7410,W,0.39,57.07,220910,,,A*41
$GPRMC,230158.000,A,3748.7362,N,12217.7401,W,0.03,135.83,220910,,,A*7B
$GPRMC,230159.000,A,3748.7369,N,12217.7393,W,1.03,15.11,220910,,,A*44
$GPRMC,230200.000,A,3748.7372,N,12217.7396,W,1.07,17.89,220910,,,A*43
$GPRMC,230201.000,A,3748.7373,N,12217.7400,W,1.35,8.21,220910,,,A*76
$GPRMC,230202.000,A,3748.7374,N,12217.7409,W,0.93,295.18,220910,,,A*7A
$GPRMC,230203.000,A,3748.7377,N,12217.7408,W,0.44,16.42,220910,,,A*45
$GPRMC,230204.000,A,3748.7386,N,12217.7400,W,0.47,24.60,220910,,,A*46
$GPRMC,230205.000,A,3748.7396,N,12217.7390,W,0.75,3.29,220910,,,A*71
$GPRMC,230206.000,A,3748.7397,N,12217.7395,W,0.89,30.94,220910,,,A*43
$GPRMC,230207.000,A,3748.7410,N,12217.7385,W,1.19,31.44,220910,,,A*4F
$GPRMC,230208.000,A,3748.7412,N,12217.7388,W,1.21,35.94,220910,,,A*4D
$GPRMC,230209.000,A,3748.7414,N,12217.7389,W,1.19,32.48,220910,,,A*46
$GPRMC,230210.000,A,3748.7414,N,12217.7388,W,1.36,48.18,220910,,,A*4A
$GPRMC,230211.000,A,3748.7403,N,12217.7397,W,1.04,91.86,220910,,,A*41
$GPRMC,230212.000,A,3748.7386,N,12217.7410,W,1.56,135.54,220910,,,A*77
$GPRMC,230213.000,A,3748.7376,N,12217.7409,W,1.66,150.77,220910,,,A*70
$GPRMC,230214.000,A,3748.7370,N,12217.7406,W,1.81,167.56,220910,,,A*70
$GPRMC,230215.000,A,3748.7363,N,12217.7407,W,1.66,166.68,220910,,,A*77
$GPRMC,230216.000,A,3748.7360,N,12217.7408,W,0.65,157.01,220910,,,A*77
$GPRMC,230217.000,A,3748.7346,N,12217.7419,W,1.05,188.00,220910,,,A*76
$GPRMC,230218.000,A,3748.7333,N,12217.7428,W,1.58,192.72,220910,,,A*7F
$GPRMC,230219.000,A,3748.7321,N,12217.7437,W,1.32,182.74,220910,,,A*78
$GPRMC,230220.000,A,3748.7314,N,12217.7436,W,0.84,184.67,220910,,,A*7D
$GPRMC,230221.000,A,3748.7307,N,12217.7437,W,1.09,191.18,220910,,,A*77
$GPRMC,230222.000,A,3748.7289,N,12217.7452,W,1.02,185.51,220910,,,A*73
$GPRMC,230223.000,A,3748.7280,N,12217.7458,W,0.86,174.64,220910,,,A*74
$GPRMC,230224.000,A,3748.7272,N,12217.7462,W,0.91,175.61,220910,,,A*75
$GPRMC,230225.000,A,3748.7270,N,12217.7459,W,1.03,110.19,220910,,,A*78
$GPRMC,230226.000,A,3748.7275,N,12217.7446,W,0.53,113.52,220910,,,A*78
$GPRMC,230227.000,A,3748.7279,N,12217.7437,W,0.54,13.71,220910,,,A*44
$GPRMC,230228.000,A,3748.7292,N,12217.7421,W,1.29,61.64,220910,,,A*43
$GPRMC,230229.000,A,3748.7288,N,12217.7423,W,0.99,34.84,220910,,,A*4F
$GPRMC,230230.000,A,3748.7271,N,12217.7432,W,1.15,153.57,220910,,,A*7A
$GPRMC,230231.000,A,3748.7267,N,12217.7428,W,1.37,131.51,220910,,,A*75
$GPRMC,230232.000,A,3748.7257,N,12217.7428,W,1.42,156.85,220910,,,A*7F
$GPRMC,230233.000,A,3748.7245,N,12217.7429,W,1.65,150.90,220910,,,A*7B
$GPRMC,230234.000,A,3748.7226,N,12217.7437,W,1.77,156.69,220910,,,A*75
$GPRMC,230235.000,A,3748.7215,N,12217.7435,W,1.47,177.52,220910,,,A*7E
$GPRMC,230236.000,A,3748.7210,N,12217.7430,W,1.30,129.68,220910,,,A*7F
$GPRMC,230237.000,A,3748.7206,N,12217.7419,W,0.98,146.65,220910,,,A*75
$GPRMC,230238.000,A,3748.7212,N,12217.7404,W,0.69,140.99,220910,,,A*78
$GPRMC,230239.000,A,3748.7218,N,12217.7393,W,0.62,199.75,220910,,,A*77
$GPRMC,230240.000,A,3748.7216,N,12217.7386,W,1.09,202.49,220910,,,A*71
$GPRMC,230241.000,A,3748.7212,N,12217.7378,W,1.86,198.68,220910,,,A*71
$GPRMC,230242.000,A,3748.7211,N,12217.7376,W,2.44,176.35,220910,,,A*7A
$GPRMC,230243.000,A,3748.7209,N,12217.7374,W,2.54,161.83,220910,,,A*7A
$GPRMC,230244.000,A,3748.7210,N,12217.7365,W,2.00,151.34,220910,,,A*7B
$GPRMC,230245.000,A,3748.7220,N,12217.7346,W,1.79,142.63,220910,,,A*75
$GPRMC,230246.000,A,3748.7229,N,12217.7329,W,1.95,119.73,220910,,,A*7B
$GPRMC,230247.000,A,3748.7236,N,12217.7312,W,2.37,106.20,220910,,,A*7F
$GPRMC,230248.000,A,3748.7247,N,12217.7293,W,2.54,95.63,220910,,,A*47
$GPRMC,230249.000,A,3748.7253,N,12217.7283,W,2.13,93.05,220910,,,A*47
$GPRMC,230250.000,A,3748.7253,N,12217.7276,W,2.43,92.69,220910,,,A*4B
$GPRMC,230251.000,A,3748.7248,N,12217.7271,W,2.50,92.41,220910,,,A*4F
$GPRMC,230252.000,A,3748.7244,N,12217.7265,W,2.47,99.95,220910,,,A*41
$GPRMC,230253.000,A,3748.7240,N,12217.7259,W,2.47,98.26,220910,,,A*42
$GPRMC,230254.000,A,3748.7239,N,12217.7252,W,2.61,83.41,220910,,,A*4F
$GPRMC,230255.000,A,3748.7235,N,12217.7247,W,2.69,90.12,220910,,,A*4A
$GPRMC,230256.000,A,3748.7233,N,12217.7241,W,2.40,83.72,220910,,,A*46
$GPRMC,230257.000,A,3748.7235,N,12217.7233,W,1.96,78.19,220910,,,A*45
$GPRMC,230258.000,A,3748.7237,N,12217.7225,W,1.47,78.74,220910,,,A*48
$GPRMC,230259.000,A,3748.7238,N,12217.7220,W,0.94,102.69,220910,,,A*7C
$GPRMC,230300.000,A,3748.7240,N,12217.7213,W,1.80,108.75,220910,,,A*7D
$GPRMC,230301.000,A,3748.7242,N,12217.7205,W,1.68,111.26,220910,,,A*71
$GPRMC,230302.000,A,3748.7241,N,12217.7200,W,1.63,124.66,220910,,,A*7D
$GPRMC,230303.000,A,3748.7240,N,12217.7195,W,1.53,135.99,220910,,,A*71
$GPRMC,230304.000,A,3748.7240,N,12217.7191,W,1.17,134.55,220910,,,A*73
$GPRMC,230305.000,A,3748.7241,N,12217.7186,W,1.14,121.38,220910,,,A*79
$GPRMC,230306.000,A,3748.7247,N,12217.7180,W,0.77,57.01,220910,,,A*44
$GPRMC,230307.000,A,3748.7255,N,12217.7176,W,1.40,37.12,220910,,,A*4E
$GPRMC,230308.000,A,3748.7263,N,12217.7172,W,1.59,46.22,220910,,,A*4D
$GPRMC,230309.000,A,3748.7275,N,12217.7160,W,1.50,50.96,220910,,,A*49
$GPRMC,230310.000,A,3748.7282,N,12217.7155,W,1.02,53.24,220910,,,A*42
$GPRMC,230311.000,A,3748.7287,N,12217.7153,W,1.12,48.10,220910,,,A*4C
$GPRMC,230312.000,A,3748.7294,N,12217.7146,W,1.54,45.07,220910,,,A*40
$GPRMC,230313.000,A,3748.7301,N,12217.7139,W,1.07,44.15,220910,,,A*40
$GPRMC,230314.000,A,3748.7309,N,12217.7132,W,1.19,47.61,220910,,,A*4B
$GPRMC,230315.000,A,3748.7317,N,12217.7128,W,1.24,44.58,220910,,,A*49
$GPRMC,230316.000,A,3748.7323,N,12217.7123,W,1.19,39.35,220910,,,A*49
$GPRMC,230317.000,A,3748.7327,N,12217.7118,W,1.12,60.10,220910,,,A*44
$GPRMC,230318.000,A,3748.7329,N,12217.7113,W,1.25,77.85,220910,,,A*40
$GPRMC,230319.000,A,3748.7332,N,12217.7108,W,1.56,58.84,220910,,,A*49
$GPRMC,230320.000,A,3748.7331,N,12217.7113,W,1.06,38.13,220910,,,A*47
$GPRMC,230321.000,A,3748.7334,N,12217.7111,W,0.76,51.70,220910,,,A*4D
$GPRMC,230322.000,A,3748.7333,N,12217.7113,W,0.40,119.74,220910,,,A*77
$GPRMC,230323.000,A,3748.7331,N,12217.7116,W,0.22,123.67,220910,,,A*7E
$GPRMC,230324.000,A,3748.7333,N,12217.7115,W,0.33,124.11,220910,,,A*7E
$GPRMC,230325.000,A,3748.7336,N,12217.7114,W,0.77,38.99,220910,,,A*47
$GPRMC,230326.000,A,3748.7340,N,12217.7113,W,1.73,34.14,220910,,,A*4E
$GPRMC,230327.000,A,3748.7345,N,12217.7111,W,1.65,21.86,220910,,,A*40
$GPRMC,230328.000,A,3748.7351,N,12217.7111,W,1.54,16.76,220910,,,A*43
$GPRMC,230329.000,A,3748.7355,N,12217.7113,W,1.27,9.76,220910,,,A*7E
$GPRMC,230330.000,A,3748.7354,N,12217.7124,W,1.05,346.63,220910,,,A*7F
$GPRMC,230331.000,A,3748.7354,N,12217.7127,W,1.00,342.18,220910,,,A*70
$GPRMC,230332.000,A,3748.7352,N,12217.7129,W,0.76,313.62,220910,,,A*72
$GPRMC,230333.000,A,3748.7349,N,12217.7134,W,0.51,296.10,220910,,,A*79
$GPRMC,230334.000,A,3748.7344,N,12217.7139,W,0.38,278.63,220910,,,A*75
$GPRMC,230335.000,A,3748.7343,N,12217.7139,W,0.47,256.87,220910,,,A*7D
$GPRMC,230336.000,A,3748.7343,N,12217.7138,W,0.42,259.26,220910,,,A*7E
$GPRMC,230337.000,A,3748.7341,N,12217.7140,W,0.52,259.00,220910,,,A*77
$GPRMC,230338.000,A,3748.7339,N,12217.7144,W,0.61,249.87,220910,,,A*7D
$GPRMC,230339.000,A,3748.7338,N,12217.7144,W,0.56,233.64,220910,,,A*79
$GPRMC,230340.000,A,3748.7333,N,12217.7144,W,0.46,169.85,220910,,,A*7E
$GPRMC,230341.000,A,3748.7333,N,12217.7137,W,0.64,171.58,220910,,,A*72
$GPRMC,230342.000,A,3748.7335,N,12217.7125,W,0.61,146.01,220910,,,A*79
$GPRMC,230343.000,A,3748.7337,N,12217.7117,W,0.54,72.62,220910,,,A*4E
$GPRMC,230344.000,A,3748.7338,N,12217.7111,W,1.32,38.13,220910,,,A*49
$GPRMC,230345.000,A,3748.7338,N,12217.7110,W,1.59,31.42,220910,,,A*49
$GPRMC,230346.000,A,3748.7340,N,12217.7105,W,2.04,39.48,220910,,,A*48
$GPRMC,230347.000,A,3748.7337,N,12217.7101,W,1.82,32.01,220910,,,A*46
$GPRMC,230348.000,A,3748.7330,N,12217.7098,W,1.70,43.97,220910,,,A*4B
$GPRMC,230349.000,A,3748.7328,N,12217.7095,W,1.21,29.43,220910,,,A*4F
$GPRMC,230350.000,A,3748.7328,N,12217.7093,W,1.14,26.05,220910,,,A*4A
$GPRMC,230351.000,A,3748.7326,N,12217.7089,W,1.39,52.36,220910,,,A*42
$GPRMC,230352.000,A,3748.7317,N,12217.7088,W,1.22,47.26,220910,,,A*4D
$GPRMC,230353.000,A,3748.7309,N,12217.7086,W,0.89,28.37,220910,,,A*44
$GPRMC,230354.000,A,3748.7300,N,12217.7086,W,0.71,6.68,220910,,,A*7B
$GPRMC,230355.000,A,3748.7291,N,12217.7085,W,0.38,10.90,220910,,,A*4D
$GPRMC,230356.000,A,3748.7291,N,12217.7084,W,0.47,9.16,220910,,,A*71
$GPRMC,230357.000,A,3748.7296,N,12217.7077,W,1.07,62.19,220910,,,A*4C
$GPRMC,230358.000,A,3748.7300,N,12217.7072,W,0.88,37.72,220910,,,A*43
$GPRMC,230359.000,A,3748.7309,N,12217.7068,W,1.26,31.87,220910,,,A*49
$GPRMC,230400.000,A,3748.7317,N,12217.7068,W,1.35,19.04,220910,,,A*4E
$GPRMC,230401.000,A,3748.7323,N,12217.7068,W,1.20,15.44,220910,,,A*44
$GPRMC,230402.000,A,3748.7330,N,12217.7066,W,1.38,12.42,220910,,,A*43
$GPRMC,230403.000,A,3748.7332,N,12217.7066,W,1.33,20.56,220910,,,A*4F
$GPRMC,230404.000,A,3748.7334,N,12217.7058,W,1.27,16.64,220910,,,A*42
$GPRMC,230405.000,A,3748.7334,N,12217.7056,W,0.69,30.54,220910,,,A*41
$GPRMC,230406.000,A,3748.7334,N,12217.7052,W,1.22,40.20,220910,,,A*4C
$GPRMC,230407.000,A,3748.7332,N,12217.7048,W,1.50,52.37,220910,,,A*40
$GPRMC,230408.000,A,3748.7331,N,12217.7043,W,0.97,43.17,220910,,,A*4F
$GPRMC,230409.000,A,3748.7336,N,12217.7037,W,1.29,17.83,220910,,,A*42
$GPRMC,230410.000,A,3748.7334,N,12217.7030,W,1.32,28.09,220910,,,A*4B
$GPRMC,230411.000,A,3748.7341,N,12217.7026,W,1.21,28.44,220910,,,A*44
$GPRMC,230412.000,A,3748.7347,N,12217.7020,W,1.18,22.48,220910,,,A*4B
$GPRMC,230413.000,A,3748.7354,N,12217.7019,W,1.35,2.08,220910,,,A*7B
$GPRMC,230414.000,A,3748.7356,N,12217.7017,W,1.16,39.12,220910,,,A*42
$GPRMC,230415.000,A,3748.7357,N,12217.7013,W,1.56,57.35,220910,,,A*4F
$GPRMC,230416.000,A,3748.7361,N,12217.7010,W,1.06,40.53,220910,,,A*49
$GPRMC,230417.000,A,3748.7362,N,12217.7013,W,0.71,69.28,220910,,,A*4E
$GPRMC,230418.000,A,3748.7365,N,12217.7003,W,1.78,77.77,220910,,,A*4A
$GPRMC,230419.000,A,3748.7367,N,12217.6991,W,1.99,76.79,220910,,,A*4A
$GPRMC,230420.000,A,3748.7372,N,12217.6975,W,2.06,68.71,220910,,,A*4C
$GPRMC,230421.000,A,3748.7377,N,12217.6962,W,1.99,67.96,220910,,,A*4D
$GPRMC,230422.000,A,3748.7380,N,12217.6955,W,1.51,61.67,220910,,,A*4E
$GPRMC,230423.000,A,3748.7384,N,12217.6949,W,1.39,55.42,220910,,,A*48
$GPRMC,230424.000,A,3748.7388,N,12217.6943,W,1.50,60.76,220910,,,A*47
$GPRMC,230425.000,A,3748.7388,N,12217.6937,W,1.66,59.34,220910,,,A*4C
$GPRMC,230426.000,A,3748.7388,N,12217.6929,W,1.75,52.15,220910,,,A*4A
$GPRMC,230427.000,A,3748.7413,N,12217.6894,W,1.86,49.35,220910,,,A*4D
$GPRMC,230428.000,A,3748.7424,N,12217.6882,W,1.79,43.01,220910,,,A*4C
$GPRMC,230429.000,A,3748.7427,N,12217.6880,W,1.33,42.38,220910,,,A*49
$GPRMC,230430.000,A,3748.7433,N,12217.6874,W,1.51,50.87,220910,,,A*4C
$GPRMC,230431.000,A,3748.7440,N,12217.6864,W,2.01,35.30,220910,,,A*41
$GPRMC,230432.000,A,3748.7445,N,12217.6857,W,2.03,25.05,220910,,,A*42
$GPRMC,230433.000,A,3748.7452,N,12217.6854,W,1.50,16.92,220910,,,A*4D
$GPRMC,230434.000,A,3748.7456,N,12217.6855,W,0.67,16.54,220910,,,A*40
$GPRMC,230435.000,A,3748.7456,N,12217.6854,W,1.02,108.46,220910,,,A*7F
$GPRMC,230436.000,A,3748.7457,N,12217.6852,W,1.27,83.43,220910,,,A*4B
$GPRMC,230437.000,A,3748.7453,N,12217.6863,W,0.74,280.67,220910,,,A*7C
$GPRMC,230438.000,A,3748.7453,N,12217.6868,W,0.77,295.62,220910,,,A*7A
$GPRMC,230439.000,A,3748.7455,N,12217.6871,W,0.95,308.21,220910,,,A*7B
$GPRMC,230440.000,A,3748.7458,N,12217.6870,W,0.82,356.98,220910,,,A*76
$GPRMC,230441.000,A,3748.7464,N,12217.6864,W,1.60,36.16,220910,,,A*43
$GPRMC,230442.000,A,3748.7470,N,12217.6860,W,1.78,36.25,220910,,,A*48
$GPRMC,230443.000,A,3748.7476,N,12217.6855,W,2.00,44.71,220910,,,A*41
$GPRMC,230444.000,A,3748.7482,N,12217.6849,W,2.51,35.15,220910,,,A*40
$GPRMC,230445.000,A,3748.7490,N,12217.6846,W,2.57,17.99,220910,,,A*4F
$GPRMC,230446.000,A,3748.7496,N,12217.6842,W,2.30,24.46,220910,,,A*4D
$GPRMC,230447.000,A,3748.7500,N,12217.6836,W,2.15,29.68,220910,,,A*47
$GPRMC,230448.000,A,3748.7507,N,12217.6831,W,2.15,28.21,220910,,,A*44
$GPRMC,230449.000,A,3748.7513,N,12217.6828,W,1.92,24.04,220910,,,A*4F
$GPRMC,230450.000,A,3748.7518,N,12217.6826,W,1.90,25.68,220910,,,A*4B
$GPRMC,230451.000,A,3748.7522,N,12217.6819,W,2.05,46.02,220910,,,A*49
$GPRMC,230452.000,A,3748.7527,N,12217.6813,W,1.86,58.24,220910,,,A*46
$GPRMC,230453.000,A,3748.7530,N,12217.6808,W,1.67,34.48,220910,,,A*44
$GPRMC,230454.000,A,3748.7533,N,12217.6803,W,1.43,10.70,220910,,,A*40
$GPRMC,230455.000,A,3748.7536,N,12217.6798,W,0.94,356.63,220910,,,A*71
$GPRMC,230456.000,A,3748.7538,N,12217.6796,W,0.67,319.18,220910,,,A*79
$GPRMC,230457.000,A,3748.7540,N,12217.6801,W,0.34,295.36,220910,,,A*79
$GPRMC,230458.000,A,3748.7544,N,12217.6806,W,0.42,265.76,220910,,,A*7F
$GPRMC,230459.000,A,3748.7547,N,12217.6810,W,1.13,263.69,220910,,,A*77
$GPRMC,230500.000,A,3748.7546,N,12217.6819,W,0.44,278.28,220910,,,A*7E
$GPRMC,230501.000,A,3748.7546,N,12217.6815,W,0.55,53.62,220910,,,A*46
$GPRMC,230502.000,A,3748.7548,N,12217.6811,W,1.16,49.10,220910,,,A*47
$GPRMC,230503.000,A,3748.7550,N,12217.6808,W,0.58,43.68,220910,,,A*49
$GPRMC,230504.000,A,3748.7554,N,12217.6808,W,0.50,69.42,220910,,,A*42
$GPRMC,230505.000,A,3748.7558,N,12217.6807,W,0.71,34.81,220910,,,A*44
$GPRMC,230506.000,A,3748.7564,N,12217.6809,W,0.79,11.77,220910,,,A*40
$GPRMC,230507.000,A,3748.7573,N,12217.6801,W,0.73,22.41,220910,,,A*40
$GPRMC,230508.000,A,3748.7581,N,12217.6798,W,1.27,353.78,220910,,,A*72
$GPRMC,230509.000,A,3748.7588,N,12217.6792,W,1.31,13.66,220910,,,A*4F
$GPRMC,230510.000,A,3748.7592,N,12217.6787,W,1.14,25.38,220910,,,A*41
$GPRMC,230511.000,A,3748.7595,N,12217.6782,W,1.31,57.66,220910,,,A*4B
$GPRMC,230512.000,A,3748.7595,N,12217.6774,W,0.84,55.36,220910,,,A*49
$GPRMC,230513.000,A,3748.7592,N,12217.6766,W,0.90,64.44,220910,,,A*4E
$GPRMC,230514.000,A,3748.7591,N,12217.6759,W,1.21,72.93,220910,,,A*40
$GPRMC,230515.000,A,3748.7589,N,12217.6759,W,0.18,68.54,220910,,,A*43
$GPRMC,230516.000,A,3748.7584,N,12217.6763,W,0.21,172.06,220910,,,A*73
$GPRMC,230517.000,A,3748.7583,N,12217.6765,W,0.33,223.09,220910,,,A*78
$GPRMC,230518.000,A,3748.7583,N,12217.6762,W,0.25,66.98,220910,,,A*4C
$GPRMC,230519.000,A,3748.7583,N,12217.6759,W,0.67,48.05,220910,,,A*4B
$GPRMC,230520.000,A,3748.7582,N,12217.6756,W,0.40,32.12,220910,,,A*41
$GPRMC,230521.000,A,3748.7585,N,12217.6758,W,0.15,297.46,220910,,,A*75
$GPRMC,230522.000,A,3748.7589,N,12217.6759,W,0.11,74.80,220910,,,A*4A
$GPRMC,230523.000,A,3748.7590,N,12217.6755,W,0.31,49.05,220910,,,A*4E
$GPRMC,230524.000,A,3748.7590,N,12217.6747,W,0.30,95.24,220910,,,A*49
$GPRMC,230525.000,A,3748.7591,N,12217.6743,W,0.07,39.62,220910,,,A*4D
$GPRMC,230526.000,A,3748.7590,N,12217.6743,W,0.21,263.86,220910,,,A*7C
$GPRMC,230527.000,A,3748.7587,N,12217.6741,W,0.75,135.12,220910,,,A*75
$GPRMC,230528.000,A,3748.7585,N,12217.6739,W,1.01,110.73,220910,,,A*75
$GPRMC,230529.000,A,3748.7582,N,12217.6737,W,1.31,125.85,220910,,,A*71
$GPRMC,230530.000,A,3748.7578,N,12217.6733,W,1.44,129.98,220910,,,A*7A
$GPRMC,230531.000,A,3748.7576,N,12217.6731,W,1.28,121.73,220910,,,A*70
$GPRMC,230532.000,A,3748.7573,N,12217.6734,W,0.17,170.32,220910,,,A*7F
$GPRMC,230533.000,A,3748.7571,N,12217.6728,W,0.35,99.97,220910,,,A*48
$GPRMC,230534.000,A,3748.7572,N,12217.6728,W,0.75,67.70,220910,,,A*40
$GPRMC,230535.000,A,3748.7575,N,12217.6728,W,0.94,28.60,220910,,,A*43
$GPRMC,230536.000,A,3748.7576,N,12217.6724,W,0.36,35.75,220910,,,A*4F
$GPRMC,230537.000,A,3748.7576,N,12217.6717,W,0.63,8.02,220910,,,A*70
$GPRMC,230538.000,A,3748.7575,N,12217.6708,W,0.86,83.70,220910,,,A*4F
$GPRMC,230539.000,A,3748.7575,N,12217.6705,W,0.78,77.20,220910,,,A*4C
$GPRMC,230540.000,A,3748.7574,N,12217.6704,W,0.59,108.13,220910,,,A*78
$GPRMC,230541.000,A,3748.7572,N,12217.6704,W,0.88,134.24,220910,,,A*78
$GPRMC,230542.000,A,3748.7567,N,12217.6708,W,0.73,124.68,220910,,,D*7B
$GPRMC,230543.000,A,3748.7563,N,12217.6710,W,0.94,115.27,220910,,,D*77
$GPRMC,230544.000,A,3748.7563,N,12217.6709,W,0.79,76.74,220910,,,D*49
$GPRMC,230545.000,A,3748.7564,N,12217.6711,W,0.11,22.85,220910,,,D*47
$GPRMC,230546.000,A,3748.7565,N,12217.6713,W,0.25,291.42,220910,,,D*71
$GPRMC,230547.000,A,3748.7567,N,12217.6708,W,0.25,26.56,220910,,,D*43
$GPRMC,230548.000,A,3748.7568,N,12217.6705,W,0.26,23.11,220910,,,D*4B
$GPRMC,230549.000,A,3748.7568,N,12217.6702,W,0.18,32.15,220910,,,D*44
$GPRMC,230550.000,A,3748.7569,N,12217.6702,W,0.16,346.33,220910,,,D*77
$GPRMC,230551.000,A,3748.7568,N,12217.6699,W,0.16,0.60,220910,,,D*73
$GPRMC,230552.000,A,3748.7568,N,12217.6697,W,0.13,78.51,220910,,,D*46
$GPRMC,230553.000,A,3748.7567,N,12217.6692,W,0.34,77.51,220910,,,D*47
$GPRMC,230554.000,A,3748.7567,N,12217.6687,W,0.31,47.24,220910,,,D*40
$GPRMC,230555.000,A,3748.7566,N,12217.6681,W,0.41,66.21,220910,,,D*47
$GPRMC,230556.000,A,3748.7565,N,12217.6676,W,0.14,57.05,220910,,,D*4B
$GPRMC,230557.000,A,3748.7565,N,12217.6675,W,0.06,26.82,220910,,,D*43
$GPRMC,230558.000,A,3748.7567,N,12217.6678,W,0.29,290.26,220910,,,D*7F
$GPRMC,230559.000,A,3748.7567,N,12217.6679,W,0.28,315.24,220910,,,D*70
$GPRMC,230600.000,A,3748.7569,N,12217.6683,W,0.60,293.87,220910,,,D*7E
$GPRMC,230601.000,A,3748.7569,N,12217.6681,W,0.30,326.62,220910,,,D*7C
$GPRMC,230602.000,A,3748.7570,N,12217.6685,W,0.22,281.94,220910,,,D*75
$GPRMC,230603.000,A,3748.7571,N,12217.6686,W,0.33,64.73,220910,,,D*46
$GPRMC,230604.000,A,3748.7569,N,12217.6680,W,0.38,76.46,220910,,,D*40
$GPRMC,230605.000,A,3748.7570,N,12217.6681,W,0.20,8.33,220910,,,D*7A
$GPRMC,230606.000,A,3748.7570,N,12217.6678,W,0.28,13.10,220910,,,D*4C
$GPRMC,230607.000,A,3748.7571,N,12217.6681,W,0.25,293.31,220910,,,D*7E
$GPRMC,230608.000,A,3748.7571,N,12217.6678,W,0.31,333.37,220910,,,D*7F
$GPRMC,230609.000,A,3748.7571,N,12217.6675,W,0.17,355.53,220910,,,D*75
$GPRMC,230610.000,A,3748.7573,N,12217.6679,W,0.19,300.43,220910,,,D*7C
$GPRMC,230611.000,A,3748.7573,N,12217.6678,W,0.27,308.68,220910,,,D*70
$GPRMC,230612.000,A,3748.7574,N,12217.6680,W,0.25,328.49,220910,,,D*70
$GPRMC,230613.000,A,3748.7575,N,12217.6681,W,0.53,42.02,220910,,,D*40
$GPRMC,230614.000,A,3748.7578,N,12217.6676,W,1.03,31.31,220910,,,D*42
$GPRMC,230615.000,A,3748.7578,N,12217.6670,W,0.50,81.41,220910,,,D*4E
$GPRMC,230616.000,A,3748.7582,N,12217.6668,W,0.32,296.88,220910,,,D*74
$GPRMC,230617.000,A,3748.7583,N,12217.6662,W,0.13,237.34,220910,,,D*71
$GPRMC,230618.000,A,3748.7582,N,12217.6651,W,0.04,50.97,220910,,,D*43
$GPRMC,230619.000,A,3748.7581,N,12217.6642,W,0.16,93.38,220910,,,D*4A
$GPRMC,230620.000,A,3748.7582,N,12217.6644,W,0.08,272.91,220910,,,D*74
$GPRMC,230621.000,A,3748.7583,N,12217.6645,W,0.22,268.79,220910,,,D*70
$GPRMC,230622.000,A,3748.7583,N,12217.6644,W,0.22,278.91,220910,,,D*75
$GPRMC,230623.000,A,3748.7583,N,12217.6643,W,0.05,61.94,220910,,,D*49
$GPRMC,230624.000,A,3748.7584,N,12217.6646,W,0.20,343.20,220910,,,D*77
$GPRMC,230625.000,A,3748.7586,N,12217.6650,W,0.39,336.74,220910,,,D*78
$GPRMC,230626.000,A,3748.7587,N,12217.6655,W,0.26,326.57,220910,,,D*71
$GPRMC,230627.000,A,3748.7589,N,12217.6660,W,0.18,19.65,220910,,,D*4B
$GPRMC,230628.000,A,3748.7592,N,12217.6660,W,0.19,31.44,220910,,,D*46
$GPRMC,230629.000,A,3748.7595,N,12217.6663,W,0.13,6.51,220910,,,D*79
$GPRMC,230630.000,A,3748.7599,N,12217.6666,W,0.41,341.31,220910,,,D*79
$GPRMC,230631.000,A,3748.7605,N,12217.6671,W,0.63,21.34,220910,,,D*48
$GPRMC,230632.000,A,3748.7610,N,12217.6675,W,0.29,10.34,220910,,,D*47
$GPRMC,230633.000,A,3748.7614,N,12217.6679,W,0.14,18.05,220910,,,D*4A
$GPRMC,230634.000,A,3748.7613,N,12217.6681,W,0.20,87.61,220910,,,D*4E
$GPRMC,230635.000,A,3748.7612,N,12217.6682,W,0.34,106.53,220910,,,D*71
$GPRMC,230636.000,A,3748.7611,N,12217.6684,W,0.04,141.33,220910,,,D*71
$GPRMC,230637.000,A,3748.7610,N,12217.6685,W,0.11,69.23,220910,,,D*4E
$GPRMC,230638.000,A,3748.7609,N,12217.6686,W,0.09,298.85,220910,,,D*73
$GPRMC,230639.000,A,3748.7607,N,12217.6687,W,0.08,5.76,220910,,,D*76
$GPRMC,230640.000,A,3748.7607,N,12217.6688,W,0.22,84.25,220910,,,D*40
$GPRMC,230641.000,A,3748.7608,N,12217.6687,W,0.36,88.21,220910,,,D*4C
$GPRMC,230642.000,A,3748.7610,N,12217.6687,W,0.32,314.35,220910,,,D*71
$GPRMC,230643.000,A,3748.7609,N,12217.6685,W,0.21,82.33,220910,,,D*42
$GPRMC,230644.000,A,3748.7609,N,12217.6682,W,0.27,93.80,220910,,,D*4C
$GPRMC,230645.000,A,3748.7610,N,12217.6682,W,0.10,351.97,220910,,,D*7A
$GPRMC,230646.000,A,3748.7610,N,12217.6688,W,0.65,274.72,220910,,,D*7C
$GPRMC,230647.000,A,3748.7609,N,12217.6691,W,0.58,286.01,220910,,,D*7A
$GPRMC,230648.000,A,3748.7606,N,12217.6691,W,0.49,265.55,220910,,,D*76
$GPRMC,230649.000,A,3748.7605,N,12217.6695,W,0.91,274.03,220910,,,D*76
$GPRMC,230650.000,A,3748.7603,N,12217.6696,W,0.28,324.94,220910,,,D*73
$GPRMC,230651.000,A,3748.7601,N,12217.6692,W,0.69,79.14,220910,,,D*42
$GPRMC,230652.000,A,3748.7598,N,12217.6689,W,0.16,308.02,220910,,,D*72
$GPRMC,230653.000,A,3748.7598,N,12217.6693,W,0.68,280.44,220910,,,D*72
$GPRMC,230654.000,A,3748.7596,N,12217.6696,W,0.48,283.40,220910,,,D*7B
$GPRMC,230655.000,A,3748.7595,N,12217.6696,W,0.19,357.22,220910,,,D*71
$GPRMC,230656.000,A,3748.7592,N,12217.6689,W,0.17,92.26,220910,,,D*4B
$GPRMC,230657.000,A,3748.7589,N,12217.6686,W,0.19,1.73,220910,,,D*7B
$GPRMC,230658.000,A,3748.7586,N,12217.6679,W,0.05,32.24,220910,,,D*44
$GPRMC,230659.000,A,3748.7584,N,12217.6675,W,0.13,313.16,220910,,,D*7D
$GPRMC,230700.000,A,3748.7583,N,12217.6669,W,0.26,44.59,220910,,,D*46
$GPRMC,230701.000,A,3748.7581,N,12217.6663,W,0.45,320.43,220910,,,D*70
$GPRMC,230702.000,A,3748.7582,N,12217.6662,W,0.09,308.52,220910,,,D*73
$GPRMC,230703.000,A,3748.7583,N,12217.6662,W,0.13,255.83,220910,,,D*7D
$GPRMC,230704.000,A,3748.7588,N,12217.6670,W,0.79,289.73,220910,,,D*70
$GPRMC,230705.000,A,3748.7592,N,12217.6682,W,1.62,300.24,220910,,,D*7E
$GPRMC,230706.000,A,3748.7596,N,12217.6692,W,1.62,303.74,220910,,,D*7E
$GPRMC,230707.000,A,3748.7598,N,12217.6700,W,1.27,279.14,220910,,,D*70
$GPRMC,230708.000,A,3748.7600,N,12217.6707,W,1.26,271.01,220910,,,D*77
$GPRMC,230709.000,A,3748.7603,N,12217.6713,W,1.40,276.39,220910,,,D*7C
$GPRMC,230710.000,A,3748.7605,N,12217.6717,W,1.40,279.29,220910,,,D*78
$GPRMC,230711.000,A,3748.7609,N,12217.6722,W,1.51,290.46,220910,,,D*7D
$GPRMC,230712.000,A,3748.7612,N,12217.6726,W,0.61,321.02,220910,,,D*79
$GPRMC,230713.000,A,3748.7615,N,12217.6729,W,0.08,300.58,220910,,,D*73
$GPRMC,230714.000,A,3748.7616,N,12217.6730,W,0.10,130.64,220910,,,D*78
$GPRMC,230715.000,A,3748.7617,N,12217.6732,W,0.16,52.07,220910,,,D*4C
$GPRMC,230716.000,A,3748.7618,N,12217.6734,W,0.20,32.77,220910,,,D*42
$GPRMC,230717.000,A,3748.7618,N,12217.6737,W,0.19,72.51,220910,,,D*4A
$GPRMC,230718.000,A,3748.7619,N,12217.6742,W,0.11,291.09,220910,,,D*7C
$GPRMC,230719.000,A,3748.7619,N,12217.6745,W,0.06,335.38,220910,,,A*74
$GPRMC,230720.000,A,3748.7617,N,12217.6748,W,0.29,258.47,220910,,,A*72
$GPRMC,230721.000,A,3748.7618,N,12217.6755,W,0.35,306.34,220910,,,A*73
$GPRMC,230722.000,A,3748.7619,N,12217.6762,W,0.42,314.60,220910,,,A*77
$GPRMC,230723.000,A,3748.7620,N,12217.6767,W,0.23,346.42,220910,,,A*79
$GPRMC,230724.000,A,3748.7619,N,12217.6768,W,0.29,87.12,220910,,,A*4A
$GPRMC,230725.000,A,3748.7618,N,12217.6769,W,0.23,59.65,220910,,,A*42
$GPRMC,230726.000,A,3748.7615,N,12217.6765,W,0.21,81.48,220910,,,A*48
$GPRMC,230727.000,A,3748.7613,N,12217.6763,W,0.23,83.74,220910,,,A*46
$GPRMC,230728.000,A,3748.7610,N,12217.6760,W,0.17,294.24,220910,,,A*7F
$GPRMC,230729.000,A,3748.7608,N,12217.6757,W,0.19,283.15,220910,,,A*79
$GPRMC,230730.000,A,3748.7607,N,12217.6757,W,0.21,280.06,220910,,,A*74
$GPRMC,230731.000,A,3748.7605,N,12217.6757,W,0.25,88.87,220910,,,A*40
$GPRMC,230732.000,A,3748.7603,N,12217.6750,W,0.10,74.94,220910,,,A*45
$GPRMC,230733.000,A,3748.7600,N,12217.6744,W,0.06,343.67,220910,,,A*7E
$GPRMC,230734.000,A,3748.7601,N,12217.6749,W,0.12,322.40,220910,,,A*72
$GPRMC,230735.000,A,3748.7602,N,12217.6758,W,0.23,297.31,220910,,,A*7B
$GPRMC,230736.000,A,3748.7603,N,12217.6762,W,0.09,2.40,220910,,,A*70
$GPRMC,230737.000,A,3748.7604,N,12217.6767,W,0.11,41.80,220910,,,A*41
$GPRMC,230738.000,A,3748.7604,N,12217.6771,W,0.11,338.92,220910,,,A*77
$GPRMC,230739.000,A,3748.7605,N,12217.6775,W,0.24,305.75,220910,,,A*72
$GPRMC,230740.000,A,3748.7605,N,12217.6777,W,0.13,20.12,220910,,,A*4F
$GPRMC,230741.000,A,3748.7606,N,12217.6784,W,0.14,313.67,220910,,,A*77
$GPRMC,230742.000,A,3748.7608,N,12217.6793,W,0.38,299.05,220910,,,A*75
$GPRMC,230743.000,A,3748.7608,N,12217.6795,W,0.31,308.65,220910,,,A*74
$GPRMC,230744.000,A,3748.7609,N,12217.6799,W,0.33,305.33,220910,,,A*72
$GPRMC,230745.000,A,3748.7609,N,12217.6804,W,0.23,307.16,220910,,,A*7C
$GPRMC,230746.000,A,3748.7610,N,12217.6808,W,0.15,325.24,220910,,,A*7F
$GPRMC,230747.000,A,3748.7611,N,12217.6816,W,0.37,300.46,220910,,,A*73
$GPRMC,230748.000,A,3748.7610,N,12217.6812,W,0.29,310.00,220910,,,A*75
$GPRMC,230749.000,A,3748.7609,N,12217.6807,W,0.17,326.11,220910,,,A*70
$GPRMC,230750.000,A,3748.7608,N,12217.6802,W,0.24,74.59,220910,,,A*44
$GPRMC,230751.000,A,3748.7607,N,12217.6799,W,0.15,56.96,220910,,,A*46
$GPRMC,230752.000,A,3748.7606,N,12217.6794,W,0.15,341.51,220910,,,A*77
$GPRMC,230753.000,A,3748.7605,N,12217.6794,W,0.29,264.67,220910,,,A*79
$GPRMC,230754.000,A,3748.7604,N,12217.6789,W,0.16,173.31,220910,,,A*79
$GPRMC,230755.000,A,3748.7603,N,12217.6786,W,0.54,86.42,220910,,,A*49
$GPRMC,230756.000,A,3748.7601,N,12217.6777,W,1.09,72.33,220910,,,A*42
$GPRMC,230757.000,A,3748.7601,N,12217.6771,W,1.02,101.51,220910,,,A*7F
$GPRMC,230758.000,A,3748.7597,N,12217.6760,W,1.00,115.38,220910,,,A*74
$GPRMC,230759.000,A,3748.7594,N,12217.6755,W,0.69,172.51,220910,,,A*70
$GPRMC,230800.000,A,3748.7588,N,12217.6753,W,0.58,164.96,220910,,,D*73
$GPRMC,230801.000,A,3748.7582,N,12217.6750,W,0.45,178.05,220910,,,D*70
$GPRMC,230802.000,A,3748.7580,N,12217.6748,W,0.05,18.10,220910,,,D*4F
$GPRMC,230803.000,A,3748.7579,N,12217.6749,W,0.39,239.85,220910,,,D*7B
$GPRMC,230804.000,A,3748.7579,N,12217.6748,W,0.23,238.47,220910,,,D*79
$GPRMC,230805.000,A,3748.7578,N,12217.6745,W,0.12,25.49,220910,,,D*46
$GPRMC,230806.000,A,3748.7578,N,12217.6739,W,0.33,86.36,220910,,,D*4C
$GPRMC,230807.000,A,3748.7578,N,12217.6734,W,0.11,76.94,220910,,,D*47
$GPRMC,230808.000,A,3748.7579,N,12217.6736,W,0.10,253.01,220910,,,D*73
$GPRMC,230809.000,A,3748.7579,N,12217.6731,W,0.69,118.78,220910,,,D*79
$GPRMC,230810.000,A,3748.7579,N,12217.6728,W,0.24,103.31,220910,,,D*77
$GPRMC,230811.000,A,3748.7580,N,12217.6726,W,0.60,97.77,220910,,,D*40
$GPRMC,230812.000,A,3748.7581,N,12217.6723,W,0.88,79.95,220910,,,D*4D
$GPRMC,230813.000,A,3748.7582,N,12217.6722,W,0.67,95.95,220910,,,D*4D
$GPRMC,230814.000,A,3748.7582,N,12217.6722,W,0.79,130.92,220910,,,D*7C
$GPRMC,230815.000,A,3748.7579,N,12217.6719,W,0.83,137.45,220910,,,D*79
$GPRMC,230816.000,A,3748.7578,N,12217.6720,W,0.93,119.72,220910,,,D*78
$GPRMC,230817.000,A,3748.7578,N,12217.6721,W,0.59,149.29,220910,,,D*75
$GPRMC,230818.000,A,3748.7577,N,12217.6722,W,0.52,153.51,220910,,,D*79
$GPRMC,230819.000,A,3748.7576,N,12217.6724,W,0.23,130.97,220910,,,D*76
$GPRMC,230820.000,A,3748.7577,N,12217.6725,W,0.30,11.05,220910,,,D*47
$GPRMC,230821.000,A,3748.7578,N,12217.6724,W,0.34,27.69,220910,,,D*43
$GPRMC,230822.000,A,3748.7580,N,12217.6722,W,0.29,51.87,220910,,,D*4C
$GPRMC,230823.000,A,3748.7581,N,12217.6723,W,0.05,138.24,220910,,,D*74
$GPRMC,230824.000,A,3748.7582,N,12217.6724,W,0.20,180.84,220910,,,D*79
$GPRMC,230825.000,A,3748.7583,N,12217.6725,W,0.23,12.92,220910,,,D*46
$GPRMC,230826.000,A,3748.7585,N,12217.6724,W,0.22,22.26,220910,,,D*4F
$GPRMC,230827.000,A,3748.7586,N,12217.6721,W,0.32,24.96,220910,,,D*44
$GPRMC,230828.000,A,3748.7587,N,12217.6720,W,0.26,52.78,220910,,,D*4F
$GPRMC,230829.000,A,3748.7588,N,12217.6720,W,0.27,24.62,220910,,,D*4A
$GPRMC,230830.000,A,3748.7588,N,12217.6719,W,0.21,12.98,220910,,,D*4E
$GPRMC,230831.000,A,3748.7589,N,12217.6719,W,0.03,270.44,220910,,,D*79
