$ADVER,3080,2.3
$GPRMC,232904.820,A,3748.7801,N,12217.8648,W,0.12,132.12,210812,,,A*73
$GPRMC,232905.820,A,3748.7830,N,12217.8661,W,0.11,124.83,210812,,,A*77
$GPRMC,232906.820,A,3748.7840,N,12217.8666,W,0.08,105.42,210812,,,A*72
$GPRMC,232907.000,A,3748.7850,N,12217.8670,W,0.12,130.16,210812,,,A*73
$GPRMC,232908.000,A,3748.7852,N,12217.8671,W,0.10,121.90,210812,,,A*73
$GPRMC,232909.000,A,3748.7854,N,12217.8672,W,0.06,97.96,210812,,,A*4A
$GPRMC,232910.000,A,3748.7856,N,12217.8673,W,0.09,117.49,210812,,,A*75
$GPRMC,232911.000,A,3748.7857,N,12217.8674,W,0.09,110.99,210812,,,A*78
$GPRMC,232912.000,A,3748.7858,N,12217.8674,W,0.14,106.66,210812,,,A*7F
$GPRMC,232913.000,A,3748.7859,N,12217.8674,W,0.15,111.57,210812,,,A*7A
$GPRMC,232914.000,A,3748.7860,N,12217.8674,W,0.06,148.89,210812,,,A*7A
$GPRMC,232915.000,A,3748.7860,N,12217.8675,W,0.06,117.91,210812,,,A*79
$GPRMC,232916.000,A,3748.7861,N,12217.8675,W,0.09,130.97,210812,,,A*77
$GPRMC,232917.000,A,3748.7862,N,12217.8676,W,0.06,113.05,210812,,,A*73
$GPRMC,232918.000,A,3748.7863,N,12217.8676,W,0.08,116.09,210812,,,A*7A
$GPRMC,232919.000,A,3748.7863,N,12217.8676,W,0.05,109.88,210812,,,A*71
$GPRMC,232920.000,A,3748.7864,N,12217.8677,W,0.08,115.66,210812,,,A*7D
$GPRMC,232921.000,A,3748.7865,N,12217.8677,W,0.07,110.51,210812,,,A*73
$GPRMC,232922.000,A,3748.7866,N,12217.8678,W,0.05,124.55,210812,,,A*7D
$GPRMC,232923.000,A,3748.7866,N,12217.8679,W,0.10,127.83,210812,,,A*71
$GPRMC,232924.000,A,3748.7867,N,12217.8679,W,0.18,116.23,210812,,,A*77
$GPRMC,232925.000,A,3748.7867,N,12217.8679,W,0.08,106.39,210812,,,A*7D
$GPRMC,232926.000,A,3748.7868,N,12217.8680,W,0.05,250.09,210812,,,A*79
$GPRMC,232927.000,A,3748.7869,N,12217.8681,W,0.04,73.42,210812,,,A*45
$GPRMC,232928.000,A,3748.7870,N,12217.8682,W,0.08,345.67,210812,,,A*7C
$GPRMC,232929.000,A,3748.7869,N,12217.8683,W,0.33,189.12,210812,,,A*7C
$GPRMC,232930.000,A,3748.7869,N,12217.8685,W,0.35,179.02,210812,,,A*7A
$GPRMC,232931.000,A,3748.7869,N,12217.8690,W,0.28,184.43,210812,,,A*74
$GPRMC,232932.000,A,3748.7870,N,12217.8693,W,0.32,335.33,210812,,,A*78
$GPRMC,232933.000,A,3748.7871,N,12217.8702,W,0.39,329.40,210812,,,A*73
$GPRMC,232934.000,A,3748.7874,N,12217.8704,W,0.15,98.64,210812,,,A*46
$GPRMC,232935.000,A,3748.7878,N,12217.8708,W,0.04,305.98,210812,,,A*73
$GPRMC,232936.000,A,3748.7882,N,12217.8713,W,0.49,266.80,210812,,,A*7B
$GPRMC,232937.000,A,3748.7887,N,12217.8719,W,0.25,290.33,210812,,,A*7E
$GPRMC,232938.000,A,3748.7893,N,12217.8732,W,0.38,316.77,210812,,,A*7E
$GPRMC,232939.000,A,3748.7892,N,12217.8744,W,0.89,268.40,210812,,,A*79
$GPRMC,232940.000,A,3748.7890,N,12217.8753,W,1.05,223.68,210812,,,A*73
$GPRMC,232941.000,A,3748.7889,N,12217.8747,W,1.37,159.15,210812,,,A*7A
$GPRMC,232942.000,A,3748.7889,N,12217.8741,W,0.51,160.30,210812,,,A*73
$GPRMC,232943.000,A,3748.7892,N,12217.8734,W,0.70,86.28,210812,,,A*49
$GPRMC,232944.000,A,3748.7890,N,12217.8738,W,1.04,167.89,210812,,,A*77
$GPRMC,232945.000,A,3748.7886,N,12217.8744,W,1.45,195.33,210812,,,A*73
$GPRMC,232946.000,A,3748.7880,N,12217.8747,W,2.01,185.20,210812,,,A*75
$GPRMC,232947.000,A,3748.7872,N,12217.8748,W,2.17,185.10,210812,,,A*72
$GPRMC,232948.000,A,3748.7865,N,12217.8751,W,2.32,183.24,210812,,,A*75
$GPRMC,232949.000,A,3748.7858,N,12217.8751,W,1.95,169.73,210812,,,D*77
$GPRMC,232950.000,A,3748.7854,N,12217.8756,W,1.38,178.51,210812,,,D*73
$GPRMC,232951.000,A,3748.7850,N,12217.8757,W,1.42,161.89,210812,,,D*77
$GPRMC,232952.000,A,3748.7847,N,12217.8756,W,1.08,135.43,210812,,,D*7A
$GPRMC,232953.000,A,3748.7846,N,12217.8756,W,0.27,163.75,210812,,,D*70
$GPRMC,232954.000,A,3748.7845,N,12217.8760,W,0.25,56.44,210812,,,D*46
$GPRMC,232955.000,A,3748.7846,N,12217.8768,W,0.13,27.23,210812,,,D*4E
$GPRMC,232956.000,A,3748.7846,N,12217.8769,W,0.53,267.82,210812,,,D*75
$GPRMC,232957.000,A,3748.7845,N,12217.8772,W,0.72,166.66,210812,,,D*76
$GPRMC,232958.000,A,3748.7844,N,12217.8781,W,0.55,202.38,210812,,,D*7B
$GPRMC,232959.000,A,3748.7843,N,12217.8781,W,1.06,148.15,210812,,,D*78
$GPRMC,233000.000,A,3748.7841,N,12217.8775,W,1.08,141.37,210812,,,D*72
$GPRMC,233001.000,A,3748.7842,N,12217.8767,W,0.63,90.36,210812,,,D*43
$GPRMC,233002.000,A,3748.7841,N,12217.8761,W,0.48,119.88,210812,,,D*79
$GPRMC,233003.000,A,3748.7841,N,12217.8756,W,0.32,88.14,210812,,,D*4D
$GPRMC,233004.000,A,3748.7842,N,12217.8752,W,0.22,75.32,210812,,,D*4A
$GPRMC,233005.000,A,3748.7842,N,12217.8750,W,0.72,0.10,210812,,,D*7E
$GPRMC,233006.000,A,3748.7845,N,12217.8746,W,1.16,23.14,210812,,,D*4B
$GPRMC,233007.000,A,3748.7847,N,12217.8744,W,1.01,345.58,210812,,,D*77
$GPRMC,233008.000,A,3748.7847,N,12217.8746,W,0.39,249.88,210812,,,D*70
$GPRMC,233009.000,A,3748.7846,N,12217.8747,W,0.33,183.20,210812,,,D*7C
$GPRMC,233010.000,A,3748.7846,N,12217.8754,W,0.50,261.64,210812,,,D*7C
$GPRMC,233011.000,A,3748.7845,N,12217.8755,W,0.19,97.56,210812,,,D*48
$GPRMC,233012.000,A,3748.7843,N,12217.8752,W,0.21,115.25,210812,,,A*7B
$GPRMC,233013.000,A,3748.7842,N,12217.8756,W,0.07,201.25,210812,,,D*78
$GPRMC,233014.000,A,3748.7841,N,12217.8760,W,0.87,265.25,210812,,,D*73
$GPRMC,233015.000,A,3748.7839,N,12217.8764,W,0.64,270.44,210812,,,D*77
$GPRMC,233016.000,A,3748.7839,N,12217.8769,W,0.12,333.27,210812,,,D*7B
$GPRMC,233017.000,A,3748.7840,N,12217.8764,W,0.68,25.27,210812,,,D*40
$GPRMC,233018.000,A,3748.7837,N,12217.8754,W,1.83,86.45,210812,,,D*45
$GPRMC,233019.000,A,3748.7834,N,12217.8745,W,1.13,86.09,210812,,,D*46
$GPRMC,233020.000,A,3748.7832,N,12217.8728,W,1.55,85.25,210812,,,D*4E
$GPRMC,233021.000,A,3748.7832,N,12217.8715,W,1.83,82.20,210812,,,D*48
$GPRMC,233022.000,A,3748.7831,N,12217.8707,W,1.20,108.66,210812,,,D*73
$GPRMC,233023.000,A,3748.7830,N,12217.8706,W,0.66,154.68,210812,,,D*76
$GPRMC,233024.000,A,3748.7830,N,12217.8707,W,0.81,315.94,210812,,,D*7D
$GPRMC,233025.000,A,3748.7829,N,12217.8704,W,0.26,47.05,210812,,,D*46
$GPRMC,233026.000,A,3748.7829,N,12217.8710,W,0.09,22.74,210812,,,D*48
$GPRMC,233027.000,A,3748.7833,N,12217.8715,W,0.37,30.13,210812,,,D*48
$GPRMC,233028.000,A,3748.7836,N,12217.8721,W,0.71,269.54,210812,,,D*7A
$GPRMC,233029.000,A,3748.7840,N,12217.8723,W,0.94,268.84,210812,,,D*7F
$GPRMC,233030.000,A,3748.7841,N,12217.8719,W,0.67,28.02,210812,,,A*4E
$GPRMC,233031.000,A,3748.7842,N,12217.8718,W,1.46,95.37,210812,,,A*4F
$GPRMC,233032.000,A,3748.7838,N,12217.8722,W,1.17,153.80,210812,,,A*7B
$GPRMC,233033.000,A,3748.7836,N,12217.8724,W,1.94,177.24,210812,,,A*71
$GPRMC,233034.000,A,3748.7833,N,12217.8723,W,1.41,158.38,210812,,,A*7C
$GPRMC,233035.000,A,3748.7834,N,12217.8721,W,1.60,128.40,210812,,,A*73
$GPRMC,233036.000,A,3748.7834,N,12217.8719,W,1.67,107.38,210812,,,A*7E
$GPRMC,233037.000,A,3748.7834,N,12217.8719,W,1.12,144.75,210812,,,A*73
$GPRMC,233038.000,A,3748.7833,N,12217.8722,W,1.05,176.08,210812,,,A*7E
$GPRMC,233039.000,A,3748.7831,N,12217.8725,W,0.87,184.82,210812,,,A*7E
$GPRMC,233040.000,A,3748.7831,N,12217.8731,W,1.32,218.92,210812,,,A*7D
$GPRMC,233041.000,A,3748.7833,N,12217.8739,W,0.58,241.36,210812,,,A*79
$GPRMC,233042.000,A,3748.7833,N,12217.8744,W,0.38,158.03,210812,,,A*7B
$GPRMC,233043.000,A,3748.7829,N,12217.8749,W,0.85,149.67,210812,,,A*78
$GPRMC,233044.000,A,3748.7826,N,12217.8756,W,0.27,202.99,210812,,,A*7B
$GPRMC,233045.000,A,3748.7823,N,12217.8759,W,0.82,130.05,210812,,,A*78
$GPRMC,233046.000,A,3748.7819,N,12217.8761,W,0.70,176.81,210812,,,A*7A
$GPRMC,233047.000,A,3748.7816,N,12217.8764,W,0.81,146.18,210812,,,A*7C
$GPRMC,233048.000,A,3748.7810,N,12217.8769,W,1.18,195.30,210812,,,A*7D
$GPRMC,233049.000,A,3748.7803,N,12217.8769,W,1.47,192.23,210812,,,A*71
$GPRMC,233050.000,A,3748.7795,N,12217.8768,W,1.07,182.84,210812,,,A*70
$GPRMC,233051.000,A,3748.7792,N,12217.8767,W,1.31,153.32,210812,,,A*7D
$GPRMC,233052.000,A,3748.7788,N,12217.8763,W,1.14,117.67,210812,,,A*76
$GPRMC,233053.000,A,3748.7785,N,12217.8760,W,0.80,124.38,210812,,,A*7F
$GPRMC,233054.000,A,3748.7779,N,12217.8762,W,1.21,139.10,210812,,,A*75
$GPRMC,233055.000,A,3748.7771,N,12217.8766,W,1.19,163.24,210812,,,A*7B
$GPRMC,233056.000,A,3748.7764,N,12217.8772,W,1.79,185.20,210812,,,A*73
$GPRMC,233057.000,A,3748.7758,N,12217.8778,W,1.40,173.23,210812,,,A*77
$GPRMC,233058.000,A,3748.7752,N,12217.8780,W,1.48,147.86,210812,,,A*75
$GPRMC,233059.000,A,3748.7744,N,12217.8784,W,1.39,171.21,210812,,,A*79
$GPRMC,233100.000,A,3748.7735,N,12217.8787,W,1.60,178.10,210812,,,A*76
$GPRMC,233101.000,A,3748.7723,N,12217.8789,W,1.92,170.00,210812,,,A*7A
$GPRMC,233102.000,A,3748.7715,N,12217.8789,W,2.02,146.85,210812,,,A*7E
$GPRMC,233103.000,A,3748.7704,N,12217.8787,W,2.12,138.65,210812,,,A*77
$GPRMC,233104.000,A,3748.7694,N,12217.8784,W,2.30,139.51,210812,,,A*7D
$GPRMC,233105.000,A,3748.7682,N,12217.8783,W,2.32,154.24,210812,,,A*77
$GPRMC,233106.000,A,3748.7679,N,12217.8784,W,1.63,140.41,210812,,,A*76
$GPRMC,233107.000,A,3748.7675,N,12217.8786,W,1.32,148.83,210812,,,A*7B
$GPRMC,233108.000,A,3748.7670,N,12217.8786,W,2.39,148.53,210812,,,A*74
$GPRMC,233109.000,A,3748.7664,N,12217.8784,W,2.22,133.30,210812,,,A*71
$GPRMC,233110.000,A,3748.7654,N,12217.8783,W,1.80,134.38,210812,,,A*79
$GPRMC,233111.000,A,3748.7643,N,12217.8782,W,2.16,164.31,210812,,,A*7F
$GPRMC,233112.000,A,3748.7633,N,12217.8785,W,2.04,193.56,210812,,,A*76
$GPRMC,233113.000,A,3748.7623,N,12217.8787,W,1.95,169.90,210812,,,A*70
$GPRMC,233114.000,A,3748.7614,N,12217.8789,W,2.01,165.51,210812,,,A*72
$GPRMC,233115.000,A,3748.7606,N,12217.8793,W,1.55,185.35,210812,,,A*75
$GPRMC,233116.000,A,3748.7603,N,12217.8795,W,1.00,124.24,210812,,,A*7E
$GPRMC,233117.000,A,3748.7601,N,12217.8798,W,0.73,159.86,210812,,,A*77
$GPRMC,233118.000,A,3748.7601,N,12217.8803,W,0.55,104.72,210812,,,A*72
$GPRMC,233119.000,A,3748.7601,N,12217.8805,W,1.17,126.21,210812,,,A*74
$GPRMC,233120.000,A,3748.7597,N,12217.8810,W,1.02,174.36,210812,,,A*73
$GPRMC,233121.000,A,3748.7590,N,12217.8815,W,1.50,195.11,210812,,,A*7D
$GPRMC,233122.000,A,3748.7580,N,12217.8819,W,1.65,164.20,210812,,,A*79
$GPRMC,233123.000,A,3748.7571,N,12217.8822,W,1.35,166.15,210812,,,A*7F
$GPRMC,233124.000,A,3748.7562,N,12217.8826,W,1.22,183.14,210812,,,A*72
$GPRMC,233125.000,A,3748.7555,N,12217.8830,W,1.51,152.78,210812,,,A*72
$GPRMC,233126.000,A,3748.7552,N,12217.8833,W,1.81,130.29,210812,,,A*78
$GPRMC,233127.000,A,3748.7548,N,12217.8836,W,0.87,146.47,210812,,,A*79
$GPRMC,233128.000,A,3748.7540,N,12217.8838,W,1.15,177.64,210812,,,A*79
$GPRMC,233129.000,A,3748.7533,N,12217.8841,W,0.88,160.68,210812,,,A*7D
$GPRMC,233130.000,A,3748.7521,N,12217.8841,W,1.88,160.79,210812,,,A*77
$GPRMC,233131.000,A,3748.7508,N,12217.8843,W,2.51,167.54,210812,,,A*70
$GPRMC,233132.000,A,3748.7493,N,12217.8844,W,2.22,174.74,210812,,,A*73
$GPRMC,233133.000,A,3748.7482,N,12217.8845,W,1.62,165.71,210812,,,A*71
$GPRMC,233134.000,A,3748.7476,N,12217.8846,W,1.37,152.53,210812,,,A*7A
$GPRMC,233135.000,A,3748.7469,N,12217.8846,W,1.12,159.11,210812,,,A*7F
$GPRMC,233136.000,A,3748.7470,N,12217.8851,W,0.49,102.92,210812,,,A*78
$GPRMC,233137.000,A,3748.7471,N,12217.8860,W,0.69,307.01,210812,,,A*75
$GPRMC,233138.000,A,3748.7463,N,12217.8894,W,0.17,161.15,210812,,,A*7C
$GPRMC,233139.000,A,3748.7461,N,12217.8896,W,0.37,70.28,210812,,,A*40
$GPRMC,233140.000,A,3748.7459,N,12217.8893,W,0.49,80.18,210812,,,A*45
$GPRMC,233141.000,A,3748.7460,N,12217.8891,W,0.56,73.12,210812,,,A*44
$GPRMC,233142.000,A,3748.7460,N,12217.8889,W,0.56,73.12,210812,,,E*4A
$GPRMC,233143.000,A,3748.7460,N,12217.8888,W,0.56,73.12,210812,,,E*4A
$GPRMC,233144.000,A,3748.7461,N,12217.8886,W,0.56,73.12,210812,,,E*42
$GPRMC,233145.000,A,3748.7445,N,12217.8887,W,0.95,86.57,210812,,,A*44
$GPRMC,233146.000,A,3748.7451,N,12217.8922,W,0.21,158.06,210812,,,A*75
$GPRMC,233147.000,A,3748.7454,N,12217.8947,W,0.38,133.65,210812,,,A*72
$GPRMC,233148.000,A,3748.7457,N,12217.8970,W,0.67,267.64,210812,,,A*73
$GPRMC,233149.000,A,3748.7459,N,12217.8981,W,0.80,262.76,210812,,,A*7D
$GPRMC,233150.000,A,3748.7462,N,12217.8979,W,0.11,326.40,210812,,,A*76
$GPRMC,233151.000,A,3748.7468,N,12217.8989,W,1.36,314.69,210812,,,A*7C
$GPRMC,233152.000,A,3748.7468,N,12217.8999,W,1.49,298.89,210812,,,A*7D
$GPRMC,233153.000,A,3748.7469,N,12217.9005,W,1.48,305.92,210812,,,A*7E
$GPRMC,233154.000,A,3748.7470,N,12217.9010,W,1.85,324.03,210812,,,A*7F
$GPRMC,233155.000,A,3748.7472,N,12217.9021,W,2.49,302.18,210812,,,A*73
$GPRMC,233156.000,A,3748.7468,N,12217.9011,W,0.99,11.70,210812,,,A*48
$GPRMC,233157.000,A,3748.7463,N,12217.9015,W,0.25,89.85,210812,,,A*4A
$GPRMC,233158.000,A,3748.7478,N,12217.9032,W,0.31,293.78,210812,,,A*74
$GPRMC,233159.000,A,3748.7488,N,12217.9044,W,0.23,15.52,210812,,,A*4C
$GPRMC,233200.000,A,3748.7488,N,12217.9047,W,0.19,57.04,210812,,,A*4C
$GPRMC,233201.000,A,3748.7484,N,12217.9055,W,0.27,300.78,210812,,,A*75
$GPRMC,233202.000,A,3748.7495,N,12217.9066,W,0.78,296.54,210812,,,A*7C
$GPRMC,233203.000,A,3748.7502,N,12217.9067,W,0.51,10.50,210812,,,A*40
$GPRMC,233204.000,A,3748.7503,N,12217.9058,W,0.97,59.38,210812,,,A*43
$GPRMC,233205.000,A,3748.7508,N,12217.9050,W,0.64,85.68,210812,,,A*49
$GPRMC,233206.000,A,3748.7517,N,12217.9045,W,1.06,56.85,210812,,,A*48
$GPRMC,233207.000,A,3748.7527,N,12217.9038,W,0.85,72.17,210812,,,A*47
$GPRMC,233208.000,A,3748.7537,N,12217.9027,W,1.19,108.22,210812,,,A*79
$GPRMC,233209.000,A,3748.7543,N,12217.9014,W,0.70,99.08,210812,,,A*44
$GPRMC,233210.000,A,3748.7549,N,12217.9004,W,0.73,104.36,210812,,,A*7C
$GPRMC,233211.000,A,3748.7553,N,12217.8992,W,0.36,143.32,210812,,,A*77
$GPRMC,233212.000,A,3748.7560,N,12217.8978,W,1.35,145.43,210812,,,A*72
$GPRMC,233213.000,A,3748.7557,N,12217.8972,W,0.67,136.29,210812,,,A*73
$GPRMC,233214.000,A,3748.7559,N,12217.8960,W,1.48,109.23,210812,,,A*73
$GPRMC,233215.000,A,3748.7559,N,12217.8953,W,0.70,141.32,210812,,,A*74
$GPRMC,233216.000,A,3748.7555,N,12217.8941,W,0.50,88.44,210812,,,A*4F
$GPRMC,233217.000,A,3748.7557,N,12217.8936,W,0.83,22.19,210812,,,A*4A
$GPRMC,233218.000,A,3748.7561,N,12217.8931,W,0.86,96.94,210812,,,A*48
$GPRMC,233219.000,A,3748.7554,N,12217.8916,W,1.08,135.52,210812,,,A*7F
$GPRMC,233220.000,A,3748.7550,N,12217.8907,W,1.06,153.67,210812,,,A*79
$GPRMC,233221.000,A,3748.7546,N,12217.8909,W,1.15,160.74,210812,,,A*71
$GPRMC,233222.000,A,3748.7549,N,12217.8925,W,0.86,169.04,210812,,,A*76
$GPRMC,233223.000,A,3748.7551,N,12217.8938,W,0.61,181.59,210812,,,A*75
$GPRMC,233224.000,A,3748.7553,N,12217.8939,W,1.15,27.70,210812,,,A*45
$GPRMC,233225.000,A,3748.7561,N,12217.8939,W,1.16,46.88,210812,,,A*46
$GPRMC,233226.000,A,3748.7568,N,12217.8949,W,1.15,62.14,210812,,,A*4B
$GPRMC,233227.000,A,3748.7575,N,12217.8954,W,1.08,86.96,210812,,,A*46
$GPRMC,233228.000,A,3748.7580,N,12217.8956,W,0.93,121.49,210812,,,A*7C
$GPRMC,233229.000,A,3748.7584,N,12217.8961,W,1.15,98.49,210812,,,A*41
$GPRMC,233230.000,A,3748.7595,N,12217.8956,W,0.94,103.89,210812,,,A*7A
$GPRMC,233231.000,A,3748.7605,N,12217.8953,W,1.08,93.94,210812,,,A*44
$GPRMC,233232.000,A,3748.7616,N,12217.8949,W,1.03,78.46,210812,,,A*4F
$GPRMC,233233.000,A,3748.7630,N,12217.8944,W,0.60,89.81,210812,,,A*46
$GPRMC,233234.000,A,3748.7641,N,12217.8942,W,0.46,81.50,210812,,,A*41
$GPRMC,233235.000,A,3748.7656,N,12217.8938,W,0.94,56.36,210812,,,A*4E
$GPRMC,233236.000,A,3748.7663,N,12217.8936,W,1.38,54.98,210812,,,A*44
$GPRMC,233237.000,A,3748.7668,N,12217.8932,W,1.76,72.02,210812,,,A*47
$GPRMC,233238.000,A,3748.7676,N,12217.8928,W,1.58,65.55,210812,,,A*44
$GPRMC,233239.000,A,3748.7684,N,12217.8927,W,1.45,48.37,210812,,,A*40
$GPRMC,233240.000,A,3748.7693,N,12217.8927,W,1.06,56.18,210812,,,A*4D
$GPRMC,233241.000,A,3748.7698,N,12217.8924,W,0.92,82.58,210812,,,A*45
$GPRMC,233242.000,A,3748.7703,N,12217.8921,W,0.67,96.28,210812,,,A*48
$GPRMC,233243.000,A,3748.7709,N,12217.8917,W,0.86,72.50,210812,,,A*4C
$GPRMC,233244.000,A,3748.7720,N,12217.8914,W,1.09,59.63,210812,,,A*4C
$GPRMC,233245.000,A,3748.7724,N,12217.8910,W,0.77,81.46,210812,,,A*47
$GPRMC,233246.000,A,3748.7734,N,12217.8906,W,0.19,47.37,210812,,,A*46
$GPRMC,233247.000,A,3748.7736,N,12217.8903,W,0.41,184.73,210812,,,A*73
$GPRMC,233248.000,A,3748.7743,N,12217.8898,W,0.74,52.90,210812,,,A*4C
$GPRMC,233249.000,A,3748.7748,N,12217.8897,W,1.11,98.83,210812,,,A*4F
$GPRMC,233250.000,A,3748.7752,N,12217.8892,W,1.64,101.79,210812,,,A*7F
$GPRMC,233251.000,A,3748.7758,N,12217.8885,W,1.16,91.89,210812,,,A*40
$GPRMC,233252.000,A,3748.7767,N,12217.8877,W,1.24,67.06,210812,,,A*4D
$GPRMC,233253.000,A,3748.7770,N,12217.8877,W,0.63,66.79,210812,,,A*41
$GPRMC,233254.000,A,3748.7776,N,12217.8870,W,1.00,92.15,210812,,,A*42
$GPRMC,233255.000,A,3748.7784,N,12217.8858,W,1.81,69.46,210812,,,A*4F
$GPRMC,233256.000,A,3748.7787,N,12217.8861,W,0.61,77.54,210812,,,A*46
$GPRMC,233257.000,A,3748.7791,N,12217.8868,W,0.31,232.46,210812,,,A*7C
$GPRMC,233258.000,A,3748.7800,N,12217.8863,W,0.44,118.71,210812,,,A*72
$GPRMC,233259.000,A,3748.7805,N,12217.8859,W,0.47,141.21,210812,,,A*75
$GPRMC,233300.000,A,3748.7809,N,12217.8857,W,0.32,153.02,210812,,,A*7A
$GPRMC,233301.000,A,3748.7813,N,12217.8854,W,1.20,62.11,210812,,,A*40
$GPRMC,233302.000,A,3748.7816,N,12217.8852,W,0.86,76.52,210812,,,A*4F
$GPRMC,233303.000,A,3748.7821,N,12217.8846,W,0.95,76.15,210812,,,A*4E
$GPRMC,233304.000,A,3748.7825,N,12217.8843,W,0.83,85.73,210812,,,A*43
$GPRMC,233305.000,A,3748.7829,N,12217.8838,W,0.68,117.02,210812,,,A*7B
$GPRMC,233306.000,A,3748.7834,N,12217.8833,W,0.25,265.78,210812,,,A*7D
$GPRMC,233307.000,A,3748.7836,N,12217.8827,W,0.15,142.75,210812,,,A*73
$GPRMC,233308.000,A,3748.7842,N,12217.8824,W,0.74,43.04,210812,,,A*4D
$GPRMC,233309.000,A,3748.7847,N,12217.8824,W,0.86,65.51,210812,,,A*40
$GPRMC,233310.000,A,3748.7851,N,12217.8823,W,0.89,62.07,210812,,,A*43
$GPRMC,233311.000,A,3748.7855,N,12217.8817,W,1.11,91.69,210812,,,A*45
$GPRMC,233312.000,A,3748.7862,N,12217.8808,W,1.03,68.14,210812,,,A*43
$GPRMC,233313.000,A,3748.7869,N,12217.8796,W,0.43,27.52,210812,,,A*4D
$GPRMC,233314.000,A,3748.7873,N,12217.8784,W,0.34,197.58,210812,,,A*72
$GPRMC,233315.000,A,3748.7876,N,12217.8775,W,0.16,289.76,210812,,,A*78
$GPRMC,233316.000,A,3748.7879,N,12217.8766,W,0.50,118.07,210812,,,A*79
$GPRMC,233317.000,A,3748.7878,N,12217.8755,W,0.65,141.66,210812,,,A*74
$GPRMC,233318.000,A,3748.7877,N,12217.8752,W,1.31,205.84,210812,,,A*7C
$GPRMC,233319.000,A,3748.7873,N,12217.8752,W,2.33,235.26,210812,,,A*73
$GPRMC,233320.000,A,3748.7870,N,12217.8753,W,1.76,236.44,210812,,,A*7E
$GPRMC,233321.000,A,3748.7867,N,12217.8751,W,0.57,164.53,210812,,,A*7B
$GPRMC,233322.000,A,3748.7865,N,12217.8735,W,0.22,42.60,210812,,,A*4F
$GPRMC,233323.000,A,3748.7866,N,12217.8724,W,0.61,308.26,210812,,,A*75
$GPRMC,233324.000,A,3748.7870,N,12217.8717,W,1.72,31.41,210812,,,A*4E
$GPRMC,233325.000,A,3748.7879,N,12217.8712,W,2.09,30.63,210812,,,A*4D
$GPRMC,233326.000,A,3748.7890,N,12217.8710,W,2.35,30.00,210812,,,A*41
$GPRMC,233327.000,A,3748.7898,N,12217.8710,W,2.06,12.96,210812,,,A*47
$GPRMC,233328.000,A,3748.7900,N,12217.8706,W,1.44,14.66,210812,,,A*43
$GPRMC,233329.000,A,3748.7897,N,12217.8696,W,1.09,99.95,210812,,,A*45
$GPRMC,233330.000,A,3748.7886,N,12217.8687,W,2.00,139.10,210812,,,A*71
$GPRMC,233331.000,A,3748.7880,N,12217.8677,W,2.64,135.85,210812,,,A*7B
$GPRMC,233332.000,A,3748.7870,N,12217.8665,W,2.01,150.84,210812,,,A*75
$GPRMC,233333.000,A,3748.7861,N,12217.8660,W,1.74,149.82,210812,,,A*7E
$GPRMC,233334.000,A,3748.7859,N,12217.8652,W,0.46,130.33,210812,,,A*77
$GPRMC,233335.000,A,3748.7862,N,12217.8656,W,0.96,251.50,210812,,,A*76
$GPRMC,233336.000,A,3748.7867,N,12217.8665,W,1.64,274.86,210812,,,A*70
$GPRMC,233337.000,A,3748.7873,N,12217.8675,W,1.87,286.55,210812,,,A*7B
$GPRMC,233338.000,A,3748.7870,N,12217.8681,W,1.18,240.52,210812,,,A*77
$GPRMC,233339.000,A,3748.7878,N,12217.8683,W,1.04,202.09,210812,,,A*79
$GPRMC,233340.000,A,3748.7889,N,12217.8685,W,1.10,229.60,210812,,,A*7C
$GPRMC,233341.000,A,3748.7894,N,12217.8686,W,0.85,160.74,210812,,,A*74
$GPRMC,233342.000,A,3748.7893,N,12217.8681,W,1.33,123.44,210812,,,A*7F
$GPRMC,233343.000,A,3748.7891,N,12217.8677,W,1.18,118.55,210812,,,A*74
$GPRMC,233344.000,A,3748.7891,N,12217.8677,W,1.45,128.94,210812,,,A*75
$GPRMC,233345.000,A,3748.7891,N,12217.8676,W,1.11,120.90,210812,,,A*78
$GPRMC,233346.000,A,3748.7892,N,12217.8675,W,1.42,125.15,210812,,,A*75
$GPRMC,233347.000,A,3748.7892,N,12217.8675,W,1.53,174.54,210812,,,A*75
$GPRMC,233348.000,A,3748.7890,N,12217.8677,W,1.03,179.22,210812,,,A*73
$GPRMC,233349.000,A,3748.7890,N,12217.8679,W,0.78,179.62,210812,,,A*75
$GPRMC,233350.000,A,3748.7888,N,12217.8680,W,0.59,149.72,210812,,,A*73
$GPRMC,233351.000,A,3748.7887,N,12217.8684,W,0.63,158.72,210812,,,A*70
$GPRMC,233352.000,A,3748.7885,N,12217.8685,W,0.88,136.30,210812,,,A*7B
$GPRMC,233353.000,A,3748.7880,N,12217.8684,W,1.30,129.62,210812,,,A*75
$GPRMC,233354.000,A,3748.7880,N,12217.8683,W,1.27,132.56,210812,,,A*7E
$GPRMC,233355.000,A,3748.7878,N,12217.8684,W,0.83,148.10,210812,,,A*7F
$GPRMC,233356.000,A,3748.7874,N,12217.8686,W,0.43,170.31,210812,,,A*76
$GPRMC,233357.000,A,3748.7872,N,12217.8689,W,0.66,157.73,210812,,,A*7A
$GPRMC,233358.000,A,3748.7870,N,12217.8691,W,0.88,144.08,210812,,,A*70
$GPRMC,233359.000,A,3748.7870,N,12217.8693,W,0.62,113.77,210812,,,A*7D
$GPRMC,233400.000,A,3748.7870,N,12217.8694,W,0.58,144.74,210812,,,A*79
$GPRMC,233401.000,A,3748.7866,N,12217.8697,W,0.70,160.72,210812,,,A*76
$GPRMC,233402.000,A,3748.7862,N,12217.8700,W,1.00,185.17,210812,,,A*70
$GPRMC,233403.000,A,3748.7857,N,12217.8704,W,0.64,188.27,210812,,,A*7E
$GPRMC,233404.000,A,3748.7853,N,12217.8708,W,0.84,156.15,210812,,,A*7D
$GPRMC,233405.000,A,3748.7849,N,12217.8713,W,1.49,207.30,210812,,,A*7D
$GPRMC,233406.000,A,3748.7845,N,12217.8717,W,1.36,176.92,210812,,,A*73
$GPRMC,233407.000,A,3748.7837,N,12217.8719,W,1.63,172.53,210812,,,A*70
$GPRMC,233408.000,A,3748.7836,N,12217.8722,W,0.41,173.79,210812,,,A*7E
$GPRMC,233409.000,A,3748.7834,N,12217.8724,W,0.91,162.46,210812,,,A*7A
$GPRMC,233410.000,A,3748.7830,N,12217.8725,W,0.64,141.09,210812,,,A*77
$GPRMC,233411.000,A,3748.7826,N,12217.8727,W,0.27,216.64,210812,,,A*7E
$GPRMC,233412.000,A,3748.7821,N,12217.8729,W,0.80,198.80,210812,,,A*76
$GPRMC,233413.000,A,3748.7815,N,12217.8732,W,0.71,201.52,210812,,,A*78
$GPRMC,233414.000,A,3748.7811,N,12217.8737,W,0.51,221.55,210812,,,A*79
$GPRMC,233415.000,A,3748.7806,N,12217.8742,W,0.85,141.59,210812,,,A*7C
$GPRMC,233416.000,A,3748.7799,N,12217.8743,W,1.64,145.52,210812,,,A*76
$GPRMC,233417.000,A,3748.7790,N,12217.8744,W,0.97,176.30,210812,,,A*70
$GPRMC,233418.000,A,3748.7783,N,12217.8747,W,1.31,184.49,210812,,,A*70
$GPRMC,233419.000,A,3748.7776,N,12217.8751,W,1.14,189.72,210812,,,A*7E
$GPRMC,233420.000,A,3748.7773,N,12217.8753,W,0.47,167.13,210812,,,A*73
$GPRMC,233421.000,A,3748.7768,N,12217.8754,W,1.08,141.64,210812,,,A*71
$GPRMC,233422.000,A,3748.7763,N,12217.8754,W,1.16,137.99,210812,,,A*75
$GPRMC,233423.000,A,3748.7757,N,12217.8753,W,1.20,126.41,210812,,,A*74
$GPRMC,233424.000,A,3748.7752,N,12217.8754,W,0.89,142.31,210812,,,A*76
$GPRMC,233425.000,A,3748.7746,N,12217.8756,W,1.28,149.38,210812,,,A*78
$GPRMC,233426.000,A,3748.7740,N,12217.8759,W,0.98,155.05,210812,,,A*7B
$GPRMC,233427.000,A,3748.7734,N,12217.8762,W,1.35,156.27,210812,,,D*71
$GPRMC,233428.000,A,3748.7729,N,12217.8767,W,1.04,169.31,210812,,,D*7E
$GPRMC,233429.000,A,3748.7723,N,12217.8771,W,1.11,190.06,210812,,,D*74
$GPRMC,233430.000,A,3748.7717,N,12217.8775,W,1.08,171.72,210812,,,D*7B
$GPRMC,233431.000,A,3748.7709,N,12217.8779,W,0.82,167.65,210812,,,D*7B
$GPRMC,233432.000,A,3748.7701,N,12217.8782,W,1.67,174.88,210812,,,D*7F
$GPRMC,233433.000,A,3748.7694,N,12217.8785,W,1.40,152.97,210812,,,D*7B
$GPRMC,233434.000,A,3748.7686,N,12217.8789,W,1.28,154.81,210812,,,D*7C
$GPRMC,233435.000,A,3748.7677,N,12217.8792,W,1.37,147.35,210812,,,D*7A
$GPRMC,233436.000,A,3748.7668,N,12217.8794,W,1.15,131.44,210812,,,D*76
$GPRMC,233437.000,A,3748.7664,N,12217.8797,W,1.00,140.84,210812,,,D*76
$GPRMC,233438.000,A,3748.7661,N,12217.8798,W,0.98,126.63,210812,,,D*7A
$GPRMC,233439.000,A,3748.7660,N,12217.8799,W,0.50,114.67,210812,,,D*7A
$GPRMC,233440.000,A,3748.7656,N,12217.8802,W,0.77,156.02,210812,,,D*7C
$GPRMC,233441.000,A,3748.7651,N,12217.8805,W,0.93,157.70,210812,,,D*73
$GPRMC,233442.000,A,3748.7648,N,12217.8811,W,0.69,150.78,210812,,,D*77
$GPRMC,233443.000,A,3748.7642,N,12217.8814,W,0.63,153.40,210812,,,D*7B
$GPRMC,233444.000,A,3748.7638,N,12217.8819,W,0.58,152.23,210812,,,D*70
$GPRMC,233445.000,A,3748.7634,N,12217.8821,W,0.83,123.21,210812,,,D*74
$GPRMC,233446.000,A,3748.7628,N,12217.8825,W,1.02,116.21,210812,,,D*70
$GPRMC,233447.000,A,3748.7622,N,12217.8829,W,0.31,124.75,210812,,,D*76
$GPRMC,233448.000,A,3748.7618,N,12217.8834,W,0.77,172.61,210812,,,D*78
$GPRMC,233449.000,A,3748.7614,N,12217.8838,W,0.67,153.68,210812,,,D*72
$GPRMC,233450.000,A,3748.7610,N,12217.8842,W,1.04,143.58,210812,,,D*75
$GPRMC,233451.000,A,3748.7605,N,12217.8844,W,1.37,126.93,210812,,,D*72
$GPRMC,233452.000,A,3748.7600,N,12217.8846,W,1.13,141.01,210812,,,D*7A
$GPRMC,233453.000,A,3748.7596,N,12217.8848,W,1.00,143.78,210812,,,D*77
$GPRMC,233454.000,A,3748.7590,N,12217.8851,W,1.13,153.63,210812,,,D*77
$GPRMC,233455.000,A,3748.7585,N,12217.8855,W,0.72,167.79,210812,,,D*7C
$GPRMC,233456.000,A,3748.7581,N,12217.8860,W,0.74,163.13,210812,,,D*73
$GPRMC,233457.000,A,3748.7576,N,12217.8865,W,0.72,171.81,210812,,,D*71
$GPRMC,233458.000,A,3748.7572,N,12217.8869,W,0.82,167.54,210812,,,D*76
$GPRMC,233459.000,A,3748.7567,N,12217.8872,W,1.00,133.17,210812,,,D*74
$GPRMC,233500.000,A,3748.7562,N,12217.8875,W,0.94,145.60,210812,,,D*76
$GPRMC,233501.000,A,3748.7555,N,12217.8876,W,1.07,137.44,210812,,,D*78
$GPRMC,233502.000,A,3748.7550,N,12217.8880,W,1.02,170.29,210812,,,D*7A
$GPRMC,233503.000,A,3748.7546,N,12217.8887,W,1.52,192.33,210812,,,D*79
$GPRMC,233504.000,A,3748.7540,N,12217.8892,W,1.03,171.28,210812,,,D*7F
$GPRMC,233505.000,A,3748.7534,N,12217.8897,W,0.94,177.56,210812,,,D*78
$GPRMC,233506.000,A,3748.7528,N,12217.8901,W,0.97,151.54,210812,,,D*7D
$GPRMC,233507.000,A,3748.7523,N,12217.8906,W,0.81,147.34,210812,,,D*76
$GPRMC,233508.000,A,3748.7519,N,12217.8910,W,0.39,132.43,210812,,,D*76
$GPRMC,233509.000,A,3748.7513,N,12217.8913,W,1.08,123.60,210812,,,D*7C
$GPRMC,233510.000,A,3748.7508,N,12217.8915,W,1.23,127.61,210812,,,D*74
$GPRMC,233511.000,A,3748.7503,N,12217.8920,W,0.92,161.87,210812,,,D*79
$GPRMC,233512.000,A,3748.7497,N,12217.8924,W,0.73,158.65,210812,,,D*7B
$GPRMC,233513.000,A,3748.7489,N,12217.8932,W,0.37,226.50,210812,,,D*7E
$GPRMC,233514.000,A,3748.7486,N,12217.8938,W,0.85,133.28,210812,,,D*7D
$GPRMC,233515.000,A,3748.7484,N,12217.8944,W,0.79,126.10,210812,,,D*79
$GPRMC,233516.000,A,3748.7481,N,12217.8950,W,1.38,190.43,210812,,,D*75
$GPRMC,233517.000,A,3748.7474,N,12217.8956,W,1.27,188.52,210812,,,D*7F
$GPRMC,233518.000,A,3748.7468,N,12217.8962,W,1.17,187.06,210812,,,D*77
$GPRMC,233519.000,A,3748.7462,N,12217.8968,W,0.97,181.73,210812,,,D*7B
$GPRMC,233520.000,A,3748.7458,N,12217.8974,W,0.99,172.15,210812,,,D*77
$GPRMC,233521.000,A,3748.7451,N,12217.8979,W,0.94,129.26,210812,,,D*71
$GPRMC,233522.000,A,3748.7447,N,12217.8981,W,1.13,128.46,210812,,,D*7B
$GPRMC,233523.000,A,3748.7443,N,12217.8984,W,1.05,141.01,210812,,,A*75
$GPRMC,233524.000,A,3748.7439,N,12217.8989,W,1.24,165.55,210812,,,A*76
$GPRMC,233525.000,A,3748.7436,N,12217.8994,W,0.81,130.31,210812,,,A*78
$GPRMC,233526.000,A,3748.7433,N,12217.9000,W,0.68,177.02,210812,,,A*7F
$GPRMC,233527.000,A,3748.7430,N,12217.9005,W,0.58,161.48,210812,,,A*72
$GPRMC,233528.000,A,3748.7424,N,12217.9011,W,1.44,159.75,210812,,,A*74
$GPRMC,233529.000,A,3748.7417,N,12217.9013,W,1.09,136.02,210812,,,A*77
$GPRMC,233530.000,A,3748.7411,N,12217.9014,W,1.08,91.22,210812,,,A*41
$GPRMC,233531.000,A,3748.7410,N,12217.9014,W,1.18,58.09,210812,,,A*4C
$GPRMC,233532.000,A,3748.7409,N,12217.9016,W,0.53,80.09,210812,,,A*4E
$GPRMC,233533.000,A,3748.7404,N,12217.9021,W,0.20,19.85,210812,,,A*46
$GPRMC,233534.000,A,3748.7400,N,12217.9026,W,0.43,38.90,210812,,,A*40
$GPRMC,233535.000,A,3748.7399,N,12217.9030,W,0.83,24.43,210812,,,A*4E
$GPRMC,233536.000,A,3748.7396,N,12217.9031,W,0.73,72.32,210812,,,A*49
$GPRMC,233537.000,A,3748.7392,N,12217.9033,W,1.22,101.43,210812,,,A*78
$GPRMC,233538.000,A,3748.7387,N,12217.9035,W,1.00,128.00,210812,,,A*79
$GPRMC,233539.000,A,3748.7385,N,12217.9039,W,1.07,165.62,210812,,,A*7C
$GPRMC,233540.000,A,3748.7382,N,12217.9045,W,1.06,172.48,210812,,,A*71
$GPRMC,233541.000,A,3748.7381,N,12217.9051,W,0.27,83.54,210812,,,A*46
$GPRMC,233542.000,A,3748.7376,N,12217.9057,W,0.85,184.37,210812,,,A*70
$GPRMC,233543.000,A,3748.7374,N,12217.9064,W,0.82,161.19,210812,,,A*73
$GPRMC,233544.000,A,3748.7368,N,12217.9070,W,1.08,180.86,210812,,,A*76
$GPRMC,233545.000,A,3748.7359,N,12217.9074,W,1.11,160.58,210812,,,A*74
$GPRMC,233546.000,A,3748.7355,N,12217.9078,W,0.76,79.73,210812,,,A*47
$GPRMC,233547.000,A,3748.7350,N,12217.9082,W,0.95,100.58,210812,,,A*7D
$GPRMC,233548.000,A,3748.7345,N,12217.9085,W,0.85,139.31,210812,,,A*75
$GPRMC,233549.000,A,3748.7340,N,12217.9089,W,0.59,114.53,210812,,,A*77
$GPRMC,233550.000,A,3748.7334,N,12217.9095,W,0.61,205.22,210812,,,A*7F
$GPRMC,233551.000,A,3748.7326,N,12217.9101,W,1.41,188.88,210812,,,A*74
$GPRMC,233552.000,A,3748.7319,N,12217.9108,W,1.49,201.21,210812,,,A*7B
$GPRMC,233553.000,A,3748.7311,N,12217.9111,W,1.44,168.54,210812,,,A*79
$GPRMC,233554.000,A,3748.7303,N,12217.9114,W,1.47,141.06,210812,,,A*77
$GPRMC,233555.000,A,3748.7295,N,12217.9114,W,1.84,133.83,210812,,,A*7F
$GPRMC,233556.000,A,3748.7288,N,12217.9114,W,2.01,116.54,210812,,,A*73
$GPRMC,233557.000,A,3748.7284,N,12217.9114,W,1.04,133.97,210812,,,A*70
$GPRMC,233558.000,A,3748.7278,N,12217.9119,W,1.05,205.07,210812,,,A*7F
$GPRMC,233559.000,A,3748.7272,N,12217.9125,W,1.37,210.33,210812,,,A*79
$GPRMC,233600.000,A,3748.7264,N,12217.9126,W,0.24,88.76,210812,,,A*43
$GPRMC,233601.000,A,3748.7259,N,12217.9124,W,0.92,87.58,210812,,,A*40
$GPRMC,233602.000,A,3748.7254,N,12217.9124,W,0.87,143.10,210812,,,A*7F
$GPRMC,233603.000,A,3748.7251,N,12217.9126,W,0.93,132.83,210812,,,A*70
$GPRMC,233604.000,A,3748.7247,N,12217.9128,W,0.89,156.63,210812,,,A*79
$GPRMC,233605.000,A,3748.7242,N,12217.9130,W,0.98,160.13,210812,,,A*76
$GPRMC,233606.000,A,3748.7238,N,12217.9132,W,0.73,137.62,210812,,,A*7B
$GPRMC,233607.000,A,3748.7235,N,12217.9135,W,0.92,177.54,210812,,,A*7E
$GPRMC,233608.000,A,3748.7231,N,12217.9137,W,0.88,137.70,210812,,,A*7E
$GPRMC,233609.000,A,3748.7228,N,12217.9137,W,1.12,123.44,210812,,,A*77
$GPRMC,233608.000,A,3748.7224,N,12217.9137,W,1.06,121.12,210812,,,A*7E
$GPRMC,233609.000,A,3748.7220,N,12217.9138,W,0.83,129.52,210812,,,A*74
$GPRMC,233610.000,A,3748.7217,N,12217.9139,W,0.90,137.94,210812,,,A*7E
$GPRMC,233611.000,A,3748.7214,N,12217.9140,W,1.02,134.99,210812,,,A*76
$GPRMC,233612.000,A,3748.7209,N,12217.9141,W,1.37,126.68,210812,,,D*76
$GPRMC,233613.000,A,3748.7204,N,12217.9142,W,1.40,129.23,210812,,,D*79
$GPRMC,233614.000,A,3748.7197,N,12217.9146,W,1.04,134.57,210812,,,D*7C
$GPRMC,233615.000,A,3748.7194,N,12217.9149,W,0.99,139.69,210812,,,D*74
$GPRMC,233616.000,A,3748.7190,N,12217.9152,W,1.12,141.15,210812,,,D*7F
$GPRMC,233617.000,A,3748.7183,N,12217.9157,W,0.86,154.67,210812,,,D*74
$GPRMC,233618.000,A,3748.7177,N,12217.9162,W,0.79,174.86,210812,,,D*7B
$GPRMC,233619.000,A,3748.7172,N,12217.9168,W,0.64,178.47,210812,,,D*78
$GPRMC,233620.000,A,3748.7167,N,12217.9173,W,0.47,192.09,210812,,,D*73
$GPRMC,233621.000,A,3748.7162,N,12217.9176,W,1.04,180.24,210812,,,D*78
$GPRMC,233622.000,A,3748.7156,N,12217.9180,W,1.15,152.54,210812,,,D*7D
$GPRMC,233623.000,A,3748.7149,N,12217.9183,W,1.14,142.79,210812,,,D*7E
$GPRMC,233624.000,A,3748.7144,N,12217.9183,W,1.07,143.56,210812,,,D*7A
$GPRMC,233625.000,A,3748.7138,N,12217.9186,W,1.16,135.07,210812,,,D*70
$GPRMC,233626.000,A,3748.7134,N,12217.9190,W,0.92,133.55,210812,,,D*74
$GPRMC,233627.000,A,3748.7126,N,12217.9194,W,1.12,135.39,210812,,,D*77
$GPRMC,233628.000,A,3748.7119,N,12217.9198,W,1.19,141.52,210812,,,D*7D
$GPRMC,233629.000,A,3748.7112,N,12217.9200,W,1.16,132.96,210812,,,D*76
$GPRMC,233630.000,A,3748.7108,N,12217.9202,W,0.57,156.08,210812,,,D*76
$GPRMC,233631.000,A,3748.7106,N,12217.9204,W,0.82,165.49,210812,,,D*72
$GPRMC,233632.000,A,3748.7102,N,12217.9204,W,1.05,153.08,210812,,,D*7B
$GPRMC,233633.000,A,3748.7097,N,12217.9208,W,1.04,158.28,210812,,,D*73
$GPRMC,233634.000,A,3748.7093,N,12217.9211,W,0.80,154.31,210812,,,D*71
$GPRMC,233635.000,A,3748.7088,N,12217.9215,W,1.09,147.02,210812,,,D*7C
$GPRMC,233636.000,A,3748.7080,N,12217.9217,W,1.31,178.24,210812,,,D*76
$GPRMC,233637.000,A,3748.7075,N,12217.9220,W,1.06,169.84,210812,,,D*77
$GPRMC,233638.000,A,3748.7071,N,12217.9220,W,1.26,154.62,210812,,,D*78
$GPRMC,233639.000,A,3748.7067,N,12217.9222,W,0.82,179.66,210812,,,D*78
$GPRMC,233640.000,A,3748.7063,N,12217.9227,W,1.06,214.91,210812,,,D*7A
$GPRMC,233641.000,A,3748.7059,N,12217.9233,W,1.27,226.22,210812,,,D*7D
$GPRMC,233642.000,A,3748.7055,N,12217.9238,W,1.15,194.60,210812,,,D*74
$GPRMC,233643.000,A,3748.7051,N,12217.9243,W,0.93,167.21,210812,,,D*7B
$GPRMC,233644.000,A,3748.7044,N,12217.9248,W,1.18,202.94,210812,,,D*7F
$GPRMC,233645.000,A,3748.7036,N,12217.9254,W,1.38,194.73,210812,,,D*71
$GPRMC,233646.000,A,3748.7029,N,12217.9259,W,1.17,166.13,210812,,,D*77
$GPRMC,233647.000,A,3748.7020,N,12217.9266,W,1.29,182.10,210812,,,D*77
$GPRMC,233648.000,A,3748.7013,N,12217.9271,W,0.96,159.02,210812,,,D*7E
$GPRMC,233649.000,A,3748.7007,N,12217.9275,W,1.03,144.28,210812,,,D*77
$GPRMC,233650.000,A,3748.7002,N,12217.9280,W,0.92,164.65,210812,,,D*72
$GPRMC,233651.000,A,3748.6996,N,12217.9287,W,0.86,186.82,210812,,,D*71
$GPRMC,233652.000,A,3748.6992,N,12217.9294,W,1.17,193.27,210812,,,D*76
$GPRMC,233653.000,A,3748.6984,N,12217.9299,W,1.68,175.58,210812,,,D*75
$GPRMC,233654.000,A,3748.6978,N,12217.9306,W,1.81,179.32,210812,,,D*71
$GPRMC,233655.000,A,3748.6972,N,12217.9312,W,1.17,189.65,210812,,,D*7D
$GPRMC,233656.000,A,3748.6966,N,12217.9319,W,1.24,185.13,210812,,,D*7D
$GPRMC,233657.000,A,3748.6962,N,12217.9326,W,0.93,205.24,210812,,,D*76
$GPRMC,233658.000,A,3748.6958,N,12217.9333,W,0.52,144.69,210812,,,D*76
$GPRMC,233659.000,A,3748.6954,N,12217.9335,W,0.77,122.89,210812,,,D*74
$GPRMC,233700.000,A,3748.6950,N,12217.9338,W,0.79,191.20,210812,,,D*75
$GPRMC,233701.000,A,3748.6945,N,12217.9343,W,1.03,243.51,210812,,,D*7A
$GPRMC,233702.000,A,3748.6940,N,12217.9347,W,0.24,281.09,210812,,,D*7F
$GPRMC,233703.000,A,3748.6935,N,12217.9352,W,0.48,250.15,210812,,,D*73
$GPRMC,233704.000,A,3748.6930,N,12217.9357,W,0.71,34.64,210812,,,D*48
$GPRMC,233705.000,A,3748.6929,N,12217.9363,W,0.86,21.29,210812,,,D*43
$GPRMC,233706.000,A,3748.6928,N,12217.9376,W,0.74,293.27,210812,,,D*7D
$GPRMC,233707.000,A,3748.6924,N,12217.9384,W,0.44,58.48,210812,,,D*42
$GPRMC,233708.000,A,3748.6922,N,12217.9392,W,0.10,247.80,210812,,,D*75
$GPRMC,233709.000,A,3748.6919,N,12217.9398,W,0.33,110.55,210812,,,D*7E
$GPRMC,233710.000,A,3748.6912,N,12217.9400,W,1.06,126.97,210812,,,D*77
$GPRMC,233711.000,A,3748.6908,N,12217.9405,W,0.72,122.76,210812,,,D*71
$GPRMC,233712.000,A,3748.6907,N,12217.9414,W,0.18,174.54,210812,,,D*72
$GPRMC,233713.000,A,3748.6907,N,12217.9422,W,0.29,246.26,210812,,,D*73
$GPRMC,233714.000,A,3748.6905,N,12217.9429,W,0.40,237.66,210812,,,D*70
$GPRMC,233715.000,A,3748.6901,N,12217.9435,W,0.84,223.43,210812,,,D*72
$GPRMC,233716.000,A,3748.6897,N,12217.9440,W,1.06,214.40,210812,,,D*71
$GPRMC,233717.000,A,3748.6894,N,12217.9443,W,0.42,191.87,210812,,,D*74
$GPRMC,233718.000,A,3748.6884,N,12217.9465,W,0.12,100.82,210812,,,D*76
$GPRMC,233719.000,A,3748.6876,N,12217.9480,W,0.59,56.29,210812,,,D*4D
$GPRMC,233720.000,A,3748.6871,N,12217.9492,W,0.45,120.47,210812,,,D*76
$GPRMC,233721.000,A,3748.6865,N,12217.9505,W,0.45,182.07,210812,,,D*71
$GPRMC,233722.000,A,3748.6858,N,12217.9512,W,0.72,200.01,210812,,,D*71
$GPRMC,233723.000,A,3748.6852,N,12217.9518,W,0.81,210.49,210812,,,D*71
$GPRMC,233724.000,A,3748.6848,N,12217.9522,W,0.74,201.81,210812,,,D*7A
$GPRMC,233725.000,A,3748.6843,N,12217.9526,W,0.74,214.41,210812,,,D*7C
$GPRMC,233726.000,A,3748.6840,N,12217.9531,W,0.80,216.41,210812,,,D*73
$GPRMC,233727.000,A,3748.6828,N,12217.9546,W,1.82,182.81,210812,,,D*7D
$GPRMC,233728.000,A,3748.6820,N,12217.9551,W,2.07,176.73,210812,,,D*74
$GPRMC,233729.000,A,3748.6813,N,12217.9555,W,2.00,168.48,210812,,,D*71
$GPRMC,233730.000,A,3748.6802,N,12217.9566,W,1.65,160.35,210812,,,D*7B
$GPRMC,233731.000,A,3748.6794,N,12217.9580,W,1.23,164.15,210812,,,D*76
$GPRMC,233732.000,A,3748.6790,N,12217.9584,W,0.64,168.73,210812,,,D*7B
$GPRMC,233733.000,A,3748.6783,N,12217.9597,W,0.89,163.39,210812,,,D*7C
$GPRMC,233734.000,A,3748.6773,N,12217.9610,W,1.18,162.27,210812,,,D*7F
$GPRMC,233735.000,A,3748.6771,N,12217.9615,W,1.19,153.62,210812,,,D*7B
$GPRMC,233736.000,A,3748.6769,N,12217.9620,W,0.93,172.84,210812,,,D*7F
$GPRMC,233737.000,A,3748.6765,N,12217.9624,W,0.76,159.86,210812,,,D*76
$GPRMC,233738.000,A,3748.6764,N,12217.9628,W,0.96,165.55,210812,,,D*7B
$GPRMC,233739.000,A,3748.6761,N,12217.9630,W,1.17,199.44,210812,,,D*7D
$GPRMC,233740.000,A,3748.6756,N,12217.9630,W,1.12,169.07,210812,,,D*7A
$GPRMC,233741.000,A,3748.6752,N,12217.9629,W,1.22,160.32,210812,,,D*7B
$GPRMC,233742.000,A,3748.6748,N,12217.9628,W,1.66,145.46,210812,,,D*76
$GPRMC,233743.000,A,3748.6741,N,12217.9627,W,1.54,152.55,210812,,,D*74
$GPRMC,233744.000,A,3748.6736,N,12217.9625,W,1.56,148.15,210812,,,D*7C
$GPRMC,233745.000,A,3748.6730,N,12217.9625,W,1.58,179.86,210812,,,D*7D
$GPRMC,233746.000,A,3748.6724,N,12217.9629,W,1.32,199.13,210812,,,D*79
$GPRMC,233747.000,A,3748.6720,N,12217.9634,W,1.37,206.16,210812,,,D*75
$GPRMC,233748.000,A,3748.6713,N,12217.9637,W,1.08,201.62,210812,,,D*71
$GPRMC,233749.000,A,3748.6709,N,12217.9639,W,1.30,194.50,210812,,,D*70
$GPRMC,233750.000,A,3748.6706,N,12217.9643,W,1.59,167.85,210812,,,D*71
$GPRMC,233751.000,A,3748.6703,N,12217.9645,W,1.07,139.44,210812,,,D*7E
$GPRMC,233752.000,A,3748.6700,N,12217.9644,W,1.32,110.95,210812,,,D*7E
$GPRMC,233753.000,A,3748.6699,N,12217.9645,W,0.48,69.13,210812,,,D*42
$GPRMC,233754.000,A,3748.6699,N,12217.9649,W,0.26,83.40,210812,,,D*43
$GPRMC,233755.000,A,3748.6698,N,12217.9652,W,0.64,41.30,210812,,,D*46
$GPRMC,233756.000,A,3748.6698,N,12217.9657,W,0.93,40.29,210812,,,D*41
$GPRMC,233757.000,A,3748.6698,N,12217.9660,W,0.72,22.10,210812,,,D*45
$GPRMC,233758.000,A,3748.6693,N,12217.9678,W,0.13,56.09,210812,,,D*44
$GPRMC,233759.000,A,3748.6685,N,12217.9696,W,0.68,187.47,210812,,,D*79
$GPRMC,233800.000,A,3748.6677,N,12217.9705,W,1.27,166.19,210812,,,D*72
$GPRMC,233801.000,A,3748.6671,N,12217.9708,W,0.59,165.89,210812,,,D*7A
$GPRMC,233802.000,A,3748.6665,N,12217.9711,W,0.84,172.14,210812,,,D*76
$GPRMC,233803.000,A,3748.6660,N,12217.9713,W,1.33,150.67,210812,,,D*79
$GPRMC,233804.000,A,3748.6652,N,12217.9717,W,1.22,132.21,210812,,,D*7D
$GPRMC,233805.000,A,3748.6647,N,12217.9721,W,1.14,176.60,210812,,,D*7D
$GPRMC,233806.000,A,3748.6643,N,12217.9722,W,0.82,180.71,210812,,,D*7E
$GPRMC,233807.000,A,3748.6638,N,12217.9729,W,0.74,177.49,210812,,,D*72
$GPRMC,233808.000,A,3748.6629,N,12217.9745,W,1.07,191.65,210812,,,D*74
$GPRMC,233809.000,A,3748.6619,N,12217.9758,W,1.69,210.93,210812,,,D*71
$GPRMC,233810.000,A,3748.6615,N,12217.9763,W,1.05,189.38,210812,,,D*75
$GPRMC,233811.000,A,3748.6610,N,12217.9766,W,1.00,194.15,210812,,,D*72
$GPRMC,233812.000,A,3748.6605,N,12217.9770,W,1.22,206.37,210812,,,D*7A
$GPRMC,233813.000,A,3748.6598,N,12217.9773,W,1.06,177.72,210812,,,D*7D
$GPRMC,233814.000,A,3748.6592,N,12217.9776,W,0.96,181.97,210812,,,D*7F
$GPRMC,233815.000,A,3748.6587,N,12217.9779,W,1.10,181.28,210812,,,D*7E
$GPRMC,233816.000,A,3748.6583,N,12217.9780,W,1.14,145.58,210812,,,D*74
$GPRMC,233817.000,A,3748.6578,N,12217.9782,W,1.18,175.81,210812,,,D*78
$GPRMC,233818.000,A,3748.6571,N,12217.9785,W,1.57,198.31,210812,,,D*7A
$GPRMC,233819.000,A,3748.6562,N,12217.9791,W,1.58,218.62,210812,,,D*7E
$GPRMC,233820.000,A,3748.6547,N,12217.9809,W,2.24,219.09,210812,,,D*79
$GPRMC,233821.000,A,3748.6533,N,12217.9827,W,2.77,223.37,210812,,,D*75
$GPRMC,233822.000,A,3748.6518,N,12217.9846,W,2.42,222.47,210812,,,D*78
$GPRMC,233823.000,A,3748.6508,N,12217.9856,W,2.18,218.03,210812,,,D*7F
$GPRMC,233824.000,A,3748.6497,N,12217.9865,W,2.04,210.13,210812,,,D*7B
$GPRMC,233825.000,A,3748.6488,N,12217.9874,W,1.26,211.87,210812,,,D*7B
$GPRMC,233826.000,A,3748.6482,N,12217.9881,W,0.23,250.56,210812,,,D*75
$GPRMC,233827.000,A,3748.6477,N,12217.9890,W,0.31,204.44,210812,,,D*7F
$GPRMC,233828.000,A,3748.6474,N,12217.9897,W,0.53,163.19,210812,,,D*7A
$GPRMC,233829.000,A,3748.6468,N,12217.9901,W,1.24,155.87,210812,,,D*7B
$GPRMC,233830.000,A,3748.6462,N,12217.9908,W,1.05,174.44,210812,,,D*7F
$GPRMC,233831.000,A,3748.6457,N,12217.9906,W,1.54,161.91,210812,,,D*7E
$GPRMC,233832.000,A,3748.6450,N,12217.9907,W,1.46,191.17,210812,,,D*79
$GPRMC,233833.000,A,3748.6443,N,12217.9912,W,1.44,203.92,210812,,,D*79
$GPRMC,233834.000,A,3748.6434,N,12217.9920,W,1.84,210.97,210812,,,D*74
$GPRMC,233835.000,A,3748.6427,N,12217.9924,W,1.96,214.14,210812,,,D*7F
$GPRMC,233836.000,A,3748.6421,N,12217.9926,W,1.37,194.35,210812,,,A*7E
$GPRMC,233837.000,A,3748.6413,N,12217.9928,W,1.33,172.36,210812,,,A*7F
$GPRMC,233838.000,A,3748.6406,N,12217.9935,W,1.22,191.36,210812,,,A*75
$GPRMC,233839.000,A,3748.6400,N,12217.9941,W,0.81,187.33,210812,,,A*7B
$GPRMC,233840.000,A,3748.6397,N,12217.9946,W,1.06,200.75,210812,,,A*7B
$GPRMC,233841.000,A,3748.6392,N,12217.9950,W,1.27,201.19,210812,,,A*70
$GPRMC,233842.000,A,3748.6388,N,12217.9953,W,0.73,185.44,210812,,,A*7C
$GPRMC,233843.000,A,3748.6385,N,12217.9959,W,0.84,162.16,210812,,,A*7C
$GPRMC,233844.000,A,3748.6384,N,12217.9962,W,1.04,169.59,210812,,,A*7B
$GPRMC,233845.000,A,3748.6380,N,12217.9965,W,0.80,180.18,210812,,,A*76
$GPRMC,233846.000,A,3748.6375,N,12217.9968,W,0.68,148.83,210812,,,A*72
$GPRMC,233847.000,A,3748.6370,N,12217.9971,W,0.62,154.27,210812,,,D*72
$GPRMC,233848.000,A,3748.6368,N,12217.9975,W,0.14,236.26,210812,,,D*77
$GPRMC,233849.000,A,3748.6365,N,12217.9983,W,0.37,242.78,210812,,,D*7B
$GPRMC,233850.000,A,3748.6361,N,12217.9990,W,0.59,218.24,210812,,,D*7B
$GPRMC,233851.000,A,3748.6357,N,12217.9995,W,0.41,182.53,210812,,,D*73
$GPRMC,233852.000,A,3748.6354,N,12217.9998,W,0.15,160.00,210812,,,D*75
$GPRMC,233853.000,A,3748.6351,N,12218.0002,W,0.63,143.23,210812,,,D*7C
$GPRMC,233854.000,A,3748.6347,N,12218.0005,W,0.71,158.62,210812,,,D*77
$GPRMC,233855.000,A,3748.6345,N,12218.0012,W,0.91,194.17,210812,,,D*7E
$GPRMC,233856.000,A,3748.6341,N,12218.0020,W,1.04,203.62,210812,,,D*7A
$GPRMC,233857.000,A,3748.6338,N,12218.0025,W,0.92,190.17,210812,,,D*75
$GPRMC,233858.000,A,3748.6336,N,12218.0027,W,0.86,160.97,210812,,,D*74
$GPRMC,233859.000,A,3748.6333,N,12218.0030,W,1.10,188.49,210812,,,D*7D
$GPRMC,233900.000,A,3748.6330,N,12218.0034,W,1.65,209.69,210812,,,D*7D
$GPRMC,233901.000,A,3748.6328,N,12218.0035,W,1.34,182.22,210812,,,D*7F
$GPRMC,233902.000,A,3748.6321,N,12218.0038,W,1.34,171.37,210812,,,D*70
$GPRMC,233903.000,A,3748.6319,N,12218.0037,W,0.33,148.79,210812,,,D*73
$GPRMC,233904.000,A,3748.6318,N,12218.0035,W,0.41,307.28,210812,,,D*7F
$GPRMC,233905.000,A,3748.6317,N,12218.0040,W,0.54,299.38,210812,,,D*70
$GPRMC,233906.000,A,3748.6316,N,12218.0043,W,0.14,166.28,210812,,,D*77
$GPRMC,233907.000,A,3748.6313,N,12218.0049,W,0.91,196.90,210812,,,D*78
$GPRMC,233908.000,A,3748.6308,N,12218.0051,W,0.64,178.01,210812,,,D*76
$GPRMC,233909.000,A,3748.6302,N,12218.0053,W,1.07,176.44,210812,,,D*74
$GPRMC,233910.000,A,3748.6295,N,12218.0060,W,1.53,217.31,210812,,,D*74
$GPRMC,233911.000,A,3748.6291,N,12218.0065,W,0.81,213.75,210812,,,D*7E
$GPRMC,233912.000,A,3748.6290,N,12218.0068,W,0.64,207.95,210812,,,D*71
$GPRMC,233913.000,A,3748.6287,N,12218.0063,W,1.33,176.71,210812,,,D*71
$GPRMC,233914.000,A,3748.6282,N,12218.0060,W,1.50,165.86,210812,,,D*7F
$GPRMC,233915.000,A,3748.6278,N,12218.0057,W,1.45,160.97,210812,,,D*7E
$GPRMC,233916.000,A,3748.6276,N,12218.0055,W,1.05,176.53,210812,,,D*7A
$GPRMC,233917.000,A,3748.6274,N,12218.0060,W,1.19,188.35,210812,,,D*73
$GPRMC,233918.000,A,3748.6268,N,12218.0063,W,1.23,194.92,210812,,,D*7B
$GPRMC,233919.000,A,3748.6261,N,12218.0067,W,1.45,192.25,210812,,,D*7D
$GPRMC,233920.000,A,3748.6254,N,12218.0071,W,1.21,198.74,210812,,,D*7A
$GPRMC,233921.000,A,3748.6250,N,12218.0074,W,0.69,224.76,210812,,,D*71
$GPRMC,233922.000,A,3748.6247,N,12218.0076,W,0.58,241.87,210812,,,D*79
$GPRMC,233923.000,A,3748.6245,N,12218.0084,W,1.11,257.98,210812,,,D*72
$GPRMC,233924.000,A,3748.6248,N,12218.0087,W,1.97,233.91,210812,,,D*7E
$GPRMC,233925.000,A,3748.6241,N,12218.0094,W,2.02,215.96,210812,,,D*78
$GPRMC,233926.000,A,3748.6231,N,12218.0102,W,1.62,216.17,210812,,,D*7D
$GPRMC,233927.000,A,3748.6224,N,12218.0105,W,1.43,204.94,210812,,,D*74
$GPRMC,233928.000,A,3748.6219,N,12218.0106,W,1.33,185.62,210812,,,D*72
$GPRMC,233929.000,A,3748.6211,N,12218.0107,W,1.49,184.56,210812,,,A*74
$GPRMC,233930.000,A,3748.6203,N,12218.0110,W,1.51,187.71,210812,,,A*76
$GPRMC,233931.000,A,3748.6196,N,12218.0114,W,1.40,188.24,210812,,,A*73
$GPRMC,233932.000,A,3748.6191,N,12218.0114,W,1.04,177.63,210812,,,A*74
$GPRMC,233933.000,A,3748.6187,N,12218.0115,W,1.10,186.62,210812,,,A*79
$GPRMC,233934.000,A,3748.6184,N,12218.0119,W,1.77,222.13,210812,,,A*7B
$GPRMC,233935.000,A,3748.6180,N,12218.0122,W,1.90,238.80,210812,,,A*7E
$GPRMC,233936.000,A,3748.6180,N,12218.0125,W,1.71,241.99,210812,,,A*73
$GPRMC,233937.000,A,3748.6179,N,12218.0127,W,1.54,261.26,210812,,,A*77
$GPRMC,233938.000,A,3748.6181,N,12218.0129,W,1.73,279.40,210812,,,A*7D
$GPRMC,233939.000,A,3748.6183,N,12218.0134,W,2.18,266.92,210812,,,A*7D
$GPRMC,233940.000,A,3748.6186,N,12218.0139,W,2.02,271.46,210812,,,A*7F
$GPRMC,233941.000,A,3748.6186,N,12218.0143,W,1.83,253.83,210812,,,A*70
$GPRMC,233942.000,A,3748.6182,N,12218.0148,W,1.94,258.93,210812,,,A*70
$GPRMC,233943.000,A,3748.6180,N,12218.0153,W,1.98,265.73,210812,,,A*75
$GPRMC,233944.000,A,3748.6181,N,12218.0159,W,1.96,259.65,210812,,,A*7F
$GPRMC,233945.000,A,3748.6182,N,12218.0165,W,1.93,272.62,210812,,,A*79
$GPRMC,233946.000,A,3748.6185,N,12218.0171,W,1.80,272.78,210812,,,A*71
$GPRMC,233947.000,A,3748.6188,N,12218.0176,W,1.88,280.38,210812,,,A*7B
$GPRMC,233948.000,A,3748.6188,N,12218.0182,W,1.51,282.75,210812,,,A*70
$GPRMC,233949.000,A,3748.6185,N,12218.0183,W,1.17,258.87,210812,,,A*75
$GPRMC,233950.000,A,3748.6186,N,12218.0186,W,1.20,291.13,210812,,,A*77
$GPRMC,233951.000,A,3748.6188,N,12218.0192,W,1.00,280.33,210812,,,A*7D
$GPRMC,233952.000,A,3748.6189,N,12218.0192,W,0.32,272.34,210812,,,A*75
$GPRMC,233953.000,A,3748.6190,N,12218.0194,W,0.26,177.73,210812,,,A*7A
$GPRMC,233954.000,A,3748.6194,N,12218.0198,W,0.54,271.88,210812,,,A*71
$GPRMC,233955.000,A,3748.6196,N,12218.0202,W,1.17,312.78,210812,,,A*7F
$GPRMC,233956.000,A,3748.6195,N,12218.0199,W,0.02,143.32,210812,,,A*73
$GPRMC,233957.000,A,3748.6204,N,12218.0208,W,1.68,347.13,210812,,,A*7A
$GPRMC,233958.000,A,3748.6209,N,12218.0212,W,1.35,1.33,210812,,,A*78
$GPRMC,233959.000,A,3748.6211,N,12218.0216,W,1.09,308.32,210812,,,A*70
$GPRMC,234000.000,A,3748.6216,N,12218.0221,W,0.63,315.37,210812,,,A*75
$GPRMC,234001.000,A,3748.6214,N,12218.0221,W,0.39,167.53,210812,,,A*7C
$GPRMC,234002.000,A,3748.6213,N,12218.0216,W,0.07,107.80,210812,,,A*79
$GPRMC,234003.000,A,3748.6213,N,12218.0214,W,1.01,15.33,210812,,,A*47
$GPRMC,234004.000,A,3748.6214,N,12218.0214,W,1.17,8.53,210812,,,A*7A
$GPRMC,234005.000,A,3748.6218,N,12218.0215,W,1.86,355.80,210812,,,A*7B
$GPRMC,234006.000,A,3748.6216,N,12218.0212,W,1.86,358.57,210812,,,A*76
$GPRMC,234007.000,A,3748.6208,N,12218.0212,W,0.56,351.75,210812,,,A*7D
$GPRMC,234008.000,A,3748.6209,N,12218.0216,W,0.13,27.79,210812,,,A*48
$GPRMC,234009.000,A,3748.6208,N,12218.0217,W,0.44,40.97,210812,,,A*4A
$GPRMC,234010.000,A,3748.6206,N,12218.0218,W,0.39,203.64,210812,,,A*70
$GPRMC,234011.000,A,3748.6217,N,12218.0218,W,0.55,307.77,210812,,,A*7C
$GPRMC,234012.000,A,3748.6220,N,12218.0221,W,0.50,337.07,210812,,,A*70
$GPRMC,234013.000,A,3748.6229,N,12218.0225,W,0.98,332.26,210812,,,A*7E
$GPRMC,234014.000,A,3748.6247,N,12218.0227,W,1.48,340.81,210812,,,A*77
$GPRMC,234015.000,A,3748.6251,N,12218.0231,W,1.47,357.47,210812,,,A*75
$GPRMC,234016.000,A,3748.6247,N,12218.0235,W,0.82,349.15,210812,,,A*75
$GPRMC,234017.000,A,3748.6232,N,12218.0234,W,0.25,125.84,210812,,,A*7A
$GPRMC,234018.000,A,3748.6221,N,12218.0234,W,0.70,174.83,210812,,,A*74
$GPRMC,234019.000,A,3748.6227,N,12218.0235,W,0.30,269.65,210812,,,A*71
$GPRMC,234020.000,A,3748.6221,N,12218.0235,W,0.62,175.72,210812,,,A*72
$GPRMC,234021.000,A,3748.6213,N,12218.0231,W,0.88,145.06,210812,,,A*72
$GPRMC,234022.000,A,3748.6213,N,12218.0229,W,0.49,47.62,210812,,,A*44
$GPRMC,234023.000,A,3748.6220,N,12218.0231,W,0.45,348.61,210812,,,A*7F
$GPRMC,234024.000,A,3748.6221,N,12218.0231,W,0.93,339.24,210812,,,A*75
$GPRMC,234025.000,A,3748.6238,N,12218.0230,W,2.14,351.93,210812,,,A*72
$GPRMC,234026.000,A,3748.6267,N,12218.0234,W,3.24,357.75,210812,,,A*73
$GPRMC,234027.000,A,3748.6278,N,12218.0238,W,3.04,349.43,210812,,,A*78
$GPRMC,234028.000,A,3748.6264,N,12218.0239,W,1.49,352.94,210812,,,A*70
$GPRMC,234029.000,A,3748.6256,N,12218.0240,W,0.62,354.72,210812,,,A*78
$GPRMC,234030.000,A,3748.6249,N,12218.0236,W,0.33,84.59,210812,,,A*4C
$GPRMC,234031.000,A,3748.6248,N,12218.0234,W,0.86,358.91,210812,,,A*76
$GPRMC,234032.000,A,3748.6241,N,12218.0230,W,0.42,149.18,210812,,,A*73
$GPRMC,234033.000,A,3748.6245,N,12218.0231,W,0.60,7.73,210812,,,A*71
$GPRMC,234034.000,A,3748.6252,N,12218.0231,W,0.62,16.40,210812,,,A*42
$GPRMC,234035.000,A,3748.6255,N,12218.0234,W,0.65,19.04,210812,,,A*49
$GPRMC,234036.000,A,3748.6261,N,12218.0236,W,0.38,111.49,210812,,,A*77
$GPRMC,234037.000,A,3748.6260,N,12218.0236,W,0.63,32.38,210812,,,A*4F
$GPRMC,234038.000,A,3748.6276,N,12218.0238,W,0.22,131.95,210812,,,A*79
$GPRMC,234039.000,A,3748.6285,N,12218.0243,W,0.70,281.36,210812,,,A*7E
$GPRMC,234040.000,A,3748.6297,N,12218.0249,W,1.43,333.57,210812,,,A*77
$GPRMC,234041.000,A,3748.6300,N,12218.0256,W,1.11,332.66,210812,,,A*73
$GPRMC,234042.000,A,3748.6294,N,12218.0255,W,0.56,20.13,210812,,,A*4F
$GPRMC,234043.000,A,3748.6286,N,12218.0256,W,0.12,3.60,210812,,,A*7B
$GPRMC,234044.000,A,3748.6283,N,12218.0263,W,0.90,5.00,210812,,,A*75
$GPRMC,234045.000,A,3748.6275,N,12218.0266,W,0.83,27.48,210812,,,A*46
$GPRMC,234046.000,A,3748.6259,N,12218.0265,W,0.43,125.48,210812,,,A*77
$GPRMC,234047.000,A,3748.6256,N,12218.0263,W,0.64,184.91,210812,,,A*75
$GPRMC,234048.000,A,3748.6256,N,12218.0264,W,0.46,117.97,210812,,,A*71
$GPRMC,234049.000,A,3748.6259,N,12218.0267,W,0.59,134.28,210812,,,A*77
$GPRMC,234050.000,A,3748.6259,N,12218.0267,W,0.69,130.53,210812,,,A*74
$GPRMC,234051.000,A,3748.6262,N,12218.0269,W,0.70,202.93,210812,,,A*75
$GPRMC,234052.000,A,3748.6259,N,12218.0270,W,0.51,197.73,210812,,,A*74
$GPRMC,234053.000,A,3748.6252,N,12218.0272,W,0.86,200.02,210812,,,A*7D
$GPRMC,234054.000,A,3748.6231,N,12218.0270,W,1.66,190.52,210812,,,A*7D
$GPRMC,234055.000,A,3748.6221,N,12218.0266,W,1.44,179.41,210812,,,A*7F
$GPRMC,234056.000,A,3748.6214,N,12218.0265,W,1.77,180.05,210812,,,A*7F
$GPRMC,234057.000,A,3748.6198,N,12218.0265,W,2.00,189.70,210812,,,A*71
$GPRMC,234058.000,A,3748.6191,N,12218.0261,W,1.62,173.48,210812,,,A*7A
$GPRMC,234059.000,A,3748.6193,N,12218.0257,W,0.65,162.31,210812,,,A*74
$GPRMC,234100.000,A,3748.6220,N,12218.0260,W,0.48,54.83,210812,,,A*44
$GPRMC,234101.000,A,3748.6226,N,12218.0262,W,0.28,63.04,210812,,,A*4C
$GPRMC,234102.000,A,3748.6226,N,12218.0262,W,0.24,94.11,210812,,,A*4F
$GPRMC,234103.000,A,3748.6229,N,12218.0262,W,0.34,90.65,210812,,,A*47
$GPRMC,234104.000,A,3748.6223,N,12218.0261,W,0.47,164.96,210812,,,A*7B
$GPRMC,234105.000,A,3748.6230,N,12218.0261,W,0.47,82.46,210812,,,A*4C
$GPRMC,234106.000,A,3748.6229,N,12218.0256,W,1.07,123.23,210812,,,A*7F
$GPRMC,234107.000,A,3748.6221,N,12218.0246,W,0.96,128.07,210812,,,A*73
$GPRMC,234108.000,A,3748.6225,N,12218.0242,W,1.43,35.97,210812,,,A*41
$GPRMC,234109.000,A,3748.6217,N,12218.0240,W,0.98,54.92,210812,,,A*46
$GPRMC,234110.000,A,3748.6212,N,12218.0236,W,1.01,117.70,210812,,,A*71
$GPRMC,234111.000,A,3748.6212,N,12218.0230,W,1.98,55.60,210812,,,A*40
$GPRMC,234112.000,A,3748.6212,N,12218.0223,W,0.99,41.71,210812,,,A*44
$GPRMC,234113.000,A,3748.6213,N,12218.0216,W,0.59,123.58,210812,,,A*70
$GPRMC,234114.000,A,3748.6207,N,12218.0212,W,0.74,190.66,210812,,,A*7C
$GPRMC,234115.000,A,3748.6204,N,12218.0211,W,0.69,209.04,210812,,,A*76
$GPRMC,234116.000,A,3748.6206,N,12218.0209,W,0.42,107.13,210812,,,A*7C
$GPRMC,234117.000,A,3748.6209,N,12218.0208,W,0.25,68.57,210812,,,A*4A
$GPRMC,234118.000,A,3748.6209,N,12218.0208,W,0.10,194.99,210812,,,A*73
$GPRMC,234119.000,A,3748.6209,N,12218.0207,W,0.73,89.05,210812,,,A*40
$GPRMC,234120.000,A,3748.6207,N,12218.0203,W,0.53,82.76,210812,,,A*4D
$GPRMC,234121.000,A,3748.6207,N,12218.0201,W,0.40,81.42,210812,,,A*48
$GPRMC,234122.000,A,3748.6206,N,12218.0202,W,0.51,133.85,210812,,,A*7A
$GPRMC,234123.000,A,3748.6206,N,12218.0198,W,0.41,212.64,210812,,,A*75
$GPRMC,234124.000,A,3748.6205,N,12218.0199,W,0.57,225.10,210812,,,A*70
$GPRMC,234125.000,A,3748.6203,N,12218.0198,W,0.64,290.66,210812,,,A*79
$GPRMC,234126.000,A,3748.6200,N,12218.0196,W,0.13,309.12,210812,,,A*75
$GPRMC,234127.000,A,3748.6199,N,12218.0201,W,0.10,307.03,210812,,,A*77
$GPRMC,234128.000,A,3748.6201,N,12218.0202,W,0.33,151.08,210812,,,A*72
$GPRMC,234129.000,A,3748.6203,N,12218.0200,W,0.65,98.55,210812,,,A*4C
$GPRMC,234130.000,A,3748.6204,N,12218.0197,W,0.82,58.35,210812,,,A*4D
$GPRMC,234131.000,A,3748.6205,N,12218.0191,W,1.02,49.13,210812,,,A*46
$GPRMC,234132.000,A,3748.6206,N,12218.0188,W,0.43,54.51,210812,,,A*40
$GPRMC,234133.000,A,3748.6206,N,12218.0186,W,0.16,147.74,210812,,,A*7B
$GPRMC,234134.000,A,3748.6211,N,12218.0182,W,0.95,0.62,210812,,,A*70
$GPRMC,234135.000,A,3748.6214,N,12218.0176,W,1.13,4.20,210812,,,A*72
$GPRMC,234136.000,A,3748.6210,N,12218.0163,W,0.27,34.05,210812,,,A*43
$GPRMC,234137.000,A,3748.6209,N,12218.0160,W,0.17,105.95,210812,,,A*70
$GPRMC,234138.000,A,3748.6205,N,12218.0157,W,0.43,151.81,210812,,,A*72
$GPRMC,234139.000,A,3748.6203,N,12218.0165,W,0.30,308.91,210812,,,A*7F
$GPRMC,234140.000,A,3748.6200,N,12218.0166,W,0.09,226.81,210812,,,A*77
$GPRMC,234141.000,A,3748.6200,N,12218.0168,W,0.17,243.88,210812,,,A*7D
$GPRMC,234142.000,A,3748.6200,N,12218.0169,W,0.10,137.84,210812,,,A*74
$GPRMC,234143.000,A,3748.6199,N,12218.0169,W,0.33,113.20,210812,,,A*7F
$GPRMC,234144.000,A,3748.6196,N,12218.0165,W,0.52,110.23,210812,,,A*7C
$GPRMC,234145.000,A,3748.6194,N,12218.0164,W,0.36,208.46,210812,,,A*75
$GPRMC,234146.000,A,3748.6188,N,12218.0167,W,0.35,193.48,210812,,,A*74
$GPRMC,234147.000,A,3748.6184,N,12218.0164,W,0.60,136.83,210812,,,A*72
$GPRMC,234148.000,A,3748.6178,N,12218.0162,W,1.23,166.35,210812,,,A*76
$GPRMC,234149.000,A,3748.6175,N,12218.0174,W,1.36,216.56,210812,,,A*78
$GPRMC,234150.000,A,3748.6173,N,12218.0180,W,1.28,223.16,210812,,,A*70
$GPRMC,234151.000,A,3748.6172,N,12218.0181,W,0.78,246.96,210812,,,A*7E
$GPRMC,234152.000,A,3748.6169,N,12218.0186,W,1.29,277.50,210812,,,A*7D
$GPRMC,234153.000,A,3748.6167,N,12218.0183,W,0.07,349.69,210812,,,A*7C
$GPRMC,234154.000,A,3748.6165,N,12218.0179,W,0.23,80.41,210812,,,A*46
$GPRMC,234155.000,A,3748.6165,N,12218.0173,W,0.36,78.49,210812,,,A*46
$GPRMC,234156.000,A,3748.6166,N,12218.0172,W,0.55,68.91,210812,,,A*46
$GPRMC,234157.000,A,3748.6169,N,12218.0176,W,0.93,92.87,210812,,,A*44
$GPRMC,234158.000,A,3748.6169,N,12218.0176,W,0.71,77.99,210812,,,A*43
$GPRMC,234159.000,A,3748.6171,N,12218.0178,W,0.20,19.03,210812,,,A*4A
$GPRMC,234200.000,A,3748.6174,N,12218.0178,W,0.38,82.13,210812,,,A*4A
$GPRMC,234201.000,A,3748.6177,N,12218.0182,W,0.55,288.93,210812,,,A*76
$GPRMC,234202.000,A,3748.6182,N,12218.0190,W,1.09,286.08,210812,,,A*78
$GPRMC,234203.000,A,3748.6186,N,12218.0192,W,1.15,285.86,210812,,,A*77
$GPRMC,234204.000,A,3748.6187,N,12218.0191,W,1.15,293.15,210812,,,A*7F
$GPRMC,234205.000,A,3748.6189,N,12218.0192,W,0.88,285.08,210812,,,A*7D
$GPRMC,234206.000,A,3748.6191,N,12218.0196,W,0.80,283.11,210812,,,A*75
$GPRMC,234207.000,A,3748.6194,N,12218.0200,W,1.18,294.91,210812,,,A*73
$GPRMC,234208.000,A,3748.6197,N,12218.0206,W,1.05,318.73,210812,,,A*7C
$GPRMC,234209.000,A,3748.6199,N,12218.0210,W,1.24,272.79,210812,,,A*70
$GPRMC,234210.000,A,3748.6200,N,12218.0213,W,0.50,259.44,210812,,,A*7D
$GPRMC,234211.000,A,3748.6202,N,12218.0217,W,0.70,323.48,210812,,,A*78
$GPRMC,234212.000,A,3748.6204,N,12218.0219,W,1.06,333.49,210812,,,A*73
$GPRMC,234213.000,A,3748.6206,N,12218.0218,W,0.72,3.69,210812,,,A*71
$GPRMC,234214.000,A,3748.6207,N,12218.0216,W,0.58,67.12,210812,,,A*4F
$GPRMC,234215.000,A,3748.6207,N,12218.0214,W,0.22,83.63,210812,,,A*4D
$GPRMC,234216.000,A,3748.6204,N,12218.0208,W,0.66,230.85,210812,,,A*72
$GPRMC,234217.000,A,3748.6199,N,12218.0205,W,0.68,169.48,210812,,,A*79
$GPRMC,234218.000,A,3748.6193,N,12218.0197,W,1.36,132.77,210812,,,A*7C
$GPRMC,234219.000,A,3748.6191,N,12218.0195,W,0.37,167.48,210812,,,A*71
$GPRMC,234220.000,A,3748.6191,N,12218.0191,W,0.49,138.98,210812,,,A*71
$GPRMC,234221.000,A,3748.6193,N,12218.0187,W,0.11,252.83,210812,,,A*7D
$GPRMC,234222.000,A,3748.6187,N,12218.0173,W,0.63,135.22,210812,,,A*7C
$GPRMC,234223.000,A,3748.6186,N,12218.0172,W,0.47,250.01,210812,,,A*7A
$GPRMC,234224.000,A,3748.6187,N,12218.0172,W,0.20,258.06,210812,,,A*72
$GPRMC,234225.000,A,3748.6185,N,12218.0163,W,0.67,156.63,210812,,,A*7C
$GPRMC,234226.000,A,3748.6180,N,12218.0157,W,0.49,139.65,210812,,,A*7E
$GPRMC,234227.000,A,3748.6179,N,12218.0157,W,0.63,130.33,210812,,,A*7B
$GPRMC,234228.000,A,3748.6179,N,12218.0155,W,0.30,50.73,210812,,,A*43
$GPRMC,234229.000,A,3748.6179,N,12218.0156,W,0.61,46.71,210812,,,A*40
$GPRMC,234230.000,A,3748.6177,N,12218.0153,W,0.45,25.53,210812,,,A*40
$GPRMC,234231.000,A,3748.6179,N,12218.0153,W,0.40,42.67,210812,,,A*4C
$GPRMC,234232.000,A,3748.6183,N,12218.0153,W,0.84,69.54,210812,,,A*4B
$GPRMC,234233.000,A,3748.6187,N,12218.0152,W,0.45,37.25,210812,,,A*4F
$GPRMC,234234.000,A,3748.6187,N,12218.0154,W,0.11,249.35,210812,,,A*75
$GPRMC,234235.000,A,3748.6187,N,12218.0158,W,0.33,218.23,210812,,,A*7B
$GPRMC,234236.000,A,3748.6186,N,12218.0164,W,0.35,217.75,210812,,,A*7C
$GPRMC,234237.000,A,3748.6186,N,12218.0168,W,0.23,65.49,210812,,,A*4E
$GPRMC,234238.000,A,3748.6185,N,12218.0167,W,0.16,2.82,210812,,,A*7D
$GPRMC,234239.000,A,3748.6180,N,12218.0170,W,0.39,135.52,210812,,,A*7A
$GPRMC,234240.000,A,3748.6180,N,12218.0175,W,0.67,248.19,210812,,,A*7C
$GPRMC,234241.000,A,3748.6179,N,12218.0173,W,0.11,110.20,210812,,,A*78
$GPRMC,234242.000,A,3748.6175,N,12218.0169,W,0.25,230.81,210812,,,A*71
$GPRMC,234243.000,A,3748.6170,N,12218.0165,W,0.57,127.40,210812,,,A*74
$GPRMC,234244.000,A,3748.6166,N,12218.0163,W,0.25,136.49,210812,,,A*7E
$GPRMC,234245.000,A,3748.6163,N,12218.0162,W,0.35,110.67,210812,,,A*72
$GPRMC,234246.000,A,3748.6160,N,12218.0163,W,0.23,169.59,210812,,,A*77
$GPRMC,234247.000,A,3748.6156,N,12218.0162,W,0.40,120.37,210812,,,A*72
$GPRMC,234248.000,A,3748.6152,N,12218.0161,W,0.36,110.31,210812,,,A*7E
$GPRMC,234249.000,A,3748.6149,N,12218.0159,W,0.32,144.47,210812,,,A*7A
$GPRMC,234250.000,A,3748.6148,N,12218.0158,W,0.34,132.00,210812,,,A*76
$GPRMC,234251.000,A,3748.6146,N,12218.0157,W,0.23,172.21,210812,,,A*77
$GPRMC,234252.000,A,3748.6145,N,12218.0156,W,0.25,123.42,210812,,,A*71
$GPRMC,234253.000,A,3748.6144,N,12218.0154,W,0.31,131.75,210812,,,A*71
$GPRMC,234254.000,A,3748.6143,N,12218.0153,W,0.27,113.90,210812,,,A*7A
$GPRMC,234255.000,A,3748.6143,N,12218.0151,W,0.48,96.15,210812,,,A*41
$GPRMC,234256.000,A,3748.6143,N,12218.0151,W,0.13,186.51,210812,,,A*7C
$GPRMC,234257.000,A,3748.6143,N,12218.0151,W,0.10,206.30,210812,,,A*72
$GPRMC,234258.000,A,3748.6142,N,12218.0152,W,0.19,220.67,210812,,,A*70
$GPRMC,234259.000,A,3748.6142,N,12218.0152,W,0.23,239.47,210812,,,A*72
$GPRMC,234300.000,A,3748.6143,N,12218.0152,W,0.10,210.49,210812,,,A*7B
$GPRMC,234301.000,A,3748.6143,N,12218.0151,W,0.21,100.30,210812,,,A*77
$GPRMC,234302.000,A,3748.6143,N,12218.0149,W,0.29,89.53,210812,,,A*40
$GPRMC,234303.000,A,3748.6143,N,12218.0148,W,0.39,70.35,210812,,,A*47
$GPRMC,234304.000,A,3748.6144,N,12218.0147,W,0.81,28.14,210812,,,A*45
$GPRMC,234305.000,A,3748.6148,N,12218.0144,W,0.49,349.57,210812,,,A*7C
$GPRMC,234306.000,A,3748.6152,N,12218.0146,W,0.77,1.34,210812,,,A*71
$GPRMC,234307.000,A,3748.6156,N,12218.0150,W,0.39,337.36,210812,,,A*7D
$GPRMC,234308.000,A,3748.6160,N,12218.0153,W,0.16,281.27,210812,,,A*75
