$ADVER,3080,2.3
$GPRMC,231604.360,A,3748.7996,N,12217.8647,W,0.10,93.91,210812,,,A*43
$GPGGA,231605.361,3748.7985,N,12217.8641,W,1,05,3.4,8.5,M,-25.1,M,,0000*6A
$GPGSA,A,3,02,12,10,04,25,,,,,,,,4.8,3.4,3.4*3D
$GPGSV,3,1,10,12,81,331,39,02,74,061,40,25,39,314,36,10,29,084,29*7A
$GPGSV,3,2,10,04,29,047,31,29,26,279,,05,24,144,33,09,23,202,*7E
$GPGSV,3,3,10,27,18,197,,31,02,330,*7B
$GPRMC,231605.361,A,3748.7985,N,12217.8641,W,0.97,181.18,210812,,,A*7B
$GPVTG,181.18,T,,M,0.97,N,1.8,K,A*0B
$GPGGA,231606.000,3748.7942,N,12217.8634,W,1,05,3.4,-7.5,M,-25.1,M,,0000*46
$GPGSA,A,3,02,12,10,04,25,,,,,,,,4.8,3.4,3.4*3D
$GPRMC,231606.000,A,3748.7942,N,12217.8634,W,0.19,166.37,210812,,,A*77
$GPVTG,166.37,T,,M,0.19,N,0.4,K,A*04
$GPGGA,231607.000,3748.7967,N,12217.8627,W,1,05,3.4,-9.1,M,-25.1,M,,0000*48
$GPGSA,A,3,02,12,10,04,25,,,,,,,,4.8,3.4,3.4*3D
$GPRMC,231607.000,A,3748.7967,N,12217.8627,W,0.21,45.21,210812,,,A*4F
$GPVTG,45.21,T,,M,0.21,N,0.4,K,A*38
$GPGGA,231608.000,3748.7957,N,12217.8618,W,1,05,3.4,-11.5,M,-25.1,M,,0000*75
$GPGSA,A,3,02,12,10,04,25,,,,,,,,4.8,3.4,3.4*3D
$GPRMC,231608.000,A,3748.7957,N,12217.8618,W,0.17,57.01,210812,,,A*4B
$GPVTG,57.01,T,,M,0.17,N,0.3,K,A*3B
$GPGGA,231609.000,3748.7953,N,12217.8620,W,1,05,3.4,-9.5,M,-25.1,M,,0000*42
$GPGSA,A,3,02,12,10,04,25,,,,,,,,4.8,3.4,3.4*3D
$GPRMC,231609.000,A,3748.7953,N,12217.8620,W,0.10,109.45,210812,,,A*78
$GPVTG,109.45,T,,M,0.10,N,0.2,K,A*07
$GPGGA,231610.000,3748.7981,N,12217.8611,W,1,05,3.4,-5.7,M,-25.1,M,,0000*49
$GPGSA,A,3,02,12,10,04,25,,,,,,,,4.8,3.4,3.4*3D
$GPGSV,3,1,11,12,81,331,39,02,74,061,40,25,39,314,36,10,29,084,28*7A
$GPGSV,3,2,11,04,29,047,31,29,26,279,30,05,24,144,34,09,23,202,33*7B
$GPGSV,3,3,11,27,18,197,30,31,02,330,,48,00,000,36*40
$GPRMC,231610.000,A,3748.7981,N,12217.8611,W,0.31,52.18,210812,,,A*49
$GPGGA,231611.000,3748.7988,N,12217.8611,W,1,05,3.4,-4.8,M,-25.1,M,,0000*4F
$GPGSA,A,3,02,12,10,04,25,,,,,,,,4.8,3.4,3.4*3D
$GPRMC,231611.000,A,3748.7988,N,12217.8611,W,0.21,32.76,210812,,,A*4E
$GPVTG,32.76,T,,M,0.21,N,0.4,K,A*3A
$GPGGA,231612.000,3748.8001,N,12217.8605,W,1,05,3.4,-2.8,M,-25.1,M,,0000*48
$GPGSA,A,3,02,12,10,04,25,,,,,,,,4.8,3.4,3.4*3D
$GPRMC,231612.000,A,3748.8001,N,12217.8605,W,0.35,30.00,210812,,,A*49
$GPVTG,30.00,T,,M,0.35,N,0.6,K,A*3E
$GPGGA,231613.000,3748.8024,N,12217.8597,W,1,05,3.4,-0.2,M,-25.1,M,,0000*4E
$GPGSA,A,3,02,12,10,04,25,,,,,,,,4.8,3.4,3.4*3D
$GPRMC,231613.000,A,3748.8024,N,12217.8597,W,0.69,22.30,210812,,,A*4E
$GPVTG,22.30,T,,M,0.69,N,1.3,K,A*33
$GPGGA,231614.000,3748.8039,N,12217.8594,W,1,05,3.4,1.9,M,-25.1,M,,0000*61
$GPGSA,A,3,02,12,10,04,25,,,,,,,,4.8,3.4,3.4*3D
$GPRMC,231614.000,A,3748.8039,N,12217.8594,W,0.76,20.37,210812,,,A*4D
$GPVTG,20.37,T,,M,0.76,N,1.4,K,A*3F
$GPGGA,231615.000,3748.8051,N,12217.8590,W,1,05,3.4,3.7,M,-25.1,M,,0000*66
$GPGSA,A,3,02,12,10,04,25,,,,,,,,4.8,3.4,3.4*3D
$GPGSV,3,1,11,12,81,331,39,02,74,061,40,25,39,314,36,10,29,084,29*7B
$GPGSV,3,2,11,04,29,047,31,29,26,279,30,05,24,144,34,09,23,202,33*7B
$GPGSV,3,3,11,27,18,197,30,31,02,330,20,48,00,000,36*42
$GPRMC,231615.000,A,3748.8051,N,12217.8590,W,0.82,21.38,210812,,,A*43
$GPVTG,21.38,T,,M,0.82,N,1.5,K,A*3B
$GPGGA,231616.000,3748.8066,N,12217.8584,W,1,05,3.4,5.9,M,-25.1,M,,0000*6C
$GPGSA,A,3,02,12,10,04,25,,,,,,,,4.8,3.4,3.4*3D
$GPRMC,231616.000,A,3748.8066,N,12217.8584,W,0.97,20.98,210812,,,A*4E
$GPVTG,20.98,T,,M,0.97,N,1.8,K,A*39
$GPGGA,231617.000,3748.8079,N,12217.8580,W,1,05,3.4,7.8,M,-25.1,M,,0000*64
$GPGSA,A,3,02,12,10,04,25,,,,,,,,4.8,3.4,3.4*3D
$GPRMC,231617.000,A,3748.8079,N,12217.8580,W,1.01,19.65,210812,,,A*43
$GPVTG,19.65,T,,M,1.01,N,1.9,K,A*3E
$GPGGA,231618.000,3748.8089,N,12217.8577,W,1,05,3.4,9.4,M,-25.1,M,,0000*6E
$GPGSA,A,3,02,12,10,04,25,,,,,,,,4.8,3.4,3.4*3D
$GPRMC,231618.000,A,3748.8089,N,12217.8577,W,0.98,20.25,210812,,,A*44
$GPVTG,20.25,T,,M,0.98,N,1.8,K,A*30
$GPGGA,231619.000,3748.8098,N,12217.8573,W,1,05,3.4,10.9,M,-25.1,M,,0000*5E
$GPGSA,A,3,02,12,10,04,25,,,,,,,,4.8,3.4,3.4*3D
$GPRMC,231619.000,A,3748.8098,N,12217.8573,W,1.02,22.11,210812,,,A*46
$GPVTG,22.11,T,,M,1.02,N,1.9,K,A*36
$GPGGA,231620.000,3748.8107,N,12217.8570,W,1,05,3.4,12.3,M,-25.1,M,,0000*58
$GPGSA,A,3,02,12,10,04,25,,,,,,,,4.8,3.4,3.4*3D
$GPGSV,3,1,11,12,81,331,39,02,73,061,40,25,39,314,36,10,29,083,29*7B
$GPGSV,3,2,11,04,29,047,30,29,26,279,30,05,24,144,34,09,23,202,33*7A
$GPGSV,3,3,11,27,18,197,29,31,02,330,20,48,44,197,36*45
$GPRMC,231620.000,A,3748.8107,N,12217.8570,W,1.03,20.87,210812,,,A*44
$GPVTG,20.87,T,,M,1.03,N,1.9,K,A*3A
$GPGGA,231621.000,3748.8116,N,12217.8566,W,1,05,3.4,13.6,M,-25.1,M,,0000*5A
$GPGSA,A,3,02,12,10,04,25,,,,,,,,4.8,3.4,3.4*3D
$GPRMC,231621.000,A,3748.8116,N,12217.8566,W,1.16,20.39,210812,,,A*43
$GPVTG,20.39,T,,M,1.16,N,2.1,K,A*30
$GPGGA,231622.000,3748.8124,N,12217.8562,W,1,05,3.4,14.8,M,-25.1,M,,0000*55
$GPGSA,A,3,02,12,10,04,25,,,,,,,,4.8,3.4,3.4*3D
$GPRMC,231622.000,A,3748.8124,N,12217.8562,W,1.16,21.44,210812,,,A*4E
$GPVTG,21.44,T,,M,1.16,N,2.2,K,A*38
$GPGGA,231623.000,3748.8131,N,12217.8558,W,1,05,3.4,15.9,M,-25.1,M,,0000*59
$GPGSA,A,3,02,12,10,04,25,,,,,,,,4.8,3.4,3.4*3D
$GPRMC,231623.000,A,3748.8131,N,12217.8558,W,1.16,20.36,210812,,,A*46
$GPVTG,20.36,T,,M,1.16,N,2.1,K,A*3F
$GPGGA,231624.000,3748.8139,N,12217.8555,W,1,05,3.4,16.9,M,-25.1,M,,0000*58
$GPGSA,A,3,02,12,10,04,25,,,,,,,,4.8,3.4,3.4*3D
$GPRMC,231624.000,A,3748.8139,N,12217.8555,W,1.21,21.04,210812,,,A*40
$GPVTG,21.04,T,,M,1.21,N,2.2,K,A*38
$GPGGA,231625.000,3748.8146,N,12217.8551,W,1,05,3.4,17.9,M,-25.1,M,,0000*54
$GPGSA,A,3,02,12,10,04,25,,,,,,,,4.8,3.4,3.4*3D
$GPGSV,3,1,11,12,81,331,39,02,73,061,40,25,39,314,36,10,29,083,29*7B
$GPGSV,3,2,11,04,29,047,29,29,26,279,30,05,24,144,34,09,23,202,33*72
$GPGSV,3,3,11,27,18,197,29,31,02,330,19,48,44,197,36*4F
$GPRMC,231625.000,A,3748.8146,N,12217.8551,W,1.19,21.25,210812,,,A*45
$GPGGA,231626.000,3748.8153,N,12217.8548,W,1,05,3.4,18.9,M,-25.1,M,,0000*54
$GPGSA,A,3,02,12,10,04,25,,,,,,,,4.8,3.4,3.4*3D
$GPRMC,231626.000,A,3748.8153,N,12217.8548,W,1.16,20.60,210812,,,A*45
$GPVTG,20.60,T,,M,1.16,N,2.1,K,A*3C
$GPGGA,231627.000,3748.8160,N,12217.8545,W,1,05,3.4,19.8,M,-25.1,M,,0000*58
$GPGSA,A,3,02,12,10,04,25,,,,,,,,4.8,3.4,3.4*3D
$GPRMC,231627.000,A,3748.8160,N,12217.8545,W,1.22,21.33,210812,,,A*49
$GPVTG,21.33,T,,M,1.22,N,2.3,K,A*3E
$GPGGA,231628.000,3748.8166,N,12217.8542,W,1,05,3.4,20.6,M,-25.1,M,,0000*52
$GPGSA,A,3,02,12,10,04,25,,,,,,,,4.8,3.4,3.4*3D
$GPRMC,231628.000,A,3748.8166,N,12217.8542,W,1.20,20.01,210812,,,A*45
$GPVTG,20.01,T,,M,1.20,N,2.2,K,A*3D
$GPGGA,231629.000,3748.8171,N,12217.8539,W,1,05,3.4,21.3,M,-25.1,M,,0000*5D
$GPGSA,A,3,02,12,10,04,25,,,,,,,,4.8,3.4,3.4*3D
$GPRMC,231629.000,A,3748.8171,N,12217.8539,W,1.18,21.02,210812,,,A*47
$GPVTG,21.02,T,,M,1.18,N,2.2,K,A*34
$GPGGA,231630.000,3748.8176,N,12217.8536,W,1,05,3.4,22.0,M,-25.1,M,,0000*5D
$GPGSA,A,3,02,12,10,04,25,,,,,,,,4.8,3.4,3.4*3D
$GPGSV,3,1,11,12,81,331,39,02,73,061,40,25,39,314,36,10,29,083,28*7A
$GPGSV,3,2,11,04,29,047,29,29,26,279,31,05,24,144,34,09,23,202,33*73
$GPGSV,3,3,11,27,18,197,29,31,02,330,17,48,44,197,36*41
$GPRMC,231630.000,A,3748.8176,N,12217.8536,W,1.12,19.66,210812,,,A*44
$GPVTG,19.66,T,,M,1.12,N,2.1,K,A*34
$GPGGA,231631.000,3748.8181,N,12217.8534,W,1,05,3.4,22.6,M,-25.1,M,,0000*50
$GPGSA,A,3,02,12,10,04,25,,,,,,,,4.8,3.4,3.4*3D
$GPRMC,231631.000,A,3748.8181,N,12217.8534,W,1.08,18.86,210812,,,A*4B
$GPVTG,18.86,T,,M,1.08,N,2.0,K,A*31
$GPGGA,231632.000,3748.8184,N,12217.8532,W,1,05,3.4,23.1,M,-25.1,M,,0000*56
$GPGSA,A,3,02,12,10,04,25,,,,,,,,4.8,3.4,3.4*3D
$GPRMC,231632.000,A,3748.8184,N,12217.8532,W,1.05,19.44,210812,,,A*49
$GPVTG,19.44,T,,M,1.05,N,1.9,K,A*39
$GPGGA,231633.000,3748.8188,N,12217.8530,W,1,05,3.4,23.5,M,-25.1,M,,0000*5D
$GPGSA,A,3,02,12,10,04,25,,,,,,,,4.8,3.4,3.4*3D
$GPRMC,231633.000,A,3748.8188,N,12217.8530,W,1.03,18.74,210812,,,A*42
$GPVTG,18.74,T,,M,1.03,N,1.9,K,A*3D
$GPGGA,231634.000,3748.8157,N,12217.8543,W,1,08,1.0,17.9,M,-25.1,M,,0000*5C
$GPGSA,A,3,02,12,10,04,25,05,27,29,,,,,1.9,1.0,1.7*35
$GPRMC,231634.000,A,3748.8157,N,12217.8543,W,0.06,153.18,210812,,,A*73
$GPVTG,153.18,T,,M,0.06,N,0.1,K,A*04
$GPGGA,231635.000,3748.8149,N,12217.8549,W,1,08,1.0,16.1,M,-25.1,M,,0000*51
$GPGSA,A,3,02,12,10,04,25,05,27,29,,,,,1.9,1.0,1.7*35
$GPGSV,3,1,11,12,81,331,39,02,73,061,40,25,39,314,36,10,29,083,28*7A
$GPGSV,3,2,11,04,29,047,30,29,26,279,31,05,25,144,34,09,23,202,33*7A
$GPGSV,3,3,11,27,18,196,30,31,02,330,16,48,44,197,36*49
$GPRMC,231635.000,A,3748.8149,N,12217.8549,W,0.06,89.14,210812,,,A*4D
$GPVTG,89.14,T,,M,0.06,N,0.1,K,A*3E
$GPGGA,231636.000,3748.8133,N,12217.8552,W,1,08,1.0,13.3,M,-25.1,M,,0000*52
$GPGSA,A,3,02,12,10,04,25,05,27,29,,,,,1.9,1.0,1.7*35
$GPRMC,231636.000,A,3748.8133,N,12217.8552,W,0.08,70.30,210812,,,A*47
$GPVTG,70.30,T,,M,0.08,N,0.1,K,A*30
$GPGGA,231637.000,3748.8109,N,12217.8558,W,1,08,1.0,9.4,M,-25.1,M,,0000*6C
$GPGSA,A,3,02,12,10,04,25,05,27,29,,,,,1.9,1.0,1.7*35
$GPRMC,231637.000,A,3748.8109,N,12217.8558,W,0.09,79.54,210812,,,A*4F
$GPVTG,79.54,T,,M,0.09,N,0.2,K,A*39
$GPGGA,231638.000,3748.8094,N,12217.8558,W,1,08,1.0,6.9,M,-25.1,M,,0000*64
$GPGSA,A,3,02,12,10,04,25,05,27,29,,,,,1.9,1.0,1.7*35
$GPRMC,231638.000,A,3748.8094,N,12217.8558,W,0.13,69.69,210812,,,A*41
$GPVTG,69.69,T,,M,0.13,N,0.2,K,A*3D
$GPGGA,231639.000,3748.8084,N,12217.8557,W,1,08,1.0,5.3,M,-25.1,M,,0000*62
$GPGSA,A,3,02,12,10,04,25,05,27,29,,,,,1.9,1.0,1.7*35
$GPRMC,231639.000,A,3748.8084,N,12217.8557,W,0.15,67.82,210812,,,A*43
$GPVTG,67.82,T,,M,0.15,N,0.3,K,A*31
$GPGGA,231640.000,3748.8078,N,12217.8555,W,1,08,1.0,4.1,M,-25.1,M,,0000*6E
$GPGSA,A,3,02,12,10,04,25,05,27,29,,,,,1.9,1.0,1.7*35
$GPGSV,3,1,11,12,81,331,39,02,73,061,40,25,39,314,36,10,29,083,28*7A
$GPGSV,3,2,11,04,29,047,30,29,26,279,31,05,25,144,35,09,23,202,33*7B
$GPGSV,3,3,11,27,18,196,30,31,02,330,,48,44,197,36*4E
$GPRMC,231640.000,A,3748.8078,N,12217.8555,W,0.13,58.65,210812,,,A*4F
$GPGGA,231641.000,3748.8073,N,12217.8554,W,1,08,1.0,3.2,M,-25.1,M,,0000*61
$GPGSA,A,3,02,12,10,04,25,05,27,29,,,,,1.9,1.0,1.7*35
$GPRMC,231641.000,A,3748.8073,N,12217.8554,W,0.12,62.23,210812,,,A*4E
$GPVTG,62.23,T,,M,0.12,N,0.2,K,A*39
$GPGGA,231642.000,3748.8069,N,12217.8553,W,1,08,1.0,2.5,M,-25.1,M,,0000*68
$GPGSA,A,3,02,12,10,04,25,05,27,29,,,,,1.9,1.0,1.7*35
$GPRMC,231642.000,A,3748.8069,N,12217.8553,W,0.14,72.28,210812,,,A*4D
$GPVTG,72.28,T,,M,0.14,N,0.3,K,A*34
$GPGGA,231643.000,3748.8067,N,12217.8552,W,1,08,1.0,1.9,M,-25.1,M,,0000*69
$GPGSA,A,3,02,12,10,04,25,05,27,29,,,,,1.9,1.0,1.7*35
$GPRMC,231643.000,A,3748.8067,N,12217.8552,W,0.12,59.51,210812,,,A*42
$GPVTG,59.51,T,,M,0.12,N,0.2,K,A*34
$GPGGA,231644.000,3748.8064,N,12217.8551,W,1,08,1.0,1.4,M,-25.1,M,,0000*63
$GPGSA,A,3,02,12,10,04,25,05,27,29,,,,,1.9,1.0,1.7*35
$GPRMC,231644.000,A,3748.8064,N,12217.8551,W,0.11,65.77,210812,,,A*4D
$GPVTG,65.77,T,,M,0.11,N,0.2,K,A*3C
$GPGGA,231645.000,3748.8062,N,12217.8550,W,1,08,1.0,1.0,M,-25.1,M,,0000*61
$GPGSA,A,3,02,12,10,04,25,05,27,29,,,,,1.9,1.0,1.7*35
$GPGSV,3,1,11,12,82,331,39,02,73,061,40,25,39,314,36,10,29,083,28*79
$GPGSV,3,2,11,04,29,047,31,29,26,279,31,05,25,144,35,09,23,202,32*7B
$GPGSV,3,3,11,27,17,196,30,31,02,330,,48,44,197,36*41
$GPRMC,231645.000,A,3748.8062,N,12217.8550,W,0.11,70.88,210812,,,A*4F
$GPVTG,70.88,T,,M,0.11,N,0.2,K,A*38
$GPGGA,231646.000,3748.8060,N,12217.8550,W,1,08,1.0,0.7,M,-25.1,M,,0000*66
$GPGSA,A,3,02,12,10,04,25,05,27,29,,,,,1.9,1.0,1.7*35
$GPRMC,231646.000,A,3748.8060,N,12217.8550,W,0.09,67.43,210812,,,A*46
$GPVTG,67.43,T,,M,0.09,N,0.2,K,A*30
$GPGGA,231647.000,3748.8058,N,12217.8549,W,1,08,1.0,0.4,M,-25.1,M,,0000*67
$GPGSA,A,3,02,12,10,04,25,05,27,29,,,,,1.9,1.0,1.7*35
$GPRMC,231647.000,A,3748.8058,N,12217.8549,W,0.08,78.27,210812,,,A*49
$GPVTG,78.27,T,,M,0.08,N,0.2,K,A*3D
$GPGGA,231648.000,3748.8057,N,12217.8549,W,1,08,1.0,0.2,M,-25.1,M,,0000*61
$GPGSA,A,3,02,12,10,04,25,05,27,29,,,,,1.9,1.0,1.7*35
$GPRMC,231648.000,A,3748.8057,N,12217.8549,W,0.07,66.74,210812,,,A*4F
$GPVTG,66.74,T,,M,0.07,N,0.1,K,A*38
$GPGGA,231649.000,3748.8056,N,12217.8548,W,1,08,1.0,0.0,M,-25.1,M,,0000*62
$GPGSA,A,3,02,12,10,04,25,05,27,29,,,,,1.9,1.0,1.7*35
$GPRMC,231649.000,A,3748.8056,N,12217.8548,W,0.08,79.08,210812,,,A*44
$GPVTG,79.08,T,,M,0.08,N,0.2,K,A*31
$GPGGA,231650.000,3748.8054,N,12217.8548,W,1,08,1.0,-0.2,M,-25.1,M,,0000*47
$GPGSA,A,3,02,12,10,04,25,05,27,29,,,,,1.9,1.0,1.7*35
$GPGSV,3,1,11,12,82,331,39,02,73,061,40,25,39,314,36,10,29,083,28*79
$GPGSV,3,2,11,04,29,047,32,29,26,279,31,05,25,144,35,09,23,202,32*78
$GPGSV,3,3,11,27,17,196,31,31,02,330,,48,44,197,36*40
$GPRMC,231650.000,A,3748.8054,N,12217.8548,W,0.09,79.49,210812,,,A*4A
$GPVTG,79.49,T,,M,0.09,N,0.2,K,A*35
$GPGGA,231651.000,3748.8053,N,12217.8548,W,1,08,1.0,-0.3,M,-25.1,M,,0000*40
$GPGSA,A,3,02,12,10,04,25,05,27,29,,,,,1.9,1.0,1.7*35
$GPRMC,231651.000,A,3748.8053,N,12217.8548,W,0.06,90.63,210812,,,A*4C
$GPVTG,90.63,T,,M,0.06,N,0.1,K,A*36
$GPGGA,231652.000,3748.8052,N,12217.8548,W,1,08,1.0,-0.4,M,-25.1,M,,0000*45
$GPGSA,A,3,02,12,10,04,25,05,27,29,,,,,1.9,1.0,1.7*35
$GPRMC,231652.000,A,3748.8052,N,12217.8548,W,0.06,89.50,210812,,,A*46
$GPVTG,89.50,T,,M,0.06,N,0.1,K,A*3E
$GPGGA,231653.000,3748.8050,N,12217.8548,W,1,08,1.0,-0.5,M,-25.1,M,,0000*47
$GPGSA,A,3,02,12,10,04,25,05,27,29,,,,,1.9,1.0,1.7*35
$GPRMC,231653.000,A,3748.8050,N,12217.8548,W,0.06,87.15,210812,,,A*4A
$GPVTG,87.15,T,,M,0.06,N,0.1,K,A*31
$GPGGA,231654.000,3748.8049,N,12217.8548,W,1,08,1.0,-0.5,M,-25.1,M,,0000*48
$GPGSA,A,3,02,12,10,04,25,05,27,29,,,,,1.9,1.0,1.7*35
$GPRMC,231654.000,A,3748.8049,N,12217.8548,W,0.07,103.91,210812,,,A*75
$GPVTG,103.91,T,,M,0.07,N,0.1,K,A*01
$GPGGA,231655.000,3748.8048,N,12217.8549,W,2,08,1.0,-0.5,M,-25.1,M,1.8,0000*6D
$GPGSA,A,3,02,12,10,04,25,05,27,29,,,,,1.9,1.0,1.7*35
$GPGSV,3,1,11,12,82,331,39,02,73,061,40,25,39,314,36,10,29,083,28*79
$GPGSV,3,2,11,04,29,047,32,29,26,279,31,05,25,144,35,09,23,202,32*78
$GPGSV,3,3,11,27,17,196,31,31,02,330,,48,44,197,36*40
$GPRMC,231655.000,A,3748.8048,N,12217.8549,W,0.05,58.92,210812,,,D*4F
$GPGGA,231656.000,3748.8047,N,12217.8549,W,2,08,1.0,-0.6,M,-25.1,M,1.8,0000*62
$GPGSA,A,3,02,12,10,04,25,05,27,29,,,,,1.9,1.0,1.7*35
$GPRMC,231656.000,A,3748.8047,N,12217.8549,W,0.02,88.93,210812,,,D*48
$GPVTG,88.93,T,,M,0.02,N,0.0,K,D*30
$GPGGA,231657.000,3748.8046,N,12217.8550,W,2,08,1.0,-0.6,M,-25.1,M,1.8,0000*6A
$GPGSA,A,3,02,12,10,04,25,05,27,29,,,,,1.9,1.0,1.7*35
$GPRMC,231657.000,A,3748.8046,N,12217.8550,W,0.04,82.59,210812,,,D*4A
$GPVTG,82.59,T,,M,0.04,N,0.1,K,D*3B
$GPGGA,231658.000,3748.8045,N,12217.8550,W,2,08,1.0,-0.7,M,-25.1,M,1.8,0000*67
$GPGSA,A,3,02,12,10,04,25,05,27,29,,,,,1.9,1.0,1.7*35
$GPRMC,231658.000,A,3748.8045,N,12217.8550,W,0.07,75.43,210812,,,D*46
$GPVTG,75.43,T,,M,0.07,N,0.1,K,D*3B
$GPGGA,231659.000,3748.8044,N,12217.8551,W,2,08,1.0,-0.7,M,-25.1,M,1.8,0000*66
$GPGSA,A,3,02,12,10,04,25,05,27,29,,,,,1.9,1.0,1.7*35
$GPRMC,231659.000,A,3748.8044,N,12217.8551,W,0.08,78.78,210812,,,D*4D
$GPVTG,78.78,T,,M,0.08,N,0.1,K,D*31
$GPGGA,231700.000,3748.8043,N,12217.8551,W,2,08,1.0,-0.8,M,-25.1,M,2.8,0000*60
$GPGSA,A,3,02,12,10,04,25,05,27,29,,,,,1.9,1.0,1.7*35
$GPGSV,3,1,11,12,82,331,39,02,73,061,40,25,39,314,36,10,29,083,28*79
$GPGSV,3,2,11,04,29,047,32,29,26,279,30,05,25,144,35,09,23,202,32*79
$GPGSV,3,3,11,27,17,196,32,31,02,330,,48,44,197,36*43
$GPRMC,231700.000,A,3748.8043,N,12217.8551,W,0.06,82.87,210812,,,D*4C
$GPVTG,82.87,T,,M,0.06,N,0.1,K,D*3A
$GPGGA,231701.000,3748.8043,N,12217.8551,W,2,08,1.0,-0.8,M,-25.1,M,1.8,0000*62
$GPGSA,A,3,02,12,10,04,25,05,27,29,,,,,1.9,1.0,1.7*35
$GPRMC,231701.000,A,3748.8043,N,12217.8551,W,0.08,106.02,210812,,,D*73
$GPVTG,106.02,T,,M,0.08,N,0.2,K,D*07
$GPGGA,231702.000,3748.8042,N,12217.8552,W,2,08,1.0,-0.7,M,-25.1,M,1.8,0000*6C
$GPGSA,A,3,02,12,10,04,25,05,27,29,,,,,1.9,1.0,1.7*35
$GPRMC,231702.000,A,3748.8042,N,12217.8552,W,0.10,101.55,210812,,,D*7E
$GPVTG,101.55,T,,M,0.10,N,0.2,K,D*0B
$GPGGA,231703.000,3748.8041,N,12217.8552,W,2,08,1.0,-0.7,M,-25.1,M,1.8,0000*6E
$GPGSA,A,3,02,12,10,04,25,05,27,29,,,,,1.9,1.0,1.7*35
$GPRMC,231703.000,A,3748.8041,N,12217.8552,W,0.03,99.73,210812,,,D*4A
$GPVTG,99.73,T,,M,0.03,N,0.1,K,D*3E
$GPGGA,231704.000,3748.8040,N,12217.8553,W,2,08,1.0,-0.6,M,-25.1,M,2.8,0000*6B
$GPGSA,A,3,02,12,10,04,25,05,27,29,,,,,1.9,1.0,1.7*35
$GPRMC,231704.000,A,3748.8040,N,12217.8553,W,0.05,125.16,210812,,,D*7E
$GPVTG,125.16,T,,M,0.05,N,0.1,K,D*0D
$GPGGA,231705.000,3748.8039,N,12217.8554,W,2,08,1.0,-0.5,M,-25.1,M,3.8,0000*61
$GPGSA,A,3,02,12,10,04,25,05,27,29,,,,,1.9,1.0,1.7*35
$GPGSV,3,1,11,12,82,331,39,02,73,061,40,25,39,314,36,10,29,083,27*76
$GPGSV,3,2,11,04,29,047,32,29,26,279,30,05,25,144,35,09,23,202,32*79
$GPGSV,3,3,11,27,17,196,32,31,02,330,,48,44,197,33*46
$GPRMC,231705.000,A,3748.8039,N,12217.8554,W,0.03,124.91,210812,,,D*7E
$GPVTG,124.91,T,,M,0.03,N,0.1,K,D*05
$GPGGA,231706.000,3748.8038,N,12217.8554,W,2,08,1.0,-0.4,M,-25.1,M,4.8,0000*65
$GPGSA,A,3,02,12,10,04,25,05,27,29,,,,,1.9,1.0,1.7*35
$GPRMC,231706.000,A,3748.8038,N,12217.8554,W,0.06,142.56,210812,,,D*72
$GPVTG,142.56,T,,M,0.06,N,0.1,K,D*0B
$GPGGA,231707.000,3748.8037,N,12217.8555,W,2,08,1.0,-0.3,M,-25.1,M,1.8,0000*68
$GPGSA,A,3,02,12,10,04,25,05,27,29,,,,,1.9,1.0,1.7*35
$GPRMC,231707.000,A,3748.8037,N,12217.8555,W,0.01,197.70,210812,,,D*76
$GPVTG,197.70,T,,M,0.01,N,0.0,K,D*01
$GPGGA,231708.000,3748.8036,N,12217.8556,W,2,08,1.0,-0.3,M,-25.1,M,1.8,0000*65
$GPGSA,A,3,02,12,10,04,25,05,27,29,,,,,1.9,1.0,1.7*35
$GPRMC,231708.000,A,3748.8036,N,12217.8556,W,0.03,121.83,210812,,,D*78
$GPVTG,121.83,T,,M,0.03,N,0.0,K,D*02
$GPGGA,231709.000,3748.8035,N,12217.8557,W,2,08,1.0,-0.3,M,-25.1,M,1.8,0000*66
$GPGSA,A,3,02,12,10,04,25,05,27,29,,,,,1.9,1.0,1.7*35
$GPRMC,231709.000,A,3748.8035,N,12217.8557,W,0.05,88.28,210812,,,D*4E
$GPVTG,88.28,T,,M,0.05,N,0.1,K,D*36
$GPGGA,231710.000,3748.8035,N,12217.8557,W,2,08,1.0,-0.3,M,-25.1,M,2.8,0000*6D
$GPGSA,A,3,02,12,10,04,25,05,27,29,,,,,1.9,1.0,1.7*35
$GPGSV,3,1,11,12,82,331,39,02,73,061,40,25,39,314,36,10,29,083,27*76
$GPGSV,3,2,11,04,29,047,33,29,26,279,32,05,25,144,36,09,23,202,32*79
$GPGSV,3,3,11,27,17,196,32,31,02,330,,48,44,197,36*43
$GPRMC,231710.000,A,3748.8035,N,12217.8557,W,0.07,72.41,210812,,,D*4E
$GPVTG,72.41,T,,M,0.07,N,0.1,K,D*3E
$GPGGA,231711.000,3748.8034,N,12217.8558,W,2,08,1.0,-0.3,M,-25.1,M,3.8,0000*63
$GPGSA,A,3,02,12,10,04,25,05,27,29,,,,,1.9,1.0,1.7*35
$GPRMC,231711.000,A,3748.8034,N,12217.8558,W,0.04,68.25,210812,,,D*4B
$GPVTG,68.25,T,,M,0.04,N,0.1,K,D*34
$GPGGA,231712.000,3748.8034,N,12217.8559,W,2,08,1.0,-0.3,M,-25.1,M,4.8,0000*66
$GPGSA,A,3,02,12,10,04,25,05,27,29,,,,,1.9,1.0,1.7*35
$GPRMC,231712.000,A,3748.8034,N,12217.8559,W,0.06,82.68,210812,,,D*46
$GPVTG,82.68,T,,M,0.06,N,0.1,K,D*3B
$GPGGA,231713.000,3748.8033,N,12217.8559,W,2,08,1.0,-0.3,M,-25.1,M,1.8,0000*65
$GPGSA,A,3,02,12,10,04,25,05,27,29,,,,,1.9,1.0,1.7*35
$GPRMC,231713.000,A,3748.8033,N,12217.8559,W,0.08,90.21,210812,,,D*40
$GPVTG,90.21,T,,M,0.08,N,0.1,K,D*3B
$GPGGA,231714.000,3748.8032,N,12217.8560,W,2,08,1.0,-0.2,M,-25.1,M,1.8,0000*68
$GPGSA,A,3,02,12,10,04,25,05,27,29,,,,,1.9,1.0,1.7*35
$GPRMC,231714.000,A,3748.8032,N,12217.8560,W,0.03,100.29,210812,,,D*77
$GPVTG,100.29,T,,M,0.03,N,0.1,K,D*00
$GPGGA,231715.000,3748.8031,N,12217.8560,W,2,08,1.0,-0.1,M,-25.1,M,1.8,0000*69
$GPGSA,A,3,02,12,10,04,25,05,27,29,,,,,1.9,1.0,1.7*35
$GPGSV,3,1,11,12,82,331,39,02,73,060,40,25,40,314,36,10,29,083,26*78
$GPGSV,3,2,11,04,29,047,33,29,27,279,32,05,25,144,36,09,23,201,32*7B
$GPGSV,3,3,11,27,17,196,33,31,02,330,,48,44,197,36*42
$GPRMC,231715.000,A,3748.8031,N,12217.8560,W,0.03,58.69,210812,,,D*4D
$GPGGA,231716.000,3748.8031,N,12217.8561,W,2,08,1.0,-0.0,M,-25.1,M,2.8,0000*69
$GPGSA,A,3,02,12,10,04,25,05,27,29,,,,,1.9,1.0,1.7*35
$GPRMC,231716.000,A,3748.8031,N,12217.8561,W,0.03,120.40,210812,,,D*7A
$GPVTG,120.40,T,,M,0.03,N,0.0,K,D*0C
$GPGGA,231717.000,3748.8030,N,12217.8561,W,2,08,1.0,0.0,M,-25.1,M,3.8,0000*45
$GPGSA,A,3,02,12,10,04,25,05,27,29,,,,,1.9,1.0,1.7*35
$GPRMC,231717.000,A,3748.8030,N,12217.8561,W,0.04,94.39,210812,,,D*4D
$GPVTG,94.39,T,,M,0.04,N,0.1,K,D*3A
$GPGGA,231718.000,3748.8030,N,12217.8562,W,2,08,1.0,0.2,M,-25.1,M,1.8,0000*49
$GPGSA,A,3,02,12,10,04,25,05,27,29,,,,,1.9,1.0,1.7*35
$GPRMC,231718.000,A,3748.8030,N,12217.8562,W,0.04,65.60,210812,,,D*43
$GPVTG,65.60,T,,M,0.04,N,0.1,K,D*38
$GPGGA,231719.000,3748.8029,N,12217.8563,W,2,08,1.0,0.3,M,-25.1,M,1.8,0000*40
$GPGSA,A,3,02,12,10,04,25,05,27,29,,,,,1.9,1.0,1.7*35
$GPRMC,231719.000,A,3748.8029,N,12217.8563,W,0.02,356.32,210812,,,D*79
$GPVTG,356.32,T,,M,0.02,N,0.0,K,D*0B
$GPGGA,231720.000,3748.8029,N,12217.8564,W,2,08,1.0,0.3,M,-25.1,M,1.8,0000*4D
$GPGSA,A,3,02,12,10,04,25,05,27,29,,,,,1.9,1.0,1.7*35
$GPGSV,3,1,11,12,82,331,34,02,73,060,40,25,40,314,36,10,29,083,26*75
$GPGSV,3,2,11,04,29,047,33,29,27,279,26,05,25,144,36,09,23,201,32*7E
$GPGSV,3,3,11,27,17,196,33,31,02,330,,48,44,197,27*42
$GPRMC,231720.000,A,3748.8029,N,12217.8564,W,0.11,292.14,210812,,,D*7B
$GPVTG,292.14,T,,M,0.11,N,0.2,K,D*06
$GPGGA,231721.000,3748.8028,N,12217.8565,W,2,08,1.0,0.4,M,-25.1,M,1.8,0000*4B
$GPGSA,A,3,02,12,10,04,25,05,27,29,,,,,1.9,1.0,1.7*35
$GPRMC,231721.000,A,3748.8028,N,12217.8565,W,0.25,317.69,210812,,,D*7B
$GPVTG,317.69,T,,M,0.25,N,0.5,K,D*00
$GPGGA,231722.000,3748.8027,N,12217.8564,W,2,08,1.0,0.6,M,-25.1,M,2.8,0000*47
$GPGSA,A,3,02,12,10,04,25,05,27,29,,,,,1.9,1.0,1.7*35
$GPRMC,231722.000,A,3748.8027,N,12217.8564,W,0.39,107.86,210812,,,D*79
$GPVTG,107.86,T,,M,0.39,N,0.7,K,D*0D
$GPGGA,231723.000,3748.8027,N,12217.8563,W,2,08,1.0,0.6,M,-25.1,M,3.8,0000*40
$GPGSA,A,3,02,12,10,04,25,05,27,29,,,,,1.9,1.0,1.7*35
$GPRMC,231723.000,A,3748.8027,N,12217.8563,W,0.15,120.74,210812,,,D*79
$GPVTG,120.74,T,,M,0.15,N,0.3,K,D*0F
$GPGGA,231724.000,3748.8028,N,12217.8562,W,2,08,1.0,0.6,M,-25.1,M,4.8,0000*4E
$GPGSA,A,3,02,12,10,04,25,05,27,29,,,,,1.9,1.0,1.7*35
$GPRMC,231724.000,A,3748.8028,N,12217.8562,W,0.24,27.20,210812,,,D*45
$GPVTG,27.20,T,,M,0.24,N,0.5,K,D*3C
$GPGGA,231725.000,3748.8029,N,12217.8562,W,2,08,1.0,0.6,M,-25.1,M,5.8,0000*4F
$GPGSA,A,3,02,12,10,04,25,05,27,29,,,,,1.9,1.0,1.7*35
$GPGSV,3,1,11,12,82,331,28,02,73,060,33,25,40,314,34,10,29,083,26*7E
$GPGSV,3,2,11,04,29,047,33,29,27,279,31,05,25,144,27,09,23,201,31*7B
$GPGSV,3,3,11,27,17,196,22,31,02,330,,48,44,197,28*4D
$GPRMC,231725.000,A,3748.8029,N,12217.8562,W,0.46,55.63,210812,,,D*43
$GPVTG,55.63,T,,M,0.46,N,0.8,K,D*37
$GPGGA,231726.000,3748.8030,N,12217.8561,W,2,08,1.0,0.6,M,-25.1,M,6.8,0000*44
$GPGSA,A,3,02,12,10,04,25,05,27,29,,,,,1.9,1.0,1.7*35
$GPRMC,231726.000,A,3748.8030,N,12217.8561,W,0.40,43.94,210812,,,D*42
$GPVTG,43.94,T,,M,0.40,N,0.7,K,D*31
$GPGGA,231727.000,3748.8030,N,12217.8560,W,2,08,1.0,0.4,M,-25.1,M,1.8,0000*41
$GPGSA,A,3,02,12,10,04,25,05,27,29,,,,,1.9,1.0,1.7*35
$GPRMC,231727.000,A,3748.8030,N,12217.8560,W,0.07,244.76,210812,,,D*78
$GPVTG,244.76,T,,M,0.07,N,0.1,K,D*0D
$GPGGA,231728.000,3748.8030,N,12217.8561,W,2,08,1.0,0.5,M,-25.1,M,2.8,0000*4D
$GPGSA,A,3,02,12,10,04,25,05,27,29,,,,,1.9,1.0,1.7*35
$GPRMC,231728.000,A,3748.8030,N,12217.8561,W,0.34,116.69,210812,,,D*7C
$GPVTG,116.69,T,,M,0.34,N,0.6,K,D*00
$GPGGA,231729.000,3748.8031,N,12217.8565,W,2,08,1.0,0.5,M,-25.1,M,3.8,0000*48
$GPGSA,A,3,02,12,10,04,25,05,27,29,,,,,1.9,1.0,1.7*35
$GPRMC,231729.000,A,3748.8031,N,12217.8565,W,0.19,28.91,210812,,,D*4C
$GPVTG,28.91,T,,M,0.19,N,0.4,K,D*36
$GPGGA,231730.000,3748.8031,N,12217.8567,W,2,08,1.0,0.1,M,-25.1,M,4.8,0000*41
$GPGSA,A,3,02,12,10,04,25,05,27,29,,,,,1.9,1.0,1.7*35
$GPGSV,3,1,11,12,82,331,21,02,73,060,33,25,40,314,29,10,29,083,26*7B
$GPGSV,3,2,11,04,29,047,28,29,27,279,29,05,25,144,24,09,23,201,27*7C
$GPRMC,231730.000,A,3748.8031,N,12217.8567,W,0.37,348.04,210812,,,D*73
$GPVTG,348.04,T,,M,0.37,N,0.7,K,D*00
$GPGGA,231731.000,3748.8032,N,12217.8569,W,2,07,1.0,-0.1,M,-25.1,M,5.8,0000*6E
$GPGSA,A,3,12,10,04,25,05,27,29,,,,,,2.3,1.0,2.1*3B
$GPRMC,231731.000,A,3748.8032,N,12217.8569,W,0.29,24.45,210812,,,D*4C
$GPVTG,24.45,T,,M,0.29,N,0.5,K,D*31
$GPGGA,231732.000,3748.8039,N,12217.8568,W,2,07,1.1,-0.5,M,-25.1,M,6.8,0000*61
$GPGSA,A,3,02,12,04,25,05,27,29,,,,,,2.0,1.1,1.7*3F
$GPRMC,231732.000,A,3748.8039,N,12217.8568,W,0.43,347.27,210812,,,D*7B
$GPVTG,347.27,T,,M,0.43,N,0.8,K,D*02
$GPGGA,231733.000,3748.8041,N,12217.8566,W,2,08,1.0,-0.2,M,-25.1,M,7.8,0000*69
$GPGSA,A,3,02,12,10,04,25,05,27,29,,,,,1.9,1.0,1.7*35
$GPRMC,231733.000,A,3748.8041,N,12217.8566,W,0.07,297.95,210812,,,D*7E
$GPVTG,297.95,T,,M,0.07,N,0.1,K,D*0E
$GPGGA,231734.000,3748.8039,N,12217.8563,W,2,08,1.0,-0.0,M,-25.1,M,8.8,0000*69
$GPGSA,A,3,02,12,10,04,25,05,27,29,,,,,1.9,1.0,1.7*35
$GPRMC,231734.000,A,3748.8039,N,12217.8563,W,1.03,109.43,210812,,,D*79
$GPVTG,109.43,T,,M,1.03,N,1.9,K,D*0D
$GPGGA,231735.000,3748.8033,N,12217.8564,W,2,08,1.0,0.2,M,-25.1,M,9.8,0000*4B
$GPGSA,A,3,02,12,10,04,25,05,27,29,,,,,1.9,1.0,1.7*35
$GPGSV,3,1,10,12,82,331,21,02,73,060,19,25,40,314,27,10,29,083,26*7C
$GPGSV,3,2,10,04,29,047,24,29,27,279,31,05,25,144,30,09,23,201,27*7D
$GPGSV,3,3,10,27,17,196,26,31,02,330,*71
$GPRMC,231735.000,A,3748.8033,N,12217.8564,W,0.41,331.09,210812,,,D*75
$GPVTG,331.09,T,,M,0.41,N,0.8,K,D*0D
$GPGGA,231736.000,3748.8030,N,12217.8572,W,2,08,1.0,0.5,M,-25.1,M,10.8,0000*73
$GPGSA,A,3,02,12,10,04,25,05,27,29,,,,,1.9,1.0,1.7*35
$GPRMC,231736.000,A,3748.8030,N,12217.8572,W,0.35,245.47,210812,,,D*79
$GPVTG,245.47,T,,M,0.35,N,0.6,K,D*08
$GPGGA,231737.000,3748.8028,N,12217.8573,W,2,08,1.0,-1.1,M,-25.1,M,11.8,0000*53
$GPGSA,A,3,02,12,10,04,25,05,27,29,,,,,1.9,1.0,1.7*35
$GPRMC,231737.000,A,3748.8028,N,12217.8573,W,0.09,68.61,210812,,,D*46
$GPVTG,68.61,T,,M,0.09,N,0.2,K,D*3A
$GPGGA,231738.000,3748.8025,N,12217.8575,W,2,08,1.0,-2.5,M,-25.1,M,12.8,0000*53
$GPGSA,A,3,02,12,10,04,25,05,27,29,,,,,1.9,1.0,1.7*35
$GPRMC,231738.000,A,3748.8025,N,12217.8575,W,0.67,240.84,210812,,,D*79
$GPVTG,240.84,T,,M,0.67,N,1.2,K,D*00
$GPGGA,231739.000,3748.8015,N,12217.8582,W,2,08,1.0,-0.8,M,-25.1,M,13.8,0000*57
$GPGSA,A,3,02,12,10,04,25,05,27,29,,,,,1.9,1.0,1.7*35
$GPRMC,231739.000,A,3748.8015,N,12217.8582,W,0.40,113.61,210812,,,D*78
$GPVTG,113.61,T,,M,0.40,N,0.7,K,D*0F
$GPGGA,231740.000,3748.8011,N,12217.8582,W,2,08,1.0,-0.2,M,-25.1,M,14.8,0000*50
$GPGSA,A,3,02,12,10,04,25,05,27,29,,,,,1.9,1.0,1.7*35
$GPGSV,3,1,11,12,82,331,21,02,73,060,19,25,40,314,24,10,29,083,26*7E
$GPGSV,3,2,11,04,29,047,24,29,27,279,30,05,25,144,34,09,23,201,32*7D
$GPGSV,3,3,11,27,17,196,34,31,02,330,,48,44,197,33*40
$GPRMC,231740.000,A,3748.8011,N,12217.8582,W,0.05,221.65,210812,,,D*75
$GPVTG,221.65,T,,M,0.05,N,0.1,K,D*0E
$GPGGA,231741.000,3748.8011,N,12217.8583,W,2,08,1.0,0.4,M,-25.1,M,15.8,0000*7A
$GPGSA,A,3,02,12,10,04,25,05,27,29,,,,,1.9,1.0,1.7*35
$GPRMC,231741.000,A,3748.8011,N,12217.8583,W,0.22,4.55,210812,,,D*76
$GPVTG,4.55,T,,M,0.22,N,0.4,K,D*08
$GPGGA,231742.000,3748.8010,N,12217.8581,W,2,08,1.0,1.5,M,-25.1,M,16.8,0000*79
$GPGSA,A,3,02,12,10,04,25,05,27,29,,,,,1.9,1.0,1.7*35
$GPRMC,231742.000,A,3748.8010,N,12217.8581,W,0.94,52.91,210812,,,D*40
$GPVTG,52.91,T,,M,0.94,N,1.7,K,D*3C
$GPGGA,231743.000,3748.8008,N,12217.8580,W,2,08,1.0,1.9,M,-25.1,M,17.8,0000*7D
$GPGSA,A,3,02,12,10,04,25,05,27,29,,,,,1.9,1.0,1.7*35
$GPRMC,231743.000,A,3748.8008,N,12217.8580,W,0.26,56.92,210812,,,D*47
$GPVTG,56.92,T,,M,0.26,N,0.5,K,D*31
$GPGGA,231744.000,3748.8007,N,12217.8579,W,1,08,1.0,1.2,M,-25.1,M,,0000*6B
$GPGSA,A,3,02,12,10,04,25,05,27,29,,,,,1.9,1.0,1.7*35
$GPRMC,231744.000,A,3748.8007,N,12217.8579,W,0.27,315.60,210812,,,A*74
$GPVTG,315.60,T,,M,0.27,N,0.5,K,A*0C
$GPGGA,231745.000,3748.8006,N,12217.8580,W,1,08,1.0,1.7,M,-25.1,M,,0000*68
$GPGSA,A,3,02,12,10,04,25,05,27,29,,,,,1.9,1.0,1.7*35
$GPGSV,3,1,11,12,82,331,24,02,73,060,28,25,40,314,18,10,29,083,33*72
$GPGSV,3,2,11,04,29,047,31,29,27,279,19,05,25,144,33,09,23,201,27*71
$GPGSV,3,3,11,27,17,196,22,31,02,330,,48,44,197,31*45
$GPRMC,231745.000,A,3748.8006,N,12217.8580,W,0.56,274.24,210812,,,A*72
$GPVTG,274.24,T,,M,0.56,N,1.0,K,A*08
$GPGGA,231746.000,3748.8006,N,12217.8581,W,1,08,1.0,2.0,M,-25.1,M,,0000*6E
$GPGSA,A,3,02,12,10,04,25,05,27,29,,,,,1.9,1.0,1.7*35
$GPRMC,231746.000,A,3748.8006,N,12217.8581,W,0.71,290.72,210812,,,A*7C
$GPVTG,290.72,T,,M,0.71,N,1.3,K,A*07
$GPGGA,231747.000,3748.8006,N,12217.8581,W,1,08,1.0,2.1,M,-25.1,M,,0000*6E
$GPGSA,A,3,02,12,10,04,25,05,27,29,,,,,1.9,1.0,1.7*35
$GPRMC,231747.000,A,3748.8006,N,12217.8581,W,0.59,302.80,210812,,,A*70
$GPVTG,302.80,T,,M,0.59,N,1.1,K,A*08
$GPGGA,231748.000,3748.8006,N,12217.8582,W,1,08,1.0,2.1,M,-25.1,M,,0000*62
$GPGSA,A,3,02,12,10,04,25,05,27,29,,,,,1.9,1.0,1.7*35
$GPRMC,231748.000,A,3748.8006,N,12217.8582,W,0.56,279.98,210812,,,A*77
$GPVTG,279.98,T,,M,0.56,N,1.0,K,A*02
$GPGGA,231749.000,3748.8006,N,12217.8582,W,2,08,1.0,2.1,M,-25.1,M,1.8,0000*47
$GPGSA,A,3,02,12,10,04,25,05,27,29,,,,,1.9,1.0,1.7*35
$GPRMC,231749.000,A,3748.8006,N,12217.8582,W,0.69,263.80,210812,,,D*7D
$GPVTG,263.80,T,,M,0.69,N,1.3,K,D*0A
$GPGGA,231750.000,3748.8006,N,12217.8581,W,2,08,1.0,2.2,M,-25.1,M,1.8,0000*4F
$GPGSA,A,3,02,12,10,04,25,05,27,29,,,,,1.9,1.0,1.7*35
$GPGSV,3,1,11,12,82,331,31,02,73,060,31,25,40,314,16,10,29,083,34*77
$GPGSV,3,2,11,04,29,047,36,29,27,279,19,05,25,144,34,09,23,201,32*75
$GPGSV,3,3,11,27,17,196,27,31,02,330,,48,44,197,31*40
$GPVTG,292.74,T,,M,0.46,N,0.9,K,D*09
$GPGGA,231751.000,3748.8006,N,12217.8579,W,2,08,1.0,2.2,M,-25.1,M,1.8,0000*49
$GPGSA,A,3,02,12,10,04,25,05,27,29,,,,,1.9,1.0,1.7*35
$GPRMC,231751.000,A,3748.8006,N,12217.8579,W,0.40,307.52,210812,,,D*77
$GPVTG,307.52,T,,M,0.40,N,0.7,K,D*08
$GPGGA,231752.000,3748.8007,N,12217.8577,W,2,08,1.0,2.2,M,-25.1,M,2.8,0000*46
$GPGSA,A,3,02,12,10,04,25,05,27,29,,,,,1.9,1.0,1.7*35
$GPRMC,231752.000,A,3748.8007,N,12217.8577,W,0.42,292.91,210812,,,D*7B
$GPVTG,292.91,T,,M,0.42,N,0.8,K,D*07
$GPGGA,231753.000,3748.8006,N,12217.8575,W,2,08,1.0,2.5,M,-25.1,M,3.8,0000*42
$GPGSA,A,3,02,12,10,04,25,05,27,29,,,,,1.9,1.0,1.7*35
$GPRMC,231753.000,A,3748.8006,N,12217.8575,W,0.01,128.59,210812,,,D*78
$GPVTG,128.59,T,,M,0.01,N,0.0,K,D*0E
$GPGGA,231754.000,3748.8004,N,12217.8573,W,2,08,1.0,2.9,M,-25.1,M,4.8,0000*4A
$GPGSA,A,3,02,12,10,04,25,05,27,29,,,,,1.9,1.0,1.7*35
$GPRMC,231754.000,A,3748.8004,N,12217.8573,W,0.19,24.55,210812,,,D*43
$GPVTG,24.55,T,,M,0.19,N,0.4,K,D*32
$GPGGA,231755.000,3748.8003,N,12217.8561,W,2,08,1.0,3.7,M,-25.1,M,5.8,0000*41
$GPGSA,A,3,02,12,10,04,25,05,27,29,,,,,1.9,1.0,1.7*35
$GPGSV,3,1,11,12,82,331,20,02,73,060,24,25,40,314,15,10,29,083,19*7F
$GPGSV,3,2,11,04,29,047,25,29,27,279,24,05,25,144,29,09,23,201,25*73
$GPGSV,3,3,11,27,17,196,28,31,02,330,,48,44,197,26*49
$GPRMC,231755.000,A,3748.8003,N,12217.8561,W,0.49,30.06,210812,,,D*40
$GPVTG,30.06,T,,M,0.49,N,0.9,K,D*39
$GPGGA,231756.000,3748.8000,N,12217.8561,W,2,07,1.1,4.9,M,-25.1,M,6.8,0000*45
$GPGSA,A,3,02,12,10,04,05,27,29,,,,,,2.0,1.1,1.7*39
$GPRMC,231756.000,A,3748.8000,N,12217.8561,W,0.24,254.47,210812,,,D*7E
$GPVTG,254.47,T,,M,0.24,N,0.4,K,D*0A
$GPGGA,231757.000,3748.7996,N,12217.8557,W,2,07,1.1,5.6,M,-25.1,M,7.8,0000*47
$GPGSA,A,3,02,12,10,04,05,27,29,,,,,,2.0,1.1,1.7*39
$GPRMC,231757.000,A,3748.7996,N,12217.8557,W,1.75,130.07,210812,,,D*73
$GPVTG,130.07,T,,M,1.75,N,3.2,K,D*0F
$GPGGA,231758.000,3748.7988,N,12217.8549,W,2,07,1.1,6.4,M,-25.1,M,8.8,0000*46
$GPGSA,A,3,02,12,10,04,05,27,29,,,,,,2.0,1.1,1.7*39
$GPRMC,231758.000,A,3748.7988,N,12217.8549,W,2.85,127.84,210812,,,D*7D
$GPVTG,127.84,T,,M,2.85,N,5.3,K,D*09
$GPGGA,231759.000,3748.7982,N,12217.8545,W,2,08,1.0,4.7,M,-25.1,M,9.8,0000*4F
$GPGSA,A,3,02,12,10,04,25,05,27,29,,,,,1.9,1.0,1.7*35
$GPRMC,231759.000,A,3748.7982,N,12217.8545,W,2.89,130.56,210812,,,D*7F
$GPVTG,130.56,T,,M,2.89,N,5.4,K,D*0B
$GPGGA,231800.000,3748.7979,N,12217.8541,W,2,08,1.0,2.5,M,-25.1,M,10.8,0000*70
$GPGSA,A,3,02,12,10,04,25,05,27,29,,,,,1.9,1.0,1.7*35
$GPGSV,3,1,11,12,82,331,24,02,73,060,23,25,40,314,23,10,29,083,23*70
$GPGSV,3,2,11,04,29,047,23,29,27,279,27,05,25,144,30,09,23,201,34*7E
$GPGSV,3,3,11,27,17,196,34,31,02,330,,48,44,197,34*47
$GPRMC,231800.000,A,3748.7979,N,12217.8541,W,2.63,128.69,210812,,,D*7D
$GPVTG,128.69,T,,M,2.63,N,4.9,K,D*06
$GPGGA,231801.000,3748.7975,N,12217.8534,W,2,08,1.0,1.3,M,-25.1,M,1.8,0000*4A
$GPGSA,A,3,02,12,10,04,25,05,27,29,,,,,1.9,1.0,1.7*35
$GPRMC,231801.000,A,3748.7975,N,12217.8534,W,2.81,115.70,210812,,,D*78
$GPVTG,115.70,T,,M,2.81,N,5.2,K,D*06
$GPGGA,231802.000,3748.7971,N,12217.8524,W,2,08,1.0,1.8,M,-25.1,M,2.8,0000*44
$GPGSA,A,3,02,12,10,04,25,05,27,29,,,,,1.9,1.0,1.7*35
$GPRMC,231802.000,A,3748.7971,N,12217.8524,W,2.67,118.87,210812,,,D*73
$GPVTG,118.87,T,,M,2.67,N,4.9,K,D*01
$GPGGA,231803.000,3748.7969,N,12217.8515,W,2,08,1.0,1.1,M,-25.1,M,3.8,0000*46
$GPGSA,A,3,02,12,10,04,25,05,27,29,,,,,1.9,1.0,1.7*35
$GPRMC,231803.000,A,3748.7969,N,12217.8515,W,2.54,110.13,210812,,,D*7C
$GPVTG,110.13,T,,M,2.54,N,4.7,K,D*0A
$GPGGA,231804.000,3748.7960,N,12217.8513,W,2,08,1.0,2.5,M,-25.1,M,4.8,0000*4E
$GPGSA,A,3,02,12,10,04,25,05,27,29,,,,,1.9,1.0,1.7*35
$GPRMC,231804.000,A,3748.7960,N,12217.8513,W,2.51,125.79,210812,,,D*7B
$GPVTG,125.79,T,,M,2.51,N,4.6,K,D*04
$GPGGA,231805.000,3748.7954,N,12217.8508,W,2,08,1.0,2.7,M,-25.1,M,5.8,0000*41
$GPGSA,A,3,02,12,10,04,25,05,27,29,,,,,1.9,1.0,1.7*35
$GPGSV,3,1,11,12,82,331,25,02,73,060,28,25,40,314,22,10,29,083,19*72
$GPGSV,3,2,11,04,29,047,23,29,27,279,28,05,25,144,34,09,23,201,35*74
$GPGSV,3,3,11,27,17,196,34,31,02,330,,48,44,197,34*47
$GPRMC,231805.000,A,3748.7954,N,12217.8508,W,2.41,121.00,210812,,,D*7C
$GPVTG,121.00,T,,M,2.41,N,4.5,K,D*0C
$GPGGA,231806.000,3748.7948,N,12217.8498,W,2,08,1.0,2.8,M,-25.1,M,6.8,0000*4B
$GPGSA,A,3,02,12,10,04,25,05,27,29,,,,,1.9,1.0,1.7*35
$GPRMC,231806.000,A,3748.7948,N,12217.8498,W,2.69,108.30,210812,,,D*78
$GPVTG,108.30,T,,M,2.69,N,5.0,K,D*0A
$GPGGA,231807.000,3748.7944,N,12217.8493,W,2,08,1.0,2.5,M,-25.1,M,1.8,0000*47
$GPGSA,A,3,02,12,10,04,25,05,27,29,,,,,1.9,1.0,1.7*35
$GPRMC,231807.000,A,3748.7944,N,12217.8493,W,2.38,108.86,210812,,,D*77
$GPVTG,108.86,T,,M,2.38,N,4.4,K,D*06
$GPGGA,231808.000,3748.7943,N,12217.8483,W,2,08,1.0,0.8,M,-25.1,M,2.8,0000*42
$GPGSA,A,3,02,12,10,04,25,05,27,29,,,,,1.9,1.0,1.7*35
$GPRMC,231808.000,A,3748.7943,N,12217.8483,W,2.07,113.78,210812,,,D*79
$GPVTG,113.78,T,,M,2.07,N,3.8,K,D*0A
$GPGGA,231809.000,3748.7943,N,12217.8475,W,2,08,1.0,-1.7,M,-25.1,M,1.8,0000*6A
$GPGSA,A,3,02,12,10,04,25,05,27,29,,,,,1.9,1.0,1.7*35
$GPRMC,231809.000,A,3748.7943,N,12217.8475,W,2.31,101.13,210812,,,D*7A
$GPVTG,101.13,T,,M,2.31,N,4.3,K,D*0D
$GPGGA,231810.000,3748.7941,N,12217.8470,W,2,08,1.0,-1.8,M,-25.1,M,2.8,0000*69
$GPGSA,A,3,02,12,10,04,25,05,27,29,,,,,1.9,1.0,1.7*35
$GPGSV,3,1,11,12,82,331,21,02,73,060,23,25,40,314,19,10,29,083,21*7E
$GPGSV,3,2,11,04,29,047,16,29,27,279,22,05,25,144,34,09,23,201,31*7C
$GPGSV,3,3,11,27,17,196,29,31,02,330,,48,44,197,31*4E
$GPRMC,231810.000,A,3748.7941,N,12217.8470,W,2.70,101.92,210812,,,D*79
$GPGGA,231811.000,3748.7941,N,12217.8459,W,2,08,1.0,-2.7,M,-25.1,M,3.8,0000*6E
$GPGSA,A,3,02,12,10,04,25,05,27,29,,,,,1.9,1.0,1.7*35
$GPRMC,231811.000,A,3748.7941,N,12217.8459,W,2.42,102.76,210812,,,D*7B
$GPVTG,102.76,T,,M,2.42,N,4.5,K,D*0F
$GPGGA,231812.000,3748.7938,N,12217.8454,W,2,08,1.0,-3.5,M,-25.1,M,4.8,0000*6A
$GPGSA,A,3,02,12,10,04,25,05,27,29,,,,,1.9,1.0,1.7*35
$GPRMC,231812.000,A,3748.7938,N,12217.8454,W,1.57,103.64,210812,,,D*7E
$GPVTG,103.64,T,,M,1.57,N,2.9,K,D*00
$GPGGA,231813.000,3748.7936,N,12217.8445,W,2,08,1.0,-3.5,M,-25.1,M,5.8,0000*64
$GPGSA,A,3,02,12,10,04,25,05,27,29,,,,,1.9,1.0,1.7*35
$GPRMC,231813.000,A,3748.7936,N,12217.8445,W,1.21,128.26,210812,,,D*7F
$GPVTG,128.26,T,,M,1.21,N,2.2,K,D*05
$GPGGA,231814.000,3748.7935,N,12217.8444,W,2,08,1.0,-3.5,M,-25.1,M,6.8,0000*62
$GPGSA,A,3,02,12,10,04,25,05,27,29,,,,,1.9,1.0,1.7*35
$GPRMC,231814.000,A,3748.7935,N,12217.8444,W,0.80,107.70,210812,,,D*7E
$GPVTG,107.70,T,,M,0.80,N,1.5,K,D*05
$GPGGA,231815.000,3748.7932,N,12217.8438,W,2,08,1.0,-2.2,M,-25.1,M,7.8,0000*68
$GPGSA,A,3,02,12,10,04,25,05,27,29,,,,,1.9,1.0,1.7*35
$GPGSV,3,1,11,12,82,331,21,02,73,059,23,25,40,314,18,10,29,082,21*74
$GPGSV,3,2,11,04,28,047,15,29,27,280,22,05,25,144,26,09,22,201,31*7A
$GPGSV,3,3,11,27,17,196,25,31,02,330,,48,44,197,28*4A
$GPRMC,231815.000,A,3748.7932,N,12217.8438,W,0.87,123.50,210812,,,D*70
$GPVTG,123.50,T,,M,0.87,N,1.6,K,D*05
$GPGGA,231816.000,3748.7927,N,12217.8434,W,2,06,1.4,-1.5,M,-25.1,M,8.8,0000*62
$GPGSA,A,3,02,12,10,05,27,29,,,,,,,2.5,1.4,2.0*39
$GPRMC,231816.000,A,3748.7927,N,12217.8434,W,1.01,138.90,210812,,,D*72
$GPVTG,138.90,T,,M,1.01,N,1.9,K,D*03
$GPGGA,231817.000,3748.7923,N,12217.8424,W,2,08,1.0,-1.5,M,-25.1,M,9.8,0000*6D
$GPGSA,A,3,02,12,10,04,25,05,27,29,,,,,1.9,1.0,1.7*35
$GPRMC,231817.000,A,3748.7923,N,12217.8424,W,1.99,128.76,210812,,,D*7E
$GPVTG,128.76,T,,M,1.99,N,3.7,K,D*07
$GPGGA,231818.000,3748.7918,N,12217.8415,W,2,08,1.0,-2.0,M,-25.1,M,10.8,0000*56
$GPGSA,A,3,02,12,10,04,25,05,27,29,,,,,1.9,1.0,1.7*35
$GPRMC,231818.000,A,3748.7918,N,12217.8415,W,2.10,125.92,210812,,,D*7E
$GPVTG,125.92,T,,M,2.10,N,3.9,K,D*0C
$GPGGA,231819.000,3748.7914,N,12217.8402,W,2,08,1.0,-2.2,M,-25.1,M,1.8,0000*6F
$GPGSA,A,3,02,12,10,04,25,05,27,29,,,,,1.9,1.0,1.7*35
$GPRMC,231819.000,A,3748.7914,N,12217.8402,W,2.28,121.37,210812,,,D*75
$GPVTG,121.37,T,,M,2.28,N,4.2,K,D*00
$GPGGA,231820.000,3748.7911,N,12217.8396,W,2,08,1.0,-2.0,M,-25.1,M,1.8,0000*68
$GPGSA,A,3,02,12,10,04,25,05,27,29,,,,,1.9,1.0,1.7*35
$GPGSV,3,1,11,12,82,331,22,02,73,059,23,25,40,314,18,10,29,082,28*7E
$GPGSV,3,2,11,04,28,047,26,29,27,280,22,05,25,144,26,09,22,201,34*7F
$GPGSV,3,3,11,27,17,196,32,31,02,330,,48,44,197,31*44
$GPRMC,231820.000,A,3748.7911,N,12217.8396,W,1.54,123.96,210812,,,D*71
$GPVTG,123.96,T,,M,1.54,N,2.9,K,D*0C
$GPGGA,231821.000,3748.7914,N,12217.8392,W,2,08,1.0,-2.0,M,-25.1,M,1.8,0000*68
$GPGSA,A,3,02,12,10,04,25,05,27,29,,,,,1.9,1.0,1.7*35
$GPRMC,231821.000,A,3748.7914,N,12217.8392,W,1.14,106.15,210812,,,D*79
$GPVTG,106.15,T,,M,1.14,N,2.1,K,D*0C
$GPGGA,231822.000,3748.7912,N,12217.8385,W,2,06,2.2,-1.5,M,-25.1,M,2.8,0000*61
$GPGSA,A,3,02,12,25,05,27,29,,,,,,,3.8,2.2,3.0*37
$GPRMC,231822.000,A,3748.7912,N,12217.8385,W,0.91,114.45,210812,,,D*70
$GPVTG,114.45,T,,M,0.91,N,1.7,K,D*03
$GPGGA,231823.000,3748.7908,N,12217.8378,W,2,08,1.0,-1.4,M,-25.1,M,3.8,0000*66
$GPGSA,A,3,02,12,10,04,25,05,27,29,,,,,1.9,1.0,1.7*35
$GPRMC,231823.000,A,3748.7908,N,12217.8378,W,1.85,123.32,210812,,,D*78
$GPVTG,123.32,T,,M,1.85,N,3.4,K,D*02
$GPGGA,231824.000,3748.7904,N,12217.8372,W,2,08,1.0,-1.7,M,-25.1,M,4.8,0000*63
$GPGSA,A,3,02,12,10,04,25,05,27,29,,,,,1.9,1.0,1.7*35
$GPRMC,231824.000,A,3748.7904,N,12217.8372,W,2.05,125.17,210812,,,D*73
$GPVTG,125.17,T,,M,2.05,N,3.8,K,D*04
$GPGGA,231825.000,3748.7899,N,12217.8362,W,2,08,1.0,-2.8,M,-25.1,M,1.8,0000*6F
$GPGSA,A,3,02,12,10,04,25,05,27,29,,,,,1.9,1.0,1.7*35
$GPGSV,3,1,11,12,82,331,23,02,73,059,23,25,40,314,21,10,29,082,24*79
$GPGSV,3,2,11,04,28,047,21,29,27,280,22,05,25,144,29,09,22,201,33*70
$GPGSV,3,3,11,27,17,196,32,31,02,330,,48,44,197,34*41
$GPRMC,231825.000,A,3748.7899,N,12217.8362,W,2.87,130.47,210812,,,D*7D
$GPVTG,130.47,T,,M,2.87,N,5.3,K,D*02
$GPGGA,231826.000,3748.7889,N,12217.8354,W,2,08,1.0,-2.5,M,-25.1,M,1.8,0000*65
$GPGSA,A,3,02,12,10,04,25,05,27,29,,,,,1.9,1.0,1.7*35
$GPRMC,231826.000,A,3748.7889,N,12217.8354,W,2.73,139.02,210812,,,D*79
$GPVTG,139.02,T,,M,2.73,N,5.0,K,D*02
$GPGGA,231827.000,3748.7882,N,12217.8350,W,2,08,1.0,-3.1,M,-25.1,M,1.8,0000*6E
$GPGSA,A,3,02,12,10,04,25,05,27,29,,,,,1.9,1.0,1.7*35
$GPRMC,231827.000,A,3748.7882,N,12217.8350,W,2.62,124.08,210812,,,D*71
$GPVTG,124.08,T,,M,2.62,N,4.9,K,D*0C
$GPGGA,231828.000,3748.7874,N,12217.8340,W,2,08,1.0,-2.6,M,-25.1,M,1.8,0000*6F
$GPGSA,A,3,02,12,10,04,25,05,27,29,,,,,1.9,1.0,1.7*35
$GPRMC,231828.000,A,3748.7874,N,12217.8340,W,2.67,126.37,210812,,,D*7D
$GPVTG,126.37,T,,M,2.67,N,4.9,K,D*07
$GPGGA,231829.000,3748.7873,N,12217.8328,W,2,08,1.0,-4.3,M,-25.1,M,2.8,0000*67
$GPGSA,A,3,02,12,10,04,25,05,27,29,,,,,1.9,1.0,1.7*35
$GPRMC,231829.000,A,3748.7873,N,12217.8328,W,2.52,118.42,210812,,,D*7C
$GPVTG,118.42,T,,M,2.52,N,4.7,K,D*00
$GPGGA,231830.000,3748.7869,N,12217.8320,W,2,08,1.0,-5.4,M,-25.1,M,3.8,0000*6B
$GPGSA,A,3,02,12,10,04,25,05,27,29,,,,,1.9,1.0,1.7*35
$GPGSV,3,1,11,12,82,331,23,02,73,059,24,25,40,314,21,10,29,082,24*7E
$GPGSV,3,2,11,04,28,047,20,29,27,280,26,05,25,144,27,09,22,201,34*7C
$GPGSV,3,3,11,27,17,196,31,31,02,330,,48,44,197,34*42
$GPRMC,231830.000,A,3748.7869,N,12217.8320,W,2.33,115.47,210812,,,D*78
$GPGGA,231831.000,3748.7867,N,12217.8305,W,2,08,1.0,-6.8,M,-25.1,M,4.8,0000*6B
$GPGSA,A,3,02,12,10,04,25,05,27,29,,,,,1.9,1.0,1.7*35
$GPRMC,231831.000,A,3748.7867,N,12217.8305,W,2.70,116.61,210812,,,D*70
$GPVTG,116.61,T,,M,2.70,N,5.0,K,D*09
$GPGGA,231832.000,3748.7863,N,12217.8294,W,2,08,1.0,-6.9,M,-25.1,M,5.8,0000*65
$GPGSA,A,3,02,12,10,04,25,05,27,29,,,,,1.9,1.0,1.7*35
$GPRMC,231832.000,A,3748.7863,N,12217.8294,W,2.99,117.84,210812,,,D*73
$GPVTG,117.84,T,,M,2.99,N,5.5,K,D*01
$GPGGA,231833.000,3748.7858,N,12217.8290,W,2,08,1.0,-7.2,M,-25.1,M,6.8,0000*61
$GPGSA,A,3,02,12,10,04,25,05,27,29,,,,,1.9,1.0,1.7*35
$GPRMC,231833.000,A,3748.7858,N,12217.8290,W,2.28,108.71,210812,,,D*70
$GPVTG,108.71,T,,M,2.28,N,4.2,K,D*09
$GPGGA,231834.000,3748.7857,N,12217.8281,W,2,08,1.0,-8.9,M,-25.1,M,7.8,0000*6C
$GPGSA,A,3,02,12,10,04,25,05,27,29,,,,,1.9,1.0,1.7*35
$GPRMC,231834.000,A,3748.7857,N,12217.8281,W,2.78,105.65,210812,,,D*75
$GPVTG,105.65,T,,M,2.78,N,5.2,K,D*05
$GPGGA,231835.000,3748.7857,N,12217.8269,W,2,08,1.0,-10.6,M,-25.1,M,8.8,0000*52
$GPGSA,A,3,02,12,10,04,25,05,27,29,,,,,1.9,1.0,1.7*35
$GPGSV,3,1,11,12,82,331,23,02,73,059,24,25,40,314,21,10,29,082,24*7E
$GPGSV,3,2,11,04,28,047,20,29,27,280,24,05,25,144,34,09,22,201,34*7C
$GPGSV,3,3,11,27,17,196,32,31,02,330,,48,44,197,29*4D
$GPRMC,231835.000,A,3748.7857,N,12217.8269,W,2.76,106.15,210812,,,D*78
$GPVTG,106.15,T,,M,2.76,N,5.1,K,D*0C
$GPGGA,231836.000,3748.7853,N,12217.8262,W,2,08,1.0,-10.9,M,-25.1,M,9.8,0000*50
$GPGSA,A,3,02,12,10,04,25,05,27,29,,,,,1.9,1.0,1.7*35
$GPRMC,231836.000,A,3748.7853,N,12217.8262,W,2.06,115.87,210812,,,D*7A
$GPVTG,115.87,T,,M,2.06,N,3.8,K,D*0D
$GPGGA,231837.000,3748.7849,N,12217.8255,W,2,08,1.0,-10.9,M,-25.1,M,1.8,0000*56
$GPGSA,A,3,02,12,10,04,25,05,27,29,,,,,1.9,1.0,1.7*35
$GPRMC,231837.000,A,3748.7849,N,12217.8255,W,1.88,121.18,210812,,,D*70
$GPVTG,121.18,T,,M,1.88,N,3.5,K,D*04
$GPGGA,231838.000,3748.7844,N,12217.8250,W,2,08,1.0,-10.0,M,-25.1,M,1.8,0000*58
$GPGSA,A,3,02,12,10,04,25,05,27,29,,,,,1.9,1.0,1.7*35
$GPRMC,231838.000,A,3748.7844,N,12217.8250,W,1.88,121.48,210812,,,D*72
$GPVTG,121.48,T,,M,1.88,N,3.5,K,D*01
$GPGGA,231839.000,3748.7835,N,12217.8240,W,2,08,1.0,-9.0,M,-25.1,M,1.8,0000*66
$GPGSA,A,3,02,12,10,04,25,05,27,29,,,,,1.9,1.0,1.7*35
$GPRMC,231839.000,A,3748.7835,N,12217.8240,W,3.03,124.51,210812,,,D*78
$GPVTG,124.51,T,,M,3.03,N,5.6,K,D*08
$GPGGA,231840.000,3748.7829,N,12217.8231,W,2,08,1.0,-8.0,M,-25.1,M,2.8,0000*61
$GPGSA,A,3,02,12,10,04,25,05,27,29,,,,,1.9,1.0,1.7*35
$GPGSV,3,1,11,12,82,331,23,02,73,059,24,25,40,314,21,10,29,082,22*78
$GPGSV,3,2,11,04,28,047,19,29,27,280,29,05,25,144,32,09,22,201,35*7C
$GPGSV,3,3,11,27,17,196,32,31,02,330,,48,44,197,32*47
$GPRMC,231840.000,A,3748.7829,N,12217.8231,W,3.12,123.85,210812,,,D*73
$GPVTG,123.85,T,,M,3.12,N,5.8,K,D*08
$GPGGA,231841.000,3748.7824,N,12217.8221,W,2,08,1.0,-7.1,M,-25.1,M,3.8,0000*63
$GPGSA,A,3,02,12,10,04,25,05,27,29,,,,,1.9,1.0,1.7*35
$GPRMC,231841.000,A,3748.7824,N,12217.8221,W,2.83,124.88,210812,,,D*7D
$GPVTG,124.88,T,,M,2.83,N,5.2,K,D*01
$GPGGA,231842.000,3748.7815,N,12217.8217,W,2,08,1.0,-5.9,M,-25.1,M,4.8,0000*6A
$GPGSA,A,3,02,12,10,04,25,05,27,29,,,,,1.9,1.0,1.7*35
$GPRMC,231842.000,A,3748.7815,N,12217.8217,W,2.31,132.92,210812,,,D*7C
$GPVTG,132.92,T,,M,2.31,N,4.3,K,D*04
$GPGGA,231843.000,3748.7807,N,12217.8213,W,2,08,1.0,-4.6,M,-25.1,M,5.8,0000*63
$GPGSA,A,3,02,12,10,04,25,05,27,29,,,,,1.9,1.0,1.7*35
$GPRMC,231843.000,A,3748.7807,N,12217.8213,W,2.07,139.62,210812,,,D*7B
$GPVTG,139.62,T,,M,2.07,N,3.8,K,D*09
$GPGGA,231844.000,3748.7799,N,12217.8204,W,2,08,1.0,-2.7,M,-25.1,M,6.8,0000*6E
$GPGSA,A,3,02,12,10,04,25,05,27,29,,,,,1.9,1.0,1.7*35
$GPRMC,231844.000,A,3748.7799,N,12217.8204,W,2.54,128.11,210812,,,D*70
$GPVTG,128.11,T,,M,2.54,N,4.7,K,D*03
$GPGGA,231845.000,3748.7791,N,12217.8199,W,2,08,1.0,-0.5,M,-25.1,M,1.8,0000*67
$GPGSA,A,3,02,12,10,04,25,05,27,29,,,,,1.9,1.0,1.7*35
$GPGSV,3,1,11,12,83,331,23,02,73,059,28,25,40,314,21,10,29,082,22*75
$GPGSV,3,2,11,04,28,047,19,29,27,280,27,05,25,144,33,09,22,201,35*73
$GPGSV,3,3,11,27,17,196,33,31,02,330,,48,44,197,33*47
$GPRMC,231845.000,A,3748.7791,N,12217.8199,W,2.68,128.64,210812,,,D*73
$GPVTG,128.64,T,,M,2.68,N,5.0,K,D*08
$GPGGA,231846.000,3748.7785,N,12217.8192,W,2,08,1.0,0.6,M,-25.1,M,2.8,0000*47
$GPGSA,A,3,02,12,10,04,25,05,27,29,,,,,1.9,1.0,1.7*35
$GPRMC,231846.000,A,3748.7785,N,12217.8192,W,2.86,120.97,210812,,,D*7A
$GPVTG,120.97,T,,M,2.86,N,5.3,K,D*0F
$GPGGA,231847.000,3748.7778,N,12217.8182,W,2,08,1.0,2.4,M,-25.1,M,3.8,0000*44
$GPGSA,A,3,02,12,10,04,25,05,27,29,,,,,1.9,1.0,1.7*35
$GPRMC,231847.000,A,3748.7778,N,12217.8182,W,2.78,114.27,210812,,,D*75
$GPVTG,114.27,T,,M,2.78,N,5.1,K,D*00
$GPGGA,231848.000,3748.7775,N,12217.8173,W,2,08,1.0,3.0,M,-25.1,M,4.8,0000*4A
$GPGSA,A,3,02,12,10,04,25,05,27,29,,,,,1.9,1.0,1.7*35
$GPRMC,231848.000,A,3748.7775,N,12217.8173,W,2.52,120.91,210812,,,D*7B
$GPVTG,120.91,T,,M,2.52,N,4.7,K,D*05
$GPGGA,231849.000,3748.7768,N,12217.8166,W,2,08,1.0,4.3,M,-25.1,M,5.8,0000*46
$GPGSA,A,3,02,12,10,04,25,05,27,29,,,,,1.9,1.0,1.7*35
$GPRMC,231849.000,A,3748.7768,N,12217.8166,W,2.70,126.79,210812,,,D*72
$GPVTG,126.79,T,,M,2.70,N,5.0,K,D*03
$GPGGA,231850.000,3748.7767,N,12217.8155,W,2,08,1.0,2.3,M,-25.1,M,6.8,0000*44
$GPGSA,A,3,02,12,10,04,25,05,27,29,,,,,1.9,1.0,1.7*35
$GPGSV,3,1,11,12,83,331,24,02,73,059,27,25,40,314,20,10,29,082,24*7A
$GPGSV,3,2,11,04,28,047,22,29,27,280,27,05,25,144,33,09,22,201,35*7B
$GPGSV,3,3,11,27,17,196,33,31,02,330,,48,44,197,33*47
$GPRMC,231850.000,A,3748.7767,N,12217.8155,W,2.85,130.10,210812,,,D*77
$GPGGA,231851.000,3748.7756,N,12217.8149,W,2,08,1.0,4.2,M,-25.1,M,7.8,0000*4C
$GPGSA,A,3,02,12,10,04,25,05,27,29,,,,,1.9,1.0,1.7*35
$GPRMC,231851.000,A,3748.7756,N,12217.8149,W,2.81,133.54,210812,,,D*7E
$GPVTG,133.54,T,,M,2.81,N,5.2,K,D*04
$GPGGA,231852.000,3748.7748,N,12217.8141,W,2,08,1.0,5.0,M,-25.1,M,1.8,0000*4D
$GPGSA,A,3,02,12,10,04,25,05,27,29,,,,,1.9,1.0,1.7*35
$GPRMC,231852.000,A,3748.7748,N,12217.8141,W,2.76,145.36,210812,,,D*77
$GPVTG,145.36,T,,M,2.76,N,5.1,K,D*0A
$GPGGA,231853.000,3748.7741,N,12217.8137,W,2,08,1.0,6.6,M,-25.1,M,2.8,0000*42
$GPGSA,A,3,02,12,10,04,25,05,27,29,,,,,1.9,1.0,1.7*35
$GPRMC,231853.000,A,3748.7741,N,12217.8137,W,2.20,162.76,210812,,,D*7C
$GPVTG,162.76,T,,M,2.20,N,4.1,K,D*09
$GPGGA,231854.000,3748.7736,N,12217.8133,W,2,08,1.0,7.5,M,-25.1,M,3.8,0000*42
$GPGSA,A,3,02,12,10,04,25,05,27,29,,,,,1.9,1.0,1.7*35
$GPRMC,231854.000,A,3748.7736,N,12217.8133,W,1.97,129.30,210812,,,D*7D
$GPVTG,129.30,T,,M,1.97,N,3.7,K,D*0A
$GPGGA,231855.000,3748.7732,N,12217.8121,W,2,08,1.0,7.7,M,-25.1,M,4.8,0000*41
$GPGSA,A,3,02,12,10,04,25,05,27,29,,,,,1.9,1.0,1.7*35
$GPGSV,3,1,11,12,83,331,24,02,73,059,26,25,40,314,20,10,29,082,22*7D
$GPGSV,3,2,11,04,28,047,21,29,27,280,25,05,25,144,34,09,22,201,32*7A
$GPGSV,3,3,11,27,17,196,27,31,02,330,,48,44,197,34*45
$GPRMC,231855.000,A,3748.7732,N,12217.8121,W,2.85,131.18,210812,,,D*78
$GPVTG,131.18,T,,M,2.85,N,5.3,K,D*0B
$GPGGA,231856.000,3748.7728,N,12217.8107,W,2,08,1.0,7.9,M,-25.1,M,5.8,0000*42
$GPGSA,A,3,02,12,10,04,25,05,27,29,,,,,1.9,1.0,1.7*35
$GPRMC,231856.000,A,3748.7728,N,12217.8107,W,3.02,124.44,210812,,,D*77
$GPVTG,124.44,T,,M,3.02,N,5.6,K,D*0D
$GPGGA,231857.000,3748.7724,N,12217.8096,W,2,08,1.0,8.8,M,-25.1,M,6.8,0000*4B
$GPGSA,A,3,02,12,10,04,25,05,27,29,,,,,1.9,1.0,1.7*35
$GPRMC,231857.000,A,3748.7724,N,12217.8096,W,2.48,117.30,210812,,,D*7F
$GPVTG,117.30,T,,M,2.48,N,4.6,K,D*00
$GPGGA,231858.000,3748.7720,N,12217.8085,W,2,08,1.0,9.0,M,-25.1,M,7.8,0000*4A
$GPGSA,A,3,02,12,10,04,25,05,27,29,,,,,1.9,1.0,1.7*35
$GPRMC,231858.000,A,3748.7720,N,12217.8085,W,2.77,120.16,210812,,,D*7A
$GPVTG,120.16,T,,M,2.77,N,5.1,K,D*0A
$GPGGA,231859.000,3748.7718,N,12217.8072,W,2,08,1.0,7.9,M,-25.1,M,8.8,0000*40
$GPGSA,A,3,02,12,10,04,25,05,27,29,,,,,1.9,1.0,1.7*35
$GPRMC,231859.000,A,3748.7718,N,12217.8072,W,3.07,126.22,210812,,,D*7F
$GPVTG,126.22,T,,M,3.07,N,5.7,K,D*0B
$GPGGA,231900.000,3748.7706,N,12217.8068,W,2,07,1.1,9.4,M,-25.1,M,9.8,0000*45
$GPGSA,A,3,02,12,04,25,05,27,29,,,,,,2.0,1.1,1.7*3F
$GPGSV,3,1,11,12,83,331,24,02,73,059,25,25,40,314,20,10,29,082,20*7C
$GPGSV,3,2,11,04,28,047,20,29,27,280,27,05,25,144,33,09,22,201,34*78
$GPGSV,3,3,11,27,17,196,28,31,02,330,,48,44,197,32*4C
$GPRMC,231900.000,A,3748.7706,N,12217.8068,W,2.83,140.83,210812,,,D*70
$GPVTG,140.83,T,,M,2.83,N,5.2,K,D*08
$GPGGA,231901.000,3748.7700,N,12217.8061,W,2,08,1.0,10.3,M,-25.1,M,10.8,0000*42
$GPGSA,A,3,02,12,10,04,25,05,27,29,,,,,1.9,1.0,1.7*35
$GPRMC,231901.000,A,3748.7700,N,12217.8061,W,2.73,131.84,210812,,,D*70
$GPVTG,131.84,T,,M,2.73,N,5.1,K,D*05
$GPGGA,231902.000,3748.7693,N,12217.8053,W,2,08,1.0,11.7,M,-25.1,M,11.8,0000*4F
$GPGSA,A,3,02,12,10,04,25,05,27,29,,,,,1.9,1.0,1.7*35
$GPRMC,231902.000,A,3748.7693,N,12217.8053,W,2.88,133.89,210812,,,D*72
$GPVTG,133.89,T,,M,2.88,N,5.3,K,D*0C
$GPGGA,231903.000,3748.7687,N,12217.8043,W,2,08,1.0,12.2,M,-25.1,M,12.8,0000*4F
$GPGSA,A,3,02,12,10,04,25,05,27,29,,,,,1.9,1.0,1.7*35
$GPRMC,231903.000,A,3748.7687,N,12217.8043,W,2.96,137.38,210812,,,D*76
$GPVTG,137.38,T,,M,2.96,N,5.5,K,D*0B
$GPGGA,231904.000,3748.7680,N,12217.8036,W,2,08,1.0,13.1,M,-25.1,M,13.8,0000*4E
$GPGSA,A,3,02,12,10,04,25,05,27,29,,,,,1.9,1.0,1.7*35
$GPRMC,231904.000,A,3748.7680,N,12217.8036,W,2.85,134.68,210812,,,D*70
$GPVTG,134.68,T,,M,2.85,N,5.3,K,D*09
$GPGGA,231905.000,3748.7671,N,12217.8032,W,2,08,1.0,14.0,M,-25.1,M,14.8,0000*44
$GPGSA,A,3,02,12,10,04,25,05,27,29,,,,,1.9,1.0,1.7*35
$GPGSV,3,1,11,12,83,331,24,02,73,059,26,25,40,314,20,10,29,082,22*7D
$GPGSV,3,2,11,04,28,047,20,29,27,280,27,05,25,144,34,09,22,201,35*7E
$GPGSV,3,3,11,27,17,196,29,31,02,330,,48,44,197,33*4C
$GPRMC,231905.000,A,3748.7671,N,12217.8032,W,3.24,132.08,210812,,,D*71
$GPVTG,132.08,T,,M,3.24,N,6.0,K,D*03
$GPGGA,231906.000,3748.7667,N,12217.8023,W,2,08,1.0,13.9,M,-25.1,M,15.8,0000*4F
$GPGSA,A,3,02,12,10,04,25,05,27,29,,,,,1.9,1.0,1.7*35
$GPRMC,231906.000,A,3748.7667,N,12217.8023,W,2.97,124.92,210812,,,D*78
$GPVTG,124.92,T,,M,2.97,N,5.5,K,D*08
$GPGGA,231907.000,3748.7661,N,12217.8016,W,2,08,1.0,14.1,M,-25.1,M,16.8,0000*42
$GPGSA,A,3,02,12,10,04,25,05,27,29,,,,,1.9,1.0,1.7*35
$GPRMC,231907.000,A,3748.7661,N,12217.8016,W,2.89,121.77,210812,,,D*78
$GPVTG,121.77,T,,M,2.89,N,5.4,K,D*08
$GPGGA,231908.000,3748.7657,N,12217.8007,W,2,08,1.0,14.9,M,-25.1,M,17.8,0000*41
$GPGSA,A,3,02,12,10,04,25,05,27,29,,,,,1.9,1.0,1.7*35
$GPRMC,231908.000,A,3748.7657,N,12217.8007,W,2.50,118.84,210812,,,D*70
$GPVTG,118.84,T,,M,2.50,N,4.6,K,D*09
$GPGGA,231909.000,3748.7654,N,12217.7997,W,1,08,1.0,14.3,M,-25.1,M,,0000*55
$GPGSA,A,3,02,12,10,04,25,05,27,29,,,,,1.9,1.0,1.7*35
$GPRMC,231909.000,A,3748.7654,N,12217.7997,W,2.49,122.66,210812,,,A*75
$GPVTG,122.66,T,,M,2.49,N,4.6,K,A*01
$GPGGA,231910.000,3748.7648,N,12217.7992,W,1,08,1.0,14.9,M,-25.1,M,,0000*5F
$GPGSA,A,3,02,12,10,04,25,05,27,29,,,,,1.9,1.0,1.7*35
$GPGSV,3,1,11,12,83,331,24,02,73,059,26,25,40,314,20,10,29,082,22*7D
$GPGSV,3,2,11,04,28,047,20,29,27,280,28,05,25,144,33,09,22,201,35*76
$GPGSV,3,3,11,27,17,196,29,31,02,330,,48,44,197,32*4D
$GPRMC,231910.000,A,3748.7648,N,12217.7992,W,2.64,124.89,210812,,,A*7D
$GPGGA,231911.000,3748.7642,N,12217.7982,W,1,08,1.0,14.1,M,-25.1,M,,0000*5D
$GPGSA,A,3,02,12,10,04,25,05,27,29,,,,,1.9,1.0,1.7*35
$GPRMC,231911.000,A,3748.7642,N,12217.7982,W,2.78,122.58,210812,,,A*70
$GPVTG,122.58,T,,M,2.78,N,5.1,K,A*08
$GPGGA,231912.000,3748.7637,N,12217.7973,W,1,08,1.0,12.3,M,-25.1,M,,0000*56
$GPGSA,A,3,02,12,10,04,25,05,27,29,,,,,1.9,1.0,1.7*35
$GPRMC,231912.000,A,3748.7637,N,12217.7973,W,2.82,123.48,210812,,,A*7A
$GPVTG,123.48,T,,M,2.82,N,5.2,K,A*0E
$GPGGA,231913.000,3748.7631,N,12217.7966,W,2,08,1.0,11.6,M,-25.1,M,1.8,0000*77
$GPGSA,A,3,02,12,10,04,25,05,27,29,,,,,1.9,1.0,1.7*35
$GPRMC,231913.000,A,3748.7631,N,12217.7966,W,2.62,124.27,210812,,,D*7C
$GPVTG,124.27,T,,M,2.62,N,4.9,K,D*01
$GPGGA,231914.000,3748.7627,N,12217.7957,W,2,08,1.0,11.1,M,-25.1,M,1.8,0000*72
$GPGSA,A,3,02,12,10,04,25,05,27,29,,,,,1.9,1.0,1.7*35
$GPRMC,231914.000,A,3748.7627,N,12217.7957,W,2.95,120.30,210812,,,D*74
$GPVTG,120.30,T,,M,2.95,N,5.5,K,D*06
$GPGGA,231915.000,3748.7624,N,12217.7944,W,2,08,1.0,9.1,M,-25.1,M,1.8,0000*4B
$GPGSA,A,3,02,12,10,04,25,05,27,29,,,,,1.9,1.0,1.7*35
$GPGSV,3,1,11,12,83,331,24,02,72,059,25,25,40,314,20,10,29,082,20*7D
$GPGSV,3,2,11,04,28,047,19,29,27,280,28,05,26,143,34,09,22,201,34*7E
$GPGSV,3,3,11,27,16,196,36,31,02,329,,48,44,197,32*4A
$GPRMC,231915.000,A,3748.7624,N,12217.7944,W,3.33,125.89,210812,,,D*7E
$GPVTG,125.89,T,,M,3.33,N,6.2,K,D*08
$GPGGA,231916.000,3748.7624,N,12217.7933,W,2,08,1.0,6.7,M,-25.1,M,2.8,0000*42
$GPGSA,A,3,02,12,10,04,25,05,27,29,,,,,1.9,1.0,1.7*35
$GPRMC,231916.000,A,3748.7624,N,12217.7933,W,2.91,123.48,210812,,,D*7F
$GPVTG,123.48,T,,M,2.91,N,5.4,K,D*0F
$GPGGA,231917.000,3748.7618,N,12217.7925,W,2,08,1.0,6.6,M,-25.1,M,3.8,0000*4B
$GPGSA,A,3,02,12,10,04,25,05,27,29,,,,,1.9,1.0,1.7*35
$GPRMC,231917.000,A,3748.7618,N,12217.7925,W,2.68,124.41,210812,,,D*7E
$GPVTG,124.41,T,,M,2.68,N,5.0,K,D*03
$GPGGA,231918.000,3748.7615,N,12217.7915,W,2,08,1.0,6.5,M,-25.1,M,4.8,0000*4E
$GPGSA,A,3,02,12,10,04,25,05,27,29,,,,,1.9,1.0,1.7*35
$GPRMC,231918.000,A,3748.7615,N,12217.7915,W,2.57,109.86,210812,,,D*77
$GPVTG,109.86,T,,M,2.57,N,4.8,K,D*02
$GPGGA,231919.000,3748.7610,N,12217.7910,W,2,08,1.0,6.9,M,-25.1,M,1.8,0000*46
$GPGSA,A,3,02,12,10,04,25,05,27,29,,,,,1.9,1.0,1.7*35
$GPRMC,231919.000,A,3748.7610,N,12217.7910,W,2.43,115.71,210812,,,D*76
$GPVTG,115.71,T,,M,2.43,N,4.5,K,D*0F
$GPGGA,231920.000,3748.7605,N,12217.7904,W,2,08,1.0,6.9,M,-25.1,M,1.8,0000*4D
$GPGSA,A,3,02,12,10,04,25,05,27,29,,,,,1.9,1.0,1.7*35
$GPGSV,3,1,11,12,83,331,24,02,72,058,25,25,40,314,20,10,29,082,21*7D
$GPGSV,3,2,11,04,28,047,19,29,27,280,27,05,26,143,33,09,22,201,30*72
$GPGSV,3,3,11,27,16,196,32,31,02,329,,48,44,197,34*48
$GPRMC,231920.000,A,3748.7605,N,12217.7904,W,2.60,106.89,210812,,,D*79
$GPVTG,106.89,T,,M,2.60,N,4.8,K,D*06
$GPGGA,231921.000,3748.7600,N,12217.7897,W,2,08,1.0,7.4,M,-25.1,M,1.8,0000*4E
$GPGSA,A,3,02,12,10,04,25,05,27,29,,,,,1.9,1.0,1.7*35
$GPRMC,231921.000,A,3748.7600,N,12217.7897,W,2.67,112.13,210812,,,D*77
$GPVTG,112.13,T,,M,2.67,N,4.9,K,D*06
$GPGGA,231922.000,3748.7597,N,12217.7885,W,2,08,1.0,7.7,M,-25.1,M,1.8,0000*40
$GPGSA,A,3,02,12,10,04,25,05,27,29,,,,,1.9,1.0,1.7*35
$GPRMC,231922.000,A,3748.7597,N,12217.7885,W,2.93,124.63,210812,,,D*73
$GPVTG,124.63,T,,M,2.93,N,5.4,K,D*03
$GPGGA,231923.000,3748.7589,N,12217.7875,W,2,08,1.0,9.8,M,-25.1,M,2.8,0000*43
$GPGSA,A,3,02,12,10,04,25,05,27,29,,,,,1.9,1.0,1.7*35
$GPRMC,231923.000,A,3748.7589,N,12217.7875,W,3.01,128.22,210812,,,D*71
$GPVTG,128.22,T,,M,3.01,N,5.6,K,D*02
$GPGGA,231924.000,3748.7581,N,12217.7869,W,2,08,1.0,10.3,M,-25.1,M,3.8,0000*73
$GPGSA,A,3,02,12,10,04,25,05,27,29,,,,,1.9,1.0,1.7*35
$GPRMC,231924.000,A,3748.7581,N,12217.7869,W,2.78,126.83,210812,,,D*79
$GPVTG,126.83,T,,M,2.78,N,5.1,K,D*0F
$GPGGA,231925.000,3748.7575,N,12217.7863,W,2,08,1.0,10.7,M,-25.1,M,4.8,0000*70
$GPGSA,A,3,02,12,10,04,25,05,27,29,,,,,1.9,1.0,1.7*35
$GPGSV,3,1,11,12,83,331,23,02,72,058,22,25,40,314,19,10,29,082,20*76
$GPGSV,3,2,11,04,28,047,19,29,27,280,27,05,26,143,33,09,22,201,27*74
$GPGSV,3,3,11,27,16,196,33,31,02,329,,48,44,197,32*4F
$GPRMC,231925.000,A,3748.7575,N,12217.7863,W,2.43,120.93,210812,,,D*76
$GPVTG,120.93,T,,M,2.43,N,4.5,K,D*05
$GPGGA,231926.000,3748.7568,N,12217.7855,W,2,08,1.0,11.6,M,-25.1,M,5.8,0000*7B
$GPGSA,A,3,02,12,10,04,25,05,27,29,,,,,1.9,1.0,1.7*35
$GPRMC,231926.000,A,3748.7568,N,12217.7855,W,2.42,126.72,210812,,,D*74
$GPVTG,126.72,T,,M,2.42,N,4.5,K,D*0D
$GPGGA,231927.000,3748.7563,N,12217.7851,W,2,08,1.0,12.3,M,-25.1,M,1.8,0000*77
$GPGSA,A,3,02,12,10,04,25,05,27,29,,,,,1.9,1.0,1.7*35
$GPRMC,231927.000,A,3748.7563,N,12217.7851,W,2.53,135.55,210812,,,D*7D
$GPVTG,135.55,T,,M,2.53,N,4.7,K,D*08
$GPGGA,231928.000,3748.7561,N,12217.7840,W,2,08,1.0,12.1,M,-25.1,M,2.8,0000*7B
$GPGSA,A,3,02,12,10,04,25,05,27,29,,,,,1.9,1.0,1.7*35
$GPRMC,231928.000,A,3748.7561,N,12217.7840,W,2.76,124.25,210812,,,D*70
$GPVTG,124.25,T,,M,2.76,N,5.1,K,D*0F
$GPGGA,231929.000,3748.7560,N,12217.7832,W,2,08,1.0,10.8,M,-25.1,M,3.8,0000*74
$GPGSA,A,3,02,12,10,04,25,05,27,29,,,,,1.9,1.0,1.7*35
$GPRMC,231929.000,A,3748.7560,N,12217.7832,W,2.46,134.70,210812,,,D*77
$GPVTG,134.70,T,,M,2.46,N,4.6,K,D*0B
$GPGGA,231930.000,3748.7555,N,12217.7823,W,2,08,1.0,10.9,M,-25.1,M,4.8,0000*7C
$GPGSA,A,3,02,12,10,04,25,05,27,29,,,,,1.9,1.0,1.7*35
$GPGSV,3,1,11,12,83,331,23,02,72,058,24,25,40,314,19,10,29,082,19*7A
$GPGSV,3,2,11,04,28,047,18,29,27,280,27,05,26,143,33,09,22,201,29*7B
$GPGSV,3,3,11,27,16,196,24,31,02,329,,48,44,197,33*48
$GPRMC,231930.000,A,3748.7555,N,12217.7823,W,2.40,126.93,210812,,,D*71
$GPGGA,231931.000,3748.7551,N,12217.7815,W,2,08,1.0,10.4,M,-25.1,M,5.8,0000*70
$GPGSA,A,3,02,12,10,04,25,05,27,29,,,,,1.9,1.0,1.7*35
$GPRMC,231931.000,A,3748.7551,N,12217.7815,W,2.51,121.27,210812,,,D*79
$GPVTG,121.27,T,,M,2.51,N,4.6,K,D*0B
$GPGGA,231932.000,3748.7548,N,12217.7804,W,2,07,1.1,10.4,M,-25.1,M,6.8,0000*76
$GPGSA,A,3,02,12,10,04,05,27,29,,,,,,2.0,1.1,1.7*39
$GPRMC,231932.000,A,3748.7548,N,12217.7804,W,3.07,120.75,210812,,,D*76
$GPVTG,120.75,T,,M,3.07,N,5.7,K,D*0F
$GPGGA,231933.000,3748.7544,N,12217.7795,W,2,08,1.0,9.4,M,-25.1,M,1.8,0000*4D
$GPGSA,A,3,02,12,10,04,25,05,27,29,,,,,1.9,1.0,1.7*35
$GPRMC,231933.000,A,3748.7544,N,12217.7795,W,2.91,121.99,210812,,,D*71
$GPVTG,121.99,T,,M,2.91,N,5.4,K,D*01
$GPGGA,231934.000,3748.7542,N,12217.7787,W,2,09,0.9,9.3,M,-25.1,M,2.8,0000*42
$GPGSA,A,3,02,12,10,04,25,05,27,29,09,,,,1.9,0.9,1.7*34
$GPRMC,231934.000,A,3748.7542,N,12217.7787,W,2.71,122.27,210812,,,D*7B
$GPVTG,122.27,T,,M,2.71,N,5.0,K,D*0D
$GPGGA,231935.000,3748.7540,N,12217.7778,W,2,09,0.9,8.9,M,-25.1,M,3.8,0000*4B
$GPGSA,A,3,02,12,10,04,25,05,27,29,09,,,,1.9,0.9,1.7*34
$GPGSV,3,1,11,12,83,331,23,02,72,058,24,25,41,314,19,10,29,082,17*75
$GPGSV,3,2,11,04,28,047,17,29,27,280,27,05,26,143,32,09,22,201,35*78
$GPGSV,3,3,11,27,16,196,27,31,02,329,,48,44,197,33*4B
$GPRMC,231935.000,A,3748.7540,N,12217.7778,W,2.50,120.78,210812,,,D*73
$GPVTG,120.78,T,,M,2.50,N,4.6,K,D*01
$GPGGA,231936.000,3748.7536,N,12217.7768,W,2,09,0.9,9.4,M,-25.1,M,4.8,0000*43
$GPGSA,A,3,02,12,10,04,25,05,27,29,09,,,,1.9,0.9,1.7*34
$GPRMC,231936.000,A,3748.7536,N,12217.7768,W,2.54,117.55,210812,,,D*7F
$GPVTG,117.55,T,,M,2.54,N,4.7,K,D*0F
$GPGGA,231937.000,3748.7533,N,12217.7757,W,2,09,0.9,9.8,M,-25.1,M,5.8,0000*46
$GPGSA,A,3,02,12,10,04,25,05,27,29,09,,,,1.9,0.9,1.7*34
$GPRMC,231937.000,A,3748.7533,N,12217.7757,W,2.57,112.90,210812,,,D*78
$GPVTG,112.90,T,,M,2.57,N,4.8,K,D*0F
$GPGGA,231938.000,3748.7530,N,12217.7746,W,2,09,0.9,9.1,M,-25.1,M,1.8,0000*47
$GPGSA,A,3,02,12,10,04,25,05,27,29,09,,,,1.9,0.9,1.7*34
$GPRMC,231938.000,A,3748.7530,N,12217.7746,W,2.70,112.64,210812,,,D*7A
$GPVTG,112.64,T,,M,2.70,N,5.0,K,D*08
$GPGGA,231939.000,3748.7528,N,12217.7736,W,2,09,0.9,7.5,M,-25.1,M,2.8,0000*41
$GPGSA,A,3,02,12,10,04,25,05,27,29,09,,,,1.9,0.9,1.7*34
$GPRMC,231939.000,A,3748.7528,N,12217.7736,W,2.97,113.68,210812,,,D*71
$GPVTG,113.68,T,,M,2.97,N,5.5,K,D*09
$GPGGA,231940.000,3748.7523,N,12217.7724,W,2,09,0.9,8.2,M,-25.1,M,3.8,0000*4E
$GPGSA,A,3,02,12,10,04,25,05,27,29,09,,,,1.9,0.9,1.7*34
$GPGSV,3,1,11,12,83,331,23,02,72,058,25,25,41,314,18,10,29,082,17*75
$GPGSV,3,2,11,04,28,047,17,29,27,280,26,05,26,143,33,09,22,201,35*78
$GPGSV,3,3,11,27,16,196,31,31,02,329,,48,44,197,30*4F
$GPRMC,231940.000,A,3748.7523,N,12217.7724,W,2.91,109.73,210812,,,D*70
$GPVTG,109.73,T,,M,2.91,N,5.4,K,D*0F
$GPGGA,231941.000,3748.7519,N,12217.7713,W,2,09,0.9,8.8,M,-25.1,M,4.8,0000*4F
$GPGSA,A,3,02,12,10,04,25,05,27,29,09,,,,1.9,0.9,1.7*34
$GPRMC,231941.000,A,3748.7519,N,12217.7713,W,3.09,119.81,210812,,,D*70
$GPVTG,119.81,T,,M,3.09,N,5.7,K,D*00
$GPGGA,231942.000,3748.7513,N,12217.7704,W,2,09,0.9,8.5,M,-25.1,M,5.8,0000*4C
$GPGSA,A,3,02,12,10,04,25,05,27,29,09,,,,1.9,0.9,1.7*34
$GPRMC,231942.000,A,3748.7513,N,12217.7704,W,3.15,127.55,210812,,,D*76
$GPVTG,127.55,T,,M,3.15,N,5.8,K,D*06
