$ADVER,3080,2.3
$GPRMC,194628.777,A,3748.7976,N,12217.8624,W,0.44,7.09,120912,,,A*74
$GPRMC,194629.777,A,3748.7975,N,12217.8624,W,0.31,2.73,120912,,,A*7C
$GPRMC,194630.000,A,3748.7974,N,12217.8624,W,0.11,170.47,120912,,,A*73
$GPRMC,194631.000,A,3748.7974,N,12217.8624,W,0.11,160.19,120912,,,A*78
$GPRMC,194632.000,A,3748.7972,N,12217.8624,W,0.08,135.55,120912,,,A*7D
$GPRMC,194633.000,A,3748.7972,N,12217.8623,W,0.05,94.73,120912,,,A*48
$GPRMC,194634.000,A,3748.7994,N,12217.8624,W,0.06,35.38,120912,,,A*47
$GPRMC,194635.000,A,3748.7996,N,12217.8624,W,0.07,32.79,120912,,,A*47
$GPRMC,194636.000,A,3748.7997,N,12217.8625,W,0.08,22.42,120912,,,A*42
$GPRMC,194637.000,A,3748.7998,N,12217.8625,W,0.07,31.23,120912,,,A*46
$GPRMC,194638.000,A,3748.7999,N,12217.8626,W,0.07,37.25,120912,,,A*4B
$GPRMC,194639.000,A,3748.7999,N,12217.8626,W,0.09,30.74,120912,,,A*47
$GPRMC,194640.000,A,3748.8000,N,12217.8626,W,0.08,30.55,120912,,,A*4D
$GPRMC,194641.000,A,3748.8000,N,12217.8626,W,0.07,26.79,120912,,,A*4A
$GPRMC,194642.000,A,3748.8001,N,12217.8626,W,0.09,27.92,120912,,,A*42
$GPRMC,194643.000,A,3748.8001,N,12217.8626,W,0.08,40.66,120912,,,A*48
$GPRMC,194644.000,A,3748.8002,N,12217.8626,W,0.10,31.08,120912,,,A*4B
$GPRMC,194645.000,A,3748.8002,N,12217.8626,W,0.08,36.85,120912,,,A*41
$GPRMC,194646.000,A,3748.8002,N,12217.8626,W,0.09,29.57,120912,,,A*42
$GPRMC,194647.000,A,3748.8003,N,12217.8626,W,0.06,18.36,120912,,,A*48
$GPRMC,194648.000,A,3748.8003,N,12217.8626,W,0.10,34.73,120912,,,A*4F
$GPRMC,194649.000,A,3748.8003,N,12217.8626,W,0.10,29.75,120912,,,A*44
$GPRMC,194650.000,A,3748.8003,N,12217.8626,W,0.08,31.19,120912,,,A*46
$GPRMC,194651.000,A,3748.8004,N,12217.8626,W,0.09,43.43,120912,,,A*4B
$GPRMC,194652.000,A,3748.8004,N,12217.8626,W,0.10,133.75,120912,,,A*73
$GPRMC,194653.000,A,3748.8005,N,12217.8625,W,0.28,127.16,120912,,,A*7B
$GPRMC,194654.000,A,3748.8006,N,12217.8625,W,0.18,123.00,120912,,,A*7F
$GPRMC,194655.000,A,3748.8006,N,12217.8625,W,0.11,15.38,120912,,,A*48
$GPRMC,194656.000,A,3748.8007,N,12217.8625,W,0.23,43.67,120912,,,A*42
$GPRMC,194657.000,A,3748.8012,N,12217.8625,W,0.30,347.71,120912,,,A*75
$GPRMC,194658.000,A,3748.8016,N,12217.8626,W,0.25,353.92,120912,,,A*71
$GPRMC,194659.000,A,3748.8024,N,12217.8627,W,0.67,358.90,120912,,,A*7F
$GPRMC,194700.000,A,3748.8026,N,12217.8627,W,0.39,33.32,120912,,,A*4D
$GPRMC,194701.000,A,3748.8029,N,12217.8627,W,0.38,14.72,120912,,,A*43
$GPRMC,194702.000,A,3748.8032,N,12217.8628,W,0.21,356.93,120912,,,A*77
$GPRMC,194703.000,A,3748.8031,N,12217.8624,W,0.04,347.72,120912,,,A*71
$GPRMC,194704.000,A,3748.8031,N,12217.8624,W,0.28,196.77,120912,,,A*73
$GPRMC,194705.000,A,3748.8030,N,12217.8625,W,0.17,104.51,120912,,,A*71
$GPRMC,194706.000,A,3748.8029,N,12217.8624,W,0.34,250.69,120912,,,A*73
$GPRMC,194707.000,A,3748.8024,N,12217.8623,W,0.19,204.96,120912,,,A*76
$GPRMC,194708.000,A,3748.8020,N,12217.8621,W,0.56,137.11,120912,,,A*78
$GPRMC,194709.000,A,3748.8017,N,12217.8620,W,0.41,257.38,120912,,,A*74
$GPRMC,194710.000,A,3748.8011,N,12217.8625,W,0.33,207.30,120912,,,A*77
$GPRMC,194711.000,A,3748.8008,N,12217.8623,W,0.37,76.79,120912,,,A*45
$GPRMC,194712.000,A,3748.8005,N,12217.8626,W,0.57,260.40,120912,,,A*77
$GPRMC,194713.000,A,3748.8008,N,12217.8627,W,1.24,329.10,120912,,,A*76
$GPRMC,194714.000,A,3748.8006,N,12217.8627,W,1.48,334.24,120912,,,A*7E
$GPRMC,194715.000,A,3748.8001,N,12217.8628,W,0.12,136.64,120912,,,A*7D
$GPRMC,194716.000,A,3748.8000,N,12217.8628,W,1.51,144.56,120912,,,A*7D
$GPRMC,194717.000,A,3748.7997,N,12217.8623,W,1.43,130.91,120912,,,A*74
$GPRMC,194718.000,A,3748.7995,N,12217.8613,W,1.75,123.21,120912,,,A*76
$GPRMC,194719.000,A,3748.7992,N,12217.8605,W,1.45,117.31,120912,,,A*72
$GPRMC,194720.000,A,3748.7989,N,12217.8597,W,1.60,117.02,120912,,,A*7D
$GPRMC,194721.000,A,3748.7987,N,12217.8593,W,1.10,126.37,120912,,,A*75
$GPRMC,194722.000,A,3748.7982,N,12217.8586,W,1.87,130.28,120912,,,A*70
$GPRMC,194723.000,A,3748.7974,N,12217.8579,W,1.94,116.84,120912,,,A*78
$GPRMC,194724.000,A,3748.7972,N,12217.8570,W,1.28,134.99,120912,,,A*7B
$GPRMC,194725.000,A,3748.7966,N,12217.8564,W,1.07,126.71,120912,,,A*72
$GPRMC,194726.000,A,3748.7961,N,12217.8557,W,2.35,121.28,120912,,,A*7F
$GPRMC,194727.000,A,3748.7957,N,12217.8548,W,1.98,123.05,120912,,,A*7C
$GPRMC,194728.000,A,3748.7953,N,12217.8541,W,1.73,127.75,120912,,,A*78
$GPRMC,194729.000,A,3748.7947,N,12217.8529,W,2.01,141.72,120912,,,A*73
$GPRMC,194730.000,A,3748.7942,N,12217.8519,W,2.00,124.26,120912,,,A*7E
$GPRMC,194731.000,A,3748.7941,N,12217.8509,W,2.32,101.97,120912,,,A*71
$GPRMC,194732.000,A,3748.7940,N,12217.8499,W,1.24,95.86,120912,,,A*43
$GPRMC,194733.000,A,3748.7940,N,12217.8494,W,1.14,82.66,120912,,,A*44
$GPRMC,194734.000,A,3748.7935,N,12217.8490,W,0.89,104.15,120912,,,A*7B
$GPRMC,194735.000,A,3748.7928,N,12217.8486,W,0.66,110.23,120912,,,A*70
$GPRMC,194736.000,A,3748.7921,N,12217.8479,W,1.00,123.30,120912,,,A*79
$GPRMC,194737.000,A,3748.7918,N,12217.8473,W,1.37,112.43,120912,,,A*7A
$GPRMC,194738.000,A,3748.7913,N,12217.8462,W,1.46,101.32,120912,,,A*7C
$GPRMC,194739.000,A,3748.7912,N,12217.8456,W,1.31,113.98,120912,,,A*78
$GPRMC,194740.000,A,3748.7909,N,12217.8450,W,2.06,119.73,120912,,,A*72
$GPRMC,194741.000,A,3748.7905,N,12217.8441,W,2.30,101.89,120912,,,A*76
$GPRMC,194742.000,A,3748.7900,N,12217.8429,W,2.64,122.60,120912,,,A*79
$GPRMC,194743.000,A,3748.7895,N,12217.8421,W,2.59,123.44,120912,,,A*74
$GPRMC,194744.000,A,3748.7891,N,12217.8411,W,2.97,118.50,120912,,,A*7B
$GPRMC,194745.000,A,3748.7886,N,12217.8400,W,2.13,118.89,120912,,,A*74
$GPRMC,194746.000,A,3748.7882,N,12217.8391,W,2.10,125.57,120912,,,A*72
$GPRMC,194747.000,A,3748.7878,N,12217.8381,W,2.46,114.36,120912,,,A*71
$GPRMC,194748.000,A,3748.7873,N,12217.8370,W,2.74,117.00,120912,,,A*7C
$GPRMC,194749.000,A,3748.7870,N,12217.8362,W,2.48,123.46,120912,,,A*77
$GPRMC,194750.000,A,3748.7866,N,12217.8354,W,2.62,116.42,120912,,,A*77
$GPRMC,194751.000,A,3748.7857,N,12217.8353,W,2.45,121.14,120912,,,A*71
$GPRMC,194752.000,A,3748.7849,N,12217.8349,W,2.38,117.27,120912,,,A*79
$GPRMC,194753.000,A,3748.7843,N,12217.8345,W,2.17,122.13,120912,,,A*72
$GPRMC,194754.000,A,3748.7841,N,12217.8336,W,2.11,112.51,120912,,,A*70
$GPRMC,194755.000,A,3748.7838,N,12217.8326,W,1.87,118.59,120912,,,A*70
$GPRMC,194756.000,A,3748.7833,N,12217.8318,W,1.54,118.62,120912,,,A*73
$GPRMC,194757.000,A,3748.7829,N,12217.8310,W,1.38,116.28,120912,,,A*7B
$GPRMC,194758.000,A,3748.7827,N,12217.8303,W,1.21,102.29,120912,,,A*74
$GPRMC,194759.000,A,3748.7823,N,12217.8299,W,1.35,108.01,120912,,,A*76
$GPRMC,194800.000,A,3748.7820,N,12217.8293,W,1.76,121.38,120912,,,A*7A
$GPRMC,194801.000,A,3748.7813,N,12217.8284,W,1.82,132.88,120912,,,A*7F
$GPRMC,194802.000,A,3748.7805,N,12217.8278,W,2.15,123.46,120912,,,A*77
$GPRMC,194803.000,A,3748.7797,N,12217.8272,W,2.74,120.98,120912,,,A*7F
$GPRMC,194804.000,A,3748.7789,N,12217.8266,W,2.66,135.72,120912,,,A*71
$GPRMC,194805.000,A,3748.7783,N,12217.8255,W,2.50,122.31,120912,,,A*7E
$GPRMC,194806.000,A,3748.7779,N,12217.8249,W,2.31,131.12,120912,,,A*71
$GPRMC,194807.000,A,3748.7776,N,12217.8242,W,2.51,125.12,120912,,,A*77
$GPRMC,194808.000,A,3748.7775,N,12217.8234,W,2.22,98.40,120912,,,A*4E
$GPRMC,194809.000,A,3748.7773,N,12217.8224,W,1.64,107.65,120912,,,A*79
$GPRMC,194810.000,A,3748.7770,N,12217.8214,W,2.35,115.80,120912,,,A*7E
$GPRMC,194811.000,A,3748.7767,N,12217.8205,W,2.68,123.30,120912,,,A*7F
$GPRMC,194812.000,A,3748.7763,N,12217.8194,W,2.83,124.58,120912,,,A*7F
$GPRMC,194813.000,A,3748.7758,N,12217.8187,W,2.86,126.44,120912,,,A*7E
$GPRMC,194814.000,A,3748.7753,N,12217.8179,W,2.93,119.16,120912,,,A*7C
$GPRMC,194815.000,A,3748.7746,N,12217.8174,W,2.66,126.06,120912,,,A*73
$GPRMC,194816.000,A,3748.7743,N,12217.8162,W,2.93,117.51,120912,,,A*78
$GPRMC,194817.000,A,3748.7740,N,12217.8151,W,3.26,110.59,120912,,,A*7A
$GPRMC,194818.000,A,3748.7738,N,12217.8138,W,2.91,108.90,120912,,,A*74
$GPRMC,194819.000,A,3748.7735,N,12217.8127,W,2.57,123.34,120912,,,A*7B
$GPRMC,194820.000,A,3748.7732,N,12217.8117,W,2.56,127.28,120912,,,A*7D
$GPRMC,194821.000,A,3748.7728,N,12217.8107,W,2.49,120.35,120912,,,A*73
$GPRMC,194822.000,A,3748.7725,N,12217.8097,W,2.67,119.81,120912,,,A*7C
$GPRMC,194823.000,A,3748.7723,N,12217.8087,W,2.70,122.49,120912,,,A*70
$GPRMC,194824.000,A,3748.7720,N,12217.8077,W,2.81,114.61,120912,,,A*7A
$GPRMC,194825.000,A,3748.7716,N,12217.8066,W,2.89,119.93,120912,,,A*76
$GPRMC,194826.000,A,3748.7714,N,12217.8055,W,2.58,112.43,120912,,,A*7D
$GPRMC,194827.000,A,3748.7714,N,12217.8047,W,2.42,118.54,120912,,,A*78
$GPRMC,194828.000,A,3748.7712,N,12217.8036,W,2.50,112.21,120912,,,A*7C
$GPRMC,194829.000,A,3748.7711,N,12217.8023,W,2.45,97.95,120912,,,A*4D
$GPRMC,194830.000,A,3748.7709,N,12217.8009,W,2.69,92.17,120912,,,A*45
$GPRMC,194831.000,A,3748.7709,N,12217.7999,W,2.16,101.60,120912,,,A*78
$GPRMC,194832.000,A,3748.7706,N,12217.7988,W,2.84,101.82,120912,,,A*73
$GPRMC,194833.000,A,3748.7702,N,12217.7977,W,2.36,111.45,120912,,,A*75
$GPRMC,194834.000,A,3748.7694,N,12217.7976,W,2.14,111.42,120912,,,A*7A
$GPRMC,194835.000,A,3748.7686,N,12217.7975,W,2.06,118.46,120912,,,A*75
$GPRMC,194836.000,A,3748.7681,N,12217.7971,W,2.25,123.81,120912,,,A*77
$GPRMC,194837.000,A,3748.7676,N,12217.7965,W,2.15,127.03,120912,,,A*76
$GPRMC,194838.000,A,3748.7670,N,12217.7954,W,2.46,122.34,120912,,,A*7A
$GPRMC,194839.000,A,3748.7666,N,12217.7942,W,2.97,114.56,120912,,,A*76
$GPRMC,194838.000,A,3748.7661,N,12217.7928,W,3.10,106.76,120912,,,A*73
$GPRMC,194839.000,A,3748.7655,N,12217.7915,W,2.66,118.03,120912,,,A*76
$GPRMC,194840.000,A,3748.7652,N,12217.7907,W,2.64,110.87,120912,,,A*7A
$GPRMC,194841.000,A,3748.7647,N,12217.7896,W,2.55,117.08,120912,,,A*74
$GPRMC,194842.000,A,3748.7641,N,12217.7885,W,2.65,118.28,120912,,,A*7D
$GPRMC,194843.000,A,3748.7634,N,12217.7875,W,2.76,126.84,120912,,,A*78
$GPRMC,194844.000,A,3748.7628,N,12217.7871,W,2.56,134.83,120912,,,A*70
$GPRMC,194845.000,A,3748.7622,N,12217.7865,W,2.59,131.31,120912,,,A*7D
$GPRMC,194846.000,A,3748.7616,N,12217.7858,W,2.85,119.00,120912,,,A*7E
$GPRMC,194847.000,A,3748.7613,N,12217.7849,W,3.24,115.78,120912,,,A*73
$GPRMC,194848.000,A,3748.7608,N,12217.7840,W,2.96,128.83,120912,,,A*7D
$GPRMC,194849.000,A,3748.7603,N,12217.7832,W,2.42,129.19,120912,,,A*79
$GPRMC,194850.000,A,3748.7599,N,12217.7826,W,2.23,128.37,120912,,,A*7E
$GPRMC,194851.000,A,3748.7593,N,12217.7820,W,2.47,131.18,120912,,,A*74
$GPRMC,194852.000,A,3748.7588,N,12217.7811,W,2.72,116.18,120912,,,A*7C
$GPRMC,194853.000,A,3748.7583,N,12217.7801,W,2.96,106.88,120912,,,A*75
$GPRMC,194854.000,A,3748.7577,N,12217.7790,W,2.80,112.28,120912,,,A*76
$GPRMC,194855.000,A,3748.7573,N,12217.7781,W,2.67,104.36,120912,,,A*72
$GPRMC,194856.000,A,3748.7568,N,12217.7770,W,2.76,114.11,120912,,,A*71
$GPRMC,194857.000,A,3748.7567,N,12217.7761,W,2.79,121.10,120912,,,A*77
$GPRMC,194858.000,A,3748.7563,N,12217.7752,W,2.88,112.28,120912,,,A*79
$GPRMC,194859.000,A,3748.7560,N,12217.7745,W,2.84,118.75,120912,,,A*73
$GPRMC,194900.000,A,3748.7555,N,12217.7738,W,2.77,109.99,120912,,,A*7C
$GPRMC,194901.000,A,3748.7549,N,12217.7731,W,2.71,124.36,120912,,,A*75
$GPRMC,194902.000,A,3748.7544,N,12217.7725,W,2.96,124.96,120912,,,A*7D
$GPRMC,194903.000,A,3748.7539,N,12217.7720,W,2.61,132.51,120912,,,A*77
$GPRMC,194904.000,A,3748.7533,N,12217.7716,W,2.40,135.41,120912,,,A*7A
$GPRMC,194905.000,A,3748.7528,N,12217.7709,W,2.84,124.26,120912,,,A*76
$GPRMC,194906.000,A,3748.7522,N,12217.7697,W,3.54,116.83,120912,,,A*7B
$GPRMC,194907.000,A,3748.7517,N,12217.7686,W,2.67,121.26,120912,,,A*76
$GPRMC,194908.000,A,3748.7514,N,12217.7677,W,2.98,114.07,120912,,,A*71
$GPRMC,194909.000,A,3748.7513,N,12217.7669,W,2.59,111.27,120912,,,A*72
$GPRMC,194910.000,A,3748.7508,N,12217.7660,W,2.99,112.76,120912,,,A*72
$GPRMC,194911.000,A,3748.7503,N,12217.7650,W,2.90,108.25,120912,,,A*7F
$GPRMC,194912.000,A,3748.7499,N,12217.7639,W,3.10,106.92,120912,,,A*7A
$GPRMC,194913.000,A,3748.7496,N,12217.7626,W,3.31,107.37,120912,,,A*77
$GPRMC,194914.000,A,3748.7493,N,12217.7615,W,2.81,101.56,120912,,,A*7E
$GPRMC,194915.000,A,3748.7489,N,12217.7605,W,2.37,114.54,120912,,,A*7E
$GPRMC,194916.000,A,3748.7486,N,12217.7595,W,2.50,105.10,120912,,,A*79
$GPRMC,194917.000,A,3748.7483,N,12217.7585,W,2.83,98.59,120912,,,A*4A
$GPRMC,194918.000,A,3748.7475,N,12217.7573,W,2.48,112.66,120912,,,A*7D
$GPRMC,194919.000,A,3748.7470,N,12217.7565,W,2.58,116.61,120912,,,A*7C
$GPRMC,194920.000,A,3748.7464,N,12217.7554,W,2.67,110.81,120912,,,A*75
$GPRMC,194921.000,A,3748.7460,N,12217.7545,W,2.19,117.68,120912,,,A*79
$GPRMC,194922.000,A,3748.7448,N,12217.7548,W,2.26,131.13,120912,,,A*79
$GPRMC,194923.000,A,3748.7439,N,12217.7545,W,2.50,130.82,120912,,,A*7B
$GPRMC,194924.000,A,3748.7435,N,12217.7540,W,1.94,127.66,120912,,,A*72
$GPRMC,194925.000,A,3748.7430,N,12217.7534,W,1.98,121.85,120912,,,A*72
$GPRMC,194926.000,A,3748.7422,N,12217.7530,W,2.16,112.44,120912,,,A*7E
$GPRMC,194927.000,A,3748.7418,N,12217.7522,W,2.06,113.28,120912,,,A*7F
$GPRMC,194928.000,A,3748.7414,N,12217.7515,W,1.91,114.38,120912,,,A*73
$GPRMC,194929.000,A,3748.7410,N,12217.7506,W,2.51,121.86,120912,,,A*78
$GPRMC,194930.000,A,3748.7406,N,12217.7496,W,2.59,123.34,120912,,,A*7C
$GPRMC,194931.000,A,3748.7404,N,12217.7488,W,2.31,126.29,120912,,,A*77
$GPRMC,194932.000,A,3748.7398,N,12217.7482,W,2.77,128.60,120912,,,A*7D
$GPRMC,194933.000,A,3748.7391,N,12217.7474,W,2.15,138.15,120912,,,A*7B
$GPRMC,194934.000,A,3748.7384,N,12217.7469,W,2.31,150.25,120912,,,A*7F
$GPRMC,194935.000,A,3748.7381,N,12217.7462,W,1.30,138.50,120912,,,A*7E
$GPRMC,194936.000,A,3748.7382,N,12217.7455,W,0.79,105.36,120912,,,A*78
$GPRMC,194937.000,A,3748.7379,N,12217.7444,W,0.93,128.18,120912,,,A*7A
$GPRMC,194938.000,A,3748.7378,N,12217.7440,W,1.60,101.65,120912,,,A*7C
$GPRMC,194939.000,A,3748.7378,N,12217.7434,W,1.46,102.80,120912,,,A*72
$GPRMC,194940.000,A,3748.7374,N,12217.7420,W,1.64,86.66,120912,,,A*40
$GPRMC,194941.000,A,3748.7372,N,12217.7417,W,1.05,77.03,120912,,,A*49
$GPRMC,194942.000,A,3748.7372,N,12217.7415,W,0.21,188.04,120912,,,A*79
$GPRMC,194943.000,A,3748.7368,N,12217.7409,W,1.15,130.32,120912,,,A*7E
$GPRMC,194944.000,A,3748.7362,N,12217.7403,W,1.46,134.21,120912,,,A*79
$GPRMC,194945.000,A,3748.7356,N,12217.7396,W,1.35,126.67,120912,,,A*71
$GPRMC,194946.000,A,3748.7348,N,12217.7384,W,2.25,120.51,120912,,,A*7F
$GPRMC,194947.000,A,3748.7343,N,12217.7371,W,1.75,124.50,120912,,,A*7C
$GPRMC,194948.000,A,3748.7332,N,12217.7359,W,1.94,122.26,120912,,,A*77
$GPRMC,194949.000,A,3748.7325,N,12217.7344,W,1.53,127.76,120912,,,A*77
$GPRMC,194950.000,A,3748.7319,N,12217.7333,W,1.18,142.25,120912,,,A*7A
$GPRMC,194951.000,A,3748.7314,N,12217.7317,W,1.77,117.72,120912,,,A*7B
$GPRMC,194952.000,A,3748.7313,N,12217.7306,W,1.49,122.72,120912,,,A*74
$GPRMC,194953.000,A,3748.7311,N,12217.7297,W,1.20,119.42,120912,,,A*7A
$GPRMC,194954.000,A,3748.7307,N,12217.7293,W,0.98,137.84,120912,,,A*7A
$GPRMC,194955.000,A,3748.7304,N,12217.7288,W,1.46,137.30,120912,,,A*7F
$GPRMC,194956.000,A,3748.7298,N,12217.7285,W,2.15,118.18,120912,,,A*77
$GPRMC,194957.000,A,3748.7288,N,12217.7276,W,2.28,115.70,120912,,,A*76
$GPRMC,194958.000,A,3748.7277,N,12217.7264,W,3.24,130.35,120912,,,A*71
$GPRMC,194959.000,A,3748.7268,N,12217.7247,W,2.67,122.10,120912,,,A*7D
$GPRMC,195000.000,A,3748.7266,N,12217.7238,W,2.51,114.06,120912,,,A*78
$GPRMC,195001.000,A,3748.7265,N,12217.7231,W,2.02,118.69,120912,,,A*70
$GPRMC,195002.000,A,3748.7258,N,12217.7218,W,2.79,128.81,120912,,,A*7F
$GPRMC,195003.000,A,3748.7254,N,12217.7209,W,2.33,135.81,120912,,,A*70
$GPRMC,195004.000,A,3748.7251,N,12217.7200,W,2.42,111.90,120912,,,A*7B
$GPRMC,195005.000,A,3748.7250,N,12217.7189,W,2.30,105.65,120912,,,A*73
$GPRMC,195006.000,A,3748.7251,N,12217.7177,W,1.93,101.15,120912,,,A*79
$GPRMC,195007.000,A,3748.7253,N,12217.7160,W,2.44,71.90,120912,,,A*4E
$GPRMC,195008.000,A,3748.7257,N,12217.7145,W,2.83,58.59,120912,,,A*47
$GPRMC,195009.000,A,3748.7263,N,12217.7133,W,3.00,41.30,120912,,,A*4D
$GPRMC,195010.000,A,3748.7272,N,12217.7129,W,3.00,10.11,120912,,,A*49
$GPRMC,195011.000,A,3748.7279,N,12217.7121,W,2.80,18.83,120912,,,A*41
$GPRMC,195012.000,A,3748.7290,N,12217.7116,W,3.05,28.92,120912,,,A*4E
$GPRMC,195013.000,A,3748.7297,N,12217.7104,W,2.90,35.16,120912,,,A*46
$GPRMC,195014.000,A,3748.7303,N,12217.7094,W,2.49,32.63,120912,,,A*44
$GPRMC,195015.000,A,3748.7307,N,12217.7086,W,2.77,34.83,120912,,,A*47
$GPRMC,195016.000,A,3748.7313,N,12217.7076,W,2.89,20.11,120912,,,A*41
$GPRMC,195017.000,A,3748.7322,N,12217.7074,W,3.08,17.59,120912,,,A*40
$GPRMC,195018.000,A,3748.7328,N,12217.7060,W,3.12,20.13,120912,,,A*41
$GPRMC,195019.000,A,3748.7335,N,12217.7053,W,2.74,38.29,120912,,,A*4D
$GPRMC,195020.000,A,3748.7345,N,12217.7051,W,2.89,33.78,120912,,,A*4F
$GPRMC,195021.000,A,3748.7356,N,12217.7049,W,2.96,15.01,120912,,,A*41
$GPRMC,195022.000,A,3748.7364,N,12217.7041,W,3.05,15.14,120912,,,A*44
$GPRMC,195023.000,A,3748.7372,N,12217.7036,W,2.72,25.89,120912,,,A*44
$GPRMC,195024.000,A,3748.7379,N,12217.7027,W,2.93,31.44,120912,,,A*43
$GPRMC,195025.000,A,3748.7385,N,12217.7017,W,2.95,34.75,120912,,,A*43
$GPRMC,195026.000,A,3748.7393,N,12217.7013,W,3.00,29.98,120912,,,A*41
$GPRMC,195027.000,A,3748.7403,N,12217.7010,W,2.88,28.63,120912,,,A*49
$GPRMC,195028.000,A,3748.7410,N,12217.7003,W,3.15,28.58,120912,,,A*4B
$GPRMC,195029.000,A,3748.7416,N,12217.6998,W,2.44,33.30,120912,,,A*47
$GPRMC,195030.000,A,3748.7422,N,12217.6989,W,2.74,38.68,120912,,,A*4D
$GPRMC,195031.000,A,3748.7428,N,12217.6982,W,2.25,39.13,120912,,,A*44
$GPRMC,195032.000,A,3748.7433,N,12217.6973,W,2.66,24.78,120912,,,A*45
$GPRMC,195033.000,A,3748.7435,N,12217.6965,W,2.71,21.79,120912,,,A*47
$GPRMC,195034.000,A,3748.7440,N,12217.6962,W,2.71,20.69,120912,,,A*45
$GPRMC,195035.000,A,3748.7446,N,12217.6960,W,2.80,11.00,120912,,,A*43
$GPRMC,195036.000,A,3748.7452,N,12217.6954,W,2.35,28.00,120912,,,A*46
$GPRMC,195037.000,A,3748.7459,N,12217.6944,W,3.14,17.74,120912,,,A*40
$GPRMC,195038.000,A,3748.7470,N,12217.6936,W,2.60,20.93,120912,,,A*4E
$GPRMC,195039.000,A,3748.7476,N,12217.6929,W,2.43,4.68,120912,,,A*74
$GPRMC,195040.000,A,3748.7484,N,12217.6925,W,2.72,4.12,120912,,,A*74
$GPRMC,195041.000,A,3748.7491,N,12217.6918,W,1.90,23.20,120912,,,A*44
$GPRMC,195042.000,A,3748.7502,N,12217.6915,W,2.77,12.16,120912,,,A*4C
$GPRMC,195043.000,A,3748.7510,N,12217.6905,W,2.79,24.96,120912,,,A*4C
$GPRMC,195044.000,A,3748.7523,N,12217.6901,W,3.33,10.78,120912,,,A*47
$GPRMC,195045.000,A,3748.7533,N,12217.6899,W,3.05,22.49,120912,,,A*41
$GPRMC,195046.000,A,3748.7540,N,12217.6897,W,2.82,30.65,120912,,,A*4B
$GPRMC,195047.000,A,3748.7547,N,12217.6894,W,3.06,25.27,120912,,,A*41
$GPRMC,195048.000,A,3748.7553,N,12217.6893,W,2.80,22.95,120912,,,A*4D
$GPRMC,195049.000,A,3748.7557,N,12217.6889,W,2.70,25.25,120912,,,A*40
$GPRMC,195050.000,A,3748.7562,N,12217.6886,W,2.70,28.68,120912,,,A*45
$GPRMC,195051.000,A,3748.7570,N,12217.6881,W,3.11,12.75,120912,,,A*43
$GPRMC,195052.000,A,3748.7580,N,12217.6871,W,3.31,25.71,120912,,,A*42
$GPRMC,195053.000,A,3748.7588,N,12217.6865,W,2.98,22.10,120912,,,A*4C
$GPRMC,195054.000,A,3748.7598,N,12217.6859,W,2.70,29.96,120912,,,A*46
$GPRMC,195055.000,A,3748.7605,N,12217.6853,W,2.96,33.00,120912,,,A*46
$GPRMC,195056.000,A,3748.7610,N,12217.6844,W,2.75,36.26,120912,,,A*4B
$GPRMC,195057.000,A,3748.7615,N,12217.6838,W,2.87,35.16,120912,,,A*49
$GPRMC,195058.000,A,3748.7620,N,12217.6830,W,2.85,24.70,120912,,,A*4A
$GPRMC,195059.000,A,3748.7625,N,12217.6823,W,2.76,24.42,120912,,,A*41
$GPRMC,195100.000,A,3748.7629,N,12217.6815,W,2.91,34.89,120912,,,A*4A
$GPRMC,195101.000,A,3748.7636,N,12217.6809,W,3.09,13.55,120912,,,A*4C
$GPRMC,195102.000,A,3748.7644,N,12217.6802,W,2.77,17.94,120912,,,A*40
$GPRMC,195103.000,A,3748.7648,N,12217.6800,W,1.99,29.54,120912,,,A*4D
$GPRMC,195104.000,A,3748.7652,N,12217.6794,W,2.59,35.54,120912,,,A*41
$GPRMC,195105.000,A,3748.7658,N,12217.6789,W,3.10,21.13,120912,,,A*4C
$GPRMC,195106.000,A,3748.7665,N,12217.6785,W,3.12,20.50,120912,,,A*49
$GPRMC,195107.000,A,3748.7672,N,12217.6775,W,3.21,24.20,120912,,,A*42
$GPRMC,195108.000,A,3748.7679,N,12217.6769,W,3.06,11.50,120912,,,A*4F
$GPRMC,195109.000,A,3748.7686,N,12217.6764,W,2.87,17.28,120912,,,A*42
$GPRMC,195110.000,A,3748.7693,N,12217.6756,W,2.97,29.95,120912,,,A*45
$GPRMC,195111.000,A,3748.7699,N,12217.6747,W,2.82,31.19,120912,,,A*47
$GPRMC,195112.000,A,3748.7705,N,12217.6739,W,2.79,28.44,120912,,,A*4D
$GPRMC,195113.000,A,3748.7710,N,12217.6727,W,2.95,38.63,120912,,,A*41
$GPRMC,195114.000,A,3748.7715,N,12217.6717,W,2.75,30.77,120912,,,A*43
$GPRMC,195115.000,A,3748.7721,N,12217.6713,W,2.56,32.15,120912,,,A*46
$GPRMC,195116.000,A,3748.7730,N,12217.6706,W,3.31,30.79,120912,,,A*49
$GPRMC,195117.000,A,3748.7737,N,12217.6699,W,2.99,26.93,120912,,,A*48
$GPRMC,195118.000,A,3748.7744,N,12217.6692,W,3.00,21.41,120912,,,A*41
$GPRMC,195119.000,A,3748.7751,N,12217.6686,W,2.69,19.16,120912,,,A*46
$GPRMC,195120.000,A,3748.7757,N,12217.6680,W,1.85,35.69,120912,,,A*4B
$GPRMC,195121.000,A,3748.7763,N,12217.6673,W,2.22,28.66,120912,,,A*4C
$GPRMC,195122.000,A,3748.7770,N,12217.6672,W,2.47,4.90,120912,,,A*78
$GPRMC,195123.000,A,3748.7782,N,12217.6682,W,2.50,8.93,120912,,,A*72
$GPRMC,195124.000,A,3748.7789,N,12217.6683,W,2.12,15.57,120912,,,A*4D
$GPRMC,195125.000,A,3748.7799,N,12217.6687,W,2.09,6.03,120912,,,A*70
$GPRMC,195126.000,A,3748.7807,N,12217.6687,W,2.69,14.49,120912,,,A*40
$GPRMC,195127.000,A,3748.7816,N,12217.6687,W,2.13,27.51,120912,,,A*45
$GPRMC,195128.000,A,3748.7826,N,12217.6687,W,2.80,11.00,120912,,,A*42
$GPRMC,195129.000,A,3748.7835,N,12217.6684,W,2.72,7.55,120912,,,A*78
$GPRMC,195130.000,A,3748.7843,N,12217.6680,W,2.51,18.87,120912,,,A*45
$GPRMC,195131.000,A,3748.7849,N,12217.6678,W,2.01,5.87,120912,,,A*70
$GPRMC,195132.000,A,3748.7857,N,12217.6677,W,2.20,17.16,120912,,,A*4B
$GPRMC,195133.000,A,3748.7863,N,12217.6674,W,2.56,24.27,120912,,,A*4D
$GPRMC,195134.000,A,3748.7871,N,12217.6670,W,2.84,24.44,120912,,,A*47
$GPRMC,195135.000,A,3748.7880,N,12217.6666,W,3.16,19.04,120912,,,A*4F
$GPRMC,195136.000,A,3748.7888,N,12217.6660,W,2.59,25.98,120912,,,A*42
$GPRMC,195137.000,A,3748.7895,N,12217.6654,W,2.80,12.55,120912,,,A*49
$GPRMC,195138.000,A,3748.7902,N,12217.6649,W,2.84,18.84,120912,,,A*47
$GPRMC,195139.000,A,3748.7909,N,12217.6644,W,2.38,23.19,120912,,,A*4B
$GPRMC,195140.000,A,3748.7915,N,12217.6635,W,2.37,19.90,120912,,,A*49
$GPRMC,195141.000,A,3748.7920,N,12217.6632,W,1.95,14.35,120912,,,A*40
$GPRMC,195142.000,A,3748.7926,N,12217.6630,W,1.98,19.32,120912,,,A*40
$GPRMC,195143.000,A,3748.7934,N,12217.6626,W,2.22,23.31,120912,,,A*4D
$GPRMC,195144.000,A,3748.7940,N,12217.6620,W,1.97,36.39,120912,,,A*4E
$GPRMC,195145.000,A,3748.7945,N,12217.6613,W,2.70,29.83,120912,,,A*4F
$GPRMC,195146.000,A,3748.7953,N,12217.6605,W,2.91,24.67,120912,,,A*44
$GPRMC,195147.000,A,3748.7960,N,12217.6598,W,2.57,25.40,120912,,,A*4C
$GPRMC,195148.000,A,3748.7968,N,12217.6591,W,2.91,22.91,120912,,,A*43
$GPRMC,195149.000,A,3748.7975,N,12217.6586,W,2.62,20.74,120912,,,A*4D
$GPRMC,195150.000,A,3748.7983,N,12217.6583,W,2.70,30.62,120912,,,A*4C
$GPRMC,195151.000,A,3748.7990,N,12217.6575,W,2.81,24.39,120912,,,A*43
$GPRMC,195152.000,A,3748.7997,N,12217.6570,W,2.79,18.15,120912,,,A*44
$GPRMC,195153.000,A,3748.8003,N,12217.6563,W,2.38,24.57,120912,,,A*40
$GPRMC,195154.000,A,3748.8009,N,12217.6557,W,2.83,23.56,120912,,,A*4C
$GPRMC,195155.000,A,3748.8016,N,12217.6552,W,3.16,48.23,120912,,,A*44
$GPRMC,195156.000,A,3748.8020,N,12217.6538,W,3.29,53.11,120912,,,A*49
$GPRMC,195157.000,A,3748.8023,N,12217.6522,W,3.25,53.97,120912,,,A*42
$GPRMC,195158.000,A,3748.8027,N,12217.6508,W,3.31,53.72,120912,,,A*4F
$GPRMC,195159.000,A,3748.8031,N,12217.6495,W,3.44,55.49,120912,,,A*40
$GPRMC,195200.000,A,3748.8037,N,12217.6486,W,3.11,45.74,120912,,,A*44
$GPRMC,195201.000,A,3748.8045,N,12217.6483,W,3.27,49.09,120912,,,A*46
$GPRMC,195202.000,A,3748.8051,N,12217.6476,W,2.99,39.86,120912,,,A*4E
$GPRMC,195203.000,A,3748.8060,N,12217.6476,W,2.68,20.46,120912,,,A*47
$GPRMC,195204.000,A,3748.8071,N,12217.6477,W,2.90,9.26,120912,,,A*7B
$GPRMC,195205.000,A,3748.8082,N,12217.6475,W,3.04,15.83,120912,,,A*4A
$GPRMC,195206.000,A,3748.8084,N,12217.6455,W,3.11,34.20,120912,,,A*43
$GPRMC,195207.000,A,3748.8091,N,12217.6449,W,3.02,35.34,120912,,,A*4D
$GPRMC,195208.000,A,3748.8100,N,12217.6446,W,2.94,30.37,120912,,,A*4C
$GPRMC,195209.000,A,3748.8108,N,12217.6443,W,3.10,36.23,120912,,,A*4E
$GPRMC,195210.000,A,3748.8116,N,12217.6437,W,3.13,24.79,120912,,,A*45
$GPRMC,195211.000,A,3748.8123,N,12217.6429,W,2.95,24.66,120912,,,A*4C
$GPRMC,195212.000,A,3748.8129,N,12217.6421,W,2.91,26.43,120912,,,A*4C
$GPRMC,195213.000,A,3748.8133,N,12217.6410,W,3.04,25.01,120912,,,A*4C
$GPRMC,195214.000,A,3748.8137,N,12217.6401,W,2.93,25.95,120912,,,A*4D
$GPRMC,195215.000,A,3748.8142,N,12217.6392,W,3.02,30.29,120912,,,A*49
$GPRMC,195216.000,A,3748.8148,N,12217.6385,W,2.80,39.12,120912,,,A*4C
$GPRMC,195217.000,A,3748.8153,N,12217.6379,W,2.60,28.73,120912,,,A*4D
$GPRMC,195218.000,A,3748.8162,N,12217.6376,W,2.72,21.89,120912,,,A*40
$GPRMC,195219.000,A,3748.8170,N,12217.6377,W,2.82,16.30,120912,,,A*4A
$GPRMC,195220.000,A,3748.8176,N,12217.6371,W,2.45,35.09,120912,,,A*40
$GPRMC,195221.000,A,3748.8182,N,12217.6364,W,2.83,28.17,120912,,,A*47
$GPRMC,195222.000,A,3748.8189,N,12217.6360,W,2.87,27.46,120912,,,A*44
$GPRMC,195223.000,A,3748.8198,N,12217.6357,W,3.02,9.40,120912,,,A*77
$GPRMC,195224.000,A,3748.8206,N,12217.6354,W,2.88,8.70,120912,,,A*76
$GPRMC,195225.000,A,3748.8213,N,12217.6350,W,2.88,25.98,120912,,,A*4E
$GPRMC,195226.000,A,3748.8218,N,12217.6342,W,2.87,29.92,120912,,,A*4C
$GPRMC,195227.000,A,3748.8224,N,12217.6336,W,2.79,37.99,120912,,,A*44
$GPRMC,195228.000,A,3748.8230,N,12217.6330,W,2.85,28.46,120912,,,A*47
$GPRMC,195229.000,A,3748.8238,N,12217.6326,W,3.09,20.42,120912,,,A*40
$GPRMC,195230.000,A,3748.8246,N,12217.6322,W,2.90,17.55,120912,,,A*46
$GPRMC,195231.000,A,3748.8251,N,12217.6317,W,2.48,21.18,120912,,,A*4E
$GPRMC,195232.000,A,3748.8257,N,12217.6312,W,2.48,25.43,120912,,,A*44
$GPRMC,195233.000,A,3748.8265,N,12217.6308,W,2.86,17.38,120912,,,A*40
$GPRMC,195234.000,A,3748.8272,N,12217.6300,W,2.94,27.25,120912,,,A*45
$GPRMC,195235.000,A,3748.8279,N,12217.6292,W,2.74,32.82,120912,,,A*42
$GPRMC,195236.000,A,3748.8286,N,12217.6286,W,3.17,43.28,120912,,,A*46
$GPRMC,195237.000,A,3748.8294,N,12217.6280,W,3.19,38.68,120912,,,A*44
$GPRMC,195238.000,A,3748.8302,N,12217.6274,W,2.98,37.02,120912,,,A*45
$GPRMC,195239.000,A,3748.8307,N,12217.6262,W,3.00,37.91,120912,,,A*4C
$GPRMC,195240.000,A,3748.8314,N,12217.6253,W,2.86,38.36,120912,,,A*4F
$GPRMC,195241.000,A,3748.8319,N,12217.6244,W,3.01,36.68,120912,,,A*4E
$GPRMC,195242.000,A,3748.8327,N,12217.6240,W,2.46,30.02,120912,,,A*4C
$GPRMC,195243.000,A,3748.8334,N,12217.6238,W,2.13,22.95,120912,,,A*4D
$GPRMC,195244.000,A,3748.8342,N,12217.6234,W,2.95,28.49,120912,,,A*42
$GPRMC,195245.000,A,3748.8352,N,12217.6230,W,3.16,36.57,120912,,,A*4C
$GPRMC,195246.000,A,3748.8361,N,12217.6224,W,2.97,31.77,120912,,,A*47
$GPRMC,195247.000,A,3748.8370,N,12217.6217,W,3.16,27.83,120912,,,A*42
$GPRMC,195248.000,A,3748.8378,N,12217.6207,W,3.13,38.04,120912,,,A*40
$GPRMC,195249.000,A,3748.8384,N,12217.6199,W,2.68,34.96,120912,,,A*4C
$GPRMC,195250.000,A,3748.8391,N,12217.6192,W,2.67,21.81,120912,,,A*46
$GPRMC,195251.000,A,3748.8396,N,12217.6188,W,2.30,40.41,120912,,,A*42
$GPRMC,195252.000,A,3748.8397,N,12217.6186,W,2.11,97.38,120912,,,A*49
$GPRMC,195253.000,A,3748.8392,N,12217.6178,W,3.17,122.71,120912,,,A*79
$GPRMC,195254.000,A,3748.8386,N,12217.6175,W,2.78,125.68,120912,,,A*71
$GPRMC,195255.000,A,3748.8381,N,12217.6170,W,2.75,116.04,120912,,,A*75
$GPRMC,195256.000,A,3748.8375,N,12217.6158,W,2.50,111.71,120912,,,A*75
$GPRMC,195257.000,A,3748.8370,N,12217.6154,W,2.79,122.05,120912,,,A*75
$GPRMC,195258.000,A,3748.8365,N,12217.6143,W,2.53,103.37,120912,,,A*72
$GPRMC,195259.000,A,3748.8364,N,12217.6140,W,2.64,115.81,120912,,,A*7F
$GPRMC,195300.000,A,3748.8356,N,12217.6135,W,3.37,133.04,120912,,,A*7F
$GPRMC,195301.000,A,3748.8347,N,12217.6129,W,3.26,126.99,120912,,,A*73
$GPRMC,195302.000,A,3748.8341,N,12217.6121,W,2.52,126.29,120912,,,A*77
$GPRMC,195303.000,A,3748.8333,N,12217.6117,W,3.05,133.50,120912,,,A*7F
$GPRMC,195304.000,A,3748.8329,N,12217.6110,W,2.76,119.73,120912,,,A*78
$GPRMC,195305.000,A,3748.8323,N,12217.6103,W,2.75,121.00,120912,,,A*7D
$GPRMC,195306.000,A,3748.8322,N,12217.6104,W,2.15,134.27,120912,,,A*7F
$GPRMC,195307.000,A,3748.8321,N,12217.6099,W,2.09,107.18,120912,,,A*79
$GPRMC,195308.000,A,3748.8321,N,12217.6094,W,2.39,116.95,120912,,,A*7D
$GPRMC,195309.000,A,3748.8316,N,12217.6087,W,2.51,111.84,120912,,,A*73
$GPRMC,195310.000,A,3748.8312,N,12217.6083,W,2.36,110.58,120912,,,A*7A
$GPRMC,195311.000,A,3748.8304,N,12217.6078,W,2.54,111.32,120912,,,A*71
$GPRMC,195312.000,A,3748.8305,N,12217.6070,W,2.14,105.38,120912,,,A*70
$GPRMC,195313.000,A,3748.8303,N,12217.6062,W,2.12,107.91,120912,,,A*73
$GPRMC,195314.000,A,3748.8295,N,12217.6057,W,2.03,125.17,120912,,,A*72
$GPRMC,195315.000,A,3748.8289,N,12217.6052,W,1.94,114.08,120912,,,A*7A
$GPRMC,195316.000,A,3748.8286,N,12217.6044,W,2.04,116.99,120912,,,A*71
$GPRMC,195317.000,A,3748.8284,N,12217.6035,W,2.43,129.36,120912,,,A*7E
$GPRMC,195318.000,A,3748.8280,N,12217.6026,W,2.74,123.57,120912,,,A*7E
$GPRMC,195319.000,A,3748.8278,N,12217.6018,W,2.20,114.34,120912,,,A*75
$GPRMC,195320.000,A,3748.8277,N,12217.6008,W,2.60,100.71,120912,,,A*71
$GPRMC,195321.000,A,3748.8274,N,12217.6000,W,2.03,104.26,120912,,,A*78
$GPRMC,195322.000,A,3748.8275,N,12217.5991,W,1.62,112.45,120912,,,A*7E
$GPRMC,195323.000,A,3748.8275,N,12217.5983,W,1.86,113.15,120912,,,A*72
$GPRMC,195324.000,A,3748.8270,N,12217.5977,W,1.44,105.09,120912,,,A*7F
$GPRMC,195325.000,A,3748.8265,N,12217.5971,W,1.52,114.68,120912,,,A*7C
$GPRMC,195326.000,A,3748.8260,N,12217.5962,W,2.34,115.93,120912,,,A*7E
$GPRMC,195327.000,A,3748.8256,N,12217.5952,W,1.67,112.98,120912,,,A*70
$GPRMC,195328.000,A,3748.8252,N,12217.5944,W,2.11,128.34,120912,,,A*71
$GPRMC,195329.000,A,3748.8245,N,12217.5935,W,2.34,116.30,120912,,,A*7E
$GPRMC,195330.000,A,3748.8239,N,12217.5926,W,2.60,126.61,120912,,,A*79
$GPRMC,195331.000,A,3748.8233,N,12217.5918,W,1.85,123.85,120912,,,A*78
$GPRMC,195332.000,A,3748.8227,N,12217.5910,W,1.27,122.79,120912,,,A*7C
$GPRMC,195333.000,A,3748.8226,N,12217.5907,W,1.54,121.16,120912,,,A*74
$GPRMC,195334.000,A,3748.8223,N,12217.5898,W,1.70,108.67,120912,,,A*7A
$GPRMC,195335.000,A,3748.8220,N,12217.5891,W,1.59,114.73,120912,,,A*72
$GPRMC,195336.000,A,3748.8213,N,12217.5883,W,2.11,125.10,120912,,,A*7A
$GPRMC,195337.000,A,3748.8210,N,12217.5878,W,1.50,125.83,120912,,,A*70
$GPRMC,195338.000,A,3748.8208,N,12217.5873,W,1.82,124.30,120912,,,A*7B
$GPRMC,195339.000,A,3748.8206,N,12217.5866,W,1.64,114.70,120912,,,A*7F
$GPRMC,195340.000,A,3748.8201,N,12217.5855,W,2.03,120.94,120912,,,A*79
$GPRMC,195341.000,A,3748.8196,N,12217.5841,W,1.71,119.88,120912,,,A*71
$GPRMC,195342.000,A,3748.8191,N,12217.5828,W,1.80,117.23,120912,,,A*7B
$GPRMC,195343.000,A,3748.8188,N,12217.5820,W,2.00,113.65,120912,,,A*77
$GPRMC,195344.000,A,3748.8183,N,12217.5808,W,1.96,119.97,120912,,,A*7A
$GPRMC,195345.000,A,3748.8176,N,12217.5795,W,2.00,120.24,120912,,,A*74
$GPRMC,195346.000,A,3748.8171,N,12217.5787,W,1.87,107.06,120912,,,A*7A
$GPRMC,195347.000,A,3748.8160,N,12217.5770,W,2.05,113.61,120912,,,A*7E
$GPRMC,195348.000,A,3748.8157,N,12217.5759,W,1.84,112.57,120912,,,A*70
$GPRMC,195349.000,A,3748.8156,N,12217.5751,W,1.89,113.23,120912,,,A*77
$GPRMC,195350.000,A,3748.8155,N,12217.5744,W,1.88,105.37,120912,,,A*7B
$GPRMC,195351.000,A,3748.8153,N,12217.5737,W,1.75,104.83,120912,,,A*74
$GPRMC,195352.000,A,3748.8151,N,12217.5727,W,2.17,113.57,120912,,,A*7C
$GPRMC,195353.000,A,3748.8148,N,12217.5719,W,2.12,118.26,120912,,,A*70
$GPRMC,195354.000,A,3748.8139,N,12217.5713,W,1.94,121.68,120912,,,A*76
$GPRMC,195355.000,A,3748.8129,N,12217.5708,W,2.26,117.51,120912,,,A*79
$GPRMC,195356.000,A,3748.8122,N,12217.5700,W,2.23,119.27,120912,,,A*73
$GPRMC,195357.000,A,3748.8116,N,12217.5687,W,2.22,115.57,120912,,,A*71
$GPRMC,195358.000,A,3748.8113,N,12217.5678,W,2.21,103.79,120912,,,A*73
$GPRMC,195359.000,A,3748.8111,N,12217.5669,W,2.11,99.42,120912,,,A*49
$GPRMC,195400.000,A,3748.8110,N,12217.5662,W,1.83,87.09,120912,,,A*40
$GPRMC,195401.000,A,3748.8105,N,12217.5648,W,1.76,104.72,120912,,,A*71
$GPRMC,195402.000,A,3748.8109,N,12217.5644,W,1.23,121.61,120912,,,A*77
$GPRMC,195403.000,A,3748.8108,N,12217.5639,W,1.66,122.59,120912,,,A*74
$GPRMC,195404.000,A,3748.8102,N,12217.5632,W,1.28,128.06,120912,,,A*78
$GPRMC,195405.000,A,3748.8101,N,12217.5623,W,1.33,134.92,120912,,,A*70
$GPRMC,195406.000,A,3748.8101,N,12217.5615,W,1.03,130.39,120912,,,A*70
$GPRMC,195407.000,A,3748.8098,N,12217.5606,W,2.44,124.33,120912,,,A*7D
$GPRMC,195408.000,A,3748.8094,N,12217.5595,W,2.09,114.83,120912,,,A*76
$GPRMC,195409.000,A,3748.8087,N,12217.5586,W,2.73,136.32,120912,,,A*70
$GPRMC,195410.000,A,3748.8077,N,12217.5577,W,2.83,133.06,120912,,,A*74
$GPRMC,195411.000,A,3748.8069,N,12217.5569,W,2.07,125.16,120912,,,A*7F
$GPRMC,195412.000,A,3748.8064,N,12217.5559,W,2.08,111.47,120912,,,A*7E
$GPRMC,195413.000,A,3748.8061,N,12217.5549,W,1.94,126.07,120912,,,A*7D
$GPRMC,195414.000,A,3748.8057,N,12217.5540,W,1.19,120.39,120912,,,A*78
$GPRMC,195415.000,A,3748.8055,N,12217.5532,W,1.37,136.06,120912,,,A*79
$GPRMC,195416.000,A,3748.8049,N,12217.5528,W,2.17,152.97,120912,,,A*77
$GPRMC,195417.000,A,3748.8041,N,12217.5528,W,1.60,164.65,120912,,,A*75
$GPRMC,195418.000,A,3748.8029,N,12217.5521,W,1.94,177.22,120912,,,A*77
$GPRMC,195419.000,A,3748.8025,N,12217.5519,W,1.24,187.68,120912,,,A*7B
$GPRMC,195420.000,A,3748.8016,N,12217.5513,W,2.02,172.82,120912,,,A*72
$GPRMC,195421.000,A,3748.8008,N,12217.5514,W,2.28,205.65,120912,,,A*79
$GPRMC,195422.000,A,3748.8002,N,12217.5520,W,1.42,214.46,120912,,,A*79
$GPRMC,195423.000,A,3748.7996,N,12217.5523,W,1.54,215.51,120912,,,A*70
$GPRMC,195424.000,A,3748.7990,N,12217.5526,W,1.92,222.35,120912,,,A*78
$GPRMC,195425.000,A,3748.7980,N,12217.5531,W,2.62,225.56,120912,,,A*70
$GPRMC,195426.000,A,3748.7975,N,12217.5538,W,2.48,225.60,120912,,,A*7D
$GPRMC,195427.000,A,3748.7966,N,12217.5541,W,2.13,215.30,120912,,,A*78
$GPRMC,195428.000,A,3748.7961,N,12217.5544,W,1.72,200.70,120912,,,A*71
$GPRMC,195429.000,A,3748.7957,N,12217.5547,W,0.69,218.09,120912,,,A*7A
$GPRMC,195430.000,A,3748.7955,N,12217.5548,W,1.72,193.68,120912,,,A*73
$GPRMC,195431.000,A,3748.7944,N,12217.5550,W,2.57,207.24,120912,,,A*79
$GPRMC,195432.000,A,3748.7938,N,12217.5555,W,1.80,224.61,120912,,,A*7D
$GPRMC,195433.000,A,3748.7924,N,12217.5569,W,2.90,237.04,120912,,,A*7D
$GPRMC,195434.000,A,3748.7915,N,12217.5585,W,2.52,228.36,120912,,,A*7B
$GPRMC,195435.000,A,3748.7908,N,12217.5588,W,1.60,197.86,120912,,,A*75
$GPRMC,195436.000,A,3748.7904,N,12217.5593,W,2.21,181.43,120912,,,A*78
$GPRMC,195437.000,A,3748.7893,N,12217.5598,W,2.81,185.60,120912,,,A*72
$GPRMC,195438.000,A,3748.7885,N,12217.5603,W,2.70,208.33,120912,,,A*75
$GPRMC,195439.000,A,3748.7873,N,12217.5607,W,3.07,214.13,120912,,,A*77
$GPRMC,195440.000,A,3748.7855,N,12217.5610,W,2.96,207.76,120912,,,A*73
$GPRMC,195441.000,A,3748.7845,N,12217.5609,W,2.08,201.72,120912,,,A*7E
$GPRMC,195442.000,A,3748.7838,N,12217.5613,W,2.36,206.94,120912,,,A*7E
$GPRMC,195443.000,A,3748.7831,N,12217.5618,W,3.17,227.53,120912,,,A*77
$GPRMC,195444.000,A,3748.7827,N,12217.5627,W,2.49,242.36,120912,,,A*71
$GPRMC,195445.000,A,3748.7821,N,12217.5632,W,1.72,197.87,120912,,,A*78
$GPRMC,195446.000,A,3748.7814,N,12217.5634,W,2.19,207.47,120912,,,A*73
$GPRMC,195447.000,A,3748.7810,N,12217.5640,W,2.20,214.01,120912,,,A*7F
$GPRMC,195448.000,A,3748.7801,N,12217.5652,W,3.03,207.43,120912,,,A*77
$GPRMC,195449.000,A,3748.7790,N,12217.5661,W,2.73,205.99,120912,,,A*72
$GPRMC,195450.000,A,3748.7781,N,12217.5665,W,2.66,210.53,120912,,,A*78
$GPRMC,195451.000,A,3748.7773,N,12217.5671,W,2.88,208.59,120912,,,A*72
$GPRMC,195452.000,A,3748.7765,N,12217.5672,W,3.05,192.45,120912,,,A*7C
$GPRMC,195453.000,A,3748.7754,N,12217.5676,W,2.54,200.79,120912,,,A*79
$GPRMC,195454.000,A,3748.7743,N,12217.5683,W,2.78,205.11,120912,,,A*77
$GPRMC,195455.000,A,3748.7737,N,12217.5684,W,1.64,202.48,120912,,,A*77
$GPRMC,195456.000,A,3748.7732,N,12217.5683,W,1.41,192.23,120912,,,A*76
$GPRMC,195457.000,A,3748.7727,N,12217.5684,W,2.08,214.26,120912,,,A*72
$GPRMC,195458.000,A,3748.7722,N,12217.5691,W,2.46,220.64,120912,,,A*77
$GPRMC,195459.000,A,3748.7719,N,12217.5701,W,1.72,223.71,120912,,,A*75
$GPRMC,195500.000,A,3748.7717,N,12217.5707,W,2.23,205.66,120912,,,A*75
$GPRMC,195501.000,A,3748.7712,N,12217.5713,W,1.77,236.57,120912,,,A*74
$GPRMC,195502.000,A,3748.7700,N,12217.5717,W,2.83,208.34,120912,,,A*70
$GPRMC,195503.000,A,3748.7693,N,12217.5728,W,2.29,213.01,120912,,,A*7A
$GPRMC,195504.000,A,3748.7692,N,12217.5741,W,2.50,205.47,120912,,,A*78
$GPRMC,195505.000,A,3748.7688,N,12217.5758,W,2.93,206.57,120912,,,A*77
$GPRMC,195506.000,A,3748.7684,N,12217.5772,W,3.28,213.96,120912,,,A*78
$GPRMC,195507.000,A,3748.7677,N,12217.5782,W,3.09,212.35,120912,,,A*71
$GPRMC,195508.000,A,3748.7670,N,12217.5790,W,2.66,211.79,120912,,,A*79
$GPRMC,195509.000,A,3748.7663,N,12217.5794,W,2.46,214.52,120912,,,A*70
$GPRMC,195510.000,A,3748.7656,N,12217.5799,W,2.13,199.93,120912,,,A*78
$GPRMC,195511.000,A,3748.7651,N,12217.5802,W,2.10,189.09,120912,,,A*72
$GPRMC,195512.000,A,3748.7648,N,12217.5800,W,1.57,172.10,120912,,,A*77
$GPRMC,195513.000,A,3748.7644,N,12217.5800,W,1.63,158.04,120912,,,A*70
$GPRMC,195514.000,A,3748.7640,N,12217.5801,W,1.47,169.19,120912,,,A*7A
$GPRMC,195515.000,A,3748.7636,N,12217.5804,W,1.32,224.08,120912,,,A*77
$GPRMC,195516.000,A,3748.7632,N,12217.5810,W,2.24,211.44,120912,,,A*7F
$GPRMC,195517.000,A,3748.7629,N,12217.5820,W,2.15,213.56,120912,,,A*74
$GPRMC,195518.000,A,3748.7624,N,12217.5826,W,2.28,205.84,120912,,,A*76
$GPRMC,195519.000,A,3748.7619,N,12217.5829,W,1.68,212.09,120912,,,A*72
$GPRMC,195520.000,A,3748.7613,N,12217.5829,W,2.37,212.31,120912,,,A*70
$GPRMC,195521.000,A,3748.7605,N,12217.5833,W,2.06,210.02,120912,,,A*7D
$GPRMC,195522.000,A,3748.7597,N,12217.5838,W,2.05,200.88,120912,,,A*7D
$GPRMC,195523.000,A,3748.7591,N,12217.5839,W,1.76,190.35,120912,,,A*70
$GPRMC,195524.000,A,3748.7578,N,12217.5847,W,2.24,192.86,120912,,,A*77
$GPRMC,195525.000,A,3748.7564,N,12217.5861,W,2.24,195.48,120912,,,A*7A
$GPRMC,195526.000,A,3748.7553,N,12217.5864,W,1.62,205.36,120912,,,A*7A
$GPRMC,195527.000,A,3748.7540,N,12217.5876,W,1.77,224.52,120912,,,A*7F
$GPRMC,195528.000,A,3748.7533,N,12217.5886,W,2.22,228.35,120912,,,A*75
$GPRMC,195529.000,A,3748.7529,N,12217.5892,W,2.26,211.43,120912,,,A*75
$GPRMC,195530.000,A,3748.7520,N,12217.5898,W,1.62,218.17,120912,,,A*75
$GPRMC,195531.000,A,3748.7515,N,12217.5900,W,1.67,222.59,120912,,,A*74
$GPRMC,195532.000,A,3748.7506,N,12217.5909,W,2.05,230.13,120912,,,A*76
$GPRMC,195533.000,A,3748.7498,N,12217.5913,W,1.37,231.16,120912,,,A*7C
$GPRMC,195534.000,A,3748.7491,N,12217.5916,W,1.44,202.63,120912,,,A*71
$GPRMC,195535.000,A,3748.7482,N,12217.5922,W,1.85,194.36,120912,,,A*74
$GPRMC,195536.000,A,3748.7471,N,12217.5929,W,2.37,211.26,120912,,,A*75
$GPRMC,195537.000,A,3748.7461,N,12217.5939,W,2.75,216.65,120912,,,A*72
$GPRMC,195538.000,A,3748.7451,N,12217.5947,W,2.36,196.61,120912,,,A*7F
$GPRMC,195539.000,A,3748.7441,N,12217.5953,W,2.18,204.30,120912,,,A*7A
$GPRMC,195540.000,A,3748.7435,N,12217.5961,W,1.79,198.78,120912,,,A*78
$GPRMC,195541.000,A,3748.7427,N,12217.5971,W,1.70,201.52,120912,,,A*79
$GPRMC,195542.000,A,3748.7420,N,12217.5973,W,1.85,180.99,120912,,,A*78
$GPRMC,195543.000,A,3748.7413,N,12217.5972,W,1.74,184.99,120912,,,A*72
$GPRMC,195544.000,A,3748.7408,N,12217.5973,W,2.23,190.31,120912,,,A*78
$GPRMC,195545.000,A,3748.7404,N,12217.5981,W,2.03,202.03,120912,,,A*73
$GPRMC,195546.000,A,3748.7396,N,12217.5984,W,2.47,192.67,120912,,,A*71
$GPRMC,195547.000,A,3748.7387,N,12217.5990,W,1.88,184.50,120912,,,A*76
$GPRMC,195548.000,A,3748.7379,N,12217.5996,W,1.75,193.46,120912,,,A*7D
$GPRMC,195549.000,A,3748.7367,N,12217.6002,W,1.97,202.22,120912,,,A*71
$GPRMC,195550.000,A,3748.7363,N,12217.6010,W,1.88,205.38,120912,,,A*7C
$GPRMC,195551.000,A,3748.7362,N,12217.6016,W,2.74,212.68,120912,,,A*79
$GPRMC,195552.000,A,3748.7356,N,12217.6025,W,2.53,215.36,120912,,,A*74
$GPRMC,195553.000,A,3748.7345,N,12217.6035,W,1.85,211.52,120912,,,A*78
$GPRMC,195554.000,A,3748.7342,N,12217.6043,W,1.61,199.99,120912,,,A*77
$GPRMC,195555.000,A,3748.7342,N,12217.6045,W,1.35,190.28,120912,,,A*72
$GPRMC,195556.000,A,3748.7340,N,12217.6052,W,1.38,210.90,120912,,,A*70
$GPRMC,195557.000,A,3748.7336,N,12217.6057,W,1.47,213.80,120912,,,A*7F
$GPRMC,195558.000,A,3748.7332,N,12217.6071,W,2.57,225.07,120912,,,A*78
$GPRMC,195559.000,A,3748.7323,N,12217.6087,W,2.81,230.91,120912,,,A*70
$GPRMC,195600.000,A,3748.7311,N,12217.6102,W,2.78,217.69,120912,,,A*76
$GPRMC,195601.000,A,3748.7306,N,12217.6113,W,2.57,208.86,120912,,,A*73
$GPRMC,195602.000,A,3748.7295,N,12217.6119,W,2.35,198.86,120912,,,A*7F
$GPRMC,195603.000,A,3748.7286,N,12217.6120,W,2.72,188.85,120912,,,A*77
$GPRMC,195604.000,A,3748.7282,N,12217.6123,W,1.58,209.41,120912,,,A*7E
$GPRMC,195605.000,A,3748.7273,N,12217.6129,W,2.48,203.52,120912,,,A*71
$GPRMC,195606.000,A,3748.7265,N,12217.6135,W,2.34,198.29,120912,,,A*7E
$GPRMC,195607.000,A,3748.7260,N,12217.6141,W,2.05,213.27,120912,,,A*75
$GPRMC,195608.000,A,3748.7253,N,12217.6150,W,1.60,190.18,120912,,,A*7E
$GPRMC,195609.000,A,3748.7246,N,12217.6152,W,1.93,185.12,120912,,,A*7B
$GPRMC,195610.000,A,3748.7239,N,12217.6151,W,2.22,180.70,120912,,,A*70
$GPRMC,195611.000,A,3748.7229,N,12217.6153,W,2.08,175.51,120912,,,A*73
$GPRMC,195612.000,A,3748.7220,N,12217.6154,W,1.96,172.63,120912,,,A*7C
$GPRMC,195613.000,A,3748.7214,N,12217.6151,W,1.74,172.24,120912,,,A*70
$GPRMC,195614.000,A,3748.7205,N,12217.6157,W,1.58,173.48,120912,,,A*74
$GPRMC,195615.000,A,3748.7195,N,12217.6166,W,2.12,195.61,120912,,,A*73
$GPRMC,195616.000,A,3748.7186,N,12217.6178,W,2.10,205.30,120912,,,A*71
$GPRMC,195617.000,A,3748.7175,N,12217.6192,W,2.20,210.58,120912,,,A*71
$GPRMC,195618.000,A,3748.7167,N,12217.6200,W,2.22,207.07,120912,,,A*7B
$GPRMC,195619.000,A,3748.7161,N,12217.6202,W,1.92,200.43,120912,,,A*71
$GPRMC,195620.000,A,3748.7158,N,12217.6201,W,1.13,206.02,120912,,,A*78
$GPRMC,195621.000,A,3748.7156,N,12217.6201,W,1.36,197.32,120912,,,A*78
$GPRMC,195622.000,A,3748.7149,N,12217.6205,W,1.39,191.85,120912,,,A*74
$GPRMC,195623.000,A,3748.7144,N,12217.6204,W,1.57,173.97,120912,,,A*7E
$GPRMC,195624.000,A,3748.7141,N,12217.6208,W,0.90,191.20,120912,,,A*7A
$GPRMC,195625.000,A,3748.7140,N,12217.6211,W,0.62,212.16,120912,,,A*72
$GPRMC,195626.000,A,3748.7138,N,12217.6212,W,0.61,154.86,120912,,,A*76
$GPRMC,195627.000,A,3748.7136,N,12217.6212,W,0.61,161.91,120912,,,A*79
$GPRMC,195628.000,A,3748.7134,N,12217.6210,W,0.79,172.18,120912,,,A*7C
$GPRMC,195629.000,A,3748.7123,N,12217.6220,W,0.13,215.44,120912,,,A*7F
$GPRMC,195630.000,A,3748.7114,N,12217.6229,W,1.00,288.29,120912,,,A*76
$GPRMC,195631.000,A,3748.7108,N,12217.6233,W,0.75,305.17,120912,,,A*7B
$GPRMC,195632.000,A,3748.7104,N,12217.6227,W,0.84,198.24,120912,,,A*79
$GPRMC,195633.000,A,3748.7100,N,12217.6225,W,1.12,183.48,120912,,,A*70
$GPRMC,195634.000,A,3748.7094,N,12217.6227,W,1.70,194.54,120912,,,A*76
$GPRMC,195635.000,A,3748.7091,N,12217.6229,W,1.33,192.01,120912,,,A*7D
$GPRMC,195636.000,A,3748.7085,N,12217.6231,W,1.21,217.61,120912,,,A*79
$GPRMC,195637.000,A,3748.7080,N,12217.6241,W,1.12,215.78,120912,,,A*70
$GPRMC,195638.000,A,3748.7077,N,12217.6245,W,0.92,191.67,120912,,,A*7B
$GPRMC,195639.000,A,3748.7071,N,12217.6252,W,1.64,183.31,120912,,,A*72
$GPRMC,195640.000,A,3748.7065,N,12217.6257,W,1.33,186.80,120912,,,A*71
$GPRMC,195641.000,A,3748.7060,N,12217.6263,W,1.96,198.22,120912,,,A*7A
$GPRMC,195642.000,A,3748.7054,N,12217.6266,W,2.11,192.96,120912,,,A*72
$GPRMC,195643.000,A,3748.7048,N,12217.6274,W,1.75,208.29,120912,,,A*78
$GPRMC,195644.000,A,3748.7040,N,12217.6280,W,2.08,198.70,120912,,,A*73
$GPRMC,195645.000,A,3748.7026,N,12217.6297,W,2.11,224.14,120912,,,A*7A
$GPRMC,195646.000,A,3748.7018,N,12217.6312,W,1.47,247.18,120912,,,A*71
$GPRMC,195647.000,A,3748.7010,N,12217.6323,W,1.16,198.37,120912,,,A*72
$GPRMC,195648.000,A,3748.7009,N,12217.6325,W,0.99,214.27,120912,,,A*73
$GPRMC,195649.000,A,3748.7003,N,12217.6325,W,1.30,197.42,120912,,,A*71
$GPRMC,195650.000,A,3748.6998,N,12217.6326,W,1.54,151.12,120912,,,A*7D
$GPRMC,195651.000,A,3748.6991,N,12217.6330,W,1.62,195.23,120912,,,A*7D
$GPRMC,195652.000,A,3748.6984,N,12217.6337,W,1.86,197.15,120912,,,A*70
$GPRMC,195653.000,A,3748.6978,N,12217.6344,W,1.89,204.89,120912,,,A*75
$GPRMC,195654.000,A,3748.6972,N,12217.6345,W,1.67,198.68,120912,,,A*70
$GPRMC,195655.000,A,3748.6962,N,12217.6356,W,1.90,191.43,120912,,,A*7A
$GPRMC,195656.000,A,3748.6954,N,12217.6360,W,1.79,170.66,120912,,,A*76
$GPRMC,195657.000,A,3748.6947,N,12217.6364,W,1.87,176.56,120912,,,A*75
$GPRMC,195658.000,A,3748.6939,N,12217.6366,W,1.70,170.96,120912,,,A*73
$GPRMC,195659.000,A,3748.6934,N,12217.6370,W,1.52,154.54,120912,,,A*70
$GPRMC,195700.000,A,3748.6927,N,12217.6376,W,2.05,186.52,120912,,,A*71
$GPRMC,195701.000,A,3748.6917,N,12217.6383,W,2.30,188.91,120912,,,A*7E
$GPRMC,195702.000,A,3748.6911,N,12217.6391,W,3.58,206.52,120912,,,A*7D
$GPRMC,195703.000,A,3748.6902,N,12217.6400,W,3.40,202.59,120912,,,A*77
$GPRMC,195704.000,A,3748.6892,N,12217.6412,W,2.99,205.89,120912,,,A*74
$GPRMC,195705.000,A,3748.6881,N,12217.6424,W,3.10,209.64,120912,,,A*7D
$GPRMC,195706.000,A,3748.6863,N,12217.6440,W,3.82,210.37,120912,,,A*75
$GPRMC,195707.000,A,3748.6852,N,12217.6450,W,3.09,203.93,120912,,,A*78
$GPRMC,195708.000,A,3748.6840,N,12217.6459,W,2.27,185.64,120912,,,A*75
$GPRMC,195709.000,A,3748.6829,N,12217.6466,W,2.04,177.50,120912,,,A*7C
$GPRMC,195710.000,A,3748.6822,N,12217.6470,W,1.82,174.31,120912,,,A*71
$GPRMC,195711.000,A,3748.6810,N,12217.6478,W,2.61,188.19,120912,,,A*7E
$GPRMC,195712.000,A,3748.6802,N,12217.6483,W,2.28,191.91,120912,,,A*7F
$GPRMC,195713.000,A,3748.6792,N,12217.6493,W,2.18,206.98,120912,,,A*7E
$GPRMC,195714.000,A,3748.6778,N,12217.6506,W,2.85,206.44,120912,,,A*75
$GPRMC,195715.000,A,3748.6767,N,12217.6523,W,2.68,192.69,120912,,,A*7F
$GPRMC,195716.000,A,3748.6756,N,12217.6537,W,1.99,204.34,120912,,,A*72
$GPRMC,195717.000,A,3748.6754,N,12217.6540,W,2.35,205.99,120912,,,A*72
$GPRMC,195718.000,A,3748.6751,N,12217.6546,W,1.79,226.57,120912,,,A*76
$GPRMC,195719.000,A,3748.6748,N,12217.6544,W,1.14,228.63,120912,,,A*7F
$GPRMC,195720.000,A,3748.6742,N,12217.6554,W,1.46,244.30,120912,,,A*75
$GPRMC,195721.000,A,3748.6743,N,12217.6555,W,1.19,248.65,120912,,,A*72
$GPRMC,195722.000,A,3748.6737,N,12217.6550,W,1.65,204.01,120912,,,A*76
$GPRMC,195723.000,A,3748.6734,N,12217.6556,W,1.57,199.51,120912,,,A*71
$GPRMC,195724.000,A,3748.6721,N,12217.6555,W,2.24,191.37,120912,,,A*7E
$GPRMC,195725.000,A,3748.6712,N,12217.6557,W,1.84,189.08,120912,,,A*71
$GPRMC,195726.000,A,3748.6704,N,12217.6560,W,1.50,187.90,120912,,,A*77
$GPRMC,195727.000,A,3748.6697,N,12217.6559,W,2.09,203.57,120912,,,A*7C
$GPRMC,195728.000,A,3748.6689,N,12217.6559,W,1.95,201.25,120912,,,A*7D
$GPRMC,195729.000,A,3748.6684,N,12217.6562,W,1.84,182.42,120912,,,A*70
$GPRMC,195730.000,A,3748.6676,N,12217.6567,W,1.27,183.44,120912,,,A*7E
$GPRMC,195731.000,A,3748.6670,N,12217.6572,W,0.93,192.03,120912,,,A*70
$GPRMC,195732.000,A,3748.6661,N,12217.6578,W,1.14,198.81,120912,,,A*77
$GPRMC,195733.000,A,3748.6652,N,12217.6585,W,1.36,217.93,120912,,,A*73
$GPRMC,195734.000,A,3748.6643,N,12217.6593,W,1.44,220.66,120912,,,A*78
$GPRMC,195735.000,A,3748.6640,N,12217.6600,W,1.50,231.57,120912,,,A*74
$GPRMC,195736.000,A,3748.6637,N,12217.6610,W,1.45,231.08,120912,,,A*78
$GPRMC,195737.000,A,3748.6632,N,12217.6612,W,1.77,224.99,120912,,,A*73
$GPRMC,195738.000,A,3748.6624,N,12217.6622,W,1.93,223.07,120912,,,A*72
$GPRMC,195739.000,A,3748.6620,N,12217.6631,W,2.53,212.55,120912,,,A*7F
$GPRMC,195740.000,A,3748.6615,N,12217.6642,W,2.43,214.61,120912,,,A*73
$GPRMC,195741.000,A,3748.6613,N,12217.6645,W,2.42,214.58,120912,,,A*78
$GPRMC,195742.000,A,3748.6608,N,12217.6647,W,1.43,215.65,120912,,,A*7E
$GPRMC,195743.000,A,3748.6598,N,12217.6655,W,1.42,217.38,120912,,,A*7D
$GPRMC,195744.000,A,3748.6593,N,12217.6656,W,1.97,192.28,120912,,,A*75
$GPRMC,195745.000,A,3748.6591,N,12217.6660,W,1.45,181.48,120912,,,A*78
$GPRMC,195746.000,A,3748.6586,N,12217.6667,W,1.44,193.97,120912,,,A*7A
$GPRMC,195747.000,A,3748.6582,N,12217.6673,W,1.66,203.17,120912,,,A*78
$GPRMC,195748.000,A,3748.6575,N,12217.6683,W,2.26,216.37,120912,,,A*71
$GPRMC,195749.000,A,3748.6559,N,12217.6702,W,2.67,219.30,120912,,,A*7B
$GPRMC,195750.000,A,3748.6548,N,12217.6713,W,2.78,206.93,120912,,,A*7A
$GPRMC,195751.000,A,3748.6535,N,12217.6729,W,2.09,212.29,120912,,,A*7A
$GPRMC,195752.000,A,3748.6527,N,12217.6731,W,2.46,202.31,120912,,,A*70
$GPRMC,195753.000,A,3748.6521,N,12217.6738,W,2.70,206.83,120912,,,A*76
$GPRMC,195754.000,A,3748.6515,N,12217.6746,W,2.35,203.31,120912,,,A*72
$GPRMC,195755.000,A,3748.6508,N,12217.6752,W,2.47,201.75,120912,,,A*7D
$GPRMC,195756.000,A,3748.6505,N,12217.6754,W,2.32,211.73,120912,,,A*70
$GPRMC,195757.000,A,3748.6501,N,12217.6759,W,2.17,219.92,120912,,,A*78
$GPRMC,195758.000,A,3748.6498,N,12217.6761,W,1.53,227.43,120912,,,A*7F
$GPRMC,195759.000,A,3748.6492,N,12217.6771,W,1.17,219.20,120912,,,A*7D
$GPRMC,195800.000,A,3748.6489,N,12217.6772,W,0.88,197.44,120912,,,A*77
$GPRMC,195801.000,A,3748.6484,N,12217.6775,W,1.53,186.17,120912,,,A*7D
$GPRMC,195802.000,A,3748.6479,N,12217.6778,W,1.48,182.34,120912,,,A*7E
$GPRMC,195803.000,A,3748.6472,N,12217.6784,W,1.63,193.74,120912,,,A*7A
$GPRMC,195804.000,A,3748.6467,N,12217.6788,W,1.96,196.93,120912,,,A*73
$GPRMC,195805.000,A,3748.6460,N,12217.6793,W,2.79,205.92,120912,,,A*75
$GPRMC,195806.000,A,3748.6451,N,12217.6803,W,2.72,207.47,120912,,,A*73
$GPRMC,195807.000,A,3748.6444,N,12217.6810,W,2.82,200.37,120912,,,A*7B
$GPRMC,195808.000,A,3748.6438,N,12217.6814,W,2.91,194.95,120912,,,A*7F
$GPRMC,195809.000,A,3748.6432,N,12217.6818,W,1.95,182.44,120912,,,A*74
$GPRMC,195810.000,A,3748.6428,N,12217.6817,W,1.73,152.89,120912,,,A*7C
$GPRMC,195811.000,A,3748.6421,N,12217.6811,W,1.98,120.16,120912,,,A*74
$GPRMC,195812.000,A,3748.6415,N,12217.6809,W,1.05,173.21,120912,,,A*7F
$GPRMC,195813.000,A,3748.6409,N,12217.6811,W,0.67,185.33,120912,,,A*75
$GPRMC,195814.000,A,3748.6402,N,12217.6819,W,0.78,240.84,120912,,,A*79
$GPRMC,195815.000,A,3748.6394,N,12217.6825,W,1.04,257.21,120912,,,A*7C
$GPRMC,195816.000,A,3748.6391,N,12217.6827,W,0.82,239.37,120912,,,A*78
$GPRMC,195817.000,A,3748.6385,N,12217.6825,W,1.25,240.81,120912,,,A*71
$GPRMC,195818.000,A,3748.6373,N,12217.6829,W,1.47,254.27,120912,,,A*76
$GPRMC,195819.000,A,3748.6363,N,12217.6832,W,0.98,224.06,120912,,,A*7B
$GPRMC,195820.000,A,3748.6356,N,12217.6839,W,1.10,242.16,120912,,,A*7C
$GPRMC,195821.000,A,3748.6348,N,12217.6844,W,1.03,221.65,120912,,,A*7B
$GPRMC,195822.000,A,3748.6344,N,12217.6843,W,0.13,124.82,120912,,,A*7C
$GPRMC,195823.000,A,3748.6339,N,12217.6846,W,0.85,240.58,120912,,,A*7B
$GPRMC,195824.000,A,3748.6331,N,12217.6849,W,0.97,248.93,120912,,,A*77
$GPRMC,195825.000,A,3748.6325,N,12217.6856,W,0.93,204.31,120912,,,A*79
$GPRMC,195826.000,A,3748.6319,N,12217.6859,W,1.56,192.32,120912,,,A*7D
$GPRMC,195827.000,A,3748.6312,N,12217.6860,W,1.74,191.67,120912,,,A*7E
$GPRMC,195828.000,A,3748.6306,N,12217.6860,W,1.62,194.81,120912,,,A*7E
$GPRMC,195829.000,A,3748.6302,N,12217.6867,W,1.31,213.68,120912,,,A*71
$GPRMC,195830.000,A,3748.6299,N,12217.6873,W,1.52,166.35,120912,,,A*73
$GPRMC,195831.000,A,3748.6291,N,12217.6881,W,2.29,197.52,120912,,,A*77
$GPRMC,195832.000,A,3748.6285,N,12217.6887,W,2.14,208.37,120912,,,A*7F
$GPRMC,195833.000,A,3748.6282,N,12217.6890,W,1.23,201.58,120912,,,A*78
$GPRMC,195834.000,A,3748.6279,N,12217.6897,W,1.21,193.82,120912,,,A*71
$GPRMC,195835.000,A,3748.6273,N,12217.6898,W,1.82,197.40,120912,,,A*76
$GPRMC,195836.000,A,3748.6268,N,12217.6902,W,1.42,218.09,120912,,,A*78
$GPRMC,195837.000,A,3748.6266,N,12217.6903,W,0.79,247.93,120912,,,A*76
$GPRMC,195838.000,A,3748.6264,N,12217.6910,W,0.80,287.16,120912,,,A*7E
$GPRMC,195839.000,A,3748.6259,N,12217.6919,W,0.55,254.42,120912,,,A*7F
$GPRMC,195840.000,A,3748.6254,N,12217.6922,W,0.72,201.90,120912,,,A*7E
$GPRMC,195841.000,A,3748.6245,N,12217.6926,W,1.14,190.36,120912,,,A*7D
$GPRMC,195842.000,A,3748.6241,N,12217.6927,W,0.60,182.43,120912,,,A*78
$GPRMC,195843.000,A,3748.6236,N,12217.6931,W,0.79,204.75,120912,,,A*7E
$GPRMC,195844.000,A,3748.6230,N,12217.6935,W,1.04,217.55,120912,,,A*70
$GPRMC,195845.000,A,3748.6223,N,12217.6943,W,1.49,197.27,120912,,,A*75
$GPRMC,195846.000,A,3748.6212,N,12217.6938,W,2.24,175.43,120912,,,A*7E
$GPRMC,195847.000,A,3748.6204,N,12217.6941,W,1.69,196.68,120912,,,D*7D
$GPRMC,195848.000,A,3748.6188,N,12217.6937,W,1.81,207.15,120912,,,D*73
$GPRMC,195849.000,A,3748.6179,N,12217.6935,W,1.57,196.70,120912,,,D*7D
$GPRMC,195850.000,A,3748.6175,N,12217.6935,W,1.38,198.88,120912,,,D*79
$GPRMC,195851.000,A,3748.6174,N,12217.6937,W,1.00,200.11,120912,,,D*72
$GPRMC,195852.000,A,3748.6166,N,12217.6943,W,1.48,170.75,120912,,,D*7B
$GPRMC,195853.000,A,3748.6157,N,12217.6949,W,1.34,204.98,120912,,,D*7A
$GPRMC,195854.000,A,3748.6149,N,12217.6961,W,1.41,247.22,120912,,,D*7C
$GPRMC,195855.000,A,3748.6144,N,12217.6973,W,1.42,235.90,120912,,,D*7C
$GPRMC,195856.000,A,3748.6133,N,12217.6984,W,2.38,223.36,120912,,,D*72
$GPRMC,195857.000,A,3748.6127,N,12217.6988,W,2.06,208.57,120912,,,D*79
$GPRMC,195858.000,A,3748.6119,N,12217.6999,W,1.56,208.39,120912,,,D*75
$GPRMC,195859.000,A,3748.6115,N,12217.7004,W,1.67,191.16,120912,,,D*78
$GPRMC,195900.000,A,3748.6109,N,12217.7006,W,1.60,138.46,120912,,,D*7B
$GPRMC,195901.000,A,3748.6101,N,12217.7004,W,2.24,130.31,120912,,,D*7B
$GPRMC,195902.000,A,3748.6094,N,12217.7001,W,2.27,120.87,120912,,,D*7F
$GPRMC,195903.000,A,3748.6085,N,12217.6996,W,2.32,117.91,120912,,,D*7F
$GPRMC,195904.000,A,3748.6072,N,12217.6994,W,2.21,96.24,120912,,,D*46
$GPRMC,195905.000,A,3748.6060,N,12217.6990,W,2.46,111.39,120912,,,D*73
$GPRMC,195906.000,A,3748.6055,N,12217.6983,W,2.51,111.08,120912,,,D*70
$GPRMC,195907.000,A,3748.6051,N,12217.6974,W,2.40,108.31,120912,,,D*7F
$GPRMC,195908.000,A,3748.6043,N,12217.6967,W,2.41,106.15,120912,,,D*78
$GPRMC,195909.000,A,3748.6032,N,12217.6958,W,3.02,116.03,120912,,,D*73
$GPRMC,195910.000,A,3748.6028,N,12217.6948,W,2.66,98.65,120912,,,D*45
$GPRMC,195911.000,A,3748.6025,N,12217.6939,W,2.46,92.75,120912,,,D*46
$GPRMC,195912.000,A,3748.6023,N,12217.6930,W,2.58,88.82,120912,,,D*46
$GPRMC,195913.000,A,3748.6021,N,12217.6921,W,2.56,98.13,120912,,,D*42
$GPRMC,195914.000,A,3748.6018,N,12217.6912,W,2.45,101.52,120912,,,D*79
$GPRMC,195915.000,A,3748.6014,N,12217.6901,W,2.27,107.64,120912,,,D*71
$GPRMC,195916.000,A,3748.6013,N,12217.6893,W,2.00,105.09,120912,,,D*73
$GPRMC,195917.000,A,3748.6011,N,12217.6885,W,1.86,100.14,120912,,,D*73
$GPRMC,195918.000,A,3748.6007,N,12217.6878,W,2.01,97.20,120912,,,D*4D
$GPRMC,195919.000,A,3748.6005,N,12217.6870,W,1.98,74.31,120912,,,D*48
$GPRMC,195920.000,A,3748.6000,N,12217.6862,W,2.14,95.06,120912,,,D*48
$GPRMC,195921.000,A,3748.5998,N,12217.6853,W,2.52,101.41,120912,,,D*7D
$GPRMC,195922.000,A,3748.5996,N,12217.6842,W,2.44,99.11,120912,,,D*42
$GPRMC,195923.000,A,3748.5995,N,12217.6835,W,2.38,90.40,120912,,,D*46
$GPRMC,195924.000,A,3748.5997,N,12217.6825,W,2.43,80.08,120912,,,D*43
$GPRMC,195925.000,A,3748.5995,N,12217.6812,W,2.58,91.86,120912,,,D*48
$GPRMC,195926.000,A,3748.5991,N,12217.6799,W,2.48,88.39,120912,,,D*4E
$GPRMC,195927.000,A,3748.5988,N,12217.6786,W,2.57,99.52,120912,,,D*4A
$GPRMC,195928.000,A,3748.5985,N,12217.6774,W,2.54,97.36,120912,,,D*4A
$GPRMC,195929.000,A,3748.5982,N,12217.6763,W,2.52,101.17,120912,,,D*71
$GPRMC,195930.000,A,3748.5979,N,12217.6753,W,2.67,103.15,120912,,,D*78
$GPRMC,195931.000,A,3748.5976,N,12217.6745,W,2.58,98.13,120912,,,D*48
$GPRMC,195932.000,A,3748.5974,N,12217.6735,W,2.56,101.33,120912,,,D*73
$GPRMC,195933.000,A,3748.5972,N,12217.6729,W,2.25,99.06,120912,,,D*4B
$GPRMC,195934.000,A,3748.5971,N,12217.6720,W,2.49,87.62,120912,,,D*41
$GPRMC,195935.000,A,3748.5963,N,12217.6712,W,2.38,102.73,120912,,,D*78
$GPRMC,195936.000,A,3748.5958,N,12217.6706,W,2.70,102.76,120912,,,D*7F
$GPRMC,195937.000,A,3748.5958,N,12217.6695,W,2.17,92.09,120912,,,D*44
$GPRMC,195938.000,A,3748.5956,N,12217.6686,W,2.10,88.51,120912,,,D*46
$GPRMC,195939.000,A,3748.5956,N,12217.6679,W,2.01,86.75,120912,,,D*4F
$GPRMC,195940.000,A,3748.5955,N,12217.6672,W,2.20,87.13,120912,,,D*4B
$GPRMC,195941.000,A,3748.5955,N,12217.6665,W,2.26,96.09,120912,,,D*41
$GPRMC,195942.000,A,3748.5954,N,12217.6656,W,1.99,94.64,120912,,,D*4D
$GPRMC,195943.000,A,3748.5955,N,12217.6651,W,2.08,85.35,120912,,,D*45
$GPRMC,195944.000,A,3748.5955,N,12217.6643,W,1.95,86.23,120912,,,D*42
$GPRMC,195945.000,A,3748.5954,N,12217.6631,W,2.03,82.31,120912,,,D*4C
$GPRMC,195946.000,A,3748.5950,N,12217.6618,W,1.74,88.87,120912,,,D*44
$GPRMC,195947.000,A,3748.5946,N,12217.6608,W,1.28,103.35,120912,,,D*71
$GPRMC,195948.000,A,3748.5939,N,12217.6594,W,1.53,100.97,120912,,,D*77
$GPRMC,195949.000,A,3748.5935,N,12217.6583,W,1.33,83.77,120912,,,D*4E
$GPRMC,195950.000,A,3748.5935,N,12217.6575,W,1.18,55.66,120912,,,D*4D
$GPRMC,195951.000,A,3748.5934,N,12217.6569,W,1.75,86.92,120912,,,D*4E
$GPRMC,195952.000,A,3748.5936,N,12217.6562,W,1.96,87.29,120912,,,D*48
$GPRMC,195953.000,A,3748.5937,N,12217.6560,W,1.70,89.84,120912,,,D*4B
$GPRMC,195954.000,A,3748.5930,N,12217.6543,W,2.21,100.76,120912,,,D*70
$GPRMC,195955.000,A,3748.5925,N,12217.6526,W,2.52,105.58,120912,,,D*7B
$GPRMC,195956.000,A,3748.5926,N,12217.6518,W,2.31,97.81,120912,,,D*4D
$GPRMC,195957.000,A,3748.5923,N,12217.6510,W,2.07,92.42,120912,,,D*4E
$GPRMC,195958.000,A,3748.5923,N,12217.6503,W,2.35,99.89,120912,,,D*4E
$GPRMC,195959.000,A,3748.5924,N,12217.6496,W,2.03,96.95,120912,,,D*42
$GPRMC,200000.000,A,3748.5924,N,12217.6483,W,2.36,99.45,120912,,,D*48
$GPRMC,200001.000,A,3748.5922,N,12217.6473,W,1.60,105.37,120912,,,D*71
$GPRMC,200002.000,A,3748.5918,N,12217.6462,W,2.33,107.20,120912,,,D*7A
$GPRMC,200003.000,A,3748.5917,N,12217.6451,W,2.03,89.95,120912,,,A*4B
$GPRMC,200004.000,A,3748.5915,N,12217.6443,W,2.31,96.66,120912,,,A*4E
$GPRMC,200005.000,A,3748.5911,N,12217.6429,W,2.24,100.33,120912,,,A*7D
$GPRMC,200006.000,A,3748.5906,N,12217.6421,W,1.77,97.84,120912,,,A*46
$GPRMC,200007.000,A,3748.5904,N,12217.6418,W,2.49,103.12,120912,,,A*72
$GPRMC,200008.000,A,3748.5904,N,12217.6409,W,2.07,95.10,120912,,,A*4B
$GPRMC,200009.000,A,3748.5910,N,12217.6394,W,2.08,67.10,120912,,,A*4E
$GPRMC,200010.000,A,3748.5920,N,12217.6385,W,1.57,62.57,120912,,,A*4A
$GPRMC,200011.000,A,3748.5922,N,12217.6372,W,1.32,71.86,120912,,,A*4C
$GPRMC,200012.000,A,3748.5921,N,12217.6364,W,1.58,82.50,120912,,,A*40
$GPRMC,200013.000,A,3748.5919,N,12217.6355,W,1.50,104.09,120912,,,A*73
$GPRMC,200014.000,A,3748.5918,N,12217.6348,W,0.87,66.69,120912,,,A*41
$GPRMC,200015.000,A,3748.5915,N,12217.6341,W,1.33,82.84,120912,,,A*43
$GPRMC,200016.000,A,3748.5915,N,12217.6333,W,1.53,76.49,120912,,,A*49
$GPRMC,200017.000,A,3748.5913,N,12217.6318,W,1.94,87.79,120912,,,A*41
$GPRMC,200018.000,A,3748.5908,N,12217.6307,W,2.57,105.51,120912,,,A*77
$GPRMC,200019.000,A,3748.5903,N,12217.6297,W,2.62,103.97,120912,,,A*7F
$GPRMC,200020.000,A,3748.5900,N,12217.6286,W,2.05,94.21,120912,,,A*45
$GPRMC,200021.000,A,3748.5895,N,12217.6275,W,1.88,95.41,120912,,,A*44
$GPRMC,200022.000,A,3748.5891,N,12217.6264,W,2.35,86.86,120912,,,A*4F
$GPRMC,200023.000,A,3748.5888,N,12217.6249,W,2.46,82.85,120912,,,A*4A
$GPRMC,200024.000,A,3748.5885,N,12217.6240,W,1.76,93.76,120912,,,A*45
$GPRMC,200025.000,A,3748.5881,N,12217.6234,W,1.32,89.34,120912,,,A*4E
$GPRMC,200026.000,A,3748.5877,N,12217.6220,W,1.64,84.46,120912,,,A*4A
$GPRMC,200027.000,A,3748.5873,N,12217.6213,W,1.26,95.09,120912,,,A*42
$GPRMC,200028.000,A,3748.5865,N,12217.6200,W,2.42,112.49,120912,,,A*73
$GPRMC,200029.000,A,3748.5857,N,12217.6184,W,2.27,108.84,120912,,,A*75
$GPRMC,200030.000,A,3748.5851,N,12217.6169,W,2.56,109.98,120912,,,A*72
$GPRMC,200031.000,A,3748.5846,N,12217.6154,W,2.06,94.59,120912,,,A*46
$GPRMC,200032.000,A,3748.5842,N,12217.6145,W,1.56,113.76,120912,,,A*74
$GPRMC,200033.000,A,3748.5839,N,12217.6134,W,1.17,94.68,120912,,,A*4B
