$ADVER,3080,2.3
$GPRMC,175155.583,A,3748.7934,N,12217.8592,W,1.60,187.84,120912,,,A*7C
$GPGGA,175156.583,3748.7891,N,12217.8590,W,1,03,1.9,25.1,M,-25.1,M,,0000*5B
$GPGSA,A,2,28,26,08,,,,,,,,,,2.2,1.9,1.0*3C
$GPRMC,175156.583,A,3748.7891,N,12217.8590,W,1.03,2.06,120912,,,A*70
$GPVTG,2.06,T,,M,1.03,N,1.9,K,N*0C
$GPGGA,175157.583,3748.7944,N,12217.8593,W,1,03,1.9,25.1,M,-25.1,M,,0000*50
$GPGSA,A,2,28,26,08,,,,,,,,,,2.2,1.9,1.0*3C
$GPRMC,175157.583,A,3748.7944,N,12217.8593,W,0.52,356.25,120912,,,A*7D
$GPVTG,356.25,T,,M,0.52,N,1.0,K,N*03
$GPGGA,175158.583,3748.7987,N,12217.8597,W,1,03,1.9,25.1,M,-25.1,M,,0000*54
$GPGSA,A,2,28,26,08,,,,,,,,,,2.2,1.9,1.0*3C
$GPRMC,175158.583,A,3748.7987,N,12217.8597,W,0.32,287.85,120912,,,A*78
$GPVTG,287.85,T,,M,0.32,N,0.6,K,N*05
$GPGGA,175159.583,3748.7983,N,12217.8597,W,1,03,1.9,25.1,M,-25.1,M,,0000*51
$GPGSA,A,2,28,26,08,,,,,,,,,,2.2,1.9,1.0*3C
$GPGSV,3,1,10,28,52,050,20,26,39,225,38,08,34,127,29,17,84,103,35*7E
$GPGSV,3,2,10,27,34,315,35,09,20,315,33,01,18,050,26,04,16,162,30*7A
$GPGSV,3,3,10,11,06,040,23,48,00,000,36*72
$GPRMC,175159.583,A,3748.7983,N,12217.8597,W,0.88,170.54,120912,,,A*7B
$GPVTG,170.54,T,,M,0.88,N,1.6,K,N*02
$GPGGA,175200.583,3748.7943,N,12217.8594,W,1,03,1.9,25.1,M,-25.1,M,,0000*51
$GPGSA,A,2,28,26,08,,,,,,,,,,2.2,1.9,1.0*3C
$GPRMC,175200.583,A,3748.7943,N,12217.8594,W,0.59,140.36,120912,,,A*70
$GPVTG,140.36,T,,M,0.59,N,1.1,K,N*0E
$GPGGA,175201.583,3748.7984,N,12217.8598,W,1,03,1.9,25.1,M,-25.1,M,,0000*57
$GPGSA,A,2,28,26,08,,,,,,,,,,2.2,1.9,1.0*3C
$GPRMC,175201.583,A,3748.7984,N,12217.8598,W,0.56,291.38,120912,,,A*78
$GPVTG,291.38,T,,M,0.56,N,1.0,K,N*01
$GPGGA,175202.583,3748.8002,N,12217.8599,W,1,03,1.9,25.1,M,-25.1,M,,0000*5D
$GPGSA,A,2,28,26,08,,,,,,,,,,2.2,1.9,1.0*3C
$GPRMC,175202.583,A,3748.8002,N,12217.8599,W,0.20,194.75,120912,,,A*7C
$GPVTG,194.75,T,,M,0.20,N,0.4,K,N*0A
$GPGGA,175203.583,3748.7949,N,12217.8594,W,1,03,1.9,25.1,M,-25.1,M,,0000*58
$GPGSA,A,2,28,26,08,,,,,,,,,,2.2,1.9,1.0*3C
$GPRMC,175203.583,A,3748.7949,N,12217.8594,W,1.09,153.44,120912,,,A*7A
$GPVTG,153.44,T,,M,1.09,N,2.0,K,N*0F
$GPGGA,175204.583,3748.7969,N,12217.8610,W,1,05,1.6,9.1,M,-25.1,M,,0000*65
$GPGSA,A,3,28,26,08,15,17,,,,,,,,3.5,1.6,3.1*35
$GPGSV,3,1,10,28,52,050,26,26,39,225,38,08,34,127,34,17,84,103,35*74
$GPGSV,3,2,10,27,34,315,34,09,20,315,18,01,18,050,29,04,16,162,34*79
$GPGSV,3,3,10,11,06,040,23,48,00,000,39*7D
$GPRMC,175204.583,A,3748.7969,N,12217.8610,W,0.23,198.07,120912,,,A*79
$GPVTG,198.07,T,,M,0.23,N,0.4,K,A*0F
$GPGGA,175205.583,3748.7981,N,12217.8602,W,1,05,1.6,8.2,M,-25.1,M,,0000*63
$GPGSA,A,3,28,26,08,15,17,,,,,,,,3.5,1.6,3.1*35
$GPRMC,175205.583,A,3748.7981,N,12217.8602,W,0.59,145.76,120912,,,A*76
$GPVTG,145.76,T,,M,0.59,N,1.1,K,A*00
$GPGGA,175206.000,3748.7981,N,12217.8602,W,1,05,1.6,8.2,M,-25.1,M,,0000*6E
$GPGSA,A,3,28,26,08,15,17,,,,,,,,3.5,1.6,3.1*35
$GPRMC,175206.000,A,3748.7981,N,12217.8602,W,0.20,150.20,120912,,,A*72
$GPVTG,150.20,T,,M,0.20,N,0.4,K,A*0D
$GPGGA,175207.000,3748.7984,N,12217.8600,W,1,05,1.6,8.0,M,-25.1,M,,0000*6A
$GPGSA,A,3,28,26,08,15,17,,,,,,,,3.5,1.6,3.1*35
$GPRMC,175207.000,A,3748.7984,N,12217.8600,W,0.09,160.37,120912,,,A*7A
$GPVTG,160.37,T,,M,0.09,N,0.2,K,A*05
$GPGGA,175208.000,3748.7985,N,12217.8600,W,1,05,1.6,7.9,M,-25.1,M,,0000*62
$GPGSA,A,3,28,26,08,15,17,,,,,,,,3.5,1.6,3.1*35
$GPRMC,175208.000,A,3748.7985,N,12217.8600,W,0.29,197.23,120912,,,A*7B
$GPVTG,197.23,T,,M,0.29,N,0.5,K,A*0D
$GPGGA,175209.000,3748.7985,N,12217.8600,W,1,05,1.6,7.9,M,-25.1,M,,0000*63
$GPGSA,A,3,28,26,08,15,17,,,,,,,,3.5,1.6,3.1*35
$GPGSV,3,1,11,17,84,102,37,28,52,050,36,26,39,225,38,08,34,127,39*7A
$GPGSV,3,2,11,15,33,277,36,27,34,315,30,09,20,315,21,01,18,050,30*7C
$GPGSV,3,3,11,04,16,162,35,11,06,040,22,48,44,197,41*4D
$GPRMC,175209.000,A,3748.7985,N,12217.8600,W,0.73,209.50,120912,,,A*75
$GPGGA,175210.000,3748.7983,N,12217.8602,W,1,05,1.6,7.9,M,-25.1,M,,0000*6F
$GPGSA,A,3,28,26,08,15,17,,,,,,,,3.5,1.6,3.1*35
$GPRMC,175210.000,A,3748.7983,N,12217.8602,W,1.03,219.64,120912,,,A*79
$GPVTG,219.64,T,,M,1.03,N,1.9,K,A*0F
$GPGGA,175211.000,3748.7982,N,12217.8603,W,1,05,1.6,7.9,M,-25.1,M,,0000*6E
$GPGSA,A,3,28,26,08,15,17,,,,,,,,3.5,1.6,3.1*35
$GPRMC,175211.000,A,3748.7982,N,12217.8603,W,0.85,213.56,120912,,,A*7C
$GPVTG,213.56,T,,M,0.85,N,1.6,K,A*04
$GPGGA,175212.000,3748.7981,N,12217.8605,W,1,05,1.6,7.9,M,-25.1,M,,0000*68
$GPGSA,A,3,28,26,08,15,17,,,,,,,,3.5,1.6,3.1*35
$GPRMC,175212.000,A,3748.7981,N,12217.8605,W,0.30,236.34,120912,,,A*77
$GPVTG,236.34,T,,M,0.30,N,0.6,K,A*08
$GPGGA,175213.000,3748.7981,N,12217.8605,W,1,05,1.6,7.9,M,-25.1,M,,0000*69
$GPGSA,A,3,28,26,08,15,17,,,,,,,,3.5,1.6,3.1*35
$GPRMC,175213.000,A,3748.7981,N,12217.8605,W,0.18,301.83,120912,,,A*75
$GPVTG,301.83,T,,M,0.18,N,0.3,K,A*0E
$GPGGA,175214.000,3748.7982,N,12217.8614,W,1,04,2.1,9.3,M,-25.1,M,,0000*6C
$GPGSA,A,3,28,08,15,17,,,,,,,,,3.8,2.1,3.2*3B
$GPGSV,3,1,10,17,84,101,23,28,52,050,27,26,39,225,15,27,34,315,21*75
$GPGSV,3,2,10,08,34,127,32,15,33,277,26,09,20,315,24,01,18,050,28*7C
$GPGSV,3,3,10,04,16,162,33,11,06,040,27*79
$GPRMC,175214.000,A,3748.7982,N,12217.8614,W,0.09,277.02,120912,,,A*78
$GPVTG,277.02,T,,M,0.09,N,0.2,K,A*06
$GPGGA,175215.000,3748.7980,N,12217.8621,W,1,05,1.6,8.5,M,-25.1,M,,0000*6B
$GPGSA,A,3,28,26,08,15,17,,,,,,,,3.5,1.6,3.1*35
$GPRMC,175215.000,A,3748.7980,N,12217.8621,W,0.45,237.21,120912,,,A*70
$GPVTG,237.21,T,,M,0.45,N,0.8,K,A*01
$GPGGA,175216.000,3748.7978,N,12217.8628,W,1,05,1.6,8.0,M,-25.1,M,,0000*63
$GPGSA,A,3,28,26,08,15,17,,,,,,,,3.5,1.6,3.1*35
$GPRMC,175216.000,A,3748.7978,N,12217.8628,W,1.71,223.42,120912,,,A*7B
$GPVTG,223.42,T,,M,1.71,N,3.2,K,A*0E
$GPGGA,175217.000,3748.7973,N,12217.8636,W,1,05,1.6,7.6,M,-25.1,M,,0000*6F
$GPGSA,A,3,28,26,08,15,17,,,,,,,,3.5,1.6,3.1*35
$GPRMC,175217.000,A,3748.7973,N,12217.8636,W,2.50,210.57,120912,,,A*7A
$GPVTG,210.57,T,,M,2.50,N,4.6,K,A*09
$GPGGA,175218.000,3748.7967,N,12217.8643,W,1,05,1.6,7.2,M,-25.1,M,,0000*63
$GPGSA,A,3,28,26,08,15,17,,,,,,,,3.5,1.6,3.1*35
$GPRMC,175218.000,A,3748.7967,N,12217.8643,W,2.27,209.07,120912,,,A*7F
$GPVTG,209.07,T,,M,2.27,N,4.2,K,A*00
$GPGGA,175219.000,3748.7962,N,12217.8648,W,1,05,1.6,6.9,M,-25.1,M,,0000*66
$GPGSA,A,3,28,26,08,15,17,,,,,,,,3.5,1.6,3.1*35
$GPGSV,3,1,11,17,84,101,32,28,52,050,25,26,39,225,34,27,35,315,24*71
$GPGSV,3,2,11,08,34,127,38,15,33,277,29,09,21,315,24,01,18,050,25*74
$GPGSV,3,3,11,04,16,162,37,11,06,040,27,48,44,197,34*48
$GPRMC,175219.000,A,3748.7962,N,12217.8648,W,2.21,200.94,120912,,,A*75
$GPVTG,200.94,T,,M,2.21,N,4.1,K,A*06
$GPGGA,175220.000,3748.7956,N,12217.8651,W,1,05,1.6,6.6,M,-25.1,M,,0000*6C
$GPGSA,A,3,28,26,08,15,17,,,,,,,,3.5,1.6,3.1*35
$GPRMC,175220.000,A,3748.7956,N,12217.8651,W,2.17,194.75,120912,,,A*74
$GPVTG,194.75,T,,M,2.17,N,4.0,K,A*03
$GPGGA,175221.000,3748.7953,N,12217.8653,W,1,05,1.6,5.3,M,-25.1,M,,0000*6C
$GPGSA,A,3,28,26,08,15,17,,,,,,,,3.5,1.6,3.1*35
$GPRMC,175221.000,A,3748.7953,N,12217.8653,W,1.06,209.26,120912,,,A*70
$GPVTG,209.26,T,,M,1.06,N,2.0,K,A*07
$GPGGA,175222.000,3748.7949,N,12217.8656,W,1,05,1.6,3.9,M,-25.1,M,,0000*6D
$GPGSA,A,3,28,26,08,15,17,,,,,,,,3.5,1.6,3.1*35
$GPRMC,175222.000,A,3748.7949,N,12217.8656,W,1.34,238.56,120912,,,A*79
$GPVTG,238.56,T,,M,1.34,N,2.5,K,A*06
$GPGGA,175223.000,3748.7940,N,12217.8657,W,1,05,1.6,4.3,M,-25.1,M,,0000*69
$GPGSA,A,3,28,26,08,15,17,,,,,,,,3.5,1.6,3.1*35
$GPRMC,175223.000,A,3748.7940,N,12217.8657,W,1.35,227.47,120912,,,A*7F
$GPVTG,227.47,T,,M,1.35,N,2.5,K,A*09
$GPGGA,175224.000,3748.7934,N,12217.8662,W,1,05,1.6,3.3,M,-25.1,M,,0000*6C
$GPGSA,A,3,28,26,08,15,17,,,,,,,,3.5,1.6,3.1*35
$GPGSV,3,1,10,17,84,101,26,28,52,050,30,26,39,225,24,27,35,315,29*7D
$GPGSV,3,2,10,08,34,127,33,15,33,277,24,09,21,315,31,01,18,050,29*7B
$GPGSV,3,3,10,04,16,162,25,11,06,040,30*78
$GPRMC,175224.000,A,3748.7934,N,12217.8662,W,1.47,204.01,120912,,,A*7B
$GPVTG,204.01,T,,M,1.47,N,2.7,K,A*0D
$GPGGA,175225.000,3748.7926,N,12217.8670,W,1,05,1.6,2.8,M,-25.1,M,,0000*67
$GPGSA,A,3,28,26,08,15,17,,,,,,,,3.5,1.6,3.1*35
$GPRMC,175225.000,A,3748.7926,N,12217.8670,W,3.26,210.75,120912,,,A*79
$GPVTG,210.75,T,,M,3.26,N,6.0,K,A*0D
$GPGGA,175226.000,3748.7915,N,12217.8675,W,1,05,1.6,3.2,M,-25.1,M,,0000*6A
$GPGSA,A,3,28,26,08,15,17,,,,,,,,3.5,1.6,3.1*35
$GPRMC,175226.000,A,3748.7915,N,12217.8675,W,2.26,211.91,120912,,,A*75
$GPVTG,211.91,T,,M,2.26,N,4.2,K,A*07
$GPGGA,175227.000,3748.7912,N,12217.8681,W,1,05,1.6,2.1,M,-25.1,M,,0000*65
$GPGSA,A,3,28,26,08,15,17,,,,,,,,3.5,1.6,3.1*35
$GPRMC,175227.000,A,3748.7912,N,12217.8681,W,0.72,213.90,120912,,,A*78
$GPVTG,213.90,T,,M,0.72,N,1.3,K,A*03
$GPGGA,175228.000,3748.7904,N,12217.8684,W,1,04,2.4,1.8,M,-25.1,M,,0000*62
$GPGSA,A,3,28,26,08,17,,,,,,,,,4.9,2.4,4.3*3E
$GPRMC,175228.000,A,3748.7904,N,12217.8684,W,1.14,206.00,120912,,,A*79
$GPVTG,206.00,T,,M,1.14,N,2.1,K,A*0E
$GPGGA,175229.000,3748.7893,N,12217.8691,W,1,05,1.6,3.6,M,-25.1,M,,0000*64
$GPGSA,A,3,28,26,08,15,17,,,,,,,,3.5,1.6,3.1*35
$GPGSV,3,1,10,17,84,101,23,28,52,050,27,26,39,225,17,27,35,315,26*71
$GPGSV,3,2,10,08,34,127,22,15,33,277,15,09,21,315,23,01,18,050,31*73
$GPGSV,3,3,10,04,16,162,,11,06,040,32*7D
$GPRMC,175229.000,A,3748.7893,N,12217.8691,W,1.81,191.12,120912,,,A*71
$GPVTG,191.12,T,,M,1.81,N,3.4,K,A*08
$GPGGA,175230.000,3748.7885,N,12217.8693,W,1,05,1.6,4.6,M,-25.1,M,,0000*6E
$GPGSA,A,3,28,26,08,15,17,,,,,,,,3.5,1.6,3.1*35
$GPRMC,175230.000,A,3748.7885,N,12217.8693,W,1.89,178.31,120912,,,A*72
$GPVTG,178.31,T,,M,1.89,N,3.5,K,A*07
$GPGGA,175231.000,3748.7882,N,12217.8697,W,1,05,1.6,6.9,M,-25.1,M,,0000*61
$GPGSA,A,3,28,26,08,15,17,,,,,,,,3.5,1.6,3.1*35
$GPRMC,175231.000,A,3748.7882,N,12217.8697,W,1.10,239.24,120912,,,A*72
$GPVTG,239.24,T,,M,1.10,N,2.0,K,A*01
$GPGGA,175232.000,3748.7885,N,12217.8695,W,1,05,1.6,6.3,M,-25.1,M,,0000*6D
$GPGSA,A,3,28,26,08,15,17,,,,,,,,3.5,1.6,3.1*35
$GPRMC,175232.000,A,3748.7885,N,12217.8695,W,0.58,329.42,120912,,,A*79
$GPVTG,329.42,T,,M,0.58,N,1.1,K,A*0E
$GPGGA,175233.000,3748.7902,N,12217.8703,W,1,05,1.6,5.2,M,-25.1,M,,0000*6E
$GPGSA,A,3,28,26,08,15,17,,,,,,,,3.5,1.6,3.1*35
$GPRMC,175233.000,A,3748.7902,N,12217.8703,W,2.25,17.17,120912,,,A*4E
$GPVTG,17.17,T,,M,2.25,N,4.2,K,A*3E
$GPGGA,175234.000,3748.7913,N,12217.8699,W,1,05,1.6,4.4,M,-25.1,M,,0000*6C
$GPGSA,A,3,28,26,08,15,17,,,,,,,,3.5,1.6,3.1*35
$GPGSV,3,1,10,17,84,101,26,28,52,050,15,26,39,225,21,27,35,315,16*73
$GPGSV,3,2,10,08,34,127,19,15,33,277,22,09,21,315,14,01,18,050,19*71
$GPGSV,3,3,10,04,16,162,,11,06,040,24*7A
$GPRMC,175234.000,A,3748.7913,N,12217.8699,W,2.99,21.20,120912,,,A*4D
$GPVTG,21.20,T,,M,2.99,N,5.5,K,A*3E
$GPGGA,175235.000,3748.7906,N,12217.8690,W,1,05,1.6,6.6,M,-25.1,M,,0000*60
$GPGSA,A,3,28,26,08,15,17,,,,,,,,3.5,1.6,3.1*35
$GPRMC,175235.000,A,3748.7906,N,12217.8690,W,1.53,27.88,120912,,,A*40
$GPVTG,27.88,T,,M,1.53,N,2.8,K,A*35
$GPGGA,175236.000,3748.7905,N,12217.8678,W,1,05,1.6,6.3,M,-25.1,M,,0000*63
$GPGSA,A,3,28,26,08,15,17,,,,,,,,3.5,1.6,3.1*35
$GPRMC,175236.000,A,3748.7905,N,12217.8678,W,0.78,61.13,120912,,,A*4E
$GPVTG,61.13,T,,M,0.78,N,1.4,K,A*32
$GPGGA,175237.000,3748.7893,N,12217.8681,W,1,05,1.6,6.9,M,-25.1,M,,0000*60
$GPGSA,A,3,28,26,08,15,17,,,,,,,,3.5,1.6,3.1*35
$GPRMC,175237.000,A,3748.7893,N,12217.8681,W,0.78,163.25,120912,,,A*71
$GPVTG,163.25,T,,M,0.78,N,1.4,K,A*04
$GPGGA,175238.000,3748.7882,N,12217.8678,W,1,04,2.7,6.7,M,-25.1,M,,0000*64
$GPGSA,A,3,28,26,15,17,,,,,,,,,5.6,2.7,5.0*3D
$GPRMC,175238.000,A,3748.7882,N,12217.8678,W,1.50,148.88,120912,,,A*7D
$GPVTG,148.88,T,,M,1.50,N,2.8,K,A*0E
$GPGGA,175239.000,3748.7868,N,12217.8673,W,1,04,2.7,7.0,M,-25.1,M,,0000*6C
$GPGSA,A,3,28,26,15,17,,,,,,,,,5.6,2.7,5.0*3D
$GPGSV,3,1,10,17,84,101,19,28,52,050,24,26,39,225,20,27,35,315,15*7F
$GPGSV,3,2,10,08,34,127,14,15,33,277,14,09,21,315,15,01,18,050,09*79
$GPGSV,3,3,10,04,16,162,,11,06,040,21*7F
$GPRMC,175239.000,A,3748.7868,N,12217.8673,W,1.92,161.97,120912,,,A*78
$GPVTG,161.97,T,,M,1.92,N,3.6,K,A*0A
$GPGGA,175240.000,3748.7861,N,12217.8673,W,1,04,2.7,5.0,M,-25.1,M,,0000*69
$GPGSA,A,3,28,26,15,17,,,,,,,,,5.6,2.7,4.9*35
$GPRMC,175240.000,A,3748.7861,N,12217.8673,W,0.84,162.62,120912,,,A*70
$GPVTG,162.62,T,,M,0.84,N,1.6,K,A*07
$GPGGA,175241.000,3748.7863,N,12217.8674,W,1,05,1.6,5.1,M,-25.1,M,,0000*6F
$GPGSA,A,3,28,26,08,15,17,,,,,,,,3.5,1.6,3.1*35
$GPRMC,175241.000,A,3748.7863,N,12217.8674,W,0.65,159.85,120912,,,A*7A
$GPVTG,159.85,T,,M,0.65,N,1.2,K,A*0D
$GPGGA,175242.000,3748.7857,N,12217.8676,W,1,05,1.6,5.7,M,-25.1,M,,0000*6F
$GPGSA,A,3,28,26,08,15,17,,,,,,,,3.5,1.6,3.1*35
$GPRMC,175242.000,A,3748.7857,N,12217.8676,W,0.48,194.13,120912,,,A*7D
$GPVTG,194.13,T,,M,0.48,N,0.9,K,A*06
$GPGGA,175243.000,3748.7854,N,12217.8681,W,1,05,1.6,6.5,M,-25.1,M,,0000*64
$GPGSA,A,3,28,26,08,15,17,,,,,,,,3.5,1.6,3.1*35
$GPRMC,175243.000,A,3748.7854,N,12217.8681,W,0.54,184.06,120912,,,A*7F
$GPVTG,184.06,T,,M,0.54,N,1.0,K,A*06
$GPGGA,175244.000,3748.7853,N,12217.8687,W,1,05,1.6,8.2,M,-25.1,M,,0000*6B
$GPGSA,A,3,28,26,08,15,17,,,,,,,,3.5,1.6,3.1*35
$GPGSV,3,1,10,17,84,101,28,28,52,050,24,26,39,225,21,27,35,315,15*7C
$GPGSV,3,2,10,08,34,127,23,15,33,277,16,09,21,315,14,01,18,050,*77
$GPGSV,3,3,10,04,16,162,,11,06,040,21*7F
$GPRMC,175244.000,A,3748.7853,N,12217.8687,W,0.62,221.60,120912,,,A*70
$GPVTG,221.60,T,,M,0.62,N,1.1,K,A*0E
$GPGGA,175245.000,3748.7850,N,12217.8692,W,1,05,1.6,9.1,M,-25.1,M,,0000*6F
$GPGSA,A,3,28,26,08,15,17,,,,,,,,3.5,1.6,3.1*35
$GPRMC,175245.000,A,3748.7850,N,12217.8692,W,1.35,265.42,120912,,,A*75
$GPVTG,265.42,T,,M,1.35,N,2.5,K,A*0A
$GPGGA,175246.000,3748.7849,N,12217.8691,W,1,05,1.6,8.4,M,-25.1,M,,0000*63
$GPGSA,A,3,28,26,08,15,17,,,,,,,,3.5,1.6,3.1*35
$GPRMC,175246.000,A,3748.7849,N,12217.8691,W,0.83,201.01,120912,,,A*74
$GPVTG,201.01,T,,M,0.83,N,1.5,K,A*00
$GPGGA,175247.000,3748.7855,N,12217.8692,W,1,05,1.6,7.9,M,-25.1,M,,0000*6E
$GPGSA,A,3,28,26,08,15,17,,,,,,,,3.5,1.6,3.1*35
$GPRMC,175247.000,A,3748.7855,N,12217.8692,W,0.65,263.64,120912,,,A*74
$GPVTG,263.64,T,,M,0.65,N,1.2,K,A*08
$GPGGA,175248.000,3748.7861,N,12217.8689,W,1,05,1.6,6.6,M,-25.1,M,,0000*62
$GPGSA,A,3,28,26,08,15,17,,,,,,,,3.5,1.6,3.1*35
$GPRMC,175248.000,A,3748.7861,N,12217.8689,W,0.88,352.09,120912,,,A*7D
$GPVTG,352.09,T,,M,0.88,N,1.6,K,A*07
$GPGGA,175249.000,3748.7865,N,12217.8689,W,1,05,1.6,4.7,M,-25.1,M,,0000*64
$GPGSA,A,3,28,26,08,15,17,,,,,,,,3.5,1.6,3.1*35
$GPGSV,3,1,10,17,84,101,28,28,52,050,24,26,39,225,21,27,35,315,16*7F
$GPGSV,3,2,10,08,34,127,22,15,33,277,15,09,21,315,15,01,18,050,*74
$GPGSV,3,3,10,04,16,162,,11,06,040,23*7D
$GPVTG,358.94,T,,M,0.29,N,0.5,K,A*00
$GPGGA,175250.000,3748.7863,N,12217.8690,W,1,04,2.4,5.3,M,-25.1,M,,0000*67
$GPGSA,A,3,28,26,08,17,,,,,,,,,4.9,2.4,4.3*3E
$GPRMC,175250.000,A,3748.7863,N,12217.8690,W,0.81,210.61,120912,,,A*7E
$GPVTG,210.61,T,,M,0.81,N,1.5,K,A*04
$GPGGA,175251.000,3748.7864,N,12217.8689,W,1,05,1.6,5.0,M,-25.1,M,,0000*6A
$GPGSA,A,3,28,26,08,15,17,,,,,,,,3.5,1.6,3.1*35
$GPRMC,175251.000,A,3748.7864,N,12217.8689,W,0.80,133.26,120912,,,A*70
$GPVTG,133.26,T,,M,0.80,N,1.5,K,A*04
$GPGGA,175252.000,3748.7863,N,12217.8680,W,1,05,1.6,5.0,M,-25.1,M,,0000*67
$GPGSA,A,3,28,26,08,15,17,,,,,,,,3.5,1.6,3.1*35
$GPRMC,175252.000,A,3748.7863,N,12217.8680,W,0.90,119.68,120912,,,A*7E
$GPVTG,119.68,T,,M,0.90,N,1.7,K,A*05
$GPGGA,175253.000,3748.7863,N,12217.8671,W,1,05,1.6,4.2,M,-25.1,M,,0000*6B
$GPGSA,A,3,28,26,08,15,17,,,,,,,,3.5,1.6,3.1*35
$GPRMC,175253.000,A,3748.7863,N,12217.8671,W,0.88,130.04,120912,,,A*79
$GPVTG,130.04,T,,M,0.88,N,1.6,K,A*0C
$GPGGA,175254.000,3748.7852,N,12217.8662,W,1,05,1.6,4.5,M,-25.1,M,,0000*6B
$GPGSA,A,3,28,26,08,15,17,,,,,,,,3.5,1.6,3.1*35
$GPGSV,3,1,10,17,84,101,27,28,52,050,24,26,39,225,21,27,35,315,16*70
$GPGSV,3,2,10,08,34,127,22,15,33,277,14,09,21,315,15,01,18,050,*75
$GPGSV,3,3,10,04,16,162,,11,06,040,23*7D
$GPRMC,175254.000,A,3748.7852,N,12217.8662,W,1.52,145.10,120912,,,A*7F
$GPVTG,145.10,T,,M,1.52,N,2.8,K,A*00
$GPGGA,175255.000,3748.7850,N,12217.8654,W,1,05,1.6,5.3,M,-25.1,M,,0000*6A
$GPGSA,A,3,28,26,08,15,17,,,,,,,,3.5,1.6,3.1*35
$GPRMC,175255.000,A,3748.7850,N,12217.8654,W,0.70,151.10,120912,,,A*7D
$GPVTG,151.10,T,,M,0.70,N,1.3,K,A*0C
$GPGGA,175256.000,3748.7857,N,12217.8656,W,1,05,1.6,5.1,M,-25.1,M,,0000*6E
$GPGSA,A,3,28,26,08,15,17,,,,,,,,3.5,1.6,3.1*35
$GPRMC,175256.000,A,3748.7857,N,12217.8656,W,0.75,293.33,120912,,,A*72
$GPVTG,293.33,T,,M,0.75,N,1.4,K,A*02
$GPGGA,175257.000,3748.7851,N,12217.8650,W,1,05,1.6,5.2,M,-25.1,M,,0000*6C
$GPGSA,A,3,28,26,08,15,17,,,,,,,,3.5,1.6,3.1*35
$GPRMC,175257.000,A,3748.7851,N,12217.8650,W,0.46,121.54,120912,,,A*78
$GPVTG,121.54,T,,M,0.46,N,0.9,K,A*05
$GPGGA,175258.000,3748.7851,N,12217.8642,W,1,05,1.6,5.1,M,-25.1,M,,0000*63
$GPGSA,A,3,28,26,08,15,17,,,,,,,,3.5,1.6,3.1*35
$GPRMC,175258.000,A,3748.7851,N,12217.8642,W,1.38,135.05,120912,,,A*7D
$GPVTG,135.05,T,,M,1.38,N,2.6,K,A*01
$GPGGA,175259.000,3748.7835,N,12217.8633,W,1,05,1.6,7.3,M,-25.1,M,,0000*66
$GPGSA,A,3,28,26,08,15,17,,,,,,,,3.5,1.6,3.1*35
$GPGSV,3,1,10,17,84,101,27,28,52,050,24,26,39,225,21,27,35,315,15*73
$GPGSV,3,2,10,08,34,127,22,15,33,277,14,09,21,315,16,01,18,050,*76
$GPGSV,3,3,10,04,16,162,,11,06,040,23*7D
$GPRMC,175259.000,A,3748.7835,N,12217.8633,W,1.92,131.75,120912,,,A*7B
$GPVTG,131.75,T,,M,1.92,N,3.5,K,A*00
$GPGGA,175300.000,3748.7824,N,12217.8626,W,1,05,1.6,10.0,M,-25.1,M,,0000*5A
$GPGSA,A,3,28,26,08,15,17,,,,,,,,3.5,1.6,3.1*35
$GPRMC,175300.000,A,3748.7824,N,12217.8626,W,1.80,118.47,120912,,,A*7B
$GPVTG,118.47,T,,M,1.80,N,3.3,K,A*0F
$GPGGA,175301.000,3748.7818,N,12217.8630,W,1,05,1.6,11.7,M,-25.1,M,,0000*55
$GPGSA,A,3,28,26,08,15,17,,,,,,,,3.5,1.6,3.1*35
$GPRMC,175301.000,A,3748.7818,N,12217.8630,W,1.46,140.85,120912,,,A*7B
$GPVTG,140.85,T,,M,1.46,N,2.7,K,A*03
$GPGGA,175302.000,3748.7814,N,12217.8635,W,1,04,2.4,13.2,M,-25.1,M,,0000*58
$GPGSA,A,3,28,26,08,17,,,,,,,,,4.9,2.4,4.3*3E
$GPRMC,175302.000,A,3748.7814,N,12217.8635,W,1.85,151.38,120912,,,A*78
$GPVTG,151.38,T,,M,1.85,N,3.4,K,A*08
$GPGGA,175303.000,3748.7808,N,12217.8634,W,1,05,1.6,14.4,M,-25.1,M,,0000*54
$GPGSA,A,3,28,26,08,15,17,,,,,,,,3.5,1.6,3.1*35
$GPRMC,175303.000,A,3748.7808,N,12217.8634,W,1.05,142.87,120912,,,A*7B
$GPVTG,142.87,T,,M,1.05,N,2.0,K,A*03
$GPGGA,175304.000,3748.7801,N,12217.8635,W,1,05,1.6,16.0,M,-25.1,M,,0000*5D
$GPGSA,A,3,28,26,08,15,17,,,,,,,,3.5,1.6,3.1*35
$GPGSV,3,1,10,17,84,101,27,28,52,050,24,26,39,225,21,27,35,315,15*73
$GPGSV,3,2,10,08,34,127,22,15,33,277,13,09,21,315,16,01,18,050,*71
$GPGSV,3,3,10,04,16,162,,11,06,040,24*7A
$GPRMC,175304.000,A,3748.7801,N,12217.8635,W,0.37,155.59,120912,,,A*71
$GPVTG,155.59,T,,M,0.37,N,0.7,K,A*03
$GPGGA,175305.000,3748.7800,N,12217.8639,W,1,05,1.6,17.2,M,-25.1,M,,0000*52
$GPGSA,A,3,28,26,08,15,17,,,,,,,,3.5,1.6,3.1*35
$GPRMC,175305.000,A,3748.7800,N,12217.8639,W,0.74,188.47,120912,,,A*75
$GPVTG,188.47,T,,M,0.74,N,1.4,K,A*09
$GPGGA,175306.000,3748.7800,N,12217.8640,W,1,05,1.6,17.9,M,-25.1,M,,0000*54
$GPGSA,A,3,28,26,08,15,17,,,,,,,,3.5,1.6,3.1*35
$GPRMC,175306.000,A,3748.7800,N,12217.8640,W,0.22,218.63,120912,,,A*77
$GPVTG,218.63,T,,M,0.22,N,0.4,K,A*07
$GPGGA,175307.000,3748.7799,N,12217.8646,W,1,05,1.6,17.8,M,-25.1,M,,0000*5D
$GPGSA,A,3,28,26,08,15,17,,,,,,,,3.5,1.6,3.1*35
$GPRMC,175307.000,A,3748.7799,N,12217.8646,W,0.58,298.12,120912,,,A*7C
$GPVTG,298.12,T,,M,0.58,N,1.1,K,A*00
$GPGGA,175308.000,3748.7801,N,12217.8651,W,1,05,1.6,18.0,M,-25.1,M,,0000*5D
$GPGSA,A,3,28,26,08,15,17,,,,,,,,3.5,1.6,3.1*35
$GPRMC,175308.000,A,3748.7801,N,12217.8651,W,0.63,316.00,120912,,,A*77
$GPVTG,316.00,T,,M,0.63,N,1.2,K,A*0F
$GPGGA,175309.000,3748.7805,N,12217.8654,W,1,05,1.6,18.6,M,-25.1,M,,0000*5B
$GPGSA,A,3,28,26,08,15,17,,,,,,,,3.5,1.6,3.1*35
$GPGSV,3,1,10,17,84,101,27,28,52,050,24,26,39,225,21,27,35,315,14*72
$GPGSV,3,2,10,08,34,127,22,15,33,277,14,09,21,315,16,01,18,050,*76
$GPGSV,3,3,10,04,16,162,,11,06,040,24*7A
$GPRMC,175309.000,A,3748.7805,N,12217.8654,W,0.93,294.89,120912,,,A*72
$GPVTG,294.89,T,,M,0.93,N,1.7,K,A*0F
$GPGGA,175310.000,3748.7812,N,12217.8661,W,1,05,1.6,19.9,M,-25.1,M,,0000*5D
$GPGSA,A,3,28,26,08,15,17,,,,,,,,3.5,1.6,3.1*35
$GPRMC,175310.000,A,3748.7812,N,12217.8661,W,0.98,295.14,120912,,,A*74
$GPVTG,295.14,T,,M,0.98,N,1.8,K,A*0E
$GPGGA,175311.000,3748.7821,N,12217.8671,W,1,05,1.6,21.2,M,-25.1,M,,0000*5D
$GPGSA,A,3,28,26,08,15,17,,,,,,,,3.5,1.6,3.1*35
$GPRMC,175311.000,A,3748.7821,N,12217.8671,W,1.51,315.98,120912,,,A*7D
$GPVTG,315.98,T,,M,1.51,N,2.8,K,A*04
$GPGGA,175312.000,3748.7832,N,12217.8679,W,1,05,1.6,22.0,M,-25.1,M,,0000*55
$GPGSA,A,3,28,26,08,15,17,,,,,,,,3.5,1.6,3.1*35
$GPRMC,175312.000,A,3748.7832,N,12217.8679,W,1.91,313.44,120912,,,A*7F
$GPVTG,313.44,T,,M,1.91,N,3.5,K,A*03
$GPGGA,175313.000,3748.7833,N,12217.8681,W,1,05,1.6,22.0,M,-25.1,M,,0000*52
$GPGSA,A,3,28,26,08,15,17,,,,,,,,3.5,1.6,3.1*35
$GPRMC,175313.000,A,3748.7833,N,12217.8681,W,1.93,311.87,120912,,,A*77
$GPVTG,311.87,T,,M,1.93,N,3.6,K,A*0F
$GPGGA,175314.000,3748.7843,N,12217.8685,W,1,05,1.6,20.5,M,-25.1,M,,0000*51
$GPGSA,A,3,28,26,08,15,17,,,,,,,,3.5,1.6,3.1*35
$GPGSV,3,1,10,17,84,101,27,28,52,050,24,26,39,225,21,27,35,315,14*72
$GPGSV,3,2,10,08,34,127,22,15,33,277,13,09,21,315,16,01,18,050,*71
$GPGSV,3,3,10,04,16,162,,11,06,040,23*7D
$GPRMC,175314.000,A,3748.7843,N,12217.8685,W,1.92,305.84,120912,,,A*74
$GPVTG,305.84,T,,M,1.92,N,3.6,K,A*08
$GPGGA,175315.000,3748.7841,N,12217.8688,W,1,05,1.6,21.1,M,-25.1,M,,0000*5A
$GPGSA,A,3,28,26,08,15,17,,,,,,,,3.5,1.6,3.1*35
$GPRMC,175315.000,A,3748.7841,N,12217.8688,W,1.68,301.63,120912,,,A*72
$GPVTG,301.63,T,,M,1.68,N,3.1,K,A*07
$GPGGA,175316.000,3748.7841,N,12217.8697,W,1,05,1.6,21.3,M,-25.1,M,,0000*55
$GPGSA,A,3,28,26,08,15,17,,,,,,,,3.5,1.6,3.1*35
$GPRMC,175316.000,A,3748.7841,N,12217.8697,W,1.39,292.87,120912,,,A*7A
$GPVTG,292.87,T,,M,1.39,N,2.6,K,A*04
$GPGGA,175317.000,3748.7843,N,12217.8699,W,1,05,1.6,20.5,M,-25.1,M,,0000*5F
$GPGSA,A,3,28,26,08,15,17,,,,,,,,3.5,1.6,3.1*35
$GPRMC,175317.000,A,3748.7843,N,12217.8699,W,1.06,290.39,120912,,,A*7C
$GPVTG,290.39,T,,M,1.06,N,2.0,K,A*09
$GPGGA,175318.000,3748.7843,N,12217.8692,W,1,05,1.6,19.3,M,-25.1,M,,0000*57
$GPGSA,A,3,28,26,08,15,17,,,,,,,,3.5,1.6,3.1*35
$GPRMC,175318.000,A,3748.7843,N,12217.8692,W,0.58,303.60,120912,,,A*75
$GPVTG,303.60,T,,M,0.58,N,1.1,K,A*06
$GPGGA,175319.000,3748.7840,N,12217.8688,W,1,05,1.6,18.4,M,-25.1,M,,0000*58
$GPGSA,A,3,28,26,08,15,17,,,,,,,,3.5,1.6,3.1*35
$GPGSV,3,1,10,17,84,101,26,28,52,050,24,26,39,225,20,27,35,315,13*75
$GPGSV,3,2,10,08,34,127,22,15,33,277,12,09,21,315,16,01,18,050,*70
$GPGSV,3,3,10,04,16,162,,11,06,040,23*7D
$GPRMC,175319.000,A,3748.7840,N,12217.8688,W,0.45,315.44,120912,,,A*71
$GPVTG,315.44,T,,M,0.45,N,0.8,K,A*03
$GPGGA,175320.000,3748.7845,N,12217.8688,W,1,05,1.6,18.1,M,-25.1,M,,0000*52
$GPGSA,A,3,28,26,08,15,17,,,,,,,,3.5,1.6,3.1*35
$GPRMC,175320.000,A,3748.7845,N,12217.8688,W,0.27,4.95,120912,,,A*75
$GPVTG,4.95,T,,M,0.27,N,0.5,K,A*05
$GPGGA,175321.000,3748.7851,N,12217.8688,W,1,05,1.6,18.2,M,-25.1,M,,0000*55
$GPGSA,A,3,28,26,08,15,17,,,,,,,,3.5,1.6,3.1*35
$GPRMC,175321.000,A,3748.7851,N,12217.8688,W,0.42,60.36,120912,,,A*49
$GPVTG,60.36,T,,M,0.42,N,0.8,K,A*30
$GPGGA,175322.000,3748.7858,N,12217.8690,W,1,05,1.6,17.5,M,-25.1,M,,0000*5E
$GPGSA,A,3,28,26,08,15,17,,,,,,,,3.5,1.6,3.1*35
$GPRMC,175322.000,A,3748.7858,N,12217.8690,W,0.71,80.95,120912,,,A*4D
$GPVTG,80.95,T,,M,0.71,N,1.3,K,A*3D
$GPGGA,175323.000,3748.7857,N,12217.8687,W,1,05,1.6,18.3,M,-25.1,M,,0000*5F
$GPGSA,A,3,28,26,08,15,17,,,,,,,,3.5,1.6,3.1*35
$GPRMC,175323.000,A,3748.7857,N,12217.8687,W,1.70,86.58,120912,,,A*42
$GPVTG,86.58,T,,M,1.70,N,3.1,K,A*3A
$GPGGA,175324.000,3748.7854,N,12217.8684,W,1,05,1.6,18.9,M,-25.1,M,,0000*52
$GPGSA,A,3,28,26,08,15,17,,,,,,,,3.5,1.6,3.1*35
$GPGSV,3,1,10,17,84,101,26,28,52,050,24,26,39,225,20,27,35,315,*77
$GPGSV,3,2,10,08,34,127,22,15,33,277,12,09,21,315,16,01,18,050,*70
$GPGSV,3,3,10,04,16,162,,11,06,040,23*7D
$GPRMC,175324.000,A,3748.7854,N,12217.8684,W,1.41,112.18,120912,,,A*7F
$GPVTG,112.18,T,,M,1.41,N,2.6,K,A*06
$GPGGA,175325.000,3748.7856,N,12217.8690,W,1,05,1.6,19.5,M,-25.1,M,,0000*59
$GPGSA,A,3,28,26,08,15,17,,,,,,,,3.5,1.6,3.1*35
$GPRMC,175325.000,A,3748.7856,N,12217.8690,W,0.76,131.52,120912,,,A*73
$GPVTG,131.52,T,,M,0.76,N,1.4,K,A*0D
$GPGGA,175326.000,3748.7858,N,12217.8694,W,1,05,1.6,19.0,M,-25.1,M,,0000*55
$GPGSA,A,3,28,26,08,15,17,,,,,,,,3.5,1.6,3.1*35
$GPRMC,175326.000,A,3748.7858,N,12217.8694,W,0.45,144.87,120912,,,A*70
$GPVTG,144.87,T,,M,0.45,N,0.8,K,A*0A
$GPGGA,175327.000,3748.7855,N,12217.8695,W,1,05,1.6,19.6,M,-25.1,M,,0000*5E
$GPGSA,A,3,28,26,08,15,17,,,,,,,,3.5,1.6,3.1*35
$GPRMC,175327.000,A,3748.7855,N,12217.8695,W,1.10,135.10,120912,,,A*74
$GPVTG,135.10,T,,M,1.10,N,2.0,K,A*09
$GPGGA,175328.000,3748.7850,N,12217.8696,W,1,05,1.6,20.0,M,-25.1,M,,0000*5B
$GPGSA,A,3,28,26,08,15,17,,,,,,,,3.5,1.6,3.1*35
$GPRMC,175328.000,A,3748.7850,N,12217.8696,W,1.46,144.56,120912,,,A*7A
$GPVTG,144.56,T,,M,1.46,N,2.7,K,A*09
$GPGGA,175329.000,3748.7849,N,12217.8693,W,1,05,1.6,19.6,M,-25.1,M,,0000*5B
$GPGSA,A,3,28,26,08,15,17,,,,,,,,3.5,1.6,3.1*35
$GPGSV,3,1,10,17,84,101,26,28,52,050,24,26,39,225,20,27,35,315,*77
$GPGSV,3,2,10,08,34,127,22,15,33,277,12,09,21,315,17,01,18,050,*71
$GPGSV,3,3,10,04,16,162,,11,06,040,23*7D
$GPRMC,175329.000,A,3748.7849,N,12217.8693,W,0.76,111.98,120912,,,A*76
$GPVTG,111.98,T,,M,0.76,N,1.4,K,A*09
$GPGGA,175330.000,3748.7852,N,12217.8693,W,1,05,1.6,19.4,M,-25.1,M,,0000*5B
$GPGSA,A,3,28,26,08,15,17,,,,,,,,3.5,1.6,3.1*35
$GPRMC,175330.000,A,3748.7852,N,12217.8693,W,1.22,122.89,120912,,,A*74
$GPVTG,122.89,T,,M,1.22,N,2.3,K,A*0D
$GPGGA,175331.000,3748.7857,N,12217.8693,W,1,05,1.6,19.8,M,-25.1,M,,0000*53
$GPGSA,A,3,28,26,08,15,17,,,,,,,,3.5,1.6,3.1*35
$GPRMC,175331.000,A,3748.7857,N,12217.8693,W,1.01,150.87,120912,,,A*7A
$GPVTG,150.87,T,,M,1.01,N,1.9,K,A*0E
$GPGGA,175332.000,3748.7860,N,12217.8684,W,1,05,1.6,19.0,M,-25.1,M,,0000*5A
$GPGSA,A,3,28,26,08,15,17,,,,,,,,3.5,1.6,3.1*35
$GPRMC,175332.000,A,3748.7860,N,12217.8684,W,0.92,132.73,120912,,,A*7F
$GPVTG,132.73,T,,M,0.92,N,1.7,K,A*04
$GPGGA,175333.000,3748.7867,N,12217.8684,W,1,04,2.6,16.1,M,-25.1,M,,0000*50
$GPGSA,A,3,28,26,15,17,,,,,,,,,5.5,2.6,4.8*36
$GPRMC,175333.000,A,3748.7867,N,12217.8684,W,0.80,166.93,120912,,,A*75
$GPVTG,166.93,T,,M,0.80,N,1.5,K,A*0A
$GPGGA,175334.000,3748.7868,N,12217.8686,W,1,05,1.6,13.4,M,-25.1,M,,0000*58
$GPGSA,A,3,28,26,08,15,17,,,,,,,,3.5,1.6,3.1*35
$GPGSV,3,1,10,17,84,101,23,28,52,050,23,26,39,225,26,27,35,315,*73
$GPGSV,3,2,10,08,34,127,15,15,33,277,24,09,21,315,16,01,18,050,*71
$GPGSV,3,3,10,04,16,162,,11,06,040,18*75
$GPRMC,175334.000,A,3748.7868,N,12217.8686,W,0.57,139.18,120912,,,A*7C
$GPVTG,139.18,T,,M,0.57,N,1.1,K,A*0D
$GPGGA,175335.000,3748.7875,N,12217.8694,W,1,05,1.6,11.7,M,-25.1,M,,0000*57
$GPGSA,A,3,28,26,08,15,17,,,,,,,,3.5,1.6,3.1*35
$GPRMC,175335.000,A,3748.7875,N,12217.8694,W,0.14,306.66,120912,,,A*72
$GPVTG,306.66,T,,M,0.14,N,0.3,K,A*0E
$GPGGA,175336.000,3748.7882,N,12217.8699,W,1,05,1.6,10.3,M,-25.1,M,,0000*54
$GPGSA,A,3,28,26,08,15,17,,,,,,,,3.5,1.6,3.1*35
$GPRMC,175336.000,A,3748.7882,N,12217.8699,W,0.54,37.42,120912,,,A*47
$GPVTG,37.42,T,,M,0.54,N,1.0,K,A*3F
$GPGGA,175337.000,3748.7887,N,12217.8695,W,1,04,2.6,10.8,M,-25.1,M,,0000*55
$GPGSA,A,3,28,26,15,17,,,,,,,,,5.5,2.6,4.8*36
$GPRMC,175337.000,A,3748.7887,N,12217.8695,W,0.66,87.60,120912,,,A*45
$GPVTG,87.60,T,,M,0.66,N,1.2,K,A*37
$GPGGA,175338.000,3748.7891,N,12217.8703,W,1,05,1.6,11.8,M,-25.1,M,,0000*50
$GPGSA,A,3,28,26,08,15,17,,,,,,,,3.5,1.6,3.1*35
$GPRMC,175338.000,A,3748.7891,N,12217.8703,W,0.57,137.45,120912,,,A*7C
$GPVTG,137.45,T,,M,0.57,N,1.1,K,A*0B
$GPGGA,175339.000,3748.7892,N,12217.8711,W,1,05,1.6,13.0,M,-25.1,M,,0000*5B
$GPGSA,A,3,28,26,08,15,17,,,,,,,,3.5,1.6,3.1*35
$GPGSV,3,1,10,17,84,101,24,28,52,050,23,26,39,225,28,27,35,315,*7A
$GPGSV,3,2,10,08,34,127,17,15,33,277,25,09,21,315,16,01,18,050,*72
$GPGSV,3,3,10,04,16,162,,11,06,040,19*74
$GPRMC,175339.000,A,3748.7892,N,12217.8711,W,0.44,5.69,120912,,,A*71
$GPVTG,5.69,T,,M,0.44,N,0.8,K,A*0F
$GPGGA,175340.000,3748.7894,N,12217.8714,W,1,04,2.6,12.4,M,-25.1,M,,0000*51
$GPGSA,A,3,28,26,15,17,,,,,,,,,5.5,2.6,4.8*36
$GPRMC,175340.000,A,3748.7894,N,12217.8714,W,0.54,308.62,120912,,,A*78
$GPVTG,308.62,T,,M,0.54,N,1.0,K,A*02
$GPGGA,175341.000,3748.7903,N,12217.8720,W,1,05,1.6,12.8,M,-25.1,M,,0000*56
$GPGSA,A,3,28,26,08,15,17,,,,,,,,3.5,1.6,3.1*35
$GPRMC,175341.000,A,3748.7903,N,12217.8720,W,1.12,326.54,120912,,,A*7B
$GPVTG,326.54,T,,M,1.12,N,2.1,K,A*0A
$GPGGA,175342.000,3748.7908,N,12217.8718,W,1,05,1.6,11.1,M,-25.1,M,,0000*5F
$GPGSA,A,3,28,26,08,15,17,,,,,,,,3.5,1.6,3.1*35
$GPRMC,175342.000,A,3748.7908,N,12217.8718,W,1.22,325.95,120912,,,A*75
$GPVTG,325.95,T,,M,1.22,N,2.3,K,A*05
$GPGGA,175343.000,3748.7910,N,12217.8719,W,1,05,1.6,10.6,M,-25.1,M,,0000*50
$GPGSA,A,3,28,26,08,15,17,,,,,,,,3.5,1.6,3.1*35
$GPRMC,175343.000,A,3748.7910,N,12217.8719,W,0.63,335.26,120912,,,A*71
$GPVTG,335.26,T,,M,0.63,N,1.2,K,A*0A
$GPGGA,175344.000,3748.7911,N,12217.8721,W,1,04,2.6,11.3,M,-25.1,M,,0000*5B
$GPGSA,A,3,28,26,15,17,,,,,,,,,5.5,2.6,4.8*36
$GPGSV,3,1,10,17,84,101,24,28,52,050,22,26,39,225,28,27,35,315,*7B
$GPGSV,3,2,10,08,34,127,17,15,33,277,25,09,21,315,16,01,18,050,*72
$GPGSV,3,3,10,04,16,162,,11,06,040,19*74
$GPVTG,284.02,T,,M,0.94,N,1.7,K,A*0A
$GPGGA,175345.000,3748.7912,N,12217.8723,W,1,04,2.6,11.7,M,-25.1,M,,0000*5F
$GPGSA,A,3,28,26,15,17,,,,,,,,,5.5,2.6,4.8*36
$GPRMC,175345.000,A,3748.7912,N,12217.8723,W,0.75,305.46,120912,,,A*7E
$GPVTG,305.46,T,,M,0.75,N,1.4,K,A*0E
$GPGGA,175346.000,3748.7920,N,12217.8728,W,1,05,1.6,12.9,M,-25.1,M,,0000*59
$GPGSA,A,3,28,26,08,15,17,,,,,,,,3.5,1.6,3.1*35
$GPRMC,175346.000,A,3748.7920,N,12217.8728,W,1.32,332.98,120912,,,A*72
$GPVTG,332.98,T,,M,1.32,N,2.4,K,A*08
$GPGGA,175347.000,3748.7916,N,12217.8735,W,1,05,1.6,14.7,M,-25.1,M,,0000*59
$GPGSA,A,3,28,26,08,15,17,,,,,,,,3.5,1.6,3.1*35
$GPRMC,175347.000,A,3748.7916,N,12217.8735,W,0.75,282.34,120912,,,A*74
$GPVTG,282.34,T,,M,0.75,N,1.4,K,A*05
$GPGGA,175348.000,3748.7914,N,12217.8741,W,1,05,1.6,17.0,M,-25.1,M,,0000*53
$GPGSA,A,3,28,26,08,15,17,,,,,,,,3.5,1.6,3.1*35
$GPRMC,175348.000,A,3748.7914,N,12217.8741,W,0.89,230.09,120912,,,A*7E
$GPVTG,230.09,T,,M,0.89,N,1.6,K,A*03
$GPGGA,175349.000,3748.7914,N,12217.8741,W,1,04,2.6,18.5,M,-25.1,M,,0000*5A
$GPGSA,A,3,28,26,15,17,,,,,,,,,5.5,2.6,4.8*36
$GPGSV,3,1,10,17,84,101,24,28,52,050,22,26,39,225,28,27,35,315,*7B
$GPGSV,3,2,10,08,34,127,17,15,33,277,25,09,21,315,17,01,18,050,*73
$GPGSV,3,3,10,04,16,162,,11,06,040,19*74
$GPRMC,175349.000,A,3748.7914,N,12217.8741,W,0.63,280.69,120912,,,A*76
$GPVTG,280.69,T,,M,0.63,N,1.2,K,A*0E
$GPGGA,175350.000,3748.7913,N,12217.8744,W,1,05,1.6,20.8,M,-25.1,M,,0000*54
$GPGSA,A,3,28,26,08,15,17,,,,,,,,3.5,1.6,3.1*35
$GPRMC,175350.000,A,3748.7913,N,12217.8744,W,0.44,299.59,120912,,,A*72
$GPVTG,299.59,T,,M,0.44,N,0.8,K,A*0B
$GPGGA,175351.000,3748.7915,N,12217.8747,W,1,05,1.6,22.2,M,-25.1,M,,0000*58
$GPGSA,A,3,28,26,08,15,17,,,,,,,,3.5,1.6,3.1*35
$GPRMC,175351.000,A,3748.7915,N,12217.8747,W,0.47,334.91,120912,,,A*77
$GPVTG,334.91,T,,M,0.47,N,0.9,K,A*0B
$GPGGA,175352.000,3748.7914,N,12217.8749,W,1,05,1.6,23.5,M,-25.1,M,,0000*52
$GPGSA,A,3,28,26,08,15,17,,,,,,,,3.5,1.6,3.1*35
$GPRMC,175352.000,A,3748.7914,N,12217.8749,W,0.22,202.85,120912,,,A*79
$GPVTG,202.85,T,,M,0.22,N,0.4,K,A*04
$GPGGA,175353.000,3748.7916,N,12217.8747,W,1,05,1.6,24.0,M,-25.1,M,,0000*5D
$GPGSA,A,3,28,26,08,15,17,,,,,,,,3.5,1.6,3.1*35
$GPRMC,175353.000,A,3748.7916,N,12217.8747,W,0.73,182.05,120912,,,A*73
$GPVTG,182.05,T,,M,0.73,N,1.3,K,A*05
$GPGGA,175354.000,3748.7924,N,12217.8743,W,1,05,1.6,23.3,M,-25.1,M,,0000*5B
$GPGSA,A,3,28,26,08,15,17,,,,,,,,3.5,1.6,3.1*35
$GPGSV,3,1,10,17,84,101,25,28,52,050,23,26,39,225,28,27,35,315,*7B
$GPGSV,3,2,10,08,34,127,17,15,33,277,26,09,21,315,17,01,18,050,*70
$GPGSV,3,3,10,04,16,162,,11,06,040,21*7F
$GPRMC,175354.000,A,3748.7924,N,12217.8743,W,0.38,99.63,120912,,,A*45
$GPVTG,99.63,T,,M,0.38,N,0.7,K,A*34
$GPGGA,175355.000,3748.7928,N,12217.8739,W,1,05,1.6,23.7,M,-25.1,M,,0000*5F
$GPGSA,A,3,28,26,08,15,17,,,,,,,,3.5,1.6,3.1*35
$GPRMC,175355.000,A,3748.7928,N,12217.8739,W,0.40,115.08,120912,,,A*72
$GPVTG,115.08,T,,M,0.40,N,0.7,K,A*03
$GPGGA,175356.000,3748.7920,N,12217.8742,W,1,04,1.8,24.6,M,-25.1,M,,0000*51
$GPGSA,A,3,28,26,08,15,,,,,,,,,7.7,1.8,7.5*3B
$GPRMC,175356.000,A,3748.7920,N,12217.8742,W,0.83,184.85,120912,,,A*77
$GPVTG,184.85,T,,M,0.83,N,1.5,K,A*02
$GPGGA,175357.000,3748.7920,N,12217.8746,W,1,05,1.6,24.6,M,-25.1,M,,0000*5B
$GPGSA,A,3,28,17,26,08,15,,,,,,,,3.5,1.6,3.1*35
$GPRMC,175357.000,A,3748.7920,N,12217.8746,W,0.16,99.98,120912,,,A*4F
$GPVTG,99.98,T,,M,0.16,N,0.3,K,A*38
$GPGGA,175358.000,3748.7925,N,12217.8745,W,1,04,2.6,22.2,M,-25.1,M,,0000*52
$GPGSA,A,3,28,17,26,15,,,,,,,,,5.5,2.6,4.8*36
$GPRMC,175358.000,A,3748.7925,N,12217.8745,W,0.51,19.45,120912,,,A*4D
$GPVTG,19.45,T,,M,0.51,N,0.9,K,A*39
$GPGGA,175359.000,3748.7921,N,12217.8741,W,1,05,1.6,20.0,M,-25.1,M,,0000*51
$GPGSA,A,3,28,17,26,08,15,,,,,,,,3.5,1.6,3.1*35
$GPGSV,3,1,10,17,84,101,25,28,52,050,23,26,39,225,28,27,35,315,*7B
$GPGSV,3,2,10,08,34,127,17,15,33,277,25,09,21,315,16,01,18,050,*72
$GPGSV,3,3,10,04,16,162,,11,06,040,21*7F
$GPRMC,175359.000,A,3748.7921,N,12217.8741,W,0.23,225.58,120912,,,A*78
$GPVTG,225.58,T,,M,0.23,N,0.4,K,A*00
$GPGGA,175400.000,3748.7921,N,12217.8736,W,1,05,1.6,18.6,M,-25.1,M,,0000*57
$GPGSA,A,3,28,17,26,08,15,,,,,,,,3.5,1.6,3.1*35
$GPRMC,175400.000,A,3748.7921,N,12217.8736,W,0.18,200.77,120912,,,A*71
$GPVTG,200.77,T,,M,0.18,N,0.3,K,A*05
$GPGGA,175401.000,3748.7918,N,12217.8739,W,1,05,1.6,18.0,M,-25.1,M,,0000*55
$GPGSA,A,3,28,17,26,08,15,,,,,,,,3.5,1.6,3.1*35
$GPRMC,175401.000,A,3748.7918,N,12217.8739,W,0.40,260.03,120912,,,A*7D
$GPVTG,260.03,T,,M,0.40,N,0.7,K,A*09
$GPGGA,175402.000,3748.7922,N,12217.8737,W,1,05,1.6,15.9,M,-25.1,M,,0000*55
$GPGSA,A,3,28,17,26,08,15,,,,,,,,3.5,1.6,3.1*35
$GPRMC,175402.000,A,3748.7922,N,12217.8737,W,0.38,318.36,120912,,,A*7E
$GPVTG,318.36,T,,M,0.38,N,0.7,K,A*0E
$GPGGA,175403.000,3748.7924,N,12217.8742,W,1,05,1.6,16.2,M,-25.1,M,,0000*58
$GPGSA,A,3,28,17,26,08,15,,,,,,,,3.5,1.6,3.1*35
$GPRMC,175403.000,A,3748.7924,N,12217.8742,W,0.79,322.73,120912,,,A*76
$GPVTG,322.73,T,,M,0.79,N,1.5,K,A*00
$GPGGA,175404.000,3748.7924,N,12217.8744,W,1,05,1.6,15.4,M,-25.1,M,,0000*5C
$GPGSA,A,3,28,17,26,08,15,,,,,,,,3.5,1.6,3.1*35
$GPGSV,3,1,10,17,84,101,25,28,52,050,22,26,39,225,28,27,35,315,*7A
$GPGSV,3,2,10,08,34,127,17,15,33,277,24,09,21,315,17,01,18,050,*72
$GPGSV,3,3,10,04,16,162,,11,06,040,22*7C
$GPRMC,175404.000,A,3748.7924,N,12217.8744,W,0.84,306.70,120912,,,A*70
$GPVTG,306.70,T,,M,0.84,N,1.6,K,A*04
$GPGGA,175405.000,3748.7921,N,12217.8739,W,1,05,1.6,15.6,M,-25.1,M,,0000*50
$GPGSA,A,3,28,17,26,08,15,,,,,,,,3.5,1.6,3.1*35
$GPRMC,175405.000,A,3748.7921,N,12217.8739,W,0.28,315.27,120912,,,A*78
$GPVTG,315.27,T,,M,0.28,N,0.5,K,A*00
$GPGGA,175406.000,3748.7924,N,12217.8735,W,1,05,1.6,14.6,M,-25.1,M,,0000*5B
$GPGSA,A,3,28,17,26,08,15,,,,,,,,3.5,1.6,3.1*35
$GPRMC,175406.000,A,3748.7924,N,12217.8735,W,0.44,92.47,120912,,,A*42
$GPVTG,92.47,T,,M,0.44,N,0.8,K,A*3D
$GPGGA,175407.000,3748.7922,N,12217.8730,W,1,05,1.6,11.9,M,-25.1,M,,0000*53
$GPGSA,A,3,28,17,26,08,15,,,,,,,,3.5,1.6,3.1*35
$GPRMC,175407.000,A,3748.7922,N,12217.8730,W,0.88,134.85,120912,,,A*73
$GPVTG,134.85,T,,M,0.88,N,1.6,K,A*01
$GPGGA,175408.000,3748.7927,N,12217.8730,W,1,05,1.6,11.5,M,-25.1,M,,0000*55
$GPGSA,A,3,28,17,26,08,15,,,,,,,,3.5,1.6,3.1*35
$GPRMC,175408.000,A,3748.7927,N,12217.8730,W,0.66,128.19,120912,,,A*71
$GPVTG,128.19,T,,M,0.66,N,1.2,K,A*0D
$GPGGA,175409.000,3748.7925,N,12217.8733,W,1,05,1.6,11.4,M,-25.1,M,,0000*54
$GPGSA,A,3,28,17,26,08,15,,,,,,,,3.5,1.6,3.1*35
$GPGSV,3,1,10,17,84,101,23,28,52,050,23,26,39,225,23,27,35,315,*76
$GPGSV,3,2,10,08,34,127,17,15,33,277,20,09,21,315,16,01,18,050,*77
$GPGSV,3,3,10,04,16,162,,11,06,040,22*7C
$GPRMC,175409.000,A,3748.7925,N,12217.8733,W,0.92,192.01,120912,,,A*72
$GPVTG,192.01,T,,M,0.92,N,1.7,K,A*0B
$GPGGA,175410.000,3748.7928,N,12217.8735,W,1,05,1.6,9.3,M,-25.1,M,,0000*69
$GPGSA,A,3,28,17,26,08,15,,,,,,,,3.5,1.6,3.1*35
$GPRMC,175410.000,A,3748.7928,N,12217.8735,W,0.17,141.46,120912,,,A*71
$GPVTG,141.46,T,,M,0.17,N,0.3,K,A*0E
$GPGGA,175411.000,3748.7930,N,12217.8735,W,1,04,2.6,7.1,M,-25.1,M,,0000*6F
$GPGSA,A,3,28,17,26,15,,,,,,,,,5.4,2.6,4.8*37
$GPRMC,175411.000,A,3748.7930,N,12217.8735,W,0.37,64.32,120912,,,A*4E
$GPVTG,64.32,T,,M,0.37,N,0.7,K,A*3D
$GPGGA,175412.000,3748.7928,N,12217.8739,W,1,04,2.4,6.4,M,-25.1,M,,0000*6F
$GPGSA,A,3,17,26,08,15,,,,,,,,,4.0,2.4,3.2*3F
$GPRMC,175412.000,A,3748.7928,N,12217.8739,W,0.10,182.69,120912,,,A*7A
$GPVTG,182.69,T,,M,0.10,N,0.2,K,A*0A
$GPGGA,175413.000,3748.7930,N,12217.8742,W,1,04,2.4,7.2,M,-25.1,M,,0000*6C
$GPGSA,A,3,17,26,08,15,,,,,,,,,4.0,2.4,3.2*3F
$GPRMC,175413.000,A,3748.7930,N,12217.8742,W,0.59,335.36,120912,,,A*77
$GPVTG,335.36,T,,M,0.59,N,1.1,K,A*01
$GPGGA,175414.000,3748.7933,N,12217.8746,W,1,04,2.4,8.6,M,-25.1,M,,0000*67
$GPGSA,A,3,17,26,08,15,,,,,,,,,4.0,2.4,3.2*3F
$GPGSV,3,1,10,17,84,101,21,28,52,050,12,26,39,225,26,27,35,315,*73
$GPGSV,3,2,10,08,34,127,17,15,33,277,14,09,21,315,,01,18,050,*77
$GPGSV,3,3,10,04,16,162,,11,06,040,21*7F
$GPRMC,175414.000,A,3748.7933,N,12217.8746,W,0.62,345.19,120912,,,A*75
$GPVTG,345.19,T,,M,0.62,N,1.2,K,A*00
$GPGGA,175415.000,3748.7937,N,12217.8748,W,1,03,2.6,6.2,M,-25.1,M,,0000*63
$GPGSA,A,2,17,26,15,,,,,,,,,,2.8,2.6,1.0*3A
$GPRMC,175415.000,A,3748.7937,N,12217.8748,W,0.65,26.60,120912,,,A*41
$GPVTG,26.60,T,,M,0.65,N,1.2,K,A*3F
$GPGGA,175416.000,3748.7940,N,12217.8747,W,1,04,2.6,5.0,M,-25.1,M,,0000*69
$GPGSA,A,3,28,17,26,15,,,,,,,,,5.4,2.6,4.8*37
$GPRMC,175416.000,A,3748.7940,N,12217.8747,W,0.57,119.97,120912,,,A*79
$GPVTG,119.97,T,,M,0.57,N,1.1,K,A*08
$GPGGA,175417.000,3748.7926,N,12217.8746,W,1,05,1.6,4.6,M,-25.1,M,,0000*6C
$GPGSA,A,3,28,17,26,08,15,,,,,,,,3.5,1.6,3.1*35
$GPRMC,175417.000,A,3748.7926,N,12217.8746,W,2.29,150.98,120912,,,A*70
$GPVTG,150.98,T,,M,2.29,N,4.3,K,A*06
$GPGGA,175418.000,3748.7928,N,12217.8741,W,1,04,2.6,5.8,M,-25.1,M,,0000*67
$GPGSA,A,3,28,17,26,15,,,,,,,,,5.4,2.6,4.8*37
$GPRMC,175418.000,A,3748.7928,N,12217.8741,W,1.55,103.33,120912,,,A*79
$GPVTG,103.33,T,,M,1.55,N,2.9,K,A*05
$GPGGA,175419.000,3748.7927,N,12217.8738,W,1,04,2.6,7.3,M,-25.1,M,,0000*6E
$GPGSA,A,3,28,17,26,15,,,,,,,,,5.4,2.6,4.8*37
$GPGSV,3,1,10,17,84,101,29,28,52,050,24,26,39,225,23,27,35,315,*7B
$GPGSV,3,2,10,08,34,127,17,15,33,277,22,09,21,315,,01,18,050,*72
$GPGSV,3,3,10,04,16,162,,11,06,040,22*7C
$GPRMC,175419.000,A,3748.7927,N,12217.8738,W,0.76,140.48,120912,,,A*72
$GPVTG,140.48,T,,M,0.76,N,1.4,K,A*00
$GPGGA,175420.000,3748.7929,N,12217.8739,W,1,04,2.6,8.0,M,-25.1,M,,0000*67
$GPGSA,A,3,28,17,26,15,,,,,,,,,5.4,2.6,4.8*37
$GPRMC,175420.000,A,3748.7929,N,12217.8739,W,0.47,47.70,120912,,,A*48
$GPVTG,47.70,T,,M,0.47,N,0.9,K,A*33
$GPGGA,175421.000,3748.7928,N,12217.8729,W,1,05,1.6,7.6,M,-25.1,M,,0000*6D
$GPGSA,A,3,28,17,26,08,15,,,,,,,,3.5,1.6,3.1*35
$GPRMC,175421.000,A,3748.7928,N,12217.8729,W,0.86,2.78,120912,,,A*7D
$GPVTG,2.78,T,,M,0.86,N,1.6,K,A*09
$GPGGA,175422.000,3748.7924,N,12217.8726,W,1,05,1.6,6.5,M,-25.1,M,,0000*6F
$GPGSA,A,3,28,17,26,08,15,,,,,,,,3.5,1.6,3.1*35
$GPRMC,175422.000,A,3748.7924,N,12217.8726,W,0.46,285.04,120912,,,A*77
$GPVTG,285.04,T,,M,0.46,N,0.8,K,A*0C
$GPGGA,175423.000,3748.7917,N,12217.8722,W,1,05,1.6,6.7,M,-25.1,M,,0000*68
$GPGSA,A,3,28,17,26,08,15,,,,,,,,3.5,1.6,3.1*35
$GPRMC,175423.000,A,3748.7917,N,12217.8722,W,0.92,172.22,120912,,,A*74
$GPVTG,172.22,T,,M,0.92,N,1.7,K,A*04
$GPGGA,175424.000,3748.7918,N,12217.8719,W,1,05,1.6,7.1,M,-25.1,M,,0000*6F
$GPGSA,A,3,28,17,26,08,15,,,,,,,,3.5,1.6,3.1*35
$GPGSV,3,1,10,17,84,101,29,28,52,050,25,26,39,225,22,27,35,315,*7B
$GPGSV,3,2,10,08,34,127,20,15,33,277,20,09,21,315,20,01,18,050,*76
$GPGSV,3,3,10,04,16,162,,11,06,040,23*7D
$GPRMC,175424.000,A,3748.7918,N,12217.8719,W,0.78,132.99,120912,,,A*74
$GPGGA,175425.000,3748.7920,N,12217.8712,W,1,05,1.6,7.7,M,-25.1,M,,0000*68
$GPGSA,A,3,28,17,26,08,15,,,,,,,,3.5,1.6,3.1*35
$GPRMC,175425.000,A,3748.7920,N,12217.8712,W,1.44,103.40,120912,,,A*7D
$GPVTG,103.40,T,,M,1.44,N,2.7,K,A*0F
$GPGGA,175426.000,3748.7914,N,12217.8702,W,1,05,1.6,7.4,M,-25.1,M,,0000*6E
$GPGSA,A,3,28,17,26,08,15,,,,,,,,3.5,1.6,3.1*35
$GPRMC,175426.000,A,3748.7914,N,12217.8702,W,1.79,128.00,120912,,,A*7B
$GPVTG,128.00,T,,M,1.79,N,3.3,K,A*09
$GPGGA,175427.000,3748.7911,N,12217.8697,W,1,05,1.6,7.6,M,-25.1,M,,0000*65
$GPGSA,A,3,28,17,26,08,15,,,,,,,,3.5,1.6,3.1*35
$GPRMC,175427.000,A,3748.7911,N,12217.8697,W,0.91,157.43,120912,,,A*7A
$GPVTG,157.43,T,,M,0.91,N,1.7,K,A*07
$GPGGA,175428.000,3748.7902,N,12217.8696,W,1,05,1.6,6.9,M,-25.1,M,,0000*67
$GPGSA,A,3,28,17,26,08,15,,,,,,,,3.5,1.6,3.1*35
$GPRMC,175428.000,A,3748.7902,N,12217.8696,W,0.89,197.38,120912,,,A*7F
$GPVTG,197.38,T,,M,0.89,N,1.7,K,A*0E
$GPGGA,175429.000,3748.7898,N,12217.8699,W,1,05,1.6,7.1,M,-25.1,M,,0000*62
$GPGSA,A,3,28,17,26,08,15,,,,,,,,3.5,1.6,3.1*35
$GPGSV,3,1,10,17,84,101,29,28,52,050,26,26,39,225,22,27,35,315,*78
$GPGSV,3,2,10,08,34,127,21,15,33,277,19,09,21,315,20,01,18,050,*7D
$GPGSV,3,3,10,04,16,162,,11,06,040,23*7D
$GPRMC,175429.000,A,3748.7898,N,12217.8699,W,0.41,210.68,120912,,,A*7E
$GPVTG,210.68,T,,M,0.41,N,0.8,K,A*0D
$GPGGA,175430.000,3748.7893,N,12217.8696,W,1,05,1.6,6.8,M,-25.1,M,,0000*66
$GPGSA,A,3,28,17,26,08,15,,,,,,,,3.5,1.6,3.1*35
$GPRMC,175430.000,A,3748.7893,N,12217.8696,W,0.84,260.49,120912,,,A*7F
$GPVTG,260.49,T,,M,0.84,N,1.6,K,A*0F
$GPGGA,175431.000,3748.7894,N,12217.8696,W,1,05,1.6,7.7,M,-25.1,M,,0000*6E
$GPGSA,A,3,28,17,26,08,15,,,,,,,,3.5,1.6,3.1*35
$GPRMC,175431.000,A,3748.7894,N,12217.8696,W,0.27,235.32,120912,,,A*7C
$GPVTG,235.32,T,,M,0.27,N,0.5,K,A*08
$GPGGA,175432.000,3748.7891,N,12217.8695,W,1,05,1.6,8.3,M,-25.1,M,,0000*60
$GPGSA,A,3,28,17,26,08,15,,,,,,,,3.5,1.6,3.1*35
$GPRMC,175432.000,A,3748.7891,N,12217.8695,W,0.72,137.06,120912,,,A*7F
$GPVTG,137.06,T,,M,0.72,N,1.3,K,A*09
$GPGGA,175433.000,3748.7890,N,12217.8694,W,1,05,1.6,9.4,M,-25.1,M,,0000*67
$GPGSA,A,3,28,17,26,08,15,,,,,,,,3.5,1.6,3.1*35
$GPRMC,175433.000,A,3748.7890,N,12217.8694,W,0.63,124.09,120912,,,A*73
$GPVTG,124.09,T,,M,0.63,N,1.2,K,A*05
$GPGGA,175434.000,3748.7891,N,12217.8692,W,1,05,1.6,10.3,M,-25.1,M,,0000*58
$GPGSA,A,3,28,17,26,08,15,,,,,,,,3.5,1.6,3.1*35
$GPGSV,3,1,10,17,84,101,29,28,52,050,26,26,39,225,22,27,35,315,*78
$GPGSV,3,2,10,08,34,127,22,15,33,277,18,09,21,315,20,01,18,050,*7F
$GPGSV,3,3,10,04,16,162,,11,06,040,24*7A
$GPRMC,175434.000,A,3748.7891,N,12217.8692,W,0.22,30.26,120912,,,A*4F
$GPVTG,30.26,T,,M,0.22,N,0.4,K,A*3E
$GPGGA,175435.000,3748.7892,N,12217.8688,W,1,05,1.6,11.5,M,-25.1,M,,0000*56
$GPGSA,A,3,28,17,26,08,15,,,,,,,,3.5,1.6,3.1*35
$GPRMC,175435.000,A,3748.7892,N,12217.8688,W,0.70,92.17,120912,,,A*4B
$GPVTG,92.17,T,,M,0.70,N,1.3,K,A*35
$GPGGA,175436.000,3748.7889,N,12217.8681,W,1,05,1.6,12.1,M,-25.1,M,,0000*51
$GPGSA,A,3,28,17,26,08,15,,,,,,,,3.5,1.6,3.1*35
$GPRMC,175436.000,A,3748.7889,N,12217.8681,W,0.53,120.03,120912,,,A*77
$GPVTG,120.03,T,,M,0.53,N,1.0,K,A*0A
$GPGGA,175437.000,3748.7884,N,12217.8675,W,1,05,1.6,12.5,M,-25.1,M,,0000*52
$GPGSA,A,3,28,17,26,08,15,,,,,,,,3.5,1.6,3.1*35
$GPRMC,175437.000,A,3748.7884,N,12217.8675,W,0.98,124.98,120912,,,A*71
$GPVTG,124.98,T,,M,0.98,N,1.8,K,A*03
$GPGGA,175438.000,3748.7880,N,12217.8668,W,1,05,1.6,12.7,M,-25.1,M,,0000*57
$GPGSA,A,3,28,17,26,08,15,,,,,,,,3.5,1.6,3.1*35
$GPRMC,175438.000,A,3748.7880,N,12217.8668,W,0.29,150.85,120912,,,A*73
$GPVTG,150.85,T,,M,0.29,N,0.5,K,A*0A
$GPGGA,175439.000,3748.7879,N,12217.8668,W,1,05,1.6,13.3,M,-25.1,M,,0000*55
$GPGSA,A,3,28,17,26,08,15,,,,,,,,3.5,1.6,3.1*35
$GPGSV,3,1,10,17,84,101,29,28,52,050,26,26,39,225,22,27,35,315,*78
$GPGSV,3,2,10,08,34,127,23,15,33,277,19,09,21,315,20,01,18,050,*7F
$GPGSV,3,3,10,04,16,162,,11,06,040,24*7A
$GPRMC,175439.000,A,3748.7879,N,12217.8668,W,0.21,200.21,120912,,,A*74
$GPVTG,200.21,T,,M,0.21,N,0.4,K,A*0B
$GPGGA,175440.000,3748.7880,N,12217.8670,W,1,05,1.6,13.9,M,-25.1,M,,0000*5E
$GPGSA,A,3,28,17,26,08,15,,,,,,,,3.5,1.6,3.1*35
$GPRMC,175440.000,A,3748.7880,N,12217.8670,W,0.43,314.01,120912,,,A*77
$GPVTG,314.01,T,,M,0.43,N,0.8,K,A*05
$GPGGA,175441.000,3748.7880,N,12217.8669,W,1,05,1.6,14.8,M,-25.1,M,,0000*51
$GPGSA,A,3,28,17,26,08,15,,,,,,,,3.5,1.6,3.1*35
$GPRMC,175441.000,A,3748.7880,N,12217.8669,W,0.15,87.87,120912,,,A*4A
$GPVTG,87.87,T,,M,0.15,N,0.3,K,A*3A
$GPGGA,175442.000,3748.7878,N,12217.8666,W,1,05,1.6,15.5,M,-25.1,M,,0000*56
$GPGSA,A,3,28,17,26,08,15,,,,,,,,3.5,1.6,3.1*35
$GPRMC,175442.000,A,3748.7878,N,12217.8666,W,1.09,126.41,120912,,,A*7D
$GPVTG,126.41,T,,M,1.09,N,2.0,K,A*07
$GPGGA,175443.000,3748.7874,N,12217.8661,W,1,05,1.6,15.9,M,-25.1,M,,0000*50
$GPGSA,A,3,28,17,26,08,15,,,,,,,,3.5,1.6,3.1*35
$GPRMC,175443.000,A,3748.7874,N,12217.8661,W,1.32,135.53,120912,,,A*7E
$GPVTG,135.53,T,,M,1.32,N,2.4,K,A*0A
$GPGGA,175444.000,3748.7870,N,12217.8657,W,1,05,1.6,16.6,M,-25.1,M,,0000*5A
$GPGSA,A,3,28,17,26,08,15,,,,,,,,3.5,1.6,3.1*35
$GPGSV,3,1,10,17,84,101,29,28,52,050,26,26,39,225,22,27,35,315,*78
$GPGSV,3,2,10,08,34,127,23,15,33,277,19,09,21,315,19,01,18,050,*75
$GPGSV,3,3,10,04,16,162,,11,06,040,24*7A
$GPRMC,175444.000,A,3748.7870,N,12217.8657,W,1.02,139.43,120912,,,A*76
$GPVTG,139.43,T,,M,1.02,N,1.9,K,A*0A
$GPGGA,175445.000,3748.7869,N,12217.8654,W,1,05,1.6,17.5,M,-25.1,M,,0000*52
$GPGSA,A,3,28,17,26,08,15,,,,,,,,3.5,1.6,3.1*35
$GPRMC,175445.000,A,3748.7869,N,12217.8654,W,0.80,103.98,120912,,,A*78
$GPVTG,103.98,T,,M,0.80,N,1.5,K,A*02
$GPGGA,175446.000,3748.7865,N,12217.8648,W,1,05,1.6,17.7,M,-25.1,M,,0000*52
$GPGSA,A,3,28,17,26,08,15,,,,,,,,3.5,1.6,3.1*35
$GPRMC,175446.000,A,3748.7865,N,12217.8648,W,0.41,150.77,120912,,,A*70
$GPVTG,150.77,T,,M,0.41,N,0.8,K,A*04
$GPGGA,175447.000,3748.7864,N,12217.8653,W,1,05,1.6,17.8,M,-25.1,M,,0000*57
$GPGSA,A,3,28,17,26,08,15,,,,,,,,3.5,1.6,3.1*35
$GPRMC,175447.000,A,3748.7864,N,12217.8653,W,1.00,247.89,120912,,,A*7A
$GPVTG,247.89,T,,M,1.00,N,1.9,K,A*04
$GPGGA,175448.000,3748.7863,N,12217.8654,W,1,05,1.6,18.2,M,-25.1,M,,0000*5D
$GPGSA,A,3,28,17,26,08,15,,,,,,,,3.5,1.6,3.1*35
$GPRMC,175448.000,A,3748.7863,N,12217.8654,W,0.15,144.37,120912,,,A*75
$GPVTG,144.37,T,,M,0.15,N,0.3,K,A*0F
$GPGGA,175449.000,3748.7859,N,12217.8647,W,1,05,1.6,18.5,M,-25.1,M,,0000*50
$GPGSA,A,3,28,17,26,08,15,,,,,,,,3.5,1.6,3.1*35
$GPGSV,3,1,10,17,83,089,29,28,51,051,26,26,38,224,22,27,36,315,*7F
$GPGSV,3,2,10,08,33,128,24,15,33,276,18,09,22,315,19,01,17,049,*7E
$GPGSV,3,3,10,04,17,162,,11,05,039,24*76
$GPRMC,175449.000,A,3748.7859,N,12217.8647,W,0.84,109.72,120912,,,A*7F
$GPVTG,109.72,T,,M,0.84,N,1.6,K,A*0B
$GPGGA,175450.000,3748.7857,N,12217.8642,W,1,05,1.6,19.2,M,-25.1,M,,0000*55
$GPGSA,A,3,28,17,26,08,15,,,,,,,,3.5,1.6,3.1*35
$GPRMC,175450.000,A,3748.7857,N,12217.8642,W,0.91,113.56,120912,,,A*75
$GPVTG,113.56,T,,M,0.91,N,1.7,K,A*03
$GPGGA,175451.000,3748.7858,N,12217.8642,W,1,05,1.6,20.1,M,-25.1,M,,0000*52
$GPGSA,A,3,28,17,26,08,15,,,,,,,,3.5,1.6,3.1*35
$GPRMC,175451.000,A,3748.7858,N,12217.8642,W,0.74,117.30,120912,,,A*74
$GPVTG,117.30,T,,M,0.74,N,1.4,K,A*0F
$GPGGA,175452.000,3748.7859,N,12217.8640,W,1,05,1.6,20.7,M,-25.1,M,,0000*54
$GPGSA,A,3,28,17,26,08,15,,,,,,,,3.5,1.6,3.1*35
$GPRMC,175452.000,A,3748.7859,N,12217.8640,W,1.07,124.10,120912,,,A*73
$GPVTG,124.10,T,,M,1.07,N,2.0,K,A*0F
$GPGGA,175453.000,3748.7857,N,12217.8639,W,1,05,1.6,21.9,M,-25.1,M,,0000*5A
$GPGSA,A,3,28,17,26,08,15,,,,,,,,3.5,1.6,3.1*35
$GPRMC,175453.000,A,3748.7857,N,12217.8639,W,1.33,123.76,120912,,,A*72
$GPVTG,123.76,T,,M,1.33,N,2.5,K,A*0A
$GPGGA,175454.000,3748.7855,N,12217.8635,W,1,05,1.6,23.0,M,-25.1,M,,0000*58
$GPGSA,A,3,28,17,26,08,15,,,,,,,,3.5,1.6,3.1*35
$GPGSV,3,1,10,17,83,089,28,28,51,051,26,26,38,224,23,27,36,315,*7F
$GPGSV,3,2,10,08,33,128,24,15,33,276,18,09,22,315,18,01,17,049,*7F
$GPGSV,3,3,10,04,17,162,,11,05,039,24*76
$GPRMC,175454.000,A,3748.7855,N,12217.8635,W,0.49,157.04,120912,,,A*71
$GPVTG,157.04,T,,M,0.49,N,0.9,K,A*0E
$GPGGA,175455.000,3748.7858,N,12217.8647,W,1,05,1.6,22.9,M,-25.1,M,,0000*59
$GPGSA,A,3,28,17,26,08,15,,,,,,,,3.5,1.6,3.1*35
$GPRMC,175455.000,A,3748.7858,N,12217.8647,W,0.51,250.50,120912,,,A*74
$GPVTG,250.50,T,,M,0.51,N,0.9,K,A*02
$GPGGA,175456.000,3748.7859,N,12217.8650,W,1,05,1.6,22.1,M,-25.1,M,,0000*55
$GPGSA,A,3,28,17,26,08,15,,,,,,,,3.5,1.6,3.1*35
$GPRMC,175456.000,A,3748.7859,N,12217.8650,W,0.39,239.52,120912,,,A*73
$GPVTG,239.52,T,,M,0.39,N,0.7,K,A*0F
$GPGGA,175457.000,3748.7865,N,12217.8646,W,1,05,1.6,22.6,M,-25.1,M,,0000*5B
$GPGSA,A,3,28,17,26,08,15,,,,,,,,3.5,1.6,3.1*35
$GPRMC,175457.000,A,3748.7865,N,12217.8646,W,0.83,65.51,120912,,,A*43
$GPVTG,65.51,T,,M,0.83,N,1.5,K,A*35
$GPGGA,175458.000,3748.7867,N,12217.8639,W,1,05,1.6,22.7,M,-25.1,M,,0000*5F
$GPGSA,A,3,28,17,26,08,15,,,,,,,,3.5,1.6,3.1*35
$GPRMC,175458.000,A,3748.7867,N,12217.8639,W,0.63,29.67,120912,,,A*45
$GPVTG,29.67,T,,M,0.63,N,1.2,K,A*31
$GPGGA,175459.000,3748.7872,N,12217.8637,W,1,05,1.6,22.8,M,-25.1,M,,0000*5B
$GPGSA,A,3,28,17,26,08,15,,,,,,,,3.5,1.6,3.1*35
$GPGSV,3,1,10,17,83,089,28,28,51,051,25,26,38,224,23,27,36,315,*7C
$GPGSV,3,2,10,08,33,128,24,15,33,276,18,09,22,315,18,01,17,049,*7F
$GPGSV,3,3,10,04,17,162,,11,05,039,24*76
$GPRMC,175459.000,A,3748.7872,N,12217.8637,W,0.70,46.75,120912,,,A*46
$GPVTG,46.75,T,,M,0.70,N,1.3,K,A*38
$GPGGA,175500.000,3748.7871,N,12217.8643,W,1,05,1.6,22.7,M,-25.1,M,,0000*59
$GPGSA,A,3,28,17,26,08,15,,,,,,,,3.5,1.6,3.1*35
$GPRMC,175500.000,A,3748.7871,N,12217.8643,W,0.79,115.73,120912,,,A*73
$GPVTG,115.73,T,,M,0.79,N,1.5,K,A*06
$GPGGA,175501.000,3748.7876,N,12217.8644,W,1,05,1.6,22.2,M,-25.1,M,,0000*5D
$GPGSA,A,3,28,17,26,08,15,,,,,,,,3.5,1.6,3.1*35
$GPRMC,175501.000,A,3748.7876,N,12217.8644,W,0.70,107.52,120912,,,A*7B
$GPVTG,107.52,T,,M,0.70,N,1.3,K,A*09
$GPGGA,175502.000,3748.7881,N,12217.8651,W,1,05,1.6,22.7,M,-25.1,M,,0000*57
$GPGSA,A,3,28,17,26,08,15,,,,,,,,3.5,1.6,3.1*35
$GPRMC,175502.000,A,3748.7881,N,12217.8651,W,0.62,284.29,120912,,,A*73
$GPVTG,284.29,T,,M,0.62,N,1.2,K,A*0F
$GPGGA,175503.000,3748.7882,N,12217.8656,W,1,05,1.6,22.3,M,-25.1,M,,0000*56
$GPGSA,A,3,28,17,26,08,15,,,,,,,,3.5,1.6,3.1*35
$GPRMC,175503.000,A,3748.7882,N,12217.8656,W,0.66,282.49,120912,,,A*72
$GPVTG,282.49,T,,M,0.66,N,1.2,K,A*0B
$GPGGA,175504.000,3748.7889,N,12217.8663,W,1,05,1.6,22.8,M,-25.1,M,,0000*57
$GPGSA,A,3,28,17,26,08,15,,,,,,,,3.5,1.6,3.1*35
$GPGSV,3,1,10,17,83,089,29,28,51,051,25,26,38,224,23,27,36,315,*7D
$GPGSV,3,2,10,08,33,128,24,15,33,276,18,09,22,315,18,01,17,049,*7F
$GPRMC,175504.000,A,3748.7889,N,12217.8663,W,0.36,340.69,120912,,,A*70
$GPVTG,340.69,T,,M,0.36,N,0.7,K,A*07
$GPGGA,175505.000,3748.7882,N,12217.8665,W,1,05,1.6,24.1,M,-25.1,M,,0000*54
$GPGSA,A,3,28,17,26,08,15,,,,,,,,3.5,1.6,3.1*35
$GPRMC,175505.000,A,3748.7882,N,12217.8665,W,0.89,161.00,120912,,,A*76
$GPVTG,161.00,T,,M,0.89,N,1.7,K,A*0C
$GPGGA,175506.000,3748.7880,N,12217.8665,W,1,05,1.6,24.3,M,-25.1,M,,0000*57
$GPGSA,A,3,28,17,26,08,15,,,,,,,,3.5,1.6,3.1*35
$GPRMC,175506.000,A,3748.7880,N,12217.8665,W,0.91,166.65,120912,,,A*7A
$GPVTG,166.65,T,,M,0.91,N,1.7,K,A*01
$GPGGA,175507.000,3748.7876,N,12217.8658,W,1,05,1.6,23.8,M,-25.1,M,,0000*5D
$GPGSA,A,3,28,17,26,08,15,,,,,,,,3.5,1.6,3.1*35
$GPRMC,175507.000,A,3748.7876,N,12217.8658,W,0.95,164.90,120912,,,A*70
$GPVTG,164.90,T,,M,0.95,N,1.8,K,A*02
$GPGGA,175508.000,3748.7874,N,12217.8652,W,1,05,1.6,23.3,M,-25.1,M,,0000*51
$GPGSA,A,3,28,17,26,08,15,,,,,,,,3.5,1.6,3.1*35
$GPRMC,175508.000,A,3748.7874,N,12217.8652,W,0.20,115.73,120912,,,A*72
$GPVTG,115.73,T,,M,0.20,N,0.4,K,A*0A
$GPGGA,175509.000,3748.7876,N,12217.8652,W,1,05,1.6,23.1,M,-25.1,M,,0000*50
$GPGSA,A,3,28,17,26,08,15,,,,,,,,3.5,1.6,3.1*35
$GPGSV,3,1,10,17,83,089,29,28,51,051,25,26,38,224,23,27,36,315,*7D
$GPGSV,3,2,10,08,33,128,24,15,33,276,19,09,22,315,18,01,17,049,*7E
$GPGSV,3,3,10,04,17,162,,11,05,039,25*77
$GPRMC,175509.000,A,3748.7876,N,12217.8652,W,0.68,320.77,120912,,,A*7D
$GPVTG,320.77,T,,M,0.68,N,1.3,K,A*00
$GPGGA,175510.000,3748.7880,N,12217.8657,W,1,05,1.6,23.1,M,-25.1,M,,0000*54
$GPGSA,A,3,28,17,26,08,15,,,,,,,,3.5,1.6,3.1*35
$GPRMC,175510.000,A,3748.7880,N,12217.8657,W,0.92,274.37,120912,,,A*78
$GPVTG,274.37,T,,M,0.92,N,1.7,K,A*05
$GPGGA,175511.000,3748.7881,N,12217.8653,W,1,05,1.6,22.9,M,-25.1,M,,0000*59
$GPGSA,A,3,28,17,26,08,15,,,,,,,,3.5,1.6,3.1*35
$GPRMC,175511.000,A,3748.7881,N,12217.8653,W,0.55,286.43,120912,,,A*79
$GPVTG,286.43,T,,M,0.55,N,1.0,K,A*07
$GPGGA,175512.000,3748.7882,N,12217.8649,W,1,05,1.6,23.2,M,-25.1,M,,0000*58
$GPGSA,A,3,28,17,26,08,15,,,,,,,,3.5,1.6,3.1*35
$GPRMC,175512.000,A,3748.7882,N,12217.8649,W,0.37,126.09,120912,,,A*71
$GPVTG,126.09,T,,M,0.37,N,0.7,K,A*02
$GPGGA,175513.000,3748.7883,N,12217.8645,W,1,05,1.6,23.7,M,-25.1,M,,0000*51
$GPGSA,A,3,28,17,26,08,15,,,,,,,,3.5,1.6,3.1*35
$GPRMC,175513.000,A,3748.7883,N,12217.8645,W,1.15,126.64,120912,,,A*77
$GPVTG,126.64,T,,M,1.15,N,2.1,K,A*0C
$GPGGA,175514.000,3748.7883,N,12217.8644,W,1,05,1.6,23.6,M,-25.1,M,,0000*56
$GPGSA,A,3,28,17,26,08,15,,,,,,,,3.5,1.6,3.1*35
$GPGSV,3,1,10,17,83,089,29,28,51,051,25,26,38,224,22,27,36,315,*7C
$GPGSV,3,2,10,08,33,128,24,15,33,276,19,09,22,315,18,01,17,049,*7E
$GPGSV,3,3,10,04,17,162,,11,05,039,24*76
$GPRMC,175514.000,A,3748.7883,N,12217.8644,W,0.98,128.73,120912,,,A*7D
$GPVTG,128.73,T,,M,0.98,N,1.8,K,A*0A
$GPGGA,175515.000,3748.7878,N,12217.8644,W,1,05,1.6,22.9,M,-25.1,M,,0000*5D
$GPGSA,A,3,28,17,26,08,15,,,,,,,,3.5,1.6,3.1*35
$GPRMC,175515.000,A,3748.7878,N,12217.8644,W,0.91,201.69,120912,,,A*72
$GPVTG,201.69,T,,M,0.91,N,1.7,K,A*0F
$GPGGA,175516.000,3748.7878,N,12217.8648,W,1,05,1.6,22.8,M,-25.1,M,,0000*53
$GPGSA,A,3,28,17,26,08,15,,,,,,,,3.5,1.6,3.1*35
$GPRMC,175516.000,A,3748.7878,N,12217.8648,W,0.74,261.55,120912,,,A*7F
$GPVTG,261.55,T,,M,0.74,N,1.4,K,A*0E
$GPGGA,175517.000,3748.7878,N,12217.8657,W,1,05,1.6,22.2,M,-25.1,M,,0000*56
$GPGSA,A,3,28,17,26,08,15,,,,,,,,3.5,1.6,3.1*35
$GPRMC,175517.000,A,3748.7878,N,12217.8657,W,0.49,197.17,120912,,,A*72
$GPVTG,197.17,T,,M,0.49,N,0.9,K,A*00
$GPGGA,175518.000,3748.7884,N,12217.8667,W,1,05,1.6,22.5,M,-25.1,M,,0000*5E
$GPGSA,A,3,28,17,26,08,15,,,,,,,,3.5,1.6,3.1*35
$GPRMC,175518.000,A,3748.7884,N,12217.8667,W,0.39,119.20,120912,,,A*78
$GPVTG,119.20,T,,M,0.39,N,0.7,K,A*0B
$GPGGA,175519.000,3748.7884,N,12217.8674,W,1,05,1.6,22.5,M,-25.1,M,,0000*5D
$GPGSA,A,3,28,17,26,08,15,,,,,,,,3.5,1.6,3.1*35
$GPGSV,3,1,10,17,83,087,28,28,51,051,25,26,38,224,22,27,36,315,*73
$GPGSV,3,2,10,08,33,128,23,15,33,275,19,09,22,315,18,01,17,049,*7A
$GPGSV,3,3,10,04,17,162,,11,05,039,24*76
$GPRMC,175519.000,A,3748.7884,N,12217.8674,W,1.25,159.83,120912,,,A*7A
$GPGGA,175520.000,3748.7881,N,12217.8685,W,1,05,1.6,23.7,M,-25.1,M,,0000*5F
$GPGSA,A,3,28,17,26,08,15,,,,,,,,3.5,1.6,3.1*35
$GPRMC,175520.000,A,3748.7881,N,12217.8685,W,1.26,184.61,120912,,,A*74
$GPVTG,184.61,T,,M,1.26,N,2.3,K,A*03
$GPGGA,175521.000,3748.7882,N,12217.8693,W,1,05,1.6,22.9,M,-25.1,M,,0000*55
$GPGSA,A,3,28,17,26,08,15,,,,,,,,3.5,1.6,3.1*35
$GPRMC,175521.000,A,3748.7882,N,12217.8693,W,0.61,218.74,120912,,,A*71
$GPVTG,218.74,T,,M,0.61,N,1.1,K,A*02
$GPGGA,175522.000,3748.7886,N,12217.8707,W,1,05,1.6,20.4,M,-25.1,M,,0000*51
$GPGSA,A,3,28,17,26,08,15,,,,,,,,3.5,1.6,3.1*35
$GPRMC,175522.000,A,3748.7886,N,12217.8707,W,0.72,277.90,120912,,,A*7B
$GPVTG,277.90,T,,M,0.72,N,1.3,K,A*01
$GPGGA,175523.000,3748.7892,N,12217.8714,W,1,05,1.6,19.4,M,-25.1,M,,0000*5D
$GPGSA,A,3,28,17,26,08,15,,,,,,,,3.5,1.6,3.1*35
$GPRMC,175523.000,A,3748.7892,N,12217.8714,W,0.41,340.69,120912,,,A*7E
$GPVTG,340.69,T,,M,0.41,N,0.8,K,A*08
$GPGGA,175524.000,3748.7894,N,12217.8709,W,1,05,1.6,18.3,M,-25.1,M,,0000*56
$GPGSA,A,3,28,17,26,08,15,,,,,,,,3.5,1.6,3.1*35
$GPGSV,3,1,10,17,83,087,28,28,51,051,25,26,38,224,21,27,36,315,*70
$GPGSV,3,2,10,08,33,128,23,15,33,275,20,09,22,315,18,01,17,049,*70
$GPGSV,3,3,10,04,17,162,,11,05,039,24*76
$GPRMC,175524.000,A,3748.7894,N,12217.8709,W,0.47,51.36,120912,,,A*4C
$GPVTG,51.36,T,,M,0.47,N,0.9,K,A*36
$GPGGA,175525.000,3748.7899,N,12217.8704,W,1,05,1.6,16.4,M,-25.1,M,,0000*5E
$GPGSA,A,3,28,17,26,08,15,,,,,,,,3.5,1.6,3.1*35
$GPRMC,175525.000,A,3748.7899,N,12217.8704,W,0.69,156.01,120912,,,A*73
$GPVTG,156.01,T,,M,0.69,N,1.3,K,A*03
$GPGGA,175526.000,3748.7891,N,12217.8697,W,1,05,1.6,16.5,M,-25.1,M,,0000*5F
$GPGSA,A,3,28,17,26,08,15,,,,,,,,3.5,1.6,3.1*35
$GPRMC,175526.000,A,3748.7891,N,12217.8697,W,1.11,165.96,120912,,,A*73
$GPVTG,165.96,T,,M,1.11,N,2.1,K,A*02
$GPGGA,175527.000,3748.7898,N,12217.8691,W,1,05,1.6,15.5,M,-25.1,M,,0000*52
$GPGSA,A,3,28,17,26,08,15,,,,,,,,3.5,1.6,3.1*35
$GPRMC,175527.000,A,3748.7898,N,12217.8691,W,0.81,130.40,120912,,,A*7E
$GPVTG,130.40,T,,M,0.81,N,1.5,K,A*06
$GPGGA,175528.000,3748.7888,N,12217.8696,W,1,05,1.6,16.8,M,-25.1,M,,0000*55
$GPGSA,A,3,28,17,26,08,15,,,,,,,,3.5,1.6,3.1*35
$GPRMC,175528.000,A,3748.7888,N,12217.8696,W,1.73,195.81,120912,,,A*79
$GPVTG,195.81,T,,M,1.73,N,3.2,K,A*0D
$GPGGA,175529.000,3748.7879,N,12217.8704,W,1,05,1.6,17.7,M,-25.1,M,,0000*5E
$GPGSA,A,3,28,17,26,08,15,,,,,,,,3.5,1.6,3.1*35
$GPGSV,3,1,10,17,83,087,28,28,51,051,25,26,38,224,21,27,36,315,*70
$GPGSV,3,2,10,08,33,128,23,15,33,275,20,09,22,315,18,01,17,049,*70
$GPGSV,3,3,10,04,17,162,,11,05,039,24*76
$GPRMC,175529.000,A,3748.7879,N,12217.8704,W,1.71,203.61,120912,,,A*7C
$GPVTG,203.61,T,,M,1.71,N,3.2,K,A*0D
$GPGGA,175530.000,3748.7876,N,12217.8710,W,1,05,1.6,17.7,M,-25.1,M,,0000*5C
$GPGSA,A,3,28,17,26,08,15,,,,,,,,3.5,1.6,3.1*35
$GPRMC,175530.000,A,3748.7876,N,12217.8710,W,0.84,198.25,120912,,,A*74
$GPVTG,198.25,T,,M,0.84,N,1.6,K,A*01
$GPGGA,175531.000,3748.7869,N,12217.8710,W,1,05,1.6,18.5,M,-25.1,M,,0000*5E
$GPGSA,A,3,28,17,26,08,15,,,,,,,,3.5,1.6,3.1*35
$GPRMC,175531.000,A,3748.7869,N,12217.8710,W,0.99,143.74,120912,,,A*75
$GPVTG,143.74,T,,M,0.99,N,1.8,K,A*01
$GPGGA,175532.000,3748.7865,N,12217.8707,W,1,05,1.6,19.9,M,-25.1,M,,0000*5A
$GPGSA,A,3,28,17,26,08,15,,,,,,,,3.5,1.6,3.1*35
$GPRMC,175532.000,A,3748.7865,N,12217.8707,W,1.12,174.99,120912,,,A*79
$GPVTG,174.99,T,,M,1.12,N,2.1,K,A*0E
$GPGGA,175533.000,3748.7855,N,12217.8700,W,1,05,1.6,21.6,M,-25.1,M,,0000*5B
$GPGSA,A,3,28,17,26,08,15,,,,,,,,3.5,1.6,3.1*35
$GPRMC,175533.000,A,3748.7855,N,12217.8700,W,1.54,188.51,120912,,,A*79
$GPVTG,188.51,T,,M,1.54,N,2.9,K,A*03
$GPGGA,175534.000,3748.7852,N,12217.8692,W,1,05,1.6,21.4,M,-25.1,M,,0000*53
$GPGSA,A,3,28,17,26,08,15,,,,,,,,3.5,1.6,3.1*35
$GPGSV,3,1,10,17,83,087,28,28,51,051,24,26,38,224,20,27,36,315,*70
$GPGSV,3,2,10,08,33,128,23,15,33,275,21,09,22,315,18,01,17,049,*71
$GPGSV,3,3,10,04,17,162,,11,05,039,24*76
$GPRMC,175534.000,A,3748.7852,N,12217.8692,W,1.34,148.36,120912,,,A*78
$GPVTG,148.36,T,,M,1.34,N,2.5,K,A*04
$GPGGA,175535.000,3748.7859,N,12217.8691,W,1,05,1.6,21.7,M,-25.1,M,,0000*59
$GPGSA,A,3,28,17,26,08,15,,,,,,,,3.5,1.6,3.1*35
$GPRMC,175535.000,A,3748.7859,N,12217.8691,W,0.24,117.91,120912,,,A*76
$GPVTG,117.91,T,,M,0.24,N,0.4,K,A*00
$GPGGA,175536.000,3748.7862,N,12217.8687,W,1,05,1.6,22.7,M,-25.1,M,,0000*56
$GPGSA,A,3,28,17,26,08,15,,,,,,,,3.5,1.6,3.1*35
$GPRMC,175536.000,A,3748.7862,N,12217.8687,W,0.11,131.61,120912,,,A*77
$GPVTG,131.61,T,,M,0.11,N,0.2,K,A*0B
$GPGGA,175537.000,3748.7862,N,12217.8686,W,1,05,1.6,22.5,M,-25.1,M,,0000*54
$GPGSA,A,3,28,17,26,08,15,,,,,,,,3.5,1.6,3.1*35
$GPRMC,175537.000,A,3748.7862,N,12217.8686,W,0.38,351.65,120912,,,A*7C
$GPVTG,351.65,T,,M,0.38,N,0.7,K,A*05
$GPGGA,175538.000,3748.7872,N,12217.8679,W,1,05,1.6,21.5,M,-25.1,M,,0000*59
$GPGSA,A,3,28,17,26,08,15,,,,,,,,3.5,1.6,3.1*35
$GPRMC,175538.000,A,3748.7872,N,12217.8679,W,0.65,26.19,120912,,,A*42
$GPVTG,26.19,T,,M,0.65,N,1.2,K,A*31
$GPGGA,175539.000,3748.7872,N,12217.8680,W,1,05,1.6,20.2,M,-25.1,M,,0000*58
$GPGSA,A,3,28,17,26,08,15,,,,,,,,3.5,1.6,3.1*35
$GPGSV,3,1,10,17,83,087,28,28,51,051,24,26,38,224,20,27,36,315,*70
$GPGSV,3,2,10,08,33,128,23,15,33,275,22,09,22,315,19,01,17,049,*73
$GPGSV,3,3,10,04,17,162,,11,05,039,24*76
$GPRMC,175539.000,A,3748.7872,N,12217.8680,W,0.44,102.84,120912,,,A*75
$GPVTG,102.84,T,,M,0.44,N,0.8,K,A*0A
$GPGGA,175540.000,3748.7868,N,12217.8678,W,1,05,1.6,20.1,M,-25.1,M,,0000*59
$GPGSA,A,3,28,17,26,08,15,,,,,,,,3.5,1.6,3.1*35
$GPRMC,175540.000,A,3748.7868,N,12217.8678,W,1.10,134.91,120912,,,A*76
$GPVTG,134.91,T,,M,1.10,N,2.0,K,A*01
$GPGGA,175541.000,3748.7865,N,12217.8678,W,1,05,1.6,19.6,M,-25.1,M,,0000*58
$GPGSA,A,3,28,17,26,08,15,,,,,,,,3.5,1.6,3.1*35
$GPRMC,175541.000,A,3748.7865,N,12217.8678,W,0.22,95.55,120912,,,A*48
$GPVTG,95.55,T,,M,0.22,N,0.4,K,A*35
