$ADVER,3080,2.3
$GPRMC,180457.543,A,3748.7875,N,12217.8665,W,0.16,103.25,250511,,,A*7E
$GPGGA,180458.543,3748.7890,N,12217.8672,W,1,04,2.1,-14.5,M,-25.1,M,,0000*7F
$GPGSA,A,3,23,32,31,24,,,,,,,,,4.5,2.1,4.0*30
$GPGSV,3,1,11,32,83,057,29,31,44,046,34,23,44,288,41,24,41,220,23*7B
$GPGSV,3,2,11,20,62,311,35,11,21,212,,16,19,143,,13,14,269,*7A
$GPGSV,3,3,11,25,03,032,19,14,02,075,,04,00,328,*4C
$GPRMC,180458.543,A,3748.7890,N,12217.8672,W,0.29,23.85,250511,,,A*49
$GPVTG,23.85,T,,M,0.29,N,0.5,K,A*3F
$GPGGA,180459.543,3748.7890,N,12217.8672,W,1,04,2.1,-11.5,M,-25.1,M,,0000*7B
$GPGSA,A,3,23,32,31,24,,,,,,,,,4.5,2.1,4.0*30
$GPRMC,180459.543,A,3748.7890,N,12217.8672,W,0.34,103.67,250511,,,A*7B
$GPVTG,103.67,T,,M,0.34,N,0.6,K,A*0F
$GPGGA,180500.000,3748.7889,N,12217.8671,W,1,04,2.1,-10.6,M,-25.1,M,,0000*7D
$GPGSA,A,3,23,32,31,24,,,,,,,,,4.5,2.1,4.0*30
$GPRMC,180500.000,A,3748.7889,N,12217.8671,W,0.37,115.59,250511,,,A*76
$GPVTG,115.59,T,,M,0.37,N,0.7,K,A*07
$GPGGA,180501.000,3748.7888,N,12217.8672,W,1,04,2.1,-8.1,M,-25.1,M,,0000*40
$GPGSA,A,3,23,32,31,24,,,,,,,,,4.5,2.1,4.0*30
$GPRMC,180501.000,A,3748.7888,N,12217.8672,W,0.14,130.46,250511,,,A*7D
$GPVTG,130.46,T,,M,0.14,N,0.3,K,A*0B
$GPGGA,180502.000,3748.7890,N,12217.8674,W,1,04,2.1,-6.0,M,-25.1,M,,0000*43
$GPGSA,A,3,23,32,31,24,,,,,,,,,4.5,2.1,4.0*30
$GPRMC,180502.000,A,3748.7890,N,12217.8674,W,0.21,124.58,250511,,,A*7D
$GPVTG,124.58,T,,M,0.21,N,0.4,K,A*00
$GPGGA,180503.000,3748.7892,N,12217.8673,W,1,04,2.1,-4.0,M,-25.1,M,,0000*45
$GPGSA,A,3,23,32,31,24,,,,,,,,,4.5,2.1,4.0*30
$GPGSV,3,1,12,32,83,057,32,31,44,046,34,23,44,288,34,24,41,220,29*7A
$GPGSV,3,2,12,20,62,311,29,11,21,212,22,16,19,143,28,13,14,269,24*78
$GPGSV,3,3,12,25,03,032,29,14,02,075,20,04,00,328,,48,00,000,27*77
$GPRMC,180503.000,A,3748.7892,N,12217.8673,W,0.98,85.66,250511,,,A*4C
$GPGGA,180504.000,3748.7893,N,12217.8653,W,1,04,2.1,-4.0,M,-25.1,M,,0000*41
$GPGSA,A,3,23,32,31,24,,,,,,,,,4.5,2.1,4.0*30
$GPRMC,180504.000,A,3748.7893,N,12217.8653,W,1.13,73.51,250511,,,A*47
$GPVTG,73.51,T,,M,1.13,N,2.1,K,A*3D
$GPGGA,180505.000,3748.7901,N,12217.8646,W,1,04,2.1,-5.1,M,-25.1,M,,0000*4E
$GPGSA,A,3,23,32,31,24,,,,,,,,,4.5,2.1,4.0*30
$GPRMC,180505.000,A,3748.7901,N,12217.8646,W,1.93,79.97,250511,,,A*40
$GPVTG,79.97,T,,M,1.93,N,3.6,K,A*33
$GPGGA,180506.000,3748.7904,N,12217.8636,W,1,04,2.1,-6.4,M,-25.1,M,,0000*49
$GPGSA,A,3,23,32,31,24,,,,,,,,,4.5,2.1,4.0*30
$GPRMC,180506.000,A,3748.7904,N,12217.8636,W,2.30,73.57,250511,,,A*4D
$GPVTG,73.57,T,,M,2.30,N,4.3,K,A*3D
$GPGGA,180507.000,3748.7915,N,12217.8626,W,1,04,2.1,-5.8,M,-25.1,M,,0000*46
$GPGSA,A,3,23,32,31,24,,,,,,,,,4.5,2.1,4.0*30
$GPRMC,180507.000,A,3748.7915,N,12217.8626,W,2.52,57.78,250511,,,A*42
$GPVTG,57.78,T,,M,2.52,N,4.7,K,A*36
$GPGGA,180508.000,3748.7925,N,12217.8616,W,1,04,2.1,-5.1,M,-25.1,M,,0000*40
$GPGSA,A,3,23,32,31,24,,,,,,,,,4.5,2.1,4.0*30
$GPGSV,3,1,12,32,83,057,32,20,62,311,32,23,44,288,31,31,44,046,43*73
$GPGSV,3,2,12,24,41,220,28,11,21,212,20,16,19,143,40,13,14,269,22*75
$GPGSV,3,3,12,25,03,032,39,14,02,075,27,04,00,328,,48,44,197,27*7E
$GPRMC,180508.000,A,3748.7925,N,12217.8616,W,2.41,63.40,250511,,,A*43
$GPVTG,63.40,T,,M,2.41,N,4.5,K,A*3A
$GPGGA,180509.000,3748.7929,N,12217.8606,W,1,04,2.1,-5.4,M,-25.1,M,,0000*49
$GPGSA,A,3,23,32,31,24,,,,,,,,,4.5,2.1,4.0*30
$GPRMC,180509.000,A,3748.7929,N,12217.8606,W,2.75,59.54,250511,,,A*44
$GPVTG,59.54,T,,M,2.75,N,5.1,K,A*34
$GPGGA,180510.000,3748.7934,N,12217.8596,W,1,04,2.1,-5.4,M,-25.1,M,,0000*47
$GPGSA,A,3,23,32,31,24,,,,,,,,,4.5,2.1,4.0*30
$GPRMC,180510.000,A,3748.7934,N,12217.8596,W,2.87,62.25,250511,,,A*49
$GPVTG,62.25,T,,M,2.87,N,5.3,K,A*35
$GPGGA,180511.000,3748.7938,N,12217.8587,W,1,04,2.1,-6.3,M,-25.1,M,,0000*4E
$GPGSA,A,3,23,32,31,24,,,,,,,,,4.5,2.1,4.0*30
$GPRMC,180511.000,A,3748.7938,N,12217.8587,W,2.53,58.17,250511,,,A*45
$GPVTG,58.17,T,,M,2.53,N,4.7,K,A*31
$GPGGA,180512.000,3748.7938,N,12217.8577,W,1,04,2.1,-4.4,M,-25.1,M,,0000*47
$GPGSA,A,3,23,32,31,24,,,,,,,,,4.5,2.1,4.0*30
$GPRMC,180512.000,A,3748.7938,N,12217.8577,W,2.48,62.30,250511,,,A*4F
$GPVTG,62.30,T,,M,2.48,N,4.6,K,A*36
$GPGGA,180513.000,3748.7941,N,12217.8568,W,1,04,2.1,-3.6,M,-25.1,M,,0000*43
$GPGSA,A,3,23,32,31,24,,,,,,,,,4.5,2.1,4.0*30
$GPGSV,3,1,11,32,83,057,32,20,62,311,27,23,44,288,28,31,44,046,36*7E
$GPGSV,3,2,11,24,41,220,30,11,21,212,29,16,19,143,33,13,14,269,21*71
$GPGSV,3,3,11,25,03,032,35,14,02,075,18,04,00,328,*4B
$GPRMC,180513.000,A,3748.7941,N,12217.8568,W,2.78,78.98,250511,,,A*44
$GPVTG,78.98,T,,M,2.78,N,5.1,K,A*3A
$GPGGA,180514.000,3748.7942,N,12217.8557,W,1,04,2.1,-2.8,M,-25.1,M,,0000*44
$GPGSA,A,3,23,32,31,24,,,,,,,,,4.5,2.1,4.0*30
$GPRMC,180514.000,A,3748.7942,N,12217.8557,W,2.07,60.96,250511,,,A*43
$GPVTG,60.96,T,,M,2.07,N,3.8,K,A*3A
$GPGGA,180515.000,3748.7938,N,12217.8543,W,1,04,2.1,-2.5,M,-25.1,M,,0000*40
$GPGSA,A,3,23,32,31,24,,,,,,,,,4.5,2.1,4.0*30
$GPRMC,180515.000,A,3748.7938,N,12217.8543,W,2.99,92.53,250511,,,A*49
$GPVTG,92.53,T,,M,2.99,N,5.5,K,A*32
$GPGGA,180516.000,3748.7933,N,12217.8526,W,1,04,2.1,-2.3,M,-25.1,M,,0000*4D
$GPGSA,A,3,23,32,31,24,,,,,,,,,4.5,2.1,4.0*30
$GPRMC,180516.000,A,3748.7933,N,12217.8526,W,2.88,95.08,250511,,,A*4B
$GPVTG,95.08,T,,M,2.88,N,5.3,K,A*3D
$GPGGA,180517.000,3748.7932,N,12217.8516,W,1,04,2.1,-2.3,M,-25.1,M,,0000*4E
$GPGSA,A,3,23,32,31,24,,,,,,,,,4.5,2.1,4.0*30
$GPRMC,180517.000,A,3748.7932,N,12217.8516,W,2.23,81.51,250511,,,A*40
$GPVTG,81.51,T,,M,2.23,N,4.1,K,A*36
$GPGGA,180518.000,3748.7931,N,12217.8505,W,1,04,2.1,-2.5,M,-25.1,M,,0000*46
$GPGSA,A,3,23,32,31,24,,,,,,,,,4.5,2.1,4.0*30
$GPGSV,3,1,12,32,83,057,33,20,62,311,28,23,44,288,26,31,44,046,41*7D
$GPGSV,3,2,12,24,41,220,35,11,21,212,35,16,19,143,43,13,14,269,25*79
$GPGSV,3,3,12,25,03,032,33,14,02,075,21,04,00,328,,48,44,197,37*73
$GPRMC,180518.000,A,3748.7931,N,12217.8505,W,2.06,64.34,250511,,,A*41
$GPGGA,180519.000,3748.7927,N,12217.8490,W,1,04,2.1,-3.6,M,-25.1,M,,0000*4F
$GPGSA,A,3,23,32,31,24,,,,,,,,,4.5,2.1,4.0*30
$GPRMC,180519.000,A,3748.7927,N,12217.8490,W,1.84,71.07,250511,,,A*47
$GPVTG,71.07,T,,M,1.84,N,3.4,K,A*36
$GPGGA,180520.000,3748.7927,N,12217.8482,W,1,04,2.1,-4.5,M,-25.1,M,,0000*42
$GPGSA,A,3,23,32,31,24,,,,,,,,,4.5,2.1,4.0*30
$GPRMC,180520.000,A,3748.7927,N,12217.8482,W,1.86,48.22,250511,,,A*41
$GPVTG,48.22,T,,M,1.86,N,3.4,K,A*39
$GPGGA,180521.000,3748.7926,N,12217.8472,W,1,04,2.1,-5.2,M,-25.1,M,,0000*4B
$GPGSA,A,3,23,32,31,24,,,,,,,,,4.5,2.1,4.0*30
$GPRMC,180521.000,A,3748.7926,N,12217.8472,W,1.54,48.52,250511,,,A*46
$GPVTG,48.52,T,,M,1.54,N,2.9,K,A*3D
$GPGGA,180522.000,3748.7907,N,12217.8441,W,1,04,2.1,-5.7,M,-25.1,M,,0000*4E
$GPGSA,A,3,23,32,31,24,,,,,,,,,4.5,2.1,4.0*30
$GPRMC,180522.000,A,3748.7907,N,12217.8441,W,1.25,70.78,250511,,,A*43
$GPVTG,70.78,T,,M,1.25,N,2.3,K,A*32
$GPGGA,180523.000,3748.7908,N,12217.8436,W,1,04,2.1,-6.3,M,-25.1,M,,0000*47
$GPGSA,A,3,23,32,31,24,,,,,,,,,4.5,2.1,4.0*30
$GPGSV,3,1,12,32,83,057,32,20,62,311,28,23,44,288,31,31,44,046,36*7A
$GPGSV,3,2,12,24,41,220,40,11,21,212,40,16,19,143,43,13,14,269,32*7F
$GPGSV,3,3,12,25,03,032,24,14,02,075,20,04,00,328,,48,44,197,43*77
$GPRMC,180523.000,A,3748.7908,N,12217.8436,W,1.30,73.83,250511,,,A*4E
$GPVTG,73.83,T,,M,1.30,N,2.4,K,A*36
$GPGGA,180524.000,3748.7911,N,12217.8434,W,1,04,2.1,-6.9,M,-25.1,M,,0000*40
$GPGSA,A,3,23,32,31,24,,,,,,,,,4.5,2.1,4.0*30
$GPRMC,180524.000,A,3748.7911,N,12217.8434,W,1.23,84.40,250511,,,A*46
$GPVTG,84.40,T,,M,1.23,N,2.3,K,A*34
$GPGGA,180525.000,3748.7910,N,12217.8430,W,1,04,2.1,-7.3,M,-25.1,M,,0000*4F
$GPGSA,A,3,23,32,31,24,,,,,,,,,4.5,2.1,4.0*30
$GPRMC,180525.000,A,3748.7910,N,12217.8430,W,1.65,115.51,250511,,,A*79
$GPVTG,115.51,T,,M,1.65,N,3.1,K,A*0C
$GPGGA,180526.000,3748.7911,N,12217.8428,W,1,04,2.1,-7.6,M,-25.1,M,,0000*41
$GPGSA,A,3,23,32,31,24,,,,,,,,,4.5,2.1,4.0*30
$GPRMC,180526.000,A,3748.7911,N,12217.8428,W,1.76,113.68,250511,,,A*7C
$GPVTG,113.68,T,,M,1.76,N,3.3,K,A*00
$GPGGA,180527.000,3748.7909,N,12217.8427,W,1,04,2.1,-6.3,M,-25.1,M,,0000*42
$GPGSA,A,3,23,32,31,24,,,,,,,,,4.5,2.1,4.0*30
$GPRMC,180527.000,A,3748.7909,N,12217.8427,W,2.51,120.72,250511,,,A*76
$GPVTG,120.72,T,,M,2.51,N,4.7,K,A*0E
$GPGGA,180528.000,3748.7907,N,12217.8419,W,1,04,2.1,-5.9,M,-25.1,M,,0000*47
$GPGSA,A,3,23,32,31,24,,,,,,,,,4.5,2.1,4.0*30
$GPGSV,3,1,12,32,83,057,31,20,62,311,28,23,44,288,32,31,44,046,31*7D
$GPGSV,3,2,12,24,41,220,41,11,21,212,41,16,19,143,37,13,14,269,32*7C
$GPGSV,3,3,12,25,03,032,22,14,02,075,20,04,00,328,,48,44,197,43*71
$GPRMC,180528.000,A,3748.7907,N,12217.8419,W,2.27,115.18,250511,,,A*71
$GPVTG,115.18,T,,M,2.27,N,4.2,K,A*00
$GPGGA,180529.000,3748.7909,N,12217.8419,W,1,04,2.1,-6.2,M,-25.1,M,,0000*40
$GPGSA,A,3,23,32,31,24,,,,,,,,,4.5,2.1,4.0*30
$GPRMC,180529.000,A,3748.7909,N,12217.8419,W,1.19,84.09,250511,,,A*49
$GPVTG,84.09,T,,M,1.19,N,2.2,K,A*31
$GPGGA,180530.000,3748.7911,N,12217.8416,W,1,04,2.1,-7.2,M,-25.1,M,,0000*4F
$GPGSA,A,3,23,32,31,24,,,,,,,,,4.5,2.1,4.0*30
$GPRMC,180530.000,A,3748.7911,N,12217.8416,W,1.59,92.18,250511,,,A*44
$GPVTG,92.18,T,,M,1.59,N,2.9,K,A*39
$GPGGA,180531.000,3748.7907,N,12217.8406,W,1,04,2.1,-5.7,M,-25.1,M,,0000*4F
$GPGSA,A,3,23,32,31,24,,,,,,,,,4.5,2.1,4.0*30
$GPRMC,180531.000,A,3748.7907,N,12217.8406,W,1.30,87.35,250511,,,A*47
$GPVTG,87.35,T,,M,1.30,N,2.4,K,A*30
$GPGGA,180532.000,3748.7904,N,12217.8399,W,1,04,2.1,-5.4,M,-25.1,M,,0000*4D
$GPGSA,A,3,23,32,31,24,,,,,,,,,4.5,2.1,4.0*30
$GPRMC,180532.000,A,3748.7904,N,12217.8399,W,0.66,82.91,250511,,,A*4F
$GPVTG,82.91,T,,M,0.66,N,1.2,K,A*3C
$GPGGA,180533.000,3748.7901,N,12217.8394,W,1,05,1.5,-5.1,M,-25.1,M,,0000*47
$GPGSA,A,3,23,32,16,31,24,,,,,,,,3.3,1.5,2.9*3E
$GPGSV,3,1,12,32,83,057,31,20,62,311,27,23,44,288,26,31,44,046,36*70
$GPGSV,3,2,12,24,41,220,39,11,21,212,39,16,19,143,44,13,14,269,27*7C
$GPGSV,3,3,12,25,03,032,21,14,02,075,20,04,00,328,,48,44,197,41*70
$GPRMC,180533.000,A,3748.7901,N,12217.8394,W,2.20,125.82,250511,,,A*78
$GPVTG,125.82,T,,M,2.20,N,4.1,K,A*04
$GPGGA,180534.000,3748.7895,N,12217.8384,W,1,05,1.5,-4.7,M,-25.1,M,,0000*4A
$GPGSA,A,3,23,32,16,31,24,,,,,,,,3.3,1.5,2.9*3E
$GPRMC,180534.000,A,3748.7895,N,12217.8384,W,2.34,120.90,250511,,,A*71
$GPVTG,120.90,T,,M,2.34,N,4.3,K,A*05
$GPGGA,180535.000,3748.7886,N,12217.8368,W,1,05,1.5,-3.8,M,-25.1,M,,0000*43
$GPGSA,A,3,23,32,16,31,24,,,,,,,,3.3,1.5,2.9*3E
$GPRMC,180535.000,A,3748.7886,N,12217.8368,W,2.30,116.31,250511,,,A*7A
$GPVTG,116.31,T,,M,2.30,N,4.3,K,A*0F
$GPGGA,180536.000,3748.7880,N,12217.8356,W,1,05,1.5,-3.0,M,-25.1,M,,0000*43
$GPGSA,A,3,23,32,16,31,24,,,,,,,,3.3,1.5,2.9*3E
$GPRMC,180536.000,A,3748.7880,N,12217.8356,W,2.24,114.10,250511,,,A*76
$GPVTG,114.10,T,,M,2.24,N,4.2,K,A*0A
$GPGGA,180537.000,3748.7876,N,12217.8347,W,1,05,1.5,-1.7,M,-25.1,M,,0000*4E
$GPGSA,A,3,23,32,16,31,24,,,,,,,,3.3,1.5,2.9*3E
$GPRMC,180537.000,A,3748.7876,N,12217.8347,W,2.27,128.40,250511,,,A*77
$GPVTG,128.40,T,,M,2.27,N,4.2,K,A*03
$GPGGA,180538.000,3748.7874,N,12217.8345,W,1,05,1.5,-2.5,M,-25.1,M,,0000*40
$GPGSA,A,3,23,32,16,31,24,,,,,,,,3.3,1.5,2.9*3E
$GPGSV,3,1,12,32,83,059,29,20,62,311,27,23,44,288,27,31,44,046,33*73
$GPGSV,3,2,12,24,41,220,33,11,21,212,37,16,19,142,35,13,14,269,28*70
$GPGSV,3,3,12,25,03,032,29,14,02,075,19,04,00,328,,48,44,197,34*70
$GPRMC,180538.000,A,3748.7874,N,12217.8345,W,1.93,125.22,250511,,,A*7D
$GPVTG,125.22,T,,M,1.93,N,3.6,K,A*05
$GPGGA,180539.000,3748.7871,N,12217.8341,W,1,05,1.5,-2.4,M,-25.1,M,,0000*41
$GPGSA,A,3,23,32,16,31,24,,,,,,,,3.3,1.5,2.9*3E
$GPRMC,180539.000,A,3748.7871,N,12217.8341,W,2.14,149.58,250511,,,A*76
$GPVTG,149.58,T,,M,2.14,N,4.0,K,A*0F
$GPGGA,180540.000,3748.7866,N,12217.8337,W,1,05,1.5,-3.0,M,-25.1,M,,0000*4D
$GPGSA,A,3,23,32,16,31,24,,,,,,,,3.3,1.5,2.9*3E
$GPRMC,180540.000,A,3748.7866,N,12217.8337,W,1.87,135.87,250511,,,A*7F
$GPVTG,135.87,T,,M,1.87,N,3.5,K,A*0D
$GPGGA,180541.000,3748.7860,N,12217.8323,W,1,05,1.5,-1.2,M,-25.1,M,,0000*4F
$GPGSA,A,3,23,32,16,31,24,,,,,,,,3.3,1.5,2.9*3E
$GPRMC,180541.000,A,3748.7860,N,12217.8323,W,2.63,115.81,250511,,,A*70
$GPVTG,115.81,T,,M,2.63,N,4.9,K,A*0B
$GPGGA,180542.000,3748.7860,N,12217.8317,W,1,05,1.5,-2.1,M,-25.1,M,,0000*4B
$GPGSA,A,3,23,32,16,31,24,,,,,,,,3.3,1.5,2.9*3E
$GPRMC,180542.000,A,3748.7860,N,12217.8317,W,2.53,119.55,250511,,,A*72
$GPVTG,119.55,T,,M,2.53,N,4.7,K,A*03
$GPGGA,180543.000,3748.7856,N,12217.8308,W,1,05,1.5,-1.9,M,-25.1,M,,0000*4A
$GPGSA,A,3,23,32,16,31,24,,,,,,,,3.3,1.5,2.9*3E
$GPGSV,3,1,12,32,83,059,32,20,62,311,28,23,44,288,26,31,44,046,39*7D
$GPGSV,3,2,12,24,41,220,33,11,21,212,36,16,19,142,43,13,14,269,22*7A
$GPGSV,3,3,12,25,03,032,24,14,02,075,18,04,00,328,,48,44,197,36*7E
$GPRMC,180543.000,A,3748.7856,N,12217.8308,W,2.26,126.88,250511,,,A*76
$GPVTG,126.88,T,,M,2.26,N,4.2,K,A*08
$GPGGA,180544.000,3748.7853,N,12217.8300,W,1,05,1.5,-2.0,M,-25.1,M,,0000*4A
$GPGSA,A,3,23,32,16,31,24,,,,,,,,3.3,1.5,2.9*3E
$GPRMC,180544.000,A,3748.7853,N,12217.8300,W,2.34,117.98,250511,,,A*7C
$GPVTG,117.98,T,,M,2.34,N,4.3,K,A*09
$GPGGA,180545.000,3748.7848,N,12217.8289,W,1,05,1.5,-1.4,M,-25.1,M,,0000*46
$GPGSA,A,3,23,32,16,31,24,,,,,,,,3.3,1.5,2.9*3E
$GPRMC,180545.000,A,3748.7848,N,12217.8289,W,2.81,122.48,250511,,,A*72
$GPVTG,122.48,T,,M,2.81,N,5.2,K,A*0C
$GPGGA,180546.000,3748.7840,N,12217.8275,W,1,05,1.5,0.2,M,-25.1,M,,0000*64
$GPGSA,A,3,23,32,16,31,24,,,,,,,,3.3,1.5,2.9*3E
$GPRMC,180546.000,A,3748.7840,N,12217.8275,W,2.78,124.69,250511,,,A*79
$GPVTG,124.69,T,,M,2.78,N,5.1,K,A*0C
$GPGGA,180547.000,3748.7833,N,12217.8264,W,1,05,1.5,1.1,M,-25.1,M,,0000*63
$GPGSA,A,3,23,32,16,31,24,,,,,,,,3.3,1.5,2.9*3E
$GPRMC,180547.000,A,3748.7833,N,12217.8264,W,2.75,129.36,250511,,,A*76
$GPVTG,129.36,T,,M,2.75,N,5.1,K,A*06
$GPGGA,180548.000,3748.7825,N,12217.8251,W,1,05,1.5,2.6,M,-25.1,M,,0000*69
$GPGSA,A,3,23,32,16,31,24,,,,,,,,3.3,1.5,2.9*3E
$GPGSV,3,1,12,32,83,060,32,20,63,311,27,23,44,288,25,31,44,046,38*7B
$GPGSV,3,2,12,24,40,220,33,11,21,212,39,16,19,142,37,13,14,269,24*71
$GPGSV,3,3,12,25,03,032,22,14,02,075,17,04,00,328,,48,44,197,34*75
$GPRMC,180548.000,A,3748.7825,N,12217.8251,W,3.01,126.36,250511,,,A*75
$GPGGA,180549.000,3748.7820,N,12217.8241,W,1,05,1.5,3.3,M,-25.1,M,,0000*68
$GPGSA,A,3,23,32,16,31,24,,,,,,,,3.3,1.5,2.9*3E
$GPRMC,180549.000,A,3748.7820,N,12217.8241,W,2.38,127.88,250511,,,A*7F
$GPVTG,127.88,T,,M,2.38,N,4.4,K,A*00
$GPGGA,180550.000,3748.7818,N,12217.8235,W,1,05,1.5,3.0,M,-25.1,M,,0000*6B
$GPGSA,A,3,23,32,16,31,24,,,,,,,,3.3,1.5,2.9*3E
$GPRMC,180550.000,A,3748.7818,N,12217.8235,W,2.33,117.67,250511,,,A*76
$GPVTG,117.67,T,,M,2.33,N,4.3,K,A*0E
$GPGGA,180551.000,3748.7810,N,12217.8222,W,1,05,1.5,4.5,M,-25.1,M,,0000*66
$GPGSA,A,3,23,32,16,31,24,,,,,,,,3.3,1.5,2.9*3E
$GPRMC,180551.000,A,3748.7810,N,12217.8222,W,2.20,127.25,250511,,,A*7E
$GPVTG,127.25,T,,M,2.20,N,4.1,K,A*0B
$GPGGA,180552.000,3748.7805,N,12217.8215,W,1,05,1.5,4.7,M,-25.1,M,,0000*67
$GPGSA,A,3,23,32,16,31,24,,,,,,,,3.3,1.5,2.9*3E
$GPRMC,180552.000,A,3748.7805,N,12217.8215,W,1.84,143.59,250511,,,A*79
$GPVTG,143.59,T,,M,1.84,N,3.4,K,A*0D
$GPGGA,180553.000,3748.7801,N,12217.8208,W,1,05,1.5,4.6,M,-25.1,M,,0000*6F
$GPGSA,A,3,23,32,16,31,24,,,,,,,,3.3,1.5,2.9*3E
$GPGSV,3,1,12,32,83,060,32,20,63,311,27,23,44,288,25,31,44,046,38*7B
$GPGSV,3,2,12,24,40,220,31,11,21,212,34,16,19,142,41,13,14,269,24*7F
$GPGSV,3,3,12,25,03,032,21,14,02,075,,04,00,328,,48,44,197,36*72
$GPRMC,180553.000,A,3748.7801,N,12217.8208,W,2.46,126.91,250511,,,A*7A
$GPVTG,126.91,T,,M,2.46,N,4.6,K,A*02
$GPGGA,180554.000,3748.7796,N,12217.8198,W,1,05,1.5,5.7,M,-25.1,M,,0000*63
$GPGSA,A,3,23,32,16,31,24,,,,,,,,3.3,1.5,2.9*3E
$GPRMC,180554.000,A,3748.7796,N,12217.8198,W,2.37,120.12,250511,,,A*7D
$GPVTG,120.12,T,,M,2.37,N,4.4,K,A*0B
$GPGGA,180555.000,3748.7790,N,12217.8184,W,1,05,1.5,6.3,M,-25.1,M,,0000*6E
$GPGSA,A,3,23,32,16,31,24,,,,,,,,3.3,1.5,2.9*3E
$GPRMC,180555.000,A,3748.7790,N,12217.8184,W,2.54,120.66,250511,,,A*71
$GPVTG,120.66,T,,M,2.54,N,4.7,K,A*0E
$GPGGA,180556.000,3748.7789,N,12217.8178,W,1,05,1.5,5.5,M,-25.1,M,,0000*63
$GPGSA,A,3,23,32,16,31,24,,,,,,,,3.3,1.5,2.9*3E
$GPRMC,180556.000,A,3748.7789,N,12217.8178,W,2.51,118.11,250511,,,A*77
$GPVTG,118.11,T,,M,2.51,N,4.7,K,A*00
$GPGGA,180557.000,3748.7788,N,12217.8174,W,1,05,1.5,4.9,M,-25.1,M,,0000*62
$GPGSA,A,3,23,32,16,31,24,,,,,,,,3.3,1.5,2.9*3E
$GPRMC,180557.000,A,3748.7788,N,12217.8174,W,2.21,130.14,250511,,,A*73
$GPVTG,130.14,T,,M,2.21,N,4.1,K,A*0E
$GPGGA,180558.000,3748.7782,N,12217.8164,W,1,05,1.5,5.8,M,-25.1,M,,0000*66
$GPGSA,A,3,23,32,16,31,24,,,,,,,,3.3,1.5,2.9*3E
$GPGSV,3,1,12,32,83,060,28,20,63,311,26,23,44,288,25,31,44,046,38*71
$GPGSV,3,2,12,24,40,220,33,11,21,212,37,16,19,142,33,13,14,269,24*7B
$GPGSV,3,3,12,25,03,032,21,14,02,075,,04,00,328,,48,44,197,38*7C
$GPRMC,180558.000,A,3748.7782,N,12217.8164,W,2.20,131.69,250511,,,A*7D
$GPVTG,131.69,T,,M,2.20,N,4.1,K,A*04
$GPGGA,180559.000,3748.7781,N,12217.8162,W,1,05,1.5,5.1,M,-25.1,M,,0000*6B
$GPGSA,A,3,23,32,16,31,24,,,,,,,,3.3,1.5,2.9*3E
$GPRMC,180559.000,A,3748.7781,N,12217.8162,W,1.92,122.98,250511,,,A*7F
$GPVTG,122.98,T,,M,1.92,N,3.6,K,A*02
$GPGGA,180600.000,3748.7778,N,12217.8156,W,1,05,1.5,4.9,M,-25.1,M,,0000*6C
$GPGSA,A,3,23,32,16,31,24,,,,,,,,3.3,1.5,2.9*3E
$GPRMC,180600.000,A,3748.7778,N,12217.8156,W,2.48,116.51,250511,,,A*77
$GPVTG,116.51,T,,M,2.48,N,4.6,K,A*03
$GPGGA,180601.000,3748.7772,N,12217.8144,W,1,05,1.5,5.5,M,-25.1,M,,0000*69
$GPGSA,A,3,23,32,16,31,24,,,,,,,,3.3,1.5,2.9*3E
$GPRMC,180601.000,A,3748.7772,N,12217.8144,W,2.67,121.61,250511,,,A*75
$GPVTG,121.61,T,,M,2.67,N,4.9,K,A*06
$GPGGA,180602.000,3748.7765,N,12217.8132,W,1,05,1.5,6.5,M,-25.1,M,,0000*6E
$GPGSA,A,3,23,32,16,31,24,,,,,,,,3.3,1.5,2.9*3E
$GPRMC,180602.000,A,3748.7765,N,12217.8132,W,2.58,121.46,250511,,,A*78
$GPVTG,121.46,T,,M,2.58,N,4.8,K,A*0E
$GPGGA,180603.000,3748.7764,N,12217.8127,W,1,05,1.5,5.7,M,-25.1,M,,0000*6B
$GPGSA,A,3,23,32,16,31,24,,,,,,,,3.3,1.5,2.9*3E
$GPGSV,3,1,12,32,83,060,30,20,63,311,26,23,44,288,25,31,44,046,34*74
$GPGSV,3,2,12,24,40,220,34,11,21,212,37,16,19,142,41,13,14,269,26*7B
$GPGSV,3,3,12,25,03,032,20,14,02,075,,04,00,328,,48,44,197,36*73
$GPVTG,121.17,T,,M,2.32,N,4.3,K,A*0D
$GPGGA,180604.000,3748.7761,N,12217.8120,W,1,05,1.5,5.3,M,-25.1,M,,0000*6A
$GPGSA,A,3,23,32,16,31,24,,,,,,,,3.3,1.5,2.9*3E
$GPRMC,180604.000,A,3748.7761,N,12217.8120,W,2.31,122.55,250511,,,A*77
$GPVTG,122.55,T,,M,2.31,N,4.3,K,A*0B
$GPGGA,180605.000,3748.7756,N,12217.8109,W,1,05,1.5,5.7,M,-25.1,M,,0000*60
$GPGSA,A,3,23,32,16,31,24,,,,,,,,3.3,1.5,2.9*3E
$GPRMC,180605.000,A,3748.7756,N,12217.8109,W,2.57,123.70,250511,,,A*7F
$GPVTG,123.70,T,,M,2.57,N,4.8,K,A*06
$GPGGA,180606.000,3748.7751,N,12217.8098,W,1,05,1.5,6.3,M,-25.1,M,,0000*6A
$GPGSA,A,3,23,32,16,31,24,,,,,,,,3.3,1.5,2.9*3E
$GPRMC,180606.000,A,3748.7751,N,12217.8098,W,2.62,122.98,250511,,,A*73
$GPVTG,122.98,T,,M,2.62,N,4.8,K,A*07
$GPGGA,180607.000,3748.7746,N,12217.8086,W,1,05,1.5,6.8,M,-25.1,M,,0000*69
$GPGSA,A,3,23,32,16,31,24,,,,,,,,3.3,1.5,2.9*3E
$GPRMC,180607.000,A,3748.7746,N,12217.8086,W,2.63,120.08,250511,,,A*71
$GPVTG,120.08,T,,M,2.63,N,4.9,K,A*0C
$GPGGA,180608.000,3748.7742,N,12217.8077,W,1,05,1.5,6.7,M,-25.1,M,,0000*63
$GPGSA,A,3,23,32,16,31,24,,,,,,,,3.3,1.5,2.9*3E
$GPGSV,3,1,12,32,83,062,30,20,63,311,26,23,44,288,25,31,43,046,35*70
$GPGSV,3,2,12,24,40,220,35,11,20,212,38,16,19,142,40,13,14,269,26*75
$GPGSV,3,3,12,25,03,032,18,14,01,075,,04,00,328,,48,44,197,37*7A
$GPRMC,180608.000,A,3748.7742,N,12217.8077,W,2.63,124.96,250511,,,A*77
$GPVTG,124.96,T,,M,2.63,N,4.9,K,A*0F
$GPGGA,180609.000,3748.7738,N,12217.8071,W,1,05,1.5,6.4,M,-25.1,M,,0000*6A
$GPGSA,A,3,23,32,16,31,24,,,,,,,,3.3,1.5,2.9*3E
$GPRMC,180609.000,A,3748.7738,N,12217.8071,W,2.47,126.71,250511,,,A*70
$GPVTG,126.71,T,,M,2.47,N,4.6,K,A*0D
$GPGGA,180610.000,3748.7731,N,12217.8057,W,1,05,1.5,7.5,M,-25.1,M,,0000*6F
$GPGSA,A,3,23,32,16,31,24,,,,,,,,3.3,1.5,2.9*3E
$GPRMC,180610.000,A,3748.7731,N,12217.8057,W,2.67,125.08,250511,,,A*7A
$GPVTG,125.08,T,,M,2.67,N,4.9,K,A*0D
$GPGGA,180611.000,3748.7726,N,12217.8047,W,1,05,1.5,7.8,M,-25.1,M,,0000*64
$GPGSA,A,3,23,32,16,31,24,,,,,,,,3.3,1.5,2.9*3E
$GPRMC,180611.000,A,3748.7726,N,12217.8047,W,2.65,123.87,250511,,,A*7F
$GPVTG,123.87,T,,M,2.65,N,4.9,K,A*0E
$GPGGA,180612.000,3748.7719,N,12217.8034,W,1,05,1.5,9.0,M,-25.1,M,,0000*69
$GPGSA,A,3,23,32,16,31,24,,,,,,,,3.3,1.5,2.9*3E
$GPRMC,180612.000,A,3748.7719,N,12217.8034,W,2.75,120.54,250511,,,A*78
$GPVTG,120.54,T,,M,2.75,N,5.1,K,A*0B
$GPGGA,180613.000,3748.7712,N,12217.8022,W,1,05,1.5,9.9,M,-25.1,M,,0000*6D
$GPGSA,A,3,23,32,16,31,24,,,,,,,,3.3,1.5,2.9*3E
$GPGSV,3,1,12,32,83,062,31,20,63,311,26,23,44,288,23,31,43,046,36*74
$GPGSV,3,2,12,24,40,220,35,11,20,212,39,16,19,142,40,13,14,269,25*77
$GPGSV,3,3,12,25,03,032,18,14,01,075,16,04,00,328,,48,44,197,37*7D
$GPRMC,180613.000,A,3748.7712,N,12217.8022,W,2.91,124.88,250511,,,A*7A
$GPVTG,124.88,T,,M,2.91,N,5.4,K,A*01
$GPGGA,180614.000,3748.7707,N,12217.8013,W,1,05,1.5,10.0,M,-25.1,M,,0000*5D
$GPGSA,A,3,23,32,16,31,24,,,,,,,,3.3,1.5,2.9*3E
$GPRMC,180614.000,A,3748.7707,N,12217.8013,W,2.83,127.60,250511,,,A*7D
$GPVTG,127.60,T,,M,2.83,N,5.2,K,A*01
$GPGGA,180615.000,3748.7701,N,12217.8002,W,1,05,1.5,10.8,M,-25.1,M,,0000*52
$GPGSA,A,3,23,32,16,31,24,,,,,,,,3.3,1.5,2.9*3E
$GPRMC,180615.000,A,3748.7701,N,12217.8002,W,2.83,125.70,250511,,,A*79
$GPVTG,125.70,T,,M,2.83,N,5.2,K,A*02
$GPGGA,180616.000,3748.7700,N,12217.7999,W,1,05,1.5,8.9,M,-25.1,M,,0000*6C
$GPGSA,A,3,23,32,16,31,24,,,,,,,,3.3,1.5,2.9*3E
$GPRMC,180616.000,A,3748.7700,N,12217.7999,W,2.67,125.87,250511,,,A*7D
$GPVTG,125.87,T,,M,2.67,N,4.9,K,A*0A
$GPGGA,180617.000,3748.7690,N,12217.7985,W,1,05,1.5,10.9,M,-25.1,M,,0000*51
$GPGSA,A,3,23,32,16,31,24,,,,,,,,3.3,1.5,2.9*3E
$GPRMC,180617.000,A,3748.7690,N,12217.7985,W,2.74,129.95,250511,,,A*74
$GPVTG,129.95,T,,M,2.74,N,5.1,K,A*0E
$GPGGA,180618.000,3748.7686,N,12217.7978,W,1,05,1.5,11.2,M,-25.1,M,,0000*51
$GPGSA,A,3,23,32,16,31,24,,,,,,,,3.3,1.5,2.9*3E
$GPGSV,3,1,12,32,83,062,26,20,63,311,25,23,44,289,27,31,43,046,35*77
$GPGSV,3,2,12,24,40,220,31,11,20,212,32,16,19,142,36,13,14,269,26*7A
$GPGSV,3,3,12,25,03,032,18,14,01,075,14,04,00,328,,48,44,197,28*71
$GPRMC,180618.000,A,3748.7686,N,12217.7978,W,2.42,131.31,250511,,,A*7C
$GPGGA,180619.000,3748.7684,N,12217.7975,W,1,05,1.5,10.8,M,-25.1,M,,0000*54
$GPGSA,A,3,23,32,16,31,24,,,,,,,,3.3,1.5,2.9*3E
$GPRMC,180619.000,A,3748.7684,N,12217.7975,W,2.53,123.32,250511,,,A*72
$GPVTG,123.32,T,,M,2.53,N,4.7,K,A*0B
$GPGGA,180620.000,3748.7678,N,12217.7966,W,1,05,1.5,11.9,M,-25.1,M,,0000*5F
$GPGSA,A,3,23,32,16,31,24,,,,,,,,3.3,1.5,2.9*3E
$GPRMC,180620.000,A,3748.7678,N,12217.7966,W,2.50,119.28,250511,,,A*78
$GPVTG,119.28,T,,M,2.50,N,4.6,K,A*0B
$GPGGA,180621.000,3748.7677,N,12217.7961,W,1,05,1.5,11.1,M,-25.1,M,,0000*5E
$GPGSA,A,3,23,32,16,31,24,,,,,,,,3.3,1.5,2.9*3E
$GPRMC,180621.000,A,3748.7677,N,12217.7961,W,2.40,117.83,250511,,,A*7F
$GPVTG,117.83,T,,M,2.40,N,4.4,K,A*07
$GPGGA,180622.000,3748.7676,N,12217.7958,W,1,05,1.5,9.4,M,-25.1,M,,0000*6A
$GPGSA,A,3,23,32,16,31,24,,,,,,,,3.3,1.5,2.9*3E
$GPRMC,180622.000,A,3748.7676,N,12217.7958,W,2.65,120.23,250511,,,A*7E
$GPVTG,120.23,T,,M,2.65,N,4.9,K,A*03
$GPGGA,180623.000,3748.7673,N,12217.7953,W,1,05,1.5,8.4,M,-25.1,M,,0000*64
$GPGSA,A,3,23,32,16,31,24,,,,,,,,3.3,1.5,2.9*3E
$GPGSV,3,1,12,32,83,062,31,20,63,311,27,23,44,289,27,31,43,046,30*76
$GPGSV,3,2,12,24,40,220,37,11,20,212,39,16,19,142,37,13,14,269,25*75
$GPGSV,3,3,12,25,03,032,19,14,01,075,,04,00,328,,48,44,197,38*74
$GPRMC,180623.000,A,3748.7673,N,12217.7953,W,2.40,123.31,250511,,,A*76
$GPVTG,123.31,T,,M,2.40,N,4.4,K,A*09
$GPGGA,180624.000,3748.7669,N,12217.7946,W,1,05,1.5,8.1,M,-25.1,M,,0000*69
$GPGSA,A,3,23,32,16,31,24,,,,,,,,3.3,1.5,2.9*3E
$GPRMC,180624.000,A,3748.7669,N,12217.7946,W,2.39,122.64,250511,,,A*71
$GPVTG,122.64,T,,M,2.39,N,4.4,K,A*06
$GPGGA,180625.000,3748.7663,N,12217.7937,W,1,05,1.5,8.2,M,-25.1,M,,0000*67
$GPGSA,A,3,23,32,16,31,24,,,,,,,,3.3,1.5,2.9*3E
$GPRMC,180625.000,A,3748.7663,N,12217.7937,W,2.32,123.78,250511,,,A*7B
$GPVTG,123.78,T,,M,2.32,N,4.3,K,A*06
$GPGGA,180626.000,3748.7657,N,12217.7927,W,1,05,1.5,8.7,M,-25.1,M,,0000*67
$GPGSA,A,3,23,32,16,31,24,,,,,,,,3.3,1.5,2.9*3E
$GPRMC,180626.000,A,3748.7657,N,12217.7927,W,2.40,127.22,250511,,,A*70
$GPVTG,127.22,T,,M,2.40,N,4.5,K,A*0E
$GPGGA,180627.000,3748.7652,N,12217.7920,W,2,05,1.5,8.4,M,-25.1,M,,0000*64
$GPGSA,A,3,23,32,16,31,24,,,,,,,,3.3,1.5,2.9*3E
$GPRMC,180627.000,A,3748.7652,N,12217.7920,W,2.39,126.44,250511,,,D*79
$GPVTG,126.44,T,,M,2.39,N,4.4,K,D*05
$GPGGA,180628.000,3748.7648,N,12217.7913,W,2,05,1.5,8.3,M,-25.1,M,2.8,0000*43
$GPGSA,A,3,23,32,16,31,24,,,,,,,,3.3,1.5,2.9*3E
$GPGSV,3,1,12,32,83,062,30,20,63,311,28,23,44,289,21,31,43,046,31*7F
$GPGSV,3,2,12,24,40,220,36,11,20,212,36,16,19,142,37,13,14,269,22*7C
$GPGSV,3,3,12,25,03,032,18,14,01,075,,04,00,328,,48,44,197,38*75
$GPRMC,180628.000,A,3748.7648,N,12217.7913,W,2.28,127.59,250511,,,D*70
$GPVTG,127.59,T,,M,2.28,N,4.2,K,D*0E
$GPGGA,180629.000,3748.7643,N,12217.7905,W,2,05,1.5,7.3,M,-25.1,M,3.8,0000*40
$GPGSA,A,3,23,32,16,31,24,,,,,,,,3.3,1.5,2.9*3E
$GPRMC,180629.000,A,3748.7643,N,12217.7905,W,2.26,122.31,250511,,,D*78
$GPVTG,122.31,T,,M,2.26,N,4.2,K,D*0B
$GPGGA,180630.000,3748.7639,N,12217.7896,W,2,05,1.5,7.0,M,-25.1,M,,0000*68
$GPGSA,A,3,23,32,16,31,24,,,,,,,,3.3,1.5,2.9*3E
$GPRMC,180630.000,A,3748.7639,N,12217.7896,W,2.32,112.59,250511,,,D*7E
$GPVTG,112.59,T,,M,2.32,N,4.3,K,D*02
$GPGGA,180631.000,3748.7635,N,12217.7886,W,2,05,1.5,7.6,M,-25.1,M,,0000*62
$GPGSA,A,3,23,32,16,31,24,,,,,,,,3.3,1.5,2.9*3E
$GPRMC,180631.000,A,3748.7635,N,12217.7886,W,2.01,98.55,250511,,,D*4D
$GPVTG,98.55,T,,M,2.01,N,3.7,K,D*3E
$GPGGA,180632.000,3748.7634,N,12217.7872,W,2,05,1.5,8.6,M,-25.1,M,2.8,0000*40
$GPGSA,A,3,23,32,16,31,24,,,,,,,,3.3,1.5,2.9*3E
$GPRMC,180632.000,A,3748.7634,N,12217.7872,W,2.35,95.62,250511,,,D*4A
$GPVTG,95.62,T,,M,2.35,N,4.3,K,D*33
$GPGGA,180633.000,3748.7632,N,12217.7861,W,2,05,1.5,9.0,M,-25.1,M,3.8,0000*43
$GPGSA,A,3,23,32,16,31,24,,,,,,,,3.3,1.5,2.9*3E
$GPGSV,3,1,12,32,83,062,30,20,63,311,25,23,44,289,24,31,43,046,37*71
$GPGSV,3,2,12,24,40,220,27,11,20,212,29,16,19,142,37,13,14,269,24*74
$GPGSV,3,3,12,25,03,032,33,14,01,075,,04,00,328,,48,44,197,33*77
$GPVTG,107.61,T,,M,2.50,N,4.6,K,D*0C
$GPGGA,180634.000,3748.7627,N,12217.7851,W,2,05,1.5,9.3,M,-25.1,M,4.8,0000*47
$GPGSA,A,3,23,32,16,31,24,,,,,,,,3.3,1.5,2.9*3E
$GPRMC,180634.000,A,3748.7627,N,12217.7851,W,2.41,125.17,250511,,,D*74
$GPVTG,125.17,T,,M,2.41,N,4.5,K,D*0E
$GPGGA,180635.000,3748.7620,N,12217.7840,W,2,05,1.5,10.1,M,-25.1,M,5.8,0000*7A
$GPGSA,A,3,23,32,16,31,24,,,,,,,,3.3,1.5,2.9*3E
$GPRMC,180635.000,A,3748.7620,N,12217.7840,W,2.49,121.26,250511,,,D*7C
$GPVTG,121.26,T,,M,2.49,N,4.6,K,D*03
$GPGGA,180636.000,3748.7617,N,12217.7832,W,2,05,1.5,10.2,M,-25.1,M,6.8,0000*78
$GPGSA,A,3,23,32,16,31,24,,,,,,,,3.3,1.5,2.9*3E
$GPRMC,180636.000,A,3748.7617,N,12217.7832,W,2.36,125.41,250511,,,D*73
$GPVTG,125.41,T,,M,2.36,N,4.4,K,D*0C
$GPGGA,180637.000,3748.7615,N,12217.7827,W,2,05,1.5,9.2,M,-25.1,M,,0000*67
$GPGSA,A,3,23,32,16,31,24,,,,,,,,3.3,1.5,2.9*3E
$GPRMC,180637.000,A,3748.7615,N,12217.7827,W,2.80,116.48,250511,,,D*70
$GPVTG,116.48,T,,M,2.80,N,5.2,K,D*0F
$GPGGA,180638.000,3748.7614,N,12217.7825,W,2,05,1.5,7.8,M,-25.1,M,,0000*6F
$GPGSA,A,3,23,32,16,31,24,,,,,,,,3.3,1.5,2.9*3E
$GPGSV,3,1,12,32,83,062,30,20,63,311,25,23,44,289,24,31,43,046,29*7E
$GPGSV,3,2,12,24,40,220,36,11,20,212,41,16,19,142,39,13,14,269,24*74
$GPGSV,3,3,12,25,03,032,19,14,01,075,,04,00,328,,48,44,197,39*75
$GPRMC,180638.000,A,3748.7614,N,12217.7825,W,2.42,128.29,250511,,,D*78
$GPVTG,128.29,T,,M,2.42,N,4.5,K,D*0D
$GPGGA,180639.000,3748.7610,N,12217.7819,W,2,05,1.5,7.4,M,-25.1,M,2.8,0000*4D
$GPGSA,A,3,23,32,16,31,24,,,,,,,,3.3,1.5,2.9*3E
$GPRMC,180639.000,A,3748.7610,N,12217.7819,W,2.49,121.52,250511,,,D*7C
$GPVTG,121.52,T,,M,2.49,N,4.6,K,D*00
$GPGGA,180640.000,3748.7604,N,12217.7810,W,2,05,1.5,7.6,M,-25.1,M,3.8,0000*4C
$GPGSA,A,3,23,32,16,31,24,,,,,,,,3.3,1.5,2.9*3E
$GPRMC,180640.000,A,3748.7604,N,12217.7810,W,2.84,110.15,250511,,,D*7E
$GPVTG,110.15,T,,M,2.84,N,5.3,K,D*04
$GPGGA,180641.000,3748.7598,N,12217.7794,W,2,05,1.5,8.7,M,-25.1,M,4.8,0000*41
$GPGSA,A,3,23,32,16,31,24,,,,,,,,3.3,1.5,2.9*3E
$GPRMC,180641.000,A,3748.7598,N,12217.7794,W,2.79,110.19,250511,,,D*74
$GPVTG,110.19,T,,M,2.79,N,5.2,K,D*0B
$GPGGA,180642.000,3748.7590,N,12217.7778,W,2,05,1.5,10.5,M,-25.1,M,,0000*51
$GPGSA,A,3,23,32,16,31,24,,,,,,,,3.3,1.5,2.9*3E
$GPRMC,180642.000,A,3748.7590,N,12217.7778,W,3.02,115.80,250511,,,D*75
$GPVTG,115.80,T,,M,3.02,N,5.6,K,D*07
$GPGGA,180643.000,3748.7584,N,12217.7775,W,2,05,1.5,10.0,M,-25.1,M,2.8,0000*79
$GPGSA,A,3,23,32,16,31,24,,,,,,,,3.3,1.5,2.9*3E
$GPGSV,3,1,12,32,83,062,25,20,63,311,22,23,44,289,24,31,43,046,26*72
$GPGSV,3,2,12,24,40,220,36,11,20,212,36,16,19,142,40,13,14,269,24*7A
$GPGSV,3,3,12,25,03,032,18,14,01,075,,04,00,328,,48,44,197,35*78
$GPRMC,180643.000,A,3748.7584,N,12217.7775,W,2.67,111.11,250511,,,D*72
$GPVTG,111.11,T,,M,2.67,N,5.0,K,D*0F
$GPGGA,180644.000,3748.7578,N,12217.7773,W,2,05,1.5,9.1,M,-25.1,M,3.8,0000*43
$GPGSA,A,3,23,32,16,31,24,,,,,,,,3.3,1.5,2.9*3E
$GPRMC,180644.000,A,3748.7578,N,12217.7773,W,2.39,109.16,250511,,,D*75
$GPVTG,109.16,T,,M,2.39,N,4.4,K,D*0F
$GPGGA,180645.000,3748.7580,N,12217.7769,W,2,05,1.5,6.8,M,-25.1,M,4.8,0000*4F
$GPGSA,A,3,23,32,16,31,24,,,,,,,,3.3,1.5,2.9*3E
$GPRMC,180645.000,A,3748.7580,N,12217.7769,W,2.24,91.01,250511,,,D*42
$GPVTG,91.01,T,,M,2.24,N,4.1,K,D*30
$GPGGA,180646.000,3748.7579,N,12217.7762,W,2,05,1.5,5.9,M,-25.1,M,5.8,0000*42
$GPGSA,A,3,23,32,16,31,24,,,,,,,,3.3,1.5,2.9*3E
$GPRMC,180646.000,A,3748.7579,N,12217.7762,W,2.52,89.91,250511,,,D*4D
$GPVTG,89.91,T,,M,2.52,N,4.7,K,D*37
$GPGGA,180647.000,3748.7583,N,12217.7762,W,2,05,1.5,2.5,M,-25.1,M,6.8,0000*4E
$GPGSA,A,3,23,32,16,31,24,,,,,,,,3.3,1.5,2.9*3E
$GPRMC,180647.000,A,3748.7583,N,12217.7762,W,2.24,105.77,250511,,,D*75
$GPVTG,105.77,T,,M,2.24,N,4.1,K,D*0D
$GPGGA,180648.000,3748.7580,N,12217.7756,W,2,05,1.5,1.4,M,-25.1,M,7.8,0000*46
$GPGSA,A,3,23,32,16,31,24,,,,,,,,3.3,1.5,2.9*3E
$GPGSV,3,1,12,32,83,065,25,20,63,310,21,23,44,289,25,31,43,046,22*72
$GPGSV,3,2,12,24,40,220,32,11,20,212,26,16,19,142,40,13,14,270,24*77
$GPGSV,3,3,12,25,02,031,18,14,01,075,,04,00,327,,48,44,197,37*77
$GPVTG,104.21,T,,M,2.35,N,4.3,K,D*0D
$GPGGA,180649.000,3748.7573,N,12217.7748,W,2,05,1.5,1.3,M,-25.1,M,,0000*62
$GPGSA,A,3,23,32,16,31,24,,,,,,,,3.3,1.5,2.9*3E
$GPRMC,180649.000,A,3748.7573,N,12217.7748,W,2.03,114.52,250511,,,D*7E
$GPVTG,114.52,T,,M,2.03,N,3.8,K,D*01
$GPGGA,180650.000,3748.7571,N,12217.7743,W,2,05,1.5,-0.0,M,-25.1,M,,0000*4C
$GPGSA,A,3,23,32,16,31,24,,,,,,,,3.3,1.5,2.9*3E
$GPRMC,180650.000,A,3748.7571,N,12217.7743,W,2.32,99.84,250511,,,D*42
$GPVTG,99.84,T,,M,2.32,N,4.3,K,D*30
$GPGGA,180651.000,3748.7565,N,12217.7733,W,2,05,1.5,0.8,M,-25.1,M,,0000*6A
$GPGSA,A,3,23,32,16,31,24,,,,,,,,3.3,1.5,2.9*3E
$GPRMC,180651.000,A,3748.7565,N,12217.7733,W,2.07,110.48,250511,,,D*77
$GPVTG,110.48,T,,M,2.07,N,3.8,K,D*0A
$GPGGA,180652.000,3748.7561,N,12217.7726,W,2,05,1.5,0.7,M,-25.1,M,2.8,0000*42
$GPGSA,A,3,23,32,16,31,24,,,,,,,,3.3,1.5,2.9*3E
$GPRMC,180652.000,A,3748.7561,N,12217.7726,W,2.09,97.43,250511,,,D*4F
$GPVTG,97.43,T,,M,2.09,N,3.9,K,D*30
$GPGGA,180653.000,3748.7554,N,12217.7714,W,2,05,1.5,2.7,M,-25.1,M,3.8,0000*47
$GPGSA,A,3,23,32,16,31,24,,,,,,,,3.3,1.5,2.9*3E
$GPGSV,3,1,12,32,83,065,27,20,63,310,21,23,44,289,24,31,43,046,23*70
$GPGSV,3,2,12,24,40,220,34,11,20,212,32,16,19,142,35,13,14,270,26*74
$GPGSV,3,3,12,25,02,031,18,14,01,075,,04,00,327,,48,44,197,32*72
$GPRMC,180653.000,A,3748.7554,N,12217.7714,W,2.13,101.63,250511,,,D*7E
$GPVTG,101.63,T,,M,2.13,N,3.9,K,D*07
$GPGGA,180654.000,3748.7547,N,12217.7703,W,2,05,1.5,4.1,M,-25.1,M,4.8,0000*43
$GPGSA,A,3,23,32,16,31,24,,,,,,,,3.3,1.5,2.9*3E
$GPRMC,180654.000,A,3748.7547,N,12217.7703,W,2.51,103.78,250511,,,D*73
$GPVTG,103.78,T,,M,2.51,N,4.6,K,D*01
$GPGGA,180655.000,3748.7535,N,12217.7691,W,2,05,1.5,6.5,M,-25.1,M,,0000*69
$GPGSA,A,3,23,32,16,31,24,,,,,,,,3.3,1.5,2.9*3E
$GPRMC,180655.000,A,3748.7535,N,12217.7691,W,2.40,120.87,250511,,,D*7C
$GPVTG,120.87,T,,M,2.40,N,4.5,K,D*03
$GPGGA,180656.000,3748.7517,N,12217.7683,W,2,05,1.5,10.5,M,-25.1,M,,0000*5E
$GPGSA,A,3,23,32,16,31,24,,,,,,,,3.3,1.5,2.9*3E
$GPRMC,180656.000,A,3748.7517,N,12217.7683,W,2.73,117.87,250511,,,D*78
$GPVTG,117.87,T,,M,2.73,N,5.0,K,D*03
$GPGGA,180657.000,3748.7503,N,12217.7675,W,2,05,1.5,12.6,M,-25.1,M,2.8,0000*76
$GPGSA,A,3,23,32,16,31,24,,,,,,,,3.3,1.5,2.9*3E
$GPRMC,180657.000,A,3748.7503,N,12217.7675,W,2.80,107.16,250511,,,D*70
$GPVTG,107.16,T,,M,2.80,N,5.2,K,D*04
$GPGGA,180658.000,3748.7488,N,12217.7670,W,2,05,1.5,15.2,M,-25.1,M,3.8,0000*7C
$GPGSA,A,3,23,32,16,31,24,,,,,,,,3.3,1.5,2.9*3E
$GPGSV,3,1,12,32,83,065,28,20,63,310,27,23,44,289,24,31,43,046,24*7E
$GPGSV,3,2,12,24,40,220,35,11,20,212,33,16,19,142,39,13,14,270,26*78
$GPGSV,3,3,12,25,02,031,18,14,01,075,,04,00,327,,48,44,197,35*75
$GPRMC,180658.000,A,3748.7488,N,12217.7670,W,2.72,100.19,250511,,,D*7D
$GPVTG,100.19,T,,M,2.72,N,5.0,K,D*03
$GPGGA,180659.000,3748.7481,N,12217.7662,W,2,05,1.5,14.6,M,-25.1,M,,0000*57
$GPGSA,A,3,23,32,16,31,24,,,,,,,,3.3,1.5,2.9*3E
$GPRMC,180659.000,A,3748.7481,N,12217.7662,W,2.78,107.19,250511,,,D*7B
$GPVTG,107.19,T,,M,2.78,N,5.1,K,D*0F
$GPGGA,180700.000,3748.7479,N,12217.7659,W,2,05,1.5,12.5,M,-25.1,M,,0000*50
$GPGSA,A,3,23,32,16,31,24,,,,,,,,3.3,1.5,2.9*3E
$GPRMC,180700.000,A,3748.7479,N,12217.7659,W,2.43,106.10,250511,,,D*79
$GPVTG,106.10,T,,M,2.43,N,4.5,K,D*0A
$GPGGA,180701.000,3748.7469,N,12217.7645,W,2,05,1.5,14.9,M,-25.1,M,,0000*57
$GPGSA,A,3,23,32,16,31,24,,,,,,,,3.3,1.5,2.9*3E
$GPRMC,180701.000,A,3748.7469,N,12217.7645,W,2.47,99.81,250511,,,D*4F
$GPVTG,99.81,T,,M,2.47,N,4.6,K,D*32
$GPGGA,180702.000,3748.7463,N,12217.7634,W,2,05,1.5,17.4,M,-25.1,M,,0000*56
$GPGSA,A,3,23,32,16,31,24,,,,,,,,3.3,1.5,2.9*3E
$GPRMC,180702.000,A,3748.7463,N,12217.7634,W,1.93,104.10,250511,,,D*77
$GPVTG,104.10,T,,M,1.93,N,3.6,K,D*02
$GPGGA,180703.000,3748.7456,N,12217.7625,W,2,05,1.5,18.9,M,-25.1,M,2.8,0000*77
$GPGSA,A,3,23,32,16,31,24,,,,,,,,3.3,1.5,2.9*3E
$GPGSV,3,1,12,32,83,065,24,20,63,310,24,23,44,289,25,31,43,046,21*75
$GPGSV,3,2,12,24,40,220,35,11,20,212,34,16,19,142,39,13,14,270,21*78
$GPGSV,3,3,12,25,02,031,18,14,01,075,,04,00,327,,48,44,197,32*72
$GPVTG,111.56,T,,M,2.21,N,4.1,K,D*0E
$GPGGA,180704.000,3748.7443,N,12217.7610,W,2,05,1.5,22.9,M,-25.1,M,3.8,0000*7A
$GPGSA,A,3,23,32,16,31,24,,,,,,,,3.3,1.5,2.9*3E
$GPRMC,180704.000,A,3748.7443,N,12217.7610,W,2.70,107.77,250511,,,D*79
$GPVTG,107.77,T,,M,2.70,N,5.0,K,D*0E
$GPGGA,180705.000,3748.7430,N,12217.7595,W,2,05,1.5,26.6,M,-25.1,M,4.8,0000*7D
$GPGSA,A,3,23,32,16,31,24,,,,,,,,3.3,1.5,2.9*3E
$GPRMC,180705.000,A,3748.7430,N,12217.7595,W,3.13,120.11,250511,,,D*73
$GPVTG,120.11,T,,M,3.13,N,5.8,K,D*07
$GPGGA,180706.000,3748.7416,N,12217.7582,W,2,05,1.5,29.6,M,-25.1,M,,0000*51
$GPGSA,A,3,23,32,16,31,24,,,,,,,,3.3,1.5,2.9*3E
$GPRMC,180706.000,A,3748.7416,N,12217.7582,W,3.82,130.33,250511,,,D*7B
$GPVTG,130.33,T,,M,3.82,N,7.1,K,D*05
$GPGGA,180707.000,3748.7403,N,12217.7568,W,2,05,1.5,32.5,M,-25.1,M,,0000*59
$GPGSA,A,3,23,32,16,31,24,,,,,,,,3.3,1.5,2.9*3E
$GPRMC,180707.000,A,3748.7403,N,12217.7568,W,3.85,130.40,250511,,,D*79
$GPVTG,130.40,T,,M,3.85,N,7.1,K,D*06
$GPGGA,180708.000,3748.7397,N,12217.7560,W,2,05,1.5,32.7,M,-25.1,M,,0000*56
$GPGSA,A,3,23,32,16,31,24,,,,,,,,3.3,1.5,2.9*3E
$GPGSV,3,1,12,32,83,065,30,20,63,310,26,23,44,289,26,31,43,046,22*72
$GPGSV,3,2,12,24,40,220,36,11,20,212,34,16,19,142,40,13,14,270,22*76
$GPGSV,3,3,12,25,02,031,18,14,01,075,,04,00,327,,48,44,197,37*77
$GPRMC,180708.000,A,3748.7397,N,12217.7560,W,3.60,129.90,250511,,,D*7A
$GPVTG,129.90,T,,M,3.60,N,6.7,K,D*0F
$GPGGA,180709.000,3748.7388,N,12217.7549,W,2,05,1.5,34.2,M,-25.1,M,2.8,0000*75
$GPGSA,A,3,23,32,16,31,24,,,,,,,,3.3,1.5,2.9*3E
$GPRMC,180709.000,A,3748.7388,N,12217.7549,W,3.77,127.58,250511,,,D*72
$GPVTG,127.58,T,,M,3.77,N,7.0,K,D*05
$GPGGA,180710.000,3748.7382,N,12217.7540,W,2,05,1.5,34.4,M,-25.1,M,3.8,0000*79
$GPGSA,A,3,23,32,16,31,24,,,,,,,,3.3,1.5,2.9*3E
$GPRMC,180710.000,A,3748.7382,N,12217.7540,W,3.81,131.70,250511,,,D*7D
$GPVTG,131.70,T,,M,3.81,N,7.1,K,D*00
$GPGGA,180711.000,3748.7368,N,12217.7529,W,2,05,1.5,36.8,M,-25.1,M,4.8,0000*7A
$GPGSA,A,3,23,32,16,31,24,,,,,,,,3.3,1.5,2.9*3E
$GPRMC,180711.000,A,3748.7368,N,12217.7529,W,3.87,134.24,250511,,,D*75
$GPVTG,134.24,T,,M,3.87,N,7.2,K,D*01
$GPGGA,180712.000,3748.7358,N,12217.7519,W,2,05,1.5,37.9,M,-25.1,M,5.8,0000*78
$GPGSA,A,3,23,32,16,31,24,,,,,,,,3.3,1.5,2.9*3E
$GPRMC,180712.000,A,3748.7358,N,12217.7519,W,3.71,133.03,250511,,,D*7D
$GPVTG,133.03,T,,M,3.71,N,6.9,K,D*00
$GPGGA,180713.000,3748.7354,N,12217.7513,W,2,05,1.5,37.0,M,-25.1,M,,0000*55
$GPGSA,A,3,23,32,16,31,24,,,,,,,,3.3,1.5,2.9*3E
$GPGSV,3,1,12,32,83,065,31,20,63,310,26,23,44,289,26,31,43,046,22*73
$GPGSV,3,2,12,24,40,220,36,11,20,212,34,16,19,142,40,13,14,270,21*75
$GPGSV,3,3,12,25,02,031,18,14,01,075,,04,00,327,,48,44,197,33*73
$GPRMC,180713.000,A,3748.7354,N,12217.7513,W,3.42,131.16,250511,,,D*7C
$GPVTG,131.16,T,,M,3.42,N,6.3,K,D*0C
$GPGGA,180714.000,3748.7353,N,12217.7510,W,2,05,1.5,35.4,M,-25.1,M,2.8,0000*74
$GPGSA,A,3,23,32,16,31,24,,,,,,,,3.3,1.5,2.9*3E
$GPRMC,180714.000,A,3748.7353,N,12217.7510,W,3.03,126.66,250511,,,D*7B
$GPVTG,126.66,T,,M,3.03,N,5.6,K,D*0E
$GPGGA,180715.000,3748.7364,N,12217.7508,W,2,05,1.5,31.6,M,-25.1,M,3.8,0000*7F
$GPGSA,A,3,23,32,16,31,24,,,,,,,,3.3,1.5,2.9*3E
$GPRMC,180715.000,A,3748.7364,N,12217.7508,W,2.26,130.90,250511,,,D*7F
$GPVTG,130.90,T,,M,2.26,N,4.2,K,D*03
$GPGGA,180716.000,3748.7377,N,12217.7500,W,2,05,1.5,28.1,M,-25.1,M,,0000*5C
$GPGSA,A,3,23,32,16,31,24,,,,,,,,3.3,1.5,2.9*3E
$GPRMC,180716.000,A,3748.7377,N,12217.7500,W,1.91,112.01,250511,,,D*71
$GPVTG,112.01,T,,M,1.91,N,3.5,K,D*04
$GPGGA,180717.000,3748.7388,N,12217.7494,W,2,05,1.5,24.2,M,-25.1,M,2.8,0000*7A
$GPGSA,A,3,23,32,16,31,24,,,,,,,,3.3,1.5,2.9*3E
$GPRMC,180717.000,A,3748.7388,N,12217.7494,W,1.45,113.28,250511,,,D*7F
$GPVTG,113.28,T,,M,1.45,N,2.7,K,D*04
$GPGGA,180718.000,3748.7393,N,12217.7488,W,2,05,1.5,21.4,M,-25.1,M,3.8,0000*70
$GPGSA,A,3,23,32,16,31,24,,,,,,,,3.3,1.5,2.9*3E
$GPGSV,3,1,12,32,83,065,32,20,63,310,27,23,44,289,26,31,43,046,40*75
$GPGSV,3,2,12,24,40,220,27,11,20,212,22,16,19,142,27,13,14,270,22*70
$GPGSV,3,3,12,25,02,031,19,14,01,075,,04,00,327,,48,44,197,32*73
$GPVTG,110.96,T,,M,1.22,N,2.3,K,D*07
$GPGGA,180719.000,3748.7393,N,12217.7477,W,2,05,1.5,21.0,M,-25.1,M,4.8,0000*72
$GPGSA,A,3,23,32,16,31,24,,,,,,,,3.3,1.5,2.9*3E
$GPRMC,180719.000,A,3748.7393,N,12217.7477,W,1.10,108.04,250511,,,D*72
$GPVTG,108.04,T,,M,1.10,N,2.0,K,D*07
$GPGGA,180720.000,3748.7389,N,12217.7463,W,2,05,1.5,21.0,M,-25.1,M,5.8,0000*77
$GPGSA,A,3,23,32,16,31,24,,,,,,,,3.3,1.5,2.9*3E
$GPRMC,180720.000,A,3748.7389,N,12217.7463,W,2.00,121.38,250511,,,D*70
$GPVTG,121.38,T,,M,2.00,N,3.7,K,D*07
$GPGGA,180721.000,3748.7384,N,12217.7447,W,2,05,1.5,20.8,M,-25.1,M,6.8,0000*77
$GPGSA,A,3,23,32,16,31,24,,,,,,,,3.3,1.5,2.9*3E
$GPRMC,180721.000,A,3748.7384,N,12217.7447,W,2.51,123.72,250511,,,D*72
$GPVTG,123.72,T,,M,2.51,N,4.7,K,D*08
$GPGGA,180722.000,3748.7383,N,12217.7438,W,2,05,1.5,19.2,M,-25.1,M,7.8,0000*7A
$GPGSA,A,3,23,32,16,31,24,,,,,,,,3.3,1.5,2.9*3E
$GPRMC,180722.000,A,3748.7383,N,12217.7438,W,1.98,124.16,250511,,,D*7D
$GPVTG,124.16,T,,M,1.98,N,3.7,K,D*0C
$GPGGA,180723.000,3748.7382,N,12217.7427,W,2,05,1.5,18.0,M,-25.1,M,8.8,0000*78
$GPGSA,A,3,23,32,16,31,24,,,,,,,,3.3,1.5,2.9*3E
$GPGSV,3,1,12,32,83,065,32,20,63,310,27,23,44,289,26,31,43,046,38*7A
$GPGSV,3,2,12,24,40,220,33,11,20,212,23,16,19,142,30,13,14,270,26*76
$GPGSV,3,3,12,25,02,031,20,14,01,075,,04,00,327,,48,44,197,34*7F
$GPRMC,180723.000,A,3748.7382,N,12217.7427,W,2.44,112.77,250511,,,D*73
$GPVTG,112.77,T,,M,2.44,N,4.5,K,D*09
$GPGGA,180724.000,3748.7384,N,12217.7422,W,2,05,1.5,15.9,M,-25.1,M,9.8,0000*79
$GPGSA,A,3,23,32,16,31,24,,,,,,,,3.3,1.5,2.9*3E
$GPRMC,180724.000,A,3748.7384,N,12217.7422,W,2.18,116.35,250511,,,D*7C
$GPVTG,116.35,T,,M,2.18,N,4.0,K,D*07
$GPGGA,180725.000,3748.7384,N,12217.7416,W,2,05,1.5,14.2,M,-25.1,M,10.8,0000*4D
$GPGSA,A,3,23,32,16,31,24,,,,,,,,3.3,1.5,2.9*3E
$GPRMC,180725.000,A,3748.7384,N,12217.7416,W,1.24,157.82,250511,,,D*7F
$GPVTG,157.82,T,,M,1.24,N,2.3,K,D*07
$GPGGA,180726.000,3748.7384,N,12217.7414,W,2,05,1.5,12.6,M,-25.1,M,11.8,0000*4F
$GPGSA,A,3,23,32,16,31,24,,,,,,,,3.3,1.5,2.9*3E
$GPRMC,180726.000,A,3748.7384,N,12217.7414,W,1.23,164.39,250511,,,D*79
$GPVTG,164.39,T,,M,1.23,N,2.3,K,D*00
$GPGGA,180727.000,3748.7382,N,12217.7408,W,2,05,1.5,11.6,M,-25.1,M,12.8,0000*45
$GPGSA,A,3,23,32,16,31,24,,,,,,,,3.3,1.5,2.9*3E
$GPRMC,180727.000,A,3748.7382,N,12217.7408,W,0.98,98.89,250511,,,D*4B
$GPVTG,98.89,T,,M,0.98,N,1.8,K,D*30
$GPGGA,180728.000,3748.7377,N,12217.7404,W,2,05,1.5,10.8,M,-25.1,M,13.8,0000*42
$GPGSA,A,3,23,32,16,31,24,,,,,,,,3.3,1.5,2.9*3E
$GPGSV,3,1,12,32,83,065,24,20,63,310,28,23,44,289,26,31,43,046,29*72
$GPGSV,3,2,12,24,40,220,30,11,20,212,32,16,19,142,26,13,14,270,26*72
$GPGSV,3,3,12,25,02,031,20,14,01,075,,04,00,327,,48,44,197,32*79
$GPRMC,180728.000,A,3748.7377,N,12217.7404,W,0.44,135.94,250511,,,D*79
$GPVTG,135.94,T,,M,0.44,N,0.8,K,D*0A
$GPGGA,180729.000,3748.7376,N,12217.7404,W,2,05,1.5,8.4,M,-25.1,M,14.8,0000*70
$GPGSA,A,3,23,32,16,31,24,,,,,,,,3.3,1.5,2.9*3E
$GPRMC,180729.000,A,3748.7376,N,12217.7404,W,1.18,119.60,250511,,,D*74
$GPVTG,119.60,T,,M,1.18,N,2.2,K,D*0F
$GPGGA,180730.000,3748.7374,N,12217.7402,W,2,05,1.5,6.1,M,-25.1,M,15.8,0000*76
$GPGSA,A,3,23,32,16,31,24,,,,,,,,3.3,1.5,2.9*3E
$GPRMC,180730.000,A,3748.7374,N,12217.7402,W,1.06,149.85,250511,,,D*79
$GPVTG,149.85,T,,M,1.06,N,2.0,K,D*0C
$GPGGA,180731.000,3748.7369,N,12217.7392,W,2,05,1.5,5.7,M,-25.1,M,16.8,0000*73
$GPGSA,A,3,23,32,16,31,24,,,,,,,,3.3,1.5,2.9*3E
$GPRMC,180731.000,A,3748.7369,N,12217.7392,W,1.78,127.49,250511,,,D*7B
$GPVTG,127.49,T,,M,1.78,N,3.3,K,D*0F
$GPGGA,180732.000,3748.7368,N,12217.7386,W,2,05,1.5,4.1,M,-25.1,M,17.8,0000*72
$GPGSA,A,3,23,32,16,31,24,,,,,,,,3.3,1.5,2.9*3E
$GPRMC,180732.000,A,3748.7368,N,12217.7386,W,1.57,117.59,250511,,,D*73
$GPVTG,117.59,T,,M,1.57,N,2.9,K,D*0B
$GPGGA,180733.000,3748.7368,N,12217.7379,W,1,05,1.5,1.8,M,-25.1,M,,0000*6C
$GPGSA,A,3,23,32,16,31,24,,,,,,,,3.3,1.5,2.9*3E
$GPGSV,3,1,12,32,83,065,26,20,63,310,23,23,44,289,26,31,43,046,31*72
$GPGSV,3,2,12,24,40,220,34,11,20,212,37,16,19,142,35,13,14,270,26*71
$GPGSV,3,3,12,25,02,031,20,14,01,075,,04,00,327,,48,44,197,34*7F
$GPVTG,113.13,T,,M,1.84,N,3.4,K,A*06
$GPGGA,180734.000,3748.7362,N,12217.7367,W,1,05,1.5,2.6,M,-25.1,M,,0000*63
$GPGSA,A,3,23,32,16,31,24,,,,,,,,3.3,1.5,2.9*3E
$GPRMC,180734.000,A,3748.7362,N,12217.7367,W,1.59,123.12,250511,,,A*73
$GPVTG,123.12,T,,M,1.59,N,2.9,K,A*08
$GPGGA,180735.000,3748.7355,N,12217.7353,W,1,05,1.5,4.0,M,-25.1,M,,0000*61
$GPGSA,A,3,23,32,16,31,24,,,,,,,,3.3,1.5,2.9*3E
$GPRMC,180735.000,A,3748.7355,N,12217.7353,W,1.89,123.55,250511,,,A*7F
$GPVTG,123.55,T,,M,1.89,N,3.5,K,A*0B
$GPGGA,180736.000,3748.7353,N,12217.7346,W,1,05,1.5,4.0,M,-25.1,M,,0000*60
$GPGSA,A,3,23,32,16,31,24,,,,,,,,3.3,1.5,2.9*3E
$GPRMC,180736.000,A,3748.7353,N,12217.7346,W,1.43,113.73,250511,,,A*7F
$GPVTG,113.73,T,,M,1.43,N,2.7,K,A*09
$GPGGA,180737.000,3748.7357,N,12217.7344,W,1,05,1.5,1.0,M,-25.1,M,,0000*62
$GPGSA,A,3,23,32,16,31,24,,,,,,,,3.3,1.5,2.9*3E
$GPRMC,180737.000,A,3748.7357,N,12217.7344,W,1.26,98.16,250511,,,A*4A
$GPVTG,98.16,T,,M,1.26,N,2.3,K,A*3F
$GPGGA,180738.000,3748.7357,N,12217.7337,W,1,05,1.5,-1.9,M,-25.1,M,,0000*4D
$GPGSA,A,3,23,32,16,31,24,,,,,,,,3.3,1.5,2.9*3E
$GPGSV,3,1,12,32,83,065,27,20,63,310,28,23,44,289,26,31,43,046,36*7F
$GPGSV,3,2,12,24,40,220,34,11,20,212,38,16,19,142,30,13,14,270,25*78
$GPGSV,3,3,12,25,02,031,14,14,01,075,,04,00,327,,48,44,197,27*7A
$GPRMC,180738.000,A,3748.7357,N,12217.7337,W,1.09,95.74,250511,,,A*45
$GPVTG,95.74,T,,M,1.09,N,2.0,K,A*38
$GPGGA,180739.000,3748.7352,N,12217.7330,W,1,05,1.5,-2.2,M,-25.1,M,,0000*46
$GPGSA,A,3,23,32,16,31,24,,,,,,,,3.3,1.5,2.9*3E
$GPRMC,180739.000,A,3748.7352,N,12217.7330,W,1.20,154.53,250511,,,A*74
$GPVTG,154.53,T,,M,1.20,N,2.2,K,A*08
$GPGGA,180740.000,3748.7352,N,12217.7325,W,1,05,1.5,-5.0,M,-25.1,M,,0000*49
$GPGSA,A,3,23,32,16,31,24,,,,,,,,3.2,1.5,2.9*3F
$GPRMC,180740.000,A,3748.7352,N,12217.7325,W,0.86,135.39,250511,,,A*78
$GPVTG,135.39,T,,M,0.86,N,1.6,K,A*09
$GPGGA,180741.000,3748.7350,N,12217.7316,W,1,05,1.5,-6.2,M,-25.1,M,,0000*4B
$GPGSA,A,3,23,32,16,31,24,,,,,,,,3.2,1.5,2.9*3F
$GPRMC,180741.000,A,3748.7350,N,12217.7316,W,0.77,157.88,250511,,,A*7B
$GPVTG,157.88,T,,M,0.77,N,1.4,K,A*0B
$GPGGA,180742.000,3748.7347,N,12217.7306,W,1,05,1.5,-6.8,M,-25.1,M,,0000*45
$GPGSA,A,3,23,32,16,31,24,,,,,,,,3.2,1.5,2.9*3F
$GPRMC,180742.000,A,3748.7347,N,12217.7306,W,1.33,89.97,250511,,,A*42
$GPVTG,89.97,T,,M,1.33,N,2.5,K,A*34
$GPGGA,180743.000,3748.7342,N,12217.7294,W,1,05,1.5,-5.7,M,-25.1,M,,0000*47
$GPGSA,A,3,23,32,16,31,24,,,,,,,,3.2,1.5,2.9*3F
$GPGSV,3,1,12,32,83,065,27,20,63,310,23,23,44,289,25,31,43,046,31*70
$GPGSV,3,2,12,24,40,220,32,11,20,212,38,16,19,142,40,13,14,270,28*74
$GPGSV,3,3,12,25,02,031,15,14,01,075,,04,00,327,,48,44,197,31*7C
$GPRMC,180743.000,A,3748.7342,N,12217.7294,W,1.82,102.54,250511,,,A*7B
$GPVTG,102.54,T,,M,1.82,N,3.4,K,A*03
$GPGGA,180744.000,3748.7343,N,12217.7291,W,1,05,1.5,-7.0,M,-25.1,M,,0000*41
$GPGSA,A,3,23,32,16,31,24,,,,,,,,3.2,1.5,2.9*3F
$GPRMC,180744.000,A,3748.7343,N,12217.7291,W,1.40,115.04,250511,,,A*75
$GPVTG,115.04,T,,M,1.40,N,2.6,K,A*0D
$GPGGA,180745.000,3748.7343,N,12217.7288,W,1,05,1.5,-7.6,M,-25.1,M,,0000*4E
$GPGSA,A,3,23,32,16,31,24,,,,,,,,3.2,1.5,2.9*3F
$GPRMC,180745.000,A,3748.7343,N,12217.7288,W,1.51,121.73,250511,,,A*7B
$GPVTG,121.73,T,,M,1.51,N,2.8,K,A*04
$GPGGA,180746.000,3748.7336,N,12217.7276,W,1,05,1.5,-6.3,M,-25.1,M,,0000*4A
$GPGSA,A,3,23,32,16,31,24,,,,,,,,3.2,1.5,2.9*3F
$GPRMC,180746.000,A,3748.7336,N,12217.7276,W,1.88,126.72,250511,,,A*79
$GPVTG,126.72,T,,M,1.88,N,3.5,K,A*0A
$GPGGA,180747.000,3748.7329,N,12217.7263,W,1,05,1.5,-4.7,M,-25.1,M,,0000*47
$GPGSA,A,3,23,32,16,31,24,,,,,,,,3.2,1.5,2.9*3F
$GPRMC,180747.000,A,3748.7329,N,12217.7263,W,1.84,125.57,250511,,,A*7A
$GPVTG,125.57,T,,M,1.84,N,3.4,K,A*03
$GPGGA,180748.000,3748.7321,N,12217.7249,W,1,05,1.5,-2.9,M,-25.1,M,,0000*40
$GPGSA,A,3,23,32,16,31,24,,,,,,,,3.2,1.5,2.9*3F
$GPGSV,3,1,12,32,83,069,33,20,63,310,24,23,45,289,24,31,43,046,33*7C
$GPGSV,3,2,12,24,40,219,33,16,20,142,39,11,20,212,32,13,15,270,24*7C
$GPGSV,3,3,12,25,02,031,15,14,01,076,,04,01,327,,48,44,197,29*77
$GPVTG,119.47,T,,M,2.12,N,3.9,K,A*0C
$GPGGA,180749.000,3748.7313,N,12217.7236,W,1,05,1.5,-1.2,M,-25.1,M,,0000*40
$GPGSA,A,3,23,32,16,31,24,,,,,,,,3.2,1.5,2.9*3F
$GPRMC,180749.000,A,3748.7313,N,12217.7236,W,2.21,125.71,250511,,,A*75
$GPVTG,125.71,T,,M,2.21,N,4.1,K,A*09
$GPGGA,180750.000,3748.7308,N,12217.7226,W,1,05,1.5,-0.4,M,-25.1,M,,0000*44
$GPGSA,A,3,23,32,16,31,24,,,,,,,,3.2,1.5,2.9*3F
$GPRMC,180750.000,A,3748.7308,N,12217.7226,W,2.02,117.56,250511,,,A*73
$GPVTG,117.56,T,,M,2.02,N,3.8,K,A*02
$GPGGA,180751.000,3748.7305,N,12217.7218,W,2,06,1.5,-0.2,M,-25.1,M,16.8,0000*52
$GPGSA,A,3,23,32,16,31,24,11,,,,,,,3.0,1.5,2.6*32
$GPRMC,180751.000,A,3748.7305,N,12217.7218,W,2.00,110.97,250511,,,D*7F
$GPVTG,110.97,T,,M,2.00,N,3.7,K,D*00
$GPGGA,180752.000,3748.7300,N,12217.7208,W,2,06,1.5,0.7,M,-25.1,M,17.8,0000*7C
$GPGSA,A,3,23,32,16,31,24,11,,,,,,,3.0,1.5,2.6*32
$GPRMC,180752.000,A,3748.7300,N,12217.7208,W,2.17,112.48,250511,,,D*7E
$GPVTG,112.48,T,,M,2.17,N,4.0,K,D*06
$GPGGA,180753.000,3748.7294,N,12217.7201,W,1,06,1.5,1.5,M,-25.1,M,,0000*68
$GPGSA,A,3,23,32,16,31,24,11,,,,,,,3.0,1.5,2.6*32
$GPGSV,3,1,12,32,83,069,32,20,63,310,25,23,45,289,24,31,43,046,32*7D
$GPGSV,3,2,12,24,40,219,33,16,20,142,40,11,20,212,35,13,15,270,23*72
$GPGSV,3,3,12,25,02,031,16,14,01,076,,04,01,327,17,48,44,197,34*7E
$GPRMC,180753.000,A,3748.7294,N,12217.7201,W,2.22,113.80,250511,,,A*7C
$GPVTG,113.80,T,,M,2.22,N,4.1,K,A*01
$GPGGA,180754.000,3748.7290,N,12217.7195,W,1,06,1.5,2.0,M,-25.1,M,,0000*63
$GPGSA,A,3,23,32,16,31,24,11,,,,,,,3.0,1.5,2.6*32
$GPRMC,180754.000,A,3748.7290,N,12217.7195,W,1.97,111.62,250511,,,A*72
$GPVTG,111.62,T,,M,1.97,N,3.7,K,A*03
$GPGGA,180755.000,3748.7283,N,12217.7185,W,1,06,1.5,3.3,M,-25.1,M,,0000*63
$GPGSA,A,3,23,32,16,31,24,11,,,,,,,3.0,1.5,2.6*32
$GPRMC,180755.000,A,3748.7283,N,12217.7185,W,2.15,120.68,250511,,,A*71
$GPVTG,120.68,T,,M,2.15,N,4.0,K,A*02
$GPGGA,180756.000,3748.7274,N,12217.7180,W,1,06,1.5,4.4,M,-25.1,M,,0000*6D
$GPGSA,A,3,23,32,16,31,24,11,,,,,,,3.0,1.5,2.6*32
$GPRMC,180756.000,A,3748.7274,N,12217.7180,W,2.23,117.23,250511,,,A*71
$GPVTG,117.23,T,,M,2.23,N,4.1,K,A*0D
$GPGGA,180757.000,3748.7270,N,12217.7175,W,1,06,1.5,4.6,M,-25.1,M,,0000*60
$GPGSA,A,3,23,32,16,31,24,11,,,,,,,3.0,1.5,2.6*32
$GPRMC,180757.000,A,3748.7270,N,12217.7175,W,2.32,116.70,250511,,,A*79
$GPVTG,116.70,T,,M,2.32,N,4.3,K,A*08
$GPGGA,180758.000,3748.7266,N,12217.7168,W,1,06,1.5,5.0,M,-25.1,M,,0000*63
$GPGSA,A,3,23,32,16,31,24,11,,,,,,,3.0,1.5,2.6*32
$GPGSV,3,1,12,32,83,069,32,20,63,310,27,23,45,289,25,31,43,046,30*7C
$GPGSV,3,2,12,24,40,219,34,16,20,142,39,11,20,212,36,13,15,270,26*7D
$GPGSV,3,3,12,25,02,031,15,14,01,076,,04,01,327,16,48,44,197,37*7F
$GPRMC,180758.000,A,3748.7266,N,12217.7168,W,2.12,113.09,250511,,,A*74
$GPVTG,113.09,T,,M,2.12,N,3.9,K,A*0C
$GPGGA,180759.000,3748.7261,N,12217.7160,W,1,06,1.5,5.6,M,-25.1,M,,0000*6B
$GPGSA,A,3,23,32,16,31,24,11,,,,,,,3.0,1.5,2.6*32
$GPRMC,180759.000,A,3748.7261,N,12217.7160,W,2.64,130.52,250511,,,A*74
$GPVTG,130.52,T,,M,2.64,N,4.9,K,A*05
$GPGGA,180800.000,3748.7255,N,12217.7149,W,2,06,1.5,6.0,M,-25.1,M,1.8,0000*45
$GPGSA,A,3,23,32,16,31,24,11,,,,,,,3.0,1.5,2.6*32
$GPRMC,180800.000,A,3748.7255,N,12217.7149,W,2.61,122.13,250511,,,D*7D
$GPVTG,122.13,T,,M,2.61,N,4.8,K,D*02
$GPGGA,180801.000,3748.7251,N,12217.7139,W,2,06,1.5,6.4,M,-25.1,M,1.8,0000*43
$GPGSA,A,3,23,32,16,31,24,11,,,,,,,3.0,1.5,2.6*32
$GPRMC,180801.000,A,3748.7251,N,12217.7139,W,2.31,111.85,250511,,,D*75
$GPVTG,111.85,T,,M,2.31,N,4.3,K,D*03
$GPGGA,180802.000,3748.7250,N,12217.7131,W,2,06,1.5,5.6,M,-25.1,M,1.8,0000*48
$GPGSA,A,3,23,32,16,31,24,11,,,,,,,3.0,1.5,2.6*32
$GPRMC,180802.000,A,3748.7250,N,12217.7131,W,2.17,104.99,250511,,,D*72
$GPVTG,104.99,T,,M,2.17,N,4.0,K,D*0D
$GPGGA,180803.000,3748.7250,N,12217.7122,W,2,06,1.5,5.1,M,-25.1,M,1.8,0000*4C
$GPGSA,A,3,23,32,16,31,24,11,,,,,,,3.0,1.5,2.6*32
$GPGSV,3,1,12,32,83,069,25,20,63,310,26,23,45,289,22,31,43,046,37*7B
$GPGSV,3,2,12,24,40,219,31,16,20,142,40,11,20,212,29,13,15,270,22*7C
$GPRMC,180803.000,A,3748.7250,N,12217.7122,W,2.02,89.86,250511,,,D*4F
$GPVTG,89.86,T,,M,2.02,N,3.7,K,D*33
$GPGGA,180804.000,3748.7253,N,12217.7114,W,2,06,1.5,5.4,M,-25.1,M,2.8,0000*4B
$GPGSA,A,3,23,32,16,31,24,11,,,,,,,3.0,1.5,2.6*32
$GPRMC,180804.000,A,3748.7253,N,12217.7114,W,1.84,58.20,250511,,,D*43
$GPVTG,58.20,T,,M,1.84,N,3.4,K,D*3D
$GPGGA,180805.000,3748.7265,N,12217.7111,W,2,06,1.5,4.1,M,-25.1,M,3.8,0000*4F
$GPGSA,A,3,23,32,16,31,24,11,,,,,,,3.0,1.5,2.6*32
$GPRMC,180805.000,A,3748.7265,N,12217.7111,W,1.90,24.18,250511,,,D*47
$GPVTG,24.18,T,,M,1.90,N,3.5,K,D*39
$GPGGA,180806.000,3748.7271,N,12217.7108,W,2,06,1.5,3.9,M,-25.1,M,4.8,0000*49
$GPGSA,A,3,23,32,16,31,24,11,,,,,,,3.0,1.5,2.6*32
$GPRMC,180806.000,A,3748.7271,N,12217.7108,W,2.03,11.44,250511,,,D*4F
$GPVTG,11.44,T,,M,2.03,N,3.8,K,D*32
$GPGGA,180807.000,3748.7279,N,12217.7106,W,2,06,1.5,3.1,M,-25.1,M,5.8,0000*47
$GPGSA,A,3,23,32,16,31,24,11,,,,,,,3.0,1.5,2.6*32
$GPRMC,180807.000,A,3748.7279,N,12217.7106,W,2.41,23.80,250511,,,D*47
$GPVTG,23.80,T,,M,2.41,N,4.5,K,D*37
$GPGGA,180808.000,3748.7289,N,12217.7105,W,2,06,1.5,1.1,M,-25.1,M,6.8,0000*45
$GPGSA,A,3,23,32,16,31,24,11,,,,,,,3.0,1.5,2.6*32
$GPGSV,3,1,12,32,83,069,26,20,63,310,28,23,45,289,30,31,43,046,39*7B
$GPGSV,3,2,12,24,40,219,25,16,20,142,34,11,20,212,22,13,15,270,22*71
$GPGSV,3,3,12,25,02,031,31,14,01,076,,04,01,327,,48,44,197,25*7D
$GPRMC,180808.000,A,3748.7289,N,12217.7105,W,2.26,22.82,250511,,,D*46
$GPVTG,22.82,T,,M,2.26,N,4.2,K,D*32
$GPGGA,180809.000,3748.7298,N,12217.7101,W,2,05,2.0,0.1,M,-25.1,M,7.8,0000*45
$GPGSA,A,3,32,16,31,24,11,,,,,,,,3.5,2.0,2.9*3F
$GPRMC,180809.000,A,3748.7298,N,12217.7101,W,2.20,10.56,250511,,,D*4D
$GPVTG,10.56,T,,M,2.20,N,4.1,K,D*3F
$GPGGA,180810.000,3748.7307,N,12217.7097,W,2,06,1.4,-0.3,M,-25.1,M,8.8,0000*60
$GPGSA,A,3,23,32,16,31,24,11,,,,,,,3.0,1.4,2.6*33
$GPRMC,180810.000,A,3748.7307,N,12217.7097,W,2.15,2.34,250511,,,D*7D
$GPVTG,2.34,T,,M,2.15,N,4.0,K,D*0F
$GPGGA,180811.000,3748.7314,N,12217.7093,W,2,06,1.4,-0.7,M,-25.1,M,9.8,0000*62
$GPGSA,A,3,23,32,16,31,24,11,,,,,,,3.0,1.4,2.6*33
$GPRMC,180811.000,A,3748.7314,N,12217.7093,W,2.19,357.89,250511,,,D*73
$GPVTG,357.89,T,,M,2.19,N,4.1,K,D*07
$GPGGA,180812.000,3748.7320,N,12217.7088,W,2,06,1.4,-1.0,M,-25.1,M,10.8,0000*52
$GPGSA,A,3,23,32,16,31,24,11,,,,,,,3.0,1.4,2.6*33
$GPRMC,180812.000,A,3748.7320,N,12217.7088,W,2.25,351.28,250511,,,D*7F
$GPVTG,351.28,T,,M,2.25,N,4.2,K,D*06
$GPGGA,180813.000,3748.7327,N,12217.7087,W,2,06,1.4,-1.2,M,-25.1,M,11.8,0000*58
$GPGSA,A,3,23,32,16,31,24,11,,,,,,,3.0,1.4,2.6*33
$GPGSV,3,1,11,32,83,069,27,20,63,310,28,23,45,289,25,31,43,046,40*73
$GPGSV,3,2,11,24,40,219,24,16,20,142,32,11,20,212,22,13,15,270,22*75
$GPGSV,3,3,11,25,02,031,38,14,01,076,,04,01,327,*43
$GPRMC,180813.000,A,3748.7327,N,12217.7087,W,2.32,352.81,250511,,,D*70
$GPVTG,352.81,T,,M,2.32,N,4.3,K,D*01
$GPGGA,180814.000,3748.7332,N,12217.7082,W,2,06,1.4,-0.6,M,-25.1,M,12.8,0000*58
$GPGSA,A,3,23,32,16,31,24,11,,,,,,,3.0,1.4,2.6*33
$GPRMC,180814.000,A,3748.7332,N,12217.7082,W,2.12,350.71,250511,,,D*79
$GPVTG,350.71,T,,M,2.12,N,3.9,K,D*03
$GPGGA,180815.000,3748.7337,N,12217.7080,W,2,06,1.4,-0.6,M,-25.1,M,13.8,0000*5F
$GPGSA,A,3,23,32,16,31,24,11,,,,,,,3.0,1.4,2.6*33
$GPRMC,180815.000,A,3748.7337,N,12217.7080,W,2.00,350.73,250511,,,D*7E
$GPVTG,350.73,T,,M,2.00,N,3.7,K,D*0C
$GPGGA,180816.000,3748.7344,N,12217.7080,W,2,06,1.4,-1.0,M,-25.1,M,14.8,0000*58
$GPGSA,A,3,23,32,16,31,24,11,,,,,,,3.0,1.4,2.6*33
$GPRMC,180816.000,A,3748.7344,N,12217.7080,W,1.74,2.53,250511,,,D*7F
$GPVTG,2.53,T,,M,1.74,N,3.2,K,D*0F
$GPGGA,180817.000,3748.7351,N,12217.7077,W,2,06,1.4,-1.7,M,-25.1,M,15.8,0000*53
$GPGSA,A,3,23,32,16,31,24,11,,,,,,,3.0,1.4,2.6*33
$GPRMC,180817.000,A,3748.7351,N,12217.7077,W,2.50,24.41,250511,,,D*40
$GPVTG,24.41,T,,M,2.50,N,4.6,K,D*3E
$GPGGA,180818.000,3748.7358,N,12217.7073,W,2,06,1.4,-2.0,M,-25.1,M,16.8,0000*56
$GPGSA,A,3,23,32,16,31,24,11,,,,,,,3.0,1.4,2.6*33
$GPGSV,3,1,11,32,83,071,28,20,64,310,32,23,45,290,30,31,43,046,41*74
$GPGSV,3,2,11,24,40,219,22,16,20,142,33,11,20,212,22,13,15,270,22*72
$GPGSV,3,3,11,25,02,031,37,14,01,076,,04,01,327,*4C
$GPRMC,180818.000,A,3748.7358,N,12217.7073,W,2.59,28.88,250511,,,D*42
$GPVTG,28.88,T,,M,2.59,N,4.8,K,D*30
$GPGGA,180819.000,3748.7365,N,12217.7069,W,2,06,1.4,-1.9,M,-25.1,M,17.8,0000*59
$GPGSA,A,3,23,32,16,31,24,11,,,,,,,3.0,1.4,2.6*33
$GPRMC,180819.000,A,3748.7365,N,12217.7069,W,2.30,19.60,250511,,,D*4D
$GPVTG,19.60,T,,M,2.30,N,4.3,K,D*30
$GPGGA,180820.000,3748.7372,N,12217.7067,W,1,06,1.4,-2.3,M,-25.1,M,,0000*41
$GPGSA,A,3,23,32,16,31,24,11,,,,,,,3.0,1.4,2.6*33
$GPRMC,180820.000,A,3748.7372,N,12217.7067,W,2.23,22.09,250511,,,A*4F
$GPVTG,22.09,T,,M,2.23,N,4.1,K,A*32
$GPGGA,180821.000,3748.7379,N,12217.7065,W,1,06,1.4,-2.6,M,-25.1,M,,0000*4C
$GPGSA,A,3,23,32,16,31,24,11,,,,,,,3.0,1.4,2.6*33
$GPRMC,180821.000,A,3748.7379,N,12217.7065,W,2.16,13.67,250511,,,A*4B
$GPVTG,13.67,T,,M,2.16,N,4.0,K,A*3F
$GPGGA,180822.000,3748.7386,N,12217.7062,W,1,06,1.4,-3.0,M,-25.1,M,,0000*4F
$GPGSA,A,3,23,32,16,31,24,11,,,,,,,3.0,1.4,2.6*33
$GPRMC,180822.000,A,3748.7386,N,12217.7062,W,2.29,19.70,250511,,,A*4F
$GPVTG,19.70,T,,M,2.29,N,4.2,K,A*3D
$GPGGA,180823.000,3748.7391,N,12217.7054,W,1,06,1.4,-2.2,M,-25.1,M,,0000*4E
$GPGSA,A,3,23,32,16,31,24,11,,,,,,,3.0,1.4,2.6*33
$GPGSV,3,1,11,32,83,071,28,20,64,310,27,23,45,290,24,31,43,046,41*75
$GPGSV,3,2,11,24,40,219,24,16,20,142,34,11,20,212,22,13,15,270,22*73
$GPGSV,3,3,11,25,02,031,37,14,01,076,,04,01,327,*4C
$GPRMC,180823.000,A,3748.7391,N,12217.7054,W,2.15,7.79,250511,,,A*74
$GPGGA,180824.000,3748.7397,N,12217.7046,W,1,06,1.4,-1.7,M,-25.1,M,,0000*4A
$GPGSA,A,3,23,32,16,31,24,11,,,,,,,3.0,1.4,2.6*33
$GPRMC,180824.000,A,3748.7397,N,12217.7046,W,2.51,15.66,250511,,,A*4B
$GPVTG,15.66,T,,M,2.51,N,4.7,K,A*3C
$GPGGA,180825.000,3748.7404,N,12217.7040,W,1,06,1.4,-1.6,M,-25.1,M,,0000*41
$GPGSA,A,3,23,32,16,31,24,11,,,,,,,3.0,1.4,2.6*33
$GPRMC,180825.000,A,3748.7404,N,12217.7040,W,2.07,5.64,250511,,,A*71
$GPVTG,5.64,T,,M,2.07,N,3.8,K,A*04
$GPGGA,180826.000,3748.7411,N,12217.7029,W,1,06,1.4,-0.3,M,-25.1,M,,0000*4D
$GPGSA,A,3,23,32,16,31,24,11,,,,,,,3.0,1.4,2.6*33
$GPRMC,180826.000,A,3748.7411,N,12217.7029,W,2.00,3.93,250511,,,A*70
$GPVTG,3.93,T,,M,2.00,N,3.7,K,A*02
$GPGGA,180827.000,3748.7415,N,12217.7016,W,1,06,1.4,0.8,M,-25.1,M,,0000*62
$GPGSA,A,3,23,32,16,31,24,11,,,,,,,3.0,1.4,2.6*33
$GPRMC,180827.000,A,3748.7415,N,12217.7016,W,1.84,10.35,250511,,,A*48
$GPVTG,10.35,T,,M,1.84,N,3.4,K,A*30
$GPGGA,180828.000,3748.7423,N,12217.7011,W,1,06,1.4,0.0,M,-25.1,M,,0000*67
$GPGSA,A,3,23,32,16,31,24,11,,,,,,,3.0,1.4,2.6*33
$GPGSV,3,1,11,32,83,071,28,20,64,310,29,23,45,290,23,31,43,046,40*7D
$GPGSV,3,2,11,24,40,219,24,16,20,142,34,11,20,212,22,13,15,270,25*74
$GPGSV,3,3,11,25,02,031,33,14,01,076,,04,01,327,*48
$GPRMC,180828.000,A,3748.7423,N,12217.7011,W,1.74,7.39,250511,,,A*70
$GPVTG,7.39,T,,M,1.74,N,3.2,K,A*03
$GPGGA,180829.000,3748.7429,N,12217.7010,W,1,06,1.4,-0.7,M,-25.1,M,,0000*47
$GPGSA,A,3,23,32,16,31,24,11,,,,,,,3.0,1.4,2.6*33
$GPRMC,180829.000,A,3748.7429,N,12217.7010,W,1.68,352.25,250511,,,A*79
$GPVTG,352.25,T,,M,1.68,N,3.1,K,A*03
$GPGGA,180830.000,3748.7436,N,12217.7008,W,1,06,1.4,-1.4,M,-25.1,M,,0000*4A
$GPGSA,A,3,23,32,16,31,24,11,,,,,,,3.0,1.4,2.6*33
$GPRMC,180830.000,A,3748.7436,N,12217.7008,W,2.49,20.94,250511,,,A*4A
$GPVTG,20.94,T,,M,2.49,N,4.6,K,A*3F
$GPGGA,180831.000,3748.7444,N,12217.7008,W,1,06,1.4,-1.9,M,-25.1,M,,0000*43
$GPGSA,A,3,23,32,16,31,24,11,,,,,,,3.0,1.4,2.6*33
$GPRMC,180831.000,A,3748.7444,N,12217.7008,W,2.07,14.60,250511,,,A*48
$GPVTG,14.60,T,,M,2.07,N,3.8,K,A*30
$GPGGA,180832.000,3748.7450,N,12217.7004,W,1,06,1.4,-1.6,M,-25.1,M,,0000*46
$GPGSA,A,3,23,32,16,31,24,11,,,,,,,3.0,1.4,2.6*33
$GPRMC,180832.000,A,3748.7450,N,12217.7004,W,2.37,1.54,250511,,,A*72
$GPVTG,1.54,T,,M,2.37,N,4.4,K,A*0B
$GPGGA,180833.000,3748.7454,N,12217.7001,W,1,06,1.4,-1.7,M,-25.1,M,,0000*47
$GPGSA,A,3,23,32,16,31,24,11,,,,,,,3.0,1.4,2.6*33
$GPGSV,3,1,11,32,83,071,27,20,64,310,30,23,45,290,22,31,43,046,31*7D
$GPGSV,3,2,11,24,40,219,24,16,20,142,33,11,20,212,22,13,15,270,22*74
$GPGSV,3,3,11,25,02,031,33,14,01,076,,04,01,327,*48
$GPRMC,180833.000,A,3748.7454,N,12217.7001,W,1.67,0.92,250511,,,A*7F
$GPVTG,0.92,T,,M,1.67,N,3.1,K,A*04
$GPGGA,180834.000,3748.7460,N,12217.6995,W,1,06,1.4,-1.4,M,-25.1,M,,0000*41
$GPGSA,A,3,23,32,16,31,24,11,,,,,,,3.0,1.4,2.6*33
$GPRMC,180834.000,A,3748.7460,N,12217.6995,W,1.74,5.12,250511,,,A*75
$GPVTG,5.12,T,,M,1.74,N,3.2,K,A*08
$GPGGA,180835.000,3748.7463,N,12217.6987,W,1,06,1.4,-0.4,M,-25.1,M,,0000*41
$GPGSA,A,3,23,32,16,31,24,11,,,,,,,3.0,1.4,2.6*33
$GPRMC,180835.000,A,3748.7463,N,12217.6987,W,1.49,5.49,250511,,,A*74
$GPVTG,5.49,T,,M,1.49,N,2.8,K,A*03
$GPGGA,180836.000,3748.7466,N,12217.6983,W,1,06,1.4,0.3,M,-25.1,M,,0000*69
$GPGSA,A,3,23,32,16,31,24,11,,,,,,,3.0,1.4,2.6*33
$GPRMC,180836.000,A,3748.7466,N,12217.6983,W,1.62,19.21,250511,,,A*4C
$GPVTG,19.21,T,,M,1.62,N,3.0,K,A*30
$GPGGA,180837.000,3748.7475,N,12217.6982,W,1,06,1.4,-2.1,M,-25.1,M,,0000*46
$GPGSA,A,3,23,32,16,31,24,11,,,,,,,3.0,1.4,2.6*33
$GPRMC,180837.000,A,3748.7475,N,12217.6982,W,1.93,15.78,250511,,,A*40
$GPVTG,15.78,T,,M,1.93,N,3.6,K,A*38
$GPGGA,180838.000,3748.7482,N,12217.6977,W,1,06,1.4,-1.9,M,-25.1,M,,0000*40
$GPGSA,A,3,23,32,16,31,24,11,,,,,,,3.0,1.4,2.6*33
$GPGSV,3,1,11,32,83,071,23,20,64,310,30,23,45,290,26,31,43,046,37*7B
$GPGSV,3,2,11,24,40,219,24,16,20,142,28,11,20,212,22,13,15,270,20*7C
$GPGSV,3,3,11,25,02,031,33,14,01,076,,04,01,327,*48
$GPRMC,180838.000,A,3748.7482,N,12217.6977,W,1.76,23.61,250511,,,A*4B
$GPVTG,23.61,T,,M,1.76,N,3.3,K,A*3B
$GPGGA,180839.000,3748.7492,N,12217.6973,W,1,06,1.4,-3.5,M,-25.1,M,,0000*4A
$GPGSA,A,3,23,32,16,31,24,11,,,,,,,3.0,1.4,2.6*33
$GPRMC,180839.000,A,3748.7492,N,12217.6973,W,2.01,47.14,250511,,,A*4C
$GPVTG,47.14,T,,M,2.01,N,3.7,K,A*3C
$GPGGA,180840.000,3748.7496,N,12217.6969,W,1,06,1.4,-2.1,M,-25.1,M,,0000*4E
