$ADVER,3080,2.3
$GPRMC,000434.567,A,3748.7984,N,12217.8575,W,0.25,178.38,151010,,,A*7F
$GPRMC,000435.567,A,3748.7984,N,12217.8576,W,0.13,121.32,151010,,,A*7E
$GPRMC,000436.567,A,3748.7983,N,12217.8575,W,0.29,143.29,151010,,,A*7E
$GPRMC,000437.567,A,3748.7982,N,12217.8574,W,0.32,144.95,151010,,,A*75
$GPRMC,000438.567,A,3748.7980,N,12217.8571,W,0.24,151.69,151010,,,A*7D
$GPRMC,000439.567,A,3748.7979,N,12217.8569,W,0.27,146.83,151010,,,A*72
$GPRMC,000440.567,A,3748.7978,N,12217.8567,W,0.15,143.80,151010,,,A*74
$GPRMC,000441.567,A,3748.7976,N,12217.8565,W,0.30,136.09,151010,,,A*7D
$GPRMC,000442.567,A,3748.7976,N,12217.8563,W,0.07,65.17,151010,,,A*44
$GPRMC,000443.567,A,3748.7972,N,12217.8559,W,1.07,322.25,151010,,,A*78
$GPRMC,000444.567,A,3748.7999,N,12217.8584,W,0.33,176.64,151010,,,A*7A
$GPRMC,000445.567,A,3748.7965,N,12217.8551,W,0.21,179.19,151010,,,A*76
$GPRMC,000446.567,A,3748.7969,N,12217.8556,W,0.40,163.49,151010,,,A*77
$GPRMC,000447.567,A,3748.8000,N,12217.8554,W,0.32,161.32,151010,,,A*76
$GPRMC,000448.567,A,3748.7927,N,12217.8538,W,2.50,108.76,151010,,,A*79
$GPRMC,000449.567,A,3748.7988,N,12217.8658,W,0.36,348.09,151010,,,A*74
$GPRMC,000450.567,A,3748.8002,N,12217.8789,W,0.10,186.47,151010,,,A*7B
$GPRMC,000451.567,A,3748.8041,N,12217.8888,W,0.28,164.18,151010,,,A*7E
$GPRMC,000452.567,A,3748.8020,N,12217.8823,W,0.17,197.62,151010,,,A*76
$GPRMC,000453.567,A,3748.7990,N,12217.8787,W,1.10,336.44,151010,,,A*70
$GPRMC,000454.567,A,3748.7840,N,12217.8566,W,0.19,261.79,151010,,,A*73
$GPRMC,000455.567,A,3748.7869,N,12217.8596,W,1.61,320.68,151010,,,A*7C
$GPRMC,000456.567,A,3748.7880,N,12217.8581,W,1.84,146.80,151010,,,A*71
$GPRMC,000457.567,A,3748.7914,N,12217.8593,W,0.80,197.15,151010,,,A*7A
$GPRMC,000458.567,A,3748.7978,N,12217.8639,W,0.55,236.61,151010,,,A*7F
$GPRMC,000459.567,A,3748.8042,N,12217.8815,W,0.38,132.74,151010,,,A*79
$GPRMC,000500.567,A,3748.8045,N,12217.8817,W,1.42,142.23,151010,,,A*78
$GPRMC,000501.567,A,3748.8012,N,12217.8705,W,1.50,170.83,151010,,,A*7F
$GPRMC,000502.567,A,3748.7979,N,12217.8590,W,0.04,87.93,151010,,,A*41
$GPRMC,000503.567,A,3748.7988,N,12217.8627,W,1.14,289.94,151010,,,A*7A
$GPRMC,000504.567,A,3748.7978,N,12217.8599,W,0.30,234.83,151010,,,A*73
$GPRMC,000505.567,A,3748.7976,N,12217.8606,W,1.59,220.49,151010,,,A*74
$GPRMC,000506.567,A,3748.7946,N,12217.8612,W,2.33,161.95,151010,,,A*79
$GPRMC,000507.567,A,3748.7939,N,12217.8648,W,2.31,176.24,151010,,,A*71
$GPRMC,000508.567,A,3748.7932,N,12217.8570,W,2.15,198.33,151010,,,A*7D
$GPRMC,000509.567,A,3748.7949,N,12217.8597,W,3.25,170.53,151010,,,A*7B
$GPRMC,000510.567,A,3748.7938,N,12217.8631,W,3.29,162.85,151010,,,A*7E
$GPRMC,000511.567,A,3748.7913,N,12217.8580,W,3.25,166.31,151010,,,A*78
$GPRMC,000512.567,A,3748.7899,N,12217.8581,W,2.71,177.30,151010,,,A*78
$GPRMC,000513.567,A,3748.7887,N,12217.8570,W,2.61,173.90,151010,,,A*77
$GPRMC,000514.567,A,3748.7881,N,12217.8572,W,2.57,162.36,151010,,,A*7D
$GPRMC,000515.567,A,3748.7876,N,12217.8571,W,1.71,168.19,151010,,,A*77
$GPRMC,000516.567,A,3748.7871,N,12217.8570,W,2.38,159.88,151010,,,A*76
$GPRMC,000517.567,A,3748.7867,N,12217.8568,W,2.01,158.62,151010,,,A*76
$GPRMC,000518.567,A,3748.7866,N,12217.8570,W,1.41,180.41,151010,,,A*72
$GPRMC,000519.567,A,3748.7858,N,12217.8566,W,3.32,150.61,151010,,,A*70
$GPRMC,000520.567,A,3748.7853,N,12217.8565,W,1.81,159.21,151010,,,A*75
$GPRMC,000521.567,A,3748.7852,N,12217.8581,W,1.81,156.52,151010,,,A*74
$GPRMC,000522.567,A,3748.7883,N,12217.8552,W,2.42,123.13,151010,,,A*7E
$GPRMC,000523.567,A,3748.7854,N,12217.8519,W,2.33,131.35,151010,,,A*7B
$GPRMC,000524.567,A,3748.7843,N,12217.8492,W,2.40,117.94,151010,,,A*73
$GPRMC,000525.000,A,3748.7851,N,12217.8494,W,2.67,123.83,151010,,,A*77
$GPRMC,000526.000,A,3748.7848,N,12217.8488,W,2.08,88.27,151010,,,A*46
$GPRMC,000527.000,A,3748.7841,N,12217.8478,W,2.20,109.91,151010,,,A*7E
$GPRMC,000528.000,A,3748.7838,N,12217.8474,W,2.12,119.79,151010,,,A*75
$GPRMC,000529.000,A,3748.7838,N,12217.8472,W,1.72,119.70,151010,,,A*7E
$GPRMC,000530.000,A,3748.7842,N,12217.8475,W,1.98,128.23,151010,,,A*7C
$GPRMC,000531.000,A,3748.7844,N,12217.8475,W,2.09,130.80,151010,,,A*70
$GPRMC,000532.000,A,3748.7843,N,12217.8473,W,1.85,126.53,151010,,,A*7C
$GPRMC,000533.000,A,3748.7840,N,12217.8469,W,2.05,127.74,151010,,,A*7A
$GPRMC,000534.000,A,3748.7837,N,12217.8464,W,2.24,131.16,151010,,,A*70
$GPRMC,000535.000,A,3748.7833,N,12217.8459,W,2.25,126.11,151010,,,A*7B
$GPRMC,000536.000,A,3748.7829,N,12217.8454,W,2.55,126.93,151010,,,A*73
$GPRMC,000537.000,A,3748.7820,N,12217.8443,W,2.39,123.93,151010,,,A*72
$GPRMC,000538.000,A,3748.7811,N,12217.8431,W,2.57,128.59,151010,,,A*7F
$GPRMC,000539.000,A,3748.7804,N,12217.8422,W,2.56,126.58,151010,,,A*76
$GPRMC,000540.000,A,3748.7798,N,12217.8415,W,2.19,130.74,151010,,,A*74
$GPRMC,000541.000,A,3748.7793,N,12217.8410,W,1.67,134.85,151010,,,A*7B
$GPRMC,000542.000,A,3748.7790,N,12217.8409,W,1.18,171.83,151010,,,A*7C
$GPRMC,000543.000,A,3748.7787,N,12217.8413,W,0.30,197.34,151010,,,A*7F
$GPRMC,000544.000,A,3748.7786,N,12217.8415,W,0.13,206.99,151010,,,A*72
$GPRMC,000545.000,A,3748.7785,N,12217.8415,W,0.16,95.76,151010,,,A*4C
$GPRMC,000546.000,A,3748.7783,N,12217.8412,W,0.83,124.34,151010,,,A*7F
$GPRMC,000547.000,A,3748.7780,N,12217.8408,W,1.40,132.99,151010,,,A*78
$GPRMC,000548.000,A,3748.7776,N,12217.8403,W,1.85,126.18,151010,,,A*70
$GPRMC,000549.000,A,3748.7773,N,12217.8398,W,1.87,122.15,151010,,,A*7A
$GPRMC,000550.000,A,3748.7770,N,12217.8393,W,1.72,123.38,151010,,,A*7E
$GPRMC,000551.000,A,3748.7768,N,12217.8390,W,1.08,123.98,151010,,,A*72
$GPRMC,000552.000,A,3748.7767,N,12217.8388,W,0.59,129.71,151010,,,A*7F
$GPRMC,000553.000,A,3748.7770,N,12217.8397,W,0.29,189.20,151010,,,A*7F
$GPRMC,000554.000,A,3748.7772,N,12217.8403,W,0.19,124.09,151010,,,A*7F
$GPRMC,000555.000,A,3748.7775,N,12217.8409,W,0.61,309.31,151010,,,A*7A
$GPRMC,000556.000,A,3748.7779,N,12217.8420,W,1.40,280.82,151010,,,A*74
$GPRMC,000557.000,A,3748.7783,N,12217.8430,W,1.65,298.65,151010,,,A*76
$GPRMC,000558.000,A,3748.7787,N,12217.8440,W,1.80,300.90,151010,,,A*7B
$GPRMC,000559.000,A,3748.7792,N,12217.8450,W,2.17,295.52,151010,,,A*71
$GPRMC,000600.000,A,3748.7795,N,12217.8458,W,2.12,286.13,151010,,,A*73
$GPRMC,000601.000,A,3748.7798,N,12217.8462,W,1.28,302.04,151010,,,A*77
$GPRMC,000602.000,A,3748.7802,N,12217.8472,W,2.33,295.68,151010,,,A*75
$GPRMC,000603.000,A,3748.7806,N,12217.8479,W,1.90,303.89,151010,,,A*70
$GPRMC,000604.000,A,3748.7811,N,12217.8484,W,1.94,301.61,151010,,,A*73
$GPRMC,000605.000,A,3748.7815,N,12217.8491,W,2.02,299.21,151010,,,A*7A
$GPRMC,000606.000,A,3748.7819,N,12217.8498,W,2.07,304.01,151010,,,A*7E
$GPRMC,000607.000,A,3748.7824,N,12217.8507,W,2.19,297.00,151010,,,A*73
$GPRMC,000608.000,A,3748.7828,N,12217.8515,W,2.19,300.91,151010,,,A*74
$GPRMC,000609.000,A,3748.7832,N,12217.8524,W,2.23,300.73,151010,,,A*79
$GPRMC,000610.000,A,3748.7837,N,12217.8533,W,2.16,302.01,151010,,,A*73
$GPRMC,000611.000,A,3748.7842,N,12217.8542,W,2.27,302.84,151010,,,A*79
$GPRMC,000612.000,A,3748.7845,N,12217.8548,W,1.48,323.51,151010,,,A*76
$GPRMC,000613.000,A,3748.7850,N,12217.8561,W,1.71,311.39,151010,,,A*7D
$GPRMC,000614.000,A,3748.7854,N,12217.8569,W,1.33,330.82,151010,,,A*73
$GPRMC,000615.000,A,3748.7864,N,12217.8578,W,1.68,317.49,151010,,,A*7D
$GPRMC,000616.000,A,3748.7868,N,12217.8586,W,1.90,282.80,151010,,,A*7C
$GPRMC,000617.000,A,3748.7870,N,12217.8593,W,1.55,266.38,151010,,,A*70
$GPRMC,000618.000,A,3748.7871,N,12217.8599,W,1.02,260.73,151010,,,A*7F
$GPRMC,000619.000,A,3748.7871,N,12217.8602,W,1.02,260.73,151010,,,E*7B
$GPRMC,000620.000,A,3748.7893,N,12217.8612,W,3.19,346.36,151010,,,A*74
$GPRMC,000621.000,A,3748.7905,N,12217.8615,W,1.51,323.41,151010,,,A*71
$GPRMC,000622.000,A,3748.7916,N,12217.8625,W,0.84,273.41,151010,,,A*7E
$GPRMC,000623.000,A,3748.7910,N,12217.8633,W,1.85,256.77,151010,,,A*7C
$GPRMC,000624.000,A,3748.7906,N,12217.8657,W,0.98,257.42,151010,,,A*74
$GPRMC,000625.000,A,3748.7909,N,12217.8674,W,0.75,229.59,151010,,,A*7B
$GPRMC,000626.000,A,3748.7920,N,12217.8676,W,1.24,304.22,151010,,,A*76
$GPRMC,000627.000,A,3748.7934,N,12217.8679,W,1.57,317.98,151010,,,A*7A
$GPRMC,000628.000,A,3748.7952,N,12217.8685,W,2.22,334.97,151010,,,A*79
$GPRMC,000629.000,A,3748.7950,N,12217.8682,W,1.19,333.98,151010,,,A*7E
$GPRMC,000630.000,A,3748.7936,N,12217.8678,W,1.13,215.55,151010,,,A*7D
$GPRMC,000631.000,A,3748.7919,N,12217.8668,W,2.11,176.12,151010,,,A*74
$GPRMC,000632.000,A,3748.7917,N,12217.8673,W,1.43,163.60,151010,,,A*76
$GPRMC,000633.000,A,3748.7912,N,12217.8682,W,1.51,184.99,151010,,,A*70
$GPRMC,000634.000,A,3748.7909,N,12217.8681,W,0.06,281.13,151010,,,A*79
$GPRMC,000635.000,A,3748.7907,N,12217.8677,W,0.73,298.21,151010,,,A*74
$GPRMC,000636.000,A,3748.7901,N,12217.8679,W,1.79,207.60,151010,,,A*77
$GPRMC,000637.000,A,3748.7892,N,12217.8672,W,1.58,178.04,151010,,,A*7C
$GPRMC,000638.000,A,3748.7882,N,12217.8662,W,1.57,160.06,151010,,,A*77
$GPRMC,000639.000,A,3748.7872,N,12217.8645,W,1.90,123.90,151010,,,A*7F
$GPRMC,000640.000,A,3748.7866,N,12217.8629,W,2.56,118.56,151010,,,A*75
$GPRMC,000641.000,A,3748.7862,N,12217.8620,W,2.64,122.27,151010,,,A*77
$GPRMC,000642.000,A,3748.7841,N,12217.8585,W,4.49,115.42,151010,,,A*77
$GPRMC,000643.000,A,3748.7830,N,12217.8560,W,4.86,103.84,151010,,,A*75
$GPRMC,000644.000,A,3748.7819,N,12217.8536,W,5.10,109.80,151010,,,A*7A
$GPRMC,000645.000,A,3748.7811,N,12217.8519,W,4.83,113.60,151010,,,A*70
$GPRMC,000646.000,A,3748.7814,N,12217.8515,W,3.76,114.55,151010,,,A*76
$GPRMC,000647.000,A,3748.7811,N,12217.8560,W,2.14,144.08,151010,,,A*78
$GPRMC,000648.000,A,3748.7796,N,12217.8570,W,2.46,170.16,151010,,,A*79
$GPRMC,000649.000,A,3748.7793,N,12217.8576,W,1.80,215.62,151010,,,A*71
$GPRMC,000650.000,A,3748.7795,N,12217.8587,W,2.94,264.24,151010,,,A*73
$GPRMC,000651.000,A,3748.7800,N,12217.8606,W,3.32,264.88,151010,,,A*70
$GPRMC,000652.000,A,3748.7810,N,12217.8635,W,3.89,277.31,151010,,,A*72
$GPRMC,000653.000,A,3748.7824,N,12217.8650,W,4.70,304.40,151010,,,A*75
$GPRMC,000654.000,A,3748.7831,N,12217.8664,W,5.45,296.63,151010,,,A*7D
$GPRMC,000655.000,A,3748.7850,N,12217.8687,W,6.62,303.46,151010,,,A*7A
$GPRMC,000656.000,A,3748.7865,N,12217.8699,W,7.13,304.05,151010,,,A*77
$GPRMC,000657.000,A,3748.7878,N,12217.8711,W,6.25,307.73,151010,,,A*7D
$GPRMC,000658.000,A,3748.7884,N,12217.8721,W,5.53,314.29,151010,,,A*7D
$GPRMC,000659.000,A,3748.7889,N,12217.8722,W,5.14,320.08,151010,,,A*75
$GPRMC,000700.000,A,3748.7887,N,12217.8716,W,4.57,320.30,151010,,,A*7C
$GPRMC,000701.000,A,3748.7883,N,12217.8710,W,2.90,308.97,151010,,,A*75
$GPRMC,000702.000,A,3748.7870,N,12217.8694,W,0.60,323.63,151010,,,A*78
$GPRMC,000703.000,A,3748.7862,N,12217.8692,W,0.76,126.26,151010,,,A*7D
$GPRMC,000704.000,A,3748.7862,N,12217.8693,W,1.25,109.20,151010,,,A*77
$GPRMC,000705.000,A,3748.7867,N,12217.8702,W,0.24,82.17,151010,,,A*4C
$GPRMC,000706.000,A,3748.7868,N,12217.8701,W,0.24,82.17,151010,,,E*47
$GPRMC,000707.000,A,3748.7868,N,12217.8700,W,0.24,82.17,151010,,,E*47
$GPRMC,000708.000,A,3748.7868,N,12217.8699,W,0.24,82.17,151010,,,E*49
$GPRMC,000709.000,A,3748.7868,N,12217.8698,W,0.24,82.17,151010,,,E*49
$GPRMC,000710.000,A,3748.7857,N,12217.8715,W,0.56,275.32,151010,,,A*75
$GPRMC,000711.000,A,3748.7860,N,12217.8698,W,1.09,30.46,151010,,,A*4F
$GPRMC,000712.000,A,3748.7849,N,12217.8692,W,1.28,23.46,151010,,,A*4C
$GPRMC,000713.000,A,3748.7854,N,12217.8691,W,1.76,341.04,151010,,,A*78
$GPRMC,000714.000,A,3748.7857,N,12217.8696,W,2.20,298.62,151010,,,A*7E
$GPRMC,000715.000,A,3748.7858,N,12217.8687,W,1.75,267.83,151010,,,A*7C
$GPRMC,000716.000,A,3748.7854,N,12217.8702,W,1.98,242.86,151010,,,A*7E
$GPRMC,000717.000,A,3748.7832,N,12217.8668,W,2.19,168.37,151010,,,A*79
$GPRMC,000718.000,A,3748.7817,N,12217.8647,W,4.01,139.58,151010,,,A*7E
$GPRMC,000719.000,A,3748.7780,N,12217.8619,W,6.28,147.66,151010,,,A*78
$GPRMC,000720.000,A,3748.7765,N,12217.8615,W,5.69,149.15,151010,,,A*79
$GPRMC,000721.000,A,3748.7758,N,12217.8609,W,6.62,142.47,151010,,,A*7F
$GPRMC,000722.000,A,3748.7742,N,12217.8595,W,6.80,139.38,151010,,,A*79
$GPRMC,000723.000,A,3748.7746,N,12217.8604,W,5.41,135.25,151010,,,A*79
$GPRMC,000724.000,A,3748.7745,N,12217.8598,W,4.66,132.56,151010,,,A*7C
$GPRMC,000725.000,A,3748.7750,N,12217.8591,W,2.37,119.48,151010,,,A*74
$GPRMC,000726.000,A,3748.7762,N,12217.8580,W,1.38,42.39,151010,,,A*43
$GPRMC,000727.000,A,3748.7768,N,12217.8567,W,1.79,359.62,151010,,,A*73
$GPRMC,000728.000,A,3748.7791,N,12217.8569,W,3.57,352.12,151010,,,A*76
$GPRMC,000729.000,A,3748.7794,N,12217.8558,W,2.30,11.74,151010,,,A*44
$GPRMC,000730.000,A,3748.7803,N,12217.8562,W,1.77,15.71,151010,,,A*45
$GPRMC,000731.000,A,3748.7816,N,12217.8573,W,1.17,343.31,151010,,,A*72
$GPRMC,000732.000,A,3748.7816,N,12217.8563,W,1.27,96.13,151010,,,A*48
$GPRMC,000733.000,A,3748.7825,N,12217.8570,W,1.67,83.05,151010,,,A*4C
$GPRMC,000734.000,A,3748.7828,N,12217.8528,W,3.72,74.57,151010,,,A*42
$GPRMC,000735.000,A,3748.7831,N,12217.8526,W,2.76,64.78,151010,,,A*4C
$GPRMC,000736.000,A,3748.7826,N,12217.8512,W,2.39,54.96,151010,,,A*46
$GPRMC,000737.000,A,3748.7828,N,12217.8506,W,2.14,32.87,151010,,,A*43
$GPRMC,000738.000,A,3748.7833,N,12217.8502,W,2.14,32.87,151010,,,E*46
$GPRMC,000739.000,A,3748.7822,N,12217.8512,W,0.53,259.14,151010,,,A*76
$GPRMC,000740.000,A,3748.7822,N,12217.8513,W,0.53,259.14,151010,,,E*7D
$GPRMC,000741.000,A,3748.7804,N,12217.8546,W,4.77,232.38,151010,,,A*7D
$GPRMC,000742.000,A,3748.7805,N,12217.8553,W,2.73,241.68,151010,,,A*78
$GPRMC,000743.000,A,3748.7801,N,12217.8561,W,2.16,234.58,151010,,,A*7E
$GPRMC,000744.000,A,3748.7790,N,12217.8559,W,1.56,228.66,151010,,,A*72
$GPRMC,000745.000,A,3748.7768,N,12217.8554,W,1.94,195.25,151010,,,A*75
$GPRMC,000746.000,A,3748.7758,N,12217.8550,W,1.35,179.05,151010,,,A*7A
$GPRMC,000747.000,A,3748.7763,N,12217.8540,W,0.91,107.38,151010,,,A*7A
$GPRMC,000748.000,A,3748.7755,N,12217.8530,W,0.08,74.32,151010,,,A*48
$GPRMC,000749.000,A,3748.7743,N,12217.8503,W,1.24,112.72,151010,,,A*74
$GPRMC,000750.000,A,3748.7766,N,12217.8528,W,1.39,332.27,151010,,,A*7E
$GPRMC,000751.000,A,3748.7770,N,12217.8542,W,2.29,310.92,151010,,,A*78
$GPRMC,000752.000,A,3748.7772,N,12217.8548,W,2.14,316.85,151010,,,A*7D
$GPRMC,000753.000,A,3748.7770,N,12217.8549,W,1.75,331.62,151010,,,A*77
$GPRMC,000754.000,A,3748.7786,N,12217.8573,W,1.37,330.97,151010,,,A*7D
$GPRMC,000755.000,A,3748.7795,N,12217.8588,W,1.91,313.40,151010,,,A*7D
$GPRMC,000756.000,A,3748.7799,N,12217.8587,W,1.74,335.56,151010,,,A*75
$GPRMC,000757.000,A,3748.7786,N,12217.8582,W,0.99,241.93,151010,,,A*76
$GPRMC,000758.000,A,3748.7783,N,12217.8598,W,2.43,269.89,151010,,,A*73
$GPRMC,000759.000,A,3748.7784,N,12217.8585,W,1.70,248.45,151010,,,A*79
$GPRMC,000800.000,A,3748.7785,N,12217.8595,W,3.04,265.68,151010,,,A*7B
$GPRMC,000801.000,A,3748.7786,N,12217.8587,W,2.28,246.93,151010,,,A*70
$GPRMC,000802.000,A,3748.7783,N,12217.8579,W,1.35,252.89,151010,,,A*76
$GPRMC,000803.000,A,3748.7783,N,12217.8574,W,0.73,285.66,151010,,,A*72
$GPRMC,000804.000,A,3748.7784,N,12217.8576,W,0.73,285.66,151010,,,E*74
$GPRMC,000805.000,A,3748.7804,N,12217.8599,W,2.86,322.89,151010,,,A*72
$GPRMC,000806.000,A,3748.7820,N,12217.8614,W,4.59,314.42,151010,,,A*77
$GPRMC,000807.000,A,3748.7849,N,12217.8648,W,7.08,313.37,151010,,,A*72
$GPRMC,000808.000,A,3748.7862,N,12217.8666,W,7.08,313.37,151010,,,E*7C
$GPRMC,000809.000,A,3748.7876,N,12217.8684,W,7.08,313.37,151010,,,E*74
$GPRMC,000810.000,A,3748.7889,N,12217.8702,W,7.08,313.37,151010,,,E*73
$GPRMC,000811.000,A,3748.7887,N,12217.8661,W,3.07,315.10,151010,,,A*74
$GPRMC,000812.000,A,3748.7891,N,12217.8669,W,3.35,297.58,151010,,,A*7E
$GPRMC,000813.000,A,3748.7889,N,12217.8665,W,2.36,309.06,151010,,,A*75
$GPRMC,000814.000,A,3748.7880,N,12217.8647,W,0.81,354.12,151010,,,A*78
$GPRMC,000815.000,A,3748.7851,N,12217.8610,W,1.73,139.50,151010,,,A*74
$GPRMC,000816.000,A,3748.7815,N,12217.8550,W,3.55,130.44,151010,,,A*7A
$GPRMC,000817.000,A,3748.7819,N,12217.8549,W,2.37,128.29,151010,,,A*78
$GPRMC,000818.000,A,3748.7803,N,12217.8523,W,3.17,114.08,151010,,,A*7F
$GPRMC,000819.000,A,3748.7798,N,12217.8505,W,3.29,128.64,151010,,,A*7F
$GPRMC,000820.000,A,3748.7789,N,12217.8501,W,4.33,148.82,151010,,,A*73
$GPRMC,000821.000,A,3748.7779,N,12217.8486,W,5.01,152.07,151010,,,A*75
$GPRMC,000822.000,A,3748.7776,N,12217.8486,W,4.45,158.50,151010,,,A*70
$GPRMC,000823.000,A,3748.7773,N,12217.8492,W,4.06,154.57,151010,,,A*7D
$GPRMC,000824.000,A,3748.7772,N,12217.8492,W,3.29,144.96,151010,,,A*7D
$GPRMC,000825.000,A,3748.7762,N,12217.8480,W,4.15,138.76,151010,,,A*73
$GPRMC,000826.000,A,3748.7765,N,12217.8489,W,3.64,150.21,151010,,,A*73
$GPRMC,000827.000,A,3748.7761,N,12217.8490,W,3.21,161.21,151010,,,A*7D
$GPRMC,000828.000,A,3748.7765,N,12217.8503,W,2.06,179.97,151010,,,A*7D
$GPRMC,000829.000,A,3748.7764,N,12217.8507,W,1.69,199.25,151010,,,A*74
$GPRMC,000830.000,A,3748.7769,N,12217.8519,W,1.50,218.91,151010,,,A*71
$GPRMC,000831.000,A,3748.7770,N,12217.8529,W,1.46,242.70,151010,,,A*7C
$GPRMC,000832.000,A,3748.7768,N,12217.8534,W,1.46,242.70,151010,,,E*7E
$GPRMC,000833.000,A,3748.7767,N,12217.8539,W,1.46,242.70,151010,,,E*7D
$GPRMC,000834.000,A,3748.7765,N,12217.8543,W,1.46,242.70,151010,,,E*75
$GPRMC,000835.000,A,3748.7763,N,12217.8548,W,1.46,242.70,151010,,,E*79
$GPRMC,000836.000,A,3748.7761,N,12217.8552,W,1.46,242.70,151010,,,E*73
$GPRMC,000837.000,A,3748.7759,N,12217.8557,W,1.46,242.70,151010,,,E*7C
$GPRMC,000838.000,A,3748.7805,N,12217.8633,W,5.82,299.61,151010,,,A*7A
$GPRMC,000839.000,A,3748.7876,N,12217.8712,W,8.91,308.74,151010,,,A*7F
$GPRMC,000840.000,A,3748.7899,N,12217.8737,W,8.58,313.59,151010,,,A*77
$GPRMC,000841.000,A,3748.7922,N,12217.8767,W,8.32,311.48,151010,,,A*7C
$GPRMC,000842.000,A,3748.7923,N,12217.8768,W,6.69,307.14,151010,,,A*7F
$GPRMC,000843.000,A,3748.7898,N,12217.8757,W,4.70,293.24,151010,,,A*76
$GPRMC,000844.000,A,3748.7891,N,12217.8739,W,2.25,298.24,151010,,,A*7D
$GPRMC,000845.000,A,3748.7920,N,12217.8755,W,2.46,330.69,151010,,,A*72
$GPRMC,000846.000,A,3748.7910,N,12217.8727,W,1.40,332.80,151010,,,A*77
$GPRMC,000847.000,A,3748.7874,N,12217.8679,W,0.30,113.05,151010,,,A*75
$GPRMC,000848.000,A,3748.7849,N,12217.8648,W,1.37,161.09,151010,,,A*79
$GPRMC,000849.000,A,3748.7847,N,12217.8639,W,1.85,114.45,151010,,,A*73
$GPRMC,000850.000,A,3748.7829,N,12217.8619,W,1.77,133.21,151010,,,A*7B
$GPRMC,000851.000,A,3748.7813,N,12217.8600,W,1.52,125.95,151010,,,A*74
$GPRMC,000852.000,A,3748.7815,N,12217.8613,W,0.41,136.96,151010,,,A*71
$GPRMC,000853.000,A,3748.7805,N,12217.8608,W,1.26,119.49,151010,,,A*74
$GPRMC,000854.000,A,3748.7806,N,12217.8602,W,0.65,133.00,151010,,,A*79
$GPRMC,000855.000,A,3748.7803,N,12217.8593,W,0.35,174.14,151010,,,A*75
$GPRMC,000856.000,A,3748.7810,N,12217.8601,W,0.13,183.11,151010,,,A*75
$GPRMC,000857.000,A,3748.7813,N,12217.8603,W,0.32,280.08,151010,,,A*7E
$GPRMC,000858.000,A,3748.7817,N,12217.8610,W,1.09,269.72,151010,,,A*74
$GPRMC,000859.000,A,3748.7820,N,12217.8609,W,1.06,296.80,151010,,,A*7B
$GPRMC,000900.000,A,3748.7800,N,12217.8581,W,0.59,113.74,151010,,,A*79
$GPRMC,000901.000,A,3748.7788,N,12217.8560,W,0.59,116.88,151010,,,A*7E
$GPRMC,000902.000,A,3748.7777,N,12217.8539,W,1.93,130.52,151010,,,A*75
$GPRMC,000903.000,A,3748.7769,N,12217.8519,W,3.16,141.94,151010,,,A*7A
$GPRMC,000904.000,A,3748.7757,N,12217.8504,W,4.71,136.23,151010,,,A*76
$GPRMC,000905.000,A,3748.7745,N,12217.8502,W,4.58,136.93,151010,,,A*72
$GPRMC,000906.000,A,3748.7738,N,12217.8502,W,4.30,129.73,151010,,,A*75
$GPRMC,000907.000,A,3748.7728,N,12217.8486,W,5.38,131.12,151010,,,A*7F
$GPRMC,000908.000,A,3748.7717,N,12217.8463,W,4.91,131.62,151010,,,A*72
$GPRMC,000909.000,A,3748.7708,N,12217.8443,W,4.00,124.79,151010,,,A*79
$GPRMC,000910.000,A,3748.7712,N,12217.8435,W,2.13,124.47,151010,,,A*72
$GPRMC,000911.000,A,3748.7720,N,12217.8450,W,0.22,299.52,151010,,,A*70
$GPRMC,000912.000,A,3748.7719,N,12217.8461,W,0.88,222.38,151010,,,A*77
$GPRMC,000913.000,A,3748.7718,N,12217.8471,W,0.51,217.36,151010,,,A*7A
$GPRMC,000914.000,A,3748.7722,N,12217.8482,W,1.37,277.83,151010,,,A*71
$GPRMC,000915.000,A,3748.7724,N,12217.8482,W,0.22,199.67,151010,,,A*7A
$GPRMC,000916.000,A,3748.7731,N,12217.8481,W,0.79,145.43,151010,,,A*77
$GPRMC,000917.000,A,3748.7756,N,12217.8508,W,0.91,101.07,151010,,,A*71
$GPRMC,000918.000,A,3748.7771,N,12217.8525,W,1.00,98.22,151010,,,A*4B
$GPRMC,000919.000,A,3748.7769,N,12217.8516,W,2.35,118.97,151010,,,A*71
$GPRMC,000920.000,A,3748.7758,N,12217.8499,W,3.65,138.85,151010,,,A*7A
$GPRMC,000921.000,A,3748.7753,N,12217.8481,W,3.30,133.73,151010,,,A*7B
$GPRMC,000922.000,A,3748.7746,N,12217.8463,W,2.93,127.96,151010,,,A*76
$GPRMC,000923.000,A,3748.7761,N,12217.8481,W,2.22,120.27,151010,,,A*79
$GPRMC,000924.000,A,3748.7768,N,12217.8490,W,2.71,112.49,151010,,,A*78
$GPRMC,000925.000,A,3748.7771,N,12217.8500,W,0.64,149.24,151010,,,A*7A
$GPRMC,000926.000,A,3748.7771,N,12217.8506,W,0.94,136.84,151010,,,A*72
$GPRMC,000927.000,A,3748.7771,N,12217.8518,W,0.83,181.17,151010,,,A*7C
$GPRMC,000928.000,A,3748.7775,N,12217.8525,W,1.37,258.85,151010,,,A*7B
$GPRMC,000929.000,A,3748.7784,N,12217.8536,W,1.46,298.97,151010,,,A*7F
$GPRMC,000930.000,A,3748.7792,N,12217.8534,W,1.91,326.80,151010,,,A*7A
$GPRMC,000931.000,A,3748.7804,N,12217.8540,W,2.69,329.68,151010,,,A*75
$GPRMC,000932.000,A,3748.7814,N,12217.8544,W,2.31,327.93,151010,,,A*74
$GPRMC,000933.000,A,3748.7821,N,12217.8546,W,1.94,342.38,151010,,,A*7F
$GPRMC,000934.000,A,3748.7825,N,12217.8545,W,1.57,316.91,151010,,,A*72
$GPRMC,000935.000,A,3748.7823,N,12217.8543,W,0.55,262.06,151010,,,A*7C
$GPRMC,000936.000,A,3748.7835,N,12217.8553,W,0.39,271.26,151010,,,A*73
$GPRMC,000937.000,A,3748.7843,N,12217.8565,W,0.99,246.72,151010,,,A*79
$GPRMC,000938.000,A,3748.7850,N,12217.8592,W,3.33,276.04,151010,,,A*7D
$GPRMC,000939.000,A,3748.7855,N,12217.8636,W,5.28,277.98,151010,,,A*7C
$GPRMC,000940.000,A,3748.7853,N,12217.8638,W,3.56,281.17,151010,,,A*7B
$GPRMC,000941.000,A,3748.7851,N,12217.8633,W,1.85,272.88,151010,,,A*75
$GPRMC,000942.000,A,3748.7850,N,12217.8641,W,1.76,286.15,151010,,,A*71
$GPRMC,000943.000,A,3748.7853,N,12217.8651,W,2.14,227.81,151010,,,A*73
$GPRMC,000944.000,A,3748.7855,N,12217.8639,W,0.83,130.77,151010,,,A*7C
$GPRMC,000945.000,A,3748.7863,N,12217.8637,W,0.34,102.12,151010,,,A*78
$GPRMC,000946.000,A,3748.7863,N,12217.8645,W,0.28,138.14,151010,,,A*7C
$GPRMC,000947.000,A,3748.7860,N,12217.8639,W,0.51,186.14,151010,,,A*7E
$GPRMC,000948.000,A,3748.7864,N,12217.8646,W,1.14,177.16,151010,,,A*71
$GPRMC,000949.000,A,3748.7861,N,12217.8645,W,0.48,116.31,151010,,,A*7C
$GPRMC,000950.000,A,3748.7862,N,12217.8651,W,0.47,86.35,151010,,,A*41
$GPRMC,000951.000,A,3748.7866,N,12217.8649,W,1.20,93.24,151010,,,A*49
$GPRMC,000952.000,A,3748.7871,N,12217.8648,W,1.95,66.47,151010,,,A*4C
$GPRMC,000953.000,A,3748.7877,N,12217.8650,W,1.09,43.12,151010,,,A*40
$GPRMC,000954.000,A,3748.7877,N,12217.8641,W,0.72,97.94,151010,,,A*4D
$GPRMC,000955.000,A,3748.7878,N,12217.8644,W,0.49,273.21,151010,,,A*78
$GPRMC,000956.000,A,3748.7882,N,12217.8661,W,2.20,286.36,151010,,,A*78
$GPRMC,000957.000,A,3748.7889,N,12217.8676,W,3.05,292.57,151010,,,A*70
$GPRMC,000958.000,A,3748.7897,N,12217.8687,W,2.44,306.55,151010,,,A*74
$GPRMC,000959.000,A,3748.7904,N,12217.8708,W,1.91,298.63,151010,,,A*70
$GPRMC,001000.000,A,3748.7915,N,12217.8733,W,1.91,301.38,151010,,,A*73
$GPRMC,001001.000,A,3748.7924,N,12217.8752,W,1.87,311.34,151010,,,A*7D
$GPRMC,001002.000,A,3748.7921,N,12217.8746,W,0.54,348.22,151010,,,A*7A
$GPRMC,001003.000,A,3748.7918,N,12217.8736,W,0.97,58.44,151010,,,A*4B
$GPRMC,001004.000,A,3748.7909,N,12217.8706,W,2.39,105.11,151010,,,A*70
$GPRMC,001005.000,A,3748.7895,N,12217.8670,W,4.35,114.39,151010,,,A*75
$GPRMC,001006.000,A,3748.7887,N,12217.8662,W,3.30,120.96,151010,,,A*76
$GPRMC,001007.000,A,3748.7888,N,12217.8665,W,1.54,131.85,151010,,,A*7D
$GPRMC,001008.000,A,3748.7896,N,12217.8674,W,0.69,131.74,151010,,,A*7C
$GPRMC,001009.000,A,3748.7899,N,12217.8684,W,0.14,152.08,151010,,,A*79
$GPRMC,001010.000,A,3748.7888,N,12217.8664,W,1.28,114.50,151010,,,A*7E
$GPRMC,001011.000,A,3748.7882,N,12217.8653,W,1.55,98.41,151010,,,A*4E
$GPRMC,001012.000,A,3748.7873,N,12217.8637,W,1.28,104.80,151010,,,A*72
$GPRMC,001013.000,A,3748.7865,N,12217.8626,W,1.87,133.57,151010,,,A*7F
$GPRMC,001014.000,A,3748.7860,N,12217.8624,W,0.71,171.79,151010,,,A*7D
$GPRMC,001015.000,A,3748.7860,N,12217.8627,W,0.41,197.54,151010,,,A*7B
$GPRMC,001016.000,A,3748.7862,N,12217.8627,W,0.64,35.46,151010,,,A*47
$GPRMC,001017.000,A,3748.7869,N,12217.8632,W,1.24,59.36,151010,,,A*41
$GPRMC,001018.000,A,3748.7866,N,12217.8607,W,3.22,90.90,151010,,,A*4A
$GPRMC,001019.000,A,3748.7865,N,12217.8599,W,2.59,83.03,151010,,,A*49
$GPRMC,001020.000,A,3748.7866,N,12217.8579,W,2.65,85.19,151010,,,A*4C
$GPRMC,001021.000,A,3748.7865,N,12217.8552,W,2.40,95.93,151010,,,A*43
$GPRMC,001022.000,A,3748.7865,N,12217.8534,W,1.79,79.35,151010,,,A*47
$GPRMC,001023.000,A,3748.7865,N,12217.8531,W,0.91,33.36,151010,,,A*49
$GPRMC,001024.000,A,3748.7871,N,12217.8547,W,0.86,297.33,151010,,,A*75
$GPRMC,001025.000,A,3748.7871,N,12217.8542,W,0.53,25.99,151010,,,A*42
$GPRMC,001026.000,A,3748.7867,N,12217.8519,W,0.99,52.84,151010,,,A*42
$GPRMC,001027.000,A,3748.7860,N,12217.8496,W,1.45,67.62,151010,,,A*4C
$GPRMC,001028.000,A,3748.7857,N,12217.8483,W,1.87,77.40,151010,,,A*4C
$GPRMC,001029.000,A,3748.7858,N,12217.8468,W,2.91,82.72,151010,,,A*48
$GPRMC,001030.000,A,3748.7859,N,12217.8465,W,3.02,89.32,151010,,,A*48
$GPRMC,001031.000,A,3748.7863,N,12217.8473,W,1.29,91.27,151010,,,A*41
$GPRMC,001032.000,A,3748.7863,N,12217.8468,W,1.29,91.27,151010,,,E*4C
$GPRMC,001033.000,A,3748.7866,N,12217.8511,W,3.17,255.33,151010,,,A*73
$GPRMC,001034.000,A,3748.7871,N,12217.8550,W,4.99,281.40,151010,,,A*7B
$GPRMC,001035.000,A,3748.7882,N,12217.8598,W,7.13,286.87,151010,,,A*7F
$GPRMC,001036.000,A,3748.7876,N,12217.8617,W,5.80,283.58,151010,,,A*7C
$GPRMC,001037.000,A,3748.7871,N,12217.8635,W,5.04,280.41,151010,,,A*7D
$GPRMC,001038.000,A,3748.7859,N,12217.8635,W,3.30,263.26,151010,,,A*75
$GPRMC,001039.000,A,3748.7846,N,12217.8616,W,1.39,208.25,151010,,,A*7E
$GPRMC,001040.000,A,3748.7840,N,12217.8625,W,2.14,234.51,151010,,,A*76
$GPRMC,001041.000,A,3748.7832,N,12217.8633,W,1.21,241.46,151010,,,A*74
$GPRMC,001042.000,A,3748.7823,N,12217.8615,W,0.23,79.95,151010,,,A*47
$GPRMC,001043.000,A,3748.7823,N,12217.8606,W,0.91,115.93,151010,,,A*70
$GPRMC,001044.000,A,3748.7823,N,12217.8613,W,1.06,187.29,151010,,,A*76
$GPRMC,001045.000,A,3748.7824,N,12217.8607,W,0.64,182.72,151010,,,A*7B
$GPRMC,001046.000,A,3748.7833,N,12217.8616,W,1.10,308.26,151010,,,A*7D
$GPRMC,001047.000,A,3748.7842,N,12217.8617,W,1.18,296.78,151010,,,A*7E
$GPRMC,001048.000,A,3748.7846,N,12217.8621,W,1.23,297.05,151010,,,A*73
$GPRMC,001049.000,A,3748.7847,N,12217.8619,W,0.33,277.70,151010,,,A*74
$GPRMC,001050.000,A,3748.7841,N,12217.8604,W,1.59,135.92,151010,,,A*72
$GPRMC,001051.000,A,3748.7840,N,12217.8589,W,1.95,122.93,151010,,,A*73
$GPRMC,001052.000,A,3748.7839,N,12217.8587,W,1.30,156.69,151010,,,A*79
$GPRMC,001053.000,A,3748.7831,N,12217.8592,W,0.97,194.30,151010,,,A*7A
$GPRMC,001054.000,A,3748.7836,N,12217.8591,W,0.68,11.52,151010,,,A*41
$GPRMC,001055.000,A,3748.7831,N,12217.8587,W,1.13,118.44,151010,,,A*72
$GPRMC,001056.000,A,3748.7823,N,12217.8582,W,1.75,138.62,151010,,,A*71
$GPRMC,001057.000,A,3748.7810,N,12217.8579,W,1.92,155.03,151010,,,A*71
$GPRMC,001058.000,A,3748.7801,N,12217.8582,W,1.22,183.71,151010,,,A*7F
$GPRMC,001059.000,A,3748.7798,N,12217.8583,W,0.55,126.55,151010,,,A*78
$GPRMC,001100.000,A,3748.7792,N,12217.8582,W,0.59,172.67,151010,,,A*72
$GPRMC,001101.000,A,3748.7801,N,12217.8598,W,0.48,283.82,151010,,,A*7B
$GPRMC,001102.000,A,3748.7801,N,12217.8599,W,0.48,283.82,151010,,,E*7D
$GPRMC,001103.000,A,3748.7801,N,12217.8601,W,0.48,283.82,151010,,,E*7E
$GPRMC,001104.000,A,3748.7822,N,12217.8632,W,3.69,310.65,151010,,,A*7E
$GPRMC,001105.000,A,3748.7832,N,12217.8644,W,3.00,314.35,151010,,,A*71
$GPRMC,001106.000,A,3748.7849,N,12217.8658,W,3.36,308.61,151010,,,A*7A
$GPRMC,001107.000,A,3748.7852,N,12217.8652,W,1.93,294.09,151010,,,A*7C
$GPRMC,001108.000,A,3748.7860,N,12217.8655,W,0.93,309.44,151010,,,A*78
$GPRMC,001109.000,A,3748.7866,N,12217.8651,W,0.38,267.32,151010,,,A*72
$GPRMC,001110.000,A,3748.7865,N,12217.8651,W,0.58,338.48,151010,,,A*79
$GPRMC,001111.000,A,3748.7872,N,12217.8663,W,1.10,308.09,151010,,,A*74
$GPRMC,001112.000,A,3748.7869,N,12217.8666,W,1.04,259.98,151010,,,A*70
$GPRMC,001113.000,A,3748.7868,N,12217.8677,W,1.09,258.19,151010,,,A*75
$GPRMC,001114.000,A,3748.7867,N,12217.8684,W,1.34,297.15,151010,,,A*70
$GPRMC,001115.000,A,3748.7871,N,12217.8687,W,2.86,306.02,151010,,,A*70
$GPRMC,001116.000,A,3748.7871,N,12217.8684,W,1.95,314.94,151010,,,A*7D
$GPRMC,001117.000,A,3748.7869,N,12217.8672,W,1.43,335.14,151010,,,A*7C
$GPRMC,001118.000,A,3748.7873,N,12217.8674,W,1.43,335.14,151010,,,E*7A
$GPRMC,001119.000,A,3748.7877,N,12217.8676,W,1.43,335.14,151010,,,E*7D
$GPRMC,001120.000,A,3748.7880,N,12217.8678,W,1.43,335.14,151010,,,E*71
$GPRMC,001121.000,A,3748.7882,N,12217.8674,W,0.96,2.16,151010,,,A*76
$GPRMC,001122.000,A,3748.7860,N,12217.8640,W,0.95,128.50,151010,,,A*76
$GPRMC,001123.000,A,3748.7832,N,12217.8600,W,2.90,148.41,151010,,,A*75
$GPRMC,001124.000,A,3748.7820,N,12217.8576,W,3.11,126.69,151010,,,A*79
$GPRMC,001125.000,A,3748.7823,N,12217.8578,W,1.72,141.06,151010,,,A*7A
$GPRMC,001126.000,A,3748.7815,N,12217.8561,W,1.97,125.01,151010,,,A*7A
$GPRMC,001127.000,A,3748.7816,N,12217.8560,W,1.18,107.60,151010,,,A*79
$GPRMC,001128.000,A,3748.7821,N,12217.8578,W,0.87,268.63,151010,,,A*75
$GPRMC,001129.000,A,3748.7820,N,12217.8585,W,1.38,273.69,151010,,,A*72
$GPRMC,001130.000,A,3748.7822,N,12217.8599,W,1.57,290.84,151010,,,A*72
$GPRMC,001131.000,A,3748.7824,N,12217.8612,W,1.85,282.34,151010,,,A*72
$GPRMC,001132.000,A,3748.7847,N,12217.8643,W,3.20,309.02,151010,,,A*7A
$GPRMC,001133.000,A,3748.7866,N,12217.8677,W,3.43,303.64,151010,,,A*70
$GPRMC,001134.000,A,3748.7873,N,12217.8687,W,1.69,299.25,151010,,,A*71
$GPRMC,001135.000,A,3748.7871,N,12217.8687,W,1.76,311.13,151010,,,A*78
$GPRMC,001136.000,A,3748.7873,N,12217.8699,W,1.06,297.67,151010,,,A*7D
$GPRMC,001137.000,A,3748.7874,N,12217.8699,W,1.30,261.56,151010,,,A*75
$GPRMC,001138.000,A,3748.7880,N,12217.8702,W,0.69,264.58,151010,,,A*74
$GPRMC,001139.000,A,3748.7886,N,12217.8704,W,0.62,332.66,151010,,,A*71
$GPRMC,001140.000,A,3748.7898,N,12217.8710,W,0.62,337.21,151010,,,A*73
$GPRMC,001141.000,A,3748.7904,N,12217.8717,W,0.75,305.31,151010,,,A*77
$GPRMC,001142.000,A,3748.7910,N,12217.8719,W,0.43,300.39,151010,,,A*77
$GPRMC,001143.000,A,3748.7916,N,12217.8731,W,0.19,332.67,151010,,,A*7F
$GPRMC,001144.000,A,3748.7922,N,12217.8739,W,0.47,255.51,151010,,,A*79
$GPRMC,001145.000,A,3748.7930,N,12217.8748,W,0.49,357.85,151010,,,A*79
$GPRMC,001146.000,A,3748.7938,N,12217.8759,W,1.65,304.45,151010,,,A*77
$GPRMC,001147.000,A,3748.7940,N,12217.8758,W,0.47,289.87,151010,,,A*73
$GPRMC,001148.000,A,3748.7935,N,12217.8759,W,0.80,245.50,151010,,,A*7E
$GPRMC,001149.000,A,3748.7931,N,12217.8759,W,0.41,275.48,151010,,,A*7C
$GPRMC,001150.000,A,3748.7933,N,12217.8758,W,0.39,204.30,151010,,,A*71
$GPRMC,001151.000,A,3748.7933,N,12217.8747,W,0.47,196.81,151010,,,A*75
$GPRMC,001152.000,A,3748.7933,N,12217.8733,W,0.17,131.86,151010,,,A*7A
$GPRMC,001153.000,A,3748.7930,N,12217.8713,W,0.71,115.87,151010,,,A*7D
$GPRMC,001154.000,A,3748.7931,N,12217.8702,W,0.33,115.29,151010,,,A*79
$GPRMC,001155.000,A,3748.7931,N,12217.8704,W,0.57,266.86,151010,,,A*7E
$GPRMC,001156.000,A,3748.7930,N,12217.8717,W,1.35,210.74,151010,,,A*77
$GPRMC,001157.000,A,3748.7925,N,12217.8729,W,1.59,195.09,151010,,,A*71
$GPRMC,001158.000,A,3748.7917,N,12217.8726,W,1.13,193.04,151010,,,A*75
$GPRMC,001159.000,A,3748.7903,N,12217.8714,W,1.26,157.60,151010,,,A*7C
$GPRMC,001200.000,A,3748.7902,N,12217.8715,W,1.14,174.66,151010,,,A*75
$GPRMC,001201.000,A,3748.7888,N,12217.8708,W,0.81,198.12,151010,,,A*77
$GPRMC,001202.000,A,3748.7882,N,12217.8705,W,0.75,138.11,151010,,,A*71
$GPRMC,001203.000,A,3748.7877,N,12217.8704,W,0.69,121.81,151010,,,A*77
$GPRMC,001204.000,A,3748.7871,N,12217.8710,W,1.18,175.75,151010,,,A*7E
$GPRMC,001205.000,A,3748.7859,N,12217.8709,W,1.16,147.10,151010,,,A*71
$GPRMC,001206.000,A,3748.7845,N,12217.8701,W,1.10,143.70,151010,,,A*73
$GPRMC,001207.000,A,3748.7834,N,12217.8702,W,0.93,196.43,151010,,,A*75
$GPRMC,001208.000,A,3748.7832,N,12217.8694,W,0.44,247.13,151010,,,A*72
$GPRMC,001209.000,A,3748.7832,N,12217.8688,W,0.27,105.93,151010,,,A*76
$GPRMC,001210.000,A,3748.7832,N,12217.8695,W,0.99,308.31,151010,,,A*70
$GPRMC,001211.000,A,3748.7835,N,12217.8696,W,1.74,290.49,151010,,,A*78
$GPRMC,001212.000,A,3748.7837,N,12217.8693,W,0.54,305.71,151010,,,A*79
$GPRMC,001213.000,A,3748.7837,N,12217.8687,W,0.50,45.85,151010,,,A*45
$GPRMC,001214.000,A,3748.7837,N,12217.8683,W,0.41,131.46,151010,,,A*7B
$GPRMC,001215.000,A,3748.7836,N,12217.8688,W,0.51,74.96,151010,,,A*4C
$GPRMC,001216.000,A,3748.7827,N,12217.8681,W,1.15,116.43,151010,,,A*7A
$GPRMC,001217.000,A,3748.7824,N,12217.8683,W,0.36,206.70,151010,,,A*78
$GPRMC,001218.000,A,3748.7821,N,12217.8688,W,0.71,263.26,151010,,,A*7A
$GPRMC,001219.000,A,3748.7822,N,12217.8685,W,0.13,39.95,151010,,,A*44
$GPRMC,001220.000,A,3748.7821,N,12217.8670,W,0.60,99.92,151010,,,A*4E
$GPRMC,001221.000,A,3748.7811,N,12217.8658,W,1.00,113.28,151010,,,A*73
$GPRMC,001222.000,A,3748.7806,N,12217.8637,W,2.59,126.44,151010,,,A*7C
$GPRMC,001223.000,A,3748.7804,N,12217.8631,W,2.05,122.19,151010,,,A*7C
$GPRMC,001224.000,A,3748.7799,N,12217.8625,W,2.67,119.86,151010,,,A*7F
$GPRMC,001225.000,A,3748.7799,N,12217.8605,W,3.56,110.69,151010,,,A*77
$GPRMC,001226.000,A,3748.7802,N,12217.8592,W,1.96,88.56,151010,,,A*46
$GPRMC,001227.000,A,3748.7809,N,12217.8582,W,1.69,75.99,151010,,,A*4C
$GPRMC,001228.000,A,3748.7801,N,12217.8568,W,1.05,117.91,151010,,,A*78
$GPRMC,001229.000,A,3748.7796,N,12217.8559,W,1.63,154.50,151010,,,A*70
$GPRMC,001230.000,A,3748.7794,N,12217.8549,W,0.97,146.70,151010,,,A*70
$GPRMC,001231.000,A,3748.7789,N,12217.8537,W,1.44,127.13,151010,,,A*79
$GPRMC,001232.000,A,3748.7794,N,12217.8540,W,0.29,7.61,151010,,,A*7A
$GPRMC,001233.000,A,3748.7800,N,12217.8559,W,0.91,307.86,151010,,,A*78
$GPRMC,001234.000,A,3748.7803,N,12217.8561,W,0.39,53.25,151010,,,A*4E
$GPRMC,001235.000,A,3748.7809,N,12217.8574,W,0.73,111.01,151010,,,A*7E
$GPRMC,001236.000,A,3748.7798,N,12217.8561,W,1.77,143.64,151010,,,A*7F
$GPRMC,001237.000,A,3748.7791,N,12217.8544,W,2.57,132.44,151010,,,A*75
$GPRMC,001238.000,A,3748.7791,N,12217.8546,W,1.61,110.80,151010,,,A*76
$GPRMC,001239.000,A,3748.7795,N,12217.8546,W,1.06,107.58,151010,,,A*71
$GPRMC,001240.000,A,3748.7805,N,12217.8554,W,1.14,76.11,151010,,,A*43
$GPRMC,001241.000,A,3748.7805,N,12217.8553,W,0.44,148.98,151010,,,A*7C
$GPRMC,001242.000,A,3748.7806,N,12217.8559,W,1.21,144.43,151010,,,A*7E
$GPRMC,001243.000,A,3748.7806,N,12217.8558,W,1.96,126.14,151010,,,A*74
$GPRMC,001244.000,A,3748.7805,N,12217.8557,W,1.43,100.33,151010,,,A*76
$GPRMC,001245.000,A,3748.7807,N,12217.8559,W,1.03,106.84,151010,,,A*75
$GPRMC,001246.000,A,3748.7800,N,12217.8553,W,1.58,130.04,151010,,,A*78
$GPRMC,001247.000,A,3748.7805,N,12217.8565,W,0.27,168.85,151010,,,A*74
$GPRMC,001248.000,A,3748.7806,N,12217.8566,W,0.63,244.99,151010,,,A*7B
$GPRMC,001249.000,A,3748.7809,N,12217.8569,W,1.13,247.65,151010,,,A*7C
$GPRMC,001250.000,A,3748.7801,N,12217.8564,W,1.16,180.37,151010,,,A*7B
$GPRMC,001251.000,A,3748.7790,N,12217.8546,W,2.20,140.54,151010,,,A*72
$GPRMC,001252.000,A,3748.7785,N,12217.8545,W,1.15,165.58,151010,,,A*78
$GPRMC,001253.000,A,3748.7766,N,12217.8525,W,1.09,149.68,151010,,,A*72
$GPRMC,001254.000,A,3748.7757,N,12217.8512,W,1.06,173.02,151010,,,A*79
$GPRMC,001255.000,A,3748.7771,N,12217.8542,W,2.28,282.35,151010,,,A*7F
$GPRMC,001256.000,A,3748.7784,N,12217.8555,W,1.47,298.10,151010,,,A*76
$GPRMC,001257.000,A,3748.7798,N,12217.8570,W,0.70,326.99,151010,,,A*7D
$GPRMC,001258.000,A,3748.7811,N,12217.8586,W,1.43,289.57,151010,,,A*72
$GPRMC,001259.000,A,3748.7826,N,12217.8609,W,2.35,311.64,151010,,,A*71
$GPRMC,001300.000,A,3748.7833,N,12217.8618,W,2.54,304.38,151010,,,A*72
$GPRMC,001301.000,A,3748.7829,N,12217.8618,W,0.90,291.80,151010,,,A*7C
$GPRMC,001302.000,A,3748.7825,N,12217.8601,W,0.66,63.24,151010,,,A*43
$GPRMC,001303.000,A,3748.7826,N,12217.8590,W,1.84,115.71,151010,,,A*77
$GPRMC,001304.000,A,3748.7825,N,12217.8578,W,2.49,132.52,151010,,,A*73
$GPRMC,001305.000,A,3748.7820,N,12217.8562,W,3.46,131.95,151010,,,A*7A
$GPRMC,001306.000,A,3748.7817,N,12217.8550,W,3.30,131.86,151010,,,A*7F
$GPRMC,001307.000,A,3748.7827,N,12217.8545,W,2.73,110.81,151010,,,A*7B
$GPRMC,001308.000,A,3748.7822,N,12217.8533,W,2.78,123.73,151010,,,A*76
$GPRMC,001309.000,A,3748.7812,N,12217.8515,W,3.33,132.18,151010,,,A*73
$GPRMC,001310.000,A,3748.7810,N,12217.8503,W,3.03,121.67,151010,,,A*77
$GPRMC,001311.000,A,3748.7816,N,12217.8500,W,2.86,128.86,151010,,,A*79
$GPRMC,001312.000,A,3748.7818,N,12217.8495,W,2.50,123.87,151010,,,A*78
$GPRMC,001313.000,A,3748.7817,N,12217.8492,W,2.64,114.90,151010,,,A*74
$GPRMC,001314.000,A,3748.7816,N,12217.8486,W,2.60,118.19,151010,,,A*7E
$GPRMC,001315.000,A,3748.7813,N,12217.8479,W,2.68,119.94,151010,,,A*76
$GPRMC,001316.000,A,3748.7810,N,12217.8471,W,2.74,126.97,151010,,,A*7C
$GPRMC,001317.000,A,3748.7805,N,12217.8466,W,2.72,135.69,151010,,,A*7A
$GPRMC,001318.000,A,3748.7800,N,12217.8459,W,2.65,134.65,151010,,,A*77
$GPRMC,001319.000,A,3748.7795,N,12217.8453,W,2.51,129.12,151010,,,A*74
$GPRMC,001320.000,A,3748.7790,N,12217.8447,W,2.58,131.16,151010,,,A*7A
$GPRMC,001321.000,A,3748.7785,N,12217.8440,W,2.42,129.17,151010,,,A*7B
$GPRMC,001322.000,A,3748.7781,N,12217.8434,W,2.51,125.70,151010,,,A*70
$GPRMC,001323.000,A,3748.7776,N,12217.8426,W,2.60,126.73,151010,,,A*78
$GPRMC,001324.000,A,3748.7772,N,12217.8419,W,2.73,126.73,151010,,,A*75
$GPRMC,001325.000,A,3748.7767,N,12217.8410,W,2.78,123.27,151010,,,A*76
$GPRMC,001326.000,A,3748.7763,N,12217.8402,W,2.70,121.22,151010,,,A*7D
$GPRMC,001327.000,A,3748.7759,N,12217.8394,W,2.75,122.86,151010,,,A*75
$GPRMC,001328.000,A,3748.7754,N,12217.8385,W,2.76,123.14,151010,,,A*7E
$GPRMC,001329.000,A,3748.7750,N,12217.8377,W,2.78,120.81,151010,,,A*77
$GPRMC,001330.000,A,3748.7747,N,12217.8368,W,2.65,119.36,151010,,,A*7D
$GPRMC,001331.000,A,3748.7743,N,12217.8360,W,2.66,120.08,151010,,,A*74
$GPRMC,001332.000,A,3748.7739,N,12217.8352,W,2.67,122.19,151010,,,A*78
$GPRMC,001333.000,A,3748.7736,N,12217.8344,W,2.73,121.01,151010,,,A*7E
$GPRMC,001334.000,A,3748.7737,N,12217.8342,W,2.58,124.73,151010,,,A*77
$GPRMC,001335.000,A,3748.7734,N,12217.8335,W,2.69,124.73,151010,,,A*77
$GPRMC,001336.000,A,3748.7733,N,12217.8334,W,2.59,123.51,151010,,,A*76
$GPRMC,001337.000,A,3748.7732,N,12217.8331,W,2.66,125.38,151010,,,A*76
$GPRMC,001338.000,A,3748.7722,N,12217.8318,W,3.39,130.45,151010,,,A*76
$GPRMC,001339.000,A,3748.7717,N,12217.8310,W,2.71,130.92,151010,,,A*7E
$GPRMC,001340.000,A,3748.7711,N,12217.8295,W,3.42,126.23,151010,,,A*76
$GPRMC,001341.000,A,3748.7706,N,12217.8282,W,3.04,125.72,151010,,,A*72
$GPRMC,001342.000,A,3748.7700,N,12217.8271,W,2.83,125.93,151010,,,A*7A
$GPRMC,001343.000,A,3748.7695,N,12217.8258,W,2.95,126.20,151010,,,A*71
$GPRMC,001344.000,A,3748.7692,N,12217.8251,W,2.47,123.93,151010,,,A*7A
$GPRMC,001345.000,A,3748.7688,N,12217.8245,W,2.11,130.15,151010,,,A*7A
$GPRMC,001346.000,A,3748.7680,N,12217.8229,W,2.64,128.25,151010,,,A*73
$GPRMC,001347.000,A,3748.7683,N,12217.8228,W,1.85,124.77,151010,,,A*77
$GPRMC,001348.000,A,3748.7678,N,12217.8217,W,2.74,120.99,151010,,,A*79
$GPRMC,001349.000,A,3748.7674,N,12217.8209,W,1.94,132.54,151010,,,A*74
$GPRMC,001350.000,A,3748.7677,N,12217.8206,W,1.64,133.20,151010,,,A*7D
$GPRMC,001351.000,A,3748.7667,N,12217.8197,W,3.07,158.27,151010,,,A*7B
$GPRMC,001352.000,A,3748.7661,N,12217.8199,W,3.99,175.39,151010,,,A*77
$GPRMC,001353.000,A,3748.7645,N,12217.8185,W,5.32,162.03,151010,,,A*75
$GPRMC,001354.000,A,3748.7631,N,12217.8180,W,5.32,162.03,151010,,,E*70
$GPRMC,001355.000,A,3748.7617,N,12217.8174,W,5.32,162.03,151010,,,E*7E
$GPRMC,001356.000,A,3748.7603,N,12217.8168,W,5.32,162.03,151010,,,E*75
$GPRMC,001357.000,A,3748.7588,N,12217.8162,W,5.32,162.03,151010,,,E*7E
$GPRMC,001358.000,A,3748.7574,N,12217.8157,W,5.32,162.03,151010,,,E*74
$GPRMC,001359.000,A,3748.7619,N,12217.8126,W,2.67,91.31,151010,,,A*44
$GPRMC,001400.000,A,3748.7679,N,12217.8129,W,1.63,20.38,151010,,,A*42
$GPRMC,001401.000,A,3748.7696,N,12217.8125,W,1.45,56.06,151010,,,A*46
$GPRMC,001402.000,A,3748.7676,N,12217.8102,W,0.86,93.62,151010,,,A*4B
$GPRMC,001403.000,A,3748.7661,N,12217.8083,W,2.09,133.42,151010,,,A*78
$GPRMC,001404.000,A,3748.7653,N,12217.8086,W,1.51,137.12,151010,,,A*74
$GPRMC,001405.000,A,3748.7644,N,12217.8087,W,2.07,136.94,151010,,,A*7D
$GPRMC,001406.000,A,3748.7644,N,12217.8090,W,2.02,127.00,151010,,,A*70
$GPRMC,001407.000,A,3748.7644,N,12217.8087,W,2.28,127.54,151010,,,A*7E
$GPRMC,001408.000,A,3748.7643,N,12217.8088,W,2.02,122.95,151010,,,A*79
$GPRMC,001409.000,A,3748.7639,N,12217.8084,W,2.11,124.92,151010,,,A*7A
$GPRMC,001410.000,A,3748.7636,N,12217.8083,W,2.24,124.78,151010,,,A*78
$GPRMC,001411.000,A,3748.7632,N,12217.8082,W,2.24,124.08,151010,,,A*7B
$GPRMC,001412.000,A,3748.7627,N,12217.8075,W,2.58,131.54,151010,,,A*72
$GPRMC,001413.000,A,3748.7629,N,12217.8074,W,2.40,126.89,151010,,,A*73
$GPRMC,001414.000,A,3748.7626,N,12217.8069,W,2.15,121.51,151010,,,A*75
$GPRMC,001415.000,A,3748.7619,N,12217.8064,W,2.54,131.47,151010,,,A*76
$GPRMC,001416.000,A,3748.7614,N,12217.8054,W,2.56,122.48,151010,,,A*74
$GPRMC,001417.000,A,3748.7611,N,12217.8044,W,2.21,121.89,151010,,,A*7F
$GPRMC,001418.000,A,3748.7603,N,12217.8032,W,2.44,125.92,151010,,,A*7F
$GPRMC,001419.000,A,3748.7593,N,12217.8020,W,3.06,132.40,151010,,,A*79
$GPRMC,001420.000,A,3748.7593,N,12217.8016,W,2.88,130.16,151010,,,A*70
$GPRMC,001421.000,A,3748.7595,N,12217.8014,W,1.84,137.54,151010,,,A*7B
$GPRMC,001422.000,A,3748.7595,N,12217.8010,W,2.04,124.81,151010,,,A*7D
$GPRMC,001423.000,A,3748.7594,N,12217.8007,W,2.15,122.40,151010,,,A*70
$GPRMC,001424.000,A,3748.7594,N,12217.8004,W,2.03,127.32,151010,,,A*73
$GPRMC,001425.000,A,3748.7592,N,12217.8003,W,1.86,132.59,151010,,,A*74
$GPRMC,001426.000,A,3748.7590,N,12217.7999,W,2.04,122.86,151010,,,A*7A
$GPRMC,001427.000,A,3748.7589,N,12217.7999,W,2.03,122.26,151010,,,A*7E
$GPRMC,001428.000,A,3748.7588,N,12217.8000,W,2.13,126.11,151010,,,A*77
$GPRMC,001429.000,A,3748.7584,N,12217.7996,W,2.14,118.99,151010,,,A*79
$GPRMC,001430.000,A,3748.7580,N,12217.7993,W,2.07,127.46,151010,,,A*7C
$GPRMC,001431.000,A,3748.7571,N,12217.7986,W,2.83,126.11,151010,,,A*78
$GPRMC,001432.000,A,3748.7562,N,12217.7976,W,2.20,125.93,151010,,,A*76
$GPRMC,001433.000,A,3748.7557,N,12217.7968,W,2.77,124.23,151010,,,A*76
$GPRMC,001434.000,A,3748.7551,N,12217.7960,W,2.38,124.42,151010,,,A*73
$GPRMC,001435.000,A,3748.7544,N,12217.7949,W,2.28,117.61,151010,,,A*7D
$GPRMC,001436.000,A,3748.7541,N,12217.7944,W,1.50,118.77,151010,,,A*72
$GPRMC,001437.000,A,3748.7538,N,12217.7937,W,2.10,118.27,151010,,,A*7B
$GPRMC,001438.000,A,3748.7535,N,12217.7930,W,2.55,120.68,151010,,,A*7F
$GPRMC,001439.000,A,3748.7531,N,12217.7922,W,2.50,121.73,151010,,,A*77
$GPRMC,001440.000,A,3748.7526,N,12217.7914,W,2.44,124.87,151010,,,A*71
$GPRMC,001441.000,A,3748.7522,N,12217.7906,W,2.53,124.88,151010,,,A*7E
$GPRMC,001442.000,A,3748.7517,N,12217.7899,W,2.25,125.62,151010,,,A*78
$GPRMC,001443.000,A,3748.7513,N,12217.7891,W,2.28,133.06,151010,,,A*7D
$GPRMC,001444.000,A,3748.7508,N,12217.7883,W,2.39,127.43,151010,,,A*77
$GPRMC,001445.000,A,3748.7503,N,12217.7875,W,2.55,125.88,151010,,,A*7B
$GPRMC,001446.000,A,3748.7498,N,12217.7866,W,2.57,118.38,151010,,,A*7E
$GPRMC,001447.000,A,3748.7494,N,12217.7857,W,2.61,114.83,151010,,,A*78
$GPRMC,001448.000,A,3748.7491,N,12217.7848,W,2.64,119.39,151010,,,A*75
$GPRMC,001449.000,A,3748.7487,N,12217.7840,W,2.69,122.09,151010,,,A*7D
$GPRMC,001450.000,A,3748.7483,N,12217.7831,W,2.68,117.52,151010,,,A*7E
$GPRMC,001451.000,A,3748.7483,N,12217.7829,W,2.57,120.60,151010,,,A*7F
$GPRMC,001452.000,A,3748.7481,N,12217.7824,W,2.42,122.61,151010,,,A*74
$GPRMC,001453.000,A,3748.7478,N,12217.7819,W,2.31,124.78,151010,,,A*77
$GPRMC,001454.000,A,3748.7479,N,12217.7817,W,2.13,126.20,151010,,,A*70
$GPRMC,001455.000,A,3748.7478,N,12217.7814,W,1.86,126.10,151010,,,A*7F
$GPRMC,001456.000,A,3748.7475,N,12217.7811,W,2.31,133.38,151010,,,A*75
$GPRMC,001457.000,A,3748.7472,N,12217.7808,W,2.25,142.39,151010,,,A*79
$GPRMC,001458.000,A,3748.7465,N,12217.7799,W,2.26,131.07,151010,,,A*7D
$GPRMC,001459.000,A,3748.7456,N,12217.7791,W,2.71,129.79,151010,,,A*76
$GPRMC,001500.000,A,3748.7452,N,12217.7793,W,2.70,128.85,151010,,,A*7E
$GPRMC,001501.000,A,3748.7442,N,12217.7784,W,3.26,131.74,151010,,,A*7C
$GPRMC,001502.000,A,3748.7434,N,12217.7775,W,2.92,127.13,151010,,,A*78
$GPRMC,001503.000,A,3748.7427,N,12217.7763,W,2.62,121.89,151010,,,A*76
$GPRMC,001504.000,A,3748.7425,N,12217.7757,W,1.84,117.84,151010,,,A*77
$GPRMC,001505.000,A,3748.7417,N,12217.7743,W,2.30,117.39,151010,,,A*78
$GPRMC,001506.000,A,3748.7411,N,12217.7729,W,2.63,111.17,151010,,,A*7D
$GPRMC,001507.000,A,3748.7406,N,12217.7718,W,3.09,117.28,151010,,,A*7F
$GPRMC,001508.000,A,3748.7404,N,12217.7710,W,2.69,120.30,151010,,,A*70
$GPRMC,001509.000,A,3748.7403,N,12217.7706,W,2.51,120.58,151010,,,A*74
$GPRMC,001510.000,A,3748.7404,N,12217.7704,W,2.16,119.84,151010,,,A*71
$GPRMC,001511.000,A,3748.7403,N,12217.7700,W,2.29,122.72,151010,,,A*7E
$GPRMC,001512.000,A,3748.7402,N,12217.7695,W,2.26,120.76,151010,,,A*78
$GPRMC,001513.000,A,3748.7400,N,12217.7690,W,2.27,123.29,151010,,,A*76
$GPRMC,001514.000,A,3748.7400,N,12217.7687,W,2.12,126.38,151010,,,A*74
$GPRMC,001515.000,A,3748.7398,N,12217.7682,W,2.23,124.49,151010,,,A*70
$GPRMC,001516.000,A,3748.7396,N,12217.7677,W,2.01,118.84,151010,,,A*79
$GPRMC,001517.000,A,3748.7395,N,12217.7671,W,2.09,118.69,151010,,,A*76
$GPRMC,001518.000,A,3748.7393,N,12217.7665,W,2.20,120.78,151010,,,A*7A
$GPRMC,001519.000,A,3748.7391,N,12217.7660,W,2.01,120.61,151010,,,D*72
$GPRMC,001520.000,A,3748.7389,N,12217.7656,W,2.04,122.75,151010,,,D*76
$GPRMC,001521.000,A,3748.7386,N,12217.7651,W,2.30,123.12,151010,,,D*78
$GPRMC,001522.000,A,3748.7383,N,12217.7645,W,2.40,127.35,151010,,,D*7D
$GPRMC,001523.000,A,3748.7377,N,12217.7638,W,2.46,133.92,151010,,,D*73
$GPRMC,001524.000,A,3748.7374,N,12217.7635,W,1.95,144.49,151010,,,D*71
$GPRMC,001525.000,A,3748.7368,N,12217.7629,W,1.40,157.63,151010,,,D*72
$GPRMC,001526.000,A,3748.7366,N,12217.7631,W,0.60,155.19,151010,,,D*7A
$GPRMC,001527.000,A,3748.7366,N,12217.7636,W,0.08,153.12,151010,,,D*7F
$GPRMC,001528.000,A,3748.7367,N,12217.7643,W,0.25,285.13,151010,,,D*75
$GPRMC,001529.000,A,3748.7367,N,12217.7651,W,0.47,288.02,151010,,,D*7E
$GPRMC,001530.000,A,3748.7366,N,12217.7661,W,0.54,289.13,151010,,,D*77
$GPRMC,001531.000,A,3748.7366,N,12217.7670,W,0.60,286.02,151010,,,D*7E
$GPRMC,001532.000,A,3748.7364,N,12217.7677,W,0.50,275.75,151010,,,D*77
$GPRMC,001533.000,A,3748.7363,N,12217.7683,W,0.33,278.39,151010,,,D*7A
$GPRMC,001534.000,A,3748.7362,N,12217.7689,W,0.33,266.50,151010,,,D*76
$GPRMC,001535.000,A,3748.7362,N,12217.7690,W,0.15,280.83,151010,,,D*7D
$GPRMC,001536.000,A,3748.7363,N,12217.7689,W,0.03,131.34,151010,,,D*75
$GPRMC,001537.000,A,3748.7366,N,12217.7683,W,0.31,80.41,151010,,,D*43
$GPRMC,001538.000,A,3748.7369,N,12217.7678,W,0.61,55.84,151010,,,D*43
$GPRMC,001539.000,A,3748.7372,N,12217.7674,W,0.64,60.90,151010,,,D*42
$GPRMC,001540.000,A,3748.7373,N,12217.7670,W,0.61,143.18,151010,,,D*7C
$GPRMC,001541.000,A,3748.7374,N,12217.7670,W,1.00,174.24,151010,,,D*77
$GPRMC,001542.000,A,3748.7368,N,12217.7667,W,1.59,188.90,151010,,,D*7F
$GPRMC,001543.000,A,3748.7363,N,12217.7664,W,1.44,203.25,151010,,,D*74
$GPRMC,001544.000,A,3748.7363,N,12217.7670,W,1.28,200.85,151010,,,D*75
$GPRMC,001545.000,A,3748.7361,N,12217.7673,W,1.33,163.79,151010,,,D*7A
$GPRMC,001546.000,A,3748.7361,N,12217.7678,W,1.45,151.53,151010,,,D*7A
$GPRMC,001547.000,A,3748.7362,N,12217.7687,W,0.63,150.66,151010,,,D*7A
$GPRMC,001548.000,A,3748.7361,N,12217.7692,W,0.34,240.53,151010,,,D*74
$GPRMC,001549.000,A,3748.7365,N,12217.7702,W,0.32,262.03,151010,,,D*7A
$GPRMC,001550.000,A,3748.7371,N,12217.7718,W,0.79,334.32,151010,,,D*73
$GPRMC,001551.000,A,3748.7373,N,12217.7727,W,1.16,329.75,151010,,,D*7B
$GPRMC,001552.000,A,3748.7389,N,12217.7748,W,0.80,319.71,151010,,,D*7D
$GPRMC,001553.000,A,3748.7403,N,12217.7769,W,0.78,309.62,151010,,,D*7E
$GPRMC,001554.000,A,3748.7416,N,12217.7788,W,0.84,307.78,151010,,,D*74
$GPRMC,001555.000,A,3748.7422,N,12217.7796,W,0.40,307.07,151010,,,D*7D
$GPRMC,001556.000,A,3748.7419,N,12217.7793,W,0.19,320.53,151010,,,D*7B
$GPRMC,001557.000,A,3748.7416,N,12217.7798,W,0.49,295.49,151010,,,D*7F
$GPRMC,001558.000,A,3748.7416,N,12217.7802,W,0.30,284.11,151010,,,D*7F
$GPRMC,001559.000,A,3748.7421,N,12217.7813,W,0.79,311.57,151010,,,D*78
$GPRMC,001600.000,A,3748.7419,N,12217.7812,W,0.79,305.74,151010,,,D*79
$GPRMC,001601.000,A,3748.7423,N,12217.7816,W,0.26,306.59,151010,,,D*73
$GPRMC,001602.000,A,3748.7410,N,12217.7799,W,1.06,128.55,151010,,,D*79
$GPRMC,001603.000,A,3748.7403,N,12217.7787,W,1.84,130.79,151010,,,D*78
$GPRMC,001604.000,A,3748.7395,N,12217.7775,W,2.02,130.16,151010,,,D*7E
$GPRMC,001605.000,A,3748.7381,N,12217.7752,W,1.88,121.18,151010,,,D*70
$GPRMC,001606.000,A,3748.7366,N,12217.7724,W,1.46,110.43,151010,,,D*75
$GPRMC,001607.000,A,3748.7343,N,12217.7692,W,1.59,130.21,151010,,,D*77
$GPRMC,001608.000,A,3748.7326,N,12217.7664,W,1.91,136.31,151010,,,D*71
$GPRMC,001609.000,A,3748.7317,N,12217.7646,W,1.50,135.61,151010,,,D*79
$GPRMC,001610.000,A,3748.7311,N,12217.7630,W,1.39,125.12,151010,,,D*7C
$GPRMC,001611.000,A,3748.7306,N,12217.7622,W,1.00,138.61,151010,,,D*7A
$GPRMC,001612.000,A,3748.7304,N,12217.7618,W,1.18,141.97,151010,,,D*7C
$GPRMC,001613.000,A,3748.7306,N,12217.7620,W,1.45,137.34,151010,,,D*74
$GPRMC,001614.000,A,3748.7305,N,12217.7616,W,1.34,128.03,151010,,,D*79
$GPRMC,001615.000,A,3748.7303,N,12217.7611,W,1.07,125.66,151010,,,D*77
$GPRMC,001616.000,A,3748.7303,N,12217.7606,W,1.07,120.46,151010,,,D*75
$GPRMC,001617.000,A,3748.7301,N,12217.7605,W,1.01,132.44,151010,,,D*72
$GPRMC,001618.000,A,3748.7296,N,12217.7606,W,0.40,198.53,151010,,,D*73
$GPRMC,001619.000,A,3748.7288,N,12217.7591,W,1.02,124.33,151010,,,D*76
$GPRMC,001620.000,A,3748.7285,N,12217.7581,W,1.34,120.42,151010,,,D*77
$GPRMC,001621.000,A,3748.7284,N,12217.7577,W,0.97,123.19,151010,,,D*7B
$GPRMC,001622.000,A,3748.7278,N,12217.7577,W,1.63,132.39,151010,,,D*73
$GPRMC,001623.000,A,3748.7270,N,12217.7566,W,1.81,127.64,151010,,,D*7A
$GPRMC,001624.000,A,3748.7266,N,12217.7560,W,1.56,126.12,151010,,,D*76
$GPRMC,001625.000,A,3748.7263,N,12217.7559,W,1.33,125.45,151010,,,D*7A
$GPRMC,001626.000,A,3748.7262,N,12217.7559,W,1.25,120.14,151010,,,D*7E
$GPRMC,001627.000,A,3748.7263,N,12217.7563,W,1.10,124.84,151010,,,D*7C
$GPRMC,001628.000,A,3748.7264,N,12217.7565,W,1.03,113.21,151010,,,D*7B
$GPRMC,001629.000,A,3748.7261,N,12217.7562,W,1.01,124.92,151010,,,D*76
$GPRMC,001630.000,A,3748.7264,N,12217.7567,W,0.89,120.63,151010,,,D*75
$GPRMC,001631.000,A,3748.7272,N,12217.7583,W,0.72,132.72,151010,,,D*7E
$GPRMC,001632.000,A,3748.7279,N,12217.7592,W,0.49,116.12,151010,,,D*7E
$GPRMC,001633.000,A,3748.7285,N,12217.7595,W,0.30,76.68,151010,,,D*4F
$GPRMC,001634.000,A,3748.7290,N,12217.7594,W,0.23,155.78,151010,,,D*7E
$GPRMC,001635.000,A,3748.7295,N,12217.7595,W,0.18,74.68,151010,,,D*40
$GPRMC,001636.000,A,3748.7298,N,12217.7592,W,0.13,87.84,151010,,,D*4C
$GPRMC,001637.000,A,3748.7301,N,12217.7591,W,0.09,118.16,151010,,,D*78
$GPRMC,001638.000,A,3748.7301,N,12217.7586,W,0.13,114.82,151010,,,D*7B
$GPRMC,001639.000,A,3748.7302,N,12217.7582,W,0.08,124.96,151010,,,D*71
$GPRMC,001640.000,A,3748.7304,N,12217.7581,W,0.10,103.30,151010,,,D*7A
$GPRMC,001641.000,A,3748.7307,N,12217.7583,W,0.06,120.61,151010,,,D*78
$GPRMC,001642.000,A,3748.7308,N,12217.7583,W,0.08,164.63,151010,,,D*78
$GPRMC,001643.000,A,3748.7313,N,12217.7598,W,0.32,245.85,151010,,,D*78
$GPRMC,001644.000,A,3748.7319,N,12217.7610,W,0.42,293.87,151010,,,D*78
$GPRMC,001645.000,A,3748.7322,N,12217.7619,W,0.71,323.68,151010,,,D*73
$GPRMC,001646.000,A,3748.7323,N,12217.7626,W,0.62,318.62,151010,,,D*7D
$GPRMC,001647.000,A,3748.7325,N,12217.7628,W,0.66,302.18,151010,,,D*76
$GPRMC,001648.000,A,3748.7325,N,12217.7628,W,0.56,295.71,151010,,,D*7A
$GPRMC,001649.000,A,3748.7325,N,12217.7625,W,0.49,312.60,151010,,,D*76
$GPRMC,001650.000,A,3748.7326,N,12217.7625,W,0.57,315.35,151010,,,D*75
$GPRMC,001651.000,A,3748.7322,N,12217.7617,W,0.54,345.69,151010,,,D*7E
$GPRMC,001652.000,A,3748.7323,N,12217.7611,W,0.41,339.24,151010,,,D*7C
$GPRMC,001653.000,A,3748.7325,N,12217.7610,W,0.31,326.12,151010,,,D*76
$GPRMC,001654.000,A,3748.7326,N,12217.7611,W,0.26,324.01,151010,,,D*75
$GPRMC,001655.000,A,3748.7327,N,12217.7612,W,0.30,317.34,151010,,,D*77
$GPRMC,001656.000,A,3748.7329,N,12217.7613,W,0.41,309.06,151010,,,D*73
$GPRMC,001657.000,A,3748.7329,N,12217.7614,W,0.38,314.82,151010,,,D*7B
$GPRMC,001658.000,A,3748.7331,N,12217.7617,W,0.38,309.59,151010,,,D*74
$GPRMC,001659.000,A,3748.7333,N,12217.7623,W,0.42,302.10,151010,,,D*7B
$GPRMC,001700.000,A,3748.7336,N,12217.7629,W,0.59,306.83,151010,,,D*7D
$GPRMC,001701.000,A,3748.7340,N,12217.7637,W,0.63,314.57,151010,,,D*71
$GPRMC,001702.000,A,3748.7347,N,12217.7648,W,0.88,313.68,151010,,,D*73
$GPRMC,001703.000,A,3748.7352,N,12217.7658,W,0.87,311.72,151010,,,D*71
$GPRMC,001704.000,A,3748.7358,N,12217.7668,W,1.08,310.16,151010,,,D*7A
$GPRMC,001705.000,A,3748.7366,N,12217.7682,W,1.23,313.53,151010,,,D*79
$GPRMC,001706.000,A,3748.7375,N,12217.7695,W,1.37,312.77,151010,,,D*7C
$GPRMC,001707.000,A,3748.7384,N,12217.7711,W,1.62,307.69,151010,,,D*75
$GPRMC,001708.000,A,3748.7392,N,12217.7727,W,1.76,309.22,151010,,,D*7C
$GPRMC,001709.000,A,3748.7398,N,12217.7737,W,1.94,312.98,151010,,,D*71
$GPRMC,001710.000,A,3748.7404,N,12217.7747,W,2.01,313.93,151010,,,D*79
$GPRMC,001711.000,A,3748.7409,N,12217.7754,W,1.97,313.16,151010,,,D*76
$GPRMC,001712.000,A,3748.7415,N,12217.7763,W,2.09,314.04,151010,,,D*7C
$GPRMC,001713.000,A,3748.7422,N,12217.7773,W,2.14,312.33,151010,,,D*76
$GPRMC,001714.000,A,3748.7427,N,12217.7781,W,2.16,315.53,151010,,,D*7A
$GPRMC,001715.000,A,3748.7433,N,12217.7790,W,2.27,313.88,151010,,,D*7C
$GPRMC,001716.000,A,3748.7436,N,12217.7794,W,2.17,314.92,151010,,,D*71
$GPRMC,001717.000,A,3748.7448,N,12217.7809,W,2.32,316.73,151010,,,D*78
$GPRMC,001718.000,A,3748.7454,N,12217.7817,W,2.39,316.31,151010,,,D*78
$GPRMC,001719.000,A,3748.7466,N,12217.7830,W,2.69,318.84,151010,,,D*78
$GPRMC,001720.000,A,3748.7471,N,12217.7838,W,2.20,311.22,151010,,,D*74
$GPRMC,001721.000,A,3748.7475,N,12217.7848,W,1.77,300.30,151010,,,D*74
$GPRMC,001722.000,A,3748.7468,N,12217.7845,W,1.84,299.49,151010,,,D*75
$GPRMC,001723.000,A,3748.7470,N,12217.7854,W,1.94,303.45,151010,,,D*72
$GPRMC,001724.000,A,3748.7470,N,12217.7859,W,2.17,306.95,151010,,,D*78
$GPRMC,001725.000,A,3748.7468,N,12217.7859,W,1.81,309.28,151010,,,D*75
$GPRMC,001726.000,A,3748.7476,N,12217.7864,W,2.11,314.15,151010,,,D*7F
$GPRMC,001727.000,A,3748.7481,N,12217.7866,W,2.16,312.64,151010,,,D*73
$GPRMC,001728.000,A,3748.7484,N,12217.7866,W,2.01,314.73,151010,,,D*7F
$GPRMC,001729.000,A,3748.7482,N,12217.7866,W,1.62,304.75,151010,,,D*79
$GPRMC,001730.000,A,3748.7479,N,12217.7864,W,1.38,305.43,151010,,,D*7C
$GPRMC,001731.000,A,3748.7476,N,12217.7863,W,1.49,315.48,151010,,,D*79
$GPRMC,001732.000,A,3748.7473,N,12217.7862,W,1.19,309.74,151010,,,D*79
$GPRMC,001733.000,A,3748.7469,N,12217.7859,W,0.95,309.62,151010,,,D*79
$GPRMC,001734.000,A,3748.7467,N,12217.7856,W,1.08,314.02,151010,,,D*70
$GPRMC,001735.000,A,3748.7465,N,12217.7854,W,0.56,320.49,151010,,,D*73
$GPRMC,001736.000,A,3748.7465,N,12217.7855,W,1.09,312.86,151010,,,D*78
$GPRMC,001737.000,A,3748.7464,N,12217.7855,W,0.62,306.40,151010,,,D*7B
$GPRMC,001738.000,A,3748.7463,N,12217.7853,W,1.00,324.08,151010,,,D*7C
$GPRMC,001739.000,A,3748.7464,N,12217.7853,W,0.91,323.09,151010,,,D*75
$GPRMC,001740.000,A,3748.7466,N,12217.7850,W,0.44,323.21,151010,,,A*7D
$GPRMC,001741.000,A,3748.7462,N,12217.7846,W,0.40,199.41,151010,,,A*7E
$GPRMC,001742.000,A,3748.7457,N,12217.7840,W,0.40,184.63,151010,,,A*71
$GPRMC,001743.000,A,3748.7456,N,12217.7841,W,0.60,292.86,151010,,,A*7D
$GPRMC,001744.000,A,3748.7461,N,12217.7846,W,1.23,305.15,151010,,,A*7A
$GPRMC,001745.000,A,3748.7462,N,12217.7844,W,0.35,304.41,151010,,,A*7C
$GPRMC,001746.000,A,3748.7454,N,12217.7833,W,0.57,339.05,151010,,,A*70
$GPRMC,001747.000,A,3748.7449,N,12217.7824,W,0.84,354.23,151010,,,A*7A
$GPRMC,001748.000,A,3748.7450,N,12217.7821,W,0.19,351.32,151010,,,A*79
$GPRMC,001749.000,A,3748.7454,N,12217.7824,W,0.04,279.32,151010,,,A*7E
$GPRMC,001750.000,A,3748.7457,N,12217.7828,W,0.11,33.81,151010,,,A*49
$GPRMC,001751.000,A,3748.7456,N,12217.7826,W,0.40,151.88,151010,,,A*7F
$GPRMC,001752.000,A,3748.7458,N,12217.7828,W,0.29,10.66,151010,,,A*47
$GPRMC,001753.000,A,3748.7462,N,12217.7831,W,0.13,302.99,151010,,,A*7E
$GPRMC,001754.000,A,3748.7459,N,12217.7833,W,0.83,178.37,151010,,,A*71
$GPRMC,001755.000,A,3748.7455,N,12217.7831,W,0.29,162.33,151010,,,A*71
$GPRMC,001756.000,A,3748.7451,N,12217.7830,W,0.06,181.34,151010,,,A*70
$GPRMC,001757.000,A,3748.7449,N,12217.7829,W,0.07,37.17,151010,,,A*4C
$GPRMC,001758.000,A,3748.7448,N,12217.7826,W,0.16,57.11,151010,,,A*4D
$GPRMC,001759.000,A,3748.7446,N,12217.7826,W,0.18,21.84,151010,,,A*41
$GPRMC,001800.000,A,3748.7447,N,12217.7826,W,0.50,351.32,151010,,,A*76
$GPRMC,001801.000,A,3748.7450,N,12217.7829,W,0.79,340.18,151010,,,A*7D
$GPRMC,001802.000,A,3748.7456,N,12217.7835,W,1.08,337.24,151010,,,A*7D
$GPRMC,001803.000,A,3748.7456,N,12217.7837,W,0.56,344.17,151010,,,A*70
$GPRMC,001804.000,A,3748.7454,N,12217.7837,W,0.37,32.68,151010,,,A*48
$GPRMC,001805.000,A,3748.7455,N,12217.7838,W,0.36,174.03,151010,,,A*78
$GPRMC,001806.000,A,3748.7452,N,12217.7837,W,0.52,157.90,151010,,,A*7A
$GPRMC,001807.000,A,3748.7452,N,12217.7833,W,0.44,127.46,151010,,,A*74
$GPRMC,001808.000,A,3748.7455,N,12217.7832,W,0.28,125.72,151010,,,A*72
$GPRMC,001809.000,A,3748.7459,N,12217.7833,W,0.16,84.15,151010,,,A*48
$GPRMC,001810.000,A,3748.7449,N,12217.7822,W,0.64,149.77,151010,,,A*70
$GPRMC,001811.000,A,3748.7437,N,12217.7809,W,0.74,140.63,151010,,,A*7C
$GPRMC,001812.000,A,3748.7423,N,12217.7794,W,0.99,141.71,151010,,,A*70
$GPRMC,001813.000,A,3748.7410,N,12217.7781,W,1.13,140.72,151010,,,A*74
$GPRMC,001814.000,A,3748.7394,N,12217.7768,W,1.61,137.30,151010,,,A*7C
$GPRMC,001815.000,A,3748.7381,N,12217.7757,W,1.70,151.82,151010,,,A*7C
$GPRMC,001816.000,A,3748.7373,N,12217.7748,W,1.47,136.73,151010,,,A*77
$GPRMC,001817.000,A,3748.7368,N,12217.7741,W,1.45,132.38,151010,,,A*7C
$GPRMC,001818.000,A,3748.7368,N,12217.7736,W,0.95,110.80,151010,,,A*7C
$GPRMC,001819.000,A,3748.7362,N,12217.7732,W,1.49,143.57,151010,,,A*7F
$GPRMC,001820.000,A,3748.7358,N,12217.7729,W,1.42,134.38,151010,,,A*74
$GPRMC,001821.000,A,3748.7354,N,12217.7727,W,1.38,135.11,151010,,,A*70
$GPRMC,001822.000,A,3748.7351,N,12217.7725,W,1.37,132.19,151010,,,A*74
$GPRMC,001823.000,A,3748.7346,N,12217.7724,W,1.70,144.65,151010,,,A*7B
$GPRMC,001824.000,A,3748.7343,N,12217.7722,W,1.70,144.75,151010,,,A*7E
$GPRMC,001825.000,A,3748.7341,N,12217.7721,W,1.71,145.49,151010,,,A*71
$GPRMC,001826.000,A,3748.7339,N,12217.7719,W,1.62,146.50,151010,,,A*7F
$GPRMC,001827.000,A,3748.7339,N,12217.7719,W,1.40,142.86,151010,,,A*71
$GPRMC,001828.000,A,3748.7339,N,12217.7718,W,1.32,144.92,151010,,,A*79
$GPRMC,001829.000,A,3748.7337,N,12217.7719,W,1.05,136.82,151010,,,A*77
$GPRMC,001830.000,A,3748.7338,N,12217.7719,W,0.95,134.67,151010,,,A*71
$GPRMC,001831.000,A,3748.7339,N,12217.7719,W,0.79,140.45,151010,,,A*70
$GPRMC,001832.000,A,3748.7342,N,12217.7720,W,0.69,131.43,151010,,,A*74
$GPRMC,001833.000,A,3748.7345,N,12217.7720,W,0.56,128.73,151010,,,A*75
$GPRMC,001834.000,A,3748.7349,N,12217.7721,W,0.32,120.13,151010,,,A*73
$GPRMC,001835.000,A,3748.7354,N,12217.7722,W,0.32,102.52,151010,,,A*78
$GPRMC,001836.000,A,3748.7357,N,12217.7722,W,0.28,141.96,151010,,,A*7C
$GPRMC,001837.000,A,3748.7361,N,12217.7723,W,0.16,116.65,151010,,,A*7A
$GPRMC,001838.000,A,3748.7361,N,12217.7725,W,0.32,167.09,151010,,,A*79
