$ADVER,3080,2.3
$GPRMC,200354.656,A,3748.8023,N,12217.8654,W,1.31,309.25,200711,,,A*7B
$GPGGA,200355.656,3748.8064,N,12217.8697,W,1,04,3.1,15.1,M,-25.1,M,,0000*57
$GPGSA,A,3,26,07,28,08,,,,,,,,,5.9,3.1,5.1*39
$GPRMC,200355.656,A,3748.8064,N,12217.8697,W,0.59,354.39,200711,,,A*7C
$GPVTG,354.39,T,,M,0.59,N,1.1,K,A*09
$GPGGA,200356.656,3748.8058,N,12217.8688,W,1,04,3.1,14.2,M,-25.1,M,,0000*57
$GPGSA,A,3,26,07,28,08,,,,,,,,,5.9,3.1,5.1*39
$GPGSV,3,1,10,08,66,009,30,28,63,257,32,07,55,072,27,26,30,315,23*70
$GPGSV,3,2,10,19,24,049,28,13,20,151,30,05,18,268,37,11,13,102,28*79
$GPGSV,3,3,10,17,12,187,,10,11,218,38*72
$GPRMC,200356.656,A,3748.8058,N,12217.8688,W,0.60,339.65,200711,,,A*76
$GPVTG,339.65,T,,M,0.60,N,1.1,K,A*01
$GPGGA,200357.000,3748.8056,N,12217.8684,W,1,04,3.1,12.4,M,-25.1,M,,0000*51
$GPGSA,A,3,26,07,28,08,,,,,,,,,5.9,3.1,5.1*39
$GPRMC,200357.000,A,3748.8056,N,12217.8684,W,0.07,37.34,200711,,,A*48
$GPVTG,37.34,T,,M,0.07,N,0.1,K,A*38
$GPGGA,200358.000,3748.8050,N,12217.8675,W,1,04,3.1,12.0,M,-25.1,M,,0000*52
$GPGSA,A,3,26,07,28,08,,,,,,,,,5.9,3.1,5.1*39
$GPRMC,200358.000,A,3748.8050,N,12217.8675,W,0.04,121.96,200711,,,A*72
$GPVTG,121.96,T,,M,0.04,N,0.1,K,A*05
$GPGGA,200359.000,3748.8044,N,12217.8666,W,1,04,3.1,15.3,M,-25.1,M,,0000*50
$GPGSA,A,3,26,07,28,08,,,,,,,,,5.9,3.1,5.1*39
$GPRMC,200359.000,A,3748.8044,N,12217.8666,W,0.17,144.87,200711,,,A*75
$GPVTG,144.87,T,,M,0.17,N,0.3,K,A*06
$GPGGA,200400.000,3748.8043,N,12217.8662,W,1,04,3.1,15.0,M,-25.1,M,,0000*5B
$GPGSA,A,3,26,07,28,08,,,,,,,,,5.9,3.1,5.1*39
$GPRMC,200400.000,A,3748.8043,N,12217.8662,W,0.23,333.23,200711,,,A*76
$GPVTG,333.23,T,,M,0.23,N,0.4,K,A*0A
$GPGGA,200401.000,3748.8063,N,12217.8662,W,1,04,3.1,19.2,M,-25.1,M,,0000*56
$GPGSA,A,3,26,07,28,08,,,,,,,,,5.9,3.1,5.1*39
$GPGSV,3,1,11,08,66,009,27,28,63,257,32,07,55,072,31,26,30,315,18*78
$GPGSV,3,2,11,19,24,049,28,13,20,151,33,05,18,268,36,11,13,102,29*7B
$GPGSV,3,3,11,17,12,187,25,10,11,218,38,46,00,000,28*4C
$GPRMC,200401.000,A,3748.8063,N,12217.8662,W,0.77,357.57,200711,,,A*75
$GPVTG,357.57,T,,M,0.77,N,1.4,K,A*0B
$GPGGA,200402.000,3748.8078,N,12217.8661,W,1,04,3.1,24.0,M,-25.1,M,,0000*50
$GPGSA,A,3,26,07,28,08,,,,,,,,,5.9,3.1,5.1*39
$GPRMC,200402.000,A,3748.8078,N,12217.8661,W,1.22,351.05,200711,,,A*7F
$GPVTG,351.05,T,,M,1.22,N,2.3,K,A*0F
$GPGGA,200403.000,3748.8051,N,12217.8652,W,1,05,1.7,15.2,M,-25.1,M,,0000*5F
$GPGSA,A,3,26,07,28,08,10,,,,,,,,2.9,1.7,2.3*3E
$GPRMC,200403.000,A,3748.8051,N,12217.8652,W,0.55,136.55,200711,,,A*72
$GPVTG,136.55,T,,M,0.55,N,1.0,K,A*08
$GPGGA,200404.000,3748.8035,N,12217.8645,W,1,05,1.7,10.1,M,-25.1,M,,0000*5A
$GPGSA,A,3,26,07,28,08,10,,,,,,,,2.9,1.7,2.3*3E
$GPRMC,200404.000,A,3748.8035,N,12217.8645,W,1.10,146.60,200711,,,A*70
$GPVTG,146.60,T,,M,1.10,N,2.0,K,A*0A
$GPGGA,200405.000,3748.8036,N,12217.8646,W,1,05,1.7,6.8,M,-25.1,M,,0000*65
$GPGSA,A,3,26,07,28,08,10,,,,,,,,2.9,1.7,2.3*3E
$GPRMC,200405.000,A,3748.8036,N,12217.8646,W,0.78,134.54,200711,,,A*7C
$GPVTG,134.54,T,,M,0.78,N,1.5,K,A*01
$GPGGA,200406.000,3748.8029,N,12217.8642,W,1,05,1.7,5.2,M,-25.1,M,,0000*65
$GPGSA,A,3,26,07,28,08,10,,,,,,,,2.9,1.7,2.3*3E
$GPGSV,3,1,11,08,66,009,26,28,63,257,33,07,55,072,29,26,30,315,27*7D
$GPGSV,3,2,11,19,24,049,27,13,20,151,38,05,18,268,33,11,13,102,27*74
$GPGSV,3,3,11,17,12,187,28,10,11,218,38,46,39,142,25*41
$GPVTG,128.44,T,,M,0.48,N,0.9,K,A*03
$GPGGA,200407.000,3748.8016,N,12217.8635,W,1,05,1.7,5.1,M,-25.1,M,,0000*6B
$GPGSA,A,3,26,07,28,08,10,,,,,,,,2.9,1.7,2.3*3E
$GPRMC,200407.000,A,3748.8016,N,12217.8635,W,0.75,156.84,200711,,,A*7C
$GPVTG,156.84,T,,M,0.75,N,1.4,K,A*04
$GPGGA,200408.000,3748.8015,N,12217.8632,W,1,05,1.7,5.3,M,-25.1,M,,0000*62
$GPGSA,A,3,26,07,28,08,10,,,,,,,,2.9,1.7,2.3*3E
$GPRMC,200408.000,A,3748.8015,N,12217.8632,W,1.07,143.58,200711,,,A*76
$GPVTG,143.58,T,,M,1.07,N,2.0,K,A*02
$GPGGA,200409.000,3748.8011,N,12217.8628,W,1,05,1.7,4.8,M,-25.1,M,,0000*66
$GPGSA,A,3,26,07,28,08,10,,,,,,,,2.9,1.7,2.3*3E
$GPRMC,200409.000,A,3748.8011,N,12217.8628,W,0.38,148.77,200711,,,A*73
$GPVTG,148.77,T,,M,0.38,N,0.7,K,A*0C
$GPGGA,200410.000,3748.8010,N,12217.8626,W,1,04,4.6,3.9,M,-25.1,M,,0000*62
$GPGSA,A,3,07,28,08,10,,,,,,,,,6.8,4.6,5.0*3F
$GPRMC,200410.000,A,3748.8010,N,12217.8626,W,0.29,150.13,200711,,,A*7F
$GPVTG,150.13,T,,M,0.29,N,0.5,K,A*05
$GPGGA,200411.000,3748.8010,N,12217.8625,W,1,04,4.6,3.2,M,-25.1,M,,0000*6B
$GPGSA,A,3,07,28,08,10,,,,,,,,,6.8,4.6,5.0*3F
$GPGSV,3,1,11,08,66,009,22,28,63,257,32,07,55,072,29,26,30,315,07*7A
$GPGSV,3,2,11,19,24,049,19,13,20,151,35,05,18,268,35,11,13,102,28*7D
$GPGSV,3,3,11,17,12,187,28,10,11,218,38,46,39,142,29*4D
$GPRMC,200411.000,A,3748.8010,N,12217.8625,W,0.34,149.66,200711,,,A*7B
$GPVTG,149.66,T,,M,0.34,N,0.6,K,A*00
$GPGGA,200412.000,3748.8008,N,12217.8623,W,1,04,4.6,2.3,M,-25.1,M,,0000*67
$GPGSA,A,3,07,28,08,10,,,,,,,,,6.8,4.6,5.0*3F
$GPRMC,200412.000,A,3748.8008,N,12217.8623,W,0.22,139.42,200711,,,A*71
$GPVTG,139.42,T,,M,0.22,N,0.4,K,A*04
$GPGGA,200413.000,3748.8007,N,12217.8621,W,1,04,4.6,1.4,M,-25.1,M,,0000*6F
$GPGSA,A,3,07,28,08,10,,,,,,,,,6.8,4.6,5.0*3F
$GPRMC,200413.000,A,3748.8007,N,12217.8621,W,0.16,122.56,200711,,,A*75
$GPVTG,122.56,T,,M,0.16,N,0.3,K,A*0B
$GPGGA,200414.000,3748.8005,N,12217.8614,W,1,04,4.6,0.1,M,-25.1,M,,0000*68
$GPGSA,A,3,07,28,08,10,,,,,,,,,6.8,4.6,5.0*3F
$GPRMC,200414.000,A,3748.8005,N,12217.8614,W,0.23,129.10,200711,,,A*79
$GPVTG,129.10,T,,M,0.23,N,0.4,K,A*03
$GPGGA,200415.000,3748.7999,N,12217.8602,W,1,04,4.6,-0.6,M,-25.1,M,,0000*47
$GPGSA,A,3,07,28,08,10,,,,,,,,,6.8,4.6,5.0*3F
$GPRMC,200415.000,A,3748.7999,N,12217.8602,W,1.35,122.98,200711,,,A*71
$GPVTG,122.98,T,,M,1.35,N,2.5,K,A*0D
$GPGGA,200416.000,3748.7985,N,12217.8596,W,1,05,1.7,2.0,M,-25.1,M,,0000*6B
$GPGSA,A,3,26,07,28,08,10,,,,,,,,2.9,1.7,2.3*3E
$GPGSV,3,1,11,08,66,009,29,28,63,258,32,07,55,072,24,26,30,315,19*7C
$GPGSV,3,2,11,19,24,049,21,13,20,151,31,05,18,268,33,11,13,102,28*74
$GPGSV,3,3,11,17,12,187,29,10,11,218,38,46,39,142,29*4C
$GPRMC,200416.000,A,3748.7985,N,12217.8596,W,0.68,140.65,200711,,,A*7E
$GPVTG,140.65,T,,M,0.68,N,1.3,K,A*07
$GPGGA,200417.000,3748.7970,N,12217.8590,W,1,05,1.7,5.0,M,-25.1,M,,0000*61
$GPGSA,A,3,26,07,28,08,10,,,,,,,,2.9,1.7,2.3*3E
$GPRMC,200417.000,A,3748.7970,N,12217.8590,W,0.41,191.28,200711,,,A*7D
$GPVTG,191.28,T,,M,0.41,N,0.8,K,A*03
$GPGGA,200418.000,3748.7964,N,12217.8590,W,1,05,1.7,6.1,M,-25.1,M,,0000*69
$GPGSA,A,3,26,07,28,08,10,,,,,,,,2.9,1.7,2.3*3E
$GPRMC,200418.000,A,3748.7964,N,12217.8590,W,0.71,163.60,200711,,,A*75
$GPVTG,163.60,T,,M,0.71,N,1.3,K,A*0B
$GPGGA,200419.000,3748.7964,N,12217.8591,W,1,05,1.7,5.7,M,-25.1,M,,0000*6C
$GPGSA,A,3,26,07,28,08,10,,,,,,,,2.9,1.7,2.3*3E
$GPRMC,200419.000,A,3748.7964,N,12217.8591,W,0.42,194.71,200711,,,A*7D
$GPVTG,194.71,T,,M,0.42,N,0.8,K,A*09
$GPGGA,200420.000,3748.7968,N,12217.8594,W,1,05,1.7,4.3,M,-25.1,M,,0000*6A
$GPGSA,A,3,26,07,28,08,10,,,,,,,,2.9,1.7,2.3*3E
$GPRMC,200420.000,A,3748.7968,N,12217.8594,W,0.63,228.97,200711,,,A*71
$GPVTG,228.97,T,,M,0.63,N,1.2,K,A*0D
$GPGGA,200421.000,3748.7971,N,12217.8601,W,1,05,1.7,2.8,M,-25.1,M,,0000*61
$GPGSA,A,3,26,07,28,08,10,,,,,,,,2.9,1.7,2.3*3E
$GPGSV,3,1,11,08,66,009,29,28,63,258,32,07,55,072,27,26,30,315,27*72
$GPGSV,3,2,11,19,24,049,25,13,20,151,34,05,18,268,37,11,13,102,27*7E
$GPGSV,3,3,11,17,12,187,30,10,11,218,38,46,39,142,29*44
$GPRMC,200421.000,A,3748.7971,N,12217.8601,W,1.64,209.92,200711,,,A*77
$GPGGA,200422.000,3748.7972,N,12217.8606,W,1,05,1.7,1.1,M,-25.1,M,,0000*6C
$GPGSA,A,3,26,07,28,08,10,,,,,,,,2.9,1.7,2.3*3E
$GPRMC,200422.000,A,3748.7972,N,12217.8606,W,1.80,188.09,200711,,,A*72
$GPVTG,188.09,T,,M,1.80,N,3.3,K,A*0C
$GPGGA,200423.000,3748.7971,N,12217.8613,W,1,05,1.7,0.2,M,-25.1,M,,0000*68
$GPGSA,A,3,26,07,28,08,10,,,,,,,,2.9,1.7,2.3*3E
$GPRMC,200423.000,A,3748.7971,N,12217.8613,W,2.20,183.86,200711,,,A*71
$GPVTG,183.86,T,,M,2.20,N,4.1,K,A*0C
$GPGGA,200424.000,3748.7968,N,12217.8621,W,1,05,1.7,-0.4,M,-25.1,M,,0000*4D
$GPGSA,A,3,26,07,28,08,10,,,,,,,,2.9,1.7,2.3*3E
$GPRMC,200424.000,A,3748.7968,N,12217.8621,W,2.29,181.62,200711,,,A*7E
$GPVTG,181.62,T,,M,2.29,N,4.2,K,A*0E
$GPGGA,200425.000,3748.7964,N,12217.8623,W,1,05,1.7,-1.3,M,-25.1,M,,0000*44
$GPGSA,A,3,26,07,28,08,10,,,,,,,,2.9,1.7,2.3*3E
$GPRMC,200425.000,A,3748.7964,N,12217.8623,W,2.19,187.15,200711,,,A*74
$GPVTG,187.15,T,,M,2.19,N,4.1,K,A*08
$GPGGA,200426.000,3748.7959,N,12217.8624,W,1,05,1.7,-2.3,M,-25.1,M,,0000*4D
$GPGSA,A,3,26,07,28,08,10,,,,,,,,2.9,1.7,2.3*3E
$GPGSV,3,1,11,08,66,009,29,28,63,258,33,07,55,072,27,26,30,315,36*73
$GPGSV,3,2,11,19,24,049,23,13,20,151,30,05,18,268,38,11,13,102,25*71
$GPGSV,3,3,11,17,12,187,28,10,11,218,29,46,39,142,27*43
$GPRMC,200426.000,A,3748.7959,N,12217.8624,W,2.34,198.16,200711,,,A*7C
$GPVTG,198.16,T,,M,2.34,N,4.3,K,A*08
$GPGGA,200427.000,3748.7955,N,12217.8629,W,1,05,1.7,-3.0,M,-25.1,M,,0000*4F
$GPGSA,A,3,26,07,28,08,10,,,,,,,,2.9,1.7,2.3*3E
$GPRMC,200427.000,A,3748.7955,N,12217.8629,W,1.84,203.14,200711,,,A*77
$GPVTG,203.14,T,,M,1.84,N,3.4,K,A*03
$GPGGA,200428.000,3748.7952,N,12217.8636,W,1,05,1.7,-3.0,M,-25.1,M,,0000*49
$GPGSA,A,3,26,07,28,08,10,,,,,,,,2.9,1.7,2.3*3E
$GPRMC,200428.000,A,3748.7952,N,12217.8636,W,1.84,221.80,200711,,,A*7C
$GPVTG,221.80,T,,M,1.84,N,3.4,K,A*0E
$GPGGA,200429.000,3748.7951,N,12217.8642,W,1,05,1.7,-2.6,M,-25.1,M,,0000*4F
$GPGSA,A,3,26,07,28,08,10,,,,,,,,2.9,1.7,2.3*3E
$GPRMC,200429.000,A,3748.7951,N,12217.8642,W,1.67,218.75,200711,,,A*70
$GPVTG,218.75,T,,M,1.67,N,3.1,K,A*06
$GPGGA,200430.000,3748.7949,N,12217.8646,W,1,05,1.7,-2.3,M,-25.1,M,,0000*4F
$GPGSA,A,3,26,07,28,08,10,,,,,,,,2.9,1.7,2.3*3E
$GPRMC,200430.000,A,3748.7949,N,12217.8646,W,1.85,212.63,200711,,,A*74
$GPVTG,212.63,T,,M,1.85,N,3.4,K,A*02
$GPGGA,200431.000,3748.7946,N,12217.8652,W,1,05,1.7,-2.1,M,-25.1,M,,0000*46
$GPGSA,A,3,26,07,28,08,10,,,,,,,,2.9,1.7,2.3*3E
$GPGSV,3,1,10,08,66,009,30,28,63,258,33,07,55,072,28,26,30,315,40*74
$GPGSV,3,2,10,19,24,049,27,13,20,151,30,05,18,268,33,11,13,102,25*7F
$GPGSV,3,3,10,17,12,187,25,10,11,218,19*76
$GPRMC,200431.000,A,3748.7946,N,12217.8652,W,2.04,224.95,200711,,,A*79
$GPVTG,224.95,T,,M,2.04,N,3.8,K,A*08
$GPGGA,200432.000,3748.7941,N,12217.8659,W,1,05,1.7,-2.4,M,-25.1,M,,0000*4C
$GPGSA,A,3,26,07,28,08,10,,,,,,,,2.9,1.7,2.3*3E
$GPRMC,200432.000,A,3748.7941,N,12217.8659,W,2.67,211.88,200711,,,A*79
$GPVTG,211.88,T,,M,2.67,N,4.9,K,A*01
$GPGGA,200433.000,3748.7942,N,12217.8673,W,1,06,1.4,0.3,M,-25.1,M,,0000*6E
$GPGSA,A,3,26,13,07,28,08,10,,,,,,,2.6,1.4,2.1*32
$GPRMC,200433.000,A,3748.7942,N,12217.8673,W,2.44,208.20,200711,,,A*78
$GPVTG,208.20,T,,M,2.44,N,4.5,K,A*06
$GPGGA,200434.000,3748.7941,N,12217.8682,W,1,06,1.4,1.8,M,-25.1,M,,0000*6E
$GPGSA,A,3,26,13,07,28,08,10,,,,,,,2.6,1.4,2.1*32
$GPRMC,200434.000,A,3748.7941,N,12217.8682,W,1.84,211.40,200711,,,A*73
$GPVTG,211.40,T,,M,1.84,N,3.4,K,A*01
$GPGGA,200435.000,3748.7936,N,12217.8688,W,1,06,1.4,1.7,M,-25.1,M,,0000*6A
$GPGSA,A,3,26,13,07,28,08,10,,,,,,,2.6,1.4,2.1*32
$GPRMC,200435.000,A,3748.7936,N,12217.8688,W,1.91,226.57,200711,,,A*7E
$GPVTG,226.57,T,,M,1.91,N,3.5,K,A*06
$GPGGA,200436.000,3748.7932,N,12217.8692,W,1,06,1.4,1.1,M,-25.1,M,,0000*60
$GPGSA,A,3,26,13,07,28,08,10,,,,,,,2.6,1.4,2.1*32
$GPGSV,3,1,10,08,66,010,31,28,63,258,34,07,55,072,29,26,30,315,39*75
$GPGSV,3,2,10,19,24,049,28,13,20,151,21,05,18,268,25,11,13,102,25*77
$GPGSV,3,3,10,17,12,187,24,10,11,218,27*7A
$GPRMC,200436.000,A,3748.7932,N,12217.8692,W,1.59,227.26,200711,,,A*71
$GPGGA,200437.000,3748.7929,N,12217.8696,W,1,05,1.6,1.2,M,-25.1,M,,0000*6D
$GPGSA,A,3,26,13,28,08,10,,,,,,,,2.7,1.6,2.1*36
$GPRMC,200437.000,A,3748.7929,N,12217.8696,W,1.44,213.46,200711,,,A*73
$GPVTG,213.46,T,,M,1.44,N,2.7,K,A*0B
$GPGGA,200438.000,3748.7930,N,12217.8710,W,1,05,1.6,3.2,M,-25.1,M,,0000*67
$GPGSA,A,3,26,13,28,08,10,,,,,,,,2.7,1.6,2.1*36
$GPRMC,200438.000,A,3748.7930,N,12217.8710,W,1.93,223.18,200711,,,A*79
$GPVTG,223.18,T,,M,1.93,N,3.6,K,A*09
$GPGGA,200439.000,3748.7929,N,12217.8722,W,1,05,1.6,4.8,M,-25.1,M,,0000*62
$GPGSA,A,3,26,13,28,08,10,,,,,,,,2.7,1.6,2.1*36
$GPRMC,200439.000,A,3748.7929,N,12217.8722,W,2.07,217.02,200711,,,A*73
$GPVTG,217.02,T,,M,2.07,N,3.8,K,A*05
$GPGGA,200440.000,3748.7928,N,12217.8732,W,1,06,1.4,6.5,M,-25.1,M,,0000*62
$GPGSA,A,3,26,13,07,28,08,10,,,,,,,2.6,1.4,2.1*32
$GPRMC,200440.000,A,3748.7928,N,12217.8732,W,2.53,213.39,200711,,,A*70
$GPVTG,213.39,T,,M,2.53,N,4.7,K,A*00
$GPGGA,200441.000,3748.7922,N,12217.8745,W,1,06,1.4,7.2,M,-25.1,M,,0000*6F
$GPGSA,A,3,26,13,07,28,08,10,,,,,,,2.6,1.4,2.1*32
$GPGSV,3,1,11,08,66,010,31,28,63,258,35,07,55,072,24,26,30,315,39*78
$GPGSV,3,2,11,19,24,049,23,13,20,151,25,05,18,268,30,11,13,102,22*7A
$GPGSV,3,3,11,17,12,187,25,10,11,218,35,48,44,197,40*4E
$GPRMC,200441.000,A,3748.7922,N,12217.8745,W,3.03,214.56,200711,,,A*71
$GPVTG,214.56,T,,M,3.03,N,5.6,K,A*0A
$GPGGA,200442.000,3748.7916,N,12217.8757,W,1,06,1.4,8.1,M,-25.1,M,,0000*64
$GPGSA,A,3,26,13,07,28,08,10,,,,,,,2.6,1.4,2.1*32
$GPRMC,200442.000,A,3748.7916,N,12217.8757,W,3.02,214.19,200711,,,A*7C
$GPVTG,214.19,T,,M,3.02,N,5.6,K,A*00
$GPGGA,200443.000,3748.7911,N,12217.8767,W,1,06,1.4,9.3,M,-25.1,M,,0000*62
$GPGSA,A,3,26,13,07,28,08,10,,,,,,,2.6,1.4,2.1*32
$GPRMC,200443.000,A,3748.7911,N,12217.8767,W,2.78,217.11,200711,,,A*7E
$GPVTG,217.11,T,,M,2.78,N,5.2,K,A*03
$GPGGA,200444.000,3748.7906,N,12217.8777,W,1,06,1.4,10.2,M,-25.1,M,,0000*5B
$GPGSA,A,3,26,13,07,28,08,10,,,,,,,2.6,1.4,2.1*32
$GPRMC,200444.000,A,3748.7906,N,12217.8777,W,2.87,216.31,200711,,,A*7D
$GPVTG,216.31,T,,M,2.87,N,5.3,K,A*01
$GPGGA,200445.000,3748.7900,N,12217.8788,W,1,06,1.4,10.8,M,-25.1,M,,0000*56
$GPGSA,A,3,26,13,07,28,08,10,,,,,,,2.6,1.4,2.1*32
$GPRMC,200445.000,A,3748.7900,N,12217.8788,W,2.32,210.81,200711,,,A*79
$GPVTG,210.81,T,,M,2.32,N,4.3,K,A*03
$GPGGA,200446.000,3748.7895,N,12217.8789,W,1,06,1.4,10.1,M,-25.1,M,,0000*50
$GPGSA,A,3,26,13,07,28,08,10,,,,,,,2.6,1.4,2.1*32
$GPGSV,3,1,11,08,66,010,31,28,63,258,35,07,55,072,30,26,30,315,39*7D
$GPGSV,3,2,11,19,24,049,24,13,20,151,26,05,18,268,35,11,13,102,25*7C
$GPGSV,3,3,11,17,12,187,21,10,11,218,32,48,44,197,34*4E
$GPRMC,200446.000,A,3748.7895,N,12217.8789,W,1.86,205.60,200711,,,A*71
$GPVTG,205.60,T,,M,1.86,N,3.5,K,A*05
$GPGGA,200447.000,3748.7889,N,12217.8790,W,1,06,1.4,9.6,M,-25.1,M,,0000*6B
$GPGSA,A,3,26,13,07,28,08,10,,,,,,,2.6,1.4,2.1*32
$GPRMC,200447.000,A,3748.7889,N,12217.8790,W,2.05,202.38,200711,,,A*77
$GPVTG,202.38,T,,M,2.05,N,3.8,K,A*0A
$GPGGA,200448.000,3748.7885,N,12217.8797,W,1,06,1.4,9.8,M,-25.1,M,,0000*61
$GPGSA,A,3,26,13,07,28,08,10,,,,,,,2.6,1.4,2.1*32
$GPRMC,200448.000,A,3748.7885,N,12217.8797,W,2.47,217.03,200711,,,A*79
$GPVTG,217.03,T,,M,2.47,N,4.6,K,A*09
$GPGGA,200449.000,3748.7879,N,12217.8805,W,1,06,1.4,10.1,M,-25.1,M,,0000*56
$GPGSA,A,3,26,13,07,28,08,10,,,,,,,2.6,1.4,2.1*32
$GPRMC,200449.000,A,3748.7879,N,12217.8805,W,2.28,216.18,200711,,,A*7D
$GPVTG,216.18,T,,M,2.28,N,4.2,K,A*0F
$GPGGA,200450.000,3748.7874,N,12217.8813,W,1,06,1.4,10.5,M,-25.1,M,,0000*50
$GPGSA,A,3,26,13,07,28,08,10,,,,,,,2.6,1.4,2.1*32
$GPRMC,200450.000,A,3748.7874,N,12217.8813,W,2.40,217.83,200711,,,A*72
$GPVTG,217.83,T,,M,2.40,N,4.4,K,A*04
$GPGGA,200451.000,3748.7868,N,12217.8821,W,1,06,1.4,10.9,M,-25.1,M,,0000*51
$GPGSA,A,3,26,13,07,28,08,10,,,,,,,2.6,1.4,2.1*32
$GPGSV,3,1,11,08,66,010,31,28,63,258,35,07,55,072,28,26,30,315,38*75
$GPGSV,3,2,11,19,24,049,24,13,20,151,30,05,18,268,33,11,13,102,26*7E
$GPGSV,3,3,11,17,12,187,28,10,11,218,33,48,44,197,32*40
$GPRMC,200451.000,A,3748.7868,N,12217.8821,W,2.45,215.01,200711,,,A*72
$GPGGA,200452.000,3748.7863,N,12217.8828,W,1,06,1.4,11.1,M,-25.1,M,,0000*59
$GPGSA,A,3,26,13,07,28,08,10,,,,,,,2.6,1.4,2.1*32
$GPRMC,200452.000,A,3748.7863,N,12217.8828,W,2.23,211.57,200711,,,A*74
$GPVTG,211.57,T,,M,2.23,N,4.1,K,A*0B
$GPGGA,200453.000,3748.7858,N,12217.8836,W,1,06,1.4,11.5,M,-25.1,M,,0000*5B
$GPGSA,A,3,26,13,07,28,08,10,,,,,,,2.6,1.4,2.1*32
$GPRMC,200453.000,A,3748.7858,N,12217.8836,W,2.01,220.39,200711,,,A*78
$GPVTG,220.39,T,,M,2.01,N,3.7,K,A*00
$GPGGA,200454.000,3748.7853,N,12217.8837,W,1,06,1.4,11.2,M,-25.1,M,,0000*51
$GPGSA,A,3,26,13,07,28,08,10,,,,,,,2.6,1.4,2.1*32
$GPRMC,200454.000,A,3748.7853,N,12217.8837,W,2.17,204.71,200711,,,A*78
$GPVTG,204.71,T,,M,2.17,N,4.0,K,A*0D
$GPGGA,200455.000,3748.7848,N,12217.8836,W,1,06,1.4,10.9,M,-25.1,M,,0000*51
$GPGSA,A,3,26,13,07,28,08,10,,,,,,,2.6,1.4,2.1*32
$GPRMC,200455.000,A,3748.7848,N,12217.8836,W,2.03,213.36,200711,,,A*72
$GPVTG,213.36,T,,M,2.03,N,3.8,K,A*02
$GPGGA,200456.000,3748.7841,N,12217.8839,W,1,06,1.4,10.7,M,-25.1,M,,0000*5A
$GPGSA,A,3,26,13,07,28,08,10,,,,,,,2.6,1.4,2.1*32
$GPGSV,3,1,11,08,66,010,29,28,63,258,35,07,55,072,28,26,30,315,38*7C
$GPGSV,3,2,11,19,24,049,24,13,20,151,23,05,18,268,32,11,13,102,27*7C
$GPGSV,3,3,11,17,12,187,25,10,11,218,29,48,44,197,37*43
$GPRMC,200456.000,A,3748.7841,N,12217.8839,W,2.89,228.99,200711,,,A*78
$GPVTG,228.99,T,,M,2.89,N,5.4,K,A*07
$GPGGA,200457.000,3748.7834,N,12217.8841,W,1,07,1.4,10.4,M,-25.1,M,,0000*54
$GPGSA,A,3,26,13,07,28,08,10,05,,,,,,2.5,1.4,2.1*34
$GPRMC,200457.000,A,3748.7834,N,12217.8841,W,2.44,220.71,200711,,,A*7B
$GPVTG,220.71,T,,M,2.44,N,4.5,K,A*08
$GPGGA,200458.000,3748.7828,N,12217.8845,W,1,07,1.4,9.8,M,-25.1,M,,0000*66
$GPGSA,A,3,26,13,07,28,08,10,05,,,,,,2.5,1.4,2.1*34
$GPRMC,200458.000,A,3748.7828,N,12217.8845,W,2.05,213.56,200711,,,A*7D
$GPVTG,213.56,T,,M,2.05,N,3.8,K,A*02
$GPGGA,200459.000,3748.7822,N,12217.8846,W,2,07,1.4,9.2,M,-25.1,M,1.8,0000*40
$GPGSA,A,3,26,13,07,28,08,10,05,,,,,,2.5,1.4,2.1*34
$GPRMC,200459.000,A,3748.7822,N,12217.8846,W,2.12,204.25,200711,,,D*74
$GPVTG,204.25,T,,M,2.12,N,3.9,K,D*02
$GPGGA,200500.000,3748.7815,N,12217.8849,W,2,07,1.4,8.6,M,-25.1,M,1.8,0000*43
$GPGSA,A,3,26,13,07,28,08,10,05,,,,,,2.5,1.4,2.1*34
$GPRMC,200500.000,A,3748.7815,N,12217.8849,W,2.28,206.97,200711,,,D*70
$GPVTG,206.97,T,,M,2.28,N,4.2,K,D*0C
$GPGGA,200501.000,3748.7810,N,12217.8858,W,2,07,1.4,9.6,M,-25.1,M,1.8,0000*46
$GPGSA,A,3,26,13,07,28,08,10,05,,,,,,2.5,1.4,2.1*34
$GPGSV,3,1,11,08,66,010,29,28,63,258,35,07,55,073,28,26,30,315,38*7D
$GPGSV,3,2,11,19,23,048,24,13,19,151,28,05,18,267,25,11,13,102,27*72
$GPGSV,3,3,11,17,13,187,29,10,11,217,36,48,44,197,34*4C
$GPRMC,200501.000,A,3748.7810,N,12217.8858,W,2.37,211.79,200711,,,D*7C
$GPVTG,211.79,T,,M,2.37,N,4.4,K,D*02
$GPGGA,200502.000,3748.7804,N,12217.8866,W,2,07,1.4,10.2,M,-25.1,M,1.8,0000*71
$GPGSA,A,3,26,13,07,28,08,10,05,,,,,,2.5,1.4,2.1*34
$GPRMC,200502.000,A,3748.7804,N,12217.8866,W,2.29,211.58,200711,,,D*7B
$GPVTG,211.58,T,,M,2.29,N,4.2,K,D*08
$GPGGA,200503.000,3748.7798,N,12217.8873,W,2,07,1.4,10.6,M,-25.1,M,1.8,0000*7A
$GPGSA,A,3,26,13,07,28,08,10,05,,,,,,2.5,1.4,2.1*34
$GPRMC,200503.000,A,3748.7798,N,12217.8873,W,2.28,210.37,200711,,,D*7D
$GPVTG,210.37,T,,M,2.28,N,4.2,K,D*01
$GPGGA,200504.000,3748.7794,N,12217.8881,W,2,07,1.4,11.7,M,-25.1,M,2.8,0000*7F
$GPGSA,A,3,26,13,07,28,08,10,05,,,,,,2.5,1.4,2.1*34
$GPRMC,200504.000,A,3748.7794,N,12217.8881,W,2.37,216.54,200711,,,D*76
$GPVTG,216.54,T,,M,2.37,N,4.4,K,D*0A
$GPGGA,200505.000,3748.7789,N,12217.8889,W,2,07,1.4,12.7,M,-25.1,M,3.8,0000*78
$GPGSA,A,3,26,13,07,28,08,10,05,,,,,,2.5,1.4,2.1*34
$GPRMC,200505.000,A,3748.7789,N,12217.8889,W,2.37,210.31,200711,,,D*76
$GPVTG,210.31,T,,M,2.37,N,4.4,K,D*0F
$GPGGA,200506.000,3748.7785,N,12217.8896,W,2,07,1.4,13.7,M,-25.1,M,4.8,0000*7F
$GPGSA,A,3,26,13,07,28,08,10,05,,,,,,2.5,1.4,2.1*34
$GPGSV,3,1,11,08,66,010,32,28,63,258,35,07,55,073,29,26,30,315,39*77
$GPGSV,3,2,11,19,23,048,24,13,19,151,32,05,18,267,28,11,13,102,27*74
$GPGSV,3,3,11,17,13,187,29,10,11,217,29,48,44,197,27*40
$GPVTG,215.89,T,,M,2.46,N,4.6,K,D*0D
$GPGGA,200507.000,3748.7778,N,12217.8899,W,2,06,1.6,13.2,M,-25.1,M,5.8,0000*74
$GPGSA,A,3,26,07,28,08,10,05,,,,,,,2.8,1.6,2.3*3B
$GPRMC,200507.000,A,3748.7778,N,12217.8899,W,2.62,210.28,200711,,,D*73
$GPVTG,210.28,T,,M,2.62,N,4.8,K,D*0B
$GPGGA,200508.000,3748.7771,N,12217.8901,W,2,07,1.4,12.9,M,-25.1,M,6.8,0000*78
$GPGSA,A,3,26,13,07,28,08,10,05,,,,,,2.5,1.4,2.1*34
$GPRMC,200508.000,A,3748.7771,N,12217.8901,W,2.49,209.55,200711,,,D*7E
$GPVTG,209.55,T,,M,2.49,N,4.6,K,D*0E
$GPGGA,200509.000,3748.7765,N,12217.8900,W,2,07,1.4,12.2,M,-25.1,M,7.8,0000*77
$GPGSA,A,3,26,13,07,28,08,10,05,,,,,,2.5,1.4,2.1*34
$GPRMC,200509.000,A,3748.7765,N,12217.8900,W,2.29,207.49,200711,,,D*7E
$GPVTG,207.49,T,,M,2.29,N,4.2,K,D*0F
$GPGGA,200510.000,3748.7758,N,12217.8902,W,2,07,1.4,11.8,M,-25.1,M,1.8,0000*7C
$GPGSA,A,3,26,13,07,28,08,10,05,,,,,,2.5,1.4,2.1*34
$GPRMC,200510.000,A,3748.7758,N,12217.8902,W,1.97,212.03,200711,,,D*76
$GPVTG,212.03,T,,M,1.97,N,3.6,K,D*00
$GPGGA,200511.000,3748.7753,N,12217.8904,W,2,07,1.4,11.8,M,-25.1,M,2.8,0000*73
$GPGSA,A,3,26,13,07,28,08,10,05,,,,,,2.5,1.4,2.1*34
$GPGSV,3,1,11,08,66,010,32,28,63,258,35,07,55,073,28,26,30,315,38*77
$GPGSV,3,2,11,19,23,048,23,13,19,151,27,05,18,267,27,11,13,102,26*79
$GPGSV,3,3,11,17,13,187,27,10,11,217,30,48,44,197,36*46
$GPRMC,200511.000,A,3748.7753,N,12217.8904,W,1.51,203.88,200711,,,D*73
$GPVTG,203.88,T,,M,1.51,N,2.8,K,D*06
$GPGGA,200512.000,3748.7751,N,12217.8906,W,2,07,1.4,12.6,M,-25.1,M,3.8,0000*7C
$GPGSA,A,3,26,13,07,28,08,10,05,,,,,,2.5,1.4,2.1*34
$GPRMC,200512.000,A,3748.7751,N,12217.8906,W,1.49,209.61,200711,,,D*74
$GPVTG,209.61,T,,M,1.49,N,2.8,K,D*02
$GPGGA,200513.000,3748.7748,N,12217.8912,W,2,07,1.4,13.4,M,-25.1,M,1.8,0000*71
$GPGSA,A,3,26,13,07,28,08,10,05,,,,,,2.5,1.4,2.1*34
$GPRMC,200513.000,A,3748.7748,N,12217.8912,W,1.99,211.87,200711,,,D*74
$GPVTG,211.87,T,,M,1.99,N,3.7,K,D*00
$GPGGA,200514.000,3748.7745,N,12217.8917,W,2,07,1.4,14.2,M,-25.1,M,1.8,0000*7F
$GPGSA,A,3,26,13,07,28,08,10,05,,,,,,2.5,1.4,2.1*34
$GPRMC,200514.000,A,3748.7745,N,12217.8917,W,1.87,208.35,200711,,,D*75
$GPVTG,208.35,T,,M,1.87,N,3.5,K,D*0C
$GPGGA,200515.000,3748.7741,N,12217.8922,W,2,07,1.4,14.8,M,-25.1,M,0.8,0000*77
$GPGSA,A,3,26,13,07,28,08,10,05,,,,,,2.5,1.4,2.1*34
$GPRMC,200515.000,A,3748.7741,N,12217.8922,W,2.02,215.08,200711,,,D*7A
$GPVTG,215.08,T,,M,2.02,N,3.7,K,D*02
$GPGGA,200516.000,3748.7737,N,12217.8923,W,2,07,1.4,14.5,M,-25.1,M,1.8,0000*78
$GPGSA,A,3,26,13,07,28,08,10,05,,,,,,2.5,1.4,2.1*34
$GPGSV,3,1,11,08,66,010,32,28,63,258,36,07,55,073,29,26,30,315,37*7A
$GPGSV,3,2,11,19,23,048,24,13,19,151,26,05,18,267,29,11,13,102,26*71
$GPGSV,3,3,11,17,13,187,27,10,11,217,28,48,44,197,35*4C
$GPRMC,200516.000,A,3748.7737,N,12217.8923,W,2.04,214.85,200711,,,D*7B
$GPVTG,214.85,T,,M,2.04,N,3.8,K,D*0F
$GPGGA,200517.000,3748.7732,N,12217.8924,W,2,07,1.4,14.2,M,-25.1,M,2.8,0000*7F
$GPGSA,A,3,26,13,07,28,08,10,05,,,,,,2.5,1.4,2.1*34
$GPRMC,200517.000,A,3748.7732,N,12217.8924,W,2.07,211.97,200711,,,D*7D
$GPVTG,211.97,T,,M,2.07,N,3.8,K,D*0A
$GPGGA,200518.000,3748.7727,N,12217.8925,W,2,07,1.4,13.9,M,-25.1,M,3.8,0000*78
$GPGSA,A,3,26,13,07,28,08,10,05,,,,,,2.5,1.4,2.1*34
$GPRMC,200518.000,A,3748.7727,N,12217.8925,W,2.28,203.57,200711,,,D*75
$GPVTG,203.57,T,,M,2.28,N,4.2,K,D*05
$GPGGA,200519.000,3748.7722,N,12217.8927,W,2,07,1.4,13.8,M,-25.1,M,1.8,0000*7D
$GPGSA,A,3,26,13,07,28,08,10,05,,,,,,2.5,1.4,2.1*34
$GPRMC,200519.000,A,3748.7722,N,12217.8927,W,2.11,216.11,200711,,,D*7F
$GPVTG,216.11,T,,M,2.11,N,3.9,K,D*05
$GPGGA,200520.000,3748.7717,N,12217.8929,W,2,07,1.4,13.8,M,-25.1,M,1.8,0000*7F
$GPGSA,A,3,26,13,07,28,08,10,05,,,,,,2.5,1.4,2.1*34
$GPRMC,200520.000,A,3748.7717,N,12217.8929,W,1.97,219.00,200711,,,D*7F
$GPVTG,219.00,T,,M,1.97,N,3.6,K,D*08
$GPGGA,200521.000,3748.7712,N,12217.8930,W,2,07,1.4,13.7,M,-25.1,M,1.8,0000*7C
$GPGSA,A,3,26,13,07,28,08,10,05,,,,,,2.5,1.4,2.1*34
$GPGSV,3,1,11,08,66,010,32,28,63,258,36,07,55,073,29,26,30,315,37*7A
$GPGSV,3,2,11,19,23,048,21,13,19,151,27,05,18,267,30,11,13,102,27*7C
$GPGSV,3,3,11,17,13,187,27,10,11,217,24,48,44,197,37*42
$GPRMC,200521.000,A,3748.7712,N,12217.8930,W,2.03,208.90,200711,,,D*74
$GPVTG,208.90,T,,M,2.03,N,3.8,K,D*01
$GPGGA,200522.000,3748.7705,N,12217.8933,W,2,07,1.4,13.0,M,-25.1,M,1.8,0000*7D
$GPGSA,A,3,26,13,07,28,08,10,05,,,,,,2.5,1.4,2.1*34
$GPRMC,200522.000,A,3748.7705,N,12217.8933,W,2.21,209.01,200711,,,D*7B
$GPVTG,209.01,T,,M,2.21,N,4.1,K,D*06
$GPGGA,200523.000,3748.7697,N,12217.8932,W,2,07,1.4,11.9,M,-25.1,M,2.8,0000*7F
$GPGSA,A,3,26,13,07,28,08,10,05,,,,,,2.5,1.4,2.1*34
$GPRMC,200523.000,A,3748.7697,N,12217.8932,W,1.93,195.90,200711,,,D*75
$GPVTG,195.90,T,,M,1.93,N,3.6,K,D*02
$GPGGA,200524.000,3748.7690,N,12217.8935,W,2,07,1.4,11.1,M,-25.1,M,3.8,0000*71
$GPGSA,A,3,26,13,07,28,08,10,05,,,,,,2.5,1.4,2.1*34
$GPRMC,200524.000,A,3748.7690,N,12217.8935,W,2.35,213.93,200711,,,D*73
$GPVTG,213.93,T,,M,2.35,N,4.3,K,D*01
$GPGGA,200525.000,3748.7683,N,12217.8939,W,2,07,1.4,10.4,M,-25.1,M,4.8,0000*7D
$GPGSA,A,3,26,13,07,28,08,10,05,,,,,,2.5,1.4,2.1*34
$GPRMC,200525.000,A,3748.7683,N,12217.8939,W,1.97,201.86,200711,,,D*70
$GPVTG,201.86,T,,M,1.97,N,3.6,K,D*0F
$GPGGA,200526.000,3748.7677,N,12217.8941,W,2,07,1.4,9.8,M,-25.1,M,1.8,0000*4B
$GPGSA,A,3,26,13,07,28,08,10,05,,,,,,2.5,1.4,2.1*34
$GPGSV,3,1,11,08,66,010,32,28,63,258,36,07,55,073,29,26,30,315,38*75
$GPGSV,3,2,11,19,23,048,26,13,19,151,23,05,18,267,36,11,13,102,27*79
$GPGSV,3,3,11,17,13,187,27,10,11,217,31,48,44,197,36*47
$GPRMC,200526.000,A,3748.7677,N,12217.8941,W,1.98,214.07,200711,,,D*75
$GPGGA,200527.000,3748.7670,N,12217.8944,W,2,07,1.4,9.0,M,-25.1,M,1.8,0000*40
$GPGSA,A,3,26,13,07,28,08,10,05,,,,,,2.5,1.4,2.1*34
$GPRMC,200527.000,A,3748.7670,N,12217.8944,W,1.94,212.74,200711,,,D*78
$GPVTG,212.74,T,,M,1.94,N,3.6,K,D*03
$GPGGA,200528.000,3748.7665,N,12217.8948,W,2,07,1.4,8.9,M,-25.1,M,1.8,0000*4F
$GPGSA,A,3,26,13,07,28,08,10,05,,,,,,2.5,1.4,2.1*34
$GPRMC,200528.000,A,3748.7665,N,12217.8948,W,1.90,206.28,200711,,,D*77
$GPVTG,206.28,T,,M,1.90,N,3.5,K,D*08
$GPGGA,200529.000,3748.7661,N,12217.8958,W,2,07,1.4,9.3,M,-25.1,M,1.8,0000*40
$GPGSA,A,3,26,13,07,28,08,10,05,,,,,,2.5,1.4,2.1*34
$GPRMC,200529.000,A,3748.7661,N,12217.8958,W,1.91,225.68,200711,,,D*77
$GPVTG,225.68,T,,M,1.91,N,3.5,K,D*0C
$GPGGA,200530.000,3748.7655,N,12217.8960,W,2,07,1.4,8.7,M,-25.1,M,2.8,0000*42
$GPGSA,A,3,26,13,07,28,08,10,05,,,,,,2.5,1.4,2.1*34
$GPRMC,200530.000,A,3748.7655,N,12217.8960,W,2.79,214.89,200711,,,D*7B
$GPVTG,214.89,T,,M,2.79,N,5.2,K,D*05
$GPGGA,200531.000,3748.7647,N,12217.8963,W,2,07,1.4,8.0,M,-25.1,M,3.8,0000*45
$GPGSA,A,3,26,13,07,28,08,10,05,,,,,,2.5,1.4,2.1*34
$GPGSV,3,1,11,08,66,010,32,28,63,258,36,07,55,073,28,26,30,315,38*74
$GPGSV,3,2,11,19,23,048,20,13,19,151,28,05,18,267,28,11,13,102,26*7A
$GPGSV,3,3,11,17,13,187,27,10,11,217,25,48,44,197,32*46
$GPRMC,200531.000,A,3748.7647,N,12217.8963,W,2.61,213.88,200711,,,D*75
$GPVTG,213.88,T,,M,2.61,N,4.8,K,D*01
$GPGGA,200532.000,3748.7637,N,12217.8963,W,2,07,1.4,6.6,M,-25.1,M,1.8,0000*4B
$GPGSA,A,3,26,13,07,28,08,10,05,,,,,,2.5,1.4,2.1*34
$GPRMC,200532.000,A,3748.7637,N,12217.8963,W,2.61,209.76,200711,,,D*7B
$GPVTG,209.76,T,,M,2.61,N,4.8,K,D*0B
$GPGGA,200533.000,3748.7629,N,12217.8965,W,2,07,1.4,5.7,M,-25.1,M,1.8,0000*41
$GPGSA,A,3,26,13,07,28,08,10,05,,,,,,2.5,1.4,2.1*34
$GPRMC,200533.000,A,3748.7629,N,12217.8965,W,2.47,218.25,200711,,,D*71
$GPVTG,218.25,T,,M,2.47,N,4.6,K,D*07
$GPGGA,200534.000,3748.7622,N,12217.8968,W,2,07,1.4,4.8,M,-25.1,M,1.8,0000*4E
$GPGSA,A,3,26,13,07,28,08,10,05,,,,,,2.5,1.4,2.1*34
$GPRMC,200534.000,A,3748.7622,N,12217.8968,W,2.62,210.53,200711,,,D*7E
$GPVTG,210.53,T,,M,2.62,N,4.9,K,D*06
$GPGGA,200535.000,3748.7614,N,12217.8974,W,2,07,1.4,4.3,M,-25.1,M,2.8,0000*4F
$GPGSA,A,3,26,13,07,28,08,10,05,,,,,,2.5,1.4,2.1*34
$GPRMC,200535.000,A,3748.7614,N,12217.8974,W,2.55,224.62,200711,,,D*76
$GPVTG,224.62,T,,M,2.55,N,4.7,K,D*09
$GPGGA,200536.000,3748.7607,N,12217.8982,W,2,07,1.4,4.0,M,-25.1,M,1.8,0000*47
$GPGSA,A,3,26,13,07,28,08,10,05,,,,,,2.5,1.4,2.1*34
$GPGSV,3,1,11,08,66,010,31,28,63,258,36,07,55,073,28,26,30,315,38*77
$GPGSV,3,2,11,19,23,048,21,13,19,151,29,05,18,267,28,11,13,102,26*7A
$GPGSV,3,3,11,17,13,187,33,10,11,217,29,48,44,197,35*48
$GPRMC,200536.000,A,3748.7607,N,12217.8982,W,2.76,219.10,200711,,,D*74
$GPVTG,219.10,T,,M,2.76,N,5.1,K,D*04
$GPGGA,200537.000,3748.7599,N,12217.8989,W,2,07,1.4,3.4,M,-25.1,M,2.8,0000*49
$GPGSA,A,3,26,13,07,28,08,10,05,,,,,,2.5,1.4,2.1*34
$GPRMC,200537.000,A,3748.7599,N,12217.8989,W,2.26,211.00,200711,,,D*76
$GPVTG,211.00,T,,M,2.26,N,4.2,K,D*0A
$GPGGA,200538.000,3748.7593,N,12217.8995,W,2,07,1.4,3.4,M,-25.1,M,1.8,0000*42
$GPGSA,A,3,26,13,07,28,08,10,05,,,,,,2.5,1.4,2.1*34
$GPRMC,200538.000,A,3748.7593,N,12217.8995,W,2.35,213.26,200711,,,D*7A
$GPVTG,213.26,T,,M,2.35,N,4.3,K,D*0F
$GPGGA,200539.000,3748.7589,N,12217.9002,W,2,07,1.4,4.0,M,-25.1,M,1.8,0000*4D
$GPGSA,A,3,26,13,07,28,08,10,05,,,,,,2.5,1.4,2.1*34
$GPRMC,200539.000,A,3748.7589,N,12217.9002,W,2.35,207.48,200711,,,D*7B
$GPVTG,207.48,T,,M,2.35,N,4.3,K,D*02
$GPGGA,200540.000,3748.7583,N,12217.9004,W,2,07,1.4,3.9,M,-25.1,M,1.8,0000*41
$GPGSA,A,3,26,13,07,28,08,10,05,,,,,,2.5,1.4,2.1*34
$GPRMC,200540.000,A,3748.7583,N,12217.9004,W,2.08,199.85,200711,,,D*72
$GPVTG,199.85,T,,M,2.08,N,3.9,K,D*04
$GPGGA,200541.000,3748.7577,N,12217.9005,W,2,07,1.4,3.7,M,-25.1,M,2.8,0000*47
$GPGSA,A,3,26,13,07,28,08,10,05,,,,,,2.5,1.4,2.1*34
$GPGSV,3,1,11,08,66,011,31,28,64,259,36,07,54,073,28,26,30,315,34*7D
$GPGSV,3,2,11,19,23,048,25,13,19,151,23,05,18,267,27,11,13,102,26*7B
$GPGSV,3,3,11,17,13,187,34,10,11,217,23,48,44,197,33*43
$GPVTG,206.76,T,,M,2.10,N,3.9,K,D*04
$GPGGA,200542.000,3748.7570,N,12217.9011,W,2,07,1.4,3.8,M,-25.1,M,1.8,0000*4A
$GPGSA,A,3,26,13,07,28,08,10,05,,,,,,2.5,1.4,2.1*34
$GPRMC,200542.000,A,3748.7570,N,12217.9011,W,2.44,204.69,200711,,,D*75
$GPVTG,204.69,T,,M,2.44,N,4.5,K,D*02
$GPGGA,200543.000,3748.7563,N,12217.9016,W,2,07,1.4,3.7,M,-25.1,M,2.8,0000*42
$GPGSA,A,3,26,13,07,28,08,10,05,,,,,,2.5,1.4,2.1*34
$GPRMC,200543.000,A,3748.7563,N,12217.9016,W,1.81,202.49,200711,,,D*7F
$GPVTG,202.49,T,,M,1.81,N,3.3,K,D*0D
$GPGGA,200544.000,3748.7556,N,12217.9022,W,2,07,1.4,3.6,M,-25.1,M,1.8,0000*46
$GPGSA,A,3,26,13,07,28,08,10,05,,,,,,2.5,1.4,2.1*34
$GPRMC,200544.000,A,3748.7556,N,12217.9022,W,2.45,201.56,200711,,,D*7F
$GPVTG,201.56,T,,M,2.45,N,4.5,K,D*0A
$GPGGA,200545.000,3748.7547,N,12217.9025,W,2,07,1.4,3.6,M,-25.1,M,1.8,0000*40
$GPGSA,A,3,26,13,07,28,08,10,05,,,,,,2.5,1.4,2.1*34
$GPRMC,200545.000,A,3748.7547,N,12217.9025,W,2.34,207.51,200711,,,D*7E
$GPVTG,207.51,T,,M,2.34,N,4.3,K,D*0B
$GPGGA,200546.000,3748.7539,N,12217.9028,W,2,07,1.4,3.0,M,-25.1,M,2.8,0000*42
$GPGSA,A,3,26,13,07,28,08,10,05,,,,,,2.5,1.4,2.1*34
$GPGSV,3,1,11,08,66,011,32,28,64,259,29,07,54,073,27,26,30,315,35*7E
$GPGSV,3,2,11,19,23,048,25,13,19,151,27,05,18,267,29,11,13,102,28*7F
$GPGSV,3,3,11,17,13,187,27,10,11,217,27,48,44,197,34*42
$GPRMC,200546.000,A,3748.7539,N,12217.9028,W,2.24,210.30,200711,,,D*79
$GPVTG,210.30,T,,M,2.24,N,4.2,K,D*0A
$GPGGA,200547.000,3748.7531,N,12217.9028,W,2,07,1.4,1.5,M,-25.1,M,0.8,0000*4E
$GPGSA,A,3,26,13,07,28,08,10,05,,,,,,2.5,1.4,2.1*34
$GPRMC,200547.000,A,3748.7531,N,12217.9028,W,1.92,206.37,200711,,,D*7E
$GPVTG,206.37,T,,M,1.92,N,3.6,K,D*07
$GPGGA,200548.000,3748.7523,N,12217.9030,W,2,07,1.4,0.9,M,-25.1,M,1.8,0000*47
$GPGSA,A,3,26,13,07,28,08,10,05,,,,,,2.5,1.4,2.1*34
$GPRMC,200548.000,A,3748.7523,N,12217.9030,W,2.18,218.43,200711,,,D*76
$GPVTG,218.43,T,,M,2.18,N,4.0,K,D*0B
$GPGGA,200549.000,3748.7517,N,12217.9034,W,2,07,1.4,1.1,M,-25.1,M,1.8,0000*4C
$GPGSA,A,3,26,13,07,28,08,10,05,,,,,,2.5,1.4,2.1*34
$GPRMC,200549.000,A,3748.7517,N,12217.9034,W,1.80,209.09,200711,,,D*78
$GPVTG,209.09,T,,M,1.80,N,3.3,K,D*03
$GPGGA,200550.000,3748.7512,N,12217.9037,W,2,07,1.4,1.7,M,-25.1,M,1.8,0000*44
$GPGSA,A,3,26,13,07,28,08,10,05,,,,,,2.5,1.4,2.1*34
$GPRMC,200550.000,A,3748.7512,N,12217.9037,W,1.66,199.59,200711,,,D*71
$GPVTG,199.59,T,,M,1.66,N,3.1,K,D*06
$GPGGA,200551.000,3748.7508,N,12217.9037,W,2,07,1.4,1.9,M,-25.1,M,1.8,0000*40
$GPGSA,A,3,26,13,07,28,08,10,05,,,,,,2.5,1.4,2.1*34
$GPGSV,3,1,11,08,66,011,29,28,64,259,36,07,54,073,30,26,30,315,27*7F
$GPGSV,3,2,11,19,23,048,25,13,19,151,21,05,18,267,25,11,13,102,26*7B
$GPGSV,3,3,11,17,13,187,24,10,11,217,18,48,44,197,39*40
$GPRMC,200551.000,A,3748.7508,N,12217.9037,W,1.67,194.58,200711,,,D*76
$GPVTG,194.58,T,,M,1.67,N,3.1,K,D*0B
$GPGGA,200552.000,3748.7502,N,12217.9039,W,2,07,1.4,2.5,M,-25.1,M,1.8,0000*48
$GPGSA,A,3,26,13,07,28,08,10,05,,,,,,2.5,1.4,2.1*34
$GPRMC,200552.000,A,3748.7502,N,12217.9039,W,2.27,213.34,200711,,,D*70
$GPVTG,213.34,T,,M,2.27,N,4.2,K,D*0E
$GPGGA,200553.000,3748.7500,N,12217.9047,W,2,07,1.4,3.8,M,-25.1,M,2.8,0000*4D
$GPGSA,A,3,26,13,07,28,08,10,05,,,,,,2.5,1.4,2.1*34
$GPRMC,200553.000,A,3748.7500,N,12217.9047,W,2.15,218.13,200711,,,D*75
$GPVTG,218.13,T,,M,2.15,N,4.0,K,D*03
$GPGGA,200554.000,3748.7498,N,12217.9055,W,2,07,1.4,5.3,M,-25.1,M,1.8,0000*47
$GPGSA,A,3,26,13,07,28,08,10,05,,,,,,2.5,1.4,2.1*34
$GPRMC,200554.000,A,3748.7498,N,12217.9055,W,2.52,212.28,200711,,,D*70
$GPVTG,212.28,T,,M,2.52,N,4.7,K,D*05
$GPGGA,200555.000,3748.7492,N,12217.9060,W,2,07,1.4,5.5,M,-25.1,M,2.8,0000*4F
$GPGSA,A,3,26,13,07,28,08,10,05,,,,,,2.5,1.4,2.1*34
$GPRMC,200555.000,A,3748.7492,N,12217.9060,W,2.33,218.18,200711,,,D*73
$GPVTG,218.18,T,,M,2.33,N,4.3,K,D*0F
$GPGGA,200556.000,3748.7485,N,12217.9066,W,2,07,1.4,5.8,M,-25.1,M,3.8,0000*40
$GPGSA,A,3,26,13,07,28,08,10,05,,,,,,2.5,1.4,2.1*34
$GPGSV,3,1,11,08,66,011,33,28,64,259,37,07,54,073,31,26,30,315,36*74
$GPGSV,3,2,11,19,23,048,25,13,19,151,23,05,18,267,29,11,13,102,26*75
$GPGSV,3,3,11,17,13,187,30,10,11,217,22,48,44,197,35*40
$GPRMC,200556.000,A,3748.7485,N,12217.9066,W,2.55,220.44,200711,,,D*72
$GPVTG,220.44,T,,M,2.55,N,4.7,K,D*09
$GPGGA,200557.000,3748.7479,N,12217.9072,W,2,07,1.4,5.9,M,-25.1,M,1.8,0000*44
$GPGSA,A,3,26,13,07,28,08,10,05,,,,,,2.5,1.4,2.1*34
$GPRMC,200557.000,A,3748.7479,N,12217.9072,W,2.55,210.06,200711,,,D*70
$GPVTG,210.06,T,,M,2.55,N,4.7,K,D*0C
$GPGGA,200558.000,3748.7472,N,12217.9075,W,2,07,1.4,6.2,M,-25.1,M,1.8,0000*4F
$GPGSA,A,3,26,13,07,28,08,10,05,,,,,,2.5,1.4,2.1*34
$GPRMC,200558.000,A,3748.7472,N,12217.9075,W,2.15,202.06,200711,,,D*74
$GPVTG,202.06,T,,M,2.15,N,4.0,K,D*0C
$GPGGA,200559.000,3748.7467,N,12217.9081,W,2,07,1.4,6.8,M,-25.1,M,2.8,0000*48
$GPGSA,A,3,26,13,07,28,08,10,05,,,,,,2.5,1.4,2.1*34
$GPRMC,200559.000,A,3748.7467,N,12217.9081,W,2.21,214.00,200711,,,D*7C
$GPVTG,214.00,T,,M,2.21,N,4.1,K,D*0B
$GPGGA,200600.000,3748.7462,N,12217.9086,W,2,07,1.4,7.4,M,-25.1,M,3.8,0000*49
$GPGSA,A,3,26,13,07,28,08,10,05,,,,,,2.5,1.4,2.1*34
$GPRMC,200600.000,A,3748.7462,N,12217.9086,W,2.12,211.29,200711,,,D*7F
$GPVTG,211.29,T,,M,2.12,N,3.9,K,D*0A
$GPGGA,200601.000,3748.7456,N,12217.9092,W,2,07,1.4,7.8,M,-25.1,M,4.8,0000*41
$GPGSA,A,3,26,13,07,28,08,10,05,,,,,,2.5,1.4,2.1*34
$GPGSV,3,1,11,08,66,011,33,28,64,259,37,07,54,073,29,26,30,315,36*7D
$GPGSV,3,2,11,19,23,048,25,13,19,151,33,05,18,267,22,11,13,102,23*7A
$GPGSV,3,3,11,17,13,187,25,10,11,217,26,48,44,197,35*40
$GPRMC,200601.000,A,3748.7456,N,12217.9092,W,2.38,211.75,200711,,,D*7D
$GPGGA,200602.000,3748.7453,N,12217.9098,W,2,07,1.4,7.4,M,-25.1,M,1.8,0000*44
$GPGSA,A,3,26,13,07,28,08,10,05,,,,,,2.5,1.4,2.1*34
$GPRMC,200602.000,A,3748.7453,N,12217.9098,W,2.05,214.95,200711,,,D*74
$GPVTG,214.95,T,,M,2.05,N,3.8,K,D*0F
$GPGGA,200603.000,3748.7446,N,12217.9105,W,2,07,1.4,6.9,M,-25.1,M,1.8,0000*48
$GPGSA,A,3,26,13,07,28,08,10,05,,,,,,2.5,1.4,2.1*34
$GPRMC,200603.000,A,3748.7446,N,12217.9105,W,2.12,204.60,200711,,,D*79
$GPVTG,204.60,T,,M,2.12,N,3.9,K,D*03
$GPGGA,200604.000,3748.7440,N,12217.9109,W,2,07,1.4,6.7,M,-25.1,M,1.8,0000*4B
$GPGSA,A,3,26,13,07,28,08,10,05,,,,,,2.5,1.4,2.1*34
$GPRMC,200604.000,A,3748.7440,N,12217.9109,W,2.40,208.28,200711,,,D*73
$GPVTG,208.28,T,,M,2.40,N,4.4,K,D*0E
$GPGGA,200605.000,3748.7433,N,12217.9115,W,2,07,1.4,6.2,M,-25.1,M,2.8,0000*45
$GPGSA,A,3,26,13,07,28,08,10,05,,,,,,2.5,1.4,2.1*34
$GPRMC,200605.000,A,3748.7433,N,12217.9115,W,2.24,214.10,200711,,,D*7F
$GPVTG,214.10,T,,M,2.24,N,4.1,K,D*0F
$GPGGA,200606.000,3748.7426,N,12217.9120,W,2,07,1.4,5.8,M,-25.1,M,3.8,0000*4C
$GPGSA,A,3,26,13,07,28,08,10,05,,,,,,2.5,1.4,2.1*34
$GPGSV,3,1,11,08,66,011,32,28,64,259,37,07,54,073,31,26,30,315,35*76
$GPGSV,3,2,11,19,23,048,23,13,19,151,26,05,18,267,24,11,13,102,24*79
$GPGSV,3,3,11,17,13,187,27,10,11,217,28,48,44,197,35*4C
$GPRMC,200606.000,A,3748.7426,N,12217.9120,W,2.36,218.46,200711,,,D*72
$GPVTG,218.46,T,,M,2.36,N,4.4,K,D*06
$GPGGA,200607.000,3748.7424,N,12217.9128,W,2,07,1.4,6.8,M,-25.1,M,4.8,0000*43
$GPGSA,A,3,26,13,07,28,08,10,05,,,,,,2.5,1.4,2.1*34
$GPRMC,200607.000,A,3748.7424,N,12217.9128,W,2.55,214.00,200711,,,D*72
$GPVTG,214.00,T,,M,2.55,N,4.7,K,D*0E
$GPGGA,200608.000,3748.7423,N,12217.9135,W,2,07,1.4,7.9,M,-25.1,M,1.8,0000*42
$GPGSA,A,3,26,13,07,28,08,10,05,,,,,,2.5,1.4,2.1*34
$GPRMC,200608.000,A,3748.7423,N,12217.9135,W,2.16,206.62,200711,,,D*76
$GPVTG,206.62,T,,M,2.16,N,4.0,K,D*09
$GPGGA,200609.000,3748.7419,N,12217.9139,W,2,07,1.4,8.5,M,-25.1,M,1.8,0000*45
$GPGSA,A,3,26,13,07,28,08,10,05,,,,,,2.5,1.4,2.1*34
$GPRMC,200609.000,A,3748.7419,N,12217.9139,W,2.76,211.62,200711,,,D*72
$GPVTG,211.62,T,,M,2.76,N,5.1,K,D*09
$GPGGA,200610.000,3748.7415,N,12217.9147,W,2,07,1.4,9.4,M,-25.1,M,1.8,0000*48
$GPGSA,A,3,26,13,07,28,08,10,05,,,,,,2.5,1.4,2.1*34
$GPRMC,200610.000,A,3748.7415,N,12217.9147,W,2.65,217.98,200711,,,D*7E
$GPVTG,217.98,T,,M,2.65,N,4.9,K,D*01
$GPGGA,200611.000,3748.7411,N,12217.9152,W,2,07,1.4,10.3,M,-25.1,M,2.8,0000*75
$GPGSA,A,3,26,13,07,28,08,10,05,,,,,,2.5,1.4,2.1*34
$GPGSV,3,1,11,08,66,012,33,28,64,259,34,07,54,074,30,26,30,315,35*71
$GPGSV,3,2,11,19,23,048,24,13,19,151,27,05,18,267,25,11,13,102,27*7D
$GPGSV,3,3,11,17,13,187,26,10,11,217,26,48,44,197,31*47
$GPRMC,200611.000,A,3748.7411,N,12217.9152,W,2.74,209.59,200711,,,D*7D
$GPVTG,209.59,T,,M,2.74,N,5.1,K,D*0A
$GPGGA,200612.000,3748.7405,N,12217.9156,W,2,07,1.4,11.1,M,-25.1,M,3.8,0000*75
$GPGSA,A,3,26,13,07,28,08,10,05,,,,,,2.5,1.4,2.1*34
$GPRMC,200612.000,A,3748.7405,N,12217.9156,W,2.78,209.97,200711,,,D*71
$GPVTG,209.97,T,,M,2.78,N,5.2,K,D*07
$GPGGA,200613.000,3748.7396,N,12217.9161,W,2,07,1.4,11.1,M,-25.1,M,4.8,0000*7A
$GPGSA,A,3,26,13,07,28,08,10,05,,,,,,2.5,1.4,2.1*34
$GPRMC,200613.000,A,3748.7396,N,12217.9161,W,2.27,220.32,200711,,,D*77
$GPVTG,220.32,T,,M,2.27,N,4.2,K,D*08
$GPGGA,200614.000,3748.7388,N,12217.9166,W,2,07,1.4,10.8,M,-25.1,M,5.8,0000*7C
$GPGSA,A,3,26,13,07,28,08,10,05,,,,,,2.5,1.4,2.1*34
$GPRMC,200614.000,A,3748.7388,N,12217.9166,W,2.15,214.88,200711,,,D*7F
$GPVTG,214.88,T,,M,2.15,N,4.0,K,D*0D
$GPGGA,200615.000,3748.7382,N,12217.9170,W,2,07,1.4,11.3,M,-25.1,M,1.8,0000*7E
$GPGSA,A,3,26,13,07,28,08,10,05,,,,,,2.5,1.4,2.1*34
$GPRMC,200615.000,A,3748.7382,N,12217.9170,W,2.34,210.37,200711,,,D*70
$GPVTG,210.37,T,,M,2.34,N,4.3,K,D*0D
$GPGGA,200616.000,3748.7376,N,12217.9176,W,2,07,1.4,12.0,M,-25.1,M,1.8,0000*70
$GPGSA,A,3,26,13,07,28,08,10,05,,,,,,2.5,1.4,2.1*34
$GPGSV,3,1,11,08,66,012,27,28,64,259,35,07,54,074,30,26,30,315,33*73
$GPGSV,3,2,11,19,23,048,25,13,19,151,33,05,18,267,26,11,13,102,26*7B
$GPRMC,200616.000,A,3748.7376,N,12217.9176,W,2.56,212.35,200711,,,D*7A
$GPVTG,212.35,T,,M,2.56,N,4.7,K,D*0D
$GPGGA,200617.000,3748.7372,N,12217.9183,W,2,07,1.4,13.0,M,-25.1,M,1.8,0000*7E
$GPGSA,A,3,26,13,07,28,08,10,05,,,,,,2.5,1.4,2.1*34
$GPRMC,200617.000,A,3748.7372,N,12217.9183,W,2.29,214.60,200711,,,D*7B
$GPVTG,214.60,T,,M,2.29,N,4.2,K,D*06
$GPGGA,200618.000,3748.7367,N,12217.9189,W,2,07,1.4,13.7,M,-25.1,M,2.8,0000*7B
$GPGSA,A,3,26,13,07,28,08,10,05,,,,,,2.5,1.4,2.1*34
$GPRMC,200618.000,A,3748.7367,N,12217.9189,W,2.33,216.75,200711,,,D*77
$GPVTG,216.75,T,,M,2.33,N,4.3,K,D*0A
$GPGGA,200619.000,3748.7364,N,12217.9195,W,2,07,1.4,14.6,M,-25.1,M,0.8,0000*70
$GPGSA,A,3,26,13,07,28,08,10,05,,,,,,2.5,1.4,2.1*34
$GPRMC,200619.000,A,3748.7364,N,12217.9195,W,1.94,211.35,200711,,,D*75
$GPVTG,211.35,T,,M,1.94,N,3.6,K,D*05
$GPGGA,200620.000,3748.7360,N,12217.9200,W,2,07,1.4,15.2,M,-25.1,M,1.8,0000*75
$GPGSA,A,3,26,13,07,28,08,10,05,,,,,,2.5,1.4,2.1*34
$GPRMC,200620.000,A,3748.7360,N,12217.9200,W,2.33,215.06,200711,,,D*7E
$GPVTG,215.06,T,,M,2.33,N,4.3,K,D*0D
$GPGGA,200621.000,3748.7355,N,12217.9202,W,2,07,1.4,15.9,M,-25.1,M,1.8,0000*7B
$GPGSA,A,3,26,13,07,28,08,10,05,,,,,,2.5,1.4,2.1*34
$GPGSV,3,1,11,08,66,012,32,28,64,259,37,07,54,074,30,26,30,315,33*75
$GPGSV,3,2,11,19,23,048,24,13,19,151,28,05,18,267,26,11,13,102,26*70
$GPGSV,3,3,11,17,13,187,23,10,11,217,25,48,44,197,36*46
$GPRMC,200621.000,A,3748.7355,N,12217.9202,W,2.16,197.71,200711,,,D*75
$GPVTG,197.71,T,,M,2.16,N,4.0,K,D*00
$GPGGA,200622.000,3748.7350,N,12217.9206,W,2,07,1.4,16.3,M,-25.1,M,1.8,0000*70
$GPGSA,A,3,26,13,07,28,08,10,05,,,,,,2.5,1.4,2.1*34
$GPRMC,200622.000,A,3748.7350,N,12217.9206,W,2.33,204.75,200711,,,D*7D
$GPVTG,204.75,T,,M,2.33,N,4.3,K,D*09
$GPGGA,200623.000,3748.7347,N,12217.9212,W,2,07,1.4,17.2,M,-25.1,M,2.8,0000*71
$GPGSA,A,3,26,13,07,28,08,10,05,,,,,,2.5,1.4,2.1*34
$GPRMC,200623.000,A,3748.7347,N,12217.9212,W,2.40,215.31,200711,,,D*7B
$GPVTG,215.31,T,,M,2.40,N,4.4,K,D*0A
$GPGGA,200624.000,3748.7343,N,12217.9217,W,2,07,1.4,17.7,M,-25.1,M,3.8,0000*73
$GPGSA,A,3,26,13,07,28,08,10,05,,,,,,2.5,1.4,2.1*34
$GPRMC,200624.000,A,3748.7343,N,12217.9217,W,2.24,211.50,200711,,,D*7C
$GPVTG,211.50,T,,M,2.24,N,4.1,K,D*0E
$GPGGA,200625.000,3748.7340,N,12217.9220,W,2,07,1.4,17.5,M,-25.1,M,4.8,0000*70
$GPGSA,A,3,26,13,07,28,08,10,05,,,,,,2.5,1.4,2.1*34
$GPRMC,200625.000,A,3748.7340,N,12217.9220,W,1.49,213.79,200711,,,D*7B
$GPVTG,213.79,T,,M,1.49,N,2.8,K,D*00
$GPGGA,200626.000,3748.7338,N,12217.9224,W,2,07,1.4,16.8,M,-25.1,M,5.8,0000*75
$GPGSA,A,3,26,13,07,28,08,10,05,,,,,,2.5,1.4,2.1*34
$GPGSV,3,1,11,08,66,012,29,28,64,259,31,07,54,074,23,26,30,315,35*7D
$GPGSV,3,2,11,19,23,048,21,13,19,151,26,05,18,267,27,11,13,102,26*7A
$GPGSV,3,3,11,17,13,187,23,10,11,217,36,48,44,197,31*43
$GPRMC,200626.000,A,3748.7338,N,12217.9224,W,0.68,199.36,200711,,,D*7B
$GPVTG,199.36,T,,M,0.68,N,1.3,K,D*00
$GPGGA,200627.000,3748.7334,N,12217.9230,W,2,07,1.4,16.4,M,-25.1,M,6.8,0000*72
$GPGSA,A,3,26,13,07,28,08,10,05,,,,,,2.5,1.4,2.1*34
$GPRMC,200627.000,A,3748.7334,N,12217.9230,W,2.42,208.57,200711,,,D*75
$GPVTG,208.57,T,,M,2.42,N,4.5,K,D*05
$GPGGA,200628.000,3748.7329,N,12217.9237,W,2,07,1.4,16.3,M,-25.1,M,7.8,0000*70
$GPGSA,A,3,26,13,07,28,08,10,05,,,,,,2.5,1.4,2.1*34
$GPRMC,200628.000,A,3748.7329,N,12217.9237,W,2.60,215.44,200711,,,D*7F
$GPVTG,215.44,T,,M,2.60,N,4.8,K,D*06
$GPGGA,200629.000,3748.7324,N,12217.9248,W,2,07,1.4,16.2,M,-25.1,M,8.8,0000*7A
$GPGSA,A,3,26,13,07,28,08,10,05,,,,,,2.5,1.4,2.1*34
$GPRMC,200629.000,A,3748.7324,N,12217.9248,W,2.51,227.11,200711,,,D*78
$GPVTG,227.11,T,,M,2.51,N,4.7,K,D*0A
$GPGGA,200630.000,3748.7319,N,12217.9257,W,2,07,1.4,16.1,M,-25.1,M,9.8,0000*70
$GPGSA,A,3,26,13,07,28,08,10,05,,,,,,2.5,1.4,2.1*34
$GPRMC,200630.000,A,3748.7319,N,12217.9257,W,2.08,214.74,200711,,,D*7F
$GPVTG,214.74,T,,M,2.08,N,3.9,K,D*0C
$GPGGA,200631.000,3748.7313,N,12217.9261,W,2,07,1.4,15.6,M,-25.1,M,10.8,0000*42
$GPGSA,A,3,26,13,07,28,08,10,05,,,,,,2.5,1.4,2.1*34
$GPGSV,3,1,11,08,66,012,34,28,64,259,37,07,54,074,29,26,30,315,40*7F
$GPGSV,3,2,11,19,23,048,30,13,19,151,25,05,18,267,31,11,13,102,26*7E
$GPGSV,3,3,11,17,13,187,24,10,11,217,34,48,44,197,35*42
$GPRMC,200631.000,A,3748.7313,N,12217.9261,W,2.09,212.74,200711,,,D*76
$GPVTG,212.74,T,,M,2.09,N,3.9,K,D*0B
$GPGGA,200632.000,3748.7307,N,12217.9264,W,2,07,1.4,15.0,M,-25.1,M,1.8,0000*77
$GPGSA,A,3,26,13,07,28,08,10,05,,,,,,2.5,1.4,2.1*34
$GPRMC,200632.000,A,3748.7307,N,12217.9264,W,2.08,212.63,200711,,,D*72
$GPVTG,212.63,T,,M,2.08,N,3.9,K,D*0C
$GPGGA,200633.000,3748.7301,N,12217.9268,W,2,07,1.4,14.6,M,-25.1,M,1.8,0000*7B
$GPGSA,A,3,26,13,07,28,08,10,05,,,,,,2.5,1.4,2.1*34
$GPRMC,200633.000,A,3748.7301,N,12217.9268,W,2.00,212.81,200711,,,D*7D
$GPVTG,212.81,T,,M,2.00,N,3.7,K,D*06
$GPGGA,200634.000,3748.7295,N,12217.9271,W,2,07,1.4,14.0,M,-25.1,M,1.8,0000*7E
$GPGSA,A,3,26,13,07,28,08,10,05,,,,,,2.5,1.4,2.1*34
$GPRMC,200634.000,A,3748.7295,N,12217.9271,W,1.97,218.08,200711,,,D*78
$GPVTG,218.08,T,,M,1.97,N,3.7,K,D*00
$GPGGA,200635.000,3748.7290,N,12217.9274,W,2,07,1.4,13.4,M,-25.1,M,1.8,0000*7C
$GPGSA,A,3,26,13,07,28,08,10,05,,,,,,2.5,1.4,2.1*34
$GPRMC,200635.000,A,3748.7290,N,12217.9274,W,2.14,216.20,200711,,,D*75
$GPVTG,216.20,T,,M,2.14,N,4.0,K,D*0C
$GPGGA,200636.000,3748.7284,N,12217.9277,W,2,07,1.4,12.7,M,-25.1,M,2.8,0000*78
$GPGSA,A,3,26,13,07,28,08,10,05,,,,,,2.5,1.4,2.1*34
$GPGSV,3,1,11,08,66,012,34,28,64,259,36,07,54,074,31,26,30,315,40*77
$GPGSV,3,2,11,19,23,048,28,13,19,151,24,05,18,267,32,11,13,102,25*76
$GPGSV,3,3,11,17,13,187,23,10,11,217,35,48,44,197,38*49
$GPVTG,213.15,T,,M,2.03,N,3.8,K,D*06
$GPGGA,200637.000,3748.7277,N,12217.9279,W,2,07,1.4,12.0,M,-25.1,M,1.8,0000*7F
$GPGSA,A,3,26,13,07,28,08,10,05,,,,,,2.5,1.4,2.1*34
$GPRMC,200637.000,A,3748.7277,N,12217.9279,W,2.08,209.49,200711,,,D*7F
$GPVTG,209.49,T,,M,2.08,N,3.9,K,D*0E
$GPGGA,200638.000,3748.7271,N,12217.9282,W,2,07,1.4,11.2,M,-25.1,M,1.8,0000*73
$GPGSA,A,3,26,13,07,28,08,10,05,,,,,,2.5,1.4,2.1*34
$GPRMC,200638.000,A,3748.7271,N,12217.9282,W,2.03,211.57,200711,,,D*7F
$GPVTG,211.57,T,,M,2.03,N,3.8,K,D*02
$GPGGA,200639.000,3748.7265,N,12217.9284,W,2,07,1.4,10.5,M,-25.1,M,1.8,0000*77
$GPGSA,A,3,26,13,07,28,08,10,05,,,,,,2.5,1.4,2.1*34
$GPRMC,200639.000,A,3748.7265,N,12217.9284,W,1.99,211.79,200711,,,D*71
$GPVTG,211.79,T,,M,1.99,N,3.7,K,D*01
$GPGGA,200640.000,3748.7259,N,12217.9288,W,2,07,1.4,10.1,M,-25.1,M,1.8,0000*7E
$GPGSA,A,3,26,13,07,28,08,10,05,,,,,,2.5,1.4,2.1*34
$GPRMC,200640.000,A,3748.7259,N,12217.9288,W,2.05,219.66,200711,,,D*7C
$GPVTG,219.66,T,,M,2.05,N,3.8,K,D*0E
$GPGGA,200641.000,3748.7254,N,12217.9292,W,2,07,1.4,9.8,M,-25.1,M,2.8,0000*4B
$GPGSA,A,3,26,13,07,28,08,10,05,,,,,,2.5,1.4,2.1*34
$GPGSV,3,1,11,08,66,012,34,28,64,260,37,07,54,074,27,26,31,315,40*7A
$GPGSV,3,2,11,19,23,048,27,13,19,151,24,05,18,267,43,11,14,101,25*7B
$GPGSV,3,3,11,17,13,187,23,10,11,217,27,48,44,197,35*47
$GPRMC,200641.000,A,3748.7254,N,12217.9292,W,2.02,209.90,200711,,,D*74
$GPVTG,209.90,T,,M,2.02,N,3.7,K,D*0E
$GPGGA,200642.000,3748.7248,N,12217.9295,W,2,07,1.4,9.5,M,-25.1,M,1.8,0000*4C
$GPGSA,A,3,26,13,07,28,08,10,05,,,,,,2.5,1.4,2.1*34
$GPRMC,200642.000,A,3748.7248,N,12217.9295,W,2.06,208.28,200711,,,D*7B
$GPVTG,208.28,T,,M,2.06,N,3.8,K,D*07
$GPGGA,200643.000,3748.7243,N,12217.9299,W,2,07,1.4,9.2,M,-25.1,M,2.8,0000*4E
$GPGSA,A,3,26,13,07,28,08,10,05,,,,,,2.5,1.4,2.1*34
$GPRMC,200643.000,A,3748.7243,N,12217.9299,W,1.85,215.43,200711,,,D*74
$GPVTG,215.43,T,,M,1.85,N,3.4,K,D*02
$GPGGA,200644.000,3748.7238,N,12217.9303,W,2,07,1.4,8.9,M,-25.1,M,1.8,0000*4E
$GPGSA,A,3,26,13,07,28,08,10,05,,,,,,2.5,1.4,2.1*34
$GPRMC,200644.000,A,3748.7238,N,12217.9303,W,1.91,222.87,200711,,,D*74
$GPVTG,222.87,T,,M,1.91,N,3.5,K,D*0A
$GPGGA,200645.000,3748.7232,N,12217.9306,W,2,07,1.4,8.3,M,-25.1,M,1.8,0000*4A
$GPGSA,A,3,26,13,07,28,08,10,05,,,,,,2.5,1.4,2.1*34
$GPRMC,200645.000,A,3748.7232,N,12217.9306,W,1.95,215.92,200711,,,D*7E
$GPVTG,215.92,T,,M,1.95,N,3.6,K,D*0D
$GPGGA,200646.000,3748.7226,N,12217.9308,W,2,06,1.6,7.7,M,-25.1,M,1.8,0000*4A
$GPGSA,A,3,26,07,28,08,10,05,,,,,,,2.8,1.6,2.3*3B
$GPGSV,3,1,11,08,66,012,35,28,64,260,38,07,54,074,25,26,31,315,33*72
$GPGSV,3,2,11,19,23,048,27,13,19,151,21,05,18,267,42,11,14,101,24*7E
$GPGSV,3,3,11,17,13,187,24,10,11,217,37,48,44,197,36*42
$GPRMC,200646.000,A,3748.7226,N,12217.9308,W,1.72,211.11,200711,,,D*70
$GPVTG,211.11,T,,M,1.72,N,3.2,K,D*0F
$GPGGA,200647.000,3748.7221,N,12217.9309,W,2,07,1.4,6.9,M,-25.1,M,2.8,0000*42
$GPGSA,A,3,26,13,07,28,08,10,05,,,,,,2.5,1.4,2.1*34
$GPRMC,200647.000,A,3748.7221,N,12217.9309,W,1.46,213.93,200711,,,D*78
$GPVTG,213.93,T,,M,1.46,N,2.7,K,D*04
$GPGGA,200648.000,3748.7216,N,12217.9310,W,2,07,1.4,6.3,M,-25.1,M,3.8,0000*4A
$GPGSA,A,3,26,13,07,28,08,10,05,,,,,,2.5,1.4,2.1*34
$GPRMC,200648.000,A,3748.7216,N,12217.9310,W,1.64,215.40,200711,,,D*73
$GPVTG,215.40,T,,M,1.64,N,3.0,K,D*0A
$GPGGA,200649.000,3748.7211,N,12217.9313,W,2,07,1.4,5.7,M,-25.1,M,4.8,0000*4F
$GPGSA,A,3,26,13,07,28,08,10,05,,,,,,2.5,1.4,2.1*34
$GPRMC,200649.000,A,3748.7211,N,12217.9313,W,1.58,218.62,200711,,,D*74
$GPVTG,218.62,T,,M,1.58,N,2.9,K,D*00
$GPGGA,200650.000,3748.7206,N,12217.9316,W,2,07,1.4,5.3,M,-25.1,M,1.8,0000*45
$GPGSA,A,3,26,13,07,28,08,10,05,,,,,,2.5,1.4,2.1*34
$GPRMC,200650.000,A,3748.7206,N,12217.9316,W,1.60,218.68,200711,,,D*7E
$GPVTG,218.68,T,,M,1.60,N,3.0,K,D*09
$GPGGA,200651.000,3748.7200,N,12217.9317,W,2,07,1.4,4.6,M,-25.1,M,0.8,0000*46
$GPGSA,A,3,26,13,07,28,08,10,05,,,,,,2.5,1.4,2.1*34
$GPGSV,3,1,11,08,66,012,35,28,64,260,38,07,54,074,28,26,31,315,34*78
$GPGSV,3,2,11,19,23,048,27,13,19,151,19,05,18,267,42,11,14,101,22*73
$GPGSV,3,3,11,17,13,187,21,10,11,217,36,48,44,197,36*46
$GPRMC,200651.000,A,3748.7200,N,12217.9317,W,1.69,215.79,200711,,,D*7C
$GPVTG,215.79,T,,M,1.69,N,3.1,K,D*0C
$GPGGA,200652.000,3748.7194,N,12217.9319,W,2,07,1.4,4.1,M,-25.1,M,1.8,0000*43
$GPGSA,A,3,26,13,07,28,08,10,05,,,,,,2.5,1.4,2.1*34
$GPRMC,200652.000,A,3748.7194,N,12217.9319,W,1.92,205.72,200711,,,D*71
$GPVTG,205.72,T,,M,1.92,N,3.6,K,D*05
$GPGGA,200653.000,3748.7188,N,12217.9321,W,2,07,1.4,3.7,M,-25.1,M,1.8,0000*45
$GPGSA,A,3,26,13,07,28,08,10,05,,,,,,2.5,1.4,2.1*34
$GPRMC,200653.000,A,3748.7188,N,12217.9321,W,1.93,210.32,200711,,,D*77
$GPVTG,210.32,T,,M,1.93,N,3.6,K,D*04
$GPGGA,200654.000,3748.7182,N,12217.9322,W,2,07,1.4,3.1,M,-25.1,M,2.8,0000*4E
$GPGSA,A,3,26,13,07,28,08,10,05,,,,,,2.5,1.4,2.1*34
$GPRMC,200654.000,A,3748.7182,N,12217.9322,W,1.72,205.97,200711,,,D*7D
$GPVTG,205.97,T,,M,1.72,N,3.2,K,D*04
$GPGGA,200655.000,3748.7177,N,12217.9324,W,2,07,1.4,2.6,M,-25.1,M,3.8,0000*44
$GPGSA,A,3,26,13,07,28,08,10,05,,,,,,2.5,1.4,2.1*34
$GPRMC,200655.000,A,3748.7177,N,12217.9324,W,1.93,212.48,200711,,,D*7B
$GPVTG,212.48,T,,M,1.93,N,3.6,K,D*0B
$GPGGA,200656.000,3748.7170,N,12217.9327,W,2,07,1.4,2.2,M,-25.1,M,1.8,0000*45
$GPGSA,A,3,26,13,07,28,08,10,05,,,,,,2.5,1.4,2.1*34
$GPGSV,3,1,11,08,66,012,36,28,64,260,38,07,54,074,28,26,31,315,39*76
$GPGSV,3,2,11,19,23,048,24,13,19,151,25,05,18,267,41,11,14,101,26*78
$GPGSV,3,3,11,17,13,187,26,10,11,217,32,48,44,197,37*44
$GPRMC,200656.000,A,3748.7170,N,12217.9327,W,2.44,216.86,200711,,,D*73
$GPGGA,200657.000,3748.7164,N,12217.9331,W,2,07,1.4,1.8,M,-25.1,M,1.8,0000*4F
$GPGSA,A,3,26,13,07,28,08,10,05,,,,,,2.5,1.4,2.1*34
$GPRMC,200657.000,A,3748.7164,N,12217.9331,W,2.11,215.23,200711,,,D*7C
$GPVTG,215.23,T,,M,2.11,N,3.9,K,D*07
$GPGGA,200658.000,3748.7158,N,12217.9336,W,2,07,1.4,1.8,M,-25.1,M,1.8,0000*48
$GPGSA,A,3,26,13,07,28,08,10,05,,,,,,2.5,1.4,2.1*34
$GPRMC,200658.000,A,3748.7158,N,12217.9336,W,2.08,222.97,200711,,,D*78
$GPVTG,222.97,T,,M,2.08,N,3.9,K,D*04
$GPGGA,200659.000,3748.7153,N,12217.9341,W,2,07,1.4,1.6,M,-25.1,M,2.8,0000*4F
$GPGSA,A,3,26,13,07,28,08,10,05,,,,,,2.5,1.4,2.1*34
$GPRMC,200659.000,A,3748.7153,N,12217.9341,W,1.82,222.33,200711,,,D*7D
$GPVTG,222.33,T,,M,1.82,N,3.4,K,D*06
$GPGGA,200700.000,3748.7148,N,12217.9343,W,2,07,1.4,1.3,M,-25.1,M,1.8,0000*4C
$GPGSA,A,3,26,13,07,28,08,10,05,,,,,,2.5,1.4,2.1*34
$GPRMC,200700.000,A,3748.7148,N,12217.9343,W,1.57,210.11,200711,,,D*71
$GPVTG,210.11,T,,M,1.57,N,2.9,K,D*03
$GPGGA,200701.000,3748.7142,N,12217.9345,W,2,07,1.4,1.0,M,-25.1,M,2.8,0000*41
$GPGSA,A,3,26,13,07,28,08,10,05,,,,,,2.5,1.4,2.1*34
$GPGSV,3,1,11,08,66,012,35,28,64,260,38,07,54,074,31,26,31,315,39*7D
$GPGSV,3,2,11,19,23,048,24,13,19,151,19,05,18,267,31,11,14,101,24*72
$GPGSV,3,3,11,17,13,187,26,10,11,217,33,48,44,197,37*45
$GPRMC,200701.000,A,3748.7142,N,12217.9345,W,2.22,203.96,200711,,,D*70
$GPVTG,203.96,T,,M,2.22,N,4.1,K,D*01
$GPGGA,200702.000,3748.7137,N,12217.9348,W,2,07,1.4,0.8,M,-25.1,M,3.8,0000*45
$GPGSA,A,3,26,13,07,28,08,10,05,,,,,,2.5,1.4,2.1*34
$GPRMC,200702.000,A,3748.7137,N,12217.9348,W,1.78,209.54,200711,,,D*74
$GPVTG,209.54,T,,M,1.78,N,3.3,K,D*0C
$GPGGA,200703.000,3748.7131,N,12217.9352,W,2,07,1.4,0.8,M,-25.1,M,1.8,0000*4B
$GPGSA,A,3,26,13,07,28,08,10,05,,,,,,2.5,1.4,2.1*34
$GPRMC,200703.000,A,3748.7131,N,12217.9352,W,1.91,203.49,200711,,,D*79
$GPVTG,203.49,T,,M,1.91,N,3.5,K,D*0B
$GPGGA,200704.000,3748.7125,N,12217.9354,W,2,07,1.4,0.7,M,-25.1,M,1.8,0000*40
$GPGSA,A,3,26,13,07,28,08,10,05,,,,,,2.5,1.4,2.1*34
$GPRMC,200704.000,A,3748.7125,N,12217.9354,W,1.90,212.46,200711,,,D*73
$GPVTG,212.46,T,,M,1.90,N,3.5,K,D*05
$GPGGA,200705.000,3748.7120,N,12217.9361,W,2,07,1.4,1.1,M,-25.1,M,2.8,0000*46
$GPGSA,A,3,26,13,07,28,08,10,05,,,,,,2.5,1.4,2.1*34
$GPRMC,200705.000,A,3748.7120,N,12217.9361,W,1.84,211.19,200711,,,D*7D
$GPVTG,211.19,T,,M,1.84,N,3.4,K,D*08
$GPGGA,200706.000,3748.7115,N,12217.9365,W,2,07,1.4,1.2,M,-25.1,M,1.8,0000*47
$GPGSA,A,3,26,13,07,28,08,10,05,,,,,,2.5,1.4,2.1*34
$GPGSV,3,1,11,08,66,012,35,28,64,260,38,07,54,074,26,26,31,315,34*76
$GPGSV,3,2,11,19,23,048,30,13,19,151,21,05,18,267,26,11,14,101,19*74
$GPGSV,3,3,11,17,13,187,27,10,11,217,33,48,44,197,37*44
$GPRMC,200706.000,A,3748.7115,N,12217.9365,W,1.95,206.44,200711,,,D*72
$GPVTG,206.44,T,,M,1.95,N,3.6,K,D*04
$GPGGA,200707.000,3748.7109,N,12217.9369,W,2,07,1.4,1.2,M,-25.1,M,1.8,0000*47
$GPGSA,A,3,26,13,07,28,08,10,05,,,,,,2.5,1.4,2.1*34
$GPRMC,200707.000,A,3748.7109,N,12217.9369,W,2.10,208.25,200711,,,D*75
$GPVTG,208.25,T,,M,2.10,N,3.9,K,D*0C
$GPGGA,200708.000,3748.7103,N,12217.9372,W,2,07,1.4,1.0,M,-25.1,M,1.8,0000*4A
$GPGSA,A,3,26,13,07,28,08,10,05,,,,,,2.5,1.4,2.1*34
$GPRMC,200708.000,A,3748.7103,N,12217.9372,W,2.28,206.25,200711,,,D*7F
$GPVTG,206.25,T,,M,2.28,N,4.2,K,D*05
$GPGGA,200709.000,3748.7097,N,12217.9374,W,2,07,1.4,0.7,M,-25.1,M,1.8,0000*47
$GPGSA,A,3,26,13,07,28,08,10,05,,,,,,2.5,1.4,2.1*34
$GPRMC,200709.000,A,3748.7097,N,12217.9374,W,2.19,208.68,200711,,,D*71
$GPVTG,208.68,T,,M,2.19,N,4.1,K,D*03
$GPGGA,200710.000,3748.7091,N,12217.9374,W,2,07,1.4,0.3,M,-25.1,M,1.8,0000*4D
$GPGSA,A,3,26,13,07,28,08,10,05,,,,,,2.5,1.4,2.1*34
$GPRMC,200710.000,A,3748.7091,N,12217.9374,W,2.16,203.44,200711,,,D*75
$GPVTG,203.44,T,,M,2.16,N,4.0,K,D*08
$GPGGA,200711.000,3748.7085,N,12217.9377,W,2,07,1.4,0.0,M,-25.1,M,2.8,0000*4A
$GPGSA,A,3,26,13,07,28,08,10,05,,,,,,2.5,1.4,2.1*34
$GPGSV,3,1,11,08,66,013,35,28,64,260,38,07,54,074,27,26,31,315,40*75
$GPGSV,3,2,11,19,23,048,29,13,18,151,21,05,18,267,35,11,14,101,19*7F
$GPGSV,3,3,11,17,14,187,26,10,10,217,37,48,44,197,36*46
$GPVTG,215.96,T,,M,1.99,N,3.7,K,D*04
$GPGGA,200712.000,3748.7080,N,12217.9381,W,2,07,1.4,-0.2,M,-25.1,M,3.8,0000*6B
$GPGSA,A,3,26,13,07,28,08,10,05,,,,,,2.5,1.4,2.1*34
$GPRMC,200712.000,A,3748.7080,N,12217.9381,W,2.08,216.29,200711,,,D*7D
$GPVTG,216.29,T,,M,2.08,N,3.9,K,D*06
$GPGGA,200713.000,3748.7075,N,12217.9386,W,2,07,1.4,-0.4,M,-25.1,M,1.8,0000*63
$GPGSA,A,3,26,13,07,28,08,10,05,,,,,,2.5,1.4,2.1*34
$GPRMC,200713.000,A,3748.7075,N,12217.9386,W,1.94,213.24,200711,,,D*7F
$GPVTG,213.24,T,,M,1.94,N,3.6,K,D*07
$GPGGA,200714.000,3748.7070,N,12217.9390,W,2,07,1.4,-0.5,M,-25.1,M,1.8,0000*67
$GPGSA,A,3,26,13,07,28,08,10,05,,,,,,2.5,1.4,2.1*34
$GPRMC,200714.000,A,3748.7070,N,12217.9390,W,1.98,216.01,200711,,,D*74
$GPVTG,216.01,T,,M,1.98,N,3.7,K,D*08
$GPGGA,200715.000,3748.7065,N,12217.9394,W,2,07,1.4,-0.6,M,-25.1,M,1.8,0000*65
$GPGSA,A,3,26,13,07,28,08,10,05,,,,,,2.5,1.4,2.1*34
$GPRMC,200715.000,A,3748.7065,N,12217.9394,W,2.10,204.96,200711,,,D*7B
$GPVTG,204.96,T,,M,2.10,N,3.9,K,D*08
$GPGGA,200716.000,3748.7059,N,12217.9399,W,2,07,1.4,-0.8,M,-25.1,M,1.8,0000*6A
$GPGSA,A,3,26,13,07,28,08,10,05,,,,,,2.5,1.4,2.1*34
$GPGSV,3,1,11,08,66,013,35,28,64,260,37,07,54,074,28,26,31,315,31*73
$GPGSV,3,2,11,19,23,048,28,13,18,152,26,05,17,266,27,17,14,187,27*72
$GPGSV,3,3,11,11,14,101,19,10,10,217,35,48,44,197,38*4E
$GPRMC,200716.000,A,3748.7059,N,12217.9399,W,1.99,212.38,200711,,,D*7B
$GPVTG,212.38,T,,M,1.99,N,3.7,K,D*07
$GPGGA,200717.000,3748.7054,N,12217.9402,W,2,07,1.4,-0.8,M,-25.1,M,2.8,0000*60
$GPGSA,A,3,26,13,07,28,08,10,05,,,,,,2.5,1.4,2.1*34
$GPRMC,200717.000,A,3748.7054,N,12217.9402,W,1.98,208.13,200711,,,D*71
$GPVTG,208.13,T,,M,1.98,N,3.7,K,D*04
$GPGGA,200718.000,3748.7049,N,12217.9406,W,2,07,1.4,-0.9,M,-25.1,M,3.8,0000*67
$GPGSA,A,3,26,13,07,28,08,10,05,,,,,,2.5,1.4,2.1*34
$GPRMC,200718.000,A,3748.7049,N,12217.9406,W,2.08,207.30,200711,,,D*72
$GPVTG,207.30,T,,M,2.08,N,3.8,K,D*0F
$GPGGA,200719.000,3748.7043,N,12217.9409,W,2,06,1.6,-1.1,M,-25.1,M,4.8,0000*6E
$GPGSA,A,3,26,07,28,08,10,05,,,,,,,2.8,1.6,2.3*3B
$GPRMC,200719.000,A,3748.7043,N,12217.9409,W,2.01,201.69,200711,,,D*75
$GPVTG,201.69,T,,M,2.01,N,3.7,K,D*03
$GPGGA,200720.000,3748.7038,N,12217.9412,W,2,07,1.4,-1.2,M,-25.1,M,1.8,0000*67
$GPGSA,A,3,26,13,07,28,08,10,05,,,,,,2.5,1.4,2.1*34
$GPRMC,200720.000,A,3748.7038,N,12217.9412,W,1.94,206.26,200711,,,D*7A
$GPVTG,206.26,T,,M,1.94,N,3.6,K,D*01
$GPGGA,200721.000,3748.7033,N,12217.9415,W,2,07,1.4,-1.4,M,-25.1,M,1.8,0000*6C
$GPGSA,A,3,26,13,07,28,08,10,05,,,,,,2.5,1.4,2.1*34
$GPGSV,3,1,11,08,66,013,35,28,64,260,37,07,54,074,28,26,31,315,33*71
$GPGSV,3,2,11,19,23,048,28,13,18,152,16,05,17,266,32,17,14,187,31*72
$GPGSV,3,3,11,11,14,101,18,10,10,217,37,48,44,197,38*4D
$GPRMC,200721.000,A,3748.7033,N,12217.9415,W,2.04,205.55,200711,,,D*7A
$GPVTG,205.55,T,,M,2.04,N,3.8,K,D*02
$GPGGA,200722.000,3748.7028,N,12217.9419,W,2,07,1.4,-1.5,M,-25.1,M,1.8,0000*68
$GPGSA,A,3,26,13,07,28,08,10,05,,,,,,2.5,1.4,2.1*34
$GPRMC,200722.000,A,3748.7028,N,12217.9419,W,2.14,208.71,200711,,,D*75
$GPVTG,208.71,T,,M,2.14,N,4.0,K,D*07
$GPGGA,200723.000,3748.7022,N,12217.9426,W,2,07,1.4,-1.5,M,-25.1,M,2.8,0000*6C
$GPGSA,A,3,26,13,07,28,08,10,05,,,,,,2.5,1.4,2.1*34
$GPRMC,200723.000,A,3748.7022,N,12217.9426,W,2.23,211.52,200711,,,D*7F
$GPVTG,211.52,T,,M,2.23,N,4.1,K,D*0B
$GPGGA,200724.000,3748.7015,N,12217.9429,W,2,07,1.4,-1.8,M,-25.1,M,3.8,0000*6C
$GPGSA,A,3,26,13,07,28,08,10,05,,,,,,2.5,1.4,2.1*34
$GPRMC,200724.000,A,3748.7015,N,12217.9429,W,2.31,209.93,200711,,,D*74
$GPVTG,209.93,T,,M,2.31,N,4.3,K,D*0E
$GPGGA,200725.000,3748.7010,N,12217.9434,W,2,07,1.4,-1.9,M,-25.1,M,4.8,0000*62
$GPGSA,A,3,26,13,07,28,08,10,05,,,,,,2.5,1.4,2.1*34
$GPRMC,200725.000,A,3748.7010,N,12217.9434,W,2.22,217.39,200711,,,D*71
$GPVTG,217.39,T,,M,2.22,N,4.1,K,D*01
$GPGGA,200726.000,3748.7006,N,12217.9439,W,2,07,1.4,-2.1,M,-25.1,M,1.8,0000*65
$GPGSA,A,3,26,13,07,28,08,10,05,,,,,,2.5,1.4,2.1*34
$GPGSV,3,1,11,08,66,013,35,28,64,260,37,07,54,074,26,26,31,315,35*79
$GPGSV,3,2,11,19,23,048,28,13,18,152,19,05,17,266,33,17,14,187,29*75
$GPGSV,3,3,11,11,14,101,17,10,10,217,34,48,44,197,37*4E
$GPRMC,200726.000,A,3748.7006,N,12217.9439,W,2.03,217.26,200711,,,D*75
$GPVTG,217.26,T,,M,2.03,N,3.8,K,D*02
$GPGGA,200727.000,3748.7002,N,12217.9445,W,2,07,1.4,-2.3,M,-25.1,M,1.8,0000*69
$GPGSA,A,3,26,13,07,28,08,10,05,,,,,,2.5,1.4,2.1*34
$GPRMC,200727.000,A,3748.7002,N,12217.9445,W,2.00,210.04,200711,,,D*7F
$GPVTG,210.04,T,,M,2.00,N,3.7,K,D*09
$GPGGA,200728.000,3748.6997,N,12217.9451,W,2,07,1.4,-2.2,M,-25.1,M,1.8,0000*66
$GPGSA,A,3,26,13,07,28,08,10,05,,,,,,2.5,1.4,2.1*34
$GPRMC,200728.000,A,3748.6997,N,12217.9451,W,2.19,209.79,200711,,,D*7B
$GPVTG,209.79,T,,M,2.19,N,4.1,K,D*02
$GPGGA,200729.000,3748.6992,N,12217.9455,W,2,07,1.4,-2.2,M,-25.1,M,2.8,0000*65
$GPGSA,A,3,26,13,07,28,08,10,05,,,,,,2.5,1.4,2.1*34
$GPRMC,200729.000,A,3748.6992,N,12217.9455,W,2.23,210.52,200711,,,D*73
$GPVTG,210.52,T,,M,2.23,N,4.1,K,D*0A
$GPGGA,200730.000,3748.6987,N,12217.9460,W,2,07,1.4,-2.2,M,-25.1,M,3.8,0000*6E
$GPGSA,A,3,26,13,07,28,08,10,05,,,,,,2.5,1.4,2.1*34
$GPRMC,200730.000,A,3748.6987,N,12217.9460,W,2.17,215.91,200711,,,D*74
$GPVTG,215.91,T,,M,2.17,N,4.0,K,D*06
$GPGGA,200731.000,3748.6982,N,12217.9459,W,2,07,1.4,-2.3,M,-25.1,M,4.8,0000*66
$GPGSA,A,3,26,13,07,28,08,10,05,,,,,,2.5,1.4,2.1*34
$GPGSV,3,1,11,08,66,013,25,28,64,260,28,07,54,074,27,26,31,315,23*70
$GPGSV,3,2,11,19,23,048,23,13,18,152,20,05,17,266,25,17,14,187,23*79
$GPGSV,3,3,11,11,14,101,17,10,10,217,36,48,44,197,34*4F
$GPRMC,200731.000,A,3748.6982,N,12217.9459,W,2.04,214.91,200711,,,D*79
$GPGGA,200732.000,3748.6978,N,12217.9462,W,2,07,1.4,-2.2,M,-25.1,M,1.8,0000*6C
$GPGSA,A,3,26,13,07,28,08,10,05,,,,,,2.5,1.4,2.1*34
$GPRMC,200732.000,A,3748.6978,N,12217.9462,W,2.07,216.65,200711,,,D*7D
$GPVTG,216.65,T,,M,2.07,N,3.8,K,D*00
$GPGGA,200733.000,3748.6972,N,12217.9466,W,2,07,1.4,-1.7,M,-25.1,M,1.8,0000*65
$GPGSA,A,3,26,13,07,28,08,10,05,,,,,,2.5,1.4,2.1*34
$GPRMC,200733.000,A,3748.6972,N,12217.9466,W,2.26,211.00,200711,,,D*75
$GPVTG,211.00,T,,M,2.26,N,4.2,K,D*0A
$GPGGA,200734.000,3748.6966,N,12217.9469,W,2,07,1.4,-1.7,M,-25.1,M,1.8,0000*68
$GPGSA,A,3,26,13,07,28,08,10,05,,,,,,2.5,1.4,2.1*34
$GPRMC,200734.000,A,3748.6966,N,12217.9469,W,2.21,211.59,200711,,,D*73
$GPVTG,211.59,T,,M,2.21,N,4.1,K,D*02
