$ADVER,3080,2.3
$GPRMC,225122.982,A,3748.7930,N,12217.8369,W,0.13,149.67,200711,,,A*77
$GPRMC,225123.982,A,3748.7939,N,12217.8396,W,0.09,188.87,200711,,,A*77
$GPRMC,225124.982,A,3748.7945,N,12217.8412,W,0.08,204.49,200711,,,A*74
$GPRMC,225125.982,A,3748.7948,N,12217.8422,W,0.08,192.19,200711,,,A*72
$GPRMC,225126.982,A,3748.7952,N,12217.8408,W,1.17,105.29,200711,,,A*70
$GPRMC,225127.982,A,3748.7963,N,12217.8397,W,1.10,67.36,200711,,,A*4E
$GPRMC,225128.982,A,3748.7965,N,12217.8419,W,0.33,273.97,200711,,,A*7A
$GPRMC,225129.982,A,3748.7973,N,12217.8431,W,0.81,281.89,200711,,,A*7D
$GPRMC,225130.982,A,3748.7979,N,12217.8446,W,0.72,271.20,200711,,,A*7F
$GPRMC,225131.982,A,3748.7987,N,12217.8468,W,1.23,273.86,200711,,,A*78
$GPRMC,225132.982,A,3748.7997,N,12217.8481,W,1.02,273.63,200711,,,A*75
$GPRMC,225133.982,A,3748.7996,N,12217.8484,W,0.93,245.20,200711,,,A*7B
$GPRMC,225134.982,A,3748.7996,N,12217.8472,W,0.38,276.18,200711,,,A*7F
$GPRMC,225135.982,A,3748.7996,N,12217.8474,W,0.38,276.18,200711,,,E*7C
$GPRMC,225136.982,A,3748.7996,N,12217.8475,W,0.38,276.18,200711,,,E*7E
$GPRMC,225137.982,A,3748.7998,N,12217.8427,W,3.64,92.79,200711,,,A*47
$GPRMC,225138.982,A,3748.7986,N,12217.8437,W,1.09,143.37,200711,,,A*78
$GPRMC,225139.982,A,3748.7968,N,12217.8478,W,3.10,230.59,200711,,,A*77
$GPRMC,225140.982,A,3748.7958,N,12217.8500,W,2.81,230.58,200711,,,A*7C
$GPRMC,225141.982,A,3748.7949,N,12217.8524,W,2.91,227.58,200711,,,A*7C
$GPRMC,225142.982,A,3748.7944,N,12217.8532,W,2.91,227.58,200711,,,E*71
$GPRMC,225143.982,A,3748.7938,N,12217.8539,W,2.91,227.58,200711,,,E*70
$GPRMC,225144.982,A,3748.7933,N,12217.8547,W,2.91,227.58,200711,,,E*75
$GPRMC,225145.982,A,3748.7927,N,12217.8554,W,2.91,227.58,200711,,,E*73
$GPRMC,225146.982,A,3748.7903,N,12217.8600,W,4.27,220.97,200711,,,A*7F
$GPRMC,225147.982,A,3748.7874,N,12217.8645,W,4.31,230.53,200711,,,A*70
$GPRMC,225148.982,A,3748.7870,N,12217.8689,W,3.54,240.32,200711,,,A*7F
$GPRMC,225149.982,A,3748.7865,N,12217.8699,W,3.54,240.32,200711,,,E*7F
$GPRMC,225150.982,A,3748.7848,N,12217.8725,W,5.70,237.79,200711,,,A*75
$GPRMC,225151.982,A,3748.7839,N,12217.8724,W,4.06,223.65,200711,,,A*7B
$GPRMC,225152.982,A,3748.7850,N,12217.8702,W,1.92,220.07,200711,,,A*7C
$GPRMC,225153.982,A,3748.7856,N,12217.8683,W,1.60,207.12,200711,,,A*7F
$GPRMC,225154.982,A,3748.7858,N,12217.8668,W,1.71,205.16,200711,,,A*75
$GPRMC,225155.982,A,3748.7853,N,12217.8666,W,1.91,208.65,200711,,,A*76
$GPRMC,225156.982,A,3748.7855,N,12217.8656,W,1.47,202.51,200711,,,A*76
$GPRMC,225157.982,A,3748.7858,N,12217.8644,W,1.00,183.58,200711,,,A*79
$GPRMC,225158.982,A,3748.7834,N,12217.8576,W,1.52,192.51,200711,,,A*70
$GPRMC,225159.982,A,3748.7811,N,12217.8514,W,1.12,182.79,200711,,,A*7D
$GPRMC,225201.000,A,3748.7793,N,12217.8477,W,1.17,155.74,200711,,,A*73
$GPRMC,225202.000,A,3748.7766,N,12217.8404,W,1.66,100.48,200711,,,A*77
$GPRMC,225203.000,A,3748.7762,N,12217.8350,W,2.03,79.46,200711,,,A*45
$GPRMC,225204.000,A,3748.7762,N,12217.8335,W,1.96,96.46,200711,,,A*4F
$GPRMC,225205.000,A,3748.7761,N,12217.8334,W,1.66,107.62,200711,,,A*7C
$GPRMC,225206.000,A,3748.7756,N,12217.8336,W,1.83,112.23,200711,,,A*73
$GPRMC,225207.000,A,3748.7758,N,12217.8339,W,1.85,68.55,200711,,,A*48
$GPRMC,225208.000,A,3748.7777,N,12217.8365,W,2.68,60.42,200711,,,A*4D
$GPRMC,225209.000,A,3748.7784,N,12217.8390,W,1.80,61.53,200711,,,A*4E
$GPRMC,225210.000,A,3748.7800,N,12217.8425,W,1.64,52.77,200711,,,A*40
$GPRMC,225211.000,A,3748.7805,N,12217.8438,W,1.51,52.30,200711,,,A*4D
$GPRMC,225212.000,A,3748.7809,N,12217.8454,W,1.30,80.95,200711,,,A*4F
$GPRMC,225213.000,A,3748.7816,N,12217.8475,W,0.38,94.94,200711,,,A*4E
$GPRMC,225214.000,A,3748.7830,N,12217.8510,W,0.22,64.71,200711,,,A*40
$GPRMC,225215.000,A,3748.7843,N,12217.8537,W,1.15,149.50,200711,,,A*78
$GPRMC,225216.000,A,3748.7856,N,12217.8558,W,0.48,173.02,200711,,,A*71
$GPRMC,225217.000,A,3748.7872,N,12217.8577,W,1.04,63.13,200711,,,A*42
$GPRMC,225218.000,A,3748.7878,N,12217.8613,W,1.13,238.12,200711,,,A*7D
$GPRMC,225219.000,A,3748.7886,N,12217.8650,W,1.67,239.68,200711,,,A*75
$GPRMC,225220.000,A,3748.7884,N,12217.8681,W,1.22,245.94,200711,,,A*78
$GPRMC,225221.000,A,3748.7888,N,12217.8720,W,1.77,229.45,200711,,,A*79
$GPRMC,225222.000,A,3748.7878,N,12217.8743,W,2.57,227.33,200711,,,A*7E
$GPRMC,225223.000,A,3748.7867,N,12217.8750,W,2.72,249.37,200711,,,A*78
$GPRMC,225224.000,A,3748.7864,N,12217.8759,W,2.72,249.37,200711,,,E*71
$GPRMC,225225.000,A,3748.7859,N,12217.8775,W,3.17,236.75,200711,,,A*78
$GPRMC,225226.000,A,3748.7854,N,12217.8801,W,4.66,237.80,200711,,,A*70
$GPRMC,225227.000,A,3748.7839,N,12217.8805,W,3.52,233.11,200711,,,A*72
$GPRMC,225228.000,A,3748.7841,N,12217.8817,W,1.95,245.11,200711,,,A*79
$GPRMC,225229.000,A,3748.7841,N,12217.8821,W,1.01,250.68,200711,,,A*7A
$GPRMC,225230.000,A,3748.7838,N,12217.8841,W,1.37,234.33,200711,,,A*73
$GPRMC,225231.000,A,3748.7825,N,12217.8865,W,1.74,227.82,200711,,,A*77
$GPRMC,225232.000,A,3748.7815,N,12217.8875,W,2.16,223.18,200711,,,A*76
$GPRMC,225233.000,A,3748.7799,N,12217.8891,W,2.14,229.00,200711,,,A*77
$GPRMC,225234.000,A,3748.7781,N,12217.8886,W,2.43,238.43,200711,,,A*7A
$GPRMC,225235.000,A,3748.7766,N,12217.8887,W,1.77,237.40,200711,,,A*7B
$GPRMC,225236.000,A,3748.7768,N,12217.8882,W,0.16,141.45,200711,,,A*72
$GPRMC,225237.000,A,3748.7768,N,12217.8878,W,1.22,80.71,200711,,,A*4B
$GPRMC,225238.000,A,3748.7772,N,12217.8871,W,0.97,117.84,200711,,,A*7C
$GPRMC,225239.000,A,3748.7771,N,12217.8848,W,1.62,123.47,200711,,,A*77
$GPRMC,225240.000,A,3748.7774,N,12217.8822,W,2.57,93.24,200711,,,A*4A
$GPRMC,225241.000,A,3748.7785,N,12217.8844,W,0.38,131.32,200711,,,A*70
$GPRMC,225242.000,A,3748.7787,N,12217.8836,W,1.02,96.05,200711,,,A*44
$GPRMC,225243.000,A,3748.7786,N,12217.8839,W,0.30,213.40,200711,,,A*75
$GPRMC,225244.000,A,3748.7787,N,12217.8853,W,1.15,304.56,200711,,,A*79
$GPRMC,225245.000,A,3748.7786,N,12217.8865,W,1.64,269.46,200711,,,A*71
$GPRMC,225246.000,A,3748.7780,N,12217.8864,W,1.93,247.52,200711,,,A*74
$GPRMC,225247.000,A,3748.7767,N,12217.8871,W,1.84,212.18,200711,,,A*70
$GPRMC,225248.000,A,3748.7768,N,12217.8890,W,1.78,215.44,200711,,,A*72
$GPRMC,225249.000,A,3748.7760,N,12217.8896,W,1.45,241.04,200711,,,A*76
$GPRMC,225250.000,A,3748.7750,N,12217.8915,W,2.20,261.96,200711,,,A*7E
$GPRMC,225251.000,A,3748.7751,N,12217.8932,W,1.89,280.21,200711,,,A*78
$GPRMC,225252.000,A,3748.7750,N,12217.8934,W,1.28,280.39,200711,,,A*7E
$GPRMC,225253.000,A,3748.7755,N,12217.8934,W,1.17,232.29,200711,,,A*7E
$GPRMC,225254.000,A,3748.7752,N,12217.8938,W,1.76,202.56,200711,,,A*7E
$GPRMC,225255.000,A,3748.7753,N,12217.8940,W,1.66,235.50,200711,,,A*72
$GPRMC,225256.000,A,3748.7756,N,12217.8944,W,1.78,242.43,200711,,,A*7D
$GPRMC,225257.000,A,3748.7751,N,12217.8954,W,2.65,231.55,200711,,,A*76
$GPRMC,225258.000,A,3748.7745,N,12217.8985,W,3.58,225.27,200711,,,A*7F
$GPRMC,225259.000,A,3748.7732,N,12217.9002,W,4.29,218.88,200711,,,A*73
$GPRMC,225300.000,A,3748.7719,N,12217.8996,W,3.91,202.06,200711,,,A*7B
$GPRMC,225301.000,A,3748.7709,N,12217.9003,W,4.04,201.65,200711,,,A*72
$GPRMC,225302.000,A,3748.7708,N,12217.9021,W,3.60,216.52,200711,,,A*77
$GPRMC,225303.000,A,3748.7698,N,12217.9033,W,3.97,218.87,200711,,,A*73
$GPRMC,225304.000,A,3748.7693,N,12217.9013,W,2.25,204.27,200711,,,A*72
$GPRMC,225305.000,A,3748.7691,N,12217.8988,W,0.93,209.20,200711,,,A*7E
$GPRMC,225306.000,A,3748.7666,N,12217.8997,W,1.28,180.90,200711,,,A*73
$GPRMC,225307.000,A,3748.7647,N,12217.9014,W,1.32,175.37,200711,,,A*7E
$GPRMC,225308.000,A,3748.7637,N,12217.9013,W,1.36,155.83,200711,,,A*78
$GPRMC,225309.000,A,3748.7627,N,12217.9007,W,1.28,135.15,200711,,,A*7B
$GPRMC,225310.000,A,3748.7617,N,12217.8998,W,1.88,149.50,200711,,,A*7E
$GPRMC,225311.000,A,3748.7611,N,12217.8976,W,2.12,121.30,200711,,,A*71
$GPRMC,225312.000,A,3748.7605,N,12217.8971,W,2.30,138.04,200711,,,A*7F
$GPRMC,225313.000,A,3748.7598,N,12217.8991,W,1.44,196.18,200711,,,A*7E
$GPRMC,225314.000,A,3748.7595,N,12217.8993,W,1.44,196.18,200711,,,E*72
$GPRMC,225315.000,A,3748.7591,N,12217.8994,W,1.44,196.18,200711,,,E*70
$GPRMC,225316.000,A,3748.7587,N,12217.8996,W,1.44,196.18,200711,,,E*76
$GPRMC,225317.000,A,3748.7583,N,12217.8997,W,1.44,196.18,200711,,,E*72
$GPRMC,225318.000,A,3748.7579,N,12217.8998,W,1.44,196.18,200711,,,E*77
$GPRMC,225319.000,A,3748.7575,N,12217.9000,W,1.44,196.18,200711,,,E*73
$GPRMC,225320.000,A,3748.7572,N,12217.9001,W,1.44,196.18,200711,,,E*7F
$GPRMC,225321.000,A,3748.7568,N,12217.9003,W,1.44,196.18,200711,,,E*77
$GPRMC,225322.000,A,3748.7564,N,12217.9004,W,1.44,196.18,200711,,,E*7F
$GPRMC,225323.000,A,3748.7453,N,12217.9098,W,4.69,224.48,200711,,,A*7F
$GPRMC,225324.000,A,3748.7492,N,12217.9032,W,3.23,198.62,200711,,,A*70
$GPRMC,225325.000,A,3748.7499,N,12217.8991,W,2.91,185.55,200711,,,A*7B
$GPRMC,225326.000,A,3748.7506,N,12217.8940,W,2.20,171.11,200711,,,A*72
$GPRMC,225327.000,A,3748.7510,N,12217.8901,W,2.00,198.16,200711,,,A*73
$GPRMC,225328.000,A,3748.7516,N,12217.8869,W,1.13,208.64,200711,,,A*7B
$GPRMC,225329.000,A,3748.7515,N,12217.8869,W,1.51,246.54,200711,,,A*76
$GPRMC,225330.000,A,3748.7504,N,12217.8869,W,1.11,217.25,200711,,,A*78
$GPRMC,225331.000,A,3748.7481,N,12217.8897,W,0.98,178.39,200711,,,A*73
$GPRMC,225332.000,A,3748.7481,N,12217.8887,W,1.02,133.40,200711,,,A*72
$GPRMC,225333.000,A,3748.7466,N,12217.8880,W,1.58,140.75,200711,,,A*70
$GPRMC,225334.000,A,3748.7450,N,12217.8863,W,1.77,118.02,200711,,,A*7F
$GPRMC,225335.000,A,3748.7438,N,12217.8852,W,1.30,161.79,200711,,,A*73
$GPRMC,225336.000,A,3748.7437,N,12217.8873,W,1.33,224.60,200711,,,A*75
$GPRMC,225337.000,A,3748.7440,N,12217.8882,W,1.08,240.41,200711,,,A*73
$GPRMC,225338.000,A,3748.7442,N,12217.8925,W,2.01,239.45,200711,,,A*72
$GPRMC,225339.000,A,3748.7438,N,12217.8939,W,2.89,228.53,200711,,,A*74
$GPRMC,225340.000,A,3748.7443,N,12217.8962,W,3.24,234.23,200711,,,A*74
$GPRMC,225341.000,A,3748.7441,N,12217.8973,W,2.85,228.09,200711,,,A*78
$GPRMC,225342.000,A,3748.7432,N,12217.8998,W,2.96,238.80,200711,,,A*78
$GPRMC,225343.000,A,3748.7421,N,12217.8990,W,1.62,231.13,200711,,,A*78
$GPRMC,225344.000,A,3748.7414,N,12217.8948,W,0.84,177.33,200711,,,A*76
$GPRMC,225345.000,A,3748.7409,N,12217.8924,W,0.81,150.13,200711,,,A*73
$GPRMC,225346.000,A,3748.7411,N,12217.8929,W,0.78,144.15,200711,,,A*71
$GPRMC,225347.000,A,3748.7415,N,12217.8934,W,0.83,151.05,200711,,,A*79
$GPRMC,225348.000,A,3748.7419,N,12217.8951,W,1.13,119.44,200711,,,A*78
$GPRMC,225349.000,A,3748.7423,N,12217.8973,W,1.31,141.42,200711,,,A*7B
$GPRMC,225350.000,A,3748.7426,N,12217.8987,W,0.94,133.86,200711,,,A*7E
$GPRMC,225351.000,A,3748.7427,N,12217.8993,W,0.93,136.23,200711,,,A*76
$GPRMC,225352.000,A,3748.7432,N,12217.8998,W,0.04,12.41,200711,,,A*47
$GPRMC,225353.000,A,3748.7436,N,12217.9007,W,0.67,214.65,200711,,,A*7B
$GPRMC,225354.000,A,3748.7444,N,12217.9044,W,1.11,225.02,200711,,,A*7D
$GPRMC,225355.000,A,3748.7451,N,12217.9082,W,1.98,247.68,200711,,,A*7B
$GPRMC,225356.000,A,3748.7458,N,12217.9097,W,2.50,223.68,200711,,,A*70
$GPRMC,225357.000,A,3748.7458,N,12217.9118,W,3.14,231.33,200711,,,A*7B
$GPRMC,225358.000,A,3748.7465,N,12217.9132,W,2.39,236.31,200711,,,A*79
$GPRMC,225359.000,A,3748.7474,N,12217.9134,W,1.94,233.95,200711,,,A*71
$GPRMC,225400.000,A,3748.7476,N,12217.9148,W,2.30,229.89,200711,,,A*78
$GPRMC,225401.000,A,3748.7476,N,12217.9174,W,2.11,242.71,200711,,,A*7F
$GPRMC,225402.000,A,3748.7478,N,12217.9207,W,2.85,257.72,200711,,,A*7F
$GPRMC,225403.000,A,3748.7473,N,12217.9238,W,1.83,248.11,200711,,,A*77
$GPRMC,225404.000,A,3748.7468,N,12217.9252,W,1.90,245.50,200711,,,A*7C
$GPRMC,225405.000,A,3748.7460,N,12217.9255,W,1.43,236.79,200711,,,A*73
$GPRMC,225406.000,A,3748.7454,N,12217.9260,W,1.70,244.37,200711,,,A*7E
$GPRMC,225407.000,A,3748.7449,N,12217.9250,W,0.87,205.15,200711,,,A*7C
$GPRMC,225408.000,A,3748.7441,N,12217.9242,W,0.74,117.59,200711,,,A*7C
$GPRMC,225409.000,A,3748.7438,N,12217.9257,W,0.31,221.37,200711,,,A*78
$GPRMC,225410.000,A,3748.7442,N,12217.9259,W,0.20,146.72,200711,,,A*70
$GPRMC,225411.000,A,3748.7444,N,12217.9278,W,1.10,254.27,200711,,,A*76
$GPRMC,225412.000,A,3748.7452,N,12217.9292,W,2.40,300.38,200711,,,A*7E
$GPRMC,225413.000,A,3748.7455,N,12217.9292,W,1.38,294.26,200711,,,A*77
$GPRMC,225414.000,A,3748.7455,N,12217.9304,W,2.62,267.76,200711,,,A*7B
$GPRMC,225415.000,A,3748.7451,N,12217.9313,W,2.08,252.00,200711,,,A*73
$GPRMC,225416.000,A,3748.7455,N,12217.9290,W,0.61,24.81,200711,,,A*49
$GPRMC,225417.000,A,3748.7469,N,12217.9298,W,2.10,352.61,200711,,,A*77
$GPRMC,225418.000,A,3748.7481,N,12217.9310,W,2.51,340.31,200711,,,A*7C
$GPRMC,225419.000,A,3748.7488,N,12217.9321,W,2.42,342.56,200711,,,A*77
$GPRMC,225420.000,A,3748.7503,N,12217.9327,W,2.72,347.15,200711,,,A*78
$GPRMC,225421.000,A,3748.7506,N,12217.9322,W,1.61,333.62,200711,,,A*7B
$GPRMC,225422.000,A,3748.7512,N,12217.9337,W,2.23,310.37,200711,,,A*7D
$GPRMC,225423.000,A,3748.7516,N,12217.9343,W,2.23,310.37,200711,,,E*7F
$GPRMC,225424.000,A,3748.7520,N,12217.9349,W,2.23,310.37,200711,,,E*77
$GPRMC,225425.000,A,3748.7524,N,12217.9355,W,2.23,310.37,200711,,,E*7F
$GPRMC,225426.000,A,3748.7516,N,12217.9390,W,3.85,268.76,200711,,,A*76
$GPRMC,225427.000,A,3748.7507,N,12217.9378,W,2.42,259.33,200711,,,A*78
$GPRMC,225428.000,A,3748.7499,N,12217.9397,W,3.15,240.61,200711,,,A*7C
$GPRMC,225429.000,A,3748.7502,N,12217.9405,W,0.91,223.82,200711,,,A*75
$GPRMC,225430.000,A,3748.7487,N,12217.9409,W,0.25,192.59,200711,,,A*7D
$GPRMC,225431.000,A,3748.7489,N,12217.9395,W,0.63,124.98,200711,,,A*72
$GPRMC,225432.000,A,3748.7488,N,12217.9362,W,1.92,136.17,200711,,,A*73
$GPRMC,225433.000,A,3748.7482,N,12217.9376,W,2.10,148.03,200711,,,A*78
$GPRMC,225434.000,A,3748.7419,N,12217.9236,W,2.35,202.62,200711,,,A*75
$GPRMC,225435.000,A,3748.7403,N,12217.9229,W,2.36,214.96,200711,,,A*7E
$GPRMC,225436.000,A,3748.7391,N,12217.9242,W,2.10,211.86,200711,,,A*7C
$GPRMC,225437.000,A,3748.7387,N,12217.9248,W,1.69,226.87,200711,,,A*78
$GPRMC,225438.000,A,3748.7388,N,12217.9256,W,2.06,233.66,200711,,,A*76
$GPRMC,225439.000,A,3748.7390,N,12217.9262,W,1.95,237.55,200711,,,A*74
$GPRMC,225440.000,A,3748.7389,N,12217.9266,W,1.60,230.11,200711,,,A*7B
$GPRMC,225441.000,A,3748.7387,N,12217.9265,W,1.93,216.63,200711,,,A*7A
$GPRMC,225442.000,A,3748.7384,N,12217.9268,W,1.87,221.94,200711,,,A*7E
$GPRMC,225443.000,A,3748.7376,N,12217.9275,W,2.00,229.69,200711,,,A*78
$GPRMC,225444.000,A,3748.7369,N,12217.9283,W,1.62,225.21,200711,,,A*7F
$GPRMC,225445.000,A,3748.7359,N,12217.9289,W,1.78,227.92,200711,,,A*76
$GPRMC,225446.000,A,3748.7356,N,12217.9293,W,1.29,233.05,200711,,,A*7E
$GPRMC,225447.000,A,3748.7351,N,12217.9299,W,1.53,227.32,200711,,,A*7E
$GPRMC,225448.000,A,3748.7349,N,12217.9302,W,1.69,220.61,200711,,,A*73
$GPRMC,225449.000,A,3748.7350,N,12217.9305,W,1.41,242.81,200711,,,A*7D
$GPRMC,225450.000,A,3748.7352,N,12217.9307,W,1.86,231.06,200711,,,A*75
$GPRMC,225451.000,A,3748.7355,N,12217.9310,W,1.49,233.19,200711,,,A*7A
$GPRMC,225452.000,A,3748.7352,N,12217.9315,W,1.94,230.11,200711,,,A*70
$GPRMC,225453.000,A,3748.7348,N,12217.9323,W,1.73,239.53,200711,,,A*79
$GPRMC,225454.000,A,3748.7338,N,12217.9331,W,1.55,242.84,200711,,,A*78
$GPRMC,225455.000,A,3748.7330,N,12217.9337,W,1.72,238.70,200711,,,A*74
$GPRMC,225456.000,A,3748.7328,N,12217.9342,W,1.59,261.92,200711,,,A*75
$GPRMC,225457.000,A,3748.7329,N,12217.9344,W,1.52,287.55,200711,,,A*7B
$GPRMC,225458.000,A,3748.7328,N,12217.9346,W,1.23,281.23,200711,,,A*76
$GPRMC,225459.000,A,3748.7325,N,12217.9354,W,1.18,253.81,200711,,,A*76
$GPRMC,225500.000,A,3748.7325,N,12217.9358,W,1.47,246.01,200711,,,A*71
$GPRMC,225501.000,A,3748.7324,N,12217.9362,W,1.36,247.40,200711,,,A*7A
$GPRMC,225502.000,A,3748.7323,N,12217.9365,W,1.19,264.46,200711,,,A*73
$GPRMC,225503.000,A,3748.7318,N,12217.9368,W,1.18,281.86,200711,,,A*71
$GPRMC,225504.000,A,3748.7308,N,12217.9371,W,1.14,278.95,200711,,,A*77
$GPRMC,225505.000,A,3748.7302,N,12217.9374,W,1.45,255.29,200711,,,A*75
$GPRMC,225506.000,A,3748.7290,N,12217.9378,W,1.86,232.70,200711,,,A*72
$GPRMC,225507.000,A,3748.7272,N,12217.9385,W,2.50,227.52,200711,,,A*71
$GPRMC,225508.000,A,3748.7264,N,12217.9391,W,1.95,236.02,200711,,,A*73
$GPRMC,225509.000,A,3748.7259,N,12217.9396,W,2.34,227.59,200711,,,A*7D
$GPRMC,225510.000,A,3748.7249,N,12217.9403,W,1.84,228.63,200711,,,A*71
$GPRMC,225511.000,A,3748.7242,N,12217.9408,W,1.46,230.75,200711,,,A*70
$GPRMC,225512.000,A,3748.7247,N,12217.9412,W,1.42,238.72,200711,,,A*76
$GPRMC,225513.000,A,3748.7238,N,12217.9414,W,1.84,233.90,200711,,,A*74
$GPRMC,225514.000,A,3748.7226,N,12217.9421,W,2.21,224.74,200711,,,A*7A
$GPRMC,225515.000,A,3748.7216,N,12217.9424,W,2.70,211.45,200711,,,A*7D
$GPRMC,225516.000,A,3748.7203,N,12217.9429,W,4.19,200.10,200711,,,A*7E
$GPRMC,225517.000,A,3748.7188,N,12217.9435,W,4.04,200.45,200711,,,A*7E
$GPRMC,225518.000,A,3748.7177,N,12217.9437,W,3.46,200.46,200711,,,A*71
$GPRMC,225519.000,A,3748.7174,N,12217.9436,W,2.96,197.05,200711,,,A*74
$GPRMC,225520.000,A,3748.7172,N,12217.9433,W,1.82,204.30,200711,,,A*74
$GPRMC,225521.000,A,3748.7168,N,12217.9432,W,2.49,199.78,200711,,,A*70
$GPRMC,225522.000,A,3748.7157,N,12217.9434,W,2.88,197.50,200711,,,A*70
$GPRMC,225523.000,A,3748.7142,N,12217.9436,W,3.64,197.08,200711,,,A*79
$GPRMC,225524.000,A,3748.7123,N,12217.9441,W,3.18,197.20,200711,,,A*78
$GPRMC,225525.000,A,3748.7112,N,12217.9448,W,3.13,198.86,200711,,,A*7A
$GPRMC,225526.000,A,3748.7096,N,12217.9454,W,2.88,202.11,200711,,,A*74
$GPRMC,225527.000,A,3748.7080,N,12217.9460,W,2.86,202.89,200711,,,A*7A
$GPRMC,225528.000,A,3748.7065,N,12217.9461,W,2.49,203.01,200711,,,A*7D
$GPRMC,225529.000,A,3748.7057,N,12217.9465,W,1.78,223.88,200711,,,A*7B
$GPRMC,225530.000,A,3748.7048,N,12217.9467,W,1.86,219.55,200711,,,A*77
$GPRMC,225531.000,A,3748.7037,N,12217.9471,W,2.13,213.76,200711,,,A*7D
$GPRMC,225532.000,A,3748.7032,N,12217.9475,W,1.80,212.46,200711,,,A*74
$GPRMC,225533.000,A,3748.7025,N,12217.9476,W,1.85,208.75,200711,,,A*7E
$GPRMC,225534.000,A,3748.7025,N,12217.9478,W,1.09,223.89,200711,,,A*79
$GPRMC,225535.000,A,3748.7023,N,12217.9484,W,1.72,245.01,200711,,,A*71
$GPRMC,225536.000,A,3748.7016,N,12217.9489,W,1.56,232.49,200711,,,A*73
$GPRMC,225537.000,A,3748.7003,N,12217.9495,W,2.20,213.03,200711,,,A*74
$GPRMC,225538.000,A,3748.6993,N,12217.9502,W,2.33,212.47,200711,,,A*76
$GPRMC,225539.000,A,3748.6987,N,12217.9505,W,2.33,212.59,200711,,,A*7A
$GPRMC,225540.000,A,3748.6983,N,12217.9508,W,1.87,215.22,200711,,,A*7A
$GPRMC,225541.000,A,3748.6976,N,12217.9511,W,1.86,213.38,200711,,,A*75
$GPRMC,225542.000,A,3748.6967,N,12217.9517,W,2.37,219.25,200711,,,A*7F
$GPRMC,225543.000,A,3748.6964,N,12217.9523,W,2.26,222.75,200711,,,A*77
$GPRMC,225544.000,A,3748.6962,N,12217.9528,W,2.14,231.08,200711,,,A*74
$GPRMC,225545.000,A,3748.6961,N,12217.9530,W,1.33,243.46,200711,,,A*76
$GPRMC,225546.000,A,3748.6963,N,12217.9533,W,1.51,236.78,200711,,,A*7F
$GPRMC,225547.000,A,3748.6963,N,12217.9538,W,1.07,250.92,200711,,,A*72
$GPRMC,225548.000,A,3748.6960,N,12217.9543,W,1.33,248.46,200711,,,A*75
$GPRMC,225549.000,A,3748.6953,N,12217.9548,W,1.64,227.38,200711,,,A*7D
$GPRMC,225550.000,A,3748.6941,N,12217.9556,W,1.95,228.96,200711,,,A*7C
$GPRMC,225551.000,A,3748.6936,N,12217.9561,W,1.83,221.18,200711,,,A*71
$GPRMC,225552.000,A,3748.6931,N,12217.9570,W,1.84,251.26,200711,,,A*78
$GPRMC,225553.000,A,3748.6929,N,12217.9578,W,2.18,251.92,200711,,,A*71
$GPRMC,225554.000,A,3748.6926,N,12217.9584,W,1.91,253.97,200711,,,A*7F
$GPRMC,225555.000,A,3748.6927,N,12217.9590,W,1.67,253.04,200711,,,A*79
$GPRMC,225556.000,A,3748.6920,N,12217.9598,W,1.49,260.30,200711,,,A*7E
$GPRMC,225557.000,A,3748.6926,N,12217.9602,W,1.52,266.18,200711,,,A*7F
$GPRMC,225558.000,A,3748.6925,N,12217.9606,W,1.85,235.17,200711,,,A*74
$GPRMC,225559.000,A,3748.6920,N,12217.9613,W,1.85,230.67,200711,,,A*76
$GPRMC,225600.000,A,3748.6920,N,12217.9617,W,1.42,236.39,200711,,,A*7B
$GPRMC,225601.000,A,3748.6917,N,12217.9622,W,1.79,245.89,200711,,,A*7F
$GPRMC,225602.000,A,3748.6905,N,12217.9630,W,2.93,217.24,200711,,,A*7B
$GPRMC,225603.000,A,3748.6891,N,12217.9636,W,2.77,215.11,200711,,,A*7E
$GPRMC,225604.000,A,3748.6875,N,12217.9638,W,2.74,213.65,200711,,,A*7B
$GPRMC,225605.000,A,3748.6856,N,12217.9645,W,2.77,216.23,200711,,,A*75
$GPRMC,225606.000,A,3748.6844,N,12217.9649,W,2.71,214.21,200711,,,A*7F
$GPRMC,225607.000,A,3748.6831,N,12217.9653,W,2.87,212.34,200711,,,A*7C
$GPRMC,225608.000,A,3748.6827,N,12217.9656,W,2.78,216.51,200711,,,A*76
$GPRMC,225609.000,A,3748.6823,N,12217.9660,W,2.55,223.25,200711,,,A*7C
$GPRMC,225609.000,A,3748.6824,N,12217.9668,W,1.79,238.21,200711,,,A*70
$GPRMC,225610.000,A,3748.6825,N,12217.9675,W,1.77,231.32,200711,,,A*70
$GPRMC,225611.000,A,3748.6824,N,12217.9681,W,1.68,212.53,200711,,,A*73
$GPRMC,225612.000,A,3748.6821,N,12217.9683,W,1.52,213.85,200711,,,A*74
$GPRMC,225613.000,A,3748.6817,N,12217.9686,W,1.83,223.06,200711,,,A*71
$GPRMC,225614.000,A,3748.6808,N,12217.9690,W,2.06,240.02,200711,,,A*70
$GPRMC,225615.000,A,3748.6800,N,12217.9698,W,1.54,259.87,200711,,,A*70
$GPRMC,225616.000,A,3748.6799,N,12217.9702,W,1.85,241.13,200711,,,A*76
$GPRMC,225617.000,A,3748.6794,N,12217.9709,W,2.15,219.53,200711,,,A*72
$GPRMC,225618.000,A,3748.6791,N,12217.9714,W,1.74,223.68,200711,,,A*71
$GPRMC,225619.000,A,3748.6784,N,12217.9717,W,1.84,208.95,200711,,,A*73
$GPRMC,225620.000,A,3748.6771,N,12217.9719,W,2.25,205.42,200711,,,A*72
$GPRMC,225621.000,A,3748.6740,N,12217.9721,W,2.05,205.69,200711,,,A*71
$GPRMC,225622.000,A,3748.6717,N,12217.9722,W,2.12,208.03,200711,,,A*74
$GPRMC,225623.000,A,3748.6697,N,12217.9726,W,2.37,215.78,200711,,,A*7F
$GPRMC,225624.000,A,3748.6678,N,12217.9730,W,2.97,212.31,200711,,,A*7E
$GPRMC,225625.000,A,3748.6660,N,12217.9735,W,3.04,206.56,200711,,,A*7C
$GPRMC,225626.000,A,3748.6646,N,12217.9738,W,2.49,210.92,200711,,,A*71
$GPRMC,225627.000,A,3748.6632,N,12217.9743,W,2.79,212.47,200711,,,A*76
$GPRMC,225628.000,A,3748.6629,N,12217.9744,W,2.16,211.21,200711,,,A*7E
$GPRMC,225629.000,A,3748.6632,N,12217.9743,W,2.12,224.67,200711,,,A*72
$GPRMC,225630.000,A,3748.6632,N,12217.9747,W,1.77,231.77,200711,,,A*7B
$GPRMC,225631.000,A,3748.6625,N,12217.9751,W,1.77,218.92,200711,,,A*7B
$GPRMC,225632.000,A,3748.6625,N,12217.9755,W,2.10,199.26,200711,,,A*7B
$GPRMC,225633.000,A,3748.6627,N,12217.9757,W,1.91,211.86,200711,,,A*79
$GPRMC,225634.000,A,3748.6624,N,12217.9764,W,1.74,236.18,200711,,,A*74
$GPRMC,225635.000,A,3748.6629,N,12217.9771,W,1.62,251.24,200711,,,A*75
$GPRMC,225636.000,A,3748.6633,N,12217.9777,W,0.97,236.56,200711,,,A*74
$GPRMC,225637.000,A,3748.6644,N,12217.9783,W,0.60,232.41,200711,,,A*74
$GPRMC,225638.000,A,3748.6644,N,12217.9785,W,0.67,283.94,200711,,,A*78
$GPRMC,225639.000,A,3748.6651,N,12217.9788,W,1.18,327.03,200711,,,A*78
$GPRMC,225640.000,A,3748.6662,N,12217.9789,W,1.61,351.36,200711,,,A*7E
$GPRMC,225641.000,A,3748.6656,N,12217.9793,W,0.59,257.57,200711,,,A*79
$GPRMC,225642.000,A,3748.6656,N,12217.9796,W,1.45,231.21,200711,,,A*72
$GPRMC,225643.000,A,3748.6652,N,12217.9804,W,2.13,216.80,200711,,,A*7D
$GPRMC,225644.000,A,3748.6643,N,12217.9814,W,1.91,212.76,200711,,,A*7F
$GPRMC,225645.000,A,3748.6629,N,12217.9820,W,2.25,200.21,200711,,,A*78
$GPRMC,225646.000,A,3748.6618,N,12217.9823,W,2.54,200.61,200711,,,A*78
$GPRMC,225647.000,A,3748.6607,N,12217.9832,W,2.15,216.05,200711,,,A*77
$GPRMC,225648.000,A,3748.6601,N,12217.9841,W,1.52,229.85,200711,,,A*7E
$GPRMC,225649.000,A,3748.6590,N,12217.9850,W,2.00,213.07,200711,,,A*73
$GPRMC,225650.000,A,3748.6576,N,12217.9858,W,3.00,197.89,200711,,,A*73
$GPRMC,225651.000,A,3748.6567,N,12217.9862,W,3.22,192.92,200711,,,A*74
$GPRMC,225652.000,A,3748.6548,N,12217.9869,W,4.37,194.42,200711,,,A*79
$GPRMC,225653.000,A,3748.6540,N,12217.9872,W,3.93,196.09,200711,,,A*7E
$GPRMC,225654.000,A,3748.6532,N,12217.9874,W,4.11,199.19,200711,,,A*79
$GPRMC,225655.000,A,3748.6520,N,12217.9875,W,3.91,198.91,200711,,,A*74
$GPRMC,225656.000,A,3748.6518,N,12217.9878,W,3.09,207.50,200711,,,A*78
$GPRMC,225657.000,A,3748.6521,N,12217.9884,W,2.31,221.47,200711,,,A*78
$GPRMC,225658.000,A,3748.6524,N,12217.9890,W,1.96,227.94,200711,,,A*71
$GPRMC,225659.000,A,3748.6524,N,12217.9894,W,1.51,234.99,200711,,,A*70
$GPRMC,225700.000,A,3748.6522,N,12217.9901,W,1.70,241.94,200711,,,A*7A
$GPRMC,225701.000,A,3748.6516,N,12217.9907,W,1.64,236.62,200711,,,A*76
$GPRMC,225702.000,A,3748.6516,N,12217.9913,W,1.68,241.31,200711,,,A*7A
$GPRMC,225703.000,A,3748.6519,N,12217.9916,W,1.25,247.10,200711,,,A*7D
$GPRMC,225704.000,A,3748.6515,N,12217.9922,W,1.35,234.62,200711,,,A*71
$GPRMC,225705.000,A,3748.6513,N,12217.9926,W,1.93,222.96,200711,,,A*72
$GPRMC,225706.000,A,3748.6507,N,12217.9930,W,2.41,215.86,200711,,,A*7A
$GPRMC,225707.000,A,3748.6507,N,12217.9939,W,2.01,225.87,200711,,,A*74
$GPRMC,225708.000,A,3748.6495,N,12217.9952,W,2.23,220.54,200711,,,A*77
$GPRMC,225709.000,A,3748.6478,N,12217.9962,W,3.09,216.41,200711,,,A*7E
$GPRMC,225710.000,A,3748.6471,N,12217.9968,W,2.67,216.60,200711,,,A*7F
$GPRMC,225711.000,A,3748.6461,N,12217.9974,W,2.74,216.48,200711,,,A*7A
$GPRMC,225712.000,A,3748.6452,N,12217.9981,W,2.79,208.52,200711,,,A*7A
$GPRMC,225713.000,A,3748.6436,N,12217.9988,W,2.90,204.39,200711,,,A*76
$GPRMC,225714.000,A,3748.6427,N,12217.9994,W,2.27,222.59,200711,,,A*72
$GPRMC,225715.000,A,3748.6415,N,12217.9999,W,2.62,219.72,200711,,,A*7F
$GPRMC,225716.000,A,3748.6403,N,12218.0002,W,3.12,204.76,200711,,,A*78
$GPRMC,225717.000,A,3748.6393,N,12218.0003,W,3.24,203.06,200711,,,A*73
$GPRMC,225718.000,A,3748.6387,N,12218.0006,W,2.54,215.85,200711,,,A*76
$GPRMC,225719.000,A,3748.6377,N,12218.0011,W,2.58,212.58,200711,,,A*75
$GPRMC,225720.000,A,3748.6372,N,12218.0016,W,2.06,220.31,200711,,,A*78
$GPRMC,225721.000,A,3748.6372,N,12218.0022,W,1.91,245.19,200711,,,A*7A
$GPRMC,225722.000,A,3748.6374,N,12218.0027,W,1.70,237.42,200711,,,A*7E
$GPRMC,225723.000,A,3748.6380,N,12218.0029,W,1.35,255.64,200711,,,A*7B
$GPRMC,225724.000,A,3748.6374,N,12218.0033,W,2.14,224.40,200711,,,A*7C
$GPRMC,225725.000,A,3748.6365,N,12218.0041,W,2.09,227.44,200711,,,A*73
$GPRMC,225726.000,A,3748.6357,N,12218.0052,W,2.19,225.24,200711,,,A*76
$GPRMC,225727.000,A,3748.6349,N,12218.0058,W,2.47,210.89,200711,,,A*78
$GPRMC,225728.000,A,3748.6342,N,12218.0060,W,2.68,207.40,200711,,,A*79
$GPRMC,225729.000,A,3748.6338,N,12218.0063,W,2.91,207.00,200711,,,A*74
$GPRMC,225730.000,A,3748.6332,N,12218.0067,W,2.79,212.65,200711,,,A*73
$GPRMC,225731.000,A,3748.6332,N,12218.0069,W,2.01,225.87,200711,,,A*7B
$GPRMC,225732.000,A,3748.6330,N,12218.0072,W,1.84,219.86,200711,,,A*70
$GPRMC,225733.000,A,3748.6323,N,12218.0081,W,1.68,232.90,200711,,,A*73
$GPRMC,225734.000,A,3748.6318,N,12218.0084,W,1.47,217.38,200711,,,A*71
$GPRMC,225735.000,A,3748.6311,N,12218.0083,W,1.19,189.55,200711,,,A*7A
$GPRMC,225736.000,A,3748.6301,N,12218.0078,W,2.00,156.28,200711,,,A*7F
$GPRMC,225737.000,A,3748.6290,N,12218.0069,W,2.22,134.14,200711,,,A*7C
$GPRMC,225738.000,A,3748.6281,N,12218.0058,W,2.59,131.95,200711,,,A*71
$GPRMC,225739.000,A,3748.6272,N,12218.0048,W,2.49,128.32,200711,,,A*79
$GPRMC,225740.000,A,3748.6251,N,12218.0046,W,2.62,134.52,200711,,,A*7A
$GPRMC,225741.000,A,3748.6231,N,12218.0043,W,2.86,147.71,200711,,,A*77
$GPRMC,225742.000,A,3748.6222,N,12218.0035,W,2.85,147.75,200711,,,A*70
$GPRMC,225743.000,A,3748.6214,N,12218.0027,W,2.52,129.97,200711,,,A*79
$GPRMC,225744.000,A,3748.6197,N,12218.0023,W,2.63,127.71,200711,,,A*76
$GPRMC,225745.000,A,3748.6193,N,12218.0014,W,2.43,128.24,200711,,,A*7A
$GPRMC,225746.000,A,3748.6180,N,12218.0008,W,2.55,133.51,200711,,,A*79
$GPRMC,225747.000,A,3748.6177,N,12217.9997,W,2.53,116.68,200711,,,A*72
$GPRMC,225748.000,A,3748.6173,N,12217.9987,W,2.54,116.24,200711,,,A*77
$GPRMC,225749.000,A,3748.6163,N,12217.9980,W,2.54,127.34,200711,,,A*73
$GPRMC,225750.000,A,3748.6152,N,12217.9974,W,2.60,130.92,200711,,,A*7F
$GPRMC,225751.000,A,3748.6144,N,12217.9967,W,2.44,126.47,200711,,,A*72
$GPRMC,225752.000,A,3748.6132,N,12217.9963,W,2.50,127.33,200711,,,A*73
$GPRMC,225753.000,A,3748.6117,N,12217.9960,W,2.80,142.85,200711,,,A*75
$GPRMC,225754.000,A,3748.6114,N,12217.9951,W,2.68,122.61,200711,,,A*79
$GPRMC,225755.000,A,3748.6112,N,12217.9941,W,2.61,120.60,200711,,,A*75
$GPRMC,225756.000,A,3748.6112,N,12217.9930,W,2.37,112.35,200711,,,A*72
$GPRMC,225757.000,A,3748.6112,N,12217.9919,W,2.51,117.15,200711,,,A*7F
$GPRMC,225758.000,A,3748.6112,N,12217.9909,W,2.49,119.53,200711,,,A*74
$GPRMC,225759.000,A,3748.6111,N,12217.9899,W,2.44,118.40,200711,,,A*70
$GPRMC,225800.000,A,3748.6110,N,12217.9885,W,2.67,109.98,200711,,,A*7B
$GPRMC,225801.000,A,3748.6113,N,12217.9870,W,2.62,115.28,200711,,,A*70
$GPRMC,225802.000,A,3748.6114,N,12217.9861,W,2.01,125.21,200711,,,A*7B
$GPRMC,225803.000,A,3748.6112,N,12217.9855,W,2.37,131.53,200711,,,A*7E
$GPRMC,225804.000,A,3748.6113,N,12217.9845,W,2.14,115.31,200711,,,A*7A
$GPRMC,225805.000,A,3748.6112,N,12217.9837,W,2.49,91.27,200711,,,A*4D
$GPRMC,225806.000,A,3748.6109,N,12217.9825,W,2.07,104.66,200711,,,A*75
$GPRMC,225807.000,A,3748.6105,N,12217.9813,W,2.18,108.95,200711,,,A*73
$GPRMC,225808.000,A,3748.6103,N,12217.9803,W,2.31,109.14,200711,,,A*78
$GPRMC,225809.000,A,3748.6098,N,12217.9793,W,2.31,117.48,200711,,,A*7A
$GPRMC,225810.000,A,3748.6093,N,12217.9787,W,2.15,115.16,200711,,,A*73
$GPRMC,225811.000,A,3748.6086,N,12217.9777,W,2.22,112.32,200711,,,A*7C
$GPRMC,225812.000,A,3748.6083,N,12217.9772,W,1.87,126.01,200711,,,A*74
$GPRMC,225813.000,A,3748.6081,N,12217.9765,W,2.30,113.74,200711,,,A*7A
$GPRMC,225814.000,A,3748.6076,N,12217.9757,W,2.57,110.08,200711,,,A*7D
$GPRMC,225815.000,A,3748.6071,N,12217.9750,W,2.49,118.38,200711,,,A*78
$GPRMC,225816.000,A,3748.6063,N,12217.9742,W,2.47,123.24,200711,,,A*70
$GPRMC,225817.000,A,3748.6056,N,12217.9735,W,2.39,125.29,200711,,,A*75
$GPRMC,225818.000,A,3748.6051,N,12217.9727,W,2.47,120.91,200711,,,A*71
$GPRMC,225819.000,A,3748.6045,N,12217.9720,W,2.49,124.22,200711,,,A*70
$GPRMC,225820.000,A,3748.6039,N,12217.9714,W,2.43,126.09,200711,,,A*77
$GPRMC,225821.000,A,3748.6033,N,12217.9710,W,2.41,126.07,200711,,,A*74
$GPRMC,225822.000,A,3748.6027,N,12217.9704,W,2.59,126.19,200711,,,A*71
$GPRMC,225823.000,A,3748.6021,N,12217.9698,W,2.67,127.90,200711,,,A*7F
$GPRMC,225824.000,A,3748.6015,N,12217.9691,W,2.63,125.05,200711,,,A*7C
$GPRMC,225825.000,A,3748.6010,N,12217.9683,W,2.48,122.93,200711,,,A*7A
$GPRMC,225826.000,A,3748.6005,N,12217.9676,W,2.68,125.38,200711,,,A*73
$GPRMC,225827.000,A,3748.5999,N,12217.9668,W,2.70,130.81,200711,,,A*7D
$GPRMC,225828.000,A,3748.5994,N,12217.9661,W,2.64,135.07,200711,,,A*78
$GPRMC,225829.000,A,3748.5988,N,12217.9653,W,2.64,128.77,200711,,,A*7E
$GPRMC,225830.000,A,3748.5985,N,12217.9645,W,2.64,125.71,200711,,,A*77
$GPRMC,225831.000,A,3748.5981,N,12217.9637,W,2.66,123.98,200711,,,A*74
$GPRMC,225832.000,A,3748.5978,N,12217.9630,W,2.58,127.87,200711,,,A*71
$GPRMC,225833.000,A,3748.5971,N,12217.9624,W,2.47,121.42,200711,,,A*7D
$GPRMC,225834.000,A,3748.5967,N,12217.9618,W,2.51,126.13,200711,,,A*76
$GPRMC,225835.000,A,3748.5963,N,12217.9610,W,2.61,122.80,200711,,,A*76
$GPRMC,225836.000,A,3748.5960,N,12217.9602,W,2.61,119.28,200711,,,A*7F
$GPRMC,225837.000,A,3748.5957,N,12217.9593,W,2.52,115.15,200711,,,A*73
$GPRMC,225838.000,A,3748.5956,N,12217.9583,W,2.58,109.58,200711,,,A*72
$GPRMC,225839.000,A,3748.5954,N,12217.9574,W,2.56,115.09,200711,,,A*7E
$GPRMC,225840.000,A,3748.5952,N,12217.9566,W,2.28,118.62,200711,,,A*7C
$GPRMC,225841.000,A,3748.5949,N,12217.9558,W,2.42,115.24,200711,,,A*79
$GPRMC,225842.000,A,3748.5942,N,12217.9553,W,2.48,130.77,200711,,,A*71
$GPRMC,225843.000,A,3748.5933,N,12217.9548,W,2.54,139.67,200711,,,A*79
$GPRMC,225844.000,A,3748.5930,N,12217.9542,W,2.47,123.85,200711,,,A*72
$GPRMC,225845.000,A,3748.5929,N,12217.9534,W,2.47,113.55,200711,,,A*74
$GPRMC,225846.000,A,3748.5926,N,12217.9529,W,2.36,122.98,200711,,,A*71
$GPRMC,225847.000,A,3748.5919,N,12217.9523,W,2.16,140.02,200711,,,A*73
$GPRMC,225848.000,A,3748.5913,N,12217.9515,W,2.56,135.19,200711,,,A*7F
$GPRMC,225849.000,A,3748.5907,N,12217.9509,W,2.48,125.93,200711,,,A*7A
$GPRMC,225850.000,A,3748.5903,N,12217.9500,W,2.61,116.47,200711,,,A*7D
$GPRMC,225851.000,A,3748.5898,N,12217.9493,W,2.46,121.76,200711,,,A*77
$GPRMC,225852.000,A,3748.5895,N,12217.9483,W,2.48,117.02,200711,,,A*70
$GPRMC,225853.000,A,3748.5893,N,12217.9476,W,2.22,114.24,200711,,,A*76
$GPRMC,225854.000,A,3748.5889,N,12217.9467,W,2.39,124.33,200711,,,A*75
$GPRMC,225855.000,A,3748.5885,N,12217.9459,W,2.41,126.72,200711,,,A*7D
$GPRMC,225856.000,A,3748.5882,N,12217.9450,W,2.60,131.23,200711,,,A*71
$GPRMC,225857.000,A,3748.5873,N,12217.9445,W,2.29,141.12,200711,,,D*77
$GPRMC,225858.000,A,3748.5867,N,12217.9441,W,2.15,165.55,200711,,,D*73
$GPRMC,225859.000,A,3748.5863,N,12217.9441,W,1.82,181.98,200711,,,D*70
$GPRMC,225900.000,A,3748.5857,N,12217.9440,W,1.93,175.51,200711,,,D*75
$GPRMC,225901.000,A,3748.5846,N,12217.9443,W,2.79,179.76,200711,,,D*79
$GPRMC,225902.000,A,3748.5836,N,12217.9443,W,2.53,175.12,200711,,,D*7B
$GPRMC,225903.000,A,3748.5831,N,12217.9441,W,2.41,170.72,200711,,,D*7F
$GPRMC,225904.000,A,3748.5833,N,12217.9436,W,1.59,173.28,200711,,,D*7C
$GPRMC,225905.000,A,3748.5827,N,12217.9438,W,1.07,184.50,200711,,,D*7A
$GPRMC,225906.000,A,3748.5824,N,12217.9439,W,1.23,175.46,200711,,,D*74
$GPRMC,225907.000,A,3748.5818,N,12217.9436,W,1.75,163.55,200711,,,D*73
$GPRMC,225908.000,A,3748.5808,N,12217.9436,W,2.54,171.31,200711,,,D*7C
$GPRMC,225909.000,A,3748.5803,N,12217.9434,W,1.90,170.55,200711,,,D*7C
$GPRMC,225910.000,A,3748.5794,N,12217.9438,W,2.03,194.64,200711,,,D*78
$GPRMC,225911.000,A,3748.5780,N,12217.9443,W,2.58,189.56,200711,,,D*73
$GPRMC,225912.000,A,3748.5766,N,12217.9454,W,2.79,210.79,200711,,,D*73
$GPRMC,225913.000,A,3748.5769,N,12217.9454,W,1.68,201.98,200711,,,D*71
$GPRMC,225914.000,A,3748.5764,N,12217.9466,W,2.69,216.04,200711,,,D*7B
$GPRMC,225915.000,A,3748.5763,N,12217.9468,W,1.82,210.18,200711,,,D*7E
$GPRMC,225916.000,A,3748.5754,N,12217.9469,W,1.46,178.86,200711,,,D*7A
$GPRMC,225917.000,A,3748.5746,N,12217.9474,W,1.26,188.08,200711,,,D*7B
$GPRMC,225918.000,A,3748.5743,N,12217.9483,W,1.33,225.25,200711,,,D*76
$GPRMC,225919.000,A,3748.5747,N,12217.9484,W,1.23,233.22,200711,,,D*75
$GPRMC,225920.000,A,3748.5746,N,12217.9477,W,0.89,199.18,200711,,,D*79
$GPRMC,225921.000,A,3748.5751,N,12217.9478,W,0.94,211.08,200711,,,D*7F
$GPRMC,225922.000,A,3748.5755,N,12217.9479,W,1.42,232.47,200711,,,D*79
$GPRMC,225923.000,A,3748.5757,N,12217.9478,W,1.72,219.03,200711,,,D*71
$GPRMC,225924.000,A,3748.5749,N,12217.9483,W,1.20,227.72,200711,,,D*71
$GPRMC,225925.000,A,3748.5738,N,12217.9490,W,1.33,211.79,200711,,,D*78
$GPRMC,225926.000,A,3748.5734,N,12217.9493,W,1.31,220.00,200711,,,D*7A
$GPRMC,225927.000,A,3748.5723,N,12217.9500,W,1.51,223.88,200711,,,D*73
$GPRMC,225928.000,A,3748.5720,N,12217.9504,W,1.68,220.65,200711,,,D*71
$GPRMC,225929.000,A,3748.5718,N,12217.9507,W,2.01,217.61,200711,,,D*74
$GPRMC,225930.000,A,3748.5715,N,12217.9511,W,1.46,226.94,200711,,,D*7E
$GPRMC,225931.000,A,3748.5712,N,12217.9513,W,2.01,201.76,200711,,,D*73
$GPRMC,225932.000,A,3748.5702,N,12217.9519,W,2.08,217.95,200711,,,D*78
$GPRMC,225933.000,A,3748.5692,N,12217.9527,W,2.46,213.36,200711,,,D*7B
$GPRMC,225934.000,A,3748.5686,N,12217.9532,W,1.94,215.70,200711,,,D*75
$GPRMC,225935.000,A,3748.5680,N,12217.9534,W,1.37,210.26,200711,,,D*7B
$GPRMC,225936.000,A,3748.5679,N,12217.9533,W,1.23,200.27,200711,,,D*7C
$GPRMC,225937.000,A,3748.5673,N,12217.9534,W,1.26,197.41,200711,,,D*78
$GPRMC,225938.000,A,3748.5664,N,12217.9537,W,2.08,210.07,200711,,,D*73
$GPRMC,225939.000,A,3748.5664,N,12217.9540,W,1.46,225.11,200711,,,D*7A
$GPRMC,225940.000,A,3748.5657,N,12217.9544,W,1.23,232.20,200711,,,D*77
$GPRMC,225941.000,A,3748.5657,N,12217.9543,W,1.25,197.98,200711,,,D*78
$GPRMC,225942.000,A,3748.5643,N,12217.9541,W,1.52,174.76,200711,,,D*71
$GPRMC,225943.000,A,3748.5639,N,12217.9548,W,1.96,206.00,200711,,,D*7B
$GPRMC,225944.000,A,3748.5639,N,12217.9554,W,1.92,203.00,200711,,,D*70
$GPRMC,225945.000,A,3748.5639,N,12217.9559,W,1.09,259.75,200711,,,D*73
$GPRMC,225946.000,A,3748.5634,N,12217.9566,W,1.45,254.26,200711,,,D*72
$GPRMC,225947.000,A,3748.5634,N,12217.9568,W,1.40,247.79,200711,,,D*70
$GPRMC,225948.000,A,3748.5635,N,12217.9572,W,1.02,224.83,200711,,,D*73
$GPRMC,225949.000,A,3748.5634,N,12217.9576,W,1.50,222.60,200711,,,D*7B
$GPRMC,225950.000,A,3748.5633,N,12217.9578,W,1.56,226.67,200711,,,D*7F
$GPRMC,225951.000,A,3748.5630,N,12217.9583,W,1.83,218.32,200711,,,A*79
$GPRMC,225952.000,A,3748.5622,N,12217.9587,W,1.81,216.88,200711,,,A*70
$GPRMC,225953.000,A,3748.5611,N,12217.9592,W,1.91,212.34,200711,,,A*77
$GPRMC,225954.000,A,3748.5589,N,12217.9606,W,2.26,218.13,200711,,,A*7C
$GPRMC,225955.000,A,3748.5583,N,12217.9611,W,2.09,220.41,200711,,,A*70
$GPRMC,225956.000,A,3748.5576,N,12217.9616,W,2.13,213.02,200711,,,A*72
$GPRMC,225957.000,A,3748.5575,N,12217.9620,W,1.35,236.80,200711,,,A*7F
$GPRMC,225958.000,A,3748.5572,N,12217.9625,W,1.97,227.49,200711,,,A*7F
$GPRMC,225959.000,A,3748.5566,N,12217.9630,W,2.27,219.00,200711,,,A*77
$GPRMC,230000.000,A,3748.5561,N,12217.9636,W,2.38,215.69,200711,,,A*7A
$GPRMC,230001.000,A,3748.5558,N,12217.9641,W,2.17,217.09,200711,,,A*78
$GPRMC,230002.000,A,3748.5545,N,12217.9654,W,2.22,234.56,200711,,,A*7E
$GPRMC,230003.000,A,3748.5532,N,12217.9663,W,2.59,222.65,200711,,,A*70
$GPRMC,230004.000,A,3748.5515,N,12217.9677,W,2.63,213.78,200711,,,A*70
$GPRMC,230005.000,A,3748.5507,N,12217.9684,W,3.20,209.97,200711,,,A*72
$GPRMC,230006.000,A,3748.5495,N,12217.9693,W,3.06,209.97,200711,,,A*79
$GPRMC,230007.000,A,3748.5491,N,12217.9703,W,1.93,242.27,200711,,,A*7E
$GPRMC,230008.000,A,3748.5488,N,12217.9713,W,2.02,249.33,200711,,,A*7D
$GPRMC,230009.000,A,3748.5475,N,12217.9724,W,2.06,230.45,200711,,,A*71
$GPRMC,230010.000,A,3748.5468,N,12217.9732,W,1.83,226.01,200711,,,A*7B
$GPRMC,230011.000,A,3748.5457,N,12217.9744,W,2.16,216.95,200711,,,A*76
$GPRMC,230012.000,A,3748.5449,N,12217.9753,W,1.97,227.42,200711,,,A*7E
$GPRMC,230013.000,A,3748.5439,N,12217.9757,W,1.92,224.89,200711,,,A*7D
$GPRMC,230014.000,A,3748.5425,N,12217.9763,W,3.09,216.41,200711,,,A*75
$GPRMC,230015.000,A,3748.5417,N,12217.9769,W,3.13,216.35,200711,,,A*77
$GPRMC,230016.000,A,3748.5410,N,12217.9775,W,3.16,213.43,200711,,,A*7F
$GPRMC,230017.000,A,3748.5395,N,12217.9778,W,2.95,209.40,200711,,,A*7B
$GPRMC,230018.000,A,3748.5374,N,12217.9790,W,2.98,211.18,200711,,,A*74
$GPRMC,230019.000,A,3748.5366,N,12217.9797,W,2.45,219.92,200711,,,A*7B
$GPRMC,230020.000,A,3748.5359,N,12217.9805,W,2.32,230.42,200711,,,A*7F
$GPRMC,230021.000,A,3748.5361,N,12217.9811,W,2.44,229.22,200711,,,A*7F
$GPRMC,230022.000,A,3748.5360,N,12217.9818,W,2.47,222.17,200711,,,A*7A
$GPRMC,230023.000,A,3748.5360,N,12217.9819,W,2.16,230.61,200711,,,A*7C
$GPRMC,230024.000,A,3748.5366,N,12217.9816,W,1.74,227.23,200711,,,A*75
$GPRMC,230025.000,A,3748.5365,N,12217.9821,W,1.41,223.99,200711,,,A*70
$GPRMC,230026.000,A,3748.5358,N,12217.9826,W,1.71,193.73,200711,,,A*75
$GPRMC,230027.000,A,3748.5350,N,12217.9821,W,1.47,165.44,200711,,,A*73
$GPRMC,230028.000,A,3748.5337,N,12217.9819,W,1.84,170.68,200711,,,A*73
$GPRMC,230029.000,A,3748.5323,N,12217.9819,W,2.62,191.75,200711,,,A*7F
$GPRMC,230030.000,A,3748.5311,N,12217.9829,W,2.42,218.44,200711,,,A*77
$GPRMC,230031.000,A,3748.5307,N,12217.9836,W,2.24,226.26,200711,,,A*76
$GPRMC,230032.000,A,3748.5306,N,12217.9838,W,1.49,212.15,200711,,,A*75
$GPRMC,230033.000,A,3748.5304,N,12217.9840,W,1.21,218.78,200711,,,A*76
$GPRMC,230034.000,A,3748.5297,N,12217.9843,W,1.53,221.52,200711,,,A*7E
$GPRMC,230035.000,A,3748.5290,N,12217.9851,W,1.48,215.70,200711,,,A*76
$GPRMC,230036.000,A,3748.5288,N,12217.9850,W,1.08,203.57,200711,,,A*7B
$GPRMC,230037.000,A,3748.5291,N,12217.9849,W,1.03,229.03,200711,,,A*78
$GPRMC,230038.000,A,3748.5284,N,12217.9857,W,1.60,254.22,200711,,,A*70
$GPRMC,230039.000,A,3748.5274,N,12217.9866,W,1.76,231.09,200711,,,A*71
$GPRMC,230040.000,A,3748.5268,N,12217.9869,W,1.44,231.14,200711,,,A*70
$GPRMC,230041.000,A,3748.5256,N,12217.9871,W,2.29,214.57,200711,,,A*7D
$GPRMC,230042.000,A,3748.5241,N,12217.9875,W,2.33,202.41,200711,,,A*77
$GPRMC,230043.000,A,3748.5237,N,12217.9882,W,1.91,218.03,200711,,,A*79
$GPRMC,230044.000,A,3748.5236,N,12217.9886,W,1.49,216.40,200711,,,A*77
$GPRMC,230045.000,A,3748.5229,N,12217.9888,W,2.16,203.29,200711,,,A*74
$GPRMC,230046.000,A,3748.5221,N,12217.9895,W,1.56,222.09,200711,,,A*75
$GPRMC,230047.000,A,3748.5219,N,12217.9903,W,1.33,248.22,200711,,,A*77
$GPRMC,230048.000,A,3748.5215,N,12217.9905,W,1.39,214.50,200711,,,A*74
$GPRMC,230049.000,A,3748.5209,N,12217.9909,W,1.81,200.44,200711,,,A*77
$GPRMC,230050.000,A,3748.5204,N,12217.9915,W,2.45,209.85,200711,,,A*70
$GPRMC,230051.000,A,3748.5196,N,12217.9923,W,1.98,228.23,200711,,,A*70
$GPRMC,230052.000,A,3748.5195,N,12217.9927,W,1.43,233.92,200711,,,A*72
$GPRMC,230053.000,A,3748.5196,N,12217.9930,W,1.44,224.14,200711,,,A*79
$GPRMC,230054.000,A,3748.5195,N,12217.9936,W,1.57,228.44,200711,,,A*70
$GPRMC,230055.000,A,3748.5188,N,12217.9943,W,2.25,211.18,200711,,,A*7A
$GPRMC,230056.000,A,3748.5180,N,12217.9947,W,2.58,199.20,200711,,,A*77
$GPRMC,230057.000,A,3748.5173,N,12217.9949,W,2.52,212.67,200711,,,A*7D
$GPRMC,230058.000,A,3748.5166,N,12217.9953,W,2.31,224.38,200711,,,A*77
$GPRMC,230059.000,A,3748.5160,N,12217.9958,W,1.55,216.67,200711,,,A*71
$GPRMC,230100.000,A,3748.5149,N,12217.9966,W,1.98,227.62,200711,,,A*7C
$GPRMC,230101.000,A,3748.5143,N,12217.9972,W,1.80,231.05,200711,,,A*7D
$GPRMC,230102.000,A,3748.5136,N,12217.9980,W,1.63,233.59,200711,,,A*77
$GPRMC,230103.000,A,3748.5127,N,12217.9982,W,2.40,205.49,200711,,,A*72
$GPRMC,230104.000,A,3748.5116,N,12217.9990,W,2.54,195.11,200711,,,A*76
$GPRMC,230105.000,A,3748.5114,N,12217.9995,W,2.32,210.10,200711,,,A*7F
$GPRMC,230106.000,A,3748.5113,N,12218.0007,W,2.74,215.95,200711,,,A*75
$GPRMC,230107.000,A,3748.5111,N,12218.0013,W,2.03,219.73,200711,,,A*77
$GPRMC,230108.000,A,3748.5107,N,12218.0018,W,1.38,231.49,200711,,,A*7C
$GPRMC,230109.000,A,3748.5101,N,12218.0022,W,0.94,223.52,200711,,,A*7C
$GPRMC,230110.000,A,3748.5094,N,12218.0027,W,1.09,239.09,200711,,,A*7C
$GPRMC,230111.000,A,3748.5092,N,12218.0033,W,1.18,245.22,200711,,,A*7C
$GPRMC,230112.000,A,3748.5087,N,12218.0039,W,1.15,241.91,200711,,,A*70
$GPRMC,230113.000,A,3748.5078,N,12218.0042,W,1.76,202.38,200711,,,A*7C
$GPRMC,230114.000,A,3748.5071,N,12218.0044,W,0.83,226.63,200711,,,A*77
$GPRMC,230115.000,A,3748.5068,N,12218.0036,W,1.10,188.10,200711,,,A*73
$GPRMC,230116.000,A,3748.5063,N,12218.0036,W,1.64,207.40,200711,,,A*79
$GPRMC,230117.000,A,3748.5054,N,12218.0043,W,1.81,238.87,200711,,,A*72
$GPRMC,230118.000,A,3748.5053,N,12218.0049,W,1.38,242.44,200711,,,A*70
$GPRMC,230119.000,A,3748.5044,N,12218.0054,W,1.12,202.44,200711,,,A*77
$GPRMC,230120.000,A,3748.5041,N,12218.0056,W,1.12,202.44,200711,,,E*7E
$GPRMC,230121.000,A,3748.5038,N,12218.0057,W,1.12,202.44,200711,,,E*70
$GPRMC,230122.000,A,3748.4999,N,12218.0070,W,6.62,197.08,200711,,,A*76
$GPRMC,230123.000,A,3748.4994,N,12218.0079,W,3.33,195.35,200711,,,A*7E
$GPRMC,230124.000,A,3748.4993,N,12218.0088,W,2.24,197.70,200711,,,A*74
$GPRMC,230125.000,A,3748.4996,N,12218.0092,W,1.09,214.99,200711,,,A*78
$GPRMC,230126.000,A,3748.4999,N,12218.0098,W,1.71,216.10,200711,,,A*72
$GPRMC,230127.000,A,3748.4990,N,12218.0111,W,2.74,206.60,200711,,,A*7A
$GPRMC,230128.000,A,3748.4983,N,12218.0117,W,2.04,218.88,200711,,,A*7F
$GPRMC,230129.000,A,3748.4976,N,12218.0122,W,1.80,215.08,200711,,,A*78
$GPRMC,230130.000,A,3748.4971,N,12218.0131,W,2.58,226.61,200711,,,A*7C
$GPRMC,230131.000,A,3748.4972,N,12218.0137,W,2.27,272.35,200711,,,A*70
$GPRMC,230132.000,A,3748.4971,N,12218.0142,W,2.11,255.67,200711,,,A*75
$GPRMC,230133.000,A,3748.4966,N,12218.0147,W,2.16,223.88,200711,,,A*70
$GPRMC,230134.000,A,3748.4955,N,12218.0153,W,3.28,213.42,200711,,,A*7B
$GPRMC,230135.000,A,3748.4941,N,12218.0159,W,3.21,204.39,200711,,,A*76
$GPRMC,230136.000,A,3748.4936,N,12218.0160,W,2.32,214.14,200711,,,A*72
$GPRMC,230137.000,A,3748.4924,N,12218.0160,W,3.04,204.85,200711,,,A*7D
$GPRMC,230138.000,A,3748.4918,N,12218.0159,W,3.34,198.61,200711,,,A*78
$GPRMC,230139.000,A,3748.4915,N,12218.0163,W,2.74,211.65,200711,,,A*7E
$GPRMC,230140.000,A,3748.4909,N,12218.0164,W,2.82,193.46,200711,,,A*7B
$GPRMC,230141.000,A,3748.4905,N,12218.0165,W,2.68,197.66,200711,,,A*75
$GPRMC,230142.000,A,3748.4906,N,12218.0169,W,2.11,210.73,200711,,,A*7F
$GPRMC,230143.000,A,3748.4902,N,12218.0172,W,1.75,201.78,200711,,,A*7A
$GPRMC,230144.000,A,3748.4897,N,12218.0177,W,1.48,194.15,200711,,,A*7F
$GPRMC,230145.000,A,3748.4889,N,12218.0175,W,2.34,188.51,200711,,,A*76
$GPRMC,230146.000,A,3748.4873,N,12218.0180,W,2.34,189.35,200711,,,A*79
$GPRMC,230147.000,A,3748.4867,N,12218.0180,W,1.99,204.15,200711,,,A*7D
$GPRMC,230148.000,A,3748.4870,N,12218.0186,W,1.67,230.20,200711,,,A*72
$GPRMC,230149.000,A,3748.4860,N,12218.0195,W,1.66,240.91,200711,,,A*7C
$GPRMC,230150.000,A,3748.4858,N,12218.0202,W,1.43,245.83,200711,,,A*73
$GPRMC,230151.000,A,3748.4856,N,12218.0208,W,2.15,225.86,200711,,,A*75
$GPRMC,230152.000,A,3748.4854,N,12218.0220,W,1.96,237.93,200711,,,A*71
$GPRMC,230153.000,A,3748.4855,N,12218.0225,W,1.72,229.39,200711,,,A*71
$GPRMC,230154.000,A,3748.4848,N,12218.0234,W,2.60,229.41,200711,,,A*75
$GPRMC,230155.000,A,3748.4836,N,12218.0237,W,2.52,207.19,200711,,,A*7E
$GPRMC,230156.000,A,3748.4820,N,12218.0242,W,2.89,205.72,200711,,,A*71
$GPRMC,230157.000,A,3748.4812,N,12218.0249,W,2.46,217.25,200711,,,A*78
$GPRMC,230158.000,A,3748.4807,N,12218.0254,W,2.46,217.25,200711,,,E*7B
$GPRMC,230159.000,A,3748.4811,N,12218.0252,W,1.67,204.34,200711,,,A*7D
$GPRMC,230200.000,A,3748.4807,N,12218.0255,W,1.67,204.34,200711,,,E*76
$GPRMC,230201.000,A,3748.4803,N,12218.0257,W,1.67,204.34,200711,,,E*71
$GPRMC,230202.000,A,3748.4799,N,12218.0267,W,2.35,218.36,200711,,,A*72
$GPRMC,230203.000,A,3748.4789,N,12218.0283,W,2.54,213.92,200711,,,A*7A
$GPRMC,230204.000,A,3748.4775,N,12218.0297,W,3.18,208.01,200711,,,A*72
$GPRMC,230205.000,A,3748.4767,N,12218.0303,W,3.18,208.01,200711,,,E*78
$GPRMC,230206.000,A,3748.4759,N,12218.0308,W,3.18,208.01,200711,,,E*7D
$GPRMC,230207.000,A,3748.4750,N,12218.0292,W,2.88,190.80,200711,,,A*70
$GPRMC,230208.000,A,3748.4742,N,12218.0293,W,2.88,190.80,200711,,,E*79
$GPRMC,230209.000,A,3748.4734,N,12218.0295,W,2.88,190.80,200711,,,E*7F
$GPRMC,230210.000,A,3748.4601,N,12218.0281,W,4.39,202.14,200711,,,A*78
$GPRMC,230211.000,A,3748.4627,N,12218.0311,W,2.86,215.74,200711,,,A*77
$GPRMC,230212.000,A,3748.4621,N,12218.0317,W,2.86,215.74,200711,,,E*70
$GPRMC,230213.000,A,3748.4602,N,12218.0330,W,3.86,219.55,200711,,,A*7F
$GPRMC,230214.000,A,3748.4591,N,12218.0331,W,2.79,206.53,200711,,,A*79
$GPRMC,230215.000,A,3748.4592,N,12218.0329,W,2.22,212.30,200711,,,A*7C
$GPRMC,230216.000,A,3748.4576,N,12218.0336,W,2.88,209.65,200711,,,A*71
$GPRMC,230217.000,A,3748.4567,N,12218.0342,W,2.74,210.83,200711,,,A*70
$GPRMC,230218.000,A,3748.4563,N,12218.0347,W,2.80,212.44,200711,,,A*7C
$GPRMC,230219.000,A,3748.4549,N,12218.0352,W,3.06,205.04,200711,,,A*7C
$GPRMC,230220.000,A,3748.4544,N,12218.0356,W,2.67,204.50,200711,,,A*79
$GPRMC,230221.000,A,3748.4650,N,12218.0395,W,2.49,215.76,200711,,,A*79
$GPRMC,230222.000,A,3748.4647,N,12218.0399,W,2.74,201.88,200711,,,A*7A
$GPRMC,230223.000,A,3748.4648,N,12218.0402,W,2.62,194.28,200711,,,A*73
$GPRMC,230224.000,A,3748.4640,N,12218.0399,W,2.64,195.52,200711,,,A*73
$GPRMC,230225.000,A,3748.4650,N,12218.0407,W,2.62,213.36,200711,,,A*7A
$GPRMC,230226.000,A,3748.4643,N,12218.0409,W,2.73,212.80,200711,,,A*79
$GPRMC,230227.000,A,3748.4632,N,12218.0403,W,2.59,193.91,200711,,,A*76
$GPRMC,230228.000,A,3748.4624,N,12218.0408,W,3.03,195.78,200711,,,A*7A
$GPRMC,230229.000,A,3748.4616,N,12218.0414,W,3.09,196.23,200711,,,A*70
$GPRMC,230230.000,A,3748.4608,N,12218.0421,W,2.90,193.44,200711,,,A*74
$GPRMC,230231.000,A,3748.4602,N,12218.0427,W,2.68,189.81,200711,,,A*7C
$GPRMC,230232.000,A,3748.4597,N,12218.0426,W,1.22,198.21,200711,,,A*76
$GPRMC,230233.000,A,3748.4594,N,12218.0423,W,0.69,175.25,200711,,,A*78
$GPRMC,230234.000,A,3748.4595,N,12218.0429,W,0.87,173.44,200711,,,A*75
$GPRMC,230235.000,A,3748.4592,N,12218.0433,W,1.90,176.84,200711,,,A*76
$GPRMC,230236.000,A,3748.4587,N,12218.0435,W,2.04,187.45,200711,,,A*7A
$GPRMC,230237.000,A,3748.4575,N,12218.0439,W,1.69,204.66,200711,,,A*7B
$GPRMC,230238.000,A,3748.4558,N,12218.0430,W,1.69,185.29,200711,,,A*73
$GPRMC,230239.000,A,3748.4559,N,12218.0425,W,1.44,184.64,200711,,,A*70
$GPRMC,230240.000,A,3748.4561,N,12218.0424,W,0.57,207.91,200711,,,A*75
$GPRMC,230241.000,A,3748.4566,N,12218.0418,W,0.18,357.73,200711,,,A*7F
$GPRMC,230242.000,A,3748.4557,N,12218.0410,W,1.08,169.34,200711,,,A*7A
$GPRMC,230243.000,A,3748.4550,N,12218.0413,W,2.07,194.25,200711,,,A*71
$GPRMC,230244.000,A,3748.4533,N,12218.0417,W,3.04,195.98,200711,,,A*72
$GPRMC,230245.000,A,3748.4513,N,12218.0421,W,2.98,199.86,200711,,,A*73
$GPRMC,230246.000,A,3748.4502,N,12218.0425,W,2.44,189.17,200711,,,A*7C
$GPRMC,230247.000,A,3748.4488,N,12218.0430,W,2.45,195.47,200711,,,A*73
$GPRMC,230248.000,A,3748.4482,N,12218.0434,W,3.11,194.10,200711,,,A*71
$GPRMC,230249.000,A,3748.4476,N,12218.0438,W,2.89,190.75,200711,,,A*70
$GPRMC,230250.000,A,3748.4468,N,12218.0447,W,3.03,192.77,200711,,,A*7C
$GPRMC,230251.000,A,3748.4459,N,12218.0450,W,2.71,192.53,200711,,,A*7B
$GPRMC,230252.000,A,3748.4453,N,12218.0457,W,2.57,193.40,200711,,,A*72
$GPRMC,230253.000,A,3748.4445,N,12218.0454,W,2.73,183.64,200711,,,A*76
$GPRMC,230254.000,A,3748.4438,N,12218.0459,W,2.84,181.48,200711,,,A*72
$GPRMC,230255.000,A,3748.4430,N,12218.0464,W,2.86,178.87,200711,,,A*72
$GPRMC,230256.000,A,3748.4423,N,12218.0466,W,2.76,181.47,200711,,,A*74
$GPRMC,230257.000,A,3748.4416,N,12218.0471,W,2.87,194.34,200711,,,A*7B
$GPRMC,230258.000,A,3748.4410,N,12218.0479,W,2.86,193.05,200711,,,A*7E
$GPRMC,230259.000,A,3748.4405,N,12218.0488,W,2.37,193.30,200711,,,A*79
$GPRMC,230300.000,A,3748.4394,N,12218.0488,W,2.59,185.86,200711,,,A*79
$GPRMC,230301.000,A,3748.4381,N,12218.0483,W,2.54,187.47,200711,,,A*75
$GPRMC,230302.000,A,3748.4373,N,12218.0482,W,2.47,195.21,200711,,,A*7B
$GPRMC,230303.000,A,3748.4362,N,12218.0484,W,3.46,194.34,200711,,,A*79
$GPRMC,230304.000,A,3748.4351,N,12218.0481,W,2.85,192.82,200711,,,A*7E
$GPRMC,230305.000,A,3748.4340,N,12218.0485,W,2.95,189.58,200711,,,A*77
$GPRMC,230306.000,A,3748.4333,N,12218.0487,W,2.10,187.60,200711,,,A*7A
$GPRMC,230307.000,A,3748.4333,N,12218.0486,W,1.21,208.63,200711,,,A*7C
$GPRMC,230308.000,A,3748.4338,N,12218.0490,W,1.26,262.88,200711,,,A*71
$GPRMC,230309.000,A,3748.4333,N,12218.0493,W,1.08,212.18,200711,,,A*7A
$GPRMC,230310.000,A,3748.4316,N,12218.0494,W,1.48,198.22,200711,,,A*7E
$GPRMC,230311.000,A,3748.4309,N,12218.0502,W,2.28,196.61,200711,,,A*73
$GPRMC,230312.000,A,3748.4308,N,12218.0507,W,0.89,177.68,200711,,,A*7B
$GPRMC,230313.000,A,3748.4304,N,12218.0512,W,0.92,184.02,200711,,,A*78
$GPRMC,230314.000,A,3748.4297,N,12218.0512,W,0.82,165.30,200711,,,A*7B
$GPRMC,230315.000,A,3748.4289,N,12218.0511,W,2.08,192.72,200711,,,A*78
$GPRMC,230316.000,A,3748.4284,N,12218.0508,W,2.28,186.78,200711,,,A*73
$GPRMC,230317.000,A,3748.4276,N,12218.0510,W,2.27,184.47,200711,,,A*77
$GPRMC,230318.000,A,3748.4266,N,12218.0512,W,1.65,185.94,200711,,,A*71
$GPRMC,230319.000,A,3748.4256,N,12218.0507,W,2.74,167.94,200711,,,A*78
$GPRMC,230320.000,A,3748.4238,N,12218.0510,W,2.93,176.01,200711,,,A*79
$GPRMC,230321.000,A,3748.4235,N,12218.0507,W,1.84,195.59,200711,,,A*76
$GPRMC,230322.000,A,3748.4236,N,12218.0504,W,1.55,249.65,200711,,,A*74
$GPRMC,230323.000,A,3748.4230,N,12218.0513,W,1.46,237.64,200711,,,A*7F
$GPRMC,230324.000,A,3748.4228,N,12218.0518,W,1.27,224.58,200711,,,A*70
$GPRMC,230325.000,A,3748.4220,N,12218.0525,W,1.60,226.46,200711,,,A*79
$GPRMC,230326.000,A,3748.4213,N,12218.0533,W,1.85,227.27,200711,,,A*70
$GPRMC,230327.000,A,3748.4208,N,12218.0539,W,1.77,219.26,200711,,,A*70
$GPRMC,230328.000,A,3748.4201,N,12218.0545,W,1.94,228.29,200711,,,A*7D
$GPRMC,230329.000,A,3748.4196,N,12218.0551,W,2.62,214.07,200711,,,A*7D
$GPRMC,230330.000,A,3748.4188,N,12218.0553,W,2.59,203.72,200711,,,A*74
$GPRMC,230331.000,A,3748.4179,N,12218.0553,W,2.67,197.43,200711,,,A*7A
$GPRMC,230332.000,A,3748.4173,N,12218.0554,W,2.59,197.67,200711,,,A*7F
$GPRMC,230333.000,A,3748.4165,N,12218.0554,W,2.53,193.86,200711,,,A*78
$GPRMC,230334.000,A,3748.4158,N,12218.0555,W,2.34,191.23,200711,,,A*7C
$GPRMC,230335.000,A,3748.4150,N,12218.0553,W,2.75,185.54,200711,,,A*73
$GPRMC,230336.000,A,3748.4142,N,12218.0552,W,2.40,184.70,200711,,,A*73
$GPRMC,230337.000,A,3748.4134,N,12218.0550,W,2.33,179.39,200711,,,A*7A
$GPRMC,230338.000,A,3748.4127,N,12218.0548,W,2.51,173.93,200711,,,A*70
$GPRMC,230339.000,A,3748.4119,N,12218.0545,W,2.36,179.67,200711,,,A*71
$GPRMC,230340.000,A,3748.4112,N,12218.0545,W,2.25,189.20,200711,,,A*7A
$GPRMC,230341.000,A,3748.4103,N,12218.0544,W,2.47,191.61,200711,,,A*72
$GPRMC,230342.000,A,3748.4097,N,12218.0547,W,2.38,187.33,200711,,,A*76
$GPRMC,230343.000,A,3748.4089,N,12218.0554,W,1.86,189.08,200711,,,A*7A
$GPRMC,230344.000,A,3748.4086,N,12218.0553,W,1.71,204.22,200711,,,A*73
$GPRMC,230345.000,A,3748.4081,N,12218.0559,W,1.94,217.36,200711,,,A*73
$GPRMC,230346.000,A,3748.4077,N,12218.0565,W,2.18,216.87,200711,,,A*7A
$GPRMC,230347.000,A,3748.4072,N,12218.0574,W,2.13,238.55,200711,,,A*76
$GPRMC,230348.000,A,3748.4071,N,12218.0581,W,2.05,254.78,200711,,,A*72
$GPRMC,230349.000,A,3748.4074,N,12218.0587,W,1.42,246.95,200711,,,A*70
$GPRMC,230350.000,A,3748.4075,N,12218.0585,W,0.95,269.42,200711,,,A*77
$GPRMC,230351.000,A,3748.4073,N,12218.0590,W,1.72,284.00,200711,,,A*79
$GPRMC,230352.000,A,3748.4073,N,12218.0599,W,2.28,287.20,200711,,,A*7E
$GPRMC,230353.000,A,3748.4076,N,12218.0607,W,2.07,294.60,200711,,,A*75
$GPRMC,230354.000,A,3748.4080,N,12218.0615,W,1.90,286.94,200711,,,A*7D
$GPRMC,230355.000,A,3748.4082,N,12218.0621,W,1.72,297.60,200711,,,A*7E
$GPRMC,230356.000,A,3748.4085,N,12218.0627,W,1.88,284.40,200711,,,A*79
$GPRMC,230357.000,A,3748.4085,N,12218.0635,W,1.90,272.78,200711,,,A*70
$GPRMC,230358.000,A,3748.4087,N,12218.0641,W,1.80,274.51,200711,,,A*72
$GPRMC,230359.000,A,3748.4090,N,12218.0649,W,2.09,286.46,200711,,,A*74
$GPRMC,230400.000,A,3748.4092,N,12218.0657,W,2.19,276.14,200711,,,A*7B
$GPRMC,230401.000,A,3748.4095,N,12218.0665,W,2.13,285.42,200711,,,A*79
$GPRMC,230402.000,A,3748.4100,N,12218.0671,W,1.91,301.93,200711,,,A*7A
$GPRMC,230403.000,A,3748.4104,N,12218.0679,W,2.19,293.66,200711,,,A*74
$GPRMC,230404.000,A,3748.4106,N,12218.0688,W,1.96,281.84,200711,,,A*74
$GPRMC,230405.000,A,3748.4109,N,12218.0697,W,2.10,280.31,200711,,,A*76
$GPRMC,230406.000,A,3748.4111,N,12218.0704,W,1.91,296.50,200711,,,A*7D
$GPRMC,230407.000,A,3748.4112,N,12218.0713,W,2.44,286.21,200711,,,A*75
$GPRMC,230408.000,A,3748.4113,N,12218.0722,W,2.05,276.82,200711,,,A*7A
$GPRMC,230409.000,A,3748.4112,N,12218.0726,W,1.82,289.43,200711,,,A*7F
$GPRMC,230410.000,A,3748.4110,N,12218.0734,W,1.66,267.86,200711,,,A*75
$GPRMC,230411.000,A,3748.4106,N,12218.0744,W,1.78,250.28,200711,,,A*7B
$GPRMC,230412.000,A,3748.4104,N,12218.0754,W,1.87,282.68,200711,,,A*70
$GPRMC,230413.000,A,3748.4103,N,12218.0757,W,0.90,298.29,200711,,,A*7C
$GPRMC,230414.000,A,3748.4105,N,12218.0755,W,1.22,311.34,200711,,,A*7B
$GPRMC,230415.000,A,3748.4105,N,12218.0759,W,1.29,259.32,200711,,,A*76
$GPRMC,230416.000,A,3748.4109,N,12218.0771,W,1.96,288.41,200711,,,A*7F
$GPRMC,230417.000,A,3748.4112,N,12218.0782,W,2.02,284.86,200711,,,A*71
$GPRMC,230418.000,A,3748.4118,N,12218.0794,W,2.26,299.51,200711,,,A*73
$GPRMC,230419.000,A,3748.4117,N,12218.0803,W,1.42,301.90,200711,,,A*70
$GPRMC,230420.000,A,3748.4116,N,12218.0808,W,1.93,265.67,200711,,,A*77
$GPRMC,230421.000,A,3748.4110,N,12218.0827,W,2.89,261.43,200711,,,A*77
$GPRMC,230422.000,A,3748.4105,N,12218.0844,W,2.51,266.67,200711,,,A*71
$GPRMC,230423.000,A,3748.4099,N,12218.0862,W,2.65,268.45,200711,,,A*79
$GPRMC,230424.000,A,3748.4095,N,12218.0877,W,2.74,276.88,200711,,,A*78
$GPRMC,230425.000,A,3748.4088,N,12218.0893,W,2.31,272.68,200711,,,A*74
$GPRMC,230426.000,A,3748.4085,N,12218.0905,W,1.68,278.38,200711,,,A*74
$GPRMC,230427.000,A,3748.4075,N,12218.0913,W,2.06,246.72,200711,,,A*75
$GPRMC,230428.000,A,3748.4066,N,12218.0925,W,2.60,252.24,200711,,,A*7B
$GPRMC,230429.000,A,3748.4056,N,12218.0932,W,1.35,253.52,200711,,,A*7C
$GPRMC,230430.000,A,3748.4049,N,12218.0946,W,2.38,264.71,200711,,,A*72
$GPRMC,230431.000,A,3748.4061,N,12218.0945,W,1.48,310.22,200711,,,A*7A
$GPRMC,230432.000,A,3748.4071,N,12218.0948,W,1.12,307.71,200711,,,A*7A
$GPRMC,230433.000,A,3748.4082,N,12218.0953,W,1.36,304.33,200711,,,A*7E
$GPRMC,230434.000,A,3748.4091,N,12218.0958,W,1.58,329.45,200711,,,A*76
$GPRMC,230435.000,A,3748.4095,N,12218.0963,W,0.97,307.52,200711,,,A*73
$GPRMC,230436.000,A,3748.4094,N,12218.0969,W,0.99,243.50,200711,,,A*76
$GPRMC,230437.000,A,3748.4092,N,12218.0976,W,1.44,261.58,200711,,,A*76
$GPRMC,230438.000,A,3748.4088,N,12218.0980,W,1.43,276.35,200711,,,A*71
$GPRMC,230439.000,A,3748.4093,N,12218.0986,W,1.56,264.36,200711,,,A*78
$GPRMC,230440.000,A,3748.4101,N,12218.0991,W,1.38,290.85,200711,,,A*71
$GPRMC,230441.000,A,3748.4101,N,12218.1000,W,2.19,286.69,200711,,,A*75
$GPRMC,230442.000,A,3748.4111,N,12218.1008,W,2.31,283.97,200711,,,A*71
$GPRMC,230443.000,A,3748.4118,N,12218.1013,W,2.21,301.87,200711,,,A*78
$GPRMC,230444.000,A,3748.4129,N,12218.1021,W,2.57,295.45,200711,,,A*7F
$GPRMC,230445.000,A,3748.4138,N,12218.1026,W,1.94,304.43,200711,,,A*7A
$GPRMC,230446.000,A,3748.4144,N,12218.1036,W,2.00,287.80,200711,,,A*78
$GPRMC,230447.000,A,3748.4145,N,12218.1050,W,2.02,294.49,200711,,,A*7D
$GPRMC,230448.000,A,3748.4147,N,12218.1061,W,2.07,286.44,200711,,,A*79
$GPRMC,230449.000,A,3748.4150,N,12218.1070,W,2.48,287.57,200711,,,A*76
$GPRMC,230450.000,A,3748.4154,N,12218.1078,W,2.33,286.93,200711,,,A*77
$GPRMC,230451.000,A,3748.4156,N,12218.1089,W,2.27,291.42,200711,,,A*75
$GPRMC,230452.000,A,3748.4158,N,12218.1099,W,2.25,281.56,200711,,,A*7F
$GPRMC,230453.000,A,3748.4163,N,12218.1105,W,2.14,282.71,200711,,,A*76
$GPRMC,230454.000,A,3748.4164,N,12218.1115,W,2.29,271.61,200711,,,A*74
$GPRMC,230455.000,A,3748.4167,N,12218.1123,W,2.22,270.91,200711,,,A*76
$GPRMC,230456.000,A,3748.4170,N,12218.1132,W,2.20,283.02,200711,,,A*77
$GPRMC,230457.000,A,3748.4172,N,12218.1141,W,2.26,279.00,200711,,,A*71
$GPRMC,230458.000,A,3748.4174,N,12218.1150,W,2.22,278.89,200711,,,A*7C
$GPRMC,230459.000,A,3748.4178,N,12218.1157,W,2.13,284.81,200711,,,A*7F
$GPRMC,230500.000,A,3748.4186,N,12218.1163,W,2.57,309.98,200711,,,A*78
$GPRMC,230501.000,A,3748.4194,N,12218.1169,W,2.54,305.05,200711,,,A*7B
$GPRMC,230502.000,A,3748.4202,N,12218.1177,W,2.45,293.75,200711,,,A*72
$GPRMC,230503.000,A,3748.4205,N,12218.1185,W,2.03,276.15,200711,,,A*76
$GPRMC,230504.000,A,3748.4209,N,12218.1191,W,2.04,272.72,200711,,,A*7A
$GPRMC,230505.000,A,3748.4212,N,12218.1198,W,2.18,292.90,200711,,,A*77
$GPRMC,230506.000,A,3748.4215,N,12218.1204,W,1.85,280.97,200711,,,A*76
$GPRMC,230507.000,A,3748.4218,N,12218.1211,W,2.03,280.90,200711,,,A*74
$GPRMC,230508.000,A,3748.4221,N,12218.1219,W,2.10,281.21,200711,,,A*70
$GPRMC,230509.000,A,3748.4225,N,12218.1226,W,2.03,289.05,200711,,,A*75
$GPRMC,230510.000,A,3748.4229,N,12218.1235,W,2.38,297.15,200711,,,A*75
$GPRMC,230511.000,A,3748.4234,N,12218.1244,W,2.32,298.92,200711,,,A*74
$GPRMC,230512.000,A,3748.4238,N,12218.1253,W,2.11,280.72,200711,,,A*7B
$GPRMC,230513.000,A,3748.4241,N,12218.1262,W,2.36,293.81,200711,,,A*7D
$GPRMC,230514.000,A,3748.4246,N,12218.1271,W,2.44,293.29,200711,,,A*78
$GPRMC,230515.000,A,3748.4248,N,12218.1282,W,2.52,286.83,200711,,,A*78
$GPRMC,230516.000,A,3748.4253,N,12218.1290,W,2.21,301.94,200711,,,A*7E
$GPRMC,230517.000,A,3748.4259,N,12218.1296,W,2.39,314.94,200711,,,A*7E
$GPRMC,230518.000,A,3748.4267,N,12218.1303,W,2.93,327.95,200711,,,A*70
$GPRMC,230519.000,A,3748.4274,N,12218.1310,W,2.49,320.79,200711,,,A*73
$GPRMC,230520.000,A,3748.4280,N,12218.1315,W,1.64,315.95,200711,,,A*7F
$GPRMC,230521.000,A,3748.4288,N,12218.1318,W,1.74,337.73,200711,,,A*72
$GPRMC,230522.000,A,3748.4299,N,12218.1320,W,2.06,348.43,200711,,,A*77
$GPRMC,230523.000,A,3748.4308,N,12218.1322,W,2.34,347.61,200711,,,A*73
$GPRMC,230524.000,A,3748.4320,N,12218.1325,W,2.70,356.89,200711,,,A*7F
$GPRMC,230525.000,A,3748.4328,N,12218.1322,W,2.42,4.53,200711,,,A*73
$GPRMC,230526.000,A,3748.4339,N,12218.1323,W,2.41,6.01,200711,,,A*77
