$ADVER,3080,2.3
$GPRMC,202504.196,A,3748.8002,N,12217.8619,W,0.26,67.67,200711,,,A*41
$GPGGA,202505.196,3748.8001,N,12217.8616,W,1,04,3.1,5.9,M,-25.1,M,,0000*6E
$GPGSA,A,3,26,17,28,13,,,,,,,,,4.3,3.1,2.9*36
$GPRMC,202505.196,A,3748.8001,N,12217.8616,W,0.36,61.08,200711,,,A*42
$GPVTG,61.08,T,,M,0.36,N,0.7,K,A*30
$GPGGA,202506.000,3748.8001,N,12217.8615,W,1,04,3.1,6.0,M,-25.1,M,,0000*6A
$GPGSA,A,3,26,17,28,13,,,,,,,,,4.3,3.1,2.9*36
$GPGSV,3,1,12,28,69,278,36,26,38,311,36,17,21,187,40,13,11,154,34*76
$GPGSV,3,2,12,15,04,322,38,08,67,035,37,07,49,086,34,01,31,250,*7F
$GPGSV,3,3,12,19,18,042,22,11,17,094,26,05,14,259,28,10,05,212,*73
$GPRMC,202506.000,A,3748.8001,N,12217.8615,W,0.30,73.59,200711,,,A*4D
$GPVTG,73.59,T,,M,0.30,N,0.6,K,A*30
$GPGGA,202507.000,3748.8001,N,12217.8613,W,1,04,3.1,6.1,M,-25.1,M,,0000*6C
$GPGSA,A,3,26,17,28,13,,,,,,,,,4.3,3.1,2.9*36
$GPRMC,202507.000,A,3748.8001,N,12217.8613,W,0.32,64.76,200711,,,A*43
$GPVTG,64.76,T,,M,0.32,N,0.6,K,A*39
$GPGGA,202508.000,3748.8001,N,12217.8612,W,1,04,3.1,6.2,M,-25.1,M,,0000*61
$GPGSA,A,3,26,17,28,13,,,,,,,,,4.3,3.1,2.9*36
$GPRMC,202508.000,A,3748.8001,N,12217.8612,W,0.32,61.30,200711,,,A*4A
$GPVTG,61.30,T,,M,0.32,N,0.6,K,A*3E
$GPGGA,202509.000,3748.8002,N,12217.8611,W,1,04,3.1,6.2,M,-25.1,M,,0000*60
$GPGSA,A,3,26,17,28,13,,,,,,,,,4.3,3.1,2.9*36
$GPRMC,202509.000,A,3748.8002,N,12217.8611,W,0.32,60.24,200711,,,A*4F
$GPVTG,60.24,T,,M,0.32,N,0.6,K,A*3A
$GPGGA,202510.000,3748.8002,N,12217.8610,W,1,04,3.1,6.2,M,-25.1,M,,0000*69
$GPGSA,A,3,26,17,28,13,,,,,,,,,4.3,3.1,2.9*36
$GPRMC,202510.000,A,3748.8002,N,12217.8610,W,0.35,59.63,200711,,,A*48
$GPVTG,59.63,T,,M,0.35,N,0.7,K,A*35
$GPGGA,202511.000,3748.8003,N,12217.8609,W,1,04,3.1,6.2,M,-25.1,M,,0000*61
$GPGSA,A,3,26,17,28,13,,,,,,,,,4.3,3.1,2.9*36
$GPGSV,3,1,12,28,69,278,35,26,38,311,36,17,21,187,35,13,11,154,34*77
$GPGSV,3,2,12,15,04,322,32,08,67,035,36,07,49,086,32,01,31,250,*72
$GPGSV,3,3,12,19,18,042,28,11,17,094,29,05,14,259,28,10,05,212,*76
$GPRMC,202511.000,A,3748.8003,N,12217.8609,W,0.33,69.81,200711,,,A*49
$GPVTG,69.81,T,,M,0.33,N,0.6,K,A*3D
$GPGGA,202512.000,3748.8003,N,12217.8607,W,1,04,3.1,6.3,M,-25.1,M,,0000*6D
$GPGSA,A,3,26,17,28,13,,,,,,,,,4.3,3.1,2.9*36
$GPRMC,202512.000,A,3748.8003,N,12217.8607,W,0.32,59.89,200711,,,A*4E
$GPVTG,59.89,T,,M,0.32,N,0.6,K,A*37
$GPGGA,202513.000,3748.8004,N,12217.8606,W,1,04,3.1,6.3,M,-25.1,M,,0000*6A
$GPGSA,A,3,26,17,28,13,,,,,,,,,4.3,3.1,2.9*36
$GPRMC,202513.000,A,3748.8004,N,12217.8606,W,0.33,52.99,200711,,,A*42
$GPVTG,52.99,T,,M,0.33,N,0.6,K,A*3C
$GPGGA,202514.000,3748.8008,N,12217.8592,W,1,04,3.1,5.9,M,-25.1,M,,0000*66
$GPGSA,A,3,26,17,28,13,,,,,,,,,4.3,3.1,2.9*36
$GPRMC,202514.000,A,3748.8008,N,12217.8592,W,0.45,65.16,200711,,,A*45
$GPVTG,65.16,T,,M,0.45,N,0.8,K,A*30
$GPGGA,202515.000,3748.8012,N,12217.8599,W,1,04,3.1,2.9,M,-25.1,M,,0000*60
$GPGSA,A,3,26,17,28,13,,,,,,,,,4.3,3.1,2.9*36
$GPRMC,202515.000,A,3748.8012,N,12217.8599,W,0.15,354.15,200711,,,A*73
$GPVTG,354.15,T,,M,0.15,N,0.3,K,A*0C
$GPGGA,202516.000,3748.8016,N,12217.8607,W,1,04,3.1,0.7,M,-25.1,M,,0000*6F
$GPGSA,A,3,26,17,28,13,,,,,,,,,4.3,3.1,2.9*36
$GPGSV,3,1,12,28,69,278,26,26,38,311,27,17,21,187,29,13,11,154,28*75
$GPGSV,3,2,12,15,04,322,32,08,67,035,23,07,49,086,24,01,31,250,*71
$GPGSV,3,3,12,19,18,042,22,11,17,094,19,05,14,259,23,10,05,212,*74
$GPVTG,355.21,T,,M,0.58,N,1.1,K,A*00
$GPGGA,202517.000,3748.8011,N,12217.8630,W,1,04,3.1,-0.8,M,-25.1,M,,0000*4F
$GPGSA,A,3,26,17,28,13,,,,,,,,,4.3,3.1,2.9*36
$GPRMC,202517.000,A,3748.8011,N,12217.8630,W,0.28,324.94,200711,,,A*72
$GPVTG,324.94,T,,M,0.28,N,0.5,K,A*0A
$GPGGA,202518.000,3748.8014,N,12217.8635,W,1,04,3.1,-0.7,M,-25.1,M,,0000*4F
$GPGSA,A,3,26,17,28,13,,,,,,,,,4.3,3.1,2.9*36
$GPRMC,202518.000,A,3748.8014,N,12217.8635,W,0.27,339.67,200711,,,A*72
$GPVTG,339.67,T,,M,0.27,N,0.5,K,A*05
$GPGGA,202519.000,3748.8016,N,12217.8630,W,1,04,3.1,1.3,M,-25.1,M,,0000*61
$GPGSA,A,3,26,17,28,13,,,,,,,,,4.3,3.1,2.9*36
$GPRMC,202519.000,A,3748.8016,N,12217.8630,W,0.22,45.52,200711,,,A*4F
$GPVTG,45.52,T,,M,0.22,N,0.4,K,A*3F
$GPGGA,202520.000,3748.8017,N,12217.8630,W,1,04,3.1,1.7,M,-25.1,M,,0000*6E
$GPGSA,A,3,26,17,28,13,,,,,,,,,4.3,3.1,2.9*36
$GPRMC,202520.000,A,3748.8017,N,12217.8630,W,0.27,52.52,200711,,,A*47
$GPVTG,52.52,T,,M,0.27,N,0.5,K,A*3D
$GPGGA,202521.000,3748.8012,N,12217.8627,W,1,04,3.1,3.8,M,-25.1,M,,0000*61
$GPGSA,A,3,26,17,28,13,,,,,,,,,4.3,3.1,2.9*36
$GPGSV,3,1,12,28,69,278,28,26,38,311,24,17,21,187,36,13,11,154,28*76
$GPGSV,3,2,12,15,04,322,27,08,67,035,17,07,49,086,19,01,31,250,*7C
$GPGSV,3,3,12,19,18,042,21,11,17,094,19,05,14,259,28,10,05,212,*7C
$GPRMC,202521.000,A,3748.8012,N,12217.8627,W,0.42,86.62,200711,,,A*4C
$GPVTG,86.62,T,,M,0.42,N,0.8,K,A*39
$GPGGA,202522.000,3748.8010,N,12217.8628,W,1,04,3.1,4.7,M,-25.1,M,,0000*67
$GPGSA,A,3,26,17,28,13,,,,,,,,,4.3,3.1,2.9*36
$GPRMC,202522.000,A,3748.8010,N,12217.8628,W,0.27,47.56,200711,,,A*4B
$GPVTG,47.56,T,,M,0.27,N,0.5,K,A*3D
$GPGGA,202523.000,3748.8007,N,12217.8629,W,1,04,3.1,6.0,M,-25.1,M,,0000*64
$GPGSA,A,3,26,17,28,13,,,,,,,,,4.3,3.1,2.9*36
$GPRMC,202523.000,A,3748.8007,N,12217.8629,W,0.30,34.97,200711,,,A*42
$GPVTG,34.97,T,,M,0.30,N,0.6,K,A*31
$GPGGA,202524.000,3748.8004,N,12217.8640,W,1,04,3.1,4.7,M,-25.1,M,,0000*6A
$GPGSA,A,3,26,17,28,13,,,,,,,,,4.3,3.1,2.9*36
$GPRMC,202524.000,A,3748.8004,N,12217.8640,W,0.56,38.79,200711,,,A*45
$GPVTG,38.79,T,,M,0.56,N,1.0,K,A*3A
$GPGGA,202525.000,3748.8011,N,12217.8624,W,1,04,3.1,5.4,M,-25.1,M,,0000*6F
$GPGSA,A,3,26,17,28,13,,,,,,,,,4.3,3.1,2.9*36
$GPRMC,202525.000,A,3748.8011,N,12217.8624,W,1.39,85.71,200711,,,A*44
$GPVTG,85.71,T,,M,1.39,N,2.6,K,A*39
$GPGGA,202526.000,3748.8019,N,12217.8604,W,1,04,3.1,6.9,M,-25.1,M,,0000*68
$GPGSA,A,3,26,17,28,13,,,,,,,,,4.3,3.1,2.9*36
$GPGSV,3,1,12,28,69,278,26,26,38,311,31,17,21,187,25,13,11,154,30*77
$GPGSV,3,2,12,15,04,322,26,08,67,035,26,07,49,086,23,01,31,250,*76
$GPGSV,3,3,12,19,18,042,29,11,17,094,18,05,14,259,23,10,05,212,*7E
$GPRMC,202526.000,A,3748.8019,N,12217.8604,W,2.13,60.18,200711,,,A*42
$GPVTG,60.18,T,,M,2.13,N,3.9,K,A*38
$GPGGA,202527.000,3748.8021,N,12217.8601,W,1,04,3.1,7.0,M,-25.1,M,,0000*6F
$GPGSA,A,3,26,17,28,13,,,,,,,,,4.3,3.1,2.9*36
$GPRMC,202527.000,A,3748.8021,N,12217.8601,W,1.05,60.46,200711,,,A*42
$GPVTG,60.46,T,,M,1.05,N,1.9,K,A*35
$GPGGA,202528.000,3748.8023,N,12217.8600,W,1,04,3.1,7.0,M,-25.1,M,,0000*63
$GPGSA,A,3,26,17,28,13,,,,,,,,,4.3,3.1,2.9*36
$GPRMC,202528.000,A,3748.8023,N,12217.8600,W,0.80,70.43,200711,,,A*46
$GPVTG,70.43,T,,M,0.80,N,1.5,K,A*31
$GPGGA,202529.000,3748.8025,N,12217.8595,W,1,04,3.1,7.0,M,-25.1,M,,0000*6B
$GPGSA,A,3,26,17,28,13,,,,,,,,,4.3,3.1,2.9*36
$GPRMC,202529.000,A,3748.8025,N,12217.8595,W,0.46,58.87,200711,,,A*46
$GPVTG,58.87,T,,M,0.46,N,0.9,K,A*34
$GPGGA,202530.000,3748.8025,N,12217.8597,W,1,04,3.1,7.3,M,-25.1,M,,0000*62
$GPGSA,A,3,26,17,28,13,,,,,,,,,4.3,3.1,2.9*36
$GPRMC,202530.000,A,3748.8025,N,12217.8597,W,0.29,73.28,200711,,,A*49
$GPVTG,73.28,T,,M,0.29,N,0.5,K,A*3D
$GPGGA,202531.000,3748.8026,N,12217.8595,W,1,04,3.1,7.3,M,-25.1,M,,0000*62
$GPGSA,A,3,26,17,28,13,,,,,,,,,4.3,3.1,2.9*36
$GPGSV,3,1,12,28,69,278,34,26,38,311,41,17,21,187,27,13,11,154,29*79
$GPGSV,3,2,12,15,04,322,35,08,67,035,32,07,49,086,21,01,31,250,*73
$GPGSV,3,3,12,19,18,042,31,11,17,094,16,05,14,259,30,10,05,212,*7B
$GPRMC,202531.000,A,3748.8026,N,12217.8595,W,0.28,64.16,200711,,,A*43
$GPGGA,202532.000,3748.8026,N,12217.8599,W,1,04,3.1,6.5,M,-25.1,M,,0000*6A
$GPGSA,A,3,26,17,28,13,,,,,,,,,4.3,3.1,2.9*36
$GPRMC,202532.000,A,3748.8026,N,12217.8599,W,0.43,66.44,200711,,,A*44
$GPVTG,66.44,T,,M,0.43,N,0.8,K,A*32
$GPGGA,202533.000,3748.8026,N,12217.8602,W,1,04,3.1,5.9,M,-25.1,M,,0000*65
$GPGSA,A,3,26,17,28,13,,,,,,,,,4.3,3.1,2.9*36
$GPRMC,202533.000,A,3748.8026,N,12217.8602,W,0.39,220.50,200711,,,A*7C
$GPVTG,220.50,T,,M,0.39,N,0.7,K,A*05
$GPGGA,202534.000,3748.8022,N,12217.8613,W,1,04,3.1,5.1,M,-25.1,M,,0000*6E
$GPGSA,A,3,26,17,28,13,,,,,,,,,4.3,3.1,2.9*36
$GPRMC,202534.000,A,3748.8022,N,12217.8613,W,0.56,234.94,200711,,,A*7B
$GPVTG,234.94,T,,M,0.56,N,1.0,K,A*07
$GPGGA,202535.000,3748.8019,N,12217.8622,W,1,04,3.1,4.4,M,-25.1,M,,0000*61
$GPGSA,A,3,26,17,28,13,,,,,,,,,4.3,3.1,2.9*36
$GPRMC,202535.000,A,3748.8019,N,12217.8622,W,0.45,242.03,200711,,,A*7D
$GPVTG,242.03,T,,M,0.45,N,0.8,K,A*03
$GPGGA,202536.000,3748.8016,N,12217.8631,W,1,04,3.1,3.7,M,-25.1,M,,0000*6B
$GPGSA,A,3,26,17,28,13,,,,,,,,,4.3,3.1,2.9*36
$GPGSV,3,1,12,28,69,278,35,26,38,311,41,17,21,187,27,13,11,154,30*70
$GPGSV,3,2,12,15,04,322,35,08,67,035,32,07,49,086,19,01,31,250,*78
$GPGSV,3,3,12,19,18,042,32,11,17,094,15,05,14,259,30,10,05,212,*7B
$GPRMC,202536.000,A,3748.8016,N,12217.8631,W,0.29,251.57,200711,,,A*7A
$GPVTG,251.57,T,,M,0.29,N,0.5,K,A*07
$GPGGA,202537.000,3748.8015,N,12217.8634,W,1,04,3.1,3.2,M,-25.1,M,,0000*69
$GPGSA,A,3,26,17,28,13,,,,,,,,,4.3,3.1,2.9*36
$GPRMC,202537.000,A,3748.8015,N,12217.8634,W,0.06,342.57,200711,,,A*73
$GPVTG,342.57,T,,M,0.06,N,0.1,K,A*0D
$GPGGA,202538.000,3748.8011,N,12217.8650,W,1,04,3.1,2.9,M,-25.1,M,,0000*6A
$GPGSA,A,3,26,17,28,13,,,,,,,,,4.3,3.1,2.9*36
$GPRMC,202538.000,A,3748.8011,N,12217.8650,W,0.26,54.66,200711,,,A*4E
$GPVTG,54.66,T,,M,0.26,N,0.5,K,A*3D
$GPGGA,202539.000,3748.8009,N,12217.8655,W,1,03,17.0,2.3,M,-25.1,M,,0000*5E
$GPGSA,A,2,26,17,28,,,,,,,,,,17.0,17.0,1.0*3A
$GPRMC,202539.000,A,3748.8009,N,12217.8655,W,0.14,35.74,200711,,,A*46
$GPVTG,35.74,T,,M,0.14,N,0.3,K,N*31
$GPGGA,202540.000,3748.8008,N,12217.8660,W,1,03,16.9,1.7,M,-25.1,M,,0000*58
$GPGSA,A,2,26,17,28,,,,,,,,,,17.0,16.9,1.0*32
$GPRMC,202540.000,A,3748.8008,N,12217.8660,W,0.07,354.66,200711,,,A*7A
$GPVTG,354.66,T,,M,0.07,N,0.1,K,N*06
$GPGGA,202541.000,3748.8006,N,12217.8664,W,1,03,16.9,1.2,M,-25.1,M,,0000*56
$GPGSA,A,2,26,17,28,,,,,,,,,,16.9,16.9,1.0*3A
$GPGSV,3,1,12,28,69,278,35,26,38,311,40,17,21,187,27,13,11,154,*72
$GPGSV,3,2,12,15,04,322,36,08,67,035,33,07,49,086,19,01,31,250,*7A
$GPGSV,3,3,12,19,18,042,32,11,17,094,13,05,14,259,30,10,05,212,*7D
$GPRMC,202541.000,A,3748.8006,N,12217.8664,W,0.09,278.34,200711,,,A*77
$GPVTG,278.34,T,,M,0.09,N,0.2,K,N*03
$GPGGA,202542.000,3748.8005,N,12217.8669,W,1,03,16.9,0.7,M,-25.1,M,,0000*5F
$GPGSA,A,2,26,17,28,,,,,,,,,,16.9,16.9,1.0*3A
$GPRMC,202542.000,A,3748.8005,N,12217.8669,W,0.14,277.09,200711,,,A*77
$GPVTG,277.09,T,,M,0.14,N,0.3,K,N*0F
$GPGGA,202543.000,3748.8003,N,12217.8674,W,1,03,16.9,0.2,M,-25.1,M,,0000*51
$GPGSA,A,2,26,17,28,,,,,,,,,,16.9,16.9,1.0*3A
$GPRMC,202543.000,A,3748.8003,N,12217.8674,W,0.28,260.31,200711,,,A*7E
$GPVTG,260.31,T,,M,0.28,N,0.5,K,N*0B
$GPGGA,202544.000,3748.8006,N,12217.8663,W,1,04,3.1,-0.6,M,-25.1,M,,0000*47
$GPGSA,A,3,26,17,28,13,,,,,,,,,4.3,3.1,2.9*36
$GPRMC,202544.000,A,3748.8006,N,12217.8663,W,1.14,68.01,200711,,,A*4D
$GPVTG,68.01,T,,M,1.14,N,2.1,K,A*35
$GPGGA,202545.000,3748.8009,N,12217.8655,W,1,04,3.1,-1.3,M,-25.1,M,,0000*48
$GPGSA,A,3,26,17,28,13,,,,,,,,,4.3,3.1,2.9*36
$GPRMC,202545.000,A,3748.8009,N,12217.8655,W,0.85,61.41,200711,,,A*42
$GPVTG,61.41,T,,M,0.85,N,1.6,K,A*35
$GPGGA,202546.000,3748.8008,N,12217.8659,W,1,04,3.1,-1.7,M,-25.1,M,,0000*42
$GPGSA,A,3,26,17,28,13,,,,,,,,,4.3,3.1,2.9*36
$GPGSV,3,1,12,28,69,278,36,26,38,311,35,17,21,187,27,13,11,154,25*74
$GPGSV,3,2,12,15,04,322,36,08,67,035,33,07,49,086,17,01,31,250,*74
$GPGSV,3,3,12,19,18,042,25,11,17,094,13,05,14,259,24,10,05,212,*7E
$GPRMC,202546.000,A,3748.8008,N,12217.8659,W,0.40,40.63,200711,,,A*46
$GPGGA,202547.000,3748.8013,N,12217.8642,W,1,04,3.1,-2.2,M,-25.1,M,,0000*45
$GPGSA,A,3,26,17,28,13,,,,,,,,,4.3,3.1,2.9*36
$GPRMC,202547.000,A,3748.8013,N,12217.8642,W,0.51,50.87,200711,,,A*4C
$GPVTG,50.87,T,,M,0.51,N,0.9,K,A*3A
$GPGGA,202548.000,3748.8014,N,12217.8637,W,1,04,3.1,-2.6,M,-25.1,M,,0000*4B
$GPGSA,A,3,26,17,28,13,,,,,,,,,4.3,3.1,2.9*36
$GPRMC,202548.000,A,3748.8014,N,12217.8637,W,0.20,351.44,200711,,,A*7D
$GPVTG,351.44,T,,M,0.20,N,0.4,K,A*0C
$GPGGA,202549.000,3748.8015,N,12217.8629,W,1,04,3.1,-2.9,M,-25.1,M,,0000*4B
$GPGSA,A,3,26,17,28,13,,,,,,,,,4.3,3.1,2.9*36
$GPRMC,202549.000,A,3748.8015,N,12217.8629,W,0.17,76.08,200711,,,A*48
$GPVTG,76.08,T,,M,0.17,N,0.3,K,A*31
$GPGGA,202550.000,3748.8018,N,12217.8621,W,1,04,3.1,-3.5,M,-25.1,M,,0000*4B
$GPGSA,A,3,26,17,28,13,,,,,,,,,4.3,3.1,2.9*36
$GPRMC,202550.000,A,3748.8018,N,12217.8621,W,0.24,303.34,200711,,,A*7B
$GPVTG,303.34,T,,M,0.24,N,0.5,K,A*09
$GPGGA,202551.000,3748.8021,N,12217.8610,W,1,04,3.1,-4.0,M,-25.1,M,,0000*40
$GPGSA,A,3,26,17,28,13,,,,,,,,,4.3,3.1,2.9*36
$GPGSV,3,1,12,28,69,279,35,08,66,036,33,07,49,086,,26,39,311,37*77
$GPGSV,3,2,12,01,31,251,,17,22,187,27,19,17,042,27,11,17,093,14*77
$GPGSV,3,3,12,05,14,259,23,13,11,154,19,10,05,212,,15,05,322,*78
$GPRMC,202551.000,A,3748.8021,N,12217.8610,W,0.68,74.03,200711,,,A*4D
$GPVTG,74.03,T,,M,0.68,N,1.3,K,A*31
$GPGGA,202552.000,3748.8020,N,12217.8615,W,1,05,2.0,-4.1,M,-25.1,M,,0000*47
$GPGSA,A,3,08,26,17,28,13,,,,,,,,3.2,2.0,2.5*34
$GPRMC,202552.000,A,3748.8020,N,12217.8615,W,0.26,22.77,200711,,,A*40
$GPVTG,22.77,T,,M,0.26,N,0.5,K,A*3C
$GPGGA,202553.000,3748.8020,N,12217.8615,W,1,05,2.0,-4.4,M,-25.1,M,,0000*43
$GPGSA,A,3,08,26,17,28,13,,,,,,,,3.2,2.0,2.5*34
$GPRMC,202553.000,A,3748.8020,N,12217.8615,W,0.29,73.69,200711,,,A*45
$GPVTG,73.69,T,,M,0.29,N,0.5,K,A*38
$GPGGA,202554.000,3748.8023,N,12217.8607,W,1,05,2.0,-4.6,M,-25.1,M,,0000*46
$GPGSA,A,3,08,26,17,28,13,,,,,,,,3.2,2.0,2.5*34
$GPRMC,202554.000,A,3748.8023,N,12217.8607,W,0.33,76.82,200711,,,A*49
$GPVTG,76.82,T,,M,0.33,N,0.6,K,A*30
$GPGGA,202555.000,3748.8023,N,12217.8608,W,1,05,2.0,-4.4,M,-25.1,M,,0000*4A
$GPGSA,A,3,08,26,17,28,13,,,,,,,,3.2,2.0,2.5*34
$GPRMC,202555.000,A,3748.8023,N,12217.8608,W,0.21,2.17,200711,,,A*7B
$GPVTG,2.17,T,,M,0.21,N,0.4,K,A*0E
$GPGGA,202556.000,3748.8024,N,12217.8605,W,1,05,2.0,-4.9,M,-25.1,M,,0000*4E
$GPGSA,A,3,08,26,17,28,13,,,,,,,,3.2,2.0,2.5*34
$GPGSV,3,1,12,28,69,279,35,08,66,036,32,07,49,086,18,26,39,311,38*70
$GPGSV,3,2,12,01,31,251,,17,22,187,28,19,17,042,28,11,17,093,15*76
$GPGSV,3,3,12,05,14,259,24,13,10,154,19,10,05,212,,15,05,322,*7E
$GPRMC,202556.000,A,3748.8024,N,12217.8605,W,0.31,74.34,200711,,,A*43
$GPVTG,74.34,T,,M,0.31,N,0.6,K,A*3D
$GPGGA,202557.000,3748.8024,N,12217.8603,W,1,05,2.0,-5.3,M,-25.1,M,,0000*42
$GPGSA,A,3,08,26,17,28,13,,,,,,,,3.2,2.0,2.5*34
$GPRMC,202557.000,A,3748.8024,N,12217.8603,W,0.40,89.53,200711,,,A*41
$GPVTG,89.53,T,,M,0.40,N,0.7,K,A*39
$GPGGA,202558.000,3748.8024,N,12217.8601,W,1,05,2.0,-5.6,M,-25.1,M,,0000*4A
$GPGSA,A,3,08,26,17,28,13,,,,,,,,3.2,2.0,2.5*34
$GPRMC,202558.000,A,3748.8024,N,12217.8601,W,0.45,83.71,200711,,,A*43
$GPVTG,83.71,T,,M,0.45,N,0.8,K,A*39
$GPGGA,202559.000,3748.8023,N,12217.8603,W,1,05,2.0,-6.0,M,-25.1,M,,0000*4B
$GPGSA,A,3,08,26,17,28,13,,,,,,,,3.2,2.0,2.5*34
$GPRMC,202559.000,A,3748.8023,N,12217.8603,W,0.50,81.70,200711,,,A*40
$GPVTG,81.70,T,,M,0.50,N,0.9,K,A*3F
$GPGGA,202600.000,3748.8023,N,12217.8603,W,1,05,2.0,-6.2,M,-25.1,M,,0000*46
$GPGSA,A,3,08,26,17,28,13,,,,,,,,3.2,2.0,2.5*34
$GPRMC,202600.000,A,3748.8023,N,12217.8603,W,0.45,85.98,200711,,,A*49
$GPVTG,85.98,T,,M,0.45,N,0.8,K,A*38
$GPGGA,202601.000,3748.8023,N,12217.8603,W,1,05,2.0,-6.4,M,-25.1,M,,0000*41
$GPGSA,A,3,08,26,17,28,13,,,,,,,,3.2,2.0,2.5*34
$GPGSV,3,1,12,28,69,279,33,08,66,036,29,07,49,086,25,26,39,311,39*73
$GPGSV,3,2,12,01,31,251,19,17,22,187,28,19,17,042,33,11,17,093,22*70
$GPGSV,3,3,12,05,14,259,26,13,10,154,16,10,05,212,,15,05,322,*73
$GPRMC,202601.000,A,3748.8023,N,12217.8603,W,0.42,84.44,200711,,,A*4F
$GPVTG,84.44,T,,M,0.42,N,0.8,K,A*3F
$GPGGA,202602.000,3748.8022,N,12217.8604,W,1,05,2.0,-6.4,M,-25.1,M,,0000*44
$GPGSA,A,3,08,26,17,28,13,,,,,,,,3.2,2.0,2.5*34
$GPRMC,202602.000,A,3748.8022,N,12217.8604,W,0.31,67.75,200711,,,A*41
$GPVTG,67.75,T,,M,0.31,N,0.6,K,A*3A
$GPGGA,202603.000,3748.8021,N,12217.8608,W,2,05,2.0,-5.5,M,-25.1,M,1.8,0000*6C
$GPGSA,A,3,08,26,17,28,13,,,,,,,,3.2,2.0,2.5*34
$GPRMC,202603.000,A,3748.8021,N,12217.8608,W,0.21,46.73,200711,,,D*4E
$GPVTG,46.73,T,,M,0.21,N,0.4,K,D*39
$GPGGA,202604.000,3748.8020,N,12217.8611,W,2,05,2.0,-5.0,M,-25.1,M,1.8,0000*67
$GPGSA,A,3,08,26,17,28,13,,,,,,,,3.2,2.0,2.5*34
$GPRMC,202604.000,A,3748.8020,N,12217.8611,W,0.28,72.26,200711,,,D*4E
$GPVTG,72.26,T,,M,0.28,N,0.5,K,D*36
$GPGGA,202605.000,3748.8019,N,12217.8613,W,2,05,2.0,-4.4,M,-25.1,M,1.8,0000*6B
$GPGSA,A,3,08,26,17,28,13,,,,,,,,3.2,2.0,2.5*34
$GPRMC,202605.000,A,3748.8019,N,12217.8613,W,0.30,70.62,200711,,,D*4C
$GPVTG,70.62,T,,M,0.30,N,0.6,K,D*3E
$GPGGA,202606.000,3748.8020,N,12217.8610,W,2,05,2.0,-4.0,M,-25.1,M,1.8,0000*65
$GPGSA,A,3,08,26,17,28,13,,,,,,,,3.2,2.0,2.5*34
$GPGSV,3,1,12,28,69,279,33,08,66,036,22,07,49,086,16,26,39,311,39*78
$GPGSV,3,2,12,01,31,251,18,17,22,187,29,19,17,042,29,11,17,093,08*73
$GPGSV,3,3,12,05,14,259,23,13,10,154,19,10,05,212,,15,05,322,*79
$GPRMC,202606.000,A,3748.8020,N,12217.8610,W,0.24,84.24,200711,,,D*4A
$GPVTG,84.24,T,,M,0.24,N,0.4,K,D*30
$GPGGA,202607.000,3748.8022,N,12217.8608,W,2,05,2.0,-3.6,M,-25.1,M,2.8,0000*6D
$GPGSA,A,3,08,26,17,28,13,,,,,,,,3.2,2.0,2.5*34
$GPRMC,202607.000,A,3748.8022,N,12217.8608,W,0.38,45.68,200711,,,D*48
$GPVTG,45.68,T,,M,0.38,N,0.7,K,D*3B
$GPGGA,202608.000,3748.8024,N,12217.8603,W,2,05,2.0,-2.8,M,-25.1,M,3.8,0000*61
$GPGSA,A,3,08,26,17,28,13,,,,,,,,3.2,2.0,2.5*34
$GPRMC,202608.000,A,3748.8024,N,12217.8603,W,0.44,45.06,200711,,,D*49
$GPVTG,45.06,T,,M,0.44,N,0.8,K,D*37
$GPGGA,202609.000,3748.8025,N,12217.8600,W,2,05,2.0,-1.8,M,-25.1,M,4.8,0000*66
$GPGSA,A,3,08,26,17,28,13,,,,,,,,3.2,2.0,2.5*34
$GPRMC,202609.000,A,3748.8025,N,12217.8600,W,0.61,68.25,200711,,,D*43
$GPVTG,68.25,T,,M,0.61,N,1.1,K,D*36
$GPGGA,202609.000,3748.8027,N,12217.8597,W,2,05,2.0,-0.4,M,-25.1,M,5.8,0000*65
$GPGSA,A,3,08,26,17,28,13,,,,,,,,3.2,2.0,2.5*34
$GPRMC,202609.000,A,3748.8027,N,12217.8597,W,0.73,61.52,200711,,,D*46
$GPVTG,61.52,T,,M,0.73,N,1.4,K,D*39
$GPGGA,202610.000,3748.8026,N,12217.8599,W,2,05,2.0,0.1,M,-25.1,M,6.8,0000*49
$GPGSA,A,3,08,26,17,28,13,,,,,,,,3.2,2.0,2.5*34
$GPGSV,3,1,12,28,69,279,34,08,66,036,28,07,49,086,16,26,39,311,40*7B
$GPGSV,3,2,12,01,31,251,18,17,22,187,20,19,17,042,30,11,17,093,*7A
$GPGSV,3,3,12,05,14,259,22,13,10,154,27,10,05,212,,15,05,322,*75
$GPRMC,202610.000,A,3748.8026,N,12217.8599,W,0.21,70.11,200711,,,D*41
$GPVTG,70.11,T,,M,0.21,N,0.4,K,D*38
$GPGGA,202611.000,3748.8026,N,12217.8599,W,2,05,2.0,1.1,M,-25.1,M,7.8,0000*48
$GPGSA,A,3,08,26,17,28,13,,,,,,,,3.2,2.0,2.5*34
$GPRMC,202611.000,A,3748.8026,N,12217.8599,W,0.05,116.28,200711,,,D*7D
$GPVTG,116.28,T,,M,0.05,N,0.1,K,D*00
$GPGGA,202612.000,3748.8025,N,12217.8603,W,2,05,2.0,1.8,M,-25.1,M,8.8,0000*4E
$GPGSA,A,3,08,26,17,28,13,,,,,,,,3.2,2.0,2.5*34
$GPRMC,202612.000,A,3748.8025,N,12217.8603,W,0.08,220.32,200711,,,D*7D
$GPVTG,220.32,T,,M,0.08,N,0.2,K,D*03
$GPGGA,202613.000,3748.8025,N,12217.8604,W,2,05,2.0,2.6,M,-25.1,M,9.8,0000*44
$GPGSA,A,3,08,26,17,28,13,,,,,,,,3.2,2.0,2.5*34
$GPRMC,202613.000,A,3748.8025,N,12217.8604,W,0.06,222.34,200711,,,D*71
$GPVTG,222.34,T,,M,0.06,N,0.1,K,D*0A
$GPGGA,202614.000,3748.8025,N,12217.8605,W,2,05,2.0,3.1,M,-25.1,M,10.8,0000*7C
$GPGSA,A,3,08,26,17,28,13,,,,,,,,3.2,2.0,2.5*34
$GPRMC,202614.000,A,3748.8025,N,12217.8605,W,0.01,253.68,200711,,,D*7F
$GPVTG,253.68,T,,M,0.01,N,0.0,K,D*03
$GPGGA,202615.000,3748.8026,N,12217.8603,W,2,05,2.0,2.7,M,-25.1,M,11.8,0000*7E
$GPGSA,A,3,08,26,17,28,13,,,,,,,,3.2,2.0,2.5*34
$GPGSV,3,1,12,28,69,279,34,08,66,036,29,07,49,086,22,26,39,311,40*7D
$GPGSV,3,2,12,01,31,251,17,17,22,187,30,19,17,042,24,11,17,093,*71
$GPGSV,3,3,12,05,14,259,23,13,10,154,23,10,05,212,19,15,05,322,*78
$GPRMC,202615.000,A,3748.8026,N,12217.8603,W,0.13,124.38,200711,,,D*7E
$GPGGA,202616.000,3748.8025,N,12217.8604,W,2,05,2.0,2.1,M,-25.1,M,12.8,0000*7C
$GPGSA,A,3,08,26,17,28,13,,,,,,,,3.2,2.0,2.5*34
$GPRMC,202616.000,A,3748.8025,N,12217.8604,W,0.10,307.28,200711,,,D*78
$GPVTG,307.28,T,,M,0.10,N,0.2,K,D*05
$GPGGA,202617.000,3748.8025,N,12217.8606,W,2,05,2.0,1.8,M,-25.1,M,13.8,0000*74
$GPGSA,A,3,08,26,17,28,13,,,,,,,,3.2,2.0,2.5*34
$GPRMC,202617.000,A,3748.8025,N,12217.8606,W,0.28,287.28,200711,,,D*79
$GPVTG,287.28,T,,M,0.28,N,0.5,K,D*00
$GPGGA,202618.000,3748.8024,N,12217.8607,W,2,04,2.5,1.7,M,-25.1,M,14.8,0000*77
$GPGSA,A,3,08,26,17,28,,,,,,,,,4.2,2.5,3.4*34
$GPRMC,202618.000,A,3748.8024,N,12217.8607,W,0.09,283.03,200711,,,D*78
$GPVTG,283.03,T,,M,0.09,N,0.2,K,D*09
$GPGGA,202619.000,3748.8024,N,12217.8608,W,2,04,2.5,1.4,M,-25.1,M,15.8,0000*7B
$GPGSA,A,3,08,26,17,28,,,,,,,,,4.2,2.5,3.4*34
$GPRMC,202619.000,A,3748.8024,N,12217.8608,W,0.35,252.11,200711,,,D*76
$GPVTG,252.11,T,,M,0.35,N,0.7,K,D*0C
$GPGGA,202620.000,3748.8024,N,12217.8608,W,2,05,2.0,0.9,M,-25.1,M,16.8,0000*7A
$GPGSA,A,3,08,26,17,28,13,,,,,,,,3.2,2.0,2.5*34
$GPGSV,3,1,12,28,69,280,33,08,66,036,19,07,48,086,24,26,39,311,40*78
$GPGSV,3,2,12,01,31,251,,17,22,187,30,19,17,042,31,11,17,093,23*72
$GPGSV,3,3,12,05,13,259,20,13,10,154,29,15,05,322,41,10,05,212,*7B
$GPRMC,202620.000,A,3748.8024,N,12217.8608,W,0.26,215.77,200711,,,D*7D
$GPVTG,215.77,T,,M,0.26,N,0.5,K,D*0F
$GPGGA,202621.000,3748.8022,N,12217.8612,W,2,05,2.0,1.3,M,-25.1,M,17.8,0000*7C
$GPGSA,A,3,08,26,17,28,13,,,,,,,,3.2,2.0,2.5*34
$GPRMC,202621.000,A,3748.8022,N,12217.8612,W,0.34,247.47,200711,,,D*76
$GPVTG,247.47,T,,M,0.34,N,0.6,K,D*0B
$GPGGA,202622.000,3748.8023,N,12217.8614,W,1,06,1.7,0.4,M,-25.1,M,,0000*6A
$GPGSA,A,3,15,08,26,17,28,13,,,,,,,2.1,1.7,1.3*33
$GPRMC,202622.000,A,3748.8023,N,12217.8614,W,0.06,258.87,200711,,,A*74
$GPVTG,258.87,T,,M,0.06,N,0.1,K,A*0A
$GPGGA,202623.000,3748.8023,N,12217.8615,W,1,05,2.1,-0.4,M,-25.1,M,,0000*41
$GPGSA,A,3,15,08,26,17,28,,,,,,,,2.7,2.1,1.6*37
$GPRMC,202623.000,A,3748.8023,N,12217.8615,W,0.12,13.46,200711,,,A*41
$GPVTG,13.46,T,,M,0.12,N,0.2,K,A*3C
$GPGGA,202624.000,3748.8022,N,12217.8615,W,1,06,1.7,-1.1,M,-25.1,M,,0000*45
$GPGSA,A,3,15,08,26,17,28,13,,,,,,,2.1,1.7,1.3*33
$GPRMC,202624.000,A,3748.8022,N,12217.8615,W,0.39,58.79,200711,,,A*4D
$GPVTG,58.79,T,,M,0.39,N,0.7,K,A*33
$GPGGA,202625.000,3748.8021,N,12217.8620,W,1,06,1.7,-2.0,M,-25.1,M,,0000*43
$GPGSA,A,3,15,08,26,17,28,13,,,,,,,2.1,1.7,1.3*33
$GPGSV,3,1,12,28,69,280,33,08,66,036,23,07,48,086,17,26,39,311,40*71
$GPGSV,3,2,12,01,31,251,,17,22,187,33,19,17,042,30,11,17,093,22*71
$GPGSV,3,3,12,05,13,259,25,13,10,154,29,15,05,322,34,10,05,212,*7C
$GPRMC,202625.000,A,3748.8021,N,12217.8620,W,0.20,211.53,200711,,,A*76
$GPVTG,211.53,T,,M,0.20,N,0.4,K,A*0F
$GPGGA,202626.000,3748.8018,N,12217.8623,W,1,05,1.8,-2.7,M,-25.1,M,,0000*42
$GPGSA,A,3,15,08,17,28,13,,,,,,,,2.2,1.8,1.3*3B
$GPRMC,202626.000,A,3748.8018,N,12217.8623,W,0.72,162.79,200711,,,A*74
$GPVTG,162.79,T,,M,0.72,N,1.3,K,A*01
$GPGGA,202627.000,3748.8018,N,12217.8613,W,1,06,1.7,-3.2,M,-25.1,M,,0000*48
$GPGSA,A,3,15,08,26,17,28,13,,,,,,,2.1,1.7,1.3*33
$GPRMC,202627.000,A,3748.8018,N,12217.8613,W,0.77,63.56,200711,,,A*4E
$GPVTG,63.56,T,,M,0.77,N,1.4,K,A*3E
$GPGGA,202628.000,3748.8020,N,12217.8607,W,1,06,1.7,-4.1,M,-25.1,M,,0000*4D
$GPGSA,A,3,15,08,26,17,28,13,,,,,,,2.1,1.7,1.3*33
$GPRMC,202628.000,A,3748.8020,N,12217.8607,W,0.60,35.24,200711,,,A*4F
$GPVTG,35.24,T,,M,0.60,N,1.1,K,A*3B
$GPGGA,202629.000,3748.8019,N,12217.8599,W,1,06,1.7,-3.5,M,-25.1,M,,0000*41
$GPGSA,A,3,15,08,26,17,28,13,,,,,,,2.1,1.7,1.3*33
$GPRMC,202629.000,A,3748.8019,N,12217.8599,W,1.09,41.97,200711,,,A*45
$GPVTG,41.97,T,,M,1.09,N,2.0,K,A*3C
$GPGGA,202630.000,3748.8021,N,12217.8593,W,1,06,1.7,-4.3,M,-25.1,M,,0000*49
$GPGSA,A,3,15,08,26,17,28,13,,,,,,,2.1,1.7,1.3*33
$GPGSV,3,1,12,28,69,280,23,08,66,036,30,07,48,086,33,26,39,311,27*75
$GPGSV,3,2,12,01,31,251,,17,22,187,35,19,17,042,29,11,17,093,28*75
$GPGSV,3,3,12,05,13,259,21,13,10,154,35,15,05,322,25,10,05,212,*75
$GPVTG,89.61,T,,M,0.97,N,1.8,K,A*3C
$GPGGA,202631.000,3748.8022,N,12217.8584,W,1,06,1.7,-5.3,M,-25.1,M,,0000*4C
$GPGSA,A,3,15,08,26,17,28,13,,,,,,,2.1,1.7,1.3*33
$GPRMC,202631.000,A,3748.8022,N,12217.8584,W,1.30,110.44,200711,,,A*79
$GPVTG,110.44,T,,M,1.30,N,2.4,K,A*09
$GPGGA,202632.000,3748.8020,N,12217.8575,W,2,06,1.7,-5.4,M,-25.1,M,1.8,0000*60
$GPGSA,A,3,15,08,26,17,28,13,,,,,,,2.1,1.7,1.3*33
$GPRMC,202632.000,A,3748.8020,N,12217.8575,W,1.42,116.85,200711,,,D*7D
$GPVTG,116.85,T,,M,1.42,N,2.6,K,D*00
$GPGGA,202633.000,3748.8017,N,12217.8566,W,2,06,1.7,-4.7,M,-25.1,M,1.8,0000*65
$GPGSA,A,3,15,08,26,17,28,13,,,,,,,2.1,1.7,1.3*33
$GPRMC,202633.000,A,3748.8017,N,12217.8566,W,1.64,106.39,200711,,,D*78
$GPVTG,106.39,T,,M,1.64,N,3.0,K,D*05
$GPGGA,202634.000,3748.8012,N,12217.8556,W,2,06,1.7,-3.4,M,-25.1,M,1.8,0000*60
$GPGSA,A,3,15,08,26,17,28,13,,,,,,,2.1,1.7,1.3*33
$GPRMC,202634.000,A,3748.8012,N,12217.8556,W,1.86,105.75,200711,,,D*7E
$GPVTG,105.75,T,,M,1.86,N,3.4,K,D*06
$GPGGA,202635.000,3748.8008,N,12217.8545,W,2,06,1.7,-2.4,M,-25.1,M,1.8,0000*69
$GPGSA,A,3,15,08,26,17,28,13,,,,,,,2.1,1.7,1.3*33
$GPGSV,3,1,12,28,69,280,25,08,66,036,25,07,48,086,30,26,39,311,27*74
$GPGSV,3,2,12,01,31,251,,17,22,187,39,19,17,042,28,11,17,093,27*77
$GPGSV,3,3,12,05,13,259,23,13,10,154,39,15,05,322,26,10,05,212,*78
$GPRMC,202635.000,A,3748.8008,N,12217.8545,W,1.81,103.09,200711,,,D*7C
$GPVTG,103.09,T,,M,1.81,N,3.4,K,D*0C
$GPGGA,202636.000,3748.8003,N,12217.8536,W,2,06,1.7,-1.6,M,-25.1,M,1.8,0000*64
$GPGSA,A,3,15,08,26,17,28,13,,,,,,,2.1,1.7,1.3*33
$GPRMC,202636.000,A,3748.8003,N,12217.8536,W,1.71,113.12,200711,,,D*74
$GPVTG,113.12,T,,M,1.71,N,3.2,K,D*0E
$GPGGA,202637.000,3748.7998,N,12217.8536,W,2,06,1.7,-1.7,M,-25.1,M,2.8,0000*63
$GPGSA,A,3,15,08,26,17,28,13,,,,,,,2.1,1.7,1.3*33
$GPRMC,202637.000,A,3748.7998,N,12217.8536,W,1.77,113.58,200711,,,D*79
$GPVTG,113.58,T,,M,1.77,N,3.3,K,D*07
$GPGGA,202638.000,3748.7992,N,12217.8530,W,2,06,1.7,-1.6,M,-25.1,M,1.8,0000*62
$GPGSA,A,3,15,08,26,17,28,13,,,,,,,2.1,1.7,1.3*33
$GPRMC,202638.000,A,3748.7992,N,12217.8530,W,1.50,107.27,200711,,,D*72
$GPVTG,107.27,T,,M,1.50,N,2.8,K,D*05
$GPGGA,202639.000,3748.7987,N,12217.8528,W,2,06,1.7,-2.3,M,-25.1,M,1.8,0000*68
$GPGSA,A,3,15,08,26,17,28,13,,,,,,,2.1,1.7,1.3*33
$GPRMC,202639.000,A,3748.7987,N,12217.8528,W,1.47,114.17,200711,,,D*79
$GPVTG,114.17,T,,M,1.47,N,2.7,K,D*0D
$GPGGA,202640.000,3748.7982,N,12217.8523,W,2,06,1.7,-1.9,M,-25.1,M,1.8,0000*61
$GPGSA,A,3,15,08,26,17,28,13,,,,,,,2.1,1.7,1.3*33
$GPGSV,3,1,12,28,69,280,25,08,66,036,25,07,48,086,36,26,39,311,21*74
$GPGSV,3,2,12,01,31,251,,17,22,187,39,19,17,042,28,11,17,093,26*76
$GPGSV,3,3,12,05,13,259,28,13,10,154,41,15,05,322,24,10,05,212,*7E
$GPRMC,202640.000,A,3748.7982,N,12217.8523,W,1.48,108.35,200711,,,D*7B
$GPVTG,108.35,T,,M,1.48,N,2.7,K,D*0F
$GPGGA,202641.000,3748.7977,N,12217.8523,W,2,06,1.7,-1.8,M,-25.1,M,2.8,0000*68
$GPGSA,A,3,15,08,26,17,28,13,,,,,,,2.1,1.7,1.3*33
$GPRMC,202641.000,A,3748.7977,N,12217.8523,W,1.95,111.67,200711,,,D*7F
$GPVTG,111.67,T,,M,1.95,N,3.6,K,D*00
$GPGGA,202642.000,3748.7976,N,12217.8522,W,2,06,1.7,-3.2,M,-25.1,M,3.8,0000*62
$GPGSA,A,3,15,08,26,17,28,13,,,,,,,2.1,1.7,1.3*33
$GPRMC,202642.000,A,3748.7976,N,12217.8522,W,1.59,112.20,200711,,,D*7C
$GPVTG,112.20,T,,M,1.59,N,2.9,K,D*0E
$GPGGA,202643.000,3748.7975,N,12217.8518,W,2,06,1.7,-4.4,M,-25.1,M,4.8,0000*6F
$GPGSA,A,3,15,08,26,17,28,13,,,,,,,2.1,1.7,1.3*33
$GPRMC,202643.000,A,3748.7975,N,12217.8518,W,1.22,101.76,200711,,,D*7A
$GPVTG,101.76,T,,M,1.22,N,2.3,K,D*09
$GPGGA,202644.000,3748.7971,N,12217.8510,W,2,06,1.7,-4.4,M,-25.1,M,1.8,0000*61
$GPGSA,A,3,15,08,26,17,28,13,,,,,,,2.1,1.7,1.3*33
$GPRMC,202644.000,A,3748.7971,N,12217.8510,W,1.81,103.89,200711,,,D*7A
$GPVTG,103.89,T,,M,1.81,N,3.3,K,D*03
$GPGGA,202645.000,3748.7971,N,12217.8502,W,2,06,1.7,-5.2,M,-25.1,M,1.8,0000*64
$GPGSA,A,3,15,08,26,17,28,13,,,,,,,2.1,1.7,1.3*33
$GPGSV,3,1,12,28,69,280,26,08,66,036,25,07,48,086,23,26,39,311,23*71
$GPGSV,3,2,12,01,31,251,,17,22,187,38,19,17,042,28,11,17,093,20*71
$GPGSV,3,3,12,05,13,259,33,13,10,154,37,15,05,322,25,10,05,212,*74
$GPRMC,202645.000,A,3748.7971,N,12217.8502,W,1.56,100.82,200711,,,D*7A
$GPVTG,100.82,T,,M,1.56,N,2.9,K,D*0A
$GPGGA,202646.000,3748.7968,N,12217.8493,W,2,06,1.7,-5.1,M,-25.1,M,1.8,0000*65
$GPGSA,A,3,15,08,26,17,28,13,,,,,,,2.1,1.7,1.3*33
$GPRMC,202646.000,A,3748.7968,N,12217.8493,W,2.01,99.76,200711,,,D*43
$GPVTG,99.76,T,,M,2.01,N,3.7,K,D*3E
$GPGGA,202647.000,3748.7964,N,12217.8488,W,2,06,1.7,-4.2,M,-25.1,M,2.8,0000*63
$GPGSA,A,3,15,08,26,17,28,13,,,,,,,2.1,1.7,1.3*33
$GPRMC,202647.000,A,3748.7964,N,12217.8488,W,1.96,96.53,200711,,,D*41
$GPVTG,96.53,T,,M,1.96,N,3.6,K,D*3A
$GPGGA,202648.000,3748.7960,N,12217.8480,W,2,06,1.7,-3.5,M,-25.1,M,3.8,0000*61
$GPGSA,A,3,15,08,26,17,28,13,,,,,,,2.1,1.7,1.3*33
$GPRMC,202648.000,A,3748.7960,N,12217.8480,W,1.34,113.19,200711,,,D*78
$GPVTG,113.19,T,,M,1.34,N,2.5,K,D*02
$GPGGA,202649.000,3748.7957,N,12217.8474,W,2,06,1.7,-3.1,M,-25.1,M,1.8,0000*69
$GPGSA,A,3,15,08,26,17,28,13,,,,,,,2.1,1.7,1.3*33
$GPRMC,202649.000,A,3748.7957,N,12217.8474,W,1.16,109.67,200711,,,D*74
$GPVTG,109.67,T,,M,1.16,N,2.2,K,D*07
$GPGGA,202650.000,3748.7958,N,12217.8464,W,2,06,1.7,-3.8,M,-25.1,M,1.8,0000*66
$GPGSA,A,3,15,08,26,17,28,13,,,,,,,2.1,1.7,1.3*33
$GPGSV,3,1,12,28,69,281,26,08,66,037,26,07,48,087,34,26,39,311,23*75
$GPGSV,3,2,12,01,32,251,,17,22,186,37,11,17,093,35,19,17,042,27*77
$GPGSV,3,3,12,05,13,259,32,13,10,154,37,15,05,322,25,10,04,211,*77
$GPRMC,202650.000,A,3748.7958,N,12217.8464,W,0.94,89.94,200711,,,D*4C
$GPGGA,202651.000,3748.7959,N,12217.8454,W,2,06,1.7,-3.9,M,-25.1,M,1.8,0000*64
$GPGSA,A,3,15,08,26,17,28,13,,,,,,,2.1,1.7,1.3*33
$GPRMC,202651.000,A,3748.7959,N,12217.8454,W,1.51,74.42,200711,,,D*4E
$GPVTG,74.42,T,,M,1.51,N,2.8,K,D*32
$GPGGA,202652.000,3748.7959,N,12217.8447,W,2,06,1.7,-3.9,M,-25.1,M,1.8,0000*65
$GPGSA,A,3,15,08,26,17,28,13,,,,,,,2.1,1.7,1.3*33
$GPRMC,202652.000,A,3748.7959,N,12217.8447,W,1.10,66.97,200711,,,D*41
$GPVTG,66.97,T,,M,1.10,N,2.0,K,D*34
$GPGGA,202653.000,3748.7958,N,12217.8444,W,2,06,1.7,-4.7,M,-25.1,M,2.8,0000*6C
$GPGSA,A,3,15,08,26,17,28,13,,,,,,,2.1,1.7,1.3*33
$GPRMC,202653.000,A,3748.7958,N,12217.8444,W,0.87,107.92,200711,,,D*7E
$GPVTG,107.92,T,,M,0.87,N,1.6,K,D*0D
$GPGGA,202654.000,3748.7956,N,12217.8438,W,2,06,1.7,-5.3,M,-25.1,M,1.8,0000*68
$GPGSA,A,3,15,08,26,17,28,13,,,,,,,2.1,1.7,1.3*33
$GPRMC,202654.000,A,3748.7956,N,12217.8438,W,1.50,113.00,200711,,,D*79
$GPVTG,113.00,T,,M,1.50,N,2.8,K,D*05
$GPGGA,202655.000,3748.7955,N,12217.8431,W,2,06,1.7,-6.2,M,-25.1,M,2.8,0000*62
$GPGSA,A,3,15,08,26,17,28,13,,,,,,,2.1,1.7,1.3*33
$GPGSV,3,1,12,28,69,281,26,08,66,037,28,07,48,087,34,26,39,311,24*7C
$GPGSV,3,2,12,01,32,251,,17,22,186,36,11,17,093,29,19,17,042,21*7D
$GPGSV,3,3,12,05,13,259,32,13,10,154,37,15,05,322,25,10,04,211,*77
$GPRMC,202655.000,A,3748.7955,N,12217.8431,W,1.86,99.79,200711,,,D*44
$GPVTG,99.79,T,,M,1.86,N,3.4,K,D*3E
$GPGGA,202656.000,3748.7952,N,12217.8425,W,2,06,1.7,-6.3,M,-25.1,M,1.8,0000*61
$GPGSA,A,3,15,08,26,17,28,13,,,,,,,2.1,1.7,1.3*33
$GPRMC,202656.000,A,3748.7952,N,12217.8425,W,1.48,89.76,200711,,,D*49
$GPVTG,89.76,T,,M,1.48,N,2.7,K,D*30
$GPGGA,202657.000,3748.7949,N,12217.8420,W,2,06,1.7,-5.8,M,-25.1,M,2.8,0000*64
$GPGSA,A,3,15,08,26,17,28,13,,,,,,,2.1,1.7,1.3*33
$GPRMC,202657.000,A,3748.7949,N,12217.8420,W,1.83,96.26,200711,,,D*4B
$GPVTG,96.26,T,,M,1.83,N,3.4,K,D*3E
$GPGGA,202658.000,3748.7944,N,12217.8418,W,2,06,1.7,-5.3,M,-25.1,M,3.8,0000*67
$GPGSA,A,3,15,08,26,17,28,13,,,,,,,2.1,1.7,1.3*33
$GPRMC,202658.000,A,3748.7944,N,12217.8418,W,1.55,89.40,200711,,,D*47
$GPVTG,89.40,T,,M,1.55,N,2.9,K,D*37
$GPGGA,202659.000,3748.7939,N,12217.8418,W,2,06,1.7,-4.9,M,-25.1,M,4.8,0000*60
$GPGSA,A,3,15,08,26,17,28,13,,,,,,,2.1,1.7,1.3*33
$GPRMC,202659.000,A,3748.7939,N,12217.8418,W,1.62,105.83,200711,,,D*72
$GPVTG,105.83,T,,M,1.62,N,3.0,K,D*01
$GPGGA,202700.000,3748.7939,N,12217.8406,W,2,06,1.7,-5.2,M,-25.1,M,5.8,0000*69
$GPGSA,A,3,15,08,26,17,28,13,,,,,,,2.1,1.7,1.3*33
$GPGSV,3,1,12,28,69,281,25,08,66,037,27,07,48,087,28,26,39,311,24*7D
$GPGSV,3,2,12,01,32,251,,17,22,186,36,11,17,093,30,19,17,042,20*74
$GPGSV,3,3,12,05,13,259,32,13,10,154,36,15,05,322,24,10,04,211,*77
$GPRMC,202700.000,A,3748.7939,N,12217.8406,W,2.00,95.39,200711,,,D*4E
$GPVTG,95.39,T,,M,2.00,N,3.7,K,D*38
$GPGGA,202701.000,3748.7936,N,12217.8396,W,2,06,1.7,-5.2,M,-25.1,M,6.8,0000*6A
$GPGSA,A,3,15,08,26,17,28,13,,,,,,,2.1,1.7,1.3*33
$GPRMC,202701.000,A,3748.7936,N,12217.8396,W,1.97,96.38,200711,,,D*41
$GPVTG,96.38,T,,M,1.97,N,3.7,K,D*37
$GPGGA,202702.000,3748.7934,N,12217.8382,W,2,06,1.7,-5.4,M,-25.1,M,7.8,0000*69
$GPGSA,A,3,15,08,26,17,28,13,,,,,,,2.1,1.7,1.3*33
$GPRMC,202702.000,A,3748.7934,N,12217.8382,W,1.93,89.80,200711,,,D*4C
$GPVTG,89.80,T,,M,1.93,N,3.6,K,D*3F
$GPGGA,202703.000,3748.7931,N,12217.8369,W,2,06,1.7,-4.8,M,-25.1,M,8.8,0000*6A
$GPGSA,A,3,15,08,26,17,28,13,,,,,,,2.1,1.7,1.3*33
$GPRMC,202703.000,A,3748.7931,N,12217.8369,W,1.34,95.65,200711,,,D*46
$GPVTG,95.65,T,,M,1.34,N,2.5,K,D*36
$GPGGA,202704.000,3748.7925,N,12217.8366,W,2,06,1.7,-4.6,M,-25.1,M,9.8,0000*68
$GPGSA,A,3,15,08,26,17,28,13,,,,,,,2.1,1.7,1.3*33
$GPRMC,202704.000,A,3748.7925,N,12217.8366,W,1.28,110.22,200711,,,D*79
$GPVTG,110.22,T,,M,1.28,N,2.4,K,D*05
$GPGGA,202705.000,3748.7920,N,12217.8363,W,2,06,1.7,-5.1,M,-25.1,M,10.8,0000*57
$GPGSA,A,3,15,08,26,17,28,13,,,,,,,2.1,1.7,1.3*33
$GPGSV,3,1,12,28,69,281,22,08,66,037,18,07,48,087,29,26,39,311,23*70
$GPGSV,3,2,12,01,32,251,,17,22,186,40,11,17,093,34,19,17,042,23*72
$GPGSV,3,3,12,05,13,259,30,13,10,154,38,15,05,322,24,10,04,211,*7B
$GPVTG,121.39,T,,M,1.08,N,2.0,K,D*0B
$GPGGA,202706.000,3748.7916,N,12217.8355,W,2,06,1.7,-5.1,M,-25.1,M,11.8,0000*55
$GPGSA,A,3,15,08,26,17,28,13,,,,,,,2.1,1.7,1.3*33
$GPRMC,202706.000,A,3748.7916,N,12217.8355,W,1.02,100.63,200711,,,D*77
$GPVTG,100.63,T,,M,1.02,N,1.9,K,D*07
$GPGGA,202707.000,3748.7914,N,12217.8348,W,2,06,1.7,-4.8,M,-25.1,M,12.8,0000*51
$GPGSA,A,3,15,08,26,17,28,13,,,,,,,2.1,1.7,1.3*33
$GPRMC,202707.000,A,3748.7914,N,12217.8348,W,0.82,93.00,200711,,,D*4F
$GPVTG,93.00,T,,M,0.82,N,1.5,K,D*3C
$GPGGA,202708.000,3748.7910,N,12217.8344,W,2,06,1.7,-4.6,M,-25.1,M,1.8,0000*6A
$GPGSA,A,3,15,08,26,17,28,13,,,,,,,2.1,1.7,1.3*33
$GPRMC,202708.000,A,3748.7910,N,12217.8344,W,1.27,106.94,200711,,,D*76
$GPVTG,106.94,T,,M,1.27,N,2.3,K,D*07
$GPGGA,202709.000,3748.7908,N,12217.8340,W,2,06,1.7,-5.2,M,-25.1,M,1.8,0000*63
$GPGSA,A,3,15,08,26,17,28,13,,,,,,,2.1,1.7,1.3*33
$GPRMC,202709.000,A,3748.7908,N,12217.8340,W,1.68,118.87,200711,,,D*7C
$GPVTG,118.87,T,,M,1.68,N,3.1,K,D*02
$GPGGA,202710.000,3748.7905,N,12217.8334,W,2,06,1.7,-5.7,M,-25.1,M,1.8,0000*60
$GPGSA,A,3,15,08,26,17,28,13,,,,,,,2.1,1.7,1.3*33
$GPGSV,3,1,12,28,69,281,23,08,66,037,26,07,48,087,33,26,39,311,24*70
$GPGSV,3,2,12,01,32,251,,17,22,186,37,11,17,093,26,19,17,042,25*77
$GPGSV,3,3,12,05,13,259,35,13,10,154,38,15,05,322,24,10,04,211,*7E
$GPRMC,202710.000,A,3748.7905,N,12217.8334,W,1.69,117.66,200711,,,D*7B
$GPVTG,117.66,T,,M,1.69,N,3.1,K,D*03
$GPGGA,202711.000,3748.7901,N,12217.8334,W,2,06,1.7,-5.8,M,-25.1,M,2.8,0000*69
$GPGSA,A,3,15,08,26,17,28,13,,,,,,,2.1,1.7,1.3*33
$GPRMC,202711.000,A,3748.7901,N,12217.8334,W,1.27,106.72,200711,,,D*71
$GPVTG,106.72,T,,M,1.27,N,2.4,K,D*08
$GPGGA,202712.000,3748.7898,N,12217.8330,W,2,06,1.7,-5.6,M,-25.1,M,3.8,0000*60
$GPGSA,A,3,15,08,26,17,28,13,,,,,,,2.1,1.7,1.3*33
$GPRMC,202712.000,A,3748.7898,N,12217.8330,W,1.41,127.91,200711,,,D*79
$GPVTG,127.91,T,,M,1.41,N,2.6,K,D*04
$GPGGA,202713.000,3748.7894,N,12217.8326,W,2,06,1.7,-5.9,M,-25.1,M,4.8,0000*62
$GPGSA,A,3,15,08,26,17,28,13,,,,,,,2.1,1.7,1.3*33
$GPRMC,202713.000,A,3748.7894,N,12217.8326,W,1.86,126.49,200711,,,D*7C
$GPVTG,126.49,T,,M,1.86,N,3.4,K,D*08
$GPGGA,202714.000,3748.7892,N,12217.8320,W,2,06,1.7,-6.7,M,-25.1,M,1.8,0000*6D
$GPGSA,A,3,15,08,26,17,28,13,,,,,,,2.1,1.7,1.3*33
$GPRMC,202714.000,A,3748.7892,N,12217.8320,W,1.64,114.39,200711,,,D*71
$GPVTG,114.39,T,,M,1.64,N,3.0,K,D*06
$GPGGA,202715.000,3748.7890,N,12217.8311,W,2,06,1.7,-6.7,M,-25.1,M,1.8,0000*6C
$GPGSA,A,3,15,08,26,17,28,13,,,,,,,2.1,1.7,1.3*33
$GPGSV,3,1,12,28,69,281,23,08,66,037,27,07,48,087,32,26,39,311,23*77
$GPGSV,3,2,12,01,32,251,,17,22,186,39,11,17,093,27,19,17,042,25*78
$GPGSV,3,3,12,05,13,259,30,13,10,154,43,15,05,322,18,10,04,211,*78
$GPRMC,202715.000,A,3748.7890,N,12217.8311,W,1.76,101.58,200711,,,D*70
$GPVTG,101.58,T,,M,1.76,N,3.3,K,D*05
$GPGGA,202716.000,3748.7889,N,12217.8308,W,2,06,1.7,-8.2,M,-25.1,M,1.8,0000*64
$GPGSA,A,3,15,08,26,17,28,13,,,,,,,2.1,1.7,1.3*33
$GPRMC,202716.000,A,3748.7889,N,12217.8308,W,1.54,110.19,200711,,,D*76
$GPVTG,110.19,T,,M,1.54,N,2.8,K,D*0A
$GPGGA,202717.000,3748.7887,N,12217.8299,W,2,06,1.7,-9.3,M,-25.1,M,2.8,0000*61
$GPGSA,A,3,15,08,26,17,28,13,,,,,,,2.1,1.7,1.3*33
$GPRMC,202717.000,A,3748.7887,N,12217.8299,W,1.88,114.15,200711,,,D*79
$GPVTG,114.15,T,,M,1.88,N,3.5,K,D*0F
$GPGGA,202718.000,3748.7886,N,12217.8290,W,2,06,1.7,-10.9,M,-25.1,M,3.8,0000*55
$GPGSA,A,3,15,08,26,17,28,13,,,,,,,2.1,1.7,1.3*33
$GPRMC,202718.000,A,3748.7886,N,12217.8290,W,1.94,113.66,200711,,,D*70
$GPVTG,113.66,T,,M,1.94,N,3.6,K,D*02
$GPGGA,202719.000,3748.7882,N,12217.8284,W,2,06,1.7,-11.8,M,-25.1,M,4.8,0000*52
$GPGSA,A,3,15,08,26,17,28,13,,,,,,,2.1,1.7,1.3*33
$GPRMC,202719.000,A,3748.7882,N,12217.8284,W,1.94,119.45,200711,,,D*7B
$GPVTG,119.45,T,,M,1.94,N,3.6,K,D*09
$GPGGA,202720.000,3748.7881,N,12217.8276,W,2,06,1.7,-12.8,M,-25.1,M,1.8,0000*50
$GPGSA,A,3,15,08,26,17,28,13,,,,,,,2.1,1.7,1.3*33
$GPGSV,3,1,12,28,69,281,23,08,66,037,27,07,48,087,31,26,39,311,24*73
$GPGSV,3,2,12,01,32,251,,17,22,186,39,11,17,093,27,19,17,042,24*79
$GPGSV,3,3,12,05,13,259,35,13,10,154,42,15,05,322,19,10,04,211,*7D
$GPRMC,202720.000,A,3748.7881,N,12217.8276,W,1.70,102.44,200711,,,D*7E
$GPVTG,102.44,T,,M,1.70,N,3.2,K,D*0C
$GPGGA,202721.000,3748.7880,N,12217.8265,W,2,06,1.7,-13.5,M,-25.1,M,0.8,0000*5F
$GPGSA,A,3,15,08,26,17,28,13,,,,,,,2.1,1.7,1.3*33
$GPRMC,202721.000,A,3748.7880,N,12217.8265,W,1.60,94.16,200711,,,D*44
$GPVTG,94.16,T,,M,1.60,N,3.0,K,D*36
$GPGGA,202722.000,3748.7879,N,12217.8259,W,2,06,1.7,-14.0,M,-25.1,M,1.8,0000*56
$GPGSA,A,3,15,08,26,17,28,13,,,,,,,2.1,1.7,1.3*33
$GPRMC,202722.000,A,3748.7879,N,12217.8259,W,1.24,107.54,200711,,,D*73
$GPVTG,107.54,T,,M,1.24,N,2.3,K,D*09
$GPGGA,202723.000,3748.7875,N,12217.8257,W,2,06,1.7,-14.0,M,-25.1,M,2.8,0000*56
$GPGSA,A,3,15,08,26,17,28,13,,,,,,,2.1,1.7,1.3*33
$GPRMC,202723.000,A,3748.7875,N,12217.8257,W,1.35,110.06,200711,,,D*71
$GPVTG,110.06,T,,M,1.35,N,2.5,K,D*0E
$GPGGA,202724.000,3748.7872,N,12217.8252,W,2,06,1.7,-14.5,M,-25.1,M,3.8,0000*57
$GPGSA,A,3,15,08,26,17,28,13,,,,,,,2.1,1.7,1.3*33
$GPRMC,202724.000,A,3748.7872,N,12217.8252,W,2.03,110.17,200711,,,D*72
$GPVTG,110.17,T,,M,2.03,N,3.8,K,D*04
$GPGGA,202725.000,3748.7869,N,12217.8249,W,2,06,1.7,-15.8,M,-25.1,M,4.8,0000*5D
$GPGSA,A,3,15,08,26,17,28,13,,,,,,,2.1,1.7,1.3*33
$GPGSV,3,1,12,28,69,281,23,08,66,037,27,07,48,087,31,26,39,311,31*77
$GPGSV,3,2,12,01,32,251,,17,22,186,38,11,17,093,27,19,17,042,23*7F
$GPGSV,3,3,12,05,13,259,33,13,10,154,40,15,05,322,19,10,04,211,*79
$GPRMC,202725.000,A,3748.7869,N,12217.8249,W,1.96,110.46,200711,,,D*78
$GPGGA,202726.000,3748.7867,N,12217.8245,W,2,06,1.7,-17.5,M,-25.1,M,1.8,0000*56
$GPGSA,A,3,15,08,26,17,28,13,,,,,,,2.1,1.7,1.3*33
$GPRMC,202726.000,A,3748.7867,N,12217.8245,W,1.72,107.30,200711,,,D*74
$GPVTG,107.30,T,,M,1.72,N,3.2,K,D*08
$GPGGA,202727.000,3748.7864,N,12217.8238,W,2,05,1.8,-17.5,M,-25.1,M,1.8,0000*52
$GPGSA,A,3,15,08,17,28,13,,,,,,,,2.2,1.8,1.3*3B
$GPRMC,202727.000,A,3748.7864,N,12217.8238,W,2.28,100.72,200711,,,D*71
$GPVTG,100.72,T,,M,2.28,N,4.2,K,D*02
$GPGGA,202728.000,3748.7859,N,12217.8235,W,2,06,1.7,-16.9,M,-25.1,M,2.8,0000*5C
$GPGSA,A,3,15,08,26,17,28,13,,,,,,,2.1,1.7,1.3*33
$GPRMC,202728.000,A,3748.7859,N,12217.8235,W,1.74,100.30,200711,,,D*71
$GPVTG,100.30,T,,M,1.74,N,3.2,K,D*09
$GPGGA,202729.000,3748.7854,N,12217.8229,W,2,06,1.7,-16.8,M,-25.1,M,3.8,0000*5D
$GPGSA,A,3,15,08,26,17,28,13,,,,,,,2.1,1.7,1.3*33
$GPRMC,202729.000,A,3748.7854,N,12217.8229,W,1.76,103.85,200711,,,D*7F
$GPVTG,103.85,T,,M,1.76,N,3.3,K,D*07
$GPGGA,202730.000,3748.7852,N,12217.8222,W,2,06,1.7,-17.2,M,-25.1,M,4.8,0000*54
$GPGSA,A,3,15,08,26,17,28,13,,,,,,,2.1,1.7,1.3*33
$GPGSV,3,1,12,28,69,281,24,08,66,037,27,07,48,087,32,26,39,311,24*77
$GPGSV,3,2,12,01,32,251,,17,22,186,38,11,17,093,26,19,17,042,22*7F
$GPGSV,3,3,12,05,13,259,33,13,10,154,39,15,05,322,19,10,04,211,*77
$GPRMC,202730.000,A,3748.7852,N,12217.8222,W,1.59,95.25,200711,,,D*43
$GPVTG,95.25,T,,M,1.59,N,3.0,K,D*3D
$GPGGA,202731.000,3748.7848,N,12217.8217,W,2,06,1.7,-16.9,M,-25.1,M,5.8,0000*53
$GPGSA,A,3,15,08,26,17,28,13,,,,,,,2.1,1.7,1.3*33
$GPRMC,202731.000,A,3748.7848,N,12217.8217,W,1.64,109.14,200711,,,D*77
$GPVTG,109.14,T,,M,1.64,N,3.0,K,D*05
$GPGGA,202732.000,3748.7844,N,12217.8210,W,2,06,1.7,-17.5,M,-25.1,M,1.8,0000*52
$GPGSA,A,3,15,08,26,17,28,13,,,,,,,2.1,1.7,1.3*33
$GPRMC,202732.000,A,3748.7844,N,12217.8210,W,1.90,116.35,200711,,,D*79
$GPVTG,116.35,T,,M,1.90,N,3.5,K,D*06
$GPGGA,202733.000,3748.7844,N,12217.8195,W,2,06,1.7,-18.4,M,-25.1,M,1.8,0000*53
$GPGSA,A,3,15,08,26,17,28,13,,,,,,,2.1,1.7,1.3*33
$GPRMC,202733.000,A,3748.7844,N,12217.8195,W,2.20,104.62,200711,,,D*7F
$GPVTG,104.62,T,,M,2.20,N,4.1,K,D*0C
$GPGGA,202734.000,3748.7840,N,12217.8183,W,2,06,1.7,-17.6,M,-25.1,M,1.8,0000*5A
$GPGSA,A,3,15,08,26,17,28,13,,,,,,,2.1,1.7,1.3*33
$GPRMC,202734.000,A,3748.7840,N,12217.8183,W,1.88,101.71,200711,,,D*7D
$GPVTG,101.71,T,,M,1.88,N,3.5,K,D*09
$GPGGA,202735.000,3748.7837,N,12217.8171,W,2,06,1.7,-17.1,M,-25.1,M,2.8,0000*52
$GPGSA,A,3,15,08,26,17,28,13,,,,,,,2.1,1.7,1.3*33
$GPGSV,3,1,12,28,69,281,24,08,66,037,26,07,48,087,31,26,39,311,24*75
$GPGSV,3,2,12,01,32,251,,17,22,186,38,11,17,093,28,19,17,042,23*70
$GPGSV,3,3,12,05,13,259,31,13,10,154,39,15,05,322,19,10,04,211,*75
$GPRMC,202735.000,A,3748.7837,N,12217.8171,W,1.67,92.33,200711,,,D*4D
$GPVTG,92.33,T,,M,1.67,N,3.1,K,D*31
$GPGGA,202736.000,3748.7834,N,12217.8163,W,2,06,1.7,-16.5,M,-25.1,M,3.8,0000*55
$GPGSA,A,3,15,08,26,17,28,13,,,,,,,2.1,1.7,1.3*33
$GPRMC,202736.000,A,3748.7834,N,12217.8163,W,1.39,93.66,200711,,,D*44
$GPVTG,93.66,T,,M,1.39,N,2.6,K,D*3D
$GPGGA,202737.000,3748.7832,N,12217.8160,W,2,06,1.7,-16.9,M,-25.1,M,1.8,0000*5F
$GPGSA,A,3,15,08,26,17,28,13,,,,,,,2.1,1.7,1.3*33
$GPRMC,202737.000,A,3748.7832,N,12217.8160,W,1.28,104.65,200711,,,D*7C
$GPVTG,104.65,T,,M,1.28,N,2.4,K,D*03
$GPGGA,202738.000,3748.7829,N,12217.8158,W,2,06,1.7,-17.3,M,-25.1,M,1.8,0000*5A
$GPGSA,A,3,15,08,26,17,28,13,,,,,,,2.1,1.7,1.3*33
$GPRMC,202738.000,A,3748.7829,N,12217.8158,W,1.60,114.56,200711,,,D*7F
$GPVTG,114.56,T,,M,1.60,N,3.0,K,D*0B
$GPGGA,202739.000,3748.7824,N,12217.8153,W,2,06,1.7,-16.8,M,-25.1,M,2.8,0000*54
$GPGSA,A,3,15,08,26,17,28,13,,,,,,,2.1,1.7,1.3*33
$GPRMC,202739.000,A,3748.7824,N,12217.8153,W,1.68,111.03,200711,,,D*75
$GPVTG,111.03,T,,M,1.68,N,3.1,K,D*07
$GPGGA,202740.000,3748.7823,N,12217.8140,W,2,06,1.7,-17.5,M,-25.1,M,1.8,0000*50
$GPGSA,A,3,15,08,26,17,28,13,,,,,,,2.1,1.7,1.3*33
$GPGSV,3,1,12,28,69,281,24,08,66,037,26,07,48,087,31,26,39,311,25*74
$GPGSV,3,2,12,01,32,251,,17,22,186,34,11,17,093,27,19,17,042,20*70
$GPGSV,3,3,12,05,13,259,26,13,10,154,39,15,05,322,18,10,04,211,*72
$GPRMC,202740.000,A,3748.7823,N,12217.8140,W,2.04,103.89,200711,,,D*76
$GPVTG,103.89,T,,M,2.04,N,3.8,K,D*06
$GPGGA,202741.000,3748.7820,N,12217.8133,W,2,06,1.7,-17.8,M,-25.1,M,2.8,0000*58
$GPGSA,A,3,15,08,26,17,28,13,,,,,,,2.1,1.7,1.3*33
$GPRMC,202741.000,A,3748.7820,N,12217.8133,W,2.15,108.96,200711,,,D*75
$GPVTG,108.96,T,,M,2.15,N,4.0,K,D*0C
$GPGGA,202742.000,3748.7816,N,12217.8127,W,2,06,1.7,-18.0,M,-25.1,M,1.8,0000*5F
$GPGSA,A,3,15,08,26,17,28,13,,,,,,,2.1,1.7,1.3*33
$GPRMC,202742.000,A,3748.7816,N,12217.8127,W,2.17,119.35,200711,,,D*7D
$GPVTG,119.35,T,,M,2.17,N,4.0,K,D*07
$GPGGA,202743.000,3748.7812,N,12217.8119,W,2,06,1.7,-18.2,M,-25.1,M,2.8,0000*56
$GPGSA,A,3,15,08,26,17,28,13,,,,,,,2.1,1.7,1.3*33
$GPRMC,202743.000,A,3748.7812,N,12217.8119,W,1.86,116.35,200711,,,D*71
$GPVTG,116.35,T,,M,1.86,N,3.4,K,D*00
$GPGGA,202744.000,3748.7810,N,12217.8113,W,2,06,1.7,-19.0,M,-25.1,M,1.8,0000*59
$GPGSA,A,3,15,08,26,17,28,13,,,,,,,2.1,1.7,1.3*33
$GPRMC,202744.000,A,3748.7810,N,12217.8113,W,2.09,109.03,200711,,,D*71
$GPVTG,109.03,T,,M,2.09,N,3.9,K,D*02
$GPGGA,202745.000,3748.7804,N,12217.8105,W,2,06,1.7,-18.1,M,-25.1,M,1.8,0000*5A
$GPGSA,A,3,15,08,26,17,28,13,,,,,,,2.1,1.7,1.3*33
$GPGSV,3,1,12,28,69,281,23,08,66,037,27,07,48,087,31,26,39,311,25*72
$GPGSV,3,2,12,01,32,251,,17,22,186,36,11,17,093,35,19,17,042,22*73
$GPGSV,3,3,12,05,13,259,28,13,10,154,36,15,05,322,18,10,04,211,*73
$GPRMC,202745.000,A,3748.7804,N,12217.8105,W,2.14,107.97,200711,,,D*7D
$GPGGA,202746.000,3748.7798,N,12217.8097,W,2,06,1.7,-16.8,M,-25.1,M,1.8,0000*5E
$GPGSA,A,3,15,08,26,17,28,13,,,,,,,2.1,1.7,1.3*33
$GPRMC,202746.000,A,3748.7798,N,12217.8097,W,2.08,109.24,200711,,,D*75
$GPVTG,109.24,T,,M,2.08,N,3.9,K,D*06
$GPGGA,202747.000,3748.7793,N,12217.8091,W,2,06,1.7,-16.2,M,-25.1,M,1.8,0000*58
$GPGSA,A,3,15,08,26,17,28,13,,,,,,,2.1,1.7,1.3*33
$GPRMC,202747.000,A,3748.7793,N,12217.8091,W,1.97,111.64,200711,,,D*71
$GPVTG,111.64,T,,M,1.97,N,3.6,K,D*01
$GPGGA,202748.000,3748.7787,N,12217.8088,W,2,06,1.7,-15.2,M,-25.1,M,2.8,0000*5A
$GPGSA,A,3,15,08,26,17,28,13,,,,,,,2.1,1.7,1.3*33
$GPRMC,202748.000,A,3748.7787,N,12217.8088,W,1.58,107.80,200711,,,D*7D
$GPVTG,107.80,T,,M,1.58,N,2.9,K,D*01
$GPGGA,202749.000,3748.7781,N,12217.8080,W,2,06,1.7,-13.9,M,-25.1,M,3.8,0000*59
$GPGSA,A,3,15,08,26,17,28,13,,,,,,,2.1,1.7,1.3*33
$GPRMC,202749.000,A,3748.7781,N,12217.8080,W,1.26,99.37,200711,,,D*41
$GPVTG,99.37,T,,M,1.26,N,2.3,K,D*38
$GPGGA,202750.000,3748.7777,N,12217.8066,W,2,05,2.0,-12.7,M,-25.1,M,1.8,0000*5A
$GPGSA,A,3,08,26,17,28,13,,,,,,,,3.2,2.0,2.6*37
$GPGSV,3,1,12,28,69,282,22,08,66,038,28,07,48,087,31,26,39,310,25*71
$GPGSV,3,2,12,01,32,252,,17,23,186,37,11,17,093,27,19,17,042,18*7A
$GPGSV,3,3,12,05,13,258,31,13,10,154,32,15,05,322,18,10,04,211,*7E
$GPRMC,202750.000,A,3748.7777,N,12217.8066,W,2.16,108.65,200711,,,D*76
$GPVTG,108.65,T,,M,2.16,N,4.0,K,D*03
$GPGGA,202751.000,3748.7773,N,12217.8055,W,2,06,1.7,-11.8,M,-25.1,M,1.8,0000*54
$GPGSA,A,3,15,08,26,17,28,13,,,,,,,2.1,1.7,1.3*33
$GPRMC,202751.000,A,3748.7773,N,12217.8055,W,1.69,113.64,200711,,,D*73
$GPVTG,113.64,T,,M,1.69,N,3.1,K,D*05
$GPGGA,202752.000,3748.7767,N,12217.8062,W,2,06,1.7,-12.1,M,-25.1,M,1.8,0000*5C
$GPGSA,A,3,15,08,26,17,28,13,,,,,,,2.1,1.7,1.3*33
$GPRMC,202752.000,A,3748.7767,N,12217.8062,W,1.18,137.73,200711,,,D*77
$GPVTG,137.73,T,,M,1.18,N,2.2,K,D*01
$GPGGA,202753.000,3748.7761,N,12217.8064,W,2,06,1.7,-12.1,M,-25.1,M,0.8,0000*5C
$GPGSA,A,3,15,08,26,17,28,13,,,,,,,2.1,1.7,1.3*33
$GPRMC,202753.000,A,3748.7761,N,12217.8064,W,1.64,140.89,200711,,,D*78
$GPVTG,140.89,T,,M,1.64,N,3.0,K,D*0C
$GPGGA,202754.000,3748.7755,N,12217.8066,W,2,06,1.7,-11.8,M,-25.1,M,1.8,0000*55
$GPGSA,A,3,15,08,26,17,28,13,,,,,,,2.1,1.7,1.3*33
$GPRMC,202754.000,A,3748.7755,N,12217.8066,W,1.49,115.01,200711,,,D*75
$GPVTG,115.01,T,,M,1.49,N,2.8,K,D*0A
$GPGGA,202755.000,3748.7756,N,12217.8058,W,2,06,1.7,-12.6,M,-25.1,M,2.8,0000*54
$GPGSA,A,3,15,08,26,17,28,13,,,,,,,2.1,1.7,1.3*33
$GPGSV,3,1,12,28,69,282,19,08,66,038,24,07,48,087,31,26,39,310,25*75
$GPGSV,3,2,12,01,32,252,,17,23,186,38,11,17,093,30,19,17,042,*7A
$GPGSV,3,3,12,05,13,258,34,13,10,154,37,15,05,322,17,10,04,211,*71
$GPRMC,202755.000,A,3748.7756,N,12217.8058,W,1.25,100.02,200711,,,D*77
$GPVTG,100.02,T,,M,1.25,N,2.3,K,D*0C
$GPGGA,202756.000,3748.7757,N,12217.8043,W,2,06,1.7,-12.5,M,-25.1,M,1.8,0000*5C
$GPGSA,A,3,15,08,26,17,28,13,,,,,,,2.1,1.7,1.3*33
$GPRMC,202756.000,A,3748.7757,N,12217.8043,W,1.45,101.24,200711,,,D*7C
$GPVTG,101.24,T,,M,1.45,N,2.7,K,D*0B
$GPGGA,202757.000,3748.7755,N,12217.8038,W,2,06,1.7,-12.5,M,-25.1,M,1.8,0000*53
$GPGSA,A,3,15,08,26,17,28,13,,,,,,,2.1,1.7,1.3*33
$GPRMC,202757.000,A,3748.7755,N,12217.8038,W,1.91,104.92,200711,,,D*72
$GPVTG,104.92,T,,M,1.91,N,3.5,K,D*09
$GPGGA,202758.000,3748.7755,N,12217.8028,W,2,06,1.7,-12.8,M,-25.1,M,1.8,0000*50
$GPGSA,A,3,15,08,26,17,28,13,,,,,,,2.1,1.7,1.3*33
$GPRMC,202758.000,A,3748.7755,N,12217.8028,W,1.99,109.54,200711,,,D*73
$GPVTG,109.54,T,,M,1.99,N,3.7,K,D*04
$GPGGA,202759.000,3748.7754,N,12217.8022,W,2,06,1.7,-13.3,M,-25.1,M,1.8,0000*50
$GPGSA,A,3,15,08,26,17,28,13,,,,,,,2.1,1.7,1.3*33
$GPRMC,202759.000,A,3748.7754,N,12217.8022,W,2.00,111.37,200711,,,D*76
$GPVTG,111.37,T,,M,2.00,N,3.7,K,D*0B
$GPGGA,202800.000,3748.7749,N,12217.8025,W,2,06,1.7,-13.4,M,-25.1,M,2.8,0000*5C
$GPGSA,A,3,15,08,26,17,28,13,,,,,,,2.1,1.7,1.3*33
$GPGSV,3,1,12,28,69,282,25,08,66,038,25,07,48,087,31,26,39,310,26*78
$GPGSV,3,2,12,01,32,252,,17,23,186,37,11,17,093,25,19,17,042,21*72
$GPGSV,3,3,12,05,13,258,34,13,10,154,37,15,05,322,17,10,04,211,*71
$GPRMC,202800.000,A,3748.7749,N,12217.8025,W,1.75,115.34,200711,,,D*78
$GPVTG,115.34,T,,M,1.75,N,3.2,K,D*08
$GPGGA,202801.000,3748.7746,N,12217.8023,W,2,06,1.7,-13.4,M,-25.1,M,3.8,0000*55
$GPGSA,A,3,15,08,26,17,28,13,,,,,,,2.1,1.7,1.3*33
$GPRMC,202801.000,A,3748.7746,N,12217.8023,W,1.30,125.98,200711,,,D*74
$GPVTG,125.98,T,,M,1.30,N,2.4,K,D*0B
$GPGGA,202802.000,3748.7743,N,12217.8023,W,2,06,1.7,-13.4,M,-25.1,M,1.8,0000*51
$GPGSA,A,3,15,08,26,17,28,13,,,,,,,2.1,1.7,1.3*33
$GPRMC,202802.000,A,3748.7743,N,12217.8023,W,1.31,129.62,200711,,,D*7A
$GPVTG,129.62,T,,M,1.31,N,2.4,K,D*03
$GPGGA,202803.000,3748.7741,N,12217.8022,W,2,07,1.3,-13.9,M,-25.1,M,1.8,0000*5B
$GPGSA,A,3,15,08,26,17,28,13,05,,,,,,1.8,1.3,1.3*38
$GPRMC,202803.000,A,3748.7741,N,12217.8022,W,1.33,117.04,200711,,,D*77
$GPVTG,117.04,T,,M,1.33,N,2.5,K,D*0D
$GPGGA,202804.000,3748.7740,N,12217.8022,W,2,07,1.3,-14.5,M,-25.1,M,1.8,0000*56
$GPGSA,A,3,15,08,26,17,28,13,05,,,,,,1.8,1.3,1.3*38
$GPRMC,202804.000,A,3748.7740,N,12217.8022,W,1.53,98.83,200711,,,D*4E
$GPVTG,98.83,T,,M,1.53,N,2.8,K,D*3F
$GPGGA,202805.000,3748.7740,N,12217.8016,W,2,07,1.3,-15.2,M,-25.1,M,2.8,0000*55
$GPGSA,A,3,15,08,26,17,28,13,05,,,,,,1.8,1.3,1.3*38
$GPGSV,3,1,12,28,69,282,26,08,66,039,25,07,48,087,31,26,39,310,31*7C
$GPGSV,3,2,12,01,32,252,,17,23,186,37,11,17,092,29,19,17,042,20*7E
$GPGSV,3,3,12,05,13,258,33,13,10,154,33,15,05,322,17,10,04,211,*72
$GPRMC,202805.000,A,3748.7740,N,12217.8016,W,1.58,94.47,200711,,,D*47
$GPGGA,202806.000,3748.7741,N,12217.8011,W,2,07,1.3,-16.3,M,-25.1,M,3.8,0000*53
$GPGSA,A,3,15,08,26,17,28,13,05,,,,,,1.8,1.3,1.3*38
$GPRMC,202806.000,A,3748.7741,N,12217.8011,W,1.52,98.28,200711,,,D*4D
$GPVTG,98.28,T,,M,1.52,N,2.8,K,D*3F
$GPGGA,202807.000,3748.7740,N,12217.8004,W,2,07,1.3,-16.5,M,-25.1,M,4.8,0000*56
$GPGSA,A,3,15,08,26,17,28,13,05,,,,,,1.8,1.3,1.3*38
$GPRMC,202807.000,A,3748.7740,N,12217.8004,W,1.42,99.97,200711,,,D*4D
$GPVTG,99.97,T,,M,1.42,N,2.6,K,D*35
$GPGGA,202808.000,3748.7737,N,12217.8001,W,2,07,1.3,-15.9,M,-25.1,M,1.8,0000*56
$GPGSA,A,3,15,08,26,17,28,13,05,,,,,,1.8,1.3,1.3*38
$GPRMC,202808.000,A,3748.7737,N,12217.8001,W,1.82,94.76,200711,,,D*49
$GPVTG,94.76,T,,M,1.82,N,3.4,K,D*38
$GPGGA,202809.000,3748.7735,N,12217.7990,W,2,07,1.3,-15.6,M,-25.1,M,1.8,0000*54
$GPGSA,A,3,15,08,26,17,28,13,05,,,,,,1.8,1.3,1.3*38
$GPRMC,202809.000,A,3748.7735,N,12217.7990,W,1.66,104.89,200711,,,D*76
$GPVTG,104.89,T,,M,1.66,N,3.1,K,D*0F
$GPGGA,202810.000,3748.7736,N,12217.7979,W,2,07,1.3,-16.9,M,-25.1,M,1.8,0000*54
$GPGSA,A,3,15,08,26,17,28,13,05,,,,,,1.8,1.3,1.3*38
$GPGSV,3,1,12,28,69,282,26,08,66,039,29,07,48,087,32,26,39,310,30*72
$GPGSV,3,2,12,01,32,252,,17,23,186,34,11,17,092,30,19,17,042,20*75
$GPGSV,3,3,12,05,13,258,34,13,10,154,29,15,05,322,17,10,04,211,*7E
$GPRMC,202810.000,A,3748.7736,N,12217.7979,W,1.77,104.81,200711,,,D*72
$GPVTG,104.81,T,,M,1.77,N,3.3,K,D*05
$GPGGA,202811.000,3748.7737,N,12217.7968,W,2,07,1.3,-18.8,M,-25.1,M,2.8,0000*58
$GPGSA,A,3,15,08,26,17,28,13,05,,,,,,1.8,1.3,1.3*38
$GPRMC,202811.000,A,3748.7737,N,12217.7968,W,1.72,93.18,200711,,,D*48
$GPVTG,93.18,T,,M,1.72,N,3.2,K,D*3E
$GPGGA,202812.000,3748.7736,N,12217.7962,W,2,07,1.3,-18.9,M,-25.1,M,3.8,0000*50
$GPGSA,A,3,15,08,26,17,28,13,05,,,,,,1.8,1.3,1.3*38
$GPRMC,202812.000,A,3748.7736,N,12217.7962,W,1.33,85.29,200711,,,D*40
$GPVTG,85.29,T,,M,1.33,N,2.5,K,D*38
$GPGGA,202813.000,3748.7732,N,12217.7960,W,2,07,1.3,-18.4,M,-25.1,M,4.8,0000*5D
$GPGSA,A,3,15,08,26,17,28,13,05,,,,,,1.8,1.3,1.3*38
$GPRMC,202813.000,A,3748.7732,N,12217.7960,W,1.06,98.70,200711,,,D*41
$GPVTG,98.70,T,,M,1.06,N,2.0,K,D*3B
$GPGGA,202814.000,3748.7730,N,12217.7956,W,2,07,1.3,-18.3,M,-25.1,M,1.8,0000*5F
$GPGSA,A,3,15,08,26,17,28,13,05,,,,,,1.8,1.3,1.3*38
$GPRMC,202814.000,A,3748.7730,N,12217.7956,W,0.99,111.39,200711,,,D*7B
$GPVTG,111.39,T,,M,0.99,N,1.8,K,D*0A
$GPGGA,202815.000,3748.7727,N,12217.7957,W,2,07,1.3,-18.0,M,-25.1,M,1.8,0000*5A
$GPGSA,A,3,15,08,26,17,28,13,05,,,,,,1.8,1.3,1.3*38
$GPGSV,3,1,12,28,69,282,26,08,66,039,23,07,48,087,30,26,39,310,29*72
$GPGSV,3,2,12,01,32,252,,17,23,186,36,11,17,092,23,19,17,042,23*76
$GPGSV,3,3,12,05,13,258,34,13,10,154,24,15,05,322,17,10,04,211,*73
$GPRMC,202815.000,A,3748.7727,N,12217.7957,W,0.99,111.00,200711,,,D*77
$GPVTG,111.00,T,,M,0.99,N,1.8,K,D*00
$GPGGA,202816.000,3748.7725,N,12217.7954,W,2,07,1.3,-18.3,M,-25.1,M,1.8,0000*5B
$GPGSA,A,3,15,08,26,17,28,13,05,,,,,,1.8,1.3,1.3*38
$GPRMC,202816.000,A,3748.7725,N,12217.7954,W,1.12,93.91,200711,,,D*44
$GPVTG,93.91,T,,M,1.12,N,2.1,K,D*3B
$GPGGA,202817.000,3748.7726,N,12217.7947,W,2,06,1.6,-18.7,M,-25.1,M,2.8,0000*58
$GPGSA,A,3,15,08,26,17,28,05,,,,,,,2.3,1.6,1.7*33
$GPRMC,202817.000,A,3748.7726,N,12217.7947,W,1.02,79.00,200711,,,D*49
$GPVTG,79.00,T,,M,1.02,N,1.9,K,D*3D
$GPGGA,202818.000,3748.7727,N,12217.7943,W,2,07,1.3,-18.9,M,-25.1,M,1.8,0000*5B
$GPGSA,A,3,15,08,26,17,28,13,05,,,,,,1.8,1.3,1.3*38
$GPRMC,202818.000,A,3748.7727,N,12217.7943,W,1.05,23.27,200711,,,D*4E
$GPVTG,23.27,T,,M,1.05,N,1.9,K,D*30
$GPGGA,202819.000,3748.7729,N,12217.7943,W,2,07,1.3,-19.1,M,-25.1,M,2.8,0000*5E
$GPGSA,A,3,15,08,26,17,28,13,05,,,,,,1.8,1.3,1.3*38
$GPRMC,202819.000,A,3748.7729,N,12217.7943,W,1.09,313.54,200711,,,D*79
$GPVTG,313.54,T,,M,1.09,N,2.0,K,D*02
$GPGGA,202820.000,3748.7733,N,12217.7947,W,2,07,1.3,-19.4,M,-25.1,M,3.8,0000*5F
$GPGSA,A,3,15,08,26,17,28,13,05,,,,,,1.8,1.3,1.3*38
$GPGSV,3,1,12,28,69,282,27,08,66,039,35,07,48,087,32,26,39,310,36*78
$GPGSV,3,2,12,01,32,252,,17,23,186,26,11,17,092,24,19,17,042,30*72
$GPGSV,3,3,12,05,13,258,29,13,10,154,13,15,05,322,18,10,04,211,*74
$GPRMC,202820.000,A,3748.7733,N,12217.7947,W,1.94,297.07,200711,,,D*73
$GPVTG,297.07,T,,M,1.94,N,3.6,K,D*0A
$GPGGA,202821.000,3748.7735,N,12217.7955,W,2,06,1.6,-17.9,M,-25.1,M,4.8,0000*5B
$GPGSA,A,3,15,08,26,17,28,05,,,,,,,2.3,1.6,1.7*33
$GPRMC,202821.000,A,3748.7735,N,12217.7955,W,1.97,291.99,200711,,,D*75
$GPVTG,291.99,T,,M,1.97,N,3.6,K,D*08
$GPGGA,202822.000,3748.7735,N,12217.7963,W,2,06,1.6,-17.3,M,-25.1,M,5.8,0000*56
$GPGSA,A,3,15,08,26,17,28,05,,,,,,,2.3,1.6,1.7*33
$GPRMC,202822.000,A,3748.7735,N,12217.7963,W,1.99,286.35,200711,,,D*7D
$GPVTG,286.35,T,,M,1.99,N,3.7,K,D*07
$GPGGA,202823.000,3748.7733,N,12217.7977,W,2,07,1.3,-14.7,M,-25.1,M,6.8,0000*54
$GPGSA,A,3,15,08,26,17,28,13,05,,,,,,1.8,1.3,1.3*38
$GPRMC,202823.000,A,3748.7733,N,12217.7977,W,2.09,283.90,200711,,,D*7F
$GPVTG,283.90,T,,M,2.09,N,3.9,K,D*09
$GPGGA,202824.000,3748.7736,N,12217.7982,W,2,07,1.3,-14.8,M,-25.1,M,7.8,0000*52
$GPGSA,A,3,15,08,26,17,28,13,05,,,,,,1.8,1.3,1.3*38
$GPRMC,202824.000,A,3748.7736,N,12217.7982,W,2.06,302.94,200711,,,D*74
$GPVTG,302.94,T,,M,2.06,N,3.8,K,D*0B
$GPGGA,202825.000,3748.7733,N,12217.7994,W,2,07,1.3,-12.2,M,-25.1,M,8.8,0000*52
$GPGSA,A,3,15,08,26,17,28,13,05,,,,,,1.8,1.3,1.3*38
$GPGSV,3,1,12,28,69,282,24,08,66,039,35,07,48,087,34,26,39,310,37*7C
$GPGSV,3,2,12,01,32,252,,17,23,186,24,11,17,092,28,19,17,042,19*77
$GPGSV,3,3,12,05,13,258,32,13,10,154,19,15,05,322,24,10,04,211,*7B
$GPRMC,202825.000,A,3748.7733,N,12217.7994,W,1.67,275.22,200711,,,D*7F
$GPGGA,202826.000,3748.7731,N,12217.8005,W,2,07,1.3,-10.5,M,-25.1,M,9.8,0000*59
$GPGSA,A,3,15,08,26,17,28,13,05,,,,,,1.8,1.3,1.3*38
$GPRMC,202826.000,A,3748.7731,N,12217.8005,W,1.91,273.90,200711,,,D*76
$GPVTG,273.90,T,,M,1.91,N,3.5,K,D*08
$GPGGA,202827.000,3748.7731,N,12217.8016,W,2,07,1.3,-8.7,M,-25.1,M,10.8,0000*59
$GPGSA,A,3,15,08,26,17,28,13,05,,,,,,1.8,1.3,1.3*38
$GPRMC,202827.000,A,3748.7731,N,12217.8016,W,1.88,290.68,200711,,,D*77
$GPVTG,290.68,T,,M,1.88,N,3.5,K,D*0A
$GPGGA,202828.000,3748.7735,N,12217.8021,W,2,07,1.3,-8.7,M,-25.1,M,11.8,0000*57
$GPGSA,A,3,15,08,26,17,28,13,05,,,,,,1.8,1.3,1.3*38
$GPRMC,202828.000,A,3748.7735,N,12217.8021,W,2.19,291.41,200711,,,D*79
$GPVTG,291.41,T,,M,2.19,N,4.1,K,D*08
$GPGGA,202829.000,3748.7738,N,12217.8027,W,2,07,1.3,-8.5,M,-25.1,M,12.8,0000*5C
$GPGSA,A,3,15,08,26,17,28,13,05,,,,,,1.8,1.3,1.3*38
$GPRMC,202829.000,A,3748.7738,N,12217.8027,W,1.61,293.13,200711,,,D*7A
$GPVTG,293.13,T,,M,1.61,N,3.0,K,D*07
$GPGGA,202830.000,3748.7742,N,12217.8030,W,2,07,1.3,-9.2,M,-25.1,M,13.8,0000*58
$GPGSA,A,3,15,08,26,17,28,13,05,,,,,,1.8,1.3,1.3*38
$GPGSV,3,1,12,28,69,282,25,08,66,039,35,07,48,087,34,26,39,310,36*7C
$GPGSV,3,2,12,01,32,252,,17,23,186,25,11,17,092,25,19,17,042,26*77
$GPGSV,3,3,12,05,13,258,31,13,10,154,21,15,05,322,21,10,04,211,*76
$GPRMC,202830.000,A,3748.7742,N,12217.8030,W,1.61,290.22,200711,,,D*78
$GPVTG,290.22,T,,M,1.61,N,3.0,K,D*06
$GPGGA,202831.000,3748.7744,N,12217.8036,W,2,07,1.3,-9.2,M,-25.1,M,14.8,0000*5E
$GPGSA,A,3,15,08,26,17,28,13,05,,,,,,1.8,1.3,1.3*38
$GPRMC,202831.000,A,3748.7744,N,12217.8036,W,1.50,282.86,200711,,,D*76
$GPVTG,282.86,T,,M,1.50,N,2.8,K,D*00
$GPGGA,202832.000,3748.7748,N,12217.8037,W,2,07,1.3,-10.3,M,-25.1,M,15.8,0000*68
$GPGSA,A,3,15,08,26,17,28,13,05,,,,,,1.8,1.3,1.3*38
$GPRMC,202832.000,A,3748.7748,N,12217.8037,W,0.98,294.98,200711,,,D*75
$GPVTG,294.98,T,,M,0.98,N,1.8,K,D*0E
$GPGGA,202833.000,3748.7753,N,12217.8040,W,2,07,1.3,-10.4,M,-25.1,M,16.8,0000*67
$GPGSA,A,3,15,08,26,17,28,13,05,,,,,,1.8,1.3,1.3*38
$GPRMC,202833.000,A,3748.7753,N,12217.8040,W,1.39,307.18,200711,,,D*77
$GPVTG,307.18,T,,M,1.39,N,2.6,K,D*0A
$GPGGA,202834.000,3748.7758,N,12217.8042,W,2,06,1.8,-10.3,M,-25.1,M,17.8,0000*65
$GPGSA,A,3,08,26,17,28,13,05,,,,,,,2.9,1.8,2.3*36
$GPRMC,202834.000,A,3748.7758,N,12217.8042,W,0.63,293.49,200711,,,D*7F
$GPVTG,293.49,T,,M,0.63,N,1.2,K,D*0B
$GPGGA,202835.000,3748.7758,N,12217.8040,W,1,06,1.8,-11.2,M,-25.1,M,,0000*75
$GPGSA,A,3,08,26,17,28,13,05,,,,,,,2.9,1.8,2.3*36
$GPGSV,3,1,12,28,69,282,25,08,66,039,34,07,48,087,35,26,39,310,35*7F
$GPGSV,3,2,12,01,32,252,,17,23,186,25,11,17,092,23,19,17,042,26*71
$GPGSV,3,3,12,05,13,258,31,13,10,154,26,15,05,322,10,10,04,211,*73
$GPRMC,202835.000,A,3748.7758,N,12217.8040,W,0.08,294.34,200711,,,A*79
$GPVTG,294.34,T,,M,0.08,N,0.2,K,A*0F
$GPGGA,202836.000,3748.7759,N,12217.8041,W,1,05,2.3,-11.0,M,-25.1,M,,0000*7F
$GPGSA,A,3,08,26,28,13,05,,,,,,,,3.5,2.3,2.7*31
$GPRMC,202836.000,A,3748.7759,N,12217.8041,W,0.04,307.22,200711,,,A*7A
$GPVTG,307.22,T,,M,0.04,N,0.1,K,A*0C
$GPGGA,202837.000,3748.7760,N,12217.8043,W,1,06,1.8,-10.5,M,-25.1,M,,0000*79
$GPGSA,A,3,08,26,17,28,13,05,,,,,,,2.9,1.8,2.3*36
$GPRMC,202837.000,A,3748.7760,N,12217.8043,W,0.25,195.21,200711,,,A*7A
$GPVTG,195.21,T,,M,0.25,N,0.5,K,A*01
$GPGGA,202838.000,3748.7762,N,12217.8045,W,1,06,1.8,-9.9,M,-25.1,M,,0000*46
$GPGSA,A,3,08,26,17,28,13,05,,,,,,,2.9,1.8,2.3*36
$GPRMC,202838.000,A,3748.7762,N,12217.8045,W,0.28,195.76,200711,,,A*7E
$GPVTG,195.76,T,,M,0.28,N,0.5,K,A*0E
$GPGGA,202839.000,3748.7764,N,12217.8044,W,1,06,1.8,-9.9,M,-25.1,M,,0000*40
$GPGSA,A,3,08,26,17,28,13,05,,,,,,,2.9,1.8,2.3*36
$GPRMC,202839.000,A,3748.7764,N,12217.8044,W,0.39,73.16,200711,,,A*47
$GPVTG,73.16,T,,M,0.39,N,0.7,K,A*33
$GPGGA,202840.000,3748.7760,N,12217.8051,W,1,06,1.8,-9.2,M,-25.1,M,,0000*45
$GPGSA,A,3,08,26,17,28,13,05,,,,,,,2.9,1.8,2.3*36
$GPGSV,3,1,12,28,69,282,31,08,66,039,24,07,48,087,25,26,39,310,35*7A
$GPGSV,3,2,12,01,32,252,,17,23,186,30,11,17,092,23,19,17,042,23*70
$GPGSV,3,3,12,05,13,258,38,13,10,154,27,15,05,322,12,10,04,211,*79
$GPRMC,202840.000,A,3748.7760,N,12217.8051,W,0.59,207.27,200711,,,A*7C
$GPVTG,207.27,T,,M,0.59,N,1.1,K,A*01
$GPGGA,202841.000,3748.7758,N,12217.8053,W,1,07,1.3,-9.4,M,-25.1,M,,0000*41
$GPGSA,A,3,15,08,26,17,28,13,05,,,,,,1.8,1.3,1.3*38
$GPRMC,202841.000,A,3748.7758,N,12217.8053,W,1.07,136.75,200711,,,A*78
$GPVTG,136.75,T,,M,1.07,N,2.0,K,A*0F
$GPGGA,202842.000,3748.7754,N,12217.8051,W,1,07,1.3,-9.0,M,-25.1,M,,0000*48
$GPGSA,A,3,15,08,26,17,28,13,05,,,,,,1.8,1.3,1.3*38
$GPRMC,202842.000,A,3748.7754,N,12217.8051,W,1.17,126.58,200711,,,A*7A
$GPVTG,126.58,T,,M,1.17,N,2.2,K,A*02
$GPGGA,202843.000,3748.7751,N,12217.8048,W,1,07,1.3,-8.8,M,-25.1,M,,0000*4D
$GPGSA,A,3,15,08,26,17,28,13,05,,,,,,1.8,1.3,1.3*38
