$ADVER,3080,2.3
$GPRMC,202734.483,A,3748.7939,N,12217.8763,W,0.04,145.79,101111,,,A*79
$GPGGA,202735.483,3748.7953,N,12217.8744,W,1,03,2.0,25.1,M,-25.1,M,,0000*54
$GPGSA,A,2,25,31,10,,,,,,,,,,2.3,2.0,1.0*35
$GPRMC,202735.483,A,3748.7953,N,12217.8744,W,0.18,330.70,101111,,,A*75
$GPVTG,330.70,T,,M,0.18,N,0.3,K,N*0F
$GPGGA,202736.483,3748.7917,N,12217.8800,W,1,03,2.0,25.1,M,-25.1,M,,0000*58
$GPGSA,A,2,25,31,10,,,,,,,,,,2.3,2.0,1.0*35
$GPRMC,202736.483,A,3748.7917,N,12217.8800,W,0.40,221.30,101111,,,A*71
$GPVTG,221.30,T,,M,0.40,N,0.7,K,N*03
$GPGGA,202737.483,3748.7956,N,12217.8741,W,1,03,2.0,25.1,M,-25.1,M,,0000*56
$GPGSA,A,2,25,31,10,,,,,,,,,,2.3,2.0,1.0*35
$GPRMC,202737.483,A,3748.7956,N,12217.8741,W,0.28,218.68,101111,,,A*76
$GPVTG,218.68,T,,M,0.28,N,0.5,K,N*08
$GPGGA,202738.483,3748.7961,N,12217.8733,W,1,03,2.0,25.1,M,-25.1,M,,0000*58
$GPGSA,A,2,25,31,10,,,,,,,,,,2.3,2.0,1.0*35
$GPRMC,202738.483,A,3748.7961,N,12217.8733,W,0.05,221.74,101111,,,A*70
$GPVTG,221.74,T,,M,0.05,N,0.1,K,N*04
$GPGGA,202739.483,3748.7958,N,12217.8733,W,1,03,2.0,25.1,M,-25.1,M,,0000*53
$GPGSA,A,2,25,31,10,,,,,,,,,,2.3,2.0,1.0*35
$GPGSV,3,1,10,25,69,227,30,31,13,298,39,10,13,040,24,05,54,095,21*75
$GPGSV,3,2,10,29,52,315,29,12,47,169,29,02,32,052,18,21,20,244,39*78
$GPGSV,3,3,10,30,14,319,38,48,00,000,34*75
$GPVTG,36.76,T,,M,0.27,N,0.5,K,N*36
$GPGGA,202740.483,3748.7942,N,12217.8758,W,1,03,2.0,25.1,M,-25.1,M,,0000*5B
$GPGSA,A,2,25,31,10,,,,,,,,,,2.3,2.0,1.0*35
$GPRMC,202740.483,A,3748.7942,N,12217.8758,W,0.42,242.29,101111,,,A*7D
$GPVTG,242.29,T,,M,0.42,N,0.8,K,N*03
$GPGGA,202745.483,3748.7904,N,12217.8812,W,1,03,2.0,25.1,M,-25.1,M,,0000*5D
$GPGSA,A,2,25,31,10,,,,,,,,,,2.3,2.0,1.0*35
$GPRMC,202745.483,A,3748.7904,N,12217.8812,W,0.41,211.33,101111,,,A*75
$GPVTG,211.33,T,,M,0.41,N,0.8,K,N*0D
$GPGGA,202746.483,3748.7882,N,12217.8846,W,1,03,2.0,25.1,M,-25.1,M,,0000*50
$GPGSA,A,2,25,31,10,,,,,,,,,,2.3,2.0,1.0*35
$GPRMC,202746.483,A,3748.7882,N,12217.8846,W,0.78,50.02,101111,,,A*47
$GPVTG,50.02,T,,M,0.78,N,1.5,K,N*3E
$GPGGA,202747.483,3748.7882,N,12217.8847,W,1,03,2.0,25.1,M,-25.1,M,,0000*50
$GPGSA,A,2,25,31,10,,,,,,,,,,2.3,2.0,1.0*35
$GPRMC,202747.483,A,3748.7882,N,12217.8847,W,0.91,49.15,101111,,,A*4E
$GPVTG,49.15,T,,M,0.91,N,1.7,K,N*35
$GPGGA,202748.483,3748.7835,N,12217.8920,W,1,03,2.0,25.1,M,-25.1,M,,0000*53
$GPGSA,A,2,25,31,10,,,,,,,,,,2.3,2.0,1.0*35
$GPRMC,202748.483,A,3748.7835,N,12217.8920,W,1.17,50.21,101111,,,A*4D
$GPVTG,50.21,T,,M,1.17,N,2.2,K,N*33
$GPGGA,202749.483,3748.7858,N,12217.8885,W,1,03,2.0,25.1,M,-25.1,M,,0000*57
$GPGSA,A,2,25,31,10,,,,,,,,,,2.3,2.0,1.0*35
$GPGSV,3,1,10,25,69,226,35,31,13,298,39,10,13,040,21,05,54,095,20*75
$GPGSV,3,2,10,29,52,315,36,12,47,169,29,02,32,052,24,21,21,244,34*75
$GPGSV,3,3,10,30,14,319,38,48,44,197,33*7D
$GPGGA,202750.483,3748.7926,N,12217.8782,W,1,03,2.0,25.1,M,-25.1,M,,0000*5F
$GPGSA,A,2,25,31,10,,,,,,,,,,2.3,2.0,1.0*35
$GPRMC,202750.483,A,3748.7926,N,12217.8782,W,0.14,56.67,101111,,,A*47
$GPVTG,56.67,T,,M,0.14,N,0.3,K,N*36
$GPGGA,202751.483,3748.7990,N,12217.8688,W,1,03,2.0,25.1,M,-25.1,M,,0000*58
$GPGSA,A,2,25,31,10,,,,,,,,,,2.3,2.0,1.0*35
$GPRMC,202751.483,A,3748.7990,N,12217.8688,W,0.22,229.31,101111,,,A*7C
$GPVTG,229.31,T,,M,0.22,N,0.4,K,N*0D
$GPGGA,202752.483,3748.7984,N,12217.8716,W,1,04,2.7,27.4,M,-25.1,M,,0000*5F
$GPGSA,A,3,25,31,29,10,,,,,,,,,3.8,2.7,2.6*37
$GPRMC,202752.483,A,3748.7984,N,12217.8716,W,0.44,123.43,101111,,,A*70
$GPVTG,123.43,T,,M,0.44,N,0.8,K,A*02
$GPGGA,202753.483,3748.7984,N,12217.8707,W,1,04,2.7,26.3,M,-25.1,M,,0000*58
$GPGSA,A,3,25,31,29,10,,,,,,,,,3.8,2.7,2.6*37
$GPRMC,202753.483,A,3748.7984,N,12217.8707,W,0.18,157.34,101111,,,A*7B
$GPVTG,157.34,T,,M,0.18,N,0.3,K,A*03
$GPGGA,202754.483,3748.7984,N,12217.8704,W,1,04,2.7,25.7,M,-25.1,M,,0000*5B
$GPGSA,A,3,25,31,29,10,,,,,,,,,3.7,2.7,2.6*38
$GPGSV,3,1,09,25,69,226,29,29,52,315,35,31,13,298,40,10,13,040,25*7D
$GPGSV,3,2,09,05,54,095,,12,47,169,20,02,32,052,32,21,21,244,27*77
$GPGSV,3,3,09,30,15,319,39*46
$GPRMC,202754.483,A,3748.7984,N,12217.8704,W,0.55,228.91,101111,,,A*72
$GPVTG,228.91,T,,M,0.55,N,1.0,K,A*0C
$GPGGA,202755.000,3748.7985,N,12217.8694,W,1,04,2.7,24.5,M,-25.1,M,,0000*5F
$GPGSA,A,3,25,31,29,10,,,,,,,,,3.7,2.7,2.6*38
$GPRMC,202755.000,A,3748.7985,N,12217.8694,W,0.57,213.31,101111,,,A*75
$GPVTG,213.31,T,,M,0.57,N,1.1,K,A*0D
$GPGGA,202756.000,3748.7986,N,12217.8679,W,1,04,2.7,22.6,M,-25.1,M,,0000*59
$GPGSA,A,3,25,31,29,10,,,,,,,,,3.7,2.7,2.6*38
$GPRMC,202756.000,A,3748.7986,N,12217.8679,W,0.51,210.27,101111,,,A*74
$GPVTG,210.27,T,,M,0.51,N,0.9,K,A*06
$GPGGA,202757.000,3748.7986,N,12217.8671,W,1,04,2.7,21.5,M,-25.1,M,,0000*50
$GPGSA,A,3,25,31,29,10,,,,,,,,,3.7,2.7,2.6*38
$GPRMC,202757.000,A,3748.7986,N,12217.8671,W,0.28,174.50,101111,,,A*72
$GPVTG,174.50,T,,M,0.28,N,0.5,K,A*05
$GPGGA,202758.000,3748.7991,N,12217.8666,W,1,04,2.7,21.0,M,-25.1,M,,0000*5A
$GPGSA,A,3,25,31,29,10,,,,,,,,,3.7,2.7,2.6*38
$GPRMC,202758.000,A,3748.7991,N,12217.8666,W,0.49,137.64,101111,,,A*7A
$GPVTG,137.64,T,,M,0.49,N,0.9,K,A*0E
$GPGGA,202759.000,3748.7996,N,12217.8665,W,1,04,2.7,21.0,M,-25.1,M,,0000*5F
$GPGSA,A,3,25,31,29,10,,,,,,,,,3.7,2.7,2.6*38
$GPGSV,3,1,10,25,69,226,40,29,52,315,35,31,13,298,38,10,13,040,27*77
$GPGSV,3,2,10,05,54,095,,12,47,169,38,02,32,052,24,21,21,244,38*7F
$GPGSV,3,3,10,30,15,319,28,48,44,197,43*7A
$GPVTG,120.09,T,,M,0.32,N,0.6,K,A*00
$GPGGA,202800.000,3748.8002,N,12217.8674,W,1,04,2.6,22.6,M,-25.1,M,,0000*53
$GPGSA,A,3,25,31,29,10,,,,,,,,,3.7,2.6,2.6*39
$GPRMC,202800.000,A,3748.8002,N,12217.8674,W,1.44,133.17,101111,,,A*7B
$GPVTG,133.17,T,,M,1.44,N,2.7,K,A*0E
$GPGGA,202801.000,3748.8006,N,12217.8680,W,1,04,2.6,23.1,M,-25.1,M,,0000*5B
$GPGSA,A,3,25,31,29,10,,,,,,,,,3.7,2.6,2.6*39
$GPRMC,202801.000,A,3748.8006,N,12217.8680,W,0.70,105.20,101111,,,A*72
$GPVTG,105.20,T,,M,0.70,N,1.3,K,A*0E
$GPGGA,202802.000,3748.8005,N,12217.8688,W,1,03,2.0,23.3,M,-25.1,M,,0000*50
$GPGSA,A,2,25,31,10,,,,,,,,,,2.3,2.0,1.0*35
$GPRMC,202802.000,A,3748.8005,N,12217.8688,W,0.27,155.15,101111,,,A*7B
$GPVTG,155.15,T,,M,0.27,N,0.5,K,N*07
$GPGGA,202803.000,3748.7993,N,12217.8693,W,1,04,2.6,21.5,M,-25.1,M,,0000*57
$GPGSA,A,3,25,31,29,10,,,,,,,,,3.7,2.6,2.6*39
$GPRMC,202803.000,A,3748.7993,N,12217.8693,W,0.54,179.22,101111,,,A*77
$GPVTG,179.22,T,,M,0.54,N,1.0,K,A*02
$GPGGA,202804.000,3748.7992,N,12217.8701,W,1,04,2.6,21.8,M,-25.1,M,,0000*56
$GPGSA,A,3,25,31,29,10,,,,,,,,,3.7,2.6,2.6*39
$GPGSV,3,1,10,25,69,226,32,29,52,315,32,31,13,298,34,10,13,040,26*78
$GPGSV,3,2,10,05,54,095,,12,47,169,29,02,32,052,23,21,21,244,32*72
$GPGSV,3,3,10,30,15,319,38,48,44,197,28*76
$GPRMC,202804.000,A,3748.7992,N,12217.8701,W,0.30,187.14,101111,,,A*7D
$GPVTG,187.14,T,,M,0.30,N,0.6,K,A*03
$GPGGA,202805.000,3748.7995,N,12217.8704,W,1,04,2.6,22.2,M,-25.1,M,,0000*5C
$GPGSA,A,3,25,31,29,10,,,,,,,,,3.7,2.6,2.6*39
$GPRMC,202805.000,A,3748.7995,N,12217.8704,W,0.25,163.93,101111,,,A*7F
$GPVTG,163.93,T,,M,0.25,N,0.5,K,A*01
$GPGGA,202806.000,3748.7999,N,12217.8709,W,1,04,2.6,23.3,M,-25.1,M,,0000*5E
$GPGSA,A,3,25,31,29,10,,,,,,,,,3.7,2.6,2.6*39
$GPRMC,202806.000,A,3748.7999,N,12217.8709,W,0.15,170.26,101111,,,A*72
$GPVTG,170.26,T,,M,0.15,N,0.3,K,A*08
$GPGGA,202807.000,3748.8001,N,12217.8714,W,1,04,2.6,24.3,M,-25.1,M,,0000*53
$GPGSA,A,3,25,31,29,10,,,,,,,,,3.7,2.6,2.6*39
$GPRMC,202807.000,A,3748.8001,N,12217.8714,W,0.22,147.83,101111,,,A*77
$GPVTG,147.83,T,,M,0.22,N,0.4,K,A*00
$GPGGA,202808.000,3748.8002,N,12217.8719,W,1,04,2.6,25.1,M,-25.1,M,,0000*51
$GPGSA,A,3,25,31,29,10,,,,,,,,,3.7,2.6,2.6*39
$GPRMC,202808.000,A,3748.8002,N,12217.8719,W,0.10,209.58,101111,,,A*78
$GPVTG,209.58,T,,M,0.10,N,0.2,K,A*08
$GPGGA,202809.000,3748.8003,N,12217.8725,W,1,04,2.6,25.9,M,-25.1,M,,0000*56
$GPGSA,A,3,25,31,29,10,,,,,,,,,3.7,2.6,2.6*39
$GPGSV,3,1,10,25,69,226,33,29,52,315,32,31,13,298,35,10,13,040,25*7B
$GPGSV,3,2,10,05,54,095,,12,47,169,26,02,32,052,23,21,21,244,36*79
$GPGSV,3,3,10,30,15,319,36,48,44,197,36*77
$GPRMC,202809.000,A,3748.8003,N,12217.8725,W,0.21,264.07,101111,,,A*74
$GPVTG,264.07,T,,M,0.21,N,0.4,K,A*0D
$GPGGA,202810.000,3748.8005,N,12217.8728,W,1,04,2.6,26.4,M,-25.1,M,,0000*5B
$GPGSA,A,3,25,31,29,10,,,,,,,,,3.7,2.6,2.6*39
$GPRMC,202810.000,A,3748.8005,N,12217.8728,W,0.21,20.81,101111,,,A*4B
$GPVTG,20.81,T,,M,0.21,N,0.4,K,A*31
$GPGGA,202811.000,3748.8004,N,12217.8730,W,1,04,2.6,26.7,M,-25.1,M,,0000*51
$GPGSA,A,3,25,31,29,10,,,,,,,,,3.7,2.6,2.6*39
$GPRMC,202811.000,A,3748.8004,N,12217.8730,W,0.83,210.37,101111,,,A*76
$GPVTG,210.37,T,,M,0.83,N,1.5,K,A*05
$GPGGA,202812.000,3748.8003,N,12217.8730,W,1,04,2.6,26.6,M,-25.1,M,,0000*54
$GPGSA,A,3,25,31,29,10,,,,,,,,,3.7,2.6,2.6*39
$GPRMC,202812.000,A,3748.8003,N,12217.8730,W,1.80,197.33,101111,,,A*78
$GPVTG,197.33,T,,M,1.80,N,3.3,K,A*0B
$GPGGA,202813.000,3748.8002,N,12217.8731,W,1,04,2.6,26.6,M,-25.1,M,,0000*55
$GPGSA,A,3,25,31,29,10,,,,,,,,,3.7,2.6,2.6*39
$GPRMC,202813.000,A,3748.8002,N,12217.8731,W,1.38,197.34,101111,,,A*7D
$GPVTG,197.34,T,,M,1.38,N,2.6,K,A*0B
$GPGGA,202814.000,3748.7997,N,12217.8729,W,1,04,2.6,26.0,M,-25.1,M,,0000*57
$GPGSA,A,3,25,31,29,10,,,,,,,,,3.7,2.6,2.6*39
$GPGSV,3,1,10,25,69,226,28,05,54,095,,29,52,316,34,12,47,169,23*76
$GPGSV,3,2,10,02,32,052,28,21,21,244,31,30,15,318,38,31,13,298,35*74
$GPGSV,3,3,10,10,13,040,30,48,44,197,29*74
$GPRMC,202814.000,A,3748.7997,N,12217.8729,W,1.74,199.55,101111,,,A*78
$GPVTG,199.55,T,,M,1.74,N,3.2,K,A*0F
$GPGGA,202815.000,3748.8002,N,12217.8729,W,1,04,2.6,26.0,M,-25.1,M,,0000*5C
$GPGSA,A,3,25,31,29,10,,,,,,,,,3.7,2.6,2.6*39
$GPRMC,202815.000,A,3748.8002,N,12217.8729,W,1.05,219.56,101111,,,A*7D
$GPVTG,219.56,T,,M,1.05,N,1.9,K,A*08
$GPGGA,202816.000,3748.8003,N,12217.8728,W,1,04,2.6,25.7,M,-25.1,M,,0000*5B
$GPGSA,A,3,25,31,29,10,,,,,,,,,3.7,2.6,2.6*39
$GPRMC,202816.000,A,3748.8003,N,12217.8728,W,0.96,245.27,101111,,,A*7A
$GPVTG,245.27,T,,M,0.96,N,1.8,K,A*0D
$GPGGA,202817.000,3748.8005,N,12217.8728,W,1,04,2.6,25.3,M,-25.1,M,,0000*58
$GPGSA,A,3,25,31,29,10,,,,,,,,,3.7,2.6,2.6*39
$GPRMC,202817.000,A,3748.8005,N,12217.8728,W,0.79,222.09,101111,,,A*71
$GPVTG,222.09,T,,M,0.79,N,1.5,K,A*0C
$GPGGA,202818.000,3748.8004,N,12217.8727,W,1,04,2.6,24.9,M,-25.1,M,,0000*52
$GPGSA,A,3,25,31,29,10,,,,,,,,,3.7,2.6,2.6*39
$GPRMC,202818.000,A,3748.8004,N,12217.8727,W,1.09,218.17,101111,,,A*70
$GPVTG,218.17,T,,M,1.09,N,2.0,K,A*0A
$GPGGA,202819.000,3748.8001,N,12217.8726,W,1,04,2.6,24.4,M,-25.1,M,,0000*5A
$GPGSA,A,3,25,31,29,10,,,,,,,,,3.7,2.6,2.6*39
$GPGSV,3,1,09,25,69,226,30,05,54,095,,29,52,316,35,12,47,169,22*77
$GPGSV,3,2,09,02,32,052,30,21,21,245,34,30,15,318,38,31,13,298,36*72
$GPGSV,3,3,09,10,13,040,35*41
$GPRMC,202819.000,A,3748.8001,N,12217.8726,W,1.55,211.64,101111,,,A*71
$GPVTG,211.64,T,,M,1.55,N,2.9,K,A*07
$GPGGA,202820.000,3748.7995,N,12217.8726,W,1,04,2.6,23.9,M,-25.1,M,,0000*51
$GPGSA,A,3,25,31,29,10,,,,,,,,,3.7,2.6,2.6*39
$GPRMC,202820.000,A,3748.7995,N,12217.8726,W,1.92,207.62,101111,,,A*7A
$GPVTG,207.62,T,,M,1.92,N,3.6,K,A*03
$GPGGA,202821.000,3748.7990,N,12217.8727,W,1,04,2.6,23.3,M,-25.1,M,,0000*5E
$GPGSA,A,3,25,31,29,10,,,,,,,,,3.7,2.6,2.6*39
$GPRMC,202821.000,A,3748.7990,N,12217.8727,W,1.93,212.39,101111,,,A*74
$GPVTG,212.39,T,,M,1.93,N,3.6,K,A*08
$GPGGA,202822.000,3748.7985,N,12217.8728,W,1,04,2.6,22.8,M,-25.1,M,,0000*5C
$GPGSA,A,3,25,31,29,10,,,,,,,,,3.7,2.6,2.6*39
$GPRMC,202822.000,A,3748.7985,N,12217.8728,W,1.70,202.88,101111,,,A*7A
$GPVTG,202.88,T,,M,1.70,N,3.1,K,A*09
$GPGGA,202823.000,3748.7983,N,12217.8728,W,1,04,2.6,22.4,M,-25.1,M,,0000*57
$GPGSA,A,3,25,31,29,10,,,,,,,,,3.7,2.6,2.6*39
$GPRMC,202823.000,A,3748.7983,N,12217.8728,W,1.35,202.85,101111,,,A*71
$GPVTG,202.85,T,,M,1.35,N,2.5,K,A*00
$GPGGA,202824.000,3748.7979,N,12217.8727,W,1,04,2.6,21.8,M,-25.1,M,,0000*55
$GPGSA,A,3,25,31,29,10,,,,,,,,,3.7,2.6,2.6*39
$GPGSV,3,1,09,25,69,226,30,05,54,095,,29,52,316,35,12,47,169,21*74
$GPGSV,3,2,09,02,32,052,25,21,21,245,34,30,15,318,38,31,13,298,37*77
$GPGSV,3,3,09,10,13,040,28*4D
$GPVTG,155.60,T,,M,0.47,N,0.9,K,A*00
$GPGGA,202825.000,3748.7976,N,12217.8728,W,1,04,2.6,21.4,M,-25.1,M,,0000*58
$GPGSA,A,3,25,31,29,10,,,,,,,,,3.7,2.6,2.6*39
$GPRMC,202825.000,A,3748.7976,N,12217.8728,W,1.69,215.49,101111,,,A*72
$GPVTG,215.49,T,,M,1.69,N,3.1,K,A*0A
$GPGGA,202826.000,3748.7980,N,12217.8732,W,1,04,2.6,21.4,M,-25.1,M,,0000*59
$GPGSA,A,3,25,31,29,10,,,,,,,,,3.7,2.6,2.6*39
$GPRMC,202826.000,A,3748.7980,N,12217.8732,W,2.18,222.71,101111,,,A*79
$GPVTG,222.71,T,,M,2.18,N,4.0,K,A*06
$GPGGA,202827.000,3748.7975,N,12217.8736,W,1,04,2.6,21.1,M,-25.1,M,,0000*53
$GPGSA,A,3,25,31,29,10,,,,,,,,,3.7,2.6,2.6*39
$GPRMC,202827.000,A,3748.7975,N,12217.8736,W,2.29,218.25,101111,,,A*7C
$GPVTG,218.25,T,,M,2.29,N,4.2,K,A*0E
$GPGGA,202828.000,3748.7971,N,12217.8740,W,1,04,2.6,20.6,M,-25.1,M,,0000*5F
$GPGSA,A,3,25,31,29,10,,,,,,,,,3.7,2.6,2.6*39
$GPRMC,202828.000,A,3748.7971,N,12217.8740,W,2.38,220.25,101111,,,A*7D
$GPVTG,220.25,T,,M,2.38,N,4.4,K,A*03
$GPGGA,202829.000,3748.7965,N,12217.8744,W,1,04,2.6,20.1,M,-25.1,M,,0000*58
$GPGSA,A,3,25,31,29,10,,,,,,,,,3.7,2.6,2.6*39
$GPGSV,3,1,10,25,69,226,28,05,54,095,,29,52,316,35,12,47,169,27*73
$GPGSV,3,2,10,02,32,052,37,21,21,245,27,30,15,318,38,31,13,298,37*7E
$GPGSV,3,3,10,10,13,040,37,48,44,197,26*7C
$GPRMC,202829.000,A,3748.7965,N,12217.8744,W,2.29,201.70,101111,,,A*7E
$GPVTG,201.70,T,,M,2.29,N,4.2,K,A*06
$GPGGA,202830.000,3748.7958,N,12217.8746,W,1,04,2.6,20.0,M,-25.1,M,,0000*5D
$GPGSA,A,3,25,31,29,10,,,,,,,,,3.7,2.6,2.6*39
$GPRMC,202830.000,A,3748.7958,N,12217.8746,W,2.08,196.33,101111,,,A*73
$GPVTG,196.33,T,,M,2.08,N,3.8,K,A*02
$GPGGA,202831.000,3748.7953,N,12217.8749,W,1,04,2.6,19.7,M,-25.1,M,,0000*55
$GPGSA,A,3,25,31,29,10,,,,,,,,,3.7,2.6,2.6*39
$GPRMC,202831.000,A,3748.7953,N,12217.8749,W,2.83,207.63,101111,,,A*7B
$GPVTG,207.63,T,,M,2.83,N,5.2,K,A*03
$GPGGA,202832.000,3748.7945,N,12217.8754,W,1,04,2.6,18.8,M,-25.1,M,,0000*53
$GPGSA,A,3,25,31,29,10,,,,,,,,,3.7,2.6,2.6*39
$GPRMC,202832.000,A,3748.7945,N,12217.8754,W,2.86,203.80,101111,,,A*7F
$GPVTG,203.80,T,,M,2.86,N,5.3,K,A*0E
$GPGGA,202833.000,3748.7940,N,12217.8761,W,1,04,2.6,18.2,M,-25.1,M,,0000*5B
$GPGSA,A,3,25,31,29,10,,,,,,,,,3.7,2.6,2.6*39
$GPRMC,202833.000,A,3748.7940,N,12217.8761,W,2.12,227.06,101111,,,A*78
$GPVTG,227.06,T,,M,2.12,N,3.9,K,A*07
$GPGGA,202834.000,3748.7938,N,12217.8764,W,1,04,2.6,18.7,M,-25.1,M,,0000*53
$GPGSA,A,3,25,31,29,10,,,,,,,,,3.7,2.6,2.6*39
$GPGSV,3,1,10,25,69,226,30,05,54,095,24,29,52,316,41,12,47,169,21*79
$GPGSV,3,2,10,02,32,052,32,21,21,245,30,30,15,318,37,31,13,298,21*75
$GPGSV,3,3,10,10,13,040,32,48,44,197,24*7B
$GPRMC,202834.000,A,3748.7938,N,12217.8764,W,1.96,227.50,101111,,,A*79
$GPVTG,227.50,T,,M,1.96,N,3.6,K,A*04
$GPGGA,202835.000,3748.7928,N,12217.8764,W,1,04,2.6,18.7,M,-25.1,M,,0000*53
$GPGSA,A,3,25,31,29,10,,,,,,,,,3.7,2.6,2.6*39
$GPRMC,202835.000,A,3748.7928,N,12217.8764,W,2.85,210.71,101111,,,A*7F
$GPVTG,210.71,T,,M,2.85,N,5.3,K,A*01
$GPGGA,202836.000,3748.7920,N,12217.8763,W,1,04,2.6,18.4,M,-25.1,M,,0000*5C
$GPGSA,A,3,25,31,29,10,,,,,,,,,3.7,2.6,2.6*39
$GPRMC,202836.000,A,3748.7920,N,12217.8763,W,2.12,188.67,101111,,,A*78
$GPVTG,188.67,T,,M,2.12,N,3.9,K,A*06
$GPGGA,202837.000,3748.7913,N,12217.8763,W,1,04,2.6,18.7,M,-25.1,M,,0000*5E
$GPGSA,A,3,25,31,29,10,,,,,,,,,3.7,2.6,2.6*39
$GPRMC,202837.000,A,3748.7913,N,12217.8763,W,2.58,196.34,101111,,,A*7E
$GPVTG,196.34,T,,M,2.58,N,4.8,K,A*07
$GPGGA,202838.000,3748.7909,N,12217.8766,W,1,04,2.6,19.4,M,-25.1,M,,0000*5D
$GPGSA,A,3,25,31,29,10,,,,,,,,,3.7,2.6,2.6*39
$GPRMC,202838.000,A,3748.7909,N,12217.8766,W,2.26,199.02,101111,,,A*7C
$GPVTG,199.02,T,,M,2.26,N,4.2,K,A*0E
$GPGGA,202839.000,3748.7901,N,12217.8767,W,1,04,2.6,20.4,M,-25.1,M,,0000*5F
$GPGSA,A,3,25,31,29,10,,,,,,,,,3.7,2.6,2.6*39
$GPGSV,3,1,09,25,69,226,28,05,54,095,25,29,52,316,39,12,47,169,22*75
$GPGSV,3,2,09,02,32,052,27,21,21,245,28,30,15,318,33,31,13,298,22*77
$GPGSV,3,3,09,10,13,040,27*42
$GPRMC,202839.000,A,3748.7901,N,12217.8767,W,2.21,196.10,101111,,,A*7F
$GPVTG,196.10,T,,M,2.21,N,4.1,K,A*06
$GPGGA,202840.000,3748.7899,N,12217.8768,W,1,04,2.6,21.1,M,-25.1,M,,0000*5A
$GPGSA,A,3,25,31,29,10,,,,,,,,,3.7,2.6,2.6*39
$GPRMC,202840.000,A,3748.7899,N,12217.8768,W,1.35,192.27,101111,,,A*78
$GPVTG,192.27,T,,M,1.35,N,2.5,K,A*02
$GPGGA,202841.000,3748.7893,N,12217.8768,W,1,04,2.6,21.6,M,-25.1,M,,0000*56
$GPGSA,A,3,25,31,29,10,,,,,,,,,3.7,2.6,2.6*39
$GPRMC,202841.000,A,3748.7893,N,12217.8768,W,1.15,206.89,101111,,,A*7B
$GPVTG,206.89,T,,M,1.15,N,2.1,K,A*0E
$GPGGA,202842.000,3748.7888,N,12217.8766,W,1,04,2.6,22.8,M,-25.1,M,,0000*5C
$GPGSA,A,3,25,31,29,10,,,,,,,,,3.7,2.6,2.6*39
$GPRMC,202842.000,A,3748.7888,N,12217.8766,W,0.89,191.93,101111,,,A*7E
$GPVTG,191.93,T,,M,0.89,N,1.7,K,A*09
$GPGGA,202843.000,3748.7879,N,12217.8764,W,1,04,2.6,23.6,M,-25.1,M,,0000*5E
$GPGSA,A,3,25,31,29,10,,,,,,,,,3.7,2.6,2.6*39
$GPRMC,202843.000,A,3748.7879,N,12217.8764,W,1.94,194.68,101111,,,A*7F
$GPVTG,194.68,T,,M,1.94,N,3.6,K,A*06
$GPGGA,202844.000,3748.7879,N,12217.8764,W,1,04,2.6,25.0,M,-25.1,M,,0000*59
$GPGSA,A,3,25,31,29,10,,,,,,,,,3.7,2.6,2.6*39
$GPGSV,3,1,10,25,69,226,27,05,54,095,22,29,52,316,39,12,47,169,23*74
$GPGSV,3,2,10,02,32,052,27,21,21,245,28,30,15,318,25,31,13,298,21*7B
$GPGSV,3,3,10,10,13,040,25,48,44,197,29*70
$GPRMC,202844.000,A,3748.7879,N,12217.8764,W,1.18,209.79,101111,,,A*7B
$GPVTG,209.79,T,,M,1.18,N,2.2,K,A*00
$GPGGA,202845.000,3748.7884,N,12217.8766,W,1,04,2.6,26.7,M,-25.1,M,,0000*5C
$GPGSA,A,3,25,31,29,10,,,,,,,,,3.7,2.6,2.6*39
$GPRMC,202845.000,A,3748.7884,N,12217.8766,W,0.54,265.51,101111,,,A*73
$GPVTG,265.51,T,,M,0.54,N,1.0,K,A*08
$GPGGA,202846.000,3748.7892,N,12217.8766,W,1,04,2.6,28.1,M,-25.1,M,,0000*50
$GPGSA,A,3,25,31,29,10,,,,,,,,,3.7,2.6,2.6*39
$GPRMC,202846.000,A,3748.7892,N,12217.8766,W,1.40,349.11,101111,,,A*78
$GPVTG,349.11,T,,M,1.40,N,2.6,K,A*02
$GPGGA,202847.000,3748.7898,N,12217.8767,W,1,04,2.6,29.5,M,-25.1,M,,0000*5F
$GPGSA,A,3,25,31,29,10,,,,,,,,,3.7,2.6,2.6*39
$GPRMC,202847.000,A,3748.7898,N,12217.8767,W,1.07,353.41,101111,,,A*7F
$GPVTG,353.41,T,,M,1.07,N,2.0,K,A*09
$GPGGA,202848.000,3748.7908,N,12217.8774,W,1,04,2.6,31.1,M,-25.1,M,,0000*57
$GPGSA,A,3,25,31,29,10,,,,,,,,,3.7,2.6,2.6*39
$GPRMC,202848.000,A,3748.7908,N,12217.8774,W,1.78,343.96,101111,,,A*79
$GPVTG,343.96,T,,M,1.78,N,3.3,K,A*08
$GPGGA,202849.000,3748.7907,N,12217.8776,W,1,04,2.6,32.8,M,-25.1,M,,0000*51
$GPGSA,A,3,25,31,29,10,,,,,,,,,3.7,2.6,2.6*39
$GPGSV,3,1,10,25,69,226,30,05,54,095,29,29,52,316,39,12,47,169,30*7B
$GPGSV,3,2,10,02,32,052,24,21,21,245,30,30,15,318,22,31,13,298,22*75
$GPRMC,202849.000,A,3748.7907,N,12217.8776,W,0.41,18.86,101111,,,A*42
$GPVTG,18.86,T,,M,0.41,N,0.8,K,A*37
$GPGGA,202850.000,3748.7904,N,12217.8776,W,1,04,2.6,35.2,M,-25.1,M,,0000*57
$GPGSA,A,3,25,31,29,10,,,,,,,,,3.7,2.6,2.6*39
$GPRMC,202850.000,A,3748.7904,N,12217.8776,W,0.25,80.64,101111,,,A*46
$GPVTG,80.64,T,,M,0.25,N,0.5,K,A*35
$GPGGA,202851.000,3748.7906,N,12217.8777,W,1,04,2.6,37.5,M,-25.1,M,,0000*50
$GPGSA,A,3,25,31,29,10,,,,,,,,,3.7,2.6,2.6*39
$GPRMC,202851.000,A,3748.7906,N,12217.8777,W,0.17,246.08,101111,,,A*77
$GPVTG,246.08,T,,M,0.17,N,0.3,K,A*00
$GPGGA,202852.000,3748.7908,N,12217.8778,W,1,04,2.6,38.9,M,-25.1,M,,0000*51
$GPGSA,A,3,25,31,29,10,,,,,,,,,3.7,2.6,2.6*39
$GPRMC,202852.000,A,3748.7908,N,12217.8778,W,0.88,311.98,101111,,,A*79
$GPVTG,311.98,T,,M,0.88,N,1.6,K,A*08
$GPGGA,202853.000,3748.7897,N,12217.8782,W,1,04,2.6,39.9,M,-25.1,M,,0000*53
$GPGSA,A,3,25,31,29,10,,,,,,,,,3.7,2.6,2.6*39
$GPRMC,202853.000,A,3748.7897,N,12217.8782,W,0.35,233.62,101111,,,A*78
$GPVTG,233.62,T,,M,0.35,N,0.6,K,A*0B
$GPGGA,202854.000,3748.7894,N,12217.8784,W,1,04,2.6,41.6,M,-25.1,M,,0000*51
$GPGSA,A,3,25,31,29,10,,,,,,,,,3.7,2.6,2.6*39
$GPGSV,3,1,10,25,69,226,27,05,54,095,29,29,52,316,33,12,47,169,23*75
$GPGSV,3,2,10,02,32,052,29,21,21,245,30,30,15,318,24,31,13,298,21*7D
$GPGSV,3,3,10,10,13,040,26,48,44,197,26*7C
$GPRMC,202854.000,A,3748.7894,N,12217.8784,W,0.20,262.77,101111,,,A*7E
$GPVTG,262.77,T,,M,0.20,N,0.4,K,A*0D
$GPGGA,202855.000,3748.7893,N,12217.8790,W,1,04,2.6,42.6,M,-25.1,M,,0000*51
$GPGSA,A,3,25,31,29,10,,,,,,,,,3.7,2.6,2.6*39
$GPRMC,202855.000,A,3748.7893,N,12217.8790,W,0.24,41.50,101111,,,A*4F
$GPVTG,41.50,T,,M,0.24,N,0.4,K,A*3F
$GPGGA,202856.000,3748.7888,N,12217.8795,W,1,04,2.6,42.5,M,-25.1,M,,0000*5E
$GPGSA,A,3,25,31,29,10,,,,,,,,,3.7,2.6,2.6*39
$GPRMC,202856.000,A,3748.7888,N,12217.8795,W,0.72,184.19,101111,,,A*75
$GPVTG,184.19,T,,M,0.72,N,1.3,K,A*0F
$GPGGA,202857.000,3748.7887,N,12217.8805,W,1,04,2.6,42.3,M,-25.1,M,,0000*50
$GPGSA,A,3,25,31,29,10,,,,,,,,,3.7,2.6,2.6*39
$GPRMC,202857.000,A,3748.7887,N,12217.8805,W,0.90,264.07,101111,,,A*73
$GPVTG,264.07,T,,M,0.90,N,1.7,K,A*05
$GPGGA,202858.000,3748.7886,N,12217.8817,W,1,04,2.6,41.4,M,-25.1,M,,0000*59
$GPGSA,A,3,25,31,29,10,,,,,,,,,3.7,2.6,2.6*39
$GPRMC,202858.000,A,3748.7886,N,12217.8817,W,1.19,293.83,101111,,,A*7A
$GPVTG,293.83,T,,M,1.19,N,2.2,K,A*07
$GPGGA,202859.000,3748.7884,N,12217.8824,W,1,04,2.6,41.1,M,-25.1,M,,0000*5F
$GPGSA,A,3,25,31,29,10,,,,,,,,,3.7,2.6,2.6*39
$GPGSV,3,1,10,25,69,226,27,05,54,095,22,29,52,316,37,12,47,169,31*79
$GPGSV,3,2,10,02,32,052,29,21,21,245,29,30,15,318,21,31,13,298,32*72
$GPGSV,3,3,10,10,13,040,26,48,44,197,27*7D
$GPRMC,202859.000,A,3748.7884,N,12217.8824,W,0.40,287.25,101111,,,A*7D
$GPVTG,287.25,T,,M,0.40,N,0.7,K,A*04
$GPGGA,202900.000,3748.7887,N,12217.8835,W,1,04,2.6,41.3,M,-25.1,M,,0000*53
$GPGSA,A,3,25,31,29,10,,,,,,,,,3.7,2.6,2.6*39
$GPRMC,202900.000,A,3748.7887,N,12217.8835,W,0.59,348.55,101111,,,A*7E
$GPVTG,348.55,T,,M,0.59,N,1.1,K,A*0E
$GPGGA,202901.000,3748.7888,N,12217.8843,W,1,04,2.6,41.3,M,-25.1,M,,0000*5C
$GPGSA,A,3,25,31,29,10,,,,,,,,,3.7,2.6,2.6*39
$GPRMC,202901.000,A,3748.7888,N,12217.8843,W,1.07,328.96,101111,,,A*72
$GPVTG,328.96,T,,M,1.07,N,2.0,K,A*0F
$GPGGA,202902.000,3748.7895,N,12217.8854,W,1,04,2.6,41.2,M,-25.1,M,,0000*54
$GPGSA,A,3,25,31,29,10,,,,,,,,,3.7,2.6,2.6*39
$GPRMC,202902.000,A,3748.7895,N,12217.8854,W,1.17,348.44,101111,,,A*73
$GPVTG,348.44,T,,M,1.17,N,2.2,K,A*05
$GPGGA,202903.000,3748.7901,N,12217.8862,W,1,04,2.6,41.6,M,-25.1,M,,0000*58
$GPGSA,A,3,25,31,29,10,,,,,,,,,3.7,2.6,2.6*39
$GPRMC,202903.000,A,3748.7901,N,12217.8862,W,0.57,347.41,101111,,,A*74
$GPVTG,347.41,T,,M,0.57,N,1.1,K,A*0A
$GPGGA,202904.000,3748.7899,N,12217.8868,W,1,04,2.6,42.3,M,-25.1,M,,0000*53
$GPGSA,A,3,25,31,29,10,,,,,,,,,3.7,2.6,2.6*39
$GPGSV,3,1,10,25,69,226,27,05,54,095,27,29,52,316,33,12,47,169,29*71
$GPGSV,3,2,10,02,32,052,28,21,21,245,31,30,15,318,24,31,13,298,23*7F
$GPGSV,3,3,10,10,13,040,24,48,44,197,28*70
$GPRMC,202904.000,A,3748.7899,N,12217.8868,W,0.37,287.79,101111,,,A*79
$GPGGA,202905.000,3748.7900,N,12217.8876,W,1,04,2.6,43.0,M,-25.1,M,,0000*5E
$GPGSA,A,3,25,31,29,10,,,,,,,,,3.7,2.6,2.6*39
$GPRMC,202905.000,A,3748.7900,N,12217.8876,W,0.63,252.70,101111,,,A*76
$GPVTG,252.70,T,,M,0.63,N,1.2,K,A*09
$GPGGA,202906.000,3748.7892,N,12217.8877,W,1,04,2.6,43.8,M,-25.1,M,,0000*5E
$GPGSA,A,3,25,31,29,10,,,,,,,,,3.7,2.6,2.6*39
$GPRMC,202906.000,A,3748.7892,N,12217.8877,W,0.53,188.64,101111,,,A*7C
$GPVTG,188.64,T,,M,0.53,N,1.0,K,A*09
$GPGGA,202907.000,3748.7881,N,12217.8876,W,1,04,2.6,44.7,M,-25.1,M,,0000*54
$GPGSA,A,3,25,31,29,10,,,,,,,,,3.7,2.6,2.6*39
$GPRMC,202907.000,A,3748.7881,N,12217.8876,W,0.33,176.52,101111,,,A*7C
$GPVTG,176.52,T,,M,0.33,N,0.6,K,A*0C
$GPGGA,202908.000,3748.7869,N,12217.8876,W,1,04,2.6,46.1,M,-25.1,M,,0000*59
$GPGSA,A,3,25,31,29,10,,,,,,,,,3.7,2.6,2.6*39
$GPRMC,202908.000,A,3748.7869,N,12217.8876,W,0.88,213.23,101111,,,A*73
$GPVTG,213.23,T,,M,0.88,N,1.6,K,A*0B
$GPGGA,202909.000,3748.7852,N,12217.8875,W,1,04,2.6,46.4,M,-25.1,M,,0000*56
$GPGSA,A,3,25,31,29,10,,,,,,,,,3.7,2.6,2.6*39
$GPGSV,3,1,10,25,69,226,30,05,54,095,27,29,52,316,40,12,47,169,26*7C
$GPGSV,3,2,10,02,32,052,27,21,21,245,23,30,15,318,23,31,13,298,22*75
$GPGSV,3,3,10,10,13,040,21,48,44,197,26*7B
$GPRMC,202909.000,A,3748.7852,N,12217.8875,W,1.40,169.30,101111,,,A*70
$GPVTG,169.30,T,,M,1.40,N,2.6,K,A*01
$GPGGA,202910.000,3748.7838,N,12217.8876,W,1,04,2.6,47.0,M,-25.1,M,,0000*54
$GPGSA,A,3,25,31,29,10,,,,,,,,,3.7,2.6,2.6*39
$GPRMC,202910.000,A,3748.7838,N,12217.8876,W,1.25,164.31,101111,,,A*78
$GPVTG,164.31,T,,M,1.25,N,2.3,K,A*0B
$GPGGA,202911.000,3748.7821,N,12217.8875,W,1,04,2.6,48.7,M,-25.1,M,,0000*56
$GPGSA,A,3,25,31,29,10,,,,,,,,,3.7,2.6,2.6*39
$GPRMC,202911.000,A,3748.7821,N,12217.8875,W,1.85,169.59,101111,,,A*7B
$GPVTG,169.59,T,,M,1.85,N,3.4,K,A*04
$GPGGA,202912.000,3748.7812,N,12217.8876,W,1,04,2.6,50.7,M,-25.1,M,,0000*5F
$GPGSA,A,3,25,31,29,10,,,,,,,,,3.7,2.6,2.6*39
$GPRMC,202912.000,A,3748.7812,N,12217.8876,W,0.64,165.97,101111,,,A*7B
$GPVTG,165.97,T,,M,0.64,N,1.2,K,A*00
$GPGGA,202913.000,3748.7807,N,12217.8873,W,1,04,2.6,52.1,M,-25.1,M,,0000*5B
$GPGSA,A,3,25,31,29,10,,,,,,,,,3.7,2.6,2.6*39
$GPRMC,202913.000,A,3748.7807,N,12217.8873,W,1.43,144.49,101111,,,A*7F
$GPVTG,144.49,T,,M,1.43,N,2.7,K,A*02
$GPGGA,202914.000,3748.7804,N,12217.8870,W,1,04,2.6,53.3,M,-25.1,M,,0000*5F
$GPGSA,A,3,25,31,29,10,,,,,,,,,3.7,2.6,2.6*39
$GPGSV,3,1,10,25,69,226,30,05,54,095,28,29,52,316,34,12,47,169,25*73
$GPGSV,3,2,10,02,32,052,28,21,21,245,32,30,15,318,23,31,13,298,20*78
$GPGSV,3,3,10,10,13,040,23,48,44,197,26*79
$GPRMC,202914.000,A,3748.7804,N,12217.8870,W,0.35,176.31,101111,,,A*76
$GPVTG,176.31,T,,M,0.35,N,0.7,K,A*0E
$GPGGA,202915.000,3748.7795,N,12217.8869,W,1,04,2.6,53.5,M,-25.1,M,,0000*57
$GPGSA,A,3,25,31,29,10,,,,,,,,,3.7,2.6,2.6*39
$GPRMC,202915.000,A,3748.7795,N,12217.8869,W,1.03,202.89,101111,,,A*7F
$GPVTG,202.89,T,,M,1.03,N,1.9,K,A*06
$GPGGA,202916.000,3748.7792,N,12217.8870,W,1,03,2.5,53.8,M,-25.1,M,,0000*52
$GPGSA,A,2,25,29,10,,,,,,,,,,2.7,2.5,1.0*3D
$GPRMC,202916.000,A,3748.7792,N,12217.8870,W,0.06,251.80,101111,,,A*78
$GPVTG,251.80,T,,M,0.06,N,0.1,K,N*0B
$GPGGA,202917.000,3748.7792,N,12217.8872,W,1,03,2.5,54.0,M,-25.1,M,,0000*5E
$GPGSA,A,2,25,29,10,,,,,,,,,,2.7,2.5,1.0*3D
$GPRMC,202917.000,A,3748.7792,N,12217.8872,W,1.13,345.73,101111,,,A*76
$GPVTG,345.73,T,,M,1.13,N,2.1,K,N*04
$GPGGA,202918.000,3748.7792,N,12217.8881,W,1,04,2.6,53.8,M,-25.1,M,,0000*56
$GPGSA,A,3,25,31,29,10,,,,,,,,,3.7,2.6,2.6*39
$GPRMC,202918.000,A,3748.7792,N,12217.8881,W,1.72,306.86,101111,,,A*7F
$GPVTG,306.86,T,,M,1.72,N,3.2,K,A*03
$GPGGA,202919.000,3748.7782,N,12217.8891,W,1,04,2.6,51.5,M,-25.1,M,,0000*58
$GPGSA,A,3,25,31,29,10,,,,,,,,,3.7,2.6,2.6*39
$GPGSV,3,1,09,25,69,226,30,05,54,095,28,29,52,316,36,12,47,169,26*7A
$GPGSV,3,2,09,02,32,052,30,21,21,245,31,30,15,318,25,31,13,298,22*7E
$GPGSV,3,3,09,10,13,040,29*4C
$GPRMC,202919.000,A,3748.7782,N,12217.8891,W,0.90,247.98,101111,,,A*78
$GPVTG,247.98,T,,M,0.90,N,1.7,K,A*02
$GPGGA,202920.000,3748.7777,N,12217.8900,W,1,04,2.6,50.0,M,-25.1,M,,0000*55
$GPGSA,A,3,25,31,29,10,,,,,,,,,3.7,2.6,2.6*39
$GPRMC,202920.000,A,3748.7777,N,12217.8900,W,1.13,231.02,101111,,,A*79
$GPVTG,231.02,T,,M,1.13,N,2.1,K,A*0F
$GPGGA,202921.000,3748.7771,N,12217.8908,W,1,04,2.6,49.4,M,-25.1,M,,0000*56
$GPGSA,A,3,25,31,29,10,,,,,,,,,3.7,2.6,2.6*39
$GPRMC,202921.000,A,3748.7771,N,12217.8908,W,0.84,229.85,101111,,,A*7F
$GPVTG,229.85,T,,M,0.84,N,1.5,K,A*01
$GPGGA,202922.000,3748.7762,N,12217.8914,W,1,03,2.5,49.3,M,-25.1,M,,0000*59
$GPGSA,A,2,25,29,10,,,,,,,,,,2.7,2.5,1.0*3D
$GPRMC,202922.000,A,3748.7762,N,12217.8914,W,0.88,246.86,101111,,,A*75
$GPVTG,246.86,T,,M,0.88,N,1.6,K,N*0B
$GPGGA,202923.000,3748.7751,N,12217.8915,W,1,03,2.5,48.9,M,-25.1,M,,0000*52
$GPGSA,A,2,25,29,10,,,,,,,,,,2.7,2.5,1.0*3D
$GPRMC,202923.000,A,3748.7751,N,12217.8915,W,0.29,221.51,101111,,,A*75
$GPVTG,221.51,T,,M,0.29,N,0.5,K,N*09
$GPGGA,202924.000,3748.7735,N,12217.8916,W,1,03,2.5,48.5,M,-25.1,M,,0000*58
$GPGSA,A,2,25,29,10,,,,,,,,,,2.7,2.5,1.0*3D
$GPGSV,3,1,09,25,69,226,31,05,54,095,31,29,52,316,33,12,47,169,31*70
$GPGSV,3,2,09,02,32,052,30,21,21,245,32,30,15,318,22,31,13,298,*7A
$GPGSV,3,3,09,10,13,040,22*47
$GPRMC,202924.000,A,3748.7735,N,12217.8916,W,1.41,178.38,101111,,,A*7C
$GPVTG,178.38,T,,M,1.41,N,2.6,K,N*07
$GPGGA,202925.000,3748.7720,N,12217.8918,W,1,04,2.6,47.7,M,-25.1,M,,0000*5A
$GPGSA,A,3,25,31,29,10,,,,,,,,,3.6,2.6,2.6*38
$GPRMC,202925.000,A,3748.7720,N,12217.8918,W,1.53,170.99,101111,,,A*77
$GPVTG,170.99,T,,M,1.53,N,2.8,K,A*06
$GPGGA,202926.000,3748.7703,N,12217.8929,W,1,04,2.6,44.7,M,-25.1,M,,0000*59
$GPGSA,A,3,25,31,29,10,,,,,,,,,3.6,2.6,2.6*38
$GPRMC,202926.000,A,3748.7703,N,12217.8929,W,1.54,186.15,101111,,,A*7D
$GPVTG,186.15,T,,M,1.54,N,2.9,K,A*0D
$GPGGA,202927.000,3748.7684,N,12217.8935,W,1,04,2.6,42.0,M,-25.1,M,,0000*5A
$GPGSA,A,3,25,31,29,10,,,,,,,,,3.6,2.6,2.6*38
$GPRMC,202927.000,A,3748.7684,N,12217.8935,W,2.12,166.15,101111,,,A*70
$GPVTG,166.15,T,,M,2.12,N,3.9,K,A*03
$GPGGA,202928.000,3748.7669,N,12217.8940,W,1,04,2.6,38.9,M,-25.1,M,,0000*50
$GPGSA,A,3,25,31,29,10,,,,,,,,,3.6,2.6,2.6*38
$GPRMC,202928.000,A,3748.7669,N,12217.8940,W,2.25,185.85,101111,,,A*7E
$GPVTG,185.85,T,,M,2.25,N,4.2,K,A*0F
$GPGGA,202929.000,3748.7654,N,12217.8947,W,1,04,2.6,35.7,M,-25.1,M,,0000*5B
$GPGSA,A,3,25,31,29,10,,,,,,,,,3.6,2.6,2.6*38
$GPGSV,3,1,10,25,69,226,27,05,54,095,31,29,52,316,33,12,47,169,26*79
$GPGSV,3,2,10,02,32,052,30,21,21,245,24,30,15,318,21,31,13,298,32*77
$GPGSV,3,3,10,10,13,040,20,51,43,156,28*76
$GPVTG,195.60,T,,M,3.17,N,5.9,K,A*0F
$GPGGA,202930.000,3748.7649,N,12217.8956,W,1,04,2.6,33.2,M,-25.1,M,,0000*5C
$GPGSA,A,3,25,31,29,10,,,,,,,,,3.6,2.6,2.6*38
$GPRMC,202930.000,A,3748.7649,N,12217.8956,W,2.60,206.09,101111,,,A*7F
$GPVTG,206.09,T,,M,2.60,N,4.8,K,A*08
$GPGGA,202931.000,3748.7647,N,12217.8966,W,1,04,2.6,30.8,M,-25.1,M,,0000*59
$GPGSA,A,3,25,31,29,10,,,,,,,,,3.6,2.6,2.6*38
$GPRMC,202931.000,A,3748.7647,N,12217.8966,W,1.03,206.07,101111,,,A*7B
$GPVTG,206.07,T,,M,1.03,N,1.9,K,A*04
$GPGGA,202932.000,3748.7645,N,12217.8976,W,1,04,2.6,29.7,M,-25.1,M,,0000*5E
$GPGSA,A,3,25,31,29,10,,,,,,,,,3.6,2.6,2.6*38
$GPRMC,202932.000,A,3748.7645,N,12217.8976,W,1.77,241.48,101111,,,A*70
$GPVTG,241.48,T,,M,1.77,N,3.3,K,A*07
$GPGGA,202933.000,3748.7650,N,12217.8985,W,1,04,2.6,29.7,M,-25.1,M,,0000*57
$GPGSA,A,3,25,31,29,10,,,,,,,,,3.6,2.6,2.6*38
$GPRMC,202933.000,A,3748.7650,N,12217.8985,W,1.87,269.57,101111,,,A*72
$GPVTG,269.57,T,,M,1.87,N,3.5,K,A*0A
$GPGGA,202934.000,3748.7648,N,12217.8993,W,1,04,2.6,29.6,M,-25.1,M,,0000*5F
$GPGSA,A,3,25,31,29,10,,,,,,,,,3.6,2.6,2.6*38
$GPGSV,3,1,10,25,69,226,28,05,54,095,34,29,52,316,33,12,47,169,26*73
$GPGSV,3,2,10,02,32,052,37,21,21,245,24,30,15,318,37,31,13,298,22*76
$GPGSV,3,3,10,10,13,040,27,51,43,156,29*70
$GPRMC,202934.000,A,3748.7648,N,12217.8993,W,1.02,276.06,101111,,,A*7C
$GPVTG,276.06,T,,M,1.02,N,1.9,K,A*03
$GPGGA,202935.000,3748.7655,N,12217.9003,W,1,04,2.6,29.6,M,-25.1,M,,0000*53
$GPGSA,A,3,25,31,29,10,,,,,,,,,3.6,2.6,2.6*38
$GPRMC,202935.000,A,3748.7655,N,12217.9003,W,2.53,282.29,101111,,,A*71
$GPVTG,282.29,T,,M,2.53,N,4.7,K,A*09
$GPGGA,202936.000,3748.7666,N,12217.9014,W,1,04,2.6,29.6,M,-25.1,M,,0000*56
$GPGSA,A,3,25,31,29,10,,,,,,,,,3.6,2.6,2.6*38
$GPRMC,202936.000,A,3748.7666,N,12217.9014,W,2.68,286.15,101111,,,A*77
$GPVTG,286.15,T,,M,2.68,N,5.0,K,A*0C
$GPGGA,202937.000,3748.7655,N,12217.9023,W,1,04,2.6,27.5,M,-25.1,M,,0000*5E
$GPGSA,A,3,25,31,29,10,,,,,,,,,3.6,2.6,2.6*38
$GPRMC,202937.000,A,3748.7655,N,12217.9023,W,2.21,270.12,101111,,,A*71
$GPVTG,270.12,T,,M,2.21,N,4.1,K,A*0F
$GPGGA,202938.000,3748.7648,N,12217.9030,W,1,04,2.6,26.6,M,-25.1,M,,0000*5D
$GPGSA,A,3,25,31,29,10,,,,,,,,,3.6,2.6,2.6*38
$GPRMC,202938.000,A,3748.7648,N,12217.9030,W,1.96,237.67,101111,,,A*7E
$GPVTG,237.67,T,,M,1.96,N,3.6,K,A*01
$GPGGA,202939.000,3748.7641,N,12217.9033,W,1,04,2.6,26.7,M,-25.1,M,,0000*57
$GPGSA,A,3,25,31,29,10,,,,,,,,,3.6,2.6,2.6*38
$GPGSV,3,1,10,25,69,226,26,05,54,095,30,29,52,316,31,12,47,169,27*7A
$GPGSV,3,2,10,02,32,052,37,21,21,245,30,30,15,318,26,31,13,298,21*70
$GPGSV,3,3,10,10,13,040,35,51,43,156,26*7C
$GPRMC,202939.000,A,3748.7641,N,12217.9033,W,2.05,247.11,101111,,,A*7A
$GPVTG,247.11,T,,M,2.05,N,3.8,K,A*00
$GPGGA,202940.000,3748.7629,N,12217.9033,W,1,04,2.6,26.6,M,-25.1,M,,0000*56
$GPGSA,A,3,25,31,29,10,,,,,,,,,3.6,2.6,2.6*38
$GPRMC,202940.000,A,3748.7629,N,12217.9033,W,1.74,232.92,101111,,,A*76
$GPVTG,232.92,T,,M,1.74,N,3.2,K,A*06
$GPGGA,202941.000,3748.7613,N,12217.9035,W,1,03,2.5,26.6,M,-25.1,M,,0000*5C
$GPGSA,A,2,25,29,10,,,,,,,,,,2.7,2.5,1.0*3D
$GPRMC,202941.000,A,3748.7613,N,12217.9035,W,2.08,211.44,101111,,,A*7A
$GPVTG,211.44,T,,M,2.08,N,3.8,K,N*01
$GPGGA,202942.000,3748.7596,N,12217.9037,W,1,03,2.5,25.8,M,-25.1,M,,0000*5E
$GPGSA,A,2,25,29,10,,,,,,,,,,2.7,2.5,1.0*3D
$GPRMC,202942.000,A,3748.7596,N,12217.9037,W,2.27,204.96,101111,,,A*73
$GPVTG,204.96,T,,M,2.27,N,4.2,K,N*0A
$GPGGA,202943.000,3748.7584,N,12217.9037,W,1,03,2.5,25.3,M,-25.1,M,,0000*57
$GPGSA,A,2,25,29,10,,,,,,,,,,2.7,2.5,1.0*3D
$GPRMC,202943.000,A,3748.7584,N,12217.9037,W,2.36,186.48,101111,,,A*7B
$GPVTG,186.48,T,,M,2.36,N,4.4,K,N*06
$GPGGA,202944.000,3748.7575,N,12217.9041,W,1,03,2.5,25.3,M,-25.1,M,,0000*5F
$GPGSA,A,2,25,29,10,,,,,,,,,,2.7,2.5,1.0*3D
$GPGSV,3,1,10,25,69,226,26,05,54,095,32,29,52,316,28,12,47,169,27*70
$GPGSV,3,2,10,02,32,052,34,21,21,245,31,30,15,318,24,31,13,298,*73
$GPGSV,3,3,10,10,13,040,30,51,43,156,24*7B
$GPRMC,202944.000,A,3748.7575,N,12217.9041,W,2.92,206.17,101111,,,A*7C
$GPVTG,206.17,T,,M,2.92,N,5.4,K,N*08
$GPGGA,202945.000,3748.7558,N,12217.9043,W,1,04,2.6,24.3,M,-25.1,M,,0000*56
$GPGSA,A,3,25,31,29,10,,,,,,,,,3.6,2.6,2.6*38
$GPRMC,202945.000,A,3748.7558,N,12217.9043,W,2.40,184.50,101111,,,A*75
$GPVTG,184.50,T,,M,2.40,N,4.4,K,A*03
$GPGGA,202946.000,3748.7545,N,12217.9041,W,1,04,2.6,24.0,M,-25.1,M,,0000*58
$GPGSA,A,3,25,31,29,10,,,,,,,,,3.6,2.6,2.6*38
$GPRMC,202946.000,A,3748.7545,N,12217.9041,W,2.07,189.03,101111,,,A*70
$GPVTG,189.03,T,,M,2.07,N,3.8,K,A*00
$GPGGA,202947.000,3748.7533,N,12217.9041,W,1,04,2.6,23.5,M,-25.1,M,,0000*5A
$GPGSA,A,3,25,31,29,10,,,,,,,,,3.6,2.6,2.6*38
$GPRMC,202947.000,A,3748.7533,N,12217.9041,W,1.85,195.09,101111,,,A*7E
$GPVTG,195.09,T,,M,1.85,N,3.4,K,A*02
$GPGGA,202948.000,3748.7528,N,12217.9045,W,1,04,2.6,23.7,M,-25.1,M,,0000*59
$GPGSA,A,3,25,31,29,10,,,,,,,,,3.6,2.6,2.6*38
$GPRMC,202948.000,A,3748.7528,N,12217.9045,W,0.97,165.77,101111,,,A*7B
$GPVTG,165.77,T,,M,0.97,N,1.8,K,A*08
$GPGGA,202949.000,3748.7528,N,12217.9040,W,1,04,2.6,24.9,M,-25.1,M,,0000*54
$GPGSA,A,3,25,31,29,10,,,,,,,,,3.6,2.6,2.6*38
$GPGSV,3,1,09,25,69,226,27,05,54,095,31,29,52,316,34,12,47,169,23*73
$GPGSV,3,2,09,02,32,052,37,21,21,245,28,30,15,318,23,31,13,298,18*7E
$GPGSV,3,3,09,10,13,040,26*43
$GPRMC,202949.000,A,3748.7528,N,12217.9040,W,1.02,175.21,101111,,,A*70
$GPVTG,175.21,T,,M,1.02,N,1.9,K,A*06
$GPGGA,202950.000,3748.7525,N,12217.9033,W,1,04,2.6,27.7,M,-25.1,M,,0000*58
$GPGSA,A,3,25,31,29,10,,,,,,,,,3.6,2.6,2.6*38
$GPRMC,202950.000,A,3748.7525,N,12217.9033,W,1.37,177.17,101111,,,A*70
$GPVTG,177.17,T,,M,1.37,N,2.5,K,A*08
$GPGGA,202951.000,3748.7515,N,12217.9025,W,1,04,2.6,30.0,M,-25.1,M,,0000*5C
$GPGSA,A,3,25,31,29,10,,,,,,,,,3.6,2.6,2.6*38
$GPRMC,202951.000,A,3748.7515,N,12217.9025,W,1.65,178.80,101111,,,A*73
$GPVTG,178.80,T,,M,1.65,N,3.1,K,A*0B
$GPGGA,202952.000,3748.7512,N,12217.9024,W,1,04,2.6,31.2,M,-25.1,M,,0000*5A
$GPGSA,A,3,25,31,29,10,,,,,,,,,3.6,2.6,2.6*38
$GPRMC,202952.000,A,3748.7512,N,12217.9024,W,1.11,178.45,101111,,,A*7C
$GPVTG,178.45,T,,M,1.11,N,2.1,K,A*00
$GPGGA,202953.000,3748.7516,N,12217.9031,W,1,04,2.6,31.8,M,-25.1,M,,0000*51
$GPGSA,A,3,25,31,29,10,,,,,,,,,3.6,2.6,2.6*38
$GPRMC,202953.000,A,3748.7516,N,12217.9031,W,0.40,79.39,101111,,,A*43
$GPVTG,79.39,T,,M,0.40,N,0.7,K,A*3A
$GPGGA,202954.000,3748.7512,N,12217.9035,W,1,04,2.6,32.2,M,-25.1,M,,0000*5F
$GPGSA,A,3,25,31,29,10,,,,,,,,,3.6,2.6,2.6*38
$GPGSV,3,1,09,25,69,226,27,05,54,095,31,29,52,316,34,12,47,169,26*76
$GPGSV,3,2,09,02,32,052,33,21,21,245,25,30,15,318,20,31,13,298,18*74
$GPGSV,3,3,09,10,13,040,26*43
$GPVTG,146.18,T,,M,0.35,N,0.7,K,A*06
$GPGGA,202955.000,3748.7502,N,12217.9042,W,1,04,2.6,31.2,M,-25.1,M,,0000*5C
$GPGSA,A,3,25,31,29,10,,,,,,,,,3.6,2.6,2.6*38
$GPRMC,202955.000,A,3748.7502,N,12217.9042,W,1.07,157.60,101111,,,A*77
$GPVTG,157.60,T,,M,1.07,N,2.0,K,A*0C
$GPGGA,202956.000,3748.7496,N,12217.9045,W,1,03,2.5,31.9,M,-25.1,M,,0000*5B
$GPGSA,A,2,25,29,10,,,,,,,,,,2.7,2.5,1.0*3D
$GPRMC,202956.000,A,3748.7496,N,12217.9045,W,0.63,161.32,101111,,,A*7E
$GPVTG,161.32,T,,M,0.63,N,1.2,K,A*0C
$GPGGA,202957.000,3748.7492,N,12217.9047,W,1,03,2.5,32.8,M,-25.1,M,,0000*5E
$GPGSA,A,2,25,29,10,,,,,,,,,,2.7,2.5,1.0*3D
$GPRMC,202957.000,A,3748.7492,N,12217.9047,W,1.56,174.10,101111,,,A*7A
$GPVTG,174.10,T,,M,1.56,N,2.9,K,A*07
$GPGGA,202958.000,3748.7489,N,12217.9050,W,1,04,2.6,33.6,M,-25.1,M,,0000*56
$GPGSA,A,3,25,31,29,10,,,,,,,,,3.6,2.6,2.6*38
$GPRMC,202958.000,A,3748.7489,N,12217.9050,W,2.04,166.31,101111,,,A*7D
$GPVTG,166.31,T,,M,2.04,N,3.8,K,A*03
$GPGGA,202959.000,3748.7490,N,12217.9050,W,1,04,2.6,35.5,M,-25.1,M,,0000*5A
$GPGSA,A,3,25,31,29,10,,,,,,,,,3.6,2.6,2.6*38
$GPGSV,3,1,09,25,69,226,28,05,54,095,33,29,52,316,32,12,47,169,26*7D
$GPGSV,3,2,09,02,32,052,33,21,21,245,31,30,15,318,19,31,13,298,18*7B
$GPGSV,3,3,09,10,13,040,30*44
$GPRMC,202959.000,A,3748.7490,N,12217.9050,W,0.97,187.07,101111,,,A*76
$GPVTG,187.07,T,,M,0.97,N,1.8,K,A*03
$GPGGA,203000.000,3748.7489,N,12217.9051,W,1,04,2.6,36.8,M,-25.1,M,,0000*59
$GPGSA,A,3,25,31,29,10,,,,,,,,,3.6,2.6,2.6*38
$GPRMC,203000.000,A,3748.7489,N,12217.9051,W,1.19,163.15,101111,,,A*75
$GPVTG,163.15,T,,M,1.19,N,2.2,K,A*04
$GPGGA,203001.000,3748.7486,N,12217.9056,W,1,04,2.6,37.8,M,-25.1,M,,0000*51
$GPGSA,A,3,25,31,29,10,,,,,,,,,3.6,2.6,2.6*38
$GPRMC,203001.000,A,3748.7486,N,12217.9056,W,1.12,172.92,101111,,,A*78
$GPVTG,172.92,T,,M,1.12,N,2.1,K,A*03
$GPGGA,203002.000,3748.7486,N,12217.9062,W,1,04,2.6,38.4,M,-25.1,M,,0000*56
$GPGSA,A,3,25,31,29,10,,,,,,,,,3.6,2.6,2.6*38
$GPRMC,203002.000,A,3748.7486,N,12217.9062,W,0.27,237.60,101111,,,A*74
$GPVTG,237.60,T,,M,0.27,N,0.5,K,A*0D
$GPGGA,203003.000,3748.7489,N,12217.9069,W,1,04,2.6,38.4,M,-25.1,M,,0000*53
$GPGSA,A,3,25,31,29,10,,,,,,,,,3.6,2.6,2.5*3B
$GPRMC,203003.000,A,3748.7489,N,12217.9069,W,0.83,309.17,101111,,,A*73
$GPVTG,309.17,T,,M,0.83,N,1.5,K,A*0E
$GPGGA,203004.000,3748.7497,N,12217.9081,W,1,04,2.6,37.8,M,-25.1,M,,0000*5E
$GPGSA,A,3,25,31,29,10,,,,,,,,,3.6,2.6,2.5*3B
$GPGSV,3,1,10,25,69,226,28,05,54,095,32,29,52,316,32,12,47,169,26*74
$GPGSV,3,2,10,02,32,052,34,21,21,245,28,30,15,318,22,31,13,298,29*76
$GPGSV,3,3,10,10,13,040,29,51,43,156,26*71
$GPRMC,203004.000,A,3748.7497,N,12217.9081,W,1.26,325.55,101111,,,A*7B
$GPVTG,325.55,T,,M,1.26,N,2.3,K,A*0D
$GPGGA,203005.000,3748.7506,N,12217.9093,W,1,04,2.5,37.2,M,-25.1,M,,0000*5C
$GPGSA,A,3,25,31,29,10,,,,,,,,,3.6,2.5,2.5*38
$GPRMC,203005.000,A,3748.7506,N,12217.9093,W,1.94,321.85,101111,,,A*70
$GPVTG,321.85,T,,M,1.94,N,3.6,K,A*09
$GPGGA,203006.000,3748.7515,N,12217.9106,W,1,04,2.5,36.7,M,-25.1,M,,0000*54
$GPGSA,A,3,25,31,29,10,,,,,,,,,3.6,2.5,2.5*38
$GPRMC,203006.000,A,3748.7515,N,12217.9106,W,2.41,322.73,101111,,,A*7D
$GPVTG,322.73,T,,M,2.41,N,4.5,K,A*0C
$GPGGA,203007.000,3748.7512,N,12217.9114,W,1,04,2.5,35.6,M,-25.1,M,,0000*53
$GPGSA,A,3,25,31,29,10,,,,,,,,,3.6,2.5,2.5*38
$GPRMC,203007.000,A,3748.7512,N,12217.9114,W,0.89,340.21,101111,,,A*7D
$GPVTG,340.21,T,,M,0.89,N,1.7,K,A*0E
$GPGGA,203008.000,3748.7504,N,12217.9122,W,1,04,2.5,34.8,M,-25.1,M,,0000*51
$GPGSA,A,3,25,31,29,10,,,,,,,,,3.6,2.5,2.5*38
$GPRMC,203008.000,A,3748.7504,N,12217.9122,W,0.73,265.90,101111,,,A*79
$GPVTG,265.90,T,,M,0.73,N,1.4,K,A*04
$GPGGA,203009.000,3748.7496,N,12217.9129,W,1,04,2.5,33.4,M,-25.1,M,,0000*5A
$GPGSA,A,3,25,31,29,10,,,,,,,,,3.6,2.5,2.5*38
$GPGSV,3,1,10,25,69,226,28,05,54,095,29,29,52,316,32,12,47,169,26*7E
$GPGSV,3,2,10,02,32,052,38,21,21,245,28,30,15,318,25,31,13,298,29*7D
$GPGSV,3,3,10,10,13,040,27,51,43,156,23*7A
$GPRMC,203009.000,A,3748.7496,N,12217.9129,W,0.52,250.46,101111,,,A*77
$GPVTG,250.46,T,,M,0.52,N,1.0,K,A*0E
$GPGGA,203010.000,3748.7482,N,12217.9130,W,1,04,2.5,32.9,M,-25.1,M,,0000*53
$GPGSA,A,3,25,31,29,10,,,,,,,,,3.6,2.5,2.5*38
$GPRMC,203010.000,A,3748.7482,N,12217.9130,W,1.07,198.49,101111,,,A*7B
$GPVTG,198.49,T,,M,1.07,N,2.0,K,A*04
$GPGGA,203011.000,3748.7463,N,12217.9130,W,1,04,2.5,32.7,M,-25.1,M,,0000*53
$GPGSA,A,3,25,31,29,10,,,,,,,,,3.6,2.5,2.5*38
$GPRMC,203011.000,A,3748.7463,N,12217.9130,W,1.94,205.32,101111,,,A*74
$GPVTG,205.32,T,,M,1.94,N,3.6,K,A*02
$GPGGA,203012.000,3748.7452,N,12217.9132,W,1,04,2.5,33.1,M,-25.1,M,,0000*57
$GPGSA,A,3,25,31,29,10,,,,,,,,,3.6,2.5,2.5*38
$GPRMC,203012.000,A,3748.7452,N,12217.9132,W,1.29,214.63,101111,,,A*75
$GPVTG,214.63,T,,M,1.29,N,2.4,K,A*03
$GPGGA,203013.000,3748.7448,N,12217.9136,W,1,04,2.5,33.7,M,-25.1,M,,0000*5F
$GPGSA,A,3,25,31,29,10,,,,,,,,,3.6,2.5,2.5*38
$GPRMC,203013.000,A,3748.7448,N,12217.9136,W,1.28,239.78,101111,,,A*7F
$GPVTG,239.78,T,,M,1.28,N,2.4,K,A*07
$GPGGA,203014.000,3748.7441,N,12217.9139,W,1,04,2.5,33.7,M,-25.1,M,,0000*5E
$GPGSA,A,3,25,31,29,10,,,,,,,,,3.6,2.5,2.5*38
$GPGSV,3,1,09,25,69,226,28,05,54,095,31,29,52,316,34,12,47,169,30*7E
$GPGSV,3,2,09,02,32,052,30,21,21,245,26,30,15,318,24,31,13,298,22*79
$GPGSV,3,3,09,10,13,040,33*47
$GPRMC,203014.000,A,3748.7441,N,12217.9139,W,1.22,216.78,101111,,,A*79
$GPVTG,216.78,T,,M,1.22,N,2.3,K,A*07
$GPGGA,203015.000,3748.7434,N,12217.9144,W,1,04,2.5,33.2,M,-25.1,M,,0000*52
$GPGSA,A,3,25,31,29,10,,,,,,,,,3.6,2.5,2.5*38
$GPRMC,203015.000,A,3748.7434,N,12217.9144,W,1.15,255.44,101111,,,A*7C
$GPVTG,255.44,T,,M,1.15,N,2.1,K,A*09
$GPGGA,203016.000,3748.7426,N,12217.9148,W,1,04,2.5,33.1,M,-25.1,M,,0000*5D
$GPGSA,A,3,25,31,29,10,,,,,,,,,3.6,2.5,2.5*38
$GPRMC,203016.000,A,3748.7426,N,12217.9148,W,1.33,237.44,101111,,,A*70
$GPVTG,237.44,T,,M,1.33,N,2.5,K,A*0D
$GPGGA,203017.000,3748.7414,N,12217.9151,W,1,04,2.5,33.1,M,-25.1,M,,0000*55
$GPGSA,A,3,25,31,29,10,,,,,,,,,3.6,2.5,2.5*38
$GPRMC,203017.000,A,3748.7414,N,12217.9151,W,1.74,214.64,101111,,,A*78
$GPVTG,214.64,T,,M,1.74,N,3.2,K,A*0B
$GPGGA,203018.000,3748.7404,N,12217.9150,W,1,04,2.5,34.9,M,-25.1,M,,0000*55
$GPGSA,A,3,25,31,29,10,,,,,,,,,3.6,2.5,2.5*38
$GPRMC,203018.000,A,3748.7404,N,12217.9150,W,2.41,193.18,101111,,,A*75
$GPVTG,193.18,T,,M,2.41,N,4.5,K,A*09
$GPGGA,203019.000,3748.7398,N,12217.9149,W,1,04,2.5,36.6,M,-25.1,M,,0000*53
$GPGSA,A,3,25,31,29,10,,,,,,,,,3.6,2.5,2.5*38
$GPGSV,3,1,09,25,69,226,28,05,54,095,33,29,52,316,34,12,47,169,29*74
$GPGSV,3,2,09,02,32,052,34,21,21,245,29,30,15,318,18,31,13,298,18*74
$GPGSV,3,3,09,10,13,040,28*4D
$GPVTG,181.40,T,,M,1.98,N,3.7,K,A*05
$GPGGA,203020.000,3748.7396,N,12217.9149,W,1,04,2.5,38.3,M,-25.1,M,,0000*5C
$GPGSA,A,3,25,31,29,10,,,,,,,,,3.6,2.5,2.5*38
$GPRMC,203020.000,A,3748.7396,N,12217.9149,W,1.55,190.20,101111,,,A*74
$GPVTG,190.20,T,,M,1.55,N,2.9,K,A*0D
$GPGGA,203021.000,3748.7388,N,12217.9152,W,1,04,2.5,38.8,M,-25.1,M,,0000*53
$GPGSA,A,3,25,31,29,10,,,,,,,,,3.6,2.5,2.5*38
$GPRMC,203021.000,A,3748.7388,N,12217.9152,W,2.10,188.70,101111,,,A*7E
$GPVTG,188.70,T,,M,2.10,N,3.9,K,A*02
$GPGGA,203022.000,3748.7374,N,12217.9152,W,1,04,2.5,39.6,M,-25.1,M,,0000*5C
$GPGSA,A,3,25,31,29,10,,,,,,,,,3.6,2.5,2.5*38
$GPRMC,203022.000,A,3748.7374,N,12217.9152,W,1.79,188.82,101111,,,A*7F
$GPVTG,188.82,T,,M,1.79,N,3.3,K,A*09
$GPGGA,203023.000,3748.7366,N,12217.9156,W,1,04,2.5,40.5,M,-25.1,M,,0000*57
$GPGSA,A,3,25,31,29,10,,,,,,,,,3.6,2.5,2.5*38
$GPRMC,203023.000,A,3748.7366,N,12217.9156,W,2.30,203.78,101111,,,A*72
$GPVTG,203.78,T,,M,2.30,N,4.3,K,A*05
$GPGGA,203024.000,3748.7357,N,12217.9161,W,1,04,2.5,40.7,M,-25.1,M,,0000*54
$GPGSA,A,3,25,31,29,10,,,,,,,,,3.6,2.5,2.5*38
$GPGSV,3,1,09,25,69,226,29,05,54,095,32,29,52,316,35,12,47,169,25*79
$GPGSV,3,2,09,02,32,052,30,21,21,245,36,30,15,318,18,31,13,298,23*76
$GPGSV,3,3,09,10,13,040,22*47
$GPRMC,203024.000,A,3748.7357,N,12217.9161,W,1.25,189.38,101111,,,A*71
$GPVTG,189.38,T,,M,1.25,N,2.3,K,A*01
$GPGGA,203025.000,3748.7353,N,12217.9164,W,1,04,2.5,40.6,M,-25.1,M,,0000*55
$GPGSA,A,3,25,31,29,10,,,,,,,,,3.6,2.5,2.5*38
$GPRMC,203025.000,A,3748.7353,N,12217.9164,W,0.74,160.62,101111,,,A*7C
$GPVTG,160.62,T,,M,0.74,N,1.4,K,A*08
$GPGGA,203026.000,3748.7351,N,12217.9171,W,1,04,2.5,39.9,M,-25.1,M,,0000*51
$GPGSA,A,3,25,31,29,10,,,,,,,,,3.6,2.5,2.5*38
$GPRMC,203026.000,A,3748.7351,N,12217.9171,W,0.20,276.25,101111,,,A*7F
$GPVTG,276.25,T,,M,0.20,N,0.4,K,A*0F
$GPGGA,203027.000,3748.7337,N,12217.9175,W,1,04,2.5,38.8,M,-25.1,M,,0000*54
$GPGSA,A,3,25,31,29,10,,,,,,,,,3.6,2.5,2.5*38
$GPRMC,203027.000,A,3748.7337,N,12217.9175,W,1.24,195.46,101111,,,A*74
$GPVTG,195.46,T,,M,1.24,N,2.3,K,A*04
$GPGGA,203028.000,3748.7333,N,12217.9181,W,1,04,2.5,38.5,M,-25.1,M,,0000*59
$GPGSA,A,3,25,31,29,10,,,,,,,,,3.6,2.5,2.5*38
$GPRMC,203028.000,A,3748.7333,N,12217.9181,W,1.16,224.77,101111,,,A*7E
$GPVTG,224.77,T,,M,1.16,N,2.2,K,A*0F
$GPGGA,203029.000,3748.7327,N,12217.9185,W,1,04,2.5,38.4,M,-25.1,M,,0000*58
$GPGSA,A,3,25,31,29,10,,,,,,,,,3.6,2.5,2.5*38
$GPGSV,3,1,09,25,69,226,30,05,54,095,32,29,52,316,35,12,47,169,28*7C
$GPGSV,3,2,09,02,32,052,31,21,21,245,32,30,15,318,18,31,13,298,20*70
$GPGSV,3,3,09,10,13,040,26*43
$GPRMC,203029.000,A,3748.7327,N,12217.9185,W,0.94,209.99,101111,,,A*7A
$GPVTG,209.99,T,,M,0.94,N,1.8,K,A*02
$GPGGA,203030.000,3748.7325,N,12217.9188,W,1,04,2.5,39.9,M,-25.1,M,,0000*53
$GPGSA,A,3,25,31,29,10,,,,,,,,,3.6,2.5,2.5*38
$GPRMC,203030.000,A,3748.7325,N,12217.9188,W,0.82,201.34,101111,,,A*75
$GPVTG,201.34,T,,M,0.82,N,1.5,K,A*07
$GPGGA,203031.000,3748.7318,N,12217.9193,W,1,04,2.5,39.5,M,-25.1,M,,0000*5A
$GPGSA,A,3,25,31,29,10,,,,,,,,,3.6,2.5,2.5*38
$GPRMC,203031.000,A,3748.7318,N,12217.9193,W,1.37,191.41,101111,,,A*77
$GPVTG,191.41,T,,M,1.37,N,2.5,K,A*03
$GPGGA,203032.000,3748.7308,N,12217.9200,W,1,04,2.5,38.0,M,-25.1,M,,0000*55
$GPGSA,A,3,25,31,29,10,,,,,,,,,3.6,2.5,2.5*38
$GPRMC,203032.000,A,3748.7308,N,12217.9200,W,1.62,217.66,101111,,,A*74
$GPVTG,217.66,T,,M,1.62,N,3.0,K,A*0F
$GPGGA,203033.000,3748.7301,N,12217.9210,W,1,04,2.5,36.3,M,-25.1,M,,0000*51
$GPGSA,A,3,25,31,29,10,,,,,,,,,3.6,2.5,2.5*38
$GPRMC,203033.000,A,3748.7301,N,12217.9210,W,1.58,216.55,101111,,,A*75
$GPVTG,216.55,T,,M,1.58,N,2.9,K,A*0F
$GPGGA,203034.000,3748.7293,N,12217.9217,W,1,04,2.5,34.9,M,-25.1,M,,0000*53
$GPGSA,A,3,25,31,29,10,,,,,,,,,3.6,2.5,2.5*38
$GPGSV,3,1,09,25,69,226,30,05,54,095,31,29,52,316,38,12,47,169,27*7D
$GPGSV,3,2,09,02,32,052,32,21,21,245,31,30,15,318,18,31,13,298,19*7A
$GPGSV,3,3,09,10,13,040,27*42
$GPRMC,203034.000,A,3748.7293,N,12217.9217,W,1.48,189.38,101111,,,A*70
$GPVTG,189.38,T,,M,1.48,N,2.7,K,A*0E
$GPGGA,203035.000,3748.7279,N,12217.9223,W,1,04,2.5,33.6,M,-25.1,M,,0000*59
$GPGSA,A,3,25,31,29,10,,,,,,,,,3.6,2.5,2.5*38
$GPRMC,203035.000,A,3748.7279,N,12217.9223,W,2.21,194.59,101111,,,A*75
$GPVTG,194.59,T,,M,2.21,N,4.1,K,A*09
$GPGGA,203036.000,3748.7269,N,12217.9230,W,1,04,2.5,32.3,M,-25.1,M,,0000*5D
$GPGSA,A,3,25,31,29,10,,,,,,,,,3.6,2.5,2.5*38
$GPRMC,203036.000,A,3748.7269,N,12217.9230,W,1.82,201.35,101111,,,A*7A
$GPVTG,201.35,T,,M,1.82,N,3.4,K,A*04
$GPGGA,203037.000,3748.7265,N,12217.9234,W,1,04,2.5,32.6,M,-25.1,M,,0000*51
$GPGSA,A,3,25,31,29,10,,,,,,,,,3.6,2.5,2.5*38
$GPRMC,203037.000,A,3748.7265,N,12217.9234,W,1.62,225.84,101111,,,A*71
$GPVTG,225.84,T,,M,1.62,N,3.0,K,A*02
$GPGGA,203038.000,3748.7259,N,12217.9240,W,1,04,2.5,32.3,M,-25.1,M,,0000*57
$GPGSA,A,3,25,31,29,10,,,,,,,,,3.6,2.5,2.5*38
$GPRMC,203038.000,A,3748.7259,N,12217.9240,W,1.64,217.27,101111,,,A*7C
$GPVTG,217.27,T,,M,1.64,N,3.0,K,A*0C
$GPGGA,203039.000,3748.7254,N,12217.9251,W,1,04,2.5,31.4,M,-25.1,M,,0000*5F
$GPGSA,A,3,25,31,29,10,,,,,,,,,3.6,2.5,2.5*38
$GPGSV,3,1,09,25,69,226,30,05,54,095,24,29,52,316,36,12,47,169,27*77
$GPGSV,3,2,09,02,32,052,32,21,21,245,31,30,15,318,18,31,13,298,30*71
$GPGSV,3,3,09,10,13,040,28*4D
$GPRMC,203039.000,A,3748.7254,N,12217.9251,W,2.11,218.32,101111,,,A*7A
$GPVTG,218.32,T,,M,2.11,N,3.9,K,A*0F
$GPGGA,203040.000,3748.7255,N,12217.9262,W,1,04,2.5,30.6,M,-25.1,M,,0000*53
$GPGSA,A,3,25,31,29,10,,,,,,,,,3.6,2.5,2.5*38
$GPRMC,203040.000,A,3748.7255,N,12217.9262,W,1.16,238.37,101111,,,A*76
$GPVTG,238.37,T,,M,1.16,N,2.2,K,A*06
$GPGGA,203041.000,3748.7252,N,12217.9272,W,1,04,2.5,29.6,M,-25.1,M,,0000*5C
$GPGSA,A,3,25,31,29,10,,,,,,,,,3.6,2.5,2.5*38
$GPRMC,203041.000,A,3748.7252,N,12217.9272,W,1.44,224.65,101111,,,A*7C
$GPVTG,224.65,T,,M,1.44,N,2.7,K,A*0E
$GPGGA,203042.000,3748.7247,N,12217.9279,W,1,04,2.5,28.5,M,-25.1,M,,0000*52
$GPGSA,A,3,25,31,29,10,,,,,,,,,3.6,2.5,2.5*38
$GPRMC,203042.000,A,3748.7247,N,12217.9279,W,0.93,220.90,101111,,,A*75
$GPVTG,220.90,T,,M,0.93,N,1.7,K,A*08
$GPGGA,203043.000,3748.7249,N,12217.9286,W,1,04,2.5,28.6,M,-25.1,M,,0000*5E
$GPGSA,A,3,25,31,29,10,,,,,,,,,3.6,2.5,2.5*38
$GPRMC,203043.000,A,3748.7249,N,12217.9286,W,1.02,232.53,101111,,,A*7F
$GPVTG,232.53,T,,M,1.02,N,1.9,K,A*03
$GPGGA,203044.000,3748.7253,N,12217.9295,W,1,04,2.5,28.1,M,-25.1,M,,0000*57
$GPGSA,A,3,25,31,29,10,,,,,,,,,3.6,2.5,2.5*38
$GPGSV,3,1,09,25,69,226,29,05,54,095,30,29,52,316,34,12,47,169,25*7A
$GPGSV,3,2,09,02,32,052,31,21,21,245,24,30,15,318,23,31,13,298,34*7A
$GPGSV,3,3,09,10,13,040,20*45
$GPRMC,203044.000,A,3748.7253,N,12217.9295,W,0.82,333.47,101111,,,A*7D
$GPGGA,203045.000,3748.7254,N,12217.9302,W,1,04,2.5,26.7,M,-25.1,M,,0000*56
$GPGSA,A,3,25,31,29,10,,,,,,,,,3.6,2.5,2.5*38
$GPRMC,203045.000,A,3748.7254,N,12217.9302,W,0.62,339.08,101111,,,A*7B
$GPVTG,339.08,T,,M,0.62,N,1.1,K,A*08
$GPGGA,203046.000,3748.7262,N,12217.9306,W,1,03,2.5,27.4,M,-25.1,M,,0000*51
$GPGSA,A,2,25,29,10,,,,,,,,,,2.7,2.5,1.0*3D
$GPRMC,203046.000,A,3748.7262,N,12217.9306,W,1.46,309.66,101111,,,A*75
$GPVTG,309.66,T,,M,1.46,N,2.7,K,N*0E
$GPGGA,203047.000,3748.7254,N,12217.9308,W,1,04,2.5,26.7,M,-25.1,M,,0000*5E
$GPGSA,A,3,25,31,29,10,,,,,,,,,3.6,2.5,2.5*38
$GPRMC,203047.000,A,3748.7254,N,12217.9308,W,0.59,288.77,101111,,,A*78
$GPVTG,288.77,T,,M,0.59,N,1.1,K,A*03
$GPGGA,203048.000,3748.7246,N,12217.9313,W,1,04,2.5,26.0,M,-25.1,M,,0000*5F
$GPGSA,A,3,25,31,29,10,,,,,,,,,3.6,2.5,2.5*38
$GPRMC,203048.000,A,3748.7246,N,12217.9313,W,1.26,234.62,101111,,,A*74
$GPVTG,234.62,T,,M,1.26,N,2.3,K,A*08
$GPGGA,203049.000,3748.7240,N,12217.9322,W,1,04,2.5,25.2,M,-25.1,M,,0000*5B
$GPGSA,A,3,25,31,29,10,,,,,,,,,3.6,2.5,2.5*38
$GPGSV,3,1,09,25,69,226,26,05,54,095,25,29,52,316,35,12,47,169,25*70
$GPGSV,3,2,09,02,32,052,32,21,21,245,25,30,15,318,28,31,13,298,29*7F
$GPGSV,3,3,09,10,13,040,23*46
$GPRMC,203049.000,A,3748.7240,N,12217.9322,W,0.91,208.99,101111,,,A*77
$GPVTG,208.99,T,,M,0.91,N,1.7,K,A*09
$GPGGA,203050.000,3748.7232,N,12217.9329,W,1,04,2.5,25.6,M,-25.1,M,,0000*59
$GPGSA,A,3,25,31,29,10,,,,,,,,,3.6,2.5,2.5*38
$GPRMC,203050.000,A,3748.7232,N,12217.9329,W,1.76,200.71,101111,,,A*77
$GPVTG,200.71,T,,M,1.76,N,3.3,K,A*09
$GPGGA,203051.000,3748.7218,N,12217.9332,W,1,04,2.5,25.4,M,-25.1,M,,0000*58
$GPGSA,A,3,25,31,29,10,,,,,,,,,3.6,2.5,2.5*38
$GPRMC,203051.000,A,3748.7218,N,12217.9332,W,2.05,200.78,101111,,,A*7A
$GPVTG,200.78,T,,M,2.05,N,3.8,K,A*0C
$GPGGA,203052.000,3748.7212,N,12217.9334,W,1,04,2.5,25.3,M,-25.1,M,,0000*50
$GPGSA,A,3,25,31,29,10,,,,,,,,,3.6,2.5,2.5*38
$GPRMC,203052.000,A,3748.7212,N,12217.9334,W,1.83,215.85,101111,,,A*7E
$GPVTG,215.85,T,,M,1.83,N,3.4,K,A*0B
$GPGGA,203053.000,3748.7207,N,12217.9340,W,1,04,2.5,25.3,M,-25.1,M,,0000*56
$GPGSA,A,3,25,31,29,10,,,,,,,,,3.6,2.5,2.5*38
$GPRMC,203053.000,A,3748.7207,N,12217.9340,W,1.81,229.47,101111,,,A*7B
$GPVTG,229.47,T,,M,1.81,N,3.4,K,A*08
$GPGGA,203054.000,3748.7199,N,12217.9348,W,1,04,2.5,24.5,M,-25.1,M,,0000*5A
$GPGSA,A,3,25,31,29,10,,,,,,,,,3.6,2.5,2.5*38
$GPGSV,3,1,09,25,69,226,27,05,54,095,32,29,52,316,35,12,47,169,24*76
$GPGSV,3,2,09,02,32,052,31,21,21,245,29,30,15,318,40,31,13,298,29*7E
$GPGSV,3,3,09,10,13,040,24*41
$GPRMC,203054.000,A,3748.7199,N,12217.9348,W,1.52,220.66,101111,,,A*74
$GPVTG,220.66,T,,M,1.52,N,2.8,K,A*01
$GPGGA,203055.000,3748.7190,N,12217.9355,W,1,04,2.5,24.2,M,-25.1,M,,0000*59
$GPGSA,A,3,25,31,29,10,,,,,,,,,3.6,2.5,2.5*38
$GPRMC,203055.000,A,3748.7190,N,12217.9355,W,1.62,207.70,101111,,,A*71
$GPVTG,207.70,T,,M,1.62,N,3.0,K,A*09
$GPGGA,203056.000,3748.7175,N,12217.9356,W,1,04,2.5,24.1,M,-25.1,M,,0000*51
$GPGSA,A,3,25,31,29,10,,,,,,,,,3.6,2.5,2.5*38
$GPRMC,203056.000,A,3748.7175,N,12217.9356,W,1.89,181.93,101111,,,A*7F
$GPVTG,181.93,T,,M,1.89,N,3.5,K,A*09
$GPGGA,203057.000,3748.7161,N,12217.9362,W,1,04,2.5,24.0,M,-25.1,M,,0000*53
$GPGSA,A,3,25,31,29,10,,,,,,,,,3.6,2.5,2.5*38
$GPRMC,203057.000,A,3748.7161,N,12217.9362,W,2.41,199.17,101111,,,A*7E
$GPVTG,199.17,T,,M,2.41,N,4.5,K,A*0C
$GPGGA,203058.000,3748.7154,N,12217.9371,W,1,04,2.5,24.5,M,-25.1,M,,0000*5D
$GPGSA,A,3,25,31,29,10,,,,,,,,,3.6,2.5,2.5*38
$GPRMC,203058.000,A,3748.7154,N,12217.9371,W,2.35,197.08,101111,,,A*76
$GPVTG,197.08,T,,M,2.35,N,4.4,K,A*0E
$GPGGA,203059.000,3748.7146,N,12217.9376,W,1,04,2.5,24.3,M,-25.1,M,,0000*5E
$GPGSA,A,3,25,31,29,10,,,,,,,,,3.5,2.5,2.5*3B
$GPGSV,3,1,09,25,69,226,27,05,54,095,32,29,52,316,31,12,47,169,23*75
$GPGSV,3,2,09,02,32,052,36,21,21,245,28,30,15,318,38,31,13,298,30*7F
$GPGSV,3,3,09,10,13,040,23*46
$GPRMC,203059.000,A,3748.7146,N,12217.9376,W,1.94,198.19,101111,,,A*74
$GPVTG,198.19,T,,M,1.94,N,3.6,K,A*0C
$GPGGA,203100.000,3748.7132,N,12217.9380,W,1,04,2.5,22.9,M,-25.1,M,,0000*55
$GPGSA,A,3,25,31,29,10,,,,,,,,,3.5,2.5,2.5*3B
$GPRMC,203100.000,A,3748.7132,N,12217.9380,W,1.50,207.96,101111,,,A*79
$GPVTG,207.96,T,,M,1.50,N,2.8,K,A*09
$GPGGA,203101.000,3748.7122,N,12217.9385,W,1,04,2.5,22.6,M,-25.1,M,,0000*5F
$GPGSA,A,3,25,31,29,10,,,,,,,,,3.5,2.5,2.5*3B
$GPRMC,203101.000,A,3748.7122,N,12217.9385,W,2.04,203.45,101111,,,A*74
$GPVTG,203.45,T,,M,2.04,N,3.8,K,A*00
$GPGGA,203102.000,3748.7115,N,12217.9387,W,1,04,2.5,22.1,M,-25.1,M,,0000*5D
$GPGSA,A,3,25,31,29,10,,,,,,,,,3.5,2.5,2.5*3B
$GPRMC,203102.000,A,3748.7115,N,12217.9387,W,1.50,206.07,101111,,,A*70
$GPVTG,206.07,T,,M,1.50,N,2.8,K,A*00
$GPGGA,203103.000,3748.7115,N,12217.9391,W,1,04,2.5,21.9,M,-25.1,M,,0000*50
$GPGSA,A,3,25,31,29,10,,,,,,,,,3.5,2.5,2.5*3B
$GPRMC,203103.000,A,3748.7115,N,12217.9391,W,0.66,213.82,101111,,,A*7B
$GPVTG,213.82,T,,M,0.66,N,1.2,K,A*04
$GPGGA,203104.000,3748.7111,N,12217.9393,W,1,04,2.5,21.5,M,-25.1,M,,0000*5D
$GPGSA,A,3,25,31,29,10,,,,,,,,,3.5,2.5,2.5*3B
$GPGSV,3,1,09,25,69,226,28,05,54,095,32,29,52,316,32,12,47,169,23*79
$GPGSV,3,2,09,02,32,052,28,21,21,245,25,30,15,318,35,31,13,298,27*76
$GPGSV,3,3,09,10,13,040,22*47
$GPRMC,203104.000,A,3748.7111,N,12217.9393,W,1.02,172.78,101111,,,A*78
$GPVTG,172.78,T,,M,1.02,N,1.9,K,A*0D
$GPGGA,203105.000,3748.7104,N,12217.9389,W,1,04,2.5,20.6,M,-25.1,M,,0000*51
$GPGSA,A,3,25,31,29,10,,,,,,,,,3.5,2.5,2.5*3B
$GPRMC,203105.000,A,3748.7104,N,12217.9389,W,1.28,143.88,101111,,,A*73
$GPVTG,143.88,T,,M,1.28,N,2.4,K,A*06
$GPGGA,203106.000,3748.7091,N,12217.9392,W,1,04,2.5,19.4,M,-25.1,M,,0000*5D
$GPGSA,A,3,25,31,29,10,,,,,,,,,3.5,2.5,2.5*3B
$GPRMC,203106.000,A,3748.7091,N,12217.9392,W,2.05,171.36,101111,,,A*7F
$GPVTG,171.36,T,,M,2.05,N,3.8,K,A*03
$GPGGA,203107.000,3748.7090,N,12217.9401,W,1,04,2.5,18.9,M,-25.1,M,,0000*5C
$GPGSA,A,3,25,31,29,10,,,,,,,,,3.5,2.5,2.5*3B
$GPRMC,203107.000,A,3748.7090,N,12217.9401,W,2.16,209.53,101111,,,A*7F
$GPVTG,209.53,T,,M,2.16,N,4.0,K,A*01
$GPGGA,203108.000,3748.7083,N,12217.9403,W,1,04,2.5,19.3,M,-25.1,M,,0000*58
$GPGSA,A,3,25,31,29,10,,,,,,,,,3.5,2.5,2.5*3B
$GPRMC,203108.000,A,3748.7083,N,12217.9403,W,1.87,195.61,101111,,,A*7C
$GPVTG,195.61,T,,M,1.87,N,3.5,K,A*0F
$GPGGA,203109.000,3748.7075,N,12217.9404,W,1,04,2.5,20.5,M,-25.1,M,,0000*5B
$GPGSA,A,3,25,31,29,10,,,,,,,,,3.5,2.5,2.5*3B
$GPGSV,3,1,09,25,69,226,28,05,54,095,25,29,52,316,37,12,47,169,23*7A
$GPGSV,3,2,09,02,32,052,35,21,21,245,31,30,15,318,35,31,13,298,23*7B
$GPGSV,3,3,09,10,13,040,25*40
$GPRMC,203109.000,A,3748.7075,N,12217.9404,W,2.07,183.61,101111,,,A*7F
$GPGGA,203110.000,3748.7071,N,12217.9402,W,1,04,2.5,22.2,M,-25.1,M,,0000*54
$GPGSA,A,3,25,31,29,10,,,,,,,,,3.5,2.5,2.5*3B
$GPRMC,203110.000,A,3748.7071,N,12217.9402,W,1.87,177.55,101111,,,A*72
$GPVTG,177.55,T,,M,1.87,N,3.5,K,A*04
$GPGGA,203111.000,3748.7071,N,12217.9403,W,1,04,2.5,23.2,M,-25.1,M,,0000*55
$GPGSA,A,3,25,31,29,10,,,,,,,,,3.5,2.5,2.5*3B
$GPRMC,203111.000,A,3748.7071,N,12217.9403,W,0.66,181.75,101111,,,A*77
$GPVTG,181.75,T,,M,0.66,N,1.2,K,A*04
$GPGGA,203112.000,3748.7067,N,12217.9405,W,1,04,2.5,23.3,M,-25.1,M,,0000*56
$GPGSA,A,3,25,31,29,10,,,,,,,,,3.5,2.5,2.5*3B
$GPRMC,203112.000,A,3748.7067,N,12217.9405,W,0.99,172.29,101111,,,A*70
$GPVTG,172.29,T,,M,0.99,N,1.8,K,A*0B
$GPGGA,203113.000,3748.7067,N,12217.9407,W,1,04,2.5,24.2,M,-25.1,M,,0000*53
$GPGSA,A,3,25,31,29,10,,,,,,,,,3.5,2.5,2.5*3B
$GPRMC,203113.000,A,3748.7067,N,12217.9407,W,0.48,183.14,101111,,,A*7F
$GPVTG,183.14,T,,M,0.48,N,0.9,K,A*07
$GPGGA,203114.000,3748.7077,N,12217.9413,W,1,04,2.5,25.4,M,-25.1,M,,0000*57
$GPGSA,A,3,25,31,29,10,,,,,,,,,3.5,2.5,2.5*3B
$GPGSV,3,1,09,25,69,226,29,05,54,095,29,29,52,316,37,12,47,169,24*70
$GPGSV,3,2,09,02,32,052,32,21,21,245,31,30,15,318,25,31,13,298,23*7D
$GPGSV,3,3,09,10,13,040,24*41
$GPRMC,203114.000,A,3748.7077,N,12217.9413,W,0.38,228.55,101111,,,A*7C
$GPVTG,228.55,T,,M,0.38,N,0.7,K,A*09
$GPGGA,203115.000,3748.7076,N,12217.9416,W,1,04,2.5,26.3,M,-25.1,M,,0000*56
$GPGSA,A,3,25,31,29,10,,,,,,,,,3.5,2.5,2.5*3B
$GPRMC,203115.000,A,3748.7076,N,12217.9416,W,0.96,199.00,101111,,,A*74
$GPVTG,199.00,T,,M,0.96,N,1.8,K,A*0A
$GPGGA,203116.000,3748.7071,N,12217.9418,W,1,04,2.5,27.0,M,-25.1,M,,0000*5E
$GPGSA,A,3,25,31,29,10,,,,,,,,,3.5,2.5,2.5*3B
$GPRMC,203116.000,A,3748.7071,N,12217.9418,W,1.28,185.06,101111,,,A*71
$GPVTG,185.06,T,,M,1.28,N,2.4,K,A*0A
$GPGGA,203117.000,3748.7064,N,12217.9419,W,1,04,2.5,26.7,M,-25.1,M,,0000*5C
$GPGSA,A,3,25,31,29,10,,,,,,,,,3.5,2.5,2.5*3B
$GPRMC,203117.000,A,3748.7064,N,12217.9419,W,1.43,192.57,101111,,,A*7A
$GPVTG,192.57,T,,M,1.43,N,2.6,K,A*07
$GPGGA,203118.000,3748.7059,N,12217.9420,W,1,04,2.5,27.0,M,-25.1,M,,0000*51
$GPGSA,A,3,25,31,29,10,,,,,,,,,3.5,2.5,2.5*3B
$GPRMC,203118.000,A,3748.7059,N,12217.9420,W,1.26,198.03,101111,,,A*79
$GPVTG,198.03,T,,M,1.26,N,2.3,K,A*0A
$GPGGA,203119.000,3748.7053,N,12217.9421,W,1,04,2.5,27.4,M,-25.1,M,,0000*5F
$GPGSA,A,3,25,31,29,10,,,,,,,,,3.5,2.5,2.5*3B
$GPGSV,3,1,09,25,68,222,29,05,54,092,31,29,54,317,37,12,46,169,24*7D
$GPGSV,3,2,09,02,31,052,27,21,22,245,31,30,16,318,32,31,13,297,24*74
$GPGSV,3,3,09,10,12,039,25*4F
$GPRMC,203119.000,A,3748.7053,N,12217.9421,W,1.47,175.58,101111,,,A*79
$GPVTG,175.58,T,,M,1.47,N,2.7,K,A*04
$GPGGA,203120.000,3748.7047,N,12217.9423,W,1,04,2.5,27.1,M,-25.1,M,,0000*57
$GPGSA,A,3,25,31,29,10,,,,,,,,,3.5,2.5,2.5*3B
$GPRMC,203120.000,A,3748.7047,N,12217.9423,W,1.20,193.37,101111,,,A*74
$GPVTG,193.37,T,,M,1.20,N,2.2,K,A*01
$GPGGA,203121.000,3748.7042,N,12217.9425,W,1,04,2.5,27.2,M,-25.1,M,,0000*56
$GPGSA,A,3,25,31,29,10,,,,,,,,,3.5,2.5,2.5*3B
$GPRMC,203121.000,A,3748.7042,N,12217.9425,W,1.08,204.40,101111,,,A*71
$GPVTG,204.40,T,,M,1.08,N,2.0,K,A*04
$GPGGA,203122.000,3748.7038,N,12217.9424,W,1,04,2.5,27.8,M,-25.1,M,,0000*53
$GPGSA,A,3,25,31,29,10,,,,,,,,,3.5,2.5,2.5*3B
$GPRMC,203122.000,A,3748.7038,N,12217.9424,W,0.98,202.25,101111,,,A*73
$GPVTG,202.25,T,,M,0.98,N,1.8,K,A*02
$GPGGA,203123.000,3748.7035,N,12217.9423,W,1,04,2.5,28.5,M,-25.1,M,,0000*5A
$GPGSA,A,3,25,31,29,10,,,,,,,,,3.5,2.5,2.5*3B
$GPRMC,203123.000,A,3748.7035,N,12217.9423,W,1.06,195.48,101111,,,A*78
$GPVTG,195.48,T,,M,1.06,N,2.0,K,A*09
$GPGGA,203124.000,3748.7030,N,12217.9425,W,1,04,2.5,28.4,M,-25.1,M,,0000*5F
$GPGSA,A,3,25,31,29,10,,,,,,,,,3.5,2.5,2.5*3B
$GPGSV,3,1,09,25,68,222,29,05,54,092,32,29,54,317,37,12,46,169,25*7F
$GPGSV,3,2,09,02,31,052,27,21,22,245,28,30,16,318,32,31,13,297,21*79
$GPGSV,3,3,09,10,12,039,29*43
$GPRMC,203124.000,A,3748.7030,N,12217.9425,W,0.88,194.88,101111,,,A*76
$GPVTG,194.88,T,,M,0.88,N,1.6,K,A*06
$GPGGA,203125.000,3748.7027,N,12217.9427,W,1,04,2.5,28.2,M,-25.1,M,,0000*5C
$GPGSA,A,3,25,31,29,10,,,,,,,,,3.5,2.5,2.5*3B
$GPRMC,203125.000,A,3748.7027,N,12217.9427,W,0.70,244.87,101111,,,A*75
$GPVTG,244.87,T,,M,0.70,N,1.3,K,A*05
$GPGGA,203126.000,3748.7023,N,12217.9429,W,1,04,2.5,28.0,M,-25.1,M,,0000*57
$GPGSA,A,3,25,31,29,10,,,,,,,,,3.5,2.5,2.5*3B
$GPRMC,203126.000,A,3748.7023,N,12217.9429,W,0.42,187.58,101111,,,A*73
$GPVTG,187.58,T,,M,0.42,N,0.8,K,A*00
$GPGGA,203127.000,3748.7023,N,12217.9429,W,1,04,2.5,28.6,M,-25.1,M,,0000*50
$GPGSA,A,3,25,31,29,10,,,,,,,,,3.5,2.5,2.5*3B
$GPRMC,203127.000,A,3748.7023,N,12217.9429,W,0.47,36.71,101111,,,A*47
$GPVTG,36.71,T,,M,0.47,N,0.9,K,A*34
$GPGGA,203128.000,3748.7025,N,12217.9424,W,1,04,2.5,30.5,M,-25.1,M,,0000*5E
$GPGSA,A,3,25,31,29,10,,,,,,,,,3.5,2.5,2.5*3B
