$ADVER,3080,2.3
$GPRMC,201427.379,A,3748.7981,N,12217.8595,W,0.00,,120711,,,A*60
$GPRMC,201428.479,A,3748.8014,N,12217.8597,W,0.21,159.38,120711,,,A*7B
$GPRMC,201429.379,A,3748.8001,N,12217.8578,W,0.44,11.58,120711,,,A*40
$GPRMC,201430.379,A,3748.8009,N,12217.8592,W,0.45,358.09,120711,,,A*7F
$GPRMC,201431.000,A,3748.8008,N,12217.8593,W,0.25,342.80,120711,,,A*7F
$GPRMC,201432.000,A,3748.8007,N,12217.8596,W,0.03,115.39,120711,,,A*70
$GPRMC,201433.000,A,3748.8009,N,12217.8597,W,0.32,330.98,120711,,,A*72
$GPRMC,201434.000,A,3748.8010,N,12217.8598,W,0.97,303.47,120711,,,A*7F
$GPRMC,201435.000,A,3748.8009,N,12217.8602,W,0.85,328.68,120711,,,A*71
$GPRMC,201436.000,A,3748.8009,N,12217.8616,W,1.03,340.10,120711,,,A*79
$GPRMC,201437.000,A,3748.8014,N,12217.8620,W,0.72,341.60,120711,,,A*70
$GPRMC,201438.000,A,3748.8015,N,12217.8622,W,0.91,339.88,120711,,,A*78
$GPRMC,201439.000,A,3748.8019,N,12217.8626,W,0.24,335.50,120711,,,A*76
$GPRMC,201440.000,A,3748.8022,N,12217.8629,W,0.17,156.03,120711,,,A*7E
$GPRMC,201441.000,A,3748.8023,N,12217.8631,W,0.26,148.34,120711,,,A*7E
$GPRMC,201442.000,A,3748.8021,N,12217.8634,W,0.16,331.68,120711,,,A*7C
$GPRMC,201443.000,A,3748.8019,N,12217.8636,W,0.22,310.77,120711,,,A*7E
$GPRMC,201444.000,A,3748.8019,N,12217.8638,W,0.35,173.12,120711,,,A*75
$GPRMC,201445.000,A,3748.8016,N,12217.8638,W,0.65,158.61,120711,,,A*73
$GPRMC,201446.000,A,3748.8011,N,12217.8636,W,0.12,189.76,120711,,,A*73
$GPRMC,201447.000,A,3748.8007,N,12217.8635,W,0.02,185.14,120711,,,A*7F
$GPRMC,201448.000,A,3748.8005,N,12217.8634,W,0.09,60.76,120711,,,A*46
$GPRMC,201449.000,A,3748.8004,N,12217.8633,W,0.40,29.05,120711,,,A*45
$GPRMC,201450.000,A,3748.8003,N,12217.8632,W,0.14,254.25,120711,,,A*70
$GPRMC,201451.000,A,3748.8002,N,12217.8631,W,0.10,139.43,120711,,,A*7F
$GPRMC,201452.000,A,3748.8001,N,12217.8631,W,0.04,65.37,120711,,,A*41
$GPRMC,201453.000,A,3748.8000,N,12217.8631,W,0.13,167.55,120711,,,A*70
$GPRMC,201454.000,A,3748.8000,N,12217.8631,W,0.26,244.21,120711,,,A*70
$GPRMC,201455.000,A,3748.7999,N,12217.8631,W,0.17,290.88,120711,,,A*7F
$GPRMC,201456.000,A,3748.7999,N,12217.8632,W,0.24,289.29,120711,,,A*7C
$GPRMC,201457.000,A,3748.7999,N,12217.8632,W,0.10,267.80,120711,,,A*79
$GPRMC,201458.000,A,3748.7998,N,12217.8631,W,0.05,107.00,120711,,,A*7D
$GPRMC,201459.000,A,3748.7997,N,12217.8630,W,0.25,121.83,120711,,,A*7F
$GPRMC,201500.000,A,3748.7997,N,12217.8629,W,0.06,122.48,120711,,,A*7F
$GPRMC,201501.000,A,3748.7996,N,12217.8628,W,0.04,256.11,120711,,,A*70
$GPRMC,201502.000,A,3748.7996,N,12217.8628,W,0.02,150.32,120711,,,A*71
$GPRMC,201503.000,A,3748.7995,N,12217.8627,W,0.10,143.73,120711,,,A*78
$GPRMC,201504.000,A,3748.7995,N,12217.8626,W,0.26,62.01,120711,,,A*4C
$GPRMC,201505.000,A,3748.7995,N,12217.8626,W,0.35,313.53,120711,,,A*7D
$GPRMC,201506.000,A,3748.7995,N,12217.8627,W,0.08,325.07,120711,,,A*75
$GPRMC,201507.000,A,3748.7996,N,12217.8627,W,0.24,44.74,120711,,,A*49
$GPRMC,201508.000,A,3748.7997,N,12217.8626,W,0.23,63.68,120711,,,A*49
$GPRMC,201509.000,A,3748.7997,N,12217.8626,W,0.27,187.54,120711,,,A*78
$GPRMC,201510.000,A,3748.7996,N,12217.8626,W,0.55,211.48,120711,,,A*75
$GPRMC,201511.000,A,3748.7995,N,12217.8628,W,1.01,226.90,120711,,,A*78
$GPRMC,201512.000,A,3748.7994,N,12217.8630,W,0.45,259.79,120711,,,A*7D
$GPRMC,201513.000,A,3748.7995,N,12217.8630,W,0.20,1.68,120711,,,A*71
$GPRMC,201514.000,A,3748.7995,N,12217.8629,W,0.27,336.76,120711,,,A*71
$GPRMC,201515.000,A,3748.7996,N,12217.8629,W,0.22,317.21,120711,,,A*77
$GPRMC,201516.000,A,3748.7996,N,12217.8629,W,0.23,267.39,120711,,,A*7A
$GPRMC,201517.000,A,3748.7997,N,12217.8628,W,0.31,340.33,120711,,,A*76
$GPRMC,201518.000,A,3748.7997,N,12217.8628,W,0.46,315.65,120711,,,A*7A
$GPRMC,201519.000,A,3748.7998,N,12217.8628,W,0.11,347.89,120711,,,A*73
$GPRMC,201520.000,A,3748.7997,N,12217.8626,W,0.38,117.06,120711,,,A*73
$GPRMC,201521.000,A,3748.7997,N,12217.8624,W,0.02,346.78,120711,,,A*76
$GPRMC,201522.000,A,3748.7997,N,12217.8624,W,0.16,358.02,120711,,,A*72
$GPRMC,201523.000,A,3748.7997,N,12217.8622,W,0.25,42.45,120711,,,A*4E
$GPRMC,201524.000,A,3748.7998,N,12217.8621,W,0.09,113.64,120711,,,A*7D
$GPRMC,201525.000,A,3748.7997,N,12217.8620,W,0.08,260.19,120711,,,A*7E
$GPRMC,201526.000,A,3748.7997,N,12217.8619,W,0.16,292.26,120711,,,A*79
$GPRMC,201527.000,A,3748.7997,N,12217.8620,W,0.35,228.45,120711,,,A*77
$GPRMC,201528.000,A,3748.7994,N,12217.8621,W,1.34,205.58,120711,,,A*79
$GPRMC,201529.000,A,3748.7990,N,12217.8622,W,1.57,191.83,120711,,,A*72
$GPRMC,201530.000,A,3748.7985,N,12217.8624,W,1.75,191.49,120711,,,A*7E
$GPRMC,201531.000,A,3748.7980,N,12217.8627,W,1.56,198.26,120711,,,A*78
$GPRMC,201532.000,A,3748.7975,N,12217.8629,W,1.94,205.71,120711,,,A*74
$GPRMC,201533.000,A,3748.7971,N,12217.8631,W,1.65,196.82,120711,,,A*73
$GPRMC,201534.000,A,3748.7964,N,12217.8633,W,1.54,180.93,120711,,,A*77
$GPRMC,201535.000,A,3748.7959,N,12217.8634,W,1.17,190.67,120711,,,A*72
$GPRMC,201536.000,A,3748.7955,N,12217.8636,W,0.76,211.71,120711,,,A*74
$GPRMC,201537.000,A,3748.7952,N,12217.8638,W,0.35,203.67,120711,,,D*7A
$GPRMC,201538.000,A,3748.7951,N,12217.8639,W,0.51,245.67,120711,,,D*77
$GPRMC,201539.000,A,3748.7950,N,12217.8642,W,0.28,221.30,120711,,,D*75
$GPRMC,201540.000,A,3748.7948,N,12217.8643,W,0.75,194.02,120711,,,D*77
$GPRMC,201541.000,A,3748.7945,N,12217.8644,W,0.81,198.90,120711,,,D*70
$GPRMC,201542.000,A,3748.7943,N,12217.8646,W,0.76,193.97,120711,,,D*73
$GPRMC,201543.000,A,3748.7939,N,12217.8648,W,0.59,135.89,120711,,,D*7F
$GPRMC,201544.000,A,3748.7936,N,12217.8647,W,0.78,135.05,120711,,,D*7F
$GPRMC,201545.000,A,3748.7932,N,12217.8646,W,1.03,113.76,120711,,,D*76
$GPRMC,201546.000,A,3748.7926,N,12217.8645,W,1.77,150.99,120711,,,D*76
$GPRMC,201547.000,A,3748.7921,N,12217.8645,W,0.98,140.82,120711,,,D*7B
$GPRMC,201548.000,A,3748.7917,N,12217.8645,W,1.04,129.15,120711,,,D*74
$GPRMC,201549.000,A,3748.7912,N,12217.8645,W,0.83,119.51,120711,,,D*7D
$GPRMC,201550.000,A,3748.7912,N,12217.8647,W,0.50,358.33,120711,,,D*7A
$GPRMC,201551.000,A,3748.7913,N,12217.8650,W,0.56,349.21,120711,,,D*79
$GPRMC,201552.000,A,3748.7913,N,12217.8652,W,0.15,347.98,120711,,,D*73
$GPRMC,201553.000,A,3748.7912,N,12217.8652,W,0.17,164.65,120711,,,D*70
$GPRMC,201554.000,A,3748.7910,N,12217.8654,W,0.42,172.33,120711,,,D*77
$GPRMC,201555.000,A,3748.7909,N,12217.8655,W,0.18,151.27,120711,,,D*74
$GPRMC,201556.000,A,3748.7917,N,12217.8662,W,0.17,0.37,120711,,,D*77
$GPRMC,201557.000,A,3748.7923,N,12217.8666,W,0.29,359.79,120711,,,D*7D
$GPRMC,201558.000,A,3748.7925,N,12217.8668,W,0.37,347.30,120711,,,D*77
$GPRMC,201559.000,A,3748.7927,N,12217.8671,W,0.06,274.56,120711,,,D*7F
$GPRMC,201600.000,A,3748.7928,N,12217.8673,W,0.07,22.87,120711,,,D*41
$GPRMC,201601.000,A,3748.7929,N,12217.8675,W,0.25,24.02,120711,,,D*4C
$GPRMC,201602.000,A,3748.7929,N,12217.8675,W,0.26,21.80,120711,,,D*43
$GPRMC,201603.000,A,3748.7926,N,12217.8674,W,0.15,21.36,120711,,,D*41
$GPRMC,201604.000,A,3748.7924,N,12217.8674,W,0.19,149.52,120711,,,D*75
$GPRMC,201605.000,A,3748.7923,N,12217.8675,W,0.10,126.28,120711,,,A*7A
$GPRMC,201606.000,A,3748.7918,N,12217.8674,W,0.50,159.11,120711,,,A*76
$GPRMC,201607.000,A,3748.7916,N,12217.8675,W,0.08,189.36,120711,,,A*7D
$GPRMC,201608.000,A,3748.7918,N,12217.8678,W,0.13,175.49,120711,,,A*70
$GPRMC,201609.000,A,3748.7918,N,12217.8678,W,0.64,172.42,120711,,,A*7D
$GPRMC,201610.000,A,3748.7918,N,12217.8679,W,0.42,196.79,120711,,,A*72
$GPRMC,201611.000,A,3748.7917,N,12217.8680,W,0.38,170.86,120711,,,A*7F
$GPRMC,201612.000,A,3748.7917,N,12217.8681,W,0.26,342.28,120711,,,A*75
$GPRMC,201613.000,A,3748.7918,N,12217.8681,W,0.62,345.17,120711,,,A*70
$GPRMC,201614.000,A,3748.7915,N,12217.8679,W,0.34,78.45,120711,,,A*44
$GPRMC,201615.000,A,3748.7922,N,12217.8681,W,0.29,12.52,120711,,,A*40
$GPRMC,201616.000,A,3748.7922,N,12217.8682,W,0.08,151.73,120711,,,A*76
$GPRMC,201617.000,A,3748.7923,N,12217.8682,W,0.03,265.84,120711,,,A*71
$GPRMC,201618.000,A,3748.7923,N,12217.8682,W,0.16,160.73,120711,,,A*74
$GPRMC,201619.000,A,3748.7929,N,12217.8685,W,0.10,97.95,120711,,,A*4F
$GPRMC,201620.000,A,3748.7934,N,12217.8687,W,0.02,290.11,120711,,,A*71
$GPRMC,201621.000,A,3748.7934,N,12217.8686,W,0.05,60.93,120711,,,A*41
$GPRMC,201622.000,A,3748.7932,N,12217.8685,W,0.16,187.64,120711,,,A*75
$GPRMC,201623.000,A,3748.7931,N,12217.8684,W,0.21,179.46,120711,,,A*73
$GPRMC,201624.000,A,3748.7930,N,12217.8682,W,0.09,53.37,120711,,,A*46
$GPRMC,201625.000,A,3748.7929,N,12217.8681,W,0.21,352.22,120711,,,A*70
$GPRMC,201626.000,A,3748.7929,N,12217.8680,W,0.07,275.74,120711,,,A*71
$GPRMC,201627.000,A,3748.7928,N,12217.8679,W,0.06,332.29,120711,,,A*7C
$GPRMC,201628.000,A,3748.7930,N,12217.8677,W,0.52,222.14,120711,,,A*7B
$GPRMC,201629.000,A,3748.7927,N,12217.8678,W,0.36,253.22,120711,,,A*72
$GPRMC,201630.000,A,3748.7925,N,12217.8679,W,0.31,265.85,120711,,,A*76
$GPRMC,201631.000,A,3748.7925,N,12217.8680,W,0.35,273.54,120711,,,A*7E
$GPRMC,201632.000,A,3748.7924,N,12217.8681,W,0.16,289.56,120711,,,A*7B
$GPRMC,201633.000,A,3748.7924,N,12217.8682,W,0.26,270.25,120711,,,A*78
$GPRMC,201634.000,A,3748.7923,N,12217.8682,W,0.16,296.34,120711,,,A*73
$GPRMC,201635.000,A,3748.7924,N,12217.8681,W,0.10,40.90,120711,,,A*47
$GPRMC,201636.000,A,3748.7923,N,12217.8680,W,0.28,69.55,120711,,,A*4B
$GPRMC,201637.000,A,3748.7923,N,12217.8679,W,0.44,70.52,120711,,,A*49
$GPRMC,201638.000,A,3748.7923,N,12217.8679,W,0.25,65.94,120711,,,A*4F
$GPRMC,201639.000,A,3748.7923,N,12217.8678,W,0.14,26.27,120711,,,A*42
$GPRMC,201640.000,A,3748.7923,N,12217.8678,W,0.16,2.89,120711,,,A*7C
$GPRMC,201641.000,A,3748.7923,N,12217.8679,W,0.14,277.43,120711,,,A*78
$GPRMC,201642.000,A,3748.7922,N,12217.8679,W,0.07,253.12,120711,,,A*7A
$GPRMC,201643.000,A,3748.7922,N,12217.8679,W,0.15,341.86,120711,,,A*77
$GPRMC,201644.000,A,3748.7922,N,12217.8680,W,0.12,324.27,120711,,,A*79
$GPRMC,201645.000,A,3748.7921,N,12217.8679,W,0.17,290.28,120711,,,A*79
$GPRMC,201646.000,A,3748.7920,N,12217.8679,W,0.29,266.06,120711,,,A*73
$GPRMC,201647.000,A,3748.7919,N,12217.8678,W,0.25,282.30,120711,,,A*7A
$GPRMC,201648.000,A,3748.7919,N,12217.8678,W,0.38,266.66,120711,,,D*75
$GPRMC,201649.000,A,3748.7918,N,12217.8679,W,0.41,262.44,120711,,,D*7E
$GPRMC,201650.000,A,3748.7918,N,12217.8678,W,0.12,248.05,120711,,,D*7C
$GPRMC,201651.000,A,3748.7917,N,12217.8677,W,0.15,63.06,120711,,,D*42
$GPRMC,201652.000,A,3748.7917,N,12217.8675,W,0.14,54.00,120711,,,D*40
$GPRMC,201653.000,A,3748.7917,N,12217.8673,W,0.18,74.01,120711,,,D*48
$GPRMC,201654.000,A,3748.7917,N,12217.8671,W,0.32,55.33,120711,,,D*47
$GPRMC,201655.000,A,3748.7917,N,12217.8670,W,0.17,84.33,120711,,,D*4C
$GPRMC,201656.000,A,3748.7917,N,12217.8666,W,0.14,139.62,120711,,,D*78
$GPRMC,201657.000,A,3748.7916,N,12217.8663,W,0.20,39.37,120711,,,D*4B
$GPRMC,201658.000,A,3748.7917,N,12217.8661,W,0.23,55.13,120711,,,D*48
$GPRMC,201659.000,A,3748.7915,N,12217.8663,W,0.19,51.90,120711,,,D*4F
$GPRMC,201700.000,A,3748.7914,N,12217.8663,W,0.36,67.51,120711,,,D*46
$GPRMC,201701.000,A,3748.7915,N,12217.8662,W,0.27,54.45,120711,,,D*42
$GPRMC,201702.000,A,3748.7916,N,12217.8658,W,0.18,28.63,120711,,,D*48
$GPRMC,201703.000,A,3748.7917,N,12217.8656,W,0.15,7.27,120711,,,D*76
$GPRMC,201704.000,A,3748.7918,N,12217.8653,W,0.28,58.73,120711,,,D*4E
$GPRMC,201705.000,A,3748.7919,N,12217.8650,W,0.29,77.49,120711,,,D*48
$GPRMC,201706.000,A,3748.7920,N,12217.8648,W,0.24,42.89,120711,,,D*4F
$GPRMC,201707.000,A,3748.7920,N,12217.8646,W,0.20,49.58,120711,,,D*43
$GPRMC,201708.000,A,3748.7921,N,12217.8645,W,0.13,78.91,120711,,,D*49
$GPRMC,201709.000,A,3748.7921,N,12217.8645,W,0.04,30.54,120711,,,D*4B
$GPRMC,201710.000,A,3748.7922,N,12217.8645,W,0.12,36.15,120711,,,D*44
$GPRMC,201711.000,A,3748.7923,N,12217.8645,W,0.13,306.84,120711,,,D*7D
$GPRMC,201712.000,A,3748.7925,N,12217.8647,W,0.32,302.09,120711,,,D*78
$GPRMC,201713.000,A,3748.7923,N,12217.8648,W,0.37,255.28,120711,,,D*75
$GPRMC,201714.000,A,3748.7920,N,12217.8649,W,0.19,251.97,120711,,,D*7C
$GPRMC,201715.000,A,3748.7920,N,12217.8651,W,0.28,256.94,120711,,,D*72
$GPRMC,201716.000,A,3748.7922,N,12217.8652,W,0.22,289.41,120711,,,D*70
$GPRMC,201717.000,A,3748.7920,N,12217.8655,W,0.25,255.02,120711,,,D*75
$GPRMC,201718.000,A,3748.7918,N,12217.8656,W,0.29,216.67,120711,,,D*7A
$GPRMC,201719.000,A,3748.7916,N,12217.8657,W,0.26,226.00,120711,,,D*79
$GPRMC,201720.000,A,3748.7915,N,12217.8657,W,0.20,237.76,120711,,,D*77
$GPRMC,201721.000,A,3748.7913,N,12217.8657,W,0.42,276.93,120711,,,D*7A
$GPRMC,201722.000,A,3748.7912,N,12217.8657,W,0.04,50.23,120711,,,D*47
$GPRMC,201723.000,A,3748.7910,N,12217.8658,W,0.16,274.39,120711,,,D*77
$GPRMC,201724.000,A,3748.7909,N,12217.8659,W,0.24,271.99,120711,,,D*77
$GPRMC,201725.000,A,3748.7908,N,12217.8660,W,0.28,270.51,120711,,,D*74
$GPRMC,201726.000,A,3748.7907,N,12217.8661,W,0.15,272.36,120711,,,D*74
$GPRMC,201727.000,A,3748.7909,N,12217.8662,W,0.31,287.18,120711,,,D*78
$GPRMC,201728.000,A,3748.7910,N,12217.8663,W,0.29,305.79,120711,,,D*7B
$GPRMC,201729.000,A,3748.7911,N,12217.8668,W,0.30,109.38,120711,,,D*73
$GPRMC,201730.000,A,3748.7912,N,12217.8667,W,0.32,328.84,120711,,,D*73
$GPRMC,201731.000,A,3748.7912,N,12217.8667,W,0.30,280.21,120711,,,D*7C
$GPRMC,201732.000,A,3748.7911,N,12217.8666,W,0.13,158.21,120711,,,D*7A
$GPRMC,201733.000,A,3748.7909,N,12217.8667,W,0.27,182.79,120711,,,D*7E
$GPRMC,201734.000,A,3748.7908,N,12217.8667,W,0.22,349.44,120711,,,D*76
$GPRMC,201735.000,A,3748.7908,N,12217.8667,W,0.24,352.68,120711,,,D*75
$GPRMC,201736.000,A,3748.7907,N,12217.8668,W,0.10,5.73,120711,,,D*7A
$GPRMC,201737.000,A,3748.7904,N,12217.8670,W,0.03,295.42,120711,,,D*7A
$GPRMC,201738.000,A,3748.7903,N,12217.8671,W,0.12,254.03,120711,,,D*7B
$GPRMC,201739.000,A,3748.7901,N,12217.8671,W,0.36,213.22,120711,,,D*7E
$GPRMC,201740.000,A,3748.7899,N,12217.8674,W,0.46,261.43,120711,,,D*70
$GPRMC,201741.000,A,3748.7899,N,12217.8676,W,0.72,266.61,120711,,,D*73
$GPRMC,201742.000,A,3748.7899,N,12217.8679,W,1.03,297.60,120711,,,D*77
$GPRMC,201743.000,A,3748.7897,N,12217.8681,W,0.80,236.36,120711,,,D*7D
$GPRMC,201744.000,A,3748.7894,N,12217.8683,W,0.93,185.63,120711,,,D*72
$GPRMC,201745.000,A,3748.7891,N,12217.8684,W,0.64,175.76,120711,,,D*72
$GPRMC,201746.000,A,3748.7887,N,12217.8683,W,0.86,169.23,120711,,,D*70
$GPRMC,201747.000,A,3748.7884,N,12217.8683,W,0.13,106.28,120711,,,D*7C
$GPRMC,201748.000,A,3748.7883,N,12217.8683,W,0.27,286.50,120711,,,D*77
$GPRMC,201749.000,A,3748.7882,N,12217.8682,W,0.33,355.10,120711,,,D*78
$GPRMC,201750.000,A,3748.7879,N,12217.8680,W,0.12,356.91,120711,,,D*7F
$GPRMC,201751.000,A,3748.7883,N,12217.8681,W,0.56,318.55,120711,,,D*78
$GPRMC,201752.000,A,3748.7885,N,12217.8683,W,0.57,314.28,120711,,,D*78
$GPRMC,201753.000,A,3748.7888,N,12217.8683,W,0.49,351.78,120711,,,D*7F
$GPRMC,201754.000,A,3748.7886,N,12217.8683,W,0.09,81.72,120711,,,D*46
$GPRMC,201755.000,A,3748.7884,N,12217.8681,W,0.06,246.34,120711,,,D*73
$GPRMC,201756.000,A,3748.7880,N,12217.8679,W,0.16,275.46,120711,,,D*77
$GPRMC,201757.000,A,3748.7878,N,12217.8680,W,0.20,237.71,120711,,,A*75
$GPRMC,201758.000,A,3748.7882,N,12217.8681,W,0.17,270.60,120711,,,A*79
$GPRMC,201759.000,A,3748.7881,N,12217.8680,W,0.12,290.16,120711,,,A*70
$GPRMC,201800.000,A,3748.7880,N,12217.8677,W,0.10,179.09,120711,,,A*72
$GPRMC,201801.000,A,3748.7881,N,12217.8678,W,0.46,152.72,120711,,,A*7B
$GPRMC,201802.000,A,3748.7877,N,12217.8673,W,0.41,138.80,120711,,,A*7C
$GPRMC,201803.000,A,3748.7878,N,12217.8673,W,0.70,323.05,120711,,,A*75
$GPRMC,201804.000,A,3748.7882,N,12217.8676,W,0.32,0.43,120711,,,A*74
$GPRMC,201805.000,A,3748.7888,N,12217.8678,W,0.27,36.12,120711,,,A*44
$GPRMC,201806.000,A,3748.7893,N,12217.8680,W,0.08,99.01,120711,,,A*40
$GPRMC,201807.000,A,3748.7896,N,12217.8683,W,0.15,325.77,120711,,,A*7E
$GPRMC,201808.000,A,3748.7901,N,12217.8686,W,0.26,325.58,120711,,,A*76
$GPRMC,201809.000,A,3748.7904,N,12217.8689,W,0.41,352.77,120711,,,A*71
$GPRMC,201810.000,A,3748.7905,N,12217.8688,W,0.51,330.39,120711,,,A*76
$GPRMC,201811.000,A,3748.7903,N,12217.8689,W,0.86,332.83,120711,,,A*79
$GPRMC,201812.000,A,3748.7902,N,12217.8693,W,0.63,332.77,120711,,,A*70
$GPRMC,201813.000,A,3748.7898,N,12217.8694,W,0.55,174.64,120711,,,A*73
$GPRMC,201814.000,A,3748.7895,N,12217.8698,W,1.04,199.38,120711,,,A*7A
$GPRMC,201815.000,A,3748.7892,N,12217.8701,W,0.24,248.27,120711,,,A*7F
$GPRMC,201816.000,A,3748.7889,N,12217.8702,W,0.33,146.35,120711,,,A*7D
$GPRMC,201817.000,A,3748.7889,N,12217.8700,W,0.42,184.17,120711,,,A*76
$GPRMC,201818.000,A,3748.7888,N,12217.8702,W,0.15,191.29,120711,,,A*71
$GPRMC,201819.000,A,3748.7891,N,12217.8701,W,0.61,273.92,120711,,,A*77
$GPRMC,201820.000,A,3748.7894,N,12217.8703,W,0.72,263.02,120711,,,A*70
$GPRMC,201821.000,A,3748.7896,N,12217.8706,W,0.86,277.89,120711,,,A*7B
$GPRMC,201822.000,A,3748.7899,N,12217.8710,W,1.18,280.30,120711,,,A*7C
$GPRMC,201823.000,A,3748.7900,N,12217.8713,W,1.03,291.78,120711,,,A*79
$GPRMC,201824.000,A,3748.7902,N,12217.8718,W,1.03,266.82,120711,,,A*7A
$GPRMC,201825.000,A,3748.7902,N,12217.8721,W,1.27,242.17,120711,,,A*7D
$GPRMC,201826.000,A,3748.7899,N,12217.8724,W,1.74,212.33,120711,,,A*7D
$GPRMC,201827.000,A,3748.7898,N,12217.8728,W,1.71,210.55,120711,,,A*76
$GPRMC,201828.000,A,3748.7895,N,12217.8729,W,1.71,196.74,120711,,,A*7B
$GPRMC,201829.000,A,3748.7890,N,12217.8730,W,1.73,190.22,120711,,,A*70
$GPRMC,201830.000,A,3748.7888,N,12217.8736,W,1.95,209.40,120711,,,A*78
$GPRMC,201831.000,A,3748.7885,N,12217.8744,W,1.97,208.51,120711,,,A*72
$GPRMC,201832.000,A,3748.7881,N,12217.8752,W,2.03,213.77,120711,,,A*72
$GPRMC,201833.000,A,3748.7877,N,12217.8759,W,1.85,208.39,120711,,,A*7C
$GPRMC,201834.000,A,3748.7873,N,12217.8766,W,1.47,208.52,120711,,,A*70
$GPRMC,201835.000,A,3748.7870,N,12217.8772,W,1.19,185.66,120711,,,A*7D
$GPRMC,201836.000,A,3748.7867,N,12217.8778,W,1.44,208.36,120711,,,A*79
$GPRMC,201837.000,A,3748.7863,N,12217.8783,W,1.29,213.01,120711,,,A*7D
$GPRMC,201838.000,A,3748.7861,N,12217.8787,W,1.51,198.32,120711,,,A*7B
$GPRMC,201839.000,A,3748.7861,N,12217.8796,W,1.38,208.75,120711,,,A*7C
$GPRMC,201840.000,A,3748.7855,N,12217.8801,W,1.37,196.14,120711,,,A*78
$GPRMC,201841.000,A,3748.7850,N,12217.8808,W,1.45,216.73,120711,,,A*7A
$GPRMC,201842.000,A,3748.7844,N,12217.8816,W,1.16,211.29,120711,,,A*7D
$GPRMC,201843.000,A,3748.7841,N,12217.8822,W,1.57,213.63,120711,,,A*77
$GPRMC,201844.000,A,3748.7837,N,12217.8829,W,1.95,203.19,120711,,,D*7D
$GPRMC,201845.000,A,3748.7835,N,12217.8836,W,1.92,181.95,120711,,,D*7A
$GPRMC,201846.000,A,3748.7835,N,12217.8847,W,1.30,194.95,120711,,,D*73
$GPRMC,201847.000,A,3748.7834,N,12217.8855,W,1.59,201.12,120711,,,D*7F
$GPRMC,201848.000,A,3748.7828,N,12217.8861,W,1.92,204.51,120711,,,D*7F
$GPRMC,201849.000,A,3748.7821,N,12217.8866,W,1.58,212.73,120711,,,D*71
$GPRMC,201850.000,A,3748.7813,N,12217.8873,W,1.85,216.11,120711,,,D*7C
$GPRMC,201851.000,A,3748.7807,N,12217.8880,W,1.82,227.90,120711,,,D*78
$GPRMC,201852.000,A,3748.7800,N,12217.8889,W,1.67,234.55,120711,,,D*75
$GPRMC,201853.000,A,3748.7796,N,12217.8896,W,1.54,217.90,120711,,,D*72
$GPRMC,201854.000,A,3748.7796,N,12217.8906,W,1.29,228.91,120711,,,D*7A
$GPRMC,201855.000,A,3748.7793,N,12217.8913,W,1.21,226.17,120711,,,D*72
$GPRMC,201856.000,A,3748.7789,N,12217.8922,W,1.38,216.82,120711,,,D*7F
$GPRMC,201857.000,A,3748.7782,N,12217.8928,W,1.65,204.26,120711,,,D*7A
$GPRMC,201858.000,A,3748.7776,N,12217.8929,W,1.20,195.79,120711,,,D*7F
$GPRMC,201859.000,A,3748.7770,N,12217.8934,W,1.14,206.60,120711,,,D*72
$GPRMC,201900.000,A,3748.7765,N,12217.8938,W,0.84,215.88,120711,,,D*7B
$GPRMC,201901.000,A,3748.7760,N,12217.8941,W,1.05,188.96,120711,,,D*71
$GPRMC,201902.000,A,3748.7754,N,12217.8945,W,1.20,182.46,120711,,,D*71
$GPRMC,201903.000,A,3748.7753,N,12217.8953,W,1.06,220.67,120711,,,D*7C
$GPRMC,201904.000,A,3748.7749,N,12217.8957,W,0.99,219.51,120711,,,D*7C
$GPRMC,201905.000,A,3748.7743,N,12217.8962,W,1.39,219.65,120711,,,D*7D
$GPRMC,201906.000,A,3748.7737,N,12217.8967,W,1.32,229.26,120711,,,D*77
$GPRMC,201907.000,A,3748.7731,N,12217.8972,W,1.23,225.22,120711,,,D*7C
$GPRMC,201908.000,A,3748.7724,N,12217.8976,W,1.61,192.92,120711,,,D*71
$GPRMC,201909.000,A,3748.7716,N,12217.8980,W,0.92,217.97,120711,,,D*7E
$GPRMC,201910.000,A,3748.7711,N,12217.8985,W,0.82,207.12,120711,,,D*79
$GPRMC,201911.000,A,3748.7705,N,12217.8990,W,1.31,205.80,120711,,,D*79
$GPRMC,201912.000,A,3748.7699,N,12217.8995,W,1.65,189.53,120711,,,D*73
$GPRMC,201913.000,A,3748.7692,N,12217.8999,W,1.12,206.63,120711,,,D*72
$GPRMC,201914.000,A,3748.7687,N,12217.9000,W,1.24,216.26,120711,,,D*7C
$GPRMC,201915.000,A,3748.7680,N,12217.9003,W,1.42,218.77,120711,,,D*73
$GPRMC,201916.000,A,3748.7673,N,12217.9005,W,1.34,190.39,120711,,,D*72
$GPRMC,201917.000,A,3748.7665,N,12217.9004,W,1.20,192.08,120711,,,D*70
$GPRMC,201918.000,A,3748.7650,N,12217.8999,W,1.51,194.35,120711,,,D*7B
$GPRMC,201919.000,A,3748.7640,N,12217.8997,W,1.61,196.43,120711,,,D*75
$GPRMC,201920.000,A,3748.7630,N,12217.8996,W,1.34,196.65,120711,,,D*7D
$GPRMC,201921.000,A,3748.7620,N,12217.8994,W,1.00,209.95,120711,,,D*72
$GPRMC,201922.000,A,3748.7610,N,12217.8993,W,1.88,208.65,120711,,,D*7B
$GPRMC,201923.000,A,3748.7599,N,12217.8995,W,1.57,202.39,120711,,,D*7F
$GPRMC,201924.000,A,3748.7592,N,12217.8995,W,1.31,215.05,120711,,,D*7A
$GPRMC,201925.000,A,3748.7587,N,12217.8993,W,1.17,210.63,120711,,,D*78
$GPRMC,201926.000,A,3748.7583,N,12217.8992,W,1.43,227.18,120711,,,D*77
$GPRMC,201927.000,A,3748.7579,N,12217.8993,W,1.02,216.40,120711,,,D*78
$GPRMC,201928.000,A,3748.7575,N,12217.8995,W,1.01,221.88,120711,,,D*7E
$GPRMC,201929.000,A,3748.7571,N,12217.8995,W,1.11,226.14,120711,,,D*78
$GPRMC,201930.000,A,3748.7563,N,12217.8999,W,1.85,221.12,120711,,,D*73
$GPRMC,201931.000,A,3748.7560,N,12217.9009,W,1.51,232.58,120711,,,D*75
$GPRMC,201932.000,A,3748.7558,N,12217.9015,W,1.15,245.98,120711,,,D*7C
$GPRMC,201933.000,A,3748.7561,N,12217.9019,W,1.07,235.41,120711,,,D*7B
$GPRMC,201934.000,A,3748.7560,N,12217.9024,W,1.20,223.93,120711,,,D*7E
$GPRMC,201935.000,A,3748.7563,N,12217.9030,W,0.85,235.25,120711,,,D*7D
$GPRMC,201936.000,A,3748.7559,N,12217.9032,W,0.73,209.35,120711,,,D*72
$GPRMC,201937.000,A,3748.7546,N,12217.9036,W,1.20,211.63,120711,,,D*74
$GPRMC,201938.000,A,3748.7537,N,12217.9039,W,1.68,223.25,120711,,,D*7D
$GPRMC,201939.000,A,3748.7529,N,12217.9044,W,1.20,230.99,120711,,,D*70
$GPRMC,201940.000,A,3748.7524,N,12217.9047,W,0.77,237.74,120711,,,D*77
$GPRMC,201941.000,A,3748.7516,N,12217.9053,W,0.71,246.53,120711,,,D*77
$GPRMC,201942.000,A,3748.7511,N,12217.9055,W,0.86,232.76,120711,,,D*79
$GPRMC,201943.000,A,3748.7505,N,12217.9058,W,0.75,222.44,120711,,,D*7C
$GPRMC,201944.000,A,3748.7500,N,12217.9061,W,0.82,253.38,120711,,,D*71
$GPRMC,201945.000,A,3748.7496,N,12217.9068,W,1.21,219.17,120711,,,D*7C
$GPRMC,201946.000,A,3748.7490,N,12217.9074,W,1.82,224.24,120711,,,D*73
$GPRMC,201947.000,A,3748.7489,N,12217.9081,W,0.81,212.04,120711,,,D*75
$GPRMC,201948.000,A,3748.7487,N,12217.9088,W,0.86,244.47,120711,,,D*7E
$GPRMC,201949.000,A,3748.7482,N,12217.9094,W,1.00,222.91,120711,,,D*73
$GPRMC,201950.000,A,3748.7477,N,12217.9100,W,0.74,219.65,120711,,,D*7C
$GPRMC,201951.000,A,3748.7473,N,12217.9103,W,0.70,203.15,120711,,,D*72
$GPRMC,201952.000,A,3748.7470,N,12217.9105,W,0.66,214.39,120711,,,D*7B
$GPRMC,201953.000,A,3748.7466,N,12217.9107,W,0.63,221.20,120711,,,D*74
$GPRMC,201954.000,A,3748.7462,N,12217.9108,W,0.51,216.51,120711,,,D*7B
$GPRMC,201955.000,A,3748.7457,N,12217.9110,W,1.15,216.48,120711,,,D*7C
$GPRMC,201956.000,A,3748.7452,N,12217.9111,W,1.11,199.41,120711,,,D*72
$GPRMC,201957.000,A,3748.7446,N,12217.9113,W,1.35,217.82,120711,,,D*78
$GPRMC,201958.000,A,3748.7440,N,12217.9114,W,1.11,198.72,120711,,,D*7B
$GPRMC,201959.000,A,3748.7434,N,12217.9116,W,0.64,200.21,120711,,,D*7C
$GPRMC,202000.000,A,3748.7432,N,12217.9115,W,0.36,41.02,120711,,,D*4E
$GPRMC,202001.000,A,3748.7432,N,12217.9113,W,0.60,26.67,120711,,,D*48
$GPRMC,202002.000,A,3748.7431,N,12217.9113,W,0.34,32.51,120711,,,D*49
$GPRMC,202003.000,A,3748.7426,N,12217.9112,W,0.34,75.85,120711,,,D*45
$GPRMC,202004.000,A,3748.7420,N,12217.9111,W,0.30,254.74,120711,,,D*7C
$GPRMC,202005.000,A,3748.7417,N,12217.9110,W,0.23,269.71,120711,,,D*71
$GPRMC,202006.000,A,3748.7414,N,12217.9109,W,0.12,209.40,120711,,,D*7F
$GPRMC,202007.000,A,3748.7412,N,12217.9110,W,0.67,254.03,120711,,,D*7D
$GPRMC,202008.000,A,3748.7410,N,12217.9110,W,0.67,273.42,120711,,,D*70
$GPRMC,202009.000,A,3748.7408,N,12217.9110,W,0.24,178.29,120711,,,D*7A
$GPRMC,202010.000,A,3748.7406,N,12217.9109,W,0.28,19.29,120711,,,D*4E
$GPRMC,202011.000,A,3748.7405,N,12217.9105,W,0.17,26.73,120711,,,D*4F
$GPRMC,202012.000,A,3748.7405,N,12217.9104,W,0.33,185.01,120711,,,D*76
$GPRMC,202013.000,A,3748.7405,N,12217.9106,W,0.25,91.45,120711,,,D*46
$GPRMC,202014.000,A,3748.7406,N,12217.9104,W,0.19,59.72,120711,,,D*4F
$GPRMC,202015.000,A,3748.7405,N,12217.9103,W,0.03,228.50,120711,,,D*75
$GPRMC,202016.000,A,3748.7403,N,12217.9103,W,0.16,335.82,120711,,,D*76
$GPRMC,202017.000,A,3748.7402,N,12217.9104,W,0.11,4.76,120711,,,D*7C
$GPRMC,202018.000,A,3748.7400,N,12217.9104,W,0.16,14.74,120711,,,D*45
$GPRMC,202019.000,A,3748.7398,N,12217.9104,W,0.11,3.36,120711,,,D*75
$GPRMC,202020.000,A,3748.7396,N,12217.9104,W,0.05,148.15,120711,,,D*7B
$GPRMC,202021.000,A,3748.7395,N,12217.9103,W,0.10,51.27,120711,,,A*47
$GPRMC,202022.000,A,3748.7395,N,12217.9103,W,0.10,79.11,120711,,,A*4B
$GPRMC,202023.000,A,3748.7394,N,12217.9102,W,0.18,11.74,120711,,,A*4F
$GPRMC,202024.000,A,3748.7393,N,12217.9102,W,0.33,341.78,120711,,,A*7C
$GPRMC,202025.000,A,3748.7392,N,12217.9104,W,0.20,213.78,120711,,,A*7E
$GPRMC,202026.000,A,3748.7390,N,12217.9104,W,0.32,194.43,120711,,,A*78
$GPRMC,202027.000,A,3748.7389,N,12217.9104,W,0.14,156.37,120711,,,A*78
$GPRMC,202028.000,A,3748.7388,N,12217.9103,W,0.26,135.77,120711,,,A*71
$GPRMC,202029.000,A,3748.7387,N,12217.9102,W,0.14,95.54,120711,,,A*45
$GPRMC,202030.000,A,3748.7386,N,12217.9100,W,0.45,98.63,120711,,,A*43
$GPRMC,202031.000,A,3748.7386,N,12217.9097,W,0.45,105.87,120711,,,A*72
$GPRMC,202032.000,A,3748.7385,N,12217.9096,W,0.17,282.66,120711,,,A*77
$GPRMC,202033.000,A,3748.7385,N,12217.9098,W,0.42,294.37,120711,,,A*7B
$GPRMC,202034.000,A,3748.7385,N,12217.9097,W,0.30,326.50,120711,,,A*7F
$GPRMC,202035.000,A,3748.7386,N,12217.9095,W,0.41,25.75,120711,,,A*4E
$GPRMC,202036.000,A,3748.7386,N,12217.9092,W,0.27,52.47,120711,,,A*4B
$GPRMC,202037.000,A,3748.7386,N,12217.9091,W,0.35,23.05,120711,,,A*4A
$GPRMC,202038.000,A,3748.7386,N,12217.9089,W,0.27,27.70,120711,,,D*4C
$GPRMC,202039.000,A,3748.7387,N,12217.9090,W,0.29,2.26,120711,,,D*7E
$GPRMC,202040.000,A,3748.7387,N,12217.9092,W,0.58,28.17,120711,,,D*4E
$GPRMC,202041.000,A,3748.7387,N,12217.9092,W,0.18,238.10,120711,,,D*7F
$GPRMC,202042.000,A,3748.7387,N,12217.9096,W,0.84,203.75,120711,,,D*76
$GPRMC,202043.000,A,3748.7385,N,12217.9101,W,0.96,205.43,120711,,,D*7A
$GPRMC,202044.000,A,3748.7382,N,12217.9109,W,1.65,227.58,120711,,,D*75
$GPRMC,202045.000,A,3748.7379,N,12217.9116,W,1.75,217.65,120711,,,D*72
$GPRMC,202046.000,A,3748.7376,N,12217.9122,W,1.90,203.81,120711,,,D*7D
$GPRMC,202047.000,A,3748.7376,N,12217.9128,W,1.64,209.36,120711,,,D*7B
$GPRMC,202048.000,A,3748.7377,N,12217.9131,W,0.30,250.76,120711,,,D*75
$GPRMC,202049.000,A,3748.7385,N,12217.9131,W,1.18,323.89,120711,,,D*77
$GPRMC,202050.000,A,3748.7390,N,12217.9135,W,0.60,343.84,120711,,,D*7A
$GPRMC,202051.000,A,3748.7397,N,12217.9140,W,0.56,283.63,120711,,,D*7F
$GPRMC,202052.000,A,3748.7404,N,12217.9147,W,0.82,300.53,120711,,,D*76
$GPRMC,202053.000,A,3748.7410,N,12217.9152,W,0.56,310.54,120711,,,D*79
$GPRMC,202054.000,A,3748.7410,N,12217.9154,W,0.37,307.69,120711,,,D*77
$GPRMC,202055.000,A,3748.7409,N,12217.9152,W,0.07,277.94,120711,,,D*7F
$GPRMC,202056.000,A,3748.7407,N,12217.9152,W,0.13,213.87,120711,,,D*77
$GPRMC,202057.000,A,3748.7412,N,12217.9153,W,0.13,180.62,120711,,,D*71
$GPRMC,202058.000,A,3748.7411,N,12217.9150,W,0.65,144.80,120711,,,D*7B
$GPRMC,202059.000,A,3748.7410,N,12217.9145,W,0.55,144.65,120711,,,D*77
$GPRMC,202100.000,A,3748.7409,N,12217.9141,W,0.55,167.91,120711,,,D*7C
$GPRMC,202101.000,A,3748.7409,N,12217.9138,W,0.13,83.11,120711,,,D*42
$GPRMC,202102.000,A,3748.7409,N,12217.9137,W,0.26,148.29,120711,,,D*75
$GPRMC,202103.000,A,3748.7408,N,12217.9133,W,0.24,149.20,120711,,,D*7B
$GPRMC,202104.000,A,3748.7408,N,12217.9130,W,0.55,151.44,120711,,,D*72
$GPRMC,202105.000,A,3748.7412,N,12217.9131,W,0.59,29.35,120711,,,D*4D
$GPRMC,202106.000,A,3748.7415,N,12217.9129,W,0.57,20.90,120711,,,D*48
$GPRMC,202107.000,A,3748.7417,N,12217.9129,W,0.27,55.92,120711,,,D*4C
$GPRMC,202108.000,A,3748.7420,N,12217.9128,W,0.24,60.05,120711,,,A*48
$GPRMC,202109.000,A,3748.7424,N,12217.9128,W,0.27,37.01,120711,,,A*48
$GPRMC,202110.000,A,3748.7425,N,12217.9129,W,0.33,338.00,120711,,,A*78
$GPRMC,202111.000,A,3748.7417,N,12217.9126,W,0.27,236.30,120711,,,A*7E
$GPRMC,202112.000,A,3748.7412,N,12217.9127,W,0.58,230.85,120711,,,A*79
$GPRMC,202113.000,A,3748.7409,N,12217.9129,W,0.21,214.15,120711,,,A*7D
$GPRMC,202114.000,A,3748.7406,N,12217.9131,W,0.52,175.00,120711,,,A*78
$GPRMC,202115.000,A,3748.7400,N,12217.9134,W,0.61,180.54,120711,,,A*71
$GPRMC,202116.000,A,3748.7402,N,12217.9138,W,0.11,11.97,120711,,,A*4D
$GPRMC,202117.000,A,3748.7401,N,12217.9143,W,0.34,350.52,120711,,,A*7B
$GPRMC,202118.000,A,3748.7406,N,12217.9151,W,0.85,307.77,120711,,,A*7F
$GPRMC,202119.000,A,3748.7404,N,12217.9157,W,0.89,298.27,120711,,,A*74
$GPRMC,202120.000,A,3748.7398,N,12217.9161,W,0.25,262.91,120711,,,A*77
$GPRMC,202121.000,A,3748.7392,N,12217.9160,W,0.08,109.15,120711,,,A*70
$GPRMC,202122.000,A,3748.7389,N,12217.9157,W,0.42,120.44,120711,,,A*7C
$GPRMC,202123.000,A,3748.7383,N,12217.9158,W,0.33,236.11,120711,,,A*7A
$GPRMC,202124.000,A,3748.7381,N,12217.9160,W,0.17,157.10,120711,,,A*77
$GPRMC,202125.000,A,3748.7379,N,12217.9164,W,0.24,145.67,120711,,,A*76
$GPRMC,202126.000,A,3748.7377,N,12217.9169,W,0.28,211.72,120711,,,A*7C
$GPRMC,202127.000,A,3748.7373,N,12217.9171,W,0.40,144.30,120711,,,A*7B
$GPRMC,202128.000,A,3748.7373,N,12217.9173,W,0.41,141.12,120711,,,A*72
$GPRMC,202129.000,A,3748.7378,N,12217.9175,W,0.77,358.23,120711,,,A*73
$GPRMC,202130.000,A,3748.7381,N,12217.9178,W,0.66,17.90,120711,,,A*40
$GPRMC,202131.000,A,3748.7385,N,12217.9183,W,0.18,232.07,120711,,,A*73
$GPRMC,202132.000,A,3748.7393,N,12217.9182,W,0.24,262.49,120711,,,A*76
$GPRMC,202133.000,A,3748.7395,N,12217.9187,W,0.46,301.99,120711,,,A*79
$GPRMC,202134.000,A,3748.7396,N,12217.9189,W,0.89,204.56,120711,,,A*77
$GPRMC,202135.000,A,3748.7383,N,12217.9186,W,1.26,191.94,120711,,,A*78
$GPRMC,202136.000,A,3748.7371,N,12217.9183,W,1.56,192.99,120711,,,A*7A
$GPRMC,202137.000,A,3748.7363,N,12217.9184,W,1.37,210.47,120711,,,A*72
$GPRMC,202138.000,A,3748.7356,N,12217.9184,W,1.44,206.44,120711,,,A*7B
$GPRMC,202139.000,A,3748.7353,N,12217.9188,W,1.23,220.22,120711,,,A*76
$GPRMC,202140.000,A,3748.7355,N,12217.9197,W,0.92,229.22,120711,,,A*72
$GPRMC,202141.000,A,3748.7353,N,12217.9202,W,1.47,204.89,120711,,,A*7D
$GPRMC,202142.000,A,3748.7353,N,12217.9207,W,1.54,210.40,120711,,,A*79
$GPRMC,202143.000,A,3748.7354,N,12217.9216,W,1.31,213.07,120711,,,A*7C
$GPRMC,202144.000,A,3748.7352,N,12217.9222,W,1.38,206.79,120711,,,A*7E
$GPRMC,202145.000,A,3748.7348,N,12217.9229,W,1.14,202.27,120711,,,A*7E
$GPRMC,202146.000,A,3748.7341,N,12217.9234,W,1.43,205.61,120711,,,A*7F
$GPRMC,202147.000,A,3748.7333,N,12217.9242,W,1.40,228.42,120711,,,A*77
$GPRMC,202148.000,A,3748.7327,N,12217.9249,W,1.29,213.29,120711,,,A*7C
$GPRMC,202149.000,A,3748.7321,N,12217.9254,W,1.27,208.51,120711,,,A*7C
$GPRMC,202150.000,A,3748.7316,N,12217.9261,W,1.28,221.01,120711,,,A*77
$GPRMC,202151.000,A,3748.7311,N,12217.9267,W,1.08,239.91,120711,,,A*75
$GPRMC,202152.000,A,3748.7307,N,12217.9274,W,1.21,224.93,120711,,,A*76
$GPRMC,202153.000,A,3748.7302,N,12217.9280,W,1.97,223.83,120711,,,A*72
$GPRMC,202154.000,A,3748.7296,N,12217.9287,W,1.97,227.33,120711,,,A*71
$GPRMC,202155.000,A,3748.7292,N,12217.9293,W,1.50,222.36,120711,,,A*7A
$GPRMC,202156.000,A,3748.7285,N,12217.9298,W,1.69,218.83,120711,,,A*79
$GPRMC,202157.000,A,3748.7279,N,12217.9303,W,1.56,209.44,120711,,,A*7F
$GPRMC,202158.000,A,3748.7275,N,12217.9307,W,1.64,213.75,120711,,,A*70
$GPRMC,202159.000,A,3748.7267,N,12217.9312,W,1.44,220.82,120711,,,A*7C
$GPRMC,202200.000,A,3748.7264,N,12217.9316,W,1.56,233.35,120711,,,A*79
$GPRMC,202201.000,A,3748.7260,N,12217.9322,W,1.78,206.12,120711,,,A*74
$GPRMC,202202.000,A,3748.7254,N,12217.9330,W,1.78,226.13,120711,,,A*70
$GPRMC,202203.000,A,3748.7250,N,12217.9331,W,1.68,227.14,120711,,,A*73
$GPRMC,202204.000,A,3748.7248,N,12217.9331,W,1.50,231.41,120711,,,A*71
$GPRMC,202205.000,A,3748.7245,N,12217.9334,W,1.55,216.01,120711,,,A*7C
$GPRMC,202206.000,A,3748.7245,N,12217.9334,W,1.54,233.50,120711,,,A*7D
$GPRMC,202207.000,A,3748.7243,N,12217.9339,W,1.52,243.02,120711,,,A*71
$GPRMC,202208.000,A,3748.7240,N,12217.9343,W,1.47,230.55,120711,,,A*72
$GPRMC,202209.000,A,3748.7236,N,12217.9348,W,1.65,215.05,120711,,,A*7B
$GPRMC,202210.000,A,3748.7231,N,12217.9349,W,1.87,193.83,120711,,,A*7A
$GPRMC,202211.000,A,3748.7225,N,12217.9351,W,2.23,195.93,120711,,,A*7D
$GPRMC,202212.000,A,3748.7217,N,12217.9358,W,1.90,205.10,120711,,,A*7C
$GPRMC,202213.000,A,3748.7213,N,12217.9365,W,1.82,214.85,120711,,,A*78
$GPRMC,202214.000,A,3748.7206,N,12217.9370,W,1.79,201.40,120711,,,A*76
$GPRMC,202215.000,A,3748.7198,N,12217.9372,W,1.87,198.75,120711,,,A*75
$GPRMC,202216.000,A,3748.7189,N,12217.9376,W,2.20,205.70,120711,,,A*7E
$GPRMC,202217.000,A,3748.7179,N,12217.9377,W,2.03,202.53,120711,,,A*76
$GPRMC,202218.000,A,3748.7172,N,12217.9380,W,1.52,194.05,120711,,,A*72
$GPRMC,202219.000,A,3748.7163,N,12217.9377,W,1.27,201.96,120711,,,A*7C
$GPRMC,202220.000,A,3748.7155,N,12217.9377,W,1.00,199.80,120711,,,A*73
$GPRMC,202221.000,A,3748.7153,N,12217.9376,W,0.81,207.31,120711,,,A*73
$GPRMC,202222.000,A,3748.7149,N,12217.9382,W,1.79,232.75,120711,,,A*70
$GPRMC,202223.000,A,3748.7146,N,12217.9389,W,2.54,239.06,120711,,,A*76
$GPRMC,202224.000,A,3748.7143,N,12217.9393,W,2.11,223.92,120711,,,A*78
$GPRMC,202225.000,A,3748.7140,N,12217.9396,W,1.86,227.84,120711,,,A*71
$GPRMC,202226.000,A,3748.7137,N,12217.9398,W,2.25,211.18,120711,,,A*76
$GPRMC,202227.000,A,3748.7126,N,12217.9397,W,2.10,191.51,120711,,,A*78
$GPRMC,202228.000,A,3748.7124,N,12217.9397,W,1.97,179.00,120711,,,A*7B
$GPRMC,202229.000,A,3748.7121,N,12217.9396,W,1.69,177.28,120711,,,A*7B
$GPRMC,202230.000,A,3748.7116,N,12217.9398,W,2.12,201.06,120711,,,A*78
$GPRMC,202231.000,A,3748.7107,N,12217.9401,W,2.04,203.25,120711,,,A*7A
$GPRMC,202232.000,A,3748.7101,N,12217.9404,W,1.98,209.92,120711,,,A*7A
$GPRMC,202233.000,A,3748.7090,N,12217.9406,W,1.96,202.20,120711,,,A*7C
$GPRMC,202234.000,A,3748.7083,N,12217.9410,W,1.66,200.63,120711,,,A*74
$GPRMC,202235.000,A,3748.7074,N,12217.9406,W,1.43,207.04,120711,,,A*7B
$GPRMC,202236.000,A,3748.7069,N,12217.9411,W,1.47,216.80,120711,,,A*7A
$GPRMC,202237.000,A,3748.7070,N,12217.9416,W,1.10,245.96,120711,,,A*77
$GPRMC,202238.000,A,3748.7069,N,12217.9417,W,1.16,252.83,120711,,,A*75
$GPRMC,202239.000,A,3748.7070,N,12217.9416,W,0.68,249.42,120711,,,A*72
$GPRMC,202240.000,A,3748.7066,N,12217.9419,W,0.70,229.91,120711,,,A*75
$GPRMC,202241.000,A,3748.7061,N,12217.9419,W,0.62,160.53,120711,,,A*70
$GPRMC,202242.000,A,3748.7061,N,12217.9425,W,0.20,162.81,120711,,,A*77
$GPRMC,202243.000,A,3748.7061,N,12217.9425,W,0.40,160.35,120711,,,A*7D
$GPRMC,202244.000,A,3748.7059,N,12217.9426,W,0.27,218.98,120711,,,A*78
$GPRMC,202245.000,A,3748.7058,N,12217.9427,W,0.35,329.69,120711,,,A*77
$GPRMC,202246.000,A,3748.7059,N,12217.9425,W,0.13,17.91,120711,,,A*4A
$GPRMC,202247.000,A,3748.7054,N,12217.9423,W,0.02,353.30,120711,,,A*78
$GPRMC,202248.000,A,3748.7052,N,12217.9426,W,0.18,242.70,120711,,,A*7A
$GPRMC,202249.000,A,3748.7051,N,12217.9427,W,0.36,150.47,120711,,,A*71
$GPRMC,202250.000,A,3748.7050,N,12217.9428,W,0.61,136.42,120711,,,A*70
$GPRMC,202251.000,A,3748.7049,N,12217.9429,W,0.43,177.53,120711,,,A*7D
$GPRMC,202252.000,A,3748.7049,N,12217.9430,W,0.14,317.91,120711,,,A*7E
$GPRMC,202253.000,A,3748.7050,N,12217.9433,W,0.43,278.04,120711,,,A*72
$GPRMC,202254.000,A,3748.7052,N,12217.9436,W,0.18,149.18,120711,,,A*70
$GPRMC,202255.000,A,3748.7054,N,12217.9436,W,0.11,268.22,120711,,,A*77
$GPRMC,202256.000,A,3748.7055,N,12217.9439,W,0.13,282.87,120711,,,A*73
$GPRMC,202257.000,A,3748.7049,N,12217.9436,W,0.25,152.49,120711,,,A*79
$GPRMC,202258.000,A,3748.7049,N,12217.9438,W,0.25,149.58,120711,,,A*72
$GPRMC,202259.000,A,3748.7046,N,12217.9437,W,0.29,328.25,120711,,,A*70
$GPRMC,202300.000,A,3748.7046,N,12217.9439,W,0.11,241.57,120711,,,A*73
$GPRMC,202301.000,A,3748.7048,N,12217.9441,W,0.29,290.54,120711,,,A*77
$GPRMC,202302.000,A,3748.7048,N,12217.9442,W,0.11,219.65,120711,,,A*7F
$GPRMC,202303.000,A,3748.7049,N,12217.9442,W,0.36,181.19,120711,,,A*73
$GPRMC,202304.000,A,3748.7044,N,12217.9439,W,0.36,163.14,120711,,,A*74
$GPRMC,202305.000,A,3748.7043,N,12217.9436,W,0.15,340.00,120711,,,A*7A
$GPRMC,202306.000,A,3748.7047,N,12217.9434,W,0.62,325.72,120711,,,A*79
$GPRMC,202307.000,A,3748.7050,N,12217.9434,W,0.93,305.65,120711,,,A*74
$GPRMC,202308.000,A,3748.7046,N,12217.9433,W,0.68,242.19,120711,,,A*76
$GPRMC,202309.000,A,3748.7042,N,12217.9432,W,0.61,246.39,120711,,,A*7D
$GPRMC,202310.000,A,3748.7042,N,12217.9435,W,0.79,229.12,120711,,,A*7B
$GPRMC,202311.000,A,3748.7038,N,12217.9435,W,1.22,224.52,120711,,,A*71
$GPRMC,202312.000,A,3748.7031,N,12217.9436,W,1.57,213.73,120711,,,A*7D
$GPRMC,202313.000,A,3748.7022,N,12217.9435,W,1.54,211.15,120711,,,A*7C
$GPRMC,202314.000,A,3748.7016,N,12217.9439,W,1.35,227.19,120711,,,A*7E
$GPRMC,202315.000,A,3748.7010,N,12217.9441,W,1.46,190.78,120711,,,A*7A
$GPRMC,202316.000,A,3748.7008,N,12217.9445,W,1.23,186.26,120711,,,A*7B
$GPRMC,202317.000,A,3748.7007,N,12217.9448,W,0.90,200.86,120711,,,A*76
$GPRMC,202318.000,A,3748.7007,N,12217.9450,W,1.70,204.02,120711,,,A*77
$GPRMC,202319.000,A,3748.6999,N,12217.9451,W,2.20,195.78,120711,,,A*78
$GPRMC,202320.000,A,3748.6990,N,12217.9449,W,2.05,199.05,120711,,,A*73
$GPRMC,202321.000,A,3748.6982,N,12217.9450,W,1.77,199.07,120711,,,A*7D
$GPRMC,202322.000,A,3748.6976,N,12217.9451,W,1.81,200.06,120711,,,A*7F
$GPRMC,202323.000,A,3748.6971,N,12217.9455,W,1.72,206.46,120711,,,A*73
$GPRMC,202324.000,A,3748.6967,N,12217.9458,W,1.69,209.52,120711,,,A*7E
$GPRMC,202325.000,A,3748.6960,N,12217.9461,W,1.14,206.99,120711,,,A*70
$GPRMC,202326.000,A,3748.6955,N,12217.9467,W,0.88,200.80,120711,,,A*79
$GPRMC,202327.000,A,3748.6954,N,12217.9473,W,0.86,191.71,120711,,,A*77
$GPRMC,202328.000,A,3748.6951,N,12217.9474,W,1.25,193.74,120711,,,A*75
$GPRMC,202329.000,A,3748.6950,N,12217.9477,W,0.83,183.92,120711,,,A*72
$GPRMC,202330.000,A,3748.6946,N,12217.9478,W,0.75,156.51,120711,,,A*7C
$GPRMC,202331.000,A,3748.6944,N,12217.9482,W,0.72,216.91,120711,,,A*76
$GPRMC,202332.000,A,3748.6941,N,12217.9486,W,0.84,219.78,120711,,,A*75
$GPRMC,202333.000,A,3748.6936,N,12217.9486,W,0.34,227.49,120711,,,A*70
$GPRMC,202334.000,A,3748.6936,N,12217.9487,W,0.12,327.25,120711,,,A*79
$GPRMC,202335.000,A,3748.6935,N,12217.9488,W,0.19,289.48,120711,,,A*71
$GPRMC,202336.000,A,3748.6929,N,12217.9490,W,0.36,209.69,120711,,,A*70
$GPRMC,202337.000,A,3748.6927,N,12217.9489,W,0.99,197.74,120711,,,A*7A
$GPRMC,202338.000,A,3748.6923,N,12217.9491,W,1.37,207.82,120711,,,A*7E
$GPRMC,202339.000,A,3748.6919,N,12217.9493,W,1.30,203.58,120711,,,A*70
$GPRMC,202340.000,A,3748.6913,N,12217.9495,W,1.25,203.14,120711,,,A*7E
$GPRMC,202341.000,A,3748.6911,N,12217.9500,W,1.80,211.03,120711,,,A*7A
$GPRMC,202342.000,A,3748.6911,N,12217.9507,W,1.52,214.81,120711,,,A*7E
$GPRMC,202343.000,A,3748.6907,N,12217.9510,W,1.35,183.64,120711,,,A*79
$GPRMC,202344.000,A,3748.6910,N,12217.9511,W,0.82,203.56,120711,,,A*7E
$GPRMC,202345.000,A,3748.6904,N,12217.9517,W,1.32,200.81,120711,,,A*7F
$GPRMC,202346.000,A,3748.6901,N,12217.9520,W,0.94,215.68,120711,,,A*73
$GPRMC,202347.000,A,3748.6894,N,12217.9526,W,1.35,203.02,120711,,,A*78
$GPRMC,202348.000,A,3748.6891,N,12217.9531,W,1.71,198.53,120711,,,A*71
$GPRMC,202349.000,A,3748.6883,N,12217.9537,W,1.69,215.41,120711,,,A*79
$GPRMC,202350.000,A,3748.6877,N,12217.9543,W,1.94,218.65,120711,,,A*70
$GPRMC,202351.000,A,3748.6874,N,12217.9547,W,1.71,217.75,120711,,,A*73
$GPRMC,202352.000,A,3748.6869,N,12217.9554,W,1.59,221.71,120711,,,A*75
$GPRMC,202353.000,A,3748.6863,N,12217.9561,W,1.65,215.11,120711,,,A*76
$GPRMC,202354.000,A,3748.6856,N,12217.9568,W,2.38,195.14,120711,,,A*7B
$GPRMC,202355.000,A,3748.6849,N,12217.9574,W,1.83,191.77,120711,,,A*7B
$GPRMC,202356.000,A,3748.6843,N,12217.9578,W,1.60,186.72,120711,,,A*70
$GPRMC,202357.000,A,3748.6835,N,12217.9581,W,1.69,185.63,120711,,,A*7C
$GPRMC,202358.000,A,3748.6828,N,12217.9584,W,1.66,200.71,120711,,,A*78
$GPRMC,202359.000,A,3748.6820,N,12217.9590,W,1.97,205.00,120711,,,A*79
$GPRMC,202400.000,A,3748.6814,N,12217.9593,W,2.10,209.00,120711,,,A*76
$GPRMC,202401.000,A,3748.6810,N,12217.9597,W,2.44,205.02,120711,,,A*78
$GPRMC,202402.000,A,3748.6806,N,12217.9605,W,2.28,204.82,120711,,,A*77
$GPRMC,202403.000,A,3748.6797,N,12217.9608,W,1.61,197.94,120711,,,A*7C
$GPRMC,202404.000,A,3748.6789,N,12217.9610,W,1.53,206.50,120711,,,A*7F
$GPRMC,202405.000,A,3748.6786,N,12217.9614,W,1.42,212.94,120711,,,A*78
$GPRMC,202406.000,A,3748.6785,N,12217.9620,W,1.56,228.72,120711,,,A*7B
$GPRMC,202407.000,A,3748.6783,N,12217.9628,W,1.40,229.29,120711,,,A*7C
$GPRMC,202408.000,A,3748.6779,N,12217.9635,W,1.30,219.18,120711,,,A*7C
$GPRMC,202409.000,A,3748.6773,N,12217.9639,W,1.24,202.49,120711,,,A*70
$GPRMC,202410.000,A,3748.6768,N,12217.9643,W,1.41,193.25,120711,,,A*7D
$GPRMC,202411.000,A,3748.6766,N,12217.9644,W,1.17,160.00,120711,,,A*7D
$GPRMC,202412.000,A,3748.6759,N,12217.9645,W,2.13,159.01,120711,,,A*7F
$GPRMC,202413.000,A,3748.6751,N,12217.9648,W,2.53,170.11,120711,,,A*75
$GPRMC,202414.000,A,3748.6742,N,12217.9649,W,2.09,181.61,120711,,,A*77
$GPRMC,202415.000,A,3748.6732,N,12217.9651,W,1.97,200.20,120711,,,A*73
$GPRMC,202416.000,A,3748.6727,N,12217.9649,W,1.38,176.71,120711,,,A*7E
$GPRMC,202417.000,A,3748.6722,N,12217.9652,W,1.32,216.41,120711,,,A*7C
$GPRMC,202418.000,A,3748.6719,N,12217.9657,W,1.61,222.87,120711,,,A*75
$GPRMC,202419.000,A,3748.6723,N,12217.9664,W,1.38,212.21,120711,,,A*7E
$GPRMC,202420.000,A,3748.6717,N,12217.9672,W,1.37,224.60,120711,,,A*7B
$GPRMC,202421.000,A,3748.6715,N,12217.9678,W,1.70,219.46,120711,,,A*7B
$GPRMC,202422.000,A,3748.6709,N,12217.9682,W,1.57,210.29,120711,,,A*75
$GPRMC,202423.000,A,3748.6701,N,12217.9683,W,1.27,210.60,120711,,,A*77
$GPRMC,202424.000,A,3748.6695,N,12217.9684,W,1.63,189.32,120711,,,A*7F
$GPRMC,202425.000,A,3748.6686,N,12217.9683,W,1.62,190.50,120711,,,A*76
$GPRMC,202426.000,A,3748.6679,N,12217.9682,W,1.61,183.08,120711,,,A*78
$GPRMC,202427.000,A,3748.6671,N,12217.9684,W,1.24,178.02,120711,,,A*78
$GPRMC,202428.000,A,3748.6664,N,12217.9688,W,1.13,177.44,120711,,,A*76
$GPRMC,202429.000,A,3748.6665,N,12217.9688,W,0.85,166.26,120711,,,A*7C
$GPRMC,202430.000,A,3748.6658,N,12217.9690,W,0.67,206.14,120711,,,A*7B
$GPRMC,202431.000,A,3748.6656,N,12217.9691,W,0.75,227.35,120711,,,A*76
$GPRMC,202432.000,A,3748.6655,N,12217.9695,W,1.04,231.81,120711,,,A*7D
$GPRMC,202433.000,A,3748.6650,N,12217.9699,W,1.49,210.97,120711,,,A*78
$GPRMC,202434.000,A,3748.6642,N,12217.9704,W,1.55,212.84,120711,,,A*74
$GPRMC,202435.000,A,3748.6634,N,12217.9706,W,2.02,189.63,120711,,,A*7F
$GPRMC,202436.000,A,3748.6629,N,12217.9706,W,1.68,189.66,120711,,,A*7A
$GPRMC,202437.000,A,3748.6621,N,12217.9715,W,1.40,216.88,120711,,,A*7E
$GPRMC,202438.000,A,3748.6614,N,12217.9723,W,1.30,209.27,120711,,,A*7E
$GPRMC,202439.000,A,3748.6611,N,12217.9727,W,1.56,226.15,120711,,,A*72
$GPRMC,202440.000,A,3748.6606,N,12217.9733,W,1.99,207.50,120711,,,A*7E
$GPRMC,202441.000,A,3748.6602,N,12217.9739,W,2.04,208.38,120711,,,A*77
$GPRMC,202442.000,A,3748.6597,N,12217.9744,W,1.50,217.31,120711,,,A*74
$GPRMC,202443.000,A,3748.6589,N,12217.9751,W,1.24,219.79,120711,,,A*7F
$GPRMC,202444.000,A,3748.6582,N,12217.9756,W,1.08,208.98,120711,,,A*75
$GPRMC,202445.000,A,3748.6575,N,12217.9762,W,2.03,213.27,120711,,,A*7D
$GPRMC,202446.000,A,3748.6571,N,12217.9769,W,2.06,213.41,120711,,,A*74
$GPRMC,202447.000,A,3748.6566,N,12217.9775,W,1.93,193.28,120711,,,A*75
$GPRMC,202448.000,A,3748.6563,N,12217.9780,W,1.62,202.82,120711,,,A*70
$GPRMC,202449.000,A,3748.6557,N,12217.9785,W,1.44,213.71,120711,,,A*7B
$GPRMC,202450.000,A,3748.6556,N,12217.9790,W,1.25,228.36,120711,,,A*7A
$GPRMC,202451.000,A,3748.6553,N,12217.9796,W,1.35,214.72,120711,,,A*76
$GPRMC,202452.000,A,3748.6550,N,12217.9799,W,1.09,207.71,120711,,,A*77
$GPRMC,202453.000,A,3748.6545,N,12217.9800,W,0.89,203.44,120711,,,A*76
$GPRMC,202454.000,A,3748.6543,N,12217.9805,W,1.24,200.03,120711,,,A*74
$GPRMC,202455.000,A,3748.6538,N,12217.9811,W,2.01,200.11,120711,,,A*7B
$GPRMC,202456.000,A,3748.6536,N,12217.9816,W,1.86,196.48,120711,,,A*7D
$GPRMC,202457.000,A,3748.6530,N,12217.9819,W,2.03,206.51,120711,,,A*79
$GPRMC,202458.000,A,3748.6525,N,12217.9821,W,2.08,192.94,120711,,,A*75
$GPRMC,202459.000,A,3748.6522,N,12217.9822,W,1.42,205.98,120711,,,A*7C
$GPRMC,202500.000,A,3748.6521,N,12217.9822,W,0.44,191.82,120711,,,A*70
$GPRMC,202501.000,A,3748.6522,N,12217.9824,W,1.21,179.17,120711,,,A*7C
$GPRMC,202502.000,A,3748.6520,N,12217.9825,W,1.40,166.85,120711,,,A*7E
$GPRMC,202503.000,A,3748.6522,N,12217.9830,W,1.55,163.48,120711,,,A*79
$GPRMC,202504.000,A,3748.6521,N,12217.9835,W,1.19,184.12,120711,,,A*76
$GPRMC,202505.000,A,3748.6517,N,12217.9837,W,1.39,193.06,120711,,,A*71
$GPRMC,202506.000,A,3748.6512,N,12217.9840,W,1.40,175.11,120711,,,A*77
$GPRMC,202507.000,A,3748.6510,N,12217.9839,W,1.57,180.43,120711,,,A*71
$GPRMC,202508.000,A,3748.6507,N,12217.9843,W,1.50,192.87,120711,,,A*79
$GPRMC,202509.000,A,3748.6501,N,12217.9846,W,1.60,194.81,120711,,,A*78
$GPRMC,202510.000,A,3748.6499,N,12217.9850,W,1.57,207.70,120711,,,A*74
$GPRMC,202511.000,A,3748.6496,N,12217.9857,W,1.13,219.16,120711,,,A*72
$GPRMC,202512.000,A,3748.6487,N,12217.9866,W,1.23,199.74,120711,,,A*7F
$GPRMC,202513.000,A,3748.6482,N,12217.9870,W,1.74,214.25,120711,,,A*7C
$GPRMC,202514.000,A,3748.6477,N,12217.9876,W,1.72,200.09,120711,,,A*7A
$GPRMC,202515.000,A,3748.6474,N,12217.9882,W,1.90,198.73,120711,,,A*70
$GPRMC,202516.000,A,3748.6464,N,12217.9891,W,2.02,207.39,120711,,,A*73
$GPRMC,202517.000,A,3748.6454,N,12217.9898,W,1.50,212.87,120711,,,A*7D
$GPRMC,202518.000,A,3748.6448,N,12217.9906,W,2.01,215.22,120711,,,A*76
$GPRMC,202519.000,A,3748.6441,N,12217.9912,W,1.86,209.90,120711,,,A*73
$GPRMC,202520.000,A,3748.6437,N,12217.9919,W,1.74,222.86,120711,,,A*70
$GPRMC,202521.000,A,3748.6433,N,12217.9926,W,1.82,227.37,120711,,,A*7F
$GPRMC,202522.000,A,3748.6425,N,12217.9935,W,1.99,229.49,120711,,,A*74
$GPRMC,202523.000,A,3748.6419,N,12217.9940,W,1.88,224.24,120711,,,A*7E
$GPRMC,202524.000,A,3748.6415,N,12217.9948,W,1.89,221.14,120711,,,A*7A
$GPRMC,202525.000,A,3748.6413,N,12217.9951,W,1.59,213.04,120711,,,A*78
$GPRMC,202526.000,A,3748.6407,N,12217.9954,W,1.77,204.54,120711,,,A*74
$GPRMC,202527.000,A,3748.6401,N,12217.9956,W,1.99,201.02,120711,,,A*77
$GPRMC,202528.000,A,3748.6397,N,12217.9956,W,1.82,195.15,120711,,,A*72
$GPRMC,202529.000,A,3748.6391,N,12217.9955,W,1.68,202.18,120711,,,A*72
$GPRMC,202530.000,A,3748.6382,N,12217.9956,W,1.83,191.04,120711,,,A*7A
$GPRMC,202531.000,A,3748.6373,N,12217.9955,W,1.47,188.21,120711,,,A*71
$GPRMC,202532.000,A,3748.6366,N,12217.9954,W,1.38,178.77,120711,,,A*73
$GPRMC,202533.000,A,3748.6358,N,12217.9953,W,1.33,198.10,120711,,,A*7C
$GPRMC,202534.000,A,3748.6354,N,12217.9953,W,1.28,197.03,120711,,,A*70
$GPRMC,202535.000,A,3748.6351,N,12217.9954,W,1.57,197.09,120711,,,A*71
$GPRMC,202536.000,A,3748.6349,N,12217.9956,W,1.51,198.99,120711,,,A*79
$GPRMC,202537.000,A,3748.6348,N,12217.9962,W,1.12,218.35,120711,,,A*74
$GPRMC,202538.000,A,3748.6344,N,12217.9968,W,1.61,208.22,120711,,,A*7E
$GPRMC,202539.000,A,3748.6345,N,12217.9974,W,1.84,214.53,120711,,,A*73
$GPRMC,202540.000,A,3748.6346,N,12217.9983,W,1.46,235.43,120711,,,A*7A
$GPRMC,202541.000,A,3748.6344,N,12217.9988,W,1.32,260.46,120711,,,A*74
$GPRMC,202542.000,A,3748.6336,N,12217.9994,W,1.54,218.56,120711,,,A*71
$GPRMC,202543.000,A,3748.6332,N,12218.0001,W,1.93,216.35,120711,,,A*77
$GPRMC,202544.000,A,3748.6327,N,12218.0009,W,1.86,223.85,120711,,,A*75
$GPRMC,202545.000,A,3748.6315,N,12218.0017,W,1.91,207.00,120711,,,A*77
$GPRMC,202546.000,A,3748.6312,N,12218.0023,W,1.88,211.13,120711,,,A*79
$GPRMC,202547.000,A,3748.6309,N,12218.0025,W,1.68,207.68,120711,,,A*71
$GPRMC,202548.000,A,3748.6306,N,12218.0028,W,1.36,206.20,120711,,,A*7A
$GPRMC,202549.000,A,3748.6300,N,12218.0029,W,1.66,194.92,120711,,,A*78
$GPRMC,202550.000,A,3748.6297,N,12218.0034,W,1.80,203.42,120711,,,A*7B
$GPRMC,202551.000,A,3748.6288,N,12218.0039,W,2.26,198.76,120711,,,A*70
$GPRMC,202552.000,A,3748.6278,N,12218.0048,W,2.25,209.29,120711,,,A*78
$GPRMC,202553.000,A,3748.6273,N,12218.0055,W,2.15,210.26,120711,,,A*7A
$GPRMC,202554.000,A,3748.6266,N,12218.0059,W,1.90,206.24,120711,,,A*7E
$GPRMC,202555.000,A,3748.6257,N,12218.0059,W,2.08,206.90,120711,,,A*70
$GPRMC,202556.000,A,3748.6250,N,12218.0059,W,1.99,197.81,120711,,,A*74
$GPRMC,202557.000,A,3748.6241,N,12218.0060,W,2.73,208.72,120711,,,A*71
$GPRMC,202558.000,A,3748.6234,N,12218.0063,W,2.23,208.76,120711,,,A*7E
$GPRMC,202559.000,A,3748.6229,N,12218.0063,W,1.59,200.81,120711,,,A*7D
$GPRMC,202600.000,A,3748.6225,N,12218.0066,W,0.90,197.81,120711,,,A*72
$GPRMC,202601.000,A,3748.6221,N,12218.0068,W,0.49,208.45,120711,,,A*70
$GPRMC,202602.000,A,3748.6219,N,12218.0072,W,0.85,202.14,120711,,,A*7D
$GPRMC,202603.000,A,3748.6217,N,12218.0076,W,0.87,233.02,120711,,,A*71
$GPRMC,202604.000,A,3748.6214,N,12218.0082,W,1.09,230.00,120711,,,A*78
$GPRMC,202605.000,A,3748.6205,N,12218.0090,W,1.78,211.59,120711,,,A*73
$GPRMC,202606.000,A,3748.6198,N,12218.0097,W,2.02,199.99,120711,,,A*71
$GPRMC,202607.000,A,3748.6190,N,12218.0103,W,1.66,198.22,120711,,,A*74
$GPRMC,202608.000,A,3748.6183,N,12218.0107,W,1.59,191.22,120711,,,A*78
$GPRMC,202609.000,A,3748.6176,N,12218.0108,W,2.17,185.68,120711,,,A*7E
$GPRMC,202610.000,A,3748.6170,N,12218.0113,W,1.85,218.18,120711,,,A*72
$GPRMC,202611.000,A,3748.6161,N,12218.0120,W,1.71,198.22,120711,,,A*7A
$GPRMC,202612.000,A,3748.6153,N,12218.0124,W,1.68,200.58,120711,,,A*7B
$GPRMC,202613.000,A,3748.6145,N,12218.0131,W,1.59,211.51,120711,,,A*72
$GPRMC,202614.000,A,3748.6140,N,12218.0137,W,1.25,219.53,120711,,,A*77
$GPRMC,202615.000,A,3748.6134,N,12218.0144,W,1.29,213.63,120711,,,A*74
$GPRMC,202616.000,A,3748.6128,N,12218.0150,W,1.58,203.14,120711,,,A*78
$GPRMC,202617.000,A,3748.6124,N,12218.0153,W,1.81,202.17,120711,,,A*70
$GPRMC,202618.000,A,3748.6119,N,12218.0158,W,1.96,202.84,120711,,,A*76
$GPRMC,202619.000,A,3748.6112,N,12218.0164,W,2.05,206.57,120711,,,A*70
$GPRMC,202620.000,A,3748.6114,N,12218.0170,W,1.45,191.25,120711,,,A*76
$GPRMC,202621.000,A,3748.6109,N,12218.0170,W,1.11,182.29,120711,,,A*74
$GPRMC,202622.000,A,3748.6104,N,12218.0172,W,1.37,199.22,120711,,,A*7D
$GPRMC,202623.000,A,3748.6097,N,12218.0174,W,1.48,186.39,120711,,,A*7D
$GPRMC,202624.000,A,3748.6090,N,12218.0177,W,1.29,188.31,120711,,,A*7F
$GPRMC,202625.000,A,3748.6083,N,12218.0180,W,1.35,187.79,120711,,,A*7A
$GPRMC,202626.000,A,3748.6081,N,12218.0184,W,1.90,189.28,120711,,,A*7A
$GPRMC,202627.000,A,3748.6087,N,12218.0191,W,0.48,241.11,120711,,,A*70
$GPRMC,202628.000,A,3748.6093,N,12218.0196,W,0.92,355.76,120711,,,A*7F
$GPRMC,202629.000,A,3748.6099,N,12218.0196,W,0.31,352.21,120711,,,A*78
$GPRMC,202630.000,A,3748.6099,N,12218.0199,W,0.71,175.93,120711,,,A*75
$GPRMC,202631.000,A,3748.6100,N,12218.0197,W,1.10,167.16,120711,,,A*73
$GPRMC,202632.000,A,3748.6099,N,12218.0192,W,0.55,161.21,120711,,,A*76
$GPRMC,202633.000,A,3748.6097,N,12218.0193,W,1.32,232.87,120711,,,A*71
$GPRMC,202634.000,A,3748.6091,N,12218.0200,W,1.65,229.13,120711,,,A*7C
$GPRMC,202635.000,A,3748.6081,N,12218.0207,W,1.91,206.93,120711,,,A*75
$GPRMC,202636.000,A,3748.6079,N,12218.0216,W,1.69,209.06,120711,,,A*75
$GPRMC,202637.000,A,3748.6071,N,12218.0221,W,1.85,204.12,120711,,,A*72
$GPRMC,202638.000,A,3748.6069,N,12218.0228,W,1.31,207.07,120711,,,A*75
$GPRMC,202639.000,A,3748.6065,N,12218.0232,W,1.33,207.42,120711,,,A*70
$GPRMC,202640.000,A,3748.6059,N,12218.0234,W,1.78,208.48,120711,,,A*7D
$GPRMC,202641.000,A,3748.6056,N,12218.0233,W,0.77,211.03,120711,,,A*7D
$GPRMC,202642.000,A,3748.6059,N,12218.0237,W,0.56,226.48,120711,,,A*7D
$GPRMC,202643.000,A,3748.6056,N,12218.0240,W,1.09,206.70,120711,,,A*71
$GPRMC,202644.000,A,3748.6048,N,12218.0245,W,1.68,206.48,120711,,,A*70
$GPRMC,202645.000,A,3748.6038,N,12218.0252,W,2.42,199.10,120711,,,A*73
$GPRMC,202646.000,A,3748.6030,N,12218.0258,W,1.76,195.86,120711,,,A*75
$GPRMC,202647.000,A,3748.6024,N,12218.0260,W,1.24,187.97,120711,,,A*7E
$GPRMC,202648.000,A,3748.6018,N,12218.0263,W,0.84,217.15,120711,,,A*76
$GPRMC,202649.000,A,3748.6016,N,12218.0264,W,0.34,208.13,120711,,,A*7D
$GPRMC,202650.000,A,3748.6020,N,12218.0265,W,0.43,334.77,120711,,,A*7D
$GPRMC,202651.000,A,3748.6016,N,12218.0269,W,0.61,320.56,120711,,,A*73
$GPRMC,202652.000,A,3748.6012,N,12218.0270,W,0.23,323.64,120711,,,A*78
$GPRMC,202653.000,A,3748.6010,N,12218.0271,W,0.28,310.25,120711,,,A*74
$GPRMC,202654.000,A,3748.6012,N,12218.0273,W,0.35,344.86,120711,,,A*77
$GPRMC,202655.000,A,3748.6015,N,12218.0269,W,0.44,38.37,120711,,,A*4E
$GPRMC,202656.000,A,3748.6017,N,12218.0265,W,0.61,47.88,120711,,,A*48
$GPRMC,202657.000,A,3748.6014,N,12218.0259,W,0.36,10.77,120711,,,A*45
$GPRMC,202658.000,A,3748.6014,N,12218.0253,W,0.53,56.73,120711,,,A*45
$GPRMC,202659.000,A,3748.6013,N,12218.0248,W,0.14,60.32,120711,,,A*4A
$GPRMC,202700.000,A,3748.6018,N,12218.0248,W,0.21,338.80,120711,,,A*7D
$GPRMC,202701.000,A,3748.6016,N,12218.0245,W,0.24,325.68,120711,,,A*70
$GPRMC,202702.000,A,3748.6016,N,12218.0243,W,0.61,315.69,120711,,,A*76
$GPRMC,202703.000,A,3748.6016,N,12218.0240,W,0.57,354.35,120711,,,A*7D
$GPRMC,202704.000,A,3748.6019,N,12218.0240,W,0.42,358.35,120711,,,A*7D
$GPRMC,202705.000,A,3748.6024,N,12218.0237,W,0.48,313.29,120711,,,A*7A
$GPRMC,202706.000,A,3748.6028,N,12218.0231,W,0.35,40.78,120711,,,A*48
$GPRMC,202707.000,A,3748.6031,N,12218.0227,W,0.36,347.25,120711,,,A*79
$GPRMC,202708.000,A,3748.6030,N,12218.0232,W,0.47,266.76,120711,,,A*71
$GPRMC,202709.000,A,3748.6033,N,12218.0240,W,0.20,294.14,120711,,,A*7E
$GPRMC,202710.000,A,3748.6028,N,12218.0245,W,0.18,123.92,120711,,,A*73
$GPRMC,202711.000,A,3748.6024,N,12218.0249,W,0.27,151.51,120711,,,A*74
$GPRMC,202712.000,A,3748.6017,N,12218.0252,W,0.23,270.24,120711,,,A*7B
$GPRMC,202713.000,A,3748.6013,N,12218.0254,W,0.25,315.19,120711,,,A*72
$GPRMC,202714.000,A,3748.6014,N,12218.0254,W,0.24,356.57,120711,,,A*7E
$GPRMC,202715.000,A,3748.6008,N,12218.0256,W,0.22,279.60,120711,,,A*7E
$GPRMC,202716.000,A,3748.6009,N,12218.0257,W,0.18,226.88,120711,,,A*78
$GPRMC,202717.000,A,3748.6006,N,12218.0259,W,0.27,324.23,120711,,,A*76
$GPRMC,202718.000,A,3748.6005,N,12218.0262,W,0.37,323.68,120711,,,A*7B
$GPRMC,202719.000,A,3748.6003,N,12218.0265,W,0.20,328.12,120711,,,A*7B
$GPRMC,202720.000,A,3748.6003,N,12218.0268,W,0.20,303.09,120711,,,A*7F
$GPRMC,202721.000,A,3748.5994,N,12218.0265,W,0.12,256.07,120711,,,A*79
$GPRMC,202722.000,A,3748.5990,N,12218.0263,W,0.36,203.32,120711,,,A*78
$GPRMC,202723.000,A,3748.5984,N,12218.0263,W,0.32,233.28,120711,,,A*70
$GPRMC,202724.000,A,3748.5981,N,12218.0267,W,0.30,254.10,120711,,,A*7E
$GPRMC,202725.000,A,3748.5981,N,12218.0270,W,0.23,352.44,120711,,,A*7D
$GPRMC,202726.000,A,3748.5983,N,12218.0269,W,0.23,24.35,120711,,,A*40
$GPRMC,202727.000,A,3748.5982,N,12218.0270,W,0.35,267.67,120711,,,A*7D
$GPRMC,202728.000,A,3748.5981,N,12218.0271,W,0.24,281.82,120711,,,A*73
$GPRMC,202729.000,A,3748.5981,N,12218.0271,W,0.23,186.43,120711,,,A*7C
$GPRMC,202730.000,A,3748.5980,N,12218.0271,W,0.03,129.60,120711,,,A*73
$GPRMC,202731.000,A,3748.5980,N,12218.0271,W,0.17,298.65,120711,,,A*7B
$GPRMC,202732.000,A,3748.5981,N,12218.0269,W,0.35,337.71,120711,,,A*71
$GPRMC,202733.000,A,3748.5982,N,12218.0269,W,0.12,104.88,120711,,,A*72
$GPRMC,202734.000,A,3748.5981,N,12218.0268,W,0.35,124.46,120711,,,A*72
$GPRMC,202735.000,A,3748.5981,N,12218.0267,W,0.28,139.82,120711,,,A*74
$GPRMC,202736.000,A,3748.5981,N,12218.0267,W,0.09,300.45,120711,,,A*77
$GPRMC,202737.000,A,3748.5982,N,12218.0267,W,0.14,201.45,120711,,,A*79
$GPRMC,202738.000,A,3748.5981,N,12218.0267,W,0.28,175.79,120711,,,A*75
$GPRMC,202739.000,A,3748.5981,N,12218.0267,W,0.15,124.88,120711,,,A*70
$GPRMC,202740.000,A,3748.5982,N,12218.0267,W,0.16,16.71,120711,,,A*48
$GPRMC,202741.000,A,3748.5982,N,12218.0268,W,0.14,312.88,120711,,,A*75
$GPRMC,202742.000,A,3748.5983,N,12218.0270,W,0.14,259.91,120711,,,A*78
$GPRMC,202743.000,A,3748.5988,N,12218.0274,W,0.18,16.26,120711,,,A*4F
$GPRMC,202744.000,A,3748.5993,N,12218.0277,W,0.23,21.21,120711,,,A*4A
$GPRMC,202745.000,A,3748.5992,N,12218.0277,W,0.11,212.55,120711,,,A*7A
$GPRMC,202746.000,A,3748.5995,N,12218.0280,W,0.22,85.40,120711,,,A*4E
$GPRMC,202747.000,A,3748.5998,N,12218.0283,W,0.16,35.10,120711,,,A*48
$GPRMC,202748.000,A,3748.5997,N,12218.0286,W,0.51,226.96,120711,,,A*70
$GPRMC,202749.000,A,3748.5996,N,12218.0287,W,0.37,188.71,120711,,,A*7F
$GPRMC,202750.000,A,3748.5993,N,12218.0290,W,0.36,216.29,120711,,,A*7C
$GPRMC,202751.000,A,3748.5992,N,12218.0292,W,0.14,280.22,120711,,,A*7A
$GPRMC,202752.000,A,3748.5991,N,12218.0295,W,0.18,288.13,120711,,,A*7B
$GPRMC,202753.000,A,3748.5994,N,12218.0299,W,0.38,214.42,120711,,,A*70
$GPRMC,202754.000,A,3748.5995,N,12218.0301,W,0.49,193.28,120711,,,A*70
$GPRMC,202755.000,A,3748.5996,N,12218.0299,W,0.37,229.80,120711,,,A*7B
$GPRMC,202756.000,A,3748.6001,N,12218.0298,W,0.17,37.77,120711,,,A*4A
$GPRMC,202757.000,A,3748.6003,N,12218.0300,W,0.17,139.93,120711,,,A*7C
$GPRMC,202758.000,A,3748.6002,N,12218.0301,W,0.33,195.67,120711,,,A*78
$GPRMC,202759.000,A,3748.6003,N,12218.0303,W,0.16,285.73,120711,,,A*7A
$GPRMC,202800.000,A,3748.6006,N,12218.0307,W,0.35,348.53,120711,,,A*7B
$GPRMC,202801.000,A,3748.6009,N,12218.0310,W,0.29,301.04,120711,,,A*71
$GPRMC,202802.000,A,3748.6011,N,12218.0312,W,0.22,310.56,120711,,,A*75
$GPRMC,202803.000,A,3748.6012,N,12218.0314,W,0.25,38.61,120711,,,A*4B
$GPRMC,202804.000,A,3748.6012,N,12218.0313,W,0.31,58.77,120711,,,A*4F
$GPRMC,202805.000,A,3748.6013,N,12218.0313,W,0.23,256.30,120711,,,A*73
$GPRMC,202806.000,A,3748.6012,N,12218.0314,W,0.32,245.09,120711,,,A*7E
$GPRMC,202807.000,A,3748.6013,N,12218.0317,W,0.49,283.94,120711,,,A*7F
$GPRMC,202808.000,A,3748.6013,N,12218.0320,W,0.41,266.99,120711,,,A*7A
$GPRMC,202809.000,A,3748.6014,N,12218.0320,W,0.18,78.01,120711,,,A*4C
$GPRMC,202810.000,A,3748.6015,N,12218.0322,W,0.29,56.48,120711,,,A*44
$GPRMC,202811.000,A,3748.6015,N,12218.0322,W,0.16,343.11,120711,,,A*72
$GPRMC,202812.000,A,3748.6017,N,12218.0318,W,0.36,189.46,120711,,,A*7E
$GPRMC,202813.000,A,3748.6016,N,12218.0318,W,0.41,206.23,120711,,,A*79
$GPRMC,202814.000,A,3748.6011,N,12218.0315,W,0.24,127.06,120711,,,A*70
$GPRMC,202815.000,A,3748.6008,N,12218.0311,W,0.26,126.08,120711,,,A*70
$GPRMC,202816.000,A,3748.6006,N,12218.0307,W,0.10,144.91,120711,,,A*7B
$GPRMC,202817.000,A,3748.6004,N,12218.0303,W,0.29,90.66,120711,,,A*46
$GPRMC,202818.000,A,3748.6003,N,12218.0301,W,0.23,83.84,120711,,,A*48
$GPRMC,202819.000,A,3748.6002,N,12218.0298,W,0.18,109.42,120711,,,A*78
$GPRMC,202820.000,A,3748.6000,N,12218.0295,W,0.12,124.30,120711,,,A*7D
$GPRMC,202821.000,A,3748.5999,N,12218.0292,W,0.12,125.60,120711,,,A*75
$GPRMC,202822.000,A,3748.5998,N,12218.0290,W,0.13,177.98,120711,,,A*74
$GPRMC,202823.000,A,3748.5997,N,12218.0287,W,0.10,101.55,120711,,,A*7F
$GPRMC,202824.000,A,3748.5996,N,12218.0284,W,0.17,82.78,120711,,,A*48
$GPRMC,202825.000,A,3748.5995,N,12218.0280,W,0.21,70.67,120711,,,A*48
$GPRMC,202826.000,A,3748.5995,N,12218.0277,W,0.05,105.47,120711,,,A*74
$GPRMC,202827.000,A,3748.5994,N,12218.0273,W,0.17,74.68,120711,,,A*49
$GPRMC,202828.000,A,3748.5994,N,12218.0270,W,0.18,90.49,120711,,,A*43
$GPRMC,202829.000,A,3748.5994,N,12218.0267,W,0.37,72.63,120711,,,A*4D
$GPRMC,202830.000,A,3748.5994,N,12218.0264,W,0.36,71.04,120711,,,A*45
$GPRMC,202831.000,A,3748.5993,N,12218.0265,W,0.91,145.83,120711,,,A*76
$GPRMC,202832.000,A,3748.5992,N,12218.0269,W,0.74,138.75,120711,,,A*70
