$ADVER,3080,2.3
$GPRMC,181827.620,A,3748.7824,N,12217.8691,W,0.09,79.60,120711,,,A*48
$GPGGA,181828.616,3748.7839,N,12217.8684,W,1,05,1.6,46.8,M,-25.1,M,,0000*5E
$GPGSA,A,3,20,23,13,07,08,,,,,,,,1.9,1.6,1.0*32
$GPGSV,3,1,12,13,75,063,36,07,57,296,41,23,49,114,41,08,34,271,36*76
$GPGSV,3,2,12,20,10,174,38,10,43,282,37,03,26,083,38,16,26,043,*78
$GPGSV,3,3,12,06,19,067,26,19,17,115,33,05,07,323,,28,07,210,*74
$GPRMC,181828.616,A,3748.7839,N,12217.8684,W,0.05,120.42,120711,,,A*7B
$GPVTG,120.42,T,,M,0.05,N,0.1,K,A*0C
$GPGGA,181829.620,3748.7843,N,12217.8682,W,1,05,1.6,45.7,M,-25.1,M,,0000*5D
$GPGSA,A,3,20,23,13,07,08,,,,,,,,1.9,1.6,1.0*32
$GPRMC,181829.620,A,3748.7843,N,12217.8682,W,0.10,61.94,120711,,,A*4F
$GPVTG,61.94,T,,M,0.10,N,0.2,K,A*34
$GPGGA,181830.000,3748.7854,N,12217.8677,W,1,05,1.6,42.9,M,-25.1,M,,0000*54
$GPGSA,A,3,20,23,13,07,08,,,,,,,,1.9,1.6,1.0*32
$GPRMC,181830.000,A,3748.7854,N,12217.8677,W,0.09,113.62,120711,,,A*7A
$GPVTG,113.62,T,,M,0.09,N,0.2,K,A*01
$GPGGA,181831.000,3748.7852,N,12217.8677,W,1,05,1.6,43.3,M,-25.1,M,,0000*58
$GPGSA,A,3,20,23,13,07,08,,,,,,,,1.9,1.6,1.0*32
$GPRMC,181831.000,A,3748.7852,N,12217.8677,W,0.13,73.54,120711,,,A*44
$GPVTG,73.54,T,,M,0.13,N,0.2,K,A*38
$GPGGA,181832.000,3748.7852,N,12217.8678,W,1,05,1.6,43.4,M,-25.1,M,,0000*53
$GPGSA,A,3,20,23,13,07,08,,,,,,,,1.9,1.6,1.0*32
$GPRMC,181832.000,A,3748.7852,N,12217.8678,W,0.05,57.19,120711,,,A*40
$GPVTG,57.19,T,,M,0.05,N,0.1,K,A*33
$GPGGA,181833.000,3748.7994,N,12217.8604,W,1,07,1.5,6.8,M,-25.1,M,,0000*6E
$GPGSA,A,3,20,23,03,13,07,08,10,,,,,,2.7,1.5,2.2*3F
$GPGSV,3,1,12,13,75,063,36,07,57,296,40,23,49,114,41,08,34,271,35*74
$GPGSV,3,2,12,20,10,174,38,10,43,282,31,03,26,083,32,16,26,043,24*72
$GPGSV,3,3,12,06,19,067,26,19,17,115,38,05,07,323,28,28,07,210,*75
$GPVTG,75.80,T,,M,0.12,N,0.2,K,A*36
$GPGGA,181834.000,3748.7996,N,12217.8605,W,1,07,1.5,6.3,M,-25.1,M,,0000*61
$GPGSA,A,3,20,23,03,13,07,08,10,,,,,,2.7,1.5,2.2*3F
$GPRMC,181834.000,A,3748.7996,N,12217.8605,W,0.06,105.90,120711,,,A*71
$GPVTG,105.90,T,,M,0.06,N,0.1,K,A*07
$GPGGA,181835.000,3748.7998,N,12217.8605,W,1,07,1.5,5.8,M,-25.1,M,,0000*66
$GPGSA,A,3,20,23,03,13,07,08,10,,,,,,2.7,1.5,2.2*3F
$GPRMC,181835.000,A,3748.7998,N,12217.8605,W,0.09,87.94,120711,,,A*4E
$GPVTG,87.94,T,,M,0.09,N,0.2,K,A*34
$GPGGA,181836.000,3748.8000,N,12217.8605,W,1,07,1.5,5.4,M,-25.1,M,,0000*6E
$GPGSA,A,3,20,23,03,13,07,08,10,,,,,,2.7,1.5,2.2*3F
$GPRMC,181836.000,A,3748.8000,N,12217.8605,W,0.11,81.20,120711,,,A*4A
$GPVTG,81.20,T,,M,0.11,N,0.2,K,A*34
$GPGGA,181837.000,3748.8001,N,12217.8605,W,1,07,1.5,5.1,M,-25.1,M,,0000*6B
$GPGSA,A,3,20,23,03,13,07,08,10,,,,,,2.7,1.5,2.2*3F
$GPRMC,181837.000,A,3748.8001,N,12217.8605,W,0.07,87.71,120711,,,A*4F
$GPVTG,87.71,T,,M,0.07,N,0.1,K,A*32
$GPGGA,181838.000,3748.8002,N,12217.8604,W,1,07,1.5,4.8,M,-25.1,M,,0000*6E
$GPGSA,A,3,20,23,03,13,07,08,10,,,,,,2.7,1.5,2.2*3F
$GPGSV,3,1,12,13,75,064,36,07,57,296,41,23,49,115,40,10,43,282,31*73
$GPGSV,3,2,12,08,34,271,35,03,26,083,32,16,26,043,28,06,19,067,26*7E
$GPGSV,3,3,12,19,18,115,38,20,10,174,37,05,07,323,29,28,07,210,*75
$GPRMC,181838.000,A,3748.8002,N,12217.8604,W,0.09,84.42,120711,,,A*4F
$GPVTG,84.42,T,,M,0.09,N,0.2,K,A*3C
$GPGGA,181839.000,3748.8002,N,12217.8604,W,1,07,1.5,4.6,M,-25.1,M,,0000*61
$GPGSA,A,3,20,23,03,13,07,08,10,,,,,,2.7,1.5,2.2*3F
$GPRMC,181839.000,A,3748.8002,N,12217.8604,W,0.07,47.57,120711,,,A*4B
$GPVTG,47.57,T,,M,0.07,N,0.1,K,A*3A
$GPGGA,181840.000,3748.8002,N,12217.8604,W,1,07,1.5,4.5,M,-25.1,M,,0000*6C
$GPGSA,A,3,20,23,03,13,07,08,10,,,,,,2.7,1.5,2.2*3F
$GPRMC,181840.000,A,3748.8002,N,12217.8604,W,0.10,140.20,120711,,,A*75
$GPVTG,140.20,T,,M,0.10,N,0.2,K,A*09
$GPGGA,181841.000,3748.8003,N,12217.8604,W,1,07,1.5,4.4,M,-25.1,M,,0000*6D
$GPGSA,A,3,20,23,03,13,07,08,10,,,,,,2.7,1.5,2.2*3F
$GPRMC,181841.000,A,3748.8003,N,12217.8604,W,0.06,75.22,120711,,,A*47
$GPVTG,75.22,T,,M,0.06,N,0.1,K,A*38
$GPGGA,181842.000,3748.8002,N,12217.8604,W,1,07,1.5,4.4,M,-25.1,M,,0000*6F
$GPGSA,A,3,20,23,03,13,07,08,10,,,,,,2.7,1.5,2.2*3F
$GPRMC,181842.000,A,3748.8002,N,12217.8604,W,0.10,87.63,120711,,,A*4A
$GPVTG,87.63,T,,M,0.10,N,0.2,K,A*34
$GPGGA,181843.000,3748.8002,N,12217.8604,W,1,06,1.6,4.3,M,-25.1,M,,0000*6B
$GPGSA,A,3,20,23,03,13,07,10,,,,,,,2.9,1.6,2.4*3C
$GPGSV,3,1,12,13,75,064,36,07,57,296,33,23,49,115,40,10,43,282,23*75
$GPGSV,3,2,12,08,34,271,16,03,26,083,33,16,26,043,24,06,19,067,17*70
$GPGSV,3,3,12,19,18,114,34,20,10,174,37,05,07,323,27,28,07,210,*76
$GPRMC,181843.000,A,3748.8002,N,12217.8604,W,0.09,120.08,120711,,,A*72
$GPVTG,120.08,T,,M,0.09,N,0.2,K,A*0D
$GPGGA,181844.000,3748.8002,N,12217.8604,W,1,06,1.6,4.3,M,-25.1,M,,0000*6C
$GPGSA,A,3,20,23,03,13,07,10,,,,,,,2.9,1.6,2.4*3C
$GPRMC,181844.000,A,3748.8002,N,12217.8604,W,0.08,92.73,120711,,,A*40
$GPVTG,92.73,T,,M,0.08,N,0.1,K,A*3B
$GPGGA,181845.000,3748.8002,N,12217.8604,W,1,06,1.6,4.1,M,-25.1,M,,0000*6F
$GPGSA,A,3,20,23,03,13,07,10,,,,,,,2.9,1.6,2.4*3C
$GPRMC,181845.000,A,3748.8002,N,12217.8604,W,0.01,195.15,120711,,,A*7E
$GPVTG,195.15,T,,M,0.01,N,0.0,K,A*05
$GPGGA,181846.000,3748.8001,N,12217.8604,W,1,06,1.6,4.1,M,-25.1,M,,0000*6F
$GPGSA,A,3,20,23,03,13,07,10,,,,,,,2.9,1.6,2.4*3C
$GPRMC,181846.000,A,3748.8001,N,12217.8604,W,0.13,359.26,120711,,,A*7F
$GPVTG,359.26,T,,M,0.13,N,0.2,K,A*06
$GPGGA,181847.000,3748.8001,N,12217.8602,W,1,06,1.6,4.1,M,-25.1,M,,0000*68
$GPGSA,A,3,20,23,03,13,07,10,,,,,,,2.9,1.6,2.4*3C
$GPRMC,181847.000,A,3748.8001,N,12217.8602,W,0.12,105.07,120711,,,A*71
$GPVTG,105.07,T,,M,0.12,N,0.2,K,A*0F
$GPGGA,181848.000,3748.8001,N,12217.8602,W,1,06,1.6,4.2,M,-25.1,M,,0000*64
$GPGSA,A,3,20,23,03,13,07,10,,,,,,,2.9,1.6,2.4*3C
$GPGSV,3,1,12,13,75,064,35,07,57,296,41,23,49,115,36,10,43,282,29*78
$GPGSV,3,2,12,08,34,271,,03,26,083,31,16,26,043,17,06,19,067,20*71
$GPGSV,3,3,12,19,18,114,35,20,10,174,37,05,07,323,29,28,07,210,*79
$GPVTG,166.71,T,,M,0.17,N,0.3,K,A*0F
$GPGGA,181849.000,3748.8000,N,12217.8601,W,1,07,1.5,4.3,M,-25.1,M,,0000*64
$GPGSA,A,3,20,23,03,13,07,08,10,,,,,,2.7,1.5,2.2*3F
$GPRMC,181849.000,A,3748.8000,N,12217.8601,W,0.11,95.92,120711,,,A*4A
$GPVTG,95.92,T,,M,0.11,N,0.2,K,A*38
$GPGGA,181850.000,3748.8000,N,12217.8599,W,1,07,1.5,4.7,M,-25.1,M,,0000*6A
$GPGSA,A,3,20,23,03,13,07,08,10,,,,,,2.7,1.5,2.2*3F
$GPRMC,181850.000,A,3748.8000,N,12217.8599,W,0.07,106.85,120711,,,A*7A
$GPVTG,106.85,T,,M,0.07,N,0.1,K,A*01
$GPGGA,181851.000,3748.8000,N,12217.8599,W,1,07,1.5,4.9,M,-25.1,M,,0000*65
$GPGSA,A,3,20,23,03,13,07,08,10,,,,,,2.7,1.5,2.2*3F
$GPRMC,181851.000,A,3748.8000,N,12217.8599,W,0.07,81.61,120711,,,A*4F
$GPVTG,81.61,T,,M,0.07,N,0.1,K,A*35
$GPGGA,181852.000,3748.8000,N,12217.8598,W,1,07,1.5,5.1,M,-25.1,M,,0000*6E
$GPGSA,A,3,20,23,03,13,07,08,10,,,,,,2.7,1.5,2.2*3F
$GPRMC,181852.000,A,3748.8000,N,12217.8598,W,0.08,122.31,120711,,,A*7F
$GPVTG,122.31,T,,M,0.08,N,0.1,K,A*07
$GPGGA,181853.000,3748.8000,N,12217.8598,W,1,07,1.5,5.3,M,-25.1,M,,0000*6D
$GPGSA,A,3,20,23,03,13,07,08,10,,,,,,2.7,1.5,2.2*3F
$GPGSV,3,1,12,13,75,064,35,07,57,296,42,23,49,115,37,10,43,282,32*70
$GPGSV,3,2,12,08,34,271,32,03,26,083,32,16,26,043,28,06,19,067,26*79
$GPGSV,3,3,12,19,18,114,34,20,10,174,34,05,07,323,31,28,07,210,*72
$GPRMC,181853.000,A,3748.8000,N,12217.8598,W,0.11,116.55,120711,,,A*73
$GPVTG,116.55,T,,M,0.11,N,0.2,K,A*09
$GPGGA,181854.000,3748.8000,N,12217.8598,W,1,07,1.5,5.3,M,-25.1,M,,0000*6A
$GPGSA,A,3,20,23,03,13,07,08,10,,,,,,2.7,1.5,2.2*3F
$GPRMC,181854.000,A,3748.8000,N,12217.8598,W,0.09,153.29,120711,,,A*77
$GPVTG,153.29,T,,M,0.09,N,0.2,K,A*0A
$GPGGA,181855.000,3748.7999,N,12217.8599,W,1,07,1.5,5.1,M,-25.1,M,,0000*6E
$GPGSA,A,3,20,23,03,13,07,08,10,,,,,,2.7,1.5,2.2*3F
$GPRMC,181855.000,A,3748.7999,N,12217.8599,W,0.04,184.53,120711,,,A*7B
$GPVTG,184.53,T,,M,0.04,N,0.1,K,A*03
$GPGGA,181856.000,3748.7999,N,12217.8599,W,1,07,1.5,5.2,M,-25.1,M,,0000*6E
$GPGSA,A,3,20,23,03,13,07,08,10,,,,,,2.7,1.5,2.2*3F
$GPRMC,181856.000,A,3748.7999,N,12217.8599,W,0.08,98.40,120711,,,A*4A
$GPVTG,98.40,T,,M,0.08,N,0.1,K,A*31
$GPGGA,181857.000,3748.7998,N,12217.8600,W,1,07,1.5,5.1,M,-25.1,M,,0000*6E
$GPGSA,A,3,20,23,03,13,07,08,10,,,,,,2.7,1.5,2.2*3F
$GPRMC,181857.000,A,3748.7998,N,12217.8600,W,0.14,148.22,120711,,,A*7C
$GPVTG,148.22,T,,M,0.14,N,0.3,K,A*06
$GPGGA,181858.000,3748.7998,N,12217.8599,W,1,07,1.5,5.1,M,-25.1,M,,0000*62
$GPGSA,A,3,20,23,03,13,07,08,10,,,,,,2.7,1.5,2.2*3F
$GPGSV,3,1,12,13,75,064,26,07,57,296,35,23,49,115,36,10,43,282,23*73
$GPGSV,3,2,12,08,34,271,28,03,26,083,31,16,26,043,19,06,19,067,25*70
$GPGSV,3,3,12,19,18,114,34,20,10,174,32,05,07,323,33,28,07,210,*76
$GPRMC,181858.000,A,3748.7998,N,12217.8599,W,0.03,124.59,120711,,,A*70
$GPVTG,124.59,T,,M,0.03,N,0.1,K,A*04
$GPGGA,181859.000,3748.7998,N,12217.8599,W,1,07,1.5,5.1,M,-25.1,M,,0000*63
$GPGSA,A,3,20,23,03,13,07,08,10,,,,,,2.7,1.5,2.2*3F
$GPRMC,181859.000,A,3748.7998,N,12217.8599,W,0.08,285.34,120711,,,A*79
$GPVTG,285.34,T,,M,0.08,N,0.1,K,A*0C
$GPGGA,181900.000,3748.7999,N,12217.8598,W,1,07,1.5,5.3,M,-25.1,M,,0000*6C
$GPGSA,A,3,20,23,03,13,07,08,10,,,,,,2.7,1.5,2.2*3F
$GPRMC,181900.000,A,3748.7999,N,12217.8598,W,0.22,115.68,120711,,,A*7F
$GPVTG,115.68,T,,M,0.22,N,0.4,K,A*02
$GPGGA,181901.000,3748.7999,N,12217.8601,W,1,07,1.5,4.9,M,-25.1,M,,0000*65
$GPGSA,A,3,20,23,03,13,07,08,10,,,,,,2.7,1.5,2.2*3F
$GPRMC,181901.000,A,3748.7999,N,12217.8601,W,0.14,297.12,120711,,,A*7C
$GPVTG,297.12,T,,M,0.14,N,0.3,K,A*04
$GPGGA,181902.000,3748.7997,N,12217.8604,W,1,07,1.5,6.0,M,-25.1,M,,0000*66
$GPGSA,A,3,20,23,03,13,07,08,10,,,,,,2.7,1.5,2.2*3F
$GPRMC,181902.000,A,3748.7997,N,12217.8604,W,0.31,262.18,120711,,,A*73
$GPVTG,262.18,T,,M,0.31,N,0.6,K,A*06
$GPGGA,181903.000,3748.7998,N,12217.8605,W,1,08,1.5,5.6,M,-25.1,M,,0000*63
$GPGSA,A,3,20,23,19,03,13,07,08,10,,,,,2.6,1.5,2.1*35
$GPGSV,3,1,12,13,75,064,35,07,57,296,35,23,49,115,33,10,43,282,27*70
$GPGSV,3,2,12,08,34,271,28,03,26,083,31,16,26,043,28,06,19,067,26*71
$GPGSV,3,3,12,19,18,114,34,20,10,174,31,05,07,323,33,28,07,210,*75
$GPVTG,251.75,T,,M,0.11,N,0.2,K,A*0B
$GPGGA,181904.000,3748.7998,N,12217.8606,W,1,08,1.5,5.3,M,-25.1,M,,0000*62
$GPGSA,A,3,20,23,19,03,13,07,08,10,,,,,2.6,1.5,2.1*35
$GPRMC,181904.000,A,3748.7998,N,12217.8606,W,0.18,238.58,120711,,,A*78
$GPVTG,238.58,T,,M,0.18,N,0.3,K,A*03
$GPGGA,181905.000,3748.7998,N,12217.8606,W,2,08,1.5,5.0,M,-25.1,M,,0000*63
$GPGSA,A,3,20,23,19,03,13,07,08,10,,,,,2.6,1.5,2.1*35
$GPRMC,181905.000,A,3748.7998,N,12217.8606,W,0.18,157.36,120711,,,D*7E
$GPVTG,157.36,T,,M,0.18,N,0.3,K,D*04
$GPGGA,181906.000,3748.7997,N,12217.8605,W,2,08,1.5,4.8,M,-25.1,M,,0000*65
$GPGSA,A,3,20,23,19,03,13,07,08,10,,,,,2.6,1.5,2.1*35
$GPRMC,181906.000,A,3748.7997,N,12217.8605,W,0.34,222.19,120711,,,D*73
$GPVTG,222.19,T,,M,0.34,N,0.6,K,D*03
$GPGGA,181907.000,3748.7996,N,12217.8606,W,2,08,1.5,4.7,M,-25.1,M,,0000*69
$GPGSA,A,3,20,23,19,03,13,07,08,10,,,,,2.6,1.5,2.1*35
$GPRMC,181907.000,A,3748.7996,N,12217.8606,W,0.36,207.24,120711,,,D*7B
$GPVTG,207.24,T,,M,0.36,N,0.7,K,D*09
$GPGGA,181908.000,3748.7996,N,12217.8606,W,2,07,1.7,4.5,M,-25.1,M,2.8,0000*4D
$GPGSA,A,3,20,19,03,13,07,08,10,,,,,,3.1,1.7,2.6*37
$GPGSV,3,1,12,13,75,065,28,07,57,297,38,23,49,115,12,10,43,282,30*74
$GPGSV,3,2,12,08,34,271,33,03,26,082,21,16,26,043,24,06,19,067,26*77
$GPGSV,3,3,12,19,18,114,27,20,10,174,32,05,07,323,33,28,07,210,*74
$GPRMC,181908.000,A,3748.7996,N,12217.8606,W,0.11,178.80,120711,,,D*74
$GPVTG,178.80,T,,M,0.11,N,0.2,K,D*0C
$GPGGA,181909.000,3748.7997,N,12217.8607,W,2,07,1.7,4.2,M,-25.1,M,3.8,0000*4A
$GPGSA,A,3,20,19,03,13,07,08,10,,,,,,3.1,1.7,2.6*37
$GPRMC,181909.000,A,3748.7997,N,12217.8607,W,0.23,43.22,120711,,,D*45
$GPVTG,43.22,T,,M,0.23,N,0.4,K,D*3A
$GPGGA,181910.000,3748.7998,N,12217.8607,W,2,07,1.7,3.8,M,-25.1,M,4.8,0000*47
$GPGSA,A,3,20,19,03,13,07,08,10,,,,,,3.1,1.7,2.6*37
$GPRMC,181910.000,A,3748.7998,N,12217.8607,W,0.28,41.21,120711,,,D*48
$GPVTG,41.21,T,,M,0.28,N,0.5,K,D*31
$GPGGA,181911.000,3748.7998,N,12217.8607,W,2,08,1.5,3.7,M,-25.1,M,5.8,0000*45
$GPGSA,A,3,20,23,19,03,13,07,08,10,,,,,2.6,1.5,2.1*35
$GPRMC,181911.000,A,3748.7998,N,12217.8607,W,0.02,200.18,120711,,,D*7C
$GPVTG,200.18,T,,M,0.02,N,0.0,K,D*01
$GPGGA,181912.000,3748.7997,N,12217.8607,W,2,08,1.5,3.8,M,-25.1,M,6.8,0000*45
$GPGSA,A,3,20,23,19,03,13,07,08,10,,,,,2.6,1.5,2.1*35
$GPRMC,181912.000,A,3748.7997,N,12217.8607,W,0.15,204.51,120711,,,D*7F
$GPVTG,204.51,T,,M,0.15,N,0.3,K,D*0D
$GPGGA,181913.000,3748.7997,N,12217.8608,W,2,08,1.5,3.6,M,-25.1,M,7.8,0000*44
$GPGSA,A,3,20,23,19,03,13,07,08,10,,,,,2.6,1.5,2.1*35
$GPGSV,3,1,12,13,75,065,29,07,57,297,38,23,48,115,20,10,43,282,37*72
$GPGSV,3,2,12,08,34,271,34,03,26,082,21,16,26,043,25,06,19,067,26*71
$GPGSV,3,3,12,19,18,114,28,20,10,174,31,05,07,323,30,28,07,210,*7B
$GPRMC,181913.000,A,3748.7997,N,12217.8608,W,0.02,232.30,120711,,,D*75
$GPVTG,232.30,T,,M,0.02,N,0.0,K,D*0A
$GPGGA,181914.000,3748.7997,N,12217.8607,W,2,08,1.5,3.6,M,-25.1,M,,0000*6D
$GPGSA,A,3,20,23,19,03,13,07,08,10,,,,,2.6,1.5,2.1*35
$GPRMC,181914.000,A,3748.7997,N,12217.8607,W,0.46,44.25,120711,,,D*4A
$GPVTG,44.25,T,,M,0.46,N,0.9,K,D*34
$GPGGA,181915.000,3748.7999,N,12217.8606,W,2,08,1.5,3.3,M,-25.1,M,2.8,0000*42
$GPGSA,A,3,20,23,19,03,13,07,08,10,,,,,2.6,1.5,2.1*35
$GPRMC,181915.000,A,3748.7999,N,12217.8606,W,0.32,45.00,120711,,,D*41
$GPVTG,45.00,T,,M,0.32,N,0.6,K,D*3E
$GPGGA,181916.000,3748.8000,N,12217.8605,W,2,08,1.5,2.9,M,-25.1,M,3.8,0000*4E
$GPGSA,A,3,20,23,19,03,13,07,08,10,,,,,2.6,1.5,2.1*35
$GPRMC,181916.000,A,3748.8000,N,12217.8605,W,0.25,27.42,120711,,,D*43
$GPVTG,27.42,T,,M,0.25,N,0.5,K,D*39
$GPGGA,181917.000,3748.8001,N,12217.8604,W,2,08,1.5,2.6,M,-25.1,M,4.8,0000*47
$GPGSA,A,3,20,23,19,03,13,07,08,10,,,,,2.6,1.5,2.1*35
$GPRMC,181917.000,A,3748.8001,N,12217.8604,W,0.01,342.73,120711,,,D*76
$GPVTG,342.73,T,,M,0.01,N,0.0,K,D*08
$GPGGA,181918.000,3748.8001,N,12217.8603,W,2,08,1.5,2.2,M,-25.1,M,,0000*69
$GPGSA,A,3,20,23,19,03,13,07,08,10,,,,,2.6,1.5,2.1*35
$GPGSV,3,1,12,13,75,065,30,07,57,297,38,23,48,115,22,10,43,282,36*79
$GPGSV,3,2,12,08,34,271,33,03,26,082,21,16,26,043,31,06,19,067,18*7E
$GPGSV,3,3,12,19,18,114,28,20,10,174,32,28,07,210,,05,07,323,*7B
$GPRMC,181918.000,A,3748.8001,N,12217.8603,W,0.17,48.84,120711,,,D*48
$GPVTG,48.84,T,,M,0.17,N,0.3,K,D*3D
$GPGGA,181919.000,3748.8002,N,12217.8603,W,2,08,1.5,1.8,M,-25.1,M,2.8,0000*46
$GPGSA,A,3,20,23,19,03,13,07,08,10,,,,,2.6,1.5,2.1*35
$GPRMC,181919.000,A,3748.8002,N,12217.8603,W,0.15,264.64,120711,,,D*7A
$GPVTG,264.64,T,,M,0.15,N,0.3,K,D*0D
$GPGGA,181920.000,3748.8004,N,12217.8603,W,2,08,1.5,1.5,M,-25.1,M,3.8,0000*46
$GPGSA,A,3,20,23,19,03,13,07,08,10,,,,,2.6,1.5,2.1*35
$GPRMC,181920.000,A,3748.8004,N,12217.8603,W,0.74,330.10,120711,,,D*72
$GPVTG,330.10,T,,M,0.74,N,1.4,K,D*0F
$GPGGA,181921.000,3748.8005,N,12217.8606,W,2,08,1.5,1.4,M,-25.1,M,4.8,0000*45
$GPGSA,A,3,20,23,19,03,13,07,08,10,,,,,2.6,1.5,2.1*35
$GPRMC,181921.000,A,3748.8005,N,12217.8606,W,0.87,318.33,120711,,,D*70
$GPVTG,318.33,T,,M,0.87,N,1.6,K,D*0A
$GPGGA,181922.000,3748.8003,N,12217.8607,W,2,08,1.5,1.9,M,-25.1,M,5.8,0000*4D
$GPGSA,A,3,20,23,19,03,13,07,08,10,,,,,2.6,1.5,2.1*35
$GPRMC,181922.000,A,3748.8003,N,12217.8607,W,0.46,250.76,120711,,,D*75
$GPVTG,250.76,T,,M,0.46,N,0.9,K,D*05
$GPGGA,181923.000,3748.8003,N,12217.8610,W,2,08,1.5,1.2,M,-25.1,M,6.8,0000*42
$GPGSA,A,3,20,23,19,03,13,07,08,10,,,,,2.6,1.5,2.1*35
$GPGSV,3,1,12,13,75,065,31,07,57,297,22,23,48,115,32,10,43,282,34*70
$GPGSV,3,2,12,08,34,271,27,03,26,082,22,16,26,043,22,06,19,067,26*77
$GPGSV,3,3,12,19,18,114,25,20,10,174,30,28,07,210,31,05,07,323,*76
$GPVTG,15.43,T,,M,0.12,N,0.2,K,D*3A
$GPGGA,181924.000,3748.8002,N,12217.8611,W,2,08,1.5,1.1,M,-25.1,M,7.8,0000*47
$GPGSA,A,3,20,23,19,03,13,07,08,10,,,,,2.6,1.5,2.1*35
$GPRMC,181924.000,A,3748.8002,N,12217.8611,W,0.13,326.20,120711,,,D*76
$GPVTG,326.20,T,,M,0.13,N,0.2,K,D*0D
$GPGGA,181925.000,3748.8005,N,12217.8612,W,2,07,1.5,0.0,M,-25.1,M,8.8,0000*42
$GPGSA,A,3,20,23,03,13,07,08,10,,,,,,2.7,1.5,2.2*3F
$GPRMC,181925.000,A,3748.8005,N,12217.8612,W,0.18,81.69,120711,,,D*4B
$GPVTG,81.69,T,,M,0.18,N,0.3,K,D*34
$GPGGA,181926.000,3748.8001,N,12217.8615,W,2,07,1.5,1.7,M,-25.1,M,9.8,0000*45
$GPGSA,A,3,20,23,03,13,07,08,10,,,,,,2.7,1.5,2.2*3F
$GPRMC,181926.000,A,3748.8001,N,12217.8615,W,0.29,180.80,120711,,,D*7E
$GPVTG,180.80,T,,M,0.29,N,0.5,K,D*07
$GPGGA,181927.000,3748.7995,N,12217.8615,W,2,07,1.5,3.7,M,-25.1,M,10.8,0000*75
$GPGSA,A,3,20,23,03,13,07,08,10,,,,,,2.7,1.5,2.2*3F
$GPRMC,181927.000,A,3748.7995,N,12217.8615,W,0.50,102.05,120711,,,D*7D
$GPVTG,102.05,T,,M,0.50,N,0.9,K,D*02
$GPGGA,181928.000,3748.7998,N,12217.8613,W,2,06,1.6,3.7,M,-25.1,M,11.8,0000*72
$GPGSA,A,3,20,23,03,07,08,10,,,,,,,3.2,1.6,2.8*30
$GPGSV,3,1,12,13,75,065,16,07,57,297,28,23,48,115,14,10,43,282,21*7F
$GPGSV,3,2,12,08,34,271,32,03,26,082,23,16,26,043,24,06,19,067,27*75
$GPGSV,3,3,12,19,18,114,,20,10,174,25,28,07,210,20,05,07,323,*75
$GPRMC,181928.000,A,3748.7998,N,12217.8613,W,0.57,56.95,120711,,,D*47
$GPVTG,56.95,T,,M,0.57,N,1.1,K,D*35
$GPGGA,181929.000,3748.8005,N,12217.8607,W,2,06,1.6,3.4,M,-25.1,M,12.8,0000*74
$GPGSA,A,3,20,23,03,07,08,10,,,,,,,3.2,1.6,2.8*30
$GPRMC,181929.000,A,3748.8005,N,12217.8607,W,0.52,46.66,120711,,,D*49
$GPVTG,46.66,T,,M,0.52,N,1.0,K,D*3C
$GPGGA,181930.000,3748.8009,N,12217.8606,W,2,07,1.5,3.6,M,-25.1,M,13.8,0000*70
$GPGSA,A,3,20,23,03,13,07,08,10,,,,,,2.7,1.5,2.2*3F
$GPRMC,181930.000,A,3748.8009,N,12217.8606,W,0.48,56.02,120711,,,D*44
$GPVTG,56.02,T,,M,0.48,N,0.9,K,D*3C
$GPGGA,181931.000,3748.8007,N,12217.8607,W,2,07,1.5,2.9,M,-25.1,M,14.8,0000*77
$GPGSA,A,3,20,23,03,13,07,08,10,,,,,,2.7,1.5,2.2*3F
$GPRMC,181931.000,A,3748.8007,N,12217.8607,W,0.59,128.30,120711,,,D*73
$GPVTG,128.30,T,,M,0.59,N,1.1,K,D*0C
$GPGGA,181932.000,3748.8006,N,12217.8607,W,2,07,1.5,2.0,M,-25.1,M,15.8,0000*7D
$GPGSA,A,3,20,23,03,13,07,08,10,,,,,,2.7,1.5,2.2*3F
$GPRMC,181932.000,A,3748.8006,N,12217.8607,W,0.33,180.38,120711,,,D*77
$GPVTG,180.38,T,,M,0.33,N,0.6,K,D*0C
$GPGGA,181933.000,3748.8007,N,12217.8609,W,2,07,1.5,0.7,M,-25.1,M,16.8,0000*75
$GPGSA,A,3,20,23,03,13,07,08,10,,,,,,2.7,1.5,2.2*3F
$GPGSV,3,1,12,13,75,065,32,07,57,297,26,23,48,115,31,10,43,282,26*77
$GPGSV,3,2,12,08,34,271,32,03,26,082,24,16,26,043,31,06,19,067,26*77
$GPGSV,3,3,12,19,18,114,,20,10,174,27,28,07,210,31,05,07,323,*77
$GPRMC,181933.000,A,3748.8007,N,12217.8609,W,0.16,200.86,120711,,,D*70
$GPVTG,200.86,T,,M,0.16,N,0.3,K,D*00
$GPGGA,181934.000,3748.8006,N,12217.8609,W,2,08,1.5,-0.3,M,-25.1,M,17.8,0000*54
$GPGSA,A,3,20,23,03,13,07,08,10,19,,,,,2.6,1.5,2.1*35
$GPRMC,181934.000,A,3748.8006,N,12217.8609,W,0.09,330.71,120711,,,D*72
$GPVTG,330.71,T,,M,0.09,N,0.2,K,D*05
$GPGGA,181935.000,3748.8005,N,12217.8612,W,1,08,1.5,-0.1,M,-25.1,M,,0000*4D
$GPGSA,A,3,20,23,03,13,07,08,10,19,,,,,2.6,1.5,2.1*35
$GPRMC,181935.000,A,3748.8005,N,12217.8612,W,0.21,330.26,120711,,,A*77
$GPVTG,330.26,T,,M,0.21,N,0.4,K,A*0E
$GPGGA,181936.000,3748.8006,N,12217.8613,W,1,08,1.5,-1.0,M,-25.1,M,,0000*4C
$GPGSA,A,3,20,23,03,13,07,08,10,19,,,,,2.6,1.5,2.1*35
$GPRMC,181936.000,A,3748.8006,N,12217.8613,W,0.12,26.88,120711,,,A*46
$GPVTG,26.88,T,,M,0.12,N,0.2,K,A*38
$GPGGA,181937.000,3748.8007,N,12217.8613,W,1,08,1.5,-1.6,M,-25.1,M,,0000*4A
$GPGSA,A,3,20,23,03,13,07,08,10,19,,,,,2.6,1.5,2.1*35
$GPRMC,181937.000,A,3748.8007,N,12217.8613,W,0.14,9.90,120711,,,A*74
$GPVTG,9.90,T,,M,0.14,N,0.3,K,A*0B
$GPGGA,181938.000,3748.8008,N,12217.8613,W,2,08,1.5,-2.3,M,-25.1,M,,0000*4F
$GPGSA,A,3,20,23,03,13,07,08,10,19,,,,,2.6,1.5,2.1*35
$GPGSV,3,1,12,13,75,065,33,07,57,297,27,23,48,115,31,10,43,282,33*73
$GPGSV,3,2,12,08,34,271,32,03,26,082,30,16,26,043,32,06,19,067,27*70
$GPGSV,3,3,12,19,18,114,25,20,10,174,31,28,07,210,31,05,07,323,*77
$GPRMC,181938.000,A,3748.8008,N,12217.8613,W,0.15,355.94,120711,,,D*7E
$GPVTG,355.94,T,,M,0.15,N,0.3,K,D*01
$GPGGA,181939.000,3748.8009,N,12217.8613,W,2,08,1.5,-3.1,M,-25.1,M,,0000*4C
$GPGSA,A,3,20,23,03,13,07,08,10,19,,,,,2.6,1.5,2.1*35
$GPRMC,181939.000,A,3748.8009,N,12217.8613,W,0.13,19.93,120711,,,D*44
$GPVTG,19.93,T,,M,0.13,N,0.2,K,D*3A
$GPGGA,181940.000,3748.8011,N,12217.8613,W,2,08,1.5,-3.9,M,-25.1,M,,0000*43
$GPGSA,A,3,20,23,03,13,07,08,10,19,,,,,2.6,1.5,2.1*35
$GPRMC,181940.000,A,3748.8011,N,12217.8613,W,0.21,15.31,120711,,,D*46
$GPVTG,15.31,T,,M,0.21,N,0.4,K,D*39
$GPGGA,181941.000,3748.8010,N,12217.8612,W,2,08,1.5,-4.7,M,-25.1,M,,0000*4B
$GPGSA,A,3,20,23,03,13,07,08,10,19,,,,,2.6,1.5,2.1*35
$GPRMC,181941.000,A,3748.8010,N,12217.8612,W,0.16,30.44,120711,,,D*46
$GPVTG,30.44,T,,M,0.16,N,0.3,K,D*3F
$GPGGA,181942.000,3748.8009,N,12217.8615,W,2,08,1.5,-4.2,M,-25.1,M,2.8,0000*66
$GPGSA,A,3,20,23,03,13,07,08,10,19,,,,,2.6,1.5,2.1*35
$GPRMC,181942.000,A,3748.8009,N,12217.8615,W,0.10,312.68,120711,,,D*71
$GPVTG,312.68,T,,M,0.10,N,0.2,K,D*05
$GPGGA,181943.000,3748.8009,N,12217.8616,W,2,08,1.5,-4.1,M,-25.1,M,3.8,0000*66
$GPGSA,A,3,20,23,03,13,07,08,10,19,,,,,2.6,1.5,2.1*35
$GPGSV,3,1,12,13,75,066,33,07,57,297,28,23,48,115,32,10,43,281,34*78
$GPGSV,3,2,12,08,34,271,39,03,26,082,29,16,26,043,29,06,19,067,27*79
$GPGSV,3,3,12,19,18,114,34,20,10,174,32,28,08,210,32,05,08,323,*77
$GPRMC,181943.000,A,3748.8009,N,12217.8616,W,0.10,6.99,120711,,,D*7B
$GPGGA,181944.000,3748.8008,N,12217.8617,W,2,08,1.5,-4.5,M,-25.1,M,,0000*40
$GPGSA,A,3,20,23,03,13,07,08,10,19,,,,,2.6,1.5,2.1*35
$GPWPL,3748.8008,N,12217.8617,W,00001*6F
$ADPMB,5,0
$GPRMC,181944.000,A,3748.8008,N,12217.8617,W,0.25,37.31,120711,,,D*4A
$GPVTG,37.31,T,,M,0.25,N,0.5,K,D*3C
$GPGGA,181945.000,3748.8011,N,12217.8615,W,2,08,1.5,-5.3,M,-25.1,M,,0000*4C
$GPGSA,A,3,20,23,03,13,07,08,10,19,,,,,2.6,1.5,2.1*35
$GPRMC,181945.000,A,3748.8011,N,12217.8615,W,0.20,29.35,120711,,,D*4F
$GPVTG,29.35,T,,M,0.20,N,0.4,K,D*33
$GPGGA,181946.000,3748.8013,N,12217.8614,W,2,08,1.5,-5.6,M,-25.1,M,,0000*49
$GPGSA,A,3,20,23,03,13,07,08,10,19,,,,,2.6,1.5,2.1*35
$GPRMC,181946.000,A,3748.8013,N,12217.8614,W,0.16,28.37,120711,,,D*49
$GPVTG,28.37,T,,M,0.16,N,0.3,K,D*32
$GPGGA,181947.000,3748.8012,N,12217.8614,W,2,07,2.3,-5.4,M,-25.1,M,,0000*41
$GPGSA,A,3,20,23,13,07,08,10,19,,,,,,3.6,2.3,2.8*3B
$GPRMC,181947.000,A,3748.8012,N,12217.8614,W,0.13,3.54,120711,,,D*70
$GPVTG,3.54,T,,M,0.13,N,0.2,K,D*0A
$GPGGA,181948.000,3748.8011,N,12217.8615,W,2,08,1.5,-5.0,M,-25.1,M,2.8,0000*66
$GPGSA,A,3,20,23,03,13,07,08,10,19,,,,,2.6,1.5,2.1*35
$GPGSV,3,1,12,13,75,066,27,07,57,297,30,23,48,115,32,10,43,281,35*75
$GPGSV,3,2,12,08,34,271,37,03,26,082,23,16,26,043,34,06,19,067,28*7E
$GPGSV,3,3,12,19,18,114,31,20,10,174,31,28,08,210,32,05,08,323,*71
$GPRMC,181948.000,A,3748.8011,N,12217.8615,W,0.16,298.45,120711,,,D*78
$GPVTG,298.45,T,,M,0.16,N,0.3,K,D*0E
$GPGGA,181949.000,3748.8011,N,12217.8615,W,2,08,1.5,-4.8,M,-25.1,M,3.8,0000*6F
$GPGSA,A,3,20,23,03,13,07,08,10,19,,,,,2.6,1.5,2.1*35
$GPRMC,181949.000,A,3748.8011,N,12217.8615,W,0.77,71.73,120711,,,D*4E
$GPVTG,71.73,T,,M,0.77,N,1.4,K,D*3F
$GPGGA,181950.000,3748.8011,N,12217.8611,W,2,08,1.5,-4.5,M,-25.1,M,,0000*4B
$GPGSA,A,3,20,23,03,13,07,08,10,19,,,,,2.6,1.5,2.1*35
$GPRMC,181950.000,A,3748.8011,N,12217.8611,W,0.68,95.31,120711,,,D*40
$GPVTG,95.31,T,,M,0.68,N,1.3,K,D*3A
$GPGGA,181951.000,3748.8009,N,12217.8610,W,2,08,1.5,-3.9,M,-25.1,M,,0000*49
$GPGSA,A,3,20,23,03,13,07,08,10,19,,,,,2.6,1.5,2.1*35
$GPRMC,181951.000,A,3748.8009,N,12217.8610,W,0.09,13.57,120711,,,D*40
$GPVTG,13.57,T,,M,0.09,N,0.2,K,D*33
$GPGGA,181952.000,3748.8008,N,12217.8609,W,2,08,1.5,-3.1,M,-25.1,M,,0000*4B
$GPGSA,A,3,20,23,03,13,07,08,10,19,,,,,2.6,1.5,2.1*35
$GPRMC,181952.000,A,3748.8008,N,12217.8609,W,0.07,0.61,120711,,,D*73
$GPVTG,0.61,T,,M,0.07,N,0.1,K,D*09
$GPGGA,181953.000,3748.8004,N,12217.8610,W,2,08,1.5,-1.8,M,-25.1,M,2.8,0000*61
$GPGSA,A,3,20,23,03,13,07,08,10,19,,,,,2.6,1.5,2.1*35
$GPGSV,3,1,12,13,75,066,31,07,57,297,23,23,48,115,32,10,43,281,28*7C
$GPGSV,3,2,12,08,34,271,25,03,26,082,28,16,26,043,28,06,19,067,31*73
$GPGSV,3,3,12,19,18,114,26,20,10,174,27,28,08,210,19,05,08,323,*79
$GPRMC,181953.000,A,3748.8004,N,12217.8610,W,0.28,158.45,120711,,,D*71
$GPVTG,158.45,T,,M,0.28,N,0.5,K,D*0A
$GPGGA,181954.000,3748.7998,N,12217.8612,W,2,08,1.5,-0.6,M,-25.1,M,,0000*4C
$GPGSA,A,3,20,23,03,13,07,08,10,19,,,,,2.6,1.5,2.1*35
$GPRMC,181954.000,A,3748.7998,N,12217.8612,W,0.89,183.69,120711,,,D*74
$GPVTG,183.69,T,,M,0.89,N,1.6,K,D*0B
$GPGGA,181955.000,3748.7998,N,12217.8611,W,2,08,1.5,0.3,M,-25.1,M,2.8,0000*42
$GPGSA,A,3,20,23,03,13,07,08,10,19,,,,,2.6,1.5,2.1*35
$GPRMC,181955.000,A,3748.7998,N,12217.8611,W,0.15,210.81,120711,,,D*7C
$GPVTG,210.81,T,,M,0.15,N,0.3,K,D*05
$GPGGA,181956.000,3748.7994,N,12217.8611,W,2,07,1.6,2.0,M,-25.1,M,3.8,0000*41
$GPGSA,A,3,20,23,03,13,07,10,19,,,,,,2.7,1.6,2.2*3C
$GPRMC,181956.000,A,3748.7994,N,12217.8611,W,0.64,47.40,120711,,,D*48
$GPVTG,47.40,T,,M,0.64,N,1.2,K,D*3E
$GPGGA,181957.000,3748.7991,N,12217.8610,W,2,07,1.6,2.5,M,-25.1,M,4.8,0000*46
$GPGSA,A,3,20,23,03,07,08,10,19,,,,,,3.1,1.6,2.7*34
$GPRMC,181957.000,A,3748.7991,N,12217.8610,W,0.73,77.57,120711,,,D*4E
$GPVTG,77.57,T,,M,0.73,N,1.3,K,D*3C
$GPGGA,181958.000,3748.7989,N,12217.8612,W,2,07,1.6,3.5,M,-25.1,M,5.8,0000*42
$GPGSA,A,3,20,23,03,07,08,10,19,,,,,,3.1,1.6,2.7*34
$GPGSV,3,1,12,13,75,066,,07,57,297,13,23,48,115,24,10,43,281,19*78
$GPGSV,3,2,12,08,34,271,14,03,26,082,20,16,26,043,17,06,19,067,*77
$GPGSV,3,3,12,19,18,114,24,20,10,174,22,28,08,210,,05,08,323,*76
$GPRMC,181958.000,A,3748.7989,N,12217.8612,W,0.67,194.53,120711,,,D*77
$GPVTG,194.53,T,,M,0.67,N,1.2,K,D*00
$GPGGA,181959.000,3748.7980,N,12217.8608,W,2,06,1.6,6.1,M,-25.1,M,6.8,0000*42
$GPGSA,A,3,20,23,03,08,10,19,,,,,,,3.3,1.6,2.9*3F
$GPRMC,181959.000,A,3748.7980,N,12217.8608,W,1.27,134.96,120711,,,D*72
$GPVTG,134.96,T,,M,1.27,N,2.4,K,D*03
$GPGGA,182000.000,3748.7980,N,12217.8606,W,2,06,1.6,5.6,M,-25.1,M,7.8,0000*4F
$GPGSA,A,3,20,23,03,08,10,19,,,,,,,3.3,1.6,2.9*3F
$GPRMC,182000.000,A,3748.7980,N,12217.8606,W,0.84,142.63,120711,,,D*79
$GPVTG,142.63,T,,M,0.84,N,1.5,K,D*02
$GPGGA,182001.000,3748.7977,N,12217.8607,W,2,06,1.6,5.9,M,-25.1,M,8.8,0000*47
$GPGSA,A,3,20,23,03,08,10,19,,,,,,,3.3,1.6,2.9*3F
$GPRMC,182001.000,A,3748.7977,N,12217.8607,W,0.62,147.80,120711,,,D*71
$GPVTG,147.80,T,,M,0.62,N,1.2,K,D*05
$GPGGA,182002.000,3748.7985,N,12217.8610,W,2,06,1.6,4.2,M,-25.1,M,9.8,0000*44
$GPGSA,A,3,20,23,03,08,10,19,,,,,,,3.3,1.6,2.9*3F
$GPRMC,182002.000,A,3748.7985,N,12217.8610,W,0.45,72.50,120711,,,D*46
$GPVTG,72.50,T,,M,0.45,N,0.8,K,D*31
$GPGGA,182003.000,3748.7987,N,12217.8612,W,2,08,1.5,2.9,M,-25.1,M,10.8,0000*7D
$GPGSA,A,3,20,23,07,03,13,08,10,19,,,,,2.6,1.5,2.1*35
$GPGSV,3,1,12,13,75,066,35,07,57,297,33,23,48,115,33,10,43,281,37*76
$GPGSV,3,2,12,08,34,271,40,03,26,082,32,16,26,043,26,06,19,067,29*7C
$GPGSV,3,3,12,19,18,114,25,20,10,174,28,28,08,210,,05,08,323,*7D
$GPVTG,218.45,T,,M,0.88,N,1.6,K,D*05
$GPGGA,182004.000,3748.7990,N,12217.8614,W,2,08,1.5,2.1,M,-25.1,M,11.8,0000*73
$GPGSA,A,3,20,23,07,03,13,08,10,19,,,,,2.6,1.5,2.1*35
$GPRMC,182004.000,A,3748.7990,N,12217.8614,W,0.61,58.22,120711,,,D*4B
$GPVTG,58.22,T,,M,0.61,N,1.1,K,D*32
$GPGGA,182005.000,3748.7992,N,12217.8613,W,2,08,1.5,2.2,M,-25.1,M,12.8,0000*77
$GPGSA,A,3,20,23,07,03,13,08,10,19,,,,,2.6,1.5,2.1*35
$GPRMC,182005.000,A,3748.7992,N,12217.8613,W,0.14,43.99,120711,,,D*47
$GPVTG,43.99,T,,M,0.14,N,0.3,K,D*39
$GPGGA,182006.000,3748.7992,N,12217.8612,W,2,08,1.5,2.3,M,-25.1,M,13.8,0000*75
$GPGSA,A,3,20,23,07,03,13,08,10,19,,,,,2.6,1.5,2.1*35
$GPRMC,182006.000,A,3748.7992,N,12217.8612,W,0.27,217.39,120711,,,D*7C
$GPVTG,217.39,T,,M,0.27,N,0.5,K,D*06
$GPGGA,182007.000,3748.7992,N,12217.8611,W,2,08,1.5,2.6,M,-25.1,M,14.8,0000*75
$GPGSA,A,3,20,23,07,03,13,08,10,19,,,,,2.6,1.5,2.1*35
$GPRMC,182007.000,A,3748.7992,N,12217.8611,W,0.09,155.22,120711,,,D*7D
$GPVTG,155.22,T,,M,0.09,N,0.2,K,D*02
$GPGGA,182008.000,3748.7992,N,12217.8611,W,2,08,1.5,2.7,M,-25.1,M,15.8,0000*7A
$GPGSA,A,3,20,23,07,03,13,08,10,19,,,,,2.6,1.5,2.1*35
$GPGSV,3,1,12,13,75,066,35,07,57,297,34,23,48,115,42,10,43,281,34*74
$GPGSV,3,2,12,08,34,271,36,03,26,082,36,16,26,043,33,06,19,067,26*72
$GPGSV,3,3,12,19,18,114,41,20,10,174,39,28,08,210,26,05,08,323,*7B
$GPRMC,182008.000,A,3748.7992,N,12217.8611,W,0.04,192.89,120711,,,D*75
$GPVTG,192.89,T,,M,0.04,N,0.1,K,D*06
$GPGGA,182009.000,3748.7992,N,12217.8611,W,2,08,1.5,2.8,M,-25.1,M,16.8,0000*77
$GPGSA,A,3,20,23,07,03,13,08,10,19,,,,,2.6,1.5,2.1*35
$GPRMC,182009.000,A,3748.7992,N,12217.8611,W,0.07,165.19,120711,,,D*76
$GPVTG,165.19,T,,M,0.07,N,0.1,K,D*04
$GPGGA,182010.000,3748.7993,N,12217.8611,W,2,08,1.5,3.0,M,-25.1,M,17.8,0000*76
$GPGSA,A,3,20,23,07,03,13,08,10,19,,,,,2.6,1.5,2.1*35
$GPRMC,182010.000,A,3748.7993,N,12217.8611,W,0.07,217.27,120711,,,D*74
$GPVTG,217.27,T,,M,0.07,N,0.1,K,D*0F
$GPGGA,182011.000,3748.7994,N,12217.8612,W,1,08,1.5,3.1,M,-25.1,M,,0000*61
$GPGSA,A,3,20,23,07,03,13,08,10,19,,,,,2.6,1.5,2.1*35
$GPRMC,182011.000,A,3748.7994,N,12217.8612,W,0.13,177.45,120711,,,A*70
$GPVTG,177.45,T,,M,0.13,N,0.2,K,A*0D
$GPGGA,182012.000,3748.7994,N,12217.8612,W,1,08,1.5,3.2,M,-25.1,M,,0000*61
$GPGSA,A,3,20,23,07,03,13,08,10,19,,,,,2.6,1.5,2.1*35
$GPRMC,182012.000,A,3748.7994,N,12217.8612,W,0.08,200.94,120711,,,A*76
$GPVTG,200.94,T,,M,0.08,N,0.2,K,A*08
$GPGGA,182013.000,3748.7996,N,12217.8613,W,1,08,1.5,3.1,M,-25.1,M,,0000*60
$GPGSA,A,3,20,23,07,03,13,08,10,19,,,,,2.6,1.5,2.1*35
$GPGSV,3,1,12,13,75,066,34,07,57,297,29,23,48,115,34,10,43,281,31*7D
$GPGSV,3,2,12,08,34,271,36,03,26,082,23,16,26,043,25,06,19,067,23*74
$GPGSV,3,3,12,19,18,114,32,20,10,174,28,28,08,210,23,05,08,323,*7A
$GPRMC,182013.000,A,3748.7996,N,12217.8613,W,0.15,234.30,120711,,,A*71
$GPVTG,234.30,T,,M,0.15,N,0.3,K,A*0C
$GPGGA,182014.000,3748.7995,N,12217.8613,W,2,08,1.5,2.9,M,-25.1,M,,0000*6E
$GPGSA,A,3,20,23,07,03,13,08,10,19,,,,,2.6,1.5,2.1*35
$GPRMC,182014.000,A,3748.7995,N,12217.8613,W,0.04,42.80,120711,,,D*48
$GPVTG,42.80,T,,M,0.04,N,0.1,K,D*33
$GPGGA,182015.000,3748.7995,N,12217.8609,W,2,07,1.5,3.2,M,-25.1,M,3.8,0000*44
$GPGSA,A,3,20,23,03,13,08,10,19,,,,,,2.6,1.5,2.1*32
$GPRMC,182015.000,A,3748.7995,N,12217.8609,W,0.70,45.80,120711,,,D*46
$GPVTG,45.80,T,,M,0.70,N,1.3,K,D*34
$GPGGA,182016.000,3748.7995,N,12217.8607,W,2,07,1.5,3.6,M,-25.1,M,4.8,0000*4A
$GPGSA,A,3,20,23,03,13,08,10,19,,,,,,2.6,1.5,2.1*32
$GPRMC,182016.000,A,3748.7995,N,12217.8607,W,0.30,114.69,120711,,,D*7D
$GPVTG,114.69,T,,M,0.30,N,0.6,K,D*06
$GPGGA,182017.000,3748.7999,N,12217.8609,W,2,07,1.5,2.8,M,-25.1,M,5.8,0000*47
$GPGSA,A,3,20,23,03,13,08,10,19,,,,,,2.6,1.5,2.1*32
$GPRMC,182017.000,A,3748.7999,N,12217.8609,W,0.25,335.50,120711,,,D*71
$GPVTG,335.50,T,,M,0.25,N,0.5,K,D*0A
$GPGGA,182018.000,3748.8000,N,12217.8609,W,2,05,3.3,1.6,M,-25.1,M,6.8,0000*46
$GPGSA,A,3,20,23,03,13,19,,,,,,,,4.5,3.3,3.1*3B
$GPGSV,3,1,12,13,75,066,18,07,57,297,11,23,48,115,18,10,43,281,15*70
$GPGSV,3,2,12,08,34,271,10,03,26,082,24,16,26,043,25,06,19,067,12*75
$GPGSV,3,3,12,19,18,114,29,20,10,174,28,28,08,210,,05,08,323,*71
$GPRMC,182018.000,A,3748.8000,N,12217.8609,W,0.48,226.21,120711,,,D*76
$GPVTG,226.21,T,,M,0.48,N,0.9,K,D*08
$GPGGA,182019.000,3748.8002,N,12217.8607,W,2,03,4.6,1.1,M,-25.1,M,7.8,0000*49
$GPGSA,A,2,20,03,19,,,,,,,,,,4.7,4.6,1.0*3A
$GPRMC,182019.000,A,3748.8002,N,12217.8607,W,0.47,152.53,120711,,,D*71
$GPVTG,152.53,T,,M,0.47,N,0.9,K,D*02
$GPGGA,182020.000,3748.8005,N,12217.8613,W,2,05,1.9,0.8,M,-25.1,M,8.8,0000*4A
$GPGSA,A,3,20,03,13,10,19,,,,,,,,3.4,1.9,2.8*3D
$GPRMC,182020.000,A,3748.8005,N,12217.8613,W,0.37,297.84,120711,,,D*7E
$GPVTG,297.84,T,,M,0.37,N,0.7,K,D*0B
$GPGGA,182021.000,3748.8010,N,12217.8618,W,2,05,1.9,0.9,M,-25.1,M,9.8,0000*44
$GPGSA,A,3,20,03,13,10,19,,,,,,,,3.4,1.9,2.8*3D
$GPRMC,182021.000,A,3748.8010,N,12217.8618,W,1.03,317.35,120711,,,D*75
$GPVTG,317.35,T,,M,1.03,N,1.9,K,D*01
$GPGGA,182022.000,3748.8011,N,12217.8622,W,2,06,1.6,0.1,M,-25.1,M,10.8,0000*73
$GPGSA,A,3,20,23,03,13,10,19,,,,,,,2.8,1.6,2.2*34
$GPRMC,182022.000,A,3748.8011,N,12217.8622,W,1.33,328.84,120711,,,D*7B
$GPVTG,328.84,T,,M,1.33,N,2.5,K,D*0B
$GPGGA,182023.000,3748.8013,N,12217.8620,W,2,08,1.5,-0.8,M,-25.1,M,11.8,0000*5A
$GPGSA,A,3,20,23,07,03,13,08,10,19,,,,,2.6,1.5,2.1*35
$GPGSV,3,1,12,13,75,066,21,07,57,297,22,23,48,115,27,10,43,281,17*74
$GPGSV,3,2,12,08,34,271,19,03,26,082,29,16,26,043,26,06,19,067,24*77
$GPGSV,3,3,12,19,18,114,29,20,10,174,31,28,08,210,,05,08,323,*79
$GPRMC,182023.000,A,3748.8013,N,12217.8620,W,0.31,340.49,120711,,,D*76
$GPGGA,182024.000,3748.8012,N,12217.8617,W,2,08,1.5,-0.4,M,-25.1,M,12.8,0000*57
$GPGSA,A,3,20,23,07,03,13,08,10,19,,,,,2.6,1.5,2.1*35
$GPRMC,182024.000,A,3748.8012,N,12217.8617,W,0.36,336.67,120711,,,D*7E
$GPVTG,336.67,T,,M,0.36,N,0.7,K,D*0D
$GPGGA,182025.000,3748.8018,N,12217.8613,W,2,06,1.6,-1.7,M,-25.1,M,13.8,0000*56
$GPGSA,A,3,20,23,07,03,13,10,,,,,,,2.8,1.6,2.3*3A
$GPRMC,182025.000,A,3748.8018,N,12217.8613,W,0.66,24.68,120711,,,D*4B
$GPVTG,24.68,T,,M,0.66,N,1.2,K,D*33
$GPGGA,182026.000,3748.8020,N,12217.8608,W,2,08,1.5,-0.6,M,-25.1,M,14.8,0000*5E
$GPGSA,A,3,20,23,07,03,13,08,10,19,,,,,2.6,1.5,2.1*35
$GPRMC,182026.000,A,3748.8020,N,12217.8608,W,0.92,17.16,120711,,,D*4B
$GPVTG,17.16,T,,M,0.92,N,1.7,K,D*34
$GPGGA,182027.000,3748.8021,N,12217.8604,W,2,07,1.6,-1.1,M,-25.1,M,15.8,0000*59
$GPGSA,A,3,20,23,07,03,13,10,19,,,,,,2.7,1.6,2.2*3C
$GPRMC,182027.000,A,3748.8021,N,12217.8604,W,0.52,11.12,120711,,,D*49
$GPVTG,11.12,T,,M,0.52,N,1.0,K,D*3D
$GPGGA,182028.000,3748.8022,N,12217.8606,W,2,07,1.6,-1.6,M,-25.1,M,16.8,0000*53
$GPGSA,A,3,20,23,07,03,13,10,19,,,,,,2.7,1.6,2.2*3C
$GPGSV,3,1,12,13,75,066,27,07,57,297,20,23,48,115,36,10,43,281,25*71
$GPGSV,3,2,12,08,34,271,26,03,26,082,40,16,26,043,25,06,19,067,30*72
$GPGSV,3,3,12,19,18,114,39,20,10,174,39,28,08,210,17,05,08,323,*76
$GPRMC,182028.000,A,3748.8022,N,12217.8606,W,0.30,278.37,120711,,,D*79
$GPVTG,278.37,T,,M,0.30,N,0.6,K,D*04
$GPGGA,182029.000,3748.8020,N,12217.8606,W,2,08,1.5,-1.3,M,-25.1,M,17.8,0000*58
$GPGSA,A,3,20,23,07,03,13,08,10,19,,,,,2.6,1.5,2.1*35
$GPRMC,182029.000,A,3748.8020,N,12217.8606,W,0.14,320.48,120711,,,D*78
$GPVTG,320.48,T,,M,0.14,N,0.3,K,D*03
$GPGGA,182030.000,3748.8017,N,12217.8604,W,1,08,1.5,-0.3,M,-25.1,M,,0000*44
$GPGSA,A,3,20,23,07,03,13,08,10,19,,,,,2.6,1.5,2.1*35
$GPRMC,182030.000,A,3748.8017,N,12217.8604,W,0.24,351.03,120711,,,A*79
$GPVTG,351.03,T,,M,0.24,N,0.5,K,A*0A
$GPGGA,182031.000,3748.8016,N,12217.8603,W,1,07,2.3,-0.3,M,-25.1,M,,0000*49
$GPGSA,A,3,20,23,07,13,08,10,19,,,,,,3.7,2.3,2.9*3B
$GPRMC,182031.000,A,3748.8016,N,12217.8603,W,0.15,220.07,120711,,,A*7F
$GPVTG,220.07,T,,M,0.15,N,0.3,K,A*0D
$GPGGA,182032.000,3748.8016,N,12217.8604,W,2,08,1.5,-0.4,M,-25.1,M,,0000*43
$GPGSA,A,3,20,23,07,03,13,08,10,19,,,,,2.6,1.5,2.1*35
$GPRMC,182032.000,A,3748.8016,N,12217.8604,W,0.25,191.75,120711,,,D*71
$GPVTG,191.75,T,,M,0.25,N,0.5,K,D*01
$GPGGA,182033.000,3748.8015,N,12217.8603,W,2,08,1.5,-0.2,M,-25.1,M,,0000*40
$GPGSA,A,3,20,23,07,03,13,08,10,19,,,,,2.6,1.5,2.1*35
$GPGSV,3,1,12,13,75,066,35,07,57,297,35,23,48,115,39,10,43,281,37*7A
$GPGSV,3,2,12,08,34,271,39,03,26,082,30,16,26,043,28,06,19,067,31*77
$GPGSV,3,3,12,19,18,114,32,20,10,174,39,28,08,210,20,05,08,323,*79
$GPRMC,182033.000,A,3748.8015,N,12217.8603,W,0.09,124.87,120711,,,D*79
$GPVTG,124.87,T,,M,0.09,N,0.2,K,D*0B
$GPGGA,182034.000,3748.8014,N,12217.8603,W,2,08,1.5,-0.2,M,-25.1,M,,0000*46
$GPGSA,A,3,20,23,07,03,13,08,10,19,,,,,2.6,1.5,2.1*35
$GPRMC,182034.000,A,3748.8014,N,12217.8603,W,0.17,134.21,120711,,,D*7D
$GPVTG,134.21,T,,M,0.17,N,0.3,K,D*08
$GPGGA,182035.000,3748.8014,N,12217.8603,W,2,08,1.5,-0.4,M,-25.1,M,,0000*41
$GPGSA,A,3,20,23,07,03,13,08,10,19,,,,,2.6,1.5,2.1*35
$GPRMC,182035.000,A,3748.8014,N,12217.8603,W,0.23,186.79,120711,,,D*7F
$GPVTG,186.79,T,,M,0.23,N,0.4,K,D*0C
$GPGGA,182036.000,3748.8013,N,12217.8602,W,2,08,1.5,-0.4,M,-25.1,M,2.8,0000*60
$GPGSA,A,3,20,23,07,03,13,08,10,19,,,,,2.6,1.5,2.1*35
$GPRMC,182036.000,A,3748.8013,N,12217.8602,W,0.45,139.17,120711,,,D*76
$GPVTG,139.17,T,,M,0.45,N,0.8,K,D*0C
$GPGGA,182037.000,3748.8012,N,12217.8600,W,2,08,1.5,-0.2,M,-25.1,M,3.8,0000*65
$GPGSA,A,3,20,23,07,03,13,08,10,19,,,,,2.6,1.5,2.1*35
$GPRMC,182037.000,A,3748.8012,N,12217.8600,W,0.09,46.24,120711,,,D*45
$GPVTG,46.24,T,,M,0.09,N,0.2,K,D*37
$GPGGA,182038.000,3748.8012,N,12217.8598,W,2,08,1.5,0.1,M,-25.1,M,,0000*63
$GPGSA,A,3,20,23,07,03,13,08,10,19,,,,,2.6,1.5,2.1*35
$GPGSV,3,1,12,13,75,066,26,07,57,297,28,23,48,115,39,10,43,281,29*7B
$GPGSV,3,2,12,08,34,271,33,03,26,082,29,16,26,043,27,06,19,067,24*7E
$GPGSV,3,3,12,19,18,114,40,20,10,174,39,28,08,210,21,05,08,323,*7D
$GPRMC,182038.000,A,3748.8012,N,12217.8598,W,0.41,94.51,120711,,,D*49
$GPVTG,94.51,T,,M,0.41,N,0.8,K,D*3C
$GPGGA,182039.000,3748.8012,N,12217.8598,W,2,08,1.5,0.0,M,-25.1,M,,0000*63
$GPGSA,A,3,20,23,07,03,13,08,10,19,,,,,2.6,1.5,2.1*35
$GPRMC,182039.000,A,3748.8012,N,12217.8598,W,0.05,130.28,120711,,,D*79
$GPVTG,130.28,T,,M,0.05,N,0.1,K,D*04
$GPGGA,182040.000,3748.8014,N,12217.8599,W,2,08,1.5,-0.5,M,-25.1,M,2.8,0000*66
$GPGSA,A,3,20,23,07,03,13,08,10,19,,,,,2.6,1.5,2.1*35
$GPRMC,182040.000,A,3748.8014,N,12217.8599,W,0.09,106.29,120711,,,D*78
$GPVTG,106.29,T,,M,0.09,N,0.2,K,D*0F
$GPGGA,182041.000,3748.8014,N,12217.8600,W,2,08,1.5,-0.9,M,-25.1,M,3.8,0000*69
$GPGSA,A,3,20,23,07,03,13,08,10,19,,,,,2.6,1.5,2.1*35
$GPRMC,182041.000,A,3748.8014,N,12217.8600,W,0.01,152.54,120711,,,D*79
$GPVTG,152.54,T,,M,0.01,N,0.0,K,D*0E
$GPGGA,182042.000,3748.8014,N,12217.8601,W,2,08,1.5,-1.2,M,-25.1,M,4.8,0000*66
$GPGSA,A,3,20,23,07,03,13,08,10,19,,,,,2.6,1.5,2.1*35
$GPRMC,182042.000,A,3748.8014,N,12217.8601,W,0.04,280.70,120711,,,D*74
$GPVTG,280.70,T,,M,0.04,N,0.1,K,D*00
$GPGGA,182043.000,3748.8013,N,12217.8600,W,2,08,1.5,-1.1,M,-25.1,M,5.8,0000*63
$GPGSA,A,3,20,23,07,03,13,08,10,19,,,,,2.6,1.5,2.1*35
$GPGSV,3,1,12,13,75,066,34,07,57,297,28,23,48,115,38,10,43,281,35*74
$GPGSV,3,2,12,08,34,271,38,03,26,082,36,16,26,043,33,06,19,067,32*79
$GPGSV,3,3,12,19,18,114,35,20,10,174,41,28,08,210,30,05,08,323,*70
$GPRMC,182043.000,A,3748.8013,N,12217.8600,W,0.14,74.81,120711,,,D*45
$GPGGA,182044.000,3748.8012,N,12217.8599,W,2,08,1.5,-0.9,M,-25.1,M,,0000*4C
$GPGSA,A,3,20,23,07,03,13,08,10,19,,,,,2.6,1.5,2.1*35
$GPRMC,182044.000,A,3748.8012,N,12217.8599,W,0.06,138.48,120711,,,D*7F
$GPVTG,138.48,T,,M,0.06,N,0.1,K,D*09
$GPGGA,182045.000,3748.8011,N,12217.8599,W,2,08,1.5,-1.1,M,-25.1,M,,0000*47
$GPGSA,A,3,20,23,07,03,13,08,10,19,,,,,2.6,1.5,2.1*35
$GPRMC,182045.000,A,3748.8011,N,12217.8599,W,0.16,198.58,120711,,,D*77
$GPVTG,198.58,T,,M,0.16,N,0.3,K,D*01
$GPGGA,182046.000,3748.8009,N,12217.8599,W,2,08,1.5,-1.0,M,-25.1,M,,0000*4C
$GPGSA,A,3,20,23,07,03,13,08,10,19,,,,,2.6,1.5,2.1*35
$GPRMC,182046.000,A,3748.8009,N,12217.8599,W,0.23,224.60,120711,,,D*74
$GPVTG,224.60,T,,M,0.23,N,0.4,K,D*0F
$GPGGA,182047.000,3748.8008,N,12217.8599,W,2,08,1.5,-0.9,M,-25.1,M,2.8,0000*60
$GPGSA,A,3,20,23,07,03,13,08,10,19,,,,,2.6,1.5,2.1*35
$GPRMC,182047.000,A,3748.8008,N,12217.8599,W,0.10,186.51,120711,,,D*7D
$GPVTG,186.51,T,,M,0.10,N,0.2,K,D*00
$GPGGA,182048.000,3748.8007,N,12217.8598,W,2,08,1.5,-0.7,M,-25.1,M,3.8,0000*6E
$GPGSA,A,3,20,23,07,03,13,08,10,19,,,,,2.6,1.5,2.1*35
$GPGSV,3,1,12,13,75,068,34,07,57,298,30,23,48,116,38,10,43,281,36*7C
$GPGSV,3,2,12,08,35,272,38,03,26,081,25,16,25,043,27,06,19,066,32*7D
$GPGSV,3,3,12,19,18,114,30,20,09,174,40,28,08,210,31,05,08,323,*7D
$GPRMC,182048.000,A,3748.8007,N,12217.8598,W,0.10,136.14,120711,,,D*76
$GPVTG,136.14,T,,M,0.10,N,0.2,K,D*0A
$GPGGA,182049.000,3748.8006,N,12217.8598,W,2,08,1.5,-0.5,M,-25.1,M,4.8,0000*6B
$GPGSA,A,3,20,23,07,03,13,08,10,19,,,,,2.6,1.5,2.1*35
$GPRMC,182049.000,A,3748.8006,N,12217.8598,W,0.08,163.88,120711,,,D*7A
$GPVTG,163.88,T,,M,0.08,N,0.1,K,D*05
$GPGGA,182050.000,3748.8005,N,12217.8598,W,2,08,1.5,-0.4,M,-25.1,M,,0000*43
$GPGSA,A,3,20,23,07,03,13,08,10,19,,,,,2.6,1.5,2.1*35
$GPRMC,182050.000,A,3748.8005,N,12217.8598,W,0.17,198.78,120711,,,D*74
$GPVTG,198.78,T,,M,0.17,N,0.3,K,D*02
$GPGGA,182051.000,3748.8005,N,12217.8598,W,2,08,1.5,-0.3,M,-25.1,M,,0000*45
$GPGSA,A,3,20,23,07,03,13,08,10,19,,,,,2.6,1.5,2.1*35
$GPRMC,182051.000,A,3748.8005,N,12217.8598,W,0.01,256.64,120711,,,D*7E
$GPVTG,256.64,T,,M,0.01,N,0.0,K,D*0A
$GPGGA,182052.000,3748.8004,N,12217.8598,W,2,08,1.5,-0.2,M,-25.1,M,,0000*46
$GPGSA,A,3,20,23,07,03,13,08,10,19,,,,,2.6,1.5,2.1*35
$GPRMC,182052.000,A,3748.8004,N,12217.8598,W,0.06,154.98,120711,,,D*79
$GPVTG,154.98,T,,M,0.06,N,0.1,K,D*0E
$GPGGA,182053.000,3748.8005,N,12217.8597,W,2,08,1.5,-0.4,M,-25.1,M,1.8,0000*68
$GPGSA,A,3,20,23,07,03,13,08,10,19,,,,,2.6,1.5,2.1*35
$GPGSV,3,1,12,13,75,068,27,07,57,298,36,23,48,116,38,10,43,281,40*79
$GPGSV,3,2,12,08,35,272,40,03,26,081,27,16,25,043,27,06,19,066,28*7B
$GPGSV,3,3,12,19,18,114,30,20,09,174,40,28,08,210,32,05,08,323,*7E
$GPRMC,182053.000,A,3748.8005,N,12217.8597,W,0.05,110.36,120711,,,D*71
$GPVTG,110.36,T,,M,0.05,N,0.1,K,D*09
$GPGGA,182054.000,3748.8005,N,12217.8597,W,2,08,1.5,-0.7,M,-25.1,M,2.8,0000*6F
$GPGSA,A,3,20,23,07,03,13,08,10,19,,,,,2.6,1.5,2.1*35
$GPRMC,182054.000,A,3748.8005,N,12217.8597,W,0.05,94.62,120711,,,D*4A
$GPVTG,94.62,T,,M,0.05,N,0.1,K,D*35
$GPGGA,182055.000,3748.8005,N,12217.8597,W,2,08,1.5,-1.0,M,-25.1,M,3.8,0000*69
$GPGSA,A,3,20,23,07,03,13,08,10,19,,,,,2.6,1.5,2.1*35
$GPRMC,182055.000,A,3748.8005,N,12217.8597,W,0.05,41.76,120711,,,D*46
$GPVTG,41.76,T,,M,0.05,N,0.1,K,D*38
$GPGGA,182056.000,3748.8006,N,12217.8596,W,2,08,1.5,-1.2,M,-25.1,M,1.8,0000*68
$GPGSA,A,3,20,23,07,03,13,08,10,19,,,,,2.6,1.5,2.1*35
$GPRMC,182056.000,A,3748.8006,N,12217.8596,W,0.14,60.69,120711,,,D*4A
$GPVTG,60.69,T,,M,0.14,N,0.3,K,D*37
$GPGGA,182057.000,3748.8006,N,12217.8596,W,2,08,1.5,-1.5,M,-25.1,M,1.8,0000*6E
$GPGSA,A,3,20,23,07,03,13,08,10,19,,,,,2.6,1.5,2.1*35
$GPRMC,182057.000,A,3748.8006,N,12217.8596,W,0.07,102.72,120711,,,D*76
$GPVTG,102.72,T,,M,0.07,N,0.1,K,D*08
$GPGGA,182058.000,3748.8007,N,12217.8596,W,2,08,1.5,-1.8,M,-25.1,M,1.8,0000*6D
$GPGSA,A,3,20,23,07,03,13,08,10,19,,,,,2.6,1.5,2.1*35
$GPGSV,3,1,12,13,75,068,27,07,57,298,36,23,48,116,38,10,43,281,40*79
$GPGSV,3,2,12,08,35,272,41,03,26,081,27,16,25,043,28,06,19,066,29*74
$GPGSV,3,3,12,19,18,114,29,20,09,174,39,28,08,210,33,05,08,323,*79
$GPRMC,182058.000,A,3748.8007,N,12217.8596,W,0.16,64.23,120711,,,D*4D
$GPVTG,64.23,T,,M,0.16,N,0.3,K,D*3F
$GPGGA,182059.000,3748.8006,N,12217.8595,W,2,08,1.5,-1.6,M,-25.1,M,1.8,0000*60
$GPGSA,A,3,20,23,07,03,13,08,10,19,,,,,2.6,1.5,2.1*35
$GPRMC,182059.000,A,3748.8006,N,12217.8595,W,0.07,86.72,120711,,,D*46
$GPVTG,86.72,T,,M,0.07,N,0.1,K,D*35
$GPGGA,182100.000,3748.8006,N,12217.8595,W,2,08,1.5,-1.4,M,-25.1,M,2.8,0000*6C
$GPGSA,A,3,20,23,07,03,13,08,10,19,,,,,2.6,1.5,2.1*35
$GPRMC,182100.000,A,3748.8006,N,12217.8595,W,0.06,98.08,120711,,,D*48
$GPVTG,98.08,T,,M,0.06,N,0.1,K,D*36
$GPGGA,182101.000,3748.8005,N,12217.8595,W,2,08,1.5,-1.3,M,-25.1,M,1.8,0000*6A
$GPGSA,A,3,20,23,07,03,13,08,10,19,,,,,2.6,1.5,2.1*35
$GPRMC,182101.000,A,3748.8005,N,12217.8595,W,0.10,147.57,120711,,,D*74
$GPVTG,147.57,T,,M,0.10,N,0.2,K,D*0B
$GPGGA,182102.000,3748.8006,N,12217.8595,W,2,08,1.5,-1.6,M,-25.1,M,1.8,0000*6F
$GPGSA,A,3,20,23,07,03,13,08,10,19,,,,,2.6,1.5,2.1*35
$GPRMC,182102.000,A,3748.8006,N,12217.8595,W,0.14,189.48,120711,,,D*7C
$GPVTG,189.48,T,,M,0.14,N,0.3,K,D*02
$GPGGA,182103.000,3748.8007,N,12217.8595,W,2,08,1.5,-2.1,M,-25.1,M,1.8,0000*6B
$GPGSA,A,3,20,23,07,03,13,08,10,19,,,,,2.6,1.5,2.1*35
$GPGSV,3,1,12,13,75,068,26,07,57,298,37,23,48,116,38,10,43,281,39*77
$GPGSV,3,2,12,08,35,272,40,03,26,081,27,16,25,043,25,06,19,066,19*7B
$GPGSV,3,3,12,19,18,114,29,20,09,174,38,28,08,210,34,05,08,323,*7F
$GPVTG,84.68,T,,M,0.03,N,0.1,K,D*38
$GPGGA,182104.000,3748.8008,N,12217.8595,W,2,08,1.5,-2.7,M,-25.1,M,1.8,0000*65
$GPGSA,A,3,20,23,07,03,13,08,10,19,,,,,2.6,1.5,2.1*35
$GPRMC,182104.000,A,3748.8008,N,12217.8595,W,0.12,168.20,120711,,,D*73
$GPVTG,168.20,T,,M,0.12,N,0.2,K,D*04
$GPGGA,182105.000,3748.8009,N,12217.8595,W,2,08,1.5,-3.0,M,-25.1,M,2.8,0000*60
$GPGSA,A,3,20,23,07,03,13,08,10,19,,,,,2.6,1.5,2.1*35
$GPRMC,182105.000,A,3748.8009,N,12217.8595,W,0.04,18.14,120711,,,D*45
$GPVTG,18.14,T,,M,0.04,N,0.1,K,D*31
$GPGGA,182106.000,3748.8010,N,12217.8595,W,2,08,1.5,-3.3,M,-25.1,M,1.8,0000*6B
$GPGSA,A,3,20,23,07,03,13,08,10,19,,,,,2.6,1.5,2.1*35
$GPRMC,182106.000,A,3748.8010,N,12217.8595,W,0.13,22.26,120711,,,D*40
$GPVTG,22.26,T,,M,0.13,N,0.2,K,D*3C
$GPGGA,182107.000,3748.8011,N,12217.8595,W,2,08,1.5,-3.6,M,-25.1,M,1.8,0000*6E
$GPGSA,A,3,20,23,07,03,13,08,10,19,,,,,2.6,1.5,2.1*35
$GPRMC,182107.000,A,3748.8011,N,12217.8595,W,0.15,26.73,120711,,,D*42
$GPVTG,26.73,T,,M,0.15,N,0.3,K,D*3F
$GPGGA,182108.000,3748.8012,N,12217.8594,W,2,08,1.5,-3.7,M,-25.1,M,1.8,0000*62
$GPGSA,A,3,20,23,07,03,13,08,10,19,,,,,2.6,1.5,2.1*35
$GPGSV,3,1,12,13,75,068,31,07,57,298,31,23,48,116,37,10,43,281,21*71
$GPGSV,3,2,12,08,35,272,38,03,26,081,28,16,25,043,17,06,19,066,28*78
$GPGSV,3,3,12,19,18,114,33,20,09,174,38,28,08,210,34,05,08,323,*74
$GPRMC,182108.000,A,3748.8012,N,12217.8594,W,0.13,54.08,120711,,,D*40
$GPVTG,54.08,T,,M,0.13,N,0.2,K,D*31
$GPGGA,182109.000,3748.8012,N,12217.8594,W,2,08,1.5,-3.6,M,-25.1,M,1.8,0000*62
$GPGSA,A,3,20,23,07,03,13,08,10,19,,,,,2.6,1.5,2.1*35
$GPRMC,182109.000,A,3748.8012,N,12217.8594,W,0.09,343.53,120711,,,D*71
$GPVTG,343.53,T,,M,0.09,N,0.2,K,D*01
$GPGGA,182110.000,3748.8012,N,12217.8594,W,2,08,1.5,-3.6,M,-25.1,M,1.8,0000*6A
$GPGSA,A,3,20,23,07,03,13,08,10,19,,,,,2.6,1.5,2.1*35
$GPRMC,182110.000,A,3748.8012,N,12217.8594,W,0.02,105.06,120711,,,D*72
$GPVTG,105.06,T,,M,0.02,N,0.0,K,D*08
$GPGGA,182111.000,3748.8012,N,12217.8593,W,2,08,1.5,-3.6,M,-25.1,M,2.8,0000*6F
$GPGSA,A,3,20,23,07,03,13,08,10,19,,,,,2.6,1.5,2.1*35
$GPRMC,182111.000,A,3748.8012,N,12217.8593,W,0.20,89.74,120711,,,D*44
$GPVTG,89.74,T,,M,0.20,N,0.4,K,D*3C
$GPGGA,182112.000,3748.8012,N,12217.8593,W,2,08,1.5,-3.8,M,-25.1,M,1.8,0000*61
$GPGSA,A,3,20,23,07,03,13,08,10,19,,,,,2.6,1.5,2.1*35
$GPRMC,182112.000,A,3748.8012,N,12217.8593,W,0.08,352.91,120711,,,D*73
$GPVTG,352.91,T,,M,0.08,N,0.1,K,D*0D
$GPGGA,182113.000,3748.8012,N,12217.8593,W,2,08,1.5,-3.8,M,-25.1,M,2.8,0000*63
$GPGSA,A,3,20,23,07,03,13,08,10,19,,,,,2.6,1.5,2.1*35
$GPGSV,3,1,12,13,75,068,31,07,57,298,31,23,48,116,34,10,43,281,33*71
$GPGSV,3,2,12,08,35,272,33,03,26,081,26,16,25,043,20,06,19,066,22*73
$GPGSV,3,3,12,19,18,114,28,20,09,174,32,28,08,210,29,05,08,323,*78
$GPRMC,182113.000,A,3748.8012,N,12217.8593,W,0.25,313.87,120711,,,D*7F
$GPVTG,313.87,T,,M,0.25,N,0.5,K,D*04
$GPGGA,182114.000,3748.8013,N,12217.8595,W,2,08,1.5,-4.1,M,-25.1,M,3.8,0000*6C
$GPGSA,A,3,20,23,07,03,13,08,10,19,,,,,2.6,1.5,2.1*35
$GPRMC,182114.000,A,3748.8013,N,12217.8595,W,0.47,257.61,120711,,,D*72
$GPVTG,257.61,T,,M,0.47,N,0.9,K,D*05
$GPGGA,182115.000,3748.8011,N,12217.8596,W,2,08,1.5,-4.0,M,-25.1,M,4.8,0000*6A
$GPGSA,A,3,20,23,07,03,13,08,10,19,,,,,2.6,1.5,2.1*35
$GPRMC,182115.000,A,3748.8011,N,12217.8596,W,0.28,172.94,120711,,,D*75
$GPVTG,172.94,T,,M,0.28,N,0.5,K,D*0E
$GPGGA,182116.000,3748.8013,N,12217.8597,W,2,08,1.5,-5.0,M,-25.1,M,5.8,0000*6A
$GPGSA,A,3,20,23,07,03,13,08,10,19,,,,,2.6,1.5,2.1*35
$GPRMC,182116.000,A,3748.8013,N,12217.8597,W,0.20,142.59,120711,,,D*7F
$GPVTG,142.59,T,,M,0.20,N,0.4,K,D*05
$GPGGA,182117.000,3748.8014,N,12217.8595,W,2,08,1.5,-5.7,M,-25.1,M,6.8,0000*6A
$GPGSA,A,3,20,23,07,03,13,08,10,19,,,,,2.6,1.5,2.1*35
$GPRMC,182117.000,A,3748.8014,N,12217.8595,W,0.23,8.34,120711,,,D*7C
$GPVTG,8.34,T,,M,0.23,N,0.4,K,D*02
$GPGGA,182118.000,3748.8015,N,12217.8594,W,2,08,1.5,-6.3,M,-25.1,M,7.8,0000*63
$GPGSA,A,3,20,23,07,03,13,08,10,19,,,,,2.6,1.5,2.1*35
$GPGSV,3,1,12,13,75,068,23,07,57,298,31,23,48,116,31,10,43,281,34*70
$GPGSV,3,2,12,08,35,272,37,03,26,081,29,16,25,043,25,06,19,066,32*7C
$GPGSV,3,3,12,19,18,114,30,20,09,174,41,28,08,210,34,05,08,323,*79
$GPRMC,182118.000,A,3748.8015,N,12217.8594,W,0.08,76.44,120711,,,D*44
$GPVTG,76.44,T,,M,0.08,N,0.1,K,D*30
$GPGGA,182119.000,3748.8017,N,12217.8596,W,2,08,1.5,-7.4,M,-25.1,M,8.8,0000*6B
$GPGSA,A,3,20,23,07,03,13,08,10,19,,,,,2.6,1.5,2.1*35
$GPRMC,182119.000,A,3748.8017,N,12217.8596,W,0.12,11.53,120711,,,D*49
$GPVTG,11.53,T,,M,0.12,N,0.2,K,D*3F
$GPGGA,182120.000,3748.8003,N,12217.8605,W,2,08,1.5,-4.4,M,-25.1,M,1.8,0000*67
$GPGSA,A,3,20,23,07,03,13,08,10,19,,,,,2.6,1.5,2.1*35
$GPRMC,182120.000,A,3748.8003,N,12217.8605,W,0.15,201.75,120711,,,D*7F
$GPVTG,201.75,T,,M,0.15,N,0.3,K,D*0E
$GPGGA,182121.000,3748.8003,N,12217.8607,W,2,09,1.4,-5.2,M,-25.1,M,2.8,0000*60
$GPGSA,A,3,20,23,07,03,13,08,10,28,19,,,,2.5,1.4,2.0*3C
$GPRMC,182121.000,A,3748.8003,N,12217.8607,W,0.04,118.21,120711,,,D*76
$GPVTG,118.21,T,,M,0.04,N,0.1,K,D*06
$GPGGA,182122.000,3748.8004,N,12217.8608,W,2,09,1.4,-5.8,M,-25.1,M,1.8,0000*62
$GPGSA,A,3,20,23,07,03,13,08,10,28,19,,,,2.5,1.4,2.0*3C
$GPRMC,182122.000,A,3748.8004,N,12217.8608,W,0.06,9.79,120711,,,D*73
$GPVTG,9.79,T,,M,0.06,N,0.1,K,D*08
$GPGGA,182123.000,3748.8005,N,12217.8609,W,2,09,1.4,-6.3,M,-25.1,M,1.8,0000*6B
$GPGSA,A,3,20,23,07,03,13,08,10,28,19,,,,2.5,1.4,2.0*3C
$GPGSV,3,1,12,13,75,069,34,07,58,298,31,23,48,116,28,10,43,280,40*72
$GPGSV,3,2,12,08,35,272,37,03,26,081,31,16,25,043,25,06,19,066,30*77
$GPGSV,3,3,12,19,18,113,30,20,09,174,39,28,08,210,34,05,08,322,*70
$GPVTG,7.62,T,,M,0.07,N,0.1,K,D*0D
$GPGGA,182124.000,3748.8006,N,12217.8610,W,2,09,1.4,-6.7,M,-25.1,M,2.8,0000*60
$GPGSA,A,3,20,23,07,03,13,08,10,28,19,,,,2.5,1.4,2.0*3C
$GPRMC,182124.000,A,3748.8006,N,12217.8610,W,0.11,346.60,120711,,,D*78
$GPVTG,346.60,T,,M,0.11,N,0.2,K,D*0D
$GPGGA,182125.000,3748.8007,N,12217.8611,W,2,09,1.4,-7.2,M,-25.1,M,3.8,0000*64
$GPGSA,A,3,20,23,07,03,13,08,10,28,19,,,,2.5,1.4,2.0*3C
$GPRMC,182125.000,A,3748.8007,N,12217.8611,W,0.14,356.31,120711,,,D*79
$GPVTG,356.31,T,,M,0.14,N,0.3,K,D*0C
$GPGGA,182126.000,3748.8009,N,12217.8612,W,2,09,1.4,-7.8,M,-25.1,M,1.8,0000*62
$GPGSA,A,3,20,23,07,03,13,08,10,28,19,,,,2.5,1.4,2.0*3C
$GPRMC,182126.000,A,3748.8009,N,12217.8612,W,0.15,356.68,120711,,,D*7A
$GPVTG,356.68,T,,M,0.15,N,0.3,K,D*01
$GPGGA,182127.000,3748.7996,N,12217.8620,W,2,09,1.4,-4.9,M,-25.1,M,1.8,0000*60
$GPGSA,A,3,20,23,07,03,13,08,10,28,19,,,,2.5,1.4,2.0*3C
$GPRMC,182127.000,A,3748.7996,N,12217.8620,W,0.11,296.91,120711,,,D*75
$GPVTG,296.91,T,,M,0.11,N,0.2,K,D*0F
$GPGGA,182128.000,3748.7998,N,12217.8621,W,2,09,1.4,-5.5,M,-25.1,M,1.8,0000*6D
$GPGSA,A,3,20,23,07,03,13,08,10,28,19,,,,2.5,1.4,2.0*3C
$GPGSV,3,1,12,13,75,069,35,07,58,298,30,23,48,116,29,10,43,280,39*7D
$GPGSV,3,2,12,08,35,272,37,03,26,081,22,16,25,043,30,06,19,066,28*78
$GPGSV,3,3,12,19,18,113,26,20,09,174,38,28,08,210,35,05,08,322,*77
$GPRMC,182128.000,A,3748.7998,N,12217.8621,W,0.16,33.33,120711,,,D*47
$GPVTG,33.33,T,,M,0.16,N,0.3,K,D*3C
$GPGGA,182129.000,3748.7999,N,12217.8620,W,2,09,1.4,-6.0,M,-25.1,M,1.8,0000*6A
$GPGSA,A,3,20,23,07,03,13,08,10,28,19,,,,2.5,1.4,2.0*3C
$GPRMC,182129.000,A,3748.7999,N,12217.8620,W,0.33,76.18,120711,,,D*49
$GPVTG,76.18,T,,M,0.33,N,0.6,K,D*36
$GPGGA,182130.000,3748.7999,N,12217.8619,W,2,09,1.4,-6.0,M,-25.1,M,2.8,0000*6B
$GPGSA,A,3,20,23,07,03,13,08,10,28,19,,,,2.5,1.4,2.0*3C
$GPRMC,182130.000,A,3748.7999,N,12217.8619,W,0.11,255.67,120711,,,D*70
$GPVTG,255.67,T,,M,0.11,N,0.2,K,D*09
$GPGGA,182131.000,3748.7998,N,12217.8620,W,2,09,1.4,-5.5,M,-25.1,M,3.8,0000*66
$GPGSA,A,3,20,23,07,03,13,08,10,28,19,,,,2.5,1.4,2.0*3C
$GPRMC,182131.000,A,3748.7998,N,12217.8620,W,0.14,236.37,120711,,,D*7F
$GPVTG,236.37,T,,M,0.14,N,0.3,K,D*0D
$GPGGA,182132.000,3748.7997,N,12217.8620,W,2,09,1.4,-5.2,M,-25.1,M,1.8,0000*6F
$GPGSA,A,3,20,23,07,03,13,08,10,28,19,,,,2.5,1.4,2.0*3C
$GPRMC,182132.000,A,3748.7997,N,12217.8620,W,0.02,222.04,120711,,,D*71
$GPVTG,222.04,T,,M,0.02,N,0.0,K,D*0C
$GPGGA,182133.000,3748.7997,N,12217.8620,W,2,09,1.4,-4.8,M,-25.1,M,1.8,0000*65
$GPGSA,A,3,20,23,07,03,13,08,10,28,19,,,,2.5,1.4,2.0*3C
$GPGSV,3,1,12,13,75,069,29,07,58,298,33,23,48,116,35,10,43,280,33*74
$GPGSV,3,2,12,08,35,272,37,03,26,081,28,16,25,043,23,06,19,066,25*7D
$GPGSV,3,3,12,19,18,113,30,20,09,174,38,28,08,210,31,05,08,322,*74
$GPRMC,182133.000,A,3748.7997,N,12217.8620,W,0.11,184.49,120711,,,D*74
$GPVTG,184.49,T,,M,0.11,N,0.2,K,D*0A
$GPGGA,182134.000,3748.7996,N,12217.8620,W,2,09,1.4,-4.4,M,-25.1,M,1.8,0000*6F
$GPGSA,A,3,20,23,07,03,13,08,10,28,19,,,,2.5,1.4,2.0*3C
$GPRMC,182134.000,A,3748.7996,N,12217.8620,W,0.22,199.41,120711,,,D*76
$GPVTG,199.41,T,,M,0.22,N,0.4,K,D*08
$GPGGA,182135.000,3748.7995,N,12217.8620,W,2,09,1.4,-4.0,M,-25.1,M,2.8,0000*6A
$GPGSA,A,3,20,23,07,03,13,08,10,28,19,,,,2.5,1.4,2.0*3C
$GPRMC,182135.000,A,3748.7995,N,12217.8620,W,0.06,115.57,120711,,,D*71
$GPVTG,115.57,T,,M,0.06,N,0.1,K,D*08
$GPGGA,182136.000,3748.7994,N,12217.8620,W,2,09,1.4,-3.5,M,-25.1,M,3.8,0000*6B
$GPGSA,A,3,20,23,07,03,13,08,10,28,19,,,,2.5,1.4,2.0*3C
$GPRMC,182136.000,A,3748.7994,N,12217.8620,W,0.12,141.07,120711,,,D*72
$GPVTG,141.07,T,,M,0.12,N,0.2,K,D*0A
$GPGGA,182137.000,3748.7994,N,12217.8619,W,2,09,1.4,-3.3,M,-25.1,M,4.8,0000*61
$GPGSA,A,3,20,23,07,03,13,08,10,28,19,,,,2.5,1.4,2.0*3C
$GPRMC,182137.000,A,3748.7994,N,12217.8619,W,0.07,188.04,120711,,,D*7B
$GPVTG,188.04,T,,M,0.07,N,0.1,K,D*0B
$GPGGA,182138.000,3748.7993,N,12217.8618,W,2,09,1.4,-3.0,M,-25.1,M,1.8,0000*6E
$GPGSA,A,3,20,23,07,03,13,08,10,28,19,,,,2.5,1.4,2.0*3C
$GPGSV,3,1,12,13,75,069,30,07,58,298,26,23,48,116,35,10,43,280,34*7F
$GPGSV,3,2,12,08,35,272,32,03,26,081,27,16,25,043,27,06,19,066,24*72
$GPGSV,3,3,12,19,18,113,24,20,09,174,38,28,08,210,34,05,08,322,*74
$GPRMC,182138.000,A,3748.7993,N,12217.8618,W,0.21,110.51,120711,,,D*77
$GPVTG,110.51,T,,M,0.21,N,0.4,K,D*0B
$GPGGA,182139.000,3748.7993,N,12217.8617,W,2,09,1.4,-2.6,M,-25.1,M,1.8,0000*67
$GPGSA,A,3,20,23,07,03,13,08,10,28,19,,,,2.5,1.4,2.0*3C
$GPRMC,182139.000,A,3748.7993,N,12217.8617,W,0.30,83.79,120711,,,D*48
$GPVTG,83.79,T,,M,0.30,N,0.6,K,D*38
$GPGGA,182140.000,3748.7993,N,12217.8616,W,2,09,1.4,-2.4,M,-25.1,M,1.8,0000*6A
$GPGSA,A,3,20,23,07,03,13,08,10,28,19,,,,2.5,1.4,2.0*3C
$GPRMC,182140.000,A,3748.7993,N,12217.8616,W,0.09,186.19,120711,,,D*7F
$GPVTG,186.19,T,,M,0.09,N,0.2,K,D*04
$GPGGA,182141.000,3748.7992,N,12217.8616,W,2,09,1.4,-2.2,M,-25.1,M,2.8,0000*6F
$GPGSA,A,3,20,23,07,03,13,08,10,28,19,,,,2.5,1.4,2.0*3C
$GPRMC,182141.000,A,3748.7992,N,12217.8616,W,0.06,119.10,120711,,,D*7F
$GPVTG,119.10,T,,M,0.06,N,0.1,K,D*07
$GPGGA,182142.000,3748.7991,N,12217.8615,W,2,09,1.4,-2.0,M,-25.1,M,3.8,0000*6F
$GPGSA,A,3,20,23,07,03,13,08,10,28,19,,,,2.5,1.4,2.0*3C
$GPRMC,182142.000,A,3748.7991,N,12217.8615,W,0.12,139.56,120711,,,D*79
$GPVTG,139.56,T,,M,0.12,N,0.2,K,D*01
$GPGGA,182143.000,3748.7991,N,12217.8615,W,2,09,1.4,-1.9,M,-25.1,M,4.8,0000*63
$GPGSA,A,3,20,23,07,03,13,08,10,28,19,,,,2.5,1.4,2.0*3C
$GPGSV,3,1,12,13,75,069,34,07,58,298,34,23,48,116,35,10,43,280,39*75
$GPGSV,3,2,12,08,35,272,40,03,26,081,30,16,25,043,33,06,19,066,33*72
$GPGSV,3,3,12,19,18,113,40,20,09,174,39,28,08,210,34,05,08,322,*77
$GPRMC,182143.000,A,3748.7991,N,12217.8615,W,0.09,157.78,120711,,,D*76
$GPVTG,157.78,T,,M,0.09,N,0.2,K,D*0F
$GPGGA,182144.000,3748.7990,N,12217.8614,W,2,09,1.4,-1.7,M,-25.1,M,1.8,0000*6F
$GPGSA,A,3,20,23,07,03,13,08,10,28,19,,,,2.5,1.4,2.0*3C
$GPRMC,182144.000,A,3748.7990,N,12217.8614,W,0.14,197.42,120711,,,D*78
$GPVTG,197.42,T,,M,0.14,N,0.3,K,D*07
$GPGGA,182145.000,3748.7989,N,12217.8614,W,2,09,1.4,-1.4,M,-25.1,M,1.8,0000*65
$GPGSA,A,3,20,23,07,03,13,08,10,28,19,,,,2.5,1.4,2.0*3C
$GPRMC,182145.000,A,3748.7989,N,12217.8614,W,0.23,184.31,120711,,,D*73
$GPVTG,184.31,T,,M,0.23,N,0.4,K,D*02
$GPGGA,182146.000,3748.7987,N,12217.8614,W,2,09,1.4,-0.9,M,-25.1,M,1.8,0000*64
$GPGSA,A,3,20,23,07,03,13,08,10,28,19,,,,2.5,1.4,2.0*3C
$GPRMC,182146.000,A,3748.7987,N,12217.8614,W,0.30,212.33,120711,,,D*72
$GPVTG,212.33,T,,M,0.30,N,0.6,K,D*0C
$GPGGA,182147.000,3748.7985,N,12217.8615,W,2,09,1.4,-0.3,M,-25.1,M,1.8,0000*6C
$GPGSA,A,3,20,23,07,03,13,08,10,28,19,,,,2.5,1.4,2.0*3C
$GPRMC,182147.000,A,3748.7985,N,12217.8615,W,0.61,213.41,120711,,,D*70
$GPVTG,213.41,T,,M,0.61,N,1.1,K,D*0A
$GPGGA,182148.000,3748.7983,N,12217.8616,W,2,09,1.4,0.2,M,-25.1,M,2.8,0000*49
$GPGSA,A,3,20,23,07,03,13,08,10,28,19,,,,2.5,1.4,2.0*3C
$GPGSV,3,1,12,13,75,070,27,07,58,299,34,23,47,116,28,10,43,280,34*70
$GPGSV,3,2,12,08,35,272,39,03,26,081,16,16,25,043,32,06,19,066,28*73
$GPGSV,3,3,12,19,18,113,26,20,09,174,40,28,09,210,34,05,08,322,*78
$GPRMC,182148.000,A,3748.7983,N,12217.8616,W,0.53,217.19,120711,,,D*72
$GPGGA,182149.000,3748.7982,N,12217.8617,W,2,09,1.4,0.6,M,-25.1,M,3.8,0000*4D
$GPGSA,A,3,20,23,07,03,13,08,10,28,19,,,,2.5,1.4,2.0*3C
$GPRMC,182149.000,A,3748.7982,N,12217.8617,W,0.31,183.18,120711,,,D*78
$GPVTG,183.18,T,,M,0.31,N,0.6,K,D*0F
$GPGGA,182150.000,3748.7981,N,12217.8617,W,2,09,1.4,1.0,M,-25.1,M,1.8,0000*43
$GPGSA,A,3,20,23,07,03,13,08,10,28,19,,,,2.5,1.4,2.0*3C
$GPRMC,182150.000,A,3748.7981,N,12217.8617,W,0.37,146.83,120711,,,D*7E
$GPVTG,146.83,T,,M,0.37,N,0.7,K,D*03
$GPGGA,182151.000,3748.7981,N,12217.8616,W,2,09,1.4,1.2,M,-25.1,M,1.8,0000*41
$GPGSA,A,3,20,23,07,03,13,08,10,28,19,,,,2.5,1.4,2.0*3C
$GPRMC,182151.000,A,3748.7981,N,12217.8616,W,0.24,161.47,120711,,,D*71
$GPVTG,161.47,T,,M,0.24,N,0.5,K,D*0E
$GPGGA,182152.000,3748.7981,N,12217.8616,W,2,09,1.4,1.4,M,-25.1,M,1.8,0000*44
$GPGSA,A,3,20,23,07,03,13,08,10,28,19,,,,2.5,1.4,2.0*3C
$GPRMC,182152.000,A,3748.7981,N,12217.8616,W,0.28,152.10,120711,,,D*7C
$GPVTG,152.10,T,,M,0.28,N,0.5,K,D*00
$GPGGA,182153.000,3748.7982,N,12217.8615,W,2,09,1.4,1.4,M,-25.1,M,2.8,0000*46
$GPGSA,A,3,20,23,07,03,13,08,10,28,19,,,,2.5,1.4,2.0*3C
$GPGSV,3,1,12,13,75,070,28,07,58,299,35,23,47,116,24,10,43,280,36*70
$GPGSV,3,2,12,08,35,272,39,03,26,081,20,16,25,043,26,06,19,066,23*78
$GPGSV,3,3,12,19,18,113,26,20,09,174,34,28,09,210,34,05,08,322,*7B
$GPRMC,182153.000,A,3748.7982,N,12217.8615,W,0.19,118.29,120711,,,D*7B
$GPVTG,118.29,T,,M,0.19,N,0.4,K,D*07
$GPGGA,182154.000,3748.7981,N,12217.8615,W,2,09,1.4,1.7,M,-25.1,M,1.8,0000*42
$GPGSA,A,3,20,23,07,03,13,08,10,28,19,,,,2.5,1.4,2.0*3C
$GPRMC,182154.000,A,3748.7981,N,12217.8615,W,0.40,176.21,120711,,,D*73
$GPVTG,176.21,T,,M,0.40,N,0.7,K,D*08
$GPGGA,182155.000,3748.7980,N,12217.8615,W,2,09,1.4,1.9,M,-25.1,M,2.8,0000*4F
$GPGSA,A,3,20,23,07,03,13,08,10,28,19,,,,2.5,1.4,2.0*3C
$GPRMC,182155.000,A,3748.7980,N,12217.8615,W,0.35,197.68,120711,,,D*73
$GPVTG,197.68,T,,M,0.35,N,0.6,K,D*09
$GPGGA,182156.000,3748.7982,N,12217.8616,W,2,09,1.4,1.7,M,-25.1,M,1.8,0000*40
$GPGSA,A,3,20,23,07,03,13,08,10,28,19,,,,2.5,1.4,2.0*3C
$GPRMC,182156.000,A,3748.7982,N,12217.8616,W,0.28,209.82,120711,,,D*7D
$GPVTG,209.82,T,,M,0.28,N,0.5,K,D*06
$GPGGA,182157.000,3748.7983,N,12217.8618,W,2,09,1.4,1.5,M,-25.1,M,1.8,0000*4C
$GPGSA,A,3,20,23,07,03,13,08,10,28,19,,,,2.5,1.4,2.0*3C
$GPRMC,182157.000,A,3748.7983,N,12217.8618,W,0.34,207.25,120711,,,D*7D
$GPVTG,207.25,T,,M,0.34,N,0.6,K,D*0B
$GPGGA,182158.000,3748.7984,N,12217.8620,W,2,09,1.4,1.3,M,-25.1,M,1.8,0000*49
$GPGSA,A,3,20,23,07,03,13,08,10,28,19,,,,2.5,1.4,2.0*3C
$GPGSV,3,1,12,13,75,070,28,07,58,299,31,23,47,116,30,10,43,280,37*70
$GPGSV,3,2,12,08,35,272,39,03,26,081,16,16,25,043,32,06,19,066,28*73
$GPGSV,3,3,12,19,18,113,27,20,09,174,37,28,09,210,34,05,08,322,*79
$GPRMC,182158.000,A,3748.7984,N,12217.8620,W,0.26,209.36,120711,,,D*71
$GPVTG,209.36,T,,M,0.26,N,0.5,K,D*07
$GPGGA,182159.000,3748.7983,N,12217.8621,W,2,09,1.4,1.8,M,-25.1,M,2.8,0000*46
$GPGSA,A,3,20,23,07,03,13,08,10,28,19,,,,2.5,1.4,2.0*3C
$GPRMC,182159.000,A,3748.7983,N,12217.8621,W,0.27,206.29,120711,,,D*76
$GPVTG,206.29,T,,M,0.27,N,0.5,K,D*07
$GPGGA,182200.000,3748.7983,N,12217.8621,W,2,09,1.4,1.9,M,-25.1,M,3.8,0000*49
$GPGSA,A,3,20,23,07,03,13,08,10,28,19,,,,2.5,1.4,2.0*3C
$GPRMC,182200.000,A,3748.7983,N,12217.8621,W,0.12,200.29,120711,,,D*79
$GPVTG,200.29,T,,M,0.12,N,0.2,K,D*00
$GPGGA,182201.000,3748.7977,N,12217.8626,W,2,09,1.4,4.1,M,-25.1,M,4.8,0000*4E
$GPGSA,A,3,20,23,07,03,13,08,10,28,19,,,,2.5,1.4,2.0*3C
$GPRMC,182201.000,A,3748.7977,N,12217.8626,W,0.10,151.86,120711,,,D*74
$GPVTG,151.86,T,,M,0.10,N,0.2,K,D*00
$GPGGA,182202.000,3748.7972,N,12217.8629,W,2,09,1.4,5.9,M,-25.1,M,1.8,0000*4B
$GPGSA,A,3,20,23,07,03,13,08,10,28,19,,,,2.5,1.4,2.0*3C
$GPRMC,182202.000,A,3748.7972,N,12217.8629,W,0.13,167.04,120711,,,D*71
$GPVTG,167.04,T,,M,0.13,N,0.2,K,D*0C
$GPGGA,182203.000,3748.7968,N,12217.8632,W,2,09,1.4,7.3,M,-25.1,M,1.8,0000*43
$GPGSA,A,3,20,23,07,03,13,08,10,28,19,,,,2.5,1.4,2.0*3C
$GPGSV,3,1,12,13,75,070,29,07,58,299,33,23,47,116,15,10,43,280,38*7B
$GPGSV,3,2,12,08,35,272,38,03,26,081,17,16,25,043,31,06,19,066,28*70
$GPGSV,3,3,12,19,18,113,32,20,09,174,38,28,09,210,34,05,08,322,*72
$GPRMC,182203.000,A,3748.7968,N,12217.8632,W,0.16,141.43,120711,,,D*73
$GPVTG,141.43,T,,M,0.16,N,0.3,K,D*0F
