$ADVER,3080,2.3
$GPRMC,201800.626,A,3748.7965,N,12217.8696,W,0.35,237.99,120711,,,A*72
$GPGGA,201801.626,3748.7972,N,12217.8640,W,1,03,1.7,25.1,M,-25.1,M,,0000*50
$GPGSA,A,2,10,13,08,,,,,,,,,,2.0,1.7,1.0*3D
$GPRMC,201801.626,A,3748.7972,N,12217.8640,W,0.06,169.74,120711,,,A*75
$GPVTG,169.74,T,,M,0.06,N,0.1,K,N*08
$GPGGA,201802.626,3748.7940,N,12217.8656,W,1,04,1.5,37.6,M,-25.1,M,,0000*54
$GPGSA,A,3,10,07,13,08,,,,,,,,,1.8,1.5,1.0*32
$GPGSV,3,1,12,08,64,348,35,07,59,057,32,13,28,148,31,10,18,223,25*78
$GPGSV,3,2,12,28,57,244,34,19,28,056,28,26,22,317,34,05,21,276,37*7A
$GPGSV,3,3,12,01,21,238,,11,09,110,28,03,05,037,,17,05,188,*72
$GPRMC,201802.626,A,3748.7940,N,12217.8656,W,0.09,165.08,120711,,,A*78
$GPVTG,165.08,T,,M,0.09,N,0.2,K,A*0C
$GPGGA,201803.626,3748.7959,N,12217.8645,W,1,04,1.5,29.9,M,-25.1,M,,0000*5F
$GPGSA,A,3,10,07,13,08,,,,,,,,,1.8,1.5,1.0*32
$GPRMC,201803.626,A,3748.7959,N,12217.8645,W,0.10,151.83,120711,,,A*7F
$GPVTG,151.83,T,,M,0.10,N,0.2,K,A*00
$GPGGA,201804.626,3748.7981,N,12217.8626,W,1,05,2.3,16.2,M,-25.1,M,,0000*5B
$GPGSA,A,3,10,28,07,13,08,,,,,,,,4.7,2.3,4.2*30
$GPRMC,201804.626,A,3748.7981,N,12217.8626,W,0.06,293.74,120711,,,A*7A
$GPVTG,293.74,T,,M,0.06,N,0.1,K,A*01
$GPGGA,201805.000,3748.7983,N,12217.8623,W,1,05,2.3,15.8,M,-25.1,M,,0000*56
$GPGSA,A,3,10,28,07,13,08,,,,,,,,4.7,2.3,4.2*30
$GPRMC,201805.000,A,3748.7983,N,12217.8623,W,0.89,26.49,120711,,,A*4B
$GPVTG,26.49,T,,M,0.89,N,1.6,K,A*32
$GPGGA,201806.000,3748.7969,N,12217.8621,W,1,05,2.3,22.8,M,-25.1,M,,0000*57
$GPGSA,A,3,10,28,07,13,08,,,,,,,,4.7,2.3,4.2*30
$GPRMC,201806.000,A,3748.7969,N,12217.8621,W,0.30,324.39,120711,,,A*7A
$GPVTG,324.39,T,,M,0.30,N,0.5,K,A*04
$GPGGA,201807.000,3748.7962,N,12217.8622,W,1,05,2.3,26.5,M,-25.1,M,,0000*57
$GPGSA,A,3,10,28,07,13,08,,,,,,,,4.7,2.3,4.2*30
$GPGSV,3,1,12,08,64,348,43,07,59,057,39,28,57,244,37,13,28,148,26*76
$GPGSV,3,2,12,19,28,056,30,26,22,317,34,01,21,238,,05,21,276,38*7A
$GPGSV,3,3,12,10,18,223,33,11,09,110,24,03,05,037,30,17,05,188,*7D
$GPRMC,201807.000,A,3748.7962,N,12217.8622,W,0.04,119.35,120711,,,A*74
$GPVTG,119.35,T,,M,0.04,N,0.1,K,A*07
$GPGGA,201808.000,3748.7960,N,12217.8621,W,1,05,2.3,27.4,M,-25.1,M,,0000*59
$GPGSA,A,3,10,28,07,13,08,,,,,,,,4.7,2.3,4.2*30
$GPRMC,201808.000,A,3748.7960,N,12217.8621,W,0.80,137.85,120711,,,A*71
$GPVTG,137.85,T,,M,0.80,N,1.5,K,A*09
$GPGGA,201809.000,3748.7962,N,12217.8610,W,1,05,2.3,24.7,M,-25.1,M,,0000*58
$GPGSA,A,3,10,28,07,13,08,,,,,,,,4.7,2.3,4.2*30
$GPRMC,201809.000,A,3748.7962,N,12217.8610,W,1.64,109.70,120711,,,A*7C
$GPVTG,109.70,T,,M,1.64,N,3.0,K,A*02
$GPGGA,201810.000,3748.7966,N,12217.8615,W,1,05,2.3,23.9,M,-25.1,M,,0000*58
$GPGSA,A,3,10,28,07,13,08,,,,,,,,4.7,2.3,4.2*30
$GPRMC,201810.000,A,3748.7966,N,12217.8615,W,0.26,323.61,120711,,,A*78
$GPVTG,323.61,T,,M,0.26,N,0.5,K,A*09
$GPGGA,201811.000,3748.7970,N,12217.8614,W,1,04,1.5,23.2,M,-25.1,M,,0000*50
$GPGSA,A,3,10,07,13,08,,,,,,,,,1.8,1.5,1.0*32
$GPRMC,201811.000,A,3748.7970,N,12217.8614,W,0.19,57.44,120711,,,A*44
$GPVTG,57.44,T,,M,0.19,N,0.4,K,A*33
$GPGGA,201812.000,3748.7967,N,12217.8608,W,1,05,2.3,22.7,M,-25.1,M,,0000*58
$GPGSA,A,3,10,28,07,13,08,,,,,,,,4.7,2.3,4.2*30
$GPGSV,3,1,12,08,64,348,33,07,59,057,24,28,57,244,25,13,28,148,25*7D
$GPGSV,3,2,12,19,28,056,36,26,22,317,35,01,21,238,,05,21,276,36*73
$GPGSV,3,3,12,10,18,223,25,11,09,110,20,03,05,037,23,17,05,188,*7C
$GPRMC,201812.000,A,3748.7967,N,12217.8608,W,0.71,96.40,120711,,,A*4B
$GPVTG,96.40,T,,M,0.71,N,1.3,K,A*32
$GPGGA,201813.000,3748.7962,N,12217.8607,W,1,05,2.3,23.3,M,-25.1,M,,0000*56
$GPGSA,A,3,10,28,07,13,08,,,,,,,,4.7,2.3,4.2*30
$GPRMC,201813.000,A,3748.7962,N,12217.8607,W,0.35,192.57,120711,,,A*73
$GPVTG,192.57,T,,M,0.35,N,0.6,K,A*05
$GPGGA,201814.000,3748.7960,N,12217.8613,W,1,05,2.3,23.1,M,-25.1,M,,0000*54
$GPGSA,A,3,10,28,07,13,08,,,,,,,,4.7,2.3,4.2*30
$GPRMC,201814.000,A,3748.7960,N,12217.8613,W,0.11,84.08,120711,,,A*49
$GPVTG,84.08,T,,M,0.11,N,0.2,K,A*3B
$GPGGA,201815.000,3748.7954,N,12217.8616,W,1,05,2.3,26.6,M,-25.1,M,,0000*55
$GPGSA,A,3,10,28,07,13,08,,,,,,,,4.7,2.3,4.2*30
$GPRMC,201815.000,A,3748.7954,N,12217.8616,W,0.18,58.47,120711,,,A*49
$GPVTG,58.47,T,,M,0.18,N,0.3,K,A*39
$GPGGA,201816.000,3748.7958,N,12217.8617,W,1,05,2.3,25.0,M,-25.1,M,,0000*5E
$GPGSA,A,3,10,28,07,13,08,,,,,,,,4.7,2.3,4.2*30
$GPRMC,201816.000,A,3748.7958,N,12217.8617,W,0.60,62.63,120711,,,A*47
$GPVTG,62.63,T,,M,0.60,N,1.1,K,A*3A
$GPGGA,201817.000,3748.7958,N,12217.8619,W,1,05,2.3,24.8,M,-25.1,M,,0000*58
$GPGSA,A,3,10,28,07,13,08,,,,,,,,4.7,2.3,4.2*30
$GPGSV,3,1,12,08,64,348,28,07,59,057,32,28,57,244,25,13,28,148,26*73
$GPGSV,3,2,12,19,28,056,37,26,22,317,22,01,21,238,,05,21,276,20*73
$GPGSV,3,3,12,10,18,223,24,11,09,110,30,03,05,037,29,17,05,188,*76
$GPRMC,201817.000,A,3748.7958,N,12217.8619,W,0.96,121.86,120711,,,A*7C
$GPVTG,121.86,T,,M,0.96,N,1.8,K,A*07
$GPGGA,201818.000,3748.7952,N,12217.8611,W,1,05,2.3,27.3,M,-25.1,M,,0000*5D
$GPGSA,A,3,10,28,07,13,08,,,,,,,,4.7,2.3,4.2*30
$GPRMC,201818.000,A,3748.7952,N,12217.8611,W,1.86,114.49,120711,,,A*74
$GPVTG,114.49,T,,M,1.86,N,3.5,K,A*0D
$GPGGA,201819.000,3748.7946,N,12217.8602,W,1,04,1.5,28.9,M,-25.1,M,,0000*5A
$GPGSA,A,3,10,07,13,08,,,,,,,,,1.8,1.5,1.0*32
$GPRMC,201819.000,A,3748.7946,N,12217.8602,W,1.57,127.96,120711,,,A*7C
$GPVTG,127.96,T,,M,1.57,N,2.9,K,A*0E
$GPGGA,201820.000,3748.7939,N,12217.8593,W,1,04,1.5,30.5,M,-25.1,M,,0000*56
$GPGSA,A,3,10,07,13,08,,,,,,,,,1.8,1.5,1.0*32
$GPRMC,201820.000,A,3748.7939,N,12217.8593,W,1.69,119.11,120711,,,A*7A
$GPVTG,119.11,T,,M,1.69,N,3.1,K,A*08
$GPGGA,201821.000,3748.7936,N,12217.8583,W,1,05,2.3,29.7,M,-25.1,M,,0000*57
$GPGSA,A,3,10,28,07,13,08,,,,,,,,4.7,2.3,4.1*33
$GPRMC,201821.000,A,3748.7936,N,12217.8583,W,2.62,127.60,120711,,,A*76
$GPVTG,127.60,T,,M,2.62,N,4.8,K,A*05
$GPGGA,201822.000,3748.7931,N,12217.8573,W,1,05,2.3,27.6,M,-25.1,M,,0000*53
$GPGSA,A,3,10,28,07,13,08,,,,,,,,4.7,2.3,4.1*33
$GPGSV,3,1,12,08,64,348,26,07,59,057,32,28,57,244,19,13,28,148,29*7D
$GPGSV,3,2,12,19,28,056,36,26,22,317,24,01,21,238,,05,21,276,19*7E
$GPGSV,3,3,12,10,18,223,24,11,09,110,30,03,05,037,38,17,05,188,*76
$GPRMC,201822.000,A,3748.7931,N,12217.8573,W,2.31,138.57,120711,,,A*71
$GPVTG,138.57,T,,M,2.31,N,4.3,K,A*02
$GPGGA,201823.000,3748.7929,N,12217.8565,W,1,05,2.3,26.7,M,-25.1,M,,0000*5C
$GPGSA,A,3,10,28,07,13,08,,,,,,,,4.7,2.3,4.1*33
$GPRMC,201823.000,A,3748.7929,N,12217.8565,W,2.31,123.91,120711,,,A*7E
$GPVTG,123.91,T,,M,2.31,N,4.3,K,A*02
$GPGGA,201824.000,3748.7930,N,12217.8553,W,1,05,2.3,25.4,M,-25.1,M,,0000*56
$GPGSA,A,3,10,28,07,13,08,,,,,,,,4.7,2.3,4.1*33
$GPRMC,201824.000,A,3748.7930,N,12217.8553,W,2.29,109.49,120711,,,A*70
$GPVTG,109.49,T,,M,2.29,N,4.2,K,A*07
$GPGGA,201825.000,3748.7932,N,12217.8545,W,1,05,2.3,23.8,M,-25.1,M,,0000*58
$GPGSA,A,3,10,28,07,13,08,,,,,,,,4.7,2.3,4.1*33
$GPRMC,201825.000,A,3748.7932,N,12217.8545,W,2.20,119.32,120711,,,A*70
$GPVTG,119.32,T,,M,2.20,N,4.1,K,A*00
$GPGGA,201826.000,3748.7935,N,12217.8539,W,1,04,3.8,21.5,M,-25.1,M,,0000*53
$GPGSA,A,3,10,28,07,08,,,,,,,,,5.8,3.8,4.3*37
$GPRMC,201826.000,A,3748.7935,N,12217.8539,W,2.64,106.16,120711,,,A*77
$GPVTG,106.16,T,,M,2.64,N,4.9,K,A*00
$GPGGA,201827.000,3748.7938,N,12217.8533,W,1,04,3.8,19.8,M,-25.1,M,,0000*53
$GPGSA,A,3,10,28,07,08,,,,,,,,,5.8,3.8,4.3*37
$GPGSV,3,1,12,08,64,348,22,07,59,057,24,28,57,244,19,13,28,148,*75
$GPGSV,3,2,12,19,28,056,34,26,22,317,,01,21,238,,05,21,276,*72
$GPGSV,3,3,12,10,18,223,25,11,09,110,25,03,05,037,29,17,05,188,*73
$GPRMC,201827.000,A,3748.7938,N,12217.8533,W,1.94,98.86,120711,,,A*42
$GPVTG,98.86,T,,M,1.94,N,3.6,K,A*3B
$GPGGA,201828.000,3748.7949,N,12217.8525,W,1,05,2.3,16.7,M,-25.1,M,,0000*56
$GPGSA,A,3,10,13,28,07,08,,,,,,,,4.7,2.3,4.1*33
$GPRMC,201828.000,A,3748.7949,N,12217.8525,W,1.95,100.31,120711,,,A*71
$GPVTG,100.31,T,,M,1.95,N,3.6,K,A*06
$GPGGA,201829.000,3748.7940,N,12217.8514,W,1,04,1.5,17.5,M,-25.1,M,,0000*5B
$GPGSA,A,3,10,13,07,08,,,,,,,,,1.8,1.5,1.0*32
$GPRMC,201829.000,A,3748.7940,N,12217.8514,W,2.00,115.34,120711,,,A*75
$GPVTG,115.34,T,,M,2.00,N,3.7,K,A*09
$GPGGA,201830.000,3748.7931,N,12217.8500,W,1,04,1.5,18.9,M,-25.1,M,,0000*53
$GPGSA,A,3,10,13,07,08,,,,,,,,,1.8,1.5,1.0*32
$GPRMC,201830.000,A,3748.7931,N,12217.8500,W,2.10,112.44,120711,,,A*7F
$GPVTG,112.44,T,,M,2.10,N,3.9,K,A*06
$GPGGA,201831.000,3748.7934,N,12217.8491,W,1,05,2.3,17.3,M,-25.1,M,,0000*5F
$GPGSA,A,3,10,13,28,07,08,,,,,,,,4.7,2.3,4.1*33
$GPRMC,201831.000,A,3748.7934,N,12217.8491,W,2.02,110.96,120711,,,A*7C
$GPVTG,110.96,T,,M,2.02,N,3.7,K,A*06
$GPGGA,201832.000,3748.7935,N,12217.8480,W,1,05,2.3,15.4,M,-25.1,M,,0000*58
$GPGSA,A,3,10,13,28,07,08,,,,,,,,4.7,2.3,4.1*33
$GPGSV,3,1,12,08,64,348,26,07,59,057,32,28,57,244,20,13,28,148,31*7E
$GPGSV,3,2,12,19,28,056,32,26,22,317,,01,21,238,,05,21,276,*74
$GPGSV,3,3,12,10,18,223,25,11,09,110,20,03,05,037,31,17,05,188,*7F
$GPRMC,201832.000,A,3748.7935,N,12217.8480,W,2.01,121.97,120711,,,A*7E
$GPGGA,201833.000,3748.7935,N,12217.8467,W,1,05,2.3,14.2,M,-25.1,M,,0000*57
$GPGSA,A,3,10,13,28,07,08,,,,,,,,4.7,2.3,4.1*33
$GPRMC,201833.000,A,3748.7935,N,12217.8467,W,1.71,106.11,120711,,,A*79
$GPVTG,106.11,T,,M,1.71,N,3.2,K,A*0C
$GPGGA,201834.000,3748.7943,N,12217.8454,W,1,05,2.3,10.9,M,-25.1,M,,0000*5E
$GPGSA,A,3,10,13,28,07,08,,,,,,,,4.7,2.3,4.1*33
$GPRMC,201834.000,A,3748.7943,N,12217.8454,W,1.74,100.44,120711,,,A*7C
$GPVTG,100.44,T,,M,1.74,N,3.2,K,A*0F
$GPGGA,201835.000,3748.7944,N,12217.8447,W,1,05,2.3,8.7,M,-25.1,M,,0000*6D
$GPGSA,A,3,10,13,28,07,08,,,,,,,,4.7,2.3,4.1*33
$GPRMC,201835.000,A,3748.7944,N,12217.8447,W,1.69,115.62,120711,,,A*74
$GPVTG,115.62,T,,M,1.69,N,3.1,K,A*00
$GPGGA,201836.000,3748.7945,N,12217.8440,W,1,05,2.3,6.4,M,-25.1,M,,0000*65
$GPGSA,A,3,10,13,28,07,08,,,,,,,,4.7,2.3,4.1*33
$GPRMC,201836.000,A,3748.7945,N,12217.8440,W,1.34,134.67,120711,,,A*7F
$GPVTG,134.67,T,,M,1.34,N,2.5,K,A*0B
$GPGGA,201837.000,3748.7948,N,12217.8435,W,1,05,2.3,3.2,M,-25.1,M,,0000*68
$GPGSA,A,3,10,13,28,07,08,,,,,,,,4.7,2.3,4.1*33
$GPGSV,3,1,12,08,64,348,28,07,59,057,33,28,57,244,22,13,28,148,28*7B
$GPGSV,3,2,12,19,28,056,22,26,22,317,31,01,21,238,,05,21,276,23*76
$GPGSV,3,3,12,10,18,223,25,11,09,110,20,03,05,037,27,17,05,188,*78
$GPRMC,201837.000,A,3748.7948,N,12217.8435,W,0.91,107.88,120711,,,A*7E
$GPVTG,107.88,T,,M,0.91,N,1.7,K,A*05
$GPGGA,201838.000,3748.7950,N,12217.8438,W,1,05,2.3,2.6,M,-25.1,M,,0000*66
$GPGSA,A,3,10,13,28,07,08,,,,,,,,4.7,2.3,4.1*33
$GPRMC,201838.000,A,3748.7950,N,12217.8438,W,0.78,50.68,120711,,,A*4F
$GPVTG,50.68,T,,M,0.78,N,1.4,K,A*3C
$GPGGA,201839.000,3748.7951,N,12217.8439,W,1,05,2.3,3.7,M,-25.1,M,,0000*67
$GPGSA,A,3,10,13,28,07,08,,,,,,,,4.7,2.3,4.1*33
$GPRMC,201839.000,A,3748.7951,N,12217.8439,W,0.78,58.06,120711,,,A*4E
$GPVTG,58.06,T,,M,0.78,N,1.5,K,A*3D
$GPGGA,201840.000,3748.7952,N,12217.8435,W,1,05,2.3,3.0,M,-25.1,M,,0000*61
$GPGSA,A,3,10,13,28,07,08,,,,,,,,4.7,2.3,4.1*33
$GPRMC,201840.000,A,3748.7952,N,12217.8435,W,0.97,67.72,120711,,,A*41
$GPVTG,67.72,T,,M,0.97,N,1.8,K,A*3E
$GPGGA,201841.000,3748.7958,N,12217.8434,W,1,05,2.3,1.5,M,-25.1,M,,0000*6C
$GPGSA,A,3,10,13,28,07,08,,,,,,,,4.7,2.3,4.1*33
$GPRMC,201841.000,A,3748.7958,N,12217.8434,W,0.99,47.91,120711,,,A*4A
$GPVTG,47.91,T,,M,0.99,N,1.8,K,A*3F
$GPGGA,201842.000,3748.7955,N,12217.8426,W,1,05,2.3,0.7,M,-25.1,M,,0000*62
$GPGSA,A,3,10,13,28,07,08,,,,,,,,4.7,2.3,4.1*33
$GPGSV,3,1,12,08,64,348,25,07,59,057,30,28,57,244,20,13,28,148,26*79
$GPGSV,3,2,12,19,28,056,28,26,22,317,22,01,21,238,,05,21,276,*7F
$GPGSV,3,3,12,10,18,223,26,11,09,110,26,03,05,037,17,17,05,188,*7E
$GPRMC,201842.000,A,3748.7955,N,12217.8426,W,1.39,94.75,120711,,,A*48
$GPVTG,94.75,T,,M,1.39,N,2.6,K,A*3D
$GPGGA,201843.000,3748.7950,N,12217.8425,W,1,04,3.8,1.7,M,-25.1,M,,0000*6F
$GPGSA,A,3,10,28,07,08,,,,,,,,,5.8,3.8,4.3*37
$GPRMC,201843.000,A,3748.7950,N,12217.8425,W,1.15,92.81,120711,,,A*4C
$GPVTG,92.81,T,,M,1.15,N,2.1,K,A*39
$GPGGA,201844.000,3748.7946,N,12217.8425,W,1,04,3.8,2.4,M,-25.1,M,,0000*6F
$GPGSA,A,3,10,28,07,08,,,,,,,,,5.8,3.8,4.3*37
$GPRMC,201844.000,A,3748.7946,N,12217.8425,W,1.06,88.48,120711,,,A*40
$GPVTG,88.48,T,,M,1.06,N,2.0,K,A*34
$GPGGA,201845.000,3748.7945,N,12217.8423,W,1,04,3.8,2.6,M,-25.1,M,,0000*69
$GPGSA,A,3,10,28,07,08,,,,,,,,,5.8,3.8,4.3*37
$GPRMC,201845.000,A,3748.7945,N,12217.8423,W,1.14,97.15,120711,,,A*41
$GPVTG,97.15,T,,M,1.14,N,2.1,K,A*30
$GPGGA,201846.000,3748.7942,N,12217.8417,W,1,05,2.3,2.3,M,-25.1,M,,0000*64
$GPGSA,A,3,10,13,28,07,08,,,,,,,,4.7,2.3,4.1*33
$GPRMC,201846.000,A,3748.7942,N,12217.8417,W,0.99,117.92,120711,,,A*70
$GPVTG,117.92,T,,M,0.99,N,1.8,K,A*08
$GPGGA,201847.000,3748.7933,N,12217.8402,W,1,05,2.3,0.9,M,-25.1,M,,0000*6F
$GPGSA,A,3,10,13,28,07,08,,,,,,,,4.7,2.3,4.1*33
$GPGSV,3,1,12,08,64,348,30,07,59,057,32,28,57,244,25,13,28,148,27*7B
$GPGSV,3,2,12,19,28,056,30,26,22,317,22,01,21,238,,05,21,276,20*74
$GPGSV,3,3,12,10,18,223,25,11,09,110,19,03,05,037,29,17,05,188,*7C
$GPRMC,201847.000,A,3748.7933,N,12217.8402,W,2.16,115.29,120711,,,A*74
$GPGGA,201848.000,3748.7920,N,12217.8382,W,1,05,2.3,0.9,M,-25.1,M,,0000*6D
$GPGSA,A,3,10,13,28,07,08,,,,,,,,4.7,2.3,4.1*33
$GPRMC,201848.000,A,3748.7920,N,12217.8382,W,1.96,110.79,120711,,,A*7D
$GPVTG,110.79,T,,M,1.96,N,3.6,K,A*08
$GPGGA,201849.000,3748.7915,N,12217.8372,W,1,04,1.5,1.5,M,-25.1,M,,0000*6C
$GPGSA,A,3,10,13,07,08,,,,,,,,,1.8,1.5,1.0*32
$GPRMC,201849.000,A,3748.7915,N,12217.8372,W,1.98,129.70,120711,,,A*78
$GPVTG,129.70,T,,M,1.98,N,3.7,K,A*04
$GPGGA,201850.000,3748.7916,N,12217.8361,W,1,05,2.3,-0.3,M,-25.1,M,,0000*4B
$GPGSA,A,3,10,13,28,07,08,,,,,,,,4.7,2.3,4.1*33
$GPRMC,201850.000,A,3748.7916,N,12217.8361,W,2.08,125.45,120711,,,A*71
$GPVTG,125.45,T,,M,2.08,N,3.9,K,A*0A
$GPGGA,201851.000,3748.7919,N,12217.8355,W,1,05,2.3,-2.5,M,-25.1,M,,0000*46
$GPGSA,A,3,10,13,28,07,08,,,,,,,,4.7,2.3,4.1*33
$GPRMC,201851.000,A,3748.7919,N,12217.8355,W,2.77,129.65,120711,,,A*7E
$GPVTG,129.65,T,,M,2.77,N,5.1,K,A*02
$GPGGA,201852.000,3748.7906,N,12217.8348,W,1,06,1.5,-1.2,M,-25.1,M,,0000*45
$GPGSA,A,3,10,13,28,07,19,08,,,,,,,2.7,1.5,2.3*3C
$GPGSV,3,1,12,08,64,348,27,07,59,057,31,28,57,244,25,13,28,148,27*7E
$GPGSV,3,2,12,19,28,056,30,26,22,317,23,01,21,238,,05,21,276,*77
$GPGSV,3,3,12,10,18,223,25,11,09,110,28,03,05,037,27,17,05,188,*70
$GPRMC,201852.000,A,3748.7906,N,12217.8348,W,2.01,138.51,120711,,,A*79
$GPVTG,138.51,T,,M,2.01,N,3.7,K,A*04
$GPGGA,201853.000,3748.7905,N,12217.8345,W,1,06,1.5,-0.9,M,-25.1,M,,0000*40
$GPGSA,A,3,10,13,28,07,19,08,,,,,,,2.7,1.5,2.3*3C
$GPRMC,201853.000,A,3748.7905,N,12217.8345,W,1.83,134.17,120711,,,A*71
$GPVTG,134.17,T,,M,1.83,N,3.4,K,A*00
$GPGGA,201854.000,3748.7899,N,12217.8342,W,1,06,1.5,0.6,M,-25.1,M,,0000*66
$GPGSA,A,3,10,13,28,07,19,08,,,,,,,2.7,1.5,2.3*3C
$GPRMC,201854.000,A,3748.7899,N,12217.8342,W,1.70,133.07,120711,,,A*7F
$GPVTG,133.07,T,,M,1.70,N,3.1,K,A*0F
$GPGGA,201855.000,3748.7898,N,12217.8341,W,1,06,1.5,1.8,M,-25.1,M,,0000*6A
$GPGSA,A,3,10,13,28,07,19,08,,,,,,,2.7,1.5,2.3*3C
$GPRMC,201855.000,A,3748.7898,N,12217.8341,W,1.27,111.97,120711,,,A*77
$GPVTG,111.97,T,,M,1.27,N,2.4,K,A*00
$GPGGA,201856.000,3748.7895,N,12217.8335,W,1,06,1.5,3.6,M,-25.1,M,,0000*6B
$GPGSA,A,3,10,13,28,07,19,08,,,,,,,2.7,1.5,2.3*3C
$GPRMC,201856.000,A,3748.7895,N,12217.8335,W,1.73,110.88,120711,,,A*74
$GPVTG,110.88,T,,M,1.73,N,3.2,K,A*09
$GPGGA,201857.000,3748.7889,N,12217.8327,W,1,06,1.5,5.1,M,-25.1,M,,0000*65
$GPGSA,A,3,10,13,28,07,19,08,,,,,,,2.7,1.5,2.3*3C
$GPGSV,3,1,12,08,64,349,30,07,59,058,32,28,57,245,23,13,28,148,33*77
$GPGSV,3,2,12,19,28,056,32,26,22,317,26,01,21,238,,05,21,276,23*71
$GPGSV,3,3,12,10,17,223,25,11,09,109,20,17,05,188,20,03,05,037,*78
$GPRMC,201857.000,A,3748.7889,N,12217.8327,W,2.55,125.27,120711,,,A*7F
$GPVTG,125.27,T,,M,2.55,N,4.7,K,A*0F
$GPGGA,201858.000,3748.7886,N,12217.8323,W,1,06,1.5,5.3,M,-25.1,M,,0000*63
$GPGSA,A,3,10,13,28,07,19,08,,,,,,,2.7,1.5,2.3*3C
$GPRMC,201858.000,A,3748.7886,N,12217.8323,W,2.65,126.39,120711,,,A*74
$GPVTG,126.39,T,,M,2.65,N,4.9,K,A*0E
$GPGGA,201859.000,3748.7882,N,12217.8319,W,1,06,1.5,5.1,M,-25.1,M,,0000*6D
$GPGSA,A,3,10,13,28,07,19,08,,,,,,,2.7,1.5,2.3*3C
$GPRMC,201859.000,A,3748.7882,N,12217.8319,W,1.97,127.18,120711,,,A*74
$GPVTG,127.18,T,,M,1.97,N,3.6,K,A*0A
$GPGGA,201900.000,3748.7879,N,12217.8314,W,1,06,1.5,5.7,M,-25.1,M,,0000*6F
$GPGSA,A,3,10,13,28,07,19,08,,,,,,,2.7,1.5,2.3*3C
$GPRMC,201900.000,A,3748.7879,N,12217.8314,W,1.90,130.68,120711,,,A*76
$GPVTG,130.68,T,,M,1.90,N,3.5,K,A*0F
$GPGGA,201901.000,3748.7873,N,12217.8307,W,1,06,1.5,5.8,M,-25.1,M,,0000*69
$GPGSA,A,3,10,13,28,07,19,08,,,,,,,2.7,1.5,2.3*3C
$GPRMC,201901.000,A,3748.7873,N,12217.8307,W,1.97,124.88,120711,,,A*73
$GPVTG,124.88,T,,M,1.97,N,3.6,K,A*00
$GPGGA,201902.000,3748.7871,N,12217.8302,W,1,06,1.5,5.6,M,-25.1,M,,0000*63
$GPGSA,A,3,10,13,28,07,19,08,,,,,,,2.7,1.5,2.3*3C
$GPGSV,3,1,12,08,64,349,30,07,59,058,33,28,57,245,23,13,28,148,25*71
$GPGSV,3,2,12,19,28,056,31,26,22,317,25,01,21,238,,05,21,276,23*71
$GPGSV,3,3,12,10,17,223,33,11,09,109,21,17,05,188,19,03,05,037,*74
$GPRMC,201902.000,A,3748.7871,N,12217.8302,W,2.04,123.49,120711,,,A*74
$GPGGA,201903.000,3748.7868,N,12217.8295,W,1,06,1.5,4.9,M,-25.1,M,,0000*6B
$GPGSA,A,3,10,13,28,07,19,08,,,,,,,2.7,1.5,2.3*3C
$GPRMC,201903.000,A,3748.7868,N,12217.8295,W,2.23,119.77,120711,,,A*73
$GPVTG,119.77,T,,M,2.23,N,4.1,K,A*02
$GPGGA,201904.000,3748.7864,N,12217.8289,W,1,06,1.5,5.5,M,-25.1,M,,0000*60
$GPGSA,A,3,10,13,28,07,19,08,,,,,,,2.7,1.5,2.3*3C
$GPRMC,201904.000,A,3748.7864,N,12217.8289,W,1.72,138.69,120711,,,A*7E
$GPVTG,138.69,T,,M,1.72,N,3.2,K,A*0D
$GPGGA,201905.000,3748.7863,N,12217.8286,W,1,06,1.5,6.0,M,-25.1,M,,0000*6F
$GPGSA,A,3,10,13,28,07,19,08,,,,,,,2.7,1.5,2.3*3C
$GPRMC,201905.000,A,3748.7863,N,12217.8286,W,1.16,133.37,120711,,,A*75
$GPVTG,133.37,T,,M,1.16,N,2.1,K,A*0D
$GPGGA,201906.000,3748.7858,N,12217.8285,W,1,06,1.5,7.2,M,-25.1,M,,0000*64
$GPGSA,A,3,10,13,28,07,19,08,,,,,,,2.7,1.5,2.3*3C
$GPRMC,201906.000,A,3748.7858,N,12217.8285,W,1.95,163.14,120711,,,A*72
$GPVTG,163.14,T,,M,1.95,N,3.6,K,A*04
$GPGGA,201907.000,3748.7857,N,12217.8293,W,1,06,1.5,9.2,M,-25.1,M,,0000*63
$GPGSA,A,3,10,13,28,07,19,08,,,,,,,2.7,1.5,2.3*3C
$GPGSV,3,1,12,08,64,349,27,07,59,058,29,28,57,245,23,13,28,148,25*7C
$GPGSV,3,2,12,19,28,056,23,26,22,317,23,01,21,238,,05,21,276,22*75
$GPGSV,3,3,12,10,17,223,24,11,09,109,24,17,05,188,16,03,05,037,*78
$GPRMC,201907.000,A,3748.7857,N,12217.8293,W,1.05,161.18,120711,,,A*7C
$GPVTG,161.18,T,,M,1.05,N,1.9,K,A*0E
$GPGGA,201908.000,3748.7857,N,12217.8288,W,1,05,2.3,9.1,M,-25.1,M,,0000*63
$GPGSA,A,3,10,13,28,07,08,,,,,,,,4.7,2.3,4.1*33
$GPRMC,201908.000,A,3748.7857,N,12217.8288,W,1.88,122.04,120711,,,A*76
$GPVTG,122.04,T,,M,1.88,N,3.5,K,A*0F
$GPGGA,201909.000,3748.7853,N,12217.8275,W,1,05,2.3,8.8,M,-25.1,M,,0000*6C
$GPGSA,A,3,10,13,28,07,08,,,,,,,,4.7,2.3,4.1*33
$GPRMC,201909.000,A,3748.7853,N,12217.8275,W,2.35,117.79,120711,,,A*78
$GPVTG,117.79,T,,M,2.35,N,4.4,K,A*00
$GPGGA,201910.000,3748.7846,N,12217.8266,W,1,06,1.5,8.9,M,-25.1,M,,0000*65
$GPGSA,A,3,10,13,28,07,19,08,,,,,,,2.7,1.5,2.3*3C
$GPRMC,201910.000,A,3748.7846,N,12217.8266,W,1.79,139.33,120711,,,A*7F
$GPVTG,139.33,T,,M,1.79,N,3.3,K,A*09
$GPGGA,201911.000,3748.7838,N,12217.8263,W,1,06,1.5,10.4,M,-25.1,M,,0000*5C
$GPGSA,A,3,10,13,28,07,19,08,,,,,,,2.7,1.5,2.3*3C
$GPRMC,201911.000,A,3748.7838,N,12217.8263,W,1.25,127.97,120711,,,A*7A
$GPVTG,127.97,T,,M,1.25,N,2.3,K,A*00
$GPGGA,201912.000,3748.7831,N,12217.8256,W,1,06,1.5,11.1,M,-25.1,M,,0000*54
$GPGSA,A,3,10,13,28,07,19,08,,,,,,,2.7,1.5,2.3*3C
$GPGSV,3,1,12,08,64,349,27,07,59,058,31,28,57,245,22,13,28,148,30*70
$GPGSV,3,2,12,19,28,056,25,26,22,317,23,01,21,238,,05,21,276,*73
$GPGSV,3,3,12,10,17,223,26,11,09,109,22,17,05,188,15,03,05,037,*7F
$GPRMC,201912.000,A,3748.7831,N,12217.8256,W,1.78,144.22,120711,,,A*75
$GPVTG,144.22,T,,M,1.78,N,3.3,K,A*02
$GPGGA,201913.000,3748.7820,N,12217.8250,W,1,06,1.5,13.4,M,-25.1,M,,0000*54
$GPGSA,A,3,10,13,28,07,19,08,,,,,,,2.7,1.5,2.3*3C
$GPRMC,201913.000,A,3748.7820,N,12217.8250,W,1.21,165.87,120711,,,A*72
$GPVTG,165.87,T,,M,1.21,N,2.2,K,A*02
$GPGGA,201914.000,3748.7818,N,12217.8242,W,1,06,1.5,12.2,M,-25.1,M,,0000*5C
$GPGSA,A,3,10,13,28,07,19,08,,,,,,,2.7,1.5,2.3*3C
$GPRMC,201914.000,A,3748.7818,N,12217.8242,W,1.61,149.33,120711,,,A*78
$GPVTG,149.33,T,,M,1.61,N,3.0,K,A*04
$GPGGA,201915.000,3748.7817,N,12217.8234,W,1,06,1.5,11.1,M,-25.1,M,,0000*53
$GPGSA,A,3,10,13,28,07,19,08,,,,,,,2.7,1.5,2.3*3C
$GPRMC,201915.000,A,3748.7817,N,12217.8234,W,1.54,119.98,120711,,,A*75
$GPVTG,119.98,T,,M,1.54,N,2.9,K,A*0E
$GPGGA,201916.000,3748.7814,N,12217.8224,W,1,06,1.5,10.5,M,-25.1,M,,0000*57
$GPGSA,A,3,10,13,28,07,19,08,,,,,,,2.7,1.5,2.3*3C
$GPRMC,201916.000,A,3748.7814,N,12217.8224,W,2.22,130.63,120711,,,A*79
$GPVTG,130.63,T,,M,2.22,N,4.1,K,A*0D
$GPGGA,201917.000,3748.7807,N,12217.8217,W,1,06,1.5,11.1,M,-25.1,M,,0000*51
$GPGSA,A,3,10,13,28,07,19,08,,,,,,,2.7,1.5,2.3*3C
$GPGSV,3,1,12,08,64,349,31,07,59,058,33,28,57,245,22,13,28,148,32*77
$GPGSV,3,2,12,19,28,056,27,26,22,317,26,01,21,238,,05,21,276,23*75
$GPGSV,3,3,12,10,17,223,27,11,09,109,27,17,05,188,23,03,05,037,*7E
$GPVTG,138.22,T,,M,2.13,N,4.0,K,A*03
$GPGGA,201918.000,3748.7801,N,12217.8214,W,1,05,2.3,11.3,M,-25.1,M,,0000*5F
$GPGSA,A,3,10,13,28,07,08,,,,,,,,4.7,2.3,4.1*33
$GPRMC,201918.000,A,3748.7801,N,12217.8214,W,2.15,157.44,120711,,,A*70
$GPVTG,157.44,T,,M,2.15,N,4.0,K,A*0C
$GPGGA,201919.000,3748.7797,N,12217.8206,W,1,06,1.5,11.4,M,-25.1,M,,0000*5C
$GPGSA,A,3,10,13,28,07,19,08,,,,,,,2.7,1.5,2.3*3C
$GPRMC,201919.000,A,3748.7797,N,12217.8206,W,1.67,138.59,120711,,,A*71
$GPVTG,138.59,T,,M,1.67,N,3.1,K,A*09
$GPGGA,201920.000,3748.7792,N,12217.8198,W,1,05,2.3,12.4,M,-25.1,M,,0000*52
$GPGSA,A,3,10,13,28,07,08,,,,,,,,4.7,2.3,4.1*33
$GPRMC,201920.000,A,3748.7792,N,12217.8198,W,1.80,118.28,120711,,,A*77
$GPVTG,118.28,T,,M,1.80,N,3.3,K,A*06
$GPGGA,201921.000,3748.7790,N,12217.8186,W,1,05,2.3,13.2,M,-25.1,M,,0000*59
$GPGSA,A,3,10,13,28,07,08,,,,,,,,4.7,2.3,4.1*33
$GPRMC,201921.000,A,3748.7790,N,12217.8186,W,1.76,114.38,120711,,,A*7F
$GPVTG,114.38,T,,M,1.76,N,3.3,K,A*02
$GPGGA,201922.000,3748.7787,N,12217.8178,W,1,03,1.9,13.7,M,-25.1,M,,0000*57
$GPGSA,A,2,10,13,07,,,,,,,,,,2.1,1.9,1.0*3D
$GPGSV,3,1,12,08,64,349,16,07,59,058,27,28,57,245,14,13,28,148,26*77
$GPGSV,3,2,12,19,28,056,,26,22,317,18,01,21,238,,05,21,276,20*7E
$GPGSV,3,3,12,10,17,223,19,11,09,109,22,17,05,188,17,03,05,037,*71
$GPRMC,201922.000,A,3748.7787,N,12217.8178,W,2.78,117.61,120711,,,A*79
$GPVTG,117.61,T,,M,2.78,N,5.1,K,N*0B
$GPGGA,201923.000,3748.7785,N,12217.8168,W,1,04,1.5,14.3,M,-25.1,M,,0000*5D
$GPGSA,A,3,10,13,07,08,,,,,,,,,1.8,1.5,1.0*32
$GPRMC,201923.000,A,3748.7785,N,12217.8168,W,3.58,118.50,120711,,,A*75
$GPVTG,118.50,T,,M,3.58,N,6.6,K,A*0E
$GPGGA,201924.000,3748.7775,N,12217.8151,W,1,03,1.9,15.0,M,-25.1,M,,0000*56
$GPGSA,A,2,10,13,07,,,,,,,,,,2.1,1.9,1.0*3D
$GPRMC,201924.000,A,3748.7775,N,12217.8151,W,5.07,134.55,120711,,,A*70
$GPVTG,134.55,T,,M,5.07,N,9.4,K,N*0B
$GPGGA,201925.000,3748.7764,N,12217.8144,W,1,04,1.5,14.9,M,-25.1,M,,0000*50
$GPGSA,A,3,10,13,07,08,,,,,,,,,1.8,1.5,1.0*32
$GPRMC,201925.000,A,3748.7764,N,12217.8144,W,4.47,142.35,120711,,,A*77
$GPVTG,142.35,T,,M,4.47,N,8.3,K,A*00
$GPGGA,201926.000,3748.7758,N,12217.8139,W,1,04,1.5,14.8,M,-25.1,M,,0000*57
$GPGSA,A,3,10,13,07,08,,,,,,,,,1.8,1.5,1.0*32
$GPRMC,201926.000,A,3748.7758,N,12217.8139,W,2.05,137.95,120711,,,A*79
$GPVTG,137.95,T,,M,2.05,N,3.8,K,A*08
$GPGGA,201927.000,3748.7754,N,12217.8141,W,1,04,1.5,14.8,M,-25.1,M,,0000*55
$GPGSA,A,3,10,13,07,08,,,,,,,,,1.8,1.5,1.0*32
$GPGSV,3,1,12,08,64,349,20,07,59,058,31,28,57,245,,13,28,148,31*76
$GPGSV,3,2,12,19,28,056,,26,22,317,,01,21,238,,05,21,276,*75
$GPGSV,3,3,12,10,17,223,26,11,09,109,30,17,05,188,13,03,05,037,*7A
$GPRMC,201927.000,A,3748.7754,N,12217.8141,W,2.54,158.67,120711,,,A*7B
$GPVTG,158.67,T,,M,2.54,N,4.7,K,A*00
$GPGGA,201928.000,3748.7747,N,12217.8139,W,1,04,1.5,14.4,M,-25.1,M,,0000*5B
$GPGSA,A,3,10,13,07,08,,,,,,,,,1.8,1.5,1.0*32
$GPRMC,201928.000,A,3748.7747,N,12217.8139,W,2.55,144.90,120711,,,A*7D
$GPVTG,144.90,T,,M,2.55,N,4.7,K,A*04
$GPGGA,201929.000,3748.7744,N,12217.8133,W,1,05,1.6,14.1,M,-25.1,M,,0000*54
$GPGSA,A,3,10,13,19,07,08,,,,,,,,3.0,1.6,2.6*36
$GPRMC,201929.000,A,3748.7744,N,12217.8133,W,2.40,108.29,120711,,,A*7B
$GPVTG,108.29,T,,M,2.40,N,4.4,K,A*09
$GPGGA,201930.000,3748.7743,N,12217.8123,W,1,05,1.6,15.2,M,-25.1,M,,0000*58
$GPGSA,A,3,10,13,19,07,08,,,,,,,,3.0,1.6,2.6*36
$GPRMC,201930.000,A,3748.7743,N,12217.8123,W,1.73,116.95,120711,,,A*7E
$GPVTG,116.95,T,,M,1.73,N,3.2,K,A*03
$GPGGA,201931.000,3748.7751,N,12217.8113,W,1,06,1.5,12.0,M,-25.1,M,,0000*5C
$GPGSA,A,3,10,13,19,07,08,28,,,,,,,2.7,1.5,2.3*3C
$GPRMC,201931.000,A,3748.7751,N,12217.8113,W,2.09,118.38,120711,,,A*78
$GPVTG,118.38,T,,M,2.09,N,3.9,K,A*0F
$GPGGA,201932.000,3748.7751,N,12217.8102,W,1,06,1.5,10.3,M,-25.1,M,,0000*5E
$GPGSA,A,3,10,13,19,07,08,28,,,,,,,2.7,1.5,2.3*3C
$GPGSV,3,1,12,08,64,349,32,07,59,058,33,28,57,245,22,13,28,148,29*7E
$GPGSV,3,2,12,19,28,056,28,26,22,317,24,01,21,238,,05,21,276,24*7F
$GPGSV,3,3,12,10,17,223,25,11,09,109,33,17,05,188,19,03,05,037,*70
$GPRMC,201932.000,A,3748.7751,N,12217.8102,W,2.28,116.91,120711,,,A*75
$GPGGA,201933.000,3748.7750,N,12217.8093,W,1,06,1.5,10.1,M,-25.1,M,,0000*55
$GPGSA,A,3,10,13,19,07,08,28,,,,,,,2.7,1.5,2.3*3C
$GPRMC,201933.000,A,3748.7750,N,12217.8093,W,1.76,105.04,120711,,,A*7A
$GPVTG,105.04,T,,M,1.76,N,3.3,K,A*0D
$GPGGA,201934.000,3748.7749,N,12217.8090,W,1,06,1.5,10.9,M,-25.1,M,,0000*51
$GPGSA,A,3,10,13,19,07,08,28,,,,,,,2.7,1.5,2.3*3C
$GPRMC,201934.000,A,3748.7749,N,12217.8090,W,1.82,114.06,120711,,,A*7F
$GPVTG,114.06,T,,M,1.82,N,3.4,K,A*03
$GPGGA,201935.000,3748.7744,N,12217.8081,W,1,06,1.5,11.2,M,-25.1,M,,0000*57
$GPGSA,A,3,10,13,19,07,08,28,,,,,,,2.7,1.5,2.3*3C
$GPRMC,201935.000,A,3748.7744,N,12217.8081,W,2.16,120.44,120711,,,A*7C
$GPVTG,120.44,T,,M,2.16,N,4.0,K,A*0F
$GPGGA,201936.000,3748.7740,N,12217.8076,W,1,06,1.5,11.3,M,-25.1,M,,0000*59
$GPGSA,A,3,10,13,19,07,08,28,,,,,,,2.7,1.5,2.3*3C
$GPRMC,201936.000,A,3748.7740,N,12217.8076,W,1.70,121.54,120711,,,A*70
$GPVTG,121.54,T,,M,1.70,N,3.1,K,A*0A
$GPGGA,201937.000,3748.7738,N,12217.8067,W,1,06,1.5,11.4,M,-25.1,M,,0000*50
$GPGSA,A,3,10,13,19,07,08,28,,,,,,,2.7,1.5,2.3*3C
$GPGSV,3,1,12,08,64,349,30,07,59,058,34,28,57,245,23,13,28,148,33*71
$GPGSV,3,2,12,19,28,056,31,26,22,317,23,01,21,238,,05,21,276,24*70
$GPGSV,3,3,12,10,17,223,26,11,09,109,32,17,05,188,18,03,05,037,*73
$GPRMC,201937.000,A,3748.7738,N,12217.8067,W,3.26,141.41,120711,,,A*7D
$GPVTG,141.41,T,,M,3.26,N,6.0,K,A*0D
$GPGGA,201938.000,3748.7735,N,12217.8060,W,1,06,1.5,11.2,M,-25.1,M,,0000*53
$GPGSA,A,3,10,13,19,07,08,28,,,,,,,2.7,1.5,2.3*3C
$GPRMC,201938.000,A,3748.7735,N,12217.8060,W,2.36,123.54,120711,,,A*78
$GPVTG,123.54,T,,M,2.36,N,4.4,K,A*0B
$GPGGA,201939.000,3748.7732,N,12217.8051,W,1,06,1.5,10.7,M,-25.1,M,,0000*53
$GPGSA,A,3,10,13,19,07,08,28,,,,,,,2.7,1.5,2.3*3C
$GPRMC,201939.000,A,3748.7732,N,12217.8051,W,2.66,111.35,120711,,,A*7F
$GPVTG,111.35,T,,M,2.66,N,4.9,K,A*05
$GPGGA,201940.000,3748.7730,N,12217.8044,W,1,06,1.5,9.9,M,-25.1,M,,0000*6D
$GPGSA,A,3,10,13,19,07,08,28,,,,,,,2.7,1.5,2.3*3C
$GPRMC,201940.000,A,3748.7730,N,12217.8044,W,2.27,122.88,120711,,,A*74
$GPVTG,122.88,T,,M,2.27,N,4.2,K,A*0D
$GPGGA,201941.000,3748.7727,N,12217.8041,W,1,06,1.5,9.9,M,-25.1,M,,0000*6F
$GPGSA,A,3,10,13,19,07,08,28,,,,,,,2.7,1.5,2.3*3C
$GPRMC,201941.000,A,3748.7727,N,12217.8041,W,1.98,124.97,120711,,,A*79
$GPVTG,124.97,T,,M,1.98,N,3.7,K,A*00
$GPGGA,201942.000,3748.7724,N,12217.8035,W,1,06,1.5,10.0,M,-25.1,M,,0000*5D
$GPGSA,A,3,10,13,19,07,08,28,,,,,,,2.7,1.5,2.3*3C
$GPGSV,3,1,12,08,64,349,28,07,59,058,33,28,57,245,22,13,28,148,31*7C
$GPGSV,3,2,12,19,28,056,33,26,22,317,23,01,21,238,,05,21,276,24*72
$GPGSV,3,3,12,10,17,223,25,11,09,109,23,17,05,188,17,03,05,037,*7F
$GPRMC,201942.000,A,3748.7724,N,12217.8035,W,1.20,123.05,120711,,,A*75
$GPVTG,123.05,T,,M,1.20,N,2.2,K,A*0B
$GPGGA,201943.000,3748.7722,N,12217.8032,W,1,06,1.5,10.1,M,-25.1,M,,0000*5C
$GPGSA,A,3,10,13,19,07,08,28,,,,,,,2.7,1.5,2.3*3C
$GPRMC,201943.000,A,3748.7722,N,12217.8032,W,1.54,120.26,120711,,,A*74
$GPVTG,120.26,T,,M,1.54,N,2.8,K,A*00
$GPGGA,201944.000,3748.7722,N,12217.8029,W,1,06,1.5,9.6,M,-25.1,M,,0000*6E
$GPGSA,A,3,10,13,19,07,08,28,,,,,,,2.7,1.5,2.3*3C
$GPRMC,201944.000,A,3748.7722,N,12217.8029,W,1.87,124.98,120711,,,A*76
$GPVTG,124.98,T,,M,1.87,N,3.5,K,A*03
$GPGGA,201945.000,3748.7721,N,12217.8024,W,1,06,1.5,9.6,M,-25.1,M,,0000*61
$GPGSA,A,3,10,13,19,07,08,28,,,,,,,2.7,1.5,2.3*3C
$GPRMC,201945.000,A,3748.7721,N,12217.8024,W,2.08,112.78,120711,,,A*76
$GPVTG,112.78,T,,M,2.08,N,3.8,K,A*01
$GPGGA,201946.000,3748.7719,N,12217.8017,W,1,06,1.5,9.5,M,-25.1,M,,0000*6A
$GPGSA,A,3,10,13,19,07,08,28,,,,,,,2.7,1.5,2.3*3C
$GPRMC,201946.000,A,3748.7719,N,12217.8017,W,2.16,101.70,120711,,,A*7B
$GPVTG,101.70,T,,M,2.16,N,4.0,K,A*0B
$GPGGA,201947.000,3748.7718,N,12217.8011,W,1,06,1.5,8.9,M,-25.1,M,,0000*61
$GPGSA,A,3,10,13,19,07,08,28,,,,,,,2.7,1.5,2.3*3C
$GPGSV,3,1,12,08,64,349,29,07,59,058,34,28,57,245,21,13,28,148,32*7A
$GPGSV,3,2,12,19,28,056,25,26,22,317,25,01,21,238,,05,21,276,25*72
$GPGSV,3,3,12,10,17,223,28,11,09,109,27,17,05,188,,03,05,037,*70
$GPVTG,101.42,T,,M,1.74,N,3.2,K,A*08
$GPGGA,201948.000,3748.7710,N,12217.8006,W,1,06,1.5,9.9,M,-25.1,M,,0000*61
$GPGSA,A,3,10,13,19,07,08,28,,,,,,,2.7,1.5,2.3*3C
$GPRMC,201948.000,A,3748.7710,N,12217.8006,W,1.79,115.10,120711,,,A*75
$GPVTG,115.10,T,,M,1.79,N,3.3,K,A*06
$GPGGA,201949.000,3748.7707,N,12217.8003,W,1,06,1.5,9.3,M,-25.1,M,,0000*69
$GPGSA,A,3,10,13,19,07,08,28,,,,,,,2.7,1.5,2.3*3C
$GPRMC,201949.000,A,3748.7707,N,12217.8003,W,1.85,120.77,120711,,,A*73
$GPVTG,120.77,T,,M,1.85,N,3.4,K,A*05
$GPGGA,201950.000,3748.7702,N,12217.7996,W,1,06,1.5,8.6,M,-25.1,M,,0000*6A
$GPGSA,A,3,10,13,19,07,08,28,,,,,,,2.7,1.5,2.3*3C
$GPRMC,201950.000,A,3748.7702,N,12217.7996,W,1.99,117.64,120711,,,A*7F
$GPVTG,117.64,T,,M,1.99,N,3.7,K,A*0D
$GPGGA,201951.000,3748.7698,N,12217.7993,W,1,06,1.5,8.2,M,-25.1,M,,0000*68
$GPGSA,A,3,10,13,19,07,08,28,,,,,,,2.7,1.5,2.3*3C
$GPRMC,201951.000,A,3748.7698,N,12217.7993,W,1.58,117.14,120711,,,A*73
$GPVTG,117.14,T,,M,1.58,N,2.9,K,A*08
$GPGGA,201952.000,3748.7693,N,12217.7985,W,1,06,1.5,8.5,M,-25.1,M,,0000*60
$GPGSA,A,3,10,13,19,07,08,28,,,,,,,2.7,1.5,2.3*3C
$GPGSV,3,1,12,08,64,349,31,07,59,058,34,28,57,245,21,13,28,148,31*70
$GPGSV,3,2,12,19,28,056,33,26,22,317,30,01,21,238,,05,21,276,30*75
$GPGSV,3,3,12,10,17,223,27,11,09,109,20,17,05,188,,03,05,037,*78
$GPRMC,201952.000,A,3748.7693,N,12217.7985,W,1.93,116.04,120711,,,A*7B
$GPVTG,116.04,T,,M,1.93,N,3.6,K,A*01
$GPGGA,201953.000,3748.7694,N,12217.7982,W,1,06,1.5,7.3,M,-25.1,M,,0000*68
$GPGSA,A,3,10,13,19,07,08,28,,,,,,,2.7,1.5,2.3*3C
$GPRMC,201953.000,A,3748.7694,N,12217.7982,W,2.02,105.46,120711,,,A*75
$GPVTG,105.46,T,,M,2.02,N,3.7,K,A*0F
$GPGGA,201954.000,3748.7695,N,12217.7972,W,1,06,1.5,5.5,M,-25.1,M,,0000*65
$GPGSA,A,3,10,13,19,07,08,28,,,,,,,2.7,1.5,2.3*3C
$GPRMC,201954.000,A,3748.7695,N,12217.7972,W,1.16,94.22,120711,,,A*41
$GPVTG,94.22,T,,M,1.16,N,2.2,K,A*36
$GPGGA,201955.000,3748.7689,N,12217.7964,W,1,06,1.5,6.0,M,-25.1,M,,0000*68
$GPGSA,A,3,10,13,19,07,08,28,,,,,,,2.7,1.5,2.3*3C
$GPRMC,201955.000,A,3748.7689,N,12217.7964,W,1.57,135.42,120711,,,A*73
$GPVTG,135.42,T,,M,1.57,N,2.9,K,A*04
$GPGGA,201956.000,3748.7680,N,12217.7955,W,1,06,1.5,6.6,M,-25.1,M,,0000*66
$GPGSA,A,3,10,13,19,07,08,28,,,,,,,2.7,1.5,2.3*3C
$GPRMC,201956.000,A,3748.7680,N,12217.7955,W,2.09,130.74,120711,,,A*73
$GPVTG,130.74,T,,M,2.09,N,3.9,K,A*0D
$GPGGA,201957.000,3748.7675,N,12217.7948,W,1,06,1.5,7.5,M,-25.1,M,,0000*63
$GPGSA,A,3,10,13,19,07,08,28,,,,,,,2.7,1.5,2.3*3C
$GPGSV,3,1,12,08,64,349,30,07,59,058,29,28,57,245,23,13,28,148,37*79
$GPGSV,3,2,12,19,28,056,26,26,22,317,22,01,21,238,,05,21,276,26*75
$GPGSV,3,3,12,10,17,223,24,11,09,109,23,17,05,188,,03,05,037,*78
$GPRMC,201957.000,A,3748.7675,N,12217.7948,W,2.45,124.36,120711,,,A*7F
$GPVTG,124.36,T,,M,2.45,N,4.5,K,A*0D
$GPGGA,201958.000,3748.7669,N,12217.7939,W,1,06,1.5,7.4,M,-25.1,M,,0000*66
$GPGSA,A,3,10,13,19,07,08,28,,,,,,,2.7,1.5,2.3*3C
$GPRMC,201958.000,A,3748.7669,N,12217.7939,W,2.74,117.87,120711,,,A*73
$GPVTG,117.87,T,,M,2.74,N,5.1,K,A*00
$GPGGA,201959.000,3748.7667,N,12217.7930,W,1,06,1.5,6.6,M,-25.1,M,,0000*63
$GPGSA,A,3,10,13,19,07,08,28,,,,,,,2.7,1.5,2.2*3D
$GPRMC,201959.000,A,3748.7667,N,12217.7930,W,2.61,113.57,120711,,,A*78
$GPVTG,113.57,T,,M,2.61,N,4.8,K,A*05
$GPGGA,202000.000,3748.7666,N,12217.7927,W,1,06,1.5,6.1,M,-25.1,M,,0000*65
$GPGSA,A,3,10,13,19,07,08,28,,,,,,,2.7,1.5,2.2*3D
$GPRMC,202000.000,A,3748.7666,N,12217.7927,W,1.78,120.43,120711,,,A*77
$GPVTG,120.43,T,,M,1.78,N,3.3,K,A*07
$GPGGA,202001.000,3748.7665,N,12217.7922,W,1,06,1.5,5.0,M,-25.1,M,,0000*60
$GPGSA,A,3,10,13,19,07,08,28,,,,,,,2.7,1.5,2.2*3D
$GPRMC,202001.000,A,3748.7665,N,12217.7922,W,2.00,117.84,120711,,,A*73
$GPVTG,117.84,T,,M,2.00,N,3.7,K,A*00
$GPGGA,202002.000,3748.7663,N,12217.7915,W,1,06,1.5,5.3,M,-25.1,M,,0000*62
$GPGSA,A,3,10,13,19,07,08,28,,,,,,,2.7,1.5,2.2*3D
$GPGSV,3,1,12,08,64,349,23,07,59,058,32,28,57,245,23,13,28,148,36*70
$GPGSV,3,2,12,19,28,056,30,26,22,317,22,01,21,238,,05,21,276,25*71
$GPGSV,3,3,12,10,17,223,24,11,09,109,23,17,05,188,,03,05,037,*78
$GPVTG,117.94,T,,M,1.31,N,2.4,K,A*02
$GPGGA,202003.000,3748.7662,N,12217.7913,W,1,06,1.5,5.4,M,-25.1,M,,0000*63
$GPGSA,A,3,10,13,19,07,08,28,,,,,,,2.7,1.5,2.2*3D
$GPRMC,202003.000,A,3748.7662,N,12217.7913,W,2.04,101.56,120711,,,A*78
$GPVTG,101.56,T,,M,2.04,N,3.8,K,A*03
$GPGGA,202004.000,3748.7658,N,12217.7901,W,1,06,1.5,5.4,M,-25.1,M,,0000*6E
$GPGSA,A,3,10,13,19,07,08,28,,,,,,,2.7,1.5,2.2*3D
$GPRMC,202004.000,A,3748.7658,N,12217.7901,W,2.30,114.94,120711,,,A*78
$GPVTG,114.94,T,,M,2.30,N,4.3,K,A*02
$GPGGA,202005.000,3748.7656,N,12217.7893,W,1,06,1.5,5.6,M,-25.1,M,,0000*69
$GPGSA,A,3,10,13,19,07,08,28,,,,,,,2.7,1.5,2.2*3D
$GPRMC,202005.000,A,3748.7656,N,12217.7893,W,2.15,124.63,120711,,,A*71
$GPVTG,124.63,T,,M,2.15,N,4.0,K,A*0D
$GPGGA,202006.000,3748.7654,N,12217.7885,W,1,06,1.5,6.5,M,-25.1,M,,0000*6F
$GPGSA,A,3,10,13,19,07,08,28,,,,,,,2.7,1.5,2.2*3D
$GPRMC,202006.000,A,3748.7654,N,12217.7885,W,2.53,110.84,120711,,,A*7B
$GPVTG,110.84,T,,M,2.53,N,4.7,K,A*06
$GPGGA,202007.000,3748.7653,N,12217.7877,W,1,06,1.5,5.9,M,-25.1,M,,0000*6B
$GPGSA,A,3,10,13,19,07,08,28,,,,,,,2.7,1.5,2.2*3D
$GPGSV,3,1,12,08,64,349,31,07,59,058,34,28,57,245,25,13,28,148,34*71
$GPGSV,3,2,12,19,28,056,35,26,22,317,22,01,21,238,,05,21,276,23*72
$GPGSV,3,3,12,10,17,223,28,11,09,109,23,17,05,188,22,03,05,037,*74
$GPRMC,202007.000,A,3748.7653,N,12217.7877,W,2.62,115.69,120711,,,A*74
$GPVTG,115.69,T,,M,2.62,N,4.9,K,A*0C
$GPGGA,202008.000,3748.7652,N,12217.7869,W,1,06,1.5,5.6,M,-25.1,M,,0000*65
$GPGSA,A,3,10,13,19,07,08,28,,,,,,,2.7,1.5,2.2*3D
$GPRMC,202008.000,A,3748.7652,N,12217.7869,W,1.67,105.44,120711,,,A*7D
$GPVTG,105.44,T,,M,1.67,N,3.1,K,A*0B
$GPGGA,202009.000,3748.7651,N,12217.7866,W,1,06,1.5,4.4,M,-25.1,M,,0000*6B
$GPGSA,A,3,10,13,19,07,08,28,,,,,,,2.7,1.5,2.2*3D
$GPRMC,202009.000,A,3748.7651,N,12217.7866,W,1.83,127.60,120711,,,A*7C
$GPVTG,127.60,T,,M,1.83,N,3.4,K,A*02
$GPGGA,202010.000,3748.7650,N,12217.7862,W,1,05,1.6,4.0,M,-25.1,M,,0000*62
$GPGSA,A,3,10,13,19,07,08,,,,,,,,3.0,1.6,2.5*35
$GPRMC,202010.000,A,3748.7650,N,12217.7862,W,1.66,124.18,120711,,,A*76
$GPVTG,124.18,T,,M,1.66,N,3.1,K,A*00
$GPGGA,202011.000,3748.7646,N,12217.7853,W,1,06,1.5,3.8,M,-25.1,M,,0000*69
$GPGSA,A,3,10,13,19,07,08,28,,,,,,,2.7,1.5,2.2*3D
$GPRMC,202011.000,A,3748.7646,N,12217.7853,W,3.31,122.59,120711,,,A*71
$GPVTG,122.59,T,,M,3.31,N,6.1,K,A*06
$GPGGA,202012.000,3748.7639,N,12217.7842,W,1,06,1.5,4.4,M,-25.1,M,,0000*69
$GPGSA,A,3,10,13,19,07,08,28,,,,,,,2.7,1.5,2.2*3D
$GPGSV,3,1,12,08,64,349,25,07,59,058,24,28,57,245,22,13,28,148,33*75
$GPGSV,3,2,12,19,28,056,36,26,22,317,23,01,21,238,,05,21,276,23*70
$GPGSV,3,3,12,10,17,223,27,11,09,109,19,17,05,188,21,03,05,037,*71
$GPRMC,202012.000,A,3748.7639,N,12217.7842,W,2.80,121.21,120711,,,A*7D
$GPVTG,121.21,T,,M,2.80,N,5.2,K,A*01
$GPGGA,202013.000,3748.7637,N,12217.7835,W,1,05,1.6,3.4,M,-25.1,M,,0000*61
$GPGSA,A,3,10,13,19,07,28,,,,,,,,2.8,1.6,2.3*38
$GPRMC,202013.000,A,3748.7637,N,12217.7835,W,2.09,130.41,120711,,,A*75
$GPVTG,130.41,T,,M,2.09,N,3.9,K,A*0B
$GPGGA,202014.000,3748.7630,N,12217.7826,W,1,05,1.6,4.0,M,-25.1,M,,0000*60
$GPGSA,A,3,10,13,19,07,28,,,,,,,,2.8,1.6,2.3*38
$GPRMC,202014.000,A,3748.7630,N,12217.7826,W,2.55,128.22,120711,,,A*72
$GPVTG,128.22,T,,M,2.55,N,4.7,K,A*07
$GPGGA,202015.000,3748.7627,N,12217.7821,W,1,05,1.6,4.5,M,-25.1,M,,0000*65
$GPGSA,A,3,10,13,19,07,28,,,,,,,,2.8,1.6,2.3*38
$GPRMC,202015.000,A,3748.7627,N,12217.7821,W,1.21,106.81,120711,,,A*77
$GPVTG,106.81,T,,M,1.21,N,2.2,K,A*01
$GPGGA,202016.000,3748.7623,N,12217.7818,W,1,04,7.8,5.9,M,-25.1,M,,0000*6C
$GPGSA,A,3,10,19,07,28,,,,,,,,,8.5,7.8,3.3*34
$GPRMC,202016.000,A,3748.7623,N,12217.7818,W,1.28,106.42,120711,,,A*7C
$GPVTG,106.42,T,,M,1.28,N,2.4,K,A*01
$GPGGA,202017.000,3748.7620,N,12217.7815,W,1,03,5.5,6.7,M,-25.1,M,,0000*66
$GPGSA,A,2,10,07,28,,,,,,,,,,5.6,5.5,1.0*3D
$GPGSV,3,1,12,08,64,349,,07,59,058,22,28,57,245,20,13,28,148,*76
$GPGSV,3,2,12,19,28,056,17,26,22,317,24,01,21,238,,05,21,276,*75
$GPGSV,3,3,12,10,17,223,20,11,09,109,16,17,05,188,21,03,05,037,*79
$GPVTG,125.60,T,,M,1.72,N,3.2,K,A*08
$GPGGA,202018.000,3748.7615,N,12217.7811,W,1,04,7.8,7.5,M,-25.1,M,,0000*60
$GPGSA,A,3,10,19,07,28,,,,,,,,,8.4,7.8,3.3*35
$GPRMC,202018.000,A,3748.7615,N,12217.7811,W,1.88,152.18,120711,,,A*7A
$GPVTG,152.18,T,,M,1.88,N,3.5,K,A*05
$GPGGA,202019.000,3748.7613,N,12217.7804,W,1,05,3.4,6.4,M,-25.1,M,,0000*6A
$GPGSA,A,3,10,08,19,07,28,,,,,,,,4.4,3.4,2.7*3C
$GPRMC,202019.000,A,3748.7613,N,12217.7804,W,2.36,133.75,120711,,,A*73
$GPVTG,133.75,T,,M,2.36,N,4.4,K,A*09
$GPGGA,202020.000,3748.7605,N,12217.7793,W,1,06,1.5,7.2,M,-25.1,M,,0000*61
$GPGSA,A,3,10,08,19,07,13,28,,,,,,,2.7,1.5,2.2*3D
$GPRMC,202020.000,A,3748.7605,N,12217.7793,W,2.62,129.89,120711,,,A*76
$GPVTG,129.89,T,,M,2.62,N,4.8,K,A*0C
$GPGGA,202021.000,3748.7600,N,12217.7782,W,1,06,1.5,7.6,M,-25.1,M,,0000*61
$GPGSA,A,3,10,08,19,07,13,28,,,,,,,2.7,1.5,2.2*3D
$GPRMC,202021.000,A,3748.7600,N,12217.7782,W,2.60,139.25,120711,,,A*77
$GPVTG,139.25,T,,M,2.60,N,4.8,K,A*09
$GPGGA,202022.000,3748.7595,N,12217.7777,W,1,06,1.5,8.2,M,-25.1,M,,0000*6C
$GPGSA,A,3,10,08,19,07,13,28,,,,,,,2.7,1.5,2.2*3D
$GPGSV,3,1,12,08,64,349,31,07,59,058,25,28,57,245,26,13,28,148,31*77
$GPGSV,3,2,12,19,28,056,20,26,22,317,31,01,21,238,,05,21,276,25*72
$GPGSV,3,3,12,10,17,223,23,11,09,109,16,17,05,188,22,03,05,037,*79
$GPRMC,202022.000,A,3748.7595,N,12217.7777,W,2.55,138.30,120711,,,A*72
$GPVTG,138.30,T,,M,2.55,N,4.7,K,A*05
$GPGGA,202023.000,3748.7597,N,12217.7779,W,1,06,1.5,8.3,M,-25.1,M,,0000*60
$GPGSA,A,3,10,08,19,07,13,28,,,,,,,2.7,1.5,2.2*3D
$GPRMC,202023.000,A,3748.7597,N,12217.7779,W,2.93,138.40,120711,,,A*72
$GPVTG,138.40,T,,M,2.93,N,5.4,K,A*0A
$GPGGA,202024.000,3748.7598,N,12217.7780,W,1,06,1.5,8.1,M,-25.1,M,,0000*6C
$GPGSA,A,3,10,08,19,07,13,28,,,,,,,2.7,1.5,2.2*3D
$GPRMC,202024.000,A,3748.7598,N,12217.7780,W,2.05,133.67,120711,,,A*7D
$GPVTG,133.67,T,,M,2.05,N,3.8,K,A*01
$GPGGA,202025.000,3748.7595,N,12217.7775,W,1,06,1.5,7.9,M,-25.1,M,,0000*6D
$GPGSA,A,3,10,08,19,07,13,28,,,,,,,2.7,1.5,2.2*3D
$GPRMC,202025.000,A,3748.7595,N,12217.7775,W,2.42,123.18,120711,,,A*71
$GPVTG,123.18,T,,M,2.42,N,4.5,K,A*01
$GPGGA,202026.000,3748.7586,N,12217.7765,W,1,06,1.5,8.6,M,-25.1,M,,0000*6D
$GPGSA,A,3,10,08,19,07,13,28,,,,,,,2.7,1.5,2.2*3D
$GPRMC,202026.000,A,3748.7586,N,12217.7765,W,2.46,118.61,120711,,,A*73
$GPVTG,118.61,T,,M,2.46,N,4.5,K,A*03
$GPGGA,202027.000,3748.7577,N,12217.7755,W,1,06,1.5,9.3,M,-25.1,M,,0000*65
$GPGSA,A,3,10,08,19,07,13,28,,,,,,,2.7,1.5,2.2*3D
$GPGSV,3,1,12,08,64,349,25,07,59,058,24,28,57,245,20,13,28,148,37*73
$GPGSV,3,2,12,19,28,056,19,26,22,317,19,01,21,238,,05,21,276,22*75
$GPGSV,3,3,12,10,17,223,19,11,09,109,17,17,05,188,23,03,05,037,*70
$GPRMC,202027.000,A,3748.7577,N,12217.7755,W,3.23,116.87,120711,,,A*7B
$GPVTG,116.87,T,,M,3.23,N,6.0,K,A*00
$GPGGA,202028.000,3748.7562,N,12217.7737,W,1,06,1.5,10.9,M,-25.1,M,,0000*58
$GPGSA,A,3,10,08,19,07,13,28,,,,,,,2.7,1.5,2.2*3D
$GPRMC,202028.000,A,3748.7562,N,12217.7737,W,3.37,124.54,120711,,,A*7E
$GPVTG,124.54,T,,M,3.37,N,6.2,K,A*08
$GPGGA,202029.000,3748.7554,N,12217.7728,W,1,06,1.5,11.1,M,-25.1,M,,0000*5B
$GPGSA,A,3,10,08,19,07,13,28,,,,,,,2.7,1.5,2.2*3D
$GPRMC,202029.000,A,3748.7554,N,12217.7728,W,2.49,130.45,120711,,,A*79
$GPVTG,130.45,T,,M,2.49,N,4.6,K,A*03
$GPGGA,202030.000,3748.7546,N,12217.7725,W,1,06,1.5,12.4,M,-25.1,M,,0000*5B
$GPGSA,A,3,10,08,19,07,13,28,,,,,,,2.7,1.5,2.2*3D
$GPRMC,202030.000,A,3748.7546,N,12217.7725,W,2.58,134.75,120711,,,A*78
$GPVTG,134.75,T,,M,2.58,N,4.8,K,A*0A
$GPGGA,202031.000,3748.7537,N,12217.7722,W,1,06,1.5,13.3,M,-25.1,M,,0000*5D
$GPGSA,A,3,10,08,19,07,13,28,,,,,,,2.7,1.5,2.2*3D
$GPRMC,202031.000,A,3748.7537,N,12217.7722,W,1.93,125.28,120711,,,A*74
$GPVTG,125.28,T,,M,1.93,N,3.6,K,A*0F
$GPGGA,202032.000,3748.7538,N,12217.7723,W,1,06,1.5,12.1,M,-25.1,M,,0000*53
$GPGSA,A,3,10,08,19,07,13,28,,,,,,,2.7,1.5,2.2*3D
$GPGSV,3,1,12,08,64,349,30,07,59,058,30,28,57,245,23,13,28,148,31*77
$GPGSV,3,2,12,19,28,056,21,26,22,317,18,01,21,238,,05,21,276,24*79
$GPGSV,3,3,12,10,17,223,25,11,09,109,17,17,05,188,19,03,05,037,*76
$GPVTG,124.38,T,,M,2.17,N,4.0,K,A*01
$GPGGA,202033.000,3748.7535,N,12217.7717,W,1,05,2.3,10.4,M,-25.1,M,,0000*59
$GPGSA,A,3,10,08,07,13,28,,,,,,,,4.7,2.3,4.1*33
$GPRMC,202033.000,A,3748.7535,N,12217.7717,W,1.61,129.61,120711,,,A*7E
$GPVTG,129.61,T,,M,1.61,N,3.0,K,A*05
$GPGGA,202034.000,3748.7531,N,12217.7711,W,1,05,2.3,9.6,M,-25.1,M,,0000*66
$GPGSA,A,3,10,08,07,13,28,,,,,,,,4.7,2.3,4.1*33
$GPRMC,202034.000,A,3748.7531,N,12217.7711,W,2.45,123.66,120711,,,A*73
$GPVTG,123.66,T,,M,2.45,N,4.5,K,A*0F
$GPGGA,202035.000,3748.7533,N,12217.7709,W,1,05,2.3,9.6,M,-25.1,M,,0000*6C
$GPGSA,A,3,10,08,07,13,28,,,,,,,,4.7,2.3,4.1*33
$GPRMC,202035.000,A,3748.7533,N,12217.7709,W,1.83,110.11,120711,,,A*70
$GPVTG,110.11,T,,M,1.83,N,3.4,K,A*00
$GPGGA,202036.000,3748.7521,N,12217.7703,W,1,04,1.6,11.6,M,-25.1,M,,0000*58
$GPGSA,A,3,10,19,13,28,,,,,,,,,3.2,1.6,2.7*30
$GPRMC,202036.000,A,3748.7521,N,12217.7703,W,2.54,144.24,120711,,,A*74
$GPVTG,144.24,T,,M,2.54,N,4.7,K,A*0A
$GPGGA,202037.000,3748.7514,N,12217.7695,W,1,04,2.8,12.7,M,-25.1,M,,0000*5E
$GPGSA,A,3,10,07,13,28,,,,,,,,,5.1,2.8,4.3*35
$GPGSV,3,1,12,08,64,349,,07,59,058,18,28,57,245,22,13,28,148,30*7E
$GPGSV,3,2,12,19,28,056,17,26,22,317,13,01,21,238,,05,21,276,18*78
$GPGSV,3,3,12,10,17,223,23,11,09,109,16,17,05,188,22,03,05,037,*79
$GPRMC,202037.000,A,3748.7514,N,12217.7695,W,1.53,118.87,120711,,,A*79
$GPVTG,118.87,T,,M,1.53,N,2.8,K,A*07
$GPGGA,202038.000,3748.7512,N,12217.7690,W,1,04,2.8,13.3,M,-25.1,M,,0000*57
$GPGSA,A,3,10,07,13,28,,,,,,,,,5.1,2.8,4.3*35
$GPRMC,202038.000,A,3748.7512,N,12217.7690,W,1.77,115.95,120711,,,A*7D
$GPVTG,115.95,T,,M,1.77,N,3.3,K,A*05
$GPGGA,202039.000,3748.7505,N,12217.7685,W,1,05,2.3,14.5,M,-25.1,M,,0000*5F
$GPGSA,A,3,10,07,13,08,28,,,,,,,,4.7,2.3,4.1*33
$GPRMC,202039.000,A,3748.7505,N,12217.7685,W,2.06,134.54,120711,,,A*75
$GPVTG,134.54,T,,M,2.06,N,3.8,K,A*05
$GPGGA,202040.000,3748.7497,N,12217.7683,W,1,06,1.5,15.4,M,-25.1,M,,0000*5B
$GPGSA,A,3,10,19,07,13,08,28,,,,,,,2.7,1.5,2.2*3D
$GPRMC,202040.000,A,3748.7497,N,12217.7683,W,1.92,137.31,120711,,,A*79
$GPVTG,137.31,T,,M,1.92,N,3.5,K,A*06
$GPGGA,202041.000,3748.7488,N,12217.7675,W,1,06,1.5,18.1,M,-25.1,M,,0000*55
$GPGSA,A,3,10,19,07,13,08,28,,,,,,,2.7,1.5,2.2*3D
$GPRMC,202041.000,A,3748.7488,N,12217.7675,W,3.19,149.43,120711,,,A*72
$GPVTG,149.43,T,,M,3.19,N,5.9,K,A*01
$GPGGA,202042.000,3748.7478,N,12217.7666,W,1,05,2.3,18.2,M,-25.1,M,,0000*5E
$GPGSA,A,3,10,07,13,08,28,,,,,,,,4.7,2.3,4.1*33
$GPGSV,3,1,12,08,64,349,28,07,59,058,24,28,57,245,23,13,28,148,35*7F
$GPGSV,3,2,12,19,28,056,17,26,22,317,14,01,21,238,,05,21,276,26*72
$GPGSV,3,3,12,10,17,223,24,11,09,109,16,17,05,188,18,03,05,037,*77
$GPRMC,202042.000,A,3748.7478,N,12217.7666,W,2.72,133.75,120711,,,A*78
$GPVTG,133.75,T,,M,2.72,N,5.0,K,A*0C
$GPGGA,202043.000,3748.7476,N,12217.7656,W,1,06,1.5,16.5,M,-25.1,M,,0000*5D
$GPGSA,A,3,10,19,07,13,08,28,,,,,,,2.7,1.5,2.2*3D
$GPRMC,202043.000,A,3748.7476,N,12217.7656,W,2.59,133.86,120711,,,A*71
$GPVTG,133.86,T,,M,2.59,N,4.8,K,A*00
$GPGGA,202044.000,3748.7473,N,12217.7643,W,1,05,2.3,17.9,M,-25.1,M,,0000*50
$GPGSA,A,3,10,07,13,08,28,,,,,,,,4.7,2.3,4.1*33
$GPRMC,202044.000,A,3748.7473,N,12217.7643,W,2.74,122.30,120711,,,A*75
$GPVTG,122.30,T,,M,2.74,N,5.1,K,A*0A
$GPGGA,202045.000,3748.7472,N,12217.7636,W,1,05,2.3,18.2,M,-25.1,M,,0000*56
$GPGSA,A,3,10,07,13,08,28,,,,,,,,4.7,2.3,4.1*33
$GPRMC,202045.000,A,3748.7472,N,12217.7636,W,2.17,131.64,120711,,,A*71
$GPVTG,131.64,T,,M,2.17,N,4.0,K,A*0C
$GPGGA,202046.000,3748.7470,N,12217.7629,W,1,05,2.3,18.5,M,-25.1,M,,0000*5E
$GPGSA,A,3,10,07,13,08,28,,,,,,,,4.7,2.3,4.1*33
$GPRMC,202046.000,A,3748.7470,N,12217.7629,W,2.14,135.60,120711,,,A*7D
$GPVTG,135.60,T,,M,2.14,N,4.0,K,A*0F
$GPGGA,202047.000,3748.7467,N,12217.7618,W,1,06,1.5,20.3,M,-25.1,M,,0000*50
$GPGSA,A,3,10,19,07,13,08,28,,,,,,,2.7,1.5,2.2*3D
$GPGSV,3,1,12,08,64,349,31,07,59,058,23,28,57,245,24,13,28,148,28*7B
$GPGSV,3,2,12,19,28,056,18,26,22,317,25,01,21,238,,05,21,276,30*78
$GPGSV,3,3,12,10,17,223,24,11,09,109,17,17,05,188,17,03,05,037,*79
$GPVTG,94.28,T,,M,1.90,N,3.5,K,A*34
$GPGGA,202048.000,3748.7460,N,12217.7607,W,1,06,1.5,22.5,M,-25.1,M,,0000*52
$GPGSA,A,3,10,19,07,13,08,28,,,,,,,2.7,1.5,2.2*3D
$GPRMC,202048.000,A,3748.7460,N,12217.7607,W,2.28,121.27,120711,,,A*77
$GPVTG,121.27,T,,M,2.28,N,4.2,K,A*04
$GPGGA,202049.000,3748.7455,N,12217.7599,W,1,06,1.5,23.0,M,-25.1,M,,0000*55
$GPGSA,A,3,10,19,07,13,08,28,,,,,,,2.7,1.5,2.2*3D
$GPRMC,202049.000,A,3748.7455,N,12217.7599,W,4.01,128.06,120711,,,A*73
$GPVTG,128.06,T,,M,4.01,N,7.4,K,A*06
$GPGGA,202050.000,3748.7451,N,12217.7587,W,1,06,1.5,21.9,M,-25.1,M,,0000*5D
$GPGSA,A,3,10,19,07,13,08,28,,,,,,,2.7,1.5,2.2*3D
$GPRMC,202050.000,A,3748.7451,N,12217.7587,W,4.03,128.54,120711,,,A*75
$GPVTG,128.54,T,,M,4.03,N,7.5,K,A*02
$GPGGA,202051.000,3748.7448,N,12217.7575,W,1,06,1.5,22.0,M,-25.1,M,,0000*53
$GPGSA,A,3,10,19,07,13,08,28,,,,,,,2.7,1.5,2.2*3D
$GPRMC,202051.000,A,3748.7448,N,12217.7575,W,2.96,112.78,120711,,,A*7C
$GPVTG,112.78,T,,M,2.96,N,5.5,K,A*0D
$GPGGA,202052.000,3748.7444,N,12217.7561,W,1,06,1.5,22.8,M,-25.1,M,,0000*51
$GPGSA,A,3,10,19,07,13,08,28,,,,,,,2.7,1.5,2.2*3D
$GPGSV,3,1,12,08,64,349,31,07,59,058,26,28,57,245,23,13,28,148,33*73
$GPGSV,3,2,12,19,28,056,19,26,22,317,23,01,21,238,,05,21,276,25*7B
$GPGSV,3,3,12,10,17,223,21,11,09,109,22,17,05,188,18,03,05,037,*75
$GPRMC,202052.000,A,3748.7444,N,12217.7561,W,3.48,114.34,120711,,,A*7A
$GPVTG,114.34,T,,M,3.48,N,6.5,K,A*02
$GPGGA,202053.000,3748.7443,N,12217.7547,W,1,06,1.5,22.4,M,-25.1,M,,0000*5F
$GPGSA,A,3,10,19,07,13,08,28,,,,,,,2.7,1.5,2.2*3D
$GPRMC,202053.000,A,3748.7443,N,12217.7547,W,2.65,113.37,120711,,,A*72
$GPVTG,113.37,T,,M,2.65,N,4.9,K,A*06
$GPGGA,202054.000,3748.7444,N,12217.7536,W,1,06,1.5,20.5,M,-25.1,M,,0000*5A
$GPGSA,A,3,10,19,07,13,08,28,,,,,,,2.7,1.5,2.2*3D
$GPRMC,202054.000,A,3748.7444,N,12217.7536,W,2.86,115.91,120711,,,A*73
$GPVTG,115.91,T,,M,2.86,N,5.3,K,A*0A
$GPGGA,202055.000,3748.7446,N,12217.7523,W,1,06,1.5,18.0,M,-25.1,M,,0000*53
$GPGSA,A,3,10,19,07,13,08,28,,,,,,,2.7,1.5,2.2*3D
$GPRMC,202055.000,A,3748.7446,N,12217.7523,W,2.50,120.01,120711,,,A*70
$GPVTG,120.01,T,,M,2.50,N,4.6,K,A*0A
$GPGGA,202056.000,3748.7447,N,12217.7513,W,1,06,1.5,16.3,M,-25.1,M,,0000*5F
$GPGSA,A,3,10,19,07,13,08,28,,,,,,,2.7,1.5,2.2*3D
$GPRMC,202056.000,A,3748.7447,N,12217.7513,W,1.87,121.64,120711,,,A*7A
$GPVTG,121.64,T,,M,1.87,N,3.5,K,A*05
$GPGGA,202057.000,3748.7452,N,12217.7510,W,1,06,1.5,15.8,M,-25.1,M,,0000*51
$GPGSA,A,3,10,19,07,13,08,28,,,,,,,2.7,1.5,2.2*3D
$GPGSV,3,1,12,08,64,349,29,07,59,058,31,28,57,245,23,13,28,148,23*7D
$GPGSV,3,2,12,19,28,056,36,26,22,317,23,01,21,238,,05,21,276,28*7B
$GPGSV,3,3,12,10,17,223,23,11,09,109,26,17,05,188,,03,05,037,*7A
$GPRMC,202057.000,A,3748.7452,N,12217.7510,W,1.34,110.54,120711,,,A*75
$GPVTG,110.54,T,,M,1.34,N,2.5,K,A*0D
$GPGGA,202058.000,3748.7458,N,12217.7509,W,1,05,1.6,15.1,M,-25.1,M,,0000*55
$GPGSA,A,3,10,19,07,13,28,,,,,,,,2.8,1.6,2.3*38
$GPRMC,202058.000,A,3748.7458,N,12217.7509,W,1.90,78.00,120711,,,A*48
$GPVTG,78.00,T,,M,1.90,N,3.5,K,A*3C
$GPGGA,202059.000,3748.7462,N,12217.7505,W,1,05,1.6,14.1,M,-25.1,M,,0000*50
$GPGSA,A,3,10,19,07,13,28,,,,,,,,2.8,1.6,2.3*38
$GPRMC,202059.000,A,3748.7462,N,12217.7505,W,1.41,100.28,120711,,,A*74
$GPVTG,100.28,T,,M,1.41,N,2.6,K,A*06
$GPGGA,202100.000,3748.7464,N,12217.7502,W,1,05,1.6,13.7,M,-25.1,M,,0000*5D
$GPGSA,A,3,10,19,07,13,28,,,,,,,,2.8,1.6,2.3*38
$GPRMC,202100.000,A,3748.7464,N,12217.7502,W,1.32,118.56,120711,,,A*7C
$GPVTG,118.56,T,,M,1.32,N,2.4,K,A*00
$GPGGA,202101.000,3748.7467,N,12217.7496,W,1,05,1.6,12.9,M,-25.1,M,,0000*5C
$GPGSA,A,3,10,19,07,13,28,,,,,,,,2.8,1.6,2.3*38
$GPRMC,202101.000,A,3748.7467,N,12217.7496,W,1.50,108.57,120711,,,A*76
$GPVTG,108.57,T,,M,1.50,N,2.8,K,A*08
$GPGGA,202102.000,3748.7473,N,12217.7499,W,1,06,1.5,13.4,M,-25.1,M,,0000*59
$GPGSA,A,3,10,08,19,07,13,28,,,,,,,2.7,1.5,2.2*3D
$GPGSV,3,1,12,08,64,349,32,07,59,058,31,28,57,245,20,13,28,148,21*76
$GPGSV,3,2,12,19,28,056,38,26,22,317,20,01,21,238,,05,21,276,24*7A
$GPGSV,3,3,12,10,17,223,21,11,09,109,22,17,05,188,,03,05,037,*7C
$GPVTG,148.34,T,,M,1.37,N,2.5,K,A*05
$GPGGA,202103.000,3748.7473,N,12217.7492,W,1,06,1.5,12.8,M,-25.1,M,,0000*5E
$GPGSA,A,3,10,08,19,07,13,28,,,,,,,2.7,1.5,2.2*3D
$GPRMC,202103.000,A,3748.7473,N,12217.7492,W,2.20,113.42,120711,,,A*7F
$GPVTG,113.42,T,,M,2.20,N,4.1,K,A*0D
$GPGGA,202104.000,3748.7469,N,12217.7484,W,1,06,1.5,11.7,M,-25.1,M,,0000*59
$GPGSA,A,3,10,08,19,07,13,28,,,,,,,2.7,1.5,2.2*3D
$GPRMC,202104.000,A,3748.7469,N,12217.7484,W,2.46,116.64,120711,,,A*75
$GPVTG,116.64,T,,M,2.46,N,4.6,K,A*0B
$GPGGA,202105.000,3748.7461,N,12217.7473,W,1,06,1.5,10.5,M,-25.1,M,,0000*5B
$GPGSA,A,3,10,08,19,07,13,28,,,,,,,2.7,1.5,2.2*3D
$GPRMC,202105.000,A,3748.7461,N,12217.7473,W,2.59,112.87,120711,,,A*73
$GPVTG,112.87,T,,M,2.59,N,4.8,K,A*02
$GPGGA,202106.000,3748.7452,N,12217.7465,W,1,06,1.5,12.1,M,-25.1,M,,0000*59
$GPGSA,A,3,10,08,19,07,13,28,,,,,,,2.7,1.5,2.2*3D
$GPRMC,202106.000,A,3748.7452,N,12217.7465,W,2.09,121.36,120711,,,A*78
$GPVTG,121.36,T,,M,2.09,N,3.9,K,A*0B
$GPGGA,202107.000,3748.7439,N,12217.7454,W,1,06,1.5,13.3,M,-25.1,M,,0000*54
$GPGSA,A,3,10,08,19,07,13,28,,,,,,,2.7,1.5,2.2*3D
$GPGSV,3,1,12,08,64,349,32,07,59,058,33,28,57,245,21,13,28,148,26*72
$GPGSV,3,2,12,19,28,056,25,26,22,317,30,01,21,238,,05,21,276,31*73
$GPGSV,3,3,12,10,17,223,18,11,09,109,26,17,05,188,,03,05,037,*72
$GPRMC,202107.000,A,3748.7439,N,12217.7454,W,2.46,133.86,120711,,,A*75
$GPVTG,133.86,T,,M,2.46,N,4.6,K,A*00
$GPGGA,202108.000,3748.7432,N,12217.7448,W,1,06,1.5,13.9,M,-25.1,M,,0000*57
$GPGSA,A,3,10,08,19,07,13,28,,,,,,,2.7,1.5,2.2*3D
$GPRMC,202108.000,A,3748.7432,N,12217.7448,W,2.72,147.54,120711,,,A*77
$GPVTG,147.54,T,,M,2.72,N,5.0,K,A*0C
$GPGGA,202109.000,3748.7422,N,12217.7441,W,1,06,1.5,17.6,M,-25.1,M,,0000*55
$GPGSA,A,3,10,08,19,07,13,28,,,,,,,2.7,1.5,2.2*3D
$GPRMC,202109.000,A,3748.7422,N,12217.7441,W,3.14,131.83,120711,,,A*74
$GPVTG,131.83,T,,M,3.14,N,5.8,K,A*0E
$GPGGA,202110.000,3748.7418,N,12217.7426,W,1,05,3.4,19.5,M,-25.1,M,,0000*58
$GPGSA,A,3,10,08,19,07,28,,,,,,,,4.4,3.4,2.7*3C
$GPRMC,202110.000,A,3748.7418,N,12217.7426,W,4.01,123.42,120711,,,A*79
$GPVTG,123.42,T,,M,4.01,N,7.4,K,A*0D
$GPGGA,202111.000,3748.7415,N,12217.7414,W,1,05,3.4,19.8,M,-25.1,M,,0000*58
$GPGSA,A,3,10,08,19,07,28,,,,,,,,4.4,3.4,2.7*3C
$GPRMC,202111.000,A,3748.7415,N,12217.7414,W,3.60,138.75,120711,,,A*7A
$GPVTG,138.75,T,,M,3.60,N,6.7,K,A*01
$GPGGA,202112.000,3748.7410,N,12217.7403,W,1,04,6.9,19.8,M,-25.1,M,,0000*51
$GPGSA,A,3,10,08,19,28,,,,,,,,,8.7,6.9,5.4*38
$GPGSV,3,1,12,08,64,349,20,07,59,058,24,28,57,245,21,13,28,148,*73
$GPGSV,3,2,12,19,28,056,25,26,22,317,24,01,21,238,,05,21,276,22*74
$GPGSV,3,3,12,10,17,223,18,11,09,109,23,17,05,188,,03,05,037,*77
$GPRMC,202112.000,A,3748.7410,N,12217.7403,W,3.85,152.03,120711,,,A*7C
$GPVTG,152.03,T,,M,3.85,N,7.1,K,A*00
$GPGGA,202113.000,3748.7397,N,12217.7393,W,1,04,7.2,19.5,M,-25.1,M,,0000*51
$GPGSA,A,3,10,19,07,28,,,,,,,,,7.9,7.2,3.1*3F
$GPRMC,202113.000,A,3748.7397,N,12217.7393,W,5.13,148.56,120711,,,A*79
$GPVTG,148.56,T,,M,5.13,N,9.5,K,A*08
$GPGGA,202114.000,3748.7397,N,12217.7389,W,1,05,1.6,18.5,M,-25.1,M,,0000*5F
$GPGSA,A,3,10,19,07,13,28,,,,,,,,2.8,1.6,2.3*38
$GPRMC,202114.000,A,3748.7397,N,12217.7389,W,3.56,133.74,120711,,,A*7E
$GPVTG,133.74,T,,M,3.56,N,6.6,K,A*0F
$GPGGA,202115.000,3748.7395,N,12217.7381,W,1,04,1.8,19.1,M,-25.1,M,,0000*5E
$GPGSA,A,3,10,19,07,13,,,,,,,,,3.5,1.8,3.0*32
$GPRMC,202115.000,A,3748.7395,N,12217.7381,W,2.18,121.85,120711,,,A*73
$GPVTG,121.85,T,,M,2.18,N,4.0,K,A*0D
$GPGGA,202116.000,3748.7400,N,12217.7381,W,1,05,1.6,18.9,M,-25.1,M,,0000*50
$GPGSA,A,3,10,19,07,13,28,,,,,,,,2.8,1.6,2.3*38
$GPRMC,202116.000,A,3748.7400,N,12217.7381,W,1.14,108.35,120711,,,A*74
$GPVTG,108.35,T,,M,1.14,N,2.1,K,A*05
$GPGGA,202117.000,3748.7386,N,12217.7359,W,1,05,1.6,18.6,M,-25.1,M,,0000*52
$GPGSA,A,3,10,19,07,13,28,,,,,,,,2.8,1.6,2.3*38
$GPGSV,3,1,12,08,64,349,,07,59,058,33,28,57,245,22,13,28,148,28*7E
$GPGSV,3,2,12,19,28,056,32,26,22,317,27,01,21,238,,05,21,276,22*71
$GPGSV,3,3,12,10,17,223,22,11,09,109,20,17,05,188,,03,05,037,*7D
$GPVTG,149.23,T,,M,3.23,N,6.0,K,A*04
$GPGGA,202118.000,3748.7371,N,12217.7337,W,1,06,1.5,18.2,M,-25.1,M,,0000*59
$GPGSA,A,3,10,19,07,13,08,28,,,,,,,2.7,1.5,2.2*3D
$GPRMC,202118.000,A,3748.7371,N,12217.7337,W,3.06,141.74,120711,,,A*7F
$GPVTG,141.74,T,,M,3.06,N,5.7,K,A*0D
$GPGGA,202119.000,3748.7360,N,12217.7321,W,1,06,1.5,17.4,M,-25.1,M,,0000*56
$GPGSA,A,3,10,19,07,13,08,28,,,,,,,2.7,1.5,2.2*3D
$GPRMC,202119.000,A,3748.7360,N,12217.7321,W,3.25,126.87,120711,,,A*75
$GPVTG,126.87,T,,M,3.25,N,6.0,K,A*05
$GPGGA,202120.000,3748.7359,N,12217.7317,W,1,06,1.5,16.2,M,-25.1,M,,0000*54
$GPGSA,A,3,10,19,07,13,08,28,,,,,,,2.7,1.5,2.2*3D
$GPRMC,202120.000,A,3748.7359,N,12217.7317,W,4.00,129.12,120711,,,A*73
$GPVTG,129.12,T,,M,4.00,N,7.4,K,A*03
$GPGGA,202121.000,3748.7351,N,12217.7306,W,1,06,1.5,16.2,M,-25.1,M,,0000*5D
$GPGSA,A,3,10,19,07,13,08,28,,,,,,,2.7,1.5,2.2*3D
$GPRMC,202121.000,A,3748.7351,N,12217.7306,W,3.64,132.65,120711,,,A*75
$GPVTG,132.65,T,,M,3.64,N,6.7,K,A*0E
$GPGGA,202122.000,3748.7353,N,12217.7302,W,1,06,1.5,14.0,M,-25.1,M,,0000*58
$GPGSA,A,3,10,19,07,13,08,28,,,,,,,2.7,1.5,2.2*3D
$GPGSV,3,1,12,08,64,349,24,07,59,058,24,28,57,245,21,13,28,148,26*73
$GPGSV,3,2,12,19,28,056,21,26,22,317,22,01,21,238,,05,21,276,20*74
$GPGSV,3,3,12,10,17,223,25,11,09,109,21,17,05,188,,03,05,037,*7B
$GPRMC,202122.000,A,3748.7353,N,12217.7302,W,2.99,127.46,120711,,,A*76
$GPVTG,127.46,T,,M,2.99,N,5.5,K,A*09
$GPGGA,202123.000,3748.7352,N,12217.7299,W,1,05,1.6,13.4,M,-25.1,M,,0000*58
$GPGSA,A,3,10,19,07,13,28,,,,,,,,2.8,1.6,2.3*38
$GPRMC,202123.000,A,3748.7352,N,12217.7299,W,1.86,146.95,120711,,,A*71
$GPVTG,146.95,T,,M,1.86,N,3.4,K,A*0A
$GPGGA,202124.000,3748.7348,N,12217.7294,W,1,05,1.6,14.2,M,-25.1,M,,0000*58
$GPGSA,A,3,10,19,07,13,28,,,,,,,,2.8,1.6,2.3*38
$GPRMC,202124.000,A,3748.7348,N,12217.7294,W,1.38,134.07,120711,,,A*7B
$GPVTG,134.07,T,,M,1.38,N,2.6,K,A*02
$GPGGA,202125.000,3748.7341,N,12217.7292,W,1,05,1.6,14.3,M,-25.1,M,,0000*57
$GPGSA,A,3,10,19,07,13,28,,,,,,,,2.8,1.6,2.3*38
$GPRMC,202125.000,A,3748.7341,N,12217.7292,W,0.99,124.17,120711,,,A*7F
$GPVTG,124.17,T,,M,0.99,N,1.8,K,A*05
$GPGGA,202126.000,3748.7341,N,12217.7291,W,1,05,1.6,13.5,M,-25.1,M,,0000*56
$GPGSA,A,3,10,19,07,13,28,,,,,,,,2.8,1.6,2.3*38
$GPRMC,202126.000,A,3748.7341,N,12217.7291,W,1.11,117.02,120711,,,A*7A
$GPVTG,117.02,T,,M,1.11,N,2.1,K,A*0A
$GPGGA,202127.000,3748.7341,N,12217.7289,W,1,06,1.5,14.2,M,-25.1,M,,0000*5E
$GPGSA,A,3,10,08,19,07,13,28,,,,,,,2.7,1.5,2.2*3D
$GPGSV,3,1,12,08,64,349,29,07,59,058,32,28,57,245,21,13,28,148,31*7F
$GPGSV,3,2,12,19,28,056,29,26,22,317,19,01,21,238,,05,21,276,20*74
$GPGSV,3,3,12,10,17,223,25,11,09,109,24,17,05,188,,03,05,037,*7E
$GPRMC,202127.000,A,3748.7341,N,12217.7289,W,0.56,11.97,120711,,,A*4B
$GPVTG,11.97,T,,M,0.56,N,1.0,K,A*31
$GPGGA,202128.000,3748.7341,N,12217.7285,W,1,06,1.5,14.6,M,-25.1,M,,0000*59
$GPGSA,A,3,10,08,19,07,13,28,,,,,,,2.7,1.5,2.2*3D
$GPRMC,202128.000,A,3748.7341,N,12217.7285,W,1.94,112.50,120711,,,A*7E
$GPVTG,112.50,T,,M,1.94,N,3.6,K,A*03
$GPGGA,202129.000,3748.7340,N,12217.7280,W,1,06,1.5,14.6,M,-25.1,M,,0000*5C
$GPGSA,A,3,10,08,19,07,13,28,,,,,,,2.7,1.5,2.2*3D
$GPRMC,202129.000,A,3748.7340,N,12217.7280,W,1.91,118.70,120711,,,A*76
$GPVTG,118.70,T,,M,1.91,N,3.5,K,A*0D
$GPGGA,202130.000,3748.7331,N,12217.7269,W,1,05,1.6,15.2,M,-25.1,M,,0000*50
$GPGSA,A,3,10,19,07,13,28,,,,,,,,2.8,1.6,2.3*38
$GPRMC,202130.000,A,3748.7331,N,12217.7269,W,3.10,125.64,120711,,,A*7F
$GPVTG,125.64,T,,M,3.10,N,5.7,K,A*09
$GPGGA,202131.000,3748.7325,N,12217.7254,W,1,05,1.6,15.2,M,-25.1,M,,0000*5A
$GPGSA,A,3,10,19,07,13,28,,,,,,,,2.8,1.6,2.3*38
$GPRMC,202131.000,A,3748.7325,N,12217.7254,W,3.10,108.17,120711,,,A*7E
$GPVTG,108.17,T,,M,3.10,N,5.7,K,A*02
$GPGGA,202132.000,3748.7324,N,12217.7244,W,1,04,1.6,14.9,M,-25.1,M,,0000*52
$GPGSA,A,3,10,08,07,13,,,,,,,,,1.8,1.6,1.0*31
$GPGSV,3,1,12,08,64,349,20,07,59,058,25,28,57,245,17,13,28,148,31*75
$GPGSV,3,2,12,19,28,056,16,26,22,317,12,01,21,238,,05,21,276,18*78
$GPGSV,3,3,12,10,17,223,20,11,09,109,19,17,05,188,,03,05,037,*75
$GPRMC,202132.000,A,3748.7324,N,12217.7244,W,2.04,98.27,120711,,,A*42
$GPGGA,202133.000,3748.7322,N,12217.7241,W,1,06,1.5,14.2,M,-25.1,M,,0000*5A
$GPGSA,A,3,10,08,19,07,13,28,,,,,,,2.7,1.5,2.2*3D
$GPRMC,202133.000,A,3748.7322,N,12217.7241,W,3.20,116.68,120711,,,A*7B
$GPVTG,116.68,T,,M,3.20,N,5.9,K,A*08
$GPGGA,202134.000,3748.7324,N,12217.7235,W,1,06,1.5,12.6,M,-25.1,M,,0000*5A
$GPGSA,A,3,10,08,19,07,13,28,,,,,,,2.7,1.5,2.2*3D
$GPRMC,202134.000,A,3748.7324,N,12217.7235,W,2.11,118.98,120711,,,A*7B
$GPVTG,118.98,T,,M,2.11,N,3.9,K,A*0C
$GPGGA,202135.000,3748.7323,N,12217.7233,W,1,05,2.1,11.9,M,-25.1,M,,0000*52
$GPGSA,A,3,08,19,07,13,28,,,,,,,,4.5,2.1,4.0*3B
$GPRMC,202135.000,A,3748.7323,N,12217.7233,W,1.53,116.17,120711,,,A*77
$GPVTG,116.17,T,,M,1.53,N,2.8,K,A*00
$GPGGA,202136.000,3748.7322,N,12217.7230,W,1,06,1.5,11.8,M,-25.1,M,,0000*56
$GPGSA,A,3,10,08,19,07,13,28,,,,,,,2.7,1.5,2.2*3D
$GPRMC,202136.000,A,3748.7322,N,12217.7230,W,1.90,113.61,120711,,,A*7D
$GPVTG,113.61,T,,M,1.90,N,3.5,K,A*07
$GPGGA,202137.000,3748.7311,N,12217.7222,W,1,06,1.5,13.8,M,-25.1,M,,0000*56
$GPGSA,A,3,10,08,19,07,13,28,,,,,,,2.7,1.5,2.2*3D
$GPGSV,3,1,12,08,64,349,31,07,59,058,34,28,57,245,22,13,28,148,31*73
$GPGSV,3,2,12,19,28,056,20,26,22,317,33,01,21,238,,05,21,276,22*77
$GPGSV,3,3,12,10,17,223,21,11,09,109,22,17,05,188,,03,05,037,*7C
$GPRMC,202137.000,A,3748.7311,N,12217.7222,W,2.92,123.17,120711,,,A*7C
$GPVTG,123.17,T,,M,2.92,N,5.4,K,A*03
$GPGGA,202138.000,3748.7299,N,12217.7211,W,1,06,1.5,16.4,M,-25.1,M,,0000*51
$GPGSA,A,3,10,08,19,07,13,28,,,,,,,2.7,1.5,2.2*3D
$GPRMC,202138.000,A,3748.7299,N,12217.7211,W,2.67,125.18,120711,,,A*71
$GPVTG,125.18,T,,M,2.67,N,4.9,K,A*0C
$GPGGA,202139.000,3748.7291,N,12217.7200,W,1,06,1.5,17.4,M,-25.1,M,,0000*59
$GPGSA,A,3,10,08,19,07,13,28,,,,,,,2.7,1.5,2.2*3D
$GPRMC,202139.000,A,3748.7291,N,12217.7200,W,2.33,132.23,120711,,,A*77
$GPVTG,132.23,T,,M,2.33,N,4.3,K,A*09
$GPGGA,202140.000,3748.7285,N,12217.7190,W,1,06,1.5,18.6,M,-25.1,M,,0000*55
$GPGSA,A,3,10,08,19,07,13,28,,,,,,,2.7,1.5,2.2*3D
$GPRMC,202140.000,A,3748.7285,N,12217.7190,W,2.88,131.18,120711,,,A*7D
$GPVTG,131.18,T,,M,2.88,N,5.3,K,A*03
$GPGGA,202141.000,3748.7281,N,12217.7182,W,1,06,1.5,19.7,M,-25.1,M,,0000*53
$GPGSA,A,3,10,08,19,07,13,28,,,,,,,2.7,1.5,2.2*3D
$GPRMC,202141.000,A,3748.7281,N,12217.7182,W,1.65,110.92,120711,,,A*7A
$GPVTG,110.92,T,,M,1.65,N,3.1,K,A*06
$GPGGA,202142.000,3748.7280,N,12217.7176,W,1,06,1.5,19.5,M,-25.1,M,,0000*58
$GPGSA,A,3,10,08,19,07,13,28,,,,,,,2.7,1.5,2.2*3D
$GPGSV,3,1,12,08,64,349,30,07,59,058,30,28,57,245,22,13,28,148,29*7F
$GPGSV,3,2,12,19,28,056,20,26,22,317,31,01,21,238,,05,21,276,24*73
$GPGSV,3,3,12,10,17,223,26,11,09,109,22,17,05,188,18,03,05,037,*72
$GPRMC,202142.000,A,3748.7280,N,12217.7176,W,2.70,124.62,120711,,,A*7C
$GPVTG,124.62,T,,M,2.70,N,5.0,K,A*0E
