$ADVER,3080,2.3
$GPRMC,233334.420,A,3748.7991,N,12217.8619,W,0.08,225.96,300311,,,A*71
$GPGGA,233335.420,3748.8000,N,12217.8617,W,1,04,2.0,-24.8,M,-25.1,M,,0000*7E
$GPGSA,A,3,16,23,20,13,,,,,,,,,5.6,2.0,5.2*32
$GPRMC,233335.420,A,3748.8000,N,12217.8617,W,0.14,163.08,300311,,,A*7B
$GPVTG,163.08,T,,M,0.14,N,0.3,K,A*07
$GPGGA,233336.420,3748.8001,N,12217.8616,W,1,04,2.0,-22.9,M,-25.1,M,,0000*7A
$GPGSA,A,3,16,23,20,13,,,,,,,,,5.6,2.0,5.2*32
$GPRMC,233336.420,A,3748.8001,N,12217.8616,W,0.18,158.13,300311,,,A*76
$GPVTG,158.13,T,,M,0.18,N,0.3,K,A*09
$GPGGA,233337.000,3748.8002,N,12217.8616,W,1,04,2.0,-22.4,M,-25.1,M,,0000*73
$GPGSA,A,3,16,23,20,13,,,,,,,,,5.6,2.0,5.2*32
$GPRMC,233337.000,A,3748.8002,N,12217.8616,W,0.13,158.62,300311,,,A*7F
$GPVTG,158.62,T,,M,0.13,N,0.2,K,A*05
$GPGGA,233338.000,3748.8002,N,12217.8617,W,1,04,2.0,-21.5,M,-25.1,M,,0000*7F
$GPGSA,A,3,16,23,20,13,,,,,,,,,5.6,2.0,5.2*32
$GPGSV,3,1,12,23,68,002,38,20,62,186,37,16,48,089,37,13,43,307,33*7C
$GPGSV,3,2,12,32,41,154,39,30,38,062,38,07,22,241,38,04,15,294,32*77
$GPGSV,3,3,12,10,07,319,19,31,06,052,32,24,03,194,23,03,02,129,*7E
$GPRMC,233338.000,A,3748.8002,N,12217.8617,W,0.14,154.97,300311,,,A*70
$GPVTG,154.97,T,,M,0.14,N,0.3,K,A*05
$GPGGA,233339.000,3748.8003,N,12217.8617,W,1,04,2.0,-21.2,M,-25.1,M,,0000*78
$GPGSA,A,3,16,23,20,13,,,,,,,,,5.6,2.0,5.2*32
$GPRMC,233339.000,A,3748.8003,N,12217.8617,W,0.16,150.45,300311,,,A*79
$GPVTG,150.45,T,,M,0.16,N,0.3,K,A*0C
$GPGGA,233340.000,3748.8003,N,12217.8618,W,1,04,2.0,-20.8,M,-25.1,M,,0000*72
$GPGSA,A,3,16,23,20,13,,,,,,,,,5.6,2.0,5.2*32
$GPRMC,233340.000,A,3748.8003,N,12217.8618,W,0.17,203.05,300311,,,A*78
$GPVTG,203.05,T,,M,0.17,N,0.3,K,A*0C
$GPGGA,233341.000,3748.8006,N,12217.8618,W,1,04,2.0,-18.1,M,-25.1,M,,0000*74
$GPGSA,A,3,16,23,20,13,,,,,,,,,5.6,2.0,5.2*32
$GPRMC,233341.000,A,3748.8006,N,12217.8618,W,0.25,200.80,300311,,,A*73
$GPVTG,200.80,T,,M,0.25,N,0.5,K,A*05
$GPGGA,233342.000,3748.8009,N,12217.8619,W,1,04,2.0,-14.8,M,-25.1,M,,0000*7C
$GPGSA,A,3,16,23,20,13,,,,,,,,,5.6,2.0,5.2*32
$GPRMC,233342.000,A,3748.8009,N,12217.8619,W,0.12,180.78,300311,,,A*76
$GPVTG,180.78,T,,M,0.12,N,0.2,K,A*0A
$GPGGA,233343.000,3748.8012,N,12217.8617,W,1,04,2.0,-12.8,M,-25.1,M,,0000*7F
$GPGSA,A,3,16,23,20,13,,,,,,,,,5.6,2.0,5.2*32
$GPGSV,3,1,12,23,68,002,34,20,62,186,37,16,48,089,33,13,43,307,33*74
$GPGSV,3,2,12,32,41,154,39,30,38,062,33,07,22,241,38,04,15,294,30*7E
$GPGSV,3,3,12,10,07,319,30,31,06,052,32,24,03,194,22,03,02,129,*74
$GPRMC,233343.000,A,3748.8012,N,12217.8617,W,0.08,115.91,300311,,,A*73
$GPVTG,115.91,T,,M,0.08,N,0.1,K,A*09
$GPGGA,233344.000,3748.8014,N,12217.8614,W,1,04,2.0,-11.7,M,-25.1,M,,0000*71
$GPGSA,A,3,16,23,20,13,,,,,,,,,5.6,2.0,5.2*32
$GPRMC,233344.000,A,3748.8014,N,12217.8614,W,0.22,105.06,300311,,,A*76
$GPVTG,105.06,T,,M,0.22,N,0.4,K,A*0B
$GPGGA,233345.000,3748.8015,N,12217.8612,W,1,04,2.0,-11.0,M,-25.1,M,,0000*70
$GPGSA,A,3,16,23,20,13,,,,,,,,,5.6,2.0,5.2*32
$GPRMC,233345.000,A,3748.8015,N,12217.8612,W,0.27,148.22,300311,,,A*7A
$GPVTG,148.22,T,,M,0.27,N,0.5,K,A*00
$GPGGA,233346.000,3748.8016,N,12217.8609,W,1,04,2.0,-10.7,M,-25.1,M,,0000*7C
$GPGSA,A,3,16,23,20,13,,,,,,,,,5.6,2.0,5.3*33
$GPRMC,233346.000,A,3748.8016,N,12217.8609,W,0.37,93.92,300311,,,A*4D
$GPVTG,93.92,T,,M,0.37,N,0.7,K,A*3F
$GPGGA,233347.000,3748.8017,N,12217.8606,W,1,04,2.0,-10.4,M,-25.1,M,,0000*70
$GPGSA,A,3,16,23,20,13,,,,,,,,,5.6,2.0,5.3*33
$GPRMC,233347.000,A,3748.8017,N,12217.8606,W,0.30,131.27,300311,,,A*72
$GPVTG,131.27,T,,M,0.30,N,0.6,K,A*0E
$GPGGA,233348.000,3748.8017,N,12217.8605,W,1,04,2.0,-10.1,M,-25.1,M,,0000*79
$GPGSA,A,3,16,23,20,13,,,,,,,,,5.6,2.0,5.3*33
$GPGSV,3,1,12,23,68,002,39,20,62,186,37,16,48,089,25,13,43,307,33*7E
$GPGSV,3,2,12,32,41,154,35,30,38,062,27,07,22,241,33,04,15,294,21*7C
$GPGSV,3,3,12,10,08,319,21,31,06,052,29,24,03,194,,03,02,129,*71
$GPVTG,154.23,T,,M,0.17,N,0.3,K,A*09
$GPGGA,233349.000,3748.8018,N,12217.8604,W,1,04,2.0,-9.8,M,-25.1,M,,0000*47
$GPGSA,A,3,16,23,20,13,,,,,,,,,5.6,2.0,5.3*33
$GPRMC,233349.000,A,3748.8018,N,12217.8604,W,0.09,165.15,300311,,,A*7B
$GPVTG,165.15,T,,M,0.09,N,0.2,K,A*00
$GPGGA,233350.000,3748.8018,N,12217.8603,W,1,04,2.0,-9.5,M,-25.1,M,,0000*45
$GPGSA,A,3,16,23,20,13,,,,,,,,,5.6,2.0,5.3*33
$GPRMC,233350.000,A,3748.8018,N,12217.8603,W,0.12,134.55,300311,,,A*7E
$GPVTG,134.55,T,,M,0.12,N,0.2,K,A*0A
$GPGGA,233351.000,3748.8019,N,12217.8599,W,1,04,2.0,-9.8,M,-25.1,M,,0000*48
$GPGSA,A,3,16,23,20,13,,,,,,,,,5.6,2.0,5.3*33
$GPRMC,233351.000,A,3748.8019,N,12217.8599,W,0.65,144.71,300311,,,A*7F
$GPVTG,144.71,T,,M,0.65,N,1.2,K,A*0A
$GPGGA,233352.000,3748.8016,N,12217.8601,W,1,04,2.0,-7.8,M,-25.1,M,,0000*48
$GPGSA,A,3,16,23,20,13,,,,,,,,,5.6,2.0,5.3*33
$GPRMC,233352.000,A,3748.8016,N,12217.8601,W,0.10,63.82,300311,,,A*4B
$GPVTG,63.82,T,,M,0.10,N,0.2,K,A*31
$GPGGA,233353.000,3748.8017,N,12217.8599,W,1,04,2.0,-6.8,M,-25.1,M,,0000*4B
$GPGSA,A,3,16,23,20,13,,,,,,,,,5.6,2.0,5.3*33
$GPGSV,3,1,12,23,68,002,31,20,62,186,31,16,48,089,32,13,43,307,25*71
$GPGSV,3,2,12,32,41,154,36,30,38,062,33,07,22,241,33,04,15,294,32*78
$GPGSV,3,3,12,10,08,319,25,31,06,052,29,24,03,194,20,03,02,129,*77
$GPRMC,233353.000,A,3748.8017,N,12217.8599,W,1.41,68.17,300311,,,A*4B
$GPVTG,68.17,T,,M,1.41,N,2.6,K,A*35
$GPGGA,233354.000,3748.8019,N,12217.8598,W,1,04,2.0,-7.9,M,-25.1,M,,0000*43
$GPGSA,A,3,16,23,20,13,,,,,,,,,5.6,2.0,5.3*33
$GPRMC,233354.000,A,3748.8019,N,12217.8598,W,0.50,23.01,300311,,,A*4A
$GPVTG,23.01,T,,M,0.50,N,0.9,K,A*31
$GPGGA,233355.000,3748.8019,N,12217.8601,W,1,04,2.0,-7.3,M,-25.1,M,,0000*4B
$GPGSA,A,3,16,23,20,13,,,,,,,,,5.6,2.0,5.3*33
$GPRMC,233355.000,A,3748.8019,N,12217.8601,W,0.14,67.39,300311,,,A*43
$GPVTG,67.39,T,,M,0.14,N,0.3,K,A*30
$GPGGA,233356.000,3748.8023,N,12217.8604,W,1,04,2.0,-7.0,M,-25.1,M,,0000*47
$GPGSA,A,3,16,23,20,13,,,,,,,,,5.6,2.0,5.3*33
$GPRMC,233356.000,A,3748.8023,N,12217.8604,W,0.27,198.62,300311,,,A*73
$GPVTG,198.62,T,,M,0.27,N,0.5,K,A*09
$GPGGA,233357.000,3748.8024,N,12217.8609,W,1,04,2.0,-6.2,M,-25.1,M,,0000*4F
$GPGSA,A,3,16,23,20,13,,,,,,,,,5.6,2.0,5.3*33
$GPRMC,233357.000,A,3748.8024,N,12217.8609,W,0.82,194.53,300311,,,A*79
$GPVTG,194.53,T,,M,0.82,N,1.5,K,A*09
$GPGGA,233358.000,3748.8029,N,12217.8611,W,1,04,2.0,-5.8,M,-25.1,M,,0000*4D
$GPGSA,A,3,16,23,20,13,,,,,,,,,5.6,2.0,5.3*33
$GPGSV,3,1,12,23,68,002,31,20,62,186,22,16,48,089,30,13,43,307,36*73
$GPGSV,3,2,12,32,41,154,18,30,38,062,28,07,22,241,24,04,15,294,39*73
$GPGSV,3,3,12,10,08,319,39,31,06,052,30,24,03,194,20,03,02,129,*72
$GPRMC,233358.000,A,3748.8029,N,12217.8611,W,0.18,210.12,300311,,,A*7B
$GPVTG,210.12,T,,M,0.18,N,0.3,K,A*07
$GPGGA,233359.000,3748.8033,N,12217.8617,W,1,04,2.0,-4.1,M,-25.1,M,,0000*49
$GPGSA,A,3,16,23,20,13,,,,,,,,,5.6,2.0,5.3*33
$GPRMC,233359.000,A,3748.8033,N,12217.8617,W,0.50,199.51,300311,,,A*7E
$GPVTG,199.51,T,,M,0.50,N,0.9,K,A*04
$GPGGA,233400.000,3748.8035,N,12217.8617,W,1,03,3.0,-3.9,M,-25.1,M,,0000*4D
$GPGSA,A,2,23,20,13,,,,,,,,,,3.2,3.0,1.0*31
$GPRMC,233400.000,A,3748.8035,N,12217.8617,W,0.58,159.36,300311,,,A*76
$GPVTG,159.36,T,,M,0.58,N,1.1,K,A*08
$GPGGA,233401.000,3748.8038,N,12217.8620,W,1,04,2.0,-2.5,M,-25.1,M,,0000*4E
$GPGSA,A,3,16,23,20,13,,,,,,,,,5.6,2.0,5.3*33
$GPRMC,233401.000,A,3748.8038,N,12217.8620,W,0.24,7.09,300311,,,A*73
$GPVTG,7.09,T,,M,0.24,N,0.4,K,A*01
$GPGGA,233402.000,3748.8046,N,12217.8626,W,1,04,2.0,-0.7,M,-25.1,M,,0000*42
$GPGSA,A,3,16,23,20,13,,,,,,,,,5.6,2.0,5.3*33
$GPRMC,233402.000,A,3748.8046,N,12217.8626,W,1.29,347.71,300311,,,A*7B
$GPVTG,347.71,T,,M,1.29,N,2.4,K,A*07
$GPGGA,233403.000,3748.8064,N,12217.8628,W,1,04,2.0,0.4,M,-25.1,M,,0000*63
$GPGSA,A,3,16,23,20,13,,,,,,,,,5.6,2.0,5.3*33
$GPGSV,3,1,12,23,68,002,30,20,62,186,21,16,48,089,22,13,43,307,36*72
$GPGSV,3,2,12,32,41,154,19,30,38,062,24,07,22,241,24,04,15,294,39*7E
$GPGSV,3,3,12,10,08,319,39,31,06,052,31,24,03,194,,03,02,129,*71
$GPRMC,233403.000,A,3748.8064,N,12217.8628,W,1.22,337.21,300311,,,A*7D
$GPGGA,233404.000,3748.8065,N,12217.8635,W,1,04,2.0,1.9,M,-25.1,M,,0000*65
$GPGSA,A,3,16,23,20,13,,,,,,,,,5.6,2.0,5.3*33
$GPRMC,233404.000,A,3748.8065,N,12217.8635,W,0.60,321.37,300311,,,A*70
$GPVTG,321.37,T,,M,0.60,N,1.1,K,A*0F
$GPGGA,233405.000,3748.8059,N,12217.8631,W,1,04,2.0,0.7,M,-25.1,M,,0000*60
$GPGSA,A,3,16,23,20,13,,,,,,,,,5.6,2.0,5.3*33
$GPRMC,233405.000,A,3748.8059,N,12217.8631,W,0.68,191.11,300311,,,A*7F
$GPVTG,191.11,T,,M,0.68,N,1.3,K,A*08
$GPGGA,233406.000,3748.8064,N,12217.8624,W,1,03,2.5,-1.6,M,-25.1,M,,0000*46
$GPGSA,A,2,16,23,20,,,,,,,,,,2.7,2.5,1.0*34
$GPRMC,233406.000,A,3748.8064,N,12217.8624,W,0.65,168.74,300311,,,A*7E
$GPVTG,168.74,T,,M,0.65,N,1.2,K,N*0E
$GPGGA,233407.000,3748.8068,N,12217.8617,W,1,04,2.0,-2.8,M,-25.1,M,,0000*44
$GPGSA,A,3,16,23,20,13,,,,,,,,,5.6,2.0,5.3*33
$GPRMC,233407.000,A,3748.8068,N,12217.8617,W,0.47,49.74,300311,,,A*41
$GPVTG,49.74,T,,M,0.47,N,0.9,K,A*39
$GPGGA,233408.000,3748.8067,N,12217.8613,W,1,04,2.0,-3.2,M,-25.1,M,,0000*4B
$GPGSA,A,3,16,23,20,13,,,,,,,,,5.6,2.0,5.3*33
$GPGSV,3,1,12,23,68,002,22,20,62,186,20,16,48,089,31,13,43,307,24*71
$GPGSV,3,2,12,32,41,154,20,30,38,062,37,07,22,241,26,04,15,294,30*7D
$GPGSV,3,3,12,10,08,319,38,31,06,052,31,24,03,194,,03,02,129,*70
$GPRMC,233408.000,A,3748.8067,N,12217.8613,W,0.42,15.34,300311,,,A*4D
$GPVTG,15.34,T,,M,0.42,N,0.8,K,A*30
$GPGGA,233409.000,3748.8068,N,12217.8606,W,1,04,2.0,-2.4,M,-25.1,M,,0000*46
$GPGSA,A,3,16,23,20,13,,,,,,,,,5.6,2.0,5.3*33
$GPRMC,233409.000,A,3748.8068,N,12217.8606,W,0.73,92.01,300311,,,A*4C
$GPVTG,92.01,T,,M,0.73,N,1.4,K,A*36
$GPGGA,233410.000,3748.8069,N,12217.8602,W,1,04,2.0,-2.0,M,-25.1,M,,0000*4F
$GPGSA,A,3,16,23,20,13,,,,,,,,,5.6,2.0,5.3*33
$GPRMC,233410.000,A,3748.8069,N,12217.8602,W,0.51,118.45,300311,,,A*72
$GPVTG,118.45,T,,M,0.51,N,0.9,K,A*09
$GPGGA,233411.000,3748.8066,N,12217.8602,W,1,04,2.0,-3.3,M,-25.1,M,,0000*43
$GPGSA,A,3,16,23,20,13,,,,,,,,,5.6,2.0,5.3*33
$GPRMC,233411.000,A,3748.8066,N,12217.8602,W,0.57,38.54,300311,,,A*49
$GPVTG,38.54,T,,M,0.57,N,1.1,K,A*35
$GPGGA,233412.000,3748.8062,N,12217.8600,W,1,03,2.1,-2.3,M,-25.1,M,,0000*41
$GPGSA,A,2,16,20,13,,,,,,,,,,2.4,2.1,1.0*30
$GPRMC,233412.000,A,3748.8062,N,12217.8600,W,0.83,71.47,300311,,,A*4A
$GPVTG,71.47,T,,M,0.83,N,1.5,K,N*38
$GPGGA,233413.000,3748.8062,N,12217.8597,W,1,04,2.0,-2.8,M,-25.1,M,,0000*40
$GPGSA,A,3,16,23,20,13,,,,,,,,,5.6,2.0,5.3*33
$GPGSV,3,1,12,23,68,002,26,20,62,186,24,16,48,089,28,13,43,307,29*74
$GPGSV,3,2,12,32,41,154,30,30,38,062,30,07,22,241,26,04,15,294,27*7D
$GPGSV,3,3,12,10,08,319,32,31,06,052,30,24,03,194,,03,02,129,*7B
$GPRMC,233413.000,A,3748.8062,N,12217.8597,W,1.33,58.49,300311,,,A*49
$GPVTG,58.49,T,,M,1.33,N,2.5,K,A*3B
$GPGGA,233414.000,3748.8057,N,12217.8596,W,1,04,2.0,-2.2,M,-25.1,M,,0000*4A
$GPGSA,A,3,16,23,20,13,,,,,,,,,5.6,2.0,5.3*33
$GPRMC,233414.000,A,3748.8057,N,12217.8596,W,0.51,293.00,300311,,,A*74
$GPVTG,293.00,T,,M,0.51,N,0.9,K,A*08
$GPGGA,233415.000,3748.8054,N,12217.8598,W,1,04,2.0,-1.7,M,-25.1,M,,0000*40
$GPGSA,A,3,16,23,20,13,,,,,,,,,5.6,2.0,5.3*33
$GPRMC,233415.000,A,3748.8054,N,12217.8598,W,0.53,153.20,300311,,,A*77
$GPVTG,153.20,T,,M,0.53,N,1.0,K,A*0F
$GPGGA,233416.000,3748.8048,N,12217.8607,W,1,04,2.0,-0.0,M,-25.1,M,,0000*4D
$GPGSA,A,3,16,23,20,13,,,,,,,,,5.7,2.0,5.3*32
$GPRMC,233416.000,A,3748.8048,N,12217.8607,W,1.74,217.38,300311,,,A*72
$GPVTG,217.38,T,,M,1.74,N,3.2,K,A*01
$GPGGA,233417.000,3748.8040,N,12217.8614,W,1,04,2.0,-2.6,M,-25.1,M,,0000*42
$GPGSA,A,3,16,23,20,13,,,,,,,,,5.7,2.0,5.3*32
$GPRMC,233417.000,A,3748.8040,N,12217.8614,W,0.89,190.07,300311,,,A*7A
$GPVTG,190.07,T,,M,0.89,N,1.7,K,A*05
$GPGGA,233418.000,3748.8038,N,12217.8616,W,1,04,2.0,-0.4,M,-25.1,M,,0000*40
$GPGSA,A,3,16,23,20,13,,,,,,,,,5.7,2.0,5.3*32
$GPGSV,3,1,12,23,68,002,32,20,62,186,34,16,48,089,32,13,43,307,29*7B
$GPGSV,3,2,12,32,41,154,37,30,38,062,29,07,22,241,36,04,15,294,25*71
$GPGSV,3,3,12,10,08,319,23,31,06,052,32,24,03,194,18,03,02,129,*70
$GPRMC,233418.000,A,3748.8038,N,12217.8616,W,0.97,154.77,300311,,,A*78
$GPGGA,233419.000,3748.8034,N,12217.8614,W,1,04,2.0,1.7,M,-25.1,M,,0000*60
$GPGSA,A,3,16,23,20,13,,,,,,,,,5.7,2.0,5.3*32
$GPRMC,233419.000,A,3748.8034,N,12217.8614,W,0.38,100.45,300311,,,A*72
$GPVTG,100.45,T,,M,0.38,N,0.7,K,A*01
$GPGGA,233420.000,3748.8035,N,12217.8615,W,1,04,2.0,1.8,M,-25.1,M,,0000*65
$GPGSA,A,3,16,23,20,13,,,,,,,,,5.7,2.0,5.3*32
$GPRMC,233420.000,A,3748.8035,N,12217.8615,W,0.21,179.91,300311,,,A*77
$GPVTG,179.91,T,,M,0.21,N,0.4,K,A*0D
$GPGGA,233421.000,3748.8035,N,12217.8616,W,1,03,2.1,1.5,M,-25.1,M,,0000*6C
$GPGSA,A,2,16,20,13,,,,,,,,,,2.3,2.1,1.0*37
$GPRMC,233421.000,A,3748.8035,N,12217.8616,W,0.54,12.07,300311,,,A*44
$GPVTG,12.07,T,,M,0.54,N,1.0,K,N*36
$GPGGA,233422.000,3748.8043,N,12217.8613,W,1,04,2.0,-0.5,M,-25.1,M,,0000*41
$GPGSA,A,3,16,23,20,13,,,,,,,,,5.7,2.0,5.3*32
$GPRMC,233422.000,A,3748.8043,N,12217.8613,W,1.01,341.76,300311,,,A*71
$GPVTG,341.76,T,,M,1.01,N,1.9,K,A*02
$GPGGA,233423.000,3748.8039,N,12217.8611,W,1,04,2.0,-0.8,M,-25.1,M,,0000*42
$GPGSA,A,3,16,23,20,13,,,,,,,,,5.7,2.0,5.3*32
$GPGSV,3,1,12,23,68,002,34,20,62,186,31,16,48,089,31,13,43,307,25*77
$GPGSV,3,2,12,32,41,154,29,30,38,062,35,07,22,241,28,04,15,294,22*7B
$GPGSV,3,3,12,10,08,319,22,31,06,052,33,24,03,194,13,03,02,129,*7B
$GPRMC,233423.000,A,3748.8039,N,12217.8611,W,0.37,257.56,300311,,,A*7F
$GPVTG,257.56,T,,M,0.37,N,0.7,K,A*0D
$GPGGA,233424.000,3748.8043,N,12217.8607,W,1,04,2.0,-3.5,M,-25.1,M,,0000*41
$GPGSA,A,3,16,23,20,13,,,,,,,,,5.7,2.0,5.3*32
$GPRMC,233424.000,A,3748.8043,N,12217.8607,W,0.47,14.66,300311,,,A*43
$GPVTG,14.66,T,,M,0.47,N,0.9,K,A*32
$GPGGA,233425.000,3748.8047,N,12217.8603,W,1,04,2.0,-7.4,M,-25.1,M,,0000*45
$GPGSA,A,3,16,23,20,13,,,,,,,,,5.7,2.0,5.3*32
$GPRMC,233425.000,A,3748.8047,N,12217.8603,W,1.56,21.03,300311,,,A*46
$GPVTG,21.03,T,,M,1.56,N,2.9,K,A*34
$GPGGA,233426.000,3748.8048,N,12217.8601,W,1,04,2.0,-10.4,M,-25.1,M,,0000*7D
$GPGSA,A,3,16,23,20,13,,,,,,,,,5.7,2.0,5.3*32
$GPRMC,233426.000,A,3748.8048,N,12217.8601,W,0.74,1.21,300311,,,A*7B
$GPVTG,1.21,T,,M,0.74,N,1.4,K,A*09
$GPGGA,233427.000,3748.8048,N,12217.8598,W,1,04,2.0,-12.1,M,-25.1,M,,0000*78
$GPGSA,A,3,16,23,20,13,,,,,,,,,5.7,2.0,5.3*32
$GPRMC,233427.000,A,3748.8048,N,12217.8598,W,0.46,58.54,300311,,,A*46
$GPVTG,58.54,T,,M,0.46,N,0.8,K,A*3B
$GPGGA,233428.000,3748.8047,N,12217.8596,W,1,04,2.0,-13.2,M,-25.1,M,,0000*74
$GPGSA,A,3,16,23,20,13,,,,,,,,,5.7,2.0,5.3*32
$GPGSV,3,1,12,23,68,002,35,20,62,186,26,16,48,089,35,13,43,307,17*75
$GPGSV,3,2,12,32,41,154,28,30,38,062,39,07,22,241,24,04,15,294,27*7F
$GPGSV,3,3,12,10,08,319,25,31,06,052,33,24,03,194,13,03,02,129,*7C
$GPRMC,233428.000,A,3748.8047,N,12217.8596,W,0.37,149.22,300311,,,A*7E
$GPVTG,149.22,T,,M,0.37,N,0.7,K,A*02
$GPGGA,233429.000,3748.8043,N,12217.8595,W,1,04,2.0,-13.1,M,-25.1,M,,0000*71
$GPGSA,A,3,16,23,20,13,,,,,,,,,5.7,2.0,5.3*32
$GPRMC,233429.000,A,3748.8043,N,12217.8595,W,0.56,218.67,300311,,,A*79
$GPVTG,218.67,T,,M,0.56,N,1.0,K,A*05
$GPGGA,233430.000,3748.8035,N,12217.8594,W,1,04,2.0,-14.1,M,-25.1,M,,0000*7E
$GPGSA,A,3,16,23,20,13,,,,,,,,,5.7,2.0,5.3*32
$GPRMC,233430.000,A,3748.8035,N,12217.8594,W,0.72,160.92,300311,,,A*71
$GPVTG,160.92,T,,M,0.72,N,1.3,K,A*06
$GPGGA,233431.000,3748.8032,N,12217.8593,W,1,04,2.0,-12.8,M,-25.1,M,,0000*70
$GPGSA,A,3,16,23,20,13,,,,,,,,,5.7,2.0,5.3*32
$GPRMC,233431.000,A,3748.8032,N,12217.8593,W,0.14,257.84,300311,,,A*70
$GPVTG,257.84,T,,M,0.14,N,0.3,K,A*07
$GPGGA,233432.000,3748.8029,N,12217.8590,W,1,04,2.0,-10.6,M,-25.1,M,,0000*76
$GPGSA,A,3,16,23,20,13,,,,,,,,,5.7,2.0,5.3*32
$GPRMC,233432.000,A,3748.8029,N,12217.8590,W,0.26,159.08,300311,,,A*72
$GPVTG,159.08,T,,M,0.26,N,0.5,K,A*09
$GPGGA,233433.000,3748.8030,N,12217.8589,W,1,04,2.0,-8.3,M,-25.1,M,,0000*4B
$GPGSA,A,3,16,23,20,13,,,,,,,,,5.7,2.0,5.3*32
$GPGSV,3,1,12,23,68,002,27,20,62,186,36,16,48,089,34,13,43,307,25*77
$GPGSV,3,2,12,32,41,154,31,30,38,062,35,07,22,241,07,04,15,294,22*7F
$GPGSV,3,3,12,10,08,319,18,31,06,052,31,24,03,194,13,03,02,129,*70
$GPRMC,233433.000,A,3748.8030,N,12217.8589,W,0.11,179.45,300311,,,A*7C
$GPGGA,233434.000,3748.8030,N,12217.8587,W,1,04,2.0,-5.4,M,-25.1,M,,0000*48
$GPGSA,A,3,16,23,20,13,,,,,,,,,5.7,2.0,5.3*32
$GPRMC,233434.000,A,3748.8030,N,12217.8587,W,0.17,136.06,300311,,,A*7F
$GPVTG,136.06,T,,M,0.17,N,0.3,K,A*0A
$GPGGA,233435.000,3748.8026,N,12217.8587,W,1,04,2.0,-5.4,M,-25.1,M,,0000*4E
$GPGSA,A,3,16,23,20,13,,,,,,,,,5.7,2.0,5.3*32
$GPRMC,233435.000,A,3748.8026,N,12217.8587,W,0.26,165.94,300311,,,A*76
$GPVTG,165.94,T,,M,0.26,N,0.5,K,A*03
$GPGGA,233436.000,3748.8019,N,12217.8585,W,1,04,2.0,-6.6,M,-25.1,M,,0000*42
$GPGSA,A,3,16,23,20,13,,,,,,,,,5.7,2.0,5.3*32
$GPRMC,233436.000,A,3748.8019,N,12217.8585,W,0.32,152.24,300311,,,A*71
$GPVTG,152.24,T,,M,0.32,N,0.6,K,A*0A
$GPGGA,233437.000,3748.8015,N,12217.8584,W,1,04,2.0,-6.4,M,-25.1,M,,0000*4C
$GPGSA,A,3,16,23,20,13,,,,,,,,,5.7,2.0,5.3*32
$GPRMC,233437.000,A,3748.8015,N,12217.8584,W,0.07,355.61,300311,,,A*7F
$GPVTG,355.61,T,,M,0.07,N,0.1,K,A*0F
$GPGGA,233438.000,3748.8014,N,12217.8582,W,1,04,2.0,-5.8,M,-25.1,M,,0000*4B
$GPGSA,A,3,16,23,20,13,,,,,,,,,5.7,2.0,5.3*32
$GPGSV,3,1,12,23,68,002,33,20,62,186,28,16,48,089,34,13,43,307,25*7D
$GPGSV,3,2,12,32,41,154,27,30,38,062,38,07,22,241,24,04,15,294,22*74
$GPGSV,3,3,12,10,08,319,19,31,06,052,37,24,03,194,,03,02,129,*75
$GPRMC,233438.000,A,3748.8014,N,12217.8582,W,0.19,19.65,300311,,,A*47
$GPVTG,19.65,T,,M,0.19,N,0.4,K,A*3A
$GPGGA,233439.000,3748.8014,N,12217.8578,W,1,04,2.0,-5.0,M,-25.1,M,,0000*47
$GPGSA,A,3,16,23,20,13,,,,,,,,,5.7,2.0,5.3*32
$GPRMC,233439.000,A,3748.8014,N,12217.8578,W,0.38,57.15,300311,,,A*4D
$GPVTG,57.15,T,,M,0.38,N,0.7,K,A*37
$GPGGA,233440.000,3748.8017,N,12217.8574,W,1,04,2.0,-4.5,M,-25.1,M,,0000*42
$GPGSA,A,3,16,23,20,13,,,,,,,,,5.7,2.0,5.3*32
$GPRMC,233440.000,A,3748.8017,N,12217.8574,W,0.46,303.18,300311,,,A*7A
$GPVTG,303.18,T,,M,0.46,N,0.9,K,A*0F
$GPGGA,233441.000,3748.8016,N,12217.8564,W,1,04,2.0,-0.9,M,-25.1,M,,0000*4B
$GPGSA,A,3,16,23,20,13,,,,,,,,,5.7,2.0,5.3*32
$GPRMC,233441.000,A,3748.8016,N,12217.8564,W,0.48,112.21,300311,,,A*7D
$GPVTG,112.21,T,,M,0.48,N,0.9,K,A*09
$GPGGA,233442.000,3748.8016,N,12217.8561,W,1,03,10.6,0.0,M,-25.1,M,,0000*5B
$GPGSA,A,2,16,23,13,,,,,,,,,,10.6,10.6,1.0*36
$GPRMC,233442.000,A,3748.8016,N,12217.8561,W,0.77,97.87,300311,,,A*47
$GPVTG,97.87,T,,M,0.77,N,1.4,K,N*36
$GPGGA,233443.000,3748.8016,N,12217.8558,W,6,00,50.0,0.3,M,-25.1,M,,0000*55
$GPGSA,A,2,,,,,,,,,,,,,50.0,50.0,50.0*06
$GPGSV,3,1,12,23,68,002,30,20,62,186,08,16,48,089,35,13,43,307,09*73
$GPGSV,3,2,12,32,41,154,38,30,38,062,39,07,22,241,27,04,15,294,23*79
$GPGSV,3,3,12,10,08,319,20,31,06,052,39,24,03,194,,03,02,129,*71
$GPRMC,233443.000,A,3748.8016,N,12217.8558,W,0.77,97.87,300311,,,E*48
$GPVTG,97.87,T,,M,0.77,N,1.4,K,N*36
$GPGGA,233444.000,3748.8016,N,12217.8545,W,1,03,10.6,2.2,M,-25.1,M,,0000*5B
$GPGSA,A,2,16,23,13,,,,,,,,,,10.6,10.6,1.0*36
$GPRMC,233444.000,A,3748.8016,N,12217.8545,W,2.19,98.98,300311,,,A*4C
$GPVTG,98.98,T,,M,2.19,N,4.1,K,N*3D
$GPGGA,233445.000,3748.8042,N,12217.8542,W,1,04,2.0,1.0,M,-25.1,M,,0000*6F
$GPGSA,A,3,16,23,20,13,,,,,,,,,5.7,2.0,5.3*32
$GPRMC,233445.000,A,3748.8042,N,12217.8542,W,3.78,28.41,300311,,,A*42
$GPVTG,28.41,T,,M,3.78,N,7.0,K,A*39
$GPGGA,233446.000,3748.8056,N,12217.8539,W,1,04,2.0,0.5,M,-25.1,M,,0000*61
$GPGSA,A,3,16,23,20,13,,,,,,,,,5.7,2.0,5.3*32
$GPRMC,233446.000,A,3748.8056,N,12217.8539,W,5.04,17.23,300311,,,A*4D
$GPVTG,17.23,T,,M,5.04,N,9.3,K,A*31
$GPGGA,233447.000,3748.8055,N,12217.8546,W,1,04,2.0,-0.4,M,-25.1,M,,0000*47
$GPGSA,A,3,16,23,20,13,,,,,,,,,5.7,2.0,5.3*32
$GPRMC,233447.000,A,3748.8055,N,12217.8546,W,3.19,24.48,300311,,,A*40
$GPVTG,24.48,T,,M,3.19,N,5.9,K,A*30
$GPGGA,233448.000,3748.8044,N,12217.8549,W,1,04,2.0,-0.5,M,-25.1,M,,0000*46
$GPGSA,A,3,16,23,20,13,,,,,,,,,5.7,2.0,5.3*32
$GPGSV,3,1,12,23,69,003,30,20,61,185,28,16,48,088,36,13,43,307,26*7E
$GPGSV,3,2,12,32,41,154,33,30,38,061,39,07,23,241,26,04,15,293,24*71
$GPGSV,3,3,12,10,08,319,24,31,05,052,37,24,02,194,17,03,02,128,*7E
$GPRMC,233448.000,A,3748.8044,N,12217.8549,W,0.52,48.24,300311,,,A*4C
$GPGGA,233449.000,3748.8039,N,12217.8552,W,1,04,2.0,-0.3,M,-25.1,M,,0000*41
$GPGSA,A,3,16,23,20,13,,,,,,,,,5.7,2.0,5.3*32
$GPRMC,233449.000,A,3748.8039,N,12217.8552,W,0.17,73.56,300311,,,A*41
$GPVTG,73.56,T,,M,0.17,N,0.3,K,A*3F
$GPGGA,233450.000,3748.8034,N,12217.8556,W,1,04,2.0,-0.3,M,-25.1,M,,0000*40
$GPGSA,A,3,16,23,20,13,,,,,,,,,5.7,2.0,5.3*32
$GPRMC,233450.000,A,3748.8034,N,12217.8556,W,0.93,192.01,300311,,,A*70
$GPVTG,192.01,T,,M,0.93,N,1.7,K,A*0A
$GPGGA,233451.000,3748.8033,N,12217.8559,W,1,04,2.0,-0.5,M,-25.1,M,,0000*4F
$GPGSA,A,3,16,23,20,13,,,,,,,,,5.7,2.0,5.3*32
$GPRMC,233451.000,A,3748.8033,N,12217.8559,W,0.33,187.72,300311,,,A*73
$GPVTG,187.72,T,,M,0.33,N,0.6,K,A*00
$GPGGA,233452.000,3748.8022,N,12217.8567,W,1,04,2.0,0.6,M,-25.1,M,,0000*6F
$GPGSA,A,3,16,23,20,13,,,,,,,,,5.7,2.0,5.3*32
$GPRMC,233452.000,A,3748.8022,N,12217.8567,W,0.66,191.81,300311,,,A*76
$GPVTG,191.81,T,,M,0.66,N,1.2,K,A*0E
$GPGGA,233453.000,3748.8016,N,12217.8572,W,1,04,2.0,0.9,M,-25.1,M,,0000*62
$GPGSA,A,3,16,23,20,13,,,,,,,,,5.7,2.0,5.3*32
$GPGSV,3,1,12,23,69,003,32,20,61,185,24,16,48,088,32,13,43,307,35*76
$GPGSV,3,2,12,32,41,154,27,30,38,061,33,07,23,241,29,04,15,293,38*7C
$GPGSV,3,3,12,10,08,319,38,31,05,052,28,24,02,194,,03,02,128,*7B
$GPRMC,233453.000,A,3748.8016,N,12217.8572,W,1.00,197.33,300311,,,A*7A
$GPVTG,197.33,T,,M,1.00,N,1.9,K,A*0B
$GPGGA,233454.000,3748.8013,N,12217.8576,W,1,04,2.0,1.2,M,-25.1,M,,0000*6E
$GPGSA,A,3,16,23,20,13,,,,,,,,,5.7,2.0,5.3*32
$GPRMC,233454.000,A,3748.8013,N,12217.8576,W,1.08,204.93,300311,,,A*77
$GPVTG,204.93,T,,M,1.08,N,2.0,K,A*0A
$GPGGA,233455.000,3748.8020,N,12217.8574,W,1,04,2.0,0.7,M,-25.1,M,,0000*69
$GPGSA,A,3,16,23,20,13,,,,,,,,,5.7,2.0,5.3*32
$GPRMC,233455.000,A,3748.8020,N,12217.8574,W,0.13,78.29,300311,,,A*47
$GPVTG,78.29,T,,M,0.13,N,0.2,K,A*39
$GPGGA,233456.000,3748.8024,N,12217.8574,W,1,04,2.0,0.4,M,-25.1,M,,0000*6D
$GPGSA,A,3,16,23,20,13,,,,,,,,,5.7,2.0,5.3*32
$GPRMC,233456.000,A,3748.8024,N,12217.8574,W,0.10,59.47,300311,,,A*48
$GPVTG,59.47,T,,M,0.10,N,0.2,K,A*31
$GPGGA,233457.000,3748.8026,N,12217.8575,W,1,04,2.0,0.3,M,-25.1,M,,0000*68
$GPGSA,A,3,16,23,20,13,,,,,,,,,5.7,2.0,5.3*32
$GPRMC,233457.000,A,3748.8026,N,12217.8575,W,0.06,121.94,300311,,,A*7D
$GPVTG,121.94,T,,M,0.06,N,0.1,K,A*05
$GPGGA,233458.000,3748.8027,N,12217.8577,W,1,04,2.0,0.1,M,-25.1,M,,0000*66
$GPGSA,A,3,16,23,20,13,,,,,,,,,5.7,2.0,5.3*32
$GPGSV,3,1,12,23,69,003,33,20,61,185,29,16,48,088,32,13,43,307,35*7A
$GPGSV,3,2,12,32,41,154,18,30,38,061,34,07,23,241,11,04,15,293,37*73
$GPGSV,3,3,12,10,08,319,38,31,05,052,34,24,02,194,,03,02,128,*76
$GPRMC,233458.000,A,3748.8027,N,12217.8577,W,0.06,154.89,300311,,,A*7F
$GPVTG,154.89,T,,M,0.06,N,0.1,K,A*0B
$GPGGA,233459.000,3748.8028,N,12217.8578,W,1,04,2.0,-0.0,M,-25.1,M,,0000*4B
$GPGSA,A,3,16,23,20,13,,,,,,,,,5.7,2.0,5.3*32
$GPRMC,233459.000,A,3748.8028,N,12217.8578,W,0.07,172.09,300311,,,A*73
$GPVTG,172.09,T,,M,0.07,N,0.1,K,A*06
$GPGGA,233500.000,3748.8029,N,12217.8580,W,1,04,2.0,-0.3,M,-25.1,M,,0000*43
$GPGSA,A,3,16,23,20,13,,,,,,,,,5.7,2.0,5.3*32
$GPRMC,233500.000,A,3748.8029,N,12217.8580,W,0.09,156.57,300311,,,A*7B
$GPVTG,156.57,T,,M,0.09,N,0.2,K,A*06
$GPGGA,233501.000,3748.8030,N,12217.8581,W,1,04,2.0,-0.5,M,-25.1,M,,0000*4D
$GPGSA,A,3,16,23,20,13,,,,,,,,,5.7,2.0,5.3*32
$GPRMC,233501.000,A,3748.8030,N,12217.8581,W,0.11,168.46,300311,,,A*77
$GPVTG,168.46,T,,M,0.11,N,0.2,K,A*02
$GPGGA,233502.000,3748.8030,N,12217.8582,W,1,04,2.0,-0.8,M,-25.1,M,,0000*40
$GPGSA,A,3,16,23,20,13,,,,,,,,,5.7,2.0,5.3*32
$GPRMC,233502.000,A,3748.8030,N,12217.8582,W,0.13,167.01,300311,,,A*79
$GPVTG,167.01,T,,M,0.13,N,0.2,K,A*0C
$GPGGA,233503.000,3748.8031,N,12217.8583,W,1,04,2.0,-1.0,M,-25.1,M,,0000*48
$GPGSA,A,3,16,23,20,13,,,,,,,,,5.7,2.0,5.3*32
$GPGSV,3,1,12,23,69,003,33,20,61,185,29,16,48,088,32,13,43,307,34*7B
$GPGSV,3,2,12,32,41,154,25,30,38,061,35,07,23,241,,04,15,293,37*7C
$GPGSV,3,3,12,10,08,319,37,31,05,052,33,24,02,194,,03,02,128,*7E
$GPRMC,233503.000,A,3748.8031,N,12217.8583,W,0.07,142.52,300311,,,A*7C
$GPVTG,142.52,T,,M,0.07,N,0.1,K,A*0B
$GPGGA,233504.000,3748.8031,N,12217.8584,W,1,04,2.0,-1.3,M,-25.1,M,,0000*4B
$GPGSA,A,3,16,23,20,13,,,,,,,,,5.7,2.0,5.4*35
$GPRMC,233504.000,A,3748.8031,N,12217.8584,W,0.08,139.70,300311,,,A*7F
$GPVTG,139.70,T,,M,0.08,N,0.2,K,A*0B
$GPGGA,233505.000,3748.8033,N,12217.8585,W,1,04,2.0,-1.7,M,-25.1,M,,0000*4D
$GPGSA,A,3,16,23,20,13,,,,,,,,,5.7,2.0,5.4*35
$GPRMC,233505.000,A,3748.8033,N,12217.8585,W,0.10,150.87,300311,,,A*73
$GPVTG,150.87,T,,M,0.10,N,0.2,K,A*05
$GPGGA,233506.000,3748.8034,N,12217.8585,W,1,04,2.0,-2.1,M,-25.1,M,,0000*4C
$GPGSA,A,3,16,23,20,13,,,,,,,,,5.7,2.0,5.4*35
$GPRMC,233506.000,A,3748.8034,N,12217.8585,W,0.09,142.54,300311,,,A*72
$GPVTG,142.54,T,,M,0.09,N,0.2,K,A*00
$GPGGA,233507.000,3748.8036,N,12217.8585,W,1,04,2.0,-2.5,M,-25.1,M,,0000*4B
$GPGSA,A,3,16,23,20,13,,,,,,,,,5.7,2.0,5.4*35
$GPRMC,233507.000,A,3748.8036,N,12217.8585,W,0.07,131.96,300311,,,A*75
$GPVTG,131.96,T,,M,0.07,N,0.1,K,A*07
$GPGGA,233508.000,3748.8037,N,12217.8585,W,1,04,2.0,-2.9,M,-25.1,M,,0000*49
$GPGSA,A,3,16,23,20,13,,,,,,,,,5.7,2.0,5.4*35
$GPGSV,3,1,12,23,69,003,33,20,61,185,28,16,48,088,33,13,43,307,34*7B
$GPGSV,3,2,12,32,41,154,26,30,38,061,35,07,23,241,22,04,15,293,37*7F
$GPGSV,3,3,12,10,08,319,38,31,05,052,33,24,02,194,,03,02,128,*71
$GPRMC,233508.000,A,3748.8037,N,12217.8585,W,0.04,176.38,300311,,,A*7F
$GPVTG,176.38,T,,M,0.04,N,0.1,K,A*03
$GPGGA,233509.000,3748.8039,N,12217.8585,W,1,04,2.0,-3.4,M,-25.1,M,,0000*4A
$GPGSA,A,3,16,23,20,13,,,,,,,,,5.7,2.0,5.4*35
$GPRMC,233509.000,A,3748.8039,N,12217.8585,W,0.05,105.98,300311,,,A*7F
$GPVTG,105.98,T,,M,0.05,N,0.1,K,A*0C
$GPGGA,233510.000,3748.8045,N,12217.8583,W,1,04,2.0,-4.4,M,-25.1,M,,0000*48
$GPGSA,A,3,16,23,20,13,,,,,,,,,5.7,2.0,5.4*35
$GPRMC,233510.000,A,3748.8045,N,12217.8583,W,0.47,49.99,300311,,,A*44
$GPVTG,49.99,T,,M,0.47,N,0.9,K,A*3A
$GPGGA,233511.000,3748.8054,N,12217.8578,W,1,04,2.0,-5.7,M,-25.1,M,,0000*4F
$GPGSA,A,3,16,23,20,13,,,,,,,,,5.7,2.0,5.4*35
$GPRMC,233511.000,A,3748.8054,N,12217.8578,W,0.60,24.19,300311,,,A*47
$GPVTG,24.19,T,,M,0.60,N,1.1,K,A*35
$GPGGA,233512.000,3748.8064,N,12217.8575,W,1,04,2.0,-7.0,M,-25.1,M,,0000*47
$GPGSA,A,3,16,23,20,13,,,,,,,,,5.7,2.0,5.4*35
$GPRMC,233512.000,A,3748.8064,N,12217.8575,W,0.55,29.02,300311,,,A*4B
$GPVTG,29.02,T,,M,0.55,N,1.0,K,A*35
$GPGGA,233513.000,3748.8071,N,12217.8571,W,1,04,2.0,-8.1,M,-25.1,M,,0000*48
$GPGSA,A,3,16,23,20,13,,,,,,,,,5.7,2.0,5.4*35
$GPGSV,3,1,12,23,69,003,34,20,61,185,25,16,48,088,28,13,43,307,35*7A
$GPGSV,3,2,12,32,41,154,18,30,38,061,35,07,23,241,28,04,15,293,38*77
$GPGSV,3,3,12,10,08,319,38,31,05,052,28,24,02,194,,03,02,128,*7B
$GPRMC,233513.000,A,3748.8071,N,12217.8571,W,0.45,43.87,300311,,,A*4A
$GPVTG,43.87,T,,M,0.45,N,0.8,K,A*3C
$GPGGA,233514.000,3748.8070,N,12217.8571,W,1,04,2.0,-8.8,M,-25.1,M,,0000*47
$GPGSA,A,3,16,23,20,13,,,,,,,,,5.7,2.0,5.4*35
$GPRMC,233514.000,A,3748.8070,N,12217.8571,W,0.42,190.90,300311,,,A*72
$GPVTG,190.90,T,,M,0.42,N,0.8,K,A*02
$GPGGA,233515.000,3748.8064,N,12217.8572,W,1,04,2.0,-9.4,M,-25.1,M,,0000*4D
$GPGSA,A,3,16,23,20,13,,,,,,,,,5.7,2.0,5.4*35
$GPRMC,233515.000,A,3748.8064,N,12217.8572,W,0.52,181.50,300311,,,A*78
$GPVTG,181.50,T,,M,0.52,N,1.0,K,A*06
$GPGGA,233516.000,3748.8057,N,12217.8572,W,1,04,2.0,-10.2,M,-25.1,M,,0000*70
$GPGSA,A,3,16,23,20,13,,,,,,,,,5.7,2.0,5.4*35
$GPRMC,233516.000,A,3748.8057,N,12217.8572,W,0.48,172.10,300311,,,A*78
$GPVTG,172.10,T,,M,0.48,N,0.9,K,A*0D
$GPGGA,233517.000,3748.8052,N,12217.8563,W,1,04,2.0,-12.9,M,-25.1,M,,0000*7D
$GPGSA,A,3,16,23,20,13,,,,,,,,,5.7,2.0,5.4*35
$GPRMC,233517.000,A,3748.8052,N,12217.8563,W,0.29,78.00,300311,,,A*41
$GPVTG,78.00,T,,M,0.29,N,0.5,K,A*3C
$GPGGA,233518.000,3748.8048,N,12217.8561,W,1,04,2.0,-14.2,M,-25.1,M,,0000*76
$GPGSA,A,3,16,23,20,13,,,,,,,,,5.7,2.0,5.4*35
$GPGSV,3,1,12,23,69,004,34,20,61,185,18,16,48,088,26,13,43,307,36*7E
$GPGSV,3,2,12,32,41,154,18,30,38,061,35,07,23,241,30,04,15,293,39*7F
$GPGSV,3,3,12,10,08,319,37,31,05,052,23,03,03,128,,24,02,193,*79
$GPRMC,233518.000,A,3748.8048,N,12217.8561,W,0.89,43.78,300311,,,A*4A
$GPGGA,233519.000,3748.8049,N,12217.8557,W,1,04,2.0,-15.9,M,-25.1,M,,0000*79
$GPGSA,A,3,16,23,20,13,,,,,,,,,5.7,2.0,5.4*35
$GPRMC,233519.000,A,3748.8049,N,12217.8557,W,1.02,33.62,300311,,,A*41
$GPVTG,33.62,T,,M,1.02,N,1.9,K,A*32
$GPGGA,233520.000,3748.8041,N,12217.8561,W,1,04,2.0,-15.9,M,-25.1,M,,0000*7E
$GPGSA,A,3,16,23,20,13,,,,,,,,,5.7,2.0,5.4*35
$GPRMC,233520.000,A,3748.8041,N,12217.8561,W,0.26,218.35,300311,,,A*78
$GPVTG,218.35,T,,M,0.26,N,0.5,K,A*01
$GPGGA,233521.000,3748.8039,N,12217.8567,W,1,05,1.8,-14.9,M,-25.1,M,,0000*7D
$GPGSA,A,3,16,23,30,20,13,,,,,,,,4.9,1.8,4.6*31
$GPRMC,233521.000,A,3748.8039,N,12217.8567,W,0.52,207.03,300311,,,A*78
$GPVTG,207.03,T,,M,0.52,N,1.0,K,A*0D
$GPGGA,233522.000,3748.8038,N,12217.8570,W,1,04,4.3,-14.6,M,-25.1,M,,0000*79
$GPGSA,A,3,16,23,30,13,,,,,,,,,6.3,4.3,4.6*35
$GPRMC,233522.000,A,3748.8038,N,12217.8570,W,0.33,173.33,300311,,,A*78
$GPVTG,173.33,T,,M,0.33,N,0.6,K,A*0E
$GPGGA,233523.000,3748.8028,N,12217.8575,W,1,05,1.8,-13.9,M,-25.1,M,,0000*7B
$GPGSA,A,3,16,23,30,20,13,,,,,,,,4.9,1.8,4.6*31
$GPGSV,3,1,12,23,69,004,34,20,61,185,18,16,48,087,31,13,43,308,36*78
$GPGSV,3,2,12,32,41,154,23,30,38,061,35,07,23,241,30,04,15,293,39*77
$GPGSV,3,3,12,10,08,319,37,31,05,052,29,03,03,128,18,24,02,193,*7A
$GPRMC,233523.000,A,3748.8028,N,12217.8575,W,0.94,190.02,300311,,,A*7F
$GPVTG,190.02,T,,M,0.94,N,1.7,K,A*0C
$GPGGA,233524.000,3748.8024,N,12217.8577,W,1,05,1.8,-13.6,M,-25.1,M,,0000*7D
$GPGSA,A,3,16,23,30,20,13,,,,,,,,4.9,1.8,4.6*31
$GPRMC,233524.000,A,3748.8024,N,12217.8577,W,0.40,130.37,300311,,,A*73
$GPVTG,130.37,T,,M,0.40,N,0.7,K,A*08
$GPGGA,233525.000,3748.8015,N,12217.8581,W,1,05,1.8,-13.1,M,-25.1,M,,0000*70
$GPGSA,A,3,16,23,30,20,13,,,,,,,,4.9,1.8,4.6*31
$GPRMC,233525.000,A,3748.8015,N,12217.8581,W,0.51,180.61,300311,,,A*71
$GPVTG,180.61,T,,M,0.51,N,0.9,K,A*0E
$GPGGA,233526.000,3748.8014,N,12217.8581,W,1,05,1.8,-13.2,M,-25.1,M,,0000*71
$GPGSA,A,3,16,23,30,20,13,,,,,,,,4.9,1.8,4.6*31
$GPRMC,233526.000,A,3748.8014,N,12217.8581,W,0.26,171.06,300311,,,A*7C
$GPVTG,171.06,T,,M,0.26,N,0.5,K,A*0D
$GPGGA,233527.000,3748.8015,N,12217.8582,W,1,05,1.8,-13.2,M,-25.1,M,,0000*72
$GPGSA,A,3,16,23,30,20,13,,,,,,,,4.9,1.8,4.6*31
$GPRMC,233527.000,A,3748.8015,N,12217.8582,W,0.16,160.33,300311,,,A*7A
$GPVTG,160.33,T,,M,0.16,N,0.3,K,A*0E
$GPGGA,233528.000,3748.8016,N,12217.8582,W,1,05,1.8,-13.2,M,-25.1,M,,0000*7E
$GPGSA,A,3,16,23,30,20,13,,,,,,,,4.9,1.8,4.6*31
$GPGSV,3,1,12,23,69,004,31,20,61,185,27,16,48,087,33,13,43,308,36*73
$GPGSV,3,2,12,32,41,154,22,30,38,061,36,07,23,241,28,04,15,293,36*73
$GPGSV,3,3,12,10,08,319,36,31,05,052,35,03,03,128,15,24,02,193,*7B
$GPRMC,233528.000,A,3748.8016,N,12217.8582,W,0.14,155.25,300311,,,A*75
$GPVTG,155.25,T,,M,0.14,N,0.3,K,A*0D
$GPGGA,233529.000,3748.8017,N,12217.8582,W,1,05,1.8,-13.2,M,-25.1,M,,0000*7E
$GPGSA,A,3,16,23,30,20,13,,,,,,,,4.9,1.8,4.6*31
$GPRMC,233529.000,A,3748.8017,N,12217.8582,W,0.14,124.15,300311,,,A*70
$GPVTG,124.15,T,,M,0.14,N,0.3,K,A*08
$GPGGA,233530.000,3748.8018,N,12217.8582,W,1,05,1.8,-13.2,M,-25.1,M,,0000*79
$GPGSA,A,3,16,23,30,20,13,,,,,,,,4.9,1.8,4.6*31
$GPRMC,233530.000,A,3748.8018,N,12217.8582,W,0.13,132.31,300311,,,A*71
$GPVTG,132.31,T,,M,0.13,N,0.2,K,A*0F
$GPGGA,233531.000,3748.8019,N,12217.8582,W,1,05,1.8,-13.2,M,-25.1,M,,0000*79
$GPGSA,A,3,16,23,30,20,13,,,,,,,,4.9,1.8,4.6*31
$GPRMC,233531.000,A,3748.8019,N,12217.8582,W,0.13,112.51,300311,,,A*75
$GPVTG,112.51,T,,M,0.13,N,0.2,K,A*0B
$GPGGA,233532.000,3748.8020,N,12217.8583,W,1,05,1.8,-13.1,M,-25.1,M,,0000*72
$GPGSA,A,3,16,23,30,20,13,,,,,,,,4.9,1.8,4.6*31
$GPRMC,233532.000,A,3748.8020,N,12217.8583,W,0.10,129.12,300311,,,A*71
$GPVTG,129.12,T,,M,0.10,N,0.2,K,A*07
$GPGGA,233533.000,3748.8018,N,12217.8584,W,1,05,1.8,-12.9,M,-25.1,M,,0000*76
$GPGSA,A,3,16,23,30,20,13,,,,,,,,4.9,1.8,4.6*31
$GPGSV,3,1,12,23,69,004,32,20,61,185,27,16,48,087,33,13,43,308,36*70
$GPGSV,3,2,12,32,41,154,22,30,38,061,37,07,23,241,29,04,15,293,37*72
$GPGSV,3,3,12,10,08,319,36,31,05,052,35,03,03,128,,24,02,193,*7F
$GPRMC,233533.000,A,3748.8018,N,12217.8584,W,0.20,150.82,300311,,,A*78
$GPGGA,233534.000,3748.8017,N,12217.8584,W,1,05,1.8,-12.8,M,-25.1,M,,0000*7F
$GPGSA,A,3,16,23,30,20,13,,,,,,,,4.9,1.8,4.6*31
$GPRMC,233534.000,A,3748.8017,N,12217.8584,W,0.20,154.06,300311,,,A*78
$GPVTG,154.06,T,,M,0.20,N,0.4,K,A*0D
$GPGGA,233535.000,3748.8017,N,12217.8584,W,1,05,1.8,-12.7,M,-25.1,M,,0000*71
$GPGSA,A,3,16,23,30,20,13,,,,,,,,4.9,1.8,4.6*31
$GPRMC,233535.000,A,3748.8017,N,12217.8584,W,0.18,140.40,300311,,,A*75
$GPVTG,140.40,T,,M,0.18,N,0.3,K,A*06
$GPGGA,233536.000,3748.8017,N,12217.8584,W,1,05,1.8,-12.5,M,-25.1,M,,0000*70
$GPGSA,A,3,16,23,30,20,13,,,,,,,,4.9,1.8,4.6*31
$GPRMC,233536.000,A,3748.8017,N,12217.8584,W,0.12,157.02,300311,,,A*7C
$GPVTG,157.02,T,,M,0.12,N,0.2,K,A*0D
$GPGGA,233537.000,3748.8017,N,12217.8585,W,1,05,1.8,-12.4,M,-25.1,M,,0000*71
$GPGSA,A,3,16,23,30,20,13,,,,,,,,4.9,1.8,4.6*31
$GPRMC,233537.000,A,3748.8017,N,12217.8585,W,0.15,139.17,300311,,,A*77
$GPVTG,139.17,T,,M,0.15,N,0.3,K,A*07
$GPGGA,233538.000,3748.8018,N,12217.8585,W,1,05,1.8,-12.2,M,-25.1,M,,0000*77
$GPGSA,A,3,16,23,30,20,13,,,,,,,,4.9,1.8,4.6*31
$GPGSV,3,1,12,23,69,004,33,20,61,185,27,16,48,087,34,13,43,308,36*76
$GPGSV,3,2,12,32,41,154,23,30,38,061,38,07,23,241,26,04,15,293,35*71
$GPGSV,3,3,12,10,08,319,36,31,05,052,31,03,03,128,,24,02,193,*7B
$GPRMC,233538.000,A,3748.8018,N,12217.8585,W,0.13,115.92,300311,,,A*72
$GPVTG,115.92,T,,M,0.13,N,0.2,K,A*03
$GPGGA,233539.000,3748.8018,N,12217.8584,W,1,05,1.8,-12.1,M,-25.1,M,,0000*74
$GPGSA,A,3,16,23,30,20,13,,,,,,,,4.9,1.8,4.6*31
$GPRMC,233539.000,A,3748.8018,N,12217.8584,W,0.10,118.88,300311,,,A*77
$GPVTG,118.88,T,,M,0.10,N,0.2,K,A*06
$GPGGA,233540.000,3748.8018,N,12217.8585,W,1,05,1.8,-11.9,M,-25.1,M,,0000*70
$GPGSA,A,3,16,23,30,20,13,,,,,,,,4.9,1.8,4.6*31
$GPRMC,233540.000,A,3748.8018,N,12217.8585,W,0.33,197.32,300311,,,A*7F
$GPVTG,197.32,T,,M,0.33,N,0.6,K,A*05
$GPGGA,233541.000,3748.8019,N,12217.8584,W,1,05,1.8,-12.2,M,-25.1,M,,0000*79
$GPGSA,A,3,16,23,30,20,13,,,,,,,,4.9,1.8,4.6*31
$GPRMC,233541.000,A,3748.8019,N,12217.8584,W,0.44,206.69,300311,,,A*7B
$GPVTG,206.69,T,,M,0.44,N,0.8,K,A*0E
$GPGGA,233542.000,3748.8016,N,12217.8585,W,1,05,1.8,-14.1,M,-25.1,M,,0000*71
$GPGSA,A,3,16,23,30,20,13,,,,,,,,4.9,1.8,4.6*31
$GPRMC,233542.000,A,3748.8016,N,12217.8585,W,0.25,169.29,300311,,,A*7F
$GPVTG,169.29,T,,M,0.25,N,0.5,K,A*0A
$GPGGA,233543.000,3748.8016,N,12217.8585,W,1,05,1.8,-14.3,M,-25.1,M,,0000*72
$GPGSA,A,3,16,23,30,20,13,,,,,,,,4.9,1.8,4.6*31
$GPGSV,3,1,12,23,69,004,29,20,61,185,28,16,48,087,35,13,43,308,36*73
$GPGSV,3,2,12,32,41,154,24,30,38,061,35,07,23,241,30,04,15,293,34*7D
$GPGSV,3,3,12,10,08,319,31,31,05,052,27,03,03,128,,24,02,193,*7B
$GPRMC,233543.000,A,3748.8016,N,12217.8585,W,0.18,137.48,300311,,,A*7C
$GPVTG,137.48,T,,M,0.18,N,0.3,K,A*0E
$GPGGA,233544.000,3748.8017,N,12217.8585,W,1,05,1.8,-13.8,M,-25.1,M,,0000*78
$GPGSA,A,3,16,23,30,20,13,,,,,,,,4.9,1.8,4.6*31
$GPRMC,233544.000,A,3748.8017,N,12217.8585,W,0.24,97.69,300311,,,A*4D
$GPVTG,97.69,T,,M,0.24,N,0.5,K,A*3F
$GPGGA,233545.000,3748.8019,N,12217.8584,W,1,05,1.8,-13.0,M,-25.1,M,,0000*7E
$GPGSA,A,3,16,23,30,20,13,,,,,,,,4.9,1.8,4.6*31
$GPRMC,233545.000,A,3748.8019,N,12217.8584,W,0.06,190.30,300311,,,A*79
$GPVTG,190.30,T,,M,0.06,N,0.1,K,A*01
$GPGGA,233546.000,3748.8021,N,12217.8585,W,1,05,1.8,-11.8,M,-25.1,M,,0000*7D
$GPGSA,A,3,16,23,30,20,13,,,,,,,,4.9,1.8,4.6*31
$GPRMC,233546.000,A,3748.8021,N,12217.8585,W,0.07,142.86,300311,,,A*73
$GPVTG,142.86,T,,M,0.07,N,0.1,K,A*02
$GPGGA,233547.000,3748.8022,N,12217.8585,W,1,05,1.8,-10.9,M,-25.1,M,,0000*7F
$GPGSA,A,3,16,23,30,20,13,,,,,,,,4.9,1.8,4.6*31
$GPRMC,233547.000,A,3748.8022,N,12217.8585,W,0.20,239.35,300311,,,A*73
$GPVTG,239.35,T,,M,0.20,N,0.4,K,A*05
$GPGGA,233548.000,3748.8022,N,12217.8586,W,1,05,1.8,-10.2,M,-25.1,M,,0000*78
$GPGSA,A,3,16,23,30,20,13,,,,,,,,4.9,1.8,4.6*31
$GPGSV,3,1,12,23,69,005,34,20,61,185,24,16,48,087,32,13,43,308,35*76
$GPGSV,3,2,12,32,40,154,25,30,38,061,36,07,23,241,26,04,15,293,36*7B
$GPGSV,3,3,12,10,08,318,37,31,05,052,30,03,03,128,,24,02,193,*7A
$GPVTG,4.63,T,,M,0.27,N,0.5,K,A*0C
$GPGGA,233549.000,3748.8027,N,12217.8589,W,1,05,1.8,-9.6,M,-25.1,M,,0000*4F
$GPGSA,A,3,16,23,30,20,13,,,,,,,,4.9,1.8,4.6*31
$GPRMC,233549.000,A,3748.8027,N,12217.8589,W,0.68,13.71,300311,,,A*42
$GPVTG,13.71,T,,M,0.68,N,1.3,K,A*35
$GPGGA,233550.000,3748.8024,N,12217.8590,W,1,05,1.8,-9.1,M,-25.1,M,,0000*4B
$GPGSA,A,3,16,23,30,20,13,,,,,,,,4.9,1.8,4.6*31
$GPRMC,233550.000,A,3748.8024,N,12217.8590,W,0.73,24.60,300311,,,A*4F
$GPVTG,24.60,T,,M,0.73,N,1.3,K,A*3B
$GPGGA,233551.000,3748.8023,N,12217.8588,W,1,07,1.6,-9.3,M,-25.1,M,,0000*4A
$GPGSA,A,3,16,23,30,10,20,13,04,,,,,,2.6,1.6,2.0*33
$GPRMC,233551.000,A,3748.8023,N,12217.8588,W,0.13,48.67,300311,,,A*4B
$GPVTG,48.67,T,,M,0.13,N,0.2,K,A*30
$GPGGA,233552.000,3748.8023,N,12217.8590,W,1,06,2.9,-9.4,M,-25.1,M,,0000*4A
$GPGSA,A,3,16,23,30,10,13,04,,,,,,,3.6,2.9,2.1*3D
$GPRMC,233552.000,A,3748.8023,N,12217.8590,W,0.07,292.35,300311,,,A*76
$GPVTG,292.35,T,,M,0.07,N,0.1,K,A*04
$GPGGA,233553.000,3748.8022,N,12217.8592,W,1,07,1.6,-9.5,M,-25.1,M,,0000*44
$GPGSA,A,3,16,23,30,10,20,13,04,,,,,,2.6,1.6,2.0*33
$GPGSV,3,1,12,23,69,005,34,20,61,185,16,16,48,087,25,13,43,308,42*71
$GPGSV,3,2,12,32,40,154,24,30,38,061,29,07,23,241,34,04,15,293,39*78
$GPGSV,3,3,12,10,08,318,35,31,05,052,24,03,03,128,,24,02,193,*7D
$GPRMC,233553.000,A,3748.8022,N,12217.8592,W,0.68,178.31,300311,,,A*7E
$GPVTG,178.31,T,,M,0.68,N,1.3,K,A*0D
$GPGGA,233554.000,3748.8025,N,12217.8596,W,1,07,1.6,-9.5,M,-25.1,M,,0000*40
$GPGSA,A,3,16,23,30,10,20,13,04,,,,,,2.6,1.6,2.0*33
$GPRMC,233554.000,A,3748.8025,N,12217.8596,W,0.87,184.80,300311,,,A*72
$GPVTG,184.80,T,,M,0.87,N,1.6,K,A*00
$GPGGA,233555.000,3748.8026,N,12217.8598,W,1,07,1.6,-9.3,M,-25.1,M,,0000*4A
$GPGSA,A,3,16,23,30,10,20,13,04,,,,,,2.6,1.6,2.0*33
$GPRMC,233555.000,A,3748.8026,N,12217.8598,W,1.00,183.29,300311,,,A*74
$GPVTG,183.29,T,,M,1.00,N,1.8,K,A*04
$GPGGA,233556.000,3748.8029,N,12217.8602,W,1,06,2.9,-9.0,M,-25.1,M,,0000*48
$GPGSA,A,3,16,23,30,10,13,04,,,,,,,3.6,2.9,2.1*3D
$GPRMC,233556.000,A,3748.8029,N,12217.8602,W,1.11,185.64,300311,,,A*77
$GPVTG,185.64,T,,M,1.11,N,2.1,K,A*01
$GPGGA,233557.000,3748.8029,N,12217.8604,W,1,07,1.6,-8.8,M,-25.1,M,,0000*4B
$GPGSA,A,3,16,23,30,10,20,13,04,,,,,,2.6,1.6,2.0*33
$GPRMC,233557.000,A,3748.8029,N,12217.8604,W,1.00,184.73,300311,,,A*77
$GPVTG,184.73,T,,M,1.00,N,1.9,K,A*0D
$GPGGA,233558.000,3748.8028,N,12217.8605,W,1,06,2.9,-8.6,M,-25.1,M,,0000*47
$GPGSA,A,3,16,23,30,10,13,04,,,,,,,3.6,2.9,2.1*3D
$GPGSV,3,1,12,23,69,005,33,20,61,185,19,16,48,087,25,13,43,308,42*79
$GPGSV,3,2,12,32,40,154,25,30,38,061,30,07,23,241,35,04,15,293,40*7E
$GPGSV,3,3,12,10,08,318,35,31,05,052,25,03,03,128,,24,02,193,*7C
$GPRMC,233558.000,A,3748.8028,N,12217.8605,W,0.32,183.99,300311,,,A*7B
$GPVTG,183.99,T,,M,0.32,N,0.6,K,A*00
$GPGGA,233559.000,3748.8016,N,12217.8608,W,1,07,1.6,-8.5,M,-25.1,M,,0000*48
$GPGSA,A,3,16,23,30,10,20,13,04,,,,,,2.6,1.6,2.0*33
$GPRMC,233559.000,A,3748.8016,N,12217.8608,W,0.20,173.69,300311,,,A*79
$GPVTG,173.69,T,,M,0.20,N,0.4,K,A*01
$GPGGA,233600.000,3748.8016,N,12217.8608,W,1,07,1.6,-8.4,M,-25.1,M,,0000*46
$GPGSA,A,3,16,23,30,10,20,13,04,,,,,,2.6,1.6,2.0*33
$GPRMC,233600.000,A,3748.8016,N,12217.8608,W,0.27,14.98,300311,,,A*4F
$GPVTG,14.98,T,,M,0.27,N,0.5,K,A*39
$GPGGA,233601.000,3748.8010,N,12217.8609,W,1,07,1.6,-8.3,M,-25.1,M,,0000*47
$GPGSA,A,3,16,23,30,10,20,13,04,,,,,,2.6,1.6,2.0*33
$GPRMC,233601.000,A,3748.8010,N,12217.8609,W,0.05,108.67,300311,,,A*75
$GPVTG,108.67,T,,M,0.05,N,0.1,K,A*01
$GPGGA,233602.000,3748.8011,N,12217.8610,W,1,07,1.6,-8.2,M,-25.1,M,,0000*4C
$GPGSA,A,3,16,23,30,10,20,13,04,,,,,,2.6,1.6,2.0*33
$GPRMC,233602.000,A,3748.8011,N,12217.8610,W,0.06,63.48,300311,,,A*4D
$GPVTG,63.48,T,,M,0.06,N,0.1,K,A*33
$GPGGA,233603.000,3748.8004,N,12217.8610,W,1,07,1.6,-8.2,M,-25.1,M,,0000*49
$GPGSA,A,3,16,23,30,10,20,13,04,,,,,,2.6,1.6,2.0*33
$GPGSV,3,1,12,23,69,005,33,20,61,185,19,16,48,087,25,13,43,308,41*7A
$GPGSV,3,2,12,32,40,154,24,30,38,061,29,07,23,241,35,04,15,293,40*77
$GPGSV,3,3,12,10,08,318,35,31,05,052,25,03,03,128,,24,02,193,*7C
$GPVTG,125.47,T,,M,0.15,N,0.3,K,A*0F
$GPGGA,233604.000,3748.8006,N,12217.8611,W,1,07,1.6,-8.1,M,-25.1,M,,0000*4E
$GPGSA,A,3,16,23,30,10,20,13,04,,,,,,2.6,1.6,2.0*33
$GPRMC,233604.000,A,3748.8006,N,12217.8611,W,0.13,20.75,300311,,,A*41
$GPVTG,20.75,T,,M,0.13,N,0.2,K,A*3D
$GPGGA,233605.000,3748.8000,N,12217.8611,W,1,07,1.6,-8.1,M,-25.1,M,,0000*49
$GPGSA,A,3,16,23,30,10,20,13,04,,,,,,2.6,1.6,2.0*33
$GPRMC,233605.000,A,3748.8000,N,12217.8611,W,0.20,45.79,300311,,,A*49
$GPVTG,45.79,T,,M,0.20,N,0.4,K,A*34
$GPGGA,233606.000,3748.8002,N,12217.8614,W,1,07,1.6,-7.7,M,-25.1,M,,0000*44
$GPGSA,A,3,16,23,30,10,20,13,04,,,,,,2.6,1.6,2.0*33
$GPRMC,233606.000,A,3748.8002,N,12217.8614,W,0.13,30.82,300311,,,A*4B
$GPVTG,30.82,T,,M,0.13,N,0.2,K,A*34
$GPGGA,233607.000,3748.8013,N,12217.8613,W,1,07,1.6,-7.3,M,-25.1,M,,0000*46
$GPGSA,A,3,16,23,30,10,20,13,04,,,,,,2.6,1.6,2.0*33
$GPRMC,233607.000,A,3748.8013,N,12217.8613,W,0.45,25.13,300311,,,A*42
$GPVTG,25.13,T,,M,0.45,N,0.8,K,A*31
$GPGGA,233608.000,3748.8018,N,12217.8617,W,1,07,1.6,-6.6,M,-25.1,M,,0000*42
$GPGSA,A,3,16,23,30,10,20,13,04,,,,,,2.6,1.6,2.0*33
$GPGSV,3,1,12,23,69,005,33,20,61,185,24,16,48,087,27,13,43,308,41*76
$GPGSV,3,2,12,32,40,154,24,30,38,061,29,07,23,241,35,04,15,293,40*77
$GPGSV,3,3,12,10,08,318,36,31,05,052,26,03,03,128,,24,02,193,*7C
$GPRMC,233608.000,A,3748.8018,N,12217.8617,W,0.35,0.11,300311,,,A*70
$GPVTG,0.11,T,,M,0.35,N,0.7,K,A*0C
$GPGGA,233609.000,3748.8022,N,12217.8621,W,1,07,1.6,-5.8,M,-25.1,M,,0000*42
$GPGSA,A,3,16,23,30,10,20,13,04,,,,,,2.6,1.6,2.0*33
$GPRMC,233609.000,A,3748.8022,N,12217.8621,W,0.18,187.45,300311,,,A*7D
$GPVTG,187.45,T,,M,0.18,N,0.3,K,A*08
$GPGGA,233610.000,3748.8027,N,12217.8625,W,1,07,1.6,-5.0,M,-25.1,M,,0000*43
$GPGSA,A,3,16,23,30,10,20,13,04,,,,,,2.6,1.6,2.0*33
$GPRMC,233610.000,A,3748.8027,N,12217.8625,W,0.10,188.42,300311,,,A*74
$GPVTG,188.42,T,,M,0.10,N,0.2,K,A*09
$GPGGA,233611.000,3748.8027,N,12217.8627,W,1,07,1.6,-4.6,M,-25.1,M,,0000*47
$GPGSA,A,3,16,23,30,10,20,13,04,,,,,,2.6,1.6,2.0*33
$GPRMC,233611.000,A,3748.8027,N,12217.8627,W,0.20,212.17,300311,,,A*74
$GPVTG,212.17,T,,M,0.20,N,0.4,K,A*0C
$GPGGA,233612.000,3748.8028,N,12217.8628,W,1,07,1.6,-4.2,M,-25.1,M,,0000*40
$GPGSA,A,3,16,23,30,10,20,13,04,,,,,,2.6,1.6,2.0*33
$GPRMC,233612.000,A,3748.8028,N,12217.8628,W,0.14,218.96,300311,,,A*73
$GPVTG,218.96,T,,M,0.14,N,0.3,K,A*0F
$GPGGA,233613.000,3748.8028,N,12217.8630,W,1,07,1.6,-3.9,M,-25.1,M,,0000*44
$GPGSA,A,3,16,23,30,10,20,13,04,,,,,,2.6,1.6,2.0*33
$GPGSV,3,1,12,23,69,005,33,20,61,185,26,16,48,087,25,13,43,308,41*76
$GPGSV,3,2,12,32,40,154,18,30,38,061,30,07,23,241,35,04,15,293,40*70
$GPGSV,3,3,12,10,08,318,36,31,05,052,26,03,03,128,,24,02,193,*7C
$GPRMC,233613.000,A,3748.8028,N,12217.8630,W,0.14,193.90,300311,,,A*7D
$GPVTG,193.90,T,,M,0.14,N,0.3,K,A*09
$GPGGA,233614.000,3748.8029,N,12217.8631,W,1,07,1.6,-3.6,M,-25.1,M,,0000*4C
$GPGSA,A,3,16,23,30,10,20,13,04,,,,,,2.6,1.6,2.0*33
$GPRMC,233614.000,A,3748.8029,N,12217.8631,W,0.21,170.40,300311,,,A*7C
$GPVTG,170.40,T,,M,0.21,N,0.4,K,A*08
$GPGGA,233615.000,3748.8028,N,12217.8632,W,1,07,1.6,-3.4,M,-25.1,M,,0000*4D
$GPGSA,A,3,16,23,30,10,20,13,04,,,,,,2.6,1.6,2.0*33
$GPRMC,233615.000,A,3748.8028,N,12217.8632,W,0.20,172.28,300311,,,A*72
$GPVTG,172.28,T,,M,0.20,N,0.4,K,A*05
$GPGGA,233616.000,3748.8023,N,12217.8634,W,1,07,1.6,-3.2,M,-25.1,M,,0000*45
$GPGSA,A,3,16,23,30,10,20,13,04,,,,,,2.6,1.6,2.0*33
$GPRMC,233616.000,A,3748.8023,N,12217.8634,W,0.39,194.01,300311,,,A*77
$GPVTG,194.01,T,,M,0.39,N,0.7,K,A*0D
$GPGGA,233617.000,3748.8024,N,12217.8635,W,1,07,1.6,-3.0,M,-25.1,M,,0000*40
$GPGSA,A,3,16,23,30,10,20,13,04,,,,,,2.6,1.6,2.0*33
$GPRMC,233617.000,A,3748.8024,N,12217.8635,W,0.12,96.76,300311,,,A*4A
$GPVTG,96.76,T,,M,0.12,N,0.2,K,A*32
$GPGGA,233618.000,3748.8026,N,12217.8632,W,1,07,1.6,-3.4,M,-25.1,M,,0000*4E
$GPGSA,A,3,16,23,30,10,20,13,04,,,,,,2.6,1.6,2.0*33
$GPGSV,3,1,12,23,69,005,33,20,60,185,20,16,48,087,24,13,44,308,41*77
$GPGSV,3,2,12,32,40,154,19,30,38,061,22,07,23,241,35,04,15,293,40*72
$GPRMC,233618.000,A,3748.8026,N,12217.8632,W,0.50,34.63,300311,,,A*4A
$GPVTG,34.63,T,,M,0.50,N,0.9,K,A*33
$GPGGA,233619.000,3748.8023,N,12217.8633,W,1,07,1.6,-3.2,M,-25.1,M,,0000*4D
$GPGSA,A,3,16,23,30,10,20,13,04,,,,,,2.6,1.6,2.0*33
$GPRMC,233619.000,A,3748.8023,N,12217.8633,W,0.31,102.71,300311,,,A*7F
$GPVTG,102.71,T,,M,0.31,N,0.6,K,A*0C
$GPGGA,233620.000,3748.8023,N,12217.8633,W,1,07,1.6,-3.1,M,-25.1,M,,0000*44
$GPGSA,A,3,16,23,30,10,20,13,04,,,,,,2.6,1.6,2.0*33
$GPRMC,233620.000,A,3748.8023,N,12217.8633,W,0.20,153.20,300311,,,A*75
$GPVTG,153.20,T,,M,0.20,N,0.4,K,A*0E
$GPGGA,233621.000,3748.8023,N,12217.8634,W,1,07,1.6,-2.8,M,-25.1,M,,0000*4A
$GPGSA,A,3,16,23,30,10,20,13,04,,,,,,2.6,1.6,2.0*33
$GPRMC,233621.000,A,3748.8023,N,12217.8634,W,0.15,210.95,300311,,,A*7F
$GPVTG,210.95,T,,M,0.15,N,0.3,K,A*05
$GPGGA,233622.000,3748.8024,N,12217.8635,W,1,07,1.6,-2.7,M,-25.1,M,,0000*40
$GPGSA,A,3,16,23,30,10,20,13,04,,,,,,2.6,1.6,2.0*33
$GPRMC,233622.000,A,3748.8024,N,12217.8635,W,0.25,153.86,300311,,,A*7F
$GPVTG,153.86,T,,M,0.25,N,0.5,K,A*06
$GPGGA,233623.000,3748.8024,N,12217.8636,W,1,07,1.6,-2.5,M,-25.1,M,,0000*40
$GPGSA,A,3,16,23,30,10,20,13,04,,,,,,2.6,1.6,2.0*33
$GPGSV,3,1,12,23,69,005,33,20,60,185,27,16,48,087,22,13,44,308,41*76
$GPGSV,3,2,12,32,40,154,18,30,38,061,33,07,23,241,35,04,15,293,40*73
$GPGSV,3,3,12,10,08,318,34,31,05,052,26,03,03,128,15,24,02,193,*7A
$GPRMC,233623.000,A,3748.8024,N,12217.8636,W,0.32,153.10,300311,,,A*74
$GPVTG,153.10,T,,M,0.32,N,0.6,K,A*0C
$GPGGA,233624.000,3748.8025,N,12217.8637,W,1,07,1.6,-2.2,M,-25.1,M,,0000*40
$GPGSA,A,3,16,23,30,10,20,13,04,,,,,,2.6,1.6,2.0*33
$GPRMC,233624.000,A,3748.8025,N,12217.8637,W,0.28,154.03,300311,,,A*7D
$GPVTG,154.03,T,,M,0.28,N,0.5,K,A*01
$GPGGA,233625.000,3748.8026,N,12217.8638,W,1,07,1.6,-2.0,M,-25.1,M,,0000*4F
$GPGSA,A,3,16,23,30,10,20,13,04,,,,,,2.6,1.6,2.0*33
$GPRMC,233625.000,A,3748.8026,N,12217.8638,W,0.31,153.24,300311,,,A*7A
$GPVTG,153.24,T,,M,0.31,N,0.6,K,A*08
$GPGGA,233626.000,3748.8027,N,12217.8639,W,1,07,1.6,-1.7,M,-25.1,M,,0000*48
$GPGSA,A,3,16,23,30,10,20,13,04,,,,,,2.6,1.6,2.0*33
$GPRMC,233626.000,A,3748.8027,N,12217.8639,W,0.21,162.36,300311,,,A*79
$GPVTG,162.36,T,,M,0.21,N,0.4,K,A*0A
$GPGGA,233627.000,3748.8017,N,12217.8642,W,1,07,1.6,-1.5,M,-25.1,M,,0000*44
$GPGSA,A,3,16,23,30,10,20,13,04,,,,,,2.6,1.6,2.0*33
$GPRMC,233627.000,A,3748.8017,N,12217.8642,W,0.57,171.33,300311,,,A*71
$GPVTG,171.33,T,,M,0.57,N,1.1,K,A*08
$GPGGA,233628.000,3748.8009,N,12217.8644,W,1,07,1.6,-1.4,M,-25.1,M,,0000*43
$GPGSA,A,3,16,23,30,10,20,13,04,,,,,,2.6,1.6,2.0*33
$GPGSV,3,1,12,23,69,005,33,20,60,185,27,16,48,087,26,13,44,308,41*72
$GPGSV,3,2,12,32,40,154,18,30,38,061,32,07,23,241,31,04,15,293,40*76
$GPGSV,3,3,12,10,08,318,34,31,05,052,26,03,03,128,15,24,02,193,*7A
$GPRMC,233628.000,A,3748.8009,N,12217.8644,W,0.55,152.82,300311,,,A*7E
$GPVTG,152.82,T,,M,0.55,N,1.0,K,A*00
$GPGGA,233629.000,3748.8006,N,12217.8645,W,1,07,1.6,-1.3,M,-25.1,M,,0000*4B
$GPGSA,A,3,16,23,30,10,20,13,04,,,,,,2.6,1.6,2.0*33
$GPRMC,233629.000,A,3748.8006,N,12217.8645,W,0.63,210.46,300311,,,A*79
$GPVTG,210.46,T,,M,0.63,N,1.2,K,A*0A
$GPGGA,233630.000,3748.8005,N,12217.8645,W,1,07,1.6,-1.3,M,-25.1,M,,0000*40
$GPGSA,A,3,16,23,30,10,20,13,04,,,,,,2.6,1.6,2.0*33
$GPRMC,233630.000,A,3748.8005,N,12217.8645,W,0.66,79.99,300311,,,A*48
$GPVTG,79.99,T,,M,0.66,N,1.2,K,A*30
$GPGGA,233631.000,3748.8006,N,12217.8643,W,1,07,1.6,-1.3,M,-25.1,M,,0000*44
$GPGSA,A,3,16,23,30,10,20,13,04,,,,,,2.6,1.6,2.0*33
$GPRMC,233631.000,A,3748.8006,N,12217.8643,W,1.27,35.34,300311,,,A*47
$GPVTG,35.34,T,,M,1.27,N,2.4,K,A*3E
$GPGGA,233632.000,3748.8010,N,12217.8640,W,1,07,1.6,-1.5,M,-25.1,M,,0000*45
$GPGSA,A,3,16,23,30,10,20,13,04,,,,,,2.6,1.6,2.0*33
$GPRMC,233632.000,A,3748.8010,N,12217.8640,W,1.40,28.10,300311,,,A*4B
$GPVTG,28.10,T,,M,1.40,N,2.6,K,A*37
$GPGGA,233633.000,3748.8014,N,12217.8637,W,1,07,1.6,-1.6,M,-25.1,M,,0000*43
$GPGSA,A,3,16,23,30,10,20,13,04,,,,,,2.6,1.6,2.0*33
$GPGSV,3,1,12,23,69,005,34,20,60,185,27,16,48,087,34,13,44,308,32*72
$GPGSV,3,2,12,32,40,154,31,30,38,061,38,07,23,241,23,04,15,293,24*76
$GPGSV,3,3,12,10,08,318,27,31,05,052,31,03,03,128,19,24,02,193,*72
$GPRMC,233633.000,A,3748.8014,N,12217.8637,W,1.80,31.76,300311,,,A*4A
$GPVTG,31.76,T,,M,1.80,N,3.3,K,A*37
$GPGGA,233634.000,3748.8019,N,12217.8633,W,1,07,1.6,-1.8,M,-25.1,M,,0000*43
$GPGSA,A,3,16,23,30,10,20,13,04,,,,,,2.6,1.6,2.0*33
$GPRMC,233634.000,A,3748.8019,N,12217.8633,W,1.73,30.27,300311,,,A*4D
$GPVTG,30.27,T,,M,1.73,N,3.2,K,A*3F
$GPGGA,233635.000,3748.8024,N,12217.8631,W,1,07,1.6,-1.8,M,-25.1,M,,0000*4E
$GPGSA,A,3,16,23,30,10,20,13,04,,,,,,2.6,1.6,2.0*33
$GPRMC,233635.000,A,3748.8024,N,12217.8631,W,1.43,25.18,300311,,,A*4B
$GPVTG,25.18,T,,M,1.43,N,2.7,K,A*30
$GPGGA,233636.000,3748.8028,N,12217.8628,W,1,07,1.6,-2.0,M,-25.1,M,,0000*42
$GPGSA,A,3,16,23,30,10,20,13,04,,,,,,2.6,1.6,2.0*33
$GPRMC,233636.000,A,3748.8028,N,12217.8628,W,1.49,38.08,300311,,,A*4B
$GPVTG,38.08,T,,M,1.49,N,2.8,K,A*38
$GPGGA,233637.000,3748.8032,N,12217.8623,W,1,07,1.6,-2.2,M,-25.1,M,,0000*41
$GPGSA,A,3,16,23,30,10,20,13,04,,,,,,2.6,1.6,2.0*33
$GPRMC,233637.000,A,3748.8032,N,12217.8623,W,1.72,35.36,300311,,,A*42
$GPVTG,35.36,T,,M,1.72,N,3.2,K,A*3B
$GPGGA,233638.000,3748.8036,N,12217.8618,W,1,07,1.6,-2.2,M,-25.1,M,,0000*42
$GPGSA,A,3,16,23,30,10,20,13,04,,,,,,2.6,1.6,2.0*33
$GPGSV,3,1,12,23,69,005,32,20,60,185,27,16,48,087,35,13,44,308,26*70
$GPGSV,3,2,12,32,40,154,28,30,38,061,38,07,23,241,22,04,15,293,25*7E
$GPGSV,3,3,12,10,08,318,28,31,05,052,31,03,03,128,21,24,02,193,*76
$GPRMC,233638.000,A,3748.8036,N,12217.8618,W,1.78,43.73,300311,,,A*4B
$GPGGA,233639.000,3748.8040,N,12217.8613,W,1,07,1.6,-2.1,M,-25.1,M,,0000*4A
$GPGSA,A,3,16,23,30,10,20,13,04,,,,,,2.6,1.6,2.0*33
$GPRMC,233639.000,A,3748.8040,N,12217.8613,W,1.80,35.16,300311,,,A*45
$GPVTG,35.16,T,,M,1.80,N,3.3,K,A*35
$GPGGA,233640.000,3748.8045,N,12217.8607,W,1,07,1.6,-1.9,M,-25.1,M,,0000*4F
$GPGSA,A,3,16,23,30,10,20,13,04,,,,,,2.6,1.6,2.0*33
$GPRMC,233640.000,A,3748.8045,N,12217.8607,W,1.88,40.95,300311,,,A*4A
$GPVTG,40.95,T,,M,1.88,N,3.5,K,A*32
$GPGGA,233641.000,3748.8050,N,12217.8602,W,1,07,1.6,-1.8,M,-25.1,M,,0000*4E
$GPGSA,A,3,16,23,30,10,20,13,04,,,,,,2.6,1.6,2.0*33
$GPRMC,233641.000,A,3748.8050,N,12217.8602,W,2.00,28.90,300311,,,A*42
$GPVTG,28.90,T,,M,2.00,N,3.7,K,A*38
$GPGGA,233642.000,3748.8059,N,12217.8593,W,1,07,1.6,-1.4,M,-25.1,M,,0000*43
$GPGSA,A,3,16,23,30,10,20,13,04,,,,,,2.6,1.6,2.0*33
$GPRMC,233642.000,A,3748.8059,N,12217.8593,W,1.67,33.24,300311,,,A*44
$GPVTG,33.24,T,,M,1.67,N,3.1,K,A*39
$GPGGA,233643.000,3748.8062,N,12217.8585,W,1,07,1.6,-1.3,M,-25.1,M,,0000*4A
$GPGSA,A,3,16,23,30,10,20,13,04,,,,,,2.6,1.6,2.0*33
$GPGSV,3,1,12,23,69,005,33,20,60,185,27,16,48,087,36,13,44,308,31*74
$GPGSV,3,2,12,32,40,154,33,30,38,061,39,07,23,241,22,04,15,293,25*75
$GPGSV,3,3,12,10,08,318,30,31,05,052,31,03,03,128,17,24,02,193,*7A
$GPRMC,233643.000,A,3748.8062,N,12217.8585,W,1.50,41.60,300311,,,A*4B
$GPVTG,41.60,T,,M,1.50,N,2.8,K,A*30
$GPGGA,233644.000,3748.8064,N,12217.8578,W,1,07,1.6,-1.3,M,-25.1,M,,0000*49
$GPGSA,A,3,16,23,30,10,20,13,04,,,,,,2.6,1.6,2.0*33
$GPRMC,233644.000,A,3748.8064,N,12217.8578,W,1.54,34.35,300311,,,A*4E
$GPVTG,34.35,T,,M,1.54,N,2.9,K,A*37
$GPGGA,233645.000,3748.8073,N,12217.8570,W,1,07,1.6,-1.1,M,-25.1,M,,0000*44
$GPGSA,A,3,16,23,30,10,20,13,04,,,,,,2.6,1.6,2.0*33
$GPRMC,233645.000,A,3748.8073,N,12217.8570,W,1.76,40.08,300311,,,A*4C
$GPVTG,40.08,T,,M,1.76,N,3.3,K,A*31
$GPGGA,233646.000,3748.8083,N,12217.8561,W,1,07,1.6,-1.1,M,-25.1,M,,0000*48
$GPGSA,A,3,16,23,30,10,20,13,04,,,,,,2.6,1.6,2.0*33
$GPRMC,233646.000,A,3748.8083,N,12217.8561,W,1.99,34.96,300311,,,A*45
$GPVTG,34.96,T,,M,1.99,N,3.7,K,A*30
$GPGGA,233647.000,3748.8086,N,12217.8555,W,1,07,1.6,-1.6,M,-25.1,M,,0000*4C
$GPGSA,A,3,16,23,30,10,20,13,04,,,,,,2.6,1.6,2.0*33
$GPRMC,233647.000,A,3748.8086,N,12217.8555,W,1.55,41.80,300311,,,A*43
$GPVTG,41.80,T,,M,1.55,N,2.9,K,A*3A
$GPGGA,233648.000,3748.8090,N,12217.8550,W,1,07,1.6,-1.9,M,-25.1,M,,0000*4E
$GPGSA,A,3,16,23,30,10,20,13,04,,,,,,2.6,1.6,2.0*33
$GPGSV,3,1,12,23,69,006,32,20,60,185,26,16,48,086,37,13,44,308,23*74
$GPGSV,3,2,12,32,40,154,33,30,38,060,40,07,24,242,22,04,15,292,24*7E
$GPGSV,3,3,12,10,09,318,30,31,05,052,29,03,03,128,15,24,02,193,*70
$GPRMC,233648.000,A,3748.8090,N,12217.8550,W,1.75,32.25,300311,,,A*47
$GPVTG,32.25,T,,M,1.75,N,3.2,K,A*39
$GPGGA,233649.000,3748.8093,N,12217.8546,W,1,07,1.6,-2.2,M,-25.1,M,,0000*43
$GPGSA,A,3,16,23,30,10,20,13,04,,,,,,2.6,1.6,2.0*33
$GPRMC,233649.000,A,3748.8093,N,12217.8546,W,1.45,36.29,300311,,,A*49
$GPVTG,36.29,T,,M,1.45,N,2.7,K,A*36
$GPGGA,233650.000,3748.8093,N,12217.8543,W,1,07,1.6,-2.5,M,-25.1,M,,0000*49
$GPGSA,A,3,16,23,30,10,20,13,04,,,,,,2.6,1.6,2.0*33
$GPRMC,233650.000,A,3748.8093,N,12217.8543,W,0.50,42.83,300311,,,A*42
$GPVTG,42.83,T,,M,0.50,N,0.9,K,A*3C
$GPGGA,233651.000,3748.8095,N,12217.8540,W,1,07,1.6,-2.1,M,-25.1,M,,0000*49
$GPGSA,A,3,16,23,30,10,20,13,04,,,,,,2.6,1.6,2.0*33
$GPRMC,233651.000,A,3748.8095,N,12217.8540,W,0.17,31.14,300311,,,A*4F
$GPVTG,31.14,T,,M,0.17,N,0.3,K,A*3F
$GPGGA,233652.000,3748.8096,N,12217.8538,W,1,07,1.6,-1.6,M,-25.1,M,,0000*42
$GPGSA,A,3,16,23,30,10,20,13,04,,,,,,2.6,1.6,2.0*33
$GPRMC,233652.000,A,3748.8096,N,12217.8538,W,0.66,36.27,300311,,,A*41
$GPVTG,36.27,T,,M,0.66,N,1.2,K,A*3E
$GPGGA,233653.000,3748.8098,N,12217.8536,W,1,07,1.6,-1.1,M,-25.1,M,,0000*44
$GPGSA,A,3,16,23,30,10,20,13,04,,,,,,2.6,1.6,2.0*33
$GPGSV,3,1,12,23,69,006,33,20,60,185,23,16,48,086,37,13,44,308,31*73
$GPGSV,3,2,12,32,40,154,19,30,38,060,40,07,24,242,22,04,15,292,28*7A
$GPGSV,3,3,12,10,09,318,36,31,05,052,35,03,03,128,17,24,02,193,*79
$GPVTG,42.45,T,,M,0.35,N,0.6,K,A*3A
$GPGGA,233654.000,3748.8100,N,12217.8534,W,1,07,1.6,-0.6,M,-25.1,M,,0000*47
$GPGSA,A,3,16,23,30,10,20,13,04,,,,,,2.6,1.6,2.0*33
$GPRMC,233654.000,A,3748.8100,N,12217.8534,W,0.20,49.59,300311,,,A*46
$GPVTG,49.59,T,,M,0.20,N,0.4,K,A*3A
$GPGGA,233655.000,3748.8102,N,12217.8533,W,1,07,1.6,-0.2,M,-25.1,M,,0000*47
$GPGSA,A,3,16,23,30,10,20,13,04,,,,,,2.6,1.6,2.0*33
$GPRMC,233655.000,A,3748.8102,N,12217.8533,W,0.28,38.65,300311,,,A*43
$GPVTG,38.65,T,,M,0.28,N,0.5,K,A*3A
$GPGGA,233656.000,3748.8105,N,12217.8531,W,1,07,1.6,0.2,M,-25.1,M,,0000*6C
$GPGSA,A,3,16,23,30,10,20,13,04,,,,,,2.6,1.6,2.0*33
$GPRMC,233656.000,A,3748.8105,N,12217.8531,W,0.29,33.70,300311,,,A*4B
$GPVTG,33.70,T,,M,0.29,N,0.5,K,A*34
$GPGGA,233657.000,3748.8106,N,12217.8529,W,1,07,1.6,0.5,M,-25.1,M,,0000*60
$GPGSA,A,3,16,23,30,10,20,13,04,,,,,,2.6,1.6,2.0*33
$GPRMC,233657.000,A,3748.8106,N,12217.8529,W,0.16,141.66,300311,,,A*7F
$GPVTG,141.66,T,,M,0.16,N,0.3,K,A*0D
$GPGGA,233658.000,3748.8106,N,12217.8529,W,1,07,1.6,0.3,M,-25.1,M,,0000*69
$GPGSA,A,3,16,23,30,10,20,13,04,,,,,,2.6,1.6,2.0*33
$GPGSV,3,1,12,23,69,006,32,20,60,185,24,16,48,086,37,13,44,308,30*74
$GPGSV,3,2,12,32,40,154,19,30,38,060,41,07,24,242,23,04,15,292,27*75
$GPGSV,3,3,12,10,09,318,36,31,05,052,35,03,03,128,18,24,02,193,*76
$GPRMC,233658.000,A,3748.8106,N,12217.8529,W,0.24,39.32,300311,,,A*4E
$GPVTG,39.32,T,,M,0.24,N,0.4,K,A*34
$GPGGA,233659.000,3748.8106,N,12217.8528,W,1,07,1.6,-0.1,M,-25.1,M,,0000*46
$GPGSA,A,3,16,23,30,10,20,13,04,,,,,,2.6,1.6,2.0*33
$GPRMC,233659.000,A,3748.8106,N,12217.8528,W,0.38,85.99,300311,,,A*45
$GPVTG,85.99,T,,M,0.38,N,0.7,K,A*3C
$GPGGA,233700.000,3748.8107,N,12217.8526,W,1,07,1.6,-0.3,M,-25.1,M,,0000*46
$GPGSA,A,3,16,23,30,10,20,13,04,,,,,,2.6,1.6,2.0*33
$GPRMC,233700.000,A,3748.8107,N,12217.8526,W,1.07,39.39,300311,,,A*47
$GPVTG,39.39,T,,M,1.07,N,2.0,K,A*39
$GPGGA,233701.000,3748.8109,N,12217.8523,W,1,07,1.6,-0.7,M,-25.1,M,,0000*48
$GPGSA,A,3,16,23,30,10,20,13,04,,,,,,2.6,1.6,2.0*33
$GPRMC,233701.000,A,3748.8109,N,12217.8523,W,1.47,46.67,300311,,,A*4A
$GPVTG,46.67,T,,M,1.47,N,2.7,K,A*39
$GPGGA,233702.000,3748.8114,N,12217.8517,W,1,07,1.6,-1.0,M,-25.1,M,,0000*46
$GPGSA,A,3,16,23,30,10,20,13,04,,,,,,2.6,1.6,2.0*33
$GPRMC,233702.000,A,3748.8114,N,12217.8517,W,2.02,36.35,300311,,,A*40
$GPVTG,36.35,T,,M,2.02,N,3.7,K,A*3A
$GPGGA,233703.000,3748.8120,N,12217.8513,W,1,07,1.6,-1.3,M,-25.1,M,,0000*47
$GPGSA,A,3,16,23,30,10,20,13,04,,,,,,2.6,1.6,2.0*33
$GPGSV,3,1,12,23,69,006,33,20,60,185,28,16,48,086,37,13,44,308,30*79
$GPGSV,3,2,12,32,40,154,31,30,38,060,41,07,24,242,22,04,15,292,27*7E
$GPGSV,3,3,12,10,09,318,27,31,05,052,29,03,03,128,16,24,02,193,*75
$GPRMC,233703.000,A,3748.8120,N,12217.8513,W,1.93,28.28,300311,,,A*4A
$GPVTG,28.28,T,,M,1.93,N,3.6,K,A*33
$GPGGA,233704.000,3748.8126,N,12217.8508,W,1,07,1.6,-1.6,M,-25.1,M,,0000*49
$GPGSA,A,3,16,23,30,10,20,13,04,,,,,,2.6,1.6,2.0*33
$GPRMC,233704.000,A,3748.8126,N,12217.8508,W,1.94,34.37,300311,,,A*45
$GPVTG,34.37,T,,M,1.94,N,3.6,K,A*37
$GPGGA,233705.000,3748.8131,N,12217.8503,W,1,07,1.6,-1.8,M,-25.1,M,,0000*4B
$GPGSA,A,3,16,23,30,10,20,13,04,,,,,,2.6,1.6,2.0*33
$GPRMC,233705.000,A,3748.8131,N,12217.8503,W,1.68,41.35,300311,,,A*4A
$GPVTG,41.35,T,,M,1.68,N,3.1,K,A*33
$GPGGA,233706.000,3748.8139,N,12217.8500,W,1,07,1.6,-1.8,M,-25.1,M,,0000*43
$GPGSA,A,3,16,23,30,10,20,13,04,,,,,,2.6,1.6,2.0*33
$GPRMC,233706.000,A,3748.8139,N,12217.8500,W,1.88,33.74,300311,,,A*4C
$GPVTG,33.74,T,,M,1.88,N,3.5,K,A*39
$GPGGA,233707.000,3748.8142,N,12217.8496,W,1,07,1.6,-2.3,M,-25.1,M,,0000*48
$GPGSA,A,3,16,23,30,10,20,13,04,,,,,,2.6,1.6,2.0*33
$GPRMC,233707.000,A,3748.8142,N,12217.8496,W,1.60,33.77,300311,,,A*4A
$GPVTG,33.77,T,,M,1.60,N,3.0,K,A*39
$GPGGA,233708.000,3748.8144,N,12217.8493,W,1,07,1.6,-2.8,M,-25.1,M,,0000*4F
$GPGSA,A,3,16,23,30,10,20,13,04,,,,,,2.6,1.6,2.0*33
$GPGSV,3,1,12,23,69,006,33,20,60,185,27,16,48,086,38,13,44,308,26*7E
$GPGSV,3,2,12,32,40,154,32,30,38,060,41,07,24,242,22,04,15,292,26*7C
$GPRMC,233708.000,A,3748.8144,N,12217.8493,W,1.83,35.52,300311,,,A*4A
$GPVTG,35.52,T,,M,1.83,N,3.4,K,A*31
$GPGGA,233709.000,3748.8146,N,12217.8489,W,1,07,1.6,-3.4,M,-25.1,M,,0000*4A
$GPGSA,A,3,16,23,30,10,20,13,04,,,,,,2.6,1.6,2.0*33
$GPRMC,233709.000,A,3748.8146,N,12217.8489,W,2.07,37.93,300311,,,A*42
$GPVTG,37.93,T,,M,2.07,N,3.8,K,A*3D
$GPGGA,233710.000,3748.8150,N,12217.8485,W,1,07,1.6,-3.7,M,-25.1,M,,0000*4A
$GPGSA,A,3,16,23,30,10,20,13,04,,,,,,2.6,1.6,2.0*33
$GPRMC,233710.000,A,3748.8150,N,12217.8485,W,2.03,33.36,300311,,,A*4E
$GPVTG,33.36,T,,M,2.03,N,3.8,K,A*32
$GPGGA,233711.000,3748.8156,N,12217.8480,W,1,07,1.6,-4.0,M,-25.1,M,,0000*48
$GPGSA,A,3,16,23,30,10,20,13,04,,,,,,2.6,1.6,2.0*33
$GPRMC,233711.000,A,3748.8156,N,12217.8480,W,1.99,25.67,300311,,,A*4F
$GPVTG,25.67,T,,M,1.99,N,3.7,K,A*3E
$GPGGA,233712.000,3748.8160,N,12217.8477,W,1,07,1.6,-4.6,M,-25.1,M,,0000*40
$GPGSA,A,3,16,23,30,10,20,13,04,,,,,,2.6,1.6,2.0*33
$GPRMC,233712.000,A,3748.8160,N,12217.8477,W,2.20,27.55,300311,,,A*43
$GPVTG,27.55,T,,M,2.20,N,4.1,K,A*3D
$GPGGA,233713.000,3748.8167,N,12217.8474,W,1,07,1.6,-5.2,M,-25.1,M,,0000*40
$GPGSA,A,3,16,23,30,10,20,13,04,,,,,,2.6,1.6,2.0*33
$GPGSV,3,1,12,23,69,006,33,20,60,185,27,16,48,086,38,13,44,308,27*7F
$GPGSV,3,2,12,32,40,154,32,30,38,060,41,07,24,242,23,04,15,292,28*73
$GPGSV,3,3,12,10,09,318,28,31,05,052,27,03,03,128,17,24,02,193,*75
$GPRMC,233713.000,A,3748.8167,N,12217.8474,W,2.48,21.10,300311,,,A*4F
$GPVTG,21.10,T,,M,2.48,N,4.6,K,A*33
$GPGGA,233714.000,3748.8171,N,12217.8470,W,1,07,1.6,-5.7,M,-25.1,M,,0000*41
$GPGSA,A,3,16,23,30,10,20,13,04,,,,,,2.6,1.6,2.0*33
$GPRMC,233714.000,A,3748.8171,N,12217.8470,W,2.11,34.25,300311,,,A*45
$GPVTG,34.25,T,,M,2.11,N,3.9,K,A*35
$GPGGA,233715.000,3748.8175,N,12217.8465,W,1,07,1.6,-6.4,M,-25.1,M,,0000*40
$GPGSA,A,3,16,23,30,10,20,13,04,,,,,,2.6,1.6,2.0*33
$GPRMC,233715.000,A,3748.8175,N,12217.8465,W,2.23,35.88,300311,,,A*43
$GPVTG,35.88,T,,M,2.23,N,4.1,K,A*3D
$GPGGA,233716.000,3748.8180,N,12217.8461,W,1,07,1.6,-6.9,M,-25.1,M,,0000*40
$GPGSA,A,3,16,23,30,10,20,13,04,,,,,,2.6,1.6,2.0*33
$GPRMC,233716.000,A,3748.8180,N,12217.8461,W,2.36,32.41,300311,,,A*48
$GPVTG,32.41,T,,M,2.36,N,4.4,K,A*3E
$GPGGA,233717.000,3748.8186,N,12217.8456,W,1,07,1.6,-7.3,M,-25.1,M,,0000*48
$GPGSA,A,3,16,23,30,10,20,13,04,,,,,,2.6,1.6,2.0*33
