$ADVER,3080,2.3
$GPRMC,185758.909,A,3748.8196,N,12217.8650,W,0.67,173.71,071112,,,A*7E
$GPGGA,185759.909,3748.8194,N,12217.8650,W,1,03,6.4,25.1,M,-25.1,M,,0000*55
$GPGSA,A,2,02,29,25,,,,,,,,,,6.5,6.4,1.0*3D
$GPRMC,185759.909,A,3748.8194,N,12217.8650,W,0.28,177.17,071112,,,A*72
$GPVTG,177.17,T,,M,0.28,N,0.5,K,N*0A
$GPGGA,185800.909,3748.8193,N,12217.8650,W,1,03,6.4,25.1,M,-25.1,M,,0000*51
$GPGSA,A,2,02,29,25,,,,,,,,,,6.5,6.4,1.0*3D
$GPRMC,185800.909,A,3748.8193,N,12217.8650,W,0.43,158.94,071112,,,A*7D
$GPVTG,158.94,T,,M,0.43,N,0.8,K,N*0C
$GPGGA,185801.909,3748.8195,N,12217.8651,W,1,03,6.4,25.1,M,-25.1,M,,0000*57
$GPGSA,A,2,02,29,25,,,,,,,,,,6.5,6.4,1.0*3D
$GPRMC,185801.909,A,3748.8195,N,12217.8651,W,1.01,167.68,071112,,,A*73
$GPVTG,167.68,T,,M,1.01,N,1.9,K,N*04
$GPGGA,185802.909,3748.8195,N,12217.8651,W,1,03,6.4,25.1,M,-25.1,M,,0000*54
$GPGSA,A,2,02,29,25,,,,,,,,,,6.5,6.4,1.0*3D
$GPRMC,185802.909,A,3748.8195,N,12217.8651,W,0.65,161.84,071112,,,A*77
$GPVTG,161.84,T,,M,0.65,N,1.2,K,N*08
$GPGGA,185803.909,3748.8195,N,12217.8651,W,1,03,6.4,25.1,M,-25.1,M,,0000*55
$GPGSA,A,2,02,29,25,,,,,,,,,,6.5,6.4,1.0*3D
$GPGSV,3,1,12,25,65,296,34,02,51,046,37,29,42,301,38,12,68,166,33*7E
$GPGSV,3,2,12,05,46,124,35,10,26,055,32,31,13,313,31,21,10,234,21*7E
$GPGSV,3,3,12,04,05,051,25,24,03,193,,09,00,189,,48,00,000,38*78
$GPVTG,164.01,T,,M,0.43,N,0.8,K,N*0F
$GPGGA,185804.909,3748.7972,N,12217.8633,W,1,06,1.7,5.1,M,-25.1,M,,0000*6B
$GPGSA,A,3,02,10,29,31,05,25,,,,,,,2.8,1.7,2.2*36
$GPRMC,185804.909,A,3748.7972,N,12217.8633,W,0.07,109.81,071112,,,A*74
$GPVTG,109.81,T,,M,0.07,N,0.1,K,A*0A
$GPGGA,185805.909,3748.7988,N,12217.8614,W,1,06,1.7,-1.2,M,-25.1,M,,0000*40
$GPGSA,A,3,02,10,29,31,05,25,,,,,,,2.8,1.7,2.2*36
$GPRMC,185805.909,A,3748.7988,N,12217.8614,W,0.10,56.83,071112,,,A*4A
$GPVTG,56.83,T,,M,0.10,N,0.2,K,A*36
$GPGGA,185807.000,3748.7990,N,12217.8614,W,1,06,1.7,-3.4,M,-25.1,M,,0000*4F
$GPGSA,A,3,02,10,29,31,05,25,,,,,,,2.8,1.7,2.2*36
$GPRMC,185807.000,A,3748.7990,N,12217.8614,W,0.13,51.61,071112,,,A*49
$GPVTG,51.61,T,,M,0.13,N,0.2,K,A*3E
$GPGGA,185808.000,3748.7991,N,12217.8613,W,1,06,1.7,-4.8,M,-25.1,M,,0000*4D
$GPGSA,A,3,02,10,29,31,05,25,,,,,,,2.8,1.7,2.2*36
$GPRMC,185808.000,A,3748.7991,N,12217.8613,W,0.10,50.95,071112,,,A*49
$GPVTG,50.95,T,,M,0.10,N,0.2,K,A*37
$GPGGA,185809.000,3748.7992,N,12217.8613,W,1,06,1.7,-5.7,M,-25.1,M,,0000*41
$GPGSA,A,3,02,10,29,31,05,25,,,,,,,2.8,1.7,2.2*36
$GPGSV,3,1,12,25,65,296,34,02,51,046,37,05,46,124,35,29,42,301,38*74
$GPGSV,3,2,12,10,26,055,32,31,13,313,32,12,68,166,34,21,10,234,24*75
$GPGSV,3,3,12,04,05,051,26,24,03,193,,09,00,189,,48,44,197,30*7C
$GPRMC,185809.000,A,3748.7992,N,12217.8613,W,0.10,42.85,071112,,,A*49
$GPVTG,42.85,T,,M,0.10,N,0.2,K,A*35
$GPGGA,185810.000,3748.7992,N,12217.8612,W,1,06,1.7,-6.4,M,-25.1,M,,0000*48
$GPGSA,A,3,02,10,29,31,05,25,,,,,,,2.8,1.7,2.2*36
$GPRMC,185810.000,A,3748.7992,N,12217.8612,W,0.11,52.77,071112,,,A*4D
$GPVTG,52.77,T,,M,0.11,N,0.2,K,A*38
$GPGGA,185811.000,3748.7992,N,12217.8612,W,1,06,1.7,-6.8,M,-25.1,M,,0000*45
$GPGSA,A,3,02,10,29,31,05,25,,,,,,,2.8,1.7,2.2*36
$GPRMC,185811.000,A,3748.7992,N,12217.8612,W,0.11,58.83,071112,,,A*4D
$GPVTG,58.83,T,,M,0.11,N,0.2,K,A*39
$GPGGA,185812.000,3748.7993,N,12217.8612,W,1,06,1.7,-7.2,M,-25.1,M,,0000*4C
$GPGSA,A,3,02,10,29,31,05,25,,,,,,,2.8,1.7,2.2*36
$GPRMC,185812.000,A,3748.7993,N,12217.8612,W,0.12,48.17,071112,,,A*40
$GPVTG,48.17,T,,M,0.12,N,0.2,K,A*36
$GPGGA,185813.000,3748.7993,N,12217.8611,W,1,06,1.7,-7.4,M,-25.1,M,,0000*48
$GPGSA,A,3,02,10,29,31,05,25,,,,,,,2.8,1.7,2.2*36
$GPRMC,185813.000,A,3748.7993,N,12217.8611,W,0.12,60.17,071112,,,A*48
$GPVTG,60.17,T,,M,0.12,N,0.2,K,A*3C
$GPGGA,185814.000,3748.7993,N,12217.8611,W,1,06,1.7,-7.7,M,-25.1,M,,0000*4C
$GPGSA,A,3,02,10,29,31,05,25,,,,,,,2.8,1.7,2.2*36
$GPGSV,3,1,12,25,65,296,34,02,51,046,36,05,46,124,34,29,42,301,39*75
$GPGSV,3,2,12,10,26,055,32,31,13,313,32,12,68,166,33,21,10,234,25*73
$GPGSV,3,3,12,04,05,051,26,24,03,193,,09,00,189,,48,44,197,29*74
$GPRMC,185814.000,A,3748.7993,N,12217.8611,W,0.11,45.46,071112,,,A*4F
$GPVTG,45.46,T,,M,0.11,N,0.2,K,A*3C
$GPGGA,185815.000,3748.7993,N,12217.8611,W,1,06,1.7,-7.8,M,-25.1,M,,0000*42
$GPGSA,A,3,02,10,29,31,05,25,,,,,,,2.8,1.7,2.2*36
$GPRMC,185815.000,A,3748.7993,N,12217.8611,W,0.12,57.26,071112,,,A*48
$GPVTG,57.26,T,,M,0.12,N,0.2,K,A*3A
$GPGGA,185816.000,3748.7993,N,12217.8610,W,1,06,1.7,-8.0,M,-25.1,M,,0000*47
$GPGSA,A,3,02,10,29,31,05,25,,,,,,,2.8,1.7,2.2*36
$GPRMC,185816.000,A,3748.7993,N,12217.8610,W,0.11,46.73,071112,,,A*49
$GPVTG,46.73,T,,M,0.11,N,0.2,K,A*39
$GPGGA,185817.000,3748.7993,N,12217.8610,W,1,06,1.7,-8.1,M,-25.1,M,,0000*47
$GPGSA,A,3,02,10,29,31,05,25,,,,,,,2.8,1.7,2.2*36
$GPRMC,185817.000,A,3748.7993,N,12217.8610,W,0.12,52.43,071112,,,A*4D
$GPVTG,52.43,T,,M,0.12,N,0.2,K,A*3C
$GPGGA,185818.000,3748.7993,N,12217.8609,W,1,06,1.7,-8.1,M,-25.1,M,,0000*40
$GPGSA,A,3,02,10,29,31,05,25,,,,,,,2.8,1.7,2.2*36
$GPRMC,185818.000,A,3748.7993,N,12217.8609,W,0.13,51.75,071112,,,A*4D
$GPVTG,51.75,T,,M,0.13,N,0.2,K,A*3B
$GPGGA,185819.000,3748.7994,N,12217.8609,W,1,06,1.7,-8.2,M,-25.1,M,,0000*45
$GPGSA,A,3,02,10,29,31,05,25,,,,,,,2.8,1.7,2.2*36
$GPGSV,3,1,12,12,68,166,33,25,65,295,34,02,51,046,36,05,46,124,34*7F
$GPGSV,3,2,12,29,42,301,39,10,26,055,31,31,13,313,32,21,10,234,25*79
$GPGSV,3,3,12,04,05,051,25,24,03,193,,09,00,189,,48,44,197,30*7F
$GPVTG,45.29,T,,M,0.13,N,0.2,K,A*37
$GPGGA,185820.000,3748.7994,N,12217.8609,W,1,06,1.7,-8.3,M,-25.1,M,,0000*4E
$GPGSA,A,3,02,10,29,31,05,25,,,,,,,2.8,1.7,2.2*36
$GPRMC,185820.000,A,3748.7994,N,12217.8609,W,0.13,30.28,071112,,,A*4E
$GPVTG,30.28,T,,M,0.13,N,0.2,K,A*34
$GPGGA,185821.000,3748.7989,N,12217.8612,W,1,06,1.7,-4.3,M,-25.1,M,,0000*45
$GPGSA,A,3,02,10,29,31,05,25,,,,,,,2.8,1.7,2.2*36
$GPRMC,185821.000,A,3748.7989,N,12217.8612,W,0.04,28.60,071112,,,A*4A
$GPVTG,28.60,T,,M,0.04,N,0.1,K,A*34
$GPGGA,185822.000,3748.7991,N,12217.8614,W,1,06,1.7,-1.9,M,-25.1,M,,0000*46
$GPGSA,A,3,02,10,29,31,05,25,,,,,,,2.8,1.7,2.2*36
$GPRMC,185822.000,A,3748.7991,N,12217.8614,W,0.38,4.98,071112,,,A*70
$GPVTG,4.98,T,,M,0.38,N,0.7,K,A*04
$GPGGA,185823.000,3748.7991,N,12217.8614,W,1,06,1.7,-2.8,M,-25.1,M,,0000*45
$GPGSA,A,3,02,10,29,31,05,25,,,,,,,2.8,1.7,2.2*36
$GPRMC,185823.000,A,3748.7991,N,12217.8614,W,0.38,24.81,071112,,,A*4B
$GPVTG,24.81,T,,M,0.38,N,0.7,K,A*3E
$GPGGA,185824.000,3748.7994,N,12217.8614,W,1,05,1.9,-2.7,M,-25.1,M,,0000*45
$GPGSA,A,3,02,10,29,05,25,,,,,,,,4.2,1.9,3.7*32
$GPGSV,3,1,11,12,68,166,26,25,65,295,25,02,51,046,31,05,46,124,32*79
$GPGSV,3,2,11,29,42,301,31,10,26,055,28,31,13,313,23,21,10,234,21*7E
$GPGSV,3,3,11,04,05,051,25,24,03,193,,09,00,189,*4C
$GPRMC,185824.000,A,3748.7994,N,12217.8614,W,0.36,42.08,071112,,,A*46
$GPVTG,42.08,T,,M,0.36,N,0.7,K,A*31
$GPGGA,185825.000,3748.7994,N,12217.8617,W,1,05,1.9,-2.7,M,-25.1,M,,0000*47
$GPGSA,A,3,02,10,29,05,25,,,,,,,,4.2,1.9,3.7*32
$GPRMC,185825.000,A,3748.7994,N,12217.8617,W,0.15,345.57,071112,,,A*7B
$GPVTG,345.57,T,,M,0.15,N,0.3,K,A*0A
$GPGGA,185826.000,3748.7991,N,12217.8620,W,1,06,1.7,-1.6,M,-25.1,M,,0000*4A
$GPGSA,A,3,02,10,29,31,05,25,,,,,,,2.8,1.7,2.2*36
$GPRMC,185826.000,A,3748.7991,N,12217.8620,W,0.16,217.92,071112,,,A*75
$GPVTG,217.92,T,,M,0.16,N,0.3,K,A*06
$GPGGA,185827.000,3748.7988,N,12217.8623,W,1,06,1.7,-0.3,M,-25.1,M,,0000*44
$GPGSA,A,3,02,10,29,31,05,25,,,,,,,2.8,1.7,2.2*36
$GPRMC,185827.000,A,3748.7988,N,12217.8623,W,0.64,211.64,071112,,,A*75
$GPVTG,211.64,T,,M,0.64,N,1.2,K,A*0C
$GPGGA,185828.000,3748.7988,N,12217.8625,W,1,06,1.7,1.0,M,-25.1,M,,0000*62
$GPGSA,A,3,02,10,29,31,05,25,,,,,,,2.8,1.7,2.2*36
$GPRMC,185828.000,A,3748.7988,N,12217.8625,W,0.04,17.04,071112,,,A*48
$GPVTG,17.04,T,,M,0.04,N,0.1,K,A*3A
$GPGGA,185829.000,3748.7984,N,12217.8622,W,1,06,1.7,1.4,M,-25.1,M,,0000*6C
$GPGSA,A,3,02,10,29,31,05,25,,,,,,,2.8,1.7,2.2*36
$GPGSV,3,1,12,12,68,166,19,25,65,295,28,02,51,046,32,05,46,124,24*7F
$GPGSV,3,2,12,29,42,301,33,10,26,055,20,31,13,313,27,21,10,234,23*71
$GPGSV,3,3,12,04,05,051,22,24,03,193,,09,00,189,,48,44,197,33*7B
$GPRMC,185829.000,A,3748.7984,N,12217.8622,W,0.11,92.08,071112,,,A*47
$GPVTG,92.08,T,,M,0.11,N,0.2,K,A*3C
$GPGGA,185830.000,3748.7983,N,12217.8619,W,1,06,1.7,2.5,M,-25.1,M,,0000*69
$GPGSA,A,3,02,10,29,31,05,25,,,,,,,2.8,1.7,2.2*36
$GPRMC,185830.000,A,3748.7983,N,12217.8619,W,0.31,34.57,071112,,,A*44
$GPVTG,34.57,T,,M,0.31,N,0.6,K,A*3C
$GPGGA,185831.000,3748.7988,N,12217.8616,W,1,06,1.7,3.5,M,-25.1,M,,0000*6D
$GPGSA,A,3,02,10,29,31,05,25,,,,,,,2.8,1.7,2.2*36
$GPRMC,185831.000,A,3748.7988,N,12217.8616,W,1.29,9.49,071112,,,A*78
$GPVTG,9.49,T,,M,1.29,N,2.4,K,A*05
$GPGGA,185832.000,3748.7991,N,12217.8615,W,1,04,2.7,4.4,M,-25.1,M,,0000*62
$GPGSA,A,3,02,10,05,25,,,,,,,,,6.5,2.7,5.8*38
$GPRMC,185832.000,A,3748.7991,N,12217.8615,W,0.67,61.28,071112,,,A*42
$GPVTG,61.28,T,,M,0.67,N,1.2,K,A*32
$GPGGA,185833.000,3748.7992,N,12217.8615,W,1,06,1.7,5.4,M,-25.1,M,,0000*60
$GPGSA,A,3,02,10,29,31,05,25,,,,,,,2.8,1.7,2.2*36
$GPRMC,185833.000,A,3748.7992,N,12217.8615,W,0.34,272.15,071112,,,A*78
$GPVTG,272.15,T,,M,0.34,N,0.6,K,A*0F
$GPGGA,185834.000,3748.7990,N,12217.8612,W,1,06,1.7,5.8,M,-25.1,M,,0000*6E
$GPGSA,A,3,02,10,29,31,05,25,,,,,,,2.8,1.7,2.2*36
$GPGSV,3,1,11,12,68,166,21,25,65,295,21,02,51,046,31,05,46,124,28*71
$GPGSV,3,2,11,29,42,301,28,10,26,055,26,31,13,313,24,21,10,234,26*78
$GPGSV,3,3,11,04,05,051,20,24,03,193,,09,00,189,*49
$GPVTG,0.66,T,,M,0.64,N,1.2,K,A*0C
$GPGGA,185835.000,3748.7987,N,12217.8613,W,1,06,1.7,6.3,M,-25.1,M,,0000*60
$GPGSA,A,3,02,10,29,31,05,25,,,,,,,2.8,1.7,2.2*36
$GPRMC,185835.000,A,3748.7987,N,12217.8613,W,0.45,31.10,071112,,,A*4A
$GPVTG,31.10,T,,M,0.45,N,0.8,K,A*37
$GPGGA,185836.000,3748.7980,N,12217.8615,W,1,06,1.7,7.0,M,-25.1,M,,0000*60
$GPGSA,A,3,02,10,29,31,05,25,,,,,,,2.8,1.7,2.2*36
$GPRMC,185836.000,A,3748.7980,N,12217.8615,W,0.36,223.15,071112,,,A*78
$GPVTG,223.15,T,,M,0.36,N,0.7,K,A*08
$GPGGA,185837.000,3748.7977,N,12217.8618,W,1,05,3.2,7.1,M,-25.1,M,,0000*61
$GPGSA,A,3,02,10,29,31,25,,,,,,,,3.4,3.2,1.0*38
$GPRMC,185837.000,A,3748.7977,N,12217.8618,W,0.44,157.71,071112,,,A*7B
$GPVTG,157.71,T,,M,0.44,N,0.8,K,A*00
$GPGGA,185838.000,3748.7973,N,12217.8622,W,1,06,1.7,7.6,M,-25.1,M,,0000*60
$GPGSA,A,3,02,10,29,31,05,25,,,,,,,2.8,1.7,2.2*36
$GPRMC,185838.000,A,3748.7973,N,12217.8622,W,0.31,182.88,071112,,,A*75
$GPVTG,182.88,T,,M,0.31,N,0.6,K,A*02
$GPGGA,185839.000,3748.7969,N,12217.8621,W,1,05,2.1,7.3,M,-25.1,M,,0000*6A
$GPGSA,A,3,02,29,31,05,25,,,,,,,,3.1,2.1,2.3*3B
$GPGSV,3,1,11,12,68,166,14,25,65,295,30,02,51,046,19,05,46,124,16*70
$GPGSV,3,2,11,29,42,301,29,10,26,055,,31,13,313,34,21,10,234,28*72
$GPGSV,3,3,11,04,05,051,22,24,03,193,,09,00,189,*4B
$GPRMC,185839.000,A,3748.7969,N,12217.8621,W,0.66,205.69,071112,,,A*7D
$GPVTG,205.69,T,,M,0.66,N,1.2,K,A*06
$GPGGA,185840.000,3748.7968,N,12217.8619,W,1,05,2.1,6.7,M,-25.1,M,,0000*6B
$GPGSA,A,3,02,29,31,05,25,,,,,,,,3.1,2.1,2.3*3B
$GPRMC,185840.000,A,3748.7968,N,12217.8619,W,0.43,78.07,071112,,,A*4E
$GPVTG,78.07,T,,M,0.43,N,0.8,K,A*3A
$GPGGA,185841.000,3748.7964,N,12217.8615,W,1,06,1.7,5.5,M,-25.1,M,,0000*6D
$GPGSA,A,3,02,10,29,31,05,25,,,,,,,2.8,1.7,2.2*36
$GPRMC,185841.000,A,3748.7964,N,12217.8615,W,1.40,104.91,071112,,,A*78
$GPVTG,104.91,T,,M,1.40,N,2.6,K,A*01
$GPGGA,185842.000,3748.7958,N,12217.8612,W,1,06,1.7,3.6,M,-25.1,M,,0000*63
$GPGSA,A,3,02,10,29,31,05,25,,,,,,,2.8,1.7,2.2*36
$GPRMC,185842.000,A,3748.7958,N,12217.8612,W,1.04,126.33,071112,,,A*7B
$GPVTG,126.33,T,,M,1.04,N,1.9,K,A*05
$GPGGA,185843.000,3748.7956,N,12217.8604,W,1,06,1.7,1.5,M,-25.1,M,,0000*6A
$GPGSA,A,3,02,10,29,31,05,25,,,,,,,2.8,1.7,2.2*36
$GPRMC,185843.000,A,3748.7956,N,12217.8604,W,0.98,96.28,071112,,,A*47
$GPVTG,96.28,T,,M,0.98,N,1.8,K,A*30
$GPGGA,185844.000,3748.7951,N,12217.8598,W,1,06,1.7,1.0,M,-25.1,M,,0000*69
$GPGSA,A,3,02,10,29,31,05,25,,,,,,,2.8,1.7,2.2*36
$GPGSV,3,1,12,12,68,166,33,25,65,295,33,02,51,046,27,05,46,124,32*7E
$GPGSV,3,2,12,29,42,301,34,10,26,055,20,31,13,313,33,21,10,234,32*73
$GPGSV,3,3,12,04,05,051,22,24,03,193,,09,00,189,,48,44,197,35*7D
$GPRMC,185844.000,A,3748.7951,N,12217.8598,W,2.20,117.88,071112,,,A*72
$GPVTG,117.88,T,,M,2.20,N,4.1,K,A*0F
$GPGGA,185845.000,3748.7947,N,12217.8587,W,1,06,1.7,1.0,M,-25.1,M,,0000*61
$GPGSA,A,3,02,10,29,31,05,25,,,,,,,2.8,1.7,2.2*36
$GPRMC,185845.000,A,3748.7947,N,12217.8587,W,1.96,125.91,071112,,,A*7D
$GPVTG,125.91,T,,M,1.96,N,3.6,K,A*08
$GPGGA,185846.000,3748.7951,N,12217.8574,W,1,06,1.7,0.0,M,-25.1,M,,0000*68
$GPGSA,A,3,02,10,29,31,05,25,,,,,,,2.8,1.7,2.2*36
$GPRMC,185846.000,A,3748.7951,N,12217.8574,W,1.76,120.57,071112,,,A*74
$GPVTG,120.57,T,,M,1.76,N,3.3,K,A*0C
$GPGGA,185847.000,3748.7947,N,12217.8569,W,1,05,3.2,0.1,M,-25.1,M,,0000*67
$GPGSA,A,3,02,10,29,31,25,,,,,,,,3.4,3.2,1.0*38
$GPRMC,185847.000,A,3748.7947,N,12217.8569,W,2.08,133.95,071112,,,A*78
$GPVTG,133.95,T,,M,2.08,N,3.9,K,A*00
$GPGGA,185848.000,3748.7942,N,12217.8561,W,1,06,1.7,-1.0,M,-25.1,M,,0000*4C
$GPGSA,A,3,02,10,29,31,05,25,,,,,,,2.8,1.7,2.2*36
$GPRMC,185848.000,A,3748.7942,N,12217.8561,W,2.10,119.28,071112,,,A*7D
$GPVTG,119.28,T,,M,2.10,N,3.9,K,A*07
$GPGGA,185849.000,3748.7936,N,12217.8555,W,1,06,1.7,-1.7,M,-25.1,M,,0000*4E
$GPGSA,A,3,02,10,29,31,05,25,,,,,,,2.8,1.7,2.2*36
$GPGSV,3,1,12,12,68,166,26,25,65,295,23,02,51,046,22,05,46,124,30*7C
$GPGSV,3,2,12,29,42,301,19,10,26,055,26,31,13,313,19,21,10,234,20*71
$GPGSV,3,3,12,04,05,051,,24,03,193,,09,00,189,,48,44,197,33*7B
$GPRMC,185849.000,A,3748.7936,N,12217.8555,W,2.03,132.02,071112,,,A*7B
$GPGGA,185850.000,3748.7937,N,12217.8544,W,1,06,1.7,-0.2,M,-25.1,M,,0000*43
$GPGSA,A,3,02,10,29,31,05,25,,,,,,,2.8,1.7,2.2*36
$GPRMC,185850.000,A,3748.7937,N,12217.8544,W,0.96,143.19,071112,,,A*70
$GPVTG,143.19,T,,M,0.96,N,1.8,K,A*05
$GPGGA,185851.000,3748.7936,N,12217.8541,W,1,06,1.7,0.9,M,-25.1,M,,0000*60
$GPGSA,A,3,02,10,29,31,05,25,,,,,,,2.8,1.7,2.2*36
$GPRMC,185851.000,A,3748.7936,N,12217.8541,W,0.94,146.40,071112,,,A*7E
$GPVTG,146.40,T,,M,0.94,N,1.7,K,A*01
$GPGGA,185852.000,3748.7929,N,12217.8542,W,1,06,1.7,0.5,M,-25.1,M,,0000*62
$GPGSA,A,3,02,10,29,31,05,25,,,,,,,2.8,1.7,2.2*36
$GPRMC,185852.000,A,3748.7929,N,12217.8542,W,0.14,166.99,071112,,,A*7E
$GPVTG,166.99,T,,M,0.14,N,0.3,K,A*0A
$GPGGA,185853.000,3748.7931,N,12217.8542,W,1,06,1.7,1.6,M,-25.1,M,,0000*68
$GPGSA,A,3,02,10,29,31,05,25,,,,,,,2.8,1.7,2.2*36
$GPRMC,185853.000,A,3748.7931,N,12217.8542,W,0.62,145.02,071112,,,A*74
$GPVTG,145.02,T,,M,0.62,N,1.1,K,A*0B
$GPGGA,185854.000,3748.7933,N,12217.8537,W,1,06,1.7,3.2,M,-25.1,M,,0000*69
$GPGSA,A,3,02,10,29,31,05,25,,,,,,,2.8,1.7,2.2*36
$GPGSV,3,1,12,12,68,166,31,25,65,295,22,02,51,046,24,05,46,124,29*75
$GPGSV,3,2,12,29,42,301,21,10,26,055,23,31,13,313,20,21,10,234,19*7F
$GPGSV,3,3,12,04,05,051,,24,03,193,,09,00,189,,48,44,197,35*7D
$GPRMC,185854.000,A,3748.7933,N,12217.8537,W,1.29,141.69,071112,,,A*74
$GPVTG,141.69,T,,M,1.29,N,2.4,K,A*0A
$GPGGA,185855.000,3748.7935,N,12217.8529,W,1,06,1.7,3.2,M,-25.1,M,,0000*61
$GPGSA,A,3,02,10,29,31,05,25,,,,,,,2.8,1.7,2.2*36
$GPRMC,185855.000,A,3748.7935,N,12217.8529,W,1.99,113.54,071112,,,A*7E
$GPVTG,113.54,T,,M,1.99,N,3.7,K,A*0A
$GPGGA,185856.000,3748.7933,N,12217.8522,W,1,06,1.7,3.8,M,-25.1,M,,0000*65
$GPGSA,A,3,02,10,29,31,05,25,,,,,,,2.8,1.7,2.2*36
$GPRMC,185856.000,A,3748.7933,N,12217.8522,W,1.68,125.23,071112,,,A*7B
$GPVTG,125.23,T,,M,1.68,N,3.1,K,A*07
$GPGGA,185857.000,3748.7931,N,12217.8511,W,1,06,1.7,4.3,M,-25.1,M,,0000*6A
$GPGSA,A,3,02,10,29,31,05,25,,,,,,,2.8,1.7,2.2*36
$GPRMC,185857.000,A,3748.7931,N,12217.8511,W,1.76,124.21,071112,,,A*74
$GPVTG,124.21,T,,M,1.76,N,3.3,K,A*09
$GPGGA,185858.000,3748.7927,N,12217.8503,W,1,06,1.7,2.9,M,-25.1,M,,0000*6D
$GPGSA,A,3,02,10,29,31,05,25,,,,,,,2.8,1.7,2.2*36
$GPRMC,185858.000,A,3748.7927,N,12217.8503,W,1.65,116.72,071112,,,A*7A
$GPVTG,116.72,T,,M,1.65,N,3.0,K,A*0F
$GPGGA,185859.000,3748.7922,N,12217.8498,W,1,06,1.7,1.8,M,-25.1,M,,0000*68
$GPGSA,A,3,02,10,29,31,05,25,,,,,,,2.8,1.7,2.2*36
$GPGSV,3,1,12,12,68,166,24,25,65,295,23,02,51,046,19,05,46,124,30*76
$GPGSV,3,2,12,29,42,301,22,10,26,055,20,31,13,313,21,21,10,234,20*74
$GPGSV,3,3,12,04,05,051,17,24,03,193,,09,00,189,,48,44,197,30*7E
$GPRMC,185859.000,A,3748.7922,N,12217.8498,W,1.19,99.84,071112,,,A*49
$GPVTG,99.84,T,,M,1.19,N,2.2,K,A*38
$GPGGA,185900.000,3748.7913,N,12217.8497,W,1,06,1.7,2.5,M,-25.1,M,,0000*66
$GPGSA,A,3,02,10,29,31,05,25,,,,,,,2.8,1.7,2.2*36
$GPRMC,185900.000,A,3748.7913,N,12217.8497,W,1.12,109.03,071112,,,A*75
$GPVTG,109.03,T,,M,1.12,N,2.1,K,A*07
$GPGGA,185901.000,3748.7902,N,12217.8495,W,1,06,1.7,1.0,M,-25.1,M,,0000*63
$GPGSA,A,3,02,10,29,31,05,25,,,,,,,2.8,1.7,2.2*36
$GPRMC,185901.000,A,3748.7902,N,12217.8495,W,1.18,135.33,071112,,,A*70
$GPVTG,135.33,T,,M,1.18,N,2.2,K,A*02
$GPGGA,185902.000,3748.7886,N,12217.8492,W,1,06,1.7,0.2,M,-25.1,M,,0000*69
$GPGSA,A,3,02,10,29,31,05,25,,,,,,,2.8,1.7,2.2*36
$GPRMC,185902.000,A,3748.7886,N,12217.8492,W,1.70,173.72,071112,,,A*70
$GPVTG,173.72,T,,M,1.70,N,3.2,K,A*0A
$GPGGA,185903.000,3748.7871,N,12217.8493,W,1,06,1.7,-1.0,M,-25.1,M,,0000*4F
$GPGSA,A,3,02,10,29,31,05,25,,,,,,,2.8,1.7,2.2*36
$GPRMC,185903.000,A,3748.7871,N,12217.8493,W,1.55,168.01,071112,,,A*71
$GPVTG,168.01,T,,M,1.55,N,2.9,K,A*09
$GPGGA,185904.000,3748.7859,N,12217.8492,W,1,06,1.7,-1.0,M,-25.1,M,,0000*43
$GPGSA,A,3,02,10,29,31,05,25,,,,,,,2.8,1.7,2.2*36
$GPGSV,3,1,12,12,68,166,26,25,65,295,19,02,51,046,21,05,46,124,27*70
$GPGSV,3,2,12,29,42,301,19,10,26,055,20,31,13,313,20,21,10,234,27*7A
$GPGSV,3,3,12,04,05,051,16,24,03,193,,09,00,189,,48,44,197,32*7D
$GPVTG,189.83,T,,M,1.77,N,3.3,K,A*07
$GPGGA,185905.000,3748.7853,N,12217.8491,W,1,06,1.7,1.1,M,-25.1,M,,0000*67
$GPGSA,A,3,02,10,29,31,05,25,,,,,,,2.8,1.7,2.2*36
$GPRMC,185905.000,A,3748.7853,N,12217.8491,W,1.57,208.04,071112,,,A*77
$GPVTG,208.04,T,,M,1.57,N,2.9,K,A*0B
$GPGGA,185906.000,3748.7856,N,12217.8482,W,1,06,1.7,0.9,M,-25.1,M,,0000*6A
$GPGSA,A,3,02,10,29,31,05,25,,,,,,,2.8,1.7,2.2*36
$GPRMC,185906.000,A,3748.7856,N,12217.8482,W,0.59,153.96,071112,,,A*7A
$GPVTG,153.96,T,,M,0.59,N,1.1,K,A*09
$GPGGA,185907.000,3748.7857,N,12217.8475,W,1,06,1.7,2.7,M,-25.1,M,,0000*6E
$GPGSA,A,3,02,10,29,31,05,25,,,,,,,2.8,1.7,2.2*36
$GPRMC,185907.000,A,3748.7857,N,12217.8475,W,1.00,147.69,071112,,,A*7A
$GPVTG,147.69,T,,M,1.00,N,1.8,K,A*08
$GPGGA,185908.000,3748.7854,N,12217.8468,W,1,06,1.7,3.2,M,-25.1,M,,0000*6A
$GPGSA,A,3,02,10,29,31,05,25,,,,,,,2.8,1.7,2.2*36
$GPRMC,185908.000,A,3748.7854,N,12217.8468,W,1.18,102.01,071112,,,A*7C
$GPVTG,102.01,T,,M,1.18,N,2.2,K,A*07
$GPGGA,185909.000,3748.7852,N,12217.8460,W,1,05,1.9,3.4,M,-25.1,M,,0000*6E
$GPGSA,A,3,02,10,29,05,25,,,,,,,,4.2,1.9,3.8*3D
$GPGSV,3,1,12,12,68,166,30,25,65,295,20,02,51,046,22,05,46,124,35*7D
$GPGSV,3,2,12,29,42,301,19,10,26,055,21,31,13,313,16,21,10,234,27*7E
$GPGSV,3,3,12,04,05,051,17,24,03,193,,09,00,189,,48,44,197,36*78
$GPRMC,185909.000,A,3748.7852,N,12217.8460,W,1.33,95.22,071112,,,A*44
$GPVTG,95.22,T,,M,1.33,N,2.5,K,A*37
$GPGGA,185910.000,3748.7851,N,12217.8448,W,1,05,1.9,3.8,M,-25.1,M,,0000*63
$GPGSA,A,3,02,10,29,05,25,,,,,,,,4.2,1.9,3.8*3D
$GPRMC,185910.000,A,3748.7851,N,12217.8448,W,1.07,93.32,071112,,,A*45
$GPVTG,93.32,T,,M,1.07,N,2.0,K,A*32
$GPGGA,185911.000,3748.7850,N,12217.8438,W,1,05,1.9,2.9,M,-25.1,M,,0000*64
$GPGSA,A,3,02,10,29,05,25,,,,,,,,4.2,1.9,3.8*3D
$GPRMC,185911.000,A,3748.7850,N,12217.8438,W,0.98,97.94,071112,,,A*4D
$GPVTG,97.94,T,,M,0.98,N,1.8,K,A*36
$GPGGA,185912.000,3748.7841,N,12217.8431,W,1,06,1.7,2.2,M,-25.1,M,,0000*68
$GPGSA,A,3,02,10,29,31,05,25,,,,,,,2.8,1.7,2.2*36
$GPRMC,185912.000,A,3748.7841,N,12217.8431,W,1.03,89.42,071112,,,A*40
$GPVTG,89.42,T,,M,1.03,N,1.9,K,A*30
$GPGGA,185913.000,3748.7834,N,12217.8422,W,1,06,1.7,-0.3,M,-25.1,M,,0000*47
$GPGSA,A,3,02,10,29,31,05,25,,,,,,,2.8,1.7,2.2*36
$GPRMC,185913.000,A,3748.7834,N,12217.8422,W,1.63,77.45,071112,,,A*41
$GPVTG,77.45,T,,M,1.63,N,3.0,K,A*3B
$GPGGA,185914.000,3748.7828,N,12217.8415,W,1,06,1.7,-1.5,M,-25.1,M,,0000*4E
$GPGSA,A,3,02,10,29,31,05,25,,,,,,,2.8,1.7,2.2*36
$GPGSV,3,1,12,12,68,166,30,25,65,295,26,02,51,046,28,05,46,124,28*7D
$GPGSV,3,2,12,29,42,301,25,10,26,055,21,31,13,313,22,21,10,234,24*75
$GPGSV,3,3,12,04,05,051,17,24,03,193,,09,00,189,,48,44,197,34*7A
$GPRMC,185914.000,A,3748.7828,N,12217.8415,W,2.02,121.97,071112,,,A*76
$GPVTG,121.97,T,,M,2.02,N,3.8,K,A*0A
$GPGGA,185915.000,3748.7822,N,12217.8409,W,1,06,1.7,-2.9,M,-25.1,M,,0000*47
$GPGSA,A,3,02,10,29,31,05,25,,,,,,,2.8,1.7,2.2*36
$GPRMC,185915.000,A,3748.7822,N,12217.8409,W,1.74,150.28,071112,,,A*70
$GPVTG,150.28,T,,M,1.74,N,3.2,K,A*00
$GPGGA,185916.000,3748.7816,N,12217.8411,W,1,06,1.7,-3.1,M,-25.1,M,,0000*43
$GPGSA,A,3,02,10,29,31,05,25,,,,,,,2.8,1.7,2.2*36
$GPRMC,185916.000,A,3748.7816,N,12217.8411,W,1.26,142.46,071112,,,A*71
$GPVTG,142.46,T,,M,1.26,N,2.3,K,A*0C
$GPGGA,185917.000,3748.7809,N,12217.8403,W,1,06,1.7,-3.4,M,-25.1,M,,0000*4A
$GPGSA,A,3,02,10,29,31,05,25,,,,,,,2.8,1.7,2.2*36
$GPRMC,185917.000,A,3748.7809,N,12217.8403,W,2.09,141.01,071112,,,A*73
$GPVTG,141.01,T,,M,2.09,N,3.9,K,A*09
$GPGGA,185918.000,3748.7810,N,12217.8394,W,1,06,1.7,-2.2,M,-25.1,M,,0000*43
$GPGSA,A,3,02,10,29,31,05,25,,,,,,,2.8,1.7,2.2*36
$GPRMC,185918.000,A,3748.7810,N,12217.8394,W,1.84,112.96,071112,,,A*73
$GPVTG,112.96,T,,M,1.84,N,3.4,K,A*0A
$GPGGA,185919.000,3748.7818,N,12217.8378,W,1,06,1.7,0.3,M,-25.1,M,,0000*66
$GPGSA,A,3,02,10,29,31,05,25,,,,,,,2.8,1.7,2.2*36
$GPGSV,3,1,12,12,68,166,31,25,65,295,24,02,51,046,25,05,46,124,25*7E
$GPGSV,3,2,12,29,42,301,23,10,26,055,23,31,13,313,23,21,10,234,24*70
$GPGSV,3,3,12,04,05,051,17,24,03,193,,09,00,189,,48,44,197,36*78
$GPVTG,109.17,T,,M,2.36,N,4.4,K,A*04
$GPGGA,185920.000,3748.7821,N,12217.8364,W,1,06,1.7,1.6,M,-25.1,M,,0000*6F
$GPGSA,A,3,02,10,29,31,05,25,,,,,,,2.8,1.7,2.2*36
$GPRMC,185920.000,A,3748.7821,N,12217.8364,W,1.73,119.57,071112,,,A*7B
$GPVTG,119.57,T,,M,1.73,N,3.2,K,A*02
$GPGGA,185921.000,3748.7823,N,12217.8348,W,1,06,1.7,4.2,M,-25.1,M,,0000*63
$GPGSA,A,3,02,10,29,31,05,25,,,,,,,2.8,1.7,2.2*36
$GPRMC,185921.000,A,3748.7823,N,12217.8348,W,2.46,105.54,071112,,,A*7D
$GPVTG,105.54,T,,M,2.46,N,4.6,K,A*0A
$GPGGA,185922.000,3748.7824,N,12217.8333,W,1,06,1.7,5.0,M,-25.1,M,,0000*68
$GPGSA,A,3,02,10,29,31,05,25,,,,,,,2.8,1.7,2.2*36
$GPRMC,185922.000,A,3748.7824,N,12217.8333,W,2.67,93.73,071112,,,A*4D
$GPVTG,93.73,T,,M,2.67,N,4.9,K,A*3D
$GPGGA,185923.000,3748.7818,N,12217.8327,W,1,06,1.7,5.1,M,-25.1,M,,0000*62
$GPGSA,A,3,02,10,29,31,05,25,,,,,,,2.8,1.7,2.2*36
$GPRMC,185923.000,A,3748.7818,N,12217.8327,W,1.72,102.23,071112,,,A*7D
$GPVTG,102.23,T,,M,1.72,N,3.2,K,A*0A
$GPGGA,185924.000,3748.7804,N,12217.8326,W,1,06,1.7,5.0,M,-25.1,M,,0000*68
$GPGSA,A,3,02,10,29,31,05,25,,,,,,,2.8,1.7,2.2*36
$GPGSV,3,1,12,12,68,166,30,25,65,295,23,02,51,046,22,05,46,124,31*7A
$GPGSV,3,2,12,29,42,301,22,10,26,055,23,31,13,313,19,21,10,234,16*79
$GPGSV,3,3,12,04,05,051,16,24,03,193,,09,00,189,,48,44,197,34*7B
$GPRMC,185924.000,A,3748.7804,N,12217.8326,W,1.93,157.79,071112,,,A*76
$GPVTG,157.79,T,,M,1.93,N,3.6,K,A*0E
$GPGGA,185925.000,3748.7795,N,12217.8317,W,1,06,1.7,5.0,M,-25.1,M,,0000*6C
$GPGSA,A,3,02,10,29,31,05,25,,,,,,,2.8,1.7,2.2*36
$GPRMC,185925.000,A,3748.7795,N,12217.8317,W,1.55,117.05,071112,,,A*77
$GPVTG,117.05,T,,M,1.55,N,2.9,K,A*05
$GPGGA,185926.000,3748.7793,N,12217.8307,W,1,06,1.7,7.1,M,-25.1,M,,0000*6B
$GPGSA,A,3,02,10,29,31,05,25,,,,,,,2.8,1.7,2.2*36
$GPRMC,185926.000,A,3748.7793,N,12217.8307,W,1.13,110.34,071112,,,A*74
$GPVTG,110.34,T,,M,1.13,N,2.1,K,A*0A
$GPGGA,185927.000,3748.7797,N,12217.8299,W,1,06,1.7,8.1,M,-25.1,M,,0000*67
$GPGSA,A,3,02,10,29,31,05,25,,,,,,,2.8,1.7,2.2*36
$GPRMC,185927.000,A,3748.7797,N,12217.8299,W,1.51,96.41,071112,,,A*4C
$GPVTG,96.41,T,,M,1.51,N,2.8,K,A*38
$GPGGA,185928.000,3748.7794,N,12217.8294,W,1,06,1.7,8.6,M,-25.1,M,,0000*61
$GPGSA,A,3,02,10,29,31,05,25,,,,,,,2.8,1.7,2.2*36
$GPRMC,185928.000,A,3748.7794,N,12217.8294,W,1.48,95.84,071112,,,A*4F
$GPVTG,95.84,T,,M,1.48,N,2.7,K,A*35
$GPGGA,185929.000,3748.7785,N,12217.8293,W,1,06,1.7,8.7,M,-25.1,M,,0000*66
$GPGSA,A,3,02,10,29,31,05,25,,,,,,,2.8,1.7,2.2*36
$GPGSV,3,1,12,12,68,166,28,25,65,295,20,02,51,046,23,05,46,124,29*78
$GPGSV,3,2,12,29,42,301,22,10,26,055,21,31,13,313,20,21,10,234,21*75
$GPGSV,3,3,12,04,05,051,15,24,03,193,,09,00,189,,48,44,197,36*7A
$GPRMC,185929.000,A,3748.7785,N,12217.8293,W,2.01,144.38,071112,,,A*7D
$GPVTG,144.38,T,,M,2.01,N,3.7,K,A*00
$GPGGA,185930.000,3748.7780,N,12217.8290,W,1,06,1.7,8.0,M,-25.1,M,,0000*6F
$GPGSA,A,3,02,10,29,31,05,25,,,,,,,2.8,1.7,2.2*36
$GPRMC,185930.000,A,3748.7780,N,12217.8290,W,1.51,107.55,071112,,,A*79
$GPVTG,107.55,T,,M,1.51,N,2.8,K,A*04
$GPGGA,185931.000,3748.7784,N,12217.8282,W,1,06,1.7,8.2,M,-25.1,M,,0000*6B
$GPGSA,A,3,02,10,29,31,05,25,,,,,,,2.8,1.7,2.2*36
$GPRMC,185931.000,A,3748.7784,N,12217.8282,W,0.83,117.17,071112,,,A*76
$GPVTG,117.17,T,,M,0.83,N,1.5,K,A*03
$GPGGA,185932.000,3748.7786,N,12217.8272,W,1,06,1.7,8.1,M,-25.1,M,,0000*66
$GPGSA,A,3,02,10,29,31,05,25,,,,,,,2.8,1.7,2.2*36
$GPRMC,185932.000,A,3748.7786,N,12217.8272,W,1.99,127.23,071112,,,A*76
$GPVTG,127.23,T,,M,1.99,N,3.7,K,A*0D
$GPGGA,185933.000,3748.7780,N,12217.8267,W,1,06,1.7,7.6,M,-25.1,M,,0000*6D
$GPGSA,A,3,02,10,29,31,05,25,,,,,,,2.8,1.7,2.2*36
$GPRMC,185933.000,A,3748.7780,N,12217.8267,W,1.82,128.67,071112,,,A*70
$GPVTG,128.67,T,,M,1.82,N,3.4,K,A*0B
$GPGGA,185934.000,3748.7772,N,12217.8262,W,1,06,1.7,7.3,M,-25.1,M,,0000*67
$GPGSA,A,3,02,10,29,31,05,25,,,,,,,2.8,1.7,2.2*36
$GPGSV,3,1,12,12,68,166,29,25,65,295,21,02,51,046,23,05,46,124,29*78
$GPGSV,3,2,12,29,42,301,21,10,26,055,21,31,13,313,19,21,10,234,23*7E
$GPGSV,3,3,12,04,05,051,14,24,03,193,,09,00,189,,48,44,197,36*7B
$GPVTG,141.72,T,,M,1.16,N,2.2,K,A*0A
$GPGGA,185935.000,3748.7771,N,12217.8254,W,1,06,1.7,9.1,M,-25.1,M,,0000*6C
$GPGSA,A,3,02,10,29,31,05,25,,,,,,,2.8,1.7,2.2*36
$GPRMC,185935.000,A,3748.7771,N,12217.8254,W,1.18,106.08,071112,,,A*7E
$GPVTG,106.08,T,,M,1.18,N,2.2,K,A*0A
$GPGGA,185936.000,3748.7770,N,12217.8243,W,1,06,1.7,9.8,M,-25.1,M,,0000*61
$GPGSA,A,3,02,10,29,31,05,25,,,,,,,2.8,1.7,2.2*36
$GPRMC,185936.000,A,3748.7770,N,12217.8243,W,2.74,82.03,071112,,,A*45
$GPVTG,82.03,T,,M,2.74,N,5.1,K,A*31
$GPGGA,185937.000,3748.7768,N,12217.8230,W,1,06,1.7,8.3,M,-25.1,M,,0000*67
$GPGSA,A,3,02,10,29,31,05,25,,,,,,,2.8,1.7,2.2*36
$GPRMC,185937.000,A,3748.7768,N,12217.8230,W,2.90,92.51,071112,,,A*45
$GPVTG,92.51,T,,M,2.90,N,5.4,K,A*38
$GPGGA,185938.000,3748.7765,N,12217.8218,W,1,06,1.7,8.1,M,-25.1,M,,0000*6D
$GPGSA,A,3,02,10,29,31,05,25,,,,,,,2.8,1.7,2.2*36
$GPRMC,185938.000,A,3748.7765,N,12217.8218,W,2.45,122.84,071112,,,A*77
$GPVTG,122.84,T,,M,2.45,N,4.5,K,A*02
$GPGGA,185939.000,3748.7759,N,12217.8207,W,1,06,1.7,8.0,M,-25.1,M,,0000*6C
$GPGSA,A,3,02,10,29,31,05,25,,,,,,,2.8,1.7,2.2*36
$GPGSV,3,1,12,12,68,166,30,25,65,295,21,02,51,046,23,05,46,124,30*78
$GPGSV,3,2,12,29,42,301,21,10,26,055,20,31,13,313,22,21,10,234,23*77
$GPGSV,3,3,12,04,05,051,14,24,03,193,,09,00,189,,48,44,197,36*7B
$GPRMC,185939.000,A,3748.7759,N,12217.8207,W,2.39,142.28,071112,,,A*7C
$GPVTG,142.28,T,,M,2.39,N,4.4,K,A*08
$GPGGA,185940.000,3748.7757,N,12217.8192,W,1,06,1.7,6.7,M,-25.1,M,,0000*6A
$GPGSA,A,3,02,10,29,31,05,25,,,,,,,2.8,1.7,2.2*36
$GPRMC,185940.000,A,3748.7757,N,12217.8192,W,2.25,128.14,071112,,,A*7D
$GPVTG,128.14,T,,M,2.25,N,4.2,K,A*00
$GPGGA,185941.000,3748.7749,N,12217.8184,W,1,06,1.7,8.0,M,-25.1,M,,0000*6A
$GPGSA,A,3,02,10,29,31,05,25,,,,,,,2.8,1.7,2.2*36
$GPRMC,185941.000,A,3748.7749,N,12217.8184,W,1.82,128.07,071112,,,A*78
$GPVTG,128.07,T,,M,1.82,N,3.4,K,A*0D
$GPGGA,185942.000,3748.7744,N,12217.8176,W,1,06,1.7,9.1,M,-25.1,M,,0000*69
$GPGSA,A,3,02,10,29,31,05,25,,,,,,,2.8,1.7,2.2*36
$GPRMC,185942.000,A,3748.7744,N,12217.8176,W,1.64,136.47,071112,,,A*78
$GPVTG,136.47,T,,M,1.64,N,3.0,K,A*0A
$GPGGA,185943.000,3748.7732,N,12217.8172,W,1,06,1.7,9.4,M,-25.1,M,,0000*68
$GPGSA,A,3,02,10,29,31,05,25,,,,,,,2.8,1.7,2.2*36
$GPRMC,185943.000,A,3748.7732,N,12217.8172,W,2.00,133.37,071112,,,A*7F
$GPVTG,133.37,T,,M,2.00,N,3.7,K,A*0E
$GPGGA,185944.000,3748.7729,N,12217.8162,W,1,06,1.7,11.5,M,-25.1,M,,0000*5C
$GPGSA,A,3,02,10,29,31,05,25,,,,,,,2.8,1.7,2.2*36
$GPGSV,3,1,12,12,68,166,30,25,65,295,21,02,51,046,22,05,46,124,30*79
$GPGSV,3,2,12,29,42,301,21,10,26,055,21,31,13,313,21,21,10,234,23*75
$GPGSV,3,3,12,04,05,051,14,24,03,193,,09,00,189,,48,44,197,36*7B
$GPRMC,185944.000,A,3748.7729,N,12217.8162,W,2.35,95.51,071112,,,A*48
$GPVTG,95.51,T,,M,2.35,N,4.4,K,A*31
$GPGGA,185945.000,3748.7723,N,12217.8158,W,1,06,1.7,13.5,M,-25.1,M,,0000*5C
$GPGSA,A,3,02,10,29,31,05,25,,,,,,,2.8,1.7,2.2*36
$GPRMC,185945.000,A,3748.7723,N,12217.8158,W,2.04,89.46,071112,,,A*43
$GPVTG,89.46,T,,M,2.04,N,3.8,K,A*33
$GPGGA,185946.000,3748.7719,N,12217.8146,W,1,06,1.7,12.3,M,-25.1,M,,0000*5E
$GPGSA,A,3,02,10,29,31,05,25,,,,,,,2.8,1.7,2.2*36
$GPRMC,185946.000,A,3748.7719,N,12217.8146,W,1.87,85.49,071112,,,A*4D
$GPVTG,85.49,T,,M,1.87,N,3.5,K,A*35
$GPGGA,185947.000,3748.7715,N,12217.8148,W,1,06,1.7,13.0,M,-25.1,M,,0000*5F
$GPGSA,A,3,02,10,29,31,05,25,,,,,,,2.8,1.7,2.2*36
$GPRMC,185947.000,A,3748.7715,N,12217.8148,W,1.53,94.13,071112,,,A*48
$GPVTG,94.13,T,,M,1.53,N,2.8,K,A*3F
$GPGGA,185948.000,3748.7710,N,12217.8139,W,1,06,1.7,11.6,M,-25.1,M,,0000*57
$GPGSA,A,3,02,10,29,31,05,25,,,,,,,2.8,1.7,2.2*36
$GPRMC,185948.000,A,3748.7710,N,12217.8139,W,1.31,132.86,071112,,,A*71
$GPVTG,132.86,T,,M,1.31,N,2.4,K,A*06
$GPGGA,185949.000,3748.7702,N,12217.8134,W,1,06,1.7,11.0,M,-25.1,M,,0000*5E
$GPGSA,A,3,02,10,29,31,05,25,,,,,,,2.8,1.7,2.2*36
$GPGSV,3,1,11,12,67,166,31,25,66,294,21,02,50,046,22,05,46,123,30*70
$GPGSV,3,2,11,29,42,302,20,10,25,054,20,31,13,312,21,21,10,235,29*7D
$GPGSV,3,3,11,04,05,052,15,24,03,192,,48,44,197,36*42
$GPVTG,154.00,T,,M,1.48,N,2.7,K,A*05
$GPGGA,185950.000,3748.7694,N,12217.8129,W,1,06,1.7,11.0,M,-25.1,M,,0000*54
$GPGSA,A,3,02,10,29,31,05,25,,,,,,,2.8,1.7,2.2*36
$GPRMC,185950.000,A,3748.7694,N,12217.8129,W,2.35,132.17,071112,,,A*7B
$GPVTG,132.17,T,,M,2.35,N,4.4,K,A*0F
$GPGGA,185951.000,3748.7683,N,12217.8125,W,1,06,1.7,11.1,M,-25.1,M,,0000*5E
$GPGSA,A,3,02,10,29,31,05,25,,,,,,,2.8,1.7,2.2*36
$GPRMC,185951.000,A,3748.7683,N,12217.8125,W,2.48,130.57,071112,,,A*7C
$GPVTG,130.57,T,,M,2.48,N,4.6,K,A*01
$GPGGA,185952.000,3748.7675,N,12217.8119,W,1,06,1.7,10.5,M,-25.1,M,,0000*5E
$GPGSA,A,3,02,10,29,31,05,25,,,,,,,2.8,1.7,2.2*36
$GPRMC,185952.000,A,3748.7675,N,12217.8119,W,1.60,123.71,071112,,,A*76
$GPVTG,123.71,T,,M,1.60,N,3.0,K,A*0F
$GPGGA,185953.000,3748.7668,N,12217.8113,W,1,06,1.7,7.2,M,-25.1,M,,0000*68
$GPGSA,A,3,02,10,29,31,05,25,,,,,,,2.8,1.7,2.2*36
$GPRMC,185953.000,A,3748.7668,N,12217.8113,W,1.49,127.51,071112,,,A*7C
$GPVTG,127.51,T,,M,1.49,N,2.8,K,A*0B
$GPGGA,185954.000,3748.7658,N,12217.8107,W,1,06,1.7,7.1,M,-25.1,M,,0000*6A
$GPGSA,A,3,02,10,29,31,05,25,,,,,,,2.8,1.7,2.2*36
$GPGSV,3,1,11,12,67,166,31,25,66,294,21,02,50,046,21,05,46,123,31*72
$GPGSV,3,2,11,29,42,302,20,10,25,054,21,31,13,312,20,21,10,235,29*7D
$GPGSV,3,3,11,04,05,052,16,24,03,192,,48,44,197,37*40
$GPRMC,185954.000,A,3748.7658,N,12217.8107,W,1.89,149.52,071112,,,A*7A
$GPVTG,149.52,T,,M,1.89,N,3.5,K,A*00
$GPGGA,185955.000,3748.7643,N,12217.8106,W,1,06,1.7,7.1,M,-25.1,M,,0000*60
$GPGSA,A,3,02,10,29,31,05,25,,,,,,,2.8,1.7,2.2*36
$GPRMC,185955.000,A,3748.7643,N,12217.8106,W,2.65,164.63,071112,,,A*7C
$GPVTG,164.63,T,,M,2.65,N,4.9,K,A*07
$GPGGA,185956.000,3748.7642,N,12217.8095,W,1,06,1.7,7.0,M,-25.1,M,,0000*68
$GPGSA,A,3,02,10,29,31,05,25,,,,,,,2.8,1.7,2.2*36
$GPRMC,185956.000,A,3748.7642,N,12217.8095,W,1.81,122.73,071112,,,A*7F
$GPVTG,122.73,T,,M,1.81,N,3.3,K,A*00
$GPGGA,185957.000,3748.7636,N,12217.8094,W,1,06,1.7,7.0,M,-25.1,M,,0000*6B
$GPGSA,A,3,02,10,29,31,05,25,,,,,,,2.8,1.7,2.2*36
$GPRMC,185957.000,A,3748.7636,N,12217.8094,W,1.63,105.95,071112,,,A*7D
$GPVTG,105.95,T,,M,1.63,N,3.0,K,A*02
$GPGGA,185958.000,3748.7637,N,12217.8084,W,1,06,1.7,6.9,M,-25.1,M,,0000*6C
$GPGSA,A,3,02,10,29,31,05,25,,,,,,,2.8,1.7,2.2*36
$GPRMC,185958.000,A,3748.7637,N,12217.8084,W,1.85,89.69,071112,,,A*4C
$GPVTG,89.69,T,,M,1.85,N,3.4,K,A*38
$GPGGA,185959.000,3748.7641,N,12217.8066,W,1,06,1.7,6.3,M,-25.1,M,,0000*6A
$GPGSA,A,3,02,10,29,31,05,25,,,,,,,2.8,1.7,2.2*36
$GPGSV,3,1,11,12,67,166,31,25,66,294,21,02,50,046,22,05,46,123,31*71
$GPGSV,3,2,11,29,42,302,21,10,25,054,20,31,13,312,20,21,10,235,29*7D
$GPGSV,3,3,11,04,05,052,16,24,03,192,,48,44,197,37*40
$GPRMC,185959.000,A,3748.7641,N,12217.8066,W,2.71,72.82,071112,,,A*49
$GPVTG,72.82,T,,M,2.71,N,5.0,K,A*33
$GPGGA,190000.000,3748.7642,N,12217.8054,W,1,06,1.7,8.2,M,-25.1,M,,0000*66
$GPGSA,A,3,02,10,29,31,05,25,,,,,,,2.8,1.7,2.2*36
$GPRMC,190000.000,A,3748.7642,N,12217.8054,W,1.99,77.83,071112,,,A*4B
$GPVTG,77.83,T,,M,1.99,N,3.7,K,A*33
$GPGGA,190001.000,3748.7642,N,12217.8039,W,1,06,1.7,5.2,M,-25.1,M,,0000*61
$GPGSA,A,3,02,10,29,31,05,25,,,,,,,2.8,1.7,2.2*36
$GPRMC,190001.000,A,3748.7642,N,12217.8039,W,1.74,80.69,071112,,,A*4E
$GPVTG,80.69,T,,M,1.74,N,3.2,K,A*39
$GPGGA,190002.000,3748.7637,N,12217.8030,W,1,06,1.7,3.7,M,-25.1,M,,0000*6A
$GPGSA,A,3,02,10,29,31,05,25,,,,,,,2.8,1.7,2.2*36
$GPRMC,190002.000,A,3748.7637,N,12217.8030,W,1.85,114.11,071112,,,A*7B
$GPVTG,114.11,T,,M,1.85,N,3.4,K,A*02
$GPGGA,190003.000,3748.7631,N,12217.8021,W,1,06,1.7,-1.9,M,-25.1,M,,0000*4C
$GPGSA,A,3,02,10,29,31,05,25,,,,,,,2.8,1.7,2.2*36
$GPRMC,190003.000,A,3748.7631,N,12217.8021,W,1.43,139.16,071112,,,A*7E
$GPVTG,139.16,T,,M,1.43,N,2.6,K,A*03
$GPGGA,190004.000,3748.7628,N,12217.8011,W,1,06,1.7,-4.8,M,-25.1,M,,0000*44
$GPGSA,A,3,02,10,29,31,05,25,,,,,,,2.8,1.7,2.2*36
$GPGSV,3,1,11,12,67,166,31,25,66,294,22,02,50,046,29,05,46,123,32*7A
$GPGSV,3,2,11,29,42,302,21,10,25,054,23,31,13,312,20,21,10,235,26*71
$GPGSV,3,3,11,04,05,052,16,24,03,192,,48,44,197,35*42
$GPRMC,190004.000,A,3748.7628,N,12217.8011,W,1.77,151.78,071112,,,A*73
$GPGGA,190005.000,3748.7624,N,12217.8002,W,1,06,1.7,-6.7,M,-25.1,M,,0000*46
$GPGSA,A,3,02,10,29,31,05,25,,,,,,,2.8,1.7,2.2*36
$GPRMC,190005.000,A,3748.7624,N,12217.8002,W,2.14,145.63,071112,,,A*75
$GPVTG,145.63,T,,M,2.14,N,4.0,K,A*0B
$GPGGA,190006.000,3748.7621,N,12217.7998,W,1,06,1.7,-5.8,M,-25.1,M,,0000*49
$GPGSA,A,3,02,10,29,31,05,25,,,,,,,2.8,1.7,2.2*36
$GPRMC,190006.000,A,3748.7621,N,12217.7998,W,1.67,163.09,071112,,,A*79
$GPVTG,163.09,T,,M,1.67,N,3.1,K,A*02
$GPGGA,190007.000,3748.7611,N,12217.7992,W,2,04,7.3,-6.2,M,-25.1,M,1.8,0000*6C
$GPGSA,A,3,29,31,05,25,,,,,,,,,7.3,7.3,1.0*38
$GPRMC,190007.000,A,3748.7611,N,12217.7992,W,2.59,167.21,071112,,,D*74
$GPVTG,167.21,T,,M,2.59,N,4.8,K,D*09
$GPGGA,190008.000,3748.7603,N,12217.7984,W,2,04,7.3,-5.1,M,-25.1,M,1.8,0000*67
$GPGSA,A,3,29,31,05,25,,,,,,,,,7.4,7.3,1.0*3F
$GPRMC,190008.000,A,3748.7603,N,12217.7984,W,2.15,148.15,071112,,,D*7D
$GPVTG,148.15,T,,M,2.15,N,4.0,K,D*03
$GPGGA,190009.000,3748.7599,N,12217.7978,W,2,06,1.7,-0.2,M,-25.1,M,2.8,0000*60
$GPGSA,A,3,02,10,29,31,05,25,,,,,,,2.8,1.7,2.2*36
$GPGSV,3,1,11,12,67,166,31,25,66,294,22,02,50,046,20,05,46,123,32*73
$GPGSV,3,2,11,29,42,302,21,10,25,054,16,31,13,312,24,21,10,235,21*74
$GPGSV,3,3,11,04,05,052,16,24,03,192,,48,44,197,34*43
$GPRMC,190009.000,A,3748.7599,N,12217.7978,W,1.87,137.94,071112,,,D*76
$GPVTG,137.94,T,,M,1.87,N,3.5,K,D*08
$GPGGA,190010.000,3748.7602,N,12217.7964,W,2,06,1.7,2.8,M,-25.1,M,3.8,0000*40
$GPGSA,A,3,02,10,29,31,05,25,,,,,,,2.8,1.7,2.2*36
$GPRMC,190010.000,A,3748.7602,N,12217.7964,W,1.46,120.64,071112,,,D*76
$GPVTG,120.64,T,,M,1.46,N,2.7,K,D*0F
$GPGGA,190011.000,3748.7608,N,12217.7952,W,2,06,1.7,5.2,M,-25.1,M,4.8,0000*44
$GPGSA,A,3,02,10,29,31,05,25,,,,,,,2.8,1.7,2.2*36
$GPRMC,190011.000,A,3748.7608,N,12217.7952,W,1.22,121.47,071112,,,D*7A
$GPVTG,121.47,T,,M,1.22,N,2.3,K,D*09
$GPGGA,190012.000,3748.7608,N,12217.7950,W,2,06,1.7,7.3,M,-25.1,M,5.8,0000*47
$GPGSA,A,3,02,10,29,31,05,25,,,,,,,2.8,1.7,2.2*36
$GPRMC,190012.000,A,3748.7608,N,12217.7950,W,1.03,99.96,071112,,,D*46
$GPVTG,99.96,T,,M,1.03,N,1.9,K,D*3D
$GPGGA,190013.000,3748.7605,N,12217.7940,W,2,06,1.7,8.5,M,-25.1,M,1.8,0000*47
$GPGSA,A,3,02,10,29,31,05,25,,,,,,,2.8,1.7,2.2*36
$GPRMC,190013.000,A,3748.7605,N,12217.7940,W,1.95,103.22,071112,,,D*79
$GPVTG,103.22,T,,M,1.95,N,3.6,K,D*02
$GPGGA,190014.000,3748.7601,N,12217.7932,W,2,06,1.7,10.3,M,-25.1,M,1.8,0000*7E
$GPGSA,A,3,02,10,29,31,05,25,,,,,,,2.8,1.7,2.2*36
$GPGSV,3,1,11,12,67,166,31,25,66,294,21,02,50,046,22,05,46,123,32*72
$GPGSV,3,2,11,29,42,302,21,10,25,054,21,31,13,312,16,21,10,235,27*77
$GPGSV,3,3,11,04,05,052,15,24,03,192,,48,44,197,35*41
$GPRMC,190014.000,A,3748.7601,N,12217.7932,W,1.90,111.12,071112,,,D*7A
$GPVTG,111.12,T,,M,1.90,N,3.5,K,D*04
$GPGGA,190015.000,3748.7595,N,12217.7930,W,2,06,1.7,8.6,M,-25.1,M,1.8,0000*4F
$GPGSA,A,3,02,10,29,31,05,25,,,,,,,2.8,1.7,2.2*36
$GPRMC,190015.000,A,3748.7595,N,12217.7930,W,2.16,128.31,071112,,,D*71
$GPVTG,128.31,T,,M,2.16,N,4.0,K,D*00
$GPGGA,190016.000,3748.7590,N,12217.7917,W,2,06,1.7,8.9,M,-25.1,M,2.8,0000*40
$GPGSA,A,3,02,10,29,31,05,25,,,,,,,2.8,1.7,2.2*36
$GPRMC,190016.000,A,3748.7590,N,12217.7917,W,2.24,121.57,071112,,,D*7A
$GPVTG,121.57,T,,M,2.24,N,4.1,K,D*09
$GPGGA,190017.000,3748.7584,N,12217.7908,W,2,06,1.7,7.9,M,-25.1,M,3.8,0000*44
$GPGSA,A,3,02,10,29,31,05,25,,,,,,,2.8,1.7,2.2*36
$GPRMC,190017.000,A,3748.7584,N,12217.7908,W,1.89,114.58,071112,,,D*7D
$GPVTG,114.58,T,,M,1.89,N,3.5,K,D*07
$GPGGA,190018.000,3748.7577,N,12217.7900,W,2,06,1.7,6.3,M,-25.1,M,1.8,0000*46
$GPGSA,A,3,02,10,29,31,05,25,,,,,,,2.8,1.7,2.2*36
$GPRMC,190018.000,A,3748.7577,N,12217.7900,W,1.86,100.07,071112,,,D*76
$GPVTG,100.07,T,,M,1.86,N,3.4,K,D*06
$GPGGA,190019.000,3748.7571,N,12217.7889,W,2,06,1.7,6.2,M,-25.1,M,1.8,0000*40
$GPGSA,A,3,02,10,29,31,05,25,,,,,,,2.8,1.7,2.2*36
$GPGSV,3,1,11,12,67,166,31,25,66,294,22,02,50,046,22,05,46,122,32*70
$GPGSV,3,2,11,29,42,302,21,10,25,054,22,31,13,312,20,21,11,235,28*7F
$GPGSV,3,3,11,04,04,052,15,24,03,192,,48,44,197,34*41
$GPVTG,123.05,T,,M,1.44,N,2.7,K,D*09
$GPGGA,190020.000,3748.7563,N,12217.7884,W,2,06,1.7,6.6,M,-25.1,M,1.8,0000*40
$GPGSA,A,3,02,10,29,31,05,25,,,,,,,2.8,1.7,2.2*36
$GPRMC,190020.000,A,3748.7563,N,12217.7884,W,1.92,112.55,071112,,,D*74
$GPVTG,112.55,T,,M,1.92,N,3.6,K,D*05
$GPGGA,190021.000,3748.7552,N,12217.7881,W,2,06,1.7,4.8,M,-25.1,M,1.8,0000*4A
$GPGSA,A,3,02,10,29,31,05,25,,,,,,,2.8,1.7,2.2*36
$GPRMC,190021.000,A,3748.7552,N,12217.7881,W,1.86,136.20,071112,,,D*73
$GPVTG,136.20,T,,M,1.86,N,3.4,K,D*06
$GPGGA,190022.000,3748.7543,N,12217.7871,W,2,06,1.7,3.0,M,-25.1,M,2.8,0000*4A
$GPGSA,A,3,02,10,29,31,05,25,,,,,,,2.8,1.7,2.2*36
$GPRMC,190022.000,A,3748.7543,N,12217.7871,W,1.92,125.37,071112,,,D*7E
$GPVTG,125.37,T,,M,1.92,N,3.6,K,D*05
$GPGGA,190023.000,3748.7541,N,12217.7861,W,2,06,1.7,4.9,M,-25.1,M,3.8,0000*47
$GPGSA,A,3,02,10,29,31,05,25,,,,,,,2.8,1.7,2.2*36
$GPRMC,190023.000,A,3748.7541,N,12217.7861,W,1.60,130.23,071112,,,D*70
$GPVTG,130.23,T,,M,1.60,N,3.0,K,D*0F
$GPGGA,190024.000,3748.7531,N,12217.7853,W,2,06,1.7,4.1,M,-25.1,M,4.8,0000*49
$GPGSA,A,3,02,10,29,31,05,25,,,,,,,2.8,1.7,2.2*36
$GPGSV,3,1,11,12,67,166,31,25,66,294,21,02,50,046,21,05,46,122,32*70
$GPGSV,3,2,11,29,42,302,21,10,25,054,17,31,13,312,18,21,11,235,28*72
$GPGSV,3,3,11,04,04,052,14,24,03,192,,48,44,197,32*46
$GPRMC,190024.000,A,3748.7531,N,12217.7853,W,2.93,135.17,071112,,,D*7C
$GPVTG,135.17,T,,M,2.93,N,5.4,K,D*00
$GPGGA,190025.000,3748.7524,N,12217.7847,W,2,06,1.7,4.2,M,-25.1,M,5.8,0000*4B
$GPGSA,A,3,02,10,29,31,05,25,,,,,,,2.8,1.7,2.2*36
$GPRMC,190025.000,A,3748.7524,N,12217.7847,W,1.96,144.21,071112,,,D*79
$GPVTG,144.21,T,,M,1.96,N,3.6,K,D*01
$GPGGA,190026.000,3748.7520,N,12217.7841,W,2,06,1.7,3.0,M,-25.1,M,1.8,0000*4B
$GPGSA,A,3,02,10,29,31,05,25,,,,,,,2.8,1.7,2.2*36
$GPRMC,190026.000,A,3748.7520,N,12217.7841,W,1.80,113.60,071112,,,D*78
$GPVTG,113.60,T,,M,1.80,N,3.3,K,D*04
$GPGGA,190027.000,3748.7520,N,12217.7832,W,2,06,1.7,0.9,M,-25.1,M,2.8,0000*47
$GPGSA,A,3,02,10,29,31,05,25,,,,,,,2.8,1.7,2.2*36
$GPRMC,190027.000,A,3748.7520,N,12217.7832,W,1.56,107.23,071112,,,D*74
$GPVTG,107.23,T,,M,1.56,N,2.9,K,D*06
$GPGGA,190028.000,3748.7509,N,12217.7833,W,2,06,1.7,-2.5,M,-25.1,M,1.8,0000*62
$GPGSA,A,3,02,10,29,31,05,25,,,,,,,2.8,1.7,2.2*36
$GPRMC,190028.000,A,3748.7509,N,12217.7833,W,2.02,165.85,071112,,,D*7B
$GPVTG,165.85,T,,M,2.02,N,3.7,K,D*03
$GPGGA,190029.000,3748.7505,N,12217.7824,W,2,06,1.7,-3.8,M,-25.1,M,2.8,0000*66
$GPGSA,A,3,02,10,29,31,05,25,,,,,,,2.8,1.7,2.2*36
$GPGSV,3,1,11,12,67,166,31,25,66,294,22,02,50,046,21,05,46,122,32*73
$GPGSV,3,2,11,29,42,302,20,10,25,054,18,31,13,312,18,21,11,235,25*71
$GPGSV,3,3,11,04,04,052,14,24,03,192,,48,44,197,35*41
$GPRMC,190029.000,A,3748.7505,N,12217.7824,W,1.93,156.74,071112,,,D*75
$GPVTG,156.74,T,,M,1.93,N,3.6,K,D*07
$GPGGA,190030.000,3748.7491,N,12217.7822,W,2,06,1.7,-4.4,M,-25.1,M,3.8,0000*6E
$GPGSA,A,3,02,10,29,31,05,25,,,,,,,2.8,1.7,2.2*36
$GPRMC,190030.000,A,3748.7491,N,12217.7822,W,2.52,172.93,071112,,,D*76
$GPVTG,172.93,T,,M,2.52,N,4.7,K,D*00
$GPGGA,190031.000,3748.7482,N,12217.7816,W,2,05,2.2,-3.5,M,-25.1,M,1.8,0000*6B
$GPGSA,A,3,10,29,31,05,25,,,,,,,,3.4,2.2,2.7*3A
$GPRMC,190031.000,A,3748.7482,N,12217.7816,W,2.61,172.47,071112,,,D*7B
$GPVTG,172.47,T,,M,2.61,N,4.8,K,D*06
$GPGGA,190032.000,3748.7466,N,12217.7818,W,2,04,3.0,-3.2,M,-25.1,M,1.8,0000*69
$GPGSA,A,3,10,29,05,25,,,,,,,,,6.8,3.0,6.1*30
$GPRMC,190032.000,A,3748.7466,N,12217.7818,W,3.11,191.03,071112,,,D*77
$GPVTG,191.03,T,,M,3.11,N,5.8,K,D*0C
$GPGGA,190033.000,3748.7444,N,12217.7823,W,2,05,1.9,-4.7,M,-25.1,M,1.8,0000*68
$GPGSA,A,3,02,10,29,05,25,,,,,,,,4.3,1.9,3.9*3D
$GPRMC,190033.000,A,3748.7444,N,12217.7823,W,2.52,178.91,071112,,,D*74
$GPVTG,178.91,T,,M,2.52,N,4.7,K,D*08
$GPGGA,190034.000,3748.7424,N,12217.7827,W,2,05,1.9,-6.9,M,-25.1,M,1.8,0000*61
$GPGSA,A,3,02,10,29,05,25,,,,,,,,4.3,1.9,3.9*3D
$GPGSV,3,1,11,12,67,166,32,25,66,294,21,02,50,046,18,05,46,122,32*79
$GPGSV,3,2,11,29,42,302,20,10,25,054,18,31,13,312,18,21,11,235,20*74
$GPGSV,3,3,11,04,04,052,15,24,03,192,,48,44,197,36*43
$GPVTG,176.00,T,,M,1.92,N,3.6,K,D*07
$GPGGA,190035.000,3748.7409,N,12217.7824,W,2,06,1.7,-10.9,M,-25.1,M,2.8,0000*55
$GPGSA,A,3,02,10,29,31,05,25,,,,,,,2.8,1.7,2.2*36
$GPRMC,190035.000,A,3748.7409,N,12217.7824,W,1.48,133.54,071112,,,D*72
$GPVTG,133.54,T,,M,1.48,N,2.7,K,D*00
$GPGGA,190036.000,3748.7404,N,12217.7810,W,2,05,1.9,-13.8,M,-25.1,M,1.8,0000*50
$GPGSA,A,3,02,10,29,05,25,,,,,,,,4.3,1.9,3.9*3D
$GPRMC,190036.000,A,3748.7404,N,12217.7810,W,1.38,93.28,071112,,,D*4C
$GPVTG,93.28,T,,M,1.38,N,2.6,K,D*36
$GPGGA,190037.000,3748.7389,N,12217.7803,W,2,05,1.9,-16.5,M,-25.1,M,1.8,0000*59
$GPGSA,A,3,02,10,29,05,25,,,,,,,,4.3,1.9,3.9*3D
$GPRMC,190037.000,A,3748.7389,N,12217.7803,W,1.86,96.80,071112,,,D*4F
$GPVTG,96.80,T,,M,1.86,N,3.5,K,D*36
$GPGGA,190038.000,3748.7379,N,12217.7796,W,2,04,2.1,-18.8,M,-25.1,M,1.8,0000*53
$GPGSA,A,3,02,29,05,25,,,,,,,,,6.0,2.1,5.7*3E
$GPRMC,190038.000,A,3748.7379,N,12217.7796,W,2.04,120.60,071112,,,D*77
$GPVTG,120.60,T,,M,2.04,N,3.8,K,D*00
$GPGGA,190039.000,3748.7372,N,12217.7787,W,2,03,27.1,-19.5,M,-25.1,M,1.8,0000*65
$GPGSA,A,2,29,05,25,,,,,,,,,,27.1,27.1,1.0*3B
$GPGSV,3,1,11,12,67,166,32,25,66,294,21,02,50,046,17,05,46,122,32*76
$GPGSV,3,2,11,29,42,302,19,10,25,054,17,31,13,312,18,21,11,235,30*70
$GPGSV,3,3,11,04,04,052,16,24,03,192,,48,44,197,36*40
$GPRMC,190039.000,A,3748.7372,N,12217.7787,W,1.86,130.42,071112,,,D*75
$GPVTG,130.42,T,,M,1.86,N,3.4,K,D*04
$GPGGA,190040.000,3748.7368,N,12217.7780,W,2,03,27.0,-19.4,M,-25.1,M,2.8,0000*64
$GPGSA,A,2,29,05,25,,,,,,,,,,27.0,27.0,1.0*3B
$GPRMC,190040.000,A,3748.7368,N,12217.7780,W,1.72,132.81,071112,,,D*71
$GPVTG,132.81,T,,M,1.72,N,3.2,K,D*04
$GPGGA,190041.000,3748.7362,N,12217.7772,W,2,03,26.9,-20.3,M,-25.1,M,1.8,0000*64
$GPGSA,A,2,29,05,25,,,,,,,,,,26.9,26.9,1.0*3B
$GPRMC,190041.000,A,3748.7362,N,12217.7772,W,1.63,140.40,071112,,,D*7F
$GPVTG,140.40,T,,M,1.63,N,3.0,K,D*0E
$GPGGA,190042.000,3748.7361,N,12217.7765,W,2,03,26.8,-20.1,M,-25.1,M,2.8,0000*62
$GPGSA,A,2,29,05,25,,,,,,,,,,26.8,26.8,1.0*3B
$GPRMC,190042.000,A,3748.7361,N,12217.7765,W,2.36,116.53,071112,,,D*7B
$GPVTG,116.53,T,,M,2.36,N,4.4,K,D*0F
$GPGGA,190043.000,3748.7351,N,12217.7761,W,2,04,3.0,-20.8,M,-25.1,M,1.8,0000*56
$GPGSA,A,3,10,29,05,25,,,,,,,,,6.9,3.0,6.2*32
$GPRMC,190043.000,A,3748.7351,N,12217.7761,W,2.06,110.36,071112,,,D*7B
$GPVTG,110.36,T,,M,2.06,N,3.8,K,D*02
$GPGGA,190044.000,3748.7338,N,12217.7754,W,2,04,3.0,-21.8,M,-25.1,M,1.8,0000*59
$GPGSA,A,3,10,29,05,25,,,,,,,,,6.9,3.0,6.2*32
$GPGSV,3,1,11,12,67,166,31,25,66,294,21,02,50,046,17,05,46,122,32*75
$GPGSV,3,2,11,29,42,302,19,10,25,054,17,31,13,312,18,21,11,235,30*70
$GPGSV,3,3,11,04,04,052,21,24,03,192,,48,44,197,35*47
$GPRMC,190044.000,A,3748.7338,N,12217.7754,W,2.02,93.56,071112,,,D*4D
$GPVTG,93.56,T,,M,2.02,N,3.7,K,D*35
$GPGGA,190045.000,3748.7338,N,12217.7745,W,2,03,26.5,-22.9,M,-25.1,M,1.8,0000*6F
$GPGSA,A,2,29,05,25,,,,,,,,,,26.5,26.5,1.0*3B
$GPRMC,190045.000,A,3748.7338,N,12217.7745,W,2.11,61.81,071112,,,D*49
$GPVTG,61.81,T,,M,2.11,N,3.9,K,D*3E
$GPGGA,190046.000,3748.7337,N,12217.7732,W,2,03,26.4,-23.5,M,-25.1,M,2.8,0000*6C
$GPGSA,A,2,29,05,25,,,,,,,,,,26.4,26.4,1.0*3B
$GPRMC,190046.000,A,3748.7337,N,12217.7732,W,2.37,69.28,071112,,,D*4A
$GPVTG,69.28,T,,M,2.37,N,4.4,K,D*3B
$GPGGA,190047.000,3748.7334,N,12217.7718,W,2,03,26.3,-23.6,M,-25.1,M,3.8,0000*63
$GPGSA,A,2,29,05,25,,,,,,,,,,26.3,26.3,1.0*3B
$GPRMC,190047.000,A,3748.7334,N,12217.7718,W,2.65,93.28,071112,,,D*42
$GPVTG,93.28,T,,M,2.65,N,4.9,K,D*34
$GPGGA,190048.000,3748.7331,N,12217.7705,W,2,03,26.2,-23.9,M,-25.1,M,4.8,0000*6C
$GPGSA,A,2,29,05,25,,,,,,,,,,26.2,26.2,1.0*3B
$GPRMC,190048.000,A,3748.7331,N,12217.7705,W,2.61,94.41,071112,,,D*48
$GPVTG,94.41,T,,M,2.61,N,4.8,K,D*39
$GPGGA,190049.000,3748.7331,N,12217.7697,W,2,03,26.1,-24.1,M,-25.1,M,1.8,0000*6E
$GPGSA,A,2,29,05,25,,,,,,,,,,26.1,26.1,1.0*3B
$GPGSV,3,1,11,12,67,166,31,25,66,293,22,02,50,046,18,05,46,122,32*7E
$GPGSV,3,2,11,29,43,302,21,10,25,054,17,31,13,312,18,21,11,235,30*7A
$GPGSV,3,3,11,04,04,052,20,24,03,192,,48,44,197,36*45
$GPVTG,91.67,T,,M,2.01,N,3.7,K,D*36
$GPGGA,190050.000,3748.7331,N,12217.7686,W,2,03,26.0,-22.5,M,-25.1,M,1.8,0000*65
$GPGSA,A,2,29,05,25,,,,,,,,,,26.0,26.0,1.0*3B
$GPRMC,190050.000,A,3748.7331,N,12217.7686,W,2.10,96.63,071112,,,D*4F
$GPVTG,96.63,T,,M,2.10,N,3.9,K,D*3B
$GPGGA,190051.000,3748.7333,N,12217.7679,W,2,03,25.9,-21.9,M,-25.1,M,1.8,0000*63
$GPGSA,A,2,29,05,25,,,,,,,,,,25.9,25.9,1.0*3B
$GPRMC,190051.000,A,3748.7333,N,12217.7679,W,2.16,91.11,071112,,,D*48
$GPVTG,91.11,T,,M,2.16,N,4.0,K,D*31
$GPGGA,190052.000,3748.7340,N,12217.7663,W,2,05,1.9,-16.5,M,-25.1,M,2.8,0000*54
$GPGSA,A,3,02,29,05,25,21,,,,,,,,3.6,1.9,3.0*34
$GPRMC,190052.000,A,3748.7340,N,12217.7663,W,2.23,82.74,071112,,,D*43
$GPVTG,82.74,T,,M,2.23,N,4.1,K,D*37
$GPGGA,190053.000,3748.7346,N,12217.7652,W,2,07,1.1,-11.5,M,-25.1,M,3.8,0000*5D
$GPGSA,A,3,02,10,29,31,05,25,21,,,,,,1.9,1.1,1.6*36
$GPRMC,190053.000,A,3748.7346,N,12217.7652,W,2.13,78.93,071112,,,D*49
$GPVTG,78.93,T,,M,2.13,N,4.0,K,D*39
$GPGGA,190054.000,3748.7349,N,12217.7643,W,2,07,1.1,-8.5,M,-25.1,M,4.8,0000*6A
$GPGSA,A,3,02,10,29,31,05,25,21,,,,,,1.9,1.1,1.6*36
$GPGSV,3,1,11,12,67,166,31,25,66,293,23,02,50,046,19,05,46,122,32*7E
$GPGSV,3,2,11,29,43,302,24,10,25,054,17,31,13,312,18,21,11,235,27*79
$GPGSV,3,3,11,04,04,052,19,24,02,192,,48,44,197,36*4E
$GPRMC,190054.000,A,3748.7349,N,12217.7643,W,2.06,77.54,071112,,,D*41
$GPVTG,77.54,T,,M,2.06,N,3.8,K,D*36
$GPGGA,190055.000,3748.7354,N,12217.7633,W,2,07,1.1,-6.8,M,-25.1,M,1.8,0000*66
$GPGSA,A,3,02,10,29,31,05,25,21,,,,,,1.9,1.1,1.6*36
$GPRMC,190055.000,A,3748.7354,N,12217.7633,W,1.79,76.07,071112,,,D*47
$GPVTG,76.07,T,,M,1.79,N,3.3,K,D*31
$GPGGA,190056.000,3748.7365,N,12217.7619,W,2,07,1.1,-6.1,M,-25.1,M,1.8,0000*66
$GPGSA,A,3,02,10,29,31,05,25,21,,,,,,1.9,1.1,1.6*36
$GPRMC,190056.000,A,3748.7365,N,12217.7619,W,1.76,105.54,071112,,,D*72
$GPVTG,105.54,T,,M,1.76,N,3.3,K,D*0D
$GPGGA,190057.000,3748.7369,N,12217.7607,W,2,07,1.1,-4.0,M,-25.1,M,2.8,0000*64
$GPGSA,A,3,02,10,29,31,05,25,21,,,,,,1.9,1.1,1.6*36
$GPRMC,190057.000,A,3748.7369,N,12217.7607,W,1.58,113.53,071112,,,D*7C
$GPVTG,113.53,T,,M,1.58,N,2.9,K,D*0A
$GPGGA,190058.000,3748.7374,N,12217.7598,W,2,07,1.1,-1.1,M,-25.1,M,1.8,0000*65
$GPGSA,A,3,02,10,29,31,05,25,21,,,,,,1.9,1.1,1.6*36
$GPRMC,190058.000,A,3748.7374,N,12217.7598,W,1.76,86.52,071112,,,D*4A
$GPVTG,86.52,T,,M,1.76,N,3.3,K,D*31
$GPGGA,190059.000,3748.7378,N,12217.7587,W,2,07,1.1,0.3,M,-25.1,M,2.8,0000*4B
$GPGSA,A,3,02,10,29,31,05,25,21,,,,,,1.9,1.1,1.6*36
$GPGSV,3,1,11,12,67,166,31,25,66,293,23,02,50,046,20,05,46,122,26*71
$GPGSV,3,2,11,29,43,302,23,10,25,054,22,31,13,312,17,21,11,235,30*71
$GPGSV,3,3,11,04,04,052,13,24,02,192,,48,44,197,36*44
$GPRMC,190059.000,A,3748.7378,N,12217.7587,W,1.89,89.69,071112,,,D*4E
$GPVTG,89.69,T,,M,1.89,N,3.5,K,D*30
$GPGGA,190100.000,3748.7375,N,12217.7583,W,2,07,1.1,1.3,M,-25.1,M,3.8,0000*4F
$GPGSA,A,3,02,10,29,31,05,25,21,,,,,,1.9,1.1,1.6*36
$GPRMC,190100.000,A,3748.7375,N,12217.7583,W,1.40,86.18,071112,,,D*46
$GPVTG,86.18,T,,M,1.40,N,2.6,K,D*3E
$GPGGA,190101.000,3748.7381,N,12217.7569,W,2,07,1.1,0.9,M,-25.1,M,1.8,0000*48
$GPGSA,A,3,02,10,29,31,05,25,21,,,,,,1.9,1.1,1.6*36
$GPRMC,190101.000,A,3748.7381,N,12217.7569,W,2.21,71.25,071112,,,D*4A
$GPVTG,71.25,T,,M,2.21,N,4.1,K,D*3D
$GPGGA,190102.000,3748.7384,N,12217.7562,W,2,07,1.1,3.5,M,-25.1,M,1.8,0000*4A
$GPGSA,A,3,02,10,29,31,05,25,21,,,,,,1.9,1.1,1.6*36
$GPRMC,190102.000,A,3748.7384,N,12217.7562,W,1.85,79.55,071112,,,D*45
$GPVTG,79.55,T,,M,1.85,N,3.4,K,D*3D
$GPGGA,190103.000,3748.7389,N,12217.7547,W,2,07,1.1,2.7,M,-25.1,M,2.8,0000*41
$GPGSA,A,3,02,10,29,31,05,25,21,,,,,,1.9,1.1,1.6*36
$GPRMC,190103.000,A,3748.7389,N,12217.7547,W,1.89,98.79,071112,,,D*43
$GPVTG,98.79,T,,M,1.89,N,3.5,K,D*31
$GPGGA,190104.000,3748.7387,N,12217.7538,W,2,07,1.1,3.5,M,-25.1,M,3.8,0000*42
$GPGSA,A,3,02,10,29,31,05,25,21,,,,,,1.9,1.1,1.6*36
$GPGSV,3,1,11,12,67,166,31,25,66,293,22,02,50,046,23,05,46,122,26*73
$GPGSV,3,2,11,29,43,302,22,10,25,054,22,31,13,312,18,21,11,235,28*76
$GPGSV,3,3,11,04,04,052,12,24,02,192,,48,44,197,33*40
$GPVTG,100.52,T,,M,1.51,N,2.8,K,D*01
$GPGGA,190105.000,3748.7392,N,12217.7528,W,2,07,1.1,4.0,M,-25.1,M,4.8,0000*43
$GPGSA,A,3,02,10,29,31,05,25,21,,,,,,1.9,1.1,1.6*36
$GPRMC,190105.000,A,3748.7392,N,12217.7528,W,1.93,77.00,071112,,,D*42
$GPVTG,77.00,T,,M,1.93,N,3.6,K,D*36
$GPGGA,190106.000,3748.7391,N,12217.7518,W,2,07,1.1,3.8,M,-25.1,M,5.8,0000*4E
$GPGSA,A,3,02,10,29,31,05,25,21,,,,,,1.9,1.1,1.6*36
$GPRMC,190106.000,A,3748.7391,N,12217.7518,W,2.32,85.27,071112,,,D*41
$GPVTG,85.27,T,,M,2.32,N,4.3,K,D*34
$GPGGA,190107.000,3748.7389,N,12217.7502,W,2,07,1.1,2.9,M,-25.1,M,6.8,0000*4E
$GPGSA,A,3,02,10,29,31,05,25,21,,,,,,1.9,1.1,1.6*36
$GPRMC,190107.000,A,3748.7389,N,12217.7502,W,2.43,85.84,071112,,,D*4D
$GPVTG,85.84,T,,M,2.43,N,4.5,K,D*3D
$GPGGA,190108.000,3748.7395,N,12217.7489,W,2,07,1.1,1.7,M,-25.1,M,7.8,0000*42
$GPGSA,A,3,02,10,29,31,05,25,21,,,,,,1.9,1.1,1.6*36
$GPRMC,190108.000,A,3748.7395,N,12217.7489,W,1.61,84.94,071112,,,D*4E
$GPVTG,84.94,T,,M,1.61,N,3.0,K,D*3C
$GPGGA,190109.000,3748.7403,N,12217.7478,W,2,07,1.1,1.3,M,-25.1,M,8.8,0000*4E
$GPGSA,A,3,02,10,29,31,05,25,21,,,,,,1.9,1.1,1.6*36
$GPGSV,3,1,11,12,67,166,27,25,66,293,22,02,50,046,23,05,46,122,27*75
$GPGSV,3,2,11,29,43,302,22,10,25,054,21,31,13,312,18,21,11,235,26*7B
$GPGSV,3,3,11,04,04,052,,24,02,192,,48,44,197,33*43
$GPRMC,190109.000,A,3748.7403,N,12217.7478,W,2.78,71.84,071112,,,D*49
$GPVTG,71.84,T,,M,2.78,N,5.2,K,D*38
$GPGGA,190110.000,3748.7403,N,12217.7466,W,2,07,1.1,-0.1,M,-25.1,M,9.8,0000*66
$GPGSA,A,3,02,10,29,31,05,25,21,,,,,,1.9,1.1,1.6*36
$GPRMC,190110.000,A,3748.7403,N,12217.7466,W,2.57,87.29,071112,,,D*4D
$GPVTG,87.29,T,,M,2.57,N,4.8,K,D*30
$GPGGA,190111.000,3748.7400,N,12217.7461,W,2,07,1.1,0.2,M,-25.1,M,10.8,0000*75
$GPGSA,A,3,02,10,29,31,05,25,21,,,,,,1.9,1.1,1.6*36
$GPRMC,190111.000,A,3748.7400,N,12217.7461,W,1.76,118.58,071112,,,D*79
$GPVTG,118.58,T,,M,1.76,N,3.3,K,D*0D
$GPGGA,190112.000,3748.7393,N,12217.7455,W,2,07,1.1,-0.1,M,-25.1,M,11.8,0000*53
$GPGSA,A,3,02,10,29,31,05,25,21,,,,,,1.9,1.1,1.6*36
$GPRMC,190112.000,A,3748.7393,N,12217.7455,W,1.63,155.10,071112,,,D*71
$GPVTG,155.10,T,,M,1.63,N,3.0,K,D*0F
$GPGGA,190113.000,3748.7386,N,12217.7448,W,2,07,1.1,-0.3,M,-25.1,M,1.8,0000*69
$GPGSA,A,3,02,10,29,31,05,25,21,,,,,,1.9,1.1,1.6*36
$GPRMC,190113.000,A,3748.7386,N,12217.7448,W,1.96,144.45,071112,,,D*72
$GPVTG,144.45,T,,M,1.96,N,3.6,K,D*03
$GPGGA,190114.000,3748.7378,N,12217.7441,W,2,07,1.1,-0.2,M,-25.1,M,1.8,0000*67
$GPGSA,A,3,02,10,29,31,05,25,21,,,,,,1.9,1.1,1.6*36
$GPGSV,3,1,11,12,67,166,28,25,66,293,21,02,50,046,24,05,46,122,29*70
$GPGSV,3,2,11,29,43,302,22,10,25,054,21,31,13,312,20,21,11,235,16*73
$GPGSV,3,3,11,04,04,052,,24,02,192,,48,44,197,36*46
$GPRMC,190114.000,A,3748.7378,N,12217.7441,W,1.97,132.40,071112,,,D*78
$GPVTG,132.40,T,,M,1.97,N,3.6,K,D*06
$GPGGA,190115.000,3748.7368,N,12217.7430,W,2,07,1.1,-0.9,M,-25.1,M,1.8,0000*6A
$GPGSA,A,3,02,10,29,31,05,25,21,,,,,,1.9,1.1,1.6*36
$GPRMC,190115.000,A,3748.7368,N,12217.7430,W,2.70,156.40,071112,,,D*76
$GPVTG,156.40,T,,M,2.70,N,5.0,K,D*0E
$GPGGA,190116.000,3748.7362,N,12217.7425,W,2,07,1.1,0.2,M,-25.1,M,2.8,0000*42
$GPGSA,A,3,02,10,29,31,05,25,21,,,,,,1.9,1.1,1.6*36
$GPRMC,190116.000,A,3748.7362,N,12217.7425,W,2.41,165.61,071112,,,D*7A
$GPVTG,165.61,T,,M,2.41,N,4.5,K,D*0B
$GPGGA,190117.000,3748.7351,N,12217.7426,W,2,07,1.1,2.0,M,-25.1,M,3.8,0000*41
$GPGSA,A,3,02,10,29,31,05,25,21,,,,,,1.9,1.1,1.6*36
$GPRMC,190117.000,A,3748.7351,N,12217.7426,W,1.91,162.19,071112,,,D*7E
$GPVTG,162.19,T,,M,1.91,N,3.5,K,D*0A
$GPGGA,190118.000,3748.7341,N,12217.7423,W,2,07,1.1,1.9,M,-25.1,M,4.8,0000*47
$GPGSA,A,3,02,10,29,31,05,25,21,,,,,,1.9,1.1,1.6*36
$GPRMC,190118.000,A,3748.7341,N,12217.7423,W,1.48,174.66,071112,,,D*7E
$GPVTG,174.66,T,,M,1.48,N,2.7,K,D*02
$GPGGA,190119.000,3748.7334,N,12217.7417,W,2,07,1.1,0.6,M,-25.1,M,5.8,0000*4C
$GPGSA,A,3,02,10,29,31,05,25,21,,,,,,1.9,1.1,1.6*36
$GPGSV,3,1,11,12,67,166,28,25,66,293,21,02,50,046,24,05,46,122,27*7E
$GPGSV,3,2,11,29,43,302,21,10,25,054,21,31,13,312,20,21,11,235,16*70
$GPGSV,3,3,11,04,04,052,,24,02,192,,48,44,197,30*40
$GPRMC,190119.000,A,3748.7334,N,12217.7417,W,1.19,153.59,071112,,,D*77
$GPVTG,153.59,T,,M,1.19,N,2.2,K,D*0A
$GPGGA,190120.000,3748.7328,N,12217.7411,W,2,07,1.1,0.7,M,-25.1,M,6.8,0000*4F
$GPGSA,A,3,02,10,29,31,05,25,21,,,,,,1.9,1.1,1.6*36
$GPRMC,190120.000,A,3748.7328,N,12217.7411,W,1.92,128.86,071112,,,D*7B
$GPVTG,128.86,T,,M,1.92,N,3.5,K,D*01
$GPGGA,190121.000,3748.7320,N,12217.7397,W,2,07,1.1,-0.3,M,-25.1,M,7.8,0000*67
$GPGSA,A,3,02,10,29,31,05,25,21,,,,,,1.9,1.1,1.6*36
$GPRMC,190121.000,A,3748.7320,N,12217.7397,W,2.53,135.36,071112,,,D*72
$GPVTG,135.36,T,,M,2.53,N,4.7,K,D*0D
$GPGGA,190122.000,3748.7313,N,12217.7386,W,2,08,1.0,-1.1,M,-25.1,M,8.8,0000*66
$GPGSA,A,3,02,10,29,31,05,25,12,21,,,,,1.8,1.0,1.4*37
$GPRMC,190122.000,A,3748.7313,N,12217.7386,W,2.06,116.06,071112,,,D*73
$GPVTG,116.06,T,,M,2.06,N,3.8,K,D*07
$GPGGA,190123.000,3748.7312,N,12217.7378,W,2,08,1.0,-0.9,M,-25.1,M,1.8,0000*67
$GPGSA,A,3,02,10,29,31,05,25,12,21,,,,,1.8,1.0,1.4*37
$GPRMC,190123.000,A,3748.7312,N,12217.7378,W,1.91,97.23,071112,,,D*40
$GPVTG,97.23,T,,M,1.91,N,3.5,K,D*38
$GPGGA,190124.000,3748.7311,N,12217.7370,W,2,08,1.0,-0.1,M,-25.1,M,2.8,0000*60
$GPGSA,A,3,02,10,29,31,05,25,12,21,,,,,1.8,1.0,1.4*37
$GPGSV,3,1,11,25,66,293,21,12,66,166,27,02,49,046,24,05,47,122,32*7D
$GPGSV,3,2,11,29,43,302,21,10,25,053,21,31,13,311,21,21,11,235,24*74
$GPGSV,3,3,11,04,04,052,,24,02,192,,48,44,197,35*45
$GPRMC,190124.000,A,3748.7311,N,12217.7370,W,1.94,103.07,071112,,,D*73
$GPGGA,190125.000,3748.7306,N,12217.7361,W,2,08,1.0,-0.7,M,-25.1,M,1.8,0000*62
$GPGSA,A,3,02,10,29,31,05,25,12,21,,,,,1.8,1.0,1.4*37
$GPRMC,190125.000,A,3748.7306,N,12217.7361,W,2.63,121.00,071112,,,D*78
$GPVTG,121.00,T,,M,2.63,N,4.9,K,D*00
$GPGGA,190126.000,3748.7306,N,12217.7350,W,2,08,1.0,-1.2,M,-25.1,M,1.8,0000*67
$GPGSA,A,3,02,10,29,31,05,25,12,21,,,,,1.8,1.0,1.4*37
$GPRMC,190126.000,A,3748.7306,N,12217.7350,W,2.09,110.83,071112,,,D*7C
$GPVTG,110.83,T,,M,2.09,N,3.9,K,D*02
$GPGGA,190127.000,3748.7309,N,12217.7340,W,2,08,1.0,-0.8,M,-25.1,M,1.8,0000*63
$GPGSA,A,3,02,10,29,31,05,25,12,21,,,,,1.8,1.0,1.4*37
$GPRMC,190127.000,A,3748.7309,N,12217.7340,W,1.92,104.75,071112,,,D*7E
$GPVTG,104.75,T,,M,1.92,N,3.5,K,D*03
$GPGGA,190128.000,3748.7309,N,12217.7334,W,2,08,1.0,0.9,M,-25.1,M,2.8,0000*40
$GPGSA,A,3,02,10,29,31,05,25,12,21,,,,,1.8,1.0,1.4*37
$GPRMC,190128.000,A,3748.7309,N,12217.7334,W,2.02,110.43,071112,,,D*78
$GPVTG,110.43,T,,M,2.02,N,3.7,K,D*0B
$GPGGA,190129.000,3748.7303,N,12217.7325,W,2,08,1.0,1.5,M,-25.1,M,3.8,0000*47
$GPGSA,A,3,02,10,29,31,05,25,12,21,,,,,1.8,1.0,1.4*37
$GPGSV,3,1,11,25,66,293,21,12,66,166,28,02,49,046,25,05,47,122,32*73
$GPGSV,3,2,11,29,43,302,20,10,25,053,22,31,13,311,21,21,11,235,21*73
$GPGSV,3,3,11,04,04,052,,24,02,192,,48,44,197,31*41
$GPRMC,190129.000,A,3748.7303,N,12217.7325,W,1.86,112.61,071112,,,D*7E
$GPVTG,112.61,T,,M,1.86,N,3.4,K,D*05
$GPGGA,190130.000,3748.7294,N,12217.7317,W,2,08,1.0,2.1,M,-25.1,M,4.8,0000*41
$GPGSA,A,3,02,10,29,31,05,25,12,21,,,,,1.8,1.0,1.4*37
$GPRMC,190130.000,A,3748.7294,N,12217.7317,W,2.13,147.50,071112,,,D*75
$GPVTG,147.50,T,,M,2.13,N,3.9,K,D*05
$GPGGA,190131.000,3748.7288,N,12217.7310,W,2,08,1.0,1.4,M,-25.1,M,5.8,0000*4D
$GPGSA,A,3,02,10,29,31,05,25,12,21,,,,,1.8,1.0,1.4*37
$GPRMC,190131.000,A,3748.7288,N,12217.7310,W,1.72,141.12,071112,,,D*7A
$GPVTG,141.12,T,,M,1.72,N,3.2,K,D*0A
$GPGGA,190132.000,3748.7281,N,12217.7305,W,2,08,1.0,0.9,M,-25.1,M,6.8,0000*4C
$GPGSA,A,3,02,10,29,31,05,25,12,21,,,,,1.8,1.0,1.4*37
$GPRMC,190132.000,A,3748.7281,N,12217.7305,W,1.74,156.09,071112,,,D*7E
$GPVTG,156.09,T,,M,1.74,N,3.2,K,D*00
$GPGGA,190133.000,3748.7274,N,12217.7296,W,2,08,1.0,1.0,M,-25.1,M,7.8,0000*45
$GPGSA,A,3,02,10,29,31,05,25,12,21,,,,,1.8,1.0,1.4*37
$GPRMC,190133.000,A,3748.7274,N,12217.7296,W,2.18,144.20,071112,,,D*7F
$GPVTG,144.20,T,,M,2.18,N,4.0,K,D*04
$GPGGA,190134.000,3748.7267,N,12217.7286,W,2,08,1.0,0.8,M,-25.1,M,1.8,0000*4E
$GPGSA,A,3,02,10,29,31,05,25,12,21,,,,,1.8,1.0,1.4*37
$GPGSV,3,1,11,25,66,293,21,12,66,166,29,02,49,046,22,05,47,122,26*70
$GPGSV,3,2,11,29,43,302,21,10,25,053,14,31,13,311,19,21,11,235,19*77
$GPGSV,3,3,11,04,04,052,,24,02,192,,48,44,197,34*44
$GPRMC,190134.000,A,3748.7267,N,12217.7286,W,2.48,134.89,071112,,,D*7A
$GPVTG,134.89,T,,M,2.48,N,4.6,K,D*03
$GPGGA,190135.000,3748.7264,N,12217.7275,W,2,08,1.0,1.1,M,-25.1,M,2.8,0000*4B
$GPGSA,A,3,02,10,29,31,05,25,12,21,,,,,1.8,1.0,1.4*37
$GPRMC,190135.000,A,3748.7264,N,12217.7275,W,2.19,134.08,071112,,,D*79
$GPVTG,134.08,T,,M,2.19,N,4.1,K,D*09
$GPGGA,190136.000,3748.7259,N,12217.7264,W,2,08,1.0,0.9,M,-25.1,M,3.8,0000*4E
$GPGSA,A,3,02,10,29,31,05,25,12,21,,,,,1.8,1.0,1.4*37
$GPRMC,190136.000,A,3748.7259,N,12217.7264,W,1.80,124.06,071112,,,D*78
$GPVTG,124.06,T,,M,1.80,N,3.3,K,D*00
$GPGGA,190137.000,3748.7258,N,12217.7255,W,2,08,1.0,0.9,M,-25.1,M,4.8,0000*4B
$GPGSA,A,3,02,10,29,31,05,25,12,21,,,,,1.8,1.0,1.4*37
$GPRMC,190137.000,A,3748.7258,N,12217.7255,W,1.90,116.22,071112,,,D*7C
$GPVTG,116.22,T,,M,1.90,N,3.5,K,D*00
$GPGGA,190138.000,3748.7259,N,12217.7246,W,2,08,1.0,1.1,M,-25.1,M,1.8,0000*4B
$GPGSA,A,3,02,10,29,31,05,25,12,21,,,,,1.8,1.0,1.4*37
$GPRMC,190138.000,A,3748.7259,N,12217.7246,W,2.13,110.65,071112,,,D*7D
$GPVTG,110.65,T,,M,2.13,N,3.9,K,D*01
$GPGGA,190139.000,3748.7259,N,12217.7238,W,2,08,1.0,0.8,M,-25.1,M,1.8,0000*4B
$GPGSA,A,3,02,10,29,31,05,25,12,21,,,,,1.8,1.0,1.4*37
$GPGSV,3,1,11,25,66,293,21,12,66,166,31,02,49,046,22,05,47,122,32*7C
$GPGSV,3,2,11,29,43,302,21,10,25,053,16,31,13,311,19,21,11,235,20*7F
$GPRMC,190139.000,A,3748.7259,N,12217.7238,W,1.71,91.36,071112,,,D*4C
$GPVTG,91.36,T,,M,1.71,N,3.2,K,D*33
$GPGGA,190140.000,3748.7258,N,12217.7228,W,2,08,1.0,0.9,M,-25.1,M,1.8,0000*44
$GPGSA,A,3,02,10,29,31,05,25,12,21,,,,,1.8,1.0,1.4*37
$GPRMC,190140.000,A,3748.7258,N,12217.7228,W,1.86,101.26,071112,,,D*73
$GPVTG,101.26,T,,M,1.86,N,3.4,K,D*04
$GPGGA,190141.000,3748.7259,N,12217.7222,W,2,08,1.0,1.8,M,-25.1,M,2.8,0000*4D
$GPGSA,A,3,02,10,29,31,05,25,12,21,,,,,1.8,1.0,1.4*37
$GPRMC,190141.000,A,3748.7259,N,12217.7222,W,1.30,96.40,071112,,,D*4B
$GPVTG,96.40,T,,M,1.30,N,2.4,K,D*37
$GPGGA,190142.000,3748.7262,N,12217.7209,W,2,08,1.0,1.5,M,-25.1,M,3.8,0000*43
$GPGSA,A,3,02,10,29,31,05,25,12,21,,,,,1.8,1.0,1.4*37
$GPRMC,190142.000,A,3748.7262,N,12217.7209,W,1.42,99.58,071112,,,D*4A
$GPVTG,99.58,T,,M,1.42,N,2.6,K,D*36
