$ADVER,3080,2.3
$GPRMC,212358.612,A,3747.6733,N,12215.4516,W,2.27,140.53,260312,,,A*73
$GPGGA,212359.612,3747.6728,N,12215.4511,W,1,03,2.1,25.1,M,-25.1,M,,0000*50
$GPGSA,A,2,01,16,20,,,,,,,,,,2.3,2.1,1.0*34
$GPRMC,212359.612,A,3747.6728,N,12215.4511,W,2.19,136.54,260312,,,A*74
$GPVTG,136.54,T,,M,2.19,N,4.0,K,N*09
$GPGGA,212400.612,3747.6724,N,12215.4505,W,1,03,2.1,25.1,M,-25.1,M,,0000*52
$GPGSA,A,2,01,16,20,,,,,,,,,,2.3,2.1,1.0*34
$GPRMC,212400.612,A,3747.6724,N,12215.4505,W,2.23,133.96,260312,,,A*74
$GPVTG,133.96,T,,M,2.23,N,4.1,K,N*0A
$GPGGA,212401.612,3747.6720,N,12215.4499,W,1,03,2.1,25.1,M,-25.1,M,,0000*53
$GPGSA,A,2,01,16,20,,,,,,,,,,2.3,2.1,1.0*34
$GPRMC,212401.612,A,3747.6720,N,12215.4499,W,2.00,136.72,260312,,,A*7B
$GPVTG,136.72,T,,M,2.00,N,3.7,K,N*05
$GPGGA,212402.612,3747.6718,N,12215.4495,W,1,03,2.1,25.1,M,-25.1,M,,0000*57
$GPGSA,A,2,01,16,20,,,,,,,,,,2.3,2.1,1.0*34
$GPGSV,3,1,12,20,70,304,36,01,32,218,41,16,23,140,40,23,42,290,33*7A
$GPGSV,3,2,12,30,38,112,39,31,37,044,30,24,18,189,,13,15,273,32*70
$GPGSV,3,3,12,11,14,206,40,04,01,327,,14,01,078,,48,00,000,41*7E
$GPRMC,212402.612,A,3747.6718,N,12215.4495,W,1.41,150.39,260312,,,A*76
$GPVTG,150.39,T,,M,1.41,N,2.6,K,N*0C
$GPGGA,212403.612,3747.6715,N,12215.4492,W,1,03,2.1,25.1,M,-25.1,M,,0000*5C
$GPGSA,A,2,01,16,20,,,,,,,,,,2.3,2.1,1.0*34
$GPRMC,212403.612,A,3747.6715,N,12215.4492,W,1.18,145.80,260312,,,A*77
$GPVTG,145.80,T,,M,1.18,N,2.2,K,N*02
$GPGGA,212404.612,3747.6713,N,12215.4492,W,1,03,2.1,25.1,M,-25.1,M,,0000*5D
$GPGSA,A,2,01,16,20,,,,,,,,,,2.3,2.1,1.0*34
$GPRMC,212404.612,A,3747.6713,N,12215.4492,W,1.05,175.02,260312,,,A*73
$GPVTG,175.02,T,,M,1.05,N,1.9,K,N*0F
$GPGGA,212405.612,3747.6710,N,12215.4494,W,1,03,2.1,25.1,M,-25.1,M,,0000*59
$GPGSA,A,2,01,16,20,,,,,,,,,,2.3,2.1,1.0*34
$GPRMC,212405.612,A,3747.6710,N,12215.4494,W,1.24,215.31,260312,,,A*71
$GPVTG,215.31,T,,M,1.24,N,2.3,K,N*00
$GPGGA,212406.612,3747.6708,N,12215.4494,W,1,03,2.1,25.1,M,-25.1,M,,0000*53
$GPGSA,A,2,01,16,20,,,,,,,,,,2.3,2.1,1.0*34
$GPRMC,212406.612,A,3747.6708,N,12215.4494,W,1.12,194.56,260312,,,A*75
$GPVTG,194.56,T,,M,1.12,N,2.1,K,N*0C
$GPGGA,212407.612,3747.6705,N,12215.4498,W,1,03,2.1,25.1,M,-25.1,M,,0000*53
$GPGSA,A,2,01,16,20,,,,,,,,,,2.3,2.1,1.0*34
$GPGSV,3,1,12,20,70,304,36,01,32,218,41,16,23,140,33,23,42,290,42*78
$GPGSV,3,2,12,30,38,112,31,31,37,044,36,24,18,189,30,13,15,273,39*76
$GPGSV,3,3,12,11,14,206,39,04,01,327,,14,01,078,,48,00,000,40*71
$GPRMC,212407.612,A,3747.6705,N,12215.4498,W,1.74,226.28,260312,,,A*76
$GPVTG,226.28,T,,M,1.74,N,3.2,K,N*0D
$GPGGA,212408.612,3747.6702,N,12215.4500,W,1,03,2.1,25.1,M,-25.1,M,,0000*5B
$GPGSA,A,2,01,16,20,,,,,,,,,,2.3,2.1,1.0*34
$GPRMC,212408.612,A,3747.6702,N,12215.4500,W,1.50,219.66,260312,,,A*7E
$GPVTG,219.66,T,,M,1.50,N,2.8,K,N*06
$GPGGA,212409.612,3747.6697,N,12215.4505,W,1,03,2.1,25.1,M,-25.1,M,,0000*52
$GPGSA,A,2,01,16,20,,,,,,,,,,2.3,2.1,1.0*34
$GPRMC,212409.612,A,3747.6697,N,12215.4505,W,2.31,230.44,260312,,,A*78
$GPVTG,230.44,T,,M,2.31,N,4.3,K,N*04
$GPGGA,212410.612,3747.6693,N,12215.4512,W,1,03,2.1,25.1,M,-25.1,M,,0000*58
$GPGSA,A,2,01,16,20,,,,,,,,,,2.3,2.1,1.0*34
$GPRMC,212410.612,A,3747.6693,N,12215.4512,W,2.62,233.82,260312,,,A*7D
$GPVTG,233.82,T,,M,2.62,N,4.9,K,N*01
$GPGGA,212411.612,3747.6688,N,12215.4519,W,1,03,2.1,25.1,M,-25.1,M,,0000*58
$GPGSA,A,2,01,16,20,,,,,,,,,,2.3,2.1,1.0*34
$GPRMC,212411.612,A,3747.6688,N,12215.4519,W,2.74,229.30,260312,,,A*78
$GPVTG,229.30,T,,M,2.74,N,5.1,K,N*0D
$GPGGA,212412.612,3747.6684,N,12215.4526,W,1,03,2.1,25.1,M,-25.1,M,,0000*5B
$GPGSA,A,2,01,16,20,,,,,,,,,,2.3,2.1,1.0*34
$GPGSV,3,1,12,20,70,304,38,01,32,218,39,16,23,140,34,23,42,290,42*7E
$GPGSV,3,2,12,30,38,112,33,31,37,044,28,24,18,189,30,13,15,273,41*74
$GPGSV,3,3,12,11,14,206,38,04,01,327,,14,01,078,,48,00,000,39*7E
$GPVTG,233.55,T,,M,2.86,N,5.3,K,N*0A
$GPGGA,212413.612,3747.6679,N,12215.4533,W,1,03,2.1,25.1,M,-25.1,M,,0000*5C
$GPGSA,A,2,01,16,20,,,,,,,,,,2.3,2.1,1.0*34
$GPRMC,212413.612,A,3747.6679,N,12215.4533,W,2.68,229.32,260312,,,A*73
$GPVTG,229.32,T,,M,2.68,N,5.0,K,N*03
$GPGGA,212414.612,3747.6674,N,12215.4539,W,1,03,2.1,25.1,M,-25.1,M,,0000*5C
$GPGSA,A,2,01,16,20,,,,,,,,,,2.3,2.1,1.0*34
$GPRMC,212414.612,A,3747.6674,N,12215.4539,W,2.59,229.39,260312,,,A*7A
$GPVTG,229.39,T,,M,2.59,N,4.8,K,N*03
$GPGGA,212415.612,3747.6669,N,12215.4546,W,1,03,2.1,25.1,M,-25.1,M,,0000*59
$GPGSA,A,2,01,16,20,,,,,,,,,,2.3,2.1,1.0*34
$GPRMC,212415.612,A,3747.6669,N,12215.4546,W,2.76,229.02,260312,,,A*7A
$GPVTG,229.02,T,,M,2.76,N,5.1,K,N*0E
$GPGGA,212416.612,3747.6664,N,12215.4552,W,1,03,2.1,25.1,M,-25.1,M,,0000*52
$GPGSA,A,2,01,16,20,,,,,,,,,,2.3,2.1,1.0*34
$GPRMC,212416.612,A,3747.6664,N,12215.4552,W,2.65,230.27,260312,,,A*7C
$GPVTG,230.27,T,,M,2.65,N,4.9,K,N*0A
$GPGGA,212417.612,3747.6660,N,12215.4559,W,1,03,2.1,25.1,M,-25.1,M,,0000*5C
$GPGSA,A,2,01,16,20,,,,,,,,,,2.3,2.1,1.0*34
$GPGSV,3,1,12,20,70,304,39,01,32,218,39,16,23,140,35,23,42,290,43*7F
$GPGSV,3,2,12,30,38,112,34,31,37,044,28,24,18,189,30,13,15,273,41*73
$GPGSV,3,3,12,11,14,206,33,04,01,327,,14,01,078,,48,00,000,38*74
$GPRMC,212417.612,A,3747.6660,N,12215.4559,W,2.57,230.45,260312,,,A*77
$GPVTG,230.45,T,,M,2.57,N,4.8,K,N*0E
$GPGGA,212418.612,3747.6656,N,12215.4565,W,1,03,2.1,25.1,M,-25.1,M,,0000*59
$GPGSA,A,2,01,16,20,,,,,,,,,,2.3,2.1,1.0*34
$GPRMC,212418.612,A,3747.6656,N,12215.4565,W,2.47,231.23,260312,,,A*72
$GPVTG,231.23,T,,M,2.47,N,4.6,K,N*00
$GPGGA,212419.612,3747.6651,N,12215.4570,W,1,03,2.1,25.1,M,-25.1,M,,0000*5B
$GPGSA,A,2,01,16,20,,,,,,,,,,2.3,2.1,1.0*34
$GPRMC,212419.612,A,3747.6651,N,12215.4570,W,2.22,224.58,260312,,,A*7B
$GPVTG,224.58,T,,M,2.22,N,4.1,K,N*0C
$GPGGA,212420.612,3747.6648,N,12215.4574,W,1,03,2.1,25.1,M,-25.1,M,,0000*5D
$GPGSA,A,2,01,16,20,,,,,,,,,,2.3,2.1,1.0*34
$GPRMC,212420.612,A,3747.6648,N,12215.4574,W,1.95,230.43,260312,,,A*7D
$GPVTG,230.43,T,,M,1.95,N,3.6,K,N*0C
$GPGGA,212421.612,3747.6645,N,12215.4578,W,1,03,2.1,25.1,M,-25.1,M,,0000*5D
$GPGSA,A,2,01,16,20,,,,,,,,,,2.3,2.1,1.0*34
$GPRMC,212421.612,A,3747.6645,N,12215.4578,W,1.73,230.59,260312,,,A*7E
$GPVTG,230.59,T,,M,1.73,N,3.2,K,N*0B
$GPGGA,212422.612,3747.6644,N,12215.4579,W,1,03,2.1,25.1,M,-25.1,M,,0000*5E
$GPGSA,A,2,01,16,20,,,,,,,,,,2.3,2.1,1.0*34
$GPGSV,3,1,12,20,70,304,31,01,32,218,32,16,23,140,34,23,42,290,43*7D
$GPGSV,3,2,12,30,38,112,34,31,37,044,32,24,18,189,35,13,15,273,24*7E
$GPGSV,3,3,12,11,14,206,22,04,01,327,,14,01,078,,48,00,000,38*74
$GPRMC,212422.612,A,3747.6644,N,12215.4579,W,0.48,234.02,260312,,,A*7E
$GPVTG,234.02,T,,M,0.48,N,0.9,K,N*00
$GPGGA,212423.612,3747.6644,N,12215.4579,W,1,03,2.1,25.1,M,-25.1,M,,0000*5F
$GPGSA,A,2,01,16,20,,,,,,,,,,2.3,2.1,1.0*34
$GPRMC,212423.612,A,3747.6644,N,12215.4579,W,0.15,208.71,260312,,,A*7C
$GPVTG,208.71,T,,M,0.15,N,0.3,K,N*09
$GPGGA,212424.612,3747.6644,N,12215.4578,W,1,03,2.1,25.1,M,-25.1,M,,0000*59
$GPGSA,A,2,01,16,20,,,,,,,,,,2.3,2.1,1.0*34
$GPRMC,212424.612,A,3747.6644,N,12215.4578,W,0.18,205.78,260312,,,A*73
$GPVTG,205.78,T,,M,0.18,N,0.3,K,N*00
$GPGGA,212425.612,3747.6645,N,12215.4578,W,1,03,2.1,25.1,M,-25.1,M,,0000*59
$GPGSA,A,2,01,16,20,,,,,,,,,,2.3,2.1,1.0*34
$GPRMC,212425.612,A,3747.6645,N,12215.4578,W,0.16,292.77,260312,,,A*7C
$GPVTG,292.77,T,,M,0.16,N,0.3,K,N*0F
$GPGGA,212426.612,3747.6647,N,12215.4577,W,1,03,2.1,25.1,M,-25.1,M,,0000*57
$GPGSA,A,2,01,16,20,,,,,,,,,,2.3,2.1,1.0*34
$GPRMC,212426.612,A,3747.6647,N,12215.4577,W,0.74,359.41,260312,,,A*75
$GPVTG,359.41,T,,M,0.74,N,1.4,K,N*0E
$GPGGA,212427.612,3747.6648,N,12215.4578,W,1,03,2.1,25.1,M,-25.1,M,,0000*56
$GPGSA,A,2,01,16,20,,,,,,,,,,2.3,2.1,1.0*34
$GPGSV,3,1,12,20,70,304,35,01,32,218,33,16,23,140,35,23,42,290,34*79
$GPGSV,3,2,12,30,38,112,37,31,37,044,39,24,18,189,39,13,15,273,23*7D
$GPGSV,3,3,12,11,14,206,26,04,01,327,,14,01,078,,48,00,000,40*7F
$GPRMC,212427.612,A,3747.6648,N,12215.4578,W,0.77,310.50,260312,,,A*7A
$GPGGA,212428.612,3747.6660,N,12215.4597,W,1,04,1.8,17.7,M,-25.1,M,,0000*58
$GPGSA,A,3,01,16,20,30,,,,,,,,,2.1,1.8,1.0*3E
$GPRMC,212428.612,A,3747.6660,N,12215.4597,W,0.48,266.68,260312,,,A*79
$GPVTG,266.68,T,,M,0.48,N,0.9,K,A*04
$GPGGA,212429.612,3747.6677,N,12215.4518,W,1,04,1.8,28.6,M,-25.1,M,,0000*55
$GPGSA,A,3,01,16,20,30,,,,,,,,,2.1,1.8,1.0*3E
$GPRMC,212429.612,A,3747.6677,N,12215.4518,W,0.32,38.96,260312,,,A*4C
$GPVTG,38.96,T,,M,0.32,N,0.6,K,A*3E
$GPGGA,212430.612,3747.6705,N,12215.4542,W,1,04,1.8,10.9,M,-25.1,M,,0000*52
$GPGSA,A,3,01,16,20,30,,,,,,,,,2.1,1.8,1.0*3E
$GPRMC,212430.612,A,3747.6705,N,12215.4542,W,0.39,252.34,260312,,,A*72
$GPVTG,252.34,T,,M,0.39,N,0.7,K,A*02
$GPGGA,212431.000,3747.6697,N,12215.4549,W,1,04,1.8,12.3,M,-25.1,M,,0000*5F
$GPGSA,A,3,01,16,20,30,,,,,,,,,2.1,1.8,1.0*3E
$GPRMC,212431.000,A,3747.6697,N,12215.4549,W,0.17,309.38,260312,,,A*78
$GPVTG,309.38,T,,M,0.17,N,0.3,K,A*09
$GPGGA,212432.000,3747.6684,N,12215.4563,W,1,04,1.8,14.4,M,-25.1,M,,0000*57
$GPGSA,A,3,01,16,20,30,,,,,,,,,2.1,1.8,1.0*3E
$GPGSV,3,1,12,20,71,304,36,30,38,112,41,01,32,218,23,16,24,140,36*7A
$GPGSV,3,2,12,23,42,290,36,31,37,044,36,24,18,189,34,13,15,273,27*7C
$GPGSV,3,3,12,11,14,206,20,04,01,327,,14,01,078,,48,44,197,37*76
$GPRMC,212432.000,A,3747.6684,N,12215.4563,W,0.40,352.60,260312,,,A*70
$GPVTG,352.60,T,,M,0.40,N,0.7,K,A*0C
$GPGGA,212433.000,3747.6699,N,12215.4565,W,1,04,1.8,10.9,M,-25.1,M,,0000*55
$GPGSA,A,3,01,16,20,30,,,,,,,,,2.1,1.8,1.0*3E
$GPRMC,212433.000,A,3747.6699,N,12215.4565,W,0.07,328.93,260312,,,A*79
$GPVTG,328.93,T,,M,0.07,N,0.1,K,A*08
$GPGGA,212434.000,3747.6707,N,12215.4569,W,1,04,1.8,8.7,M,-25.1,M,,0000*6F
$GPGSA,A,3,01,16,20,30,,,,,,,,,2.1,1.8,1.0*3E
$GPRMC,212434.000,A,3747.6707,N,12215.4569,W,0.41,202.65,260312,,,A*76
$GPVTG,202.65,T,,M,0.41,N,0.8,K,A*03
$GPGGA,212435.000,3747.6717,N,12215.4570,W,1,04,1.8,5.7,M,-25.1,M,,0000*6A
$GPGSA,A,3,01,16,20,30,,,,,,,,,2.1,1.8,1.0*3E
$GPRMC,212435.000,A,3747.6717,N,12215.4570,W,0.19,180.17,260312,,,A*7F
$GPVTG,180.17,T,,M,0.19,N,0.4,K,A*0E
$GPGGA,212436.000,3747.6721,N,12215.4572,W,1,03,3.7,4.5,M,-25.1,M,,0000*67
$GPGSA,A,2,16,20,30,,,,,,,,,,3.8,3.7,1.0*3B
$GPRMC,212436.000,A,3747.6721,N,12215.4572,W,0.10,308.34,260312,,,A*71
$GPVTG,308.34,T,,M,0.10,N,0.2,K,N*0D
$GPGGA,212437.000,3747.6721,N,12215.4573,W,1,04,1.8,4.1,M,-25.1,M,,0000*69
$GPGSA,A,3,01,16,20,30,,,,,,,,,2.1,1.8,1.0*3E
$GPGSV,3,1,12,20,71,304,25,30,38,112,36,01,32,218,22,16,24,140,35*7A
$GPGSV,3,2,12,23,42,290,28,31,37,044,29,24,18,189,32,13,15,273,25*79
$GPGSV,3,3,12,11,14,206,22,04,01,327,,14,01,078,,48,44,197,38*7B
$GPRMC,212437.000,A,3747.6721,N,12215.4573,W,0.50,289.61,260312,,,A*7D
$GPVTG,289.61,T,,M,0.50,N,0.9,K,A*05
$GPGGA,212438.000,3747.6728,N,12215.4572,W,1,04,1.8,1.9,M,-25.1,M,,0000*63
$GPGSA,A,3,01,16,20,30,,,,,,,,,2.1,1.8,1.0*3E
$GPRMC,212438.000,A,3747.6728,N,12215.4572,W,0.39,46.64,260312,,,A*41
$GPVTG,46.64,T,,M,0.39,N,0.7,K,A*30
$GPGGA,212439.000,3747.6718,N,12215.4573,W,1,04,1.8,3.7,M,-25.1,M,,0000*6C
$GPGSA,A,3,01,16,20,30,,,,,,,,,2.1,1.8,1.0*3E
$GPRMC,212439.000,A,3747.6718,N,12215.4573,W,0.09,268.66,260312,,,A*7D
$GPVTG,268.66,T,,M,0.09,N,0.2,K,A*0A
$GPGGA,212440.000,3747.6711,N,12215.4576,W,1,04,1.8,4.7,M,-25.1,M,,0000*69
$GPGSA,A,3,01,16,20,30,,,,,,,,,2.1,1.8,1.0*3E
$GPRMC,212440.000,A,3747.6711,N,12215.4576,W,0.22,226.68,260312,,,A*72
$GPVTG,226.68,T,,M,0.22,N,0.4,K,A*01
$GPGGA,212441.000,3747.6706,N,12215.4577,W,1,04,1.8,5.1,M,-25.1,M,,0000*68
$GPGSA,A,3,01,16,20,30,,,,,,,,,2.1,1.8,1.0*3E
$GPRMC,212441.000,A,3747.6706,N,12215.4577,W,0.25,190.75,260312,,,A*71
$GPVTG,190.75,T,,M,0.25,N,0.5,K,A*05
$GPGGA,212442.000,3747.6703,N,12215.4578,W,2,04,1.8,6.2,M,-25.1,M,1.8,0000*45
$GPGSA,A,3,01,16,20,30,,,,,,,,,2.1,1.8,1.0*3E
$GPGSV,3,1,12,20,71,304,28,30,38,112,28,01,32,218,28,16,24,140,29*7F
$GPGSV,3,2,12,23,42,290,29,31,37,044,24,24,18,189,37,13,15,273,22*77
$GPGSV,3,3,12,11,14,206,23,04,01,327,,14,01,078,,48,44,197,40*75
$GPRMC,212442.000,A,3747.6703,N,12215.4578,W,0.93,164.13,260312,,,D*7B
$GPVTG,164.13,T,,M,0.93,N,1.7,K,D*05
$GPGGA,212443.000,3747.6705,N,12215.4584,W,2,04,1.8,5.5,M,-25.1,M,1.8,0000*45
$GPGSA,A,3,01,16,20,30,,,,,,,,,2.1,1.8,1.0*3E
$GPRMC,212443.000,A,3747.6705,N,12215.4584,W,0.41,236.89,260312,,,D*77
$GPVTG,236.89,T,,M,0.41,N,0.8,K,D*03
$GPGGA,212444.000,3747.6706,N,12215.4589,W,2,04,1.8,5.2,M,-25.1,M,1.8,0000*4B
$GPGSA,A,3,01,16,20,30,,,,,,,,,2.1,1.8,1.0*3E
$GPRMC,212444.000,A,3747.6706,N,12215.4589,W,0.27,246.23,260312,,,D*79
$GPVTG,246.23,T,,M,0.27,N,0.5,K,D*09
$GPGGA,212445.000,3747.6694,N,12215.4586,W,2,04,1.8,8.5,M,-25.1,M,1.8,0000*45
$GPGSA,A,3,01,16,20,30,,,,,,,,,2.1,1.8,1.0*3E
$GPRMC,212445.000,A,3747.6694,N,12215.4586,W,0.06,172.50,260312,,,D*7E
$GPVTG,172.50,T,,M,0.06,N,0.1,K,D*0E
$GPGGA,212446.000,3747.6688,N,12215.4581,W,2,04,1.8,11.7,M,-25.1,M,2.8,0000*75
$GPGSA,A,3,01,16,20,30,,,,,,,,,2.1,1.8,1.0*3E
$GPRMC,212446.000,A,3747.6688,N,12215.4581,W,0.98,9.81,260312,,,D*71
$GPVTG,9.81,T,,M,0.98,N,1.8,K,D*00
$GPGGA,212447.000,3747.6690,N,12215.4581,W,2,04,1.8,10.6,M,-25.1,M,3.8,0000*7C
$GPGSA,A,3,01,16,20,30,,,,,,,,,2.1,1.8,1.0*3E
$GPGSV,3,1,12,20,71,304,21,30,38,112,16,01,32,218,22,16,24,140,22*7A
$GPGSV,3,2,12,23,42,290,25,31,37,044,28,24,18,189,38,13,15,273,21*7B
$GPGSV,3,3,12,11,14,206,20,04,01,327,,14,01,078,,48,44,197,38*79
$GPRMC,212447.000,A,3747.6690,N,12215.4581,W,0.68,35.69,260312,,,D*4F
$GPVTG,35.69,T,,M,0.68,N,1.3,K,D*3D
$GPGGA,212448.000,3747.6691,N,12215.4584,W,2,04,1.8,11.1,M,-25.1,M,4.8,0000*76
$GPGSA,A,3,01,16,20,30,,,,,,,,,2.1,1.8,1.0*3E
$GPRMC,212448.000,A,3747.6691,N,12215.4584,W,0.67,36.13,260312,,,D*45
$GPVTG,36.13,T,,M,0.67,N,1.2,K,D*3D
$GPGGA,212449.000,3747.6688,N,12215.4580,W,2,04,1.8,13.5,M,-25.1,M,1.8,0000*78
$GPGSA,A,3,01,16,20,30,,,,,,,,,2.1,1.8,1.0*3E
$GPRMC,212449.000,A,3747.6688,N,12215.4580,W,1.04,35.31,260312,,,D*4F
$GPVTG,35.31,T,,M,1.04,N,1.9,K,D*31
$GPGGA,212450.000,3747.6690,N,12215.4581,W,2,04,1.8,13.9,M,-25.1,M,1.8,0000*74
$GPGSA,A,3,01,16,20,30,,,,,,,,,2.1,1.8,1.0*3E
$GPRMC,212450.000,A,3747.6690,N,12215.4581,W,0.88,339.73,260312,,,D*73
$GPVTG,339.73,T,,M,0.88,N,1.6,K,D*02
$GPGGA,212451.000,3747.6691,N,12215.4581,W,2,04,1.8,13.1,M,-25.1,M,1.8,0000*7C
$GPGSA,A,3,01,16,20,30,,,,,,,,,2.1,1.8,1.0*3E
$GPRMC,212451.000,A,3747.6691,N,12215.4581,W,0.26,340.79,260312,,,D*73
$GPVTG,340.79,T,,M,0.26,N,0.5,K,D*00
$GPGGA,212452.000,3747.6693,N,12215.4583,W,2,03,3.7,13.2,M,-25.1,M,1.8,0000*76
$GPGSA,A,2,16,20,30,,,,,,,,,,3.8,3.7,1.0*3B
$GPGSV,3,1,12,20,71,304,28,30,38,112,34,01,32,218,20,16,24,140,34*76
$GPGSV,3,2,12,23,42,290,30,31,37,044,27,24,18,189,32,13,15,273,23*78
$GPGSV,3,3,12,11,14,206,,04,01,327,,14,01,078,,48,44,197,28*7A
$GPRMC,212452.000,A,3747.6693,N,12215.4583,W,1.20,320.71,260312,,,D*79
$GPVTG,320.71,T,,M,1.20,N,2.2,K,N*06
$GPGGA,212453.000,3747.6694,N,12215.4585,W,2,03,3.7,12.9,M,-25.1,M,2.8,0000*7F
$GPGSA,A,2,16,20,30,,,,,,,,,,3.8,3.7,1.0*3B
$GPRMC,212453.000,A,3747.6694,N,12215.4585,W,0.93,314.15,260312,,,D*75
$GPVTG,314.15,T,,M,0.93,N,1.7,K,N*0C
$GPGGA,212454.000,3747.6693,N,12215.4588,W,2,04,1.8,14.2,M,-25.1,M,3.8,0000*74
$GPGSA,A,3,01,16,20,30,,,,,,,,,2.1,1.8,1.0*3E
$GPRMC,212454.000,A,3747.6693,N,12215.4588,W,0.31,314.91,260312,,,D*7C
$GPVTG,314.91,T,,M,0.31,N,0.6,K,D*02
$GPGGA,212455.000,3747.6683,N,12215.4585,W,2,04,1.8,17.3,M,-25.1,M,4.8,0000*7C
$GPGSA,A,3,01,16,20,30,,,,,,,,,2.1,1.8,1.0*3E
$GPRMC,212455.000,A,3747.6683,N,12215.4585,W,1.03,202.49,260312,,,D*72
$GPVTG,202.49,T,,M,1.03,N,1.9,K,D*0F
$GPGGA,212456.000,3747.6678,N,12215.4577,W,2,04,1.8,17.9,M,-25.1,M,5.8,0000*7D
$GPGSA,A,3,01,16,20,30,,,,,,,,,2.1,1.8,1.0*3E
$GPRMC,212456.000,A,3747.6678,N,12215.4577,W,1.32,186.19,260312,,,D*70
$GPVTG,186.19,T,,M,1.32,N,2.4,K,D*09
$GPGGA,212457.000,3747.6677,N,12215.4572,W,2,04,1.8,17.5,M,-25.1,M,6.8,0000*79
$GPGSA,A,3,01,16,20,30,,,,,,,,,2.1,1.8,1.0*3E
$GPGSV,3,1,12,20,71,304,33,30,38,112,27,01,32,218,18,16,24,140,27*77
$GPGSV,3,2,12,23,42,290,37,31,37,044,32,24,18,189,33,13,15,273,28*71
$GPGSV,3,3,12,11,14,206,,04,01,327,,14,01,078,,48,44,197,26*74
$GPRMC,212457.000,A,3747.6677,N,12215.4572,W,2.95,167.63,260312,,,D*77
$GPGGA,212458.000,3747.6668,N,12215.4569,W,2,04,1.8,19.3,M,-25.1,M,7.8,0000*7B
$GPGSA,A,3,01,16,20,30,,,,,,,,,2.1,1.8,1.0*3E
$GPRMC,212458.000,A,3747.6668,N,12215.4569,W,2.24,177.07,260312,,,D*75
$GPVTG,177.07,T,,M,2.24,N,4.2,K,D*0C
$GPGGA,212459.000,3747.6668,N,12215.4567,W,2,04,1.8,19.2,M,-25.1,M,8.8,0000*7A
$GPGSA,A,3,01,16,20,30,,,,,,,,,2.1,1.8,1.0*3E
$GPRMC,212459.000,A,3747.6668,N,12215.4567,W,0.67,160.20,260312,,,D*7C
$GPVTG,160.20,T,,M,0.67,N,1.2,K,D*0F
$GPGGA,212500.000,3747.6663,N,12215.4560,W,2,04,1.8,21.8,M,-25.1,M,9.8,0000*7B
$GPGSA,A,3,01,16,20,30,,,,,,,,,2.1,1.8,1.0*3E
$GPRMC,212500.000,A,3747.6663,N,12215.4560,W,0.42,118.58,260312,,,D*7A
$GPVTG,118.58,T,,M,0.42,N,0.8,K,D*03
$GPGGA,212501.000,3747.6675,N,12215.4555,W,2,04,1.8,20.3,M,-25.1,M,1.8,0000*79
$GPGSA,A,3,01,16,20,30,,,,,,,,,2.1,1.8,1.0*3E
$GPRMC,212501.000,A,3747.6675,N,12215.4555,W,0.32,330.21,260312,,,D*7B
$GPVTG,330.21,T,,M,0.32,N,0.6,K,D*0C
$GPGGA,212502.000,3747.6690,N,12215.4550,W,2,04,1.8,17.5,M,-25.1,M,2.8,0000*75
$GPGSA,A,3,01,16,20,30,,,,,,,,,2.1,1.8,1.0*3E
$GPGSV,3,1,12,20,71,304,31,30,38,112,36,01,32,218,24,16,24,140,33*7F
$GPGSV,3,2,12,23,42,290,31,31,37,044,32,24,18,189,34,13,15,273,31*78
$GPGSV,3,3,12,11,14,206,24,04,01,327,,14,01,078,,48,44,197,36*73
$GPRMC,212502.000,A,3747.6690,N,12215.4550,W,0.29,143.84,260312,,,D*75
$GPVTG,143.84,T,,M,0.29,N,0.5,K,D*0C
$GPGGA,212503.000,3747.6693,N,12215.4547,W,2,04,1.8,16.1,M,-25.1,M,3.8,0000*75
$GPGSA,A,3,01,16,20,30,,,,,,,,,2.1,1.8,1.0*3E
$GPRMC,212503.000,A,3747.6693,N,12215.4547,W,0.97,230.47,260312,,,D*7C
$GPVTG,230.47,T,,M,0.97,N,1.8,K,D*0D
$GPGGA,212504.000,3747.6706,N,12215.4542,W,2,04,1.8,13.8,M,-25.1,M,4.8,0000*71
$GPGSA,A,3,01,16,20,30,,,,,,,,,2.1,1.8,1.0*3E
$GPRMC,212504.000,A,3747.6706,N,12215.4542,W,0.59,310.54,260312,,,D*70
$GPVTG,310.54,T,,M,0.59,N,1.1,K,D*07
$GPGGA,212505.000,3747.6708,N,12215.4542,W,2,04,1.8,13.1,M,-25.1,M,5.8,0000*76
$GPGSA,A,3,01,16,20,30,,,,,,,,,2.1,1.8,1.0*3E
$GPRMC,212505.000,A,3747.6708,N,12215.4542,W,0.58,334.76,260312,,,D*78
$GPVTG,334.76,T,,M,0.58,N,1.1,K,D*00
$GPGGA,212506.000,3747.6705,N,12215.4542,W,2,04,1.8,13.0,M,-25.1,M,1.8,0000*7D
$GPGSA,A,3,01,16,20,30,,,,,,,,,2.1,1.8,1.0*3E
$GPRMC,212506.000,A,3747.6705,N,12215.4542,W,0.13,17.32,260312,,,D*4B
$GPVTG,17.32,T,,M,0.13,N,0.2,K,D*3F
$GPGGA,212507.000,3747.6704,N,12215.4544,W,2,04,1.8,13.0,M,-25.1,M,1.8,0000*7B
$GPGSA,A,3,01,16,20,30,,,,,,,,,2.1,1.8,1.0*3E
$GPGSV,3,1,12,20,71,304,25,30,38,112,35,01,32,218,30,16,24,140,42*7A
$GPGSV,3,2,12,23,42,290,39,31,37,044,32,24,18,189,41,13,15,273,19*78
$GPGSV,3,3,12,11,14,206,31,04,01,327,,14,01,078,,48,44,197,41*77
$GPRMC,212507.000,A,3747.6704,N,12215.4544,W,0.14,180.10,260312,,,D*75
$GPVTG,180.10,T,,M,0.14,N,0.3,K,D*06
$GPGGA,212508.000,3747.6703,N,12215.4542,W,2,04,1.8,12.9,M,-25.1,M,1.8,0000*7D
$GPGSA,A,3,01,16,20,30,,,,,,,,,2.1,1.8,1.0*3E
$GPRMC,212508.000,A,3747.6703,N,12215.4542,W,0.28,265.26,260312,,,D*79
$GPVTG,265.26,T,,M,0.28,N,0.5,K,D*02
$GPGGA,212509.000,3747.6716,N,12215.4538,W,2,04,1.8,11.3,M,-25.1,M,1.8,0000*7C
$GPGSA,A,3,01,16,20,30,,,,,,,,,2.1,1.8,1.0*3E
$GPRMC,212509.000,A,3747.6716,N,12215.4538,W,0.16,317.02,260312,,,D*7E
$GPVTG,317.02,T,,M,0.16,N,0.3,K,D*0B
$GPGGA,212510.000,3747.6730,N,12215.4533,W,2,04,1.8,9.9,M,-25.1,M,2.8,0000*4B
$GPGSA,A,3,01,16,20,30,,,,,,,,,2.1,1.8,1.0*3E
$GPRMC,212510.000,A,3747.6730,N,12215.4533,W,0.96,356.48,260312,,,D*7A
$GPVTG,356.48,T,,M,0.96,N,1.8,K,D*02
$GPGGA,212511.000,3747.6742,N,12215.4528,W,2,04,1.8,8.6,M,-25.1,M,3.8,0000*4A
$GPGSA,A,3,01,16,20,30,,,,,,,,,2.1,1.8,1.0*3E
$GPRMC,212511.000,A,3747.6742,N,12215.4528,W,1.02,2.84,260312,,,D*7A
$GPVTG,2.84,T,,M,1.02,N,1.9,K,D*0D
$GPGGA,212512.000,3747.6758,N,12215.4523,W,2,04,1.8,7.0,M,-25.1,M,4.8,0000*47
$GPGSA,A,3,01,16,20,30,,,,,,,,,2.1,1.8,1.0*3E
$GPGSV,3,1,12,20,71,304,25,30,38,112,34,01,32,218,27,16,24,140,41*7E
$GPGSV,3,2,12,23,42,290,38,31,37,044,33,24,18,189,41,13,15,273,21*73
$GPGSV,3,3,12,11,14,206,21,04,01,327,,14,01,078,,48,44,197,41*76
$GPVTG,8.25,T,,M,0.87,N,1.6,K,D*0F
$GPGGA,212513.000,3747.6774,N,12215.4519,W,2,04,1.8,5.2,M,-25.1,M,1.8,0000*44
$GPGSA,A,3,01,16,20,30,,,,,,,,,2.1,1.8,1.0*3E
$GPRMC,212513.000,A,3747.6774,N,12215.4519,W,0.73,6.99,260312,,,D*70
$GPVTG,6.99,T,,M,0.73,N,1.3,K,D*08
$GPGGA,212514.000,3747.6782,N,12215.4515,W,2,04,1.8,4.0,M,-25.1,M,1.8,0000*45
$GPGSA,A,3,01,16,20,30,,,,,,,,,2.1,1.8,1.0*3E
$GPRMC,212514.000,A,3747.6782,N,12215.4515,W,0.47,5.44,260312,,,D*76
$GPVTG,5.44,T,,M,0.47,N,0.9,K,D*07
$GPGGA,212515.000,3747.6785,N,12215.4512,W,2,04,1.8,3.1,M,-25.1,M,1.8,0000*42
$GPGSA,A,3,01,16,20,30,,,,,,,,,2.1,1.8,1.0*3E
$GPRMC,212515.000,A,3747.6785,N,12215.4512,W,0.21,12.42,260312,,,D*47
$GPVTG,12.42,T,,M,0.21,N,0.4,K,D*3A
$GPGGA,212516.000,3747.6787,N,12215.4510,W,2,04,1.8,2.3,M,-25.1,M,1.8,0000*42
$GPGSA,A,3,01,16,20,30,,,,,,,,,2.1,1.8,1.0*3E
$GPRMC,212516.000,A,3747.6787,N,12215.4510,W,0.50,340.99,260312,,,D*70
$GPVTG,340.99,T,,M,0.50,N,0.9,K,D*03
$GPGGA,212517.000,3747.6793,N,12215.4510,W,2,04,1.8,1.0,M,-25.1,M,1.8,0000*46
$GPGSA,A,3,01,16,20,30,,,,,,,,,2.1,1.8,1.0*3E
$GPGSV,3,1,12,20,71,303,21,23,43,291,37,30,38,112,34,31,36,044,33*7D
$GPGSV,3,2,12,01,32,218,28,16,24,140,41,24,18,189,41,13,16,273,20*70
$GPGSV,3,3,12,11,13,206,20,04,01,327,,14,01,079,,48,44,197,40*70
$GPRMC,212517.000,A,3747.6793,N,12215.4510,W,0.17,337.49,260312,,,D*7A
$GPVTG,337.49,T,,M,0.17,N,0.3,K,D*07
$GPGGA,212518.000,3747.6793,N,12215.4510,W,2,04,1.8,0.2,M,-25.1,M,2.8,0000*49
$GPGSA,A,3,01,16,20,30,,,,,,,,,2.1,1.8,1.0*3E
$GPRMC,212518.000,A,3747.6793,N,12215.4510,W,0.32,173.99,260312,,,D*7D
$GPVTG,173.99,T,,M,0.32,N,0.6,K,D*0A
$GPGGA,212519.000,3747.6791,N,12215.4509,W,2,04,1.8,-0.6,M,-25.1,M,1.8,0000*68
$GPGSA,A,3,01,16,20,30,,,,,,,,,2.1,1.8,1.0*3E
$GPRMC,212519.000,A,3747.6791,N,12215.4509,W,0.35,183.75,260312,,,D*7C
$GPVTG,183.75,T,,M,0.35,N,0.6,K,D*00
$GPGGA,212520.000,3747.6787,N,12215.4507,W,2,04,1.8,-1.0,M,-25.1,M,1.8,0000*6C
$GPGSA,A,3,01,16,20,30,,,,,,,,,2.1,1.8,1.0*3E
$GPRMC,212520.000,A,3747.6787,N,12215.4507,W,0.24,55.39,260312,,,D*4D
$GPVTG,55.39,T,,M,0.24,N,0.5,K,D*31
$GPGGA,212521.000,3747.6782,N,12215.4507,W,2,04,1.8,-1.3,M,-25.1,M,1.8,0000*6B
$GPGSA,A,3,01,16,20,30,,,,,,,,,2.1,1.8,1.0*3E
$GPRMC,212521.000,A,3747.6782,N,12215.4507,W,0.64,55.53,260312,,,D*41
$GPVTG,55.53,T,,M,0.64,N,1.2,K,D*3F
$GPGGA,212522.000,3747.6779,N,12215.4505,W,2,04,1.8,-1.7,M,-25.1,M,2.8,0000*69
$GPGSA,A,3,01,16,20,30,,,,,,,,,2.1,1.8,1.0*3E
$GPGSV,3,1,12,20,71,303,22,23,43,291,27,30,38,112,35,31,36,044,29*75
$GPGSV,3,2,12,01,32,218,20,16,24,140,41,24,18,189,40,13,16,273,21*78
$GPGSV,3,3,12,11,13,206,21,04,01,327,,14,01,079,,48,44,197,32*74
$GPRMC,212522.000,A,3747.6779,N,12215.4505,W,0.72,102.28,260312,,,D*7C
$GPVTG,102.28,T,,M,0.72,N,1.3,K,D*06
$GPGGA,212523.000,3747.6777,N,12215.4500,W,2,04,1.8,-2.2,M,-25.1,M,3.8,0000*64
$GPGSA,A,3,01,16,20,30,,,,,,,,,2.1,1.8,1.0*3E
$GPRMC,212523.000,A,3747.6777,N,12215.4500,W,1.15,102.76,260312,,,D*7D
$GPVTG,102.76,T,,M,1.15,N,2.1,K,D*0C
$GPGGA,212524.000,3747.6774,N,12215.4493,W,2,04,1.8,-2.7,M,-25.1,M,1.8,0000*6C
$GPGSA,A,3,01,16,20,30,,,,,,,,,2.1,1.8,1.0*3E
$GPRMC,212524.000,A,3747.6774,N,12215.4493,W,1.61,136.68,260312,,,D*79
$GPVTG,136.68,T,,M,1.61,N,3.0,K,D*07
$GPGGA,212525.000,3747.6774,N,12215.4492,W,2,04,1.8,-3.5,M,-25.1,M,1.8,0000*6F
$GPGSA,A,3,01,16,20,30,,,,,,,,,2.1,1.8,1.0*3E
$GPRMC,212525.000,A,3747.6774,N,12215.4492,W,1.78,146.15,260312,,,D*7C
$GPVTG,146.15,T,,M,1.78,N,3.3,K,D*01
$GPGGA,212526.000,3747.6760,N,12215.4497,W,2,04,1.8,-3.2,M,-25.1,M,2.8,0000*68
$GPGSA,A,3,01,16,20,30,,,,,,,,,2.1,1.8,1.0*3E
$GPRMC,212526.000,A,3747.6760,N,12215.4497,W,2.09,175.72,260312,,,D*7B
$GPVTG,175.72,T,,M,2.09,N,3.9,K,D*0F
$GPGGA,212527.000,3747.6748,N,12215.4499,W,2,04,1.8,-3.2,M,-25.1,M,3.8,0000*6C
$GPGSA,A,3,01,16,20,30,,,,,,,,,2.1,1.8,1.0*3E
$GPGSV,3,1,12,20,71,303,22,23,43,291,27,30,38,112,34,31,36,044,28*75
$GPGSV,3,2,12,01,32,218,25,16,24,140,40,24,18,189,36,13,16,273,21*7D
$GPGSV,3,3,12,11,13,206,22,04,01,327,,14,01,079,,48,44,197,30*75
$GPRMC,212527.000,A,3747.6748,N,12215.4499,W,1.72,164.18,260312,,,D*7D
$GPGGA,212528.000,3747.6731,N,12215.4505,W,2,04,1.8,-2.5,M,-25.1,M,4.8,0000*68
$GPGSA,A,3,01,16,20,30,,,,,,,,,2.1,1.8,1.0*3E
$GPRMC,212528.000,A,3747.6731,N,12215.4505,W,1.63,169.06,260312,,,D*7A
$GPVTG,169.06,T,,M,1.63,N,3.0,K,D*07
$GPGGA,212529.000,3747.6718,N,12215.4508,W,2,04,1.8,-2.1,M,-25.1,M,5.8,0000*6A
$GPGSA,A,3,01,16,20,30,,,,,,,,,2.1,1.8,1.0*3E
$GPRMC,212529.000,A,3747.6718,N,12215.4508,W,1.58,173.21,260312,,,D*7B
$GPVTG,173.21,T,,M,1.58,N,2.9,K,D*09
$GPGGA,212530.000,3747.6712,N,12215.4509,W,2,04,1.8,-2.1,M,-25.1,M,6.8,0000*6A
$GPGSA,A,3,01,16,20,30,,,,,,,,,2.1,1.8,1.0*3E
$GPRMC,212530.000,A,3747.6712,N,12215.4509,W,1.89,163.62,260312,,,D*72
$GPVTG,163.62,T,,M,1.89,N,3.5,K,D*0E
$GPGGA,212531.000,3747.6699,N,12215.4507,W,2,04,1.8,-1.9,M,-25.1,M,7.8,0000*6D
$GPGSA,A,3,01,16,20,30,,,,,,,,,2.1,1.8,1.0*3E
$GPRMC,212531.000,A,3747.6699,N,12215.4507,W,2.53,154.13,260312,,,D*79
$GPVTG,154.13,T,,M,2.53,N,4.7,K,D*0D
$GPGGA,212532.000,3747.6698,N,12215.4499,W,2,04,1.8,-2.3,M,-25.1,M,8.8,0000*6F
$GPGSA,A,3,01,16,20,30,,,,,,,,,2.1,1.8,1.0*3E
$GPGSV,3,1,12,20,71,303,22,23,43,291,28,30,38,112,35,31,36,044,32*70
$GPGSV,3,2,12,01,32,218,25,16,24,140,39,24,18,189,37,13,16,273,24*77
$GPGSV,3,3,12,11,13,206,26,04,01,327,,14,01,079,,48,44,197,27*77
$GPRMC,212532.000,A,3747.6698,N,12215.4499,W,1.90,150.48,260312,,,D*7B
$GPVTG,150.48,T,,M,1.90,N,3.5,K,D*0E
$GPGGA,212533.000,3747.6691,N,12215.4492,W,2,04,1.8,-2.3,M,-25.1,M,9.8,0000*6D
$GPGSA,A,3,01,16,20,30,,,,,,,,,2.1,1.8,1.0*3E
$GPRMC,212533.000,A,3747.6691,N,12215.4492,W,1.84,135.27,260312,,,D*77
$GPVTG,135.27,T,,M,1.84,N,3.4,K,D*00
$GPGGA,212534.000,3747.6694,N,12215.4488,W,2,04,1.8,-2.6,M,-25.1,M,10.8,0000*59
$GPGSA,A,3,01,16,20,30,,,,,,,,,2.1,1.8,1.0*3E
$GPRMC,212534.000,A,3747.6694,N,12215.4488,W,1.67,127.73,260312,,,D*71
$GPVTG,127.73,T,,M,1.67,N,3.1,K,D*0A
$GPGGA,212535.000,3747.6696,N,12215.4481,W,2,04,1.8,-3.1,M,-25.1,M,11.8,0000*54
$GPGSA,A,3,01,16,20,30,,,,,,,,,2.1,1.8,1.0*3E
$GPRMC,212535.000,A,3747.6696,N,12215.4481,W,2.26,128.72,260312,,,D*73
$GPVTG,128.72,T,,M,2.26,N,4.2,K,D*06
$GPGGA,212536.000,3747.6694,N,12215.4478,W,2,04,1.8,-3.3,M,-25.1,M,12.8,0000*52
$GPGSA,A,3,01,16,20,30,,,,,,,,,2.1,1.8,1.0*3E
$GPRMC,212536.000,A,3747.6694,N,12215.4478,W,1.94,148.74,260312,,,D*7E
$GPVTG,148.74,T,,M,1.94,N,3.6,K,D*0F
$GPGGA,212537.000,3747.6684,N,12215.4481,W,2,04,1.8,-3.0,M,-25.1,M,13.8,0000*56
$GPGSA,A,3,01,16,20,30,,,,,,,,,2.1,1.8,1.0*3E
$GPGSV,3,1,12,20,71,303,22,23,43,291,29,30,38,112,35,31,36,044,32*71
$GPGSV,3,2,12,01,32,218,25,16,24,140,39,24,18,189,39,13,16,273,26*7B
$GPGSV,3,3,12,11,13,206,25,04,01,327,,14,01,079,,51,43,156,32*72
$GPRMC,212537.000,A,3747.6684,N,12215.4481,W,1.46,174.01,260312,,,D*7A
$GPVTG,174.01,T,,M,1.46,N,2.7,K,D*0D
$GPGGA,212538.000,3747.6684,N,12215.4482,W,2,04,1.8,-3.3,M,-25.1,M,14.8,0000*5E
$GPGSA,A,3,01,16,20,30,,,,,,,,,2.1,1.8,1.0*3E
$GPRMC,212538.000,A,3747.6684,N,12215.4482,W,1.85,149.18,260312,,,D*7F
$GPVTG,149.18,T,,M,1.85,N,3.4,K,D*06
$GPGGA,212539.000,3747.6686,N,12215.4483,W,2,04,1.8,-3.5,M,-25.1,M,15.8,0000*5B
$GPGSA,A,3,01,16,20,30,,,,,,,,,2.1,1.8,1.0*3E
$GPRMC,212539.000,A,3747.6686,N,12215.4483,W,1.10,149.35,260312,,,D*7E
$GPVTG,149.35,T,,M,1.10,N,2.0,K,D*00
$GPGGA,212540.000,3747.6686,N,12215.4481,W,2,04,1.8,-3.7,M,-25.1,M,16.8,0000*56
$GPGSA,A,3,01,16,20,30,,,,,,,,,2.1,1.8,1.0*3E
$GPRMC,212540.000,A,3747.6686,N,12215.4481,W,1.39,126.30,260312,,,D*75
$GPVTG,126.30,T,,M,1.39,N,2.6,K,D*01
$GPGGA,212541.000,3747.6686,N,12215.4478,W,2,04,1.8,-3.9,M,-25.1,M,17.8,0000*5E
$GPGSA,A,3,01,16,20,30,,,,,,,,,2.1,1.8,1.0*3E
$GPRMC,212541.000,A,3747.6686,N,12215.4478,W,0.84,145.19,260312,,,D*7B
$GPVTG,145.19,T,,M,0.84,N,1.6,K,D*0B
$GPGGA,212542.000,3747.6680,N,12215.4476,W,1,04,1.8,-3.9,M,-25.1,M,,0000*46
$GPGSA,A,3,01,16,20,30,,,,,,,,,2.1,1.8,1.0*3E
$GPGSV,3,1,12,32,78,115,,20,71,303,22,23,43,291,28,30,38,112,33*7B
$GPGSV,3,2,12,31,36,044,31,01,32,218,23,16,24,139,38,13,16,273,26*72
$GPGSV,3,3,12,11,13,206,25,04,01,327,,14,00,079,,51,43,156,35*74
$GPVTG,177.21,T,,M,1.38,N,2.6,K,A*01
$GPGGA,212543.000,3747.6673,N,12215.4471,W,1,04,1.8,-3.9,M,-25.1,M,,0000*4C
$GPGSA,A,3,01,16,20,30,,,,,,,,,2.1,1.8,1.0*3E
$GPRMC,212543.000,A,3747.6673,N,12215.4471,W,1.42,145.08,260312,,,A*74
$GPVTG,145.08,T,,M,1.42,N,2.6,K,A*06
$GPGGA,212544.000,3747.6665,N,12215.4467,W,1,04,1.8,-3.8,M,-25.1,M,,0000*4A
$GPGSA,A,3,01,16,20,30,,,,,,,,,2.1,1.8,1.0*3E
$GPRMC,212544.000,A,3747.6665,N,12215.4467,W,1.66,149.34,260312,,,A*76
$GPVTG,149.34,T,,M,1.66,N,3.1,K,A*05
$GPGGA,212545.000,3747.6653,N,12215.4462,W,1,04,1.8,-3.5,M,-25.1,M,,0000*46
$GPGSA,A,3,01,16,20,30,,,,,,,,,2.1,1.8,1.0*3E
$GPRMC,212545.000,A,3747.6653,N,12215.4462,W,1.46,141.61,260312,,,A*7D
$GPVTG,141.61,T,,M,1.46,N,2.7,K,A*08
$GPGGA,212546.000,3747.6645,N,12215.4457,W,1,04,1.8,-3.3,M,-25.1,M,,0000*42
$GPGSA,A,3,01,16,20,30,,,,,,,,,2.1,1.8,1.0*3E
$GPRMC,212546.000,A,3747.6645,N,12215.4457,W,1.50,127.46,260312,,,A*7D
$GPVTG,127.46,T,,M,1.50,N,2.8,K,A*05
$GPGGA,212547.000,3747.6637,N,12215.4450,W,1,04,1.8,-3.2,M,-25.1,M,,0000*40
$GPGSA,A,3,01,16,20,30,,,,,,,,,2.1,1.8,1.0*3E
$GPGSV,3,1,12,32,78,115,19,20,71,303,22,23,43,291,26,30,38,111,36*7B
$GPGSV,3,2,12,31,36,044,33,01,32,218,22,16,24,139,40,13,16,273,26*7E
$GPGSV,3,3,12,11,13,206,25,04,02,327,,14,00,079,,51,43,156,31*73
$GPRMC,212547.000,A,3747.6637,N,12215.4450,W,1.13,137.10,260312,,,A*7B
$GPVTG,137.10,T,,M,1.13,N,2.1,K,A*09
$GPGGA,212548.000,3747.6642,N,12215.4444,W,1,04,1.8,-3.6,M,-25.1,M,,0000*4C
$GPGSA,A,3,01,16,20,30,,,,,,,,,2.1,1.8,1.0*3E
$GPRMC,212548.000,A,3747.6642,N,12215.4444,W,0.31,163.46,260312,,,A*70
$GPVTG,163.46,T,,M,0.31,N,0.6,K,A*0F
$GPGGA,212549.000,3747.6635,N,12215.4441,W,1,04,1.8,-3.3,M,-25.1,M,,0000*4D
$GPGSA,A,3,01,16,20,30,,,,,,,,,2.1,1.8,1.0*3E
$GPRMC,212549.000,A,3747.6635,N,12215.4441,W,1.01,141.23,260312,,,A*75
$GPVTG,141.23,T,,M,1.01,N,1.9,K,A*00
$GPGGA,212550.000,3747.6628,N,12215.4434,W,1,04,1.8,-3.2,M,-25.1,M,,0000*4A
$GPGSA,A,3,01,16,20,30,,,,,,,,,2.1,1.8,1.0*3E
$GPRMC,212550.000,A,3747.6628,N,12215.4434,W,1.03,128.72,260312,,,A*7A
$GPVTG,128.72,T,,M,1.03,N,1.9,K,A*09
$GPGGA,212551.000,3747.6628,N,12215.4429,W,1,04,1.8,-3.3,M,-25.1,M,,0000*46
$GPGSA,A,3,01,16,20,30,,,,,,,,,2.1,1.8,1.0*3E
$GPRMC,212551.000,A,3747.6628,N,12215.4429,W,0.67,108.75,260312,,,A*71
$GPVTG,108.75,T,,M,0.67,N,1.2,K,A*04
$GPGGA,212552.000,3747.6626,N,12215.4429,W,1,04,1.8,-3.3,M,-25.1,M,,0000*4B
$GPGSA,A,3,01,16,20,30,,,,,,,,,2.1,1.8,1.0*3E
$GPGSV,3,1,12,32,78,115,30,20,71,303,23,23,43,291,27,30,38,111,36*70
$GPGSV,3,2,12,31,36,044,34,01,32,218,23,16,24,139,40,13,16,273,25*7B
$GPGSV,3,3,12,11,13,206,25,04,02,327,,14,00,079,,51,43,156,30*72
$GPRMC,212552.000,A,3747.6626,N,12215.4429,W,1.05,114.25,260312,,,A*71
$GPVTG,114.25,T,,M,1.05,N,1.9,K,A*02
$GPGGA,212553.000,3747.6612,N,12215.4431,W,1,04,1.8,-2.7,M,-25.1,M,,0000*41
$GPGSA,A,3,01,16,20,30,,,,,,,,,2.1,1.8,1.0*3E
$GPRMC,212553.000,A,3747.6612,N,12215.4431,W,1.22,164.06,260312,,,A*7D
$GPVTG,164.06,T,,M,1.22,N,2.3,K,A*08
$GPGGA,212554.000,3747.6608,N,12215.4430,W,1,04,1.8,-2.2,M,-25.1,M,,0000*49
$GPGSA,A,3,01,16,20,30,,,,,,,,,2.1,1.8,1.0*3E
$GPRMC,212554.000,A,3747.6608,N,12215.4430,W,1.09,111.09,260312,,,A*74
$GPVTG,111.09,T,,M,1.09,N,2.0,K,A*0F
$GPGGA,212555.000,3747.6605,N,12215.4419,W,1,04,1.8,-2.2,M,-25.1,M,,0000*4E
$GPGSA,A,3,01,16,20,30,,,,,,,,,2.1,1.8,1.0*3E
$GPRMC,212555.000,A,3747.6605,N,12215.4419,W,1.18,129.80,260312,,,A*79
$GPVTG,129.80,T,,M,1.18,N,2.2,K,A*07
$GPGGA,212556.000,3747.6607,N,12215.4405,W,1,04,1.8,-2.5,M,-25.1,M,,0000*45
$GPGSA,A,3,01,16,20,30,,,,,,,,,2.1,1.8,1.0*3E
$GPRMC,212556.000,A,3747.6607,N,12215.4405,W,1.16,122.47,260312,,,A*7B
$GPVTG,122.47,T,,M,1.16,N,2.2,K,A*09
$GPGGA,212557.000,3747.6611,N,12215.4402,W,1,04,1.8,-2.8,M,-25.1,M,,0000*49
$GPGSA,A,3,01,16,20,30,,,,,,,,,2.1,1.8,1.0*3E
$GPGSV,3,1,12,32,78,115,30,20,71,303,23,23,43,291,27,30,38,111,32*74
$GPGSV,3,2,12,31,36,044,29,01,32,218,24,16,24,139,34,13,16,273,25*73
$GPGSV,3,3,12,11,13,206,25,04,02,327,,14,00,079,,51,43,156,31*73
$GPRMC,212557.000,A,3747.6611,N,12215.4402,W,0.42,134.18,260312,,,A*77
$GPGGA,212558.000,3747.6624,N,12215.4390,W,1,04,1.8,-3.6,M,-25.1,M,,0000*43
$GPGSA,A,3,01,16,20,30,,,,,,,,,2.1,1.8,1.0*3E
$GPRMC,212558.000,A,3747.6624,N,12215.4390,W,1.62,84.11,260312,,,A*42
$GPVTG,84.11,T,,M,1.62,N,3.0,K,A*37
$GPGGA,212559.000,3747.6625,N,12215.4385,W,1,04,1.8,-3.8,M,-25.1,M,,0000*49
$GPGSA,A,3,01,16,20,30,,,,,,,,,2.1,1.8,1.0*3E
$GPRMC,212559.000,A,3747.6625,N,12215.4385,W,1.65,113.75,260312,,,A*7C
$GPVTG,113.75,T,,M,1.65,N,3.1,K,A*0C
$GPGGA,212600.000,3747.6620,N,12215.4379,W,1,04,1.8,-3.9,M,-25.1,M,,0000*41
$GPGSA,A,3,01,16,20,30,,,,,,,,,2.1,1.8,1.0*3E
$GPRMC,212600.000,A,3747.6620,N,12215.4379,W,2.21,136.48,260312,,,A*7F
$GPVTG,136.48,T,,M,2.21,N,4.1,K,A*01
$GPGGA,212601.000,3747.6618,N,12215.4362,W,1,04,1.8,-4.2,M,-25.1,M,,0000*4D
$GPGSA,A,3,01,16,20,30,,,,,,,,,2.1,1.8,1.0*3E
$GPRMC,212601.000,A,3747.6618,N,12215.4362,W,2.00,128.84,260312,,,A*73
$GPVTG,128.84,T,,M,2.00,N,3.7,K,A*0C
$GPGGA,212602.000,3747.6617,N,12215.4354,W,1,04,1.8,-4.4,M,-25.1,M,,0000*42
$GPGSA,A,3,01,16,20,30,,,,,,,,,2.1,1.8,1.0*3E
$GPGSV,3,1,12,32,78,115,27,20,71,303,24,23,43,291,27,30,38,111,34*73
$GPGSV,3,2,12,31,36,044,33,01,32,218,19,16,24,139,37,13,16,273,22*72
$GPGSV,3,3,12,11,13,206,24,04,02,327,,14,00,079,,51,43,156,29*7B
$GPRMC,212602.000,A,3747.6617,N,12215.4354,W,1.13,142.80,260312,,,A*73
$GPVTG,142.80,T,,M,1.13,N,2.1,K,A*02
$GPGGA,212603.000,3747.6617,N,12215.4349,W,1,04,1.8,-4.6,M,-25.1,M,,0000*4D
$GPGSA,A,3,01,16,20,30,,,,,,,,,2.1,1.8,1.0*3E
$GPRMC,212603.000,A,3747.6617,N,12215.4349,W,1.14,156.98,260312,,,A*75
$GPVTG,156.98,T,,M,1.14,N,2.1,K,A*09
$GPGGA,212604.000,3747.6618,N,12215.4348,W,1,04,1.8,-4.8,M,-25.1,M,,0000*4A
$GPGSA,A,3,01,16,20,30,,,,,,,,,2.1,1.8,1.0*3E
$GPRMC,212604.000,A,3747.6618,N,12215.4348,W,1.48,130.92,260312,,,A*7F
$GPVTG,130.92,T,,M,1.48,N,2.7,K,A*0C
$GPGGA,212605.000,3747.6607,N,12215.4347,W,1,04,1.8,-4.6,M,-25.1,M,,0000*44
$GPGSA,A,3,01,16,20,30,,,,,,,,,2.1,1.8,1.0*3E
$GPRMC,212605.000,A,3747.6607,N,12215.4347,W,1.43,136.25,260312,,,A*7E
$GPVTG,136.25,T,,M,1.43,N,2.7,K,A*0D
$GPGGA,212606.000,3747.6597,N,12215.4347,W,1,04,1.8,-4.4,M,-25.1,M,,0000*4F
$GPGSA,A,3,01,16,20,30,,,,,,,,,2.1,1.8,1.0*3E
$GPRMC,212606.000,A,3747.6597,N,12215.4347,W,1.72,127.99,260312,,,A*72
$GPVTG,127.99,T,,M,1.72,N,3.2,K,A*0C
$GPGGA,212607.000,3747.6597,N,12215.4347,W,1,04,1.8,-4.4,M,-25.1,M,,0000*4E
$GPGSA,A,3,01,16,20,30,,,,,,,,,2.1,1.8,1.0*3E
$GPGSV,3,1,12,32,78,115,27,20,71,303,23,23,43,291,27,30,38,111,35*75
$GPGSV,3,2,12,31,36,044,33,01,32,218,20,16,24,139,38,13,16,273,22*77
$GPGSV,3,3,12,11,13,206,24,04,02,327,,14,00,079,,51,43,156,26*74
$GPRMC,212607.000,A,3747.6597,N,12215.4347,W,0.70,108.41,260312,,,A*78
$GPVTG,108.41,T,,M,0.70,N,1.3,K,A*04
$GPGGA,212608.000,3747.6599,N,12215.4343,W,1,04,1.8,-4.5,M,-25.1,M,,0000*4A
$GPGSA,A,3,01,16,20,30,,,,,,,,,2.1,1.8,1.0*3E
$GPRMC,212608.000,A,3747.6599,N,12215.4343,W,0.19,82.00,260312,,,A*44
$GPVTG,82.00,T,,M,0.19,N,0.3,K,A*3C
$GPGGA,212609.000,3747.6611,N,12215.4339,W,1,04,1.8,-4.8,M,-25.1,M,,0000*48
$GPGSA,A,3,01,16,20,30,,,,,,,,,2.1,1.8,1.0*3E
$GPRMC,212609.000,A,3747.6611,N,12215.4339,W,0.35,73.73,260312,,,A*4F
$GPVTG,73.73,T,,M,0.35,N,0.7,K,A*3C
$GPGGA,212610.000,3747.6610,N,12215.4342,W,1,04,1.8,-4.9,M,-25.1,M,,0000*4C
$GPGSA,A,3,01,16,20,30,,,,,,,,,2.1,1.8,1.0*3E
$GPRMC,212610.000,A,3747.6610,N,12215.4342,W,0.37,175.63,260312,,,A*7E
$GPVTG,175.63,T,,M,0.37,N,0.7,K,A*08
$GPGGA,212611.000,3747.6604,N,12215.4344,W,1,04,1.8,-4.7,M,-25.1,M,,0000*40
$GPGSA,A,3,01,16,20,30,,,,,,,,,2.1,1.8,1.0*3E
$GPRMC,212611.000,A,3747.6604,N,12215.4344,W,0.31,200.58,260312,,,A*73
$GPVTG,200.58,T,,M,0.31,N,0.6,K,A*06
$GPGGA,212612.000,3747.6597,N,12215.4347,W,1,04,1.8,-4.4,M,-25.1,M,,0000*4A
$GPGSA,A,3,01,16,20,30,,,,,,,,,2.1,1.8,1.0*3E
$GPGSV,3,1,12,32,77,116,24,20,71,303,24,23,43,291,27,30,38,111,36*7E
$GPGSV,3,2,12,31,36,044,28,01,31,218,26,16,24,139,38,13,16,273,23*79
$GPGSV,3,3,12,11,13,206,24,04,02,327,,14,00,079,,51,43,156,36*75
$GPRMC,212612.000,A,3747.6597,N,12215.4347,W,0.67,229.43,260312,,,A*78
$GPGGA,212613.000,3747.6592,N,12215.4350,W,1,04,1.8,-4.2,M,-25.1,M,,0000*4E
$GPGSA,A,3,01,16,20,30,,,,,,,,,2.1,1.8,1.0*3E
$GPRMC,212613.000,A,3747.6592,N,12215.4350,W,0.52,216.94,260312,,,A*7A
$GPVTG,216.94,T,,M,0.52,N,1.0,K,A*03
$GPGGA,212614.000,3747.6591,N,12215.4350,W,1,04,1.8,-4.2,M,-25.1,M,,0000*4A
$GPGSA,A,3,01,16,20,30,,,,,,,,,2.1,1.8,1.0*3E
$GPRMC,212614.000,A,3747.6591,N,12215.4350,W,0.08,315.05,260312,,,A*7B
$GPVTG,315.05,T,,M,0.08,N,0.2,K,A*05
$GPGGA,212615.000,3747.6593,N,12215.4346,W,1,04,1.8,-4.3,M,-25.1,M,,0000*4F
$GPGSA,A,3,01,16,20,30,,,,,,,,,2.1,1.8,1.0*3E
$GPRMC,212615.000,A,3747.6593,N,12215.4346,W,0.12,163.72,260312,,,A*77
$GPVTG,163.72,T,,M,0.12,N,0.2,K,A*0D
$GPGGA,212616.000,3747.6584,N,12215.4351,W,1,04,1.8,-3.8,M,-25.1,M,,0000*40
$GPGSA,A,3,01,16,20,30,,,,,,,,,2.1,1.8,1.0*3E
$GPRMC,212616.000,A,3747.6584,N,12215.4351,W,0.26,253.80,260312,,,A*7E
$GPVTG,253.80,T,,M,0.26,N,0.5,K,A*00
$GPGGA,212617.000,3747.6575,N,12215.4355,W,1,04,1.8,-3.3,M,-25.1,M,,0000*40
$GPGSA,A,3,01,16,20,30,,,,,,,,,2.1,1.8,1.0*3E
$GPGSV,3,1,12,32,77,116,28,20,71,303,24,23,43,291,26,30,38,111,36*73
$GPGSV,3,2,12,31,36,044,34,01,31,217,24,16,24,139,38,13,16,273,24*7E
$GPGSV,3,3,12,11,13,206,24,04,02,326,,14,00,079,,51,43,156,34*76
$GPRMC,212617.000,A,3747.6575,N,12215.4355,W,0.18,184.69,260312,,,A*76
$GPVTG,184.69,T,,M,0.18,N,0.3,K,A*05
$GPGGA,212618.000,3747.6572,N,12215.4357,W,1,04,1.8,-3.0,M,-25.1,M,,0000*49
$GPGSA,A,3,01,16,20,30,,,,,,,,,2.1,1.8,1.0*3E
$GPRMC,212618.000,A,3747.6572,N,12215.4357,W,0.36,177.38,260312,,,A*78
$GPVTG,177.38,T,,M,0.36,N,0.7,K,A*05
$GPGGA,212619.000,3747.6571,N,12215.4351,W,2,04,1.8,-2.8,M,-25.1,M,1.8,0000*60
$GPGSA,A,3,01,16,20,30,,,,,,,,,2.1,1.8,1.0*3E
$GPRMC,212619.000,A,3747.6571,N,12215.4351,W,0.95,83.62,260312,,,D*45
$GPVTG,83.62,T,,M,0.95,N,1.8,K,D*32
$GPGGA,212620.000,3747.6569,N,12215.4341,W,2,04,1.8,-2.7,M,-25.1,M,1.8,0000*6D
$GPGSA,A,3,01,16,20,30,,,,,,,,,2.1,1.8,1.0*3E
$GPRMC,212620.000,A,3747.6569,N,12215.4341,W,0.68,91.15,260312,,,D*46
$GPVTG,91.15,T,,M,0.68,N,1.3,K,D*38
$GPGGA,212621.000,3747.6566,N,12215.4335,W,2,04,1.8,-2.4,M,-25.1,M,1.8,0000*63
$GPGSA,A,3,01,16,20,30,,,,,,,,,2.1,1.8,1.0*3E
$GPRMC,212621.000,A,3747.6566,N,12215.4335,W,0.14,26.64,260312,,,D*4A
$GPVTG,26.64,T,,M,0.14,N,0.3,K,D*38
$GPGGA,212622.000,3747.6560,N,12215.4330,W,2,03,3.7,-2.0,M,-25.1,M,2.8,0000*6E
$GPGSA,A,2,16,20,30,,,,,,,,,,3.8,3.7,1.0*3B
$GPGSV,3,1,12,32,77,116,29,20,71,303,23,23,43,291,20,30,38,111,37*72
$GPGSV,3,2,12,31,36,044,31,01,31,217,13,16,24,139,39,13,16,273,23*79
$GPGSV,3,3,12,11,13,206,25,04,02,326,,14,00,079,,51,43,156,36*75
$GPRMC,212622.000,A,3747.6560,N,12215.4330,W,0.46,170.82,260312,,,D*77
$GPVTG,170.82,T,,M,0.46,N,0.8,K,D*0E
$GPGGA,212623.000,3747.6563,N,12215.4319,W,2,04,1.8,-2.0,M,-25.1,M,3.8,0000*6C
$GPGSA,A,3,01,16,20,30,,,,,,,,,2.1,1.8,1.0*3E
$GPRMC,212623.000,A,3747.6563,N,12215.4319,W,0.69,94.90,260312,,,D*4B
$GPVTG,94.90,T,,M,0.69,N,1.3,K,D*31
$GPGGA,212624.000,3747.6556,N,12215.4312,W,2,03,3.7,-1.7,M,-25.1,M,4.8,0000*6F
$GPGSA,A,2,16,20,30,,,,,,,,,,3.8,3.7,1.0*3B
$GPRMC,212624.000,A,3747.6556,N,12215.4312,W,0.14,104.83,260312,,,D*71
$GPVTG,104.83,T,,M,0.14,N,0.3,K,D*00
$GPGGA,212625.000,3747.6548,N,12215.4303,W,2,03,3.7,-1.3,M,-25.1,M,1.8,0000*60
$GPGSA,A,2,16,20,30,,,,,,,,,,3.8,3.7,1.0*3B
$GPRMC,212625.000,A,3747.6548,N,12215.4303,W,0.28,248.05,260312,,,D*75
$GPVTG,248.05,T,,M,0.28,N,0.5,K,D*0C
$GPGGA,212626.000,3747.6543,N,12215.4301,W,2,03,3.7,-0.9,M,-25.1,M,1.8,0000*61
$GPGSA,A,2,16,20,30,,,,,,,,,,3.8,3.7,1.0*3B
$GPRMC,212626.000,A,3747.6543,N,12215.4301,W,0.70,202.64,260312,,,D*7B
$GPVTG,202.64,T,,M,0.70,N,1.3,K,D*0F
$GPGGA,212627.000,3747.6542,N,12215.4304,W,2,03,3.7,-0.7,M,-25.1,M,1.8,0000*6A
$GPGSA,A,2,16,20,30,,,,,,,,,,3.8,3.7,1.0*3B
$GPGSV,3,1,12,32,77,116,29,20,71,303,23,23,43,291,24,30,38,111,37*76
$GPGSV,3,2,12,31,36,044,32,01,31,217,16,16,24,139,40,13,16,273,24*76
$GPGSV,3,3,12,11,13,206,25,04,02,326,,14,00,079,,51,43,156,38*7B
$GPRMC,212627.000,A,3747.6542,N,12215.4304,W,0.82,241.32,260312,,,D*77
$GPGGA,212628.000,3747.6549,N,12215.4307,W,2,04,2.9,-2.9,M,-25.1,M,0.8,0000*68
$GPGSA,A,3,31,16,20,30,,,,,,,,,6.6,2.9,6.0*3B
$GPRMC,212628.000,A,3747.6549,N,12215.4307,W,0.25,272.02,260312,,,D*7E
$GPVTG,272.02,T,,M,0.25,N,0.5,K,D*0F
$GPGGA,212629.000,3747.6552,N,12215.4307,W,2,04,2.9,-3.8,M,-25.1,M,1.8,0000*62
$GPGSA,A,3,31,16,20,30,,,,,,,,,6.6,2.9,6.0*3B
$GPRMC,212629.000,A,3747.6552,N,12215.4307,W,0.10,43.60,260312,,,D*47
$GPVTG,43.60,T,,M,0.10,N,0.2,K,D*3A
$GPGGA,212630.000,3747.6553,N,12215.4305,W,2,05,1.7,-3.8,M,-25.1,M,1.8,0000*65
$GPGSA,A,3,01,31,16,20,30,,,,,,,,4.1,1.7,3.8*3F
$GPRMC,212630.000,A,3747.6553,N,12215.4305,W,0.26,39.20,260312,,,D*40
$GPVTG,39.20,T,,M,0.26,N,0.5,K,D*31
$GPGGA,212631.000,3747.6556,N,12215.4302,W,2,05,1.7,-3.9,M,-25.1,M,1.8,0000*67
$GPGSA,A,3,01,31,16,20,30,,,,,,,,4.1,1.7,3.8*3F
$GPRMC,212631.000,A,3747.6556,N,12215.4302,W,0.19,48.73,260312,,,D*4F
$GPVTG,48.73,T,,M,0.19,N,0.3,K,D*3B
$GPGGA,212632.000,3747.6558,N,12215.4297,W,2,05,1.7,-4.0,M,-25.1,M,1.8,0000*69
$GPGSA,A,3,01,31,16,20,30,,,,,,,,4.1,1.7,3.8*3F
$GPGSV,3,1,12,32,77,116,29,20,71,302,23,23,43,291,21,30,39,111,38*7C
$GPGSV,3,2,12,31,36,044,32,01,31,217,27,16,24,139,40,13,16,274,16*72
$GPGSV,3,3,12,11,13,206,25,04,02,326,,14,00,079,,51,43,156,36*75
$GPRMC,212632.000,A,3747.6558,N,12215.4297,W,0.16,73.05,260312,,,D*49
$GPVTG,73.05,T,,M,0.16,N,0.3,K,D*3D
$GPGGA,212633.000,3747.6558,N,12215.4293,W,2,05,1.7,-2.2,M,-25.1,M,1.8,0000*68
$GPGSA,A,3,01,31,16,20,30,,,,,,,,4.1,1.7,3.8*3F
$GPRMC,212633.000,A,3747.6558,N,12215.4293,W,0.22,327.58,260312,,,D*71
$GPVTG,327.58,T,,M,0.22,N,0.4,K,D*07
$GPGGA,212634.000,3747.6554,N,12215.4295,W,2,06,1.5,0.5,M,-25.1,M,2.8,0000*4F
$GPGSA,A,3,01,31,16,20,30,32,,,,,,,2.9,1.5,2.5*3E
$GPRMC,212634.000,A,3747.6554,N,12215.4295,W,0.46,292.19,260312,,,D*74
$GPVTG,292.19,T,,M,0.46,N,0.8,K,D*03
$GPGGA,212635.000,3747.6551,N,12215.4300,W,2,06,1.5,1.6,M,-25.1,M,1.8,0000*47
$GPGSA,A,3,01,31,16,20,30,32,,,,,,,2.9,1.5,2.5*3E
$GPRMC,212635.000,A,3747.6551,N,12215.4300,W,0.08,232.65,260312,,,D*76
$GPVTG,232.65,T,,M,0.08,N,0.1,K,D*01
$GPGGA,212636.000,3747.6548,N,12215.4311,W,2,06,1.5,1.2,M,-25.1,M,2.8,0000*4B
$GPGSA,A,3,01,31,16,20,30,32,,,,,,,2.9,1.5,2.5*3E
$GPRMC,212636.000,A,3747.6548,N,12215.4311,W,0.29,150.16,260312,,,D*7D
$GPVTG,150.16,T,,M,0.29,N,0.5,K,D*05
$GPGGA,212637.000,3747.6541,N,12215.4314,W,2,06,1.5,2.9,M,-25.1,M,3.8,0000*4F
$GPGSA,A,3,01,31,16,20,30,32,,,,,,,2.9,1.5,2.5*3E
$GPGSV,3,1,12,32,77,116,28,20,71,302,22,23,43,291,24,30,39,111,38*79
$GPGSV,3,2,12,31,36,044,31,01,31,217,26,16,24,139,39,13,16,274,22*79
$GPGSV,3,3,12,11,13,206,25,04,02,326,,14,00,079,,51,43,156,35*76
$GPRMC,212637.000,A,3747.6541,N,12215.4314,W,0.80,134.46,260312,,,D*74
$GPVTG,134.46,T,,M,0.80,N,1.5,K,D*00
$GPGGA,212638.000,3747.6538,N,12215.4314,W,2,06,1.5,2.3,M,-25.1,M,4.8,0000*43
$GPGSA,A,3,01,31,16,20,30,32,,,,,,,2.9,1.5,2.5*3E
$GPRMC,212638.000,A,3747.6538,N,12215.4314,W,0.92,160.63,260312,,,D*70
$GPVTG,160.63,T,,M,0.92,N,1.7,K,D*07
$GPGGA,212639.000,3747.6529,N,12215.4311,W,2,06,1.5,3.7,M,-25.1,M,5.8,0000*43
$GPGSA,A,3,01,31,16,20,30,32,,,,,,,2.9,1.5,2.5*3E
$GPRMC,212639.000,A,3747.6529,N,12215.4311,W,0.76,125.78,260312,,,D*75
$GPVTG,125.78,T,,M,0.76,N,1.4,K,D*05
$GPGGA,212640.000,3747.6525,N,12215.4311,W,2,06,1.5,2.8,M,-25.1,M,6.8,0000*4C
$GPGSA,A,3,01,31,16,20,30,32,,,,,,,2.9,1.5,2.5*3E
$GPRMC,212640.000,A,3747.6525,N,12215.4311,W,1.58,148.09,260312,,,D*77
$GPVTG,148.09,T,,M,1.58,N,2.9,K,D*0B
$GPGGA,212641.000,3747.6519,N,12215.4312,W,2,06,1.5,2.4,M,-25.1,M,7.8,0000*4C
$GPGSA,A,3,01,31,16,20,30,32,,,,,,,2.9,1.5,2.5*3E
$GPRMC,212641.000,A,3747.6519,N,12215.4312,W,2.10,153.18,260312,,,D*7F
$GPVTG,153.18,T,,M,2.10,N,3.9,K,D*0F
$GPGGA,212642.000,3747.6514,N,12215.4308,W,2,06,1.5,2.8,M,-25.1,M,8.8,0000*4A
$GPGSA,A,3,01,31,16,20,30,32,,,,,,,2.9,1.5,2.5*3E
$GPGSV,3,1,12,32,77,116,29,20,72,302,22,23,43,291,27,30,39,111,34*74
$GPGSV,3,2,12,31,36,044,30,01,31,217,25,16,25,139,39,13,16,274,21*79
$GPGSV,3,3,12,11,13,206,24,04,02,326,,14,00,079,,51,43,156,31*73
$GPVTG,154.85,T,,M,1.97,N,3.7,K,D*0E
$GPGGA,212643.000,3747.6509,N,12215.4301,W,2,06,1.5,3.3,M,-25.1,M,9.8,0000*45
$GPGSA,A,3,01,31,16,20,30,32,,,,,,,2.9,1.5,2.5*3E
$GPRMC,212643.000,A,3747.6509,N,12215.4301,W,2.02,150.29,260312,,,D*7C
$GPVTG,150.29,T,,M,2.02,N,3.7,K,D*03
$GPGGA,212644.000,3747.6504,N,12215.4303,W,2,06,1.5,2.7,M,-25.1,M,10.8,0000*70
$GPGSA,A,3,01,31,16,20,30,32,,,,,,,2.9,1.5,2.5*3E
$GPRMC,212644.000,A,3747.6504,N,12215.4303,W,1.88,147.19,260312,,,D*70
$GPVTG,147.19,T,,M,1.88,N,3.5,K,D*05
$GPGGA,212645.000,3747.6500,N,12215.4307,W,2,06,1.5,1.9,M,-25.1,M,11.8,0000*7D
$GPGSA,A,3,01,31,16,20,30,32,,,,,,,2.9,1.5,2.5*3E
$GPRMC,212645.000,A,3747.6500,N,12215.4307,W,1.63,168.11,260312,,,D*71
$GPVTG,168.11,T,,M,1.63,N,3.0,K,D*00
$GPGGA,212646.000,3747.6495,N,12215.4305,W,2,06,1.5,2.0,M,-25.1,M,12.8,0000*78
$GPGSA,A,3,01,31,16,20,30,32,,,,,,,2.9,1.5,2.5*3E
$GPRMC,212646.000,A,3747.6495,N,12215.4305,W,1.73,155.99,260312,,,D*72
$GPVTG,155.99,T,,M,1.73,N,3.2,K,D*0D
$GPGGA,212647.000,3747.6489,N,12215.4299,W,2,06,1.5,2.7,M,-25.1,M,13.8,0000*76
$GPGSA,A,3,01,31,16,20,30,32,,,,,,,2.9,1.5,2.5*3E
$GPGSV,3,1,11,32,77,117,31,20,72,302,22,23,43,292,26,30,39,111,35*7C
$GPGSV,3,2,11,31,36,044,36,01,31,217,22,16,25,139,39,13,16,274,21*7B
$GPGSV,3,3,11,11,13,206,25,04,02,326,,14,00,079,*42
$GPRMC,212647.000,A,3747.6489,N,12215.4299,W,1.88,149.12,260312,,,D*70
$GPVTG,149.12,T,,M,1.88,N,3.5,K,D*00
$GPGGA,212648.000,3747.6484,N,12215.4288,W,2,06,1.5,3.5,M,-25.1,M,14.8,0000*70
$GPGSA,A,3,01,31,16,20,30,32,,,,,,,2.9,1.5,2.5*3E
$GPRMC,212648.000,A,3747.6484,N,12215.4288,W,2.03,137.34,260312,,,D*7F
$GPVTG,137.34,T,,M,2.03,N,3.8,K,D*00
$GPGGA,212649.000,3747.6481,N,12215.4287,W,2,05,2.4,3.9,M,-25.1,M,15.8,0000*77
$GPGSA,A,3,31,16,20,30,32,,,,,,,,4.4,2.4,3.6*34
$GPRMC,212649.000,A,3747.6481,N,12215.4287,W,1.72,141.63,260312,,,D*72
$GPVTG,141.63,T,,M,1.72,N,3.2,K,D*0C
$GPGGA,212650.000,3747.6477,N,12215.4283,W,2,05,2.4,4.1,M,-25.1,M,16.8,0000*7E
$GPGSA,A,3,31,16,20,30,32,,,,,,,,4.4,2.4,3.6*34
$GPRMC,212650.000,A,3747.6477,N,12215.4283,W,1.67,139.20,260312,,,D*7B
$GPVTG,139.20,T,,M,1.67,N,3.1,K,D*03
$GPGGA,212651.000,3747.6474,N,12215.4278,W,2,06,1.5,4.5,M,-25.1,M,17.8,0000*7C
$GPGSA,A,3,01,31,16,20,30,32,,,,,,,2.9,1.5,2.5*3E
$GPRMC,212651.000,A,3747.6474,N,12215.4278,W,1.61,144.55,260312,,,D*73
$GPVTG,144.55,T,,M,1.61,N,3.0,K,D*0C
$GPGGA,212652.000,3747.6472,N,12215.4268,W,1,06,1.5,5.6,M,-25.1,M,,0000*69
$GPGSA,A,3,01,31,16,20,30,32,,,,,,,2.9,1.5,2.5*3E
$GPGSV,3,1,11,32,77,117,31,20,72,302,22,23,43,292,26,30,39,111,35*7C
$GPGSV,3,2,11,31,36,044,32,01,31,217,22,16,25,139,39,13,16,274,22*7C
$GPGSV,3,3,11,11,13,206,24,04,02,326,,14,00,079,*43
$GPRMC,212652.000,A,3747.6472,N,12215.4268,W,1.90,140.09,260312,,,A*71
$GPVTG,140.09,T,,M,1.90,N,3.5,K,A*0F
$GPGGA,212653.000,3747.6469,N,12215.4262,W,1,06,1.5,6.5,M,-25.1,M,,0000*68
$GPGSA,A,3,01,31,16,20,30,32,,,,,,,2.9,1.5,2.5*3E
$GPRMC,212653.000,A,3747.6469,N,12215.4262,W,2.18,122.10,260312,,,A*7F
$GPVTG,122.10,T,,M,2.18,N,4.0,K,A*02
$GPGGA,212654.000,3747.6466,N,12215.4257,W,1,06,1.5,6.9,M,-25.1,M,,0000*6A
$GPGSA,A,3,01,31,16,20,30,32,,,,,,,2.9,1.5,2.5*3E
$GPRMC,212654.000,A,3747.6466,N,12215.4257,W,1.89,153.55,260312,,,A*7D
$GPVTG,153.55,T,,M,1.89,N,3.5,K,A*0C
$GPGGA,212655.000,3747.6463,N,12215.4256,W,1,06,1.5,7.6,M,-25.1,M,,0000*61
$GPGSA,A,3,01,31,16,20,30,32,,,,,,,2.9,1.5,2.5*3E
$GPRMC,212655.000,A,3747.6463,N,12215.4256,W,1.73,167.33,260312,,,A*7A
$GPVTG,167.33,T,,M,1.73,N,3.2,K,A*09
$GPGGA,212656.000,3747.6458,N,12215.4253,W,1,06,1.5,8.1,M,-25.1,M,,0000*67
$GPGSA,A,3,01,31,16,20,30,32,,,,,,,2.9,1.5,2.5*3E
$GPRMC,212656.000,A,3747.6458,N,12215.4253,W,1.80,155.80,260312,,,A*71
$GPVTG,155.80,T,,M,1.80,N,3.3,K,A*0D
$GPGGA,212657.000,3747.6454,N,12215.4240,W,1,06,1.5,9.8,M,-25.1,M,,0000*60
$GPGSA,A,3,01,31,16,20,30,32,,,,,,,2.9,1.5,2.5*3E
$GPGSV,3,1,11,32,77,117,31,20,72,302,22,23,43,292,27,30,39,111,33*7B
$GPGSV,3,2,11,31,36,044,32,01,31,217,22,16,25,139,39,13,16,274,23*7D
$GPGSV,3,3,11,11,13,206,24,04,02,326,,14,00,079,*43
$GPVTG,155.02,T,,M,1.86,N,3.4,K,A*06
$GPGGA,212658.000,3747.6448,N,12215.4236,W,1,06,1.5,10.6,M,-25.1,M,,0000*55
$GPGSA,A,3,01,31,16,20,30,32,,,,,,,2.9,1.5,2.5*3E
$GPRMC,212658.000,A,3747.6448,N,12215.4236,W,1.70,165.25,260312,,,A*7E
$GPVTG,165.25,T,,M,1.70,N,3.2,K,A*0F
$GPGGA,212659.000,3747.6443,N,12215.4234,W,1,06,1.5,10.7,M,-25.1,M,,0000*5C
$GPGSA,A,3,01,31,16,20,30,32,,,,,,,2.9,1.5,2.5*3E
$GPRMC,212659.000,A,3747.6443,N,12215.4234,W,1.94,141.64,260312,,,A*7F
$GPVTG,141.64,T,,M,1.94,N,3.6,K,A*02
$GPGGA,212700.000,3747.6440,N,12215.4225,W,1,06,1.5,11.6,M,-25.1,M,,0000*52
$GPGSA,A,3,01,31,16,20,30,32,,,,,,,2.9,1.5,2.5*3E
$GPRMC,212700.000,A,3747.6440,N,12215.4225,W,1.86,137.63,260312,,,A*74
$GPVTG,137.63,T,,M,1.86,N,3.4,K,A*05
$GPGGA,212701.000,3747.6436,N,12215.4218,W,1,06,1.5,12.1,M,-25.1,M,,0000*58
$GPGSA,A,3,01,31,16,20,30,32,,,,,,,2.9,1.5,2.5*3E
$GPRMC,212701.000,A,3747.6436,N,12215.4218,W,1.93,133.98,260312,,,A*7E
$GPVTG,133.98,T,,M,1.93,N,3.6,K,A*03
$GPGGA,212702.000,3747.6430,N,12215.4216,W,1,06,1.5,12.5,M,-25.1,M,,0000*57
$GPGSA,A,3,01,31,16,20,30,32,,,,,,,2.9,1.5,2.5*3E
$GPGSV,3,1,11,32,77,117,31,20,72,302,22,23,43,292,27,30,39,111,37*7F
$GPGSV,3,2,11,31,36,044,33,01,31,217,23,16,25,139,38,13,16,274,23*7C
$GPGSV,3,3,11,11,13,206,24,04,02,326,,14,00,079,*43
$GPRMC,212702.000,A,3747.6430,N,12215.4216,W,1.65,154.25,260312,,,A*7B
$GPVTG,154.25,T,,M,1.65,N,3.1,K,A*0A
$GPGGA,212703.000,3747.6425,N,12215.4218,W,1,06,1.5,12.4,M,-25.1,M,,0000*5D
$GPGSA,A,3,01,31,16,20,30,32,,,,,,,2.9,1.5,2.5*3E
$GPRMC,212703.000,A,3747.6425,N,12215.4218,W,1.66,166.25,260312,,,A*72
$GPVTG,166.25,T,,M,1.66,N,3.1,K,A*08
$GPGGA,212704.000,3747.6420,N,12215.4217,W,1,06,1.5,12.4,M,-25.1,M,,0000*50
$GPGSA,A,3,01,31,16,20,30,32,,,,,,,2.9,1.5,2.5*3E
$GPRMC,212704.000,A,3747.6420,N,12215.4217,W,1.41,142.72,260312,,,A*7E
$GPVTG,142.72,T,,M,1.41,N,2.6,K,A*0F
$GPGGA,212705.000,3747.6416,N,12215.4215,W,1,06,1.5,12.3,M,-25.1,M,,0000*51
$GPGSA,A,3,01,31,16,20,30,32,,,,,,,2.9,1.5,2.5*3E
$GPRMC,212705.000,A,3747.6416,N,12215.4215,W,2.07,127.16,260312,,,A*78
$GPVTG,127.16,T,,M,2.07,N,3.8,K,A*00
$GPGGA,212706.000,3747.6411,N,12215.4212,W,1,06,1.5,12.2,M,-25.1,M,,0000*53
$GPGSA,A,3,01,31,16,20,30,32,,,,,,,2.9,1.5,2.5*3E
$GPRMC,212706.000,A,3747.6411,N,12215.4212,W,1.69,144.66,260312,,,A*72
$GPVTG,144.66,T,,M,1.69,N,3.1,K,A*00
$GPGGA,212707.000,3747.6406,N,12215.4212,W,1,06,1.5,11.8,M,-25.1,M,,0000*5D
$GPGSA,A,3,01,31,16,20,30,32,,,,,,,2.9,1.5,2.5*3E
$GPGSV,3,1,11,32,77,117,31,20,72,302,22,23,43,292,25,30,39,111,37*7D
$GPGSV,3,2,11,31,36,044,32,01,31,217,23,16,25,139,34,13,16,274,24*76
$GPGSV,3,3,11,11,13,206,24,04,02,326,,14,00,079,*43
$GPRMC,212707.000,A,3747.6406,N,12215.4212,W,1.53,159.92,260312,,,A*7B
$GPVTG,159.92,T,,M,1.53,N,2.8,K,A*06
$GPGGA,212708.000,3747.6401,N,12215.4213,W,1,06,1.5,11.3,M,-25.1,M,,0000*5F
$GPGSA,A,3,01,31,16,20,30,32,,,,,,,2.9,1.5,2.5*3E
$GPRMC,212708.000,A,3747.6401,N,12215.4213,W,1.72,151.61,260312,,,A*75
$GPVTG,151.61,T,,M,1.72,N,3.2,K,A*0A
$GPGGA,212709.000,3747.6396,N,12215.4207,W,1,06,1.5,11.6,M,-25.1,M,,0000*57
$GPGSA,A,3,01,31,16,20,30,32,,,,,,,2.9,1.5,2.5*3E
$GPRMC,212709.000,A,3747.6396,N,12215.4207,W,1.75,140.96,260312,,,A*77
$GPVTG,140.96,T,,M,1.75,N,3.2,K,A*05
$GPGGA,212710.000,3747.6392,N,12215.4198,W,1,06,1.5,12.3,M,-25.1,M,,0000*58
$GPGSA,A,3,01,31,16,20,30,32,,,,,,,2.9,1.5,2.5*3E
$GPRMC,212710.000,A,3747.6392,N,12215.4198,W,1.85,142.89,260312,,,A*7D
$GPVTG,142.89,T,,M,1.85,N,3.4,K,A*00
$GPGGA,212711.000,3747.6388,N,12215.4187,W,1,06,1.5,13.3,M,-25.1,M,,0000*5D
$GPGSA,A,3,01,31,16,20,30,32,,,,,,,2.9,1.5,2.5*3E
$GPRMC,212711.000,A,3747.6388,N,12215.4187,W,1.63,146.29,260312,,,A*7F
$GPVTG,146.29,T,,M,1.63,N,3.0,K,A*02
$GPGGA,212712.000,3747.6387,N,12215.4182,W,1,06,1.5,13.2,M,-25.1,M,,0000*55
$GPGSA,A,3,01,31,16,20,30,32,,,,,,,2.9,1.5,2.5*3E
$GPGSV,3,1,11,32,77,117,30,20,72,302,22,23,43,292,25,30,39,111,36*7D
$GPGSV,3,2,11,31,36,044,27,01,31,217,23,16,25,139,37,13,16,274,25*70
$GPGSV,3,3,11,11,13,206,25,04,02,326,,14,00,079,*42
$GPVTG,152.39,T,,M,1.48,N,2.7,K,A*09
$GPGGA,212713.000,3747.6383,N,12215.4180,W,1,06,1.5,12.7,M,-25.1,M,,0000*56
$GPGSA,A,3,01,31,16,20,30,32,,,,,,,2.9,1.5,2.5*3E
$GPRMC,212713.000,A,3747.6383,N,12215.4180,W,1.71,158.34,260312,,,A*71
$GPVTG,158.34,T,,M,1.71,N,3.2,K,A*00
$GPGGA,212714.000,3747.6379,N,12215.4176,W,1,06,1.5,12.2,M,-25.1,M,,0000*58
$GPGSA,A,3,01,31,16,20,30,32,,,,,,,2.9,1.5,2.5*3E
$GPRMC,212714.000,A,3747.6379,N,12215.4176,W,1.67,142.49,260312,,,A*7C
$GPVTG,142.49,T,,M,1.67,N,3.1,K,A*05
$GPGGA,212715.000,3747.6374,N,12215.4172,W,1,06,1.5,11.3,M,-25.1,M,,0000*52
$GPGSA,A,3,01,31,16,20,30,32,,,,,,,2.9,1.5,2.5*3E
$GPRMC,212715.000,A,3747.6374,N,12215.4172,W,1.83,150.62,260312,,,A*74
$GPVTG,150.62,T,,M,1.83,N,3.4,K,A*00
$GPGGA,212716.000,3747.6369,N,12215.4167,W,1,06,1.5,12.3,M,-25.1,M,,0000*5A
$GPGSA,A,3,01,31,16,20,30,32,,,,,,,2.9,1.5,2.5*3E
$GPRMC,212716.000,A,3747.6369,N,12215.4167,W,1.46,162.41,260312,,,A*76
$GPVTG,162.41,T,,M,1.46,N,2.7,K,A*0B
$GPGGA,212717.000,3747.6364,N,12215.4165,W,1,06,1.5,11.9,M,-25.1,M,,0000*5D
$GPGSA,A,3,01,31,16,20,30,32,,,,,,,2.9,1.5,2.5*3E
$GPGSV,3,1,11,32,77,117,27,20,72,302,22,23,43,292,25,30,39,111,36*7B
$GPGSV,3,2,11,31,35,044,30,01,31,217,23,16,25,139,37,13,16,274,25*75
$GPGSV,3,3,11,11,13,205,26,04,02,326,,14,00,079,*42
$GPRMC,212717.000,A,3747.6364,N,12215.4165,W,1.33,161.96,260312,,,A*73
$GPVTG,161.96,T,,M,1.33,N,2.5,K,A*02
$GPGGA,212718.000,3747.6359,N,12215.4161,W,1,06,1.5,12.9,M,-25.1,M,,0000*5B
$GPGSA,A,3,01,31,16,20,30,32,,,,,,,2.9,1.5,2.5*3E
$GPRMC,212718.000,A,3747.6359,N,12215.4161,W,1.81,164.34,260312,,,A*72
$GPVTG,164.34,T,,M,1.81,N,3.3,K,A*01
$GPGGA,212719.000,3747.6352,N,12215.4152,W,1,06,1.5,14.4,M,-25.1,M,,0000*5A
$GPGSA,A,3,01,31,16,20,30,32,,,,,,,2.9,1.5,2.5*3E
$GPRMC,212719.000,A,3747.6352,N,12215.4152,W,1.99,159.86,260312,,,A*76
$GPVTG,159.86,T,,M,1.99,N,3.7,K,A*0B
$GPGGA,212720.000,3747.6349,N,12215.4144,W,1,06,1.5,14.1,M,-25.1,M,,0000*58
$GPGSA,A,3,01,31,16,20,30,32,,,,,,,2.9,1.5,2.5*3E
$GPRMC,212720.000,A,3747.6349,N,12215.4144,W,2.05,129.54,260312,,,A*7F
$GPVTG,129.54,T,,M,2.05,N,3.8,K,A*0A
$GPGGA,212721.000,3747.6345,N,12215.4134,W,1,06,1.5,14.3,M,-25.1,M,,0000*50
$GPGSA,A,3,01,31,16,20,30,32,,,,,,,2.9,1.5,2.5*3E
$GPRMC,212721.000,A,3747.6345,N,12215.4134,W,1.96,146.47,260312,,,A*77
$GPVTG,146.47,T,,M,1.96,N,3.6,K,A*06
$GPGGA,212722.000,3747.6340,N,12215.4124,W,1,06,1.5,15.1,M,-25.1,M,,0000*54
$GPGSA,A,3,01,31,16,20,30,32,,,,,,,2.9,1.5,2.5*3E
$GPGSV,3,1,11,32,77,117,28,20,72,302,22,23,43,292,25,30,39,111,36*74
$GPGSV,3,2,11,31,35,044,30,01,31,217,22,16,25,139,37,13,16,274,25*74
$GPGSV,3,3,11,11,13,205,25,04,02,326,,14,00,079,*41
$GPRMC,212722.000,A,3747.6340,N,12215.4124,W,1.95,122.72,260312,,,A*77
$GPVTG,122.72,T,,M,1.95,N,3.6,K,A*01
$GPGGA,212723.000,3747.6334,N,12215.4113,W,1,06,1.5,16.2,M,-25.1,M,,0000*52
$GPGSA,A,3,01,31,16,20,30,32,,,,,,,2.9,1.5,2.5*3E
$GPRMC,212723.000,A,3747.6334,N,12215.4113,W,2.32,137.90,260312,,,A*77
$GPVTG,137.90,T,,M,2.32,N,4.3,K,A*05
$GPGGA,212724.000,3747.6327,N,12215.4106,W,1,06,1.5,16.9,M,-25.1,M,,0000*58
$GPGSA,A,3,01,31,16,20,30,32,,,,,,,2.9,1.5,2.5*3E
$GPRMC,212724.000,A,3747.6327,N,12215.4106,W,2.31,145.13,260312,,,A*7B
$GPVTG,145.13,T,,M,2.31,N,4.3,K,A*08
$GPGGA,212725.000,3747.6322,N,12215.4099,W,1,06,1.5,17.1,M,-25.1,M,,0000*52
$GPGSA,A,3,01,31,16,20,30,32,,,,,,,2.9,1.5,2.5*3E
$GPRMC,212725.000,A,3747.6322,N,12215.4099,W,1.92,134.56,260312,,,A*75
$GPVTG,134.56,T,,M,1.92,N,3.6,K,A*07
$GPGGA,212726.000,3747.6319,N,12215.4087,W,1,06,1.5,17.5,M,-25.1,M,,0000*52
$GPGSA,A,3,01,31,16,20,30,32,,,,,,,2.9,1.5,2.5*3E
$GPRMC,212726.000,A,3747.6319,N,12215.4087,W,2.22,134.60,260312,,,A*7C
$GPVTG,134.60,T,,M,2.22,N,4.1,K,A*0A
$GPGGA,212727.000,3747.6314,N,12215.4079,W,1,06,1.5,17.8,M,-25.1,M,,0000*52
$GPGSA,A,3,01,31,16,20,30,32,,,,,,,2.9,1.5,2.5*3E
$GPGSV,3,1,11,32,77,117,29,20,72,302,22,23,43,292,25,30,39,111,36*75
$GPGSV,3,2,11,31,35,044,30,01,31,217,22,16,25,139,35,13,16,274,25*76
$GPGSV,3,3,11,11,13,205,24,04,02,326,,14,00,079,*40
$GPVTG,139.87,T,,M,2.31,N,4.3,K,A*0E
$GPGGA,212728.000,3747.6309,N,12215.4072,W,1,06,1.5,18.3,M,-25.1,M,,0000*5E
$GPGSA,A,3,01,31,16,20,30,32,,,,,,,2.9,1.5,2.5*3E
$GPRMC,212728.000,A,3747.6309,N,12215.4072,W,1.71,140.18,260312,,,A*70
$GPVTG,140.18,T,,M,1.71,N,3.2,K,A*07
$GPGGA,212729.000,3747.6305,N,12215.4076,W,1,06,1.5,16.9,M,-25.1,M,,0000*53
$GPGSA,A,3,01,31,16,20,30,32,,,,,,,2.9,1.5,2.5*3E
$GPRMC,212729.000,A,3747.6305,N,12215.4076,W,1.76,162.07,260312,,,A*70
$GPVTG,162.07,T,,M,1.76,N,3.3,K,A*0F
$GPGGA,212730.000,3747.6299,N,12215.4078,W,1,06,1.5,16.2,M,-25.1,M,,0000*5A
$GPGSA,A,3,01,31,16,20,30,32,,,,,,,2.9,1.5,2.5*3E
$GPRMC,212730.000,A,3747.6299,N,12215.4078,W,1.88,143.00,260312,,,A*77
$GPVTG,143.00,T,,M,1.88,N,3.5,K,A*0C
$GPGGA,212731.000,3747.6295,N,12215.4076,W,1,06,1.5,15.8,M,-25.1,M,,0000*50
$GPGSA,A,3,01,31,16,20,30,32,,,,,,,2.9,1.5,2.5*3E
$GPRMC,212731.000,A,3747.6295,N,12215.4076,W,1.71,147.61,260312,,,A*71
$GPVTG,147.61,T,,M,1.71,N,3.2,K,A*0E
$GPGGA,212732.000,3747.6291,N,12215.4074,W,1,06,1.5,15.3,M,-25.1,M,,0000*5E
$GPGSA,A,3,01,31,16,20,30,32,,,,,,,2.9,1.5,2.5*3E
$GPGSV,3,1,11,32,77,117,30,20,72,302,22,23,43,292,25,30,39,111,36*7D
$GPGSV,3,2,11,31,35,044,30,01,31,217,22,16,25,139,37,13,16,274,25*74
$GPGSV,3,3,11,11,13,205,24,04,02,326,,14,00,079,*40
$GPRMC,212732.000,A,3747.6291,N,12215.4074,W,1.86,131.18,260312,,,A*73
$GPVTG,131.18,T,,M,1.86,N,3.4,K,A*0F
$GPGGA,212733.000,3747.6286,N,12215.4074,W,1,06,1.5,14.5,M,-25.1,M,,0000*5E
$GPGSA,A,3,01,31,16,20,30,32,,,,,,,2.9,1.5,2.5*3E
$GPRMC,212733.000,A,3747.6286,N,12215.4074,W,1.65,142.96,260312,,,A*7B
$GPVTG,142.96,T,,M,1.65,N,3.0,K,A*04
$GPGGA,212734.000,3747.6281,N,12215.4076,W,1,06,1.5,13.5,M,-25.1,M,,0000*5B
$GPGSA,A,3,01,31,16,20,30,32,,,,,,,2.9,1.5,2.5*3E
$GPRMC,212734.000,A,3747.6281,N,12215.4076,W,1.37,137.84,260312,,,A*7F
$GPVTG,137.84,T,,M,1.37,N,2.5,K,A*06
$GPGGA,212735.000,3747.6277,N,12215.4076,W,1,06,1.5,12.9,M,-25.1,M,,0000*5E
$GPGSA,A,3,01,31,16,20,30,32,,,,,,,2.9,1.5,2.5*3E
$GPRMC,212735.000,A,3747.6277,N,12215.4076,W,1.19,165.48,260312,,,A*7C
$GPVTG,165.48,T,,M,1.19,N,2.2,K,A*0A
$GPGGA,212736.000,3747.6274,N,12215.4079,W,1,06,1.5,11.6,M,-25.1,M,,0000*5D
$GPGSA,A,3,01,31,16,20,30,32,,,,,,,2.9,1.5,2.5*3E
$GPRMC,212736.000,A,3747.6274,N,12215.4079,W,1.06,165.76,260312,,,A*70
$GPVTG,165.76,T,,M,1.06,N,2.0,K,A*0B
$GPGGA,212737.000,3747.6269,N,12215.4082,W,1,06,1.5,11.5,M,-25.1,M,,0000*57
$GPGSA,A,3,01,31,16,20,30,32,,,,,,,2.9,1.5,2.5*3E
$GPGSV,3,1,11,32,77,117,30,20,72,302,22,23,43,292,25,30,39,111,30*7B
$GPGSV,3,2,11,31,35,044,25,01,31,217,27,16,25,139,39,13,16,274,25*7B
$GPGSV,3,3,11,11,13,205,34,04,02,326,,14,00,079,*41
$GPRMC,212737.000,A,3747.6269,N,12215.4082,W,1.36,213.21,260312,,,A*7A
$GPVTG,213.21,T,,M,1.36,N,2.5,K,A*0D
$GPGGA,212738.000,3747.6262,N,12215.4088,W,1,06,1.5,11.5,M,-25.1,M,,0000*59
$GPGSA,A,3,01,31,16,20,30,32,,,,,,,2.9,1.5,2.5*3E
$GPRMC,212738.000,A,3747.6262,N,12215.4088,W,1.21,224.34,260312,,,A*72
$GPVTG,224.34,T,,M,1.21,N,2.2,K,A*0C
$GPGGA,212739.000,3747.6257,N,12215.4094,W,1,06,1.5,11.2,M,-25.1,M,,0000*54
$GPGSA,A,3,01,31,16,20,30,32,,,,,,,2.9,1.5,2.5*3E
$GPRMC,212739.000,A,3747.6257,N,12215.4094,W,0.81,226.63,260312,,,A*73
$GPVTG,226.63,T,,M,0.81,N,1.5,K,A*03
$GPGGA,212740.000,3747.6250,N,12215.4099,W,1,06,1.5,11.7,M,-25.1,M,,0000*55
$GPGSA,A,3,01,31,16,20,30,32,,,,,,,2.9,1.5,2.5*3E
$GPRMC,212740.000,A,3747.6250,N,12215.4099,W,0.88,226.27,260312,,,A*7E
$GPVTG,226.27,T,,M,0.88,N,1.6,K,A*09
$GPGGA,212741.000,3747.6246,N,12215.4108,W,1,06,1.5,11.6,M,-25.1,M,,0000*5B
$GPGSA,A,3,01,31,16,20,30,32,,,,,,,2.9,1.5,2.5*3E
$GPRMC,212741.000,A,3747.6246,N,12215.4108,W,1.00,223.29,260312,,,A*7B
$GPVTG,223.29,T,,M,1.00,N,1.9,K,A*0C
$GPGGA,212742.000,3747.6242,N,12215.4114,W,1,06,1.5,10.5,M,-25.1,M,,0000*53
$GPGSA,A,3,01,31,16,20,30,32,,,,,,,2.9,1.5,2.5*3E
