$ADVER,3080,2.3
$GPRMC,201704.487,A,3747.6665,N,12215.4578,W,0.13,324.19,260312,,,A*73
$GPGGA,201705.487,3747.6662,N,12215.4572,W,1,04,3.8,11.8,M,-25.1,M,,0000*5A
$GPGSA,A,3,01,31,25,11,,,,,,,,,4.4,3.8,2.2*3D
$GPRMC,201705.487,A,3747.6662,N,12215.4572,W,0.03,147.07,260312,,,A*76
$GPVTG,147.07,T,,M,0.03,N,0.1,K,A*0A
$GPGGA,201706.488,3747.6662,N,12215.4571,W,1,04,3.8,12.2,M,-25.1,M,,0000*5C
$GPGSA,A,3,01,31,25,11,,,,,,,,,4.4,3.8,2.2*3D
$GPGSV,3,1,12,31,62,071,28,01,53,254,37,11,36,227,31,25,09,049,29*7A
$GPGSV,3,2,12,20,41,310,36,23,22,263,29,14,21,059,23,30,16,138,*73
$GPGSV,3,3,12,22,10,117,21,17,01,306,,16,00,158,,48,44,197,33*75
$GPRMC,201706.488,A,3747.6662,N,12215.4571,W,0.05,331.93,260312,,,A*71
$GPVTG,331.93,T,,M,0.05,N,0.1,K,A*02
$GPGGA,201707.000,3747.6661,N,12215.4570,W,1,04,3.8,12.5,M,-25.1,M,,0000*5C
$GPGSA,A,3,01,31,25,11,,,,,,,,,4.4,3.8,2.2*3D
$GPRMC,201707.000,A,3747.6661,N,12215.4570,W,0.05,2.35,260312,,,A*79
$GPVTG,2.35,T,,M,0.05,N,0.1,K,A*0D
$GPGGA,201708.000,3747.6661,N,12215.4568,W,1,04,3.8,13.0,M,-25.1,M,,0000*5E
$GPGSA,A,3,01,31,25,11,,,,,,,,,4.4,3.8,2.2*3D
$GPRMC,201708.000,A,3747.6661,N,12215.4568,W,0.08,10.51,260312,,,A*43
$GPVTG,10.51,T,,M,0.08,N,0.1,K,A*31
$GPGGA,201709.000,3747.6661,N,12215.4567,W,1,04,3.8,13.2,M,-25.1,M,,0000*52
$GPGSA,A,3,01,31,25,11,,,,,,,,,4.4,3.8,2.2*3D
$GPRMC,201709.000,A,3747.6661,N,12215.4567,W,0.05,333.94,260312,,,A*7B
$GPVTG,333.94,T,,M,0.05,N,0.1,K,A*07
$GPGGA,201710.000,3747.6662,N,12215.4567,W,1,04,3.8,13.2,M,-25.1,M,,0000*59
$GPGSA,A,3,01,31,25,11,,,,,,,,,4.4,3.8,2.2*3D
$GPRMC,201710.000,A,3747.6662,N,12215.4567,W,0.07,305.52,260312,,,A*7D
$GPVTG,305.52,T,,M,0.07,N,0.1,K,A*0A
$GPGGA,201711.000,3747.6660,N,12215.4565,W,1,04,3.8,13.9,M,-25.1,M,,0000*53
$GPGSA,A,3,01,31,25,11,,,,,,,,,4.4,3.8,2.2*3D
$GPGSV,3,1,12,31,62,071,20,01,53,254,37,11,36,227,32,25,09,049,24*7C
$GPGSV,3,2,12,20,41,310,34,23,22,263,25,14,21,059,29,30,16,138,26*73
$GPGSV,3,3,12,22,10,117,21,17,01,306,,16,00,158,,48,44,197,30*76
$GPRMC,201711.000,A,3747.6660,N,12215.4565,W,0.42,123.75,260312,,,A*7E
$GPVTG,123.75,T,,M,0.42,N,0.8,K,A*01
$GPGGA,201712.000,3747.6662,N,12215.4570,W,1,04,3.8,13.2,M,-25.1,M,,0000*5D
$GPGSA,A,3,01,31,25,11,,,,,,,,,4.4,3.8,2.2*3D
$GPRMC,201712.000,A,3747.6662,N,12215.4570,W,0.40,124.07,260312,,,A*7B
$GPVTG,124.07,T,,M,0.40,N,0.7,K,A*0E
$GPGGA,201713.000,3747.6658,N,12215.4568,W,1,04,3.8,14.8,M,-25.1,M,,0000*51
$GPGSA,A,3,01,31,25,11,,,,,,,,,4.4,3.8,2.2*3D
$GPRMC,201713.000,A,3747.6658,N,12215.4568,W,0.52,144.10,260312,,,A*79
$GPVTG,144.10,T,,M,0.52,N,1.0,K,A*0B
$GPGGA,201714.000,3747.6659,N,12215.4567,W,1,04,3.8,14.5,M,-25.1,M,,0000*55
$GPGSA,A,3,01,31,25,11,,,,,,,,,4.4,3.8,2.2*3D
$GPRMC,201714.000,A,3747.6659,N,12215.4567,W,0.20,72.55,260312,,,A*40
$GPVTG,72.55,T,,M,0.20,N,0.4,K,A*3E
$GPGGA,201715.000,3747.6660,N,12215.4568,W,1,04,3.8,14.2,M,-25.1,M,,0000*56
$GPGSA,A,3,01,31,25,11,,,,,,,,,4.4,3.8,2.2*3D
$GPRMC,201715.000,A,3747.6660,N,12215.4568,W,0.34,285.27,260312,,,A*7E
$GPVTG,285.27,T,,M,0.34,N,0.6,K,A*06
$GPGGA,201716.000,3747.6660,N,12215.4570,W,1,04,3.8,14.3,M,-25.1,M,,0000*5D
$GPGSA,A,3,01,31,25,11,,,,,,,,,4.4,3.8,2.2*3D
$GPGSV,3,1,12,31,62,071,30,01,53,254,35,11,36,227,32,25,09,049,28*73
$GPGSV,3,2,12,20,41,310,34,23,22,263,21,14,21,059,30,30,16,138,25*7C
$GPRMC,201716.000,A,3747.6660,N,12215.4570,W,0.62,270.79,260312,,,A*76
$GPVTG,270.79,T,,M,0.62,N,1.1,K,A*02
$GPGGA,201717.000,3747.6659,N,12215.4571,W,1,04,3.8,14.6,M,-25.1,M,,0000*52
$GPGSA,A,3,01,31,25,11,,,,,,,,,4.4,3.8,2.2*3D
$GPRMC,201717.000,A,3747.6659,N,12215.4571,W,0.35,294.89,260312,,,A*7B
$GPVTG,294.89,T,,M,0.35,N,0.6,K,A*03
$GPGGA,201718.000,3747.6671,N,12215.4576,W,1,04,3.8,16.5,M,-25.1,M,,0000*51
$GPGSA,A,3,01,31,25,11,,,,,,,,,4.4,3.8,2.2*3D
$GPRMC,201718.000,A,3747.6671,N,12215.4576,W,0.57,337.71,260312,,,A*72
$GPVTG,337.71,T,,M,0.57,N,1.1,K,A*0E
$GPGGA,201719.000,3747.6679,N,12215.4579,W,1,04,3.8,16.8,M,-25.1,M,,0000*5A
$GPGSA,A,3,01,31,25,11,,,,,,,,,4.4,3.8,2.2*3D
$GPRMC,201719.000,A,3747.6679,N,12215.4579,W,0.63,350.56,260312,,,A*77
$GPVTG,350.56,T,,M,0.63,N,1.2,K,A*0E
$GPGGA,201720.000,3747.6683,N,12215.4581,W,1,04,3.8,17.1,M,-25.1,M,,0000*5A
$GPGSA,A,3,01,31,25,11,,,,,,,,,4.4,3.8,2.2*3D
$GPRMC,201720.000,A,3747.6683,N,12215.4581,W,0.61,337.17,260312,,,A*79
$GPVTG,337.17,T,,M,0.61,N,1.1,K,A*0B
$GPGGA,201721.000,3747.6692,N,12215.4587,W,1,04,3.8,18.4,M,-25.1,M,,0000*57
$GPGSA,A,3,01,31,25,11,,,,,,,,,4.4,3.8,2.2*3D
$GPGSV,3,1,12,31,62,071,33,01,53,254,35,20,41,310,35,11,36,227,29*70
$GPGSV,3,2,12,23,23,263,23,14,21,059,28,30,16,138,26,22,10,117,29*7A
$GPGSV,3,3,12,25,09,048,28,17,01,306,,16,00,158,,48,44,197,36*7D
$GPRMC,201721.000,A,3747.6692,N,12215.4587,W,0.99,287.90,260312,,,A*7C
$GPVTG,287.90,T,,M,0.99,N,1.8,K,A*00
$GPGGA,201722.000,3747.6701,N,12215.4595,W,1,05,1.7,18.4,M,-25.1,M,,0000*50
$GPGSA,A,3,20,01,31,25,11,,,,,,,,2.7,1.7,2.1*34
$GPRMC,201722.000,A,3747.6701,N,12215.4595,W,0.32,213.87,260312,,,A*7D
$GPVTG,213.87,T,,M,0.32,N,0.6,K,A*05
$GPGGA,201723.000,3747.6710,N,12215.4599,W,1,05,1.7,18.9,M,-25.1,M,,0000*50
$GPGSA,A,3,20,01,31,25,11,,,,,,,,2.7,1.7,2.1*34
$GPRMC,201723.000,A,3747.6710,N,12215.4599,W,0.42,26.69,260312,,,A*43
$GPVTG,26.69,T,,M,0.42,N,0.8,K,A*38
$GPGGA,201724.000,3747.6710,N,12215.4597,W,1,05,1.7,18.4,M,-25.1,M,,0000*54
$GPGSA,A,3,20,01,31,25,11,,,,,,,,2.7,1.7,2.1*34
$GPRMC,201724.000,A,3747.6710,N,12215.4597,W,0.71,29.58,260312,,,A*47
$GPVTG,29.58,T,,M,0.71,N,1.3,K,A*3F
$GPGGA,201725.000,3747.6716,N,12215.4597,W,1,04,2.2,19.4,M,-25.1,M,,0000*55
$GPGSA,A,3,20,01,31,11,,,,,,,,,7.1,2.2,6.8*3B
$GPRMC,201725.000,A,3747.6716,N,12215.4597,W,0.62,55.60,260312,,,A*42
$GPVTG,55.60,T,,M,0.62,N,1.1,K,A*3F
$GPGGA,201726.000,3747.6712,N,12215.4592,W,1,04,2.9,19.7,M,-25.1,M,,0000*5F
$GPGSA,A,3,20,01,31,25,,,,,,,,,4.2,2.9,3.1*3B
$GPGSV,3,1,12,31,62,070,32,01,53,254,17,20,41,310,19,11,36,227,20*77
$GPGSV,3,2,12,23,23,263,20,14,21,059,23,30,16,138,31,22,10,117,35*79
$GPGSV,3,3,12,25,09,048,19,17,01,306,,16,00,158,,48,44,197,23*7B
$GPRMC,201726.000,A,3747.6712,N,12215.4592,W,0.42,79.44,260312,,,A*4A
$GPVTG,79.44,T,,M,0.42,N,0.8,K,A*3D
$GPGGA,201727.000,3747.6718,N,12215.4592,W,1,05,1.7,20.2,M,-25.1,M,,0000*57
$GPGSA,A,3,20,01,31,25,11,,,,,,,,2.7,1.7,2.1*34
$GPRMC,201727.000,A,3747.6718,N,12215.4592,W,1.24,353.54,260312,,,A*7A
$GPVTG,353.54,T,,M,1.24,N,2.3,K,A*0F
$GPGGA,201728.000,3747.6720,N,12215.4586,W,1,03,3.2,21.0,M,-25.1,M,,0000*54
$GPGSA,A,2,20,31,25,,,,,,,,,,3.4,3.2,1.0*33
$GPRMC,201728.000,A,3747.6720,N,12215.4586,W,2.40,9.23,260312,,,A*76
$GPVTG,9.23,T,,M,2.40,N,4.4,K,A*03
$GPGGA,201729.000,3747.6736,N,12215.4587,W,1,05,1.7,21.9,M,-25.1,M,,0000*5B
$GPGSA,A,3,20,01,31,25,11,,,,,,,,2.7,1.7,2.1*34
$GPRMC,201729.000,A,3747.6736,N,12215.4587,W,2.86,343.23,260312,,,A*76
$GPVTG,343.23,T,,M,2.86,N,5.3,K,A*02
$GPGGA,201730.000,3747.6747,N,12215.4587,W,1,05,1.7,22.1,M,-25.1,M,,0000*5E
$GPGSA,A,3,20,01,31,25,11,,,,,,,,2.7,1.7,2.1*34
$GPRMC,201730.000,A,3747.6747,N,12215.4587,W,1.78,331.77,260312,,,A*7E
$GPVTG,331.77,T,,M,1.78,N,3.3,K,A*02
$GPGGA,201731.000,3747.6748,N,12215.4596,W,1,05,1.7,21.4,M,-25.1,M,,0000*56
$GPGSA,A,3,20,01,31,25,11,,,,,,,,2.7,1.7,2.1*34
$GPGSV,3,1,11,31,62,070,33,01,53,254,17,20,41,310,18,11,36,227,16*71
$GPGSV,3,2,11,23,23,263,11,14,21,059,24,30,16,138,24,22,10,117,25*7A
$GPGSV,3,3,11,25,09,048,21,17,01,306,,16,00,158,*41
$GPVTG,284.10,T,,M,1.50,N,2.8,K,A*0C
$GPGGA,201732.000,3747.6747,N,12215.4603,W,1,04,2.9,21.3,M,-25.1,M,,0000*5E
$GPGSA,A,3,20,01,31,25,,,,,,,,,4.2,2.9,3.1*3B
$GPRMC,201732.000,A,3747.6747,N,12215.4603,W,0.63,292.56,260312,,,A*73
$GPVTG,292.56,T,,M,0.63,N,1.2,K,A*01
$GPGGA,201733.000,3747.6743,N,12215.4605,W,1,04,2.9,20.8,M,-25.1,M,,0000*57
$GPGSA,A,3,20,01,31,25,,,,,,,,,4.2,2.9,3.1*3B
$GPRMC,201733.000,A,3747.6743,N,12215.4605,W,0.15,108.85,260312,,,A*7F
$GPVTG,108.85,T,,M,0.15,N,0.3,K,A*0E
$GPGGA,201734.000,3747.6725,N,12215.4603,W,1,05,1.7,18.7,M,-25.1,M,,0000*5E
$GPGSA,A,3,20,01,31,25,11,,,,,,,,2.7,1.7,2.1*34
$GPRMC,201734.000,A,3747.6725,N,12215.4603,W,0.97,166.36,260312,,,A*74
$GPVTG,166.36,T,,M,0.97,N,1.8,K,A*0E
$GPGGA,201735.000,3747.6717,N,12215.4599,W,1,05,1.7,18.4,M,-25.1,M,,0000*5D
$GPGSA,A,3,20,01,31,25,11,,,,,,,,2.7,1.7,2.1*34
$GPRMC,201735.000,A,3747.6717,N,12215.4599,W,0.37,122.17,260312,,,A*7D
$GPVTG,122.17,T,,M,0.37,N,0.7,K,A*09
$GPGGA,201736.000,3747.6711,N,12215.4594,W,1,05,1.7,18.7,M,-25.1,M,,0000*56
$GPGSA,A,3,20,01,31,25,11,,,,,,,,2.7,1.7,2.1*34
$GPGSV,3,1,12,31,62,070,30,01,53,254,27,20,41,310,26,11,36,227,15*7C
$GPGSV,3,2,12,23,23,263,,14,21,059,27,30,16,138,26,22,10,117,24*79
$GPGSV,3,3,12,25,09,048,26,17,01,306,,16,00,158,,48,44,197,24*70
$GPRMC,201736.000,A,3747.6711,N,12215.4594,W,0.62,143.39,260312,,,A*7E
$GPVTG,143.39,T,,M,0.62,N,1.2,K,A*06
$GPGGA,201737.000,3747.6705,N,12215.4589,W,1,05,1.7,19.2,M,-25.1,M,,0000*5A
$GPGSA,A,3,20,01,31,25,11,,,,,,,,2.7,1.7,2.1*34
$GPRMC,201737.000,A,3747.6705,N,12215.4589,W,0.88,159.47,260312,,,A*70
$GPVTG,159.47,T,,M,0.88,N,1.6,K,A*04
$GPGGA,201738.000,3747.6703,N,12215.4583,W,1,05,1.7,19.7,M,-25.1,M,,0000*5C
$GPGSA,A,3,20,01,31,25,11,,,,,,,,2.7,1.7,2.1*34
$GPRMC,201738.000,A,3747.6703,N,12215.4583,W,0.91,157.49,260312,,,A*7B
$GPVTG,157.49,T,,M,0.91,N,1.7,K,A*0D
$GPGGA,201739.000,3747.6703,N,12215.4579,W,1,05,1.7,20.0,M,-25.1,M,,0000*55
$GPGSA,A,3,20,01,31,25,11,,,,,,,,2.7,1.7,2.1*34
$GPRMC,201739.000,A,3747.6703,N,12215.4579,W,0.76,168.65,260312,,,A*74
$GPVTG,168.65,T,,M,0.76,N,1.4,K,A*05
$GPGGA,201740.000,3747.6708,N,12215.4576,W,1,04,1.7,21.3,M,-25.1,M,,0000*5C
$GPGSA,A,3,20,31,25,11,,,,,,,,,2.7,1.7,2.1*35
$GPRMC,201740.000,A,3747.6708,N,12215.4576,W,0.53,161.02,260312,,,A*71
$GPVTG,161.02,T,,M,0.53,N,1.0,K,A*0E
$GPGGA,201741.000,3747.6708,N,12215.4575,W,1,03,3.2,21.5,M,-25.1,M,,0000*58
$GPGSA,A,2,20,31,25,,,,,,,,,,3.4,3.2,1.0*33
$GPGSV,3,1,11,31,62,070,30,01,53,254,18,20,41,310,27,11,36,227,15*72
$GPGSV,3,2,11,23,23,263,24,14,21,059,27,30,16,138,29,22,10,117,31*77
$GPGSV,3,3,11,25,09,048,34,17,01,306,,16,00,158,*45
$GPRMC,201741.000,A,3747.6708,N,12215.4575,W,0.74,166.43,260312,,,A*74
$GPVTG,166.43,T,,M,0.74,N,1.4,K,A*0D
$GPGGA,201742.000,3747.6713,N,12215.4569,W,1,05,1.7,22.3,M,-25.1,M,,0000*58
$GPGSA,A,3,20,01,31,25,11,,,,,,,,2.7,1.7,2.1*34
$GPRMC,201742.000,A,3747.6713,N,12215.4569,W,0.52,191.29,260312,,,A*70
$GPVTG,191.29,T,,M,0.52,N,1.0,K,A*09
$GPGGA,201743.000,3747.6717,N,12215.4570,W,1,04,2.9,21.5,M,-25.1,M,,0000*5C
$GPGSA,A,3,20,01,31,25,,,,,,,,,4.2,2.9,3.1*3B
$GPRMC,201743.000,A,3747.6717,N,12215.4570,W,0.52,67.29,260312,,,A*45
$GPVTG,67.29,T,,M,0.52,N,1.0,K,A*31
$GPGGA,201744.000,3747.6717,N,12215.4563,W,1,04,2.9,20.6,M,-25.1,M,,0000*5B
$GPGSA,A,3,20,01,31,25,,,,,,,,,4.2,2.9,3.1*3B
$GPRMC,201744.000,A,3747.6717,N,12215.4563,W,1.03,150.56,260312,,,A*78
$GPVTG,150.56,T,,M,1.03,N,1.9,K,A*00
$GPGGA,201745.000,3747.6722,N,12215.4559,W,1,05,1.7,21.3,M,-25.1,M,,0000*5D
$GPGSA,A,3,20,01,31,25,11,,,,,,,,2.7,1.7,2.1*34
$GPRMC,201745.000,A,3747.6722,N,12215.4559,W,0.59,101.04,260312,,,A*7B
$GPVTG,101.04,T,,M,0.59,N,1.1,K,A*05
$GPGGA,201746.000,3747.6713,N,12215.4558,W,1,04,1.7,19.5,M,-25.1,M,,0000*51
$GPGSA,A,3,20,31,25,11,,,,,,,,,2.7,1.7,2.1*35
$GPGSV,3,1,12,31,62,070,30,01,53,254,18,20,41,310,18,11,36,227,16*7E
$GPGSV,3,2,12,23,23,263,16,14,21,059,35,30,16,138,28,22,10,117,35*73
$GPGSV,3,3,12,25,09,048,36,17,01,306,,16,00,158,,48,44,197,27*72
$GPRMC,201746.000,A,3747.6713,N,12215.4558,W,0.48,52.71,260312,,,A*4E
$GPGGA,201747.000,3747.6713,N,12215.4553,W,1,05,1.7,19.4,M,-25.1,M,,0000*5B
$GPGSA,A,3,20,01,31,25,11,,,,,,,,2.7,1.7,2.1*34
$GPRMC,201747.000,A,3747.6713,N,12215.4553,W,0.54,24.03,260312,,,A*4D
$GPVTG,24.03,T,,M,0.54,N,1.0,K,A*38
$GPGGA,201748.000,3747.6715,N,12215.4551,W,1,04,2.9,19.3,M,-25.1,M,,0000*5B
$GPGSA,A,3,20,01,31,25,,,,,,,,,4.2,2.9,3.1*3B
$GPRMC,201748.000,A,3747.6715,N,12215.4551,W,0.66,101.44,260312,,,A*72
$GPVTG,101.44,T,,M,0.66,N,1.2,K,A*0E
$GPGGA,201749.000,3747.6720,N,12215.4543,W,1,05,1.7,20.6,M,-25.1,M,,0000*5C
$GPGSA,A,3,20,01,31,25,11,,,,,,,,2.7,1.7,2.1*34
$GPRMC,201749.000,A,3747.6720,N,12215.4543,W,1.33,130.71,260312,,,A*73
$GPVTG,130.71,T,,M,1.33,N,2.5,K,A*0F
$GPGGA,201750.000,3747.6718,N,12215.4536,W,1,05,1.7,20.8,M,-25.1,M,,0000*53
$GPGSA,A,3,20,01,31,25,11,,,,,,,,2.7,1.7,2.1*34
$GPRMC,201750.000,A,3747.6718,N,12215.4536,W,1.81,146.51,260312,,,A*78
$GPVTG,146.51,T,,M,1.81,N,3.4,K,A*05
$GPGGA,201751.000,3747.6721,N,12215.4534,W,1,04,2.9,20.4,M,-25.1,M,,0000*5A
$GPGSA,A,3,20,01,31,25,,,,,,,,,4.2,2.9,3.1*3B
$GPGSV,3,1,12,31,62,070,29,01,53,254,23,20,41,310,20,11,36,227,16*75
$GPGSV,3,2,12,23,23,263,26,14,21,059,35,30,16,138,35,22,10,117,34*7D
$GPGSV,3,3,12,25,09,048,31,17,01,306,,16,00,158,,48,44,197,24*76
$GPRMC,201751.000,A,3747.6721,N,12215.4534,W,0.14,150.69,260312,,,A*70
$GPVTG,150.69,T,,M,0.14,N,0.3,K,A*00
$GPGGA,201752.000,3747.6719,N,12215.4534,W,1,04,2.9,20.1,M,-25.1,M,,0000*57
$GPGSA,A,3,20,01,31,25,,,,,,,,,4.2,2.9,3.1*3B
$GPRMC,201752.000,A,3747.6719,N,12215.4534,W,0.62,165.97,260312,,,A*7E
$GPVTG,165.97,T,,M,0.62,N,1.1,K,A*05
$GPGGA,201753.000,3747.6713,N,12215.4537,W,1,04,2.9,19.4,M,-25.1,M,,0000*50
$GPGSA,A,3,20,01,31,25,,,,,,,,,4.2,2.9,3.1*3B
$GPRMC,201753.000,A,3747.6713,N,12215.4537,W,0.94,163.83,260312,,,A*7C
$GPVTG,163.83,T,,M,0.94,N,1.7,K,A*09
$GPGGA,201754.000,3747.6712,N,12215.4541,W,1,04,2.8,18.7,M,-25.1,M,,0000*54
$GPGSA,A,3,20,01,31,25,,,,,,,,,4.2,2.8,3.1*3A
$GPRMC,201754.000,A,3747.6712,N,12215.4541,W,0.58,156.04,260312,,,A*72
$GPVTG,156.04,T,,M,0.58,N,1.1,K,A*06
$GPGGA,201755.000,3747.6720,N,12215.4553,W,1,04,2.8,17.7,M,-25.1,M,,0000*58
$GPGSA,A,3,20,01,31,25,,,,,,,,,4.2,2.8,3.1*3A
$GPRMC,201755.000,A,3747.6720,N,12215.4553,W,1.29,314.02,260312,,,A*74
$GPVTG,314.02,T,,M,1.29,N,2.4,K,A*05
$GPGGA,201756.000,3747.6737,N,12215.4553,W,1,05,1.7,19.7,M,-25.1,M,,0000*5E
$GPGSA,A,3,20,01,31,25,11,,,,,,,,2.7,1.7,2.1*34
$GPGSV,3,1,12,31,62,070,29,01,53,254,23,20,41,310,20,11,36,227,16*75
$GPGSV,3,2,12,23,23,263,17,14,21,059,36,30,16,138,35,22,10,117,38*70
$GPGSV,3,3,12,25,09,048,33,17,01,306,,16,00,158,,48,44,197,27*77
$GPRMC,201756.000,A,3747.6737,N,12215.4553,W,0.61,320.09,260312,,,A*70
$GPVTG,320.09,T,,M,0.61,N,1.1,K,A*02
$GPGGA,201757.000,3747.6746,N,12215.4555,W,1,04,1.7,20.4,M,-25.1,M,,0000*57
$GPGSA,A,3,20,31,25,11,,,,,,,,,2.7,1.7,2.1*35
$GPRMC,201757.000,A,3747.6746,N,12215.4555,W,1.07,332.75,260312,,,A*78
$GPVTG,332.75,T,,M,1.07,N,2.0,K,A*09
$GPGGA,201758.000,3747.6751,N,12215.4554,W,1,05,1.7,21.0,M,-25.1,M,,0000*5B
$GPGSA,A,3,20,01,31,25,11,,,,,,,,2.7,1.7,2.1*34
$GPRMC,201758.000,A,3747.6751,N,12215.4554,W,0.87,344.99,260312,,,A*7A
$GPVTG,344.99,T,,M,0.87,N,1.6,K,A*06
$GPGGA,201759.000,3747.6759,N,12215.4560,W,1,03,3.3,21.0,M,-25.1,M,,0000*55
$GPGSA,A,2,20,31,25,,,,,,,,,,3.4,3.3,1.0*32
$GPRMC,201759.000,A,3747.6759,N,12215.4560,W,0.82,338.37,260312,,,A*7E
$GPVTG,338.37,T,,M,0.82,N,1.5,K,A*0F
$GPGGA,201800.000,3747.6760,N,12215.4559,W,1,03,3.3,20.8,M,-25.1,M,,0000*5F
$GPGSA,A,2,20,31,25,,,,,,,,,,3.4,3.3,1.0*32
$GPRMC,201800.000,A,3747.6760,N,12215.4559,W,1.32,338.17,260312,,,A*75
$GPVTG,338.17,T,,M,1.32,N,2.4,K,A*05
$GPGGA,201801.000,3747.6758,N,12215.4555,W,1,03,3.3,20.5,M,-25.1,M,,0000*54
$GPGSA,A,2,20,31,25,,,,,,,,,,3.4,3.3,1.0*32
$GPGSV,3,1,12,31,62,070,31,01,53,254,18,20,41,310,20,11,36,227,*73
$GPGSV,3,2,12,23,23,263,18,14,21,059,35,30,16,138,32,22,10,117,36*75
$GPGSV,3,3,12,25,09,048,36,17,01,306,,16,00,158,,48,44,197,24*71
$GPRMC,201801.000,A,3747.6758,N,12215.4555,W,0.48,64.60,260312,,,A*45
$GPGGA,201802.000,3747.6761,N,12215.4557,W,1,03,3.3,20.3,M,-25.1,M,,0000*59
$GPGSA,A,2,20,31,25,,,,,,,,,,3.4,3.3,1.0*32
$GPRMC,201802.000,A,3747.6761,N,12215.4557,W,0.41,99.12,260312,,,A*40
$GPVTG,99.12,T,,M,0.41,N,0.8,K,A*33
$GPGGA,201803.000,3747.6770,N,12215.4566,W,1,03,3.3,20.2,M,-25.1,M,,0000*5B
$GPGSA,A,2,20,31,25,,,,,,,,,,3.4,3.3,1.0*32
$GPRMC,201803.000,A,3747.6770,N,12215.4566,W,1.09,335.08,260312,,,A*70
$GPVTG,335.08,T,,M,1.09,N,2.0,K,A*0A
$GPGGA,201804.000,3747.6781,N,12215.4574,W,1,03,3.3,20.3,M,-25.1,M,,0000*50
$GPGSA,A,2,20,31,25,,,,,,,,,,3.4,3.3,1.0*32
$GPRMC,201804.000,A,3747.6781,N,12215.4574,W,1.17,357.00,260312,,,A*79
$GPVTG,357.00,T,,M,1.17,N,2.2,K,A*0B
$GPGGA,201805.000,3747.6783,N,122                                                                                                                                                                                                                                                                                                                                                                                                                                                                                                                                                                                                                                                                                                                                                                                                                                                                                                                                                                                                                                                                15.4574,W,1,03,3.3,20.4,M,-25.1,M,,0000*54
$GPGSA,A,2,20,31,25,,,,,,,,,,3.4,3.3,1.0*32
$GPRMC,201805.000,A,3747.6783,N,12215.4574,W,1.15,339.92,260312,,,A*7B
$GPVTG,339.92,T,,M,1.15,N,2.1,K,A*09
$GPGGA,201806.000,3747.6775,N,12215.4570,W,1,04,2.8,20.1,M,-25.1,M,,0000*52
$GPGSA,A,3,20,01,31,25,,,,,,,,,4.2,2.8,3.1*3A
$GPGSV,3,1,12,31,62,070,27,01,53,254,23,20,41,310,20,11,36,227,*7C
$GPGSV,3,2,12,23,23,263,17,14,21,059,30,30,16,138,33,22,10,117,37*7F
$GPGSV,3,3,12,25,09,048,28,17,01,306,,16,00,158,,48,44,197,32*79
$GPRMC,201806.000,A,3747.6775,N,12215.4570,W,0.65,356.44,260312,,,A*71
$GPVTG,356.44,T,,M,0.65,N,1.2,K,A*0D
$GPGGA,201807.000,3747.6753,N,12215.4569,W,1,04,2.8,18.7,M,-25.1,M,,0000*52
$GPGSA,A,3,20,01,31,25,,,,,,,,,4.2,2.8,3.1*3A
$GPRMC,201807.000,A,3747.6753,N,12215.4569,W,1.26,149.19,260312,,,A*7E
$GPVTG,149.19,T,,M,1.26,N,2.3,K,A*0D
$GPGGA,201808.000,3747.6734,N,12215.4573,W,1,05,1.7,16.3,M,-25.1,M,,0000*50
$GPGSA,A,3,20,01,31,25,11,,,,,,,,2.7,1.7,2.1*34
$GPRMC,201808.000,A,3747.6734,N,12215.4573,W,1.39,178.56,260312,,,A*7C
$GPVTG,178.56,T,,M,1.39,N,2.6,K,A*0F
$GPGGA,201809.000,3747.6717,N,12215.4575,W,1,05,1.7,15.1,M,-25.1,M,,0000*57
$GPGSA,A,3,20,01,31,25,11,,,,,,,,2.7,1.7,2.1*34
$GPRMC,201809.000,A,3747.6717,N,12215.4575,W,2.75,171.62,260312,,,A*7F
$GPVTG,171.62,T,,M,2.75,N,5.1,K,A*0A
$GPGGA,201810.000,3747.6707,N,12215.4569,W,1,05,1.7,15.9,M,-25.1,M,,0000*5B
$GPGSA,A,3,20,01,31,25,11,,,,,,,,2.7,1.7,2.1*34
$GPRMC,201810.000,A,3747.6707,N,12215.4569,W,2.23,149.11,260312,,,A*77
$GPVTG,149.11,T,,M,2.23,N,4.1,K,A*07
$GPGGA,201811.000,3747.6692,N,12215.4565,W,1,05,1.7,14.6,M,-25.1,M,,0000*55
$GPGSA,A,3,20,01,31,25,11,,,,,,,,2.7,1.7,2.1*34
$GPGSV,3,1,12,31,62,070,23,01,53,254,25,20,41,310,20,11,36,227,19*76
$GPGSV,3,2,12,23,23,263,17,14,21,059,18,30,16,138,24,22,10,117,30*74
$GPGSV,3,3,12,25,09,048,23,17,01,306,,16,00,158,,48,44,197,26*77
$GPRMC,201811.000,A,3747.6692,N,12215.4565,W,2.18,150.67,260312,,,A*76
$GPVTG,150.67,T,,M,2.18,N,4.0,K,A*07
$GPGGA,201812.000,3747.6670,N,12215.4558,W,1,05,1.7,12.7,M,-25.1,M,,0000*53
$GPGSA,A,3,20,01,31,25,11,,,,,,,,2.7,1.7,2.1*34
$GPRMC,201812.000,A,3747.6670,N,12215.4558,W,3.03,155.31,260312,,,A*7A
$GPVTG,155.31,T,,M,3.03,N,5.6,K,A*0D
$GPGGA,201813.000,3747.6666,N,12215.4555,W,1,05,1.7,13.3,M,-25.1,M,,0000*5D
$GPGSA,A,3,20,01,31,25,11,,,,,,,,2.7,1.7,2.1*34
$GPRMC,201813.000,A,3747.6666,N,12215.4555,W,3.26,151.54,260312,,,A*71
$GPVTG,151.54,T,,M,3.26,N,6.0,K,A*08
$GPGGA,201814.000,3747.6658,N,12215.4546,W,1,05,1.7,14.2,M,-25.1,M,,0000*53
$GPGSA,A,3,20,01,31,25,11,,,,,,,,2.7,1.7,2.1*34
$GPRMC,201814.000,A,3747.6658,N,12215.4546,W,2.51,150.02,260312,,,A*7A
$GPVTG,150.02,T,,M,2.51,N,4.6,K,A*0F
$GPGGA,201815.000,3747.6652,N,12215.4539,W,1,05,1.7,14.8,M,-25.1,M,,0000*5A
$GPGSA,A,3,20,01,31,25,11,,,,,,,,2.7,1.7,2.1*34
$GPRMC,201815.000,A,3747.6652,N,12215.4539,W,2.72,140.39,260312,,,A*71
$GPVTG,140.39,T,,M,2.72,N,5.0,K,A*00
$GPGGA,201816.000,3747.6655,N,12215.4531,W,1,05,1.7,16.5,M,-25.1,M,,0000*59
$GPGSA,A,3,20,01,31,25,11,,,,,,,,2.7,1.7,2.1*34
$GPGSV,3,1,12,31,62,070,28,01,53,254,27,20,41,310,21,11,36,227,20*74
$GPGSV,3,2,12,23,23,263,19,14,21,059,31,30,16,138,35,22,10,117,41*77
$GPGSV,3,3,12,25,09,048,29,17,01,306,,16,00,158,,48,44,197,28*73
$GPRMC,201816.000,A,3747.6655,N,12215.4531,W,2.23,136.56,260312,,,A*71
$GPGGA,201817.000,3747.6663,N,12215.4531,W,1,05,1.7,16.3,M,-25.1,M,,0000*5B
$GPGSA,A,3,20,01,31,25,11,,,,,,,,2.7,1.7,2.1*34
$GPRMC,201817.000,A,3747.6663,N,12215.4531,W,1.49,90.78,260312,,,A*4B
$GPVTG,90.78,T,,M,1.49,N,2.8,K,A*3D
$GPGGA,201818.000,3747.6662,N,12215.4530,W,1,05,1.7,15.3,M,-25.1,M,,0000*57
$GPGSA,A,3,20,01,31,25,11,,,,,,,,2.7,1.7,2.1*34
$GPRMC,201818.000,A,3747.6662,N,12215.4530,W,1.21,103.75,260312,,,A*7C
$GPVTG,103.75,T,,M,1.21,N,2.2,K,A*0F
$GPGGA,201819.000,3747.6656,N,12215.4526,W,1,05,1.7,15.2,M,-25.1,M,,0000*57
$GPGSA,A,3,20,01,31,25,11,,,,,,,,2.7,1.7,2.1*34
$GPRMC,201819.000,A,3747.6656,N,12215.4526,W,1.70,130.67,260312,,,A*7A
$GPVTG,130.67,T,,M,1.70,N,3.1,K,A*0A
$GPGGA,201820.000,3747.6649,N,12215.4518,W,1,05,1.7,15.1,M,-25.1,M,,0000*5D
$GPGSA,A,3,20,01,31,25,11,,,,,,,,2.7,1.7,2.1*34
$GPRMC,201820.000,A,3747.6649,N,12215.4518,W,1.81,132.00,260312,,,A*7E
$GPVTG,132.00,T,,M,1.81,N,3.4,K,A*02
$GPGGA,201821.000,3747.6642,N,12215.4516,W,1,05,1.7,14.4,M,-25.1,M,,0000*5D
$GPGSA,A,3,20,01,31,25,11,,,,,,,,2.7,1.7,2.1*34
$GPGSV,3,1,12,31,62,070,23,01,53,254,27,20,41,310,22,11,36,227,25*79
$GPGSV,3,2,12,23,23,263,23,14,21,059,32,30,16,138,35,22,10,117,40*7C
$GPGSV,3,3,12,25,09,048,17,17,01,306,,16,00,158,,48,44,197,28*7E
$GPRMC,201821.000,A,3747.6642,N,12215.4516,W,1.30,141.76,260312,,,A*75
$GPVTG,141.76,T,,M,1.30,N,2.4,K,A*0C
$GPGGA,201822.000,3747.6628,N,12215.4508,W,1,06,1.2,13.7,M,-25.1,M,,0000*5F
$GPGSA,A,3,20,01,31,25,11,22,,,,,,,2.3,1.2,1.9*3E
$GPRMC,201822.000,A,3747.6628,N,12215.4508,W,1.56,161.06,260312,,,A*70
$GPVTG,161.06,T,,M,1.56,N,2.9,K,A*04
$GPGGA,201823.000,3747.6615,N,12215.4499,W,1,06,1.2,13.3,M,-25.1,M,,0000*5D
$GPGSA,A,3,20,01,31,25,11,22,,,,,,,2.3,1.2,1.9*3E
$GPRMC,201823.000,A,3747.6615,N,12215.4499,W,0.99,134.73,260312,,,A*76
$GPVTG,134.73,T,,M,0.99,N,1.8,K,A*06
$GPGGA,201824.000,3747.6611,N,12215.4493,W,1,06,1.2,15.4,M,-25.1,M,,0000*55
$GPGSA,A,3,20,01,31,25,11,22,,,,,,,2.3,1.2,1.9*3E
$GPRMC,201824.000,A,3747.6611,N,12215.4493,W,1.31,144.36,260312,,,A*7A
$GPVTG,144.36,T,,M,1.31,N,2.4,K,A*0C
$GPGGA,201825.000,3747.6607,N,12215.4479,W,1,06,1.2,18.0,M,-25.1,M,,0000*5E
$GPGSA,A,3,20,01,31,25,11,22,,,,,,,2.3,1.2,1.9*3E
$GPRMC,201825.000,A,3747.6607,N,12215.4479,W,1.69,113.22,260312,,,A*72
$GPVTG,113.22,T,,M,1.69,N,3.1,K,A*02
$GPGGA,201826.000,3747.6604,N,12215.4471,W,1,06,1.2,19.7,M,-25.1,M,,0000*50
$GPGSA,A,3,20,01,31,25,11,22,,,,,,,2.3,1.2,1.9*3E
$GPGSV,3,1,11,31,61,070,23,01,53,253,26,20,41,310,22,11,36,226,20*7B
$GPGSV,3,2,11,23,23,263,18,14,21,059,29,30,17,138,25,22,09,117,33*71
$GPGSV,3,3,11,25,09,048,13,17,01,306,,16,00,158,*40
$GPRMC,201826.000,A,3747.6604,N,12215.4471,W,1.50,79.22,260312,,,A*4D
$GPVTG,79.22,T,,M,1.50,N,2.8,K,A*3D
$GPGGA,201827.000,3747.6601,N,12215.4467,W,1,05,1.6,20.2,M,-25.1,M,,0000*5B
$GPGSA,A,3,20,01,31,11,22,,,,,,,,2.9,1.6,2.4*39
$GPRMC,201827.000,A,3747.6601,N,12215.4467,W,1.47,126.42,260312,,,A*75
$GPVTG,126.42,T,,M,1.47,N,2.7,K,A*09
$GPGGA,201828.000,3747.6597,N,12215.4468,W,1,05,1.6,19.8,M,-25.1,M,,0000*57
$GPGSA,A,3,20,01,31,11,22,,,,,,,,2.9,1.6,2.4*39
$GPRMC,201828.000,A,3747.6597,N,12215.4468,W,2.01,146.91,260312,,,A*70
$GPVTG,146.91,T,,M,2.01,N,3.7,K,A*01
$GPGGA,201829.000,3747.6593,N,12215.4466,W,1,05,1.6,19.8,M,-25.1,M,,0000*5C
$GPGSA,A,3,20,01,31,11,22,,,,,,,,2.9,1.6,2.4*39
$GPRMC,201829.000,A,3747.6593,N,12215.4466,W,2.26,147.01,260312,,,A*76
$GPVTG,147.01,T,,M,2.26,N,4.2,K,A*0E
$GPGGA,201830.000,3747.6586,N,12215.4468,W,1,05,1.6,18.9,M,-25.1,M,,0000*5E
$GPGSA,A,3,20,01,31,11,22,,,,,,,,2.9,1.6,2.4*39
$GPRMC,201830.000,A,3747.6586,N,12215.4468,W,2.50,155.25,260312,,,A*70
$GPVTG,155.25,T,,M,2.50,N,4.6,K,A*0E
$GPGGA,201831.000,3747.6584,N,12215.4461,W,1,05,1.6,20.1,M,-25.1,M,,0000*57
$GPGSA,A,3,20,01,31,11,22,,,,,,,,2.9,1.6,2.4*39
$GPGSV,3,1,12,31,61,070,19,01,53,253,25,20,41,310,28,11,36,226,24*7C
$GPGSV,3,2,12,23,23,263,18,14,21,059,33,30,17,138,33,22,09,117,34*79
$GPGSV,3,3,12,25,09,048,,17,01,306,,16,00,158,,51,43,156,33*70
$GPRMC,201831.000,A,3747.6584,N,12215.4461,W,2.45,141.09,260312,,,A*75
$GPGGA,201832.000,3747.6580,N,12215.4457,W,1,05,1.6,19.9,M,-25.1,M,,0000*57
$GPGSA,A,3,20,01,31,11,22,,,,,,,,2.9,1.6,2.4*39
$GPRMC,201832.000,A,3747.6580,N,12215.4457,W,2.24,143.90,260312,,,A*72
$GPVTG,143.90,T,,M,2.24,N,4.1,K,A*03
$GPGGA,201833.000,3747.6574,N,12215.4459,W,1,05,1.6,18.8,M,-25.1,M,,0000*53
$GPGSA,A,3,20,01,31,11,22,,,,,,,,2.9,1.6,2.4*39
$GPRMC,201833.000,A,3747.6574,N,12215.4459,W,2.21,142.04,260312,,,A*7F
$GPVTG,142.04,T,,M,2.21,N,4.1,K,A*0A
$GPGGA,201834.000,3747.6568,N,12215.4459,W,1,05,1.6,17.8,M,-25.1,M,,0000*56
$GPGSA,A,3,20,01,31,11,22,,,,,,,,2.9,1.6,2.4*39
$GPRMC,201834.000,A,3747.6568,N,12215.4459,W,2.18,148.36,260312,,,A*74
$GPVTG,148.36,T,,M,2.18,N,4.0,K,A*0A
$GPGGA,201835.000,3747.6563,N,12215.4457,W,1,05,1.6,17.0,M,-25.1,M,,0000*5A
$GPGSA,A,3,20,01,31,11,22,,,,,,,,2.9,1.6,2.4*39
$GPRMC,201835.000,A,3747.6563,N,12215.4457,W,2.24,142.94,260312,,,A*7D
$GPVTG,142.94,T,,M,2.24,N,4.2,K,A*05
$GPGGA,201836.000,3747.6563,N,12215.4456,W,1,05,1.6,14.5,M,-25.1,M,,0000*5E
$GPGSA,A,3,20,01,31,11,22,,,,,,,,2.9,1.6,2.4*39
$GPGSV,3,1,12,31,61,070,24,01,53,253,25,20,41,310,27,11,36,226,24*7D
$GPGSV,3,2,12,23,23,263,20,14,21,059,23,30,17,138,33,22,09,117,39*7E
$GPGSV,3,3,12,25,09,048,,17,01,306,,16,00,158,,51,43,156,36*75
$GPRMC,201836.000,A,3747.6563,N,12215.4456,W,2.15,145.76,260312,,,A*76
$GPVTG,145.76,T,,M,2.15,N,4.0,K,A*0E
$GPGGA,201837.000,3747.6560,N,12215.4457,W,1,05,1.6,12.4,M,-25.1,M,,0000*5A
$GPGSA,A,3,20,01,31,11,22,,,,,,,,2.9,1.6,2.4*39
$GPRMC,201837.000,A,3747.6560,N,12215.4457,W,1.60,133.81,260312,,,A*7D
$GPVTG,133.81,T,,M,1.60,N,3.0,K,A*01
$GPGGA,201838.000,3747.6550,N,12215.4453,W,2,05,1.6,12.6,M,-25.1,M,1.8,0000*74
$GPGSA,A,3,20,01,31,11,22,,,,,,,,2.9,1.6,2.4*39
$GPRMC,201838.000,A,3747.6550,N,12215.4453,W,1.57,142.64,260312,,,D*79
$GPVTG,142.64,T,,M,1.57,N,2.9,K,D*05
$GPGGA,201839.000,3747.6542,N,12215.4448,W,2,05,1.6,13.0,M,-25.1,M,1.8,0000*7B
$GPGSA,A,3,20,01,31,11,22,,,,,,,,2.9,1.6,2.4*39
$GPRMC,201839.000,A,3747.6542,N,12215.4448,W,1.69,150.28,260312,,,D*77
$GPVTG,150.28,T,,M,1.69,N,3.1,K,D*0A
$GPGGA,201839.000,3747.6531,N,12215.4443,W,2,05,1.6,14.3,M,-25.1,M,2.8,0000*73
$GPGSA,A,3,20,01,31,11,22,,,,,,,,2.9,1.6,2.4*39
$GPRMC,201839.000,A,3747.6531,N,12215.4443,W,1.98,144.88,260312,,,D*79
$GPVTG,144.88,T,,M,1.98,N,3.7,K,D*0D
$GPGGA,201840.000,3747.6514,N,12215.4440,W,2,05,1.6,16.1,M,-25.1,M,3.8,0000*78
$GPGSA,A,3,20,01,31,11,22,,,,,,,,2.9,1.6,2.4*39
$GPGSV,3,1,12,31,61,070,24,01,53,253,25,20,41,310,22,11,36,226,17*78
$GPGSV,3,2,12,23,23,263,21,14,21,059,24,30,17,138,34,22,09,117,36*70
$GPGSV,3,3,12,25,09,048,,17,01,306,,16,00,158,,51,43,156,36*75
$GPRMC,201840.000,A,3747.6514,N,12215.4440,W,3.08,166.34,260312,,,D*7F
$GPVTG,166.34,T,,M,3.08,N,5.7,K,D*07
$GPGGA,201841.000,3747.6506,N,12215.4436,W,2,05,1.6,16.6,M,-25.1,M,4.8,0000*7B
$GPGSA,A,3,20,01,31,11,22,,,,,,,,2.9,1.6,2.4*39
$GPRMC,201841.000,A,3747.6506,N,12215.4436,W,3.08,167.71,260312,,,D*7C
$GPVTG,167.71,T,,M,3.08,N,5.7,K,D*07
$GPGGA,201842.000,3747.6505,N,12215.4426,W,2,05,1.6,16.8,M,-25.1,M,5.8,0000*75
$GPGSA,A,3,20,01,31,11,22,,,,,,,,2.9,1.6,2.4*39
$GPRMC,201842.000,A,3747.6505,N,12215.4426,W,2.68,157.89,260312,,,D*7E
$GPVTG,157.89,T,,M,2.68,N,5.0,K,D*03
$GPGGA,201843.000,3747.6509,N,12215.4416,W,2,06,1.2,16.1,M,-25.1,M,6.8,0000*76
$GPGSA,A,3,20,01,31,25,11,22,,,,,,,2.3,1.2,1.9*3E
$GPRMC,201843.000,A,3747.6509,N,12215.4416,W,2.29,141.81,260312,,,D*7A
$GPVTG,141.81,T,,M,2.29,N,4.2,K,D*0A
$GPGGA,201844.000,3747.6512,N,12215.4411,W,2,06,1.2,15.0,M,-25.1,M,1.8,0000*79
$GPGSA,A,3,20,01,31,25,11,22,,,,,,,2.3,1.2,1.9*3E
$GPRMC,201844.000,A,3747.6512,N,12215.4411,W,1.55,129.02,260312,,,D*7D
$GPVTG,129.02,T,,M,1.55,N,2.9,K,D*0A
$GPGGA,201845.000,3747.6517,N,12215.4399,W,2,06,1.2,15.8,M,-25.1,M,1.8,0000*72
$GPGSA,A,3,20,01,31,25,11,22,,,,,,,2.3,1.2,1.9*3E
$GPGSV,3,1,12,31,61,070,23,01,53,253,25,20,41,310,19,11,36,226,21*72
$GPGSV,3,2,12,23,23,263,20,14,21,059,24,30,17,138,34,22,09,117,31*76
$GPGSV,3,3,12,25,09,048,14,17,01,306,,16,00,158,,51,43,156,32*74
$GPVTG,101.44,T,,M,1.80,N,3.3,K,D*01
$GPGGA,201846.000,3747.6518,N,12215.4397,W,2,06,1.2,13.9,M,-25.1,M,2.8,0000*74
$GPGSA,A,3,20,01,31,25,11,22,,,,,,,2.3,1.2,1.9*3E
$GPRMC,201846.000,A,3747.6518,N,12215.4397,W,1.54,101.33,260312,,,D*75
$GPVTG,101.33,T,,M,1.54,N,2.8,K,D*02
$GPGGA,201847.000,3747.6516,N,12215.4393,W,2,06,1.2,13.3,M,-25.1,M,3.8,0000*74
$GPGSA,A,3,20,01,31,25,11,22,,,,,,,2.3,1.2,1.9*3E
$GPRMC,201847.000,A,3747.6516,N,12215.4393,W,1.49,124.21,260312,,,D*76
$GPVTG,124.21,T,,M,1.49,N,2.8,K,D*0A
$GPGGA,201848.000,3747.6511,N,12215.4389,W,2,06,1.2,13.4,M,-25.1,M,4.8,0000*77
$GPGSA,A,3,20,01,31,25,11,22,,,,,,,2.3,1.2,1.9*3E
$GPRMC,201848.000,A,3747.6511,N,12215.4389,W,1.57,126.91,260312,,,D*73
$GPVTG,126.91,T,,M,1.57,N,2.9,K,D*0D
$GPGGA,201849.000,3747.6509,N,12215.4385,W,2,06,1.2,13.4,M,-25.1,M,5.8,0000*72
$GPGSA,A,3,20,01,31,25,11,22,,,,,,,2.3,1.2,1.9*3E
$GPRMC,201849.000,A,3747.6509,N,12215.4385,W,1.74,140.74,260312,,,D*7D
$GPVTG,140.74,T,,M,1.74,N,3.2,K,D*0D
$GPGGA,201850.000,3747.6508,N,12215.4380,W,2,06,1.2,12.8,M,-25.1,M,6.8,0000*70
$GPGSA,A,3,20,01,31,25,11,22,,,,,,,2.3,1.2,1.9*3E
$GPGSV,3,1,12,31,61,070,24,01,53,253,25,20,41,310,25,11,36,226,21*7A
$GPGSV,3,2,12,23,23,263,20,14,21,059,24,30,17,138,34,22,09,117,34*73
$GPGSV,3,3,12,25,09,048,15,17,01,306,,16,00,158,,51,43,156,29*7F
$GPRMC,201850.000,A,3747.6508,N,12215.4380,W,1.72,143.50,260312,,,D*72
$GPVTG,143.50,T,,M,1.72,N,3.2,K,D*0E
$GPGGA,201851.000,3747.6506,N,12215.4377,W,2,06,1.2,12.5,M,-25.1,M,7.8,0000*7B
$GPGSA,A,3,20,01,31,25,11,22,,,,,,,2.3,1.2,1.9*3E
$GPRMC,201851.000,A,3747.6506,N,12215.4377,W,1.28,121.38,260312,,,D*70
$GPVTG,121.38,T,,M,1.28,N,2.4,K,D*0C
$GPGGA,201852.000,3747.6504,N,12215.4371,W,2,06,1.2,12.6,M,-25.1,M,1.8,0000*79
$GPGSA,A,3,20,01,31,25,11,22,,,,,,,2.3,1.2,1.9*3E
$GPRMC,201852.000,A,3747.6504,N,12215.4371,W,0.82,88.25,260312,,,D*48
$GPVTG,88.25,T,,M,0.82,N,1.5,K,D*31
$GPGGA,201853.000,3747.6500,N,12215.4366,W,2,06,1.2,13.2,M,-25.1,M,2.8,0000*7C
$GPGSA,A,3,20,01,31,25,11,22,,,,,,,2.3,1.2,1.9*3E
$GPRMC,201853.000,A,3747.6500,N,12215.4366,W,0.77,141.89,260312,,,D*73
$GPVTG,141.89,T,,M,0.77,N,1.4,K,D*08
$GPGGA,201854.000,3747.6495,N,12215.4360,W,2,06,1.2,15.0,M,-25.1,M,1.8,0000*77
$GPGSA,A,3,20,01,31,25,11,22,,,,,,,2.3,1.2,1.9*3E
$GPRMC,201854.000,A,3747.6495,N,12215.4360,W,1.52,164.61,260312,,,D*78
$GPVTG,164.61,T,,M,1.52,N,2.8,K,D*00
$GPGGA,201855.000,3747.6483,N,12215.4356,W,2,06,1.2,16.9,M,-25.1,M,1.8,0000*7E
$GPGSA,A,3,20,01,31,25,11,22,,,,,,,2.3,1.2,1.9*3E
$GPGSV,3,1,12,31,61,070,24,01,53,253,24,20,41,310,25,11,36,226,21*7B
$GPGSV,3,2,12,23,23,263,21,14,21,059,25,30,17,138,28,22,09,117,35*7F
$GPGSV,3,3,12,25,09,048,15,17,01,306,,16,00,158,,51,43,156,32*75
$GPRMC,201855.000,A,3747.6483,N,12215.4356,W,2.07,160.02,260312,,,D*79
$GPVTG,160.02,T,,M,2.07,N,3.8,K,D*03
$GPGGA,201856.000,3747.6474,N,12215.4350,W,2,06,1.2,17.7,M,-25.1,M,1.8,0000*7C
$GPGSA,A,3,20,01,31,25,11,22,,,,,,,2.3,1.2,1.9*3E
$GPRMC,201856.000,A,3747.6474,N,12215.4350,W,2.44,144.47,260312,,,D*74
$GPVTG,144.47,T,,M,2.44,N,4.5,K,D*09
$GPGGA,201857.000,3747.6469,N,12215.4348,W,2,07,1.1,15.9,M,-25.1,M,2.8,0000*75
$GPGSA,A,3,20,01,31,30,25,11,22,,,,,,2.2,1.1,1.9*3F
$GPRMC,201857.000,A,3747.6469,N,12215.4348,W,2.51,154.44,260312,,,D*76
$GPVTG,154.44,T,,M,2.51,N,4.7,K,D*0D
$GPGGA,201858.000,3747.6460,N,12215.4343,W,2,07,1.1,15.2,M,-25.1,M,3.8,0000*72
$GPGSA,A,3,20,01,31,30,25,11,22,,,,,,2.2,1.1,1.9*3F
$GPRMC,201858.000,A,3747.6460,N,12215.4343,W,2.13,140.08,260312,,,D*70
$GPVTG,140.08,T,,M,2.13,N,3.9,K,D*0F
$GPGGA,201859.000,3747.6451,N,12215.4333,W,2,07,1.1,15.6,M,-25.1,M,1.8,0000*70
$GPGSA,A,3,20,01,31,30,25,11,22,,,,,,2.2,1.1,1.9*3F
$GPRMC,201859.000,A,3747.6451,N,12215.4333,W,2.05,119.77,260312,,,D*77
$GPVTG,119.77,T,,M,2.05,N,3.8,K,D*0D
$GPGGA,201900.000,3747.6438,N,12215.4324,W,2,07,1.1,16.8,M,-25.1,M,1.8,0000*79
$GPGSA,A,3,20,01,31,30,25,11,22,,,,,,2.2,1.1,1.9*3F
$GPGSV,3,1,12,31,61,069,23,01,53,253,28,20,42,310,23,11,36,226,21*7D
$GPGSV,3,2,12,23,23,264,21,14,21,059,28,30,17,138,33,22,09,117,33*79
$GPGSV,3,3,12,25,09,048,16,17,01,305,,16,00,157,,51,43,156,34*7C
$GPRMC,201900.000,A,3747.6438,N,12215.4324,W,1.78,152.23,260312,,,D*74
$GPVTG,152.23,T,,M,1.78,N,3.3,K,D*01
$GPGGA,201901.000,3747.6431,N,12215.4314,W,2,07,1.1,17.9,M,-25.1,M,1.8,0000*72
$GPGSA,A,3,20,01,31,30,25,11,22,,,,,,2.2,1.1,1.9*3F
$GPRMC,201901.000,A,3747.6431,N,12215.4314,W,2.06,126.31,260312,,,D*75
$GPVTG,126.31,T,,M,2.06,N,3.8,K,D*00
$GPGGA,201902.000,3747.6424,N,12215.4311,W,2,07,1.1,16.4,M,-25.1,M,1.8,0000*7C
$GPGSA,A,3,20,01,31,30,25,11,22,,,,,,2.2,1.1,1.9*3F
$GPRMC,201902.000,A,3747.6424,N,12215.4311,W,1.87,138.51,260312,,,D*74
$GPVTG,138.51,T,,M,1.87,N,3.5,K,D*0E
$GPGGA,201903.000,3747.6418,N,12215.4302,W,2,07,1.1,17.0,M,-25.1,M,2.8,0000*76
$GPGSA,A,3,20,01,31,30,25,11,22,,,,,,2.2,1.1,1.9*3F
$GPRMC,201903.000,A,3747.6418,N,12215.4302,W,1.63,148.50,260312,,,D*74
$GPVTG,148.50,T,,M,1.63,N,3.0,K,D*07
$GPGGA,201904.000,3747.6415,N,12215.4298,W,2,07,1.1,16.5,M,-25.1,M,3.8,0000*7B
$GPGSA,A,3,20,01,31,30,25,11,22,,,,,,2.2,1.1,1.9*3F
$GPRMC,201904.000,A,3747.6415,N,12215.4298,W,1.59,147.90,260312,,,D*76
$GPVTG,147.90,T,,M,1.59,N,2.9,K,D*05
$GPGGA,201905.000,3747.6413,N,12215.4293,W,2,07,1.1,16.2,M,-25.1,M,4.8,0000*77
$GPGSA,A,3,20,01,31,30,25,11,22,,,,,,2.2,1.1,1.9*3F
$GPGSV,3,1,12,31,61,069,30,01,53,253,21,20,42,310,24,11,36,226,21*71
$GPGSV,3,2,12,23,23,264,21,14,21,059,33,30,17,138,32,22,09,117,30*71
$GPGSV,3,3,12,25,09,048,25,17,01,305,,16,00,157,,51,43,156,34*7C
$GPRMC,201905.000,A,3747.6413,N,12215.4293,W,1.46,156.23,260312,,,D*7C
$GPGGA,201906.000,3747.6409,N,12215.4288,W,2,07,1.1,15.4,M,-25.1,M,1.8,0000*75
$GPGSA,A,3,20,01,31,30,25,11,22,,,,,,2.2,1.1,1.9*3F
$GPRMC,201906.000,A,3747.6409,N,12215.4288,W,1.75,149.72,260312,,,D*74
$GPVTG,149.72,T,,M,1.75,N,3.2,K,D*03
$GPGGA,201907.000,3747.6406,N,12215.4282,W,2,07,1.1,14.9,M,-25.1,M,1.8,0000*7D
$GPGSA,A,3,20,01,31,30,25,11,22,,,,,,2.2,1.1,1.9*3F
$GPRMC,201907.000,A,3747.6406,N,12215.4282,W,2.30,151.81,260312,,,D*77
$GPVTG,151.81,T,,M,2.30,N,4.3,K,D*02
$GPGGA,201908.000,3747.6403,N,12215.4276,W,2,07,1.1,13.9,M,-25.1,M,1.8,0000*7B
$GPGSA,A,3,20,01,31,30,25,11,22,,,,,,2.2,1.1,1.9*3F
$GPRMC,201908.000,A,3747.6403,N,12215.4276,W,2.14,144.93,260312,,,D*77
$GPVTG,144.93,T,,M,2.14,N,4.0,K,D*00
$GPGGA,201909.000,3747.6400,N,12215.4269,W,2,07,1.1,12.9,M,-25.1,M,1.8,0000*76
$GPGSA,A,3,20,01,31,30,25,11,22,,,,,,2.2,1.1,1.9*3F
$GPRMC,201909.000,A,3747.6400,N,12215.4269,W,2.01,141.74,260312,,,D*73
$GPVTG,141.74,T,,M,2.01,N,3.7,K,D*08
$GPGGA,201910.000,3747.6401,N,12215.4261,W,2,07,1.1,12.3,M,-25.1,M,2.8,0000*7E
$GPGSA,A,3,20,01,31,30,25,11,22,,,,,,2.2,1.1,1.9*3F
$GPGSV,3,1,12,31,61,069,22,01,53,253,22,20,42,310,25,11,36,226,22*73
$GPGSV,3,2,12,23,23,264,21,14,21,059,32,30,17,138,32,22,09,117,39*79
$GPGSV,3,3,12,25,09,048,32,17,01,305,,16,00,157,,51,43,156,33*7D
$GPRMC,201910.000,A,3747.6401,N,12215.4261,W,1.84,141.74,260312,,,D*7C
$GPVTG,141.74,T,,M,1.84,N,3.4,K,D*05
$GPGGA,201911.000,3747.6397,N,12215.4256,W,2,07,1.1,12.1,M,-25.1,M,3.8,0000*70
$GPGSA,A,3,20,01,31,30,25,11,22,,,,,,2.2,1.1,1.9*3F
$GPRMC,201911.000,A,3747.6397,N,12215.4256,W,1.94,146.52,260312,,,D*73
$GPVTG,146.52,T,,M,1.94,N,3.6,K,D*05
$GPGGA,201912.000,3747.6389,N,12215.4245,W,2,07,1.1,13.3,M,-25.1,M,1.8,0000*7F
$GPGSA,A,3,20,01,31,30,25,11,22,,,,,,2.2,1.1,1.9*3F
$GPRMC,201912.000,A,3747.6389,N,12215.4245,W,2.00,144.79,260312,,,D*78
$GPVTG,144.79,T,,M,2.00,N,3.7,K,D*01
$GPGGA,201913.000,3747.6382,N,12215.4238,W,2,07,1.1,12.9,M,-25.1,M,1.8,0000*74
$GPGSA,A,3,20,01,31,30,25,11,22,,,,,,2.2,1.1,1.9*3F
$GPRMC,201913.000,A,3747.6382,N,12215.4238,W,1.80,156.04,260312,,,D*7A
$GPVTG,156.04,T,,M,1.80,N,3.3,K,D*07
$GPGGA,201914.000,3747.6376,N,12215.4233,W,2,07,1.1,13.0,M,-25.1,M,1.8,0000*7B
$GPGSA,A,3,20,01,31,30,25,11,22,,,,,,2.2,1.1,1.9*3F
$GPRMC,201914.000,A,3747.6376,N,12215.4233,W,1.50,160.87,260312,,,D*7E
$GPVTG,160.87,T,,M,1.50,N,2.8,K,D*0E
$GPGGA,201915.000,3747.6370,N,12215.4230,W,2,07,1.1,12.4,M,-25.1,M,1.8,0000*7A
$GPGSA,A,3,20,01,31,30,25,11,22,,,,,,2.2,1.1,1.9*3F
$GPGSV,3,1,12,31,61,069,30,01,53,253,21,20,42,310,22,11,36,226,22*74
$GPGSV,3,2,12,23,23,264,21,14,21,059,32,30,17,138,33,22,09,117,33*72
$GPGSV,3,3,12,25,09,048,28,17,01,305,,16,00,157,,51,43,156,33*76
$GPRMC,201915.000,A,3747.6370,N,12215.4230,W,1.87,157.28,260312,,,D*71
$GPVTG,157.28,T,,M,1.87,N,3.5,K,D*09
$GPGGA,201916.000,3747.6370,N,12215.4226,W,2,07,1.1,11.5,M,-25.1,M,2.8,0000*7F
$GPGSA,A,3,20,01,31,30,25,11,22,,,,,,2.2,1.1,1.9*3F
$GPRMC,201916.000,A,3747.6370,N,12215.4226,W,1.56,152.21,260312,,,D*75
$GPVTG,152.21,T,,M,1.56,N,2.9,K,D*04
$GPGGA,201917.000,3747.6364,N,12215.4220,W,2,07,1.1,10.8,M,-25.1,M,3.8,0000*70
$GPGSA,A,3,20,01,31,30,25,11,22,,,,,,2.2,1.1,1.9*3F
$GPRMC,201917.000,A,3747.6364,N,12215.4220,W,1.86,154.64,260312,,,D*7D
$GPVTG,154.64,T,,M,1.86,N,3.4,K,D*02
$GPGGA,201918.000,3747.6356,N,12215.4215,W,2,07,1.1,10.9,M,-25.1,M,4.8,0000*7E
$GPGSA,A,3,20,01,31,30,25,11,22,,,,,,2.2,1.1,1.9*3F
$GPRMC,201918.000,A,3747.6356,N,12215.4215,W,1.96,163.61,260312,,,D*75
$GPVTG,163.61,T,,M,1.96,N,3.6,K,D*00
$GPGGA,201919.000,3747.6353,N,12215.4211,W,2,07,1.1,10.6,M,-25.1,M,1.8,0000*74
$GPGSA,A,3,20,01,31,30,25,11,22,,,,,,2.2,1.1,1.9*3F
$GPRMC,201919.000,A,3747.6353,N,12215.4211,W,1.68,157.20,260312,,,D*76
$GPVTG,157.20,T,,M,1.68,N,3.1,K,D*04
$GPGGA,201920.000,3747.6350,N,12215.4205,W,2,07,1.1,10.3,M,-25.1,M,2.8,0000*7E
$GPGSA,A,3,20,01,31,30,25,11,22,,,,,,2.2,1.1,1.9*3F
$GPGSV,3,1,12,31,61,069,30,01,53,253,21,20,42,310,22,11,36,226,22*74
$GPGSV,3,2,12,23,23,264,20,14,21,059,31,30,17,138,33,22,09,118,38*74
$GPGSV,3,3,12,25,09,048,16,16,01,157,,17,01,305,,51,43,156,30*79
$GPRMC,201920.000,A,3747.6350,N,12215.4205,W,1.77,150.66,260312,,,D*71
$GPVTG,150.66,T,,M,1.77,N,3.3,K,D*0D
$GPGGA,201921.000,3747.6347,N,12215.4200,W,2,07,1.1,10.8,M,-25.1,M,3.8,0000*76
$GPGSA,A,3,20,01,31,30,25,11,22,,,,,,2.2,1.1,1.9*3F
$GPRMC,201921.000,A,3747.6347,N,12215.4200,W,1.61,143.64,260312,,,D*74
$GPVTG,143.64,T,,M,1.61,N,3.0,K,D*09
$GPGGA,201922.000,3747.6345,N,12215.4189,W,2,07,1.1,11.4,M,-25.1,M,4.8,0000*7F
$GPGSA,A,3,20,01,31,30,25,11,22,,,,,,2.2,1.1,1.9*3F
$GPRMC,201922.000,A,3747.6345,N,12215.4189,W,1.32,98.35,260312,,,D*42
$GPVTG,98.35,T,,M,1.32,N,2.4,K,D*39
$GPGGA,201923.000,3747.6344,N,12215.4181,W,2,07,1.1,11.0,M,-25.1,M,5.8,0000*72
$GPGSA,A,3,20,01,31,30,25,11,22,,,,,,2.2,1.1,1.9*3F
$GPRMC,201923.000,A,3747.6344,N,12215.4181,W,1.37,99.96,260312,,,D*47
$GPVTG,99.96,T,,M,1.37,N,2.5,K,D*35
$GPGGA,201924.000,3747.6342,N,12215.4175,W,2,07,1.1,10.6,M,-25.1,M,6.8,0000*7C
$GPGSA,A,3,20,01,31,30,25,11,22,,,,,,2.2,1.1,1.9*3F
$GPRMC,201924.000,A,3747.6342,N,12215.4175,W,1.94,127.80,260312,,,D*77
$GPVTG,127.80,T,,M,1.94,N,3.6,K,D*0D
$GPGGA,201925.000,3747.6339,N,12215.4169,W,2,07,1.1,10.5,M,-25.1,M,1.8,0000*78
$GPGSA,A,3,20,01,31,30,25,11,22,,,,,,2.2,1.1,1.9*3F
$GPGSV,3,1,12,31,61,069,24,01,53,253,22,20,42,310,27,11,36,226,25*70
$GPGSV,3,2,12,23,23,264,22,14,21,059,28,30,17,138,35,22,09,118,36*76
$GPGSV,3,3,12,25,09,048,18,16,01,157,,17,01,305,,51,43,156,33*74
$GPVTG,111.29,T,,M,1.53,N,2.8,K,D*0F
$GPGGA,201926.000,3747.6335,N,12215.4168,W,2,07,1.1,9.3,M,-25.1,M,1.8,0000*48
$GPGSA,A,3,20,01,31,30,25,11,22,,,,,,2.2,1.1,1.9*3F
$GPRMC,201926.000,A,3747.6335,N,12215.4168,W,1.56,127.55,260312,,,D*7F
$GPVTG,127.55,T,,M,1.56,N,2.9,K,D*05
$GPGGA,201927.000,3747.6328,N,12215.4168,W,2,07,1.1,7.4,M,-25.1,M,2.8,0000*4F
$GPGSA,A,3,20,01,31,30,25,11,22,,,,,,2.2,1.1,1.9*3F
$GPRMC,201927.000,A,3747.6328,N,12215.4168,W,1.83,123.62,260312,,,D*7A
$GPVTG,123.62,T,,M,1.83,N,3.4,K,D*01
$GPGGA,201928.000,3747.6327,N,12215.4169,W,2,07,1.1,4.3,M,-25.1,M,3.8,0000*4B
$GPGSA,A,3,20,01,31,30,25,11,22,,,,,,2.2,1.1,1.9*3F
$GPRMC,201928.000,A,3747.6327,N,12215.4169,W,1.41,143.57,260312,,,D*75
$GPVTG,143.57,T,,M,1.41,N,2.6,K,D*0C
$GPGGA,201929.000,3747.6323,N,12215.4167,W,2,07,1.1,2.8,M,-25.1,M,4.8,0000*4A
$GPGSA,A,3,20,01,31,30,25,11,22,,,,,,2.2,1.1,1.9*3F
$GPRMC,201929.000,A,3747.6323,N,12215.4167,W,1.63,148.24,260312,,,D*71
$GPVTG,148.24,T,,M,1.63,N,3.0,K,D*04
$GPGGA,201930.000,3747.6318,N,12215.4160,W,2,07,1.1,3.0,M,-25.1,M,5.8,0000*45
$GPGSA,A,3,20,01,31,30,25,11,22,,,,,,2.2,1.1,1.9*3F
$GPGSV,3,1,12,31,61,069,26,01,53,253,28,20,42,310,26,11,36,226,22*7E
$GPGSV,3,2,12,23,23,264,21,14,21,059,24,30,17,138,33,22,09,118,37*7E
$GPGSV,3,3,12,25,09,048,17,16,01,157,,17,01,305,,51,43,156,27*7E
$GPRMC,201930.000,A,3747.6318,N,12215.4160,W,1.84,141.85,260312,,,D*7D
$GPVTG,141.85,T,,M,1.84,N,3.4,K,D*0B
$GPGGA,201931.000,3747.6312,N,12215.4154,W,2,07,1.1,3.3,M,-25.1,M,6.8,0000*49
$GPGSA,A,3,20,01,31,30,25,11,22,,,,,,2.2,1.1,1.9*3F
$GPRMC,201931.000,A,3747.6312,N,12215.4154,W,1.93,139.11,260312,,,D*75
$GPVTG,139.11,T,,M,1.93,N,3.6,K,D*0D
$GPGGA,201932.000,3747.6308,N,12215.4148,W,2,07,1.1,3.3,M,-25.1,M,1.8,0000*4B
$GPGSA,A,3,20,01,31,30,25,11,22,,,,,,2.2,1.1,1.9*3F
$GPRMC,201932.000,A,3747.6308,N,12215.4148,W,1.83,135.35,260312,,,D*7B
$GPVTG,135.35,T,,M,1.83,N,3.4,K,D*04
$GPGGA,201933.000,3747.6306,N,12215.4145,W,2,07,1.1,1.7,M,-25.1,M,2.8,0000*4C
$GPGSA,A,3,20,01,31,30,25,11,22,,,,,,2.2,1.1,1.9*3F
$GPRMC,201933.000,A,3747.6306,N,12215.4145,W,1.77,129.38,260312,,,D*72
$GPVTG,129.38,T,,M,1.77,N,3.3,K,D*08
$GPGGA,201934.000,3747.6304,N,12215.4140,W,2,07,1.1,0.5,M,-25.1,M,3.8,0000*4E
$GPGSA,A,3,20,01,31,30,25,11,22,,,,,,2.2,1.1,1.9*3F
$GPRMC,201934.000,A,3747.6304,N,12215.4140,W,1.53,136.39,260312,,,D*7B
$GPVTG,136.39,T,,M,1.53,N,2.8,K,D*0B
$GPGGA,201935.000,3747.6304,N,12215.4136,W,2,07,1.1,-0.9,M,-25.1,M,4.8,0000*68
$GPGSA,A,3,20,01,31,30,25,11,22,,,,,,2.2,1.1,1.9*3F
$GPGSV,3,1,12,31,61,069,27,01,53,253,23,20,42,310,25,11,36,226,21*74
$GPGSV,3,2,12,23,23,264,22,14,21,059,34,30,17,138,32,22,09,118,36*7C
$GPGSV,3,3,12,25,09,048,17,16,01,157,,17,01,305,,51,43,156,32*7A
$GPRMC,201935.000,A,3747.6304,N,12215.4136,W,1.44,143.27,260312,,,D*70
$GPVTG,143.27,T,,M,1.44,N,2.7,K,D*0F
$GPGGA,201936.000,3747.6301,N,12215.4139,W,2,07,1.1,-2.9,M,-25.1,M,1.8,0000*66
$GPGSA,A,3,20,01,31,30,25,11,22,,,,,,2.2,1.1,1.9*3F
$GPRMC,201936.000,A,3747.6301,N,12215.4139,W,1.46,155.61,260312,,,D*7E
$GPVTG,155.61,T,,M,1.46,N,2.7,K,D*08
$GPGGA,201937.000,3747.6297,N,12215.4134,W,2,07,1.1,-2.7,M,-25.1,M,1.8,0000*6A
$GPGSA,A,3,20,01,31,30,25,11,22,,,,,,2.2,1.1,1.9*3F
$GPRMC,201937.000,A,3747.6297,N,12215.4134,W,1.15,173.85,260312,,,D*74
$GPVTG,173.85,T,,M,1.15,N,2.1,K,D*06
$GPGGA,201938.000,3747.6289,N,12215.4134,W,2,07,1.1,-2.4,M,-25.1,M,1.8,0000*69
$GPGSA,A,3,20,01,31,30,25,11,22,,,,,,2.2,1.1,1.9*3F
$GPRMC,201938.000,A,3747.6289,N,12215.4134,W,1.79,176.83,260312,,,D*7D
$GPVTG,176.83,T,,M,1.79,N,3.3,K,D*0C
$GPGGA,201939.000,3747.6284,N,12215.4130,W,2,07,1.1,-2.3,M,-25.1,M,2.8,0000*65
$GPGSA,A,3,20,01,31,30,25,11,22,,,,,,2.2,1.1,1.9*3F
$GPRMC,201939.000,A,3747.6284,N,12215.4130,W,1.65,138.07,260312,,,D*7E
$GPVTG,138.07,T,,M,1.65,N,3.1,K,D*05
$GPGGA,201940.000,3747.6280,N,12215.4125,W,2,07,1.1,-2.0,M,-25.1,M,1.8,0000*6B
$GPGSA,A,3,20,01,31,30,25,11,22,,,,,,2.2,1.1,1.9*3F
$GPGSV,3,1,12,31,61,069,27,01,53,253,22,20,42,310,19,11,36,226,21*7A
$GPGSV,3,2,12,23,23,264,22,14,21,059,27,30,17,138,33,22,09,118,33*7A
$GPGSV,3,3,12,25,09,048,24,16,01,157,,17,01,305,,51,43,156,33*7B
$GPRMC,201940.000,A,3747.6280,N,12215.4125,W,1.74,130.16,260312,,,D*78
$GPVTG,130.16,T,,M,1.74,N,3.2,K,D*0E
$GPGGA,201941.000,3747.6270,N,12215.4117,W,2,07,1.1,-0.8,M,-25.1,M,1.8,0000*6E
$GPGSA,A,3,20,01,31,30,25,11,22,,,,,,2.2,1.1,1.9*3F
$GPRMC,201941.000,A,3747.6270,N,12215.4117,W,2.04,140.70,260312,,,D*74
$GPVTG,140.70,T,,M,2.04,N,3.8,K,D*07
$GPGGA,201942.000,3747.6264,N,12215.4112,W,2,07,1.1,-0.1,M,-25.1,M,1.8,0000*64
$GPGSA,A,3,20,01,31,30,25,11,22,,,,,,2.2,1.1,1.9*3F
$GPRMC,201942.000,A,3747.6264,N,12215.4112,W,1.32,128.01,260312,,,D*79
$GPVTG,128.01,T,,M,1.32,N,2.4,K,D*04
$GPGGA,201943.000,3747.6259,N,12215.4105,W,2,06,1.2,0.6,M,-25.1,M,,0000*62
$GPGSA,A,3,20,01,31,30,25,11,,,,,,,2.3,1.2,1.9*3D
$GPRMC,201943.000,A,3747.6259,N,12215.4105,W,1.23,130.85,260312,,,D*75
$GPVTG,130.85,T,,M,1.23,N,2.3,K,D*06
$GPGGA,201944.000,3747.6255,N,12215.4105,W,2,07,1.1,0.4,M,-25.1,M,2.8,0000*4D
$GPGSA,A,3,20,01,31,30,25,11,22,,,,,,2.2,1.1,1.9*3F
$GPRMC,201944.000,A,3747.6255,N,12215.4105,W,1.11,179.50,260312,,,D*7A
$GPVTG,179.50,T,,M,1.11,N,2.1,K,D*00
$GPGGA,201945.000,3747.6250,N,12215.4108,W,2,07,1.1,0.6,M,-25.1,M,3.8,0000*47
$GPGSA,A,3,20,01,31,30,25,11,22,,,,,,2.2,1.1,1.9*3F
$GPGSV,3,1,12,31,61,069,27,01,53,253,26,20,42,310,26,11,36,226,33*71
$GPGSV,3,2,12,23,23,264,35,14,21,059,20,30,17,138,25,22,09,118,24*7A
$GPGSV,3,3,12,25,09,048,25,16,01,157,,17,01,305,,51,43,156,26*7E
$GPRMC,201945.000,A,3747.6250,N,12215.4108,W,0.76,185.43,260312,,,D*72
$GPGGA,201946.000,3747.6245,N,12215.4110,W,2,07,1.1,1.5,M,-25.1,M,4.8,0000*4C
$GPGSA,A,3,20,01,31,30,25,11,22,,,,,,2.2,1.1,1.9*3F
$GPRMC,201946.000,A,3747.6245,N,12215.4110,W,0.62,201.91,260312,,,D*79
$GPVTG,201.91,T,,M,0.62,N,1.1,K,D*07
$GPGGA,201947.000,3747.6240,N,12215.4115,W,2,07,1.1,1.1,M,-25.1,M,5.8,0000*48
$GPGSA,A,3,20,01,31,30,25,11,22,,,,,,2.2,1.1,1.9*3F
$GPRMC,201947.000,A,3747.6240,N,12215.4115,W,1.34,208.37,260312,,,D*7F
$GPVTG,208.37,T,,M,1.34,N,2.5,K,D*07
$GPGGA,201948.000,3747.6235,N,12215.4116,W,2,07,1.1,1.8,M,-25.1,M,6.8,0000*4C
$GPGSA,A,3,20,01,31,30,25,11,22,,,,,,2.2,1.1,1.9*3F
$GPRMC,201948.000,A,3747.6235,N,12215.4116,W,1.80,213.04,260312,,,D*74
$GPVTG,213.04,T,,M,1.80,N,3.3,K,D*05
$GPGGA,201949.000,3747.6233,N,12215.4121,W,2,07,1.1,2.2,M,-25.1,M,1.8,0000*41
$GPGSA,A,3,20,01,31,30,25,11,22,,,,,,2.2,1.1,1.9*3F
$GPRMC,201949.000,A,3747.6233,N,12215.4121,W,1.35,227.23,260312,,,D*7B
$GPVTG,227.23,T,,M,1.35,N,2.5,K,D*0E
$GPGGA,201950.000,3747.6228,N,12215.4125,W,2,07,1.1,3.1,M,-25.1,M,1.8,0000*45
$GPGSA,A,3,20,01,31,30,25,11,22,,,,,,2.2,1.1,1.9*3F
$GPGSV,3,1,12,31,61,069,24,01,53,253,27,20,42,310,26,11,36,226,33*73
$GPGSV,3,2,12,23,23,264,24,14,21,059,22,30,17,138,25,22,09,118,25*79
$GPGSV,3,3,12,25,09,048,31,16,01,157,,17,01,305,,51,43,156,29*74
$GPRMC,201950.000,A,3747.6228,N,12215.4125,W,1.82,212.92,260312,,,D*7D
$GPVTG,212.92,T,,M,1.82,N,3.4,K,D*0E
$GPGGA,201951.000,3747.6222,N,12215.4132,W,2,07,1.1,2.9,M,-25.1,M,2.8,0000*42
$GPGSA,A,3,20,01,31,30,25,11,22,,,,,,2.2,1.1,1.9*3F
$GPRMC,201951.000,A,3747.6222,N,12215.4132,W,1.96,214.98,260312,,,D*79
$GPVTG,214.98,T,,M,1.96,N,3.6,K,D*05
$GPGGA,201952.000,3747.6216,N,12215.4138,W,2,07,1.1,3.9,M,-25.1,M,3.8,0000*4C
$GPGSA,A,3,20,01,31,30,25,11,22,,,,,,2.2,1.1,1.9*3F
$GPRMC,201952.000,A,3747.6216,N,12215.4138,W,2.30,217.12,260312,,,D*79
$GPVTG,217.12,T,,M,2.30,N,4.3,K,D*09
$GPGGA,201953.000,3747.6211,N,12215.4144,W,2,07,1.1,3.7,M,-25.1,M,4.8,0000*48
$GPGSA,A,3,20,01,31,30,25,11,22,,,,,,2.2,1.1,1.9*3F
$GPRMC,201953.000,A,3747.6211,N,12215.4144,W,1.88,218.07,260312,,,D*7F
$GPVTG,218.07,T,,M,1.88,N,3.5,K,D*03
$GPGGA,201954.000,3747.6207,N,12215.4149,W,2,07,1.1,4.3,M,-25.1,M,1.8,0000*43
$GPGSA,A,3,20,01,31,30,25,11,22,,,,,,2.2,1.1,1.9*3F
$GPRMC,201954.000,A,3747.6207,N,12215.4149,W,1.91,222.62,260312,,,D*70
$GPVTG,222.62,T,,M,1.91,N,3.5,K,D*01
$GPGGA,201955.000,3747.6202,N,12215.4157,W,2,07,1.1,3.2,M,-25.1,M,2.8,0000*4D
$GPGSA,A,3,20,01,31,30,25,11,22,,,,,,2.2,1.1,1.9*3F
$GPGSV,3,1,12,31,61,069,24,01,53,253,28,20,42,310,32,11,36,226,33*79
$GPGSV,3,2,12,23,23,264,32,14,21,059,22,30,17,138,18,22,09,118,25*70
$GPGSV,3,3,12,25,09,048,28,16,01,157,,17,01,305,,51,43,156,31*75
$GPRMC,201955.000,A,3747.6202,N,12215.4157,W,2.13,208.31,260312,,,D*7C
$GPVTG,208.31,T,,M,2.13,N,3.9,K,D*0A
$GPGGA,201956.000,3747.6197,N,12215.4166,W,2,07,1.1,2.1,M,-25.1,M,1.8,0000*42
$GPGSA,A,3,20,01,31,30,25,11,22,,,,,,2.2,1.1,1.9*3F
$GPRMC,201956.000,A,3747.6197,N,12215.4166,W,2.29,206.61,260312,,,D*70
$GPVTG,206.61,T,,M,2.29,N,4.2,K,D*04
$GPGGA,201957.000,3747.6192,N,12215.4177,W,2,07,1.1,1.2,M,-25.1,M,2.8,0000*45
$GPGSA,A,3,20,01,31,30,25,11,22,,,,,,2.2,1.1,1.9*3F
$GPRMC,201957.000,A,3747.6192,N,12215.4177,W,2.19,224.78,260312,,,D*7F
$GPVTG,224.78,T,,M,2.19,N,4.1,K,D*0C
$GPGGA,201958.000,3747.6188,N,12215.4187,W,2,07,1.1,-0.1,M,-25.1,M,3.8,0000*60
$GPGSA,A,3,20,01,31,30,25,11,22,,,,,,2.2,1.1,1.9*3F
$GPRMC,201958.000,A,3747.6188,N,12215.4187,W,2.27,220.44,260312,,,D*72
$GPVTG,220.44,T,,M,2.27,N,4.2,K,D*09
$GPGGA,201959.000,3747.6185,N,12215.4194,W,2,07,1.1,0.3,M,-25.1,M,4.8,0000*46
$GPGSA,A,3,20,01,31,30,25,11,22,,,,,,2.2,1.1,1.9*3F
$GPRMC,201959.000,A,3747.6185,N,12215.4194,W,1.92,225.10,260312,,,D*75
$GPVTG,225.10,T,,M,1.92,N,3.6,K,D*03
$GPGGA,202000.000,3747.6183,N,12215.4201,W,2,07,1.1,0.5,M,-25.1,M,5.8,0000*4E
$GPGSA,A,3,20,01,31,30,25,11,22,,,,,,2.2,1.1,1.9*3F
$GPGSV,3,1,12,31,61,069,18,01,53,253,28,20,42,310,32,11,36,226,31*74
$GPGSV,3,2,12,23,23,264,31,14,21,059,22,30,17,138,26,22,09,118,20*7B
$GPRMC,202000.000,A,3747.6183,N,12215.4201,W,1.62,228.57,260312,,,D*7B
$GPVTG,228.57,T,,M,1.62,N,3.0,K,D*04
$GPGGA,202001.000,3747.6180,N,12215.4203,W,2,07,1.1,2.2,M,-25.1,M,6.8,0000*48
$GPGSA,A,3,20,01,31,30,25,11,22,,,,,,2.2,1.1,1.9*3F
$GPRMC,202001.000,A,3747.6180,N,12215.4203,W,1.63,226.53,260312,,,D*70
$GPVTG,226.53,T,,M,1.63,N,3.0,K,D*0F
$GPGGA,202002.000,3747.6177,N,12215.4200,W,2,07,1.1,4.6,M,-25.1,M,7.8,0000*43
$GPGSA,A,3,20,01,31,30,25,11,22,,,,,,2.2,1.1,1.9*3F
$GPRMC,202002.000,A,3747.6177,N,12215.4200,W,1.04,212.90,260312,,,D*71
$GPVTG,212.90,T,,M,1.04,N,1.9,K,D*0D
$GPGGA,202003.000,3747.6174,N,12215.4203,W,2,07,1.1,5.2,M,-25.1,M,1.8,0000*41
$GPGSA,A,3,20,01,31,30,25,11,22,,,,,,2.2,1.1,1.9*3F
$GPRMC,202003.000,A,3747.6174,N,12215.4203,W,1.37,217.97,260312,,,D*72
$GPVTG,217.97,T,,M,1.37,N,2.5,K,D*00
$GPGGA,202004.000,3747.6172,N,12215.4210,W,2,07,1.1,5.3,M,-25.1,M,2.8,0000*40
$GPGSA,A,3,20,01,31,30,25,11,22,,,,,,2.2,1.1,1.9*3F
$GPRMC,202004.000,A,3747.6172,N,12215.4210,W,1.89,223.34,260312,,,D*7A
$GPVTG,223.34,T,,M,1.89,N,3.5,K,D*0A
$GPGGA,202005.000,3747.6169,N,12215.4215,W,2,07,1.1,5.2,M,-25.1,M,3.8,0000*4E
$GPGSA,A,3,20,01,31,30,25,11,22,,,,,,2.2,1.1,1.9*3F
$GPGSV,3,1,12,31,61,069,21,01,53,253,30,20,42,310,31,11,36,226,30*75
$GPGSV,3,2,12,23,23,264,32,14,21,059,21,30,17,138,26,22,09,118,23*78
$GPGSV,3,3,12,25,09,048,23,16,01,157,,17,01,305,,51,43,156,32*7D
$GPRMC,202005.000,A,3747.6169,N,12215.4215,W,1.30,211.62,260312,,,D*74
$GPVTG,211.62,T,,M,1.30,N,2.4,K,D*0A
$GPGGA,202006.000,3747.6167,N,12215.4223,W,2,07,1.1,4.0,M,-25.1,M,4.8,0000*42
$GPGSA,A,3,20,01,31,30,25,11,22,,,,,,2.2,1.1,1.9*3F
$GPRMC,202006.000,A,3747.6167,N,12215.4223,W,1.05,208.11,260312,,,D*76
$GPVTG,208.11,T,,M,1.05,N,1.9,K,D*0E
$GPGGA,202007.000,3747.6164,N,12215.4226,W,2,07,1.1,4.2,M,-25.1,M,5.8,0000*46
$GPGSA,A,3,20,01,31,30,25,11,22,,,,,,2.2,1.1,1.9*3F
$GPRMC,202007.000,A,3747.6164,N,12215.4226,W,1.04,208.48,260312,,,D*7C
$GPVTG,208.48,T,,M,1.04,N,1.9,K,D*03
$GPGGA,202008.000,3747.6162,N,12215.4232,W,2,07,1.1,3.3,M,-25.1,M,6.8,0000*4F
$GPGSA,A,3,20,01,31,30,25,11,22,,,,,,2.2,1.1,1.9*3F
$GPRMC,202008.000,A,3747.6162,N,12215.4232,W,0.99,225.73,260312,,,D*72
$GPVTG,225.73,T,,M,0.99,N,1.8,K,D*00
$GPGGA,202009.000,3747.6160,N,12215.4234,W,2,07,1.1,3.5,M,-25.1,M,7.8,0000*4D
$GPGSA,A,3,20,01,31,30,25,11,22,,,,,,2.2,1.1,1.9*3F
$GPRMC,202009.000,A,3747.6160,N,12215.4234,W,1.15,220.72,260312,,,D*76
$GPVTG,220.72,T,,M,1.15,N,2.1,K,D*0B
$GPGGA,202010.000,3747.6155,N,12215.4238,W,2,07,1.1,3.8,M,-25.1,M,8.8,0000*4D
$GPGSA,A,3,20,01,31,30,25,11,22,,,,,,2.2,1.1,1.9*3F
$GPGSV,3,1,12,31,61,069,23,01,53,253,30,20,42,310,30,11,36,226,30*76
$GPGSV,3,2,12,23,23,264,33,14,21,059,21,30,17,138,26,22,09,118,22*78
$GPGSV,3,3,12,25,09,048,22,16,01,157,,17,01,305,,51,43,156,29*76
$GPRMC,202010.000,A,3747.6155,N,12215.4238,W,1.36,230.65,260312,,,D*72
$GPVTG,230.65,T,,M,1.36,N,2.5,K,D*09
$GPGGA,202011.000,3747.6150,N,12215.4243,W,2,07,1.1,3.9,M,-25.1,M,9.8,0000*45
$GPGSA,A,3,20,01,31,30,25,11,22,,,,,,2.2,1.1,1.9*3F
$GPRMC,202011.000,A,3747.6150,N,12215.4243,W,1.76,227.15,260312,,,D*7F
$GPVTG,227.15,T,,M,1.76,N,3.3,K,D*0B
$GPGGA,202012.000,3747.6145,N,12215.4251,W,2,07,1.1,3.5,M,-25.1,M,10.8,0000*75
$GPGSA,A,3,20,01,31,30,25,11,22,,,,,,2.2,1.1,1.9*3F
$GPRMC,202012.000,A,3747.6145,N,12215.4251,W,1.60,230.94,260312,,,D*73
$GPVTG,230.94,T,,M,1.60,N,3.0,K,D*00
$GPGGA,202013.000,3747.6141,N,12215.4260,W,2,07,1.1,2.3,M,-25.1,M,1.8,0000*45
$GPGSA,A,3,20,01,31,30,25,11,22,,,,,,2.2,1.1,1.9*3F
$GPRMC,202013.000,A,3747.6141,N,12215.4260,W,1.32,225.90,260312,,,D*73
$GPVTG,225.90,T,,M,1.32,N,2.4,K,D*02
$GPGGA,202014.000,3747.6137,N,12215.4264,W,2,07,1.1,3.0,M,-25.1,M,2.8,0000*46
$GPGSA,A,3,20,01,31,30,25,11,22,,,,,,2.2,1.1,1.9*3F
$GPRMC,202014.000,A,3747.6137,N,12215.4264,W,1.48,210.90,260312,,,D*7A
$GPVTG,210.90,T,,M,1.48,N,2.7,K,D*0A
$GPGGA,202015.000,3747.6132,N,12215.4275,W,2,07,1.1,1.7,M,-25.1,M,3.8,0000*46
$GPGSA,A,3,20,01,31,30,25,11,22,,,,,,2.2,1.1,1.9*3F
$GPGSV,3,1,12,31,61,069,22,01,53,253,31,20,42,310,30,11,36,226,30*76
$GPGSV,3,2,12,23,23,264,31,14,21,059,21,30,17,138,26,22,09,118,23*7B
$GPGSV,3,3,12,25,09,048,22,16,01,157,,17,01,305,,51,43,156,33*7D
$GPRMC,202015.000,A,3747.6132,N,12215.4275,W,2.09,217.70,260312,,,D*71
$GPVTG,217.70,T,,M,2.09,N,3.9,K,D*0A
$GPGGA,202016.000,3747.6126,N,12215.4279,W,2,07,1.1,2.4,M,-25.1,M,4.8,0000*4B
$GPGSA,A,3,20,01,31,30,25,11,22,,,,,,2.2,1.1,1.9*3F
$GPRMC,202016.000,A,3747.6126,N,12215.4279,W,2.28,206.78,260312,,,D*70
$GPVTG,206.78,T,,M,2.28,N,4.2,K,D*0D
$GPGGA,202017.000,3747.6122,N,12215.4282,W,2,07,1.1,3.0,M,-25.1,M,5.8,0000*4E
$GPGSA,A,3,20,01,31,30,25,11,22,,,,,,2.2,1.1,1.9*3F
$GPRMC,202017.000,A,3747.6122,N,12215.4282,W,2.09,208.51,260312,,,D*77
$GPVTG,208.51,T,,M,2.09,N,3.9,K,D*07
$GPGGA,202018.000,3747.6117,N,12215.4289,W,2,07,1.1,2.1,M,-25.1,M,6.8,0000*4F
$GPGSA,A,3,20,01,31,30,25,11,22,,,,,,2.2,1.1,1.9*3F
$GPRMC,202018.000,A,3747.6117,N,12215.4289,W,2.08,219.97,260312,,,D*7E
$GPVTG,219.97,T,,M,2.08,N,3.8,K,D*0D
$GPGGA,202019.000,3747.6112,N,12215.4295,W,2,07,1.1,2.0,M,-25.1,M,7.8,0000*46
$GPGSA,A,3,20,01,31,30,25,11,22,,,,,,2.2,1.1,1.9*3F
$GPRMC,202019.000,A,3747.6112,N,12215.4295,W,2.11,222.36,260312,,,D*7C
$GPVTG,222.36,T,,M,2.11,N,3.9,K,D*07
$GPGGA,202020.000,3747.6107,N,12215.4301,W,2,07,1.1,1.7,M,-25.1,M,1.8,0000*46
$GPGSA,A,3,20,01,31,30,25,11,22,,,,,,2.2,1.1,1.9*3F
$GPGSV,3,1,12,31,61,068,23,01,53,252,31,20,42,310,29,11,35,226,30*7C
$GPGSV,3,2,12,23,23,264,33,14,20,059,21,30,17,137,21,25,09,047,26*79
$GPGSV,3,3,12,22,09,118,21,16,01,157,,17,00,305,,51,43,156,31*7E
$GPVTG,219.79,T,,M,1.94,N,3.6,K,D*05
$GPGGA,202021.000,3747.6103,N,12215.4304,W,2,07,1.1,2.2,M,-25.1,M,2.8,0000*43
$GPGSA,A,3,20,01,31,30,25,11,22,,,,,,2.2,1.1,1.9*3F
$GPRMC,202021.000,A,3747.6103,N,12215.4304,W,1.56,228.79,260312,,,D*7F
$GPVTG,228.79,T,,M,1.56,N,2.9,K,D*07
$GPGGA,202022.000,3747.6100,N,12215.4304,W,2,07,1.1,3.0,M,-25.1,M,3.8,0000*41
$GPGSA,A,3,20,01,31,30,25,11,22,,,,,,2.2,1.1,1.9*3F
$GPRMC,202022.000,A,3747.6100,N,12215.4304,W,1.39,196.59,260312,,,D*72
$GPVTG,196.59,T,,M,1.39,N,2.6,K,D*05
$GPGGA,202023.000,3747.6096,N,12215.4305,W,2,07,1.1,3.3,M,-25.1,M,4.8,0000*4B
$GPGSA,A,3,20,01,31,30,25,11,22,,,,,,2.2,1.1,1.9*3F
$GPRMC,202023.000,A,3747.6096,N,12215.4305,W,1.18,211.70,260312,,,D*78
$GPVTG,211.70,T,,M,1.18,N,2.2,K,D*05
$GPGGA,202024.000,3747.6094,N,12215.4306,W,2,07,1.1,3.8,M,-25.1,M,5.8,0000*47
$GPGSA,A,3,20,01,31,30,25,11,22,,,,,,2.2,1.1,1.9*3F
$GPRMC,202024.000,A,3747.6094,N,12215.4306,W,1.19,224.16,260312,,,D*79
$GPVTG,224.16,T,,M,1.19,N,2.2,K,D*02
$GPGGA,202025.000,3747.6091,N,12215.4308,W,2,07,1.1,3.9,M,-25.1,M,1.8,0000*48
$GPGSA,A,3,20,01,31,30,25,11,22,,,,,,2.2,1.1,1.9*3F
$GPGSV,3,1,12,31,61,068,23,01,53,252,31,20,42,310,29,11,35,226,30*7C
$GPGSV,3,2,12,23,23,264,33,14,20,059,22,30,17,137,22,25,09,047,24*7B
$GPGSV,3,3,12,22,09,118,19,16,01,157,,17,00,305,,51,43,156,32*76
$GPRMC,202025.000,A,3747.6091,N,12215.4308,W,1.68,211.38,260312,,,D*7F
$GPVTG,211.38,T,,M,1.68,N,3.1,K,D*0C
$GPGGA,202026.000,3747.6088,N,12215.4312,W,2,07,1.1,3.7,M,-25.1,M,1.8,0000*46
$GPGSA,A,3,20,01,31,30,25,11,22,,,,,,2.2,1.1,1.9*3F
$GPRMC,202026.000,A,3747.6088,N,12215.4312,W,1.75,212.85,260312,,,D*76
$GPVTG,212.85,T,,M,1.75,N,3.2,K,D*06
$GPGGA,202027.000,3747.6084,N,12215.4317,W,2,07,1.1,3.3,M,-25.1,M,2.8,0000*49
$GPGSA,A,3,20,01,31,30,25,11,22,,,,,,2.2,1.1,1.9*3F
$GPRMC,202027.000,A,3747.6084,N,12215.4317,W,1.70,224.71,260312,,,D*75
$GPVTG,224.71,T,,M,1.70,N,3.1,K,D*0E
$GPGGA,202028.000,3747.6077,N,12215.4320,W,2,07,1.1,4.2,M,-25.1,M,3.8,0000*49
$GPGSA,A,3,20,01,31,30,25,11,22,,,,,,2.2,1.1,1.9*3F
$GPRMC,202028.000,A,3747.6077,N,12215.4320,W,1.92,206.98,260312,,,D*79
$GPVTG,206.98,T,,M,1.92,N,3.6,K,D*02
$GPGGA,202029.000,3747.6072,N,12215.4322,W,2,07,1.1,5.6,M,-25.1,M,4.8,0000*4D
$GPGSA,A,3,20,01,31,30,25,11,22,,,,,,2.2,1.1,1.9*3F
$GPRMC,202029.000,A,3747.6072,N,12215.4322,W,1.45,213.03,260312,,,D*73
$GPVTG,213.03,T,,M,1.45,N,2.7,K,D*0E
$GPGGA,202030.000,3747.6069,N,12215.4326,W,2,07,1.1,6.1,M,-25.1,M,5.8,0000*4E
$GPGSA,A,3,20,01,31,30,25,11,22,,,,,,2.2,1.1,1.9*3F
$GPGSV,3,1,12,31,61,068,24,01,53,252,28,20,42,310,30,11,35,226,29*73
$GPGSV,3,2,12,23,23,264,29,14,20,059,23,30,17,137,23,25,09,047,25*71
$GPGSV,3,3,12,22,09,118,12,16,01,157,,17,00,305,,51,43,156,28*76
$GPRMC,202030.000,A,3747.6069,N,12215.4326,W,1.25,235.57,260312,,,D*76
$GPVTG,235.57,T,,M,1.25,N,2.3,K,D*09
$GPGGA,202031.000,3747.6065,N,12215.4329,W,2,06,1.2,7.1,M,-25.1,M,6.8,0000*4C
$GPGSA,A,3,20,01,31,30,25,11,,,,,,,2.3,1.2,1.9*3D
$GPRMC,202031.000,A,3747.6065,N,12215.4329,W,1.81,222.80,260312,,,D*76
$GPVTG,222.80,T,,M,1.81,N,3.4,K,D*0D
$GPGGA,202032.000,3747.6062,N,12215.4340,W,2,06,1.2,6.2,M,-25.1,M,,0000*65
$GPGSA,A,3,20,01,31,30,25,11,,,,,,,2.3,1.2,1.9*3D
$GPRMC,202032.000,A,3747.6062,N,12215.4340,W,1.75,230.36,260312,,,D*78
$GPVTG,230.36,T,,M,1.75,N,3.2,K,D*0E
$GPGGA,202033.000,3747.6059,N,12215.4347,W,2,06,1.2,5.9,M,-25.1,M,2.8,0000*47
$GPGSA,A,3,20,01,31,30,25,11,,,,,,,2.3,1.2,1.9*3D
$GPRMC,202033.000,A,3747.6059,N,12215.4347,W,1.59,230.86,260312,,,D*73
$GPVTG,230.86,T,,M,1.59,N,2.9,K,D*01
$GPGGA,202034.000,3747.6055,N,12215.4352,W,2,07,1.1,6.3,M,-25.1,M,3.8,0000*42
$GPGSA,A,3,20,01,31,30,25,11,22,,,,,,2.2,1.1,1.9*3F
$GPRMC,202034.000,A,3747.6055,N,12215.4352,W,1.72,219.40,260312,,,D*74
$GPVTG,219.40,T,,M,1.72,N,3.2,K,D*03
$GPGGA,202035.000,3747.6052,N,12215.4359,W,2,06,1.2,6.2,M,-25.1,M,4.8,0000*4B
$GPGSA,A,3,20,01,31,25,11,22,,,,,,,2.3,1.2,1.9*3E
$GPGSV,3,1,12,31,61,068,23,01,53,252,29,20,42,310,33,11,35,226,30*7E
$GPGSV,3,2,12,23,23,264,28,14,20,059,23,30,17,137,09,25,09,047,25*78
$GPGSV,3,3,12,22,09,118,21,16,01,157,,17,00,305,,51,43,156,32*7D
$GPRMC,202035.000,A,3747.6052,N,12215.4359,W,1.80,229.18,260312,,,D*7A
$GPVTG,229.18,T,,M,1.80,N,3.3,K,D*01
$GPGGA,202036.000,3747.6047,N,12215.4367,W,2,07,1.1,5.5,M,-25.1,M,1.8,0000*42
