$ADVER,3080,2.3
$GPRMC,212928.673,A,3748.7981,N,12217.8629,W,0.17,350.70,171111,,,A*70
$GPGGA,212929.673,3748.7991,N,12217.8648,W,1,05,1.5,-10.9,M,-25.1,M,,0000*7B
$GPGSA,A,3,30,05,21,18,25,,,,,,,,6.9,1.5,6.7*33
$GPRMC,212929.673,A,3748.7991,N,12217.8648,W,0.23,109.00,171111,,,A*79
$GPVTG,109.00,T,,M,0.23,N,0.4,K,A*00
$GPGGA,212930.000,3748.7994,N,12217.8653,W,1,05,1.5,-14.3,M,-25.1,M,,0000*70
$GPGSA,A,3,30,05,21,18,25,,,,,,,,6.9,1.5,6.7*33
$GPGSV,3,1,10,21,49,280,37,30,35,291,24,18,32,204,41,05,32,047,30*7C
$GPGSV,3,2,10,25,29,190,43,29,79,060,33,26,19,092,,12,06,170,*7D
$GPGSV,3,3,10,16,05,326,,02,01,073,*7A
$GPRMC,212930.000,A,3748.7994,N,12217.8653,W,0.66,119.55,171111,,,A*7C
$GPVTG,119.55,T,,M,0.66,N,1.2,K,A*07
$GPGGA,212931.000,3748.7984,N,12217.8658,W,1,05,1.5,-9.7,M,-25.1,M,,0000*43
$GPGSA,A,3,30,05,21,18,25,,,,,,,,6.9,1.5,6.7*33
$GPRMC,212931.000,A,3748.7984,N,12217.8658,W,0.51,123.94,171111,,,A*77
$GPVTG,123.94,T,,M,0.51,N,0.9,K,A*0D
$GPGGA,212932.000,3748.7983,N,12217.8662,W,1,05,1.5,-9.5,M,-25.1,M,,0000*4C
$GPGSA,A,3,30,05,21,18,25,,,,,,,,6.9,1.5,6.7*33
$GPRMC,212932.000,A,3748.7983,N,12217.8662,W,0.45,48.35,171111,,,A*48
$GPVTG,48.35,T,,M,0.45,N,0.8,K,A*3E
$GPGGA,212933.000,3748.7981,N,12217.8666,W,1,05,1.5,-9.1,M,-25.1,M,,0000*4F
$GPGSA,A,3,30,05,21,18,25,,,,,,,,6.9,1.5,6.7*33
$GPRMC,212933.000,A,3748.7981,N,12217.8666,W,0.91,59.63,171111,,,A*45
$GPVTG,59.63,T,,M,0.91,N,1.7,K,A*3A
$GPGGA,212934.000,3748.7986,N,12217.8643,W,1,05,1.5,-7.3,M,-25.1,M,,0000*44
$GPGSA,A,3,30,05,21,18,25,,,,,,,,6.9,1.5,6.7*33
$GPRMC,212934.000,A,3748.7986,N,12217.8643,W,0.90,64.63,171111,,,A*4D
$GPVTG,64.63,T,,M,0.90,N,1.7,K,A*35
$GPGGA,212935.000,3748.7988,N,12217.8631,W,1,05,1.5,-5.4,M,-25.1,M,,0000*4B
$GPGSA,A,3,30,05,21,18,25,,,,,,,,6.9,1.5,6.7*33
$GPGSV,3,1,11,21,49,280,26,30,35,291,36,18,32,204,40,05,32,047,40*78
$GPGSV,3,2,11,25,29,190,38,29,79,060,33,26,19,092,26,12,06,170,24*72
$GPGSV,3,3,11,16,05,326,,02,01,073,,48,00,000,39*4D
$GPRMC,212935.000,A,3748.7988,N,12217.8631,W,0.14,351.55,171111,,,A*7B
$GPVTG,351.55,T,,M,0.14,N,0.3,K,A*0C
$GPGGA,212936.000,3748.7989,N,12217.8627,W,1,05,1.5,-4.3,M,-25.1,M,,0000*48
$GPGSA,A,3,30,05,21,18,25,,,,,,,,6.9,1.5,6.7*33
$GPRMC,212936.000,A,3748.7989,N,12217.8627,W,0.07,210.51,171111,,,A*7C
$GPVTG,210.51,T,,M,0.07,N,0.1,K,A*0C
$GPGGA,212937.000,3748.7989,N,12217.8621,W,1,05,1.5,4.4,M,-25.1,M,,0000*65
$GPGSA,A,3,30,05,21,18,25,,,,,,,,6.9,1.5,6.7*33
$GPRMC,212937.000,A,3748.7989,N,12217.8621,W,0.54,74.86,171111,,,A*47
$GPVTG,74.86,T,,M,0.54,N,1.0,K,A*30
$GPGGA,212938.000,3748.7995,N,12217.8614,W,1,05,1.5,12.1,M,-25.1,M,,0000*53
$GPGSA,A,3,30,05,21,18,25,,,,,,,,6.9,1.5,6.7*33
$GPRMC,212938.000,A,3748.7995,N,12217.8614,W,0.54,80.18,171111,,,A*4F
$GPVTG,80.18,T,,M,0.54,N,1.0,K,A*3C
$GPGGA,212939.000,3748.8002,N,12217.8615,W,1,05,1.5,14.0,M,-25.1,M,,0000*5C
$GPGSA,A,3,30,05,21,18,25,,,,,,,,6.9,1.5,6.7*33
$GPRMC,212939.000,A,3748.8002,N,12217.8615,W,0.20,41.19,171111,,,A*48
$GPVTG,41.19,T,,M,0.20,N,0.4,K,A*36
$GPGGA,212940.000,3748.8008,N,12217.8618,W,1,04,10.0,14.9,M,-25.1,M,,0000*68
$GPGSA,A,3,30,21,18,25,,,,,,,,,10.0,10.0,1.0*3D
$GPGSV,3,1,11,21,49,280,28,30,35,291,30,18,32,204,32,05,32,047,19*79
$GPGSV,3,2,11,25,29,190,29,29,79,060,26,26,19,092,20,12,06,170,21*75
$GPGSV,3,3,11,16,05,326,,02,01,073,,48,00,000,30*44
$GPVTG,54.09,T,,M,0.70,N,1.3,K,A*30
$GPGGA,212941.000,3748.8011,N,12217.8607,W,1,05,1.5,13.8,M,-25.1,M,,0000*5D
$GPGSA,A,3,30,05,21,18,25,,,,,,,,6.9,1.5,6.7*33
$GPRMC,212941.000,A,3748.8011,N,12217.8607,W,0.87,84.28,171111,,,A*40
$GPVTG,84.28,T,,M,0.87,N,1.6,K,A*33
$GPGGA,212942.000,3748.8014,N,12217.8603,W,1,05,1.5,13.6,M,-25.1,M,,0000*51
$GPGSA,A,3,30,05,21,18,25,,,,,,,,6.9,1.5,6.7*33
$GPRMC,212942.000,A,3748.8014,N,12217.8603,W,0.48,88.89,171111,,,A*46
$GPVTG,88.89,T,,M,0.48,N,0.9,K,A*39
$GPGGA,212943.000,3748.8014,N,12217.8609,W,1,05,1.5,9.4,M,-25.1,M,,0000*63
$GPGSA,A,3,30,05,21,18,25,,,,,,,,6.9,1.5,6.7*33
$GPRMC,212943.000,A,3748.8014,N,12217.8609,W,0.16,233.77,171111,,,A*75
$GPVTG,233.77,T,,M,0.16,N,0.3,K,A*0B
$GPGGA,212944.000,3748.8011,N,12217.8622,W,1,05,1.5,6.3,M,-25.1,M,,0000*60
$GPGSA,A,3,30,05,21,18,25,,,,,,,,6.9,1.5,6.7*33
$GPRMC,212944.000,A,3748.8011,N,12217.8622,W,0.34,251.09,171111,,,A*73
$GPVTG,251.09,T,,M,0.34,N,0.6,K,A*03
$GPGGA,212945.000,3748.8008,N,12217.8635,W,1,05,1.5,4.5,M,-25.1,M,,0000*6B
$GPGSA,A,3,30,05,21,18,25,,,,,,,,6.9,1.5,6.7*33
$GPGSV,3,1,11,21,49,280,24,30,35,291,31,18,32,204,32,05,32,047,26*78
$GPGSV,3,2,11,25,29,190,27,29,79,060,24,26,19,092,19,12,06,170,25*77
$GPGSV,3,3,11,16,05,326,,02,01,073,,48,00,000,32*46
$GPRMC,212945.000,A,3748.8008,N,12217.8635,W,0.38,263.52,171111,,,A*7F
$GPVTG,263.52,T,,M,0.38,N,0.7,K,A*01
$GPGGA,212946.000,3748.8007,N,12217.8639,W,1,05,1.5,3.0,M,-25.1,M,,0000*69
$GPGSA,A,3,30,05,21,18,25,,,,,,,,6.9,1.5,6.7*33
$GPRMC,212946.000,A,3748.8007,N,12217.8639,W,0.12,223.47,171111,,,A*77
$GPVTG,223.47,T,,M,0.12,N,0.2,K,A*0C
$GPGGA,212947.000,3748.8007,N,12217.8645,W,1,05,1.5,0.3,M,-25.1,M,,0000*63
$GPGSA,A,3,30,05,21,18,25,,,,,,,,6.9,1.5,6.7*33
$GPRMC,212947.000,A,3748.8007,N,12217.8645,W,0.16,69.87,171111,,,A*49
$GPVTG,69.87,T,,M,0.16,N,0.3,K,A*39
$GPGGA,212948.000,3748.8005,N,12217.8647,W,1,05,1.5,1.2,M,-25.1,M,,0000*6C
$GPGSA,A,3,30,05,21,18,25,,,,,,,,6.9,1.5,6.7*33
$GPRMC,212948.000,A,3748.8005,N,12217.8647,W,0.08,133.07,171111,,,A*7F
$GPVTG,133.07,T,,M,0.08,N,0.1,K,A*02
$GPGGA,212949.000,3748.8001,N,12217.8655,W,1,05,1.5,0.9,M,-25.1,M,,0000*60
$GPGSA,A,3,30,05,21,18,25,,,,,,,,6.9,1.5,6.7*33
$GPRMC,212949.000,A,3748.8001,N,12217.8655,W,0.39,200.84,171111,,,A*73
$GPVTG,200.84,T,,M,0.39,N,0.7,K,A*0E
$GPGGA,212950.000,3748.7994,N,12217.8657,W,1,05,1.5,1.7,M,-25.1,M,,0000*6F
$GPGSA,A,3,30,05,21,18,25,,,,,,,,6.9,1.5,6.7*33
$GPGSV,3,1,11,21,49,280,24,30,35,291,26,18,32,204,30,05,32,047,26*7C
$GPGSV,3,2,11,25,29,190,28,29,79,060,23,26,19,092,21,12,06,170,23*72
$GPGSV,3,3,11,16,05,326,,02,01,073,,48,00,000,27*42
$GPRMC,212950.000,A,3748.7994,N,12217.8657,W,0.31,306.96,171111,,,A*7F
$GPVTG,306.96,T,,M,0.31,N,0.6,K,A*03
$GPGGA,212951.000,3748.7990,N,12217.8660,W,1,05,1.5,3.2,M,-25.1,M,,0000*69
$GPGSA,A,3,30,05,21,18,25,,,,,,,,6.9,1.5,6.7*33
$GPRMC,212951.000,A,3748.7990,N,12217.8660,W,0.08,258.48,171111,,,A*7D
$GPVTG,258.48,T,,M,0.08,N,0.2,K,A*04
$GPGGA,212952.000,3748.7988,N,12217.8659,W,1,05,1.5,2.5,M,-25.1,M,,0000*6F
$GPGSA,A,3,30,05,21,18,25,,,,,,,,6.9,1.5,6.7*33
$GPRMC,212952.000,A,3748.7988,N,12217.8659,W,0.30,106.62,171111,,,A*76
$GPVTG,106.62,T,,M,0.30,N,0.6,K,A*0B
$GPGGA,212953.000,3748.7986,N,12217.8657,W,1,05,1.5,3.7,M,-25.1,M,,0000*6D
$GPGSA,A,3,30,05,21,18,25,,,,,,,,6.9,1.5,6.7*33
$GPRMC,212953.000,A,3748.7986,N,12217.8657,W,0.15,154.69,171111,,,A*7C
$GPVTG,154.69,T,,M,0.15,N,0.3,K,A*05
$GPGGA,212954.000,3748.7984,N,12217.8656,W,1,05,1.5,3.2,M,-25.1,M,,0000*6C
$GPGSA,A,3,30,05,21,18,25,,,,,,,,6.9,1.5,6.7*33
$GPRMC,212954.000,A,3748.7984,N,12217.8656,W,0.12,76.95,171111,,,A*4D
$GPVTG,76.95,T,,M,0.12,N,0.2,K,A*31
$GPGGA,212955.000,3748.7983,N,12217.8655,W,1,05,1.5,3.0,M,-25.1,M,,0000*6B
$GPGSA,A,3,30,05,21,18,25,,,,,,,,6.9,1.5,6.7*33
$GPGSV,3,1,11,21,49,280,26,30,35,291,30,18,32,204,36,05,32,047,29*70
$GPGSV,3,2,11,25,29,190,36,29,79,060,21,26,19,092,22,12,06,170,18*74
$GPGSV,3,3,11,16,05,326,23,02,01,073,,48,00,000,30*45
$GPRMC,212955.000,A,3748.7983,N,12217.8655,W,0.10,105.73,171111,,,A*77
$GPGGA,212956.000,3748.7981,N,12217.8653,W,1,04,10.0,6.9,M,-25.1,M,,0000*54
$GPGSA,A,3,30,21,18,25,,,,,,,,,10.0,10.0,1.0*3D
$GPRMC,212956.000,A,3748.7981,N,12217.8653,W,0.28,153.95,171111,,,A*70
$GPVTG,153.95,T,,M,0.28,N,0.5,K,A*09
$GPGGA,212957.000,3748.7981,N,12217.8647,W,1,05,1.5,8.5,M,-25.1,M,,0000*66
$GPGSA,A,3,30,05,21,18,25,,,,,,,,6.9,1.5,6.7*33
$GPRMC,212957.000,A,3748.7981,N,12217.8647,W,1.10,89.25,171111,,,A*43
$GPVTG,89.25,T,,M,1.10,N,2.0,K,A*39
$GPGGA,212958.000,3748.7978,N,12217.8644,W,1,05,1.5,8.4,M,-25.1,M,,0000*6D
$GPGSA,A,3,30,05,21,18,25,,,,,,,,6.9,1.5,6.7*33
$GPRMC,212958.000,A,3748.7978,N,12217.8644,W,0.76,126.90,171111,,,A*72
$GPVTG,126.90,T,,M,0.76,N,1.4,K,A*05
$GPGGA,212959.000,3748.7976,N,12217.8645,W,1,05,1.5,7.3,M,-25.1,M,,0000*6B
$GPGSA,A,3,30,05,21,18,25,,,,,,,,6.9,1.5,6.7*33
$GPRMC,212959.000,A,3748.7976,N,12217.8645,W,0.10,124.51,171111,,,A*73
$GPVTG,124.51,T,,M,0.10,N,0.2,K,A*0D
$GPGGA,213000.000,3748.7976,N,12217.8649,W,1,05,1.5,6.9,M,-25.1,M,,0000*68
$GPGSA,A,3,30,05,21,18,25,,,,,,,,6.9,1.5,6.7*33
$GPGSV,3,1,10,21,49,280,33,30,35,291,34,18,32,204,34,05,32,047,31*7A
$GPGSV,3,2,10,25,29,190,30,29,79,060,18,26,19,092,21,12,06,170,21*70
$GPGSV,3,3,10,16,05,326,32,02,01,073,*7B
$GPRMC,213000.000,A,3748.7976,N,12217.8649,W,0.02,32.61,171111,,,A*4D
$GPVTG,32.61,T,,M,0.02,N,0.0,K,A*39
$GPGGA,213001.000,3748.7976,N,12217.8653,W,1,05,1.5,6.6,M,-25.1,M,,0000*6D
$GPGSA,A,3,30,05,21,18,25,,,,,,,,6.8,1.5,6.7*32
$GPRMC,213001.000,A,3748.7976,N,12217.8653,W,0.03,9.84,171111,,,A*75
$GPVTG,9.84,T,,M,0.03,N,0.1,K,A*0A
$GPGGA,213002.000,3748.7976,N,12217.8657,W,1,05,1.5,6.5,M,-25.1,M,,0000*69
$GPGSA,A,3,30,05,21,18,25,,,,,,,,6.8,1.5,6.7*32
$GPRMC,213002.000,A,3748.7976,N,12217.8657,W,0.04,301.59,171111,,,A*7E
$GPVTG,301.59,T,,M,0.04,N,0.1,K,A*06
$GPGGA,213003.000,3748.7975,N,12217.8661,W,1,05,1.5,6.6,M,-25.1,M,,0000*6D
$GPGSA,A,3,30,05,21,18,25,,,,,,,,6.8,1.5,6.7*32
$GPRMC,213003.000,A,3748.7975,N,12217.8661,W,0.04,300.11,171111,,,A*74
$GPVTG,300.11,T,,M,0.04,N,0.1,K,A*0B
$GPGGA,213004.000,3748.7972,N,12217.8665,W,1,05,1.5,5.9,M,-25.1,M,,0000*65
$GPGSA,A,3,30,05,21,18,25,,,,,,,,6.8,1.5,6.7*32
$GPRMC,213004.000,A,3748.7972,N,12217.8665,W,0.06,214.05,171111,,,A*73
$GPVTG,214.05,T,,M,0.06,N,0.1,K,A*08
$GPGGA,213005.000,3748.7969,N,12217.8671,W,1,05,1.5,5.3,M,-25.1,M,,0000*61
$GPGSA,A,3,30,05,21,18,25,,,,,,,,6.8,1.5,6.7*32
$GPGSV,3,1,10,21,49,280,34,30,35,291,35,18,32,204,35,05,32,047,24*79
$GPGSV,3,2,10,25,29,190,33,29,79,060,19,26,19,092,21,12,06,170,21*72
$GPGSV,3,3,10,16,05,326,32,02,01,073,*7B
$GPRMC,213005.000,A,3748.7969,N,12217.8671,W,0.07,71.27,171111,,,A*4D
$GPVTG,71.27,T,,M,0.07,N,0.1,K,A*38
$GPGGA,213006.000,3748.7966,N,12217.8680,W,1,05,1.5,3.5,M,-25.1,M,,0000*63
$GPGSA,A,3,30,05,21,18,25,,,,,,,,6.8,1.5,6.7*32
$GPRMC,213006.000,A,3748.7966,N,12217.8680,W,0.22,244.66,171111,,,A*79
$GPVTG,244.66,T,,M,0.22,N,0.4,K,A*0B
$GPGGA,213007.000,3748.7963,N,12217.8686,W,1,05,1.5,2.6,M,-25.1,M,,0000*63
$GPGSA,A,3,30,05,21,18,25,,,,,,,,6.8,1.5,6.7*32
$GPRMC,213007.000,A,3748.7963,N,12217.8686,W,0.15,254.08,171111,,,A*76
$GPVTG,254.08,T,,M,0.15,N,0.3,K,A*01
$GPGGA,213008.000,3748.7961,N,12217.8693,W,1,05,1.5,2.1,M,-25.1,M,,0000*6D
$GPGSA,A,3,30,05,21,18,25,,,,,,,,6.8,1.5,6.7*32
$GPRMC,213008.000,A,3748.7961,N,12217.8693,W,0.15,295.30,171111,,,A*79
$GPVTG,295.30,T,,M,0.15,N,0.3,K,A*07
$GPGGA,213009.000,3748.7960,N,12217.8699,W,1,05,1.5,1.7,M,-25.1,M,,0000*62
$GPGSA,A,3,30,05,21,18,25,,,,,,,,6.8,1.5,6.7*32
$GPRMC,213009.000,A,3748.7960,N,12217.8699,W,0.27,272.44,171111,,,A*78
$GPVTG,272.44,T,,M,0.27,N,0.5,K,A*0A
$GPGGA,213010.000,3748.7961,N,12217.8693,W,1,05,1.5,2.2,M,-25.1,M,,0000*67
$GPGSA,A,3,30,05,21,18,25,,,,,,,,6.8,1.5,6.7*32
$GPGSV,3,1,10,21,49,280,31,30,35,291,33,18,32,204,33,05,32,047,26*7E
$GPGSV,3,2,10,25,29,190,33,29,79,060,25,26,19,092,21,12,06,170,25*79
$GPGSV,3,3,10,16,05,326,26,02,01,073,*7E
$GPRMC,213010.000,A,3748.7961,N,12217.8693,W,0.14,62.70,171111,,,A*4F
$GPVTG,62.70,T,,M,0.14,N,0.3,K,A*38
$GPGGA,213011.000,3748.7963,N,12217.8693,W,1,05,1.5,1.8,M,-25.1,M,,0000*6D
$GPGSA,A,3,30,05,21,18,25,,,,,,,,6.8,1.5,6.7*32
$GPRMC,213011.000,A,3748.7963,N,12217.8693,W,0.50,278.29,171111,,,A*79
$GPVTG,278.29,T,,M,0.50,N,0.9,K,A*07
$GPGGA,213012.000,3748.7965,N,12217.8691,W,1,05,1.5,1.1,M,-25.1,M,,0000*63
$GPGSA,A,3,30,05,21,18,25,,,,,,,,6.8,1.5,6.7*32
$GPRMC,213012.000,A,3748.7965,N,12217.8691,W,0.14,329.33,171111,,,A*70
$GPVTG,329.33,T,,M,0.14,N,0.3,K,A*03
$GPGGA,213013.000,3748.7969,N,12217.8682,W,1,05,1.5,0.8,M,-25.1,M,,0000*64
$GPGSA,A,3,30,05,21,18,25,,,,,,,,6.8,1.5,6.7*32
$GPRMC,213013.000,A,3748.7969,N,12217.8682,W,0.26,53.03,171111,,,A*43
$GPVTG,53.03,T,,M,0.26,N,0.5,K,A*39
$GPGGA,213014.000,3748.7972,N,12217.8675,W,1,05,1.5,0.6,M,-25.1,M,,0000*6F
$GPGSA,A,3,30,05,21,18,25,,,,,,,,6.8,1.5,6.7*32
$GPRMC,213014.000,A,3748.7972,N,12217.8675,W,0.21,42.95,171111,,,A*4E
$GPVTG,42.95,T,,M,0.21,N,0.4,K,A*30
$GPGGA,213015.000,3748.7975,N,12217.8670,W,1,05,1.5,0.4,M,-25.1,M,,0000*6E
$GPGSA,A,3,30,05,21,18,25,,,,,,,,6.8,1.5,6.7*32
$GPGSV,3,1,10,21,49,280,34,30,35,291,35,18,32,204,33,05,32,047,34*7E
$GPGSV,3,2,10,25,29,190,32,29,79,060,26,26,19,092,21,12,06,170,23*7D
$GPGSV,3,3,10,16,05,326,36,02,01,073,*7F
$GPRMC,213015.000,A,3748.7975,N,12217.8670,W,0.12,11.70,171111,,,A*40
$GPVTG,11.70,T,,M,0.12,N,0.2,K,A*3B
$GPGGA,213016.000,3748.7976,N,12217.8669,W,1,05,1.5,-0.4,M,-25.1,M,,0000*4B
$GPGSA,A,3,30,05,21,18,25,,,,,,,,6.8,1.5,6.7*32
$GPRMC,213016.000,A,3748.7976,N,12217.8669,W,0.11,89.75,171111,,,A*4F
$GPVTG,89.75,T,,M,0.11,N,0.2,K,A*3C
$GPGGA,213017.000,3748.7976,N,12217.8669,W,1,05,1.5,-1.2,M,-25.1,M,,0000*4D
$GPGSA,A,3,30,05,21,18,25,,,,,,,,6.8,1.5,6.6*33
$GPRMC,213017.000,A,3748.7976,N,12217.8669,W,0.39,48.77,171111,,,A*4B
$GPVTG,48.77,T,,M,0.39,N,0.7,K,A*3C
$GPGGA,213018.000,3748.7978,N,12217.8668,W,1,05,1.5,-1.6,M,-25.1,M,,0000*49
$GPGSA,A,3,30,05,21,18,25,,,,,,,,6.8,1.5,6.6*33
$GPRMC,213018.000,A,3748.7978,N,12217.8668,W,0.13,56.68,171111,,,A*42
$GPVTG,56.68,T,,M,0.13,N,0.2,K,A*30
$GPGGA,213019.000,3748.7979,N,12217.8667,W,1,05,1.5,-1.7,M,-25.1,M,,0000*47
$GPGSA,A,3,30,05,21,18,25,,,,,,,,6.8,1.5,6.6*33
$GPRMC,213019.000,A,3748.7979,N,12217.8667,W,0.18,335.88,171111,,,A*7E
$GPVTG,335.88,T,,M,0.18,N,0.3,K,A*02
$GPGGA,213020.000,3748.7981,N,12217.8666,W,1,05,1.5,-1.7,M,-25.1,M,,0000*4B
$GPGSA,A,3,30,05,21,18,25,,,,,,,,6.8,1.5,6.6*33
$GPGSV,3,1,11,21,49,280,35,30,35,291,36,18,32,204,33,05,32,047,30*79
$GPGSV,3,2,11,25,29,190,26,29,79,060,16,26,19,092,21,12,06,170,12*78
$GPGSV,3,3,11,16,05,326,37,02,01,073,,51,00,000,24*4D
$GPVTG,349.13,T,,M,0.37,N,0.7,K,A*02
$GPGGA,213021.000,3748.7983,N,12217.8663,W,1,05,1.5,-1.8,M,-25.1,M,,0000*42
$GPGSA,A,3,30,05,21,18,25,,,,,,,,6.8,1.5,6.6*33
$GPRMC,213021.000,A,3748.7983,N,12217.8663,W,0.26,3.44,171111,,,A*7F
$GPVTG,3.44,T,,M,0.26,N,0.5,K,A*0F
$GPGGA,213022.000,3748.7985,N,12217.8660,W,1,05,1.5,-1.8,M,-25.1,M,,0000*44
$GPGSA,A,3,30,05,21,18,25,,,,,,,,6.8,1.5,6.6*33
$GPRMC,213022.000,A,3748.7985,N,12217.8660,W,0.14,12.80,171111,,,A*40
$GPVTG,12.80,T,,M,0.14,N,0.3,K,A*30
$GPGGA,213023.000,3748.7988,N,12217.8657,W,1,05,1.5,-1.8,M,-25.1,M,,0000*4C
$GPGSA,A,3,30,05,21,18,25,,,,,,,,6.8,1.5,6.6*33
$GPRMC,213023.000,A,3748.7988,N,12217.8657,W,0.15,31.24,171111,,,A*46
$GPVTG,31.24,T,,M,0.15,N,0.3,K,A*3E
$GPGGA,213024.000,3748.7989,N,12217.8654,W,1,05,1.5,-2.0,M,-25.1,M,,0000*42
$GPGSA,A,3,30,05,21,18,25,,,,,,,,6.8,1.5,6.6*33
$GPRMC,213024.000,A,3748.7989,N,12217.8654,W,0.03,21.20,171111,,,A*41
$GPVTG,21.20,T,,M,0.03,N,0.1,K,A*3E
$GPGGA,213025.000,3748.7991,N,12217.8651,W,1,05,1.5,-2.2,M,-25.1,M,,0000*4D
$GPGSA,A,3,30,05,21,18,25,,,,,,,,6.8,1.5,6.6*33
$GPGSV,3,1,11,21,49,280,34,30,35,291,37,18,32,204,33,05,32,047,30*79
$GPGSV,3,2,11,25,29,190,25,29,79,060,22,26,19,092,20,12,06,170,13*7C
$GPGSV,3,3,11,16,05,326,38,02,01,073,,51,00,000,25*43
$GPRMC,213025.000,A,3748.7991,N,12217.8651,W,0.15,77.60,171111,,,A*4C
$GPVTG,77.60,T,,M,0.15,N,0.3,K,A*3C
$GPGGA,213026.000,3748.7992,N,12217.8649,W,1,05,1.5,-2.4,M,-25.1,M,,0000*42
$GPGSA,A,3,30,05,21,18,25,,,,,,,,6.8,1.5,6.6*33
$GPRMC,213026.000,A,3748.7992,N,12217.8649,W,0.13,42.90,171111,,,A*4A
$GPVTG,42.90,T,,M,0.13,N,0.2,K,A*32
$GPGGA,213027.000,3748.7994,N,12217.8646,W,1,05,1.5,-2.7,M,-25.1,M,,0000*49
$GPGSA,A,3,30,05,21,18,25,,,,,,,,6.8,1.5,6.6*33
$GPRMC,213027.000,A,3748.7994,N,12217.8646,W,0.08,39.40,171111,,,A*49
$GPVTG,39.40,T,,M,0.08,N,0.2,K,A*39
$GPGGA,213028.000,3748.7995,N,12217.8644,W,1,05,1.5,-2.9,M,-25.1,M,,0000*4B
$GPGSA,A,3,30,05,21,18,25,,,,,,,,6.8,1.5,6.6*33
$GPRMC,213028.000,A,3748.7995,N,12217.8644,W,0.20,23.20,171111,,,A*42
$GPVTG,23.20,T,,M,0.20,N,0.4,K,A*38
$GPGGA,213029.000,3748.7997,N,12217.8643,W,1,05,1.5,-3.2,M,-25.1,M,,0000*45
$GPGSA,A,3,30,05,21,18,25,,,,,,,,6.8,1.5,6.6*33
$GPRMC,213029.000,A,3748.7997,N,12217.8643,W,0.12,11.70,171111,,,A*43
$GPVTG,11.70,T,,M,0.12,N,0.2,K,A*3B
$GPGGA,213030.000,3748.8001,N,12217.8644,W,1,05,1.5,-2.2,M,-25.1,M,,0000*42
$GPGSA,A,3,30,05,21,18,25,,,,,,,,6.8,1.5,6.6*33
$GPGSV,3,1,10,21,49,280,34,30,35,291,37,18,32,204,32,05,32,047,22*7A
$GPGSV,3,2,10,25,29,190,30,29,79,060,26,26,19,092,23,12,06,170,27*79
$GPGSV,3,3,10,16,05,326,37,02,01,073,*7E
$GPRMC,213030.000,A,3748.8001,N,12217.8644,W,0.36,40.57,171111,,,A*42
$GPVTG,40.57,T,,M,0.36,N,0.7,K,A*39
$GPGGA,213031.000,3748.8005,N,12217.8643,W,1,05,1.5,-1.2,M,-25.1,M,,0000*43
$GPGSA,A,3,30,05,21,18,25,,,,,,,,6.8,1.5,6.6*33
$GPRMC,213031.000,A,3748.8005,N,12217.8643,W,0.66,53.65,171111,,,A*46
$GPVTG,53.65,T,,M,0.66,N,1.2,K,A*3B
$GPGGA,213032.000,3748.8012,N,12217.8633,W,1,05,1.5,-0.3,M,-25.1,M,,0000*41
$GPGSA,A,3,30,05,21,18,25,,,,,,,,6.8,1.5,6.6*33
$GPRMC,213032.000,A,3748.8012,N,12217.8633,W,0.68,57.54,171111,,,A*4C
$GPVTG,57.54,T,,M,0.68,N,1.3,K,A*32
$GPGGA,213033.000,3748.8012,N,12217.8633,W,1,05,1.5,-0.6,M,-25.1,M,,0000*45
$GPGSA,A,3,30,05,21,18,25,,,,,,,,6.8,1.5,6.6*33
$GPRMC,213033.000,A,3748.8012,N,12217.8633,W,0.09,40.14,171111,,,A*48
$GPVTG,40.14,T,,M,0.09,N,0.2,K,A*37
$GPGGA,213034.000,3748.8011,N,12217.8635,W,1,05,1.5,-0.7,M,-25.1,M,,0000*46
$GPGSA,A,3,30,05,21,18,25,,,,,,,,6.8,1.5,6.6*33
$GPRMC,213034.000,A,3748.8011,N,12217.8635,W,0.01,211.70,171111,,,A*76
$GPVTG,211.70,T,,M,0.01,N,0.0,K,A*09
$GPGGA,213035.000,3748.8010,N,12217.8638,W,1,05,1.5,-0.8,M,-25.1,M,,0000*44
$GPGSA,A,3,30,05,21,18,25,,,,,,,,6.8,1.5,6.6*33
$GPGSV,3,1,10,21,49,280,33,30,35,291,37,18,32,204,32,05,32,047,30*7E
$GPGSV,3,2,10,25,29,190,28,29,79,060,27,26,19,092,23,12,06,170,26*70
$GPGSV,3,3,10,16,05,326,36,02,01,073,*7F
$GPRMC,213035.000,A,3748.8010,N,12217.8638,W,0.04,299.18,171111,,,A*70
$GPGGA,213036.000,3748.8009,N,12217.8640,W,1,05,1.5,-0.9,M,-25.1,M,,0000*41
$GPGSA,A,3,30,05,21,18,25,,,,,,,,6.8,1.5,6.6*33
$GPRMC,213036.000,A,3748.8009,N,12217.8640,W,0.08,22.04,171111,,,A*47
$GPVTG,22.04,T,,M,0.08,N,0.1,K,A*30
$GPGGA,213037.000,3748.8008,N,12217.8641,W,1,05,1.5,-1.3,M,-25.1,M,,0000*4B
$GPGSA,A,3,30,05,21,18,25,,,,,,,,6.8,1.5,6.6*33
$GPRMC,213037.000,A,3748.8008,N,12217.8641,W,0.10,9.57,171111,,,A*70
$GPVTG,9.57,T,,M,0.10,N,0.2,K,A*05
$GPGGA,213038.000,3748.8009,N,12217.8642,W,1,05,1.5,-0.8,M,-25.1,M,,0000*4C
$GPGSA,A,3,30,05,21,18,25,,,,,,,,6.8,1.5,6.6*33
$GPRMC,213038.000,A,3748.8009,N,12217.8642,W,0.04,17.28,171111,,,A*4F
$GPVTG,17.28,T,,M,0.04,N,0.1,K,A*34
$GPGGA,213039.000,3748.8010,N,12217.8642,W,1,05,1.5,-0.6,M,-25.1,M,,0000*4B
$GPGSA,A,3,30,05,21,18,25,,,,,,,,6.8,1.5,6.6*33
$GPRMC,213039.000,A,3748.8010,N,12217.8642,W,0.11,0.43,171111,,,A*79
$GPVTG,0.43,T,,M,0.11,N,0.2,K,A*08
$GPGGA,213040.000,3748.8010,N,12217.8643,W,1,05,1.5,-0.3,M,-25.1,M,,0000*41
$GPGSA,A,3,30,05,21,18,25,,,,,,,,6.8,1.5,6.6*33
$GPGSV,3,1,11,21,49,280,30,30,35,291,37,18,32,204,23,05,32,047,31*7D
$GPGSV,3,2,11,25,29,190,26,29,79,060,27,26,19,092,20,12,06,170,19*70
$GPGSV,3,3,11,16,05,326,37,02,01,073,,51,00,000,21*48
$GPRMC,213040.000,A,3748.8010,N,12217.8643,W,0.16,185.74,171111,,,A*79
$GPVTG,185.74,T,,M,0.16,N,0.3,K,A*06
$GPGGA,213041.000,3748.8010,N,12217.8644,W,1,05,1.5,0.1,M,-25.1,M,,0000*68
$GPGSA,A,3,30,05,21,18,25,,,,,,,,6.8,1.5,6.6*33
$GPRMC,213041.000,A,3748.8010,N,12217.8644,W,0.17,172.86,171111,,,A*7B
$GPVTG,172.86,T,,M,0.17,N,0.3,K,A*02
$GPGGA,213042.000,3748.8011,N,12217.8644,W,1,05,1.5,0.6,M,-25.1,M,,0000*6D
$GPGSA,A,3,30,05,21,18,25,,,,,,,,6.8,1.5,6.6*33
$GPRMC,213042.000,A,3748.8011,N,12217.8644,W,0.15,1.43,171111,,,A*77
$GPVTG,1.43,T,,M,0.15,N,0.3,K,A*0C
$GPGGA,213043.000,3748.8012,N,12217.8645,W,1,05,1.5,1.1,M,-25.1,M,,0000*68
$GPGSA,A,3,30,05,21,18,25,,,,,,,,6.8,1.5,6.6*33
$GPRMC,213043.000,A,3748.8012,N,12217.8645,W,0.20,354.73,171111,,,A*72
$GPVTG,354.73,T,,M,0.20,N,0.4,K,A*0D
$GPGGA,213044.000,3748.8013,N,12217.8645,W,1,05,1.5,1.6,M,-25.1,M,,0000*69
$GPGSA,A,3,30,05,21,18,25,,,,,,,,6.8,1.5,6.6*33
$GPRMC,213044.000,A,3748.8013,N,12217.8645,W,0.07,4.67,171111,,,A*72
$GPVTG,4.67,T,,M,0.07,N,0.1,K,A*0E
$GPGGA,213045.000,3748.8014,N,12217.8646,W,1,05,1.5,2.1,M,-25.1,M,,0000*68
$GPGSA,A,3,30,05,21,18,25,,,,,,,,6.8,1.5,6.6*33
$GPGSV,3,1,10,29,78,063,20,21,49,281,30,30,35,290,37,18,33,204,30*79
$GPGSV,3,2,10,05,32,047,31,25,28,190,30,26,19,092,23,16,06,326,37*7E
$GPGSV,3,3,10,12,05,170,22,02,01,074,*78
$GPRMC,213045.000,A,3748.8014,N,12217.8646,W,0.10,15.26,171111,,,A*44
$GPVTG,15.26,T,,M,0.10,N,0.2,K,A*3E
$GPGGA,213046.000,3748.8015,N,12217.8646,W,1,05,1.5,2.5,M,-25.1,M,,0000*6E
$GPGSA,A,3,30,05,21,18,25,,,,,,,,6.8,1.5,6.6*33
$GPRMC,213046.000,A,3748.8015,N,12217.8646,W,0.05,40.47,171111,,,A*45
$GPVTG,40.47,T,,M,0.05,N,0.1,K,A*3E
$GPGGA,213047.000,3748.8016,N,12217.8647,W,1,05,1.5,3.0,M,-25.1,M,,0000*69
$GPGSA,A,3,30,05,21,18,25,,,,,,,,6.8,1.5,6.6*33
$GPRMC,213047.000,A,3748.8016,N,12217.8647,W,0.02,355.20,171111,,,A*77
$GPVTG,355.20,T,,M,0.02,N,0.0,K,A*0E
$GPGGA,213048.000,3748.8016,N,12217.8647,W,1,05,1.5,3.5,M,-25.1,M,,0000*63
$GPGSA,A,3,30,05,21,18,25,,,,,,,,6.8,1.5,6.6*33
$GPRMC,213048.000,A,3748.8016,N,12217.8647,W,0.01,123.13,171111,,,A*78
$GPVTG,123.13,T,,M,0.01,N,0.0,K,A*0E
$GPGGA,213049.000,3748.8016,N,12217.8649,W,1,05,1.5,3.9,M,-25.1,M,,0000*60
$GPGSA,A,3,30,05,21,18,25,,,,,,,,6.8,1.5,6.6*33
$GPRMC,213049.000,A,3748.8016,N,12217.8649,W,0.64,217.86,171111,,,A*7C
$GPVTG,217.86,T,,M,0.64,N,1.2,K,A*06
$GPGGA,213050.000,3748.8011,N,12217.8655,W,1,05,1.5,4.3,M,-25.1,M,,0000*6F
$GPGSA,A,3,30,05,21,18,25,,,,,,,,6.8,1.5,6.6*33
$GPGSV,3,1,11,29,78,063,21,21,49,281,36,30,35,290,38,18,33,204,29*78
$GPGSV,3,2,11,05,32,047,28,25,28,190,31,15,20,129,18,26,19,092,23*71
$GPGSV,3,3,11,16,06,326,37,12,05,170,21,02,01,074,*48
$GPRMC,213050.000,A,3748.8011,N,12217.8655,W,1.69,223.48,171111,,,A*77
$GPVTG,223.48,T,,M,1.69,N,3.1,K,A*0E
$GPGGA,213051.000,3748.8007,N,12217.8658,W,1,05,1.5,4.6,M,-25.1,M,,0000*61
$GPGSA,A,3,30,05,21,18,25,,,,,,,,6.8,1.5,6.6*33
$GPRMC,213051.000,A,3748.8007,N,12217.8658,W,1.49,204.04,171111,,,A*73
$GPVTG,204.04,T,,M,1.49,N,2.8,K,A*09
$GPGGA,213052.000,3748.7998,N,12217.8667,W,1,06,1.1,5.9,M,-25.1,M,,0000*67
$GPGSA,A,3,30,05,21,18,25,16,,,,,,,2.5,1.1,2.2*39
$GPRMC,213052.000,A,3748.7998,N,12217.8667,W,1.64,200.37,171111,,,A*77
$GPVTG,200.37,T,,M,1.64,N,3.0,K,A*0B
$GPGGA,213053.000,3748.7992,N,12217.8670,W,1,06,1.1,7.0,M,-25.1,M,,0000*61
$GPGSA,A,3,30,05,21,18,25,16,,,,,,,2.5,1.1,2.2*39
$GPRMC,213053.000,A,3748.7992,N,12217.8670,W,1.44,192.78,171111,,,A*7B
$GPVTG,192.78,T,,M,1.44,N,2.7,K,A*0C
$GPGGA,213054.000,3748.7983,N,12217.8684,W,1,06,1.1,6.6,M,-25.1,M,,0000*6A
$GPGSA,A,3,30,05,21,18,25,16,,,,,,,2.5,1.1,2.2*39
$GPRMC,213054.000,A,3748.7983,N,12217.8684,W,2.40,216.32,171111,,,A*71
$GPVTG,216.32,T,,M,2.40,N,4.4,K,A*0F
$GPGGA,213055.000,3748.7975,N,12217.8697,W,1,06,1.1,6.5,M,-25.1,M,,0000*63
$GPGSA,A,3,30,05,21,18,25,16,,,,,,,2.5,1.1,2.2*39
$GPGSV,3,1,12,29,78,063,21,21,49,281,37,30,35,290,38,18,33,204,33*71
$GPGSV,3,2,12,05,32,047,24,25,28,190,31,15,20,128,23,26,19,092,23*77
$GPGSV,3,3,12,16,06,326,36,12,05,170,25,02,01,074,,51,43,156,31*7D
$GPRMC,213055.000,A,3748.7975,N,12217.8697,W,2.29,212.26,171111,,,A*75
$GPVTG,212.26,T,,M,2.29,N,4.2,K,A*07
$GPGGA,213056.000,3748.7968,N,12217.8702,W,1,06,1.1,6.8,M,-25.1,M,,0000*6C
$GPGSA,A,3,30,05,21,18,25,16,,,,,,,2.5,1.1,2.2*39
$GPRMC,213056.000,A,3748.7968,N,12217.8702,W,1.97,200.96,171111,,,A*79
$GPVTG,200.96,T,,M,1.97,N,3.6,K,A*0A
$GPGGA,213057.000,3748.7957,N,12217.8719,W,1,06,1.1,5.5,M,-25.1,M,,0000*65
$GPGSA,A,3,30,05,21,18,25,16,,,,,,,2.5,1.1,2.2*39
$GPRMC,213057.000,A,3748.7957,N,12217.8719,W,2.42,212.17,171111,,,A*7F
$GPVTG,212.17,T,,M,2.42,N,4.5,K,A*0F
$GPGGA,213058.000,3748.7946,N,12217.8738,W,1,06,1.1,3.9,M,-25.1,M,,0000*63
$GPGSA,A,3,30,05,21,18,25,16,,,,,,,2.5,1.1,2.2*39
$GPRMC,213058.000,A,3748.7946,N,12217.8738,W,2.71,221.14,171111,,,A*70
$GPVTG,221.14,T,,M,2.71,N,5.0,K,A*08
$GPGGA,213059.000,3748.7938,N,12217.8747,W,1,06,1.1,3.3,M,-25.1,M,,0000*69
$GPGSA,A,3,30,05,21,18,25,16,,,,,,,2.5,1.1,2.2*39
$GPRMC,213059.000,A,3748.7938,N,12217.8747,W,2.12,216.92,171111,,,A*7F
$GPVTG,216.92,T,,M,2.12,N,3.9,K,A*08
$GPGGA,213100.000,3748.7933,N,12217.8752,W,1,06,1.1,3.4,M,-25.1,M,,0000*6C
$GPGSA,A,3,30,05,21,18,25,16,,,,,,,2.5,1.1,2.2*39
$GPGSV,3,1,11,29,78,063,21,21,49,281,36,30,35,290,39,18,33,204,32*73
$GPGSV,3,2,11,05,32,047,33,25,28,190,32,15,20,128,23,26,19,092,22*70
$GPGSV,3,3,11,16,06,326,36,12,05,170,28,02,01,074,*40
$GPRMC,213100.000,A,3748.7933,N,12217.8752,W,2.47,218.00,171111,,,A*78
$GPVTG,218.00,T,,M,2.47,N,4.6,K,A*05
$GPGGA,213101.000,3748.7923,N,12217.8765,W,1,06,1.1,2.3,M,-25.1,M,,0000*6E
$GPGSA,A,3,30,05,21,18,25,16,,,,,,,2.5,1.1,2.2*39
$GPRMC,213101.000,A,3748.7923,N,12217.8765,W,2.84,220.95,171111,,,A*74
$GPVTG,220.95,T,,M,2.84,N,5.3,K,A*09
$GPGGA,213102.000,3748.7915,N,12217.8778,W,1,06,1.1,1.9,M,-25.1,M,,0000*6D
$GPGSA,A,3,30,05,21,18,25,16,,,,,,,2.5,1.1,2.2*39
$GPRMC,213102.000,A,3748.7915,N,12217.8778,W,3.45,225.34,171111,,,A*7C
$GPVTG,225.34,T,,M,3.45,N,6.4,K,A*0F
$GPGGA,213103.000,3748.7907,N,12217.8792,W,1,06,1.1,1.5,M,-25.1,M,,0000*67
$GPGSA,A,3,30,05,21,18,25,16,,,,,,,2.5,1.1,2.2*39
$GPRMC,213103.000,A,3748.7907,N,12217.8792,W,4.00,233.81,171111,,,A*75
$GPVTG,233.81,T,,M,4.00,N,7.4,K,A*01
$GPGGA,213104.000,3748.7898,N,12217.8805,W,1,06,1.1,0.9,M,-25.1,M,,0000*6B
$GPGSA,A,3,30,05,21,18,25,16,,,,,,,2.5,1.1,2.2*39
$GPRMC,213104.000,A,3748.7898,N,12217.8805,W,4.45,232.33,171111,,,A*7D
$GPVTG,232.33,T,,M,4.45,N,8.2,K,A*01
$GPGGA,213105.000,3748.7893,N,12217.8800,W,1,05,1.3,1.7,M,-25.1,M,,0000*6A
$GPGSA,A,3,30,05,21,18,16,,,,,,,,2.8,1.3,2.4*37
$GPGSV,3,1,11,29,78,063,22,21,49,281,37,30,35,290,39,18,33,204,21*73
$GPGSV,3,2,11,05,32,047,34,25,28,190,17,15,20,128,25,26,19,092,27*73
$GPGSV,3,3,11,16,06,326,36,12,05,170,25,02,01,074,*4D
$GPRMC,213105.000,A,3748.7893,N,12217.8800,W,3.00,217.29,171111,,,A*78
$GPGGA,213106.000,3748.7888,N,12217.8805,W,1,05,1.3,2.2,M,-25.1,M,,0000*60
$GPGSA,A,3,30,05,21,18,16,,,,,,,,2.8,1.3,2.4*37
$GPRMC,213106.000,A,3748.7888,N,12217.8805,W,3.15,230.46,171111,,,A*7C
$GPVTG,230.46,T,,M,3.15,N,5.8,K,A*04
$GPGGA,213107.000,3748.7892,N,12217.8781,W,1,05,1.3,4.7,M,-25.1,M,,0000*6A
$GPGSA,A,3,30,05,21,18,16,,,,,,,,2.8,1.3,2.4*37
$GPRMC,213107.000,A,3748.7892,N,12217.8781,W,1.34,199.33,171111,,,A*76
$GPVTG,199.33,T,,M,1.34,N,2.5,K,A*0D
$GPGGA,213108.000,3748.7894,N,12217.8761,W,1,05,1.3,7.0,M,-25.1,M,,0000*69
$GPGSA,A,3,30,05,21,18,16,,,,,,,,2.8,1.3,2.4*37
$GPRMC,213108.000,A,3748.7894,N,12217.8761,W,1.55,191.23,171111,,,A*7F
$GPVTG,191.23,T,,M,1.55,N,2.9,K,A*0F
$GPGGA,213109.000,3748.7893,N,12217.8758,W,1,05,1.3,8.2,M,-25.1,M,,0000*68
$GPGSA,A,3,30,05,21,18,16,,,,,,,,2.8,1.3,2.4*37
$GPRMC,213109.000,A,3748.7893,N,12217.8758,W,1.91,194.36,171111,,,A*7A
$GPVTG,194.36,T,,M,1.91,N,3.5,K,A*0B
$GPGGA,213110.000,3748.7889,N,12217.8763,W,1,06,1.1,9.0,M,-25.1,M,,0000*61
$GPGSA,A,3,30,05,21,18,25,16,,,,,,,2.5,1.1,2.2*39
$GPGSV,3,1,11,29,78,063,22,21,49,281,37,30,35,290,40,18,33,204,23*7F
$GPGSV,3,2,11,05,32,047,23,25,28,190,22,15,20,128,25,26,19,092,22*76
$GPGSV,3,3,11,16,06,326,37,12,05,170,25,02,01,074,*4C
$GPRMC,213110.000,A,3748.7889,N,12217.8763,W,1.83,198.64,171111,,,A*79
$GPVTG,198.64,T,,M,1.83,N,3.4,K,A*02
$GPGGA,213111.000,3748.7881,N,12217.8781,W,1,06,1.1,8.7,M,-25.1,M,,0000*62
$GPGSA,A,3,30,05,21,18,25,16,,,,,,,2.5,1.1,2.2*39
$GPRMC,213111.000,A,3748.7881,N,12217.8781,W,1.73,199.95,171111,,,A*7C
$GPVTG,199.95,T,,M,1.73,N,3.2,K,A*04
$GPGGA,213112.000,3748.7872,N,12217.8797,W,1,06,1.1,8.4,M,-25.1,M,,0000*69
$GPGSA,A,3,30,05,21,18,25,16,,,,,,,2.5,1.1,2.2*39
$GPRMC,213112.000,A,3748.7872,N,12217.8797,W,2.19,212.72,171111,,,A*72
$GPVTG,212.72,T,,M,2.19,N,4.1,K,A*06
$GPGGA,213113.000,3748.7864,N,12217.8805,W,1,06,1.1,8.2,M,-25.1,M,,0000*6D
$GPGSA,A,3,30,05,21,18,25,16,,,,,,,2.5,1.1,2.2*39
$GPRMC,213113.000,A,3748.7864,N,12217.8805,W,2.21,198.28,171111,,,A*75
$GPVTG,198.28,T,,M,2.21,N,4.1,K,A*03
$GPGGA,213114.000,3748.7855,N,12217.8823,W,1,06,1.1,7.8,M,-25.1,M,,0000*69
$GPGSA,A,3,30,05,21,18,25,16,,,,,,,2.5,1.1,2.2*39
$GPRMC,213114.000,A,3748.7855,N,12217.8823,W,2.30,200.76,171111,,,A*7D
$GPVTG,200.76,T,,M,2.30,N,4.3,K,A*08
$GPGGA,213115.000,3748.7844,N,12217.8841,W,1,06,1.1,7.2,M,-25.1,M,,0000*66
$GPGSA,A,3,30,05,21,18,25,16,,,,,,,2.5,1.1,2.2*39
$GPGSV,3,1,11,29,78,064,22,21,49,281,36,30,35,290,36,18,33,204,29*72
$GPGSV,3,2,11,05,32,047,23,25,28,190,25,15,20,128,25,26,19,092,22*71
$GPGSV,3,3,11,16,06,326,26,12,05,170,26,02,01,074,*4F
$GPRMC,213115.000,A,3748.7844,N,12217.8841,W,3.16,221.01,171111,,,A*7E
$GPVTG,221.01,T,,M,3.16,N,5.8,K,A*04
$GPGGA,213116.000,3748.7840,N,12217.8861,W,1,06,1.1,8.6,M,-25.1,M,,0000*68
$GPGSA,A,3,30,05,21,18,25,16,,,,,,,2.5,1.1,2.2*39
$GPRMC,213116.000,A,3748.7840,N,12217.8861,W,4.11,228.02,171111,,,A*71
$GPVTG,228.02,T,,M,4.11,N,7.6,K,A*02
$GPGGA,213117.000,3748.7836,N,12217.8875,W,1,06,1.1,10.3,M,-25.1,M,,0000*51
$GPGSA,A,3,30,05,21,18,25,16,,,,,,,2.5,1.1,2.2*39
$GPRMC,213117.000,A,3748.7836,N,12217.8875,W,3.97,223.87,171111,,,A*7B
$GPVTG,223.87,T,,M,3.97,N,7.4,K,A*0F
$GPGGA,213118.000,3748.7829,N,12217.8897,W,1,06,1.1,11.1,M,-25.1,M,,0000*5F
$GPGSA,A,3,30,05,21,18,25,16,,,,,,,2.5,1.1,2.2*39
$GPRMC,213118.000,A,3748.7829,N,12217.8897,W,3.87,228.56,171111,,,A*70
$GPVTG,228.56,T,,M,3.87,N,7.2,K,A*0F
$GPGGA,213119.000,3748.7825,N,12217.8897,W,1,06,1.1,11.6,M,-25.1,M,,0000*55
$GPGSA,A,3,30,05,21,18,25,16,,,,,,,2.5,1.1,2.2*39
$GPRMC,213119.000,A,3748.7825,N,12217.8897,W,2.08,200.22,171111,,,A*72
$GPVTG,200.22,T,,M,2.08,N,3.8,K,A*0E
$GPGGA,213120.000,3748.7816,N,12217.8908,W,1,06,1.1,11.4,M,-25.1,M,,0000*5A
$GPGSA,A,3,30,05,21,18,25,16,,,,,,,2.5,1.1,2.2*39
$GPGSV,3,1,11,29,78,064,23,21,49,281,37,30,35,290,39,18,33,204,29*7D
$GPGSV,3,2,11,05,31,047,23,25,28,190,24,15,20,128,24,26,19,091,27*74
$GPGSV,3,3,11,16,06,326,18,12,05,170,27,02,01,074,*43
$GPRMC,213120.000,A,3748.7816,N,12217.8908,W,1.94,190.55,171111,,,A*73
$GPGGA,213121.000,3748.7807,N,12217.8917,W,1,06,1.1,11.0,M,-25.1,M,,0000*51
$GPGSA,A,3,30,05,21,18,25,16,,,,,,,2.5,1.1,2.2*39
$GPRMC,213121.000,A,3748.7807,N,12217.8917,W,1.83,180.52,171111,,,A*7C
$GPVTG,180.52,T,,M,1.83,N,3.4,K,A*0E
$GPGGA,213122.000,3748.7800,N,12217.8921,W,1,06,1.1,10.6,M,-25.1,M,,0000*57
$GPGSA,A,3,30,05,21,18,25,16,,,,,,,2.5,1.1,2.2*39
$GPRMC,213122.000,A,3748.7800,N,12217.8921,W,1.33,170.94,171111,,,A*73
$GPVTG,170.94,T,,M,1.33,N,2.5,K,A*00
$GPGGA,213123.000,3748.7794,N,12217.8922,W,1,06,1.1,10.0,M,-25.1,M,,0000*51
$GPGSA,A,3,30,05,21,18,25,16,,,,,,,2.5,1.1,2.2*39
$GPRMC,213123.000,A,3748.7794,N,12217.8922,W,1.62,180.61,171111,,,A*72
$GPVTG,180.61,T,,M,1.62,N,3.0,K,A*05
$GPGGA,213124.000,3748.7790,N,12217.8927,W,1,06,1.1,10.5,M,-25.1,M,,0000*52
$GPGSA,A,3,30,05,21,18,25,16,,,,,,,2.5,1.1,2.2*39
$GPRMC,213124.000,A,3748.7790,N,12217.8927,W,0.61,161.12,171111,,,A*7D
$GPVTG,161.12,T,,M,0.61,N,1.1,K,A*0F
$GPGGA,213125.000,3748.7788,N,12217.8931,W,1,06,1.1,11.0,M,-25.1,M,,0000*59
$GPGSA,A,3,30,05,21,18,25,16,,,,,,,2.5,1.1,2.2*39
$GPGSV,3,1,11,29,78,064,23,21,49,281,37,30,35,290,38,18,33,204,28*7D
$GPGSV,3,2,11,05,31,047,23,25,28,190,24,15,20,128,26,26,19,091,29*78
$GPGSV,3,3,11,16,06,326,18,12,05,170,29,02,01,074,*4D
$GPRMC,213125.000,A,3748.7788,N,12217.8931,W,1.09,183.13,171111,,,A*70
$GPVTG,183.13,T,,M,1.09,N,2.0,K,A*0F
$GPGGA,213126.000,3748.7785,N,12217.8934,W,1,06,1.1,11.7,M,-25.1,M,,0000*55
$GPGSA,A,3,30,05,21,18,25,16,,,,,,,2.5,1.1,2.2*39
$GPRMC,213126.000,A,3748.7785,N,12217.8934,W,0.98,185.60,171111,,,A*70
$GPVTG,185.60,T,,M,0.98,N,1.8,K,A*0F
$GPGGA,213127.000,3748.7780,N,12217.8940,W,1,06,1.1,12.6,M,-25.1,M,,0000*50
$GPGSA,A,3,30,05,21,18,25,16,,,,,,,2.5,1.1,2.2*39
$GPRMC,213127.000,A,3748.7780,N,12217.8940,W,1.63,202.86,171111,,,A*76
$GPVTG,202.86,T,,M,1.63,N,3.0,K,A*04
$GPGGA,213128.000,3748.7770,N,12217.8951,W,1,06,1.1,13.0,M,-25.1,M,,0000*57
$GPGSA,A,3,30,05,21,18,25,16,,,,,,,2.5,1.1,2.2*39
$GPRMC,213128.000,A,3748.7770,N,12217.8951,W,1.96,201.69,171111,,,A*7E
$GPVTG,201.69,T,,M,1.96,N,3.6,K,A*0A
$GPGGA,213129.000,3748.7763,N,12217.8961,W,1,06,1.1,13.6,M,-25.1,M,,0000*51
$GPGSA,A,3,30,05,21,18,25,16,,,,,,,2.5,1.1,2.2*39
$GPRMC,213129.000,A,3748.7763,N,12217.8961,W,1.83,190.11,171111,,,A*7E
$GPVTG,190.11,T,,M,1.83,N,3.4,K,A*08
$GPGGA,213130.000,3748.7753,N,12217.8970,W,1,06,1.1,14.6,M,-25.1,M,,0000*5D
$GPGSA,A,3,30,05,21,18,25,16,,,,,,,2.5,1.1,2.2*39
$GPGSV,3,1,11,29,78,064,23,21,49,281,37,30,35,290,39,18,33,204,27*73
$GPGSV,3,2,11,05,31,047,23,25,28,190,24,15,20,128,26,26,19,091,26*77
$GPGSV,3,3,11,16,06,326,17,12,05,170,26,02,01,074,*4D
$GPRMC,213130.000,A,3748.7753,N,12217.8970,W,2.38,208.91,171111,,,A*7C
$GPVTG,208.91,T,,M,2.38,N,4.4,K,A*06
$GPGGA,213131.000,3748.7742,N,12217.8984,W,1,06,1.1,15.9,M,-25.1,M,,0000*59
$GPGSA,A,3,30,05,21,18,25,16,,,,,,,2.5,1.1,2.2*39
$GPRMC,213131.000,A,3748.7742,N,12217.8984,W,3.37,222.22,171111,,,A*78
$GPVTG,222.22,T,,M,3.37,N,6.2,K,A*0C
$GPGGA,213132.000,3748.7735,N,12217.8993,W,1,06,1.1,16.2,M,-25.1,M,,0000*54
$GPGSA,A,3,30,05,21,18,25,16,,,,,,,2.5,1.1,2.2*39
$GPRMC,213132.000,A,3748.7735,N,12217.8993,W,2.85,220.69,171111,,,A*78
$GPVTG,220.69,T,,M,2.85,N,5.3,K,A*0B
$GPGGA,213133.000,3748.7728,N,12217.8999,W,1,06,1.1,16.9,M,-25.1,M,,0000*58
$GPGSA,A,3,30,05,21,18,25,16,,,,,,,2.5,1.1,2.2*39
$GPRMC,213133.000,A,3748.7728,N,12217.8999,W,2.49,217.47,171111,,,A*77
$GPVTG,217.47,T,,M,2.49,N,4.6,K,A*07
$GPGGA,213134.000,3748.7722,N,12217.9004,W,1,06,1.1,17.2,M,-25.1,M,,0000*53
$GPGSA,A,3,30,05,21,18,25,16,,,,,,,2.5,1.1,2.2*39
$GPRMC,213134.000,A,3748.7722,N,12217.9004,W,2.02,208.45,171111,,,A*75
$GPVTG,208.45,T,,M,2.02,N,3.7,K,A*02
$GPGGA,213135.000,3748.7714,N,12217.9009,W,1,06,1.1,16.8,M,-25.1,M,,0000*51
$GPGSA,A,3,30,05,21,18,25,16,,,,,,,2.5,1.1,2.2*39
$GPGSV,3,1,11,29,78,064,23,21,49,281,36,30,35,290,38,18,33,204,26*72
$GPGSV,3,2,11,05,31,047,23,25,28,190,24,15,20,128,25,26,19,091,26*74
$GPGSV,3,3,11,16,06,326,16,12,05,170,26,02,01,074,*4C
$GPRMC,213135.000,A,3748.7714,N,12217.9009,W,1.73,199.86,171111,,,A*7D
$GPGGA,213136.000,3748.7707,N,12217.9013,W,1,05,1.5,16.6,M,-25.1,M,,0000*52
$GPGSA,A,3,30,05,21,18,25,,,,,,,,6.7,1.5,6.5*3F
$GPRMC,213136.000,A,3748.7707,N,12217.9013,W,1.66,188.59,171111,,,A*71
$GPVTG,188.59,T,,M,1.66,N,3.1,K,A*03
$GPGGA,213137.000,3748.7700,N,12217.9022,W,1,05,1.5,16.8,M,-25.1,M,,0000*58
$GPGSA,A,3,30,05,21,18,25,,,,,,,,6.7,1.5,6.5*3F
$GPRMC,213137.000,A,3748.7700,N,12217.9022,W,1.74,186.40,171111,,,A*70
$GPVTG,186.40,T,,M,1.74,N,3.2,K,A*05
$GPGGA,213138.000,3748.7693,N,12217.9023,W,1,05,1.5,16.9,M,-25.1,M,,0000*5C
$GPGSA,A,3,30,05,21,18,25,,,,,,,,6.7,1.5,6.5*3F
$GPRMC,213138.000,A,3748.7693,N,12217.9023,W,1.52,173.87,171111,,,A*70
$GPVTG,173.87,T,,M,1.52,N,2.8,K,A*0B
$GPGGA,213139.000,3748.7688,N,12217.9026,W,1,05,1.5,17.3,M,-25.1,M,,0000*59
$GPGSA,A,3,30,05,21,18,25,,,,,,,,6.7,1.5,6.5*3F
$GPRMC,213139.000,A,3748.7688,N,12217.9026,W,1.26,178.89,171111,,,A*78
$GPVTG,178.89,T,,M,1.26,N,2.3,K,A*06
$GPGGA,213140.000,3748.7685,N,12217.9032,W,1,05,1.5,18.3,M,-25.1,M,,0000*50
$GPGSA,A,3,30,05,21,18,25,,,,,,,,6.7,1.5,6.5*3F
$GPGSV,3,1,11,29,78,064,23,21,49,281,35,30,35,290,38,18,33,204,26*71
$GPGSV,3,2,11,05,31,047,22,25,28,190,24,15,20,128,25,26,19,091,26*75
$GPGSV,3,3,11,16,06,326,,12,05,170,23,02,01,074,*4E
$GPRMC,213140.000,A,3748.7685,N,12217.9032,W,1.50,203.27,171111,,,A*74
$GPVTG,203.27,T,,M,1.50,N,2.8,K,A*07
$GPGGA,213141.000,3748.7680,N,12217.9044,W,1,05,1.5,19.4,M,-25.1,M,,0000*53
$GPGSA,A,3,30,05,21,18,25,,,,,,,,6.7,1.5,6.5*3F
$GPRMC,213141.000,A,3748.7680,N,12217.9044,W,1.24,205.50,171111,,,A*74
$GPVTG,205.50,T,,M,1.24,N,2.3,K,A*09
$GPGGA,213142.000,3748.7679,N,12217.9047,W,1,05,1.5,20.4,M,-25.1,M,,0000*5F
$GPGSA,A,3,30,05,21,18,25,,,,,,,,6.7,1.5,6.5*3F
$GPRMC,213142.000,A,3748.7679,N,12217.9047,W,1.14,208.01,171111,,,A*78
$GPVTG,208.01,T,,M,1.14,N,2.1,K,A*01
$GPGGA,213143.000,3748.7680,N,12217.9048,W,1,05,1.5,21.7,M,-25.1,M,,0000*55
$GPGSA,A,3,30,05,21,18,25,,,,,,,,6.7,1.5,6.5*3F
$GPRMC,213143.000,A,3748.7680,N,12217.9048,W,0.60,185.37,171111,,,A*71
$GPVTG,185.37,T,,M,0.60,N,1.1,K,A*03
$GPGGA,213144.000,3748.7680,N,12217.9046,W,1,05,1.5,23.0,M,-25.1,M,,0000*59
$GPGSA,A,3,30,05,21,18,25,,,,,,,,6.7,1.5,6.5*3F
$GPRMC,213144.000,A,3748.7680,N,12217.9046,W,1.02,125.32,171111,,,A*72
$GPVTG,125.32,T,,M,1.02,N,1.9,K,A*01
$GPGGA,213145.000,3748.7683,N,12217.9040,W,1,05,1.5,23.9,M,-25.1,M,,0000*54
$GPGSA,A,3,30,05,21,18,25,,,,,,,,6.7,1.5,6.5*3F
$GPGSV,3,1,11,29,78,064,23,21,49,281,35,30,35,290,38,18,33,204,25*72
$GPGSV,3,2,11,05,31,047,22,25,28,190,23,15,20,128,25,26,19,091,25*71
$GPGSV,3,3,11,16,06,326,,12,05,170,25,02,01,074,*48
$GPRMC,213145.000,A,3748.7683,N,12217.9040,W,1.31,76.60,171111,,,A*46
$GPVTG,76.60,T,,M,1.31,N,2.4,K,A*3F
$GPGGA,213146.000,3748.7689,N,12217.9037,W,1,05,1.5,25.2,M,-25.1,M,,0000*50
$GPGSA,A,3,30,05,21,18,25,,,,,,,,6.6,1.5,6.5*3E
$GPRMC,213146.000,A,3748.7689,N,12217.9037,W,0.58,78.55,171111,,,A*49
$GPVTG,78.55,T,,M,0.58,N,1.1,K,A*3F
$GPGGA,213147.000,3748.7687,N,12217.9033,W,1,05,1.5,25.3,M,-25.1,M,,0000*5A
$GPGSA,A,3,30,05,21,18,25,,,,,,,,6.6,1.5,6.5*3E
$GPRMC,213147.000,A,3748.7687,N,12217.9033,W,0.86,180.26,171111,,,A*73
$GPVTG,180.26,T,,M,0.86,N,1.6,K,A*09
$GPGGA,213148.000,3748.7677,N,12217.9038,W,1,05,1.5,25.1,M,-25.1,M,,0000*53
$GPGSA,A,3,30,05,21,18,25,,,,,,,,6.6,1.5,6.5*3E
$GPRMC,213148.000,A,3748.7677,N,12217.9038,W,1.51,195.88,171111,,,A*73
$GPVTG,195.88,T,,M,1.51,N,2.8,K,A*0F
$GPGGA,213149.000,3748.7671,N,12217.9028,W,1,05,1.5,24.0,M,-25.1,M,,0000*55
$GPGSA,A,3,30,05,21,18,25,,,,,,,,6.6,1.5,6.5*3E
$GPRMC,213149.000,A,3748.7671,N,12217.9028,W,1.62,156.55,171111,,,A*7A
$GPVTG,156.55,T,,M,1.62,N,3.0,K,A*09
$GPGGA,213150.000,3748.7666,N,12217.9017,W,1,05,1.5,23.4,M,-25.1,M,,0000*54
$GPGSA,A,3,30,05,21,18,25,,,,,,,,6.6,1.5,6.5*3E
$GPGSV,3,1,11,29,78,066,24,21,49,282,35,30,35,290,37,18,33,205,30*7E
$GPGSV,3,2,11,05,31,047,23,25,27,190,28,15,20,128,25,26,19,091,30*70
$GPGSV,3,3,11,16,06,325,,12,05,170,24,02,00,074,*4B
$GPRMC,213150.000,A,3748.7666,N,12217.9017,W,1.41,147.95,171111,,,A*75
$GPGGA,213151.000,3748.7660,N,12217.9009,W,1,05,1.5,22.5,M,-25.1,M,,0000*5C
$GPGSA,A,3,30,05,21,18,25,,,,,,,,6.6,1.5,6.5*3E
$GPRMC,213151.000,A,3748.7660,N,12217.9009,W,1.33,170.14,171111,,,A*75
$GPVTG,170.14,T,,M,1.33,N,2.5,K,A*08
$GPGGA,213152.000,3748.7654,N,12217.9008,W,1,05,1.5,21.8,M,-25.1,M,,0000*57
$GPGSA,A,3,30,05,21,18,25,,,,,,,,6.6,1.5,6.5*3E
$GPRMC,213152.000,A,3748.7654,N,12217.9008,W,1.61,198.57,171111,,,A*76
$GPVTG,198.57,T,,M,1.61,N,3.0,K,A*0A
$GPGGA,213153.000,3748.7647,N,12217.9007,W,1,05,1.5,20.7,M,-25.1,M,,0000*55
$GPGSA,A,3,30,05,21,18,25,,,,,,,,6.6,1.5,6.5*3E
$GPRMC,213153.000,A,3748.7647,N,12217.9007,W,1.32,181.50,171111,,,A*73
$GPVTG,181.50,T,,M,1.32,N,2.4,K,A*06
$GPGGA,213154.000,3748.7642,N,12217.9001,W,1,05,1.5,19.6,M,-25.1,M,,0000*5A
$GPGSA,A,3,30,05,21,18,25,,,,,,,,6.6,1.5,6.4*3F
$GPRMC,213154.000,A,3748.7642,N,12217.9001,W,1.46,144.79,171111,,,A*76
$GPVTG,144.79,T,,M,1.46,N,2.7,K,A*04
$GPGGA,213155.000,3748.7635,N,12217.9002,W,1,05,1.5,18.4,M,-25.1,M,,0000*5B
$GPGSA,A,3,30,05,21,18,25,,,,,,,,6.6,1.5,6.4*3F
$GPGSV,3,1,11,29,78,066,24,21,49,282,35,30,35,290,39,18,33,205,31*71
$GPGSV,3,2,11,05,31,047,25,25,27,190,27,15,20,128,25,26,19,091,24*7C
$GPGSV,3,3,11,16,06,325,,12,05,170,24,02,00,074,*4B
$GPRMC,213155.000,A,3748.7635,N,12217.9002,W,1.42,190.61,171111,,,A*70
$GPVTG,190.61,T,,M,1.42,N,2.6,K,A*01
$GPGGA,213156.000,3748.7631,N,12217.9001,W,1,05,1.5,17.5,M,-25.1,M,,0000*51
$GPGSA,A,3,30,05,21,18,25,,,,,,,,6.6,1.5,6.4*3F
$GPRMC,213156.000,A,3748.7631,N,12217.9001,W,0.71,199.67,171111,,,A*7A
$GPVTG,199.67,T,,M,0.71,N,1.3,K,A*09
$GPGGA,213157.000,3748.7628,N,12217.9005,W,1,05,1.5,17.1,M,-25.1,M,,0000*58
$GPGSA,A,3,30,05,21,18,25,,,,,,,,6.6,1.5,6.4*3F
$GPRMC,213157.000,A,3748.7628,N,12217.9005,W,0.06,209.26,171111,,,A*78
$GPVTG,209.26,T,,M,0.06,N,0.1,K,A*05
$GPGGA,213158.000,3748.7633,N,12217.8997,W,1,05,1.5,13.8,M,-25.1,M,,0000*53
$GPGSA,A,3,30,05,21,18,25,,,,,,,,6.6,1.5,6.4*3F
$GPRMC,213158.000,A,3748.7633,N,12217.8997,W,0.72,60.19,171111,,,A*4C
$GPVTG,60.19,T,,M,0.72,N,1.3,K,A*34
$GPGGA,213159.000,3748.7635,N,12217.8990,W,1,05,1.5,9.7,M,-25.1,M,,0000*67
$GPGSA,A,3,30,05,21,18,25,,,,,,,,6.6,1.5,6.4*3F
$GPRMC,213159.000,A,3748.7635,N,12217.8990,W,0.29,13.60,171111,,,A*48
$GPVTG,13.60,T,,M,0.29,N,0.5,K,A*37
$GPGGA,213200.000,3748.7634,N,12217.8984,W,1,06,1.1,7.9,M,-25.1,M,,0000*6B
$GPGSA,A,3,30,05,21,18,25,16,,,,,,,2.5,1.1,2.2*39
$GPGSV,3,1,11,29,78,066,25,21,49,282,28,30,35,290,35,18,33,205,27*77
$GPGSV,3,2,11,05,31,047,25,25,27,190,31,15,20,128,25,26,19,091,24*7B
$GPGSV,3,3,11,16,06,325,18,12,05,170,27,02,00,074,*41
$GPRMC,213200.000,A,3748.7634,N,12217.8984,W,0.97,158.96,171111,,,A*71
$GPVTG,158.96,T,,M,0.97,N,1.8,K,A*09
$GPGGA,213201.000,3748.7626,N,12217.8989,W,1,06,1.1,6.4,M,-25.1,M,,0000*68
$GPGSA,A,3,30,05,21,18,25,16,,,,,,,2.5,1.1,2.2*39
$GPRMC,213201.000,A,3748.7626,N,12217.8989,W,1.27,186.12,171111,,,A*7B
$GPVTG,186.12,T,,M,1.27,N,2.3,K,A*04
$GPGGA,213202.000,3748.7620,N,12217.8993,W,1,06,1.1,5.5,M,-25.1,M,,0000*64
$GPGSA,A,3,30,05,21,18,25,16,,,,,,,2.5,1.1,2.2*39
$GPRMC,213202.000,A,3748.7620,N,12217.8993,W,1.59,208.74,171111,,,A*79
$GPVTG,208.74,T,,M,1.59,N,2.9,K,A*02
$GPGGA,213203.000,3748.7614,N,12217.8994,W,1,06,1.1,4.7,M,-25.1,M,,0000*66
$GPGSA,A,3,30,05,21,18,25,16,,,,,,,2.5,1.1,2.2*39
$GPRMC,213203.000,A,3748.7614,N,12217.8994,W,1.24,206.76,171111,,,A*7E
$GPVTG,206.76,T,,M,1.24,N,2.3,K,A*0E
$GPGGA,213204.000,3748.7608,N,12217.8997,W,1,06,1.1,3.3,M,-25.1,M,,0000*6C
$GPGSA,A,3,30,05,21,18,25,16,,,,,,,2.5,1.1,2.2*39
$GPRMC,213204.000,A,3748.7608,N,12217.8997,W,1.84,218.48,171111,,,A*7F
$GPVTG,218.48,T,,M,1.84,N,3.4,K,A*00
$GPGGA,213205.000,3748.7599,N,12217.9006,W,1,06,1.1,1.6,M,-25.1,M,,0000*61
$GPGSA,A,3,30,05,21,18,25,16,,,,,,,2.5,1.1,2.2*39
$GPGSV,3,1,11,29,78,066,25,21,49,282,34,30,35,290,36,18,33,205,30*7F
$GPGSV,3,2,11,05,31,047,27,25,27,190,33,15,20,128,24,26,19,091,28*76
$GPGSV,3,3,11,16,06,325,17,12,05,170,26,02,00,074,*4F
$GPRMC,213205.000,A,3748.7599,N,12217.9006,W,1.86,216.03,171111,,,A*76
$GPGGA,213206.000,3748.7592,N,12217.9010,W,1,06,1.1,-0.3,M,-25.1,M,,0000*47
$GPGSA,A,3,30,05,21,18,25,16,,,,,,,2.5,1.1,2.2*39
$GPRMC,213206.000,A,3748.7592,N,12217.9010,W,1.78,207.40,171111,,,A*7F
$GPVTG,207.40,T,,M,1.78,N,3.3,K,A*02
$GPGGA,213207.000,3748.7582,N,12217.9021,W,1,06,1.1,-2.3,M,-25.1,M,,0000*47
$GPGSA,A,3,30,05,21,18,25,16,,,,,,,2.5,1.1,2.2*39
$GPRMC,213207.000,A,3748.7582,N,12217.9021,W,1.53,202.18,171111,,,A*7C
$GPVTG,202.18,T,,M,1.53,N,2.8,K,A*09
$GPGGA,213208.000,3748.7575,N,12217.9029,W,1,06,1.1,-4.0,M,-25.1,M,,0000*4D
$GPGSA,A,3,30,05,21,18,25,16,,,,,,,2.5,1.1,2.2*39
$GPRMC,213208.000,A,3748.7575,N,12217.9029,W,1.77,213.16,171111,,,A*7B
$GPVTG,213.16,T,,M,1.77,N,3.3,K,A*0B
$GPGGA,213209.000,3748.7574,N,12217.9030,W,1,05,1.6,-3.4,M,-25.1,M,,0000*42
$GPGSA,A,3,30,05,21,18,25,,,,,,,,6.6,1.6,6.4*3C
$GPRMC,213209.000,A,3748.7574,N,12217.9030,W,1.76,217.13,171111,,,A*73
$GPVTG,217.13,T,,M,1.76,N,3.3,K,A*0B
$GPGGA,213210.000,3748.7570,N,12217.9034,W,1,05,1.6,-3.0,M,-25.1,M,,0000*4E
$GPGSA,A,3,30,05,21,18,25,,,,,,,,6.6,1.6,6.4*3C
$GPGSV,3,1,11,29,78,066,25,21,49,282,34,30,35,290,37,18,33,205,30*7E
$GPGSV,3,2,11,05,31,047,24,25,27,190,28,15,20,128,25,26,19,091,25*73
$GPGSV,3,3,11,16,06,325,,12,05,170,26,02,00,074,*49
$GPRMC,213210.000,A,3748.7570,N,12217.9034,W,1.63,202.65,171111,,,A*7A
$GPVTG,202.65,T,,M,1.63,N,3.0,K,A*09
$GPGGA,213211.000,3748.7566,N,12217.9035,W,1,05,1.6,-3.0,M,-25.1,M,,0000*49
$GPGSA,A,3,30,05,21,18,25,,,,,,,,6.6,1.6,6.4*3C
$GPRMC,213211.000,A,3748.7566,N,12217.9035,W,1.43,205.53,171111,,,A*7D
$GPVTG,205.53,T,,M,1.43,N,2.7,K,A*0F
$GPGGA,213212.000,3748.7561,N,12217.9038,W,1,05,1.6,-3.2,M,-25.1,M,,0000*42
$GPGSA,A,3,30,05,21,18,25,,,,,,,,6.6,1.6,6.4*3C
$GPRMC,213212.000,A,3748.7561,N,12217.9038,W,1.28,210.38,171111,,,A*70
$GPVTG,210.38,T,,M,1.28,N,2.4,K,A*08
$GPGGA,213213.000,3748.7556,N,12217.9041,W,1,05,1.6,-3.7,M,-25.1,M,,0000*4C
$GPGSA,A,3,30,05,21,18,25,,,,,,,,6.6,1.6,6.4*3C
$GPRMC,213213.000,A,3748.7556,N,12217.9041,W,1.11,181.55,171111,,,A*71
$GPVTG,181.55,T,,M,1.11,N,2.1,K,A*07
$GPGGA,213214.000,3748.7550,N,12217.9041,W,1,05,1.6,-4.1,M,-25.1,M,,0000*4C
$GPGSA,A,3,30,05,21,18,25,,,,,,,,6.6,1.6,6.4*3C
$GPRMC,213214.000,A,3748.7550,N,12217.9041,W,1.33,190.42,171111,,,A*76
$GPVTG,190.42,T,,M,1.33,N,2.5,K,A*05
$GPGGA,213215.000,3748.7543,N,12217.9048,W,1,05,1.6,-4.6,M,-25.1,M,,0000*41
$GPGSA,A,3,30,05,21,18,25,,,,,,,,6.6,1.6,6.4*3C
$GPGSV,3,1,11,29,78,067,25,21,49,282,34,30,35,290,37,18,34,205,31*79
$GPGSV,3,2,11,05,31,047,25,25,27,189,35,15,20,128,25,26,19,091,27*74
$GPGSV,3,3,11,16,06,325,,12,05,170,26,02,00,074,*49
$GPRMC,213215.000,A,3748.7543,N,12217.9048,W,1.98,205.62,171111,,,A*70
$GPVTG,205.62,T,,M,1.98,N,3.7,K,A*0A
$GPGGA,213216.000,3748.7537,N,12217.9047,W,1,05,1.6,-5.0,M,-25.1,M,,0000*49
$GPGSA,A,3,30,05,21,18,25,,,,,,,,6.6,1.6,6.4*3C
$GPRMC,213216.000,A,3748.7537,N,12217.9047,W,1.73,201.56,171111,,,A*79
$GPVTG,201.56,T,,M,1.73,N,3.2,K,A*09
$GPGGA,213217.000,3748.7532,N,12217.9048,W,1,05,1.6,-5.3,M,-25.1,M,,0000*41
$GPGSA,A,3,30,05,21,18,25,,,,,,,,6.6,1.6,6.4*3C
$GPRMC,213217.000,A,3748.7532,N,12217.9048,W,1.19,186.67,171111,,,A*70
$GPVTG,186.67,T,,M,1.19,N,2.2,K,A*0A
$GPGGA,213218.000,3748.7527,N,12217.9049,W,1,06,1.1,-5.2,M,-25.1,M,,0000*4E
$GPGSA,A,3,30,05,21,18,25,16,,,,,,,2.5,1.1,2.2*39
$GPRMC,213218.000,A,3748.7527,N,12217.9049,W,1.39,210.09,171111,,,A*7C
$GPVTG,210.09,T,,M,1.39,N,2.6,K,A*08
$GPGGA,213219.000,3748.7522,N,12217.9049,W,1,06,1.1,-5.3,M,-25.1,M,,0000*4B
$GPGSA,A,3,30,05,21,18,25,16,,,,,,,2.5,1.1,2.2*39
$GPRMC,213219.000,A,3748.7522,N,12217.9049,W,1.73,214.34,171111,,,A*7C
$GPVTG,214.34,T,,M,1.73,N,3.2,K,A*09
$GPGGA,213220.000,3748.7516,N,12217.9054,W,1,06,1.1,-5.4,M,-25.1,M,,0000*4D
$GPGSA,A,3,30,05,21,18,25,16,,,,,,,2.5,1.1,2.2*39
$GPGSV,3,1,11,29,78,067,25,21,50,282,28,30,35,290,32,18,34,205,29*70
$GPGSV,3,2,11,05,31,047,28,25,27,189,34,15,20,128,25,26,19,091,21*7E
$GPGSV,3,3,11,16,06,325,18,12,05,170,22,02,00,074,*44
$GPRMC,213220.000,A,3748.7516,N,12217.9054,W,1.09,199.15,171111,,,A*75
$GPGGA,213221.000,3748.7509,N,12217.9059,W,1,06,1.1,-4.5,M,-25.1,M,,0000*4F
$GPGSA,A,3,30,05,21,18,25,16,,,,,,,2.5,1.1,2.2*39
$GPRMC,213221.000,A,3748.7509,N,12217.9059,W,1.60,203.15,171111,,,A*78
$GPVTG,203.15,T,,M,1.60,N,3.0,K,A*0C
$GPGGA,213222.000,3748.7501,N,12217.9068,W,1,06,1.1,-3.4,M,-25.1,M,,0000*40
$GPGSA,A,3,30,05,21,18,25,16,,,,,,,2.5,1.1,2.2*39
$GPRMC,213222.000,A,3748.7501,N,12217.9068,W,1.91,202.53,171111,,,A*7C
$GPVTG,202.53,T,,M,1.91,N,3.5,K,A*04
$GPGGA,213223.000,3748.7496,N,12217.9066,W,1,06,1.1,-2.5,M,-25.1,M,,0000*40
$GPGSA,A,3,30,05,21,18,25,16,,,,,,,2.5,1.1,2.2*39
$GPRMC,213223.000,A,3748.7496,N,12217.9066,W,1.61,191.72,171111,,,A*79
$GPVTG,191.72,T,,M,1.61,N,3.0,K,A*04
$GPGGA,213224.000,3748.7492,N,12217.9069,W,1,06,1.1,-1.8,M,-25.1,M,,0000*42
$GPGSA,A,3,30,05,21,18,25,16,,,,,,,2.5,1.1,2.2*39
$GPRMC,213224.000,A,3748.7492,N,12217.9069,W,1.30,212.65,171111,,,A*7F
$GPVTG,212.65,T,,M,1.30,N,2.4,K,A*0B
$GPGGA,213225.000,3748.7486,N,12217.9077,W,1,06,1.1,-1.4,M,-25.1,M,,0000*45
$GPGSA,A,3,30,05,21,18,25,16,,,,,,,2.5,1.1,2.2*39
$GPGSV,3,1,11,29,78,067,24,21,50,282,35,30,35,290,34,18,34,205,32*71
$GPGSV,3,2,11,05,31,047,26,25,27,189,22,15,20,128,26,26,19,091,23*76
$GPGSV,3,3,11,16,06,325,18,12,05,170,18,02,00,074,*4D
$GPRMC,213225.000,A,3748.7486,N,12217.9077,W,1.29,206.63,171111,,,A*7F
$GPVTG,206.63,T,,M,1.29,N,2.4,K,A*00
$GPGGA,213226.000,3748.7482,N,12217.9081,W,1,06,1.1,-0.3,M,-25.1,M,,0000*4D
$GPGSA,A,3,30,05,21,18,25,16,,,,,,,2.5,1.1,2.2*39
$GPRMC,213226.000,A,3748.7482,N,12217.9081,W,1.83,210.20,171111,,,A*71
$GPVTG,210.20,T,,M,1.83,N,3.4,K,A*01
$GPGGA,213227.000,3748.7476,N,12217.9086,W,1,05,1.6,0.1,M,-25.1,M,,0000*6B
$GPGSA,A,3,30,05,21,18,25,,,,,,,,6.6,1.6,6.4*3C
$GPRMC,213227.000,A,3748.7476,N,12217.9086,W,2.01,209.06,171111,,,A*79
$GPVTG,209.06,T,,M,2.01,N,3.7,K,A*07
$GPGGA,213228.000,3748.7468,N,12217.9094,W,1,05,1.6,0.3,M,-25.1,M,,0000*6A
$GPGSA,A,3,30,05,21,18,25,,,,,,,,6.6,1.6,6.4*3C
$GPRMC,213228.000,A,3748.7468,N,12217.9094,W,1.85,205.03,171111,,,A*7C
$GPVTG,205.03,T,,M,1.85,N,3.4,K,A*02
$GPGGA,213229.000,3748.7460,N,12217.9102,W,1,05,1.6,0.4,M,-25.1,M,,0000*6A
$GPGSA,A,3,30,05,21,18,25,,,,,,,,6.6,1.6,6.4*3C
$GPRMC,213229.000,A,3748.7460,N,12217.9102,W,1.78,198.21,171111,,,A*7E
$GPVTG,198.21,T,,M,1.78,N,3.3,K,A*00
$GPGGA,213230.000,3748.7454,N,12217.9104,W,1,05,1.6,0.7,M,-25.1,M,,0000*60
$GPGSA,A,3,30,05,21,18,25,,,,,,,,6.6,1.6,6.4*3C
$GPGSV,3,1,11,29,78,067,25,21,50,282,36,30,35,290,38,18,34,205,32*7F
$GPGSV,3,2,11,05,31,047,26,25,27,189,32,15,20,128,27,26,19,091,24*71
$GPGSV,3,3,11,16,06,325,,12,05,170,19,02,00,074,*45
$GPRMC,213230.000,A,3748.7454,N,12217.9104,W,1.43,183.55,171111,,,A*76
$GPVTG,183.55,T,,M,1.43,N,2.7,K,A*04
$GPGGA,213231.000,3748.7452,N,12217.9098,W,1,05,1.6,0.8,M,-25.1,M,,0000*6C
$GPGSA,A,3,30,05,21,18,25,,,,,,,,6.6,1.6,6.4*3C
$GPRMC,213231.000,A,3748.7452,N,12217.9098,W,1.19,164.62,171111,,,A*77
$GPVTG,164.62,T,,M,1.19,N,2.2,K,A*03
$GPGGA,213232.000,3748.7447,N,12217.9101,W,1,05,1.6,1.0,M,-25.1,M,,0000*63
$GPGSA,A,3,30,05,21,18,25,,,,,,,,6.5,1.6,6.4*3F
$GPRMC,213232.000,A,3748.7447,N,12217.9101,W,1.51,198.10,171111,,,A*7B
$GPVTG,198.10,T,,M,1.51,N,2.8,K,A*03
$GPGGA,213233.000,3748.7439,N,12217.9109,W,1,05,1.6,0.9,M,-25.1,M,,0000*6B
$GPGSA,A,3,30,05,21,18,25,,,,,,,,6.5,1.6,6.4*3F
$GPRMC,213233.000,A,3748.7439,N,12217.9109,W,1.47,194.60,171111,,,A*77
$GPVTG,194.60,T,,M,1.47,N,2.7,K,A*00
$GPGGA,213234.000,3748.7434,N,12217.9110,W,1,05,1.6,1.0,M,-25.1,M,,0000*61
$GPGSA,A,3,30,05,21,18,25,,,,,,,,6.5,1.6,6.4*3F
$GPRMC,213234.000,A,3748.7434,N,12217.9110,W,1.17,173.91,171111,,,A*77
$GPVTG,173.91,T,,M,1.17,N,2.2,K,A*07
$GPGGA,213235.000,3748.7431,N,12217.9108,W,1,05,1.6,1.1,M,-25.1,M,,0000*6D
$GPGSA,A,3,30,05,21,18,25,,,,,,,,6.5,1.6,6.4*3F
$GPGSV,3,1,11,29,78,067,26,21,50,282,36,30,35,290,38,18,34,205,32*7C
$GPGSV,3,2,11,05,31,047,26,25,27,189,33,15,20,128,27,26,19,091,*76
$GPGSV,3,3,11,16,06,325,,12,05,170,20,02,00,074,*4F
$GPRMC,213235.000,A,3748.7431,N,12217.9108,W,1.25,183.24,171111,,,A*7A
$GPGGA,213236.000,3748.7425,N,12217.9112,W,1,05,1.6,1.2,M,-25.1,M,,0000*63
$GPGSA,A,3,30,05,21,18,25,,,,,,,,6.5,1.6,6.4*3F
$GPRMC,213236.000,A,3748.7425,N,12217.9112,W,1.44,196.75,171111,,,A*70
$GPVTG,196.75,T,,M,1.44,N,2.7,K,A*05
$GPGGA,213237.000,3748.7418,N,12217.9118,W,1,05,1.6,1.3,M,-25.1,M,,0000*67
$GPGSA,A,3,30,05,21,18,25,,,,,,,,6.5,1.6,6.3*38
$GPRMC,213237.000,A,3748.7418,N,12217.9118,W,2.10,209.01,171111,,,A*71
$GPVTG,209.01,T,,M,2.10,N,3.9,K,A*0E
$GPGGA,213238.000,3748.7410,N,12217.9127,W,1,05,1.6,1.3,M,-25.1,M,,0000*6C
$GPGSA,A,3,30,05,21,18,25,,,,,,,,6.5,1.6,6.3*38
$GPRMC,213238.000,A,3748.7410,N,12217.9127,W,2.33,210.59,171111,,,A*7E
$GPVTG,210.59,T,,M,2.33,N,4.3,K,A*07
$GPGGA,213239.000,3748.7403,N,12217.9135,W,1,05,1.6,1.6,M,-25.1,M,,0000*69
$GPGSA,A,3,30,05,21,18,25,,,,,,,,6.5,1.6,6.3*38
$GPRMC,213239.000,A,3748.7403,N,12217.9135,W,2.02,214.32,171111,,,A*75
$GPVTG,214.32,T,,M,2.02,N,3.7,K,A*0F
$GPGGA,213240.000,3748.7397,N,12217.9144,W,1,05,1.6,2.1,M,-25.1,M,,0000*6F
$GPGSA,A,3,30,05,21,18,25,,,,,,,,6.5,1.6,6.3*38
$GPGSV,3,1,11,29,78,067,26,21,50,282,35,30,35,290,38,18,34,205,32*7F
$GPGSV,3,2,11,05,31,047,26,25,27,189,26,15,20,128,26,26,19,091,26*77
$GPGSV,3,3,11,16,06,325,,12,05,170,20,02,00,074,*4F
$GPRMC,213240.000,A,3748.7397,N,12217.9144,W,1.86,216.01,171111,,,A*7A
$GPVTG,216.01,T,,M,1.86,N,3.4,K,A*01
$GPGGA,213241.000,3748.7392,N,12217.9152,W,1,05,1.6,2.5,M,-25.1,M,,0000*68
$GPGSA,A,3,30,05,21,18,25,,,,,,,,6.5,1.6,6.3*38
$GPRMC,213241.000,A,3748.7392,N,12217.9152,W,2.12,220.59,171111,,,A*7F
$GPVTG,220.59,T,,M,2.12,N,3.9,K,A*0A
$GPGGA,213242.000,3748.7388,N,12217.9158,W,1,05,1.6,3.1,M,-25.1,M,,0000*6F
$GPGSA,A,3,30,05,21,18,25,,,,,,,,6.5,1.6,6.3*38
$GPRMC,213242.000,A,3748.7388,N,12217.9158,W,1.76,198.05,171111,,,A*75
$GPVTG,198.05,T,,M,1.76,N,3.3,K,A*08
$GPGGA,213243.000,3748.7385,N,12217.9157,W,1,05,1.6,3.8,M,-25.1,M,,0000*65
$GPGSA,A,3,30,05,21,18,25,,,,,,,,6.5,1.6,6.3*38
$GPRMC,213243.000,A,3748.7385,N,12217.9157,W,1.63,192.58,171111,,,A*70
$GPVTG,192.58,T,,M,1.63,N,3.0,K,A*0D
$GPGGA,213244.000,3748.7380,N,12217.9159,W,1,05,1.6,3.8,M,-25.1,M,,0000*69
$GPGSA,A,3,30,05,21,18,25,,,,,,,,6.5,1.6,6.3*38
$GPRMC,213244.000,A,3748.7380,N,12217.9159,W,1.37,183.98,171111,,,A*71
$GPVTG,183.98,T,,M,1.37,N,2.5,K,A*04
$GPGGA,213245.000,3748.7374,N,12217.9161,W,1,05,1.6,3.6,M,-25.1,M,,0000*66
$GPGSA,A,3,30,05,21,18,25,,,,,,,,6.5,1.6,6.3*38
$GPGSV,3,1,11,29,78,067,26,21,50,282,33,30,35,290,38,18,34,205,29*73
$GPGSV,3,2,11,05,31,047,26,25,27,189,34,15,20,128,25,26,19,091,26*77
$GPGSV,3,3,11,16,06,325,,12,05,170,20,02,00,074,*4F
$GPRMC,213245.000,A,3748.7374,N,12217.9161,W,1.65,192.75,171111,,,A*74
$GPVTG,192.75,T,,M,1.65,N,3.0,K,A*04
$GPGGA,213246.000,3748.7367,N,12217.9165,W,1,05,1.6,2.8,M,-25.1,M,,0000*6C
$GPGSA,A,3,30,05,21,18,25,,,,,,,,6.5,1.6,6.3*38
$GPRMC,213246.000,A,3748.7367,N,12217.9165,W,1.38,196.63,171111,,,A*7A
$GPVTG,196.63,T,,M,1.38,N,2.6,K,A*08
$GPGGA,213247.000,3748.7364,N,12217.9163,W,1,05,1.6,1.0,M,-25.1,M,,0000*63
$GPGSA,A,3,30,05,21,18,25,,,,,,,,6.5,1.6,6.3*38
$GPRMC,213247.000,A,3748.7364,N,12217.9163,W,1.28,166.63,171111,,,A*70
$GPVTG,166.63,T,,M,1.28,N,2.4,K,A*04
$GPGGA,213248.000,3748.7358,N,12217.9167,W,1,05,1.6,-0.2,M,-25.1,M,,0000*49
$GPGSA,A,3,30,05,21,18,25,,,,,,,,6.5,1.6,6.3*38
$GPRMC,213248.000,A,3748.7358,N,12217.9167,W,1.24,163.43,171111,,,A*7F
$GPVTG,163.43,T,,M,1.24,N,2.3,K,A*08
$GPGGA,213249.000,3748.7351,N,12217.9169,W,1,05,1.6,-0.6,M,-25.1,M,,0000*4B
$GPGSA,A,3,30,05,21,18,25,,,,,,,,6.5,1.6,6.3*38
$GPRMC,213249.000,A,3748.7351,N,12217.9169,W,1.24,168.97,171111,,,A*7B
$GPVTG,168.97,T,,M,1.24,N,2.3,K,A*0A
$GPGGA,213250.000,3748.7348,N,12217.9168,W,1,05,1.6,-0.8,M,-25.1,M,,0000*44
$GPGSA,A,3,30,05,21,18,25,,,,,,,,6.5,1.6,6.3*38
$GPGSV,3,1,11,29,78,068,25,21,50,282,36,30,35,289,38,18,34,205,29*72
$GPGSV,3,2,11,05,31,046,25,25,27,189,26,15,20,128,25,26,19,091,27*77
$GPGSV,3,3,11,16,07,325,,12,05,170,20,02,00,074,*4E
$GPRMC,213250.000,A,3748.7348,N,12217.9168,W,1.28,204.18,171111,,,A*78
$GPVTG,204.18,T,,M,1.28,N,2.4,K,A*0F
$GPGGA,213251.000,3748.7342,N,12217.9175,W,1,05,1.6,-0.7,M,-25.1,M,,0000*4C
$GPGSA,A,3,30,05,21,18,25,,,,,,,,6.5,1.6,6.3*38
$GPRMC,213251.000,A,3748.7342,N,12217.9175,W,2.36,216.61,171111,,,A*7E
$GPVTG,216.61,T,,M,2.36,N,4.4,K,A*08
$GPGGA,213252.000,3748.7334,N,12217.9186,W,1,05,1.6,-0.5,M,-25.1,M,,0000*40
$GPGSA,A,3,30,05,21,18,25,,,,,,,,6.5,1.6,6.3*38
$GPRMC,213252.000,A,3748.7334,N,12217.9186,W,2.23,215.04,171111,,,A*74
$GPVTG,215.04,T,,M,2.23,N,4.1,K,A*09
$GPGGA,213253.000,3748.7325,N,12217.9196,W,1,05,1.6,-0.7,M,-25.1,M,,0000*42
$GPGSA,A,3,30,05,21,18,25,,,,,,,,6.5,1.6,6.3*38
$GPRMC,213253.000,A,3748.7325,N,12217.9196,W,2.16,209.54,171111,,,A*7A
$GPVTG,209.54,T,,M,2.16,N,4.0,K,A*06
$GPGGA,213254.000,3748.7319,N,12217.9201,W,1,05,1.6,-0.9,M,-25.1,M,,0000*49
$GPGSA,A,3,30,05,21,18,25,,,,,,,,6.5,1.6,6.3*38
$GPRMC,213254.000,A,3748.7319,N,12217.9201,W,1.67,205.27,171111,,,A*72
$GPVTG,205.27,T,,M,1.67,N,3.1,K,A*0D
$GPGGA,213255.000,3748.7313,N,12217.9204,W,1,05,1.6,-1.3,M,-25.1,M,,0000*4C
$GPGSA,A,3,30,05,21,18,25,,,,,,,,6.5,1.6,6.3*38
$GPGSV,3,1,11,29,78,068,25,21,50,282,35,30,35,289,38,18,34,205,32*7B
$GPGSV,3,2,11,05,31,046,25,25,27,189,29,15,20,128,25,26,19,091,25*7A
$GPGSV,3,3,11,16,07,325,,12,05,170,21,02,00,074,*4F
$GPRMC,213255.000,A,3748.7313,N,12217.9204,W,1.62,186.52,171111,,,A*73
$GPVTG,186.52,T,,M,1.62,N,3.0,K,A*03
$GPGGA,213256.000,3748.7303,N,12217.9218,W,1,05,1.6,-0.9,M,-25.1,M,,0000*48
$GPGSA,A,3,30,05,21,18,25,,,,,,,,6.5,1.6,6.3*38
$GPRMC,213256.000,A,3748.7303,N,12217.9218,W,1.33,196.30,171111,,,A*7D
$GPVTG,196.30,T,,M,1.33,N,2.5,K,A*06
$GPGGA,213257.000,3748.7297,N,12217.9225,W,1,05,1.6,-0.3,M,-25.1,M,,0000*41
$GPGSA,A,3,30,05,21,18,25,,,,,,,,6.5,1.6,6.3*38
$GPRMC,213257.000,A,3748.7297,N,12217.9225,W,1.24,191.84,171111,,,A*70
$GPVTG,191.84,T,,M,1.24,N,2.3,K,A*0E
$GPGGA,213258.000,3748.7289,N,12217.9240,W,1,05,1.6,0.5,M,-25.1,M,,0000*69
$GPGSA,A,3,30,05,21,18,25,,,,,,,,6.5,1.6,6.3*38
$GPRMC,213258.000,A,3748.7289,N,12217.9240,W,1.61,188.79,171111,,,A*78
$GPVTG,188.79,T,,M,1.61,N,3.0,K,A*07
$GPGGA,213259.000,3748.7284,N,12217.9242,W,1,05,1.6,0.9,M,-25.1,M,,0000*6B
$GPGSA,A,3,30,05,21,18,25,,,,,,,,6.5,1.6,6.3*38
$GPRMC,213259.000,A,3748.7284,N,12217.9242,W,1.42,168.46,171111,,,A*75
$GPVTG,168.46,T,,M,1.42,N,2.6,K,A*03
$GPGGA,213300.000,3748.7280,N,12217.9241,W,1,05,1.6,1.2,M,-25.1,M,,0000*6B
$GPGSA,A,3,30,05,21,18,25,,,,,,,,6.5,1.6,6.3*38
$GPGSV,3,1,11,29,78,068,25,21,50,282,35,30,35,289,38,18,34,205,32*7B
$GPGSV,3,2,11,05,31,046,24,25,27,189,27,15,20,128,25,26,19,091,25*75
$GPGSV,3,3,11,16,07,325,,12,05,170,20,02,00,074,*4E
$GPRMC,213300.000,A,3748.7280,N,12217.9241,W,1.46,195.53,171111,,,A*7D
$GPVTG,195.53,T,,M,1.46,N,2.7,K,A*00
$GPGGA,213301.000,3748.7277,N,12217.9237,W,1,05,1.6,1.3,M,-25.1,M,,0000*62
$GPGSA,A,3,30,05,21,18,25,,,,,,,,6.5,1.6,6.3*38
$GPRMC,213301.000,A,3748.7277,N,12217.9237,W,1.73,201.32,171111,,,A*7A
$GPVTG,201.32,T,,M,1.73,N,3.2,K,A*0B
$GPGGA,213302.000,3748.7272,N,12217.9240,W,1,05,1.6,1.2,M,-25.1,M,,0000*65
$GPGSA,A,3,30,05,21,18,25,,,,,,,,6.5,1.6,6.3*38
$GPRMC,213302.000,A,3748.7272,N,12217.9240,W,1.92,204.02,171111,,,A*75
$GPVTG,204.02,T,,M,1.92,N,3.5,K,A*05
$GPGGA,213303.000,3748.7268,N,12217.9239,W,1,05,1.6,1.1,M,-25.1,M,,0000*62
$GPGSA,A,3,30,05,21,18,25,,,,,,,,6.5,1.6,6.3*38
$GPRMC,213303.000,A,3748.7268,N,12217.9239,W,1.53,198.69,171111,,,A*77
$GPVTG,198.69,T,,M,1.53,N,2.8,K,A*0F
$GPGGA,213304.000,3748.7263,N,12217.9241,W,1,05,1.6,1.2,M,-25.1,M,,0000*62
$GPGSA,A,3,30,05,21,18,25,,,,,,,,6.5,1.6,6.3*38
$GPRMC,213304.000,A,3748.7263,N,12217.9241,W,1.52,193.35,171111,,,A*77
$GPVTG,193.35,T,,M,1.52,N,2.8,K,A*0C
$GPGGA,213305.000,3748.7258,N,12217.9244,W,1,05,1.6,1.1,M,-25.1,M,,0000*6D
$GPGSA,A,3,30,05,21,18,25,,,,,,,,6.5,1.6,6.3*38
$GPGSV,3,1,12,29,78,068,25,21,50,282,34,30,35,289,38,18,34,205,32*79
$GPGSV,3,2,12,05,31,046,26,25,27,189,25,15,20,128,24,26,19,091,25*77
$GPGSV,3,3,12,16,07,325,,12,05,170,19,02,00,074,,48,44,197,31*76
$GPRMC,213305.000,A,3748.7258,N,12217.9244,W,1.76,212.95,171111,,,A*7D
$GPGGA,213306.000,3748.7254,N,12217.9245,W,1,05,1.6,1.9,M,-25.1,M,,0000*6B
$GPGSA,A,3,30,05,21,18,25,,,,,,,,6.5,1.6,6.3*38
$GPRMC,213306.000,A,3748.7254,N,12217.9245,W,1.13,207.29,171111,,,A*73
$GPVTG,207.29,T,,M,1.13,N,2.1,K,A*03
$GPGGA,213307.000,3748.7248,N,12217.9251,W,1,05,1.6,1.6,M,-25.1,M,,0000*6D
$GPGSA,A,3,30,05,21,18,25,,,,,,,,6.5,1.6,6.3*38
$GPRMC,213307.000,A,3748.7248,N,12217.9251,W,1.76,204.02,171111,,,A*73
$GPVTG,204.02,T,,M,1.76,N,3.3,K,A*09
$GPGGA,213308.000,3748.7241,N,12217.9257,W,1,05,1.6,1.4,M,-25.1,M,,0000*6F
$GPGSA,A,3,30,05,21,18,25,,,,,,,,6.5,1.6,6.3*38
$GPRMC,213308.000,A,3748.7241,N,12217.9257,W,2.12,211.47,171111,,,A*77
$GPVTG,211.47,T,,M,2.12,N,3.9,K,A*07
$GPGGA,213309.000,3748.7235,N,12217.9259,W,1,05,1.6,1.2,M,-25.1,M,,0000*65
$GPGSA,A,3,30,05,21,18,25,,,,,,,,6.5,1.6,6.3*38
$GPRMC,213309.000,A,3748.7235,N,12217.9259,W,1.81,208.61,171111,,,A*7E
$GPVTG,208.61,T,,M,1.81,N,3.3,K,A*08
$GPGGA,213310.000,3748.7231,N,12217.9263,W,1,05,1.6,1.4,M,-25.1,M,,0000*66
$GPGSA,A,3,30,05,21,18,25,,,,,,,,6.5,1.6,6.3*38
$GPGSV,3,1,12,29,78,068,26,21,50,282,32,30,35,289,36,18,34,205,32*72
$GPGSV,3,2,12,05,31,046,26,25,27,189,25,15,20,128,24,26,19,091,31*72
$GPGSV,3,3,12,16,07,325,,12,05,170,18,02,00,074,,48,44,197,29*7E
$GPRMC,213310.000,A,3748.7231,N,12217.9263,W,1.92,223.13,171111,,,A*75
$GPVTG,223.13,T,,M,1.92,N,3.6,K,A*03
$GPGGA,213311.000,3748.7227,N,12217.9264,W,1,05,1.6,1.3,M,-25.1,M,,0000*60
$GPGSA,A,3,30,05,21,18,25,,,,,,,,6.5,1.6,6.3*38
$GPRMC,213311.000,A,3748.7227,N,12217.9264,W,2.18,221.07,171111,,,A*72
$GPVTG,221.07,T,,M,2.18,N,4.0,K,A*04
$GPGGA,213312.000,3748.7220,N,12217.9270,W,1,05,1.6,1.7,M,-25.1,M,,0000*65
$GPGSA,A,3,30,05,21,18,25,,,,,,,,6.5,1.6,6.3*38
$GPRMC,213312.000,A,3748.7220,N,12217.9270,W,1.99,209.19,171111,,,A*7C
$GPVTG,209.19,T,,M,1.99,N,3.7,K,A*0B
