$ADVER,3080,2.3
$GPRMC,211446.243,A,3747.6974,N,12215.4868,W,0.61,269.43,180412,,,A*72
$GPGGA,211451.243,3747.7002,N,12215.4922,W,1,03,6.1,25.1,M,-25.1,M,,0000*5A
$GPGSA,A,2,07,04,13,,,,,,,,,,6.1,6.1,1.0*33
$GPRMC,211451.243,A,3747.7002,N,12215.4922,W,0.88,271.66,180412,,,A*7B
$GPVTG,271.66,T,,M,0.88,N,1.6,K,N*01
$GPGGA,211519.243,3747.7012,N,12215.4900,W,2,03,6.0,25.1,M,-25.1,M,3.1,0000*78
$GPGSA,A,2,07,04,13,,,,,,,,,,6.1,6.0,1.0*32
$GPRMC,211519.243,A,3747.7012,N,12215.4900,W,0.62,282.83,180412,,,D*71
$GPVTG,282.83,T,,M,0.62,N,1.2,K,N*06
$GPGGA,211520.243,3747.7011,N,12215.4895,W,2,03,6.0,25.1,M,-25.1,M,3.1,0000*7C
$GPGSA,A,2,07,04,13,,,,,,,,,,6.1,6.0,1.0*32
$GPRMC,211520.243,A,3747.7011,N,12215.4895,W,0.88,274.79,180412,,,D*7D
$GPVTG,274.79,T,,M,0.88,N,1.6,K,N*0A
$GPGGA,211521.243,3747.7007,N,12215.4891,W,2,03,6.0,25.1,M,-25.1,M,3.1,0000*7E
$GPGSA,A,2,07,04,13,,,,,,,,,,6.0,6.0,1.0*33
$GPRMC,211521.243,A,3747.7007,N,12215.4891,W,1.02,263.43,180412,,,D*73
$GPVTG,263.43,T,,M,1.02,N,1.9,K,N*09
$GPGGA,211522.243,3747.7007,N,12215.4894,W,2,03,6.0,25.1,M,-25.1,M,4.1,0000*7F
$GPGSA,A,2,07,04,13,,,,,,,,,,6.0,6.0,1.0*33
$GPRMC,211522.243,A,3747.7007,N,12215.4894,W,0.82,263.14,180412,,,D*7E
$GPVTG,263.14,T,,M,0.82,N,1.5,K,N*0E
$GPGGA,211545.243,3747.7005,N,12215.4932,W,2,03,5.9,25.1,M,-25.1,M,3.1,0000*7C
$GPGSA,A,2,07,04,13,,,,,,,,,,6.0,5.9,1.0*39
$GPRMC,211545.243,A,3747.7005,N,12215.4932,W,0.81,272.43,180412,,,D*71
$GPVTG,272.43,T,,M,0.81,N,1.5,K,N*0F
$GPGGA,211546.243,3747.7007,N,12215.4934,W,2,03,5.9,25.1,M,-25.1,M,4.1,0000*7C
$GPGSA,A,2,07,04,13,,,,,,,,,,6.0,5.9,1.0*39
$GPRMC,211546.243,A,3747.7007,N,12215.4934,W,0.79,292.19,180412,,,D*70
$GPVTG,292.19,T,,M,0.79,N,1.5,K,N*09
$GPGGA,211547.243,3747.7008,N,12215.4936,W,2,03,5.9,25.1,M,-25.1,M,3.1,0000*77
$GPGSA,A,2,07,04,13,,,,,,,,,,6.0,5.9,1.0*39
$GPRMC,211547.243,A,3747.7008,N,12215.4936,W,0.54,269.04,180412,,,D*7B
$GPVTG,269.04,T,,M,0.54,N,1.0,K,N*0B
$GPGGA,211548.243,3747.7007,N,12215.4935,W,2,03,5.9,25.1,M,-25.1,M,4.1,0000*73
$GPGSA,A,2,07,04,13,,,,,,,,,,6.0,5.9,1.0*39
$GPGSV,3,1,12,13,41,305,41,07,28,242,40,04,14,296,35,23,67,345,20*7B
$GPGSV,3,2,12,20,60,185,26,16,50,097,16,30,39,059,21,10,14,317,29*70
$GPGSV,3,3,12,31,04,052,,03,03,129,14,01,01,196,26,06,01,114,*7D
$GPRMC,211548.243,A,3747.7007,N,12215.4935,W,0.61,276.21,180412,,,D*77
$GPGGA,211549.243,3747.7009,N,12215.4934,W,2,03,5.9,25.1,M,-25.1,M,3.1,0000*7A
$GPGSA,A,2,07,04,13,,,,,,,,,,6.0,5.9,1.0*39
$GPRMC,211549.243,A,3747.7009,N,12215.4934,W,0.81,272.43,180412,,,D*77
$GPVTG,272.43,T,,M,0.81,N,1.5,K,N*0F
$GPGGA,211550.243,3747.7010,N,12215.4932,W,2,03,5.9,25.1,M,-25.1,M,3.1,0000*7C
$GPGSA,A,2,07,04,13,,,,,,,,,,6.0,5.9,1.0*39
$GPRMC,211550.243,A,3747.7010,N,12215.4932,W,0.55,279.14,180412,,,D*71
$GPVTG,279.14,T,,M,0.55,N,1.0,K,N*0A
$GPGGA,211551.243,3747.7010,N,12215.4933,W,2,03,5.9,25.1,M,-25.1,M,4.1,0000*7B
$GPGSA,A,2,07,04,13,,,,,,,,,,6.0,5.9,1.0*39
$GPRMC,211551.243,A,3747.7010,N,12215.4933,W,0.54,267.77,180412,,,D*7A
$GPVTG,267.77,T,,M,0.54,N,1.0,K,N*01
$GPGGA,211552.243,3747.7012,N,12215.4934,W,2,03,5.9,25.1,M,-25.1,M,5.1,0000*7C
$GPGSA,A,2,07,04,13,,,,,,,,,,6.0,5.9,1.0*39
$GPRMC,211552.243,A,3747.7012,N,12215.4934,W,0.81,294.55,180412,,,D*78
$GPVTG,294.55,T,,M,0.81,N,1.5,K,N*00
$GPGGA,211553.243,3747.7012,N,12215.4935,W,2,03,5.9,25.1,M,-25.1,M,3.1,0000*7A
$GPGSA,A,2,07,04,13,,,,,,,,,,6.0,5.9,1.0*39
$GPGSV,3,1,12,13,41,305,41,07,28,242,40,04,14,296,36,23,67,345,28*70
$GPGSV,3,2,12,20,60,185,30,16,50,097,21,30,39,059,21,10,14,317,29*73
$GPGSV,3,3,12,31,04,052,,03,03,129,,01,01,196,22,06,01,114,*7C
$GPRMC,211553.243,A,3747.7012,N,12215.4935,W,1.30,280.78,180412,,,D*79
$GPVTG,280.78,T,,M,1.30,N,2.4,K,N*03
$GPGGA,211554.243,3747.7012,N,12215.4936,W,2,03,5.9,25.1,M,-25.1,M,4.1,0000*79
$GPGSA,A,2,07,04,13,,,,,,,,,,5.9,5.9,1.0*33
$GPRMC,211554.243,A,3747.7012,N,12215.4936,W,0.35,287.62,180412,,,D*75
$GPVTG,287.62,T,,M,0.35,N,0.7,K,N*0A
$GPGGA,211555.243,3747.7013,N,12215.4938,W,2,03,5.9,25.1,M,-25.1,M,3.1,0000*70
$GPGSA,A,2,07,04,13,,,,,,,,,,5.9,5.9,1.0*33
$GPRMC,211555.243,A,3747.7013,N,12215.4938,W,0.20,319.14,180412,,,D*78
$GPVTG,319.14,T,,M,0.20,N,0.4,K,N*0A
$GPGGA,211556.243,3747.7013,N,12215.4940,W,2,03,5.9,25.1,M,-25.1,M,3.1,0000*7C
$GPGSA,A,2,07,04,13,,,,,,,,,,5.9,5.9,1.0*33
$GPRMC,211556.243,A,3747.7013,N,12215.4940,W,0.61,276.21,180412,,,D*7F
$GPVTG,276.21,T,,M,0.61,N,1.1,K,N*05
$GPGGA,211557.243,3747.7014,N,12215.4942,W,2,03,5.9,25.1,M,-25.1,M,4.1,0000*7F
$GPGSA,A,2,07,04,13,,,,,,,,,,5.9,5.9,1.0*33
$GPRMC,211557.243,A,3747.7014,N,12215.4942,W,0.86,292.22,180412,,,D*7B
$GPVTG,292.22,T,,M,0.86,N,1.6,K,N*02
$GPGGA,211639.243,3747.7016,N,12215.4875,W,2,03,5.7,25.1,M,-25.1,M,5.1,0000*7C
$GPGSA,A,2,07,04,13,,,,,,,,,,5.8,5.7,1.0*3C
$GPRMC,211639.243,A,3747.7016,N,12215.4875,W,0.56,304.24,180412,,,D*72
$GPVTG,304.24,T,,M,0.56,N,1.0,K,N*01
$GPGGA,211640.243,3747.7021,N,12215.4887,W,2,03,5.7,25.1,M,-25.1,M,6.1,0000*78
$GPGSA,A,2,07,04,13,,,,,,,,,,5.8,5.7,1.0*3C
$GPRMC,211640.243,A,3747.7021,N,12215.4887,W,0.46,299.84,180412,,,D*7B
$GPVTG,299.84,T,,M,0.46,N,0.9,K,N*07
$GPGGA,211641.243,3747.7022,N,12215.4901,W,2,03,5.7,25.1,M,-25.1,M,3.1,0000*70
$GPGSA,A,2,07,04,13,,,,,,,,,,5.8,5.7,1.0*3C
$GPRMC,211641.243,A,3747.7022,N,12215.4901,W,0.75,269.65,180412,,,D*76
$GPVTG,269.65,T,,M,0.75,N,1.4,K,N*0B
$GPGGA,211642.243,3747.7023,N,12215.4915,W,2,03,5.7,25.1,M,-25.1,M,3.1,0000*77
$GPGSA,A,2,07,04,13,,,,,,,,,,5.8,5.7,1.0*3C
$GPGSV,3,1,12,13,41,305,38,07,28,242,42,04,14,296,37,23,67,345,31*75
$GPGSV,3,2,12,20,60,185,41,16,50,097,21,30,39,059,19,10,14,317,34*72
$GPGSV,3,3,12,31,04,052,,03,03,129,,01,01,196,,06,01,114,*7C
$GPRMC,211642.243,A,3747.7023,N,12215.4915,W,0.27,331.00,180412,,,D*79
$GPVTG,331.00,T,,M,0.27,N,0.5,K,N*03
$GPGGA,211643.243,3747.7025,N,12215.4917,W,2,03,5.7,25.1,M,-25.1,M,4.1,0000*75
$GPGSA,A,2,07,04,13,,,,,,,,,,5.8,5.7,1.0*3C
$GPRMC,211643.243,A,3747.7025,N,12215.4917,W,1.11,294.74,180412,,,D*75
$GPVTG,294.74,T,,M,1.11,N,2.1,K,N*0C
$GPGGA,211647.243,3747.7027,N,12215.5044,W,2,03,5.7,25.1,M,-25.1,M,8.1,0000*71
$GPGSA,A,2,07,04,13,,,,,,,,,,5.8,5.7,1.0*3C
$GPGSV,3,1,12,13,41,305,39,07,28,242,40,04,14,296,35,23,67,345,27*73
$GPGSV,3,2,12,20,60,185,28,16,50,097,21,30,39,059,,10,14,317,33*72
$GPGSV,3,3,12,31,04,052,,03,03,129,,01,01,196,,06,01,114,*7C
$GPRMC,211647.243,A,3747.7027,N,12215.5044,W,0.47,302.35,180412,,,D*74
$GPGGA,211648.243,3747.7026,N,12215.5063,W,2,03,5.7,25.1,M,-25.1,M,9.1,0000*7B
$GPGSA,A,2,07,04,13,,,,,,,,,,5.8,5.7,1.0*3C
$GPRMC,211648.243,A,3747.7026,N,12215.5063,W,0.61,277.33,180412,,,D*7E
$GPVTG,277.33,T,,M,0.61,N,1.1,K,N*07
$GPGGA,211649.243,3747.7027,N,12215.5079,W,2,03,5.7,25.1,M,-25.1,M,10.1,0000*48
$GPGSA,A,2,07,04,13,,,,,,,,,,5.8,5.7,1.0*3C
$GPRMC,211649.243,A,3747.7027,N,12215.5079,W,0.47,326.77,180412,,,D*74
$GPVTG,326.77,T,,M,0.47,N,0.9,K,N*0F
$GPGGA,211650.243,3747.7018,N,12215.5071,W,2,03,5.7,25.1,M,-25.1,M,3.1,0000*76
$GPGSA,A,2,07,04,13,,,,,,,,,,5.8,5.7,1.0*3C
$GPRMC,211650.243,A,3747.7018,N,12215.5071,W,0.10,319.14,180412,,,D*73
$GPVTG,319.14,T,,M,0.10,N,0.2,K,N*0F
$GPGGA,211651.242,3747.7016,N,12215.5060,W,2,03,5.7,25.1,M,-25.1,M,4.1,0000*7F
$GPGSA,A,2,07,04,13,,,,,,,,,,5.8,5.7,1.0*3C
$GPRMC,211651.242,A,3747.7016,N,12215.5060,W,0.13,329.70,180412,,,D*7F
$GPVTG,329.70,T,,M,0.13,N,0.2,K,N*0D
$GPGGA,211652.242,3747.7017,N,12215.5064,W,2,03,5.7,25.1,M,-25.1,M,5.1,0000*78
$GPGSA,A,2,07,04,13,,,,,,,,,,5.8,5.7,1.0*3C
$GPGSV,3,1,12,13,41,305,38,07,28,242,39,04,14,296,32,23,67,345,28*74
$GPGSV,3,2,12,20,60,185,29,16,50,097,20,30,39,059,,10,14,317,31*70
$GPGSV,3,3,12,31,04,052,,03,03,129,,01,01,196,21,06,01,114,*7F
$GPRMC,211652.242,A,3747.7017,N,12215.5064,W,0.54,274.12,180412,,,D*77
$GPVTG,274.12,T,,M,0.54,N,1.0,K,N*00
$GPGGA,211704.242,3747.7019,N,12215.4937,W,2,03,5.7,25.1,M,-25.1,M,5.1,0000*7A
$GPGSA,A,2,07,04,13,,,,,,,,,,5.7,5.7,1.0*33
$GPRMC,211704.242,A,3747.7019,N,12215.4937,W,1.04,285.74,180412,,,D*7F
$GPVTG,285.74,T,,M,1.04,N,1.9,K,N*03
$GPGGA,211705.242,3747.7020,N,12215.4931,W,2,03,5.7,25.1,M,-25.1,M,3.1,0000*71
$GPGSA,A,2,07,04,13,,,,,,,,,,5.7,5.7,1.0*33
$GPRMC,211705.242,A,3747.7020,N,12215.4931,W,0.88,276.35,180412,,,D*7E
$GPVTG,276.35,T,,M,0.88,N,1.6,K,N*00
$GPGGA,211706.242,3747.7021,N,12215.4921,W,2,03,5.7,25.1,M,-25.1,M,3.1,0000*72
$GPGSA,A,2,07,04,13,,,,,,,,,,5.7,5.7,1.0*33
$GPRMC,211706.242,A,3747.7021,N,12215.4921,W,0.81,270.74,180412,,,D*77
$GPVTG,270.74,T,,M,0.81,N,1.5,K,N*09
$GPGGA,211707.242,3747.7022,N,12215.4917,W,2,03,5.6,25.1,M,-25.1,M,3.1,0000*74
$GPGSA,A,2,07,04,13,,,,,,,,,,5.7,5.6,1.0*32
$GPGSV,3,1,12,13,41,305,35,07,28,242,40,04,14,296,40,23,67,345,22*78
$GPGSV,3,2,12,20,60,185,34,16,50,097,23,30,39,059,,10,14,317,30*7E
$GPGSV,3,3,12,31,04,052,,03,03,129,17,01,01,196,20,06,01,114,*78
$GPRMC,211707.242,A,3747.7022,N,12215.4917,W,0.54,270.31,180412,,,D*79
$GPVTG,270.31,T,,M,0.54,N,1.0,K,N*05
$GPGGA,211709.242,3747.7018,N,12215.4904,W,2,03,5.6,25.1,M,-25.1,M,4.1,0000*76
$GPGSA,A,2,07,04,13,,,,,,,,,,5.7,5.6,1.0*32
$GPRMC,211709.242,A,3747.7018,N,12215.4904,W,0.54,269.04,180412,,,D*72
$GPVTG,269.04,T,,M,0.54,N,1.0,K,N*0B
$GPGGA,211710.242,3747.7017,N,12215.4904,W,2,03,5.6,25.1,M,-25.1,M,5.1,0000*70
$GPGSA,A,2,07,04,13,,,,,,,,,,5.7,5.6,1.0*32
$GPRMC,211710.242,A,3747.7017,N,12215.4904,W,0.34,144.52,180412,,,D*7C
$GPVTG,144.52,T,,M,0.34,N,0.6,K,N*05
$GPGGA,211748.243,3747.6849,N,12215.4911,W,2,03,5.5,25.1,M,-25.1,M,5.1,0000*79
$GPGSA,A,2,07,04,13,,,,,,,,,,5.6,5.5,1.0*30
$GPRMC,211748.243,A,3747.6849,N,12215.4911,W,1.13,184.42,180412,,,D*7F
$GPVTG,184.42,T,,M,1.13,N,2.1,K,N*09
$GPGGA,211749.243,3747.6846,N,12215.4909,W,2,03,5.5,25.1,M,-25.1,M,3.1,0000*78
$GPGSA,A,2,07,04,13,,,,,,,,,,5.6,5.5,1.0*30
$GPRMC,211749.243,A,3747.6846,N,12215.4909,W,1.18,157.37,180412,,,D*7F
$GPVTG,157.37,T,,M,1.18,N,2.2,K,N*0D
$GPGGA,211750.243,3747.6847,N,12215.4914,W,2,03,5.5,25.1,M,-25.1,M,3.1,0000*7D
$GPGSA,A,2,07,04,13,,,,,,,,,,5.6,5.5,1.0*30
$GPRMC,211750.243,A,3747.6847,N,12215.4914,W,0.84,242.49,180412,,,D*70
$GPVTG,242.49,T,,M,0.84,N,1.6,K,N*00
$GPGGA,211938.242,3747.6337,N,12215.4361,W,2,03,5.3,25.1,M,-25.1,M,3.1,0000*7E
$GPGSA,A,2,07,04,13,,,,,,,,,,5.4,5.3,1.0*34
$GPRMC,211938.242,A,3747.6337,N,12215.4361,W,0.64,202.41,180412,,,D*77
$GPVTG,202.41,T,,M,0.64,N,1.2,K,N*06
$GPGGA,211951.242,3747.6257,N,12215.4200,W,2,03,5.2,25.1,M,-25.1,M,4.1,0000*76
$GPGSA,A,2,07,04,13,,,,,,,,,,5.3,5.2,1.0*32
$GPRMC,211951.242,A,3747.6257,N,12215.4200,W,2.00,207.91,180412,,,D*71
$GPVTG,207.91,T,,M,2.00,N,3.7,K,N*09
$GPGGA,211952.242,3747.6255,N,12215.4210,W,2,03,5.2,25.1,M,-25.1,M,5.1,0000*77
$GPGSA,A,2,07,04,13,,,,,,,,,,5.3,5.2,1.0*32
$GPGSV,3,1,12,13,42,306,39,07,29,243,41,04,14,295,35,23,67,349,31*7A
$GPGSV,3,2,12,20,59,185,29,16,50,094,20,30,38,058,22,10,15,317,38*71
$GPGSV,3,3,12,03,03,128,20,31,03,052,21,06,02,113,,01,00,196,*7E
$GPRMC,211952.242,A,3747.6255,N,12215.4210,W,1.39,241.90,180412,,,D*7B
$GPGGA,211953.242,3747.6254,N,12215.4224,W,2,03,5.2,25.1,M,-25.1,M,6.1,0000*73
$GPGSA,A,2,07,04,13,,,,,,,,,,5.3,5.2,1.0*32
$GPRMC,211953.242,A,3747.6254,N,12215.4224,W,0.78,245.56,180412,,,D*76
$GPVTG,245.56,T,,M,0.78,N,1.4,K,N*08
$GPGGA,211954.242,3747.6248,N,12215.4231,W,2,03,5.2,25.1,M,-25.1,M,3.1,0000*78
$GPGSA,A,2,07,04,13,,,,,,,,,,5.3,5.2,1.0*32
$GPRMC,211954.242,A,3747.6248,N,12215.4231,W,1.90,232.21,180412,,,D*7F
$GPVTG,232.21,T,,M,1.90,N,3.5,K,N*0C
$GPGGA,211955.242,3747.6244,N,12215.4247,W,2,03,5.2,25.1,M,-25.1,M,2.1,0000*75
$GPGSA,A,2,07,04,13,,,,,,,,,,5.3,5.2,1.0*32
$GPRMC,211955.242,A,3747.6244,N,12215.4247,W,3.14,234.61,180412,,,D*7F
$GPVTG,234.61,T,,M,3.14,N,5.8,K,N*0B
$GPGGA,211956.242,3747.6226,N,12215.4249,W,2,03,5.2,25.1,M,-25.1,M,3.1,0000*7D
$GPGSA,A,2,07,04,13,,,,,,,,,,5.3,5.2,1.0*32
$GPRMC,211956.242,A,3747.6226,N,12215.4249,W,3.12,231.78,180412,,,D*7D
$GPVTG,231.78,T,,M,3.12,N,5.8,K,N*00
$GPGGA,211957.242,3747.6228,N,12215.4260,W,2,03,5.2,25.1,M,-25.1,M,4.1,0000*7E
$GPGSA,A,2,07,04,13,,,,,,,,,,5.3,5.2,1.0*32
$GPGSV,3,1,12,13,42,306,40,07,29,243,41,04,14,295,36,23,67,349,29*7E
$GPGSV,3,2,12,20,59,185,30,16,50,094,22,30,38,058,23,10,15,317,41*74
$GPGSV,3,3,12,03,03,128,20,31,03,052,20,06,02,113,,01,00,196,*7F
$GPRMC,211957.242,A,3747.6228,N,12215.4260,W,3.23,242.09,180412,,,D*79
$GPVTG,242.09,T,,M,3.23,N,6.0,K,N*0B
$GPGGA,211958.242,3747.6225,N,12215.4267,W,2,03,5.2,25.1,M,-25.1,M,5.1,0000*7A
$GPGSA,A,2,07,04,13,,,,,,,,,,5.3,5.2,1.0*32
$GPRMC,211958.242,A,3747.6225,N,12215.4267,W,3.30,233.72,180412,,,D*74
$GPVTG,233.72,T,,M,3.30,N,6.1,K,N*02
$GPGGA,211959.242,3747.6220,N,12215.4273,W,2,03,5.2,25.1,M,-25.1,M,6.1,0000*78
$GPGSA,A,2,07,04,13,,,,,,,,,,5.3,5.2,1.0*32
$GPRMC,211959.242,A,3747.6220,N,12215.4273,W,3.40,238.36,180412,,,D*79
$GPVTG,238.36,T,,M,3.40,N,6.3,K,N*0C
$GPGGA,212000.242,3747.6212,N,12215.4279,W,2,03,5.2,25.1,M,-25.1,M,7.1,0000*74
$GPGSA,A,2,07,04,13,,,,,,,,,,5.3,5.2,1.0*32
$GPRMC,212000.242,A,3747.6212,N,12215.4279,W,3.39,234.53,180412,,,D*75
$GPVTG,234.53,T,,M,3.39,N,6.3,K,N*0D
$GPGGA,212001.242,3747.6208,N,12215.4290,W,2,03,5.2,25.1,M,-25.1,M,8.1,0000*76
$GPGSA,A,2,07,04,13,,,,,,,,,,5.3,5.2,1.0*32
$GPRMC,212001.242,A,3747.6208,N,12215.4290,W,3.36,239.40,180412,,,D*78
$GPVTG,239.40,T,,M,3.36,N,6.2,K,N*0C
$GPGGA,212002.242,3747.6204,N,12215.4300,W,2,03,5.2,25.1,M,-25.1,M,9.1,0000*70
$GPGSA,A,2,07,04,13,,,,,,,,,,5.3,5.2,1.0*32
$GPGSV,3,1,12,13,42,306,40,07,29,243,40,04,14,295,37,23,67,349,31*77
$GPGSV,3,2,12,20,59,185,30,16,50,094,23,30,38,058,26,10,15,317,36*70
$GPGSV,3,3,12,03,03,128,21,31,03,052,19,06,02,113,,01,00,196,*74
$GPRMC,212002.242,A,3747.6204,N,12215.4300,W,3.33,242.50,180412,,,D*77
$GPVTG,242.50,T,,M,3.33,N,6.2,K,N*04
$GPGGA,212003.242,3747.6200,N,12215.4307,W,2,03,5.2,25.1,M,-25.1,M,10.1,0000*4A
$GPGSA,A,2,07,04,13,,,,,,,,,,5.3,5.2,1.0*32
$GPRMC,212003.242,A,3747.6200,N,12215.4307,W,2.63,234.59,180412,,,D*79
$GPVTG,234.59,T,,M,2.63,N,4.9,K,N*01
$GPGGA,212004.242,3747.6197,N,12215.4312,W,2,03,5.2,25.1,M,-25.1,M,11.1,0000*45
$GPGSA,A,2,07,04,13,,,,,,,,,,5.3,5.2,1.0*32
$GPRMC,212004.242,A,3747.6197,N,12215.4312,W,2.85,240.65,180412,,,D*73
$GPVTG,240.65,T,,M,2.85,N,5.3,K,N*0E
$GPGGA,212005.242,3747.6194,N,12215.4319,W,2,03,5.2,25.1,M,-25.1,M,12.1,0000*4F
$GPGSA,A,2,07,04,13,,,,,,,,,,5.3,5.2,1.0*32
$GPRMC,212005.242,A,3747.6194,N,12215.4319,W,3.08,243.23,180412,,,D*7F
$GPVTG,243.23,T,,M,3.08,N,5.7,K,N*0F
$GPGGA,212006.242,3747.6190,N,12215.4326,W,2,03,5.2,25.1,M,-25.1,M,13.1,0000*45
$GPGSA,A,2,07,04,13,,,,,,,,,,5.3,5.2,1.0*32
$GPRMC,212006.242,A,3747.6190,N,12215.4326,W,3.25,246.82,180412,,,D*75
$GPVTG,246.82,T,,M,3.25,N,6.0,K,N*0A
$GPGGA,212007.242,3747.6187,N,12215.4331,W,2,03,5.2,25.1,M,-25.1,M,14.1,0000*43
$GPGSA,A,2,07,04,13,,,,,,,,,,5.3,5.2,1.0*32
$GPGSV,3,1,12,13,42,306,40,07,29,243,39,04,14,295,40,23,67,349,32*7A
$GPGSV,3,2,12,20,59,185,29,16,50,094,23,30,38,058,27,10,15,317,39*76
$GPGSV,3,3,12,03,03,128,24,31,03,052,20,06,02,113,,01,00,196,*7B
$GPRMC,212007.242,A,3747.6187,N,12215.4331,W,2.82,241.71,180412,,,D*73
$GPGGA,212008.242,3747.6183,N,12215.4336,W,2,03,5.2,25.1,M,-25.1,M,15.1,0000*4E
$GPGSA,A,2,07,04,13,,,,,,,,,,5.3,5.2,1.0*32
$GPRMC,212008.242,A,3747.6183,N,12215.4336,W,2.82,239.10,180412,,,D*77
$GPVTG,239.10,T,,M,2.82,N,5.2,K,N*04
$GPGGA,212009.242,3747.6180,N,12215.4341,W,2,03,5.2,25.1,M,-25.1,M,16.1,0000*4F
$GPGSA,A,2,07,04,13,,,,,,,,,,5.3,5.2,1.0*32
$GPRMC,212009.242,A,3747.6180,N,12215.4341,W,2.60,247.95,180412,,,D*7D
$GPVTG,247.95,T,,M,2.60,N,4.8,K,N*07
$GPGGA,212010.242,3747.6172,N,12215.4349,W,2,03,5.2,25.1,M,-25.1,M,17.1,0000*43
$GPGSA,A,2,07,04,13,,,,,,,,,,5.3,5.2,1.0*32
$GPRMC,212010.242,A,3747.6172,N,12215.4349,W,3.07,249.83,180412,,,D*79
$GPVTG,249.83,T,,M,3.07,N,5.7,K,N*00
$GPGGA,212011.242,3747.6180,N,12215.4322,W,1,03,5.2,25.1,M,-25.1,M,,0000*58
$GPGSA,A,2,07,04,13,,,,,,,,,,5.3,5.2,1.0*32
$GPRMC,212011.242,A,3747.6180,N,12215.4322,W,2.84,243.88,180412,,,A*76
$GPVTG,243.88,T,,M,2.84,N,5.3,K,N*0F
$GPGGA,212012.242,3747.6175,N,12215.4326,W,1,03,5.2,25.1,M,-25.1,M,,0000*55
$GPGSA,A,2,07,04,13,,,,,,,,,,5.3,5.2,1.0*32
$GPGSV,3,1,12,13,42,306,40,07,29,243,38,04,14,295,40,23,67,349,32*7B
$GPGSV,3,2,12,20,59,185,29,16,50,094,24,30,38,058,27,10,15,317,33*7B
$GPGSV,3,3,12,03,03,128,19,31,03,052,20,06,02,113,,01,00,196,*75
$GPRMC,212012.242,A,3747.6175,N,12215.4326,W,2.24,232.48,180412,,,A*7B
$GPVTG,232.48,T,,M,2.24,N,4.1,K,N*0C
$GPGGA,212013.242,3747.6171,N,12215.4331,W,1,03,5.2,25.1,M,-25.1,M,,0000*56
$GPGSA,A,2,07,04,13,,,,,,,,,,5.3,5.2,1.0*32
$GPRMC,212013.242,A,3747.6171,N,12215.4331,W,1.91,220.16,180412,,,A*7D
$GPVTG,220.16,T,,M,1.91,N,3.5,K,N*0A
$GPGGA,212014.242,3747.6167,N,12215.4338,W,1,03,5.2,25.1,M,-25.1,M,,0000*5F
$GPGSA,A,2,07,04,13,,,,,,,,,,5.3,5.2,1.0*32
$GPRMC,212014.242,A,3747.6167,N,12215.4338,W,2.80,239.73,180412,,,A*7C
$GPVTG,239.73,T,,M,2.80,N,5.2,K,N*03
$GPGGA,212015.242,3747.6163,N,12215.4344,W,1,03,5.2,25.1,M,-25.1,M,,0000*51
$GPGSA,A,2,07,04,13,,,,,,,,,,5.3,5.2,1.0*32
$GPRMC,212015.242,A,3747.6163,N,12215.4344,W,2.36,235.17,180412,,,A*71
$GPVTG,235.17,T,,M,2.36,N,4.4,K,N*07
$GPGGA,212016.242,3747.6157,N,12215.4350,W,1,03,5.2,25.1,M,-25.1,M,,0000*50
$GPGSA,A,2,07,04,13,,,,,,,,,,5.3,5.2,1.0*32
$GPRMC,212016.242,A,3747.6157,N,12215.4350,W,2.52,236.66,180412,,,A*77
$GPVTG,236.66,T,,M,2.52,N,4.7,K,N*03
$GPGGA,212017.242,3747.6152,N,12215.4355,W,1,03,5.2,25.1,M,-25.1,M,,0000*51
$GPGSA,A,2,07,04,13,,,,,,,,,,5.3,5.2,1.0*32
$GPGSV,3,1,12,13,42,306,40,07,29,243,38,04,14,295,39,23,67,349,33*74
$GPGSV,3,2,12,20,59,185,29,16,50,094,26,30,38,058,27,10,15,317,38*72
$GPGSV,3,3,12,03,03,128,26,31,03,052,20,06,02,113,,01,00,196,*79
$GPRMC,212017.242,A,3747.6152,N,12215.4355,W,2.60,233.27,180412,,,A*77
$GPVTG,233.27,T,,M,2.60,N,4.8,K,N*0D
$GPGGA,212018.242,3747.6148,N,12215.4362,W,1,03,5.2,25.1,M,-25.1,M,,0000*51
$GPGSA,A,2,07,04,13,,,,,,,,,,5.3,5.2,1.0*32
$GPRMC,212018.242,A,3747.6148,N,12215.4362,W,2.88,244.93,180412,,,A*7E
$GPVTG,244.93,T,,M,2.88,N,5.3,K,N*0E
$GPGGA,212019.242,3747.6143,N,12215.4363,W,1,03,5.2,25.1,M,-25.1,M,,0000*5A
$GPGSA,A,2,07,04,13,,,,,,,,,,5.3,5.2,1.0*32
$GPRMC,212019.242,A,3747.6143,N,12215.4363,W,1.62,209.46,180412,,,A*73
$GPVTG,209.46,T,,M,1.62,N,3.0,K,N*0D
$GPGGA,212026.242,3747.6124,N,12215.4330,W,1,03,5.2,25.1,M,-25.1,M,,0000*51
$GPGSA,A,2,07,04,13,,,,,,,,,,5.3,5.2,1.0*32
$GPRMC,212026.242,A,3747.6124,N,12215.4330,W,2.54,243.47,180412,,,A*71
$GPVTG,243.47,T,,M,2.54,N,4.7,K,N*04
$GPGGA,212027.242,3747.6136,N,12215.4413,W,1,03,5.2,25.1,M,-25.1,M,,0000*55
$GPGSA,A,2,07,04,13,,,,,,,,,,5.3,5.2,1.0*32
$GPGSV,3,1,12,13,42,306,40,07,29,243,37,04,14,295,40,23,67,349,32*74
$GPGSV,3,2,12,20,59,185,29,16,50,094,26,30,38,058,24,10,15,317,40*7E
$GPGSV,3,3,12,03,03,128,25,31,03,052,20,06,02,113,,01,00,196,*7A
$GPRMC,212027.242,A,3747.6136,N,12215.4413,W,2.42,229.72,180412,,,A*78
$GPVTG,229.72,T,,M,2.42,N,4.5,K,N*0B
$GPGGA,212028.242,3747.6138,N,12215.4454,W,1,03,5.2,25.1,M,-25.1,M,,0000*57
$GPGSA,A,2,07,04,13,,,,,,,,,,5.3,5.2,1.0*32
$GPRMC,212028.242,A,3747.6138,N,12215.4454,W,2.85,235.48,180412,,,A*75
$GPVTG,235.48,T,,M,2.85,N,5.3,K,N*03
$GPGGA,212029.242,3747.6131,N,12215.4458,W,1,03,5.2,25.1,M,-25.1,M,,0000*53
$GPGSA,A,2,07,04,13,,,,,,,,,,5.3,5.2,1.0*32
$GPRMC,212029.242,A,3747.6131,N,12215.4458,W,2.65,236.73,180412,,,A*74
$GPVTG,236.73,T,,M,2.65,N,4.9,K,N*0D
$GPGGA,212030.242,3747.6124,N,12215.4455,W,1,03,5.2,25.1,M,-25.1,M,,0000*52
$GPGSA,A,2,07,04,13,,,,,,,,,,5.3,5.2,1.0*32
$GPRMC,212030.242,A,3747.6124,N,12215.4455,W,2.32,232.34,180412,,,A*70
$GPVTG,232.34,T,,M,2.32,N,4.3,K,N*02
$GPGGA,212031.242,3747.6114,N,12215.4454,W,1,03,5.2,25.1,M,-25.1,M,,0000*51
$GPGSA,A,2,07,04,13,,,,,,,,,,5.3,5.2,1.0*32
$GPRMC,212031.242,A,3747.6114,N,12215.4454,W,2.80,229.10,180412,,,A*76
$GPVTG,229.10,T,,M,2.80,N,5.2,K,N*07
$GPGGA,212032.242,3747.6106,N,12215.4447,W,1,03,5.2,25.1,M,-25.1,M,,0000*53
$GPGSA,A,2,07,04,13,,,,,,,,,,5.3,5.2,1.0*32
$GPGSV,3,1,12,13,42,306,40,07,29,243,35,04,14,295,41,23,67,349,33*76
$GPGSV,3,2,12,20,59,185,28,16,50,094,26,30,38,058,27,10,15,317,39*72
$GPGSV,3,3,12,03,03,128,17,31,03,052,19,06,02,113,,01,00,196,*71
$GPVTG,219.98,T,,M,1.98,N,3.7,K,N*0D
$GPGGA,212033.242,3747.6101,N,12215.4446,W,1,03,5.2,25.1,M,-25.1,M,,0000*54
$GPGSA,A,2,07,04,13,,,,,,,,,,5.3,5.2,1.0*32
$GPRMC,212033.242,A,3747.6101,N,12215.4446,W,2.68,239.80,180412,,,A*7D
$GPVTG,239.80,T,,M,2.68,N,5.0,K,N*0B
$GPGGA,212034.242,3747.6096,N,12215.4448,W,1,03,5.2,25.1,M,-25.1,M,,0000*52
$GPGSA,A,2,07,04,13,,,,,,,,,,5.2,5.2,1.0*33
$GPRMC,212034.242,A,3747.6096,N,12215.4448,W,2.60,233.06,180412,,,A*77
$GPVTG,233.06,T,,M,2.60,N,4.8,K,N*0E
$GPGGA,212035.242,3747.6092,N,12215.4456,W,1,03,5.2,25.1,M,-25.1,M,,0000*58
$GPGSA,A,2,07,04,13,,,,,,,,,,5.2,5.2,1.0*33
$GPRMC,212035.242,A,3747.6092,N,12215.4456,W,2.75,232.49,180412,,,A*73
$GPVTG,232.49,T,,M,2.75,N,5.1,K,N*08
$GPGGA,212036.242,3747.6087,N,12215.4459,W,1,03,5.1,25.1,M,-25.1,M,,0000*53
$GPGSA,A,2,07,04,13,,,,,,,,,,5.2,5.1,1.0*30
$GPRMC,212036.242,A,3747.6087,N,12215.4459,W,1.88,221.11,180412,,,A*75
$GPVTG,221.11,T,,M,1.88,N,3.5,K,N*04
$GPGGA,212037.242,3747.6081,N,12215.4457,W,1,03,5.1,25.1,M,-25.1,M,,0000*5A
$GPGSA,A,2,07,04,13,,,,,,,,,,5.2,5.1,1.0*30
$GPGSV,3,1,12,13,43,307,40,07,30,244,39,04,14,293,40,23,68,352,31*75
$GPGSV,3,2,12,20,57,184,29,16,50,092,26,32,37,155,,30,37,057,27*74
$GPGSV,3,3,12,10,16,316,38,03,04,127,17,06,03,112,21,31,02,053,*74
$GPRMC,212037.242,A,3747.6081,N,12215.4457,W,1.79,210.19,180412,,,A*78
$GPVTG,210.19,T,,M,1.79,N,3.3,K,N*06
$GPGGA,212038.242,3747.6085,N,12215.4551,W,2,03,5.1,25.1,M,-25.1,M,3.1,0000*79
$GPGSA,A,2,07,04,13,,,,,,,,,,5.2,5.1,1.0*30
$GPRMC,212038.242,A,3747.6085,N,12215.4551,W,2.47,235.77,180412,,,D*70
$GPVTG,235.77,T,,M,2.47,N,4.6,K,N*05
$GPGGA,212039.242,3747.6083,N,12215.4573,W,2,03,5.1,25.1,M,-25.1,M,4.1,0000*79
$GPGSA,A,2,07,04,13,,,,,,,,,,5.2,5.1,1.0*30
$GPRMC,212039.242,A,3747.6083,N,12215.4573,W,2.58,236.33,180412,,,D*7A
$GPVTG,236.33,T,,M,2.58,N,4.8,K,N*06
$GPGGA,212040.242,3747.6076,N,12215.4571,W,2,03,5.1,25.1,M,-25.1,M,3.1,0000*78
$GPGSA,A,2,07,04,13,,,,,,,,,,5.2,5.1,1.0*30
$GPRMC,212040.242,A,3747.6076,N,12215.4571,W,2.23,226.18,180412,,,D*78
$GPVTG,226.18,T,,M,2.23,N,4.1,K,N*0B
$GPGGA,212041.242,3747.6057,N,12215.4495,W,2,03,5.1,25.1,M,-25.1,M,3.1,0000*71
$GPGSA,A,2,07,04,13,,,,,,,,,,5.2,5.1,1.0*30
$GPRMC,212041.242,A,3747.6057,N,12215.4495,W,2.80,242.36,180412,,,D*76
$GPVTG,242.36,T,,M,2.80,N,5.2,K,N*0E
$GPGGA,212042.242,3747.6050,N,12215.4485,W,2,03,5.1,25.1,M,-25.1,M,4.1,0000*73
$GPGSA,A,2,07,04,13,,,,,,,,,,5.2,5.1,1.0*30
$GPGSV,3,1,12,13,43,307,35,07,30,244,39,04,14,293,42,23,68,352,30*74
$GPGSV,3,2,12,20,57,184,30,16,50,092,26,32,37,155,20,30,37,057,32*7A
$GPGSV,3,3,12,10,16,316,37,03,04,127,16,06,03,112,14,31,02,053,*7C
$GPRMC,212042.242,A,3747.6050,N,12215.4485,W,1.50,223.22,180412,,,D*7F
$GPVTG,223.22,T,,M,1.50,N,2.8,K,N*0F
$GPGGA,212043.242,3747.6043,N,12215.4474,W,2,03,5.1,25.1,M,-25.1,M,5.1,0000*7F
$GPGSA,A,2,07,04,13,,,,,,,,,,5.2,5.1,1.0*30
$GPRMC,212043.242,A,3747.6043,N,12215.4474,W,2.33,233.71,180412,,,D*73
$GPVTG,233.71,T,,M,2.33,N,4.3,K,N*03
$GPGGA,212051.242,3747.5986,N,12215.4326,W,2,04,5.0,7.3,M,-25.1,M,13.1,0000*7C
$GPGSA,A,3,07,04,13,10,,,,,,,,,5.0,5.0,1.0*33
$GPRMC,212051.242,A,3747.5986,N,12215.4326,W,2.96,243.65,180412,,,D*7E
$GPVTG,243.65,T,,M,2.96,N,5.5,K,D*03
$GPGGA,212052.242,3747.5971,N,12215.4424,W,2,04,5.0,11.6,M,-25.1,M,14.1,0000*47
$GPGSA,A,3,07,04,13,10,,,,,,,,,5.0,5.0,1.0*33
$GPGSV,3,1,12,13,43,307,35,07,30,244,32,10,16,316,36,04,14,293,42*70
$GPGSV,3,2,12,23,68,352,27,20,57,184,21,16,50,092,23,32,37,155,19*7F
$GPGSV,3,3,12,30,37,056,27,03,04,127,19,06,03,112,13,31,02,053,*73
$GPVTG,262.07,T,,M,2.83,N,5.3,K,D*06
$GPGGA,212053.242,3747.5977,N,12215.4394,W,2,04,4.9,8.7,M,-25.1,M,15.1,0000*7C
$GPGSA,A,3,07,04,13,10,,,,,,,,,5.0,4.9,1.0*3B
$GPRMC,212053.242,A,3747.5977,N,12215.4394,W,3.18,246.88,180412,,,D*7A
$GPVTG,246.88,T,,M,3.18,N,5.9,K,D*0E
$GPGGA,212054.000,3747.5973,N,12215.4385,W,2,04,4.9,7.4,M,-25.1,M,15.8,0000*7E
$GPGSA,A,3,07,04,13,10,,,,,,,,,5.0,4.9,1.0*3B
$GPRMC,212054.000,A,3747.5973,N,12215.4385,W,3.26,241.83,180412,,,D*7C
$GPVTG,241.83,T,,M,3.26,N,6.0,K,D*05
$GPGGA,212055.000,3747.5965,N,12215.4339,W,2,04,4.9,2.2,M,-25.1,M,16.8,0000*7F
$GPGSA,A,3,07,04,13,10,,,,,,,,,5.0,4.9,1.0*3B
$GPRMC,212055.000,A,3747.5965,N,12215.4339,W,3.15,241.11,180412,,,D*76
$GPVTG,241.11,T,,M,3.15,N,5.8,K,D*05
$GPGGA,212056.000,3747.5959,N,12215.4324,W,2,04,4.9,-0.1,M,-25.1,M,17.8,0000*52
$GPGSA,A,3,07,04,13,10,,,,,,,,,5.0,4.9,1.0*3B
$GPRMC,212056.000,A,3747.5959,N,12215.4324,W,3.33,243.89,180412,,,D*71
$GPVTG,243.89,T,,M,3.33,N,6.2,K,D*0B
$GPGGA,212057.000,3747.5957,N,12215.4338,W,1,04,4.9,0.2,M,-25.1,M,,0000*6D
$GPGSA,A,3,07,04,13,10,,,,,,,,,5.0,4.9,1.0*3B
$GPGSV,3,1,12,13,43,307,35,07,30,244,41,10,16,316,37,04,14,293,41*76
$GPGSV,3,2,12,23,68,352,28,20,57,184,28,16,50,092,21,32,37,155,20*71
$GPGSV,3,3,12,30,37,056,23,03,04,127,28,06,03,112,13,31,02,053,*75
$GPRMC,212057.000,A,3747.5957,N,12215.4338,W,3.04,242.39,180412,,,A*78
$GPVTG,242.39,T,,M,3.04,N,5.6,K,A*07
$GPGGA,212058.000,3747.5956,N,12215.4350,W,1,04,4.9,0.4,M,-25.1,M,,0000*6B
$GPGSA,A,3,07,04,13,10,,,,,,,,,5.0,4.9,1.0*3B
$GPRMC,212058.000,A,3747.5956,N,12215.4350,W,2.91,237.58,180412,,,A*70
$GPVTG,237.58,T,,M,2.91,N,5.4,K,A*0D
$GPGGA,212059.000,3747.5953,N,12215.4362,W,1,04,4.9,0.8,M,-25.1,M,,0000*62
$GPGSA,A,3,07,04,13,10,,,,,,,,,5.0,4.9,1.0*3B
$GPRMC,212059.000,A,3747.5953,N,12215.4362,W,2.77,238.12,180412,,,A*7C
$GPVTG,238.12,T,,M,2.77,N,5.1,K,A*01
$GPGGA,212100.000,3747.5951,N,12215.4376,W,1,04,4.9,1.3,M,-25.1,M,,0000*62
$GPGSA,A,3,07,04,13,10,,,,,,,,,5.0,4.9,1.0*3B
$GPRMC,212100.000,A,3747.5951,N,12215.4376,W,2.74,240.91,180412,,,A*71
$GPVTG,240.91,T,,M,2.74,N,5.1,K,A*06
$GPGGA,212101.000,3747.5948,N,12215.4390,W,1,04,4.9,1.8,M,-25.1,M,,0000*68
$GPGSA,A,3,07,04,13,10,,,,,,,,,5.0,4.9,1.0*3B
$GPRMC,212101.000,A,3747.5948,N,12215.4390,W,2.73,242.72,180412,,,A*78
$GPVTG,242.72,T,,M,2.73,N,5.1,K,A*0E
$GPGGA,212102.000,3747.5946,N,12215.4403,W,1,04,4.9,2.4,M,-25.1,M,,0000*67
$GPGSA,A,3,07,04,13,10,,,,,,,,,5.0,4.9,1.0*3B
$GPGSV,3,1,12,13,43,307,40,07,30,244,40,10,16,316,37,04,14,293,40*74
$GPGSV,3,2,12,23,68,352,33,20,57,184,22,16,50,092,21,32,37,155,20*71
$GPGSV,3,3,12,30,37,056,24,03,04,127,23,06,03,112,14,31,02,053,*7E
$GPRMC,212102.000,A,3747.5946,N,12215.4403,W,2.80,243.34,180412,,,A*77
$GPVTG,243.34,T,,M,2.80,N,5.2,K,A*02
$GPGGA,212103.000,3747.5943,N,12215.4416,W,1,04,4.9,2.9,M,-25.1,M,,0000*6A
$GPGSA,A,3,07,04,13,10,,,,,,,,,5.0,4.9,1.0*3B
$GPRMC,212103.000,A,3747.5943,N,12215.4416,W,2.83,241.38,180412,,,A*7A
$GPVTG,241.38,T,,M,2.83,N,5.2,K,A*0F
$GPGGA,212104.000,3747.5941,N,12215.4429,W,1,04,4.9,3.3,M,-25.1,M,,0000*68
$GPGSA,A,3,07,04,13,10,,,,,,,,,5.0,4.9,1.0*3B
$GPRMC,212104.000,A,3747.5941,N,12215.4429,W,2.92,242.63,180412,,,A*7E
$GPVTG,242.63,T,,M,2.92,N,5.4,K,A*04
$GPGGA,212105.000,3747.5938,N,12215.4440,W,1,04,4.9,3.8,M,-25.1,M,,0000*63
$GPGSA,A,3,07,04,13,10,,,,,,,,,5.0,4.9,1.0*3B
$GPRMC,212105.000,A,3747.5938,N,12215.4440,W,2.89,238.16,180412,,,A*7B
$GPVTG,238.16,T,,M,2.89,N,5.3,K,A*06
$GPGGA,212106.000,3747.5934,N,12215.4452,W,1,04,4.9,4.2,M,-25.1,M,,0000*62
$GPGSA,A,3,07,04,13,10,,,,,,,,,5.0,4.9,1.0*3B
$GPRMC,212106.000,A,3747.5934,N,12215.4452,W,2.69,238.62,180412,,,A*7A
$GPVTG,238.62,T,,M,2.69,N,5.0,K,A*08
$GPGGA,212107.000,3747.5931,N,12215.4460,W,1,04,4.9,4.3,M,-25.1,M,,0000*66
$GPGSA,A,3,07,04,13,10,,,,,,,,,5.0,4.9,1.0*3B
$GPGSV,3,1,12,13,43,307,41,07,30,244,40,10,16,316,32,04,14,293,41*71
$GPGSV,3,2,12,23,68,352,33,20,57,184,30,16,50,092,21,32,37,155,*70
$GPGSV,3,3,12,30,37,056,24,03,04,127,25,06,03,112,,31,02,053,*7D
$GPVTG,242.16,T,,M,2.79,N,5.2,K,A*05
$GPGGA,212108.000,3747.5928,N,12215.4472,W,1,04,4.9,4.9,M,-25.1,M,,0000*68
$GPGSA,A,3,07,04,13,10,,,,,,,,,5.0,4.9,1.0*3B
$GPRMC,212108.000,A,3747.5928,N,12215.4472,W,2.68,238.14,180412,,,A*7B
$GPVTG,238.14,T,,M,2.68,N,5.0,K,A*08
$GPGGA,212109.000,3747.5924,N,12215.4483,W,1,04,4.9,5.3,M,-25.1,M,,0000*60
$GPGSA,A,3,07,04,13,10,,,,,,,,,5.0,4.9,1.0*3B
$GPRMC,212109.000,A,3747.5924,N,12215.4483,W,2.80,237.91,180412,,,A*7C
$GPVTG,237.91,T,,M,2.80,N,5.2,K,A*0E
$GPGGA,212110.000,3747.5921,N,12215.4495,W,1,04,4.9,5.9,M,-25.1,M,,0000*60
$GPGSA,A,3,07,04,13,10,,,,,,,,,5.0,4.9,1.0*3B
$GPRMC,212110.000,A,3747.5921,N,12215.4495,W,2.62,238.90,180412,,,A*74
$GPVTG,238.90,T,,M,2.62,N,4.8,K,A*07
$GPGGA,212111.000,3747.5918,N,12215.4507,W,1,04,4.9,6.4,M,-25.1,M,,0000*6F
$GPGSA,A,3,07,04,13,10,,,,,,,,,5.0,4.9,1.0*3B
$GPRMC,212111.000,A,3747.5918,N,12215.4507,W,2.55,238.77,180412,,,A*78
$GPVTG,238.77,T,,M,2.55,N,4.7,K,A*05
$GPGGA,212112.000,3747.5914,N,12215.4518,W,1,04,4.9,7.0,M,-25.1,M,,0000*6B
$GPGSA,A,3,07,04,13,10,,,,,,,,,5.0,4.9,1.0*3B
$GPGSV,3,1,12,23,68,353,33,20,57,184,27,16,50,092,24,13,43,307,40*70
$GPGSV,3,2,12,32,37,155,22,30,37,056,24,07,30,244,39,10,16,316,35*75
$GPGSV,3,3,12,04,14,293,42,03,04,127,24,06,03,112,,31,02,053,*71
$GPRMC,212112.000,A,3747.5914,N,12215.4518,W,2.83,234.02,180412,,,A*7C
$GPVTG,234.02,T,,M,2.83,N,5.2,K,A*04
$GPGGA,212113.000,3747.5910,N,12215.4530,W,1,04,4.9,7.4,M,-25.1,M,,0000*60
$GPGSA,A,3,07,04,13,10,,,,,,,,,5.0,4.9,1.0*3B
$GPRMC,212113.000,A,3747.5910,N,12215.4530,W,2.96,236.04,180412,,,A*73
$GPVTG,236.04,T,,M,2.96,N,5.5,K,A*03
$GPGGA,212114.000,3747.5906,N,12215.4541,W,1,04,4.9,7.8,M,-25.1,M,,0000*6A
$GPGSA,A,3,07,04,13,10,,,,,,,,,5.0,4.9,1.0*3B
$GPRMC,212114.000,A,3747.5906,N,12215.4541,W,2.96,234.49,180412,,,A*7E
$GPVTG,234.49,T,,M,2.96,N,5.5,K,A*08
$GPGGA,212115.000,3747.5901,N,12215.4548,W,1,04,4.9,7.9,M,-25.1,M,,0000*64
$GPGSA,A,3,07,04,13,10,,,,,,,,,5.0,4.9,1.0*3B
$GPRMC,212115.000,A,3747.5901,N,12215.4548,W,2.82,235.94,180412,,,A*75
$GPVTG,235.94,T,,M,2.82,N,5.2,K,A*0B
$GPGGA,212116.000,3747.5897,N,12215.4554,W,1,04,4.9,7.9,M,-25.1,M,,0000*64
$GPGSA,A,3,07,04,13,10,,,,,,,,,5.0,4.9,1.0*3B
$GPRMC,212116.000,A,3747.5897,N,12215.4554,W,2.93,233.83,180412,,,A*75
$GPVTG,233.83,T,,M,2.93,N,5.4,K,A*0D
$GPGGA,212117.000,3747.5892,N,12215.4562,W,1,04,4.9,7.9,M,-25.1,M,,0000*65
$GPGSA,A,3,07,04,13,10,,,,,,,,,5.0,4.9,1.0*3B
$GPGSV,3,1,12,23,68,353,31,20,57,184,21,16,50,092,25,13,43,307,40*75
$GPGSV,3,2,12,32,37,155,21,30,37,056,25,07,30,244,40,10,16,316,35*79
$GPGSV,3,3,12,04,14,293,37,03,04,127,17,06,03,112,20,31,02,053,*71
$GPRMC,212117.000,A,3747.5892,N,12215.4562,W,2.91,235.79,180412,,,A*75
$GPVTG,235.79,T,,M,2.91,N,5.4,K,A*0C
$GPGGA,212118.000,3747.5888,N,12215.4570,W,1,04,4.9,7.9,M,-25.1,M,,0000*62
$GPGSA,A,3,07,04,13,10,,,,,,,,,5.0,4.9,1.0*3B
$GPRMC,212118.000,A,3747.5888,N,12215.4570,W,3.02,239.59,180412,,,A*77
$GPVTG,239.59,T,,M,3.02,N,5.6,K,A*0B
$GPGGA,212119.000,3747.5884,N,12215.4578,W,1,04,4.9,8.0,M,-25.1,M,,0000*61
$GPGSA,A,3,07,04,13,10,,,,,,,,,5.0,4.9,1.0*3B
$GPRMC,212119.000,A,3747.5884,N,12215.4578,W,2.95,237.32,180412,,,A*7E
$GPVTG,237.32,T,,M,2.95,N,5.5,K,A*04
$GPGGA,212120.000,3747.5880,N,12215.4587,W,1,04,4.9,8.2,M,-25.1,M,,0000*6D
$GPGSA,A,3,07,04,13,10,,,,,,,,,5.0,4.9,1.0*3B
$GPRMC,212120.000,A,3747.5880,N,12215.4587,W,2.99,237.13,180412,,,A*7F
$GPVTG,237.13,T,,M,2.99,N,5.5,K,A*0B
$GPGGA,212121.000,3747.5875,N,12215.4596,W,1,04,4.9,8.3,M,-25.1,M,,0000*67
$GPGSA,A,3,07,04,13,10,,,,,,,,,5.0,4.9,1.0*3B
$GPRMC,212121.000,A,3747.5875,N,12215.4596,W,2.98,238.49,180412,,,A*75
$GPVTG,238.49,T,,M,2.98,N,5.5,K,A*0A
$GPGGA,212122.000,3747.5871,N,12215.4604,W,1,04,4.9,8.4,M,-25.1,M,,0000*6F
$GPGSA,A,3,07,04,13,10,,,,,,,,,5.0,4.9,1.0*3B
$GPGSV,3,1,12,23,68,353,31,20,57,184,22,16,50,092,21,13,43,307,40*72
$GPGSV,3,2,12,32,37,155,21,30,37,056,24,07,30,244,40,10,16,316,36*7B
$GPGSV,3,3,12,04,14,293,39,03,04,127,18,06,03,112,19,31,02,053,*7A
$GPRMC,212122.000,A,3747.5871,N,12215.4604,W,2.99,239.69,180412,,,A*78
$GPGGA,212123.000,3747.5867,N,12215.4613,W,1,04,4.9,8.6,M,-25.1,M,,0000*6D
$GPGSA,A,3,07,04,13,10,,,,,,,,,5.0,4.9,1.0*3B
$GPRMC,212123.000,A,3747.5867,N,12215.4613,W,2.89,238.77,180412,,,A*77
$GPVTG,238.77,T,,M,2.89,N,5.3,K,A*01
$GPGGA,212124.000,3747.5863,N,12215.4620,W,1,04,4.9,8.7,M,-25.1,M,,0000*6F
$GPGSA,A,3,07,04,13,10,,,,,,,,,5.0,4.9,1.0*3B
$GPRMC,212124.000,A,3747.5863,N,12215.4620,W,2.72,237.68,180412,,,A*71
$GPVTG,237.68,T,,M,2.72,N,5.0,K,A*07
$GPGGA,212125.000,3747.5859,N,12215.4628,W,1,04,4.9,8.8,M,-25.1,M,,0000*60
$GPGSA,A,3,07,04,13,10,,,,,,,,,5.0,4.9,1.0*3B
$GPRMC,212125.000,A,3747.5859,N,12215.4628,W,2.63,242.67,180412,,,A*7C
$GPVTG,242.67,T,,M,2.63,N,4.9,K,A*02
$GPGGA,212126.000,3747.5856,N,12215.4636,W,1,04,4.9,8.8,M,-25.1,M,,0000*63
$GPGSA,A,3,07,04,13,10,,,,,,,,,5.0,4.9,1.0*3B
$GPRMC,212126.000,A,3747.5856,N,12215.4636,W,2.65,242.22,180412,,,A*78
$GPVTG,242.22,T,,M,2.65,N,4.9,K,A*05
$GPGGA,212127.000,3747.5854,N,12215.4647,W,1,04,4.9,9.1,M,-25.1,M,,0000*6E
$GPGSA,A,3,07,04,13,10,,,,,,,,,5.0,4.9,1.0*3B
$GPGSV,3,1,12,23,68,353,31,20,57,184,28,16,50,092,21,13,43,307,40*78
$GPGSV,3,2,12,32,37,155,25,30,37,056,22,07,30,244,40,10,16,316,43*7B
$GPGSV,3,3,12,04,14,293,29,03,04,127,23,06,03,112,20,31,02,053,*79
$GPRMC,212127.000,A,3747.5854,N,12215.4647,W,2.48,248.15,180412,,,A*7C
$GPVTG,248.15,T,,M,2.48,N,4.6,K,A*0B
$GPGGA,212128.000,3747.5850,N,12215.4647,W,1,04,4.9,9.0,M,-25.1,M,,0000*64
$GPGSA,A,3,07,04,13,10,,,,,,,,,5.0,4.9,1.0*3B
$GPRMC,212128.000,A,3747.5850,N,12215.4647,W,1.88,239.48,180412,,,A*76
$GPVTG,239.48,T,,M,1.88,N,3.5,K,A*0E
$GPGGA,212129.000,3747.5849,N,12215.4654,W,1,04,4.9,9.2,M,-25.1,M,,0000*6D
$GPGSA,A,3,07,04,13,10,,,,,,,,,5.0,4.9,1.0*3B
$GPRMC,212129.000,A,3747.5849,N,12215.4654,W,1.44,252.41,180412,,,A*79
$GPVTG,252.41,T,,M,1.44,N,2.7,K,A*09
$GPGGA,212130.000,3747.5847,N,12215.4654,W,1,04,4.9,9.2,M,-25.1,M,,0000*6B
$GPGSA,A,3,07,04,13,10,,,,,,,,,5.0,4.9,1.0*3B
$GPRMC,212130.000,A,3747.5847,N,12215.4654,W,1.26,247.45,180412,,,A*7B
$GPVTG,247.45,T,,M,1.26,N,2.3,K,A*09
$GPGGA,212131.000,3747.5846,N,12215.4654,W,1,04,4.9,9.2,M,-25.1,M,,0000*6B
$GPGSA,A,3,07,04,13,10,,,,,,,,,5.0,4.9,1.0*3B
$GPRMC,212131.000,A,3747.5846,N,12215.4654,W,0.86,267.65,180412,,,A*70
$GPVTG,267.65,T,,M,0.86,N,1.6,K,A*04
$GPGGA,212132.000,3747.5846,N,12215.4651,W,2,04,4.9,8.8,M,-25.1,M,1.8,0000*42
$GPGSA,A,3,07,04,13,10,,,,,,,,,5.0,4.9,1.0*3B
$GPGSV,3,1,12,23,68,353,26,20,57,184,33,16,50,092,28,13,43,307,36*7C
$GPGSV,3,2,12,32,37,155,33,30,37,056,18,07,30,244,40,10,16,316,36*77
$GPGSV,3,3,12,04,14,293,29,03,04,127,23,06,03,112,19,31,02,053,*73
$GPRMC,212132.000,A,3747.5846,N,12215.4651,W,0.87,272.56,180412,,,D*76
$GPVTG,272.56,T,,M,0.87,N,1.6,K,D*04
$GPGGA,212133.000,3747.5846,N,12215.4650,W,2,04,4.9,8.6,M,-25.1,M,1.8,0000*4C
$GPGSA,A,3,07,04,13,10,,,,,,,,,5.0,4.9,1.0*3B
$GPRMC,212133.000,A,3747.5846,N,12215.4650,W,0.70,276.41,180412,,,D*7C
$GPVTG,276.41,T,,M,0.70,N,1.3,K,D*0B
$GPGGA,212134.000,3747.5846,N,12215.4652,W,2,04,4.9,8.7,M,-25.1,M,1.8,0000*48
$GPGSA,A,3,07,04,13,10,,,,,,,,,5.0,4.9,1.0*3B
$GPRMC,212134.000,A,3747.5846,N,12215.4652,W,0.73,277.80,180412,,,D*76
$GPVTG,277.80,T,,M,0.73,N,1.4,K,D*03
$GPGGA,212135.000,3747.5846,N,12215.4655,W,2,04,4.9,8.9,M,-25.1,M,2.8,0000*43
$GPGSA,A,3,07,04,13,10,,,,,,,,,5.0,4.9,1.0*3B
$GPRMC,212135.000,A,3747.5846,N,12215.4655,W,0.65,280.01,180412,,,D*76
$GPVTG,280.01,T,,M,0.65,N,1.2,K,D*03
$GPGGA,212136.000,3747.5846,N,12215.4658,W,2,04,4.9,9.1,M,-25.1,M,0.8,0000*46
$GPGSA,A,3,07,04,13,10,,,,,,,,,5.0,4.9,1.0*3B
$GPRMC,212136.000,A,3747.5846,N,12215.4658,W,0.64,279.95,180412,,,D*72
$GPVTG,279.95,T,,M,0.64,N,1.2,K,D*09
$GPGGA,212137.000,3747.5846,N,12215.4661,W,2,04,4.9,9.2,M,-25.1,M,1.8,0000*4F
$GPGSA,A,3,07,04,13,10,,,,,,,,,5.0,4.9,1.0*3B
$GPGSV,3,1,12,23,68,353,23,20,57,184,29,16,50,092,21,13,43,307,34*79
$GPGSV,3,2,12,32,37,155,35,30,37,056,17,07,30,244,40,10,16,316,35*7D
$GPGSV,3,3,12,04,14,293,29,03,04,127,14,06,03,112,19,31,02,053,*77
$GPRMC,212137.000,A,3747.5846,N,12215.4661,W,0.65,280.70,180412,,,D*75
$GPGGA,212138.000,3747.5846,N,12215.4664,W,2,04,4.9,9.3,M,-25.1,M,1.8,0000*44
$GPGSA,A,3,07,04,13,10,,,,,,,,,5.0,4.9,1.0*3B
$GPRMC,212138.000,A,3747.5846,N,12215.4664,W,0.71,276.38,180412,,,D*7F
$GPVTG,276.38,T,,M,0.71,N,1.3,K,D*04
$GPGGA,212139.000,3747.5847,N,12215.4666,W,2,04,4.9,9.4,M,-25.1,M,1.8,0000*41
$GPGSA,A,3,07,04,13,10,,,,,,,,,5.0,4.9,1.0*3B
$GPRMC,212139.000,A,3747.5847,N,12215.4666,W,0.78,276.51,180412,,,D*7B
$GPVTG,276.51,T,,M,0.78,N,1.4,K,D*05
$GPGGA,212140.000,3747.5847,N,12215.4668,W,2,04,4.9,9.3,M,-25.1,M,2.8,0000*45
$GPGSA,A,3,07,04,13,10,,,,,,,,,5.0,4.9,1.0*3B
$GPRMC,212140.000,A,3747.5847,N,12215.4668,W,0.75,277.75,180412,,,D*71
$GPVTG,277.75,T,,M,0.75,N,1.4,K,D*0F
$GPGGA,212141.000,3747.5847,N,12215.4668,W,2,04,4.9,9.3,M,-25.1,M,3.8,0000*45
$GPGSA,A,3,07,04,13,10,,,,,,,,,5.0,4.9,1.0*3B
$GPRMC,212141.000,A,3747.5847,N,12215.4668,W,0.78,277.77,180412,,,D*7F
$GPVTG,277.77,T,,M,0.78,N,1.5,K,D*01
$GPGGA,212142.000,3747.5847,N,12215.4668,W,2,04,4.9,9.1,M,-25.1,M,1.8,0000*46
$GPGSA,A,3,07,04,13,10,,,,,,,,,5.0,4.9,1.0*3B
$GPGSV,3,1,12,23,68,353,24,20,57,184,32,16,50,092,26,13,43,307,35*72
$GPGSV,3,2,12,32,37,155,23,30,37,056,17,07,30,244,40,10,16,316,32*7D
$GPGSV,3,3,12,04,14,293,30,03,04,127,27,06,03,112,,31,02,053,*77
$GPRMC,212142.000,A,3747.5847,N,12215.4668,W,0.73,278.71,180412,,,D*7E
$GPVTG,278.71,T,,M,0.73,N,1.3,K,D*05
$GPGGA,212143.000,3747.5847,N,12215.4668,W,2,04,4.9,9.0,M,-25.1,M,1.8,0000*46
$GPGSA,A,3,07,04,13,10,,,,,,,,,5.0,4.9,1.0*3B
$GPRMC,212143.000,A,3747.5847,N,12215.4668,W,0.74,279.09,180412,,,D*76
$GPVTG,279.09,T,,M,0.74,N,1.4,K,D*0B
$GPGGA,212144.000,3747.5847,N,12215.4665,W,2,04,4.9,8.8,M,-25.1,M,1.8,0000*45
$GPGSA,A,3,07,04,13,10,,,,,,,,,5.0,4.9,1.0*3B
$GPRMC,212144.000,A,3747.5847,N,12215.4665,W,0.48,283.69,180412,,,D*70
$GPVTG,283.69,T,,M,0.48,N,0.9,K,D*0B
$GPGGA,212145.000,3747.5846,N,12215.4662,W,2,04,4.9,8.6,M,-25.1,M,2.8,0000*4F
$GPGSA,A,3,07,04,13,10,,,,,,,,,5.0,4.9,1.0*3B
$GPRMC,212145.000,A,3747.5846,N,12215.4662,W,0.39,288.51,180412,,,D*71
$GPVTG,288.51,T,,M,0.39,N,0.7,K,D*03
$GPGGA,212146.000,3747.5846,N,12215.4657,W,2,04,4.9,8.3,M,-25.1,M,3.8,0000*4E
$GPGSA,A,3,07,04,13,10,,,,,,,,,5.0,4.9,1.0*3B
$GPRMC,212146.000,A,3747.5846,N,12215.4657,W,0.23,288.34,180412,,,D*7C
$GPVTG,288.34,T,,M,0.23,N,0.4,K,D*08
$GPGGA,212147.000,3747.5846,N,12215.4651,W,2,04,4.9,8.0,M,-25.1,M,4.8,0000*4D
$GPGSA,A,3,07,04,13,10,,,,,,,,,5.0,4.9,1.0*3B
$GPGSV,3,1,12,23,68,353,23,20,57,184,32,16,50,092,26,13,43,307,35*75
$GPGSV,3,2,12,32,37,155,28,30,37,056,16,07,30,244,40,10,16,316,32*77
$GPGSV,3,3,12,04,14,293,30,03,04,127,27,06,03,112,,31,02,053,*77
$GPRMC,212147.000,A,3747.5846,N,12215.4651,W,0.09,303.48,180412,,,D*7A
$GPVTG,303.48,T,,M,0.09,N,0.2,K,D*0F
$GPGGA,212148.000,3747.5845,N,12215.4646,W,2,04,4.9,7.7,M,-25.1,M,1.8,0000*4A
$GPGSA,A,3,07,04,13,10,,,,,,,,,5.0,4.9,1.0*3B
$GPRMC,212148.000,A,3747.5845,N,12215.4646,W,0.06,0.63,180412,,,D*76
$GPVTG,0.63,T,,M,0.06,N,0.1,K,D*0A
$GPGGA,212149.000,3747.5845,N,12215.4640,W,2,04,4.9,7.4,M,-25.1,M,1.8,0000*4E
$GPGSA,A,3,07,04,13,10,,,,,,,,,5.0,4.9,1.0*3B
$GPRMC,212149.000,A,3747.5845,N,12215.4640,W,0.07,98.57,180412,,,D*46
$GPVTG,98.57,T,,M,0.07,N,0.1,K,D*3D
$GPGGA,212150.000,3747.5845,N,12215.4643,W,2,04,4.9,7.3,M,-25.1,M,1.8,0000*42
$GPGSA,A,3,07,04,13,10,,,,,,,,,5.0,4.9,1.0*3B
$GPRMC,212150.000,A,3747.5845,N,12215.4643,W,0.11,322.83,180412,,,D*71
$GPVTG,322.83,T,,M,0.11,N,0.2,K,D*02
$GPGGA,212151.000,3747.5844,N,12215.4637,W,2,04,4.9,7.9,M,-25.1,M,2.8,0000*48
$GPGSA,A,3,07,04,13,10,,,,,,,,,4.9,4.9,1.0*33
$GPRMC,212151.000,A,3747.5844,N,12215.4637,W,0.56,66.28,180412,,,D*43
$GPVTG,66.28,T,,M,0.56,N,1.0,K,D*30
$GPGGA,212152.000,3747.5844,N,12215.4619,W,2,04,4.8,9.0,M,-25.1,M,3.8,0000*40
$GPGSA,A,3,07,04,13,10,,,,,,,,,4.9,4.8,1.0*32
$GPGSV,3,1,12,23,68,353,18,20,57,184,41,16,50,092,33,13,43,307,23*7A
$GPGSV,3,2,12,32,37,155,40,30,37,056,15,07,30,244,32,10,16,316,20*7C
$GPGSV,3,3,12,04,14,293,28,03,04,127,24,06,03,112,15,31,02,053,*79
$GPRMC,212152.000,A,3747.5844,N,12215.4619,W,0.51,116.25,180412,,,D*70
$GPGGA,212153.000,3747.5843,N,12215.4632,W,2,04,4.8,10.7,M,-25.1,M,4.8,0000*77
$GPGSA,A,3,07,04,13,10,,,,,,,,,4.9,4.8,1.0*32
$GPRMC,212153.000,A,3747.5843,N,12215.4632,W,0.66,152.27,180412,,,D*79
$GPVTG,152.27,T,,M,0.66,N,1.2,K,D*08
$GPGGA,212154.000,3747.5844,N,12215.4647,W,2,04,4.8,11.8,M,-25.1,M,1.8,0000*7E
$GPGSA,A,3,07,04,13,10,,,,,,,,,4.9,4.8,1.0*32
$GPRMC,212154.000,A,3747.5844,N,12215.4647,W,0.24,127.81,180412,,,D*73
$GPVTG,127.81,T,,M,0.24,N,0.5,K,D*06
$GPGGA,212155.000,3747.5843,N,12215.4656,W,2,04,4.8,12.7,M,-25.1,M,1.8,0000*74
$GPGSA,A,3,07,04,13,10,,,,,,,,,4.9,4.8,1.0*32
$GPRMC,212155.000,A,3747.5843,N,12215.4656,W,0.24,183.42,180412,,,D*74
$GPVTG,183.42,T,,M,0.24,N,0.4,K,D*06
$GPGGA,212156.000,3747.5844,N,12215.4650,W,2,04,4.8,12.9,M,-25.1,M,1.8,0000*78
$GPGSA,A,3,07,04,13,10,,,,,,,,,4.9,4.8,1.0*32
$GPRMC,212156.000,A,3747.5844,N,12215.4650,W,0.12,24.59,180412,,,D*45
$GPVTG,24.59,T,,M,0.12,N,0.2,K,D*33
$GPGGA,212157.000,3747.5846,N,12215.4640,W,2,04,4.8,12.3,M,-25.1,M,2.8,0000*73
$GPGSA,A,3,07,04,13,10,,,,,,,,,4.9,4.8,1.0*32
$GPGSV,3,1,12,23,68,353,21,20,57,184,39,16,50,092,32,13,43,307,28*75
$GPGSV,3,2,12,32,37,155,40,30,37,056,16,07,30,244,36,10,16,316,25*7E
$GPGSV,3,3,12,04,14,293,27,03,04,127,14,06,03,112,15,31,02,053,*75
$GPRMC,212157.000,A,3747.5846,N,12215.4640,W,0.42,343.84,180412,,,D*70
$GPVTG,343.84,T,,M,0.42,N,0.8,K,D*0E
$GPGGA,212158.000,3747.5846,N,12215.4631,W,2,04,4.8,11.6,M,-25.1,M,3.8,0000*7D
$GPGSA,A,3,07,04,13,10,,,,,,,,,4.9,4.8,1.0*32
$GPRMC,212158.000,A,3747.5846,N,12215.4631,W,0.26,313.66,180412,,,D*72
$GPVTG,313.66,T,,M,0.26,N,0.5,K,D*08
$GPGGA,212159.000,3747.5846,N,12215.4623,W,2,04,4.8,11.0,M,-25.1,M,4.8,0000*7E
$GPGSA,A,3,07,04,13,10,,,,,,,,,4.9,4.8,1.0*32
$GPRMC,212159.000,A,3747.5846,N,12215.4623,W,0.28,283.00,180412,,,D*76
$GPVTG,283.00,T,,M,0.28,N,0.5,K,D*0E
$GPGGA,212200.000,3747.5846,N,12215.4618,W,2,04,4.8,10.6,M,-25.1,M,1.8,0000*7B
$GPGSA,A,3,07,04,13,10,,,,,,,,,4.9,4.8,1.0*32
$GPRMC,212200.000,A,3747.5846,N,12215.4618,W,0.48,293.45,180412,,,D*77
$GPVTG,293.45,T,,M,0.48,N,0.9,K,D*04
$GPGGA,212201.000,3747.5845,N,12215.4613,W,2,04,4.8,10.2,M,-25.1,M,1.8,0000*76
$GPGSA,A,3,07,04,13,10,,,,,,,,,4.9,4.8,1.0*32
$GPRMC,212201.000,A,3747.5845,N,12215.4613,W,0.37,258.76,180412,,,D*71
$GPVTG,258.76,T,,M,0.37,N,0.7,K,D*05
$GPGGA,212202.000,3747.5844,N,12215.4608,W,2,04,4.8,9.8,M,-25.1,M,2.8,0000*4F
$GPGSA,A,3,07,04,13,10,,,,,,,,,4.9,4.8,1.0*32
$GPGSV,3,1,12,23,68,353,37,20,57,184,23,16,50,092,25,13,43,307,38*7E
$GPGSV,3,2,12,32,37,155,25,30,37,056,,07,30,244,35,10,16,316,42*78
$GPGSV,3,3,12,04,14,293,36,03,04,127,27,06,03,112,29,31,02,053,*7A
$GPRMC,212202.000,A,3747.5844,N,12215.4608,W,0.41,265.29,180412,,,D*7C
$GPVTG,265.29,T,,M,0.41,N,0.8,K,D*0F
$GPGGA,212203.000,3747.5844,N,12215.4605,W,2,04,4.8,9.5,M,-25.1,M,3.8,0000*4F
$GPGSA,A,3,07,04,13,10,,,,,,,,,4.9,4.8,1.0*32
$GPRMC,212203.000,A,3747.5844,N,12215.4605,W,0.37,275.93,180412,,,D*71
$GPVTG,275.93,T,,M,0.37,N,0.7,K,D*01
$GPGGA,212204.000,3747.5844,N,12215.4601,W,2,04,4.8,9.2,M,-25.1,M,4.8,0000*4C
$GPGSA,A,3,07,04,13,10,,,,,,,,,4.9,4.8,1.0*32
$GPRMC,212204.000,A,3747.5844,N,12215.4601,W,0.32,277.17,180412,,,D*79
$GPVTG,277.17,T,,M,0.32,N,0.6,K,D*0B
$GPGGA,212205.000,3747.5843,N,12215.4598,W,2,04,4.8,8.9,M,-25.1,M,5.8,0000*42
$GPGSA,A,3,07,04,13,10,,,,,,,,,4.9,4.8,1.0*32
$GPRMC,212205.000,A,3747.5843,N,12215.4598,W,0.31,277.85,180412,,,D*74
$GPVTG,277.85,T,,M,0.31,N,0.6,K,D*03
$GPGGA,212206.000,3747.5843,N,12215.4597,W,2,04,4.8,8.7,M,-25.1,M,6.8,0000*43
$GPGSA,A,3,07,04,13,10,,,,,,,,,4.9,4.8,1.0*32
$GPRMC,212206.000,A,3747.5843,N,12215.4597,W,0.33,275.86,180412,,,D*7B
$GPVTG,275.86,T,,M,0.33,N,0.6,K,D*00
$GPGGA,212207.000,3747.5843,N,12215.4595,W,2,04,4.8,8.5,M,-25.1,M,7.8,0000*43
$GPGSA,A,3,07,04,13,10,,,,,,,,,4.9,4.8,1.0*32
$GPGSV,3,1,12,23,68,353,36,20,57,184,26,16,50,092,21,13,43,307,40*71
$GPGSV,3,2,12,32,37,155,19,30,37,056,22,07,30,244,38,10,16,316,42*7A
$GPGSV,3,3,12,04,14,293,34,03,04,127,29,06,03,112,29,31,02,053,*76
$GPVTG,277.94,T,,M,0.32,N,0.6,K,D*00
$GPGGA,212208.000,3747.5843,N,12215.4593,W,2,04,4.8,8.3,M,-25.1,M,8.8,0000*43
$GPGSA,A,3,07,04,13,10,,,,,,,,,4.9,4.8,1.0*32
$GPRMC,212208.000,A,3747.5843,N,12215.4593,W,0.34,274.35,180412,,,D*7F
$GPVTG,274.35,T,,M,0.34,N,0.6,K,D*0E
$GPGGA,212209.000,3747.5843,N,12215.4592,W,2,04,4.8,8.1,M,-25.1,M,9.8,0000*40
$GPGSA,A,3,07,04,13,10,,,,,,,,,4.9,4.8,1.0*32
$GPRMC,212209.000,A,3747.5843,N,12215.4592,W,0.33,274.40,180412,,,D*7A
$GPVTG,274.40,T,,M,0.33,N,0.6,K,D*0B
$GPGGA,212210.000,3747.5843,N,12215.4590,W,2,04,4.8,7.9,M,-25.1,M,10.8,0000*75
$GPGSA,A,3,07,04,13,10,,,,,,,,,4.9,4.8,1.0*32
$GPRMC,212210.000,A,3747.5843,N,12215.4590,W,0.34,272.14,180412,,,D*70
$GPVTG,272.14,T,,M,0.34,N,0.6,K,D*0B
$GPGGA,212211.000,3747.5843,N,12215.4589,W,2,04,4.8,7.7,M,-25.1,M,11.8,0000*73
$GPGSA,A,3,07,04,13,10,,,,,,,,,4.9,4.8,1.0*32
$GPRMC,212211.000,A,3747.5843,N,12215.4589,W,0.33,294.37,180412,,,D*77
$GPVTG,294.37,T,,M,0.33,N,0.6,K,D*05
$GPGGA,212212.000,3747.5843,N,12215.4588,W,2,04,4.8,7.6,M,-25.1,M,12.8,0000*73
$GPGSA,A,3,07,04,13,10,,,,,,,,,4.9,4.8,1.0*32
$GPGSV,3,1,12,23,68,353,36,20,57,184,27,16,50,092,,13,43,307,40*73
$GPGSV,3,2,12,32,37,155,20,30,37,056,22,07,30,244,39,10,16,316,42*71
$GPGSV,3,3,12,04,14,293,34,03,04,127,29,06,03,112,29,31,02,053,*76
$GPRMC,212212.000,A,3747.5843,N,12215.4588,W,0.43,283.75,180412,,,D*72
$GPVTG,283.75,T,,M,0.43,N,0.8,K,D*0C
$GPGGA,212213.000,3747.5843,N,12215.4589,W,2,04,4.8,7.4,M,-25.1,M,13.8,0000*70
$GPGSA,A,3,07,04,13,10,,,,,,,,,4.9,4.8,1.0*32
$GPRMC,212213.000,A,3747.5843,N,12215.4589,W,1.15,234.82,180412,,,D*74
$GPVTG,234.82,T,,M,1.15,N,2.1,K,D*01
$GPGGA,212214.000,3747.5839,N,12215.4580,W,2,04,4.8,6.9,M,-25.1,M,14.8,0000*78
$GPGSA,A,3,07,04,13,10,,,,,,,,,4.9,4.8,1.0*32
$GPRMC,212214.000,A,3747.5839,N,12215.4580,W,1.28,220.60,180412,,,D*70
$GPVTG,220.60,T,,M,1.28,N,2.4,K,D*03
$GPGGA,212215.000,3747.5835,N,12215.4578,W,2,04,4.8,6.5,M,-25.1,M,15.8,0000*7F
$GPGSA,A,3,07,04,13,10,,,,,,,,,4.9,4.8,1.0*32
$GPRMC,212215.000,A,3747.5835,N,12215.4578,W,1.56,210.90,180412,,,D*7F
$GPVTG,210.90,T,,M,1.56,N,2.9,K,D*0B
$GPGGA,212216.000,3747.5830,N,12215.4578,W,2,04,4.8,6.3,M,-25.1,M,16.8,0000*7C
$GPGSA,A,3,07,04,13,10,,,,,,,,,4.9,4.8,1.0*32
$GPRMC,212216.000,A,3747.5830,N,12215.4578,W,1.88,212.56,180412,,,D*72
$GPVTG,212.56,T,,M,1.88,N,3.5,K,D*0D
$GPGGA,212217.000,3747.5826,N,12215.4580,W,2,04,4.8,6.0,M,-25.1,M,17.8,0000*7F
$GPGSA,A,3,07,04,13,10,,,,,,,,,4.9,4.8,1.0*32
$GPGSV,3,1,12,23,68,353,30,20,57,184,28,16,50,092,23,13,43,307,40*7B
$GPGSV,3,2,12,32,37,155,26,30,37,056,21,07,30,244,39,10,16,316,37*76
$GPGSV,3,3,12,04,14,293,37,03,04,127,22,06,03,112,17,31,02,053,*73
$GPRMC,212217.000,A,3747.5826,N,12215.4580,W,1.83,222.18,180412,,,D*71
$GPVTG,222.18,T,,M,1.83,N,3.4,K,D*0E
$GPGGA,212218.000,3747.5822,N,12215.4586,W,1,04,4.8,6.0,M,-25.1,M,,0000*61
$GPGSA,A,3,07,04,13,10,,,,,,,,,4.9,4.8,1.0*32
$GPRMC,212218.000,A,3747.5822,N,12215.4586,W,2.19,228.96,180412,,,A*75
$GPVTG,228.96,T,,M,2.19,N,4.1,K,A*05
$GPGGA,212219.000,3747.5820,N,12215.4595,W,1,04,4.8,6.1,M,-25.1,M,,0000*61
$GPGSA,A,3,07,04,13,10,,,,,,,,,4.9,4.8,1.0*32
$GPRMC,212219.000,A,3747.5820,N,12215.4595,W,2.12,248.17,180412,,,A*70
$GPVTG,248.17,T,,M,2.12,N,3.9,K,A*0E
$GPGGA,212220.000,3747.5817,N,12215.4603,W,1,04,4.8,6.2,M,-25.1,M,,0000*60
$GPGSA,A,3,07,04,13,10,,,,,,,,,4.9,4.8,1.0*32
$GPRMC,212220.000,A,3747.5817,N,12215.4603,W,2.31,246.88,180412,,,A*7B
$GPVTG,246.88,T,,M,2.31,N,4.3,K,A*0A
$GPGGA,212221.000,3747.5815,N,12215.4612,W,1,04,4.8,6.2,M,-25.1,M,,0000*63
$GPGSA,A,3,07,04,13,10,,,,,,,,,4.9,4.8,1.0*32
$GPRMC,212221.000,A,3747.5815,N,12215.4612,W,2.60,248.41,180412,,,A*77
$GPVTG,248.41,T,,M,2.60,N,4.8,K,A*0E
$GPGGA,212222.000,3747.5812,N,12215.4618,W,1,04,4.8,6.3,M,-25.1,M,,0000*6C
$GPGSA,A,3,07,04,13,10,,,,,,,,,4.9,4.8,1.0*32
$GPGSV,3,1,12,23,68,353,31,20,57,184,28,16,50,092,23,13,43,307,40*7A
$GPGSV,3,2,12,32,37,155,,30,37,056,21,07,30,244,40,10,16,316,37*7C
$GPGSV,3,3,12,04,14,293,43,03,04,127,24,06,03,112,18,31,02,053,*79
$GPVTG,233.91,T,,M,2.20,N,4.1,K,A*02
$GPGGA,212223.000,3747.5810,N,12215.4625,W,1,04,4.8,6.4,M,-25.1,M,,0000*66
$GPGSA,A,3,07,04,13,10,,,,,,,,,4.9,4.8,1.0*32
$GPRMC,212223.000,A,3747.5810,N,12215.4625,W,1.87,255.34,180412,,,A*70
$GPVTG,255.34,T,,M,1.87,N,3.5,K,A*00
$GPGGA,212224.000,3747.5808,N,12215.4635,W,1,04,4.8,6.6,M,-25.1,M,,0000*6B
$GPGSA,A,3,07,04,13,10,,,,,,,,,4.9,4.8,1.0*32
$GPRMC,212224.000,A,3747.5808,N,12215.4635,W,2.57,250.00,180412,,,A*73
$GPVTG,250.00,T,,M,2.57,N,4.8,K,A*06
$GPGGA,212225.000,3747.5805,N,12215.4645,W,1,04,4.8,6.8,M,-25.1,M,,0000*6E
$GPGSA,A,3,07,04,13,10,,,,,,,,,4.9,4.8,1.0*32
$GPRMC,212225.000,A,3747.5805,N,12215.4645,W,2.87,246.90,180412,,,A*7B
$GPVTG,246.90,T,,M,2.87,N,5.3,K,A*0F
$GPGGA,212226.000,3747.5802,N,12215.4655,W,1,04,4.8,7.0,M,-25.1,M,,0000*62
$GPGSA,A,3,07,04,13,10,,,,,,,,,4.9,4.8,1.0*32
$GPRMC,212226.000,A,3747.5802,N,12215.4655,W,2.85,241.87,180412,,,A*7D
$GPVTG,241.87,T,,M,2.85,N,5.3,K,A*0C
$GPGGA,212227.000,3747.5798,N,12215.4664,W,1,04,4.8,7.1,M,-25.1,M,,0000*6C
$GPGSA,A,3,07,04,13,10,,,,,,,,,4.9,4.8,1.0*32
$GPGSV,3,1,12,23,68,353,35,20,57,184,29,16,50,092,23,13,43,307,40*7F
$GPGSV,3,2,12,32,37,155,24,30,37,056,27,07,30,244,40,10,16,316,38*73
$GPGSV,3,3,12,04,14,293,39,03,04,127,33,06,03,112,20,31,02,053,*79
$GPRMC,212227.000,A,3747.5798,N,12215.4664,W,2.77,236.29,180412,,,A*7B
$GPVTG,236.29,T,,M,2.77,N,5.1,K,A*07
$GPGGA,212228.000,3747.5793,N,12215.4673,W,1,04,4.8,7.3,M,-25.1,M,,0000*6C
$GPGSA,A,3,07,04,13,10,,,,,,,,,4.9,4.8,1.0*32
$GPRMC,212228.000,A,3747.5793,N,12215.4673,W,3.18,240.95,180412,,,A*77
$GPVTG,240.95,T,,M,3.18,N,5.9,K,A*01
$GPGGA,212229.000,3747.5789,N,12215.4683,W,1,04,4.8,7.4,M,-25.1,M,,0000*6E
$GPGSA,A,3,07,04,13,10,,,,,,,,,4.9,4.8,1.0*32
$GPRMC,212229.000,A,3747.5789,N,12215.4683,W,3.07,239.23,180412,,,A*7F
$GPVTG,239.23,T,,M,3.07,N,5.7,K,A*02
$GPGGA,212230.000,3747.5784,N,12215.4693,W,1,04,4.8,7.6,M,-25.1,M,,0000*68
$GPGSA,A,3,07,04,13,10,,,,,,,,,4.9,4.8,1.0*32
$GPRMC,212230.000,A,3747.5784,N,12215.4693,W,2.96,240.05,180412,,,A*78
$GPVTG,240.05,T,,M,2.96,N,5.5,K,A*03
$GPGGA,212231.000,3747.5780,N,12215.4702,W,1,04,4.8,7.8,M,-25.1,M,,0000*6A
$GPGSA,A,3,07,04,13,10,,,,,,,,,4.9,4.8,1.0*32
$GPRMC,212231.000,A,3747.5780,N,12215.4702,W,2.87,236.29,180412,,,A*7B
$GPVTG,236.29,T,,M,2.87,N,5.3,K,A*0A
$GPGGA,212232.000,3747.5776,N,12215.4712,W,1,04,4.8,8.0,M,-25.1,M,,0000*66
$GPGSA,A,3,07,04,13,10,,,,,,,,,4.9,4.8,1.0*32
$GPGSV,3,1,12,23,68,353,35,20,57,184,29,16,50,092,23,13,43,307,40*7F
$GPGSV,3,2,12,32,37,155,25,30,37,056,28,07,30,244,39,10,16,316,32*79
$GPGSV,3,3,12,04,14,293,42,03,04,127,26,06,03,112,19,31,02,053,*7B
$GPRMC,212232.000,A,3747.5776,N,12215.4712,W,2.88,239.80,180412,,,A*73
$GPVTG,239.80,T,,M,2.88,N,5.3,K,A*09
$GPGGA,212233.000,3747.5772,N,12215.4722,W,1,04,4.8,8.2,M,-25.1,M,,0000*62
$GPGSA,A,3,07,04,13,10,,,,,,,,,4.9,4.8,1.0*32
$GPRMC,212233.000,A,3747.5772,N,12215.4722,W,3.00,239.00,180412,,,A*7C
$GPVTG,239.00,T,,M,3.00,N,5.5,K,A*06
$GPGGA,212234.000,3747.5767,N,12215.4732,W,1,04,4.8,8.3,M,-25.1,M,,0000*61
$GPGSA,A,3,07,04,13,10,,,,,,,,,4.9,4.8,1.0*32
$GPRMC,212234.000,A,3747.5767,N,12215.4732,W,2.91,238.06,180412,,,A*70
$GPVTG,238.06,T,,M,2.91,N,5.4,K,A*09
$GPGGA,212235.000,3747.5763,N,12215.4740,W,1,04,4.8,8.5,M,-25.1,M,,0000*67
$GPGSA,A,3,07,04,13,10,,,,,,,,,4.9,4.8,1.0*32
$GPRMC,212235.000,A,3747.5763,N,12215.4740,W,2.76,237.36,180412,,,A*75
$GPVTG,237.36,T,,M,2.76,N,5.1,K,A*09
$GPGGA,212236.000,3747.5759,N,12215.4748,W,1,04,4.8,8.6,M,-25.1,M,,0000*66
$GPGSA,A,3,07,04,13,10,,,,,,,,,4.9,4.8,1.0*32
$GPRMC,212236.000,A,3747.5759,N,12215.4748,W,2.55,235.64,180412,,,A*73
$GPVTG,235.64,T,,M,2.55,N,4.7,K,A*0A
$GPGGA,212237.000,3747.5755,N,12215.4755,W,1,04,4.8,8.8,M,-25.1,M,,0000*69
$GPGSA,A,3,07,04,13,10,,,,,,,,,4.9,4.8,1.0*32
$GPGSV,3,1,12,23,68,353,34,20,57,184,29,16,50,092,24,13,43,307,40*79
$GPGSV,3,2,12,32,37,155,25,30,37,056,22,07,30,244,39,10,16,316,35*74
$GPGSV,3,3,12,04,14,293,42,03,04,127,26,06,03,112,20,31,02,053,*71
$GPRMC,212237.000,A,3747.5755,N,12215.4755,W,2.66,233.29,180412,,,A*7D
$GPGGA,212238.000,3747.5751,N,12215.4763,W,1,04,4.8,8.9,M,-25.1,M,,0000*66
$GPGSA,A,3,07,04,13,10,,,,,,,,,4.9,4.8,1.0*32
$GPRMC,212238.000,A,3747.5751,N,12215.4763,W,2.27,242.89,180412,,,A*7A
$GPVTG,242.89,T,,M,2.27,N,4.2,K,A*09
$GPGGA,212239.000,3747.5747,N,12215.4770,W,1,04,4.8,8.6,M,-25.1,M,,0000*6D
$GPGSA,A,3,07,04,13,10,,,,,,,,,4.9,4.8,1.0*32
$GPRMC,212239.000,A,3747.5747,N,12215.4770,W,2.64,243.47,180412,,,A*7A
$GPVTG,243.47,T,,M,2.64,N,4.9,K,A*06
$GPGGA,212240.000,3747.5742,N,12215.4778,W,1,04,4.8,8.3,M,-25.1,M,,0000*6B
$GPGSA,A,3,07,04,13,10,,,,,,,,,4.9,4.8,1.0*32
$GPRMC,212240.000,A,3747.5742,N,12215.4778,W,2.84,237.78,180412,,,A*78
$GPVTG,237.78,T,,M,2.84,N,5.3,K,A*0C
$GPGGA,212241.000,3747.5737,N,12215.4786,W,1,04,4.8,8.3,M,-25.1,M,,0000*69
$GPGSA,A,3,07,04,13,10,,,,,,,,,4.9,4.8,1.0*32
$GPRMC,212241.000,A,3747.5737,N,12215.4786,W,2.70,233.24,180412,,,A*7C
$GPVTG,233.24,T,,M,2.70,N,5.0,K,A*09
$GPGGA,212242.000,3747.5732,N,12215.4792,W,1,04,4.8,8.1,M,-25.1,M,,0000*68
$GPGSA,A,3,07,04,13,10,,,,,,,,,4.9,4.8,1.0*32
$GPGSV,3,1,12,23,68,353,29,20,57,184,29,16,50,092,24,13,43,307,40*75
$GPGSV,3,2,12,32,37,155,25,30,37,056,24,07,30,244,39,10,16,316,38*7F
$GPGSV,3,3,12,04,14,293,41,03,04,127,25,06,03,112,20,31,02,053,*71
$GPRMC,212242.000,A,3747.5732,N,12215.4792,W,2.58,230.54,180412,,,A*71
$GPVTG,230.54,T,,M,2.58,N,4.8,K,A*0E
$GPGGA,212243.000,3747.5727,N,12215.4799,W,1,04,4.8,8.0,M,-25.1,M,,0000*67
$GPGSA,A,3,07,04,13,10,,,,,,,,,4.9,4.8,1.0*32
$GPRMC,212243.000,A,3747.5727,N,12215.4799,W,2.13,232.97,180412,,,A*7D
$GPVTG,232.97,T,,M,2.13,N,4.0,K,A*04
$GPGGA,212244.000,3747.5725,N,12215.4803,W,1,04,4.8,8.0,M,-25.1,M,,0000*6E
$GPGSA,A,3,07,04,13,10,,,,,,,,,4.9,4.8,1.0*32
$GPRMC,212244.000,A,3747.5725,N,12215.4803,W,1.09,247.79,180412,,,A*7E
$GPVTG,247.79,T,,M,1.09,N,2.0,K,A*08
$GPGGA,212245.000,3747.5724,N,12215.4806,W,1,04,4.8,8.0,M,-25.1,M,,0000*6B
$GPGSA,A,3,07,04,13,10,,,,,,,,,4.9,4.8,1.0*32
$GPRMC,212245.000,A,3747.5724,N,12215.4806,W,0.69,276.26,180412,,,A*74
$GPVTG,276.26,T,,M,0.69,N,1.3,K,A*07
$GPGGA,212246.000,3747.5724,N,12215.4809,W,1,04,4.8,8.1,M,-25.1,M,,0000*66
$GPGSA,A,3,07,04,13,10,,,,,,,,,4.9,4.8,1.0*32
$GPRMC,212246.000,A,3747.5724,N,12215.4809,W,0.71,278.88,180412,,,A*7B
$GPVTG,278.88,T,,M,0.71,N,1.3,K,A*04
$GPGGA,212247.000,3747.5724,N,12215.4812,W,1,04,4.8,8.2,M,-25.1,M,,0000*6E
$GPGSA,A,3,07,04,13,10,,,,,,,,,4.9,4.8,1.0*32
$GPGSV,3,1,12,23,68,354,31,20,56,184,29,16,50,090,,13,44,308,39*78
$GPGSV,3,2,12,30,37,056,,32,36,155,24,07,31,245,41,10,17,316,40*78
$GPGSV,3,3,12,04,14,292,41,03,05,126,24,06,03,111,11,31,01,053,*73
$GPRMC,212247.000,A,3747.5724,N,12215.4812,W,0.68,282.36,180412,,,A*78
$GPVTG,282.36,T,,M,0.68,N,1.3,K,A*0C
$GPGGA,212248.000,3747.5725,N,12215.4815,W,1,04,4.8,8.4,M,-25.1,M,,0000*61
$GPGSA,A,3,07,04,13,10,,,,,,,,,4.9,4.8,1.0*32
$GPRMC,212248.000,A,3747.5725,N,12215.4815,W,0.65,278.40,180412,,,A*78
$GPVTG,278.40,T,,M,0.65,N,1.2,K,A*04
$GPGGA,212249.000,3747.5725,N,12215.4818,W,1,04,4.8,8.5,M,-25.1,M,,0000*6C
$GPGSA,A,3,07,04,13,10,,,,,,,,,4.9,4.8,1.0*32
$GPRMC,212249.000,A,3747.5725,N,12215.4818,W,0.63,286.68,180412,,,A*79
$GPVTG,286.68,T,,M,0.63,N,1.2,K,A*09
$GPGGA,212250.000,3747.5725,N,12215.4820,W,1,04,4.8,8.6,M,-25.1,M,,0000*6C
$GPGSA,A,3,07,04,13,10,,,,,,,,,4.9,4.8,1.0*32
$GPRMC,212250.000,A,3747.5725,N,12215.4820,W,0.63,278.98,180412,,,A*74
$GPVTG,278.98,T,,M,0.63,N,1.2,K,A*07
$GPGGA,212251.000,3747.5725,N,12215.4822,W,1,04,4.8,8.7,M,-25.1,M,,0000*6E
$GPGSA,A,3,07,04,13,10,,,,,,,,,4.9,4.8,1.0*32
$GPRMC,212251.000,A,3747.5725,N,12215.4822,W,0.63,279.11,180412,,,A*77
$GPVTG,279.11,T,,M,0.63,N,1.2,K,A*07
$GPGGA,212252.000,3747.5725,N,12215.4824,W,1,04,4.8,8.7,M,-25.1,M,,0000*6B
$GPGSA,A,3,07,04,13,10,,,,,,,,,4.9,4.8,1.0*32
$GPGSV,3,1,12,23,68,354,32,20,56,184,29,16,50,090,25,13,44,308,40*72
$GPGSV,3,2,12,30,37,056,29,32,36,155,23,07,31,245,40,10,17,316,40*75
$GPGSV,3,3,12,04,14,292,40,03,05,126,16,06,03,111,14,31,01,053,*76
$GPRMC,212252.000,A,3747.5725,N,12215.4824,W,0.64,274.48,180412,,,A*74
$GPGGA,212253.000,3747.5725,N,12215.4825,W,1,04,4.8,8.8,M,-25.1,M,,0000*64
$GPGSA,A,3,07,04,13,10,,,,,,,,,4.9,4.8,1.0*32
$GPRMC,212253.000,A,3747.5725,N,12215.4825,W,0.63,261.36,180412,,,A*7E
$GPVTG,261.36,T,,M,0.63,N,1.2,K,A*0B
$GPGGA,212254.000,3747.5725,N,12215.4826,W,1,04,4.7,8.8,M,-25.1,M,,0000*6F
$GPGSA,A,3,07,04,13,10,,,,,,,,,4.9,4.7,1.0*3D
$GPRMC,212254.000,A,3747.5725,N,12215.4826,W,0.57,277.99,180412,,,A*7F
$GPVTG,277.99,T,,M,0.57,N,1.1,K,A*0D
$GPGGA,212255.000,3747.5725,N,12215.4827,W,1,04,4.7,8.8,M,-25.1,M,,0000*6F
$GPGSA,A,3,07,04,13,10,,,,,,,,,4.8,4.7,1.0*3C
$GPRMC,212255.000,A,3747.5725,N,12215.4827,W,0.57,301.89,180412,,,A*7E
$GPVTG,301.89,T,,M,0.57,N,1.0,K,A*0D
$GPGGA,212256.000,3747.5725,N,12215.4828,W,1,04,4.7,8.9,M,-25.1,M,,0000*62
$GPGSA,A,3,07,04,13,10,,,,,,,,,4.8,4.7,1.0*3C
$GPRMC,212256.000,A,3747.5725,N,12215.4828,W,0.53,281.03,180412,,,A*7D
$GPVTG,281.03,T,,M,0.53,N,1.0,K,A*02
$GPGGA,212257.000,3747.5725,N,12215.4829,W,1,04,4.7,8.9,M,-25.1,M,,0000*62
$GPGSA,A,3,07,04,13,10,,,,,,,,,4.8,4.7,1.0*3C
$GPGSV,3,1,12,23,68,354,32,20,56,184,29,16,50,090,24,13,44,308,40*73
$GPGSV,3,2,12,30,37,056,30,32,36,155,24,07,31,245,40,10,17,316,39*74
$GPGSV,3,3,12,04,14,292,37,03,05,126,17,06,03,111,14,31,01,053,*77
$GPRMC,212257.000,A,3747.5725,N,12215.4829,W,0.59,269.53,180412,,,A*74
$GPVTG,269.53,T,,M,0.59,N,1.1,K,A*0A
$GPGGA,212258.000,3747.5725,N,12215.4830,W,1,04,4.7,8.9,M,-25.1,M,,0000*65
$GPGSA,A,3,07,04,13,10,,,,,,,,,4.8,4.7,1.0*3C
$GPRMC,212258.000,A,3747.5725,N,12215.4830,W,0.52,278.71,180412,,,A*78
$GPVTG,278.71,T,,M,0.52,N,1.0,K,A*00
$GPGGA,212259.000,3747.5725,N,12215.4831,W,1,04,4.7,8.9,M,-25.1,M,,0000*65
$GPGSA,A,3,07,04,13,10,,,,,,,,,4.8,4.7,1.0*3C
$GPRMC,212259.000,A,3747.5725,N,12215.4831,W,0.53,280.88,180412,,,A*78
$GPVTG,280.88,T,,M,0.53,N,1.0,K,A*00
$GPGGA,212300.000,3747.5725,N,12215.4832,W,1,04,4.7,9.0,M,-25.1,M,,0000*63
$GPGSA,A,3,07,04,13,10,,,,,,,,,4.8,4.7,1.0*3C
$GPRMC,212300.000,A,3747.5725,N,12215.4832,W,0.49,285.59,180412,,,A*74
$GPVTG,285.59,T,,M,0.49,N,0.9,K,A*0A
$GPGGA,212301.000,3747.5725,N,12215.4832,W,1,04,4.7,9.0,M,-25.1,M,,0000*62
$GPGSA,A,3,07,04,13,10,,,,,,,,,4.8,4.7,1.0*3C
$GPRMC,212301.000,A,3747.5725,N,12215.4832,W,0.49,266.53,180412,,,A*72
$GPVTG,266.53,T,,M,0.49,N,0.9,K,A*0D
$GPGGA,212302.000,3747.5725,N,12215.4834,W,1,04,4.7,9.0,M,-25.1,M,,0000*67
$GPGSA,A,3,07,04,13,10,,,,,,,,,4.8,4.7,1.0*3C
$GPGSV,3,1,12,23,68,354,31,20,56,184,31,16,50,090,25,13,44,308,40*78
$GPGSV,3,2,12,30,37,056,21,32,36,155,25,07,31,245,40,10,17,316,38*74
$GPGSV,3,3,12,04,14,292,38,03,05,126,25,06,03,111,15,31,01,053,*78
$GPRMC,212302.000,A,3747.5725,N,12215.4834,W,0.61,274.68,180412,,,A*76
$GPVTG,274.68,T,,M,0.61,N,1.1,K,A*05
$GPGGA,212303.000,3747.5725,N,12215.4835,W,1,04,4.7,9.1,M,-25.1,M,,0000*66
$GPGSA,A,3,07,04,13,10,,,,,,,,,4.8,4.7,1.0*3C
$GPRMC,212303.000,A,3747.5725,N,12215.4835,W,0.56,278.07,180412,,,A*77
$GPVTG,278.07,T,,M,0.56,N,1.0,K,A*05
$GPGGA,212304.000,3747.5725,N,12215.4836,W,1,04,4.7,9.1,M,-25.1,M,,0000*62
$GPGSA,A,3,07,04,13,10,,,,,,,,,4.8,4.7,1.0*3C
$GPRMC,212304.000,A,3747.5725,N,12215.4836,W,0.53,280.84,180412,,,A*7A
$GPVTG,280.84,T,,M,0.53,N,1.0,K,A*0C
$GPGGA,212305.000,3747.5725,N,12215.4836,W,1,04,4.7,9.1,M,-25.1,M,,0000*63
$GPGSA,A,3,07,04,13,10,,,,,,,,,4.8,4.7,1.0*3C
$GPRMC,212305.000,A,3747.5725,N,12215.4836,W,0.50,284.46,180412,,,A*72
$GPVTG,284.46,T,,M,0.50,N,0.9,K,A*0D
$GPGGA,212306.000,3747.5725,N,12215.4837,W,1,04,4.7,9.1,M,-25.1,M,,0000*61
$GPGSA,A,3,07,04,13,10,,,,,,,,,4.8,4.7,1.0*3C
$GPRMC,212306.000,A,3747.5725,N,12215.4837,W,0.51,280.27,180412,,,A*72
$GPVTG,280.27,T,,M,0.51,N,0.9,K,A*0F
$GPGGA,212307.000,3747.5725,N,12215.4837,W,1,04,4.7,9.1,M,-25.1,M,,0000*60
$GPGSA,A,3,07,04,13,10,,,,,,,,,4.8,4.7,1.0*3C
$GPGSV,3,1,12,23,68,354,31,20,56,184,31,16,50,090,26,13,44,308,39*75
$GPGSV,3,2,12,30,37,056,17,32,36,155,27,07,31,245,41,10,17,316,39*73
$GPGSV,3,3,12,04,14,292,39,03,05,126,19,06,03,111,16,31,01,053,*75
$GPRMC,212307.000,A,3747.5725,N,12215.4837,W,0.47,278.73,180412,,,A*72
$GPGGA,212308.000,3747.5725,N,12215.4838,W,1,04,4.7,9.1,M,-25.1,M,,0000*60
$GPGSA,A,3,07,04,13,10,,,,,,,,,4.8,4.7,1.0*3C
$GPRMC,212308.000,A,3747.5725,N,12215.4838,W,0.51,281.91,180412,,,A*7F
$GPVTG,281.91,T,,M,0.51,N,0.9,K,A*03
$GPGGA,212309.000,3747.5725,N,12215.4839,W,1,04,4.7,9.1,M,-25.1,M,,0000*60
