$ADVER,3080,2.3
$GPRMC,211332.818,A,3747.7030,N,12215.4932,W,0.00,,180412,,,A*67
$GPGGA,211333.818,3747.7000,N,12215.4836,W,1,05,2.4,14.5,M,-25.1,M,,0000*5A
$GPGSA,A,3,13,07,23,20,32,,,,,,,,5.0,2.4,4.4*36
$GPRMC,211333.818,A,3747.7000,N,12215.4836,W,0.00,,180412,,,A*60
$GPVTG,,T,,M,0.00,N,0.0,K,N*1C
$GPGGA,211334.814,3747.7040,N,12215.4831,W,1,05,2.4,15.4,M,-25.1,M,,0000*52
$GPGSA,A,3,13,20,32,07,23,,,,,,,,5.0,2.4,4.4*36
$GPRMC,211334.814,A,3747.7040,N,12215.4831,W,1.41,270.64,180412,,,A*75
$GPVTG,270.64,T,,M,1.41,N,2.6,K,A*0A
$GPGGA,211335.814,3747.7026,N,12215.4848,W,1,05,2.4,33.5,M,-25.1,M,,0000*58
$GPGSA,A,3,13,20,32,07,23,,,,,,,,5.0,2.4,4.4*36
$GPRMC,211335.814,A,3747.7026,N,12215.4848,W,1.43,254.75,180412,,,A*7E
$GPVTG,254.75,T,,M,1.43,N,2.6,K,A*0E
$GPGGA,211336.000,3747.7019,N,12215.4866,W,1,05,2.4,37.7,M,-25.1,M,,0000*50
$GPGSA,A,3,13,20,32,07,23,,,,,,,,5.0,2.4,4.4*36
$GPRMC,211336.000,A,3747.7019,N,12215.4866,W,1.68,258.91,180412,,,A*7F
$GPVTG,258.91,T,,M,1.68,N,3.1,K,A*07
$GPGGA,211337.000,3747.7002,N,12215.4893,W,1,06,1.6,40.3,M,-25.1,M,,0000*57
$GPGSA,A,3,13,20,32,07,23,16,,,,,,,3.9,1.6,3.6*3A
$GPGSV,3,1,12,23,66,344,24,20,61,186,22,16,49,097,17,13,41,304,32*75
$GPGSV,3,2,12,32,41,154,17,30,39,060,,07,27,241,28,01,02,197,*75
$GPGSV,3,3,12,04,14,296,33,10,13,317,24,31,04,052,,03,02,129,*7C
$GPVTG,253.65,T,,M,1.12,N,2.1,K,A*0B
$GPGGA,211338.000,3747.6994,N,12215.4932,W,1,06,1.6,45.9,M,-25.1,M,,0000*5A
$GPGSA,A,3,13,20,32,07,23,16,,,,,,,3.9,1.6,3.6*3A
$GPRMC,211338.000,A,3747.6994,N,12215.4932,W,0.60,278.05,180412,,,A*7A
$GPVTG,278.05,T,,M,0.60,N,1.1,K,A*03
$GPGGA,211339.000,3747.6984,N,12215.4942,W,1,06,1.6,45.1,M,-25.1,M,,0000*55
$GPGSA,A,3,13,20,32,07,23,16,,,,,,,3.9,1.6,3.6*3A
$GPRMC,211339.000,A,3747.6984,N,12215.4942,W,0.64,253.98,180412,,,A*74
$GPVTG,253.98,T,,M,0.64,N,1.2,K,A*09
$GPGGA,211340.000,3747.6985,N,12215.4936,W,1,06,1.6,42.5,M,-25.1,M,,0000*5A
$GPGSA,A,3,13,20,32,07,23,16,,,,,,,3.9,1.6,3.6*3A
$GPRMC,211340.000,A,3747.6985,N,12215.4936,W,0.43,235.41,180412,,,A*79
$GPVTG,235.41,T,,M,0.43,N,0.8,K,A*03
$GPGGA,211341.000,3747.6985,N,12215.4933,W,1,06,1.6,41.9,M,-25.1,M,,0000*51
$GPGSA,A,3,13,20,32,07,23,16,,,,,,,3.9,1.6,3.6*3A
$GPRMC,211341.000,A,3747.6985,N,12215.4933,W,0.70,208.57,180412,,,A*74
$GPVTG,208.57,T,,M,0.70,N,1.3,K,A*00
$GPGGA,211342.000,3747.6985,N,12215.4928,W,1,06,1.6,39.8,M,-25.1,M,,0000*56
$GPGSA,A,3,13,20,32,07,23,16,,,,,,,3.9,1.6,3.6*3A
$GPGSV,3,1,12,23,66,344,23,20,61,186,32,16,49,097,18,13,41,304,31*7F
$GPGSV,3,2,12,32,41,154,29,30,39,060,,07,27,241,33,01,02,197,*72
$GPGSV,3,3,12,04,14,296,33,10,13,317,14,31,04,052,,03,02,129,*7F
$GPRMC,211342.000,A,3747.6985,N,12215.4928,W,0.45,247.43,180412,,,A*75
$GPVTG,247.43,T,,M,0.45,N,0.8,K,A*02
$GPGGA,211343.000,3747.6987,N,12215.4920,W,1,06,1.6,37.0,M,-25.1,M,,0000*5B
$GPGSA,A,3,13,20,32,07,23,16,,,,,,,3.9,1.6,3.6*3A
$GPRMC,211343.000,A,3747.6987,N,12215.4920,W,0.13,103.76,180412,,,A*78
$GPVTG,103.76,T,,M,0.13,N,0.2,K,A*0E
$GPGGA,211344.000,3747.6987,N,12215.4914,W,1,06,1.6,34.7,M,-25.1,M,,0000*5F
$GPGSA,A,3,13,20,32,07,23,16,,,,,,,3.9,1.6,3.6*3A
$GPRMC,211344.000,A,3747.6987,N,12215.4914,W,0.26,128.57,180412,,,A*74
$GPVTG,128.57,T,,M,0.26,N,0.5,K,A*05
$GPGGA,211345.000,3747.6986,N,12215.4910,W,1,06,1.6,32.2,M,-25.1,M,,0000*58
$GPGSA,A,3,13,20,32,07,23,16,,,,,,,3.9,1.6,3.6*3A
$GPRMC,211345.000,A,3747.6986,N,12215.4910,W,0.31,163.91,180412,,,A*73
$GPVTG,163.91,T,,M,0.31,N,0.6,K,A*05
$GPGGA,211346.000,3747.6988,N,12215.4904,W,1,06,1.6,30.7,M,-25.1,M,,0000*57
$GPGSA,A,3,13,20,32,07,23,16,,,,,,,3.9,1.6,3.6*3A
$GPRMC,211346.000,A,3747.6988,N,12215.4904,W,0.20,90.81,180412,,,A*47
$GPVTG,90.81,T,,M,0.20,N,0.4,K,A*3B
$GPGGA,211347.000,3747.6993,N,12215.4894,W,1,06,1.6,28.5,M,-25.1,M,,0000*5F
$GPGSA,A,3,13,20,32,07,23,16,,,,,,,3.9,1.6,3.6*3A
$GPGSV,3,1,12,23,66,344,14,20,61,186,32,16,49,097,18,13,41,304,25*7E
$GPGSV,3,2,12,32,41,154,31,30,39,060,,07,27,241,32,01,02,197,*7A
$GPGSV,3,3,12,04,14,296,19,10,13,317,16,31,04,052,,03,02,129,*75
$GPRMC,211347.000,A,3747.6993,N,12215.4894,W,0.53,84.36,180412,,,A*49
$GPVTG,84.36,T,,M,0.53,N,1.0,K,A*33
$GPGGA,211348.000,3747.6996,N,12215.4885,W,1,06,1.6,26.6,M,-25.1,M,,0000*58
$GPGSA,A,3,13,20,32,07,23,16,,,,,,,3.9,1.6,3.6*3A
$GPRMC,211348.000,A,3747.6996,N,12215.4885,W,0.60,78.91,180412,,,A*4D
$GPVTG,78.91,T,,M,0.60,N,1.1,K,A*3C
$GPGGA,211349.000,3747.7000,N,12215.4878,W,1,06,1.6,25.3,M,-25.1,M,,0000*5A
$GPGSA,A,3,13,20,32,07,23,16,,,,,,,3.9,1.6,3.6*3A
$GPRMC,211349.000,A,3747.7000,N,12215.4878,W,1.15,49.73,180412,,,A*44
$GPVTG,49.73,T,,M,1.15,N,2.1,K,A*32
$GPGGA,211350.000,3747.7000,N,12215.4874,W,1,06,1.6,23.0,M,-25.1,M,,0000*5B
$GPGSA,A,3,13,20,32,07,23,16,,,,,,,3.9,1.6,3.6*3A
$GPRMC,211350.000,A,3747.7000,N,12215.4874,W,1.53,51.23,180412,,,A*4E
$GPVTG,51.23,T,,M,1.53,N,2.8,K,A*35
$GPGGA,211351.000,3747.7002,N,12215.4868,W,1,06,1.6,21.6,M,-25.1,M,,0000*51
$GPGSA,A,3,13,20,32,07,23,16,,,,,,,3.9,1.6,3.6*3A
$GPRMC,211351.000,A,3747.7002,N,12215.4868,W,1.89,54.00,180412,,,A*43
$GPVTG,54.00,T,,M,1.89,N,3.5,K,A*3A
$GPGGA,211352.000,3747.7003,N,12215.4864,W,1,06,1.6,20.7,M,-25.1,M,,0000*5F
$GPGSA,A,3,13,20,32,07,23,16,,,,,,,3.9,1.6,3.6*3A
$GPGSV,3,1,12,23,66,344,26,20,61,186,32,16,49,097,17,13,41,304,30*74
$GPGSV,3,2,12,32,41,154,30,30,39,060,,07,27,241,23,01,02,197,*7B
$GPGSV,3,3,12,04,14,296,25,10,13,317,15,31,04,052,,03,02,129,*79
$GPVTG,69.38,T,,M,0.57,N,1.1,K,A*3B
$GPGGA,211353.000,3747.7003,N,12215.4864,W,1,06,1.6,20.4,M,-25.1,M,,0000*5D
$GPGSA,A,3,13,20,32,07,23,16,,,,,,,3.9,1.6,3.6*3A
$GPRMC,211353.000,A,3747.7003,N,12215.4864,W,0.07,82.54,180412,,,A*41
$GPVTG,82.54,T,,M,0.07,N,0.1,K,A*30
$GPGGA,211354.000,3747.7003,N,12215.4864,W,1,06,1.6,20.5,M,-25.1,M,,0000*5B
$GPGSA,A,3,13,20,32,07,23,16,,,,,,,3.9,1.6,3.6*3A
$GPRMC,211354.000,A,3747.7003,N,12215.4864,W,0.15,225.59,180412,,,A*77
$GPVTG,225.59,T,,M,0.15,N,0.3,K,A*03
$GPGGA,211355.000,3747.7004,N,12215.4862,W,1,06,1.6,20.3,M,-25.1,M,,0000*5D
$GPGSA,A,3,13,20,32,07,23,16,,,,,,,3.9,1.6,3.6*3A
$GPRMC,211355.000,A,3747.7004,N,12215.4862,W,0.39,45.45,180412,,,A*40
$GPVTG,45.45,T,,M,0.39,N,0.7,K,A*30
$GPGGA,211356.000,3747.7005,N,12215.4859,W,1,06,1.6,20.1,M,-25.1,M,,0000*55
$GPGSA,A,3,13,20,32,07,23,16,,,,,,,3.9,1.6,3.6*3A
$GPRMC,211356.000,A,3747.7005,N,12215.4859,W,0.42,80.33,180412,,,A*4E
$GPVTG,80.33,T,,M,0.42,N,0.8,K,A*3B
$GPGGA,211357.000,3747.7005,N,12215.4858,W,1,06,1.6,20.3,M,-25.1,M,,0000*57
$GPGSA,A,3,13,20,32,07,23,16,,,,,,,3.9,1.6,3.6*3A
$GPGSV,3,1,12,23,66,344,27,20,61,186,33,16,49,097,18,13,41,304,35*7E
$GPGSV,3,2,12,32,41,154,25,30,39,060,,07,27,241,26,01,02,197,*7A
$GPGSV,3,3,12,04,14,296,34,10,13,317,25,31,04,052,,03,02,129,*7A
$GPRMC,211357.000,A,3747.7005,N,12215.4858,W,0.13,46.89,180412,,,A*41
$GPVTG,46.89,T,,M,0.13,N,0.2,K,A*3E
$GPGGA,211358.000,3747.7004,N,12215.4859,W,1,06,1.6,19.5,M,-25.1,M,,0000*54
$GPGSA,A,3,13,20,32,07,23,16,,,,,,,3.9,1.6,3.6*3A
$GPRMC,211358.000,A,3747.7004,N,12215.4859,W,0.36,97.58,180412,,,A*49
$GPVTG,97.58,T,,M,0.36,N,0.7,K,A*3C
$GPGGA,211359.000,3747.7004,N,12215.4859,W,1,06,1.6,19.4,M,-25.1,M,,0000*54
$GPGSA,A,3,13,20,32,07,23,16,,,,,,,3.9,1.6,3.6*3A
$GPRMC,211359.000,A,3747.7004,N,12215.4859,W,0.46,72.49,180412,,,A*44
$GPVTG,72.49,T,,M,0.46,N,0.9,K,A*3E
$GPGGA,211400.000,3747.7005,N,12215.4858,W,1,06,1.6,19.5,M,-25.1,M,,0000*5E
$GPGSA,A,3,13,20,32,07,23,16,,,,,,,3.9,1.6,3.6*3A
$GPRMC,211400.000,A,3747.7005,N,12215.4858,W,0.64,66.59,180412,,,A*4B
$GPVTG,66.59,T,,M,0.64,N,1.2,K,A*30
$GPGGA,211401.000,3747.7005,N,12215.4859,W,1,06,1.6,19.7,M,-25.1,M,,0000*5C
$GPGSA,A,3,13,20,32,07,23,16,,,,,,,3.9,1.6,3.6*3A
$GPRMC,211401.000,A,3747.7005,N,12215.4859,W,0.41,70.65,180412,,,A*44
$GPVTG,70.65,T,,M,0.41,N,0.8,K,A*34
$GPGGA,211402.000,3747.7005,N,12215.4860,W,1,06,1.6,19.9,M,-25.1,M,,0000*5B
$GPGSA,A,3,13,20,32,07,23,16,,,,,,,3.9,1.6,3.6*3A
$GPGSV,3,1,12,23,66,344,27,20,61,186,33,16,49,097,19,13,41,304,35*7F
$GPGSV,3,2,12,32,41,154,33,30,39,060,,07,27,241,31,01,02,197,*7B
$GPGSV,3,3,12,04,14,296,32,10,13,317,26,31,04,052,,03,02,129,*7F
$GPRMC,211402.000,A,3747.7005,N,12215.4860,W,0.19,83.13,180412,,,A*4D
$GPVTG,83.13,T,,M,0.19,N,0.4,K,A*38
$GPGGA,211403.000,3747.7006,N,12215.4861,W,1,06,1.6,19.9,M,-25.1,M,,0000*58
$GPGSA,A,3,13,20,32,07,23,16,,,,,,,3.9,1.6,3.6*3A
$GPRMC,211403.000,A,3747.7006,N,12215.4861,W,0.43,73.34,180412,,,A*4B
$GPVTG,73.34,T,,M,0.43,N,0.8,K,A*31
$GPGGA,211404.000,3747.7006,N,12215.4861,W,1,06,1.6,19.8,M,-25.1,M,,0000*5E
$GPGSA,A,3,13,20,32,07,23,16,,,,,,,3.9,1.6,3.6*3A
$GPRMC,211404.000,A,3747.7006,N,12215.4861,W,0.49,50.74,180412,,,A*43
$GPVTG,50.74,T,,M,0.49,N,0.9,K,A*3F
$GPGGA,211405.000,3747.7005,N,12215.4865,W,1,06,1.6,19.4,M,-25.1,M,,0000*54
$GPGSA,A,3,13,20,32,07,23,16,,,,,,,3.9,1.6,3.6*3A
$GPRMC,211405.000,A,3747.7005,N,12215.4865,W,0.26,114.73,180412,,,A*7A
$GPVTG,114.73,T,,M,0.26,N,0.5,K,A*0C
$GPGGA,211406.000,3747.7002,N,12215.4865,W,1,05,2.3,18.9,M,-25.1,M,,0000*59
$GPGSA,A,3,13,20,32,07,23,,,,,,,,5.0,2.3,4.4*31
$GPRMC,211406.000,A,3747.7002,N,12215.4865,W,0.59,157.67,180412,,,A*74
$GPVTG,157.67,T,,M,0.59,N,1.1,K,A*03
$GPGGA,211407.000,3747.7002,N,12215.4865,W,1,05,2.3,18.8,M,-25.1,M,,0000*59
$GPGSA,A,3,13,20,32,07,23,,,,,,,,5.0,2.3,4.4*31
$GPGSV,3,1,12,23,66,344,31,20,61,186,23,16,49,097,,13,41,304,36*72
$GPGSV,3,2,12,32,41,154,21,30,39,060,,07,27,241,21,01,02,197,*79
$GPGSV,3,3,12,04,14,296,32,10,13,317,26,31,04,052,,03,02,129,*7F
$GPVTG,108.21,T,,M,0.29,N,0.5,K,A*09
$GPGGA,211408.000,3747.7003,N,12215.4858,W,1,05,2.3,18.5,M,-25.1,M,,0000*54
$GPGSA,A,3,13,20,32,07,23,,,,,,,,5.0,2.3,4.4*31
$GPRMC,211408.000,A,3747.7003,N,12215.4858,W,1.13,61.70,180412,,,A*48
$GPVTG,61.70,T,,M,1.13,N,2.1,K,A*3D
$GPGGA,211409.000,3747.7003,N,12215.4855,W,1,05,2.3,18.7,M,-25.1,M,,0000*5A
$GPGSA,A,3,13,20,32,07,23,,,,,,,,5.0,2.3,4.4*31
$GPRMC,211409.000,A,3747.7003,N,12215.4855,W,0.43,90.05,180412,,,A*4C
$GPVTG,90.05,T,,M,0.43,N,0.8,K,A*3E
$GPGGA,211410.000,3747.7002,N,12215.4856,W,1,05,2.3,19.1,M,-25.1,M,,0000*57
$GPGSA,A,3,13,20,32,07,23,,,,,,,,5.0,2.3,4.4*31
$GPRMC,211410.000,A,3747.7002,N,12215.4856,W,0.33,64.69,180412,,,A*40
$GPVTG,64.69,T,,M,0.33,N,0.6,K,A*36
$GPGGA,211411.000,3747.7002,N,12215.4860,W,1,05,2.3,19.9,M,-25.1,M,,0000*5B
$GPGSA,A,3,13,20,32,07,23,,,,,,,,5.0,2.3,4.4*31
$GPRMC,211411.000,A,3747.7002,N,12215.4860,W,0.19,14.77,180412,,,A*44
$GPVTG,14.77,T,,M,0.19,N,0.3,K,A*33
$GPGGA,211412.000,3747.7003,N,12215.4864,W,1,05,2.3,19.6,M,-25.1,M,,0000*52
$GPGSA,A,3,13,20,32,07,23,,,,,,,,5.0,2.3,4.4*31
$GPGSV,3,1,12,23,66,344,27,20,61,186,32,16,49,097,,13,41,304,32*71
$GPGSV,3,2,12,32,41,154,24,30,39,060,,07,27,241,31,01,02,197,*7D
$GPGSV,3,3,12,04,14,296,37,10,13,317,19,31,04,052,,03,02,129,*76
$GPRMC,211412.000,A,3747.7003,N,12215.4864,W,0.62,3.51,180412,,,A*7C
$GPVTG,3.51,T,,M,0.62,N,1.1,K,A*0E
$GPGGA,211413.000,3747.7001,N,12215.4871,W,1,06,1.6,20.1,M,-25.1,M,,0000*5D
$GPGSA,A,3,13,20,32,07,23,16,,,,,,,3.9,1.6,3.6*3A
$GPRMC,211413.000,A,3747.7001,N,12215.4871,W,0.32,5.95,180412,,,A*70
$GPVTG,5.95,T,,M,0.32,N,0.6,K,A*03
$GPGGA,211414.000,3747.7002,N,12215.4874,W,1,06,1.6,20.2,M,-25.1,M,,0000*5F
$GPGSA,A,3,13,20,32,07,23,16,,,,,,,3.9,1.6,3.6*3A
$GPRMC,211414.000,A,3747.7002,N,12215.4874,W,0.34,173.68,180412,,,A*75
$GPVTG,173.68,T,,M,0.34,N,0.6,K,A*07
$GPGGA,211415.000,3747.7006,N,12215.4871,W,1,06,1.6,19.2,M,-25.1,M,,0000*55
$GPGSA,A,3,13,20,32,07,23,16,,,,,,,3.9,1.6,3.6*3A
$GPRMC,211415.000,A,3747.7006,N,12215.4871,W,0.28,191.61,180412,,,A*7D
$GPVTG,191.61,T,,M,0.28,N,0.5,K,A*0C
$GPGGA,211416.000,3747.7003,N,12215.4870,W,1,06,1.6,18.5,M,-25.1,M,,0000*54
$GPGSA,A,3,13,20,32,07,23,16,,,,,,,3.9,1.6,3.6*3A
$GPRMC,211416.000,A,3747.7003,N,12215.4870,W,0.60,177.55,180412,,,A*79
$GPVTG,177.55,T,,M,0.60,N,1.1,K,A*0A
$GPGGA,211417.000,3747.6999,N,12215.4870,W,1,06,1.6,19.1,M,-25.1,M,,0000*5B
$GPGSA,A,3,13,20,32,07,23,16,,,,,,,3.9,1.6,3.6*3A
$GPGSV,3,1,12,23,66,344,22,20,61,186,23,16,49,097,20,13,41,304,24*71
$GPGSV,3,2,12,32,41,154,29,30,39,060,,07,27,241,25,01,02,197,16*72
$GPGSV,3,3,12,04,14,296,25,10,13,317,19,31,04,052,,03,02,129,*75
$GPRMC,211417.000,A,3747.6999,N,12215.4870,W,0.58,105.14,180412,,,A*78
$GPVTG,105.14,T,,M,0.58,N,1.1,K,A*01
$GPGGA,211418.000,3747.6998,N,12215.4875,W,1,06,1.6,23.4,M,-25.1,M,,0000*5C
$GPGSA,A,3,13,20,32,07,23,16,,,,,,,3.9,1.6,3.6*3A
$GPRMC,211418.000,A,3747.6998,N,12215.4875,W,0.61,38.26,180412,,,A*47
$GPVTG,38.26,T,,M,0.61,N,1.1,K,A*35
$GPGGA,211419.000,3747.6998,N,12215.4875,W,1,06,1.6,25.5,M,-25.1,M,,0000*5A
$GPGSA,A,3,13,20,32,07,23,16,,,,,,,3.9,1.6,3.6*3A
$GPRMC,211419.000,A,3747.6998,N,12215.4875,W,0.52,47.10,180412,,,A*4B
$GPVTG,47.10,T,,M,0.52,N,1.0,K,A*39
$GPGGA,211420.000,3747.7001,N,12215.4870,W,1,06,1.6,24.7,M,-25.1,M,,0000*5E
$GPGSA,A,3,13,20,32,07,23,16,,,,,,,3.9,1.6,3.6*3A
$GPRMC,211420.000,A,3747.7001,N,12215.4870,W,0.93,59.77,180412,,,A*4F
$GPVTG,59.77,T,,M,0.93,N,1.7,K,A*3D
$GPGGA,211421.000,3747.7003,N,12215.4864,W,1,06,1.6,23.0,M,-25.1,M,,0000*58
$GPGSA,A,3,13,20,32,07,23,16,,,,,,,3.9,1.6,3.6*3A
$GPRMC,211421.000,A,3747.7003,N,12215.4864,W,0.23,159.39,180412,,,A*79
$GPVTG,159.39,T,,M,0.23,N,0.4,K,A*0F
$GPGGA,211422.000,3747.6999,N,12215.4868,W,1,06,1.6,24.0,M,-25.1,M,,0000*5B
$GPGSA,A,3,13,20,32,07,23,16,,,,,,,3.9,1.6,3.6*3A
$GPGSV,3,1,12,23,66,344,22,20,61,186,22,16,49,097,19,13,41,304,30*7F
$GPGSV,3,2,12,32,41,154,27,30,39,060,,07,27,241,26,01,02,197,16*7F
$GPGSV,3,3,12,04,14,296,21,10,13,317,18,31,04,052,,03,02,129,*70
$GPVTG,204.47,T,,M,0.78,N,1.4,K,A*02
$GPGGA,211423.000,3747.6998,N,12215.4868,W,1,06,1.6,25.0,M,-25.1,M,,0000*5A
$GPGSA,A,3,13,20,32,07,23,16,,,,,,,3.9,1.6,3.6*3A
$GPRMC,211423.000,A,3747.6998,N,12215.4868,W,0.23,285.47,180412,,,A*76
$GPVTG,285.47,T,,M,0.23,N,0.4,K,A*04
$GPGGA,211424.000,3747.7000,N,12215.4864,W,1,06,1.6,24.4,M,-25.1,M,,0000*5D
$GPGSA,A,3,13,20,32,07,23,16,,,,,,,3.9,1.6,3.6*3A
$GPRMC,211424.000,A,3747.7000,N,12215.4864,W,0.69,328.54,180412,,,A*7E
$GPVTG,328.54,T,,M,0.69,N,1.3,K,A*08
$GPGGA,211425.000,3747.7000,N,12215.4863,W,1,06,1.6,24.7,M,-25.1,M,,0000*58
$GPGSA,A,3,13,20,32,07,23,16,,,,,,,3.9,1.6,3.6*3A
$GPRMC,211425.000,A,3747.7000,N,12215.4863,W,0.30,158.40,180412,,,A*74
$GPVTG,158.40,T,,M,0.30,N,0.6,K,A*00
$GPGGA,211426.000,3747.6998,N,12215.4867,W,1,06,1.6,25.9,M,-25.1,M,,0000*59
$GPGSA,A,3,13,20,32,07,23,16,,,,,,,3.9,1.6,3.6*3A
$GPRMC,211426.000,A,3747.6998,N,12215.4867,W,0.46,223.56,180412,,,A*73
$GPVTG,223.56,T,,M,0.46,N,0.8,K,A*07
$GPGGA,211427.000,3747.6998,N,12215.4866,W,1,06,1.6,25.6,M,-25.1,M,,0000*56
$GPGSA,A,3,13,20,32,07,23,16,,,,,,,3.9,1.6,3.6*3A
$GPGSV,3,1,12,23,66,344,30,20,61,186,34,16,49,097,18,13,41,304,38*72
$GPGSV,3,2,12,32,41,154,24,30,39,060,,07,27,241,36,01,02,197,16*7D
$GPGSV,3,3,12,04,14,296,37,10,13,317,28,31,04,052,,03,02,129,*74
$GPRMC,211427.000,A,3747.6998,N,12215.4866,W,0.19,136.53,180412,,,A*7B
$GPVTG,136.53,T,,M,0.19,N,0.4,K,A*03
$GPGGA,211428.000,3747.6998,N,12215.4874,W,1,06,1.6,27.7,M,-25.1,M,,0000*59
$GPGSA,A,3,13,20,32,07,23,16,,,,,,,3.9,1.6,3.6*3A
$GPRMC,211428.000,A,3747.6998,N,12215.4874,W,0.14,168.43,180412,,,A*70
$GPVTG,168.43,T,,M,0.14,N,0.3,K,A*03
$GPGGA,211429.000,3747.6998,N,12215.4877,W,1,06,1.6,28.5,M,-25.1,M,,0000*56
$GPGSA,A,3,13,20,32,07,23,16,,,,,,,3.9,1.6,3.6*3A
$GPRMC,211429.000,A,3747.6998,N,12215.4877,W,0.14,266.93,180412,,,A*72
$GPVTG,266.93,T,,M,0.14,N,0.3,K,A*03
$GPGGA,211430.000,3747.6999,N,12215.4883,W,1,06,1.6,30.0,M,-25.1,M,,0000*58
$GPGSA,A,3,13,20,32,07,23,16,,,,,,,3.9,1.6,3.6*3A
$GPRMC,211430.000,A,3747.6999,N,12215.4883,W,0.30,313.58,180412,,,A*72
$GPVTG,313.58,T,,M,0.30,N,0.6,K,A*04
$GPGGA,211431.000,3747.7000,N,12215.4888,W,1,06,1.6,31.7,M,-25.1,M,,0000*5C
$GPGSA,A,3,13,20,32,07,23,16,,,,,,,3.9,1.6,3.6*3A
$GPRMC,211431.000,A,3747.7000,N,12215.4888,W,0.58,237.15,180412,,,A*70
$GPVTG,237.15,T,,M,0.58,N,1.1,K,A*02
$GPGGA,211432.000,3747.7000,N,12215.4895,W,1,06,1.6,33.2,M,-25.1,M,,0000*54
$GPGSA,A,3,13,20,32,07,23,16,,,,,,,3.9,1.6,3.6*3A
$GPGSV,3,1,12,23,66,344,25,20,61,186,29,16,49,097,18,13,41,304,38*7A
$GPGSV,3,2,12,32,41,154,24,30,39,060,,07,27,241,29,01,02,197,18*7D
$GPGSV,3,3,12,04,14,296,36,10,13,317,25,31,04,052,,03,02,129,*78
$GPRMC,211432.000,A,3747.7000,N,12215.4895,W,0.77,230.98,180412,,,A*70
$GPVTG,230.98,T,,M,0.77,N,1.4,K,A*08
$GPGGA,211433.000,3747.6999,N,12215.4901,W,1,06,1.6,34.2,M,-25.1,M,,0000*56
$GPGSA,A,3,13,20,32,07,23,16,,,,,,,3.9,1.6,3.6*3A
$GPRMC,211433.000,A,3747.6999,N,12215.4901,W,0.30,215.95,180412,,,A*7C
$GPVTG,215.95,T,,M,0.30,N,0.5,K,A*01
$GPGGA,211434.000,3747.6998,N,12215.4901,W,1,06,1.6,33.8,M,-25.1,M,,0000*5D
$GPGSA,A,3,13,20,32,07,23,16,,,,,,,3.9,1.6,3.6*3A
$GPRMC,211434.000,A,3747.6998,N,12215.4901,W,0.07,248.32,180412,,,A*7B
$GPVTG,248.32,T,,M,0.07,N,0.1,K,A*04
$GPGGA,211435.000,3747.6996,N,12215.4902,W,1,06,1.6,32.8,M,-25.1,M,,0000*50
$GPGSA,A,3,13,20,32,07,23,16,,,,,,,3.9,1.6,3.6*3A
$GPRMC,211435.000,A,3747.6996,N,12215.4902,W,0.14,188.91,180412,,,A*73
$GPVTG,188.91,T,,M,0.14,N,0.3,K,A*02
$GPGGA,211436.000,3747.6996,N,12215.4900,W,1,06,1.6,32.7,M,-25.1,M,,0000*5E
$GPGSA,A,3,13,20,32,07,23,16,,,,,,,3.9,1.6,3.6*3A
$GPRMC,211436.000,A,3747.6996,N,12215.4900,W,0.21,162.44,180412,,,A*78
$GPVTG,162.44,T,,M,0.21,N,0.4,K,A*0F
$GPGGA,211437.000,3747.6996,N,12215.4904,W,1,06,1.6,33.4,M,-25.1,M,,0000*59
$GPGSA,A,3,13,20,32,07,23,16,,,,,,,3.9,1.6,3.6*3A
$GPGSV,3,1,12,23,66,344,25,20,61,186,30,16,49,097,19,13,41,304,38*73
$GPGSV,3,2,12,32,41,154,25,30,39,060,,07,27,241,37,01,02,197,17*7C
$GPGSV,3,3,12,04,14,296,30,10,13,317,24,31,04,052,,03,02,129,*7F
$GPVTG,239.92,T,,M,0.29,N,0.5,K,A*00
$GPGGA,211438.000,3747.6995,N,12215.4908,W,1,06,1.6,34.2,M,-25.1,M,,0000*58
$GPGSA,A,3,13,20,32,07,23,16,,,,,,,3.9,1.6,3.6*3A
$GPRMC,211438.000,A,3747.6995,N,12215.4908,W,0.27,284.21,180412,,,A*73
$GPVTG,284.21,T,,M,0.27,N,0.5,K,A*00
$GPGGA,211439.000,3747.6995,N,12215.4907,W,1,06,1.6,33.6,M,-25.1,M,,0000*55
$GPGSA,A,3,13,20,32,07,23,16,,,,,,,3.9,1.6,3.6*3A
$GPRMC,211439.000,A,3747.6995,N,12215.4907,W,0.06,108.33,180412,,,A*7A
$GPVTG,108.33,T,,M,0.06,N,0.1,K,A*03
$GPGGA,211440.000,3747.6995,N,12215.4905,W,1,06,1.6,32.8,M,-25.1,M,,0000*56
$GPGSA,A,3,13,20,32,07,23,16,,,,,,,3.9,1.6,3.6*3A
$GPRMC,211440.000,A,3747.6995,N,12215.4905,W,0.08,151.32,180412,,,A*75
$GPVTG,151.32,T,,M,0.08,N,0.1,K,A*00
$GPGGA,211441.000,3747.6997,N,12215.4903,W,1,06,1.6,33.4,M,-25.1,M,,0000*5E
$GPGSA,A,3,13,20,32,07,23,16,,,,,,,3.9,1.6,3.6*3A
$GPRMC,211441.000,A,3747.6997,N,12215.4903,W,0.12,16.61,180412,,,A*4F
$GPVTG,16.61,T,,M,0.12,N,0.2,K,A*3C
$GPGGA,211442.000,3747.6998,N,12215.4893,W,1,06,1.6,32.1,M,-25.1,M,,0000*5E
$GPGSA,A,3,13,20,32,07,23,16,,,,,,,3.9,1.6,3.6*3A
$GPGSV,3,1,12,23,66,344,26,20,61,186,31,16,49,097,19,13,41,304,38*71
$GPGSV,3,2,12,32,41,154,29,30,39,060,,07,27,241,26,01,02,197,17*70
$GPGSV,3,3,12,04,14,296,30,10,13,317,25,31,04,052,,03,02,129,*7E
$GPRMC,211442.000,A,3747.6998,N,12215.4893,W,0.16,142.03,180412,,,A*7B
$GPVTG,142.03,T,,M,0.16,N,0.3,K,A*0D
$GPGGA,211443.000,3747.6999,N,12215.4886,W,1,06,1.6,31.2,M,-25.1,M,,0000*5A
$GPGSA,A,3,13,20,32,07,23,16,,,,,,,3.9,1.6,3.6*3A
$GPRMC,211443.000,A,3747.6999,N,12215.4886,W,0.45,108.25,180412,,,A*73
$GPVTG,108.25,T,,M,0.45,N,0.8,K,A*0A
$GPGGA,211444.000,3747.6999,N,12215.4882,W,1,06,1.6,30.6,M,-25.1,M,,0000*5C
$GPGSA,A,3,13,20,32,07,23,16,,,,,,,3.9,1.6,3.6*3A
$GPRMC,211444.000,A,3747.6999,N,12215.4882,W,0.28,156.66,180412,,,A*77
$GPVTG,156.66,T,,M,0.28,N,0.5,K,A*00
$GPGGA,211445.000,3747.6998,N,12215.4878,W,1,06,1.6,29.9,M,-25.1,M,,0000*5E
$GPGSA,A,3,13,20,32,07,23,16,,,,,,,3.9,1.6,3.6*3A
$GPRMC,211445.000,A,3747.6998,N,12215.4878,W,0.88,129.14,180412,,,A*75
$GPVTG,129.14,T,,M,0.88,N,1.6,K,A*05
$GPGGA,211446.000,3747.6999,N,12215.4865,W,1,06,1.6,28.0,M,-25.1,M,,0000*58
$GPGSA,A,3,13,20,32,07,23,16,,,,,,,3.9,1.6,3.6*3A
$GPRMC,211446.000,A,3747.6999,N,12215.4865,W,1.67,138.75,180412,,,A*7C
$GPVTG,138.75,T,,M,1.67,N,3.1,K,A*07
$GPGGA,211447.000,3747.6997,N,12215.4861,W,1,06,1.6,27.9,M,-25.1,M,,0000*55
$GPGSA,A,3,13,20,32,07,23,16,,,,,,,3.9,1.6,3.6*3A
$GPGSV,3,1,12,23,67,346,18,20,60,185,38,16,50,097,19,13,41,305,29*7D
$GPGSV,3,2,12,32,40,154,39,30,39,059,,07,28,242,29,04,14,296,21*7C
$GPGSV,3,3,12,10,14,317,20,31,04,052,,03,03,129,,06,01,114,*71
$GPRMC,211447.000,A,3747.6997,N,12215.4861,W,1.16,135.99,180412,,,A*7E
$GPVTG,135.99,T,,M,1.16,N,2.2,K,A*0C
$GPGGA,211448.000,3747.6997,N,12215.4851,W,1,06,1.6,26.3,M,-25.1,M,,0000*52
$GPGSA,A,3,13,20,32,07,23,16,,,,,,,3.9,1.6,3.6*3A
$GPRMC,211448.000,A,3747.6997,N,12215.4851,W,1.45,142.34,180412,,,A*73
$GPVTG,142.34,T,,M,1.45,N,2.7,K,A*08
$GPGGA,211449.000,3747.6996,N,12215.4844,W,1,06,1.6,24.8,M,-25.1,M,,0000*5F
$GPGSA,A,3,13,20,32,07,23,16,,,,,,,3.9,1.6,3.6*3A
$GPRMC,211449.000,A,3747.6996,N,12215.4844,W,1.15,133.74,180412,,,A*70
$GPVTG,133.74,T,,M,1.15,N,2.1,K,A*09
$GPGGA,211450.000,3747.6994,N,12215.4842,W,1,06,1.6,24.0,M,-25.1,M,,0000*5B
$GPGSA,A,3,13,20,32,07,23,16,,,,,,,3.9,1.6,3.6*3A
$GPRMC,211450.000,A,3747.6994,N,12215.4842,W,0.98,165.81,180412,,,A*71
$GPVTG,165.81,T,,M,0.98,N,1.8,K,A*0E
$GPGGA,211451.000,3747.6994,N,12215.4839,W,1,06,1.6,23.2,M,-25.1,M,,0000*53
$GPGSA,A,3,13,20,32,07,23,16,,,,,,,3.9,1.6,3.6*3A
$GPRMC,211451.000,A,3747.6994,N,12215.4839,W,1.30,125.11,180412,,,A*72
$GPVTG,125.11,T,,M,1.30,N,2.4,K,A*0F
$GPGGA,211452.000,3747.6992,N,12215.4835,W,1,06,1.6,22.4,M,-25.1,M,,0000*5D
$GPGSA,A,3,13,20,32,07,23,16,,,,,,,3.9,1.6,3.6*3A
$GPGSV,3,1,12,23,67,346,18,20,60,185,34,16,50,097,20,13,41,305,29*7B
$GPGSV,3,2,12,32,40,154,37,30,39,059,,07,28,242,29,04,14,296,23*70
$GPGSV,3,3,12,10,14,317,20,31,04,052,,03,03,129,,06,01,114,*71
$GPVTG,131.29,T,,M,1.31,N,2.4,K,A*00
$GPGGA,211453.000,3747.6992,N,12215.4827,W,1,05,1.9,20.6,M,-25.1,M,,0000*53
$GPGSA,A,3,20,32,07,23,16,,,,,,,,4.3,1.9,3.9*35
$GPRMC,211453.000,A,3747.6992,N,12215.4827,W,1.35,127.51,180412,,,A*7A
$GPVTG,127.51,T,,M,1.35,N,2.5,K,A*0D
$GPGGA,211454.000,3747.6992,N,12215.4820,W,1,06,1.6,19.6,M,-25.1,M,,0000*55
$GPGSA,A,3,13,20,32,07,23,16,,,,,,,3.9,1.6,3.6*3A
$GPRMC,211454.000,A,3747.6992,N,12215.4820,W,1.35,92.06,180412,,,A*47
$GPVTG,92.06,T,,M,1.35,N,2.5,K,A*30
$GPGGA,211455.000,3747.6991,N,12215.4816,W,1,06,1.6,19.7,M,-25.1,M,,0000*53
$GPGSA,A,3,13,20,32,07,23,16,,,,,,,3.9,1.6,3.6*3A
$GPRMC,211455.000,A,3747.6991,N,12215.4816,W,1.17,140.74,180412,,,A*7B
$GPVTG,140.74,T,,M,1.17,N,2.2,K,A*0C
$GPGGA,211456.000,3747.6990,N,12215.4803,W,1,06,1.6,18.3,M,-25.1,M,,0000*50
$GPGSA,A,3,13,20,32,07,23,16,,,,,,,3.9,1.6,3.6*3A
$GPRMC,211456.000,A,3747.6990,N,12215.4803,W,1.59,128.02,180412,,,A*78
$GPVTG,128.02,T,,M,1.59,N,2.9,K,A*02
$GPGGA,211457.000,3747.6989,N,12215.4793,W,1,06,1.6,15.8,M,-25.1,M,,0000*59
$GPGSA,A,3,13,20,32,07,23,16,,,,,,,3.9,1.6,3.6*3A
$GPGSV,3,1,12,23,67,346,26,20,60,185,31,16,50,097,27,13,41,305,25*78
$GPGSV,3,2,12,32,40,154,36,30,39,059,,07,28,242,28,04,14,296,22*71
$GPGSV,3,3,12,10,14,317,,31,04,052,,03,03,129,,06,01,114,*73
$GPRMC,211457.000,A,3747.6989,N,12215.4793,W,1.55,127.85,180412,,,A*7B
$GPVTG,127.85,T,,M,1.55,N,2.9,K,A*0E
$GPGGA,211458.000,3747.6984,N,12215.4792,W,1,06,1.6,14.6,M,-25.1,M,,0000*55
$GPGSA,A,3,13,20,32,07,23,16,,,,,,,3.9,1.6,3.6*3A
$GPRMC,211458.000,A,3747.6984,N,12215.4792,W,1.21,137.80,180412,,,A*7F
$GPVTG,137.80,T,,M,1.21,N,2.2,K,A*02
$GPGGA,211459.000,3747.6980,N,12215.4792,W,1,06,1.6,13.4,M,-25.1,M,,0000*55
$GPGSA,A,3,13,20,32,07,23,16,,,,,,,3.9,1.6,3.6*3A
$GPRMC,211459.000,A,3747.6980,N,12215.4792,W,1.42,168.17,180412,,,A*7B
$GPVTG,168.17,T,,M,1.42,N,2.6,K,A*07
$GPGGA,211500.000,3747.6978,N,12215.4793,W,1,06,1.6,13.0,M,-25.1,M,,0000*5A
$GPGSA,A,3,13,20,32,07,23,16,,,,,,,3.9,1.6,3.6*3A
$GPRMC,211500.000,A,3747.6978,N,12215.4793,W,0.29,48.05,180412,,,A*4C
$GPVTG,48.05,T,,M,0.29,N,0.5,K,A*3A
$GPGGA,211501.000,3747.6981,N,12215.4798,W,1,06,1.6,13.0,M,-25.1,M,,0000*56
$GPGSA,A,3,13,20,32,07,23,16,,,,,,,3.9,1.6,3.6*3A
$GPRMC,211501.000,A,3747.6981,N,12215.4798,W,1.15,344.61,180412,,,A*73
$GPVTG,344.61,T,,M,1.15,N,2.1,K,A*0F
$GPGGA,211502.000,3747.6985,N,12215.4803,W,1,06,1.6,12.8,M,-25.1,M,,0000*55
$GPGSA,A,3,13,20,32,07,23,16,,,,,,,3.9,1.6,3.6*3A
$GPGSV,3,1,12,23,67,346,35,20,60,185,28,16,50,097,22,13,41,305,35*76
$GPGSV,3,2,12,32,40,154,22,30,39,059,,07,28,242,28,04,14,296,35*72
$GPGSV,3,3,12,10,14,317,29,31,04,052,,03,03,129,,06,01,114,*78
$GPRMC,211502.000,A,3747.6985,N,12215.4803,W,1.57,331.17,180412,,,A*7C
$GPVTG,331.17,T,,M,1.57,N,2.9,K,A*02
$GPGGA,211503.000,3747.6990,N,12215.4814,W,1,06,1.6,12.8,M,-25.1,M,,0000*56
$GPGSA,A,3,13,20,32,07,23,16,,,,,,,3.9,1.6,3.6*3A
$GPRMC,211503.000,A,3747.6990,N,12215.4814,W,1.96,333.49,180412,,,A*7B
$GPVTG,333.49,T,,M,1.96,N,3.6,K,A*08
$GPGGA,211504.000,3747.6993,N,12215.4821,W,1,06,1.6,13.1,M,-25.1,M,,0000*5C
$GPGSA,A,3,13,20,32,07,23,16,,,,,,,3.9,1.6,3.6*3A
$GPRMC,211504.000,A,3747.6993,N,12215.4821,W,1.43,337.96,180412,,,A*77
$GPVTG,337.96,T,,M,1.43,N,2.6,K,A*07
$GPGGA,211505.000,3747.6999,N,12215.4825,W,1,06,1.6,14.1,M,-25.1,M,,0000*54
$GPGSA,A,3,13,20,32,07,23,16,,,,,,,3.9,1.6,3.6*3A
$GPRMC,211505.000,A,3747.6999,N,12215.4825,W,1.31,1.75,180412,,,A*76
$GPVTG,1.75,T,,M,1.31,N,2.4,K,A*0B
$GPGGA,211506.000,3747.7002,N,12215.4827,W,1,06,1.6,14.4,M,-25.1,M,,0000*5A
$GPGSA,A,3,13,20,32,07,23,16,,,,,,,3.9,1.6,3.6*3A
$GPRMC,211506.000,A,3747.7002,N,12215.4827,W,1.52,1.89,180412,,,A*7B
$GPVTG,1.89,T,,M,1.52,N,2.8,K,A*01
$GPGGA,211507.000,3747.7004,N,12215.4831,W,1,06,1.6,14.5,M,-25.1,M,,0000*5B
$GPGSA,A,3,13,20,32,07,23,16,,,,,,,3.9,1.6,3.6*3A
$GPGSV,3,1,12,23,67,346,26,20,60,185,27,16,50,097,21,13,41,305,37*7A
$GPGSV,3,2,12,32,40,154,22,30,39,059,,07,28,242,35,04,14,296,24*7E
$GPGSV,3,3,12,10,14,317,23,31,04,052,,03,03,129,,06,01,114,*72
$GPVTG,320.74,T,,M,1.04,N,1.9,K,A*02
$GPGGA,211508.000,3747.7005,N,12215.4835,W,1,06,1.6,14.9,M,-25.1,M,,0000*5D
$GPGSA,A,3,13,20,32,07,23,16,,,,,,,3.9,1.6,3.6*3A
$GPRMC,211508.000,A,3747.7005,N,12215.4835,W,0.27,64.91,180412,,,A*48
$GPVTG,64.91,T,,M,0.27,N,0.5,K,A*37
$GPGGA,211509.000,3747.7005,N,12215.4828,W,1,06,1.6,13.5,M,-25.1,M,,0000*5B
$GPGSA,A,3,13,20,32,07,23,16,,,,,,,3.9,1.6,3.6*3A
$GPRMC,211509.000,A,3747.7005,N,12215.4828,W,1.24,99.96,180412,,,A*42
$GPVTG,99.96,T,,M,1.24,N,2.3,K,A*34
$GPGGA,211510.000,3747.7006,N,12215.4829,W,1,06,1.6,13.5,M,-25.1,M,,0000*51
$GPGSA,A,3,13,20,32,07,23,16,,,,,,,3.9,1.6,3.6*3A
$GPRMC,211510.000,A,3747.7006,N,12215.4829,W,0.84,94.11,180412,,,A*41
$GPVTG,94.11,T,,M,0.84,N,1.6,K,A*3B
$GPGGA,211511.000,3747.7006,N,12215.4831,W,1,06,1.6,13.8,M,-25.1,M,,0000*54
$GPGSA,A,3,13,20,32,07,23,16,,,,,,,3.9,1.6,3.6*3A
$GPRMC,211511.000,A,3747.7006,N,12215.4831,W,0.24,44.43,180412,,,A*49
$GPVTG,44.43,T,,M,0.24,N,0.4,K,A*38
$GPGGA,211512.000,3747.7007,N,12215.4829,W,1,07,1.2,13.8,M,-25.1,M,,0000*5A
$GPGSA,A,3,13,20,32,07,23,30,16,,,,,,3.0,1.2,2.8*3B
$GPGSV,3,1,12,23,67,346,29,20,60,185,27,16,50,097,21,13,41,305,32*70
$GPGSV,3,2,12,32,40,154,22,30,39,059,16,07,28,242,34,04,14,296,18*77
$GPGSV,3,3,12,10,14,317,17,31,04,052,,03,03,129,,06,01,114,*75
$GPRMC,211512.000,A,3747.7007,N,12215.4829,W,0.23,25.60,180412,,,A*43
$GPVTG,25.60,T,,M,0.23,N,0.4,K,A*39
$GPGGA,211513.000,3747.7004,N,12215.4830,W,1,07,1.2,14.3,M,-25.1,M,,0000*5C
$GPGSA,A,3,13,20,32,07,23,30,16,,,,,,3.0,1.2,2.8*3B
$GPRMC,211513.000,A,3747.7004,N,12215.4830,W,0.28,245.41,180412,,,A*75
$GPVTG,245.41,T,,M,0.28,N,0.5,K,A*04
$GPGGA,211514.000,3747.7005,N,12215.4831,W,1,07,1.2,14.6,M,-25.1,M,,0000*5E
$GPGSA,A,3,13,20,32,07,23,30,16,,,,,,3.0,1.2,2.8*3B
$GPRMC,211514.000,A,3747.7005,N,12215.4831,W,0.23,140.94,180412,,,A*77
$GPVTG,140.94,T,,M,0.23,N,0.4,K,A*00
$GPGGA,211515.000,3747.7004,N,12215.4835,W,1,06,1.6,15.5,M,-25.1,M,,0000*5D
$GPGSA,A,3,13,20,32,07,23,16,,,,,,,4.0,1.6,3.6*34
$GPRMC,211515.000,A,3747.7004,N,12215.4835,W,0.43,262.46,180412,,,A*79
$GPVTG,262.46,T,,M,0.43,N,0.8,K,A*06
$GPGGA,211516.000,3747.7004,N,12215.4840,W,1,07,1.2,16.7,M,-25.1,M,,0000*58
$GPGSA,A,3,13,20,32,07,23,30,16,,,,,,3.0,1.2,2.8*3B
$GPRMC,211516.000,A,3747.7004,N,12215.4840,W,0.34,286.44,180412,,,A*70
$GPVTG,286.44,T,,M,0.34,N,0.6,K,A*00
$GPGGA,211517.000,3747.7001,N,12215.4842,W,1,07,1.2,16.6,M,-25.1,M,,0000*5F
$GPGSA,A,3,13,20,32,07,23,30,16,,,,,,3.0,1.2,2.8*3B
$GPGSV,3,1,12,23,67,346,27,20,60,185,29,16,50,096,22,13,41,305,26*77
$GPGSV,3,2,12,32,40,154,22,30,39,059,14,07,28,242,26,10,14,317,17*74
$GPGSV,3,3,12,04,14,296,26,31,04,052,,03,03,128,,06,01,114,*7B
$GPRMC,211517.000,A,3747.7001,N,12215.4842,W,0.42,244.46,180412,,,A*7B
$GPVTG,244.46,T,,M,0.42,N,0.8,K,A*03
$GPGGA,211518.000,3747.6999,N,12215.4844,W,1,07,1.2,15.6,M,-25.1,M,,0000*5C
$GPGSA,A,3,13,20,32,07,23,30,16,,,,,,3.0,1.2,2.8*3B
$GPRMC,211518.000,A,3747.6999,N,12215.4844,W,0.12,194.70,180412,,,A*75
$GPVTG,194.70,T,,M,0.12,N,0.2,K,A*07
$GPGGA,211519.000,3747.6997,N,12215.4839,W,1,07,1.2,16.3,M,-25.1,M,,0000*5F
$GPGSA,A,3,13,20,32,07,23,30,16,,,,,,3.0,1.2,2.8*3B
$GPRMC,211519.000,A,3747.6997,N,12215.4839,W,0.71,198.43,180412,,,A*79
$GPVTG,198.43,T,,M,0.71,N,1.3,K,A*0E
$GPGGA,211520.000,3747.6989,N,12215.4840,W,1,07,1.2,18.4,M,-25.1,M,,0000*5D
$GPGSA,A,3,13,20,32,07,23,30,16,,,,,,3.0,1.2,2.8*3B
$GPRMC,211520.000,A,3747.6989,N,12215.4840,W,1.85,195.09,180412,,,A*7B
$GPVTG,195.09,T,,M,1.85,N,3.4,K,A*02
$GPGGA,211521.000,3747.6978,N,12215.4844,W,1,06,1.3,21.4,M,-25.1,M,,0000*5C
$GPGSA,A,3,13,20,32,07,30,16,,,,,,,3.9,1.3,3.7*3C
$GPRMC,211521.000,A,3747.6978,N,12215.4844,W,2.11,187.16,180412,,,A*73
$GPVTG,187.16,T,,M,2.11,N,3.9,K,A*0C
$GPGGA,211522.000,3747.6971,N,12215.4845,W,1,06,1.3,22.7,M,-25.1,M,,0000*57
$GPGSA,A,3,13,20,32,07,30,16,,,,,,,3.9,1.3,3.7*3C
$GPGSV,3,1,12,23,67,346,08,20,60,185,23,16,50,096,23,13,41,305,22*75
$GPGSV,3,2,12,32,40,154,20,30,39,059,14,07,28,242,22,10,14,317,16*73
$GPGSV,3,3,12,04,14,296,16,31,04,052,,03,03,128,,06,01,114,*78
$GPVTG,186.06,T,,M,1.60,N,3.0,K,A*00
$GPGGA,211523.000,3747.6966,N,12215.4848,W,1,07,1.2,23.2,M,-25.1,M,,0000*59
$GPGSA,A,3,13,20,32,07,23,30,16,,,,,,3.0,1.2,2.8*3B
$GPRMC,211523.000,A,3747.6966,N,12215.4848,W,1.14,204.92,180412,,,A*70
$GPVTG,204.92,T,,M,1.14,N,2.1,K,A*07
$GPGGA,211524.000,3747.6965,N,12215.4849,W,1,07,1.2,22.8,M,-25.1,M,,0000*57
$GPGSA,A,3,13,20,32,07,23,30,16,,,,,,3.0,1.2,2.8*3B
$GPRMC,211524.000,A,3747.6965,N,12215.4849,W,0.51,215.92,180412,,,A*75
$GPVTG,215.92,T,,M,0.51,N,0.9,K,A*0D
$GPGGA,211525.000,3747.6963,N,12215.4850,W,1,07,1.2,22.3,M,-25.1,M,,0000*53
$GPGSA,A,3,13,20,32,07,23,30,16,,,,,,3.0,1.2,2.8*3B
$GPRMC,211525.000,A,3747.6963,N,12215.4850,W,0.85,188.18,180412,,,A*76
$GPVTG,188.18,T,,M,0.85,N,1.6,K,A*0F
$GPGGA,211526.000,3747.6968,N,12215.4847,W,1,07,1.2,20.5,M,-25.1,M,,0000*59
$GPGSA,A,3,13,20,32,07,23,30,16,,,,,,3.0,1.2,2.8*3B
$GPRMC,211526.000,A,3747.6968,N,12215.4847,W,0.37,208.46,180412,,,A*71
$GPVTG,208.46,T,,M,0.37,N,0.7,K,A*06
$GPGGA,211527.000,3747.6969,N,12215.4850,W,1,07,1.2,22.5,M,-25.1,M,,0000*5D
$GPGSA,A,3,13,20,32,07,23,30,16,,,,,,3.0,1.2,2.8*3B
$GPGSV,3,1,12,23,67,346,20,20,60,185,28,16,50,096,20,13,41,305,22*77
$GPGSV,3,2,12,32,40,154,32,30,39,059,15,07,28,242,30,10,14,317,16*72
$GPGSV,3,3,12,04,14,296,24,31,04,052,,03,03,128,,06,01,114,*79
$GPRMC,211527.000,A,3747.6969,N,12215.4850,W,0.52,305.45,180412,,,A*7B
$GPVTG,305.45,T,,M,0.52,N,1.0,K,A*0C
$GPGGA,211528.000,3747.6973,N,12215.4850,W,1,05,1.7,24.4,M,-25.1,M,,0000*59
$GPGSA,A,3,13,20,32,07,16,,,,,,,,4.6,1.7,4.3*30
$GPRMC,211528.000,A,3747.6973,N,12215.4850,W,1.09,342.04,180412,,,A*76
$GPVTG,342.04,T,,M,1.09,N,2.0,K,A*06
$GPGGA,211529.000,3747.6977,N,12215.4854,W,1,05,1.7,27.0,M,-25.1,M,,0000*5F
$GPGSA,A,3,13,20,32,07,16,,,,,,,,4.6,1.7,4.3*30
$GPRMC,211529.000,A,3747.6977,N,12215.4854,W,0.77,333.00,180412,,,A*7D
$GPVTG,333.00,T,,M,0.77,N,1.4,K,A*0B
$GPGGA,211530.000,3747.6971,N,12215.4855,W,1,06,1.6,26.8,M,-25.1,M,,0000*5B
$GPGSA,A,3,13,20,32,07,23,16,,,,,,,4.0,1.6,3.6*34
$GPRMC,211530.000,A,3747.6971,N,12215.4855,W,0.57,319.84,180412,,,A*74
$GPVTG,319.84,T,,M,0.57,N,1.1,K,A*08
$GPGGA,211531.000,3747.6974,N,12215.4855,W,1,07,1.2,27.2,M,-25.1,M,,0000*51
$GPGSA,A,3,13,20,32,07,23,30,16,,,,,,3.0,1.2,2.8*3B
$GPRMC,211531.000,A,3747.6974,N,12215.4855,W,0.63,303.00,180412,,,A*70
$GPVTG,303.00,T,,M,0.63,N,1.2,K,A*0B
$GPGGA,211532.000,3747.6977,N,12215.4853,W,1,07,1.2,26.7,M,-25.1,M,,0000*53
$GPGSA,A,3,13,20,32,07,23,30,16,,,,,,3.0,1.2,2.8*3B
$GPGSV,3,1,12,23,67,346,19,20,60,185,28,16,50,096,21,13,41,305,25*7B
$GPGSV,3,2,12,32,40,154,35,30,39,059,14,07,28,242,25,10,14,317,19*7F
$GPGSV,3,3,12,04,14,296,24,31,04,052,,03,03,128,,06,01,114,*79
$GPRMC,211532.000,A,3747.6977,N,12215.4853,W,0.33,174.61,180412,,,A*76
$GPVTG,174.61,T,,M,0.33,N,0.6,K,A*0E
$GPGGA,211533.000,3747.6978,N,12215.4849,W,1,07,1.2,25.7,M,-25.1,M,,0000*55
$GPGSA,A,3,13,20,32,07,23,30,16,,,,,,3.0,1.2,2.8*3B
$GPRMC,211533.000,A,3747.6978,N,12215.4849,W,0.18,140.75,180412,,,A*78
$GPVTG,140.75,T,,M,0.18,N,0.3,K,A*00
$GPGGA,211534.000,3747.6983,N,12215.4840,W,1,07,1.2,25.7,M,-25.1,M,,0000*5F
$GPGSA,A,3,13,20,32,07,23,30,16,,,,,,3.0,1.2,2.8*3B
$GPRMC,211534.000,A,3747.6983,N,12215.4840,W,0.46,106.24,180412,,,A*7F
$GPVTG,106.24,T,,M,0.46,N,0.8,K,A*06
$GPGGA,211535.000,3747.6984,N,12215.4838,W,1,07,1.2,23.4,M,-25.1,M,,0000*53
$GPGSA,A,3,13,20,32,07,23,30,16,,,,,,3.0,1.2,2.8*3B
$GPRMC,211535.000,A,3747.6984,N,12215.4838,W,0.81,173.69,180412,,,A*76
$GPVTG,173.69,T,,M,0.81,N,1.5,K,A*0A
$GPGGA,211536.000,3747.6985,N,12215.4843,W,1,05,2.3,23.4,M,-25.1,M,,0000*5D
$GPGSA,A,3,13,20,32,07,23,,,,,,,,5.0,2.3,4.4*31
$GPRMC,211536.000,A,3747.6985,N,12215.4843,W,1.54,190.82,180412,,,A*79
$GPVTG,190.82,T,,M,1.54,N,2.9,K,A*04
$GPGGA,211537.000,3747.6986,N,12215.4848,W,1,06,1.6,23.4,M,-25.1,M,,0000*51
$GPGSA,A,3,13,20,32,07,23,16,,,,,,,4.0,1.6,3.6*34
$GPGSV,3,1,12,23,67,346,19,20,60,185,24,16,50,096,15,13,41,305,32*76
$GPGSV,3,2,12,32,40,154,25,30,39,059,,07,28,242,30,10,14,317,21*74
$GPGSV,3,3,12,04,14,296,23,31,04,052,,03,03,128,,06,01,114,*7E
$GPRMC,211537.000,A,3747.6986,N,12215.4848,W,0.99,205.18,180412,,,A*7C
$GPVTG,205.18,T,,M,0.99,N,1.8,K,A*0A
$GPGGA,211538.000,3747.6992,N,12215.4848,W,1,06,1.6,22.2,M,-25.1,M,,0000*5C
$GPGSA,A,3,13,20,32,07,23,16,,,,,,,4.0,1.6,3.6*34
$GPRMC,211538.000,A,3747.6992,N,12215.4848,W,0.69,178.48,180412,,,A*75
$GPVTG,178.48,T,,M,0.69,N,1.3,K,A*02
$GPGGA,211539.000,3747.6989,N,12215.4839,W,1,06,1.6,20.6,M,-25.1,M,,0000*57
$GPGSA,A,3,13,20,32,07,23,16,,,,,,,4.0,1.6,3.6*34
$GPRMC,211539.000,A,3747.6989,N,12215.4839,W,2.14,125.36,180412,,,A*71
$GPVTG,125.36,T,,M,2.14,N,4.0,K,A*0D
$GPGGA,211540.000,3747.6988,N,12215.4836,W,1,06,1.6,21.2,M,-25.1,M,,0000*52
$GPGSA,A,3,13,20,32,07,23,16,,,,,,,4.0,1.6,3.6*34
$GPRMC,211540.000,A,3747.6988,N,12215.4836,W,1.53,121.20,180412,,,A*72
$GPVTG,121.20,T,,M,1.53,N,2.8,K,A*00
$GPGGA,211541.000,3747.6985,N,12215.4843,W,1,06,1.6,22.5,M,-25.1,M,,0000*58
$GPGSA,A,3,13,20,32,07,23,16,,,,,,,4.0,1.6,3.6*34
$GPRMC,211541.000,A,3747.6985,N,12215.4843,W,0.76,220.01,180412,,,A*7B
$GPVTG,220.01,T,,M,0.76,N,1.4,K,A*08
$GPGGA,211542.000,3747.6987,N,12215.4843,W,1,06,1.6,19.9,M,-25.1,M,,0000*5D
$GPGSA,A,3,13,20,32,07,23,16,,,,,,,4.0,1.6,3.6*34
$GPGSV,3,1,12,23,67,346,23,20,60,185,20,16,50,096,16,13,41,305,30*7A
$GPGSV,3,2,12,32,40,154,21,30,39,059,,07,28,242,28,10,14,317,21*79
$GPGSV,3,3,12,04,14,296,31,31,04,052,,03,03,128,,06,01,114,*7D
$GPRMC,211542.000,A,3747.6987,N,12215.4843,W,1.04,206.17,180412,,,A*7D
$GPGGA,211543.000,3747.6989,N,12215.4843,W,1,06,1.6,16.7,M,-25.1,M,,0000*53
$GPGSA,A,3,13,20,32,07,23,16,,,,,,,4.0,1.6,3.6*34
$GPRMC,211543.000,A,3747.6989,N,12215.4843,W,1.38,235.57,180412,,,A*79
$GPVTG,235.57,T,,M,1.38,N,2.6,K,A*05
$GPGGA,211544.000,3747.6987,N,12215.4847,W,1,06,1.6,15.3,M,-25.1,M,,0000*59
$GPGSA,A,3,13,20,32,07,23,16,,,,,,,4.0,1.6,3.6*34
$GPRMC,211544.000,A,3747.6987,N,12215.4847,W,1.26,245.22,180412,,,A*7E
$GPVTG,245.22,T,,M,1.26,N,2.3,K,A*0A
$GPGGA,211545.000,3747.6986,N,12215.4861,W,1,06,1.6,15.2,M,-25.1,M,,0000*5C
$GPGSA,A,3,13,20,32,07,23,16,,,,,,,4.0,1.6,3.6*34
$GPRMC,211545.000,A,3747.6986,N,12215.4861,W,1.33,285.30,180412,,,A*71
$GPVTG,285.30,T,,M,1.33,N,2.5,K,A*07
$GPGGA,211546.000,3747.6990,N,12215.4856,W,1,06,1.6,12.4,M,-25.1,M,,0000*5D
$GPGSA,A,3,13,20,32,07,23,16,,,,,,,4.0,1.6,3.6*34
$GPRMC,211546.000,A,3747.6990,N,12215.4856,W,0.42,4.23,180412,,,A*7F
$GPVTG,4.23,T,,M,0.42,N,0.8,K,A*06
$GPGGA,211547.000,3747.6995,N,12215.4849,W,1,06,1.6,8.7,M,-25.1,M,,0000*6F
$GPGSA,A,3,13,20,32,07,23,16,,,,,,,4.0,1.6,3.6*34
$GPGSV,3,1,12,23,67,347,27,20,60,185,18,16,50,096,16,13,41,305,29*7C
$GPGSV,3,2,12,32,40,154,20,30,38,059,,07,28,242,23,10,14,317,21*72
$GPGSV,3,3,12,04,14,295,31,31,04,052,,03,03,128,,06,01,114,*7E
$GPRMC,211547.000,A,3747.6995,N,12215.4849,W,0.78,35.85,180412,,,A*42
$GPVTG,35.85,T,,M,0.78,N,1.4,K,A*3C
$GPGGA,211548.000,3747.6998,N,12215.4842,W,1,06,1.6,6.6,M,-25.1,M,,0000*69
$GPGSA,A,3,13,20,32,07,23,16,,,,,,,4.0,1.6,3.6*34
$GPRMC,211548.000,A,3747.6998,N,12215.4842,W,0.56,44.36,180412,,,A*49
$GPVTG,44.36,T,,M,0.56,N,1.0,K,A*3A
$GPGGA,211549.000,3747.7000,N,12215.4855,W,1,06,1.6,7.8,M,-25.1,M,,0000*68
$GPGSA,A,3,13,20,32,07,23,16,,,,,,,4.0,1.6,3.6*34
$GPRMC,211549.000,A,3747.7000,N,12215.4855,W,1.17,306.77,180412,,,A*73
$GPVTG,306.77,T,,M,1.17,N,2.2,K,A*0F
$GPGGA,211550.000,3747.7005,N,12215.4860,W,1,05,2.3,7.4,M,-25.1,M,,0000*6A
$GPGSA,A,3,13,20,32,07,23,,,,,,,,5.0,2.3,4.4*31
$GPRMC,211550.000,A,3747.7005,N,12215.4860,W,1.56,303.73,180412,,,A*7C
$GPVTG,303.73,T,,M,1.56,N,2.9,K,A*00
$GPGGA,211551.000,3747.7007,N,12215.4865,W,1,05,2.3,8.5,M,-25.1,M,,0000*62
$GPGSA,A,3,13,20,32,07,23,,,,,,,,5.0,2.3,4.4*31
$GPRMC,211551.000,A,3747.7007,N,12215.4865,W,1.00,343.04,180412,,,A*7D
$GPVTG,343.04,T,,M,1.00,N,1.9,K,A*04
$GPGGA,211552.000,3747.7006,N,12215.4870,W,1,05,2.3,7.9,M,-25.1,M,,0000*67
$GPGSA,A,3,13,20,32,07,23,,,,,,,,5.0,2.3,4.4*31
$GPGSV,3,1,12,23,67,347,27,20,60,185,18,16,50,096,,13,41,305,29*7B
$GPGSV,3,2,12,32,40,154,16,30,38,059,,07,28,242,23,10,14,317,21*77
$GPGSV,3,3,12,04,14,295,28,31,04,052,,03,03,128,,06,01,114,*76
$GPRMC,211552.000,A,3747.7006,N,12215.4870,W,1.07,320.67,180412,,,A*7C
$GPVTG,320.67,T,,M,1.07,N,2.0,K,A*09
$GPGGA,211553.000,3747.7005,N,12215.4875,W,1,05,2.3,9.8,M,-25.1,M,,0000*6F
$GPGSA,A,3,13,20,32,07,23,,,,,,,,5.0,2.3,4.4*31
$GPRMC,211553.000,A,3747.7005,N,12215.4875,W,0.78,323.51,180412,,,A*74
$GPVTG,323.51,T,,M,0.78,N,1.4,K,A*01
$GPGGA,211554.000,3747.6999,N,12215.4870,W,1,05,2.3,12.3,M,-25.1,M,,0000*51
$GPGSA,A,3,13,20,32,07,23,,,,,,,,5.0,2.3,4.4*31
$GPRMC,211554.000,A,3747.6999,N,12215.4870,W,1.44,127.39,180412,,,A*7D
$GPVTG,127.39,T,,M,1.44,N,2.7,K,A*07
$GPGGA,211555.000,3747.6989,N,12215.4858,W,1,06,1.6,11.8,M,-25.1,M,,0000*56
$GPGSA,A,3,13,20,32,07,23,16,,,,,,,4.0,1.6,3.6*34
$GPRMC,211555.000,A,3747.6989,N,12215.4858,W,1.94,137.81,180412,,,A*78
$GPVTG,137.81,T,,M,1.94,N,3.6,K,A*08
$GPGGA,211556.000,3747.6983,N,12215.4845,W,1,06,1.6,10.8,M,-25.1,M,,0000*52
$GPGSA,A,3,13,20,32,07,23,16,,,,,,,4.0,1.6,3.6*34
$GPRMC,211556.000,A,3747.6983,N,12215.4845,W,2.02,136.16,180412,,,A*7E
$GPVTG,136.16,T,,M,2.02,N,3.7,K,A*0A
$GPGGA,211557.000,3747.6977,N,12215.4844,W,1,05,2.3,14.5,M,-25.1,M,,0000*55
$GPGSA,A,3,13,20,32,07,23,,,,,,,,5.0,2.3,4.4*31
$GPGSV,3,1,12,23,67,347,22,20,60,185,24,16,50,096,,13,41,305,26*7E
$GPGSV,3,2,12,32,40,154,25,30,38,059,,07,28,242,30,10,14,317,23*77
$GPGSV,3,3,12,04,14,295,26,31,04,052,,03,03,128,,06,01,114,*78
$GPRMC,211557.000,A,3747.6977,N,12215.4844,W,1.40,115.62,180412,,,A*72
$GPGGA,211558.000,3747.6969,N,12215.4841,W,1,05,2.3,17.5,M,-25.1,M,,0000*53
$GPGSA,A,3,13,20,32,07,23,,,,,,,,5.0,2.3,4.4*31
$GPRMC,211558.000,A,3747.6969,N,12215.4841,W,1.34,129.26,180412,,,A*7B
$GPVTG,129.26,T,,M,1.34,N,2.5,K,A*02
$GPGGA,211559.000,3747.6966,N,12215.4834,W,1,05,2.3,17.8,M,-25.1,M,,0000*52
$GPGSA,A,3,13,20,32,07,23,,,,,,,,5.0,2.3,4.4*31
$GPRMC,211559.000,A,3747.6966,N,12215.4834,W,1.90,123.63,180412,,,A*72
$GPVTG,123.63,T,,M,1.90,N,3.5,K,A*06
$GPGGA,211600.000,3747.6956,N,12215.4842,W,1,05,2.3,21.1,M,-25.1,M,,0000*53
$GPGSA,A,3,13,20,32,07,23,,,,,,,,5.0,2.3,4.4*31
$GPRMC,211600.000,A,3747.6956,N,12215.4842,W,1.62,170.85,180412,,,A*7C
$GPVTG,170.85,T,,M,1.62,N,3.0,K,A*00
$GPGGA,211601.000,3747.6948,N,12215.4846,W,1,06,1.6,22.8,M,-25.1,M,,0000*56
$GPGSA,A,3,13,20,32,07,23,16,,,,,,,4.0,1.6,3.6*34
$GPRMC,211601.000,A,3747.6948,N,12215.4846,W,1.80,189.03,180412,,,A*72
$GPVTG,189.03,T,,M,1.80,N,3.3,K,A*07
$GPGGA,211602.000,3747.6945,N,12215.4835,W,1,06,1.6,21.6,M,-25.1,M,,0000*51
$GPGSA,A,3,13,20,32,07,23,16,,,,,,,4.0,1.6,3.6*34
$GPGSV,3,1,12,23,67,347,24,20,60,185,23,16,50,096,19,13,41,305,30*70
$GPGSV,3,2,12,32,40,154,24,30,38,059,,07,28,242,30,10,14,317,28*7D
$GPGSV,3,3,12,04,14,295,27,31,04,052,,03,03,128,,06,01,114,*79
$GPRMC,211602.000,A,3747.6945,N,12215.4835,W,1.24,133.20,180412,,,A*76
$GPVTG,133.20,T,,M,1.24,N,2.3,K,A*08
$GPGGA,211603.000,3747.6942,N,12215.4826,W,1,06,1.6,21.4,M,-25.1,M,,0000*57
$GPGSA,A,3,13,20,32,07,23,16,,,,,,,4.0,1.6,3.6*34
$GPRMC,211603.000,A,3747.6942,N,12215.4826,W,1.84,148.65,180412,,,A*75
$GPVTG,148.65,T,,M,1.84,N,3.4,K,A*09
$GPGGA,211604.000,3747.6936,N,12215.4824,W,1,06,1.6,22.6,M,-25.1,M,,0000*50
$GPGSA,A,3,13,20,32,07,23,16,,,,,,,4.0,1.6,3.7*35
$GPRMC,211604.000,A,3747.6936,N,12215.4824,W,2.04,165.24,180412,,,A*72
$GPVTG,165.24,T,,M,2.04,N,3.8,K,A*04
$GPGGA,211605.000,3747.6926,N,12215.4823,W,1,06,1.6,22.9,M,-25.1,M,,0000*58
$GPGSA,A,3,13,20,32,07,23,16,,,,,,,4.0,1.6,3.7*35
$GPRMC,211605.000,A,3747.6926,N,12215.4823,W,1.79,160.15,180412,,,A*7B
$GPVTG,160.15,T,,M,1.79,N,3.3,K,A*01
$GPGGA,211606.000,3747.6919,N,12215.4820,W,1,06,1.6,23.1,M,-25.1,M,,0000*5D
$GPGSA,A,3,13,20,32,07,23,16,,,,,,,4.0,1.6,3.7*35
$GPRMC,211606.000,A,3747.6919,N,12215.4820,W,2.21,167.26,180412,,,A*7E
$GPVTG,167.26,T,,M,2.21,N,4.1,K,A*0D
$GPGGA,211607.000,3747.6913,N,12215.4820,W,1,06,1.6,24.2,M,-25.1,M,,0000*52
$GPGSA,A,3,13,20,32,07,23,16,,,,,,,4.0,1.6,3.7*35
$GPGSV,3,1,12,23,67,347,26,20,60,185,23,16,50,096,22,13,42,305,29*71
$GPGSV,3,2,12,32,40,154,25,30,38,059,,07,28,242,30,10,14,317,29*7D
$GPGSV,3,3,12,04,14,295,27,31,04,052,,03,03,128,,06,02,114,*7A
$GPRMC,211607.000,A,3747.6913,N,12215.4820,W,1.90,148.22,180412,,,A*75
$GPVTG,148.22,T,,M,1.90,N,3.5,K,A*0E
$GPGGA,211608.000,3747.6910,N,12215.4813,W,1,06,1.6,22.8,M,-25.1,M,,0000*52
$GPGSA,A,3,13,20,32,07,23,16,,,,,,,4.0,1.6,3.7*35
$GPRMC,211608.000,A,3747.6910,N,12215.4813,W,1.67,141.12,180412,,,A*7B
$GPVTG,141.12,T,,M,1.67,N,3.1,K,A*08
$GPGGA,211609.000,3747.6910,N,12215.4805,W,1,06,1.6,21.1,M,-25.1,M,,0000*5E
$GPGSA,A,3,13,20,32,07,23,16,,,,,,,4.0,1.6,3.7*35
$GPRMC,211609.000,A,3747.6910,N,12215.4805,W,0.96,145.08,180412,,,A*7D
$GPVTG,145.08,T,,M,0.96,N,1.8,K,A*03
$GPGGA,211610.000,3747.6908,N,12215.4792,W,1,06,1.6,19.5,M,-25.1,M,,0000*51
$GPGSA,A,3,13,20,32,07,23,16,,,,,,,4.0,1.6,3.7*35
$GPRMC,211610.000,A,3747.6908,N,12215.4792,W,1.28,128.73,180412,,,A*7E
$GPVTG,128.73,T,,M,1.28,N,2.4,K,A*0F
$GPGGA,211611.000,3747.6913,N,12215.4766,W,1,06,1.6,17.2,M,-25.1,M,,0000*58
$GPGSA,A,3,13,20,32,07,23,16,,,,,,,4.0,1.6,3.7*35
$GPRMC,211611.000,A,3747.6913,N,12215.4766,W,1.52,113.29,180412,,,A*74
$GPVTG,113.29,T,,M,1.52,N,2.8,K,A*09
$GPGGA,211612.000,3747.6918,N,12215.4747,W,1,07,1.2,13.9,M,-25.1,M,,0000*59
$GPGSA,A,3,13,20,32,07,23,16,30,,,,,,3.1,1.2,2.8*3A
$GPGSV,3,1,12,23,67,347,32,20,60,185,23,16,50,096,26,13,42,305,34*7C
$GPGSV,3,2,12,32,40,154,29,30,38,059,13,07,28,242,30,10,14,317,29*73
$GPGSV,3,3,12,04,14,295,32,31,04,052,,03,03,128,,06,02,114,*7E
$GPRMC,211612.000,A,3747.6918,N,12215.4747,W,1.58,135.44,180412,,,A*7A
$GPGGA,211613.000,3747.6915,N,12215.4745,W,1,07,1.2,15.3,M,-25.1,M,,0000*5B
$GPGSA,A,3,13,20,32,07,23,16,30,,,,,,3.1,1.2,2.8*3A
$GPRMC,211613.000,A,3747.6915,N,12215.4745,W,1.46,134.28,180412,,,A*70
$GPVTG,134.28,T,,M,1.46,N,2.7,K,A*07
$GPGGA,211614.000,3747.6909,N,12215.4745,W,1,07,1.2,17.1,M,-25.1,M,,0000*51
$GPGSA,A,3,13,20,32,07,23,16,30,,,,,,3.1,1.2,2.8*3A
$GPRMC,211614.000,A,3747.6909,N,12215.4745,W,1.26,147.25,180412,,,A*75
$GPVTG,147.25,T,,M,1.26,N,2.3,K,A*0C
$GPGGA,211615.000,3747.6904,N,12215.4743,W,1,07,1.2,17.7,M,-25.1,M,,0000*5D
$GPGSA,A,3,13,20,32,07,23,16,30,,,,,,3.1,1.2,2.8*3A
$GPRMC,211615.000,A,3747.6904,N,12215.4743,W,1.86,140.13,180412,,,A*77
$GPVTG,140.13,T,,M,1.86,N,3.4,K,A*02
$GPGGA,211616.000,3747.6899,N,12215.4739,W,1,07,1.2,17.8,M,-25.1,M,,0000*59
$GPGSA,A,3,13,20,32,07,23,16,30,,,,,,3.1,1.2,2.8*3A
$GPRMC,211616.000,A,3747.6899,N,12215.4739,W,0.82,141.71,180412,,,A*7C
$GPVTG,141.71,T,,M,0.82,N,1.5,K,A*01
$GPGGA,211617.000,3747.6894,N,12215.4737,W,1,07,1.2,18.2,M,-25.1,M,,0000*5E
$GPGSA,A,3,13,20,32,07,23,16,30,,,,,,3.1,1.2,2.8*3A
$GPGSV,3,1,12,23,67,347,31,20,60,185,29,16,50,096,25,13,42,305,35*77
$GPGSV,3,2,12,32,40,154,28,30,38,059,15,07,28,242,36,10,14,317,34*7E
$GPGSV,3,3,12,04,14,295,32,31,04,052,,03,03,128,,06,02,114,*7E
$GPRMC,211617.000,A,3747.6894,N,12215.4737,W,1.50,162.40,180412,,,A*73
$GPVTG,162.40,T,,M,1.50,N,2.8,K,A*02
$GPGGA,211618.000,3747.6890,N,12215.4732,W,1,07,1.2,17.6,M,-25.1,M,,0000*5B
$GPGSA,A,3,13,20,32,07,23,16,30,,,,,,3.1,1.2,2.8*3A
$GPRMC,211618.000,A,3747.6890,N,12215.4732,W,2.48,121.94,180412,,,A*79
$GPVTG,121.94,T,,M,2.48,N,4.6,K,A*0E
$GPGGA,211619.000,3747.6887,N,12215.4727,W,1,07,1.2,18.2,M,-25.1,M,,0000*53
$GPGSA,A,3,13,20,32,07,23,16,30,,,,,,3.1,1.2,2.8*3A
$GPRMC,211619.000,A,3747.6887,N,12215.4727,W,1.61,132.84,180412,,,A*71
$GPVTG,132.84,T,,M,1.61,N,3.0,K,A*04
$GPGGA,211620.000,3747.6881,N,12215.4721,W,1,07,1.2,18.9,M,-25.1,M,,0000*52
$GPGSA,A,3,13,20,32,07,23,16,30,,,,,,3.1,1.2,2.8*3A
$GPRMC,211620.000,A,3747.6881,N,12215.4721,W,1.75,115.81,180412,,,A*7E
$GPVTG,115.81,T,,M,1.75,N,3.2,K,A*03
$GPGGA,211621.000,3747.6877,N,12215.4711,W,1,07,1.2,19.1,M,-25.1,M,,0000*50
$GPGSA,A,3,13,20,32,07,23,16,30,,,,,,3.1,1.2,2.8*3A
$GPRMC,211621.000,A,3747.6877,N,12215.4711,W,2.23,110.35,180412,,,A*7F
$GPVTG,110.35,T,,M,2.23,N,4.1,K,A*0D
$GPGGA,211622.000,3747.6875,N,12215.4704,W,1,07,1.2,18.4,M,-25.1,M,,0000*51
$GPGSA,A,3,13,20,32,07,23,16,30,,,,,,3.1,1.2,2.8*3A
$GPGSV,3,1,12,23,67,347,31,20,60,185,30,16,50,096,24,13,42,305,36*7D
$GPGSV,3,2,12,32,40,154,28,30,38,059,15,07,28,242,37,10,14,317,33*78
$GPGSV,3,3,12,04,14,295,37,31,04,052,,03,03,128,,06,02,114,*7B
$GPRMC,211622.000,A,3747.6875,N,12215.4704,W,1.66,114.99,180412,,,A*7A
$GPVTG,114.99,T,,M,1.66,N,3.1,K,A*0A
$GPGGA,211623.000,3747.6874,N,12215.4699,W,1,07,1.2,18.1,M,-25.1,M,,0000*51
$GPGSA,A,3,13,20,32,07,23,16,30,,,,,,3.1,1.2,2.8*3A
$GPRMC,211623.000,A,3747.6874,N,12215.4699,W,1.54,118.92,180412,,,A*79
$GPVTG,118.92,T,,M,1.54,N,2.8,K,A*04
$GPGGA,211624.000,3747.6868,N,12215.4694,W,1,07,1.2,18.3,M,-25.1,M,,0000*54
$GPGSA,A,3,13,20,32,07,23,16,30,,,,,,3.1,1.2,2.8*3A
$GPRMC,211624.000,A,3747.6868,N,12215.4694,W,1.79,137.57,180412,,,A*75
$GPVTG,137.57,T,,M,1.79,N,3.3,K,A*05
$GPGGA,211625.000,3747.6864,N,12215.4681,W,1,07,1.2,17.4,M,-25.1,M,,0000*55
$GPGSA,A,3,13,20,32,07,23,16,30,,,,,,3.1,1.2,2.8*3A
$GPRMC,211625.000,A,3747.6864,N,12215.4681,W,1.99,140.91,180412,,,A*78
$GPVTG,140.91,T,,M,1.99,N,3.7,K,A*05
$GPGGA,211626.000,3747.6854,N,12215.4674,W,1,07,1.2,17.7,M,-25.1,M,,0000*5C
$GPGSA,A,3,13,20,32,07,23,16,30,,,,,,3.1,1.2,2.8*3A
$GPRMC,211626.000,A,3747.6854,N,12215.4674,W,2.41,144.48,180412,,,A*74
$GPVTG,144.48,T,,M,2.41,N,4.5,K,A*06
$GPGGA,211627.000,3747.6843,N,12215.4673,W,1,07,1.2,19.1,M,-25.1,M,,0000*54
$GPGSA,A,3,13,20,32,07,23,16,30,,,,,,3.1,1.2,2.8*3A
$GPGSV,3,1,12,23,67,347,23,20,60,185,29,16,50,096,18,13,42,305,26*78
$GPGSV,3,2,12,32,40,154,25,30,38,059,15,07,28,242,35,10,14,317,27*72
$GPGSV,3,3,12,04,14,295,28,31,04,052,,03,03,128,,06,02,114,*75
$GPVTG,162.09,T,,M,2.20,N,4.1,K,A*04
$GPGGA,211628.000,3747.6836,N,12215.4668,W,1,07,1.2,19.4,M,-25.1,M,,0000*56
$GPGSA,A,3,13,20,32,07,23,16,30,,,,,,3.1,1.2,2.8*3A
$GPRMC,211628.000,A,3747.6836,N,12215.4668,W,2.61,134.14,180412,,,A*7F
$GPVTG,134.14,T,,M,2.61,N,4.8,K,A*07
$GPGGA,211629.000,3747.6830,N,12215.4663,W,1,07,1.2,20.8,M,-25.1,M,,0000*5C
$GPGSA,A,3,13,20,32,07,23,16,30,,,,,,3.1,1.2,2.8*3A
$GPRMC,211629.000,A,3747.6830,N,12215.4663,W,1.48,111.91,180412,,,A*71
$GPVTG,111.91,T,,M,1.48,N,2.7,K,A*0C
$GPGGA,211630.000,3747.6827,N,12215.4660,W,1,07,1.2,19.8,M,-25.1,M,,0000*5B
$GPGSA,A,3,13,20,32,07,23,16,30,,,,,,3.1,1.2,2.8*3A
$GPRMC,211630.000,A,3747.6827,N,12215.4660,W,1.36,136.20,180412,,,A*7A
$GPVTG,136.20,T,,M,1.36,N,2.5,K,A*08
$GPGGA,211631.000,3747.6823,N,12215.4656,W,1,07,1.2,19.0,M,-25.1,M,,0000*53
$GPGSA,A,3,13,20,32,07,23,16,30,,,,,,3.1,1.2,2.8*3A
$GPRMC,211631.000,A,3747.6823,N,12215.4656,W,0.74,103.83,180412,,,A*72
$GPVTG,103.83,T,,M,0.74,N,1.4,K,A*02
$GPGGA,211632.000,3747.6821,N,12215.4651,W,1,07,1.2,18.4,M,-25.1,M,,0000*50
$GPGSA,A,3,13,20,32,07,23,16,30,,,,,,3.1,1.2,2.8*3A
$GPGSV,3,1,12,23,67,347,26,20,60,185,24,16,50,096,21,13,42,305,23*7F
$GPGSV,3,2,12,32,40,154,25,30,38,059,14,07,28,242,24,10,14,317,28*7C
$GPGSV,3,3,12,04,14,295,28,31,04,052,,03,03,128,,06,02,114,*75
$GPRMC,211632.000,A,3747.6821,N,12215.4651,W,0.81,148.95,180412,,,A*76
$GPVTG,148.95,T,,M,0.81,N,1.5,K,A*01
$GPGGA,211633.000,3747.6820,N,12215.4646,W,1,07,1.2,18.2,M,-25.1,M,,0000*50
$GPGSA,A,3,13,20,32,07,23,16,30,,,,,,3.1,1.2,2.8*3A
$GPRMC,211633.000,A,3747.6820,N,12215.4646,W,1.54,151.91,180412,,,A*75
$GPVTG,151.91,T,,M,1.54,N,2.9,K,A*0B
$GPGGA,211634.000,3747.6816,N,12215.4643,W,1,07,1.2,18.2,M,-25.1,M,,0000*57
$GPGSA,A,3,13,20,32,07,23,16,30,,,,,,3.1,1.2,2.8*3A
$GPRMC,211634.000,A,3747.6816,N,12215.4643,W,1.15,174.80,180412,,,A*70
$GPVTG,174.80,T,,M,1.15,N,2.1,K,A*01
$GPGGA,211635.000,3747.6815,N,12215.4644,W,1,07,1.2,16.7,M,-25.1,M,,0000*59
$GPGSA,A,3,13,20,32,07,23,16,30,,,,,,3.1,1.2,2.8*3A
$GPRMC,211635.000,A,3747.6815,N,12215.4644,W,1.30,200.66,180412,,,A*7A
$GPVTG,200.66,T,,M,1.30,N,2.4,K,A*0B
$GPGGA,211636.000,3747.6809,N,12215.4647,W,1,07,1.2,17.5,M,-25.1,M,,0000*57
$GPGSA,A,3,13,20,32,07,23,16,30,,,,,,3.1,1.2,2.8*3A
$GPRMC,211636.000,A,3747.6809,N,12215.4647,W,2.15,178.44,180412,,,A*7F
$GPVTG,178.44,T,,M,2.15,N,4.0,K,A*01
$GPGGA,211637.000,3747.6810,N,12215.4633,W,1,07,1.2,13.9,M,-25.1,M,,0000*55
$GPGSA,A,3,13,20,32,07,23,16,30,,,,,,3.1,1.2,2.8*3A
$GPGSV,3,1,12,23,67,347,34,20,60,185,28,16,50,096,32,13,42,305,36*76
$GPGSV,3,2,12,32,40,154,25,30,38,059,15,07,28,242,33,10,14,317,34*76
$GPGSV,3,3,12,04,14,295,35,31,04,052,,03,03,128,,06,02,114,*79
$GPRMC,211637.000,A,3747.6810,N,12215.4633,W,1.75,137.92,180412,,,A*70
$GPVTG,137.92,T,,M,1.75,N,3.2,K,A*01
$GPGGA,211638.000,3747.6812,N,12215.4619,W,1,07,1.2,11.4,M,-25.1,M,,0000*5F
$GPGSA,A,3,13,20,32,07,23,16,30,,,,,,3.1,1.2,2.8*3A
$GPRMC,211638.000,A,3747.6812,N,12215.4619,W,1.88,160.24,180412,,,A*78
$GPVTG,160.24,T,,M,1.88,N,3.5,K,A*0B
$GPGGA,211639.000,3747.6803,N,12215.4614,W,1,07,1.2,12.0,M,-25.1,M,,0000*54
$GPGSA,A,3,13,20,32,07,23,16,30,,,,,,3.1,1.2,2.8*3A
$GPRMC,211639.000,A,3747.6803,N,12215.4614,W,2.63,167.65,180412,,,A*70
$GPVTG,167.65,T,,M,2.63,N,4.9,K,A*04
$GPGGA,211640.000,3747.6798,N,12215.4609,W,1,04,3.1,11.8,M,-25.1,M,,0000*52
$GPGSA,A,3,13,07,23,16,,,,,,,,,7.9,3.1,7.3*39
$GPRMC,211640.000,A,3747.6798,N,12215.4609,W,1.49,169.52,180412,,,A*7E
$GPVTG,169.52,T,,M,1.49,N,2.8,K,A*02
$GPGGA,211641.000,3747.6787,N,12215.4606,W,1,07,1.2,13.0,M,-25.1,M,,0000*5A
$GPGSA,A,3,13,20,32,07,23,16,30,,,,,,3.1,1.2,2.8*3A
$GPRMC,211641.000,A,3747.6787,N,12215.4606,W,1.99,171.44,180412,,,A*7D
$GPVTG,171.44,T,,M,1.99,N,3.7,K,A*0F
$GPGGA,211642.000,3747.6785,N,12215.4602,W,1,07,1.2,11.8,M,-25.1,M,,0000*55
$GPGSA,A,3,13,20,32,07,23,16,30,,,,,,3.1,1.2,2.8*3A
$GPGSV,3,1,12,23,67,347,34,20,60,185,23,16,50,096,26,13,42,305,36*78
$GPGSV,3,2,12,32,40,154,21,30,38,059,22,07,28,242,33,10,14,317,32*70
$GPGSV,3,3,12,04,14,295,35,31,04,052,,03,03,128,,06,02,114,*79
$GPRMC,211642.000,A,3747.6785,N,12215.4602,W,1.81,144.77,180412,,,A*77
$GPVTG,144.77,T,,M,1.81,N,3.3,K,A*04
$GPGGA,211643.000,3747.6780,N,12215.4595,W,1,07,1.2,11.0,M,-25.1,M,,0000*54
$GPGSA,A,3,13,20,32,07,23,16,30,,,,,,3.1,1.2,2.8*3A
$GPRMC,211643.000,A,3747.6780,N,12215.4595,W,1.73,154.47,180412,,,A*71
$GPVTG,154.47,T,,M,1.73,N,3.2,K,A*0A
$GPGGA,211644.000,3747.6773,N,12215.4591,W,1,07,1.2,10.5,M,-25.1,M,,0000*5F
$GPGSA,A,3,13,20,32,07,23,16,30,,,,,,3.1,1.2,2.8*3A
$GPRMC,211644.000,A,3747.6773,N,12215.4591,W,1.96,176.89,180412,,,A*77
$GPVTG,176.89,T,,M,1.96,N,3.6,K,A*07
$GPGGA,211645.000,3747.6767,N,12215.4589,W,1,07,1.2,9.8,M,-25.1,M,,0000*67
$GPGSA,A,3,13,20,32,07,23,16,30,,,,,,3.1,1.2,2.8*3A
$GPRMC,211645.000,A,3747.6767,N,12215.4589,W,2.10,179.95,180412,,,A*75
$GPVTG,179.95,T,,M,2.10,N,3.9,K,A*07
$GPGGA,211646.000,3747.6759,N,12215.4587,W,1,07,1.2,9.3,M,-25.1,M,,0000*6C
$GPGSA,A,3,13,20,32,07,23,16,30,,,,,,3.1,1.2,2.8*3A
$GPRMC,211646.000,A,3747.6759,N,12215.4587,W,1.87,182.81,180412,,,A*79
$GPVTG,182.81,T,,M,1.87,N,3.5,K,A*07
$GPGGA,211647.000,3747.6752,N,12215.4585,W,1,07,1.2,9.5,M,-25.1,M,,0000*62
$GPGSA,A,3,13,20,32,07,23,16,30,,,,,,3.1,1.2,2.8*3A
$GPGSV,3,1,12,23,67,348,34,20,59,185,26,16,50,095,28,13,42,306,36*76
$GPGSV,3,2,12,32,39,154,20,30,38,058,34,07,29,242,37,10,14,317,33*7D
$GPGSV,3,3,12,04,14,295,34,31,03,052,27,03,03,128,13,06,02,113,*7F
$GPRMC,211647.000,A,3747.6752,N,12215.4585,W,1.70,183.76,180412,,,A*70
$GPGGA,211648.000,3747.6745,N,12215.4588,W,1,07,1.2,9.3,M,-25.1,M,,0000*60
$GPGSA,A,3,13,20,32,07,23,16,30,,,,,,3.1,1.2,2.8*3A
$GPRMC,211648.000,A,3747.6745,N,12215.4588,W,1.70,193.39,180412,,,A*7E
$GPVTG,193.39,T,,M,1.70,N,3.1,K,A*08
$GPGGA,211649.000,3747.6740,N,12215.4589,W,1,07,1.2,8.2,M,-25.1,M,,0000*65
$GPGSA,A,3,13,20,32,07,23,16,30,,,,,,3.1,1.2,2.8*3A
$GPRMC,211649.000,A,3747.6740,N,12215.4589,W,1.84,214.64,180412,,,A*74
$GPVTG,214.64,T,,M,1.84,N,3.4,K,A*02
$GPGGA,211650.000,3747.6734,N,12215.4593,W,1,07,1.2,7.3,M,-25.1,M,,0000*6B
$GPGSA,A,3,13,20,32,07,23,16,30,,,,,,3.1,1.2,2.8*3A
$GPRMC,211650.000,A,3747.6734,N,12215.4593,W,2.52,208.17,180412,,,A*75
$GPVTG,208.17,T,,M,2.52,N,4.7,K,A*07
$GPGGA,211651.000,3747.6726,N,12215.4597,W,1,07,1.2,6.5,M,-25.1,M,,0000*6A
$GPGSA,A,3,13,20,32,07,23,16,30,,,,,,3.1,1.2,2.8*3A
$GPRMC,211651.000,A,3747.6726,N,12215.4597,W,2.72,187.60,180412,,,A*75
$GPVTG,187.60,T,,M,2.72,N,5.0,K,A*07
$GPGGA,211652.000,3747.6717,N,12215.4596,W,1,07,1.2,5.5,M,-25.1,M,,0000*69
$GPGSA,A,3,13,20,32,07,23,16,30,,,,,,3.1,1.2,2.8*3A
$GPGSV,3,1,12,23,67,348,35,20,59,185,27,16,50,095,23,13,42,306,37*7C
$GPGSV,3,2,12,32,39,154,21,30,38,058,27,07,29,242,31,10,14,317,38*73
$GPGSV,3,3,12,04,14,295,34,31,03,052,32,03,03,128,15,06,02,113,*7D
$GPRMC,211652.000,A,3747.6717,N,12215.4596,W,2.42,177.52,180412,,,A*78
$GPVTG,177.52,T,,M,2.42,N,4.5,K,A*0E
$GPGGA,211653.000,3747.6705,N,12215.4598,W,1,07,1.2,7.1,M,-25.1,M,,0000*63
$GPGSA,A,3,13,20,32,07,23,16,30,,,,,,3.1,1.2,2.8*3A
$GPRMC,211653.000,A,3747.6705,N,12215.4598,W,2.61,188.65,180412,,,A*71
$GPVTG,188.65,T,,M,2.61,N,4.8,K,A*06
$GPGGA,211654.000,3747.6699,N,12215.4601,W,1,07,1.2,7.9,M,-25.1,M,,0000*6B
$GPGSA,A,3,13,20,32,07,23,16,30,,,,,,3.1,1.2,2.8*3A
$GPRMC,211654.000,A,3747.6699,N,12215.4601,W,2.27,172.02,180412,,,A*77
$GPVTG,172.02,T,,M,2.27,N,4.2,K,A*0A
$GPGGA,211655.000,3747.6698,N,12215.4600,W,1,05,1.4,7.6,M,-25.1,M,,0000*61
$GPGSA,A,3,13,32,07,23,30,,,,,,,,4.0,1.4,3.7*31
$GPRMC,211655.000,A,3747.6698,N,12215.4600,W,1.05,142.78,180412,,,A*7B
$GPVTG,142.78,T,,M,1.05,N,1.9,K,A*09
$GPGGA,211656.000,3747.6704,N,12215.4600,W,1,07,1.2,7.9,M,-25.1,M,,0000*6D
$GPGSA,A,3,13,20,32,07,23,16,30,,,,,,3.1,1.2,2.8*3A
$GPRMC,211656.000,A,3747.6704,N,12215.4600,W,0.53,324.22,180412,,,A*73
$GPVTG,324.22,T,,M,0.53,N,1.0,K,A*0F
$GPGGA,211657.000,3747.6710,N,12215.4601,W,1,07,1.2,8.0,M,-25.1,M,,0000*6E
$GPGSA,A,3,13,20,32,07,23,16,30,,,,,,3.1,1.2,2.8*3A
$GPGSV,3,1,12,23,67,348,22,20,59,185,21,16,50,095,24,13,42,306,30*7C
$GPGSV,3,2,12,32,39,154,27,30,38,058,31,07,29,242,22,10,14,317,22*7B
$GPGSV,3,3,12,04,14,295,19,31,03,052,28,03,03,128,25,06,02,113,*7A
$GPRMC,211657.000,A,3747.6710,N,12215.4601,W,0.62,351.42,180412,,,A*70
$GPVTG,351.42,T,,M,0.62,N,1.1,K,A*08
$GPGGA,211658.000,3747.6715,N,12215.4600,W,1,07,1.2,8.8,M,-25.1,M,,0000*6D
$GPGSA,A,3,13,20,32,07,23,16,30,,,,,,3.1,1.2,2.8*3A
$GPRMC,211658.000,A,3747.6715,N,12215.4600,W,0.54,12.09,180412,,,A*45
$GPVTG,12.09,T,,M,0.54,N,1.0,K,A*37
$GPGGA,211659.000,3747.6719,N,12215.4598,W,1,07,1.2,10.1,M,-25.1,M,,0000*52
$GPGSA,A,3,13,20,32,07,23,16,30,,,,,,3.1,1.2,2.8*3A
$GPRMC,211659.000,A,3747.6719,N,12215.4598,W,0.32,54.36,180412,,,A*44
$GPVTG,54.36,T,,M,0.32,N,0.6,K,A*3E
$GPGGA,211700.000,3747.6721,N,12215.4597,W,1,06,1.3,10.3,M,-25.1,M,,0000*59
$GPGSA,A,3,13,20,32,23,16,30,,,,,,,4.0,1.3,3.7*34
$GPRMC,211700.000,A,3747.6721,N,12215.4597,W,0.30,110.22,180412,,,A*7B
$GPVTG,110.22,T,,M,0.30,N,0.6,K,A*08
$GPGGA,211701.000,3747.6723,N,12215.4595,W,1,07,1.2,11.4,M,-25.1,M,,0000*5E
$GPGSA,A,3,13,20,32,23,16,30,07,,,,,,3.1,1.2,2.8*3A
$GPRMC,211701.000,A,3747.6723,N,12215.4595,W,0.05,145.49,180412,,,A*71
$GPVTG,145.49,T,,M,0.05,N,0.1,K,A*04
$GPGGA,211702.000,3747.6725,N,12215.4593,W,1,07,1.2,12.9,M,-25.1,M,,0000*53
$GPGSA,A,3,13,20,32,23,16,30,07,,,,,,3.1,1.2,2.8*3A
$GPGSV,3,1,12,23,67,348,21,20,59,185,25,16,50,095,29,13,42,306,29*7E
$GPGSV,3,2,12,32,39,154,28,30,38,058,32,07,29,242,26,10,14,317,12*70
$GPGSV,3,3,12,04,14,295,19,31,03,052,29,03,03,128,20,06,02,113,*7E
$GPVTG,22.33,T,,M,0.12,N,0.2,K,A*3C
$GPGGA,211703.000,3747.6727,N,12215.4591,W,1,07,1.2,14.1,M,-25.1,M,,0000*5C
$GPGSA,A,3,13,20,32,23,16,30,07,,,,,,3.1,1.2,2.8*3A
$GPRMC,211703.000,A,3747.6727,N,12215.4591,W,0.26,86.60,180412,,,A*47
$GPVTG,86.60,T,,M,0.26,N,0.5,K,A*34
$GPGGA,211704.000,3747.6724,N,12215.4590,W,1,07,1.2,15.0,M,-25.1,M,,0000*59
$GPGSA,A,3,13,20,32,23,16,30,07,,,,,,3.1,1.2,2.8*3A
$GPRMC,211704.000,A,3747.6724,N,12215.4590,W,0.28,133.62,180412,,,A*71
$GPVTG,133.62,T,,M,0.28,N,0.5,K,A*07
$GPGGA,211705.000,3747.6724,N,12215.4587,W,1,07,1.2,15.5,M,-25.1,M,,0000*5B
$GPGSA,A,3,13,20,32,23,16,30,07,,,,,,3.1,1.2,2.8*3A
$GPRMC,211705.000,A,3747.6724,N,12215.4587,W,0.11,332.76,180412,,,A*7A
$GPVTG,332.76,T,,M,0.11,N,0.2,K,A*0C
$GPGGA,211706.000,3747.6721,N,12215.4587,W,1,06,1.2,16.2,M,-25.1,M,,0000*58
$GPGSA,A,3,13,20,32,16,30,07,,,,,,,3.9,1.2,3.7*3D
$GPRMC,211706.000,A,3747.6721,N,12215.4587,W,0.11,272.72,180412,,,A*7D
$GPVTG,272.72,T,,M,0.11,N,0.2,K,A*0D
$GPGGA,211707.000,3747.6722,N,12215.4584,W,1,06,1.2,17.6,M,-25.1,M,,0000*5C
$GPGSA,A,3,13,20,32,16,30,07,,,,,,,3.9,1.2,3.7*3D
$GPGSV,3,1,12,23,67,348,10,20,59,185,26,16,50,095,30,13,42,306,30*7F
$GPGSV,3,2,12,32,39,154,22,30,38,058,31,07,29,242,23,10,14,317,23*7E
$GPGSV,3,3,12,04,14,295,21,31,03,052,22,03,03,128,19,06,02,113,*74
$GPRMC,211707.000,A,3747.6722,N,12215.4584,W,0.16,183.53,180412,,,A*75
$GPVTG,183.53,T,,M,0.16,N,0.3,K,A*05
$GPGGA,211708.000,3747.6723,N,12215.4581,W,1,07,1.2,18.9,M,-25.1,M,,0000*56
$GPGSA,A,3,13,20,32,23,16,30,07,,,,,,3.1,1.2,2.8*3A
$GPRMC,211708.000,A,3747.6723,N,12215.4581,W,0.30,49.13,180412,,,A*49
$GPVTG,49.13,T,,M,0.30,N,0.6,K,A*37
$GPGGA,211709.000,3747.6720,N,12215.4579,W,1,07,1.2,18.1,M,-25.1,M,,0000*5B
$GPGSA,A,3,13,20,32,23,16,30,07,,,,,,3.1,1.2,2.8*3A
$GPRMC,211709.000,A,3747.6720,N,12215.4579,W,0.49,174.19,180412,,,A*77
$GPVTG,174.19,T,,M,0.49,N,0.9,K,A*03
$GPGGA,211710.000,3747.6718,N,12215.4577,W,1,07,1.2,18.2,M,-25.1,M,,0000*55
$GPGSA,A,3,13,20,32,23,16,30,07,,,,,,3.1,1.2,2.8*3A
$GPRMC,211710.000,A,3747.6718,N,12215.4577,W,0.46,197.51,180412,,,A*74
$GPVTG,197.51,T,,M,0.46,N,0.9,K,A*0D
$GPGGA,211711.000,3747.6722,N,12215.4577,W,1,07,1.2,19.5,M,-25.1,M,,0000*5B
$GPGSA,A,3,13,20,32,23,16,30,07,,,,,,3.1,1.2,2.8*3A
$GPRMC,211711.000,A,3747.6722,N,12215.4577,W,0.16,99.77,180412,,,A*42
$GPVTG,99.77,T,,M,0.16,N,0.3,K,A*39
$GPGGA,211712.000,3747.6724,N,12215.4577,W,1,07,1.2,20.7,M,-25.1,M,,0000*56
$GPGSA,A,3,13,20,32,23,16,30,07,,,,,,3.1,1.2,2.8*3A
$GPGSV,3,1,12,23,67,348,22,20,59,185,27,16,50,095,29,13,42,306,30*77
$GPGSV,3,2,12,32,39,154,26,30,38,058,32,07,29,242,24,10,14,317,24*79
$GPGSV,3,3,12,04,14,295,19,31,03,052,25,03,03,128,22,06,02,113,*70
$GPRMC,211712.000,A,3747.6724,N,12215.4577,W,0.14,246.80,180412,,,A*7D
$GPVTG,246.80,T,,M,0.14,N,0.3,K,A*03
$GPGGA,211713.000,3747.6724,N,12215.4574,W,1,07,1.2,20.5,M,-25.1,M,,0000*56
$GPGSA,A,3,13,20,32,23,16,30,07,,,,,,3.1,1.2,2.8*3A
$GPRMC,211713.000,A,3747.6724,N,12215.4574,W,0.48,57.89,180412,,,A*4D
$GPVTG,57.89,T,,M,0.48,N,0.9,K,A*3B
$GPGGA,211714.000,3747.6723,N,12215.4573,W,1,07,1.2,22.5,M,-25.1,M,,0000*53
$GPGSA,A,3,13,20,32,23,16,30,07,,,,,,3.1,1.2,2.8*3A
$GPRMC,211714.000,A,3747.6723,N,12215.4573,W,0.24,76.28,180412,,,A*48
$GPVTG,76.28,T,,M,0.24,N,0.4,K,A*34
