$ADVER,3080,2.3
$GPRMC,201104.684,A,3747.6883,N,12215.4795,W,0.39,202.68,180412,,,A*72
$GPGGA,201105.684,3747.6925,N,12215.4784,W,1,03,1.8,65.1,M,-25.1,M,,0000*55
$GPGSA,A,2,23,16,01,,,,,,,,,,2.1,1.8,1.0*3F
$GPRMC,201105.684,A,3747.6925,N,12215.4784,W,0.22,203.88,180412,,,A*7B
$GPVTG,203.88,T,,M,0.22,N,0.4,K,N*07
$GPGGA,201106.684,3747.6944,N,12215.4779,W,1,03,1.8,53.9,M,-25.1,M,,0000*5E
$GPGSA,A,2,23,16,01,,,,,,,,,,2.1,1.8,1.0*3F
$GPRMC,201106.684,A,3747.6944,N,12215.4779,W,0.15,204.28,180412,,,A*74
$GPVTG,204.28,T,,M,0.15,N,0.3,K,N*09
$GPGGA,201107.685,3747.6954,N,12215.4776,W,1,03,1.8,47.7,M,-25.1,M,,0000*5B
$GPGSA,A,2,23,16,01,,,,,,,,,,2.1,1.8,1.0*3F
$GPRMC,201107.685,A,3747.6954,N,12215.4776,W,0.17,211.82,180412,,,A*7C
$GPVTG,211.82,T,,M,0.17,N,0.3,K,N*0F
$GPGGA,201108.684,3747.6961,N,12215.4774,W,1,03,1.8,43.6,M,-25.1,M,,0000*54
$GPGSA,A,2,23,16,01,,,,,,,,,,2.1,1.8,1.0*3F
$GPGSV,3,1,12,23,49,301,42,16,32,133,32,01,24,212,40,07,05,224,34*75
$GPGSV,3,2,12,20,78,280,36,30,42,099,,31,28,044,,13,21,280,40*7B
$GPGSV,3,3,12,24,08,184,,11,07,201,20,04,07,320,,48,00,000,44*71
$GPRMC,201108.684,A,3747.6961,N,12215.4774,W,0.19,206.17,180412,,,A*72
$GPVTG,206.17,T,,M,0.19,N,0.3,K,N*0B
$GPGGA,201109.684,3747.6965,N,12215.4772,W,1,03,1.8,40.9,M,-25.1,M,,0000*5B
$GPGSA,A,2,23,16,01,,,,,,,,,,2.1,1.8,1.0*3F
$GPRMC,201109.684,A,3747.6965,N,12215.4772,W,0.15,214.05,180412,,,A*7D
$GPVTG,214.05,T,,M,0.15,N,0.3,K,N*07
$GPGGA,201110.684,3747.6968,N,12215.4771,W,1,03,1.8,38.8,M,-25.1,M,,0000*53
$GPGSA,A,2,23,16,01,,,,,,,,,,2.1,1.8,1.0*3F
$GPRMC,201110.684,A,3747.6968,N,12215.4771,W,0.18,196.20,180412,,,A*78
$GPVTG,196.20,T,,M,0.18,N,0.3,K,N*04
$GPGGA,201111.684,3747.6971,N,12215.4769,W,1,03,1.8,37.3,M,-25.1,M,,0000*57
$GPGSA,A,2,23,16,01,,,,,,,,,,2.1,1.8,1.0*3F
$GPRMC,201111.684,A,3747.6971,N,12215.4769,W,0.11,203.12,180412,,,A*7F
$GPVTG,203.12,T,,M,0.11,N,0.2,K,N*02
$GPGGA,201112.684,3747.6973,N,12215.4768,W,1,03,1.8,36.0,M,-25.1,M,,0000*55
$GPGSA,A,2,23,16,01,,,,,,,,,,2.1,1.8,1.0*3F
$GPRMC,201112.684,A,3747.6973,N,12215.4768,W,0.27,134.49,180412,,,A*73
$GPVTG,134.49,T,,M,0.27,N,0.5,K,N*09
$GPGGA,201113.684,3747.6974,N,12215.4767,W,1,03,1.8,35.0,M,-25.1,M,,0000*5F
$GPGSA,A,2,23,16,01,,,,,,,,,,2.1,1.8,1.0*3F
$GPGSV,3,1,12,23,49,301,37,16,32,133,32,01,24,212,39,07,05,224,34*79
$GPGSV,3,2,12,20,78,280,31,30,42,099,,31,28,044,,13,21,280,33*78
$GPGSV,3,3,12,24,08,184,,11,07,201,21,04,07,320,,48,00,000,41*75
$GPRMC,201113.684,A,3747.6974,N,12215.4767,W,0.43,213.38,180412,,,A*78
$GPVTG,213.38,T,,M,0.43,N,0.8,K,N*06
$GPGGA,201114.684,3747.6975,N,12215.4767,W,1,03,1.8,34.2,M,-25.1,M,,0000*5A
$GPGSA,A,2,23,16,01,,,,,,,,,,2.1,1.8,1.0*3F
$GPRMC,201114.684,A,3747.6975,N,12215.4767,W,0.20,227.23,180412,,,A*76
$GPVTG,227.23,T,,M,0.20,N,0.4,K,N*02
$GPGGA,201115.684,3747.6976,N,12215.4767,W,1,03,1.8,33.5,M,-25.1,M,,0000*58
$GPGSA,A,2,23,16,01,,,,,,,,,,2.1,1.8,1.0*3F
$GPRMC,201115.684,A,3747.6976,N,12215.4767,W,0.16,220.22,180412,,,A*77
$GPVTG,220.22,T,,M,0.16,N,0.3,K,N*06
$GPGGA,201116.684,3747.6977,N,12215.4766,W,1,03,1.8,32.9,M,-25.1,M,,0000*56
$GPGSA,A,2,23,16,01,,,,,,,,,,2.1,1.8,1.0*3F
$GPRMC,201116.684,A,3747.6977,N,12215.4766,W,0.12,186.26,180412,,,A*7B
$GPVTG,186.26,T,,M,0.12,N,0.2,K,N*08
$GPGGA,201117.684,3747.6978,N,12215.4766,W,1,03,1.8,32.4,M,-25.1,M,,0000*55
$GPGSA,A,2,23,16,01,,,,,,,,,,2.1,1.8,1.0*3F
$GPRMC,201117.684,A,3747.6978,N,12215.4766,W,0.13,204.35,180412,,,A*7F
$GPVTG,204.35,T,,M,0.13,N,0.2,K,N*02
$GPGGA,201118.684,3747.6978,N,12215.4766,W,1,03,1.8,31.9,M,-25.1,M,,0000*54
$GPGSA,A,2,23,16,01,,,,,,,,,,2.1,1.8,1.0*3F
$GPGSV,3,1,12,20,78,279,38,23,49,301,42,30,42,099,19,16,32,133,34*77
$GPGSV,3,2,12,31,28,044,15,01,24,212,40,13,21,280,39,24,08,184,*77
$GPGSV,3,3,12,11,07,201,21,04,07,320,,07,05,224,34,48,44,197,44*7D
$GPRMC,201118.684,A,3747.6978,N,12215.4766,W,0.17,221.76,180412,,,A*74
$GPGGA,201119.684,3747.6979,N,12215.4766,W,1,03,1.8,31.5,M,-25.1,M,,0000*58
$GPGSA,A,2,23,16,01,,,,,,,,,,2.1,1.8,1.0*3F
$GPRMC,201119.684,A,3747.6979,N,12215.4766,W,0.20,215.90,180412,,,A*7F
$GPVTG,215.90,T,,M,0.20,N,0.4,K,N*0B
$GPGGA,201120.684,3747.6979,N,12215.4766,W,1,03,1.8,31.2,M,-25.1,M,,0000*55
$GPGSA,A,2,23,16,01,,,,,,,,,,2.1,1.8,1.0*3F
$GPRMC,201120.684,A,3747.6979,N,12215.4766,W,0.12,208.01,180412,,,A*70
$GPVTG,208.01,T,,M,0.12,N,0.2,K,N*08
$GPGGA,201121.684,3747.6979,N,12215.4766,W,1,03,1.8,30.8,M,-25.1,M,,0000*5F
$GPGSA,A,2,23,16,01,,,,,,,,,,2.1,1.8,1.0*3F
$GPRMC,201121.684,A,3747.6979,N,12215.4766,W,0.09,187.83,180412,,,A*75
$GPVTG,187.83,T,,M,0.09,N,0.2,K,N*0C
$GPGGA,201122.685,3747.7003,N,12215.4758,W,1,04,2.1,16.7,M,-25.1,M,,0000*53
$GPGSA,A,3,23,16,01,13,,,,,,,,,5.0,2.1,4.5*30
$GPRMC,201122.685,A,3747.7003,N,12215.4758,W,0.28,235.81,180412,,,A*74
$GPVTG,235.81,T,,M,0.28,N,0.5,K,A*0F
$GPGGA,201123.684,3747.7010,N,12215.4756,W,1,04,2.1,12.4,M,-25.1,M,,0000*58
$GPGSA,A,3,23,16,01,13,,,,,,,,,5.0,2.1,4.5*30
$GPGSV,3,1,12,20,78,279,26,23,49,301,35,30,42,099,,16,32,132,20*74
$GPGSV,3,2,12,31,28,044,,01,24,212,34,13,21,280,38,24,08,184,*71
$GPGSV,3,3,12,11,07,201,20,04,07,320,,07,05,224,34,48,44,197,35*7A
$GPRMC,201123.684,A,3747.7010,N,12215.4756,W,0.52,251.74,180412,,,A*7D
$GPVTG,251.74,T,,M,0.52,N,1.0,K,A*0E
$GPGGA,201124.000,3747.7011,N,12215.4755,W,1,04,2.1,11.8,M,-25.1,M,,0000*58
$GPGSA,A,3,23,16,01,13,,,,,,,,,5.0,2.1,4.5*30
$GPRMC,201124.000,A,3747.7011,N,12215.4755,W,0.73,235.99,180412,,,A*70
$GPVTG,235.99,T,,M,0.73,N,1.4,K,A*08
$GPGGA,201125.000,3747.7014,N,12215.4753,W,1,04,2.1,9.5,M,-25.1,M,,0000*6E
$GPGSA,A,3,23,16,01,13,,,,,,,,,5.0,2.1,4.5*30
$GPRMC,201125.000,A,3747.7014,N,12215.4753,W,0.29,197.06,180412,,,A*70
$GPVTG,197.06,T,,M,0.29,N,0.5,K,A*0A
$GPGGA,201126.000,3747.7016,N,12215.4752,W,1,04,2.1,8.0,M,-25.1,M,,0000*6A
$GPGSA,A,3,23,16,01,13,,,,,,,,,5.0,2.1,4.5*30
$GPRMC,201126.000,A,3747.7016,N,12215.4752,W,0.16,179.62,180412,,,A*7E
$GPVTG,179.62,T,,M,0.16,N,0.3,K,A*02
$GPGGA,201127.000,3747.7018,N,12215.4751,W,1,04,2.1,6.8,M,-25.1,M,,0000*60
$GPGSA,A,3,23,16,01,13,,,,,,,,,5.0,2.1,4.5*30
$GPRMC,201127.000,A,3747.7018,N,12215.4751,W,0.10,226.48,180412,,,A*75
$GPVTG,226.48,T,,M,0.10,N,0.2,K,A*04
$GPGGA,201128.000,3747.7019,N,12215.4751,W,1,04,2.1,6.1,M,-25.1,M,,0000*67
$GPGSA,A,3,23,16,01,13,,,,,,,,,5.0,2.1,4.6*33
$GPGSV,3,1,12,20,78,279,33,23,49,301,34,30,42,099,20,16,32,132,39*7B
$GPGSV,3,2,12,31,28,044,,01,24,212,37,13,21,280,37,24,08,184,*7D
$GPGSV,3,3,12,11,07,201,21,04,07,320,,07,05,224,31,48,44,197,43*7F
$GPRMC,201128.000,A,3747.7019,N,12215.4751,W,0.30,164.87,180412,,,A*7F
$GPVTG,164.87,T,,M,0.30,N,0.6,K,A*04
$GPGGA,201129.000,3747.7020,N,12215.4750,W,1,04,2.1,4.2,M,-25.1,M,,0000*6C
$GPGSA,A,3,23,16,01,13,,,,,,,,,5.0,2.1,4.6*33
$GPRMC,201129.000,A,3747.7020,N,12215.4750,W,0.49,228.82,180412,,,A*75
$GPVTG,228.82,T,,M,0.49,N,0.9,K,A*0B
$GPGGA,201130.000,3747.7021,N,12215.4750,W,1,04,2.2,2.4,M,-25.1,M,,0000*66
$GPGSA,A,3,23,16,01,13,,,,,,,,,5.0,2.2,4.6*30
$GPRMC,201130.000,A,3747.7021,N,12215.4750,W,0.11,151.80,180412,,,A*7E
$GPVTG,151.80,T,,M,0.11,N,0.2,K,A*02
$GPGGA,201131.000,3747.7022,N,12215.4749,W,1,04,2.2,1.1,M,-25.1,M,,0000*6A
$GPGSA,A,3,23,16,01,13,,,,,,,,,5.0,2.2,4.6*30
$GPRMC,201131.000,A,3747.7022,N,12215.4749,W,0.19,209.57,180412,,,A*78
$GPVTG,209.57,T,,M,0.19,N,0.4,K,A*08
$GPGGA,201132.000,3747.7022,N,12215.4749,W,1,04,2.2,0.2,M,-25.1,M,,0000*6B
$GPGSA,A,3,23,16,01,13,,,,,,,,,5.0,2.2,4.6*30
$GPRMC,201132.000,A,3747.7022,N,12215.4749,W,0.15,215.90,180412,,,A*71
$GPVTG,215.90,T,,M,0.15,N,0.3,K,A*05
$GPGGA,201133.000,3747.7021,N,12215.4749,W,1,05,2.1,0.8,M,-25.1,M,,0000*61
$GPGSA,A,3,23,16,07,01,13,,,,,,,,4.2,2.1,3.6*30
$GPGSV,3,1,12,20,78,279,31,23,49,301,28,30,42,099,27,16,32,132,40*7D
$GPGSV,3,2,12,31,28,044,,01,24,212,42,13,21,280,34,24,08,184,*7C
$GPGSV,3,3,12,11,07,201,33,04,07,320,23,07,05,224,36,48,44,197,42*7B
$GPRMC,201133.000,A,3747.7021,N,12215.4749,W,0.17,205.58,180412,,,A*74
$GPGGA,201134.000,3747.7023,N,12215.4749,W,1,05,2.1,-0.9,M,-25.1,M,,0000*48
$GPGSA,A,3,23,16,07,01,13,,,,,,,,4.2,2.1,3.6*30
$GPRMC,201134.000,A,3747.7023,N,12215.4749,W,0.37,221.75,180412,,,A*7A
$GPVTG,221.75,T,,M,0.37,N,0.7,K,A*0D
$GPGGA,201135.000,3747.7021,N,12215.4750,W,1,05,2.1,0.1,M,-25.1,M,,0000*66
$GPGSA,A,3,23,16,07,01,13,,,,,,,,4.2,2.1,3.6*30
$GPRMC,201135.000,A,3747.7021,N,12215.4750,W,0.49,184.16,180412,,,A*71
$GPVTG,184.16,T,,M,0.49,N,0.9,K,A*03
$GPGGA,201136.000,3747.7019,N,12215.4752,W,1,05,2.2,1.1,M,-25.1,M,,0000*6E
$GPGSA,A,3,23,16,07,01,13,,,,,,,,4.2,2.2,3.6*33
$GPRMC,201136.000,A,3747.7019,N,12215.4752,W,1.07,254.85,180412,,,A*74
$GPVTG,254.85,T,,M,1.07,N,2.0,K,A*07
$GPGGA,201137.000,3747.7017,N,12215.4752,W,1,04,2.7,2.2,M,-25.1,M,,0000*65
$GPGSA,A,3,23,16,07,01,,,,,,,,,5.2,2.7,4.5*31
$GPRMC,201137.000,A,3747.7017,N,12215.4752,W,0.93,91.37,180412,,,A*45
$GPVTG,91.37,T,,M,0.93,N,1.7,K,A*3D
$GPGGA,201138.000,3747.7015,N,12215.4752,W,1,05,2.2,3.7,M,-25.1,M,,0000*68
$GPGSA,A,3,23,16,07,01,13,,,,,,,,4.2,2.2,3.6*33
$GPGSV,3,1,12,20,78,279,26,23,49,301,27,30,42,099,25,16,32,132,40*76
$GPGSV,3,2,12,31,28,044,22,01,24,212,41,13,21,280,26,24,08,184,*7C
$GPGSV,3,3,12,11,07,201,27,04,07,320,20,07,05,224,32,48,44,197,41*7A
$GPRMC,201138.000,A,3747.7015,N,12215.4752,W,0.37,219.37,180412,,,A*74
$GPVTG,219.37,T,,M,0.37,N,0.7,K,A*00
$GPGGA,201139.000,3747.7017,N,12215.4752,W,1,05,2.2,2.9,M,-25.1,M,,0000*64
$GPGSA,A,3,23,16,07,01,13,,,,,,,,4.2,2.2,3.6*33
$GPRMC,201139.000,A,3747.7017,N,12215.4752,W,0.15,18.44,180412,,,A*40
$GPVTG,18.44,T,,M,0.15,N,0.3,K,A*33
$GPGGA,201140.000,3747.7015,N,12215.4752,W,1,05,2.2,4.1,M,-25.1,M,,0000*66
$GPGSA,A,3,23,16,07,01,13,,,,,,,,4.2,2.2,3.6*33
$GPRMC,201140.000,A,3747.7015,N,12215.4752,W,0.25,194.36,180412,,,A*7F
$GPVTG,194.36,T,,M,0.25,N,0.5,K,A*06
$GPGGA,201141.000,3747.7012,N,12215.4751,W,1,05,2.2,4.0,M,-25.1,M,,0000*62
$GPGSA,A,3,23,16,07,01,13,,,,,,,,4.2,2.2,3.6*33
$GPRMC,201141.000,A,3747.7012,N,12215.4751,W,0.29,185.86,180412,,,A*7D
$GPVTG,185.86,T,,M,0.29,N,0.5,K,A*01
$GPGGA,201142.000,3747.7008,N,12215.4750,W,1,05,2.2,4.2,M,-25.1,M,,0000*69
$GPGSA,A,3,23,16,07,01,13,,,,,,,,4.2,2.2,3.6*33
$GPRMC,201142.000,A,3747.7008,N,12215.4750,W,0.34,190.61,180412,,,A*75
$GPVTG,190.61,T,,M,0.34,N,0.6,K,A*03
$GPGGA,201143.000,3747.7004,N,12215.4750,W,1,05,2.2,5.2,M,-25.1,M,,0000*65
$GPGSA,A,3,23,16,07,01,13,,,,,,,,4.2,2.2,3.6*33
$GPGSV,3,1,12,20,78,279,28,23,49,301,26,30,42,099,31,16,32,132,41*7D
$GPGSV,3,2,12,31,28,044,17,01,24,212,42,13,21,280,28,24,08,184,*77
$GPGSV,3,3,12,11,07,201,26,04,07,320,23,07,05,224,36,48,44,197,38*72
$GPRMC,201143.000,A,3747.7004,N,12215.4750,W,0.28,182.53,180412,,,A*77
$GPVTG,182.53,T,,M,0.28,N,0.5,K,A*0F
$GPGGA,201144.000,3747.7002,N,12215.4751,W,1,05,2.2,6.2,M,-25.1,M,,0000*66
$GPGSA,A,3,23,16,07,01,13,,,,,,,,4.2,2.2,3.6*33
$GPRMC,201144.000,A,3747.7002,N,12215.4751,W,0.43,240.91,180412,,,A*79
$GPVTG,240.91,T,,M,0.43,N,0.8,K,A*0C
$GPGGA,201145.000,3747.6994,N,12215.4756,W,1,05,2.2,8.6,M,-25.1,M,,0000*6D
$GPGSA,A,3,23,16,07,01,13,,,,,,,,4.2,2.2,3.6*33
$GPRMC,201145.000,A,3747.6994,N,12215.4756,W,0.47,204.60,180412,,,A*72
$GPVTG,204.60,T,,M,0.47,N,0.9,K,A*07
$GPGGA,201146.000,3747.6988,N,12215.4759,W,1,05,2.2,11.2,M,-25.1,M,,0000*50
$GPGSA,A,3,23,16,07,01,13,,,,,,,,4.2,2.2,3.6*33
$GPRMC,201146.000,A,3747.6988,N,12215.4759,W,0.53,206.84,180412,,,A*7E
$GPVTG,206.84,T,,M,0.53,N,1.0,K,A*02
$GPGGA,201147.000,3747.6985,N,12215.4763,W,2,05,2.2,14.8,M,-25.1,M,,0000*59
$GPGSA,A,3,23,16,07,01,13,,,,,,,,4.2,2.2,3.6*33
$GPRMC,201147.000,A,3747.6985,N,12215.4763,W,0.57,191.78,180412,,,D*74
$GPVTG,191.78,T,,M,0.57,N,1.0,K,D*0D
$GPGGA,201148.000,3747.6983,N,12215.4765,W,2,04,2.2,15.6,M,-25.1,M,,0000*58
$GPGSA,A,3,16,07,01,13,,,,,,,,,5.3,2.2,4.8*3B
$GPGSV,3,1,12,20,78,278,23,23,49,301,17,30,42,099,30,16,32,132,41*74
$GPGSV,3,2,12,31,27,044,18,01,24,212,38,13,22,281,22,24,08,183,*75
$GPGSV,3,3,12,04,07,320,18,11,07,201,20,07,05,224,37,48,44,197,39*7C
$GPRMC,201148.000,A,3747.6983,N,12215.4765,W,0.42,211.20,180412,,,D*79
$GPGGA,201149.000,3747.6982,N,12215.4766,W,2,04,2.2,16.9,M,-25.1,M,,0000*57
$GPGSA,A,3,16,07,01,13,,,,,,,,,5.3,2.2,4.8*3B
$GPRMC,201149.000,A,3747.6982,N,12215.4766,W,0.21,255.33,180412,,,D*7D
$GPVTG,255.33,T,,M,0.21,N,0.4,K,D*0D
$GPGGA,201150.000,3747.6983,N,12215.4768,W,2,05,2.2,17.8,M,-25.1,M,,0000*51
$GPGSA,A,3,23,16,07,01,13,,,,,,,,4.2,2.2,3.6*33
$GPRMC,201150.000,A,3747.6983,N,12215.4768,W,0.28,233.19,180412,,,D*7B
$GPVTG,233.19,T,,M,0.28,N,0.5,K,D*0D
$GPGGA,201151.000,3747.6981,N,12215.4771,W,2,05,2.2,20.2,M,-25.1,M,,0000*54
$GPGSA,A,3,23,16,07,01,13,,,,,,,,4.2,2.2,3.6*33
$GPRMC,201151.000,A,3747.6981,N,12215.4771,W,0.88,224.08,180412,,,D*7C
$GPVTG,224.08,T,,M,0.88,N,1.6,K,D*03
$GPGGA,201152.000,3747.6984,N,12215.4770,W,2,05,2.2,19.0,M,-25.1,M,2.8,0000*7F
$GPGSA,A,3,23,16,07,01,13,,,,,,,,4.2,2.2,3.6*33
$GPRMC,201152.000,A,3747.6984,N,12215.4770,W,0.35,267.04,180412,,,D*76
$GPVTG,267.04,T,,M,0.35,N,0.6,K,D*0F
$GPGGA,201153.000,3747.6986,N,12215.4769,W,2,05,2.2,18.9,M,-25.1,M,3.8,0000*7D
$GPGSA,A,3,23,16,07,01,13,,,,,,,,4.2,2.2,3.6*33
$GPGSV,3,1,12,20,78,278,26,23,49,301,30,30,42,099,25,16,32,132,41*70
$GPGSV,3,2,12,31,27,044,12,01,24,212,37,13,22,281,31,24,08,183,25*75
$GPGSV,3,3,12,04,07,320,19,11,07,201,26,07,05,224,34,48,44,197,40*76
$GPRMC,201153.000,A,3747.6986,N,12215.4769,W,0.24,130.35,180412,,,D*7E
$GPVTG,130.35,T,,M,0.24,N,0.4,K,D*0E
$GPGGA,201154.000,3747.6987,N,12215.4770,W,2,05,2.2,21.3,M,-25.1,M,,0000*56
$GPGSA,A,3,23,16,07,01,13,,,,,,,,4.2,2.2,3.6*33
$GPRMC,201154.000,A,3747.6987,N,12215.4770,W,0.42,352.89,180412,,,D*71
$GPVTG,352.89,T,,M,0.42,N,0.8,K,D*03
$GPGGA,201155.000,3747.6986,N,12215.4771,W,2,05,2.2,24.2,M,-25.1,M,,0000*53
$GPGSA,A,3,23,16,07,01,13,,,,,,,,4.2,2.2,3.6*33
$GPRMC,201155.000,A,3747.6986,N,12215.4771,W,0.10,323.93,180412,,,D*7A
$GPVTG,323.93,T,,M,0.10,N,0.2,K,D*03
$GPGGA,201156.000,3747.6987,N,12215.4773,W,2,05,2.2,25.9,M,-25.1,M,2.8,0000*7D
$GPGSA,A,3,23,16,07,01,13,,,,,,,,4.2,2.2,3.6*33
$GPRMC,201156.000,A,3747.6987,N,12215.4773,W,0.28,266.97,180412,,,D*75
$GPVTG,266.97,T,,M,0.28,N,0.5,K,D*0B
$GPGGA,201157.000,3747.6990,N,12215.4772,W,2,05,2.2,25.1,M,-25.1,M,,0000*57
$GPGSA,A,3,23,16,07,01,13,,,,,,,,4.2,2.2,3.6*33
$GPRMC,201157.000,A,3747.6990,N,12215.4772,W,0.53,211.01,180412,,,D*70
$GPVTG,211.01,T,,M,0.53,N,1.0,K,D*0C
$GPGGA,201158.000,3747.6990,N,12215.4773,W,2,05,2.2,25.4,M,-25.1,M,,0000*5C
$GPGSA,A,3,23,16,07,01,13,,,,,,,,4.2,2.2,3.6*33
$GPGSV,3,1,12,20,78,278,31,23,49,301,25,30,42,099,26,16,32,132,41*71
$GPGSV,3,2,12,31,27,044,21,01,24,212,36,13,22,281,26,24,08,183,26*71
$GPGSV,3,3,12,04,07,320,18,11,07,201,25,07,05,224,27,48,44,197,38*79
$GPRMC,201158.000,A,3747.6990,N,12215.4773,W,0.10,280.55,180412,,,D*70
$GPVTG,280.55,T,,M,0.10,N,0.2,K,D*01
$GPGGA,201159.000,3747.6991,N,12215.4774,W,2,05,2.2,27.3,M,-25.1,M,2.8,0000*7A
$GPGSA,A,3,23,16,07,01,13,,,,,,,,4.2,2.2,3.6*33
$GPRMC,201159.000,A,3747.6991,N,12215.4774,W,0.22,261.67,180412,,,D*78
$GPVTG,261.67,T,,M,0.22,N,0.4,K,D*08
$GPGGA,201200.000,3747.6992,N,12215.4776,W,2,05,2.2,29.1,M,-25.1,M,3.8,0000*79
$GPGSA,A,3,23,16,07,01,13,,,,,,,,4.2,2.2,3.6*33
$GPRMC,201200.000,A,3747.6992,N,12215.4776,W,0.35,229.09,180412,,,D*74
$GPVTG,229.09,T,,M,0.35,N,0.7,K,D*09
$GPGGA,201201.000,3747.6990,N,12215.4777,W,2,04,5.0,31.2,M,-25.1,M,,0000*50
$GPGSA,A,3,23,16,07,13,,,,,,,,,9.0,5.0,7.4*3E
$GPRMC,201201.000,A,3747.6990,N,12215.4777,W,0.39,230.24,180412,,,D*7D
$GPVTG,230.24,T,,M,0.39,N,0.7,K,D*02
$GPGGA,201202.000,3747.6990,N,12215.4777,W,2,05,2.2,31.2,M,-25.1,M,,0000*57
$GPGSA,A,3,23,16,07,01,13,,,,,,,,4.2,2.2,3.6*33
$GPRMC,201202.000,A,3747.6990,N,12215.4777,W,0.84,206.87,180412,,,D*74
$GPVTG,206.87,T,,M,0.84,N,1.6,K,D*08
$GPGGA,201203.000,3747.6992,N,12215.4776,W,2,05,2.2,31.3,M,-25.1,M,,0000*54
$GPGSA,A,3,23,16,07,01,13,,,,,,,,4.2,2.2,3.6*33
$GPGSV,3,1,12,20,78,278,32,23,49,301,25,30,42,099,26,16,32,132,41*72
$GPGSV,3,2,12,31,27,044,17,01,24,212,20,13,22,281,28,24,08,183,*79
$GPGSV,3,3,12,04,07,320,19,11,07,201,25,07,05,224,30,48,44,197,28*7F
$GPVTG,200.13,T,,M,0.86,N,1.6,K,D*01
$GPGGA,201204.000,3747.6998,N,12215.4772,W,2,05,2.2,30.2,M,-25.1,M,2.8,0000*79
$GPGSA,A,3,23,16,07,01,13,,,,,,,,4.2,2.2,3.6*33
$GPRMC,201204.000,A,3747.6998,N,12215.4772,W,0.31,206.62,180412,,,D*7A
$GPVTG,206.62,T,,M,0.31,N,0.6,K,D*0C
$GPGGA,201205.000,3747.7004,N,12215.4770,W,2,05,2.2,30.5,M,-25.1,M,3.8,0000*71
$GPGSA,A,3,23,16,07,01,13,,,,,,,,4.2,2.2,3.6*33
$GPRMC,201205.000,A,3747.7004,N,12215.4770,W,0.23,272.81,180412,,,D*79
$GPVTG,272.81,T,,M,0.23,N,0.4,K,D*03
$GPGGA,201206.000,3747.7012,N,12215.4770,W,2,05,2.2,31.4,M,-25.1,M,4.8,0000*72
$GPGSA,A,3,23,16,07,01,13,,,,,,,,4.2,2.2,3.6*33
$GPRMC,201206.000,A,3747.7012,N,12215.4770,W,0.56,339.02,180412,,,D*7A
$GPVTG,339.02,T,,M,0.56,N,1.0,K,D*01
$GPGGA,201207.000,3747.7019,N,12215.4769,W,2,05,2.2,32.3,M,-25.1,M,5.8,0000*75
$GPGSA,A,3,23,16,07,01,13,,,,,,,,4.2,2.2,3.6*33
$GPRMC,201207.000,A,3747.7019,N,12215.4769,W,0.18,303.13,180412,,,D*7B
$GPVTG,303.13,T,,M,0.18,N,0.3,K,D*00
$GPGGA,201208.000,3747.7026,N,12215.4767,W,2,05,2.2,32.3,M,-25.1,M,,0000*5B
$GPGSA,A,3,23,16,07,01,13,,,,,,,,4.2,2.2,3.7*32
$GPGSV,3,1,12,20,78,278,31,23,49,301,25,30,42,099,22,16,32,132,41*75
$GPGSV,3,2,12,31,27,044,16,01,24,212,28,13,22,281,27,24,08,183,*7F
$GPGSV,3,3,12,04,07,320,19,11,07,201,23,07,05,224,29,48,44,197,28*71
$GPRMC,201208.000,A,3747.7026,N,12215.4767,W,0.18,215.75,180412,,,D*70
$GPVTG,215.75,T,,M,0.18,N,0.3,K,D*06
$GPGGA,201209.000,3747.7034,N,12215.4765,W,2,05,2.2,32.3,M,-25.1,M,2.8,0000*7F
$GPGSA,A,3,23,16,07,01,13,,,,,,,,4.2,2.2,3.7*32
$GPRMC,201209.000,A,3747.7034,N,12215.4765,W,0.36,340.42,180412,,,D*79
$GPVTG,340.42,T,,M,0.36,N,0.7,K,D*0B
$GPGGA,201210.000,3747.7043,N,12215.4761,W,2,05,2.2,31.2,M,-25.1,M,3.8,0000*70
$GPGSA,A,3,23,16,07,01,13,,,,,,,,4.2,2.2,3.7*32
$GPRMC,201210.000,A,3747.7043,N,12215.4761,W,0.11,331.32,180412,,,D*71
$GPVTG,331.32,T,,M,0.11,N,0.2,K,D*0A
$GPGGA,201211.000,3747.7050,N,12215.4756,W,2,05,2.2,29.5,M,-25.1,M,4.8,0000*7E
$GPGSA,A,3,23,16,07,01,13,,,,,,,,4.2,2.2,3.7*32
$GPRMC,201211.000,A,3747.7050,N,12215.4756,W,0.11,169.11,180412,,,D*78
$GPVTG,169.11,T,,M,0.11,N,0.2,K,D*04
$GPGGA,201212.000,3747.7062,N,12215.4752,W,2,05,2.2,26.4,M,-25.1,M,5.8,0000*77
$GPGSA,A,3,23,16,07,01,13,,,,,,,,4.2,2.2,3.7*32
$GPRMC,201212.000,A,3747.7062,N,12215.4752,W,0.21,1.92,180412,,,D*79
$GPVTG,1.92,T,,M,0.21,N,0.4,K,D*05
$GPGGA,201213.000,3747.7071,N,12215.4747,W,2,05,2.2,23.9,M,-25.1,M,6.8,0000*7B
$GPGSA,A,3,23,16,07,01,13,,,,,,,,4.3,2.2,3.7*33
$GPGSV,3,1,12,20,78,278,31,23,49,301,25,30,42,099,23,16,32,132,41*74
$GPGSV,3,2,12,31,27,044,15,01,24,212,28,13,22,281,21,24,08,183,*7A
$GPGSV,3,3,12,04,07,320,20,11,07,201,22,07,05,224,26,48,44,197,26*7B
$GPRMC,201213.000,A,3747.7071,N,12215.4747,W,0.29,22.02,180412,,,D*4E
$GPVTG,22.02,T,,M,0.29,N,0.5,K,D*34
$GPGGA,201214.000,3747.7078,N,12215.4743,W,2,05,2.2,21.3,M,-25.1,M,7.8,0000*78
$GPGSA,A,3,23,16,07,01,13,,,,,,,,4.3,2.2,3.7*33
$GPRMC,201214.000,A,3747.7078,N,12215.4743,W,0.13,68.10,180412,,,D*40
$GPVTG,68.10,T,,M,0.13,N,0.2,K,D*37
$GPGGA,201215.000,3747.7079,N,12215.4741,W,2,05,2.2,21.0,M,-25.1,M,8.8,0000*76
$GPGSA,A,3,23,16,07,01,13,,,,,,,,4.3,2.2,3.7*33
$GPRMC,201215.000,A,3747.7079,N,12215.4741,W,0.12,321.11,180412,,,D*7C
$GPVTG,321.11,T,,M,0.12,N,0.2,K,D*09
$GPGGA,201216.000,3747.7082,N,12215.4736,W,2,05,2.2,17.3,M,-25.1,M,9.8,0000*76
$GPGSA,A,3,23,16,07,01,13,,,,,,,,4.3,2.2,3.7*33
$GPRMC,201216.000,A,3747.7082,N,12215.4736,W,0.21,113.10,180412,,,D*79
$GPVTG,113.10,T,,M,0.21,N,0.4,K,D*0D
$GPGGA,201217.000,3747.7083,N,12215.4732,W,2,05,2.2,14.7,M,-25.1,M,10.8,0000*4D
$GPGSA,A,3,23,16,07,01,13,,,,,,,,4.3,2.2,3.7*33
$GPRMC,201217.000,A,3747.7083,N,12215.4732,W,0.32,38.27,180412,,,D*43
$GPVTG,38.27,T,,M,0.32,N,0.6,K,D*31
$GPGGA,201218.000,3747.7084,N,12215.4731,W,2,04,2.3,14.3,M,-25.1,M,11.8,0000*43
$GPGSA,A,3,16,07,01,13,,,,,,,,,5.4,2.3,4.9*3C
$GPGSV,3,1,12,20,78,277,23,23,49,301,14,30,43,099,23,16,32,132,36*7B
$GPGSV,3,2,12,31,27,044,15,01,23,211,35,13,22,281,22,24,08,183,*71
$GPGSV,3,3,12,04,07,320,,11,07,201,23,07,05,225,30,48,44,197,36*7F
$GPVTG,13.02,T,,M,0.59,N,1.1,K,D*34
$GPGGA,201219.000,3747.7083,N,12215.4730,W,2,04,2.3,14.7,M,-25.1,M,,0000*56
$GPGSA,A,3,16,07,01,13,,,,,,,,,5.4,2.3,4.9*3C
$GPRMC,201219.000,A,3747.7083,N,12215.4730,W,0.77,7.17,180412,,,D*71
$GPVTG,7.17,T,,M,0.77,N,1.4,K,D*0C
$GPGGA,201220.000,3747.7083,N,12215.4729,W,2,05,2.2,13.9,M,-25.1,M,,0000*5D
$GPGSA,A,3,23,16,07,01,13,,,,,,,,4.3,2.2,3.7*33
$GPRMC,201220.000,A,3747.7083,N,12215.4729,W,0.60,139.12,180412,,,D*7C
$GPVTG,139.12,T,,M,0.60,N,1.1,K,D*06
$GPGGA,201221.000,3747.7080,N,12215.4730,W,2,05,2.2,15.5,M,-25.1,M,,0000*5D
$GPGSA,A,3,23,16,07,01,13,,,,,,,,4.3,2.2,3.7*33
$GPRMC,201221.000,A,3747.7080,N,12215.4730,W,0.19,108.03,180412,,,D*7A
$GPVTG,108.03,T,,M,0.19,N,0.4,K,D*0E
$GPGGA,201222.000,3747.7079,N,12215.4726,W,2,05,2.2,13.7,M,-25.1,M,2.8,0000*7F
$GPGSA,A,3,23,16,07,01,13,,,,,,,,4.3,2.2,3.7*33
$GPRMC,201222.000,A,3747.7079,N,12215.4726,W,0.47,89.44,180412,,,D*48
$GPVTG,89.44,T,,M,0.47,N,0.9,K,D*33
$GPGGA,201223.000,3747.7077,N,12215.4724,W,2,05,2.2,13.8,M,-25.1,M,3.8,0000*7C
$GPGSA,A,3,23,16,07,01,13,,,,,,,,4.3,2.2,3.7*33
$GPGSV,3,1,12,20,78,277,24,23,49,301,26,30,43,099,23,16,32,132,36*7D
$GPGSV,3,2,12,31,27,044,14,01,23,211,35,13,22,281,22,24,08,183,*70
$GPGSV,3,3,12,04,07,320,,11,07,201,23,07,05,225,31,48,44,197,34*7C
$GPRMC,201223.000,A,3747.7077,N,12215.4724,W,1.25,126.96,180412,,,D*7B
$GPVTG,126.96,T,,M,1.25,N,2.3,K,D*05
$GPGGA,201224.000,3747.7074,N,12215.4720,W,2,05,2.2,13.1,M,-25.1,M,4.8,0000*72
$GPGSA,A,3,23,16,07,01,13,,,,,,,,4.3,2.2,3.7*33
$GPRMC,201224.000,A,3747.7074,N,12215.4720,W,1.37,122.80,180412,,,D*7B
$GPVTG,122.80,T,,M,1.37,N,2.5,K,D*03
$GPGGA,201225.000,3747.7072,N,12215.4714,W,2,05,2.2,11.1,M,-25.1,M,,0000*52
$GPGSA,A,3,23,16,07,01,13,,,,,,,,4.3,2.2,3.7*33
$GPRMC,201225.000,A,3747.7072,N,12215.4714,W,1.99,116.69,180412,,,D*7F
$GPVTG,116.69,T,,M,1.99,N,3.7,K,D*04
$GPGGA,201226.000,3747.7068,N,12215.4707,W,2,05,2.2,10.5,M,-25.1,M,,0000*5D
$GPGSA,A,3,23,16,07,01,13,,,,,,,,4.3,2.2,3.7*33
$GPRMC,201226.000,A,3747.7068,N,12215.4707,W,1.94,105.38,180412,,,D*7E
$GPVTG,105.38,T,,M,1.94,N,3.6,K,D*0E
$GPGGA,201227.000,3747.7063,N,12215.4701,W,2,05,2.2,9.4,M,-25.1,M,2.8,0000*4C
$GPGSA,A,3,23,16,07,01,13,,,,,,,,4.3,2.2,3.7*33
$GPRMC,201227.000,A,3747.7063,N,12215.4701,W,1.77,126.42,180412,,,D*73
$GPVTG,126.42,T,,M,1.77,N,3.3,K,D*0A
$GPGGA,201228.000,3747.7053,N,12215.4699,W,2,05,2.2,9.5,M,-25.1,M,3.8,0000*40
$GPGSA,A,3,23,16,07,01,13,,,,,,,,4.3,2.2,3.7*33
$GPGSV,3,1,12,20,78,277,24,23,49,301,27,30,43,099,19,16,32,132,37*74
$GPGSV,3,2,12,31,27,044,14,01,23,211,32,13,22,281,25,24,08,183,*70
$GPGSV,3,3,12,04,07,320,,11,07,201,29,07,05,225,19,48,44,197,34*7C
$GPRMC,201228.000,A,3747.7053,N,12215.4699,W,1.87,135.26,180412,,,D*70
$GPVTG,135.26,T,,M,1.87,N,3.5,K,D*03
$GPGGA,201229.000,3747.7049,N,12215.4695,W,2,05,2.2,9.6,M,-25.1,M,4.8,0000*42
$GPGSA,A,3,23,16,07,01,13,,,,,,,,4.3,2.2,3.7*33
$GPRMC,201229.000,A,3747.7049,N,12215.4695,W,1.97,105.35,180412,,,D*76
$GPVTG,105.35,T,,M,1.97,N,3.7,K,D*01
$GPGGA,201230.000,3747.7044,N,12215.4690,W,2,05,2.2,9.4,M,-25.1,M,5.8,0000*41
$GPGSA,A,3,23,16,07,01,13,,,,,,,,4.3,2.2,3.7*33
$GPRMC,201230.000,A,3747.7044,N,12215.4690,W,1.97,119.62,180412,,,D*79
$GPVTG,119.62,T,,M,1.97,N,3.7,K,D*0E
$GPGGA,201231.000,3747.7033,N,12215.4689,W,2,05,2.2,9.9,M,-25.1,M,6.8,0000*46
$GPGSA,A,3,23,16,07,01,13,,,,,,,,4.3,2.2,3.7*33
$GPRMC,201231.000,A,3747.7033,N,12215.4689,W,1.81,135.59,180412,,,D*71
$GPVTG,135.59,T,,M,1.81,N,3.3,K,D*0B
$GPGGA,201232.000,3747.7024,N,12215.4685,W,2,05,2.2,10.5,M,-25.1,M,7.8,0000*7A
$GPGSA,A,3,23,16,07,01,13,,,,,,,,4.3,2.2,3.7*33
$GPRMC,201232.000,A,3747.7024,N,12215.4685,W,1.32,126.78,180412,,,D*71
$GPVTG,126.78,T,,M,1.32,N,2.4,K,D*04
$GPGGA,201233.000,3747.7013,N,12215.4683,W,2,05,2.2,11.8,M,-25.1,M,8.8,0000*7A
$GPGSA,A,3,23,16,07,01,13,,,,,,,,4.3,2.2,3.7*33
$GPGSV,3,1,12,20,78,277,21,23,49,301,26,30,43,099,20,16,32,132,38*75
$GPGSV,3,2,12,31,27,044,14,01,23,211,26,13,22,281,22,24,08,183,*72
$GPGSV,3,3,12,04,07,320,,11,07,201,29,07,05,225,19,48,44,197,30*78
$GPVTG,149.66,T,,M,2.06,N,3.8,K,D*0B
$GPGGA,201234.000,3747.7002,N,12215.4680,W,2,05,2.2,13.6,M,-25.1,M,9.8,0000*73
$GPGSA,A,3,23,16,07,01,13,,,,,,,,4.3,2.2,3.7*33
$GPRMC,201234.000,A,3747.7002,N,12215.4680,W,1.91,142.65,180412,,,D*71
$GPVTG,142.65,T,,M,1.91,N,3.5,K,D*03
$GPGGA,201235.000,3747.6992,N,12215.4678,W,2,05,2.2,16.5,M,-25.1,M,10.8,0000*4A
$GPGSA,A,3,23,16,07,01,13,,,,,,,,4.3,2.2,3.7*33
$GPRMC,201235.000,A,3747.6992,N,12215.4678,W,1.87,122.99,180412,,,D*74
$GPVTG,122.99,T,,M,1.87,N,3.5,K,D*01
$GPGGA,201236.000,3747.6982,N,12215.4674,W,2,05,2.2,17.4,M,-25.1,M,11.8,0000*45
$GPGSA,A,3,23,16,07,01,13,,,,,,,,4.3,2.2,3.7*33
$GPRMC,201236.000,A,3747.6982,N,12215.4674,W,2.00,140.99,180412,,,D*72
$GPVTG,140.99,T,,M,2.00,N,3.7,K,D*0B
$GPGGA,201237.000,3747.6971,N,12215.4672,W,2,05,2.2,18.2,M,-25.1,M,12.8,0000*44
$GPGSA,A,3,23,16,07,01,13,,,,,,,,4.3,2.2,3.7*33
$GPRMC,201237.000,A,3747.6971,N,12215.4672,W,2.12,153.54,180412,,,D*79
$GPVTG,153.54,T,,M,2.12,N,3.9,K,D*05
$GPGGA,201238.000,3747.6959,N,12215.4670,W,2,05,2.2,20.0,M,-25.1,M,13.8,0000*4B
$GPGSA,A,3,23,16,07,01,13,,,,,,,,4.3,2.2,3.7*33
$GPGSV,3,1,12,20,78,277,21,23,49,301,22,30,43,099,21,16,32,132,38*70
$GPGSV,3,2,12,31,27,044,14,01,23,211,28,13,22,281,22,24,08,183,*7C
$GPGSV,3,3,12,04,07,320,,11,07,201,32,07,05,225,23,48,44,197,27*7D
$GPRMC,201238.000,A,3747.6959,N,12215.4670,W,1.36,135.99,180412,,,D*7A
$GPVTG,135.99,T,,M,1.36,N,2.5,K,D*0C
$GPGGA,201239.000,3747.6954,N,12215.4667,W,2,05,2.2,19.5,M,-25.1,M,14.8,0000*49
$GPGSA,A,3,23,16,07,01,13,,,,,,,,4.3,2.2,3.7*33
$GPRMC,201239.000,A,3747.6954,N,12215.4667,W,0.99,115.20,180412,,,D*74
$GPVTG,115.20,T,,M,0.99,N,1.8,K,D*06
$GPGGA,201240.000,3747.6949,N,12215.4663,W,2,05,2.2,18.2,M,-25.1,M,15.8,0000*48
$GPGSA,A,3,23,16,07,01,13,,,,,,,,4.3,2.2,3.7*33
$GPRMC,201240.000,A,3747.6949,N,12215.4663,W,1.22,116.81,180412,,,D*7B
$GPVTG,116.81,T,,M,1.22,N,2.3,K,D*07
$GPGGA,201241.000,3747.6946,N,12215.4661,W,2,05,2.2,17.2,M,-25.1,M,16.8,0000*48
$GPGSA,A,3,23,16,07,01,13,,,,,,,,4.3,2.2,3.7*33
$GPRMC,201241.000,A,3747.6946,N,12215.4661,W,1.14,116.94,180412,,,D*76
$GPVTG,116.94,T,,M,1.14,N,2.1,K,D*04
$GPGGA,201242.000,3747.6938,N,12215.4660,W,2,05,2.2,19.0,M,-25.1,M,17.8,0000*4E
$GPGSA,A,3,23,16,07,01,13,,,,,,,,4.3,2.2,3.7*33
$GPRMC,201242.000,A,3747.6938,N,12215.4660,W,1.34,92.39,180412,,,D*45
$GPVTG,92.39,T,,M,1.34,N,2.5,K,D*38
$GPGGA,201243.000,3747.6927,N,12215.4657,W,1,05,2.2,21.2,M,-25.1,M,,0000*5F
$GPGSA,A,3,23,16,07,01,13,,,,,,,,4.3,2.2,3.7*33
$GPGSV,3,1,11,20,78,277,20,23,49,301,22,30,43,099,22,16,32,132,38*71
$GPGSV,3,2,11,31,27,044,14,01,23,211,28,13,22,281,23,24,08,183,*7E
$GPGSV,3,3,11,04,07,320,,11,07,201,26,07,05,225,23*4D
$GPRMC,201243.000,A,3747.6927,N,12215.4657,W,1.35,126.01,180412,,,A*7F
$GPVTG,126.01,T,,M,1.35,N,2.5,K,A*09
$GPGGA,201244.000,3747.6921,N,12215.4654,W,1,05,2.2,21.4,M,-25.1,M,,0000*5B
$GPGSA,A,3,23,16,07,01,13,,,,,,,,4.3,2.2,3.7*33
$GPRMC,201244.000,A,3747.6921,N,12215.4654,W,1.29,118.69,180412,,,A*73
$GPVTG,118.69,T,,M,1.29,N,2.4,K,A*06
$GPGGA,201245.000,3747.6913,N,12215.4651,W,1,05,2.2,21.6,M,-25.1,M,,0000*5C
$GPGSA,A,3,23,16,07,01,13,,,,,,,,4.3,2.2,3.7*33
$GPRMC,201245.000,A,3747.6913,N,12215.4651,W,1.33,127.71,180412,,,A*78
$GPVTG,127.71,T,,M,1.33,N,2.5,K,A*09
$GPGGA,201246.000,3747.6910,N,12215.4641,W,1,05,2.2,20.7,M,-25.1,M,,0000*5D
$GPGSA,A,3,23,16,07,01,13,,,,,,,,4.3,2.2,3.7*33
$GPRMC,201246.000,A,3747.6910,N,12215.4641,W,1.52,99.97,180412,,,A*42
$GPVTG,99.97,T,,M,1.52,N,2.8,K,A*3F
$GPGGA,201247.000,3747.6901,N,12215.4636,W,1,05,2.2,22.3,M,-25.1,M,,0000*5A
$GPGSA,A,3,23,16,07,01,13,,,,,,,,4.3,2.2,3.7*33
$GPRMC,201247.000,A,3747.6901,N,12215.4636,W,1.54,119.69,180412,,,A*7D
$GPVTG,119.69,T,,M,1.54,N,2.8,K,A*01
$GPGGA,201248.000,3747.6891,N,12215.4629,W,1,05,2.2,20.5,M,-25.1,M,,0000*57
$GPGSA,A,3,23,16,07,01,13,,,,,,,,4.3,2.2,3.7*33
$GPGSV,3,1,12,20,78,276,20,23,49,302,23,30,43,098,22,16,32,132,39*71
$GPGSV,3,2,12,31,27,044,,01,23,211,33,13,22,281,23,24,08,183,*72
$GPGSV,3,3,12,04,07,320,,11,07,200,31,07,05,225,23,51,43,156,34*7F
$GPVTG,125.63,T,,M,1.85,N,3.4,K,A*05
$GPGGA,201249.000,3747.6885,N,12215.4623,W,1,05,2.2,20.5,M,-25.1,M,,0000*59
$GPGSA,A,3,23,16,07,01,13,,,,,,,,4.3,2.2,3.7*33
$GPRMC,201249.000,A,3747.6885,N,12215.4623,W,1.94,130.83,180412,,,A*79
$GPVTG,130.83,T,,M,1.94,N,3.6,K,A*0D
$GPGGA,201250.000,3747.6879,N,12215.4618,W,1,05,2.2,19.9,M,-25.1,M,,0000*5C
$GPGSA,A,3,23,16,07,01,13,,,,,,,,4.3,2.2,3.7*33
$GPRMC,201250.000,A,3747.6879,N,12215.4618,W,1.40,119.94,180412,,,A*7E
$GPVTG,119.94,T,,M,1.40,N,2.6,K,A*08
$GPGGA,201251.000,3747.6868,N,12215.4610,W,1,05,2.2,18.3,M,-25.1,M,,0000*5E
$GPGSA,A,3,23,16,07,01,13,,,,,,,,4.3,2.2,3.7*33
$GPRMC,201251.000,A,3747.6868,N,12215.4610,W,1.69,138.78,180412,,,A*7D
$GPVTG,138.78,T,,M,1.69,N,3.1,K,A*04
$GPGGA,201252.000,3747.6857,N,12215.4603,W,1,05,2.2,16.6,M,-25.1,M,,0000*58
$GPGSA,A,3,23,16,07,01,13,,,,,,,,4.3,2.2,3.7*33
$GPRMC,201252.000,A,3747.6857,N,12215.4603,W,1.66,119.98,180412,,,A*72
$GPVTG,119.98,T,,M,1.66,N,3.1,K,A*06
$GPGGA,201253.000,3747.6852,N,12215.4595,W,1,05,2.2,13.7,M,-25.1,M,,0000*54
$GPGSA,A,3,23,16,07,01,13,,,,,,,,4.3,2.2,3.7*33
$GPGSV,3,1,12,20,78,276,20,23,49,302,23,30,43,098,22,16,32,132,38*70
$GPGSV,3,2,12,31,27,044,,01,23,211,30,13,22,281,24,24,08,183,*76
$GPGSV,3,3,12,04,07,320,,11,07,200,31,07,05,225,24,51,43,156,33*7F
$GPRMC,201253.000,A,3747.6852,N,12215.4595,W,1.65,124.35,180412,,,A*70
$GPVTG,124.35,T,,M,1.65,N,3.0,K,A*0D
$GPGGA,201254.000,3747.6843,N,12215.4588,W,1,05,2.2,11.8,M,-25.1,M,,0000*52
$GPGSA,A,3,23,16,07,01,13,,,,,,,,4.3,2.2,3.7*33
$GPRMC,201254.000,A,3747.6843,N,12215.4588,W,1.80,136.66,180412,,,A*75
$GPVTG,136.66,T,,M,1.80,N,3.3,K,A*00
$GPGGA,201255.000,3747.6839,N,12215.4581,W,1,05,2.2,10.8,M,-25.1,M,,0000*56
$GPGSA,A,3,23,16,07,01,13,,,,,,,,4.3,2.2,3.7*33
$GPRMC,201255.000,A,3747.6839,N,12215.4581,W,1.25,109.44,180412,,,A*73
$GPVTG,109.44,T,,M,1.25,N,2.3,K,A*02
$GPGGA,201256.000,3747.6835,N,12215.4571,W,1,05,2.2,6.6,M,-25.1,M,,0000*6F
$GPGSA,A,3,23,16,07,01,13,,,,,,,,4.3,2.2,3.7*33
$GPRMC,201256.000,A,3747.6835,N,12215.4571,W,1.34,107.99,180412,,,A*7D
$GPVTG,107.99,T,,M,1.34,N,2.5,K,A*0A
$GPGGA,201257.000,3747.6833,N,12215.4565,W,2,05,2.2,5.5,M,-25.1,M,,0000*6E
$GPGSA,A,3,23,16,07,01,13,,,,,,,,4.3,2.2,3.7*33
$GPRMC,201257.000,A,3747.6833,N,12215.4565,W,0.96,106.33,180412,,,D*72
$GPVTG,106.33,T,,M,0.96,N,1.8,K,D*09
$GPGGA,201258.000,3747.6833,N,12215.4558,W,2,05,2.2,4.2,M,-25.1,M,2.8,0000*4D
$GPGSA,A,3,23,16,07,01,13,,,,,,,,4.3,2.2,3.7*33
$GPGSV,3,1,12,20,78,276,20,23,49,302,24,30,43,098,22,16,32,132,38*77
$GPGSV,3,2,12,31,27,044,,01,23,211,29,13,22,281,24,24,08,183,*7E
$GPGSV,3,3,12,04,07,320,,11,07,200,29,07,05,225,25,51,43,156,34*70
$GPRMC,201258.000,A,3747.6833,N,12215.4558,W,1.48,81.18,180412,,,D*46
$GPVTG,81.18,T,,M,1.48,N,2.7,K,D*30
$GPGGA,201259.000,3747.6833,N,12215.4550,W,2,05,2.2,3.5,M,-25.1,M,3.8,0000*45
$GPGSA,A,3,23,16,07,01,13,,,,,,,,4.3,2.2,3.7*33
$GPRMC,201259.000,A,3747.6833,N,12215.4550,W,1.56,89.57,180412,,,D*43
$GPVTG,89.57,T,,M,1.56,N,2.9,K,D*32
$GPGGA,201300.000,3747.6827,N,12215.4543,W,2,05,2.2,3.2,M,-25.1,M,4.8,0000*4F
$GPGSA,A,3,23,16,07,01,13,,,,,,,,4.3,2.2,3.7*33
$GPRMC,201300.000,A,3747.6827,N,12215.4543,W,1.93,74.47,180412,,,D*43
$GPVTG,74.47,T,,M,1.93,N,3.6,K,D*36
$GPGGA,201301.000,3747.6825,N,12215.4534,W,2,05,2.2,1.5,M,-25.1,M,5.8,0000*48
$GPGSA,A,3,23,16,07,01,13,,,,,,,,4.3,2.2,3.7*33
$GPRMC,201301.000,A,3747.6825,N,12215.4534,W,1.45,99.48,180412,,,D*47
$GPVTG,99.48,T,,M,1.45,N,2.7,K,D*31
$GPGGA,201302.000,3747.6818,N,12215.4529,W,2,05,2.2,1.1,M,-25.1,M,,0000*6E
$GPGSA,A,3,23,16,07,01,13,,,,,,,,4.3,2.2,3.7*33
$GPRMC,201302.000,A,3747.6818,N,12215.4529,W,1.99,139.86,180412,,,D*7E
$GPVTG,139.86,T,,M,1.99,N,3.7,K,D*08
$GPGGA,201303.000,3747.6807,N,12215.4527,W,2,05,2.2,0.6,M,-25.1,M,2.8,0000*4D
$GPGSA,A,3,23,16,07,01,13,,,,,,,,4.3,2.2,3.7*33
$GPGSV,3,1,12,20,78,276,20,23,49,302,24,30,43,098,25,16,32,132,38*70
$GPGSV,3,2,12,31,27,044,,01,23,211,28,13,22,281,26,24,08,183,*7D
$GPGSV,3,3,12,04,07,320,,11,07,200,29,07,05,225,25,51,43,156,34*70
$GPVTG,157.70,T,,M,2.09,N,3.9,K,D*0D
$GPGGA,201304.000,3747.6796,N,12215.4526,W,2,05,2.2,-0.9,M,-25.1,M,3.8,0000*6F
$GPGSA,A,3,23,16,07,01,13,,,,,,,,4.3,2.2,3.7*33
$GPRMC,201304.000,A,3747.6796,N,12215.4526,W,2.34,180.64,180412,,,D*74
$GPVTG,180.64,T,,M,2.34,N,4.3,K,D*01
$GPGGA,201305.000,3747.6786,N,12215.4526,W,2,05,2.2,-2.2,M,-25.1,M,,0000*43
$GPGSA,A,3,23,16,07,01,13,,,,,,,,4.3,2.2,3.7*33
$GPRMC,201305.000,A,3747.6786,N,12215.4526,W,2.49,177.64,180412,,,D*76
$GPVTG,177.64,T,,M,2.49,N,4.6,K,D*06
$GPGGA,201306.000,3747.6776,N,12215.4525,W,2,05,2.2,-2.8,M,-25.1,M,2.8,0000*62
$GPGSA,A,3,23,16,07,01,13,,,,,,,,4.3,2.2,3.7*33
$GPRMC,201306.000,A,3747.6776,N,12215.4525,W,2.67,169.62,180412,,,D*7C
$GPVTG,169.62,T,,M,2.67,N,5.0,K,D*04
$GPGGA,201307.000,3747.6767,N,12215.4523,W,2,05,2.2,-2.9,M,-25.1,M,3.8,0000*65
$GPGSA,A,3,23,16,07,01,13,,,,,,,,4.3,2.2,3.7*33
$GPRMC,201307.000,A,3747.6767,N,12215.4523,W,2.85,173.77,180412,,,D*78
$GPVTG,173.77,T,,M,2.85,N,5.3,K,D*04
$GPGGA,201308.000,3747.6755,N,12215.4522,W,2,05,2.2,-1.5,M,-25.1,M,,0000*40
$GPGSA,A,3,23,16,07,01,13,,,,,,,,4.3,2.2,3.7*33
$GPGSV,3,1,12,20,78,276,20,23,49,302,23,30,43,098,28,16,32,132,37*75
$GPGSV,3,2,12,31,27,044,,01,23,211,34,13,22,281,25,24,08,183,*73
$GPGSV,3,3,12,04,07,320,,11,07,200,32,07,05,225,25,51,43,156,34*7A
$GPRMC,201308.000,A,3747.6755,N,12215.4522,W,2.70,166.62,180412,,,D*7D
$GPVTG,166.62,T,,M,2.70,N,5.0,K,D*0D
$GPGGA,201309.000,3747.6748,N,12215.4520,W,2,05,2.2,-3.6,M,-25.1,M,,0000*4E
$GPGSA,A,3,23,16,07,01,13,,,,,,,,4.3,2.2,3.7*33
$GPRMC,201309.000,A,3747.6748,N,12215.4520,W,3.19,179.33,180412,,,D*76
$GPVTG,179.33,T,,M,3.19,N,5.9,K,D*00
$GPGGA,201310.000,3747.6739,N,12215.4520,W,2,05,2.2,-2.3,M,-25.1,M,2.8,0000*60
$GPGSA,A,3,23,16,07,01,13,,,,,,,,4.3,2.2,3.7*33
$GPRMC,201310.000,A,3747.6739,N,12215.4520,W,2.74,179.02,180412,,,D*70
$GPVTG,179.02,T,,M,2.74,N,5.1,K,D*00
$GPGGA,201311.000,3747.6727,N,12215.4520,W,2,05,2.2,-0.7,M,-25.1,M,3.8,0000*69
$GPGSA,A,3,23,16,07,01,13,,,,,,,,4.3,2.2,3.7*33
$GPRMC,201311.000,A,3747.6727,N,12215.4520,W,3.24,184.31,180412,,,D*78
$GPVTG,184.31,T,,M,3.24,N,6.0,K,D*04
$GPGGA,201312.000,3747.6715,N,12215.4521,W,2,05,2.2,-0.5,M,-25.1,M,4.8,0000*6F
$GPGSA,A,3,23,16,07,01,13,,,,,,,,4.3,2.2,3.7*33
$GPRMC,201312.000,A,3747.6715,N,12215.4521,W,3.77,188.97,180412,,,D*7D
$GPVTG,188.97,T,,M,3.77,N,7.0,K,D*03
$GPGGA,201313.000,3747.6709,N,12215.4524,W,2,05,2.2,-3.5,M,-25.1,M,,0000*47
$GPGSA,A,3,23,16,07,01,13,,,,,,,,4.3,2.2,3.8*3C
$GPGSV,3,1,12,20,78,276,21,23,49,302,23,30,43,098,26,16,32,132,35*78
$GPGSV,3,2,12,31,27,044,22,01,23,211,32,13,22,281,25,24,08,183,27*70
$GPGSV,3,3,12,04,07,320,26,11,07,200,26,07,05,225,20,51,43,156,35*7F
$GPRMC,201313.000,A,3747.6709,N,12215.4524,W,2.96,205.76,180412,,,D*73
$GPVTG,205.76,T,,M,2.96,N,5.5,K,D*03
$GPGGA,201314.000,3747.6702,N,12215.4528,W,2,05,2.2,-2.4,M,-25.1,M,,0000*47
$GPGSA,A,3,23,16,07,01,13,,,,,,,,4.3,2.2,3.8*3C
$GPRMC,201314.000,A,3747.6702,N,12215.4528,W,2.25,201.15,180412,,,D*7A
$GPVTG,201.15,T,,M,2.25,N,4.2,K,D*0C
$GPGGA,201315.000,3747.6697,N,12215.4531,W,2,05,2.2,-2.5,M,-25.1,M,,0000*42
$GPGSA,A,3,23,16,07,01,13,,,,,,,,4.3,2.2,3.8*3C
$GPRMC,201315.000,A,3747.6697,N,12215.4531,W,1.66,212.23,180412,,,D*7D
$GPVTG,212.23,T,,M,1.66,N,3.1,K,D*0B
$GPGGA,201316.000,3747.6694,N,12215.4535,W,2,05,2.2,-2.3,M,-25.1,M,,0000*40
$GPGSA,A,3,23,16,07,01,13,,,,,,,,4.4,2.2,3.8*3B
$GPRMC,201316.000,A,3747.6694,N,12215.4535,W,1.50,226.70,180412,,,D*7D
$GPVTG,226.70,T,,M,1.50,N,2.8,K,D*07
$GPGGA,201317.000,3747.6693,N,12215.4538,W,2,05,2.2,-1.7,M,-25.1,M,2.8,0000*68
$GPGSA,A,3,23,16,07,01,13,,,,,,,,4.4,2.2,3.8*3B
$GPRMC,201317.000,A,3747.6693,N,12215.4538,W,1.33,208.39,180412,,,D*72
$GPVTG,208.39,T,,M,1.33,N,2.5,K,D*0E
$GPGGA,201318.000,3747.6689,N,12215.4540,W,2,05,2.2,-0.7,M,-25.1,M,3.8,0000*63
$GPGSA,A,3,23,16,07,01,13,,,,,,,,4.4,2.2,3.8*3B
$GPGSV,3,1,12,20,78,275,21,23,49,302,24,30,43,098,26,16,32,132,35*7C
$GPGSV,3,2,12,31,27,044,25,01,23,211,34,13,22,281,32,24,07,183,34*7A
$GPGSV,3,3,12,04,07,320,26,11,07,200,24,07,05,225,23,51,43,156,34*7F
$GPVTG,188.02,T,,M,1.86,N,3.4,K,D*03
$GPGGA,201319.000,3747.6686,N,12215.4540,W,2,05,2.2,-0.8,M,-25.1,M,4.8,0000*65
$GPGSA,A,3,23,16,07,01,13,,,,,,,,4.4,2.2,3.8*3B
$GPRMC,201319.000,A,3747.6686,N,12215.4540,W,1.20,169.09,180412,,,D*72
$GPVTG,169.09,T,,M,1.20,N,2.2,K,D*0C
$GPGGA,201320.000,3747.6684,N,12215.4538,W,2,04,2.2,0.5,M,-25.1,M,5.8,0000*42
$GPGSA,A,3,23,16,01,13,,,,,,,,,5.2,2.2,4.7*33
$GPRMC,201320.000,A,3747.6684,N,12215.4538,W,1.13,128.41,180412,,,D*7C
$GPVTG,128.41,T,,M,1.13,N,2.1,K,D*06
$GPGGA,201321.000,3747.6684,N,12215.4532,W,2,04,2.2,-0.3,M,-25.1,M,6.8,0000*61
$GPGSA,A,3,23,16,01,13,,,,,,,,,5.2,2.2,4.7*33
$GPRMC,201321.000,A,3747.6684,N,12215.4532,W,2.13,129.76,180412,,,D*71
$GPVTG,129.76,T,,M,2.13,N,3.9,K,D*09
$GPGGA,201322.000,3747.6677,N,12215.4527,W,2,05,2.2,-0.2,M,-25.1,M,7.8,0000*6B
$GPGSA,A,3,23,16,07,01,13,,,,,,,,4.4,2.2,3.8*3B
$GPRMC,201322.000,A,3747.6677,N,12215.4527,W,1.48,134.44,180412,,,D*7A
$GPVTG,134.44,T,,M,1.48,N,2.7,K,D*06
$GPGGA,201323.000,3747.6680,N,12215.4515,W,2,05,2.2,0.1,M,-25.1,M,8.8,0000*42
$GPGSA,A,3,23,16,07,01,13,,,,,,,,4.4,2.2,3.8*3B
$GPGSV,3,1,12,20,78,275,21,23,49,302,24,30,43,098,36,16,32,132,40*7F
$GPGSV,3,2,12,31,27,044,27,01,23,211,22,13,22,281,23,24,07,183,32*79
$GPGSV,3,3,12,04,07,320,26,11,07,200,23,07,05,225,25,51,43,156,31*7B
$GPRMC,201323.000,A,3747.6680,N,12215.4515,W,0.89,97.18,180412,,,D*4F
$GPVTG,97.18,T,,M,0.89,N,1.6,K,D*39
$GPGGA,201324.000,3747.6669,N,12215.4506,W,2,05,2.2,1.1,M,-25.1,M,9.8,0000*40
$GPGSA,A,3,23,16,07,01,13,,,,,,,,4.4,2.2,3.8*3B
$GPRMC,201324.000,A,3747.6669,N,12215.4506,W,0.64,147.73,180412,,,D*7F
$GPVTG,147.73,T,,M,0.64,N,1.2,K,D*0F
$GPGGA,201325.000,3747.6654,N,12215.4502,W,2,05,2.2,3.6,M,-25.1,M,10.8,0000*76
$GPGSA,A,3,23,16,07,01,13,,,,,,,,4.4,2.2,3.8*3B
$GPRMC,201325.000,A,3747.6654,N,12215.4502,W,0.52,123.17,180412,,,D*71
$GPVTG,123.17,T,,M,0.52,N,1.0,K,D*08
$GPGGA,201326.000,3747.6643,N,12215.4501,W,2,05,2.2,7.8,M,-25.1,M,11.8,0000*7B
$GPGSA,A,3,23,16,07,01,13,,,,,,,,4.4,2.2,3.8*3B
$GPRMC,201326.000,A,3747.6643,N,12215.4501,W,1.17,149.68,180412,,,D*73
$GPVTG,149.68,T,,M,1.17,N,2.2,K,D*0D
$GPGGA,201327.000,3747.6644,N,12215.4498,W,2,05,2.2,10.8,M,-25.1,M,12.8,0000*49
$GPGSA,A,3,23,16,07,01,13,,,,,,,,4.4,2.2,3.8*3B
$GPRMC,201327.000,A,3747.6644,N,12215.4498,W,1.07,146.12,180412,,,D*77
$GPVTG,146.12,T,,M,1.07,N,2.0,K,D*0C
$GPGGA,201328.000,3747.6640,N,12215.4497,W,2,05,2.2,14.4,M,-25.1,M,13.8,0000*44
$GPGSA,A,3,23,16,07,01,13,,,,,,,,4.4,2.2,3.8*3B
$GPGSV,3,1,12,20,78,275,22,23,49,302,22,30,43,098,34,16,32,132,35*7A
$GPGSV,3,2,12,31,27,044,30,01,23,211,25,13,22,281,23,24,07,183,35*7F
$GPGSV,3,3,12,04,07,320,24,11,07,200,23,07,05,225,27,51,43,156,31*7B
$GPRMC,201328.000,A,3747.6640,N,12215.4497,W,0.66,142.24,180412,,,D*74
$GPVTG,142.24,T,,M,0.66,N,1.2,K,D*0A
$GPGGA,201329.000,3747.6639,N,12215.4494,W,2,05,2.2,17.4,M,-25.1,M,14.8,0000*4C
$GPGSA,A,3,23,16,07,01,13,,,,,,,,4.4,2.2,3.8*3B
$GPRMC,201329.000,A,3747.6639,N,12215.4494,W,0.62,141.45,180412,,,D*78
$GPVTG,141.45,T,,M,0.62,N,1.1,K,D*09
$GPGGA,201330.000,3747.6632,N,12215.4492,W,2,05,2.2,21.4,M,-25.1,M,15.8,0000*4D
$GPGSA,A,3,23,16,07,01,13,,,,,,,,4.4,2.2,3.8*3B
$GPRMC,201330.000,A,3747.6632,N,12215.4492,W,1.04,141.20,180412,,,D*7F
$GPVTG,141.20,T,,M,1.04,N,1.9,K,D*03
$GPGGA,201331.000,3747.6631,N,12215.4484,W,2,05,2.2,23.3,M,-25.1,M,16.8,0000*4E
$GPGSA,A,3,23,16,07,01,13,,,,,,,,4.4,2.2,3.8*3B
$GPRMC,201331.000,A,3747.6631,N,12215.4484,W,1.11,146.13,180412,,,D*79
$GPVTG,146.13,T,,M,1.11,N,2.1,K,D*0B
$GPGGA,201332.000,3747.6627,N,12215.4480,W,2,05,2.2,25.0,M,-25.1,M,17.8,0000*4A
$GPGSA,A,3,23,16,07,01,13,,,,,,,,4.4,2.2,3.8*3B
$GPRMC,201332.000,A,3747.6627,N,12215.4480,W,1.30,153.64,180412,,,D*7E
$GPVTG,153.64,T,,M,1.30,N,2.4,K,D*09
$GPGGA,201333.000,3747.6617,N,12215.4479,W,1,05,2.2,27.5,M,-25.1,M,,0000*5A
$GPGSA,A,3,23,16,07,01,13,,,,,,,,4.4,2.2,3.8*3B
$GPGSV,3,1,11,20,78,275,23,23,49,302,23,30,43,098,35,16,32,132,36*7B
$GPGSV,3,2,11,31,27,044,31,01,23,211,24,13,22,281,23,24,07,183,35*7C
$GPGSV,3,3,11,04,07,320,24,11,07,200,24,07,05,225,27*4C
$GPRMC,201333.000,A,3747.6617,N,12215.4479,W,1.47,166.54,180412,,,A*7A
$GPVTG,166.54,T,,M,1.47,N,2.7,K,A*0A
$GPGGA,201334.000,3747.6613,N,12215.4473,W,1,05,2.2,26.7,M,-25.1,M,,0000*50
$GPGSA,A,3,23,16,07,01,13,,,,,,,,4.4,2.2,3.8*3B
$GPRMC,201334.000,A,3747.6613,N,12215.4473,W,1.62,154.74,180412,,,A*77
$GPVTG,154.74,T,,M,1.62,N,3.0,K,A*08
$GPGGA,201335.000,3747.6607,N,12215.4466,W,1,05,2.2,26.0,M,-25.1,M,,0000*57
$GPGSA,A,3,23,16,07,01,13,,,,,,,,4.4,2.2,3.8*3B
$GPRMC,201335.000,A,3747.6607,N,12215.4466,W,2.34,165.61,180412,,,A*71
$GPVTG,165.61,T,,M,2.34,N,4.3,K,A*0A
$GPGGA,201336.000,3747.6602,N,12215.4458,W,1,05,2.2,26.4,M,-25.1,M,,0000*58
$GPGSA,A,3,23,16,07,01,13,,,,,,,,4.4,2.2,3.8*3B
$GPRMC,201336.000,A,3747.6602,N,12215.4458,W,1.91,161.29,180412,,,A*7E
$GPVTG,161.29,T,,M,1.91,N,3.5,K,A*0F
$GPGGA,201337.000,3747.6591,N,12215.4455,W,1,05,2.2,27.7,M,-25.1,M,,0000*5F
$GPGSA,A,3,23,16,07,01,13,,,,,,,,4.4,2.2,3.8*3B
$GPRMC,201337.000,A,3747.6591,N,12215.4455,W,2.12,157.20,180412,,,A*7F
$GPVTG,157.20,T,,M,2.12,N,3.9,K,A*07
$GPGGA,201338.000,3747.6589,N,12215.4446,W,1,05,2.2,27.7,M,-25.1,M,,0000*5B
$GPGSA,A,3,23,16,07,01,13,,,,,,,,4.4,2.2,3.8*3B
$GPGSV,3,1,11,20,78,275,23,23,49,302,23,30,43,098,35,16,32,132,37*7A
$GPGSV,3,2,11,31,27,044,30,01,23,211,24,13,22,281,23,24,07,183,37*7F
$GPGSV,3,3,11,04,07,320,23,11,07,200,31,07,05,225,27*4F
$GPRMC,201338.000,A,3747.6589,N,12215.4446,W,1.85,144.62,180412,,,A*72
$GPGGA,201339.000,3747.6589,N,12215.4435,W,1,05,2.2,25.0,M,-25.1,M,,0000*5B
$GPGSA,A,3,23,16,07,01,13,,,,,,,,4.4,2.2,3.8*3B
$GPRMC,201339.000,A,3747.6589,N,12215.4435,W,1.12,137.98,180412,,,A*78
$GPVTG,137.98,T,,M,1.12,N,2.1,K,A*08
$GPGGA,201340.000,3747.6587,N,12215.4429,W,1,05,2.2,25.1,M,-25.1,M,,0000*57
$GPGSA,A,3,23,16,07,01,13,,,,,,,,4.4,2.2,3.8*3B
$GPRMC,201340.000,A,3747.6587,N,12215.4429,W,1.07,93.44,180412,,,A*4F
$GPVTG,93.44,T,,M,1.07,N,2.0,K,A*33
$GPGGA,201341.000,3747.6582,N,12215.4424,W,1,05,2.2,24.3,M,-25.1,M,,0000*5D
$GPGSA,A,3,23,16,07,01,13,,,,,,,,4.4,2.2,3.8*3B
$GPRMC,201341.000,A,3747.6582,N,12215.4424,W,1.28,76.64,180412,,,A*42
$GPVTG,76.64,T,,M,1.28,N,2.4,K,A*33
$GPGGA,201342.000,3747.6586,N,12215.4414,W,1,05,2.2,20.4,M,-25.1,M,,0000*5A
$GPGSA,A,3,23,16,07,01,13,,,,,,,,4.4,2.2,3.8*3B
$GPRMC,201342.000,A,3747.6586,N,12215.4414,W,0.90,78.93,180412,,,A*42
$GPVTG,78.93,T,,M,0.90,N,1.7,K,A*37
$GPGGA,201343.000,3747.6591,N,12215.4403,W,1,04,4.9,16.3,M,-25.1,M,,0000*55
$GPGSA,A,3,23,16,07,13,,,,,,,,,8.9,4.9,7.4*3E
$GPGSV,3,1,11,20,78,275,24,23,49,302,24,30,43,098,35,16,32,132,38*75
$GPGSV,3,2,11,31,27,044,31,01,23,211,23,13,22,281,23,24,07,183,37*79
$GPGSV,3,3,11,04,07,320,24,11,07,200,28,07,05,225,26*41
$GPRMC,201343.000,A,3747.6591,N,12215.4403,W,1.21,54.47,180412,,,A*4F
$GPVTG,54.47,T,,M,1.21,N,2.2,K,A*3D
$GPGGA,201344.000,3747.6602,N,12215.4390,W,1,05,2.2,12.1,M,-25.1,M,,0000*5C
$GPGSA,A,3,23,16,07,01,13,,,,,,,,4.4,2.2,3.8*3B
$GPRMC,201344.000,A,3747.6602,N,12215.4390,W,2.23,54.18,180412,,,A*47
$GPVTG,54.18,T,,M,2.23,N,4.1,K,A*33
$GPGGA,201345.000,3747.6606,N,12215.4382,W,1,04,4.9,9.3,M,-25.1,M,,0000*6E
$GPGSA,A,3,23,16,07,13,,,,,,,,,8.9,4.9,7.4*3E
$GPRMC,201345.000,A,3747.6606,N,12215.4382,W,1.35,103.92,180412,,,A*74
$GPVTG,103.92,T,,M,1.35,N,2.5,K,A*04
$GPGGA,201346.000,3747.6604,N,12215.4374,W,1,04,4.9,6.3,M,-25.1,M,,0000*69
$GPGSA,A,3,23,16,07,13,,,,,,,,,8.9,4.9,7.4*3E
$GPRMC,201346.000,A,3747.6604,N,12215.4374,W,1.71,145.74,180412,,,A*76
$GPVTG,145.74,T,,M,1.71,N,3.2,K,A*08
$GPGGA,201347.000,3747.6610,N,12215.4359,W,1,05,2.2,4.9,M,-25.1,M,,0000*66
$GPGSA,A,3,23,16,07,01,13,,,,,,,,4.4,2.2,3.8*3B
$GPRMC,201347.000,A,3747.6610,N,12215.4359,W,1.75,133.30,180412,,,A*78
$GPVTG,133.30,T,,M,1.75,N,3.2,K,A*0D
$GPGGA,201348.000,3747.6618,N,12215.4341,W,1,05,2.2,3.1,M,-25.1,M,,0000*67
$GPGSA,A,3,23,16,07,01,13,,,,,,,,4.4,2.2,3.8*3B
$GPGSV,3,1,11,20,78,274,24,23,50,302,24,30,43,098,35,16,33,132,38*7D
$GPGSV,3,2,11,31,27,044,31,01,23,211,20,13,22,281,23,04,07,320,23*76
$GPGSV,3,3,11,24,07,183,37,11,06,200,27,07,06,225,30*40
$GPRMC,201348.000,A,3747.6618,N,12215.4341,W,1.81,94.24,180412,,,A*44
$GPVTG,94.24,T,,M,1.81,N,3.4,K,A*39
$GPGGA,201349.000,3747.6623,N,12215.4328,W,1,05,2.2,3.6,M,-25.1,M,,0000*66
$GPGSA,A,3,23,16,07,01,13,,,,,,,,4.4,2.2,3.8*3B
$GPRMC,201349.000,A,3747.6623,N,12215.4328,W,1.71,62.03,180412,,,A*41
$GPVTG,62.03,T,,M,1.71,N,3.2,K,A*3C
$GPGGA,201350.000,3747.6624,N,12215.4315,W,1,05,2.2,3.4,M,-25.1,M,,0000*65
$GPGSA,A,3,23,16,07,01,13,,,,,,,,4.4,2.2,3.8*3B
$GPRMC,201350.000,A,3747.6624,N,12215.4315,W,2.92,59.33,180412,,,A*45
$GPVTG,59.33,T,,M,2.92,N,5.4,K,A*39
$GPGGA,201351.000,3747.6624,N,12215.4301,W,1,05,2.2,2.1,M,-25.1,M,,0000*65
$GPGSA,A,3,23,16,07,01,13,,,,,,,,4.4,2.2,3.8*3B
$GPRMC,201351.000,A,3747.6624,N,12215.4301,W,1.94,75.42,180412,,,A*4C
$GPVTG,75.42,T,,M,1.94,N,3.6,K,A*30
$GPGGA,201352.000,3747.6625,N,12215.4290,W,1,05,2.2,1.8,M,-25.1,M,,0000*64
$GPGSA,A,3,23,16,07,01,13,,,,,,,,4.4,2.2,3.8*3B
$GPRMC,201352.000,A,3747.6625,N,12215.4290,W,1.66,69.47,180412,,,A*42
$GPVTG,69.47,T,,M,1.66,N,3.1,K,A*32
$GPGGA,201353.000,3747.6615,N,12215.4284,W,1,05,2.2,3.3,M,-25.1,M,,0000*6A
$GPGSA,A,3,23,16,07,01,13,,,,,,,,4.4,2.2,3.8*3B
$GPGSV,3,1,11,20,78,274,24,23,50,302,22,30,43,098,35,16,33,132,38*7B
$GPGSV,3,2,11,31,27,044,35,01,23,211,21,13,22,281,22,04,07,320,23*72
$GPGSV,3,3,11,24,07,183,37,11,06,200,23,07,06,225,25*40
$GPRMC,201353.000,A,3747.6615,N,12215.4284,W,0.90,101.04,180412,,,A*75
$GPVTG,101.04,T,,M,0.90,N,1.7,K,A*06
$GPGGA,201354.000,3747.6609,N,12215.4280,W,1,05,2.2,4.5,M,-25.1,M,,0000*65
$GPGSA,A,3,23,16,07,01,13,,,,,,,,4.4,2.2,3.8*3B
$GPRMC,201354.000,A,3747.6609,N,12215.4280,W,0.92,116.64,180412,,,A*79
$GPVTG,116.64,T,,M,0.92,N,1.7,K,A*04
$GPGGA,201355.000,3747.6603,N,12215.4274,W,1,05,2.2,3.9,M,-25.1,M,,0000*6E
$GPGSA,A,3,23,16,07,01,13,,,,,,,,4.4,2.2,3.8*3B
$GPRMC,201355.000,A,3747.6603,N,12215.4274,W,1.12,134.54,180412,,,A*73
$GPVTG,134.54,T,,M,1.12,N,2.1,K,A*0B
$GPGGA,201356.000,3747.6595,N,12215.4273,W,1,05,2.2,6.6,M,-25.1,M,,0000*6C
$GPGSA,A,3,23,16,07,01,13,,,,,,,,4.4,2.2,3.8*3B
$GPRMC,201356.000,A,3747.6595,N,12215.4273,W,1.13,117.43,180412,,,A*7D
$GPVTG,117.43,T,,M,1.13,N,2.1,K,A*0D
$GPGGA,201357.000,3747.6592,N,12215.4265,W,1,05,2.2,6.5,M,-25.1,M,,0000*6E
$GPGSA,A,3,23,16,07,01,13,,,,,,,,4.4,2.2,3.8*3B
$GPRMC,201357.000,A,3747.6592,N,12215.4265,W,1.58,149.12,180412,,,A*7C
$GPVTG,149.12,T,,M,1.58,N,2.9,K,A*05
$GPGGA,201358.000,3747.6598,N,12215.4253,W,1,05,2.2,1.5,M,-25.1,M,,0000*69
$GPGSA,A,3,23,16,07,01,13,,,,,,,,4.4,2.2,3.8*3B
$GPGSV,3,1,11,20,78,274,24,23,50,302,24,30,43,098,35,16,33,132,38*7D
$GPGSV,3,2,11,31,27,044,34,01,23,211,21,13,22,281,22,04,07,320,23*73
$GPGSV,3,3,11,24,07,183,37,11,06,200,24,07,06,225,20*42
$GPRMC,201358.000,A,3747.6598,N,12215.4253,W,1.21,121.63,180412,,,A*7A
$GPVTG,121.63,T,,M,1.21,N,2.2,K,A*08
$GPGGA,201359.000,3747.6586,N,12215.4250,W,1,05,2.2,1.5,M,-25.1,M,,0000*64
$GPGSA,A,3,23,16,07,01,13,,,,,,,,4.4,2.2,3.8*3B
$GPRMC,201359.000,A,3747.6586,N,12215.4250,W,0.86,115.94,180412,,,A*74
$GPVTG,115.94,T,,M,0.86,N,1.6,K,A*0C
$GPGGA,201400.000,3747.6583,N,12215.4245,W,1,05,2.2,-0.2,M,-25.1,M,,0000*45
$GPGSA,A,3,23,16,07,01,13,,,,,,,,4.4,2.2,3.8*3B
$GPRMC,201400.000,A,3747.6583,N,12215.4245,W,1.08,128.31,180412,,,A*78
$GPVTG,128.31,T,,M,1.08,N,2.0,K,A*0F
$GPGGA,201401.000,3747.6566,N,12215.4245,W,1,05,2.2,3.1,M,-25.1,M,,0000*62
$GPGSA,A,3,23,16,07,01,13,,,,,,,,4.4,2.2,3.8*3B
$GPRMC,201401.000,A,3747.6566,N,12215.4245,W,1.39,115.63,180412,,,A*79
$GPVTG,115.63,T,,M,1.39,N,2.6,K,A*02
$GPGGA,201402.000,3747.6548,N,12215.4244,W,1,05,2.2,4.7,M,-25.1,M,,0000*6D
$GPGSA,A,3,23,16,07,01,13,,,,,,,,4.4,2.2,3.8*3B
$GPRMC,201402.000,A,3747.6548,N,12215.4244,W,1.19,130.90,180412,,,A*7E
$GPVTG,130.90,T,,M,1.19,N,2.2,K,A*0F
$GPGGA,201403.000,3747.6535,N,12215.4240,W,1,05,2.2,4.9,M,-25.1,M,,0000*6C
$GPGSA,A,3,23,16,07,01,13,,,,,,,,4.4,2.2,3.8*3B
$GPGSV,3,1,11,20,78,274,24,23,50,302,23,30,43,098,34,16,33,132,38*7B
$GPGSV,3,2,11,31,27,044,33,01,23,211,26,13,22,281,22,04,07,320,23*73
$GPGSV,3,3,11,24,07,183,37,11,06,200,24,07,06,225,22*40
$GPRMC,201403.000,A,3747.6535,N,12215.4240,W,2.27,154.89,180412,,,A*75
$GPVTG,154.89,T,,M,2.27,N,4.2,K,A*0D
$GPGGA,201404.000,3747.6518,N,12215.4243,W,1,05,2.2,9.5,M,-25.1,M,,0000*66
$GPGSA,A,3,23,16,07,01,13,,,,,,,,4.4,2.2,3.8*3B
$GPRMC,201404.000,A,3747.6518,N,12215.4243,W,1.48,154.38,180412,,,A*7E
$GPVTG,154.38,T,,M,1.48,N,2.7,K,A*0E
$GPGGA,201405.000,3747.6514,N,12215.4238,W,1,05,2.2,9.9,M,-25.1,M,,0000*6B
$GPGSA,A,3,23,16,07,01,13,,,,,,,,4.4,2.2,3.8*3B
$GPRMC,201405.000,A,3747.6514,N,12215.4238,W,1.23,140.08,180412,,,A*74
$GPVTG,140.08,T,,M,1.23,N,2.3,K,A*01
$GPGGA,201406.000,3747.6521,N,12215.4226,W,1,05,2.2,8.7,M,-25.1,M,,0000*6E
$GPGSA,A,3,23,16,07,01,13,,,,,,,,4.4,2.2,3.8*3B
$GPRMC,201406.000,A,3747.6521,N,12215.4226,W,0.98,110.18,180412,,,A*7B
$GPVTG,110.18,T,,M,0.98,N,1.8,K,A*0C
$GPGGA,201407.000,3747.6521,N,12215.4217,W,1,05,2.2,8.3,M,-25.1,M,,0000*69
$GPGSA,A,3,23,16,07,01,13,,,,,,,,4.4,2.2,3.8*3B
$GPRMC,201407.000,A,3747.6521,N,12215.4217,W,1.19,106.99,180412,,,A*7E
$GPVTG,106.99,T,,M,1.19,N,2.2,K,A*03
$GPGGA,201408.000,3747.6513,N,12215.4212,W,1,05,2.2,8.3,M,-25.1,M,,0000*62
$GPGSA,A,3,23,16,07,01,13,,,,,,,,4.4,2.2,3.8*3B
$GPGSV,3,1,11,20,78,274,24,23,50,302,23,30,43,098,35,16,33,132,38*7A
$GPGSV,3,2,11,31,27,044,31,01,23,211,23,13,22,281,22,04,07,320,23*74
$GPGSV,3,3,11,24,07,183,37,11,06,200,24,07,06,225,23*41
$GPRMC,201408.000,A,3747.6513,N,12215.4212,W,1.62,110.24,180412,,,A*78
$GPVTG,110.24,T,,M,1.62,N,3.0,K,A*0D
$GPGGA,201409.000,3747.6500,N,12215.4209,W,1,05,2.2,9.9,M,-25.1,M,,0000*60
$GPGSA,A,3,23,16,07,01,13,,,,,,,,4.4,2.2,3.8*3B
$GPRMC,201409.000,A,3747.6500,N,12215.4209,W,0.84,135.76,180412,,,A*78
$GPVTG,135.76,T,,M,0.84,N,1.6,K,A*00
$GPGGA,201410.000,3747.6486,N,12215.4212,W,1,05,2.2,12.9,M,-25.1,M,,0000*57
$GPGSA,A,3,23,16,07,01,13,,,,,,,,4.4,2.2,3.8*3B
$GPRMC,201410.000,A,3747.6486,N,12215.4212,W,0.54,109.71,180412,,,A*70
$GPVTG,109.71,T,,M,0.54,N,1.0,K,A*03
$GPGGA,201411.000,3747.6480,N,12215.4209,W,1,05,2.2,13.0,M,-25.1,M,,0000*52
$GPGSA,A,3,23,16,07,01,13,,,,,,,,4.4,2.2,3.8*3B
$GPRMC,201411.000,A,3747.6480,N,12215.4209,W,1.54,112.83,180412,,,A*7B
$GPVTG,112.83,T,,M,1.54,N,2.9,K,A*0F
$GPGGA,201412.000,3747.6469,N,12215.4206,W,1,05,2.2,14.2,M,-25.1,M,,0000*5C
$GPGSA,A,3,23,16,07,01,13,,,,,,,,4.4,2.2,3.8*3B
$GPRMC,201412.000,A,3747.6469,N,12215.4206,W,1.36,134.07,180412,,,A*7C
$GPVTG,134.07,T,,M,1.36,N,2.5,K,A*0F
$GPGGA,201413.000,3747.6458,N,12215.4205,W,1,05,2.2,16.0,M,-25.1,M,,0000*5C
$GPGSA,A,3,23,16,07,01,13,,,,,,,,4.4,2.2,3.8*3B
$GPGSV,3,1,11,20,78,274,24,23,50,302,23,30,43,098,35,16,33,132,38*7A
$GPGSV,3,2,11,31,27,044,31,01,23,211,25,13,22,281,22,04,07,320,22*73
$GPGSV,3,3,11,24,07,183,38,11,06,200,24,07,06,225,23*4E
$GPRMC,201413.000,A,3747.6458,N,12215.4205,W,1.26,144.02,180412,,,A*7F
$GPVTG,144.02,T,,M,1.26,N,2.3,K,A*0A
$GPGGA,201414.000,3747.6442,N,12215.4206,W,1,05,2.2,19.7,M,-25.1,M,,0000*5B
$GPGSA,A,3,23,16,07,01,13,,,,,,,,4.4,2.2,3.8*3B
$GPRMC,201414.000,A,3747.6442,N,12215.4206,W,1.57,154.13,180412,,,A*77
$GPVTG,154.13,T,,M,1.57,N,2.9,K,A*07
$GPGGA,201415.000,3747.6430,N,12215.4203,W,1,05,2.2,21.0,M,-25.1,M,,0000*56
$GPGSA,A,3,23,16,07,01,13,,,,,,,,4.4,2.2,3.9*3A
$GPRMC,201415.000,A,3747.6430,N,12215.4203,W,1.56,161.21,180412,,,A*70
$GPVTG,161.21,T,,M,1.56,N,2.9,K,A*01
$GPGGA,201416.000,3747.6421,N,12215.4199,W,1,05,2.2,22.9,M,-25.1,M,,0000*5F
$GPGSA,A,3,23,16,07,01,13,,,,,,,,4.5,2.2,3.9*3B
$GPRMC,201416.000,A,3747.6421,N,12215.4199,W,1.95,164.49,180412,,,A*77
$GPVTG,164.49,T,,M,1.95,N,3.6,K,A*0B
$GPGGA,201417.000,3747.6407,N,12215.4198,W,1,05,2.2,23.9,M,-25.1,M,,0000*5A
$GPGSA,A,3,23,16,07,01,13,,,,,,,,4.5,2.2,3.9*3B
$GPRMC,201417.000,A,3747.6407,N,12215.4198,W,2.38,168.95,180412,,,A*7A
$GPVTG,168.95,T,,M,2.38,N,4.4,K,A*07
$GPGGA,201418.000,3747.6397,N,12215.4192,W,1,05,2.2,21.7,M,-25.1,M,,0000*5D
$GPGSA,A,3,23,16,07,01,13,,,,,,,,4.5,2.2,3.9*3B
$GPGSV,3,1,11,20,79,273,24,23,50,302,23,30,43,097,35,16,33,131,38*70
$GPGSV,3,2,11,31,26,044,32,01,23,211,25,13,22,281,22,04,08,319,22*74
$GPGSV,3,3,11,24,07,183,32,11,06,200,27,07,06,225,27*43
$GPRMC,201418.000,A,3747.6397,N,12215.4192,W,1.99,169.21,180412,,,A*77
$GPVTG,169.21,T,,M,1.99,N,3.7,K,A*05
$GPGGA,201419.000,3747.6393,N,12215.4185,W,1,05,2.2,19.4,M,-25.1,M,,0000*56
$GPGSA,A,3,23,16,07,01,13,,,,,,,,4.5,2.2,3.9*3B
$GPRMC,201419.000,A,3747.6393,N,12215.4185,W,1.65,145.95,180412,,,A*76
$GPVTG,145.95,T,,M,1.65,N,3.1,K,A*01
$GPGGA,201420.000,3747.6389,N,12215.4177,W,1,05,2.2,18.2,M,-25.1,M,,0000*5D
$GPGSA,A,3,23,16,07,01,13,,,,,,,,4.5,2.2,3.9*3B
$GPRMC,201420.000,A,3747.6389,N,12215.4177,W,1.59,113.91,180412,,,A*72
$GPVTG,113.91,T,,M,1.59,N,2.9,K,A*00
$GPGGA,201421.000,3747.6386,N,12215.4168,W,1,05,2.2,16.7,M,-25.1,M,,0000*56
$GPGSA,A,3,23,16,07,01,13,,,,,,,,4.5,2.2,3.9*3B
$GPRMC,201421.000,A,3747.6386,N,12215.4168,W,1.91,127.40,180412,,,A*7D
$GPVTG,127.40,T,,M,1.91,N,3.5,K,A*02
$GPGGA,201422.000,3747.6373,N,12215.4162,W,1,06,1.9,18.0,M,-25.1,M,,0000*57
$GPGSA,A,3,23,16,07,01,30,13,,,,,,,4.2,1.9,3.7*39
$GPRMC,201422.000,A,3747.6373,N,12215.4162,W,1.57,132.61,180412,,,A*73
$GPVTG,132.61,T,,M,1.57,N,2.9,K,A*02
$GPGGA,201423.000,3747.6360,N,12215.4157,W,1,06,1.9,19.6,M,-25.1,M,,0000*55
$GPGSA,A,3,23,16,07,01,30,13,,,,,,,4.2,1.9,3.7*39
$GPGSV,3,1,11,20,79,272,24,23,50,303,23,30,43,097,35,16,33,131,38*70
$GPGSV,3,2,11,31,26,044,32,01,23,211,24,13,22,281,21,04,08,319,22*76
$GPGSV,3,3,11,24,07,183,33,11,06,200,24,07,06,225,27*41
$GPRMC,201423.000,A,3747.6360,N,12215.4157,W,2.06,139.97,180412,,,A*73
$GPGGA,201424.000,3747.6344,N,12215.4156,W,1,06,1.9,24.0,M,-25.1,M,,0000*5D
$GPGSA,A,3,23,16,07,01,30,13,,,,,,,4.2,1.9,3.7*39
$GPRMC,201424.000,A,3747.6344,N,12215.4156,W,1.94,149.02,180412,,,A*70
$GPVTG,149.02,T,,M,1.94,N,3.6,K,A*0A
$GPGGA,201425.000,3747.6333,N,12215.4151,W,1,06,1.9,26.4,M,-25.1,M,,0000*5D
$GPGSA,A,3,23,16,07,01,30,13,,,,,,,4.2,1.9,3.7*39
$GPRMC,201425.000,A,3747.6333,N,12215.4151,W,1.95,163.37,180412,,,A*79
$GPVTG,163.37,T,,M,1.95,N,3.6,K,A*05
$GPGGA,201426.000,3747.6326,N,12215.4148,W,1,06,1.9,28.8,M,-25.1,M,,0000*50
$GPGSA,A,3,23,16,07,01,30,13,,,,,,,4.2,1.9,3.7*39
$GPRMC,201426.000,A,3747.6326,N,12215.4148,W,1.77,154.22,180412,,,A*7A
$GPVTG,154.22,T,,M,1.77,N,3.3,K,A*0C
$GPGGA,201427.000,3747.6321,N,12215.4141,W,1,06,1.9,27.6,M,-25.1,M,,0000*5E
$GPGSA,A,3,23,16,07,01,30,13,,,,,,,4.2,1.9,3.7*39
$GPRMC,201427.000,A,3747.6321,N,12215.4141,W,2.16,148.38,180412,,,A*77
$GPVTG,148.38,T,,M,2.16,N,4.0,K,A*0A
$GPGGA,201428.000,3747.6313,N,12215.4132,W,1,06,1.9,27.3,M,-25.1,M,,0000*51
$GPGSA,A,3,23,16,07,01,30,13,,,,,,,4.2,1.9,3.7*39
$GPGSV,3,1,11,20,79,272,24,23,50,303,23,30,43,097,35,16,33,131,38*70
$GPGSV,3,2,11,31,26,044,32,01,23,211,25,13,22,281,21,04,08,319,22*77
$GPGSV,3,3,11,24,07,183,34,11,06,200,17,07,06,225,27*46
$GPRMC,201428.000,A,3747.6313,N,12215.4132,W,1.95,151.14,180412,,,A*73
$GPVTG,151.14,T,,M,1.95,N,3.6,K,A*05
$GPGGA,201429.000,3747.6306,N,12215.4129,W,1,06,1.9,28.2,M,-25.1,M,,0000*50
$GPGSA,A,3,23,16,07,01,30,13,,,,,,,4.2,1.9,3.7*39
$GPRMC,201429.000,A,3747.6306,N,12215.4129,W,1.31,156.80,180412,,,A*78
$GPVTG,156.80,T,,M,1.31,N,2.4,K,A*02
$GPGGA,201430.000,3747.6299,N,12215.4127,W,1,06,1.9,28.2,M,-25.1,M,,0000*51
$GPGSA,A,3,23,16,07,01,30,13,,,,,,,4.2,1.9,3.7*39
$GPRMC,201430.000,A,3747.6299,N,12215.4127,W,1.37,162.06,180412,,,A*76
$GPVTG,162.06,T,,M,1.37,N,2.5,K,A*0C
$GPGGA,201431.000,3747.6302,N,12215.4124,W,1,06,1.9,28.2,M,-25.1,M,,0000*50
$GPGSA,A,3,23,16,07,01,30,13,,,,,,,4.2,1.9,3.7*39
$GPRMC,201431.000,A,3747.6302,N,12215.4124,W,1.52,144.35,180412,,,A*70
$GPVTG,144.35,T,,M,1.52,N,2.8,K,A*06
$GPGGA,201432.000,3747.6297,N,12215.4120,W,1,06,1.9,28.9,M,-25.1,M,,0000*51
$GPGSA,A,3,23,16,07,01,30,13,,,,,,,4.2,1.9,3.7*39
$GPRMC,201432.000,A,3747.6297,N,12215.4120,W,1.55,153.80,180412,,,A*75
$GPVTG,153.80,T,,M,1.55,N,2.9,K,A*08
$GPGGA,201433.000,3747.6298,N,12215.4110,W,1,06,1.9,26.1,M,-25.1,M,,0000*5A
$GPGSA,A,3,23,16,07,01,30,13,,,,,,,4.2,1.9,3.7*39
$GPGSV,3,1,11,20,79,272,24,23,50,303,23,30,43,097,35,16,33,131,38*70
$GPGSV,3,2,11,31,26,044,33,01,23,211,19,13,22,281,21,04,08,319,22*79
$GPGSV,3,3,11,24,07,183,36,11,06,200,18,07,06,225,22*4E
$GPRMC,201433.000,A,3747.6298,N,12215.4110,W,1.52,147.19,180412,,,A*7A
$GPVTG,147.19,T,,M,1.52,N,2.8,K,A*0B
$GPGGA,201434.000,3747.6296,N,12215.4100,W,1,06,1.9,23.9,M,-25.1,M,,0000*5F
$GPGSA,A,3,23,16,07,01,30,13,,,,,,,4.2,1.9,3.7*39
$GPRMC,201434.000,A,3747.6296,N,12215.4100,W,1.57,147.15,180412,,,A*7B
$GPVTG,147.15,T,,M,1.57,N,2.9,K,A*03
$GPGGA,201435.000,3747.6293,N,12215.4093,W,1,06,1.9,24.3,M,-25.1,M,,0000*5D
$GPGSA,A,3,23,16,07,01,30,13,,,,,,,4.2,1.9,3.7*39
$GPRMC,201435.000,A,3747.6293,N,12215.4093,W,1.18,134.82,180412,,,A*75
$GPVTG,134.82,T,,M,1.18,N,2.2,K,A*09
$GPGGA,201436.000,3747.6290,N,12215.4086,W,1,06,1.9,22.3,M,-25.1,M,,0000*5F
$GPGSA,A,3,23,16,07,01,30,13,,,,,,,4.2,1.9,3.7*39
$GPRMC,201436.000,A,3747.6290,N,12215.4086,W,1.63,155.29,180412,,,A*7B
$GPVTG,155.29,T,,M,1.63,N,3.0,K,A*00
$GPGGA,201437.000,3747.6287,N,12215.4080,W,1,06,1.9,19.6,M,-25.1,M,,0000*53
$GPGSA,A,3,23,16,07,01,30,13,,,,,,,4.2,1.9,3.7*39
$GPRMC,201437.000,A,3747.6287,N,12215.4080,W,1.02,174.81,180412,,,A*7C
$GPVTG,174.81,T,,M,1.02,N,1.9,K,A*0D
$GPGGA,201438.000,3747.6284,N,12215.4075,W,1,06,1.9,15.9,M,-25.1,M,,0000*56
$GPGSA,A,3,23,16,07,01,30,13,,,,,,,4.2,1.9,3.7*39
$GPGSV,3,1,11,20,79,272,23,23,50,303,23,30,43,097,35,16,33,131,37*78
$GPGSV,3,2,11,31,26,044,32,01,23,211,22,13,22,281,21,04,08,319,22*70
$GPGSV,3,3,11,24,07,183,39,11,06,200,19,07,06,225,23*41
$GPRMC,201438.000,A,3747.6284,N,12215.4075,W,1.13,161.62,180412,,,A*73
$GPGGA,201439.000,3747.6272,N,12215.4071,W,1,06,1.9,15.0,M,-25.1,M,,0000*53
$GPGSA,A,3,23,16,07,01,30,13,,,,,,,4.2,1.9,3.7*39
$GPRMC,201439.000,A,3747.6272,N,12215.4071,W,0.30,144.70,180412,,,A*7B
$GPVTG,144.70,T,,M,0.30,N,0.6,K,A*0E
$GPGGA,201440.000,3747.6264,N,12215.4073,W,1,06,1.9,16.6,M,-25.1,M,,0000*5D
$GPGSA,A,3,23,16,07,01,30,13,,,,,,,4.2,1.9,3.7*39
$GPRMC,201440.000,A,3747.6264,N,12215.4073,W,0.53,358.61,180412,,,A*7A
$GPVTG,358.61,T,,M,0.53,N,1.0,K,A*03
$GPGGA,201441.000,3747.6262,N,12215.4071,W,1,05,3.5,16.3,M,-25.1,M,,0000*50
$GPGSA,A,3,23,16,07,30,13,,,,,,,,6.8,3.5,5.9*36
$GPRMC,201441.000,A,3747.6262,N,12215.4071,W,0.22,81.86,180412,,,A*47
$GPVTG,81.86,T,,M,0.22,N,0.4,K,A*3E
$GPGGA,201442.000,3747.6255,N,12215.4072,W,1,06,1.9,15.7,M,-25.1,M,,0000*5E
$GPGSA,A,3,23,16,07,01,30,13,,,,,,,4.2,1.9,3.7*39
$GPRMC,201442.000,A,3747.6255,N,12215.4072,W,0.94,150.31,180412,,,A*7F
$GPVTG,150.31,T,,M,0.94,N,1.7,K,A*00
$GPGGA,201443.000,3747.6247,N,12215.4072,W,1,06,1.9,16.1,M,-25.1,M,,0000*59
$GPGSA,A,3,23,16,07,01,30,13,,,,,,,4.2,1.9,3.7*39
$GPGSV,3,1,11,20,79,272,23,23,50,303,22,30,43,097,35,16,33,131,37*79
$GPGSV,3,2,11,31,26,044,32,01,23,211,19,13,22,281,22,04,08,319,24*7D
$GPGSV,3,3,11,24,07,183,39,11,06,200,21,07,06,225,23*4A
$GPRMC,201443.000,A,3747.6247,N,12215.4072,W,0.74,136.84,180412,,,A*7D
$GPVTG,136.84,T,,M,0.74,N,1.4,K,A*03
$GPGGA,201444.000,3747.6245,N,12215.4068,W,1,06,1.9,15.8,M,-25.1,M,,0000*5D
$GPGSA,A,3,23,16,07,01,30,13,,,,,,,4.2,1.9,3.7*39
$GPRMC,201444.000,A,3747.6245,N,12215.4068,W,0.22,109.74,180412,,,A*73
$GPVTG,109.74,T,,M,0.22,N,0.4,K,A*02
$GPGGA,201445.000,3747.6247,N,12215.4058,W,1,06,1.9,13.1,M,-25.1,M,,0000*52
$GPGSA,A,3,23,16,07,01,30,13,,,,,,,4.2,1.9,3.7*39
$GPRMC,201445.000,A,3747.6247,N,12215.4058,W,0.80,36.45,180412,,,A*44
$GPVTG,36.45,T,,M,0.80,N,1.5,K,A*35
$GPGGA,201446.000,3747.6256,N,12215.4047,W,1,06,1.9,10.4,M,-25.1,M,,0000*59
$GPGSA,A,3,23,16,07,01,30,13,,,,,,,4.2,1.9,3.7*39
$GPRMC,201446.000,A,3747.6256,N,12215.4047,W,1.16,34.80,180412,,,A*4C
$GPVTG,34.80,T,,M,1.16,N,2.1,K,A*37
$GPGGA,201447.000,3747.6259,N,12215.4038,W,1,06,1.9,8.2,M,-25.1,M,,0000*60
$GPGSA,A,3,23,16,07,01,30,13,,,,,,,4.2,1.9,3.7*39
$GPRMC,201447.000,A,3747.6259,N,12215.4038,W,0.63,39.76,180412,,,A*4D
$GPVTG,39.76,T,,M,0.63,N,1.2,K,A*30
