$ADVER,3080,2.3
$GPWPL,3747.6982,N,12215.4748,W,00001*60
$ADPMB,5,0
$GPRMC,201134.626,A,3747.6982,N,12215.4748,W,0.13,211.90,180412,,,A*74
$GPGGA,201135.629,3747.7000,N,12215.4791,W,1,03,1.8,25.1,M,-25.1,M,,0000*5E
$GPGSA,A,2,23,16,01,,,,,,,,,,2.0,1.8,1.0*3E
$GPRMC,201135.629,A,3747.7000,N,12215.4791,W,0.00,211.90,180412,,,A*7E
$GPVTG,211.90,T,,M,0.00,N,0.0,K,N*09
$GPGGA,201136.629,3747.6940,N,12215.4758,W,1,03,1.8,25.1,M,-25.1,M,,0000*54
$GPGSA,A,2,23,16,01,,,,,,,,,,2.0,1.8,1.0*3E
$GPRMC,201136.629,A,3747.6940,N,12215.4758,W,1.11,49.52,180412,,,A*44
$GPVTG,49.52,T,,M,1.11,N,2.1,K,N*3A
$GPGGA,201137.629,3747.7031,N,12215.4678,W,1,03,1.8,25.1,M,-25.1,M,,0000*58
$GPGSA,A,2,23,16,01,,,,,,,,,,2.0,1.8,1.0*3E
$GPRMC,201137.629,A,3747.7031,N,12215.4678,W,2.36,216.19,180412,,,A*79
$GPVTG,216.19,T,,M,2.36,N,4.4,K,N*08
$GPGGA,201138.629,3747.6948,N,12215.4797,W,1,03,1.8,25.1,M,-25.1,M,,0000*51
$GPGSA,A,2,23,16,01,,,,,,,,,,2.0,1.8,1.0*3E
$GPRMC,201138.629,A,3747.6948,N,12215.4797,W,3.38,214.52,180412,,,A*72
$GPVTG,214.52,T,,M,3.38,N,6.3,K,N*0F
$GPGGA,201139.629,3747.6983,N,12215.4776,W,1,03,1.8,25.1,M,-25.1,M,,0000*58
$GPGSA,A,2,23,16,01,,,,,,,,,,2.0,1.8,1.0*3E
$GPGSV,3,1,10,23,49,301,34,16,32,132,22,01,24,212,28,20,78,279,24*7E
$GPGSV,3,2,10,30,42,099,,31,27,044,,13,21,280,28,11,07,201,*7E
$GPGSV,3,3,10,04,07,320,,07,05,224,*7C
$GPRMC,201139.629,A,3747.6983,N,12215.4776,W,1.80,85.65,180412,,,A*44
$GPVTG,85.65,T,,M,1.80,N,3.3,K,N*35
$GPGGA,201140.629,3747.6985,N,12215.4706,W,1,03,1.8,25.1,M,-25.1,M,,0000*57
$GPGSA,A,2,23,16,01,,,,,,,,,,2.0,1.8,1.0*3E
$GPRMC,201140.629,A,3747.6985,N,12215.4706,W,1.80,15.06,180412,,,A*47
$GPVTG,15.06,T,,M,1.80,N,3.3,K,N*39
$GPGGA,201141.629,3747.6962,N,12215.4760,W,1,03,1.8,25.1,M,-25.1,M,,0000*5F
$GPGSA,A,2,23,16,01,,,,,,,,,,2.0,1.8,1.0*3E
$GPRMC,201141.629,A,3747.6962,N,12215.4760,W,1.61,248.19,180412,,,A*74
$GPVTG,248.19,T,,M,1.61,N,3.0,K,N*01
$GPGGA,201142.629,3747.6979,N,12215.4811,W,1,03,1.8,25.1,M,-25.1,M,,0000*5F
$GPGSA,A,2,23,16,01,,,,,,,,,,2.0,1.8,1.0*3E
$GPRMC,201142.629,A,3747.6979,N,12215.4811,W,0.70,343.90,180412,,,A*7E
$GPVTG,343.90,T,,M,0.70,N,1.3,K,N*0A
$GPGGA,201143.629,3747.6981,N,12215.4816,W,1,03,1.8,25.1,M,-25.1,M,,0000*5E
$GPGSA,A,2,23,16,01,,,,,,,,,,2.0,1.8,1.0*3E
$GPRMC,201143.629,A,3747.6981,N,12215.4816,W,0.49,176.93,180412,,,A*72
$GPVTG,176.93,T,,M,0.49,N,0.9,K,N*0C
$GPGGA,201144.629,3747.7027,N,12215.4831,W,1,03,1.8,25.1,M,-25.1,M,,0000*58
$GPGSA,A,2,23,16,01,,,,,,,,,,2.0,1.8,1.0*3E
$GPGSV,3,1,10,23,49,301,23,16,32,132,23,01,24,212,28,20,78,279,17*79
$GPGSV,3,2,10,30,42,099,,31,27,044,,13,21,280,14,11,07,201,*71
$GPGSV,3,3,10,04,07,320,,07,05,224,*7C
$GPRMC,201144.629,A,3747.7027,N,12215.4831,W,0.71,326.54,180412,,,A*73
$GPVTG,326.54,T,,M,0.71,N,1.3,K,N*00
$GPGGA,201145.629,3747.7011,N,12215.4748,W,1,03,1.8,25.1,M,-25.1,M,,0000*5D
$GPGSA,A,2,23,16,01,,,,,,,,,,2.0,1.8,1.0*3E
$GPRMC,201145.629,A,3747.7011,N,12215.4748,W,0.71,320.70,180412,,,A*76
$GPVTG,320.70,T,,M,0.71,N,1.3,K,N*00
$GPGGA,201146.629,3747.7014,N,12215.4761,W,1,03,1.8,25.1,M,-25.1,M,,0000*50
$GPGSA,A,2,23,16,01,,,,,,,,,,2.0,1.8,1.0*3E
$GPRMC,201146.629,A,3747.7014,N,12215.4761,W,1.77,347.20,180412,,,A*78
$GPVTG,347.20,T,,M,1.77,N,3.3,K,N*01
$GPGGA,201147.629,3747.6975,N,12215.4747,W,1,03,1.8,25.1,M,-25.1,M,,0000*5A
$GPGSA,A,2,23,16,01,,,,,,,,,,2.0,1.8,1.0*3E
$GPRMC,201147.629,A,3747.6975,N,12215.4747,W,0.09,342.40,180412,,,A*79
$GPVTG,342.40,T,,M,0.09,N,0.2,K,N*08
$GPGGA,201148.629,3747.6952,N,12215.4784,W,1,03,1.8,25.1,M,-25.1,M,,0000*5F
$GPGSA,A,2,23,16,01,,,,,,,,,,2.0,1.8,1.0*3E
$GPRMC,201148.629,A,3747.6952,N,12215.4784,W,0.54,220.60,180412,,,A*73
$GPVTG,220.60,T,,M,0.54,N,1.0,K,N*04
$GPGGA,201149.629,3747.6983,N,12215.4742,W,1,03,1.8,25.1,M,-25.1,M,,0000*58
$GPGSA,A,2,23,16,01,,,,,,,,,,2.0,1.8,1.0*3E
$GPGSV,3,1,10,23,49,301,30,16,32,132,37,01,24,212,23,20,78,279,16*74
$GPGSV,3,2,10,30,42,099,,31,27,044,,13,21,280,24,11,07,201,*72
$GPGSV,3,3,10,04,07,320,,07,05,224,20*7E
$GPRMC,201149.629,A,3747.6983,N,12215.4742,W,0.19,219.77,180412,,,A*71
$GPVTG,219.77,T,,M,0.19,N,0.3,K,N*03
$GPGGA,201150.629,3747.6969,N,12215.4755,W,1,03,1.8,25.1,M,-25.1,M,,0000*52
$GPGSA,A,2,23,16,01,,,,,,,,,,2.0,1.8,1.0*3E
$GPRMC,201150.629,A,3747.6969,N,12215.4755,W,0.12,214.39,180412,,,A*77
$GPVTG,214.39,T,,M,0.12,N,0.2,K,N*0E
$GPGGA,201151.629,3747.6970,N,12215.4783,W,1,03,1.8,25.1,M,-25.1,M,,0000*50
$GPGSA,A,2,23,16,01,,,,,,,,,,2.0,1.8,1.0*3E
$GPRMC,201151.629,A,3747.6970,N,12215.4783,W,0.50,206.07,180412,,,A*7D
$GPVTG,206.07,T,,M,0.50,N,0.9,K,N*0D
$GPGGA,201152.629,3747.6923,N,12215.4798,W,1,03,1.8,25.1,M,-25.1,M,,0000*5F
$GPGSA,A,2,23,16,01,,,,,,,,,,2.0,1.8,1.0*3E
$GPRMC,201152.629,A,3747.6923,N,12215.4798,W,0.81,180.42,180412,,,A*72
$GPVTG,180.42,T,,M,0.81,N,1.5,K,N*00
$GPGGA,201153.629,3747.6979,N,12215.4770,W,1,03,1.8,25.1,M,-25.1,M,,0000*57
$GPGSA,A,2,23,16,01,,,,,,,,,,2.0,1.8,1.0*3E
$GPRMC,201153.629,A,3747.6979,N,12215.4770,W,0.44,298.34,180412,,,A*78
$GPVTG,298.34,T,,M,0.44,N,0.8,K,N*0E
$GPGGA,201154.629,3747.7004,N,12215.4759,W,1,03,1.8,25.1,M,-25.1,M,,0000*59
$GPGSA,A,2,23,16,01,,,,,,,,,,2.0,1.8,1.0*3E
$GPGSV,3,1,10,23,49,301,24,16,32,132,29,01,24,212,26,20,78,279,17*7A
$GPGSV,3,2,10,30,42,099,,31,27,044,,13,21,280,26,11,07,201,*70
$GPGSV,3,3,10,04,07,320,,07,05,224,20*7E
$GPRMC,201154.629,A,3747.7004,N,12215.4759,W,1.44,28.34,180412,,,A*4E
$GPGGA,201155.629,3747.7060,N,12215.4674,W,1,03,1.8,25.1,M,-25.1,M,,0000*54
$GPGSA,A,2,23,16,01,,,,,,,,,,2.0,1.8,1.0*3E
$GPRMC,201155.629,A,3747.7060,N,12215.4674,W,3.45,34.17,180412,,,A*4C
$GPVTG,34.17,T,,M,3.45,N,6.4,K,N*33
$GPGGA,201156.629,3747.7049,N,12215.4695,W,1,03,1.8,25.1,M,-25.1,M,,0000*53
$GPGSA,A,2,23,16,01,,,,,,,,,,2.0,1.8,1.0*3E
$GPRMC,201156.629,A,3747.7049,N,12215.4695,W,0.91,9.98,180412,,,A*78
$GPVTG,9.98,T,,M,0.91,N,1.7,K,N*04
$GPGGA,201157.629,3747.7018,N,12215.4727,W,1,03,1.8,25.1,M,-25.1,M,,0000*5E
$GPGSA,A,2,23,16,01,,,,,,,,,,2.0,1.8,1.0*3E
$GPRMC,201157.629,A,3747.7018,N,12215.4727,W,0.52,256.23,180412,,,A*72
$GPVTG,256.23,T,,M,0.52,N,1.0,K,N*04
$GPGGA,201158.629,3747.6994,N,12215.4723,W,1,03,1.8,25.1,M,-25.1,M,,0000*59
$GPGSA,A,2,23,16,01,,,,,,,,,,2.0,1.8,1.0*3E
$GPRMC,201158.629,A,3747.6994,N,12215.4723,W,0.75,225.05,180412,,,A*70
$GPVTG,225.05,T,,M,0.75,N,1.4,K,N*05
$GPGGA,201159.629,3747.7013,N,12215.4802,W,1,03,1.8,25.1,M,-25.1,M,,0000*53
$GPGSA,A,2,23,16,01,,,,,,,,,,2.0,1.8,1.0*3E
$GPGSV,3,1,10,23,49,301,37,16,32,132,20,01,24,212,32,20,78,279,26*76
$GPGSV,3,2,10,30,42,099,,31,27,044,,13,21,280,35,11,07,201,*72
$GPGSV,3,3,10,04,07,320,,07,05,224,24*7A
$GPRMC,201159.629,A,3747.7013,N,12215.4802,W,0.67,84.26,180412,,,A*41
$GPVTG,84.26,T,,M,0.67,N,1.2,K,N*38
$GPGGA,201200.629,3747.6962,N,12215.4779,W,1,03,1.8,25.1,M,-25.1,M,,0000*51
$GPGSA,A,2,23,16,01,,,,,,,,,,2.0,1.8,1.0*3E
$GPRMC,201200.629,A,3747.6962,N,12215.4779,W,1.89,150.15,180412,,,A*7A
$GPVTG,150.15,T,,M,1.89,N,3.5,K,N*04
$GPGGA,201201.629,3747.6963,N,12215.4811,W,1,03,1.8,25.1,M,-25.1,M,,0000*50
$GPGSA,A,2,23,16,01,,,,,,,,,,2.0,1.8,1.0*3E
$GPRMC,201201.629,A,3747.6963,N,12215.4811,W,2.02,139.69,180412,,,A*7F
$GPVTG,139.69,T,,M,2.02,N,3.7,K,N*02
$GPGGA,201202.629,3747.6969,N,12215.4779,W,1,03,1.8,25.1,M,-25.1,M,,0000*58
$GPGSA,A,2,23,16,01,,,,,,,,,,2.0,1.8,1.0*3E
$GPRMC,201202.629,A,3747.6969,N,12215.4779,W,0.87,196.26,180412,,,A*76
$GPVTG,196.26,T,,M,0.87,N,1.6,K,N*00
$GPGGA,201203.629,3747.6965,N,12215.4838,W,1,03,1.8,25.1,M,-25.1,M,,0000*5F
$GPGSA,A,2,23,16,01,,,,,,,,,,2.0,1.8,1.0*3E
$GPRMC,201203.629,A,3747.6965,N,12215.4838,W,1.70,231.33,180412,,,A*72
$GPVTG,231.33,T,,M,1.70,N,3.2,K,N*05
$GPGGA,201204.629,3747.6964,N,12215.4799,W,1,03,1.8,25.1,M,-25.1,M,,0000*5D
$GPGSA,A,2,23,16,01,,,,,,,,,,2.0,1.8,1.0*3E
$GPGSV,3,1,11,23,49,301,36,16,32,132,20,01,24,212,29,20,78,279,25*7F
$GPGSV,3,2,11,30,42,099,,31,27,044,,13,21,280,33,11,07,201,*75
$GPGSV,3,3,11,04,07,320,,07,05,224,23,48,00,000,25*47
$GPRMC,201204.629,A,3747.6964,N,12215.4799,W,1.95,229.56,180412,,,A*71
$GPVTG,229.56,T,,M,1.95,N,3.6,K,N*00
$GPGGA,201205.629,3747.6914,N,12215.4825,W,1,03,1.8,25.1,M,-25.1,M,,0000*53
$GPGSA,A,2,23,16,01,,,,,,,,,,2.0,1.8,1.0*3E
$GPRMC,201205.629,A,3747.6914,N,12215.4825,W,0.87,162.42,180412,,,A*74
$GPVTG,162.42,T,,M,0.87,N,1.6,K,N*09
$GPGGA,201206.629,3747.6902,N,12215.4767,W,1,03,1.8,25.1,M,-25.1,M,,0000*5E
$GPGSA,A,2,23,16,01,,,,,,,,,,2.0,1.8,1.0*3E
$GPRMC,201206.629,A,3747.6902,N,12215.4767,W,1.20,197.94,180412,,,A*74
$GPVTG,197.94,T,,M,1.20,N,2.2,K,N*03
$GPGGA,201207.629,3747.6920,N,12215.4754,W,1,03,1.8,25.1,M,-25.1,M,,0000*5F
$GPGSA,A,2,23,16,01,,,,,,,,,,2.0,1.8,1.0*3E
$GPRMC,201207.629,A,3747.6920,N,12215.4754,W,0.43,220.07,180412,,,A*74
$GPVTG,220.07,T,,M,0.43,N,0.8,K,N*0A
$GPGGA,201208.629,3747.6944,N,12215.4745,W,1,03,1.8,25.1,M,-25.1,M,,0000*52
$GPGSA,A,2,23,16,01,,,,,,,,,,2.0,1.8,1.0*3E
$GPRMC,201208.629,A,3747.6944,N,12215.4745,W,1.76,134.17,180412,,,A*79
$GPVTG,134.17,T,,M,1.76,N,3.3,K,N*02
$GPGGA,201209.629,3747.6999,N,12215.4709,W,1,03,1.8,25.1,M,-25.1,M,,0000*5B
$GPGSA,A,2,23,16,01,,,,,,,,,,2.0,1.8,1.0*3E
$GPGSV,3,1,11,23,49,301,26,16,32,132,35,01,24,212,27,20,78,279,30*70
$GPGSV,3,2,11,30,42,099,,31,27,044,,13,21,280,21,11,07,201,22*76
$GPGSV,3,3,11,04,07,320,,07,05,224,16,48,00,000,34*41
$GPRMC,201209.629,A,3747.6999,N,12215.4709,W,1.57,149.66,180412,,,A*7F
$GPVTG,149.66,T,,M,1.57,N,2.9,K,N*06
$GPGGA,201210.629,3747.6977,N,12215.4658,W,1,03,1.8,25.1,M,-25.1,M,,0000*56
$GPGSA,A,2,23,16,01,,,,,,,,,,2.0,1.8,1.0*3E
$GPRMC,201210.629,A,3747.6977,N,12215.4658,W,1.02,150.48,180412,,,A*76
$GPVTG,150.48,T,,M,1.02,N,1.9,K,N*01
$GPGGA,201211.629,3747.6915,N,12215.4712,W,1,03,1.8,25.1,M,-25.1,M,,0000*5C
$GPGSA,A,2,23,16,01,,,,,,,,,,2.0,1.8,1.0*3E
$GPRMC,201211.629,A,3747.6915,N,12215.4712,W,1.96,138.12,180412,,,A*70
$GPVTG,138.12,T,,M,1.96,N,3.6,K,N*00
$GPGGA,201212.629,3747.6948,N,12215.4718,W,1,03,1.8,25.1,M,-25.1,M,,0000*5D
$GPGSA,A,2,23,16,01,,,,,,,,,,2.0,1.8,1.0*3E
$GPRMC,201212.629,A,3747.6948,N,12215.4718,W,1.85,150.23,180412,,,A*7F
$GPVTG,150.23,T,,M,1.85,N,3.4,K,N*0C
$GPGGA,201213.629,3747.6949,N,12215.4708,W,1,03,1.8,25.1,M,-25.1,M,,0000*5C
$GPGSA,A,2,23,16,01,,,,,,,,,,2.0,1.8,1.0*3E
$GPRMC,201213.629,A,3747.6949,N,12215.4708,W,1.89,141.53,180412,,,A*75
$GPVTG,141.53,T,,M,1.89,N,3.5,K,N*06
$GPGGA,201214.629,3747.6946,N,12215.4700,W,1,03,1.8,25.1,M,-25.1,M,,0000*5C
$GPGSA,A,2,23,16,01,,,,,,,,,,2.0,1.8,1.0*3E
$GPGSV,3,1,11,23,49,301,29,16,32,132,32,01,24,212,30,20,78,279,32*7C
$GPGSV,3,2,11,30,42,099,21,31,27,044,,13,21,280,26,11,07,201,27*77
$GPGSV,3,3,11,04,07,320,,07,05,224,15,48,00,000,34*42
$GPRMC,201214.629,A,3747.6946,N,12215.4700,W,2.00,138.37,180412,,,A*7B
$GPVTG,138.37,T,,M,2.00,N,3.7,K,N*0A
$GPGGA,201215.629,3747.6952,N,12215.4727,W,1,03,1.8,25.1,M,-25.1,M,,0000*5D
$GPGSA,A,2,23,16,01,,,,,,,,,,2.0,1.8,1.0*3E
$GPRMC,201215.629,A,3747.6952,N,12215.4727,W,1.10,122.48,180412,,,A*7B
$GPVTG,122.48,T,,M,1.10,N,2.0,K,N*0D
$GPGGA,201216.629,3747.6897,N,12215.4698,W,1,03,1.8,25.1,M,-25.1,M,,0000*53
$GPGSA,A,2,23,16,01,,,,,,,,,,2.0,1.8,1.0*3E
$GPRMC,201216.629,A,3747.6897,N,12215.4698,W,1.59,155.08,180412,,,A*7C
$GPVTG,155.08,T,,M,1.59,N,2.9,K,N*0D
$GPGGA,201217.629,3747.6888,N,12215.4681,W,1,03,1.8,25.1,M,-25.1,M,,0000*54
$GPGSA,A,2,23,16,01,,,,,,,,,,2.0,1.8,1.0*3E
$GPRMC,201217.629,A,3747.6888,N,12215.4681,W,1.95,172.62,180412,,,A*72
$GPVTG,172.62,T,,M,1.95,N,3.6,K,N*0A
$GPGGA,201218.629,3747.6939,N,12215.4697,W,1,03,1.8,25.1,M,-25.1,M,,0000*57
$GPGSA,A,2,23,16,01,,,,,,,,,,2.0,1.8,1.0*3E
$GPRMC,201218.629,A,3747.6939,N,12215.4697,W,1.03,134.66,180412,,,A*78
$GPVTG,134.66,T,,M,1.03,N,1.9,K,N*0E
$GPGGA,201219.629,3747.6936,N,12215.4697,W,1,03,1.8,25.1,M,-25.1,M,,0000*59
$GPGSA,A,2,23,16,01,,,,,,,,,,2.0,1.8,1.0*3E
$GPGSV,3,1,11,23,49,301,24,16,32,132,31,01,23,211,35,20,78,277,21*7F
$GPGSV,3,2,11,30,43,099,13,31,27,044,,13,22,281,29,04,07,320,*79
$GPGSV,3,3,11,11,07,201,37,07,05,225,16,48,44,197,34*4D
$GPVTG,145.61,T,,M,1.43,N,2.6,K,N*07
$GPGGA,201220.629,3747.6916,N,12215.4690,W,1,03,1.8,25.1,M,-25.1,M,,0000*56
$GPGSA,A,2,23,16,01,,,,,,,,,,2.0,1.8,1.0*3E
$GPRMC,201220.629,A,3747.6916,N,12215.4690,W,0.89,67.81,180412,,,A*44
$GPVTG,67.81,T,,M,0.89,N,1.6,K,N*3C
$GPGGA,201221.629,3747.6932,N,12215.4691,W,1,03,1.8,25.1,M,-25.1,M,,0000*50
$GPGSA,A,2,23,16,01,,,,,,,,,,2.0,1.8,1.0*3E
$GPRMC,201221.629,A,3747.6932,N,12215.4691,W,1.93,148.37,180412,,,A*79
$GPVTG,148.37,T,,M,1.93,N,3.6,K,N*05
$GPGGA,201222.629,3747.6942,N,12215.4692,W,1,03,1.8,25.1,M,-25.1,M,,0000*57
$GPGSA,A,2,23,16,01,,,,,,,,,,2.0,1.8,1.0*3E
$GPRMC,201222.629,A,3747.6942,N,12215.4692,W,1.91,147.17,180412,,,A*71
$GPVTG,147.17,T,,M,1.91,N,3.5,K,N*09
$GPGGA,201223.629,3747.6885,N,12215.4677,W,1,03,1.8,25.1,M,-25.1,M,,0000*57
$GPGSA,A,2,23,16,01,,,,,,,,,,2.0,1.8,1.0*3E
$GPRMC,201223.629,A,3747.6885,N,12215.4677,W,1.46,132.15,180412,,,A*7B
$GPVTG,132.15,T,,M,1.46,N,2.7,K,N*00
$GPGGA,201224.629,3747.6890,N,12215.4678,W,1,03,1.8,25.1,M,-25.1,M,,0000*5B
$GPGSA,A,2,23,16,01,,,,,,,,,,2.0,1.8,1.0*3E
$GPGSV,3,1,11,23,49,301,26,16,32,132,32,01,23,211,32,20,78,277,32*7B
$GPGSV,3,2,11,30,43,099,20,31,27,044,,13,22,281,27,04,07,320,*77
$GPGSV,3,3,11,11,07,201,27,07,05,225,25,48,44,197,35*4D
$GPRMC,201224.629,A,3747.6890,N,12215.4678,W,1.76,142.06,180412,,,A*71
$GPVTG,142.06,T,,M,1.76,N,3.3,K,N*03
$GPGGA,201225.629,3747.6885,N,12215.4677,W,1,03,1.8,25.1,M,-25.1,M,,0000*51
$GPGSA,A,2,23,16,01,,,,,,,,,,2.0,1.8,1.0*3E
$GPRMC,201225.629,A,3747.6885,N,12215.4677,W,1.89,144.28,180412,,,A*71
$GPVTG,144.28,T,,M,1.89,N,3.5,K,N*0F
$GPGGA,201226.629,3747.6875,N,12215.4673,W,1,03,1.8,25.1,M,-25.1,M,,0000*59
$GPGSA,A,2,23,16,01,,,,,,,,,,2.0,1.8,1.0*3E
$GPRMC,201226.629,A,3747.6875,N,12215.4673,W,1.86,137.25,180412,,,A*7F
$GPVTG,137.25,T,,M,1.86,N,3.4,K,N*08
$GPGGA,201227.629,3747.6885,N,12215.4666,W,1,03,1.8,25.1,M,-25.1,M,,0000*53
$GPGSA,A,2,23,16,01,,,,,,,,,,2.0,1.8,1.0*3E
$GPRMC,201227.629,A,3747.6885,N,12215.4666,W,1.31,123.78,180412,,,A*74
$GPVTG,123.78,T,,M,1.31,N,2.4,K,N*08
$GPGGA,201228.629,3747.6861,N,12215.4655,W,1,03,1.8,25.1,M,-25.1,M,,0000*56
$GPGSA,A,2,23,16,01,,,,,,,,,,2.0,1.8,1.0*3E
$GPRMC,201228.629,A,3747.6861,N,12215.4655,W,2.10,142.36,180412,,,A*7C
$GPVTG,142.36,T,,M,2.10,N,3.9,K,N*09
$GPGGA,201229.629,3747.6871,N,12215.4653,W,1,03,1.8,25.1,M,-25.1,M,,0000*50
$GPGSA,A,2,23,16,01,,,,,,,,,,2.0,1.8,1.0*3E
$GPGSV,3,1,11,23,49,301,29,16,32,132,33,01,23,211,33,20,78,277,32*74
$GPGSV,3,2,11,30,43,099,21,31,27,044,,13,22,281,28,04,07,320,*79
$GPGSV,3,3,11,11,07,201,31,07,05,225,25,48,44,197,30*4F
$GPRMC,201229.629,A,3747.6871,N,12215.4653,W,1.78,138.55,180412,,,A*7F
$GPVTG,138.55,T,,M,1.78,N,3.3,K,N*06
$GPGGA,201230.629,3747.6864,N,12215.4646,W,1,03,1.8,25.1,M,-25.1,M,,0000*58
$GPGSA,A,2,23,16,01,,,,,,,,,,2.0,1.8,1.0*3E
$GPRMC,201230.629,A,3747.6864,N,12215.4646,W,1.66,138.70,180412,,,A*7F
$GPVTG,138.70,T,,M,1.66,N,3.1,K,N*0C
$GPGGA,201231.629,3747.6862,N,12215.4642,W,1,03,1.8,25.1,M,-25.1,M,,0000*5B
$GPGSA,A,2,23,16,01,,,,,,,,,,2.0,1.8,1.0*3E
$GPRMC,201231.629,A,3747.6862,N,12215.4642,W,1.94,141.25,180412,,,A*7F
$GPVTG,141.25,T,,M,1.94,N,3.6,K,N*08
$GPGGA,201232.629,3747.6859,N,12215.4637,W,1,03,1.8,25.1,M,-25.1,M,,0000*52
$GPGSA,A,2,23,16,01,,,,,,,,,,2.0,1.8,1.0*3E
$GPRMC,201232.629,A,3747.6859,N,12215.4637,W,2.04,137.83,180412,,,A*71
$GPVTG,137.83,T,,M,2.04,N,3.8,K,N*01
$GPGGA,201233.629,3747.6877,N,12215.4637,W,1,03,1.8,25.1,M,-25.1,M,,0000*5F
$GPGSA,A,2,23,16,01,,,,,,,,,,2.0,1.8,1.0*3E
$GPRMC,201233.629,A,3747.6877,N,12215.4637,W,1.79,126.09,180412,,,A*77
$GPVTG,126.09,T,,M,1.79,N,3.3,K,N*01
$GPGGA,201234.629,3747.6867,N,12215.4631,W,1,03,1.8,25.1,M,-25.1,M,,0000*5F
$GPGSA,A,2,23,16,01,,,,,,,,,,2.0,1.8,1.0*3E
$GPGSV,3,1,10,23,49,301,24,16,32,132,33,01,23,211,34,20,78,277,32*7F
$GPGSV,3,2,10,30,43,099,22,31,27,044,,13,22,281,28,04,07,320,*7B
$GPGSV,3,3,10,11,07,201,32,07,05,225,25*7D
$GPRMC,201234.629,A,3747.6867,N,12215.4631,W,1.16,47.38,180412,,,A*4A
$GPVTG,47.38,T,,M,1.16,N,2.1,K,N*3F
$GPGGA,201235.629,3747.6885,N,12215.4631,W,1,03,1.8,25.1,M,-25.1,M,,0000*52
$GPGSA,A,2,23,16,01,,,,,,,,,,2.0,1.8,1.0*3E
$GPRMC,201235.629,A,3747.6885,N,12215.4631,W,1.58,131.97,180412,,,A*78
$GPVTG,131.97,T,,M,1.58,N,2.9,K,N*08
$GPGGA,201236.629,3747.6856,N,12215.4621,W,1,03,1.8,25.1,M,-25.1,M,,0000*5E
$GPGSA,A,2,23,16,01,,,,,,,,,,2.0,1.8,1.0*3E
$GPRMC,201236.629,A,3747.6856,N,12215.4621,W,1.35,124.90,180412,,,A*7C
$GPVTG,124.90,T,,M,1.35,N,2.5,K,N*0C
$GPGGA,201237.629,3747.6827,N,12215.4611,W,1,03,1.8,25.1,M,-25.1,M,,0000*5A
$GPGSA,A,2,23,16,01,,,,,,,,,,2.0,1.8,1.0*3E
$GPRMC,201237.629,A,3747.6827,N,12215.4611,W,1.02,102.75,180412,,,A*73
$GPVTG,102.75,T,,M,1.02,N,1.9,K,N*08
$GPGGA,201238.629,3747.6819,N,12215.4606,W,1,03,1.8,25.1,M,-25.1,M,,0000*5E
$GPGSA,A,2,23,16,01,,,,,,,,,,2.0,1.8,1.0*3E
$GPRMC,201238.629,A,3747.6819,N,12215.4606,W,1.64,130.56,180412,,,A*77
$GPVTG,130.56,T,,M,1.64,N,3.0,K,N*03
$GPGGA,201239.629,3747.6790,N,12215.4594,W,1,03,1.8,25.1,M,-25.1,M,,0000*59
$GPGSA,A,2,23,16,01,,,,,,,,,,2.0,1.8,1.0*3E
$GPGSV,3,1,11,23,49,301,23,16,32,132,33,01,23,211,34,20,78,277,32*79
$GPGSV,3,2,11,30,43,099,22,31,27,044,,13,22,281,28,04,07,320,*7A
$GPGSV,3,3,11,11,07,201,31,07,05,225,27,48,44,197,37*4A
$GPRMC,201239.629,A,3747.6790,N,12215.4594,W,1.34,44.69,180412,,,A*4B
$GPVTG,44.69,T,,M,1.34,N,2.5,K,N*3C
$GPGGA,201240.629,3747.6848,N,12215.4603,W,1,03,1.8,25.1,M,-25.1,M,,0000*50
$GPGSA,A,2,23,16,01,,,,,,,,,,2.0,1.8,1.0*3E
$GPRMC,201240.629,A,3747.6848,N,12215.4603,W,1.16,53.37,180412,,,A*4F
$GPVTG,53.37,T,,M,1.16,N,2.2,K,N*36
$GPGGA,201241.629,3747.6836,N,12215.4596,W,1,03,1.8,25.1,M,-25.1,M,,0000*57
$GPGSA,A,2,23,16,01,,,,,,,,,,2.0,1.8,1.0*3E
$GPRMC,201241.629,A,3747.6836,N,12215.4596,W,0.94,81.57,180412,,,A*4A
$GPVTG,81.57,T,,M,0.94,N,1.7,K,N*32
$GPGGA,201242.629,3747.6802,N,12215.4585,W,1,03,1.8,25.1,M,-25.1,M,,0000*51
$GPGSA,A,2,23,16,01,,,,,,,,,,2.0,1.8,1.0*3E
$GPRMC,201242.629,A,3747.6802,N,12215.4585,W,1.64,133.51,180412,,,A*7C
$GPVTG,133.51,T,,M,1.64,N,3.0,K,N*07
$GPGGA,201243.629,3747.6862,N,12215.4595,W,1,03,1.8,25.1,M,-25.1,M,,0000*57
$GPGSA,A,2,23,16,01,,,,,,,,,,2.0,1.8,1.0*3E
$GPRMC,201243.629,A,3747.6862,N,12215.4595,W,1.87,139.92,180412,,,A*72
$GPVTG,139.92,T,,M,1.87,N,3.5,K,N*0A
$GPGGA,201244.629,3747.6832,N,12215.4584,W,1,03,1.8,25.1,M,-25.1,M,,0000*55
$GPGSA,A,2,23,16,01,,,,,,,,,,2.0,1.8,1.0*3E
$GPGSV,3,1,11,23,49,301,22,16,32,132,33,01,23,211,35,20,78,277,31*7A
$GPGSV,3,2,11,30,43,099,23,31,27,044,,13,22,281,27,04,07,320,*74
$GPGSV,3,3,11,11,07,201,30,07,05,225,27,48,44,197,35*49
$GPVTG,96.67,T,,M,0.95,N,1.8,K,N*39
$GPGGA,201245.629,3747.6770,N,12215.4568,W,1,03,1.8,25.1,M,-25.1,M,,0000*5F
$GPGSA,A,2,23,16,01,,,,,,,,,,2.0,1.8,1.0*3E
$GPRMC,201245.629,A,3747.6770,N,12215.4568,W,1.48,139.13,180412,,,A*70
$GPVTG,139.13,T,,M,1.48,N,2.7,K,N*03
$GPGGA,201246.629,3747.6806,N,12215.4573,W,1,03,1.8,25.1,M,-25.1,M,,0000*58
$GPGSA,A,2,23,16,01,,,,,,,,,,2.0,1.8,1.0*3E
$GPRMC,201246.629,A,3747.6806,N,12215.4573,W,1.29,131.02,180412,,,A*78
$GPVTG,131.02,T,,M,1.29,N,2.4,K,N*0F
$GPGGA,201247.629,3747.6806,N,12215.4569,W,1,03,1.8,25.1,M,-25.1,M,,0000*52
$GPGSA,A,2,23,16,01,,,,,,,,,,2.0,1.8,1.0*3E
$GPRMC,201247.629,A,3747.6806,N,12215.4569,W,2.03,141.59,180412,,,A*70
$GPVTG,141.59,T,,M,2.03,N,3.8,K,N*00
$GPGGA,201248.629,3747.6778,N,12215.4558,W,1,03,1.8,25.1,M,-25.1,M,,0000*59
$GPGSA,A,2,23,16,01,,,,,,,,,,2.0,1.8,1.0*3E
$GPRMC,201248.629,A,3747.6778,N,12215.4558,W,1.68,128.36,180412,,,A*73
$GPVTG,128.36,T,,M,1.68,N,3.1,K,N*01
$GPGGA,201249.629,3747.6780,N,12215.4555,W,1,03,1.8,25.1,M,-25.1,M,,0000*52
$GPGSA,A,2,23,16,01,,,,,,,,,,2.0,1.8,1.0*3E
$GPGSV,3,1,11,23,49,302,23,16,32,132,34,01,23,211,35,20,78,276,31*7E
$GPGSV,3,2,11,30,43,098,24,31,27,044,,13,22,281,27,04,07,320,*72
$GPGSV,3,3,11,11,07,200,34,07,05,225,29,48,44,197,36*41
$GPRMC,201249.629,A,3747.6780,N,12215.4555,W,0.92,54.31,180412,,,A*41
$GPVTG,54.31,T,,M,0.92,N,1.7,K,N*3C
$GPGGA,201250.629,3747.6798,N,12215.4560,W,1,03,1.8,25.1,M,-25.1,M,,0000*55
$GPGSA,A,2,23,16,01,,,,,,,,,,2.0,1.8,1.0*3E
$GPRMC,201250.629,A,3747.6798,N,12215.4560,W,0.46,257.02,180412,,,A*7E
$GPVTG,257.02,T,,M,0.46,N,0.9,K,N*0B
$GPGGA,201251.629,3747.6821,N,12215.4535,W,1,03,1.8,25.1,M,-25.1,M,,0000*59
$GPGSA,A,2,23,16,01,,,,,,,,,,2.0,1.8,1.0*3E
$GPRMC,201251.629,A,3747.6821,N,12215.4535,W,1.20,213.40,180412,,,A*75
$GPVTG,213.40,T,,M,1.20,N,2.2,K,N*05
$GPGGA,201252.629,3747.6863,N,12215.4516,W,1,04,2.5,7.9,M,-25.1,M,,0000*6C
$GPGSA,A,3,23,16,01,20,,,,,,,,,4.8,2.5,4.2*3A
$GPRMC,201252.629,A,3747.6863,N,12215.4516,W,1.21,214.80,180412,,,A*7B
$GPVTG,214.80,T,,M,1.21,N,2.2,K,A*00
$GPGGA,201253.629,3747.6870,N,12215.4508,W,1,04,2.5,8.4,M,-25.1,M,,0000*62
$GPGSA,A,3,23,16,01,20,,,,,,,,,4.8,2.5,4.2*3A
$GPRMC,201253.629,A,3747.6870,N,12215.4508,W,0.89,213.11,180412,,,A*7B
$GPVTG,213.11,T,,M,0.89,N,1.6,K,A*0B
$GPGGA,201254.629,3747.6867,N,12215.4509,W,1,03,46.1,8.8,M,-25.1,M,,0000*5D
$GPGSA,A,2,23,16,20,,,,,,,,,,46.1,46.1,1.0*36
$GPGSV,3,1,10,20,78,276,31,23,49,302,37,16,32,132,30,01,23,211,21*7B
$GPGSV,3,2,10,30,43,098,19,31,27,044,,13,22,281,34,04,07,320,*7F
$GPGSV,3,3,10,11,07,200,21,07,05,225,18*70
$GPRMC,201254.629,A,3747.6867,N,12215.4509,W,0.88,205.90,180412,,,A*74
$GPVTG,205.90,T,,M,0.88,N,1.6,K,N*0B
$GPGGA,201255.000,3747.6857,N,12215.4519,W,1,04,2.5,8.6,M,-25.1,M,,0000*6E
$GPGSA,A,3,23,16,01,20,,,,,,,,,4.8,2.5,4.2*3A
$GPRMC,201255.000,A,3747.6857,N,12215.4519,W,0.81,213.65,180412,,,A*7E
$GPVTG,213.65,T,,M,0.81,N,1.5,K,A*03
$GPGGA,201256.000,3747.6844,N,12215.4532,W,1,04,2.5,8.5,M,-25.1,M,,0000*65
$GPGSA,A,3,23,16,01,20,,,,,,,,,4.8,2.5,4.2*3A
$GPRMC,201256.000,A,3747.6844,N,12215.4532,W,0.11,324.54,180412,,,A*78
$GPVTG,324.54,T,,M,0.11,N,0.2,K,A*0B
$GPGGA,201257.000,3747.6856,N,12215.4518,W,1,04,2.5,8.9,M,-25.1,M,,0000*63
$GPGSA,A,3,23,16,01,20,,,,,,,,,4.8,2.5,4.2*3A
$GPRMC,201257.000,A,3747.6856,N,12215.4518,W,0.85,59.85,180412,,,A*4A
$GPVTG,59.85,T,,M,0.85,N,1.6,K,A*36
$GPGGA,201258.000,3747.6855,N,12215.4515,W,1,04,2.5,9.2,M,-25.1,M,,0000*68
$GPGSA,A,3,23,16,01,20,,,,,,,,,4.8,2.5,4.2*3A
$GPRMC,201258.000,A,3747.6855,N,12215.4515,W,0.94,113.60,180412,,,A*7F
$GPVTG,113.60,T,,M,0.94,N,1.7,K,A*03
$GPGGA,201259.000,3747.6845,N,12215.4512,W,1,04,2.5,11.5,M,-25.1,M,,0000*51
$GPGSA,A,3,23,16,01,20,,,,,,,,,4.8,2.5,4.2*3A
$GPGSV,3,1,11,20,78,276,31,23,49,302,23,16,32,132,36,01,23,211,32*7B
$GPGSV,3,2,11,30,43,098,22,31,27,044,,13,22,281,23,04,07,320,*70
$GPGSV,3,3,11,11,07,200,31,07,05,225,29,48,44,197,37*45
$GPRMC,201259.000,A,3747.6845,N,12215.4512,W,1.46,143.18,180412,,,A*7C
$GPVTG,143.18,T,,M,1.46,N,2.7,K,A*04
$GPGGA,201300.000,3747.6846,N,12215.4509,W,1,04,2.5,10.3,M,-25.1,M,,0000*52
$GPGSA,A,3,23,16,01,20,,,,,,,,,4.8,2.5,4.2*3A
$GPRMC,201300.000,A,3747.6846,N,12215.4509,W,1.97,147.73,180412,,,A*7D
$GPVTG,147.73,T,,M,1.97,N,3.6,K,A*01
$GPGGA,201301.000,3747.6830,N,12215.4511,W,1,04,2.5,11.3,M,-25.1,M,,0000*5A
$GPGSA,A,3,23,16,01,20,,,,,,,,,4.8,2.5,4.2*3A
$GPRMC,201301.000,A,3747.6830,N,12215.4511,W,2.10,146.15,180412,,,A*79
$GPVTG,146.15,T,,M,2.10,N,3.9,K,A*03
$GPGGA,201302.000,3747.6820,N,12215.4502,W,1,04,2.5,12.7,M,-25.1,M,,0000*5D
$GPGSA,A,3,23,16,01,20,,,,,,,,,4.8,2.5,4.2*3A
$GPRMC,201302.000,A,3747.6820,N,12215.4502,W,2.30,141.13,180412,,,A*7A
$GPVTG,141.13,T,,M,2.30,N,4.3,K,A*0D
$GPGGA,201303.000,3747.6812,N,12215.4495,W,1,04,2.5,13.2,M,-25.1,M,,0000*56
$GPGSA,A,3,23,16,01,20,,,,,,,,,4.8,2.5,4.2*3A
$GPRMC,201303.000,A,3747.6812,N,12215.4495,W,2.30,144.94,180412,,,A*7F
$GPVTG,144.94,T,,M,2.30,N,4.3,K,A*07
$GPGGA,201304.000,3747.6809,N,12215.4493,W,1,04,2.5,13.0,M,-25.1,M,,0000*5F
$GPGSA,A,3,23,16,01,20,,,,,,,,,4.8,2.5,4.2*3A
$GPGSV,3,1,11,20,78,276,31,23,49,302,25,16,32,132,35,01,23,211,36*7A
$GPGSV,3,2,11,30,43,098,37,31,27,044,,13,22,281,28,04,07,320,*7F
$GPGSV,3,3,11,11,07,200,30,07,05,225,26,48,44,197,38*44
$GPRMC,201304.000,A,3747.6809,N,12215.4493,W,2.12,148.75,180412,,,A*77
$GPVTG,148.75,T,,M,2.12,N,3.9,K,A*09
$GPGGA,201305.000,3747.6804,N,12215.4491,W,2,04,2.5,12.9,M,-25.1,M,1.8,0000*7D
$GPGSA,A,3,23,16,01,20,,,,,,,,,4.8,2.5,4.2*3A
$GPRMC,201305.000,A,3747.6804,N,12215.4491,W,1.90,175.99,180412,,,D*79
$GPVTG,175.99,T,,M,1.90,N,3.5,K,D*05
$GPGGA,201306.000,3747.6799,N,12215.4490,W,2,04,2.5,13.0,M,-25.1,M,1.8,0000*7C
$GPGSA,A,3,23,16,01,20,,,,,,,,,4.8,2.5,4.2*3A
$GPRMC,201306.000,A,3747.6799,N,12215.4490,W,2.12,170.98,180412,,,D*7D
$GPVTG,170.98,T,,M,2.12,N,3.9,K,D*04
$GPGGA,201307.000,3747.6786,N,12215.4494,W,2,04,2.5,13.3,M,-25.1,M,1.8,0000*74
$GPGSA,A,3,23,16,01,20,,,,,,,,,4.8,2.5,4.2*3A
$GPRMC,201307.000,A,3747.6786,N,12215.4494,W,2.10,132.05,180412,,,D*76
$GPVTG,132.05,T,,M,2.10,N,3.9,K,D*04
$GPGGA,201308.000,3747.6777,N,12215.4492,W,2,04,2.5,13.9,M,-25.1,M,1.8,0000*79
$GPGSA,A,3,23,16,01,20,,,,,,,,,4.8,2.5,4.2*3A
$GPRMC,201308.000,A,3747.6777,N,12215.4492,W,2.48,123.10,180412,,,D*78
$GPVTG,123.10,T,,M,2.48,N,4.6,K,D*05
$GPGGA,201309.000,3747.6774,N,12215.4488,W,2,04,2.5,13.6,M,-25.1,M,1.8,0000*7F
$GPGSA,A,3,23,16,01,20,,,,,,,,,4.8,2.5,4.2*3A
$GPGSV,3,1,11,20,78,276,31,23,49,302,25,16,32,132,35,01,23,211,32*7E
$GPGSV,3,2,11,30,43,098,36,31,27,044,31,13,22,281,26,04,07,320,*72
$GPGSV,3,3,11,11,07,200,30,07,05,225,23,48,44,197,35*4C
$GPRMC,201309.000,A,3747.6774,N,12215.4488,W,2.39,127.35,180412,,,D*74
$GPVTG,127.35,T,,M,2.39,N,4.4,K,D*02
$GPGGA,201310.000,3747.6778,N,12215.4481,W,2,04,2.5,10.8,M,-25.1,M,2.8,0000*7C
$GPGSA,A,3,23,16,01,20,,,,,,,,,4.8,2.5,4.2*3A
$GPRMC,201310.000,A,3747.6778,N,12215.4481,W,2.33,123.81,180412,,,D*78
$GPVTG,123.81,T,,M,2.33,N,4.3,K,D*04
$GPGGA,201311.000,3747.6777,N,12215.4476,W,2,04,2.5,10.1,M,-25.1,M,3.8,0000*72
$GPGSA,A,3,23,16,01,20,,,,,,,,,4.8,2.5,4.2*3A
$GPRMC,201311.000,A,3747.6777,N,12215.4476,W,2.06,127.14,180412,,,D*70
$GPVTG,127.14,T,,M,2.06,N,3.8,K,D*06
$GPGGA,201312.000,3747.6775,N,12215.4471,W,2,04,2.5,9.8,M,-25.1,M,4.8,0000*42
$GPGSA,A,3,23,16,01,20,,,,,,,,,4.8,2.5,4.2*3A
$GPRMC,201312.000,A,3747.6775,N,12215.4471,W,2.30,128.23,180412,,,D*78
$GPVTG,128.23,T,,M,2.30,N,4.3,K,D*04
$GPGGA,201313.000,3747.6766,N,12215.4463,W,2,04,2.5,10.6,M,-25.1,M,1.8,0000*71
$GPGSA,A,3,23,16,01,20,,,,,,,,,4.8,2.5,4.2*3A
$GPRMC,201313.000,A,3747.6766,N,12215.4463,W,2.15,132.04,180412,,,D*71
$GPVTG,132.04,T,,M,2.15,N,4.0,K,D*0E
$GPGGA,201314.000,3747.6758,N,12215.4455,W,2,04,2.5,11.6,M,-25.1,M,1.8,0000*7F
$GPGSA,A,3,23,16,01,20,,,,,,,,,4.8,2.5,4.2*3A
$GPGSV,3,1,11,20,78,276,31,23,49,302,26,16,32,132,35,01,23,211,33*7C
$GPGSV,3,2,11,30,43,098,36,31,27,044,33,13,22,281,26,04,07,320,*70
$GPGSV,3,3,11,11,07,200,31,07,05,225,27,48,44,197,36*4A
$GPRMC,201314.000,A,3747.6758,N,12215.4455,W,2.05,134.88,180412,,,D*7D
$GPGGA,201315.000,3747.6749,N,12215.4453,W,2,04,2.5,11.9,M,-25.1,M,1.8,0000*77
$GPGSA,A,3,23,16,01,20,,,,,,,,,4.8,2.5,4.2*3A
$GPRMC,201315.000,A,3747.6749,N,12215.4453,W,2.31,140.02,180412,,,D*7C
$GPVTG,140.02,T,,M,2.31,N,4.3,K,D*08
$GPGGA,201316.000,3747.6739,N,12215.4451,W,2,04,2.5,12.5,M,-25.1,M,1.8,0000*7E
$GPGSA,A,3,23,16,01,20,,,,,,,,,4.8,2.5,4.2*3A
$GPRMC,201316.000,A,3747.6739,N,12215.4451,W,2.11,141.06,180412,,,D*7D
$GPVTG,141.06,T,,M,2.11,N,3.9,K,D*02
$GPGGA,201317.000,3747.6735,N,12215.4448,W,2,04,2.5,12.3,M,-25.1,M,2.8,0000*7E
$GPGSA,A,3,23,16,01,20,,,,,,,,,4.8,2.5,4.2*3A
$GPRMC,201317.000,A,3747.6735,N,12215.4448,W,1.98,143.43,180412,,,D*79
$GPVTG,143.43,T,,M,1.98,N,3.7,K,D*0D
$GPGGA,201318.000,3747.6732,N,12215.4445,W,2,04,2.5,11.9,M,-25.1,M,1.8,0000*71
$GPGSA,A,3,23,16,01,20,,,,,,,,,4.8,2.5,4.1*39
$GPRMC,201318.000,A,3747.6732,N,12215.4445,W,2.17,143.85,180412,,,D*72
$GPVTG,143.85,T,,M,2.17,N,4.0,K,D*03
$GPGGA,201319.000,3747.6730,N,12215.4442,W,2,04,2.5,11.5,M,-25.1,M,1.8,0000*79
$GPGSA,A,3,23,16,01,20,,,,,,,,,4.8,2.5,4.1*39
$GPGSV,3,1,11,20,78,275,31,23,49,302,26,30,43,098,36,16,32,132,35*7D
$GPGSV,3,2,11,31,27,044,32,01,23,211,34,13,22,281,26,04,07,320,*74
$GPGSV,3,3,11,11,07,200,31,07,05,225,28,48,44,197,36*45
$GPRMC,201319.000,A,3747.6730,N,12215.4442,W,1.88,144.96,180412,,,D*76
$GPVTG,144.96,T,,M,1.88,N,3.5,K,D*01
$GPGGA,201320.000,3747.6724,N,12215.4438,W,2,04,2.5,11.7,M,-25.1,M,1.8,0000*79
$GPGSA,A,3,23,16,01,20,,,,,,,,,4.8,2.5,4.1*39
$GPRMC,201320.000,A,3747.6724,N,12215.4438,W,1.99,144.05,180412,,,D*7E
$GPVTG,144.05,T,,M,1.99,N,3.7,K,D*09
$GPGGA,201321.000,3747.6719,N,12215.4434,W,2,04,2.5,11.8,M,-25.1,M,1.8,0000*75
$GPGSA,A,3,23,16,01,20,,,,,,,,,4.8,2.5,4.1*39
$GPRMC,201321.000,A,3747.6719,N,12215.4434,W,1.98,142.07,180412,,,D*78
$GPVTG,142.07,T,,M,1.98,N,3.7,K,D*0C
$GPGGA,201322.000,3747.6715,N,12215.4430,W,2,04,2.5,11.9,M,-25.1,M,2.8,0000*7C
$GPGSA,A,3,23,16,01,20,,,,,,,,,4.8,2.5,4.1*39
$GPRMC,201322.000,A,3747.6715,N,12215.4430,W,2.10,142.94,180412,,,D*7A
$GPVTG,142.94,T,,M,2.10,N,3.9,K,D*0B
$GPGGA,201323.000,3747.6706,N,12215.4425,W,2,04,2.5,12.3,M,-25.1,M,1.8,0000*71
$GPGSA,A,3,23,16,01,20,,,,,,,,,4.8,2.5,4.1*39
$GPRMC,201323.000,A,3747.6706,N,12215.4425,W,2.59,146.47,180412,,,D*7A
$GPVTG,146.47,T,,M,2.59,N,4.8,K,D*0A
$GPGGA,201324.000,3747.6699,N,12215.4421,W,2,04,2.5,12.6,M,-25.1,M,2.8,0000*73
$GPGSA,A,3,23,16,01,20,,,,,,,,,4.8,2.5,4.1*39
$GPGSV,3,1,11,20,78,275,32,23,49,302,27,30,43,098,20,16,32,132,34*79
$GPGSV,3,2,11,31,27,044,31,01,23,211,34,13,22,281,27,04,07,320,*76
$GPGSV,3,3,11,11,07,200,30,07,05,225,24,48,44,197,34*4A
$GPRMC,201324.000,A,3747.6699,N,12215.4421,W,2.28,143.85,180412,,,D*73
$GPVTG,143.85,T,,M,2.28,N,4.2,K,D*0D
$GPGGA,201325.000,3747.6693,N,12215.4417,W,2,04,2.5,12.7,M,-25.1,M,1.8,0000*7F
$GPGSA,A,3,23,16,01,20,,,,,,,,,4.8,2.5,4.1*39
$GPRMC,201325.000,A,3747.6693,N,12215.4417,W,1.79,146.75,180412,,,D*70
$GPVTG,146.75,T,,M,1.79,N,3.3,K,D*06
$GPGGA,201326.000,3747.6688,N,12215.4414,W,2,04,2.5,12.9,M,-25.1,M,1.8,0000*7B
$GPGSA,A,3,23,16,01,20,,,,,,,,,4.8,2.5,4.1*39
$GPRMC,201326.000,A,3747.6688,N,12215.4414,W,1.63,144.06,180412,,,D*77
$GPVTG,144.06,T,,M,1.63,N,3.0,K,D*08
$GPGGA,201327.000,3747.6683,N,12215.4411,W,2,04,2.5,13.0,M,-25.1,M,1.8,0000*7C
$GPGSA,A,3,23,16,01,20,,,,,,,,,4.8,2.5,4.1*39
$GPRMC,201327.000,A,3747.6683,N,12215.4411,W,1.47,151.63,180412,,,D*79
$GPVTG,151.63,T,,M,1.47,N,2.7,K,D*0F
$GPGGA,201328.000,3747.6678,N,12215.4408,W,2,04,2.5,13.6,M,-25.1,M,2.8,0000*7A
$GPGSA,A,3,23,16,01,20,,,,,,,,,4.8,2.5,4.1*39
$GPRMC,201328.000,A,3747.6678,N,12215.4408,W,1.28,145.03,180412,,,D*70
$GPVTG,145.03,T,,M,1.28,N,2.4,K,D*06
$GPGGA,201329.000,3747.6676,N,12215.4405,W,2,04,2.5,13.3,M,-25.1,M,3.8,0000*7C
$GPGSA,A,3,23,16,01,20,,,,,,,,,4.8,2.5,4.1*39
$GPGSV,3,1,11,20,78,275,32,23,49,302,27,30,43,098,23,16,32,132,30*7E
$GPGSV,3,2,11,31,27,044,21,01,23,211,32,13,22,281,27,04,07,320,*71
$GPGSV,3,3,11,11,07,200,23,07,05,225,25,48,44,197,34*49
$GPRMC,201329.000,A,3747.6676,N,12215.4405,W,1.40,135.92,180412,,,D*73
$GPGGA,201330.000,3747.6679,N,12215.4401,W,2,04,2.5,11.7,M,-25.1,M,4.8,0000*7E
$GPGSA,A,3,23,16,01,20,,,,,,,,,4.8,2.5,4.1*39
$GPRMC,201330.000,A,3747.6679,N,12215.4401,W,1.58,136.22,180412,,,D*71
$GPVTG,136.22,T,,M,1.58,N,2.9,K,D*0B
$GPGGA,201331.000,3747.6673,N,12215.4395,W,2,04,2.5,12.7,M,-25.1,M,1.8,0000*79
$GPGSA,A,3,23,16,01,20,,,,,,,,,4.8,2.5,4.1*39
$GPRMC,201331.000,A,3747.6673,N,12215.4395,W,1.94,137.64,180412,,,D*73
$GPVTG,137.64,T,,M,1.94,N,3.6,K,D*06
$GPGGA,201332.000,3747.6674,N,12215.4388,W,2,04,2.5,12.2,M,-25.1,M,1.8,0000*74
$GPGSA,A,3,23,16,01,20,,,,,,,,,4.8,2.5,4.1*39
$GPRMC,201332.000,A,3747.6674,N,12215.4388,W,1.64,148.85,180412,,,D*73
$GPVTG,148.85,T,,M,1.64,N,3.0,K,D*08
$GPGGA,201333.000,3747.6679,N,12215.4380,W,2,04,2.5,11.0,M,-25.1,M,1.8,0000*71
$GPGSA,A,3,23,16,01,20,,,,,,,,,4.8,2.5,4.1*39
$GPRMC,201333.000,A,3747.6679,N,12215.4380,W,1.38,133.37,180412,,,D*7B
$GPVTG,133.37,T,,M,1.38,N,2.5,K,D*00
$GPGGA,201334.000,3747.6682,N,12215.4374,W,2,04,2.5,9.9,M,-25.1,M,1.8,0000*49
$GPGSA,A,3,23,16,01,20,,,,,,,,,4.8,2.5,4.1*39
$GPGSV,3,1,11,20,78,275,28,23,49,302,24,30,43,098,28,16,32,132,30*7D
$GPGSV,3,2,11,31,27,044,18,01,23,211,24,13,22,281,24,04,07,320,*7F
$GPGSV,3,3,11,11,07,200,21,07,05,225,24,48,44,197,35*4B
$GPRMC,201334.000,A,3747.6682,N,12215.4374,W,1.70,127.02,180412,,,D*7C
$GPVTG,127.02,T,,M,1.70,N,3.2,K,D*09
$GPGGA,201335.000,3747.6684,N,12215.4368,W,2,04,2.5,8.6,M,-25.1,M,2.8,0000*4E
$GPGSA,A,3,23,16,01,20,,,,,,,,,4.8,2.5,4.1*39
$GPRMC,201335.000,A,3747.6684,N,12215.4368,W,1.77,116.58,180412,,,D*7C
$GPVTG,116.58,T,,M,1.77,N,3.3,K,D*02
$GPGGA,201336.000,3747.6678,N,12215.4366,W,2,04,2.5,8.2,M,-25.1,M,1.8,0000*47
$GPGSA,A,3,23,16,01,20,,,,,,,,,4.8,2.5,4.1*39
$GPRMC,201336.000,A,3747.6678,N,12215.4366,W,1.44,140.20,180412,,,D*7E
$GPVTG,140.20,T,,M,1.44,N,2.7,K,D*0B
$GPGGA,201337.000,3747.6673,N,12215.4368,W,2,04,2.5,7.8,M,-25.1,M,1.8,0000*46
$GPGSA,A,3,23,16,01,20,,,,,,,,,4.8,2.5,4.1*39
$GPRMC,201337.000,A,3747.6673,N,12215.4368,W,1.22,174.35,180412,,,D*79
$GPVTG,174.35,T,,M,1.22,N,2.3,K,D*0C
$GPGGA,201338.000,3747.6674,N,12215.4366,W,2,04,2.5,6.6,M,-25.1,M,1.8,0000*4F
$GPGSA,A,3,23,16,01,20,,,,,,,,,4.8,2.5,4.1*39
$GPRMC,201338.000,A,3747.6674,N,12215.4366,W,1.67,144.93,180412,,,D*71
$GPVTG,144.93,T,,M,1.67,N,3.1,K,D*01
$GPGGA,201339.000,3747.6672,N,12215.4362,W,2,04,2.5,5.7,M,-25.1,M,1.8,0000*4E
$GPGSA,A,3,23,16,01,20,,,,,,,,,4.8,2.5,4.1*39
$GPGSV,3,1,11,20,78,275,29,23,49,302,23,30,43,098,34,16,32,132,39*7F
$GPGSV,3,2,11,31,27,044,24,01,23,211,30,13,22,281,24,04,07,320,*75
$GPGSV,3,3,11,11,07,200,20,07,05,225,23,48,44,197,36*4E
$GPRMC,201339.000,A,3747.6672,N,12215.4362,W,1.58,136.03,180412,,,D*72
$GPVTG,136.03,T,,M,1.58,N,2.9,K,D*08
$GPGGA,201339.000,3747.6662,N,12215.4358,W,2,04,2.5,7.0,M,-25.1,M,2.8,0000*40
$GPGSA,A,3,23,16,01,20,,,,,,,,,4.8,2.5,4.1*39
$GPRMC,201339.000,A,3747.6662,N,12215.4358,W,1.74,138.92,180412,,,D*72
$GPVTG,138.92,T,,M,1.74,N,3.2,K,D*0A
$GPGGA,201340.000,3747.6654,N,12215.4353,W,2,04,2.5,7.7,M,-25.1,M,3.8,0000*46
$GPGSA,A,3,23,16,01,20,,,,,,,,,4.8,2.5,4.1*39
$GPRMC,201340.000,A,3747.6654,N,12215.4353,W,1.58,132.66,180412,,,D*7D
$GPVTG,132.66,T,,M,1.58,N,2.9,K,D*0F
$GPGGA,201341.000,3747.6646,N,12215.4349,W,2,04,2.5,8.6,M,-25.1,M,4.8,0000*46
$GPGSA,A,3,23,16,01,20,,,,,,,,,4.8,2.5,4.1*39
$GPRMC,201341.000,A,3747.6646,N,12215.4349,W,2.05,138.89,180412,,,D*74
$GPVTG,138.89,T,,M,2.05,N,3.8,K,D*0F
$GPGGA,201342.000,3747.6640,N,12215.4344,W,2,04,2.5,8.9,M,-25.1,M,1.8,0000*44
$GPGSA,A,3,23,16,01,20,,,,,,,,,4.8,2.5,4.1*39
$GPRMC,201342.000,A,3747.6640,N,12215.4344,W,1.74,135.60,180412,,,D*73
$GPVTG,135.60,T,,M,1.74,N,3.2,K,D*0A
$GPGGA,201343.000,3747.6633,N,12215.4338,W,2,04,2.5,9.5,M,-25.1,M,1.8,0000*47
$GPGSA,A,3,23,16,01,20,,,,,,,,,4.8,2.5,4.1*39
$GPGSV,3,1,11,20,78,275,21,23,49,302,23,30,43,098,36,16,32,132,35*79
$GPGSV,3,2,11,31,27,044,21,01,23,211,32,13,22,281,22,04,07,320,*74
$GPGSV,3,3,11,11,07,200,31,07,05,225,27,48,44,197,31*4D
$GPRMC,201343.000,A,3747.6633,N,12215.4338,W,1.84,140.69,180412,,,D*79
$GPGGA,201344.000,3747.6636,N,12215.4332,W,2,04,2.5,7.6,M,-25.1,M,1.8,0000*42
$GPGSA,A,3,23,16,01,20,,,,,,,,,4.8,2.5,4.1*39
$GPRMC,201344.000,A,3747.6636,N,12215.4332,W,1.65,127.24,180412,,,D*76
$GPVTG,127.24,T,,M,1.65,N,3.0,K,D*0B
$GPGGA,201345.000,3747.6629,N,12215.4328,W,2,04,2.5,7.5,M,-25.1,M,1.8,0000*45
$GPGSA,A,3,23,16,01,20,,,,,,,,,4.8,2.5,4.1*39
$GPRMC,201345.000,A,3747.6629,N,12215.4328,W,2.28,157.71,180412,,,D*7F
$GPVTG,157.71,T,,M,2.28,N,4.2,K,D*03
$GPGGA,201346.000,3747.6623,N,12215.4321,W,2,04,2.5,6.6,M,-25.1,M,2.8,0000*44
$GPGSA,A,3,23,16,01,20,,,,,,,,,4.8,2.5,4.1*39
$GPRMC,201346.000,A,3747.6623,N,12215.4321,W,2.04,144.10,180412,,,D*74
$GPVTG,144.10,T,,M,2.04,N,3.8,K,D*05
$GPGGA,201347.000,3747.6613,N,12215.4315,W,2,04,2.5,6.5,M,-25.1,M,3.8,0000*43
$GPGSA,A,3,23,16,01,20,,,,,,,,,4.8,2.5,4.1*39
$GPRMC,201347.000,A,3747.6613,N,12215.4315,W,2.16,147.43,180412,,,D*77
$GPVTG,147.43,T,,M,2.16,N,4.0,K,D*0C
$GPGGA,201348.000,3747.6601,N,12215.4310,W,2,04,2.5,6.9,M,-25.1,M,1.8,0000*44
$GPGSA,A,3,23,16,01,20,,,,,,,,,4.8,2.5,4.1*39
$GPGSV,3,1,11,20,78,274,21,23,50,302,23,30,43,098,35,16,33,132,34*73
$GPGSV,3,2,11,31,27,044,22,01,23,211,30,13,22,281,24,04,07,320,*73
$GPGSV,3,3,11,11,06,200,28,07,06,225,24,48,44,197,29*4D
$GPRMC,201348.000,A,3747.6601,N,12215.4310,W,1.97,144.69,180412,,,D*7F
$GPVTG,144.69,T,,M,1.97,N,3.6,K,D*0C
$GPGGA,201349.000,3747.6598,N,12215.4305,W,2,04,2.5,5.8,M,-25.1,M,2.8,0000*43
$GPGSA,A,3,23,16,01,20,,,,,,,,,4.8,2.5,4.1*39
$GPRMC,201349.000,A,3747.6598,N,12215.4305,W,1.73,137.74,180412,,,D*7B
$GPVTG,137.74,T,,M,1.73,N,3.2,K,D*0A
$GPGGA,201350.000,3747.6594,N,12215.4299,W,2,04,2.5,3.7,M,-25.1,M,3.8,0000*4B
$GPGSA,A,3,23,16,01,20,,,,,,,,,4.8,2.5,4.1*39
$GPRMC,201350.000,A,3747.6594,N,12215.4299,W,1.84,140.93,180412,,,D*7A
$GPVTG,140.93,T,,M,1.84,N,3.4,K,D*0D
$GPGGA,201351.000,3747.6595,N,12215.4295,W,2,04,2.5,0.5,M,-25.1,M,4.8,0000*41
$GPGSA,A,3,23,16,01,20,,,,,,,,,4.8,2.5,4.1*39
$GPRMC,201351.000,A,3747.6595,N,12215.4295,W,1.52,141.62,180412,,,D*72
$GPVTG,141.62,T,,M,1.52,N,2.8,K,D*04
$GPGGA,201352.000,3747.6590,N,12215.4292,W,2,04,2.5,-0.1,M,-25.1,M,5.8,0000*68
$GPGSA,A,3,23,16,01,20,,,,,,,,,4.8,2.5,4.1*39
$GPRMC,201352.000,A,3747.6590,N,12215.4292,W,1.30,134.90,180412,,,D*78
$GPVTG,134.90,T,,M,1.30,N,2.4,K,D*03
$GPGGA,201353.000,3747.6590,N,12215.4289,W,2,04,2.5,-2.6,M,-25.1,M,6.8,0000*65
$GPGSA,A,3,23,16,01,20,,,,,,,,,4.8,2.5,4.1*39
$GPGSV,3,1,11,20,78,274,21,23,50,302,23,30,43,098,32,16,33,132,33*73
$GPGSV,3,2,11,31,27,044,22,01,23,211,31,13,22,281,30,04,07,320,*77
$GPGSV,3,3,11,11,06,200,25,07,06,225,22,48,44,197,30*4E
$GPRMC,201353.000,A,3747.6590,N,12215.4289,W,1.08,144.30,180412,,,D*75
$GPVTG,144.30,T,,M,1.08,N,2.0,K,D*01
$GPGGA,201354.000,3747.6591,N,12215.4281,W,2,04,2.5,-4.2,M,-25.1,M,1.8,0000*6E
$GPGSA,A,3,23,16,01,20,,,,,,,,,4.8,2.5,4.1*39
$GPRMC,201354.000,A,3747.6591,N,12215.4281,W,1.65,118.80,180412,,,D*72
$GPVTG,118.80,T,,M,1.65,N,3.1,K,D*08
$GPGGA,201355.000,3747.6590,N,12215.4278,W,2,04,2.5,-5.5,M,-25.1,M,2.8,0000*6D
$GPGSA,A,3,23,16,01,20,,,,,,,,,4.8,2.5,4.1*39
$GPRMC,201355.000,A,3747.6590,N,12215.4278,W,1.63,118.40,180412,,,D*7E
$GPVTG,118.40,T,,M,1.63,N,3.0,K,D*03
$GPGGA,201356.000,3747.6582,N,12215.4274,W,2,04,2.5,-5.2,M,-25.1,M,1.8,0000*65
$GPGSA,A,3,23,16,01,20,,,,,,,,,4.8,2.5,4.1*39
$GPRMC,201356.000,A,3747.6582,N,12215.4274,W,1.88,126.48,180412,,,D*72
$GPVTG,126.48,T,,M,1.88,N,3.5,K,D*06
$GPGGA,201357.000,3747.6573,N,12215.4269,W,2,04,2.5,-4.4,M,-25.1,M,2.8,0000*62
$GPGSA,A,3,23,16,01,20,,,,,,,,,4.8,2.5,4.1*39
$GPRMC,201357.000,A,3747.6573,N,12215.4269,W,2.00,129.13,180412,,,D*73
$GPVTG,129.13,T,,M,2.00,N,3.7,K,D*06
$GPGGA,201358.000,3747.6565,N,12215.4264,W,2,04,2.5,-3.7,M,-25.1,M,3.8,0000*62
$GPGSA,A,3,23,16,01,20,,,,,,,,,4.8,2.5,4.1*39
$GPGSV,3,1,11,20,78,274,34,23,50,302,27,30,43,098,34,16,33,132,30*76
$GPGSV,3,2,11,31,27,044,21,01,23,211,31,13,22,281,30,04,07,320,*74
$GPGSV,3,3,11,11,06,200,29,07,06,225,19,48,44,197,36*4C
$GPRMC,201358.000,A,3747.6565,N,12215.4264,W,1.90,131.87,180412,,,D*78
$GPGGA,201359.000,3747.6559,N,12215.4260,W,2,04,2.5,-3.3,M,-25.1,M,4.8,0000*6B
$GPGSA,A,3,23,16,01,20,,,,,,,,,4.8,2.5,4.1*39
$GPRMC,201359.000,A,3747.6559,N,12215.4260,W,1.86,129.97,180412,,,D*7D
$GPVTG,129.97,T,,M,1.86,N,3.4,K,D*04
$GPGGA,201400.000,3747.6555,N,12215.4257,W,2,04,2.5,-3.3,M,-25.1,M,0.8,0000*6C
$GPGSA,A,3,23,16,01,20,,,,,,,,,4.8,2.5,4.1*39
$GPRMC,201400.000,A,3747.6555,N,12215.4257,W,1.56,136.33,180412,,,D*73
$GPVTG,136.33,T,,M,1.56,N,2.9,K,D*05
$GPGGA,201401.000,3747.6552,N,12215.4254,W,2,04,2.5,-3.4,M,-25.1,M,1.8,0000*6F
$GPGSA,A,3,23,16,01,20,,,,,,,,,4.8,2.5,4.1*39
$GPRMC,201401.000,A,3747.6552,N,12215.4254,W,1.59,139.43,180412,,,D*71
$GPVTG,139.43,T,,M,1.59,N,2.9,K,D*02
$GPGGA,201402.000,3747.6548,N,12215.4252,W,2,04,2.5,-3.5,M,-25.1,M,1.8,0000*60
$GPGSA,A,3,23,16,01,20,,,,,,,,,4.8,2.5,4.1*39
$GPRMC,201402.000,A,3747.6548,N,12215.4252,W,1.73,137.02,180412,,,D*7C
$GPVTG,137.02,T,,M,1.73,N,3.2,K,D*0B
$GPGGA,201403.000,3747.6544,N,12215.4249,W,2,04,2.5,-3.4,M,-25.1,M,2.8,0000*65
$GPGSA,A,3,23,16,01,20,,,,,,,,,4.8,2.5,4.1*39
$GPGSV,3,1,11,20,78,274,34,23,50,302,28,30,43,098,28,16,33,132,34*70
$GPGSV,3,2,11,31,27,044,21,01,23,211,33,13,22,281,29,04,07,320,*7E
$GPGSV,3,3,11,11,06,200,25,07,06,225,24,48,44,197,36*4E
$GPRMC,201403.000,A,3747.6544,N,12215.4249,W,1.85,137.97,180412,,,D*7E
$GPVTG,137.97,T,,M,1.85,N,3.4,K,D*08
$GPGGA,201404.000,3747.6543,N,12215.4246,W,2,04,2.5,-4.0,M,-25.1,M,3.8,0000*68
$GPGSA,A,3,23,16,01,20,,,,,,,,,4.8,2.5,4.1*39
$GPRMC,201404.000,A,3747.6543,N,12215.4246,W,1.45,139.00,180412,,,D*7D
$GPVTG,139.00,T,,M,1.45,N,2.7,K,D*06
$GPGGA,201405.000,3747.6541,N,12215.4243,W,2,04,2.5,-4.4,M,-25.1,M,1.8,0000*68
$GPGSA,A,3,23,16,01,20,,,,,,,,,4.8,2.5,4.1*39
$GPRMC,201405.000,A,3747.6541,N,12215.4243,W,1.53,128.08,180412,,,D*74
$GPVTG,128.08,T,,M,1.53,N,2.8,K,D*06
$GPGGA,201406.000,3747.6536,N,12215.4238,W,2,04,2.5,-4.2,M,-25.1,M,1.8,0000*61
$GPGSA,A,3,23,16,01,20,,,,,,,,,4.8,2.5,4.1*39
$GPRMC,201406.000,A,3747.6536,N,12215.4238,W,1.84,127.14,180412,,,D*73
$GPVTG,127.14,T,,M,1.84,N,3.4,K,D*03
$GPGGA,201407.000,3747.6532,N,12215.4232,W,2,04,2.5,-4.2,M,-25.1,M,1.8,0000*6E
$GPGSA,A,3,23,16,01,20,,,,,,,,,4.8,2.5,4.1*39
$GPRMC,201407.000,A,3747.6532,N,12215.4232,W,1.87,130.45,180412,,,D*7D
$GPVTG,130.45,T,,M,1.87,N,3.5,K,D*03
$GPGGA,201408.000,3747.6533,N,12215.4228,W,2,04,2.5,-5.4,M,-25.1,M,1.8,0000*6C
$GPGSA,A,3,23,16,01,20,,,,,,,,,4.8,2.5,4.1*39
$GPGSV,3,1,11,20,78,274,34,23,50,302,28,30,43,098,21,16,33,132,33*7E
$GPGSV,3,2,11,31,27,044,21,01,23,211,33,13,22,281,29,04,07,320,*7E
$GPGSV,3,3,11,11,06,200,31,07,06,225,30,48,44,197,37*4F
$GPRMC,201408.000,A,3747.6533,N,12215.4228,W,1.54,122.48,180412,,,D*78
$GPVTG,122.48,T,,M,1.54,N,2.9,K,D*0E
$GPGGA,201409.000,3747.6534,N,12215.4224,W,2,04,2.5,-6.7,M,-25.1,M,2.8,0000*65
$GPGSA,A,3,23,16,01,20,,,,,,,,,4.8,2.5,4.1*39
$GPRMC,201409.000,A,3747.6534,N,12215.4224,W,1.58,130.37,180412,,,D*75
$GPVTG,130.37,T,,M,1.58,N,2.9,K,D*09
$GPGGA,201410.000,3747.6531,N,12215.4219,W,2,04,2.5,-7.0,M,-25.1,M,1.8,0000*63
$GPGSA,A,3,23,16,01,20,,,,,,,,,4.8,2.5,4.1*39
$GPRMC,201410.000,A,3747.6531,N,12215.4219,W,1.47,127.83,180412,,,D*71
$GPVTG,127.83,T,,M,1.47,N,2.7,K,D*00
$GPGGA,201411.000,3747.6528,N,12215.4214,W,2,04,2.5,-7.3,M,-25.1,M,2.8,0000*67
$GPGSA,A,3,23,16,01,20,,,,,,,,,4.8,2.5,4.1*39
$GPRMC,201411.000,A,3747.6528,N,12215.4214,W,1.22,111.24,180412,,,D*7E
$GPVTG,111.24,T,,M,1.22,N,2.3,K,D*0F
$GPGGA,201412.000,3747.6523,N,12215.4210,W,2,04,2.5,-7.0,M,-25.1,M,1.8,0000*6B
$GPGSA,A,3,23,16,01,20,,,,,,,,,4.8,2.5,4.1*39
$GPRMC,201412.000,A,3747.6523,N,12215.4210,W,1.59,126.68,180412,,,D*72
$GPVTG,126.68,T,,M,1.59,N,2.9,K,D*05
$GPGGA,201413.000,3747.6519,N,12215.4205,W,2,04,2.5,-7.0,M,-25.1,M,1.8,0000*67
$GPGSA,A,3,23,16,01,20,,,,,,,,,4.8,2.5,4.1*39
$GPGSV,3,1,11,20,78,274,32,23,50,302,28,30,43,098,22,16,33,132,33*7B
$GPGSV,3,2,11,31,27,044,21,01,23,211,34,13,22,281,28,04,07,320,19*70
$GPGSV,3,3,11,11,06,200,26,07,06,225,23,48,44,197,34*48
$GPRMC,201413.000,A,3747.6519,N,12215.4205,W,1.35,127.53,180412,,,D*7D
$GPGGA,201414.000,3747.6518,N,12215.4201,W,2,04,2.5,-7.5,M,-25.1,M,1.8,0000*60
$GPGSA,A,3,23,16,01,20,,,,,,,,,4.8,2.5,4.1*39
$GPRMC,201414.000,A,3747.6518,N,12215.4201,W,1.49,123.78,180412,,,D*79
$GPVTG,123.78,T,,M,1.49,N,2.8,K,D*01
$GPGGA,201415.000,3747.6510,N,12215.4196,W,2,04,2.5,-6.6,M,-25.1,M,2.8,0000*65
$GPGSA,A,3,23,16,01,20,,,,,,,,,4.8,2.5,4.1*39
$GPRMC,201415.000,A,3747.6510,N,12215.4196,W,1.82,132.64,180412,,,D*77
$GPVTG,132.64,T,,M,1.82,N,3.4,K,D*06
$GPGGA,201416.000,3747.6502,N,12215.4191,W,2,04,2.5,-5.9,M,-25.1,M,3.8,0000*6F
$GPGSA,A,3,23,16,01,20,,,,,,,,,4.8,2.5,4.1*39
$GPRMC,201416.000,A,3747.6502,N,12215.4191,W,1.77,138.92,180412,,,D*79
$GPVTG,138.92,T,,M,1.77,N,3.3,K,D*08
$GPGGA,201417.000,3747.6495,N,12215.4186,W,2,04,2.5,-5.2,M,-25.1,M,1.8,0000*6E
$GPGSA,A,3,23,16,01,20,,,,,,,,,4.8,2.5,4.1*39
$GPRMC,201417.000,A,3747.6495,N,12215.4186,W,1.89,140.68,180412,,,D*7A
$GPVTG,140.68,T,,M,1.89,N,3.5,K,D*05
$GPGGA,201418.000,3747.6486,N,12215.4181,W,2,04,2.5,-4.3,M,-25.1,M,1.8,0000*64
$GPGSA,A,3,23,16,01,20,,,,,,,,,4.8,2.5,4.1*39
$GPGSV,3,1,11,20,79,273,33,23,50,302,27,30,43,097,31,16,33,131,33*7D
$GPGSV,3,2,11,31,26,044,21,01,23,211,31,13,22,281,29,04,08,319,19*70
$GPGSV,3,3,11,11,06,200,27,07,06,225,24,48,44,197,33*49
$GPRMC,201418.000,A,3747.6486,N,12215.4181,W,1.77,134.29,180412,,,D*77
$GPVTG,134.29,T,,M,1.77,N,3.3,K,D*04
$GPGGA,201419.000,3747.6476,N,12215.4176,W,2,04,2.5,-2.9,M,-25.1,M,1.8,0000*6E
$GPGSA,A,3,23,16,01,20,,,,,,,,,4.8,2.5,4.1*39
$GPRMC,201419.000,A,3747.6476,N,12215.4176,W,1.73,136.52,180412,,,D*7B
$GPVTG,136.52,T,,M,1.73,N,3.2,K,D*0F
$GPGGA,201420.000,3747.6467,N,12215.4171,W,2,04,2.5,-1.6,M,-25.1,M,1.8,0000*6F
$GPGSA,A,3,23,16,01,20,,,,,,,,,4.8,2.5,4.1*39
$GPRMC,201420.000,A,3747.6467,N,12215.4171,W,2.05,139.06,180412,,,D*7A
$GPVTG,139.06,T,,M,2.05,N,3.8,K,D*09
$GPGGA,201421.000,3747.6460,N,12215.4166,W,2,04,2.5,-0.9,M,-25.1,M,2.8,0000*62
$GPGSA,A,3,23,16,01,20,,,,,,,,,4.8,2.5,4.1*39
$GPRMC,201421.000,A,3747.6460,N,12215.4166,W,2.08,142.16,180412,,,D*7A
$GPVTG,142.16,T,,M,2.08,N,3.8,K,D*09
$GPGGA,201422.000,3747.6458,N,12215.4161,W,2,04,2.5,-1.3,M,-25.1,M,3.8,0000*67
$GPGSA,A,3,23,16,01,20,,,,,,,,,4.8,2.5,4.1*39
$GPRMC,201422.000,A,3747.6458,N,12215.4161,W,1.84,142.20,180412,,,D*77
$GPVTG,142.20,T,,M,1.84,N,3.4,K,D*07
$GPGGA,201423.000,3747.6452,N,12215.4157,W,2,04,2.5,-0.9,M,-25.1,M,4.8,0000*65
$GPGSA,A,3,23,16,01,20,,,,,,,,,4.8,2.5,4.1*39
$GPGSV,3,1,11,20,79,273,33,23,50,302,27,30,43,097,35,16,33,131,34*7E
$GPGSV,3,2,11,31,26,044,34,01,23,211,32,13,22,281,28,04,08,319,19*76
$GPGSV,3,3,11,11,06,200,30,07,06,225,24,48,44,197,35*49
$GPRMC,201423.000,A,3747.6452,N,12215.4157,W,1.95,143.31,180412,,,D*78
$GPVTG,143.31,T,,M,1.95,N,3.6,K,D*04
$GPGGA,201424.000,3747.6444,N,12215.4153,W,2,04,2.5,0.1,M,-25.1,M,1.8,0000*41
$GPGSA,A,3,23,16,01,20,,,,,,,,,4.8,2.5,4.1*39
$GPRMC,201424.000,A,3747.6444,N,12215.4153,W,2.29,146.81,180412,,,D*76
$GPVTG,146.81,T,,M,2.29,N,4.2,K,D*0D
$GPGGA,201425.000,3747.6439,N,12215.4148,W,2,04,2.5,0.4,M,-25.1,M,1.8,0000*45
$GPGSA,A,3,23,16,01,20,,,,,,,,,4.8,2.5,4.1*39
$GPRMC,201425.000,A,3747.6439,N,12215.4148,W,1.91,140.62,180412,,,D*7C
$GPVTG,140.62,T,,M,1.91,N,3.5,K,D*06
$GPGGA,201426.000,3747.6434,N,12215.4144,W,2,04,2.5,0.7,M,-25.1,M,1.8,0000*44
$GPGSA,A,3,23,16,01,20,,,,,,,,,4.8,2.5,4.1*39
$GPRMC,201426.000,A,3747.6434,N,12215.4144,W,2.20,142.23,180412,,,D*70
$GPVTG,142.23,T,,M,2.20,N,4.1,K,D*0B
$GPGGA,201427.000,3747.6426,N,12215.4139,W,2,05,2.4,1.7,M,-25.1,M,1.8,0000*4D
$GPGSA,A,3,23,16,01,20,11,,,,,,,,4.2,2.4,3.4*30
$GPRMC,201427.000,A,3747.6426,N,12215.4139,W,2.10,141.93,180412,,,D*73
$GPVTG,141.93,T,,M,2.10,N,3.9,K,D*0F
$GPGGA,201428.000,3747.6417,N,12215.4133,W,2,05,2.4,3.1,M,-25.1,M,1.8,0000*4E
$GPGSA,A,3,23,16,01,20,11,,,,,,,,4.2,2.4,3.4*30
$GPGSV,3,1,11,20,79,272,33,23,50,303,25,30,43,097,35,16,33,131,35*7D
$GPGSV,3,2,11,31,26,044,35,01,23,211,33,13,22,281,28,04,08,319,20*7C
$GPGSV,3,3,11,11,06,200,29,07,06,225,26,48,44,197,34*42
$GPRMC,201428.000,A,3747.6417,N,12215.4133,W,2.22,140.77,180412,,,D*7E
$GPGGA,201429.000,3747.6412,N,12215.4128,W,2,05,2.4,3.7,M,-25.1,M,2.8,0000*45
$GPGSA,A,3,23,16,01,20,11,,,,,,,,4.2,2.4,3.4*30
$GPRMC,201429.000,A,3747.6412,N,12215.4128,W,2.34,143.12,180412,,,D*77
$GPVTG,143.12,T,,M,2.34,N,4.3,K,D*0F
$GPGGA,201430.000,3747.6410,N,12215.4124,W,2,05,2.4,3.4,M,-25.1,M,3.8,0000*41
$GPGSA,A,3,23,16,01,20,11,,,,,,,,4.2,2.4,3.4*30
$GPRMC,201430.000,A,3747.6410,N,12215.4124,W,1.87,143.00,180412,,,D*79
$GPVTG,143.00,T,,M,1.87,N,3.5,K,D*06
$GPGGA,201431.000,3747.6415,N,12215.4121,W,2,05,2.4,1.9,M,-25.1,M,1.8,0000*4D
$GPGSA,A,3,23,16,01,20,11,,,,,,,,4.2,2.4,3.4*30
$GPRMC,201431.000,A,3747.6415,N,12215.4121,W,1.32,138.35,180412,,,D*7C
$GPVTG,138.35,T,,M,1.32,N,2.5,K,D*03
$GPGGA,201432.000,3747.6411,N,12215.4115,W,2,05,2.4,2.4,M,-25.1,M,0.8,0000*42
$GPGSA,A,3,23,16,01,20,11,,,,,,,,4.2,2.4,3.4*30
$GPRMC,201432.000,A,3747.6411,N,12215.4115,W,1.83,141.76,180412,,,D*7F
$GPVTG,141.76,T,,M,1.83,N,3.4,K,D*00
$GPGGA,201433.000,3747.6403,N,12215.4112,W,2,06,2.1,3.5,M,-25.1,M,1.8,0000*40
$GPGSA,A,3,23,16,01,20,11,30,,,,,,,3.8,2.1,3.2*3D
$GPGSV,3,1,11,20,79,272,32,23,50,303,25,30,43,097,25,16,33,131,35*7D
$GPGSV,3,2,11,31,26,044,27,01,23,211,29,13,22,281,28,04,08,319,20*74
$GPGSV,3,3,11,11,06,200,23,07,06,225,26,48,44,197,35*49
$GPRMC,201433.000,A,3747.6403,N,12215.4112,W,2.28,150.36,180412,,,D*7C
$GPVTG,150.36,T,,M,2.28,N,4.2,K,D*07
$GPGGA,201434.000,3747.6402,N,12215.4108,W,2,06,2.1,3.1,M,-25.1,M,2.8,0000*4A
$GPGSA,A,3,23,16,01,20,11,30,,,,,,,3.8,2.1,3.2*3D
$GPRMC,201434.000,A,3747.6402,N,12215.4108,W,2.21,143.69,180412,,,D*70
$GPVTG,143.69,T,,M,2.21,N,4.1,K,D*05
$GPGGA,201435.000,3747.6390,N,12215.4106,W,2,06,2.1,4.8,M,-25.1,M,3.8,0000*46
$GPGSA,A,3,23,16,01,20,11,30,,,,,,,3.8,2.1,3.2*3D
$GPRMC,201435.000,A,3747.6390,N,12215.4106,W,2.27,145.90,180412,,,D*75
$GPVTG,145.90,T,,M,2.27,N,4.2,K,D*00
$GPGGA,201436.000,3747.6388,N,12215.4100,W,2,06,2.1,4.4,M,-25.1,M,1.8,0000*44
$GPGSA,A,3,23,16,01,20,11,30,,,,,,,3.8,2.1,3.2*3D
$GPRMC,201436.000,A,3747.6388,N,12215.4100,W,2.07,153.01,180412,,,D*74
$GPVTG,153.01,T,,M,2.07,N,3.8,K,D*00
$GPGGA,201437.000,3747.6391,N,12215.4094,W,2,06,2.1,3.0,M,-25.1,M,2.8,0000*41
$GPGSA,A,3,23,16,01,20,11,30,,,,,,,3.8,2.1,3.2*3D
$GPRMC,201437.000,A,3747.6391,N,12215.4094,W,1.78,137.28,180412,,,D*73
$GPVTG,137.28,T,,M,1.78,N,3.3,K,D*09
$GPGGA,201438.000,3747.6387,N,12215.4088,W,2,06,2.1,3.3,M,-25.1,M,1.8,0000*44
$GPGSA,A,3,23,16,01,20,11,30,,,,,,,3.8,2.1,3.2*3D
$GPGSV,3,1,11,20,79,272,32,23,50,303,25,30,43,097,28,16,33,131,35*70
$GPGSV,3,2,11,31,26,044,16,01,23,211,31,13,22,282,27,04,08,319,20*73
$GPGSV,3,3,11,11,06,200,25,07,06,225,26,48,44,197,34*4E
$GPRMC,201438.000,A,3747.6387,N,12215.4088,W,1.74,140.19,180412,,,D*78
$GPVTG,140.19,T,,M,1.74,N,3.2,K,D*06
$GPGGA,201439.000,3747.6384,N,12215.4082,W,2,06,2.1,3.3,M,-25.1,M,2.8,0000*4F
$GPGSA,A,3,23,16,01,20,11,30,,,,,,,3.8,2.1,3.2*3D
$GPRMC,201439.000,A,3747.6384,N,12215.4082,W,1.56,140.77,180412,,,D*78
$GPVTG,140.77,T,,M,1.56,N,2.9,K,D*04
$GPGGA,201440.000,3747.6375,N,12215.4076,W,2,06,2.1,4.6,M,-25.1,M,1.8,0000*45
$GPGSA,A,3,23,16,01,20,11,30,,,,,,,3.8,2.1,3.2*3D
$GPRMC,201440.000,A,3747.6375,N,12215.4076,W,1.80,138.32,180412,,,D*76
$GPVTG,138.32,T,,M,1.80,N,3.3,K,D*0A
$GPGGA,201441.000,3747.6371,N,12215.4069,W,2,06,2.1,4.4,M,-25.1,M,2.8,0000*4F
$GPGSA,A,3,23,16,01,20,11,30,,,,,,,3.8,2.1,3.2*3D
$GPRMC,201441.000,A,3747.6371,N,12215.4069,W,2.08,125.12,180412,,,D*70
$GPVTG,125.12,T,,M,2.08,N,3.9,K,D*0D
$GPGGA,201442.000,3747.6372,N,12215.4061,W,2,06,2.1,3.4,M,-25.1,M,1.8,0000*43
$GPGSA,A,3,23,16,01,20,11,30,,,,,,,3.8,2.1,3.2*3D
$GPRMC,201442.000,A,3747.6372,N,12215.4061,W,1.86,132.62,180412,,,D*7C
$GPVTG,132.62,T,,M,1.86,N,3.4,K,D*04
$GPGGA,201443.000,3747.6366,N,12215.4057,W,2,06,2.1,3.9,M,-25.1,M,1.8,0000*4F
$GPGSA,A,3,23,16,01,20,11,30,,,,,,,3.8,2.1,3.2*3D
$GPGSV,3,1,11,20,79,272,33,23,50,303,27,30,43,097,25,16,33,131,35*7E
$GPGSV,3,2,11,31,26,044,16,01,23,211,32,13,22,282,28,04,08,319,21*7E
$GPGSV,3,3,11,11,06,200,24,07,06,225,27,48,44,197,35*4F
$GPVTG,131.26,T,,M,2.00,N,3.7,K,D*09
$GPGGA,201444.000,3747.6358,N,12215.4052,W,2,06,2.1,4.7,M,-25.1,M,1.8,0000*49
$GPGSA,A,3,23,16,01,20,11,30,,,,,,,3.8,2.1,3.2*3D
$GPRMC,201444.000,A,3747.6358,N,12215.4052,W,2.16,142.81,180412,,,D*72
$GPVTG,142.81,T,,M,2.16,N,4.0,K,D*07
$GPGGA,201445.000,3747.6353,N,12215.4048,W,2,06,2.1,4.6,M,-25.1,M,2.8,0000*4A
$GPGSA,A,3,23,16,01,20,11,30,,,,,,,3.8,2.1,3.2*3D
$GPRMC,201445.000,A,3747.6353,N,12215.4048,W,2.24,140.70,180412,,,D*7E
$GPVTG,140.70,T,,M,2.24,N,4.1,K,D*0B
$GPGGA,201446.000,3747.6355,N,12215.4046,W,2,06,2.1,3.2,M,-25.1,M,3.8,0000*43
$GPGSA,A,3,23,16,01,20,11,30,,,,,,,3.8,2.1,3.2*3D
$GPRMC,201446.000,A,3747.6355,N,12215.4046,W,1.82,133.88,180412,,,D*79
$GPVTG,133.88,T,,M,1.82,N,3.4,K,D*05
$GPGGA,201447.000,3747.6351,N,12215.4042,W,2,06,2.1,3.2,M,-25.1,M,4.8,0000*45
$GPGSA,A,3,23,16,01,20,11,30,,,,,,,3.8,2.1,3.2*3D
$GPRMC,201447.000,A,3747.6351,N,12215.4042,W,1.64,127.94,180412,,,D*78
$GPVTG,127.94,T,,M,1.64,N,3.0,K,D*01
$GPGGA,201448.000,3747.6347,N,12215.4037,W,2,06,2.1,3.3,M,-25.1,M,1.8,0000*4B
$GPGSA,A,3,23,16,01,20,11,30,,,,,,,3.8,2.1,3.2*3D
$GPGSV,3,1,11,20,79,272,33,23,50,303,27,30,43,097,35,16,33,131,35*7F
$GPGSV,3,2,11,31,26,044,19,01,23,211,35,13,22,282,29,04,08,319,22*74
$GPGSV,3,3,11,11,06,200,21,07,06,225,24,48,44,197,38*44
$GPRMC,201448.000,A,3747.6347,N,12215.4037,W,1.76,128.30,180412,,,D*70
$GPVTG,128.30,T,,M,1.76,N,3.3,K,D*00
$GPGGA,201449.000,3747.6344,N,12215.4033,W,2,06,2.1,3.0,M,-25.1,M,1.8,0000*4E
$GPGSA,A,3,23,16,01,20,11,30,,,,,,,3.8,2.1,3.2*3D
$GPRMC,201449.000,A,3747.6344,N,12215.4033,W,1.66,129.11,180412,,,D*75
$GPVTG,129.11,T,,M,1.66,N,3.1,K,D*01
$GPGGA,201450.000,3747.6342,N,12215.4029,W,2,06,2.1,2.8,M,-25.1,M,1.8,0000*42
$GPGSA,A,3,23,16,01,20,11,30,,,,,,,3.8,2.1,3.2*3D
$GPRMC,201450.000,A,3747.6342,N,12215.4029,W,1.49,133.21,180412,,,D*75
$GPVTG,133.21,T,,M,1.49,N,2.8,K,D*0C
$GPGGA,201451.000,3747.6339,N,12215.4026,W,2,06,2.1,2.7,M,-25.1,M,1.8,0000*4F
$GPGSA,A,3,23,16,01,20,11,30,,,,,,,3.8,2.1,3.2*3D
$GPRMC,201451.000,A,3747.6339,N,12215.4026,W,1.54,136.09,180412,,,D*74
$GPVTG,136.09,T,,M,1.54,N,2.9,K,D*0E
$GPGGA,201452.000,3747.6337,N,12215.4024,W,2,06,2.1,2.4,M,-25.1,M,1.8,0000*43
$GPGSA,A,3,23,16,01,20,11,30,,,,,,,3.8,2.1,3.2*3D
$GPRMC,201452.000,A,3747.6337,N,12215.4024,W,1.54,139.48,180412,,,D*71
$GPVTG,139.48,T,,M,1.54,N,2.9,K,D*04
$GPGGA,201453.000,3747.6336,N,12215.4020,W,2,06,2.1,1.9,M,-25.1,M,2.8,0000*4A
$GPGSA,A,3,23,16,01,20,11,30,,,,,,,3.8,2.1,3.2*3D
$GPGSV,3,1,11,20,79,272,33,23,50,303,28,30,43,097,36,16,33,131,31*77
$GPGSV,3,2,11,31,26,044,37,01,23,211,36,13,22,282,30,04,08,319,22*73
$GPGSV,3,3,11,11,06,200,23,07,06,225,32,48,44,197,34*4D
$GPRMC,201453.000,A,3747.6336,N,12215.4020,W,1.95,132.51,180412,,,D*7B
$GPVTG,132.51,T,,M,1.95,N,3.6,K,D*04
$GPGGA,201454.000,3747.6332,N,12215.4015,W,2,06,2.1,1.9,M,-25.1,M,1.8,0000*4C
$GPGSA,A,3,23,16,01,20,11,30,,,,,,,3.8,2.1,3.2*3D
$GPRMC,201454.000,A,3747.6332,N,12215.4015,W,1.51,128.58,180412,,,D*74
$GPVTG,128.58,T,,M,1.51,N,2.8,K,D*01
$GPGGA,201455.000,3747.6326,N,12215.4012,W,2,06,2.1,2.4,M,-25.1,M,1.8,0000*41
$GPGSA,A,3,23,16,01,20,11,30,,,,,,,3.8,2.1,3.2*3D
$GPRMC,201455.000,A,3747.6326,N,12215.4012,W,1.14,179.54,180412,,,D*7E
$GPVTG,179.54,T,,M,1.14,N,2.1,K,D*01
$GPGGA,201456.000,3747.6321,N,12215.4012,W,2,06,2.1,2.5,M,-25.1,M,1.8,0000*44
$GPGSA,A,3,23,16,01,20,11,30,,,,,,,3.8,2.1,3.2*3D
$GPRMC,201456.000,A,3747.6321,N,12215.4012,W,1.15,191.93,180412,,,D*76
$GPVTG,191.93,T,,M,1.15,N,2.1,K,D*0D
$GPGGA,201457.000,3747.6317,N,12215.4013,W,2,06,2.1,2.6,M,-25.1,M,2.8,0000*41
$GPGSA,A,3,23,16,01,20,11,30,,,,,,,3.8,2.1,3.2*3D
$GPRMC,201457.000,A,3747.6317,N,12215.4013,W,1.08,203.12,180412,,,D*7E
$GPVTG,203.12,T,,M,1.08,N,2.0,K,D*01
$GPGGA,201458.000,3747.6314,N,12215.4014,W,2,06,2.1,2.5,M,-25.1,M,1.8,0000*4A
$GPGSA,A,3,23,16,01,20,11,30,,,,,,,3.8,2.1,3.2*3D
$GPGSV,3,1,11,20,79,272,33,23,50,303,39,30,43,097,33,16,33,131,34*77
$GPGSV,3,2,11,31,26,044,23,01,23,211,32,13,22,282,36,04,08,319,32*75
$GPGSV,3,3,11,11,06,200,17,07,06,225,31,48,44,197,38*45
$GPVTG,208.96,T,,M,0.60,N,1.1,K,D*0B
$GPGGA,201459.000,3747.6314,N,12215.4014,W,2,06,2.1,2.2,M,-25.1,M,2.8,0000*4F
$GPGSA,A,3,23,16,01,20,11,30,,,,,,,3.8,2.1,3.2*3D
$GPRMC,201459.000,A,3747.6314,N,12215.4014,W,0.28,186.15,180412,,,D*7E
$GPVTG,186.15,T,,M,0.28,N,0.5,K,D*0C
$GPGGA,201500.000,3747.6313,N,12215.4014,W,2,06,2.1,1.9,M,-25.1,M,1.8,0000*4E
$GPGSA,A,3,23,16,01,20,11,30,,,,,,,3.8,2.1,3.2*3D
$GPRMC,201500.000,A,3747.6313,N,12215.4014,W,0.23,219.04,180412,,,D*7A
$GPVTG,219.04,T,,M,0.23,N,0.4,K,D*03
$GPGGA,201501.000,3747.6313,N,12215.4015,W,2,06,2.1,2.0,M,-25.1,M,1.8,0000*44
$GPGSA,A,3,23,16,01,20,11,30,,,,,,,3.8,2.1,3.2*3D
$GPRMC,201501.000,A,3747.6313,N,12215.4015,W,0.27,235.35,180412,,,D*72
$GPVTG,235.35,T,,M,0.27,N,0.5,K,D*0A
$GPGGA,201502.000,3747.6312,N,12215.4015,W,2,06,2.1,2.1,M,-25.1,M,1.8,0000*47
$GPGSA,A,3,23,16,01,20,11,30,,,,,,,3.8,2.1,3.2*3D
$GPRMC,201502.000,A,3747.6312,N,12215.4015,W,0.15,192.83,180412,,,D*72
$GPVTG,192.83,T,,M,0.15,N,0.3,K,D*0E
$GPGGA,201503.000,3747.6311,N,12215.4016,W,2,06,2.1,2.2,M,-25.1,M,2.8,0000*46
$GPGSA,A,3,23,16,01,20,11,30,,,,,,,3.8,2.1,3.2*3D
$GPGSV,3,1,11,20,79,272,34,23,50,303,39,30,43,097,35,16,33,131,35*77
$GPGSV,3,2,11,31,26,044,23,01,23,211,33,13,22,282,37,04,08,319,32*75
$GPGSV,3,3,11,11,06,200,18,07,06,225,25,48,44,197,37*40
$GPRMC,201503.000,A,3747.6311,N,12215.4016,W,0.20,181.31,180412,,,D*7E
$GPVTG,181.31,T,,M,0.20,N,0.4,K,D*04
$GPGGA,201504.000,3747.6310,N,12215.4016,W,2,06,2.1,2.2,M,-25.1,M,3.8,0000*41
$GPGSA,A,3,23,16,01,20,11,30,,,,,,,3.8,2.1,3.2*3D
$GPRMC,201504.000,A,3747.6310,N,12215.4016,W,0.48,228.09,180412,,,D*7D
$GPVTG,228.09,T,,M,0.48,N,0.9,K,D*0C
$GPGGA,201505.000,3747.6308,N,12215.4018,W,2,06,2.1,2.2,M,-25.1,M,4.8,0000*40
$GPGSA,A,3,23,16,01,20,11,30,,,,,,,3.8,2.1,3.2*3D
$GPRMC,201505.000,A,3747.6308,N,12215.4018,W,0.81,198.14,180412,,,D*7A
$GPVTG,198.14,T,,M,0.81,N,1.5,K,D*00
$GPGGA,201506.000,3747.6308,N,12215.4018,W,2,06,2.1,1.9,M,-25.1,M,1.8,0000*4E
$GPGSA,A,3,23,16,01,20,11,30,,,,,,,3.8,2.1,3.2*3D
$GPRMC,201506.000,A,3747.6308,N,12215.4018,W,0.18,283.86,180412,,,D*7B
$GPVTG,283.86,T,,M,0.18,N,0.3,K,D*05
$GPGGA,201507.000,3747.6309,N,12215.4017,W,2,06,2.1,1.6,M,-25.1,M,1.8,0000*4E
$GPGSA,A,3,23,16,01,20,11,30,,,,,,,3.8,2.1,3.2*3D
$GPRMC,201507.000,A,3747.6309,N,12215.4017,W,0.23,177.04,180412,,,D*7E
$GPVTG,177.04,T,,M,0.23,N,0.4,K,D*08
$GPGGA,201508.000,3747.6308,N,12215.4019,W,2,06,2.1,1.5,M,-25.1,M,1.8,0000*4D
$GPGSA,A,3,23,16,01,20,11,30,,,,,,,3.8,2.1,3.2*3D
$GPGSV,3,1,11,20,79,272,34,23,50,303,39,30,43,097,28,16,33,131,36*78
$GPGSV,3,2,11,31,26,044,25,01,23,211,33,13,22,282,37,04,08,319,28*78
$GPGSV,3,3,11,11,06,200,18,07,06,225,28,48,44,197,38*42
$GPRMC,201508.000,A,3747.6308,N,12215.4019,W,1.12,237.10,180412,,,D*7F
$GPVTG,237.10,T,,M,1.12,N,2.1,K,D*0E
$GPGGA,201509.000,3747.6304,N,12215.4025,W,2,06,2.1,1.5,M,-25.1,M,2.8,0000*4C
$GPGSA,A,3,23,16,01,20,11,30,,,,,,,3.8,2.1,3.2*3D
$GPRMC,201509.000,A,3747.6304,N,12215.4025,W,2.07,226.84,180412,,,D*77
$GPVTG,226.84,T,,M,2.07,N,3.8,K,D*0C
$GPGGA,201510.000,3747.6300,N,12215.4031,W,2,06,2.1,1.6,M,-25.1,M,3.8,0000*47
$GPGSA,A,3,23,16,01,20,11,30,,,,,,,3.8,2.1,3.2*3D
$GPRMC,201510.000,A,3747.6300,N,12215.4031,W,2.50,229.85,180412,,,D*72
$GPVTG,229.85,T,,M,2.50,N,4.6,K,D*09
$GPGGA,201511.000,3747.6295,N,12215.4039,W,2,06,2.1,1.7,M,-25.1,M,4.8,0000*45
$GPGSA,A,3,23,16,01,20,11,30,,,,,,,3.8,2.1,3.2*3D
$GPRMC,201511.000,A,3747.6295,N,12215.4039,W,2.63,227.51,180412,,,D*71
$GPVTG,227.51,T,,M,2.63,N,4.9,K,D*01
$GPGGA,201512.000,3747.6290,N,12215.4045,W,2,06,2.1,2.0,M,-25.1,M,1.8,0000*49
$GPGSA,A,3,23,16,01,20,11,30,,,,,,,3.8,2.1,3.2*3D
$GPRMC,201512.000,A,3747.6290,N,12215.4045,W,2.42,220.17,180412,,,D*7A
$GPVTG,220.17,T,,M,2.42,N,4.5,K,D*0B
$GPGGA,201513.000,3747.6285,N,12215.4052,W,2,06,2.1,2.2,M,-25.1,M,1.8,0000*48
$GPGSA,A,3,23,16,01,20,11,30,,,,,,,3.8,2.1,3.2*3D
$GPGSV,3,1,11,20,79,272,35,23,50,303,39,30,43,097,31,16,33,131,36*71
$GPGSV,3,2,11,31,26,044,22,01,23,211,33,13,22,282,37,04,08,319,32*74
$GPRMC,201513.000,A,3747.6285,N,12215.4052,W,2.32,223.98,180412,,,D*7A
$GPVTG,223.98,T,,M,2.32,N,4.3,K,D*0E
$GPGGA,201514.000,3747.6278,N,12215.4059,W,2,06,2.1,2.3,M,-25.1,M,1.8,0000*47
$GPGSA,A,3,23,16,01,20,11,30,,,,,,,3.8,2.1,3.2*3D
$GPRMC,201514.000,A,3747.6278,N,12215.4059,W,2.48,220.94,180412,,,D*76
$GPVTG,220.94,T,,M,2.48,N,4.6,K,D*09
$GPGGA,201515.000,3747.6273,N,12215.4065,W,2,06,2.1,2.4,M,-25.1,M,1.8,0000*45
$GPGSA,A,3,23,16,01,20,11,30,,,,,,,3.8,2.1,3.2*3D
$GPRMC,201515.000,A,3747.6273,N,12215.4065,W,2.27,223.93,180412,,,D*7E
$GPVTG,223.93,T,,M,2.27,N,4.2,K,D*00
$GPGGA,201516.000,3747.6268,N,12215.4071,W,2,06,2.1,2.8,M,-25.1,M,1.8,0000*45
$GPGSA,A,3,23,16,01,20,11,30,,,,,,,3.8,2.1,3.2*3D
$GPRMC,201516.000,A,3747.6268,N,12215.4071,W,2.02,225.75,180412,,,D*7B
$GPVTG,225.75,T,,M,2.02,N,3.7,K,D*0B
$GPGGA,201517.000,3747.6264,N,12215.4077,W,2,06,2.1,3.0,M,-25.1,M,2.8,0000*44
$GPGSA,A,3,23,16,01,20,11,30,,,,,,,3.8,2.1,3.2*3D
$GPRMC,201517.000,A,3747.6264,N,12215.4077,W,2.39,223.45,180412,,,D*7D
$GPVTG,223.45,T,,M,2.39,N,4.4,K,D*02
$GPGGA,201518.000,3747.6259,N,12215.4083,W,2,06,2.1,3.2,M,-25.1,M,1.8,0000*4F
$GPGSA,A,3,23,16,01,20,11,30,,,,,,,3.8,2.1,3.2*3D
$GPGSV,3,1,11,20,79,270,35,23,50,303,39,30,43,097,32,16,33,131,36*70
$GPGSV,3,2,11,31,26,044,22,13,23,282,33,01,22,211,30,04,08,319,29*79
