$ADVER,3080,2.3
$GPRMC,202222.553,A,3748.8001,N,12217.8450,W,0.19,277.43,070711,,,A*7F
$GPRMC,202223.553,A,3748.8001,N,12217.8452,W,0.13,248.00,070711,,,A*7D
$GPRMC,202224.553,A,3748.8007,N,12217.8475,W,0.12,280.36,070711,,,A*79
$GPRMC,202225.553,A,3748.8008,N,12217.8478,W,0.33,279.15,070711,,,A*7E
$GPRMC,202226.553,A,3748.8008,N,12217.8481,W,0.24,280.36,070711,,,A*7A
$GPRMC,202227.553,A,3748.8008,N,12217.8480,W,0.28,293.82,070711,,,A*7B
$GPRMC,202228.553,A,3748.8003,N,12217.8461,W,1.09,286.12,070711,,,A*7F
$GPRMC,202229.553,A,3748.7987,N,12217.8414,W,0.43,281.34,070711,,,A*7A
$GPRMC,202230.553,A,3748.7991,N,12217.8463,W,0.72,246.17,070711,,,A*7D
$GPRMC,202251.553,A,3748.7986,N,12217.8499,W,1.03,199.94,070711,,,A*74
$GPRMC,202252.553,A,3748.7970,N,12217.8514,W,1.08,193.02,070711,,,A*74
$GPRMC,202253.553,A,3748.7973,N,12217.8584,W,3.34,173.45,070711,,,A*7F
$GPRMC,202254.553,A,3748.7983,N,12217.8556,W,3.40,141.67,070711,,,A*7A
$GPRMC,202327.553,A,3748.7915,N,12217.8514,W,1.08,201.92,070711,,,A*75
$GPRMC,202329.553,A,3748.7835,N,12217.8536,W,2.62,194.23,070711,,,A*72
$GPRMC,202330.553,A,3748.7881,N,12217.8542,W,2.69,245.49,070711,,,A*7E
$GPRMC,202332.553,A,3748.7870,N,12217.8535,W,4.14,184.46,070711,,,A*7F
$GPRMC,202334.553,A,3748.7852,N,12217.8623,W,3.57,191.05,070711,,,A*7E
$GPRMC,202335.553,A,3748.7843,N,12217.8627,W,0.71,260.01,070711,,,A*75
$GPRMC,202336.553,A,3748.7767,N,12217.8615,W,1.00,193.04,070711,,,A*73
$GPRMC,202337.553,A,3748.7840,N,12217.8546,W,2.76,328.62,070711,,,A*7D
$GPRMC,202338.553,A,3748.7825,N,12217.8682,W,2.82,207.11,070711,,,A*79
$GPRMC,202339.553,A,3748.7829,N,12217.8583,W,2.03,255.71,070711,,,A*7E
$GPRMC,202340.553,A,3748.7825,N,12217.8574,W,2.09,171.82,070711,,,A*77
$GPRMC,202341.553,A,3748.7795,N,12217.8631,W,2.34,203.96,070711,,,A*7D
$GPRMC,202342.553,A,3748.7736,N,12217.8669,W,2.47,218.68,070711,,,A*75
$GPRMC,202343.553,A,3748.7738,N,12217.8688,W,2.42,218.88,070711,,,A*7E
$GPRMC,202344.553,A,3748.7786,N,12217.8650,W,2.12,269.22,070711,,,A*7A
$GPRMC,202345.553,A,3748.7725,N,12217.8558,W,2.04,209.42,070711,,,A*7E
$GPRMC,202346.553,A,3748.7727,N,12217.8715,W,3.05,237.42,070711,,,A*79
$GPRMC,202347.553,A,3748.7822,N,12217.8717,W,3.20,268.40,070711,,,A*7F
$GPRMC,202357.553,A,3748.7710,N,12217.8547,W,1.58,202.12,070711,,,A*71
$GPRMC,202419.553,A,3748.7604,N,12217.8715,W,2.62,245.67,070711,,,A*76
$GPRMC,202420.553,A,3748.7585,N,12217.8799,W,3.32,218.94,070711,,,A*72
$GPRMC,202530.553,A,3748.7132,N,12217.9120,W,2.98,256.47,070711,,,A*7A
$GPRMC,202534.553,A,3748.7300,N,12217.9018,W,2.20,266.91,070711,,,A*7C
$GPRMC,202535.553,A,3748.7278,N,12217.9124,W,2.58,223.13,070711,,,A*79
$GPRMC,202536.553,A,3748.7265,N,12217.9162,W,2.63,228.95,070711,,,A*79
$GPRMC,202537.553,A,3748.7223,N,12217.9243,W,1.61,219.46,070711,,,A*77
$GPRMC,202538.553,A,3748.7247,N,12217.9150,W,2.38,213.69,070711,,,A*73
$GPRMC,202539.553,A,3748.7171,N,12217.9189,W,1.42,235.54,070711,,,A*74
$GPRMC,202540.553,A,3748.7136,N,12217.9169,W,1.50,237.49,070711,,,A*7A
$GPRMC,202544.553,A,3748.7107,N,12217.9246,W,1.31,218.41,070711,,,A*70
$GPRMC,202545.553,A,3748.7146,N,12217.9242,W,2.48,190.03,070711,,,A*78
$GPRMC,202546.553,A,3748.7161,N,12217.9256,W,4.03,178.33,070711,,,A*77
$GPRMC,202547.553,A,3748.7124,N,12217.9135,W,2.63,221.63,070711,,,A*7B
$GPRMC,202548.553,A,3748.7151,N,12217.9180,W,2.25,195.37,070711,,,A*77
$GPRMC,202549.553,A,3748.7057,N,12217.9218,W,2.37,201.66,070711,,,A*7A
$GPRMC,202550.553,A,3748.7127,N,12217.9252,W,2.09,200.11,070711,,,A*76
$GPRMC,202551.553,A,3748.7121,N,12217.9135,W,3.33,245.19,070711,,,A*72
$GPRMC,202552.553,A,3748.7078,N,12217.9167,W,3.48,255.95,070711,,,A*72
$GPRMC,202553.553,A,3748.7092,N,12217.9324,W,1.87,210.77,070711,,,A*7E
$GPRMC,202554.553,A,3748.7024,N,12217.9215,W,2.37,199.32,070711,,,A*7C
$GPRMC,202555.553,A,3748.7031,N,12217.9193,W,2.24,225.20,070711,,,A*71
$GPRMC,202556.553,A,3748.6988,N,12217.9198,W,3.66,175.71,070711,,,A*76
$GPRMC,202557.553,A,3748.7138,N,12217.9185,W,0.74,308.79,070711,,,A*79
$GPRMC,202558.553,A,3748.7096,N,12217.9200,W,2.38,208.51,070711,,,A*7C
$GPRMC,202559.553,A,3748.7085,N,12217.9228,W,3.09,188.68,070711,,,A*77
$GPRMC,202600.553,A,3748.7077,N,12217.9229,W,1.92,190.48,070711,,,A*7F
$GPRMC,202601.553,A,3748.7066,N,12217.9260,W,2.68,203.44,070711,,,A*70
$GPRMC,202610.553,A,3748.6921,N,12217.9363,W,2.50,214.68,070711,,,A*7A
$GPRMC,202611.553,A,3748.6986,N,12217.9320,W,2.48,210.40,070711,,,A*76
$GPRMC,202612.553,A,3748.6977,N,12217.9292,W,3.52,214.88,070711,,,A*79
$GPRMC,202613.553,A,3748.7028,N,12217.9395,W,2.22,216.31,070711,,,A*7A
$GPRMC,202619.553,A,3748.6863,N,12217.9442,W,2.52,226.81,070711,,,A*74
$GPRMC,202620.553,A,3748.6891,N,12217.9350,W,3.19,215.85,070711,,,A*7D
$GPRMC,202621.553,A,3748.6885,N,12217.9387,W,2.10,249.85,070711,,,A*72
$GPRMC,202622.553,A,3748.6953,N,12217.9324,W,1.28,242.01,070711,,,A*7D
$GPRMC,202623.553,A,3748.6927,N,12217.9282,W,1.66,211.10,070711,,,A*7E
$GPRMC,202624.553,A,3748.6920,N,12217.9296,W,0.60,139.54,070711,,,A*75
$GPRMC,202625.553,A,3748.6995,N,12217.9294,W,2.40,200.95,070711,,,A*7C
$GPRMC,202626.553,A,3748.6853,N,12217.9306,W,2.60,215.84,070711,,,A*78
$GPRMC,202627.553,A,3748.6859,N,12217.9277,W,2.50,225.86,070711,,,A*76
$GPRMC,202628.553,A,3748.6889,N,12217.9342,W,2.62,198.45,070711,,,A*78
$GPRMC,202629.553,A,3748.6887,N,12217.9331,W,4.23,249.52,070711,,,A*79
$GPRMC,202630.553,A,3748.6875,N,12217.9401,W,2.54,230.56,070711,,,A*74
$GPRMC,202631.553,A,3748.6941,N,12217.9338,W,1.33,220.46,070711,,,A*7C
$GPRMC,202632.553,A,3748.6882,N,12217.9350,W,0.73,221.83,070711,,,A*72
$GPRMC,202633.553,A,3748.6827,N,12217.9371,W,1.27,198.21,070711,,,A*76
$GPRMC,202634.553,A,3748.6816,N,12217.9395,W,2.12,228.82,070711,,,A*7D
$GPRMC,202635.553,A,3748.6857,N,12217.9448,W,2.17,236.33,070711,,,A*7E
$GPRMC,202636.553,A,3748.6868,N,12217.9293,W,0.94,245.82,070711,,,A*76
$GPRMC,202640.553,A,3748.6828,N,12217.9387,W,1.48,230.49,070711,,,A*72
$GPRMC,202641.553,A,3748.6882,N,12217.9385,W,2.01,278.38,070711,,,A*75
$GPRMC,202645.553,A,3748.6752,N,12217.9461,W,2.96,204.38,070711,,,A*7B
$GPRMC,202704.553,A,3748.6678,N,12217.9452,W,0.44,244.95,070711,,,A*78
$GPRMC,202754.553,A,3748.6474,N,12217.9691,W,1.83,194.41,070711,,,A*73
$GPRMC,202755.553,A,3748.6420,N,12217.9781,W,2.18,190.40,070711,,,A*77
$GPRMC,202756.553,A,3748.6420,N,12217.9791,W,2.93,220.06,070711,,,A*7C
$GPRMC,202757.553,A,3748.6445,N,12217.9669,W,3.43,213.22,070711,,,A*72
$GPRMC,202801.553,A,3748.6468,N,12217.9628,W,1.06,121.30,070711,,,A*76
$GPRMC,202810.553,A,3748.6413,N,12217.9608,W,3.15,222.08,070711,,,A*73
$GPRMC,202849.552,A,3748.6175,N,12218.0050,W,2.67,242.69,070711,,,A*73
$GPRMC,202907.552,A,3748.6081,N,12218.0093,W,2.40,228.41,070711,,,A*7E
$GPRMC,202908.552,A,3748.6037,N,12218.0133,W,1.76,263.78,070711,,,A*74
$GPRMC,202922.552,A,3748.6049,N,12218.0076,W,1.46,230.59,070711,,,A*73
$GPRMC,202931.552,A,3748.6023,N,12218.0075,W,0.51,297.33,070711,,,A*78
$GPRMC,203044.552,A,3748.5570,N,12218.0440,W,3.24,189.23,070711,,,A*7C
$GPRMC,203046.552,A,3748.5537,N,12218.0454,W,1.87,230.41,070711,,,A*76
$GPRMC,203047.552,A,3748.5540,N,12218.0546,W,0.73,180.20,070711,,,A*70
$GPRMC,203048.552,A,3748.5424,N,12218.0596,W,1.20,151.86,070711,,,A*76
$GPRMC,203134.552,A,3748.5191,N,12218.0715,W,2.62,212.70,070711,,,A*76
$GPRMC,203135.552,A,3748.5245,N,12218.0664,W,1.92,235.53,070711,,,A*72
$GPRMC,203324.552,A,3748.4608,N,12218.1006,W,3.59,250.69,070711,,,A*70
$GPRMC,203326.552,A,3748.4653,N,12218.1043,W,3.82,230.25,070711,,,A*75
$GPRMC,203349.552,A,3748.4569,N,12218.1153,W,1.72,228.45,070711,,,A*74
$GPRMC,203350.552,A,3748.4546,N,12218.1168,W,2.19,211.08,070711,,,A*74
$GPRMC,210857.556,A,3748.4368,N,12218.1246,W,0.14,276.62,070711,,,A*79
$GPRMC,210858.556,A,3748.4357,N,12218.1254,W,0.18,1.50,070711,,,A*76
$GPRMC,210859.556,A,3748.4359,N,12218.1250,W,0.09,18.63,070711,,,A*45
$GPRMC,210900.000,A,3748.4359,N,12218.1249,W,0.03,231.48,070711,,,A*7C
$GPRMC,210901.000,A,3748.4359,N,12218.1249,W,0.07,336.93,070711,,,A*79
$GPRMC,210902.000,A,3748.4358,N,12218.1250,W,0.11,345.28,070711,,,A*70
$GPRMC,210903.000,A,3748.4361,N,12218.1247,W,0.20,0.33,070711,,,A*77
$GPRMC,210904.000,A,3748.4360,N,12218.1250,W,0.17,349.09,070711,,,A*74
$GPRMC,210905.000,A,3748.4353,N,12218.1259,W,0.07,204.34,070711,,,A*7B
$GPRMC,210906.000,A,3748.4346,N,12218.1268,W,0.37,262.00,070711,,,A*7A
$GPRMC,210907.000,A,3748.4337,N,12218.1281,W,0.63,241.40,070711,,,A*7E
$GPRMC,210908.000,A,3748.4329,N,12218.1290,W,0.83,232.72,070711,,,A*75
$GPRMC,210909.000,A,3748.4326,N,12218.1296,W,0.84,227.19,070711,,,A*73
$GPRMC,210910.000,A,3748.4325,N,12218.1298,W,0.63,224.02,070711,,,A*76
$GPRMC,210911.000,A,3748.4316,N,12218.1310,W,0.98,230.07,070711,,,A*72
$GPRMC,210912.000,A,3748.4311,N,12218.1318,W,1.07,229.41,070711,,,A*73
$GPRMC,210913.000,A,3748.4313,N,12218.1316,W,0.90,236.57,070711,,,A*78
$GPRMC,210914.000,A,3748.4318,N,12218.1311,W,0.58,239.25,070711,,,A*7D
$GPRMC,210915.000,A,3748.4317,N,12218.1313,W,0.66,234.14,070711,,,A*73
$GPRMC,210916.000,A,3748.4318,N,12218.1311,W,0.53,243.85,070711,,,A*73
$GPRMC,210917.000,A,3748.4322,N,12218.1308,W,0.34,229.86,070711,,,A*7D
$GPRMC,210918.000,A,3748.4327,N,12218.1301,W,0.15,230.89,070711,,,A*7A
$GPRMC,210919.000,A,3748.4333,N,12218.1293,W,0.12,49.20,070711,,,A*4C
$GPRMC,210920.000,A,3748.4338,N,12218.1286,W,0.38,29.77,070711,,,A*45
$GPRMC,210921.000,A,3748.4337,N,12218.1284,W,0.51,84.36,070711,,,A*44
$GPRMC,210922.000,A,3748.4329,N,12218.1285,W,0.49,113.59,070711,,,A*76
$GPRMC,210923.000,A,3748.4326,N,12218.1293,W,0.18,159.31,070711,,,A*7B
$GPRMC,210924.000,A,3748.4322,N,12218.1293,W,0.10,180.16,070711,,,A*71
$GPRMC,210925.000,A,3748.4328,N,12218.1287,W,0.18,355.52,070711,,,A*7D
$GPRMC,210926.000,A,3748.4332,N,12218.1282,W,0.31,38.16,070711,,,A*43
$GPRMC,210927.000,A,3748.4340,N,12218.1270,W,0.53,52.53,070711,,,A*43
$GPRMC,210928.000,A,3748.4336,N,12218.1272,W,0.39,68.22,070711,,,A*4C
$GPRMC,210929.000,A,3748.4336,N,12218.1270,W,0.46,41.31,070711,,,A*4E
$GPRMC,210930.000,A,3748.4328,N,12218.1281,W,0.15,334.62,070711,,,A*76
$GPRMC,210931.000,A,3748.4321,N,12218.1291,W,0.29,272.16,070711,,,A*70
$GPRMC,210932.000,A,3748.4319,N,12218.1296,W,0.42,273.76,070711,,,A*75
$GPRMC,210933.000,A,3748.4314,N,12218.1307,W,0.56,246.03,070711,,,A*71
$GPRMC,210934.000,A,3748.4311,N,12218.1315,W,0.63,236.09,070711,,,A*7B
$GPRMC,210935.000,A,3748.4316,N,12218.1309,W,0.31,236.79,070711,,,A*70
$GPRMC,210936.000,A,3748.4322,N,12218.1301,W,0.07,195.85,070711,,,A*70
$GPRMC,210937.000,A,3748.4324,N,12218.1299,W,0.09,238.41,070711,,,A*75
$GPRMC,210938.000,A,3748.4320,N,12218.1308,W,0.47,239.61,070711,,,A*7E
$GPRMC,210939.000,A,3748.4322,N,12218.1310,W,0.35,259.80,070711,,,A*78
$GPRMC,210940.000,A,3748.4324,N,12218.1310,W,0.19,305.45,070711,,,A*7F
$GPRMC,210941.000,A,3748.4319,N,12218.1316,W,0.24,278.53,070711,,,A*74
$GPRMC,210942.000,A,3748.4326,N,12218.1305,W,0.03,120.44,070711,,,A*74
$GPRMC,210943.000,A,3748.4324,N,12218.1308,W,0.06,230.89,070711,,,A*7C
$GPRMC,210944.000,A,3748.4319,N,12218.1316,W,0.50,244.50,070711,,,A*7E
$GPRMC,210945.000,A,3748.4318,N,12218.1317,W,0.66,240.47,070711,,,A*78
$GPRMC,210946.000,A,3748.4317,N,12218.1320,W,0.41,248.80,070711,,,A*76
$GPRMC,210947.000,A,3748.4316,N,12218.1320,W,0.25,242.39,070711,,,A*7C
$GPRMC,210948.000,A,3748.4316,N,12218.1320,W,0.16,260.28,070711,,,A*73
$GPRMC,210949.000,A,3748.4313,N,12218.1324,W,0.32,234.35,070711,,,A*78
$GPRMC,210950.000,A,3748.4302,N,12218.1338,W,0.66,240.10,070711,,,A*78
$GPRMC,210951.000,A,3748.4294,N,12218.1349,W,0.81,231.64,070711,,,A*7D
$GPRMC,210952.000,A,3748.4289,N,12218.1354,W,0.87,230.32,070711,,,A*7A
$GPRMC,210953.000,A,3748.4291,N,12218.1351,W,0.71,230.18,070711,,,A*76
$GPRMC,210954.000,A,3748.4295,N,12218.1347,W,0.70,229.33,070711,,,A*72
$GPRMC,210955.000,A,3748.4298,N,12218.1343,W,0.42,243.96,070711,,,A*78
$GPRMC,210956.000,A,3748.4297,N,12218.1344,W,0.31,242.70,070711,,,A*7E
$GPRMC,210957.000,A,3748.4295,N,12218.1348,W,0.36,235.38,070711,,,A*7A
$GPRMC,210958.000,A,3748.4294,N,12218.1349,W,0.29,247.81,070711,,,A*7C
$GPRMC,210959.000,A,3748.4294,N,12218.1348,W,0.40,245.32,070711,,,A*79
$GPRMC,211000.000,A,3748.4294,N,12218.1346,W,0.27,250.43,070711,,,A*70
$GPRMC,211001.000,A,3748.4294,N,12218.1345,W,0.17,257.12,070711,,,A*72
$GPRMC,211002.000,A,3748.4294,N,12218.1344,W,0.15,259.38,070711,,,A*74
$GPRMC,211003.000,A,3748.4294,N,12218.1343,W,0.16,256.19,070711,,,A*7D
$GPRMC,211004.000,A,3748.4294,N,12218.1342,W,0.11,241.36,070711,,,A*77
$GPRMC,211005.000,A,3748.4294,N,12218.1341,W,0.14,282.19,070711,,,A*72
$GPRMC,211006.000,A,3748.4291,N,12218.1344,W,0.13,248.82,070711,,,A*72
$GPRMC,211007.000,A,3748.4297,N,12218.1335,W,0.07,324.88,070711,,,A*77
$GPRMC,211008.000,A,3748.4297,N,12218.1335,W,0.07,310.52,070711,,,A*78
$GPRMC,211009.000,A,3748.4297,N,12218.1334,W,0.09,337.07,070711,,,A*73
$GPRMC,211010.000,A,3748.4297,N,12218.1333,W,0.05,294.78,070711,,,A*70
$GPRMC,211011.000,A,3748.4297,N,12218.1333,W,0.09,315.54,070711,,,A*7B
$GPRMC,211012.000,A,3748.4297,N,12218.1332,W,0.12,348.79,070711,,,A*74
$GPRMC,211013.000,A,3748.4297,N,12218.1331,W,0.08,337.65,070711,,,A*78
$GPRMC,211014.000,A,3748.4298,N,12218.1330,W,0.11,324.99,070711,,,A*78
$GPRMC,211015.000,A,3748.4297,N,12218.1327,W,0.47,304.51,070711,,,A*75
$GPRMC,211016.000,A,3748.4297,N,12218.1325,W,0.18,342.39,070711,,,A*72
$GPRMC,211017.000,A,3748.4297,N,12218.1324,W,0.12,331.80,070711,,,A*7E
$GPRMC,211018.000,A,3748.4297,N,12218.1323,W,0.12,325.54,070711,,,A*7A
$GPRMC,211019.000,A,3748.4297,N,12218.1322,W,0.06,1.35,070711,,,A*7D
$GPRMC,211020.000,A,3748.4297,N,12218.1321,W,0.10,337.77,070711,,,A*73
$GPRMC,211021.000,A,3748.4299,N,12218.1318,W,0.08,53.60,070711,,,A*48
$GPRMC,211022.000,A,3748.4299,N,12218.1319,W,0.10,353.73,070711,,,A*72
$GPRMC,211023.000,A,3748.4299,N,12218.1318,W,0.15,12.51,070711,,,A*41
$GPRMC,211024.000,A,3748.4299,N,12218.1318,W,0.12,18.14,070711,,,A*4A
$GPRMC,211025.000,A,3748.4300,N,12218.1317,W,0.13,1.47,070711,,,A*7A
$GPRMC,211026.000,A,3748.4300,N,12218.1317,W,0.20,339.12,070711,,,A*71
$GPRMC,211027.000,A,3748.4300,N,12218.1317,W,0.11,3.90,070711,,,A*72
$GPRMC,211028.000,A,3748.4301,N,12218.1318,W,0.17,335.46,070711,,,A*78
$GPRMC,211029.000,A,3748.4301,N,12218.1318,W,0.10,340.04,070711,,,A*7A
$GPRMC,211030.000,A,3748.4301,N,12218.1319,W,0.10,337.77,070711,,,A*77
$GPRMC,211031.000,A,3748.4301,N,12218.1319,W,0.14,346.78,070711,,,A*7B
$GPRMC,211032.000,A,3748.4301,N,12218.1319,W,0.14,358.95,070711,,,A*74
$GPRMC,211033.000,A,3748.4301,N,12218.1319,W,0.26,243.54,070711,,,A*72
$GPRMC,211034.000,A,3748.4301,N,12218.1319,W,0.23,13.90,070711,,,A*4F
$GPRMC,211035.000,A,3748.4302,N,12218.1319,W,0.10,348.93,070711,,,A*73
$GPRMC,211036.000,A,3748.4302,N,12218.1319,W,0.12,357.00,070711,,,A*76
$GPRMC,211037.000,A,3748.4302,N,12218.1318,W,0.13,357.79,070711,,,A*79
$GPRMC,211038.000,A,3748.4302,N,12218.1318,W,0.09,355.84,070711,,,A*7D
$GPRMC,211039.000,A,3748.4305,N,12218.1314,W,0.16,6.85,070711,,,A*7D
$GPRMC,211040.000,A,3748.4305,N,12218.1313,W,0.07,40.37,070711,,,A*4F
$GPRMC,211041.000,A,3748.4306,N,12218.1312,W,0.08,54.27,070711,,,A*47
$GPRMC,211042.000,A,3748.4309,N,12218.1314,W,0.34,320.03,070711,,,A*74
$GPRMC,211043.000,A,3748.4310,N,12218.1316,W,0.21,330.04,070711,,,A*7D
$GPRMC,211044.000,A,3748.4311,N,12218.1318,W,0.19,328.83,070711,,,A*78
$GPRMC,211045.000,A,3748.4312,N,12218.1320,W,0.18,329.47,070711,,,A*79
$GPRMC,211046.000,A,3748.4313,N,12218.1321,W,0.13,333.18,070711,,,A*70
$GPRMC,211047.000,A,3748.4313,N,12218.1326,W,0.22,290.32,070711,,,A*74
$GPRMC,211048.000,A,3748.4314,N,12218.1328,W,0.18,332.27,070711,,,A*76
$GPRMC,211049.000,A,3748.4315,N,12218.1325,W,0.52,32.52,070711,,,A*44
$GPRMC,211050.000,A,3748.4318,N,12218.1323,W,0.16,71.23,070711,,,A*46
$GPRMC,211051.000,A,3748.4317,N,12218.1325,W,0.20,276.16,070711,,,A*78
$GPRMC,211052.000,A,3748.4316,N,12218.1325,W,0.49,249.03,070711,,,A*7D
$GPRMC,211053.000,A,3748.4316,N,12218.1323,W,0.16,321.76,070711,,,A*7D
$GPRMC,211054.000,A,3748.4316,N,12218.1323,W,0.34,245.09,070711,,,A*71
$GPRMC,211055.000,A,3748.4316,N,12218.1323,W,0.43,244.97,070711,,,A*76
$GPRMC,211056.000,A,3748.4320,N,12218.1317,W,0.31,247.62,070711,,,A*7B
$GPRMC,211057.000,A,3748.4339,N,12218.1293,W,0.22,355.17,070711,,,A*7D
$GPRMC,211058.000,A,3748.4344,N,12218.1288,W,0.24,345.95,070711,,,A*7F
$GPRMC,211059.000,A,3748.4339,N,12218.1298,W,0.40,287.32,070711,,,A*75
$GPRMC,211100.000,A,3748.4341,N,12218.1297,W,0.42,285.97,070711,,,A*77
$GPRMC,211101.000,A,3748.4346,N,12218.1290,W,0.30,349.20,070711,,,A*7E
$GPRMC,211102.000,A,3748.4342,N,12218.1296,W,0.23,259.47,070711,,,A*7C
$GPRMC,211103.000,A,3748.4331,N,12218.1303,W,0.19,132.34,070711,,,A*77
$GPRMC,211104.000,A,3748.4333,N,12218.1298,W,0.54,207.60,070711,,,A*7C
$GPRMC,211105.000,A,3748.4337,N,12218.1310,W,1.61,282.29,070711,,,A*7F
$GPRMC,211106.000,A,3748.4333,N,12218.1317,W,0.60,302.06,070711,,,A*7B
$GPRMC,211107.000,A,3748.4328,N,12218.1327,W,0.20,297.66,070711,,,A*7C
$GPRMC,211108.000,A,3748.4329,N,12218.1325,W,0.27,249.00,070711,,,A*74
$GPRMC,211109.000,A,3748.4331,N,12218.1324,W,0.17,26.25,070711,,,A*42
$GPRMC,211110.000,A,3748.4334,N,12218.1320,W,0.10,285.06,070711,,,A*76
$GPRMC,211111.000,A,3748.4340,N,12218.1312,W,0.12,342.60,070711,,,A*7D
$GPRMC,211112.000,A,3748.4344,N,12218.1306,W,0.16,28.24,070711,,,A*44
$GPRMC,211113.000,A,3748.4343,N,12218.1307,W,0.37,44.21,070711,,,A*4F
$GPRMC,211114.000,A,3748.4342,N,12218.1308,W,0.04,117.58,070711,,,A*7F
$GPRMC,211115.000,A,3748.4338,N,12218.1315,W,0.71,241.69,070711,,,A*7F
$GPRMC,211116.000,A,3748.4340,N,12218.1313,W,0.30,257.03,070711,,,A*7B
$GPRMC,211117.000,A,3748.4340,N,12218.1314,W,0.22,293.89,070711,,,A*74
$GPRMC,211118.000,A,3748.4339,N,12218.1314,W,0.13,295.85,070711,,,A*7D
$GPRMC,211119.000,A,3748.4341,N,12218.1311,W,0.21,18.00,070711,,,A*4D
$GPRMC,211120.000,A,3748.4338,N,12218.1316,W,0.06,340.36,070711,,,A*70
$GPRMC,211121.000,A,3748.4338,N,12218.1319,W,0.57,334.50,070711,,,A*79
$GPRMC,211122.000,A,3748.4336,N,12218.1322,W,0.57,320.83,070711,,,A*77
$GPRMC,211123.000,A,3748.4334,N,12218.1324,W,0.28,270.02,070711,,,A*77
$GPRMC,211124.000,A,3748.4331,N,12218.1323,W,0.19,235.26,070711,,,A*77
$GPRMC,211125.000,A,3748.4330,N,12218.1324,W,0.19,227.36,070711,,,A*72
$GPRMC,211126.000,A,3748.4328,N,12218.1322,W,0.43,183.99,070711,,,A*79
$GPRMC,211127.000,A,3748.4326,N,12218.1322,W,0.28,198.23,070711,,,A*70
$GPRMC,211128.000,A,3748.4324,N,12218.1325,W,0.37,230.83,070711,,,A*7F
$GPRMC,211129.000,A,3748.4322,N,12218.1327,W,0.23,253.59,070711,,,A*7D
$GPRMC,211130.000,A,3748.4323,N,12218.1326,W,0.49,3.76,070711,,,A*73
$GPRMC,211131.000,A,3748.4327,N,12218.1323,W,0.76,352.35,070711,,,A*7F
$GPRMC,211132.000,A,3748.4331,N,12218.1321,W,0.83,328.73,070711,,,A*7C
$GPRMC,211133.000,A,3748.4332,N,12218.1316,W,0.62,192.87,070711,,,A*7D
$GPRMC,211134.000,A,3748.4327,N,12218.1315,W,1.09,170.21,070711,,,A*71
$GPRMC,211135.000,A,3748.4332,N,12218.1312,W,1.11,144.66,070711,,,A*7E
$GPRMC,211136.000,A,3748.4329,N,12218.1314,W,0.88,154.67,070711,,,A*70
$GPRMC,211137.000,A,3748.4325,N,12218.1315,W,0.79,183.19,070711,,,A*71
$GPRMC,211138.000,A,3748.4323,N,12218.1317,W,0.16,164.02,070711,,,A*70
$GPRMC,211139.000,A,3748.4323,N,12218.1316,W,0.22,52.87,070711,,,A*4E
$GPRMC,211140.000,A,3748.4319,N,12218.1319,W,0.08,76.18,070711,,,A*4E
$GPRMC,211141.000,A,3748.4320,N,12218.1316,W,0.07,238.93,070711,,,A*7E
$GPRMC,211142.000,A,3748.4320,N,12218.1319,W,0.25,224.67,070711,,,A*74
$GPRMC,211143.000,A,3748.4318,N,12218.1327,W,0.38,240.95,070711,,,A*70
$GPRMC,211144.000,A,3748.4315,N,12218.1334,W,0.39,247.83,070711,,,A*79
$GPRMC,211145.000,A,3748.4313,N,12218.1340,W,0.48,243.25,070711,,,A*73
$GPRMC,211146.000,A,3748.4311,N,12218.1344,W,0.48,237.82,070711,,,A*78
$GPRMC,211147.000,A,3748.4310,N,12218.1347,W,0.45,240.10,070711,,,A*7D
$GPRMC,211148.000,A,3748.4313,N,12218.1342,W,0.27,235.15,070711,,,A*77
$GPRMC,211149.000,A,3748.4316,N,12218.1338,W,0.13,245.06,070711,,,A*7C
$GPRMC,211150.000,A,3748.4317,N,12218.1335,W,0.20,230.88,070711,,,A*7C
$GPRMC,211151.000,A,3748.4317,N,12218.1332,W,0.16,235.89,070711,,,A*7B
$GPRMC,211152.000,A,3748.4319,N,12218.1329,W,0.51,330.63,070711,,,A*7F
$GPRMC,211153.000,A,3748.4319,N,12218.1326,W,0.12,268.01,070711,,,A*7E
$GPRMC,211154.000,A,3748.4319,N,12218.1324,W,0.07,214.98,070711,,,A*74
$GPRMC,211155.000,A,3748.4319,N,12218.1323,W,0.19,176.12,070711,,,A*78
$GPRMC,211156.000,A,3748.4321,N,12218.1322,W,0.47,340.19,070711,,,A*76
$GPRMC,211157.000,A,3748.4322,N,12218.1322,W,0.34,333.26,070711,,,A*78
$GPRMC,211158.000,A,3748.4324,N,12218.1322,W,0.64,341.02,070711,,,A*77
$GPRMC,211159.000,A,3748.4323,N,12218.1320,W,0.11,212.60,070711,,,A*72
$GPRMC,211200.000,A,3748.4322,N,12218.1318,W,0.12,317.91,070711,,,A*7E
$GPRMC,211201.000,A,3748.4323,N,12218.1319,W,0.54,341.24,070711,,,A*70
$GPRMC,211202.000,A,3748.4322,N,12218.1317,W,0.12,327.78,070711,,,A*77
$GPRMC,211203.000,A,3748.4319,N,12218.1314,W,0.14,159.99,070711,,,A*7F
$GPRMC,211204.000,A,3748.4316,N,12218.1310,W,0.34,356.69,070711,,,A*73
$GPRMC,211205.000,A,3748.4316,N,12218.1309,W,0.90,343.11,070711,,,A*7F
$GPRMC,211206.000,A,3748.4315,N,12218.1308,W,0.24,333.66,070711,,,A*76
$GPRMC,211207.000,A,3748.4315,N,12218.1307,W,0.55,347.48,070711,,,A*71
$GPRMC,211208.000,A,3748.4319,N,12218.1309,W,0.68,340.19,070711,,,A*71
$GPRMC,211209.000,A,3748.4322,N,12218.1311,W,0.11,322.72,070711,,,A*76
$GPRMC,211210.000,A,3748.4319,N,12218.1315,W,0.11,163.51,070711,,,A*74
$GPRMC,211211.000,A,3748.4320,N,12218.1312,W,0.44,334.99,070711,,,A*7C
$GPRMC,211212.000,A,3748.4325,N,12218.1308,W,1.02,357.34,070711,,,A*70
$GPRMC,211213.000,A,3748.4328,N,12218.1305,W,0.64,356.52,070711,,,A*71
$GPRMC,211214.000,A,3748.4324,N,12218.1310,W,0.19,320.67,070711,,,A*73
$GPRMC,211215.000,A,3748.4322,N,12218.1308,W,0.54,350.09,070711,,,A*7B
$GPRMC,211216.000,A,3748.4322,N,12218.1311,W,1.10,338.32,070711,,,A*77
$GPRMC,211217.000,A,3748.4323,N,12218.1314,W,0.83,330.65,070711,,,A*73
$GPRMC,211218.000,A,3748.4326,N,12218.1322,W,1.03,327.71,070711,,,A*76
$GPRMC,211219.000,A,3748.4326,N,12218.1325,W,0.85,323.59,070711,,,A*71
$GPRMC,211220.000,A,3748.4327,N,12218.1328,W,0.34,239.60,070711,,,A*7D
$GPRMC,211221.000,A,3748.4328,N,12218.1332,W,0.62,323.18,070711,,,A*7E
$GPRMC,211222.000,A,3748.4330,N,12218.1337,W,0.87,332.91,070711,,,A*7B
$GPRMC,211223.000,A,3748.4329,N,12218.1336,W,0.33,262.18,070711,,,A*79
$GPRMC,211224.000,A,3748.4326,N,12218.1337,W,0.45,321.07,070711,,,A*79
$GPRMC,211225.000,A,3748.4328,N,12218.1332,W,0.31,40.42,070711,,,A*45
$GPRMC,211226.000,A,3748.4327,N,12218.1331,W,0.24,261.58,070711,,,A*74
$GPRMC,211227.000,A,3748.4328,N,12218.1329,W,0.46,236.09,070711,,,A*71
$GPRMC,211228.000,A,3748.4329,N,12218.1328,W,0.15,289.87,070711,,,A*7A
$GPRMC,211229.000,A,3748.4331,N,12218.1327,W,0.45,4.95,070711,,,A*7C
$GPRMC,211230.000,A,3748.4326,N,12218.1330,W,0.44,203.91,070711,,,A*74
$GPRMC,211231.000,A,3748.4320,N,12218.1333,W,0.79,184.26,070711,,,A*7E
$GPRMC,211232.000,A,3748.4305,N,12218.1337,W,1.76,171.09,070711,,,A*77
$GPRMC,211233.000,A,3748.4310,N,12218.1334,W,0.77,159.43,070711,,,A*75
$GPRMC,211234.000,A,3748.4317,N,12218.1330,W,0.69,131.64,070711,,,A*75
$GPRMC,211235.000,A,3748.4310,N,12218.1328,W,0.97,162.04,070711,,,A*7B
$GPRMC,211236.000,A,3748.4307,N,12218.1335,W,0.49,178.73,070711,,,A*7A
$GPRMC,211237.000,A,3748.4297,N,12218.1335,W,0.27,314.42,070711,,,A*71
$GPRMC,211238.000,A,3748.4295,N,12218.1343,W,0.99,338.40,070711,,,A*74
$GPRMC,211239.000,A,3748.4295,N,12218.1341,W,1.69,326.73,070711,,,A*76
$GPRMC,211240.000,A,3748.4287,N,12218.1342,W,2.29,332.47,070711,,,A*7D
$GPRMC,211241.000,A,3748.4285,N,12218.1349,W,1.41,302.75,070711,,,A*7A
$GPRMC,211242.000,A,3748.4281,N,12218.1358,W,1.28,250.92,070711,,,A*7D
$GPRMC,211243.000,A,3748.4279,N,12218.1364,W,0.89,251.05,070711,,,A*71
$GPRMC,211244.000,A,3748.4280,N,12218.1370,W,1.26,243.11,070711,,,A*77
$GPRMC,211245.000,A,3748.4278,N,12218.1373,W,0.76,259.57,070711,,,A*7F
$GPRMC,211246.000,A,3748.4276,N,12218.1373,W,0.88,241.40,070711,,,A*7C
$GPRMC,211247.000,A,3748.4278,N,12218.1377,W,0.97,239.20,070711,,,A*70
$GPRMC,211248.000,A,3748.4280,N,12218.1375,W,0.63,231.16,070711,,,A*7C
$GPRMC,211249.000,A,3748.4282,N,12218.1370,W,0.27,255.57,070711,,,A*7D
$GPRMC,211250.000,A,3748.4282,N,12218.1372,W,0.30,259.14,070711,,,A*7A
$GPRMC,211251.000,A,3748.4283,N,12218.1373,W,0.32,303.19,070711,,,A*7A
$GPRMC,211252.000,A,3748.4288,N,12218.1373,W,0.43,161.75,070711,,,A*78
$GPRMC,211253.000,A,3748.4293,N,12218.1371,W,0.13,107.64,070711,,,A*74
$GPRMC,211254.000,A,3748.4298,N,12218.1369,W,0.04,209.65,070711,,,A*7B
$GPRMC,211255.000,A,3748.4301,N,12218.1364,W,0.35,63.35,070711,,,A*4F
$GPRMC,211256.000,A,3748.4297,N,12218.1358,W,0.11,67.53,070711,,,A*4F
$GPRMC,211257.000,A,3748.4292,N,12218.1363,W,0.42,199.77,070711,,,A*73
$GPRMC,211258.000,A,3748.4291,N,12218.1368,W,0.49,211.41,070711,,,A*79
$GPRMC,211259.000,A,3748.4288,N,12218.1372,W,0.27,249.15,070711,,,A*7F
$GPRMC,211300.000,A,3748.4288,N,12218.1371,W,0.17,257.42,070711,,,A*7F
$GPRMC,211301.000,A,3748.4290,N,12218.1367,W,0.04,324.73,070711,,,A*75
$GPRMC,211302.000,A,3748.4293,N,12218.1362,W,0.07,21.53,070711,,,A*47
$GPRMC,211303.000,A,3748.4296,N,12218.1358,W,0.16,15.35,070711,,,A*4D
$GPRMC,211304.000,A,3748.4297,N,12218.1355,W,0.18,15.94,070711,,,A*43
$GPRMC,211305.000,A,3748.4299,N,12218.1352,W,0.16,15.12,070711,,,A*4B
$GPRMC,211306.000,A,3748.4300,N,12218.1350,W,0.17,17.12,070711,,,A*48
$GPRMC,211307.000,A,3748.4301,N,12218.1349,W,0.22,15.99,070711,,,A*47
$GPRMC,211308.000,A,3748.4302,N,12218.1348,W,0.20,7.61,070711,,,A*7C
$GPRMC,211309.000,A,3748.4304,N,12218.1346,W,0.21,31.53,070711,,,A*40
$GPRMC,211310.000,A,3748.4306,N,12218.1345,W,0.25,11.42,070711,,,A*4F
$GPRMC,211311.000,A,3748.4307,N,12218.1344,W,0.24,19.27,070711,,,A*44
$GPRMC,211312.000,A,3748.4308,N,12218.1342,W,0.21,17.11,070711,,,A*40
$GPRMC,211313.000,A,3748.4309,N,12218.1340,W,0.25,32.52,070711,,,A*46
$GPRMC,211314.000,A,3748.4310,N,12218.1338,W,0.53,359.95,070711,,,A*72
$GPRMC,211315.000,A,3748.4310,N,12218.1337,W,0.31,11.98,070711,,,A*4A
$GPRMC,211316.000,A,3748.4310,N,12218.1335,W,0.18,45.23,070711,,,A*41
$GPRMC,211317.000,A,3748.4310,N,12218.1333,W,0.25,23.81,070711,,,A*40
$GPRMC,211318.000,A,3748.4310,N,12218.1331,W,0.25,24.88,070711,,,A*43
$GPRMC,211319.000,A,3748.4310,N,12218.1330,W,0.26,25.87,070711,,,A*4E
$GPRMC,211320.000,A,3748.4310,N,12218.1328,W,0.28,33.07,070711,,,A*4C
$GPRMC,211321.000,A,3748.4310,N,12218.1327,W,0.23,11.57,070711,,,A*4C
$GPRMC,211322.000,A,3748.4311,N,12218.1325,W,0.43,30.52,070711,,,A*4C
$GPRMC,211323.000,A,3748.4312,N,12218.1323,W,0.29,31.48,070711,,,A*4E
$GPRMC,211324.000,A,3748.4314,N,12218.1324,W,0.25,23.31,070711,,,A*49
$GPRMC,211325.000,A,3748.4314,N,12218.1326,W,0.13,2.84,070711,,,A*72
$GPRMC,211326.000,A,3748.4314,N,12218.1327,W,0.27,4.89,070711,,,A*7C
$GPRMC,211327.000,A,3748.4314,N,12218.1329,W,0.11,3.47,070711,,,A*73
$GPRMC,211328.000,A,3748.4312,N,12218.1329,W,0.10,354.03,070711,,,A*7A
$GPRMC,211329.000,A,3748.4311,N,12218.1329,W,0.08,26.97,070711,,,A*4A
$GPRMC,211330.000,A,3748.4311,N,12218.1328,W,0.19,358.44,070711,,,A*77
$GPRMC,211331.000,A,3748.4311,N,12218.1327,W,0.12,5.75,070711,,,A*7B
$GPRMC,211332.000,A,3748.4311,N,12218.1326,W,0.20,3.58,070711,,,A*71
$GPRMC,211333.000,A,3748.4311,N,12218.1325,W,0.12,9.13,070711,,,A*77
$GPRMC,211334.000,A,3748.4312,N,12218.1323,W,0.19,23.00,070711,,,A*44
$GPRMC,211335.000,A,3748.4312,N,12218.1322,W,0.20,17.84,070711,,,A*45
$GPRMC,211336.000,A,3748.4315,N,12218.1317,W,0.30,20.32,070711,,,A*4F
$GPRMC,211337.000,A,3748.4314,N,12218.1318,W,0.13,26.15,070711,,,A*42
$GPRMC,211338.000,A,3748.4313,N,12218.1319,W,0.18,354.54,070711,,,A*73
$GPRMC,211339.000,A,3748.4310,N,12218.1323,W,0.14,315.26,070711,,,A*74
$GPRMC,211340.000,A,3748.4310,N,12218.1324,W,0.11,325.60,070711,,,A*79
$GPRMC,211341.000,A,3748.4308,N,12218.1326,W,0.09,317.71,070711,,,A*7B
$GPRMC,211342.000,A,3748.4308,N,12218.1327,W,0.07,103.37,070711,,,A*72
$GPRMC,211343.000,A,3748.4307,N,12218.1326,W,0.37,161.90,070711,,,A*77
$GPRMC,211344.000,A,3748.4307,N,12218.1326,W,0.15,129.00,070711,,,A*75
$GPRMC,211345.000,A,3748.4307,N,12218.1323,W,0.11,359.92,070711,,,A*7B
$GPRMC,211346.000,A,3748.4308,N,12218.1321,W,0.12,17.96,070711,,,A*4B
$GPRMC,211347.000,A,3748.4306,N,12218.1325,W,0.13,340.79,070711,,,A*71
$GPRMC,211348.000,A,3748.4304,N,12218.1328,W,0.05,297.58,070711,,,A*7E
$GPRMC,211349.000,A,3748.4304,N,12218.1328,W,0.14,299.32,070711,,,A*7D
$GPRMC,211350.000,A,3748.4305,N,12218.1327,W,0.14,337.13,070711,,,A*7D
$GPRMC,211351.000,A,3748.4306,N,12218.1326,W,0.09,328.17,070711,,,A*78
$GPRMC,211352.000,A,3748.4307,N,12218.1326,W,0.07,356.22,070711,,,A*7B
$GPRMC,211353.000,A,3748.4307,N,12218.1325,W,0.12,339.27,070711,,,A*71
$GPRMC,211354.000,A,3748.4308,N,12218.1325,W,0.11,327.00,070711,,,A*70
$GPRMC,211355.000,A,3748.4308,N,12218.1325,W,0.12,356.69,070711,,,A*7B
$GPRMC,211356.000,A,3748.4309,N,12218.1325,W,0.07,324.27,070711,,,A*72
$GPRMC,211357.000,A,3748.4308,N,12218.1325,W,0.10,346.48,070711,,,A*79
$GPRMC,211358.000,A,3748.4308,N,12218.1325,W,0.09,311.93,070711,,,A*7A
$GPRMC,211359.000,A,3748.4308,N,12218.1325,W,0.12,314.99,070711,,,A*7E
$GPRMC,211400.000,A,3748.4308,N,12218.1326,W,0.10,319.09,070711,,,A*70
$GPRMC,211401.000,A,3748.4307,N,12218.1326,W,0.10,321.10,070711,,,A*7D
$GPRMC,211402.000,A,3748.4307,N,12218.1326,W,0.13,321.24,070711,,,A*7A
$GPRMC,211403.000,A,3748.4302,N,12218.1335,W,0.08,295.05,070711,,,A*7B
$GPRMC,211404.000,A,3748.4301,N,12218.1336,W,0.08,274.75,070711,,,A*74
$GPRMC,211405.000,A,3748.4300,N,12218.1338,W,0.17,256.86,070711,,,A*78
$GPRMC,211406.000,A,3748.4297,N,12218.1341,W,0.23,251.95,070711,,,A*78
$GPRMC,211407.000,A,3748.4296,N,12218.1343,W,0.18,250.09,070711,,,A*76
$GPRMC,211408.000,A,3748.4295,N,12218.1344,W,0.24,250.77,070711,,,A*7B
$GPRMC,211409.000,A,3748.4294,N,12218.1345,W,0.23,247.74,070711,,,A*78
$GPRMC,211410.000,A,3748.4295,N,12218.1344,W,0.21,248.05,070711,,,A*7B
$GPRMC,211411.000,A,3748.4295,N,12218.1343,W,0.25,249.61,070711,,,A*7A
$GPRMC,211412.000,A,3748.4298,N,12218.1337,W,0.22,350.72,070711,,,A*7B
$GPRMC,211413.000,A,3748.4300,N,12218.1338,W,0.19,298.62,070711,,,A*79
$GPRMC,211414.000,A,3748.4298,N,12218.1345,W,0.31,263.31,070711,,,A*7C
$GPRMC,211415.000,A,3748.4299,N,12218.1350,W,0.55,329.67,070711,,,A*76
$GPRMC,211416.000,A,3748.4295,N,12218.1357,W,0.63,218.53,070711,,,A*7F
$GPRMC,211417.000,A,3748.4291,N,12218.1360,W,0.79,260.50,070711,,,A*79
$GPRMC,211418.000,A,3748.4287,N,12218.1367,W,0.81,286.39,070711,,,A*76
$GPRMC,211419.000,A,3748.4289,N,12218.1369,W,0.59,305.69,070711,,,A*7D
$GPRMC,211420.000,A,3748.4293,N,12218.1365,W,0.16,268.53,070711,,,A*78
$GPRMC,211421.000,A,3748.4294,N,12218.1365,W,0.21,307.61,070711,,,A*73
$GPRMC,211422.000,A,3748.4290,N,12218.1375,W,0.57,239.44,070711,,,A*7F
$GPRMC,211423.000,A,3748.4289,N,12218.1377,W,0.48,262.33,070711,,,A*74
$GPRMC,211424.000,A,3748.4286,N,12218.1382,W,0.59,208.85,070711,,,A*77
$GPRMC,211425.000,A,3748.4281,N,12218.1390,W,0.60,197.48,070711,,,A*7C
$GPRMC,211426.000,A,3748.4278,N,12218.1400,W,0.35,246.73,070711,,,A*70
$GPRMC,211427.000,A,3748.4282,N,12218.1397,W,0.45,354.58,070711,,,A*71
$GPRMC,211428.000,A,3748.4287,N,12218.1391,W,0.55,352.31,070711,,,A*75
$GPRMC,211429.000,A,3748.4288,N,12218.1394,W,0.51,297.79,070711,,,A*7E
$GPRMC,211430.000,A,3748.4288,N,12218.1397,W,0.54,284.00,070711,,,A*7C
$GPRMC,211431.000,A,3748.4289,N,12218.1399,W,0.54,284.00,070711,,,E*76
$GPRMC,211432.000,A,3748.4289,N,12218.1400,W,0.54,284.00,070711,,,E*72
$GPRMC,211433.000,A,3748.4282,N,12218.1405,W,0.38,220.72,070711,,,A*78
$GPRMC,211434.000,A,3748.4284,N,12218.1406,W,0.28,344.94,070711,,,A*70
$GPRMC,211435.000,A,3748.4306,N,12218.1405,W,1.69,336.07,070711,,,A*72
$GPRMC,211436.000,A,3748.4313,N,12218.1407,W,1.97,341.06,070711,,,A*77
$GPRMC,211437.000,A,3748.4365,N,12218.1415,W,5.01,342.27,070711,,,A*7F
$GPRMC,211438.000,A,3748.4379,N,12218.1420,W,5.01,342.27,070711,,,E*7F
$GPRMC,211439.000,A,3748.4324,N,12218.1386,W,1.07,353.54,070711,,,A*7F
$GPRMC,211440.000,A,3748.4288,N,12218.1367,W,0.67,18.17,070711,,,A*45
$GPRMC,211441.000,A,3748.4270,N,12218.1367,W,0.60,2.34,070711,,,A*7E
$GPRMC,211442.000,A,3748.4273,N,12218.1369,W,0.39,40.74,070711,,,A*4E
$GPRMC,211443.000,A,3748.4287,N,12218.1365,W,0.50,50.99,070711,,,A*45
$GPRMC,211444.000,A,3748.4285,N,12218.1362,W,0.75,13.58,070711,,,A*4A
$GPRMC,211445.000,A,3748.4282,N,12218.1358,W,0.55,12.56,070711,,,A*48
$GPRMC,211446.000,A,3748.4284,N,12218.1357,W,0.99,344.05,070711,,,A*74
$GPRMC,211447.000,A,3748.4290,N,12218.1356,W,0.84,355.49,070711,,,A*75
$GPRMC,211448.000,A,3748.4285,N,12218.1350,W,0.73,4.34,070711,,,A*7D
$GPRMC,211449.000,A,3748.4288,N,12218.1344,W,0.26,113.87,070711,,,A*7B
$GPRMC,211450.000,A,3748.4286,N,12218.1341,W,0.78,155.05,070711,,,A*7B
$GPRMC,211451.000,A,3748.4284,N,12218.1340,W,1.25,160.86,070711,,,A*7D
$GPRMC,211452.000,A,3748.4283,N,12218.1339,W,0.49,129.37,070711,,,A*7B
$GPRMC,211453.000,A,3748.4288,N,12218.1333,W,0.77,51.14,070711,,,A*49
$GPRMC,211454.000,A,3748.4290,N,12218.1327,W,0.48,78.07,070711,,,A*47
$GPRMC,211455.000,A,3748.4292,N,12218.1317,W,1.17,51.28,070711,,,A*4A
$GPRMC,211456.000,A,3748.4296,N,12218.1319,W,0.24,13.15,070711,,,A*4A
$GPRMC,211457.000,A,3748.4292,N,12218.1315,W,0.35,228.33,070711,,,A*7D
$GPRMC,211458.000,A,3748.4287,N,12218.1322,W,0.12,320.88,070711,,,A*7E
$GPRMC,211459.000,A,3748.4278,N,12218.1329,W,0.59,181.81,070711,,,A*7B
$GPRMC,211500.000,A,3748.4277,N,12218.1325,W,0.19,227.66,070711,,,A*77
$GPRMC,211501.000,A,3748.4276,N,12218.1322,W,0.83,175.21,070711,,,A*74
$GPRMC,211502.000,A,3748.4276,N,12218.1316,W,0.20,161.44,070711,,,A*7F
$GPRMC,211503.000,A,3748.4275,N,12218.1307,W,0.48,109.46,070711,,,A*7F
$GPRMC,211504.000,A,3748.4273,N,12218.1304,W,0.49,120.83,070711,,,A*7E
$GPRMC,211505.000,A,3748.4275,N,12218.1295,W,0.48,105.71,070711,,,A*7B
$GPRMC,211506.000,A,3748.4272,N,12218.1293,W,0.67,162.23,070711,,,A*72
$GPRMC,211507.000,A,3748.4270,N,12218.1291,W,0.74,157.57,070711,,,A*74
$GPRMC,211508.000,A,3748.4274,N,12218.1286,W,0.33,85.54,070711,,,A*47
$GPRMC,211509.000,A,3748.4271,N,12218.1285,W,0.44,143.61,070711,,,A*7D
$GPRMC,211510.000,A,3748.4266,N,12218.1285,W,0.76,148.08,070711,,,A*76
$GPRMC,211511.000,A,3748.4258,N,12218.1284,W,1.12,149.34,070711,,,A*76
$GPRMC,211512.000,A,3748.4253,N,12218.1281,W,1.23,144.40,070711,,,A*77
$GPRMC,211513.000,A,3748.4252,N,12218.1280,W,1.33,166.99,070711,,,A*73
$GPRMC,211514.000,A,3748.4254,N,12218.1280,W,0.99,167.63,070711,,,A*77
$GPRMC,211515.000,A,3748.4261,N,12218.1282,W,0.33,147.85,070711,,,A*78
$GPRMC,211516.000,A,3748.4244,N,12218.1276,W,1.10,139.48,070711,,,A*7F
$GPRMC,211517.000,A,3748.4260,N,12218.1280,W,0.46,50.65,070711,,,A*42
$GPRMC,211518.000,A,3748.4235,N,12218.1270,W,1.53,162.14,070711,,,A*71
$GPRMC,211519.000,A,3748.4198,N,12218.1257,W,3.75,168.80,070711,,,A*70
$GPRMC,211520.000,A,3748.4158,N,12218.1242,W,5.02,161.74,070711,,,A*76
$GPRMC,211521.000,A,3748.4134,N,12218.1232,W,5.38,159.94,070711,,,A*76
$GPRMC,211522.000,A,3748.4163,N,12218.1242,W,2.92,150.13,070711,,,A*71
$GPRMC,211523.000,A,3748.4150,N,12218.1236,W,3.34,159.01,070711,,,A*74
$GPRMC,211524.000,A,3748.4108,N,12218.1219,W,5.27,164.45,070711,,,A*79
$GPRMC,211525.000,A,3748.4115,N,12218.1222,W,3.98,159.19,070711,,,A*79
$GPRMC,211526.000,A,3748.4116,N,12218.1222,W,3.27,155.54,070711,,,A*78
$GPRMC,211527.000,A,3748.4113,N,12218.1220,W,3.00,156.49,070711,,,A*74
$GPRMC,211528.000,A,3748.4107,N,12218.1216,W,2.78,154.52,070711,,,A*7D
$GPRMC,211529.000,A,3748.4100,N,12218.1213,W,3.15,163.85,070711,,,A*7A
$GPRMC,211530.000,A,3748.4020,N,12218.1178,W,6.38,163.24,070711,,,A*7E
$GPRMC,211531.000,A,3748.4037,N,12218.1186,W,4.72,159.63,070711,,,A*7E
$GPRMC,211532.000,A,3748.4065,N,12218.1198,W,3.06,159.32,070711,,,A*75
$GPRMC,211533.000,A,3748.4079,N,12218.1204,W,2.18,159.95,070711,,,A*7C
$GPRMC,211534.000,A,3748.4083,N,12218.1204,W,1.52,144.43,070711,,,A*74
$GPRMC,211535.000,A,3748.4127,N,12218.1223,W,0.82,14.02,070711,,,A*42
$GPRMC,211536.000,A,3748.4188,N,12218.1250,W,2.85,342.56,070711,,,A*74
$GPRMC,211537.000,A,3748.4257,N,12218.1281,W,4.96,338.54,070711,,,A*73
$GPRMC,211538.000,A,3748.4265,N,12218.1285,W,4.27,334.50,070711,,,A*7B
$GPRMC,211539.000,A,3748.4223,N,12218.1268,W,1.75,314.46,070711,,,A*7C
$GPRMC,211540.000,A,3748.4290,N,12218.1297,W,4.15,341.34,070711,,,A*7C
$GPRMC,211541.000,A,3748.4249,N,12218.1280,W,1.78,337.23,070711,,,A*76
$GPRMC,211542.000,A,3748.4241,N,12218.1275,W,1.49,324.04,070711,,,A*72
$GPRMC,211543.000,A,3748.4270,N,12218.1290,W,2.74,337.78,070711,,,A*7E
$GPRMC,211544.000,A,3748.4277,N,12218.1294,W,2.50,335.16,070711,,,A*76
$GPRMC,211545.000,A,3748.4292,N,12218.1301,W,2.59,333.55,070711,,,A*79
$GPRMC,211546.000,A,3748.4334,N,12218.1322,W,3.75,334.66,070711,,,A*7E
$GPRMC,211547.000,A,3748.4398,N,12218.1352,W,5.88,339.08,070711,,,A*7F
$GPRMC,211548.000,A,3748.4453,N,12218.1377,W,7.36,338.63,070711,,,A*7C
$GPRMC,211549.000,A,3748.4475,N,12218.1385,W,7.54,340.73,070711,,,A*7E
$GPRMC,211550.000,A,3748.4461,N,12218.1379,W,5.88,336.85,070711,,,A*7B
$GPRMC,211551.000,A,3748.4433,N,12218.1367,W,3.95,332.87,070711,,,A*7E
$GPRMC,211552.000,A,3748.4400,N,12218.1352,W,2.21,327.68,070711,,,A*70
$GPRMC,211553.000,A,3748.4401,N,12218.1354,W,2.09,334.41,070711,,,A*75
$GPRMC,211554.000,A,3748.4378,N,12218.1344,W,0.95,324.20,070711,,,A*7B
$GPRMC,211555.000,A,3748.4322,N,12218.1321,W,0.29,326.37,070711,,,A*75
$GPRMC,211556.000,A,3748.4225,N,12218.1275,W,3.23,162.51,070711,,,A*7B
$GPRMC,211557.000,A,3748.4171,N,12218.1249,W,4.40,157.26,070711,,,A*73
$GPRMC,211558.000,A,3748.4134,N,12218.1231,W,5.10,159.08,070711,,,A*74
$GPRMC,211559.000,A,3748.4103,N,12218.1216,W,5.65,158.96,070711,,,A*70
$GPRMC,211600.000,A,3748.4177,N,12218.1251,W,2.04,159.30,070711,,,A*72
$GPRMC,211601.000,A,3748.4214,N,12218.1267,W,0.40,166.31,070711,,,A*7F
$GPRMC,211602.000,A,3748.4255,N,12218.1285,W,1.29,335.58,070711,,,A*70
$GPRMC,211603.000,A,3748.4227,N,12218.1271,W,0.76,354.49,070711,,,A*73
$GPRMC,211604.000,A,3748.4261,N,12218.1286,W,2.28,348.04,070711,,,A*73
$GPRMC,211605.000,A,3748.4259,N,12218.1285,W,1.58,334.60,070711,,,A*77
$GPRMC,211606.000,A,3748.4242,N,12218.1278,W,0.63,292.31,070711,,,A*7C
$GPRMC,211607.000,A,3748.4243,N,12218.1280,W,0.63,292.31,070711,,,E*7F
$GPRMC,211608.000,A,3748.4244,N,12218.1282,W,0.63,292.31,070711,,,E*75
$GPRMC,211609.000,A,3748.4244,N,12218.1284,W,0.63,292.31,070711,,,E*72
$GPRMC,211610.000,A,3748.4245,N,12218.1286,W,0.63,292.31,070711,,,E*79
$GPRMC,211611.000,A,3748.4246,N,12218.1288,W,0.63,292.31,070711,,,E*75
$GPRMC,211612.000,A,3748.4353,N,12218.1321,W,3.90,335.94,070711,,,A*79
$GPRMC,211613.000,A,3748.4332,N,12218.1290,W,2.41,328.57,070711,,,A*7A
$GPRMC,211614.000,A,3748.4243,N,12218.1256,W,1.34,198.92,070711,,,A*71
$GPRMC,211615.000,A,3748.4181,N,12218.1235,W,2.48,168.51,070711,,,A*70
$GPRMC,211616.000,A,3748.4245,N,12218.1257,W,0.84,5.51,070711,,,A*74
$GPRMC,211617.000,A,3748.4239,N,12218.1253,W,1.05,7.10,070711,,,A*75
$GPRMC,211618.000,A,3748.4213,N,12218.1240,W,0.44,46.06,070711,,,A*46
$GPRMC,211619.000,A,3748.4153,N,12218.1212,W,2.22,163.76,070711,,,A*74
$GPRMC,211620.000,A,3748.4124,N,12218.1199,W,2.69,158.41,070711,,,A*7D
$GPRMC,211621.000,A,3748.4075,N,12218.1176,W,3.91,157.02,070711,,,A*76
$GPRMC,211622.000,A,3748.4011,N,12218.1145,W,5.47,156.35,070711,,,A*7F
$GPRMC,211623.000,A,3748.3993,N,12218.1136,W,5.07,153.97,070711,,,A*77
$GPRMC,211624.000,A,3748.4033,N,12218.1153,W,3.20,158.38,070711,,,A*7A
$GPRMC,211625.000,A,3748.4235,N,12218.1282,W,0.82,336.42,070711,,,A*7C
$GPRMC,211626.000,A,3748.4312,N,12218.1323,W,0.55,2.64,070711,,,A*7B
$GPRMC,211627.000,A,3748.4313,N,12218.1324,W,0.79,6.74,070711,,,A*77
$GPRMC,211628.000,A,3748.4302,N,12218.1313,W,0.52,43.19,070711,,,A*4F
$GPRMC,211629.000,A,3748.4294,N,12218.1302,W,0.17,110.29,070711,,,A*75
$GPRMC,211630.000,A,3748.4293,N,12218.1300,W,0.22,83.07,070711,,,A*49
$GPRMC,211631.000,A,3748.4291,N,12218.1302,W,0.25,174.78,070711,,,A*7E
$GPRMC,211632.000,A,3748.4289,N,12218.1302,W,0.32,167.10,070711,,,A*7E
$GPRMC,211633.000,A,3748.4288,N,12218.1302,W,0.41,180.78,070711,,,A*7D
$GPRMC,211634.000,A,3748.4276,N,12218.1306,W,1.28,165.82,070711,,,A*7F
$GPRMC,211635.000,A,3748.4266,N,12218.1307,W,2.00,166.27,070711,,,A*7B
$GPRMC,211636.000,A,3748.4279,N,12218.1311,W,0.16,202.22,070711,,,A*70
$GPRMC,211637.000,A,3748.4292,N,12218.1312,W,0.10,331.26,070711,,,A*74
$GPRMC,211638.000,A,3748.4304,N,12218.1318,W,0.08,352.67,070711,,,A*76
$GPRMC,211639.000,A,3748.4299,N,12218.1312,W,0.07,309.91,070711,,,A*70
$GPRMC,211640.000,A,3748.4297,N,12218.1311,W,0.07,295.21,070711,,,A*7C
$GPRMC,211641.000,A,3748.4294,N,12218.1314,W,0.19,276.30,070711,,,A*79
$GPRMC,211642.000,A,3748.4295,N,12218.1312,W,0.13,324.15,070711,,,A*76
$GPRMC,211643.000,A,3748.4298,N,12218.1308,W,0.29,3.28,070711,,,A*70
$GPRMC,211644.000,A,3748.4299,N,12218.1309,W,0.20,340.44,070711,,,A*70
$GPRMC,211645.000,A,3748.4298,N,12218.1312,W,0.23,296.09,070711,,,A*7A
$GPRMC,211646.000,A,3748.4296,N,12218.1315,W,0.21,291.80,070711,,,A*74
$GPRMC,211647.000,A,3748.4295,N,12218.1321,W,0.49,187.81,070711,,,A*7A
$GPRMC,211648.000,A,3748.4297,N,12218.1328,W,0.33,189.11,070711,,,A*74
$GPRMC,211649.000,A,3748.4295,N,12218.1331,W,0.30,239.77,070711,,,A*74
$GPRMC,211650.000,A,3748.4290,N,12218.1331,W,0.28,248.81,070711,,,A*7F
$GPRMC,211651.000,A,3748.4292,N,12218.1335,W,0.26,239.27,070711,,,A*7C
$GPRMC,211652.000,A,3748.4292,N,12218.1336,W,0.22,254.08,070711,,,A*7E
$GPRMC,211653.000,A,3748.4291,N,12218.1330,W,0.10,241.26,070711,,,A*73
$GPRMC,211654.000,A,3748.4294,N,12218.1324,W,0.07,35.26,070711,,,A*43
$GPRMC,211655.000,A,3748.4295,N,12218.1323,W,0.07,289.39,070711,,,A*7F
$GPRMC,211656.000,A,3748.4297,N,12218.1322,W,0.07,10.84,070711,,,A*4B
$GPRMC,211657.000,A,3748.4303,N,12218.1317,W,0.50,1.52,070711,,,A*79
$GPRMC,211658.000,A,3748.4306,N,12218.1315,W,0.52,356.36,070711,,,A*70
$GPRMC,211659.000,A,3748.4307,N,12218.1317,W,0.36,328.89,070711,,,A*7D
$GPRMC,211700.000,A,3748.4306,N,12218.1321,W,0.23,332.99,070711,,,A*7A
$GPRMC,211701.000,A,3748.4308,N,12218.1320,W,0.29,349.78,070711,,,A*7D
$GPRMC,211702.000,A,3748.4309,N,12218.1320,W,0.15,285.44,070711,,,A*7E
$GPRMC,211703.000,A,3748.4300,N,12218.1314,W,0.79,151.76,070711,,,A*70
$GPRMC,211704.000,A,3748.4300,N,12218.1312,W,0.24,109.61,070711,,,A*72
$GPRMC,211705.000,A,3748.4301,N,12218.1312,W,0.22,35.44,070711,,,A*4D
$GPRMC,211706.000,A,3748.4297,N,12218.1308,W,0.27,11.95,070711,,,A*44
$GPRMC,211707.000,A,3748.4296,N,12218.1306,W,0.21,24.82,070711,,,A*4C
$GPRMC,211708.000,A,3748.4300,N,12218.1305,W,0.36,20.88,070711,,,A*46
$GPRMC,211709.000,A,3748.4305,N,12218.1305,W,0.37,25.56,070711,,,A*45
$GPRMC,211710.000,A,3748.4307,N,12218.1305,W,0.25,33.56,070711,,,A*4B
$GPRMC,211711.000,A,3748.4306,N,12218.1302,W,0.40,28.42,070711,,,A*40
$GPRMC,211712.000,A,3748.4310,N,12218.1303,W,0.70,1.34,070711,,,A*7C
$GPRMC,211713.000,A,3748.4311,N,12218.1302,W,0.77,357.33,070711,,,A*7D
$GPRMC,211714.000,A,3748.4306,N,12218.1306,W,0.61,346.07,070711,,,A*78
$GPRMC,211715.000,A,3748.4307,N,12218.1303,W,0.40,1.33,070711,,,A*79
$GPRMC,211716.000,A,3748.4307,N,12218.1300,W,0.49,26.58,070711,,,A*48
$GPRMC,211717.000,A,3748.4308,N,12218.1302,W,0.25,1.18,070711,,,A*7F
$GPRMC,211718.000,A,3748.4307,N,12218.1305,W,0.22,358.62,070711,,,A*7D
$GPRMC,211719.000,A,3748.4306,N,12218.1307,W,0.20,357.48,070711,,,A*7A
$GPRMC,211720.000,A,3748.4303,N,12218.1312,W,0.19,350.87,070711,,,A*7F
$GPRMC,211721.000,A,3748.4303,N,12218.1311,W,0.22,358.07,070711,,,A*75
$GPRMC,211722.000,A,3748.4303,N,12218.1311,W,0.17,0.42,070711,,,A*7F
$GPRMC,211723.000,A,3748.4303,N,12218.1312,W,0.16,47.14,070711,,,A*4C
$GPRMC,211724.000,A,3748.4301,N,12218.1313,W,0.20,347.38,070711,,,A*70
$GPRMC,211725.000,A,3748.4302,N,12218.1306,W,0.38,303.79,070711,,,A*7A
$GPRMC,211726.000,A,3748.4301,N,12218.1307,W,0.95,286.23,070711,,,A*7F
$GPRMC,211727.000,A,3748.4300,N,12218.1308,W,0.41,307.33,070711,,,A*70
$GPRMC,211728.000,A,3748.4300,N,12218.1303,W,0.40,152.05,070711,,,A*72
$GPRMC,211729.000,A,3748.4301,N,12218.1300,W,0.18,101.79,070711,,,A*71
$GPRMC,211730.000,A,3748.4301,N,12218.1297,W,0.25,41.47,070711,,,A*40
$GPRMC,211731.000,A,3748.4301,N,12218.1295,W,0.25,13.55,070711,,,A*47
$GPRMC,211732.000,A,3748.4301,N,12218.1293,W,0.30,22.48,070711,,,A*48
$GPRMC,211733.000,A,3748.4301,N,12218.1293,W,0.27,17.62,070711,,,A*41
$GPRMC,211734.000,A,3748.4302,N,12218.1293,W,0.24,2.54,070711,,,A*77
$GPRMC,211735.000,A,3748.4303,N,12218.1294,W,0.29,359.97,070711,,,A*7F
$GPRMC,211736.000,A,3748.4303,N,12218.1295,W,0.21,3.27,070711,,,A*72
$GPRMC,211737.000,A,3748.4304,N,12218.1297,W,0.97,345.16,070711,,,A*78
$GPRMC,211738.000,A,3748.4309,N,12218.1301,W,1.93,340.87,070711,,,A*7C
$GPRMC,211739.000,A,3748.4310,N,12218.1303,W,1.23,335.04,070711,,,A*75
$GPRMC,211740.000,A,3748.4307,N,12218.1308,W,0.41,301.19,070711,,,A*78
$GPRMC,211741.000,A,3748.4310,N,12218.1306,W,0.33,321.35,070711,,,A*78
$GPRMC,211742.000,A,3748.4312,N,12218.1305,W,0.19,340.26,070711,,,A*77
$GPRMC,211743.000,A,3748.4314,N,12218.1306,W,0.32,183.02,070711,,,A*71
$GPRMC,211744.000,A,3748.4315,N,12218.1309,W,0.56,337.93,070711,,,A*7F
$GPRMC,211745.000,A,3748.4317,N,12218.1311,W,0.33,328.69,070711,,,A*7D
$GPRMC,211746.000,A,3748.4321,N,12218.1316,W,1.18,336.29,070711,,,A*7F
$GPRMC,211747.000,A,3748.4323,N,12218.1323,W,2.13,333.48,070711,,,A*70
$GPRMC,211748.000,A,3748.4322,N,12218.1326,W,1.41,320.97,070711,,,A*7F
$GPRMC,211749.000,A,3748.4324,N,12218.1330,W,1.82,328.79,070711,,,A*78
$GPRMC,211750.000,A,3748.4325,N,12218.1330,W,0.92,318.39,070711,,,A*76
$GPRMC,211751.000,A,3748.4320,N,12218.1329,W,0.38,208.49,070711,,,A*7D
$GPRMC,211752.000,A,3748.4318,N,12218.1330,W,0.83,179.22,070711,,,A*75
$GPRMC,211753.000,A,3748.4315,N,12218.1331,W,0.93,174.90,070711,,,A*7D
$GPRMC,211754.000,A,3748.4305,N,12218.1327,W,1.96,166.75,070711,,,A*70
$GPRMC,211755.000,A,3748.4304,N,12218.1327,W,0.89,164.77,070711,,,A*7F
$GPRMC,211756.000,A,3748.4304,N,12218.1329,W,0.33,314.02,070711,,,A*74
$GPRMC,211757.000,A,3748.4300,N,12218.1328,W,0.24,225.91,070711,,,A*7F
$GPRMC,211758.000,A,3748.4297,N,12218.1327,W,0.15,251.82,070711,,,A*73
$GPRMC,211759.000,A,3748.4293,N,12218.1325,W,0.28,201.65,070711,,,A*76
$GPRMC,211800.000,A,3748.4287,N,12218.1322,W,0.31,313.36,070711,,,A*7B
$GPRMC,211801.000,A,3748.4283,N,12218.1320,W,0.88,332.75,070711,,,A*7A
$GPRMC,211802.000,A,3748.4282,N,12218.1319,W,1.06,329.65,070711,,,A*7E
$GPRMC,211803.000,A,3748.4281,N,12218.1319,W,0.91,327.21,070711,,,A*7D
$GPRMC,211804.000,A,3748.4280,N,12218.1317,W,0.39,308.32,070711,,,A*78
$GPRMC,211805.000,A,3748.4273,N,12218.1314,W,0.49,181.37,070711,,,A*77
$GPRMC,211806.000,A,3748.4272,N,12218.1313,W,0.06,277.70,070711,,,A*70
$GPRMC,211807.000,A,3748.4273,N,12218.1313,W,0.14,186.77,070711,,,A*79
$GPRMC,211808.000,A,3748.4272,N,12218.1312,W,0.27,179.73,070711,,,A*72
$GPRMC,211809.000,A,3748.4275,N,12218.1314,W,0.21,324.08,070711,,,A*72
$GPRMC,211810.000,A,3748.4275,N,12218.1314,W,0.40,333.76,070711,,,A*72
$GPRMC,211811.000,A,3748.4275,N,12218.1314,W,0.62,335.75,070711,,,A*76
$GPRMC,211812.000,A,3748.4274,N,12218.1313,W,0.33,317.68,070711,,,A*7B
$GPRMC,211813.000,A,3748.4276,N,12218.1314,W,0.46,175.16,070711,,,A*72
$GPRMC,211814.000,A,3748.4280,N,12218.1316,W,0.81,163.13,070711,,,A*77
$GPRMC,211815.000,A,3748.4282,N,12218.1318,W,0.01,113.92,070711,,,A*7C
$GPRMC,211816.000,A,3748.4287,N,12218.1320,W,0.68,339.16,070711,,,A*78
$GPRMC,211817.000,A,3748.4291,N,12218.1323,W,0.86,337.60,070711,,,A*72
$GPRMC,211818.000,A,3748.4294,N,12218.1323,W,0.82,333.21,070711,,,A*7D
$GPRMC,211819.000,A,3748.4293,N,12218.1326,W,0.69,330.54,070711,,,A*7A
$GPRMC,211820.000,A,3748.4292,N,12218.1327,W,0.37,312.66,070711,,,A*7A
$GPRMC,211821.000,A,3748.4293,N,12218.1328,W,0.75,331.79,070711,,,A*7C
$GPRMC,211822.000,A,3748.4297,N,12218.1328,W,1.55,338.57,070711,,,A*7D
$GPRMC,211823.000,A,3748.4298,N,12218.1328,W,0.72,331.04,070711,,,A*78
$GPRMC,211824.000,A,3748.4300,N,12218.1328,W,0.25,324.09,070711,,,A*74
$GPRMC,211825.000,A,3748.4302,N,12218.1328,W,0.23,169.83,070711,,,A*78
$GPRMC,211826.000,A,3748.4307,N,12218.1330,W,0.39,345.61,070711,,,A*7C
$GPRMC,211827.000,A,3748.4308,N,12218.1335,W,1.08,305.09,070711,,,A*7E
$GPRMC,211828.000,A,3748.4311,N,12218.1337,W,1.41,326.01,070711,,,A*7F
$GPRMC,211829.000,A,3748.4307,N,12218.1341,W,0.62,309.26,070711,,,A*70
$GPRMC,211830.000,A,3748.4301,N,12218.1345,W,0.60,310.82,070711,,,A*7E
$GPRMC,211831.000,A,3748.4300,N,12218.1349,W,0.39,255.47,070711,,,A*77
$GPRMC,211832.000,A,3748.4298,N,12218.1352,W,0.51,211.38,070711,,,A*78
$GPRMC,211833.000,A,3748.4294,N,12218.1354,W,0.42,220.44,070711,,,A*78
$GPRMC,211834.000,A,3748.4293,N,12218.1357,W,0.54,215.03,070711,,,A*79
$GPRMC,211835.000,A,3748.4290,N,12218.1359,W,0.81,193.69,070711,,,A*7C
$GPRMC,211836.000,A,3748.4288,N,12218.1361,W,0.51,219.84,070711,,,A*72
$GPRMC,211837.000,A,3748.4289,N,12218.1364,W,0.75,307.42,070711,,,A*75
$GPRMC,211838.000,A,3748.4290,N,12218.1367,W,0.61,288.15,070711,,,A*70
$GPRMC,211839.000,A,3748.4287,N,12218.1368,W,0.49,269.30,070711,,,A*7A
$GPRMC,211840.000,A,3748.4284,N,12218.1367,W,0.67,209.89,070711,,,A*70
$GPRMC,211841.000,A,3748.4283,N,12218.1367,W,0.74,197.43,070711,,,A*76
$GPRMC,211842.000,A,3748.4282,N,12218.1367,W,0.47,213.03,070711,,,A*7F
$GPRMC,211843.000,A,3748.4281,N,12218.1366,W,0.53,203.21,070711,,,A*78
$GPRMC,211844.000,A,3748.4283,N,12218.1366,W,0.58,315.42,070711,,,A*75
$GPRMC,211845.000,A,3748.4283,N,12218.1364,W,0.58,204.40,070711,,,A*75
$GPRMC,211846.000,A,3748.4283,N,12218.1364,W,0.43,207.67,070711,,,A*7A
$GPRMC,211847.000,A,3748.4284,N,12218.1365,W,0.40,302.63,070711,,,A*7E
$GPRMC,211848.000,A,3748.4285,N,12218.1365,W,0.28,245.26,070711,,,A*7D
$GPRMC,211849.000,A,3748.4285,N,12218.1364,W,0.48,184.69,070711,,,A*7E
$GPRMC,211850.000,A,3748.4285,N,12218.1361,W,0.07,262.18,070711,,,A*75
$GPRMC,211851.000,A,3748.4285,N,12218.1359,W,0.22,187.65,070711,,,A*7A
$GPRMC,211852.000,A,3748.4286,N,12218.1357,W,0.15,328.28,070711,,,A*7E
$GPRMC,211853.000,A,3748.4286,N,12218.1354,W,0.10,167.69,070711,,,A*75
$GPRMC,211854.000,A,3748.4286,N,12218.1352,W,0.06,20.65,070711,,,A*4D
$GPRMC,211855.000,A,3748.4287,N,12218.1350,W,0.10,10.41,070711,,,A*4D
$GPRMC,211856.000,A,3748.4287,N,12218.1348,W,0.17,13.41,070711,,,A*43
$GPRMC,211857.000,A,3748.4288,N,12218.1346,W,0.22,18.99,070711,,,A*4B
$GPRMC,211858.000,A,3748.4288,N,12218.1343,W,0.32,341.47,070711,,,A*7C
$GPRMC,211859.000,A,3748.4286,N,12218.1338,W,0.45,324.66,070711,,,A*7F
$GPRMC,211900.000,A,3748.4289,N,12218.1338,W,0.37,351.40,070711,,,A*7E
$GPRMC,211901.000,A,3748.4288,N,12218.1342,W,0.31,2.38,070711,,,A*7F
$GPRMC,211902.000,A,3748.4290,N,12218.1352,W,0.35,351.40,070711,,,A*7A
$GPRMC,211903.000,A,3748.4292,N,12218.1354,W,0.36,347.71,070711,,,A*79
$GPRMC,211904.000,A,3748.4289,N,12218.1350,W,0.94,151.54,070711,,,A*7A
$GPRMC,211905.000,A,3748.4281,N,12218.1344,W,2.35,156.01,070711,,,A*78
$GPRMC,211906.000,A,3748.4265,N,12218.1334,W,4.06,158.53,070711,,,A*79
$GPRMC,211907.000,A,3748.4260,N,12218.1334,W,2.65,163.16,070711,,,A*77
$GPRMC,211908.000,A,3748.4255,N,12218.1342,W,1.41,155.25,070711,,,A*7F
$GPRMC,211909.000,A,3748.4252,N,12218.1345,W,0.46,136.79,070711,,,A*74
$GPRMC,211910.000,A,3748.4249,N,12218.1347,W,0.17,146.20,070711,,,A*7B
$GPRMC,211911.000,A,3748.4252,N,12218.1350,W,0.45,351.31,070711,,,A*75
$GPRMC,211912.000,A,3748.4258,N,12218.1350,W,0.72,354.01,070711,,,A*7E
$GPRMC,211913.000,A,3748.4260,N,12218.1352,W,0.53,302.34,070711,,,A*70
$GPRMC,211914.000,A,3748.4259,N,12218.1352,W,0.60,311.88,070711,,,A*78
$GPRMC,211915.000,A,3748.4263,N,12218.1359,W,0.65,266.00,070711,,,A*7F
$GPRMC,211916.000,A,3748.4260,N,12218.1350,W,0.90,293.84,070711,,,A*7A
$GPRMC,211917.000,A,3748.4257,N,12218.1354,W,0.93,233.92,070711,,,A*75
$GPRMC,211918.000,A,3748.4251,N,12218.1370,W,1.31,246.25,070711,,,A*7D
$GPRMC,211919.000,A,3748.4243,N,12218.1372,W,1.29,194.03,070711,,,A*7C
$GPRMC,211920.000,A,3748.4243,N,12218.1376,W,0.90,210.57,070711,,,A*7F
$GPRMC,211921.000,A,3748.4247,N,12218.1371,W,1.02,278.48,070711,,,A*77
$GPRMC,211922.000,A,3748.4251,N,12218.1377,W,1.71,320.13,070711,,,A*73
$GPRMC,211923.000,A,3748.4245,N,12218.1380,W,1.38,265.50,070711,,,A*75
$GPRMC,211924.000,A,3748.4242,N,12218.1378,W,1.28,230.91,070711,,,A*7E
$GPRMC,211925.000,A,3748.4242,N,12218.1367,W,0.50,144.86,070711,,,A*79
$GPRMC,211926.000,A,3748.4245,N,12218.1359,W,0.64,68.44,070711,,,A*46
$GPRMC,211927.000,A,3748.4242,N,12218.1356,W,0.33,53.08,070711,,,A*4D
$GPRMC,211928.000,A,3748.4243,N,12218.1359,W,0.26,337.57,070711,,,A*73
$GPRMC,211929.000,A,3748.4244,N,12218.1359,W,0.54,318.35,070711,,,A*79
$GPRMC,211930.000,A,3748.4247,N,12218.1354,W,0.74,3.08,070711,,,A*7A
$GPRMC,211931.000,A,3748.4249,N,12218.1348,W,0.60,347.89,070711,,,A*77
$GPRMC,211932.000,A,3748.4248,N,12218.1337,W,0.52,336.27,070711,,,A*7E
$GPRMC,211933.000,A,3748.4246,N,12218.1330,W,0.37,290.02,070711,,,A*7F
$GPRMC,211934.000,A,3748.4247,N,12218.1331,W,0.37,290.02,070711,,,E*7C
$GPRMC,211935.000,A,3748.4252,N,12218.1327,W,0.80,9.16,070711,,,A*71
$GPRMC,211936.000,A,3748.4251,N,12218.1326,W,0.69,129.49,070711,,,A*7E
$GPRMC,211937.000,A,3748.4243,N,12218.1333,W,0.10,232.69,070711,,,A*7D
$GPRMC,211938.000,A,3748.4241,N,12218.1338,W,0.39,280.54,070711,,,A*77
$GPRMC,211939.000,A,3748.4244,N,12218.1338,W,0.38,288.49,070711,,,A*76
$GPRMC,211940.000,A,3748.4244,N,12218.1339,W,0.38,288.49,070711,,,E*7D
$GPRMC,211941.000,A,3748.4245,N,12218.1340,W,0.38,288.49,070711,,,E*73
$GPRMC,211942.000,A,3748.4245,N,12218.1342,W,0.38,288.49,070711,,,E*72
$GPRMC,211943.000,A,3748.4245,N,12218.1343,W,0.38,288.49,070711,,,E*72
$GPRMC,211944.000,A,3748.4246,N,12218.1344,W,0.38,288.49,070711,,,E*71
$GPRMC,211945.000,A,3748.4246,N,12218.1345,W,0.38,288.49,070711,,,E*71
$GPRMC,211946.000,A,3748.4246,N,12218.1347,W,0.38,288.49,070711,,,E*70
$GPRMC,211947.000,A,3748.4247,N,12218.1348,W,0.38,288.49,070711,,,E*7F
$GPRMC,211948.000,A,3748.4247,N,12218.1349,W,0.38,288.49,070711,,,E*71
$GPRMC,211949.000,A,3748.4247,N,12218.1350,W,0.38,288.49,070711,,,E*78
$GPRMC,211950.000,A,3748.4248,N,12218.1352,W,0.38,288.49,070711,,,E*7D
$GPRMC,211951.000,A,3748.4248,N,12218.1353,W,0.38,288.49,070711,,,E*7D
$GPRMC,211952.000,A,3748.4293,N,12218.1316,W,0.26,220.72,070711,,,A*78
$GPRMC,211953.000,A,3748.4307,N,12218.1371,W,0.73,320.41,070711,,,A*75
$GPRMC,211954.000,A,3748.4289,N,12218.1342,W,0.68,32.82,070711,,,A*40
$GPRMC,211955.000,A,3748.4303,N,12218.1316,W,0.72,109.63,070711,,,A*7E
$GPRMC,211956.000,A,3748.4287,N,12218.1309,W,1.32,166.30,070711,,,A*74
$GPRMC,211957.000,A,3748.4284,N,12218.1308,W,1.32,166.30,070711,,,E*73
$GPRMC,211958.000,A,3748.4297,N,12218.1351,W,2.44,227.43,070711,,,A*76
$GPRMC,211959.000,A,3748.4292,N,12218.1358,W,2.44,227.43,070711,,,E*7F
$GPRMC,212000.000,A,3748.4288,N,12218.1364,W,2.44,227.43,070711,,,E*7D
$GPRMC,212001.000,A,3748.4260,N,12218.1341,W,3.83,162.10,070711,,,A*77
$GPRMC,212002.000,A,3748.4264,N,12218.1348,W,3.01,150.63,070711,,,A*76
$GPRMC,212003.000,A,3748.4247,N,12218.1334,W,2.13,149.33,070711,,,A*72
$GPRMC,212004.000,A,3748.4248,N,12218.1330,W,0.93,163.71,070711,,,A*7A
$GPRMC,212005.000,A,3748.4243,N,12218.1321,W,0.52,18.51,070711,,,A*42
$GPRMC,212006.000,A,3748.4245,N,12218.1306,W,1.41,5.42,070711,,,A*7F
$GPRMC,212007.000,A,3748.4241,N,12218.1298,W,0.21,19.06,070711,,,A*46
$GPRMC,212008.000,A,3748.4238,N,12218.1298,W,0.92,200.77,070711,,,A*73
$GPRMC,212009.000,A,3748.4238,N,12218.1297,W,0.15,64.20,070711,,,A*40
$GPRMC,212010.000,A,3748.4251,N,12218.1310,W,0.86,325.84,070711,,,A*7B
$GPRMC,212011.000,A,3748.4267,N,12218.1319,W,0.97,333.26,070711,,,A*79
$GPRMC,212012.000,A,3748.4263,N,12218.1321,W,0.27,305.94,070711,,,A*72
$GPRMC,212013.000,A,3748.4263,N,12218.1317,W,0.49,89.62,070711,,,A*40
$GPRMC,212014.000,A,3748.4266,N,12218.1317,W,1.03,131.89,070711,,,A*7A
$GPRMC,212015.000,A,3748.4260,N,12218.1309,W,1.37,117.83,070711,,,A*7B
$GPRMC,212016.000,A,3748.4264,N,12218.1307,W,0.73,72.18,070711,,,A*43
$GPRMC,212017.000,A,3748.4266,N,12218.1303,W,0.58,45.84,070711,,,A*4C
$GPRMC,212018.000,A,3748.4258,N,12218.1302,W,0.61,158.16,070711,,,A*73
$GPRMC,212019.000,A,3748.4250,N,12218.1303,W,1.66,186.14,070711,,,A*7C
$GPRMC,212020.000,A,3748.4245,N,12218.1303,W,1.66,186.14,070711,,,E*76
$GPRMC,212021.000,A,3748.4241,N,12218.1304,W,1.66,186.14,070711,,,E*74
$GPRMC,212022.000,A,3748.4242,N,12218.1291,W,0.97,118.50,070711,,,A*75
$GPRMC,212023.000,A,3748.4244,N,12218.1290,W,0.97,119.35,070711,,,A*71
$GPRMC,212024.000,A,3748.4249,N,12218.1290,W,0.33,73.79,070711,,,A*40
$GPRMC,212025.000,A,3748.4260,N,12218.1297,W,0.46,135.80,070711,,,A*7A
$GPRMC,212026.000,A,3748.4267,N,12218.1296,W,0.42,33.66,070711,,,A*44
$GPRMC,212027.000,A,3748.4267,N,12218.1299,W,0.64,335.29,070711,,,A*70
$GPRMC,212028.000,A,3748.4264,N,12218.1304,W,0.20,16.81,070711,,,A*49
$GPRMC,212029.000,A,3748.4263,N,12218.1300,W,0.56,170.46,070711,,,A*70
$GPRMC,212030.000,A,3748.4266,N,12218.1301,W,0.30,111.94,070711,,,A*74
$GPRMC,212031.000,A,3748.4267,N,12218.1305,W,0.46,41.37,070711,,,A*4C
$GPRMC,212032.000,A,3748.4271,N,12218.1302,W,0.57,73.52,070711,,,A*4D
$GPRMC,212033.000,A,3748.4271,N,12218.1308,W,0.61,353.96,070711,,,A*7A
$GPRMC,212034.000,A,3748.4274,N,12218.1307,W,0.31,301.54,070711,,,A*7B
$GPRMC,212035.000,A,3748.4274,N,12218.1311,W,0.73,240.50,070711,,,A*7B
$GPRMC,212036.000,A,3748.4265,N,12218.1320,W,1.22,196.50,070711,,,A*77
$GPRMC,212037.000,A,3748.4270,N,12218.1325,W,0.48,210.68,070711,,,A*7C
$GPRMC,212038.000,A,3748.4273,N,12218.1331,W,0.11,170.29,070711,,,A*79
$GPRMC,212039.000,A,3748.4280,N,12218.1328,W,0.63,24.84,070711,,,A*4E
$GPRMC,212040.000,A,3748.4285,N,12218.1332,W,0.20,36.17,070711,,,A*40
$GPRMC,212041.000,A,3748.4287,N,12218.1338,W,0.57,123.19,070711,,,A*72
$GPRMC,212042.000,A,3748.4288,N,12218.1342,W,0.41,195.80,070711,,,A*79
$GPRMC,212043.000,A,3748.4290,N,12218.1342,W,0.66,251.07,070711,,,A*70
$GPRMC,212044.000,A,3748.4293,N,12218.1348,W,1.16,285.61,070711,,,A*71
$GPRMC,212045.000,A,3748.4293,N,12218.1346,W,0.41,303.54,070711,,,A*74
$GPRMC,212046.000,A,3748.4293,N,12218.1344,W,0.44,256.90,070711,,,A*79
$GPRMC,212047.000,A,3748.4296,N,12218.1339,W,0.22,40.06,070711,,,A*4D
$GPRMC,212048.000,A,3748.4300,N,12218.1333,W,0.17,339.24,070711,,,A*7D
$GPRMC,212049.000,A,3748.4306,N,12218.1325,W,0.12,346.50,070711,,,A*73
$GPRMC,212050.000,A,3748.4311,N,12218.1322,W,0.25,327.95,070711,,,A*70
$GPRMC,212051.000,A,3748.4307,N,12218.1327,W,0.56,287.87,070711,,,A*7F
$GPRMC,212052.000,A,3748.4307,N,12218.1325,W,0.59,328.09,070711,,,A*73
$GPRMC,212053.000,A,3748.4313,N,12218.1321,W,1.29,337.49,070711,,,A*7F
$GPRMC,212054.000,A,3748.4310,N,12218.1320,W,0.38,9.90,070711,,,A*71
$GPRMC,212055.000,A,3748.4311,N,12218.1311,W,0.77,59.07,070711,,,A*43
$GPRMC,212056.000,A,3748.4313,N,12218.1309,W,0.88,343.07,070711,,,A*73
$GPRMC,212057.000,A,3748.4316,N,12218.1301,W,0.58,68.91,070711,,,A*47
$GPRMC,212058.000,A,3748.4316,N,12218.1299,W,0.20,73.42,070711,,,A*43
$GPRMC,212059.000,A,3748.4317,N,12218.1298,W,0.63,2.39,070711,,,A*7F
$GPRMC,212100.000,A,3748.4317,N,12218.1296,W,0.94,10.60,070711,,,A*4B
$GPRMC,212101.000,A,3748.4317,N,12218.1299,W,0.71,24.07,070711,,,A*48
$GPRMC,212102.000,A,3748.4313,N,12218.1303,W,0.32,335.36,070711,,,A*7B
$GPRMC,212103.000,A,3748.4303,N,12218.1308,W,1.03,193.82,070711,,,A*72
$GPRMC,212104.000,A,3748.4299,N,12218.1311,W,0.67,170.08,070711,,,A*73
$GPRMC,212105.000,A,3748.4300,N,12218.1302,W,0.58,161.30,070711,,,A*76
$GPRMC,212106.000,A,3748.4299,N,12218.1297,W,0.62,155.22,070711,,,A*74
$GPRMC,212107.000,A,3748.4298,N,12218.1295,W,0.63,111.01,070711,,,A*76
$GPRMC,212108.000,A,3748.4295,N,12218.1295,W,0.64,146.36,070711,,,A*75
$GPRMC,212109.000,A,3748.4292,N,12218.1290,W,0.77,157.26,070711,,,A*75
$GPRMC,212110.000,A,3748.4281,N,12218.1295,W,1.54,181.64,070711,,,A*77
$GPRMC,212111.000,A,3748.4272,N,12218.1296,W,1.80,184.26,070711,,,A*73
$GPRMC,212112.000,A,3748.4255,N,12218.1298,W,2.45,171.57,070711,,,A*7D
$GPRMC,212113.000,A,3748.4248,N,12218.1300,W,2.37,161.46,070711,,,A*74
$GPRMC,212114.000,A,3748.4234,N,12218.1296,W,2.71,160.63,070711,,,A*72
$GPRMC,212115.000,A,3748.4243,N,12218.1295,W,1.53,139.44,070711,,,A*7A
$GPRMC,212116.000,A,3748.4248,N,12218.1293,W,1.09,129.37,070711,,,A*7E
