$ADVER,3080,2.3
$GPRMC,221016.294,A,3748.2318,N,12217.5434,W,27.81,299.73,070711,,,A*4E
$GPGGA,221017.294,3748.2282,N,12217.5678,W,1,04,1.8,58.0,M,-25.0,M,,0000*55
$GPGSA,A,3,28,08,17,26,,,,,,,,,2.1,1.8,1.0*39
$GPRMC,221017.294,A,3748.2282,N,12217.5678,W,28.70,301.27,070711,,,A*47
$GPVTG,301.27,T,,M,28.70,N,53.2,K,A*03
$GPGGA,221018.294,3748.2307,N,12217.5712,W,1,04,1.8,77.5,M,-25.0,M,,0000*53
$GPGSA,A,3,28,08,17,26,,,,,,,,,2.1,1.8,1.0*39
$GPRMC,221018.294,A,3748.2307,N,12217.5712,W,28.41,301.60,070711,,,A*48
$GPVTG,301.60,T,,M,28.41,N,52.6,K,A*07
$GPGGA,221019.000,3748.2344,N,12217.5774,W,1,03,2.1,68.3,M,-25.0,M,,0000*5F
$GPGSA,A,2,08,17,26,,,,,,,,,,2.3,2.1,1.0*3A
$GPGSV,3,1,11,28,70,353,12,08,57,088,19,26,53,282,16,17,47,186,34*72
$GPGSV,3,2,11,07,32,111,,11,21,070,,05,01,241,,19,00,035,*76
$GPGSV,3,3,11,15,22,313,,24,14,086,,27,05,306,*44
$GPRMC,221019.000,A,3748.2344,N,12217.5774,W,28.13,299.57,070711,,,A*42
$GPVTG,299.57,T,,M,28.13,N,52.1,K,N*0C
$GPGGA,221020.000,3748.2376,N,12217.5881,W,1,04,1.8,99.1,M,-25.0,M,,0000*50
$GPGSA,A,3,28,08,17,26,,,,,,,,,2.1,1.8,1.0*39
$GPRMC,221020.000,A,3748.2376,N,12217.5881,W,28.66,300.51,070711,,,A*49
$GPVTG,300.51,T,,M,28.66,N,53.1,K,A*07
$GPGGA,221021.000,3748.2448,N,12217.5950,W,1,06,1.6,60.1,M,-25.0,M,,0000*5C
$GPGSA,A,3,28,08,17,26,11,07,,,,,,,3.3,1.6,2.9*39
$GPRMC,221021.000,A,3748.2448,N,12217.5950,W,28.70,299.56,070711,,,A*4E
$GPVTG,299.56,T,,M,28.70,N,53.2,K,A*05
$GPGGA,221022.000,3748.2485,N,12217.6044,W,1,06,1.6,53.5,M,-25.0,M,,0000*55
$GPGSA,A,3,28,08,17,26,11,07,,,,,,,3.3,1.6,2.9*39
$GPRMC,221022.000,A,3748.2485,N,12217.6044,W,27.89,297.80,070711,,,A*4F
$GPVTG,297.80,T,,M,27.89,N,51.7,K,A*0E
$GPGGA,221023.000,3748.2530,N,12217.6122,W,1,06,1.6,50.9,M,-25.0,M,,0000*55
$GPGSA,A,3,28,08,17,26,11,07,,,,,,,3.3,1.6,2.9*39
$GPRMC,221023.000,A,3748.2530,N,12217.6122,W,28.32,298.66,070711,,,A*48
$GPVTG,298.66,T,,M,28.32,N,52.5,K,A*07
$GPGGA,221024.000,3748.2564,N,12217.6213,W,1,06,1.6,44.8,M,-25.0,M,,0000*56
$GPGSA,A,3,28,08,17,26,11,07,,,,,,,3.3,1.6,2.9*39
$GPGSV,3,1,11,28,70,353,16,08,57,088,19,26,53,282,17,17,47,186,34*77
$GPGSV,3,2,11,07,32,111,19,11,21,070,19,05,01,241,22,19,00,035,*76
$GPGSV,3,3,11,15,22,313,20,24,14,086,,27,05,306,*46
$GPRMC,221024.000,A,3748.2564,N,12217.6213,W,28.81,297.99,070711,,,A*48
$GPGGA,221025.000,3748.2598,N,12217.6313,W,1,06,1.6,33.4,M,-25.0,M,,0000*59
$GPGSA,A,3,28,08,17,26,11,07,,,,,,,3.3,1.6,2.9*39
$GPRMC,221025.000,A,3748.2598,N,12217.6313,W,29.14,296.89,070711,,,A*46
$GPVTG,296.89,T,,M,29.14,N,54.0,K,A*0E
$GPGGA,221026.000,3748.2631,N,12217.6408,W,1,05,1.7,29.9,M,-25.0,M,,0000*53
$GPGSA,A,3,08,17,26,11,07,,,,,,,,3.8,1.7,3.4*35
$GPRMC,221026.000,A,3748.2631,N,12217.6408,W,28.79,296.01,070711,,,A*42
$GPVTG,296.01,T,,M,28.79,N,53.3,K,A*00
$GPGGA,221027.000,3748.2665,N,12217.6498,W,1,06,1.6,23.2,M,-25.0,M,,0000*59
$GPGSA,A,3,28,08,17,26,11,07,,,,,,,3.3,1.6,2.9*39
$GPRMC,221027.000,A,3748.2665,N,12217.6498,W,28.30,296.28,070711,,,A*4D
$GPVTG,296.28,T,,M,28.30,N,52.4,K,A*00
$GPGGA,221028.000,3748.2698,N,12217.6586,W,1,06,1.6,22.5,M,-25.0,M,,0000*5C
$GPGSA,A,3,28,08,17,26,11,07,,,,,,,3.3,1.6,2.9*39
$GPRMC,221028.000,A,3748.2698,N,12217.6586,W,28.75,295.39,070711,,,A*4C
$GPVTG,295.39,T,,M,28.75,N,53.2,K,A*05
$GPGGA,221029.000,3748.2732,N,12217.6676,W,1,05,2.3,20.5,M,-25.0,M,,0000*57
$GPGSA,A,3,28,08,17,11,07,,,,,,,,4.2,2.3,3.5*30
$GPGSV,3,1,11,28,70,353,23,08,57,088,20,26,53,282,18,17,47,186,34*74
$GPGSV,3,2,11,07,32,111,19,11,21,070,18,05,01,241,17,19,00,035,*71
$GPGSV,3,3,11,15,22,313,20,24,14,086,,27,05,306,*46
$GPRMC,221029.000,A,3748.2732,N,12217.6676,W,27.58,294.57,070711,,,A*49
$GPVTG,294.57,T,,M,27.58,N,51.1,K,A*0D
$GPGGA,221030.000,3748.2768,N,12217.6764,W,1,04,1.9,19.7,M,-25.0,M,,0000*52
$GPGSA,A,3,08,17,26,11,,,,,,,,,3.9,1.9,3.4*3D
$GPRMC,221030.000,A,3748.2768,N,12217.6764,W,27.48,293.29,070711,,,A*43
$GPVTG,293.29,T,,M,27.48,N,50.9,K,A*0B
$GPGGA,221031.000,3748.2799,N,12217.6855,W,1,04,1.9,18.7,M,-25.0,M,,0000*51
$GPGSA,A,3,08,17,26,11,,,,,,,,,3.9,1.9,3.4*3D
$GPRMC,221031.000,A,3748.2799,N,12217.6855,W,26.94,291.55,070711,,,A*48
$GPVTG,291.55,T,,M,26.94,N,49.9,K,A*0A
$GPGGA,221032.000,3748.2827,N,12217.6947,W,1,03,2.1,17.4,M,-25.0,M,,0000*5A
$GPGSA,A,2,08,17,26,,,,,,,,,,2.3,2.1,1.0*3A
$GPRMC,221032.000,A,3748.2827,N,12217.6947,W,26.07,290.25,070711,,,A*4F
$GPVTG,290.25,T,,M,26.07,N,48.3,K,N*02
$GPGGA,221033.000,3748.2852,N,12217.7033,W,6,00,50.0,17.0,M,-25.0,M,,0000*64
$GPGSA,A,2,,,,,,,,,,,,,50.0,50.0,50.0*06
$GPRMC,221033.000,A,3748.2852,N,12217.7033,W,26.07,290.25,070711,,,E*43
$GPVTG,290.25,T,,M,26.07,N,48.3,K,N*02
$GPGGA,221034.000,3748.2877,N,12217.7119,W,6,00,50.0,16.6,M,-25.0,M,,0000*6A
$GPGSA,A,2,,,,,,,,,,,,,50.0,50.0,50.0*06
$GPGSV,3,1,11,28,70,353,,08,57,088,14,26,53,282,19,17,47,186,24*72
$GPGSV,3,2,11,07,32,111,,11,21,070,,05,01,241,,19,00,035,*76
$GPGSV,3,3,11,15,22,313,,24,14,086,,27,05,306,*44
$GPRMC,221034.000,A,3748.2877,N,12217.7119,W,26.07,290.25,070711,,,E*4A
$GPVTG,290.25,T,,M,26.07,N,48.3,K,N*02
$GPGGA,221035.000,3748.2902,N,12217.7204,W,6,00,50.0,16.3,M,-25.0,M,,0000*62
$GPGSA,A,2,,,,,,,,,,,,,50.0,50.0,50.0*06
$GPRMC,221035.000,A,3748.2902,N,12217.7204,W,26.07,290.25,070711,,,E*47
$GPVTG,290.25,T,,M,26.07,N,48.3,K,N*02
$GPGGA,221036.000,3748.2927,N,12217.7290,W,6,00,50.0,15.9,M,-25.0,M,,0000*62
$GPGSA,A,2,,,,,,,,,,,,,50.0,50.0,50.0*06
$GPRMC,221036.000,A,3748.2927,N,12217.7290,W,26.07,290.25,070711,,,E*4E
$GPVTG,290.25,T,,M,26.07,N,48.3,K,N*02
$GPGGA,221037.000,3748.2952,N,12217.7376,W,6,00,50.0,15.5,M,-25.0,M,,0000*64
$GPGSA,A,2,,,,,,,,,,,,,50.0,50.0,50.0*06
$GPRMC,221037.000,A,3748.2952,N,12217.7376,W,26.07,290.25,070711,,,E*44
$GPVTG,290.25,T,,M,26.07,N,48.3,K,N*02
$GPGGA,221038.000,3748.2977,N,12217.7462,W,6,00,50.0,15.1,M,-25.0,M,,0000*6A
$GPGSA,A,2,,,,,,,,,,,,,50.0,50.0,50.0*06
$GPRMC,221038.000,A,3748.2977,N,12217.7462,W,26.07,290.25,070711,,,E*4E
$GPVTG,290.25,T,,M,26.07,N,48.3,K,N*02
$GPGGA,221039.000,3748.3003,N,12217.7547,W,6,00,50.0,14.8,M,-25.0,M,,0000*6E
$GPGSA,A,2,,,,,,,,,,,,,50.0,50.0,50.0*06
$GPGSV,3,1,11,28,70,353,,08,57,088,,26,53,282,,17,47,186,17*7F
$GPGSV,3,2,11,07,32,111,,11,21,070,,05,01,241,23,19,00,035,*77
$GPGSV,3,3,11,15,22,313,,24,14,086,,27,05,306,*44
$GPRMC,221039.000,A,3748.3003,N,12217.7547,W,26.07,290.25,070711,,,E*42
$GPVTG,290.25,T,,M,26.07,N,48.3,K,N*02
$GPGGA,221040.000,3748.3028,N,12217.7633,W,6,00,50.0,14.4,M,-25.0,M,,0000*65
$GPGSA,A,2,,,,,,,,,,,,,50.0,50.0,50.0*06
$GPRMC,221040.000,A,3748.3028,N,12217.7633,W,26.07,290.25,070711,,,E*45
$GPVTG,290.25,T,,M,26.07,N,48.3,K,N*02
$GPGGA,221041.000,3748.3053,N,12217.7719,W,6,00,50.0,14.0,M,-25.0,M,,0000*65
$GPGSA,A,2,,,,,,,,,,,,,50.0,50.0,50.0*06
$GPRMC,221041.000,A,3748.3053,N,12217.7719,W,26.07,290.25,070711,,,E*41
$GPVTG,290.25,T,,M,26.07,N,48.3,K,N*02
$GPGGA,221042.000,3748.3078,N,12217.7805,W,6,00,50.0,13.6,M,-25.0,M,,0000*6C
$GPGSA,A,2,,,,,,,,,,,,,50.0,50.0,50.0*06
$GPRMC,221042.000,A,3748.3078,N,12217.7805,W,26.07,290.25,070711,,,E*49
$GPVTG,290.25,T,,M,26.07,N,48.3,K,N*02
$GPGGA,221043.000,3748.3103,N,12217.7890,W,6,00,50.0,13.3,M,-25.0,M,,0000*69
$GPGSA,A,2,,,,,,,,,,,,,50.0,50.0,50.0*06
$GPRMC,221043.000,A,3748.3103,N,12217.7890,W,26.07,290.25,070711,,,E*49
$GPVTG,290.25,T,,M,26.07,N,48.3,K,N*02
$GPGGA,221044.000,3748.3128,N,12217.7976,W,6,00,50.0,12.9,M,-25.0,M,,0000*65
$GPGSA,A,2,,,,,,,,,,,,,50.0,50.0,50.0*06
$GPGSV,3,1,11,28,70,353,,08,57,088,23,26,53,282,,17,47,186,19*70
$GPGSV,3,2,11,07,32,111,,11,21,070,,05,01,241,22,19,00,035,*76
$GPGSV,3,3,11,15,22,313,,24,14,086,,27,05,306,*44
$GPRMC,221044.000,A,3748.3128,N,12217.7976,W,26.07,290.25,070711,,,E*4E
$GPVTG,290.25,T,,M,26.07,N,48.3,K,N*02
$GPGGA,221045.000,3748.3153,N,12217.8062,W,6,00,50.0,12.5,M,-25.0,M,,0000*67
$GPGSA,A,2,,,,,,,,,,,,,50.0,50.0,50.0*06
$GPRMC,221045.000,A,3748.3153,N,12217.8062,W,26.07,290.25,070711,,,E*40
$GPVTG,290.25,T,,M,26.07,N,48.3,K,N*02
$GPGGA,221046.000,3748.3178,N,12217.8148,W,6,00,50.0,12.2,M,-25.0,M,,0000*63
$GPGSA,A,2,,,,,,,,,,,,,50.0,50.0,50.0*06
$GPRMC,221046.000,A,3748.3178,N,12217.8148,W,26.07,290.25,070711,,,E*43
$GPVTG,290.25,T,,M,26.07,N,48.3,K,N*02
$GPGGA,221054.000,3748.2978,N,12217.7278,W,1,06,1.6,9.1,M,-25.0,M,,0000*6C
$GPGSA,A,3,08,17,26,11,28,07,,,,,,,3.3,1.6,2.9*39
$GPGSV,3,1,12,28,70,353,16,08,57,088,18,26,53,282,19,17,47,186,30*7F
$GPGSV,3,2,12,07,32,111,24,11,21,070,14,05,01,241,21,19,00,035,*75
$GPGSV,3,3,12,15,22,313,,24,14,086,,27,05,306,,46,00,000,29*7E
$GPRMC,221054.000,A,3748.2978,N,12217.7278,W,7.51,112.16,070711,,,A*7B
$GPVTG,112.16,T,,M,7.51,N,13.9,K,A*30
$GPGGA,221055.000,3748.2994,N,12217.7263,W,1,05,2.3,-0.6,M,-25.0,M,,0000*43
$GPGSA,A,3,08,17,11,28,07,,,,,,,,4.2,2.3,3.6*33
$GPRMC,221055.000,A,3748.2994,N,12217.7263,W,3.85,90.99,070711,,,A*43
$GPVTG,90.99,T,,M,3.85,N,7.1,K,A*3C
$GPGGA,221056.000,3748.2999,N,12217.7260,W,1,05,2.3,-0.9,M,-25.0,M,,0000*41
$GPGSA,A,3,08,17,11,28,07,,,,,,,,4.2,2.3,3.6*33
$GPRMC,221056.000,A,3748.2999,N,12217.7260,W,1.62,71.88,070711,,,A*4A
$GPVTG,71.88,T,,M,1.62,N,3.0,K,A*3D
$GPGGA,221057.000,3748.3009,N,12217.7268,W,1,04,2.8,-5.5,M,-25.0,M,,0000*4A
$GPGSA,A,3,08,17,11,28,,,,,,,,,4.6,2.8,3.6*3B
$GPRMC,221057.000,A,3748.3009,N,12217.7268,W,1.09,26.85,070711,,,A*40
$GPVTG,26.85,T,,M,1.09,N,2.0,K,A*3E
$GPGGA,221058.000,3748.3008,N,12217.7270,W,1,05,2.3,-12.8,M,-25.0,M,,0000*7C
$GPGSA,A,3,08,17,11,28,07,,,,,,,,4.2,2.3,3.6*33
$GPRMC,221058.000,A,3748.3008,N,12217.7270,W,0.72,359.45,070711,,,A*7D
$GPVTG,359.45,T,,M,0.72,N,1.3,K,A*04
$GPGGA,221059.000,3748.3011,N,12217.7268,W,1,05,2.3,-17.1,M,-25.0,M,,0000*70
$GPGSA,A,3,08,17,11,28,07,,,,,,,,4.2,2.3,3.6*33
$GPGSV,3,1,11,28,70,353,16,08,57,088,20,26,53,282,,17,47,186,33*7C
$GPGSV,3,2,11,07,32,111,19,11,21,070,26,05,01,241,20,19,00,035,*78
$GPGSV,3,3,11,15,22,313,18,24,14,086,24,27,05,306,20*49
$GPRMC,221059.000,A,3748.3011,N,12217.7268,W,0.89,320.50,070711,,,A*73
$GPGGA,221100.000,3748.3020,N,12217.7281,W,1,05,2.3,-22.0,M,-25.0,M,,0000*7F
$GPGSA,A,3,08,17,11,28,07,,,,,,,,4.2,2.3,3.6*33
$GPRMC,221100.000,A,3748.3020,N,12217.7281,W,1.61,306.23,070711,,,A*7C
$GPVTG,306.23,T,,M,1.61,N,3.0,K,A*0C
$GPGGA,221101.000,3748.3032,N,12217.7299,W,1,06,1.6,-25.9,M,-25.0,M,,0000*7F
$GPGSA,A,3,08,17,11,28,07,26,,,,,,,3.3,1.6,2.9*39
$GPRMC,221101.000,A,3748.3032,N,12217.7299,W,1.93,317.49,070711,,,A*76
$GPVTG,317.49,T,,M,1.93,N,3.6,K,A*0B
$GPGGA,221102.000,3748.3038,N,12217.7304,W,1,04,3.5,-32.5,M,-25.0,M,,0000*7A
$GPGSA,A,3,08,17,11,07,,,,,,,,,5.0,3.5,3.6*3D
$GPRMC,221102.000,A,3748.3038,N,12217.7304,W,0.96,3.87,070711,,,A*7A
$GPVTG,3.87,T,,M,0.96,N,1.8,K,A*07
$GPGGA,221103.000,3748.3041,N,12217.7305,W,1,05,2.3,-33.0,M,-25.0,M,,0000*76
$GPGSA,A,3,08,17,11,28,07,,,,,,,,4.2,2.3,3.6*33
$GPRMC,221103.000,A,3748.3041,N,12217.7305,W,0.76,333.88,070711,,,A*75
$GPVTG,333.88,T,,M,0.76,N,1.4,K,A*0A
$GPGGA,221104.000,3748.3044,N,12217.7303,W,1,04,3.5,-35.1,M,-25.0,M,,0000*73
$GPGSA,A,3,08,17,11,07,,,,,,,,,5.0,3.5,3.6*3D
$GPGSV,3,1,11,28,70,353,17,08,57,088,21,26,53,282,,17,47,186,26*78
$GPGSV,3,2,11,07,32,111,21,11,21,070,26,05,01,241,16,19,00,035,*76
$GPGSV,3,3,11,15,22,313,21,24,14,086,32,27,05,306,19*4E
$GPRMC,221104.000,A,3748.3044,N,12217.7303,W,0.74,325.09,070711,,,A*7D
$GPVTG,325.09,T,,M,0.74,N,1.4,K,A*06
$GPGGA,221105.000,3748.3044,N,12217.7304,W,1,05,2.3,-38.5,M,-25.0,M,,0000*7A
$GPGSA,A,3,08,17,11,28,07,,,,,,,,4.2,2.3,3.6*33
$GPRMC,221105.000,A,3748.3044,N,12217.7304,W,0.75,292.58,070711,,,A*73
$GPVTG,292.58,T,,M,0.75,N,1.4,K,A*0E
$GPGGA,221106.000,3748.3035,N,12217.7284,W,1,05,2.3,-37.9,M,-25.0,M,,0000*75
$GPGSA,A,3,08,17,11,28,07,,,,,,,,4.2,2.3,3.6*33
$GPRMC,221106.000,A,3748.3035,N,12217.7284,W,0.85,162.18,070711,,,A*78
$GPVTG,162.18,T,,M,0.85,N,1.6,K,A*0B
$GPGGA,221107.000,3748.3031,N,12217.7279,W,1,04,2.8,-38.1,M,-25.0,M,,0000*7F
$GPGSA,A,3,08,17,11,28,,,,,,,,,4.6,2.8,3.6*3B
$GPRMC,221107.000,A,3748.3031,N,12217.7279,W,0.78,234.70,070711,,,A*73
$GPVTG,234.70,T,,M,0.78,N,1.4,K,A*05
$GPGGA,221108.000,3748.3031,N,12217.7280,W,1,03,2.2,-37.6,M,-25.0,M,,0000*73
$GPGSA,A,2,17,11,28,,,,,,,,,,2.4,2.2,1.0*38
$GPRMC,221108.000,A,3748.3031,N,12217.7280,W,1.33,291.37,070711,,,A*78
$GPVTG,291.37,T,,M,1.33,N,2.5,K,A*05
$GPGGA,221109.000,3748.3030,N,12217.7280,W,1,04,2.8,-37.9,M,-25.0,M,,0000*71
$GPGSA,A,3,08,17,11,28,,,,,,,,,4.6,2.8,3.6*3B
$GPGSV,3,1,11,28,70,353,16,08,57,088,15,26,53,282,,17,47,186,21*79
$GPGSV,3,2,11,07,32,111,14,11,21,070,21,05,01,241,,19,00,035,*70
$GPGSV,3,3,11,15,22,313,21,24,14,086,21,27,05,306,14*41
$GPRMC,221109.000,A,3748.3030,N,12217.7280,W,0.99,239.39,070711,,,A*75
$GPVTG,239.39,T,,M,0.99,N,1.8,K,A*06
$GPGGA,221110.000,3748.3023,N,12217.7277,W,1,04,2.8,-37.2,M,-25.0,M,,0000*78
$GPGSA,A,3,08,17,11,28,,,,,,,,,4.6,2.8,3.6*3B
$GPRMC,221110.000,A,3748.3023,N,12217.7277,W,2.12,189.44,070711,,,A*74
$GPVTG,189.44,T,,M,2.12,N,3.9,K,A*06
$GPGGA,221111.000,3748.3016,N,12217.7268,W,1,04,2.8,-36.9,M,-25.0,M,,0000*7B
$GPGSA,A,3,08,17,11,28,,,,,,,,,4.6,2.8,3.6*3B
$GPRMC,221111.000,A,3748.3016,N,12217.7268,W,3.10,161.02,070711,,,A*7A
$GPVTG,161.02,T,,M,3.10,N,5.7,K,A*09
$GPGGA,221112.000,3748.3003,N,12217.7244,W,1,04,2.8,-34.5,M,-25.0,M,,0000*7C
$GPGSA,A,3,08,17,11,28,,,,,,,,,4.6,2.8,3.6*3B
$GPRMC,221112.000,A,3748.3003,N,12217.7244,W,4.39,139.45,070711,,,A*71
$GPVTG,139.45,T,,M,4.39,N,8.1,K,A*00
$GPGGA,221113.000,3748.2991,N,12217.7230,W,1,04,2.8,-34.4,M,-25.0,M,,0000*7C
$GPGSA,A,3,08,17,11,28,,,,,,,,,4.6,2.8,3.6*3B
$GPRMC,221113.000,A,3748.2991,N,12217.7230,W,4.62,139.00,070711,,,A*7F
$GPVTG,139.00,T,,M,4.62,N,8.6,K,A*08
$GPGGA,221114.000,3748.2979,N,12217.7219,W,1,03,29.8,-34.3,M,-25.0,M,,0000*4F
$GPGSA,A,2,08,17,11,,,,,,,,,,29.9,29.8,1.0*3D
$GPGSV,3,1,11,28,70,353,10,08,57,088,14,26,53,282,,17,47,186,13*7F
$GPGSV,3,2,11,07,32,111,,11,21,070,19,05,01,241,,19,00,035,*7E
$GPGSV,3,3,11,15,22,313,17,24,14,086,19,27,05,306,*4A
$GPRMC,221114.000,A,3748.2979,N,12217.7219,W,4.79,155.24,070711,,,A*73
$GPVTG,155.24,T,,M,4.79,N,8.9,K,N*0E
$GPGGA,221115.000,3748.2965,N,12217.7215,W,1,03,30.0,-35.2,M,-25.0,M,,0000*4F
$GPGSA,A,2,08,17,11,,,,,,,,,,30.0,30.0,1.0*3C
$GPRMC,221115.000,A,3748.2965,N,12217.7215,W,5.30,169.98,070711,,,A*77
$GPVTG,169.98,T,,M,5.30,N,9.8,K,N*0A
$GPGGA,221116.000,3748.2950,N,12217.7211,W,6,00,50.0,-35.8,M,-25.0,M,,0000*46
$GPGSA,A,2,,,,,,,,,,,,,50.0,50.0,50.0*06
$GPRMC,221116.000,A,3748.2950,N,12217.7211,W,5.30,169.98,070711,,,E*72
$GPVTG,169.98,T,,M,5.30,N,9.8,K,N*0A
$GPGGA,221117.000,3748.2936,N,12217.7208,W,6,00,50.0,-36.5,M,-25.0,M,,0000*41
$GPGSA,A,2,,,,,,,,,,,,,50.0,50.0,50.0*06
$GPRMC,221117.000,A,3748.2936,N,12217.7208,W,5.30,169.98,070711,,,E*7B
$GPVTG,169.98,T,,M,5.30,N,9.8,K,N*0A
$GPGGA,221118.000,3748.2921,N,12217.7205,W,6,00,50.0,-37.1,M,-25.0,M,,0000*40
$GPGSA,A,2,,,,,,,,,,,,,50.0,50.0,50.0*06
$GPRMC,221118.000,A,3748.2921,N,12217.7205,W,5.30,169.98,070711,,,E*7F
$GPVTG,169.98,T,,M,5.30,N,9.8,K,N*0A
$GPGGA,221119.000,3748.2907,N,12217.7202,W,6,00,50.0,-37.7,M,-25.0,M,,0000*44
$GPGSA,A,2,,,,,,,,,,,,,50.0,50.0,50.0*06
$GPGSV,3,1,11,28,70,353,,08,57,088,,26,53,282,,17,47,186,14*7C
$GPGSV,3,2,11,07,32,111,,11,21,070,28,05,01,241,,19,00,035,*7C
$GPGSV,3,3,11,15,22,313,15,24,14,086,12,27,05,306,*43
$GPRMC,221119.000,A,3748.2907,N,12217.7202,W,5.30,169.98,070711,,,E*7D
$GPVTG,169.98,T,,M,5.30,N,9.8,K,N*0A
$GPGGA,221120.000,3748.2892,N,12217.7198,W,6,00,50.0,-38.4,M,-25.0,M,,0000*4F
$GPGSA,A,2,,,,,,,,,,,,,50.0,50.0,50.0*06
$GPRMC,221120.000,A,3748.2892,N,12217.7198,W,5.30,169.98,070711,,,E*7A
$GPVTG,169.98,T,,M,5.30,N,9.8,K,N*0A
$GPGGA,221121.000,3748.2878,N,12217.7195,W,6,00,50.0,-39.0,M,-25.0,M,,0000*42
$GPGSA,A,2,,,,,,,,,,,,,50.0,50.0,50.0*06
$GPRMC,221121.000,A,3748.2878,N,12217.7195,W,5.30,169.98,070711,,,E*72
$GPVTG,169.98,T,,M,5.30,N,9.8,K,N*0A
$GPGGA,221122.000,3748.2863,N,12217.7192,W,6,00,50.0,-39.7,M,-25.0,M,,0000*4B
$GPGSA,A,2,,,,,,,,,,,,,50.0,50.0,50.0*06
$GPRMC,221122.000,A,3748.2863,N,12217.7192,W,5.30,169.98,070711,,,E*7C
$GPVTG,169.98,T,,M,5.30,N,9.8,K,N*0A
$GPGGA,221123.000,3748.2849,N,12217.7189,W,6,00,50.0,-40.3,M,-25.0,M,,0000*42
$GPGSA,A,2,,,,,,,,,,,,,50.0,50.0,50.0*06
$GPRMC,221123.000,A,3748.2849,N,12217.7189,W,5.30,169.98,070711,,,E*7F
$GPVTG,169.98,T,,M,5.30,N,9.8,K,N*0A
$GPGGA,221124.000,3748.2834,N,12217.7185,W,6,00,50.0,-41.0,M,-25.0,M,,0000*41
$GPGSA,A,2,,,,,,,,,,,,,50.0,50.0,50.0*06
$GPGSV,3,1,11,28,70,353,,08,57,088,,26,53,282,,17,47,186,15*7D
$GPGSV,3,2,11,07,32,111,,11,21,070,18,05,01,241,18,19,00,035,*76
$GPGSV,3,3,11,15,22,313,20,24,14,086,,27,05,306,*46
$GPVTG,169.98,T,,M,5.30,N,9.8,K,N*0A
$GPGGA,221125.000,3748.2820,N,12217.7182,W,6,00,50.0,-41.6,M,-25.0,M,,0000*44
$GPGSA,A,2,,,,,,,,,,,,,50.0,50.0,50.0*06
$GPRMC,221125.000,A,3748.2820,N,12217.7182,W,5.30,169.98,070711,,,E*7D
$GPVTG,169.98,T,,M,5.30,N,9.8,K,N*0A
$GPGGA,221126.000,3748.2805,N,12217.7179,W,6,00,50.0,-42.2,M,-25.0,M,,0000*43
$GPGSA,A,2,,,,,,,,,,,,,50.0,50.0,50.0*06
$GPRMC,221126.000,A,3748.2805,N,12217.7179,W,5.30,169.98,070711,,,E*7D
$GPVTG,169.98,T,,M,5.30,N,9.8,K,N*0A
$GPGGA,221127.000,3748.2791,N,12217.7176,W,6,00,50.0,-42.9,M,-25.0,M,,0000*44
$GPGSA,A,2,,,,,,,,,,,,,50.0,50.0,50.0*06
$GPRMC,221127.000,A,3748.2791,N,12217.7176,W,5.30,169.98,070711,,,E*71
$GPVTG,169.98,T,,M,5.30,N,9.8,K,N*0A
$GPGGA,221128.000,3748.2776,N,12217.7173,W,6,00,50.0,-43.5,M,-25.0,M,,0000*4A
$GPGSA,A,2,,,,,,,,,,,,,50.0,50.0,50.0*06
$GPRMC,221128.000,A,3748.2776,N,12217.7173,W,5.30,169.98,070711,,,E*72
$GPVTG,169.98,T,,M,5.30,N,9.8,K,N*0A
$GPGGA,221129.000,3748.2762,N,12217.7169,W,6,00,50.0,-44.2,M,-25.0,M,,0000*45
$GPGSA,A,2,,,,,,,,,,,,,50.0,50.0,50.0*06
$GPGSV,3,1,11,28,70,353,,08,57,088,15,26,53,282,,17,47,186,19*75
$GPGSV,3,2,11,07,32,111,,11,21,070,22,05,01,241,,19,00,035,*76
$GPGSV,3,3,11,15,22,313,24,24,14,086,17,27,05,306,*44
$GPRMC,221129.000,A,3748.2762,N,12217.7169,W,5.30,169.98,070711,,,E*7D
$GPVTG,169.98,T,,M,5.30,N,9.8,K,N*0A
$GPGGA,221203.000,3748.2888,N,12217.7145,W,1,03,40.4,-54.3,M,-25.0,M,,0000*4A
$GPGSA,A,2,17,08,11,,,,,,,,,,40.4,40.4,1.0*3C
$GPRMC,221203.000,A,3748.2888,N,12217.7145,W,2.30,355.17,070711,,,A*7A
$GPVTG,355.17,T,,M,2.30,N,4.3,K,N*01
$GPGGA,221204.000,3748.2825,N,12217.7065,W,1,03,40.7,-54.8,M,-25.0,M,,0000*41
$GPGSA,A,2,17,08,11,,,,,,,,,,40.7,40.7,1.0*3C
$GPGSV,3,1,11,28,70,353,,08,57,088,18,26,53,282,,17,47,186,14*75
$GPGSV,3,2,11,07,32,111,,11,21,070,17,05,01,241,,19,00,035,*70
$GPGSV,3,3,11,15,22,313,28,24,14,086,,27,05,306,31*4C
$GPRMC,221204.000,A,3748.2825,N,12217.7065,W,1.25,38.12,070711,,,A*43
$GPVTG,38.12,T,,M,1.25,N,2.3,K,N*3D
$GPGGA,221205.000,3748.2960,N,12217.7239,W,1,03,41.0,-46.8,M,-25.0,M,,0000*4E
$GPGSA,A,2,17,08,11,,,,,,,,,,41.0,41.0,1.0*3C
$GPRMC,221205.000,A,3748.2960,N,12217.7239,W,3.11,347.05,070711,,,A*71
$GPVTG,347.05,T,,M,3.11,N,5.8,K,N*09
$GPGGA,221206.000,3748.2956,N,12217.7208,W,1,03,41.3,-49.0,M,-25.0,M,,0000*4E
$GPGSA,A,2,17,08,11,,,,,,,,,,41.3,41.3,1.0*3C
$GPRMC,221206.000,A,3748.2956,N,12217.7208,W,3.30,356.20,070711,,,A*71
$GPVTG,356.20,T,,M,3.30,N,6.1,K,N*07
$GPGGA,221207.000,3748.2940,N,12217.7154,W,1,03,41.6,-44.6,M,-25.0,M,,0000*4C
$GPGSA,A,2,17,08,11,,,,,,,,,,41.6,41.6,1.0*3C
$GPRMC,221207.000,A,3748.2940,N,12217.7154,W,2.09,31.54,070711,,,A*47
$GPVTG,31.54,T,,M,2.09,N,3.9,K,N*30
$GPGGA,221208.000,3748.3034,N,12217.7240,W,1,03,41.9,-42.7,M,-25.0,M,,0000*46
$GPGSA,A,2,17,08,11,,,,,,,,,,41.9,41.9,1.0*3C
$GPRMC,221208.000,A,3748.3034,N,12217.7240,W,3.05,353.15,070711,,,A*7A
$GPVTG,353.15,T,,M,3.05,N,5.6,K,N*06
$GPGGA,221209.000,3748.2969,N,12217.7145,W,1,03,42.2,-43.6,M,-25.0,M,,0000*49
$GPGSA,A,2,17,08,11,,,,,,,,,,42.2,42.2,1.0*3C
$GPGSV,3,1,11,28,70,353,,08,57,088,16,26,53,282,,17,47,186,15*7A
$GPGSV,3,2,11,07,32,111,,11,21,070,23,05,01,241,,19,00,035,*77
$GPGSV,3,3,11,15,22,313,25,24,14,086,,27,05,306,32*42
$GPRMC,221209.000,A,3748.2969,N,12217.7145,W,1.15,24.02,070711,,,A*4B
$GPVTG,24.02,T,,M,1.15,N,2.1,K,N*30
$GPGGA,221210.000,3748.2972,N,12217.7144,W,6,00,50.0,-43.6,M,-25.0,M,,0000*4F
$GPGSA,A,2,,,,,,,,,,,,,50.0,50.0,50.0*06
$GPRMC,221210.000,A,3748.2972,N,12217.7144,W,1.15,24.02,070711,,,E*4C
$GPVTG,24.02,T,,M,1.15,N,2.1,K,N*30
$GPGGA,221211.000,3748.3264,N,12217.7527,W,1,03,4.9,-53.6,M,-25.0,M,,0000*7F
$GPGSA,A,2,08,11,07,,,,,,,,,,5.0,4.9,1.0*35
$GPRMC,221211.000,A,3748.3264,N,12217.7527,W,4.98,339.70,070711,,,A*7F
$GPVTG,339.70,T,,M,4.98,N,9.2,K,N*02
$GPGGA,221212.000,3748.3293,N,12217.7554,W,1,04,3.5,-56.9,M,-25.0,M,,0000*76
$GPGSA,A,3,17,08,11,07,,,,,,,,,5.0,3.5,3.6*3D
$GPRMC,221212.000,A,3748.3293,N,12217.7554,W,3.11,352.85,070711,,,A*71
$GPVTG,352.85,T,,M,3.11,N,5.8,K,A*0A
$GPGGA,221213.000,3748.3360,N,12217.7624,W,1,04,3.5,-60.6,M,-25.0,M,,0000*74
$GPGSA,A,3,17,08,11,07,,,,,,,,,5.0,3.5,3.6*3D
$GPRMC,221213.000,A,3748.3360,N,12217.7624,W,4.17,341.51,070711,,,A*73
$GPVTG,341.51,T,,M,4.17,N,7.7,K,A*0D
$GPGGA,221214.000,3748.3365,N,12217.7633,W,1,03,3.8,-61.8,M,-25.0,M,,0000*75
$GPGSA,A,2,17,08,07,,,,,,,,,,4.0,3.8,1.0*34
$GPGSV,3,1,11,28,70,353,,08,57,088,15,26,53,282,,17,47,186,15*79
$GPGSV,3,2,11,07,32,111,22,11,21,070,18,05,01,241,,19,00,035,*7F
$GPGSV,3,3,11,15,22,313,28,24,14,086,,27,05,306,32*4F
$GPRMC,221214.000,A,3748.3365,N,12217.7633,W,3.01,333.66,070711,,,A*76
$GPVTG,333.66,T,,M,3.01,N,5.6,K,A*0F
$GPGGA,221215.000,3748.3403,N,12217.7671,W,1,03,3.8,-59.6,M,-25.0,M,,0000*70
$GPGSA,A,2,17,08,07,,,,,,,,,,4.0,3.8,1.0*34
$GPRMC,221215.000,A,3748.3403,N,12217.7671,W,3.16,330.15,070711,,,A*77
$GPVTG,330.15,T,,M,3.16,N,5.9,K,A*01
$GPGGA,221216.000,3748.3426,N,12217.7677,W,1,03,44.6,-57.5,M,-25.0,M,,0000*42
$GPGSA,A,2,17,08,11,,,,,,,,,,44.6,44.6,1.0*3C
$GPRMC,221216.000,A,3748.3426,N,12217.7677,W,3.43,331.39,070711,,,A*7A
$GPVTG,331.39,T,,M,3.43,N,6.4,K,N*0F
$GPGGA,221217.000,3748.3436,N,12217.7665,W,1,03,44.9,-51.4,M,-25.0,M,,0000*49
$GPGSA,A,2,17,08,11,,,,,,,,,,44.9,44.9,1.0*3C
$GPRMC,221217.000,A,3748.3436,N,12217.7665,W,3.93,324.86,070711,,,A*74
$GPVTG,324.86,T,,M,3.93,N,7.3,K,N*04
$GPGGA,221218.000,3748.3445,N,12217.7673,W,6,00,50.0,-51.2,M,-25.0,M,,0000*4B
$GPGSA,A,2,,,,,,,,,,,,,50.0,50.0,50.0*06
$GPRMC,221218.000,A,3748.3445,N,12217.7673,W,3.93,324.86,070711,,,E*7C
$GPVTG,324.86,T,,M,3.93,N,7.3,K,N*04
$GPGGA,221219.000,3748.3452,N,12217.7650,W,1,04,3.5,-44.5,M,-25.0,M,,0000*7E
$GPGSA,A,3,17,08,11,07,,,,,,,,,5.0,3.5,3.6*3D
$GPGSV,3,1,10,28,69,356,,08,57,090,16,26,54,281,,17,48,186,14*75
$GPGSV,3,2,10,07,31,111,14,15,22,312,27,11,21,069,17,24,14,085,*7D
$GPGSV,3,3,10,27,05,306,26,05,00,240,*7A
$GPRMC,221219.000,A,3748.3452,N,12217.7650,W,4.64,337.97,070711,,,A*73
$GPVTG,337.97,T,,M,4.64,N,8.6,K,N*03
$GPGGA,221220.000,3748.3457,N,12217.7657,W,1,03,4.9,-42.5,M,-25.0,M,,0000*7C
$GPGSA,A,2,08,11,07,,,,,,,,,,5.0,4.9,1.0*35
$GPRMC,221220.000,A,3748.3457,N,12217.7657,W,3.97,314.91,070711,,,A*77
$GPVTG,314.91,T,,M,3.97,N,7.3,K,A*0A
$GPGGA,221221.000,3748.3471,N,12217.7659,W,1,03,46.4,-41.2,M,-25.0,M,,0000*48
$GPGSA,A,2,17,08,11,,,,,,,,,,46.4,46.4,1.0*3C
$GPRMC,221221.000,A,3748.3471,N,12217.7659,W,4.05,313.51,070711,,,A*7B
$GPVTG,313.51,T,,M,4.05,N,7.5,K,A*0B
$GPGGA,221222.000,3748.3481,N,12217.7653,W,1,03,46.8,-38.2,M,-25.0,M,,0000*4C
$GPGSA,A,2,17,08,11,,,,,,,,,,46.8,46.8,1.0*3C
$GPRMC,221222.000,A,3748.3481,N,12217.7653,W,3.18,318.36,070711,,,A*7C
$GPVTG,318.36,T,,M,3.18,N,5.9,K,A*04
$GPGGA,221223.000,3748.3435,N,12217.7584,W,1,05,2.3,-35.2,M,-25.0,M,,0000*7B
$GPGSA,A,3,17,08,11,07,28,,,,,,,,4.3,2.3,3.6*32
$GPRMC,221223.000,A,3748.3435,N,12217.7584,W,0.65,193.52,070711,,,A*71
$GPVTG,193.52,T,,M,0.65,N,1.2,K,A*01
$GPGGA,221224.000,3748.3403,N,12217.7544,W,1,05,2.3,-32.8,M,-25.0,M,,0000*78
$GPGSA,A,3,17,08,11,07,28,,,,,,,,4.3,2.3,3.6*32
$GPGSV,3,1,10,28,69,356,24,08,57,090,28,26,54,281,,17,48,186,19*73
$GPGSV,3,2,10,07,31,111,16,15,22,312,35,11,21,069,29,24,14,085,35*77
$GPGSV,3,3,10,27,05,306,27,05,00,240,*7B
$GPRMC,221224.000,A,3748.3403,N,12217.7544,W,1.16,161.74,070711,,,A*73
$GPVTG,161.74,T,,M,1.16,N,2.2,K,A*0E
$GPGGA,221225.000,3748.3377,N,12217.7512,W,1,05,2.3,-29.5,M,-25.0,M,,0000*79
$GPGSA,A,3,17,08,11,07,28,,,,,,,,4.3,2.3,3.6*32
$GPRMC,221225.000,A,3748.3377,N,12217.7512,W,0.44,157.96,070711,,,A*7A
$GPVTG,157.96,T,,M,0.44,N,0.8,K,A*09
$GPGGA,221226.000,3748.3370,N,12217.7497,W,1,04,2.8,-26.9,M,-25.0,M,,0000*78
$GPGSA,A,3,17,08,11,28,,,,,,,,,4.6,2.8,3.6*3B
$GPRMC,221226.000,A,3748.3370,N,12217.7497,W,1.15,127.54,070711,,,A*7E
$GPVTG,127.54,T,,M,1.15,N,2.1,K,A*0E
$GPGGA,221227.000,3748.3355,N,12217.7471,W,1,05,2.3,-23.6,M,-25.0,M,,0000*76
$GPGSA,A,3,17,08,11,07,28,,,,,,,,4.3,2.3,3.6*32
$GPRMC,221227.000,A,3748.3355,N,12217.7471,W,1.38,113.36,070711,,,A*7C
$GPVTG,113.36,T,,M,1.38,N,2.6,K,A*05
$GPGGA,221228.000,3748.3338,N,12217.7445,W,1,04,4.8,-19.1,M,-25.0,M,,0000*77
$GPGSA,A,3,08,11,07,28,,,,,,,,,7.4,4.8,5.6*3B
$GPRMC,221228.000,A,3748.3338,N,12217.7445,W,1.54,95.66,070711,,,A*4F
$GPVTG,95.66,T,,M,1.54,N,2.8,K,A*3B
$GPGGA,221229.000,3748.3323,N,12217.7422,W,1,04,4.8,-15.7,M,-25.0,M,,0000*77
$GPGSA,A,3,08,11,07,28,,,,,,,,,7.4,4.8,5.6*3B
$GPGSV,3,1,10,28,69,356,25,08,57,090,32,26,54,281,,17,48,186,18*78
$GPGSV,3,2,10,07,31,111,28,15,22,312,23,11,21,069,26,24,14,085,30*77
$GPGSV,3,3,10,27,05,306,24,05,00,240,*78
$GPVTG,86.31,T,,M,1.25,N,2.3,K,A*36
$GPGGA,221230.000,3748.3311,N,12217.7370,W,1,06,1.6,-10.5,M,-25.0,M,,0000*70
$GPGSA,A,3,17,08,11,07,28,26,,,,,,,3.3,1.6,2.9*39
$GPRMC,221230.000,A,3748.3311,N,12217.7370,W,2.04,75.22,070711,,,A*44
$GPVTG,75.22,T,,M,2.04,N,3.8,K,A*32
$GPGGA,221231.000,3748.3307,N,12217.7333,W,1,06,1.6,-7.2,M,-25.0,M,,0000*40
$GPGSA,A,3,17,08,11,07,28,26,,,,,,,3.3,1.6,2.9*39
$GPRMC,221231.000,A,3748.3307,N,12217.7333,W,1.61,52.49,070711,,,A*4D
$GPVTG,52.49,T,,M,1.61,N,3.0,K,A*32
$GPGGA,221232.000,3748.3258,N,12217.7243,W,1,06,1.6,-2.4,M,-25.0,M,,0000*4D
$GPGSA,A,3,17,08,11,07,28,26,,,,,,,3.3,1.6,2.9*39
$GPRMC,221232.000,A,3748.3258,N,12217.7243,W,1.25,70.99,070711,,,A*4E
$GPVTG,70.99,T,,M,1.25,N,2.3,K,A*3D
$GPGGA,221233.000,3748.3212,N,12217.7184,W,1,06,1.6,0.6,M,-25.0,M,,0000*67
$GPGSA,A,3,17,08,11,07,28,26,,,,,,,3.3,1.6,2.9*39
$GPRMC,221233.000,A,3748.3212,N,12217.7184,W,0.73,117.35,070711,,,A*7D
$GPVTG,117.35,T,,M,0.73,N,1.3,K,A*0A
$GPGGA,221234.000,3748.3194,N,12217.7138,W,1,06,1.6,4.9,M,-25.0,M,,0000*61
$GPGSA,A,3,17,08,11,07,28,26,,,,,,,3.3,1.6,2.9*39
$GPGSV,3,1,10,28,69,356,25,08,57,090,32,26,54,281,21,17,48,186,19*7A
$GPGSV,3,2,10,07,31,111,38,15,22,312,25,11,21,069,22,24,14,085,27*72
$GPGSV,3,3,10,27,05,306,25,05,00,240,*79
$GPRMC,221234.000,A,3748.3194,N,12217.7138,W,1.53,79.26,070711,,,A*48
$GPVTG,79.26,T,,M,1.53,N,2.8,K,A*3A
$GPGGA,221235.000,3748.3184,N,12217.7099,W,1,06,1.6,7.6,M,-25.0,M,,0000*67
$GPGSA,A,3,17,08,11,07,28,26,,,,,,,3.3,1.6,2.9*39
$GPRMC,221235.000,A,3748.3184,N,12217.7099,W,1.44,94.65,070711,,,A*40
$GPVTG,94.65,T,,M,1.44,N,2.7,K,A*37
$GPGGA,221236.000,3748.3172,N,12217.7077,W,1,06,1.6,10.1,M,-25.0,M,,0000*5C
$GPGSA,A,3,17,08,11,07,28,26,,,,,,,3.3,1.6,2.9*39
$GPRMC,221236.000,A,3748.3172,N,12217.7077,W,0.98,116.31,070711,,,A*70
$GPVTG,116.31,T,,M,0.98,N,1.8,K,A*01
$GPGGA,221237.000,3748.3156,N,12217.7066,W,1,06,1.6,12.5,M,-25.0,M,,0000*5D
$GPGSA,A,3,17,08,11,07,28,26,,,,,,,3.3,1.6,2.9*39
$GPRMC,221237.000,A,3748.3156,N,12217.7066,W,1.10,164.69,070711,,,A*7E
$GPVTG,164.69,T,,M,1.10,N,2.0,K,A*03
$GPGGA,221238.000,3748.3143,N,12217.7061,W,1,06,1.6,13.4,M,-25.0,M,,0000*51
$GPGSA,A,3,17,08,11,07,28,26,,,,,,,3.3,1.6,2.9*39
$GPRMC,221238.000,A,3748.3143,N,12217.7061,W,1.61,160.00,070711,,,A*7F
$GPVTG,160.00,T,,M,1.61,N,3.0,K,A*0F
$GPGGA,221239.000,3748.3140,N,12217.7056,W,1,06,1.6,14.4,M,-25.0,M,,0000*50
$GPGSA,A,3,17,08,11,07,28,26,,,,,,,3.3,1.6,2.9*39
$GPGSV,3,1,10,28,69,356,25,08,57,090,23,26,54,281,21,17,48,186,20*70
$GPGSV,3,2,10,07,31,111,27,15,22,312,21,11,21,069,25,24,14,085,30*79
$GPGSV,3,3,10,27,05,306,22,05,00,240,*7E
$GPRMC,221239.000,A,3748.3140,N,12217.7056,W,0.37,101.56,070711,,,A*7F
$GPVTG,101.56,T,,M,0.37,N,0.7,K,A*0D
$GPGGA,221240.000,3748.3134,N,12217.7052,W,1,06,1.6,14.2,M,-25.0,M,,0000*5F
$GPGSA,A,3,17,08,11,07,28,26,,,,,,,3.3,1.6,2.9*39
$GPRMC,221240.000,A,3748.3134,N,12217.7052,W,0.92,73.50,070711,,,A*4B
$GPVTG,73.50,T,,M,0.92,N,1.7,K,A*31
$GPGGA,221241.000,3748.3126,N,12217.7057,W,1,06,1.6,13.1,M,-25.0,M,,0000*5C
$GPGSA,A,3,17,08,11,07,28,26,,,,,,,3.3,1.6,2.9*39
$GPRMC,221241.000,A,3748.3126,N,12217.7057,W,1.20,20.72,070711,,,A*42
$GPVTG,20.72,T,,M,1.20,N,2.2,K,A*39
$GPGGA,221242.000,3748.3124,N,12217.7057,W,1,05,1.8,14.1,M,-25.0,M,,0000*57
$GPGSA,A,3,17,08,11,07,26,,,,,,,,3.9,1.8,3.5*3A
$GPRMC,221242.000,A,3748.3124,N,12217.7057,W,1.87,6.75,070711,,,A*7D
$GPVTG,6.75,T,,M,1.87,N,3.5,K,A*01
$GPGGA,221243.000,3748.3124,N,12217.7061,W,1,05,2.3,13.8,M,-25.0,M,,0000*55
$GPGSA,A,3,17,08,11,07,28,,,,,,,,4.3,2.3,3.6*32
$GPRMC,221243.000,A,3748.3124,N,12217.7061,W,2.66,14.88,070711,,,A*44
$GPVTG,14.88,T,,M,2.66,N,4.9,K,A*37
$GPGGA,221244.000,3748.3124,N,12217.7062,W,1,05,2.3,13.8,M,-25.0,M,,0000*51
$GPGSA,A,3,17,08,11,07,28,,,,,,,,4.3,2.3,3.6*32
$GPGSV,3,1,10,28,69,356,17,08,57,090,21,26,54,281,17,17,48,186,27*71
$GPGSV,3,2,10,07,31,111,27,15,22,312,21,11,21,069,31,24,14,085,22*7F
$GPGSV,3,3,10,27,05,306,22,05,00,240,*7E
$GPRMC,221244.000,A,3748.3124,N,12217.7062,W,1.89,32.91,070711,,,A*4E
$GPGGA,221245.000,3748.3123,N,12217.7054,W,1,06,1.6,14.3,M,-25.0,M,,0000*5B
$GPGSA,A,3,17,08,11,07,28,26,,,,,,,3.3,1.6,2.9*39
$GPRMC,221245.000,A,3748.3123,N,12217.7054,W,1.84,42.30,070711,,,A*4C
$GPVTG,42.30,T,,M,1.84,N,3.4,K,A*32
$GPGGA,221246.000,3748.3129,N,12217.7058,W,1,06,1.6,11.2,M,-25.0,M,,0000*5A
$GPGSA,A,3,17,08,11,07,28,26,,,,,,,3.3,1.6,2.9*39
$GPRMC,221246.000,A,3748.3129,N,12217.7058,W,2.55,43.02,070711,,,A*46
$GPVTG,43.02,T,,M,2.55,N,4.7,K,A*39
$GPGGA,221247.000,3748.3140,N,12217.7057,W,1,06,1.6,10.5,M,-25.0,M,,0000*5D
$GPGSA,A,3,17,08,11,07,28,26,,,,,,,3.3,1.6,2.9*39
$GPRMC,221247.000,A,3748.3140,N,12217.7057,W,2.24,21.48,070711,,,A*4B
$GPVTG,21.48,T,,M,2.24,N,4.2,K,A*30
$GPGGA,221248.000,3748.3140,N,12217.7056,W,1,05,2.3,8.9,M,-25.0,M,,0000*63
$GPGSA,A,3,17,08,11,07,28,,,,,,,,4.3,2.3,3.6*32
$GPRMC,221248.000,A,3748.3140,N,12217.7056,W,1.34,44.63,070711,,,A*4D
$GPVTG,44.63,T,,M,1.34,N,2.5,K,A*39
$GPGGA,221249.000,3748.3142,N,12217.7050,W,1,05,2.3,8.4,M,-25.0,M,,0000*6B
$GPGSA,A,3,17,08,11,07,28,,,,,,,,4.3,2.3,3.6*32
$GPGSV,3,1,10,28,69,356,19,08,57,090,23,26,54,281,17,17,48,186,21*7B
$GPGSV,3,2,10,07,31,111,24,15,22,312,24,11,21,069,30,24,14,085,28*72
$GPGSV,3,3,10,27,05,306,22,05,00,240,*7E
$GPRMC,221249.000,A,3748.3142,N,12217.7050,W,1.67,49.55,070711,,,A*46
$GPVTG,49.55,T,,M,1.67,N,3.1,K,A*32
$GPGGA,221250.000,3748.3145,N,12217.7053,W,1,06,1.6,6.8,M,-25.0,M,,0000*60
$GPGSA,A,3,17,08,11,07,28,26,,,,,,,3.3,1.6,2.9*39
$GPRMC,221250.000,A,3748.3145,N,12217.7053,W,1.63,29.84,070711,,,A*44
$GPVTG,29.84,T,,M,1.63,N,3.0,K,A*3D
$GPGGA,221251.000,3748.3139,N,12217.7048,W,1,06,1.6,6.3,M,-25.0,M,,0000*6B
$GPGSA,A,3,17,08,11,07,28,26,,,,,,,3.3,1.6,2.9*39
$GPRMC,221251.000,A,3748.3139,N,12217.7048,W,1.18,77.51,070711,,,A*4B
$GPVTG,77.51,T,,M,1.18,N,2.2,K,A*31
$GPGGA,221252.000,3748.3136,N,12217.7048,W,1,05,2.3,5.0,M,-25.0,M,,0000*62
$GPGSA,A,3,17,08,11,07,28,,,,,,,,4.3,2.3,3.6*32
$GPRMC,221252.000,A,3748.3136,N,12217.7048,W,1.43,95.07,070711,,,A*46
$GPVTG,95.07,T,,M,1.43,N,2.6,K,A*34
$GPGGA,221253.000,3748.3136,N,12217.7048,W,1,06,1.6,3.1,M,-25.0,M,,0000*61
$GPGSA,A,3,17,08,11,07,28,26,,,,,,,3.3,1.6,2.9*39
$GPRMC,221253.000,A,3748.3136,N,12217.7048,W,1.33,42.91,070711,,,A*45
$GPVTG,42.91,T,,M,1.33,N,2.5,K,A*35
$GPGGA,221254.000,3748.3140,N,12217.7035,W,1,06,1.6,4.4,M,-25.0,M,,0000*6F
$GPGSA,A,3,17,08,11,07,28,26,,,,,,,3.3,1.6,2.9*39
$GPGSV,3,1,10,28,69,356,24,08,57,090,30,26,54,281,19,17,48,186,20*78
$GPGSV,3,2,10,07,31,111,32,15,22,312,27,11,21,069,38,24,14,085,34*73
$GPGSV,3,3,10,27,05,306,21,05,00,240,*7D
$GPRMC,221254.000,A,3748.3140,N,12217.7035,W,1.29,56.82,070711,,,A*45
$GPVTG,56.82,T,,M,1.29,N,2.4,K,A*38
$GPGGA,221255.000,3748.3144,N,12217.7029,W,1,06,1.6,4.9,M,-25.0,M,,0000*6A
$GPGSA,A,3,17,08,11,07,28,26,,,,,,,3.3,1.6,2.9*39
$GPRMC,221255.000,A,3748.3144,N,12217.7029,W,1.49,61.77,070711,,,A*45
$GPVTG,61.77,T,,M,1.49,N,2.8,K,A*3C
$GPGGA,221256.000,3748.3147,N,12217.7026,W,1,06,1.6,3.7,M,-25.0,M,,0000*6C
$GPGSA,A,3,17,08,11,07,28,26,,,,,,,3.3,1.6,2.9*39
$GPRMC,221256.000,A,3748.3147,N,12217.7026,W,2.08,56.53,070711,,,A*4E
$GPVTG,56.53,T,,M,2.08,N,3.9,K,A*38
$GPGGA,221257.000,3748.3150,N,12217.7026,W,1,06,1.6,1.6,M,-25.0,M,,0000*68
$GPGSA,A,3,17,08,11,07,28,26,,,,,,,3.3,1.6,2.9*39
$GPRMC,221257.000,A,3748.3150,N,12217.7026,W,1.82,36.35,070711,,,A*4E
$GPVTG,36.35,T,,M,1.82,N,3.4,K,A*32
$GPGGA,221258.000,3748.3163,N,12217.7022,W,1,06,1.6,0.9,M,-25.0,M,,0000*6D
$GPGSA,A,3,17,08,11,07,28,26,,,,,,,3.3,1.6,2.9*39
$GPRMC,221258.000,A,3748.3163,N,12217.7022,W,2.03,33.54,070711,,,A*4D
$GPVTG,33.54,T,,M,2.03,N,3.8,K,A*36
$GPGGA,221259.000,3748.3170,N,12217.7016,W,1,06,1.6,1.0,M,-25.0,M,,0000*61
$GPGSA,A,3,17,08,11,07,28,26,,,,,,,3.3,1.6,2.9*39
$GPGSV,3,1,10,28,69,356,24,08,57,090,31,26,54,281,19,17,48,186,28*71
$GPGSV,3,2,10,07,31,111,39,15,22,312,22,11,21,069,39,24,14,085,38*70
$GPGSV,3,3,10,27,05,306,21,05,00,240,*7D
$GPRMC,221259.000,A,3748.3170,N,12217.7016,W,2.29,29.40,070711,,,A*4F
$GPVTG,29.40,T,,M,2.29,N,4.2,K,A*3D
$GPGGA,221300.000,3748.3177,N,12217.7011,W,1,06,1.6,1.1,M,-25.0,M,,0000*6D
$GPGSA,A,3,17,08,11,07,28,26,,,,,,,3.3,1.6,2.9*39
$GPRMC,221300.000,A,3748.3177,N,12217.7011,W,2.39,38.92,070711,,,A*4C
$GPVTG,38.92,T,,M,2.39,N,4.4,K,A*35
$GPGGA,221301.000,3748.3181,N,12217.7005,W,1,06,1.6,0.6,M,-25.0,M,,0000*66
$GPGSA,A,3,17,08,11,07,28,26,,,,,,,3.3,1.6,2.9*39
$GPRMC,221301.000,A,3748.3181,N,12217.7005,W,2.50,28.05,070711,,,A*41
$GPVTG,28.05,T,,M,2.50,N,4.6,K,A*37
$GPGGA,221302.000,3748.3185,N,12217.7001,W,1,06,1.6,-0.1,M,-25.0,M,,0000*4F
$GPGSA,A,3,17,08,11,07,28,26,,,,,,,3.3,1.6,2.9*39
$GPRMC,221302.000,A,3748.3185,N,12217.7001,W,2.30,17.24,070711,,,A*4B
$GPVTG,17.24,T,,M,2.30,N,4.3,K,A*3B
$GPGGA,221303.000,3748.3192,N,12217.6998,W,1,06,1.6,0.6,M,-25.0,M,,0000*6A
$GPGSA,A,3,17,08,11,07,28,26,,,,,,,3.3,1.6,2.9*39
$GPRMC,221303.000,A,3748.3192,N,12217.6998,W,1.79,18.21,070711,,,A*40
$GPVTG,18.21,T,,M,1.79,N,3.3,K,A*38
$GPGGA,221304.000,3748.3199,N,12217.6995,W,1,06,1.6,1.4,M,-25.0,M,,0000*68
$GPGSA,A,3,17,08,11,07,28,26,,,,,,,3.3,1.6,2.9*39
$GPGSV,3,1,10,28,69,356,23,08,57,090,31,26,54,281,20,17,48,186,20*74
$GPGSV,3,2,10,07,31,111,31,15,22,312,32,11,21,069,31,24,14,085,32*7B
$GPGSV,3,3,10,27,05,306,31,05,00,240,*7C
$GPRMC,221304.000,A,3748.3199,N,12217.6995,W,0.87,7.55,070711,,,A*7C
$GPVTG,7.55,T,,M,0.87,N,1.6,K,A*02
$GPGGA,221305.000,3748.3202,N,12217.6997,W,1,06,1.6,0.2,M,-25.0,M,,0000*6D
$GPGSA,A,3,17,08,11,07,28,26,,,,,,,3.3,1.6,2.9*39
$GPRMC,221305.000,A,3748.3202,N,12217.6997,W,0.07,207.04,070711,,,A*70
$GPVTG,207.04,T,,M,0.07,N,0.1,K,A*0A
$GPGGA,221306.000,3748.3202,N,12217.6993,W,1,06,1.6,-0.0,M,-25.0,M,,0000*45
$GPGSA,A,3,17,08,11,07,28,26,,,,,,,3.3,1.6,2.9*39
$GPRMC,221306.000,A,3748.3202,N,12217.6993,W,0.42,204.08,070711,,,A*79
$GPVTG,204.08,T,,M,0.42,N,0.8,K,A*0D
$GPGGA,221307.000,3748.3203,N,12217.6996,W,1,06,1.6,-0.3,M,-25.0,M,,0000*43
$GPGSA,A,3,17,08,11,07,28,26,,,,,,,3.3,1.6,2.9*39
$GPRMC,221307.000,A,3748.3203,N,12217.6996,W,0.18,243.44,070711,,,A*78
$GPVTG,243.44,T,,M,0.18,N,0.3,K,A*02
$GPGGA,221308.000,3748.3204,N,12217.6989,W,1,05,1.8,0.3,M,-25.0,M,,0000*65
$GPGSA,A,3,17,08,11,07,26,,,,,,,,3.9,1.8,3.5*3A
$GPRMC,221308.000,A,3748.3204,N,12217.6989,W,0.93,94.02,070711,,,A*47
$GPVTG,94.02,T,,M,0.93,N,1.7,K,A*3E
$GPGGA,221309.000,3748.3201,N,12217.6982,W,1,06,1.6,1.1,M,-25.0,M,,0000*64
$GPGSA,A,3,17,08,11,07,28,26,,,,,,,3.3,1.6,2.9*39
$GPGSV,3,1,10,28,69,356,13,08,57,090,28,26,54,281,23,17,48,186,22*7E
$GPGSV,3,2,10,07,31,111,21,15,22,312,30,11,21,069,33,24,14,085,30*78
$GPRMC,221309.000,A,3748.3201,N,12217.6982,W,1.60,133.57,070711,,,A*79
$GPVTG,133.57,T,,M,1.60,N,3.0,K,A*0A
$GPGGA,221310.000,3748.3199,N,12217.6979,W,1,06,1.6,1.0,M,-25.0,M,,0000*6B
$GPGSA,A,3,17,08,11,07,28,26,,,,,,,3.3,1.6,2.9*39
$GPRMC,221310.000,A,3748.3199,N,12217.6979,W,2.26,134.57,070711,,,A*71
$GPVTG,134.57,T,,M,2.26,N,4.2,K,A*09
$GPGGA,221311.000,3748.3199,N,12217.6978,W,1,06,1.6,1.3,M,-25.0,M,,0000*68
$GPGSA,A,3,17,08,11,07,28,26,,,,,,,3.3,1.6,2.9*39
$GPRMC,221311.000,A,3748.3199,N,12217.6978,W,1.83,125.79,070711,,,A*71
$GPVTG,125.79,T,,M,1.83,N,3.4,K,A*08
$GPGGA,221312.000,3748.3198,N,12217.6976,W,1,06,1.6,1.5,M,-25.0,M,,0000*62
$GPGSA,A,3,17,08,11,07,28,26,,,,,,,3.3,1.6,2.9*39
$GPRMC,221312.000,A,3748.3198,N,12217.6976,W,1.55,120.35,070711,,,A*7B
$GPVTG,120.35,T,,M,1.55,N,2.9,K,A*02
$GPGGA,221313.000,3748.3202,N,12217.6964,W,1,06,1.6,3.1,M,-25.0,M,,0000*66
$GPGSA,A,3,17,08,11,07,28,26,,,,,,,3.3,1.6,2.9*39
$GPRMC,221313.000,A,3748.3202,N,12217.6964,W,1.27,76.47,070711,,,A*4B
$GPVTG,76.47,T,,M,1.27,N,2.3,K,A*3A
$GPGGA,221314.000,3748.3207,N,12217.6952,W,1,06,1.6,4.7,M,-25.0,M,,0000*60
$GPGSA,A,3,17,08,11,07,28,26,,,,,,,3.3,1.6,2.9*39
$GPGSV,3,1,10,28,69,356,19,08,57,090,28,26,54,281,23,17,48,186,23*75
$GPGSV,3,2,10,07,31,111,29,15,22,312,26,11,21,069,34,24,14,085,31*71
$GPGSV,3,3,10,27,05,306,24,05,00,240,*78
$GPRMC,221314.000,A,3748.3207,N,12217.6952,W,0.81,71.07,070711,,,A*42
$GPVTG,71.07,T,,M,0.81,N,1.5,K,A*31
$GPGGA,221315.000,3748.3206,N,12217.6934,W,1,06,1.6,8.2,M,-25.0,M,,0000*69
$GPGSA,A,3,17,08,11,07,28,26,,,,,,,3.3,1.6,2.9*39
$GPRMC,221315.000,A,3748.3206,N,12217.6934,W,1.89,109.51,070711,,,A*76
$GPVTG,109.51,T,,M,1.89,N,3.5,K,A*07
$GPGGA,221316.000,3748.3201,N,12217.6930,W,1,06,1.6,9.2,M,-25.0,M,,0000*68
$GPGSA,A,3,17,08,11,07,28,26,,,,,,,3.3,1.6,2.9*39
$GPRMC,221316.000,A,3748.3201,N,12217.6930,W,1.77,100.76,070711,,,A*7B
$GPVTG,100.76,T,,M,1.77,N,3.3,K,A*0C
$GPGGA,221317.000,3748.3199,N,12217.6929,W,1,06,1.6,10.3,M,-25.0,M,,0000*5A
$GPGSA,A,3,17,08,11,07,28,26,,,,,,,3.3,1.6,2.9*39
$GPRMC,221317.000,A,3748.3199,N,12217.6929,W,1.57,82.70,070711,,,A*4F
$GPVTG,82.70,T,,M,1.57,N,2.9,K,A*38
$GPGGA,221318.000,3748.3207,N,12217.6921,W,1,06,1.6,11.3,M,-25.0,M,,0000*58
$GPGSA,A,3,17,08,11,07,28,26,,,,,,,3.3,1.6,2.9*39
$GPRMC,221318.000,A,3748.3207,N,12217.6921,W,2.32,85.05,070711,,,A*49
$GPVTG,85.05,T,,M,2.32,N,4.3,K,A*31
$GPGGA,221319.000,3748.3207,N,12217.6913,W,1,06,1.6,12.4,M,-25.0,M,,0000*5C
$GPGSA,A,3,17,08,11,07,28,26,,,,,,,3.3,1.6,2.9*39
$GPGSV,3,1,10,28,69,357,20,08,56,091,28,26,54,280,22,17,48,186,26*7B
$GPGSV,3,2,10,07,31,112,29,15,23,312,27,11,21,069,30,24,14,085,28*7E
$GPGSV,3,3,10,27,06,307,19,05,00,240,*74
$GPRMC,221319.000,A,3748.3207,N,12217.6913,W,1.71,102.61,070711,,,A*71
$GPVTG,102.61,T,,M,1.71,N,3.2,K,A*0F
$GPGGA,221320.000,3748.3209,N,12217.6906,W,1,06,1.6,14.5,M,-25.0,M,,0000*5B
$GPGSA,A,3,17,08,11,07,28,26,,,,,,,3.3,1.6,2.9*39
$GPRMC,221320.000,A,3748.3209,N,12217.6906,W,2.38,102.35,070711,,,A*7E
$GPVTG,102.35,T,,M,2.38,N,4.4,K,A*01
$GPGGA,221321.000,3748.3199,N,12217.6903,W,1,06,1.6,14.3,M,-25.0,M,,0000*53
$GPGSA,A,3,17,08,11,07,28,26,,,,,,,3.3,1.6,2.9*39
$GPRMC,221321.000,A,3748.3199,N,12217.6903,W,3.05,113.45,070711,,,A*78
$GPVTG,113.45,T,,M,3.05,N,5.6,K,A*0A
$GPGGA,221322.000,3748.3190,N,12217.6900,W,1,06,1.6,13.7,M,-25.0,M,,0000*59
$GPGSA,A,3,17,08,11,07,28,26,,,,,,,3.3,1.6,2.9*39
$GPRMC,221322.000,A,3748.3190,N,12217.6900,W,2.09,118.19,070711,,,A*7E
$GPVTG,118.19,T,,M,2.09,N,3.9,K,A*0C
$GPGGA,221323.000,3748.3187,N,12217.6898,W,1,06,1.6,13.6,M,-25.0,M,,0000*5F
$GPGSA,A,3,17,08,11,07,28,26,,,,,,,3.3,1.6,2.9*39
$GPRMC,221323.000,A,3748.3187,N,12217.6898,W,1.24,85.14,070711,,,A*4D
$GPVTG,85.14,T,,M,1.24,N,2.3,K,A*33
$GPGGA,221324.000,3748.3188,N,12217.6896,W,1,06,1.6,13.7,M,-25.0,M,,0000*58
$GPGSA,A,3,17,08,11,07,28,26,,,,,,,3.3,1.6,2.9*39
$GPGSV,3,1,10,28,69,357,21,08,56,091,28,26,54,280,19,17,48,186,24*70
$GPGSV,3,2,10,07,31,112,34,15,23,312,26,11,21,069,32,24,14,085,33*7B
$GPGSV,3,3,10,27,06,307,24,05,00,240,*7A
$GPVTG,61.86,T,,M,0.91,N,1.7,K,A*3A
$GPGGA,221325.000,3748.3191,N,12217.6897,W,1,06,1.6,13.9,M,-25.0,M,,0000*5E
$GPGSA,A,3,17,08,11,07,28,26,,,,,,,3.3,1.6,2.9*39
$GPRMC,221325.000,A,3748.3191,N,12217.6897,W,0.24,103.30,070711,,,A*7B
$GPVTG,103.30,T,,M,0.24,N,0.4,K,A*0E
$GPGGA,221326.000,3748.3189,N,12217.6885,W,1,06,1.6,16.4,M,-25.0,M,,0000*5F
$GPGSA,A,3,17,08,11,07,28,26,,,,,,,3.3,1.6,2.9*39
$GPRMC,221326.000,A,3748.3189,N,12217.6885,W,1.22,69.10,070711,,,A*4A
$GPVTG,69.10,T,,M,1.22,N,2.3,K,A*33
$GPGGA,221327.000,3748.3189,N,12217.6877,W,1,06,1.6,18.1,M,-25.0,M,,0000*58
$GPGSA,A,3,17,08,11,07,28,26,,,,,,,3.3,1.6,2.9*39
$GPRMC,221327.000,A,3748.3189,N,12217.6877,W,1.88,70.76,070711,,,A*4E
$GPVTG,70.76,T,,M,1.88,N,3.5,K,A*3C
$GPGGA,221328.000,3748.3185,N,12217.6865,W,1,06,1.6,20.9,M,-25.0,M,,0000*5B
$GPGSA,A,3,17,08,11,07,28,26,,,,,,,3.3,1.6,2.9*39
$GPRMC,221328.000,A,3748.3185,N,12217.6865,W,1.42,88.60,070711,,,A*48
$GPVTG,88.60,T,,M,1.42,N,2.6,K,A*38
$GPGGA,221329.000,3748.3175,N,12217.6863,W,1,06,1.6,20.5,M,-25.0,M,,0000*5F
$GPGSA,A,3,17,08,11,07,28,26,,,,,,,3.3,1.6,2.9*39
$GPGSV,3,1,10,28,69,357,22,08,56,091,25,26,54,280,19,17,48,186,24*7E
$GPGSV,3,2,10,07,31,112,34,15,23,312,26,11,21,069,32,24,14,085,31*79
$GPGSV,3,3,10,27,06,307,24,05,00,240,*7A
$GPRMC,221329.000,A,3748.3175,N,12217.6863,W,1.58,124.30,070711,,,A*79
$GPVTG,124.30,T,,M,1.58,N,2.9,K,A*0E
$GPGGA,221330.000,3748.3175,N,12217.6855,W,1,06,1.6,22.5,M,-25.0,M,,0000*50
$GPGSA,A,3,17,08,11,07,28,26,,,,,,,3.3,1.6,2.9*39
$GPRMC,221330.000,A,3748.3175,N,12217.6855,W,1.96,94.00,070711,,,A*4F
$GPVTG,94.00,T,,M,1.96,N,3.6,K,A*3B
$GPGGA,221331.000,3748.3178,N,12217.6851,W,1,04,4.8,22.8,M,-25.0,M,,0000*5C
$GPGSA,A,3,08,11,07,28,,,,,,,,,7.4,4.8,5.6*3B
$GPRMC,221331.000,A,3748.3178,N,12217.6851,W,2.49,76.85,070711,,,A*47
$GPVTG,76.85,T,,M,2.49,N,4.6,K,A*3C
$GPGGA,221332.000,3748.3182,N,12217.6848,W,1,04,4.8,22.9,M,-25.0,M,,0000*53
$GPGSA,A,3,08,11,07,28,,,,,,,,,7.4,4.8,5.6*3B
$GPRMC,221332.000,A,3748.3182,N,12217.6848,W,1.72,64.95,070711,,,A*40
$GPVTG,64.95,T,,M,1.72,N,3.2,K,A*36
$GPGGA,221333.000,3748.3182,N,12217.6850,W,1,05,2.3,22.8,M,-25.0,M,,0000*56
$GPGSA,A,3,17,08,11,07,28,,,,,,,,4.3,2.3,3.6*32
$GPRMC,221333.000,A,3748.3182,N,12217.6850,W,1.21,80.11,070711,,,A*48
$GPVTG,80.11,T,,M,1.21,N,2.2,K,A*37
$GPGGA,221334.000,3748.3181,N,12217.6858,W,1,05,1.8,21.1,M,-25.0,M,,0000*58
$GPGSA,A,3,17,08,11,07,26,,,,,,,,3.9,1.8,3.5*3A
$GPGSV,3,1,10,28,69,357,16,08,56,091,26,26,54,280,19,17,48,186,19*74
$GPGSV,3,2,10,07,31,112,34,15,23,312,26,11,21,069,32,24,14,085,30*78
$GPGSV,3,3,10,27,06,307,26,05,00,240,*78
$GPRMC,221334.000,A,3748.3181,N,12217.6858,W,0.19,88.88,070711,,,A*46
$GPVTG,88.88,T,,M,0.19,N,0.4,K,A*31
$GPGGA,221335.000,3748.3176,N,12217.6870,W,1,04,3.4,19.3,M,-25.0,M,,0000*5D
$GPGSA,A,3,17,08,11,07,,,,,,,,,5.0,3.4,3.6*3C
$GPRMC,221335.000,A,3748.3176,N,12217.6870,W,1.20,262.72,070711,,,A*7D
$GPVTG,262.72,T,,M,1.20,N,2.2,K,A*0D
$GPGGA,221336.000,3748.3176,N,12217.6890,W,1,06,1.6,17.4,M,-25.0,M,,0000*5B
$GPGSA,A,3,17,08,11,07,28,26,,,,,,,3.3,1.6,2.9*39
$GPRMC,221336.000,A,3748.3176,N,12217.6890,W,1.16,283.60,070711,,,A*79
$GPVTG,283.60,T,,M,1.16,N,2.1,K,A*07
$GPGGA,221337.000,3748.3177,N,12217.6913,W,1,05,1.8,14.2,M,-25.0,M,,0000*59
$GPGSA,A,3,17,08,11,07,26,,,,,,,,3.9,1.8,3.5*3A
$GPRMC,221337.000,A,3748.3177,N,12217.6913,W,0.94,290.24,070711,,,A*7A
$GPVTG,290.24,T,,M,0.94,N,1.7,K,A*0B
$GPGGA,221338.000,3748.3185,N,12217.6923,W,1,05,2.3,13.8,M,-25.0,M,,0000*5D
$GPGSA,A,3,08,11,07,28,26,,,,,,,,3.7,2.3,2.9*3D
$GPRMC,221338.000,A,3748.3185,N,12217.6923,W,0.43,7.74,070711,,,A*78
$GPVTG,7.74,T,,M,0.43,N,0.8,K,A*06
$GPGGA,221339.000,3748.3193,N,12217.6917,W,1,06,1.6,14.5,M,-25.0,M,,0000*53
$GPGSA,A,3,17,08,11,07,28,26,,,,,,,3.3,1.6,2.9*39
$GPGSV,3,1,10,28,69,357,17,08,56,091,26,26,54,280,19,17,48,186,19*75
$GPGSV,3,2,10,07,31,112,33,15,23,312,27,11,21,069,32,24,14,085,30*7E
$GPGSV,3,3,10,27,06,307,26,05,00,240,*78
$GPRMC,221339.000,A,3748.3193,N,12217.6917,W,0.97,70.34,070711,,,A*44
$GPVTG,70.34,T,,M,0.97,N,1.8,K,A*3A
$GPGGA,221340.000,3748.3200,N,12217.6916,W,1,06,1.6,15.6,M,-25.0,M,,0000*57
$GPGSA,A,3,17,08,11,07,28,26,,,,,,,3.3,1.6,2.9*39
$GPRMC,221340.000,A,3748.3200,N,12217.6916,W,0.58,37.53,070711,,,A*43
$GPVTG,37.53,T,,M,0.58,N,1.1,K,A*32
$GPGGA,221341.000,3748.3214,N,12217.6917,W,1,06,1.6,19.1,M,-25.0,M,,0000*59
$GPGSA,A,3,17,08,11,07,28,26,,,,,,,3.3,1.6,2.9*39
$GPRMC,221341.000,A,3748.3214,N,12217.6917,W,1.18,28.61,070711,,,A*4C
$GPVTG,28.61,T,,M,1.18,N,2.2,K,A*38
$GPGGA,221342.000,3748.3224,N,12217.6920,W,1,06,1.6,19.7,M,-25.0,M,,0000*5B
$GPGSA,A,3,17,08,11,07,28,26,,,,,,,3.3,1.6,2.9*39
$GPRMC,221342.000,A,3748.3224,N,12217.6920,W,1.17,27.97,070711,,,A*41
$GPVTG,27.97,T,,M,1.17,N,2.2,K,A*31
$GPGGA,221343.000,3748.3232,N,12217.6928,W,1,06,1.6,19.3,M,-25.0,M,,0000*51
$GPGSA,A,3,17,08,11,07,28,26,,,,,,,3.3,1.6,2.9*39
$GPRMC,221343.000,A,3748.3232,N,12217.6928,W,1.32,358.81,070711,,,A*74
$GPVTG,358.81,T,,M,1.32,N,2.4,K,A*0C
$GPGGA,221344.000,3748.3240,N,12217.6934,W,1,06,1.6,18.0,M,-25.0,M,,0000*5C
$GPGSA,A,3,17,08,11,07,28,26,,,,,,,3.3,1.6,2.9*39
$GPGSV,3,1,10,28,69,357,22,08,56,091,28,26,54,280,19,17,48,186,20*77
$GPGSV,3,2,10,07,31,112,33,15,23,312,26,11,21,069,33,24,14,085,31*7F
$GPGSV,3,3,10,27,06,307,26,05,00,240,*78
$GPRMC,221344.000,A,3748.3240,N,12217.6934,W,1.45,6.92,070711,,,A*71
$GPVTG,6.92,T,,M,1.45,N,2.7,K,A*05
$GPGGA,221345.000,3748.3246,N,12217.6935,W,1,06,1.6,17.3,M,-25.0,M,,0000*56
$GPGSA,A,3,17,08,11,07,28,26,,,,,,,3.3,1.6,2.9*39
$GPRMC,221345.000,A,3748.3246,N,12217.6935,W,1.00,10.47,070711,,,A*49
$GPVTG,10.47,T,,M,1.00,N,1.8,K,A*37
$GPGGA,221346.000,3748.3250,N,12217.6928,W,1,06,1.6,18.3,M,-25.0,M,,0000*51
$GPGSA,A,3,17,08,11,07,28,26,,,,,,,3.3,1.6,2.9*39
$GPRMC,221346.000,A,3748.3250,N,12217.6928,W,0.97,357.03,070711,,,A*7E
$GPVTG,357.03,T,,M,0.97,N,1.8,K,A*08
$GPGGA,221347.000,3748.3254,N,12217.6922,W,1,06,1.6,19.2,M,-25.0,M,,0000*5E
$GPGSA,A,3,17,08,11,07,28,26,,,,,,,3.3,1.6,2.9*39
$GPRMC,221347.000,A,3748.3254,N,12217.6922,W,1.73,21.15,070711,,,A*4F
$GPVTG,21.15,T,,M,1.73,N,3.2,K,A*3E
$GPGGA,221348.000,3748.3258,N,12217.6919,W,1,06,1.6,19.5,M,-25.0,M,,0000*52
$GPGSA,A,3,17,08,11,07,28,26,,,,,,,3.3,1.6,2.9*39
$GPRMC,221348.000,A,3748.3258,N,12217.6919,W,1.76,9.31,070711,,,A*7D
$GPVTG,9.31,T,,M,1.76,N,3.3,K,A*06
$GPGGA,221349.000,3748.3266,N,12217.6917,W,1,06,1.6,19.7,M,-25.0,M,,0000*52
$GPGSA,A,3,17,08,11,07,28,26,,,,,,,3.3,1.6,2.9*39
$GPGSV,3,1,10,28,69,357,23,08,56,091,33,26,54,280,22,17,48,186,22*76
$GPGSV,3,2,10,07,31,112,35,15,23,312,28,11,21,069,27,24,14,085,34*77
$GPGSV,3,3,10,27,06,307,26,05,00,240,*78
$GPRMC,221349.000,A,3748.3266,N,12217.6917,W,2.07,354.00,070711,,,A*73
$GPVTG,354.00,T,,M,2.07,N,3.8,K,A*01
$GPGGA,221350.000,3748.3268,N,12217.6916,W,1,06,1.6,20.6,M,-25.0,M,,0000*5E
$GPGSA,A,3,17,08,11,07,28,26,,,,,,,3.3,1.6,2.9*39
$GPRMC,221350.000,A,3748.3268,N,12217.6916,W,1.67,355.92,070711,,,A*7B
$GPVTG,355.92,T,,M,1.67,N,3.1,K,A*07
$GPGGA,221351.000,3748.3264,N,12217.6920,W,1,06,1.6,21.1,M,-25.0,M,,0000*50
$GPGSA,A,3,17,08,11,07,28,26,,,,,,,3.3,1.6,2.9*39
$GPRMC,221351.000,A,3748.3264,N,12217.6920,W,1.56,344.51,070711,,,A*7E
$GPVTG,344.51,T,,M,1.56,N,2.9,K,A*03
$GPGGA,221352.000,3748.3258,N,12217.6927,W,1,06,1.6,20.6,M,-25.0,M,,0000*5D
$GPGSA,A,3,17,08,11,07,28,26,,,,,,,3.3,1.6,2.9*39
$GPRMC,221352.000,A,3748.3258,N,12217.6927,W,1.52,340.14,070711,,,A*74
$GPVTG,340.14,T,,M,1.52,N,2.8,K,A*03
$GPGGA,221353.000,3748.3257,N,12217.6925,W,1,06,1.6,21.1,M,-25.0,M,,0000*57
$GPGSA,A,3,17,08,11,07,28,26,,,,,,,3.3,1.6,2.9*39
$GPRMC,221353.000,A,3748.3257,N,12217.6925,W,1.24,28.69,070711,,,A*4E
$GPVTG,28.69,T,,M,1.24,N,2.3,K,A*3E
$GPGGA,221354.000,3748.3254,N,12217.6933,W,1,06,1.6,18.6,M,-25.0,M,,0000*59
$GPGSA,A,3,17,08,11,07,28,26,,,,,,,3.3,1.6,2.9*39
$GPGSV,3,1,10,28,69,358,23,08,56,091,32,26,54,279,22,17,48,186,25*79
$GPGSV,3,2,10,07,30,112,36,15,23,312,24,11,21,069,21,24,14,085,21*7B
$GPGSV,3,3,10,27,06,307,27,05,00,239,*77
$GPRMC,221354.000,A,3748.3254,N,12217.6933,W,1.23,359.20,070711,,,A*72
$GPVTG,359.20,T,,M,1.23,N,2.3,K,A*01
$GPGGA,221355.000,3748.3259,N,12217.6925,W,1,06,1.6,20.4,M,-25.0,M,,0000*5B
$GPGSA,A,3,17,08,11,07,28,26,,,,,,,3.3,1.6,2.9*39
$GPRMC,221355.000,A,3748.3259,N,12217.6925,W,1.67,358.48,070711,,,A*76
$GPVTG,358.48,T,,M,1.67,N,3.1,K,A*0D
$GPGGA,221356.000,3748.3264,N,12217.6927,W,1,06,1.6,19.0,M,-25.0,M,,0000*5A
$GPGSA,A,3,17,08,11,07,28,26,,,,,,,3.3,1.6,2.9*39
$GPRMC,221356.000,A,3748.3264,N,12217.6927,W,2.05,2.18,070711,,,A*77
$GPVTG,2.18,T,,M,2.05,N,3.8,K,A*0A
$GPGGA,221357.000,3748.3266,N,12217.6926,W,1,06,1.6,18.2,M,-25.0,M,,0000*5B
$GPGSA,A,3,17,08,11,07,28,26,,,,,,,3.3,1.6,2.9*39
$GPRMC,221357.000,A,3748.3266,N,12217.6926,W,1.77,359.38,070711,,,A*7C
$GPVTG,359.38,T,,M,1.77,N,3.3,K,A*08
$GPGGA,221358.000,3748.3266,N,12217.6922,W,1,06,1.6,18.8,M,-25.0,M,,0000*5A
$GPGSA,A,3,17,08,11,07,28,26,,,,,,,3.3,1.6,2.9*39
$GPRMC,221358.000,A,3748.3266,N,12217.6922,W,1.55,333.93,070711,,,A*7A
$GPVTG,333.93,T,,M,1.55,N,2.9,K,A*0E
$GPGGA,221359.000,3748.3274,N,12217.6923,W,1,06,1.6,18.5,M,-25.0,M,,0000*54
$GPGSA,A,3,17,08,11,07,28,26,,,,,,,3.3,1.6,2.9*39
$GPGSV,3,1,11,28,69,358,26,08,56,091,33,26,54,279,22,17,48,186,23*7A
$GPGSV,3,2,11,07,30,112,36,15,23,312,32,11,21,069,20,24,14,085,21*7C
$GPGSV,3,3,11,27,06,307,23,05,00,239,,46,41,141,27*44
$GPRMC,221359.000,A,3748.3274,N,12217.6923,W,1.76,337.38,070711,,,A*7D
$GPVTG,337.38,T,,M,1.76,N,3.3,K,A*01
$GPGGA,221400.000,3748.3286,N,12217.6922,W,1,06,1.6,17.0,M,-25.0,M,,0000*59
$GPGSA,A,3,17,08,11,07,28,26,,,,,,,3.3,1.6,2.9*39
$GPRMC,221400.000,A,3748.3286,N,12217.6922,W,1.83,356.70,070711,,,A*7B
$GPVTG,356.70,T,,M,1.83,N,3.4,K,A*07
$GPGGA,221401.000,3748.3286,N,12217.6924,W,1,06,1.6,15.2,M,-25.0,M,,0000*5E
$GPGSA,A,3,17,08,11,07,28,26,,,,,,,3.3,1.6,2.9*39
$GPRMC,221401.000,A,3748.3286,N,12217.6924,W,1.15,1.48,070711,,,A*79
$GPVTG,1.48,T,,M,1.15,N,2.1,K,A*06
$GPGGA,221402.000,3748.3290,N,12217.6923,W,1,06,1.6,13.6,M,-25.0,M,,0000*5F
$GPGSA,A,3,17,08,11,07,28,26,,,,,,,3.3,1.6,2.9*39
$GPRMC,221402.000,A,3748.3290,N,12217.6923,W,0.95,351.84,070711,,,A*75
$GPVTG,351.84,T,,M,0.95,N,1.8,K,A*03
$GPGGA,221403.000,3748.3297,N,12217.6921,W,1,06,1.6,13.3,M,-25.0,M,,0000*5E
$GPGSA,A,3,17,08,11,07,28,26,,,,,,,3.3,1.6,2.9*39
$GPRMC,221403.000,A,3748.3297,N,12217.6921,W,1.72,355.05,070711,,,A*74
$GPVTG,355.05,T,,M,1.72,N,3.2,K,A*0E
$GPGGA,221404.000,3748.3307,N,12217.6919,W,1,06,1.6,12.5,M,-25.0,M,,0000*5D
$GPGSA,A,3,17,08,11,07,28,26,,,,,,,3.3,1.6,2.9*39
$GPGSV,3,1,11,28,69,358,25,08,56,091,32,26,54,279,23,17,48,186,23*79
$GPGSV,3,2,11,07,30,112,24,15,23,312,26,11,21,069,28,24,14,085,20*73
$GPGSV,3,3,11,27,06,307,23,05,00,239,,46,41,141,28*4B
$GPRMC,221404.000,A,3748.3307,N,12217.6919,W,2.08,348.84,070711,,,A*7B
$GPVTG,348.84,T,,M,2.08,N,3.9,K,A*0E
$GPGGA,221405.000,3748.3315,N,12217.6921,W,1,06,1.6,11.8,M,-25.0,M,,0000*5A
$GPGSA,A,3,17,08,11,07,28,26,,,,,,,3.3,1.6,2.9*39
$GPRMC,221405.000,A,3748.3315,N,12217.6921,W,1.68,0.12,070711,,,A*77
$GPVTG,0.12,T,,M,1.68,N,3.1,K,A*03
$GPGGA,221406.000,3748.3317,N,12217.6923,W,1,06,1.6,11.6,M,-25.0,M,,0000*57
$GPGSA,A,3,17,08,11,07,28,26,,,,,,,3.3,1.6,2.9*39
$GPRMC,221406.000,A,3748.3317,N,12217.6923,W,0.94,345.08,070711,,,A*7F
$GPVTG,345.08,T,,M,0.94,N,1.7,K,A*0C
$GPGGA,221407.000,3748.3317,N,12217.6922,W,1,06,1.6,11.8,M,-25.0,M,,0000*59
$GPGSA,A,3,17,08,11,07,28,26,,,,,,,3.3,1.6,2.9*39
$GPRMC,221407.000,A,3748.3317,N,12217.6922,W,1.14,343.46,070711,,,A*7A
$GPVTG,343.46,T,,M,1.14,N,2.1,K,A*0C
$GPGGA,221408.000,3748.3317,N,12217.6922,W,1,06,1.6,11.6,M,-25.0,M,,0000*58
$GPGSA,A,3,17,08,11,07,28,26,,,,,,,3.3,1.6,2.9*39
$GPRMC,221408.000,A,3748.3317,N,12217.6922,W,0.80,96.86,070711,,,A*4E
$GPVTG,96.86,T,,M,0.80,N,1.5,K,A*30
$GPGGA,221409.000,3748.3318,N,12217.6919,W,1,06,1.6,11.4,M,-25.0,M,,0000*5C
$GPGSA,A,3,17,08,11,07,28,26,,,,,,,3.3,1.6,2.9*39
$GPGSV,3,1,11,28,69,358,25,08,56,091,32,26,54,279,28,17,48,186,24*75
$GPGSV,3,2,11,07,30,112,22,15,23,312,28,11,21,069,21,24,14,085,14*75
$GPGSV,3,3,11,27,06,307,23,05,00,239,,46,41,141,25*46
$GPRMC,221409.000,A,3748.3318,N,12217.6919,W,0.79,32.71,070711,,,A*48
$GPGGA,221410.000,3748.3327,N,12217.6913,W,1,06,1.6,11.1,M,-25.0,M,,0000*57
$GPGSA,A,3,17,08,11,07,28,26,,,,,,,3.3,1.6,2.9*39
$GPRMC,221410.000,A,3748.3327,N,12217.6913,W,0.58,27.07,070711,,,A*40
$GPVTG,27.07,T,,M,0.58,N,1.1,K,A*32
$GPGGA,221411.000,3748.3331,N,12217.6911,W,1,06,1.6,10.9,M,-25.0,M,,0000*5A
$GPGSA,A,3,17,08,11,07,28,26,,,,,,,3.3,1.6,2.9*39
$GPRMC,221411.000,A,3748.3331,N,12217.6911,W,0.72,25.74,070711,,,A*4A
$GPVTG,25.74,T,,M,0.72,N,1.3,K,A*3E
$GPGGA,221412.000,3748.3334,N,12217.6918,W,1,06,1.6,10.9,M,-25.0,M,,0000*55
$GPGSA,A,3,17,08,11,07,28,26,,,,,,,3.3,1.6,2.9*39
$GPRMC,221412.000,A,3748.3334,N,12217.6918,W,0.65,347.65,070711,,,A*74
$GPVTG,347.65,T,,M,0.65,N,1.2,K,A*0E
$GPGGA,221413.000,3748.3336,N,12217.6924,W,1,06,1.6,10.4,M,-25.0,M,,0000*54
$GPGSA,A,3,17,08,11,07,28,26,,,,,,,3.3,1.6,2.9*39
$GPRMC,221413.000,A,3748.3336,N,12217.6924,W,1.13,352.28,070711,,,A*75
$GPVTG,352.28,T,,M,1.13,N,2.1,K,A*03
$GPGGA,221414.000,3748.3337,N,12217.6928,W,1,06,1.6,9.7,M,-25.0,M,,0000*65
$GPGSA,A,3,17,08,11,07,28,26,,,,,,,3.3,1.6,2.9*39
$GPGSV,3,1,10,28,69,358,25,08,56,091,32,26,54,279,27,17,48,186,24*7B
$GPGSV,3,2,10,07,30,112,27,15,23,312,31,11,21,069,22,24,14,085,18*76
$GPGSV,3,3,10,27,06,307,26,05,00,239,*76
$GPRMC,221414.000,A,3748.3337,N,12217.6928,W,1.38,347.27,070711,,,A*7D
$GPVTG,347.27,T,,M,1.38,N,2.6,K,A*06
$GPGGA,221415.000,3748.3344,N,12217.6933,W,1,06,1.6,7.7,M,-25.0,M,,0000*64
$GPGSA,A,3,17,08,11,07,28,26,,,,,,,3.3,1.6,2.9*39
$GPRMC,221415.000,A,3748.3344,N,12217.6933,W,2.04,10.10,070711,,,A*4B
$GPVTG,10.10,T,,M,2.04,N,3.8,K,A*30
$GPGGA,221416.000,3748.3357,N,12217.6930,W,1,06,1.6,6.2,M,-25.0,M,,0000*62
$GPGSA,A,3,17,08,11,07,28,26,,,,,,,3.3,1.6,2.9*39
$GPRMC,221416.000,A,3748.3357,N,12217.6930,W,2.15,13.25,070711,,,A*4C
$GPVTG,13.25,T,,M,2.15,N,4.0,K,A*3A
$GPGGA,221417.000,3748.3370,N,12217.6927,W,1,06,1.6,4.6,M,-25.0,M,,0000*66
$GPGSA,A,3,17,08,11,07,28,26,,,,,,,3.3,1.6,2.9*39
$GPRMC,221417.000,A,3748.3370,N,12217.6927,W,2.22,4.85,070711,,,A*76
$GPVTG,4.85,T,,M,2.22,N,4.1,K,A*03
$GPGGA,221418.000,3748.3384,N,12217.6921,W,1,06,1.6,3.3,M,-25.0,M,,0000*66
$GPGSA,A,3,17,08,11,07,28,26,,,,,,,3.3,1.6,2.9*39
$GPRMC,221418.000,A,3748.3384,N,12217.6921,W,1.93,16.08,070711,,,A*4B
$GPVTG,16.08,T,,M,1.93,N,3.6,K,A*3C
$GPGGA,221419.000,3748.3390,N,12217.6919,W,1,06,1.6,2.0,M,-25.0,M,,0000*6B
$GPGSA,A,3,17,08,11,07,28,26,,,,,,,3.3,1.6,2.9*39
$GPGSV,3,1,10,28,69,358,25,08,56,091,32,26,54,279,22,17,48,186,24*7E
$GPGSV,3,2,10,07,30,112,33,15,23,312,31,11,21,069,36,24,14,085,19*77
$GPGSV,3,3,10,27,06,307,26,05,00,239,*76
$GPRMC,221419.000,A,3748.3390,N,12217.6919,W,2.06,351.46,070711,,,A*71
$GPVTG,351.46,T,,M,2.06,N,3.8,K,A*07
$GPGGA,221420.000,3748.3395,N,12217.6917,W,1,06,1.6,0.7,M,-25.0,M,,0000*6F
$GPGSA,A,3,17,08,11,07,28,26,,,,,,,3.3,1.6,2.9*39
$GPRMC,221420.000,A,3748.3395,N,12217.6917,W,2.16,4.33,070711,,,A*70
$GPVTG,4.33,T,,M,2.16,N,4.0,K,A*08
$GPGGA,221421.000,3748.3402,N,12217.6912,W,1,06,1.6,0.0,M,-25.0,M,,0000*65
$GPGSA,A,3,17,08,11,07,28,26,,,,,,,3.3,1.6,2.9*39
$GPRMC,221421.000,A,3748.3402,N,12217.6912,W,2.28,15.76,070711,,,A*41
$GPVTG,15.76,T,,M,2.28,N,4.2,K,A*36
$GPGGA,221422.000,3748.3409,N,12217.6909,W,1,06,1.6,0.0,M,-25.0,M,,0000*67
$GPGSA,A,3,17,08,11,07,28,26,,,,,,,3.3,1.6,2.9*39
$GPRMC,221422.000,A,3748.3409,N,12217.6909,W,2.17,12.77,070711,,,A*49
$GPVTG,12.77,T,,M,2.17,N,4.0,K,A*3E
$GPGGA,221423.000,3748.3417,N,12217.6904,W,1,06,1.6,-0.2,M,-25.0,M,,0000*4B
$GPGSA,A,3,17,08,11,07,28,26,,,,,,,3.3,1.6,2.9*39
$GPRMC,221423.000,A,3748.3417,N,12217.6904,W,1.99,7.56,070711,,,A*78
$GPVTG,7.56,T,,M,1.99,N,3.7,K,A*0C
$GPGGA,221424.000,3748.3424,N,12217.6897,W,1,06,1.6,-0.1,M,-25.0,M,,0000*44
$GPGSA,A,3,17,08,11,07,28,26,,,,,,,3.3,1.6,2.9*39
$GPGSV,3,1,10,28,69,358,25,08,56,091,32,26,54,279,23,17,48,186,24*7F
$GPGSV,3,2,10,07,30,112,26,15,23,312,25,11,21,069,40,24,14,085,37*7B
$GPGSV,3,3,10,27,06,307,22,05,00,239,*72
$GPRMC,221424.000,A,3748.3424,N,12217.6897,W,1.31,17.04,070711,,,A*40
$GPVTG,17.04,T,,M,1.31,N,2.4,K,A*3A
$GPGGA,221425.000,3748.3429,N,12217.6893,W,1,06,1.6,-0.2,M,-25.0,M,,0000*4F
$GPGSA,A,3,17,08,11,07,28,26,,,,,,,3.3,1.6,2.9*39
$GPRMC,221425.000,A,3748.3429,N,12217.6893,W,2.03,10.41,070711,,,A*4C
$GPVTG,10.41,T,,M,2.03,N,3.8,K,A*33
$GPGGA,221426.000,3748.3437,N,12217.6897,W,1,06,1.6,0.0,M,-25.0,M,,0000*68
$GPGSA,A,3,17,08,11,07,28,26,,,,,,,3.3,1.6,2.9*39
$GPRMC,221426.000,A,3748.3437,N,12217.6897,W,1.88,348.25,070711,,,A*78
$GPVTG,348.25,T,,M,1.88,N,3.5,K,A*02
$GPGGA,221427.000,3748.3446,N,12217.6898,W,1,06,1.6,0.2,M,-25.0,M,,0000*62
$GPGSA,A,3,17,08,11,07,28,26,,,,,,,3.3,1.6,2.9*39
$GPRMC,221427.000,A,3748.3446,N,12217.6898,W,1.77,3.84,070711,,,A*77
$GPVTG,3.84,T,,M,1.77,N,3.3,K,A*03
$GPGGA,221428.000,3748.3448,N,12217.6895,W,1,06,1.6,-0.3,M,-25.0,M,,0000*42
$GPGSA,A,3,17,08,11,07,28,26,,,,,,,3.3,1.6,2.9*39
$GPRMC,221428.000,A,3748.3448,N,12217.6895,W,1.61,6.61,070711,,,A*72
$GPVTG,6.61,T,,M,1.61,N,3.0,K,A*09
$GPGGA,221429.000,3748.3456,N,12217.6891,W,1,06,1.6,-0.1,M,-25.0,M,,0000*4A
$GPGSA,A,3,17,08,11,07,28,26,,,,,,,3.3,1.6,2.9*39
$GPGSV,3,1,10,28,69,358,25,08,56,091,33,26,54,279,24,17,48,186,25*78
$GPGSV,3,2,10,07,30,112,33,15,23,312,27,11,21,069,39,24,14,085,37*73
$GPGSV,3,3,10,27,06,307,22,05,00,239,*72
$GPRMC,221429.000,A,3748.3456,N,12217.6891,W,2.30,353.86,070711,,,A*75
$GPVTG,353.86,T,,M,2.30,N,4.3,K,A*00
$GPGGA,221430.000,3748.3469,N,12217.6897,W,1,06,1.6,-1.6,M,-25.0,M,,0000*4E
$GPGSA,A,3,17,08,11,07,28,26,,,,,,,3.3,1.6,2.9*39
$GPRMC,221430.000,A,3748.3469,N,12217.6897,W,1.93,355.52,070711,,,A*72
$GPVTG,355.52,T,,M,1.93,N,3.6,K,A*07
$GPGGA,221431.000,3748.3476,N,12217.6895,W,1,06,1.6,-1.5,M,-25.0,M,,0000*40
$GPGSA,A,3,17,08,11,07,28,26,,,,,,,3.3,1.6,2.9*39
$GPRMC,221431.000,A,3748.3476,N,12217.6895,W,2.14,356.72,070711,,,A*72
$GPVTG,356.72,T,,M,2.14,N,4.0,K,A*0B
$GPGGA,221432.000,3748.3484,N,12217.6894,W,1,06,1.6,-2.1,M,-25.0,M,,0000*48
$GPGSA,A,3,17,08,11,07,28,26,,,,,,,3.3,1.6,2.9*39
$GPRMC,221432.000,A,3748.3484,N,12217.6894,W,1.20,343.84,070711,,,A*74
$GPVTG,343.84,T,,M,1.20,N,2.2,K,A*06
$GPGGA,221433.000,3748.3492,N,12217.6895,W,1,06,1.6,-3.9,M,-25.0,M,,0000*46
$GPGSA,A,3,17,08,11,07,28,26,,,,,,,3.3,1.6,2.9*39
$GPRMC,221433.000,A,3748.3492,N,12217.6895,W,1.85,8.15,070711,,,A*78
$GPVTG,8.15,T,,M,1.85,N,3.4,K,A*0A
$GPGGA,221434.000,3748.3501,N,12217.6896,W,1,06,1.6,-4.5,M,-25.0,M,,0000*42
$GPGSA,A,3,17,08,11,07,28,26,,,,,,,3.3,1.6,2.9*39
$GPGSV,3,1,10,28,69,358,25,08,56,091,30,26,54,279,26,17,48,186,24*78
$GPGSV,3,2,10,07,30,112,32,15,23,312,22,11,21,069,38,24,14,085,37*76
$GPGSV,3,3,10,27,06,307,15,05,00,239,*76
$GPRMC,221434.000,A,3748.3501,N,12217.6896,W,1.90,9.03,070711,,,A*75
$GPVTG,9.03,T,,M,1.90,N,3.5,K,A*09
$GPGGA,221435.000,3748.3509,N,12217.6890,W,1,06,1.6,-4.0,M,-25.0,M,,0000*48
$GPGSA,A,3,17,08,11,07,28,26,,,,,,,3.3,1.6,2.9*39
$GPRMC,221435.000,A,3748.3509,N,12217.6890,W,1.86,6.12,070711,,,A*72
$GPVTG,6.12,T,,M,1.86,N,3.5,K,A*01
$GPGGA,221436.000,3748.3516,N,12217.6888,W,1,06,1.6,-4.0,M,-25.0,M,,0000*4C
$GPGSA,A,3,17,08,11,07,28,26,,,,,,,3.3,1.6,2.9*39
$GPRMC,221436.000,A,3748.3516,N,12217.6888,W,1.71,18.34,070711,,,A*45
$GPVTG,18.34,T,,M,1.71,N,3.2,K,A*35
$GPGGA,221437.000,3748.3531,N,12217.6885,W,1,06,1.6,-2.9,M,-25.0,M,,0000*4A
$GPGSA,A,3,17,08,11,07,28,26,,,,,,,3.3,1.6,2.9*39
$GPRMC,221437.000,A,3748.3531,N,12217.6885,W,2.22,5.04,070711,,,A*76
$GPVTG,5.04,T,,M,2.22,N,4.1,K,A*0B
$GPGGA,221438.000,3748.3540,N,12217.6882,W,1,06,1.6,-2.8,M,-25.0,M,,0000*45
$GPGSA,A,3,17,08,11,07,28,26,,,,,,,3.3,1.6,2.9*39
$GPRMC,221438.000,A,3748.3540,N,12217.6882,W,2.00,2.11,070711,,,A*7B
$GPVTG,2.11,T,,M,2.00,N,3.7,K,A*09
$GPGGA,221439.000,3748.3549,N,12217.6880,W,1,06,1.6,-2.7,M,-25.0,M,,0000*40
$GPGSA,A,3,17,08,11,07,28,26,,,,,,,3.3,1.6,2.9*39
$GPGSV,3,1,10,28,69,358,25,08,56,091,31,26,54,279,24,17,48,186,25*7A
$GPGSV,3,2,10,07,30,112,32,15,23,312,24,11,21,069,39,24,14,085,36*70
$GPGSV,3,3,10,27,06,307,16,05,00,239,*75
$GPRMC,221439.000,A,3748.3549,N,12217.6880,W,2.27,2.16,070711,,,A*73
$GPVTG,2.16,T,,M,2.27,N,4.2,K,A*09
$GPGGA,221440.000,3748.3557,N,12217.6876,W,1,06,1.6,-2.6,M,-25.0,M,,0000*49
$GPGSA,A,3,17,08,11,07,28,26,,,,,,,3.3,1.6,2.9*39
$GPRMC,221440.000,A,3748.3557,N,12217.6876,W,2.36,355.51,070711,,,A*79
$GPVTG,355.51,T,,M,2.36,N,4.4,K,A*0D
$GPGGA,221441.000,3748.3562,N,12217.6874,W,1,06,1.6,-3.0,M,-25.0,M,,0000*4B
