$ADVER,3080,2.3
$GPRMC,202010.004,A,3748.7719,N,12217.7583,W,0.35,131.27,070711,,,A*77
$GPGGA,202011.004,3748.7857,N,12217.8131,W,1,03,7.1,25.1,M,-25.1,M,,0000*5B
$GPGSA,A,2,03,19,13,,,,,,,,,,7.2,7.1,1.0*38
$GPRMC,202011.004,A,3748.7857,N,12217.8131,W,0.08,120.98,070711,,,A*7B
$GPVTG,120.98,T,,M,0.08,N,0.1,K,N*09
$GPGGA,202029.004,3748.7914,N,12217.8647,W,1,04,2.2,-19.0,M,-25.1,M,,0000*72
$GPGSA,A,3,03,19,13,28,,,,,,,,,6.0,2.2,5.5*37
$GPRMC,202029.004,A,3748.7914,N,12217.8647,W,0.16,241.10,070711,,,A*7B
$GPVTG,241.10,T,,M,0.16,N,0.3,K,A*0F
$GPGGA,202030.004,3748.7908,N,12217.8698,W,1,04,2.2,-63.9,M,-25.1,M,,0000*71
$GPGSA,A,3,03,19,13,28,,,,,,,,,6.0,2.2,5.5*37
$GPGSV,3,1,12,28,50,235,40,13,37,144,42,19,31,065,31,03,11,041,25*7C
$GPGSV,3,2,12,07,63,041,25,08,60,331,31,10,24,229,33,05,23,284,33*72
$GPGSV,3,3,12,01,17,233,,26,14,317,25,23,07,144,39,11,05,116,*72
$GPRMC,202030.004,A,3748.7908,N,12217.8698,W,0.06,167.19,070711,,,A*73
$GPVTG,167.19,T,,M,0.06,N,0.1,K,A*02
$GPGGA,202031.004,3748.7905,N,12217.8713,W,1,04,2.2,-77.1,M,-25.1,M,,0000*72
$GPGSA,A,3,03,19,13,28,,,,,,,,,6.0,2.2,5.5*37
$GPRMC,202031.004,A,3748.7905,N,12217.8713,W,0.08,163.48,070711,,,A*73
$GPVTG,163.48,T,,M,0.08,N,0.1,K,A*0C
$GPGGA,202032.000,3748.7906,N,12217.8717,W,1,04,2.2,-80.8,M,-25.1,M,,0000*73
$GPGSA,A,3,03,19,13,28,,,,,,,,,6.0,2.2,5.5*37
$GPRMC,202032.000,A,3748.7906,N,12217.8717,W,0.05,67.39,070711,,,A*4D
$GPVTG,67.39,T,,M,0.05,N,0.1,K,A*32
$GPGGA,202033.000,3748.7916,N,12217.8713,W,1,04,2.2,-73.4,M,-25.1,M,,0000*77
$GPGSA,A,3,03,19,13,28,,,,,,,,,6.0,2.2,5.5*37
$GPRMC,202033.000,A,3748.7916,N,12217.8713,W,0.12,73.26,070711,,,A*44
$GPVTG,73.26,T,,M,0.12,N,0.2,K,A*3C
$GPGGA,202034.000,3748.7940,N,12217.8659,W,1,07,1.0,-28.7,M,-25.1,M,,0000*73
$GPGSA,A,3,03,19,08,13,05,28,23,,,,,,1.9,1.0,1.7*32
$GPRMC,202034.000,A,3748.7940,N,12217.8659,W,0.05,82.70,070711,,,A*44
$GPVTG,82.70,T,,M,0.05,N,0.1,K,A*34
$GPGGA,202035.000,3748.7947,N,12217.8648,W,1,07,1.0,-17.4,M,-25.1,M,,0000*7A
$GPGSA,A,3,03,19,08,13,05,28,23,,,,,,1.9,1.0,1.7*32
$GPGSV,3,1,12,07,63,041,25,08,60,331,31,28,50,235,40,13,37,144,42*7B
$GPGSV,3,2,12,19,31,065,31,10,24,229,33,05,23,284,38,01,17,233,*7A
$GPGSV,3,3,12,26,14,317,19,03,11,041,25,23,07,144,39,11,05,116,*79
$GPRMC,202035.000,A,3748.7947,N,12217.8648,W,0.17,41.64,070711,,,A*4B
$GPGGA,202036.000,3748.7951,N,12217.8644,W,1,07,1.0,-11.8,M,-25.1,M,,0000*78
$GPGSA,A,3,03,19,08,13,05,28,23,,,,,,1.9,1.0,1.7*32
$GPRMC,202036.000,A,3748.7951,N,12217.8644,W,0.16,42.49,070711,,,A*4E
$GPVTG,42.49,T,,M,0.16,N,0.3,K,A*32
$GPGGA,202037.000,3748.7954,N,12217.8641,W,1,07,1.0,-8.3,M,-25.1,M,,0000*4A
$GPGSA,A,3,03,19,08,13,05,28,23,,,,,,1.9,1.0,1.7*32
$GPRMC,202037.000,A,3748.7954,N,12217.8641,W,0.06,76.07,070711,,,A*43
$GPVTG,76.07,T,,M,0.06,N,0.1,K,A*3C
$GPGGA,202038.000,3748.7956,N,12217.8640,W,1,07,1.0,-6.2,M,-25.1,M,,0000*49
$GPGSA,A,3,03,19,08,13,05,28,23,,,,,,1.9,1.0,1.7*32
$GPRMC,202038.000,A,3748.7956,N,12217.8640,W,0.06,107.72,070711,,,A*7A
$GPVTG,107.72,T,,M,0.06,N,0.1,K,A*09
$GPGGA,202039.000,3748.7957,N,12217.8639,W,1,07,1.0,-4.6,M,-25.1,M,,0000*41
$GPGSA,A,3,03,19,08,13,05,28,23,,,,,,1.9,1.0,1.7*32
$GPRMC,202039.000,A,3748.7957,N,12217.8639,W,0.14,33.55,070711,,,A*44
$GPVTG,33.55,T,,M,0.14,N,0.3,K,A*3B
$GPGGA,202040.000,3748.7959,N,12217.8638,W,2,07,1.0,-3.4,M,-25.1,M,,0000*46
$GPGSA,A,3,03,19,08,13,05,28,23,,,,,,1.9,1.0,1.7*32
$GPGSV,3,1,12,07,63,041,25,08,60,331,27,28,50,235,40,13,37,144,42*7C
$GPGSV,3,2,12,19,31,065,31,10,24,229,34,05,23,284,38,01,17,233,*7D
$GPGSV,3,3,12,26,14,317,27,03,11,041,25,23,07,144,39,11,05,116,*74
$GPRMC,202040.000,A,3748.7959,N,12217.8638,W,0.19,37.27,070711,,,D*4C
$GPVTG,37.27,T,,M,0.19,N,0.3,K,D*32
$GPGGA,202041.000,3748.7960,N,12217.8637,W,2,06,1.2,-2.3,M,-25.1,M,,0000*47
$GPGSA,A,3,19,08,13,05,28,23,,,,,,,2.3,1.2,1.9*34
$GPRMC,202041.000,A,3748.7960,N,12217.8637,W,0.07,83.13,070711,,,D*4F
$GPVTG,83.13,T,,M,0.07,N,0.1,K,D*37
$GPGGA,202042.000,3748.7956,N,12217.8638,W,2,07,1.0,-4.2,M,-25.1,M,,0000*4A
$GPGSA,A,3,03,19,08,13,05,28,23,,,,,,1.9,1.0,1.7*32
$GPRMC,202042.000,A,3748.7956,N,12217.8638,W,0.22,46.16,070711,,,D*4D
$GPVTG,46.16,T,,M,0.22,N,0.4,K,D*39
$GPGGA,202043.000,3748.7958,N,12217.8636,W,2,07,1.0,-3.6,M,-25.1,M,,0000*48
$GPGSA,A,3,03,19,08,13,05,28,23,,,,,,1.9,1.0,1.7*32
$GPRMC,202043.000,A,3748.7958,N,12217.8636,W,0.36,48.63,070711,,,D*45
$GPVTG,48.63,T,,M,0.36,N,0.7,K,D*33
$GPGGA,202044.000,3748.7960,N,12217.8635,W,2,07,1.0,-3.0,M,-25.1,M,,0000*41
$GPGSA,A,3,03,19,08,13,05,28,23,,,,,,1.9,1.0,1.7*32
$GPRMC,202044.000,A,3748.7960,N,12217.8635,W,0.22,62.94,070711,,,D*4F
$GPVTG,62.94,T,,M,0.22,N,0.4,K,D*35
$GPGGA,202045.000,3748.7957,N,12217.8637,W,2,07,1.0,-3.4,M,-25.1,M,1.8,0000*65
$GPGSA,A,3,03,19,08,13,05,28,23,,,,,,1.9,1.0,1.7*32
$GPGSV,3,1,12,07,63,041,30,08,60,331,22,28,50,235,34,13,37,144,26*7C
$GPGSV,3,2,12,19,31,065,29,10,24,229,34,05,23,284,28,01,17,233,*75
$GPGSV,3,3,12,26,14,317,22,03,11,041,23,23,07,144,17,11,05,116,*7B
$GPRMC,202045.000,A,3748.7957,N,12217.8637,W,0.32,129.14,070711,,,D*7F
$GPVTG,129.14,T,,M,0.32,N,0.6,K,D*00
$GPGGA,202046.000,3748.7957,N,12217.8638,W,2,07,1.0,-2.9,M,-25.1,M,2.8,0000*66
$GPGSA,A,3,03,19,08,13,05,28,23,,,,,,1.9,1.0,1.7*32
$GPRMC,202046.000,A,3748.7957,N,12217.8638,W,0.23,32.82,070711,,,D*47
$GPVTG,32.82,T,,M,0.23,N,0.4,K,D*36
$GPGGA,202047.000,3748.7955,N,12217.8640,W,2,07,1.0,-5.4,M,-25.1,M,1.8,0000*63
$GPGSA,A,3,03,19,08,13,05,28,23,,,,,,1.9,1.0,1.7*32
$GPRMC,202047.000,A,3748.7955,N,12217.8640,W,0.11,19.30,070711,,,D*4A
$GPVTG,19.30,T,,M,0.11,N,0.2,K,D*31
$GPGGA,202048.000,3748.7956,N,12217.8640,W,2,07,1.0,-5.1,M,-25.1,M,1.8,0000*6A
$GPGSA,A,3,03,19,08,13,05,28,23,,,,,,1.9,1.0,1.7*32
$GPRMC,202048.000,A,3748.7956,N,12217.8640,W,0.22,358.17,070711,,,D*75
$GPVTG,358.17,T,,M,0.22,N,0.4,K,D*04
$GPGGA,202049.000,3748.7957,N,12217.8639,W,2,07,1.0,-4.8,M,-25.1,M,1.8,0000*6C
$GPGSA,A,3,03,19,08,13,05,28,23,,,,,,1.9,1.0,1.7*32
$GPRMC,202049.000,A,3748.7957,N,12217.8639,W,0.22,83.94,070711,,,D*45
$GPVTG,83.94,T,,M,0.22,N,0.4,K,D*3A
$GPGGA,202050.000,3748.7960,N,12217.8638,W,2,07,1.0,-4.5,M,-25.1,M,2.8,0000*6F
$GPGSA,A,3,03,19,08,13,05,28,23,,,,,,1.9,1.0,1.7*32
$GPGSV,3,1,12,07,63,041,33,08,60,331,28,28,50,235,37,13,36,144,43*74
$GPGSV,3,2,12,19,31,064,34,10,23,229,34,05,23,284,32,01,17,233,*74
$GPGSV,3,3,12,26,14,317,23,03,11,041,28,23,07,144,39,11,05,116,*7D
$GPVTG,36.38,T,,M,0.30,N,0.6,K,D*33
$GPGGA,202051.000,3748.7962,N,12217.8636,W,2,07,1.0,-4.1,M,-25.1,M,3.8,0000*67
$GPGSA,A,3,03,19,08,13,05,28,23,,,,,,1.9,1.0,1.7*32
$GPRMC,202051.000,A,3748.7962,N,12217.8636,W,0.11,89.23,070711,,,D*43
$GPVTG,89.23,T,,M,0.11,N,0.2,K,D*3A
$GPGGA,202052.000,3748.7966,N,12217.8632,W,2,07,1.0,-4.5,M,-25.1,M,4.8,0000*67
$GPGSA,A,3,03,19,08,13,05,28,23,,,,,,1.9,1.0,1.7*32
$GPRMC,202052.000,A,3748.7966,N,12217.8632,W,0.14,78.03,070711,,,D*49
$GPVTG,78.03,T,,M,0.14,N,0.3,K,D*32
$GPGGA,202053.000,3748.7971,N,12217.8628,W,2,07,1.0,-3.9,M,-25.1,M,1.8,0000*65
$GPGSA,A,3,03,19,08,13,05,28,23,,,,,,1.9,1.0,1.7*32
$GPRMC,202053.000,A,3748.7971,N,12217.8628,W,0.10,58.24,070711,,,D*46
$GPVTG,58.24,T,,M,0.10,N,0.2,K,D*30
$GPGGA,202054.000,3748.7973,N,12217.8624,W,2,07,1.0,-4.1,M,-25.1,M,1.8,0000*63
$GPGSA,A,3,03,19,08,13,05,28,23,,,,,,1.9,1.0,1.7*32
$GPRMC,202054.000,A,3748.7973,N,12217.8624,W,0.12,94.83,070711,,,D*40
$GPVTG,94.83,T,,M,0.12,N,0.2,K,D*3F
$GPGGA,202055.000,3748.7975,N,12217.8620,W,2,07,1.0,-4.1,M,-25.1,M,1.8,0000*60
$GPGSA,A,3,03,19,08,13,05,28,23,,,,,,1.9,1.0,1.7*32
$GPGSV,3,1,12,07,63,041,28,08,60,331,29,28,50,235,35,13,36,144,42*7C
$GPGSV,3,2,12,19,31,064,36,10,23,229,33,05,23,284,26,01,17,233,*74
$GPGSV,3,3,12,26,14,317,20,03,11,041,31,23,07,144,38,11,05,116,*77
$GPRMC,202055.000,A,3748.7975,N,12217.8620,W,0.15,75.90,070711,,,D*49
$GPVTG,75.90,T,,M,0.15,N,0.3,K,D*34
$GPGGA,202056.000,3748.7976,N,12217.8617,W,2,07,1.0,-4.0,M,-25.1,M,2.8,0000*66
$GPGSA,A,3,03,19,08,13,05,28,23,,,,,,1.9,1.0,1.7*32
$GPRMC,202056.000,A,3748.7976,N,12217.8617,W,0.09,94.34,070711,,,D*41
$GPVTG,94.34,T,,M,0.09,N,0.2,K,D*39
$GPGGA,202057.000,3748.7977,N,12217.8615,W,2,07,1.0,-3.9,M,-25.1,M,3.8,0000*6B
$GPGSA,A,3,03,19,08,13,05,28,23,,,,,,1.9,1.0,1.7*32
$GPRMC,202057.000,A,3748.7977,N,12217.8615,W,0.09,138.46,070711,,,D*71
$GPVTG,138.46,T,,M,0.09,N,0.2,K,D*0B
$GPGGA,202058.000,3748.7978,N,12217.8612,W,2,08,0.9,-3.8,M,-25.1,M,1.8,0000*68
$GPGSA,A,3,03,19,08,13,05,10,28,23,,,,,1.8,0.9,1.6*3B
$GPRMC,202058.000,A,3748.7978,N,12217.8612,W,0.26,103.68,070711,,,D*7F
$GPVTG,103.68,T,,M,0.26,N,0.5,K,D*05
$GPGGA,202059.000,3748.7979,N,12217.8610,W,2,08,0.9,-3.8,M,-25.1,M,1.8,0000*6A
$GPGSA,A,3,03,19,08,13,05,10,28,23,,,,,1.8,0.9,1.6*3B
$GPRMC,202059.000,A,3748.7979,N,12217.8610,W,0.20,11.29,070711,,,D*4C
$GPVTG,11.29,T,,M,0.20,N,0.4,K,D*35
$GPGGA,202100.000,3748.7980,N,12217.8609,W,2,08,0.9,-3.7,M,-25.1,M,1.8,0000*66
$GPGSA,A,3,03,19,08,13,05,10,28,23,,,,,1.8,0.9,1.6*3B
$GPGSV,3,1,12,07,63,041,30,08,60,331,18,28,50,235,35,13,36,144,41*74
$GPGSV,3,2,12,19,31,064,37,10,23,229,27,05,23,284,19,01,17,233,*7C
$GPGSV,3,3,12,26,14,317,28,03,11,041,31,23,07,144,37,11,05,116,*70
$GPRMC,202100.000,A,3748.7980,N,12217.8609,W,0.11,314.97,070711,,,D*7E
$GPVTG,314.97,T,,M,0.11,N,0.2,K,D*02
$GPGGA,202101.000,3748.7981,N,12217.8608,W,2,08,0.9,-3.7,M,-25.1,M,1.8,0000*67
$GPGSA,A,3,03,19,08,13,05,10,28,23,,,,,1.8,0.9,1.6*3B
$GPRMC,202101.000,A,3748.7981,N,12217.8608,W,0.14,287.36,070711,,,D*7A
$GPVTG,287.36,T,,M,0.14,N,0.3,K,D*06
$GPGGA,202102.000,3748.7982,N,12217.8607,W,2,08,0.9,-3.6,M,-25.1,M,2.8,0000*6A
$GPGSA,A,3,03,19,08,13,05,10,28,23,,,,,1.8,0.9,1.6*3B
$GPRMC,202102.000,A,3748.7982,N,12217.8607,W,0.18,117.59,070711,,,D*7A
$GPVTG,117.59,T,,M,0.18,N,0.3,K,D*09
$GPGGA,202103.000,3748.7982,N,12217.8605,W,2,08,0.9,-3.6,M,-25.1,M,3.8,0000*68
$GPGSA,A,3,03,19,08,13,05,10,28,23,,,,,1.8,0.9,1.6*3B
$GPRMC,202103.000,A,3748.7982,N,12217.8605,W,0.10,85.34,070711,,,D*40
$GPVTG,85.34,T,,M,0.10,N,0.2,K,D*31
$GPGGA,202104.000,3748.7983,N,12217.8604,W,2,08,0.9,-3.4,M,-25.1,M,4.8,0000*6A
$GPGSA,A,3,03,19,08,13,05,10,28,23,,,,,1.8,0.9,1.6*3B
$GPRMC,202104.000,A,3748.7983,N,12217.8604,W,0.27,59.33,070711,,,D*45
$GPVTG,59.33,T,,M,0.27,N,0.5,K,D*34
$GPGGA,202105.000,3748.7985,N,12217.8601,W,2,08,0.9,-1.8,M,-25.1,M,1.8,0000*63
$GPGSA,A,3,03,19,08,13,05,10,28,23,,,,,1.8,0.9,1.6*3B
$GPGSV,3,1,12,07,63,041,21,08,60,331,28,28,50,235,39,13,36,144,41*7B
$GPGSV,3,2,12,19,31,064,28,10,23,229,37,05,23,284,34,01,17,233,*7C
$GPGSV,3,3,12,26,14,317,27,03,11,041,26,23,07,144,37,11,05,116,*79
$GPRMC,202105.000,A,3748.7985,N,12217.8601,W,0.48,43.57,070711,,,D*47
$GPVTG,43.57,T,,M,0.48,N,0.9,K,D*38
$GPGGA,202106.000,3748.7986,N,12217.8600,W,2,08,0.9,-1.0,M,-25.1,M,1.8,0000*6A
$GPGSA,A,3,03,19,08,13,05,10,28,23,,,,,1.8,0.9,1.6*3B
$GPRMC,202106.000,A,3748.7986,N,12217.8600,W,0.26,342.55,070711,,,D*7E
$GPVTG,342.55,T,,M,0.26,N,0.5,K,D*0C
$GPGGA,202107.000,3748.7988,N,12217.8599,W,2,08,0.9,-0.6,M,-25.1,M,1.8,0000*61
$GPGSA,A,3,03,19,08,13,05,10,28,23,,,,,1.8,0.9,1.6*3B
$GPRMC,202107.000,A,3748.7988,N,12217.8599,W,0.12,10.69,070711,,,D*4E
$GPVTG,10.69,T,,M,0.12,N,0.2,K,D*37
$GPGGA,202108.000,3748.7988,N,12217.8599,W,2,08,0.9,-0.5,M,-25.1,M,1.8,0000*6D
$GPGSA,A,3,03,19,08,13,05,10,28,23,,,,,1.8,0.9,1.6*3B
$GPRMC,202108.000,A,3748.7988,N,12217.8599,W,0.03,286.12,070711,,,D*70
$GPVTG,286.12,T,,M,0.03,N,0.1,K,D*05
$GPGGA,202109.000,3748.7988,N,12217.8600,W,2,08,0.9,-0.6,M,-25.1,M,2.8,0000*6F
$GPGSA,A,3,03,19,08,13,05,10,28,23,,,,,1.8,0.9,1.6*3B
$GPRMC,202109.000,A,3748.7988,N,12217.8600,W,0.08,219.96,070711,,,D*73
$GPVTG,219.96,T,,M,0.08,N,0.1,K,D*04
$GPGGA,202110.000,3748.7988,N,12217.8600,W,2,07,1.1,-0.6,M,-25.1,M,3.8,0000*60
$GPGSA,A,3,19,08,13,05,10,28,23,,,,,,2.2,1.1,1.9*37
$GPGSV,3,1,12,07,63,041,30,08,60,331,38,28,50,235,40,13,36,144,35*77
$GPGSV,3,2,12,19,31,064,23,10,23,229,41,05,23,284,39,01,17,233,*7B
$GPGSV,3,3,12,26,14,317,33,03,11,041,15,23,07,144,33,11,05,116,*78
$GPVTG,258.54,T,,M,0.07,N,0.1,K,D*00
$GPGGA,202111.000,3748.7988,N,12217.8601,W,2,07,1.1,-0.8,M,-25.1,M,1.8,0000*6C
$GPGSA,A,3,19,08,13,05,10,28,23,,,,,,2.2,1.1,1.9*37
$GPRMC,202111.000,A,3748.7988,N,12217.8601,W,0.11,84.47,070711,,,D*49
$GPVTG,84.47,T,,M,0.11,N,0.2,K,D*35
$GPGGA,202112.000,3748.7989,N,12217.8601,W,2,08,0.9,-0.7,M,-25.1,M,1.8,0000*67
$GPGSA,A,3,03,19,08,13,05,10,28,23,,,,,1.8,0.9,1.6*3B
$GPRMC,202112.000,A,3748.7989,N,12217.8601,W,0.09,227.66,070711,,,D*7A
$GPVTG,227.66,T,,M,0.09,N,0.2,K,D*04
$GPGGA,202113.000,3748.7989,N,12217.8601,W,2,08,0.9,-0.7,M,-25.1,M,1.8,0000*66
$GPGSA,A,3,03,19,08,13,05,10,28,23,,,,,1.8,0.9,1.6*3B
$GPRMC,202113.000,A,3748.7989,N,12217.8601,W,0.22,115.26,070711,,,D*74
$GPVTG,115.26,T,,M,0.22,N,0.4,K,D*0D
$GPGGA,202114.000,3748.7989,N,12217.8601,W,2,08,0.9,-0.7,M,-25.1,M,1.8,0000*61
$GPGSA,A,3,03,19,08,13,05,10,28,23,,,,,1.8,0.9,1.6*3B
$GPRMC,202114.000,A,3748.7989,N,12217.8601,W,0.16,100.70,070711,,,D*73
$GPVTG,100.70,T,,M,0.16,N,0.3,K,D*0A
$GPGGA,202115.000,3748.7990,N,12217.8602,W,2,08,0.9,-0.8,M,-25.1,M,2.8,0000*67
$GPGSA,A,3,03,19,08,13,05,10,28,23,,,,,1.8,0.9,1.6*3B
$GPGSV,3,1,12,07,63,041,23,08,60,331,37,28,50,235,41,13,36,144,36*78
$GPGSV,3,2,12,19,31,064,16,10,23,229,40,05,23,284,39,01,17,233,*7C
$GPGSV,3,3,12,26,14,317,32,03,11,041,27,23,07,144,30,11,05,116,*7B
$GPRMC,202115.000,A,3748.7990,N,12217.8602,W,0.39,340.69,070711,,,D*7A
$GPVTG,340.69,T,,M,0.39,N,0.7,K,D*0D
$GPGGA,202116.000,3748.7991,N,12217.8602,W,2,08,0.9,-0.7,M,-25.1,M,3.8,0000*6B
$GPGSA,A,3,03,19,08,13,05,10,28,23,,,,,1.8,0.9,1.6*3B
$GPRMC,202116.000,A,3748.7991,N,12217.8602,W,0.35,53.74,070711,,,D*49
$GPVTG,53.74,T,,M,0.35,N,0.7,K,D*3C
$GPGGA,202117.000,3748.7992,N,12217.8602,W,2,08,0.9,-0.8,M,-25.1,M,1.8,0000*64
$GPGSA,A,3,03,19,08,13,05,10,28,23,,,,,1.8,0.9,1.6*3B
$GPRMC,202117.000,A,3748.7992,N,12217.8602,W,0.06,122.20,070711,,,D*7D
$GPVTG,122.20,T,,M,0.06,N,0.1,K,D*0C
$GPGGA,202118.000,3748.7992,N,12217.8602,W,2,08,0.9,-0.7,M,-25.1,M,1.8,0000*64
$GPGSA,A,3,03,19,08,13,05,10,28,23,,,,,1.8,0.9,1.6*3B
$GPRMC,202118.000,A,3748.7992,N,12217.8602,W,0.20,331.67,070711,,,D*75
$GPVTG,331.67,T,,M,0.20,N,0.4,K,D*0E
$GPGGA,202119.000,3748.7993,N,12217.8603,W,2,08,0.9,-0.7,M,-25.1,M,2.8,0000*66
$GPGSA,A,3,03,19,08,13,05,10,28,23,,,,,1.8,0.9,1.6*3B
$GPRMC,202119.000,A,3748.7993,N,12217.8603,W,0.29,294.10,070711,,,D*73
$GPVTG,294.10,T,,M,0.29,N,0.5,K,D*08
$GPGGA,202120.000,3748.7993,N,12217.8604,W,2,08,0.9,-0.6,M,-25.1,M,3.8,0000*6B
$GPGSA,A,3,03,19,08,13,05,10,28,23,,,,,1.8,0.9,1.6*3B
$GPGSV,3,1,12,07,63,042,27,08,60,331,35,28,50,235,40,13,36,144,27*7C
$GPGSV,3,2,12,19,31,064,23,10,23,229,40,05,23,284,40,01,17,233,*74
$GPGSV,3,3,12,26,14,317,33,03,11,040,28,23,07,144,21,11,05,116,*74
$GPRMC,202120.000,A,3748.7993,N,12217.8604,W,0.18,138.44,070711,,,D*78
$GPVTG,138.44,T,,M,0.18,N,0.3,K,D*08
$GPGGA,202121.000,3748.7994,N,12217.8605,W,2,08,0.9,-0.6,M,-25.1,M,4.8,0000*6B
$GPGSA,A,3,03,19,08,13,05,10,28,23,,,,,1.8,0.9,1.6*3B
$GPRMC,202121.000,A,3748.7994,N,12217.8605,W,0.19,3.72,070711,,,D*72
$GPVTG,3.72,T,,M,0.19,N,0.4,K,D*02
$GPGGA,202122.000,3748.7992,N,12217.8608,W,2,08,0.9,0.4,M,-25.1,M,5.8,0000*4D
$GPGSA,A,3,03,19,08,13,05,10,28,23,,,,,1.8,0.9,1.6*3B
$GPRMC,202122.000,A,3748.7992,N,12217.8608,W,0.04,15.01,070711,,,D*45
$GPVTG,15.01,T,,M,0.04,N,0.1,K,D*38
$GPGGA,202123.000,3748.7990,N,12217.8610,W,2,08,0.9,1.2,M,-25.1,M,1.8,0000*44
$GPGSA,A,3,03,19,08,13,05,10,28,23,,,,,1.8,0.9,1.6*3B
$GPRMC,202123.000,A,3748.7990,N,12217.8610,W,0.14,126.70,070711,,,D*79
$GPVTG,126.70,T,,M,0.14,N,0.3,K,D*0C
$GPGGA,202124.000,3748.7988,N,12217.8613,W,2,08,0.9,2.1,M,-25.1,M,1.8,0000*49
$GPGSA,A,3,03,19,08,13,05,10,28,23,,,,,1.8,0.9,1.6*3B
$GPRMC,202124.000,A,3748.7988,N,12217.8613,W,0.12,223.04,070711,,,D*77
$GPVTG,223.04,T,,M,0.12,N,0.2,K,D*0E
$GPGGA,202125.000,3748.7987,N,12217.8615,W,2,08,0.9,2.7,M,-25.1,M,1.8,0000*47
$GPGSA,A,3,03,19,08,13,05,10,28,23,,,,,1.8,0.9,1.6*3B
$GPGSV,3,1,12,07,63,042,14,08,60,331,30,28,50,235,32,13,36,144,18*70
$GPGSV,3,2,12,19,31,064,18,10,23,229,36,05,23,284,35,01,17,233,*7F
$GPGSV,3,3,12,26,14,317,32,03,11,040,28,23,07,144,23,11,05,116,*77
$GPRMC,202125.000,A,3748.7987,N,12217.8615,W,0.06,343.73,070711,,,D*7D
$GPVTG,343.73,T,,M,0.06,N,0.1,K,D*0F
$GPGGA,202126.000,3748.7985,N,12217.8618,W,2,08,0.9,3.7,M,-25.1,M,1.8,0000*4A
$GPGSA,A,3,03,19,08,13,05,10,28,23,,,,,1.8,0.9,1.6*3B
$GPRMC,202126.000,A,3748.7985,N,12217.8618,W,0.21,346.89,070711,,,D*74
$GPVTG,346.89,T,,M,0.21,N,0.4,K,D*0F
$GPGGA,202127.000,3748.7983,N,12217.8620,W,2,08,0.9,4.4,M,-25.1,M,2.8,0000*41
$GPGSA,A,3,03,19,08,13,05,10,28,23,,,,,1.8,0.9,1.6*3B
$GPRMC,202127.000,A,3748.7983,N,12217.8620,W,0.03,31.38,070711,,,D*41
$GPVTG,31.38,T,,M,0.03,N,0.1,K,D*33
$GPGGA,202128.000,3748.7982,N,12217.8623,W,2,08,0.9,5.0,M,-25.1,M,3.8,0000*48
$GPGSA,A,3,03,19,08,13,05,10,28,23,,,,,1.8,0.9,1.6*3B
$GPRMC,202128.000,A,3748.7982,N,12217.8623,W,0.10,66.70,070711,,,D*40
$GPVTG,66.70,T,,M,0.10,N,0.2,K,D*3C
$GPGGA,202129.000,3748.7980,N,12217.8625,W,2,08,0.9,5.6,M,-25.1,M,1.8,0000*49
$GPGSA,A,3,03,19,08,13,05,10,28,23,,,,,1.8,0.9,1.6*3B
$GPRMC,202129.000,A,3748.7980,N,12217.8625,W,0.16,347.14,070711,,,D*71
$GPVTG,347.14,T,,M,0.16,N,0.3,K,D*09
$GPGGA,202130.000,3748.7977,N,12217.8624,W,2,08,0.9,6.4,M,-25.1,M,1.8,0000*49
$GPGSA,A,3,03,19,08,13,05,10,28,23,,,,,1.8,0.9,1.6*3B
$GPGSV,3,1,12,07,63,042,23,08,60,331,27,28,50,235,31,13,36,144,26*7C
$GPGSV,3,2,12,19,31,064,18,10,23,229,37,05,23,284,25,01,17,233,*7F
$GPGSV,3,3,12,26,14,317,33,03,11,040,28,23,07,144,23,11,05,116,*76
$GPVTG,141.15,T,,M,0.20,N,0.4,K,D*0E
$GPGGA,202131.000,3748.7975,N,12217.8628,W,2,08,0.9,7.0,M,-25.1,M,1.8,0000*43
$GPGSA,A,3,03,19,08,13,05,10,28,23,,,,,1.8,0.9,1.6*3B
$GPRMC,202131.000,A,3748.7975,N,12217.8628,W,0.23,193.39,070711,,,D*7D
$GPVTG,193.39,T,,M,0.23,N,0.4,K,D*0C
$GPGGA,202132.000,3748.7974,N,12217.8633,W,2,08,0.9,7.7,M,-25.1,M,1.8,0000*4C
$GPGSA,A,3,03,19,08,13,05,10,28,23,,,,,1.8,0.9,1.6*3B
$GPRMC,202132.000,A,3748.7974,N,12217.8633,W,0.17,243.78,070711,,,D*79
$GPVTG,243.78,T,,M,0.17,N,0.3,K,D*07
$GPGGA,202133.000,3748.7973,N,12217.8638,W,2,08,0.9,8.3,M,-25.1,M,2.8,0000*49
$GPGSA,A,3,03,19,08,13,05,10,28,23,,,,,1.8,0.9,1.6*3B
$GPRMC,202133.000,A,3748.7973,N,12217.8638,W,0.20,266.48,070711,,,D*74
$GPVTG,266.48,T,,M,0.20,N,0.4,K,D*00
$GPGGA,202134.000,3748.7975,N,12217.8639,W,2,08,0.9,8.8,M,-25.1,M,3.8,0000*43
$GPGSA,A,3,03,19,08,13,05,10,28,23,,,,,1.8,0.9,1.6*3B
$GPRMC,202134.000,A,3748.7975,N,12217.8639,W,0.13,55.93,070711,,,D*40
$GPVTG,55.93,T,,M,0.13,N,0.2,K,D*32
$GPGGA,202135.000,3748.7977,N,12217.8641,W,2,08,0.9,9.0,M,-25.1,M,1.8,0000*44
$GPGSA,A,3,03,19,08,13,05,10,28,23,,,,,1.8,0.9,1.6*3B
$GPGSV,3,1,12,07,63,042,28,08,60,331,27,28,50,235,32,13,36,144,26*74
$GPGSV,3,2,12,19,31,064,19,10,23,229,38,05,23,284,34,01,17,233,*71
$GPGSV,3,3,12,26,14,317,27,03,11,040,25,23,07,144,30,11,05,116,*7C
$GPRMC,202135.000,A,3748.7977,N,12217.8641,W,0.23,356.69,070711,,,D*7A
$GPVTG,356.69,T,,M,0.23,N,0.4,K,D*02
$GPGGA,202136.000,3748.7978,N,12217.8642,W,2,08,0.9,9.1,M,-25.1,M,1.8,0000*4A
$GPGSA,A,3,03,19,08,13,05,10,28,23,,,,,1.8,0.9,1.6*3B
$GPRMC,202136.000,A,3748.7978,N,12217.8642,W,0.09,104.06,070711,,,D*71
$GPVTG,104.06,T,,M,0.09,N,0.2,K,D*00
$GPGGA,202137.000,3748.7977,N,12217.8645,W,2,08,0.9,9.7,M,-25.1,M,2.8,0000*46
$GPGSA,A,3,03,19,08,13,05,10,28,23,,,,,1.8,0.9,1.6*3B
$GPRMC,202137.000,A,3748.7977,N,12217.8645,W,0.49,74.23,070711,,,D*4D
$GPVTG,74.23,T,,M,0.49,N,0.9,K,D*3E
$GPGGA,202138.000,3748.7975,N,12217.8647,W,2,08,0.9,9.9,M,-25.1,M,3.8,0000*46
$GPGSA,A,3,03,19,08,13,05,10,28,23,,,,,1.8,0.9,1.6*3B
$GPRMC,202138.000,A,3748.7975,N,12217.8647,W,0.36,127.60,070711,,,D*7A
$GPVTG,127.60,T,,M,0.36,N,0.7,K,D*08
$GPGGA,202139.000,3748.7973,N,12217.8648,W,2,08,0.9,10.2,M,-25.1,M,4.8,0000*7A
$GPGSA,A,3,03,19,08,13,05,10,28,23,,,,,1.8,0.9,1.6*3B
$GPRMC,202139.000,A,3748.7973,N,12217.8648,W,0.73,118.70,070711,,,D*7E
$GPVTG,118.70,T,,M,0.73,N,1.3,K,D*01
$GPGGA,202140.000,3748.7971,N,12217.8649,W,2,08,0.9,10.5,M,-25.1,M,1.8,0000*75
$GPGSA,A,3,03,19,08,13,05,10,28,23,,,,,1.8,0.9,1.6*3B
$GPGSV,3,1,12,07,63,042,25,08,60,331,27,28,50,235,33,13,36,144,26*78
$GPGSV,3,2,12,19,31,064,20,10,23,229,37,05,23,284,33,01,17,233,*73
$GPGSV,3,3,12,26,14,317,25,03,11,040,31,23,07,144,30,11,05,116,*7B
$GPRMC,202140.000,A,3748.7971,N,12217.8649,W,0.52,108.71,070711,,,D*70
$GPVTG,108.71,T,,M,0.52,N,1.0,K,D*01
$GPGGA,202141.000,3748.7969,N,12217.8651,W,2,08,0.9,10.5,M,-25.1,M,1.8,0000*74
$GPGSA,A,3,03,19,08,13,05,10,28,23,,,,,1.8,0.9,1.6*3B
$GPRMC,202141.000,A,3748.7969,N,12217.8651,W,0.18,90.05,070711,,,D*4C
$GPVTG,90.05,T,,M,0.18,N,0.3,K,D*3E
$GPGGA,202142.000,3748.7967,N,12217.8653,W,2,08,0.9,10.6,M,-25.1,M,1.8,0000*78
$GPGSA,A,3,03,19,08,13,05,10,28,23,,,,,1.8,0.9,1.6*3B
$GPRMC,202142.000,A,3748.7967,N,12217.8653,W,0.08,67.82,070711,,,D*45
$GPVTG,67.82,T,,M,0.08,N,0.1,K,D*3A
$GPGGA,202143.000,3748.7965,N,12217.8655,W,2,08,0.9,10.6,M,-25.1,M,1.8,0000*7D
$GPGSA,A,3,03,19,08,13,05,10,28,23,,,,,1.8,0.9,1.6*3B
$GPRMC,202143.000,A,3748.7965,N,12217.8655,W,0.12,351.22,070711,,,D*77
$GPVTG,351.22,T,,M,0.12,N,0.2,K,D*0E
$GPGGA,202144.000,3748.7965,N,12217.8658,W,2,08,0.9,11.0,M,-25.1,M,2.8,0000*73
$GPGSA,A,3,03,19,08,13,05,10,28,23,,,,,1.8,0.9,1.6*3B
$GPRMC,202144.000,A,3748.7965,N,12217.8658,W,0.19,327.78,070711,,,D*78
$GPVTG,327.78,T,,M,0.19,N,0.4,K,D*0D
$GPGGA,202145.000,3748.7965,N,12217.8660,W,2,08,0.9,11.4,M,-25.1,M,3.8,0000*7C
$GPGSA,A,3,03,19,08,13,05,10,28,23,,,,,1.8,0.9,1.6*3B
$GPGSV,3,1,12,07,63,042,,08,60,331,32,28,50,235,33,13,36,144,23*7E
$GPGSV,3,2,12,19,31,064,24,10,23,229,32,05,23,284,38,01,17,233,*79
$GPGSV,3,3,12,26,14,317,34,03,11,040,30,23,07,144,21,11,05,116,*7A
$GPRMC,202145.000,A,3748.7965,N,12217.8660,W,0.54,48.82,070711,,,D*44
$GPVTG,48.82,T,,M,0.54,N,1.0,K,D*3E
$GPGGA,202146.000,3748.7967,N,12217.8658,W,2,08,0.9,11.0,M,-25.1,M,4.8,0000*75
$GPGSA,A,3,03,19,08,13,05,10,28,23,,,,,1.8,0.9,1.6*3B
$GPRMC,202146.000,A,3748.7967,N,12217.8658,W,0.11,181.06,070711,,,D*77
$GPVTG,181.06,T,,M,0.11,N,0.2,K,D*04
$GPGGA,202147.000,3748.7968,N,12217.8658,W,2,08,0.9,10.9,M,-25.1,M,5.8,0000*72
$GPGSA,A,3,03,19,08,13,05,10,28,23,,,,,1.8,0.9,1.6*3B
$GPRMC,202147.000,A,3748.7968,N,12217.8658,W,0.16,358.87,070711,,,D*71
$GPVTG,358.87,T,,M,0.16,N,0.3,K,D*0D
$GPGGA,202148.000,3748.7969,N,12217.8660,W,2,08,0.9,11.4,M,-25.1,M,6.8,0000*78
$GPGSA,A,3,03,19,08,13,05,10,28,23,,,,,1.8,0.9,1.6*3B
$GPRMC,202148.000,A,3748.7969,N,12217.8660,W,0.37,325.96,070711,,,D*7D
$GPVTG,325.96,T,,M,0.37,N,0.7,K,D*00
$GPGGA,202149.000,3748.7969,N,12217.8662,W,2,08,0.9,11.7,M,-25.1,M,7.8,0000*79
$GPGSA,A,3,03,19,08,13,05,10,28,23,,,,,1.8,0.9,1.6*3B
$GPRMC,202149.000,A,3748.7969,N,12217.8662,W,0.18,11.73,070711,,,D*4C
$GPVTG,11.73,T,,M,0.18,N,0.3,K,D*36
$GPGGA,202150.000,3748.7969,N,12217.8664,W,2,08,0.9,11.9,M,-25.1,M,8.8,0000*76
$GPGSA,A,3,03,19,08,13,05,10,28,23,,,,,1.8,0.9,1.6*3B
$GPGSV,3,1,12,07,63,042,22,08,60,331,33,28,50,235,33,13,36,144,19*76
$GPGSV,3,2,12,19,31,064,21,10,23,229,32,05,23,284,36,01,17,233,*72
$GPGSV,3,3,12,26,14,317,35,03,11,040,26,23,07,144,25,11,05,116,*78
$GPVTG,61.48,T,,M,0.25,N,0.5,K,D*31
$GPGGA,202151.000,3748.7968,N,12217.8666,W,2,08,0.9,12.2,M,-25.1,M,9.8,0000*7D
$GPGSA,A,3,03,19,08,13,05,10,28,23,,,,,1.8,0.9,1.6*3B
$GPRMC,202151.000,A,3748.7968,N,12217.8666,W,0.21,154.48,070711,,,D*72
$GPVTG,154.48,T,,M,0.21,N,0.4,K,D*03
$GPGGA,202152.000,3748.7966,N,12217.8668,W,2,08,0.9,12.4,M,-25.1,M,10.8,0000*40
$GPGSA,A,3,03,19,08,13,05,10,28,23,,,,,1.8,0.9,1.6*3B
$GPRMC,202152.000,A,3748.7966,N,12217.8668,W,0.14,253.43,070711,,,D*78
$GPVTG,253.43,T,,M,0.14,N,0.3,K,D*0D
$GPGGA,202153.000,3748.7966,N,12217.8672,W,2,08,0.9,12.8,M,-25.1,M,11.8,0000*47
$GPGSA,A,3,03,19,08,13,05,10,28,23,,,,,1.8,0.9,1.6*3B
$GPRMC,202153.000,A,3748.7966,N,12217.8672,W,0.09,241.16,070711,,,D*7D
$GPVTG,241.16,T,,M,0.09,N,0.2,K,D*03
$GPGGA,202154.000,3748.7964,N,12217.8674,W,2,08,0.9,12.9,M,-25.1,M,12.8,0000*46
$GPGSA,A,3,03,19,08,13,05,10,28,23,,,,,1.8,0.9,1.6*3B
$GPRMC,202154.000,A,3748.7964,N,12217.8674,W,0.11,239.09,070711,,,D*76
$GPVTG,239.09,T,,M,0.11,N,0.2,K,D*0B
$GPGGA,202155.000,3748.7963,N,12217.8683,W,2,08,0.9,13.6,M,-25.1,M,13.8,0000*47
$GPGSA,A,3,03,19,08,13,05,10,28,23,,,,,1.8,0.9,1.6*3B
$GPGSV,3,1,12,07,63,042,22,08,60,331,32,28,50,235,34,13,36,144,20*7A
$GPGSV,3,2,12,19,31,064,26,10,23,229,33,05,23,284,36,01,17,233,*74
$GPGSV,3,3,12,26,14,317,35,03,11,040,27,23,07,144,25,11,05,116,*79
$GPRMC,202155.000,A,3748.7963,N,12217.8683,W,0.22,315.20,070711,,,D*7C
$GPVTG,315.20,T,,M,0.22,N,0.4,K,D*09
$GPGGA,202156.000,3748.7963,N,12217.8688,W,2,08,0.9,14.2,M,-25.1,M,14.8,0000*4B
$GPGSA,A,3,03,19,08,13,05,10,28,23,,,,,1.8,0.9,1.6*3B
$GPRMC,202156.000,A,3748.7963,N,12217.8688,W,0.30,293.47,070711,,,D*79
$GPVTG,293.47,T,,M,0.30,N,0.5,K,D*05
$GPGGA,202157.000,3748.7961,N,12217.8690,W,2,08,0.9,14.7,M,-25.1,M,15.8,0000*45
$GPGSA,A,3,03,19,08,13,05,10,28,23,,,,,1.8,0.9,1.6*3B
$GPRMC,202157.000,A,3748.7961,N,12217.8690,W,0.02,74.88,070711,,,D*4A
$GPVTG,74.88,T,,M,0.02,N,0.0,K,D*39
$GPGGA,202158.000,3748.7960,N,12217.8699,W,2,08,0.9,15.6,M,-25.1,M,16.8,0000*41
$GPGSA,A,3,03,19,08,13,05,10,28,23,,,,,1.8,0.9,1.6*3B
$GPRMC,202158.000,A,3748.7960,N,12217.8699,W,0.18,73.97,070711,,,D*4F
$GPVTG,73.97,T,,M,0.18,N,0.3,K,D*38
$GPGGA,202159.000,3748.7961,N,12217.8704,W,2,08,0.9,16.0,M,-25.1,M,17.8,0000*40
$GPGSA,A,3,03,19,08,13,05,10,28,23,,,,,1.8,0.9,1.6*3B
$GPRMC,202159.000,A,3748.7961,N,12217.8704,W,0.07,208.00,070711,,,D*74
$GPVTG,208.00,T,,M,0.07,N,0.1,K,D*04
$GPGGA,202200.000,3748.7965,N,12217.8710,W,1,08,0.9,16.3,M,-25.1,M,,0000*5E
$GPGSA,A,3,03,19,08,13,05,10,28,23,,,,,1.8,0.9,1.6*3B
$GPGSV,3,1,12,07,63,042,20,08,60,331,33,28,50,235,35,13,36,144,25*7D
$GPGSV,3,2,12,19,31,064,25,10,23,229,33,05,23,284,37,01,17,233,*76
$GPGSV,3,3,12,26,14,317,35,03,11,040,27,23,07,144,25,11,05,116,*79
$GPRMC,202200.000,A,3748.7965,N,12217.8710,W,0.04,295.90,070711,,,A*71
$GPVTG,295.90,T,,M,0.04,N,0.1,K,A*0F
$GPGGA,202201.000,3748.7966,N,12217.8711,W,1,08,0.9,16.2,M,-25.1,M,,0000*5C
$GPGSA,A,3,03,19,08,13,05,10,28,23,,,,,1.8,0.9,1.6*3B
$GPRMC,202201.000,A,3748.7966,N,12217.8711,W,0.28,30.83,070711,,,A*43
$GPVTG,30.83,T,,M,0.28,N,0.5,K,A*3A
$GPGGA,202202.000,3748.7969,N,12217.8709,W,1,08,0.9,15.8,M,-25.1,M,,0000*50
$GPGSA,A,3,03,19,08,13,05,10,28,23,,,,,1.8,0.9,1.6*3B
$GPRMC,202202.000,A,3748.7969,N,12217.8709,W,0.04,101.90,070711,,,A*79
$GPVTG,101.90,T,,M,0.04,N,0.1,K,A*01
$GPGGA,202203.000,3748.7970,N,12217.8708,W,1,08,0.9,15.6,M,-25.1,M,,0000*56
$GPGSA,A,3,03,19,08,13,05,10,28,23,,,,,1.8,0.9,1.6*3B
$GPRMC,202203.000,A,3748.7970,N,12217.8708,W,0.11,4.09,070711,,,A*71
$GPVTG,4.09,T,,M,0.11,N,0.2,K,A*02
$GPGGA,202204.000,3748.7972,N,12217.8709,W,1,09,0.8,15.5,M,-25.1,M,,0000*51
$GPGSA,A,3,03,19,26,08,13,05,10,28,23,,,,1.6,0.8,1.4*32
$GPRMC,202204.000,A,3748.7972,N,12217.8709,W,0.11,307.71,070711,,,A*7A
$GPVTG,307.71,T,,M,0.11,N,0.2,K,A*0D
$GPGGA,202205.000,3748.7973,N,12217.8710,W,1,09,0.8,15.6,M,-25.1,M,,0000*5A
$GPGSA,A,3,03,19,26,08,13,05,10,28,23,,,,1.6,0.8,1.4*32
$GPGSV,3,1,12,07,63,042,27,08,60,332,38,28,50,236,36,13,36,144,29*7E
$GPGSV,3,2,12,19,30,064,25,10,23,229,41,05,23,284,41,01,18,233,*7C
$GPGSV,3,3,12,26,15,317,36,03,11,040,31,23,06,144,24,11,05,116,*7C
$GPRMC,202205.000,A,3748.7973,N,12217.8710,W,0.26,338.67,070711,,,A*7D
$GPVTG,338.67,T,,M,0.26,N,0.5,K,A*05
$GPGGA,202206.000,3748.7975,N,12217.8711,W,1,09,0.8,15.2,M,-25.1,M,,0000*5A
$GPGSA,A,3,03,19,26,08,13,05,10,28,23,,,,1.6,0.8,1.4*32
$GPRMC,202206.000,A,3748.7975,N,12217.8711,W,0.05,172.83,070711,,,A*7E
$GPVTG,172.83,T,,M,0.05,N,0.1,K,A*06
$GPGGA,202207.000,3748.7975,N,12217.8711,W,1,09,0.8,15.0,M,-25.1,M,,0000*59
$GPGSA,A,3,03,19,26,08,13,05,10,28,23,,,,1.6,0.8,1.4*32
$GPRMC,202207.000,A,3748.7975,N,12217.8711,W,0.41,201.32,070711,,,A*72
$GPVTG,201.32,T,,M,0.41,N,0.8,K,A*02
$GPGGA,202208.000,3748.7976,N,12217.8712,W,1,09,0.8,14.8,M,-25.1,M,,0000*5F
$GPGSA,A,3,03,19,26,08,13,05,10,28,23,,,,1.6,0.8,1.4*32
$GPRMC,202208.000,A,3748.7976,N,12217.8712,W,0.31,295.02,070711,,,A*74
$GPVTG,295.02,T,,M,0.31,N,0.6,K,A*05
$GPGGA,202209.000,3748.7977,N,12217.8713,W,1,09,0.8,14.7,M,-25.1,M,,0000*51
$GPGSA,A,3,03,19,26,08,13,05,10,28,23,,,,1.6,0.8,1.4*32
$GPRMC,202209.000,A,3748.7977,N,12217.8713,W,0.03,239.87,070711,,,A*7F
$GPVTG,239.87,T,,M,0.03,N,0.1,K,A*08
$GPGGA,202210.000,3748.7975,N,12217.8708,W,1,09,0.8,14.5,M,-25.1,M,,0000*53
$GPGSA,A,3,03,19,26,08,13,05,10,28,23,,,,1.6,0.8,1.4*32
$GPGSV,3,1,12,07,63,042,25,08,60,332,39,28,50,236,42,13,36,144,31*77
$GPGSV,3,2,12,19,30,064,26,10,23,229,41,05,23,284,41,01,18,233,*7F
$GPGSV,3,3,12,26,15,317,34,03,11,040,28,23,06,144,29,11,05,116,*7B
$GPVTG,32.74,T,,M,0.08,N,0.1,K,A*36
$GPGGA,202211.000,3748.7973,N,12217.8704,W,1,09,0.8,14.3,M,-25.1,M,,0000*5E
$GPGSA,A,3,03,19,26,08,13,05,10,28,23,,,,1.6,0.8,1.4*32
$GPRMC,202211.000,A,3748.7973,N,12217.8704,W,0.09,96.36,070711,,,A*43
$GPVTG,96.36,T,,M,0.09,N,0.2,K,A*3C
$GPGGA,202212.000,3748.7972,N,12217.8701,W,1,09,0.8,14.1,M,-25.1,M,,0000*5B
$GPGSA,A,3,03,19,26,08,13,05,10,28,23,,,,1.6,0.8,1.4*32
$GPRMC,202212.000,A,3748.7972,N,12217.8701,W,0.07,198.15,070711,,,A*74
$GPVTG,198.15,T,,M,0.07,N,0.1,K,A*0F
$GPGGA,202213.000,3748.7971,N,12217.8698,W,1,09,0.8,14.0,M,-25.1,M,,0000*59
$GPGSA,A,3,03,19,26,08,13,05,10,28,23,,,,1.6,0.8,1.4*32
$GPRMC,202213.000,A,3748.7971,N,12217.8698,W,0.07,197.08,070711,,,A*74
$GPVTG,197.08,T,,M,0.07,N,0.1,K,A*0C
$GPGGA,202214.000,3748.7970,N,12217.8695,W,1,09,0.8,13.8,M,-25.1,M,,0000*5D
$GPGSA,A,3,03,19,26,08,13,05,10,28,23,,,,1.6,0.8,1.4*32
$GPRMC,202214.000,A,3748.7970,N,12217.8695,W,0.13,57.42,070711,,,A*49
$GPVTG,57.42,T,,M,0.13,N,0.2,K,A*39
$GPGGA,202215.000,3748.7970,N,12217.8693,W,1,09,0.8,13.6,M,-25.1,M,,0000*54
$GPGSA,A,3,03,19,26,08,13,05,10,28,23,,,,1.6,0.8,1.4*32
$GPGSV,3,1,12,07,63,042,26,08,60,332,34,28,50,236,41,13,36,144,32*79
$GPGSV,3,2,12,19,30,064,22,10,23,229,41,05,23,284,40,01,18,233,*7A
$GPGSV,3,3,12,26,15,317,30,03,11,040,26,23,06,144,29,11,05,116,*71
$GPRMC,202215.000,A,3748.7970,N,12217.8693,W,0.06,190.59,070711,,,A*7A
$GPVTG,190.59,T,,M,0.06,N,0.1,K,A*0E
$GPGGA,202216.000,3748.7970,N,12217.8691,W,1,09,0.8,13.5,M,-25.1,M,,0000*56
$GPGSA,A,3,03,19,26,08,13,05,10,28,23,,,,1.6,0.8,1.4*32
$GPRMC,202216.000,A,3748.7970,N,12217.8691,W,0.10,105.61,070711,,,A*7B
$GPVTG,105.61,T,,M,0.10,N,0.2,K,A*0D
$GPGGA,202217.000,3748.7970,N,12217.8689,W,2,09,0.8,13.3,M,-25.1,M,1.8,0000*7C
$GPGSA,A,3,03,19,26,08,13,05,10,28,23,,,,1.6,0.8,1.4*32
$GPRMC,202217.000,A,3748.7970,N,12217.8689,W,0.03,201.11,070711,,,D*74
$GPVTG,201.11,T,,M,0.03,N,0.1,K,D*09
$GPGGA,202218.000,3748.7970,N,12217.8688,W,2,09,0.8,13.1,M,-25.1,M,1.8,0000*70
$GPGSA,A,3,03,19,26,08,13,05,10,28,23,,,,1.6,0.8,1.4*32
$GPRMC,202218.000,A,3748.7970,N,12217.8688,W,0.08,358.76,070711,,,D*7D
$GPVTG,358.76,T,,M,0.08,N,0.1,K,D*0E
$GPGGA,202219.000,3748.7970,N,12217.8688,W,2,09,0.8,13.2,M,-25.1,M,1.8,0000*72
$GPGSA,A,3,03,19,26,08,13,05,10,28,23,,,,1.6,0.8,1.4*32
$GPRMC,202219.000,A,3748.7970,N,12217.8688,W,0.38,135.47,070711,,,D*74
$GPVTG,135.47,T,,M,0.38,N,0.7,K,D*00
$GPGGA,202220.000,3748.7972,N,12217.8682,W,2,09,0.8,12.5,M,-25.1,M,2.8,0000*75
$GPGSA,A,3,03,19,26,08,13,05,10,28,23,,,,1.6,0.8,1.4*32
$GPGSV,3,1,12,07,63,042,38,08,60,332,36,28,50,236,41,13,36,144,26*71
$GPGSV,3,2,12,19,30,064,32,10,23,229,41,05,23,284,39,01,18,233,*75
$GPGSV,3,3,12,26,15,317,40,03,11,040,27,23,06,144,25,11,05,116,*7B
$GPRMC,202220.000,A,3748.7972,N,12217.8682,W,0.24,139.04,070711,,,D*70
$GPVTG,139.04,T,,M,0.24,N,0.4,K,D*05
$GPGGA,202221.000,3748.7973,N,12217.8678,W,2,09,0.8,11.8,M,-25.1,M,3.8,0000*7F
$GPGSA,A,3,03,19,26,08,13,05,10,28,23,,,,1.6,0.8,1.4*32
$GPRMC,202221.000,A,3748.7973,N,12217.8678,W,0.14,193.23,070711,,,D*73
$GPVTG,193.23,T,,M,0.14,N,0.3,K,D*04
$GPGGA,202222.000,3748.7975,N,12217.8674,W,2,09,0.8,11.3,M,-25.1,M,1.8,0000*7F
$GPGSA,A,3,03,19,26,08,13,05,10,28,23,,,,1.6,0.8,1.4*32
$GPRMC,202222.000,A,3748.7975,N,12217.8674,W,0.06,264.78,070711,,,D*7C
$GPVTG,264.78,T,,M,0.06,N,0.1,K,D*00
$GPGGA,202223.000,3748.7976,N,12217.8671,W,2,09,0.8,10.8,M,-25.1,M,1.8,0000*72
$GPGSA,A,3,03,19,26,08,13,05,10,28,23,,,,1.6,0.8,1.4*32
$GPRMC,202223.000,A,3748.7976,N,12217.8671,W,0.03,234.26,070711,,,D*70
$GPVTG,234.26,T,,M,0.03,N,0.1,K,D*0B
$GPGGA,202224.000,3748.7978,N,12217.8668,W,2,09,0.8,10.3,M,-25.1,M,1.8,0000*78
$GPGSA,A,3,03,19,26,08,13,05,10,28,23,,,,1.6,0.8,1.4*32
$GPRMC,202224.000,A,3748.7978,N,12217.8668,W,0.21,26.05,070711,,,D*41
$GPVTG,26.05,T,,M,0.21,N,0.4,K,D*3E
$GPGGA,202225.000,3748.7979,N,12217.8665,W,2,09,0.8,10.0,M,-25.1,M,1.8,0000*76
$GPGSA,A,3,03,19,26,08,13,05,10,28,23,,,,1.6,0.8,1.4*32
$GPGSV,3,1,12,07,63,042,34,08,60,332,38,28,50,236,40,13,36,144,23*77
$GPGSV,3,2,12,19,30,064,31,10,23,229,38,05,23,284,40,01,18,233,*76
$GPGSV,3,3,12,26,15,317,33,03,11,040,26,23,06,144,27,11,05,116,*7C
$GPRMC,202225.000,A,3748.7979,N,12217.8665,W,0.26,50.54,070711,,,D*4E
$GPVTG,50.54,T,,M,0.26,N,0.5,K,D*3D
$GPGGA,202226.000,3748.7981,N,12217.8666,W,2,09,0.8,10.2,M,-25.1,M,2.8,0000*70
$GPGSA,A,3,03,19,26,08,13,05,10,28,23,,,,1.6,0.8,1.4*32
$GPRMC,202226.000,A,3748.7981,N,12217.8666,W,0.09,274.04,070711,,,D*75
$GPVTG,274.04,T,,M,0.09,N,0.2,K,D*06
$GPGGA,202227.000,3748.7981,N,12217.8668,W,2,09,0.8,10.4,M,-25.1,M,3.8,0000*78
$GPGSA,A,3,03,19,26,08,13,05,10,28,23,,,,1.6,0.8,1.4*32
$GPRMC,202227.000,A,3748.7981,N,12217.8668,W,0.12,204.60,070711,,,D*75
$GPVTG,204.60,T,,M,0.12,N,0.2,K,D*09
$GPGGA,202228.000,3748.7981,N,12217.8669,W,2,09,0.8,10.5,M,-25.1,M,4.8,0000*70
$GPGSA,A,3,03,19,26,08,13,05,10,28,23,,,,1.6,0.8,1.4*32
$GPRMC,202228.000,A,3748.7981,N,12217.8669,W,0.02,200.45,070711,,,D*79
$GPVTG,200.45,T,,M,0.02,N,0.0,K,D*09
$GPGGA,202229.000,3748.7982,N,12217.8669,W,2,09,0.8,10.4,M,-25.1,M,1.8,0000*76
$GPGSA,A,3,03,19,26,08,13,05,10,28,23,,,,1.6,0.8,1.4*32
$GPRMC,202229.000,A,3748.7982,N,12217.8669,W,0.12,97.01,070711,,,D*46
$GPVTG,97.01,T,,M,0.12,N,0.2,K,D*36
$GPGGA,202230.000,3748.7983,N,12217.8669,W,2,09,0.8,10.4,M,-25.1,M,1.8,0000*7F
$GPGSA,A,3,03,19,26,08,13,05,10,28,23,,,,1.6,0.8,1.4*32
$GPGSV,3,1,12,07,63,042,33,08,60,332,38,28,50,236,40,13,36,144,24*77
$GPGSV,3,2,12,19,30,064,26,10,23,229,39,05,23,284,40,01,18,233,*71
$GPGSV,3,3,12,26,15,317,36,03,11,040,28,23,06,144,29,11,05,116,*79
$GPVTG,185.18,T,,M,0.06,N,0.1,K,D*0A
$GPGGA,202231.000,3748.7983,N,12217.8670,W,2,09,0.8,10.4,M,-25.1,M,1.8,0000*76
$GPGSA,A,3,03,19,26,08,13,05,10,28,23,,,,1.6,0.8,1.4*32
$GPRMC,202231.000,A,3748.7983,N,12217.8670,W,0.04,133.48,070711,,,D*73
$GPVTG,133.48,T,,M,0.04,N,0.1,K,D*00
$GPGGA,202232.000,3748.7984,N,12217.8670,W,2,09,0.8,10.3,M,-25.1,M,2.8,0000*76
$GPGSA,A,3,03,19,26,08,13,05,10,28,23,,,,1.6,0.8,1.4*32
$GPRMC,202232.000,A,3748.7984,N,12217.8670,W,0.03,214.50,070711,,,D*7F
$GPVTG,214.50,T,,M,0.03,N,0.0,K,D*09
$GPGGA,202233.000,3748.7984,N,12217.8670,W,2,09,0.8,10.2,M,-25.1,M,3.8,0000*77
$GPGSA,A,3,03,19,26,08,13,05,10,28,23,,,,1.6,0.8,1.4*32
$GPRMC,202233.000,A,3748.7984,N,12217.8670,W,0.01,30.08,070711,,,D*45
$GPVTG,30.08,T,,M,0.01,N,0.0,K,D*32
$GPGGA,202234.000,3748.7984,N,12217.8670,W,2,09,0.8,10.2,M,-25.1,M,4.8,0000*77
$GPGSA,A,3,03,19,26,08,13,05,10,28,23,,,,1.6,0.8,1.4*32
$GPRMC,202234.000,A,3748.7984,N,12217.8670,W,0.03,175.24,070711,,,D*7E
$GPVTG,175.24,T,,M,0.03,N,0.1,K,D*0F
$GPGGA,202235.000,3748.7985,N,12217.8671,W,2,09,0.8,10.2,M,-25.1,M,1.8,0000*73
$GPGSA,A,3,03,19,26,08,13,05,10,28,23,,,,1.6,0.8,1.4*32
$GPGSV,3,1,12,07,63,042,34,08,60,332,38,28,50,236,39,13,36,144,25*7F
$GPGSV,3,2,12,19,30,064,26,10,23,229,38,05,23,284,40,01,18,233,*70
$GPGSV,3,3,12,26,15,317,36,03,11,040,29,23,06,144,28,11,05,116,*79
$GPRMC,202235.000,A,3748.7985,N,12217.8671,W,0.03,164.33,070711,,,D*79
$GPVTG,164.33,T,,M,0.03,N,0.1,K,D*09
$GPGGA,202236.000,3748.7985,N,12217.8671,W,2,09,0.8,10.2,M,-25.1,M,1.8,0000*70
$GPGSA,A,3,03,19,26,08,13,05,10,28,23,,,,1.6,0.8,1.4*32
$GPRMC,202236.000,A,3748.7985,N,12217.8671,W,0.08,330.30,070711,,,D*71
$GPVTG,330.30,T,,M,0.08,N,0.2,K,D*01
$GPGGA,202237.000,3748.7986,N,12217.8672,W,2,09,0.8,10.2,M,-25.1,M,1.8,0000*71
$GPGSA,A,3,03,19,26,08,13,05,10,28,23,,,,1.6,0.8,1.4*32
$GPRMC,202237.000,A,3748.7986,N,12217.8672,W,0.08,193.81,070711,,,D*71
$GPVTG,193.81,T,,M,0.08,N,0.2,K,D*00
$GPGGA,202238.000,3748.7986,N,12217.8673,W,2,09,0.8,10.2,M,-25.1,M,1.8,0000*7F
$GPGSA,A,3,03,19,26,08,13,05,10,28,23,,,,1.6,0.8,1.4*32
$GPRMC,202238.000,A,3748.7986,N,12217.8673,W,0.04,200.20,070711,,,D*71
$GPVTG,200.20,T,,M,0.04,N,0.1,K,D*0D
$GPGGA,202239.000,3748.7986,N,12217.8674,W,2,09,0.8,10.3,M,-25.1,M,1.8,0000*78
$GPGSA,A,3,03,19,26,08,13,05,10,28,23,,,,1.6,0.8,1.4*32
$GPRMC,202239.000,A,3748.7986,N,12217.8674,W,0.07,146.62,070711,,,D*73
$GPVTG,146.62,T,,M,0.07,N,0.1,K,D*09
$GPGGA,202240.000,3748.7986,N,12217.8675,W,2,09,0.8,10.4,M,-25.1,M,2.8,0000*73
$GPGSA,A,3,03,19,26,08,13,05,10,28,23,,,,1.6,0.8,1.4*32
$GPGSV,3,1,12,07,63,042,35,08,60,332,37,28,50,236,39,13,36,144,25*71
$GPGSV,3,2,12,19,30,064,27,10,23,229,38,05,23,284,39,01,18,233,*7F
$GPGSV,3,3,12,26,15,317,37,03,11,040,29,23,06,144,28,11,05,116,*78
$GPRMC,202240.000,A,3748.7986,N,12217.8675,W,0.05,130.23,070711,,,D*7A
$GPVTG,130.23,T,,M,0.05,N,0.1,K,D*0F
$GPGGA,202241.000,3748.7986,N,12217.8676,W,2,09,0.8,10.5,M,-25.1,M,1.8,0000*73
$GPGSA,A,3,03,19,26,08,13,05,10,28,23,,,,1.6,0.8,1.4*32
$GPRMC,202241.000,A,3748.7986,N,12217.8676,W,0.04,163.71,070711,,,D*78
$GPVTG,163.71,T,,M,0.04,N,0.1,K,D*0F
$GPGGA,202242.000,3748.7986,N,12217.8677,W,2,09,0.8,10.7,M,-25.1,M,0.8,0000*72
$GPGSA,A,3,03,19,26,08,13,05,10,28,23,,,,1.6,0.8,1.4*32
$GPRMC,202242.000,A,3748.7986,N,12217.8677,W,0.06,208.59,070711,,,D*7C
$GPVTG,208.59,T,,M,0.06,N,0.1,K,D*09
$GPGGA,202243.000,3748.7986,N,12217.8678,W,2,09,0.8,10.8,M,-25.1,M,1.8,0000*72
$GPGSA,A,3,03,19,26,08,13,05,10,28,23,,,,1.6,0.8,1.4*32
$GPRMC,202243.000,A,3748.7986,N,12217.8678,W,0.07,141.79,070711,,,D*7F
$GPVTG,141.79,T,,M,0.07,N,0.1,K,D*04
$GPGGA,202244.000,3748.7987,N,12217.8678,W,2,09,0.8,10.7,M,-25.1,M,1.8,0000*7B
$GPGSA,A,3,03,19,26,08,13,05,10,28,23,,,,1.6,0.8,1.4*32
$GPRMC,202244.000,A,3748.7987,N,12217.8678,W,0.15,120.32,070711,,,D*72
$GPVTG,120.32,T,,M,0.15,N,0.3,K,D*0D
$GPGGA,202245.000,3748.7987,N,12217.8677,W,2,09,0.8,10.5,M,-25.1,M,2.8,0000*74
$GPGSA,A,3,03,19,26,08,13,05,10,28,23,,,,1.6,0.8,1.4*32
$GPGSV,3,1,12,07,63,042,35,08,60,332,38,28,50,236,40,13,36,144,25*70
$GPGSV,3,2,12,19,30,064,20,10,23,229,39,05,23,284,39,01,18,233,*79
$GPGSV,3,3,12,26,15,317,38,03,11,040,21,23,06,144,32,11,05,116,*74
$GPRMC,202245.000,A,3748.7987,N,12217.8677,W,0.13,180.64,070711,,,D*73
$GPVTG,180.64,T,,M,0.13,N,0.2,K,D*03
$GPGGA,202246.000,3748.7987,N,12217.8677,W,2,09,0.8,10.3,M,-25.1,M,3.8,0000*70
$GPGSA,A,3,03,19,26,08,13,05,10,28,23,,,,1.6,0.8,1.4*32
$GPRMC,202246.000,A,3748.7987,N,12217.8677,W,0.07,149.15,070711,,,D*76
$GPVTG,149.15,T,,M,0.07,N,0.1,K,D*06
$GPGGA,202247.000,3748.7987,N,12217.8677,W,2,09,0.8,10.2,M,-25.1,M,1.8,0000*72
$GPGSA,A,3,03,19,26,08,13,05,10,28,23,,,,1.6,0.8,1.4*32
$GPRMC,202247.000,A,3748.7987,N,12217.8677,W,0.14,221.11,070711,,,D*7C
$GPVTG,221.11,T,,M,0.14,N,0.3,K,D*0F
$GPGGA,202248.000,3748.7987,N,12217.8677,W,2,09,0.8,10.0,M,-25.1,M,1.8,0000*7F
$GPGSA,A,3,03,19,26,08,13,05,10,28,23,,,,1.6,0.8,1.4*32
$GPRMC,202248.000,A,3748.7987,N,12217.8677,W,0.28,181.08,070711,,,D*7D
$GPVTG,181.08,T,,M,0.28,N,0.5,K,D*07
$GPGGA,202249.000,3748.7985,N,12217.8672,W,2,09,0.8,9.7,M,-25.1,M,1.8,0000*46
$GPGSA,A,3,03,19,26,08,13,05,10,28,23,,,,1.6,0.8,1.4*32
$GPRMC,202249.000,A,3748.7985,N,12217.8672,W,0.20,288.41,070711,,,D*74
$GPVTG,288.41,T,,M,0.20,N,0.4,K,D*09
$GPGGA,202250.000,3748.7984,N,12217.8669,W,2,09,0.8,9.4,M,-25.1,M,1.8,0000*46
$GPGSA,A,3,03,19,26,08,13,05,10,28,23,,,,1.6,0.8,1.4*32
$GPGSV,3,1,12,07,63,043,27,08,61,333,37,28,51,236,40,13,36,144,34*7C
$GPGSV,3,2,12,19,30,063,21,10,23,228,40,05,23,283,39,01,18,233,*77
$GPGSV,3,3,12,26,15,317,38,03,10,040,29,23,06,144,31,11,05,115,*7D
$GPRMC,202250.000,A,3748.7984,N,12217.8669,W,0.10,157.80,070711,,,D*78
$GPVTG,157.80,T,,M,0.10,N,0.2,K,D*00
$GPGGA,202251.000,3748.7982,N,12217.8665,W,2,09,0.8,9.1,M,-25.1,M,2.8,0000*4B
$GPGSA,A,3,03,19,26,08,13,05,10,28,23,,,,1.6,0.8,1.4*32
$GPRMC,202251.000,A,3748.7982,N,12217.8665,W,0.29,162.36,070711,,,D*72
$GPVTG,162.36,T,,M,0.29,N,0.5,K,D*06
$GPGGA,202252.000,3748.7982,N,12217.8666,W,2,09,0.8,8.8,M,-25.1,M,1.8,0000*40
$GPGSA,A,3,03,19,26,08,13,05,10,28,23,,,,1.6,0.8,1.4*32
$GPRMC,202252.000,A,3748.7982,N,12217.8666,W,0.43,253.53,070711,,,D*7C
$GPVTG,253.53,T,,M,0.43,N,0.8,K,D*05
$GPGGA,202253.000,3748.7980,N,12217.8669,W,2,09,0.8,8.7,M,-25.1,M,1.8,0000*43
$GPGSA,A,3,03,19,26,08,13,05,10,28,23,,,,1.6,0.8,1.4*32
$GPRMC,202253.000,A,3748.7980,N,12217.8669,W,1.57,207.65,070711,,,D*70
$GPVTG,207.65,T,,M,1.57,N,2.9,K,D*06
$GPGGA,202254.000,3748.7975,N,12217.8673,W,2,09,0.8,8.7,M,-25.1,M,1.8,0000*45
$GPGSA,A,3,03,19,26,08,13,05,10,28,23,,,,1.6,0.8,1.4*32
$GPRMC,202254.000,A,3748.7975,N,12217.8673,W,2.12,196.95,070711,,,D*70
$GPVTG,196.95,T,,M,2.12,N,3.9,K,D*01
$GPGGA,202255.000,3748.7970,N,12217.8677,W,2,09,0.8,8.7,M,-25.1,M,1.8,0000*45
$GPGSA,A,3,03,19,26,08,13,05,10,28,23,,,,1.6,0.8,1.4*32
$GPGSV,3,1,12,07,63,043,33,08,61,333,38,28,51,236,40,13,36,144,28*7B
$GPGSV,3,2,12,19,30,063,27,10,23,228,40,05,23,283,39,01,18,233,*71
$GPGSV,3,3,12,26,15,317,37,03,10,040,30,23,06,144,27,11,05,115,*7D
$GPVTG,206.17,T,,M,1.96,N,3.6,K,D*01
$GPGGA,202256.000,3748.7966,N,12217.8681,W,2,09,0.8,8.7,M,-25.1,M,2.8,0000*4B
$GPGSA,A,3,03,19,26,08,13,05,10,28,23,,,,1.6,0.8,1.4*32
$GPRMC,202256.000,A,3748.7966,N,12217.8681,W,1.44,225.22,070711,,,D*7A
$GPVTG,225.22,T,,M,1.44,N,2.7,K,D*09
$GPGGA,202257.000,3748.7963,N,12217.8684,W,2,09,0.8,8.5,M,-25.1,M,3.8,0000*49
$GPGSA,A,3,03,19,26,08,13,05,10,28,23,,,,1.6,0.8,1.4*32
$GPRMC,202257.000,A,3748.7963,N,12217.8684,W,1.34,208.36,070711,,,D*76
$GPVTG,208.36,T,,M,1.34,N,2.5,K,D*06
$GPGGA,202258.000,3748.7960,N,12217.8686,W,2,09,0.8,8.4,M,-25.1,M,4.8,0000*41
$GPGSA,A,3,03,19,26,08,13,05,10,28,23,,,,1.6,0.8,1.4*32
$GPRMC,202258.000,A,3748.7960,N,12217.8686,W,1.41,187.16,070711,,,D*7C
$GPVTG,187.16,T,,M,1.41,N,2.6,K,D*01
$GPGGA,202259.000,3748.7956,N,12217.8684,W,2,09,0.8,8.1,M,-25.1,M,1.8,0000*47
$GPGSA,A,3,03,19,26,08,13,05,10,28,23,,,,1.6,0.8,1.4*32
$GPRMC,202259.000,A,3748.7956,N,12217.8684,W,1.04,169.34,070711,,,D*7B
$GPVTG,169.34,T,,M,1.04,N,1.9,K,D*0C
$GPGGA,202300.000,3748.7952,N,12217.8684,W,2,09,0.8,8.2,M,-25.1,M,1.8,0000*4D
$GPGSA,A,3,03,19,26,08,13,05,10,28,23,,,,1.6,0.8,1.4*32
$GPGSV,3,1,12,07,63,043,25,08,61,333,29,28,51,236,40,13,36,144,39*7C
$GPGSV,3,2,12,19,30,063,30,10,23,228,40,05,23,283,38,01,18,233,*76
$GPGSV,3,3,12,26,15,317,28,03,10,040,29,23,06,144,27,11,05,115,*7B
$GPRMC,202300.000,A,3748.7952,N,12217.8684,W,0.67,104.97,070711,,,D*74
$GPVTG,104.97,T,,M,0.67,N,1.2,K,D*01
$GPGGA,202301.000,3748.7953,N,12217.8679,W,2,09,0.8,7.9,M,-25.1,M,1.8,0000*4B
$GPGSA,A,3,03,19,26,08,13,05,10,28,23,,,,1.6,0.8,1.4*32
$GPRMC,202301.000,A,3748.7953,N,12217.8679,W,1.04,40.35,070711,,,D*4B
$GPVTG,40.35,T,,M,1.04,N,1.9,K,D*37
$GPGGA,202302.000,3748.7957,N,12217.8674,W,2,09,0.8,7.4,M,-25.1,M,2.8,0000*4F
$GPGSA,A,3,03,19,26,08,13,05,10,28,23,,,,1.6,0.8,1.4*32
$GPRMC,202302.000,A,3748.7957,N,12217.8674,W,1.55,23.97,070711,,,D*48
$GPVTG,23.97,T,,M,1.55,N,2.9,K,D*3D
$GPGGA,202303.000,3748.7962,N,12217.8670,W,2,09,0.8,6.8,M,-25.1,M,3.8,0000*40
$GPGSA,A,3,03,19,26,08,13,05,10,28,23,,,,1.6,0.8,1.4*32
$GPRMC,202303.000,A,3748.7962,N,12217.8670,W,1.76,19.74,070711,,,D*4E
$GPVTG,19.74,T,,M,1.76,N,3.3,K,D*33
$GPGGA,202304.000,3748.7967,N,12217.8665,W,2,09,0.8,6.2,M,-25.1,M,4.8,0000*4B
$GPGSA,A,3,03,19,26,08,13,05,10,28,23,,,,1.6,0.8,1.4*32
$GPRMC,202304.000,A,3748.7967,N,12217.8665,W,1.80,26.99,070711,,,D*4E
$GPVTG,26.99,T,,M,1.80,N,3.3,K,D*35
$GPGGA,202305.000,3748.7972,N,12217.8659,W,2,09,0.8,5.4,M,-25.1,M,1.8,0000*41
$GPGSA,A,3,03,19,26,08,13,05,10,28,23,,,,1.6,0.8,1.4*32
$GPGSV,3,1,12,07,63,043,36,08,61,333,29,28,51,236,32,13,36,144,38*7A
$GPGSV,3,2,12,19,30,063,39,10,23,228,28,05,23,283,23,01,18,233,*7B
$GPGSV,3,3,12,26,15,317,24,03,10,040,36,23,06,144,35,11,05,115,*7A
$GPRMC,202305.000,A,3748.7972,N,12217.8659,W,1.86,29.05,070711,,,D*48
$GPVTG,29.05,T,,M,1.86,N,3.4,K,D*3E
$GPGGA,202306.000,3748.7977,N,12217.8654,W,2,09,0.8,4.8,M,-25.1,M,1.8,0000*47
$GPGSA,A,3,03,19,26,08,13,05,10,28,23,,,,1.6,0.8,1.4*32
$GPRMC,202306.000,A,3748.7977,N,12217.8654,W,1.96,32.62,070711,,,D*49
$GPVTG,32.62,T,,M,1.96,N,3.6,K,D*36
$GPGGA,202307.000,3748.7981,N,12217.8648,W,2,09,0.8,4.4,M,-25.1,M,1.8,0000*4E
$GPGSA,A,3,03,19,26,08,13,05,10,28,23,,,,1.6,0.8,1.4*32
$GPRMC,202307.000,A,3748.7981,N,12217.8648,W,1.38,41.99,070711,,,D*48
$GPVTG,41.99,T,,M,1.38,N,2.6,K,D*33
$GPGGA,202308.000,3748.7984,N,12217.8642,W,2,09,0.8,4.1,M,-25.1,M,2.8,0000*48
$GPGSA,A,3,03,19,26,08,13,05,10,28,23,,,,1.6,0.8,1.4*32
$GPRMC,202308.000,A,3748.7984,N,12217.8642,W,1.41,56.27,070711,,,D*45
$GPVTG,56.27,T,,M,1.41,N,2.6,K,D*3E
$GPGGA,202309.000,3748.7986,N,12217.8637,W,2,09,0.8,3.9,M,-25.1,M,3.8,0000*47
$GPGSA,A,3,03,19,26,08,13,05,10,28,23,,,,1.6,0.8,1.4*32
$GPRMC,202309.000,A,3748.7986,N,12217.8637,W,0.59,23.37,070711,,,D*4F
$GPVTG,23.37,T,,M,0.59,N,1.1,K,D*31
$GPGGA,202310.000,3748.7988,N,12217.8636,W,2,09,0.8,4.4,M,-25.1,M,1.8,0000*48
$GPGSA,A,3,03,19,26,08,13,05,10,28,23,,,,1.6,0.8,1.4*32
$GPGSV,3,1,12,07,63,043,29,08,61,333,36,28,51,236,38,13,36,144,31*79
$GPGSV,3,2,12,19,30,063,24,10,23,228,38,05,23,283,38,01,18,233,*7C
$GPGSV,3,3,12,26,15,317,36,03,10,040,30,23,06,144,34,11,05,115,*7E
$GPRMC,202310.000,A,3748.7988,N,12217.8636,W,0.48,299.87,070711,,,D*70
$GPVTG,299.87,T,,M,0.48,N,0.9,K,D*00
$GPGGA,202311.000,3748.7989,N,12217.8635,W,2,09,0.8,4.7,M,-25.1,M,1.8,0000*48
$GPGSA,A,3,03,19,26,08,13,05,10,28,23,,,,1.6,0.8,1.4*32
$GPRMC,202311.000,A,3748.7989,N,12217.8635,W,0.23,146.67,070711,,,D*71
$GPVTG,146.67,T,,M,0.23,N,0.4,K,D*0F
$GPGGA,202312.000,3748.7989,N,12217.8635,W,2,09,0.8,4.9,M,-25.1,M,1.8,0000*45
$GPGSA,A,3,03,19,26,08,13,05,10,28,23,,,,1.6,0.8,1.4*32
$GPRMC,202312.000,A,3748.7989,N,12217.8635,W,0.06,237.34,070711,,,D*76
$GPVTG,237.34,T,,M,0.06,N,0.1,K,D*0E
$GPGGA,202313.000,3748.7989,N,12217.8637,W,2,09,0.8,5.7,M,-25.1,M,1.8,0000*49
$GPGSA,A,3,03,19,26,08,13,05,10,28,23,,,,1.6,0.8,1.4*32
$GPRMC,202313.000,A,3748.7989,N,12217.8637,W,0.20,236.66,070711,,,D*77
$GPVTG,236.66,T,,M,0.20,N,0.4,K,D*09
$GPGGA,202314.000,3748.7989,N,12217.8636,W,2,09,0.8,5.8,M,-25.1,M,2.8,0000*43
$GPGSA,A,3,03,19,26,08,13,05,10,28,23,,,,1.6,0.8,1.4*32
$GPRMC,202314.000,A,3748.7989,N,12217.8636,W,0.13,101.10,070711,,,D*77
$GPVTG,101.10,T,,M,0.13,N,0.2,K,D*09
$GPGGA,202315.000,3748.7989,N,12217.8634,W,2,09,0.8,5.9,M,-25.1,M,3.8,0000*40
$GPGSA,A,3,03,19,26,08,13,05,10,28,23,,,,1.6,0.8,1.4*32
$GPGSV,3,1,12,07,63,043,23,08,61,333,35,28,51,236,40,13,36,144,32*7C
$GPGSV,3,2,12,19,30,063,28,10,23,228,39,05,23,283,40,01,18,233,*7E
$GPGSV,3,3,12,26,15,317,35,03,10,040,30,23,06,144,36,11,05,115,*7F
$GPVTG,114.10,T,,M,1.03,N,1.9,K,D*07
$GPGGA,202316.000,3748.7986,N,12217.8629,W,2,09,0.8,6.0,M,-25.1,M,4.8,0000*4D
$GPGSA,A,3,03,19,26,08,13,05,10,28,23,,,,1.6,0.8,1.4*32
$GPRMC,202316.000,A,3748.7986,N,12217.8629,W,1.73,104.81,070711,,,D*7E
$GPVTG,104.81,T,,M,1.73,N,3.2,K,D*00
$GPGGA,202317.000,3748.7984,N,12217.8621,W,2,09,0.8,6.1,M,-25.1,M,5.8,0000*46
$GPGSA,A,3,03,19,26,08,13,05,10,28,23,,,,1.6,0.8,1.4*32
$GPRMC,202317.000,A,3748.7984,N,12217.8621,W,2.12,114.72,070711,,,D*7C
$GPVTG,114.72,T,,M,2.12,N,3.9,K,D*02
$GPGGA,202318.000,3748.7980,N,12217.8612,W,2,09,0.8,6.1,M,-25.1,M,1.8,0000*49
$GPGSA,A,3,03,19,26,08,13,05,10,28,23,,,,1.6,0.8,1.4*32
$GPRMC,202318.000,A,3748.7980,N,12217.8612,W,2.26,118.28,070711,,,D*73
$GPVTG,118.28,T,,M,2.26,N,4.2,K,D*0A
$GPGGA,202319.000,3748.7977,N,12217.8605,W,2,09,0.8,6.0,M,-25.1,M,1.8,0000*47
$GPGSA,A,3,03,19,26,08,13,05,10,28,23,,,,1.6,0.8,1.4*32
$GPRMC,202319.000,A,3748.7977,N,12217.8605,W,2.00,122.97,070711,,,D*75
$GPVTG,122.97,T,,M,2.00,N,3.7,K,D*01
$GPGGA,202320.000,3748.7974,N,12217.8598,W,2,09,0.8,6.0,M,-25.1,M,2.8,0000*4A
$GPGSA,A,3,03,19,26,08,13,05,10,28,23,,,,1.6,0.8,1.4*32
$GPGSV,3,1,12,07,62,043,24,08,61,333,35,28,51,236,39,13,35,145,41*72
$GPGSV,3,2,12,19,30,063,29,10,23,228,39,05,23,283,31,01,18,234,*7E
$GPGSV,3,3,12,26,15,317,36,03,10,040,31,23,06,144,36,11,06,115,*7E
$GPRMC,202320.000,A,3748.7974,N,12217.8598,W,1.88,120.80,070711,,,D*7C
$GPVTG,120.80,T,,M,1.88,N,3.5,K,D*04
$GPGGA,202321.000,3748.7972,N,12217.8591,W,2,09,0.8,5.9,M,-25.1,M,3.8,0000*4F
$GPGSA,A,3,03,19,26,08,13,05,10,28,23,,,,1.6,0.8,1.4*32
$GPRMC,202321.000,A,3748.7972,N,12217.8591,W,1.73,114.61,070711,,,D*7E
$GPVTG,114.61,T,,M,1.73,N,3.2,K,D*0F
$GPGGA,202322.000,3748.7969,N,12217.8585,W,2,09,0.8,5.9,M,-25.1,M,1.8,0000*41
$GPGSA,A,3,03,19,26,08,13,05,10,28,23,,,,1.6,0.8,1.4*32
$GPRMC,202322.000,A,3748.7969,N,12217.8585,W,1.93,125.71,070711,,,D*7F
$GPVTG,125.71,T,,M,1.93,N,3.6,K,D*06
$GPGGA,202323.000,3748.7966,N,12217.8579,W,2,09,0.8,5.8,M,-25.1,M,1.8,0000*4D
$GPGSA,A,3,03,19,26,08,13,05,10,28,23,,,,1.6,0.8,1.4*32
$GPRMC,202323.000,A,3748.7966,N,12217.8579,W,2.10,124.72,070711,,,D*78
$GPVTG,124.72,T,,M,2.10,N,3.9,K,D*03
$GPGGA,202324.000,3748.7963,N,12217.8572,W,2,09,0.8,5.6,M,-25.1,M,1.8,0000*4A
$GPGSA,A,3,03,19,26,08,13,05,10,28,23,,,,1.6,0.8,1.4*32
$GPRMC,202324.000,A,3748.7963,N,12217.8572,W,1.88,116.59,070711,,,D*7B
$GPVTG,116.59,T,,M,1.88,N,3.5,K,D*05
$GPGGA,202325.000,3748.7961,N,12217.8566,W,2,09,0.8,5.6,M,-25.1,M,1.8,0000*4C
$GPGSA,A,3,03,19,26,08,13,05,10,28,23,,,,1.6,0.8,1.4*32
$GPGSV,3,1,12,07,62,043,24,08,61,333,33,28,51,236,39,13,35,145,40*75
$GPGSV,3,2,12,19,30,063,29,10,23,228,39,05,23,283,34,01,18,234,*7B
$GPGSV,3,3,12,26,15,317,31,03,10,040,25,23,06,144,36,11,06,115,*7C
$GPRMC,202325.000,A,3748.7961,N,12217.8566,W,1.95,119.26,070711,,,D*76
$GPVTG,119.26,T,,M,1.95,N,3.6,K,D*0D
$GPGGA,202326.000,3748.7959,N,12217.8560,W,2,09,0.8,5.6,M,-25.1,M,1.8,0000*42
$GPGSA,A,3,03,19,26,08,13,05,10,28,23,,,,1.6,0.8,1.4*32
$GPRMC,202326.000,A,3748.7959,N,12217.8560,W,1.65,120.11,070711,,,D*79
$GPVTG,120.11,T,,M,1.65,N,3.1,K,D*0B
$GPGGA,202327.000,3748.7958,N,12217.8556,W,2,09,0.8,5.6,M,-25.1,M,1.8,0000*47
$GPGSA,A,3,03,19,26,08,13,05,10,28,23,,,,1.6,0.8,1.4*32
$GPRMC,202327.000,A,3748.7958,N,12217.8556,W,0.53,109.66,070711,,,D*73
$GPVTG,109.66,T,,M,0.53,N,1.0,K,D*07
$GPGGA,202328.000,3748.7958,N,12217.8555,W,2,09,0.8,5.5,M,-25.1,M,2.8,0000*4B
$GPGSA,A,3,03,19,26,08,13,05,10,28,23,,,,1.6,0.8,1.4*32
$GPRMC,202328.000,A,3748.7958,N,12217.8555,W,0.15,165.93,070711,,,D*7D
$GPVTG,165.93,T,,M,0.15,N,0.3,K,D*07
$GPGGA,202329.000,3748.7958,N,12217.8554,W,2,09,0.8,5.4,M,-25.1,M,1.8,0000*49
$GPGSA,A,3,03,19,26,08,13,05,10,28,23,,,,1.6,0.8,1.4*32
$GPRMC,202329.000,A,3748.7958,N,12217.8554,W,0.14,186.22,070711,,,D*7B
$GPVTG,186.22,T,,M,0.14,N,0.3,K,D*01
$GPGGA,202330.000,3748.7958,N,12217.8553,W,2,09,0.8,5.3,M,-25.1,M,1.8,0000*41
$GPGSA,A,3,03,19,26,08,13,05,10,28,23,,,,1.6,0.8,1.4*32
$GPGSV,3,1,12,07,62,043,18,08,61,333,34,28,51,236,39,13,35,145,37*7D
$GPGSV,3,2,12,19,30,063,20,10,23,228,39,05,23,283,35,01,18,234,*73
$GPGSV,3,3,12,26,15,317,32,03,10,040,25,23,06,144,34,11,06,115,*7D
$GPRMC,202330.000,A,3748.7958,N,12217.8553,W,0.24,109.88,070711,,,D*70
$GPVTG,109.88,T,,M,0.24,N,0.4,K,D*02
$GPGGA,202331.000,3748.7957,N,12217.8552,W,2,09,0.8,5.2,M,-25.1,M,1.8,0000*4F
$GPGSA,A,3,03,19,26,08,13,05,10,28,23,,,,1.6,0.8,1.4*32
$GPRMC,202331.000,A,3748.7957,N,12217.8552,W,0.35,166.96,070711,,,D*79
$GPVTG,166.96,T,,M,0.35,N,0.7,K,D*07
$GPGGA,202332.000,3748.7957,N,12217.8551,W,2,09,0.8,5.1,M,-25.1,M,2.8,0000*4F
$GPGSA,A,3,03,19,26,08,13,05,10,28,23,,,,1.6,0.8,1.4*32
$GPRMC,202332.000,A,3748.7957,N,12217.8551,W,0.40,116.49,070711,,,D*7E
$GPVTG,116.49,T,,M,0.40,N,0.7,K,D*00
$GPGGA,202333.000,3748.7957,N,12217.8550,W,2,09,0.8,5.0,M,-25.1,M,3.8,0000*4F
$GPGSA,A,3,03,19,26,08,13,05,10,28,23,,,,1.6,0.8,1.4*32
$GPRMC,202333.000,A,3748.7957,N,12217.8550,W,0.19,122.38,070711,,,D*73
$GPVTG,122.38,T,,M,0.19,N,0.3,K,D*09
$GPGGA,202334.000,3748.7957,N,12217.8550,W,2,09,0.8,4.8,M,-25.1,M,4.8,0000*46
$GPGSA,A,3,03,19,26,08,13,05,10,28,23,,,,1.6,0.8,1.4*32
$GPRMC,202334.000,A,3748.7957,N,12217.8550,W,0.07,194.50,070711,,,D*78
$GPVTG,194.50,T,,M,0.07,N,0.1,K,D*07
$GPGGA,202335.000,3748.7958,N,12217.8550,W,2,09,0.8,4.7,M,-25.1,M,1.8,0000*42
$GPGSA,A,3,03,19,26,08,13,05,10,28,23,,,,1.6,0.8,1.4*32
$GPGSV,3,1,12,07,62,043,32,08,61,333,35,28,51,236,38,13,35,145,28*7B
$GPGSV,3,2,12,19,30,063,26,10,23,228,35,05,23,283,36,01,18,234,*7A
$GPRMC,202335.000,A,3748.7958,N,12217.8550,W,0.24,233.48,070711,,,D*70
$GPVTG,233.48,T,,M,0.24,N,0.4,K,D*04
$GPGGA,202336.000,3748.7958,N,12217.8550,W,2,09,0.8,4.6,M,-25.1,M,1.8,0000*40
$GPGSA,A,3,03,19,26,08,13,05,10,28,23,,,,1.6,0.8,1.4*32
$GPRMC,202336.000,A,3748.7958,N,12217.8550,W,0.22,197.43,070711,,,D*73
$GPVTG,197.43,T,,M,0.22,N,0.4,K,D*04
$GPGGA,202337.000,3748.7958,N,12217.8550,W,2,09,0.8,4.5,M,-25.1,M,1.8,0000*42
$GPGSA,A,3,03,19,26,08,13,05,10,28,23,,,,1.6,0.8,1.4*32
$GPRMC,202337.000,A,3748.7958,N,12217.8550,W,0.10,165.53,070711,,,D*7F
$GPVTG,165.53,T,,M,0.10,N,0.2,K,D*0F
$GPGGA,202338.000,3748.7959,N,12217.8550,W,2,09,0.8,4.4,M,-25.1,M,2.8,0000*4E
$GPGSA,A,3,03,19,26,08,13,05,10,28,23,,,,1.6,0.8,1.4*32
$GPRMC,202338.000,A,3748.7959,N,12217.8550,W,0.07,170.62,070711,,,D*71
$GPVTG,170.62,T,,M,0.07,N,0.1,K,D*0C
$GPGGA,202339.000,3748.7960,N,12217.8551,W,2,09,0.8,4.8,M,-25.1,M,1.8,0000*4B
$GPGSA,A,3,03,19,26,08,13,05,10,28,23,,,,1.6,0.8,1.4*32
$GPRMC,202339.000,A,3748.7960,N,12217.8551,W,0.08,59.36,070711,,,D*4F
$GPVTG,59.36,T,,M,0.08,N,0.2,K,D*3B
$GPGGA,202339.000,3748.7961,N,12217.8552,W,2,09,0.8,5.1,M,-25.1,M,2.8,0000*42
$GPGSA,A,3,03,19,26,08,13,05,10,28,23,,,,1.6,0.8,1.4*32
$GPGSV,3,1,12,07,62,043,32,08,61,333,37,28,51,236,34,13,35,145,27*7A
$GPGSV,3,2,12,19,30,063,25,10,23,228,37,05,23,283,37,01,18,234,*7A
$GPGSV,3,3,12,26,15,317,33,03,10,040,25,23,06,144,29,11,06,115,*70
$GPRMC,202339.000,A,3748.7961,N,12217.8552,W,0.07,34.81,070711,,,D*45
$GPVTG,34.81,T,,M,0.07,N,0.1,K,D*30
$GPGGA,202340.000,3748.7962,N,12217.8553,W,2,09,0.8,5.3,M,-25.1,M,1.8,0000*4F
$GPGSA,A,3,03,19,26,08,13,05,10,28,23,,,,1.6,0.8,1.4*32
$GPRMC,202340.000,A,3748.7962,N,12217.8553,W,0.19,154.33,070711,,,D*78
$GPVTG,154.33,T,,M,0.19,N,0.4,K,D*04
$GPGGA,202341.000,3748.7962,N,12217.8553,W,2,09,0.8,5.2,M,-25.1,M,1.8,0000*4F
$GPGSA,A,3,03,19,26,08,13,05,10,28,23,,,,1.6,0.8,1.4*32
$GPRMC,202341.000,A,3748.7962,N,12217.8553,W,0.22,147.23,070711,,,D*72
$GPVTG,147.23,T,,M,0.22,N,0.4,K,D*0F
$GPGGA,202342.000,3748.7961,N,12217.8555,W,2,09,0.8,5.3,M,-25.1,M,2.8,0000*4B
$GPGSA,A,3,03,19,26,08,13,05,10,28,23,,,,1.6,0.8,1.4*32
$GPRMC,202342.000,A,3748.7961,N,12217.8555,W,0.15,150.90,070711,,,D*7E
$GPVTG,150.90,T,,M,0.15,N,0.3,K,D*02
$GPGGA,202343.000,3748.7960,N,12217.8557,W,2,09,0.8,5.4,M,-25.1,M,3.8,0000*4F
$GPGSA,A,3,03,19,26,08,13,05,10,28,23,,,,1.6,0.8,1.4*32
$GPRMC,202343.000,A,3748.7960,N,12217.8557,W,0.30,149.19,070711,,,D*72
$GPVTG,149.19,T,,M,0.30,N,0.6,K,D*09
$GPGGA,202344.000,3748.7960,N,12217.8558,W,2,09,0.8,5.4,M,-25.1,M,4.8,0000*40
$GPGSA,A,3,03,19,26,08,13,05,10,28,23,,,,1.6,0.8,1.4*32
$GPGSV,3,1,12,07,62,043,33,08,61,333,38,28,51,236,36,13,35,145,24*75
$GPGSV,3,2,12,19,30,063,29,10,23,228,38,05,23,283,37,01,18,234,*79
$GPGSV,3,3,12,26,15,317,34,03,10,040,25,23,06,144,18,11,06,115,*75
$GPRMC,202344.000,A,3748.7960,N,12217.8558,W,0.37,150.28,070711,,,D*77
$GPVTG,150.28,T,,M,0.37,N,0.7,K,D*05
$GPGGA,202345.000,3748.7959,N,12217.8559,W,2,09,0.8,5.3,M,-25.1,M,5.8,0000*4C
$GPGSA,A,3,03,19,26,08,13,05,10,28,23,,,,1.6,0.8,1.4*32
$GPRMC,202345.000,A,3748.7959,N,12217.8559,W,0.24,147.19,070711,,,D*7B
$GPVTG,147.19,T,,M,0.24,N,0.5,K,D*01
$GPGGA,202346.000,3748.7959,N,12217.8559,W,2,09,0.8,5.3,M,-25.1,M,6.8,0000*4C
$GPGSA,A,3,03,19,26,08,13,05,10,28,23,,,,1.6,0.8,1.4*32
$GPRMC,202346.000,A,3748.7959,N,12217.8559,W,0.28,143.80,070711,,,D*70
$GPVTG,143.80,T,,M,0.28,N,0.5,K,D*09
$GPGGA,202347.000,3748.7959,N,12217.8560,W,2,09,0.8,5.1,M,-25.1,M,1.8,0000*42
$GPGSA,A,3,03,19,26,08,13,05,10,28,23,,,,1.6,0.8,1.4*32
$GPRMC,202347.000,A,3748.7959,N,12217.8560,W,0.06,163.31,070711,,,D*7F
$GPVTG,163.31,T,,M,0.06,N,0.1,K,D*09
$GPGGA,202348.000,3748.7959,N,12217.8561,W,2,09,0.8,4.9,M,-25.1,M,1.8,0000*45
$GPGSA,A,3,03,19,26,08,13,05,10,28,23,,,,1.6,0.8,1.4*32
$GPRMC,202348.000,A,3748.7959,N,12217.8561,W,0.06,203.36,070711,,,D*73
$GPVTG,203.36,T,,M,0.06,N,0.1,K,D*0B
$GPGGA,202349.000,3748.7959,N,12217.8559,W,2,09,0.8,4.5,M,-25.1,M,2.8,0000*40
$GPGSA,A,3,03,19,26,08,13,05,10,28,23,,,,1.6,0.8,1.4*32
$GPGSV,3,1,12,07,62,044,26,08,61,334,38,28,51,236,37,13,35,145,31*74
$GPGSV,3,2,12,19,30,063,23,10,22,228,38,05,22,283,38,01,18,234,*7C
$GPGSV,3,3,12,26,15,317,32,03,10,040,22,23,06,144,28,11,06,115,*77
$GPRMC,202349.000,A,3748.7959,N,12217.8559,W,0.40,110.13,070711,,,D*7D
$GPVTG,110.13,T,,M,0.40,N,0.7,K,D*09
$GPGGA,202350.000,3748.7957,N,12217.8555,W,2,09,0.8,4.1,M,-25.1,M,3.8,0000*4F
$GPGSA,A,3,03,19,26,08,13,05,10,28,23,,,,1.6,0.8,1.4*32
$GPRMC,202350.000,A,3748.7957,N,12217.8555,W,1.42,128.52,070711,,,D*7A
$GPVTG,128.52,T,,M,1.42,N,2.6,K,D*07
$GPGGA,202351.000,3748.7955,N,12217.8549,W,2,10,0.8,3.5,M,-25.1,M,4.8,0000*4D
$GPGSA,A,3,03,19,26,07,08,13,05,10,28,23,,,1.4,0.8,1.2*31
$GPRMC,202351.000,A,3748.7955,N,12217.8549,W,1.54,116.71,070711,,,D*7F
$GPVTG,116.71,T,,M,1.54,N,2.9,K,D*03
$GPGGA,202352.000,3748.7953,N,12217.8542,W,2,10,0.8,3.0,M,-25.1,M,1.8,0000*43
$GPGSA,A,3,03,19,26,07,08,13,05,10,28,23,,,1.4,0.8,1.2*31
$GPRMC,202352.000,A,3748.7953,N,12217.8542,W,1.94,111.46,070711,,,D*7E
$GPVTG,111.46,T,,M,1.94,N,3.6,K,D*02
$GPGGA,202353.000,3748.7950,N,12217.8535,W,2,10,0.8,2.5,M,-25.1,M,1.8,0000*45
$GPGSA,A,3,03,19,26,07,08,13,05,10,28,23,,,1.4,0.8,1.2*31
$GPRMC,202353.000,A,3748.7950,N,12217.8535,W,2.05,122.92,070711,,,D*7E
$GPVTG,122.92,T,,M,2.05,N,3.8,K,D*0E
$GPGGA,202354.000,3748.7948,N,12217.8528,W,2,10,0.8,2.2,M,-25.1,M,1.8,0000*40
$GPGSA,A,3,03,19,26,07,08,13,05,10,28,23,,,1.4,0.8,1.2*31
$GPGSV,3,1,12,07,62,044,23,08,61,334,32,28,51,237,37,13,35,145,39*72
$GPGSV,3,2,12,19,30,063,28,05,22,283,37,10,22,228,38,01,18,234,*78
$GPGSV,3,3,12,26,16,317,27,03,10,040,23,23,06,144,36,11,06,115,*7E
$GPRMC,202354.000,A,3748.7948,N,12217.8528,W,1.64,121.55,070711,,,D*70
$GPVTG,121.55,T,,M,1.64,N,3.0,K,D*0A
$GPGGA,202355.000,3748.7946,N,12217.8523,W,2,10,0.8,1.9,M,-25.1,M,1.8,0000*4C
$GPGSA,A,3,03,19,26,07,08,13,05,10,28,23,,,1.4,0.8,1.2*31
$GPRMC,202355.000,A,3748.7946,N,12217.8523,W,0.76,110.82,070711,,,D*7E
$GPVTG,110.82,T,,M,0.76,N,1.4,K,D*06
$GPGGA,202356.000,3748.7946,N,12217.8520,W,2,10,0.8,1.5,M,-25.1,M,1.8,0000*40
$GPGSA,A,3,03,19,26,07,08,13,05,10,28,23,,,1.4,0.8,1.2*31
$GPRMC,202356.000,A,3748.7946,N,12217.8520,W,0.53,172.59,070711,,,D*7B
$GPVTG,172.59,T,,M,0.53,N,1.0,K,D*07
$GPGGA,202357.000,3748.7945,N,12217.8519,W,2,10,0.8,1.2,M,-25.1,M,2.8,0000*4C
$GPGSA,A,3,03,19,26,07,08,13,05,10,28,23,,,1.4,0.8,1.2*31
$GPRMC,202357.000,A,3748.7945,N,12217.8519,W,0.19,102.00,070711,,,D*76
$GPVTG,102.00,T,,M,0.19,N,0.4,K,D*07
$GPGGA,202358.000,3748.7946,N,12217.8517,W,2,10,0.8,0.8,M,-25.1,M,1.8,0000*46
$GPGSA,A,3,03,19,26,07,08,13,05,10,28,23,,,1.4,0.8,1.2*31
$GPRMC,202358.000,A,3748.7946,N,12217.8517,W,0.10,36.02,070711,,,D*49
$GPVTG,36.02,T,,M,0.10,N,0.2,K,D*3C
$GPGGA,202359.000,3748.7947,N,12217.8516,W,2,10,0.8,0.4,M,-25.1,M,1.8,0000*4B
$GPGSA,A,3,03,19,26,07,08,13,05,10,28,23,,,1.4,0.8,1.2*31
