$ADVER,3080,2.3
$GPRMC,225654.370,A,3748.7035,N,12217.6193,W,4.48,333.59,060411,,,A*7C
$GPGGA,225655.369,3748.7028,N,12217.6160,W,1,04,2.1,-2.9,M,-25.1,M,,0000*48
$GPGSA,A,3,07,32,16,30,,,,,,,,,2.3,2.1,1.0*33
$GPRMC,225655.369,A,3748.7028,N,12217.6160,W,4.46,330.33,060411,,,A*74
$GPVTG,330.33,T,,M,4.46,N,8.3,K,A*00
$GPGGA,225656.370,3748.7055,N,12217.6214,W,1,04,2.1,1.8,M,-25.1,M,,0000*66
$GPGSA,A,3,07,32,16,30,,,,,,,,,2.3,2.1,1.0*33
$GPRMC,225656.370,A,3748.7055,N,12217.6214,W,4.33,328.48,060411,,,A*72
$GPVTG,328.48,T,,M,4.33,N,8.0,K,A*04
$GPGGA,225657.000,3748.7063,N,12217.6223,W,1,04,2.1,2.7,M,-25.1,M,,0000*6E
$GPGSA,A,3,07,32,16,30,,,,,,,,,2.3,2.1,1.0*33
$GPRMC,225657.000,A,3748.7063,N,12217.6223,W,4.15,330.79,060411,,,A*79
$GPVTG,330.79,T,,M,4.15,N,7.7,K,A*03
$GPGGA,225658.000,3748.7066,N,12217.6212,W,1,04,2.1,1.2,M,-25.1,M,,0000*60
$GPGSA,A,3,07,32,16,30,,,,,,,,,2.3,2.1,1.0*33
$GPRMC,225658.000,A,3748.7066,N,12217.6212,W,4.01,329.58,060411,,,A*7F
$GPVTG,329.58,T,,M,4.01,N,7.4,K,A*0E
$GPGGA,225659.000,3748.7064,N,12217.6200,W,1,04,2.1,-2.2,M,-25.1,M,,0000*4E
$GPGSA,A,3,07,32,16,30,,,,,,,,,2.3,2.1,1.0*33
$GPGSV,3,1,12,16,48,095,38,32,45,152,35,30,40,066,38,07,20,238,20*76
$GPGSV,3,2,12,23,67,353,32,20,66,189,27,13,40,303,25,04,15,297,27*70
$GPRMC,225659.000,A,3748.7064,N,12217.6200,W,4.29,337.95,060411,,,A*7B
$GPVTG,337.95,T,,M,4.29,N,7.9,K,A*07
$GPGGA,225700.000,3748.7069,N,12217.6195,W,1,04,2.1,-3.5,M,-25.1,M,,0000*47
$GPGSA,A,3,07,32,16,30,,,,,,,,,2.3,2.1,1.0*33
$GPRMC,225700.000,A,3748.7069,N,12217.6195,W,4.11,333.63,060411,,,A*72
$GPVTG,333.63,T,,M,4.11,N,7.6,K,A*0E
$GPGGA,225701.000,3748.7078,N,12217.6197,W,1,04,2.1,-3.2,M,-25.1,M,,0000*43
$GPGSA,A,3,07,32,16,30,,,,,,,,,2.3,2.1,1.0*33
$GPRMC,225701.000,A,3748.7078,N,12217.6197,W,3.67,342.45,060411,,,A*75
$GPVTG,342.45,T,,M,3.67,N,6.8,K,A*05
$GPGGA,225702.000,3748.7086,N,12217.6195,W,1,04,2.1,-3.1,M,-25.1,M,,0000*40
$GPGSA,A,3,07,32,16,30,,,,,,,,,2.3,2.1,1.0*33
$GPRMC,225702.000,A,3748.7086,N,12217.6195,W,3.78,337.24,060411,,,A*7E
$GPVTG,337.24,T,,M,3.78,N,7.0,K,A*07
$GPGGA,225703.000,3748.7094,N,12217.6195,W,1,04,2.1,-3.1,M,-25.1,M,,0000*42
$GPGSA,A,3,07,32,16,30,,,,,,,,,2.3,2.1,1.0*33
$GPRMC,225703.000,A,3748.7094,N,12217.6195,W,4.15,333.04,060411,,,A*76
$GPVTG,333.04,T,,M,4.15,N,7.7,K,A*0A
$GPGGA,225704.000,3748.7102,N,12217.6193,W,1,04,2.1,-3.2,M,-25.1,M,,0000*4E
$GPGSA,A,3,07,32,16,30,,,,,,,,,2.3,2.1,1.0*33
$GPGSV,3,1,12,16,48,095,38,32,45,152,35,30,40,066,33,07,20,238,21*7C
$GPGSV,3,2,12,23,67,353,31,20,66,189,28,13,40,303,25,04,15,297,23*78
$GPGSV,3,3,12,31,08,050,36,24,06,196,25,10,05,319,,03,00,131,*76
$GPRMC,225704.000,A,3748.7102,N,12217.6193,W,3.71,345.47,060411,,,A*7A
$GPVTG,345.47,T,,M,3.71,N,6.9,K,A*06
$GPGGA,225705.000,3748.7108,N,12217.6187,W,1,04,2.1,-3.6,M,-25.1,M,,0000*44
$GPGSA,A,3,07,32,16,30,,,,,,,,,2.3,2.1,1.0*33
$GPRMC,225705.000,A,3748.7108,N,12217.6187,W,2.98,355.94,060411,,,A*7D
$GPVTG,355.94,T,,M,2.98,N,5.5,K,A*00
$GPGGA,225706.000,3748.7115,N,12217.6187,W,1,04,2.1,-3.0,M,-25.1,M,,0000*4D
$GPGSA,A,3,07,32,16,30,,,,,,,,,2.3,2.1,1.0*33
$GPRMC,225706.000,A,3748.7115,N,12217.6187,W,2.74,3.51,060411,,,A*79
$GPVTG,3.51,T,,M,2.74,N,5.1,K,A*0F
$GPGGA,225707.000,3748.7124,N,12217.6188,W,1,04,2.1,-2.1,M,-25.1,M,,0000*41
$GPGSA,A,3,07,32,16,30,,,,,,,,,2.3,2.1,1.0*33
$GPRMC,225707.000,A,3748.7124,N,12217.6188,W,2.79,7.46,060411,,,A*7A
$GPVTG,7.46,T,,M,2.79,N,5.2,K,A*03
$GPGGA,225708.000,3748.7130,N,12217.6179,W,1,04,2.1,-2.5,M,-25.1,M,,0000*41
$GPGSA,A,3,07,32,16,30,,,,,,,,,2.3,2.1,1.0*33
$GPRMC,225708.000,A,3748.7130,N,12217.6179,W,2.88,1.51,060411,,,A*70
$GPVTG,1.51,T,,M,2.88,N,5.3,K,A*0C
$GPGGA,225709.000,3748.7137,N,12217.6176,W,1,04,2.1,-2.5,M,-25.1,M,,0000*48
$GPGSA,A,3,07,32,16,30,,,,,,,,,2.3,2.1,1.0*33
$GPGSV,3,1,12,16,48,095,38,32,45,152,35,30,40,066,38,07,20,238,23*75
$GPGSV,3,2,12,23,67,353,31,20,66,189,28,13,40,303,24,04,15,297,22*78
$GPGSV,3,3,12,31,08,050,35,24,06,196,25,10,05,319,18,03,00,131,*7C
$GPRMC,225709.000,A,3748.7137,N,12217.6176,W,3.03,359.31,060411,,,A*73
$GPVTG,359.31,T,,M,3.03,N,5.6,K,A*03
$GPGGA,225710.000,3748.7145,N,12217.6174,W,1,04,2.1,-2.4,M,-25.1,M,,0000*46
$GPGSA,A,3,07,32,16,30,,,,,,,,,2.3,2.1,1.0*33
$GPRMC,225710.000,A,3748.7145,N,12217.6174,W,3.20,353.57,060411,,,A*77
$GPVTG,353.57,T,,M,3.20,N,5.9,K,A*07
$GPGGA,225711.000,3748.7153,N,12217.6172,W,1,04,2.1,-2.5,M,-25.1,M,,0000*47
$GPGSA,A,3,07,32,16,30,,,,,,,,,2.3,2.1,1.0*33
$GPRMC,225711.000,A,3748.7153,N,12217.6172,W,3.29,347.14,060411,,,A*7C
$GPVTG,347.14,T,,M,3.29,N,6.1,K,A*07
$GPGGA,225712.000,3748.7160,N,12217.6169,W,1,04,2.1,-2.4,M,-25.1,M,,0000*4F
$GPGSA,A,3,07,32,16,30,,,,,,,,,2.3,2.1,1.0*33
$GPRMC,225712.000,A,3748.7160,N,12217.6169,W,3.07,1.01,060411,,,A*7C
$GPVTG,1.01,T,,M,3.07,N,5.7,K,A*0B
$GPGGA,225713.000,3748.7169,N,12217.6170,W,1,04,2.1,-1.9,M,-25.1,M,,0000*41
$GPGSA,A,3,07,32,16,30,,,,,,,,,2.3,2.1,1.0*33
$GPRMC,225713.000,A,3748.7169,N,12217.6170,W,3.17,354.00,060411,,,A*7F
$GPVTG,354.00,T,,M,3.17,N,5.9,K,A*06
$GPGGA,225714.000,3748.7178,N,12217.6170,W,1,04,2.1,-1.6,M,-25.1,M,,0000*49
$GPGSA,A,3,07,32,16,30,,,,,,,,,2.3,2.1,1.0*33
$GPGSV,3,1,12,16,48,095,38,32,45,152,35,30,40,066,38,07,20,238,22*74
$GPGSV,3,2,12,23,67,353,32,20,66,189,28,13,40,303,25,04,15,297,21*79
$GPGSV,3,3,12,31,08,050,37,24,06,196,24,10,05,319,,03,00,131,*76
$GPVTG,355.01,T,,M,3.21,N,5.9,K,A*03
$GPGGA,225715.000,3748.7187,N,12217.6170,W,1,04,2.1,-1.2,M,-25.1,M,,0000*4C
$GPGSA,A,3,07,32,16,30,,,,,,,,,2.3,2.1,1.0*33
$GPRMC,225715.000,A,3748.7187,N,12217.6170,W,3.17,358.36,060411,,,A*70
$GPVTG,358.36,T,,M,3.17,N,5.9,K,A*0F
$GPGGA,225716.000,3748.7196,N,12217.6171,W,1,04,2.1,-0.9,M,-25.1,M,,0000*44
$GPGSA,A,3,07,32,16,30,,,,,,,,,2.3,2.1,1.0*33
$GPRMC,225716.000,A,3748.7196,N,12217.6171,W,3.20,350.52,060411,,,A*7C
$GPVTG,350.52,T,,M,3.20,N,5.9,K,A*01
$GPGGA,225717.000,3748.7201,N,12217.6164,W,1,04,2.1,-1.3,M,-25.1,M,,0000*47
$GPGSA,A,3,07,32,16,30,,,,,,,,,2.3,2.1,1.0*33
$GPRMC,225717.000,A,3748.7201,N,12217.6164,W,3.19,353.55,060411,,,A*7A
$GPVTG,353.55,T,,M,3.19,N,5.9,K,A*0F
$GPGGA,225718.000,3748.7210,N,12217.6162,W,1,04,2.1,-1.1,M,-25.1,M,,0000*4C
$GPGSA,A,3,07,32,16,30,,,,,,,,,2.3,2.1,1.0*33
$GPRMC,225718.000,A,3748.7210,N,12217.6162,W,3.31,352.94,060411,,,A*75
$GPVTG,352.94,T,,M,3.31,N,6.1,K,A*02
$GPGGA,225719.000,3748.7217,N,12217.6159,W,1,04,2.1,-1.3,M,-25.1,M,,0000*40
$GPGSA,A,3,07,32,16,30,,,,,,,,,2.3,2.1,1.0*33
$GPGSV,3,1,12,23,67,354,31,20,65,189,28,16,48,095,39,32,45,152,35*7E
$GPGSV,3,2,12,13,40,304,25,30,40,066,39,07,20,238,22,04,15,297,21*73
$GPGSV,3,3,12,31,08,050,37,24,05,196,20,10,05,319,21,03,00,131,*72
$GPRMC,225719.000,A,3748.7217,N,12217.6159,W,3.27,346.27,060411,,,A*71
$GPVTG,346.27,T,,M,3.27,N,6.0,K,A*09
$GPGGA,225720.000,3748.7225,N,12217.6161,W,1,04,2.1,-1.0,M,-25.1,M,,0000*43
$GPGSA,A,3,07,32,16,30,,,,,,,,,2.3,2.1,1.0*33
$GPRMC,225720.000,A,3748.7225,N,12217.6161,W,3.49,340.50,060411,,,A*7F
$GPVTG,340.50,T,,M,3.49,N,6.5,K,A*02
$GPGGA,225721.000,3748.7234,N,12217.6163,W,1,04,2.1,-0.9,M,-25.1,M,,0000*48
$GPGSA,A,3,07,32,16,30,,,,,,,,,2.3,2.1,1.0*33
$GPRMC,225721.000,A,3748.7234,N,12217.6163,W,3.77,337.31,060411,,,A*76
$GPVTG,337.31,T,,M,3.77,N,7.0,K,A*0C
$GPGGA,225722.000,3748.7244,N,12217.6166,W,1,04,2.1,-0.5,M,-25.1,M,,0000*45
$GPGSA,A,3,07,32,16,30,,,,,,,,,2.3,2.1,1.0*33
$GPRMC,225722.000,A,3748.7244,N,12217.6166,W,3.60,344.82,060411,,,A*7D
$GPVTG,344.82,T,,M,3.60,N,6.7,K,A*00
$GPGGA,225723.000,3748.7252,N,12217.6166,W,1,04,2.1,-0.3,M,-25.1,M,,0000*45
$GPGSA,A,3,07,32,16,30,,,,,,,,,2.3,2.1,1.0*33
$GPRMC,225723.000,A,3748.7252,N,12217.6166,W,3.57,344.86,060411,,,A*7B
$GPVTG,344.86,T,,M,3.57,N,6.6,K,A*01
$GPGGA,225724.000,3748.7260,N,12217.6164,W,1,04,2.1,-0.2,M,-25.1,M,,0000*40
$GPGSA,A,3,07,32,16,30,,,,,,,,,2.3,2.1,1.0*33
$GPGSV,3,1,12,23,67,354,31,20,65,189,24,16,48,095,38,32,45,152,34*72
$GPGSV,3,2,12,13,40,304,24,30,40,066,39,07,20,238,21,04,15,297,22*72
$GPGSV,3,3,12,31,08,050,40,24,05,196,21,10,05,319,20,03,00,131,*72
$GPRMC,225724.000,A,3748.7260,N,12217.6164,W,3.38,346.73,060411,,,A*7E
$GPVTG,346.73,T,,M,3.38,N,6.3,K,A*05
$GPGGA,225725.000,3748.7266,N,12217.6158,W,1,04,2.1,-0.5,M,-25.1,M,,0000*4F
$GPGSA,A,3,07,32,16,30,,,,,,,,,2.3,2.1,1.0*33
$GPRMC,225725.000,A,3748.7266,N,12217.6158,W,3.14,352.78,060411,,,A*76
$GPVTG,352.78,T,,M,3.14,N,5.8,K,A*0D
$GPGGA,225726.000,3748.7273,N,12217.6153,W,1,04,2.1,-0.6,M,-25.1,M,,0000*40
$GPGSA,A,3,07,32,16,30,,,,,,,,,2.3,2.1,1.0*33
$GPRMC,225726.000,A,3748.7273,N,12217.6153,W,3.21,350.29,060411,,,A*7A
$GPVTG,350.29,T,,M,3.21,N,5.9,K,A*0C
$GPGGA,225727.000,3748.7278,N,12217.6145,W,1,04,2.1,-1.0,M,-25.1,M,,0000*4A
$GPGSA,A,3,07,32,16,30,,,,,,,,,2.3,2.1,1.0*33
$GPRMC,225727.000,A,3748.7278,N,12217.6145,W,3.09,353.22,060411,,,A*75
$GPVTG,353.22,T,,M,3.09,N,5.7,K,A*00
$GPGGA,225728.000,3748.7286,N,12217.6145,W,1,04,2.1,-0.8,M,-25.1,M,,0000*4D
$GPGSA,A,3,07,32,16,30,,,,,,,,,2.3,2.1,1.0*33
$GPRMC,225728.000,A,3748.7286,N,12217.6145,W,3.25,349.72,060411,,,A*7B
$GPVTG,349.72,T,,M,3.25,N,6.0,K,A*04
$GPGGA,225729.000,3748.7296,N,12217.6147,W,1,04,2.1,-0.4,M,-25.1,M,,0000*43
$GPGSA,A,3,07,32,16,30,,,,,,,,,2.3,2.1,1.0*33
$GPGSV,3,1,12,23,67,354,30,20,65,189,25,16,48,095,38,32,45,152,34*72
$GPGSV,3,2,12,13,40,304,23,30,40,066,38,07,20,238,21,04,15,297,22*74
$GPGSV,3,3,12,31,08,050,35,24,05,196,26,10,05,319,19,03,00,131,*7D
$GPRMC,225729.000,A,3748.7296,N,12217.6147,W,3.74,344.12,060411,,,A*76
$GPGGA,225730.000,3748.7306,N,12217.6151,W,1,04,2.1,0.0,M,-25.1,M,,0000*6D
$GPGSA,A,3,07,32,16,30,,,,,,,,,2.3,2.1,1.0*33
$GPRMC,225730.000,A,3748.7306,N,12217.6151,W,3.69,339.17,060411,,,A*72
$GPVTG,339.17,T,,M,3.69,N,6.8,K,A*00
$GPGGA,225731.000,3748.7315,N,12217.6153,W,1,04,2.1,0.4,M,-25.1,M,,0000*68
$GPGSA,A,3,07,32,16,30,,,,,,,,,2.3,2.1,1.0*33
$GPRMC,225731.000,A,3748.7315,N,12217.6153,W,3.45,345.20,060411,,,A*72
$GPVTG,345.20,T,,M,3.45,N,6.4,K,A*0D
$GPGGA,225732.000,3748.7324,N,12217.6153,W,1,04,2.1,0.8,M,-25.1,M,,0000*65
$GPGSA,A,3,07,32,16,30,,,,,,,,,2.3,2.1,1.0*33
$GPRMC,225732.000,A,3748.7324,N,12217.6153,W,3.44,347.89,060411,,,A*73
$GPVTG,347.89,T,,M,3.44,N,6.4,K,A*0D
$GPGGA,225733.000,3748.7333,N,12217.6155,W,1,04,2.1,1.1,M,-25.1,M,,0000*6C
$GPGSA,A,3,07,32,16,30,,,,,,,,,2.3,2.1,1.0*33
$GPRMC,225733.000,A,3748.7333,N,12217.6155,W,3.66,340.39,060411,,,A*7E
$GPVTG,340.39,T,,M,3.66,N,6.8,K,A*0D
$GPGGA,225734.000,3748.7342,N,12217.6156,W,1,04,2.1,1.4,M,-25.1,M,,0000*6B
$GPGSA,A,3,07,32,16,30,,,,,,,,,2.3,2.1,1.0*33
$GPGSV,3,1,12,23,67,354,30,20,65,189,25,16,48,095,37,32,45,152,34*7D
$GPGSV,3,2,12,13,40,304,22,30,40,066,38,07,20,238,20,04,15,297,21*77
$GPGSV,3,3,12,31,08,050,37,24,05,196,25,10,05,319,18,03,00,131,*7D
$GPRMC,225734.000,A,3748.7342,N,12217.6156,W,3.66,340.71,060411,,,A*70
$GPVTG,340.71,T,,M,3.66,N,6.8,K,A*01
$GPGGA,225735.000,3748.7350,N,12217.6156,W,1,04,2.1,1.7,M,-25.1,M,,0000*6A
$GPGSA,A,3,07,32,16,30,,,,,,,,,2.3,2.1,1.0*33
$GPRMC,225735.000,A,3748.7350,N,12217.6156,W,3.40,346.63,060411,,,A*73
$GPVTG,346.63,T,,M,3.40,N,6.3,K,A*0B
$GPGGA,225736.000,3748.7354,N,12217.6142,W,1,04,2.1,0.9,M,-25.1,M,,0000*67
$GPGSA,A,3,07,32,16,30,,,,,,,,,2.3,2.1,1.0*33
$GPRMC,225736.000,A,3748.7354,N,12217.6142,W,3.32,351.28,060411,,,A*7D
$GPVTG,351.28,T,,M,3.32,N,6.2,K,A*06
$GPGGA,225737.000,3748.7360,N,12217.6135,W,1,04,2.1,0.6,M,-25.1,M,,0000*6E
$GPGSA,A,3,07,32,16,30,,,,,,,,,2.3,2.1,1.0*33
$GPRMC,225737.000,A,3748.7360,N,12217.6135,W,3.43,348.02,060411,,,A*7D
$GPVTG,348.02,T,,M,3.43,N,6.3,K,A*01
$GPGGA,225738.000,3748.7366,N,12217.6128,W,1,04,2.1,0.3,M,-25.1,M,,0000*6E
$GPGSA,A,3,07,32,16,30,,,,,,,,,2.3,2.1,1.0*33
$GPRMC,225738.000,A,3748.7366,N,12217.6128,W,3.34,352.35,060411,,,A*77
$GPVTG,352.35,T,,M,3.34,N,6.2,K,A*0F
$GPGGA,225739.000,3748.7371,N,12217.6117,W,1,04,2.1,-0.2,M,-25.1,M,,0000*49
$GPGSA,A,3,07,32,16,30,,,,,,,,,2.3,2.1,1.0*33
$GPGSV,3,1,12,23,67,354,30,20,65,189,25,16,48,095,37,32,45,152,34*7D
$GPGSV,3,2,12,13,40,304,23,30,40,066,39,07,20,238,21,04,15,297,16*72
$GPGSV,3,3,12,31,08,050,35,24,05,196,25,10,05,319,16,03,00,131,*71
$GPRMC,225739.000,A,3748.7371,N,12217.6117,W,2.90,0.13,060411,,,A*73
$GPVTG,0.13,T,,M,2.90,N,5.4,K,A*05
$GPGGA,225740.000,3748.7377,N,12217.6112,W,1,04,2.1,-0.2,M,-25.1,M,,0000*44
$GPGSA,A,3,07,32,16,30,,,,,,,,,2.3,2.1,1.0*33
$GPRMC,225740.000,A,3748.7377,N,12217.6112,W,2.95,357.45,060411,,,A*79
$GPVTG,357.45,T,,M,2.95,N,5.5,K,A*03
$GPGGA,225741.000,3748.7385,N,12217.6111,W,1,04,2.1,0.1,M,-25.1,M,,0000*65
$GPGSA,A,3,07,32,16,30,,,,,,,,,2.3,2.1,1.0*33
$GPRMC,225741.000,A,3748.7385,N,12217.6111,W,3.15,352.42,060411,,,A*7D
$GPVTG,352.42,T,,M,3.15,N,5.8,K,A*05
$GPGGA,225742.000,3748.7393,N,12217.6109,W,1,04,2.1,0.5,M,-25.1,M,,0000*6C
$GPGSA,A,3,07,32,16,30,,,,,,,,,2.3,2.1,1.0*33
$GPRMC,225742.000,A,3748.7393,N,12217.6109,W,2.96,1.84,060411,,,A*75
$GPVTG,1.84,T,,M,2.96,N,5.5,K,A*0D
$GPGGA,225743.000,3748.7400,N,12217.6105,W,1,04,2.1,0.6,M,-25.1,M,,0000*6F
$GPGSA,A,3,07,32,16,30,,,,,,,,,2.3,2.1,1.0*33
$GPRMC,225743.000,A,3748.7400,N,12217.6105,W,2.81,7.00,060411,,,A*79
$GPVTG,7.00,T,,M,2.81,N,5.2,K,A*06
$GPGGA,225744.000,3748.7408,N,12217.6103,W,1,04,2.1,0.9,M,-25.1,M,,0000*69
$GPGSA,A,3,07,32,16,30,,,,,,,,,2.3,2.1,1.0*33
$GPGSV,3,1,12,23,67,354,31,20,65,189,25,16,48,095,37,32,45,152,34*7C
$GPGSV,3,2,12,13,40,304,23,30,40,066,39,07,20,238,21,04,15,297,16*72
$GPGSV,3,3,12,31,08,050,40,24,05,196,20,10,05,319,16,03,00,131,*76
$GPRMC,225744.000,A,3748.7408,N,12217.6103,W,2.95,356.91,060411,,,A*7A
$GPGGA,225745.000,3748.7416,N,12217.6102,W,1,04,2.1,1.2,M,-25.1,M,,0000*6C
$GPGSA,A,3,07,32,16,30,,,,,,,,,2.3,2.1,1.0*33
$GPRMC,225745.000,A,3748.7416,N,12217.6102,W,3.13,351.26,060411,,,A*71
$GPVTG,351.26,T,,M,3.13,N,5.8,K,A*02
$GPGGA,225746.000,3748.7425,N,12217.6105,W,1,04,2.1,1.6,M,-25.1,M,,0000*6C
$GPGSA,A,3,07,32,16,30,,,,,,,,,2.3,2.1,1.0*33
$GPRMC,225746.000,A,3748.7425,N,12217.6105,W,3.48,342.04,060411,,,A*79
$GPVTG,342.04,T,,M,3.48,N,6.4,K,A*01
$GPGGA,225747.000,3748.7434,N,12217.6105,W,1,04,2.1,1.9,M,-25.1,M,,0000*62
$GPGSA,A,3,07,32,16,30,,,,,,,,,2.3,2.1,1.0*33
$GPRMC,225747.000,A,3748.7434,N,12217.6105,W,3.46,347.26,060411,,,A*73
$GPVTG,347.26,T,,M,3.46,N,6.4,K,A*0A
$GPGGA,225748.000,3748.7442,N,12217.6103,W,1,04,2.1,2.3,M,-25.1,M,,0000*63
$GPGSA,A,3,07,32,16,30,,,,,,,,,2.3,2.1,1.0*33
$GPRMC,225748.000,A,3748.7442,N,12217.6103,W,3.08,357.64,060411,,,A*76
$GPVTG,357.64,T,,M,3.08,N,5.7,K,A*07
$GPGGA,225749.000,3748.7449,N,12217.6100,W,1,04,2.1,2.6,M,-25.1,M,,0000*6F
$GPGSA,A,3,07,32,16,30,,,,,,,,,2.3,2.1,1.0*33
$GPGSV,3,1,12,23,67,354,31,20,65,188,25,16,48,095,37,32,45,153,33*7B
$GPGSV,3,2,12,13,41,304,21,30,40,066,39,07,20,238,20,04,15,297,16*70
$GPGSV,3,3,12,31,08,050,40,24,05,196,20,10,05,319,15,03,00,131,*75
$GPRMC,225749.000,A,3748.7449,N,12217.6100,W,3.00,4.69,060411,,,A*7F
$GPVTG,4.69,T,,M,3.00,N,5.6,K,A*06
$GPGGA,225750.000,3748.7457,N,12217.6096,W,1,04,2.1,2.8,M,-25.1,M,,0000*68
$GPGSA,A,3,07,32,16,30,,,,,,,,,2.3,2.1,1.0*33
$GPRMC,225750.000,A,3748.7457,N,12217.6096,W,3.04,358.11,060411,,,A*77
$GPVTG,358.11,T,,M,3.04,N,5.6,K,A*07
$GPGGA,225751.000,3748.7465,N,12217.6094,W,1,04,2.1,3.0,M,-25.1,M,,0000*63
$GPGSA,A,3,07,32,16,30,,,,,,,,,2.3,2.1,1.0*33
$GPRMC,225751.000,A,3748.7465,N,12217.6094,W,3.17,350.21,060411,,,A*7C
$GPVTG,350.21,T,,M,3.17,N,5.9,K,A*01
$GPGGA,225752.000,3748.7471,N,12217.6087,W,1,04,2.1,3.1,M,-25.1,M,,0000*66
$GPGSA,A,3,07,32,16,30,,,,,,,,,2.3,2.1,1.0*33
$GPRMC,225752.000,A,3748.7471,N,12217.6087,W,3.09,0.62,060411,,,A*76
$GPVTG,0.62,T,,M,3.09,N,5.7,K,A*01
$GPGGA,225753.000,3748.7478,N,12217.6083,W,1,04,2.1,3.2,M,-25.1,M,,0000*69
$GPGSA,A,3,07,32,16,30,,,,,,,,,2.3,2.1,1.0*33
$GPRMC,225753.000,A,3748.7478,N,12217.6083,W,2.97,1.08,060411,,,A*71
$GPVTG,1.08,T,,M,2.97,N,5.5,K,A*08
$GPGGA,225754.000,3748.7486,N,12217.6081,W,1,04,2.1,3.5,M,-25.1,M,,0000*6A
$GPGSA,A,3,07,32,16,30,,,,,,,,,2.3,2.1,1.0*33
$GPGSV,3,1,12,23,67,354,31,20,65,188,26,16,48,095,37,32,45,153,33*78
$GPGSV,3,2,12,13,41,304,21,30,40,066,39,07,20,238,19,04,15,297,17*7B
$GPGSV,3,3,12,31,08,050,41,24,05,196,22,10,05,319,15,03,00,131,*76
$GPRMC,225754.000,A,3748.7486,N,12217.6081,W,3.05,352.17,060411,,,A*74
$GPVTG,352.17,T,,M,3.05,N,5.7,K,A*0B
$GPGGA,225755.000,3748.7494,N,12217.6079,W,1,04,2.1,3.7,M,-25.1,M,,0000*6D
$GPGSA,A,3,07,32,16,30,,,,,,,,,2.3,2.1,1.0*33
$GPRMC,225755.000,A,3748.7494,N,12217.6079,W,3.09,351.98,060411,,,A*79
$GPVTG,351.98,T,,M,3.09,N,5.7,K,A*03
$GPGGA,225756.000,3748.7501,N,12217.6077,W,1,04,2.1,3.9,M,-25.1,M,,0000*63
$GPGSA,A,3,07,32,16,30,,,,,,,,,2.3,2.1,1.0*33
$GPRMC,225756.000,A,3748.7501,N,12217.6077,W,3.33,344.56,060411,,,A*76
$GPVTG,344.56,T,,M,3.33,N,6.2,K,A*0A
$GPGGA,225757.000,3748.7473,N,12217.6004,W,1,05,1.7,-19.9,M,-25.1,M,,0000*70
$GPGSA,A,3,07,32,16,30,23,,,,,,,,3.6,1.7,3.2*33
$GPRMC,225757.000,A,3748.7473,N,12217.6004,W,2.55,10.00,060411,,,A*47
$GPVTG,10.00,T,,M,2.55,N,4.7,K,A*3D
$GPGGA,225758.000,3748.7474,N,12217.5986,W,1,05,1.7,-22.6,M,-25.1,M,,0000*7F
$GPGSA,A,3,07,32,16,30,23,,,,,,,,3.6,1.7,3.2*33
$GPRMC,225758.000,A,3748.7474,N,12217.5986,W,2.78,28.18,060411,,,A*42
$GPVTG,28.18,T,,M,2.78,N,5.2,K,A*34
$GPGGA,225759.000,3748.7479,N,12217.5974,W,1,05,1.7,-23.0,M,-25.1,M,,0000*79
$GPGSA,A,3,07,32,16,30,23,,,,,,,,3.6,1.7,3.2*33
$GPGSV,3,1,12,23,67,354,31,20,65,188,26,16,48,094,37,32,45,153,34*7E
$GPGSV,3,2,12,13,41,304,21,30,40,066,38,07,20,238,20,04,15,297,16*71
$GPGSV,3,3,12,31,08,050,38,24,05,196,24,10,05,319,15,03,00,131,*7E
$GPRMC,225759.000,A,3748.7479,N,12217.5974,W,2.62,23.83,060411,,,A*41
$GPGGA,225800.000,3748.7482,N,12217.5970,W,1,04,2.1,-23.3,M,-25.1,M,,0000*7D
$GPGSA,A,3,32,16,30,23,,,,,,,,,2.3,2.1,1.0*35
$GPRMC,225800.000,A,3748.7482,N,12217.5970,W,2.35,21.05,060411,,,A*4C
$GPVTG,21.05,T,,M,2.35,N,4.3,K,A*38
$GPGGA,225801.000,3748.7488,N,12217.5966,W,1,05,1.7,-20.6,M,-25.1,M,,0000*73
$GPGSA,A,3,07,32,16,30,23,,,,,,,,3.6,1.7,3.2*33
$GPRMC,225801.000,A,3748.7488,N,12217.5966,W,2.39,15.67,060411,,,A*4F
$GPVTG,15.67,T,,M,2.39,N,4.4,K,A*30
$GPGGA,225802.000,3748.7494,N,12217.5967,W,1,04,2.1,-20.0,M,-25.1,M,,0000*7E
$GPGSA,A,3,32,16,30,23,,,,,,,,,2.3,2.1,1.0*35
$GPRMC,225802.000,A,3748.7494,N,12217.5967,W,2.09,15.96,060411,,,A*4D
$GPVTG,15.96,T,,M,2.09,N,3.9,K,A*37
$GPGGA,225803.000,3748.7498,N,12217.5967,W,1,04,2.1,-19.6,M,-25.1,M,,0000*7F
$GPGSA,A,3,32,16,30,23,,,,,,,,,2.3,2.1,1.0*35
$GPRMC,225803.000,A,3748.7498,N,12217.5967,W,1.88,14.09,060411,,,A*4D
$GPVTG,14.09,T,,M,1.88,N,3.5,K,A*36
$GPGGA,225804.000,3748.7503,N,12217.5967,W,1,04,2.1,-19.3,M,-25.1,M,,0000*7E
$GPGSA,A,3,32,16,30,23,,,,,,,,,2.3,2.1,1.0*35
$GPGSV,3,1,12,23,67,354,30,20,65,188,33,16,48,094,35,32,45,153,31*7C
$GPGSV,3,2,12,13,41,304,16,30,40,066,36,07,20,238,17,04,15,297,14*7D
$GPGSV,3,3,12,31,08,050,34,24,05,196,18,10,05,319,,03,00,131,*79
$GPRMC,225804.000,A,3748.7503,N,12217.5967,W,1.88,11.82,060411,,,A*4F
$GPVTG,11.82,T,,M,1.88,N,3.5,K,A*30
$GPGGA,225805.000,3748.7507,N,12217.5967,W,1,04,2.1,-19.2,M,-25.1,M,,0000*7A
$GPGSA,A,3,32,16,30,23,,,,,,,,,2.3,2.1,1.0*35
$GPRMC,225805.000,A,3748.7507,N,12217.5967,W,1.96,11.76,060411,,,A*4E
$GPVTG,11.76,T,,M,1.96,N,3.6,K,A*37
$GPGGA,225806.000,3748.7512,N,12217.5967,W,1,04,2.1,-19.3,M,-25.1,M,,0000*7C
$GPGSA,A,3,32,16,30,23,,,,,,,,,2.3,2.1,1.0*35
$GPRMC,225806.000,A,3748.7512,N,12217.5967,W,1.99,11.46,060411,,,A*45
$GPVTG,11.46,T,,M,1.99,N,3.7,K,A*3A
$GPGGA,225807.000,3748.7517,N,12217.5967,W,1,04,2.1,-19.4,M,-25.1,M,,0000*7F
$GPGSA,A,3,32,16,30,23,,,,,,,,,2.3,2.1,1.0*35
$GPRMC,225807.000,A,3748.7517,N,12217.5967,W,2.00,12.32,060411,,,A*42
$GPVTG,12.32,T,,M,2.00,N,3.7,K,A*39
$GPGGA,225808.000,3748.7522,N,12217.5965,W,1,04,2.1,-19.6,M,-25.1,M,,0000*76
$GPGSA,A,3,32,16,30,23,,,,,,,,,2.3,2.1,1.0*35
$GPRMC,225808.000,A,3748.7522,N,12217.5965,W,2.07,17.64,060411,,,A*48
$GPVTG,17.64,T,,M,2.07,N,3.8,K,A*37
$GPGGA,225809.000,3748.7527,N,12217.5963,W,1,04,2.1,-19.8,M,-25.1,M,,0000*7A
$GPGSA,A,3,32,16,30,23,,,,,,,,,2.3,2.1,1.0*35
$GPGSV,3,1,12,23,67,354,30,20,65,188,30,16,48,094,33,32,45,153,31*79
$GPGSV,3,2,12,13,41,304,,30,40,066,37,07,20,238,16,04,15,297,14*7A
$GPGSV,3,3,12,31,08,050,27,24,05,196,,10,05,319,,03,00,131,*72
$GPRMC,225809.000,A,3748.7527,N,12217.5963,W,2.08,15.57,060411,,,A*47
$GPVTG,15.57,T,,M,2.08,N,3.8,K,A*3A
$GPGGA,225810.000,3748.7537,N,12217.5964,W,1,04,2.1,-19.4,M,-25.1,M,,0000*78
$GPGSA,A,3,32,16,30,23,,,,,,,,,2.3,2.1,1.0*35
$GPRMC,225810.000,A,3748.7537,N,12217.5964,W,2.38,14.50,060411,,,A*4C
$GPVTG,14.50,T,,M,2.38,N,4.4,K,A*34
$GPGGA,225811.000,3748.7543,N,12217.5956,W,1,04,2.1,-20.4,M,-25.1,M,,0000*71
$GPGSA,A,3,32,16,30,23,,,,,,,,,2.3,2.1,1.0*35
$GPRMC,225811.000,A,3748.7543,N,12217.5956,W,2.65,19.46,060411,,,A*4D
$GPVTG,19.46,T,,M,2.65,N,4.9,K,A*3B
$GPGGA,225812.000,3748.7554,N,12217.5949,W,1,04,2.1,-21.6,M,-25.1,M,,0000*79
$GPGSA,A,3,32,16,30,23,,,,,,,,,2.3,2.1,1.0*35
$GPRMC,225812.000,A,3748.7554,N,12217.5949,W,2.92,6.16,060411,,,A*75
$GPVTG,6.16,T,,M,2.92,N,5.4,K,A*04
$GPGGA,225813.000,3748.7565,N,12217.5940,W,1,05,1.7,-21.0,M,-25.1,M,,0000*71
$GPGSA,A,3,07,32,16,30,23,,,,,,,,3.6,1.7,3.2*33
$GPRMC,225813.000,A,3748.7565,N,12217.5940,W,3.04,13.42,060411,,,A*44
$GPVTG,13.42,T,,M,3.04,N,5.6,K,A*3D
$GPGGA,225814.000,3748.7577,N,12217.5933,W,1,04,2.1,-22.2,M,-25.1,M,,0000*74
$GPGSA,A,3,32,16,30,23,,,,,,,,,2.3,2.1,1.0*35
$GPGSV,3,1,12,23,67,354,21,20,65,188,16,16,48,094,29,32,45,153,21*77
$GPGSV,3,2,12,13,41,304,,30,40,066,31,07,20,238,,04,15,297,*7E
$GPGSV,3,3,12,31,08,050,23,24,05,196,,10,05,319,,03,00,131,*76
$GPRMC,225814.000,A,3748.7577,N,12217.5933,W,3.25,23.79,060411,,,A*4C
$GPVTG,23.79,T,,M,3.25,N,6.0,K,A*30
$GPGGA,225815.000,3748.7580,N,12217.5923,W,1,04,2.1,-23.4,M,-25.1,M,,0000*7B
$GPGSA,A,3,32,16,30,23,,,,,,,,,2.3,2.1,1.0*35
$GPRMC,225815.000,A,3748.7580,N,12217.5923,W,2.45,34.92,060411,,,A*40
$GPVTG,34.92,T,,M,2.45,N,4.5,K,A*33
$GPGGA,225816.000,3748.7587,N,12217.5922,W,1,04,2.1,-23.3,M,-25.1,M,,0000*79
$GPGSA,A,3,32,16,30,23,,,,,,,,,2.3,2.1,1.0*35
$GPRMC,225816.000,A,3748.7587,N,12217.5922,W,1.87,10.45,060411,,,A*44
$GPVTG,10.45,T,,M,1.87,N,3.5,K,A*35
$GPGGA,225817.000,3748.7590,N,12217.5913,W,1,04,2.1,-24.1,M,-25.1,M,,0000*79
$GPGSA,A,3,32,16,30,23,,,,,,,,,2.3,2.1,1.0*35
$GPRMC,225817.000,A,3748.7590,N,12217.5913,W,2.08,33.59,060411,,,A*49
$GPVTG,33.59,T,,M,2.08,N,3.9,K,A*31
$GPGGA,225818.000,3748.7597,N,12217.5907,W,1,04,2.1,-25.0,M,-25.1,M,,0000*74
$GPGSA,A,3,32,16,30,23,,,,,,,,,2.3,2.1,1.0*35
$GPRMC,225818.000,A,3748.7597,N,12217.5907,W,2.55,27.81,060411,,,A*4C
$GPVTG,27.81,T,,M,2.55,N,4.7,K,A*30
$GPGGA,225819.000,3748.7600,N,12217.5894,W,1,04,2.1,-25.1,M,-25.1,M,,0000*72
$GPGSA,A,3,32,16,30,23,,,,,,,,,2.3,2.1,1.0*35
$GPGSV,3,1,12,23,67,354,22,20,65,188,16,16,48,094,24,32,45,153,20*78
$GPGSV,3,2,12,13,41,304,18,30,40,066,27,07,20,238,,04,15,297,*70
$GPGSV,3,3,12,31,08,050,23,24,05,196,,10,05,319,,03,00,131,*76
$GPRMC,225819.000,A,3748.7600,N,12217.5894,W,3.14,34.57,060411,,,A*46
$GPVTG,34.57,T,,M,3.14,N,5.8,K,A*33
$GPGGA,225820.000,3748.7607,N,12217.5895,W,1,04,2.1,-24.7,M,-25.1,M,,0000*79
$GPGSA,A,3,32,16,30,23,,,,,,,,,2.3,2.1,1.0*35
$GPRMC,225820.000,A,3748.7607,N,12217.5895,W,3.24,32.05,060411,,,A*48
$GPVTG,32.05,T,,M,3.24,N,6.0,K,A*3A
$GPGGA,225821.000,3748.7619,N,12217.5898,W,1,04,2.1,-25.5,M,-25.1,M,,0000*79
$GPGSA,A,3,32,16,30,23,,,,,,,,,2.3,2.1,1.0*35
$GPRMC,225821.000,A,3748.7619,N,12217.5898,W,3.29,30.86,060411,,,A*4F
$GPVTG,30.86,T,,M,3.29,N,6.1,K,A*3F
$GPGGA,225822.000,3748.7626,N,12217.5893,W,1,04,2.1,-25.8,M,-25.1,M,,0000*70
$GPGSA,A,3,32,16,30,23,,,,,,,,,2.3,2.1,1.0*35
$GPRMC,225822.000,A,3748.7626,N,12217.5893,W,2.46,47.79,060411,,,A*43
$GPVTG,47.79,T,,M,2.46,N,4.6,K,A*32
$GPGGA,225823.000,3748.7632,N,12217.5885,W,1,03,11.7,-25.1,M,-25.1,M,,0000*49
$GPGSA,A,2,32,16,30,,,,,,,,,,11.8,11.7,1.0*38
$GPRMC,225823.000,A,3748.7632,N,12217.5885,W,2.78,38.04,060411,,,A*4F
$GPVTG,38.04,T,,M,2.78,N,5.1,K,A*3B
$GPGGA,225824.000,3748.7637,N,12217.5875,W,1,03,11.7,-24.7,M,-25.1,M,,0000*43
$GPGSA,A,2,32,16,30,,,,,,,,,,11.8,11.7,1.0*38
$GPGSV,3,1,12,23,67,354,16,20,65,188,18,16,48,094,25,32,45,153,22*72
$GPGSV,3,2,12,13,41,304,16,30,40,066,21,07,20,238,,04,15,297,*78
$GPGSV,3,3,12,31,08,050,18,24,05,196,,10,05,319,,03,00,131,*7E
$GPRMC,225824.000,A,3748.7637,N,12217.5875,W,1.82,58.93,060411,,,A*4C
$GPVTG,58.93,T,,M,1.82,N,3.4,K,A*36
$GPGGA,225825.000,3748.7643,N,12217.5867,W,1,03,11.7,-24.6,M,-25.1,M,,0000*43
$GPGSA,A,2,32,16,30,,,,,,,,,,11.8,11.7,1.0*38
$GPRMC,225825.000,A,3748.7643,N,12217.5867,W,1.08,80.00,060411,,,A*40
$GPVTG,80.00,T,,M,1.08,N,2.0,K,A*3E
$GPGGA,225826.000,3748.7660,N,12217.5913,W,1,04,2.1,-24.3,M,-25.1,M,,0000*75
$GPGSA,A,3,32,16,30,23,,,,,,,,,2.3,2.1,1.0*35
$GPRMC,225826.000,A,3748.7660,N,12217.5913,W,3.20,306.55,060411,,,A*75
$GPVTG,306.55,T,,M,3.20,N,5.9,K,A*05
$GPGGA,225827.000,3748.7668,N,12217.5933,W,1,04,2.1,-24.5,M,-25.1,M,,0000*78
$GPGSA,A,3,32,16,30,23,,,,,,,,,2.3,2.1,1.0*35
$GPRMC,225827.000,A,3748.7668,N,12217.5933,W,4.39,310.09,060411,,,A*7F
$GPVTG,310.09,T,,M,4.39,N,8.1,K,A*01
$GPGGA,225828.000,3748.7673,N,12217.5943,W,1,05,1.7,-21.8,M,-25.1,M,,0000*76
$GPGSA,A,3,07,32,16,30,23,,,,,,,,3.6,1.7,3.2*33
$GPRMC,225828.000,A,3748.7673,N,12217.5943,W,4.08,315.16,060411,,,A*74
$GPVTG,315.16,T,,M,4.08,N,7.6,K,A*00
$GPGGA,225829.000,3748.7670,N,12217.5917,W,1,04,2.1,-16.6,M,-25.1,M,,0000*7B
$GPGSA,A,3,07,32,16,30,,,,,,,,,2.3,2.1,1.0*33
$GPGSV,3,1,12,23,67,354,15,20,65,188,18,16,48,094,20,32,45,153,24*72
$GPGSV,3,2,12,13,41,304,17,30,40,066,23,07,20,238,23,04,15,297,*7A
$GPGSV,3,3,12,31,08,050,18,24,05,196,,10,05,319,,03,00,131,*7E
$GPRMC,225829.000,A,3748.7670,N,12217.5917,W,2.61,314.25,060411,,,A*7F
$GPGGA,225830.000,3748.7666,N,12217.5894,W,1,04,2.1,-12.4,M,-25.1,M,,0000*78
$GPGSA,A,3,07,32,16,30,,,,,,,,,2.3,2.1,1.0*33
$GPRMC,225830.000,A,3748.7666,N,12217.5894,W,1.16,353.65,060411,,,A*7E
$GPVTG,353.65,T,,M,1.16,N,2.1,K,A*0E
$GPGGA,225831.000,3748.7660,N,12217.5866,W,1,04,2.1,-7.9,M,-25.1,M,,0000*4B
$GPGSA,A,3,07,32,16,30,,,,,,,,,2.3,2.1,1.0*33
$GPRMC,225831.000,A,3748.7660,N,12217.5866,W,1.79,51.95,060411,,,A*43
$GPVTG,51.95,T,,M,1.79,N,3.3,K,A*3A
$GPGGA,225832.000,3748.7663,N,12217.5859,W,1,05,1.7,-4.4,M,-25.1,M,,0000*4D
$GPGSA,A,3,07,32,16,30,23,,,,,,,,3.6,1.7,3.2*33
$GPRMC,225832.000,A,3748.7663,N,12217.5859,W,2.11,73.17,060411,,,A*48
$GPVTG,73.17,T,,M,2.11,N,3.9,K,A*37
$GPGGA,225833.000,3748.7661,N,12217.5845,W,1,05,1.7,0.5,M,-25.1,M,,0000*6B
$GPGSA,A,3,07,32,16,30,23,,,,,,,,3.6,1.7,3.2*33
$GPRMC,225833.000,A,3748.7661,N,12217.5845,W,2.26,85.76,060411,,,A*4C
$GPVTG,85.76,T,,M,2.26,N,4.2,K,A*31
$GPGGA,225834.000,3748.7654,N,12217.5826,W,1,05,1.7,2.5,M,-25.1,M,,0000*6D
$GPGSA,A,3,07,32,16,30,23,,,,,,,,3.6,1.7,3.2*33
$GPGSV,3,1,12,23,67,354,14,20,65,188,17,16,48,094,22,32,45,153,23*79
$GPGSV,3,2,12,13,41,304,16,30,40,066,23,07,20,238,25,04,15,297,*7D
$GPGSV,3,3,12,31,08,050,17,24,05,196,,10,05,319,,03,00,131,*71
$GPRMC,225834.000,A,3748.7654,N,12217.5826,W,2.31,83.69,060411,,,A*46
$GPVTG,83.69,T,,M,2.31,N,4.3,K,A*3E
$GPGGA,225835.000,3748.7646,N,12217.5800,W,1,05,1.7,1.9,M,-25.1,M,,0000*64
$GPGSA,A,3,07,32,16,30,23,,,,,,,,3.6,1.7,3.2*33
$GPRMC,225835.000,A,3748.7646,N,12217.5800,W,2.60,104.20,060411,,,A*77
$GPVTG,104.20,T,,M,2.60,N,4.8,K,A*02
$GPGGA,225836.000,3748.7630,N,12217.5777,W,1,05,1.7,3.7,M,-25.1,M,,0000*65
$GPGSA,A,3,07,32,16,30,23,,,,,,,,3.6,1.7,3.2*33
$GPRMC,225836.000,A,3748.7630,N,12217.5777,W,2.89,116.16,060411,,,A*7B
$GPVTG,116.16,T,,M,2.89,N,5.3,K,A*09
$GPGGA,225837.000,3748.7623,N,12217.5758,W,1,04,2.1,5.7,M,-25.1,M,,0000*69
$GPGSA,A,3,07,32,16,30,,,,,,,,,2.3,2.1,1.0*33
$GPRMC,225837.000,A,3748.7623,N,12217.5758,W,3.29,112.69,060411,,,A*72
$GPVTG,112.69,T,,M,3.29,N,6.1,K,A*0F
$GPGGA,225838.000,3748.7615,N,12217.5741,W,1,05,1.7,6.6,M,-25.1,M,,0000*6D
$GPGSA,A,3,07,32,16,30,23,,,,,,,,3.6,1.7,3.2*33
$GPRMC,225838.000,A,3748.7615,N,12217.5741,W,3.15,114.27,060411,,,A*73
$GPVTG,114.27,T,,M,3.15,N,5.8,K,A*06
$GPGGA,225839.000,3748.7604,N,12217.5725,W,1,05,1.7,5.1,M,-25.1,M,,0000*6A
$GPGSA,A,3,07,32,16,30,23,,,,,,,,3.6,1.7,3.2*33
$GPGSV,3,1,12,23,67,354,22,20,65,188,18,16,48,094,23,32,45,153,23*72
$GPGSV,3,2,12,13,41,304,17,30,40,066,28,07,20,238,22,04,15,297,*70
$GPGSV,3,3,12,31,08,050,21,24,05,196,,10,05,319,,03,00,131,*74
$GPRMC,225839.000,A,3748.7604,N,12217.5725,W,2.84,102.09,060411,,,A*72
$GPVTG,102.09,T,,M,2.84,N,5.3,K,A*0F
$GPGGA,225840.000,3748.7602,N,12217.5713,W,1,05,1.7,3.0,M,-25.1,M,,0000*60
$GPGSA,A,3,07,32,16,30,23,,,,,,,,3.6,1.7,3.2*33
$GPRMC,225840.000,A,3748.7602,N,12217.5713,W,2.17,78.26,060411,,,A*44
$GPVTG,78.26,T,,M,2.17,N,4.0,K,A*36
$GPGGA,225841.000,3748.7606,N,12217.5703,W,1,05,1.7,2.2,M,-25.1,M,,0000*67
$GPGSA,A,3,07,32,16,30,23,,,,,,,,3.6,1.7,3.2*33
$GPRMC,225841.000,A,3748.7606,N,12217.5703,W,2.47,40.28,060411,,,A*40
$GPVTG,40.28,T,,M,2.47,N,4.6,K,A*30
$GPGGA,225842.000,3748.7612,N,12217.5694,W,1,05,1.7,1.2,M,-25.1,M,,0000*6D
$GPGSA,A,3,07,32,16,30,23,,,,,,,,3.6,1.7,3.2*33
$GPRMC,225842.000,A,3748.7612,N,12217.5694,W,2.57,34.42,060411,,,A*47
$GPVTG,34.42,T,,M,2.57,N,4.8,K,A*30
$GPGGA,225843.000,3748.7618,N,12217.5681,W,1,05,1.7,1.6,M,-25.1,M,,0000*66
$GPGSA,A,3,07,32,16,30,23,,,,,,,,3.6,1.7,3.2*33
$GPRMC,225843.000,A,3748.7618,N,12217.5681,W,2.70,36.06,060411,,,A*4F
$GPVTG,36.06,T,,M,2.70,N,5.0,K,A*3E
$GPGGA,225844.000,3748.7624,N,12217.5674,W,1,05,1.7,0.8,M,-25.1,M,,0000*6B
$GPGSA,A,3,07,32,16,30,23,,,,,,,,3.6,1.7,3.2*33
$GPGSV,3,1,12,23,67,354,27,20,65,188,26,16,48,094,38,32,45,153,34*76
$GPGSV,3,2,12,13,41,304,18,30,40,066,38,07,20,238,21,04,15,297,*7D
$GPGSV,3,3,12,31,08,050,29,24,05,196,,10,05,319,,03,00,131,*7C
$GPRMC,225844.000,A,3748.7624,N,12217.5674,W,2.51,30.08,060411,,,A*46
$GPVTG,30.08,T,,M,2.51,N,4.6,K,A*32
$GPGGA,225845.000,3748.7631,N,12217.5665,W,1,05,1.7,1.1,M,-25.1,M,,0000*66
$GPGSA,A,3,07,32,16,30,23,,,,,,,,3.6,1.7,3.2*33
$GPRMC,225845.000,A,3748.7631,N,12217.5665,W,2.58,27.81,060411,,,A*4D
$GPVTG,27.81,T,,M,2.58,N,4.8,K,A*32
$GPGGA,225846.000,3748.7638,N,12217.5657,W,1,05,1.7,1.2,M,-25.1,M,,0000*6E
$GPGSA,A,3,07,32,16,30,23,,,,,,,,3.6,1.7,3.2*33
$GPRMC,225846.000,A,3748.7638,N,12217.5657,W,2.65,28.70,060411,,,A*49
$GPVTG,28.70,T,,M,2.65,N,4.9,K,A*3C
$GPGGA,225847.000,3748.7644,N,12217.5652,W,1,05,1.7,0.7,M,-25.1,M,,0000*65
$GPGSA,A,3,07,32,16,30,23,,,,,,,,3.6,1.7,3.2*33
$GPRMC,225847.000,A,3748.7644,N,12217.5652,W,2.58,29.47,060411,,,A*4D
$GPVTG,29.47,T,,M,2.58,N,4.8,K,A*36
$GPGGA,225848.000,3748.7651,N,12217.5645,W,1,05,1.7,0.4,M,-25.1,M,,0000*6B
$GPGSA,A,3,07,32,16,30,23,,,,,,,,3.6,1.7,3.2*33
$GPRMC,225848.000,A,3748.7651,N,12217.5645,W,2.63,33.49,060411,,,A*4D
$GPVTG,33.49,T,,M,2.63,N,4.9,K,A*3A
$GPGGA,225849.000,3748.7657,N,12217.5635,W,1,05,1.7,0.7,M,-25.1,M,,0000*68
$GPGSA,A,3,07,32,16,30,23,,,,,,,,3.6,1.7,3.2*33
$GPGSV,3,1,12,23,67,354,28,20,65,188,26,16,48,094,38,32,45,153,34*79
$GPGSV,3,2,12,13,41,304,22,30,40,066,39,07,20,238,21,04,15,297,22*75
$GPGSV,3,3,12,31,08,050,31,24,05,196,,10,05,319,,03,00,131,*75
$GPRMC,225849.000,A,3748.7657,N,12217.5635,W,2.77,32.33,060411,,,A*44
$GPVTG,32.33,T,,M,2.77,N,5.1,K,A*3A
$GPGGA,225850.000,3748.7664,N,12217.5627,W,1,05,1.7,0.8,M,-25.1,M,,0000*6C
$GPGSA,A,3,07,32,16,30,23,,,,,,,,3.6,1.7,3.2*33
$GPRMC,225850.000,A,3748.7664,N,12217.5627,W,2.87,30.84,060411,,,A*4E
$GPVTG,30.84,T,,M,2.87,N,5.3,K,A*39
$GPGGA,225851.000,3748.7670,N,12217.5617,W,1,05,1.7,1.5,M,-25.1,M,,0000*67
$GPGSA,A,3,07,32,16,30,23,,,,,,,,3.6,1.7,3.2*33
$GPRMC,225851.000,A,3748.7670,N,12217.5617,W,2.87,28.95,060411,,,A*40
$GPVTG,28.95,T,,M,2.87,N,5.3,K,A*30
$GPGGA,225852.000,3748.7677,N,12217.5607,W,1,05,1.7,2.4,M,-25.1,M,,0000*60
$GPGSA,A,3,07,32,16,30,23,,,,,,,,3.6,1.7,3.2*33
$GPRMC,225852.000,A,3748.7677,N,12217.5607,W,2.87,30.41,060411,,,A*45
$GPVTG,30.41,T,,M,2.87,N,5.3,K,A*30
$GPGGA,225853.000,3748.7683,N,12217.5602,W,1,05,1.7,1.9,M,-25.1,M,,0000*61
$GPGSA,A,3,07,32,16,30,23,,,,,,,,3.6,1.7,3.2*33
$GPRMC,225853.000,A,3748.7683,N,12217.5602,W,2.71,26.16,060411,,,A*46
$GPVTG,26.16,T,,M,2.71,N,5.0,K,A*3F
$GPGGA,225854.000,3748.7690,N,12217.5595,W,1,05,1.7,2.1,M,-25.1,M,,0000*62
$GPGSA,A,3,07,32,16,30,23,,,,,,,,3.6,1.7,3.2*33
$GPGSV,3,1,12,23,67,354,29,20,65,188,27,16,48,094,38,32,45,153,34*79
$GPGSV,3,2,12,13,41,304,23,30,40,066,38,07,20,238,23,04,15,297,27*72
$GPGSV,3,3,12,31,08,050,29,24,05,196,22,10,05,319,,03,00,131,*7C
$GPRMC,225854.000,A,3748.7690,N,12217.5595,W,2.75,27.45,060411,,,A*4D
$GPVTG,27.45,T,,M,2.75,N,5.1,K,A*3D
$GPGGA,225855.000,3748.7696,N,12217.5586,W,1,05,1.7,2.9,M,-25.1,M,,0000*6F
$GPGSA,A,3,07,32,16,30,23,,,,,,,,3.6,1.7,3.2*33
$GPRMC,225855.000,A,3748.7696,N,12217.5586,W,2.77,30.42,060411,,,A*4B
$GPVTG,30.42,T,,M,2.77,N,5.1,K,A*3E
$GPGGA,225856.000,3748.7703,N,12217.5578,W,1,05,1.7,3.4,M,-25.1,M,,0000*6C
$GPGSA,A,3,07,32,16,30,23,,,,,,,,3.6,1.7,3.2*33
$GPRMC,225856.000,A,3748.7703,N,12217.5578,W,2.73,29.65,060411,,,A*4D
$GPVTG,29.65,T,,M,2.73,N,5.1,K,A*37
$GPGGA,225857.000,3748.7709,N,12217.5573,W,1,06,1.4,3.5,M,-25.1,M,,0000*6D
$GPGSA,A,3,31,07,32,16,30,23,,,,,,,2.1,1.4,1.6*32
$GPRMC,225857.000,A,3748.7709,N,12217.5573,W,2.78,30.74,060411,,,A*4E
$GPVTG,30.74,T,,M,2.78,N,5.2,K,A*37
$GPGGA,225858.000,3748.7716,N,12217.5567,W,1,06,1.4,3.9,M,-25.1,M,,0000*65
$GPGSA,A,3,31,07,32,16,30,23,,,,,,,2.1,1.4,1.6*32
$GPRMC,225858.000,A,3748.7716,N,12217.5567,W,2.76,23.61,060411,,,A*42
$GPVTG,23.61,T,,M,2.76,N,5.1,K,A*3C
$GPGGA,225859.000,3748.7723,N,12217.5559,W,1,06,1.4,5.3,M,-25.1,M,,0000*63
$GPGSA,A,3,31,07,32,16,30,23,,,,,,,2.1,1.4,1.6*32
$GPGSV,3,1,12,23,68,356,30,20,65,188,26,16,48,094,39,32,44,153,34*7D
$GPGSV,3,2,12,13,41,304,27,30,40,065,39,07,20,239,23,04,15,296,27*74
$GPGSV,3,3,12,31,08,051,19,10,05,319,,24,05,195,22,03,01,131,*7C
$GPRMC,225859.000,A,3748.7723,N,12217.5559,W,2.70,18.83,060411,,,A*4A
$GPVTG,18.83,T,,M,2.70,N,5.0,K,A*3F
$GPGGA,225900.000,3748.7730,N,12217.5549,W,2,06,1.4,7.0,M,-25.1,M,1.8,0000*48
$GPGSA,A,3,31,07,32,16,30,23,,,,,,,2.1,1.4,1.6*32
$GPRMC,225900.000,A,3748.7730,N,12217.5549,W,2.77,21.86,060411,,,D*49
$GPVTG,21.86,T,,M,2.77,N,5.1,K,D*33
$GPGGA,225901.000,3748.7736,N,12217.5541,W,2,06,1.4,7.9,M,-25.1,M,1.8,0000*4E
$GPGSA,A,3,31,07,32,16,30,23,,,,,,,2.1,1.4,1.6*32
$GPRMC,225901.000,A,3748.7736,N,12217.5541,W,3.04,34.76,060411,,,D*48
$GPVTG,34.76,T,,M,3.04,N,5.6,K,D*3A
$GPGGA,225902.000,3748.7742,N,12217.5533,W,2,06,1.4,8.5,M,-25.1,M,1.8,0000*48
$GPGSA,A,3,31,07,32,16,30,23,,,,,,,2.1,1.4,1.6*32
$GPRMC,225902.000,A,3748.7742,N,12217.5533,W,2.84,40.63,060411,,,D*43
$GPVTG,40.63,T,,M,2.84,N,5.3,K,D*31
$GPGGA,225903.000,3748.7747,N,12217.5524,W,2,06,1.4,8.9,M,-25.1,M,2.8,0000*45
$GPGSA,A,3,31,07,32,16,30,23,,,,,,,2.1,1.4,1.6*32
$GPRMC,225903.000,A,3748.7747,N,12217.5524,W,2.90,40.25,060411,,,D*46
$GPVTG,40.25,T,,M,2.90,N,5.4,K,D*31
$GPGGA,225904.000,3748.7753,N,12217.5515,W,2,06,1.4,9.6,M,-25.1,M,3.8,0000*4A
$GPGSA,A,3,31,07,32,16,30,23,,,,,,,2.1,1.4,1.6*32
$GPGSV,3,1,12,23,68,356,30,20,65,188,26,16,48,094,38,32,44,153,34*7C
$GPGSV,3,2,12,13,41,304,26,30,40,065,39,07,20,239,25,04,15,296,21*75
$GPGSV,3,3,12,31,08,051,20,10,05,319,,24,05,195,22,03,01,131,*76
$GPRMC,225904.000,A,3748.7753,N,12217.5515,W,3.02,38.45,060411,,,D*45
$GPVTG,38.45,T,,M,3.02,N,5.6,K,D*30
$GPGGA,225905.000,3748.7758,N,12217.5506,W,2,06,1.4,10.2,M,-25.1,M,1.8,0000*7C
$GPGSA,A,3,31,07,32,16,30,23,,,,,,,2.1,1.4,1.6*32
$GPRMC,225905.000,A,3748.7758,N,12217.5506,W,2.66,39.32,060411,,,D*4F
$GPVTG,39.32,T,,M,2.66,N,4.9,K,D*3C
$GPGGA,225906.000,3748.7763,N,12217.5501,W,2,06,1.4,10.2,M,-25.1,M,1.8,0000*70
$GPGSA,A,3,31,07,32,16,30,23,,,,,,,2.1,1.4,1.6*32
$GPRMC,225906.000,A,3748.7763,N,12217.5501,W,2.61,36.39,060411,,,D*40
$GPVTG,36.39,T,,M,2.61,N,4.8,K,D*3E
$GPGGA,225907.000,3748.7769,N,12217.5499,W,2,06,1.4,8.8,M,-25.1,M,1.8,0000*48
$GPGSA,A,3,31,07,32,16,30,23,,,,,,,2.1,1.4,1.6*32
$GPRMC,225907.000,A,3748.7769,N,12217.5499,W,2.49,24.68,060411,,,D*46
$GPVTG,24.68,T,,M,2.49,N,4.6,K,D*3D
$GPGGA,225908.000,3748.7774,N,12217.5498,W,2,06,1.4,7.9,M,-25.1,M,2.8,0000*47
$GPGSA,A,3,31,07,32,16,30,23,,,,,,,2.1,1.4,1.6*32
$GPRMC,225908.000,A,3748.7774,N,12217.5498,W,1.93,23.23,060411,,,D*48
$GPVTG,23.23,T,,M,1.93,N,3.6,K,D*36
$GPGGA,225909.000,3748.7777,N,12217.5496,W,2,06,1.4,8.4,M,-25.1,M,3.8,0000*48
$GPGSA,A,3,31,07,32,16,30,23,,,,,,,2.1,1.4,1.6*32
$GPGSV,3,1,12,23,68,356,30,20,65,188,26,16,48,094,39,32,44,153,34*7D
$GPGSV,3,2,12,13,41,304,28,30,40,065,26,07,20,239,26,04,15,296,21*76
$GPGSV,3,3,12,31,08,051,20,10,05,319,,24,05,195,23,03,01,131,*77
$GPRMC,225909.000,A,3748.7777,N,12217.5496,W,1.36,31.09,060411,,,D*40
$GPVTG,31.09,T,,M,1.36,N,2.5,K,D*30
$GPGGA,225910.000,3748.7780,N,12217.5493,W,2,06,1.4,8.1,M,-25.1,M,4.8,0000*4F
$GPGSA,A,3,31,07,32,16,30,23,,,,,,,2.1,1.4,1.6*32
$GPRMC,225910.000,A,3748.7780,N,12217.5493,W,1.14,27.52,060411,,,D*4C
$GPVTG,27.52,T,,M,1.14,N,2.1,K,D*3D
$GPGGA,225911.000,3748.7787,N,12217.5494,W,2,06,1.4,7.4,M,-25.1,M,5.8,0000*45
$GPGSA,A,3,31,07,32,16,30,23,,,,,,,2.1,1.4,1.6*32
$GPRMC,225911.000,A,3748.7787,N,12217.5494,W,2.10,357.61,060411,,,D*7E
$GPVTG,357.61,T,,M,2.10,N,3.9,K,D*07
$GPGGA,225912.000,3748.7793,N,12217.5495,W,2,06,1.4,7.7,M,-25.1,M,1.8,0000*45
$GPGSA,A,3,31,07,32,16,30,23,,,,,,,2.1,1.4,1.6*32
$GPRMC,225912.000,A,3748.7793,N,12217.5495,W,2.24,1.79,060411,,,D*77
$GPVTG,1.79,T,,M,2.24,N,4.1,K,D*06
$GPGGA,225913.000,3748.7801,N,12217.5490,W,2,06,1.4,7.5,M,-25.1,M,1.8,0000*47
$GPGSA,A,3,31,07,32,16,30,23,,,,,,,2.1,1.4,1.6*32
$GPRMC,225913.000,A,3748.7801,N,12217.5490,W,1.74,0.30,060411,,,D*7D
$GPVTG,0.30,T,,M,1.74,N,3.2,K,D*08
$GPGGA,225914.000,3748.7809,N,12217.5493,W,2,06,1.4,7.1,M,-25.1,M,2.8,0000*4C
$GPGSA,A,3,31,07,32,16,30,23,,,,,,,2.1,1.4,1.6*32
$GPGSV,3,1,12,23,68,356,29,20,65,188,19,16,48,094,18,32,44,153,22*7D
$GPGSV,3,2,12,13,41,304,23,30,40,065,20,07,20,239,25,04,15,296,22*7B
$GPGSV,3,3,12,31,08,051,20,10,05,319,,24,05,195,23,03,01,131,*77
$GPVTG,348.92,T,,M,1.33,N,2.5,K,D*0A
$GPGGA,225915.000,3748.7816,N,12217.5497,W,2,06,1.4,7.5,M,-25.1,M,3.8,0000*42
$GPGSA,A,3,31,07,32,16,30,23,,,,,,,2.1,1.4,1.6*32
$GPRMC,225915.000,A,3748.7816,N,12217.5497,W,0.50,347.52,060411,,,D*79
$GPVTG,347.52,T,,M,0.50,N,0.9,K,D*03
$GPGGA,225916.000,3748.7822,N,12217.5498,W,2,06,1.4,7.0,M,-25.1,M,4.8,0000*4B
$GPGSA,A,3,31,07,32,16,30,23,,,,,,,2.1,1.4,1.6*32
$GPRMC,225916.000,A,3748.7822,N,12217.5498,W,0.81,62.72,060411,,,D*48
$GPVTG,62.72,T,,M,0.81,N,1.5,K,D*34
$GPGGA,225917.000,3748.7826,N,12217.5495,W,2,06,1.4,6.0,M,-25.1,M,5.8,0000*43
$GPGSA,A,3,31,07,32,16,30,23,,,,,,,2.1,1.4,1.6*32
$GPRMC,225917.000,A,3748.7826,N,12217.5495,W,1.18,100.42,060411,,,D*77
$GPVTG,100.42,T,,M,1.18,N,2.2,K,D*07
$GPGGA,225918.000,3748.7835,N,12217.5496,W,2,06,1.4,5.6,M,-25.1,M,6.8,0000*4B
$GPGSA,A,3,31,07,32,16,30,23,,,,,,,2.1,1.4,1.6*32
$GPRMC,225918.000,A,3748.7835,N,12217.5496,W,0.81,69.71,060411,,,D*46
$GPVTG,69.71,T,,M,0.81,N,1.5,K,D*3C
$GPGGA,225919.000,3748.7844,N,12217.5494,W,2,06,1.4,5.4,M,-25.1,M,7.8,0000*4D
$GPGSA,A,3,31,07,32,16,30,23,,,,,,,2.1,1.4,1.6*32
$GPGSV,3,1,12,23,68,356,29,20,65,188,18,16,48,094,19,32,44,153,20*7F
$GPGSV,3,2,12,13,41,304,29,30,40,065,21,07,20,239,22,04,15,296,28*7D
$GPGSV,3,3,12,31,08,051,20,10,05,319,,24,05,195,16,03,01,131,*71
$GPRMC,225919.000,A,3748.7844,N,12217.5494,W,1.64,38.02,060411,,,D*49
$GPVTG,38.02,T,,M,1.64,N,3.0,K,D*31
$GPGGA,225920.000,3748.7851,N,12217.5490,W,2,06,1.4,5.2,M,-25.1,M,8.8,0000*4E
$GPGSA,A,3,31,07,32,16,30,23,,,,,,,2.1,1.4,1.6*32
$GPRMC,225920.000,A,3748.7851,N,12217.5490,W,1.77,50.41,060411,,,D*48
$GPVTG,50.41,T,,M,1.77,N,3.3,K,D*39
$GPGGA,225921.000,3748.7862,N,12217.5491,W,2,06,1.4,5.0,M,-25.1,M,9.8,0000*4D
$GPGSA,A,3,31,07,32,16,30,23,,,,,,,2.1,1.4,1.6*32
$GPRMC,225921.000,A,3748.7862,N,12217.5491,W,1.61,38.12,060411,,,D*47
$GPVTG,38.12,T,,M,1.61,N,3.0,K,D*35
$GPGGA,225922.000,3748.7871,N,12217.5494,W,2,06,1.4,4.5,M,-25.1,M,10.8,0000*75
$GPGSA,A,3,31,07,32,16,30,23,,,,,,,2.1,1.4,1.6*32
$GPRMC,225922.000,A,3748.7871,N,12217.5494,W,1.98,25.33,060411,,,D*4A
$GPVTG,25.33,T,,M,1.98,N,3.7,K,D*3B
$GPGGA,225923.000,3748.7877,N,12217.5489,W,2,06,1.4,4.6,M,-25.1,M,11.8,0000*7C
$GPGSA,A,3,31,07,32,16,30,23,,,,,,,2.1,1.4,1.6*32
$GPRMC,225923.000,A,3748.7877,N,12217.5489,W,1.33,63.93,060411,,,D*48
$GPVTG,63.93,T,,M,1.33,N,2.5,K,D*31
$GPGGA,225924.000,3748.7877,N,12217.5489,W,2,06,1.4,4.8,M,-25.1,M,12.8,0000*76
$GPGSA,A,3,31,07,32,16,30,23,,,,,,,2.1,1.4,1.6*32
$GPGSV,3,1,12,23,68,356,30,20,65,188,18,16,48,094,20,32,44,153,19*77
$GPGSV,3,2,12,13,41,304,28,30,40,065,21,07,20,239,23,04,15,296,23*76
$GPGSV,3,3,12,31,08,051,24,10,05,319,,24,05,195,16,03,01,131,*75
$GPRMC,225924.000,A,3748.7877,N,12217.5489,W,0.49,85.81,060411,,,D*48
$GPVTG,85.81,T,,M,0.49,N,0.9,K,D*38
$GPGGA,225925.000,3748.7877,N,12217.5484,W,2,06,1.4,5.0,M,-25.1,M,13.8,0000*72
$GPGSA,A,3,31,07,32,16,30,23,,,,,,,2.1,1.4,1.6*32
$GPRMC,225925.000,A,3748.7877,N,12217.5484,W,1.18,87.68,060411,,,D*44
$GPVTG,87.68,T,,M,1.18,N,2.2,K,D*31
$GPGGA,225926.000,3748.7875,N,12217.5480,W,2,06,1.4,5.6,M,-25.1,M,14.8,0000*76
$GPGSA,A,3,31,07,32,16,30,23,,,,,,,2.1,1.4,1.6*32
$GPRMC,225926.000,A,3748.7875,N,12217.5480,W,1.13,105.93,060411,,,D*75
$GPVTG,105.93,T,,M,1.13,N,2.1,K,D*06
$GPGGA,225927.000,3748.7878,N,12217.5475,W,2,06,1.4,6.2,M,-25.1,M,15.8,0000*76
$GPGSA,A,3,31,07,32,16,30,23,,,,,,,2.1,1.4,1.6*32
$GPRMC,225927.000,A,3748.7878,N,12217.5475,W,1.33,122.68,060411,,,D*70
$GPVTG,122.68,T,,M,1.33,N,2.5,K,D*01
$GPGGA,225928.000,3748.7883,N,12217.5471,W,2,06,1.4,6.4,M,-25.1,M,16.8,0000*7C
$GPGSA,A,3,31,07,32,16,30,23,,,,,,,2.1,1.4,1.6*32
$GPRMC,225928.000,A,3748.7883,N,12217.5471,W,0.63,100.18,060411,,,D*7C
$GPVTG,100.18,T,,M,0.63,N,1.2,K,D*06
$GPGGA,225929.000,3748.7889,N,12217.5467,W,2,06,1.4,7.1,M,-25.1,M,17.8,0000*75
$GPGSA,A,3,31,07,32,16,30,23,,,,,,,2.1,1.4,1.6*32
$GPGSV,3,1,12,23,68,356,30,20,65,188,19,16,48,094,21,32,44,153,20*7D
$GPGSV,3,2,12,13,41,304,28,30,40,065,22,07,20,239,24,04,15,296,23*72
$GPGSV,3,3,12,31,08,051,23,10,05,319,,24,05,195,16,03,01,131,*72
$GPVTG,90.16,T,,M,1.24,N,2.3,K,D*30
$GPGGA,225930.000,3748.7901,N,12217.5466,W,1,06,1.4,7.5,M,-25.1,M,,0000*6A
$GPGSA,A,3,31,07,32,16,30,23,,,,,,,2.1,1.4,1.6*32
$GPRMC,225930.000,A,3748.7901,N,12217.5466,W,1.53,51.88,060411,,,A*43
$GPVTG,51.88,T,,M,1.53,N,2.8,K,A*34
$GPGGA,225931.000,3748.7908,N,12217.5464,W,1,06,1.4,7.2,M,-25.1,M,,0000*67
$GPGSA,A,3,31,07,32,16,30,23,,,,,,,2.1,1.4,1.6*32
$GPRMC,225931.000,A,3748.7908,N,12217.5464,W,1.05,51.58,060411,,,A*47
$GPVTG,51.58,T,,M,1.05,N,1.9,K,A*38
$GPGGA,225932.000,3748.7917,N,12217.5459,W,1,06,1.4,6.2,M,-25.1,M,,0000*65
$GPGSA,A,3,31,07,32,16,30,23,,,,,,,2.1,1.4,1.6*32
$GPRMC,225932.000,A,3748.7917,N,12217.5459,W,1.47,53.98,060411,,,A*4C
$GPVTG,53.98,T,,M,1.47,N,2.7,K,A*3D
$GPGGA,225933.000,3748.7929,N,12217.5454,W,1,06,1.4,4.9,M,-25.1,M,,0000*6D
$GPGSA,A,3,31,07,32,16,30,23,,,,,,,2.1,1.4,1.6*32
$GPRMC,225933.000,A,3748.7929,N,12217.5454,W,1.65,52.99,060411,,,A*4D
$GPVTG,52.99,T,,M,1.65,N,3.0,K,A*3B
$GPGGA,225934.000,3748.7938,N,12217.5448,W,1,06,1.4,3.4,M,-25.1,M,,0000*6D
$GPGSA,A,3,31,07,32,16,30,23,,,,,,,2.1,1.4,1.6*32
$GPGSV,3,1,12,23,68,356,30,20,65,188,19,16,48,094,21,32,44,153,20*7D
$GPGSV,3,2,12,13,41,304,25,30,40,065,23,07,20,239,23,04,15,296,26*7C
$GPGSV,3,3,12,31,08,051,24,10,05,319,29,24,05,195,16,03,01,131,*7E
$GPRMC,225934.000,A,3748.7938,N,12217.5448,W,1.64,68.34,060411,,,A*48
$GPVTG,68.34,T,,M,1.64,N,3.0,K,A*34
$GPGGA,225935.000,3748.7948,N,12217.5444,W,1,06,1.4,2.5,M,-25.1,M,,0000*67
$GPGSA,A,3,31,07,32,16,30,23,,,,,,,2.1,1.4,1.6*32
$GPRMC,225935.000,A,3748.7948,N,12217.5444,W,2.22,36.60,060411,,,A*49
$GPVTG,36.60,T,,M,2.22,N,4.1,K,A*39
$GPGGA,225936.000,3748.7966,N,12217.5444,W,1,05,2.4,0.6,M,-25.1,M,,0000*69
$GPGSA,A,3,31,32,16,30,23,,,,,,,,3.6,2.4,2.6*33
$GPRMC,225936.000,A,3748.7966,N,12217.5444,W,2.62,24.15,060411,,,A*43
$GPVTG,24.15,T,,M,2.62,N,4.9,K,A*34
$GPGGA,225937.000,3748.7981,N,12217.5436,W,1,06,1.4,-0.2,M,-25.1,M,,0000*4D
$GPGSA,A,3,31,07,32,16,30,23,,,,,,,2.1,1.4,1.6*32
$GPRMC,225937.000,A,3748.7981,N,12217.5436,W,2.56,38.43,060411,,,A*47
$GPVTG,38.43,T,,M,2.56,N,4.7,K,A*33
$GPGGA,225938.000,3748.7991,N,12217.5427,W,1,05,2.4,-1.6,M,-25.1,M,,0000*46
$GPGSA,A,3,31,32,16,30,23,,,,,,,,3.6,2.4,2.6*33
$GPRMC,225938.000,A,3748.7991,N,12217.5427,W,2.41,46.01,060411,,,A*40
$GPVTG,46.01,T,,M,2.41,N,4.5,K,A*38
$GPGGA,225939.000,3748.7996,N,12217.5413,W,1,06,1.4,-2.7,M,-25.1,M,,0000*45
$GPGSA,A,3,31,07,32,16,30,23,,,,,,,2.1,1.4,1.6*32
$GPGSV,3,1,12,23,68,356,30,20,65,188,19,16,48,094,36,32,44,153,24*7F
$GPGSV,3,2,12,13,41,304,15,30,40,065,39,07,20,239,19,04,15,296,18*70
$GPGSV,3,3,12,31,08,051,33,10,05,319,18,24,05,195,,03,01,131,*7D
$GPRMC,225939.000,A,3748.7996,N,12217.5413,W,1.95,54.52,060411,,,A*4E
$GPVTG,54.52,T,,M,1.95,N,3.6,K,A*33
$GPGGA,225940.000,3748.7996,N,12217.5397,W,1,06,1.4,-3.4,M,-25.1,M,,0000*42
$GPGSA,A,3,31,07,32,16,30,23,,,,,,,2.1,1.4,1.6*32
$GPRMC,225940.000,A,3748.7996,N,12217.5397,W,2.15,69.86,060411,,,A*47
$GPVTG,69.86,T,,M,2.15,N,4.0,K,A*3E
$GPGGA,225941.000,3748.7998,N,12217.5381,W,1,06,1.4,-3.6,M,-25.1,M,,0000*48
$GPGSA,A,3,31,07,32,16,30,23,,,,,,,2.1,1.4,1.6*32
$GPRMC,225941.000,A,3748.7998,N,12217.5381,W,2.46,52.04,060411,,,A*4B
$GPVTG,52.04,T,,M,2.46,N,4.6,K,A*3C
$GPGGA,225942.000,3748.8003,N,12217.5362,W,1,06,1.4,-2.7,M,-25.1,M,,0000*42
$GPGSA,A,3,31,07,32,16,30,23,,,,,,,2.1,1.4,1.6*32
$GPRMC,225942.000,A,3748.8003,N,12217.5362,W,2.77,40.90,060411,,,A*4D
$GPVTG,40.90,T,,M,2.77,N,5.1,K,A*36
$GPGGA,225943.000,3748.8008,N,12217.5348,W,1,06,1.4,-2.3,M,-25.1,M,,0000*44
$GPGSA,A,3,31,07,32,16,30,23,,,,,,,2.1,1.4,1.6*32
$GPRMC,225943.000,A,3748.8008,N,12217.5348,W,2.87,40.75,060411,,,A*4B
$GPVTG,40.75,T,,M,2.87,N,5.3,K,A*30
$GPGGA,225944.000,3748.8015,N,12217.5331,W,1,06,1.4,-1.2,M,-25.1,M,,0000*43
$GPGSA,A,3,31,07,32,16,30,23,,,,,,,2.1,1.4,1.6*32
$GPGSV,3,1,12,23,68,356,30,20,65,188,27,16,48,094,37,32,44,153,35*73
$GPGSV,3,2,12,13,41,304,20,30,40,065,39,07,20,239,23,04,15,296,19*7E
$GPGSV,3,3,12,31,08,051,31,10,05,319,16,24,05,195,,03,01,131,*71
$GPVTG,36.55,T,,M,2.83,N,5.2,K,A*36
$GPGGA,225945.000,3748.8021,N,12217.5314,W,1,06,1.4,0.5,M,-25.1,M,,0000*69
$GPGSA,A,3,31,07,32,16,30,23,,,,,,,2.1,1.4,1.6*32
$GPRMC,225945.000,A,3748.8021,N,12217.5314,W,2.86,40.74,060411,,,A*4F
$GPVTG,40.74,T,,M,2.86,N,5.3,K,A*30
$GPGGA,225946.000,3748.8027,N,12217.5304,W,1,06,1.4,0.7,M,-25.1,M,,0000*6F
$GPGSA,A,3,31,07,32,16,30,23,,,,,,,2.1,1.4,1.6*32
$GPRMC,225946.000,A,3748.8027,N,12217.5304,W,2.82,37.43,060411,,,A*4B
$GPVTG,37.43,T,,M,2.82,N,5.2,K,A*31
$GPGGA,225947.000,3748.8033,N,12217.5296,W,1,06,1.4,0.6,M,-25.1,M,,0000*60
$GPGSA,A,3,31,07,32,16,30,23,,,,,,,2.1,1.4,1.6*32
$GPRMC,225947.000,A,3748.8033,N,12217.5296,W,2.63,37.93,060411,,,A*47
$GPVTG,37.93,T,,M,2.63,N,4.9,K,A*39
$GPGGA,225948.000,3748.8038,N,12217.5287,W,2,06,1.4,0.6,M,-25.1,M,1.8,0000*40
$GPGSA,A,3,31,07,32,16,30,23,,,,,,,2.1,1.4,1.6*32
$GPRMC,225948.000,A,3748.8038,N,12217.5287,W,2.64,34.71,060411,,,D*4E
$GPVTG,34.71,T,,M,2.64,N,4.9,K,D*34
$GPGGA,225949.000,3748.8045,N,12217.5276,W,2,06,1.4,0.8,M,-25.1,M,1.8,0000*4B
$GPGSA,A,3,31,07,32,16,30,23,,,,,,,2.1,1.4,1.6*32
$GPGSV,3,1,12,23,68,356,30,20,65,188,27,16,48,094,37,32,44,153,35*73
$GPGSV,3,2,12,13,41,304,20,30,40,065,39,07,20,239,22,04,15,296,20*75
$GPGSV,3,3,12,31,08,051,30,10,05,319,16,24,05,195,26,03,01,131,*74
$GPRMC,225949.000,A,3748.8045,N,12217.5276,W,2.96,37.89,060411,,,D*42
$GPVTG,37.89,T,,M,2.96,N,5.5,K,D*30
$GPGGA,225950.000,3748.8051,N,12217.5267,W,2,06,1.4,0.8,M,-25.1,M,1.8,0000*46
$GPGSA,A,3,31,07,32,16,30,23,,,,,,,2.1,1.4,1.6*32
$GPRMC,225950.000,A,3748.8051,N,12217.5267,W,2.79,35.29,060411,,,D*46
$GPVTG,35.29,T,,M,2.79,N,5.2,K,D*3E
$GPGGA,225951.000,3748.8057,N,12217.5260,W,2,06,1.4,0.5,M,-25.1,M,2.8,0000*48
$GPGSA,A,3,31,07,32,16,30,23,,,,,,,2.1,1.4,1.6*32
$GPRMC,225951.000,A,3748.8057,N,12217.5260,W,2.64,32.83,060411,,,D*4D
$GPVTG,32.83,T,,M,2.64,N,4.9,K,D*3F
$GPGGA,225952.000,3748.8063,N,12217.5252,W,2,06,1.4,0.4,M,-25.1,M,3.8,0000*4D
$GPGSA,A,3,31,07,32,16,30,23,,,,,,,2.1,1.4,1.6*32
$GPRMC,225952.000,A,3748.8063,N,12217.5252,W,2.77,36.65,060411,,,D*46
$GPVTG,36.65,T,,M,2.77,N,5.1,K,D*38
$GPGGA,225953.000,3748.8069,N,12217.5244,W,2,06,1.4,0.4,M,-25.1,M,4.8,0000*46
$GPGSA,A,3,31,07,32,16,30,23,,,,,,,2.1,1.4,1.6*32
$GPRMC,225953.000,A,3748.8069,N,12217.5244,W,2.63,32.66,060411,,,D*48
$GPVTG,32.66,T,,M,2.63,N,4.9,K,D*33
$GPGGA,225954.000,3748.8076,N,12217.5235,W,2,06,1.4,0.7,M,-25.1,M,5.8,0000*4B
$GPGSA,A,3,31,07,32,16,30,23,,,,,,,2.1,1.4,1.6*32
$GPGSV,3,1,12,23,68,356,30,20,65,188,27,16,48,094,37,32,44,153,34*72
$GPGSV,3,2,12,13,41,304,25,30,40,065,39,07,20,239,20,04,15,296,21*73
$GPGSV,3,3,12,31,08,051,31,10,05,319,16,24,05,195,27,03,01,131,*74
$GPRMC,225954.000,A,3748.8076,N,12217.5235,W,2.65,32.38,060411,,,D*4A
$GPVTG,32.38,T,,M,2.65,N,4.9,K,D*3E
$GPGGA,225955.000,3748.8082,N,12217.5227,W,2,06,1.4,0.8,M,-25.1,M,1.8,0000*49
$GPGSA,A,3,31,07,32,16,30,23,,,,,,,2.1,1.4,1.6*32
$GPRMC,225955.000,A,3748.8082,N,12217.5227,W,2.63,31.27,060411,,,D*48
$GPVTG,31.27,T,,M,2.63,N,4.9,K,D*35
$GPGGA,225956.000,3748.8090,N,12217.5217,W,2,06,1.4,1.4,M,-25.1,M,1.8,0000*47
$GPGSA,A,3,31,07,32,16,30,23,,,,,,,2.1,1.4,1.6*32
$GPRMC,225956.000,A,3748.8090,N,12217.5217,W,2.91,34.91,060411,,,D*4E
$GPVTG,34.91,T,,M,2.91,N,5.4,K,D*3C
$GPGGA,225957.000,3748.8097,N,12217.5207,W,2,06,1.4,2.0,M,-25.1,M,2.8,0000*44
$GPGSA,A,3,31,07,32,16,30,23,,,,,,,2.1,1.4,1.6*32
$GPRMC,225957.000,A,3748.8097,N,12217.5207,W,2.97,34.00,060411,,,D*47
$GPVTG,34.00,T,,M,2.97,N,5.5,K,D*33
$GPGGA,225958.000,3748.8105,N,12217.5196,W,2,06,1.4,3.0,M,-25.1,M,3.8,0000*4A
$GPGSA,A,3,31,07,32,16,30,23,,,,,,,2.1,1.4,1.6*32
$GPRMC,225958.000,A,3748.8105,N,12217.5196,W,3.03,27.41,060411,,,D*42
$GPVTG,27.41,T,,M,3.03,N,5.6,K,D*3B
$GPGGA,225959.000,3748.8112,N,12217.5189,W,2,06,1.4,3.3,M,-25.1,M,4.8,0000*47
$GPGSA,A,3,31,07,32,16,30,23,,,,,,,2.1,1.4,1.6*32
$GPGSV,3,1,12,23,68,356,30,20,65,188,26,16,48,094,37,32,44,153,34*73
$GPGSV,3,2,12,13,41,304,25,30,40,065,39,07,20,239,21,04,15,296,26*75
$GPGSV,3,3,12,31,08,051,25,10,05,319,16,24,05,195,27,03,01,131,*71
$GPVTG,28.20,T,,M,2.91,N,5.4,K,D*3B
$GPGGA,230000.000,3748.8119,N,12217.5183,W,2,06,1.4,3.4,M,-25.1,M,5.8,0000*41
$GPGSA,A,3,31,07,32,16,30,23,,,,,,,2.1,1.4,1.6*32
$GPRMC,230000.000,A,3748.8119,N,12217.5183,W,2.64,29.47,060411,,,D*43
$GPVTG,29.47,T,,M,2.64,N,4.9,K,D*3D
$GPGGA,230001.000,3748.8125,N,12217.5173,W,2,06,1.4,3.9,M,-25.1,M,1.8,0000*49
$GPGSA,A,3,31,07,32,16,30,23,,,,,,,2.1,1.4,1.6*32
$GPRMC,230001.000,A,3748.8125,N,12217.5173,W,2.93,46.27,060411,,,D*45
$GPVTG,46.27,T,,M,2.93,N,5.4,K,D*36
$GPGGA,230002.000,3748.8131,N,12217.5164,W,2,06,1.4,4.2,M,-25.1,M,1.8,0000*45
$GPGSA,A,3,31,07,32,16,30,23,,,,,,,2.1,1.4,1.6*32
$GPRMC,230002.000,A,3748.8131,N,12217.5164,W,2.85,49.01,060411,,,D*49
$GPVTG,49.01,T,,M,2.85,N,5.3,K,D*3D
$GPGGA,230003.000,3748.8136,N,12217.5156,W,2,06,1.4,4.2,M,-25.1,M,1.8,0000*42
$GPGSA,A,3,31,07,32,16,30,23,,,,,,,2.1,1.4,1.6*32
$GPRMC,230003.000,A,3748.8136,N,12217.5156,W,2.74,46.59,060411,,,D*42
$GPVTG,46.59,T,,M,2.74,N,5.1,K,D*33
$GPGGA,230004.000,3748.8145,N,12217.5154,W,2,06,1.4,5.3,M,-25.1,M,2.8,0000*40
$GPGSA,A,3,31,07,32,16,30,23,,,,,,,2.1,1.4,1.6*32
$GPGSV,3,1,12,23,68,356,30,20,65,188,27,16,48,094,37,32,44,153,34*72
$GPGSV,3,2,12,13,41,304,25,30,40,065,39,07,20,239,23,04,15,296,24*75
$GPGSV,3,3,12,31,08,051,22,10,05,319,17,24,05,195,27,03,01,131,*77
$GPRMC,230004.000,A,3748.8145,N,12217.5154,W,2.69,45.25,060411,,,D*47
$GPVTG,45.25,T,,M,2.69,N,5.0,K,D*36
$GPGGA,230005.000,3748.8149,N,12217.5148,W,2,06,1.4,5.4,M,-25.1,M,3.8,0000*46
$GPGSA,A,3,31,07,32,16,30,23,,,,,,,2.1,1.4,1.6*32
$GPRMC,230005.000,A,3748.8149,N,12217.5148,W,2.55,42.58,060411,,,D*45
$GPVTG,42.58,T,,M,2.55,N,4.7,K,D*32
$GPGGA,230006.000,3748.8155,N,12217.5142,W,2,06,1.4,5.6,M,-25.1,M,1.8,0000*42
$GPGSA,A,3,31,07,32,16,30,23,,,,,,,2.1,1.4,1.6*32
$GPRMC,230006.000,A,3748.8155,N,12217.5142,W,2.83,45.97,060411,,,D*4E
$GPVTG,45.97,T,,M,2.83,N,5.2,K,D*39
$GPGGA,230007.000,3748.8160,N,12217.5137,W,2,06,1.4,5.7,M,-25.1,M,2.8,0000*45
$GPGSA,A,3,31,07,32,16,30,23,,,,,,,2.1,1.4,1.6*32
$GPRMC,230007.000,A,3748.8160,N,12217.5137,W,2.55,32.49,060411,,,D*43
$GPVTG,32.49,T,,M,2.55,N,4.7,K,D*35
$GPGGA,230008.000,3748.8167,N,12217.5132,W,2,06,1.4,5.6,M,-25.1,M,3.8,0000*48
$GPGSA,A,3,31,07,32,16,30,23,,,,,,,2.1,1.4,1.6*32
$GPRMC,230008.000,A,3748.8167,N,12217.5132,W,2.96,29.30,060411,,,D*45
$GPVTG,29.30,T,,M,2.96,N,5.5,K,D*3D
$GPGGA,230009.000,3748.8172,N,12217.5129,W,2,06,1.4,5.0,M,-25.1,M,1.8,0000*43
$GPGSA,A,3,31,07,32,16,30,23,,,,,,,2.1,1.4,1.6*32
$GPGSV,3,1,12,23,68,356,30,20,65,188,27,16,48,094,37,32,44,153,34*72
$GPGSV,3,2,12,13,41,304,25,30,40,065,39,07,20,239,25,04,15,296,24*73
$GPGSV,3,3,12,31,08,051,18,10,05,319,18,24,05,195,19,03,01,131,*7C
$GPRMC,230009.000,A,3748.8172,N,12217.5129,W,2.89,27.37,060411,,,D*4D
$GPVTG,27.37,T,,M,2.89,N,5.4,K,D*3B
$GPGGA,230010.000,3748.8178,N,12217.5124,W,2,06,1.4,4.7,M,-25.1,M,2.8,0000*49
$GPGSA,A,3,31,07,32,16,30,23,,,,,,,2.1,1.4,1.6*32
$GPRMC,230010.000,A,3748.8178,N,12217.5124,W,2.48,25.71,060411,,,D*4F
$GPVTG,25.71,T,,M,2.48,N,4.6,K,D*35
$GPGGA,230011.000,3748.8184,N,12217.5122,W,2,06,1.4,4.4,M,-25.1,M,3.8,0000*4F
$GPGSA,A,3,31,07,32,16,30,23,,,,,,,2.1,1.4,1.6*32
$GPRMC,230011.000,A,3748.8184,N,12217.5122,W,2.21,10.64,060411,,,D*46
$GPVTG,10.64,T,,M,2.21,N,4.1,K,D*3F
$GPGGA,230012.000,3748.8191,N,12217.5120,W,2,06,1.4,4.3,M,-25.1,M,4.8,0000*4A
$GPGSA,A,3,31,07,32,16,30,23,,,,,,,2.1,1.4,1.6*32
$GPRMC,230012.000,A,3748.8191,N,12217.5120,W,2.76,9.51,060411,,,D*7F
$GPVTG,9.51,T,,M,2.76,N,5.1,K,D*02
$GPGGA,230013.000,3748.8199,N,12217.5120,W,2,06,1.4,4.2,M,-25.1,M,5.8,0000*43
$GPGSA,A,3,31,07,32,16,30,23,,,,,,,2.1,1.4,1.6*32
$GPRMC,230013.000,A,3748.8199,N,12217.5120,W,2.60,357.16,060411,,,D*7A
$GPVTG,357.16,T,,M,2.60,N,4.8,K,D*06
$GPGGA,230014.000,3748.8207,N,12217.5121,W,2,06,1.4,4.3,M,-25.1,M,6.8,0000*43
$GPGSA,A,3,31,07,32,16,30,23,,,,,,,2.1,1.4,1.6*32
$GPGSV,3,1,12,23,68,356,31,20,65,188,26,16,48,094,36,32,44,153,30*77
$GPGSV,3,2,12,13,41,304,31,30,40,065,29,07,20,239,25,04,15,296,25*76
$GPGSV,3,3,12,31,08,051,18,10,05,319,17,24,05,195,19,03,01,131,*73
$GPRMC,230014.000,A,3748.8207,N,12217.5121,W,2.38,352.54,060411,,,D*76
$GPVTG,352.54,T,,M,2.38,N,4.4,K,D*04
$GPGGA,230015.000,3748.8214,N,12217.5122,W,2,06,1.4,4.0,M,-25.1,M,7.8,0000*41
$GPGSA,A,3,31,07,32,16,30,23,,,,,,,2.1,1.4,1.6*32
$GPRMC,230015.000,A,3748.8214,N,12217.5122,W,2.55,2.91,060411,,,D*72
$GPVTG,2.91,T,,M,2.55,N,4.7,K,D*03
$GPGGA,230016.000,3748.8223,N,12217.5123,W,2,06,1.4,3.3,M,-25.1,M,8.8,0000*4C
$GPGSA,A,3,31,07,32,16,30,23,,,,,,,2.1,1.4,1.6*32
$GPRMC,230016.000,A,3748.8223,N,12217.5123,W,2.96,1.54,060411,,,D*71
$GPVTG,1.54,T,,M,2.96,N,5.5,K,D*05
$GPGGA,230017.000,3748.8232,N,12217.5123,W,2,06,1.4,2.5,M,-25.1,M,9.8,0000*4B
$GPGSA,A,3,31,07,32,16,30,23,,,,,,,2.1,1.4,1.6*32
$GPRMC,230017.000,A,3748.8232,N,12217.5123,W,2.85,0.13,060411,,,D*70
$GPVTG,0.13,T,,M,2.85,N,5.3,K,D*03
$GPGGA,230018.000,3748.8241,N,12217.5120,W,2,06,1.4,2.2,M,-25.1,M,10.8,0000*7C
$GPGSA,A,3,31,07,32,16,30,23,,,,,,,2.1,1.4,1.6*32
$GPRMC,230018.000,A,3748.8241,N,12217.5120,W,3.09,6.29,060411,,,D*72
$GPVTG,6.29,T,,M,3.09,N,5.7,K,D*0D
$GPGGA,230019.000,3748.8250,N,12217.5120,W,2,06,1.4,1.6,M,-25.1,M,11.8,0000*7B
$GPGSA,A,3,31,07,32,16,30,23,,,,,,,2.1,1.4,1.6*32
$GPGSV,3,1,12,23,68,356,32,20,65,188,25,16,48,094,31,32,44,153,30*70
$GPGSV,3,2,12,13,41,304,31,30,40,065,30,07,20,239,27,04,15,296,28*71
$GPGSV,3,3,12,31,08,051,18,10,05,319,16,24,05,195,20,03,01,131,*78
$GPRMC,230019.000,A,3748.8250,N,12217.5120,W,2.60,2.92,060411,,,D*79
$GPGGA,230020.000,3748.8258,N,12217.5120,W,2,06,1.4,1.0,M,-25.1,M,1.8,0000*4E
$GPGSA,A,3,31,07,32,16,30,23,,,,,,,2.1,1.4,1.6*32
$GPRMC,230020.000,A,3748.8258,N,12217.5120,W,2.62,358.71,060411,,,D*78
$GPVTG,358.71,T,,M,2.62,N,4.9,K,D*0B
$GPGGA,230021.000,3748.8265,N,12217.5119,W,2,06,1.4,0.6,M,-25.1,M,2.8,0000*4F
$GPGSA,A,3,31,07,32,16,30,23,,,,,,,2.1,1.4,1.6*32
$GPRMC,230021.000,A,3748.8265,N,12217.5119,W,2.47,2.48,060411,,,D*7C
$GPVTG,2.48,T,,M,2.47,N,4.6,K,D*05
$GPGGA,230022.000,3748.8273,N,12217.5115,W,2,06,1.4,0.7,M,-25.1,M,3.8,0000*47
$GPGSA,A,3,31,07,32,16,30,23,,,,,,,2.1,1.4,1.6*32
$GPRMC,230022.000,A,3748.8273,N,12217.5115,W,2.80,3.88,060411,,,D*72
$GPVTG,3.88,T,,M,2.80,N,5.2,K,D*06
$GPGGA,230023.000,3748.8279,N,12217.5108,W,2,06,1.4,1.4,M,-25.1,M,4.8,0000*45
$GPGSA,A,3,31,07,32,16,30,23,,,,,,,2.1,1.4,1.6*32
$GPRMC,230023.000,A,3748.8279,N,12217.5108,W,2.33,25.50,060411,,,D*4C
$GPVTG,25.50,T,,M,2.33,N,4.3,K,D*3F
$GPGGA,230024.000,3748.8287,N,12217.5104,W,2,06,1.4,1.5,M,-25.1,M,5.8,0000*4F
$GPGSA,A,3,31,07,32,16,30,23,,,,,,,2.1,1.4,1.6*32
$GPGSV,3,1,12,23,68,356,30,20,65,188,24,16,48,094,30,32,44,153,27*74
$GPGSV,3,2,12,13,41,304,25,30,40,065,31,07,20,239,23,04,15,296,25*7C
$GPGSV,3,3,12,31,08,051,18,10,05,319,15,24,05,195,21,03,01,131,*7A
$GPRMC,230024.000,A,3748.8287,N,12217.5104,W,2.01,22.92,060411,,,D*4E
$GPVTG,22.92,T,,M,2.01,N,3.7,K,D*34
$GPGGA,230025.000,3748.8292,N,12217.5100,W,2,06,1.4,2.6,M,-25.1,M,6.8,0000*4D
$GPGSA,A,3,31,07,32,16,30,23,,,,,,,2.1,1.4,1.6*32
$GPRMC,230025.000,A,3748.8292,N,12217.5100,W,1.52,24.33,060411,,,D*47
$GPVTG,24.33,T,,M,1.52,N,2.8,K,D*32
$GPGGA,230026.000,3748.8300,N,12217.5104,W,2,06,1.4,2.8,M,-25.1,M,7.8,0000*4F
$GPGSA,A,3,31,07,32,16,30,23,,,,,,,2.1,1.4,1.6*32
$GPRMC,230026.000,A,3748.8300,N,12217.5104,W,1.38,3.27,060411,,,D*76
$GPVTG,3.27,T,,M,1.38,N,2.6,K,D*00
$GPGGA,230027.000,3748.8307,N,12217.5105,W,2,06,1.4,3.6,M,-25.1,M,8.8,0000*48
$GPGSA,A,3,31,07,32,16,30,23,,,,,,,2.1,1.4,1.6*32
$GPRMC,230027.000,A,3748.8307,N,12217.5105,W,1.53,356.94,060411,,,D*77
$GPVTG,356.94,T,,M,1.53,N,2.8,K,D*08
$GPGGA,230028.000,3748.8314,N,12217.5105,W,2,06,1.4,4.6,M,-25.1,M,9.8,0000*43
$GPGSA,A,3,31,07,32,16,30,23,,,,,,,2.1,1.4,1.6*32
$GPRMC,230028.000,A,3748.8314,N,12217.5105,W,1.76,355.31,060411,,,D*71
$GPVTG,355.31,T,,M,1.76,N,3.3,K,D*09
$GPGGA,230029.000,3748.8319,N,12217.5101,W,2,06,1.4,5.0,M,-25.1,M,10.8,0000*74
$GPGSA,A,3,31,07,32,16,30,23,,,,,,,2.1,1.4,1.6*32
$GPGSV,3,1,12,23,68,356,30,20,65,188,25,16,48,094,30,32,44,153,26*74
$GPGSV,3,2,12,13,41,304,26,30,40,065,27,07,20,239,24,04,15,296,24*7E
$GPGSV,3,3,12,31,08,051,23,10,05,319,16,24,05,195,20,03,01,131,*70
$GPRMC,230029.000,A,3748.8319,N,12217.5101,W,1.86,0.74,060411,,,D*74
$GPVTG,0.74,T,,M,1.86,N,3.4,K,D*03
$GPGGA,230030.000,3748.8332,N,12217.5101,W,2,06,1.4,4.3,M,-25.1,M,11.8,0000*76
$GPGSA,A,3,31,07,32,16,30,23,,,,,,,2.1,1.4,1.6*32
$GPRMC,230030.000,A,3748.8332,N,12217.5101,W,1.89,5.74,060411,,,D*7F
$GPVTG,5.74,T,,M,1.89,N,3.5,K,D*08
$GPGGA,230031.000,3748.8346,N,12217.5097,W,2,06,1.4,3.1,M,-25.1,M,12.8,0000*7C
$GPGSA,A,3,31,07,32,16,30,23,,,,,,,2.1,1.4,1.6*32
$GPRMC,230031.000,A,3748.8346,N,12217.5097,W,2.12,24.07,060411,,,D*45
$GPVTG,24.07,T,,M,2.12,N,3.9,K,D*32
$GPGGA,230032.000,3748.8358,N,12217.5093,W,2,06,1.4,2.3,M,-25.1,M,13.8,0000*76
$GPGSA,A,3,31,07,32,16,30,23,,,,,,,2.1,1.4,1.6*32
$GPRMC,230032.000,A,3748.8358,N,12217.5093,W,1.97,31.24,060411,,,D*46
$GPVTG,31.24,T,,M,1.97,N,3.6,K,D*36
$GPGGA,230033.000,3748.8368,N,12217.5086,W,2,06,1.4,1.9,M,-25.1,M,14.8,0000*7E
$GPGSA,A,3,31,07,32,16,30,23,,,,,,,2.1,1.4,1.6*32
$GPRMC,230033.000,A,3748.8368,N,12217.5086,W,2.08,26.16,060411,,,D*42
$GPVTG,26.16,T,,M,2.08,N,3.9,K,D*3B
$GPGGA,230034.000,3748.8381,N,12217.5086,W,2,06,1.4,0.6,M,-25.1,M,15.8,0000*71
$GPGSA,A,3,31,07,32,16,30,23,,,,,,,2.1,1.4,1.6*32
$GPGSV,3,1,12,23,68,356,30,20,65,188,26,16,48,094,30,32,44,153,23*72
$GPGSV,3,2,12,13,41,304,30,30,40,065,39,07,20,239,19,04,15,296,22*7E
$GPGSV,3,3,12,31,08,051,27,10,05,319,26,24,05,195,20,03,01,131,*77
$GPVTG,20.32,T,,M,2.38,N,4.4,K,D*32
$GPGGA,230035.000,3748.8387,N,12217.5079,W,2,06,1.4,0.1,M,-25.1,M,16.8,0000*72
$GPGSA,A,3,31,07,32,16,30,23,,,,,,,2.1,1.4,1.6*32
$GPRMC,230035.000,A,3748.8387,N,12217.5079,W,2.33,48.89,060411,,,D*43
$GPVTG,48.89,T,,M,2.33,N,4.3,K,D*30
$GPGGA,230036.000,3748.8395,N,12217.5072,W,2,06,1.4,-0.9,M,-25.1,M,17.8,0000*5D
$GPGSA,A,3,31,07,32,16,30,23,,,,,,,2.1,1.4,1.6*32
$GPRMC,230036.000,A,3748.8395,N,12217.5072,W,2.51,46.18,060411,,,D*4A
$GPVTG,46.18,T,,M,2.51,N,4.7,K,D*36
$GPGGA,230037.000,3748.8404,N,12217.5068,W,1,06,1.4,-1.9,M,-25.1,M,,0000*4A
$GPGSA,A,3,31,07,32,16,30,23,,,,,,,2.1,1.4,1.6*32
$GPRMC,230037.000,A,3748.8404,N,12217.5068,W,1.75,58.13,060411,,,A*4B
$GPVTG,58.13,T,,M,1.75,N,3.2,K,A*30
$GPGGA,230038.000,3748.8411,N,12217.5063,W,1,06,1.4,-3.1,M,-25.1,M,,0000*40
