$ADVER,3080,2.3
$GPRMC,211915.897,A,3748.7911,N,12217.8415,W,0.60,35.43,230511,,,A*4F
$GPGGA,211916.897,3748.7914,N,12217.8415,W,1,03,4.4,25.1,M,-25.1,M,,0000*56
$GPGSA,A,2,16,23,03,,,,,,,,,,4.5,4.4,1.0*36
$GPRMC,211916.897,A,3748.7914,N,12217.8415,W,0.40,195.48,230511,,,A*7B
$GPVTG,195.48,T,,M,0.40,N,0.7,K,N*00
$GPGGA,211917.897,3748.7934,N,12217.8416,W,1,03,4.4,25.1,M,-25.1,M,,0000*56
$GPGSA,A,2,16,23,03,,,,,,,,,,4.5,4.4,1.0*36
$GPRMC,211917.897,A,3748.7934,N,12217.8416,W,0.34,281.85,230511,,,A*7F
$GPVTG,281.85,T,,M,0.34,N,0.6,K,N*05
$GPGGA,211918.897,3748.7941,N,12217.8416,W,1,03,4.4,25.1,M,-25.1,M,,0000*5B
$GPGSA,A,2,16,23,03,,,,,,,,,,4.5,4.4,1.0*36
$GPRMC,211918.897,A,3748.7941,N,12217.8416,W,0.24,335.58,230511,,,A*7D
$GPVTG,335.58,T,,M,0.24,N,0.4,K,N*08
$GPGGA,211919.897,3748.7955,N,12217.8416,W,1,03,4.4,25.1,M,-25.1,M,,0000*5F
$GPGSA,A,2,16,23,03,,,,,,,,,,4.5,4.4,1.0*36
$GPGSV,3,1,12,23,55,102,36,16,32,046,32,03,23,095,38,13,73,010,24*7E
$GPGSV,3,2,12,07,50,280,26,10,38,297,23,08,25,260,,20,21,177,31*79
$GPGSV,3,3,12,06,18,079,35,19,11,123,33,30,09,040,28,04,02,258,*78
$GPRMC,211919.897,A,3748.7955,N,12217.8416,W,0.09,337.78,230511,,,A*76
$GPVTG,337.78,T,,M,0.09,N,0.2,K,N*01
$GPGGA,211920.897,3748.7969,N,12217.8417,W,1,03,4.4,25.1,M,-25.1,M,,0000*5B
$GPGSA,A,2,16,23,03,,,,,,,,,,4.5,4.4,1.0*36
$GPRMC,211920.897,A,3748.7969,N,12217.8417,W,0.17,285.71,230511,,,A*7C
$GPVTG,285.71,T,,M,0.17,N,0.3,K,N*0E
$GPGGA,211921.897,3748.7976,N,12217.8416,W,1,03,4.4,25.1,M,-25.1,M,,0000*55
$GPGSA,A,2,16,23,03,,,,,,,,,,4.5,4.4,1.0*36
$GPRMC,211921.897,A,3748.7976,N,12217.8416,W,0.30,272.81,230511,,,A*70
$GPVTG,272.81,T,,M,0.30,N,0.6,K,N*09
$GPGGA,211922.897,3748.7957,N,12217.8537,W,1,04,2.6,9.6,M,-25.1,M,,0000*6D
$GPGSA,A,3,16,23,20,03,,,,,,,,,3.9,2.6,2.9*30
$GPRMC,211922.897,A,3748.7957,N,12217.8537,W,0.09,313.02,230511,,,A*75
$GPVTG,313.02,T,,M,0.09,N,0.2,K,A*05
$GPGGA,211923.897,3748.7963,N,12217.8543,W,1,04,2.6,8.7,M,-25.1,M,,0000*68
$GPGSA,A,3,16,23,20,03,,,,,,,,,3.9,2.6,2.9*30
$GPRMC,211923.897,A,3748.7963,N,12217.8543,W,0.09,306.05,230511,,,A*73
$GPVTG,306.05,T,,M,0.09,N,0.2,K,A*06
$GPGGA,211924.897,3748.7966,N,12217.8547,W,1,04,2.6,8.3,M,-25.1,M,,0000*6A
$GPGSA,A,3,16,23,20,03,,,,,,,,,3.9,2.6,2.9*30
$GPGSV,3,1,12,23,55,102,36,16,32,046,30,03,23,095,38,20,21,177,31*7F
$GPGSV,3,2,12,13,73,010,24,07,50,280,25,10,39,297,24,08,25,260,*7F
$GPGSV,3,3,12,06,18,079,35,19,11,123,26,30,09,040,28,04,02,258,*7C
$GPRMC,211924.897,A,3748.7966,N,12217.8547,W,0.13,303.12,230511,,,A*7D
$GPVTG,303.12,T,,M,0.13,N,0.2,K,A*0E
$GPGGA,211926.000,3748.7969,N,12217.8551,W,1,04,2.6,7.9,M,-25.1,M,,0000*63
$GPGSA,A,3,16,23,20,03,,,,,,,,,3.9,2.6,2.9*30
$GPRMC,211926.000,A,3748.7969,N,12217.8551,W,0.16,308.26,230511,,,A*78
$GPVTG,308.26,T,,M,0.16,N,0.3,K,A*06
$GPGGA,211927.000,3748.7972,N,12217.8554,W,1,04,2.6,7.5,M,-25.1,M,,0000*61
$GPGSA,A,3,16,23,20,03,,,,,,,,,3.9,2.6,2.9*30
$GPRMC,211927.000,A,3748.7972,N,12217.8554,W,0.19,298.79,230511,,,A*7B
$GPVTG,298.79,T,,M,0.19,N,0.3,K,A*0B
$GPGGA,211928.000,3748.7974,N,12217.8556,W,1,05,2.5,7.0,M,-25.1,M,,0000*6D
$GPGSA,A,3,16,23,20,03,06,,,,,,,,3.6,2.5,2.6*35
$GPRMC,211928.000,A,3748.7974,N,12217.8556,W,0.14,297.01,230511,,,A*7D
$GPVTG,297.01,T,,M,0.14,N,0.3,K,A*06
$GPGGA,211929.000,3748.7976,N,12217.8558,W,1,05,2.5,6.7,M,-25.1,M,,0000*66
$GPGSA,A,3,16,23,20,03,06,,,,,,,,3.6,2.5,2.6*35
$GPRMC,211929.000,A,3748.7976,N,12217.8558,W,0.17,304.65,230511,,,A*7A
$GPVTG,304.65,T,,M,0.17,N,0.3,K,A*0C
$GPGGA,211930.000,3748.7978,N,12217.8561,W,1,05,2.5,6.5,M,-25.1,M,,0000*68
$GPGSA,A,3,16,23,20,03,06,,,,,,,,3.6,2.5,2.6*35
$GPGSV,3,1,12,13,73,010,25,23,55,102,36,07,51,280,21,10,39,297,25*75
$GPGSV,3,2,12,16,31,046,30,08,25,260,18,03,23,095,39,20,21,177,31*7B
$GPGSV,3,3,12,06,18,079,35,19,11,123,31,30,09,040,28,04,02,258,*7A
$GPVTG,308.08,T,,M,0.18,N,0.3,K,A*04
$GPGGA,211931.000,3748.7980,N,12217.8562,W,1,05,2.5,6.3,M,-25.1,M,,0000*6B
$GPGSA,A,3,16,23,20,03,06,,,,,,,,3.6,2.5,2.6*35
$GPRMC,211931.000,A,3748.7980,N,12217.8562,W,0.12,288.65,230511,,,A*73
$GPVTG,288.65,T,,M,0.12,N,0.2,K,A*0D
$GPGGA,211932.000,3748.7981,N,12217.8564,W,1,05,2.5,6.1,M,-25.1,M,,0000*6D
$GPGSA,A,3,16,23,20,03,06,,,,,,,,3.6,2.5,2.6*35
$GPRMC,211932.000,A,3748.7981,N,12217.8564,W,0.19,302.70,230511,,,A*7B
$GPVTG,302.70,T,,M,0.19,N,0.3,K,A*00
$GPGGA,211933.000,3748.7982,N,12217.8566,W,1,05,2.5,5.9,M,-25.1,M,,0000*66
$GPGSA,A,3,16,23,20,03,06,,,,,,,,3.6,2.5,2.6*35
$GPRMC,211933.000,A,3748.7982,N,12217.8566,W,0.14,299.84,230511,,,A*7E
$GPVTG,299.84,T,,M,0.14,N,0.3,K,A*05
$GPGGA,211934.000,3748.7983,N,12217.8567,W,1,05,2.5,5.8,M,-25.1,M,,0000*60
$GPGSA,A,3,16,23,20,03,06,,,,,,,,3.6,2.5,2.6*35
$GPRMC,211934.000,A,3748.7983,N,12217.8567,W,0.16,299.29,230511,,,A*7C
$GPVTG,299.29,T,,M,0.16,N,0.3,K,A*00
$GPGGA,211935.000,3748.7984,N,12217.8568,W,1,05,2.5,5.7,M,-25.1,M,,0000*66
$GPGSA,A,3,16,23,20,03,06,,,,,,,,3.6,2.5,2.6*35
$GPGSV,3,1,12,13,73,010,25,23,55,102,36,07,51,280,21,10,39,297,26*76
$GPGSV,3,2,12,16,31,046,30,08,25,260,17,03,23,095,39,20,21,177,31*74
$GPGSV,3,3,12,06,18,079,36,19,11,123,31,30,09,040,27,04,02,258,*76
$GPRMC,211935.000,A,3748.7984,N,12217.8568,W,0.17,298.69,230511,,,A*71
$GPVTG,298.69,T,,M,0.17,N,0.3,K,A*04
$GPGGA,211936.000,3748.7984,N,12217.8568,W,1,05,2.5,5.6,M,-25.1,M,,0000*64
$GPGSA,A,3,16,23,20,03,06,,,,,,,,3.6,2.5,2.6*35
$GPRMC,211936.000,A,3748.7984,N,12217.8568,W,0.17,304.85,230511,,,A*74
$GPVTG,304.85,T,,M,0.17,N,0.3,K,A*02
$GPGGA,211937.000,3748.7985,N,12217.8569,W,1,05,2.5,5.6,M,-25.1,M,,0000*65
$GPGSA,A,3,16,23,20,03,06,,,,,,,,3.6,2.5,2.6*35
$GPRMC,211937.000,A,3748.7985,N,12217.8569,W,0.17,301.11,230511,,,A*7D
$GPVTG,301.11,T,,M,0.17,N,0.3,K,A*0A
$GPGGA,211938.000,3748.7985,N,12217.8570,W,1,05,2.5,5.5,M,-25.1,M,,0000*61
$GPGSA,A,3,16,23,20,03,06,,,,,,,,3.6,2.5,2.6*35
$GPRMC,211938.000,A,3748.7985,N,12217.8570,W,0.17,290.55,230511,,,A*73
$GPVTG,290.55,T,,M,0.17,N,0.3,K,A*03
$GPGGA,211939.000,3748.7986,N,12217.8571,W,1,05,2.5,5.4,M,-25.1,M,,0000*63
$GPGSA,A,3,16,23,20,03,06,,,,,,,,3.6,2.5,2.6*35
$GPRMC,211939.000,A,3748.7986,N,12217.8571,W,0.14,294.01,230511,,,A*76
$GPVTG,294.01,T,,M,0.14,N,0.3,K,A*05
$GPGGA,211940.000,3748.7986,N,12217.8571,W,1,05,2.5,5.3,M,-25.1,M,,0000*6A
$GPGSA,A,3,16,23,20,03,06,,,,,,,,3.6,2.5,2.6*35
$GPGSV,3,1,12,13,73,010,25,23,55,102,36,07,51,280,21,10,39,297,26*76
$GPGSV,3,2,12,16,31,046,30,08,25,260,16,03,23,095,40,20,21,177,32*78
$GPGSV,3,3,12,06,18,079,36,19,11,123,30,30,09,040,28,04,02,258,*78
$GPRMC,211940.000,A,3748.7986,N,12217.8571,W,0.15,304.71,230511,,,A*76
$GPVTG,304.71,T,,M,0.15,N,0.3,K,A*0B
$GPGGA,211941.000,3748.7987,N,12217.8572,W,1,05,2.5,5.3,M,-25.1,M,,0000*69
$GPGSA,A,3,16,23,20,03,06,,,,,,,,3.6,2.5,2.6*35
$GPRMC,211941.000,A,3748.7987,N,12217.8572,W,0.12,297.34,230511,,,A*78
$GPVTG,297.34,T,,M,0.12,N,0.2,K,A*07
$GPGGA,211942.000,3748.7987,N,12217.8573,W,1,05,2.5,5.2,M,-25.1,M,,0000*6A
$GPGSA,A,3,16,23,20,03,06,,,,,,,,3.6,2.5,2.6*35
$GPRMC,211942.000,A,3748.7987,N,12217.8573,W,0.19,309.76,230511,,,A*71
$GPVTG,309.76,T,,M,0.19,N,0.4,K,A*0A
$GPGGA,211943.000,3748.7988,N,12217.8573,W,1,05,2.5,5.1,M,-25.1,M,,0000*67
$GPGSA,A,3,16,23,20,03,06,,,,,,,,3.6,2.5,2.6*35
$GPRMC,211943.000,A,3748.7988,N,12217.8573,W,0.09,141.97,230511,,,A*7F
$GPVTG,141.97,T,,M,0.09,N,0.2,K,A*0C
$GPGGA,211944.000,3748.7986,N,12217.8569,W,1,05,2.5,5.1,M,-25.1,M,,0000*65
$GPGSA,A,3,16,23,20,03,06,,,,,,,,3.6,2.5,2.6*35
$GPRMC,211944.000,A,3748.7986,N,12217.8569,W,1.14,130.87,230511,,,A*77
$GPVTG,130.87,T,,M,1.14,N,2.1,K,A*07
$GPGGA,211945.000,3748.7983,N,12217.8566,W,1,05,2.5,5.3,M,-25.1,M,,0000*6C
$GPGSA,A,3,16,23,20,03,06,,,,,,,,3.6,2.5,2.6*35
$GPGSV,3,1,12,13,73,010,25,23,55,102,32,07,51,280,25,10,39,297,16*75
$GPGSV,3,2,12,16,31,046,24,08,25,260,31,03,23,095,35,20,21,177,36*7E
$GPGSV,3,3,12,06,18,079,30,19,11,123,36,30,09,040,29,04,02,258,*79
$GPVTG,129.57,T,,M,1.22,N,2.3,K,A*05
$GPGGA,211946.000,3748.7979,N,12217.8559,W,1,05,2.5,6.0,M,-25.1,M,,0000*66
$GPGSA,A,3,16,23,20,03,06,,,,,,,,3.6,2.5,2.6*35
$GPRMC,211946.000,A,3748.7979,N,12217.8559,W,2.08,114.43,230511,,,A*76
$GPVTG,114.43,T,,M,2.08,N,3.9,K,A*0E
$GPGGA,211947.000,3748.7974,N,12217.8548,W,1,05,2.5,5.7,M,-25.1,M,,0000*6E
$GPGSA,A,3,16,23,20,03,06,,,,,,,,3.6,2.5,2.6*35
$GPRMC,211947.000,A,3748.7974,N,12217.8548,W,2.81,115.80,230511,,,A*75
$GPVTG,115.80,T,,M,2.81,N,5.2,K,A*0C
$GPGGA,211948.000,3748.7969,N,12217.8537,W,1,05,2.5,5.8,M,-25.1,M,,0000*6A
$GPGSA,A,3,16,23,20,03,06,,,,,,,,3.6,2.5,2.6*35
$GPRMC,211948.000,A,3748.7969,N,12217.8537,W,2.78,115.03,230511,,,A*73
$GPVTG,115.03,T,,M,2.78,N,5.2,K,A*01
$GPGGA,211949.000,3748.7961,N,12217.8523,W,1,05,2.5,6.2,M,-25.1,M,,0000*6F
$GPGSA,A,3,16,23,20,03,06,,,,,,,,3.6,2.5,2.6*35
$GPRMC,211949.000,A,3748.7961,N,12217.8523,W,2.57,120.91,230511,,,A*7F
$GPVTG,120.91,T,,M,2.57,N,4.8,K,A*0A
$GPGGA,211950.000,3748.7947,N,12217.8502,W,1,05,2.5,6.8,M,-25.1,M,,0000*6A
$GPGSA,A,3,16,23,20,03,06,,,,,,,,3.6,2.5,2.6*35
$GPGSV,3,1,12,13,73,011,25,23,55,103,32,07,51,280,24,10,39,297,21*70
$GPGSV,3,2,12,16,31,046,26,08,25,260,29,03,23,095,31,20,20,177,39*7F
$GPGSV,3,3,12,06,18,079,25,19,11,123,27,30,09,040,27,04,02,258,*73
$GPRMC,211950.000,A,3748.7947,N,12217.8502,W,2.43,130.53,230511,,,A*7A
$GPVTG,130.53,T,,M,2.43,N,4.5,K,A*0D
$GPGGA,211951.000,3748.7929,N,12217.8476,W,1,05,2.5,8.1,M,-25.1,M,,0000*66
$GPGSA,A,3,16,23,20,03,06,,,,,,,,3.6,2.5,2.6*35
$GPRMC,211951.000,A,3748.7929,N,12217.8476,W,3.48,129.35,230511,,,A*73
$GPVTG,129.35,T,,M,3.48,N,6.5,K,A*0D
$GPGGA,211952.000,3748.7917,N,12217.8458,W,1,05,2.5,8.8,M,-25.1,M,,0000*6D
$GPGSA,A,3,16,23,20,03,06,,,,,,,,3.6,2.5,2.6*35
$GPRMC,211952.000,A,3748.7917,N,12217.8458,W,3.51,124.15,230511,,,A*76
$GPVTG,124.15,T,,M,3.51,N,6.5,K,A*0A
$GPGGA,211953.000,3748.7906,N,12217.8440,W,1,05,2.5,9.3,M,-25.1,M,,0000*6F
$GPGSA,A,3,16,23,20,03,06,,,,,,,,3.6,2.5,2.6*35
$GPRMC,211953.000,A,3748.7906,N,12217.8440,W,3.59,120.27,230511,,,A*73
$GPVTG,120.27,T,,M,3.59,N,6.6,K,A*04
$GPGGA,211954.000,3748.7896,N,12217.8423,W,1,05,2.5,9.7,M,-25.1,M,,0000*61
$GPGSA,A,3,16,23,20,03,06,,,,,,,,3.6,2.5,2.6*35
$GPRMC,211954.000,A,3748.7896,N,12217.8423,W,3.89,126.46,230511,,,A*75
$GPVTG,126.46,T,,M,3.89,N,7.2,K,A*0D
$GPGGA,211955.000,3748.7888,N,12217.8407,W,1,05,2.5,9.3,M,-25.1,M,,0000*6D
$GPGSA,A,3,16,23,20,03,06,,,,,,,,3.6,2.5,2.6*35
$GPGSV,3,1,12,13,73,011,25,23,55,103,32,07,51,280,25,10,39,297,21*71
$GPGSV,3,2,12,16,31,046,21,08,25,260,29,03,23,095,28,20,20,177,39*70
$GPGSV,3,3,12,06,18,079,21,19,11,123,35,30,09,040,22,04,02,258,*71
$GPRMC,211955.000,A,3748.7888,N,12217.8407,W,3.69,124.35,230511,,,A*75
$GPVTG,124.35,T,,M,3.69,N,6.8,K,A*0E
$GPGGA,211956.000,3748.7874,N,12217.8386,W,1,05,2.5,10.0,M,-25.1,M,,0000*58
$GPGSA,A,3,16,23,20,03,06,,,,,,,,3.6,2.5,2.6*35
$GPRMC,211956.000,A,3748.7874,N,12217.8386,W,3.45,125.97,230511,,,A*7C
$GPVTG,125.97,T,,M,3.45,N,6.4,K,A*05
$GPGGA,211957.000,3748.7862,N,12217.8370,W,1,05,2.5,11.7,M,-25.1,M,,0000*51
$GPGSA,A,3,16,23,20,03,06,,,,,,,,3.6,2.5,2.6*35
$GPRMC,211957.000,A,3748.7862,N,12217.8370,W,3.24,124.74,230511,,,A*78
$GPVTG,124.74,T,,M,3.24,N,6.0,K,A*0A
$GPGGA,211958.000,3748.7854,N,12217.8362,W,1,05,2.5,13.5,M,-25.1,M,,0000*58
$GPGSA,A,3,16,23,20,03,06,,,,,,,,3.6,2.5,2.6*35
$GPRMC,211958.000,A,3748.7854,N,12217.8362,W,2.35,128.19,230511,,,A*77
$GPVTG,128.19,T,,M,2.35,N,4.4,K,A*0A
$GPGGA,211959.000,3748.7841,N,12217.8347,W,1,05,2.5,15.6,M,-25.1,M,,0000*5F
$GPGSA,A,3,16,23,20,03,06,,,,,,,,3.6,2.5,2.6*35
$GPRMC,211959.000,A,3748.7841,N,12217.8347,W,2.30,142.30,230511,,,A*77
$GPVTG,142.30,T,,M,2.30,N,4.3,K,A*0F
$GPGGA,212000.000,3748.7832,N,12217.8334,W,1,05,2.5,15.0,M,-25.1,M,,0000*5F
$GPGSA,A,3,16,23,20,03,06,,,,,,,,3.6,2.5,2.6*35
$GPGSV,3,1,12,13,73,011,25,23,55,103,24,07,51,280,32,10,39,297,33*73
$GPGSV,3,2,12,16,31,046,21,08,25,260,31,03,23,095,25,20,20,177,38*75
$GPGSV,3,3,12,06,18,079,20,19,11,123,22,30,09,040,22,04,02,258,*76
$GPRMC,212000.000,A,3748.7832,N,12217.8334,W,2.30,138.31,230511,,,A*7D
$GPGGA,212001.000,3748.7818,N,12217.8319,W,1,05,2.5,17.2,M,-25.1,M,,0000*59
$GPGSA,A,3,16,23,20,03,06,,,,,,,,3.6,2.5,2.6*35
$GPRMC,212001.000,A,3748.7818,N,12217.8319,W,2.96,148.51,230511,,,A*76
$GPVTG,148.51,T,,M,2.96,N,5.5,K,A*09
$GPGGA,212002.000,3748.7809,N,12217.8310,W,1,04,2.6,18.5,M,-25.1,M,,0000*59
$GPGSA,A,3,16,23,20,03,,,,,,,,,3.9,2.6,2.9*30
$GPRMC,212002.000,A,3748.7809,N,12217.8310,W,3.03,138.48,230511,,,A*7E
$GPVTG,138.48,T,,M,3.03,N,5.6,K,A*08
$GPGGA,212003.000,3748.7812,N,12217.8316,W,1,05,2.5,18.7,M,-25.1,M,,0000*54
$GPGSA,A,3,16,23,20,03,06,,,,,,,,3.6,2.5,2.6*35
$GPRMC,212003.000,A,3748.7812,N,12217.8316,W,2.11,124.91,230511,,,A*78
$GPVTG,124.91,T,,M,2.11,N,3.9,K,A*0A
$GPGGA,212004.000,3748.7824,N,12217.8332,W,1,05,2.5,18.1,M,-25.1,M,,0000*56
$GPGSA,A,3,16,23,20,03,06,,,,,,,,3.6,2.5,2.6*35
$GPRMC,212004.000,A,3748.7824,N,12217.8332,W,1.66,126.89,230511,,,A*74
$GPVTG,126.89,T,,M,1.66,N,3.1,K,A*0A
$GPGGA,212005.000,3748.7833,N,12217.8341,W,1,05,2.5,16.8,M,-25.1,M,,0000*52
$GPGSA,A,3,16,23,20,03,06,,,,,,,,3.6,2.5,2.6*35
$GPGSV,3,1,12,13,73,011,25,23,55,103,33,07,51,280,25,10,39,297,22*73
$GPGSV,3,2,12,16,31,046,26,08,25,260,29,03,23,095,34,20,20,177,38*7B
$GPGSV,3,3,12,06,18,079,24,19,11,123,31,30,09,040,21,04,02,258,*73
$GPRMC,212005.000,A,3748.7833,N,12217.8341,W,1.39,119.06,230511,,,A*76
$GPVTG,119.06,T,,M,1.39,N,2.6,K,A*0D
$GPGGA,212006.000,3748.7828,N,12217.8329,W,1,05,2.5,16.7,M,-25.1,M,,0000*5A
$GPGSA,A,3,16,23,20,03,06,,,,,,,,3.6,2.5,2.6*35
$GPRMC,212006.000,A,3748.7828,N,12217.8329,W,1.49,121.01,230511,,,A*7A
$GPVTG,121.01,T,,M,1.49,N,2.8,K,A*08
$GPGGA,212007.000,3748.7827,N,12217.8324,W,1,05,2.5,16.3,M,-25.1,M,,0000*5D
$GPGSA,A,3,16,23,20,03,06,,,,,,,,3.6,2.5,2.6*35
$GPRMC,212007.000,A,3748.7827,N,12217.8324,W,1.89,125.04,230511,,,A*74
$GPVTG,125.04,T,,M,1.89,N,3.5,K,A*09
$GPGGA,212008.000,3748.7823,N,12217.8316,W,1,05,2.5,16.0,M,-25.1,M,,0000*54
$GPGSA,A,3,16,23,20,03,06,,,,,,,,3.6,2.5,2.6*35
$GPRMC,212008.000,A,3748.7823,N,12217.8316,W,1.78,130.45,230511,,,A*71
$GPVTG,130.45,T,,M,1.78,N,3.3,K,A*00
$GPGGA,212009.000,3748.7820,N,12217.8310,W,1,05,2.5,15.9,M,-25.1,M,,0000*5A
$GPGSA,A,3,16,23,20,03,06,,,,,,,,3.6,2.5,2.6*35
$GPRMC,212009.000,A,3748.7820,N,12217.8310,W,1.46,114.39,230511,,,A*75
$GPVTG,114.39,T,,M,1.46,N,2.7,K,A*05
$GPGGA,212010.000,3748.7818,N,12217.8302,W,1,05,2.5,16.0,M,-25.1,M,,0000*50
$GPGSA,A,3,16,23,20,03,06,,,,,,,,3.6,2.5,2.6*35
$GPGSV,3,1,12,13,73,011,24,23,55,103,26,07,51,280,24,10,39,297,22*77
$GPGSV,3,2,12,16,31,046,21,08,25,260,28,03,23,095,34,20,20,177,28*7C
$GPGSV,3,3,12,06,18,079,29,19,11,123,31,30,09,040,21,04,02,258,*7E
$GPRMC,212010.000,A,3748.7818,N,12217.8302,W,1.16,107.41,230511,,,A*7D
$GPVTG,107.41,T,,M,1.16,N,2.2,K,A*08
$GPGGA,212011.000,3748.7813,N,12217.8290,W,1,05,2.5,18.0,M,-25.1,M,,0000*5E
$GPGSA,A,3,16,23,20,03,06,,,,,,,,3.6,2.5,2.6*35
$GPRMC,212011.000,A,3748.7813,N,12217.8290,W,1.40,106.34,230511,,,A*7D
$GPVTG,106.34,T,,M,1.40,N,2.6,K,A*0C
$GPGGA,212012.000,3748.7807,N,12217.8281,W,1,05,2.5,18.5,M,-25.1,M,,0000*5D
$GPGSA,A,3,16,23,20,03,06,,,,,,,,3.6,2.5,2.6*35
$GPRMC,212012.000,A,3748.7807,N,12217.8281,W,1.70,123.13,230511,,,A*7A
$GPVTG,123.13,T,,M,1.70,N,3.1,K,A*0B
$GPGGA,212013.000,3748.7812,N,12217.8287,W,1,05,2.5,17.8,M,-25.1,M,,0000*5C
$GPGSA,A,3,16,23,20,03,06,,,,,,,,3.6,2.5,2.6*35
$GPRMC,212013.000,A,3748.7812,N,12217.8287,W,1.76,124.73,230511,,,A*7E
$GPVTG,124.73,T,,M,1.76,N,3.3,K,A*0E
$GPGGA,212014.000,3748.7815,N,12217.8289,W,1,05,2.5,17.2,M,-25.1,M,,0000*58
$GPGSA,A,3,16,23,20,03,06,,,,,,,,3.6,2.5,2.6*35
$GPRMC,212014.000,A,3748.7815,N,12217.8289,W,1.68,121.46,230511,,,A*7C
$GPVTG,121.46,T,,M,1.68,N,3.1,K,A*00
$GPGGA,212015.000,3748.7820,N,12217.8295,W,1,05,2.5,16.5,M,-25.1,M,,0000*54
$GPGSA,A,3,16,23,20,03,06,,,,,,,,3.6,2.5,2.6*35
$GPGSV,3,1,12,13,73,011,24,23,55,103,33,07,51,280,24,10,39,297,19*7B
$GPGSV,3,2,12,16,31,046,26,08,25,260,26,03,23,095,35,20,20,177,38*75
$GPGSV,3,3,12,06,18,079,30,19,11,123,32,30,09,040,22,04,02,258,*76
$GPVTG,126.69,T,,M,1.59,N,2.9,K,A*01
$GPGGA,212016.000,3748.7826,N,12217.8303,W,1,05,2.5,15.5,M,-25.1,M,,0000*5C
$GPGSA,A,3,16,23,20,03,06,,,,,,,,3.6,2.5,2.6*35
$GPRMC,212016.000,A,3748.7826,N,12217.8303,W,1.57,127.09,230511,,,A*7C
$GPVTG,127.09,T,,M,1.57,N,2.9,K,A*08
$GPGGA,212017.000,3748.7834,N,12217.8313,W,1,05,2.5,14.3,M,-25.1,M,,0000*58
$GPGSA,A,3,16,23,20,03,06,,,,,,,,3.6,2.5,2.6*35
$GPRMC,212017.000,A,3748.7834,N,12217.8313,W,1.34,125.47,230511,,,A*72
$GPVTG,125.47,T,,M,1.34,N,2.5,K,A*09
$GPGGA,212018.000,3748.7840,N,12217.8319,W,1,05,2.5,13.3,M,-25.1,M,,0000*59
$GPGSA,A,3,16,23,20,03,06,,,,,,,,3.6,2.5,2.6*35
$GPRMC,212018.000,A,3748.7840,N,12217.8319,W,1.32,113.35,230511,,,A*72
$GPVTG,113.35,T,,M,1.32,N,2.5,K,A*0F
$GPGGA,212019.000,3748.7845,N,12217.8324,W,1,05,2.5,12.3,M,-25.1,M,,0000*52
$GPGSA,A,3,16,23,20,03,06,,,,,,,,3.6,2.5,2.6*35
$GPRMC,212019.000,A,3748.7845,N,12217.8324,W,1.35,106.84,230511,,,A*71
$GPVTG,106.84,T,,M,1.35,N,2.5,K,A*06
$GPGGA,212020.000,3748.7850,N,12217.8329,W,1,05,2.5,11.3,M,-25.1,M,,0000*52
$GPGSA,A,3,16,23,20,03,06,,,,,,,,3.6,2.5,2.6*35
$GPGSV,3,1,12,13,73,011,24,23,55,103,34,07,51,280,23,10,39,297,18*7A
$GPGSV,3,2,12,16,31,046,26,08,26,260,27,03,23,094,35,20,20,177,33*7D
$GPGSV,3,3,12,06,18,079,29,19,11,123,32,30,08,040,21,04,02,258,*7C
$GPRMC,212020.000,A,3748.7850,N,12217.8329,W,1.25,121.15,230511,,,A*7E
$GPVTG,121.15,T,,M,1.25,N,2.3,K,A*0C
$GPGGA,212021.000,3748.7850,N,12217.8324,W,1,05,2.5,11.1,M,-25.1,M,,0000*5C
$GPGSA,A,3,16,23,20,03,06,,,,,,,,3.6,2.5,2.6*35
$GPRMC,212021.000,A,3748.7850,N,12217.8324,W,1.52,132.02,230511,,,A*76
$GPVTG,132.02,T,,M,1.52,N,2.8,K,A*03
$GPGGA,212022.000,3748.7849,N,12217.8323,W,1,05,2.5,10.4,M,-25.1,M,,0000*54
$GPGSA,A,3,16,23,20,03,06,,,,,,,,3.6,2.5,2.6*35
$GPRMC,212022.000,A,3748.7849,N,12217.8323,W,1.83,139.60,230511,,,A*79
$GPVTG,139.60,T,,M,1.83,N,3.4,K,A*0D
$GPGGA,212023.000,3748.7849,N,12217.8322,W,1,05,2.5,9.8,M,-25.1,M,,0000*60
$GPGSA,A,3,16,23,20,03,06,,,,,,,,3.6,2.5,2.6*35
$GPRMC,212023.000,A,3748.7849,N,12217.8322,W,1.48,118.57,230511,,,A*79
$GPVTG,118.57,T,,M,1.48,N,2.7,K,A*0F
$GPGGA,212024.000,3748.7854,N,12217.8328,W,1,05,2.5,8.7,M,-25.1,M,,0000*6F
$GPGSA,A,3,16,23,20,03,06,,,,,,,,3.6,2.5,2.6*35
$GPRMC,212024.000,A,3748.7854,N,12217.8328,W,1.25,125.25,230511,,,A*78
$GPVTG,125.25,T,,M,1.25,N,2.3,K,A*0B
$GPGGA,212025.000,3748.7856,N,12217.8329,W,1,05,2.5,7.8,M,-25.1,M,,0000*6D
$GPGSA,A,3,16,23,20,03,06,,,,,,,,3.6,2.5,2.6*35
$GPGSV,3,1,12,13,73,011,24,23,55,103,33,07,51,280,23,10,39,297,19*7C
$GPGSV,3,2,12,16,31,046,20,08,26,260,29,03,23,094,34,20,20,177,39*7E
$GPGSV,3,3,12,06,18,079,20,19,11,123,32,30,08,040,24,04,02,258,*70
$GPRMC,212025.000,A,3748.7856,N,12217.8329,W,1.83,125.56,230511,,,A*72
$GPVTG,125.56,T,,M,1.83,N,3.4,K,A*05
$GPGGA,212026.000,3748.7859,N,12217.8332,W,1,05,2.5,7.3,M,-25.1,M,,0000*60
$GPGSA,A,3,16,23,20,03,06,,,,,,,,3.6,2.5,2.6*35
$GPRMC,212026.000,A,3748.7859,N,12217.8332,W,1.36,100.10,230511,,,A*7F
$GPVTG,100.10,T,,M,1.36,N,2.5,K,A*0E
$GPGGA,212027.000,3748.7862,N,12217.8335,W,1,05,2.5,6.8,M,-25.1,M,,0000*64
$GPGSA,A,3,16,23,20,03,06,,,,,,,,3.6,2.5,2.6*35
$GPRMC,212027.000,A,3748.7862,N,12217.8335,W,1.25,108.98,230511,,,A*7B
$GPVTG,108.98,T,,M,1.25,N,2.3,K,A*02
$GPGGA,212028.000,3748.7861,N,12217.8329,W,1,05,2.5,5.8,M,-25.1,M,,0000*66
$GPGSA,A,3,16,23,20,03,06,,,,,,,,3.6,2.5,2.6*35
$GPRMC,212028.000,A,3748.7861,N,12217.8329,W,1.72,118.87,230511,,,A*77
$GPVTG,118.87,T,,M,1.72,N,3.2,K,A*0F
$GPGGA,212029.000,3748.7853,N,12217.8316,W,1,05,2.5,6.8,M,-25.1,M,,0000*69
$GPGSA,A,3,16,23,20,03,06,,,,,,,,3.6,2.5,2.6*35
$GPRMC,212029.000,A,3748.7853,N,12217.8316,W,2.11,117.52,230511,,,A*7A
$GPVTG,117.52,T,,M,2.11,N,3.9,K,A*05
$GPGGA,212030.000,3748.7845,N,12217.8302,W,1,05,2.5,7.4,M,-25.1,M,,0000*6E
$GPGSA,A,3,16,23,20,03,06,,,,,,,,3.6,2.5,2.6*35
$GPGSV,3,1,12,13,73,011,24,23,55,103,30,07,51,280,25,10,39,297,20*73
$GPGSV,3,2,12,16,31,046,23,08,26,260,28,03,23,094,36,20,20,177,38*7F
$GPGSV,3,3,12,06,18,079,22,19,11,123,33,30,08,040,23,04,02,258,*74
$GPVTG,113.42,T,,M,1.87,N,3.5,K,A*00
$GPGGA,212031.000,3748.7837,N,12217.8291,W,1,05,2.5,8.4,M,-25.1,M,,0000*6E
$GPGSA,A,3,16,23,20,03,06,,,,,,,,3.6,2.5,2.6*35
$GPRMC,212031.000,A,3748.7837,N,12217.8291,W,2.45,127.67,230511,,,A*7B
$GPVTG,127.67,T,,M,2.45,N,4.5,K,A*0A
$GPGGA,212032.000,3748.7821,N,12217.8271,W,1,05,2.5,9.7,M,-25.1,M,,0000*66
$GPGSA,A,3,16,23,20,03,06,,,,,,,,3.6,2.5,2.6*35
$GPRMC,212032.000,A,3748.7821,N,12217.8271,W,3.15,126.08,230511,,,A*7D
$GPVTG,126.08,T,,M,3.15,N,5.8,K,A*0A
$GPGGA,212033.000,3748.7819,N,12217.8263,W,1,05,2.5,9.6,M,-25.1,M,,0000*6E
$GPGSA,A,3,16,23,20,03,06,,,,,,,,3.6,2.5,2.6*35
$GPRMC,212033.000,A,3748.7819,N,12217.8263,W,2.88,109.32,230511,,,A*75
$GPVTG,109.32,T,,M,2.88,N,5.3,K,A*00
$GPGGA,212034.000,3748.7814,N,12217.8252,W,1,05,2.5,10.2,M,-25.1,M,,0000*5A
$GPGSA,A,3,16,23,20,03,06,,,,,,,,3.6,2.5,2.6*35
$GPRMC,212034.000,A,3748.7814,N,12217.8252,W,2.11,103.78,230511,,,A*79
$GPVTG,103.78,T,,M,2.11,N,3.9,K,A*08
$GPGGA,212035.000,3748.7804,N,12217.8235,W,1,05,2.5,11.5,M,-25.1,M,,0000*5D
$GPGSA,A,3,16,23,20,03,06,,,,,,,,3.6,2.5,2.6*35
$GPGSV,3,1,12,13,73,011,25,23,55,103,30,07,51,280,29,10,39,297,24*7A
$GPGSV,3,2,12,16,31,046,22,08,26,260,34,03,23,094,34,20,20,177,37*7E
$GPGSV,3,3,12,06,18,079,22,19,11,123,33,30,08,040,22,04,02,258,*75
$GPRMC,212035.000,A,3748.7804,N,12217.8235,W,2.91,118.44,230511,,,A*75
$GPVTG,118.44,T,,M,2.91,N,5.4,K,A*0E
$GPGGA,212036.000,3748.7796,N,12217.8221,W,1,05,2.5,11.9,M,-25.1,M,,0000*53
$GPGSA,A,3,16,23,20,03,06,,,,,,,,3.6,2.5,2.6*35
$GPRMC,212036.000,A,3748.7796,N,12217.8221,W,2.69,125.13,230511,,,A*7C
$GPVTG,125.13,T,,M,2.69,N,5.0,K,A*01
$GPGGA,212037.000,3748.7786,N,12217.8213,W,1,05,2.5,12.6,M,-25.1,M,,0000*5E
$GPGSA,A,3,16,23,20,03,06,,,,,,,,3.6,2.5,2.6*35
$GPRMC,212037.000,A,3748.7786,N,12217.8213,W,2.32,142.59,230511,,,A*7C
$GPVTG,142.59,T,,M,2.32,N,4.3,K,A*02
$GPGGA,212038.000,3748.7778,N,12217.8201,W,1,05,2.5,13.3,M,-25.1,M,,0000*57
$GPGSA,A,3,16,23,20,03,06,,,,,,,,3.6,2.5,2.6*35
$GPRMC,212038.000,A,3748.7778,N,12217.8201,W,2.39,129.99,230511,,,A*7B
$GPVTG,129.99,T,,M,2.39,N,4.4,K,A*0F
$GPGGA,212039.000,3748.7765,N,12217.8186,W,1,05,2.5,14.9,M,-25.1,M,,0000*5B
$GPGSA,A,3,16,23,20,03,06,,,,,,,,3.6,2.5,2.6*35
$GPRMC,212039.000,A,3748.7765,N,12217.8186,W,2.86,133.26,230511,,,A*71
$GPVTG,133.26,T,,M,2.86,N,5.3,K,A*02
$GPGGA,212040.000,3748.7754,N,12217.8170,W,1,05,2.5,15.9,M,-25.1,M,,0000*5F
$GPGSA,A,3,16,23,20,03,06,,,,,,,,3.6,2.5,2.6*35
$GPGSV,3,1,12,13,73,011,25,23,55,103,35,07,51,280,29,10,39,297,24*7F
$GPGSV,3,2,12,16,31,046,22,08,26,260,32,03,23,094,34,20,20,177,38*77
$GPGSV,3,3,12,06,18,079,22,19,11,123,36,30,08,040,22,04,02,258,*70
$GPRMC,212040.000,A,3748.7754,N,12217.8170,W,3.43,129.88,230511,,,A*73
$GPVTG,129.88,T,,M,3.43,N,6.3,K,A*06
$GPGGA,212041.000,3748.7751,N,12217.8165,W,1,05,2.5,16.4,M,-25.1,M,,0000*51
$GPGSA,A,3,16,23,20,03,06,,,,,,,,3.6,2.5,2.6*35
$GPRMC,212041.000,A,3748.7751,N,12217.8165,W,2.78,123.46,230511,,,A*72
$GPVTG,123.46,T,,M,2.78,N,5.1,K,A*06
$GPGGA,212042.000,3748.7755,N,12217.8166,W,1,05,2.5,16.0,M,-25.1,M,,0000*51
$GPGSA,A,3,16,23,20,03,06,,,,,,,,3.6,2.5,2.6*35
$GPRMC,212042.000,A,3748.7755,N,12217.8166,W,2.37,110.75,230511,,,A*7D
$GPVTG,110.75,T,,M,2.37,N,4.4,K,A*09
$GPGGA,212043.000,3748.7757,N,12217.8164,W,1,05,2.5,15.8,M,-25.1,M,,0000*5B
$GPGSA,A,3,16,23,20,03,06,,,,,,,,3.6,2.5,2.6*35
$GPRMC,212043.000,A,3748.7757,N,12217.8164,W,2.20,121.59,230511,,,A*76
$GPVTG,121.59,T,,M,2.20,N,4.1,K,A*06
$GPGGA,212044.000,3748.7756,N,12217.8161,W,1,05,2.5,15.8,M,-25.1,M,,0000*58
$GPGSA,A,3,16,23,20,03,06,,,,,,,,3.6,2.5,2.6*35
$GPRMC,212044.000,A,3748.7756,N,12217.8161,W,1.97,126.69,230511,,,A*7E
$GPVTG,126.69,T,,M,1.97,N,3.7,K,A*0C
$GPGGA,212045.000,3748.7748,N,12217.8148,W,1,05,2.5,16.4,M,-25.1,M,,0000*52
$GPGSA,A,3,16,23,20,03,06,,,,,,,,3.6,2.5,2.6*35
$GPGSV,3,1,12,13,73,011,24,23,55,103,34,07,51,280,28,10,39,297,24*7E
$GPGSV,3,2,12,16,31,046,17,08,26,260,26,03,23,094,36,20,20,177,37*79
$GPGSV,3,3,12,06,18,079,21,19,11,123,41,30,08,040,21,04,02,258,*70
$GPRMC,212045.000,A,3748.7748,N,12217.8148,W,2.45,124.93,230511,,,A*70
$GPGGA,212046.000,3748.7737,N,12217.8131,W,1,05,2.5,17.3,M,-25.1,M,,0000*51
$GPGSA,A,3,16,23,20,03,06,,,,,,,,3.6,2.5,2.6*35
$GPRMC,212046.000,A,3748.7737,N,12217.8131,W,2.96,128.78,230511,,,A*72
$GPVTG,128.78,T,,M,2.96,N,5.5,K,A*04
$GPGGA,212047.000,3748.7732,N,12217.8123,W,1,05,2.5,17.5,M,-25.1,M,,0000*50
$GPGSA,A,3,16,23,20,03,06,,,,,,,,3.6,2.5,2.6*35
$GPRMC,212047.000,A,3748.7732,N,12217.8123,W,2.22,130.52,230511,,,A*7B
$GPVTG,130.52,T,,M,2.22,N,4.1,K,A*0F
$GPGGA,212048.000,3748.7722,N,12217.8111,W,1,05,2.5,18.4,M,-25.1,M,,0000*51
$GPGSA,A,3,16,23,20,03,06,,,,,,,,3.6,2.5,2.6*35
$GPRMC,212048.000,A,3748.7722,N,12217.8111,W,2.37,133.36,230511,,,A*71
$GPVTG,133.36,T,,M,2.37,N,4.4,K,A*0F
$GPGGA,212049.000,3748.7712,N,12217.8096,W,1,05,2.5,18.4,M,-25.1,M,,0000*5D
$GPGSA,A,3,16,23,20,03,06,,,,,,,,3.6,2.5,2.6*35
$GPRMC,212049.000,A,3748.7712,N,12217.8096,W,2.87,123.80,230511,,,A*7A
$GPVTG,123.80,T,,M,2.87,N,5.3,K,A*0E
$GPGGA,212050.000,3748.7701,N,12217.8079,W,1,05,2.5,19.3,M,-25.1,M,,0000*50
$GPGSA,A,3,16,23,20,03,06,,,,,,,,3.6,2.5,2.6*35
$GPGSV,3,1,12,13,73,012,25,23,55,103,33,07,51,280,24,10,39,297,23*70
$GPGSV,3,2,12,16,31,046,20,08,26,261,26,03,23,094,28,20,20,177,38*7C
$GPGSV,3,3,12,06,18,079,21,19,11,123,35,30,08,040,21,04,02,258,*73
$GPRMC,212050.000,A,3748.7701,N,12217.8079,W,3.62,125.86,230511,,,A*7B
$GPVTG,125.86,T,,M,3.62,N,6.7,K,A*03
$GPGGA,212051.000,3748.7687,N,12217.8058,W,1,05,2.5,20.6,M,-25.1,M,,0000*52
$GPGSA,A,3,16,23,20,03,06,,,,,,,,3.6,2.5,2.6*35
$GPRMC,212051.000,A,3748.7687,N,12217.8058,W,3.52,125.20,230511,,,A*79
$GPVTG,125.20,T,,M,3.52,N,6.5,K,A*0E
$GPGGA,212052.000,3748.7675,N,12217.8039,W,1,05,2.5,21.5,M,-25.1,M,,0000*59
$GPGSA,A,3,16,23,20,03,06,,,,,,,,3.6,2.5,2.6*35
$GPRMC,212052.000,A,3748.7675,N,12217.8039,W,4.43,126.86,230511,,,A*78
$GPVTG,126.86,T,,M,4.43,N,8.2,K,A*0F
$GPGGA,212053.000,3748.7662,N,12217.8021,W,1,05,2.5,22.9,M,-25.1,M,,0000*58
$GPGSA,A,3,16,23,20,03,06,,,,,,,,3.6,2.5,2.6*35
$GPRMC,212053.000,A,3748.7662,N,12217.8021,W,4.25,128.30,230511,,,A*75
$GPVTG,128.30,T,,M,4.25,N,7.9,K,A*08
$GPGGA,212054.000,3748.7660,N,12217.8018,W,1,05,2.5,23.0,M,-25.1,M,,0000*5F
$GPGSA,A,3,16,23,20,03,06,,,,,,,,3.6,2.5,2.6*35
$GPRMC,212054.000,A,3748.7660,N,12217.8018,W,3.46,131.72,230511,,,A*76
$GPVTG,131.72,T,,M,3.46,N,6.4,K,A*08
$GPGGA,212055.000,3748.7657,N,12217.8016,W,2,05,2.5,23.3,M,-25.1,M,,0000*54
$GPGSA,A,3,16,23,20,03,06,,,,,,,,3.6,2.5,2.6*35
$GPGSV,3,1,12,13,73,012,26,23,55,103,34,07,51,280,24,10,39,297,22*75
$GPGSV,3,2,12,16,31,046,21,08,26,261,26,03,23,094,34,20,20,177,38*70
$GPGSV,3,3,12,06,18,079,21,19,11,123,32,30,08,040,,04,02,258,*77
$GPRMC,212055.000,A,3748.7657,N,12217.8016,W,2.77,131.95,230511,,,D*72
$GPVTG,131.95,T,,M,2.77,N,5.1,K,D*01
$GPGGA,212056.000,3748.7659,N,12217.8014,W,2,05,2.5,22.2,M,-25.1,M,,0000*5B
$GPGSA,A,3,16,23,20,03,06,,,,,,,,3.6,2.5,2.6*35
$GPRMC,212056.000,A,3748.7659,N,12217.8014,W,1.94,128.49,230511,,,D*7A
$GPVTG,128.49,T,,M,1.94,N,3.6,K,D*07
$GPGGA,212057.000,3748.7670,N,12217.8025,W,2,05,2.5,20.5,M,-25.1,M,,0000*56
$GPGSA,A,3,16,23,20,03,06,,,,,,,,3.6,2.5,2.6*35
$GPRMC,212057.000,A,3748.7670,N,12217.8025,W,0.90,92.31,230511,,,D*48
$GPVTG,92.31,T,,M,0.90,N,1.7,K,D*3E
$GPGGA,212058.000,3748.7672,N,12217.8023,W,2,05,2.5,19.5,M,-25.1,M,,0000*57
$GPGSA,A,3,16,23,20,03,06,,,,,,,,3.6,2.5,2.6*35
$GPRMC,212058.000,A,3748.7672,N,12217.8023,W,0.94,103.10,230511,,,D*7D
$GPVTG,103.10,T,,M,0.94,N,1.7,K,D*00
$GPGGA,212059.000,3748.7671,N,12217.8017,W,2,05,2.5,18.8,M,-25.1,M,3.8,0000*7B
$GPGSA,A,3,16,23,20,03,06,,,,,,,,3.6,2.5,2.6*35
$GPRMC,212059.000,A,3748.7671,N,12217.8017,W,0.78,98.89,230511,,,D*49
$GPVTG,98.89,T,,M,0.78,N,1.5,K,D*33
$GPGGA,212100.000,3748.7677,N,12217.8021,W,2,05,2.5,17.4,M,-25.1,M,4.8,0000*71
$GPGSA,A,3,16,23,20,03,06,,,,,,,,3.6,2.5,2.6*35
$GPGSV,3,1,12,13,73,012,26,23,55,103,33,07,51,280,24,10,39,297,21*71
$GPGSV,3,2,12,16,31,046,21,08,26,261,29,03,23,094,39,20,20,177,38*72
$GPGSV,3,3,12,06,18,079,27,19,11,123,39,30,08,040,,04,02,258,*7A
$GPVTG,116.28,T,,M,1.00,N,1.8,K,D*0C
$GPGGA,212101.000,3748.7678,N,12217.8020,W,2,05,2.5,16.5,M,-25.1,M,,0000*5C
$GPGSA,A,3,16,23,20,03,06,,,,,,,,3.6,2.5,2.6*35
$GPRMC,212101.000,A,3748.7678,N,12217.8020,W,1.17,128.41,230511,,,D*7E
$GPVTG,128.41,T,,M,1.17,N,2.2,K,D*01
$GPGGA,212102.000,3748.7682,N,12217.8023,W,2,05,2.5,15.1,M,-25.1,M,,0000*5E
$GPGSA,A,3,16,23,20,03,06,,,,,,,,3.6,2.5,2.6*35
$GPRMC,212102.000,A,3748.7682,N,12217.8023,W,1.36,117.91,230511,,,D*79
$GPVTG,117.91,T,,M,1.36,N,2.5,K,D*04
$GPGGA,212103.000,3748.7681,N,12217.8015,W,2,05,2.5,14.1,M,-25.1,M,,0000*58
$GPGSA,A,3,16,23,20,03,06,,,,,,,,3.6,2.5,2.6*35
$GPRMC,212103.000,A,3748.7681,N,12217.8015,W,1.58,110.72,230511,,,D*7C
$GPVTG,110.72,T,,M,1.58,N,2.9,K,D*0A
$GPGGA,212104.000,3748.7686,N,12217.8020,W,2,05,2.5,13.7,M,-25.1,M,,0000*5F
$GPGSA,A,3,16,23,20,03,06,,,,,,,,3.6,2.5,2.6*35
$GPRMC,212104.000,A,3748.7686,N,12217.8020,W,1.18,74.16,230511,,,D*4F
$GPVTG,74.16,T,,M,1.18,N,2.2,K,D*34
$GPGGA,212105.000,3748.7681,N,12217.8011,W,2,05,2.5,14.8,M,-25.1,M,3.8,0000*76
$GPGSA,A,3,16,23,20,03,06,,,,,,,,3.6,2.5,2.6*35
$GPGSV,3,1,12,13,73,012,25,23,55,103,33,07,51,280,21,10,39,297,20*76
$GPGSV,3,2,12,16,31,046,22,08,26,261,28,03,23,094,28,20,20,177,37*7F
$GPGSV,3,3,12,06,18,079,20,19,11,123,31,30,08,040,24,04,02,258,*73
$GPRMC,212105.000,A,3748.7681,N,12217.8011,W,1.28,98.09,230511,,,D*44
$GPVTG,98.09,T,,M,1.28,N,2.4,K,D*3D
$GPGGA,212106.000,3748.7677,N,12217.8002,W,2,05,2.5,15.0,M,-25.1,M,4.8,0000*70
$GPGSA,A,3,16,23,20,03,06,,,,,,,,3.6,2.5,2.6*35
$GPRMC,212106.000,A,3748.7677,N,12217.8002,W,1.65,108.61,230511,,,D*73
$GPVTG,108.61,T,,M,1.65,N,3.0,K,D*07
$GPGGA,212107.000,3748.7679,N,12217.8004,W,2,05,2.5,14.5,M,-25.1,M,,0000*5F
$GPGSA,A,3,16,23,20,03,06,,,,,,,,3.6,2.5,2.6*35
$GPRMC,212107.000,A,3748.7679,N,12217.8004,W,1.75,121.82,230511,,,D*7D
$GPVTG,121.82,T,,M,1.75,N,3.2,K,D*02
$GPGGA,212108.000,3748.7684,N,12217.8009,W,2,05,2.5,13.7,M,-25.1,M,,0000*5A
$GPGSA,A,3,16,23,20,03,06,,,,,,,,3.6,2.5,2.6*35
$GPRMC,212108.000,A,3748.7684,N,12217.8009,W,1.03,128.14,230511,,,D*7A
$GPVTG,128.14,T,,M,1.03,N,1.9,K,D*0C
$GPGGA,212109.000,3748.7677,N,12217.8000,W,2,05,2.5,13.6,M,-25.1,M,,0000*5F
$GPGSA,A,3,16,23,20,03,06,,,,,,,,3.6,2.5,2.6*35
$GPRMC,212109.000,A,3748.7677,N,12217.8000,W,1.55,132.72,230511,,,D*76
$GPVTG,132.72,T,,M,1.55,N,2.9,K,D*07
$GPGGA,212109.000,3748.7670,N,12217.7992,W,2,05,2.5,14.1,M,-25.1,M,3.8,0000*70
$GPGSA,A,3,16,23,20,03,06,,,,,,,,3.6,2.5,2.6*35
$GPGSV,3,1,12,13,73,012,25,23,55,103,33,07,51,280,25,10,39,297,25*77
$GPGSV,3,2,12,16,31,046,21,08,26,261,31,03,23,094,29,20,20,177,38*7A
$GPGSV,3,3,12,06,18,079,23,19,11,123,34,30,08,040,19,04,02,258,*7B
$GPRMC,212109.000,A,3748.7670,N,12217.7992,W,1.99,133.51,230511,,,D*7C
$GPVTG,133.51,T,,M,1.99,N,3.7,K,D*08
$GPGGA,212110.000,3748.7665,N,12217.7983,W,2,05,2.5,13.8,M,-25.1,M,4.8,0000*75
$GPGSA,A,3,16,23,20,03,06,,,,,,,,3.6,2.5,2.6*35
$GPRMC,212110.000,A,3748.7665,N,12217.7983,W,2.36,130.91,230511,,,D*79
$GPVTG,130.91,T,,M,2.36,N,4.4,K,D*05
$GPGGA,212111.000,3748.7661,N,12217.7973,W,2,04,8.0,13.1,M,-25.1,M,5.8,0000*79
$GPGSA,A,3,23,20,03,06,,,,,,,,,8.6,8.0,3.4*35
$GPRMC,212111.000,A,3748.7661,N,12217.7973,W,2.44,119.71,230511,,,D*73
$GPVTG,119.71,T,,M,2.44,N,4.5,K,D*04
$GPGGA,212112.000,3748.7655,N,12217.7959,W,2,04,8.0,12.6,M,-25.1,M,,0000*50
$GPGSA,A,3,23,20,03,06,,,,,,,,,8.6,8.0,3.4*35
$GPRMC,212112.000,A,3748.7655,N,12217.7959,W,3.23,119.89,230511,,,D*78
$GPVTG,119.89,T,,M,3.23,N,6.0,K,D*04
$GPGGA,212113.000,3748.7652,N,12217.7948,W,2,04,8.0,11.7,M,-25.1,M,,0000*54
$GPGSA,A,3,23,20,03,06,,,,,,,,,8.6,8.0,3.4*35
$GPRMC,212113.000,A,3748.7652,N,12217.7948,W,2.74,114.11,230511,,,D*71
$GPVTG,114.11,T,,M,2.74,N,5.1,K,D*09
$GPGGA,212114.000,3748.7638,N,12217.7922,W,2,05,2.5,12.0,M,-25.1,M,,0000*59
$GPGSA,A,3,16,23,20,03,06,,,,,,,,3.6,2.5,2.6*35
$GPGSV,3,1,12,13,73,012,25,23,55,103,33,07,51,280,24,10,39,297,18*78
$GPGSV,3,2,12,16,31,046,20,08,26,261,31,03,23,094,34,20,20,177,32*7D
$GPGSV,3,3,12,06,18,079,31,19,11,123,35,30,08,040,19,04,02,258,*79
$GPVTG,119.20,T,,M,3.12,N,5.8,K,D*0E
$GPGGA,212115.000,3748.7625,N,12217.7900,W,2,05,2.5,12.2,M,-25.1,M,3.8,0000*73
$GPGSA,A,3,16,23,20,03,06,,,,,,,,3.6,2.5,2.6*35
$GPRMC,212115.000,A,3748.7625,N,12217.7900,W,3.24,123.74,230511,,,D*78
$GPVTG,123.74,T,,M,3.24,N,6.0,K,D*08
$GPGGA,212116.000,3748.7626,N,12217.7896,W,2,05,2.5,10.8,M,-25.1,M,4.8,0000*72
$GPGSA,A,3,16,23,20,03,06,,,,,,,,3.6,2.5,2.6*35
$GPRMC,212116.000,A,3748.7626,N,12217.7896,W,2.43,123.86,230511,,,D*7B
$GPVTG,123.86,T,,M,2.43,N,4.5,K,D*02
$GPGGA,212117.000,3748.7625,N,12217.7891,W,2,05,2.5,9.7,M,-25.1,M,,0000*62
$GPGSA,A,3,16,23,20,03,06,,,,,,,,3.6,2.5,2.6*35
$GPRMC,212117.000,A,3748.7625,N,12217.7891,W,1.89,118.60,230511,,,D*7B
$GPVTG,118.60,T,,M,1.89,N,3.5,K,D*00
$GPGGA,212118.000,3748.7621,N,12217.7879,W,2,05,2.5,8.3,M,-25.1,M,,0000*6A
$GPGSA,A,3,16,23,20,03,06,,,,,,,,3.6,2.5,2.6*35
$GPRMC,212118.000,A,3748.7621,N,12217.7879,W,2.02,113.95,230511,,,D*77
$GPVTG,113.95,T,,M,2.02,N,3.7,K,D*03
$GPGGA,212119.000,3748.7615,N,12217.7871,W,2,05,2.5,8.1,M,-25.1,M,,0000*66
$GPGSA,A,3,16,23,20,03,06,,,,,,,,3.6,2.5,2.6*35
$GPGSV,3,1,12,13,73,013,25,23,54,103,33,07,51,281,24,10,39,296,18*78
$GPGSV,3,2,12,16,31,046,21,08,26,261,31,03,24,094,30,20,20,177,32*7F
$GPGSV,3,3,12,06,18,078,24,19,11,123,32,30,08,040,19,04,02,258,*7B
$GPRMC,212119.000,A,3748.7615,N,12217.7871,W,2.35,127.78,230511,,,D*79
$GPVTG,127.78,T,,M,2.35,N,4.3,K,D*00
$GPGGA,212120.000,3748.7609,N,12217.7860,W,2,05,2.5,7.3,M,-25.1,M,,0000*6C
$GPGSA,A,3,16,23,20,03,06,,,,,,,,3.6,2.5,2.6*35
$GPRMC,212120.000,A,3748.7609,N,12217.7860,W,2.79,123.70,230511,,,D*7A
$GPVTG,123.70,T,,M,2.79,N,5.2,K,D*04
$GPGGA,212121.000,3748.7601,N,12217.7842,W,2,06,2.2,7.3,M,-25.1,M,3.8,0000*44
$GPGSA,A,3,16,23,20,03,06,19,,,,,,,3.3,2.2,2.5*3C
$GPRMC,212121.000,A,3748.7601,N,12217.7842,W,2.88,115.67,230511,,,D*7E
$GPVTG,115.67,T,,M,2.88,N,5.3,K,D*08
$GPGGA,212122.000,3748.7602,N,12217.7840,W,2,06,2.2,6.4,M,-25.1,M,4.8,0000*47
$GPGSA,A,3,16,23,20,03,06,19,,,,,,,3.3,2.2,2.5*3C
$GPRMC,212122.000,A,3748.7602,N,12217.7840,W,2.29,108.51,230511,,,D*7E
$GPVTG,108.51,T,,M,2.29,N,4.2,K,D*0A
$GPGGA,212123.000,3748.7599,N,12217.7833,W,2,06,2.2,5.9,M,-25.1,M,2.8,0000*4B
$GPGSA,A,3,16,23,20,03,06,19,,,,,,,3.3,2.2,2.5*3C
$GPRMC,212123.000,A,3748.7599,N,12217.7833,W,1.84,116.63,230511,,,D*70
$GPVTG,116.63,T,,M,1.84,N,3.4,K,D*01
$GPGGA,212124.000,3748.7601,N,12217.7832,W,2,06,2.2,5.1,M,-25.1,M,2.8,0000*47
$GPGSA,A,3,16,23,20,03,06,19,,,,,,,3.3,2.2,2.5*3C
$GPGSV,3,1,12,13,74,013,26,23,54,104,34,07,51,281,23,10,39,296,19*7A
$GPGSV,3,2,12,16,31,046,24,08,26,261,31,03,24,094,33,20,20,177,38*73
$GPGSV,3,3,12,06,18,078,34,19,11,123,36,30,08,040,22,04,02,258,*76
$GPRMC,212124.000,A,3748.7601,N,12217.7832,W,1.47,112.76,230511,,,D*7B
$GPVTG,112.76,T,,M,1.47,N,2.7,K,D*0C
$GPGGA,212125.000,3748.7603,N,12217.7832,W,2,06,2.2,4.0,M,-25.1,M,2.8,0000*44
$GPGSA,A,3,16,23,20,03,06,19,,,,,,,3.3,2.2,2.5*3C
$GPRMC,212125.000,A,3748.7603,N,12217.7832,W,1.65,116.45,230511,,,D*7C
$GPVTG,116.45,T,,M,1.65,N,3.0,K,D*0E
$GPGGA,212126.000,3748.7609,N,12217.7838,W,2,06,2.2,2.8,M,-25.1,M,2.8,0000*49
$GPGSA,A,3,16,23,20,03,06,19,,,,,,,3.3,2.2,2.5*3C
$GPRMC,212126.000,A,3748.7609,N,12217.7838,W,1.13,96.95,230511,,,D*4A
$GPVTG,96.95,T,,M,1.13,N,2.1,K,D*3B
$GPGGA,212127.000,3748.7616,N,12217.7843,W,2,06,2.2,2.0,M,-25.1,M,3.8,0000*43
$GPGSA,A,3,16,23,20,03,06,19,,,,,,,3.3,2.2,2.5*3C
$GPRMC,212127.000,A,3748.7616,N,12217.7843,W,1.25,94.28,230511,,,D*48
$GPVTG,94.28,T,,M,1.25,N,2.3,K,D*38
$GPGGA,212128.000,3748.7620,N,12217.7847,W,2,06,2.2,1.7,M,-25.1,M,4.8,0000*4E
$GPGSA,A,3,16,23,20,03,06,19,,,,,,,3.3,2.2,2.5*3C
$GPRMC,212128.000,A,3748.7620,N,12217.7847,W,1.11,103.13,230511,,,D*76
$GPVTG,103.13,T,,M,1.11,N,2.0,K,D*0B
$GPGGA,212129.000,3748.7622,N,12217.7854,W,2,06,2.2,1.4,M,-25.1,M,2.8,0000*4A
$GPGSA,A,3,16,23,20,03,06,19,,,,,,,3.3,2.2,2.5*3C
$GPGSV,3,1,12,13,74,013,25,23,54,104,27,07,51,281,23,10,39,296,19*7B
$GPGSV,3,2,12,16,31,046,23,08,26,261,31,03,24,094,25,20,20,177,28*72
$GPGSV,3,3,12,06,18,078,23,19,11,123,31,30,08,040,26,04,02,258,*73
$GPVTG,126.49,T,,M,1.22,N,2.3,K,D*00
$GPGGA,212130.000,3748.7623,N,12217.7858,W,2,06,2.2,1.8,M,-25.1,M,2.8,0000*43
$GPGSA,A,3,16,23,20,03,06,19,,,,,,,3.3,2.2,2.5*3C
$GPRMC,212130.000,A,3748.7623,N,12217.7858,W,1.49,126.75,230511,,,D*78
$GPVTG,126.75,T,,M,1.49,N,2.8,K,D*09
$GPGGA,212131.000,3748.7625,N,12217.7859,W,2,06,2.2,2.2,M,-25.1,M,2.8,0000*4C
$GPGSA,A,3,16,23,20,03,06,19,,,,,,,3.3,2.2,2.5*3C
$GPRMC,212131.000,A,3748.7625,N,12217.7859,W,1.29,130.50,230511,,,D*78
$GPVTG,130.50,T,,M,1.29,N,2.4,K,D*03
$GPGGA,212132.000,3748.7628,N,12217.7863,W,2,06,2.2,1.7,M,-25.1,M,2.8,0000*4D
$GPGSA,A,3,16,23,20,03,06,19,,,,,,,3.3,2.2,2.5*3C
$GPRMC,212132.000,A,3748.7628,N,12217.7863,W,1.06,113.51,230511,,,D*72
$GPVTG,113.51,T,,M,1.06,N,2.0,K,D*0A
$GPGGA,212133.000,3748.7624,N,12217.7857,W,2,06,2.2,2.2,M,-25.1,M,2.8,0000*41
$GPGSA,A,3,16,23,20,03,06,19,,,,,,,3.3,2.2,2.5*3C
$GPRMC,212133.000,A,3748.7624,N,12217.7857,W,1.44,117.11,230511,,,D*7E
$GPVTG,117.11,T,,M,1.44,N,2.7,K,D*0B
$GPGGA,212134.000,3748.7620,N,12217.7852,W,2,06,2.2,2.9,M,-25.1,M,3.8,0000*4D
$GPGSA,A,3,16,23,20,03,06,19,,,,,,,3.3,2.2,2.5*3C
$GPGSV,3,1,12,13,74,013,25,23,54,104,33,07,51,281,22,10,39,296,19*7F
$GPGSV,3,2,12,16,31,046,29,08,26,261,19,03,24,094,24,20,20,177,25*7E
$GPGSV,3,3,12,06,18,078,21,19,11,123,37,30,08,040,18,04,02,258,*7A
$GPRMC,212134.000,A,3748.7620,N,12217.7852,W,1.38,116.94,230511,,,D*7F
$GPVTG,116.94,T,,M,1.38,N,2.6,K,D*0D
$GPGGA,212135.000,3748.7615,N,12217.7848,W,2,06,2.2,3.9,M,-25.1,M,4.8,0000*47
$GPGSA,A,3,16,23,20,03,06,19,,,,,,,3.3,2.2,2.5*3C
$GPRMC,212135.000,A,3748.7615,N,12217.7848,W,1.27,115.68,230511,,,D*7D
$GPVTG,115.68,T,,M,1.27,N,2.4,K,D*01
$GPGGA,212136.000,3748.7611,N,12217.7847,W,2,05,4.2,4.7,M,-25.1,M,2.8,0000*45
$GPGSA,A,3,23,20,03,06,19,,,,,,,,5.2,4.2,3.1*3F
$GPRMC,212136.000,A,3748.7611,N,12217.7847,W,1.43,146.53,230511,,,D*79
$GPVTG,146.53,T,,M,1.43,N,2.6,K,D*0F
$GPGGA,212137.000,3748.7604,N,12217.7840,W,2,06,2.2,5.9,M,-25.1,M,2.8,0000*4D
$GPGSA,A,3,16,23,20,03,06,19,,,,,,,3.3,2.2,2.5*3C
$GPRMC,212137.000,A,3748.7604,N,12217.7840,W,1.19,141.30,230511,,,D*76
$GPVTG,141.30,T,,M,1.19,N,2.2,K,D*06
$GPGGA,212138.000,3748.7598,N,12217.7831,W,2,05,2.2,6.7,M,-25.1,M,3.8,0000*4D
$GPGSA,A,3,16,23,20,03,19,,,,,,,,3.4,2.2,2.6*3E
$GPRMC,212138.000,A,3748.7598,N,12217.7831,W,1.67,128.48,230511,,,D*70
$GPVTG,128.48,T,,M,1.67,N,3.1,K,D*0D
$GPGGA,212139.000,3748.7594,N,12217.7830,W,2,05,2.2,7.3,M,-25.1,M,4.8,0000*43
$GPGSA,A,3,16,23,20,03,19,,,,,,,,3.4,2.2,2.6*3E
$GPGSV,3,1,12,13,74,013,25,23,54,104,30,07,51,281,29,10,39,296,26*7B
$GPGSV,3,2,12,16,31,046,19,08,26,261,31,03,24,094,20,20,20,177,23*75
$GPGSV,3,3,12,06,18,078,15,19,11,123,32,30,08,040,19,04,02,258,*79
$GPRMC,212139.000,A,3748.7594,N,12217.7830,W,1.68,126.12,230511,,,D*72
$GPVTG,126.12,T,,M,1.68,N,3.1,K,D*03
$GPGGA,212140.000,3748.7589,N,12217.7826,W,2,05,2.2,7.8,M,-25.1,M,2.8,0000*4B
$GPGSA,A,3,16,23,20,03,19,,,,,,,,3.4,2.2,2.6*3E
$GPRMC,212140.000,A,3748.7589,N,12217.7826,W,1.58,116.64,230511,,,D*76
$GPVTG,116.64,T,,M,1.58,N,2.9,K,D*0B
$GPGGA,212141.000,3748.7585,N,12217.7821,W,2,05,2.2,8.4,M,-25.1,M,3.8,0000*43
$GPGSA,A,3,16,23,20,03,19,,,,,,,,3.4,2.2,2.6*3E
$GPRMC,212141.000,A,3748.7585,N,12217.7821,W,1.29,117.32,230511,,,D*78
$GPVTG,117.32,T,,M,1.29,N,2.4,K,D*02
$GPGGA,212142.000,3748.7580,N,12217.7819,W,2,04,3.4,9.0,M,-25.1,M,2.8,0000*4C
$GPGSA,A,3,23,20,03,19,,,,,,,,,3.6,3.4,1.0*39
$GPRMC,212142.000,A,3748.7580,N,12217.7819,W,2.11,139.26,230511,,,D*74
$GPVTG,139.26,T,,M,2.11,N,3.9,K,D*0F
$GPGGA,212143.000,3748.7572,N,12217.7814,W,2,04,3.4,9.8,M,-25.1,M,2.8,0000*45
$GPGSA,A,3,23,20,03,19,,,,,,,,,3.6,3.4,1.0*39
$GPRMC,212143.000,A,3748.7572,N,12217.7814,W,2.83,144.06,230511,,,D*76
$GPVTG,144.06,T,,M,2.83,N,5.2,K,D*01
$GPGGA,212144.000,3748.7566,N,12217.7806,W,2,04,3.4,10.0,M,-25.1,M,2.8,0000*74
$GPGSA,A,3,23,20,03,19,,,,,,,,,3.6,3.4,1.0*39
$GPGSV,3,1,12,13,74,013,25,23,54,104,33,07,51,281,23,10,39,296,21*75
$GPGSV,3,2,12,16,31,046,18,08,26,261,28,03,24,094,20,20,20,177,35*7B
$GPGSV,3,3,12,06,18,078,18,19,11,123,32,30,08,040,18,04,02,258,*75
$GPRMC,212144.000,A,3748.7566,N,12217.7806,W,2.70,134.30,230511,,,D*79
$GPVTG,134.30,T,,M,2.70,N,5.0,K,D*0D
$GPGGA,212145.000,3748.7557,N,12217.7796,W,2,05,4.2,10.9,M,-25.1,M,2.8,0000*78
$GPGSA,A,3,23,20,03,06,19,,,,,,,,5.2,4.2,3.1*3F
$GPRMC,212145.000,A,3748.7557,N,12217.7796,W,2.65,127.28,230511,,,D*73
$GPVTG,127.28,T,,M,2.65,N,4.9,K,D*0A
$GPGGA,212146.000,3748.7550,N,12217.7788,W,2,05,4.2,12.0,M,-25.1,M,3.8,0000*79
$GPGSA,A,3,23,20,03,06,19,,,,,,,,5.2,4.2,3.1*3F
$GPRMC,212146.000,A,3748.7550,N,12217.7788,W,2.22,126.51,230511,,,D*74
$GPVTG,126.51,T,,M,2.22,N,4.1,K,D*0E
$GPGGA,212147.000,3748.7542,N,12217.7783,W,2,05,4.2,13.5,M,-25.1,M,4.8,0000*73
$GPGSA,A,3,23,20,03,06,19,,,,,,,,5.2,4.2,3.1*3F
$GPRMC,212147.000,A,3748.7542,N,12217.7783,W,2.03,135.77,230511,,,D*78
$GPVTG,135.77,T,,M,2.03,N,3.8,K,D*05
$GPGGA,212148.000,3748.7535,N,12217.7776,W,2,05,2.2,14.2,M,-25.1,M,2.8,0000*76
$GPGSA,A,3,16,23,20,03,19,,,,,,,,3.4,2.2,2.6*3E
$GPRMC,212148.000,A,3748.7535,N,12217.7776,W,1.96,128.97,230511,,,D*70
$GPVTG,128.97,T,,M,1.96,N,3.6,K,D*06
$GPGGA,212149.000,3748.7523,N,12217.7761,W,2,05,2.2,15.3,M,-25.1,M,2.8,0000*76
$GPGSA,A,3,16,23,20,03,19,,,,,,,,3.4,2.2,2.6*3E
$GPGSV,3,1,12,13,74,014,25,23,54,104,33,07,51,281,23,10,39,296,21*72
$GPGSV,3,2,12,16,31,046,19,08,26,261,28,03,24,094,21,20,20,177,35*7B
$GPGSV,3,3,12,06,18,078,18,19,11,122,28,30,08,040,18,04,01,258,*7C
$GPRMC,212149.000,A,3748.7523,N,12217.7761,W,2.78,136.75,230511,,,D*70
$GPGGA,212150.000,3748.7518,N,12217.7757,W,2,04,3.4,15.7,M,-25.1,M,2.8,0000*71
$GPGSA,A,3,23,20,03,19,,,,,,,,,3.6,3.4,1.0*39
$GPRMC,212150.000,A,3748.7518,N,12217.7757,W,2.47,135.05,230511,,,D*7D
$GPVTG,135.05,T,,M,2.47,N,4.6,K,D*09
$GPGGA,212151.000,3748.7512,N,12217.7757,W,2,04,3.4,16.4,M,-25.1,M,3.8,0000*7B
$GPGSA,A,3,23,20,03,19,,,,,,,,,3.6,3.4,1.0*39
$GPRMC,212151.000,A,3748.7512,N,12217.7757,W,1.96,142.52,230511,,,D*7B
$GPVTG,142.52,T,,M,1.96,N,3.6,K,D*03
$GPGGA,212152.000,3748.7485,N,12217.7735,W,2,06,2.2,20.9,M,-25.1,M,4.8,0000*79
$GPGSA,A,3,16,23,20,03,06,19,,,,,,,3.3,2.2,2.5*3C
$GPRMC,212152.000,A,3748.7485,N,12217.7735,W,3.12,148.37,230511,,,D*74
$GPVTG,148.37,T,,M,3.12,N,5.8,K,D*0C
$GPGGA,212153.000,3748.7471,N,12217.7727,W,2,05,4.2,22.7,M,-25.1,M,5.8,0000*78
$GPGSA,A,3,23,20,03,06,19,,,,,,,,5.2,4.2,3.1*3F
$GPRMC,212153.000,A,3748.7471,N,12217.7727,W,4.32,145.30,230511,,,D*72
$GPVTG,145.30,T,,M,4.32,N,8.0,K,D*06
$GPGGA,212154.000,3748.7454,N,12217.7717,W,2,05,4.2,25.2,M,-25.1,M,2.8,0000*7E
$GPGSA,A,3,23,20,03,06,19,,,,,,,,5.2,4.2,3.1*3F
$GPGSV,3,1,12,13,74,014,25,23,54,104,32,07,51,281,23,10,39,296,20*72
$GPGSV,3,2,12,16,31,046,18,08,26,261,23,03,24,094,21,20,20,177,28*7D
$GPGSV,3,3,12,06,18,078,18,19,11,122,28,30,08,040,19,04,01,258,*7D
$GPRMC,212154.000,A,3748.7454,N,12217.7717,W,4.83,141.42,230511,,,D*7A
$GPVTG,141.42,T,,M,4.83,N,8.9,K,D*04
$GPGGA,212155.000,3748.7436,N,12217.7699,W,2,06,2.2,28.0,M,-25.1,M,3.8,0000*77
$GPGSA,A,3,16,23,20,03,06,19,,,,,,,3.3,2.2,2.5*3C
$GPRMC,212155.000,A,3748.7436,N,12217.7699,W,5.19,134.24,230511,,,D*78
$GPVTG,134.24,T,,M,5.19,N,9.6,K,D*0A
$GPGGA,212156.000,3748.7425,N,12217.7679,W,2,06,2.2,30.5,M,-25.1,M,4.8,0000*73
$GPGSA,A,3,16,23,20,03,06,19,,,,,,,3.3,2.2,2.5*3C
$GPRMC,212156.000,A,3748.7425,N,12217.7679,W,5.04,126.18,230511,,,D*77
$GPVTG,126.18,T,,M,5.04,N,9.3,K,D*0F
$GPGGA,212157.000,3748.7415,N,12217.7661,W,2,06,2.2,32.1,M,-25.1,M,5.8,0000*7F
$GPGSA,A,3,16,23,20,03,06,19,,,,,,,3.3,2.2,2.5*3C
$GPRMC,212157.000,A,3748.7415,N,12217.7661,W,4.98,129.01,230511,,,D*7F
$GPVTG,129.01,T,,M,4.98,N,9.2,K,D*0D
$GPGGA,212158.000,3748.7410,N,12217.7649,W,2,06,2.2,33.3,M,-25.1,M,6.8,0000*7F
$GPGSA,A,3,16,23,20,03,06,19,,,,,,,3.3,2.2,2.5*3C
$GPRMC,212158.000,A,3748.7410,N,12217.7649,W,4.85,131.02,230511,,,D*79
$GPVTG,131.02,T,,M,4.85,N,9.0,K,D*09
$GPGGA,212159.000,3748.7398,N,12217.7635,W,2,06,2.2,34.6,M,-25.1,M,7.8,0000*71
$GPGSA,A,3,16,23,20,03,06,19,,,,,,,3.3,2.2,2.5*3C
$GPGSV,3,1,12,13,74,014,25,23,54,104,32,07,51,281,22,10,39,296,19*79
$GPGSV,3,2,12,16,31,046,17,08,26,261,26,03,24,094,21,20,20,177,23*7C
$GPGSV,3,3,12,06,18,078,18,19,11,122,33,30,08,040,21,04,01,258,*7C
$GPRMC,212159.000,A,3748.7398,N,12217.7635,W,4.40,130.58,230511,,,D*73
$GPVTG,130.58,T,,M,4.40,N,8.2,K,D*0D
$GPGGA,212200.000,3748.7396,N,12217.7629,W,2,05,2.2,33.6,M,-25.1,M,2.8,0000*7C
$GPGSA,A,3,16,23,20,03,19,,,,,,,,3.4,2.2,2.6*3E
$GPRMC,212200.000,A,3748.7396,N,12217.7629,W,3.60,128.29,230511,,,D*75
$GPVTG,128.29,T,,M,3.60,N,6.7,K,D*0C
$GPGGA,212201.000,3748.7387,N,12217.7604,W,2,05,2.2,34.2,M,-25.1,M,2.8,0000*71
$GPGSA,A,3,16,23,20,03,19,,,,,,,,3.4,2.2,2.6*3E
$GPRMC,212201.000,A,3748.7387,N,12217.7604,W,3.59,121.02,230511,,,D*71
$GPVTG,121.02,T,,M,3.59,N,6.7,K,D*06
$GPGGA,212202.000,3748.7391,N,12217.7597,W,2,06,2.2,33.0,M,-25.1,M,2.8,0000*7A
$GPGSA,A,3,16,23,20,03,06,19,,,,,,,3.3,2.2,2.5*3C
$GPRMC,212202.000,A,3748.7391,N,12217.7597,W,3.28,100.64,230511,,,D*79
$GPVTG,100.64,T,,M,3.28,N,6.1,K,D*05
$GPGGA,212203.000,3748.7384,N,12217.7580,W,2,06,2.2,32.9,M,-25.1,M,2.8,0000*71
$GPGSA,A,3,16,23,20,03,06,19,,,,,,,3.3,2.2,2.5*3C
$GPRMC,212203.000,A,3748.7384,N,12217.7580,W,4.02,116.56,230511,,,D*73
$GPVTG,116.56,T,,M,4.02,N,7.4,K,D*08
$GPGGA,212204.000,3748.7373,N,12217.7558,W,2,06,2.2,33.4,M,-25.1,M,3.8,0000*76
$GPGSA,A,3,16,23,20,03,06,19,,,,,,,3.3,2.2,2.5*3C
$GPGSV,3,1,12,13,74,014,25,23,54,104,33,07,51,281,23,10,39,296,19*79
$GPGSV,3,2,12,16,31,046,18,08,26,261,27,03,24,094,21,20,20,177,30*70
$GPGSV,3,3,12,06,18,078,18,19,11,122,26,30,08,040,21,04,01,258,*78
$GPVTG,126.31,T,,M,3.40,N,6.3,K,D*0D
$GPGGA,212205.000,3748.7361,N,12217.7537,W,2,06,2.2,33.8,M,-25.1,M,4.8,0000*76
$GPGSA,A,3,16,23,20,03,06,19,,,,,,,3.3,2.2,2.5*3C
$GPRMC,212205.000,A,3748.7361,N,12217.7537,W,3.23,122.23,230511,,,D*73
$GPVTG,122.23,T,,M,3.23,N,6.0,K,D*0C
$GPGGA,212206.000,3748.7352,N,12217.7519,W,2,06,2.2,34.3,M,-25.1,M,5.8,0000*74
$GPGSA,A,3,16,23,20,03,06,19,,,,,,,3.3,2.2,2.5*3C
$GPRMC,212206.000,A,3748.7352,N,12217.7519,W,3.21,119.81,230511,,,D*7E
$GPVTG,119.81,T,,M,3.21,N,5.9,K,D*04
$GPGGA,212207.000,3748.7345,N,12217.7505,W,2,06,2.2,34.3,M,-25.1,M,6.8,0000*7D
$GPGSA,A,3,16,23,20,03,06,19,,,,,,,3.3,2.2,2.5*3C
$GPRMC,212207.000,A,3748.7345,N,12217.7505,W,3.40,126.53,230511,,,D*70
$GPVTG,126.53,T,,M,3.40,N,6.3,K,D*09
$GPGGA,212208.000,3748.7341,N,12217.7494,W,2,05,4.2,33.6,M,-25.1,M,7.8,0000*79
$GPGSA,A,3,23,20,03,06,19,,,,,,,,5.2,4.2,3.0*3E
$GPRMC,212208.000,A,3748.7341,N,12217.7494,W,3.30,125.83,230511,,,D*7B
$GPVTG,125.83,T,,M,3.30,N,6.1,K,D*02
$GPGGA,212209.000,3748.7329,N,12217.7475,W,2,06,2.2,33.9,M,-25.1,M,8.8,0000*7C
$GPGSA,A,3,16,23,20,03,06,19,,,,,,,3.3,2.2,2.5*3C
$GPGSV,3,1,12,13,74,014,25,23,54,104,28,07,51,281,23,10,39,296,19*73
$GPGSV,3,2,12,16,31,046,17,08,26,261,29,03,24,094,30,20,20,177,31*70
$GPGSV,3,3,12,06,18,078,18,19,11,122,24,30,08,040,21,04,01,258,*7A
$GPRMC,212209.000,A,3748.7329,N,12217.7475,W,2.89,131.33,230511,,,D*76
$GPVTG,131.33,T,,M,2.89,N,5.4,K,D*09
$GPGGA,212210.000,3748.7328,N,12217.7469,W,2,06,2.2,33.2,M,-25.1,M,2.8,0000*79
$GPGSA,A,3,16,23,20,03,06,19,,,,,,,3.3,2.2,2.5*3C
$GPRMC,212210.000,A,3748.7328,N,12217.7469,W,2.58,123.55,230511,,,D*7D
$GPVTG,123.55,T,,M,2.58,N,4.8,K,D*0B
$GPGGA,212211.000,3748.7325,N,12217.7455,W,2,06,2.2,31.7,M,-25.1,M,3.8,0000*7C
$GPGSA,A,3,16,23,20,03,06,19,,,,,,,3.3,2.2,2.5*3C
$GPRMC,212211.000,A,3748.7325,N,12217.7455,W,2.59,117.61,230511,,,D*7F
$GPVTG,117.61,T,,M,2.59,N,4.8,K,D*0A
$GPGGA,212212.000,3748.7322,N,12217.7442,W,2,06,2.2,30.4,M,-25.1,M,2.8,0000*7D
$GPGSA,A,3,16,23,20,03,06,19,,,,,,,3.3,2.2,2.5*3C
$GPRMC,212212.000,A,3748.7322,N,12217.7442,W,2.59,117.65,230511,,,D*79
$GPVTG,117.65,T,,M,2.59,N,4.8,K,D*0E
$GPGGA,212213.000,3748.7324,N,12217.7435,W,2,06,2.2,28.5,M,-25.1,M,2.8,0000*72
$GPGSA,A,3,16,23,20,03,06,19,,,,,,,3.3,2.2,2.5*3C
$GPRMC,212213.000,A,3748.7324,N,12217.7435,W,1.87,110.44,230511,,,D*7A
$GPVTG,110.44,T,,M,1.87,N,3.5,K,D*00
$GPGGA,212214.000,3748.7336,N,12217.7441,W,2,06,2.2,25.6,M,-25.1,M,2.8,0000*7B
$GPGSA,A,3,16,23,20,03,06,19,,,,,,,3.3,2.2,2.5*3C
$GPGSV,3,1,12,13,74,014,25,23,54,104,31,07,51,281,23,10,39,296,20*71
$GPGSV,3,2,12,16,31,046,23,08,26,261,29,03,24,094,34,20,20,177,35*77
$GPGSV,3,3,12,06,18,078,31,19,11,122,24,30,08,040,21,04,01,258,*71
$GPRMC,212214.000,A,3748.7336,N,12217.7441,W,1.11,81.68,230511,,,D*45
$GPVTG,81.68,T,,M,1.11,N,2.1,K,D*3D
$GPGGA,212215.000,3748.7342,N,12217.7441,W,2,06,2.2,24.0,M,-25.1,M,3.8,0000*7F
$GPGSA,A,3,16,23,20,03,06,19,,,,,,,3.3,2.2,2.5*3C
$GPRMC,212215.000,A,3748.7342,N,12217.7441,W,0.94,72.04,230511,,,D*4D
$GPVTG,72.04,T,,M,0.94,N,1.7,K,D*32
$GPGGA,212216.000,3748.7355,N,12217.7450,W,2,06,2.2,21.7,M,-25.1,M,4.8,0000*7F
$GPGSA,A,3,16,23,20,03,06,19,,,,,,,3.3,2.2,2.5*3C
$GPRMC,212216.000,A,3748.7355,N,12217.7450,W,0.58,65.89,230511,,,D*4B
$GPVTG,65.89,T,,M,0.58,N,1.1,K,D*37
$GPGGA,212217.000,3748.7366,N,12217.7459,W,2,06,2.2,19.3,M,-25.1,M,2.8,0000*7E
$GPGSA,A,3,16,23,20,03,06,19,,,,,,,3.3,2.2,2.5*3C
$GPRMC,212217.000,A,3748.7366,N,12217.7459,W,0.68,88.06,230511,,,D*44
$GPVTG,88.06,T,,M,0.68,N,1.3,K,D*32
$GPGGA,212218.000,3748.7379,N,12217.7474,W,2,06,2.2,16.9,M,-25.1,M,2.8,0000*75
$GPGSA,A,3,16,23,20,03,06,19,,,,,,,3.3,2.2,2.5*3C
$GPRMC,212218.000,A,3748.7379,N,12217.7474,W,0.33,58.49,230511,,,D*42
$GPVTG,58.49,T,,M,0.33,N,0.6,K,D*3E
$GPGGA,212219.000,3748.7389,N,12217.7485,W,2,06,2.2,15.1,M,-25.1,M,2.8,0000*7E
$GPGSA,A,3,16,23,20,03,06,19,,,,,,,3.3,2.2,2.5*3C
$GPGSV,3,1,12,13,74,014,25,23,54,104,35,07,51,281,27,10,39,296,21*70
$GPGSV,3,2,12,16,30,045,25,08,26,261,28,03,24,093,23,20,19,176,35*78
$GPGSV,3,3,12,06,18,078,23,19,11,122,24,30,08,040,27,04,01,257,*7B
$GPRMC,212219.000,A,3748.7389,N,12217.7485,W,0.52,342.68,230511,,,D*7E
$GPVTG,342.68,T,,M,0.52,N,1.0,K,D*05
$GPGGA,212220.000,3748.7395,N,12217.7492,W,2,06,2.2,13.7,M,-25.1,M,2.8,0000*7F
$GPGSA,A,3,16,23,20,03,06,19,,,,,,,3.3,2.2,2.5*3C
$GPRMC,212220.000,A,3748.7395,N,12217.7492,W,0.66,60.40,230511,,,D*41
$GPVTG,60.40,T,,M,0.66,N,1.2,K,D*39
$GPGGA,212221.000,3748.7403,N,12217.7498,W,2,06,2.2,12.1,M,-25.1,M,2.8,0000*7B
$GPGSA,A,3,16,23,20,03,06,19,,,,,,,3.3,2.2,2.5*3C
$GPRMC,212221.000,A,3748.7403,N,12217.7498,W,0.83,58.74,230511,,,D*45
$GPVTG,58.74,T,,M,0.83,N,1.5,K,D*39
$GPGGA,212222.000,3748.7406,N,12217.7498,W,2,06,2.2,10.7,M,-25.1,M,3.8,0000*78
$GPGSA,A,3,16,23,20,03,06,19,,,,,,,3.3,2.2,2.5*3C
$GPRMC,212222.000,A,3748.7406,N,12217.7498,W,0.39,93.94,230511,,,D*4B
$GPVTG,93.94,T,,M,0.39,N,0.7,K,D*32
$GPGGA,212223.000,3748.7406,N,12217.7495,W,2,06,2.2,9.5,M,-25.1,M,4.8,0000*49
$GPGSA,A,3,16,23,20,03,06,19,,,,,,,3.3,2.2,2.5*3C
$GPRMC,212223.000,A,3748.7406,N,12217.7495,W,0.23,68.33,230511,,,D*45
$GPVTG,68.33,T,,M,0.23,N,0.4,K,D*33
$GPGGA,212224.000,3748.7411,N,12217.7501,W,2,06,2.2,8.2,M,-25.1,M,2.8,0000*44
$GPGSA,A,3,16,23,20,03,06,19,,,,,,,3.3,2.2,2.5*3C
$GPGSV,3,1,12,13,74,014,25,23,54,104,32,07,51,281,24,10,39,296,21*74
$GPGSV,3,2,12,16,30,045,25,08,26,261,25,03,24,093,24,20,19,176,33*74
$GPGSV,3,3,12,06,18,078,21,19,11,122,26,30,08,040,18,04,01,257,*77
$GPRMC,212224.000,A,3748.7411,N,12217.7501,W,0.39,50.40,230511,,,D*4C
$GPGGA,212225.000,3748.7415,N,12217.7506,W,2,06,2.2,6.3,M,-25.1,M,2.8,0000*49
$GPGSA,A,3,16,23,20,03,06,19,,,,,,,3.3,2.2,2.5*3C
$GPRMC,212225.000,A,3748.7415,N,12217.7506,W,0.42,47.11,230511,,,D*40
$GPVTG,47.11,T,,M,0.42,N,0.8,K,D*35
$GPGGA,212226.000,3748.7419,N,12217.7507,W,2,06,2.2,4.6,M,-25.1,M,3.8,0000*41
$GPGSA,A,3,16,23,20,03,06,19,,,,,,,3.3,2.2,2.5*3C
$GPRMC,212226.000,A,3748.7419,N,12217.7507,W,0.57,68.41,230511,,,D*42
$GPVTG,68.41,T,,M,0.57,N,1.1,K,D*31
$GPGGA,212227.000,3748.7420,N,12217.7505,W,2,06,2.2,3.0,M,-25.1,M,4.8,0000*4E
$GPGSA,A,3,16,23,20,03,06,19,,,,,,,3.3,2.2,2.5*3C
$GPRMC,212227.000,A,3748.7420,N,12217.7505,W,0.66,84.39,230511,,,D*44
$GPVTG,84.39,T,,M,0.66,N,1.2,K,D*3D
$GPGGA,212228.000,3748.7413,N,12217.7488,W,2,06,2.2,2.7,M,-25.1,M,5.8,0000*42
$GPGSA,A,3,16,23,20,03,06,19,,,,,,,3.3,2.2,2.5*3C
$GPRMC,212228.000,A,3748.7413,N,12217.7488,W,0.79,88.02,230511,,,D*45
$GPVTG,88.02,T,,M,0.79,N,1.5,K,D*30
$GPGGA,212229.000,3748.7414,N,12217.7482,W,2,05,4.1,0.3,M,-25.1,M,6.8,0000*4D
$GPGSA,A,3,23,20,03,06,19,,,,,,,,5.1,4.1,3.0*3E
$GPGSV,3,1,12,13,74,014,25,23,54,104,26,07,51,281,23,10,39,296,21*76
$GPGSV,3,2,12,16,30,045,18,08,26,261,27,03,24,093,30,20,19,176,37*79
$GPGSV,3,3,12,06,18,078,21,19,11,122,26,30,08,040,19,04,01,257,*76
$GPRMC,212229.000,A,3748.7414,N,12217.7482,W,0.71,60.21,230511,,,D*46
$GPVTG,60.21,T,,M,0.71,N,1.3,K,D*39
$GPGGA,212230.000,3748.7409,N,12217.7468,W,2,06,2.2,-2.6,M,-25.1,M,7.8,0000*60
$GPGSA,A,3,16,23,20,03,06,19,,,,,,,3.3,2.2,2.5*3C
$GPRMC,212230.000,A,3748.7409,N,12217.7468,W,1.18,97.83,230511,,,D*48
$GPVTG,97.83,T,,M,1.18,N,2.2,K,D*35
$GPGGA,212231.000,3748.7406,N,12217.7455,W,2,06,2.2,-4.4,M,-25.1,M,8.8,0000*6B
$GPGSA,A,3,16,23,20,03,06,19,,,,,,,3.3,2.2,2.5*3C
$GPRMC,212231.000,A,3748.7406,N,12217.7455,W,1.39,85.28,230511,,,D*49
$GPVTG,85.28,T,,M,1.39,N,2.6,K,D*30
$GPGGA,212232.000,3748.7402,N,12217.7444,W,2,06,2.2,-5.3,M,-25.1,M,2.8,0000*60
$GPGSA,A,3,16,23,20,03,06,19,,,,,,,3.3,2.2,2.5*3C
$GPRMC,212232.000,A,3748.7402,N,12217.7444,W,1.43,105.90,230511,,,D*79
$GPVTG,105.90,T,,M,1.43,N,2.7,K,D*06
$GPGGA,212233.000,3748.7396,N,12217.7431,W,2,06,2.2,-5.3,M,-25.1,M,3.8,0000*68
$GPGSA,A,3,16,23,20,03,06,19,,,,,,,3.3,2.2,2.5*3C
$GPRMC,212233.000,A,3748.7396,N,12217.7431,W,1.04,114.69,230511,,,D*75
$GPVTG,114.69,T,,M,1.04,N,1.9,K,D*0E
$GPGGA,212234.000,3748.7395,N,12217.7426,W,2,06,2.2,-5.6,M,-25.1,M,4.8,0000*68
$GPGSA,A,3,16,23,20,03,06,19,,,,,,,3.3,2.2,2.5*3C
$GPGSV,3,1,12,13,74,014,19,23,54,104,27,07,51,281,23,10,39,296,21*78
$GPGSV,3,2,12,16,30,045,28,08,26,261,23,03,24,093,34,20,19,176,39*74
$GPGSV,3,3,12,06,18,078,26,19,11,122,25,30,08,040,,04,01,257,*7A
$GPRMC,212234.000,A,3748.7395,N,12217.7426,W,0.62,109.01,230511,,,D*74
$GPVTG,109.01,T,,M,0.62,N,1.1,K,D*05
$GPGGA,212235.000,3748.7390,N,12217.7415,W,2,06,2.2,-5.6,M,-25.1,M,5.8,0000*6D
$GPGSA,A,3,16,23,20,03,06,19,,,,,,,3.3,2.2,2.5*3C
$GPRMC,212235.000,A,3748.7390,N,12217.7415,W,1.46,120.55,230511,,,D*7D
$GPVTG,120.55,T,,M,1.46,N,2.7,K,D*0D
$GPGGA,212236.000,3748.7384,N,12217.7405,W,2,06,2.2,-5.2,M,-25.1,M,2.8,0000*69
$GPGSA,A,3,16,23,20,03,06,19,,,,,,,3.3,2.2,2.5*3C
$GPRMC,212236.000,A,3748.7384,N,12217.7405,W,1.25,116.38,230511,,,D*71
$GPVTG,116.38,T,,M,1.25,N,2.3,K,D*02
$GPGGA,212237.000,3748.7375,N,12217.7394,W,2,06,2.2,-2.9,M,-25.1,M,2.8,0000*65
$GPGSA,A,3,16,23,20,03,06,19,,,,,,,3.3,2.2,2.5*3C
$GPRMC,212237.000,A,3748.7375,N,12217.7394,W,1.41,127.42,230511,,,D*7C
$GPVTG,127.42,T,,M,1.41,N,2.6,K,D*0A
$GPGGA,212238.000,3748.7368,N,12217.7385,W,2,06,2.2,-2.0,M,-25.1,M,3.8,0000*6E
$GPGSA,A,3,16,23,20,03,06,19,,,,,,,3.3,2.2,2.5*3C
$GPRMC,212238.000,A,3748.7368,N,12217.7385,W,1.57,130.66,230511,,,D*78
$GPVTG,130.66,T,,M,1.57,N,2.9,K,D*02
$GPGGA,212239.000,3748.7363,N,12217.7377,W,2,06,2.2,-1.3,M,-25.1,M,4.8,0000*6E
$GPGSA,A,3,16,23,20,03,06,19,,,,,,,3.3,2.2,2.5*3C
$GPGSV,3,1,12,13,74,014,25,23,54,104,27,07,51,281,23,10,39,296,21*77
$GPGSV,3,2,12,16,30,045,22,08,26,261,26,03,24,093,26,20,19,176,33*72
$GPGSV,3,3,12,06,18,078,24,19,11,122,31,30,08,040,,04,01,257,*7D
$GPVTG,125.15,T,,M,1.66,N,3.1,K,D*09
$GPGGA,212240.000,3748.7360,N,12217.7372,W,2,06,2.2,-1.1,M,-25.1,M,5.8,0000*65
$GPGSA,A,3,16,23,20,03,06,19,,,,,,,3.3,2.2,2.5*3C
$GPRMC,212240.000,A,3748.7360,N,12217.7372,W,1.81,121.19,230511,,,D*74
$GPVTG,121.19,T,,M,1.81,N,3.3,K,D*0A
$GPGGA,212241.000,3748.7362,N,12217.7373,W,2,06,2.2,-2.5,M,-25.1,M,6.8,0000*63
$GPGSA,A,3,16,23,20,03,06,19,,,,,,,3.3,2.2,2.5*3C
$GPRMC,212241.000,A,3748.7362,N,12217.7373,W,1.72,115.50,230511,,,D*70
$GPVTG,115.50,T,,M,1.72,N,3.2,K,D*0D
$GPGGA,212242.000,3748.7356,N,12217.7363,W,2,06,2.2,-2.6,M,-25.1,M,7.8,0000*64
$GPGSA,A,3,16,23,20,03,06,19,,,,,,,3.3,2.2,2.5*3C
$GPRMC,212242.000,A,3748.7356,N,12217.7363,W,2.14,121.64,230511,,,D*76
$GPVTG,121.64,T,,M,2.14,N,4.0,K,D*0B
$GPGGA,212243.000,3748.7349,N,12217.7352,W,2,06,2.2,-1.8,M,-25.1,M,8.8,0000*6B
$GPGSA,A,3,16,23,20,03,06,19,,,,,,,3.3,2.2,2.5*3C
$GPRMC,212243.000,A,3748.7349,N,12217.7352,W,2.05,126.27,230511,,,D*7B
$GPVTG,126.27,T,,M,2.05,N,3.8,K,D*04
$GPGGA,212244.000,3748.7337,N,12217.7338,W,2,06,2.2,0.1,M,-25.1,M,9.8,0000*4D
$GPGSA,A,3,16,23,20,03,06,19,,,,,,,3.3,2.2,2.5*3C
$GPGSV,3,1,12,13,74,014,24,23,54,104,26,07,51,281,23,10,39,296,21*77
$GPGSV,3,2,12,16,30,045,24,08,26,261,31,03,24,093,32,20,19,176,35*71
$GPGSV,3,3,12,06,18,078,23,19,11,122,27,30,08,040,19,04,01,257,*75
$GPRMC,212244.000,A,3748.7337,N,12217.7338,W,2.31,136.12,230511,,,D*79
$GPVTG,136.12,T,,M,2.31,N,4.3,K,D*08
$GPGGA,212245.000,3748.7324,N,12217.7323,W,2,06,2.2,2.4,M,-25.1,M,10.8,0000*7B
$GPGSA,A,3,16,23,20,03,06,19,,,,,,,3.3,2.2,2.5*3C
$GPRMC,212245.000,A,3748.7324,N,12217.7323,W,3.15,137.20,230511,,,D*77
$GPVTG,137.20,T,,M,3.15,N,5.8,K,D*05
$GPGGA,212246.000,3748.7313,N,12217.7307,W,2,06,2.2,3.4,M,-25.1,M,11.8,0000*7A
$GPGSA,A,3,16,23,20,03,06,19,,,,,,,3.3,2.2,2.5*3C
$GPRMC,212246.000,A,3748.7313,N,12217.7307,W,3.12,125.80,230511,,,D*78
$GPVTG,125.80,T,,M,3.12,N,5.8,K,D*0B
$GPGGA,212247.000,3748.7302,N,12217.7290,W,2,06,2.2,4.7,M,-25.1,M,12.8,0000*73
$GPGSA,A,3,16,23,20,03,06,19,,,,,,,3.3,2.2,2.5*3C
$GPRMC,212247.000,A,3748.7302,N,12217.7290,W,3.05,129.76,230511,,,D*75
$GPVTG,129.76,T,,M,3.05,N,5.7,K,D*07
$GPGGA,212248.000,3748.7303,N,12217.7286,W,2,06,2.2,4.4,M,-25.1,M,13.8,0000*78
$GPGSA,A,3,16,23,20,03,06,19,,,,,,,3.3,2.2,2.5*3C
$GPRMC,212248.000,A,3748.7303,N,12217.7286,W,2.07,133.30,230511,,,D*76
$GPVTG,133.30,T,,M,2.07,N,3.8,K,D*04
$GPGGA,212249.000,3748.7305,N,12217.7284,W,2,06,2.2,4.2,M,-25.1,M,14.8,0000*7C
$GPGSA,A,3,16,23,20,03,06,19,,,,,,,3.3,2.2,2.5*3C
$GPGSV,3,1,12,13,74,014,23,23,54,104,31,07,51,281,23,10,39,296,17*73
$GPGSV,3,2,12,16,30,045,23,08,26,261,24,03,24,093,31,20,19,176,35*71
$GPGSV,3,3,12,06,18,078,23,19,11,122,28,30,08,040,18,04,01,257,*7B
$GPRMC,212249.000,A,3748.7305,N,12217.7284,W,1.87,102.77,230511,,,D*79
$GPVTG,102.77,T,,M,1.87,N,3.5,K,D*03
$GPGGA,212250.000,3748.7307,N,12217.7282,W,2,06,2.2,4.1,M,-25.1,M,2.8,0000*44
$GPGSA,A,3,16,23,20,03,06,19,,,,,,,3.3,2.2,2.5*3C
$GPRMC,212250.000,A,3748.7307,N,12217.7282,W,1.90,105.24,230511,,,D*72
$GPVTG,105.24,T,,M,1.90,N,3.5,K,D*04
$GPGGA,212251.000,3748.7308,N,12217.7277,W,2,06,2.2,4.3,M,-25.1,M,2.8,0000*42
$GPGSA,A,3,16,23,20,03,06,19,,,,,,,3.3,2.2,2.5*3C
$GPRMC,212251.000,A,3748.7308,N,12217.7277,W,2.17,106.52,230511,,,D*78
$GPVTG,106.52,T,,M,2.17,N,4.0,K,D*08
$GPGGA,212252.000,3748.7307,N,12217.7269,W,2,05,2.2,4.3,M,-25.1,M,3.8,0000*43
$GPGSA,A,3,16,23,20,03,19,,,,,,,,3.4,2.2,2.6*3E
$GPRMC,212252.000,A,3748.7307,N,12217.7269,W,2.20,115.46,230511,,,D*78
$GPVTG,115.46,T,,M,2.20,N,4.1,K,D*0A
$GPGGA,212253.000,3748.7306,N,12217.7264,W,2,06,2.2,4.3,M,-25.1,M,4.8,0000*4A
$GPGSA,A,3,16,23,20,03,06,19,,,,,,,3.3,2.2,2.5*3C
$GPRMC,212253.000,A,3748.7306,N,12217.7264,W,2.20,113.81,230511,,,D*78
$GPVTG,113.81,T,,M,2.20,N,4.1,K,D*07
$GPGGA,212254.000,3748.7307,N,12217.7262,W,2,06,2.2,4.1,M,-25.1,M,5.8,0000*49
$GPGSA,A,3,16,23,20,03,06,19,,,,,,,3.3,2.2,2.5*3C
$GPGSV,3,1,12,13,74,014,24,23,54,104,32,07,51,281,22,10,39,296,18*79
$GPGSV,3,2,12,16,30,045,26,08,26,261,26,03,24,093,22,20,19,176,36*77
$GPGSV,3,3,12,06,18,078,17,19,11,122,31,30,08,040,18,04,01,257,*74
$GPRMC,212254.000,A,3748.7307,N,12217.7262,W,1.84,120.13,230511,,,D*7E
$GPVTG,120.13,T,,M,1.84,N,3.4,K,D*03
$GPGGA,212255.000,3748.7300,N,12217.7256,W,2,06,2.2,5.0,M,-25.1,M,6.8,0000*4B
$GPGSA,A,3,16,23,20,03,06,19,,,,,,,3.3,2.2,2.5*3C
$GPRMC,212255.000,A,3748.7300,N,12217.7256,W,0.79,150.97,230511,,,D*77
$GPVTG,150.97,T,,M,0.79,N,1.5,K,D*08
$GPGGA,212256.000,3748.7292,N,12217.7246,W,2,06,2.2,5.6,M,-25.1,M,7.8,0000*44
$GPGSA,A,3,16,23,20,03,06,19,,,,,,,3.3,2.2,2.5*3C
$GPRMC,212256.000,A,3748.7292,N,12217.7246,W,0.61,159.51,230511,,,D*75
$GPVTG,159.51,T,,M,0.61,N,1.1,K,D*06
$GPGGA,212257.000,3748.7288,N,12217.7241,W,2,06,2.2,6.1,M,-25.1,M,8.8,0000*42
$GPGSA,A,3,16,23,20,03,06,19,,,,,,,3.3,2.2,2.5*3C
