$ADVER,3080,2.3
$GPWPL,3748.7990,N,12217.8606,W,00001*68
$ADPMB,5,0
$GPRMC,222328.318,A,3748.7990,N,12217.8606,W,0.45,171.73,190112,,,A*75
$GPGGA,222329.318,3748.7993,N,12217.8609,W,1,04,4.0,1.8,M,-25.1,M,,0000*60
$GPGSA,A,3,22,11,01,19,,,,,,,,,7.9,4.0,6.9*3E
$GPRMC,222329.318,A,3748.7993,N,12217.8609,W,0.22,170.43,190112,,,A*7B
$GPVTG,170.43,T,,M,0.22,N,0.4,K,A*08
$GPGGA,222330.318,3748.7994,N,12217.8610,W,1,04,4.0,2.5,M,-25.1,M,,0000*69
$GPGSA,A,3,22,11,01,19,,,,,,,,,7.9,4.0,6.9*3E
$GPGSV,3,1,12,22,57,056,40,19,38,257,41,11,30,307,40,01,14,315,39*71
$GPGSV,3,2,12,14,85,061,36,24,36,312,,03,20,220,27,06,19,208,27*77
$GPGSV,3,3,12,18,18,081,34,31,17,164,25,09,10,036,39,21,06,137,*73
$GPRMC,222330.318,A,3748.7994,N,12217.8610,W,0.20,172.93,190112,,,A*71
$GPGGA,222331.000,3748.7994,N,12217.8611,W,1,04,4.0,2.9,M,-25.1,M,,0000*6F
$GPGSA,A,3,22,11,01,19,,,,,,,,,7.9,4.0,6.9*3E
$GPRMC,222331.000,A,3748.7994,N,12217.8611,W,0.28,157.25,190112,,,A*79
$GPVTG,157.25,T,,M,0.28,N,0.5,K,A*06
$GPGGA,222332.000,3748.7996,N,12217.8613,W,1,04,4.0,3.7,M,-25.1,M,,0000*63
$GPGSA,A,3,22,11,01,19,,,,,,,,,7.9,4.0,6.9*3E
$GPRMC,222332.000,A,3748.7996,N,12217.8613,W,0.26,224.06,190112,,,A*72
$GPVTG,224.06,T,,M,0.26,N,0.5,K,A*0E
$GPGGA,222333.000,3748.7996,N,12217.8615,W,1,04,4.0,4.3,M,-25.1,M,,0000*67
$GPGSA,A,3,22,11,01,19,,,,,,,,,7.9,4.0,6.9*3E
$GPRMC,222333.000,A,3748.7996,N,12217.8615,W,0.65,215.55,190112,,,A*76
$GPVTG,215.55,T,,M,0.65,N,1.2,K,A*0B
$GPGGA,222334.000,3748.8001,N,12217.8624,W,1,05,3.5,9.1,M,-25.1,M,,0000*66
$GPGSA,A,3,22,11,01,19,14,,,,,,,,6.3,3.5,5.2*3A
$GPRMC,222334.000,A,3748.8001,N,12217.8624,W,0.16,198.58,190112,,,A*74
$GPVTG,198.58,T,,M,0.16,N,0.3,K,A*04
$GPGGA,222335.000,3748.8003,N,12217.8626,W,1,05,3.5,10.4,M,-25.1,M,,0000*5A
$GPGSA,A,3,22,11,01,19,14,,,,,,,,6.3,3.5,5.2*3A
$GPGSV,3,1,12,14,84,060,36,22,57,056,40,19,38,257,42,24,36,312,*71
$GPGSV,3,2,12,11,30,307,42,03,20,220,37,06,19,208,37,18,18,081,*76
$GPGSV,3,3,12,31,17,164,37,01,14,315,40,09,09,036,17,21,06,137,*7D
$GPRMC,222335.000,A,3748.8003,N,12217.8626,W,0.17,185.62,190112,,,A*71
$GPVTG,185.62,T,,M,0.17,N,0.3,K,A*00
$GPGGA,222336.000,3748.8003,N,12217.8627,W,1,05,3.5,11.0,M,-25.1,M,,0000*5D
$GPGSA,A,3,22,11,01,19,14,,,,,,,,6.3,3.5,5.2*3A
$GPRMC,222336.000,A,3748.8003,N,12217.8627,W,0.14,174.66,190112,,,A*7A
$GPVTG,174.66,T,,M,0.14,N,0.3,K,A*09
$GPGGA,222337.000,3748.8004,N,12217.8628,W,1,05,3.5,11.4,M,-25.1,M,,0000*50
$GPGSA,A,3,22,11,01,19,14,,,,,,,,6.3,3.5,5.2*3A
$GPRMC,222337.000,A,3748.8004,N,12217.8628,W,0.09,124.91,190112,,,A*72
$GPVTG,124.91,T,,M,0.09,N,0.2,K,A*09
$GPGGA,222338.000,3748.8004,N,12217.8627,W,1,05,3.5,11.7,M,-25.1,M,,0000*53
$GPGSA,A,3,22,11,01,19,14,,,,,,,,6.3,3.5,5.2*3A
$GPRMC,222338.000,A,3748.8004,N,12217.8627,W,0.30,82.27,190112,,,A*48
$GPVTG,82.27,T,,M,0.30,N,0.6,K,A*37
$GPGGA,222339.000,3748.8005,N,12217.8627,W,1,05,3.5,11.9,M,-25.1,M,,0000*5D
$GPGSA,A,3,22,11,01,19,14,,,,,,,,6.3,3.5,5.2*3A
$GPRMC,222339.000,A,3748.8005,N,12217.8627,W,0.07,180.33,190112,,,A*7A
$GPVTG,180.33,T,,M,0.07,N,0.1,K,A*02
$GPGGA,222340.000,3748.8005,N,12217.8628,W,1,05,3.5,12.0,M,-25.1,M,,0000*56
$GPGSA,A,3,22,11,01,19,14,,,,,,,,6.3,3.5,5.2*3A
$GPGSV,3,1,12,14,84,060,36,22,57,056,41,19,38,257,42,24,36,312,*70
$GPGSV,3,2,12,11,30,307,42,03,20,220,27,06,19,208,26,18,18,081,36*72
$GPGSV,3,3,12,31,17,164,22,01,14,315,39,09,09,036,37,21,06,137,*75
$GPRMC,222340.000,A,3748.8005,N,12217.8628,W,0.30,255.17,190112,,,A*72
$GPVTG,255.17,T,,M,0.30,N,0.6,K,A*0C
$GPGGA,222341.000,3748.8005,N,12217.8628,W,1,05,3.5,12.2,M,-25.1,M,,0000*55
$GPGSA,A,3,22,11,01,19,14,,,,,,,,6.3,3.5,5.2*3A
$GPRMC,222341.000,A,3748.8005,N,12217.8628,W,0.38,128.62,190112,,,A*70
$GPVTG,128.62,T,,M,0.38,N,0.7,K,A*0E
$GPGGA,222342.000,3748.8004,N,12217.8627,W,1,05,3.5,12.2,M,-25.1,M,,0000*58
$GPGSA,A,3,22,11,01,19,14,,,,,,,,6.3,3.5,5.2*3A
$GPRMC,222342.000,A,3748.8004,N,12217.8627,W,0.35,111.31,190112,,,A*7C
$GPVTG,111.31,T,,M,0.35,N,0.7,K,A*0F
$GPGGA,222343.000,3748.8004,N,12217.8626,W,1,05,3.5,12.2,M,-25.1,M,,0000*58
$GPGSA,A,3,22,11,01,19,14,,,,,,,,6.3,3.5,5.2*3A
$GPRMC,222343.000,A,3748.8004,N,12217.8626,W,0.25,215.40,190112,,,A*7C
$GPVTG,215.40,T,,M,0.25,N,0.5,K,A*0D
$GPGGA,222344.000,3748.8004,N,12217.8626,W,1,05,3.5,12.2,M,-25.1,M,,0000*5F
$GPGSA,A,3,22,11,01,19,14,,,,,,,,6.3,3.5,5.2*3A
$GPRMC,222344.000,A,3748.8004,N,12217.8626,W,0.08,206.19,190112,,,A*7A
$GPVTG,206.19,T,,M,0.08,N,0.1,K,A*08
$GPGGA,222345.000,3748.8005,N,12217.8627,W,1,05,3.5,12.5,M,-25.1,M,,0000*59
$GPGSA,A,3,22,11,01,19,14,,,,,,,,6.3,3.5,5.2*3A
$GPGSV,3,1,12,14,84,060,36,22,57,056,40,19,38,257,35,24,36,312,*71
$GPGSV,3,2,12,11,31,307,39,03,20,220,17,06,19,208,28,18,18,081,37*73
$GPGSV,3,3,12,31,18,164,27,01,14,315,34,09,09,036,33,21,06,137,*76
$GPRMC,222345.000,A,3748.8005,N,12217.8627,W,0.22,171.94,190112,,,A*75
$GPGGA,222346.000,3748.8009,N,12217.8627,W,1,05,3.5,13.1,M,-25.1,M,,0000*53
$GPGSA,A,3,22,11,01,19,14,,,,,,,,6.3,3.5,5.2*3A
$GPRMC,222346.000,A,3748.8009,N,12217.8627,W,0.62,55.81,190112,,,A*4D
$GPVTG,55.81,T,,M,0.62,N,1.1,K,A*30
$GPGGA,222347.000,3748.8011,N,12217.8628,W,1,05,3.5,13.2,M,-25.1,M,,0000*57
$GPGSA,A,3,22,11,01,19,14,,,,,,,,6.2,3.5,5.2*3B
$GPRMC,222347.000,A,3748.8011,N,12217.8628,W,1.14,358.26,190112,,,A*79
$GPVTG,358.26,T,,M,1.14,N,2.1,K,A*00
$GPGGA,222348.000,3748.8013,N,12217.8624,W,1,05,3.5,12.4,M,-25.1,M,,0000*51
$GPGSA,A,3,22,11,01,19,14,,,,,,,,6.2,3.5,5.2*3B
$GPRMC,222348.000,A,3748.8013,N,12217.8624,W,1.21,62.53,190112,,,A*46
$GPVTG,62.53,T,,M,1.21,N,2.2,K,A*3D
$GPGGA,222349.000,3748.8018,N,12217.8622,W,1,05,3.5,11.5,M,-25.1,M,,0000*5F
$GPGSA,A,3,22,11,01,19,14,,,,,,,,6.2,3.5,5.2*3B
$GPRMC,222349.000,A,3748.8018,N,12217.8622,W,0.62,356.27,190112,,,A*7B
$GPVTG,356.27,T,,M,0.62,N,1.2,K,A*0F
$GPGGA,222350.000,3748.8016,N,12217.8623,W,1,05,3.5,10.9,M,-25.1,M,,0000*55
$GPGSA,A,3,22,11,01,19,14,,,,,,,,6.2,3.5,5.2*3B
$GPGSV,3,1,12,14,84,060,24,22,56,056,35,19,38,257,36,24,36,312,*72
$GPGSV,3,2,12,11,31,307,38,03,20,219,31,06,19,208,29,18,18,081,28*73
$GPGSV,3,3,12,31,18,164,27,01,14,315,37,09,09,036,37,21,06,137,*71
$GPRMC,222350.000,A,3748.8016,N,12217.8623,W,0.64,189.13,190112,,,A*7D
$GPVTG,189.13,T,,M,0.64,N,1.2,K,A*0E
$GPGGA,222351.000,3748.8014,N,12217.8626,W,1,05,3.5,10.6,M,-25.1,M,,0000*5C
$GPGSA,A,3,22,11,01,19,14,,,,,,,,6.2,3.5,5.2*3B
$GPRMC,222351.000,A,3748.8014,N,12217.8626,W,0.43,239.43,190112,,,A*73
$GPVTG,239.43,T,,M,0.43,N,0.8,K,A*0D
$GPGGA,222352.000,3748.8015,N,12217.8630,W,1,05,3.5,10.5,M,-25.1,M,,0000*5A
$GPGSA,A,3,22,11,01,19,14,,,,,,,,6.2,3.5,5.2*3B
$GPRMC,222352.000,A,3748.8015,N,12217.8630,W,0.40,244.30,190112,,,A*7B
$GPVTG,244.30,T,,M,0.40,N,0.7,K,A*0F
$GPGGA,222353.000,3748.8017,N,12217.8632,W,1,05,3.5,10.5,M,-25.1,M,,0000*5B
$GPGSA,A,3,22,11,01,19,14,,,,,,,,6.2,3.5,5.2*3B
$GPRMC,222353.000,A,3748.8017,N,12217.8632,W,0.23,182.04,190112,,,A*71
$GPVTG,182.04,T,,M,0.23,N,0.4,K,A*07
$GPGGA,222354.000,3748.8018,N,12217.8635,W,1,05,3.5,10.8,M,-25.1,M,,0000*59
$GPGSA,A,3,22,11,01,19,14,,,,,,,,6.2,3.5,5.2*3B
$GPRMC,222354.000,A,3748.8018,N,12217.8635,W,0.18,241.63,190112,,,A*7B
$GPVTG,241.63,T,,M,0.18,N,0.3,K,A*05
$GPGGA,222355.000,3748.8017,N,12217.8636,W,1,05,3.5,9.8,M,-25.1,M,,0000*6C
$GPGSA,A,3,22,11,01,19,14,,,,,,,,6.2,3.5,5.2*3B
$GPGSV,3,1,12,14,84,060,21,22,56,056,32,19,38,257,39,24,36,312,*7F
$GPGSV,3,2,12,11,31,307,41,03,20,219,36,06,19,208,27,18,18,081,29*75
$GPGSV,3,3,12,31,18,164,24,01,14,315,43,09,09,036,36,21,06,137,*70
$GPRMC,222355.000,A,3748.8017,N,12217.8636,W,0.29,247.45,190112,,,A*76
$GPVTG,247.45,T,,M,0.29,N,0.5,K,A*03
$GPGGA,222356.000,3748.8017,N,12217.8638,W,1,05,3.5,9.2,M,-25.1,M,,0000*6B
$GPGSA,A,3,22,11,01,19,14,,,,,,,,6.2,3.5,5.2*3B
$GPRMC,222356.000,A,3748.8017,N,12217.8638,W,0.27,236.60,190112,,,A*74
$GPVTG,236.60,T,,M,0.27,N,0.5,K,A*0C
$GPGGA,222357.000,3748.8015,N,12217.8638,W,1,05,3.5,7.5,M,-25.1,M,,0000*61
$GPGSA,A,3,22,11,01,19,14,,,,,,,,6.2,3.5,5.1*38
$GPRMC,222357.000,A,3748.8015,N,12217.8638,W,0.56,246.93,190112,,,A*7A
$GPVTG,246.93,T,,M,0.56,N,1.0,K,A*05
$GPGGA,222358.000,3748.8014,N,12217.8635,W,1,05,3.5,6.3,M,-25.1,M,,0000*65
$GPGSA,A,3,22,11,01,19,14,,,,,,,,6.2,3.5,5.1*38
$GPRMC,222358.000,A,3748.8014,N,12217.8635,W,0.70,256.97,190112,,,A*78
$GPVTG,256.97,T,,M,0.70,N,1.3,K,A*07
$GPGGA,222359.000,3748.8013,N,12217.8635,W,1,05,3.5,5.2,M,-25.1,M,,0000*61
$GPGSA,A,3,22,11,01,19,14,,,,,,,,6.2,3.5,5.1*38
$GPRMC,222359.000,A,3748.8013,N,12217.8635,W,0.19,180.76,190112,,,A*76
$GPVTG,180.76,T,,M,0.19,N,0.4,K,A*09
$GPGGA,222400.000,3748.8011,N,12217.8634,W,1,05,3.5,4.1,M,-25.1,M,,0000*6B
$GPGSA,A,3,22,11,01,19,14,,,,,,,,6.2,3.5,5.1*38
$GPGSV,3,1,12,14,84,060,22,22,56,056,26,19,38,257,41,24,36,312,*76
$GPGSV,3,2,12,11,31,307,43,03,20,219,33,06,19,208,24,18,18,081,29*71
$GPGSV,3,3,12,31,18,164,34,01,14,315,42,09,09,036,23,21,06,137,*74
$GPRMC,222400.000,A,3748.8011,N,12217.8634,W,0.32,132.46,190112,,,A*7D
$GPGGA,222401.000,3748.8009,N,12217.8638,W,1,05,3.5,4.9,M,-25.1,M,,0000*67
$GPGSA,A,3,22,11,01,19,14,,,,,,,,6.2,3.5,5.1*38
$GPRMC,222401.000,A,3748.8009,N,12217.8638,W,1.68,171.77,190112,,,A*72
$GPVTG,171.77,T,,M,1.68,N,3.1,K,A*07
$GPGGA,222402.000,3748.8006,N,12217.8641,W,1,05,3.5,5.9,M,-25.1,M,,0000*64
$GPGSA,A,3,22,11,01,19,14,,,,,,,,6.2,3.5,5.1*38
$GPRMC,222402.000,A,3748.8006,N,12217.8641,W,1.37,160.81,190112,,,A*73
$GPVTG,160.81,T,,M,1.37,N,2.5,K,A*01
$GPGGA,222403.000,3748.8003,N,12217.8644,W,1,05,3.5,6.8,M,-25.1,M,,0000*67
$GPGSA,A,3,22,11,01,19,14,,,,,,,,6.2,3.5,5.1*38
$GPRMC,222403.000,A,3748.8003,N,12217.8644,W,1.29,215.96,190112,,,A*7A
$GPVTG,215.96,T,,M,1.29,N,2.4,K,A*08
$GPGGA,222404.000,3748.8000,N,12217.8654,W,1,05,3.5,8.1,M,-25.1,M,,0000*65
$GPGSA,A,3,22,11,01,19,14,,,,,,,,6.2,3.5,5.1*38
$GPRMC,222404.000,A,3748.8000,N,12217.8654,W,2.23,200.65,190112,,,A*7E
$GPVTG,200.65,T,,M,2.23,N,4.1,K,A*0A
$GPGGA,222405.000,3748.7997,N,12217.8665,W,1,05,3.5,10.7,M,-25.1,M,,0000*51
$GPGSA,A,3,22,11,01,19,14,,,,,,,,6.2,3.5,5.1*38
$GPGSV,3,1,12,14,84,060,25,22,56,056,28,19,38,257,39,24,36,312,*70
$GPGSV,3,2,12,11,31,307,31,03,20,219,42,06,19,208,39,18,18,081,32*74
$GPGSV,3,3,12,31,18,164,39,01,14,315,28,09,09,036,31,21,06,137,*76
$GPRMC,222405.000,A,3748.7997,N,12217.8665,W,2.42,204.28,190112,,,A*7F
$GPVTG,204.28,T,,M,2.42,N,4.5,K,A*04
$GPGGA,222406.000,3748.7993,N,12217.8673,W,1,05,3.5,12.7,M,-25.1,M,,0000*53
$GPGSA,A,3,22,11,01,19,14,,,,,,,,6.2,3.5,5.1*38
$GPRMC,222406.000,A,3748.7993,N,12217.8673,W,2.32,210.64,190112,,,A*75
$GPVTG,210.64,T,,M,2.32,N,4.3,K,A*08
$GPGGA,222407.000,3748.7990,N,12217.8678,W,1,05,3.5,15.8,M,-25.1,M,,0000*52
$GPGSA,A,3,22,11,01,19,14,,,,,,,,6.2,3.5,5.1*38
$GPRMC,222407.000,A,3748.7990,N,12217.8678,W,2.29,202.08,190112,,,A*7F
$GPVTG,202.08,T,,M,2.29,N,4.2,K,A*0A
$GPGGA,222408.000,3748.7984,N,12217.8681,W,1,05,3.5,16.4,M,-25.1,M,,0000*51
$GPGSA,A,3,22,11,01,19,14,,,,,,,,6.2,3.5,5.1*38
$GPRMC,222408.000,A,3748.7984,N,12217.8681,W,2.27,201.75,190112,,,A*74
$GPVTG,201.75,T,,M,2.27,N,4.2,K,A*0D
$GPGGA,222409.000,3748.7979,N,12217.8688,W,1,05,3.5,17.5,M,-25.1,M,,0000*5B
$GPGSA,A,3,22,11,01,19,14,,,,,,,,6.2,3.5,5.1*38
$GPRMC,222409.000,A,3748.7979,N,12217.8688,W,2.47,213.36,190112,,,A*7C
$GPVTG,213.36,T,,M,2.47,N,4.6,K,A*0B
$GPGGA,222410.000,3748.7972,N,12217.8692,W,1,05,3.5,16.7,M,-25.1,M,,0000*50
$GPGSA,A,3,22,11,01,19,14,,,,,,,,6.2,3.5,5.1*38
$GPGSV,3,1,12,14,84,060,25,22,56,056,27,19,38,257,39,24,36,312,*7F
$GPGSV,3,2,12,11,31,307,33,03,20,219,34,06,19,208,33,18,18,081,37*78
$GPGSV,3,3,12,31,18,164,41,01,14,315,27,09,09,036,41,21,06,137,*71
$GPRMC,222410.000,A,3748.7972,N,12217.8692,W,2.13,209.04,190112,,,A*7F
$GPVTG,209.04,T,,M,2.13,N,3.9,K,A*08
$GPGGA,222411.000,3748.7966,N,12217.8694,W,1,05,3.5,16.0,M,-25.1,M,,0000*55
$GPGSA,A,3,22,11,01,19,14,,,,,,,,6.2,3.5,5.1*38
$GPRMC,222411.000,A,3748.7966,N,12217.8694,W,1.90,200.61,190112,,,A*7F
$GPVTG,200.61,T,,M,1.90,N,3.5,K,A*06
$GPGGA,222412.000,3748.7959,N,12217.8689,W,1,05,3.5,13.9,M,-25.1,M,,0000*5A
$GPGSA,A,3,22,11,01,19,14,,,,,,,,6.2,3.5,5.1*38
$GPRMC,222412.000,A,3748.7959,N,12217.8689,W,1.79,197.30,190112,,,A*72
$GPVTG,197.30,T,,M,1.79,N,3.3,K,A*0E
$GPGGA,222413.000,3748.7950,N,12217.8688,W,1,05,3.5,11.4,M,-25.1,M,,0000*5C
$GPGSA,A,3,22,11,01,19,14,,,,,,,,6.2,3.5,5.1*38
$GPRMC,222413.000,A,3748.7950,N,12217.8688,W,2.31,185.23,190112,,,A*75
$GPVTG,185.23,T,,M,2.31,N,4.3,K,A*07
$GPGGA,222414.000,3748.7941,N,12217.8686,W,1,05,3.5,10.5,M,-25.1,M,,0000*55
$GPGSA,A,3,22,11,01,19,14,,,,,,,,6.2,3.5,5.1*38
$GPRMC,222414.000,A,3748.7941,N,12217.8686,W,2.66,178.67,190112,,,A*7C
$GPVTG,178.67,T,,M,2.66,N,4.9,K,A*0D
$GPGGA,222415.000,3748.7935,N,12217.8691,W,1,05,3.5,11.5,M,-25.1,M,,0000*50
$GPGSA,A,3,22,11,01,19,14,,,,,,,,6.2,3.5,5.1*38
$GPGSV,3,1,12,14,84,058,25,22,56,056,27,19,38,256,40,24,37,312,*7A
$GPGSV,3,2,12,11,31,307,34,03,20,219,23,06,19,208,23,18,18,081,37*78
$GPGSV,3,3,12,31,18,163,26,01,14,315,36,09,09,036,33,21,06,137,*72
$GPRMC,222415.000,A,3748.7935,N,12217.8691,W,3.18,177.72,190112,,,A*7B
$GPGGA,222416.000,3748.7925,N,12217.8690,W,1,05,3.5,10.6,M,-25.1,M,,0000*51
$GPGSA,A,3,22,11,01,19,14,,,,,,,,6.2,3.5,5.1*38
$GPRMC,222416.000,A,3748.7925,N,12217.8690,W,2.29,172.79,190112,,,A*75
$GPVTG,172.79,T,,M,2.29,N,4.2,K,A*08
$GPGGA,222417.000,3748.7922,N,12217.8687,W,1,05,3.4,10.6,M,-25.1,M,,0000*50
$GPGSA,A,3,22,11,01,19,14,,,,,,,,6.2,3.4,5.1*39
$GPRMC,222417.000,A,3748.7922,N,12217.8687,W,2.10,166.59,190112,,,A*78
$GPVTG,166.59,T,,M,2.10,N,3.9,K,A*09
$GPGGA,222418.000,3748.7916,N,12217.8682,W,1,05,3.4,8.0,M,-25.1,M,,0000*62
$GPGSA,A,3,22,11,01,19,14,,,,,,,,6.2,3.4,5.1*39
$GPRMC,222418.000,A,3748.7916,N,12217.8682,W,1.43,185.58,190112,,,A*7C
$GPVTG,185.58,T,,M,1.43,N,2.7,K,A*0F
$GPGGA,222419.000,3748.7913,N,12217.8685,W,1,04,3.9,8.4,M,-25.1,M,,0000*69
$GPGSA,A,3,22,11,01,19,,,,,,,,,7.9,3.9,6.9*30
$GPRMC,222419.000,A,3748.7913,N,12217.8685,W,2.12,192.91,190112,,,A*7B
$GPVTG,192.91,T,,M,2.12,N,3.9,K,A*04
$GPGGA,222420.000,3748.7904,N,12217.8690,W,1,05,3.4,7.0,M,-25.1,M,,0000*66
$GPGSA,A,3,22,11,01,19,14,,,,,,,,6.2,3.4,5.1*39
$GPGSV,3,1,12,14,84,058,20,22,56,056,24,19,38,256,24,24,37,312,*7E
$GPGSV,3,2,12,11,31,307,23,03,20,219,22,06,19,208,22,18,18,081,29*71
$GPGSV,3,3,12,31,18,163,27,01,14,315,23,09,09,036,28,21,06,137,*7D
$GPRMC,222420.000,A,3748.7904,N,12217.8690,W,2.16,192.70,190112,,,A*78
$GPVTG,192.70,T,,M,2.16,N,4.0,K,A*01
$GPGGA,222421.000,3748.7899,N,12217.8686,W,1,05,3.4,5.6,M,-25.1,M,,0000*61
$GPGSA,A,3,22,11,01,19,14,,,,,,,,6.1,3.4,5.1*3A
$GPRMC,222421.000,A,3748.7899,N,12217.8686,W,1.50,166.70,190112,,,A*71
$GPVTG,166.70,T,,M,1.50,N,2.8,K,A*05
$GPGGA,222422.000,3748.7895,N,12217.8681,W,1,04,5.6,4.8,M,-25.1,M,,0000*63
$GPGSA,A,3,22,01,19,14,,,,,,,,,9.5,5.6,7.7*31
$GPRMC,222422.000,A,3748.7895,N,12217.8681,W,0.89,148.81,190112,,,A*7E
$GPVTG,148.81,T,,M,0.89,N,1.7,K,A*0E
$GPGGA,222423.000,3748.7895,N,12217.8682,W,1,04,5.5,8.1,M,-25.1,M,,0000*67
$GPGSA,A,3,22,01,19,14,,,,,,,,,9.5,5.5,7.7*32
$GPRMC,222423.000,A,3748.7895,N,12217.8682,W,2.00,150.61,190112,,,A*78
$GPVTG,150.61,T,,M,2.00,N,3.7,K,A*08
$GPGGA,222424.000,3748.7890,N,12217.8679,W,1,04,5.5,8.6,M,-25.1,M,,0000*66
$GPGSA,A,3,22,01,19,14,,,,,,,,,9.5,5.5,7.7*32
$GPRMC,222424.000,A,3748.7890,N,12217.8679,W,1.47,150.65,190112,,,A*7A
$GPVTG,150.65,T,,M,1.47,N,2.7,K,A*0D
$GPGGA,222425.000,3748.7887,N,12217.8690,W,1,04,5.5,11.2,M,-25.1,M,,0000*5A
$GPGSA,A,3,22,01,19,14,,,,,,,,,9.5,5.5,7.7*32
$GPGSV,3,1,12,14,84,058,21,22,56,056,25,19,38,256,31,24,37,312,*7A
$GPGSV,3,2,12,11,31,307,,03,20,219,19,06,19,208,22,18,18,081,32*72
$GPGSV,3,3,12,31,18,163,19,01,14,315,19,09,09,036,31,21,06,137,*71
$GPRMC,222425.000,A,3748.7887,N,12217.8690,W,1.62,184.00,190112,,,A*77
$GPVTG,184.00,T,,M,1.62,N,3.0,K,A*06
$GPGGA,222426.000,3748.7874,N,12217.8687,W,1,05,3.4,9.9,M,-25.1,M,,0000*67
$GPGSA,A,3,22,11,01,19,14,,,,,,,,6.1,3.4,5.1*3A
$GPRMC,222426.000,A,3748.7874,N,12217.8687,W,0.98,198.09,190112,,,A*7E
$GPVTG,198.09,T,,M,0.98,N,1.8,K,A*0C
$GPGGA,222427.000,3748.7853,N,12217.8679,W,1,04,3.6,8.7,M,-25.1,M,,0000*6E
$GPGSA,A,3,22,11,19,14,,,,,,,,,7.4,3.6,6.5*3A
$GPRMC,222427.000,A,3748.7853,N,12217.8679,W,1.37,166.39,190112,,,A*7D
$GPVTG,166.39,T,,M,1.37,N,2.5,K,A*04
$GPGGA,222428.000,3748.7847,N,12217.8678,W,1,04,3.6,7.9,M,-25.1,M,,0000*64
$GPGSA,A,3,22,11,19,14,,,,,,,,,7.4,3.6,6.5*3A
$GPRMC,222428.000,A,3748.7847,N,12217.8678,W,0.41,122.44,190112,,,A*7C
$GPVTG,122.44,T,,M,0.41,N,0.8,K,A*01
$GPGGA,222429.000,3748.7854,N,12217.8682,W,1,05,3.4,6.9,M,-25.1,M,,0000*60
$GPGSA,A,3,22,11,01,19,14,,,,,,,,6.1,3.4,5.1*3A
$GPRMC,222429.000,A,3748.7854,N,12217.8682,W,1.02,204.35,190112,,,A*7D
$GPVTG,204.35,T,,M,1.02,N,1.9,K,A*06
$GPGGA,222430.000,3748.7849,N,12217.8682,W,1,05,3.4,5.5,M,-25.1,M,,0000*6B
$GPGSA,A,3,22,11,01,19,14,,,,,,,,6.1,3.4,5.1*3A
$GPGSV,3,1,12,14,84,058,26,22,56,056,23,19,38,256,23,24,37,312,*78
$GPGSV,3,2,12,11,31,307,24,03,20,219,21,06,19,208,19,18,18,081,25*71
$GPGSV,3,3,12,31,18,163,19,01,14,315,17,09,09,036,26,21,06,137,*79
$GPRMC,222430.000,A,3748.7849,N,12217.8682,W,0.85,180.07,190112,,,A*79
$GPGGA,222431.000,3748.7857,N,12217.8682,W,1,05,3.4,4.3,M,-25.1,M,,0000*62
$GPGSA,A,3,22,11,01,19,14,,,,,,,,6.1,3.4,5.1*3A
$GPRMC,222431.000,A,3748.7857,N,12217.8682,W,0.50,122.29,190112,,,A*7B
$GPVTG,122.29,T,,M,0.50,N,0.9,K,A*0B
$GPGGA,222432.000,3748.7855,N,12217.8665,W,1,05,3.4,0.2,M,-25.1,M,,0000*6F
$GPGSA,A,3,22,11,01,19,14,,,,,,,,6.1,3.4,5.1*3A
$GPRMC,222432.000,A,3748.7855,N,12217.8665,W,1.00,90.36,190112,,,A*41
$GPVTG,90.36,T,,M,1.00,N,1.9,K,A*38
$GPGGA,222433.000,3748.7856,N,12217.8653,W,1,05,3.4,-1.9,M,-25.1,M,,0000*4F
$GPGSA,A,3,22,11,01,19,14,,,,,,,,6.1,3.4,5.1*3A
$GPRMC,222433.000,A,3748.7856,N,12217.8653,W,1.31,88.46,190112,,,A*4A
$GPVTG,88.46,T,,M,1.31,N,2.4,K,A*3A
$GPGGA,222434.000,3748.7856,N,12217.8659,W,1,05,3.4,0.6,M,-25.1,M,,0000*61
$GPGSA,A,3,22,11,01,19,14,,,,,,,,6.1,3.4,5.1*3A
$GPRMC,222434.000,A,3748.7856,N,12217.8659,W,1.60,148.64,190112,,,A*7E
$GPVTG,148.64,T,,M,1.60,N,3.0,K,A*06
$GPGGA,222435.000,3748.7850,N,12217.8646,W,1,05,3.4,-1.7,M,-25.1,M,,0000*45
$GPGSA,A,3,22,11,01,19,14,,,,,,,,6.1,3.4,5.1*3A
$GPGSV,3,1,12,14,84,058,24,22,56,056,23,19,38,256,24,24,37,312,*7D
$GPGSV,3,2,12,11,31,307,26,03,20,219,20,06,19,208,17,18,18,081,20*79
$GPGSV,3,3,12,31,18,163,19,01,14,315,18,09,09,036,19,21,06,137,*7A
$GPRMC,222435.000,A,3748.7850,N,12217.8646,W,1.80,154.72,190112,,,A*73
$GPVTG,154.72,T,,M,1.80,N,3.3,K,A*01
$GPGGA,222436.000,3748.7844,N,12217.8628,W,1,05,3.4,-6.5,M,-25.1,M,,0000*4E
$GPGSA,A,3,22,11,01,19,14,,,,,,,,6.1,3.4,5.1*3A
$GPRMC,222436.000,A,3748.7844,N,12217.8628,W,1.80,121.85,190112,,,A*77
$GPVTG,121.85,T,,M,1.80,N,3.3,K,A*0B
$GPGGA,222437.000,3748.7843,N,12217.8632,W,1,04,5.5,-5.5,M,-25.1,M,,0000*46
$GPGSA,A,3,22,01,19,14,,,,,,,,,9.3,5.5,7.6*35
$GPRMC,222437.000,A,3748.7843,N,12217.8632,W,1.41,133.53,190112,,,A*7F
$GPVTG,133.53,T,,M,1.41,N,2.6,K,A*0A
$GPGGA,222438.000,3748.7847,N,12217.8643,W,1,05,3.4,-2.0,M,-25.1,M,,0000*4F
$GPGSA,A,3,22,11,01,19,14,,,,,,,,6.1,3.4,5.1*3A
$GPRMC,222438.000,A,3748.7847,N,12217.8643,W,1.08,162.83,190112,,,A*76
$GPVTG,162.83,T,,M,1.08,N,2.0,K,A*08
$GPGGA,222439.000,3748.7846,N,12217.8656,W,1,05,3.4,0.3,M,-25.1,M,,0000*67
$GPGSA,A,3,22,11,01,19,14,,,,,,,,6.1,3.4,5.1*3A
$GPRMC,222439.000,A,3748.7846,N,12217.8656,W,1.90,178.30,190112,,,A*70
$GPVTG,178.30,T,,M,1.90,N,3.5,K,A*0E
$GPGGA,222440.000,3748.7838,N,12217.8662,W,1,05,3.4,0.5,M,-25.1,M,,0000*61
$GPGSA,A,3,22,11,01,19,14,,,,,,,,6.1,3.4,5.1*3A
$GPGSV,3,1,12,14,84,058,21,22,56,056,23,19,38,256,25,24,37,312,*79
$GPGSV,3,2,12,11,31,307,26,03,20,219,12,06,19,208,16,18,18,081,20*79
$GPGSV,3,3,12,31,18,163,21,01,14,315,17,09,09,036,17,21,06,137,*70
$GPRMC,222440.000,A,3748.7838,N,12217.8662,W,1.93,188.43,190112,,,A*78
$GPVTG,188.43,T,,M,1.93,N,3.6,K,A*05
$GPGGA,222441.000,3748.7845,N,12217.8678,W,1,05,3.4,4.5,M,-25.1,M,,0000*65
$GPGSA,A,3,22,11,01,19,14,,,,,,,,6.1,3.4,5.1*3A
$GPRMC,222441.000,A,3748.7845,N,12217.8678,W,1.55,234.58,190112,,,A*7C
$GPVTG,234.58,T,,M,1.55,N,2.9,K,A*0F
$GPGGA,222442.000,3748.7845,N,12217.8688,W,1,05,3.4,5.7,M,-25.1,M,,0000*6A
$GPGSA,A,3,22,11,01,19,14,,,,,,,,6.1,3.4,5.1*3A
$GPRMC,222442.000,A,3748.7845,N,12217.8688,W,1.06,254.11,190112,,,A*7D
$GPVTG,254.11,T,,M,1.06,N,2.0,K,A*0B
$GPGGA,222443.000,3748.7846,N,12217.8682,W,1,05,3.4,4.8,M,-25.1,M,,0000*6C
$GPGSA,A,3,22,11,01,19,14,,,,,,,,6.1,3.4,5.0*3B
$GPRMC,222443.000,A,3748.7846,N,12217.8682,W,0.24,15.01,190112,,,A*42
$GPVTG,15.01,T,,M,0.24,N,0.4,K,A*3A
$GPGGA,222444.000,3748.7860,N,12217.8680,W,1,05,3.4,4.8,M,-25.1,M,,0000*6D
$GPGSA,A,3,22,11,01,19,14,,,,,,,,6.1,3.4,5.0*3B
$GPRMC,222444.000,A,3748.7860,N,12217.8680,W,1.64,346.63,190112,,,A*77
$GPVTG,346.63,T,,M,1.64,N,3.0,K,A*09
$GPGGA,222445.000,3748.7862,N,12217.8676,W,1,05,3.4,2.2,M,-25.1,M,,0000*6B
$GPGSA,A,3,22,11,01,19,14,,,,,,,,6.1,3.4,5.0*3B
$GPGSV,3,1,12,14,84,058,24,22,56,056,23,19,38,256,27,24,37,312,*7E
$GPGSV,3,2,12,11,31,307,39,03,20,219,24,06,19,208,16,18,18,081,19*78
$GPGSV,3,3,12,31,18,163,20,01,14,315,23,09,09,036,26,21,06,137,*74
$GPRMC,222445.000,A,3748.7862,N,12217.8676,W,1.93,336.95,190112,,,A*7B
$GPGGA,222446.000,3748.7865,N,12217.8676,W,1,05,3.4,0.8,M,-25.1,M,,0000*67
$GPGSA,A,3,22,11,01,19,14,,,,,,,,6.1,3.4,5.0*3B
$GPRMC,222446.000,A,3748.7865,N,12217.8676,W,1.36,345.92,190112,,,A*73
$GPVTG,345.92,T,,M,1.36,N,2.5,K,A*07
$GPGGA,222447.000,3748.7870,N,12217.8680,W,1,05,3.4,0.4,M,-25.1,M,,0000*67
$GPGSA,A,3,22,11,01,19,14,,,,,,,,6.1,3.4,5.0*3B
$GPRMC,222447.000,A,3748.7870,N,12217.8680,W,0.82,359.11,190112,,,A*77
$GPVTG,359.11,T,,M,0.82,N,1.5,K,A*0C
$GPGGA,222448.000,3748.7873,N,12217.8690,W,1,05,3.4,3.6,M,-25.1,M,,0000*6B
$GPGSA,A,3,22,11,01,19,14,,,,,,,,6.1,3.4,5.0*3B
$GPRMC,222448.000,A,3748.7873,N,12217.8690,W,0.88,213.39,190112,,,A*75
$GPVTG,213.39,T,,M,0.88,N,1.6,K,A*00
$GPGGA,222449.000,3748.7866,N,12217.8688,W,1,05,3.4,3.2,M,-25.1,M,,0000*63
$GPGSA,A,3,22,11,01,19,14,,,,,,,,6.1,3.4,5.0*3B
$GPRMC,222449.000,A,3748.7866,N,12217.8688,W,1.84,163.84,190112,,,A*76
$GPVTG,163.84,T,,M,1.84,N,3.4,K,A*0F
$GPGGA,222450.000,3748.7854,N,12217.8682,W,1,05,3.4,2.2,M,-25.1,M,,0000*61
$GPGSA,A,3,22,11,01,19,14,,,,,,,,6.1,3.4,5.0*3B
$GPGSV,3,1,12,14,84,058,25,22,56,056,23,19,38,256,34,24,37,312,*7D
$GPGSV,3,2,12,11,31,307,22,03,20,219,20,06,19,208,18,18,18,081,27*75
$GPGSV,3,3,12,31,18,163,19,01,14,315,22,09,09,036,22,21,06,137,*7B
$GPRMC,222450.000,A,3748.7854,N,12217.8682,W,1.51,164.32,190112,,,A*77
$GPVTG,164.32,T,,M,1.51,N,2.8,K,A*00
$GPGGA,222451.000,3748.7861,N,12217.8689,W,1,05,3.4,4.4,M,-25.1,M,,0000*6D
$GPGSA,A,3,22,11,01,19,14,,,,,,,,6.1,3.4,5.0*3B
$GPRMC,222451.000,A,3748.7861,N,12217.8689,W,0.96,37.05,190112,,,A*42
$GPVTG,37.05,T,,M,0.96,N,1.8,K,A*3A
$GPGGA,222452.000,3748.7865,N,12217.8691,W,1,05,3.4,5.1,M,-25.1,M,,0000*67
$GPGSA,A,3,22,11,01,19,14,,,,,,,,6.1,3.4,5.0*3B
$GPRMC,222452.000,A,3748.7865,N,12217.8691,W,1.09,357.55,190112,,,A*7B
$GPVTG,357.55,T,,M,1.09,N,2.0,K,A*06
$GPGGA,222453.000,3748.7879,N,12217.8690,W,1,05,3.4,7.6,M,-25.1,M,,0000*6F
$GPGSA,A,3,22,11,01,19,14,,,,,,,,6.1,3.4,5.0*3B
$GPRMC,222453.000,A,3748.7879,N,12217.8690,W,1.33,21.90,190112,,,A*44
$GPVTG,21.90,T,,M,1.33,N,2.5,K,A*31
$GPGGA,222454.000,3748.7883,N,12217.8679,W,1,05,3.4,6.7,M,-25.1,M,,0000*6A
$GPGSA,A,3,22,11,01,19,14,,,,,,,,6.1,3.4,5.0*3B
$GPRMC,222454.000,A,3748.7883,N,12217.8679,W,1.95,29.41,190112,,,A*49
$GPVTG,29.41,T,,M,1.95,N,3.6,K,A*3B
$GPGGA,222455.000,3748.7892,N,12217.8668,W,1,04,3.8,5.7,M,-25.1,M,,0000*65
$GPGSA,A,3,22,11,01,19,,,,,,,,,7.9,3.8,6.9*31
$GPGSV,3,1,12,14,84,058,22,22,56,056,37,19,38,256,23,24,37,312,*79
$GPGSV,3,2,12,11,31,307,26,03,20,219,21,06,19,208,20,18,18,081,43*79
$GPGSV,3,3,12,31,18,163,19,01,14,315,31,09,09,036,39,21,06,137,*73
$GPRMC,222455.000,A,3748.7892,N,12217.8668,W,1.70,24.38,190112,,,A*40
$GPVTG,24.38,T,,M,1.70,N,3.2,K,A*37
$GPGGA,222456.000,3748.7900,N,12217.8666,W,1,04,3.8,6.2,M,-25.1,M,,0000*64
$GPGSA,A,3,22,11,01,19,,,,,,,,,7.9,3.8,6.9*31
$GPRMC,222456.000,A,3748.7900,N,12217.8666,W,1.68,18.82,190112,,,A*40
$GPVTG,18.82,T,,M,1.68,N,3.1,K,A*33
$GPGGA,222457.000,3748.7911,N,12217.8666,W,1,04,3.8,6.8,M,-25.1,M,,0000*6F
$GPGSA,A,3,22,11,01,19,,,,,,,,,7.9,3.8,6.9*31
$GPRMC,222457.000,A,3748.7911,N,12217.8666,W,2.18,3.49,190112,,,A*78
$GPVTG,3.49,T,,M,2.18,N,4.0,K,A*0C
$GPGGA,222458.000,3748.7915,N,12217.8665,W,1,04,3.8,6.3,M,-25.1,M,,0000*6C
$GPGSA,A,3,22,11,01,19,,,,,,,,,7.9,3.8,6.9*31
$GPRMC,222458.000,A,3748.7915,N,12217.8665,W,2.11,350.90,190112,,,A*78
$GPVTG,350.90,T,,M,2.11,N,3.9,K,A*0A
$GPGGA,222459.000,3748.7913,N,12217.8662,W,1,04,3.8,5.0,M,-25.1,M,,0000*6C
$GPGSA,A,3,22,11,01,19,,,,,,,,,7.9,3.8,6.9*31
$GPRMC,222459.000,A,3748.7913,N,12217.8662,W,1.87,6.22,190112,,,A*7D
$GPVTG,6.22,T,,M,1.87,N,3.5,K,A*03
$GPGGA,222500.000,3748.7925,N,12217.8665,W,1,04,3.8,6.1,M,-25.1,M,,0000*61
$GPGSA,A,3,22,11,01,19,,,,,,,,,7.9,3.8,6.9*31
$GPGSV,3,1,12,14,84,058,18,22,56,056,27,19,38,256,37,24,37,312,*74
$GPGSV,3,2,12,11,31,307,38,03,20,219,,06,19,208,17,18,18,081,28*7C
$GPGSV,3,3,12,31,18,163,26,01,14,315,34,09,09,036,30,21,06,137,*73
$GPRMC,222500.000,A,3748.7925,N,12217.8665,W,4.19,358.77,190112,,,A*78
$GPGGA,222501.000,3748.7935,N,12217.8658,W,1,04,3.8,6.2,M,-25.1,M,,0000*6C
$GPGSA,A,3,22,11,01,19,,,,,,,,,7.9,3.8,6.9*31
$GPRMC,222501.000,A,3748.7935,N,12217.8658,W,2.56,19.41,190112,,,A*48
$GPVTG,19.41,T,,M,2.56,N,4.7,K,A*32
$GPGGA,222502.000,3748.7941,N,12217.8654,W,1,04,3.8,6.9,M,-25.1,M,,0000*6B
$GPGSA,A,3,22,11,01,19,,,,,,,,,7.9,3.8,6.9*31
$GPRMC,222502.000,A,3748.7941,N,12217.8654,W,1.03,41.48,190112,,,A*43
$GPVTG,41.48,T,,M,1.03,N,1.9,K,A*3E
$GPGGA,222503.000,3748.7943,N,12217.8658,W,1,05,3.4,11.6,M,-25.1,M,,0000*50
$GPGSA,A,3,22,11,01,19,14,,,,,,,,6.0,3.4,5.0*3A
$GPRMC,222503.000,A,3748.7943,N,12217.8658,W,1.21,65.94,190112,,,A*4B
$GPVTG,65.94,T,,M,1.21,N,2.2,K,A*31
$GPGGA,222504.000,3748.7942,N,12217.8654,W,1,05,3.4,13.2,M,-25.1,M,,0000*5C
$GPGSA,A,3,22,11,01,19,14,,,,,,,,6.0,3.4,5.0*3A
$GPRMC,222504.000,A,3748.7942,N,12217.8654,W,1.55,42.33,190112,,,A*4A
$GPVTG,42.33,T,,M,1.55,N,2.9,K,A*31
$GPGGA,222505.000,3748.7942,N,12217.8651,W,1,05,3.4,12.8,M,-25.1,M,,0000*53
$GPGSA,A,3,22,11,01,19,14,,,,,,,,6.0,3.4,5.0*3A
$GPGSV,3,1,12,14,84,058,32,22,56,056,41,19,38,256,29,24,37,312,*73
$GPGSV,3,2,12,11,31,307,30,03,20,219,,06,19,208,26,18,18,081,41*79
$GPGSV,3,3,12,31,18,163,40,01,14,315,27,09,09,036,36,21,06,137,*77
$GPRMC,222505.000,A,3748.7942,N,12217.8651,W,1.33,24.98,190112,,,A*4F
$GPVTG,24.98,T,,M,1.33,N,2.5,K,A*3C
$GPGGA,222506.000,3748.7950,N,12217.8648,W,1,05,3.4,14.8,M,-25.1,M,,0000*5D
$GPGSA,A,3,22,11,01,19,14,,,,,,,,6.0,3.4,5.0*3A
$GPRMC,222506.000,A,3748.7950,N,12217.8648,W,2.32,68.63,190112,,,A*49
$GPVTG,68.63,T,,M,2.32,N,4.3,K,A*32
$GPGGA,222507.000,3748.7963,N,12217.8642,W,1,05,3.4,15.2,M,-25.1,M,,0000*5D
$GPGSA,A,3,22,11,01,19,14,,,,,,,,6.0,3.4,5.0*3A
$GPRMC,222507.000,A,3748.7963,N,12217.8642,W,2.25,19.18,190112,,,A*4E
$GPVTG,19.18,T,,M,2.25,N,4.2,K,A*3F
$GPGGA,222508.000,3748.7982,N,12217.8638,W,1,05,3.3,16.7,M,-25.1,M,,0000*51
$GPGSA,A,3,22,11,01,19,14,,,,,,,,6.0,3.3,5.0*3D
$GPRMC,222508.000,A,3748.7982,N,12217.8638,W,2.63,14.82,190112,,,A*4F
$GPVTG,14.82,T,,M,2.63,N,4.9,K,A*38
$GPGGA,222509.000,3748.7992,N,12217.8633,W,1,05,3.3,15.7,M,-25.1,M,,0000*59
$GPGSA,A,3,22,11,01,19,14,,,,,,,,6.0,3.3,5.0*3D
$GPRMC,222509.000,A,3748.7992,N,12217.8633,W,3.90,17.92,190112,,,A*4B
$GPVTG,17.92,T,,M,3.90,N,7.2,K,A*3F
$GPGGA,222510.000,3748.8014,N,12217.8631,W,1,05,3.3,17.4,M,-25.1,M,,0000*5A
$GPGSA,A,3,22,11,01,19,14,,,,,,,,6.0,3.3,5.0*3D
$GPGSV,3,1,12,14,84,058,32,22,56,056,40,19,38,256,26,24,37,312,*7D
$GPGSV,3,2,12,11,31,307,36,03,20,219,27,06,19,208,27,18,18,081,42*78
$GPGSV,3,3,12,31,18,163,31,01,14,315,37,09,09,036,46,21,06,137,*77
$GPRMC,222510.000,A,3748.8014,N,12217.8631,W,3.77,17.36,190112,,,A*4E
$GPVTG,17.36,T,,M,3.77,N,7.0,K,A*3A
$GPGGA,222511.000,3748.8031,N,12217.8627,W,1,05,3.3,20.2,M,-25.1,M,,0000*59
$GPGSA,A,3,22,11,01,19,14,,,,,,,,6.0,3.3,5.0*3D
$GPRMC,222511.000,A,3748.8031,N,12217.8627,W,3.50,20.49,190112,,,A*46
$GPVTG,20.49,T,,M,3.50,N,6.5,K,A*37
$GPGGA,222512.000,3748.8040,N,12217.8623,W,1,05,3.3,20.5,M,-25.1,M,,0000*5F
$GPGSA,A,3,22,11,01,19,14,,,,,,,,6.0,3.3,5.0*3D
$GPRMC,222512.000,A,3748.8040,N,12217.8623,W,2.77,5.42,190112,,,A*7F
$GPVTG,5.42,T,,M,2.77,N,5.1,K,A*08
$GPGGA,222513.000,3748.8036,N,12217.8619,W,1,05,3.3,19.0,M,-25.1,M,,0000*59
$GPGSA,A,3,22,11,01,19,14,,,,,,,,6.0,3.3,5.0*3D
$GPRMC,222513.000,A,3748.8036,N,12217.8619,W,1.32,46.16,190112,,,A*42
$GPVTG,46.16,T,,M,1.32,N,2.4,K,A*3E
$GPGGA,222514.000,3748.8033,N,12217.8613,W,1,05,3.3,18.0,M,-25.1,M,,0000*50
$GPGSA,A,3,22,11,01,19,14,,,,,,,,6.0,3.3,5.0*3D
$GPRMC,222514.000,A,3748.8033,N,12217.8613,W,1.54,24.88,190112,,,A*49
$GPVTG,24.88,T,,M,1.54,N,2.9,K,A*30
$GPGGA,222515.000,3748.8030,N,12217.8611,W,1,05,3.3,18.9,M,-25.1,M,,0000*59
$GPGSA,A,3,22,11,01,19,14,,,,,,,,6.0,3.3,5.0*3D
$GPGSV,3,1,12,14,84,058,28,22,56,056,28,19,38,256,33,24,37,312,*7C
$GPGSV,3,2,12,11,31,307,26,03,20,219,38,06,19,208,36,18,18,081,31*73
$GPGSV,3,3,12,31,18,163,44,01,14,315,24,09,09,036,33,21,06,137,*75
$GPRMC,222515.000,A,3748.8030,N,12217.8611,W,1.11,15.33,190112,,,A*4A
$GPGGA,222516.000,3748.8027,N,12217.8611,W,1,05,3.3,19.6,M,-25.1,M,,0000*52
$GPGSA,A,3,22,11,01,19,14,,,,,,,,6.0,3.3,5.0*3D
$GPRMC,222516.000,A,3748.8027,N,12217.8611,W,1.01,98.08,190112,,,A*43
$GPVTG,98.08,T,,M,1.01,N,1.9,K,A*3C
$GPGGA,222517.000,3748.8022,N,12217.8609,W,1,05,3.3,20.3,M,-25.1,M,,0000*50
$GPGSA,A,3,22,11,01,19,14,,,,,,,,6.0,3.3,5.0*3D
$GPRMC,222517.000,A,3748.8022,N,12217.8609,W,1.73,131.28,190112,,,A*7B
$GPVTG,131.28,T,,M,1.73,N,3.2,K,A*00
$GPGGA,222518.000,3748.8015,N,12217.8604,W,1,05,3.3,19.9,M,-25.1,M,,0000*56
$GPGSA,A,3,22,11,01,19,14,,,,,,,,6.0,3.3,5.0*3D
$GPRMC,222518.000,A,3748.8015,N,12217.8604,W,1.85,133.71,190112,,,A*7A
$GPVTG,133.71,T,,M,1.85,N,3.4,K,A*01
$GPGGA,222519.000,3748.8007,N,12217.8598,W,1,05,3.3,19.8,M,-25.1,M,,0000*53
$GPGSA,A,3,22,11,01,19,14,,,,,,,,6.0,3.3,5.0*3D
$GPRMC,222519.000,A,3748.8007,N,12217.8598,W,1.27,93.49,190112,,,A*46
$GPVTG,93.49,T,,M,1.27,N,2.4,K,A*38
$GPGGA,222520.000,3748.7998,N,12217.8590,W,1,05,3.3,19.0,M,-25.1,M,,0000*59
$GPGSA,A,3,22,11,01,19,14,,,,,,,,6.0,3.3,5.0*3D
$GPGSV,3,1,12,14,84,058,27,22,56,056,27,19,38,256,36,24,37,312,*79
$GPGSV,3,2,12,11,31,307,29,03,20,219,39,06,19,208,40,18,18,081,24*78
$GPGSV,3,3,12,31,18,163,43,01,14,315,25,09,09,036,33,21,06,137,*73
$GPRMC,222520.000,A,3748.7998,N,12217.8590,W,1.39,94.40,190112,,,A*45
$GPVTG,94.40,T,,M,1.39,N,2.6,K,A*3B
$GPGGA,222521.000,3748.7997,N,12217.8588,W,1,05,3.3,20.4,M,-25.1,M,,0000*50
$GPGSA,A,3,22,11,01,19,14,,,,,,,,6.0,3.3,5.0*3D
$GPRMC,222521.000,A,3748.7997,N,12217.8588,W,1.60,89.75,190112,,,A*44
$GPVTG,89.75,T,,M,1.60,N,3.0,K,A*3A
$GPGGA,222522.000,3748.7991,N,12217.8576,W,1,05,3.3,19.6,M,-25.1,M,,0000*5C
$GPGSA,A,3,22,11,01,19,14,,,,,,,,6.0,3.3,5.0*3D
$GPRMC,222522.000,A,3748.7991,N,12217.8576,W,1.89,53.27,190112,,,A*47
$GPVTG,53.27,T,,M,1.89,N,3.5,K,A*38
$GPGGA,222523.000,3748.7989,N,12217.8573,W,1,05,3.3,21.6,M,-25.1,M,,0000*5A
$GPGSA,A,3,22,11,01,19,14,,,,,,,,6.0,3.3,5.0*3D
$GPRMC,222523.000,A,3748.7989,N,12217.8573,W,1.38,83.23,190112,,,A*49
$GPVTG,83.23,T,,M,1.38,N,2.6,K,A*39
$GPGGA,222524.000,3748.7982,N,12217.8566,W,1,05,3.3,20.1,M,-25.1,M,,0000*54
$GPGSA,A,3,22,11,01,19,14,,,,,,,,6.0,3.3,5.0*3D
$GPRMC,222524.000,A,3748.7982,N,12217.8566,W,1.52,102.91,190112,,,A*7C
$GPVTG,102.91,T,,M,1.52,N,2.8,K,A*0A
$GPGGA,222525.000,3748.7979,N,12217.8561,W,1,04,5.2,20.7,M,-25.1,M,,0000*56
$GPGSA,A,3,22,01,19,14,,,,,,,,,8.9,5.2,7.2*3D
$GPGSV,3,1,12,14,84,058,27,22,56,056,28,19,38,256,35,24,37,312,*75
$GPGSV,3,2,12,11,31,307,20,03,20,219,34,06,19,208,31,18,18,081,23*7D
$GPGSV,3,3,12,31,18,163,40,01,14,315,14,09,09,036,23,21,06,137,*73
$GPRMC,222525.000,A,3748.7979,N,12217.8561,W,1.93,113.34,190112,,,A*7C
$GPVTG,113.34,T,,M,1.93,N,3.6,K,A*07
$GPGGA,222526.000,3748.7976,N,12217.8555,W,1,04,5.1,21.1,M,-25.1,M,,0000*59
$GPGSA,A,3,22,01,19,14,,,,,,,,,8.8,5.1,7.2*3F
$GPRMC,222526.000,A,3748.7976,N,12217.8555,W,1.49,99.55,190112,,,A*44
$GPVTG,99.55,T,,M,1.49,N,2.8,K,A*3B
$GPGGA,222527.000,3748.7975,N,12217.8552,W,1,04,5.1,21.9,M,-25.1,M,,0000*54
$GPGSA,A,3,22,01,19,14,,,,,,,,,8.8,5.1,7.2*3F
$GPRMC,222527.000,A,3748.7975,N,12217.8552,W,1.65,76.62,190112,,,A*4A
$GPVTG,76.62,T,,M,1.65,N,3.1,K,A*38
$GPGGA,222528.000,3748.7981,N,12217.8552,W,1,05,3.3,22.6,M,-25.1,M,,0000*59
$GPGSA,A,3,22,11,01,19,14,,,,,,,,6.0,3.3,5.0*3D
$GPRMC,222528.000,A,3748.7981,N,12217.8552,W,0.97,20.48,190112,,,A*49
$GPVTG,20.48,T,,M,0.97,N,1.8,K,A*34
$GPGGA,222529.000,3748.7982,N,12217.8549,W,1,05,3.3,21.9,M,-25.1,M,,0000*5D
$GPGSA,A,3,22,11,01,19,14,,,,,,,,6.0,3.3,5.0*3D
$GPRMC,222529.000,A,3748.7982,N,12217.8549,W,1.30,26.48,190112,,,A*4B
$GPVTG,26.48,T,,M,1.30,N,2.4,K,A*31
$GPGGA,222530.000,3748.7981,N,12217.8548,W,1,05,3.3,22.0,M,-25.1,M,,0000*5D
$GPGSA,A,3,22,11,01,19,14,,,,,,,,6.0,3.3,4.9*35
$GPGSV,3,1,12,14,84,058,27,22,56,056,32,19,38,256,37,24,37,312,*7C
$GPGSV,3,2,12,11,31,307,25,03,20,219,34,06,19,208,34,18,18,081,34*7B
$GPGSV,3,3,12,31,18,163,41,01,14,315,21,09,09,036,21,21,06,137,*76
$GPRMC,222530.000,A,3748.7981,N,12217.8548,W,1.25,72.65,190112,,,A*4B
$GPGGA,222531.000,3748.7969,N,12217.8536,W,1,05,3.3,20.4,M,-25.1,M,,0000*55
$GPGSA,A,3,22,11,01,19,14,,,,,,,,6.0,3.3,4.9*35
$GPRMC,222531.000,A,3748.7969,N,12217.8536,W,1.93,101.57,190112,,,A*7C
$GPVTG,101.57,T,,M,1.93,N,3.6,K,A*01
$GPGGA,222532.000,3748.7962,N,12217.8521,W,1,05,3.3,18.5,M,-25.1,M,,0000*51
$GPGSA,A,3,22,11,01,19,14,,,,,,,,5.9,3.3,4.9*3F
$GPRMC,222532.000,A,3748.7962,N,12217.8521,W,1.97,86.81,190112,,,A*43
$GPVTG,86.81,T,,M,1.97,N,3.7,K,A*31
$GPGGA,222533.000,3748.7951,N,12217.8507,W,1,05,3.3,16.7,M,-25.1,M,,0000*58
$GPGSA,A,3,22,11,01,19,14,,,,,,,,5.9,3.3,4.9*3F
$GPRMC,222533.000,A,3748.7951,N,12217.8507,W,2.25,122.32,190112,,,A*7B
$GPVTG,122.32,T,,M,2.25,N,4.2,K,A*0E
$GPGGA,222534.000,3748.7942,N,12217.8486,W,1,05,3.3,14.7,M,-25.1,M,,0000*57
$GPGSA,A,3,22,11,01,19,14,,,,,,,,5.9,3.3,4.9*3F
$GPRMC,222534.000,A,3748.7942,N,12217.8486,W,2.29,103.13,190112,,,A*7A
$GPVTG,103.13,T,,M,2.29,N,4.2,K,A*02
$GPGGA,222535.000,3748.7943,N,12217.8477,W,1,05,3.3,14.3,M,-25.1,M,,0000*5D
$GPGSA,A,3,22,11,01,19,14,,,,,,,,5.9,3.3,4.9*3F
$GPGSV,3,1,12,14,84,058,27,22,56,056,24,19,38,256,35,24,37,312,*79
$GPGSV,3,2,12,11,31,307,25,03,20,219,35,06,19,208,39,18,18,081,29*7B
$GPGSV,3,3,12,31,18,163,41,01,14,315,22,09,09,036,21,21,06,137,*75
$GPRMC,222535.000,A,3748.7943,N,12217.8477,W,2.40,79.31,190112,,,A*47
$GPVTG,79.31,T,,M,2.40,N,4.4,K,A*37
$GPGGA,222536.000,3748.7938,N,12217.8467,W,1,05,3.3,12.8,M,-25.1,M,,0000*5E
$GPGSA,A,3,22,11,01,19,14,,,,,,,,5.9,3.3,4.9*3F
$GPRMC,222536.000,A,3748.7938,N,12217.8467,W,1.25,97.19,190112,,,A*43
$GPVTG,97.19,T,,M,1.25,N,2.3,K,A*3C
$GPGGA,222537.000,3748.7935,N,12217.8464,W,1,05,3.3,12.2,M,-25.1,M,,0000*5B
$GPGSA,A,3,22,11,01,19,14,,,,,,,,5.9,3.3,4.9*3F
$GPRMC,222537.000,A,3748.7935,N,12217.8464,W,1.35,50.45,190112,,,A*4F
$GPVTG,50.45,T,,M,1.35,N,2.5,K,A*39
$GPGGA,222538.000,3748.7941,N,12217.8467,W,1,05,3.3,14.2,M,-25.1,M,,0000*52
$GPGSA,A,3,22,11,01,19,14,,,,,,,,5.9,3.3,4.9*3F
$GPRMC,222538.000,A,3748.7941,N,12217.8467,W,1.81,16.73,190112,,,A*48
$GPVTG,16.73,T,,M,1.81,N,3.4,K,A*31
$GPGGA,222539.000,3748.7944,N,12217.8465,W,1,04,5.1,15.3,M,-25.1,M,,0000*51
$GPGSA,A,3,22,01,19,14,,,,,,,,,8.7,5.1,7.1*33
$GPRMC,222539.000,A,3748.7944,N,12217.8465,W,1.57,56.72,190112,,,A*40
$GPVTG,56.72,T,,M,1.57,N,2.9,K,A*33
$GPGGA,222540.000,3748.7945,N,12217.8462,W,1,04,5.1,16.0,M,-25.1,M,,0000*59
$GPGSA,A,3,22,01,19,14,,,,,,,,,8.7,5.1,7.1*33
$GPGSV,3,1,12,14,84,058,27,22,56,056,26,19,38,256,34,24,37,312,*7A
$GPGSV,3,2,12,11,31,307,,03,20,219,35,06,19,208,39,18,18,081,31*75
$GPGSV,3,3,12,31,18,163,42,01,14,315,21,09,09,036,25,21,06,137,*71
$GPRMC,222540.000,A,3748.7945,N,12217.8462,W,1.93,49.07,190112,,,A*4C
$GPVTG,49.07,T,,M,1.93,N,3.6,K,A*39
$GPGGA,222541.000,3748.7933,N,12217.8452,W,1,05,3.3,15.2,M,-25.1,M,,0000*5E
$GPGSA,A,3,22,11,01,19,14,,,,,,,,5.9,3.3,4.9*3F
$GPRMC,222541.000,A,3748.7933,N,12217.8452,W,2.18,105.43,190112,,,A*76
$GPVTG,105.43,T,,M,2.18,N,4.0,K,A*01
$GPGGA,222542.000,3748.7914,N,12217.8436,W,1,05,3.3,14.2,M,-25.1,M,,0000*5B
$GPGSA,A,3,22,11,01,19,14,,,,,,,,5.9,3.3,4.9*3F
$GPRMC,222542.000,A,3748.7914,N,12217.8436,W,1.96,109.23,190112,,,A*7D
$GPVTG,109.23,T,,M,1.96,N,3.6,K,A*0F
$GPGGA,222543.000,3748.7896,N,12217.8415,W,1,05,3.3,11.4,M,-25.1,M,,0000*53
$GPGSA,A,3,22,11,01,19,14,,,,,,,,5.9,3.3,4.9*3F
$GPRMC,222543.000,A,3748.7896,N,12217.8415,W,2.44,97.08,190112,,,A*45
$GPVTG,97.08,T,,M,2.44,N,4.5,K,A*38
$GPGGA,222544.000,3748.7882,N,12217.8401,W,1,05,3.3,10.5,M,-25.1,M,,0000*54
$GPGSA,A,3,22,11,01,19,14,,,,,,,,5.9,3.3,4.9*3F
$GPRMC,222544.000,A,3748.7882,N,12217.8401,W,1.79,110.96,190112,,,A*76
$GPVTG,110.96,T,,M,1.79,N,3.3,K,A*0D
$GPGGA,222545.000,3748.7871,N,12217.8387,W,1,05,3.3,8.9,M,-25.1,M,,0000*65
$GPGSA,A,3,22,11,01,19,14,,,,,,,,5.9,3.3,4.9*3F
$GPGSV,3,1,12,14,84,058,27,22,56,056,27,19,38,256,34,24,37,312,*7B
$GPGSV,3,2,12,11,31,307,24,03,20,219,36,06,19,208,35,18,18,081,31*7C
$GPGSV,3,3,12,31,18,163,39,01,14,315,22,09,09,036,28,21,06,137,*73
$GPRMC,222545.000,A,3748.7871,N,12217.8387,W,1.80,94.11,190112,,,A*46
$GPGGA,222546.000,3748.7857,N,12217.8370,W,1,05,3.3,6.6,M,-25.1,M,,0000*6B
$GPGSA,A,3,22,11,01,19,14,,,,,,,,5.9,3.3,4.9*3F
$GPRMC,222546.000,A,3748.7857,N,12217.8370,W,2.01,106.69,190112,,,A*76
$GPVTG,106.69,T,,M,2.01,N,3.7,K,A*02
$GPGGA,222547.000,3748.7851,N,12217.8361,W,1,05,3.3,5.6,M,-25.1,M,,0000*6F
$GPGSA,A,3,22,11,01,19,14,,,,,,,,5.9,3.3,4.9*3F
$GPRMC,222547.000,A,3748.7851,N,12217.8361,W,1.69,85.74,190112,,,A*4A
$GPVTG,85.74,T,,M,1.69,N,3.1,K,A*3F
$GPGGA,222548.000,3748.7835,N,12217.8346,W,1,05,3.3,4.6,M,-25.1,M,,0000*66
$GPGSA,A,3,22,11,01,19,14,,,,,,,,5.9,3.3,4.9*3F
$GPRMC,222548.000,A,3748.7835,N,12217.8346,W,2.16,86.53,190112,,,A*4F
$GPVTG,86.53,T,,M,2.16,N,4.0,K,A*34
$GPGGA,222549.000,3748.7828,N,12217.8333,W,1,05,3.3,5.0,M,-25.1,M,,0000*6E
$GPGSA,A,3,22,11,01,19,14,,,,,,,,5.9,3.3,4.9*3F
$GPRMC,222549.000,A,3748.7828,N,12217.8333,W,3.33,98.02,190112,,,A*4D
$GPVTG,98.02,T,,M,3.33,N,6.2,K,A*39
$GPGGA,222550.000,3748.7813,N,12217.8313,W,1,05,3.3,2.9,M,-25.1,M,,0000*62
$GPGSA,A,3,22,11,01,19,14,,,,,,,,5.9,3.3,4.9*3F
$GPGSV,3,1,12,14,84,054,27,22,56,057,25,19,37,256,34,24,37,312,*7B
$GPGSV,3,2,12,11,31,306,24,03,19,219,35,31,18,163,41,06,18,207,38*76
$GPGSV,3,3,12,18,18,082,21,01,15,315,21,09,09,036,26,21,05,137,*70
$GPRMC,222550.000,A,3748.7813,N,12217.8313,W,2.86,93.19,190112,,,A*41
$GPVTG,93.19,T,,M,2.86,N,5.3,K,A*35
$GPGGA,222551.000,3748.7812,N,12217.8302,W,1,05,3.3,2.4,M,-25.1,M,,0000*6F
$GPGSA,A,3,22,11,01,19,14,,,,,,,,5.9,3.3,4.9*3F
$GPRMC,222551.000,A,3748.7812,N,12217.8302,W,2.58,81.29,190112,,,A*42
$GPVTG,81.29,T,,M,2.58,N,4.8,K,A*3C
$GPGGA,222552.000,3748.7818,N,12217.8298,W,1,05,3.3,4.2,M,-25.1,M,,0000*64
$GPGSA,A,3,22,11,01,19,14,,,,,,,,5.9,3.3,4.9*3F
$GPRMC,222552.000,A,3748.7818,N,12217.8298,W,2.04,95.77,190112,,,A*4E
$GPVTG,95.77,T,,M,2.04,N,3.8,K,A*3C
$GPGGA,222553.000,3748.7811,N,12217.8286,W,1,05,3.3,3.5,M,-25.1,M,,0000*63
$GPGSA,A,3,22,11,01,19,14,,,,,,,,5.9,3.3,4.9*3F
$GPRMC,222553.000,A,3748.7811,N,12217.8286,W,1.99,90.29,190112,,,A*40
$GPVTG,90.29,T,,M,1.99,N,3.7,K,A*3A
$GPGGA,222554.000,3748.7814,N,12217.8285,W,1,05,3.3,5.3,M,-25.1,M,,0000*62
$GPGSA,A,3,22,11,01,19,14,,,,,,,,5.9,3.3,4.9*3F
$GPRMC,222554.000,A,3748.7814,N,12217.8285,W,2.26,54.11,190112,,,A*45
$GPVTG,54.11,T,,M,2.26,N,4.2,K,A*3C
$GPGGA,222555.000,3748.7811,N,12217.8277,W,1,05,3.3,5.8,M,-25.1,M,,0000*60
$GPGSA,A,3,22,11,01,19,14,,,,,,,,5.9,3.3,4.9*3F
$GPGSV,3,1,12,14,84,054,28,22,56,057,27,19,37,256,34,24,37,312,*76
$GPGSV,3,2,12,11,31,306,24,03,19,219,35,31,18,163,40,06,18,207,39*76
$GPGSV,3,3,12,18,18,082,27,01,15,315,22,09,09,036,22,21,05,137,*71
$GPRMC,222555.000,A,3748.7811,N,12217.8277,W,2.43,45.44,190112,,,A*4F
$GPVTG,45.44,T,,M,2.43,N,4.5,K,A*38
$GPGGA,222556.000,3748.7819,N,12217.8284,W,1,05,3.3,9.6,M,-25.1,M,,0000*65
$GPGSA,A,3,22,11,01,19,14,,,,,,,,5.9,3.3,4.9*3F
$GPRMC,222556.000,A,3748.7819,N,12217.8284,W,1.53,50.11,190112,,,A*4E
$GPVTG,50.11,T,,M,1.53,N,2.8,K,A*35
$GPGGA,222557.000,3748.7820,N,12217.8280,W,1,05,3.3,11.1,M,-25.1,M,,0000*54
$GPGSA,A,3,22,11,01,19,14,,,,,,,,5.9,3.3,4.9*3F
$GPRMC,222557.000,A,3748.7820,N,12217.8280,W,0.79,72.53,190112,,,A*4E
$GPVTG,72.53,T,,M,0.79,N,1.5,K,A*34
$GPGGA,222558.000,3748.7817,N,12217.8268,W,1,05,3.3,10.9,M,-25.1,M,,0000*50
$GPGSA,A,3,22,11,01,19,14,,,,,,,,5.9,3.3,4.9*3F
$GPRMC,222558.000,A,3748.7817,N,12217.8268,W,2.01,60.50,190112,,,A*4E
$GPVTG,60.50,T,,M,2.01,N,3.7,K,A*39
$GPGGA,222559.000,3748.7809,N,12217.8257,W,1,05,3.3,10.3,M,-25.1,M,,0000*58
$GPGSA,A,3,22,11,01,19,14,,,,,,,,5.9,3.3,4.9*3F
$GPRMC,222559.000,A,3748.7809,N,12217.8257,W,1.88,61.16,190112,,,A*4D
$GPVTG,61.16,T,,M,1.88,N,3.5,K,A*3A
$GPGGA,222600.000,3748.7804,N,12217.8246,W,1,05,3.3,9.9,M,-25.1,M,,0000*68
$GPGSA,A,3,22,11,01,19,14,,,,,,,,5.9,3.3,4.9*3F
$GPGSV,3,1,12,14,84,054,28,22,56,057,27,19,37,256,33,24,37,312,*71
$GPGSV,3,2,12,11,31,306,24,03,19,219,35,31,18,163,42,06,18,207,39*74
$GPGSV,3,3,12,18,18,082,25,01,15,315,22,09,09,036,24,21,05,137,*75
$GPRMC,222600.000,A,3748.7804,N,12217.8246,W,2.15,58.51,190112,,,A*41
$GPVTG,58.51,T,,M,2.15,N,4.0,K,A*36
$GPGGA,222601.000,3748.7795,N,12217.8229,W,1,05,3.3,7.9,M,-25.1,M,,0000*69
$GPGSA,A,3,22,11,01,19,14,,,,,,,,5.9,3.3,4.9*3F
$GPRMC,222601.000,A,3748.7795,N,12217.8229,W,2.53,88.90,190112,,,A*4C
$GPVTG,88.90,T,,M,2.53,N,4.7,K,A*33
$GPGGA,222602.000,3748.7789,N,12217.8222,W,1,05,3.2,8.7,M,-25.1,M,,0000*6C
$GPGSA,A,3,22,11,01,19,14,,,,,,,,5.9,3.2,4.9*3E
$GPRMC,222602.000,A,3748.7789,N,12217.8222,W,1.95,93.29,190112,,,A*48
$GPVTG,93.29,T,,M,1.95,N,3.6,K,A*34
$GPGGA,222603.000,3748.7784,N,12217.8215,W,1,05,3.2,8.9,M,-25.1,M,,0000*6A
$GPGSA,A,3,22,11,01,19,14,,,,,,,,5.9,3.2,4.9*3E
$GPRMC,222603.000,A,3748.7784,N,12217.8215,W,1.54,87.07,190112,,,A*44
$GPVTG,87.07,T,,M,1.54,N,2.9,K,A*3E
$GPGGA,222604.000,3748.7777,N,12217.8209,W,1,06,1.4,8.6,M,-25.1,M,,0000*64
$GPGSA,A,3,22,11,01,19,14,31,,,,,,,2.3,1.4,1.8*31
$GPRMC,222604.000,A,3748.7777,N,12217.8209,W,2.46,116.92,190112,,,A*77
$GPVTG,116.92,T,,M,2.46,N,4.6,K,A*02
$GPGGA,222605.000,3748.7773,N,12217.8200,W,1,06,1.4,8.7,M,-25.1,M,,0000*69
$GPGSA,A,3,22,11,01,19,14,31,,,,,,,2.3,1.4,1.8*31
$GPGSV,3,1,12,14,83,053,28,22,56,057,28,24,37,312,,19,37,255,34*7A
$GPGSV,3,2,12,11,31,306,25,03,19,219,36,31,18,163,42,06,18,207,39*76
$GPGSV,3,3,12,18,18,082,28,01,15,315,24,09,09,036,24,21,05,137,*7E
$GPRMC,222605.000,A,3748.7773,N,12217.8200,W,2.23,108.91,190112,,,A*74
$GPVTG,108.91,T,,M,2.23,N,4.1,K,A*0A
$GPGGA,222606.000,3748.7771,N,12217.8192,W,1,06,1.4,7.1,M,-25.1,M,,0000*69
$GPGSA,A,3,22,11,01,19,14,31,,,,,,,2.3,1.4,1.8*31
$GPRMC,222606.000,A,3748.7771,N,12217.8192,W,2.38,95.54,190112,,,A*4B
$GPVTG,95.54,T,,M,2.38,N,4.4,K,A*39
$GPGGA,222607.000,3748.7768,N,12217.8184,W,1,06,1.4,6.9,M,-25.1,M,,0000*6E
$GPGSA,A,3,22,11,01,19,14,31,,,,,,,2.3,1.4,1.8*31
$GPRMC,222607.000,A,3748.7768,N,12217.8184,W,3.00,92.87,190112,,,A*46
$GPVTG,92.87,T,,M,3.00,N,5.5,K,A*3A
$GPGGA,222608.000,3748.7758,N,12217.8174,W,1,06,1.4,7.5,M,-25.1,M,,0000*60
$GPGSA,A,3,22,11,01,19,14,31,,,,,,,2.3,1.4,1.8*31
$GPRMC,222608.000,A,3748.7758,N,12217.8174,W,2.56,105.58,190112,,,A*7A
$GPVTG,105.58,T,,M,2.56,N,4.7,K,A*06
$GPGGA,222609.000,3748.7755,N,12217.8168,W,2,06,1.4,7.3,M,-25.1,M,1.8,0000*43
$GPGSA,A,3,22,11,01,19,14,31,,,,,,,2.3,1.4,1.8*31
$GPRMC,222609.000,A,3748.7755,N,12217.8168,W,2.22,111.48,190112,,,D*79
$GPVTG,111.48,T,,M,2.22,N,4.1,K,D*02
$GPGGA,222610.000,3748.7748,N,12217.8163,W,2,06,1.4,8.0,M,-25.1,M,1.8,0000*40
$GPGSA,A,3,22,11,01,19,14,31,,,,,,,2.3,1.4,1.8*31
$GPGSV,3,1,12,14,83,053,28,22,56,057,33,24,37,312,,19,37,255,34*70
$GPGSV,3,2,12,11,31,306,25,03,19,219,36,31,18,163,42,06,18,207,39*76
$GPGSV,3,3,12,18,18,082,26,01,15,315,23,09,09,036,23,21,05,137,*70
$GPRMC,222610.000,A,3748.7748,N,12217.8163,W,2.57,117.17,190112,,,D*78
$GPVTG,117.17,T,,M,2.57,N,4.8,K,D*05
$GPGGA,222611.000,3748.7741,N,12217.8158,W,2,06,1.4,8.8,M,-25.1,M,1.8,0000*48
$GPGSA,A,3,22,11,01,19,14,31,,,,,,,2.3,1.4,1.8*31
$GPRMC,222611.000,A,3748.7741,N,12217.8158,W,2.53,115.54,190112,,,D*79
$GPVTG,115.54,T,,M,2.53,N,4.7,K,D*0B
$GPGGA,222612.000,3748.7738,N,12217.8151,W,2,06,1.4,9.2,M,-25.1,M,1.8,0000*47
$GPGSA,A,3,22,11,01,19,14,31,,,,,,,2.3,1.4,1.8*31
$GPRMC,222612.000,A,3748.7738,N,12217.8151,W,2.54,111.22,190112,,,D*7F
$GPVTG,111.22,T,,M,2.54,N,4.7,K,D*09
$GPGGA,222613.000,3748.7733,N,12217.8143,W,2,06,1.4,9.7,M,-25.1,M,2.8,0000*48
$GPGSA,A,3,22,11,01,19,14,31,,,,,,,2.3,1.4,1.8*31
$GPRMC,222613.000,A,3748.7733,N,12217.8143,W,2.46,114.66,190112,,,D*70
$GPVTG,114.66,T,,M,2.46,N,4.6,K,D*0E
$GPGGA,222614.000,3748.7729,N,12217.8134,W,2,06,1.4,10.3,M,-25.1,M,3.8,0000*79
$GPGSA,A,3,22,11,01,19,14,31,,,,,,,2.3,1.4,1.8*31
$GPRMC,222614.000,A,3748.7729,N,12217.8134,W,2.65,110.43,190112,,,D*7E
$GPVTG,110.43,T,,M,2.65,N,4.9,K,D*03
$GPGGA,222615.000,3748.7725,N,12217.8123,W,2,06,1.4,10.9,M,-25.1,M,1.8,0000*7A
$GPGSA,A,3,22,11,01,19,14,31,,,,,,,2.3,1.4,1.8*31
$GPGSV,3,1,12,14,83,053,28,22,56,057,31,24,37,312,,19,37,255,34*72
$GPGSV,3,2,12,11,31,306,25,03,19,219,37,31,18,163,43,06,18,207,39*76
$GPGSV,3,3,12,18,18,082,27,01,15,315,23,09,09,036,23,21,05,137,*71
$GPVTG,108.88,T,,M,2.56,N,4.7,K,D*03
$GPGGA,222616.000,3748.7722,N,12217.8111,W,2,06,1.4,11.2,M,-25.1,M,1.8,0000*75
$GPGSA,A,3,22,11,01,19,14,31,,,,,,,2.3,1.4,1.8*31
$GPRMC,222616.000,A,3748.7722,N,12217.8111,W,2.70,105.96,190112,,,D*78
$GPVTG,105.96,T,,M,2.70,N,5.0,K,D*03
$GPGGA,222617.000,3748.7720,N,12217.8101,W,2,06,1.4,11.0,M,-25.1,M,1.8,0000*75
$GPGSA,A,3,22,11,01,19,14,31,,,,,,,2.3,1.4,1.8*31
$GPRMC,222617.000,A,3748.7720,N,12217.8101,W,2.54,109.74,190112,,,D*7C
$GPVTG,109.74,T,,M,2.54,N,4.7,K,D*03
$GPGGA,222618.000,3748.7712,N,12217.8095,W,2,06,1.4,12.2,M,-25.1,M,2.8,0000*75
$GPGSA,A,3,22,11,01,19,14,31,,,,,,,2.3,1.4,1.8*31
$GPRMC,222618.000,A,3748.7712,N,12217.8095,W,2.63,116.56,190112,,,D*74
$GPVTG,116.56,T,,M,2.63,N,4.9,K,D*07
$GPGGA,222619.000,3748.7704,N,12217.8085,W,2,06,1.4,13.3,M,-25.1,M,3.8,0000*73
$GPGSA,A,3,22,11,01,19,14,31,,,,,,,2.3,1.4,1.8*31
$GPRMC,222619.000,A,3748.7704,N,12217.8085,W,2.58,121.27,190112,,,D*79
$GPVTG,121.27,T,,M,2.58,N,4.8,K,D*0C
$GPGGA,222620.000,3748.7702,N,12217.8072,W,2,06,1.4,13.3,M,-25.1,M,4.8,0000*70
$GPGSA,A,3,22,11,01,19,14,31,,,,,,,2.3,1.4,1.8*31
$GPGSV,3,1,12,14,83,053,28,22,56,058,27,24,37,312,,19,37,255,35*7B
$GPGSV,3,2,12,11,31,306,24,03,19,219,38,31,19,163,43,06,18,207,40*77
$GPGSV,3,3,12,18,18,082,25,01,15,315,21,09,09,036,26,21,05,137,*74
$GPRMC,222620.000,A,3748.7702,N,12217.8072,W,2.57,115.44,190112,,,D*70
$GPVTG,115.44,T,,M,2.57,N,4.8,K,D*01
$GPGGA,222621.000,3748.7695,N,12217.8062,W,2,06,1.4,14.3,M,-25.1,M,5.8,0000*79
$GPGSA,A,3,22,11,01,19,14,31,,,,,,,2.3,1.4,1.8*31
$GPRMC,222621.000,A,3748.7695,N,12217.8062,W,2.62,113.81,190112,,,D*76
$GPVTG,113.81,T,,M,2.62,N,4.8,K,D*08
$GPGGA,222622.000,3748.7690,N,12217.8057,W,2,06,1.4,14.2,M,-25.1,M,1.8,0000*7C
$GPGSA,A,3,22,11,01,19,14,31,,,,,,,2.3,1.4,1.8*31
$GPRMC,222622.000,A,3748.7690,N,12217.8057,W,2.48,122.95,190112,,,D*79
$GPVTG,122.95,T,,M,2.48,N,4.6,K,D*09
$GPGGA,222623.000,3748.7686,N,12217.8050,W,2,06,1.4,14.2,M,-25.1,M,1.8,0000*7D
$GPGSA,A,3,22,11,01,19,14,31,,,,,,,2.3,1.4,1.8*31
$GPRMC,222623.000,A,3748.7686,N,12217.8050,W,2.43,117.19,190112,,,D*71
$GPVTG,117.19,T,,M,2.43,N,4.5,K,D*03
$GPGGA,222624.000,3748.7681,N,12217.8041,W,2,06,1.4,14.4,M,-25.1,M,2.8,0000*78
$GPGSA,A,3,22,11,01,19,14,31,,,,,,,2.3,1.4,1.8*31
$GPRMC,222624.000,A,3748.7681,N,12217.8041,W,2.51,109.04,190112,,,D*71
$GPVTG,109.04,T,,M,2.51,N,4.7,K,D*01
$GPGGA,222625.000,3748.7677,N,12217.8034,W,2,06,1.4,14.8,M,-25.1,M,3.8,0000*7F
$GPGSA,A,3,22,11,01,19,14,31,,,,,,,2.3,1.4,1.8*31
$GPGSV,3,1,12,14,83,053,28,22,56,058,27,24,37,312,,19,37,255,35*7B
$GPGSV,3,2,12,11,31,306,25,03,19,219,38,31,19,163,43,06,18,207,40*76
$GPGSV,3,3,12,18,18,082,31,01,15,315,22,09,09,036,26,21,05,137,*72
$GPRMC,222625.000,A,3748.7677,N,12217.8034,W,2.14,118.91,190112,,,D*76
$GPVTG,118.91,T,,M,2.14,N,4.0,K,D*0B
$GPGGA,222626.000,3748.7673,N,12217.8029,W,2,06,1.4,14.5,M,-25.1,M,4.8,0000*7E
$GPGSA,A,3,22,11,01,19,14,31,,,,,,,2.3,1.4,1.8*31
$GPRMC,222626.000,A,3748.7673,N,12217.8029,W,2.34,112.37,190112,,,D*79
$GPVTG,112.37,T,,M,2.34,N,4.3,K,D*0C
$GPGGA,222627.000,3748.7670,N,12217.8021,W,2,06,1.4,14.2,M,-25.1,M,1.8,0000*76
$GPGSA,A,3,22,11,01,19,14,31,,,,,,,2.3,1.4,1.8*31
$GPRMC,222627.000,A,3748.7670,N,12217.8021,W,2.13,116.18,190112,,,D*7F
$GPVTG,116.18,T,,M,2.13,N,3.9,K,D*0D
$GPGGA,222628.000,3748.7668,N,12217.8013,W,2,06,1.4,13.6,M,-25.1,M,1.8,0000*72
$GPGSA,A,3,22,11,01,19,14,31,,,,,,,2.3,1.4,1.8*31
$GPRMC,222628.000,A,3748.7668,N,12217.8013,W,2.26,107.39,190112,,,D*7D
$GPVTG,107.39,T,,M,2.26,N,4.2,K,D*04
$GPGGA,222629.000,3748.7666,N,12217.8004,W,2,06,1.4,13.1,M,-25.1,M,1.8,0000*7C
$GPGSA,A,3,22,11,01,19,14,31,,,,,,,2.3,1.4,1.8*31
$GPRMC,222629.000,A,3748.7666,N,12217.8004,W,2.40,113.48,190112,,,D*77
$GPVTG,113.48,T,,M,2.40,N,4.4,K,D*01
$GPGGA,222630.000,3748.7662,N,12217.7993,W,2,06,1.4,13.0,M,-25.1,M,2.8,0000*7A
$GPGSA,A,3,22,11,01,19,14,31,,,,,,,2.3,1.4,1.8*31
$GPGSV,3,1,12,14,83,053,28,22,56,058,28,24,37,312,,19,37,255,35*74
$GPGSV,3,2,12,11,31,306,25,03,19,219,33,31,19,163,42,06,18,207,32*79
$GPRMC,222630.000,A,3748.7662,N,12217.7993,W,2.56,112.12,190112,,,D*7A
$GPVTG,112.12,T,,M,2.56,N,4.7,K,D*0B
$GPGGA,222631.000,3748.7659,N,12217.7988,W,2,06,1.4,12.2,M,-25.1,M,3.8,0000*7B
$GPGSA,A,3,22,11,01,19,14,31,,,,,,,2.3,1.4,1.8*31
$GPRMC,222631.000,A,3748.7659,N,12217.7988,W,2.48,113.13,190112,,,D*76
$GPVTG,113.13,T,,M,2.48,N,4.6,K,D*05
$GPGGA,222632.000,3748.7655,N,12217.7979,W,2,06,1.4,12.2,M,-25.1,M,4.8,0000*7D
$GPGSA,A,3,22,11,01,19,14,31,,,,,,,2.3,1.4,1.8*31
$GPRMC,222632.000,A,3748.7655,N,12217.7979,W,2.74,100.98,190112,,,D*79
$GPVTG,100.98,T,,M,2.74,N,5.1,K,D*0D
$GPGGA,222633.000,3748.7647,N,12217.7975,W,2,06,1.4,13.9,M,-25.1,M,1.8,0000*7C
$GPGSA,A,3,22,11,01,19,14,31,,,,,,,2.3,1.4,1.8*31
$GPRMC,222633.000,A,3748.7647,N,12217.7975,W,2.14,98.04,190112,,,D*44
$GPVTG,98.04,T,,M,2.14,N,4.0,K,D*3E
$GPGGA,222634.000,3748.7642,N,12217.7968,W,2,06,1.4,14.1,M,-25.1,M,1.8,0000*7D
$GPGSA,A,3,22,11,01,19,14,31,,,,,,,2.3,1.4,1.8*31
$GPRMC,222634.000,A,3748.7642,N,12217.7968,W,2.72,119.77,190112,,,D*76
$GPVTG,119.77,T,,M,2.72,N,5.0,K,D*03
$GPGGA,222635.000,3748.7635,N,12217.7959,W,2,06,1.4,15.5,M,-25.1,M,1.8,0000*7B
$GPGSA,A,3,22,11,01,19,14,31,,,,,,,2.3,1.4,1.8*31
$GPGSV,3,1,12,14,83,053,28,22,56,058,28,24,37,312,,19,37,255,34*75
$GPGSV,3,2,12,11,31,306,28,03,19,219,40,31,19,163,26,06,18,207,33*73
$GPGSV,3,3,12,18,18,082,36,01,15,315,26,09,09,036,22,21,05,137,*75
$GPRMC,222635.000,A,3748.7635,N,12217.7959,W,3.01,103.75,190112,,,D*79
$GPVTG,103.75,T,,M,3.01,N,5.6,K,D*09
$GPGGA,222636.000,3748.7631,N,12217.7947,W,2,06,1.4,15.4,M,-25.1,M,1.8,0000*72
$GPGSA,A,3,22,11,01,19,14,31,,,,,,,2.3,1.4,1.8*31
$GPRMC,222636.000,A,3748.7631,N,12217.7947,W,2.24,115.94,190112,,,D*7F
$GPVTG,115.94,T,,M,2.24,N,4.2,K,D*02
$GPGGA,222637.000,3748.7626,N,12217.7941,W,2,06,1.4,16.0,M,-25.1,M,2.8,0000*77
$GPGSA,A,3,22,11,01,19,14,31,,,,,,,2.3,1.4,1.8*31
$GPRMC,222637.000,A,3748.7626,N,12217.7941,W,1.97,120.94,190112,,,D*73
$GPVTG,120.94,T,,M,1.97,N,3.6,K,D*0C
$GPGGA,222638.000,3748.7623,N,12217.7931,W,2,06,1.4,16.6,M,-25.1,M,1.8,0000*7F
$GPGSA,A,3,22,11,01,19,14,31,,,,,,,2.3,1.4,1.8*31
$GPRMC,222638.000,A,3748.7623,N,12217.7931,W,1.99,102.73,190112,,,D*79
$GPVTG,102.73,T,,M,1.99,N,3.7,K,D*0A
$GPGGA,222639.000,3748.7617,N,12217.7922,W,2,06,1.4,17.9,M,-25.1,M,1.8,0000*75
$GPGSA,A,3,22,11,01,19,14,31,,,,,,,2.3,1.4,1.8*31
$GPRMC,222639.000,A,3748.7617,N,12217.7922,W,2.54,105.83,190112,,,D*77
$GPVTG,105.83,T,,M,2.54,N,4.7,K,D*07
$GPGGA,222640.000,3748.7612,N,12217.7911,W,2,06,1.4,19.2,M,-25.1,M,1.8,0000*7B
$GPGSA,A,3,22,11,01,19,14,31,,,,,,,2.3,1.4,1.8*31
$GPGSV,3,1,12,14,83,053,28,22,56,058,29,24,37,312,,19,37,255,32*72
$GPGSV,3,2,12,11,31,306,23,03,19,219,37,31,19,163,33,06,18,207,36*79
$GPGSV,3,3,12,18,18,082,25,01,15,315,24,09,09,036,31,21,05,137,*77
$GPRMC,222640.000,A,3748.7612,N,12217.7911,W,2.10,117.74,190112,,,D*77
$GPVTG,117.74,T,,M,2.10,N,3.9,K,D*05
$GPGGA,222641.000,3748.7607,N,12217.7901,W,2,06,1.4,19.7,M,-25.1,M,1.8,0000*7A
$GPGSA,A,3,22,11,01,19,14,31,,,,,,,2.3,1.4,1.8*31
$GPRMC,222641.000,A,3748.7607,N,12217.7901,W,2.57,122.31,190112,,,D*77
$GPVTG,122.31,T,,M,2.57,N,4.8,K,D*07
$GPGGA,222642.000,3748.7609,N,12217.7891,W,2,06,1.4,17.5,M,-25.1,M,2.8,0000*70
$GPGSA,A,3,22,11,01,19,14,31,,,,,,,2.3,1.4,1.8*31
$GPRMC,222642.000,A,3748.7609,N,12217.7891,W,2.59,120.65,190112,,,D*7F
$GPVTG,120.65,T,,M,2.59,N,4.8,K,D*0A
$GPGGA,222643.000,3748.7605,N,12217.7882,W,2,06,1.4,17.2,M,-25.1,M,3.8,0000*79
$GPGSA,A,3,22,11,01,19,14,31,,,,,,,2.3,1.4,1.8*31
$GPRMC,222643.000,A,3748.7605,N,12217.7882,W,3.21,97.05,190112,,,D*45
$GPVTG,97.05,T,,M,3.21,N,5.9,K,D*3F
$GPGGA,222644.000,3748.7604,N,12217.7868,W,2,06,1.4,16.7,M,-25.1,M,4.8,0000*78
$GPGSA,A,3,22,11,01,19,14,31,,,,,,,2.3,1.4,1.8*31
$GPRMC,222644.000,A,3748.7604,N,12217.7868,W,2.70,113.88,190112,,,D*7A
$GPVTG,113.88,T,,M,2.70,N,5.0,K,D*0B
$GPGGA,222645.000,3748.7600,N,12217.7860,W,2,06,1.4,16.2,M,-25.1,M,1.8,0000*75
$GPGSA,A,3,22,11,01,19,14,31,,,,,,,2.3,1.4,1.8*31
$GPGSV,3,1,12,14,83,053,25,22,56,058,20,24,37,312,,19,37,255,35*71
$GPGSV,3,2,12,11,31,306,24,03,19,219,38,31,19,163,38,06,18,207,34*78
$GPGSV,3,3,12,18,18,082,21,01,15,315,23,09,09,036,22,21,05,137,*76
$GPRMC,222645.000,A,3748.7600,N,12217.7860,W,2.30,113.83,190112,,,D*78
$GPVTG,113.83,T,,M,2.30,N,4.3,K,D*06
$GPGGA,222646.000,3748.7594,N,12217.7852,W,2,06,1.4,16.3,M,-25.1,M,1.8,0000*78
$GPGSA,A,3,22,11,01,19,14,31,,,,,,,2.3,1.4,1.8*31
$GPRMC,222646.000,A,3748.7594,N,12217.7852,W,2.34,112.69,190112,,,D*75
$GPVTG,112.69,T,,M,2.34,N,4.3,K,D*07
$GPGGA,222647.000,3748.7589,N,12217.7843,W,2,06,1.4,16.5,M,-25.1,M,1.8,0000*73
$GPGSA,A,3,22,11,01,19,14,31,,,,,,,2.3,1.4,1.8*31
$GPRMC,222647.000,A,3748.7589,N,12217.7843,W,2.59,102.90,190112,,,D*74
$GPVTG,102.90,T,,M,2.59,N,4.8,K,D*00
$GPGGA,222648.000,3748.7584,N,12217.7833,W,2,06,1.4,16.5,M,-25.1,M,2.8,0000*75
$GPGSA,A,3,22,11,01,19,14,31,,,,,,,2.3,1.4,1.8*31
$GPRMC,222648.000,A,3748.7584,N,12217.7833,W,2.99,99.38,190112,,,D*4C
$GPVTG,99.38,T,,M,2.99,N,5.5,K,D*31
$GPGGA,222649.000,3748.7579,N,12217.7824,W,2,06,1.4,17.0,M,-25.1,M,3.8,0000*75
$GPGSA,A,3,22,11,01,19,14,31,,,,,,,2.3,1.4,1.8*31
$GPRMC,222649.000,A,3748.7579,N,12217.7824,W,2.79,109.03,190112,,,D*77
$GPVTG,109.03,T,,M,2.79,N,5.2,K,D*08
$GPGGA,222650.000,3748.7571,N,12217.7820,W,2,06,1.4,17.7,M,-25.1,M,4.8,0000*71
$GPGSA,A,3,22,11,01,19,14,31,,,,,,,2.3,1.4,1.8*31
$GPGSV,3,1,12,14,83,052,27,22,56,058,21,24,38,312,,19,37,255,32*7B
$GPGSV,3,2,12,11,32,306,18,03,19,219,28,31,19,163,34,06,18,207,26*7A
$GPGSV,3,3,12,18,17,082,22,01,15,315,22,09,09,035,20,21,05,137,*7A
$GPVTG,110.54,T,,M,2.45,N,4.5,K,D*0B
$GPGGA,222651.000,3748.7563,N,12217.7814,W,2,06,1.4,18.1,M,-25.1,M,5.8,0000*7C
$GPGSA,A,3,22,11,01,19,14,31,,,,,,,2.3,1.4,1.8*31
$GPRMC,222651.000,A,3748.7563,N,12217.7814,W,2.23,111.16,190112,,,D*74
$GPVTG,111.16,T,,M,2.23,N,4.1,K,D*08
$GPGGA,222652.000,3748.7554,N,12217.7811,W,2,06,1.4,18.7,M,-25.1,M,1.8,0000*7C
$GPGSA,A,3,22,11,01,19,14,31,,,,,,,2.3,1.4,1.8*31
$GPRMC,222652.000,A,3748.7554,N,12217.7811,W,2.26,120.76,190112,,,D*77
$GPVTG,120.76,T,,M,2.26,N,4.2,K,D*0A
$GPGGA,222653.000,3748.7544,N,12217.7808,W,2,06,1.4,19.4,M,-25.1,M,1.8,0000*76
$GPGSA,A,3,22,11,01,19,14,31,,,,,,,2.3,1.4,1.8*31
$GPRMC,222653.000,A,3748.7544,N,12217.7808,W,2.20,125.04,190112,,,D*79
$GPVTG,125.04,T,,M,2.20,N,4.1,K,D*0F
$GPGGA,222654.000,3748.7540,N,12217.7801,W,2,06,1.4,18.5,M,-25.1,M,2.8,0000*7F
$GPGSA,A,3,22,11,01,19,14,31,,,,,,,2.3,1.4,1.8*31
$GPRMC,222654.000,A,3748.7540,N,12217.7801,W,2.22,117.12,190112,,,D*77
$GPVTG,117.12,T,,M,2.22,N,4.1,K,D*0B
$GPGGA,222655.000,3748.7530,N,12217.7798,W,2,06,1.4,19.6,M,-25.1,M,1.8,0000*77
$GPGSA,A,3,22,11,01,19,14,31,,,,,,,2.3,1.4,1.8*31
$GPGSV,3,1,12,14,83,052,27,22,56,058,22,24,38,312,,19,37,255,34*7E
$GPGSV,3,2,12,11,32,306,21,03,19,219,29,31,19,163,31,06,18,207,36*75
$GPGSV,3,3,12,18,17,082,23,01,15,315,21,09,09,035,20,21,05,137,*78
$GPRMC,222655.000,A,3748.7530,N,12217.7798,W,2.41,120.72,190112,,,D*79
$GPVTG,120.72,T,,M,2.41,N,4.5,K,D*08
$GPGGA,222656.000,3748.7521,N,12217.7791,W,2,06,1.4,20.5,M,-25.1,M,2.8,0000*77
$GPGSA,A,3,22,11,01,19,14,31,,,,,,,2.3,1.4,1.8*31
$GPRMC,222656.000,A,3748.7521,N,12217.7791,W,2.47,124.15,190112,,,D*70
$GPVTG,124.15,T,,M,2.47,N,4.6,K,D*08
$GPGGA,222657.000,3748.7507,N,12217.7790,W,2,06,1.4,22.9,M,-25.1,M,1.8,0000*7E
$GPGSA,A,3,22,11,01,19,14,31,,,,,,,2.3,1.4,1.8*31
$GPRMC,222657.000,A,3748.7507,N,12217.7790,W,2.62,117.72,190112,,,D*72
$GPVTG,117.72,T,,M,2.62,N,4.9,K,D*01
$GPGGA,222658.000,3748.7497,N,12217.7782,W,2,07,1.2,24.3,M,-25.1,M,2.8,0000*72
$GPGSA,A,3,22,11,01,19,14,31,06,,,,,,2.2,1.2,1.8*30
$GPRMC,222658.000,A,3748.7497,N,12217.7782,W,2.71,121.60,190112,,,D*72
$GPVTG,121.60,T,,M,2.71,N,5.0,K,D*0D
$GPGGA,222659.000,3748.7488,N,12217.7777,W,2,07,1.2,24.8,M,-25.1,M,1.8,0000*7F
$GPGSA,A,3,22,11,01,19,14,31,06,,,,,,2.2,1.2,1.8*30
$GPRMC,222659.000,A,3748.7488,N,12217.7777,W,2.62,118.22,190112,,,D*79
$GPVTG,118.22,T,,M,2.62,N,4.9,K,D*0B
$GPGGA,222700.000,3748.7481,N,12217.7767,W,2,07,1.2,25.5,M,-25.1,M,1.8,0000*76
$GPGSA,A,3,22,11,01,19,14,31,06,,,,,,2.2,1.2,1.8*30
$GPGSV,3,1,12,14,83,051,28,22,56,058,22,24,38,312,,19,37,255,34*72
$GPGSV,3,2,12,11,32,306,21,31,19,163,34,03,19,219,36,06,18,207,38*70
$GPGSV,3,3,12,18,17,082,23,01,15,315,19,09,09,035,21,21,05,137,*72
$GPRMC,222700.000,A,3748.7481,N,12217.7767,W,2.89,110.00,190112,,,D*71
$GPVTG,110.00,T,,M,2.89,N,5.3,K,D*0D
$GPGGA,222701.000,3748.7472,N,12217.7762,W,2,07,1.2,26.3,M,-25.1,M,2.8,0000*78
$GPGSA,A,3,22,11,01,19,14,31,06,,,,,,2.2,1.2,1.8*30
$GPRMC,222701.000,A,3748.7472,N,12217.7762,W,2.51,120.72,190112,,,D*7A
$GPVTG,120.72,T,,M,2.51,N,4.6,K,D*0A
$GPGGA,222702.000,3748.7468,N,12217.7749,W,2,07,1.2,26.8,M,-25.1,M,3.8,0000*73
$GPGSA,A,3,22,11,01,19,14,31,06,,,,,,2.2,1.2,1.8*30
$GPRMC,222702.000,A,3748.7468,N,12217.7749,W,2.27,113.32,190112,,,D*7E
$GPVTG,113.32,T,,M,2.27,N,4.2,K,D*0B
$GPGGA,222703.000,3748.7467,N,12217.7735,W,2,07,1.2,26.1,M,-25.1,M,4.8,0000*78
$GPGSA,A,3,22,11,01,19,14,31,06,,,,,,2.2,1.2,1.8*30
$GPRMC,222703.000,A,3748.7467,N,12217.7735,W,2.66,119.91,190112,,,D*7D
$GPVTG,119.91,T,,M,2.66,N,4.9,K,D*06
$GPGGA,222704.000,3748.7456,N,12217.7728,W,2,06,1.3,27.6,M,-25.1,M,5.8,0000*76
$GPGSA,A,3,22,01,19,14,31,06,,,,,,,2.2,1.3,1.8*31
$GPRMC,222704.000,A,3748.7456,N,12217.7728,W,2.69,125.88,190112,,,D*7C
$GPVTG,125.88,T,,M,2.69,N,5.0,K,D*06
$GPGGA,222705.000,3748.7447,N,12217.7722,W,2,06,1.3,28.6,M,-25.1,M,1.8,0000*76
$GPGSA,A,3,22,01,19,14,31,06,,,,,,,2.2,1.3,1.8*31
$GPGSV,3,1,12,14,83,051,28,22,56,058,22,24,38,312,,19,37,255,34*72
$GPGSV,3,2,12,11,32,306,,31,19,163,39,03,19,219,36,06,18,207,39*7F
$GPGSV,3,3,12,18,17,082,20,01,15,315,19,09,09,035,22,21,05,137,*72
$GPRMC,222705.000,A,3748.7447,N,12217.7722,W,2.71,129.98,190112,,,D*73
$GPVTG,129.98,T,,M,2.71,N,5.0,K,D*02
$GPGGA,222706.000,3748.7442,N,12217.7717,W,2,07,1.2,28.4,M,-25.1,M,1.8,0000*74
$GPGSA,A,3,22,11,01,19,14,31,06,,,,,,2.2,1.2,1.8*30
$GPRMC,222706.000,A,3748.7442,N,12217.7717,W,2.41,123.22,190112,,,D*7B
$GPVTG,123.22,T,,M,2.41,N,4.5,K,D*0E
$GPGGA,222707.000,3748.7443,N,12217.7709,W,2,07,1.2,26.7,M,-25.1,M,1.8,0000*76
$GPGSA,A,3,22,11,01,19,14,31,06,,,,,,2.2,1.2,1.8*30
$GPRMC,222707.000,A,3748.7443,N,12217.7709,W,2.41,114.06,190112,,,D*76
$GPVTG,114.06,T,,M,2.41,N,4.5,K,D*0C
$GPGGA,222708.000,3748.7443,N,12217.7700,W,2,07,1.2,25.4,M,-25.1,M,2.8,0000*73
$GPGSA,A,3,22,11,01,19,14,31,06,,,,,,2.2,1.2,1.8*30
$GPRMC,222708.000,A,3748.7443,N,12217.7700,W,2.36,111.02,190112,,,D*71
$GPVTG,111.02,T,,M,2.36,N,4.4,K,D*0C
$GPGGA,222709.000,3748.7440,N,12217.7690,W,2,07,1.2,24.9,M,-25.1,M,1.8,0000*76
$GPGSA,A,3,22,11,01,19,14,31,06,,,,,,2.2,1.2,1.8*30
$GPRMC,222709.000,A,3748.7440,N,12217.7690,W,2.38,105.32,190112,,,D*73
$GPVTG,105.32,T,,M,2.38,N,4.4,K,D*04
$GPGGA,222710.000,3748.7430,N,12217.7681,W,2,07,1.2,26.5,M,-25.1,M,1.8,0000*77
$GPGSA,A,3,22,11,01,19,14,31,06,,,,,,2.2,1.2,1.8*30
