$ADVER,3080,2.3
$GPRMC,163337.000,A,3748.7894,N,12217.8620,W,0.05,297.99,050912,,,A*78
$GPGGA,163338.000,3748.7897,N,12217.8622,W,1,06,2.5,7.9,M,-25.1,M,,0000*66
$GPGSA,A,3,26,28,07,08,11,19,,,,,,,3.7,2.5,2.8*32
$GPRMC,163338.000,A,3748.7897,N,12217.8622,W,0.08,222.05,050912,,,A*70
$GPVTG,222.05,T,,M,0.08,N,0.2,K,A*00
$GPGGA,163339.000,3748.7886,N,12217.8628,W,1,06,2.5,8.6,M,-25.1,M,,0000*6D
$GPGSA,A,3,26,28,07,08,11,19,,,,,,,3.7,2.5,2.8*32
$GPRMC,163339.000,A,3748.7886,N,12217.8628,W,0.08,226.68,050912,,,A*74
$GPVTG,226.68,T,,M,0.08,N,0.2,K,A*0F
$GPGGA,163340.000,3748.7879,N,12217.8631,W,1,06,2.5,8.9,M,-25.1,M,,0000*64
$GPGSA,A,3,26,28,07,08,11,19,,,,,,,3.7,2.5,2.8*32
$GPRMC,163340.000,A,3748.7879,N,12217.8631,W,0.07,224.95,050912,,,A*7D
$GPVTG,224.95,T,,M,0.07,N,0.1,K,A*03
$GPGGA,163341.000,3748.7870,N,12217.8634,W,1,06,2.5,9.0,M,-25.1,M,,0000*61
$GPGSA,A,3,26,28,07,08,11,19,,,,,,,3.7,2.5,2.8*32
$GPGSV,3,1,12,28,71,303,40,08,67,046,41,26,48,301,37,07,37,100,42*74
$GPGSV,3,2,12,17,35,183,,11,20,081,40,19,12,039,28,01,11,097,*7A
$GPGSV,3,3,12,05,08,252,,13,06,156,25,24,03,052,,48,44,197,26*76
$GPRMC,163341.000,A,3748.7870,N,12217.8634,W,0.07,209.63,050912,,,A*76
$GPVTG,209.63,T,,M,0.07,N,0.1,K,A*05
$GPGGA,163342.000,3748.7866,N,12217.8638,W,1,06,2.5,8.7,M,-25.1,M,,0000*6F
$GPGSA,A,3,26,28,07,08,11,19,,,,,,,3.7,2.5,2.8*32
$GPRMC,163342.000,A,3748.7866,N,12217.8638,W,0.08,218.21,050912,,,A*77
$GPVTG,218.21,T,,M,0.08,N,0.1,K,A*0C
$GPGGA,163343.000,3748.7870,N,12217.8639,W,1,06,2.5,8.7,M,-25.1,M,,0000*68
$GPGSA,A,3,26,28,07,08,11,19,,,,,,,3.7,2.5,2.8*32
$GPRMC,163343.000,A,3748.7870,N,12217.8639,W,0.09,219.39,050912,,,A*79
$GPVTG,219.39,T,,M,0.09,N,0.2,K,A*06
$GPGGA,163344.000,3748.7878,N,12217.8636,W,1,06,2.5,8.3,M,-25.1,M,,0000*6C
$GPGSA,A,3,26,28,07,08,11,19,,,,,,,3.7,2.5,2.8*32
$GPRMC,163344.000,A,3748.7878,N,12217.8636,W,0.06,225.31,050912,,,A*71
$GPVTG,225.31,T,,M,0.06,N,0.1,K,A*0D
$GPGGA,163345.000,3748.7883,N,12217.8634,W,1,06,2.5,8.1,M,-25.1,M,,0000*69
$GPGSA,A,3,26,28,07,08,11,19,,,,,,,3.7,2.5,2.8*32
$GPRMC,163345.000,A,3748.7883,N,12217.8634,W,0.27,28.43,050912,,,A*4F
$GPVTG,28.43,T,,M,0.27,N,0.5,K,A*30
$GPGGA,163346.000,3748.7893,N,12217.8630,W,1,06,2.5,8.1,M,-25.1,M,,0000*6F
$GPGSA,A,3,26,28,07,08,11,19,,,,,,,3.7,2.5,2.8*32
$GPGSV,3,1,12,28,71,303,30,08,67,046,37,26,48,301,29,07,37,100,42*7D
$GPGSV,3,2,12,17,35,183,,11,20,081,41,19,12,039,28,01,11,097,30*78
$GPGSV,3,3,12,05,08,252,,13,06,156,25,24,03,052,,48,44,197,28*78
$GPRMC,163346.000,A,3748.7893,N,12217.8630,W,0.32,300.46,050912,,,A*71
$GPVTG,300.46,T,,M,0.32,N,0.6,K,A*0B
$GPGGA,163347.000,3748.7896,N,12217.8627,W,1,06,2.5,8.0,M,-25.1,M,,0000*6C
$GPGSA,A,3,26,28,07,08,11,19,,,,,,,3.7,2.5,2.8*32
$GPRMC,163347.000,A,3748.7896,N,12217.8627,W,0.20,104.00,050912,,,A*74
$GPVTG,104.00,T,,M,0.20,N,0.4,K,A*0E
$GPGGA,163348.000,3748.7897,N,12217.8626,W,1,06,2.5,7.6,M,-25.1,M,,0000*6A
$GPGSA,A,3,26,28,07,08,11,19,,,,,,,3.7,2.5,2.8*32
$GPRMC,163348.000,A,3748.7897,N,12217.8626,W,0.01,58.64,050912,,,A*42
$GPVTG,58.64,T,,M,0.01,N,0.0,K,A*33
$GPGGA,163349.000,3748.7898,N,12217.8625,W,1,06,2.5,7.2,M,-25.1,M,,0000*63
$GPGSA,A,3,26,28,07,08,11,19,,,,,,,3.7,2.5,2.8*32
$GPRMC,163349.000,A,3748.7898,N,12217.8625,W,0.06,305.95,050912,,,A*7D
$GPVTG,305.95,T,,M,0.06,N,0.1,K,A*00
$GPGGA,163350.000,3748.7899,N,12217.8625,W,1,06,2.5,6.8,M,-25.1,M,,0000*61
$GPGSA,A,3,26,28,07,08,11,19,,,,,,,3.7,2.5,2.8*32
$GPRMC,163350.000,A,3748.7899,N,12217.8625,W,0.14,296.52,050912,,,A*77
$GPVTG,296.52,T,,M,0.14,N,0.3,K,A*01
$GPGGA,163351.000,3748.7901,N,12217.8626,W,1,06,2.5,6.5,M,-25.1,M,,0000*6E
$GPGSA,A,3,26,28,07,08,11,19,,,,,,,3.7,2.5,2.8*32
$GPGSV,3,1,12,28,71,303,39,08,67,046,41,26,48,301,38,07,36,100,42*74
$GPGSV,3,2,12,17,36,183,31,11,20,081,39,19,12,039,33,01,11,097,24*79
$GPGSV,3,3,12,05,08,252,,13,06,156,,24,03,052,,48,44,197,39*7F
$GPVTG,257.18,T,,M,0.59,N,1.1,K,A*08
$GPGGA,163352.000,3748.7904,N,12217.8625,W,1,06,2.5,6.0,M,-25.1,M,,0000*6E
$GPGSA,A,3,26,28,07,08,11,19,,,,,,,3.7,2.5,2.8*32
$GPRMC,163352.000,A,3748.7904,N,12217.8625,W,0.07,174.77,050912,,,A*7A
$GPVTG,174.77,T,,M,0.07,N,0.1,K,A*09
$GPGGA,163353.000,3748.7909,N,12217.8624,W,1,06,2.5,5.5,M,-25.1,M,,0000*65
$GPGSA,A,3,26,28,07,08,11,19,,,,,,,3.7,2.5,2.8*32
$GPRMC,163353.000,A,3748.7909,N,12217.8624,W,0.23,26.49,050912,,,A*4A
$GPVTG,26.49,T,,M,0.23,N,0.4,K,A*31
$GPGGA,163354.000,3748.7914,N,12217.8622,W,1,06,2.5,5.0,M,-25.1,M,,0000*6D
$GPGSA,A,3,26,28,07,08,11,19,,,,,,,3.7,2.5,2.8*32
$GPRMC,163354.000,A,3748.7914,N,12217.8622,W,0.31,72.47,050912,,,A*4B
$GPVTG,72.47,T,,M,0.31,N,0.6,K,A*3F
$GPGGA,163355.000,3748.7919,N,12217.8620,W,1,06,2.5,4.5,M,-25.1,M,,0000*67
$GPGSA,A,3,26,28,07,08,11,19,,,,,,,3.7,2.5,2.8*32
$GPRMC,163355.000,A,3748.7919,N,12217.8620,W,0.43,78.99,050912,,,A*49
$GPVTG,78.99,T,,M,0.43,N,0.8,K,A*3D
$GPGGA,163356.000,3748.7925,N,12217.8615,W,1,06,2.5,5.6,M,-25.1,M,,0000*6F
$GPGSA,A,3,26,28,07,08,11,19,,,,,,,3.7,2.5,2.8*32
$GPGSV,3,1,11,28,71,303,20,08,67,046,29,26,48,301,25,07,36,100,34*7C
$GPGSV,3,2,11,17,36,183,23,11,20,081,28,19,12,039,25,01,11,097,17*7E
$GPGSV,3,3,11,05,08,252,,13,06,156,,24,03,052,*45
$GPRMC,163356.000,A,3748.7925,N,12217.8615,W,0.24,28.23,050912,,,A*46
$GPVTG,28.23,T,,M,0.24,N,0.4,K,A*34
$GPGGA,163357.000,3748.7928,N,12217.8614,W,1,06,2.5,6.2,M,-25.1,M,,0000*65
$GPGSA,A,3,26,28,07,08,11,19,,,,,,,3.7,2.5,2.8*32
$GPRMC,163357.000,A,3748.7928,N,12217.8614,W,0.44,31.79,050912,,,A*4A
$GPVTG,31.79,T,,M,0.44,N,0.8,K,A*39
$GPGGA,163358.000,3748.7924,N,12217.8618,W,1,06,2.5,6.4,M,-25.1,M,,0000*6C
$GPGSA,A,3,26,28,07,08,11,19,,,,,,,3.7,2.5,2.8*32
$GPRMC,163358.000,A,3748.7924,N,12217.8618,W,0.51,274.17,050912,,,A*7A
$GPVTG,274.17,T,,M,0.51,N,0.9,K,A*07
$GPGGA,163359.000,3748.7922,N,12217.8618,W,1,06,2.5,7.7,M,-25.1,M,,0000*69
$GPGSA,A,3,26,28,07,08,11,19,,,,,,,3.7,2.5,2.8*32
$GPRMC,163359.000,A,3748.7922,N,12217.8618,W,0.30,266.71,050912,,,A*79
$GPVTG,266.71,T,,M,0.30,N,0.6,K,A*0C
$GPGGA,163400.000,3748.7920,N,12217.8621,W,1,06,2.5,8.8,M,-25.1,M,,0000*6A
$GPGSA,A,3,26,28,07,08,11,19,,,,,,,3.7,2.5,2.8*32
$GPRMC,163400.000,A,3748.7920,N,12217.8621,W,0.19,268.88,050912,,,A*79
$GPVTG,268.88,T,,M,0.19,N,0.4,K,A*0D
$GPGGA,163401.000,3748.7921,N,12217.8621,W,1,06,2.5,10.0,M,-25.1,M,,0000*5B
$GPGSA,A,3,26,28,07,08,11,19,,,,,,,3.7,2.5,2.8*32
$GPGSV,3,1,12,28,71,303,22,08,67,046,27,26,48,301,26,07,36,100,33*77
$GPGSV,3,2,12,17,36,183,29,11,20,081,28,19,12,039,29,01,11,097,18*74
$GPGSV,3,3,12,05,08,252,,13,06,156,,24,03,052,,48,44,197,25*72
$GPRMC,163401.000,A,3748.7921,N,12217.8621,W,0.16,325.48,050912,,,A*72
$GPVTG,325.48,T,,M,0.16,N,0.3,K,A*01
$GPGGA,163402.000,3748.7928,N,12217.8621,W,1,06,2.5,11.2,M,-25.1,M,,0000*52
$GPGSA,A,3,26,28,07,08,11,19,,,,,,,3.7,2.5,2.8*32
$GPRMC,163402.000,A,3748.7928,N,12217.8621,W,0.34,296.12,050912,,,A*7E
$GPVTG,296.12,T,,M,0.34,N,0.6,K,A*02
$GPGGA,163403.000,3748.7937,N,12217.8620,W,1,06,2.5,11.9,M,-25.1,M,,0000*57
$GPGSA,A,3,26,28,07,08,11,19,,,,,,,3.7,2.5,2.8*32
$GPRMC,163403.000,A,3748.7937,N,12217.8620,W,0.83,18.05,050912,,,A*4E
$GPVTG,18.05,T,,M,0.83,N,1.5,K,A*3E
$GPGGA,163404.000,3748.7946,N,12217.8619,W,1,06,2.5,12.6,M,-25.1,M,,0000*50
$GPGSA,A,3,26,28,07,08,11,19,,,,,,,3.7,2.5,2.8*32
$GPRMC,163404.000,A,3748.7946,N,12217.8619,W,0.39,27.56,050912,,,A*4E
$GPVTG,27.56,T,,M,0.39,N,0.7,K,A*36
$GPGGA,163405.000,3748.7952,N,12217.8620,W,1,06,2.5,12.8,M,-25.1,M,,0000*50
$GPGSA,A,3,26,28,07,08,11,19,,,,,,,3.7,2.5,2.8*32
$GPRMC,163405.000,A,3748.7952,N,12217.8620,W,0.30,348.79,050912,,,A*7E
$GPVTG,348.79,T,,M,0.30,N,0.6,K,A*09
$GPGGA,163406.000,3748.7960,N,12217.8618,W,1,06,2.5,13.1,M,-25.1,M,,0000*51
$GPGSA,A,3,26,28,07,08,11,19,,,,,,,3.7,2.5,2.8*32
$GPGSV,3,1,12,28,71,303,22,08,67,046,28,26,48,301,31,07,36,100,33*7E
$GPGSV,3,2,12,17,36,183,30,11,20,081,26,19,12,039,24,01,11,097,17*70
$GPGSV,3,3,12,05,08,252,,13,06,156,,24,03,052,,48,44,197,29*7E
$GPVTG,15.50,T,,M,0.31,N,0.6,K,A*38
$GPGGA,163407.000,3748.7961,N,12217.8619,W,1,06,2.5,13.8,M,-25.1,M,,0000*59
$GPGSA,A,3,26,28,07,08,11,19,,,,,,,3.7,2.5,2.8*32
$GPRMC,163407.000,A,3748.7961,N,12217.8619,W,0.28,180.67,050912,,,A*76
$GPVTG,180.67,T,,M,0.28,N,0.5,K,A*0A
$GPGGA,163408.000,3748.7952,N,12217.8624,W,1,05,2.6,13.8,M,-25.1,M,,0000*58
$GPGSA,A,3,26,28,07,08,19,,,,,,,,4.0,2.6,3.0*38
$GPRMC,163408.000,A,3748.7952,N,12217.8624,W,1.72,199.90,050912,,,A*79
$GPVTG,199.90,T,,M,1.72,N,3.2,K,A*00
$GPGGA,163409.000,3748.7942,N,12217.8630,W,1,06,2.5,12.3,M,-25.1,M,,0000*57
$GPGSA,A,3,26,28,07,08,11,19,,,,,,,3.7,2.5,2.8*32
$GPRMC,163409.000,A,3748.7942,N,12217.8630,W,0.78,183.50,050912,,,A*70
$GPVTG,183.50,T,,M,0.78,N,1.4,K,A*08
$GPGGA,163410.000,3748.7936,N,12217.8632,W,1,06,2.5,11.5,M,-25.1,M,,0000*5B
$GPGSA,A,3,26,28,07,08,11,19,,,,,,,3.7,2.5,2.8*32
$GPRMC,163410.000,A,3748.7936,N,12217.8632,W,0.21,142.44,050912,,,A*7D
$GPVTG,142.44,T,,M,0.21,N,0.4,K,A*0D
$GPGGA,163411.000,3748.7923,N,12217.8636,W,1,06,2.5,10.5,M,-25.1,M,,0000*5B
$GPGSA,A,3,26,28,07,08,11,19,,,,,,,3.7,2.5,2.8*32
$GPGSV,3,1,12,28,71,304,22,08,67,047,27,26,48,300,34,07,36,100,27*76
$GPGSV,3,2,12,17,36,183,32,11,20,080,19,19,12,039,24,01,11,097,18*70
$GPGSV,3,3,12,05,08,252,,13,06,156,,24,03,051,,48,44,197,26*72
$GPRMC,163411.000,A,3748.7923,N,12217.8636,W,0.20,211.79,050912,,,A*76
$GPVTG,211.79,T,,M,0.20,N,0.4,K,A*07
$GPGGA,163412.000,3748.7909,N,12217.8637,W,1,06,2.5,10.0,M,-25.1,M,,0000*54
$GPGSA,A,3,26,28,07,08,11,19,,,,,,,3.7,2.5,2.8*32
$GPRMC,163412.000,A,3748.7909,N,12217.8637,W,1.24,180.02,050912,,,A*7E
$GPVTG,180.02,T,,M,1.24,N,2.3,K,A*00
$GPGGA,163413.000,3748.7902,N,12217.8642,W,1,06,2.5,9.1,M,-25.1,M,,0000*65
$GPGSA,A,3,26,28,07,08,11,19,,,,,,,3.7,2.5,2.8*32
$GPRMC,163413.000,A,3748.7902,N,12217.8642,W,0.36,205.80,050912,,,A*70
$GPVTG,205.80,T,,M,0.36,N,0.7,K,A*00
$GPGGA,163414.000,3748.7897,N,12217.8645,W,1,06,2.5,6.5,M,-25.1,M,,0000*63
$GPGSA,A,3,26,28,07,08,11,19,,,,,,,3.7,2.5,2.8*32
$GPRMC,163414.000,A,3748.7897,N,12217.8645,W,0.39,250.81,050912,,,A*73
$GPVTG,250.81,T,,M,0.39,N,0.7,K,A*0E
$GPGGA,163415.000,3748.7895,N,12217.8649,W,1,06,2.5,5.7,M,-25.1,M,,0000*6D
$GPGSA,A,3,26,28,07,08,11,19,,,,,,,3.7,2.5,2.8*32
$GPRMC,163415.000,A,3748.7895,N,12217.8649,W,0.41,256.97,050912,,,A*72
$GPVTG,256.97,T,,M,0.41,N,0.8,K,A*0F
$GPGGA,163416.000,3748.7892,N,12217.8650,W,1,06,2.5,4.2,M,-25.1,M,,0000*65
$GPGSA,A,3,26,28,07,08,11,19,,,,,,,3.7,2.5,2.8*32
$GPGSV,3,1,12,28,71,304,21,08,67,047,24,26,48,300,25,07,36,100,29*78
$GPGSV,3,2,12,17,36,183,38,11,20,080,24,19,12,039,28,01,11,097,23*70
$GPGSV,3,3,12,05,08,252,,13,06,156,,24,03,051,,48,44,197,28*7C
$GPRMC,163416.000,A,3748.7892,N,12217.8650,W,0.37,252.46,050912,,,A*77
$GPVTG,252.46,T,,M,0.37,N,0.7,K,A*09
$GPGGA,163417.000,3748.7888,N,12217.8649,W,1,06,2.5,2.6,M,-25.1,M,,0000*65
$GPGSA,A,3,26,28,07,08,11,19,,,,,,,3.7,2.5,2.8*32
$GPRMC,163417.000,A,3748.7888,N,12217.8649,W,0.78,215.80,050912,,,A*77
$GPVTG,215.80,T,,M,0.78,N,1.4,K,A*09
$GPGGA,163418.000,3748.7889,N,12217.8648,W,1,06,2.5,1.8,M,-25.1,M,,0000*67
$GPGSA,A,3,26,28,07,08,11,19,,,,,,,3.7,2.5,2.8*32
$GPRMC,163418.000,A,3748.7889,N,12217.8648,W,0.75,255.61,050912,,,A*7E
$GPVTG,255.61,T,,M,0.75,N,1.4,K,A*0F
$GPGGA,163419.000,3748.7884,N,12217.8649,W,1,06,2.5,3.2,M,-25.1,M,,0000*62
$GPGSA,A,3,26,28,07,08,11,19,,,,,,,3.7,2.5,2.8*32
$GPRMC,163419.000,A,3748.7884,N,12217.8649,W,0.72,201.05,050912,,,A*77
$GPVTG,201.05,T,,M,0.72,N,1.3,K,A*0C
$GPGGA,163420.000,3748.7887,N,12217.8647,W,1,06,2.5,4.6,M,-25.1,M,,0000*66
$GPGSA,A,3,26,28,07,08,11,19,,,,,,,3.7,2.5,2.8*32
$GPRMC,163420.000,A,3748.7887,N,12217.8647,W,0.22,215.44,050912,,,A*75
$GPVTG,215.44,T,,M,0.22,N,0.4,K,A*0F
$GPGGA,163421.000,3748.7891,N,12217.8643,W,1,06,2.5,5.9,M,-25.1,M,,0000*6A
$GPGSA,A,3,26,28,07,08,11,19,,,,,,,3.7,2.5,2.8*32
$GPGSV,3,1,12,28,71,304,22,08,67,047,29,26,48,300,35,07,36,100,36*79
$GPGSV,3,2,12,17,36,183,19,11,20,080,38,19,12,039,27,01,11,097,29*7B
$GPGSV,3,3,12,05,08,252,19,13,06,156,27,24,03,051,,48,44,197,28*71
$GPVTG,199.40,T,,M,0.03,N,0.1,K,A*0A
$GPGGA,163422.000,3748.7887,N,12217.8642,W,1,06,2.5,6.9,M,-25.1,M,,0000*6C
$GPGSA,A,3,26,28,07,08,11,19,,,,,,,3.7,2.5,2.8*32
$GPRMC,163422.000,A,3748.7887,N,12217.8642,W,0.98,157.26,050912,,,A*72
$GPVTG,157.26,T,,M,0.98,N,1.8,K,A*02
$GPGGA,163423.000,3748.7875,N,12217.8646,W,1,06,2.5,5.4,M,-25.1,M,,0000*6A
$GPGSA,A,3,26,28,07,08,11,19,,,,,,,3.7,2.5,2.8*32
$GPRMC,163423.000,A,3748.7875,N,12217.8646,W,0.53,156.51,050912,,,A*7C
$GPVTG,156.51,T,,M,0.53,N,1.0,K,A*0C
$GPGGA,163424.000,3748.7876,N,12217.8634,W,1,06,2.5,8.8,M,-25.1,M,,0000*6A
$GPGSA,A,3,26,28,07,08,11,19,,,,,,,3.7,2.5,2.8*32
$GPRMC,163424.000,A,3748.7876,N,12217.8634,W,1.66,148.67,050912,,,A*70
$GPVTG,148.67,T,,M,1.66,N,3.1,K,A*02
$GPGGA,163425.000,3748.7875,N,12217.8624,W,1,06,2.5,11.0,M,-25.1,M,,0000*59
$GPGSA,A,3,26,28,07,08,11,19,,,,,,,3.7,2.5,2.8*32
$GPRMC,163425.000,A,3748.7875,N,12217.8624,W,2.03,127.60,050912,,,A*7D
$GPVTG,127.60,T,,M,2.03,N,3.8,K,A*05
$GPGGA,163426.000,3748.7868,N,12217.8616,W,1,06,2.5,11.2,M,-25.1,M,,0000*55
$GPGSA,A,3,26,28,07,08,11,19,,,,,,,3.7,2.5,2.8*32
$GPGSV,3,1,11,28,71,304,20,08,67,047,25,26,48,300,24,07,36,100,29*7A
$GPGSV,3,2,11,17,36,183,29,11,20,080,28,19,12,039,30,01,11,097,20*75
$GPGSV,3,3,11,05,08,252,20,13,06,156,24,24,03,051,*42
$GPRMC,163426.000,A,3748.7868,N,12217.8616,W,2.41,124.18,050912,,,A*79
$GPVTG,124.18,T,,M,2.41,N,4.5,K,A*05
$GPGGA,163427.000,3748.7863,N,12217.8609,W,1,06,2.5,12.1,M,-25.1,M,,0000*51
$GPGSA,A,3,26,28,07,08,11,19,,,,,,,3.7,2.5,2.8*32
$GPRMC,163427.000,A,3748.7863,N,12217.8609,W,1.89,125.68,050912,,,A*7C
$GPVTG,125.68,T,,M,1.89,N,3.5,K,A*03
$GPGGA,163428.000,3748.7858,N,12217.8604,W,1,06,2.5,11.8,M,-25.1,M,,0000*51
$GPGSA,A,3,26,28,07,08,11,19,,,,,,,3.7,2.5,2.8*32
$GPRMC,163428.000,A,3748.7858,N,12217.8604,W,1.13,105.78,050912,,,A*76
$GPVTG,105.78,T,,M,1.13,N,2.1,K,A*06
$GPGGA,163429.000,3748.7852,N,12217.8603,W,1,06,2.5,11.8,M,-25.1,M,,0000*5D
$GPGSA,A,3,26,28,07,08,11,19,,,,,,,3.7,2.5,2.8*32
$GPRMC,163429.000,A,3748.7852,N,12217.8603,W,1.70,112.37,050912,,,A*72
$GPVTG,112.37,T,,M,1.70,N,3.2,K,A*0C
$GPGGA,163430.000,3748.7845,N,12217.8603,W,1,06,2.5,12.3,M,-25.1,M,,0000*5B
$GPGSA,A,3,26,28,07,08,11,19,,,,,,,3.7,2.5,2.8*32
$GPRMC,163430.000,A,3748.7845,N,12217.8603,W,1.20,130.22,050912,,,A*7D
$GPVTG,130.22,T,,M,1.20,N,2.2,K,A*0C
$GPGGA,163431.000,3748.7833,N,12217.8603,W,1,06,2.5,11.9,M,-25.1,M,,0000*52
$GPGSA,A,3,26,28,07,08,11,19,,,,,,,3.7,2.5,2.8*32
$GPGSV,3,1,12,28,71,304,31,08,67,047,27,26,48,300,36,07,36,100,21*70
$GPGSV,3,2,12,17,36,183,35,11,20,080,21,19,12,039,30,01,11,097,20*72
$GPGSV,3,3,12,05,08,252,23,13,06,156,24,24,03,051,,48,44,197,35*77
$GPRMC,163431.000,A,3748.7833,N,12217.8603,W,2.27,115.20,050912,,,A*7C
$GPVTG,115.20,T,,M,2.27,N,4.2,K,A*0B
$GPGGA,163432.000,3748.7827,N,12217.8596,W,1,06,2.5,13.1,M,-25.1,M,,0000*51
$GPGSA,A,3,26,28,07,08,11,19,,,,,,,3.7,2.5,2.8*32
$GPRMC,163432.000,A,3748.7827,N,12217.8596,W,2.90,118.36,050912,,,A*73
$GPVTG,118.36,T,,M,2.90,N,5.4,K,A*0A
$GPGGA,163433.000,3748.7822,N,12217.8586,W,1,06,2.5,13.7,M,-25.1,M,,0000*52
$GPGSA,A,3,26,28,07,08,11,19,,,,,,,3.7,2.5,2.8*32
$GPRMC,163433.000,A,3748.7822,N,12217.8586,W,3.76,123.00,050912,,,A*72
$GPVTG,123.00,T,,M,3.76,N,7.0,K,A*08
$GPGGA,163434.000,3748.7826,N,12217.8572,W,1,06,2.5,14.8,M,-25.1,M,,0000*52
$GPGSA,A,3,26,28,07,08,11,19,,,,,,,3.7,2.5,2.8*32
$GPRMC,163434.000,A,3748.7826,N,12217.8572,W,2.32,127.43,050912,,,A*78
$GPVTG,127.43,T,,M,2.32,N,4.3,K,A*0A
$GPGGA,163435.000,3748.7829,N,12217.8565,W,1,06,2.5,13.8,M,-25.1,M,,0000*5D
$GPGSA,A,3,26,28,07,08,11,19,,,,,,,3.7,2.5,2.8*32
$GPRMC,163435.000,A,3748.7829,N,12217.8565,W,0.93,90.28,050912,,,A*49
$GPVTG,90.28,T,,M,0.93,N,1.7,K,A*32
$GPGGA,163436.000,3748.7834,N,12217.8553,W,1,06,2.5,14.5,M,-25.1,M,,0000*5D
$GPGSA,A,3,26,28,07,08,11,19,,,,,,,3.7,2.5,2.8*32
$GPGSV,3,1,11,28,71,304,16,08,67,047,22,26,48,300,24,07,36,100,30*70
$GPGSV,3,2,11,17,36,183,28,11,20,080,22,19,12,039,24,01,11,097,28*73
$GPGSV,3,3,11,05,08,252,26,13,06,156,21,24,03,051,*41
$GPVTG,114.57,T,,M,1.93,N,3.6,K,A*05
$GPGGA,163437.000,3748.7834,N,12217.8549,W,1,06,2.5,13.6,M,-25.1,M,,0000*53
$GPGSA,A,3,26,28,07,08,11,19,,,,,,,3.7,2.5,2.8*32
$GPRMC,163437.000,A,3748.7834,N,12217.8549,W,1.79,129.04,050912,,,A*71
$GPVTG,129.04,T,,M,1.79,N,3.3,K,A*0C
$GPGGA,163438.000,3748.7825,N,12217.8550,W,1,04,4.2,13.1,M,-25.1,M,,0000*50
$GPGSA,A,3,26,07,08,11,,,,,,,,,5.2,4.2,3.0*3B
$GPRMC,163438.000,A,3748.7825,N,12217.8550,W,2.51,161.34,050912,,,A*70
$GPVTG,161.34,T,,M,2.51,N,4.6,K,A*08
$GPGGA,163439.000,3748.7814,N,12217.8546,W,1,05,2.5,13.5,M,-25.1,M,,0000*50
$GPGSA,A,3,26,07,08,11,19,,,,,,,,3.8,2.5,2.9*36
$GPRMC,163439.000,A,3748.7814,N,12217.8546,W,3.78,173.42,050912,,,A*7C
$GPVTG,173.42,T,,M,3.78,N,7.0,K,A*05
$GPGGA,163440.000,3748.7803,N,12217.8538,W,1,06,2.5,13.2,M,-25.1,M,,0000*55
$GPGSA,A,3,26,28,07,08,11,19,,,,,,,3.7,2.5,2.8*32
$GPRMC,163440.000,A,3748.7803,N,12217.8538,W,3.86,171.57,050912,,,A*7A
$GPVTG,171.57,T,,M,3.86,N,7.1,K,A*03
$GPGGA,163441.000,3748.7793,N,12217.8526,W,1,06,2.5,11.8,M,-25.1,M,,0000*55
$GPGSA,A,3,26,28,07,08,11,19,,,,,,,3.7,2.5,2.8*32
$GPGSV,3,1,12,28,71,304,26,08,67,047,33,26,48,300,24,07,36,100,41*76
$GPGSV,3,2,12,17,36,183,37,11,20,080,32,19,12,039,14,01,11,097,23*77
$GPGSV,3,3,12,05,08,252,25,13,06,156,29,24,03,051,,51,43,156,36*7D
$GPRMC,163441.000,A,3748.7793,N,12217.8526,W,3.47,165.87,050912,,,A*77
$GPVTG,165.87,T,,M,3.47,N,6.4,K,A*02
$GPGGA,163442.000,3748.7791,N,12217.8509,W,1,06,2.5,12.2,M,-25.1,M,,0000*50
$GPGSA,A,3,26,28,07,08,11,19,,,,,,,3.7,2.5,2.8*32
$GPRMC,163442.000,A,3748.7791,N,12217.8509,W,2.43,135.59,050912,,,A*78
$GPVTG,135.59,T,,M,2.43,N,4.5,K,A*02
$GPGGA,163443.000,3748.7786,N,12217.8497,W,1,06,2.5,12.3,M,-25.1,M,,0000*50
$GPGSA,A,3,26,28,07,08,11,19,,,,,,,3.7,2.5,2.8*32
$GPRMC,163443.000,A,3748.7786,N,12217.8497,W,2.15,129.97,050912,,,A*75
$GPVTG,129.97,T,,M,2.15,N,4.0,K,A*0B
$GPGGA,163444.000,3748.7776,N,12217.8494,W,1,06,2.5,12.0,M,-25.1,M,,0000*58
$GPGSA,A,3,26,28,07,08,11,19,,,,,,,3.7,2.5,2.8*32
$GPRMC,163444.000,A,3748.7776,N,12217.8494,W,1.75,127.05,050912,,,A*7E
$GPVTG,127.05,T,,M,1.75,N,3.2,K,A*0E
$GPGGA,163445.000,3748.7763,N,12217.8493,W,1,06,2.5,10.1,M,-25.1,M,,0000*59
$GPGSA,A,3,26,28,07,08,11,19,,,,,,,3.7,2.5,2.8*32
$GPRMC,163445.000,A,3748.7763,N,12217.8493,W,1.63,127.36,050912,,,A*7B
$GPVTG,127.36,T,,M,1.63,N,3.0,K,A*0B
$GPGGA,163446.000,3748.7759,N,12217.8486,W,1,06,2.5,9.2,M,-25.1,M,,0000*6C
$GPGSA,A,3,26,28,07,08,11,19,,,,,,,3.7,2.5,2.8*32
$GPGSV,3,1,12,28,71,304,20,08,67,047,26,26,48,300,24,07,36,100,34*76
$GPGSV,3,2,12,17,36,183,39,11,20,080,31,19,12,039,22,01,11,097,25*79
$GPGSV,3,3,12,05,08,252,23,13,06,156,25,24,03,051,,51,43,156,37*76
$GPRMC,163446.000,A,3748.7759,N,12217.8486,W,1.50,137.26,050912,,,A*75
$GPVTG,137.26,T,,M,1.50,N,2.8,K,A*02
$GPGGA,163447.000,3748.7761,N,12217.8477,W,1,06,2.5,8.5,M,-25.1,M,,0000*6E
$GPGSA,A,3,26,28,07,08,11,19,,,,,,,3.7,2.5,2.8*32
$GPRMC,163447.000,A,3748.7761,N,12217.8477,W,1.64,134.50,050912,,,A*74
$GPVTG,134.50,T,,M,1.64,N,3.0,K,A*0E
$GPGGA,163448.000,3748.7760,N,12217.8467,W,1,06,2.5,7.2,M,-25.1,M,,0000*69
$GPGSA,A,3,26,28,07,08,11,19,,,,,,,3.7,2.5,2.8*32
$GPRMC,163448.000,A,3748.7760,N,12217.8467,W,1.79,133.47,050912,,,A*76
$GPVTG,133.47,T,,M,1.79,N,3.3,K,A*00
$GPGGA,163449.000,3748.7761,N,12217.8454,W,1,06,2.5,7.2,M,-25.1,M,,0000*69
$GPGSA,A,3,26,28,07,08,11,19,,,,,,,3.7,2.5,2.8*32
$GPRMC,163449.000,A,3748.7761,N,12217.8454,W,1.89,113.33,050912,,,A*78
$GPVTG,113.33,T,,M,1.89,N,3.5,K,A*08
$GPGGA,163450.000,3748.7765,N,12217.8440,W,1,06,2.5,7.4,M,-25.1,M,,0000*66
$GPGSA,A,3,26,28,07,08,11,19,,,,,,,3.7,2.5,2.8*32
$GPRMC,163450.000,A,3748.7765,N,12217.8440,W,1.83,109.18,050912,,,A*79
$GPVTG,109.18,T,,M,1.83,N,3.4,K,A*01
$GPGGA,163451.000,3748.7772,N,12217.8422,W,1,06,2.5,7.3,M,-25.1,M,,0000*62
$GPGSA,A,3,26,28,07,08,11,19,,,,,,,3.7,2.5,2.8*32
$GPGSV,3,1,12,28,71,304,25,08,67,047,28,26,48,300,24,07,36,100,34*7D
$GPGSV,3,2,12,17,36,183,40,11,20,080,31,19,12,039,28,01,11,097,24*7C
$GPGSV,3,3,12,05,08,252,32,13,06,156,31,24,03,051,,51,43,156,35*71
$GPVTG,135.49,T,,M,2.12,N,3.9,K,A*0C
$GPGGA,163452.000,3748.7773,N,12217.8407,W,1,06,2.5,7.2,M,-25.1,M,,0000*66
$GPGSA,A,3,26,28,07,08,11,19,,,,,,,3.7,2.5,2.8*32
$GPRMC,163452.000,A,3748.7773,N,12217.8407,W,2.48,135.07,050912,,,A*7A
$GPVTG,135.07,T,,M,2.48,N,4.6,K,A*01
$GPGGA,163453.000,3748.7766,N,12217.8401,W,1,06,2.5,6.2,M,-25.1,M,,0000*64
$GPGSA,A,3,26,28,07,08,11,19,,,,,,,3.7,2.5,2.8*32
$GPRMC,163453.000,A,3748.7766,N,12217.8401,W,2.02,144.73,050912,,,A*72
$GPVTG,144.73,T,,M,2.02,N,3.7,K,A*0C
$GPGGA,163454.000,3748.7760,N,12217.8399,W,1,06,2.5,4.6,M,-25.1,M,,0000*65
$GPGSA,A,3,26,28,07,08,11,19,,,,,,,3.7,2.5,2.8*32
$GPRMC,163454.000,A,3748.7760,N,12217.8399,W,1.69,133.16,050912,,,A*78
$GPVTG,133.16,T,,M,1.69,N,3.1,K,A*07
$GPGGA,163455.000,3748.7755,N,12217.8395,W,1,06,2.5,2.6,M,-25.1,M,,0000*68
$GPGSA,A,3,26,28,07,08,11,19,,,,,,,3.7,2.5,2.8*32
$GPRMC,163455.000,A,3748.7755,N,12217.8395,W,2.88,136.96,050912,,,A*72
$GPVTG,136.96,T,,M,2.88,N,5.3,K,A*02
$GPGGA,163456.000,3748.7752,N,12217.8386,W,1,06,2.5,2.9,M,-25.1,M,,0000*61
$GPGSA,A,3,26,28,07,08,11,19,,,,,,,3.7,2.5,2.8*32
$GPGSV,3,1,12,28,71,304,25,08,67,047,28,26,48,300,25,07,36,100,34*7C
$GPGSV,3,2,12,17,36,183,39,11,20,080,25,19,12,039,23,01,11,097,20*78
$GPGSV,3,3,12,05,08,252,32,13,06,156,29,24,03,051,,51,43,156,37*7A
$GPRMC,163456.000,A,3748.7752,N,12217.8386,W,2.93,145.69,050912,,,A*7A
$GPVTG,145.69,T,,M,2.93,N,5.4,K,A*0B
$GPGGA,163457.000,3748.7748,N,12217.8373,W,1,06,2.5,4.0,M,-25.1,M,,0000*6E
$GPGSA,A,3,26,28,07,08,11,19,,,,,,,3.7,2.5,2.8*32
$GPRMC,163457.000,A,3748.7748,N,12217.8373,W,2.59,136.11,050912,,,A*77
$GPVTG,136.11,T,,M,2.59,N,4.8,K,A*0B
$GPGGA,163458.000,3748.7741,N,12217.8368,W,1,06,2.5,3.9,M,-25.1,M,,0000*6C
$GPGSA,A,3,26,28,07,08,11,19,,,,,,,3.7,2.5,2.8*32
$GPRMC,163458.000,A,3748.7741,N,12217.8368,W,1.81,145.86,050912,,,A*77
$GPVTG,145.86,T,,M,1.81,N,3.3,K,A*0B
$GPGGA,163459.000,3748.7738,N,12217.8355,W,1,06,2.5,6.2,M,-25.1,M,,0000*63
$GPGSA,A,3,26,28,07,08,11,19,,,,,,,3.7,2.5,2.8*32
$GPRMC,163459.000,A,3748.7738,N,12217.8355,W,1.59,136.44,050912,,,A*79
$GPVTG,136.44,T,,M,1.59,N,2.9,K,A*0F
$GPGGA,163500.000,3748.7738,N,12217.8345,W,1,06,2.5,8.8,M,-25.1,M,,0000*6B
$GPGSA,A,3,26,28,07,08,11,19,,,,,,,3.7,2.5,2.8*32
$GPRMC,163500.000,A,3748.7738,N,12217.8345,W,1.16,136.23,050912,,,A*7F
$GPVTG,136.23,T,,M,1.16,N,2.1,K,A*0D
$GPGGA,163501.000,3748.7733,N,12217.8329,W,1,06,2.5,11.6,M,-25.1,M,,0000*5D
$GPGSA,A,3,26,28,07,08,11,19,,,,,,,3.7,2.5,2.8*32
$GPGSV,3,1,12,28,71,304,24,08,67,047,28,26,48,300,23,07,36,100,35*7A
$GPGSV,3,2,12,17,36,183,38,11,20,080,25,19,12,039,22,01,11,097,27*7F
$GPGSV,3,3,12,05,08,252,24,13,06,156,31,24,03,051,,51,43,156,37*74
$GPRMC,163501.000,A,3748.7733,N,12217.8329,W,2.00,143.55,050912,,,A*78
$GPVTG,143.55,T,,M,2.00,N,3.7,K,A*0D
$GPGGA,163502.000,3748.7731,N,12217.8313,W,1,06,2.5,14.1,M,-25.1,M,,0000*57
$GPGSA,A,3,26,28,07,08,11,19,,,,,,,3.7,2.5,2.8*32
$GPRMC,163502.000,A,3748.7731,N,12217.8313,W,2.50,114.44,050912,,,A*77
$GPVTG,114.44,T,,M,2.50,N,4.6,K,A*0C
$GPGGA,163503.000,3748.7729,N,12217.8295,W,1,06,2.5,15.3,M,-25.1,M,,0000*53
$GPGSA,A,3,26,28,07,08,11,19,,,,,,,3.7,2.5,2.8*32
$GPRMC,163503.000,A,3748.7729,N,12217.8295,W,2.74,106.83,050912,,,A*7E
$GPVTG,106.83,T,,M,2.74,N,5.1,K,A*04
$GPGGA,163504.000,3748.7718,N,12217.8288,W,1,06,2.5,15.9,M,-25.1,M,,0000*50
$GPGSA,A,3,26,28,07,08,11,19,,,,,,,3.7,2.5,2.8*32
$GPRMC,163504.000,A,3748.7718,N,12217.8288,W,3.02,137.11,050912,,,A*7E
$GPVTG,137.11,T,,M,3.02,N,5.6,K,A*0A
$GPGGA,163505.000,3748.7713,N,12217.8272,W,1,06,2.5,16.9,M,-25.1,M,,0000*5C
$GPGSA,A,3,26,28,07,08,11,19,,,,,,,3.7,2.5,2.8*32
$GPRMC,163505.000,A,3748.7713,N,12217.8272,W,2.57,140.16,050912,,,A*77
$GPVTG,140.16,T,,M,2.57,N,4.8,K,A*03
$GPGGA,163506.000,3748.7712,N,12217.8263,W,1,06,2.5,17.7,M,-25.1,M,,0000*51
$GPGSA,A,3,26,28,07,08,11,19,,,,,,,3.7,2.5,2.8*32
$GPGSV,3,1,12,28,71,304,23,08,67,047,26,26,48,300,23,07,36,100,35*73
$GPGSV,3,2,12,17,36,183,33,11,20,080,26,19,12,039,22,01,11,097,21*71
$GPRMC,163506.000,A,3748.7712,N,12217.8263,W,2.03,147.82,050912,,,A*7E
$GPVTG,147.82,T,,M,2.03,N,3.8,K,A*0F
$GPGGA,163507.000,3748.7709,N,12217.8255,W,1,06,2.5,19.4,M,-25.1,M,,0000*52
$GPGSA,A,3,26,28,07,08,11,19,,,,,,,3.7,2.5,2.8*32
$GPRMC,163507.000,A,3748.7709,N,12217.8255,W,1.98,125.07,050912,,,A*78
$GPVTG,125.07,T,,M,1.98,N,3.7,K,A*08
$GPGGA,163508.000,3748.7707,N,12217.8247,W,1,06,2.5,19.0,M,-25.1,M,,0000*54
$GPGSA,A,3,26,28,07,08,11,19,,,,,,,3.7,2.5,2.8*32
$GPRMC,163508.000,A,3748.7707,N,12217.8247,W,2.73,99.27,050912,,,A*48
$GPVTG,99.27,T,,M,2.73,N,5.1,K,A*3A
$GPGGA,163509.000,3748.7698,N,12217.8239,W,1,06,2.5,16.9,M,-25.1,M,,0000*5D
$GPGSA,A,3,26,28,07,08,11,19,,,,,,,3.7,2.5,2.8*32
$GPRMC,163509.000,A,3748.7698,N,12217.8239,W,3.08,96.83,050912,,,A*4B
$GPVTG,96.83,T,,M,3.08,N,5.7,K,A*30
$GPGGA,163510.000,3748.7693,N,12217.8231,W,1,06,2.5,16.1,M,-25.1,M,,0000*5E
$GPGSA,A,3,26,28,07,08,11,19,,,,,,,3.7,2.5,2.8*32
$GPRMC,163510.000,A,3748.7693,N,12217.8231,W,2.61,106.27,050912,,,A*78
$GPVTG,106.27,T,,M,2.61,N,4.8,K,A*06
$GPGGA,163511.000,3748.7688,N,12217.8222,W,1,06,2.5,16.8,M,-25.1,M,,0000*5E
$GPGSA,A,3,26,28,07,08,11,19,,,,,,,3.7,2.5,2.8*32
$GPGSV,3,1,12,28,71,304,24,08,67,047,27,26,48,300,23,07,36,100,35*75
$GPGSV,3,2,12,17,36,183,40,11,20,080,24,19,12,039,22,01,11,097,23*75
$GPGSV,3,3,12,05,08,252,23,13,06,156,33,24,03,051,,51,43,156,36*70
$GPRMC,163511.000,A,3748.7688,N,12217.8222,W,2.33,127.56,050912,,,A*73
$GPVTG,127.56,T,,M,2.33,N,4.3,K,A*0F
$GPGGA,163512.000,3748.7680,N,12217.8217,W,1,06,2.5,16.3,M,-25.1,M,,0000*58
$GPGSA,A,3,26,28,07,08,11,19,,,,,,,3.7,2.5,2.8*32
$GPRMC,163512.000,A,3748.7680,N,12217.8217,W,2.54,117.76,050912,,,A*7E
$GPVTG,117.76,T,,M,2.54,N,4.7,K,A*0B
$GPGGA,163513.000,3748.7672,N,12217.8211,W,1,06,2.5,16.5,M,-25.1,M,,0000*54
$GPGSA,A,3,26,28,07,08,11,19,,,,,,,3.7,2.5,2.8*32
$GPRMC,163513.000,A,3748.7672,N,12217.8211,W,2.40,106.26,050912,,,A*74
$GPVTG,106.26,T,,M,2.40,N,4.4,K,A*08
$GPGGA,163514.000,3748.7668,N,12217.8206,W,1,06,2.5,17.5,M,-25.1,M,,0000*5F
$GPGSA,A,3,26,28,07,08,11,19,,,,,,,3.7,2.5,2.8*32
$GPRMC,163514.000,A,3748.7668,N,12217.8206,W,2.44,117.85,050912,,,A*73
$GPVTG,117.85,T,,M,2.44,N,4.5,K,A*04
$GPGGA,163515.000,3748.7651,N,12217.8205,W,1,06,2.5,15.4,M,-25.1,M,,0000*54
$GPGSA,A,3,26,28,07,08,11,19,,,,,,,3.7,2.5,2.8*32
$GPRMC,163515.000,A,3748.7651,N,12217.8205,W,3.33,135.22,050912,,,A*77
$GPVTG,135.22,T,,M,3.33,N,6.2,K,A*0D
$GPGGA,163516.000,3748.7638,N,12217.8199,W,1,06,2.5,14.2,M,-25.1,M,,0000*59
$GPGSA,A,3,26,28,07,08,11,19,,,,,,,3.7,2.5,2.8*32
$GPGSV,3,1,12,28,71,304,24,08,67,047,27,26,48,300,24,07,36,100,29*7F
$GPGSV,3,2,12,17,36,183,40,11,20,080,25,19,12,039,22,01,11,097,20*77
$GPGSV,3,3,12,05,08,252,22,13,06,156,26,24,03,051,,51,43,156,37*74
$GPRMC,163516.000,A,3748.7638,N,12217.8199,W,3.46,137.18,050912,,,A*74
$GPVTG,137.18,T,,M,3.46,N,6.4,K,A*02
$GPGGA,163517.000,3748.7632,N,12217.8184,W,1,06,2.5,15.8,M,-25.1,M,,0000*55
$GPGSA,A,3,26,28,07,08,11,19,,,,,,,3.7,2.5,2.8*32
$GPRMC,163517.000,A,3748.7632,N,12217.8184,W,2.64,127.12,050912,,,A*79
$GPVTG,127.12,T,,M,2.64,N,4.9,K,A*07
$GPGGA,163518.000,3748.7626,N,12217.8175,W,1,06,2.5,17.7,M,-25.1,M,,0000*5C
$GPGSA,A,3,26,28,07,08,11,19,,,,,,,3.7,2.5,2.8*32
$GPRMC,163518.000,A,3748.7626,N,12217.8175,W,2.48,114.41,050912,,,A*75
$GPVTG,114.41,T,,M,2.48,N,4.6,K,A*00
$GPGGA,163519.000,3748.7625,N,12217.8153,W,1,06,2.5,20.6,M,-25.1,M,,0000*5F
$GPGSA,A,3,26,28,07,08,11,19,,,,,,,3.7,2.5,2.8*32
$GPRMC,163519.000,A,3748.7625,N,12217.8153,W,3.04,94.23,050912,,,A*47
$GPVTG,94.23,T,,M,3.04,N,5.6,K,A*35
$GPGGA,163520.000,3748.7624,N,12217.8130,W,1,05,2.5,22.9,M,-25.1,M,,0000*5F
$GPGSA,A,3,26,07,08,11,19,,,,,,,,3.8,2.5,2.9*36
$GPRMC,163520.000,A,3748.7624,N,12217.8130,W,3.85,101.04,050912,,,A*78
$GPVTG,101.04,T,,M,3.85,N,7.1,K,A*01
$GPGGA,163521.000,3748.7618,N,12217.8107,W,1,05,2.5,24.8,M,-25.1,M,,0000*52
$GPGSA,A,3,26,07,08,11,19,,,,,,,,3.8,2.5,2.9*36
$GPGSV,3,1,12,28,71,305,,08,67,048,27,26,48,300,23,17,36,183,40*75
$GPGSV,3,2,12,07,36,101,37,11,20,080,25,19,11,038,23,01,11,097,23*7C
$GPGSV,3,3,12,05,08,251,23,13,05,156,25,24,03,051,,51,43,156,37*76
$GPRMC,163521.000,A,3748.7618,N,12217.8107,W,4.10,105.88,050912,,,A*79
$GPVTG,105.88,T,,M,4.10,N,7.6,K,A*0D
$GPGGA,163522.000,3748.7611,N,12217.8091,W,1,06,2.5,25.9,M,-25.1,M,,0000*55
$GPGSA,A,3,26,28,07,08,11,19,,,,,,,3.7,2.5,2.8*32
$GPRMC,163522.000,A,3748.7611,N,12217.8091,W,3.51,102.20,050912,,,A*7A
$GPVTG,102.20,T,,M,3.51,N,6.5,K,A*08
$GPGGA,163523.000,3748.7613,N,12217.8075,W,1,06,2.5,28.6,M,-25.1,M,,0000*5E
$GPGSA,A,3,26,28,07,08,11,19,,,,,,,3.7,2.5,2.8*32
$GPRMC,163523.000,A,3748.7613,N,12217.8075,W,3.39,90.12,050912,,,A*46
$GPVTG,90.12,T,,M,3.39,N,6.3,K,A*3B
$GPGGA,163524.000,3748.7607,N,12217.8070,W,1,06,2.5,30.1,M,-25.1,M,,0000*57
$GPGSA,A,3,26,28,07,08,11,19,,,,,,,3.7,2.5,2.8*32
$GPRMC,163524.000,A,3748.7607,N,12217.8070,W,3.40,85.93,050912,,,A*42
$GPVTG,85.93,T,,M,3.40,N,6.3,K,A*38
$GPGGA,163525.000,3748.7602,N,12217.8060,W,1,06,2.5,29.9,M,-25.1,M,,0000*52
$GPGSA,A,3,26,28,07,08,11,19,,,,,,,3.7,2.5,2.8*32
$GPRMC,163525.000,A,3748.7602,N,12217.8060,W,3.48,95.85,050912,,,A*49
$GPVTG,95.85,T,,M,3.48,N,6.4,K,A*31
$GPGGA,163526.000,3748.7598,N,12217.8051,W,1,06,2.5,30.1,M,-25.1,M,,0000*53
$GPGSA,A,3,26,28,07,08,11,19,,,,,,,3.7,2.5,2.8*32
$GPGSV,3,1,12,28,71,305,23,08,67,048,27,26,48,300,22,17,36,183,40*75
$GPGSV,3,2,12,07,36,101,36,11,20,080,27,19,11,038,34,01,11,097,24*7E
$GPGSV,3,3,12,05,08,251,23,13,05,156,29,24,03,051,,51,43,156,37*7A
$GPRMC,163526.000,A,3748.7598,N,12217.8051,W,2.84,109.56,050912,,,A*73
$GPGGA,163527.000,3748.7593,N,12217.8043,W,1,06,2.5,31.0,M,-25.1,M,,0000*5A
$GPGSA,A,3,26,28,07,08,11,19,,,,,,,3.7,2.5,2.8*32
$GPRMC,163527.000,A,3748.7593,N,12217.8043,W,2.47,106.67,050912,,,A*78
$GPVTG,106.67,T,,M,2.47,N,4.6,K,A*08
$GPGGA,163528.000,3748.7592,N,12217.8031,W,1,06,2.5,32.5,M,-25.1,M,,0000*57
$GPGSA,A,3,26,28,07,08,11,19,,,,,,,3.7,2.5,2.8*32
$GPRMC,163528.000,A,3748.7592,N,12217.8031,W,2.18,124.25,050912,,,A*7F
$GPVTG,124.25,T,,M,2.18,N,4.0,K,A*02
$GPGGA,163529.000,3748.7588,N,12217.8020,W,1,06,2.5,34.0,M,-25.1,M,,0000*5E
$GPGSA,A,3,26,28,07,08,11,19,,,,,,,3.7,2.5,2.8*32
$GPRMC,163529.000,A,3748.7588,N,12217.8020,W,2.53,108.45,050912,,,A*72
$GPVTG,108.45,T,,M,2.53,N,4.7,K,A*02
$GPGGA,163530.000,3748.7588,N,12217.8003,W,1,06,2.5,38.7,M,-25.1,M,,0000*5C
$GPGSA,A,3,26,28,07,08,11,19,,,,,,,3.7,2.5,2.8*32
$GPRMC,163530.000,A,3748.7588,N,12217.8003,W,3.54,112.40,050912,,,A*73
$GPVTG,112.40,T,,M,3.54,N,6.5,K,A*0A
$GPGGA,163531.000,3748.7585,N,12217.7988,W,1,06,2.5,41.8,M,-25.1,M,,0000*54
$GPGSA,A,3,26,28,07,08,11,19,,,,,,,3.7,2.5,2.8*32
$GPGSV,3,1,12,28,71,305,23,08,67,048,27,26,48,300,22,17,36,183,41*74
$GPGSV,3,2,12,07,36,101,36,11,20,080,23,19,11,038,21,01,11,097,33*78
$GPGSV,3,3,12,05,08,251,29,13,05,156,38,24,03,051,,51,43,156,38*7F
$GPRMC,163531.000,A,3748.7585,N,12217.7988,W,3.30,115.35,050912,,,A*7D
$GPVTG,115.35,T,,M,3.30,N,6.1,K,A*09
$GPGGA,163532.000,3748.7583,N,12217.7968,W,1,06,2.5,44.5,M,-25.1,M,,0000*57
$GPGSA,A,3,26,28,07,08,11,19,,,,,,,3.7,2.5,2.8*32
$GPRMC,163532.000,A,3748.7583,N,12217.7968,W,3.94,100.07,050912,,,A*7D
$GPVTG,100.07,T,,M,3.94,N,7.3,K,A*01
$GPGGA,163533.000,3748.7578,N,12217.7962,W,1,06,2.5,43.9,M,-25.1,M,,0000*53
$GPGSA,A,3,26,28,07,08,11,19,,,,,,,3.7,2.5,2.8*32
$GPRMC,163533.000,A,3748.7578,N,12217.7962,W,3.41,92.55,050912,,,A*47
$GPVTG,92.55,T,,M,3.41,N,6.3,K,A*35
$GPGGA,163534.000,3748.7586,N,12217.7943,W,1,07,1.3,44.3,M,-25.1,M,,0000*5F
$GPGSA,A,3,26,28,07,08,11,19,17,,,,,,2.3,1.3,2.0*3C
$GPRMC,163534.000,A,3748.7586,N,12217.7943,W,3.72,117.63,050912,,,A*7B
$GPVTG,117.63,T,,M,3.72,N,6.9,K,A*06
$GPGGA,163535.000,3748.7589,N,12217.7925,W,1,07,1.3,45.7,M,-25.1,M,,0000*54
$GPGSA,A,3,26,28,07,08,11,19,17,,,,,,2.3,1.3,2.0*3C
$GPRMC,163535.000,A,3748.7589,N,12217.7925,W,3.38,115.57,050912,,,A*7E
$GPVTG,115.57,T,,M,3.38,N,6.3,K,A*07
$GPGGA,163536.000,3748.7588,N,12217.7912,W,1,07,1.3,46.3,M,-25.1,M,,0000*55
$GPGSA,A,3,26,28,07,08,11,19,17,,,,,,2.3,1.3,2.0*3C
$GPGSV,3,1,12,28,71,306,23,08,67,049,27,26,48,300,22,17,36,183,40*77
$GPGSV,3,2,12,07,36,101,36,11,20,080,32,01,11,097,27,19,11,038,22*7E
$GPGSV,3,3,12,05,08,251,30,13,05,156,34,24,03,051,,51,43,156,36*75
$GPRMC,163536.000,A,3748.7588,N,12217.7912,W,3.33,119.70,050912,,,A*7A
$GPVTG,119.70,T,,M,3.33,N,6.2,K,A*04
$GPGGA,163537.000,3748.7586,N,12217.7899,W,1,07,1.3,46.3,M,-25.1,M,,0000*58
$GPGSA,A,3,26,28,07,08,11,19,17,,,,,,2.3,1.3,2.0*3C
$GPRMC,163537.000,A,3748.7586,N,12217.7899,W,3.23,121.94,050912,,,A*77
$GPVTG,121.94,T,,M,3.23,N,6.0,K,A*06
$GPGGA,163538.000,3748.7585,N,12217.7889,W,1,07,1.3,45.7,M,-25.1,M,,0000*52
$GPGSA,A,3,26,28,07,08,11,19,17,,,,,,2.3,1.3,2.0*3C
$GPRMC,163538.000,A,3748.7585,N,12217.7889,W,3.40,125.11,050912,,,A*76
$GPVTG,125.11,T,,M,3.40,N,6.3,K,A*09
$GPGGA,163539.000,3748.7583,N,12217.7878,W,1,07,1.3,45.7,M,-25.1,M,,0000*5B
$GPGSA,A,3,26,28,07,08,11,19,17,,,,,,2.3,1.3,2.0*3C
$GPRMC,163539.000,A,3748.7583,N,12217.7878,W,3.13,127.76,050912,,,A*7A
$GPVTG,127.76,T,,M,3.13,N,5.8,K,A*04
$GPGGA,163540.000,3748.7576,N,12217.7868,W,1,07,1.3,45.7,M,-25.1,M,,0000*5E
$GPGSA,A,3,26,28,07,08,11,19,17,,,,,,2.3,1.3,2.0*3C
$GPRMC,163540.000,A,3748.7576,N,12217.7868,W,3.06,121.82,050912,,,A*76
$GPVTG,121.82,T,,M,3.06,N,5.7,K,A*02
$GPGGA,163541.000,3748.7572,N,12217.7860,W,1,07,1.3,44.2,M,-25.1,M,,0000*57
$GPGSA,A,3,26,28,07,08,11,19,17,,,,,,2.3,1.3,2.0*3C
$GPGSV,3,1,12,28,71,306,23,08,67,049,26,26,48,299,22,17,36,183,40*77
$GPGSV,3,2,12,07,36,101,35,11,20,080,22,01,11,097,24,19,11,038,21*7C
$GPGSV,3,3,12,05,08,251,31,13,05,156,33,24,03,051,,51,43,156,36*73
$GPVTG,112.26,T,,M,3.06,N,5.7,K,A*0C
$GPGGA,163542.000,3748.7571,N,12217.7853,W,1,07,1.3,43.1,M,-25.1,M,,0000*53
$GPGSA,A,3,26,28,07,08,11,19,17,,,,,,2.3,1.3,2.0*3C
$GPRMC,163542.000,A,3748.7571,N,12217.7853,W,2.51,103.09,050912,,,A*7B
$GPVTG,103.09,T,,M,2.51,N,4.6,K,A*02
$GPGGA,163543.000,3748.7573,N,12217.7852,W,2,07,1.3,40.9,M,-25.1,M,,0000*59
$GPGSA,A,3,26,28,07,08,11,19,17,,,,,,2.3,1.3,2.0*3C
$GPRMC,163543.000,A,3748.7573,N,12217.7852,W,2.76,112.99,050912,,,D*70
$GPVTG,112.99,T,,M,2.76,N,5.1,K,D*0D
$GPGGA,163544.000,3748.7567,N,12217.7836,W,2,07,1.3,41.0,M,-25.1,M,,0000*51
$GPGSA,A,3,26,28,07,08,11,19,17,,,,,,2.3,1.3,2.0*3C
$GPRMC,163544.000,A,3748.7567,N,12217.7836,W,2.94,114.28,050912,,,D*70
$GPVTG,114.28,T,,M,2.94,N,5.4,K,D*08
$GPGGA,163545.000,3748.7565,N,12217.7829,W,2,07,1.3,39.7,M,-25.1,M,,0000*54
$GPGSA,A,3,26,28,07,08,11,19,17,,,,,,2.3,1.3,2.0*3C
$GPRMC,163545.000,A,3748.7565,N,12217.7829,W,2.65,121.47,050912,,,D*7C
$GPVTG,121.47,T,,M,2.65,N,4.9,K,D*05
$GPGGA,163546.000,3748.7564,N,12217.7824,W,2,07,1.3,37.9,M,-25.1,M,2.8,0000*7F
$GPGSA,A,3,26,28,07,08,11,19,17,,,,,,2.3,1.3,2.0*3C
$GPGSV,3,1,12,28,71,306,23,08,67,049,27,26,48,299,21,17,36,183,40*75
$GPGSV,3,2,12,07,36,101,29,11,20,080,31,01,11,097,25,19,11,038,22*71
$GPGSV,3,3,12,05,08,251,21,13,05,156,34,24,03,051,,51,43,156,38*7B
$GPRMC,163546.000,A,3748.7564,N,12217.7824,W,2.27,119.70,050912,,,D*7A
$GPVTG,119.70,T,,M,2.27,N,4.2,K,D*07
$GPGGA,163547.000,3748.7562,N,12217.7816,W,2,07,1.3,38.2,M,-25.1,M,,0000*59
$GPGSA,A,3,26,28,07,08,11,19,17,,,,,,2.3,1.3,2.0*3C
$GPRMC,163547.000,A,3748.7562,N,12217.7816,W,1.89,116.00,050912,,,D*73
$GPVTG,116.00,T,,M,1.89,N,3.5,K,D*08
$GPGGA,163548.000,3748.7560,N,12217.7812,W,2,07,1.3,36.6,M,-25.1,M,,0000*5A
$GPGSA,A,3,26,28,07,08,11,19,17,,,,,,2.3,1.3,2.0*3C
$GPRMC,163548.000,A,3748.7560,N,12217.7812,W,2.01,120.72,050912,,,D*79
$GPVTG,120.72,T,,M,2.01,N,3.7,K,D*09
$GPGGA,163549.000,3748.7557,N,12217.7805,W,2,07,1.3,35.9,M,-25.1,M,,0000*55
$GPGSA,A,3,26,28,07,08,11,19,17,,,,,,2.3,1.3,2.0*3C
$GPRMC,163549.000,A,3748.7557,N,12217.7805,W,2.21,115.95,050912,,,D*77
$GPVTG,115.95,T,,M,2.21,N,4.1,K,D*05
$GPGGA,163550.000,3748.7558,N,12217.7801,W,2,07,1.3,34.2,M,-25.1,M,,0000*5C
$GPGSA,A,3,26,28,07,08,11,19,17,,,,,,2.3,1.3,2.0*3C
$GPRMC,163550.000,A,3748.7558,N,12217.7801,W,2.78,111.35,050912,,,D*76
$GPVTG,111.35,T,,M,2.78,N,5.1,K,D*06
$GPGGA,163551.000,3748.7561,N,12217.7795,W,2,07,1.3,33.1,M,-25.1,M,,0000*51
$GPGSA,A,3,26,28,07,08,11,19,17,,,,,,2.3,1.3,2.0*3C
$GPGSV,3,1,12,28,71,306,23,08,67,049,26,26,49,299,22,17,37,183,39*79
$GPGSV,3,2,12,07,36,101,22,11,20,080,23,01,12,097,20,19,11,038,27*7A
$GPGSV,3,3,12,05,08,251,23,13,05,156,27,24,03,051,,51,43,156,35*76
$GPRMC,163551.000,A,3748.7561,N,12217.7795,W,2.82,106.53,050912,,,D*7C
$GPVTG,106.53,T,,M,2.82,N,5.2,K,D*06
$GPGGA,163552.000,3748.7561,N,12217.7796,W,2,07,1.3,31.0,M,-25.1,M,2.8,0000*76
$GPGSA,A,3,26,28,07,08,11,19,17,,,,,,2.3,1.3,2.0*3C
$GPRMC,163552.000,A,3748.7561,N,12217.7796,W,2.66,121.29,050912,,,D*7E
$GPVTG,121.29,T,,M,2.66,N,4.9,K,D*0E
$GPGGA,163553.000,3748.7559,N,12217.7799,W,2,07,1.3,29.5,M,-25.1,M,3.8,0000*7E
$GPGSA,A,3,26,28,07,08,11,19,17,,,,,,2.3,1.3,2.0*3C
$GPRMC,163553.000,A,3748.7559,N,12217.7799,W,2.26,129.32,050912,,,D*7D
$GPVTG,129.32,T,,M,2.26,N,4.2,K,D*03
$GPGGA,163554.000,3748.7558,N,12217.7805,W,2,07,1.3,27.7,M,-25.1,M,4.8,0000*79
$GPGSA,A,3,26,28,07,08,11,19,17,,,,,,2.3,1.3,2.0*3C
$GPRMC,163554.000,A,3748.7558,N,12217.7805,W,2.07,127.05,050912,,,D*78
$GPVTG,127.05,T,,M,2.07,N,3.8,K,D*07
$GPGGA,163555.000,3748.7551,N,12217.7803,W,2,07,1.3,28.9,M,-25.1,M,5.8,0000*77
$GPGSA,A,3,26,28,07,08,11,19,17,,,,,,2.3,1.3,2.0*3C
$GPRMC,163555.000,A,3748.7551,N,12217.7803,W,3.06,148.08,050912,,,D*72
$GPVTG,148.08,T,,M,3.06,N,5.7,K,D*0A
$GPGGA,163556.000,3748.7544,N,12217.7802,W,2,07,1.3,28.4,M,-25.1,M,,0000*5F
$GPGSA,A,3,26,28,07,08,11,19,17,,,,,,2.3,1.3,2.0*3C
$GPGSV,3,1,12,28,71,306,24,08,67,049,18,26,49,299,23,17,37,183,35*7E
$GPGSV,3,2,12,07,36,101,23,11,20,080,19,01,12,097,20,19,11,038,15*73
$GPGSV,3,3,12,05,08,251,30,13,05,156,31,24,03,051,,51,43,156,38*7E
$GPRMC,163556.000,A,3748.7544,N,12217.7802,W,2.27,135.65,050912,,,D*77
$GPVTG,135.65,T,,M,2.27,N,4.2,K,D*0D
$GPGGA,163557.000,3748.7539,N,12217.7797,W,2,07,1.3,29.7,M,-25.1,M,,0000*55
$GPGSA,A,3,26,28,07,08,11,19,17,,,,,,2.3,1.3,2.0*3C
$GPRMC,163557.000,A,3748.7539,N,12217.7797,W,2.35,117.70,050912,,,D*78
$GPVTG,117.70,T,,M,2.35,N,4.4,K,D*0C
$GPGGA,163558.000,3748.7532,N,12217.7792,W,2,07,1.3,30.0,M,-25.1,M,,0000*5B
$GPGSA,A,3,26,28,07,08,11,19,17,,,,,,2.3,1.3,2.0*3C
$GPRMC,163558.000,A,3748.7532,N,12217.7792,W,1.57,124.29,050912,,,D*72
$GPVTG,124.29,T,,M,1.57,N,2.9,K,D*0C
$GPGGA,163559.000,3748.7527,N,12217.7783,W,2,07,1.3,29.3,M,-25.1,M,2.8,0000*71
$GPGSA,A,3,26,28,07,08,11,19,17,,,,,,2.3,1.3,2.0*3C
$GPRMC,163559.000,A,3748.7527,N,12217.7783,W,2.13,120.24,050912,,,D*7D
$GPVTG,120.24,T,,M,2.13,N,3.9,K,D*07
$GPGGA,163600.000,3748.7524,N,12217.7771,W,2,07,1.3,29.3,M,-25.1,M,3.8,0000*71
$GPGSA,A,3,26,28,07,08,11,19,17,,,,,,2.3,1.3,2.0*3C
$GPRMC,163600.000,A,3748.7524,N,12217.7771,W,2.48,109.04,050912,,,D*7B
$GPVTG,109.04,T,,M,2.48,N,4.6,K,D*08
$GPGGA,163601.000,3748.7520,N,12217.7759,W,2,07,1.3,29.3,M,-25.1,M,,0000*5B
$GPGSA,A,3,26,28,07,08,11,19,17,,,,,,2.3,1.3,2.0*3C
$GPGSV,3,1,12,28,71,306,24,08,67,049,19,26,49,299,22,17,37,183,37*7C
$GPGSV,3,2,12,07,36,101,28,11,20,080,19,01,12,097,21,19,11,038,16*7A
$GPGSV,3,3,12,05,08,251,30,13,05,156,31,24,03,051,,51,43,156,35*73
$GPRMC,163601.000,A,3748.7520,N,12217.7759,W,2.16,105.40,050912,,,D*73
$GPGGA,163602.000,3748.7518,N,12217.7749,W,2,06,1.5,29.5,M,-25.1,M,,0000*53
$GPGSA,A,3,26,28,07,08,11,17,,,,,,,3.1,1.5,2.8*39
$GPRMC,163602.000,A,3748.7518,N,12217.7749,W,2.20,96.06,050912,,,D*46
$GPVTG,96.06,T,,M,2.20,N,4.1,K,D*34
$GPGGA,163603.000,3748.7513,N,12217.7741,W,2,07,1.3,31.3,M,-25.1,M,,0000*59
$GPGSA,A,3,26,28,07,08,11,19,17,,,,,,2.3,1.3,2.0*3C
$GPRMC,163603.000,A,3748.7513,N,12217.7741,W,2.10,100.19,050912,,,D*77
$GPVTG,100.19,T,,M,2.10,N,3.9,K,D*08
$GPGGA,163604.000,3748.7510,N,12217.7735,W,2,07,1.3,32.1,M,-25.1,M,2.8,0000*7B
$GPGSA,A,3,26,28,07,08,11,19,17,,,,,,2.3,1.3,2.0*3C
$GPRMC,163604.000,A,3748.7510,N,12217.7735,W,1.64,96.84,050912,,,D*4A
$GPVTG,96.84,T,,M,1.64,N,3.0,K,D*3B
$GPGGA,163605.000,3748.7506,N,12217.7724,W,2,06,1.5,32.6,M,-25.1,M,1.8,0000*7E
$GPGSA,A,3,26,28,07,08,11,17,,,,,,,3.1,1.5,2.8*39
$GPRMC,163605.000,A,3748.7506,N,12217.7724,W,1.78,97.48,050912,,,D*40
$GPVTG,97.48,T,,M,1.78,N,3.3,K,D*34
$GPGGA,163606.000,3748.7504,N,12217.7713,W,2,06,1.5,34.0,M,-25.1,M,2.8,0000*78
$GPGSA,A,3,26,28,07,08,11,17,,,,,,,3.1,1.5,2.8*39
$GPGSV,3,1,12,28,71,306,24,08,67,049,20,26,49,299,22,17,37,183,38*79
$GPGSV,3,2,12,07,36,101,21,11,20,080,20,01,12,097,21,19,11,038,18*77
$GPGSV,3,3,12,05,08,251,30,13,05,156,35,24,03,051,,51,43,156,40*75
$GPRMC,163606.000,A,3748.7504,N,12217.7713,W,2.16,95.41,050912,,,D*45
$GPVTG,95.41,T,,M,2.16,N,4.0,K,D*30
$GPGGA,163607.000,3748.7500,N,12217.7699,W,2,06,1.5,35.4,M,-25.1,M,1.8,0000*78
$GPGSA,A,3,26,28,07,08,11,17,,,,,,,3.1,1.5,2.8*39
$GPRMC,163607.000,A,3748.7500,N,12217.7699,W,2.20,98.29,050912,,,D*45
$GPVTG,98.29,T,,M,2.20,N,4.1,K,D*37
$GPGGA,163608.000,3748.7491,N,12217.7683,W,2,06,1.3,37.2,M,-25.1,M,1.8,0000*77
$GPGSA,A,3,26,07,08,11,19,17,,,,,,,2.5,1.3,2.1*31
$GPRMC,163608.000,A,3748.7491,N,12217.7683,W,2.78,113.52,050912,,,D*7B
$GPVTG,113.52,T,,M,2.78,N,5.1,K,D*05
$GPGGA,163609.000,3748.7484,N,12217.7671,W,2,06,1.3,38.1,M,-25.1,M,1.8,0000*73
$GPGSA,A,3,26,07,08,11,19,17,,,,,,,2.5,1.3,2.1*31
$GPRMC,163609.000,A,3748.7484,N,12217.7671,W,2.34,114.16,050912,,,D*7C
$GPVTG,114.16,T,,M,2.34,N,4.3,K,D*09
$GPGGA,163610.000,3748.7473,N,12217.7656,W,2,07,1.3,39.4,M,-25.1,M,2.8,0000*70
$GPGSA,A,3,26,28,07,08,11,19,17,,,,,,2.3,1.3,2.0*3C
$GPRMC,163610.000,A,3748.7473,N,12217.7656,W,2.55,121.28,050912,,,D*75
$GPVTG,121.28,T,,M,2.55,N,4.7,K,D*01
$GPGGA,163611.000,3748.7462,N,12217.7638,W,2,07,1.3,40.8,M,-25.1,M,1.8,0000*78
$GPGSA,A,3,26,28,07,08,11,19,17,,,,,,2.3,1.3,2.0*3C
$GPGSV,3,1,12,28,71,307,24,08,67,049,20,26,49,299,22,17,37,183,38*78
$GPGSV,3,2,12,07,36,101,23,11,20,079,20,01,12,096,21,19,11,038,22*7B
$GPGSV,3,3,12,05,08,251,24,13,05,156,33,24,03,051,,51,43,156,35*74
$GPRMC,163611.000,A,3748.7462,N,12217.7638,W,3.19,113.40,050912,,,D*7A
$GPVTG,113.40,T,,M,3.19,N,5.9,K,D*08
$GPGGA,163612.000,3748.7456,N,12217.7627,W,2,07,1.3,40.7,M,-25.1,M,2.8,0000*7E
$GPGSA,A,3,26,28,07,08,11,19,17,,,,,,2.3,1.3,2.0*3C
$GPRMC,163612.000,A,3748.7456,N,12217.7627,W,2.41,114.15,050912,,,D*7B
$GPVTG,114.15,T,,M,2.41,N,4.5,K,D*0E
$GPGGA,163613.000,3748.7449,N,12217.7616,W,2,07,1.3,39.9,M,-25.1,M,1.8,0000*70
$GPGSA,A,3,26,28,07,08,11,19,17,,,,,,2.3,1.3,2.0*3C
$GPRMC,163613.000,A,3748.7449,N,12217.7616,W,2.08,111.75,050912,,,D*78
$GPVTG,111.75,T,,M,2.08,N,3.9,K,D*0B
$GPGGA,163614.000,3748.7445,N,12217.7612,W,2,07,1.3,38.6,M,-25.1,M,2.8,0000*72
$GPGSA,A,3,26,28,07,08,11,19,17,,,,,,2.3,1.3,2.0*3C
$GPRMC,163614.000,A,3748.7445,N,12217.7612,W,2.00,114.57,050912,,,D*7A
$GPVTG,114.57,T,,M,2.00,N,3.7,K,D*08
$GPGGA,163615.000,3748.7442,N,12217.7604,W,2,07,1.3,38.4,M,-25.1,M,3.8,0000*70
$GPGSA,A,3,26,28,07,08,11,19,17,,,,,,2.3,1.3,2.0*3C
$GPRMC,163615.000,A,3748.7442,N,12217.7604,W,2.12,110.81,050912,,,D*77
$GPVTG,110.81,T,,M,2.12,N,3.9,K,D*0A
$GPGGA,163616.000,3748.7438,N,12217.7590,W,2,07,1.3,40.4,M,-25.1,M,4.8,0000*78
$GPGSA,A,3,26,28,07,08,11,19,17,,,,,,2.3,1.3,2.0*3C
$GPGSV,3,1,12,28,71,307,24,08,67,049,24,26,49,299,22,17,37,183,38*7C
$GPGSV,3,2,12,07,36,101,29,11,20,079,19,01,12,096,21,19,11,038,22*7B
$GPRMC,163616.000,A,3748.7438,N,12217.7590,W,2.34,106.16,050912,,,D*7A
$GPVTG,106.16,T,,M,2.34,N,4.3,K,D*0A
$GPGGA,163617.000,3748.7431,N,12217.7575,W,2,07,1.3,41.3,M,-25.1,M,5.8,0000*7C
$GPGSA,A,3,26,28,07,08,11,19,17,,,,,,2.3,1.3,2.0*3C
$GPRMC,163617.000,A,3748.7431,N,12217.7575,W,3.22,110.49,050912,,,D*72
$GPVTG,110.49,T,,M,3.22,N,6.0,K,D*00
$GPGGA,163618.000,3748.7427,N,12217.7565,W,2,07,1.3,41.0,M,-25.1,M,6.8,0000*75
$GPGSA,A,3,26,28,07,08,11,19,17,,,,,,2.3,1.3,2.0*3C
$GPRMC,163618.000,A,3748.7427,N,12217.7565,W,2.78,109.98,050912,,,D*71
$GPVTG,109.98,T,,M,2.78,N,5.1,K,D*08
$GPGGA,163619.000,3748.7420,N,12217.7550,W,2,07,1.3,42.6,M,-25.1,M,1.8,0000*77
$GPGSA,A,3,26,28,07,08,11,19,17,,,,,,2.3,1.3,2.0*3C
$GPRMC,163619.000,A,3748.7420,N,12217.7550,W,2.71,111.78,050912,,,D*7F
$GPVTG,111.78,T,,M,2.71,N,5.0,K,D*07
$GPGGA,163620.000,3748.7413,N,12217.7535,W,2,07,1.3,44.1,M,-25.1,M,1.8,0000*7F
$GPGSA,A,3,26,28,07,08,11,19,17,,,,,,2.3,1.3,2.0*3C
$GPRMC,163620.000,A,3748.7413,N,12217.7535,W,2.69,113.70,050912,,,D*75
$GPVTG,113.70,T,,M,2.69,N,5.0,K,D*04
$GPGGA,163621.000,3748.7408,N,12217.7520,W,2,07,1.3,46.0,M,-25.1,M,2.8,0000*70
$GPGSA,A,3,26,28,07,08,11,19,17,,,,,,2.3,1.3,2.0*3C
$GPGSV,3,1,12,28,71,307,24,08,67,049,20,26,49,299,21,17,37,183,38*7B
$GPGSV,3,2,12,07,36,101,31,11,20,079,32,01,12,096,20,19,11,038,21*79
$GPGSV,3,3,12,05,08,251,26,13,05,156,,24,03,051,,51,43,156,36*75
$GPRMC,163621.000,A,3748.7408,N,12217.7520,W,2.85,112.19,050912,,,D*76
$GPVTG,112.19,T,,M,2.85,N,5.3,K,D*0B
$GPGGA,163622.000,3748.7403,N,12217.7504,W,2,07,1.3,45.2,M,-25.1,M,3.8,0000*7E
$GPGSA,A,3,26,28,07,08,11,19,17,,,,,,2.3,1.3,2.0*3C
$GPRMC,163622.000,A,3748.7403,N,12217.7504,W,3.08,113.91,050912,,,D*7D
$GPVTG,113.91,T,,M,3.08,N,5.7,K,D*0A
$GPGGA,163623.000,3748.7400,N,12217.7494,W,2,07,1.3,41.5,M,-25.1,M,4.8,0000*70
$GPGSA,A,3,26,28,07,08,11,19,17,,,,,,2.3,1.3,2.0*3C
$GPRMC,163623.000,A,3748.7400,N,12217.7494,W,3.47,121.33,050912,,,D*75
$GPVTG,121.33,T,,M,3.47,N,6.4,K,D*08
$GPGGA,163624.000,3748.7393,N,12217.7473,W,2,07,1.3,41.3,M,-25.1,M,5.8,0000*74
$GPGSA,A,3,26,28,07,08,11,19,17,,,,,,2.3,1.3,2.0*3C
$GPRMC,163624.000,A,3748.7393,N,12217.7473,W,3.15,121.29,050912,,,D*7A
$GPVTG,121.29,T,,M,3.15,N,5.8,K,D*0B
$GPGGA,163625.000,3748.7386,N,12217.7456,W,2,07,1.3,41.9,M,-25.1,M,1.8,0000*78
$GPGSA,A,3,26,28,07,08,11,19,17,,,,,,2.3,1.3,2.0*3C
$GPRMC,163625.000,A,3748.7386,N,12217.7456,W,2.69,116.24,050912,,,D*7B
$GPVTG,116.24,T,,M,2.69,N,5.0,K,D*00
$GPGGA,163626.000,3748.7380,N,12217.7440,W,2,07,1.3,42.7,M,-25.1,M,1.8,0000*77
$GPGSA,A,3,26,28,07,08,11,19,17,,,,,,2.3,1.3,2.0*3C
$GPGSV,3,1,12,28,71,307,24,08,67,049,27,26,49,299,22,17,37,183,38*7F
$GPGSV,3,2,12,07,36,101,32,11,20,079,23,01,12,096,20,19,11,038,22*79
$GPGSV,3,3,12,05,08,251,26,13,05,156,,24,03,051,,51,43,156,32*71
$GPRMC,163626.000,A,3748.7380,N,12217.7440,W,2.50,113.26,050912,,,D*74
$GPVTG,113.26,T,,M,2.50,N,4.6,K,D*0A
$GPGGA,163627.000,3748.7376,N,12217.7432,W,2,07,1.3,41.4,M,-25.1,M,2.8,0000*79
$GPGSA,A,3,26,28,07,08,11,19,17,,,,,,2.3,1.3,2.0*3C
$GPRMC,163627.000,A,3748.7376,N,12217.7432,W,2.06,111.96,050912,,,D*73
$GPVTG,111.96,T,,M,2.06,N,3.8,K,D*09
$GPGGA,163628.000,3748.7373,N,12217.7430,W,2,07,1.3,39.8,M,-25.1,M,3.8,0000*73
$GPGSA,A,3,26,28,07,08,11,19,17,,,,,,2.3,1.3,2.0*3C
$GPRMC,163628.000,A,3748.7373,N,12217.7430,W,1.79,122.97,050912,,,D*71
$GPVTG,122.97,T,,M,1.79,N,3.3,K,D*08
$GPGGA,163629.000,3748.7368,N,12217.7421,W,2,07,1.3,40.3,M,-25.1,M,4.8,0000*7A
$GPGSA,A,3,26,28,07,08,11,19,17,,,,,,2.3,1.3,2.0*3C
$GPRMC,163629.000,A,3748.7368,N,12217.7421,W,2.24,123.69,050912,,,D*71
$GPVTG,123.69,T,,M,2.24,N,4.2,K,D*05
$GPGGA,163630.000,3748.7366,N,12217.7416,W,2,07,1.3,40.1,M,-25.1,M,5.8,0000*7B
$GPGSA,A,3,26,28,07,08,11,19,17,,,,,,2.3,1.3,2.0*3C
$GPRMC,163630.000,A,3748.7366,N,12217.7416,W,1.46,113.48,050912,,,D*74
$GPVTG,113.48,T,,M,1.46,N,2.7,K,D*01
$GPGGA,163631.000,3748.7367,N,12217.7420,W,2,07,1.3,38.4,M,-25.1,M,6.8,0000*77
$GPGSA,A,3,26,28,07,08,11,19,17,,,,,,2.3,1.3,2.0*3C
$GPGSV,3,1,12,28,71,307,25,08,67,049,27,26,49,299,23,17,37,183,28*7E
$GPGSV,3,2,12,07,36,101,24,11,20,079,22,01,12,096,23,19,11,038,23*7D
$GPGSV,3,3,12,05,08,251,27,13,05,156,,24,03,051,,51,43,156,33*71
$GPRMC,163631.000,A,3748.7367,N,12217.7420,W,1.29,119.08,050912,,,D*76
$GPVTG,119.08,T,,M,1.29,N,2.4,K,D*05
$GPGGA,163632.000,3748.7362,N,12217.7411,W,2,07,1.3,37.6,M,-25.1,M,7.8,0000*7F
$GPGSA,A,3,26,28,07,08,11,19,17,,,,,,2.3,1.3,2.0*3C
$GPRMC,163632.000,A,3748.7362,N,12217.7411,W,1.90,112.05,050912,,,D*76
$GPVTG,112.05,T,,M,1.90,N,3.5,K,D*01
$GPGGA,163633.000,3748.7359,N,12217.7405,W,2,07,1.3,36.5,M,-25.1,M,8.8,0000*7E
$GPGSA,A,3,26,28,07,08,11,19,17,,,,,,2.3,1.3,2.0*3C
$GPRMC,163633.000,A,3748.7359,N,12217.7405,W,2.78,117.42,050912,,,D*79
$GPVTG,117.42,T,,M,2.78,N,5.2,K,D*03
$GPGGA,163634.000,3748.7355,N,12217.7396,W,2,07,1.3,35.4,M,-25.1,M,9.8,0000*7B
$GPGSA,A,3,26,28,07,08,11,19,17,,,,,,2.3,1.3,2.0*3C
$GPRMC,163634.000,A,3748.7355,N,12217.7396,W,2.63,108.92,050912,,,D*76
$GPVTG,108.92,T,,M,2.63,N,4.9,K,D*00
$GPGGA,163635.000,3748.7354,N,12217.7383,W,2,07,1.3,35.6,M,-25.1,M,10.8,0000*45
$GPGSA,A,3,26,28,07,08,11,19,17,,,,,,2.3,1.3,2.0*3C
$GPRMC,163635.000,A,3748.7354,N,12217.7383,W,2.13,127.80,050912,,,D*7B
$GPVTG,127.80,T,,M,2.13,N,3.9,K,D*0E
$GPGGA,163636.000,3748.7350,N,12217.7367,W,2,07,1.3,35.2,M,-25.1,M,11.8,0000*4D
$GPGSA,A,3,26,28,07,08,11,19,17,,,,,,2.3,1.3,2.0*3C
$GPGSV,3,1,12,28,71,307,21,08,67,049,22,26,49,299,23,17,37,183,33*75
$GPGSV,3,2,12,07,36,101,31,11,20,079,23,01,12,096,23,19,11,038,18*70
$GPGSV,3,3,12,05,08,251,27,13,05,156,,24,03,051,,51,43,156,29*7A
$GPVTG,97.26,T,,M,1.80,N,3.3,K,D*3B
$GPGGA,163637.000,3748.7342,N,12217.7348,W,2,07,1.3,36.2,M,-25.1,M,12.8,0000*42
$GPGSA,A,3,26,28,07,08,11,19,17,,,,,,2.3,1.3,2.0*3C
$GPRMC,163637.000,A,3748.7342,N,12217.7348,W,1.90,104.61,050912,,,D*7F
$GPVTG,104.61,T,,M,1.90,N,3.5,K,D*04
$GPGGA,163638.000,3748.7336,N,12217.7336,W,2,07,1.3,36.3,M,-25.1,M,13.8,0000*47
$GPGSA,A,3,26,28,07,08,11,19,17,,,,,,2.3,1.3,2.0*3C
$GPRMC,163638.000,A,3748.7336,N,12217.7336,W,2.07,123.46,050912,,,D*77
$GPVTG,123.46,T,,M,2.07,N,3.8,K,D*04
$GPGGA,163639.000,3748.7331,N,12217.7322,W,2,07,1.3,35.9,M,-25.1,M,14.8,0000*4A
$GPGSA,A,3,26,28,07,08,11,19,17,,,,,,2.3,1.3,2.0*3C
$GPRMC,163639.000,A,3748.7331,N,12217.7322,W,1.68,118.07,050912,,,D*73
$GPVTG,118.07,T,,M,1.68,N,3.1,K,D*0A
$GPGGA,163640.000,3748.7326,N,12217.7318,W,2,07,1.3,34.8,M,-25.1,M,15.8,0000*4A
$GPGSA,A,3,26,28,07,08,11,19,17,,,,,,2.3,1.3,2.0*3C
$GPRMC,163640.000,A,3748.7326,N,12217.7318,W,1.70,130.67,050912,,,D*77
$GPVTG,130.67,T,,M,1.70,N,3.2,K,D*0C
$GPGGA,163641.000,3748.7320,N,12217.7313,W,2,07,1.3,33.3,M,-25.1,M,16.8,0000*49
$GPGSA,A,3,26,28,07,08,11,19,17,,,,,,2.3,1.3,2.0*3C
$GPGSV,3,1,11,28,71,307,21,08,67,049,28,26,49,299,23,17,37,183,34*7B
$GPGSV,3,2,11,07,36,101,32,11,20,079,23,01,12,096,22,19,11,038,19*70
$GPGSV,3,3,11,05,08,251,27,13,05,156,,24,03,051,*43
$GPRMC,163641.000,A,3748.7320,N,12217.7313,W,2.50,131.26,050912,,,D*7E
$GPVTG,131.26,T,,M,2.50,N,4.6,K,D*0A
$GPGGA,163642.000,3748.7318,N,12217.7310,W,2,07,1.3,31.8,M,-25.1,M,17.8,0000*4A
$GPGSA,A,3,26,28,07,08,11,19,17,,,,,,2.3,1.3,2.0*3C
$GPRMC,163642.000,A,3748.7318,N,12217.7310,W,1.91,117.77,050912,,,D*7B
$GPVTG,117.77,T,,M,1.91,N,3.5,K,D*00
$GPGGA,163643.000,3748.7317,N,12217.7307,W,1,07,1.3,31.5,M,-25.1,M,,0000*5C
$GPGSA,A,3,26,28,07,08,11,19,17,,,,,,2.3,1.3,2.0*3C
$GPRMC,163643.000,A,3748.7317,N,12217.7307,W,1.86,125.10,050912,,,A*70
$GPVTG,125.10,T,,M,1.86,N,3.5,K,A*03
$GPGGA,163644.000,3748.7316,N,12217.7302,W,1,07,1.3,31.9,M,-25.1,M,,0000*53
$GPGSA,A,3,26,28,07,08,11,19,17,,,,,,2.3,1.3,2.0*3C
$GPRMC,163644.000,A,3748.7316,N,12217.7302,W,1.21,109.96,050912,,,A*7E
$GPVTG,109.96,T,,M,1.21,N,2.2,K,A*08
$GPGGA,163645.000,3748.7319,N,12217.7301,W,1,07,1.3,30.8,M,-25.1,M,,0000*5E
$GPGSA,A,3,26,28,07,08,11,19,17,,,,,,2.3,1.3,2.0*3C
$GPRMC,163645.000,A,3748.7319,N,12217.7301,W,1.24,96.55,050912,,,A*4E
$GPVTG,96.55,T,,M,1.24,N,2.3,K,A*34
$GPGGA,163646.000,3748.7316,N,12217.7289,W,1,07,1.3,29.2,M,-25.1,M,,0000*51
$GPGSA,A,3,26,28,07,08,11,19,17,,,,,,2.3,1.3,2.0*3C
$GPGSV,3,1,12,28,71,307,21,08,67,049,23,26,49,299,22,17,37,183,31*77
$GPGSV,3,2,12,07,36,101,30,11,20,079,32,01,12,096,23,19,11,038,20*7A
$GPGSV,3,3,12,05,08,251,21,13,05,156,,24,03,051,,51,43,156,30*74
$GPRMC,163646.000,A,3748.7316,N,12217.7289,W,1.50,118.53,050912,,,A*71
$GPVTG,118.53,T,,M,1.50,N,2.8,K,A*0D
$GPGGA,163647.000,3748.7311,N,12217.7280,W,1,07,1.3,26.8,M,-25.1,M,,0000*5B
$GPGSA,A,3,26,28,07,08,11,19,17,,,,,,2.3,1.3,2.0*3C
$GPRMC,163647.000,A,3748.7311,N,12217.7280,W,2.01,119.35,050912,,,A*78
$GPVTG,119.35,T,,M,2.01,N,3.7,K,A*05
$GPGGA,163648.000,3748.7305,N,12217.7268,W,1,07,1.3,26.1,M,-25.1,M,,0000*5E
$GPGSA,A,3,26,28,07,08,11,19,17,,,,,,2.3,1.3,2.0*3C
$GPRMC,163648.000,A,3748.7305,N,12217.7268,W,2.57,125.25,050912,,,A*79
$GPVTG,125.25,T,,M,2.57,N,4.8,K,A*00
$GPGGA,163649.000,3748.7298,N,12217.7258,W,1,07,1.3,24.8,M,-25.1,M,,0000*52
$GPGSA,A,3,26,28,07,08,11,19,17,,,,,,2.3,1.3,2.0*3C
$GPRMC,163649.000,A,3748.7298,N,12217.7258,W,2.46,122.52,050912,,,A*79
$GPVTG,122.52,T,,M,2.46,N,4.6,K,A*09
$GPGGA,163650.000,3748.7292,N,12217.7244,W,1,07,1.3,26.2,M,-25.1,M,,0000*55
$GPGSA,A,3,26,28,07,08,11,19,17,,,,,,2.3,1.3,2.0*3C
$GPRMC,163650.000,A,3748.7292,N,12217.7244,W,3.04,110.55,050912,,,A*77
$GPVTG,110.55,T,,M,3.04,N,5.6,K,A*09
$GPGGA,163651.000,3748.7284,N,12217.7229,W,1,07,1.3,27.1,M,-25.1,M,,0000*5A
$GPGSA,A,3,26,28,07,08,11,19,17,,,,,,2.3,1.3,2.0*3C
$GPGSV,3,1,12,28,71,307,21,08,67,049,28,26,49,299,22,17,37,183,37*7A
$GPGSV,3,2,12,07,36,101,32,11,20,079,23,01,12,096,23,19,11,038,20*78
$GPGSV,3,3,12,05,08,251,20,13,05,156,26,24,03,051,,51,43,156,39*78
$GPRMC,163651.000,A,3748.7284,N,12217.7229,W,2.44,114.83,050912,,,A*70
$GPVTG,114.83,T,,M,2.44,N,4.5,K,A*01
$GPGGA,163652.000,3748.7276,N,12217.7212,W,1,07,1.3,28.0,M,-25.1,M,,0000*52
$GPGSA,A,3,26,28,07,08,11,19,17,,,,,,2.3,1.3,2.0*3C
$GPRMC,163652.000,A,3748.7276,N,12217.7212,W,2.83,125.10,050912,,,A*75
$GPVTG,125.10,T,,M,2.83,N,5.2,K,A*04
$GPGGA,163653.000,3748.7267,N,12217.7198,W,1,07,1.3,28.6,M,-25.1,M,,0000*54
$GPGSA,A,3,26,28,07,08,11,19,17,,,,,,2.3,1.3,2.0*3C
$GPRMC,163653.000,A,3748.7267,N,12217.7198,W,2.65,126.03,050912,,,A*7C
$GPVTG,126.03,T,,M,2.65,N,4.9,K,A*07
$GPGGA,163654.000,3748.7262,N,12217.7191,W,1,07,1.3,28.7,M,-25.1,M,,0000*5E
$GPGSA,A,3,26,28,07,08,11,19,17,,,,,,2.3,1.3,2.0*3C
$GPRMC,163654.000,A,3748.7262,N,12217.7191,W,2.02,125.39,050912,,,A*7C
$GPVTG,125.39,T,,M,2.02,N,3.7,K,A*05
$GPGGA,163655.000,3748.7256,N,12217.7181,W,2,07,1.3,28.0,M,-25.1,M,1.8,0000*7A
$GPGSA,A,3,26,28,07,08,11,19,17,,,,,,2.3,1.3,2.0*3C
$GPRMC,163655.000,A,3748.7256,N,12217.7181,W,2.91,121.54,050912,,,D*7B
$GPVTG,121.54,T,,M,2.91,N,5.4,K,D*00
$GPGGA,163656.000,3748.7251,N,12217.7170,W,2,07,1.3,27.1,M,-25.1,M,1.8,0000*7E
$GPGSA,A,3,26,28,07,08,11,19,17,,,,,,2.3,1.3,2.0*3C
$GPGSV,3,1,12,28,71,307,22,08,67,049,28,26,49,299,22,17,37,183,38*76
$GPGSV,3,2,12,07,36,101,33,11,20,079,23,01,12,096,35,19,11,038,20*7E
$GPGSV,3,3,12,05,08,251,20,13,05,156,20,24,03,051,,51,43,156,38*7F
$GPVTG,120.27,T,,M,3.09,N,5.7,K,D*06
$GPGGA,163657.000,3748.7249,N,12217.7163,W,2,07,1.3,26.4,M,-25.1,M,1.8,0000*70
$GPGSA,A,3,26,28,07,08,11,19,17,,,,,,2.3,1.3,2.0*3C
$GPRMC,163657.000,A,3748.7249,N,12217.7163,W,1.98,113.18,050912,,,D*78
$GPVTG,113.18,T,,M,1.98,N,3.7,K,D*06
$GPGGA,163658.000,3748.7248,N,12217.7155,W,2,07,1.3,25.2,M,-25.1,M,1.8,0000*7E
$GPGSA,A,3,26,28,07,08,11,19,17,,,,,,2.3,1.3,2.0*3C
$GPRMC,163658.000,A,3748.7248,N,12217.7155,W,2.35,115.96,050912,,,D*77
$GPVTG,115.96,T,,M,2.35,N,4.3,K,D*01
$GPGGA,163659.000,3748.7243,N,12217.7140,W,2,07,1.3,25.7,M,-25.1,M,2.8,0000*76
$GPGSA,A,3,26,28,07,08,11,19,17,,,,,,2.3,1.3,2.0*3C
$GPRMC,163659.000,A,3748.7243,N,12217.7140,W,2.43,112.90,050912,,,D*79
$GPVTG,112.90,T,,M,2.43,N,4.5,K,D*07
$GPGGA,163700.000,3748.7238,N,12217.7127,W,2,07,1.3,25.3,M,-25.1,M,3.8,0000*73
$GPGSA,A,3,26,28,07,08,11,19,17,,,,,,2.3,1.3,2.0*3C
$GPRMC,163700.000,A,3748.7238,N,12217.7127,W,2.60,120.09,050912,,,D*79
$GPVTG,120.09,T,,M,2.60,N,4.8,K,D*0A
$GPGGA,163701.000,3748.7233,N,12217.7117,W,2,07,1.3,26.0,M,-25.1,M,1.8,0000*78
$GPGSA,A,3,26,28,07,08,11,19,17,,,,,,2.3,1.3,2.0*3C
$GPGSV,3,1,12,28,71,307,23,08,67,049,28,26,49,299,22,17,37,183,38*77
$GPGSV,3,2,12,07,36,101,34,11,20,079,31,01,12,096,26,19,11,038,20*78
$GPGSV,3,3,12,05,08,251,21,13,05,156,20,24,03,051,,51,43,156,36*70
$GPRMC,163701.000,A,3748.7233,N,12217.7117,W,2.45,119.66,050912,,,D*74
$GPVTG,119.66,T,,M,2.45,N,4.5,K,D*03
$GPGGA,163702.000,3748.7229,N,12217.7106,W,2,07,1.3,27.0,M,-25.1,M,1.8,0000*71
$GPGSA,A,3,26,28,07,08,11,19,17,,,,,,2.3,1.3,2.0*3C
$GPRMC,163702.000,A,3748.7229,N,12217.7106,W,2.49,97.46,050912,,,D*45
$GPVTG,97.46,T,,M,2.49,N,4.6,K,D*39
$GPGGA,163703.000,3748.7233,N,12217.7097,W,2,07,1.3,27.2,M,-25.1,M,1.8,0000*70
$GPGSA,A,3,26,28,07,08,11,19,17,,,,,,2.3,1.3,2.0*3C
$GPRMC,163703.000,A,3748.7233,N,12217.7097,W,3.13,66.12,050912,,,D*47
$GPVTG,66.12,T,,M,3.13,N,5.8,K,D*37
$GPGGA,163704.000,3748.7240,N,12217.7090,W,2,07,1.3,26.0,M,-25.1,M,1.8,0000*77
$GPGSA,A,3,26,28,07,08,11,19,17,,,,,,2.3,1.3,2.0*3C
$GPRMC,163704.000,A,3748.7240,N,12217.7090,W,3.22,48.54,050912,,,D*4F
$GPVTG,48.54,T,,M,3.22,N,6.0,K,D*30
$GPGGA,163705.000,3748.7251,N,12217.7085,W,2,07,1.3,25.3,M,-25.1,M,2.8,0000*71
$GPGSA,A,3,26,28,07,08,11,19,17,,,,,,2.3,1.3,2.0*3C
$GPRMC,163705.000,A,3748.7251,N,12217.7085,W,3.22,34.43,050912,,,D*47
$GPVTG,34.43,T,,M,3.22,N,6.0,K,D*3D
$GPGGA,163706.000,3748.7260,N,12217.7079,W,2,07,1.3,23.9,M,-25.1,M,3.8,0000*7E
$GPGSA,A,3,26,28,07,08,11,19,17,,,,,,2.3,1.3,2.0*3C
$GPGSV,3,1,12,28,71,307,29,08,67,049,30,26,49,299,22,17,37,183,30*7C
$GPGSV,3,2,12,07,36,101,39,11,20,079,39,01,12,096,23,19,11,038,31*78
$GPGSV,3,3,12,05,08,251,21,13,05,156,20,24,03,051,,51,43,156,31*77
$GPRMC,163706.000,A,3748.7260,N,12217.7079,W,3.23,24.16,050912,,,D*45
$GPVTG,24.16,T,,M,3.23,N,6.0,K,D*3D
$GPGGA,163707.000,3748.7270,N,12217.7074,W,2,07,1.3,22.8,M,-25.1,M,4.8,0000*74
$GPGSA,A,3,26,28,07,08,11,19,17,,,,,,2.3,1.3,2.0*3C
$GPRMC,163707.000,A,3748.7270,N,12217.7074,W,2.96,26.09,050912,,,D*4B
$GPVTG,26.09,T,,M,2.96,N,5.5,K,D*38
$GPGGA,163708.000,3748.7282,N,12217.7071,W,2,07,1.3,22.4,M,-25.1,M,5.8,0000*7E
$GPGSA,A,3,26,28,07,08,11,19,17,,,,,,2.3,1.3,2.0*3C
$GPRMC,163708.000,A,3748.7282,N,12217.7071,W,2.67,23.57,050912,,,D*4C
$GPVTG,23.57,T,,M,2.67,N,4.9,K,D*35
$GPGGA,163709.000,3748.7292,N,12217.7068,W,2,07,1.3,21.6,M,-25.1,M,6.8,0000*74
$GPGSA,A,3,26,28,07,08,11,19,17,,,,,,2.3,1.3,2.0*3C
$GPRMC,163709.000,A,3748.7292,N,12217.7068,W,2.65,24.78,050912,,,D*4C
$GPVTG,24.78,T,,M,2.65,N,4.9,K,D*3D
$GPGGA,163710.000,3748.7303,N,12217.7067,W,2,07,1.3,20.9,M,-25.1,M,7.8,0000*75
$GPGSA,A,3,26,28,07,08,11,19,17,,,,,,2.3,1.3,2.0*3C
$GPRMC,163710.000,A,3748.7303,N,12217.7067,W,2.79,24.63,050912,,,D*45
$GPVTG,24.63,T,,M,2.79,N,5.2,K,D*30
$GPGGA,163711.000,3748.7313,N,12217.7063,W,2,07,1.3,20.4,M,-25.1,M,8.8,0000*73
$GPGSA,A,3,26,28,07,08,11,19,17,,,,,,2.3,1.3,2.0*3C
$GPGSV,3,1,12,28,71,308,26,08,67,051,31,26,49,299,22,17,37,183,29*7C
$GPGSV,3,2,12,07,35,102,39,11,20,079,39,01,12,096,31,19,11,038,31*7B
$GPRMC,163711.000,A,3748.7313,N,12217.7063,W,2.59,29.80,050912,,,D*43
$GPVTG,29.80,T,,M,2.59,N,4.8,K,D*39
$GPGGA,163712.000,3748.7323,N,12217.7058,W,2,07,1.3,19.8,M,-25.1,M,9.8,0000*7C
$GPGSA,A,3,26,28,07,08,11,19,17,,,,,,2.3,1.3,2.0*3C
$GPRMC,163712.000,A,3748.7323,N,12217.7058,W,2.88,30.80,050912,,,D*4F
$GPVTG,30.80,T,,M,2.88,N,5.3,K,D*37
$GPGGA,163713.000,3748.7330,N,12217.7052,W,2,07,1.3,18.5,M,-25.1,M,10.8,0000*41
$GPGSA,A,3,26,28,07,08,11,19,17,,,,,,2.3,1.3,2.0*3C
$GPRMC,163713.000,A,3748.7330,N,12217.7052,W,2.81,26.31,050912,,,D*42
$GPVTG,26.31,T,,M,2.81,N,5.2,K,D*32
$GPGGA,163714.000,3748.7342,N,12217.7047,W,2,07,1.3,18.0,M,-25.1,M,11.8,0000*43
$GPGSA,A,3,26,28,07,08,11,19,17,,,,,,2.3,1.3,2.0*3C
$GPRMC,163714.000,A,3748.7342,N,12217.7047,W,3.47,24.28,050912,,,D*45
$GPVTG,24.28,T,,M,3.47,N,6.4,K,D*36
$GPGGA,163715.000,3748.7354,N,12217.7043,W,2,07,1.3,17.8,M,-25.1,M,12.8,0000*45
$GPGSA,A,3,26,28,07,08,11,19,17,,,,,,2.3,1.3,2.0*3C
$GPRMC,163715.000,A,3748.7354,N,12217.7043,W,2.64,24.30,050912,,,D*4E
$GPVTG,24.30,T,,M,2.64,N,4.9,K,D*30
$GPGGA,163716.000,3748.7367,N,12217.7037,W,2,07,1.3,18.1,M,-25.1,M,13.8,0000*42
$GPGSA,A,3,26,28,07,08,11,19,17,,,,,,2.3,1.3,2.0*3C
$GPGSV,3,1,11,28,71,308,26,08,67,051,32,26,49,299,23,17,37,183,28*7C
$GPGSV,3,2,11,07,35,102,39,11,20,079,37,01,12,096,26,19,11,038,33*72
$GPGSV,3,3,11,05,07,251,,13,04,156,13,24,03,050,*4B
$GPRMC,163716.000,A,3748.7367,N,12217.7037,W,2.84,30.35,050912,,,D*40
$GPVTG,30.35,T,,M,2.84,N,5.3,K,D*35
$GPGGA,163717.000,3748.7377,N,12217.7030,W,2,07,1.3,18.0,M,-25.1,M,14.8,0000*43
$GPGSA,A,3,26,28,07,08,11,19,17,,,,,,2.3,1.3,2.0*3C
$GPRMC,163717.000,A,3748.7377,N,12217.7030,W,3.11,34.10,050912,,,D*49
$GPVTG,34.10,T,,M,3.11,N,5.8,K,D*30
$GPGGA,163718.000,3748.7382,N,12217.7026,W,2,07,1.3,16.8,M,-25.1,M,15.8,0000*46
