$ADVER,3080,2.3
$GPRMC,172122.202,A,3748.7882,N,12217.8647,W,0.00,,031012,,,A*61
$GPRMC,172123.202,A,3748.7883,N,12217.8648,W,0.00,,031012,,,A*6E
$GPRMC,172124.202,A,3748.7884,N,12217.8647,W,0.00,,031012,,,A*61
$GPRMC,172125.202,A,3748.7884,N,12217.8648,W,0.00,,031012,,,A*6F
$GPRMC,172126.202,A,3748.7891,N,12217.8647,W,0.00,,031012,,,A*67
$GPRMC,172127.202,A,3748.7896,N,12217.8646,W,0.00,,031012,,,A*60
$GPRMC,172128.202,A,3748.7977,N,12217.8624,W,0.08,93.65,031012,,,A*4A
$GPRMC,172129.202,A,3748.7968,N,12217.8625,W,0.13,26.73,031012,,,A*47
$GPRMC,172130.000,A,3748.7968,N,12217.8625,W,0.14,27.65,031012,,,A*4E
$GPRMC,172131.000,A,3748.7968,N,12217.8625,W,0.11,31.07,031012,,,A*49
$GPRMC,172132.000,A,3748.7966,N,12217.8626,W,0.27,18.33,031012,,,A*4E
$GPRMC,172133.000,A,3748.7965,N,12217.8626,W,0.01,241.94,031012,,,A*7B
$GPRMC,172134.000,A,3748.8002,N,12217.8618,W,0.07,168.53,031012,,,A*73
$GPRMC,172135.000,A,3748.7991,N,12217.8620,W,0.13,179.49,031012,,,A*7B
$GPRMC,172136.000,A,3748.7987,N,12217.8622,W,0.13,180.64,031012,,,A*74
$GPRMC,172137.000,A,3748.7985,N,12217.8623,W,0.12,179.85,031012,,,A*7E
$GPRMC,172138.000,A,3748.7983,N,12217.8623,W,0.12,182.92,031012,,,A*75
$GPRMC,172139.000,A,3748.7983,N,12217.8623,W,0.13,176.33,031012,,,A*75
$GPRMC,172140.000,A,3748.7982,N,12217.8624,W,0.09,180.83,031012,,,A*74
$GPRMC,172141.000,A,3748.7982,N,12217.8624,W,0.14,174.69,031012,,,A*76
$GPRMC,172142.000,A,3748.7982,N,12217.8624,W,0.13,182.34,031012,,,A*73
$GPRMC,172143.000,A,3748.7982,N,12217.8624,W,0.13,170.41,031012,,,A*7D
$GPRMC,172144.000,A,3748.7982,N,12217.8624,W,0.12,179.49,031012,,,A*7A
$GPRMC,172145.000,A,3748.7982,N,12217.8624,W,0.12,180.40,031012,,,A*74
$GPRMC,172146.000,A,3748.7982,N,12217.8624,W,0.11,164.80,031012,,,A*72
$GPRMC,172147.000,A,3748.7982,N,12217.8624,W,0.13,183.31,031012,,,A*72
$GPRMC,172148.000,A,3748.7983,N,12217.8625,W,0.12,172.74,031012,,,A*73
$GPRMC,172149.000,A,3748.7982,N,12217.8625,W,0.13,155.25,031012,,,A*73
$GPRMC,172150.000,A,3748.7983,N,12217.8625,W,0.17,133.17,031012,,,A*7F
$GPRMC,172151.000,A,3748.7984,N,12217.8625,W,0.18,178.31,031012,,,A*7D
$GPRMC,172152.000,A,3748.7984,N,12217.8625,W,0.14,183.06,031012,,,A*72
$GPRMC,172153.000,A,3748.7985,N,12217.8625,W,0.14,181.75,031012,,,A*74
$GPRMC,172154.000,A,3748.7985,N,12217.8626,W,0.11,180.95,031012,,,A*7A
$GPRMC,172155.000,A,3748.7986,N,12217.8626,W,0.14,179.10,031012,,,A*76
$GPRMC,172156.000,A,3748.7986,N,12217.8626,W,0.13,182.23,031012,,,A*76
$GPRMC,172157.000,A,3748.7987,N,12217.8626,W,0.11,176.69,031012,,,A*71
$GPRMC,172158.000,A,3748.7990,N,12217.8627,W,0.08,170.32,031012,,,A*79
$GPRMC,172159.000,A,3748.7992,N,12217.8627,W,0.08,176.05,031012,,,A*78
$GPRMC,172200.000,A,3748.7994,N,12217.8627,W,0.11,138.17,031012,,,A*70
$GPRMC,172201.000,A,3748.7996,N,12217.8627,W,0.15,180.52,031012,,,A*75
$GPRMC,172202.000,A,3748.7997,N,12217.8628,W,0.15,153.83,031012,,,A*7A
$GPRMC,172203.000,A,3748.7998,N,12217.8628,W,0.07,164.12,031012,,,A*7B
$GPRMC,172204.000,A,3748.7999,N,12217.8628,W,0.07,174.46,031012,,,A*7D
$GPRMC,172205.000,A,3748.8000,N,12217.8629,W,0.09,167.00,031012,,,A*75
$GPRMC,172206.000,A,3748.8001,N,12217.8629,W,0.08,202.62,031012,,,A*72
$GPRMC,172207.000,A,3748.8001,N,12217.8629,W,0.05,195.30,031012,,,A*74
$GPRMC,172208.000,A,3748.8002,N,12217.8630,W,0.03,175.85,031012,,,A*76
$GPRMC,172209.000,A,3748.8002,N,12217.8630,W,0.07,276.17,031012,,,A*78
$GPRMC,172210.000,A,3748.8003,N,12217.8630,W,0.06,167.49,031012,,,A*78
$GPRMC,172211.000,A,3748.8003,N,12217.8631,W,0.02,347.47,031012,,,A*72
$GPRMC,172212.000,A,3748.8003,N,12217.8631,W,0.06,184.38,031012,,,A*70
$GPRMC,172213.000,A,3748.8003,N,12217.8631,W,0.03,288.02,031012,,,A*72
$GPRMC,172214.000,A,3748.8004,N,12217.8631,W,0.08,111.21,031012,,,A*7B
$GPRMC,172215.000,A,3748.8004,N,12217.8630,W,0.13,112.49,031012,,,D*79
$GPRMC,172216.000,A,3748.8004,N,12217.8630,W,0.03,304.19,031012,,,D*7B
$GPRMC,172217.000,A,3748.8005,N,12217.8630,W,0.03,88.72,031012,,,D*41
$GPRMC,172218.000,A,3748.8005,N,12217.8630,W,0.03,111.47,031012,,,D*79
$GPRMC,172219.000,A,3748.8005,N,12217.8630,W,0.04,32.35,031012,,,D*4A
$GPRMC,172220.000,A,3748.8005,N,12217.8630,W,0.08,243.29,031012,,,D*75
$GPRMC,172221.000,A,3748.8005,N,12217.8630,W,0.03,190.18,031012,,,D*70
$GPRMC,172222.000,A,3748.8005,N,12217.8631,W,0.04,233.79,031012,,,D*78
$GPRMC,172223.000,A,3748.8005,N,12217.8631,W,0.13,161.38,031012,,,D*7E
$GPRMC,172224.000,A,3748.8005,N,12217.8631,W,0.09,203.64,031012,,,D*7C
$GPRMC,172225.000,A,3748.8005,N,12217.8631,W,0.10,170.94,031012,,,D*7D
$GPRMC,172226.000,A,3748.8005,N,12217.8631,W,0.04,238.09,031012,,,D*70
$GPRMC,172227.000,A,3748.8005,N,12217.8631,W,0.09,164.62,031012,,,D*7B
$GPRMC,172228.000,A,3748.8005,N,12217.8631,W,0.09,115.44,031012,,,D*76
$GPRMC,172229.000,A,3748.8004,N,12217.8632,W,0.04,35.85,031012,,,D*46
$GPRMC,172230.000,A,3748.8004,N,12217.8632,W,0.07,308.52,031012,,,D*7A
$GPRMC,172231.000,A,3748.8005,N,12217.8632,W,0.02,167.50,031012,,,D*76
$GPRMC,172232.000,A,3748.8005,N,12217.8632,W,0.03,350.90,031012,,,D*7E
$GPRMC,172233.000,A,3748.8004,N,12217.8633,W,0.05,322.02,031012,,,D*77
$GPRMC,172234.000,A,3748.8005,N,12217.8633,W,0.02,164.36,031012,,,D*71
$GPRMC,172235.000,A,3748.8004,N,12217.8633,W,0.02,198.49,031012,,,D*7A
$GPRMC,172236.000,A,3748.8007,N,12217.8629,W,0.12,102.28,031012,,,D*74
$GPRMC,172237.000,A,3748.8010,N,12217.8626,W,0.07,27.94,031012,,,D*49
$GPRMC,172238.000,A,3748.8012,N,12217.8624,W,0.03,24.74,031012,,,D*4F
$GPRMC,172239.000,A,3748.8010,N,12217.8624,W,0.46,120.04,031012,,,D*7F
$GPRMC,172240.000,A,3748.8010,N,12217.8623,W,0.41,51.01,031012,,,D*43
$GPRMC,172241.000,A,3748.8012,N,12217.8622,W,0.29,1.79,031012,,,D*75
$GPRMC,172242.000,A,3748.8012,N,12217.8622,W,0.24,274.12,031012,,,D*76
$GPRMC,172243.000,A,3748.8012,N,12217.8624,W,0.22,124.12,031012,,,D*71
$GPRMC,172244.000,A,3748.8011,N,12217.8622,W,0.82,115.14,031012,,,D*7D
$GPRMC,172245.000,A,3748.8013,N,12217.8615,W,0.38,170.85,031012,,,D*70
$GPRMC,172246.000,A,3748.8015,N,12217.8612,W,1.09,46.66,031012,,,D*48
$GPRMC,172247.000,A,3748.8016,N,12217.8610,W,1.02,52.12,031012,,,D*45
$GPRMC,172248.000,A,3748.8015,N,12217.8610,W,0.55,144.76,031012,,,D*7E
$GPRMC,172249.000,A,3748.8014,N,12217.8612,W,0.43,349.91,031012,,,D*7D
$GPRMC,172250.000,A,3748.8015,N,12217.8611,W,1.39,104.19,031012,,,D*70
$GPRMC,172251.000,A,3748.8011,N,12217.8612,W,0.34,187.24,031012,,,D*7F
$GPRMC,172252.000,A,3748.8009,N,12217.8612,W,0.72,41.15,031012,,,D*4E
$GPRMC,172253.000,A,3748.8008,N,12217.8613,W,0.34,252.07,031012,,,D*7E
$GPRMC,172254.000,A,3748.8007,N,12217.8615,W,0.11,83.26,031012,,,D*4A
$GPRMC,172255.000,A,3748.8006,N,12217.8616,W,0.12,150.47,031012,,,D*72
$GPRMC,172256.000,A,3748.8006,N,12217.8616,W,0.36,164.81,031012,,,A*7F
$GPRMC,172257.000,A,3748.8004,N,12217.8618,W,0.10,151.04,031012,,,A*7D
$GPRMC,172258.000,A,3748.8003,N,12217.8620,W,0.12,209.66,031012,,,A*76
$GPRMC,172259.000,A,3748.8003,N,12217.8621,W,0.39,24.68,031012,,,A*4C
$GPRMC,172300.000,A,3748.8001,N,12217.8627,W,0.31,50.64,031012,,,A*42
$GPRMC,172301.000,A,3748.8000,N,12217.8627,W,0.07,39.45,031012,,,A*4B
$GPRMC,172302.000,A,3748.8000,N,12217.8627,W,0.12,185.33,031012,,,A*7B
$GPRMC,172303.000,A,3748.8000,N,12217.8627,W,0.44,214.40,031012,,,A*76
$GPRMC,172304.000,A,3748.7999,N,12217.8627,W,0.10,200.04,031012,,,A*73
$GPRMC,172305.000,A,3748.7995,N,12217.8627,W,0.94,137.36,031012,,,A*74
$GPRMC,172306.000,A,3748.7992,N,12217.8630,W,0.85,229.22,031012,,,A*7F
$GPRMC,172307.000,A,3748.7993,N,12217.8627,W,0.44,178.43,031012,,,A*74
$GPRMC,172308.000,A,3748.7994,N,12217.8626,W,0.20,329.50,031012,,,A*7B
$GPRMC,172309.000,A,3748.7998,N,12217.8623,W,0.63,112.91,031012,,,A*73
$GPRMC,172310.000,A,3748.7996,N,12217.8623,W,0.79,136.17,031012,,,A*76
$GPRMC,172311.000,A,3748.7994,N,12217.8619,W,1.26,147.83,031012,,,A*7C
$GPRMC,172312.000,A,3748.7991,N,12217.8617,W,1.00,133.63,031012,,,A*7D
$GPRMC,172313.000,A,3748.7993,N,12217.8613,W,1.46,80.93,031012,,,A*4E
$GPRMC,172314.000,A,3748.7995,N,12217.8604,W,2.52,93.21,031012,,,A*44
$GPRMC,172315.000,A,3748.7995,N,12217.8597,W,1.41,95.57,031012,,,A*4A
$GPRMC,172316.000,A,3748.7994,N,12217.8592,W,1.50,112.24,031012,,,A*77
$GPRMC,172317.000,A,3748.7991,N,12217.8584,W,2.40,126.27,031012,,,A*72
$GPRMC,172318.000,A,3748.7985,N,12217.8581,W,2.36,138.65,031012,,,A*75
$GPRMC,172319.000,A,3748.7980,N,12217.8577,W,1.31,136.83,031012,,,A*7A
$GPRMC,172320.000,A,3748.7974,N,12217.8574,W,1.93,130.69,031012,,,A*72
$GPRMC,172321.000,A,3748.7972,N,12217.8567,W,1.76,117.51,031012,,,D*77
$GPRMC,172322.000,A,3748.7969,N,12217.8560,W,2.39,122.05,031012,,,D*76
$GPRMC,172323.000,A,3748.7966,N,12217.8551,W,2.37,119.17,031012,,,D*7F
$GPRMC,172324.000,A,3748.7962,N,12217.8543,W,2.19,124.73,031012,,,D*7F
$GPRMC,172325.000,A,3748.7959,N,12217.8536,W,2.02,122.75,031012,,,D*7E
$GPRMC,172326.000,A,3748.7956,N,12217.8529,W,1.83,112.54,031012,,,D*76
$GPRMC,172327.000,A,3748.7954,N,12217.8523,W,1.78,102.10,031012,,,D*7A
$GPRMC,172328.000,A,3748.7952,N,12217.8516,W,1.97,109.19,031012,,,D*76
$GPRMC,172329.000,A,3748.7950,N,12217.8509,W,1.85,105.48,031012,,,D*70
$GPRMC,172330.000,A,3748.7948,N,12217.8503,W,1.65,94.97,031012,,,D*4E
$GPRMC,172331.000,A,3748.7946,N,12217.8497,W,1.61,109.14,031012,,,D*77
$GPRMC,172332.000,A,3748.7944,N,12217.8491,W,1.69,106.77,031012,,,D*72
$GPRMC,172333.000,A,3748.7941,N,12217.8485,W,1.83,107.38,031012,,,D*7D
$GPRMC,172334.000,A,3748.7938,N,12217.8479,W,1.83,108.84,031012,,,D*7F
$GPRMC,172335.000,A,3748.7936,N,12217.8472,W,1.71,103.10,031012,,,D*70
$GPRMC,172336.000,A,3748.7934,N,12217.8467,W,1.41,108.34,031012,,,D*7B
$GPRMC,172337.000,A,3748.7931,N,12217.8462,W,1.35,101.70,031012,,,D*70
$GPRMC,172338.000,A,3748.7930,N,12217.8458,W,1.16,96.28,031012,,,D*44
$GPRMC,172339.000,A,3748.7929,N,12217.8452,W,1.62,96.34,031012,,,D*49
$GPRMC,172340.000,A,3748.7927,N,12217.8446,W,1.63,106.02,031012,,,D*70
$GPRMC,172341.000,A,3748.7924,N,12217.8439,W,2.04,116.48,031012,,,D*77
$GPRMC,172342.000,A,3748.7921,N,12217.8432,W,2.02,111.42,031012,,,D*71
$GPRMC,172343.000,A,3748.7917,N,12217.8426,W,1.99,123.15,031012,,,D*72
$GPRMC,172344.000,A,3748.7912,N,12217.8419,W,2.18,119.01,031012,,,D*7A
$GPRMC,172345.000,A,3748.7909,N,12217.8412,W,1.90,114.55,031012,,,D*75
$GPRMC,172346.000,A,3748.7906,N,12217.8405,W,1.77,103.59,031012,,,D*7C
$GPRMC,172347.000,A,3748.7900,N,12217.8397,W,1.95,96.97,031012,,,D*44
$GPRMC,172348.000,A,3748.7893,N,12217.8390,W,2.18,126.94,031012,,,D*78
$GPRMC,172349.000,A,3748.7884,N,12217.8385,W,2.23,138.43,031012,,,D*76
$GPRMC,172350.000,A,3748.7874,N,12217.8382,W,2.14,130.22,031012,,,D*7D
$GPRMC,172351.000,A,3748.7869,N,12217.8376,W,2.09,115.65,031012,,,D*73
$GPRMC,172352.000,A,3748.7866,N,12217.8369,W,1.83,107.77,031012,,,D*70
$GPRMC,172353.000,A,3748.7864,N,12217.8362,W,1.83,105.75,031012,,,D*78
$GPRMC,172354.000,A,3748.7862,N,12217.8356,W,1.78,102.56,031012,,,D*7C
$GPRMC,172355.000,A,3748.7860,N,12217.8350,W,1.64,105.89,031012,,,D*71
$GPRMC,172356.000,A,3748.7857,N,12217.8343,W,2.14,112.01,031012,,,D*76
$GPRMC,172357.000,A,3748.7855,N,12217.8336,W,1.60,103.18,031012,,,D*7F
$GPRMC,172358.000,A,3748.7853,N,12217.8328,W,1.69,111.50,031012,,,D*7F
$GPRMC,172359.000,A,3748.7851,N,12217.8321,W,1.54,116.82,031012,,,D*73
$GPRMC,172400.000,A,3748.7849,N,12217.8315,W,1.62,103.12,031012,,,D*7E
$GPRMC,172401.000,A,3748.7847,N,12217.8308,W,2.19,107.43,031012,,,D*72
$GPRMC,172402.000,A,3748.7846,N,12217.8299,W,2.29,112.23,031012,,,D*78
$GPRMC,172403.000,A,3748.7843,N,12217.8291,W,1.95,118.53,031012,,,D*7D
$GPRMC,172404.000,A,3748.7839,N,12217.8284,W,2.10,127.20,031012,,,D*75
$GPRMC,172405.000,A,3748.7835,N,12217.8276,W,2.34,123.87,031012,,,D*7A
$GPRMC,172406.000,A,3748.7831,N,12217.8267,W,2.39,111.39,031012,,,D*74
$GPRMC,172407.000,A,3748.7827,N,12217.8259,W,2.30,115.18,031012,,,D*71
$GPRMC,172408.000,A,3748.7821,N,12217.8252,W,1.94,114.03,031012,,,D*75
$GPRMC,172409.000,A,3748.7815,N,12217.8245,W,0.77,107.10,031012,,,D*79
$GPRMC,172410.000,A,3748.7809,N,12217.8241,W,1.65,130.04,031012,,,D*7B
$GPRMC,172411.000,A,3748.7804,N,12217.8234,W,2.03,115.96,031012,,,D*7A
$GPRMC,172412.000,A,3748.7800,N,12217.8225,W,2.00,116.12,031012,,,D*71
$GPRMC,172413.000,A,3748.7796,N,12217.8216,W,2.24,121.51,031012,,,D*75
$GPRMC,172414.000,A,3748.7792,N,12217.8207,W,2.31,112.13,031012,,,D*74
$GPRMC,172415.000,A,3748.7788,N,12217.8199,W,2.30,120.10,031012,,,D*79
$GPRMC,172416.000,A,3748.7783,N,12217.8191,W,2.24,113.40,031012,,,D*79
$GPRMC,172417.000,A,3748.7780,N,12217.8183,W,1.99,110.02,031012,,,D*78
$GPRMC,172418.000,A,3748.7776,N,12217.8176,W,1.97,111.67,031012,,,D*78
$GPRMC,172419.000,A,3748.7772,N,12217.8168,W,2.35,120.42,031012,,,D*7C
$GPRMC,172420.000,A,3748.7767,N,12217.8161,W,2.44,116.65,031012,,,D*7D
$GPRMC,172421.000,A,3748.7764,N,12217.8151,W,2.38,115.58,031012,,,D*7A
$GPRMC,172422.000,A,3748.7759,N,12217.8143,W,2.15,114.89,031012,,,D*76
$GPRMC,172423.000,A,3748.7754,N,12217.8134,W,2.53,119.21,031012,,,D*77
$GPRMC,172424.000,A,3748.7748,N,12217.8126,W,2.45,117.22,031012,,,D*74
$GPRMC,172425.000,A,3748.7744,N,12217.8117,W,2.28,108.90,031012,,,D*77
$GPRMC,172426.000,A,3748.7740,N,12217.8109,W,1.86,109.37,031012,,,D*74
$GPRMC,172427.000,A,3748.7737,N,12217.8101,W,2.31,109.67,031012,,,D*77
$GPRMC,172428.000,A,3748.7734,N,12217.8093,W,2.10,110.66,031012,,,D*7B
$GPRMC,172429.000,A,3748.7730,N,12217.8086,W,1.88,112.45,031012,,,D*7B
$GPRMC,172430.000,A,3748.7726,N,12217.8079,W,2.19,114.65,031012,,,D*7B
$GPRMC,172431.000,A,3748.7721,N,12217.8070,W,2.22,112.33,031012,,,D*79
$GPRMC,172432.000,A,3748.7717,N,12217.8060,W,2.51,109.50,031012,,,D*75
$GPRMC,172433.000,A,3748.7714,N,12217.8051,W,2.47,112.01,031012,,,D*7C
$GPRMC,172434.000,A,3748.7711,N,12217.8042,W,2.60,117.64,031012,,,D*7F
$GPRMC,172435.000,A,3748.7708,N,12217.8034,W,2.39,115.03,031012,,,D*78
$GPRMC,172436.000,A,3748.7703,N,12217.8026,W,2.74,122.87,031012,,,D*72
$GPRMC,172437.000,A,3748.7697,N,12217.8018,W,2.58,128.19,031012,,,D*71
$GPRMC,172438.000,A,3748.7687,N,12217.8015,W,2.38,126.12,031012,,,D*71
$GPRMC,172439.000,A,3748.7681,N,12217.8007,W,2.31,120.11,031012,,,D*79
$GPRMC,172440.000,A,3748.7675,N,12217.8000,W,2.34,122.86,031012,,,D*72
$GPRMC,172441.000,A,3748.7670,N,12217.7994,W,1.99,121.38,031012,,,D*7F
$GPRMC,172442.000,A,3748.7664,N,12217.7986,W,1.89,114.39,031012,,,D*7C
$GPRMC,172443.000,A,3748.7659,N,12217.7978,W,2.15,110.67,031012,,,D*7B
$GPRMC,172444.000,A,3748.7653,N,12217.7969,W,2.11,99.32,031012,,,D*42
$GPRMC,172445.000,A,3748.7651,N,12217.7959,W,2.45,102.81,031012,,,D*78
$GPRMC,172446.000,A,3748.7648,N,12217.7950,W,2.70,116.91,031012,,,D*78
$GPRMC,172447.000,A,3748.7636,N,12217.7949,W,2.44,119.11,031012,,,D*78
$GPRMC,172448.000,A,3748.7630,N,12217.7942,W,2.78,125.71,031012,,,D*7C
$GPRMC,172449.000,A,3748.7624,N,12217.7934,W,2.48,122.30,031012,,,D*78
$GPRMC,172450.000,A,3748.7621,N,12217.7926,W,2.28,110.78,031012,,,D*7D
$GPRMC,172451.000,A,3748.7618,N,12217.7919,W,1.94,103.95,031012,,,D*7F
$GPRMC,172452.000,A,3748.7616,N,12217.7912,W,2.01,106.49,031012,,,D*72
$GPRMC,172453.000,A,3748.7609,N,12217.7904,W,2.23,118.06,031012,,,D*7E
$GPRMC,172454.000,A,3748.7605,N,12217.7895,W,2.45,102.68,031012,,,D*7F
$GPRMC,172455.000,A,3748.7604,N,12217.7886,W,2.38,103.74,031012,,,D*7B
$GPRMC,172456.000,A,3748.7602,N,12217.7878,W,2.11,107.03,031012,,,D*70
$GPRMC,172457.000,A,3748.7600,N,12217.7870,W,2.17,119.75,031012,,,D*73
$GPRMC,172458.000,A,3748.7596,N,12217.7863,W,2.43,127.82,031012,,,D*76
$GPRMC,172459.000,A,3748.7591,N,12217.7855,W,2.21,106.73,031012,,,D*7C
$GPRMC,172500.000,A,3748.7585,N,12217.7846,W,2.46,108.01,031012,,,D*7C
$GPRMC,172501.000,A,3748.7578,N,12217.7838,W,2.46,115.98,031012,,,D*7A
$GPRMC,172502.000,A,3748.7573,N,12217.7830,W,2.17,109.95,031012,,,D*7E
$GPRMC,172503.000,A,3748.7570,N,12217.7825,W,2.06,100.69,031012,,,D*72
$GPRMC,172504.000,A,3748.7564,N,12217.7817,W,2.40,112.06,031012,,,D*79
$GPRMC,172505.000,A,3748.7559,N,12217.7809,W,2.33,124.56,031012,,,D*7D
$GPRMC,172506.000,A,3748.7554,N,12217.7802,W,2.18,120.55,031012,,,D*76
$GPRMC,172507.000,A,3748.7550,N,12217.7794,W,2.23,101.61,031012,,,D*7F
$GPRMC,172508.000,A,3748.7547,N,12217.7787,W,1.83,97.82,031012,,,D*4E
$GPRMC,172509.000,A,3748.7544,N,12217.7781,W,1.65,103.65,031012,,,D*77
$GPRMC,172510.000,A,3748.7542,N,12217.7771,W,2.32,87.65,031012,,,D*4A
$GPRMC,172511.000,A,3748.7541,N,12217.7762,W,2.19,81.92,031012,,,D*4D
$GPRMC,172512.000,A,3748.7540,N,12217.7753,W,2.11,103.75,031012,,,D*77
$GPRMC,172513.000,A,3748.7536,N,12217.7742,W,2.30,104.76,031012,,,D*70
$GPRMC,172514.000,A,3748.7532,N,12217.7732,W,2.20,117.58,031012,,,D*7B
$GPRMC,172515.000,A,3748.7529,N,12217.7723,W,2.64,118.69,031012,,,D*7D
$GPRMC,172516.000,A,3748.7525,N,12217.7715,W,2.44,117.17,031012,,,D*73
$GPRMC,172517.000,A,3748.7523,N,12217.7702,W,2.77,111.81,031012,,,D*7B
$GPRMC,172518.000,A,3748.7520,N,12217.7691,W,2.58,113.65,031012,,,D*79
$GPRMC,172519.000,A,3748.7518,N,12217.7681,W,2.57,117.93,031012,,,D*70
$GPRMC,172520.000,A,3748.7515,N,12217.7672,W,2.70,122.18,031012,,,D*7B
$GPRMC,172521.000,A,3748.7512,N,12217.7662,W,2.55,122.80,031012,,,D*7A
$GPRMC,172522.000,A,3748.7509,N,12217.7653,W,2.71,118.34,031012,,,D*71
$GPRMC,172523.000,A,3748.7507,N,12217.7643,W,2.69,116.46,031012,,,D*7D
$GPRMC,172524.000,A,3748.7504,N,12217.7634,W,2.58,114.49,031012,,,D*76
$GPRMC,172525.000,A,3748.7502,N,12217.7624,W,2.50,115.41,031012,,,D*71
$GPRMC,172526.000,A,3748.7500,N,12217.7616,W,2.39,108.71,031012,,,D*71
$GPRMC,172527.000,A,3748.7497,N,12217.7608,W,2.44,116.54,031012,,,D*72
$GPRMC,172528.000,A,3748.7493,N,12217.7599,W,2.68,123.00,031012,,,D*7B
$GPRMC,172529.000,A,3748.7489,N,12217.7591,W,2.57,114.72,031012,,,D*74
$GPRMC,172530.000,A,3748.7485,N,12217.7582,W,2.43,116.70,031012,,,D*77
$GPRMC,172531.000,A,3748.7469,N,12217.7583,W,2.50,118.29,031012,,,D*75
$GPRMC,172532.000,A,3748.7463,N,12217.7576,W,2.22,119.43,031012,,,D*7E
$GPRMC,172533.000,A,3748.7459,N,12217.7569,W,1.79,103.60,031012,,,D*7F
$GPRMC,172534.000,A,3748.7456,N,12217.7563,W,1.64,111.71,031012,,,D*72
$GPRMC,172535.000,A,3748.7456,N,12217.7554,W,1.79,110.53,031012,,,D*7A
$GPRMC,172536.000,A,3748.7456,N,12217.7545,W,1.78,113.66,031012,,,D*7D
$GPRMC,172537.000,A,3748.7455,N,12217.7538,W,1.76,106.02,031012,,,D*7D
$GPRMC,172538.000,A,3748.7454,N,12217.7531,W,1.72,107.63,031012,,,D*78
$GPRMC,172539.000,A,3748.7452,N,12217.7525,W,1.95,111.18,031012,,,D*78
$GPRMC,172540.000,A,3748.7452,N,12217.7518,W,1.97,104.18,031012,,,D*7E
$GPRMC,172541.000,A,3748.7451,N,12217.7510,W,2.08,104.22,031012,,,D*78
$GPRMC,172542.000,A,3748.7446,N,12217.7502,W,2.55,104.39,031012,,,D*7C
$GPRMC,172543.000,A,3748.7441,N,12217.7493,W,2.45,104.63,031012,,,D*7D
$GPRMC,172544.000,A,3748.7437,N,12217.7483,W,2.40,95.90,031012,,,D*4A
$GPRMC,172545.000,A,3748.7429,N,12217.7475,W,2.01,109.33,031012,,,D*75
$GPRMC,172546.000,A,3748.7425,N,12217.7466,W,2.29,101.05,031012,,,D*7F
$GPRMC,172547.000,A,3748.7426,N,12217.7459,W,1.43,101.88,031012,,,D*7B
$GPRMC,172548.000,A,3748.7427,N,12217.7451,W,1.63,99.00,031012,,,D*4F
$GPRMC,172549.000,A,3748.7424,N,12217.7446,W,1.56,118.33,031012,,,D*75
$GPRMC,172550.000,A,3748.7420,N,12217.7442,W,1.79,114.39,031012,,,D*76
$GPRMC,172551.000,A,3748.7416,N,12217.7436,W,1.61,107.59,031012,,,D*7C
$GPRMC,172552.000,A,3748.7414,N,12217.7429,W,1.88,100.88,031012,,,A*7A
$GPRMC,172553.000,A,3748.7414,N,12217.7423,W,1.58,109.55,031012,,,A*75
$GPRMC,172554.000,A,3748.7412,N,12217.7413,W,2.28,106.79,031012,,,A*72
$GPRMC,172555.000,A,3748.7407,N,12217.7405,W,2.31,101.53,031012,,,A*77
$GPRMC,172556.000,A,3748.7405,N,12217.7397,W,2.04,110.41,031012,,,A*7F
$GPRMC,172557.000,A,3748.7398,N,12217.7389,W,1.87,104.58,031012,,,A*77
$GPRMC,172558.000,A,3748.7393,N,12217.7379,W,2.53,114.25,031012,,,A*7D
$GPRMC,172559.000,A,3748.7388,N,12217.7369,W,2.21,107.21,031012,,,A*74
$GPRMC,172600.000,A,3748.7382,N,12217.7359,W,1.86,111.09,031012,,,A*71
$GPRMC,172601.000,A,3748.7379,N,12217.7350,W,1.53,104.79,031012,,,A*76
$GPRMC,172602.000,A,3748.7376,N,12217.7345,W,1.06,93.66,031012,,,A*4F
$GPRMC,172603.000,A,3748.7374,N,12217.7340,W,1.17,100.88,031012,,,A*72
$GPRMC,172604.000,A,3748.7371,N,12217.7333,W,1.51,96.38,031012,,,A*43
$GPRMC,172605.000,A,3748.7368,N,12217.7325,W,1.66,98.41,031012,,,A*49
$GPRMC,172606.000,A,3748.7365,N,12217.7312,W,1.99,102.26,031012,,,A*70
$GPRMC,172607.000,A,3748.7358,N,12217.7303,W,2.13,98.17,031012,,,A*4E
$GPRMC,172608.000,A,3748.7352,N,12217.7294,W,2.45,102.32,031012,,,A*72
$GPRMC,172609.000,A,3748.7344,N,12217.7285,W,2.54,103.53,031012,,,D*77
$GPRMC,172610.000,A,3748.7339,N,12217.7276,W,2.17,103.41,031012,,,D*7D
$GPRMC,172611.000,A,3748.7335,N,12217.7268,W,2.10,102.16,031012,,,D*7B
$GPRMC,172612.000,A,3748.7333,N,12217.7258,W,2.36,104.42,031012,,,D*7E
$GPRMC,172613.000,A,3748.7329,N,12217.7249,W,2.36,109.65,031012,,,D*7C
$GPRMC,172614.000,A,3748.7326,N,12217.7240,W,2.51,100.11,031012,,,D*76
$GPRMC,172615.000,A,3748.7319,N,12217.7233,W,2.41,110.25,031012,,,D*78
$GPRMC,172616.000,A,3748.7312,N,12217.7226,W,2.48,118.26,031012,,,D*76
$GPRMC,172617.000,A,3748.7307,N,12217.7218,W,2.48,112.17,031012,,,D*76
$GPRMC,172618.000,A,3748.7302,N,12217.7209,W,2.46,114.19,031012,,,D*7A
$GPRMC,172619.000,A,3748.7299,N,12217.7199,W,2.65,114.25,031012,,,D*7C
$GPRMC,172620.000,A,3748.7296,N,12217.7189,W,2.02,96.58,031012,,,D*48
$GPRMC,172621.000,A,3748.7297,N,12217.7181,W,2.36,53.80,031012,,,D*4B
$GPRMC,172622.000,A,3748.7302,N,12217.7174,W,2.55,40.39,031012,,,D*4A
$GPRMC,172623.000,A,3748.7307,N,12217.7168,W,2.63,32.26,031012,,,D*4D
$GPRMC,172624.000,A,3748.7313,N,12217.7163,W,2.52,28.78,031012,,,D*46
$GPRMC,172625.000,A,3748.7318,N,12217.7158,W,2.49,18.39,031012,,,D*48
$GPRMC,172626.000,A,3748.7325,N,12217.7155,W,2.93,14.82,031012,,,D*43
$GPRMC,172627.000,A,3748.7333,N,12217.7151,W,2.85,16.45,031012,,,D*4F
$GPRMC,172628.000,A,3748.7340,N,12217.7147,W,2.47,6.05,031012,,,D*78
$GPRMC,172629.000,A,3748.7347,N,12217.7142,W,2.31,17.83,031012,,,D*44
$GPRMC,172630.000,A,3748.7351,N,12217.7135,W,1.92,31.02,031012,,,D*4C
$GPRMC,172631.000,A,3748.7356,N,12217.7130,W,2.44,34.01,031012,,,D*41
$GPRMC,172632.000,A,3748.7357,N,12217.7117,W,2.19,23.38,031012,,,D*42
$GPRMC,172633.000,A,3748.7359,N,12217.7109,W,2.28,14.90,031012,,,D*46
$GPRMC,172634.000,A,3748.7362,N,12217.7101,W,2.22,20.97,031012,,,D*4B
$GPRMC,172635.000,A,3748.7367,N,12217.7094,W,2.29,26.07,031012,,,D*46
$GPRMC,172636.000,A,3748.7372,N,12217.7090,W,2.46,28.48,031012,,,D*49
$GPRMC,172637.000,A,3748.7379,N,12217.7084,W,2.62,23.07,031012,,,D*40
$GPRMC,172638.000,A,3748.7384,N,12217.7077,W,2.41,28.11,031012,,,D*4C
$GPRMC,172639.000,A,3748.7391,N,12217.7070,W,1.99,14.29,031012,,,D*4C
$GPRMC,172640.000,A,3748.7398,N,12217.7063,W,2.63,13.58,031012,,,A*4B
$GPRMC,172641.000,A,3748.7406,N,12217.7058,W,2.53,15.86,031012,,,A*44
$GPRMC,172642.000,A,3748.7413,N,12217.7054,W,2.26,18.37,031012,,,A*4A
$GPRMC,172643.000,A,3748.7416,N,12217.7043,W,2.28,23.64,031012,,,A*48
$GPRMC,172644.000,A,3748.7422,N,12217.7035,W,2.68,31.97,031012,,,A*42
$GPRMC,172645.000,A,3748.7428,N,12217.7028,W,2.57,27.76,031012,,,A*41
$GPRMC,172646.000,A,3748.7432,N,12217.7017,W,2.32,28.28,031012,,,A*42
$GPRMC,172647.000,A,3748.7439,N,12217.7012,W,2.64,14.11,031012,,,A*4B
$GPRMC,172648.000,A,3748.7447,N,12217.7006,W,2.50,20.77,031012,,,A*48
$GPRMC,172649.000,A,3748.7455,N,12217.7001,W,2.25,21.08,031012,,,A*46
$GPRMC,172650.000,A,3748.7461,N,12217.6998,W,2.22,13.98,031012,,,A*4E
$GPRMC,172651.000,A,3748.7467,N,12217.6994,W,2.27,21.69,031012,,,A*4F
$GPRMC,172652.000,A,3748.7474,N,12217.6988,W,2.31,20.91,031012,,,A*42
$GPRMC,172653.000,A,3748.7481,N,12217.6982,W,2.10,24.54,031012,,,A*4D
$GPRMC,172654.000,A,3748.7488,N,12217.6973,W,2.37,17.69,031012,,,A*46
$GPRMC,172655.000,A,3748.7496,N,12217.6964,W,2.49,19.06,031012,,,A*40
$GPRMC,172656.000,A,3748.7501,N,12217.6955,W,2.46,18.33,031012,,,A*46
$GPRMC,172657.000,A,3748.7505,N,12217.6945,W,2.58,19.37,031012,,,A*48
$GPRMC,172658.000,A,3748.7513,N,12217.6939,W,2.86,13.12,031012,,,A*45
$GPRMC,172659.000,A,3748.7522,N,12217.6934,W,3.00,9.12,031012,,,A*7F
$GPRMC,172700.000,A,3748.7532,N,12217.6929,W,2.96,4.34,031012,,,A*78
$GPRMC,172701.000,A,3748.7540,N,12217.6923,W,3.31,23.95,031012,,,A*44
$GPRMC,172702.000,A,3748.7549,N,12217.6918,W,2.87,21.62,031012,,,A*40
$GPRMC,172703.000,A,3748.7555,N,12217.6912,W,2.76,23.76,031012,,,A*4F
$GPRMC,172704.000,A,3748.7563,N,12217.6904,W,2.54,24.90,031012,,,A*45
$GPRMC,172705.000,A,3748.7568,N,12217.6896,W,2.91,17.27,031012,,,A*40
$GPRMC,172706.000,A,3748.7576,N,12217.6888,W,2.74,25.54,031012,,,A*4D
$GPRMC,172707.000,A,3748.7583,N,12217.6883,W,2.10,27.58,031012,,,A*41
$GPRMC,172708.000,A,3748.7591,N,12217.6877,W,2.61,17.49,031012,,,A*43
$GPRMC,172709.000,A,3748.7599,N,12217.6871,W,2.61,19.95,031012,,,A*43
$GPRMC,172710.000,A,3748.7607,N,12217.6862,W,2.76,20.78,031012,,,A*42
$GPRMC,172711.000,A,3748.7613,N,12217.6853,W,2.55,24.80,031012,,,A*46
$GPRMC,172712.000,A,3748.7620,N,12217.6844,W,2.45,26.81,031012,,,A*41
$GPRMC,172713.000,A,3748.7625,N,12217.6836,W,2.60,28.27,031012,,,A*45
$GPRMC,172714.000,A,3748.7631,N,12217.6828,W,2.73,29.79,031012,,,A*40
$GPRMC,172715.000,A,3748.7637,N,12217.6824,W,2.66,30.35,031012,,,A*4F
$GPRMC,172716.000,A,3748.7643,N,12217.6818,W,2.63,27.62,031012,,,A*41
$GPRMC,172717.000,A,3748.7649,N,12217.6814,W,2.93,20.67,031012,,,A*4B
$GPRMC,172718.000,A,3748.7658,N,12217.6813,W,3.04,18.43,031012,,,A*41
$GPRMC,172719.000,A,3748.7665,N,12217.6812,W,2.34,18.33,031012,,,A*4A
$GPRMC,172720.000,A,3748.7671,N,12217.6808,W,2.43,24.71,031012,,,A*47
$GPRMC,172721.000,A,3748.7677,N,12217.6802,W,2.99,16.80,031012,,,A*42
$GPRMC,172722.000,A,3748.7685,N,12217.6799,W,2.69,21.85,031012,,,A*4F
$GPRMC,172723.000,A,3748.7692,N,12217.6796,W,2.64,16.11,031012,,,A*43
$GPRMC,172724.000,A,3748.7699,N,12217.6794,W,2.75,12.81,031012,,,A*40
$GPRMC,172725.000,A,3748.7708,N,12217.6788,W,2.89,3.78,031012,,,A*70
$GPRMC,172726.000,A,3748.7717,N,12217.6784,W,2.79,7.71,031012,,,A*73
$GPRMC,172727.000,A,3748.7725,N,12217.6782,W,2.58,7.35,031012,,,A*76
$GPRMC,172728.000,A,3748.7732,N,12217.6781,W,2.61,8.81,031012,,,A*76
$GPRMC,172729.000,A,3748.7738,N,12217.6780,W,2.50,13.91,031012,,,A*45
$GPRMC,172730.000,A,3748.7745,N,12217.6775,W,2.71,15.84,031012,,,A*4C
$GPRMC,172731.000,A,3748.7752,N,12217.6769,W,2.49,18.80,031012,,,A*44
$GPRMC,172732.000,A,3748.7759,N,12217.6765,W,2.11,13.11,031012,,,A*4E
$GPRMC,172733.000,A,3748.7763,N,12217.6759,W,1.79,25.97,031012,,,A*4F
$GPRMC,172734.000,A,3748.7768,N,12217.6755,W,2.48,13.57,031012,,,A*47
$GPRMC,172735.000,A,3748.7774,N,12217.6749,W,2.52,25.71,031012,,,A*4C
$GPRMC,172736.000,A,3748.7781,N,12217.6745,W,2.55,24.27,031012,,,A*4C
$GPRMC,172737.000,A,3748.7785,N,12217.6738,W,2.30,14.44,031012,,,A*46
$GPRMC,172738.000,A,3748.7790,N,12217.6732,W,2.28,19.57,031012,,,A*41
$GPRMC,172739.000,A,3748.7796,N,12217.6727,W,2.34,19.90,031012,,,A*44
$GPRMC,172740.000,A,3748.7801,N,12217.6723,W,2.11,4.48,031012,,,A*71
$GPRMC,172741.000,A,3748.7808,N,12217.6717,W,2.21,15.16,031012,,,A*46
$GPRMC,172742.000,A,3748.7815,N,12217.6710,W,2.76,12.90,031012,,,A*45
$GPRMC,172743.000,A,3748.7824,N,12217.6708,W,2.67,12.95,031012,,,A*4A
$GPRMC,172744.000,A,3748.7832,N,12217.6707,W,2.73,11.09,031012,,,A*46
$GPRMC,172745.000,A,3748.7840,N,12217.6707,W,2.15,17.53,031012,,,A*4B
$GPRMC,172746.000,A,3748.7848,N,12217.6704,W,2.22,20.81,031012,,,A*4C
$GPRMC,172747.000,A,3748.7855,N,12217.6700,W,2.66,12.20,031012,,,A*4F
$GPRMC,172748.000,A,3748.7861,N,12217.6694,W,2.05,18.29,031012,,,A*4D
$GPRMC,172749.000,A,3748.7865,N,12217.6688,W,2.01,21.18,031012,,,A*49
$GPRMC,172750.000,A,3748.7873,N,12217.6678,W,2.87,16.41,031012,,,A*4F
$GPRMC,172751.000,A,3748.7883,N,12217.6674,W,3.15,11.93,031012,,,A*4F
$GPRMC,172752.000,A,3748.7892,N,12217.6670,W,2.89,9.34,031012,,,A*78
$GPRMC,172753.000,A,3748.7901,N,12217.6668,W,2.90,8.43,031012,,,A*72
$GPRMC,172754.000,A,3748.7909,N,12217.6664,W,2.20,359.67,031012,,,A*7B
$GPRMC,172755.000,A,3748.7917,N,12217.6661,W,1.81,7.93,031012,,,A*7B
$GPRMC,172756.000,A,3748.7924,N,12217.6658,W,2.37,14.13,031012,,,A*46
$GPRMC,172757.000,A,3748.7931,N,12217.6652,W,2.48,23.10,031012,,,A*46
$GPRMC,172758.000,A,3748.7938,N,12217.6647,W,2.19,13.57,031012,,,A*40
$GPRMC,172759.000,A,3748.7946,N,12217.6642,W,1.96,10.75,031012,,,A*4A
$GPRMC,172800.000,A,3748.7953,N,12217.6635,W,2.32,5.36,031012,,,A*73
$GPRMC,172801.000,A,3748.7959,N,12217.6634,W,1.92,5.94,031012,,,A*78
$GPRMC,172802.000,A,3748.7966,N,12217.6630,W,2.05,4.84,031012,,,A*7E
$GPRMC,172803.000,A,3748.7971,N,12217.6624,W,2.57,12.88,031012,,,A*40
$GPRMC,172804.000,A,3748.7976,N,12217.6617,W,2.90,21.20,031012,,,A*49
$GPRMC,172805.000,A,3748.7984,N,12217.6612,W,2.81,26.27,031012,,,A*40
$GPRMC,172806.000,A,3748.7990,N,12217.6605,W,2.78,29.24,031012,,,A*4A
$GPRMC,172807.000,A,3748.7996,N,12217.6598,W,2.93,33.42,031012,,,A*44
$GPRMC,172808.000,A,3748.8003,N,12217.6591,W,2.93,17.25,031012,,,A*4F
$GPRMC,172809.000,A,3748.8011,N,12217.6586,W,2.62,17.23,031012,,,A*43
$GPRMC,172810.000,A,3748.8019,N,12217.6583,W,3.04,15.42,031012,,,A*42
$GPRMC,172811.000,A,3748.8027,N,12217.6577,W,3.24,25.18,031012,,,A*4B
$GPRMC,172812.000,A,3748.8034,N,12217.6570,W,2.62,30.00,031012,,,A*43
$GPRMC,172813.000,A,3748.8040,N,12217.6564,W,2.66,31.85,031012,,,A*4C
$GPRMC,172814.000,A,3748.8047,N,12217.6558,W,2.80,26.96,031012,,,A*4F
$GPRMC,172815.000,A,3748.8055,N,12217.6554,W,3.00,11.49,031012,,,A*4E
$GPRMC,172816.000,A,3748.8062,N,12217.6550,W,2.78,8.62,031012,,,A*72
$GPRMC,172817.000,A,3748.8070,N,12217.6546,W,2.59,10.61,031012,,,A*4E
$GPRMC,172818.000,A,3748.8077,N,12217.6542,W,2.74,15.36,031012,,,A*4A
$GPRMC,172819.000,A,3748.8083,N,12217.6538,W,2.26,22.26,031012,,,A*4F
$GPRMC,172820.000,A,3748.8090,N,12217.6534,W,2.87,14.35,031012,,,A*47
$GPRMC,172821.000,A,3748.8098,N,12217.6530,W,2.76,14.06,031012,,,A*44
$GPRMC,172822.000,A,3748.8106,N,12217.6524,W,3.04,19.62,031012,,,A*4F
$GPRMC,172823.000,A,3748.8114,N,12217.6519,W,3.02,12.11,031012,,,A*4A
$GPRMC,172824.000,A,3748.8120,N,12217.6512,W,3.11,15.16,031012,,,A*43
$GPRMC,172825.000,A,3748.8127,N,12217.6504,W,2.97,20.86,031012,,,A*42
$GPRMC,172826.000,A,3748.8132,N,12217.6498,W,3.01,16.34,031012,,,A*43
$GPRMC,172827.000,A,3748.8139,N,12217.6492,W,2.96,18.34,031012,,,A*42
$GPRMC,172828.000,A,3748.8145,N,12217.6487,W,2.94,8.47,031012,,,A*75
$GPRMC,172829.000,A,3748.8151,N,12217.6483,W,2.68,10.93,031012,,,A*46
$GPRMC,172830.000,A,3748.8158,N,12217.6478,W,2.65,14.69,031012,,,A*4F
$GPRMC,172831.000,A,3748.8165,N,12217.6472,W,2.74,9.59,031012,,,A*75
$GPRMC,172832.000,A,3748.8175,N,12217.6465,W,3.01,15.03,031012,,,A*40
$GPRMC,172833.000,A,3748.8183,N,12217.6456,W,2.92,24.51,031012,,,A*46
$GPRMC,172834.000,A,3748.8189,N,12217.6450,W,2.67,27.47,031012,,,A*43
$GPRMC,172835.000,A,3748.8196,N,12217.6446,W,3.15,14.40,031012,,,A*48
$GPRMC,172836.000,A,3748.8204,N,12217.6442,W,3.14,11.82,031012,,,A*4D
$GPRMC,172837.000,A,3748.8212,N,12217.6437,W,3.13,16.73,031012,,,A*47
$GPRMC,172838.000,A,3748.8218,N,12217.6432,W,3.09,24.31,031012,,,A*4B
$GPRMC,172839.000,A,3748.8225,N,12217.6428,W,3.01,23.88,031012,,,A*42
$GPRMC,172840.000,A,3748.8232,N,12217.6420,W,3.19,27.04,031012,,,A*4B
$GPRMC,172841.000,A,3748.8238,N,12217.6410,W,3.28,27.00,031012,,,A*45
$GPRMC,172842.000,A,3748.8246,N,12217.6403,W,2.94,18.21,031012,,,A*44
$GPRMC,172843.000,A,3748.8251,N,12217.6397,W,2.75,16.46,031012,,,A*49
$GPRMC,172844.000,A,3748.8259,N,12217.6390,W,2.53,19.81,031012,,,A*41
$GPRMC,172845.000,A,3748.8268,N,12217.6386,W,2.80,18.52,031012,,,A*44
$GPRMC,172846.000,A,3748.8274,N,12217.6379,W,3.02,26.84,031012,,,A*47
$GPRMC,172847.000,A,3748.8279,N,12217.6371,W,2.93,21.69,031012,,,A*4E
$GPRMC,172848.000,A,3748.8289,N,12217.6367,W,2.77,13.37,031012,,,A*49
$GPRMC,172849.000,A,3748.8298,N,12217.6366,W,2.46,11.30,031012,,,A*4E
$GPRMC,172850.000,A,3748.8304,N,12217.6362,W,2.06,17.99,031012,,,A*47
$GPRMC,172851.000,A,3748.8305,N,12217.6356,W,1.63,19.59,031012,,,A*42
$GPRMC,172852.000,A,3748.8309,N,12217.6348,W,1.77,18.81,031012,,,A*43
$GPRMC,172853.000,A,3748.8314,N,12217.6340,W,2.45,20.23,031012,,,A*47
$GPRMC,172854.000,A,3748.8317,N,12217.6333,W,2.08,22.85,031012,,,A*40
$GPRMC,172855.000,A,3748.8319,N,12217.6326,W,2.35,32.81,031012,,,A*40
$GPRMC,172856.000,A,3748.8323,N,12217.6317,W,2.55,46.28,031012,,,A*4E
$GPRMC,172857.000,A,3748.8328,N,12217.6315,W,2.25,26.83,031012,,,A*46
$GPRMC,172858.000,A,3748.8335,N,12217.6311,W,2.76,18.09,031012,,,A*48
$GPRMC,172859.000,A,3748.8342,N,12217.6305,W,2.58,22.82,031012,,,A*4A
$GPRMC,172900.000,A,3748.8349,N,12217.6305,W,2.84,16.36,031012,,,A*45
$GPRMC,172901.000,A,3748.8356,N,12217.6298,W,2.48,26.13,031012,,,A*4B
$GPRMC,172902.000,A,3748.8362,N,12217.6292,W,2.62,24.14,031012,,,A*48
$GPRMC,172903.000,A,3748.8368,N,12217.6284,W,2.75,26.62,031012,,,A*41
$GPRMC,172904.000,A,3748.8376,N,12217.6278,W,2.77,358.98,031012,,,A*77
$GPRMC,172905.000,A,3748.8383,N,12217.6275,W,2.70,7.23,031012,,,A*7F
$GPRMC,172906.000,A,3748.8389,N,12217.6269,W,2.34,18.77,031012,,,A*44
$GPRMC,172907.000,A,3748.8395,N,12217.6261,W,2.07,21.62,031012,,,A*4E
$GPRMC,172908.000,A,3748.8402,N,12217.6250,W,1.83,19.64,031012,,,A*48
$GPRMC,172909.000,A,3748.8403,N,12217.6243,W,1.17,37.74,031012,,,A*4A
$GPRMC,172910.000,A,3748.8401,N,12217.6236,W,2.50,87.99,031012,,,A*4A
$GPRMC,172911.000,A,3748.8397,N,12217.6229,W,2.40,107.77,031012,,,A*75
$GPRMC,172912.000,A,3748.8390,N,12217.6218,W,1.86,123.51,031012,,,A*78
$GPRMC,172913.000,A,3748.8385,N,12217.6210,W,1.31,116.66,031012,,,A*7B
$GPRMC,172914.000,A,3748.8380,N,12217.6201,W,1.70,112.87,031012,,,A*77
$GPRMC,172915.000,A,3748.8377,N,12217.6194,W,1.94,115.89,031012,,,A*72
$GPRMC,172916.000,A,3748.8373,N,12217.6188,W,1.70,104.05,031012,,,A*76
$GPRMC,172917.000,A,3748.8370,N,12217.6182,W,1.92,88.40,031012,,,A*46
$GPRMC,172918.000,A,3748.8367,N,12217.6174,W,1.94,73.81,031012,,,A*49
$GPRMC,172919.000,A,3748.8363,N,12217.6167,W,2.09,65.25,031012,,,A*40
$GPRMC,172920.000,A,3748.8359,N,12217.6161,W,2.22,99.03,031012,,,A*4B
$GPRMC,172921.000,A,3748.8352,N,12217.6154,W,2.23,112.46,031012,,,A*75
$GPRMC,172922.000,A,3748.8347,N,12217.6147,W,2.33,127.96,031012,,,A*7A
$GPRMC,172923.000,A,3748.8345,N,12217.6140,W,2.79,140.98,031012,,,A*7F
$GPRMC,172924.000,A,3748.8337,N,12217.6134,W,3.00,155.72,031012,,,A*71
$GPRMC,172925.000,A,3748.8329,N,12217.6127,W,3.46,160.53,031012,,,A*7A
$GPRMC,172926.000,A,3748.8326,N,12217.6125,W,2.68,163.28,031012,,,A*76
$GPRMC,172927.000,A,3748.8323,N,12217.6120,W,2.46,130.17,031012,,,A*71
$GPRMC,172928.000,A,3748.8320,N,12217.6112,W,1.40,129.91,031012,,,A*7F
$GPRMC,172929.000,A,3748.8316,N,12217.6109,W,1.29,173.76,031012,,,A*78
$GPRMC,172930.000,A,3748.8310,N,12217.6103,W,0.79,177.51,031012,,,A*79
$GPRMC,172931.000,A,3748.8306,N,12217.6098,W,1.01,160.83,031012,,,A*7B
$GPRMC,172932.000,A,3748.8300,N,12217.6092,W,1.47,156.02,031012,,,A*7A
$GPRMC,172933.000,A,3748.8295,N,12217.6085,W,1.08,146.95,031012,,,A*74
$GPRMC,172934.000,A,3748.8293,N,12217.6079,W,1.09,117.93,031012,,,A*75
$GPRMC,172935.000,A,3748.8290,N,12217.6070,W,2.06,127.76,031012,,,A*7A
$GPRMC,172936.000,A,3748.8289,N,12217.6058,W,1.68,124.28,031012,,,A*78
$GPRMC,172937.000,A,3748.8287,N,12217.6051,W,2.00,105.12,031012,,,A*79
$GPRMC,172938.000,A,3748.8284,N,12217.6043,W,1.40,116.61,031012,,,A*77
$GPRMC,172939.000,A,3748.8278,N,12217.6032,W,2.50,119.76,031012,,,A*78
$GPRMC,172940.000,A,3748.8272,N,12217.6022,W,1.96,125.55,031012,,,A*7A
$GPRMC,172941.000,A,3748.8265,N,12217.6010,W,1.64,121.14,031012,,,A*70
$GPRMC,172942.000,A,3748.8258,N,12217.5997,W,1.38,105.95,031012,,,A*7E
$GPRMC,172943.000,A,3748.8254,N,12217.5984,W,1.53,99.67,031012,,,A*45
$GPRMC,172944.000,A,3748.8249,N,12217.5973,W,1.49,116.81,031012,,,A*73
$GPRMC,172945.000,A,3748.8244,N,12217.5963,W,1.09,115.28,031012,,,A*7A
$GPRMC,172946.000,A,3748.8241,N,12217.5953,W,1.67,104.29,031012,,,A*76
$GPRMC,172947.000,A,3748.8236,N,12217.5940,W,1.97,111.74,031012,,,A*76
$GPRMC,172948.000,A,3748.8233,N,12217.5932,W,1.59,108.64,031012,,,A*72
$GPRMC,172949.000,A,3748.8227,N,12217.5926,W,1.57,109.85,031012,,,A*73
$GPRMC,172950.000,A,3748.8225,N,12217.5918,W,2.03,112.92,031012,,,A*7A
$GPRMC,172951.000,A,3748.8221,N,12217.5909,W,1.94,114.30,031012,,,A*7C
$GPRMC,172952.000,A,3748.8215,N,12217.5904,W,1.86,114.52,031012,,,D*77
$GPRMC,172953.000,A,3748.8213,N,12217.5896,W,1.49,109.46,031012,,,D*70
$GPRMC,172954.000,A,3748.8211,N,12217.5889,W,1.49,108.21,031012,,,D*7B
$GPRMC,172955.000,A,3748.8208,N,12217.5881,W,2.37,110.19,031012,,,D*72
$GPRMC,172956.000,A,3748.8206,N,12217.5873,W,2.14,100.46,031012,,,D*78
$GPRMC,172957.000,A,3748.8201,N,12217.5867,W,2.14,95.82,031012,,,D*4E
$GPRMC,172958.000,A,3748.8195,N,12217.5860,W,2.49,114.30,031012,,,D*71
$GPRMC,172959.000,A,3748.8190,N,12217.5852,W,2.40,111.12,031012,,,D*78
$GPRMC,173000.000,A,3748.8186,N,12217.5844,W,1.83,112.40,031012,,,D*74
$GPRMC,173001.000,A,3748.8184,N,12217.5834,W,2.25,105.94,031012,,,D*70
$GPRMC,173002.000,A,3748.8182,N,12217.5826,W,1.81,103.78,031012,,,D*7F
$GPRMC,173003.000,A,3748.8180,N,12217.5818,W,1.52,113.82,031012,,,D*7B
$GPRMC,173004.000,A,3748.8178,N,12217.5812,W,1.52,117.03,031012,,,D*7C
$GPRMC,173005.000,A,3748.8174,N,12217.5804,W,2.17,108.99,031012,,,D*79
$GPRMC,173006.000,A,3748.8171,N,12217.5796,W,1.65,118.41,031012,,,D*79
$GPRMC,173007.000,A,3748.8168,N,12217.5788,W,1.52,96.11,031012,,,D*49
$GPRMC,173008.000,A,3748.8168,N,12217.5780,W,1.19,119.01,031012,,,D*76
$GPRMC,173009.000,A,3748.8166,N,12217.5772,W,0.90,101.42,031012,,,D*7A
$GPRMC,173010.000,A,3748.8161,N,12217.5763,W,0.62,127.11,031012,,,D*7A
$GPRMC,173011.000,A,3748.8153,N,12217.5755,W,0.60,51.58,031012,,,D*40
$GPRMC,173012.000,A,3748.8147,N,12217.5749,W,0.55,117.65,031012,,,D*70
$GPRMC,173013.000,A,3748.8141,N,12217.5744,W,0.68,235.62,031012,,,D*70
$GPRMC,173014.000,A,3748.8137,N,12217.5738,W,1.01,86.68,031012,,,D*43
$GPRMC,173015.000,A,3748.8136,N,12217.5729,W,1.90,96.41,031012,,,D*41
$GPRMC,173016.000,A,3748.8137,N,12217.5721,W,1.96,84.63,031012,,,D*4E
$GPRMC,173017.000,A,3748.8139,N,12217.5712,W,1.30,99.13,031012,,,D*46
$GPRMC,173018.000,A,3748.8137,N,12217.5704,W,0.72,108.56,031012,,,D*7F
$GPRMC,173019.000,A,3748.8137,N,12217.5695,W,1.99,90.56,031012,,,D*43
$GPRMC,173020.000,A,3748.8134,N,12217.5678,W,1.79,122.18,031012,,,D*75
$GPRMC,173021.000,A,3748.8125,N,12217.5664,W,2.34,138.12,031012,,,D*72
$GPRMC,173022.000,A,3748.8117,N,12217.5651,W,2.22,137.51,031012,,,D*79
$GPRMC,173023.000,A,3748.8106,N,12217.5642,W,1.87,133.67,031012,,,D*77
$GPRMC,173024.000,A,3748.8099,N,12217.5634,W,1.51,131.41,031012,,,D*7B
$GPRMC,173025.000,A,3748.8092,N,12217.5628,W,1.38,120.15,031012,,,D*72
$GPRMC,173026.000,A,3748.8090,N,12217.5623,W,1.33,104.99,031012,,,D*71
$GPRMC,173027.000,A,3748.8087,N,12217.5615,W,1.29,91.48,031012,,,D*49
$GPRMC,173028.000,A,3748.8079,N,12217.5606,W,1.31,91.32,031012,,,D*41
$GPRMC,173029.000,A,3748.8076,N,12217.5598,W,1.21,74.71,031012,,,D*46
$GPRMC,173030.000,A,3748.8079,N,12217.5591,W,1.57,68.14,031012,,,D*47
$GPRMC,173031.000,A,3748.8082,N,12217.5582,W,1.67,93.85,031012,,,D*4F
$GPRMC,173032.000,A,3748.8079,N,12217.5575,W,0.82,75.96,031012,,,D*40
$GPRMC,173033.000,A,3748.8076,N,12217.5571,W,0.84,73.18,031012,,,D*4C
$GPRMC,173034.000,A,3748.8075,N,12217.5565,W,0.95,112.78,031012,,,A*78
$GPRMC,173035.000,A,3748.8069,N,12217.5561,W,0.77,159.90,031012,,,A*75
$GPRMC,173036.000,A,3748.8062,N,12217.5559,W,0.05,349.82,031012,,,A*73
$GPRMC,173037.000,A,3748.8058,N,12217.5558,W,0.42,351.76,031012,,,A*7B
$GPRMC,173038.000,A,3748.8061,N,12217.5554,W,0.46,40.37,031012,,,A*40
$GPRMC,173039.000,A,3748.8061,N,12217.5550,W,0.69,89.60,031012,,,A*4F
$GPRMC,173040.000,A,3748.8055,N,12217.5546,W,1.25,120.17,031012,,,A*7A
$GPRMC,173041.000,A,3748.8049,N,12217.5541,W,1.84,132.83,031012,,,A*74
$GPRMC,173042.000,A,3748.8041,N,12217.5533,W,1.33,147.22,031012,,,A*7F
$GPRMC,173043.000,A,3748.8038,N,12217.5527,W,1.30,183.60,031012,,,A*78
$GPRMC,173044.000,A,3748.8035,N,12217.5525,W,1.15,212.15,031012,,,A*7E
$GPRMC,173045.000,A,3748.8031,N,12217.5527,W,1.49,186.61,031012,,,A*7D
$GPRMC,173046.000,A,3748.8024,N,12217.5532,W,1.36,189.55,031012,,,A*7E
$GPRMC,173047.000,A,3748.8021,N,12217.5535,W,1.40,208.18,031012,,,A*7F
$GPRMC,173048.000,A,3748.8017,N,12217.5539,W,1.45,223.57,031012,,,A*7E
$GPRMC,173049.000,A,3748.8012,N,12217.5542,W,2.37,221.85,031012,,,A*7D
$GPRMC,173050.000,A,3748.8010,N,12217.5550,W,2.03,221.28,031012,,,A*74
$GPRMC,173051.000,A,3748.8009,N,12217.5555,W,1.43,213.55,031012,,,A*74
$GPRMC,173052.000,A,3748.8004,N,12217.5557,W,0.91,215.71,031012,,,A*76
$GPRMC,173053.000,A,3748.7997,N,12217.5560,W,0.93,230.75,031012,,,A*7E
$GPRMC,173054.000,A,3748.7990,N,12217.5564,W,1.42,239.99,031012,,,A*7C
$GPRMC,173055.000,A,3748.7981,N,12217.5573,W,1.47,221.89,031012,,,A*76
$GPRMC,173056.000,A,3748.7969,N,12217.5582,W,1.69,222.85,031012,,,A*7E
$GPRMC,173057.000,A,3748.7960,N,12217.5591,W,1.76,216.25,031012,,,A*77
$GPRMC,173058.000,A,3748.7951,N,12217.5594,W,2.40,206.34,031012,,,A*78
$GPRMC,173059.000,A,3748.7945,N,12217.5594,W,2.17,206.34,031012,,,A*7E
$GPRMC,173100.000,A,3748.7939,N,12217.5597,W,1.74,200.04,031012,,,A*78
$GPRMC,173101.000,A,3748.7933,N,12217.5598,W,2.19,206.95,031012,,,A*7A
$GPRMC,173102.000,A,3748.7928,N,12217.5602,W,2.14,205.50,031012,,,A*74
$GPRMC,173103.000,A,3748.7924,N,12217.5609,W,2.19,212.40,031012,,,A*78
$GPRMC,173104.000,A,3748.7917,N,12217.5614,W,1.43,206.67,031012,,,A*7F
$GPRMC,173105.000,A,3748.7911,N,12217.5618,W,1.53,202.65,031012,,,A*73
$GPRMC,173106.000,A,3748.7903,N,12217.5624,W,2.18,194.86,031012,,,A*71
$GPRMC,173107.000,A,3748.7894,N,12217.5630,W,2.38,200.98,031012,,,A*79
$GPRMC,173108.000,A,3748.7883,N,12217.5634,W,2.28,199.48,031012,,,A*7B
$GPRMC,173109.000,A,3748.7879,N,12217.5638,W,2.56,206.02,031012,,,A*71
$GPRMC,173110.000,A,3748.7874,N,12217.5641,W,2.57,213.91,031012,,,D*70
$GPRMC,173111.000,A,3748.7867,N,12217.5650,W,2.89,218.02,031012,,,D*71
$GPRMC,173112.000,A,3748.7860,N,12217.5662,W,2.66,222.28,031012,,,D*74
$GPRMC,173113.000,A,3748.7852,N,12217.5670,W,3.33,220.46,031012,,,D*7C
$GPRMC,173114.000,A,3748.7845,N,12217.5676,W,2.85,216.49,031012,,,D*7D
$GPRMC,173115.000,A,3748.7838,N,12217.5675,W,2.66,208.68,031012,,,D*74
$GPRMC,173116.000,A,3748.7831,N,12217.5675,W,2.80,197.48,031012,,,D*71
$GPRMC,173117.000,A,3748.7819,N,12217.5679,W,2.21,208.83,031012,,,D*7F
$GPRMC,173118.000,A,3748.7810,N,12217.5683,W,2.28,210.67,031012,,,D*76
$GPRMC,173119.000,A,3748.7801,N,12217.5687,W,2.35,205.04,031012,,,D*7E
$GPRMC,173120.000,A,3748.7792,N,12217.5690,W,2.61,202.67,031012,,,D*74
$GPRMC,173121.000,A,3748.7778,N,12217.5698,W,2.60,207.22,031012,,,D*7C
$GPRMC,173122.000,A,3748.7769,N,12217.5706,W,2.81,212.69,031012,,,D*7D
$GPRMC,173123.000,A,3748.7767,N,12217.5707,W,2.50,223.24,031012,,,D*74
$GPRMC,173124.000,A,3748.7760,N,12217.5713,W,2.17,207.35,031012,,,D*74
$GPRMC,173125.000,A,3748.7754,N,12217.5720,W,2.18,206.36,031012,,,D*7F
$GPRMC,173126.000,A,3748.7746,N,12217.5728,W,2.12,220.61,031012,,,D*7B
$GPRMC,173127.000,A,3748.7740,N,12217.5734,W,2.56,217.27,031012,,,D*77
$GPRMC,173128.000,A,3748.7734,N,12217.5737,W,2.20,214.23,031012,,,D*7E
$GPRMC,173129.000,A,3748.7728,N,12217.5741,W,2.15,209.78,031012,,,D*77
$GPRMC,173130.000,A,3748.7721,N,12217.5744,W,2.05,210.00,031012,,,D*75
$GPRMC,173131.000,A,3748.7717,N,12217.5747,W,1.78,209.37,031012,,,D*77
$GPRMC,173132.000,A,3748.7712,N,12217.5753,W,1.65,206.77,031012,,,D*73
$GPRMC,173133.000,A,3748.7711,N,12217.5758,W,1.42,209.97,031012,,,D*7E
$GPRMC,173134.000,A,3748.7708,N,12217.5761,W,1.32,218.26,031012,,,D*76
$GPRMC,173135.000,A,3748.7706,N,12217.5761,W,0.64,165.12,031012,,,D*75
$GPRMC,173136.000,A,3748.7707,N,12217.5764,W,0.14,244.90,031012,,,D*7F
$GPRMC,173137.000,A,3748.7705,N,12217.5767,W,0.32,277.80,031012,,,D*7A
$GPRMC,173138.000,A,3748.7705,N,12217.5768,W,0.13,226.04,031012,,,D*71
$GPRMC,173139.000,A,3748.7704,N,12217.5769,W,0.34,241.02,031012,,,D*72
$GPRMC,173140.000,A,3748.7704,N,12217.5768,W,0.23,351.91,031012,,,D*71
$GPRMC,173141.000,A,3748.7702,N,12217.5766,W,0.28,254.84,031012,,,D*73
$GPRMC,173142.000,A,3748.7696,N,12217.5762,W,0.58,216.56,031012,,,D*76
$GPRMC,173143.000,A,3748.7694,N,12217.5762,W,0.40,214.31,031012,,,D*7F
$GPRMC,173144.000,A,3748.7692,N,12217.5761,W,0.38,228.43,031012,,,D*78
$GPRMC,173145.000,A,3748.7692,N,12217.5762,W,0.12,97.84,031012,,,D*4F
$GPRMC,173146.000,A,3748.7694,N,12217.5762,W,0.24,74.53,031012,,,D*48
$GPRMC,173147.000,A,3748.7695,N,12217.5762,W,0.10,222.56,031012,,,D*7B
$GPRMC,173148.000,A,3748.7693,N,12217.5762,W,0.29,0.97,031012,,,D*77
$GPRMC,173149.000,A,3748.7696,N,12217.5762,W,0.38,22.69,031012,,,D*42
$GPRMC,173150.000,A,3748.7698,N,12217.5763,W,0.26,47.13,031012,,,D*44
$GPRMC,173151.000,A,3748.7702,N,12217.5762,W,0.31,16.15,031012,,,D*42
$GPRMC,173152.000,A,3748.7703,N,12217.5761,W,0.49,10.33,031012,,,D*4E
$GPRMC,173153.000,A,3748.7701,N,12217.5764,W,0.19,312.15,031012,,,D*78
$GPRMC,173154.000,A,3748.7697,N,12217.5768,W,1.22,222.11,031012,,,D*72
$GPRMC,173155.000,A,3748.7695,N,12217.5772,W,2.05,220.37,031012,,,D*7A
$GPRMC,173156.000,A,3748.7689,N,12217.5778,W,2.66,209.24,031012,,,D*72
$GPRMC,173157.000,A,3748.7682,N,12217.5783,W,2.83,213.12,031012,,,D*79
$GPRMC,173158.000,A,3748.7676,N,12217.5789,W,2.74,217.25,031012,,,D*7F
$GPRMC,173159.000,A,3748.7670,N,12217.5796,W,2.60,224.03,031012,,,D*77
$GPRMC,173200.000,A,3748.7665,N,12217.5802,W,2.66,222.38,031012,,,D*76
$GPRMC,173201.000,A,3748.7658,N,12217.5807,W,2.80,206.15,031012,,,D*7D
$GPRMC,173202.000,A,3748.7651,N,12217.5811,W,2.66,201.34,031012,,,D*7C
$GPRMC,173203.000,A,3748.7644,N,12217.5815,W,2.52,206.93,031012,,,D*70
$GPRMC,173204.000,A,3748.7637,N,12217.5820,W,2.82,209.91,031012,,,D*75
$GPRMC,173205.000,A,3748.7630,N,12217.5825,W,2.96,206.95,031012,,,D*78
$GPRMC,173206.000,A,3748.7622,N,12217.5830,W,2.76,212.15,031012,,,D*7F
$GPRMC,173207.000,A,3748.7616,N,12217.5835,W,2.48,208.24,031012,,,D*78
$GPRMC,173208.000,A,3748.7609,N,12217.5839,W,2.53,207.50,031012,,,D*73
$GPRMC,173209.000,A,3748.7602,N,12217.5844,W,2.72,215.74,031012,,,D*75
$GPRMC,173210.000,A,3748.7598,N,12217.5852,W,2.62,220.82,031012,,,A*71
$GPRMC,173211.000,A,3748.7592,N,12217.5855,W,2.37,209.19,031012,,,A*74
$GPRMC,173212.000,A,3748.7586,N,12217.5855,W,2.25,200.87,031012,,,A*7F
$GPRMC,173213.000,A,3748.7578,N,12217.5857,W,2.47,202.67,031012,,,A*75
$GPRMC,173214.000,A,3748.7572,N,12217.5861,W,2.24,208.58,031012,,,A*7E
$GPRMC,173215.000,A,3748.7563,N,12217.5870,W,1.91,191.46,031012,,,A*7E
$GPRMC,173216.000,A,3748.7556,N,12217.5876,W,1.88,184.70,031012,,,A*74
$GPRMC,173217.000,A,3748.7545,N,12217.5885,W,1.91,193.22,031012,,,A*72
$GPRMC,173218.000,A,3748.7537,N,12217.5892,W,1.97,197.13,031012,,,A*7E
$GPRMC,173219.000,A,3748.7527,N,12217.5902,W,2.06,214.50,031012,,,A*72
$GPRMC,173220.000,A,3748.7522,N,12217.5908,W,1.79,222.11,031012,,,A*7C
$GPRMC,173221.000,A,3748.7520,N,12217.5909,W,1.82,220.10,031012,,,A*79
$GPRMC,173222.000,A,3748.7515,N,12217.5910,W,2.04,215.62,031012,,,A*7A
$GPRMC,173223.000,A,3748.7507,N,12217.5912,W,1.69,196.25,031012,,,A*79
$GPRMC,173224.000,A,3748.7505,N,12217.5909,W,1.72,194.74,031012,,,A*7A
$GPRMC,173225.000,A,3748.7502,N,12217.5913,W,1.84,227.42,031012,,,A*70
$GPRMC,173226.000,A,3748.7497,N,12217.5919,W,2.10,209.32,031012,,,A*71
$GPRMC,173227.000,A,3748.7492,N,12217.5924,W,2.17,211.94,031012,,,A*79
$GPRMC,173228.000,A,3748.7482,N,12217.5928,W,2.51,211.29,031012,,,A*7F
$GPRMC,173229.000,A,3748.7472,N,12217.5937,W,2.45,213.87,031012,,,A*7C
$GPRMC,173230.000,A,3748.7461,N,12217.5947,W,2.26,194.98,031012,,,A*76
$GPRMC,173231.000,A,3748.7452,N,12217.5954,W,2.08,186.10,031012,,,A*7A
$GPRMC,173232.000,A,3748.7440,N,12217.5963,W,2.33,188.16,031012,,,A*7E
$GPRMC,173233.000,A,3748.7431,N,12217.5966,W,2.39,190.63,031012,,,A*7D
$GPRMC,173234.000,A,3748.7423,N,12217.5977,W,2.42,208.63,031012,,,A*77
$GPRMC,173235.000,A,3748.7414,N,12217.5985,W,2.44,216.79,031012,,,A*7D
$GPRMC,173236.000,A,3748.7410,N,12217.5988,W,1.98,213.62,031012,,,A*7A
$GPRMC,173237.000,A,3748.7400,N,12217.5994,W,2.26,214.08,031012,,,A*7A
$GPRMC,173238.000,A,3748.7397,N,12217.6000,W,2.51,206.84,031012,,,A*7C
$GPRMC,173239.000,A,3748.7388,N,12217.6010,W,2.41,205.33,031012,,,A*7C
$GPRMC,173240.000,A,3748.7383,N,12217.6016,W,2.30,198.47,031012,,,A*7D
$GPRMC,173241.000,A,3748.7376,N,12217.6021,W,2.66,207.86,031012,,,A*79
$GPRMC,173242.000,A,3748.7371,N,12217.6026,W,2.65,208.90,031012,,,A*71
$GPRMC,173243.000,A,3748.7366,N,12217.6033,W,2.53,210.40,031012,,,A*73
$GPRMC,173244.000,A,3748.7362,N,12217.6039,W,2.35,205.51,031012,,,A*7E
$GPRMC,173245.000,A,3748.7357,N,12217.6044,W,2.29,209.86,031012,,,A*78
$GPRMC,173246.000,A,3748.7350,N,12217.6047,W,2.65,215.58,031012,,,A*79
$GPRMC,173247.000,A,3748.7344,N,12217.6052,W,2.39,213.48,031012,,,A*77
$GPRMC,173248.000,A,3748.7341,N,12217.6057,W,2.18,213.37,031012,,,A*73
$GPRMC,173249.000,A,3748.7338,N,12217.6064,W,2.36,212.52,031012,,,A*72
$GPRMC,173250.000,A,3748.7332,N,12217.6069,W,2.28,211.94,031012,,,A*7B
$GPRMC,173251.000,A,3748.7328,N,12217.6076,W,2.54,217.41,031012,,,A*7A
$GPRMC,173252.000,A,3748.7322,N,12217.6082,W,2.41,219.17,031012,,,A*71
$GPRMC,173253.000,A,3748.7317,N,12217.6088,W,2.43,217.33,031012,,,A*76
$GPRMC,173254.000,A,3748.7310,N,12217.6093,W,2.46,213.55,031012,,,A*7D
$GPRMC,173255.000,A,3748.7302,N,12217.6099,W,2.71,216.06,031012,,,A*72
$GPRMC,173256.000,A,3748.7295,N,12217.6105,W,2.53,213.73,031012,,,A*7D
$GPRMC,173257.000,A,3748.7287,N,12217.6110,W,2.68,207.60,031012,,,A*74
$GPRMC,173258.000,A,3748.7279,N,12217.6115,W,3.31,205.30,031012,,,A*75
$GPRMC,173259.000,A,3748.7271,N,12217.6119,W,2.65,200.43,031012,,,A*71
$GPRMC,173300.000,A,3748.7264,N,12217.6122,W,2.36,198.98,031012,,,A*72
$GPRMC,173301.000,A,3748.7257,N,12217.6125,W,2.14,196.58,031012,,,A*76
$GPRMC,173302.000,A,3748.7251,N,12217.6128,W,2.38,198.94,031012,,,A*7E
$GPRMC,173303.000,A,3748.7244,N,12217.6131,W,2.27,198.41,031012,,,A*75
$GPRMC,173304.000,A,3748.7238,N,12217.6133,W,2.19,193.99,031012,,,A*78
$GPRMC,173305.000,A,3748.7231,N,12217.6135,W,2.04,187.72,031012,,,A*7A
$GPRMC,173306.000,A,3748.7226,N,12217.6140,W,2.01,202.21,031012,,,A*70
$GPRMC,173307.000,A,3748.7222,N,12217.6148,W,1.75,194.34,031012,,,A*75
$GPRMC,173308.000,A,3748.7219,N,12217.6154,W,1.94,184.81,031012,,,A*7F
$GPRMC,173309.000,A,3748.7215,N,12217.6160,W,1.95,193.24,031012,,,A*7D
$GPRMC,173310.000,A,3748.7207,N,12217.6171,W,1.82,201.08,031012,,,A*76
$GPRMC,173311.000,A,3748.7203,N,12217.6177,W,1.56,205.21,031012,,,A*73
$GPRMC,173312.000,A,3748.7198,N,12217.6178,W,1.23,205.80,031012,,,A*77
$GPRMC,173313.000,A,3748.7192,N,12217.6181,W,1.87,211.32,031012,,,A*78
$GPRMC,173314.000,A,3748.7186,N,12217.6183,W,1.89,201.26,031012,,,A*72
$GPRMC,173315.000,A,3748.7181,N,12217.6187,W,1.97,195.40,031012,,,A*71
$GPRMC,173316.000,A,3748.7176,N,12217.6189,W,1.87,194.68,031012,,,A*7E
$GPRMC,173317.000,A,3748.7170,N,12217.6189,W,1.50,198.34,031012,,,A*76
$GPRMC,173318.000,A,3748.7150,N,12217.6210,W,1.81,202.23,031012,,,A*72
$GPRMC,173319.000,A,3748.7146,N,12217.6216,W,1.90,204.85,031012,,,A*78
$GPRMC,173320.000,A,3748.7143,N,12217.6221,W,1.64,203.22,031012,,,A*72
$GPRMC,173321.000,A,3748.7140,N,12217.6225,W,1.73,204.31,031012,,,A*77
$GPRMC,173322.000,A,3748.7128,N,12217.6229,W,1.92,198.94,031012,,,A*70
$GPRMC,173323.000,A,3748.7118,N,12217.6233,W,2.11,197.82,031012,,,A*79
$GPRMC,173324.000,A,3748.7108,N,12217.6237,W,2.23,202.49,031012,,,A*72
$GPRMC,173325.000,A,3748.7101,N,12217.6241,W,2.13,202.55,031012,,,A*75
$GPRMC,173326.000,A,3748.7095,N,12217.6245,W,1.99,203.01,031012,,,A*7F
$GPRMC,173327.000,A,3748.7089,N,12217.6248,W,2.23,206.77,031012,,,A*78
$GPRMC,173328.000,A,3748.7082,N,12217.6253,W,2.12,216.45,031012,,,A*74
$GPRMC,173329.000,A,3748.7075,N,12217.6257,W,2.27,203.28,031012,,,A*70
$GPRMC,173330.000,A,3748.7069,N,12217.6260,W,2.23,205.58,031012,,,A*74
$GPRMC,173331.000,A,3748.7058,N,12217.6269,W,2.15,202.56,031012,,,A*72
$GPRMC,173332.000,A,3748.7049,N,12217.6271,W,2.32,187.53,031012,,,A*76
$GPRMC,173333.000,A,3748.7032,N,12217.6291,W,2.14,203.55,031012,,,A*78
$GPRMC,173334.000,A,3748.7026,N,12217.6297,W,1.98,207.04,031012,,,A*7B
$GPRMC,173335.000,A,3748.7021,N,12217.6299,W,2.27,206.82,031012,,,A*7B
$GPRMC,173336.000,A,3748.7016,N,12217.6304,W,2.05,210.46,031012,,,A*76
$GPRMC,173337.000,A,3748.7008,N,12217.6308,W,2.15,218.22,031012,,,A*7F
$GPRMC,173338.000,A,3748.7002,N,12217.6313,W,2.10,206.06,031012,,,A*7C
$GPRMC,173339.000,A,3748.6997,N,12217.6318,W,2.45,206.03,031012,,,A*77
$GPRMC,173340.000,A,3748.6993,N,12217.6325,W,2.33,211.95,031012,,,A*7B
$GPRMC,173341.000,A,3748.6988,N,12217.6330,W,2.41,214.54,031012,,,A*79
$GPRMC,173342.000,A,3748.6982,N,12217.6335,W,2.28,210.33,031012,,,A*7F
$GPRMC,173343.000,A,3748.6975,N,12217.6341,W,2.34,209.69,031012,,,A*7F
$GPRMC,173344.000,A,3748.6967,N,12217.6346,W,2.49,208.49,031012,,,A*75
$GPRMC,173345.000,A,3748.6961,N,12217.6351,W,2.37,211.27,031012,,,A*7D
$GPRMC,173346.000,A,3748.6955,N,12217.6356,W,2.22,212.01,031012,,,A*7D
$GPRMC,173347.000,A,3748.6948,N,12217.6361,W,2.24,208.62,031012,,,A*7C
$GPRMC,173348.000,A,3748.6945,N,12217.6368,W,2.13,210.98,031012,,,A*7F
$GPRMC,173349.000,A,3748.6937,N,12217.6373,W,2.07,215.76,031012,,,A*71
$GPRMC,173350.000,A,3748.6932,N,12217.6378,W,1.97,214.54,031012,,,A*7C
$GPRMC,173351.000,A,3748.6927,N,12217.6384,W,2.06,218.33,031012,,,A*7C
$GPRMC,173352.000,A,3748.6921,N,12217.6389,W,2.42,218.79,031012,,,A*7A
$GPRMC,173353.000,A,3748.6914,N,12217.6395,W,2.54,206.42,031012,,,A*70
$GPRMC,173354.000,A,3748.6907,N,12217.6399,W,2.35,203.45,031012,,,A*7C
$GPRMC,173355.000,A,3748.6900,N,12217.6403,W,2.36,194.60,031012,,,A*77
$GPRMC,173356.000,A,3748.6893,N,12217.6406,W,2.52,207.55,031012,,,A*77
$GPRMC,173357.000,A,3748.6886,N,12217.6411,W,2.68,205.98,031012,,,A*7E
$GPRMC,173358.000,A,3748.6879,N,12217.6415,W,2.62,196.39,031012,,,A*7D
$GPRMC,173359.000,A,3748.6872,N,12217.6417,W,2.28,191.03,031012,,,A*75
$GPRMC,173400.000,A,3748.6865,N,12217.6419,W,2.24,187.52,031012,,,A*79
$GPRMC,173401.000,A,3748.6859,N,12217.6420,W,2.21,186.75,031012,,,A*7C
$GPRMC,173402.000,A,3748.6852,N,12217.6422,W,2.30,191.10,031012,,,A*73
$GPRMC,173403.000,A,3748.6847,N,12217.6425,W,2.07,184.45,031012,,,A*71
$GPRMC,173404.000,A,3748.6842,N,12217.6427,W,1.99,176.37,031012,,,A*7D
$GPRMC,173405.000,A,3748.6828,N,12217.6440,W,1.62,171.12,031012,,,A*75
$GPRMC,173406.000,A,3748.6821,N,12217.6444,W,1.50,186.35,031012,,,A*77
$GPRMC,173407.000,A,3748.6804,N,12217.6465,W,1.85,210.05,031012,,,A*75
$GPRMC,173408.000,A,3748.6795,N,12217.6477,W,1.79,216.92,031012,,,A*75
$GPRMC,173409.000,A,3748.6781,N,12217.6494,W,2.03,225.28,031012,,,A*73
$GPRMC,173410.000,A,3748.6770,N,12217.6509,W,2.43,222.86,031012,,,A*77
$GPRMC,173411.000,A,3748.6767,N,12217.6514,W,2.12,224.08,031012,,,A*78
$GPRMC,173412.000,A,3748.6759,N,12217.6522,W,2.15,215.27,031012,,,A*7B
$GPRMC,173413.000,A,3748.6751,N,12217.6522,W,2.31,210.78,031012,,,A*7B
$GPRMC,173414.000,A,3748.6740,N,12217.6530,W,2.25,207.19,031012,,,A*7B
$GPRMC,173415.000,A,3748.6730,N,12217.6538,W,2.47,210.08,031012,,,A*77
$GPRMC,173416.000,A,3748.6722,N,12217.6544,W,2.44,214.81,031012,,,A*7A
$GPRMC,173417.000,A,3748.6714,N,12217.6551,W,2.56,221.25,031012,,,A*71
$GPRMC,173418.000,A,3748.6704,N,12217.6559,W,2.81,216.96,031012,,,A*71
$GPRMC,173419.000,A,3748.6699,N,12217.6565,W,2.35,202.28,031012,,,A*75
$GPRMC,173420.000,A,3748.6693,N,12217.6570,W,2.20,204.69,031012,,,A*76
$GPRMC,173421.000,A,3748.6689,N,12217.6574,W,2.15,208.48,031012,,,A*71
$GPRMC,173422.000,A,3748.6683,N,12217.6580,W,2.04,220.50,031012,,,A*70
$GPRMC,173423.000,A,3748.6675,N,12217.6588,W,1.95,224.04,031012,,,A*7E
$GPRMC,173424.000,A,3748.6670,N,12217.6593,W,1.94,224.32,031012,,,A*72
$GPRMC,173425.000,A,3748.6668,N,12217.6599,W,1.54,232.54,031012,,,A*7B
$GPRMC,173426.000,A,3748.6665,N,12217.6606,W,1.74,231.05,031012,,,A*75
$GPRMC,173427.000,A,3748.6659,N,12217.6612,W,2.27,217.38,031012,,,A*71
$GPRMC,173428.000,A,3748.6653,N,12217.6616,W,2.13,198.41,031012,,,A*7D
$GPRMC,173429.000,A,3748.6647,N,12217.6617,W,1.80,193.70,031012,,,A*78
$GPRMC,173430.000,A,3748.6642,N,12217.6619,W,1.86,185.50,031012,,,A*78
$GPRMC,173431.000,A,3748.6636,N,12217.6618,W,1.81,190.46,031012,,,A*7F
$GPRMC,173432.000,A,3748.6624,N,12217.6630,W,1.80,190.58,031012,,,A*7B
$GPRMC,173433.000,A,3748.6618,N,12217.6632,W,2.06,197.21,031012,,,A*73
$GPRMC,173434.000,A,3748.6614,N,12217.6636,W,2.06,200.91,031012,,,A*7A
$GPRMC,173435.000,A,3748.6610,N,12217.6642,W,2.00,218.40,031012,,,A*7F
$GPRMC,173436.000,A,3748.6603,N,12217.6647,W,2.10,213.13,031012,,,A*77
$GPRMC,173437.000,A,3748.6599,N,12217.6653,W,2.21,206.22,031012,,,A*77
$GPRMC,173438.000,A,3748.6596,N,12217.6660,W,2.25,203.16,031012,,,A*71
$GPRMC,173439.000,A,3748.6591,N,12217.6665,W,2.11,207.50,031012,,,A*73
$GPRMC,173440.000,A,3748.6586,N,12217.6670,W,2.16,208.44,031012,,,A*72
$GPRMC,173441.000,A,3748.6581,N,12217.6672,W,1.92,214.68,031012,,,A*7A
$GPRMC,173442.000,A,3748.6575,N,12217.6675,W,2.01,202.95,031012,,,A*79
$GPRMC,173443.000,A,3748.6570,N,12217.6678,W,1.83,212.88,031012,,,A*74
$GPRMC,173444.000,A,3748.6565,N,12217.6681,W,1.77,202.91,031012,,,A*73
$GPRMC,173445.000,A,3748.6560,N,12217.6684,W,1.69,200.82,031012,,,A*7D
$GPRMC,173446.000,A,3748.6554,N,12217.6688,W,2.07,206.90,031012,,,A*7B
$GPRMC,173447.000,A,3748.6547,N,12217.6693,W,2.47,211.46,031012,,,A*7B
$GPRMC,173448.000,A,3748.6540,N,12217.6699,W,2.28,214.51,031012,,,A*73
$GPRMC,173449.000,A,3748.6534,N,12217.6704,W,2.13,218.71,031012,,,A*72
$GPRMC,173450.000,A,3748.6531,N,12217.6713,W,2.01,211.59,031012,,,A*79
$GPRMC,173451.000,A,3748.6526,N,12217.6719,W,2.13,199.54,031012,,,A*79
$GPRMC,173452.000,A,3748.6519,N,12217.6723,W,2.19,197.94,031012,,,A*77
$GPRMC,173453.000,A,3748.6511,N,12217.6728,W,2.25,197.38,031012,,,A*7C
$GPRMC,173454.000,A,3748.6504,N,12217.6733,W,2.34,203.06,031012,,,A*76
$GPRMC,173455.000,A,3748.6497,N,12217.6737,W,2.15,202.52,031012,,,A*7B
$GPRMC,173456.000,A,3748.6490,N,12217.6742,W,2.15,194.80,031012,,,A*7E
$GPRMC,173457.000,A,3748.6481,N,12217.6746,W,2.17,180.10,031012,,,A*75
$GPRMC,173458.000,A,3748.6472,N,12217.6750,W,1.96,175.62,031012,,,A*74
$GPRMC,173459.000,A,3748.6455,N,12217.6767,W,1.70,182.46,031012,,,A*72
$GPRMC,173500.000,A,3748.6447,N,12217.6771,W,1.37,160.84,031012,,,A*7A
$GPRMC,173501.000,A,3748.6435,N,12217.6777,W,1.36,176.10,031012,,,A*73
$GPRMC,173502.000,A,3748.6426,N,12217.6781,W,1.26,207.26,031012,,,A*7A
$GPRMC,173503.000,A,3748.6416,N,12217.6786,W,1.58,212.62,031012,,,A*72
$GPRMC,173504.000,A,3748.6409,N,12217.6792,W,2.36,230.19,031012,,,A*79
$GPRMC,173505.000,A,3748.6401,N,12217.6799,W,1.57,206.38,031012,,,A*79
$GPRMC,173506.000,A,3748.6393,N,12217.6807,W,1.65,208.24,031012,,,A*7C
$GPRMC,173507.000,A,3748.6384,N,12217.6813,W,1.94,205.84,031012,,,A*77
$GPRMC,173508.000,A,3748.6378,N,12217.6815,W,2.12,216.92,031012,,,A*75
$GPRMC,173509.000,A,3748.6370,N,12217.6820,W,2.33,212.42,031012,,,A*70
$GPRMC,173510.000,A,3748.6363,N,12217.6823,W,1.81,198.74,031012,,,A*77
$GPRMC,173511.000,A,3748.6360,N,12217.6830,W,2.73,215.70,031012,,,A*7B
$GPRMC,173512.000,A,3748.6354,N,12217.6834,W,2.15,202.10,031012,,,A*7B
$GPRMC,173513.000,A,3748.6352,N,12217.6840,W,1.99,212.91,031012,,,A*70
$GPRMC,173514.000,A,3748.6349,N,12217.6845,W,1.88,206.62,031012,,,A*71
$GPRMC,173515.000,A,3748.6347,N,12217.6850,W,1.82,199.06,031012,,,A*77
$GPRMC,173516.000,A,3748.6346,N,12217.6855,W,1.63,194.59,031012,,,A*78
$GPRMC,173517.000,A,3748.6344,N,12217.6859,W,1.78,207.93,031012,,,A*72
$GPRMC,173518.000,A,3748.6344,N,12217.6866,W,1.51,212.86,031012,,,A*7A
$GPRMC,173519.000,A,3748.6342,N,12217.6871,W,1.22,201.79,031012,,,A*7D
$GPRMC,173520.000,A,3748.6337,N,12217.6873,W,1.39,195.11,031012,,,A*7D
$GPRMC,173521.000,A,3748.6332,N,12217.6872,W,1.24,171.87,031012,,,A*71
$GPRMC,173522.000,A,3748.6322,N,12217.6877,W,1.54,186.02,031012,,,A*74
$GPRMC,173523.000,A,3748.6316,N,12217.6879,W,1.62,166.25,031012,,,A*72
$GPRMC,173524.000,A,3748.6309,N,12217.6882,W,1.39,170.71,031012,,,A*77
$GPRMC,173525.000,A,3748.6303,N,12217.6880,W,1.74,173.91,031012,,,A*7A
$GPRMC,173526.000,A,3748.6297,N,12217.6886,W,1.56,199.99,031012,,,A*7F
$GPRMC,173527.000,A,3748.6292,N,12217.6889,W,1.21,194.10,031012,,,A*78
$GPRMC,173528.000,A,3748.6288,N,12217.6894,W,1.79,203.07,031012,,,A*76
$GPRMC,173529.000,A,3748.6281,N,12217.6900,W,1.71,204.02,031012,,,A*78
