$ADVER,3080,2.3
$GPRMC,223102.127,A,3748.7952,N,12217.8753,W,0.08,140.57,031012,,,A*79
$GPGGA,223103.127,3748.7992,N,12217.8583,W,1,05,1.5,-4.9,M,-25.1,M,,0000*4D
$GPGSA,A,3,05,30,29,25,12,,,,,,,,2.4,1.5,1.8*30
$GPRMC,223103.127,A,3748.7992,N,12217.8583,W,0.11,130.95,031012,,,A*7A
$GPVTG,130.95,T,,M,0.11,N,0.2,K,A*01
$GPGGA,223104.000,3748.7992,N,12217.8583,W,1,05,1.5,-4.8,M,-25.1,M,,0000*4F
$GPGSA,A,3,05,30,29,25,12,,,,,,,,2.4,1.5,1.8*30
$GPRMC,223104.000,A,3748.7992,N,12217.8583,W,0.08,113.68,031012,,,A*72
$GPVTG,113.68,T,,M,0.08,N,0.2,K,A*0A
$GPGGA,223105.000,3748.7989,N,12217.8587,W,1,05,1.5,-3.6,M,-25.1,M,,0000*49
$GPGSA,A,3,05,30,29,25,12,,,,,,,,2.4,1.5,1.8*30
$GPRMC,223105.000,A,3748.7989,N,12217.8587,W,0.11,132.26,031012,,,A*7C
$GPVTG,132.26,T,,M,0.11,N,0.2,K,A*0B
$GPGGA,223106.000,3748.7988,N,12217.8589,W,1,05,1.5,-3.3,M,-25.1,M,,0000*40
$GPGSA,A,3,05,30,29,25,12,,,,,,,,2.4,1.5,1.8*30
$GPGSV,3,1,12,29,67,340,37,25,60,213,35,05,50,069,37,12,32,170,36*7C
$GPGSV,3,2,12,30,09,322,35,10,04,036,37,21,35,256,24,02,22,058,29*76
$GPGSV,3,3,12,31,11,282,28,18,06,201,,26,03,115,,15,01,147,*73
$GPRMC,223106.000,A,3748.7988,N,12217.8589,W,0.08,123.24,031012,,,A*7A
$GPVTG,123.24,T,,M,0.08,N,0.1,K,A*02
$GPGGA,223107.000,3748.7988,N,12217.8589,W,1,05,1.5,-3.1,M,-25.1,M,,0000*43
$GPGSA,A,3,05,30,29,25,12,,,,,,,,2.4,1.5,1.8*30
$GPRMC,223107.000,A,3748.7988,N,12217.8589,W,0.10,139.24,031012,,,A*79
$GPVTG,139.24,T,,M,0.10,N,0.2,K,A*03
$GPGGA,223108.000,3748.7988,N,12217.8589,W,1,05,1.5,-2.9,M,-25.1,M,,0000*45
$GPGSA,A,3,05,30,29,25,12,,,,,,,,2.4,1.5,1.8*30
$GPRMC,223108.000,A,3748.7988,N,12217.8589,W,0.08,125.31,031012,,,A*76
$GPVTG,125.31,T,,M,0.08,N,0.1,K,A*00
$GPGGA,223109.000,3748.7987,N,12217.8589,W,1,05,1.5,-2.8,M,-25.1,M,,0000*4A
$GPGSA,A,3,05,30,29,25,12,,,,,,,,2.4,1.5,1.8*30
$GPRMC,223109.000,A,3748.7987,N,12217.8589,W,0.10,119.86,031012,,,A*72
$GPVTG,119.86,T,,M,0.10,N,0.2,K,A*09
$GPGGA,223110.000,3748.7987,N,12217.8589,W,1,05,1.5,-2.8,M,-25.1,M,,0000*42
$GPGSA,A,3,05,30,29,25,12,,,,,,,,2.4,1.5,1.8*30
$GPRMC,223110.000,A,3748.7987,N,12217.8589,W,0.09,130.76,031012,,,A*76
$GPVTG,130.76,T,,M,0.09,N,0.2,K,A*05
$GPGGA,223111.000,3748.7987,N,12217.8589,W,1,05,1.5,-2.7,M,-25.1,M,,0000*4C
$GPGSA,A,3,05,30,29,25,12,,,,,,,,2.4,1.5,1.8*30
$GPGSV,3,1,12,29,67,340,37,25,60,213,35,05,50,069,37,12,32,170,36*7C
$GPGSV,3,2,12,30,09,322,36,10,04,036,37,21,35,256,24,02,22,058,29*75
$GPGSV,3,3,12,31,11,282,29,18,06,201,18,26,03,115,,15,01,147,*7B
$GPRMC,223111.000,A,3748.7987,N,12217.8589,W,0.08,128.72,031012,,,A*7B
$GPVTG,128.72,T,,M,0.08,N,0.1,K,A*0A
$GPGGA,223112.000,3748.7987,N,12217.8589,W,1,05,1.5,-2.6,M,-25.1,M,,0000*4E
$GPGSA,A,3,05,30,29,25,12,,,,,,,,2.4,1.5,1.8*30
$GPRMC,223112.000,A,3748.7987,N,12217.8589,W,0.10,132.21,031012,,,A*7C
$GPVTG,132.21,T,,M,0.10,N,0.2,K,A*0D
$GPGGA,223113.000,3748.7986,N,12217.8589,W,1,05,1.5,-2.5,M,-25.1,M,,0000*4D
$GPGSA,A,3,05,30,29,25,12,,,,,,,,2.4,1.5,1.8*30
$GPRMC,223113.000,A,3748.7986,N,12217.8589,W,0.08,129.44,031012,,,A*7C
$GPVTG,129.44,T,,M,0.08,N,0.1,K,A*0E
$GPGGA,223114.000,3748.7986,N,12217.8589,W,1,05,1.5,-2.4,M,-25.1,M,,0000*4B
$GPGSA,A,3,05,30,29,25,12,,,,,,,,2.4,1.5,1.8*30
$GPRMC,223114.000,A,3748.7986,N,12217.8589,W,0.08,124.15,031012,,,A*72
$GPVTG,124.15,T,,M,0.08,N,0.1,K,A*07
$GPGGA,223115.000,3748.7986,N,12217.8589,W,1,05,1.5,-2.2,M,-25.1,M,,0000*4C
$GPGSA,A,3,05,30,29,25,12,,,,,,,,2.4,1.5,1.8*30
$GPRMC,223115.000,A,3748.7986,N,12217.8589,W,0.08,124.33,031012,,,A*77
$GPVTG,124.33,T,,M,0.08,N,0.2,K,A*00
$GPGGA,223116.000,3748.7986,N,12217.8589,W,1,05,1.5,-2.1,M,-25.1,M,,0000*4C
$GPGSA,A,3,05,30,29,25,12,,,,,,,,2.4,1.5,1.8*30
$GPGSV,3,1,12,29,67,340,37,25,60,213,35,05,50,069,37,12,32,170,36*7C
$GPGSV,3,2,12,30,09,322,36,10,04,036,38,21,35,256,24,02,22,058,30*72
$GPGSV,3,3,12,31,11,282,29,18,06,201,18,26,03,115,20,15,01,147,*79
$GPVTG,137.45,T,,M,0.08,N,0.2,K,A*03
$GPGGA,223117.000,3748.7986,N,12217.8589,W,1,05,1.5,-2.0,M,-25.1,M,,0000*4C
$GPGSA,A,3,05,30,29,25,12,,,,,,,,2.4,1.5,1.8*30
$GPRMC,223117.000,A,3748.7986,N,12217.8589,W,0.08,121.30,031012,,,A*73
$GPVTG,121.30,T,,M,0.08,N,0.1,K,A*05
$GPGGA,223118.000,3748.7986,N,12217.8589,W,1,05,1.5,-1.9,M,-25.1,M,,0000*49
$GPGSA,A,3,05,30,29,25,12,,,,,,,,2.4,1.5,1.8*30
$GPRMC,223118.000,A,3748.7986,N,12217.8589,W,0.08,135.41,031012,,,A*7F
$GPVTG,135.41,T,,M,0.08,N,0.1,K,A*06
$GPGGA,223119.000,3748.7986,N,12217.8589,W,1,05,1.5,-1.8,M,-25.1,M,,0000*49
$GPGSA,A,3,05,30,29,25,12,,,,,,,,2.4,1.5,1.8*30
$GPRMC,223119.000,A,3748.7986,N,12217.8589,W,0.08,133.07,031012,,,A*7A
$GPVTG,133.07,T,,M,0.08,N,0.1,K,A*02
$GPGGA,223120.000,3748.7985,N,12217.8589,W,1,05,1.5,-1.7,M,-25.1,M,,0000*4F
$GPGSA,A,3,05,30,29,25,12,,,,,,,,2.4,1.5,1.8*30
$GPRMC,223120.000,A,3748.7985,N,12217.8589,W,0.08,123.08,031012,,,A*7D
$GPVTG,123.08,T,,M,0.08,N,0.2,K,A*0F
$GPGGA,223121.000,3748.7985,N,12217.8589,W,1,05,1.5,-1.6,M,-25.1,M,,0000*4F
$GPGSA,A,3,05,30,29,25,12,,,,,,,,2.4,1.5,1.8*30
$GPGSV,3,1,12,29,67,340,37,25,60,213,35,05,50,069,37,12,32,170,36*7C
$GPGSV,3,2,12,30,09,322,36,10,04,036,38,21,35,256,24,02,22,058,30*72
$GPGSV,3,3,12,31,11,282,30,18,06,201,18,26,03,115,21,15,01,147,*70
$GPRMC,223121.000,A,3748.7985,N,12217.8589,W,0.07,136.20,031012,,,A*7D
$GPVTG,136.20,T,,M,0.07,N,0.1,K,A*0D
$GPGGA,223122.000,3748.7985,N,12217.8590,W,1,05,1.5,-1.5,M,-25.1,M,,0000*47
$GPGSA,A,3,05,30,29,25,12,,,,,,,,2.4,1.5,1.8*30
$GPRMC,223122.000,A,3748.7985,N,12217.8590,W,0.07,131.12,031012,,,A*70
$GPVTG,131.12,T,,M,0.07,N,0.1,K,A*0B
$GPGGA,223123.000,3748.7985,N,12217.8590,W,1,05,1.5,-1.4,M,-25.1,M,,0000*47
$GPGSA,A,3,05,30,29,25,12,,,,,,,,2.4,1.5,1.8*30
$GPRMC,223123.000,A,3748.7985,N,12217.8590,W,0.07,147.25,031012,,,A*74
$GPVTG,147.25,T,,M,0.07,N,0.1,K,A*0E
$GPGGA,223124.000,3748.7985,N,12217.8590,W,1,05,1.5,-1.3,M,-25.1,M,,0000*47
$GPGSA,A,3,05,30,29,25,12,,,,,,,,2.4,1.5,1.8*30
$GPRMC,223124.000,A,3748.7985,N,12217.8590,W,0.08,111.92,031012,,,A*73
$GPVTG,111.92,T,,M,0.08,N,0.2,K,A*0D
$GPGGA,223125.000,3748.7985,N,12217.8590,W,1,05,1.5,-1.2,M,-25.1,M,,0000*47
$GPGSA,A,3,05,30,29,25,12,,,,,,,,2.4,1.5,1.8*30
$GPRMC,223125.000,A,3748.7985,N,12217.8590,W,0.08,142.30,031012,,,A*7C
$GPVTG,142.30,T,,M,0.08,N,0.1,K,A*00
$GPGGA,223126.000,3748.7985,N,12217.8590,W,1,05,1.5,-1.1,M,-25.1,M,,0000*47
$GPGSA,A,3,05,30,29,25,12,,,,,,,,2.4,1.5,1.8*30
$GPGSV,3,1,12,29,67,340,37,25,60,213,35,05,50,069,37,12,32,170,36*7C
$GPGSV,3,2,12,30,09,322,36,10,04,036,38,21,35,256,23,02,22,058,30*75
$GPGSV,3,3,12,31,11,282,30,18,06,201,18,26,03,115,,15,01,147,*73
$GPRMC,223126.000,A,3748.7985,N,12217.8590,W,0.07,123.06,031012,,,A*72
$GPVTG,123.06,T,,M,0.07,N,0.1,K,A*0D
$GPGGA,223127.000,3748.7985,N,12217.8590,W,1,05,1.5,-1.0,M,-25.1,M,,0000*47
$GPGSA,A,3,05,30,29,25,12,,,,,,,,2.4,1.5,1.8*30
$GPRMC,223127.000,A,3748.7985,N,12217.8590,W,0.07,133.78,031012,,,A*7B
$GPVTG,133.78,T,,M,0.07,N,0.1,K,A*05
$GPGGA,223128.000,3748.7985,N,12217.8590,W,1,05,1.5,-0.9,M,-25.1,M,,0000*40
$GPGSA,A,3,05,30,29,25,12,,,,,,,,2.4,1.5,1.8*30
$GPRMC,223128.000,A,3748.7985,N,12217.8590,W,0.08,121.66,031012,,,A*77
$GPVTG,121.66,T,,M,0.08,N,0.1,K,A*06
$GPGGA,223129.000,3748.7985,N,12217.8590,W,1,05,1.5,-0.8,M,-25.1,M,,0000*40
$GPGSA,A,3,05,30,29,25,12,,,,,,,,2.4,1.5,1.8*30
$GPRMC,223129.000,A,3748.7985,N,12217.8590,W,0.07,127.80,031012,,,A*77
$GPVTG,127.80,T,,M,0.07,N,0.1,K,A*07
$GPGGA,223130.000,3748.7985,N,12217.8590,W,1,05,1.5,-0.7,M,-25.1,M,,0000*47
$GPGSA,A,3,05,30,29,25,12,,,,,,,,2.4,1.5,1.8*30
$GPRMC,223130.000,A,3748.7985,N,12217.8590,W,0.08,126.06,031012,,,A*7F
$GPVTG,126.06,T,,M,0.08,N,0.1,K,A*07
$GPGGA,223131.000,3748.7985,N,12217.8590,W,1,05,1.5,-0.6,M,-25.1,M,,0000*47
$GPGSA,A,3,05,30,29,25,12,,,,,,,,2.4,1.5,1.8*30
$GPGSV,3,1,12,29,67,340,37,25,60,213,35,05,50,069,37,12,32,170,36*7C
$GPGSV,3,2,12,30,09,322,36,10,04,036,38,21,35,256,23,02,22,058,30*75
$GPGSV,3,3,12,31,11,282,30,18,06,201,18,26,03,115,19,15,01,147,*7B
$GPVTG,118.46,T,,M,0.06,N,0.1,K,A*00
$GPGGA,223132.000,3748.7985,N,12217.8590,W,1,07,1.1,-0.5,M,-25.1,M,,0000*41
$GPGSA,A,3,05,30,29,25,12,02,31,,,,,,1.9,1.1,1.5*37
$GPRMC,223132.000,A,3748.7985,N,12217.8590,W,0.07,149.33,031012,,,A*7D
$GPVTG,149.33,T,,M,0.07,N,0.1,K,A*07
$GPGGA,223133.000,3748.7985,N,12217.8590,W,1,07,1.1,-0.4,M,-25.1,M,,0000*41
$GPGSA,A,3,05,30,29,25,12,02,31,,,,,,1.9,1.1,1.5*37
$GPRMC,223133.000,A,3748.7985,N,12217.8590,W,0.06,169.49,031012,,,A*72
$GPVTG,169.49,T,,M,0.06,N,0.1,K,A*09
$GPGGA,223134.000,3748.7985,N,12217.8590,W,1,07,1.1,-0.3,M,-25.1,M,,0000*41
$GPGSA,A,3,05,30,29,25,12,02,31,,,,,,1.9,1.1,1.5*37
$GPRMC,223134.000,A,3748.7985,N,12217.8590,W,0.05,148.88,031012,,,A*78
$GPVTG,148.88,T,,M,0.05,N,0.1,K,A*04
$GPGGA,223135.000,3748.7985,N,12217.8590,W,1,07,1.1,-0.2,M,-25.1,M,,0000*41
$GPGSA,A,3,05,30,29,25,12,02,31,,,,,,1.9,1.1,1.5*37
$GPRMC,223135.000,A,3748.7985,N,12217.8590,W,0.06,185.13,031012,,,A*79
$GPVTG,185.13,T,,M,0.06,N,0.1,K,A*04
$GPGGA,223136.000,3748.7985,N,12217.8590,W,1,07,1.1,-0.1,M,-25.1,M,,0000*41
$GPGSA,A,3,05,30,29,25,12,02,31,,,,,,1.9,1.1,1.5*37
$GPGSV,3,1,12,29,67,340,37,25,60,213,35,05,50,069,37,21,35,256,19*71
$GPGSV,3,2,12,12,32,170,36,02,22,058,30,31,11,282,30,30,09,322,36*73
$GPGSV,3,3,12,18,06,201,19,10,04,036,38,26,03,115,,15,01,147,*70
$GPRMC,223136.000,A,3748.7985,N,12217.8590,W,0.04,171.02,031012,,,A*73
$GPVTG,171.02,T,,M,0.04,N,0.1,K,A*0D
$GPGGA,223137.000,3748.7985,N,12217.8590,W,1,07,1.1,-0.1,M,-25.1,M,,0000*40
$GPGSA,A,3,05,30,29,25,12,02,31,,,,,,1.9,1.1,1.5*37
$GPRMC,223137.000,A,3748.7985,N,12217.8590,W,0.05,159.81,031012,,,A*72
$GPVTG,159.81,T,,M,0.05,N,0.1,K,A*0D
$GPGGA,223138.000,3748.7985,N,12217.8590,W,1,07,1.1,0.0,M,-25.1,M,,0000*63
$GPGSA,A,3,05,30,29,25,12,02,31,,,,,,1.9,1.1,1.5*37
$GPRMC,223138.000,A,3748.7985,N,12217.8590,W,0.05,161.96,031012,,,A*70
$GPVTG,161.96,T,,M,0.05,N,0.1,K,A*00
$GPGGA,223139.000,3748.7985,N,12217.8590,W,1,07,1.1,0.1,M,-25.1,M,,0000*63
$GPGSA,A,3,05,30,29,25,12,02,31,,,,,,1.9,1.1,1.5*37
$GPRMC,223139.000,A,3748.7985,N,12217.8590,W,0.11,150.97,031012,,,A*77
$GPVTG,150.97,T,,M,0.11,N,0.2,K,A*05
$GPGGA,223140.000,3748.7985,N,12217.8590,W,1,07,1.1,0.1,M,-25.1,M,,0000*6D
$GPGSA,A,3,05,30,29,25,12,02,31,,,,,,1.9,1.1,1.5*37
$GPRMC,223140.000,A,3748.7985,N,12217.8590,W,0.07,160.80,031012,,,A*7B
$GPVTG,160.80,T,,M,0.07,N,0.1,K,A*04
$GPGGA,223141.000,3748.7985,N,12217.8590,W,1,07,1.1,0.2,M,-25.1,M,,0000*6F
$GPGSA,A,3,05,30,29,25,12,02,31,,,,,,1.9,1.1,1.5*37
$GPGSV,3,1,12,29,67,340,37,25,60,213,35,05,50,069,37,21,35,256,18*70
$GPGSV,3,2,12,12,32,170,36,02,22,058,30,31,11,282,30,30,09,322,35*70
$GPGSV,3,3,12,18,06,201,20,10,04,036,38,26,03,115,,15,01,147,*7A
$GPRMC,223141.000,A,3748.7985,N,12217.8590,W,0.06,164.66,031012,,,A*77
$GPVTG,164.66,T,,M,0.06,N,0.1,K,A*09
$GPGGA,223142.000,3748.7985,N,12217.8590,W,1,07,1.1,0.2,M,-25.1,M,,0000*6C
$GPGSA,A,3,05,30,29,25,12,02,31,,,,,,1.9,1.1,1.5*37
$GPRMC,223142.000,A,3748.7985,N,12217.8590,W,0.05,174.00,031012,,,A*76
$GPVTG,174.00,T,,M,0.05,N,0.1,K,A*0B
$GPGGA,223143.000,3748.7985,N,12217.8590,W,1,07,1.1,0.3,M,-25.1,M,,0000*6C
$GPGSA,A,3,05,30,29,25,12,02,31,,,,,,1.9,1.1,1.5*37
$GPRMC,223143.000,A,3748.7985,N,12217.8590,W,0.06,151.16,031012,,,A*74
$GPVTG,151.16,T,,M,0.06,N,0.1,K,A*08
$GPGGA,223144.000,3748.7985,N,12217.8590,W,1,07,1.1,0.3,M,-25.1,M,,0000*6B
$GPGSA,A,3,05,30,29,25,12,02,31,,,,,,1.9,1.1,1.5*37
$GPRMC,223144.000,A,3748.7985,N,12217.8590,W,0.06,167.20,031012,,,A*73
$GPVTG,167.20,T,,M,0.06,N,0.1,K,A*08
$GPGGA,223145.000,3748.7985,N,12217.8590,W,1,07,1.1,0.3,M,-25.1,M,,0000*6A
$GPGSA,A,3,05,30,29,25,12,02,31,,,,,,1.9,1.1,1.5*37
$GPRMC,223145.000,A,3748.7985,N,12217.8590,W,0.06,155.59,031012,,,A*7D
$GPVTG,155.59,T,,M,0.06,N,0.1,K,A*07
$GPGGA,223146.000,3748.7985,N,12217.8590,W,1,07,1.1,0.3,M,-25.1,M,,0000*69
$GPGSA,A,3,05,30,29,25,12,02,31,,,,,,1.9,1.1,1.5*37
$GPGSV,3,1,12,29,67,340,37,25,60,213,35,05,50,069,37,21,35,256,19*71
$GPGSV,3,2,12,12,32,170,36,02,22,058,30,31,11,282,31,30,09,322,35*71
$GPGSV,3,3,12,18,06,201,20,10,04,036,38,26,03,115,,15,01,147,*7A
$GPRMC,223146.000,A,3748.7985,N,12217.8590,W,0.06,176.27,031012,,,A*76
$GPVTG,176.27,T,,M,0.06,N,0.1,K,A*0F
$GPGGA,223147.000,3748.7985,N,12217.8590,W,1,07,1.1,0.4,M,-25.1,M,,0000*6F
$GPGSA,A,3,05,30,29,25,12,02,31,,,,,,1.9,1.1,1.5*37
$GPRMC,223147.000,A,3748.7985,N,12217.8590,W,0.06,141.59,031012,,,A*7A
$GPVTG,141.59,T,,M,0.06,N,0.1,K,A*02
$GPGGA,223148.000,3748.7985,N,12217.8590,W,1,07,1.1,0.4,M,-25.1,M,,0000*60
$GPGSA,A,3,05,30,29,25,12,02,31,,,,,,1.9,1.1,1.5*37
$GPRMC,223148.000,A,3748.7985,N,12217.8590,W,0.05,159.58,031012,,,A*7E
$GPVTG,159.58,T,,M,0.05,N,0.1,K,A*09
$GPGGA,223149.000,3748.7985,N,12217.8590,W,1,07,1.1,0.4,M,-25.1,M,,0000*61
$GPGSA,A,3,05,30,29,25,12,02,31,,,,,,1.9,1.1,1.5*37
$GPRMC,223149.000,A,3748.7985,N,12217.8590,W,0.05,107.44,031012,,,A*79
$GPVTG,107.44,T,,M,0.05,N,0.1,K,A*0F
$GPGGA,223150.000,3748.7985,N,12217.8590,W,1,07,1.1,0.4,M,-25.1,M,,0000*69
$GPGSA,A,3,05,30,29,25,12,02,31,,,,,,1.9,1.1,1.5*37
$GPRMC,223150.000,A,3748.7985,N,12217.8590,W,0.08,188.59,031012,,,A*77
$GPVTG,188.59,T,,M,0.08,N,0.1,K,A*09
$GPGGA,223151.000,3748.7985,N,12217.8591,W,1,07,1.1,0.5,M,-25.1,M,,0000*68
$GPGSA,A,3,05,30,29,25,12,02,31,,,,,,1.9,1.1,1.5*37
$GPGSV,3,1,12,29,67,340,37,25,60,213,20,05,50,069,37,21,35,256,27*78
$GPGSV,3,2,12,12,32,170,36,02,22,058,30,31,11,282,31,30,09,322,35*71
$GPGSV,3,3,12,18,06,201,20,10,04,036,31,26,03,115,18,15,01,147,*7A
$GPRMC,223151.000,A,3748.7985,N,12217.8591,W,0.12,183.80,031012,,,A*73
$GPGGA,223152.000,3748.7985,N,12217.8591,W,1,07,1.1,0.6,M,-25.1,M,,0000*68
$GPGSA,A,3,05,30,29,25,12,02,31,,,,,,1.9,1.1,1.5*37
$GPRMC,223152.000,A,3748.7985,N,12217.8591,W,0.09,188.83,031012,,,A*72
$GPVTG,188.83,T,,M,0.09,N,0.2,K,A*0C
$GPGGA,223153.000,3748.7985,N,12217.8591,W,1,07,1.1,0.7,M,-25.1,M,,0000*68
$GPGSA,A,3,05,30,29,25,12,02,31,,,,,,1.9,1.1,1.5*37
$GPRMC,223153.000,A,3748.7985,N,12217.8591,W,0.17,189.32,031012,,,A*77
$GPVTG,189.32,T,,M,0.17,N,0.3,K,A*09
$GPGGA,223154.000,3748.7985,N,12217.8591,W,1,07,1.1,0.6,M,-25.1,M,,0000*6E
$GPGSA,A,3,05,30,29,25,12,02,31,,,,,,1.9,1.1,1.5*37
$GPRMC,223154.000,A,3748.7985,N,12217.8591,W,0.08,45.25,031012,,,A*49
$GPVTG,45.25,T,,M,0.08,N,0.2,K,A*31
$GPGGA,223155.000,3748.7985,N,12217.8591,W,1,07,1.1,0.7,M,-25.1,M,,0000*6E
$GPGSA,A,3,05,30,29,25,12,02,31,,,,,,1.9,1.1,1.5*37
$GPRMC,223155.000,A,3748.7985,N,12217.8591,W,0.16,193.83,031012,,,A*71
$GPVTG,193.83,T,,M,0.16,N,0.3,K,A*09
$GPGGA,223156.000,3748.7985,N,12217.8591,W,1,07,1.1,0.8,M,-25.1,M,,0000*62
$GPGSA,A,3,05,30,29,25,12,02,31,,,,,,1.9,1.1,1.5*37
$GPGSV,3,1,12,29,67,340,37,25,60,213,19,05,50,069,37,21,35,256,28*7D
$GPGSV,3,2,12,12,32,170,35,02,22,058,29,31,11,282,32,30,09,322,34*78
$GPGSV,3,3,12,18,06,201,20,10,04,036,32,26,03,115,,15,01,147,*70
$GPRMC,223156.000,A,3748.7985,N,12217.8591,W,0.14,185.09,031012,,,A*75
$GPVTG,185.09,T,,M,0.14,N,0.3,K,A*0E
$GPGGA,223157.000,3748.7985,N,12217.8591,W,1,07,1.1,0.9,M,-25.1,M,,0000*62
$GPGSA,A,3,05,30,29,25,12,02,31,,,,,,1.9,1.1,1.5*37
$GPRMC,223157.000,A,3748.7985,N,12217.8591,W,0.13,185.48,031012,,,A*76
$GPVTG,185.48,T,,M,0.13,N,0.2,K,A*0D
$GPGGA,223158.000,3748.7985,N,12217.8591,W,1,07,1.1,0.9,M,-25.1,M,,0000*6D
$GPGSA,A,3,05,30,29,25,12,02,31,,,,,,1.9,1.1,1.5*37
$GPRMC,223158.000,A,3748.7985,N,12217.8591,W,0.11,192.17,031012,,,A*77
$GPVTG,192.17,T,,M,0.11,N,0.2,K,A*03
$GPGGA,223159.000,3748.7985,N,12217.8592,W,1,07,1.1,1.0,M,-25.1,M,,0000*67
$GPGSA,A,3,05,30,29,25,12,02,31,,,,,,1.9,1.1,1.5*37
$GPRMC,223159.000,A,3748.7985,N,12217.8592,W,0.12,192.17,031012,,,A*76
$GPVTG,192.17,T,,M,0.12,N,0.2,K,A*00
$GPGGA,223200.000,3748.7985,N,12217.8592,W,1,07,1.1,1.0,M,-25.1,M,,0000*68
$GPGSA,A,3,05,30,29,25,12,02,31,,,,,,1.9,1.1,1.5*37
$GPRMC,223200.000,A,3748.7985,N,12217.8592,W,0.05,139.73,031012,,,A*7C
$GPVTG,139.73,T,,M,0.05,N,0.1,K,A*06
$GPGGA,223201.000,3748.7986,N,12217.8591,W,1,07,1.1,1.0,M,-25.1,M,,0000*69
$GPGSA,A,3,05,30,29,25,12,02,31,,,,,,1.9,1.1,1.5*37
$GPGSV,3,1,12,29,67,340,37,25,60,213,21,05,50,069,37,21,35,256,28*76
$GPGSV,3,2,12,12,32,170,34,02,22,058,29,31,11,282,33,30,09,322,34*78
$GPGSV,3,3,12,18,06,201,20,10,04,036,32,26,03,115,,15,01,147,*70
$GPRMC,223201.000,A,3748.7986,N,12217.8591,W,0.09,36.13,031012,,,A*49
$GPVTG,36.13,T,,M,0.09,N,0.2,K,A*31
$GPGGA,223202.000,3748.7986,N,12217.8591,W,1,07,1.1,1.0,M,-25.1,M,,0000*6A
$GPGSA,A,3,05,30,29,25,12,02,31,,,,,,1.9,1.1,1.5*37
$GPRMC,223202.000,A,3748.7986,N,12217.8591,W,0.03,118.90,031012,,,A*76
$GPVTG,118.90,T,,M,0.03,N,0.1,K,A*0E
$GPGGA,223203.000,3748.7986,N,12217.8593,W,1,07,1.1,1.2,M,-25.1,M,,0000*6B
$GPGSA,A,3,05,30,29,25,12,02,31,,,,,,1.9,1.1,1.5*37
$GPRMC,223203.000,A,3748.7986,N,12217.8593,W,0.12,117.03,031012,,,A*70
$GPVTG,117.03,T,,M,0.12,N,0.2,K,A*08
$GPGGA,223204.000,3748.7986,N,12217.8593,W,1,07,1.1,1.1,M,-25.1,M,,0000*6F
$GPGSA,A,3,05,30,29,25,12,02,31,,,,,,1.9,1.1,1.5*37
$GPRMC,223204.000,A,3748.7986,N,12217.8593,W,0.07,181.12,031012,,,A*7C
$GPVTG,181.12,T,,M,0.07,N,0.1,K,A*00
$GPGGA,223205.000,3748.7986,N,12217.8594,W,1,07,1.1,1.3,M,-25.1,M,,0000*6B
$GPGSA,A,3,05,30,29,25,12,02,31,,,,,,1.9,1.1,1.5*37
$GPRMC,223205.000,A,3748.7986,N,12217.8594,W,0.09,86.99,031012,,,A*41
$GPVTG,86.99,T,,M,0.09,N,0.2,K,A*38
$GPGGA,223206.000,3748.7987,N,12217.8595,W,1,07,1.1,1.4,M,-25.1,M,,0000*6F
$GPGSA,A,3,05,30,29,25,12,02,31,,,,,,1.9,1.1,1.5*37
$GPGSV,3,1,12,29,67,340,29,25,60,213,22,05,50,069,38,21,35,256,20*7D
$GPGSV,3,2,12,12,32,170,30,02,22,058,30,31,11,282,33,30,09,322,34*74
$GPGSV,3,3,12,18,06,201,20,10,04,036,32,26,03,115,22,15,01,147,*70
$GPVTG,356.91,T,,M,0.15,N,0.3,K,A*02
$GPGGA,223207.000,3748.7988,N,12217.8596,W,1,07,1.1,2.0,M,-25.1,M,,0000*65
$GPGSA,A,3,05,30,29,25,12,02,31,,,,,,1.9,1.1,1.5*37
$GPRMC,223207.000,A,3748.7988,N,12217.8596,W,0.48,53.29,031012,,,A*49
$GPVTG,53.29,T,,M,0.48,N,0.9,K,A*35
$GPGGA,223208.000,3748.7989,N,12217.8597,W,1,07,1.1,2.4,M,-25.1,M,,0000*6E
$GPGSA,A,3,05,30,29,25,12,02,31,,,,,,1.9,1.1,1.5*37
$GPRMC,223208.000,A,3748.7989,N,12217.8597,W,0.50,299.47,031012,,,A*73
$GPVTG,299.47,T,,M,0.50,N,0.9,K,A*00
$GPGGA,223209.000,3748.7991,N,12217.8599,W,1,07,1.1,2.9,M,-25.1,M,,0000*65
$GPGSA,A,3,05,30,29,25,12,02,31,,,,,,1.9,1.1,1.5*37
$GPRMC,223209.000,A,3748.7991,N,12217.8599,W,0.39,176.41,031012,,,A*7E
$GPVTG,176.41,T,,M,0.39,N,0.7,K,A*05
$GPGGA,223210.000,3748.7994,N,12217.8598,W,1,07,1.1,2.9,M,-25.1,M,,0000*69
$GPGSA,A,3,05,30,29,25,12,02,31,,,,,,1.9,1.1,1.5*37
$GPRMC,223210.000,A,3748.7994,N,12217.8598,W,0.11,50.46,031012,,,A*4A
$GPVTG,50.46,T,,M,0.11,N,0.2,K,A*38
$GPGGA,223211.000,3748.7997,N,12217.8598,W,1,07,1.1,3.0,M,-25.1,M,,0000*63
$GPGSA,A,3,05,30,29,25,12,02,31,,,,,,1.9,1.1,1.5*37
$GPGSV,3,1,12,29,67,340,31,25,60,213,21,05,50,069,32,21,35,256,22*7F
$GPGSV,3,2,12,12,32,170,24,02,22,058,37,31,11,282,37,30,09,322,34*72
$GPGSV,3,3,12,18,06,201,,10,04,036,25,26,03,115,23,15,01,147,*75
$GPRMC,223211.000,A,3748.7997,N,12217.8598,W,0.11,234.65,031012,,,A*79
$GPVTG,234.65,T,,M,0.11,N,0.2,K,A*09
$GPGGA,223212.000,3748.7998,N,12217.8597,W,1,07,1.1,2.8,M,-25.1,M,,0000*69
$GPGSA,A,3,05,30,29,25,12,02,31,,,,,,1.9,1.1,1.5*37
$GPRMC,223212.000,A,3748.7998,N,12217.8597,W,0.45,184.03,031012,,,A*73
$GPVTG,184.03,T,,M,0.45,N,0.8,K,A*0A
$GPGGA,223213.000,3748.7997,N,12217.8597,W,1,07,1.1,2.6,M,-25.1,M,,0000*69
$GPGSA,A,3,05,30,29,25,12,02,31,,,,,,1.9,1.1,1.5*37
$GPRMC,223213.000,A,3748.7997,N,12217.8597,W,0.17,215.76,031012,,,A*73
$GPVTG,215.76,T,,M,0.17,N,0.3,K,A*0F
$GPGGA,223214.000,3748.8001,N,12217.8597,W,1,07,1.1,2.6,M,-25.1,M,,0000*67
$GPGSA,A,3,05,30,29,25,12,02,31,,,,,,1.9,1.1,1.5*37
$GPRMC,223214.000,A,3748.8001,N,12217.8597,W,0.34,322.39,031012,,,A*72
$GPVTG,322.39,T,,M,0.34,N,0.6,K,A*05
$GPGGA,223215.000,3748.8003,N,12217.8595,W,1,07,1.1,1.9,M,-25.1,M,,0000*6A
$GPGSA,A,3,05,30,29,25,12,02,31,,,,,,1.9,1.1,1.5*37
$GPRMC,223215.000,A,3748.8003,N,12217.8595,W,0.18,33.71,031012,,,A*42
$GPVTG,33.71,T,,M,0.18,N,0.3,K,A*31
$GPGGA,223216.000,3748.8003,N,12217.8593,W,1,07,1.1,1.2,M,-25.1,M,,0000*64
$GPGSA,A,3,05,30,29,25,12,02,31,,,,,,1.9,1.1,1.5*37
$GPGSV,3,1,12,29,67,341,30,25,60,212,21,05,50,068,27,21,35,257,33*7A
$GPGSV,3,2,12,12,32,170,24,02,21,058,25,31,11,282,42,30,09,322,32*76
$GPGSV,3,3,12,18,06,201,18,26,04,115,21,10,04,036,25,15,02,146,*7B
$GPRMC,223216.000,A,3748.8003,N,12217.8593,W,0.14,246.80,031012,,,A*75
$GPVTG,246.80,T,,M,0.14,N,0.3,K,A*03
$GPGGA,223217.000,3748.8007,N,12217.8593,W,1,07,1.1,1.0,M,-25.1,M,,0000*63
$GPGSA,A,3,05,30,29,25,12,02,31,,,,,,1.9,1.1,1.5*37
$GPRMC,223217.000,A,3748.8007,N,12217.8593,W,0.29,302.88,031012,,,A*77
$GPVTG,302.88,T,,M,0.29,N,0.5,K,A*02
$GPGGA,223218.000,3748.8008,N,12217.8595,W,1,07,1.1,1.6,M,-25.1,M,,0000*63
$GPGSA,A,3,05,30,29,25,12,02,31,,,,,,1.9,1.1,1.5*37
$GPRMC,223218.000,A,3748.8008,N,12217.8595,W,0.05,45.10,031012,,,A*4E
$GPVTG,45.10,T,,M,0.05,N,0.1,K,A*39
$GPGGA,223219.000,3748.8007,N,12217.8595,W,1,07,1.1,1.4,M,-25.1,M,,0000*6F
$GPGSA,A,3,05,30,29,25,12,02,31,,,,,,1.9,1.1,1.5*37
$GPRMC,223219.000,A,3748.8007,N,12217.8595,W,0.10,266.00,031012,,,A*76
$GPVTG,266.00,T,,M,0.10,N,0.2,K,A*0C
$GPGGA,223220.000,3748.8006,N,12217.8597,W,1,07,1.1,1.6,M,-25.1,M,,0000*64
$GPGSA,A,3,05,30,29,25,12,02,31,,,,,,1.9,1.1,1.5*37
$GPRMC,223220.000,A,3748.8006,N,12217.8597,W,0.23,212.92,031012,,,A*77
$GPVTG,212.92,T,,M,0.23,N,0.4,K,A*02
$GPGGA,223221.000,3748.8005,N,12217.8598,W,1,07,1.1,1.7,M,-25.1,M,,0000*68
$GPGSA,A,3,05,30,29,25,12,02,31,,,,,,1.9,1.1,1.5*37
$GPGSV,3,1,12,29,67,341,32,25,60,212,25,05,50,068,34,21,35,257,29*75
$GPGSV,3,2,12,12,32,170,24,02,21,058,33,31,11,282,40,30,09,322,40*76
$GPGSV,3,3,12,18,06,201,18,26,04,115,16,10,04,036,29,15,02,146,*73
$GPVTG,270.64,T,,M,0.08,N,0.2,K,A*00
$GPGGA,223222.000,3748.8006,N,12217.8598,W,1,07,1.1,1.4,M,-25.1,M,,0000*6B
$GPGSA,A,3,05,30,29,25,12,02,31,,,,,,1.9,1.1,1.5*37
$GPRMC,223222.000,A,3748.8006,N,12217.8598,W,0.18,193.94,031012,,,A*7E
$GPVTG,193.94,T,,M,0.18,N,0.3,K,A*01
$GPGGA,223223.000,3748.8009,N,12217.8597,W,1,07,1.1,1.3,M,-25.1,M,,0000*6D
$GPGSA,A,3,05,30,29,25,12,02,31,,,,,,1.9,1.1,1.5*37
$GPRMC,223223.000,A,3748.8009,N,12217.8597,W,0.11,182.49,031012,,,A*76
$GPVTG,182.49,T,,M,0.11,N,0.2,K,A*09
$GPGGA,223224.000,3748.8007,N,12217.8595,W,1,07,1.1,0.7,M,-25.1,M,,0000*63
$GPGSA,A,3,05,30,29,25,12,02,31,,,,,,1.8,1.1,1.5*36
$GPRMC,223224.000,A,3748.8007,N,12217.8595,W,0.40,167.93,031012,,,A*75
$GPVTG,167.93,T,,M,0.40,N,0.7,K,A*04
$GPGGA,223225.000,3748.8004,N,12217.8595,W,1,07,1.1,0.6,M,-25.1,M,,0000*60
$GPGSA,A,3,05,30,29,25,12,02,31,,,,,,1.8,1.1,1.5*36
$GPRMC,223225.000,A,3748.8004,N,12217.8595,W,0.67,173.96,031012,,,A*72
$GPVTG,173.96,T,,M,0.67,N,1.2,K,A*05
$GPGGA,223226.000,3748.8000,N,12217.8594,W,1,07,1.1,0.1,M,-25.1,M,,0000*61
$GPGSA,A,3,05,30,29,25,12,02,31,,,,,,1.8,1.1,1.5*36
$GPGSV,3,1,12,29,67,341,18,25,60,212,25,05,50,068,26,21,35,257,28*7F
$GPGSV,3,2,12,12,32,170,27,02,21,058,28,31,11,282,30,30,09,322,28*76
$GPGSV,3,3,12,18,06,201,19,26,04,115,20,10,04,036,29,15,02,146,*77
$GPRMC,223226.000,A,3748.8000,N,12217.8594,W,0.36,158.30,031012,,,A*75
$GPVTG,158.30,T,,M,0.36,N,0.7,K,A*00
$GPGGA,223227.000,3748.7990,N,12217.8593,W,1,07,1.1,-1.6,M,-25.1,M,,0000*43
$GPGSA,A,3,05,30,29,25,12,02,31,,,,,,1.8,1.1,1.5*36
$GPRMC,223227.000,A,3748.7990,N,12217.8593,W,0.85,186.42,031012,,,A*72
$GPVTG,186.42,T,,M,0.85,N,1.6,K,A*0E
$GPGGA,223228.000,3748.7981,N,12217.8591,W,1,07,1.1,-4.0,M,-25.1,M,,0000*4D
$GPGSA,A,3,05,30,29,25,12,02,31,,,,,,1.8,1.1,1.5*36
$GPRMC,223228.000,A,3748.7981,N,12217.8591,W,0.33,181.46,031012,,,A*71
$GPVTG,181.46,T,,M,0.33,N,0.6,K,A*01
$GPGGA,223229.000,3748.7976,N,12217.8592,W,1,07,1.1,-4.9,M,-25.1,M,,0000*4E
$GPGSA,A,3,05,30,29,25,12,02,31,,,,,,1.8,1.1,1.5*36
$GPRMC,223229.000,A,3748.7976,N,12217.8592,W,0.20,218.48,031012,,,A*74
$GPVTG,218.48,T,,M,0.20,N,0.4,K,A*0C
$GPGGA,223230.000,3748.7974,N,12217.8592,W,1,05,1.3,-5.0,M,-25.1,M,,0000*4C
$GPGSA,A,3,05,30,25,12,02,,,,,,,,2.6,1.3,2.3*35
$GPRMC,223230.000,A,3748.7974,N,12217.8592,W,0.59,180.88,031012,,,A*7E
$GPVTG,180.88,T,,M,0.59,N,1.1,K,A*08
$GPGGA,223231.000,3748.7973,N,12217.8593,W,1,07,1.1,-4.7,M,-25.1,M,,0000*4D
$GPGSA,A,3,05,30,29,25,31,12,02,,,,,,1.8,1.1,1.5*36
$GPGSV,3,1,12,29,67,341,20,25,60,212,30,05,50,068,20,21,35,257,27*79
$GPGSV,3,2,12,12,32,170,33,02,21,058,26,31,11,282,33,30,09,322,24*72
$GPGSV,3,3,12,18,06,201,19,26,04,115,21,10,04,036,23,15,02,146,*7C
$GPRMC,223231.000,A,3748.7973,N,12217.8593,W,0.27,194.95,031012,,,A*79
$GPVTG,194.95,T,,M,0.27,N,0.5,K,A*0D
$GPGGA,223232.000,3748.7969,N,12217.8594,W,1,07,1.1,-4.5,M,-25.1,M,,0000*40
$GPGSA,A,3,05,30,29,25,31,12,02,,,,,,1.8,1.1,1.5*36
$GPRMC,223232.000,A,3748.7969,N,12217.8594,W,0.38,196.74,031012,,,A*75
$GPVTG,196.74,T,,M,0.38,N,0.7,K,A*0C
$GPGGA,223233.000,3748.7970,N,12217.8599,W,1,06,1.2,-3.5,M,-25.1,M,,0000*41
$GPGSA,A,3,05,29,25,31,12,02,,,,,,,2.0,1.2,1.6*3E
$GPRMC,223233.000,A,3748.7970,N,12217.8599,W,0.07,199.87,031012,,,A*7E
$GPVTG,199.87,T,,M,0.07,N,0.1,K,A*05
$GPGGA,223234.000,3748.7970,N,12217.8604,W,1,07,1.1,-1.9,M,-25.1,M,,0000*4D
$GPGSA,A,3,05,30,29,25,31,12,02,,,,,,1.8,1.1,1.5*36
$GPRMC,223234.000,A,3748.7970,N,12217.8604,W,0.51,118.03,031012,,,A*78
$GPVTG,118.03,T,,M,0.51,N,0.9,K,A*0B
$GPGGA,223235.000,3748.7968,N,12217.8609,W,1,07,1.1,-0.3,M,-25.1,M,,0000*43
$GPGSA,A,3,05,30,29,25,31,12,02,,,,,,1.8,1.1,1.5*36
$GPRMC,223235.000,A,3748.7968,N,12217.8609,W,0.18,120.06,031012,,,A*7E
$GPVTG,120.06,T,,M,0.18,N,0.3,K,A*02
$GPGGA,223236.000,3748.7970,N,12217.8615,W,1,07,1.1,1.4,M,-25.1,M,,0000*6F
$GPGSA,A,3,05,30,29,25,31,12,02,,,,,,1.8,1.1,1.5*36
$GPGSV,3,1,12,29,67,341,29,25,60,212,28,05,50,068,20,21,35,257,27*79
$GPGSV,3,2,12,12,32,170,29,02,21,058,25,31,11,282,33,30,09,322,35*7A
$GPGSV,3,3,12,18,06,201,22,26,04,115,21,10,04,036,23,15,02,146,*74
$GPRMC,223236.000,A,3748.7970,N,12217.8615,W,0.25,302.60,031012,,,A*75
$GPVTG,302.60,T,,M,0.25,N,0.5,K,A*08
$GPGGA,223237.000,3748.7971,N,12217.8617,W,1,07,1.1,2.6,M,-25.1,M,,0000*6C
$GPGSA,A,3,05,30,29,25,31,12,02,,,,,,1.8,1.1,1.5*36
$GPRMC,223237.000,A,3748.7971,N,12217.8617,W,0.58,68.11,031012,,,A*44
$GPVTG,68.11,T,,M,0.58,N,1.1,K,A*3E
$GPGGA,223238.000,3748.7971,N,12217.8619,W,1,06,1.2,2.8,M,-25.1,M,,0000*61
$GPGSA,A,3,05,30,25,31,12,02,,,,,,,2.5,1.2,2.2*34
$GPRMC,223238.000,A,3748.7971,N,12217.8619,W,0.30,230.15,031012,,,A*70
$GPVTG,230.15,T,,M,0.30,N,0.6,K,A*0D
$GPGGA,223239.000,3748.7971,N,12217.8621,W,1,07,1.1,2.5,M,-25.1,M,,0000*64
$GPGSA,A,3,05,30,29,25,31,12,02,,,,,,1.8,1.1,1.5*36
$GPRMC,223239.000,A,3748.7971,N,12217.8621,W,0.30,233.25,031012,,,A*7A
$GPVTG,233.25,T,,M,0.30,N,0.6,K,A*0D
$GPGGA,223240.000,3748.7968,N,12217.8627,W,1,07,1.1,3.0,M,-25.1,M,,0000*60
$GPGSA,A,3,05,30,29,25,31,12,02,,,,,,1.8,1.1,1.5*36
$GPRMC,223240.000,A,3748.7968,N,12217.8627,W,0.23,257.46,031012,,,A*7F
$GPVTG,257.46,T,,M,0.23,N,0.4,K,A*0A
$GPGGA,223241.000,3748.7965,N,12217.8636,W,1,07,1.1,4.5,M,-25.1,M,,0000*6E
$GPGSA,A,3,05,30,29,25,31,12,02,,,,,,1.8,1.1,1.5*36
$GPGSV,3,1,12,29,67,341,21,25,60,212,27,05,50,068,24,21,35,257,33*7F
$GPGSV,3,2,12,12,32,170,33,02,21,058,26,31,11,282,34,30,09,322,35*75
$GPGSV,3,3,12,18,06,201,13,26,04,115,,10,04,036,21,15,02,146,*77
$GPRMC,223241.000,A,3748.7965,N,12217.8636,W,0.43,260.15,031012,,,A*77
$GPGGA,223242.000,3748.7963,N,12217.8638,W,1,07,1.1,4.5,M,-25.1,M,,0000*65
$GPGSA,A,3,05,30,29,25,31,12,02,,,,,,1.8,1.1,1.5*36
$GPRMC,223242.000,A,3748.7963,N,12217.8638,W,0.42,345.02,031012,,,A*7D
$GPVTG,345.02,T,,M,0.42,N,0.8,K,A*03
$GPGGA,223243.000,3748.7967,N,12217.8633,W,1,07,1.1,3.5,M,-25.1,M,,0000*6C
$GPGSA,A,3,05,30,29,25,31,12,02,,,,,,1.8,1.1,1.5*36
$GPRMC,223243.000,A,3748.7967,N,12217.8633,W,1.10,13.65,031012,,,A*44
$GPVTG,13.65,T,,M,1.10,N,2.0,K,A*3E
$GPGGA,223244.000,3748.7970,N,12217.8627,W,1,07,1.1,3.7,M,-25.1,M,,0000*6A
$GPGSA,A,3,05,30,29,25,31,12,02,,,,,,1.8,1.1,1.5*36
$GPRMC,223244.000,A,3748.7970,N,12217.8627,W,0.16,177.17,031012,,,A*71
$GPVTG,177.17,T,,M,0.16,N,0.3,K,A*0E
$GPGGA,223245.000,3748.7968,N,12217.8628,W,1,06,1.2,3.7,M,-25.1,M,,0000*6F
$GPGSA,A,3,05,30,25,31,12,02,,,,,,,2.5,1.2,2.2*34
$GPRMC,223245.000,A,3748.7968,N,12217.8628,W,0.32,176.94,031012,,,A*7A
$GPVTG,176.94,T,,M,0.32,N,0.6,K,A*07
$GPGGA,223246.000,3748.7968,N,12217.8630,W,1,06,1.2,4.4,M,-25.1,M,,0000*61
$GPGSA,A,3,05,30,25,31,12,02,,,,,,,2.5,1.2,2.2*34
$GPGSV,3,1,12,29,67,341,24,25,60,212,30,05,50,068,31,21,35,257,26*7C
$GPGSV,3,2,12,12,32,170,31,02,21,058,27,31,11,282,26,30,09,322,22*73
$GPGSV,3,3,12,18,06,201,14,26,04,115,28,10,04,036,21,15,02,146,*7A
$GPRMC,223246.000,A,3748.7968,N,12217.8630,W,0.34,316.53,031012,,,A*79
$GPVTG,316.53,T,,M,0.34,N,0.6,K,A*0E
$GPGGA,223247.000,3748.7969,N,12217.8629,W,1,06,1.2,4.2,M,-25.1,M,,0000*6F
$GPGSA,A,3,05,30,25,31,12,02,,,,,,,2.5,1.2,2.2*34
$GPRMC,223247.000,A,3748.7969,N,12217.8629,W,0.19,261.33,031012,,,A*79
$GPVTG,261.33,T,,M,0.19,N,0.3,K,A*03
$GPGGA,223248.000,3748.7970,N,12217.8624,W,1,06,1.4,4.2,M,-25.1,M,,0000*63
$GPGSA,A,3,05,30,25,31,12,29,,,,,,,2.3,1.4,1.8*34
$GPRMC,223248.000,A,3748.7970,N,12217.8624,W,0.55,69.85,031012,,,A*4C
$GPVTG,69.85,T,,M,0.55,N,1.0,K,A*3E
$GPGGA,223249.000,3748.7971,N,12217.8621,W,1,07,1.1,4.7,M,-25.1,M,,0000*67
$GPGSA,A,3,05,30,02,25,31,12,29,,,,,,1.8,1.1,1.5*36
$GPRMC,223249.000,A,3748.7971,N,12217.8621,W,0.59,192.91,031012,,,A*75
$GPVTG,192.91,T,,M,0.59,N,1.1,K,A*03
$GPGGA,223250.000,3748.7973,N,12217.8619,W,1,07,1.1,4.4,M,-25.1,M,,0000*65
$GPGSA,A,3,05,30,02,25,31,12,29,,,,,,1.8,1.1,1.5*36
$GPRMC,223250.000,A,3748.7973,N,12217.8619,W,0.09,337.29,031012,,,A*7F
$GPVTG,337.29,T,,M,0.09,N,0.2,K,A*0A
$GPGGA,223251.000,3748.7974,N,12217.8615,W,1,07,1.1,3.1,M,-25.1,M,,0000*6D
$GPGSA,A,3,05,30,02,25,31,12,29,,,,,,1.8,1.1,1.5*36
$GPGSV,3,1,12,29,67,341,30,25,60,212,24,05,50,068,38,21,35,257,12*72
$GPGSV,3,2,12,12,32,170,32,02,21,058,39,31,11,282,21,30,09,322,22*78
$GPGSV,3,3,12,18,06,201,19,26,04,115,25,10,04,036,28,15,02,146,*73
$GPRMC,223251.000,A,3748.7974,N,12217.8615,W,0.26,44.85,031012,,,A*49
$GPVTG,44.85,T,,M,0.26,N,0.5,K,A*31
$GPGGA,223252.000,3748.7975,N,12217.8613,W,1,07,1.1,2.0,M,-25.1,M,,0000*69
$GPGSA,A,3,05,30,02,25,31,12,29,,,,,,1.8,1.1,1.5*36
$GPRMC,223252.000,A,3748.7975,N,12217.8613,W,0.17,86.81,031012,,,A*45
$GPVTG,86.81,T,,M,0.17,N,0.3,K,A*3F
$GPGGA,223253.000,3748.7975,N,12217.8612,W,1,06,1.1,1.5,M,-25.1,M,,0000*6E
$GPGSA,A,3,05,30,02,31,12,29,,,,,,,2.0,1.1,1.7*38
$GPRMC,223253.000,A,3748.7975,N,12217.8612,W,0.69,143.79,031012,,,A*73
$GPVTG,143.79,T,,M,0.69,N,1.3,K,A*08
$GPGGA,223254.000,3748.7975,N,12217.8610,W,1,06,1.1,0.4,M,-25.1,M,,0000*6B
$GPGSA,A,3,05,30,02,31,12,29,,,,,,,2.0,1.1,1.7*38
$GPRMC,223254.000,A,3748.7975,N,12217.8610,W,0.34,165.18,031012,,,A*7D
$GPVTG,165.18,T,,M,0.34,N,0.6,K,A*07
$GPGGA,223255.000,3748.7975,N,12217.8609,W,1,06,1.1,-0.3,M,-25.1,M,,0000*48
$GPGSA,A,3,05,30,02,31,12,29,,,,,,,2.0,1.1,1.7*38
$GPRMC,223255.000,A,3748.7975,N,12217.8609,W,0.13,270.10,031012,,,A*7E
$GPVTG,270.10,T,,M,0.13,N,0.2,K,A*09
$GPGGA,223256.000,3748.7976,N,12217.8606,W,1,07,1.1,-0.4,M,-25.1,M,,0000*41
$GPGSA,A,3,05,30,02,25,31,12,29,,,,,,1.8,1.1,1.5*36
$GPGSV,3,1,12,29,67,341,30,25,60,212,23,05,50,068,37,21,35,257,16*7E
$GPGSV,3,2,12,12,32,170,31,02,21,058,38,31,11,282,20,30,09,322,22*7B
$GPGSV,3,3,12,18,06,201,17,26,04,115,32,10,04,036,27,15,02,146,*74
$GPVTG,174.40,T,,M,0.07,N,0.1,K,A*0D
$GPGGA,223257.000,3748.7976,N,12217.8605,W,1,07,1.1,1.2,M,-25.1,M,,0000*69
$GPGSA,A,3,05,30,02,25,31,12,29,,,,,,1.8,1.1,1.5*36
$GPRMC,223257.000,A,3748.7976,N,12217.8605,W,0.26,120.67,031012,,,A*73
$GPVTG,120.67,T,,M,0.26,N,0.5,K,A*0E
$GPGGA,223258.000,3748.7980,N,12217.8604,W,1,07,1.1,2.7,M,-25.1,M,,0000*68
$GPGSA,A,3,05,30,02,25,31,12,29,,,,,,1.8,1.1,1.5*36
$GPRMC,223258.000,A,3748.7980,N,12217.8604,W,0.62,105.44,031012,,,A*72
$GPVTG,105.44,T,,M,0.62,N,1.1,K,A*0D
$GPGGA,223259.000,3748.7980,N,12217.8598,W,1,07,1.1,3.4,M,-25.1,M,,0000*6D
$GPGSA,A,3,05,30,02,25,31,12,29,,,,,,1.8,1.1,1.5*36
$GPRMC,223259.000,A,3748.7980,N,12217.8598,W,0.17,152.65,031012,,,A*76
$GPVTG,152.65,T,,M,0.17,N,0.3,K,A*0D
$GPGGA,223300.000,3748.7979,N,12217.8597,W,1,07,1.1,4.0,M,-25.1,M,,0000*6A
$GPGSA,A,3,05,30,02,25,31,12,29,,,,,,1.8,1.1,1.5*36
$GPRMC,223300.000,A,3748.7979,N,12217.8597,W,0.36,228.70,031012,,,A*7B
$GPVTG,228.70,T,,M,0.36,N,0.7,K,A*00
$GPGGA,223301.000,3748.7980,N,12217.8597,W,1,07,1.1,4.3,M,-25.1,M,,0000*6E
$GPGSA,A,3,05,30,02,25,31,12,29,,,,,,1.8,1.1,1.5*36
$GPGSV,3,1,12,29,67,341,22,25,60,212,26,05,50,068,29,21,35,257,29*7B
$GPGSV,3,2,12,12,32,170,39,02,21,058,32,31,11,282,26,30,09,322,22*7F
$GPGSV,3,3,12,18,06,201,26,26,04,115,32,10,04,036,25,15,02,146,*74
$GPRMC,223301.000,A,3748.7980,N,12217.8597,W,0.44,355.81,031012,,,A*7C
$GPVTG,355.81,T,,M,0.44,N,0.8,K,A*0F
$GPGGA,223302.000,3748.7981,N,12217.8597,W,2,07,1.1,4.1,M,-25.1,M,1.8,0000*4A
$GPGSA,A,3,05,30,02,25,31,12,29,,,,,,1.8,1.1,1.5*36
$GPRMC,223302.000,A,3748.7981,N,12217.8597,W,0.15,244.28,031012,,,D*7D
$GPVTG,244.28,T,,M,0.15,N,0.3,K,D*07
$GPGGA,223303.000,3748.7983,N,12217.8595,W,2,07,1.1,3.2,M,-25.1,M,1.8,0000*4F
$GPGSA,A,3,05,30,02,25,31,12,29,,,,,,1.8,1.1,1.5*36
$GPRMC,223303.000,A,3748.7983,N,12217.8595,W,0.66,35.00,031012,,,D*46
$GPVTG,35.00,T,,M,0.66,N,1.2,K,D*3D
$GPGGA,223304.000,3748.7983,N,12217.8589,W,2,07,1.1,3.3,M,-25.1,M,1.8,0000*44
$GPGSA,A,3,05,30,02,25,31,12,29,,,,,,1.8,1.1,1.5*36
$GPRMC,223304.000,A,3748.7983,N,12217.8589,W,0.33,63.63,031012,,,D*4A
$GPVTG,63.63,T,,M,0.33,N,0.6,K,D*3E
$GPGGA,223305.000,3748.7986,N,12217.8589,W,2,07,1.1,5.0,M,-25.1,M,2.8,0000*46
$GPGSA,A,3,05,30,02,25,31,12,29,,,,,,1.8,1.1,1.5*36
$GPRMC,223305.000,A,3748.7986,N,12217.8589,W,0.28,310.76,031012,,,D*77
$GPVTG,310.76,T,,M,0.28,N,0.5,K,D*04
$GPGGA,223306.000,3748.7984,N,12217.8589,W,2,07,1.1,6.5,M,-25.1,M,1.8,0000*42
$GPGSA,A,3,05,30,02,25,31,12,29,,,,,,1.8,1.1,1.5*36
$GPGSV,3,1,12,29,67,341,22,25,60,212,18,05,50,068,35,21,35,257,22*70
$GPGSV,3,2,12,12,32,170,38,02,21,058,37,31,11,282,22,30,09,322,26*7B
$GPGSV,3,3,12,18,06,201,17,26,04,115,31,10,04,036,25,15,02,146,*75
$GPRMC,223306.000,A,3748.7984,N,12217.8589,W,0.30,281.12,031012,,,D*74
$GPVTG,281.12,T,,M,0.30,N,0.6,K,D*05
$GPGGA,223307.000,3748.7982,N,12217.8584,W,2,07,1.1,7.4,M,-25.1,M,2.8,0000*4B
$GPGSA,A,3,05,30,02,25,31,12,29,,,,,,1.8,1.1,1.5*36
$GPRMC,223307.000,A,3748.7982,N,12217.8584,W,0.27,277.89,031012,,,D*73
$GPVTG,277.89,T,,M,0.27,N,0.5,K,D*0B
$GPGGA,223308.000,3748.7982,N,12217.8583,W,2,06,1.2,7.4,M,-25.1,M,1.8,0000*42
$GPGSA,A,3,05,30,02,25,12,29,,,,,,,2.0,1.2,1.6*3F
$GPRMC,223308.000,A,3748.7982,N,12217.8583,W,0.27,129.17,031012,,,D*74
$GPVTG,129.17,T,,M,0.27,N,0.5,K,D*04
$GPGGA,223309.000,3748.7982,N,12217.8581,W,2,05,2.6,6.9,M,-25.1,M,1.8,0000*49
$GPGSA,A,3,05,02,25,12,29,,,,,,,,4.7,2.6,3.9*37
$GPRMC,223309.000,A,3748.7982,N,12217.8581,W,0.18,70.30,031012,,,D*43
$GPVTG,70.30,T,,M,0.18,N,0.3,K,D*36
$GPGGA,223310.000,3748.7984,N,12217.8582,W,2,07,1.1,7.2,M,-25.1,M,1.8,0000*48
$GPGSA,A,3,05,30,02,25,31,12,29,,,,,,1.8,1.1,1.5*36
$GPRMC,223310.000,A,3748.7984,N,12217.8582,W,0.34,281.49,031012,,,D*72
$GPVTG,281.49,T,,M,0.34,N,0.6,K,D*0F
$GPGGA,223311.000,3748.7984,N,12217.8584,W,2,07,1.1,6.4,M,-25.1,M,2.8,0000*4B
$GPGSA,A,3,05,30,02,25,31,12,29,,,,,,1.8,1.1,1.5*36
$GPGSV,3,1,12,29,67,341,22,25,60,212,26,05,50,068,34,21,35,257,25*7B
$GPGSV,3,2,12,12,32,170,37,02,21,058,37,31,11,282,13,30,09,322,19*7A
$GPRMC,223311.000,A,3748.7984,N,12217.8584,W,0.61,285.02,031012,,,D*7E
$GPVTG,285.02,T,,M,0.61,N,1.1,K,D*02
$GPGGA,223312.000,3748.7983,N,12217.8584,W,2,07,1.1,5.6,M,-25.1,M,1.8,0000*4D
$GPGSA,A,3,05,30,02,25,31,12,29,,,,,,1.8,1.1,1.5*36
$GPRMC,223312.000,A,3748.7983,N,12217.8584,W,0.89,297.06,031012,,,D*7B
$GPVTG,297.06,T,,M,0.89,N,1.7,K,D*05
$GPGGA,223313.000,3748.7983,N,12217.8586,W,2,07,1.1,4.2,M,-25.1,M,2.8,0000*48
$GPGSA,A,3,05,30,02,25,31,12,29,,,,,,1.8,1.1,1.5*36
$GPRMC,223313.000,A,3748.7983,N,12217.8586,W,0.45,282.12,031012,,,D*79
$GPVTG,282.12,T,,M,0.45,N,0.8,K,D*0A
$GPGGA,223314.000,3748.7982,N,12217.8584,W,2,07,1.1,3.5,M,-25.1,M,1.8,0000*4F
$GPGSA,A,3,05,30,02,25,31,12,29,,,,,,1.8,1.1,1.5*36
$GPRMC,223314.000,A,3748.7982,N,12217.8584,W,0.18,247.71,031012,,,D*79
$GPVTG,247.71,T,,M,0.18,N,0.3,K,D*05
$GPGGA,223315.000,3748.7981,N,12217.8583,W,2,07,1.1,2.5,M,-25.1,M,1.8,0000*4B
$GPGSA,A,3,05,30,02,25,31,12,29,,,,,,1.8,1.1,1.5*36
$GPRMC,223315.000,A,3748.7981,N,12217.8583,W,0.15,238.20,031012,,,D*7D
$GPVTG,238.20,T,,M,0.15,N,0.3,K,D*04
$GPGGA,223316.000,3748.7979,N,12217.8578,W,2,07,1.1,2.4,M,-25.1,M,1.8,0000*4A
$GPGSA,A,3,05,30,02,25,31,12,29,,,,,,1.8,1.1,1.5*36
$GPGSV,3,1,12,29,67,341,28,25,60,212,26,05,50,068,34,21,35,257,15*72
$GPGSV,3,2,12,12,32,170,36,02,21,058,38,31,11,282,13,30,09,322,21*7F
$GPGSV,3,3,12,18,06,201,22,26,04,115,32,10,04,036,,15,02,146,*77
$GPRMC,223316.000,A,3748.7979,N,12217.8578,W,0.15,177.57,031012,,,D*75
$GPVTG,177.57,T,,M,0.15,N,0.3,K,D*0C
$GPGGA,223317.000,3748.7977,N,12217.8575,W,2,07,1.1,2.1,M,-25.1,M,2.8,0000*4E
$GPGSA,A,3,05,30,02,25,31,12,29,,,,,,1.8,1.1,1.5*36
$GPRMC,223317.000,A,3748.7977,N,12217.8575,W,0.09,222.84,031012,,,D*77
$GPVTG,222.84,T,,M,0.09,N,0.2,K,D*0D
$GPGGA,223318.000,3748.7976,N,12217.8572,W,2,06,1.2,1.7,M,-25.1,M,3.8,0000*41
$GPGSA,A,3,05,30,02,25,12,29,,,,,,,2.0,1.2,1.6*3F
$GPRMC,223318.000,A,3748.7976,N,12217.8572,W,0.22,129.46,031012,,,D*71
$GPVTG,129.46,T,,M,0.22,N,0.4,K,D*04
$GPGGA,223319.000,3748.7976,N,12217.8570,W,2,06,1.2,1.1,M,-25.1,M,4.8,0000*43
$GPGSA,A,3,05,30,02,25,12,29,,,,,,,2.0,1.2,1.6*3F
$GPRMC,223319.000,A,3748.7976,N,12217.8570,W,0.10,275.85,031012,,,D*76
$GPVTG,275.85,T,,M,0.10,N,0.2,K,D*06
$GPGGA,223320.000,3748.7975,N,12217.8568,W,2,06,1.2,1.0,M,-25.1,M,1.8,0000*47
$GPGSA,A,3,05,30,02,25,12,29,,,,,,,2.0,1.2,1.6*3F
$GPRMC,223320.000,A,3748.7975,N,12217.8568,W,0.38,286.54,031012,,,D*7C
$GPVTG,286.54,T,,M,0.38,N,0.7,K,D*09
$GPGGA,223321.000,3748.7974,N,12217.8566,W,2,06,1.2,1.0,M,-25.1,M,1.8,0000*49
$GPGSA,A,3,05,30,02,25,12,29,,,,,,,2.0,1.2,1.6*3F
$GPGSV,3,1,12,29,67,341,29,25,60,212,27,05,50,068,34,21,35,257,16*71
$GPGSV,3,2,12,12,32,170,36,02,21,058,38,31,11,282,,30,09,322,22*7E
$GPGSV,3,3,12,18,06,201,22,26,04,115,31,10,04,036,23,15,02,146,*75
$GPRMC,223321.000,A,3748.7974,N,12217.8566,W,0.13,170.18,031012,,,D*79
$GPVTG,170.18,T,,M,0.13,N,0.2,K,D*07
$GPGGA,223322.000,3748.7973,N,12217.8562,W,2,06,1.2,1.3,M,-25.1,M,1.8,0000*4A
$GPGSA,A,3,05,30,02,25,12,29,,,,,,,2.0,1.2,1.6*3F
$GPRMC,223322.000,A,3748.7973,N,12217.8562,W,0.32,136.53,031012,,,D*77
$GPVTG,136.53,T,,M,0.32,N,0.6,K,D*0D
$GPGGA,223323.000,3748.7972,N,12217.8558,W,2,06,1.2,1.6,M,-25.1,M,2.8,0000*45
$GPGSA,A,3,05,30,02,25,12,29,,,,,,,2.0,1.2,1.6*3F
$GPRMC,223323.000,A,3748.7972,N,12217.8558,W,0.35,131.64,031012,,,D*7A
$GPVTG,131.64,T,,M,0.35,N,0.7,K,D*08
$GPGGA,223324.000,3748.7972,N,12217.8556,W,2,06,1.2,1.3,M,-25.1,M,3.8,0000*48
$GPGSA,A,3,05,30,02,25,12,29,,,,,,,2.0,1.2,1.6*3F
$GPRMC,223324.000,A,3748.7972,N,12217.8556,W,0.08,267.10,031012,,,D*7E
$GPVTG,267.10,T,,M,0.08,N,0.1,K,D*03
$GPGGA,223325.000,3748.7971,N,12217.8554,W,2,06,1.2,1.5,M,-25.1,M,4.8,0000*49
$GPGSA,A,3,05,30,02,25,12,29,,,,,,,2.0,1.2,1.6*3F
$GPRMC,223325.000,A,3748.7971,N,12217.8554,W,0.20,285.16,031012,,,D*7E
$GPVTG,285.16,T,,M,0.20,N,0.4,K,D*06
$GPGGA,223326.000,3748.7970,N,12217.8550,W,2,06,1.2,2.0,M,-25.1,M,1.8,0000*4C
$GPGSA,A,3,05,30,02,25,12,29,,,,,,,2.0,1.2,1.6*3F
$GPGSV,3,1,12,29,67,341,29,25,60,212,27,05,50,068,33,21,35,257,16*76
$GPGSV,3,2,12,12,32,170,36,02,21,058,38,31,11,282,,30,09,322,23*7F
$GPGSV,3,3,12,18,06,201,23,26,04,115,31,10,04,036,20,15,02,146,*77
$GPRMC,223326.000,A,3748.7970,N,12217.8550,W,0.14,298.73,031012,,,D*70
$GPVTG,298.73,T,,M,0.14,N,0.3,K,D*09
$GPGGA,223327.000,3748.7969,N,12217.8547,W,2,06,1.2,2.5,M,-25.1,M,1.8,0000*46
$GPGSA,A,3,05,30,02,25,12,29,,,,,,,2.0,1.2,1.6*3F
$GPRMC,223327.000,A,3748.7969,N,12217.8547,W,0.32,123.28,031012,,,D*76
$GPVTG,123.28,T,,M,0.32,N,0.6,K,D*05
$GPGGA,223328.000,3748.7969,N,12217.8545,W,2,06,1.2,2.3,M,-25.1,M,1.8,0000*4D
$GPGSA,A,3,05,30,02,25,12,29,,,,,,,2.0,1.2,1.6*3F
$GPRMC,223328.000,A,3748.7969,N,12217.8545,W,0.53,120.38,031012,,,D*7E
$GPVTG,120.38,T,,M,0.53,N,1.0,K,D*07
$GPGGA,223329.000,3748.7969,N,12217.8541,W,2,07,1.1,2.2,M,-25.1,M,1.8,0000*4B
$GPGSA,A,3,05,30,02,25,31,12,29,,,,,,1.8,1.1,1.5*36
$GPRMC,223329.000,A,3748.7969,N,12217.8541,W,0.50,108.19,031012,,,D*71
$GPVTG,108.19,T,,M,0.50,N,0.9,K,D*05
$GPGGA,223330.000,3748.7968,N,12217.8539,W,2,07,1.1,2.7,M,-25.1,M,2.8,0000*4B
$GPGSA,A,3,05,30,02,25,31,12,29,,,,,,1.8,1.1,1.5*36
$GPRMC,223330.000,A,3748.7968,N,12217.8539,W,0.36,114.97,031012,,,D*7C
$GPVTG,114.97,T,,M,0.36,N,0.7,K,D*00
$GPGGA,223331.000,3748.7968,N,12217.8539,W,2,07,1.1,2.7,M,-25.1,M,1.8,0000*49
$GPGSA,A,3,05,30,02,25,31,12,29,,,,,,1.8,1.1,1.5*36
$GPGSV,3,1,12,29,67,341,29,25,60,212,26,05,50,068,33,21,35,257,18*79
$GPGSV,3,2,12,12,32,170,37,02,21,058,38,31,11,282,18,30,09,322,23*77
$GPGSV,3,3,12,18,06,201,23,26,04,115,31,10,04,036,20,15,02,146,*77
$GPVTG,287.72,T,,M,0.12,N,0.2,K,D*01
$GPGGA,223332.000,3748.7967,N,12217.8540,W,2,07,1.1,3.1,M,-25.1,M,1.8,0000*4C
$GPGSA,A,3,05,30,02,25,31,12,29,,,,,,1.8,1.1,1.5*36
$GPRMC,223332.000,A,3748.7967,N,12217.8540,W,0.17,219.28,031012,,,D*76
$GPVTG,219.28,T,,M,0.17,N,0.3,K,D*0D
$GPGGA,223333.000,3748.7967,N,12217.8540,W,2,07,1.1,3.4,M,-25.1,M,1.8,0000*48
$GPGSA,A,3,05,30,02,25,31,12,29,,,,,,1.8,1.1,1.5*36
$GPRMC,223333.000,A,3748.7967,N,12217.8540,W,0.19,149.04,031012,,,D*71
$GPVTG,149.04,T,,M,0.19,N,0.3,K,D*0B
$GPGGA,223334.000,3748.7966,N,12217.8539,W,2,07,1.1,3.8,M,-25.1,M,1.8,0000*4C
$GPGSA,A,3,05,30,02,25,31,12,29,,,,,,1.8,1.1,1.5*36
$GPRMC,223334.000,A,3748.7966,N,12217.8539,W,0.12,168.82,031012,,,D*7F
$GPVTG,168.82,T,,M,0.12,N,0.2,K,D*0C
$GPGGA,223335.000,3748.7966,N,12217.8540,W,2,07,1.1,3.8,M,-25.1,M,2.8,0000*40
$GPGSA,A,3,05,30,02,25,31,12,29,,,,,,1.8,1.1,1.5*36
$GPRMC,223335.000,A,3748.7966,N,12217.8540,W,0.01,139.33,031012,,,D*7C
$GPVTG,139.33,T,,M,0.01,N,0.0,K,D*02
$GPGGA,223336.000,3748.7966,N,12217.8539,W,2,07,1.1,4.0,M,-25.1,M,1.8,0000*41
$GPGSA,A,3,05,30,02,25,31,12,29,,,,,,1.8,1.1,1.5*36
$GPGSV,3,1,12,29,67,342,29,25,59,212,26,05,49,068,33,21,36,257,18*7B
$GPGSV,3,2,12,12,31,170,37,02,21,058,38,31,11,281,18,30,10,322,24*78
$GPGSV,3,3,12,18,07,201,23,26,04,114,30,10,03,036,12,15,02,146,*70
$GPRMC,223336.000,A,3748.7966,N,12217.8539,W,0.05,42.22,031012,,,D*48
$GPVTG,42.22,T,,M,0.05,N,0.1,K,D*3A
$GPGGA,223337.000,3748.7966,N,12217.8538,W,2,07,1.1,4.5,M,-25.1,M,2.8,0000*47
$GPGSA,A,3,05,30,02,25,31,12,29,,,,,,1.8,1.1,1.5*36
$GPRMC,223337.000,A,3748.7966,N,12217.8538,W,0.18,295.04,031012,,,D*78
$GPVTG,295.04,T,,M,0.18,N,0.3,K,D*08
$GPGGA,223338.000,3748.7966,N,12217.8538,W,2,07,1.1,4.7,M,-25.1,M,1.8,0000*49
$GPGSA,A,3,05,30,02,25,31,12,29,,,,,,1.8,1.1,1.5*36
$GPRMC,223338.000,A,3748.7966,N,12217.8538,W,0.04,262.57,031012,,,D*74
$GPVTG,262.57,T,,M,0.04,N,0.1,K,D*09
$GPGGA,223339.000,3748.7966,N,12217.8537,W,2,07,1.1,4.9,M,-25.1,M,1.8,0000*49
$GPGSA,A,3,05,30,02,25,31,12,29,,,,,,1.8,1.1,1.5*36
$GPRMC,223339.000,A,3748.7966,N,12217.8537,W,0.07,84.12,031012,,,D*42
$GPVTG,84.12,T,,M,0.07,N,0.1,K,D*31
$GPGGA,223340.000,3748.7966,N,12217.8535,W,2,07,1.1,5.2,M,-25.1,M,1.8,0000*4F
$GPGSA,A,3,05,30,02,25,31,12,29,,,,,,1.8,1.1,1.5*36
$GPRMC,223340.000,A,3748.7966,N,12217.8535,W,0.43,124.38,031012,,,D*7D
$GPVTG,124.38,T,,M,0.43,N,0.8,K,D*0B
$GPGGA,223341.000,3748.7966,N,12217.8533,W,2,07,1.1,5.8,M,-25.1,M,2.8,0000*41
$GPGSA,A,3,05,30,02,25,31,12,29,,,,,,1.8,1.1,1.5*36
$GPGSV,3,1,12,29,67,342,28,25,59,212,26,05,49,068,32,21,36,257,27*77
$GPGSV,3,2,12,12,31,170,37,02,21,058,36,31,11,281,20,30,10,322,24*7D
$GPGSV,3,3,12,18,07,201,18,26,04,114,29,10,03,036,17,15,02,146,*75
$GPRMC,223341.000,A,3748.7966,N,12217.8533,W,0.12,332.06,031012,,,D*76
$GPVTG,332.06,T,,M,0.12,N,0.2,K,D*0D
$GPGGA,223342.000,3748.7966,N,12217.8536,W,2,06,1.2,5.3,M,-25.1,M,3.8,0000*4F
$GPGSA,A,3,05,30,02,25,31,12,,,,,,,2.5,1.2,2.2*34
$GPRMC,223342.000,A,3748.7966,N,12217.8536,W,0.49,254.84,031012,,,D*75
$GPVTG,254.84,T,,M,0.49,N,0.9,K,D*03
$GPGGA,223343.000,3748.7964,N,12217.8542,W,2,07,1.1,4.2,M,-25.1,M,4.8,0000*4A
$GPGSA,A,3,05,30,02,25,31,12,29,,,,,,1.8,1.1,1.5*36
$GPRMC,223343.000,A,3748.7964,N,12217.8542,W,0.32,171.32,031012,,,D*70
$GPVTG,171.32,T,,M,0.32,N,0.6,K,D*09
$GPGGA,223344.000,3748.7964,N,12217.8547,W,2,07,1.1,3.2,M,-25.1,M,1.8,0000*4A
$GPGSA,A,3,05,30,02,25,31,12,29,,,,,,1.8,1.1,1.5*36
$GPRMC,223344.000,A,3748.7964,N,12217.8547,W,0.16,170.65,031012,,,D*77
$GPVTG,170.65,T,,M,0.16,N,0.3,K,D*09
$GPGGA,223345.000,3748.7963,N,12217.8550,W,2,07,1.1,2.3,M,-25.1,M,2.8,0000*49
$GPGSA,A,3,05,30,02,25,31,12,29,,,,,,1.8,1.1,1.5*36
$GPRMC,223345.000,A,3748.7963,N,12217.8550,W,0.28,107.15,031012,,,D*7D
$GPVTG,107.15,T,,M,0.28,N,0.5,K,D*05
$GPGGA,223346.000,3748.7962,N,12217.8554,W,2,07,1.1,2.8,M,-25.1,M,3.8,0000*45
$GPGSA,A,3,05,30,02,25,31,12,29,,,,,,1.8,1.1,1.5*36
$GPGSV,3,1,12,29,67,342,21,25,59,212,27,05,49,068,27,21,36,257,34*79
$GPGSV,3,2,12,12,31,170,37,02,21,058,23,31,11,281,25,30,10,322,27*7F
$GPGSV,3,3,12,18,07,201,26,26,04,114,24,10,03,036,25,15,02,146,*74
$GPRMC,223346.000,A,3748.7962,N,12217.8554,W,0.37,238.43,031012,,,D*79
$GPVTG,238.43,T,,M,0.37,N,0.7,K,D*05
$GPGGA,223347.000,3748.7962,N,12217.8557,W,2,07,1.1,3.6,M,-25.1,M,4.8,0000*4F
$GPGSA,A,3,05,30,02,25,31,12,29,,,,,,1.8,1.1,1.5*36
$GPRMC,223347.000,A,3748.7962,N,12217.8557,W,0.30,252.02,031012,,,D*75
$GPVTG,252.02,T,,M,0.30,N,0.6,K,D*0A
$GPGGA,223348.000,3748.7964,N,12217.8560,W,2,07,1.1,3.5,M,-25.1,M,5.8,0000*40
$GPGSA,A,3,05,30,02,25,31,12,29,,,,,,1.8,1.1,1.5*36
$GPRMC,223348.000,A,3748.7964,N,12217.8560,W,0.47,44.76,031012,,,D*4E
$GPVTG,44.76,T,,M,0.47,N,0.9,K,D*33
$GPGGA,223349.000,3748.7962,N,12217.8566,W,2,07,1.1,3.0,M,-25.1,M,6.8,0000*47
$GPGSA,A,3,05,30,02,25,31,12,29,,,,,,1.8,1.1,1.5*36
$GPRMC,223349.000,A,3748.7962,N,12217.8566,W,0.48,57.06,031012,,,D*45
$GPVTG,57.06,T,,M,0.48,N,0.9,K,D*39
$GPGGA,223350.000,3748.7962,N,12217.8570,W,2,07,1.1,2.6,M,-25.1,M,1.8,0000*48
$GPGSA,A,3,05,30,02,25,31,12,29,,,,,,1.8,1.1,1.5*36
$GPRMC,223350.000,A,3748.7962,N,12217.8570,W,0.43,28.06,031012,,,D*49
$GPVTG,28.06,T,,M,0.43,N,0.8,K,D*3B
$GPGGA,223351.000,3748.7962,N,12217.8567,W,2,07,1.1,1.7,M,-25.1,M,2.8,0000*4E
$GPGSA,A,3,05,30,02,25,31,12,29,,,,,,1.8,1.1,1.5*36
$GPGSV,3,1,12,29,67,342,17,25,59,212,25,05,49,068,25,21,36,257,27*7E
$GPGSV,3,2,12,12,31,170,33,02,21,058,23,31,11,281,26,30,10,322,18*74
$GPGSV,3,3,12,18,07,201,15,26,04,114,16,10,03,036,26,15,02,146,*76
$GPRMC,223351.000,A,3748.7962,N,12217.8567,W,0.21,116.27,031012,,,D*75
$GPGGA,223352.000,3748.7959,N,12217.8567,W,2,07,1.1,1.2,M,-25.1,M,3.8,0000*41
$GPGSA,A,3,05,30,02,25,31,12,29,,,,,,1.8,1.1,1.5*36
$GPRMC,223352.000,A,3748.7959,N,12217.8567,W,0.56,132.55,031012,,,D*7D
$GPVTG,132.55,T,,M,0.56,N,1.0,K,D*0A
$GPGGA,223353.000,3748.7957,N,12217.8563,W,2,07,1.1,1.3,M,-25.1,M,4.8,0000*4C
$GPGSA,A,3,05,30,02,25,31,12,29,,,,,,1.8,1.1,1.5*36
$GPRMC,223353.000,A,3748.7957,N,12217.8563,W,1.28,113.96,031012,,,D*72
$GPVTG,113.96,T,,M,1.28,N,2.4,K,D*09
$GPGGA,223354.000,3748.7956,N,12217.8557,W,2,07,1.1,1.8,M,-25.1,M,5.8,0000*47
$GPGSA,A,3,05,30,02,25,31,12,29,,,,,,1.8,1.1,1.5*36
$GPRMC,223354.000,A,3748.7956,N,12217.8557,W,1.22,112.25,031012,,,D*70
$GPVTG,112.25,T,,M,1.22,N,2.3,K,D*0D
$GPGGA,223355.000,3748.7956,N,12217.8553,W,2,07,1.1,2.1,M,-25.1,M,6.8,0000*4B
$GPGSA,A,3,05,30,02,25,31,12,29,,,,,,1.8,1.1,1.5*36
$GPRMC,223355.000,A,3748.7956,N,12217.8553,W,1.77,118.16,031012,,,D*7F
$GPVTG,118.16,T,,M,1.77,N,3.3,K,D*06
$GPGGA,223356.000,3748.7954,N,12217.8548,W,2,07,1.1,1.9,M,-25.1,M,1.8,0000*4C
$GPGSA,A,3,05,30,02,25,31,12,29,,,,,,1.8,1.1,1.5*36
$GPGSV,3,1,12,29,67,342,27,25,59,212,32,05,49,068,32,21,36,257,26*7C
$GPGSV,3,2,12,12,31,170,41,02,21,058,30,31,11,281,29,30,10,322,21*76
$GPGSV,3,3,12,18,07,201,19,26,04,114,26,10,03,036,26,15,02,146,*79
$GPRMC,223356.000,A,3748.7954,N,12217.8548,W,2.38,118.71,031012,,,D*7D
$GPVTG,118.71,T,,M,2.38,N,4.4,K,D*0F
$GPGGA,223357.000,3748.7952,N,12217.8543,W,2,07,1.1,1.6,M,-25.1,M,1.8,0000*4F
$GPGSA,A,3,05,30,02,25,31,12,29,,,,,,1.8,1.1,1.5*36
$GPRMC,223357.000,A,3748.7952,N,12217.8543,W,2.14,127.49,031012,,,D*78
$GPVTG,127.49,T,,M,2.14,N,4.0,K,D*02
$GPGGA,223358.000,3748.7949,N,12217.8537,W,2,07,1.1,1.4,M,-25.1,M,1.8,0000*4B
$GPGSA,A,3,05,30,02,25,31,12,29,,,,,,1.8,1.1,1.5*36
$GPRMC,223358.000,A,3748.7949,N,12217.8537,W,2.53,128.66,031012,,,D*7F
$GPVTG,128.66,T,,M,2.53,N,4.7,K,D*04
$GPGGA,223359.000,3748.7946,N,12217.8530,W,2,07,1.1,1.1,M,-25.1,M,2.8,0000*44
$GPGSA,A,3,05,30,02,25,31,12,29,,,,,,1.8,1.1,1.5*36
$GPRMC,223359.000,A,3748.7946,N,12217.8530,W,2.56,126.41,031012,,,D*78
$GPVTG,126.41,T,,M,2.56,N,4.7,K,D*0A
$GPGGA,223400.000,3748.7942,N,12217.8524,W,2,07,1.1,0.9,M,-25.1,M,3.8,0000*46
$GPGSA,A,3,05,30,02,25,31,12,29,,,,,,1.8,1.1,1.5*36
$GPRMC,223400.000,A,3748.7942,N,12217.8524,W,2.04,138.43,031012,,,D*78
$GPVTG,138.43,T,,M,2.04,N,3.8,K,D*08
$GPGGA,223401.000,3748.7938,N,12217.8518,W,2,07,1.1,0.8,M,-25.1,M,4.8,0000*43
$GPGSA,A,3,05,30,02,25,31,12,29,,,,,,1.8,1.1,1.5*36
$GPGSV,3,1,12,29,67,342,27,25,59,212,33,05,49,068,31,21,36,257,28*70
$GPGSV,3,2,12,12,31,170,40,02,21,058,29,31,11,281,28,30,10,322,20*7F
$GPGSV,3,3,12,18,07,201,32,26,04,114,27,10,03,036,20,15,02,146,*77
$GPRMC,223401.000,A,3748.7938,N,12217.8518,W,2.50,128.85,031012,,,D*71
$GPVTG,128.85,T,,M,2.50,N,4.6,K,D*0B
$GPGGA,223402.000,3748.7935,N,12217.8511,W,2,07,1.1,0.5,M,-25.1,M,1.8,0000*4C
$GPGSA,A,3,05,30,02,25,31,12,29,,,,,,1.8,1.1,1.5*36
$GPRMC,223402.000,A,3748.7935,N,12217.8511,W,2.20,124.66,031012,,,D*70
$GPVTG,124.66,T,,M,2.20,N,4.1,K,D*0A
$GPGGA,223403.000,3748.7931,N,12217.8508,W,2,07,1.1,1.9,M,-25.1,M,1.8,0000*4C
$GPGSA,A,3,05,30,02,25,31,12,29,,,,,,1.8,1.1,1.5*36
$GPRMC,223403.000,A,3748.7931,N,12217.8508,W,1.98,125.22,031012,,,D*7C
$GPVTG,125.22,T,,M,1.98,N,3.7,K,D*0A
$GPGGA,223404.000,3748.7928,N,12217.8501,W,2,07,1.1,2.0,M,-25.1,M,0.8,0000*41
$GPGSA,A,3,05,30,02,25,31,12,29,,,,,,1.8,1.1,1.5*36
$GPRMC,223404.000,A,3748.7928,N,12217.8501,W,1.74,117.81,031012,,,D*70
$GPVTG,117.81,T,,M,1.74,N,3.2,K,D*05
$GPGGA,223405.000,3748.7926,N,12217.8496,W,2,07,1.1,1.7,M,-25.1,M,1.8,0000*44
$GPGSA,A,3,05,30,02,25,31,12,29,,,,,,1.8,1.1,1.5*36
$GPRMC,223405.000,A,3748.7926,N,12217.8496,W,1.40,108.95,031012,,,D*7C
$GPVTG,108.95,T,,M,1.40,N,2.6,K,D*0C
$GPGGA,223406.000,3748.7924,N,12217.8491,W,2,07,1.1,1.1,M,-25.1,M,2.8,0000*47
$GPGSA,A,3,05,30,02,25,31,12,29,,,,,,1.8,1.1,1.5*36
$GPGSV,3,1,12,29,67,342,27,25,59,212,34,05,49,068,32,21,36,257,27*7B
$GPGSV,3,2,12,12,31,170,31,02,21,058,21,31,11,281,24,30,10,322,20*7D
$GPGSV,3,3,12,18,07,201,23,26,04,114,24,10,03,036,20,15,02,146,*74
$GPRMC,223406.000,A,3748.7924,N,12217.8491,W,1.62,113.33,031012,,,D*7C
$GPVTG,113.33,T,,M,1.62,N,3.0,K,D*0D
$GPGGA,223407.000,3748.7923,N,12217.8487,W,2,07,1.1,0.6,M,-25.1,M,3.8,0000*41
$GPGSA,A,3,05,30,02,25,31,12,29,,,,,,1.8,1.1,1.5*36
$GPRMC,223407.000,A,3748.7923,N,12217.8487,W,0.97,106.58,031012,,,D*7F
$GPVTG,106.58,T,,M,0.97,N,1.8,K,D*05
$GPGGA,223408.000,3748.7925,N,12217.8488,W,2,07,1.1,0.2,M,-25.1,M,1.8,0000*41
$GPGSA,A,3,05,30,02,25,31,12,29,,,,,,1.8,1.1,1.5*36
$GPRMC,223408.000,A,3748.7925,N,12217.8488,W,1.17,298.61,031012,,,D*7E
$GPVTG,298.61,T,,M,1.17,N,2.2,K,D*0B
$GPGGA,223409.000,3748.7929,N,12217.8491,W,2,07,1.1,-0.4,M,-25.1,M,2.8,0000*6C
$GPGSA,A,3,05,30,02,25,31,12,29,,,,,,1.8,1.1,1.5*36
$GPRMC,223409.000,A,3748.7929,N,12217.8491,W,1.47,311.58,031012,,,D*74
$GPVTG,311.58,T,,M,1.47,N,2.7,K,D*01
$GPGGA,223410.000,3748.7935,N,12217.8494,W,2,07,1.1,-1.3,M,-25.1,M,3.8,0000*6B
$GPGSA,A,3,05,30,02,25,31,12,29,,,,,,1.8,1.1,1.5*36
$GPRMC,223410.000,A,3748.7935,N,12217.8494,W,1.60,307.15,031012,,,D*7F
$GPVTG,307.15,T,,M,1.60,N,3.0,K,D*0C
$GPGGA,223411.000,3748.7939,N,12217.8499,W,2,07,1.1,-2.0,M,-25.1,M,4.8,0000*6C
$GPGSA,A,3,05,30,02,25,31,12,29,,,,,,1.8,1.1,1.5*36
$GPGSV,3,1,12,29,67,342,34,25,59,212,25,05,49,068,36,21,36,257,30*7B
$GPGSV,3,2,12,12,31,170,21,02,21,058,20,31,11,281,34,30,10,322,38*75
$GPGSV,3,3,12,18,07,201,21,26,04,114,16,10,03,036,27,15,02,146,*70
$GPRMC,223411.000,A,3748.7939,N,12217.8499,W,1.36,299.84,031012,,,D*72
$GPGGA,223412.000,3748.7940,N,12217.8504,W,2,07,1.1,-2.0,M,-25.1,M,5.8,0000*65
$GPGSA,A,3,05,30,02,25,31,12,29,,,,,,1.8,1.1,1.5*36
$GPRMC,223412.000,A,3748.7940,N,12217.8504,W,1.09,312.40,031012,,,D*7C
$GPVTG,312.40,T,,M,1.09,N,2.0,K,D*06
$GPGGA,223413.000,3748.7946,N,12217.8507,W,2,06,1.1,-1.7,M,-25.1,M,6.8,0000*67
$GPGSA,A,3,05,30,02,31,12,29,,,,,,,2.0,1.1,1.7*38
$GPRMC,223413.000,A,3748.7946,N,12217.8507,W,0.58,345.49,031012,,,D*76
$GPVTG,345.49,T,,M,0.58,N,1.1,K,D*0A
$GPGGA,223414.000,3748.7950,N,12217.8508,W,2,06,1.4,-1.7,M,-25.1,M,7.8,0000*6C
$GPGSA,A,3,05,30,25,31,12,29,,,,,,,2.3,1.4,1.8*34
$GPRMC,223414.000,A,3748.7950,N,12217.8508,W,0.68,4.01,031012,,,D*70
$GPVTG,4.01,T,,M,0.68,N,1.3,K,D*01
$GPGGA,223415.000,3748.7954,N,12217.8508,W,2,06,1.4,-1.5,M,-25.1,M,8.8,0000*64
$GPGSA,A,3,05,30,25,31,12,29,,,,,,,2.3,1.4,1.8*34
$GPRMC,223415.000,A,3748.7954,N,12217.8508,W,0.64,8.80,031012,,,D*7C
$GPVTG,8.80,T,,M,0.64,N,1.2,K,D*09
$GPGGA,223416.000,3748.7959,N,12217.8508,W,2,06,1.4,-1.2,M,-25.1,M,9.8,0000*6C
$GPGSA,A,3,05,30,25,31,12,29,,,,,,,2.3,1.4,1.8*34
$GPGSV,3,1,12,29,67,342,24,25,59,212,20,05,49,068,28,21,36,257,18*7A
$GPGSV,3,2,12,12,31,170,16,02,21,058,,31,11,281,25,30,10,322,15*7C
$GPGSV,3,3,12,18,07,201,21,26,04,114,15,10,03,036,21,15,02,146,*75
$GPRMC,223416.000,A,3748.7959,N,12217.8508,W,0.90,11.60,031012,,,D*4F
$GPVTG,11.60,T,,M,0.90,N,1.7,K,D*31
$GPGGA,223417.000,3748.7960,N,12217.8509,W,2,05,2.0,-0.4,M,-25.1,M,10.8,0000*5D
$GPGSA,A,3,05,30,25,31,29,,,,,,,,3.3,2.0,2.5*3F
$GPRMC,223417.000,A,3748.7960,N,12217.8509,W,0.27,153.63,031012,,,D*7D
$GPVTG,153.63,T,,M,0.27,N,0.5,K,D*0A
$GPGGA,223418.000,3748.7957,N,12217.8506,W,2,06,1.4,-0.8,M,-25.1,M,11.8,0000*50
$GPGSA,A,3,05,30,25,31,12,29,,,,,,,2.3,1.4,1.8*34
$GPRMC,223418.000,A,3748.7957,N,12217.8506,W,1.01,170.42,031012,,,D*7E
$GPVTG,170.42,T,,M,1.01,N,1.9,K,D*00
$GPGGA,223419.000,3748.7951,N,12217.8505,W,2,06,1.4,-1.0,M,-25.1,M,12.8,0000*5E
$GPGSA,A,3,05,30,25,31,12,29,,,,,,,2.3,1.4,1.8*34
$GPRMC,223419.000,A,3748.7951,N,12217.8505,W,0.85,173.36,031012,,,D*77
$GPVTG,173.36,T,,M,0.85,N,1.6,K,D*02
$GPGGA,223420.000,3748.7947,N,12217.8508,W,2,05,1.5,-0.8,M,-25.1,M,13.8,0000*54
$GPGSA,A,3,05,25,31,12,29,,,,,,,,2.6,1.5,2.1*39
$GPRMC,223420.000,A,3748.7947,N,12217.8508,W,0.67,186.31,031012,,,D*76
$GPVTG,186.31,T,,M,0.67,N,1.2,K,D*07
$GPGGA,223421.000,3748.7954,N,12217.8509,W,2,05,1.5,0.1,M,-25.1,M,14.8,0000*75
$GPGSA,A,3,05,25,31,12,29,,,,,,,,2.6,1.5,2.1*39
$GPGSV,3,1,12,29,67,342,22,25,59,212,21,05,49,068,29,21,36,257,22*75
$GPGSV,3,2,12,12,31,170,18,02,21,058,,31,11,281,26,30,10,322,*75
$GPGSV,3,3,12,18,07,201,21,26,04,114,,10,03,036,21,15,02,146,*71
$GPRMC,223421.000,A,3748.7954,N,12217.8509,W,0.27,188.29,031012,,,D*77
$GPVTG,188.29,T,,M,0.27,N,0.5,K,D*02
$GPGGA,223422.000,3748.7961,N,12217.8511,W,2,05,1.5,1.3,M,-25.1,M,15.8,0000*7B
$GPGSA,A,3,05,25,31,12,29,,,,,,,,2.6,1.5,2.1*39
$GPRMC,223422.000,A,3748.7961,N,12217.8511,W,0.14,347.34,031012,,,D*76
$GPVTG,347.34,T,,M,0.14,N,0.3,K,D*09
$GPGGA,223423.000,3748.7963,N,12217.8509,W,2,05,1.5,0.9,M,-25.1,M,16.8,0000*79
$GPGSA,A,3,05,25,31,12,29,,,,,,,,2.6,1.5,2.1*39
$GPRMC,223423.000,A,3748.7963,N,12217.8509,W,0.21,151.03,031012,,,D*7B
$GPVTG,151.03,T,,M,0.21,N,0.4,K,D*09
$GPGGA,223424.000,3748.7974,N,12217.8512,W,2,05,1.5,2.3,M,-25.1,M,17.8,0000*7B
$GPGSA,A,3,05,25,31,12,29,,,,,,,,2.6,1.5,2.1*39
$GPRMC,223424.000,A,3748.7974,N,12217.8512,W,0.96,355.95,031012,,,D*75
$GPVTG,355.95,T,,M,0.96,N,1.8,K,D*01
$GPGGA,223425.000,3748.7978,N,12217.8514,W,1,05,1.5,2.8,M,-25.1,M,,0000*68
$GPGSA,A,3,05,25,31,12,29,,,,,,,,2.6,1.5,2.1*39
$GPRMC,223425.000,A,3748.7978,N,12217.8514,W,0.70,347.40,031012,,,A*78
$GPVTG,347.40,T,,M,0.70,N,1.3,K,A*0C
$GPGGA,223426.000,3748.7984,N,12217.8515,W,1,05,1.5,3.2,M,-25.1,M,,0000*62
$GPGSA,A,3,05,25,31,12,29,,,,,,,,2.6,1.5,2.1*39
$GPGSV,3,1,12,29,67,342,22,25,59,212,21,05,49,068,29,21,36,257,12*76
$GPGSV,3,2,12,12,31,170,18,02,21,058,,31,11,281,27,30,10,322,*74
$GPGSV,3,3,12,18,07,201,,26,04,114,,10,03,036,21,15,02,146,*72
$GPVTG,352.23,T,,M,1.48,N,2.7,K,A*00
$GPGGA,223427.000,3748.7989,N,12217.8519,W,1,05,1.5,4.5,M,-25.1,M,,0000*62
$GPGSA,A,3,05,25,31,12,29,,,,,,,,2.6,1.5,2.1*39
$GPRMC,223427.000,A,3748.7989,N,12217.8519,W,1.93,348.00,031012,,,A*7E
$GPVTG,348.00,T,,M,1.93,N,3.6,K,A*0C
$GPGGA,223428.000,3748.7996,N,12217.8524,W,1,05,1.5,5.7,M,-25.1,M,,0000*6E
$GPGSA,A,3,05,25,31,12,29,,,,,,,,2.6,1.5,2.1*39
$GPRMC,223428.000,A,3748.7996,N,12217.8524,W,1.32,343.25,031012,,,A*76
$GPVTG,343.25,T,,M,1.32,N,2.4,K,A*08
$GPGGA,223429.000,3748.7996,N,12217.8527,W,1,05,1.5,6.5,M,-25.1,M,,0000*6D
$GPGSA,A,3,05,25,31,12,29,,,,,,,,2.6,1.5,2.1*39
$GPRMC,223429.000,A,3748.7996,N,12217.8527,W,0.48,226.27,031012,,,A*78
$GPVTG,226.27,T,,M,0.48,N,0.9,K,A*0B
$GPGGA,223430.000,3748.7988,N,12217.8528,W,1,05,1.5,6.5,M,-25.1,M,,0000*65
$GPGSA,A,3,05,25,31,12,29,,,,,,,,2.6,1.5,2.1*39
$GPRMC,223430.000,A,3748.7988,N,12217.8528,W,1.57,178.75,031012,,,A*70
$GPVTG,178.75,T,,M,1.57,N,2.9,K,A*09
$GPGGA,223431.000,3748.7977,N,12217.8527,W,1,05,1.5,6.7,M,-25.1,M,,0000*69
$GPGSA,A,3,05,25,31,12,29,,,,,,,,2.6,1.5,2.1*39
$GPGSV,3,1,12,29,67,342,22,25,59,212,29,05,49,068,29,21,36,257,*7D
$GPGSV,3,2,12,12,31,170,34,02,21,058,,31,11,281,22,30,10,322,22*7F
$GPGSV,3,3,12,18,07,201,,26,04,114,,10,03,036,27,15,02,146,*74
$GPRMC,223431.000,A,3748.7977,N,12217.8527,W,1.02,167.25,031012,,,A*75
$GPVTG,167.25,T,,M,1.02,N,1.9,K,A*01
$GPGGA,223432.000,3748.7970,N,12217.8523,W,1,07,1.1,6.0,M,-25.1,M,,0000*68
$GPGSA,A,3,05,30,25,31,12,02,29,,,,,,1.8,1.1,1.5*36
$GPRMC,223432.000,A,3748.7970,N,12217.8523,W,2.05,126.66,031012,,,A*73
$GPVTG,126.66,T,,M,2.05,N,3.8,K,A*04
$GPGGA,223433.000,3748.7961,N,12217.8516,W,1,07,1.1,5.8,M,-25.1,M,,0000*64
$GPGSA,A,3,05,30,25,31,12,02,29,,,,,,1.8,1.1,1.5*36
$GPRMC,223433.000,A,3748.7961,N,12217.8516,W,2.47,131.61,031012,,,A*73
$GPVTG,131.61,T,,M,2.47,N,4.6,K,A*0A
$GPGGA,223434.000,3748.7954,N,12217.8509,W,1,07,1.1,5.1,M,-25.1,M,,0000*62
$GPGSA,A,3,05,30,25,31,12,02,29,,,,,,1.8,1.1,1.5*36
$GPRMC,223434.000,A,3748.7954,N,12217.8509,W,1.74,125.84,031012,,,A*71
$GPVTG,125.84,T,,M,1.74,N,3.2,K,A*04
$GPGGA,223435.000,3748.7951,N,12217.8501,W,1,07,1.1,3.9,M,-25.1,M,,0000*60
$GPGSA,A,3,05,30,25,31,12,02,29,,,,,,1.8,1.1,1.5*36
$GPRMC,223435.000,A,3748.7951,N,12217.8501,W,1.76,121.73,031012,,,A*73
$GPVTG,121.73,T,,M,1.76,N,3.3,K,A*0B
$GPGGA,223436.000,3748.7948,N,12217.8490,W,1,07,1.1,3.4,M,-25.1,M,,0000*6F
$GPGSA,A,3,05,30,25,31,12,02,29,,,,,,1.8,1.1,1.5*36
$GPGSV,3,1,12,29,67,342,23,25,59,212,34,05,49,068,29,21,36,257,28*7A
$GPGSV,3,2,12,12,31,170,40,02,21,058,18,31,11,281,26,30,10,322,21*72
$GPGSV,3,3,12,18,07,201,24,26,04,114,21,10,03,036,19,15,02,146,*7C
$GPRMC,223436.000,A,3748.7948,N,12217.8490,W,2.14,107.68,031012,,,A*78
$GPVTG,107.68,T,,M,2.14,N,4.0,K,A*06
$GPGGA,223437.000,3748.7945,N,12217.8481,W,1,07,1.1,2.6,M,-25.1,M,,0000*60
$GPGSA,A,3,05,30,25,31,12,02,29,,,,,,1.8,1.1,1.5*36
$GPRMC,223437.000,A,3748.7945,N,12217.8481,W,1.95,109.91,031012,,,A*76
$GPVTG,109.91,T,,M,1.95,N,3.6,K,A*05
$GPGGA,223438.000,3748.7941,N,12217.8473,W,1,07,1.1,2.1,M,-25.1,M,,0000*61
$GPGSA,A,3,05,30,25,31,12,02,29,,,,,,1.8,1.1,1.5*36
$GPRMC,223438.000,A,3748.7941,N,12217.8473,W,2.04,114.26,031012,,,A*7B
$GPVTG,114.26,T,,M,2.04,N,3.8,K,A*00
$GPGGA,223439.000,3748.7937,N,12217.8466,W,1,07,1.1,1.9,M,-25.1,M,,0000*6E
$GPGSA,A,3,05,30,25,31,12,02,29,,,,,,1.8,1.1,1.5*36
$GPRMC,223439.000,A,3748.7937,N,12217.8466,W,1.86,118.19,031012,,,A*76
$GPVTG,118.19,T,,M,1.86,N,3.4,K,A*05
$GPGGA,223440.000,3748.7933,N,12217.8461,W,1,07,1.1,1.7,M,-25.1,M,,0000*6D
$GPGSA,A,3,05,30,25,31,12,02,29,,,,,,1.8,1.1,1.5*36
$GPRMC,223440.000,A,3748.7933,N,12217.8461,W,1.60,115.49,031012,,,A*7B
$GPVTG,115.49,T,,M,1.60,N,3.0,K,A*01
$GPGGA,223441.000,3748.7930,N,12217.8453,W,1,07,1.1,1.4,M,-25.1,M,,0000*6D
$GPGSA,A,3,05,30,25,31,12,02,29,,,,,,1.8,1.1,1.5*36
$GPGSV,3,1,12,29,67,342,24,25,59,212,31,05,49,068,26,21,36,257,26*79
$GPGSV,3,2,12,12,31,170,39,02,21,058,27,31,11,281,26,30,10,322,20*71
$GPGSV,3,3,12,18,07,201,24,26,04,114,20,10,03,036,19,15,02,146,*7D
$GPVTG,117.95,T,,M,2.19,N,4.1,K,A*09
$GPGGA,223442.000,3748.7925,N,12217.8447,W,1,07,1.0,1.2,M,-25.1,M,,0000*68
$GPGSA,A,3,05,30,25,31,12,02,29,,,,,,1.8,1.0,1.5*37
$GPRMC,223442.000,A,3748.7925,N,12217.8447,W,1.71,125.10,031012,,,A*75
