$ADVER,3080,2.3
$GPRMC,221604.637,A,3748.7550,N,12217.8996,W,0.66,291.93,190511,,,A*76
$GPGGA,221605.637,3748.7562,N,12217.9011,W,1,05,3.2,58.8,M,-25.1,M,,0000*54
$GPGSA,A,3,03,07,08,28,10,,,,,,,,6.5,3.2,5.7*35
$GPRMC,221605.637,A,3748.7562,N,12217.9011,W,0.45,216.77,190511,,,A*75
$GPVTG,216.77,T,,M,0.45,N,0.8,K,A*01
$GPGGA,221606.000,3748.7566,N,12217.9008,W,1,05,3.2,56.4,M,-25.1,M,,0000*5B
$GPGSA,A,3,03,07,08,28,10,,,,,,,,6.5,3.2,5.7*35
$GPRMC,221606.000,A,3748.7566,N,12217.9008,W,0.73,221.43,190511,,,A*7E
$GPVTG,221.43,T,,M,0.73,N,1.3,K,A*0D
$GPGGA,221607.000,3748.7570,N,12217.9008,W,1,05,3.2,52.1,M,-25.1,M,,0000*5C
$GPGSA,A,3,03,07,08,28,10,,,,,,,,6.5,3.2,5.7*35
$GPRMC,221607.000,A,3748.7570,N,12217.9008,W,0.39,198.93,190511,,,A*7A
$GPVTG,198.93,T,,M,0.39,N,0.7,K,A*0A
$GPGGA,221608.000,3748.7581,N,12217.9007,W,1,05,3.2,44.8,M,-25.1,M,,0000*5C
$GPGSA,A,3,03,07,08,28,10,,,,,,,,6.5,3.2,5.7*35
$GPGSV,3,1,12,07,60,309,33,10,43,274,37,08,37,277,39,03,27,075,20*72
$GPGSV,3,2,12,28,15,212,36,13,74,088,24,23,39,122,21,19,22,108,24*78
$GPGSV,3,3,12,06,19,061,21,16,16,041,22,05,12,319,16,01,08,214,*71
$GPRMC,221608.000,A,3748.7581,N,12217.9007,W,0.68,201.81,190511,,,A*70
$GPVTG,201.81,T,,M,0.68,N,1.3,K,A*0B
$GPGGA,221609.000,3748.7585,N,12217.9007,W,1,05,3.2,40.8,M,-25.1,M,,0000*5D
$GPGSA,A,3,03,07,08,28,10,,,,,,,,6.5,3.2,5.7*35
$GPRMC,221609.000,A,3748.7585,N,12217.9007,W,0.97,215.46,190511,,,A*7B
$GPVTG,215.46,T,,M,0.97,N,1.8,K,A*0E
$GPGGA,221609.000,3748.7590,N,12217.9005,W,1,05,3.2,36.5,M,-25.1,M,,0000*57
$GPGSA,A,3,03,07,08,28,10,,,,,,,,6.5,3.2,5.7*35
$GPRMC,221609.000,A,3748.7590,N,12217.9005,W,1.16,231.94,190511,,,A*7C
$GPVTG,231.94,T,,M,1.16,N,2.2,K,A*06
$GPGGA,221610.000,3748.7596,N,12217.9001,W,1,05,3.2,32.4,M,-25.1,M,,0000*58
$GPGSA,A,3,03,07,08,28,10,,,,,,,,6.5,3.2,5.7*35
$GPRMC,221610.000,A,3748.7596,N,12217.9001,W,0.31,178.51,190511,,,A*75
$GPVTG,178.51,T,,M,0.31,N,0.6,K,A*03
$GPGGA,221611.000,3748.7595,N,12217.9000,W,1,05,3.2,30.9,M,-25.1,M,,0000*54
$GPGSA,A,3,03,07,08,28,10,,,,,,,,6.5,3.2,5.7*35
$GPRMC,221611.000,A,3748.7595,N,12217.9000,W,0.31,255.62,190511,,,A*7A
$GPVTG,255.62,T,,M,0.31,N,0.6,K,A*0F
$GPGGA,221612.000,3748.7599,N,12217.9005,W,1,05,3.2,29.5,M,-25.1,M,,0000*5A
$GPGSA,A,3,03,07,08,28,10,,,,,,,,6.5,3.2,5.7*35
$GPGSV,3,1,12,07,60,309,33,10,43,274,37,08,37,277,37,03,27,075,21*7D
$GPGSV,3,2,12,28,15,212,25,13,74,088,24,23,39,122,23,19,22,108,31*7C
$GPGSV,3,3,12,06,19,061,22,16,16,041,21,05,12,319,17,01,08,214,*70
$GPRMC,221612.000,A,3748.7599,N,12217.9005,W,0.55,240.25,190511,,,A*75
$GPVTG,240.25,T,,M,0.55,N,1.0,K,A*0D
$GPGGA,221613.000,3748.7598,N,12217.9008,W,1,05,3.2,28.1,M,-25.1,M,,0000*52
$GPGSA,A,3,03,07,08,28,10,,,,,,,,6.5,3.2,5.7*35
$GPRMC,221613.000,A,3748.7598,N,12217.9008,W,0.87,243.11,190511,,,A*73
$GPVTG,243.11,T,,M,0.87,N,1.6,K,A*00
$GPGGA,221614.000,3748.7595,N,12217.9013,W,1,05,3.2,27.5,M,-25.1,M,,0000*59
$GPGSA,A,3,03,07,08,28,10,,,,,,,,6.5,3.2,5.7*35
$GPRMC,221614.000,A,3748.7595,N,12217.9013,W,0.42,220.30,190511,,,A*7C
$GPVTG,220.30,T,,M,0.42,N,0.8,K,A*00
$GPGGA,221615.000,3748.7588,N,12217.9017,W,1,05,3.2,27.8,M,-25.1,M,,0000*5D
$GPGSA,A,3,03,07,08,28,10,,,,,,,,6.5,3.2,5.7*35
$GPRMC,221615.000,A,3748.7588,N,12217.9017,W,0.89,171.35,190511,,,A*70
$GPVTG,171.35,T,,M,0.89,N,1.7,K,A*0B
$GPGGA,221616.000,3748.7589,N,12217.9018,W,1,05,3.2,26.1,M,-25.1,M,,0000*58
$GPGSA,A,3,03,07,08,28,10,,,,,,,,6.5,3.2,5.7*35
$GPRMC,221616.000,A,3748.7589,N,12217.9018,W,0.82,143.40,190511,,,A*75
$GPVTG,143.40,T,,M,0.82,N,1.5,K,A*01
$GPGGA,221617.000,3748.7590,N,12217.9022,W,1,05,3.2,24.1,M,-25.1,M,,0000*5A
$GPGSA,A,3,03,07,08,28,10,,,,,,,,6.5,3.2,5.7*35
$GPGSV,3,1,12,13,74,088,26,07,60,309,33,10,43,273,37,23,39,122,22*78
$GPGSV,3,2,12,08,37,277,38,03,27,075,21,19,22,108,22,06,19,061,22*71
$GPGSV,3,3,12,16,16,041,21,28,15,212,35,05,12,319,18,01,08,214,*7F
$GPVTG,190.98,T,,M,0.72,N,1.3,K,A*03
$GPGGA,221618.000,3748.7591,N,12217.9026,W,1,05,3.2,22.2,M,-25.1,M,,0000*55
$GPGSA,A,3,03,07,08,28,10,,,,,,,,6.5,3.2,5.7*35
$GPRMC,221618.000,A,3748.7591,N,12217.9026,W,0.34,189.98,190511,,,A*71
$GPVTG,189.98,T,,M,0.34,N,0.6,K,A*0D
$GPGGA,221619.000,3748.7591,N,12217.9030,W,1,05,3.2,20.3,M,-25.1,M,,0000*50
$GPGSA,A,3,03,07,08,28,10,,,,,,,,6.5,3.2,5.7*35
$GPRMC,221619.000,A,3748.7591,N,12217.9030,W,0.72,154.78,190511,,,A*7B
$GPVTG,154.78,T,,M,0.72,N,1.3,K,A*05
$GPGGA,221620.000,3748.7596,N,12217.9027,W,1,05,3.2,17.0,M,-25.1,M,,0000*5C
$GPGSA,A,3,03,07,08,28,10,,,,,,,,6.5,3.2,5.7*35
$GPRMC,221620.000,A,3748.7596,N,12217.9027,W,1.06,112.20,190511,,,A*7D
$GPVTG,112.20,T,,M,1.06,N,2.0,K,A*08
$GPGGA,221621.000,3748.7597,N,12217.9026,W,1,05,3.2,14.9,M,-25.1,M,,0000*57
$GPGSA,A,3,03,07,08,28,10,,,,,,,,6.5,3.2,5.7*35
$GPRMC,221621.000,A,3748.7597,N,12217.9026,W,1.08,116.90,190511,,,A*7D
$GPVTG,116.90,T,,M,1.08,N,2.0,K,A*09
$GPGGA,221622.000,3748.7601,N,12217.9022,W,2,05,3.2,11.6,M,-25.1,M,,0000*55
$GPGSA,A,3,03,07,08,28,10,,,,,,,,6.5,3.2,5.7*35
$GPGSV,3,1,12,13,74,088,26,07,60,309,33,10,43,273,37,23,39,122,22*78
$GPGSV,3,2,12,08,37,277,38,03,27,075,20,19,22,108,23,06,19,061,22*71
$GPGSV,3,3,12,16,16,041,14,28,15,212,32,05,12,319,22,01,08,214,*77
$GPRMC,221622.000,A,3748.7601,N,12217.9022,W,0.41,113.92,190511,,,D*78
$GPVTG,113.92,T,,M,0.41,N,0.8,K,D*0D
$GPGGA,221623.000,3748.7603,N,12217.9025,W,2,05,3.2,9.8,M,-25.1,M,2.8,0000*42
$GPGSA,A,3,03,07,08,28,10,,,,,,,,6.5,3.2,5.7*35
$GPRMC,221623.000,A,3748.7603,N,12217.9025,W,0.19,359.07,190511,,,D*71
$GPVTG,359.07,T,,M,0.19,N,0.3,K,D*0B
$GPGGA,221624.000,3748.7605,N,12217.9030,W,2,05,3.2,8.3,M,-25.1,M,3.8,0000*4C
$GPGSA,A,3,03,07,08,28,10,,,,,,,,6.5,3.2,5.7*35
$GPRMC,221624.000,A,3748.7605,N,12217.9030,W,0.38,359.58,190511,,,D*7D
$GPVTG,359.58,T,,M,0.38,N,0.7,K,D*06
$GPGGA,221625.000,3748.7604,N,12217.9034,W,2,05,3.2,6.9,M,-25.1,M,,0000*69
$GPGSA,A,3,03,07,08,28,10,,,,,,,,6.5,3.2,5.7*35
$GPRMC,221625.000,A,3748.7604,N,12217.9034,W,0.14,192.74,190511,,,D*7C
$GPVTG,192.74,T,,M,0.14,N,0.3,K,D*07
$GPGGA,221626.000,3748.7604,N,12217.9037,W,2,05,3.2,5.3,M,-25.1,M,2.8,0000*44
$GPGSA,A,3,03,07,08,28,10,,,,,,,,6.5,3.2,5.7*35
$GPRMC,221626.000,A,3748.7604,N,12217.9037,W,0.23,277.84,190511,,,D*7F
$GPVTG,277.84,T,,M,0.23,N,0.4,K,D*03
$GPGGA,221627.000,3748.7604,N,12217.9041,W,2,05,3.2,3.6,M,-25.1,M,,0000*63
$GPGSA,A,3,03,07,08,28,10,,,,,,,,6.5,3.2,5.7*35
$GPGSV,3,1,12,13,74,088,26,07,60,309,33,10,43,273,37,23,39,122,22*78
$GPGSV,3,2,12,08,37,277,38,03,27,075,21,19,22,108,23,06,19,061,22*70
$GPGSV,3,3,12,16,16,041,23,28,15,212,37,05,12,319,27,01,08,214,*73
$GPRMC,221627.000,A,3748.7604,N,12217.9041,W,0.44,274.98,190511,,,D*70
$GPVTG,274.98,T,,M,0.44,N,0.8,K,D*00
$GPGGA,221628.000,3748.7608,N,12217.9047,W,2,05,3.2,2.0,M,-25.1,M,,0000*61
$GPGSA,A,3,03,07,08,28,10,,,,,,,,6.5,3.2,5.7*35
$GPRMC,221628.000,A,3748.7608,N,12217.9047,W,0.63,272.56,190511,,,D*74
$GPVTG,272.56,T,,M,0.63,N,1.2,K,D*0A
$GPGGA,221629.000,3748.7607,N,12217.9052,W,2,05,3.2,0.8,M,-25.1,M,,0000*61
$GPGSA,A,3,03,07,08,28,10,,,,,,,,6.5,3.2,5.7*35
$GPRMC,221629.000,A,3748.7607,N,12217.9052,W,0.42,253.23,190511,,,D*7C
$GPVTG,253.23,T,,M,0.42,N,0.8,K,D*03
$GPGGA,221630.000,3748.7607,N,12217.9055,W,2,05,3.2,-0.4,M,-25.1,M,1.8,0000*68
$GPGSA,A,3,03,07,08,28,10,,,,,,,,6.5,3.2,5.7*35
$GPRMC,221630.000,A,3748.7607,N,12217.9055,W,0.09,203.36,190511,,,D*7D
$GPVTG,203.36,T,,M,0.09,N,0.2,K,D*07
$GPGGA,221631.000,3748.7607,N,12217.9057,W,2,05,3.2,-1.8,M,-25.1,M,2.8,0000*65
$GPGSA,A,3,03,07,08,28,10,,,,,,,,6.5,3.2,5.7*35
$GPRMC,221631.000,A,3748.7607,N,12217.9057,W,0.18,152.94,190511,,,D*71
$GPVTG,152.94,T,,M,0.18,N,0.3,K,D*09
$GPGGA,221632.000,3748.7605,N,12217.9059,W,2,05,3.2,-3.0,M,-25.1,M,3.8,0000*61
$GPGSA,A,3,03,07,08,28,10,,,,,,,,6.5,3.2,5.7*35
$GPGSV,3,1,12,13,74,088,26,07,60,309,33,10,43,273,37,23,39,122,22*78
$GPGSV,3,2,12,08,37,277,39,03,27,075,20,19,22,108,23,06,19,061,21*73
$GPRMC,221632.000,A,3748.7605,N,12217.9059,W,0.30,221.24,190511,,,D*78
$GPVTG,221.24,T,,M,0.30,N,0.5,K,D*09
$GPGGA,221633.000,3748.7600,N,12217.9062,W,2,05,3.2,-3.8,M,-25.1,M,,0000*40
$GPGSA,A,3,03,07,08,28,10,,,,,,,,6.5,3.2,5.7*35
$GPRMC,221633.000,A,3748.7600,N,12217.9062,W,0.62,218.28,190511,,,D*75
$GPVTG,218.28,T,,M,0.62,N,1.1,K,D*0D
$GPGGA,221634.000,3748.7594,N,12217.9068,W,2,05,3.2,-3.6,M,-25.1,M,2.8,0000*69
$GPGSA,A,3,03,07,08,28,10,,,,,,,,6.5,3.2,5.7*35
$GPRMC,221634.000,A,3748.7594,N,12217.9068,W,0.69,178.45,190511,,,D*73
$GPVTG,178.45,T,,M,0.69,N,1.3,K,D*0A
$GPGGA,221635.000,3748.7588,N,12217.9072,W,2,05,3.2,-3.5,M,-25.1,M,3.8,0000*6C
$GPGSA,A,3,03,07,08,28,10,,,,,,,,6.5,3.2,5.7*35
$GPRMC,221635.000,A,3748.7588,N,12217.9072,W,0.56,154.99,190511,,,D*77
$GPVTG,154.99,T,,M,0.56,N,1.0,K,D*0A
$GPGGA,221636.000,3748.7581,N,12217.9072,W,2,05,3.2,-2.3,M,-25.1,M,,0000*44
$GPGSA,A,3,03,07,08,28,10,,,,,,,,6.5,3.2,5.7*35
$GPRMC,221636.000,A,3748.7581,N,12217.9072,W,0.81,212.58,190511,,,D*7B
$GPVTG,212.58,T,,M,0.81,N,1.5,K,D*09
$GPGGA,221637.000,3748.7578,N,12217.9073,W,2,05,3.2,-2.7,M,-25.1,M,2.8,0000*62
$GPGSA,A,3,03,07,08,28,10,,,,,,,,6.5,3.2,5.7*35
$GPGSV,3,1,12,13,74,088,26,07,60,309,26,10,43,273,33,23,39,122,29*73
$GPGSV,3,2,12,08,37,277,34,03,27,075,21,19,22,108,24,06,19,061,23*7A
$GPGSV,3,3,12,16,16,041,23,28,15,212,37,05,12,319,27,01,08,214,*73
$GPRMC,221637.000,A,3748.7578,N,12217.9073,W,0.53,208.94,190511,,,D*79
$GPVTG,208.94,T,,M,0.53,N,1.0,K,D*08
$GPGGA,221638.000,3748.7573,N,12217.9075,W,2,05,3.2,-1.8,M,-25.1,M,3.8,0000*6D
$GPGSA,A,3,03,07,08,28,10,,,,,,,,6.5,3.2,5.7*35
$GPRMC,221638.000,A,3748.7573,N,12217.9075,W,0.62,131.90,190511,,,D*74
$GPVTG,131.90,T,,M,0.62,N,1.1,K,D*06
$GPGGA,221639.000,3748.7570,N,12217.9078,W,2,05,3.2,-3.1,M,-25.1,M,,0000*4C
$GPGSA,A,3,03,07,08,28,10,,,,,,,,6.5,3.2,5.7*35
$GPRMC,221639.000,A,3748.7570,N,12217.9078,W,0.89,168.22,190511,,,D*7B
$GPVTG,168.22,T,,M,0.89,N,1.6,K,D*01
$GPGGA,221640.000,3748.7567,N,12217.9081,W,2,05,3.2,-4.3,M,-25.1,M,,0000*47
$GPGSA,A,3,03,07,08,28,10,,,,,,,,6.5,3.2,5.7*35
$GPRMC,221640.000,A,3748.7567,N,12217.9081,W,0.74,174.87,190511,,,D*75
$GPVTG,174.87,T,,M,0.74,N,1.4,K,D*03
$GPGGA,221641.000,3748.7564,N,12217.9087,W,2,05,3.2,-4.9,M,-25.1,M,,0000*49
$GPGSA,A,3,03,07,08,28,10,,,,,,,,6.5,3.2,5.7*35
$GPRMC,221641.000,A,3748.7564,N,12217.9087,W,0.69,181.93,190511,,,D*72
$GPVTG,181.93,T,,M,0.69,N,1.3,K,D*07
$GPGGA,221642.000,3748.7560,N,12217.9092,W,2,05,3.2,-5.6,M,-25.1,M,2.8,0000*60
$GPGSA,A,3,03,07,08,28,10,,,,,,,,6.5,3.2,5.7*35
$GPGSV,3,1,12,13,74,088,25,07,60,309,30,10,43,273,35,23,39,122,27*7F
$GPGSV,3,2,12,08,37,277,37,03,27,075,21,19,22,108,24,06,19,061,22*78
$GPGSV,3,3,12,16,16,041,18,28,15,212,35,05,12,319,16,01,08,214,*7B
$GPRMC,221642.000,A,3748.7560,N,12217.9092,W,0.74,181.98,190511,,,D*76
$GPVTG,181.98,T,,M,0.74,N,1.4,K,D*07
$GPGGA,221643.000,3748.7557,N,12217.9097,W,2,05,3.2,-6.5,M,-25.1,M,,0000*44
$GPGSA,A,3,03,07,08,28,10,,,,,,,,6.5,3.2,5.7*35
$GPRMC,221643.000,A,3748.7557,N,12217.9097,W,1.25,217.06,190511,,,D*78
$GPVTG,217.06,T,,M,1.25,N,2.3,K,D*0D
$GPGGA,221644.000,3748.7552,N,12217.9105,W,2,05,3.2,-7.0,M,-25.1,M,2.8,0000*6C
$GPGSA,A,3,03,07,08,28,10,,,,,,,,6.5,3.2,5.7*35
$GPRMC,221644.000,A,3748.7552,N,12217.9105,W,1.28,220.04,190511,,,D*7B
$GPVTG,220.04,T,,M,1.28,N,2.4,K,D*01
$GPGGA,221645.000,3748.7546,N,12217.9112,W,2,05,3.2,-7.0,M,-25.1,M,,0000*4A
$GPGSA,A,3,03,07,08,28,10,,,,,,,,6.5,3.2,5.7*35
$GPRMC,221645.000,A,3748.7546,N,12217.9112,W,1.23,201.49,190511,,,D*78
$GPVTG,201.49,T,,M,1.23,N,2.3,K,D*07
$GPGGA,221646.000,3748.7541,N,12217.9117,W,2,05,3.2,-7.4,M,-25.1,M,,0000*4F
$GPGSA,A,3,03,07,08,28,10,,,,,,,,6.5,3.2,5.7*35
$GPRMC,221646.000,A,3748.7541,N,12217.9117,W,1.28,199.70,190511,,,D*7A
$GPVTG,199.70,T,,M,1.28,N,2.4,K,D*03
$GPGGA,221647.000,3748.7536,N,12217.9119,W,2,05,3.2,-8.0,M,-25.1,M,,0000*4B
$GPGSA,A,3,03,07,08,28,10,,,,,,,,6.5,3.2,5.7*35
$GPGSV,3,1,12,13,73,089,26,07,61,310,31,10,43,273,36,23,39,123,25*72
$GPGSV,3,2,12,08,37,278,37,03,27,074,21,19,22,108,25,06,19,061,23*76
$GPGSV,3,3,12,16,15,041,19,28,15,212,33,05,13,319,16,01,09,215,*7E
$GPRMC,221647.000,A,3748.7536,N,12217.9119,W,0.95,189.97,190511,,,D*7A
$GPVTG,189.97,T,,M,0.95,N,1.8,K,D*03
$GPGGA,221648.000,3748.7533,N,12217.9122,W,2,05,3.2,-8.4,M,-25.1,M,2.8,0000*69
$GPGSA,A,3,03,07,08,28,10,,,,,,,,6.5,3.2,5.7*35
$GPRMC,221648.000,A,3748.7533,N,12217.9122,W,0.71,180.25,190511,,,D*72
$GPVTG,180.25,T,,M,0.71,N,1.3,K,D*02
$GPGGA,221649.000,3748.7529,N,12217.9124,W,2,05,3.2,-9.0,M,-25.1,M,3.8,0000*61
$GPGSA,A,3,03,07,08,28,10,,,,,,,,6.5,3.2,5.7*35
$GPRMC,221649.000,A,3748.7529,N,12217.9124,W,1.13,215.52,190511,,,D*74
$GPVTG,215.52,T,,M,1.13,N,2.1,K,D*09
$GPGGA,221650.000,3748.7523,N,12217.9131,W,2,05,3.2,-8.7,M,-25.1,M,4.8,0000*66
$GPGSA,A,3,03,07,08,28,10,,,,,,,,6.5,3.2,5.7*35
$GPRMC,221650.000,A,3748.7523,N,12217.9131,W,1.23,206.32,190511,,,D*75
$GPVTG,206.32,T,,M,1.23,N,2.3,K,D*0C
$GPGGA,221651.000,3748.7520,N,12217.9132,W,2,05,3.2,-9.5,M,-25.1,M,,0000*46
$GPGSA,A,3,03,07,08,28,10,,,,,,,,6.5,3.2,5.7*35
$GPRMC,221651.000,A,3748.7520,N,12217.9132,W,1.37,210.72,190511,,,D*72
$GPVTG,210.72,T,,M,1.37,N,2.5,K,D*0C
$GPGGA,221652.000,3748.7512,N,12217.9136,W,2,05,3.1,-8.3,M,-25.1,M,,0000*44
$GPGSA,A,3,03,07,08,28,10,,,,,,,,6.5,3.1,5.7*36
$GPGSV,3,1,12,13,73,089,26,07,61,310,31,10,43,273,37,23,39,123,25*73
$GPGSV,3,2,12,08,37,278,38,03,27,074,20,19,22,108,24,06,19,061,23*79
$GPGSV,3,3,12,16,15,041,24,28,15,212,36,05,13,319,16,01,09,215,*75
$GPRMC,221652.000,A,3748.7512,N,12217.9136,W,1.75,223.09,190511,,,D*7E
$GPGGA,221653.000,3748.7504,N,12217.9141,W,2,05,3.1,-7.4,M,-25.1,M,,0000*4A
$GPGSA,A,3,03,07,08,28,10,,,,,,,,6.5,3.1,5.7*36
$GPRMC,221653.000,A,3748.7504,N,12217.9141,W,1.61,212.19,190511,,,D*7E
$GPVTG,212.19,T,,M,1.61,N,3.0,K,D*04
$GPGGA,221654.000,3748.7497,N,12217.9145,W,2,05,3.1,-6.7,M,-25.1,M,2.8,0000*64
$GPGSA,A,3,03,07,08,28,10,,,,,,,,6.5,3.1,5.7*36
$GPRMC,221654.000,A,3748.7497,N,12217.9145,W,1.53,197.14,190511,,,D*74
$GPVTG,197.14,T,,M,1.53,N,2.8,K,D*0F
$GPGGA,221655.000,3748.7491,N,12217.9148,W,2,05,3.1,-6.5,M,-25.1,M,3.8,0000*6D
$GPGSA,A,3,03,07,08,28,10,,,,,,,,6.5,3.1,5.7*36
$GPRMC,221655.000,A,3748.7491,N,12217.9148,W,1.46,200.41,190511,,,D*77
$GPVTG,200.41,T,,M,1.46,N,2.7,K,D*09
$GPGGA,221656.000,3748.7486,N,12217.9152,W,2,05,3.1,-6.2,M,-25.1,M,4.8,0000*63
$GPGSA,A,3,03,07,08,28,10,,,,,,,,6.5,3.1,5.7*36
$GPRMC,221656.000,A,3748.7486,N,12217.9152,W,1.29,196.35,190511,,,D*7F
$GPVTG,196.35,T,,M,1.29,N,2.4,K,D*0C
$GPGGA,221657.000,3748.7481,N,12217.9155,W,2,05,3.1,-6.1,M,-25.1,M,,0000*43
$GPGSA,A,3,03,07,08,28,10,,,,,,,,6.5,3.1,5.7*36
$GPGSV,3,1,12,13,73,089,26,07,61,310,31,10,43,273,37,23,39,123,26*70
$GPGSV,3,2,12,08,37,278,38,03,27,074,21,19,22,108,27,06,19,061,22*7A
$GPGSV,3,3,12,16,15,041,23,28,15,212,38,05,13,319,17,01,09,215,*7D
$GPRMC,221657.000,A,3748.7481,N,12217.9155,W,1.03,190.18,190511,,,D*7F
$GPVTG,190.18,T,,M,1.03,N,1.9,K,D*03
$GPGGA,221658.000,3748.7475,N,12217.9161,W,2,05,3.1,-5.4,M,-25.1,M,,0000*46
$GPGSA,A,3,03,07,08,28,10,,,,,,,,6.5,3.1,5.7*36
$GPRMC,221658.000,A,3748.7475,N,12217.9161,W,1.11,188.79,190511,,,D*71
$GPVTG,188.79,T,,M,1.11,N,2.0,K,D*04
$GPGGA,221659.000,3748.7470,N,12217.9161,W,2,05,3.1,-5.8,M,-25.1,M,2.8,0000*6A
$GPGSA,A,3,03,07,08,28,10,,,,,,,,6.5,3.1,5.7*36
$GPRMC,221659.000,A,3748.7470,N,12217.9161,W,1.59,184.53,190511,,,D*7D
$GPVTG,184.53,T,,M,1.59,N,2.9,K,D*05
$GPGGA,221700.000,3748.7465,N,12217.9160,W,2,05,3.1,-5.8,M,-25.1,M,,0000*46
$GPGSA,A,3,03,07,08,28,10,,,,,,,,6.5,3.1,5.7*36
$GPRMC,221700.000,A,3748.7465,N,12217.9160,W,1.06,165.33,190511,,,D*76
$GPVTG,165.33,T,,M,1.06,N,2.0,K,D*0F
$GPGGA,221701.000,3748.7459,N,12217.9163,W,2,05,3.1,-5.4,M,-25.1,M,,0000*47
$GPGSA,A,3,03,07,08,28,10,,,,,,,,6.5,3.1,5.7*36
$GPRMC,221701.000,A,3748.7459,N,12217.9163,W,1.44,185.38,190511,,,D*78
$GPVTG,185.38,T,,M,1.44,N,2.7,K,D*0B
$GPGGA,221702.000,3748.7453,N,12217.9166,W,2,05,3.1,-4.9,M,-25.1,M,1.8,0000*60
$GPGSA,A,3,03,07,08,28,10,,,,,,,,6.5,3.1,5.7*36
$GPGSV,3,1,12,13,73,089,26,07,61,310,31,10,43,273,37,23,39,123,26*70
$GPGSV,3,2,12,08,37,278,38,03,27,074,22,19,22,108,26,06,19,061,22*78
$GPGSV,3,3,12,16,15,041,22,28,15,212,37,05,13,319,14,01,09,215,*70
$GPRMC,221702.000,A,3748.7453,N,12217.9166,W,1.35,176.33,190511,,,D*75
$GPVTG,176.33,T,,M,1.35,N,2.5,K,D*08
$GPGGA,221703.000,3748.7445,N,12217.9168,W,2,05,3.1,-3.1,M,-25.1,M,,0000*40
$GPGSA,A,3,03,07,08,28,10,,,,,,,,6.5,3.1,5.7*36
$GPRMC,221703.000,A,3748.7445,N,12217.9168,W,1.32,179.98,190511,,,D*74
$GPVTG,179.98,T,,M,1.32,N,2.4,K,D*00
$GPGGA,221704.000,3748.7436,N,12217.9173,W,2,05,3.1,-1.6,M,-25.1,M,2.8,0000*68
$GPGSA,A,3,03,07,08,28,10,,,,,,,,6.5,3.1,5.7*36
$GPRMC,221704.000,A,3748.7436,N,12217.9173,W,1.54,181.53,190511,,,D*7D
$GPVTG,181.53,T,,M,1.54,N,2.9,K,D*0D
$GPGGA,221705.000,3748.7431,N,12217.9179,W,2,05,3.1,-0.9,M,-25.1,M,3.8,0000*6B
$GPGSA,A,3,03,07,08,28,10,,,,,,,,6.5,3.1,5.7*36
$GPRMC,221705.000,A,3748.7431,N,12217.9179,W,1.36,197.05,190511,,,D*71
$GPVTG,197.05,T,,M,1.36,N,2.5,K,D*01
$GPGGA,221706.000,3748.7421,N,12217.9186,W,2,05,3.1,1.1,M,-25.1,M,4.8,0000*4A
$GPGSA,A,3,03,07,08,28,10,,,,,,,,6.5,3.1,5.7*36
$GPRMC,221706.000,A,3748.7421,N,12217.9186,W,1.55,191.03,190511,,,D*76
$GPVTG,191.03,T,,M,1.55,N,2.9,K,D*08
$GPGGA,221707.000,3748.7416,N,12217.9189,W,2,05,3.1,1.2,M,-25.1,M,,0000*61
$GPGSA,A,3,03,07,08,28,10,,,,,,,,6.5,3.1,5.7*36
$GPGSV,3,1,12,13,73,089,20,07,61,310,27,10,43,273,35,23,39,123,25*70
$GPGSV,3,2,12,08,37,278,35,03,27,074,23,19,22,108,25,06,19,061,22*77
$GPGSV,3,3,12,16,15,041,18,28,15,212,38,05,13,319,16,01,09,215,*74
$GPVTG,182.68,T,,M,1.62,N,3.0,K,D*0B
$GPGGA,221708.000,3748.7410,N,12217.9193,W,2,05,3.1,1.6,M,-25.1,M,2.8,0000*43
$GPGSA,A,3,03,07,08,28,10,,,,,,,,6.5,3.1,5.7*36
$GPRMC,221708.000,A,3748.7410,N,12217.9193,W,1.41,178.30,190511,,,D*7C
$GPVTG,178.30,T,,M,1.41,N,2.6,K,D*05
$GPGGA,221709.000,3748.7404,N,12217.9200,W,2,05,3.1,2.1,M,-25.1,M,,0000*6E
$GPGSA,A,3,03,07,08,28,10,,,,,,,,6.5,3.1,5.7*36
$GPRMC,221709.000,A,3748.7404,N,12217.9200,W,1.62,207.90,190511,,,D*71
$GPVTG,207.90,T,,M,1.62,N,3.0,K,D*02
$GPGGA,221710.000,3748.7400,N,12217.9206,W,2,05,3.1,1.8,M,-25.1,M,,0000*6E
$GPGSA,A,3,03,07,08,28,10,,,,,,,,6.5,3.1,5.7*36
$GPRMC,221710.000,A,3748.7400,N,12217.9206,W,1.53,201.07,190511,,,D*71
$GPVTG,201.07,T,,M,1.53,N,2.8,K,D*01
$GPGGA,221711.000,3748.7397,N,12217.9209,W,2,05,3.1,0.8,M,-25.1,M,,0000*68
$GPGSA,A,3,03,07,08,28,10,,,,,,,,6.5,3.1,5.7*36
$GPRMC,221711.000,A,3748.7397,N,12217.9209,W,1.59,192.15,190511,,,D*76
$GPVTG,192.15,T,,M,1.59,N,3.0,K,D*08
$GPGGA,221712.000,3748.7393,N,12217.9214,W,2,05,3.1,0.2,M,-25.1,M,2.8,0000*4D
$GPGSA,A,3,03,07,08,28,10,,,,,,,,6.5,3.1,5.7*36
$GPGSV,3,1,12,13,73,089,27,07,61,310,29,10,43,273,36,23,39,123,25*7A
$GPGSV,3,2,12,08,37,278,37,03,27,074,22,19,22,108,25,06,19,061,23*75
$GPGSV,3,3,12,16,15,041,19,28,15,212,37,05,13,319,20,01,09,215,*7F
$GPRMC,221712.000,A,3748.7393,N,12217.9214,W,1.63,197.40,190511,,,D*71
$GPVTG,197.40,T,,M,1.63,N,3.0,K,D*04
$GPGGA,221713.000,3748.7388,N,12217.9218,W,2,05,3.1,-0.1,M,-25.1,M,3.8,0000*65
$GPGSA,A,3,03,07,08,28,10,,,,,,,,6.5,3.1,5.7*36
$GPRMC,221713.000,A,3748.7388,N,12217.9218,W,1.65,202.33,190511,,,D*7B
$GPVTG,202.33,T,,M,1.65,N,3.1,K,D*08
$GPGGA,221714.000,3748.7383,N,12217.9224,W,2,05,3.1,-0.3,M,-25.1,M,4.8,0000*63
$GPGSA,A,3,03,07,08,28,10,,,,,,,,6.5,3.1,5.7*36
$GPRMC,221714.000,A,3748.7383,N,12217.9224,W,2.00,214.31,190511,,,D*7D
$GPVTG,214.31,T,,M,2.00,N,3.7,K,D*0B
$GPGGA,221715.000,3748.7378,N,12217.9229,W,2,05,3.1,-0.4,M,-25.1,M,,0000*4E
$GPGSA,A,3,03,07,08,28,10,,,,,,,,6.5,3.1,5.6*37
$GPRMC,221715.000,A,3748.7378,N,12217.9229,W,1.88,200.91,190511,,,D*79
$GPVTG,200.91,T,,M,1.88,N,3.5,K,D*05
$GPGGA,221716.000,3748.7372,N,12217.9233,W,2,05,3.1,-0.7,M,-25.1,M,,0000*4F
$GPGSA,A,3,03,07,08,28,10,,,,,,,,6.5,3.1,5.6*37
$GPRMC,221716.000,A,3748.7372,N,12217.9233,W,1.72,191.27,190511,,,D*78
$GPVTG,191.27,T,,M,1.72,N,3.2,K,D*01
$GPGGA,221717.000,3748.7368,N,12217.9237,W,2,05,3.1,-1.1,M,-25.1,M,,0000*46
$GPGSA,A,3,03,07,08,28,10,,,,,,,,6.5,3.1,5.6*37
$GPGSV,3,1,12,13,73,089,26,07,61,310,30,10,43,273,37,23,39,123,24*73
$GPGSV,3,2,12,08,37,278,38,03,27,074,22,19,22,108,24,06,19,061,22*7A
$GPGSV,3,3,12,16,15,041,19,28,15,212,37,05,13,319,17,01,09,215,*7B
$GPRMC,221717.000,A,3748.7368,N,12217.9237,W,1.44,186.18,190511,,,D*79
$GPVTG,186.18,T,,M,1.44,N,2.7,K,D*0A
$GPGGA,221718.000,3748.7363,N,12217.9239,W,2,05,3.1,-1.4,M,-25.1,M,1.8,0000*6E
$GPGSA,A,3,03,07,08,28,10,,,,,,,,6.5,3.1,5.6*37
$GPRMC,221718.000,A,3748.7363,N,12217.9239,W,1.44,178.60,190511,,,D*7D
$GPVTG,178.60,T,,M,1.44,N,2.7,K,D*04
$GPGGA,221719.000,3748.7358,N,12217.9244,W,2,05,3.1,-1.5,M,-25.1,M,2.8,0000*6F
$GPGSA,A,3,03,07,08,28,10,,,,,,,,6.5,3.1,5.6*37
$GPRMC,221719.000,A,3748.7358,N,12217.9244,W,1.58,181.59,190511,,,D*7F
$GPVTG,181.59,T,,M,1.58,N,2.9,K,D*0B
$GPGGA,221720.000,3748.7353,N,12217.9246,W,2,05,3.1,-1.9,M,-25.1,M,3.8,0000*61
$GPGSA,A,3,03,07,08,28,10,,,,,,,,6.5,3.1,5.6*37
$GPRMC,221720.000,A,3748.7353,N,12217.9246,W,1.52,171.96,190511,,,D*7A
$GPVTG,171.96,T,,M,1.52,N,2.8,K,D*0C
$GPGGA,221721.000,3748.7348,N,12217.9249,W,2,05,3.1,-2.2,M,-25.1,M,1.8,0000*6F
$GPGSA,A,3,03,07,08,28,10,,,,,,,,6.5,3.1,5.6*37
$GPRMC,221721.000,A,3748.7348,N,12217.9249,W,1.36,184.45,190511,,,D*78
$GPVTG,184.45,T,,M,1.36,N,2.5,K,D*07
$GPGGA,221722.000,3748.7344,N,12217.9253,W,2,05,3.1,-2.5,M,-25.1,M,1.8,0000*6C
$GPGSA,A,3,03,07,08,28,10,,,,,,,,6.5,3.1,5.6*37
$GPGSV,3,1,12,13,73,089,26,07,61,310,31,10,43,273,37,23,39,123,23*75
$GPGSV,3,2,12,08,37,278,38,03,27,074,21,19,22,108,25,06,19,061,22*78
$GPGSV,3,3,12,16,15,041,19,28,15,212,37,05,13,319,17,01,09,215,*7B
$GPVTG,180.50,T,,M,1.21,N,2.2,K,D*06
$GPGGA,221723.000,3748.7336,N,12217.9261,W,2,05,3.1,-1.6,M,-25.1,M,2.8,0000*6A
$GPGSA,A,3,03,07,08,28,10,,,,,,,,6.5,3.1,5.6*37
$GPRMC,221723.000,A,3748.7336,N,12217.9261,W,1.38,171.60,190511,,,D*7A
$GPVTG,171.60,T,,M,1.38,N,2.5,K,D*04
$GPGGA,221724.000,3748.7331,N,12217.9264,W,2,05,3.1,-1.7,M,-25.1,M,3.8,0000*6F
$GPGSA,A,3,03,07,08,28,10,,,,,,,,6.5,3.1,5.6*37
$GPRMC,221724.000,A,3748.7331,N,12217.9264,W,1.48,190.67,190511,,,D*70
$GPVTG,190.67,T,,M,1.48,N,2.7,K,D*09
$GPGGA,221725.000,3748.7323,N,12217.9272,W,2,05,3.1,-0.6,M,-25.1,M,4.8,0000*6D
$GPGSA,A,3,03,07,08,28,10,,,,,,,,6.5,3.1,5.6*37
$GPRMC,221725.000,A,3748.7323,N,12217.9272,W,1.63,211.27,190511,,,D*72
$GPVTG,211.27,T,,M,1.63,N,3.0,K,D*08
$GPGGA,221726.000,3748.7317,N,12217.9275,W,2,05,3.1,-0.2,M,-25.1,M,5.8,0000*6B
$GPGSA,A,3,03,07,08,28,10,,,,,,,,6.5,3.1,5.6*37
$GPRMC,221726.000,A,3748.7317,N,12217.9275,W,1.51,193.67,190511,,,D*7D
$GPVTG,193.67,T,,M,1.51,N,2.8,K,D*0D
$GPGGA,221727.000,3748.7313,N,12217.9279,W,2,05,3.1,-0.5,M,-25.1,M,1.8,0000*61
$GPGSA,A,3,03,07,08,28,10,,,,,,,,6.5,3.1,5.6*37
$GPGSV,3,1,12,13,73,089,26,07,61,310,31,10,43,273,37,23,39,123,23*75
$GPGSV,3,2,12,08,37,278,37,03,27,074,21,19,22,108,25,06,19,061,22*77
$GPGSV,3,3,12,16,15,041,19,28,15,212,38,05,13,319,16,01,09,215,*75
$GPRMC,221727.000,A,3748.7313,N,12217.9279,W,1.41,192.30,190511,,,D*76
$GPVTG,192.30,T,,M,1.41,N,2.6,K,D*01
$GPGGA,221728.000,3748.7308,N,12217.9284,W,2,05,3.1,-0.6,M,-25.1,M,1.8,0000*65
$GPGSA,A,3,03,07,08,28,10,,,,,,,,6.5,3.1,5.6*37
$GPRMC,221728.000,A,3748.7308,N,12217.9284,W,1.32,199.27,190511,,,D*78
$GPVTG,199.27,T,,M,1.32,N,2.4,K,D*0A
$GPGGA,221729.000,3748.7303,N,12217.9289,W,2,05,3.1,-0.8,M,-25.1,M,1.8,0000*6C
$GPGSA,A,3,03,07,08,28,10,,,,,,,,6.5,3.1,5.6*37
$GPRMC,221729.000,A,3748.7303,N,12217.9289,W,1.30,192.53,190511,,,D*75
$GPVTG,192.53,T,,M,1.30,N,2.4,K,D*00
$GPGGA,221730.000,3748.7299,N,12217.9292,W,2,05,3.1,-1.2,M,-25.1,M,2.8,0000*64
$GPGSA,A,3,03,07,08,28,10,,,,,,,,6.4,3.1,5.6*36
$GPRMC,221730.000,A,3748.7299,N,12217.9292,W,1.65,176.86,190511,,,D*77
$GPVTG,176.86,T,,M,1.65,N,3.1,K,D*06
$GPGGA,221731.000,3748.7291,N,12217.9299,W,2,05,3.1,-0.7,M,-25.1,M,3.8,0000*63
$GPGSA,A,3,03,07,08,28,10,,,,,,,,6.4,3.1,5.6*36
$GPRMC,221731.000,A,3748.7291,N,12217.9299,W,1.55,176.10,190511,,,D*79
$GPVTG,176.10,T,,M,1.55,N,2.9,K,D*03
$GPGGA,221732.000,3748.7286,N,12217.9302,W,2,05,3.1,-0.9,M,-25.1,M,1.8,0000*69
$GPGSA,A,3,03,07,08,28,10,,,,,,,,6.4,3.1,5.6*36
$GPGSV,3,1,12,13,73,089,26,07,61,310,32,10,43,273,37,23,39,123,23*76
$GPGSV,3,2,12,08,37,278,37,03,27,074,21,19,22,108,25,06,19,061,24*71
$GPGSV,3,3,12,16,15,041,20,28,15,212,38,05,13,319,17,01,09,215,*7E
$GPRMC,221732.000,A,3748.7286,N,12217.9302,W,1.57,171.74,190511,,,D*78
$GPVTG,171.74,T,,M,1.57,N,2.9,K,D*04
$GPGGA,221733.000,3748.7279,N,12217.9307,W,2,05,3.1,-0.9,M,-25.1,M,0.8,0000*6C
$GPGSA,A,3,03,07,08,28,10,,,,,,,,6.4,3.1,5.6*36
$GPRMC,221733.000,A,3748.7279,N,12217.9307,W,1.83,201.17,190511,,,D*74
$GPVTG,201.17,T,,M,1.83,N,3.4,K,D*00
$GPGGA,221734.000,3748.7274,N,12217.9313,W,2,05,3.1,-1.2,M,-25.1,M,1.8,0000*68
$GPGSA,A,3,03,07,08,28,10,,,,,,,,6.4,3.1,5.6*36
$GPRMC,221734.000,A,3748.7274,N,12217.9313,W,2.04,210.03,190511,,,D*72
$GPVTG,210.03,T,,M,2.04,N,3.8,K,D*05
$GPGGA,221735.000,3748.7269,N,12217.9317,W,2,05,3.1,-1.9,M,-25.1,M,1.8,0000*6A
$GPGSA,A,3,03,07,08,28,10,,,,,,,,6.4,3.1,5.6*36
$GPRMC,221735.000,A,3748.7269,N,12217.9317,W,1.75,202.06,190511,,,D*78
$GPVTG,202.06,T,,M,1.75,N,3.2,K,D*0C
$GPGGA,221736.000,3748.7264,N,12217.9322,W,2,05,3.1,-2.4,M,-25.1,M,2.8,0000*6F
$GPGSA,A,3,03,07,08,28,10,,,,,,,,6.4,3.1,5.6*36
$GPRMC,221736.000,A,3748.7264,N,12217.9322,W,1.69,197.11,190511,,,D*74
$GPVTG,197.11,T,,M,1.69,N,3.1,K,D*0B
$GPGGA,221737.000,3748.7260,N,12217.9326,W,2,05,3.1,-3.0,M,-25.1,M,3.8,0000*6A
$GPGSA,A,3,03,07,08,28,10,,,,,,,,6.4,3.1,5.6*36
$GPGSV,3,1,12,13,73,089,24,07,61,310,32,10,43,273,37,23,39,123,23*74
$GPGSV,3,2,12,08,37,278,37,03,27,074,21,19,22,108,25,06,19,061,18*7E
$GPGSV,3,3,12,16,15,041,19,28,15,212,39,05,13,319,17,01,09,215,*75
$GPVTG,189.91,T,,M,1.39,N,2.6,K,D*0F
$GPGGA,221738.000,3748.7254,N,12217.9330,W,2,05,3.1,-3.3,M,-25.1,M,1.8,0000*64
$GPGSA,A,3,03,07,08,28,10,,,,,,,,6.4,3.1,5.6*36
$GPRMC,221738.000,A,3748.7254,N,12217.9330,W,1.55,177.31,190511,,,D*79
$GPVTG,177.31,T,,M,1.55,N,2.9,K,D*01
$GPGGA,221739.000,3748.7247,N,12217.9336,W,2,05,3.1,-3.2,M,-25.1,M,1.8,0000*60
$GPGSA,A,3,03,07,08,28,10,,,,,,,,6.4,3.1,5.6*36
$GPRMC,221739.000,A,3748.7247,N,12217.9336,W,1.53,177.82,190511,,,D*72
$GPVTG,177.82,T,,M,1.53,N,2.8,K,D*0E
$GPGGA,221740.000,3748.7242,N,12217.9341,W,2,05,3.1,-3.3,M,-25.1,M,1.8,0000*6A
$GPGSA,A,3,03,07,08,28,10,,,,,,,,6.4,3.1,5.6*36
$GPRMC,221740.000,A,3748.7242,N,12217.9341,W,1.59,188.61,190511,,,D*7E
$GPVTG,188.61,T,,M,1.59,N,2.9,K,D*08
$GPGGA,221741.000,3748.7236,N,12217.9344,W,2,05,3.1,-3.7,M,-25.1,M,1.8,0000*69
$GPGSA,A,3,03,07,08,28,10,,,,,,,,6.4,3.1,5.6*36
$GPRMC,221741.000,A,3748.7236,N,12217.9344,W,1.52,176.46,190511,,,D*76
$GPVTG,176.46,T,,M,1.52,N,2.8,K,D*06
$GPGGA,221742.000,3748.7232,N,12217.9346,W,2,05,3.1,-4.3,M,-25.1,M,2.8,0000*6C
$GPGSA,A,3,03,07,08,28,10,,,,,,,,6.4,3.1,5.6*36
$GPGSV,3,1,12,13,73,089,26,07,61,310,32,10,43,273,37,23,39,123,19*7F
$GPGSV,3,2,12,08,37,278,38,03,27,074,20,19,22,108,20,06,19,061,18*75
$GPGSV,3,3,12,16,15,041,19,28,15,212,35,05,13,319,18,01,09,215,*76
$GPRMC,221742.000,A,3748.7232,N,12217.9346,W,1.67,173.23,190511,,,D*73
$GPVTG,173.23,T,,M,1.67,N,3.1,K,D*0E
$GPGGA,221743.000,3748.7226,N,12217.9349,W,2,05,3.1,-4.8,M,-25.1,M,3.8,0000*6D
$GPGSA,A,3,03,07,08,28,10,,,,,,,,6.4,3.1,5.6*36
$GPRMC,221743.000,A,3748.7226,N,12217.9349,W,1.96,170.24,190511,,,D*72
$GPVTG,170.24,T,,M,1.96,N,3.6,K,D*03
$GPGGA,221744.000,3748.7221,N,12217.9350,W,2,05,3.1,-5.4,M,-25.1,M,4.8,0000*6F
$GPGSA,A,3,03,07,08,28,10,,,,,,,,6.4,3.1,5.6*36
$GPRMC,221744.000,A,3748.7221,N,12217.9350,W,1.21,166.67,190511,,,D*76
$GPVTG,166.67,T,,M,1.21,N,2.2,K,D*0A
$GPGGA,221745.000,3748.7218,N,12217.9352,W,2,05,3.1,-6.1,M,-25.1,M,1.8,0000*65
$GPGSA,A,3,03,07,08,28,10,,,,,,,,6.4,3.1,5.6*36
$GPRMC,221745.000,A,3748.7218,N,12217.9352,W,0.94,163.14,190511,,,D*71
$GPVTG,163.14,T,,M,0.94,N,1.7,K,D*02
$GPGGA,221746.000,3748.7215,N,12217.9354,W,2,05,3.1,-6.8,M,-25.1,M,1.8,0000*64
$GPGSA,A,3,03,07,08,28,10,,,,,,,,6.4,3.1,5.6*36
$GPRMC,221746.000,A,3748.7215,N,12217.9354,W,0.97,171.02,190511,,,D*7E
$GPVTG,171.02,T,,M,0.97,N,1.8,K,D*0A
$GPGGA,221747.000,3748.7212,N,12217.9357,W,2,05,3.1,-7.6,M,-25.1,M,1.8,0000*6E
$GPGSA,A,3,03,07,08,28,10,,,,,,,,6.4,3.1,5.6*36
$GPGSV,3,1,12,13,73,090,26,07,61,311,33,10,43,273,38,23,39,123,19*78
$GPGSV,3,2,12,08,37,278,38,03,27,074,19,19,22,107,19,06,19,060,18*7B
$GPGSV,3,3,12,28,16,212,40,16,15,041,18,05,13,318,29,01,09,215,*75
$GPRMC,221747.000,A,3748.7212,N,12217.9357,W,1.00,160.66,190511,,,D*76
$GPVTG,160.66,T,,M,1.00,N,1.9,K,D*06
$GPGGA,221748.000,3748.7209,N,12217.9359,W,2,05,3.1,-8.2,M,-25.1,M,1.8,0000*6E
$GPGSA,A,3,03,07,08,28,10,,,,,,,,6.4,3.1,5.6*36
$GPRMC,221748.000,A,3748.7209,N,12217.9359,W,1.17,188.40,190511,,,D*79
$GPVTG,188.40,T,,M,1.17,N,2.2,K,D*0A
$GPGGA,221749.000,3748.7205,N,12217.9362,W,2,05,3.1,-8.8,M,-25.1,M,2.8,0000*62
$GPGSA,A,3,03,07,08,28,10,,,,,,,,6.4,3.1,5.6*36
$GPRMC,221749.000,A,3748.7205,N,12217.9362,W,1.23,187.57,190511,,,D*72
$GPVTG,187.57,T,,M,1.23,N,2.3,K,D*05
$GPGGA,221750.000,3748.7200,N,12217.9366,W,2,05,3.1,-9.1,M,-25.1,M,3.8,0000*62
$GPGSA,A,3,03,07,08,28,10,,,,,,,,6.4,3.1,5.6*36
$GPRMC,221750.000,A,3748.7200,N,12217.9366,W,1.35,192.57,190511,,,D*78
$GPVTG,192.57,T,,M,1.35,N,2.5,K,D*00
$GPGGA,221751.000,3748.7196,N,12217.9370,W,2,05,3.1,-9.8,M,-25.1,M,1.8,0000*63
$GPGSA,A,3,03,07,08,28,10,,,,,,,,6.4,3.1,5.6*36
$GPRMC,221751.000,A,3748.7196,N,12217.9370,W,1.22,183.69,190511,,,D*79
$GPVTG,183.69,T,,M,1.22,N,2.3,K,D*0D
$GPGGA,221752.000,3748.7192,N,12217.9372,W,2,05,3.1,-10.7,M,-25.1,M,1.8,0000*51
$GPGSA,A,3,03,07,08,28,10,,,,,,,,6.4,3.1,5.6*36
$GPGSV,3,1,12,13,73,090,26,07,61,311,33,10,43,273,38,23,39,123,21*73
$GPGSV,3,2,12,08,37,278,38,03,27,074,19,19,22,107,19,06,19,060,18*7B
$GPGSV,3,3,12,28,16,212,39,16,15,041,19,05,13,318,36,01,09,215,*74
$GPRMC,221752.000,A,3748.7192,N,12217.9372,W,0.97,174.63,190511,,,D*71
$GPVTG,174.63,T,,M,0.97,N,1.8,K,D*08
$GPGGA,221753.000,3748.7189,N,12217.9375,W,2,05,3.1,-11.5,M,-25.1,M,1.8,0000*5E
$GPGSA,A,3,03,07,08,28,10,,,,,,,,6.4,3.1,5.6*36
$GPRMC,221753.000,A,3748.7189,N,12217.9375,W,1.07,178.80,190511,,,D*74
$GPVTG,178.80,T,,M,1.07,N,2.0,K,D*0A
$GPGGA,221754.000,3748.7184,N,12217.9377,W,2,05,3.1,-12.3,M,-25.1,M,1.8,0000*53
$GPGSA,A,3,03,07,08,28,10,,,,,,,,6.4,3.1,5.6*36
$GPRMC,221754.000,A,3748.7184,N,12217.9377,W,1.44,164.28,190511,,,D*74
$GPVTG,164.28,T,,M,1.44,N,2.7,K,D*05
$GPGGA,221755.000,3748.7179,N,12217.9379,W,2,05,3.1,-13.1,M,-25.1,M,2.8,0000*5E
$GPGSA,A,3,03,07,08,28,10,,,,,,,,6.4,3.1,5.6*36
$GPRMC,221755.000,A,3748.7179,N,12217.9379,W,1.43,159.67,190511,,,D*7B
$GPVTG,159.67,T,,M,1.43,N,2.7,K,D*07
$GPGGA,221756.000,3748.7174,N,12217.9380,W,2,05,3.1,-13.8,M,-25.1,M,3.8,0000*5E
$GPGSA,A,3,03,07,08,28,10,,,,,,,,6.4,3.1,5.6*36
$GPRMC,221756.000,A,3748.7174,N,12217.9380,W,1.09,161.49,190511,,,D*7A
$GPVTG,161.49,T,,M,1.09,N,2.0,K,D*09
$GPGGA,221757.000,3748.7171,N,12217.9382,W,2,05,3.1,-14.7,M,-25.1,M,1.8,0000*52
$GPGSA,A,3,03,07,08,28,10,,,,,,,,6.4,3.1,5.6*36
$GPGSV,3,1,12,13,73,090,26,07,61,311,33,10,43,273,38,23,39,123,21*73
$GPGSV,3,2,12,08,37,278,38,03,27,074,20,19,22,107,19,06,19,060,18*71
$GPGSV,3,3,12,28,16,212,41,16,15,041,19,05,13,318,31,01,09,215,*7C
$GPRMC,221757.000,A,3748.7171,N,12217.9382,W,1.02,147.69,190511,,,D*71
$GPGGA,221758.000,3748.7168,N,12217.9384,W,2,05,3.1,-15.5,M,-25.1,M,1.8,0000*50
$GPGSA,A,3,03,07,08,28,10,,,,,,,,6.4,3.1,5.6*36
$GPRMC,221758.000,A,3748.7168,N,12217.9384,W,0.80,150.36,190511,,,D*77
$GPVTG,150.36,T,,M,0.80,N,1.5,K,D*05
$GPGGA,221759.000,3748.7165,N,12217.9387,W,2,05,3.1,-16.4,M,-25.1,M,1.8,0000*5D
$GPGSA,A,3,03,07,08,28,10,,,,,,,,6.4,3.1,5.6*36
$GPRMC,221759.000,A,3748.7165,N,12217.9387,W,0.73,219.65,190511,,,D*7C
$GPVTG,219.65,T,,M,0.73,N,1.3,K,D*07
$GPGGA,221800.000,3748.7161,N,12217.9393,W,2,05,3.1,-16.9,M,-25.1,M,2.8,0000*51
$GPGSA,A,3,03,07,08,28,10,,,,,,,,6.4,3.1,5.6*36
$GPRMC,221800.000,A,3748.7161,N,12217.9393,W,0.96,228.32,190511,,,D*75
$GPVTG,228.32,T,,M,0.96,N,1.8,K,D*07
$GPGGA,221801.000,3748.7158,N,12217.9398,W,2,05,3.1,-17.5,M,-25.1,M,3.8,0000*5D
$GPGSA,A,3,03,07,08,28,10,,,,,,,,6.4,3.1,5.6*36
$GPRMC,221801.000,A,3748.7158,N,12217.9398,W,0.95,198.13,190511,,,D*7D
$GPVTG,198.13,T,,M,0.95,N,1.8,K,D*0F
$GPGGA,221802.000,3748.7154,N,12217.9402,W,2,05,3.1,-18.2,M,-25.1,M,1.8,0000*5C
$GPGSA,A,3,03,07,08,28,10,,,,,,,,6.4,3.1,5.6*36
$GPGSV,3,1,12,13,73,090,26,07,61,311,33,10,43,273,38,23,39,123,21*73
$GPGSV,3,2,12,08,37,278,38,03,27,074,20,19,22,107,19,06,19,060,18*71
$GPGSV,3,3,12,28,16,212,34,16,15,041,22,05,13,318,35,01,09,215,*72
$GPRMC,221802.000,A,3748.7154,N,12217.9402,W,0.90,186.60,190511,,,D*78
$GPVTG,186.60,T,,M,0.90,N,1.7,K,D*0E
$GPGGA,221803.000,3748.7148,N,12217.9406,W,2,05,3.1,-18.4,M,-25.1,M,1.8,0000*52
$GPGSA,A,3,03,07,08,28,10,,,,,,,,6.4,3.1,5.6*36
$GPRMC,221803.000,A,3748.7148,N,12217.9406,W,0.88,162.45,190511,,,D*74
$GPVTG,162.45,T,,M,0.88,N,1.6,K,D*0B
$GPGGA,221804.000,3748.7144,N,12217.9409,W,2,05,3.1,-18.7,M,-25.1,M,1.8,0000*55
$GPGSA,A,3,03,07,08,28,10,,,,,,,,6.4,3.1,5.6*36
$GPRMC,221804.000,A,3748.7144,N,12217.9409,W,1.00,155.64,190511,,,D*76
$GPVTG,155.64,T,,M,1.00,N,1.9,K,D*02
$GPGGA,221805.000,3748.7135,N,12217.9418,W,2,05,3.1,-17.6,M,-25.1,M,0.8,0000*5D
$GPGSA,A,3,03,07,08,28,10,,,,,,,,6.4,3.1,5.6*36
$GPRMC,221805.000,A,3748.7135,N,12217.9418,W,1.00,199.83,190511,,,D*78
$GPVTG,199.83,T,,M,1.00,N,1.9,K,D*0B
$GPGGA,221806.000,3748.7128,N,12217.9424,W,2,05,3.1,-17.8,M,-25.1,M,1.8,0000*52
$GPGSA,A,3,03,07,08,28,10,,,,,,,,6.4,3.1,5.6*36
$GPRMC,221806.000,A,3748.7128,N,12217.9424,W,1.76,207.21,190511,,,D*75
$GPVTG,207.21,T,,M,1.76,N,3.3,K,D*0E
$GPGGA,221807.000,3748.7122,N,12217.9428,W,2,05,3.1,-18.2,M,-25.1,M,2.8,0000*53
$GPGSA,A,3,03,07,08,28,10,,,,,,,,6.4,3.1,5.6*36
$GPGSV,3,1,12,13,73,090,26,07,61,311,34,10,43,273,38,23,39,123,25*70
$GPGSV,3,2,12,08,37,278,39,03,27,074,20,19,22,107,19,06,19,060,17*7F
$GPGSV,3,3,12,28,16,212,31,16,15,041,22,05,13,318,25,01,09,215,*76
$GPRMC,221807.000,A,3748.7122,N,12217.9428,W,1.31,196.90,190511,,,D*70
$GPVTG,196.90,T,,M,1.31,N,2.4,K,D*0A
$GPGGA,221808.000,3748.7116,N,12217.9432,W,2,05,3.1,-18.7,M,-25.1,M,3.8,0000*54
$GPGSA,A,3,03,07,08,28,10,,,,,,,,6.4,3.1,5.6*36
$GPRMC,221808.000,A,3748.7116,N,12217.9432,W,1.15,199.12,190511,,,D*70
$GPVTG,199.12,T,,M,1.15,N,2.1,K,D*0C
$GPGGA,221809.000,3748.7111,N,12217.9436,W,2,05,3.1,-19.1,M,-25.1,M,1.8,0000*53
$GPGSA,A,3,03,07,08,28,10,,,,,,,,6.4,3.1,5.6*36
$GPRMC,221809.000,A,3748.7111,N,12217.9436,W,1.32,173.57,190511,,,D*72
$GPVTG,173.57,T,,M,1.32,N,2.5,K,D*08
$GPGGA,221810.000,3748.7102,N,12217.9440,W,2,05,3.1,-18.4,M,-25.1,M,1.8,0000*5C
$GPGSA,A,3,03,07,08,28,10,,,,,,,,6.4,3.1,5.6*36
$GPRMC,221810.000,A,3748.7102,N,12217.9440,W,1.67,154.32,190511,,,D*7F
$GPVTG,154.32,T,,M,1.67,N,3.1,K,D*0B
$GPGGA,221811.000,3748.7096,N,12217.9440,W,2,05,3.1,-18.7,M,-25.1,M,1.8,0000*52
$GPGSA,A,3,03,07,08,28,10,,,,,,,,6.4,3.1,5.6*36
$GPRMC,221811.000,A,3748.7096,N,12217.9440,W,1.53,148.12,190511,,,D*7A
$GPVTG,148.12,T,,M,1.53,N,2.8,K,D*0B
$GPGGA,221812.000,3748.7091,N,12217.9441,W,2,05,3.1,-19.4,M,-25.1,M,2.8,0000*56
$GPGSA,A,3,03,07,08,28,10,,,,,,,,6.4,3.1,5.6*36
$GPGSV,3,1,12,13,73,090,26,07,61,311,33,10,43,273,33,23,39,123,24*7D
$GPGSV,3,2,12,08,37,278,31,03,27,074,19,19,22,107,19,06,19,060,17*7D
$GPRMC,221812.000,A,3748.7091,N,12217.9441,W,1.44,154.07,190511,,,D*70
$GPVTG,154.07,T,,M,1.44,N,2.7,K,D*0B
$GPGGA,221813.000,3748.7086,N,12217.9441,W,2,05,3.1,-19.6,M,-25.1,M,3.8,0000*52
$GPGSA,A,3,03,07,08,28,10,,,,,,,,6.4,3.1,5.6*36
$GPRMC,221813.000,A,3748.7086,N,12217.9441,W,0.66,159.80,190511,,,D*74
$GPVTG,159.80,T,,M,0.66,N,1.2,K,D*0E
$GPGGA,221814.000,3748.7084,N,12217.9442,W,2,05,3.1,-20.6,M,-25.1,M,4.8,0000*59
$GPGSA,A,3,03,07,08,28,10,,,,,,,,6.4,3.1,5.6*36
$GPRMC,221814.000,A,3748.7084,N,12217.9442,W,1.09,141.31,190511,,,D*79
$GPVTG,141.31,T,,M,1.09,N,2.0,K,D*04
$GPGGA,221815.000,3748.7082,N,12217.9442,W,2,05,3.1,-21.9,M,-25.1,M,1.8,0000*55
$GPGSA,A,3,03,07,08,28,10,,,,,,,,6.4,3.1,5.6*36
$GPRMC,221815.000,A,3748.7082,N,12217.9442,W,1.10,133.67,190511,,,D*70
$GPVTG,133.67,T,,M,1.10,N,2.0,K,D*0A
$GPGGA,221816.000,3748.7079,N,12217.9443,W,2,05,3.1,-23.2,M,-25.1,M,1.8,0000*5A
$GPGSA,A,3,03,07,08,28,10,,,,,,,,6.4,3.1,5.6*36
$GPRMC,221816.000,A,3748.7079,N,12217.9443,W,1.15,138.22,190511,,,D*79
$GPVTG,138.22,T,,M,1.15,N,2.1,K,D*04
$GPGGA,221817.000,3748.7076,N,12217.9446,W,2,05,3.1,-24.3,M,-25.1,M,1.8,0000*57
$GPGSA,A,3,03,07,08,28,10,,,,,,,,6.4,3.1,5.6*36
$GPGSV,3,1,12,13,73,090,26,07,61,311,34,10,43,273,37,23,39,123,24*7E
$GPGSV,3,2,12,08,37,278,37,03,27,074,19,19,22,107,20,06,19,060,17*71
$GPGSV,3,3,12,28,16,212,35,16,15,041,21,05,13,318,29,01,09,215,*7D
$GPRMC,221817.000,A,3748.7076,N,12217.9446,W,0.94,182.65,190511,,,D*78
$GPVTG,182.65,T,,M,0.94,N,1.7,K,D*0B
$GPGGA,221818.000,3748.7072,N,12217.9450,W,2,05,3.1,-25.0,M,-25.1,M,2.8,0000*5A
$GPGSA,A,3,03,07,08,28,10,,,,,,,,6.4,3.1,5.6*36
$GPRMC,221818.000,A,3748.7072,N,12217.9450,W,1.03,181.52,190511,,,D*7C
$GPVTG,181.52,T,,M,1.03,N,1.9,K,D*0D
$GPGGA,221819.000,3748.7065,N,12217.9458,W,2,05,3.1,-24.8,M,-25.1,M,3.8,0000*5D
$GPGSA,A,3,03,07,08,28,10,,,,,,,,6.4,3.1,5.6*36
$GPRMC,221819.000,A,3748.7065,N,12217.9458,W,1.32,212.16,190511,,,D*78
$GPVTG,212.16,T,,M,1.32,N,2.4,K,D*08
$GPGGA,221820.000,3748.7057,N,12217.9469,W,2,05,3.1,-24.2,M,-25.1,M,1.8,0000*5C
$GPGSA,A,3,03,07,08,28,10,,,,,,,,6.4,3.1,5.6*36
$GPRMC,221820.000,A,3748.7057,N,12217.9469,W,1.74,224.91,190511,,,D*79
$GPVTG,224.91,T,,M,1.74,N,3.2,K,D*07
$GPGGA,221821.000,3748.7050,N,12217.9476,W,2,05,3.1,-24.2,M,-25.1,M,1.8,0000*54
$GPGSA,A,3,03,07,08,28,10,,,,,,,,6.4,3.1,5.6*36
$GPRMC,221821.000,A,3748.7050,N,12217.9476,W,1.47,207.53,190511,,,D*7E
$GPVTG,207.53,T,,M,1.47,N,2.7,K,D*0C
$GPGGA,221822.000,3748.7043,N,12217.9485,W,2,05,3.1,-23.5,M,-25.1,M,1.8,0000*59
$GPGSA,A,3,03,07,08,28,10,,,,,,,,6.4,3.1,5.6*36
$GPGSV,3,1,12,13,73,090,26,07,61,311,34,10,43,273,38,23,39,123,24*71
$GPGSV,3,2,12,08,37,278,38,03,27,074,19,19,22,107,21,06,19,060,17*7F
$GPGSV,3,3,12,28,16,212,36,16,15,041,20,05,13,318,28,01,09,215,*7E
$GPRMC,221822.000,A,3748.7043,N,12217.9485,W,1.10,203.65,190511,,,D*70
$GPVTG,203.65,T,,M,1.10,N,2.0,K,D*08
$GPGGA,221823.000,3748.7037,N,12217.9492,W,2,05,3.1,-23.5,M,-25.1,M,1.8,0000*5D
$GPGSA,A,3,03,07,08,28,10,,,,,,,,6.4,3.1,5.6*36
$GPRMC,221823.000,A,3748.7037,N,12217.9492,W,1.34,220.50,190511,,,D*75
$GPVTG,220.50,T,,M,1.34,N,2.5,K,D*0C
$GPGGA,221824.000,3748.7032,N,12217.9498,W,2,05,3.1,-23.7,M,-25.1,M,2.8,0000*54
$GPGSA,A,3,03,07,08,28,10,,,,,,,,6.4,3.1,5.6*36
$GPRMC,221824.000,A,3748.7032,N,12217.9498,W,1.10,207.24,190511,,,D*7D
$GPVTG,207.24,T,,M,1.10,N,2.0,K,D*09
$GPGGA,221825.000,3748.7027,N,12217.9503,W,2,05,3.1,-24.0,M,-25.1,M,1.8,0000*51
$GPGSA,A,3,03,07,08,28,10,,,,,,,,6.4,3.1,5.6*36
$GPRMC,221825.000,A,3748.7027,N,12217.9503,W,1.52,206.20,190511,,,D*78
$GPVTG,206.20,T,,M,1.52,N,2.8,K,D*02
$GPGGA,221826.000,3748.7021,N,12217.9508,W,2,05,3.1,-24.4,M,-25.1,M,2.8,0000*58
$GPGSA,A,3,03,07,08,28,10,,,,,,,,6.4,3.1,5.6*36
$GPRMC,221826.000,A,3748.7021,N,12217.9508,W,1.40,200.84,190511,,,D*7D
$GPVTG,200.84,T,,M,1.40,N,2.6,K,D*07
$GPGGA,221827.000,3748.7015,N,12217.9513,W,2,05,3.1,-24.3,M,-25.1,M,1.8,0000*50
$GPGSA,A,3,03,07,08,28,10,,,,,,,,6.4,3.1,5.6*36
$GPGSV,3,1,12,13,73,090,26,07,61,311,34,10,43,273,38,23,39,123,26*73
$GPGSV,3,2,12,08,37,278,38,03,27,074,21,19,22,107,20,06,19,060,18*7A
$GPGSV,3,3,12,28,16,212,34,16,15,041,20,05,13,318,20,01,09,215,*74
$GPRMC,221827.000,A,3748.7015,N,12217.9513,W,1.11,190.31,190511,,,D*71
$GPVTG,190.31,T,,M,1.11,N,2.1,K,D*00
$GPGGA,221828.000,3748.7009,N,12217.9519,W,2,05,3.1,-23.9,M,-25.1,M,2.8,0000*56
$GPGSA,A,3,03,07,08,28,10,,,,,,,,6.4,3.1,5.6*36
$GPRMC,221828.000,A,3748.7009,N,12217.9519,W,1.01,180.02,190511,,,D*79
$GPVTG,180.02,T,,M,1.01,N,1.9,K,D*0B
$GPGGA,221829.000,3748.6998,N,12217.9530,W,2,05,3.1,-22.0,M,-25.1,M,3.8,0000*55
$GPGSA,A,3,03,07,08,28,10,,,,,,,,6.4,3.1,5.6*36
$GPRMC,221829.000,A,3748.6998,N,12217.9530,W,1.24,202.65,190511,,,D*7C
$GPVTG,202.65,T,,M,1.24,N,2.3,K,D*0D
$GPGGA,221830.000,3748.6992,N,12217.9537,W,2,05,3.1,-21.6,M,-25.1,M,4.8,0000*52
$GPGSA,A,3,03,07,08,28,10,,,,,,,,6.4,3.1,5.6*36
$GPRMC,221830.000,A,3748.6992,N,12217.9537,W,1.63,216.05,190511,,,D*79
$GPVTG,216.05,T,,M,1.63,N,3.0,K,D*0F
$GPGGA,221831.000,3748.6981,N,12217.9549,W,2,05,3.1,-19.7,M,-25.1,M,5.8,0000*53
$GPGSA,A,3,03,07,08,28,10,,,,,,,,6.4,3.1,5.6*36
$GPRMC,221831.000,A,3748.6981,N,12217.9549,W,1.83,218.34,190511,,,D*71
$GPVTG,218.34,T,,M,1.83,N,3.4,K,D*09
$GPGGA,221832.000,3748.6974,N,12217.9556,W,2,05,3.1,-19.1,M,-25.1,M,6.8,0000*51
$GPGSA,A,3,03,07,08,28,10,,,,,,,,6.4,3.1,5.6*36
$GPGSV,3,1,12,13,73,090,26,07,61,311,34,10,43,273,38,23,39,123,26*73
$GPGSV,3,2,12,08,37,278,38,03,27,074,22,19,22,107,20,06,19,060,19*78
$GPGSV,3,3,12,28,16,212,31,16,15,041,20,05,13,318,28,01,09,215,*79
$GPVTG,208.06,T,,M,1.40,N,2.6,K,D*05
$GPGGA,221833.000,3748.6968,N,12217.9561,W,2,05,3.1,-18.8,M,-25.1,M,7.8,0000*50
$GPGSA,A,3,03,07,08,28,10,,,,,,,,6.4,3.1,5.6*36
$GPRMC,221833.000,A,3748.6968,N,12217.9561,W,1.49,198.46,190511,,,D*76
$GPVTG,198.46,T,,M,1.49,N,2.8,K,D*0C
$GPGGA,221834.000,3748.6962,N,12217.9565,W,2,05,3.1,-18.8,M,-25.1,M,1.8,0000*5F
$GPGSA,A,3,03,07,08,28,10,,,,,,,,6.4,3.1,5.6*36
$GPRMC,221834.000,A,3748.6962,N,12217.9565,W,1.25,193.59,190511,,,D*70
$GPVTG,193.59,T,,M,1.25,N,2.3,K,D*08
$GPGGA,221835.000,3748.6956,N,12217.9569,W,2,05,3.1,-18.6,M,-25.1,M,1.8,0000*5B
$GPGSA,A,3,03,07,08,28,10,,,,,,,,6.4,3.1,5.6*36
$GPRMC,221835.000,A,3748.6956,N,12217.9569,W,1.26,183.02,190511,,,D*76
$GPVTG,183.02,T,,M,1.26,N,2.3,K,D*04
$GPGGA,221836.000,3748.6947,N,12217.9578,W,2,05,3.1,-17.2,M,-25.1,M,1.8,0000*53
$GPGSA,A,3,03,07,08,28,10,,,,,,,,6.4,3.1,5.6*36
$GPRMC,221836.000,A,3748.6947,N,12217.9578,W,1.44,182.81,190511,,,D*7B
$GPVTG,182.81,T,,M,1.44,N,2.7,K,D*0E
$GPGGA,221837.000,3748.6941,N,12217.9582,W,2,05,3.1,-17.3,M,-25.1,M,2.8,0000*53
$GPGSA,A,3,03,07,08,28,10,,,,,,,,6.4,3.1,5.6*36
$GPGSV,3,1,12,13,73,090,26,07,61,311,34,10,43,273,38,23,39,123,25*70
$GPGSV,3,2,12,08,37,278,38,03,27,074,22,19,22,107,20,06,19,060,19*78
$GPGSV,3,3,12,28,16,212,30,16,15,041,21,05,13,318,25,01,09,215,*74
$GPRMC,221837.000,A,3748.6941,N,12217.9582,W,1.72,204.05,190511,,,D*7D
$GPVTG,204.05,T,,M,1.72,N,3.2,K,D*0E
$GPGGA,221838.000,3748.6936,N,12217.9586,W,2,05,3.1,-17.7,M,-25.1,M,3.8,0000*5D
$GPGSA,A,3,03,07,08,28,10,,,,,,,,6.4,3.1,5.6*36
$GPRMC,221838.000,A,3748.6936,N,12217.9586,W,1.53,194.93,190511,,,D*70
$GPVTG,194.93,T,,M,1.53,N,2.8,K,D*03
$GPGGA,221839.000,3748.6931,N,12217.9590,W,2,05,3.1,-17.8,M,-25.1,M,1.8,0000*51
$GPGSA,A,3,03,07,08,28,10,,,,,,,,6.4,3.1,5.6*36
$GPRMC,221839.000,A,3748.6931,N,12217.9590,W,1.60,191.47,190511,,,D*7D
$GPVTG,191.47,T,,M,1.60,N,3.0,K,D*06
$GPGGA,221840.000,3748.6926,N,12217.9597,W,2,05,3.1,-17.5,M,-25.1,M,1.8,0000*53
$GPGSA,A,3,03,07,08,28,10,,,,,,,,6.4,3.1,5.6*36
$GPRMC,221840.000,A,3748.6926,N,12217.9597,W,1.67,215.23,190511,,,D*78
$GPVTG,215.23,T,,M,1.67,N,3.1,K,D*0D
$GPGGA,221841.000,3748.6922,N,12217.9603,W,2,05,3.1,-17.6,M,-25.1,M,1.8,0000*5B
$GPGSA,A,3,03,07,08,28,10,,,,,,,,6.4,3.1,5.6*36
$GPRMC,221841.000,A,3748.6922,N,12217.9603,W,1.65,198.60,190511,,,D*70
$GPVTG,198.60,T,,M,1.65,N,3.1,K,D*0E
$GPGGA,221842.000,3748.6915,N,12217.9608,W,2,05,3.1,-17.4,M,-25.1,M,1.8,0000*55
$GPGSA,A,3,03,07,08,28,10,,,,,,,,6.4,3.1,5.6*36
$GPGSV,3,1,12,13,73,090,26,07,61,311,34,10,43,273,38,23,39,123,25*70
$GPGSV,3,2,12,08,37,278,38,03,27,074,21,19,22,107,21,06,19,060,19*7A
$GPGSV,3,3,12,28,16,212,25,16,15,041,22,05,13,318,25,01,09,215,*73
$GPRMC,221842.000,A,3748.6915,N,12217.9608,W,1.68,189.64,190511,,,D*75
$GPVTG,189.64,T,,M,1.68,N,3.1,K,D*07
$GPGGA,221843.000,3748.6907,N,12217.9611,W,2,05,3.1,-17.3,M,-25.1,M,2.8,0000*5B
$GPGSA,A,3,03,07,08,28,10,,,,,,,,6.4,3.1,5.6*36
$GPRMC,221843.000,A,3748.6907,N,12217.9611,W,1.31,188.45,190511,,,D*71
$GPVTG,188.45,T,,M,1.31,N,2.4,K,D*0D
$GPGGA,221844.000,3748.6903,N,12217.9614,W,2,05,3.1,-17.6,M,-25.1,M,3.8,0000*59
$GPGSA,A,3,03,07,08,28,10,,,,,,,,6.4,3.1,5.6*36
$GPRMC,221844.000,A,3748.6903,N,12217.9614,W,1.14,183.85,190511,,,D*77
$GPVTG,183.85,T,,M,1.14,N,2.1,K,D*08
$GPGGA,221845.000,3748.6898,N,12217.9618,W,2,05,3.1,-17.7,M,-25.1,M,1.8,0000*54
$GPGSA,A,3,03,07,08,28,10,,,,,,,,6.4,3.1,5.6*36
$GPRMC,221845.000,A,3748.6898,N,12217.9618,W,1.64,194.68,190511,,,D*7B
$GPVTG,194.68,T,,M,1.64,N,3.0,K,D*0A
$GPGGA,221846.000,3748.6889,N,12217.9628,W,2,05,3.1,-16.3,M,-25.1,M,1.8,0000*51
$GPGSA,A,3,03,07,08,28,10,,,,,,,,6.4,3.1,5.6*36
$GPRMC,221846.000,A,3748.6889,N,12217.9628,W,2.03,211.00,190511,,,D*79
$GPVTG,211.00,T,,M,2.03,N,3.8,K,D*00
$GPGGA,221847.000,3748.6878,N,12217.9633,W,2,05,3.1,-15.9,M,-25.1,M,1.8,0000*5D
$GPGSA,A,3,03,07,08,28,10,,,,,,,,6.4,3.1,5.6*36
$GPGSV,3,1,12,13,73,090,26,07,61,311,34,10,43,273,39,23,39,123,25*71
$GPGSV,3,2,12,08,37,278,38,03,27,074,21,19,22,107,21,06,19,060,19*7A
$GPGSV,3,3,12,28,16,212,22,16,15,041,22,05,13,318,31,01,09,215,*71
$GPVTG,200.79,T,,M,1.87,N,3.5,K,D*0C
$GPGGA,221848.000,3748.6868,N,12217.9642,W,2,05,3.1,-14.3,M,-25.1,M,1.8,0000*5E
$GPGSA,A,3,03,07,08,28,10,,,,,,,,6.4,3.1,5.6*36
$GPRMC,221848.000,A,3748.6868,N,12217.9642,W,1.57,196.90,190511,,,D*73
$GPVTG,196.90,T,,M,1.57,N,2.9,K,D*07
$GPGGA,221849.000,3748.6859,N,12217.9650,W,2,05,3.1,-13.0,M,-25.1,M,2.8,0000*59
$GPGSA,A,3,03,07,08,28,10,,,,,,,,6.4,3.1,5.6*36
$GPRMC,221849.000,A,3748.6859,N,12217.9650,W,1.90,187.30,190511,,,D*72
$GPVTG,187.30,T,,M,1.90,N,3.5,K,D*0B
$GPGGA,221850.000,3748.6852,N,12217.9655,W,2,05,3.1,-12.4,M,-25.1,M,3.8,0000*5B
$GPGSA,A,3,03,07,08,28,10,,,,,,,,6.4,3.1,5.6*36
$GPRMC,221850.000,A,3748.6852,N,12217.9655,W,1.91,186.62,190511,,,D*73
$GPVTG,186.62,T,,M,1.91,N,3.5,K,D*0C
$GPGGA,221851.000,3748.6843,N,12217.9658,W,2,05,3.1,-11.9,M,-25.1,M,4.8,0000*5E
$GPGSA,A,3,03,07,08,28,10,,,,,,,,6.4,3.1,5.6*36
$GPRMC,221851.000,A,3748.6843,N,12217.9658,W,2.03,192.67,190511,,,D*77
$GPVTG,192.67,T,,M,2.03,N,3.8,K,D*09
$GPGGA,221852.000,3748.6832,N,12217.9665,W,2,05,3.1,-10.7,M,-25.1,M,5.8,0000*5B
$GPGSA,A,3,03,07,08,28,10,,,,,,,,6.4,3.1,5.6*36
$GPGSV,3,1,12,13,73,090,21,07,61,311,30,10,43,273,38,23,39,123,20*76
$GPGSV,3,2,12,08,37,278,38,03,27,074,22,19,22,107,22,06,19,060,20*70
$GPGSV,3,3,12,28,16,212,23,16,15,041,22,05,13,318,29,01,09,215,*79
$GPRMC,221852.000,A,3748.6832,N,12217.9665,W,1.84,191.36,190511,,,D*77
$GPVTG,191.36,T,,M,1.84,N,3.4,K,D*0E
$GPGGA,221853.000,3748.6828,N,12217.9671,W,2,05,3.1,-10.4,M,-25.1,M,6.8,0000*54
$GPGSA,A,3,03,07,08,28,10,,,,,,,,6.4,3.1,5.6*36
$GPRMC,221853.000,A,3748.6828,N,12217.9671,W,1.67,206.81,190511,,,D*74
$GPVTG,206.81,T,,M,1.67,N,3.1,K,D*07
$GPGGA,221854.000,3748.6822,N,12217.9679,W,2,05,3.1,-9.5,M,-25.1,M,7.8,0000*69
$GPGSA,A,3,03,07,08,28,10,,,,,,,,6.4,3.1,5.6*36
$GPRMC,221854.000,A,3748.6822,N,12217.9679,W,1.65,207.66,190511,,,D*7B
$GPVTG,207.66,T,,M,1.65,N,3.1,K,D*0D
$GPGGA,221855.000,3748.6819,N,12217.9686,W,2,05,3.1,-9.3,M,-25.1,M,8.8,0000*69
$GPGSA,A,3,03,07,08,28,10,,,,,,,,6.4,3.1,5.6*36
$GPRMC,221855.000,A,3748.6819,N,12217.9686,W,1.66,222.06,190511,,,D*70
$GPVTG,222.06,T,,M,1.66,N,3.1,K,D*0F
$GPGGA,221856.000,3748.6819,N,12217.9690,W,2,04,3.2,-9.7,M,-25.1,M,9.8,0000*6A
$GPGSA,A,3,07,08,28,10,,,,,,,,,3.4,3.2,1.0*31
$GPRMC,221856.000,A,3748.6819,N,12217.9690,W,1.19,221.98,190511,,,D*78
$GPVTG,221.98,T,,M,1.19,N,2.2,K,D*01
$GPGGA,221857.000,3748.6816,N,12217.9692,W,2,04,3.2,-10.2,M,-25.1,M,10.8,0000*63
$GPGSA,A,3,07,08,28,10,,,,,,,,,3.4,3.2,1.0*31
$GPGSV,3,1,12,13,73,090,21,07,61,311,31,10,43,273,38,23,39,123,20*77
$GPGSV,3,2,12,08,37,278,38,03,27,074,18,19,22,107,21,06,19,060,20*7A
$GPGSV,3,3,12,28,16,212,24,16,15,041,21,05,13,318,28,01,09,215,*7C
$GPRMC,221857.000,A,3748.6816,N,12217.9692,W,1.18,210.30,190511,,,D*75
$GPVTG,210.30,T,,M,1.18,N,2.2,K,D*00
$GPGGA,221858.000,3748.6810,N,12217.9694,W,2,04,3.2,-10.5,M,-25.1,M,11.8,0000*6A
$GPGSA,A,3,07,08,28,10,,,,,,,,,3.4,3.2,1.0*31
$GPRMC,221858.000,A,3748.6810,N,12217.9694,W,0.96,210.31,190511,,,D*7C
$GPVTG,210.31,T,,M,0.96,N,1.8,K,D*0F
$GPGGA,221859.000,3748.6808,N,12217.9700,W,2,05,3.1,-10.5,M,-25.1,M,12.8,0000*6F
$GPGSA,A,3,03,07,08,28,10,,,,,,,,6.4,3.1,5.6*36
$GPRMC,221859.000,A,3748.6808,N,12217.9700,W,1.01,221.74,190511,,,D*74
$GPVTG,221.74,T,,M,1.01,N,1.9,K,D*02
$GPGGA,221900.000,3748.6809,N,12217.9704,W,2,05,3.1,-10.2,M,-25.1,M,13.8,0000*61
$GPGSA,A,3,03,07,08,28,10,,,,,,,,6.4,3.1,5.6*36
$GPRMC,221900.000,A,3748.6809,N,12217.9704,W,0.25,304.03,190511,,,D*7D
$GPVTG,304.03,T,,M,0.25,N,0.5,K,D*0E
$GPGGA,221901.000,3748.6805,N,12217.9706,W,2,05,3.1,-9.9,M,-25.1,M,14.8,0000*5A
$GPGSA,A,3,03,07,08,28,10,,,,,,,,6.4,3.1,5.6*36
$GPRMC,221901.000,A,3748.6805,N,12217.9706,W,0.64,175.30,190511,,,D*73
$GPVTG,175.30,T,,M,0.64,N,1.2,K,D*09
$GPGGA,221902.000,3748.6801,N,12217.9712,W,2,05,3.1,-9.8,M,-25.1,M,15.8,0000*58
$GPGSA,A,3,03,07,08,28,10,,,,,,,,6.4,3.1,5.6*36
$GPGSV,3,1,12,13,73,090,22,07,61,311,33,10,43,273,38,23,39,123,21*77
$GPGSV,3,2,12,08,37,278,38,03,27,074,23,19,22,107,20,06,19,060,20*73
$GPGSV,3,3,12,28,16,212,32,16,15,041,21,05,13,318,26,01,09,215,*75
$GPRMC,221902.000,A,3748.6801,N,12217.9712,W,0.90,220.00,190511,,,D*7A
$GPVTG,220.00,T,,M,0.90,N,1.7,K,D*07
$GPGGA,221903.000,3748.6791,N,12217.9721,W,2,05,3.1,-9.1,M,-25.1,M,16.8,0000*55
$GPGSA,A,3,03,07,08,28,10,,,,,,,,6.4,3.1,5.6*36
$GPRMC,221903.000,A,3748.6791,N,12217.9721,W,1.33,218.39,190511,,,D*74
$GPVTG,218.39,T,,M,1.33,N,2.5,K,D*0F
$GPGGA,221904.000,3748.6783,N,12217.9729,W,2,05,3.1,-8.8,M,-25.1,M,17.8,0000*50
$GPGSA,A,3,03,07,08,28,10,,,,,,,,6.4,3.1,5.6*36
$GPRMC,221904.000,A,3748.6783,N,12217.9729,W,1.49,219.22,190511,,,D*7E
$GPVTG,219.22,T,,M,1.49,N,2.8,K,D*04
$GPGGA,221905.000,3748.6774,N,12217.9734,W,1,05,3.1,-8.6,M,-25.1,M,,0000*48
$GPGSA,A,3,03,07,08,28,10,,,,,,,,6.4,3.1,5.6*36
$GPRMC,221905.000,A,3748.6774,N,12217.9734,W,2.11,198.36,190511,,,A*7F
$GPVTG,198.36,T,,M,2.11,N,3.9,K,A*00
$GPGGA,221906.000,3748.6763,N,12217.9747,W,1,05,3.1,-8.5,M,-25.1,M,,0000*4A
$GPGSA,A,3,03,07,08,28,10,,,,,,,,6.4,3.1,5.6*36
$GPRMC,221906.000,A,3748.6763,N,12217.9747,W,2.08,189.25,190511,,,A*74
$GPVTG,189.25,T,,M,2.08,N,3.8,K,A*0B
$GPGGA,221907.000,3748.6755,N,12217.9749,W,1,05,3.1,-9.1,M,-25.1,M,,0000*45
$GPGSA,A,3,03,07,08,28,10,,,,,,,,6.4,3.1,5.6*36
$GPGSV,3,1,12,13,73,090,27,07,61,311,22,10,43,273,31,23,39,123,34*7F
$GPGSV,3,2,12,08,37,278,33,03,27,074,22,19,22,107,33,06,19,060,20*7B
$GPGSV,3,3,12,28,16,212,37,16,15,041,20,05,13,318,25,01,09,215,*72
$GPRMC,221907.000,A,3748.6755,N,12217.9749,W,1.74,175.26,190511,,,A*76
$GPGGA,221908.000,3748.6749,N,12217.9759,W,1,05,3.1,-10.7,M,-25.1,M,,0000*78
$GPGSA,A,3,03,07,08,28,10,,,,,,,,6.4,3.1,5.6*36
$GPRMC,221908.000,A,3748.6749,N,12217.9759,W,1.52,189.79,190511,,,A*78
$GPVTG,189.79,T,,M,1.52,N,2.8,K,A*0F
$GPGGA,221909.000,3748.6742,N,12217.9768,W,1,05,3.1,-9.2,M,-25.1,M,,0000*4D
$GPGSA,A,3,03,07,08,28,10,,,,,,,,6.4,3.1,5.6*36
$GPRMC,221909.000,A,3748.6742,N,12217.9768,W,1.84,198.90,190511,,,A*7C
$GPVTG,198.90,T,,M,1.84,N,3.4,K,A*0E
$GPGGA,221910.000,3748.6736,N,12217.9772,W,1,05,3.1,-9.4,M,-25.1,M,,0000*4B
$GPGSA,A,3,03,07,08,28,10,,,,,,,,6.4,3.1,5.6*36
$GPRMC,221910.000,A,3748.6736,N,12217.9772,W,2.33,200.71,190511,,,A*7E
$GPVTG,200.71,T,,M,2.33,N,4.3,K,A*0C
$GPGGA,221911.000,3748.6725,N,12217.9777,W,1,05,3.1,-8.4,M,-25.1,M,,0000*4C
$GPGSA,A,3,03,07,08,28,10,,,,,,,,6.4,3.1,5.6*36
$GPRMC,221911.000,A,3748.6725,N,12217.9777,W,2.48,186.41,190511,,,A*7A
$GPVTG,186.41,T,,M,2.48,N,4.6,K,A*0B
$GPGGA,221912.000,3748.6715,N,12217.9781,W,1,05,3.1,-7.7,M,-25.1,M,,0000*49
$GPGSA,A,3,03,07,08,28,10,,,,,,,,6.4,3.1,5.6*36
$GPGSV,3,1,12,13,73,090,21,07,61,311,30,10,43,273,35,23,39,123,25*7E
$GPGSV,3,2,12,08,37,278,37,03,27,074,23,19,22,107,23,06,19,060,20*7F
$GPGSV,3,3,12,28,16,212,35,16,15,041,20,05,13,318,28,01,09,215,*7D
$GPRMC,221912.000,A,3748.6715,N,12217.9781,W,2.02,171.77,190511,,,A*70
$GPVTG,171.77,T,,M,2.02,N,3.7,K,A*0E
$GPGGA,221913.000,3748.6705,N,12217.9781,W,1,05,3.1,-6.3,M,-25.1,M,,0000*4C
$GPGSA,A,3,03,07,08,28,10,,,,,,,,6.4,3.1,5.6*36
$GPRMC,221913.000,A,3748.6705,N,12217.9781,W,1.86,164.26,190511,,,A*7F
$GPVTG,164.26,T,,M,1.86,N,3.4,K,A*02
$GPGGA,221914.000,3748.6696,N,12217.9781,W,1,05,3.1,-5.4,M,-25.1,M,,0000*44
$GPGSA,A,3,03,07,08,28,10,,,,,,,,6.4,3.1,5.6*36
$GPRMC,221914.000,A,3748.6696,N,12217.9781,W,1.96,163.38,190511,,,A*7A
$GPVTG,163.38,T,,M,1.96,N,3.6,K,A*09
$GPGGA,221915.000,3748.6689,N,12217.9785,W,1,05,3.1,-5.2,M,-25.1,M,,0000*49
$GPGSA,A,3,03,07,08,28,10,,,,,,,,6.4,3.1,5.6*36
$GPRMC,221915.000,A,3748.6689,N,12217.9785,W,1.65,166.67,190511,,,A*72
$GPVTG,166.67,T,,M,1.65,N,3.1,K,A*0D
$GPGGA,221916.000,3748.6686,N,12217.9790,W,1,05,3.1,-6.5,M,-25.1,M,,0000*45
$GPGSA,A,3,03,07,08,28,10,,,,,,,,6.4,3.1,5.6*36
$GPRMC,221916.000,A,3748.6686,N,12217.9790,W,1.03,163.16,190511,,,A*79
$GPVTG,163.16,T,,M,1.03,N,1.9,K,A*04
$GPGGA,221917.000,3748.6682,N,12217.9792,W,1,05,3.1,-7.0,M,-25.1,M,,0000*46
$GPGSA,A,3,03,07,08,28,10,,,,,,,,6.4,3.1,5.6*36
$GPGSV,3,1,12,13,73,093,20,07,61,312,27,10,43,272,34,23,38,124,24*7E
$GPGSV,3,2,12,08,38,279,36,03,27,073,22,19,23,107,23,06,19,060,21*76
$GPGSV,3,3,12,28,16,212,37,16,15,041,20,05,13,318,36,01,10,215,*78
$GPRMC,221917.000,A,3748.6682,N,12217.9792,W,1.23,190.81,190511,,,A*7E
$GPVTG,190.81,T,,M,1.23,N,2.3,K,A*0D
$GPGGA,221918.000,3748.6678,N,12217.9792,W,1,05,3.1,-7.4,M,-25.1,M,,0000*48
$GPGSA,A,3,03,07,08,28,10,,,,,,,,6.4,3.1,5.6*36
$GPRMC,221918.000,A,3748.6678,N,12217.9792,W,1.65,203.31,190511,,,A*74
$GPVTG,203.31,T,,M,1.65,N,3.1,K,A*0E
$GPGGA,221919.000,3748.6671,N,12217.9797,W,1,05,3.1,-7.0,M,-25.1,M,,0000*41
$GPGSA,A,3,03,07,08,28,10,,,,,,,,6.4,3.1,5.6*36
$GPRMC,221919.000,A,3748.6671,N,12217.9797,W,1.91,195.92,190511,,,A*77
$GPVTG,195.92,T,,M,1.91,N,3.5,K,A*04
$GPGGA,221920.000,3748.6664,N,12217.9801,W,1,05,3.1,-6.5,M,-25.1,M,,0000*4B
$GPGSA,A,3,03,07,08,28,10,,,,,,,,6.4,3.1,5.6*36
$GPRMC,221920.000,A,3748.6664,N,12217.9801,W,1.96,189.22,190511,,,A*78
$GPVTG,189.22,T,,M,1.96,N,3.6,K,A*06
$GPGGA,221921.000,3748.6659,N,12217.9804,W,1,05,3.1,-7.3,M,-25.1,M,,0000*46
$GPGSA,A,3,03,07,08,28,10,,,,,,,,6.4,3.1,5.6*36
$GPRMC,221921.000,A,3748.6659,N,12217.9804,W,1.60,181.30,190511,,,A*70
$GPVTG,181.30,T,,M,1.60,N,3.0,K,A*02
$GPGGA,221922.000,3748.6657,N,12217.9811,W,1,05,3.1,-9.4,M,-25.1,M,,0000*46
$GPGSA,A,3,03,07,08,28,10,,,,,,,,6.4,3.1,5.6*36
$GPGSV,3,1,12,13,73,093,21,07,61,312,29,10,43,272,36,23,38,124,24*73
$GPGSV,3,2,12,08,38,279,37,03,27,073,21,19,23,107,22,06,19,060,21*75
$GPGSV,3,3,12,28,16,212,34,16,15,041,20,05,13,318,26,01,10,215,*7A
$GPRMC,221922.000,A,3748.6657,N,12217.9811,W,1.16,180.30,190511,,,A*79
$GPGGA,221923.000,3748.6654,N,12217.9816,W,1,05,3.1,-10.8,M,-25.1,M,,0000*77
$GPGSA,A,3,03,07,08,28,10,,,,,,,,6.4,3.1,5.6*36
$GPRMC,221923.000,A,3748.6654,N,12217.9816,W,1.36,175.35,190511,,,A*71
$GPVTG,175.35,T,,M,1.36,N,2.5,K,A*0B
$GPGGA,221924.000,3748.6647,N,12217.9823,W,1,05,3.1,-11.0,M,-25.1,M,,0000*7D
$GPGSA,A,3,03,07,08,28,10,,,,,,,,6.4,3.1,5.6*36
$GPRMC,221924.000,A,3748.6647,N,12217.9823,W,1.99,192.14,190511,,,A*7D
$GPVTG,192.14,T,,M,1.99,N,3.7,K,A*07
$GPGGA,221925.000,3748.6641,N,12217.9827,W,1,05,3.1,-11.3,M,-25.1,M,,0000*7D
$GPGSA,A,3,03,07,08,28,10,,,,,,,,6.4,3.1,5.6*36
$GPRMC,221925.000,A,3748.6641,N,12217.9827,W,1.99,179.30,190511,,,A*7D
$GPVTG,179.30,T,,M,1.99,N,3.7,K,A*04
$GPGGA,221926.000,3748.6634,N,12217.9833,W,1,05,3.1,-11.3,M,-25.1,M,,0000*79
$GPGSA,A,3,03,07,08,28,10,,,,,,,,6.4,3.1,5.6*36
$GPRMC,221926.000,A,3748.6634,N,12217.9833,W,2.10,203.49,190511,,,A*7B
$GPVTG,203.49,T,,M,2.10,N,3.9,K,A*08
$GPGGA,221927.000,3748.6628,N,12217.9846,W,1,05,3.1,-12.4,M,-25.1,M,,0000*73
$GPGSA,A,3,03,07,08,28,10,,,,,,,,6.4,3.1,5.6*36
$GPGSV,3,1,12,13,73,093,27,07,61,312,27,10,43,272,32,23,38,124,22*79
$GPGSV,3,2,12,08,38,279,37,03,27,073,19,19,23,107,16,06,19,060,16*7D
$GPGSV,3,3,12,28,16,212,33,16,15,041,19,05,13,318,22,01,10,215,*73
$GPRMC,221927.000,A,3748.6628,N,12217.9846,W,2.09,211.51,190511,,,A*77
$GPVTG,211.51,T,,M,2.09,N,3.9,K,A*0A
$GPGGA,221928.000,3748.6620,N,12217.9853,W,2,05,3.1,-12.1,M,-25.1,M,2.8,0000*52
$GPGSA,A,3,03,07,08,28,10,,,,,,,,6.4,3.1,5.6*36
$GPRMC,221928.000,A,3748.6620,N,12217.9853,W,2.21,213.15,190511,,,D*79
$GPVTG,213.15,T,,M,2.21,N,4.1,K,D*08
$GPGGA,221929.000,3748.6612,N,12217.9860,W,2,05,3.1,-11.6,M,-25.1,M,3.8,0000*57
$GPGSA,A,3,03,07,08,28,10,,,,,,,,6.4,3.1,5.6*36
$GPRMC,221929.000,A,3748.6612,N,12217.9860,W,2.52,222.63,190511,,,D*7E
$GPVTG,222.63,T,,M,2.52,N,4.7,K,D*09
$GPGGA,221930.000,3748.6604,N,12217.9865,W,2,04,3.2,-11.5,M,-25.1,M,4.8,0000*5B
$GPGSA,A,3,07,08,28,10,,,,,,,,,3.4,3.2,1.0*31
$GPRMC,221930.000,A,3748.6604,N,12217.9865,W,2.10,219.78,190511,,,D*70
$GPVTG,219.78,T,,M,2.10,N,3.9,K,D*04
$GPGGA,221931.000,3748.6596,N,12217.9867,W,2,04,3.2,-11.3,M,-25.1,M,2.8,0000*50
$GPGSA,A,3,07,08,28,10,,,,,,,,,3.4,3.2,1.0*31
$GPRMC,221931.000,A,3748.6596,N,12217.9867,W,2.08,197.31,190511,,,D*7A
$GPVTG,197.31,T,,M,2.08,N,3.9,K,D*05
$GPGGA,221932.000,3748.6590,N,12217.9869,W,2,04,3.2,-11.4,M,-25.1,M,3.8,0000*5D
$GPGSA,A,3,07,08,28,10,,,,,,,,,3.4,3.2,1.0*31
$GPGSV,3,1,12,13,73,093,27,07,61,312,32,10,43,272,37,23,38,124,22*78
$GPGSV,3,2,12,08,38,279,37,03,27,073,18,19,23,107,16,06,19,060,16*7C
$GPGSV,3,3,12,28,16,212,35,16,15,041,17,05,13,318,23,01,10,215,*7A
$GPRMC,221932.000,A,3748.6590,N,12217.9869,W,2.02,189.67,190511,,,D*77
$GPVTG,189.67,T,,M,2.02,N,3.7,K,D*0D
$GPGGA,221933.000,3748.6583,N,12217.9870,W,2,04,3.2,-11.3,M,-25.1,M,2.8,0000*50
$GPGSA,A,3,07,08,28,10,,,,,,,,,3.4,3.2,1.0*31
$GPRMC,221933.000,A,3748.6583,N,12217.9870,W,1.79,198.10,190511,,,D*73
$GPVTG,198.10,T,,M,1.79,N,3.3,K,D*06
$GPGGA,221934.000,3748.6578,N,12217.9872,W,2,04,3.2,-11.2,M,-25.1,M,3.8,0000*51
$GPGSA,A,3,07,08,28,10,,,,,,,,,3.4,3.2,1.0*31
$GPRMC,221934.000,A,3748.6578,N,12217.9872,W,2.11,198.28,190511,,,D*74
$GPVTG,198.28,T,,M,2.11,N,3.9,K,D*0A
$GPGGA,221935.000,3748.6573,N,12217.9874,W,2,04,3.2,-11.2,M,-25.1,M,2.8,0000*5C
$GPGSA,A,3,07,08,28,10,,,,,,,,,3.4,3.2,1.0*31
$GPRMC,221935.000,A,3748.6573,N,12217.9874,W,1.81,190.22,190511,,,D*70
$GPVTG,190.22,T,,M,1.81,N,3.4,K,D*0F
$GPGGA,221936.000,3748.6566,N,12217.9874,W,2,04,3.2,-11.3,M,-25.1,M,3.8,0000*5B
$GPGSA,A,3,07,08,28,10,,,,,,,,,3.4,3.2,1.0*31
$GPRMC,221936.000,A,3748.6566,N,12217.9874,W,2.11,178.13,190511,,,D*79
$GPVTG,178.13,T,,M,2.11,N,3.9,K,D*0C
$GPGGA,221937.000,3748.6554,N,12217.9885,W,2,05,3.1,-9.3,M,-25.1,M,2.8,0000*6F
$GPGSA,A,3,03,07,08,28,10,,,,,,,,6.3,3.1,5.6*31
$GPGSV,3,1,12,13,73,093,26,07,61,312,32,10,43,272,38,23,38,124,21*75
$GPGSV,3,2,12,08,38,279,37,03,27,073,19,19,23,107,17,06,19,060,17*7D
$GPGSV,3,3,12,28,16,212,30,16,15,041,17,05,13,318,23,01,10,215,*7F
$GPVTG,178.39,T,,M,1.93,N,3.6,K,D*02
$GPGGA,221938.000,3748.6545,N,12217.9889,W,2,05,3.1,-8.5,M,-25.1,M,2.8,0000*6B
$GPGSA,A,3,03,07,08,28,10,,,,,,,,6.3,3.1,5.6*31
$GPRMC,221938.000,A,3748.6545,N,12217.9889,W,1.92,174.03,190511,,,D*71
$GPVTG,174.03,T,,M,1.92,N,3.6,K,D*06
$GPGGA,221939.000,3748.6538,N,12217.9892,W,2,05,3.1,-8.3,M,-25.1,M,2.8,0000*6C
$GPGSA,A,3,03,07,08,28,10,,,,,,,,6.3,3.1,5.6*31
$GPRMC,221939.000,A,3748.6538,N,12217.9892,W,1.97,183.99,190511,,,D*7E
$GPVTG,183.99,T,,M,1.97,N,3.6,K,D*08
$GPGGA,221940.000,3748.6530,N,12217.9896,W,2,05,3.1,-7.8,M,-25.1,M,2.8,0000*6A
$GPGSA,A,3,03,07,08,28,10,,,,,,,,6.3,3.1,5.6*31
$GPRMC,221940.000,A,3748.6530,N,12217.9896,W,2.07,189.29,190511,,,D*77
$GPVTG,189.29,T,,M,2.07,N,3.8,K,D*0D
$GPGGA,221941.000,3748.6523,N,12217.9898,W,2,05,3.1,-7.6,M,-25.1,M,2.8,0000*69
$GPGSA,A,3,03,07,08,28,10,,,,,,,,6.3,3.1,5.6*31
$GPRMC,221941.000,A,3748.6523,N,12217.9898,W,1.79,182.02,190511,,,D*72
$GPVTG,182.02,T,,M,1.79,N,3.3,K,D*0E
$GPGGA,221942.000,3748.6517,N,12217.9901,W,2,05,3.1,-7.5,M,-25.1,M,3.8,0000*6E
$GPGSA,A,3,03,07,08,28,10,,,,,,,,6.3,3.1,5.6*31
$GPGSV,3,1,12,13,73,093,26,07,61,312,33,10,43,272,37,23,38,124,22*78
$GPGSV,3,2,12,08,38,279,37,03,27,073,19,19,23,107,18,06,19,060,16*73
$GPGSV,3,3,12,28,16,212,35,16,15,041,16,05,13,318,24,01,10,215,*7C
$GPRMC,221942.000,A,3748.6517,N,12217.9901,W,1.74,179.69,190511,,,D*73
$GPVTG,179.69,T,,M,1.74,N,3.2,K,D*0B
$GPGGA,221943.000,3748.6511,N,12217.9905,W,2,05,3.1,-7.5,M,-25.1,M,4.8,0000*6A
$GPGSA,A,3,03,07,08,28,10,,,,,,,,6.3,3.1,5.6*31
$GPRMC,221943.000,A,3748.6511,N,12217.9905,W,1.65,178.34,190511,,,D*79
$GPVTG,178.34,T,,M,1.65,N,3.1,K,D*01
$GPGGA,221944.000,3748.6505,N,12217.9909,W,2,05,3.1,-7.4,M,-25.1,M,5.8,0000*64
$GPGSA,A,3,03,07,08,28,10,,,,,,,,6.3,3.1,5.6*31
