$ADVER,3080,2.3
$GPRMC,193004.542,A,3748.7969,N,12217.8596,W,0.15,73.56,191112,,,A*44
$GPRMC,193005.542,A,3748.7970,N,12217.8595,W,0.16,45.37,191112,,,D*4A
$GPRMC,193006.542,A,3748.7960,N,12217.8596,W,0.14,63.22,191112,,,D*49
$GPRMC,193007.000,A,3748.7958,N,12217.8596,W,0.11,81.46,191112,,,D*4B
$GPRMC,193008.000,A,3748.7955,N,12217.8597,W,0.11,101.19,191112,,,D*7B
$GPRMC,193009.000,A,3748.7953,N,12217.8596,W,0.12,102.08,191112,,,D*7D
$GPRMC,193010.000,A,3748.7952,N,12217.8596,W,0.11,103.51,191112,,,D*7A
$GPRMC,193011.000,A,3748.7951,N,12217.8596,W,0.14,110.43,191112,,,D*7C
$GPRMC,193012.000,A,3748.7950,N,12217.8596,W,0.15,125.20,191112,,,D*7C
$GPRMC,193013.000,A,3748.7951,N,12217.8596,W,0.09,74.41,191112,,,D*43
$GPRMC,193014.000,A,3748.7951,N,12217.8596,W,0.17,39.52,191112,,,D*40
$GPRMC,193015.000,A,3748.7952,N,12217.8595,W,0.18,34.28,191112,,,D*4E
$GPRMC,193016.000,A,3748.7953,N,12217.8595,W,0.22,23.38,191112,,,D*42
$GPRMC,193017.000,A,3748.7955,N,12217.8596,W,0.23,26.22,191112,,,D*49
$GPRMC,193018.000,A,3748.7956,N,12217.8596,W,0.20,25.53,191112,,,D*43
$GPRMC,193019.000,A,3748.7956,N,12217.8596,W,0.23,29.20,191112,,,D*49
$GPRMC,193020.000,A,3748.7956,N,12217.8596,W,0.11,73.73,191112,,,D*4B
$GPRMC,193021.000,A,3748.7956,N,12217.8596,W,0.12,97.81,191112,,,D*4E
$GPRMC,193022.000,A,3748.7967,N,12217.8598,W,0.13,104.61,191112,,,D*75
$GPRMC,193023.000,A,3748.7972,N,12217.8599,W,0.17,115.68,191112,,,D*7C
$GPRMC,193024.000,A,3748.7974,N,12217.8599,W,0.12,117.31,191112,,,D*76
$GPRMC,193025.000,A,3748.7974,N,12217.8599,W,0.36,116.06,191112,,,D*74
$GPRMC,193026.000,A,3748.7976,N,12217.8600,W,0.22,177.73,191112,,,D*76
$GPRMC,193027.000,A,3748.7979,N,12217.8601,W,0.10,140.11,191112,,,D*78
$GPRMC,193028.000,A,3748.7992,N,12217.8603,W,0.20,22.51,191112,,,D*42
$GPRMC,193029.000,A,3748.7994,N,12217.8606,W,0.35,11.37,191112,,,D*44
$GPRMC,193030.000,A,3748.7998,N,12217.8607,W,0.13,288.19,191112,,,D*7B
$GPRMC,193031.000,A,3748.7995,N,12217.8607,W,0.20,340.38,191112,,,D*71
$GPRMC,193032.000,A,3748.7992,N,12217.8605,W,0.60,184.74,191112,,,D*71
$GPRMC,193033.000,A,3748.7995,N,12217.8605,W,0.34,181.37,191112,,,D*74
$GPRMC,193034.000,A,3748.8002,N,12217.8605,W,0.57,343.85,191112,,,D*7B
$GPRMC,193035.000,A,3748.8014,N,12217.8605,W,0.64,355.11,191112,,,D*77
$GPRMC,193036.000,A,3748.8023,N,12217.8608,W,0.55,24.70,191112,,,D*4D
$GPRMC,193037.000,A,3748.8029,N,12217.8612,W,0.38,323.27,191112,,,D*70
$GPRMC,193038.000,A,3748.8020,N,12217.8611,W,1.03,199.62,191112,,,D*7E
$GPRMC,193039.000,A,3748.8016,N,12217.8616,W,1.13,176.37,191112,,,D*7D
$GPRMC,193040.000,A,3748.8010,N,12217.8619,W,0.32,174.89,191112,,,D*7F
$GPRMC,193041.000,A,3748.8006,N,12217.8615,W,0.44,141.74,191112,,,D*70
$GPRMC,193042.000,A,3748.7996,N,12217.8610,W,1.40,171.23,191112,,,A*78
$GPRMC,193043.000,A,3748.7984,N,12217.8603,W,2.31,151.19,191112,,,A*76
$GPRMC,193044.000,A,3748.7975,N,12217.8598,W,2.15,131.98,191112,,,A*77
$GPRMC,193045.000,A,3748.7968,N,12217.8584,W,2.98,138.88,191112,,,A*7A
$GPRMC,193046.000,A,3748.7964,N,12217.8583,W,2.91,151.79,191112,,,A*7A
$GPRMC,193047.000,A,3748.7970,N,12217.8578,W,1.46,143.83,191112,,,A*75
$GPRMC,193048.000,A,3748.7964,N,12217.8575,W,1.42,132.26,191112,,,A*7F
$GPRMC,193049.000,A,3748.7962,N,12217.8574,W,1.85,137.23,191112,,,A*72
$GPRMC,193050.000,A,3748.7963,N,12217.8576,W,1.64,133.46,191112,,,A*71
$GPRMC,193051.000,A,3748.7966,N,12217.8570,W,1.80,114.21,191112,,,A*7D
$GPRMC,193052.000,A,3748.7965,N,12217.8560,W,2.42,109.99,191112,,,A*7E
$GPRMC,193053.000,A,3748.7957,N,12217.8549,W,2.13,134.61,191112,,,A*78
$GPRMC,193054.000,A,3748.7952,N,12217.8540,W,2.01,127.59,191112,,,A*79
$GPRMC,193055.000,A,3748.7949,N,12217.8534,W,1.29,125.92,191112,,,A*7D
$GPRMC,193056.000,A,3748.7944,N,12217.8528,W,1.48,122.82,191112,,,A*7F
$GPRMC,193057.000,A,3748.7937,N,12217.8523,W,1.93,120.12,191112,,,A*7C
$GPRMC,193058.000,A,3748.7929,N,12217.8515,W,2.46,126.09,191112,,,A*7E
$GPRMC,193059.000,A,3748.7918,N,12217.8509,W,2.39,132.30,191112,,,A*77
$GPRMC,193100.000,A,3748.7915,N,12217.8503,W,2.13,122.24,191112,,,A*71
$GPRMC,193101.000,A,3748.7916,N,12217.8500,W,1.35,121.36,191112,,,A*77
$GPRMC,193102.000,A,3748.7918,N,12217.8500,W,0.50,99.11,191112,,,D*4A
$GPRMC,193103.000,A,3748.7921,N,12217.8498,W,0.80,104.82,191112,,,D*73
$GPRMC,193104.000,A,3748.7923,N,12217.8494,W,1.24,111.09,191112,,,D*72
$GPRMC,193105.000,A,3748.7926,N,12217.8493,W,1.41,117.96,191112,,,D*72
$GPRMC,193106.000,A,3748.7916,N,12217.8484,W,1.44,121.62,191112,,,D*7F
$GPRMC,193107.000,A,3748.7917,N,12217.8481,W,0.99,104.27,191112,,,D*7D
$GPRMC,193108.000,A,3748.7912,N,12217.8474,W,1.52,117.74,191112,,,D*7F
$GPRMC,193109.000,A,3748.7906,N,12217.8461,W,1.63,106.16,191112,,,D*79
$GPRMC,193110.000,A,3748.7902,N,12217.8458,W,1.34,120.30,191112,,,D*7D
$GPRMC,193111.000,A,3748.7899,N,12217.8456,W,1.19,109.32,191112,,,D*77
$GPRMC,193112.000,A,3748.7895,N,12217.8451,W,1.23,110.63,191112,,,D*7A
$GPRMC,193113.000,A,3748.7891,N,12217.8438,W,1.99,113.41,191112,,,D*72
$GPRMC,193114.000,A,3748.7890,N,12217.8429,W,1.77,105.91,191112,,,D*7E
$GPRMC,193115.000,A,3748.7886,N,12217.8418,W,2.10,115.97,191112,,,D*7F
$GPRMC,193116.000,A,3748.7883,N,12217.8412,W,2.22,114.89,191112,,,D*7C
$GPRMC,193117.000,A,3748.7878,N,12217.8402,W,1.43,100.46,191112,,,D*7A
$GPRMC,193118.000,A,3748.7880,N,12217.8400,W,1.24,92.22,191112,,,D*49
$GPRMC,193119.000,A,3748.7878,N,12217.8392,W,1.72,105.80,191112,,,D*77
$GPRMC,193120.000,A,3748.7881,N,12217.8393,W,1.23,98.98,191112,,,D*42
$GPRMC,193121.000,A,3748.7875,N,12217.8388,W,1.92,130.84,191112,,,D*76
$GPRMC,193122.000,A,3748.7876,N,12217.8383,W,1.89,118.49,191112,,,D*7C
$GPRMC,193123.000,A,3748.7874,N,12217.8379,W,2.46,116.48,191112,,,D*75
$GPRMC,193124.000,A,3748.7869,N,12217.8372,W,2.36,114.96,191112,,,D*73
$GPRMC,193125.000,A,3748.7867,N,12217.8364,W,2.62,109.02,191112,,,D*7B
$GPRMC,193126.000,A,3748.7861,N,12217.8351,W,2.26,116.88,191112,,,D*74
$GPRMC,193127.000,A,3748.7861,N,12217.8345,W,2.01,115.74,191112,,,D*75
$GPRMC,193128.000,A,3748.7857,N,12217.8337,W,2.39,120.98,191112,,,D*75
$GPRMC,193129.000,A,3748.7857,N,12217.8331,W,2.06,114.66,191112,,,D*78
$GPRMC,193130.000,A,3748.7854,N,12217.8324,W,2.09,117.94,191112,,,D*76
$GPRMC,193131.000,A,3748.7847,N,12217.8316,W,2.20,109.51,191112,,,D*79
$GPRMC,193132.000,A,3748.7842,N,12217.8308,W,1.95,111.64,191112,,,D*72
$GPRMC,193133.000,A,3748.7838,N,12217.8300,W,2.54,114.82,191112,,,D*75
$GPRMC,193134.000,A,3748.7841,N,12217.8296,W,2.08,79.20,191112,,,D*49
$GPRMC,193135.000,A,3748.7833,N,12217.8283,W,2.70,121.03,191112,,,D*7B
$GPRMC,193136.000,A,3748.7823,N,12217.8271,W,3.27,136.89,191112,,,D*73
$GPRMC,193137.000,A,3748.7817,N,12217.8263,W,2.83,139.47,191112,,,D*74
$GPRMC,193138.000,A,3748.7812,N,12217.8256,W,2.79,120.64,191112,,,D*74
$GPRMC,193139.000,A,3748.7809,N,12217.8247,W,2.66,122.22,191112,,,D*71
$GPRMC,193140.000,A,3748.7804,N,12217.8241,W,2.39,114.71,191112,,,D*7D
$GPRMC,193141.000,A,3748.7799,N,12217.8234,W,2.40,114.98,191112,,,D*7C
$GPRMC,193142.000,A,3748.7794,N,12217.8225,W,2.45,120.75,191112,,,D*73
$GPRMC,193143.000,A,3748.7790,N,12217.8218,W,2.76,123.66,191112,,,D*79
$GPRMC,193144.000,A,3748.7786,N,12217.8211,W,2.24,129.28,191112,,,D*77
$GPRMC,193145.000,A,3748.7780,N,12217.8203,W,2.51,122.93,191112,,,D*7A
$GPRMC,193146.000,A,3748.7773,N,12217.8193,W,2.51,120.22,191112,,,D*77
$GPRMC,193147.000,A,3748.7766,N,12217.8181,W,3.14,117.96,191112,,,D*7A
$GPRMC,193148.000,A,3748.7761,N,12217.8170,W,2.71,115.27,191112,,,D*76
$GPRMC,193149.000,A,3748.7758,N,12217.8163,W,3.00,121.16,191112,,,D*7D
$GPRMC,193150.000,A,3748.7751,N,12217.8151,W,3.20,125.81,191112,,,D*75
$GPRMC,193151.000,A,3748.7748,N,12217.8141,W,2.83,129.03,191112,,,D*73
$GPRMC,193152.000,A,3748.7744,N,12217.8134,W,2.96,121.59,191112,,,D*7D
$GPRMC,193153.000,A,3748.7741,N,12217.8126,W,2.83,117.60,191112,,,D*71
$GPRMC,193154.000,A,3748.7738,N,12217.8121,W,2.13,118.92,191112,,,D*74
$GPRMC,193155.000,A,3748.7737,N,12217.8116,W,2.24,115.36,191112,,,D*79
$GPRMC,193156.000,A,3748.7733,N,12217.8107,W,2.63,124.16,191112,,,D*7D
$GPRMC,193157.000,A,3748.7728,N,12217.8098,W,2.60,112.66,191112,,,D*70
$GPRMC,193158.000,A,3748.7725,N,12217.8090,W,2.45,111.23,191112,,,D*7F
$GPRMC,193159.000,A,3748.7718,N,12217.8080,W,3.06,119.23,191112,,,D*7F
$GPRMC,193200.000,A,3748.7714,N,12217.8075,W,3.06,116.57,191112,,,D*7A
$GPRMC,193201.000,A,3748.7709,N,12217.8063,W,2.88,107.90,191112,,,D*7C
$GPRMC,193202.000,A,3748.7707,N,12217.8053,W,2.32,115.84,191112,,,D*75
$GPRMC,193203.000,A,3748.7702,N,12217.8044,W,2.31,118.82,191112,,,D*7F
$GPRMC,193204.000,A,3748.7698,N,12217.8034,W,2.72,115.73,191112,,,D*79
$GPRMC,193205.000,A,3748.7697,N,12217.8025,W,2.53,114.17,191112,,,D*77
$GPRMC,193206.000,A,3748.7694,N,12217.8017,W,2.40,118.27,191112,,,D*7B
$GPRMC,193207.000,A,3748.7689,N,12217.8008,W,2.63,121.38,191112,,,D*7D
$GPRMC,193208.000,A,3748.7685,N,12217.7997,W,2.07,118.31,191112,,,D*7F
$GPRMC,193209.000,A,3748.7678,N,12217.7986,W,2.05,118.83,191112,,,D*77
$GPRMC,193210.000,A,3748.7677,N,12217.7979,W,1.75,101.56,191112,,,D*74
$GPRMC,193211.000,A,3748.7671,N,12217.7967,W,2.74,109.29,191112,,,D*7E
$GPRMC,193212.000,A,3748.7671,N,12217.7959,W,2.15,101.89,191112,,,D*75
$GPRMC,193213.000,A,3748.7670,N,12217.7948,W,1.92,88.10,191112,,,D*49
$GPRMC,193214.000,A,3748.7662,N,12217.7937,W,2.63,114.91,191112,,,D*75
$GPRMC,193215.000,A,3748.7651,N,12217.7923,W,2.73,119.66,191112,,,D*75
$GPRMC,193216.000,A,3748.7644,N,12217.7912,W,2.98,119.11,191112,,,D*75
$GPRMC,193217.000,A,3748.7637,N,12217.7900,W,3.56,123.92,191112,,,D*72
$GPRMC,193218.000,A,3748.7627,N,12217.7888,W,3.20,127.66,191112,,,D*73
$GPRMC,193219.000,A,3748.7623,N,12217.7880,W,3.01,125.60,191112,,,D*79
$GPRMC,193220.000,A,3748.7618,N,12217.7872,W,3.29,121.96,191112,,,D*71
$GPRMC,193221.000,A,3748.7612,N,12217.7863,W,3.49,118.53,191112,,,D*7F
$GPRMC,193222.000,A,3748.7603,N,12217.7849,W,3.47,118.90,191112,,,D*75
$GPRMC,193223.000,A,3748.7590,N,12217.7837,W,3.90,128.44,191112,,,D*74
$GPRMC,193224.000,A,3748.7577,N,12217.7831,W,3.54,137.06,191112,,,D*7C
$GPRMC,193225.000,A,3748.7572,N,12217.7828,W,3.25,131.02,191112,,,D*74
$GPRMC,193226.000,A,3748.7568,N,12217.7823,W,3.10,126.11,191112,,,D*75
$GPRMC,193227.000,A,3748.7566,N,12217.7819,W,3.16,119.05,191112,,,D*7C
$GPRMC,193228.000,A,3748.7562,N,12217.7814,W,3.06,120.88,191112,,,D*74
$GPRMC,193229.000,A,3748.7557,N,12217.7807,W,2.84,125.63,191112,,,D*7A
$GPRMC,193230.000,A,3748.7553,N,12217.7803,W,2.29,125.43,191112,,,D*77
$GPRMC,193231.000,A,3748.7550,N,12217.7796,W,2.94,120.21,191112,,,D*71
$GPRMC,193232.000,A,3748.7547,N,12217.7790,W,2.68,117.81,191112,,,D*7F
$GPRMC,193233.000,A,3748.7543,N,12217.7783,W,2.49,117.83,191112,,,D*79
$GPRMC,193234.000,A,3748.7540,N,12217.7779,W,2.78,114.53,191112,,,D*74
$GPRMC,193235.000,A,3748.7541,N,12217.7775,W,2.62,114.40,191112,,,D*71
$GPRMC,193236.000,A,3748.7540,N,12217.7769,W,2.88,113.96,191112,,,D*76
$GPRMC,193237.000,A,3748.7534,N,12217.7765,W,2.90,119.85,191112,,,D*79
$GPRMC,193238.000,A,3748.7532,N,12217.7760,W,2.69,122.93,191112,,,D*7C
$GPRMC,193239.000,A,3748.7526,N,12217.7755,W,2.43,114.83,191112,,,D*72
$GPRMC,193240.000,A,3748.7523,N,12217.7751,W,2.32,108.85,191112,,,D*70
$GPRMC,193241.000,A,3748.7519,N,12217.7746,W,2.50,118.88,191112,,,D*76
$GPRMC,193242.000,A,3748.7519,N,12217.7744,W,2.44,109.32,191112,,,D*73
$GPRMC,193243.000,A,3748.7514,N,12217.7739,W,2.31,120.38,191112,,,D*76
$GPRMC,193244.000,A,3748.7511,N,12217.7736,W,2.32,121.34,191112,,,D*75
$GPRMC,193245.000,A,3748.7507,N,12217.7736,W,2.24,123.32,191112,,,D*70
$GPRMC,193246.000,A,3748.7503,N,12217.7730,W,2.39,113.74,191112,,,D*7C
$GPRMC,193247.000,A,3748.7503,N,12217.7727,W,2.12,98.78,191112,,,D*4C
$GPRMC,193248.000,A,3748.7502,N,12217.7721,W,2.50,101.59,191112,,,D*70
$GPRMC,193249.000,A,3748.7498,N,12217.7711,W,2.67,106.58,191112,,,D*72
$GPRMC,193250.000,A,3748.7490,N,12217.7697,W,3.07,103.67,191112,,,D*73
$GPRMC,193251.000,A,3748.7484,N,12217.7682,W,3.23,104.76,191112,,,D*72
$GPRMC,193252.000,A,3748.7477,N,12217.7668,W,3.19,108.59,191112,,,D*71
$GPRMC,193253.000,A,3748.7473,N,12217.7657,W,3.15,105.25,191112,,,D*72
$GPRMC,193254.000,A,3748.7467,N,12217.7647,W,3.02,111.37,191112,,,D*71
$GPRMC,193255.000,A,3748.7461,N,12217.7631,W,2.56,116.65,191112,,,D*77
$GPRMC,193256.000,A,3748.7455,N,12217.7615,W,2.76,116.57,191112,,,D*76
$GPRMC,193257.000,A,3748.7452,N,12217.7599,W,2.78,120.98,191112,,,D*7F
$GPRMC,193258.000,A,3748.7449,N,12217.7585,W,2.81,119.38,191112,,,D*71
$GPRMC,193259.000,A,3748.7440,N,12217.7569,W,3.11,117.46,191112,,,D*74
$GPRMC,193300.000,A,3748.7440,N,12217.7558,W,2.57,117.68,191112,,,D*74
$GPRMC,193301.000,A,3748.7434,N,12217.7544,W,2.78,123.39,191112,,,D*75
$GPRMC,193302.000,A,3748.7429,N,12217.7533,W,2.76,120.61,191112,,,D*7A
$GPRMC,193303.000,A,3748.7422,N,12217.7521,W,2.62,118.19,191112,,,D*72
$GPRMC,193304.000,A,3748.7417,N,12217.7509,W,2.59,109.18,191112,,,D*70
$GPRMC,193305.000,A,3748.7413,N,12217.7502,W,2.54,134.56,191112,,,D*77
$GPRMC,193306.000,A,3748.7411,N,12217.7497,W,2.20,120.57,191112,,,D*7C
$GPRMC,193307.000,A,3748.7403,N,12217.7484,W,3.03,126.74,191112,,,D*7B
$GPRMC,193308.000,A,3748.7399,N,12217.7474,W,3.03,127.71,191112,,,D*7B
$GPRMC,193309.000,A,3748.7388,N,12217.7457,W,3.26,119.41,191112,,,D*72
$GPRMC,193310.000,A,3748.7381,N,12217.7444,W,2.91,120.48,191112,,,D*7F
$GPRMC,193311.000,A,3748.7381,N,12217.7436,W,3.03,121.29,191112,,,D*77
$GPRMC,193312.000,A,3748.7378,N,12217.7428,W,1.40,118.01,191112,,,D*78
$GPRMC,193313.000,A,3748.7375,N,12217.7425,W,1.87,123.33,191112,,,D*7B
$GPRMC,193314.000,A,3748.7374,N,12217.7420,W,1.60,109.73,191112,,,D*7D
$GPRMC,193315.000,A,3748.7372,N,12217.7411,W,2.15,114.93,191112,,,D*7B
$GPRMC,193316.000,A,3748.7370,N,12217.7401,W,2.89,112.11,191112,,,D*72
$GPRMC,193317.000,A,3748.7371,N,12217.7394,W,2.29,112.71,191112,,,D*75
$GPRMC,193318.000,A,3748.7371,N,12217.7385,W,2.95,121.34,191112,,,D*7C
$GPRMC,193319.000,A,3748.7369,N,12217.7375,W,3.05,124.93,191112,,,D*7B
$GPRMC,193320.000,A,3748.7365,N,12217.7364,W,2.10,113.71,191112,,,D*70
$GPRMC,193321.000,A,3748.7359,N,12217.7356,W,2.53,132.96,191112,,,D*72
$GPRMC,193322.000,A,3748.7359,N,12217.7348,W,1.55,111.90,191112,,,D*7C
$GPRMC,193323.000,A,3748.7351,N,12217.7333,W,1.70,117.37,191112,,,D*75
$GPRMC,193324.000,A,3748.7344,N,12217.7319,W,1.52,125.11,191112,,,D*7B
$GPRMC,193325.000,A,3748.7337,N,12217.7309,W,2.15,123.41,191112,,,D*7C
$GPRMC,193326.000,A,3748.7332,N,12217.7300,W,2.29,127.03,191112,,,D*7E
$GPRMC,193327.000,A,3748.7330,N,12217.7291,W,2.53,116.16,191112,,,D*7F
$GPRMC,193328.000,A,3748.7327,N,12217.7284,W,2.56,114.96,191112,,,D*7D
$GPRMC,193329.000,A,3748.7326,N,12217.7276,W,2.88,122.08,191112,,,D*71
$GPRMC,193330.000,A,3748.7320,N,12217.7267,W,2.99,120.22,191112,,,D*75
$GPRMC,193331.000,A,3748.7313,N,12217.7258,W,3.34,124.39,191112,,,D*70
$GPRMC,193332.000,A,3748.7308,N,12217.7250,W,2.83,125.91,191112,,,D*7F
$GPRMC,193333.000,A,3748.7304,N,12217.7242,W,3.19,122.64,191112,,,D*7E
$GPRMC,193334.000,A,3748.7298,N,12217.7234,W,3.33,113.58,191112,,,D*79
$GPRMC,193335.000,A,3748.7292,N,12217.7224,W,2.55,117.53,191112,,,D*7D
$GPRMC,193336.000,A,3748.7289,N,12217.7217,W,2.85,119.81,191112,,,D*78
$GPRMC,193337.000,A,3748.7285,N,12217.7208,W,2.73,121.89,191112,,,D*71
$GPRMC,193338.000,A,3748.7279,N,12217.7198,W,2.91,123.22,191112,,,D*78
$GPRMC,193339.000,A,3748.7274,N,12217.7187,W,2.72,109.88,191112,,,D*7F
$GPRMC,193340.000,A,3748.7273,N,12217.7177,W,2.23,88.84,191112,,,D*49
$GPRMC,193341.000,A,3748.7273,N,12217.7164,W,2.47,55.57,191112,,,D*46
$GPRMC,193342.000,A,3748.7280,N,12217.7158,W,2.54,29.04,191112,,,D*49
$GPRMC,193343.000,A,3748.7288,N,12217.7151,W,2.20,23.41,191112,,,D*41
$GPRMC,193344.000,A,3748.7300,N,12217.7146,W,2.05,24.30,191112,,,D*47
$GPRMC,193345.000,A,3748.7308,N,12217.7138,W,1.71,42.71,191112,,,D*42
$GPRMC,193346.000,A,3748.7305,N,12217.7131,W,1.11,47.75,191112,,,D*42
$GPRMC,193347.000,A,3748.7314,N,12217.7127,W,1.01,35.19,191112,,,D*4A
$GPRMC,193348.000,A,3748.7320,N,12217.7124,W,1.62,13.35,191112,,,D*4E
$GPRMC,193349.000,A,3748.7323,N,12217.7115,W,1.42,49.19,191112,,,D*4D
$GPRMC,193350.000,A,3748.7334,N,12217.7107,W,2.18,52.43,191112,,,D*49
$GPRMC,193351.000,A,3748.7340,N,12217.7095,W,2.11,63.30,191112,,,D*4E
$GPRMC,193352.000,A,3748.7346,N,12217.7086,W,1.49,63.04,191112,,,D*40
$GPRMC,193353.000,A,3748.7351,N,12217.7076,W,2.06,42.23,191112,,,D*46
$GPRMC,193354.000,A,3748.7358,N,12217.7066,W,1.99,59.90,191112,,,D*4E
$GPRMC,193355.000,A,3748.7364,N,12217.7056,W,2.21,50.40,191112,,,D*47
$GPRMC,193356.000,A,3748.7369,N,12217.7052,W,2.29,41.01,191112,,,D*40
$GPRMC,193357.000,A,3748.7370,N,12217.7050,W,1.80,52.24,191112,,,D*4E
$GPRMC,193358.000,A,3748.7377,N,12217.7039,W,2.11,69.36,191112,,,A*4C
$GPRMC,193359.000,A,3748.7383,N,12217.7029,W,1.91,67.29,191112,,,A*4C
$GPRMC,193400.000,A,3748.7385,N,12217.7021,W,1.53,82.83,191112,,,A*4C
$GPRMC,193401.000,A,3748.7398,N,12217.7016,W,1.41,48.37,191112,,,A*4F
$GPRMC,193402.000,A,3748.7408,N,12217.7011,W,1.58,31.57,191112,,,A*45
$GPRMC,193403.000,A,3748.7413,N,12217.7013,W,1.32,73.30,191112,,,A*47
$GPRMC,193404.000,A,3748.7420,N,12217.7012,W,1.60,39.10,191112,,,A*4A
$GPRMC,193405.000,A,3748.7434,N,12217.7011,W,2.28,18.81,191112,,,A*49
$GPRMC,193406.000,A,3748.7449,N,12217.7009,W,2.84,11.32,191112,,,A*4E
$GPRMC,193407.000,A,3748.7467,N,12217.7011,W,2.81,15.55,191112,,,A*4A
$GPRMC,193408.000,A,3748.7484,N,12217.7012,W,3.07,13.81,191112,,,A*4B
$GPRMC,193409.000,A,3748.7496,N,12217.7015,W,2.13,20.63,191112,,,A*46
$GPRMC,193410.000,A,3748.7511,N,12217.7015,W,1.82,30.95,191112,,,A*43
$GPRMC,193411.000,A,3748.7505,N,12217.7005,W,1.32,80.64,191112,,,A*48
$GPRMC,193412.000,A,3748.7510,N,12217.6997,W,1.95,61.31,191112,,,A*4E
$GPRMC,193413.000,A,3748.7521,N,12217.6990,W,2.21,28.46,191112,,,A*4B
$GPRMC,193414.000,A,3748.7528,N,12217.6986,W,2.11,27.06,191112,,,A*4A
$GPRMC,193415.000,A,3748.7544,N,12217.6987,W,2.09,15.25,191112,,,A*49
$GPRMC,193416.000,A,3748.7541,N,12217.6979,W,1.48,57.92,191112,,,A*42
$GPRMC,193417.000,A,3748.7546,N,12217.6972,W,1.20,70.42,191112,,,A*49
$GPRMC,193418.000,A,3748.7550,N,12217.6969,W,1.61,38.01,191112,,,A*45
$GPRMC,193419.000,A,3748.7552,N,12217.6961,W,1.43,49.79,191112,,,A*47
$GPRMC,193420.000,A,3748.7557,N,12217.6957,W,0.87,61.40,191112,,,A*44
$GPRMC,193421.000,A,3748.7563,N,12217.6956,W,0.46,90.50,191112,,,A*41
$GPRMC,193422.000,A,3748.7572,N,12217.6955,W,0.21,102.84,191112,,,A*73
$GPRMC,193423.000,A,3748.7583,N,12217.6955,W,0.95,14.53,191112,,,A*4F
$GPRMC,193424.000,A,3748.7592,N,12217.6955,W,1.72,1.65,191112,,,A*71
$GPRMC,193425.000,A,3748.7602,N,12217.6956,W,2.65,356.67,191112,,,A*7F
$GPRMC,193426.000,A,3748.7612,N,12217.6956,W,3.24,358.27,191112,,,A*73
$GPRMC,193427.000,A,3748.7634,N,12217.6957,W,4.04,356.15,191112,,,A*7D
$GPRMC,193428.000,A,3748.7654,N,12217.6957,W,3.86,359.67,191112,,,A*73
$GPRMC,193429.000,A,3748.7664,N,12217.6955,W,2.74,8.63,191112,,,A*7C
$GPRMC,193430.000,A,3748.7671,N,12217.6951,W,1.89,17.97,191112,,,A*40
$GPRMC,193431.000,A,3748.7673,N,12217.6947,W,2.07,16.15,191112,,,A*4A
$GPRMC,193432.000,A,3748.7679,N,12217.6943,W,1.64,16.18,191112,,,A*4C
$GPRMC,193433.000,A,3748.7687,N,12217.6937,W,1.07,19.78,191112,,,A*43
$GPRMC,193434.000,A,3748.7690,N,12217.6926,W,1.31,45.03,191112,,,A*42
$GPRMC,193435.000,A,3748.7699,N,12217.6918,W,2.17,35.09,191112,,,A*4D
$GPRMC,193436.000,A,3748.7698,N,12217.6905,W,1.73,59.66,191112,,,A*41
$GPRMC,193437.000,A,3748.7702,N,12217.6897,W,1.71,46.25,191112,,,A*43
$GPRMC,193438.000,A,3748.7708,N,12217.6889,W,2.12,20.17,191112,,,A*4E
$GPRMC,193439.000,A,3748.7713,N,12217.6882,W,1.40,30.85,191112,,,A*40
$GPRMC,193440.000,A,3748.7713,N,12217.6875,W,0.77,58.36,191112,,,A*45
$GPRMC,193441.000,A,3748.7716,N,12217.6868,W,0.61,93.94,191112,,,A*45
$GPRMC,193442.000,A,3748.7717,N,12217.6860,W,1.00,71.37,191112,,,A*4C
$GPRMC,193443.000,A,3748.7720,N,12217.6850,W,0.85,91.90,191112,,,A*45
$GPRMC,193444.000,A,3748.7727,N,12217.6844,W,1.17,26.86,191112,,,A*41
$GPRMC,193445.000,A,3748.7732,N,12217.6838,W,1.46,48.36,191112,,,A*48
$GPRMC,193446.000,A,3748.7738,N,12217.6831,W,1.63,26.79,191112,,,A*4C
$GPRMC,193447.000,A,3748.7743,N,12217.6824,W,1.06,40.84,191112,,,A*44
$GPRMC,193448.000,A,3748.7750,N,12217.6818,W,1.55,26.81,191112,,,A*45
$GPRMC,193449.000,A,3748.7757,N,12217.6812,W,2.17,16.76,191112,,,A*47
$GPRMC,193450.000,A,3748.7747,N,12217.6801,W,1.14,41.50,191112,,,A*4A
$GPRMC,193451.000,A,3748.7751,N,12217.6791,W,1.47,70.15,191112,,,A*4F
$GPRMC,193452.000,A,3748.7757,N,12217.6782,W,1.49,40.75,191112,,,A*43
$GPRMC,193453.000,A,3748.7763,N,12217.6775,W,1.34,48.93,191112,,,A*47
$GPRMC,193454.000,A,3748.7769,N,12217.6769,W,1.23,60.55,191112,,,A*41
$GPRMC,193455.000,A,3748.7781,N,12217.6764,W,1.65,34.86,191112,,,A*46
$GPRMC,193456.000,A,3748.7785,N,12217.6757,W,0.99,49.28,191112,,,A*4D
$GPRMC,193457.000,A,3748.7787,N,12217.6748,W,0.76,53.01,191112,,,A*41
$GPRMC,193458.000,A,3748.7800,N,12217.6744,W,1.22,25.13,191112,,,A*40
$GPRMC,193459.000,A,3748.7794,N,12217.6736,W,1.34,15.04,191112,,,A*44
$GPRMC,193500.000,A,3748.7791,N,12217.6729,W,0.99,17.47,191112,,,A*41
$GPRMC,193501.000,A,3748.7796,N,12217.6724,W,0.68,47.04,191112,,,A*46
$GPRMC,193502.000,A,3748.7804,N,12217.6719,W,1.16,26.91,191112,,,A*4C
$GPRMC,193503.000,A,3748.7808,N,12217.6713,W,1.85,17.02,191112,,,A*49
$GPRMC,193504.000,A,3748.7826,N,12217.6710,W,2.35,10.25,191112,,,A*4B
$GPRMC,193505.000,A,3748.7843,N,12217.6708,W,2.66,11.64,191112,,,A*42
$GPRMC,193506.000,A,3748.7860,N,12217.6705,W,2.38,4.15,191112,,,A*74
$GPRMC,193507.000,A,3748.7864,N,12217.6700,W,1.66,10.65,191112,,,A*4E
$GPRMC,193508.000,A,3748.7871,N,12217.6695,W,1.30,17.28,191112,,,A*45
$GPRMC,193509.000,A,3748.7870,N,12217.6688,W,1.38,47.11,191112,,,A*4E
$GPRMC,193510.000,A,3748.7868,N,12217.6680,W,1.57,44.51,191112,,,A*49
$GPRMC,193511.000,A,3748.7866,N,12217.6671,W,1.31,50.32,191112,,,A*48
$GPRMC,193512.000,A,3748.7873,N,12217.6666,W,1.74,18.59,191112,,,A*49
$GPRMC,193513.000,A,3748.7874,N,12217.6660,W,1.43,41.67,191112,,,A*4C
$GPRMC,193514.000,A,3748.7888,N,12217.6657,W,1.66,56.88,191112,,,A*4C
$GPRMC,193515.000,A,3748.7895,N,12217.6650,W,1.84,46.94,191112,,,D*43
$GPRMC,193516.000,A,3748.7908,N,12217.6648,W,1.40,30.78,191112,,,D*47
$GPRMC,193517.000,A,3748.7916,N,12217.6646,W,1.98,13.02,191112,,,D*4E
$GPRMC,193518.000,A,3748.7933,N,12217.6647,W,2.56,6.15,191112,,,D*74
$GPRMC,193519.000,A,3748.7949,N,12217.6644,W,2.12,4.70,191112,,,D*7A
$GPRMC,193520.000,A,3748.7954,N,12217.6637,W,1.42,34.84,191112,,,D*46
$GPRMC,193521.000,A,3748.7954,N,12217.6630,W,1.22,38.65,191112,,,D*45
$GPRMC,193522.000,A,3748.7957,N,12217.6622,W,0.97,72.82,191112,,,D*4E
$GPRMC,193523.000,A,3748.7957,N,12217.6615,W,1.13,53.32,191112,,,D*4E
$GPRMC,193524.000,A,3748.7966,N,12217.6612,W,1.16,41.89,191112,,,D*4A
$GPRMC,193525.000,A,3748.7979,N,12217.6607,W,1.83,36.56,191112,,,D*4F
$GPRMC,193526.000,A,3748.7990,N,12217.6607,W,2.07,17.45,191112,,,D*45
$GPRMC,193527.000,A,3748.7996,N,12217.6603,W,2.16,15.44,191112,,,D*45
$GPRMC,193528.000,A,3748.8000,N,12217.6596,W,2.56,15.81,191112,,,D*41
$GPRMC,193529.000,A,3748.8008,N,12217.6589,W,2.62,20.79,191112,,,D*40
$GPRMC,193530.000,A,3748.8022,N,12217.6584,W,2.84,10.47,191112,,,D*4B
$GPRMC,193531.000,A,3748.8035,N,12217.6580,W,2.55,3.45,191112,,,D*74
$GPRMC,193532.000,A,3748.8046,N,12217.6576,W,2.38,5.88,191112,,,D*76
$GPRMC,193533.000,A,3748.8053,N,12217.6571,W,2.29,17.50,191112,,,D*42
$GPRMC,193534.000,A,3748.8059,N,12217.6565,W,2.15,16.13,191112,,,D*43
$GPRMC,193535.000,A,3748.8063,N,12217.6558,W,2.14,34.33,191112,,,D*46
$GPRMC,193536.000,A,3748.8075,N,12217.6550,W,2.99,21.82,191112,,,D*41
$GPRMC,193537.000,A,3748.8079,N,12217.6542,W,2.57,29.11,191112,,,D*4F
$GPRMC,193538.000,A,3748.8078,N,12217.6535,W,1.89,33.53,191112,,,D*4C
$GPRMC,193539.000,A,3748.8074,N,12217.6523,W,2.14,33.00,191112,,,D*47
$GPRMC,193540.000,A,3748.8071,N,12217.6515,W,1.08,64.45,191112,,,D*44
$GPRMC,193541.000,A,3748.8066,N,12217.6507,W,0.81,74.25,191112,,,D*47
$GPRMC,193542.000,A,3748.8064,N,12217.6496,W,1.39,50.30,191112,,,D*4F
$GPRMC,193543.000,A,3748.8071,N,12217.6489,W,2.41,36.66,191112,,,D*4B
$GPRMC,193544.000,A,3748.8077,N,12217.6482,W,2.12,23.74,191112,,,D*40
$GPRMC,193545.000,A,3748.8085,N,12217.6475,W,1.74,37.26,191112,,,D*45
$GPRMC,193546.000,A,3748.8092,N,12217.6470,W,1.50,47.90,191112,,,D*49
$GPRMC,193547.000,A,3748.8099,N,12217.6464,W,1.66,58.73,191112,,,D*40
$GPRMC,193548.000,A,3748.8109,N,12217.6459,W,2.18,25.14,191112,,,D*48
$GPRMC,193549.000,A,3748.8126,N,12217.6455,W,3.55,16.88,191112,,,D*45
$GPRMC,193550.000,A,3748.8139,N,12217.6447,W,3.43,17.80,191112,,,D*4E
$GPRMC,193551.000,A,3748.8152,N,12217.6439,W,2.59,13.56,191112,,,D*4E
$GPRMC,193552.000,A,3748.8164,N,12217.6432,W,1.92,14.83,191112,,,D*48
$GPRMC,193553.000,A,3748.8169,N,12217.6423,W,2.00,21.44,191112,,,D*41
$GPRMC,193554.000,A,3748.8176,N,12217.6413,W,2.58,16.96,191112,,,D*4D
$GPRMC,193555.000,A,3748.8175,N,12217.6403,W,1.66,33.94,191112,,,D*45
$GPRMC,193556.000,A,3748.8173,N,12217.6395,W,0.89,72.52,191112,,,D*47
$GPRMC,193557.000,A,3748.8168,N,12217.6386,W,1.30,50.95,191112,,,D*46
$GPRMC,193558.000,A,3748.8167,N,12217.6379,W,1.98,35.02,191112,,,D*49
$GPRMC,193559.000,A,3748.8173,N,12217.6370,W,2.10,35.29,191112,,,D*4E
$GPRMC,193600.000,A,3748.8182,N,12217.6363,W,1.98,34.47,191112,,,D*47
$GPRMC,193601.000,A,3748.8189,N,12217.6357,W,1.70,44.88,191112,,,D*48
$GPRMC,193602.000,A,3748.8199,N,12217.6351,W,1.48,43.08,191112,,,D*48
$GPRMC,193603.000,A,3748.8204,N,12217.6345,W,0.87,60.46,191112,,,D*42
$GPRMC,193604.000,A,3748.8210,N,12217.6342,W,1.15,77.58,191112,,,D*44
$GPRMC,193605.000,A,3748.8217,N,12217.6337,W,1.83,63.45,191112,,,D*46
$GPRMC,193606.000,A,3748.8225,N,12217.6331,W,1.72,62.36,191112,,,D*49
$GPRMC,193607.000,A,3748.8233,N,12217.6327,W,2.09,36.31,191112,,,D*41
$GPRMC,193608.000,A,3748.8245,N,12217.6323,W,2.68,15.56,191112,,,D*4C
$GPRMC,193609.000,A,3748.8258,N,12217.6321,W,2.15,19.53,191112,,,D*40
$GPRMC,193610.000,A,3748.8267,N,12217.6316,W,1.50,22.47,191112,,,D*4F
$GPRMC,193611.000,A,3748.8266,N,12217.6312,W,1.02,62.23,191112,,,D*4A
$GPRMC,193612.000,A,3748.8271,N,12217.6310,W,1.25,35.68,191112,,,D*45
$GPRMC,193613.000,A,3748.8280,N,12217.6309,W,1.15,32.33,191112,,,D*48
$GPRMC,193614.000,A,3748.8282,N,12217.6306,W,1.28,53.18,191112,,,D*42
$GPRMC,193615.000,A,3748.8286,N,12217.6304,W,1.57,27.75,191112,,,D*45
$GPRMC,193616.000,A,3748.8292,N,12217.6301,W,1.92,28.00,191112,,,D*42
$GPRMC,193617.000,A,3748.8299,N,12217.6295,W,1.27,48.49,191112,,,D*41
$GPRMC,193618.000,A,3748.8311,N,12217.6290,W,1.20,33.29,191112,,,D*47
$GPRMC,193619.000,A,3748.8321,N,12217.6286,W,1.65,48.04,191112,,,D*40
$GPRMC,193620.000,A,3748.8328,N,12217.6280,W,1.38,60.38,191112,,,D*48
$GPRMC,193621.000,A,3748.8337,N,12217.6278,W,1.45,78.27,191112,,,D*4D
$GPRMC,193622.000,A,3748.8337,N,12217.6271,W,1.77,53.18,191112,,,D*43
$GPRMC,193623.000,A,3748.8335,N,12217.6267,W,1.13,43.62,191112,,,D*49
$GPRMC,193624.000,A,3748.8336,N,12217.6261,W,1.27,38.55,191112,,,D*44
$GPRMC,193625.000,A,3748.8343,N,12217.6256,W,2.09,21.12,191112,,,D*47
$GPRMC,193626.000,A,3748.8355,N,12217.6255,W,2.71,16.55,191112,,,D*48
$GPRMC,193627.000,A,3748.8361,N,12217.6247,W,2.34,40.51,191112,,,D*4B
$GPRMC,193628.000,A,3748.8371,N,12217.6241,W,2.09,58.76,191112,,,D*41
$GPRMC,193629.000,A,3748.8372,N,12217.6231,W,1.97,51.40,191112,,,D*4C
$GPRMC,193630.000,A,3748.8374,N,12217.6226,W,1.01,53.49,191112,,,D*40
$GPRMC,193631.000,A,3748.8377,N,12217.6224,W,1.00,40.62,191112,,,D*4A
$GPRMC,193632.000,A,3748.8374,N,12217.6219,W,1.60,110.54,191112,,,D*73
$GPRMC,193633.000,A,3748.8370,N,12217.6210,W,2.70,125.69,191112,,,D*75
$GPRMC,193634.000,A,3748.8364,N,12217.6201,W,2.79,126.19,191112,,,D*7A
$GPRMC,193635.000,A,3748.8360,N,12217.6193,W,3.09,130.87,191112,,,D*71
$GPRMC,193636.000,A,3748.8356,N,12217.6187,W,2.77,133.00,191112,,,D*76
$GPRMC,193637.000,A,3748.8352,N,12217.6180,W,3.04,124.76,191112,,,D*76
$GPRMC,193638.000,A,3748.8351,N,12217.6172,W,2.89,123.35,191112,,,D*73
$GPRMC,193639.000,A,3748.8349,N,12217.6165,W,2.84,127.68,191112,,,D*7C
$GPRMC,193640.000,A,3748.8349,N,12217.6159,W,3.18,129.34,191112,,,D*7E
$GPRMC,193641.000,A,3748.8340,N,12217.6149,W,4.10,135.28,191112,,,D*78
$GPRMC,193642.000,A,3748.8330,N,12217.6138,W,4.14,137.94,191112,,,D*7B
$GPRMC,193643.000,A,3748.8329,N,12217.6130,W,3.82,134.98,191112,,,D*7D
$GPRMC,193644.000,A,3748.8330,N,12217.6124,W,2.64,122.63,191112,,,D*7D
$GPRMC,193645.000,A,3748.8337,N,12217.6118,W,1.65,70.60,191112,,,D*43
$GPRMC,193646.000,A,3748.8345,N,12217.6114,W,1.35,46.15,191112,,,D*4B
$GPRMC,193647.000,A,3748.8350,N,12217.6108,W,0.67,71.79,191112,,,D*4B
$GPRMC,193648.000,A,3748.8358,N,12217.6106,W,0.43,116.17,191112,,,D*7C
$GPRMC,193649.000,A,3748.8368,N,12217.6106,W,1.71,5.60,191112,,,A*78
$GPRMC,193650.000,A,3748.8383,N,12217.6105,W,1.88,0.32,191112,,,A*72
$GPRMC,193651.000,A,3748.8388,N,12217.6104,W,0.91,2.41,191112,,,A*76
$GPRMC,193652.000,A,3748.8373,N,12217.6099,W,1.32,144.00,191112,,,A*7A
$GPRMC,193653.000,A,3748.8357,N,12217.6091,W,1.38,130.80,191112,,,A*74
$GPRMC,193654.000,A,3748.8348,N,12217.6086,W,1.00,125.82,191112,,,A*76
$GPRMC,193655.000,A,3748.8339,N,12217.6080,W,0.64,136.15,191112,,,D*7D
$GPRMC,193656.000,A,3748.8335,N,12217.6078,W,0.39,43.77,191112,,,D*4A
$GPRMC,193657.000,A,3748.8331,N,12217.6076,W,0.20,55.77,191112,,,D*4E
$GPRMC,193658.000,A,3748.8324,N,12217.6070,W,0.41,345.75,191112,,,D*74
$GPRMC,193659.000,A,3748.8316,N,12217.6061,W,0.14,355.30,191112,,,D*74
$GPRMC,193700.000,A,3748.8312,N,12217.6058,W,0.49,333.64,191112,,,D*7E
$GPRMC,193701.000,A,3748.8303,N,12217.6046,W,0.10,349.22,191112,,,D*73
$GPRMC,193702.000,A,3748.8297,N,12217.6036,W,0.48,23.48,191112,,,D*45
$GPRMC,193703.000,A,3748.8292,N,12217.6019,W,0.89,335.81,191112,,,D*70
$GPRMC,193704.000,A,3748.8283,N,12217.6008,W,0.38,65.45,191112,,,D*43
$GPRMC,193705.000,A,3748.8275,N,12217.5996,W,1.65,119.38,191112,,,D*7F
$GPRMC,193706.000,A,3748.8268,N,12217.5984,W,1.95,121.58,191112,,,D*71
$GPRMC,193707.000,A,3748.8259,N,12217.5972,W,1.63,118.22,191112,,,D*75
$GPRMC,193708.000,A,3748.8256,N,12217.5967,W,1.34,130.57,191112,,,D*7B
$GPRMC,193709.000,A,3748.8252,N,12217.5964,W,1.80,127.10,191112,,,D*77
$GPRMC,193710.000,A,3748.8237,N,12217.5942,W,2.92,129.22,191112,,,D*77
$GPRMC,193711.000,A,3748.8229,N,12217.5926,W,2.51,127.52,191112,,,D*7D
$GPRMC,193712.000,A,3748.8225,N,12217.5911,W,2.30,115.19,191112,,,D*7F
$GPRMC,193713.000,A,3748.8219,N,12217.5896,W,2.17,122.22,191112,,,D*76
$GPRMC,193714.000,A,3748.8216,N,12217.5891,W,2.23,114.32,191112,,,D*7A
$GPRMC,193715.000,A,3748.8209,N,12217.5883,W,1.62,115.95,191112,,,D*7C
$GPRMC,193716.000,A,3748.8203,N,12217.5869,W,1.99,107.07,191112,,,D*7D
$GPRMC,193717.000,A,3748.8205,N,12217.5859,W,1.42,94.27,191112,,,D*46
$GPRMC,193718.000,A,3748.8198,N,12217.5843,W,1.84,99.86,191112,,,D*49
$GPRMC,193719.000,A,3748.8188,N,12217.5825,W,2.06,110.46,191112,,,D*7C
$GPRMC,193720.000,A,3748.8186,N,12217.5818,W,1.71,107.87,191112,,,D*7E
$GPRMC,193721.000,A,3748.8178,N,12217.5804,W,2.39,122.27,191112,,,D*71
$GPRMC,193722.000,A,3748.8171,N,12217.5792,W,2.00,117.97,191112,,,D*7C
$GPRMC,193723.000,A,3748.8169,N,12217.5785,W,2.03,118.56,191112,,,D*73
$GPRMC,193724.000,A,3748.8164,N,12217.5776,W,1.77,108.08,191112,,,D*7F
$GPRMC,193725.000,A,3748.8168,N,12217.5776,W,1.05,65.32,191112,,,D*44
$GPRMC,193726.000,A,3748.8166,N,12217.5769,W,1.22,85.48,191112,,,D*41
$GPRMC,193727.000,A,3748.8155,N,12217.5756,W,1.97,120.98,191112,,,D*71
$GPRMC,193728.000,A,3748.8151,N,12217.5748,W,1.44,106.59,191112,,,D*72
$GPRMC,193729.000,A,3748.8145,N,12217.5738,W,1.13,95.96,191112,,,D*4B
$GPRMC,193730.000,A,3748.8142,N,12217.5731,W,1.60,113.06,191112,,,A*7A
$GPRMC,193731.000,A,3748.8135,N,12217.5720,W,2.28,116.38,191112,,,A*7C
$GPRMC,193732.000,A,3748.8132,N,12217.5710,W,2.02,111.67,191112,,,A*7E
$GPRMC,193733.000,A,3748.8129,N,12217.5702,W,1.53,120.64,191112,,,A*70
$GPRMC,193734.000,A,3748.8123,N,12217.5693,W,1.15,99.53,191112,,,A*41
$GPRMC,193735.000,A,3748.8123,N,12217.5688,W,0.90,94.54,191112,,,A*4C
$GPRMC,193736.000,A,3748.8122,N,12217.5684,W,0.52,101.99,191112,,,A*70
$GPRMC,193737.000,A,3748.8123,N,12217.5682,W,2.08,108.30,191112,,,A*71
$GPRMC,193738.000,A,3748.8127,N,12217.5677,W,1.92,123.70,191112,,,A*7D
$GPRMC,193739.000,A,3748.8127,N,12217.5666,W,2.14,124.77,191112,,,A*71
$GPRMC,193740.000,A,3748.8117,N,12217.5658,W,1.96,133.73,191112,,,A*7A
$GPRMC,193741.000,A,3748.8110,N,12217.5650,W,1.54,142.73,191112,,,A*7C
$GPRMC,193742.000,A,3748.8103,N,12217.5642,W,1.03,140.76,191112,,,A*7B
$GPRMC,193743.000,A,3748.8096,N,12217.5632,W,0.74,137.42,191112,,,A*76
$GPRMC,193744.000,A,3748.8090,N,12217.5630,W,0.21,255.62,191112,,,A*70
$GPRMC,193745.000,A,3748.8091,N,12217.5624,W,0.52,133.06,191112,,,A*70
$GPRMC,193746.000,A,3748.8099,N,12217.5622,W,0.78,45.04,191112,,,A*47
$GPRMC,193747.000,A,3748.8105,N,12217.5616,W,1.24,82.40,191112,,,A*46
$GPRMC,193748.000,A,3748.8102,N,12217.5607,W,1.23,109.27,191112,,,A*7A
$GPRMC,193749.000,A,3748.8093,N,12217.5595,W,1.18,128.40,191112,,,A*70
$GPRMC,193750.000,A,3748.8071,N,12217.5579,W,2.82,147.65,191112,,,A*78
$GPRMC,193751.000,A,3748.8053,N,12217.5564,W,2.67,151.32,191112,,,A*7B
$GPRMC,193752.000,A,3748.8046,N,12217.5556,W,2.33,145.87,191112,,,A*77
$GPRMC,193753.000,A,3748.8038,N,12217.5540,W,1.95,156.86,191112,,,A*74
$GPRMC,193754.000,A,3748.8032,N,12217.5545,W,1.76,180.44,191112,,,A*74
$GPRMC,193755.000,A,3748.8028,N,12217.5548,W,1.81,199.56,191112,,,A*70
$GPRMC,193756.000,A,3748.8019,N,12217.5545,W,1.18,183.57,191112,,,A*76
$GPRMC,193757.000,A,3748.8005,N,12217.5539,W,1.20,159.43,191112,,,A*78
$GPRMC,193758.000,A,3748.8002,N,12217.5536,W,1.75,190.21,191112,,,A*7E
$GPRMC,193759.000,A,3748.7992,N,12217.5535,W,1.92,184.34,191112,,,A*7B
$GPRMC,193800.000,A,3748.7979,N,12217.5536,W,2.51,195.44,191112,,,A*75
$GPRMC,193801.000,A,3748.7967,N,12217.5543,W,3.05,186.87,191112,,,A*74
$GPRMC,193802.000,A,3748.7957,N,12217.5548,W,2.47,174.08,191112,,,A*72
$GPRMC,193803.000,A,3748.7944,N,12217.5550,W,2.97,181.07,191112,,,A*70
$GPRMC,193804.000,A,3748.7933,N,12217.5549,W,2.88,180.60,191112,,,A*71
$GPRMC,193805.000,A,3748.7925,N,12217.5545,W,2.38,175.11,191112,,,A*7C
$GPRMC,193806.000,A,3748.7920,N,12217.5547,W,2.00,174.93,191112,,,A*78
$GPRMC,193807.000,A,3748.7913,N,12217.5542,W,1.88,177.72,191112,,,A*73
$GPRMC,193808.000,A,3748.7911,N,12217.5545,W,1.90,188.69,191112,,,A*7A
$GPRMC,193809.000,A,3748.7911,N,12217.5550,W,1.83,185.05,191112,,,A*7A
$GPRMC,193810.000,A,3748.7907,N,12217.5555,W,2.15,192.08,191112,,,A*77
$GPRMC,193811.000,A,3748.7901,N,12217.5559,W,2.13,189.95,191112,,,A*74
$GPRMC,193812.000,A,3748.7894,N,12217.5561,W,2.36,190.25,191112,,,A*75
$GPRMC,193813.000,A,3748.7886,N,12217.5566,W,2.54,212.98,191112,,,A*7B
$GPRMC,193814.000,A,3748.7879,N,12217.5572,W,2.47,201.17,191112,,,A*7E
$GPRMC,193815.000,A,3748.7872,N,12217.5576,W,1.82,193.99,191112,,,A*74
$GPRMC,193816.000,A,3748.7862,N,12217.5581,W,2.59,179.26,191112,,,A*7B
$GPRMC,193817.000,A,3748.7851,N,12217.5585,W,3.11,175.21,191112,,,A*78
$GPRMC,193818.000,A,3748.7844,N,12217.5591,W,2.43,198.62,191112,,,A*74
$GPRMC,193819.000,A,3748.7832,N,12217.5595,W,2.76,177.84,191112,,,A*7F
$GPRMC,193820.000,A,3748.7824,N,12217.5603,W,2.67,188.46,191112,,,A*70
$GPRMC,193821.000,A,3748.7818,N,12217.5613,W,2.38,219.87,191112,,,A*73
$GPRMC,193822.000,A,3748.7811,N,12217.5624,W,2.30,217.77,191112,,,A*74
$GPRMC,193823.000,A,3748.7800,N,12217.5630,W,2.39,203.85,191112,,,A*71
$GPRMC,193824.000,A,3748.7793,N,12217.5635,W,2.62,203.65,191112,,,A*76
$GPRMC,193825.000,A,3748.7782,N,12217.5638,W,1.86,210.66,191112,,,A*72
$GPRMC,193826.000,A,3748.7774,N,12217.5639,W,1.96,215.26,191112,,,A*79
$GPRMC,193827.000,A,3748.7767,N,12217.5641,W,2.21,232.28,191112,,,A*71
$GPRMC,193828.000,A,3748.7759,N,12217.5639,W,2.03,233.36,191112,,,A*72
$GPRMC,193829.000,A,3748.7753,N,12217.5641,W,1.54,197.63,191112,,,A*7A
$GPRMC,193830.000,A,3748.7745,N,12217.5637,W,1.96,183.70,191112,,,A*7D
$GPRMC,193831.000,A,3748.7730,N,12217.5634,W,3.14,194.29,191112,,,A*7F
$GPRMC,193832.000,A,3748.7716,N,12217.5630,W,3.24,176.61,191112,,,A*7F
$GPRMC,193833.000,A,3748.7704,N,12217.5631,W,3.18,167.88,191112,,,A*74
$GPRMC,193834.000,A,3748.7697,N,12217.5639,W,2.56,178.85,191112,,,A*78
$GPRMC,193835.000,A,3748.7691,N,12217.5644,W,2.17,177.38,191112,,,A*79
$GPRMC,193836.000,A,3748.7684,N,12217.5648,W,2.59,206.15,191112,,,A*72
$GPRMC,193837.000,A,3748.7678,N,12217.5657,W,2.92,209.94,191112,,,A*7F
$GPRMC,193838.000,A,3748.7676,N,12217.5671,W,2.69,217.09,191112,,,A*75
$GPRMC,193839.000,A,3748.7675,N,12217.5682,W,2.67,214.39,191112,,,A*75
$GPRMC,193840.000,A,3748.7672,N,12217.5696,W,2.55,224.94,191112,,,A*7C
$GPRMC,193841.000,A,3748.7668,N,12217.5709,W,2.50,204.98,191112,,,A*7A
$GPRMC,193842.000,A,3748.7661,N,12217.5720,W,2.74,195.68,191112,,,A*79
$GPRMC,193843.000,A,3748.7655,N,12217.5729,W,2.56,188.78,191112,,,A*7B
$GPRMC,193844.000,A,3748.7647,N,12217.5738,W,2.10,185.96,191112,,,A*70
$GPRMC,193845.000,A,3748.7637,N,12217.5748,W,2.43,189.26,191112,,,A*70
$GPRMC,193846.000,A,3748.7631,N,12217.5757,W,2.31,192.62,191112,,,A*74
$GPRMC,193847.000,A,3748.7626,N,12217.5765,W,2.02,195.61,191112,,,A*76
$GPRMC,193848.000,A,3748.7627,N,12217.5772,W,1.47,197.32,191112,,,A*78
$GPRMC,193849.000,A,3748.7623,N,12217.5779,W,1.21,204.06,191112,,,A*78
$GPRMC,193850.000,A,3748.7621,N,12217.5785,W,1.20,202.69,191112,,,A*7F
$GPRMC,193851.000,A,3748.7614,N,12217.5793,W,1.69,204.50,191112,,,A*7E
$GPRMC,193852.000,A,3748.7609,N,12217.5799,W,1.59,199.35,191112,,,A*7C
$GPRMC,193853.000,A,3748.7605,N,12217.5805,W,2.04,197.77,191112,,,A*78
$GPRMC,193854.000,A,3748.7599,N,12217.5811,W,1.87,210.26,191112,,,A*7C
$GPRMC,193855.000,A,3748.7593,N,12217.5820,W,1.79,209.97,191112,,,A*76
$GPRMC,193856.000,A,3748.7586,N,12217.5826,W,1.57,197.90,191112,,,A*78
$GPRMC,193857.000,A,3748.7582,N,12217.5831,W,1.09,212.52,191112,,,A*70
$GPRMC,193858.000,A,3748.7575,N,12217.5838,W,1.52,212.49,191112,,,A*7A
$GPRMC,193859.000,A,3748.7568,N,12217.5845,W,1.73,190.16,191112,,,A*7D
$GPRMC,193900.000,A,3748.7559,N,12217.5853,W,2.49,184.12,191112,,,A*7E
$GPRMC,193901.000,A,3748.7549,N,12217.5855,W,2.15,179.61,191112,,,A*77
$GPRMC,193902.000,A,3748.7541,N,12217.5862,W,2.18,197.35,191112,,,A*74
$GPRMC,193903.000,A,3748.7534,N,12217.5863,W,2.09,191.83,191112,,,A*7D
$GPRMC,193904.000,A,3748.7527,N,12217.5867,W,2.08,188.65,191112,,,A*7D
$GPRMC,193905.000,A,3748.7517,N,12217.5864,W,2.49,190.63,191112,,,A*76
$GPRMC,193906.000,A,3748.7510,N,12217.5858,W,2.00,190.01,191112,,,A*74
$GPRMC,193907.000,A,3748.7503,N,12217.5861,W,1.75,179.05,191112,,,A*7F
$GPRMC,193908.000,A,3748.7495,N,12217.5863,W,2.36,156.42,191112,,,A*76
$GPRMC,193909.000,A,3748.7486,N,12217.5870,W,2.57,197.00,191112,,,A*7B
$GPRMC,193910.000,A,3748.7477,N,12217.5879,W,2.52,194.58,191112,,,A*7F
$GPRMC,193911.000,A,3748.7469,N,12217.5889,W,2.40,200.22,191112,,,A*7E
$GPRMC,193912.000,A,3748.7464,N,12217.5897,W,2.15,205.69,191112,,,A*75
$GPRMC,193913.000,A,3748.7459,N,12217.5904,W,2.91,212.08,191112,,,A*7C
$GPRMC,193914.000,A,3748.7452,N,12217.5912,W,3.01,210.47,191112,,,A*76
$GPRMC,193915.000,A,3748.7443,N,12217.5920,W,2.29,199.68,191112,,,A*72
$GPRMC,193916.000,A,3748.7435,N,12217.5921,W,2.01,194.22,191112,,,A*78
$GPRMC,193917.000,A,3748.7426,N,12217.5924,W,1.89,202.55,191112,,,A*71
$GPRMC,193918.000,A,3748.7419,N,12217.5931,W,1.64,197.59,191112,,,A*76
$GPRMC,193919.000,A,3748.7416,N,12217.5937,W,1.49,208.08,191112,,,A*70
$GPRMC,193920.000,A,3748.7409,N,12217.5943,W,2.00,214.51,191112,,,D*7D
$GPRMC,193921.000,A,3748.7401,N,12217.5953,W,2.31,202.51,191112,,,D*70
$GPRMC,193922.000,A,3748.7394,N,12217.5960,W,2.43,190.08,191112,,,D*79
$GPRMC,193923.000,A,3748.7386,N,12217.5967,W,2.45,191.88,191112,,,D*73
$GPRMC,193924.000,A,3748.7377,N,12217.5974,W,2.83,192.58,191112,,,D*7C
$GPRMC,193925.000,A,3748.7368,N,12217.5985,W,2.38,198.71,191112,,,D*7C
$GPRMC,193926.000,A,3748.7361,N,12217.5996,W,2.01,210.04,191112,,,D*7F
$GPRMC,193927.000,A,3748.7354,N,12217.6006,W,2.59,209.18,191112,,,D*73
$GPRMC,193928.000,A,3748.7346,N,12217.6015,W,2.55,205.59,191112,,,D*78
$GPRMC,193929.000,A,3748.7338,N,12217.6024,W,2.50,203.59,191112,,,D*71
$GPRMC,193930.000,A,3748.7329,N,12217.6034,W,2.31,204.06,191112,,,D*72
$GPRMC,193931.000,A,3748.7321,N,12217.6044,W,2.67,203.49,191112,,,D*73
$GPRMC,193932.000,A,3748.7314,N,12217.6050,W,2.38,194.12,191112,,,D*7A
$GPRMC,193933.000,A,3748.7306,N,12217.6059,W,2.19,188.99,191112,,,D*7C
$GPRMC,193934.000,A,3748.7301,N,12217.6066,W,1.95,199.22,191112,,,D*77
$GPRMC,193935.000,A,3748.7296,N,12217.6071,W,1.85,195.60,191112,,,D*74
$GPRMC,193936.000,A,3748.7290,N,12217.6077,W,1.57,195.37,191112,,,A*7F
$GPRMC,193937.000,A,3748.7287,N,12217.6079,W,1.45,191.23,191112,,,A*74
$GPRMC,193938.000,A,3748.7283,N,12217.6084,W,1.14,177.84,191112,,,A*7C
$GPRMC,193939.000,A,3748.7277,N,12217.6088,W,2.09,188.76,191112,,,A*78
$GPRMC,193940.000,A,3748.7270,N,12217.6093,W,1.93,192.48,191112,,,A*7D
$GPRMC,193941.000,A,3748.7263,N,12217.6098,W,2.19,200.26,191112,,,A*74
$GPRMC,193942.000,A,3748.7253,N,12217.6105,W,2.97,195.16,191112,,,A*7B
$GPRMC,193943.000,A,3748.7244,N,12217.6110,W,2.64,194.49,191112,,,A*7F
$GPRMC,193944.000,A,3748.7230,N,12217.6114,W,2.75,187.14,191112,,,A*75
$GPRMC,193945.000,A,3748.7222,N,12217.6118,W,2.08,187.40,191112,,,A*70
$GPRMC,193946.000,A,3748.7214,N,12217.6122,W,1.77,188.79,191112,,,A*71
$GPRMC,193947.000,A,3748.7207,N,12217.6126,W,2.55,180.52,191112,,,A*74
$GPRMC,193948.000,A,3748.7198,N,12217.6129,W,2.27,164.92,191112,,,A*72
$GPRMC,193949.000,A,3748.7190,N,12217.6133,W,1.86,169.24,191112,,,A*78
$GPRMC,193950.000,A,3748.7186,N,12217.6135,W,1.65,167.61,191112,,,A*73
$GPRMC,193951.000,A,3748.7178,N,12217.6137,W,1.96,160.62,191112,,,A*79
$GPRMC,193952.000,A,3748.7171,N,12217.6142,W,1.63,173.23,191112,,,A*7C
$GPRMC,193953.000,A,3748.7164,N,12217.6148,W,1.67,178.82,191112,,,A*77
$GPRMC,193954.000,A,3748.7160,N,12217.6153,W,1.38,186.35,191112,,,A*79
$GPRMC,193955.000,A,3748.7157,N,12217.6157,W,1.31,189.81,191112,,,A*71
$GPRMC,193956.000,A,3748.7154,N,12217.6161,W,1.69,199.27,191112,,,A*74
$GPRMC,193957.000,A,3748.7148,N,12217.6166,W,1.73,191.71,191112,,,A*7F
$GPRMC,193958.000,A,3748.7142,N,12217.6174,W,1.62,200.77,191112,,,A*74
$GPRMC,193959.000,A,3748.7136,N,12217.6177,W,1.89,185.71,191112,,,A*78
$GPRMC,194000.000,A,3748.7132,N,12217.6182,W,0.83,189.54,191112,,,A*74
$GPRMC,194001.000,A,3748.7129,N,12217.6183,W,1.34,166.76,191112,,,A*72
$GPRMC,194002.000,A,3748.7125,N,12217.6186,W,1.50,190.07,191112,,,A*75
$GPRMC,194003.000,A,3748.7115,N,12217.6193,W,1.98,185.63,191112,,,A*71
$GPRMC,194004.000,A,3748.7111,N,12217.6196,W,2.05,175.74,191112,,,A*79
$GPRMC,194005.000,A,3748.7106,N,12217.6202,W,1.81,182.44,191112,,,A*74
$GPRMC,194006.000,A,3748.7094,N,12217.6206,W,2.34,188.44,191112,,,A*7E
$GPRMC,194007.000,A,3748.7083,N,12217.6208,W,1.80,193.69,191112,,,D*7B
$GPRMC,194008.000,A,3748.7075,N,12217.6213,W,1.35,200.15,191112,,,D*7B
$GPRMC,194009.000,A,3748.7066,N,12217.6218,W,1.58,202.86,191112,,,D*70
$GPRMC,194010.000,A,3748.7057,N,12217.6221,W,1.91,183.31,191112,,,D*73
$GPRMC,194011.000,A,3748.7050,N,12217.6225,W,1.45,172.24,191112,,,D*72
$GPRMC,194012.000,A,3748.7042,N,12217.6227,W,1.75,180.16,191112,,,D*7F
$GPRMC,194013.000,A,3748.7034,N,12217.6231,W,1.95,191.22,191112,,,D*71
$GPRMC,194014.000,A,3748.7028,N,12217.6235,W,1.57,198.24,191112,,,D*7E
$GPRMC,194015.000,A,3748.7022,N,12217.6241,W,1.74,200.03,191112,,,D*70
$GPRMC,194016.000,A,3748.7012,N,12217.6251,W,1.92,204.55,191112,,,D*7E
$GPRMC,194017.000,A,3748.7004,N,12217.6255,W,1.77,198.08,191112,,,D*79
$GPRMC,194018.000,A,3748.6996,N,12217.6255,W,1.96,174.48,191112,,,D*7C
$GPRMC,194019.000,A,3748.6988,N,12217.6264,W,1.50,187.13,191112,,,D*78
$GPRMC,194020.000,A,3748.6985,N,12217.6274,W,1.54,205.34,191112,,,D*76
$GPRMC,194021.000,A,3748.6979,N,12217.6282,W,1.92,191.57,191112,,,D*7C
$GPRMC,194022.000,A,3748.6974,N,12217.6290,W,1.48,201.70,191112,,,D*79
$GPRMC,194023.000,A,3748.6969,N,12217.6297,W,1.70,207.94,191112,,,D*74
$GPRMC,194024.000,A,3748.6960,N,12217.6305,W,1.85,209.67,191112,,,D*78
$GPRMC,194025.000,A,3748.6952,N,12217.6313,W,2.19,192.29,191112,,,D*72
$GPRMC,194026.000,A,3748.6946,N,12217.6314,W,2.05,179.26,191112,,,D*74
$GPRMC,194027.000,A,3748.6940,N,12217.6318,W,1.94,183.38,191112,,,D*7E
$GPRMC,194028.000,A,3748.6932,N,12217.6325,W,1.82,183.13,191112,,,D*74
$GPRMC,194029.000,A,3748.6925,N,12217.6329,W,2.10,183.52,191112,,,D*72
$GPRMC,194030.000,A,3748.6919,N,12217.6335,W,1.93,192.36,191112,,,D*72
$GPRMC,194031.000,A,3748.6913,N,12217.6340,W,2.09,198.87,191112,,,D*7B
$GPRMC,194032.000,A,3748.6908,N,12217.6346,W,1.85,195.35,191112,,,D*77
$GPRMC,194033.000,A,3748.6902,N,12217.6352,W,1.76,201.55,191112,,,D*7D
$GPRMC,194034.000,A,3748.6897,N,12217.6358,W,2.15,194.70,191112,,,D*73
$GPRMC,194035.000,A,3748.6891,N,12217.6364,W,2.39,190.78,191112,,,D*79
$GPRMC,194036.000,A,3748.6885,N,12217.6368,W,2.77,184.90,191112,,,D*7A
$GPRMC,194037.000,A,3748.6879,N,12217.6374,W,2.21,184.04,191112,,,D*7B
$GPRMC,194038.000,A,3748.6872,N,12217.6379,W,1.88,197.16,191112,,,D*73
$GPRMC,194039.000,A,3748.6862,N,12217.6387,W,2.07,207.55,191112,,,D*7B
$GPRMC,194040.000,A,3748.6853,N,12217.6394,W,1.90,201.39,191112,,,D*74
$GPRMC,194041.000,A,3748.6853,N,12217.6399,W,1.39,182.36,191112,,,D*7C
$GPRMC,194042.000,A,3748.6850,N,12217.6402,W,1.28,181.49,191112,,,D*72
$GPRMC,194043.000,A,3748.6846,N,12217.6407,W,2.25,196.21,191112,,,D*77
$GPRMC,194044.000,A,3748.6839,N,12217.6413,W,2.38,198.25,191112,,,D*7B
$GPRMC,194045.000,A,3748.6827,N,12217.6420,W,2.95,200.36,191112,,,D*72
$GPRMC,194046.000,A,3748.6816,N,12217.6425,W,2.61,189.65,191112,,,D*79
$GPRMC,194047.000,A,3748.6802,N,12217.6434,W,2.63,181.93,191112,,,D*7E
$GPRMC,194048.000,A,3748.6791,N,12217.6441,W,2.12,176.82,191112,,,D*78
$GPRMC,194049.000,A,3748.6780,N,12217.6450,W,1.44,181.47,191112,,,D*78
$GPRMC,194050.000,A,3748.6772,N,12217.6461,W,1.13,201.99,191112,,,D*75
$GPRMC,194051.000,A,3748.6767,N,12217.6467,W,1.26,204.40,191112,,,D*71
$GPRMC,194052.000,A,3748.6761,N,12217.6473,W,1.52,183.15,191112,,,D*7E
$GPRMC,194053.000,A,3748.6755,N,12217.6474,W,1.91,173.67,191112,,,D*7A
$GPRMC,194054.000,A,3748.6746,N,12217.6475,W,2.41,165.62,191112,,,D*72
$GPRMC,194055.000,A,3748.6737,N,12217.6482,W,2.29,160.51,191112,,,D*76
$GPRMC,194056.000,A,3748.6729,N,12217.6481,W,2.13,170.22,191112,,,D*75
$GPRMC,194057.000,A,3748.6720,N,12217.6481,W,2.01,178.61,191112,,,D*71
$GPRMC,194058.000,A,3748.6714,N,12217.6488,W,2.31,204.51,191112,,,D*78
$GPRMC,194059.000,A,3748.6707,N,12217.6494,W,2.53,218.24,191112,,,D*7D
$GPRMC,194100.000,A,3748.6697,N,12217.6500,W,2.61,215.47,191112,,,D*7D
$GPRMC,194101.000,A,3748.6687,N,12217.6498,W,2.45,201.65,191112,,,D*7E
$GPRMC,194102.000,A,3748.6678,N,12217.6500,W,2.22,193.82,191112,,,D*7D
$GPRMC,194103.000,A,3748.6671,N,12217.6502,W,1.79,178.81,191112,,,D*7C
$GPRMC,194104.000,A,3748.6662,N,12217.6502,W,1.94,189.93,191112,,,D*77
$GPRMC,194105.000,A,3748.6653,N,12217.6508,W,2.01,192.53,191112,,,D*77
$GPRMC,194106.000,A,3748.6648,N,12217.6520,W,1.90,200.32,191112,,,D*70
$GPRMC,194107.000,A,3748.6642,N,12217.6520,W,2.28,184.69,191112,,,D*7A
$GPRMC,194108.000,A,3748.6634,N,12217.6524,W,2.78,178.88,191112,,,D*79
$GPRMC,194109.000,A,3748.6625,N,12217.6531,W,2.32,174.95,191112,,,D*72
$GPRMC,194108.000,A,3748.6619,N,12217.6542,W,1.63,187.33,191112,,,D*7F
$GPRMC,194109.000,A,3748.6615,N,12217.6549,W,1.25,197.83,191112,,,D*71
$GPRMC,194110.000,A,3748.6613,N,12217.6556,W,1.05,209.41,191112,,,D*79
$GPRMC,194111.000,A,3748.6611,N,12217.6564,W,1.21,207.12,191112,,,D*75
$GPRMC,194112.000,A,3748.6606,N,12217.6571,W,2.03,199.79,191112,,,D*7E
$GPRMC,194113.000,A,3748.6600,N,12217.6580,W,2.32,200.05,191112,,,D*7D
$GPRMC,194114.000,A,3748.6593,N,12217.6586,W,2.01,200.33,191112,,,D*70
$GPRMC,194115.000,A,3748.6586,N,12217.6593,W,2.17,190.13,191112,,,D*7E
$GPRMC,194116.000,A,3748.6581,N,12217.6599,W,1.87,181.55,191112,,,D*78
$GPRMC,194117.000,A,3748.6575,N,12217.6604,W,1.59,189.95,191112,,,D*72
$GPRMC,194118.000,A,3748.6570,N,12217.6609,W,1.38,197.03,191112,,,D*72
$GPRMC,194119.000,A,3748.6568,N,12217.6614,W,1.54,189.43,191112,,,D*77
$GPRMC,194120.000,A,3748.6561,N,12217.6620,W,2.23,202.14,191112,,,D*72
$GPRMC,194121.000,A,3748.6556,N,12217.6628,W,2.00,206.68,191112,,,D*71
$GPRMC,194122.000,A,3748.6552,N,12217.6639,W,2.09,214.90,191112,,,D*7B
$GPRMC,194123.000,A,3748.6547,N,12217.6648,W,2.20,209.72,191112,,,D*73
$GPRMC,194124.000,A,3748.6541,N,12217.6657,W,2.65,206.83,191112,,,D*7C
$GPRMC,194125.000,A,3748.6533,N,12217.6668,W,1.91,191.55,191112,,,D*7A
$GPRMC,194126.000,A,3748.6528,N,12217.6673,W,1.79,184.83,191112,,,D*70
$GPRMC,194127.000,A,3748.6520,N,12217.6681,W,2.29,196.23,191112,,,D*7B
$GPRMC,194128.000,A,3748.6515,N,12217.6688,W,2.27,193.17,191112,,,A*72
$GPRMC,194129.000,A,3748.6511,N,12217.6689,W,2.05,192.87,191112,,,D*7B
$GPRMC,194130.000,A,3748.6504,N,12217.6694,W,2.33,193.86,191112,,,D*7E
$GPRMC,194131.000,A,3748.6499,N,12217.6697,W,1.98,190.08,191112,,,D*7E
$GPRMC,194132.000,A,3748.6491,N,12217.6699,W,2.21,179.11,191112,,,D*75
$GPRMC,194133.000,A,3748.6482,N,12217.6702,W,3.11,183.78,191112,,,D*7D
$GPRMC,194134.000,A,3748.6471,N,12217.6709,W,2.89,184.81,191112,,,D*7C
$GPRMC,194135.000,A,3748.6465,N,12217.6714,W,2.31,193.40,191112,,,D*7C
$GPRMC,194136.000,A,3748.6459,N,12217.6719,W,1.84,192.41,191112,,,D*70
$GPRMC,194137.000,A,3748.6456,N,12217.6723,W,1.79,194.42,191112,,,D*70
$GPRMC,194138.000,A,3748.6453,N,12217.6726,W,2.23,193.87,191112,,,D*7D
$GPRMC,194139.000,A,3748.6450,N,12217.6730,W,2.00,180.38,191112,,,D*7F
$GPRMC,194140.000,A,3748.6446,N,12217.6733,W,1.89,186.23,191112,,,D*7B
$GPRMC,194141.000,A,3748.6437,N,12217.6738,W,1.62,194.94,191112,,,D*7D
$GPRMC,194142.000,A,3748.6432,N,12217.6743,W,1.36,165.99,191112,,,D*75
$GPRMC,194143.000,A,3748.6422,N,12217.6750,W,0.99,174.13,191112,,,D*71
$GPRMC,194144.000,A,3748.6413,N,12217.6755,W,0.63,153.71,191112,,,D*75
$GPRMC,194145.000,A,3748.6409,N,12217.6754,W,0.35,214.29,191112,,,D*70
$GPRMC,194146.000,A,3748.6400,N,12217.6760,W,1.08,203.76,191112,,,D*7E
$GPRMC,194147.000,A,3748.6388,N,12217.6759,W,2.46,168.01,191112,,,D*75
$GPRMC,194148.000,A,3748.6383,N,12217.6762,W,2.03,185.15,191112,,,D*7E
$GPRMC,194149.000,A,3748.6370,N,12217.6763,W,2.91,175.07,191112,,,D*75
$GPRMC,194150.000,A,3748.6354,N,12217.6763,W,2.93,177.81,191112,,,D*75
$GPRMC,194151.000,A,3748.6346,N,12217.6764,W,1.74,193.25,191112,,,D*7E
$GPRMC,194152.000,A,3748.6342,N,12217.6768,W,1.59,210.66,191112,,,D*75
$GPRMC,194153.000,A,3748.6332,N,12217.6777,W,1.85,204.22,191112,,,A*7C
$GPRMC,194154.000,A,3748.6323,N,12217.6783,W,2.00,195.90,191112,,,A*7C
$GPRMC,194155.000,A,3748.6320,N,12217.6794,W,1.57,191.98,191112,,,A*75
$GPRMC,194156.000,A,3748.6318,N,12217.6799,W,1.35,190.79,191112,,,A*7A
$GPRMC,194157.000,A,3748.6315,N,12217.6805,W,1.91,200.18,191112,,,A*7F
$GPRMC,194158.000,A,3748.6309,N,12217.6812,W,1.94,198.44,191112,,,A*75
$GPRMC,194159.000,A,3748.6302,N,12217.6820,W,1.45,187.05,191112,,,A*79
$GPRMC,194200.000,A,3748.6299,N,12217.6825,W,1.45,186.72,191112,,,A*71
$GPRMC,194201.000,A,3748.6293,N,12217.6835,W,1.64,201.70,191112,,,A*76
$GPRMC,194202.000,A,3748.6287,N,12217.6843,W,1.94,204.78,191112,,,A*73
$GPRMC,194203.000,A,3748.6285,N,12217.6850,W,1.58,212.18,191112,,,A*73
$GPRMC,194204.000,A,3748.6281,N,12217.6858,W,1.57,223.59,191112,,,A*70
$GPRMC,194205.000,A,3748.6277,N,12217.6866,W,1.42,212.46,191112,,,A*7D
$GPRMC,194206.000,A,3748.6272,N,12217.6875,W,1.68,200.82,191112,,,A*7A
$GPRMC,194207.000,A,3748.6263,N,12217.6881,W,2.02,190.56,191112,,,A*7C
$GPRMC,194208.000,A,3748.6253,N,12217.6884,W,2.29,191.03,191112,,,A*7D
$GPRMC,194209.000,A,3748.6245,N,12217.6890,W,1.81,196.95,191112,,,A*77
$GPRMC,194210.000,A,3748.6237,N,12217.6897,W,1.69,202.31,191112,,,A*7B
$GPRMC,194211.000,A,3748.6230,N,12217.6902,W,1.78,191.98,191112,,,A*7A
$GPRMC,194212.000,A,3748.6223,N,12217.6906,W,1.72,190.68,191112,,,A*7B
$GPRMC,194213.000,A,3748.6216,N,12217.6906,W,1.80,185.32,191112,,,A*7A
$GPRMC,194214.000,A,3748.6208,N,12217.6911,W,2.14,186.66,191112,,,A*78
$GPRMC,194215.000,A,3748.6199,N,12217.6914,W,2.24,194.72,191112,,,A*72
$GPRMC,194216.000,A,3748.6192,N,12217.6924,W,1.81,196.41,191112,,,A*77
$GPRMC,194217.000,A,3748.6186,N,12217.6929,W,1.89,194.37,191112,,,D*70
$GPRMC,194218.000,A,3748.6181,N,12217.6934,W,1.72,196.11,191112,,,D*76
$GPRMC,194219.000,A,3748.6174,N,12217.6939,W,1.65,193.43,191112,,,D*74
$GPRMC,194220.000,A,3748.6169,N,12217.6944,W,1.55,202.70,191112,,,D*70
$GPRMC,194221.000,A,3748.6162,N,12217.6953,W,1.56,216.72,191112,,,D*78
$GPRMC,194222.000,A,3748.6154,N,12217.6960,W,1.64,206.69,191112,,,D*74
$GPRMC,194223.000,A,3748.6144,N,12217.6967,W,1.90,216.46,191112,,,D*74
$GPRMC,194224.000,A,3748.6135,N,12217.6975,W,2.11,205.69,191112,,,D*73
$GPRMC,194225.000,A,3748.6126,N,12217.6983,W,2.32,203.39,191112,,,D*7B
$GPRMC,194226.000,A,3748.6118,N,12217.6988,W,2.13,214.79,191112,,,D*7F
$GPRMC,194227.000,A,3748.6111,N,12217.6997,W,2.12,213.48,191112,,,D*7D
$GPRMC,194228.000,A,3748.6105,N,12217.7001,W,1.83,195.41,191112,,,D*7F
$GPRMC,194229.000,A,3748.6097,N,12217.7005,W,2.09,200.13,191112,,,D*79
$GPRMC,194230.000,A,3748.6090,N,12217.7010,W,2.43,181.39,191112,,,D*7E
$GPRMC,194231.000,A,3748.6084,N,12217.7011,W,2.64,159.60,191112,,,D*77
$GPRMC,194232.000,A,3748.6078,N,12217.7009,W,2.97,134.19,191112,,,D*77
$GPRMC,194233.000,A,3748.6072,N,12217.7002,W,2.85,119.42,191112,,,D*75
$GPRMC,194234.000,A,3748.6067,N,12217.6994,W,2.99,119.36,191112,,,A*7A
$GPRMC,194235.000,A,3748.6064,N,12217.6985,W,3.00,109.84,191112,,,D*74
$GPRMC,194236.000,A,3748.6060,N,12217.6976,W,2.91,101.50,191112,,,D*77
$GPRMC,194237.000,A,3748.6057,N,12217.6966,W,2.68,103.13,191112,,,D*70
$GPRMC,194238.000,A,3748.6055,N,12217.6959,W,2.62,95.99,191112,,,D*47
$GPRMC,194239.000,A,3748.6052,N,12217.6950,W,2.78,98.30,191112,,,D*4D
$GPRMC,194240.000,A,3748.6050,N,12217.6941,W,2.71,97.01,191112,,,D*45
$GPRMC,194241.000,A,3748.6046,N,12217.6932,W,2.58,100.24,191112,,,D*74
$GPRMC,194242.000,A,3748.6043,N,12217.6923,W,2.64,100.85,191112,,,D*76
$GPRMC,194243.000,A,3748.6039,N,12217.6913,W,2.70,98.54,191112,,,D*40
$GPRMC,194244.000,A,3748.6035,N,12217.6902,W,2.92,98.63,191112,,,D*43
$GPRMC,194245.000,A,3748.6031,N,12217.6891,W,2.70,102.61,191112,,,D*71
$GPRMC,194246.000,A,3748.6029,N,12217.6884,W,2.45,105.45,191112,,,D*78
$GPRMC,194247.000,A,3748.6026,N,12217.6877,W,2.47,112.04,191112,,,D*7B
$GPRMC,194248.000,A,3748.6021,N,12217.6865,W,2.28,98.52,191112,,,D*49
$GPRMC,194249.000,A,3748.6018,N,12217.6856,W,2.06,100.15,191112,,,D*7D
$GPRMC,194250.000,A,3748.6017,N,12217.6849,W,1.83,97.19,191112,,,D*49
$GPRMC,194251.000,A,3748.6012,N,12217.6838,W,1.76,102.92,191112,,,D*7F
$GPRMC,194252.000,A,3748.6007,N,12217.6827,W,1.82,101.72,191112,,,D*70
$GPRMC,194253.000,A,3748.6006,N,12217.6821,W,1.67,78.48,191112,,,D*4B
$GPRMC,194254.000,A,3748.6006,N,12217.6817,W,1.68,70.18,191112,,,D*4B
$GPRMC,194255.000,A,3748.6003,N,12217.6807,W,1.77,69.57,191112,,,D*43
$GPRMC,194256.000,A,3748.6002,N,12217.6797,W,1.73,66.33,191112,,,D*4E
$GPRMC,194257.000,A,3748.5999,N,12217.6787,W,2.09,91.38,191112,,,D*4B
$GPRMC,194258.000,A,3748.5997,N,12217.6778,W,2.45,118.67,191112,,,D*78
$GPRMC,194259.000,A,3748.5993,N,12217.6766,W,2.19,110.43,191112,,,D*75
$GPRMC,194300.000,A,3748.5989,N,12217.6760,W,1.74,90.67,191112,,,D*42
$GPRMC,194301.000,A,3748.5988,N,12217.6750,W,1.49,70.12,191112,,,D*43
$GPRMC,194302.000,A,3748.5987,N,12217.6747,W,1.89,97.93,191112,,,D*45
$GPRMC,194303.000,A,3748.5983,N,12217.6736,W,2.20,109.86,191112,,,D*74
$GPRMC,194304.000,A,3748.5981,N,12217.6725,W,2.63,103.46,191112,,,D*72
$GPRMC,194305.000,A,3748.5981,N,12217.6717,W,2.35,103.73,191112,,,D*77
$GPRMC,194306.000,A,3748.5980,N,12217.6707,W,2.38,105.81,191112,,,D*72
$GPRMC,194307.000,A,3748.5980,N,12217.6697,W,2.16,99.75,191112,,,D*48
$GPRMC,194308.000,A,3748.5979,N,12217.6689,W,2.13,96.84,191112,,,D*4A
$GPRMC,194309.000,A,3748.5978,N,12217.6680,W,2.34,93.11,191112,,,D*4F
$GPRMC,194310.000,A,3748.5978,N,12217.6671,W,2.41,92.62,191112,,,D*4E
$GPRMC,194311.000,A,3748.5977,N,12217.6661,W,2.34,91.72,191112,,,D*41
$GPRMC,194312.000,A,3748.5975,N,12217.6652,W,2.10,91.94,191112,,,D*4E
$GPRMC,194313.000,A,3748.5976,N,12217.6644,W,2.11,91.57,191112,,,D*45
$GPRMC,194314.000,A,3748.5974,N,12217.6634,W,2.45,98.62,191112,,,D*49
$GPRMC,194315.000,A,3748.5975,N,12217.6625,W,2.48,88.57,191112,,,D*43
$GPRMC,194316.000,A,3748.5973,N,12217.6615,W,2.34,90.48,191112,,,D*49
$GPRMC,194317.000,A,3748.5974,N,12217.6608,W,1.60,91.63,191112,,,D*49
$GPRMC,194318.000,A,3748.5974,N,12217.6601,W,1.75,89.83,191112,,,D*4C
$GPRMC,194319.000,A,3748.5972,N,12217.6592,W,2.68,97.40,191112,,,D*4D
$GPRMC,194320.000,A,3748.5970,N,12217.6580,W,2.46,98.61,191112,,,D*46
$GPRMC,194321.000,A,3748.5969,N,12217.6571,W,2.01,75.10,191112,,,D*47
$GPRMC,194322.000,A,3748.5966,N,12217.6562,W,1.75,84.17,191112,,,D*40
$GPRMC,194323.000,A,3748.5966,N,12217.6553,W,1.71,85.87,191112,,,D*4F
$GPRMC,194324.000,A,3748.5964,N,12217.6546,W,1.20,54.98,191112,,,D*48
$GPRMC,194325.000,A,3748.5961,N,12217.6533,W,1.21,66.45,191112,,,D*4E
$GPRMC,194326.000,A,3748.5958,N,12217.6520,W,1.35,53.27,191112,,,D*42
$GPRMC,194327.000,A,3748.5955,N,12217.6507,W,1.73,81.20,191112,,,D*41
$GPRMC,194328.000,A,3748.5950,N,12217.6495,W,2.32,108.15,191112,,,D*71
$GPRMC,194329.000,A,3748.5944,N,12217.6484,W,2.32,110.23,191112,,,D*79
$GPRMC,194330.000,A,3748.5939,N,12217.6475,W,2.39,111.57,191112,,,D*7C
$GPRMC,194331.000,A,3748.5933,N,12217.6463,W,2.51,104.85,191112,,,D*75
$GPRMC,194332.000,A,3748.5931,N,12217.6457,W,1.72,103.49,191112,,,D*76
$GPRMC,194333.000,A,3748.5930,N,12217.6451,W,1.60,77.67,191112,,,D*4D
$GPRMC,194334.000,A,3748.5926,N,12217.6438,W,1.20,83.91,191112,,,D*44
$GPRMC,194335.000,A,3748.5924,N,12217.6430,W,1.01,55.88,191112,,,D*4F
$GPRMC,194336.000,A,3748.5925,N,12217.6427,W,1.02,76.00,191112,,,D*49
$GPRMC,194337.000,A,3748.5921,N,12217.6414,W,1.70,55.86,191112,,,D*46
$GPRMC,194338.000,A,3748.5919,N,12217.6405,W,1.78,59.38,191112,,,D*43
$GPRMC,194339.000,A,3748.5917,N,12217.6391,W,2.04,74.33,191112,,,D*4A
$GPRMC,194340.000,A,3748.5908,N,12217.6375,W,1.90,81.94,191112,,,D*49
$GPRMC,194341.000,A,3748.5898,N,12217.6358,W,1.71,93.91,191112,,,D*46
$GPRMC,194342.000,A,3748.5891,N,12217.6342,W,1.60,64.79,191112,,,D*49
$GPRMC,194343.000,A,3748.5888,N,12217.6331,W,1.60,57.52,191112,,,D*4D
$GPRMC,194344.000,A,3748.5887,N,12217.6324,W,1.87,83.03,191112,,,D*45
$GPRMC,194345.000,A,3748.5887,N,12217.6317,W,1.42,51.82,191112,,,D*4B
$GPRMC,194346.000,A,3748.5892,N,12217.6314,W,1.52,40.29,191112,,,D*4F
$GPRMC,194347.000,A,3748.5894,N,12217.6310,W,1.35,34.67,191112,,,D*44
$GPRMC,194348.000,A,3748.5898,N,12217.6310,W,1.07,16.52,191112,,,D*40
$GPRMC,194349.000,A,3748.5900,N,12217.6308,W,1.29,353.85,191112,,,D*7C
$GPRMC,194350.000,A,3748.5900,N,12217.6304,W,1.91,86.86,191112,,,D*43
$GPRMC,194351.000,A,3748.5890,N,12217.6281,W,2.39,95.87,191112,,,D*44
$GPRMC,194352.000,A,3748.5887,N,12217.6270,W,2.67,99.52,191112,,,D*40
$GPRMC,194353.000,A,3748.5875,N,12217.6245,W,2.62,99.39,191112,,,D*42
$GPRMC,194354.000,A,3748.5871,N,12217.6233,W,2.66,97.37,191112,,,D*44
$GPRMC,194355.000,A,3748.5862,N,12217.6210,W,3.13,101.38,191112,,,D*74
$GPRMC,194356.000,A,3748.5854,N,12217.6191,W,2.85,112.07,191112,,,D*78
$GPRMC,194357.000,A,3748.5852,N,12217.6183,W,2.48,102.94,191112,,,D*76
$GPRMC,194358.000,A,3748.5848,N,12217.6172,W,2.40,107.35,191112,,,D*7A
$GPRMC,194359.000,A,3748.5843,N,12217.6160,W,2.27,100.28,191112,,,D*79
$GPRMC,194400.000,A,3748.5836,N,12217.6145,W,2.18,103.66,191112,,,D*72
$GPRMC,194401.000,A,3748.5835,N,12217.6139,W,1.63,102.30,191112,,,D*76
$GPRMC,194402.000,A,3748.5822,N,12217.6121,W,1.97,113.89,191112,,,D*73
$GPRMC,194403.000,A,3748.5819,N,12217.6115,W,1.61,100.90,191112,,,D*7E
$GPRMC,194404.000,A,3748.5813,N,12217.6108,W,0.51,108.80,191112,,,D*74
$GPRMC,194405.000,A,3748.5811,N,12217.6095,W,1.12,74.79,191112,,,D*48
$GPRMC,194406.000,A,3748.5813,N,12217.6084,W,1.45,56.52,191112,,,D*42
$GPRMC,194407.000,A,3748.5814,N,12217.6073,W,1.59,69.80,191112,,,D*42
$GPRMC,194408.000,A,3748.5815,N,12217.6067,W,1.00,26.02,191112,,,D*44
$GPRMC,194409.000,A,3748.5817,N,12217.6063,W,2.06,343.70,191112,,,D*73
