$ADVER,3080,2.3
$GPRMC,215605.742,A,3748.7958,N,12217.8649,W,0.12,29.93,060711,,,A*44
$GPRMC,215606.742,A,3748.7962,N,12217.8661,W,0.10,67.77,060711,,,A*46
$GPRMC,215607.742,A,3748.7964,N,12217.8669,W,0.11,61.75,060711,,,A*4C
$GPRMC,215608.742,A,3748.7963,N,12217.8668,W,0.20,2.53,060711,,,A*76
$GPRMC,215609.742,A,3748.7962,N,12217.8670,W,0.22,115.53,060711,,,A*7A
$GPRMC,215610.742,A,3748.7964,N,12217.8675,W,0.14,34.08,060711,,,A*48
$GPRMC,215611.742,A,3748.7961,N,12217.8672,W,0.27,65.22,060711,,,A*47
$GPRMC,215612.742,A,3748.7909,N,12217.8574,W,3.13,148.70,060711,,,A*72
$GPRMC,215613.742,A,3748.7982,N,12217.8653,W,2.88,145.57,060711,,,A*7D
$GPRMC,215614.742,A,3748.7925,N,12217.8545,W,1.62,124.03,060711,,,A*72
$GPRMC,215615.742,A,3748.7934,N,12217.8583,W,1.39,298.63,060711,,,A*75
$GPRMC,215616.742,A,3748.7878,N,12217.8506,W,0.18,359.77,060711,,,A*79
$GPRMC,215617.742,A,3748.7882,N,12217.8502,W,0.18,96.91,060711,,,A*41
$GPRMC,215618.742,A,3748.7885,N,12217.8508,W,0.11,3.26,060711,,,A*7A
$GPRMC,215619.742,A,3748.7887,N,12217.8520,W,0.08,52.71,060711,,,A*4D
$GPRMC,215620.742,A,3748.7950,N,12217.8587,W,0.03,9.98,060711,,,A*73
$GPRMC,215621.742,A,3748.7892,N,12217.8544,W,0.42,291.69,060711,,,A*7A
$GPRMC,215622.742,A,3748.7946,N,12217.8663,W,0.81,153.00,060711,,,A*7A
$GPRMC,215623.742,A,3748.7945,N,12217.8708,W,0.51,295.90,060711,,,A*79
$GPRMC,215624.742,A,3748.7955,N,12217.8662,W,0.51,312.11,060711,,,A*75
$GPRMC,215625.000,A,3748.7959,N,12217.8649,W,0.33,108.60,060711,,,A*7B
$GPRMC,215626.000,A,3748.7954,N,12217.8614,W,0.65,152.93,060711,,,A*7D
$GPRMC,215627.000,A,3748.7951,N,12217.8592,W,0.93,148.00,060711,,,A*7C
$GPRMC,215628.000,A,3748.7940,N,12217.8574,W,1.77,118.40,060711,,,A*71
$GPRMC,215629.000,A,3748.7935,N,12217.8566,W,1.31,134.12,060711,,,A*7A
$GPRMC,215630.000,A,3748.7925,N,12217.8573,W,1.05,177.10,060711,,,A*75
$GPRMC,215631.000,A,3748.7939,N,12217.8577,W,0.62,33.53,060711,,,A*4B
$GPRMC,215632.000,A,3748.7928,N,12217.8585,W,1.19,211.37,060711,,,A*78
$GPRMC,215633.000,A,3748.7932,N,12217.8586,W,0.88,250.19,060711,,,A*71
$GPRMC,215634.000,A,3748.7948,N,12217.8597,W,0.15,275.39,060711,,,A*7A
$GPRMC,215635.000,A,3748.7960,N,12217.8601,W,0.07,229.05,060711,,,A*78
$GPRMC,215636.000,A,3748.7969,N,12217.8604,W,0.11,122.54,060711,,,A*7C
$GPRMC,215637.000,A,3748.7974,N,12217.8602,W,0.19,239.75,060711,,,A*75
$GPRMC,215638.000,A,3748.7977,N,12217.8603,W,0.47,342.58,060711,,,A*71
$GPRMC,215639.000,A,3748.7984,N,12217.8602,W,1.06,33.47,060711,,,A*42
$GPRMC,215640.000,A,3748.7989,N,12217.8607,W,0.33,72.57,060711,,,A*47
$GPRMC,215641.000,A,3748.7990,N,12217.8612,W,0.25,254.03,060711,,,A*7A
$GPRMC,215642.000,A,3748.7996,N,12217.8607,W,0.42,4.93,060711,,,A*74
$GPRMC,215643.000,A,3748.8001,N,12217.8608,W,0.47,297.75,060711,,,A*77
$GPRMC,215644.000,A,3748.7999,N,12217.8620,W,1.18,270.63,060711,,,A*78
$GPRMC,215645.000,A,3748.7997,N,12217.8630,W,0.65,10.52,060711,,,A*4B
$GPRMC,215646.000,A,3748.7995,N,12217.8639,W,0.08,235.00,060711,,,A*7A
$GPRMC,215647.000,A,3748.7995,N,12217.8639,W,0.08,235.00,060711,,,E*7F
$GPRMC,215648.000,A,3748.7998,N,12217.8650,W,1.99,283.85,060711,,,A*7F
$GPRMC,215649.000,A,3748.7996,N,12217.8659,W,1.59,235.69,060711,,,A*7A
$GPRMC,215650.000,A,3748.7998,N,12217.8657,W,0.10,254.44,060711,,,A*76
$GPRMC,215651.000,A,3748.7997,N,12217.8655,W,0.83,75.31,060711,,,A*43
$GPRMC,215652.000,A,3748.8000,N,12217.8645,W,1.14,56.03,060711,,,A*46
$GPRMC,215653.000,A,3748.8003,N,12217.8645,W,0.72,355.09,060711,,,A*7F
$GPRMC,215654.000,A,3748.8001,N,12217.8650,W,0.30,349.82,060711,,,A*76
$GPRMC,215655.000,A,3748.8000,N,12217.8652,W,0.34,348.18,060711,,,A*72
$GPRMC,215656.000,A,3748.8004,N,12217.8654,W,0.74,334.96,060711,,,A*7A
$GPRMC,215657.000,A,3748.8014,N,12217.8643,W,0.47,45.24,060711,,,A*40
$GPRMC,215658.000,A,3748.8021,N,12217.8639,W,0.91,12.79,060711,,,A*45
$GPRMC,215659.000,A,3748.8023,N,12217.8641,W,0.91,354.36,060711,,,A*73
$GPRMC,215700.000,A,3748.8026,N,12217.8640,W,0.91,7.88,060711,,,A*7A
$GPRMC,215701.000,A,3748.8026,N,12217.8644,W,1.04,317.14,060711,,,A*75
$GPRMC,215702.000,A,3748.8029,N,12217.8644,W,0.41,31.70,060711,,,A*4C
$GPRMC,215703.000,A,3748.8030,N,12217.8648,W,0.31,128.15,060711,,,A*74
$GPRMC,215704.000,A,3748.8027,N,12217.8644,W,0.23,33.10,060711,,,A*44
$GPRMC,215705.000,A,3748.8024,N,12217.8643,W,0.15,19.50,060711,,,A*48
$GPRMC,215706.000,A,3748.8024,N,12217.8648,W,0.35,287.05,060711,,,A*77
$GPRMC,215707.000,A,3748.8022,N,12217.8645,W,0.25,111.67,060711,,,A*74
$GPRMC,215708.000,A,3748.8018,N,12217.8645,W,0.16,240.40,060711,,,A*70
$GPRMC,215709.000,A,3748.8013,N,12217.8644,W,0.39,240.91,060711,,,A*7A
$GPRMC,215710.000,A,3748.8013,N,12217.8643,W,0.31,130.03,060711,,,A*72
$GPRMC,215711.000,A,3748.8010,N,12217.8645,W,1.23,230.50,060711,,,A*71
$GPRMC,215712.000,A,3748.8008,N,12217.8644,W,0.43,312.78,060711,,,A*76
$GPRMC,215713.000,A,3748.8012,N,12217.8633,W,1.02,76.55,060711,,,A*46
$GPRMC,215714.000,A,3748.8009,N,12217.8626,W,0.29,175.86,060711,,,A*7B
$GPRMC,215715.000,A,3748.8007,N,12217.8617,W,0.40,358.42,060711,,,A*7C
$GPRMC,215716.000,A,3748.7994,N,12217.8624,W,0.81,233.89,060711,,,A*75
$GPRMC,215717.000,A,3748.7992,N,12217.8627,W,0.71,233.32,060711,,,A*7E
$GPRMC,215718.000,A,3748.7986,N,12217.8641,W,0.31,248.34,060711,,,A*7A
$GPRMC,215719.000,A,3748.7983,N,12217.8649,W,0.89,198.42,060711,,,A*7A
$GPRMC,215720.000,A,3748.7984,N,12217.8650,W,0.55,239.54,060711,,,A*71
$GPRMC,215721.000,A,3748.7983,N,12217.8653,W,0.85,185.09,060711,,,A*75
$GPRMC,215722.000,A,3748.7983,N,12217.8656,W,0.29,201.63,060711,,,A*76
$GPRMC,215723.000,A,3748.7979,N,12217.8662,W,1.26,203.65,060711,,,A*7F
$GPRMC,215724.000,A,3748.7974,N,12217.8670,W,2.29,230.18,060711,,,A*70
$GPRMC,215725.000,A,3748.7967,N,12217.8680,W,2.12,228.22,060711,,,A*74
$GPRMC,215726.000,A,3748.7961,N,12217.8687,W,1.82,200.95,060711,,,A*7A
$GPRMC,215727.000,A,3748.7959,N,12217.8687,W,1.39,189.17,060711,,,A*78
$GPRMC,215728.000,A,3748.7953,N,12217.8692,W,1.70,200.17,060711,,,A*76
$GPRMC,215729.000,A,3748.7945,N,12217.8698,W,2.11,204.72,060711,,,A*79
$GPRMC,215730.000,A,3748.7938,N,12217.8701,W,1.97,209.73,060711,,,A*7B
$GPRMC,215731.000,A,3748.7929,N,12217.8708,W,1.98,206.82,060711,,,A*7D
$GPRMC,215732.000,A,3748.7920,N,12217.8712,W,1.94,204.66,060711,,,A*78
$GPRMC,215733.000,A,3748.7915,N,12217.8710,W,1.80,195.02,060711,,,A*71
$GPRMC,215734.000,A,3748.7909,N,12217.8711,W,1.74,195.26,060711,,,A*77
$GPRMC,215735.000,A,3748.7905,N,12217.8710,W,1.74,201.84,060711,,,A*7D
$GPRMC,215736.000,A,3748.7905,N,12217.8705,W,1.34,182.45,060711,,,A*7B
$GPRMC,215737.000,A,3748.7907,N,12217.8698,W,0.72,164.25,060711,,,A*70
$GPRMC,215738.000,A,3748.7909,N,12217.8694,W,0.23,145.25,060711,,,A*7A
$GPRMC,215739.000,A,3748.7914,N,12217.8693,W,0.17,144.42,060711,,,A*77
$GPRMC,215740.000,A,3748.7914,N,12217.8698,W,0.16,197.77,060711,,,A*7B
$GPRMC,215741.000,A,3748.7915,N,12217.8702,W,0.10,237.89,060711,,,A*77
$GPRMC,215742.000,A,3748.7916,N,12217.8706,W,0.11,305.28,060711,,,A*79
$GPRMC,215743.000,A,3748.7917,N,12217.8709,W,0.14,291.76,060711,,,A*74
$GPRMC,215744.000,A,3748.7920,N,12217.8710,W,0.16,4.12,060711,,,A*71
$GPRMC,215745.000,A,3748.7923,N,12217.8710,W,0.25,349.02,060711,,,A*78
$GPRMC,215746.000,A,3748.7930,N,12217.8705,W,0.14,316.09,060711,,,A*7E
$GPRMC,215747.000,A,3748.7934,N,12217.8703,W,0.32,251.98,060711,,,A*73
$GPRMC,215748.000,A,3748.7931,N,12217.8709,W,0.61,246.09,060711,,,A*7B
$GPRMC,215749.000,A,3748.7927,N,12217.8716,W,0.83,220.62,060711,,,A*72
$GPRMC,215750.000,A,3748.7923,N,12217.8721,W,0.88,207.72,060711,,,A*75
$GPRMC,215751.000,A,3748.7916,N,12217.8723,W,1.17,179.59,060711,,,A*74
$GPRMC,215752.000,A,3748.7913,N,12217.8723,W,0.97,179.92,060711,,,A*7C
$GPRMC,215753.000,A,3748.7917,N,12217.8719,W,0.68,99.27,060711,,,A*41
$GPRMC,215754.000,A,3748.7913,N,12217.8717,W,0.66,122.77,060711,,,A*76
$GPRMC,215755.000,A,3748.7915,N,12217.8716,W,0.80,4.83,060711,,,A*76
$GPRMC,215756.000,A,3748.7916,N,12217.8720,W,1.58,13.16,060711,,,A*4D
$GPRMC,215757.000,A,3748.7920,N,12217.8719,W,1.67,14.56,060711,,,A*4C
$GPRMC,215758.000,A,3748.7925,N,12217.8715,W,1.26,22.39,060711,,,A*43
$GPRMC,215759.000,A,3748.7934,N,12217.8712,W,1.42,0.61,060711,,,A*7A
$GPRMC,215800.000,A,3748.7951,N,12217.8708,W,2.39,8.61,060711,,,A*76
$GPRMC,215801.000,A,3748.7964,N,12217.8708,W,2.65,354.89,060711,,,A*74
$GPRMC,215802.000,A,3748.7970,N,12217.8712,W,1.92,357.13,060711,,,A*72
$GPRMC,215803.000,A,3748.7974,N,12217.8711,W,1.27,346.50,060711,,,A*7D
$GPRMC,215804.000,A,3748.7974,N,12217.8710,W,0.09,246.79,060711,,,A*7C
$GPRMC,215805.000,A,3748.7972,N,12217.8710,W,0.76,224.12,060711,,,A*7A
$GPRMC,215806.000,A,3748.7970,N,12217.8710,W,0.69,212.05,060711,,,A*76
$GPRMC,215807.000,A,3748.7971,N,12217.8710,W,0.30,330.54,060711,,,A*7F
$GPRMC,215808.000,A,3748.7972,N,12217.8709,W,0.67,2.02,060711,,,A*78
$GPRMC,215809.000,A,3748.7996,N,12217.8697,W,0.57,18.98,060711,,,A*4E
$GPRMC,215810.000,A,3748.8011,N,12217.8690,W,0.20,67.73,060711,,,A*45
$GPRMC,215811.000,A,3748.8020,N,12217.8682,W,0.51,199.57,060711,,,A*75
$GPRMC,215812.000,A,3748.8015,N,12217.8681,W,1.96,183.39,060711,,,A*7A
$GPRMC,215813.000,A,3748.8025,N,12217.8672,W,1.88,187.15,060711,,,A*71
$GPRMC,215814.000,A,3748.8027,N,12217.8671,W,2.08,192.11,060711,,,A*7C
$GPRMC,215815.000,A,3748.8021,N,12217.8669,W,1.74,189.24,060711,,,A*76
$GPRMC,215816.000,A,3748.8017,N,12217.8666,W,1.18,181.96,060711,,,A*74
$GPRMC,215817.000,A,3748.8015,N,12217.8663,W,0.51,179.60,060711,,,A*70
$GPRMC,215818.000,A,3748.8014,N,12217.8661,W,0.36,46.13,060711,,,A*44
$GPRMC,215819.000,A,3748.8018,N,12217.8658,W,1.64,0.95,060711,,,A*79
$GPRMC,215820.000,A,3748.8023,N,12217.8658,W,1.79,16.06,060711,,,A*4A
$GPRMC,215821.000,A,3748.8025,N,12217.8656,W,0.85,6.39,060711,,,A*7C
$GPRMC,215822.000,A,3748.8024,N,12217.8656,W,0.15,171.95,060711,,,A*70
$GPRMC,215823.000,A,3748.8021,N,12217.8657,W,0.94,197.38,060711,,,A*73
$GPRMC,215824.000,A,3748.8017,N,12217.8658,W,1.32,199.69,060711,,,A*79
$GPRMC,215825.000,A,3748.8014,N,12217.8661,W,1.32,198.90,060711,,,A*76
$GPRMC,215826.000,A,3748.8009,N,12217.8661,W,1.44,192.25,060711,,,A*7C
$GPRMC,215827.000,A,3748.8004,N,12217.8662,W,1.74,196.18,060711,,,A*7A
$GPRMC,215828.000,A,3748.7970,N,12217.8667,W,2.22,192.92,060711,,,A*73
$GPRMC,215829.000,A,3748.7952,N,12217.8671,W,1.63,205.17,060711,,,A*73
$GPRMC,215830.000,A,3748.7938,N,12217.8673,W,0.80,182.41,060711,,,A*76
$GPRMC,215831.000,A,3748.7933,N,12217.8672,W,0.49,69.81,060711,,,A*40
$GPRMC,215832.000,A,3748.7925,N,12217.8671,W,0.80,24.18,060711,,,A*4B
$GPRMC,215833.000,A,3748.7923,N,12217.8665,W,1.80,30.65,060711,,,A*47
$GPRMC,215834.000,A,3748.7924,N,12217.8655,W,1.97,26.66,060711,,,A*46
$GPRMC,215835.000,A,3748.7918,N,12217.8653,W,1.93,29.89,060711,,,A*44
$GPRMC,215836.000,A,3748.7925,N,12217.8647,W,2.20,27.56,060711,,,A*4B
$GPRMC,215837.000,A,3748.7907,N,12217.8653,W,0.66,36.30,060711,,,A*4F
$GPRMC,215838.000,A,3748.7894,N,12217.8657,W,0.06,52.65,060711,,,A*4B
$GPRMC,215839.000,A,3748.7888,N,12217.8659,W,0.96,191.06,060711,,,A*7B
$GPRMC,215840.000,A,3748.7881,N,12217.8660,W,1.11,205.37,060711,,,A*74
$GPRMC,215841.000,A,3748.7868,N,12217.8666,W,0.99,202.34,060711,,,A*71
$GPRMC,215842.000,A,3748.7871,N,12217.8664,W,0.14,196.29,060711,,,A*7F
$GPRMC,215843.000,A,3748.7863,N,12217.8667,W,0.28,358.82,060711,,,A*70
$GPRMC,215844.000,A,3748.7860,N,12217.8669,W,0.36,353.74,060711,,,A*77
$GPRMC,215845.000,A,3748.7859,N,12217.8670,W,0.25,218.10,060711,,,A*7A
$GPRMC,215846.000,A,3748.7856,N,12217.8671,W,0.38,228.20,060711,,,A*7B
$GPRMC,215847.000,A,3748.7854,N,12217.8673,W,0.15,123.71,060711,,,A*79
$GPRMC,215848.000,A,3748.7852,N,12217.8673,W,0.12,50.46,060711,,,A*46
$GPRMC,215849.000,A,3748.7853,N,12217.8674,W,0.36,14.32,060711,,,A*44
$GPRMC,215850.000,A,3748.7853,N,12217.8674,W,0.31,220.07,060711,,,A*78
$GPRMC,215851.000,A,3748.7851,N,12217.8676,W,1.02,211.90,060711,,,A*74
$GPRMC,215852.000,A,3748.7846,N,12217.8680,W,1.41,197.96,060711,,,A*74
$GPRMC,215853.000,A,3748.7843,N,12217.8683,W,0.47,233.21,060711,,,A*75
$GPRMC,215854.000,A,3748.7843,N,12217.8685,W,0.54,23.06,060711,,,A*40
$GPRMC,215855.000,A,3748.7843,N,12217.8685,W,0.19,209.14,060711,,,A*71
$GPRMC,215856.000,A,3748.7840,N,12217.8687,W,1.26,195.80,060711,,,A*75
$GPRMC,215857.000,A,3748.7849,N,12217.8684,W,0.74,249.74,060711,,,A*71
$GPRMC,215858.000,A,3748.7850,N,12217.8687,W,0.43,349.45,060711,,,A*72
$GPRMC,215859.000,A,3748.7850,N,12217.8691,W,0.66,0.10,060711,,,A*7D
$GPRMC,215900.000,A,3748.7849,N,12217.8693,W,0.74,40.87,060711,,,A*43
$GPRMC,215901.000,A,3748.7846,N,12217.8695,W,0.09,355.45,060711,,,A*78
$GPRMC,215902.000,A,3748.7843,N,12217.8697,W,0.46,7.32,060711,,,A*73
$GPRMC,215903.000,A,3748.7844,N,12217.8696,W,0.73,44.45,060711,,,A*45
$GPRMC,215904.000,A,3748.7846,N,12217.8694,W,0.49,95.53,060711,,,A*40
$GPRMC,215905.000,A,3748.7845,N,12217.8693,W,0.51,46.07,060711,,,A*43
$GPRMC,215906.000,A,3748.7845,N,12217.8693,W,0.52,51.51,060711,,,A*46
$GPRMC,215907.000,A,3748.7843,N,12217.8692,W,0.59,55.36,060711,,,A*4E
$GPRMC,215908.000,A,3748.7841,N,12217.8690,W,0.76,114.19,060711,,,A*75
$GPRMC,215909.000,A,3748.7837,N,12217.8690,W,0.69,147.96,060711,,,A*7A
$GPRMC,215910.000,A,3748.7836,N,12217.8689,W,0.69,78.35,060711,,,A*4F
$GPRMC,215911.000,A,3748.7837,N,12217.8687,W,1.29,74.40,060711,,,A*4A
$GPRMC,215912.000,A,3748.7836,N,12217.8684,W,1.53,119.33,060711,,,A*78
$GPRMC,215913.000,A,3748.7834,N,12217.8683,W,1.33,136.80,060711,,,A*7F
$GPRMC,215914.000,A,3748.7832,N,12217.8680,W,1.19,122.05,060711,,,A*7D
$GPRMC,215915.000,A,3748.7833,N,12217.8672,W,1.19,82.17,060711,,,A*48
$GPRMC,215916.000,A,3748.7834,N,12217.8666,W,1.07,70.77,060711,,,A*4D
$GPRMC,215917.000,A,3748.7835,N,12217.8661,W,1.34,59.32,060711,,,A*40
$GPRMC,215918.000,A,3748.7836,N,12217.8653,W,1.78,58.16,060711,,,A*42
$GPRMC,215919.000,A,3748.7858,N,12217.8637,W,2.22,61.50,060711,,,A*4D
$GPRMC,215920.000,A,3748.7870,N,12217.8626,W,2.12,61.21,060711,,,A*48
$GPRMC,215921.000,A,3748.7877,N,12217.8617,W,2.15,68.15,060711,,,A*45
$GPRMC,215922.000,A,3748.7882,N,12217.8608,W,1.98,65.10,060711,,,A*4C
$GPRMC,215923.000,A,3748.7888,N,12217.8600,W,2.12,52.81,060711,,,A*42
$GPRMC,215924.000,A,3748.7893,N,12217.8593,W,2.17,59.59,060711,,,A*4D
$GPRMC,215925.000,A,3748.7899,N,12217.8587,W,1.98,46.80,060711,,,A*4D
$GPRMC,215926.000,A,3748.7903,N,12217.8580,W,2.08,48.09,060711,,,A*4E
$GPRMC,215927.000,A,3748.7908,N,12217.8574,W,2.12,44.96,060711,,,A*4E
$GPRMC,215928.000,A,3748.7913,N,12217.8568,W,2.07,46.00,060711,,,A*4F
$GPRMC,215929.000,A,3748.7917,N,12217.8563,W,1.86,51.37,060711,,,A*49
$GPRMC,215930.000,A,3748.7921,N,12217.8557,W,1.95,53.78,060711,,,A*48
$GPRMC,215931.000,A,3748.7924,N,12217.8551,W,1.89,58.14,060711,,,A*46
$GPRMC,215932.000,A,3748.7926,N,12217.8545,W,1.71,62.21,060711,,,A*4A
$GPRMC,215933.000,A,3748.7928,N,12217.8539,W,1.78,57.35,060711,,,A*44
$GPRMC,215934.000,A,3748.7930,N,12217.8532,W,1.70,76.11,060711,,,A*4C
$GPRMC,215935.000,A,3748.7931,N,12217.8525,W,1.94,77.49,060711,,,A*4C
$GPRMC,215936.000,A,3748.7932,N,12217.8516,W,2.46,72.37,060711,,,A*4C
$GPRMC,215937.000,A,3748.7933,N,12217.8510,W,1.55,73.41,060711,,,A*4B
$GPRMC,215938.000,A,3748.7931,N,12217.8503,W,1.57,106.38,060711,,,A*7B
$GPRMC,215939.000,A,3748.7931,N,12217.8498,W,1.25,109.56,060711,,,A*7B
$GPRMC,215940.000,A,3748.7931,N,12217.8495,W,1.36,101.07,060711,,,A*76
$GPRMC,215941.000,A,3748.7930,N,12217.8491,W,1.55,108.18,060711,,,A*70
$GPRMC,215942.000,A,3748.7928,N,12217.8485,W,1.53,116.54,060711,,,A*7E
$GPRMC,215943.000,A,3748.7927,N,12217.8481,W,1.60,111.82,060711,,,A*78
$GPRMC,215944.000,A,3748.7925,N,12217.8475,W,1.64,101.10,060711,,,A*78
$GPRMC,215945.000,A,3748.7924,N,12217.8469,W,1.52,109.65,060711,,,A*7A
$GPRMC,215946.000,A,3748.7923,N,12217.8463,W,1.41,111.46,060711,,,A*7E
$GPRMC,215947.000,A,3748.7921,N,12217.8458,W,1.28,114.65,060711,,,A*7E
$GPRMC,215948.000,A,3748.7918,N,12217.8457,W,0.95,113.02,060711,,,A*75
$GPRMC,215949.000,A,3748.7915,N,12217.8451,W,0.96,88.31,060711,,,A*4F
$GPRMC,215950.000,A,3748.7912,N,12217.8445,W,0.71,87.59,060711,,,A*4D
$GPRMC,215951.000,A,3748.7910,N,12217.8439,W,0.72,107.92,060711,,,A*78
$GPRMC,215952.000,A,3748.7904,N,12217.8434,W,1.08,111.85,060711,,,A*7E
$GPRMC,215953.000,A,3748.7898,N,12217.8428,W,1.53,127.27,060711,,,A*75
$GPRMC,215954.000,A,3748.7893,N,12217.8423,W,1.85,134.99,060711,,,A*7E
$GPRMC,215955.000,A,3748.7889,N,12217.8419,W,1.41,135.10,060711,,,A*75
$GPRMC,215956.000,A,3748.7887,N,12217.8414,W,1.14,113.81,060711,,,A*79
$GPRMC,215957.000,A,3748.7886,N,12217.8409,W,1.56,119.76,060711,,,A*71
$GPRMC,215958.000,A,3748.7882,N,12217.8404,W,1.78,122.43,060711,,,A*75
$GPRMC,215959.000,A,3748.7880,N,12217.8400,W,1.46,111.29,060711,,,A*73
$GPRMC,220000.000,A,3748.7878,N,12217.8396,W,1.06,122.25,060711,,,A*77
$GPRMC,220001.000,A,3748.7876,N,12217.8392,W,1.47,117.64,060711,,,A*7A
$GPRMC,220002.000,A,3748.7875,N,12217.8390,W,1.26,126.24,060711,,,A*79
$GPRMC,220003.000,A,3748.7873,N,12217.8388,W,1.48,142.95,060711,,,A*77
$GPRMC,220004.000,A,3748.7870,N,12217.8384,W,1.67,118.99,060711,,,A*71
$GPRMC,220005.000,A,3748.7867,N,12217.8378,W,1.73,123.66,060711,,,A*78
$GPRMC,220006.000,A,3748.7862,N,12217.8369,W,1.80,127.28,060711,,,A*7C
$GPRMC,220007.000,A,3748.7859,N,12217.8363,W,1.66,116.60,060711,,,A*79
$GPRMC,220008.000,A,3748.7858,N,12217.8359,W,1.56,127.19,060711,,,A*71
$GPRMC,220009.000,A,3748.7856,N,12217.8355,W,1.67,115.06,060711,,,A*7F
$GPRMC,220010.000,A,3748.7856,N,12217.8352,W,1.51,120.57,060711,,,A*77
$GPRMC,220011.000,A,3748.7855,N,12217.8349,W,1.65,127.27,060711,,,A*78
$GPRMC,220012.000,A,3748.7853,N,12217.8344,W,1.58,114.93,060711,,,A*71
$GPRMC,220013.000,A,3748.7849,N,12217.8335,W,1.95,117.76,060711,,,A*74
$GPRMC,220014.000,A,3748.7847,N,12217.8329,W,1.77,116.25,060711,,,A*7B
$GPRMC,220015.000,A,3748.7847,N,12217.8325,W,1.57,108.01,060711,,,A*7D
$GPRMC,220016.000,A,3748.7845,N,12217.8319,W,1.40,114.58,060711,,,A*74
$GPRMC,220017.000,A,3748.7844,N,12217.8315,W,1.47,118.15,060711,,,A*7A
$GPRMC,220018.000,A,3748.7841,N,12217.8311,W,1.53,123.05,060711,,,A*78
$GPRMC,220019.000,A,3748.7839,N,12217.8304,W,1.22,100.87,060711,,,A*7F
$GPRMC,220020.000,A,3748.7837,N,12217.8297,W,1.60,102.43,060711,,,A*7C
$GPRMC,220021.000,A,3748.7836,N,12217.8291,W,1.37,104.38,060711,,,A*72
$GPRMC,220022.000,A,3748.7833,N,12217.8288,W,1.50,124.99,060711,,,A*74
$GPRMC,220023.000,A,3748.7830,N,12217.8283,W,2.08,114.50,060711,,,A*75
$GPRMC,220024.000,A,3748.7829,N,12217.8279,W,1.78,121.10,060711,,,A*79
$GPRMC,220025.000,A,3748.7826,N,12217.8272,W,1.79,124.95,060711,,,A*75
$GPRMC,220026.000,A,3748.7823,N,12217.8266,W,1.97,121.02,060711,,,A*7D
$GPRMC,220027.000,A,3748.7819,N,12217.8258,W,2.26,117.39,060711,,,A*7C
$GPRMC,220028.000,A,3748.7816,N,12217.8250,W,2.01,108.84,060711,,,A*79
$GPRMC,220029.000,A,3748.7812,N,12217.8242,W,2.25,118.92,060711,,,A*7F
$GPRMC,220030.000,A,3748.7810,N,12217.8236,W,1.79,115.23,060711,,,A*7B
$GPRMC,220031.000,A,3748.7809,N,12217.8231,W,2.22,112.17,060711,,,A*78
$GPRMC,220032.000,A,3748.7806,N,12217.8224,W,1.66,101.71,060711,,,A*71
$GPRMC,220033.000,A,3748.7804,N,12217.8216,W,1.48,98.65,060711,,,A*4B
$GPRMC,220034.000,A,3748.7801,N,12217.8209,W,1.87,122.72,060711,,,A*72
$GPRMC,220035.000,A,3748.7797,N,12217.8202,W,1.71,111.23,060711,,,A*75
$GPRMC,220036.000,A,3748.7796,N,12217.8194,W,1.66,100.65,060711,,,D*7A
$GPRMC,220037.000,A,3748.7794,N,12217.8185,W,2.10,112.37,060711,,,D*7F
$GPRMC,220038.000,A,3748.7790,N,12217.8177,W,2.08,124.66,060711,,,D*71
$GPRMC,220039.000,A,3748.7786,N,12217.8170,W,1.41,118.09,060711,,,D*78
$GPRMC,220040.000,A,3748.7785,N,12217.8165,W,1.51,112.49,060711,,,D*7E
$GPRMC,220041.000,A,3748.7781,N,12217.8157,W,1.86,108.56,060711,,,D*75
$GPRMC,220042.000,A,3748.7776,N,12217.8148,W,1.41,109.22,060711,,,D*79
$GPRMC,220043.000,A,3748.7772,N,12217.8140,W,1.56,105.52,060711,,,D*79
$GPRMC,220044.000,A,3748.7768,N,12217.8132,W,1.78,121.59,060711,,,D*71
$GPRMC,220045.000,A,3748.7763,N,12217.8125,W,1.90,120.03,060711,,,D*75
$GPRMC,220046.000,A,3748.7759,N,12217.8118,W,1.96,119.44,060711,,,D*7E
$GPRMC,220047.000,A,3748.7754,N,12217.8110,W,2.32,117.45,060711,,,D*78
$GPRMC,220048.000,A,3748.7752,N,12217.8104,W,2.13,110.91,060711,,,D*79
$GPRMC,220049.000,A,3748.7749,N,12217.8097,W,2.07,114.22,060711,,,D*70
$GPRMC,220050.000,A,3748.7743,N,12217.8085,W,1.82,118.61,060711,,,D*74
$GPRMC,220051.000,A,3748.7739,N,12217.8076,W,1.97,115.61,060711,,,D*7D
$GPRMC,220052.000,A,3748.7737,N,12217.8071,W,1.38,121.58,060711,,,D*7F
$GPRMC,220053.000,A,3748.7735,N,12217.8067,W,1.16,120.63,060711,,,D*7E
$GPRMC,220054.000,A,3748.7733,N,12217.8063,W,0.81,100.37,060711,,,D*77
$GPRMC,220055.000,A,3748.7732,N,12217.8060,W,0.47,89.68,060711,,,D*44
$GPRMC,220056.000,A,3748.7735,N,12217.8065,W,0.62,331.60,060711,,,D*7A
$GPRMC,220057.000,A,3748.7737,N,12217.8068,W,0.19,289.74,060711,,,D*7F
$GPRMC,220058.000,A,3748.7737,N,12217.8069,W,0.18,281.75,060711,,,D*79
$GPRMC,220059.000,A,3748.7736,N,12217.8068,W,0.26,135.83,060711,,,D*70
$GPRMC,220100.000,A,3748.7736,N,12217.8068,W,0.25,331.71,060711,,,D*75
$GPRMC,220101.000,A,3748.7736,N,12217.8068,W,0.11,64.32,060711,,,D*47
$GPRMC,220102.000,A,3748.7737,N,12217.8069,W,0.24,66.32,060711,,,D*40
$GPRMC,220103.000,A,3748.7737,N,12217.8069,W,0.05,15.32,060711,,,D*46
$GPRMC,220104.000,A,3748.7737,N,12217.8068,W,0.12,90.61,060711,,,D*4D
$GPRMC,220105.000,A,3748.7736,N,12217.8066,W,0.61,75.45,060711,,,D*4A
$GPRMC,220106.000,A,3748.7736,N,12217.8064,W,0.83,73.12,060711,,,D*43
$GPRMC,220107.000,A,3748.7732,N,12217.8058,W,1.11,103.07,060711,,,D*71
$GPRMC,220108.000,A,3748.7727,N,12217.8050,W,1.26,104.84,060711,,,D*7A
$GPRMC,220109.000,A,3748.7723,N,12217.8042,W,1.76,121.78,060711,,,D*7D
$GPRMC,220110.000,A,3748.7718,N,12217.8035,W,1.73,125.31,060711,,,D*71
$GPRMC,220111.000,A,3748.7715,N,12217.8030,W,1.71,120.87,060711,,,D*72
$GPRMC,220112.000,A,3748.7713,N,12217.8025,W,1.71,114.81,060711,,,D*72
$GPRMC,220113.000,A,3748.7709,N,12217.8018,W,2.26,126.15,060711,,,D*7B
$GPRMC,220114.000,A,3748.7705,N,12217.8011,W,1.80,118.24,060711,,,D*79
$GPRMC,220115.000,A,3748.7702,N,12217.8004,W,1.47,108.15,060711,,,D*73
$GPRMC,220116.000,A,3748.7701,N,12217.8000,W,1.20,120.33,060711,,,D*78
$GPRMC,220117.000,A,3748.7699,N,12217.7997,W,1.26,128.52,060711,,,D*78
$GPRMC,220118.000,A,3748.7697,N,12217.7994,W,1.70,117.10,060711,,,D*73
$GPRMC,220119.000,A,3748.7693,N,12217.7988,W,1.89,128.31,060711,,,D*72
$GPRMC,220120.000,A,3748.7689,N,12217.7984,W,1.69,135.39,060711,,,D*75
$GPRMC,220121.000,A,3748.7687,N,12217.7981,W,1.79,116.09,060711,,,D*7C
$GPRMC,220122.000,A,3748.7686,N,12217.7977,W,1.90,111.85,060711,,,D*73
$GPRMC,220123.000,A,3748.7681,N,12217.7967,W,1.57,120.57,060711,,,D*72
$GPRMC,220124.000,A,3748.7676,N,12217.7958,W,1.89,124.55,060711,,,D*74
$GPRMC,220125.000,A,3748.7671,N,12217.7949,W,1.52,115.91,060711,,,D*7E
$GPRMC,220126.000,A,3748.7666,N,12217.7943,W,1.70,126.11,060711,,,D*79
$GPRMC,220127.000,A,3748.7660,N,12217.7936,W,1.86,116.02,060711,,,D*74
$GPRMC,220128.000,A,3748.7655,N,12217.7930,W,1.90,112.75,060711,,,D*78
$GPRMC,220129.000,A,3748.7651,N,12217.7924,W,1.99,117.17,060711,,,D*70
$GPRMC,220130.000,A,3748.7647,N,12217.7920,W,1.91,125.20,060711,,,D*76
$GPRMC,220131.000,A,3748.7643,N,12217.7914,W,1.72,120.39,060711,,,D*74
$GPRMC,220132.000,A,3748.7640,N,12217.7909,W,1.95,122.55,060711,,,D*79
$GPRMC,220133.000,A,3748.7637,N,12217.7902,W,2.50,123.04,060711,,,D*7C
$GPRMC,220134.000,A,3748.7631,N,12217.7893,W,2.35,118.54,060711,,,D*7A
$GPRMC,220135.000,A,3748.7627,N,12217.7885,W,2.48,120.74,060711,,,D*78
$GPRMC,220136.000,A,3748.7625,N,12217.7878,W,1.89,120.85,060711,,,D*7B
$GPRMC,220137.000,A,3748.7622,N,12217.7873,W,1.49,115.17,060711,,,D*77
$GPRMC,220138.000,A,3748.7618,N,12217.7869,W,2.31,113.23,060711,,,D*77
$GPRMC,220139.000,A,3748.7613,N,12217.7862,W,2.59,108.06,060711,,,D*75
$GPRMC,220140.000,A,3748.7607,N,12217.7852,W,2.30,110.76,060711,,,D*7C
$GPRMC,220141.000,A,3748.7602,N,12217.7844,W,2.08,119.32,060711,,,D*7D
$GPRMC,220142.000,A,3748.7597,N,12217.7839,W,1.52,118.18,060711,,,D*7E
$GPRMC,220143.000,A,3748.7594,N,12217.7832,W,2.08,115.55,060711,,,D*7F
$GPRMC,220144.000,A,3748.7590,N,12217.7823,W,1.67,118.91,060711,,,D*73
$GPRMC,220145.000,A,3748.7589,N,12217.7817,W,1.98,124.38,060711,,,D*71
$GPRMC,220146.000,A,3748.7587,N,12217.7811,W,1.71,118.19,060711,,,D*71
$GPRMC,220147.000,A,3748.7584,N,12217.7804,W,1.30,114.44,060711,,,D*76
$GPRMC,220148.000,A,3748.7584,N,12217.7800,W,1.12,103.59,060711,,,D*77
$GPRMC,220149.000,A,3748.7581,N,12217.7792,W,1.84,110.35,060711,,,D*70
$GPRMC,220150.000,A,3748.7578,N,12217.7784,W,2.05,116.09,060711,,,D*7A
$GPRMC,220151.000,A,3748.7575,N,12217.7776,W,1.85,108.77,060711,,,D*76
$GPRMC,220152.000,A,3748.7571,N,12217.7766,W,1.77,112.17,060711,,,D*70
$GPRMC,220153.000,A,3748.7569,N,12217.7760,W,1.64,112.92,060711,,,D*71
$GPRMC,220154.000,A,3748.7566,N,12217.7756,W,1.57,137.62,060711,,,D*74
$GPRMC,220155.000,A,3748.7562,N,12217.7752,W,2.22,138.00,060711,,,D*7F
$GPRMC,220156.000,A,3748.7558,N,12217.7747,W,1.85,139.08,060711,,,D*76
$GPRMC,220157.000,A,3748.7554,N,12217.7743,W,1.82,134.50,060711,,,D*78
$GPRMC,220158.000,A,3748.7550,N,12217.7738,W,1.99,131.85,060711,,,D*78
$GPRMC,220159.000,A,3748.7546,N,12217.7733,W,1.82,124.46,060711,,,D*74
$GPRMC,220200.000,A,3748.7542,N,12217.7727,W,1.85,118.99,060711,,,D*70
$GPRMC,220201.000,A,3748.7538,N,12217.7720,W,1.79,114.60,060711,,,D*72
$GPRMC,220202.000,A,3748.7536,N,12217.7713,W,2.11,112.93,060711,,,D*78
$GPRMC,220203.000,A,3748.7531,N,12217.7703,W,2.04,105.88,060711,,,D*77
$GPRMC,220204.000,A,3748.7523,N,12217.7695,W,1.74,117.64,060711,,,D*78
$GPRMC,220205.000,A,3748.7519,N,12217.7685,W,2.04,100.01,060711,,,D*70
$GPRMC,220206.000,A,3748.7515,N,12217.7679,W,1.89,99.34,060711,,,D*4D
$GPRMC,220207.000,A,3748.7514,N,12217.7674,W,1.72,109.57,060711,,,D*79
$GPRMC,220208.000,A,3748.7512,N,12217.7670,W,1.68,117.73,060711,,,D*76
$GPRMC,220209.000,A,3748.7510,N,12217.7665,W,1.35,110.44,060711,,,D*7A
$GPRMC,220210.000,A,3748.7509,N,12217.7660,W,1.59,125.50,060711,,,D*76
$GPRMC,220211.000,A,3748.7506,N,12217.7655,W,1.41,129.80,060711,,,D*76
$GPRMC,220212.000,A,3748.7503,N,12217.7651,W,1.76,131.01,060711,,,D*70
$GPRMC,220213.000,A,3748.7498,N,12217.7643,W,2.09,129.42,060711,,,D*74
$GPRMC,220214.000,A,3748.7493,N,12217.7635,W,2.02,126.89,060711,,,D*7A
$GPRMC,220215.000,A,3748.7491,N,12217.7628,W,1.68,105.84,060711,,,D*76
$GPRMC,220216.000,A,3748.7490,N,12217.7622,W,1.56,91.52,060711,,,D*44
$GPRMC,220217.000,A,3748.7490,N,12217.7618,W,1.39,92.19,060711,,,D*49
$GPRMC,220218.000,A,3748.7487,N,12217.7611,W,1.83,118.92,060711,,,D*78
$GPRMC,220219.000,A,3748.7487,N,12217.7607,W,1.63,97.94,060711,,,D*40
$GPRMC,220220.000,A,3748.7484,N,12217.7599,W,2.02,114.75,060711,,,D*7C
$GPRMC,220221.000,A,3748.7480,N,12217.7592,W,1.81,116.31,060711,,,D*78
$GPRMC,220222.000,A,3748.7476,N,12217.7585,W,1.52,114.46,060711,,,D*78
$GPRMC,220223.000,A,3748.7473,N,12217.7579,W,1.98,119.41,060711,,,D*73
$GPRMC,220224.000,A,3748.7471,N,12217.7574,W,1.80,112.22,060711,,,D*7C
$GPRMC,220225.000,A,3748.7470,N,12217.7568,W,1.50,112.84,060711,,,D*70
$GPRMC,220226.000,A,3748.7468,N,12217.7563,W,1.48,120.82,060711,,,D*7F
$GPRMC,220227.000,A,3748.7467,N,12217.7559,W,1.33,113.71,060711,,,D*78
$GPRMC,220228.000,A,3748.7466,N,12217.7554,W,1.86,102.66,060711,,,D*73
$GPRMC,220229.000,A,3748.7466,N,12217.7548,W,1.22,103.15,060711,,,D*74
$GPRMC,220230.000,A,3748.7465,N,12217.7544,W,1.10,105.37,060711,,,D*74
$GPRMC,220231.000,A,3748.7464,N,12217.7541,W,1.17,114.10,060711,,,D*73
$GPRMC,220232.000,A,3748.7463,N,12217.7537,W,1.17,102.50,060711,,,D*75
$GPRMC,220233.000,A,3748.7462,N,12217.7532,W,1.09,105.19,060711,,,D*75
$GPRMC,220234.000,A,3748.7461,N,12217.7529,W,0.92,92.02,060711,,,D*4D
$GPRMC,220235.000,A,3748.7460,N,12217.7525,W,1.12,100.69,060711,,,D*7F
$GPRMC,220236.000,A,3748.7459,N,12217.7523,W,0.89,96.08,060711,,,D*4A
$GPRMC,220237.000,A,3748.7456,N,12217.7519,W,0.87,147.57,060711,,,D*74
$GPRMC,220238.000,A,3748.7450,N,12217.7515,W,1.01,150.32,060711,,,D*7B
$GPRMC,220239.000,A,3748.7446,N,12217.7509,W,0.98,130.52,060711,,,D*71
$GPRMC,220240.000,A,3748.7441,N,12217.7499,W,2.20,151.77,060711,,,D*71
$GPRMC,220241.000,A,3748.7431,N,12217.7495,W,2.59,158.28,060711,,,D*76
$GPRMC,220242.000,A,3748.7421,N,12217.7485,W,1.95,121.81,060711,,,D*7B
$GPRMC,220243.000,A,3748.7413,N,12217.7476,W,1.69,131.99,060711,,,D*7C
$GPRMC,220244.000,A,3748.7409,N,12217.7469,W,1.66,129.96,060711,,,D*77
$GPRMC,220245.000,A,3748.7404,N,12217.7463,W,1.69,132.99,060711,,,D*7B
$GPRMC,220246.000,A,3748.7399,N,12217.7455,W,1.75,124.15,060711,,,D*70
$GPRMC,220247.000,A,3748.7395,N,12217.7453,W,1.60,155.69,060711,,,D*72
$GPRMC,220248.000,A,3748.7389,N,12217.7450,W,1.23,126.76,060711,,,A*7B
$GPRMC,220249.000,A,3748.7388,N,12217.7445,W,1.14,78.69,060711,,,A*4F
$GPRMC,220250.000,A,3748.7386,N,12217.7440,W,1.71,123.54,060711,,,A*7E
$GPRMC,220251.000,A,3748.7385,N,12217.7430,W,1.84,112.28,060711,,,A*78
$GPRMC,220252.000,A,3748.7384,N,12217.7425,W,1.11,110.64,060711,,,A*78
$GPRMC,220253.000,A,3748.7382,N,12217.7419,W,1.27,127.54,060711,,,A*72
$GPRMC,220254.000,A,3748.7378,N,12217.7414,W,1.38,129.88,060711,,,A*7C
$GPRMC,220255.000,A,3748.7374,N,12217.7412,W,0.73,139.76,060711,,,A*79
$GPRMC,220256.000,A,3748.7369,N,12217.7407,W,1.32,128.81,060711,,,A*7E
$GPRMC,220257.000,A,3748.7365,N,12217.7400,W,1.51,123.82,060711,,,A*79
$GPRMC,220258.000,A,3748.7361,N,12217.7394,W,1.48,103.36,060711,,,A*7D
$GPRMC,220259.000,A,3748.7359,N,12217.7386,W,0.72,95.60,060711,,,A*41
$GPRMC,220300.000,A,3748.7360,N,12217.7386,W,0.86,133.37,060711,,,A*72
$GPRMC,220301.000,A,3748.7358,N,12217.7377,W,1.33,136.21,060711,,,A*7B
$GPRMC,220302.000,A,3748.7353,N,12217.7365,W,1.07,130.58,060711,,,A*7F
$GPRMC,220303.000,A,3748.7350,N,12217.7364,W,0.55,120.47,060711,,,A*75
$GPRMC,220304.000,A,3748.7351,N,12217.7357,W,1.11,106.27,060711,,,A*70
$GPRMC,220305.000,A,3748.7348,N,12217.7349,W,1.12,103.04,060711,,,A*71
$GPRMC,220306.000,A,3748.7347,N,12217.7340,W,1.29,104.86,060711,,,A*71
$GPRMC,220307.000,A,3748.7344,N,12217.7333,W,1.02,93.49,060711,,,A*42
$GPRMC,220308.000,A,3748.7339,N,12217.7325,W,1.36,109.34,060711,,,A*7F
$GPRMC,220309.000,A,3748.7333,N,12217.7314,W,1.84,121.45,060711,,,A*73
$GPRMC,220310.000,A,3748.7331,N,12217.7311,W,1.48,130.22,060711,,,A*7D
$GPRMC,220311.000,A,3748.7325,N,12217.7302,W,1.93,119.77,060711,,,D*73
$GPRMC,220312.000,A,3748.7319,N,12217.7290,W,2.18,113.85,060711,,,D*72
$GPRMC,220313.000,A,3748.7313,N,12217.7280,W,1.88,120.84,060711,,,D*73
$GPRMC,220314.000,A,3748.7312,N,12217.7276,W,1.50,119.76,060711,,,D*7E
$GPRMC,220315.000,A,3748.7312,N,12217.7274,W,1.10,111.44,060711,,,D*70
$GPRMC,220316.000,A,3748.7310,N,12217.7270,W,1.55,118.53,060711,,,D*7B
$GPRMC,220317.000,A,3748.7308,N,12217.7265,W,1.50,114.22,060711,,,D*78
$GPRMC,220318.000,A,3748.7308,N,12217.7261,W,1.03,108.63,060711,,,D*7D
$GPRMC,220319.000,A,3748.7304,N,12217.7253,W,1.30,101.65,060711,,,D*7E
$GPRMC,220320.000,A,3748.7302,N,12217.7247,W,1.62,119.55,060711,,,D*7A
$GPRMC,220321.000,A,3748.7300,N,12217.7242,W,1.52,106.03,060711,,,D*72
$GPRMC,220322.000,A,3748.7299,N,12217.7237,W,1.52,120.79,060711,,,D*7B
$GPRMC,220323.000,A,3748.7296,N,12217.7232,W,1.84,123.27,060711,,,D*73
$GPRMC,220324.000,A,3748.7291,N,12217.7223,W,1.62,124.78,060711,,,D*76
$GPRMC,220325.000,A,3748.7289,N,12217.7218,W,1.81,121.68,060711,,,D*7F
$GPRMC,220326.000,A,3748.7287,N,12217.7212,W,1.87,115.07,060711,,,D*70
$GPRMC,220327.000,A,3748.7284,N,12217.7206,W,1.62,114.76,060711,,,D*7B
$GPRMC,220328.000,A,3748.7282,N,12217.7201,W,1.62,119.53,060711,,,D*7F
$GPRMC,220329.000,A,3748.7280,N,12217.7196,W,1.73,117.69,060711,,,D*76
$GPRMC,220330.000,A,3748.7277,N,12217.7190,W,1.98,119.89,060711,,,D*75
$GPRMC,220331.000,A,3748.7274,N,12217.7183,W,1.88,115.45,060711,,,D*78
$GPRMC,220332.000,A,3748.7271,N,12217.7175,W,1.31,97.89,060711,,,D*4E
$GPRMC,220333.000,A,3748.7269,N,12217.7168,W,1.53,74.64,060711,,,D*40
$GPRMC,220334.000,A,3748.7270,N,12217.7160,W,2.03,75.52,060711,,,D*45
$GPRMC,220335.000,A,3748.7273,N,12217.7153,W,2.39,51.90,060711,,,D*46
$GPRMC,220336.000,A,3748.7277,N,12217.7146,W,2.35,40.91,060711,,,D*48
$GPRMC,220337.000,A,3748.7281,N,12217.7140,W,2.43,23.84,060711,,,D*46
$GPRMC,220338.000,A,3748.7286,N,12217.7134,W,2.43,25.88,060711,,,D*47
$GPRMC,220339.000,A,3748.7289,N,12217.7126,W,2.52,24.48,060711,,,D*47
$GPRMC,220340.000,A,3748.7298,N,12217.7125,W,2.44,12.19,060711,,,D*4C
$GPRMC,220341.000,A,3748.7304,N,12217.7122,W,2.16,29.21,060711,,,D*4A
$GPRMC,220342.000,A,3748.7306,N,12217.7117,W,1.52,26.78,060711,,,D*4D
$GPRMC,220343.000,A,3748.7309,N,12217.7113,W,1.90,30.23,060711,,,D*40
$GPRMC,220344.000,A,3748.7311,N,12217.7108,W,1.29,32.14,060711,,,D*40
$GPRMC,220345.000,A,3748.7314,N,12217.7103,W,0.72,36.56,060711,,,D*42
$GPRMC,220346.000,A,3748.7316,N,12217.7098,W,1.18,23.21,060711,,,D*49
$GPRMC,220347.000,A,3748.7319,N,12217.7094,W,1.81,29.68,060711,,,D*4C
$GPRMC,220348.000,A,3748.7321,N,12217.7087,W,1.97,31.95,060711,,,D*46
$GPRMC,220349.000,A,3748.7325,N,12217.7081,W,2.00,25.33,060711,,,D*41
$GPRMC,220350.000,A,3748.7332,N,12217.7077,W,2.17,21.30,060711,,,D*47
$GPRMC,220351.000,A,3748.7339,N,12217.7075,W,2.13,27.20,060711,,,D*4C
$GPRMC,220352.000,A,3748.7346,N,12217.7073,W,2.23,19.44,060711,,,D*4D
$GPRMC,220353.000,A,3748.7353,N,12217.7071,W,2.08,21.46,060711,,,D*4A
$GPRMC,220354.000,A,3748.7360,N,12217.7068,W,2.47,23.79,060711,,,D*40
$GPRMC,220355.000,A,3748.7361,N,12217.7063,W,1.80,32.41,060711,,,D*48
$GPRMC,220356.000,A,3748.7366,N,12217.7058,W,1.82,31.48,060711,,,D*4C
$GPRMC,220357.000,A,3748.7373,N,12217.7057,W,2.31,19.74,060711,,,D*48
$GPRMC,220358.000,A,3748.7378,N,12217.7056,W,2.14,17.75,060711,,,D*45
$GPRMC,220359.000,A,3748.7381,N,12217.7055,W,1.96,26.15,060711,,,D*4C
$GPRMC,220400.000,A,3748.7384,N,12217.7052,W,1.69,38.91,060711,,,D*46
$GPRMC,220401.000,A,3748.7387,N,12217.7048,W,1.84,42.63,060711,,,D*4C
$GPRMC,220402.000,A,3748.7395,N,12217.7046,W,2.39,32.04,060711,,,D*41
$GPRMC,220403.000,A,3748.7399,N,12217.7042,W,1.76,41.30,060711,,,D*43
$GPRMC,220404.000,A,3748.7401,N,12217.7037,W,2.17,39.55,060711,,,D*48
$GPRMC,220405.000,A,3748.7404,N,12217.7031,W,2.29,27.45,060711,,,D*49
$GPRMC,220406.000,A,3748.7410,N,12217.7024,W,2.31,23.96,060711,,,D*48
$GPRMC,220407.000,A,3748.7412,N,12217.7015,W,2.33,34.65,060711,,,D*41
$GPRMC,220408.000,A,3748.7418,N,12217.7012,W,2.25,36.26,060711,,,D*41
$GPRMC,220409.000,A,3748.7425,N,12217.7010,W,2.36,37.23,060711,,,D*4A
$GPRMC,220410.000,A,3748.7430,N,12217.7005,W,2.37,32.71,060711,,,D*41
$GPRMC,220411.000,A,3748.7432,N,12217.6997,W,2.09,41.69,060711,,,D*41
$GPRMC,220412.000,A,3748.7434,N,12217.6991,W,2.22,40.46,060711,,,D*47
$GPRMC,220413.000,A,3748.7438,N,12217.6987,W,2.29,27.16,060711,,,D*42
$GPRMC,220414.000,A,3748.7442,N,12217.6983,W,2.19,34.97,060711,,,D*44
$GPRMC,220415.000,A,3748.7449,N,12217.6978,W,2.02,22.73,060711,,,D*4D
$GPRMC,220416.000,A,3748.7454,N,12217.6973,W,2.19,22.94,060711,,,D*4A
$GPRMC,220417.000,A,3748.7456,N,12217.6965,W,2.14,40.77,060711,,,D*4A
$GPRMC,220418.000,A,3748.7460,N,12217.6962,W,2.23,21.02,060711,,,D*46
$GPRMC,220419.000,A,3748.7462,N,12217.6960,W,1.63,19.12,060711,,,D*4A
$GPRMC,220420.000,A,3748.7470,N,12217.6955,W,1.71,18.92,060711,,,D*4F
$GPRMC,220421.000,A,3748.7476,N,12217.6953,W,1.42,27.77,060711,,,D*49
$GPRMC,220422.000,A,3748.7482,N,12217.6948,W,2.21,29.16,060711,,,D*44
$GPRMC,220423.000,A,3748.7487,N,12217.6947,W,2.50,24.96,060711,,,D*4C
$GPRMC,220424.000,A,3748.7494,N,12217.6944,W,2.45,21.63,060711,,,D*41
$GPRMC,220425.000,A,3748.7502,N,12217.6939,W,2.01,35.89,060711,,,D*45
$GPRMC,220426.000,A,3748.7503,N,12217.6929,W,1.88,63.37,060711,,,D*42
$GPRMC,220427.000,A,3748.7499,N,12217.6923,W,1.69,64.95,060711,,,D*4B
$GPRMC,220428.000,A,3748.7502,N,12217.6920,W,1.94,36.36,060711,,,D*48
$GPRMC,220429.000,A,3748.7509,N,12217.6916,W,2.50,23.67,060711,,,D*4C
$GPRMC,220430.000,A,3748.7512,N,12217.6912,W,2.00,21.64,060711,,,D*4E
$GPRMC,220431.000,A,3748.7515,N,12217.6907,W,2.18,26.24,060711,,,D*46
$GPRMC,220432.000,A,3748.7519,N,12217.6900,W,2.14,33.65,060711,,,D*43
$GPRMC,220433.000,A,3748.7524,N,12217.6895,W,2.21,35.17,060711,,,D*44
$GPRMC,220434.000,A,3748.7532,N,12217.6892,W,2.04,42.75,060711,,,D*40
$GPRMC,220435.000,A,3748.7540,N,12217.6892,W,2.23,37.61,060711,,,D*46
$GPRMC,220436.000,A,3748.7547,N,12217.6889,W,2.16,36.96,060711,,,D*47
$GPRMC,220437.000,A,3748.7553,N,12217.6889,W,1.60,41.21,060711,,,D*4D
$GPRMC,220438.000,A,3748.7557,N,12217.6883,W,2.08,31.21,060711,,,D*46
$GPRMC,220439.000,A,3748.7566,N,12217.6881,W,2.06,24.14,060711,,,D*4B
$GPRMC,220440.000,A,3748.7574,N,12217.6876,W,2.26,29.07,060711,,,D*43
$GPRMC,220441.000,A,3748.7578,N,12217.6868,W,2.59,52.21,060711,,,D*41
$GPRMC,220442.000,A,3748.7583,N,12217.6861,W,2.36,32.91,060711,,,D*4B
$GPRMC,220443.000,A,3748.7588,N,12217.6856,W,1.93,29.90,060711,,,D*42
$GPRMC,220444.000,A,3748.7592,N,12217.6852,W,2.12,27.29,060711,,,D*4C
$GPRMC,220445.000,A,3748.7598,N,12217.6849,W,2.04,39.24,060711,,,D*48
$GPRMC,220446.000,A,3748.7604,N,12217.6847,W,2.11,29.58,060711,,,D*4D
$GPRMC,220447.000,A,3748.7605,N,12217.6838,W,2.04,35.84,060711,,,D*4D
$GPRMC,220448.000,A,3748.7608,N,12217.6833,W,1.88,40.51,060711,,,A*4C
$GPRMC,220449.000,A,3748.7615,N,12217.6832,W,2.10,30.71,060711,,,A*47
$GPRMC,220450.000,A,3748.7624,N,12217.6832,W,2.26,30.16,060711,,,A*49
$GPRMC,220451.000,A,3748.7629,N,12217.6830,W,2.22,28.55,060711,,,A*4D
$GPRMC,220452.000,A,3748.7635,N,12217.6828,W,2.33,19.70,060711,,,A*4F
$GPRMC,220453.000,A,3748.7639,N,12217.6825,W,1.68,21.33,060711,,,A*4E
$GPRMC,220454.000,A,3748.7643,N,12217.6824,W,1.72,23.38,060711,,,A*47
$GPRMC,220455.000,A,3748.7649,N,12217.6825,W,1.75,15.22,060711,,,A*44
$GPRMC,220456.000,A,3748.7653,N,12217.6824,W,1.69,24.45,060711,,,A*43
$GPRMC,220457.000,A,3748.7658,N,12217.6824,W,1.89,12.77,060711,,,A*43
$GPRMC,220458.000,A,3748.7663,N,12217.6824,W,1.37,18.07,060711,,,A*4C
$GPRMC,220459.000,A,3748.7668,N,12217.6823,W,1.71,30.61,060711,,,A*49
$GPRMC,220500.000,A,3748.7672,N,12217.6819,W,1.84,36.39,060711,,,A*47
$GPRMC,220501.000,A,3748.7674,N,12217.6814,W,1.68,45.80,060711,,,A*49
$GPRMC,220502.000,A,3748.7677,N,12217.6808,W,2.07,41.70,060711,,,A*45
$GPRMC,220503.000,A,3748.7681,N,12217.6804,W,2.22,24.14,060711,,,A*47
$GPRMC,220504.000,A,3748.7687,N,12217.6802,W,2.07,10.73,060711,,,A*41
$GPRMC,220505.000,A,3748.7692,N,12217.6800,W,2.13,23.76,060711,,,A*46
$GPRMC,220506.000,A,3748.7697,N,12217.6797,W,2.03,22.14,060711,,,A*45
$GPRMC,220507.000,A,3748.7701,N,12217.6794,W,1.71,26.06,060711,,,A*48
$GPRMC,220508.000,A,3748.7705,N,12217.6791,W,2.03,28.49,060711,,,A*45
$GPRMC,220509.000,A,3748.7709,N,12217.6786,W,2.01,31.43,060711,,,A*4E
$GPRMC,220510.000,A,3748.7713,N,12217.6783,W,1.92,26.94,060711,,,A*4D
$GPRMC,220511.000,A,3748.7718,N,12217.6780,W,1.76,33.04,060711,,,A*43
$GPRMC,220512.000,A,3748.7722,N,12217.6777,W,1.98,35.39,060711,,,A*49
$GPRMC,220513.000,A,3748.7725,N,12217.6772,W,1.91,40.19,060711,,,A*43
$GPRMC,220514.000,A,3748.7726,N,12217.6763,W,2.05,32.59,060711,,,A*48
$GPRMC,220515.000,A,3748.7725,N,12217.6752,W,2.08,44.94,060711,,,A*45
$GPRMC,220516.000,A,3748.7732,N,12217.6750,W,2.25,26.99,060711,,,A*44
$GPRMC,220517.000,A,3748.7736,N,12217.6745,W,2.27,30.42,060711,,,A*46
$GPRMC,220518.000,A,3748.7740,N,12217.6741,W,2.04,40.79,060711,,,A*42
$GPRMC,220519.000,A,3748.7746,N,12217.6738,W,2.24,29.78,060711,,,A*47
$GPRMC,220520.000,A,3748.7753,N,12217.6737,W,2.23,20.46,060711,,,A*45
$GPRMC,220521.000,A,3748.7759,N,12217.6736,W,2.23,21.92,060711,,,A*47
$GPRMC,220522.000,A,3748.7765,N,12217.6734,W,1.95,23.85,060711,,,A*43
$GPRMC,220523.000,A,3748.7769,N,12217.6731,W,1.99,41.73,060711,,,A*4A
$GPRMC,220524.000,A,3748.7773,N,12217.6727,W,2.00,25.58,060711,,,A*49
$GPRMC,220525.000,A,3748.7778,N,12217.6723,W,2.05,36.79,060711,,,A*43
$GPRMC,220526.000,A,3748.7782,N,12217.6720,W,2.07,25.82,060711,,,A*42
$GPRMC,220527.000,A,3748.7788,N,12217.6716,W,2.25,22.34,060711,,,A*46
$GPRMC,220528.000,A,3748.7791,N,12217.6711,W,2.16,30.87,060711,,,A*4D
$GPRMC,220529.000,A,3748.7797,N,12217.6707,W,1.99,30.89,060711,,,A*47
$GPRMC,220530.000,A,3748.7801,N,12217.6704,W,1.81,24.17,060711,,,A*47
$GPRMC,220531.000,A,3748.7805,N,12217.6701,W,2.13,18.31,060711,,,A*44
$GPRMC,220532.000,A,3748.7810,N,12217.6699,W,2.16,20.76,060711,,,A*4E
$GPRMC,220533.000,A,3748.7815,N,12217.6697,W,2.07,21.78,060711,,,A*4B
$GPRMC,220534.000,A,3748.7820,N,12217.6693,W,2.10,30.45,060711,,,A*46
$GPRMC,220535.000,A,3748.7824,N,12217.6690,W,2.11,30.13,060711,,,A*42
$GPRMC,220536.000,A,3748.7829,N,12217.6687,W,2.22,25.28,060711,,,A*46
$GPRMC,220537.000,A,3748.7834,N,12217.6684,W,1.75,30.60,060711,,,A*41
$GPRMC,220538.000,A,3748.7837,N,12217.6685,W,1.63,21.43,060711,,,A*4A
$GPRMC,220539.000,A,3748.7841,N,12217.6682,W,2.11,12.82,060711,,,A*46
$GPRMC,220540.000,A,3748.7847,N,12217.6679,W,2.36,12.51,060711,,,A*41
$GPRMC,220541.000,A,3748.7850,N,12217.6678,W,1.74,20.42,060711,,,A*41
$GPRMC,220542.000,A,3748.7854,N,12217.6675,W,1.88,25.33,060711,,,A*4B
$GPRMC,220543.000,A,3748.7858,N,12217.6672,W,1.91,33.91,060711,,,A*46
$GPRMC,220544.000,A,3748.7861,N,12217.6666,W,1.91,35.42,060711,,,A*46
$GPRMC,220545.000,A,3748.7865,N,12217.6662,W,2.00,29.80,060711,,,A*4F
$GPRMC,220546.000,A,3748.7869,N,12217.6657,W,1.86,19.10,060711,,,A*41
$GPRMC,220547.000,A,3748.7874,N,12217.6653,W,2.07,21.27,060711,,,A*4D
$GPRMC,220548.000,A,3748.7880,N,12217.6650,W,2.01,22.52,060711,,,A*4D
$GPRMC,220549.000,A,3748.7887,N,12217.6647,W,2.21,19.35,060711,,,A*46
$GPRMC,220550.000,A,3748.7895,N,12217.6644,W,2.01,29.06,060711,,,A*4F
$GPRMC,220551.000,A,3748.7896,N,12217.6636,W,1.72,38.39,060711,,,A*43
$GPRMC,220552.000,A,3748.7901,N,12217.6632,W,1.94,23.29,060711,,,A*48
$GPRMC,220553.000,A,3748.7908,N,12217.6629,W,2.28,29.96,060711,,,A*40
$GPRMC,220554.000,A,3748.7913,N,12217.6626,W,1.93,23.68,060711,,,A*4A
$GPRMC,220555.000,A,3748.7917,N,12217.6622,W,1.95,31.08,060711,,,A*48
$GPRMC,220556.000,A,3748.7923,N,12217.6620,W,1.81,29.43,060711,,,A*4D
$GPRMC,220557.000,A,3748.7929,N,12217.6618,W,1.99,25.23,060711,,,A*4E
$GPRMC,220558.000,A,3748.7934,N,12217.6615,W,2.05,27.62,060711,,,D*44
$GPRMC,220559.000,A,3748.7940,N,12217.6611,W,1.96,30.13,060711,,,D*4B
$GPRMC,220600.000,A,3748.7943,N,12217.6608,W,1.62,48.71,060711,,,D*4F
$GPRMC,220601.000,A,3748.7946,N,12217.6603,W,1.42,38.80,060711,,,D*4B
$GPRMC,220602.000,A,3748.7952,N,12217.6601,W,1.85,12.68,060711,,,D*4A
$GPRMC,220603.000,A,3748.7959,N,12217.6600,W,1.45,31.27,060711,,,D*47
$GPRMC,220604.000,A,3748.7961,N,12217.6597,W,1.38,33.25,060711,,,D*4C
$GPRMC,220605.000,A,3748.7964,N,12217.6593,W,1.54,19.66,060711,,,D*49
$GPRMC,220606.000,A,3748.7964,N,12217.6589,W,1.16,42.51,060711,,,D*4D
$GPRMC,220607.000,A,3748.7964,N,12217.6584,W,1.72,89.31,060711,,,D*42
$GPRMC,220608.000,A,3748.7965,N,12217.6577,W,1.69,58.62,060711,,,D*40
$GPRMC,220609.000,A,3748.7968,N,12217.6572,W,1.84,50.88,060711,,,D*46
$GPRMC,220609.000,A,3748.7971,N,12217.6565,W,1.83,65.77,060711,,,D*49
$GPRMC,220610.000,A,3748.7972,N,12217.6556,W,1.88,64.56,060711,,,D*4B
$GPRMC,220611.000,A,3748.7977,N,12217.6552,W,1.90,51.35,060711,,,D*41
$GPRMC,220612.000,A,3748.7980,N,12217.6547,W,2.06,35.50,060711,,,D*43
$GPRMC,220613.000,A,3748.7985,N,12217.6542,W,2.21,35.91,060711,,,D*4A
$GPRMC,220614.000,A,3748.7992,N,12217.6539,W,2.35,35.07,060711,,,D*4D
$GPRMC,220615.000,A,3748.7997,N,12217.6536,W,1.84,31.70,060711,,,D*4B
$GPRMC,220616.000,A,3748.8002,N,12217.6533,W,1.46,29.92,060711,,,D*4C
$GPRMC,220617.000,A,3748.8008,N,12217.6532,W,2.03,33.75,060711,,,D*46
$GPRMC,220618.000,A,3748.8015,N,12217.6530,W,2.03,34.50,060711,,,D*47
$GPRMC,220619.000,A,3748.8021,N,12217.6528,W,1.70,24.61,060711,,,D*4C
$GPRMC,220620.000,A,3748.8026,N,12217.6527,W,1.34,15.82,060711,,,D*41
$GPRMC,220621.000,A,3748.8031,N,12217.6527,W,1.36,13.18,060711,,,D*41
$GPRMC,220622.000,A,3748.8035,N,12217.6527,W,1.13,15.95,060711,,,D*42
$GPRMC,220623.000,A,3748.8039,N,12217.6526,W,1.14,29.09,060711,,,D*43
$GPRMC,220624.000,A,3748.8043,N,12217.6523,W,1.82,41.88,060711,,,D*44
$GPRMC,220625.000,A,3748.8045,N,12217.6516,W,1.90,51.89,060711,,,D*46
$GPRMC,220626.000,A,3748.8045,N,12217.6510,W,1.63,77.78,060711,,,D*45
$GPRMC,220627.000,A,3748.8048,N,12217.6507,W,1.19,69.72,060711,,,D*47
$GPRMC,220628.000,A,3748.8051,N,12217.6505,W,0.96,46.42,060711,,,D*4A
$GPRMC,220629.000,A,3748.8050,N,12217.6501,W,0.46,57.52,060711,,,D*42
$GPRMC,220630.000,A,3748.8048,N,12217.6495,W,0.79,60.11,060711,,,D*40
$GPRMC,220631.000,A,3748.8048,N,12217.6492,W,0.62,27.99,060711,,,D*4F
$GPRMC,220632.000,A,3748.8050,N,12217.6491,W,0.35,60.31,060711,,,D*45
$GPRMC,220633.000,A,3748.8049,N,12217.6488,W,0.58,43.44,060711,,,D*4C
$GPRMC,220634.000,A,3748.8050,N,12217.6487,W,0.68,61.64,060711,,,D*4D
$GPRMC,220635.000,A,3748.8052,N,12217.6486,W,0.91,56.30,060711,,,D*4C
$GPRMC,220636.000,A,3748.8049,N,12217.6482,W,0.65,68.03,060711,,,D*47
$GPRMC,220637.000,A,3748.8046,N,12217.6478,W,0.50,99.44,060711,,,D*47
$GPRMC,220638.000,A,3748.8044,N,12217.6475,W,0.73,119.97,060711,,,D*71
$GPRMC,220639.000,A,3748.8042,N,12217.6473,W,0.83,116.82,060711,,,D*74
$GPRMC,220640.000,A,3748.8041,N,12217.6470,W,0.70,93.90,060711,,,D*49
$GPRMC,220641.000,A,3748.8040,N,12217.6469,W,0.62,93.31,060711,,,D*49
$GPRMC,220642.000,A,3748.8041,N,12217.6467,W,0.68,88.94,060711,,,D*4A
$GPRMC,220643.000,A,3748.8039,N,12217.6461,W,1.44,92.78,060711,,,D*44
$GPRMC,220644.000,A,3748.8038,N,12217.6453,W,1.82,96.69,060711,,,D*4D
$GPRMC,220645.000,A,3748.8036,N,12217.6452,W,1.92,96.05,060711,,,D*48
$GPRMC,220646.000,A,3748.8035,N,12217.6448,W,1.77,96.94,060711,,,D*40
$GPRMC,220647.000,A,3748.8033,N,12217.6445,W,1.32,114.40,060711,,,D*79
$GPRMC,220648.000,A,3748.8029,N,12217.6446,W,0.44,95.32,060711,,,D*43
$GPRMC,220649.000,A,3748.8029,N,12217.6444,W,0.37,103.90,060711,,,D*72
$GPRMC,220650.000,A,3748.8027,N,12217.6442,W,0.80,132.70,060711,,,D*72
$GPRMC,220651.000,A,3748.8026,N,12217.6439,W,0.46,137.57,060711,,,D*74
$GPRMC,220652.000,A,3748.8025,N,12217.6441,W,0.28,44.14,060711,,,D*41
$GPRMC,220653.000,A,3748.8026,N,12217.6443,W,1.19,325.53,060711,,,D*75
$GPRMC,220654.000,A,3748.8028,N,12217.6455,W,1.45,310.18,060711,,,D*7B
$GPRMC,220655.000,A,3748.8030,N,12217.6459,W,0.59,352.15,060711,,,D*78
$GPRMC,220656.000,A,3748.8032,N,12217.6456,W,1.09,341.90,060711,,,D*7D
$GPRMC,220657.000,A,3748.8030,N,12217.6461,W,1.17,264.95,060711,,,D*76
$GPRMC,220658.000,A,3748.8033,N,12217.6466,W,1.74,304.97,060711,,,D*7D
$GPRMC,220659.000,A,3748.8037,N,12217.6471,W,2.02,326.26,060711,,,D*76
$GPRMC,220700.000,A,3748.8040,N,12217.6486,W,2.11,330.25,060711,,,D*75
$GPRMC,220701.000,A,3748.8058,N,12217.6482,W,3.18,7.01,060711,,,D*70
$GPRMC,220702.000,A,3748.8067,N,12217.6477,W,3.26,18.14,060711,,,D*42
$GPRMC,220703.000,A,3748.8071,N,12217.6475,W,2.70,26.54,060711,,,D*4D
$GPRMC,220704.000,A,3748.8078,N,12217.6466,W,3.16,40.53,060711,,,D*47
$GPRMC,220705.000,A,3748.8084,N,12217.6452,W,3.59,43.03,060711,,,D*4F
$GPRMC,220706.000,A,3748.8087,N,12217.6435,W,3.76,52.18,060711,,,D*49
$GPRMC,220707.000,A,3748.8085,N,12217.6428,W,2.37,57.77,060711,,,D*4E
$GPRMC,220708.000,A,3748.8086,N,12217.6425,W,1.83,41.84,060711,,,D*48
$GPRMC,220709.000,A,3748.8097,N,12217.6416,W,2.36,36.72,060711,,,A*48
$GPRMC,220710.000,A,3748.8109,N,12217.6405,W,3.53,25.19,060711,,,A*49
$GPRMC,220711.000,A,3748.8121,N,12217.6397,W,3.19,14.92,060711,,,A*41
$GPRMC,220712.000,A,3748.8127,N,12217.6401,W,2.77,355.98,060711,,,A*79
$GPRMC,220713.000,A,3748.8137,N,12217.6410,W,2.41,337.45,060711,,,A*78
$GPRMC,220714.000,A,3748.8142,N,12217.6412,W,2.09,327.96,060711,,,A*7C
$GPRMC,220715.000,A,3748.8151,N,12217.6415,W,2.15,331.42,060711,,,A*7B
$GPRMC,220716.000,A,3748.8156,N,12217.6417,W,1.96,344.08,060711,,,A*79
$GPRMC,220717.000,A,3748.8164,N,12217.6410,W,1.76,32.40,060711,,,A*4E
$GPRMC,220718.000,A,3748.8176,N,12217.6400,W,3.22,29.76,060711,,,A*4F
$GPRMC,220719.000,A,3748.8193,N,12217.6388,W,2.82,30.59,060711,,,A*4C
$GPRMC,220720.000,A,3748.8204,N,12217.6384,W,1.97,22.27,060711,,,A*4A
$GPRMC,220721.000,A,3748.8228,N,12217.6369,W,3.58,21.36,060711,,,A*44
$GPRMC,220722.000,A,3748.8263,N,12217.6365,W,3.89,13.26,060711,,,A*48
$GPRMC,220723.000,A,3748.8282,N,12217.6383,W,3.32,20.75,060711,,,A*48
$GPRMC,220724.000,A,3748.8298,N,12217.6385,W,3.50,27.64,060711,,,A*41
$GPRMC,220725.000,A,3748.8300,N,12217.6386,W,1.91,40.12,060711,,,A*4C
$GPRMC,220726.000,A,3748.8273,N,12217.6391,W,2.06,28.99,060711,,,A*4C
$GPRMC,220727.000,A,3748.8277,N,12217.6388,W,2.50,12.24,060711,,,A*4D
$GPRMC,220728.000,A,3748.8261,N,12217.6395,W,2.29,19.89,060711,,,A*4B
$GPRMC,220729.000,A,3748.8267,N,12217.6394,W,1.78,56.62,060711,,,A*44
$GPRMC,220730.000,A,3748.8269,N,12217.6394,W,1.22,82.40,060711,,,A*44
$GPRMC,220731.000,A,3748.8269,N,12217.6389,W,0.91,69.13,060711,,,A*43
$GPRMC,220732.000,A,3748.8272,N,12217.6385,W,1.39,58.82,060711,,,A*4F
$GPRMC,220733.000,A,3748.8276,N,12217.6384,W,1.34,58.36,060711,,,A*49
$GPRMC,220734.000,A,3748.8281,N,12217.6385,W,1.09,33.42,060711,,,A*47
$GPRMC,220735.000,A,3748.8284,N,12217.6379,W,0.72,63.02,060711,,,A*4C
$GPRMC,220736.000,A,3748.8293,N,12217.6381,W,0.82,196.75,060711,,,A*7A
$GPRMC,220737.000,A,3748.8293,N,12217.6385,W,0.43,188.12,060711,,,A*7C
$GPRMC,220738.000,A,3748.8295,N,12217.6385,W,0.28,76.62,060711,,,A*4F
$GPRMC,220739.000,A,3748.8290,N,12217.6388,W,0.74,118.36,060711,,,A*77
$GPRMC,220740.000,A,3748.8283,N,12217.6390,W,0.73,163.47,060711,,,A*7F
$GPRMC,220741.000,A,3748.8276,N,12217.6392,W,1.33,170.33,060711,,,A*72
$GPRMC,220742.000,A,3748.8271,N,12217.6393,W,1.23,154.49,060711,,,A*7D
$GPRMC,220743.000,A,3748.8269,N,12217.6393,W,0.85,131.55,060711,,,A*76
$GPRMC,220744.000,A,3748.8267,N,12217.6393,W,0.34,35.94,060711,,,A*4D
$GPRMC,220745.000,A,3748.8258,N,12217.6395,W,0.47,324.23,060711,,,A*7D
$GPRMC,220746.000,A,3748.8249,N,12217.6398,W,0.83,330.33,060711,,,A*7F
$GPRMC,220747.000,A,3748.8250,N,12217.6397,W,0.59,298.96,060711,,,A*72
$GPRMC,220748.000,A,3748.8255,N,12217.6397,W,1.24,6.22,060711,,,A*79
$GPRMC,220749.000,A,3748.8263,N,12217.6393,W,2.16,19.96,060711,,,A*4A
$GPRMC,220750.000,A,3748.8267,N,12217.6397,W,1.29,25.44,060711,,,A*4D
$GPRMC,220751.000,A,3748.8268,N,12217.6396,W,1.05,34.46,060711,,,A*4E
$GPRMC,220752.000,A,3748.8276,N,12217.6391,W,0.87,48.05,060711,,,A*42
$GPRMC,220753.000,A,3748.8272,N,12217.6393,W,0.80,165.29,060711,,,A*72
$GPRMC,220754.000,A,3748.8278,N,12217.6389,W,0.28,189.47,060711,,,A*7C
$GPRMC,220755.000,A,3748.8287,N,12217.6384,W,0.09,316.96,060711,,,A*7B
$GPRMC,220756.000,A,3748.8295,N,12217.6375,W,0.60,96.90,060711,,,A*47
$GPRMC,220757.000,A,3748.8294,N,12217.6375,W,0.23,127.47,060711,,,A*71
$GPRMC,220758.000,A,3748.8293,N,12217.6373,W,0.59,25.60,060711,,,A*44
$GPRMC,220759.000,A,3748.8298,N,12217.6369,W,1.37,26.99,060711,,,A*49
$GPRMC,220800.000,A,3748.8300,N,12217.6365,W,1.57,53.26,060711,,,A*46
$GPRMC,220801.000,A,3748.8298,N,12217.6357,W,1.55,77.64,060711,,,A*44
$GPRMC,220802.000,A,3748.8310,N,12217.6346,W,2.04,47.73,060711,,,A*44
$GPRMC,220803.000,A,3748.8323,N,12217.6337,W,2.47,42.55,060711,,,A*45
$GPRMC,220804.000,A,3748.8325,N,12217.6334,W,1.42,19.29,060711,,,A*44
$GPRMC,220805.000,A,3748.8336,N,12217.6330,W,0.99,353.62,060711,,,A*76
$GPRMC,220806.000,A,3748.8352,N,12217.6327,W,1.69,355.95,060711,,,A*71
$GPRMC,220807.000,A,3748.8351,N,12217.6331,W,1.52,12.92,060711,,,A*4B
$GPRMC,220808.000,A,3748.8362,N,12217.6327,W,2.06,20.61,060711,,,A*4C
$GPRMC,220809.000,A,3748.8385,N,12217.6321,W,2.51,17.85,060711,,,A*4E
$GPRMC,220810.000,A,3748.8388,N,12217.6319,W,2.14,19.59,060711,,,A*4E
$GPRMC,220811.000,A,3748.8420,N,12217.6311,W,2.82,20.59,060711,,,A*47
$GPRMC,220812.000,A,3748.8434,N,12217.6301,W,2.91,28.19,060711,,,A*4E
$GPRMC,220813.000,A,3748.8451,N,12217.6292,W,2.51,28.32,060711,,,A*42
$GPRMC,220814.000,A,3748.8454,N,12217.6286,W,1.19,27.41,060711,,,A*41
$GPRMC,220815.000,A,3748.8472,N,12217.6273,W,1.82,28.97,060711,,,A*48
$GPRMC,220816.000,A,3748.8487,N,12217.6262,W,2.73,31.41,060711,,,A*4F
$GPRMC,220817.000,A,3748.8476,N,12217.6259,W,2.44,29.75,060711,,,A*42
$GPRMC,220818.000,A,3748.8476,N,12217.6256,W,2.07,15.06,060711,,,A*4E
$GPRMC,220819.000,A,3748.8462,N,12217.6254,W,2.29,28.42,060711,,,A*4A
$GPRMC,220820.000,A,3748.8458,N,12217.6249,W,3.13,33.56,060711,,,A*42
$GPRMC,220821.000,A,3748.8468,N,12217.6234,W,3.58,30.66,060711,,,A*45
$GPRMC,220822.000,A,3748.8491,N,12217.6213,W,5.09,31.95,060711,,,A*4A
$GPRMC,220823.000,A,3748.8501,N,12217.6202,W,3.84,31.89,060711,,,A*4D
$GPRMC,220824.000,A,3748.8504,N,12217.6194,W,2.72,30.99,060711,,,A*4B
$GPRMC,220825.000,A,3748.8510,N,12217.6184,W,2.58,36.40,060711,,,A*44
$GPRMC,220826.000,A,3748.8508,N,12217.6175,W,1.69,61.95,060711,,,A*4B
$GPRMC,220827.000,A,3748.8491,N,12217.6169,W,1.40,106.34,060711,,,A*76
$GPRMC,220828.000,A,3748.8477,N,12217.6164,W,1.59,128.26,060711,,,A*7B
$GPRMC,220829.000,A,3748.8458,N,12217.6158,W,1.98,142.51,060711,,,A*79
$GPRMC,220830.000,A,3748.8437,N,12217.6152,W,2.20,144.51,060711,,,A*74
$GPRMC,220831.000,A,3748.8422,N,12217.6147,W,1.77,140.54,060711,,,A*75
$GPRMC,220832.000,A,3748.8410,N,12217.6143,W,1.43,122.10,060711,,,A*70
$GPRMC,220833.000,A,3748.8400,N,12217.6138,W,1.14,124.39,060711,,,A*73
$GPRMC,220834.000,A,3748.8388,N,12217.6131,W,1.84,120.41,060711,,,A*78
$GPRMC,220835.000,A,3748.8378,N,12217.6124,W,1.50,124.73,060711,,,A*7E
$GPRMC,220836.000,A,3748.8367,N,12217.6118,W,1.67,134.55,060711,,,A*7D
$GPRMC,220837.000,A,3748.8357,N,12217.6111,W,2.31,142.81,060711,,,A*7E
$GPRMC,220838.000,A,3748.8344,N,12217.6105,W,2.88,153.08,060711,,,A*75
$GPRMC,220839.000,A,3748.8332,N,12217.6102,W,2.83,159.29,060711,,,A*70
$GPRMC,220840.000,A,3748.8323,N,12217.6100,W,1.87,148.92,060711,,,A*7B
$GPRMC,220841.000,A,3748.8317,N,12217.6096,W,1.60,127.38,060711,,,A*73
$GPRMC,220842.000,A,3748.8311,N,12217.6092,W,1.67,119.38,060711,,,A*78
$GPRMC,220843.000,A,3748.8302,N,12217.6089,W,1.72,128.90,060711,,,A*75
$GPRMC,220844.000,A,3748.8297,N,12217.6084,W,1.75,129.97,060711,,,A*73
$GPRMC,220845.000,A,3748.8308,N,12217.6071,W,1.75,106.32,060711,,,A*7D
$GPRMC,220846.000,A,3748.8301,N,12217.6068,W,1.50,115.23,060711,,,A*7A
$GPRMC,220847.000,A,3748.8297,N,12217.6064,W,1.51,135.74,060711,,,A*78
$GPRMC,220848.000,A,3748.8294,N,12217.6058,W,1.80,127.69,060711,,,A*78
$GPRMC,220849.000,A,3748.8293,N,12217.6050,W,2.08,134.63,060711,,,A*7D
$GPRMC,220850.000,A,3748.8291,N,12217.6044,W,1.79,118.50,060711,,,A*79
$GPRMC,220851.000,A,3748.8291,N,12217.6040,W,1.22,108.76,060711,,,A*77
$GPRMC,220852.000,A,3748.8288,N,12217.6034,W,1.58,128.13,060711,,,A*73
$GPRMC,220853.000,A,3748.8282,N,12217.6029,W,1.84,140.06,060711,,,A*7F
$GPRMC,220854.000,A,3748.8278,N,12217.6024,W,2.01,140.63,060711,,,A*7D
$GPRMC,220855.000,A,3748.8274,N,12217.6017,W,2.06,122.76,060711,,,A*77
$GPRMC,220856.000,A,3748.8270,N,12217.6008,W,1.58,117.07,060711,,,A*76
$GPRMC,220857.000,A,3748.8265,N,12217.5998,W,1.61,120.04,060711,,,A*7D
$GPRMC,220858.000,A,3748.8262,N,12217.5991,W,1.69,117.52,060711,,,A*73
$GPRMC,220859.000,A,3748.8262,N,12217.5982,W,1.69,105.76,060711,,,A*75
$GPRMC,220900.000,A,3748.8260,N,12217.5975,W,2.21,117.24,060711,,,A*79
$GPRMC,220901.000,A,3748.8256,N,12217.5969,W,1.97,124.19,060711,,,A*70
$GPRMC,220902.000,A,3748.8252,N,12217.5963,W,1.74,116.11,060711,,,A*79
$GPRMC,220903.000,A,3748.8248,N,12217.5958,W,1.67,114.06,060711,,,A*7D
$GPRMC,220904.000,A,3748.8245,N,12217.5952,W,2.15,116.37,060711,,,D*7E
$GPRMC,220905.000,A,3748.8241,N,12217.5945,W,2.18,121.11,060711,,,D*70
$GPRMC,220906.000,A,3748.8238,N,12217.5938,W,1.89,112.52,060711,,,D*7B
$GPRMC,220907.000,A,3748.8235,N,12217.5932,W,1.74,118.36,060711,,,D*77
$GPRMC,220908.000,A,3748.8232,N,12217.5927,W,1.74,117.50,060711,,,D*74
$GPRMC,220909.000,A,3748.8229,N,12217.5921,W,1.29,120.30,060711,,,D*73
$GPRMC,220910.000,A,3748.8227,N,12217.5915,W,2.19,116.80,060711,,,D*7C
$GPRMC,220911.000,A,3748.8222,N,12217.5904,W,2.39,118.64,060711,,,D*7E
$GPRMC,220912.000,A,3748.8217,N,12217.5893,W,2.04,112.99,060711,,,D*72
$GPRMC,220913.000,A,3748.8213,N,12217.5882,W,2.10,113.30,060711,,,D*70
$GPRMC,220914.000,A,3748.8209,N,12217.5873,W,2.51,119.54,060711,,,D*7F
$GPRMC,220915.000,A,3748.8207,N,12217.5866,W,2.36,115.85,060711,,,D*75
$GPRMC,220916.000,A,3748.8204,N,12217.5860,W,1.76,118.48,060711,,,D*78
$GPRMC,220917.000,A,3748.8199,N,12217.5853,W,2.22,121.53,060711,,,D*7C
$GPRMC,220918.000,A,3748.8195,N,12217.5843,W,1.92,115.41,060711,,,D*72
$GPRMC,220919.000,A,3748.8191,N,12217.5836,W,1.71,109.51,060711,,,D*74
$GPRMC,220920.000,A,3748.8189,N,12217.5829,W,1.62,107.51,060711,,,D*75
$GPRMC,220921.000,A,3748.8187,N,12217.5824,W,1.43,99.64,060711,,,D*44
$GPRMC,220922.000,A,3748.8186,N,12217.5818,W,1.82,106.97,060711,,,D*7F
$GPRMC,220923.000,A,3748.8183,N,12217.5811,W,2.20,114.21,060711,,,D*77
$GPRMC,220924.000,A,3748.8179,N,12217.5802,W,2.00,115.63,060711,,,D*72
$GPRMC,220925.000,A,3748.8175,N,12217.5794,W,1.74,122.83,060711,,,D*75
$GPRMC,220926.000,A,3748.8174,N,12217.5789,W,1.59,111.46,060711,,,D*7D
$GPRMC,220927.000,A,3748.8173,N,12217.5782,W,1.42,97.10,060711,,,D*46
$GPRMC,220928.000,A,3748.8170,N,12217.5779,W,0.94,92.58,060711,,,D*4D
$GPRMC,220929.000,A,3748.8166,N,12217.5770,W,1.15,111.97,060711,,,D*73
$GPRMC,220930.000,A,3748.8163,N,12217.5766,W,0.74,111.12,060711,,,D*72
$GPRMC,220931.000,A,3748.8161,N,12217.5755,W,0.73,110.17,060711,,,D*72
$GPRMC,220932.000,A,3748.8157,N,12217.5748,W,1.25,100.01,060711,,,D*7C
$GPRMC,220933.000,A,3748.8156,N,12217.5742,W,0.75,123.44,060711,,,D*72
$GPRMC,220934.000,A,3748.8155,N,12217.5740,W,0.97,134.17,060711,,,D*78
$GPRMC,220935.000,A,3748.8150,N,12217.5737,W,0.79,99.21,060711,,,D*4F
$GPRMC,220936.000,A,3748.8149,N,12217.5735,W,0.07,20.20,060711,,,D*4C
$GPRMC,220937.000,A,3748.8147,N,12217.5735,W,0.10,297.89,060711,,,D*78
$GPRMC,220938.000,A,3748.8149,N,12217.5736,W,0.34,330.13,060711,,,D*73
$GPRMC,220939.000,A,3748.8148,N,12217.5737,W,0.20,317.74,060711,,,D*73
$GPRMC,220940.000,A,3748.8144,N,12217.5731,W,0.14,151.77,060711,,,A*76
$GPRMC,220941.000,A,3748.8141,N,12217.5728,W,0.37,147.36,060711,,,A*79
$GPRMC,220942.000,A,3748.8141,N,12217.5729,W,0.20,310.48,060711,,,A*74
$GPRMC,220943.000,A,3748.8141,N,12217.5731,W,0.14,314.81,060711,,,A*7A
$GPRMC,220944.000,A,3748.8143,N,12217.5731,W,0.58,22.16,060711,,,A*4F
$GPRMC,220945.000,A,3748.8145,N,12217.5732,W,0.49,72.25,060711,,,A*4E
$GPRMC,220946.000,A,3748.8147,N,12217.5732,W,0.12,234.99,060711,,,A*76
$GPRMC,220947.000,A,3748.8148,N,12217.5734,W,0.15,54.38,060711,,,A*46
$GPRMC,220948.000,A,3748.8149,N,12217.5735,W,0.17,109.66,060711,,,A*79
$GPRMC,220949.000,A,3748.8150,N,12217.5736,W,0.11,52.61,060711,,,A*4D
$GPRMC,220950.000,A,3748.8151,N,12217.5737,W,0.06,78.31,060711,,,A*4E
$GPRMC,220951.000,A,3748.8152,N,12217.5739,W,0.15,0.05,060711,,,A*78
$GPRMC,220952.000,A,3748.8151,N,12217.5740,W,0.23,238.42,060711,,,A*79
$GPRMC,220953.000,A,3748.8148,N,12217.5738,W,0.53,169.47,060711,,,A*7A
$GPRMC,220954.000,A,3748.8145,N,12217.5737,W,0.59,194.82,060711,,,A*7E
$GPRMC,220955.000,A,3748.8144,N,12217.5737,W,0.32,132.27,060711,,,A*70
$GPRMC,220956.000,A,3748.8142,N,12217.5736,W,0.26,142.47,060711,,,A*70
$GPRMC,220957.000,A,3748.8142,N,12217.5737,W,0.12,251.01,060711,,,A*74
$GPRMC,220958.000,A,3748.8141,N,12217.5738,W,0.38,305.85,060711,,,A*73
$GPRMC,220959.000,A,3748.8141,N,12217.5739,W,0.47,309.12,060711,,,A*79
$GPRMC,221000.000,A,3748.8140,N,12217.5739,W,0.04,184.89,060711,,,A*7E
$GPRMC,221001.000,A,3748.8140,N,12217.5738,W,0.04,156.26,060711,,,A*74
$GPRMC,221002.000,A,3748.8140,N,12217.5738,W,0.20,318.15,060711,,,A*79
$GPRMC,221003.000,A,3748.8136,N,12217.5735,W,0.19,157.49,060711,,,A*7E
$GPRMC,221004.000,A,3748.8134,N,12217.5733,W,0.14,157.44,060711,,,A*7D
$GPRMC,221005.000,A,3748.8130,N,12217.5725,W,0.22,130.87,060711,,,A*74
$GPRMC,221006.000,A,3748.8128,N,12217.5723,W,0.43,76.67,060711,,,A*42
$GPRMC,221007.000,A,3748.8130,N,12217.5721,W,0.70,58.30,060711,,,A*46
$GPRMC,221008.000,A,3748.8132,N,12217.5719,W,0.46,80.25,060711,,,A*44
$GPRMC,221009.000,A,3748.8132,N,12217.5717,W,0.63,79.17,060711,,,A*4B
$GPRMC,221010.000,A,3748.8132,N,12217.5715,W,0.49,123.73,060711,,,A*75
$GPRMC,221011.000,A,3748.8131,N,12217.5715,W,0.69,117.51,060711,,,A*72
$GPRMC,221012.000,A,3748.8130,N,12217.5712,W,1.48,131.57,060711,,,A*77
$GPRMC,221013.000,A,3748.8124,N,12217.5709,W,2.37,133.77,060711,,,A*72
