$ADVER,3080,2.3
$GPRMC,174622.645,A,3748.8122,N,12217.8630,W,0.47,162.47,271011,,,A*75
$GPGGA,174623.645,3748.8122,N,12217.8630,W,1,03,3.5,25.1,M,-25.1,M,,0000*5F
$GPGSA,A,2,09,12,17,,,,,,,,,,3.7,3.5,1.0*3C
$GPGSV,3,1,11,09,59,280,43,17,37,049,41,12,29,305,37,04,59,115,36*7B
$GPGSV,3,2,11,02,39,179,26,28,17,101,,15,07,229,,10,02,131,*7D
$GPGSV,3,3,11,20,00,043,,25,00,296,,14,00,330,*43
$GPRMC,174623.645,A,3748.8122,N,12217.8630,W,0.39,167.51,271011,,,A*7F
$GPVTG,167.51,T,,M,0.39,N,0.7,K,N*0B
$GPGGA,174624.645,3748.8123,N,12217.8630,W,1,03,3.5,25.1,M,-25.1,M,,0000*59
$GPGSA,A,2,09,12,17,,,,,,,,,,3.7,3.5,1.0*3C
$GPRMC,174624.645,A,3748.8123,N,12217.8630,W,0.47,160.71,271011,,,A*75
$GPVTG,160.71,T,,M,0.47,N,0.9,K,N*09
$GPGGA,174625.645,3748.8124,N,12217.8630,W,1,03,3.5,25.1,M,-25.1,M,,0000*5F
$GPGSA,A,2,09,12,17,,,,,,,,,,3.7,3.5,1.0*3C
$GPRMC,174625.645,A,3748.8124,N,12217.8630,W,0.37,163.39,271011,,,A*7B
$GPVTG,163.39,T,,M,0.37,N,0.7,K,N*0F
$GPGGA,174626.645,3748.8125,N,12217.8631,W,1,03,3.5,25.1,M,-25.1,M,,0000*5C
$GPGSA,A,2,09,12,17,,,,,,,,,,3.7,3.5,1.0*3C
$GPRMC,174626.645,A,3748.8125,N,12217.8631,W,0.44,167.09,271011,,,A*7B
$GPVTG,167.09,T,,M,0.44,N,0.8,K,N*03
$GPGGA,174627.645,3748.8125,N,12217.8631,W,1,03,3.5,25.1,M,-25.1,M,,0000*5D
$GPGSA,A,2,09,12,17,,,,,,,,,,3.7,3.5,1.0*3C
$GPRMC,174627.645,A,3748.8125,N,12217.8631,W,0.39,164.01,271011,,,A*7B
$GPVTG,164.01,T,,M,0.39,N,0.7,K,N*0D
$GPGGA,174628.645,3748.8125,N,12217.8631,W,1,03,3.5,25.1,M,-25.1,M,,0000*52
$GPGSA,A,2,09,12,17,,,,,,,,,,3.7,3.5,1.0*3C
$GPGSV,3,1,11,09,59,280,44,17,37,049,41,12,29,305,37,04,59,115,36*7C
$GPGSV,3,2,11,02,39,179,24,28,17,101,17,15,07,229,,10,02,131,*79
$GPGSV,3,3,11,20,00,043,,25,00,296,,14,00,330,*43
$GPRMC,174628.645,A,3748.8125,N,12217.8631,W,0.46,166.40,271011,,,A*7B
$GPGGA,174629.645,3748.8126,N,12217.8631,W,1,03,3.5,25.1,M,-25.1,M,,0000*50
$GPGSA,A,2,09,12,17,,,,,,,,,,3.7,3.5,1.0*3C
$GPRMC,174629.645,A,3748.8126,N,12217.8631,W,0.48,169.49,271011,,,A*71
$GPVTG,169.49,T,,M,0.48,N,0.9,K,N*04
$GPGGA,174630.645,3748.8126,N,12217.8631,W,1,03,3.5,25.1,M,-25.1,M,,0000*58
$GPGSA,A,2,09,12,17,,,,,,,,,,3.7,3.5,1.0*3C
$GPRMC,174630.645,A,3748.8126,N,12217.8631,W,0.28,160.88,271011,,,A*7B
$GPVTG,160.88,T,,M,0.28,N,0.5,K,N*0A
$GPGGA,174631.645,3748.8126,N,12217.8630,W,1,03,3.5,25.1,M,-25.1,M,,0000*58
$GPGSA,A,2,09,12,17,,,,,,,,,,3.7,3.5,1.0*3C
$GPRMC,174631.645,A,3748.8126,N,12217.8630,W,0.48,167.81,271011,,,A*73
$GPVTG,167.81,T,,M,0.48,N,0.9,K,N*0E
$GPGGA,174632.645,3748.8126,N,12217.8630,W,1,03,3.5,25.1,M,-25.1,M,,0000*5B
$GPGSA,A,2,09,12,17,,,,,,,,,,3.7,3.5,1.0*3C
$GPRMC,174632.645,A,3748.8126,N,12217.8630,W,0.52,161.32,271011,,,A*75
$GPVTG,161.32,T,,M,0.52,N,1.0,K,N*03
$GPGGA,174633.645,3748.8126,N,12217.8630,W,1,03,3.5,25.1,M,-25.1,M,,0000*5A
$GPGSA,A,2,09,12,17,,,,,,,,,,3.7,3.5,1.0*3C
$GPGSV,3,1,11,09,59,280,44,17,37,049,41,12,29,305,37,04,59,115,36*7C
$GPGSV,3,2,11,02,39,179,23,28,17,101,20,15,07,229,,10,02,131,*7A
$GPGSV,3,3,11,20,00,043,,25,00,296,,14,00,330,*43
$GPRMC,174633.645,A,3748.8126,N,12217.8630,W,0.47,166.91,271011,,,A*7E
$GPVTG,166.91,T,,M,0.47,N,0.9,K,N*01
$GPGGA,174634.645,3748.8126,N,12217.8630,W,1,03,3.5,25.1,M,-25.1,M,,0000*5D
$GPGSA,A,2,09,12,17,,,,,,,,,,3.7,3.5,1.0*3C
$GPRMC,174634.645,A,3748.8126,N,12217.8630,W,0.52,158.65,271011,,,A*7B
$GPVTG,158.65,T,,M,0.52,N,1.0,K,N*0B
$GPGGA,174635.645,3748.8127,N,12217.8630,W,1,03,3.5,25.1,M,-25.1,M,,0000*5D
$GPGSA,A,2,09,12,17,,,,,,,,,,3.7,3.5,1.0*3C
$GPRMC,174635.645,A,3748.8127,N,12217.8630,W,0.38,172.49,271011,,,A*71
$GPVTG,172.49,T,,M,0.38,N,0.7,K,N*07
$GPGGA,174636.645,3748.8126,N,12217.8630,W,1,03,3.5,25.1,M,-25.1,M,,0000*5F
$GPGSA,A,2,09,12,17,,,,,,,,,,3.7,3.5,1.0*3C
$GPRMC,174636.645,A,3748.8126,N,12217.8630,W,0.39,167.01,271011,,,A*7A
$GPVTG,167.01,T,,M,0.39,N,0.7,K,N*0E
$GPGGA,174637.645,3748.8127,N,12217.8630,W,1,03,3.5,25.1,M,-25.1,M,,0000*5F
$GPGSA,A,2,09,12,17,,,,,,,,,,3.6,3.5,1.0*3D
$GPRMC,174637.645,A,3748.8127,N,12217.8630,W,0.42,165.53,271011,,,A*73
$GPVTG,165.53,T,,M,0.42,N,0.8,K,N*08
$GPGGA,174638.645,3748.8127,N,12217.8629,W,1,03,3.5,25.1,M,-25.1,M,,0000*58
$GPGSA,A,2,09,12,17,,,,,,,,,,3.6,3.5,1.0*3D
$GPGSV,3,1,11,09,59,280,44,17,37,049,41,12,29,305,38,04,59,115,36*73
$GPGSV,3,2,11,02,39,179,23,28,17,101,29,15,07,229,,10,02,131,*73
$GPGSV,3,3,11,20,00,043,,25,00,296,,14,00,330,*43
$GPVTG,158.46,T,,M,0.46,N,0.9,K,N*07
$GPGGA,174639.645,3748.8126,N,12217.8630,W,1,03,3.5,25.1,M,-25.1,M,,0000*50
$GPGSA,A,2,09,12,17,,,,,,,,,,3.6,3.5,1.0*3D
$GPRMC,174639.645,A,3748.8126,N,12217.8630,W,0.53,194.16,271011,,,A*73
$GPVTG,194.16,T,,M,0.53,N,1.0,K,N*0E
$GPGGA,174640.645,3748.8126,N,12217.8627,W,1,03,3.5,25.1,M,-25.1,M,,0000*58
$GPGSA,A,2,09,12,17,,,,,,,,,,3.6,3.5,1.0*3D
$GPRMC,174640.645,A,3748.8126,N,12217.8627,W,1.31,125.25,271011,,,A*74
$GPVTG,125.25,T,,M,1.31,N,2.4,K,N*06
$GPGGA,174641.645,3748.8212,N,12217.8628,W,1,03,3.5,25.1,M,-25.1,M,,0000*52
$GPGSA,A,2,09,12,17,,,,,,,,,,3.6,3.5,1.0*3D
$GPRMC,174641.645,A,3748.8212,N,12217.8628,W,1.03,1.07,271011,,,A*78
$GPVTG,1.07,T,,M,1.03,N,1.9,K,N*0E
$GPGGA,174642.645,3748.8217,N,12217.8628,W,1,03,3.5,25.1,M,-25.1,M,,0000*54
$GPGSA,A,2,09,12,17,,,,,,,,,,3.6,3.5,1.0*3D
$GPRMC,174642.645,A,3748.8217,N,12217.8628,W,0.80,14.92,271011,,,A*4C
$GPVTG,14.92,T,,M,0.80,N,1.5,K,N*30
$GPGGA,174643.645,3748.8178,N,12217.8628,W,1,03,3.5,25.1,M,-25.1,M,,0000*5F
$GPGSA,A,2,09,12,17,,,,,,,,,,3.6,3.5,1.0*3D
$GPGSV,3,1,11,09,59,280,31,17,37,049,32,12,29,305,37,04,59,115,27*7A
$GPGSV,3,2,11,02,39,179,28,28,17,101,28,15,07,229,,10,02,131,24*7F
$GPGSV,3,3,11,20,00,043,,25,00,296,,14,00,330,*43
$GPRMC,174643.645,A,3748.8178,N,12217.8628,W,0.40,176.83,271011,,,A*7E
$GPVTG,176.83,T,,M,0.40,N,0.7,K,N*0A
$GPGGA,174644.645,3748.8179,N,12217.8629,W,1,03,3.5,25.1,M,-25.1,M,,0000*58
$GPGSA,A,2,09,12,17,,,,,,,,,,3.6,3.5,1.0*3D
$GPRMC,174644.645,A,3748.8179,N,12217.8629,W,0.11,67.87,271011,,,A*48
$GPVTG,67.87,T,,M,0.11,N,0.2,K,N*3E
$GPGGA,174645.645,3748.8149,N,12217.8646,W,1,03,3.5,25.1,M,-25.1,M,,0000*53
$GPGSA,A,2,09,12,17,,,,,,,,,,3.6,3.5,1.0*3D
$GPRMC,174645.645,A,3748.8149,N,12217.8646,W,2.55,192.13,271011,,,A*77
$GPVTG,192.13,T,,M,2.55,N,4.7,K,N*0B
$GPGGA,174646.645,3748.8140,N,12217.8661,W,1,03,3.5,25.1,M,-25.1,M,,0000*5C
$GPGSA,A,2,09,12,17,,,,,,,,,,3.6,3.5,1.0*3D
$GPRMC,174646.645,A,3748.8140,N,12217.8661,W,1.34,156.31,271011,,,A*74
$GPVTG,156.31,T,,M,1.34,N,2.5,K,N*03
$GPGGA,174647.645,3748.8148,N,12217.8643,W,1,03,3.5,25.1,M,-25.1,M,,0000*55
$GPGSA,A,2,09,12,17,,,,,,,,,,3.6,3.5,1.0*3D
$GPRMC,174647.645,A,3748.8148,N,12217.8643,W,0.33,110.96,271011,,,A*74
$GPVTG,110.96,T,,M,0.33,N,0.6,K,N*0B
$GPGGA,174648.645,3748.8166,N,12217.8629,W,1,03,3.5,25.1,M,-25.1,M,,0000*5A
$GPGSA,A,2,09,12,17,,,,,,,,,,3.6,3.5,1.0*3D
$GPGSV,3,1,12,09,59,280,41,17,37,049,32,12,29,305,37,04,59,115,37*7F
$GPGSV,3,2,12,02,39,179,34,28,17,101,31,15,07,229,21,10,02,131,21*7F
$GPGSV,3,3,12,20,00,043,,25,00,296,,14,00,330,,48,00,000,32*7D
$GPRMC,174648.645,A,3748.8166,N,12217.8629,W,0.33,244.31,271011,,,A*74
$GPVTG,244.31,T,,M,0.33,N,0.6,K,N*04
$GPGGA,174649.645,3748.8121,N,12217.8609,W,1,03,3.5,25.1,M,-25.1,M,,0000*5A
$GPGSA,A,2,09,12,17,,,,,,,,,,3.6,3.5,1.0*3D
$GPRMC,174649.645,A,3748.8121,N,12217.8609,W,0.12,82.58,271011,,,A*40
$GPVTG,82.58,T,,M,0.12,N,0.2,K,N*34
$GPGGA,174650.645,3748.8167,N,12217.8621,W,1,03,3.5,25.1,M,-25.1,M,,0000*5A
$GPGSA,A,2,09,12,17,,,,,,,,,,3.6,3.5,1.0*3D
$GPRMC,174650.645,A,3748.8167,N,12217.8621,W,0.95,223.08,271011,,,A*73
$GPVTG,223.08,T,,M,0.95,N,1.8,K,N*0C
$GPGGA,174651.645,3748.8147,N,12217.8667,W,1,03,3.5,25.1,M,-25.1,M,,0000*5B
$GPGSA,A,2,09,12,17,,,,,,,,,,3.6,3.5,1.0*3D
$GPRMC,174651.645,A,3748.8147,N,12217.8667,W,0.59,161.56,271011,,,A*7C
$GPVTG,161.56,T,,M,0.59,N,1.1,K,N*0B
$GPGGA,174652.645,3748.8135,N,12217.8678,W,1,03,3.5,25.1,M,-25.1,M,,0000*53
$GPGSA,A,2,09,12,17,,,,,,,,,,3.6,3.5,1.0*3D
$GPRMC,174652.645,A,3748.8135,N,12217.8678,W,0.31,166.42,271011,,,A*78
$GPVTG,166.42,T,,M,0.31,N,0.6,K,N*01
$GPGGA,174653.645,3748.8148,N,12217.8683,W,1,03,3.5,25.1,M,-25.1,M,,0000*5C
$GPGSA,A,2,09,12,17,,,,,,,,,,3.6,3.5,1.0*3D
$GPGSV,3,1,12,09,59,280,37,17,37,049,31,12,29,305,30,04,59,115,30*7D
$GPGSV,3,2,12,02,39,179,29,28,17,101,21,15,07,229,27,10,02,131,13*75
$GPGSV,3,3,12,20,00,043,,25,00,296,,14,00,330,,48,00,000,34*7B
$GPRMC,174653.645,A,3748.8148,N,12217.8683,W,0.11,307.75,271011,,,A*74
$GPGGA,174654.645,3748.8149,N,12217.8676,W,1,03,3.5,25.1,M,-25.1,M,,0000*50
$GPGSA,A,2,09,12,17,,,,,,,,,,3.6,3.5,1.0*3D
$GPRMC,174654.645,A,3748.8149,N,12217.8676,W,0.59,167.84,271011,,,A*7E
$GPVTG,167.84,T,,M,0.59,N,1.1,K,N*02
$GPGGA,174655.645,3748.8152,N,12217.8672,W,1,03,3.5,25.1,M,-25.1,M,,0000*5F
$GPGSA,A,2,09,12,17,,,,,,,,,,3.6,3.5,1.0*3D
$GPRMC,174655.645,A,3748.8152,N,12217.8672,W,0.40,146.92,271011,,,A*7D
$GPVTG,146.92,T,,M,0.40,N,0.7,K,N*09
$GPGGA,174656.645,3748.8147,N,12217.8665,W,1,03,3.5,25.1,M,-25.1,M,,0000*5E
$GPGSA,A,2,09,12,17,,,,,,,,,,3.6,3.5,1.0*3D
$GPRMC,174656.645,A,3748.8147,N,12217.8665,W,0.48,167.07,271011,,,A*7B
$GPVTG,167.07,T,,M,0.48,N,0.9,K,N*00
$GPGGA,174657.645,3748.8147,N,12217.8661,W,1,03,3.5,25.1,M,-25.1,M,,0000*5B
$GPGSA,A,2,09,12,17,,,,,,,,,,3.6,3.5,1.0*3D
$GPRMC,174657.645,A,3748.8147,N,12217.8661,W,0.47,163.98,271011,,,A*73
$GPVTG,163.98,T,,M,0.47,N,0.9,K,N*0D
$GPGGA,174658.645,3748.8146,N,12217.8658,W,1,03,3.5,25.1,M,-25.1,M,,0000*5F
$GPGSA,A,2,09,12,17,,,,,,,,,,3.6,3.5,1.0*3D
$GPGSV,3,1,12,09,59,280,38,17,37,049,37,12,29,305,39,04,59,115,31*7C
$GPGSV,3,2,12,02,39,179,25,28,17,101,25,15,07,229,20,10,02,131,17*7E
$GPGSV,3,3,12,20,00,043,,25,00,296,,14,00,330,,48,00,000,24*7A
$GPRMC,174658.645,A,3748.8146,N,12217.8658,W,0.70,174.78,271011,,,A*7B
$GPVTG,174.78,T,,M,0.70,N,1.3,K,N*0A
$GPGGA,174659.645,3748.8050,N,12217.8611,W,1,03,3.5,25.1,M,-25.1,M,,0000*55
$GPGSA,A,2,09,12,17,,,,,,,,,,3.6,3.5,1.0*3D
$GPRMC,174659.645,A,3748.8050,N,12217.8611,W,0.90,340.46,271011,,,A*77
$GPVTG,340.46,T,,M,0.90,N,1.7,K,N*08
$GPGGA,174700.645,3748.8055,N,12217.8616,W,1,03,3.5,25.1,M,-25.1,M,,0000*5A
$GPGSA,A,2,09,12,17,,,,,,,,,,3.6,3.5,1.0*3D
$GPRMC,174700.645,A,3748.8055,N,12217.8616,W,0.28,158.04,271011,,,A*76
$GPVTG,158.04,T,,M,0.28,N,0.5,K,N*05
$GPGGA,174706.645,3748.8088,N,12217.8642,W,1,03,3.5,25.1,M,-25.1,M,,0000*5D
$GPGSA,A,2,09,12,17,,,,,,,,,,3.6,3.5,1.0*3D
$GPRMC,174706.645,A,3748.8088,N,12217.8642,W,1.12,210.65,271011,,,A*71
$GPVTG,210.65,T,,M,1.12,N,2.1,K,N*03
$GPGGA,174707.645,3748.8122,N,12217.8651,W,1,03,3.5,25.1,M,-25.1,M,,0000*5F
$GPGSA,A,2,09,12,17,,,,,,,,,,3.6,3.5,1.0*3D
$GPRMC,174707.645,A,3748.8122,N,12217.8651,W,0.09,148.70,271011,,,A*72
$GPVTG,148.70,T,,M,0.09,N,0.2,K,N*03
$GPGGA,174708.645,3748.8032,N,12217.8636,W,1,03,3.5,25.1,M,-25.1,M,,0000*51
$GPGSA,A,2,09,12,17,,,,,,,,,,3.6,3.5,1.0*3D
$GPGSV,3,1,12,09,59,280,36,17,37,049,32,12,29,305,35,04,59,115,37*7D
$GPGSV,3,2,12,02,39,179,31,28,17,101,29,15,07,229,27,10,02,131,*76
$GPGSV,3,3,12,20,00,043,,25,00,296,,14,00,330,,48,00,000,40*78
$GPRMC,174708.645,A,3748.8032,N,12217.8636,W,0.17,123.43,271011,,,A*7E
$GPVTG,123.43,T,,M,0.17,N,0.3,K,N*00
$GPGGA,174709.645,3748.8080,N,12217.8628,W,1,03,3.5,25.1,M,-25.1,M,,0000*56
$GPGSA,A,2,09,12,17,,,,,,,,,,3.6,3.5,1.0*3D
$GPRMC,174709.645,A,3748.8080,N,12217.8628,W,0.15,118.69,271011,,,A*7B
$GPVTG,118.69,T,,M,0.15,N,0.3,K,N*02
$GPGGA,174710.645,3748.8078,N,12217.8617,W,1,03,3.5,25.1,M,-25.1,M,,0000*55
$GPGSA,A,2,09,12,17,,,,,,,,,,3.6,3.5,1.0*3D
$GPRMC,174710.645,A,3748.8078,N,12217.8617,W,1.04,337.40,271011,,,A*7D
$GPVTG,337.40,T,,M,1.04,N,1.9,K,N*0C
$GPGGA,174711.645,3748.8185,N,12217.8649,W,1,03,3.5,25.1,M,-25.1,M,,0000*5C
$GPGSA,A,2,09,12,17,,,,,,,,,,3.6,3.5,1.0*3D
$GPRMC,174711.645,A,3748.8185,N,12217.8649,W,1.01,186.79,271011,,,A*73
$GPVTG,186.79,T,,M,1.01,N,1.9,K,N*0B
$GPGGA,174719.645,3748.8087,N,12217.8600,W,1,03,3.5,25.1,M,-25.1,M,,0000*5A
$GPGSA,A,2,09,12,17,,,,,,,,,,3.6,3.5,1.0*3D
$GPRMC,174719.645,A,3748.8087,N,12217.8600,W,0.45,110.17,271011,,,A*73
$GPVTG,110.17,T,,M,0.45,N,0.8,K,N*0D
$GPGGA,174720.645,3748.8090,N,12217.8612,W,1,03,3.5,25.1,M,-25.1,M,,0000*55
$GPGSA,A,2,09,12,17,,,,,,,,,,3.6,3.5,1.0*3D
$GPRMC,174720.645,A,3748.8090,N,12217.8612,W,4.52,342.99,271011,,,A*7D
$GPVTG,342.99,T,,M,4.52,N,8.4,K,N*08
$GPGGA,174722.645,3748.7994,N,12217.8596,W,1,04,3.8,-3.1,M,-25.1,M,,0000*49
$GPGSA,A,3,09,12,04,17,,,,,,,,,8.1,3.8,7.1*3E
$GPRMC,174722.645,A,3748.7994,N,12217.8596,W,1.61,302.54,271011,,,A*72
$GPVTG,302.54,T,,M,1.61,N,3.0,K,A*08
$GPGGA,174723.645,3748.8038,N,12217.8587,W,1,04,3.8,7.8,M,-25.1,M,,0000*68
$GPGSA,A,3,09,12,04,17,,,,,,,,,8.1,3.8,7.1*3E
$GPGSV,3,1,12,09,60,279,29,04,59,114,22,17,37,049,27,12,29,305,28*72
$GPGSV,3,2,12,02,40,179,28,28,16,102,28,15,07,228,11,10,02,131,*77
$GPGSV,3,3,12,20,00,043,,25,00,296,,14,00,330,,48,44,197,22*73
$GPRMC,174723.645,A,3748.8038,N,12217.8587,W,1.75,353.65,271011,,,A*70
$GPVTG,353.65,T,,M,1.75,N,3.2,K,A*09
$GPGGA,174724.645,3748.8042,N,12217.8586,W,1,04,3.8,10.3,M,-25.1,M,,0000*5E
$GPGSA,A,3,09,12,04,17,,,,,,,,,8.1,3.8,7.1*3E
$GPRMC,174724.645,A,3748.8042,N,12217.8586,W,1.28,11.62,271011,,,A*41
$GPVTG,11.62,T,,M,1.28,N,2.4,K,A*34
$GPGGA,174725.000,3748.8061,N,12217.8589,W,1,04,3.8,14.1,M,-25.1,M,,0000*50
$GPGSA,A,3,09,12,04,17,,,,,,,,,8.1,3.8,7.1*3E
$GPRMC,174725.000,A,3748.8061,N,12217.8589,W,0.55,12.61,271011,,,A*42
$GPVTG,12.61,T,,M,0.55,N,1.0,K,A*38
$GPGGA,174726.000,3748.8068,N,12217.8594,W,1,04,3.9,13.0,M,-25.1,M,,0000*51
$GPGSA,A,3,09,12,04,17,,,,,,,,,8.1,3.9,7.1*3F
$GPRMC,174726.000,A,3748.8068,N,12217.8594,W,1.54,35.88,271011,,,A*46
$GPVTG,35.88,T,,M,1.54,N,2.8,K,A*31
$GPGGA,174727.000,3748.8037,N,12217.8595,W,1,04,3.9,5.0,M,-25.1,M,,0000*6C
$GPGSA,A,3,09,12,04,17,,,,,,,,,8.1,3.9,7.1*3F
$GPRMC,174727.000,A,3748.8037,N,12217.8595,W,0.82,74.06,271011,,,A*45
$GPVTG,74.06,T,,M,0.82,N,1.5,K,A*36
$GPGGA,174728.000,3748.8032,N,12217.8596,W,1,04,3.9,5.0,M,-25.1,M,,0000*65
$GPGSA,A,3,09,12,04,17,,,,,,,,,8.1,3.9,7.1*3F
$GPGSV,3,1,12,09,60,279,26,04,59,114,29,17,37,049,29,12,29,305,31*70
$GPGSV,3,2,12,02,40,179,27,28,16,102,26,15,07,228,18,10,02,131,*7F
$GPGSV,3,3,12,20,00,043,,25,00,296,,14,00,330,,48,44,197,27*76
$GPRMC,174728.000,A,3748.8032,N,12217.8596,W,0.69,350.96,271011,,,A*75
$GPVTG,350.96,T,,M,0.69,N,1.3,K,A*09
$GPGGA,174729.000,3748.8032,N,12217.8598,W,1,04,3.9,5.0,M,-25.1,M,,0000*6A
$GPGSA,A,3,09,12,04,17,,,,,,,,,8.1,3.9,7.1*3F
$GPRMC,174729.000,A,3748.8032,N,12217.8598,W,0.78,325.61,271011,,,A*70
$GPVTG,325.61,T,,M,0.78,N,1.4,K,A*04
$GPGGA,174730.000,3748.8029,N,12217.8599,W,1,04,3.9,2.7,M,-25.1,M,,0000*69
$GPGSA,A,3,09,12,04,17,,,,,,,,,8.1,3.9,7.1*3F
$GPRMC,174730.000,A,3748.8029,N,12217.8599,W,0.59,21.13,271011,,,A*42
$GPVTG,21.13,T,,M,0.59,N,1.1,K,A*30
$GPGGA,174731.000,3748.8032,N,12217.8602,W,1,04,3.9,3.7,M,-25.1,M,,0000*62
$GPGSA,A,3,09,12,04,17,,,,,,,,,8.1,3.9,7.1*3F
$GPRMC,174731.000,A,3748.8032,N,12217.8602,W,0.43,7.10,271011,,,A*74
$GPVTG,7.10,T,,M,0.43,N,0.8,K,A*04
$GPGGA,174732.000,3748.8023,N,12217.8603,W,1,04,3.9,1.8,M,-25.1,M,,0000*6D
$GPGSA,A,3,09,12,04,17,,,,,,,,,8.1,3.9,7.2*3C
$GPRMC,174732.000,A,3748.8023,N,12217.8603,W,0.13,1.12,271011,,,A*77
$GPVTG,1.12,T,,M,0.13,N,0.2,K,A*0F
$GPGGA,174733.000,3748.8013,N,12217.8604,W,1,04,3.9,0.3,M,-25.1,M,,0000*62
$GPGSA,A,3,09,12,04,17,,,,,,,,,8.1,3.9,7.2*3C
$GPGSV,3,1,11,09,60,279,34,04,59,114,21,17,37,049,34,12,29,305,31*74
$GPGSV,3,2,11,02,40,179,19,28,16,102,22,15,07,228,11,10,02,131,*7C
$GPGSV,3,3,11,20,00,043,,25,00,296,,14,00,330,*43
$GPVTG,305.38,T,,M,0.14,N,0.3,K,A*06
$GPGGA,174734.000,3748.8005,N,12217.8605,W,1,04,3.9,-1.1,M,-25.1,M,,0000*4D
$GPGSA,A,3,09,12,04,17,,,,,,,,,8.2,3.9,7.2*3F
$GPRMC,174734.000,A,3748.8005,N,12217.8605,W,0.66,3.22,271011,,,A*70
$GPVTG,3.22,T,,M,0.66,N,1.2,K,A*0D
$GPGGA,174735.000,3748.7995,N,12217.8609,W,1,04,3.9,-5.2,M,-25.1,M,,0000*48
$GPGSA,A,3,09,12,04,17,,,,,,,,,8.2,3.9,7.2*3F
$GPRMC,174735.000,A,3748.7995,N,12217.8609,W,0.45,344.31,271011,,,A*71
$GPVTG,344.31,T,,M,0.45,N,0.8,K,A*05
$GPGGA,174736.000,3748.7990,N,12217.8610,W,1,04,3.9,-7.1,M,-25.1,M,,0000*47
$GPGSA,A,3,09,12,04,17,,,,,,,,,8.2,3.9,7.2*3F
$GPRMC,174736.000,A,3748.7990,N,12217.8610,W,0.06,59.93,271011,,,A*4F
$GPVTG,59.93,T,,M,0.06,N,0.1,K,A*3C
$GPGGA,174737.000,3748.7979,N,12217.8610,W,1,04,3.9,-9.5,M,-25.1,M,,0000*4B
$GPGSA,A,3,09,12,04,17,,,,,,,,,8.2,3.9,7.2*3F
$GPRMC,174737.000,A,3748.7979,N,12217.8610,W,0.53,153.60,271011,,,A*7E
$GPVTG,153.60,T,,M,0.53,N,1.0,K,A*0B
$GPGGA,174738.000,3748.7980,N,12217.8609,W,1,04,3.9,-6.2,M,-25.1,M,,0000*42
$GPGSA,A,3,09,12,04,17,,,,,,,,,8.2,3.9,7.2*3F
$GPGSV,3,1,11,09,60,279,30,04,59,114,25,17,37,049,31,12,29,305,27*76
$GPGSV,3,2,11,02,40,179,24,28,16,102,23,15,07,228,12,10,02,131,*70
$GPGSV,3,3,11,20,00,043,,25,00,296,,14,00,330,*43
$GPRMC,174738.000,A,3748.7980,N,12217.8609,W,0.69,156.47,271011,,,A*76
$GPVTG,156.47,T,,M,0.69,N,1.3,K,A*01
$GPGGA,174739.000,3748.7981,N,12217.8610,W,1,04,3.9,-4.7,M,-25.1,M,,0000*4D
$GPGSA,A,3,09,12,04,17,,,,,,,,,8.2,3.9,7.2*3F
$GPRMC,174739.000,A,3748.7981,N,12217.8610,W,0.32,205.30,271011,,,A*75
$GPVTG,205.30,T,,M,0.32,N,0.6,K,A*0E
$GPGGA,174740.000,3748.7991,N,12217.8613,W,1,04,3.9,-3.5,M,-25.1,M,,0000*44
$GPGSA,A,3,09,12,04,17,,,,,,,,,8.2,3.9,7.2*3F
$GPRMC,174740.000,A,3748.7991,N,12217.8613,W,0.26,335.52,271011,,,A*7A
$GPVTG,335.52,T,,M,0.26,N,0.5,K,A*0E
$GPGGA,174741.000,3748.7994,N,12217.8616,W,1,04,3.9,-2.2,M,-25.1,M,,0000*43
$GPGSA,A,3,09,12,04,17,,,,,,,,,8.2,3.9,7.2*3F
$GPRMC,174741.000,A,3748.7994,N,12217.8616,W,0.36,93.79,271011,,,A*4C
$GPVTG,93.79,T,,M,0.36,N,0.7,K,A*3B
$GPGGA,174742.000,3748.8000,N,12217.8616,W,1,04,3.9,-0.7,M,-25.1,M,,0000*4C
$GPGSA,A,3,09,12,04,17,,,,,,,,,8.2,3.9,7.2*3F
$GPRMC,174742.000,A,3748.8000,N,12217.8616,W,0.39,252.76,271011,,,A*7B
$GPVTG,252.76,T,,M,0.39,N,0.7,K,A*04
$GPGGA,174743.000,3748.8010,N,12217.8618,W,1,04,3.9,1.8,M,-25.1,M,,0000*61
$GPGSA,A,3,09,12,04,17,,,,,,,,,8.2,3.9,7.2*3F
$GPGSV,3,1,11,09,60,279,26,04,59,114,25,17,37,049,29,12,29,305,25*7A
$GPGSV,3,2,11,02,40,179,18,28,16,102,23,15,07,228,16,10,02,131,*7B
$GPGSV,3,3,11,20,00,043,,25,00,296,,14,00,330,*43
$GPRMC,174743.000,A,3748.8010,N,12217.8618,W,0.63,342.60,271011,,,A*7D
$GPVTG,342.60,T,,M,0.63,N,1.2,K,A*08
$GPGGA,174744.000,3748.8019,N,12217.8616,W,1,04,3.9,4.0,M,-25.1,M,,0000*6C
$GPGSA,A,3,09,12,04,17,,,,,,,,,8.2,3.9,7.2*3F
$GPRMC,174744.000,A,3748.8019,N,12217.8616,W,1.10,19.33,271011,,,A*43
$GPVTG,19.33,T,,M,1.10,N,2.0,K,A*37
$GPGGA,174745.000,3748.8024,N,12217.8617,W,1,04,3.9,7.5,M,-25.1,M,,0000*64
$GPGSA,A,3,09,12,04,17,,,,,,,,,8.2,3.9,7.3*3E
$GPRMC,174745.000,A,3748.8024,N,12217.8617,W,1.34,338.17,271011,,,A*7D
$GPVTG,338.17,T,,M,1.34,N,2.5,K,A*02
$GPGGA,174746.000,3748.8021,N,12217.8621,W,1,04,3.9,6.6,M,-25.1,M,,0000*65
$GPGSA,A,3,09,12,04,17,,,,,,,,,8.3,3.9,7.3*3F
$GPRMC,174746.000,A,3748.8021,N,12217.8621,W,1.07,309.26,271011,,,A*7E
$GPVTG,309.26,T,,M,1.07,N,2.0,K,A*07
$GPGGA,174747.000,3748.8028,N,12217.8623,W,1,04,3.9,6.0,M,-25.1,M,,0000*69
$GPGSA,A,3,09,12,04,17,,,,,,,,,8.3,3.9,7.3*3F
$GPRMC,174747.000,A,3748.8028,N,12217.8623,W,1.25,341.72,271011,,,A*79
$GPVTG,341.72,T,,M,1.25,N,2.3,K,A*09
$GPGGA,174748.000,3748.8020,N,12217.8623,W,1,03,5.4,3.4,M,-25.1,M,,0000*63
$GPGSA,A,2,09,12,04,,,,,,,,,,5.5,5.4,1.0*3D
$GPGSV,3,1,11,09,60,279,24,04,59,114,21,17,37,049,26,12,29,305,28*7E
$GPGSV,3,2,11,02,40,179,21,28,16,102,22,15,07,228,15,10,02,131,*73
$GPGSV,3,3,11,20,00,043,,25,00,296,,14,00,330,*43
$GPRMC,174748.000,A,3748.8020,N,12217.8623,W,0.94,321.52,271011,,,A*71
$GPVTG,321.52,T,,M,0.94,N,1.7,K,N*0E
$GPGGA,174749.000,3748.8011,N,12217.8625,W,1,04,4.0,1.8,M,-25.1,M,,0000*6A
$GPGSA,A,3,09,12,04,17,,,,,,,,,8.3,4.0,7.3*31
$GPRMC,174749.000,A,3748.8011,N,12217.8625,W,0.93,233.78,271011,,,A*79
$GPVTG,233.78,T,,M,0.93,N,1.7,K,A*0C
$GPGGA,174750.000,3748.8012,N,12217.8622,W,1,04,4.0,2.4,M,-25.1,M,,0000*69
$GPGSA,A,3,09,12,04,17,,,,,,,,,8.3,4.0,7.3*31
$GPRMC,174750.000,A,3748.8012,N,12217.8622,W,0.75,246.93,271011,,,A*7A
$GPVTG,246.93,T,,M,0.75,N,1.4,K,A*00
$GPGGA,174751.000,3748.8023,N,12217.8618,W,1,04,4.0,4.7,M,-25.1,M,,0000*66
$GPGSA,A,3,09,12,04,17,,,,,,,,,8.3,4.0,7.3*31
$GPRMC,174751.000,A,3748.8023,N,12217.8618,W,0.14,314.14,271011,,,A*7E
$GPVTG,314.14,T,,M,0.14,N,0.3,K,A*08
$GPGGA,174752.000,3748.8033,N,12217.8618,W,1,04,4.0,6.3,M,-25.1,M,,0000*62
$GPGSA,A,3,09,12,04,17,,,,,,,,,8.3,4.0,7.3*31
$GPRMC,174752.000,A,3748.8033,N,12217.8618,W,0.46,356.79,271011,,,A*76
$GPVTG,356.79,T,,M,0.46,N,0.9,K,A*08
$GPGGA,174753.000,3748.8048,N,12217.8618,W,1,04,4.0,11.1,M,-25.1,M,,0000*5B
$GPGSA,A,3,09,12,04,17,,,,,,,,,8.3,4.0,7.3*31
$GPGSV,3,1,11,09,60,279,31,04,59,114,23,17,37,049,24,12,29,305,21*73
$GPGSV,3,2,11,02,40,179,22,28,16,102,20,15,07,228,15,10,02,131,*72
$GPGSV,3,3,11,20,00,043,,25,00,296,,14,00,330,*43
$GPRMC,174753.000,A,3748.8048,N,12217.8618,W,0.18,4.94,271011,,,A*77
$GPVTG,4.94,T,,M,0.18,N,0.3,K,A*0E
$GPGGA,174754.000,3748.8040,N,12217.8628,W,1,04,4.0,10.6,M,-25.1,M,,0000*51
$GPGSA,A,3,09,12,04,17,,,,,,,,,8.3,4.0,7.3*31
$GPRMC,174754.000,A,3748.8040,N,12217.8628,W,0.14,358.47,271011,,,A*73
$GPVTG,358.47,T,,M,0.14,N,0.3,K,A*06
$GPGGA,174755.000,3748.8044,N,12217.8628,W,1,04,4.0,11.2,M,-25.1,M,,0000*51
$GPGSA,A,3,09,12,04,17,,,,,,,,,8.3,4.0,7.3*31
$GPRMC,174755.000,A,3748.8044,N,12217.8628,W,0.44,25.14,271011,,,A*4C
$GPVTG,25.14,T,,M,0.44,N,0.8,K,A*37
$GPGGA,174756.000,3748.8048,N,12217.8624,W,1,04,4.0,12.0,M,-25.1,M,,0000*53
$GPGSA,A,3,09,12,04,17,,,,,,,,,8.3,4.0,7.3*31
$GPRMC,174756.000,A,3748.8048,N,12217.8624,W,0.66,111.01,271011,,,A*7D
$GPVTG,111.01,T,,M,0.66,N,1.2,K,A*0E
$GPGGA,174757.000,3748.8058,N,12217.8624,W,1,04,4.0,14.2,M,-25.1,M,,0000*57
$GPGSA,A,3,09,12,04,17,,,,,,,,,8.4,4.0,7.3*36
$GPRMC,174757.000,A,3748.8058,N,12217.8624,W,0.69,7.06,271011,,,A*73
$GPVTG,7.06,T,,M,0.69,N,1.3,K,A*01
$GPGGA,174758.000,3748.8069,N,12217.8626,W,1,04,4.0,16.1,M,-25.1,M,,0000*59
$GPGSA,A,3,09,12,04,17,,,,,,,,,8.4,4.0,7.4*31
$GPGSV,3,1,11,09,60,279,27,04,59,114,22,17,37,049,28,12,29,305,26*7E
$GPGSV,3,2,11,02,40,179,20,28,16,102,22,15,07,228,14,10,02,131,*73
$GPGSV,3,3,11,20,00,043,,25,00,296,,14,00,330,*43
$GPVTG,7.66,T,,M,0.89,N,1.6,K,A*0C
$GPGGA,174759.000,3748.8067,N,12217.8626,W,1,04,4.0,15.3,M,-25.1,M,,0000*57
$GPGSA,A,3,09,12,04,17,,,,,,,,,8.4,4.0,7.4*31
$GPRMC,174759.000,A,3748.8067,N,12217.8626,W,0.71,7.73,271011,,,A*78
$GPVTG,7.73,T,,M,0.71,N,1.3,K,A*0A
$GPGGA,174800.000,3748.8056,N,12217.8624,W,1,04,4.0,13.6,M,-25.1,M,,0000*57
$GPGSA,A,3,09,12,04,17,,,,,,,,,8.4,4.0,7.4*31
$GPRMC,174800.000,A,3748.8056,N,12217.8624,W,0.79,334.67,271011,,,A*75
$GPVTG,334.67,T,,M,0.79,N,1.5,K,A*02
$GPGGA,174801.000,3748.8051,N,12217.8624,W,1,04,4.0,12.9,M,-25.1,M,,0000*5F
$GPGSA,A,3,09,12,04,17,,,,,,,,,8.4,4.0,7.4*31
$GPRMC,174801.000,A,3748.8051,N,12217.8624,W,0.47,0.56,271011,,,A*78
$GPVTG,0.56,T,,M,0.47,N,0.9,K,A*04
$GPGGA,174802.000,3748.8052,N,12217.8622,W,1,04,4.0,13.5,M,-25.1,M,,0000*54
$GPGSA,A,3,09,12,04,17,,,,,,,,,8.4,4.0,7.4*31
$GPRMC,174802.000,A,3748.8052,N,12217.8622,W,0.43,97.30,271011,,,A*44
$GPVTG,97.30,T,,M,0.43,N,0.8,K,A*3F
$GPGGA,174803.000,3748.8043,N,12217.8621,W,1,04,4.0,12.9,M,-25.1,M,,0000*5B
$GPGSA,A,3,09,12,04,17,,,,,,,,,8.4,4.0,7.4*31
$GPGSV,3,1,11,09,60,279,29,04,59,114,25,17,37,049,25,12,29,305,26*7A
$GPGSV,3,2,11,02,40,179,25,28,16,102,26,15,07,228,18,10,02,131,*7E
$GPGSV,3,3,11,20,00,043,,25,00,296,,14,00,330,*43
$GPRMC,174803.000,A,3748.8043,N,12217.8621,W,0.83,181.72,271011,,,A*7A
$GPVTG,181.72,T,,M,0.83,N,1.5,K,A*0F
$GPGGA,174804.000,3748.8017,N,12217.8625,W,1,04,4.0,8.6,M,-25.1,M,,0000*6D
$GPGSA,A,3,09,12,04,17,,,,,,,,,8.4,4.0,7.4*31
$GPRMC,174804.000,A,3748.8017,N,12217.8625,W,2.47,205.96,271011,,,A*77
$GPVTG,205.96,T,,M,2.47,N,4.6,K,A*06
$GPGGA,174805.000,3748.8006,N,12217.8625,W,1,04,4.0,8.9,M,-25.1,M,,0000*63
$GPGSA,A,3,09,12,04,17,,,,,,,,,8.4,4.0,7.4*31
$GPRMC,174805.000,A,3748.8006,N,12217.8625,W,2.92,193.15,271011,,,A*79
$GPVTG,193.15,T,,M,2.92,N,5.4,K,A*0A
$GPGGA,174806.000,3748.8016,N,12217.8620,W,1,04,4.0,11.0,M,-25.1,M,,0000*55
$GPGSA,A,3,09,12,04,17,,,,,,,,,8.4,4.0,7.4*31
$GPRMC,174806.000,A,3748.8016,N,12217.8620,W,0.42,185.13,271011,,,A*70
$GPVTG,185.13,T,,M,0.42,N,0.8,K,A*0D
$GPGGA,174807.000,3748.8024,N,12217.8616,W,1,04,4.0,13.0,M,-25.1,M,,0000*52
$GPGSA,A,3,09,12,04,17,,,,,,,,,8.5,4.0,7.4*30
$GPRMC,174807.000,A,3748.8024,N,12217.8616,W,0.35,16.54,271011,,,A*4D
$GPVTG,16.54,T,,M,0.35,N,0.6,K,A*3B
$GPGGA,174808.000,3748.8032,N,12217.8618,W,1,04,4.0,15.5,M,-25.1,M,,0000*57
$GPGSA,A,3,09,12,04,17,,,,,,,,,8.5,4.0,7.4*30
$GPGSV,3,1,11,09,60,279,24,04,59,114,27,17,37,049,30,12,29,305,26*71
$GPGSV,3,2,11,02,40,179,27,28,16,102,28,15,07,228,15,10,02,131,*7F
$GPGSV,3,3,11,20,00,043,,25,00,296,,14,00,330,*43
$GPRMC,174808.000,A,3748.8032,N,12217.8618,W,0.63,346.27,271011,,,A*7A
$GPVTG,346.27,T,,M,0.63,N,1.2,K,A*0F
$GPGGA,174809.000,3748.8046,N,12217.8616,W,1,04,4.0,16.1,M,-25.1,M,,0000*5C
$GPGSA,A,3,09,12,04,17,,,,,,,,,8.5,4.0,7.4*30
$GPRMC,174809.000,A,3748.8046,N,12217.8616,W,1.33,5.60,271011,,,A*75
$GPVTG,5.60,T,,M,1.33,N,2.5,K,A*08
$GPGGA,174810.000,3748.8048,N,12217.8612,W,1,04,4.0,16.5,M,-25.1,M,,0000*5A
$GPGSA,A,3,09,12,04,17,,,,,,,,,8.5,4.0,7.5*31
$GPRMC,174810.000,A,3748.8048,N,12217.8612,W,1.12,23.81,271011,,,A*4F
$GPVTG,23.81,T,,M,1.12,N,2.1,K,A*34
$GPGGA,174811.000,3748.8049,N,12217.8610,W,1,04,4.1,16.6,M,-25.1,M,,0000*5A
$GPGSA,A,3,09,12,04,17,,,,,,,,,8.5,4.1,7.5*30
$GPRMC,174811.000,A,3748.8049,N,12217.8610,W,0.66,20.19,271011,,,A*4D
$GPVTG,20.19,T,,M,0.66,N,1.2,K,A*34
$GPGGA,174812.000,3748.8048,N,12217.8607,W,1,04,4.1,15.3,M,-25.1,M,,0000*58
$GPGSA,A,3,09,12,04,17,,,,,,,,,8.5,4.1,7.5*30
$GPRMC,174812.000,A,3748.8048,N,12217.8607,W,0.30,4.63,271011,,,A*71
$GPVTG,4.63,T,,M,0.30,N,0.6,K,A*09
$GPGGA,174813.000,3748.8042,N,12217.8609,W,1,04,4.1,14.9,M,-25.1,M,,0000*56
$GPGSA,A,3,09,12,04,17,,,,,,,,,8.5,4.1,7.5*30
$GPGSV,3,1,11,09,60,279,28,04,59,114,23,17,37,049,20,12,29,305,27*79
$GPGSV,3,2,11,02,40,179,15,28,16,102,19,15,07,228,14,10,02,131,*7D
$GPGSV,3,3,11,20,00,043,,25,00,296,,14,00,330,*43
$GPRMC,174813.000,A,3748.8042,N,12217.8609,W,0.69,237.76,271011,,,A*7E
$GPVTG,237.76,T,,M,0.69,N,1.3,K,A*07
$GPGGA,174814.000,3748.8037,N,12217.8613,W,1,04,4.1,17.7,M,-25.1,M,,0000*55
$GPGSA,A,3,09,12,04,17,,,,,,,,,8.5,4.1,7.5*30
$GPRMC,174814.000,A,3748.8037,N,12217.8613,W,1.09,244.06,271011,,,A*74
$GPVTG,244.06,T,,M,1.09,N,2.0,K,A*03
$GPGGA,174815.000,3748.8040,N,12217.8620,W,1,04,4.1,18.3,M,-25.1,M,,0000*5F
$GPGSA,A,3,09,12,04,17,,,,,,,,,8.5,4.1,7.5*30
$GPRMC,174815.000,A,3748.8040,N,12217.8620,W,1.00,310.96,271011,,,A*75
$GPVTG,310.96,T,,M,1.00,N,1.9,K,A*09
$GPGGA,174816.000,3748.8043,N,12217.8616,W,1,04,4.1,17.0,M,-25.1,M,,0000*56
$GPGSA,A,3,09,12,04,17,,,,,,,,,8.5,4.1,7.5*30
$GPRMC,174816.000,A,3748.8043,N,12217.8616,W,0.51,20.25,271011,,,A*4D
$GPVTG,20.25,T,,M,0.51,N,0.9,K,A*35
$GPGGA,174817.000,3748.8042,N,12217.8614,W,1,04,4.1,15.4,M,-25.1,M,,0000*52
$GPGSA,A,3,09,12,04,17,,,,,,,,,8.6,4.1,7.5*33
$GPRMC,174817.000,A,3748.8042,N,12217.8614,W,0.45,8.63,271011,,,A*72
$GPVTG,8.63,T,,M,0.45,N,0.8,K,A*09
$GPGGA,174818.000,3748.8042,N,12217.8613,W,1,04,4.1,14.1,M,-25.1,M,,0000*5E
$GPGSA,A,3,09,12,04,17,,,,,,,,,8.6,4.1,7.5*33
$GPGSV,3,1,11,09,60,279,34,04,59,114,30,17,37,049,31,12,29,305,27*76
$GPGSV,3,2,11,02,40,179,36,28,16,102,22,15,07,228,16,10,02,131,*76
$GPGSV,3,3,11,20,00,043,,25,00,296,,14,00,330,*43
$GPRMC,174818.000,A,3748.8042,N,12217.8613,W,0.17,20.97,271011,,,A*4C
$GPVTG,20.97,T,,M,0.17,N,0.3,K,A*34
$GPGGA,174819.000,3748.8041,N,12217.8613,W,1,04,4.1,12.7,M,-25.1,M,,0000*5C
$GPGSA,A,3,09,12,04,17,,,,,,,,,8.6,4.1,7.5*33
$GPRMC,174819.000,A,3748.8041,N,12217.8613,W,0.15,349.49,271011,,,A*73
$GPVTG,349.49,T,,M,0.15,N,0.3,K,A*09
$GPGGA,174820.000,3748.8039,N,12217.8614,W,1,04,4.1,11.4,M,-25.1,M,,0000*5E
$GPGSA,A,3,09,12,04,17,,,,,,,,,8.6,4.1,7.5*33
$GPRMC,174820.000,A,3748.8039,N,12217.8614,W,0.08,356.85,271011,,,A*73
$GPVTG,356.85,T,,M,0.08,N,0.1,K,A*09
$GPGGA,174821.000,3748.8038,N,12217.8614,W,1,04,4.1,11.0,M,-25.1,M,,0000*5A
$GPGSA,A,3,09,12,04,17,,,,,,,,,8.6,4.1,7.5*33
$GPRMC,174821.000,A,3748.8038,N,12217.8614,W,0.09,126.43,271011,,,A*7D
$GPVTG,126.43,T,,M,0.09,N,0.2,K,A*04
$GPGGA,174822.000,3748.8036,N,12217.8615,W,1,04,4.1,9.3,M,-25.1,M,,0000*6C
$GPGSA,A,3,09,12,04,17,,,,,,,,,8.6,4.1,7.6*30
$GPRMC,174822.000,A,3748.8036,N,12217.8615,W,0.68,355.71,271011,,,A*71
$GPVTG,355.71,T,,M,0.68,N,1.3,K,A*04
$GPGGA,174823.000,3748.8038,N,12217.8616,W,1,04,4.1,9.9,M,-25.1,M,,0000*6A
$GPGSA,A,3,09,12,04,17,,,,,,,,,8.6,4.1,7.6*30
$GPGSV,3,1,11,09,60,279,35,04,59,114,29,17,37,049,32,12,29,305,33*79
$GPGSV,3,2,11,02,40,179,32,28,16,102,24,15,07,228,20,10,02,131,*71
$GPGSV,3,3,11,20,00,043,,25,00,296,,14,00,330,*43
$GPRMC,174823.000,A,3748.8038,N,12217.8616,W,0.27,319.68,271011,,,A*76
$GPVTG,319.68,T,,M,0.27,N,0.5,K,A*08
$GPGGA,174824.000,3748.8039,N,12217.8616,W,1,04,4.1,10.7,M,-25.1,M,,0000*5A
$GPGSA,A,3,09,12,04,17,,,,,,,,,8.6,4.1,7.6*30
$GPRMC,174824.000,A,3748.8039,N,12217.8616,W,0.28,135.50,271011,,,A*78
$GPVTG,135.50,T,,M,0.28,N,0.5,K,A*00
$GPGGA,174825.000,3748.8036,N,12217.8614,W,1,04,4.1,10.2,M,-25.1,M,,0000*53
$GPGSA,A,3,09,12,04,17,,,,,,,,,8.6,4.1,7.6*30
$GPRMC,174825.000,A,3748.8036,N,12217.8614,W,0.96,144.31,271011,,,A*70
$GPVTG,144.31,T,,M,0.96,N,1.8,K,A*08
$GPGGA,174826.000,3748.8034,N,12217.8615,W,1,04,4.1,9.5,M,-25.1,M,,0000*6C
$GPGSA,A,3,09,12,04,17,,,,,,,,,8.6,4.1,7.6*30
$GPRMC,174826.000,A,3748.8034,N,12217.8615,W,0.13,248.03,271011,,,A*73
$GPVTG,248.03,T,,M,0.13,N,0.2,K,A*00
$GPGGA,174827.000,3748.8031,N,12217.8615,W,1,04,4.1,8.5,M,-25.1,M,,0000*69
$GPGSA,A,3,09,12,04,17,,,,,,,,,8.7,4.1,7.6*31
$GPRMC,174827.000,A,3748.8031,N,12217.8615,W,0.40,152.74,271011,,,A*79
$GPVTG,152.74,T,,M,0.40,N,0.7,K,A*0B
$GPGGA,174828.000,3748.8029,N,12217.8616,W,1,04,4.1,7.7,M,-25.1,M,,0000*61
$GPGSA,A,3,09,12,04,17,,,,,,,,,8.7,4.1,7.6*31
$GPGSV,3,1,11,09,60,279,39,04,59,114,28,17,37,049,29,12,29,305,41*7B
$GPGSV,3,2,11,02,40,179,34,28,16,102,21,15,07,228,20,10,02,131,*72
$GPGSV,3,3,11,20,00,043,,25,00,296,,14,00,330,*43
$GPRMC,174828.000,A,3748.8029,N,12217.8616,W,0.11,236.37,271011,,,A*7E
$GPVTG,236.37,T,,M,0.11,N,0.2,K,A*0C
$GPGGA,174829.000,3748.8029,N,12217.8616,W,1,04,4.1,7.0,M,-25.1,M,,0000*67
$GPGSA,A,3,09,12,04,17,,,,,,,,,8.7,4.1,7.6*31
$GPRMC,174829.000,A,3748.8029,N,12217.8616,W,0.01,196.70,271011,,,A*74
$GPVTG,196.70,T,,M,0.01,N,0.0,K,A*05
$GPGGA,174830.000,3748.8036,N,12217.8615,W,1,04,4.1,7.7,M,-25.1,M,,0000*65
$GPGSA,A,3,09,12,04,17,,,,,,,,,8.7,4.1,7.6*31
$GPRMC,174830.000,A,3748.8036,N,12217.8615,W,0.15,64.62,271011,,,A*4B
$GPVTG,64.62,T,,M,0.15,N,0.3,K,A*3C
$GPGGA,174831.000,3748.8040,N,12217.8617,W,1,04,4.1,7.1,M,-25.1,M,,0000*61
$GPGSA,A,3,09,12,04,17,,,,,,,,,8.7,4.1,7.6*31
$GPRMC,174831.000,A,3748.8040,N,12217.8617,W,1.08,330.11,271011,,,A*72
$GPVTG,330.11,T,,M,1.08,N,2.0,K,A*06
$GPGGA,174832.000,3748.8044,N,12217.8619,W,1,04,4.2,8.5,M,-25.1,M,,0000*60
$GPGSA,A,3,09,12,04,17,,,,,,,,,8.7,4.2,7.6*32
$GPRMC,174832.000,A,3748.8044,N,12217.8619,W,0.65,171.45,271011,,,A*77
$GPVTG,171.45,T,,M,0.65,N,1.2,K,A*0B
$GPGGA,174833.000,3748.8039,N,12217.8616,W,1,04,4.2,6.1,M,-25.1,M,,0000*6E
$GPGSA,A,3,09,12,04,17,,,,,,,,,8.7,4.2,7.7*33
$GPGSV,3,1,12,09,60,279,30,04,59,114,25,17,37,049,29,12,29,305,41*7C
$GPGSV,3,2,12,02,40,179,31,28,16,102,27,15,07,228,,10,02,131,*70
$GPGSV,3,3,12,20,00,043,,25,00,296,,14,00,330,,51,43,156,35*77
$GPRMC,174833.000,A,3748.8039,N,12217.8616,W,0.51,159.81,271011,,,A*76
$GPVTG,159.81,T,,M,0.51,N,0.9,K,A*04
$GPGGA,174834.000,3748.8033,N,12217.8620,W,1,04,4.2,5.3,M,-25.1,M,,0000*67
$GPGSA,A,3,09,12,04,17,,,,,,,,,8.7,4.2,7.7*33
$GPRMC,174834.000,A,3748.8033,N,12217.8620,W,0.99,217.75,271011,,,A*78
$GPVTG,217.75,T,,M,0.99,N,1.8,K,A*02
$GPGGA,174835.000,3748.8040,N,12217.8624,W,1,04,4.2,7.0,M,-25.1,M,,0000*67
$GPGSA,A,3,09,12,04,17,,,,,,,,,8.7,4.2,7.7*33
$GPRMC,174835.000,A,3748.8040,N,12217.8624,W,0.69,232.56,271011,,,A*70
$GPVTG,232.56,T,,M,0.69,N,1.3,K,A*00
$GPGGA,174836.000,3748.8047,N,12217.8625,W,1,04,4.2,8.5,M,-25.1,M,,0000*68
$GPGSA,A,3,09,12,04,17,,,,,,,,,8.7,4.2,7.7*33
$GPRMC,174836.000,A,3748.8047,N,12217.8625,W,0.60,317.01,271011,,,A*78
$GPVTG,317.01,T,,M,0.60,N,1.1,K,A*0F
$GPGGA,174837.000,3748.8043,N,12217.8627,W,1,04,4.2,8.1,M,-25.1,M,,0000*6B
$GPGSA,A,3,09,12,04,17,,,,,,,,,8.8,4.2,7.7*3C
$GPRMC,174837.000,A,3748.8043,N,12217.8627,W,0.16,130.52,271011,,,A*7F
$GPVTG,130.52,T,,M,0.16,N,0.3,K,A*0C
$GPGGA,174838.000,3748.8042,N,12217.8621,W,1,04,4.2,8.2,M,-25.1,M,,0000*60
$GPGSA,A,3,09,12,04,17,,,,,,,,,8.8,4.2,7.7*3C
$GPGSV,3,1,12,09,60,279,35,04,59,114,24,17,37,049,22,12,29,305,29*7D
$GPGSV,3,2,12,02,40,179,32,28,16,102,11,15,07,228,,10,02,131,*76
$GPGSV,3,3,12,20,00,043,,25,00,296,,14,00,330,,51,43,156,22*71
$GPVTG,139.03,T,,M,0.38,N,0.7,K,A*09
$GPGGA,174839.000,3748.8047,N,12217.8623,W,1,04,4.2,9.6,M,-25.1,M,,0000*63
$GPGSA,A,3,09,12,04,17,,,,,,,,,8.8,4.2,7.7*3C
$GPRMC,174839.000,A,3748.8047,N,12217.8623,W,0.26,309.34,271011,,,A*7A
$GPVTG,309.34,T,,M,0.26,N,0.5,K,A*01
$GPGGA,174840.000,3748.8032,N,12217.8627,W,1,04,4.2,7.8,M,-25.1,M,,0000*6B
$GPGSA,A,3,09,12,04,17,,,,,,,,,8.8,4.2,7.7*3C
$GPRMC,174840.000,A,3748.8032,N,12217.8627,W,0.62,196.77,271011,,,A*71
$GPVTG,196.77,T,,M,0.62,N,1.2,K,A*04
$GPGGA,174841.000,3748.8020,N,12217.8629,W,1,04,4.2,6.4,M,-25.1,M,,0000*6A
$GPGSA,A,3,09,12,04,17,,,,,,,,,8.8,4.2,7.7*3C
$GPRMC,174841.000,A,3748.8020,N,12217.8629,W,0.53,186.33,271011,,,A*7E
$GPVTG,186.33,T,,M,0.53,N,1.0,K,A*05
$GPGGA,174842.000,3748.8012,N,12217.8626,W,1,04,4.2,5.0,M,-25.1,M,,0000*60
$GPGSA,A,3,09,12,04,17,,,,,,,,,8.8,4.2,7.7*3C
$GPRMC,174842.000,A,3748.8012,N,12217.8626,W,0.44,108.84,271011,,,A*7F
$GPVTG,108.84,T,,M,0.44,N,0.8,K,A*00
$GPGGA,174843.000,3748.8009,N,12217.8625,W,1,04,4.2,4.5,M,-25.1,M,,0000*6C
$GPGSA,A,3,09,12,04,17,,,,,,,,,8.8,4.2,7.7*3C
$GPGSV,3,1,12,09,60,279,38,04,59,114,27,17,37,049,26,12,29,305,36*79
$GPGSV,3,2,12,02,40,179,35,28,16,102,22,15,07,228,20,10,02,131,*73
$GPGSV,3,3,12,20,00,043,,25,00,296,,14,00,330,,51,43,156,29*7A
$GPRMC,174843.000,A,3748.8009,N,12217.8625,W,0.27,160.67,271011,,,A*71
$GPVTG,160.67,T,,M,0.27,N,0.5,K,A*0B
$GPGGA,174844.000,3748.8012,N,12217.8622,W,1,04,4.2,4.8,M,-25.1,M,,0000*6B
$GPGSA,A,3,09,12,04,17,,,,,,,,,8.8,4.2,7.8*33
$GPRMC,174844.000,A,3748.8012,N,12217.8622,W,0.43,83.48,271011,,,A*48
$GPVTG,83.48,T,,M,0.43,N,0.8,K,A*35
$GPGGA,174845.000,3748.8014,N,12217.8620,W,1,04,4.2,4.9,M,-25.1,M,,0000*6F
$GPGSA,A,3,09,12,04,17,,,,,,,,,8.8,4.2,7.8*33
$GPRMC,174845.000,A,3748.8014,N,12217.8620,W,0.48,118.69,271011,,,A*76
$GPVTG,118.69,T,,M,0.48,N,0.9,K,A*0F
$GPGGA,174846.000,3748.8011,N,12217.8615,W,1,04,4.2,2.1,M,-25.1,M,,0000*61
$GPGSA,A,3,09,12,04,17,,,,,,,,,8.8,4.2,7.8*33
$GPRMC,174846.000,A,3748.8011,N,12217.8615,W,0.56,121.59,271011,,,A*70
$GPVTG,121.59,T,,M,0.56,N,1.0,K,A*01
$GPGGA,174847.000,3748.8017,N,12217.8611,W,1,04,4.2,2.3,M,-25.1,M,,0000*60
$GPGSA,A,3,09,12,04,17,,,,,,,,,8.9,4.2,7.8*32
$GPRMC,174847.000,A,3748.8017,N,12217.8611,W,1.74,40.63,271011,,,A*4D
$GPVTG,40.63,T,,M,1.74,N,3.2,K,A*3F
$GPGGA,174848.000,3748.8015,N,12217.8607,W,1,04,4.2,1.1,M,-25.1,M,,0000*6B
$GPGSA,A,3,09,12,04,17,,,,,,,,,8.9,4.2,7.8*32
$GPGSV,3,1,12,09,60,279,35,04,59,114,25,17,37,049,33,12,29,305,29*7C
$GPGSV,3,2,12,02,40,179,26,28,16,102,22,15,07,228,18,10,02,131,*7A
$GPGSV,3,3,12,20,00,043,,25,00,296,,14,00,330,,51,43,156,28*7B
$GPRMC,174848.000,A,3748.8015,N,12217.8607,W,0.27,124.06,271011,,,A*70
$GPVTG,124.06,T,,M,0.27,N,0.5,K,A*0C
$GPGGA,174849.000,3748.8007,N,12217.8605,W,1,04,4.2,-0.3,M,-25.1,M,,0000*45
$GPGSA,A,3,09,12,04,17,,,,,,,,,8.9,4.2,7.8*32
$GPRMC,174849.000,A,3748.8007,N,12217.8605,W,1.22,171.81,271011,,,A*7B
$GPVTG,171.81,T,,M,1.22,N,2.3,K,A*03
$GPGGA,174850.000,3748.8010,N,12217.8604,W,1,04,4.2,0.4,M,-25.1,M,,0000*60
$GPGSA,A,3,09,12,04,17,,,,,,,,,8.9,4.2,7.8*32
$GPRMC,174850.000,A,3748.8010,N,12217.8604,W,0.13,181.95,271011,,,A*7D
$GPVTG,181.95,T,,M,0.13,N,0.2,K,A*09
$GPGGA,174851.000,3748.8011,N,12217.8607,W,1,04,4.3,-1.1,M,-25.1,M,,0000*4B
$GPGSA,A,3,09,12,04,17,,,,,,,,,8.9,4.3,7.8*33
$GPRMC,174851.000,A,3748.8011,N,12217.8607,W,1.28,311.95,271011,,,A*7C
$GPVTG,311.95,T,,M,1.28,N,2.4,K,A*0F
$GPGGA,174852.000,3748.8012,N,12217.8608,W,1,04,4.3,-1.0,M,-25.1,M,,0000*45
$GPGSA,A,3,09,12,04,17,,,,,,,,,8.9,4.3,7.8*33
$GPRMC,174852.000,A,3748.8012,N,12217.8608,W,0.77,166.50,271011,,,A*73
$GPVTG,166.50,T,,M,0.77,N,1.4,K,A*0C
$GPGGA,174853.000,3748.8010,N,12217.8607,W,1,04,4.3,-1.0,M,-25.1,M,,0000*49
$GPGSA,A,3,09,12,04,17,,,,,,,,,8.9,4.3,7.8*33
$GPGSV,3,1,11,09,60,279,39,04,59,114,29,17,37,049,40,12,29,305,41*75
$GPGSV,3,2,11,02,40,179,32,28,16,102,21,15,07,228,19,10,02,131,*7E
$GPGSV,3,3,11,20,00,043,,25,00,296,,14,00,330,*43
$GPRMC,174853.000,A,3748.8010,N,12217.8607,W,0.66,165.24,271011,,,A*7F
$GPGGA,174854.000,3748.8016,N,12217.8608,W,1,04,4.3,0.5,M,-25.1,M,,0000*6E
$GPGSA,A,3,09,12,04,17,,,,,,,,,8.9,4.3,7.8*33
$GPRMC,174854.000,A,3748.8016,N,12217.8608,W,0.73,175.09,271011,,,A*7B
$GPVTG,175.09,T,,M,0.73,N,1.3,K,A*01
$GPGGA,174855.000,3748.8019,N,12217.8609,W,1,04,4.3,1.4,M,-25.1,M,,0000*61
$GPGSA,A,3,09,12,04,17,,,,,,,,,8.9,4.3,7.9*32
$GPRMC,174855.000,A,3748.8019,N,12217.8609,W,0.59,169.22,271011,,,A*78
$GPVTG,169.22,T,,M,0.59,N,1.1,K,A*0F
$GPGGA,174856.000,3748.8021,N,12217.8609,W,1,04,4.3,2.2,M,-25.1,M,,0000*6C
$GPGSA,A,3,09,12,04,17,,,,,,,,,9.0,4.3,7.9*3A
$GPRMC,174856.000,A,3748.8021,N,12217.8609,W,0.47,163.09,271011,,,A*7C
$GPVTG,163.09,T,,M,0.47,N,0.9,K,A*0A
$GPGGA,174857.000,3748.8021,N,12217.8608,W,1,04,4.3,2.4,M,-25.1,M,,0000*6A
$GPGSA,A,3,09,12,04,17,,,,,,,,,9.0,4.3,7.9*3A
$GPRMC,174857.000,A,3748.8021,N,12217.8608,W,0.18,155.43,271011,,,A*7D
$GPVTG,155.43,T,,M,0.18,N,0.3,K,A*01
$GPGGA,174858.000,3748.8016,N,12217.8606,W,1,04,4.3,1.7,M,-25.1,M,,0000*6F
$GPGSA,A,3,09,12,04,17,,,,,,,,,9.0,4.3,7.9*3A
$GPGSV,3,1,12,09,60,279,37,04,59,114,25,17,37,049,35,12,29,305,36*76
$GPGSV,3,2,12,02,40,179,31,28,16,102,17,15,07,228,23,10,02,131,*72
$GPGSV,3,3,12,20,00,043,,25,00,296,,14,00,330,,51,43,156,25*76
$GPRMC,174858.000,A,3748.8016,N,12217.8606,W,0.44,167.57,271011,,,A*75
$GPVTG,167.57,T,,M,0.44,N,0.8,K,A*07
$GPGGA,174859.000,3748.8013,N,12217.8605,W,1,04,4.3,1.5,M,-25.1,M,,0000*6A
$GPGSA,A,3,09,12,04,17,,,,,,,,,9.0,4.3,7.9*3A
$GPRMC,174859.000,A,3748.8013,N,12217.8605,W,0.37,161.56,271011,,,A*71
$GPVTG,161.56,T,,M,0.37,N,0.7,K,A*0B
$GPGGA,174900.000,3748.8023,N,12217.8606,W,1,04,4.3,3.2,M,-25.1,M,,0000*62
$GPGSA,A,3,09,12,04,17,,,,,,,,,9.0,4.3,7.9*3A
$GPRMC,174900.000,A,3748.8023,N,12217.8606,W,0.26,3.77,271011,,,A*7A
$GPVTG,3.77,T,,M,0.26,N,0.5,K,A*0F
$GPGGA,174901.000,3748.8040,N,12217.8608,W,1,04,4.3,6.4,M,-25.1,M,,0000*6B
$GPGSA,A,3,09,12,04,17,,,,,,,,,9.0,4.3,7.9*3A
$GPRMC,174901.000,A,3748.8040,N,12217.8608,W,0.42,348.23,271011,,,A*7F
$GPVTG,348.23,T,,M,0.42,N,0.8,K,A*0D
$GPGGA,174902.000,3748.8053,N,12217.8610,W,1,04,4.3,9.1,M,-25.1,M,,0000*69
$GPGSA,A,3,09,12,04,17,,,,,,,,,9.0,4.3,7.9*3A
$GPRMC,174902.000,A,3748.8053,N,12217.8610,W,0.40,352.92,271011,,,A*74
$GPVTG,352.92,T,,M,0.40,N,0.7,K,A*01
$GPGGA,174903.000,3748.8048,N,12217.8609,W,1,04,4.3,8.5,M,-25.1,M,,0000*6F
$GPGSA,A,3,09,12,04,17,,,,,,,,,9.0,4.3,7.9*3A
$GPGSV,3,1,12,09,60,279,37,04,59,114,25,17,37,049,36,12,29,305,38*7B
$GPGSV,3,2,12,02,40,179,24,28,16,102,21,15,07,228,21,10,02,131,*71
$GPGSV,3,3,12,20,00,043,,25,00,296,,14,00,330,,51,43,156,28*7B
$GPRMC,174903.000,A,3748.8048,N,12217.8609,W,0.19,149.69,271011,,,A*77
$GPVTG,149.69,T,,M,0.19,N,0.3,K,A*05
$GPGGA,174904.000,3748.8044,N,12217.8608,W,1,04,4.3,8.2,M,-25.1,M,,0000*62
$GPGSA,A,3,09,12,04,17,,,,,,,,,9.0,4.3,7.9*3A
$GPRMC,174904.000,A,3748.8044,N,12217.8608,W,0.15,156.71,271011,,,A*76
$GPVTG,156.71,T,,M,0.15,N,0.3,K,A*0E
$GPGGA,174905.000,3748.8041,N,12217.8608,W,1,04,4.3,8.0,M,-25.1,M,,0000*64
$GPGSA,A,3,09,12,04,17,,,,,,,,,9.1,4.3,8.0*3D
$GPRMC,174905.000,A,3748.8041,N,12217.8608,W,0.12,160.72,271011,,,A*73
$GPVTG,160.72,T,,M,0.12,N,0.2,K,A*0E
$GPGGA,174906.000,3748.8058,N,12217.8611,W,1,04,4.3,11.4,M,-25.1,M,,0000*5B
$GPGSA,A,3,09,12,04,17,,,,,,,,,9.1,4.3,8.0*3D
$GPRMC,174906.000,A,3748.8058,N,12217.8611,W,0.67,348.45,271011,,,A*7E
$GPVTG,348.45,T,,M,0.67,N,1.2,K,A*01
$GPGGA,174907.000,3748.8061,N,12217.8611,W,1,04,4.3,12.1,M,-25.1,M,,0000*56
$GPGSA,A,3,09,12,04,17,,,,,,,,,9.1,4.3,8.0*3D
$GPRMC,174907.000,A,3748.8061,N,12217.8611,W,0.32,10.39,271011,,,A*40
$GPVTG,10.39,T,,M,0.32,N,0.6,K,A*31
$GPGGA,174908.000,3748.8053,N,12217.8610,W,1,04,4.3,11.0,M,-25.1,M,,0000*5B
$GPGSA,A,3,09,12,04,17,,,,,,,,,9.1,4.3,8.0*3D
$GPGSV,3,1,12,09,60,279,38,04,59,114,23,17,37,049,30,12,29,305,39*75
$GPGSV,3,2,12,02,40,179,27,28,16,102,21,15,07,228,17,10,02,131,*77
$GPGSV,3,3,12,20,00,043,,25,00,296,,14,00,330,,51,43,156,26*75
$GPRMC,174908.000,A,3748.8053,N,12217.8610,W,0.38,164.13,271011,,,A*7F
$GPGGA,174909.000,3748.8052,N,12217.8610,W,1,04,4.3,11.2,M,-25.1,M,,0000*59
$GPGSA,A,3,09,12,04,17,,,,,,,,,9.1,4.3,8.0*3D
$GPRMC,174909.000,A,3748.8052,N,12217.8610,W,0.10,141.62,271011,,,A*74
$GPVTG,141.62,T,,M,0.10,N,0.2,K,A*0E
$GPGGA,174910.000,3748.8055,N,12217.8611,W,1,04,4.4,12.1,M,-25.1,M,,0000*50
$GPGSA,A,3,09,12,04,17,,,,,,,,,9.1,4.4,8.0*3A
$GPRMC,174910.000,A,3748.8055,N,12217.8611,W,0.28,345.52,271011,,,A*74
$GPVTG,345.52,T,,M,0.28,N,0.5,K,A*07
$GPGGA,174911.000,3748.8070,N,12217.8613,W,1,04,4.4,15.3,M,-25.1,M,,0000*51
$GPGSA,A,3,09,12,04,17,,,,,,,,,9.1,4.4,8.0*3A
$GPRMC,174911.000,A,3748.8070,N,12217.8613,W,0.65,337.68,271011,,,A*75
$GPVTG,337.68,T,,M,0.65,N,1.2,K,A*04
$GPGGA,174912.000,3748.8089,N,12217.8616,W,1,04,4.4,19.2,M,-25.1,M,,0000*5C
$GPGSA,A,3,09,12,04,17,,,,,,,,,9.1,4.4,8.0*3A
$GPRMC,174912.000,A,3748.8089,N,12217.8616,W,0.90,1.95,271011,,,A*7B
$GPVTG,1.95,T,,M,0.90,N,1.7,K,A*0F
$GPGGA,174913.000,3748.8108,N,12217.8619,W,1,04,4.4,23.2,M,-25.1,M,,0000*53
$GPGSA,A,3,09,12,04,17,,,,,,,,,9.1,4.4,8.0*3A
$GPGSV,3,1,11,04,60,112,31,09,60,277,39,02,41,179,28,17,36,050,32*7B
$GPGSV,3,2,11,12,30,305,40,28,16,102,21,15,06,228,28,10,03,130,*77
$GPGSV,3,3,11,25,01,297,18,20,00,042,,14,00,329,*43
$GPRMC,174913.000,A,3748.8108,N,12217.8619,W,0.93,356.87,271011,,,A*7C
$GPVTG,356.87,T,,M,0.93,N,1.7,K,A*0E
$GPGGA,174914.000,3748.8122,N,12217.8621,W,1,04,4.4,26.4,M,-25.1,M,,0000*54
$GPGSA,A,3,09,12,04,17,,,,,,,,,9.2,4.4,8.0*39
$GPRMC,174914.000,A,3748.8122,N,12217.8621,W,1.06,0.59,271011,,,A*76
$GPVTG,0.59,T,,M,1.06,N,2.0,K,A*04
$GPGGA,174915.000,3748.8120,N,12217.8620,W,1,04,4.4,26.3,M,-25.1,M,,0000*51
$GPGSA,A,3,09,12,04,17,,,,,,,,,9.2,4.4,8.1*38
$GPRMC,174915.000,A,3748.8120,N,12217.8620,W,0.84,359.88,271011,,,A*7C
$GPVTG,359.88,T,,M,0.84,N,1.5,K,A*0A
$GPGGA,174916.000,3748.8117,N,12217.8620,W,1,03,3.3,25.7,M,-25.1,M,,0000*56
$GPGSA,A,2,09,12,17,,,,,,,,,,3.5,3.3,1.0*38
$GPRMC,174916.000,A,3748.8117,N,12217.8620,W,0.60,5.51,271011,,,A*7F
$GPVTG,5.51,T,,M,0.60,N,1.1,K,A*0A
$GPGGA,174917.000,3748.8109,N,12217.8619,W,1,04,4.4,24.5,M,-25.1,M,,0000*56
$GPGSA,A,3,09,12,04,17,,,,,,,,,9.2,4.4,8.1*38
$GPRMC,174917.000,A,3748.8109,N,12217.8619,W,0.31,357.46,271011,,,A*7D
$GPVTG,357.46,T,,M,0.31,N,0.6,K,A*0A
$GPGGA,174918.000,3748.8112,N,12217.8617,W,1,04,4.4,25.2,M,-25.1,M,,0000*5B
$GPGSA,A,3,09,12,04,17,,,,,,,,,9.2,4.4,8.1*38
$GPGSV,3,1,11,04,60,112,22,09,60,277,39,02,41,179,20,17,36,050,26*74
$GPGSV,3,2,11,12,30,305,40,28,16,102,21,15,06,228,26,10,03,130,*79
$GPGSV,3,3,11,25,01,297,16,20,00,042,,14,00,329,*4D
$GPVTG,3.53,T,,M,0.79,N,1.5,K,A*02
$GPGGA,174919.000,3748.8131,N,12217.8611,W,1,04,4.4,28.7,M,-25.1,M,,0000*55
$GPGSA,A,3,09,12,04,17,,,,,,,,,9.2,4.4,8.1*38
$GPRMC,174919.000,A,3748.8131,N,12217.8611,W,1.06,23.60,271011,,,A*41
$GPVTG,23.60,T,,M,1.06,N,2.0,K,A*3F
$GPGGA,174920.000,3748.8141,N,12217.8604,W,1,04,4.4,30.6,M,-25.1,M,,0000*54
$GPGSA,A,3,09,12,04,17,,,,,,,,,9.2,4.4,8.1*38
$GPRMC,174920.000,A,3748.8141,N,12217.8604,W,0.77,25.86,271011,,,A*41
$GPVTG,25.86,T,,M,0.77,N,1.4,K,A*31
$GPGGA,174921.000,3748.8141,N,12217.8599,W,1,04,4.4,30.5,M,-25.1,M,,0000*51
$GPGSA,A,3,09,12,04,17,,,,,,,,,9.2,4.4,8.1*38
$GPRMC,174921.000,A,3748.8141,N,12217.8599,W,0.69,46.77,271011,,,A*43
$GPVTG,46.77,T,,M,0.69,N,1.3,K,A*32
$GPGGA,174922.000,3748.8123,N,12217.8600,W,1,04,4.4,27.6,M,-25.1,M,,0000*50
$GPGSA,A,3,09,12,04,17,,,,,,,,,9.3,4.4,8.1*39
$GPRMC,174922.000,A,3748.8123,N,12217.8600,W,0.20,66.48,271011,,,A*44
$GPVTG,66.48,T,,M,0.20,N,0.4,K,A*37
$GPGGA,174923.000,3748.8119,N,12217.8604,W,1,04,4.4,27.7,M,-25.1,M,,0000*5D
$GPGSA,A,3,09,12,04,17,,,,,,,,,9.3,4.4,8.1*39
$GPGSV,3,1,11,04,60,112,17,09,60,277,27,02,41,179,19,17,36,050,24*75
$GPGSV,3,2,11,12,30,305,32,28,16,102,14,15,06,228,20,10,03,130,*7C
$GPGSV,3,3,11,25,01,297,15,20,00,042,,14,00,329,*4E
$GPRMC,174923.000,A,3748.8119,N,12217.8604,W,0.38,2.97,271011,,,A*71
$GPVTG,2.97,T,,M,0.38,N,0.7,K,A*0D
$GPGGA,174924.000,3748.8118,N,12217.8609,W,1,04,4.4,28.5,M,-25.1,M,,0000*5B
$GPGSA,A,3,09,12,04,17,,,,,,,,,9.3,4.4,8.1*39
$GPRMC,174924.000,A,3748.8118,N,12217.8609,W,0.90,263.50,271011,,,A*76
$GPVTG,263.50,T,,M,0.90,N,1.7,K,A*00
$GPGGA,174925.000,3748.8106,N,12217.8610,W,1,04,4.4,26.8,M,-25.1,M,,0000*5E
$GPGSA,A,3,09,12,04,17,,,,,,,,,9.3,4.4,8.2*3A
$GPRMC,174925.000,A,3748.8106,N,12217.8610,W,0.38,341.81,271011,,,A*7F
$GPVTG,341.81,T,,M,0.38,N,0.7,K,A*0E
$GPGGA,174926.000,3748.8098,N,12217.8611,W,1,04,4.4,25.9,M,-25.1,M,,0000*58
$GPGSA,A,3,09,12,04,17,,,,,,,,,9.3,4.4,8.2*3A
$GPRMC,174926.000,A,3748.8098,N,12217.8611,W,0.12,27.73,271011,,,A*4D
$GPVTG,27.73,T,,M,0.12,N,0.2,K,A*3D
$GPGGA,174927.000,3748.8089,N,12217.8612,W,1,04,4.5,25.0,M,-25.1,M,,0000*52
$GPGSA,A,3,09,12,04,17,,,,,,,,,9.3,4.5,8.2*3B
$GPRMC,174927.000,A,3748.8089,N,12217.8612,W,0.10,278.67,271011,,,A*70
$GPVTG,278.67,T,,M,0.10,N,0.2,K,A*02
$GPGGA,174928.000,3748.8075,N,12217.8612,W,1,04,4.5,23.0,M,-25.1,M,,0000*58
$GPGSA,A,3,09,12,04,17,,,,,,,,,9.3,4.5,8.2*3B
$GPGSV,3,1,11,04,60,112,25,09,60,277,37,02,41,179,27,17,36,050,33*7E
$GPGSV,3,2,11,12,30,305,26,28,16,102,13,15,06,228,20,10,03,130,*7E
$GPGSV,3,3,11,25,01,297,14,20,00,042,,14,00,329,*4F
$GPRMC,174928.000,A,3748.8075,N,12217.8612,W,0.06,173.81,271011,,,A*7B
$GPVTG,173.81,T,,M,0.06,N,0.1,K,A*06
$GPGGA,174929.000,3748.8061,N,12217.8610,W,1,04,4.5,21.3,M,-25.1,M,,0000*5F
$GPGSA,A,3,09,12,04,17,,,,,,,,,9.3,4.5,8.2*3B
$GPRMC,174929.000,A,3748.8061,N,12217.8610,W,0.43,135.99,271011,,,A*77
$GPVTG,135.99,T,,M,0.43,N,0.8,K,A*05
$GPGGA,174930.000,3748.8045,N,12217.8609,W,1,04,4.5,18.0,M,-25.1,M,,0000*50
$GPGSA,A,3,09,12,04,17,,,,,,,,,9.3,4.5,8.2*3B
$GPRMC,174930.000,A,3748.8045,N,12217.8609,W,0.60,159.61,271011,,,A*7D
$GPVTG,159.61,T,,M,0.60,N,1.1,K,A*01
$GPGGA,174931.000,3748.8029,N,12217.8608,W,1,04,4.5,14.9,M,-25.1,M,,0000*5F
$GPGSA,A,3,09,12,04,17,,,,,,,,,9.4,4.5,8.2*3C
$GPRMC,174931.000,A,3748.8029,N,12217.8608,W,0.85,164.87,271011,,,A*7A
$GPVTG,164.87,T,,M,0.85,N,1.6,K,A*0B
$GPGGA,174932.000,3748.8035,N,12217.8612,W,1,04,4.5,15.1,M,-25.1,M,,0000*53
$GPGSA,A,3,09,12,04,17,,,,,,,,,9.4,4.5,8.2*3C
$GPRMC,174932.000,A,3748.8035,N,12217.8612,W,0.17,204.07,271011,,,A*79
$GPVTG,204.07,T,,M,0.17,N,0.3,K,A*09
$GPGGA,174933.000,3748.8034,N,12217.8614,W,1,04,4.5,14.6,M,-25.1,M,,0000*53
$GPGSA,A,3,09,12,04,17,,,,,,,,,9.4,4.5,8.2*3C
$GPGSV,3,1,11,04,60,112,25,09,60,277,36,02,41,179,20,17,36,050,34*7F
$GPGSV,3,2,11,12,30,305,38,28,16,102,,15,06,228,24,10,03,130,*77
$GPGSV,3,3,11,25,01,297,26,20,00,042,,14,00,329,*4E
$GPRMC,174933.000,A,3748.8034,N,12217.8614,W,0.20,186.17,271011,,,A*73
$GPGGA,174934.000,3748.8036,N,12217.8616,W,1,04,4.5,14.5,M,-25.1,M,,0000*57
$GPGSA,A,3,09,12,04,17,,,,,,,,,9.4,4.5,8.3*3D
$GPRMC,174934.000,A,3748.8036,N,12217.8616,W,0.20,170.40,271011,,,A*7F
$GPVTG,170.40,T,,M,0.20,N,0.4,K,A*09
$GPGGA,174935.000,3748.8037,N,12217.8617,W,1,04,4.5,14.4,M,-25.1,M,,0000*57
$GPGSA,A,3,09,12,04,17,,,,,,,,,9.4,4.5,8.3*3D
$GPRMC,174935.000,A,3748.8037,N,12217.8617,W,0.16,172.39,271011,,,A*77
$GPVTG,172.39,T,,M,0.16,N,0.3,K,A*07
$GPGGA,174936.000,3748.8038,N,12217.8618,W,1,04,4.5,14.4,M,-25.1,M,,0000*54
$GPGSA,A,3,09,12,04,17,,,,,,,,,9.4,4.5,8.3*3D
$GPRMC,174936.000,A,3748.8038,N,12217.8618,W,0.24,161.26,271011,,,A*79
$GPVTG,161.26,T,,M,0.24,N,0.4,K,A*0D
$GPGGA,174937.000,3748.8039,N,12217.8619,W,1,04,4.5,14.2,M,-25.1,M,,0000*53
$GPGSA,A,3,09,12,04,17,,,,,,,,,9.4,4.5,8.3*3D
$GPRMC,174937.000,A,3748.8039,N,12217.8619,W,0.58,182.21,271011,,,A*79
$GPVTG,182.21,T,,M,0.58,N,1.1,K,A*08
$GPGGA,174938.000,3748.8038,N,12217.8619,W,1,04,4.5,13.4,M,-25.1,M,,0000*5C
$GPGSA,A,3,09,12,04,17,,,,,,,,,9.4,4.5,8.3*3D
$GPGSV,3,1,11,04,60,112,30,09,60,277,42,02,41,179,22,17,36,050,37*79
$GPGSV,3,2,11,12,30,305,44,28,16,102,17,15,06,228,24,10,03,130,*7A
$GPGSV,3,3,11,25,01,297,26,20,00,042,,14,00,329,*4E
$GPRMC,174938.000,A,3748.8038,N,12217.8619,W,0.18,175.21,271011,,,A*7B
$GPVTG,175.21,T,,M,0.18,N,0.3,K,A*07
$GPGGA,174939.000,3748.8039,N,12217.8620,W,1,04,4.5,13.4,M,-25.1,M,,0000*56
$GPGSA,A,3,09,12,04,17,,,,,,,,,9.5,4.5,8.3*3C
$GPRMC,174939.000,A,3748.8039,N,12217.8620,W,0.32,178.86,271011,,,A*79
$GPVTG,178.86,T,,M,0.32,N,0.6,K,A*0A
$GPGGA,174940.000,3748.8040,N,12217.8620,W,1,04,4.5,13.5,M,-25.1,M,,0000*57
$GPGSA,A,3,09,12,04,17,,,,,,,,,9.5,4.5,8.3*3C
$GPRMC,174940.000,A,3748.8040,N,12217.8620,W,0.17,165.21,271011,,,A*7F
$GPVTG,165.21,T,,M,0.17,N,0.3,K,A*09
$GPGGA,174941.000,3748.8041,N,12217.8621,W,1,04,4.5,13.5,M,-25.1,M,,0000*56
$GPGSA,A,3,09,12,04,17,,,,,,,,,9.5,4.5,8.3*3C
$GPRMC,174941.000,A,3748.8041,N,12217.8621,W,0.08,142.77,271011,,,A*76
$GPVTG,142.77,T,,M,0.08,N,0.1,K,A*03
$GPGGA,174942.000,3748.8042,N,12217.8621,W,1,04,4.5,13.5,M,-25.1,M,,0000*56
$GPGSA,A,3,09,12,04,17,,,,,,,,,9.5,4.5,8.3*3C
$GPRMC,174942.000,A,3748.8042,N,12217.8621,W,0.11,159.05,271011,,,A*71
$GPVTG,159.05,T,,M,0.11,N,0.2,K,A*07
$GPGGA,174943.000,3748.8045,N,12217.8621,W,1,04,4.5,14.4,M,-25.1,M,,0000*56
$GPGSA,A,3,09,12,04,17,,,,,,,,,9.5,4.5,8.3*3C
$GPGSV,3,1,11,04,60,112,24,09,60,276,32,02,41,179,14,17,36,050,33*7B
$GPGSV,3,2,11,12,30,305,36,28,16,103,21,15,06,228,24,10,03,130,*7B
$GPGSV,3,3,11,25,01,297,16,20,00,042,,14,00,329,*4D
$GPRMC,174943.000,A,3748.8045,N,12217.8621,W,0.55,142.36,271011,,,A*7D
$GPVTG,142.36,T,,M,0.55,N,1.0,K,A*0E
$GPGGA,174944.000,3748.8047,N,12217.8623,W,1,04,4.6,14.0,M,-25.1,M,,0000*56
$GPGSA,A,3,09,12,04,17,,,,,,,,,9.5,4.6,8.4*38
$GPRMC,174944.000,A,3748.8047,N,12217.8623,W,0.30,351.65,271011,,,A*7F
$GPVTG,351.65,T,,M,0.30,N,0.6,K,A*0C
$GPGGA,174945.000,3748.8046,N,12217.8620,W,1,04,4.6,12.8,M,-25.1,M,,0000*5B
$GPGSA,A,3,09,12,04,17,,,,,,,,,9.5,4.6,8.4*38
$GPRMC,174945.000,A,3748.8046,N,12217.8620,W,0.74,7.82,271011,,,A*75
$GPVTG,7.82,T,,M,0.74,N,1.4,K,A*06
$GPGGA,174946.000,3748.8038,N,12217.8621,W,1,04,4.6,10.8,M,-25.1,M,,0000*52
$GPGSA,A,3,09,12,04,17,,,,,,,,,9.5,4.6,8.4*38
$GPRMC,174946.000,A,3748.8038,N,12217.8621,W,0.24,359.13,271011,,,A*7B
$GPVTG,359.13,T,,M,0.24,N,0.4,K,A*02
$GPGGA,174947.000,3748.8027,N,12217.8620,W,1,04,4.6,8.4,M,-25.1,M,,0000*69
$GPGSA,A,3,09,12,04,17,,,,,,,,,9.6,4.6,8.4*3B
$GPRMC,174947.000,A,3748.8027,N,12217.8620,W,0.32,179.97,271011,,,A*7E
$GPVTG,179.97,T,,M,0.32,N,0.6,K,A*0B
$GPGGA,174948.000,3748.8016,N,12217.8620,W,1,04,4.6,6.4,M,-25.1,M,,0000*6A
$GPGSA,A,3,09,12,04,17,,,,,,,,,9.6,4.6,8.4*3B
$GPGSV,3,1,11,04,60,112,27,09,60,276,39,02,41,179,28,17,36,050,32*7D
$GPGSV,3,2,11,12,30,305,42,28,16,103,,15,06,228,,10,03,130,*7D
$GPGSV,3,3,11,25,01,297,14,20,00,042,,14,00,329,*4F
$GPRMC,174948.000,A,3748.8016,N,12217.8620,W,0.44,186.33,271011,,,A*7C
$GPVTG,186.33,T,,M,0.44,N,0.8,K,A*0A
$GPGGA,174949.000,3748.8013,N,12217.8620,W,1,04,4.6,5.6,M,-25.1,M,,0000*6F
$GPGSA,A,3,09,12,04,17,,,,,,,,,9.6,4.6,8.4*3B
$GPRMC,174949.000,A,3748.8013,N,12217.8620,W,0.54,180.27,271011,,,A*7A
$GPVTG,180.27,T,,M,0.54,N,1.0,K,A*01
$GPGGA,174950.000,3748.8013,N,12217.8620,W,1,04,4.6,5.6,M,-25.1,M,,0000*67
$GPGSA,A,3,09,12,04,17,,,,,,,,,9.6,4.6,8.4*3B
$GPRMC,174950.000,A,3748.8013,N,12217.8620,W,0.51,169.48,271011,,,A*79
$GPVTG,169.48,T,,M,0.51,N,0.9,K,A*02
$GPGGA,174951.000,3748.8016,N,12217.8618,W,1,04,4.6,6.5,M,-25.1,M,,0000*68
$GPGSA,A,3,09,12,04,17,,,,,,,,,9.6,4.6,8.4*3B
$GPRMC,174951.000,A,3748.8016,N,12217.8618,W,1.26,166.84,271011,,,A*78
$GPVTG,166.84,T,,M,1.26,N,2.3,K,A*04
$GPGGA,174952.000,3748.8001,N,12217.8621,W,1,04,4.6,4.4,M,-25.1,M,,0000*64
$GPGSA,A,3,09,12,04,17,,,,,,,,,9.6,4.6,8.4*3B
$GPRMC,174952.000,A,3748.8001,N,12217.8621,W,2.06,153.31,271011,,,A*7E
$GPVTG,153.31,T,,M,2.06,N,3.8,K,A*07
$GPGGA,174953.000,3748.7988,N,12217.8618,W,1,04,4.6,4.6,M,-25.1,M,,0000*6A
$GPGSA,A,3,09,12,04,17,,,,,,,,,9.6,4.6,8.5*3A
$GPGSV,3,1,12,04,60,112,35,09,60,276,36,02,41,179,40,17,36,050,25*7A
$GPGSV,3,2,12,12,30,305,32,28,16,103,30,15,06,228,28,10,03,130,*70
$GPGSV,3,3,12,25,01,297,15,20,00,042,,14,00,329,,51,43,156,38*77
$GPRMC,174953.000,A,3748.7988,N,12217.8618,W,2.59,142.29,271011,,,A*71
$GPVTG,142.29,T,,M,2.59,N,4.8,K,A*03
$GPGGA,174954.000,3748.7975,N,12217.8615,W,1,04,4.6,2.9,M,-25.1,M,,0000*6B
$GPGSA,A,3,09,12,04,17,,,,,,,,,9.6,4.6,8.5*3A
$GPRMC,174954.000,A,3748.7975,N,12217.8615,W,2.49,136.77,271011,,,A*70
$GPVTG,136.77,T,,M,2.49,N,4.6,K,A*04
$GPGGA,174955.000,3748.7962,N,12217.8611,W,1,04,4.6,2.6,M,-25.1,M,,0000*67
$GPGSA,A,3,09,12,04,17,,,,,,,,,9.7,4.6,8.5*3B
$GPRMC,174955.000,A,3748.7962,N,12217.8611,W,3.05,139.34,271011,,,A*72
$GPVTG,139.34,T,,M,3.05,N,5.6,K,A*04
$GPGGA,174956.000,3748.7955,N,12217.8603,W,1,04,4.6,3.1,M,-25.1,M,,0000*65
$GPGSA,A,3,09,12,04,17,,,,,,,,,9.7,4.6,8.5*3B
$GPRMC,174956.000,A,3748.7955,N,12217.8603,W,2.82,134.34,271011,,,A*75
$GPVTG,134.34,T,,M,2.82,N,5.2,K,A*03
$GPGGA,174957.000,3748.7952,N,12217.8596,W,1,04,4.6,3.2,M,-25.1,M,,0000*6F
$GPGSA,A,3,09,12,04,17,,,,,,,,,9.7,4.6,8.5*3B
$GPRMC,174957.000,A,3748.7952,N,12217.8596,W,2.28,126.31,271011,,,A*7A
$GPVTG,126.31,T,,M,2.28,N,4.2,K,A*04
$GPGGA,174958.000,3748.7947,N,12217.8589,W,1,04,4.6,3.6,M,-25.1,M,,0000*6E
$GPGSA,A,3,09,12,04,17,,,,,,,,,9.7,4.6,8.5*3B
$GPGSV,3,1,12,04,60,112,36,09,60,276,32,02,41,179,42,17,36,050,26*7C
$GPGSV,3,2,12,12,30,305,23,28,16,103,26,15,06,228,32,10,03,130,33*7C
$GPGSV,3,3,12,25,01,297,,20,00,042,,14,00,329,,51,43,156,40*7C
$GPVTG,128.76,T,,M,2.23,N,4.1,K,A*01
$GPGGA,174959.000,3748.7940,N,12217.8584,W,1,04,4.6,3.0,M,-25.1,M,,0000*63
$GPGSA,A,3,09,12,04,17,,,,,,,,,9.7,4.6,8.5*3B
$GPRMC,174959.000,A,3748.7940,N,12217.8584,W,2.51,135.03,271011,,,A*79
$GPVTG,135.03,T,,M,2.51,N,4.7,K,A*0C
$GPGGA,175000.000,3748.7950,N,12217.8571,W,1,04,4.7,5.3,M,-25.1,M,,0000*68
$GPGSA,A,3,09,12,04,17,,,,,,,,,9.7,4.7,8.5*3A
$GPRMC,175000.000,A,3748.7950,N,12217.8571,W,2.35,97.29,271011,,,A*45
$GPVTG,97.29,T,,M,2.35,N,4.4,K,A*3C
$GPGGA,175001.000,3748.7950,N,12217.8563,W,1,04,4.7,5.0,M,-25.1,M,,0000*69
$GPGSA,A,3,09,12,04,17,,,,,,,,,9.7,4.7,8.6*39
$GPRMC,175001.000,A,3748.7950,N,12217.8563,W,1.90,116.51,271011,,,A*7C
$GPVTG,116.51,T,,M,1.90,N,3.5,K,A*01
$GPGGA,175002.000,3748.7951,N,12217.8555,W,1,04,4.7,5.2,M,-25.1,M,,0000*6C
$GPGSA,A,3,09,12,04,17,,,,,,,,,9.8,4.7,8.6*36
$GPRMC,175002.000,A,3748.7951,N,12217.8555,W,2.37,120.30,271011,,,A*77
$GPVTG,120.30,T,,M,2.37,N,4.4,K,A*0B
$GPGGA,175003.000,3748.7957,N,12217.8543,W,1,04,4.7,7.5,M,-25.1,M,,0000*69
$GPGSA,A,3,09,12,04,17,,,,,,,,,9.8,4.7,8.6*36
$GPGSV,3,1,12,04,60,112,35,09,60,276,33,02,41,179,39,17,36,050,28*7C
$GPGSV,3,2,12,12,30,305,25,28,16,103,37,15,06,228,23,10,03,130,21*79
$GPGSV,3,3,12,25,01,297,,20,00,042,,14,00,329,,51,43,156,41*7D
$GPRMC,175003.000,A,3748.7957,N,12217.8543,W,2.19,113.28,271011,,,A*72
$GPVTG,113.28,T,,M,2.19,N,4.0,K,A*0A
$GPGGA,175004.000,3748.7954,N,12217.8535,W,1,04,4.7,8.5,M,-25.1,M,,0000*63
$GPGSA,A,3,09,12,04,17,,,,,,,,,9.8,4.7,8.6*36
$GPRMC,175004.000,A,3748.7954,N,12217.8535,W,2.13,130.45,271011,,,A*77
$GPVTG,130.45,T,,M,2.13,N,3.9,K,A*04
$GPGGA,175005.000,3748.7951,N,12217.8527,W,1,04,4.7,9.6,M,-25.1,M,,0000*66
$GPGSA,A,3,09,12,04,17,,,,,,,,,9.8,4.7,8.6*36
$GPRMC,175005.000,A,3748.7951,N,12217.8527,W,1.97,111.55,271011,,,A*7D
$GPVTG,111.55,T,,M,1.97,N,3.7,K,A*07
$GPGGA,175006.000,3748.7951,N,12217.8520,W,1,04,4.7,8.8,M,-25.1,M,,0000*6D
$GPGSA,A,3,09,12,04,17,,,,,,,,,9.8,4.7,8.6*36
$GPRMC,175006.000,A,3748.7951,N,12217.8520,W,2.36,96.45,271011,,,A*4E
$GPVTG,96.45,T,,M,2.36,N,4.4,K,A*34
$GPGGA,175007.000,3748.7953,N,12217.8510,W,1,04,4.7,9.5,M,-25.1,M,,0000*61
$GPGSA,A,3,09,12,04,17,,,,,,,,,9.8,4.7,8.6*36
$GPRMC,175007.000,A,3748.7953,N,12217.8510,W,2.14,97.17,271011,,,A*48
$GPVTG,97.17,T,,M,2.14,N,4.0,K,A*36
$GPGGA,175008.000,3748.7952,N,12217.8501,W,1,04,4.7,11.1,M,-25.1,M,,0000*52
$GPGSA,A,3,09,12,04,17,,,,,,,,,9.8,4.7,8.6*36
$GPGSV,3,1,12,04,60,112,35,09,60,276,33,02,41,179,41,17,36,050,28*73
$GPGSV,3,2,12,12,30,305,25,28,16,103,37,15,06,228,24,10,03,130,21*7E
$GPGSV,3,3,12,25,01,297,,20,00,042,,14,00,329,,51,43,156,38*73
$GPRMC,175008.000,A,3748.7952,N,12217.8501,W,1.84,113.46,271011,,,A*75
$GPVTG,113.46,T,,M,1.84,N,3.4,K,A*06
$GPGGA,175009.000,3748.7954,N,12217.8492,W,1,04,4.7,12.7,M,-25.1,M,,0000*5B
$GPGSA,A,3,09,12,04,17,,,,,,,,,9.8,4.7,8.6*36
$GPRMC,175009.000,A,3748.7954,N,12217.8492,W,2.12,108.69,271011,,,A*72
$GPVTG,108.69,T,,M,2.12,N,3.9,K,A*00
$GPGGA,175010.000,3748.7953,N,12217.8483,W,1,04,4.7,14.4,M,-25.1,M,,0000*51
$GPGSA,A,3,09,12,04,17,,,,,,,,,9.9,4.7,8.7*36
$GPRMC,175010.000,A,3748.7953,N,12217.8483,W,2.08,107.96,271011,,,A*79
$GPVTG,107.96,T,,M,2.08,N,3.8,K,A*05
$GPGGA,175011.000,3748.7942,N,12217.8480,W,1,04,4.7,13.2,M,-25.1,M,,0000*52
$GPGSA,A,3,09,12,04,17,,,,,,,,,9.9,4.7,8.7*36
$GPRMC,175011.000,A,3748.7942,N,12217.8480,W,1.82,99.50,271011,,,A*46
$GPVTG,99.50,T,,M,1.82,N,3.4,K,A*34
$GPGGA,175012.000,3748.7947,N,12217.8470,W,1,04,4.7,14.0,M,-25.1,M,,0000*5E
$GPGSA,A,3,09,12,04,17,,,,,,,,,9.9,4.7,8.7*36
$GPRMC,175012.000,A,3748.7947,N,12217.8470,W,1.78,91.03,271011,,,A*44
$GPVTG,91.03,T,,M,1.78,N,3.3,K,A*38
$GPGGA,175013.000,3748.7946,N,12217.8465,W,1,04,4.7,13.7,M,-25.1,M,,0000*5A
$GPGSA,A,3,09,12,04,17,,,,,,,,,9.9,4.7,8.7*36
$GPGSV,3,1,12,04,60,112,33,09,60,276,33,02,41,179,40,17,36,050,23*7F
$GPGSV,3,2,12,12,30,305,26,28,16,103,33,15,06,228,32,10,03,130,20*7F
$GPGSV,3,3,12,25,01,297,,20,00,042,,14,00,329,,51,43,156,36*7D
$GPRMC,175013.000,A,3748.7946,N,12217.8465,W,1.42,96.82,271011,,,A*47
$GPGGA,175014.000,3748.7942,N,12217.8460,W,1,04,4.7,13.9,M,-25.1,M,,0000*52
$GPGSA,A,3,09,12,04,17,,,,,,,,,9.9,4.7,8.7*36
$GPRMC,175014.000,A,3748.7942,N,12217.8460,W,1.08,108.73,271011,,,A*77
$GPVTG,108.73,T,,M,1.08,N,2.0,K,A*0B
$GPGGA,175015.000,3748.7930,N,12217.8459,W,1,04,4.8,12.6,M,-25.1,M,,0000*5D
$GPGSA,A,3,09,12,04,17,,,,,,,,,9.9,4.8,8.7*39
$GPRMC,175015.000,A,3748.7930,N,12217.8459,W,1.56,152.29,271011,,,A*72
$GPVTG,152.29,T,,M,1.56,N,2.9,K,A*09
$GPGGA,175016.000,3748.7925,N,12217.8453,W,1,04,4.8,13.3,M,-25.1,M,,0000*54
$GPGSA,A,3,09,12,04,17,,,,,,,,,9.9,4.8,8.7*39
$GPRMC,175016.000,A,3748.7925,N,12217.8453,W,1.90,147.18,271011,,,A*73
$GPVTG,147.18,T,,M,1.90,N,3.5,K,A*08
$GPGGA,175017.000,3748.7919,N,12217.8448,W,1,04,4.8,12.8,M,-25.1,M,,0000*5A
$GPGSA,A,3,09,12,04,17,,,,,,,,,10.0,4.8,8.7*08
$GPRMC,175017.000,A,3748.7919,N,12217.8448,W,1.76,130.07,271011,,,A*71
$GPVTG,130.07,T,,M,1.76,N,3.3,K,A*08
$GPGGA,175018.000,3748.7913,N,12217.8441,W,1,04,4.8,11.4,M,-25.1,M,,0000*59
$GPGSA,A,3,09,12,04,17,,,,,,,,,10.0,4.8,8.8*07
$GPGSV,3,1,12,04,60,112,34,09,60,276,29,02,41,179,42,17,36,050,30*73
$GPGSV,3,2,12,12,30,305,27,28,16,103,33,15,06,228,36,10,03,130,25*7F
$GPGSV,3,3,12,25,01,297,17,20,00,042,,14,00,329,,51,43,156,39*74
$GPRMC,175018.000,A,3748.7913,N,12217.8441,W,1.83,111.60,271011,,,A*75
$GPVTG,111.60,T,,M,1.83,N,3.4,K,A*07
$GPGGA,175019.000,3748.7910,N,12217.8432,W,1,04,4.8,9.9,M,-25.1,M,,0000*6B
$GPGSA,A,3,09,12,04,17,,,,,,,,,10.0,4.8,8.8*07
$GPRMC,175019.000,A,3748.7910,N,12217.8432,W,2.08,130.97,271011,,,A*78
$GPVTG,130.97,T,,M,2.08,N,3.9,K,A*01
$GPGGA,175020.000,3748.7899,N,12217.8426,W,2,04,4.8,6.5,M,-25.1,M,,0000*64
$GPGSA,A,3,09,12,04,17,,,,,,,,,10.0,4.8,8.8*07
$GPRMC,175020.000,A,3748.7899,N,12217.8426,W,2.24,113.15,271011,,,D*77
$GPVTG,113.15,T,,M,2.24,N,4.1,K,D*0E
$GPGGA,175021.000,3748.7896,N,12217.8415,W,2,04,2.0,6.6,M,-25.1,M,,0000*67
$GPGSA,A,3,09,12,04,17,,,,,,,,,2.2,2.0,1.0*39
$GPRMC,175021.000,A,3748.7896,N,12217.8415,W,2.21,109.47,271011,,,D*70
$GPVTG,109.47,T,,M,2.21,N,4.1,K,D*07
$GPGGA,175022.000,3748.7893,N,12217.8405,W,2,04,2.0,6.8,M,-25.1,M,,0000*6E
$GPGSA,A,3,09,12,04,17,,,,,,,,,2.2,2.0,1.0*39
$GPRMC,175022.000,A,3748.7893,N,12217.8405,W,2.26,118.95,271011,,,D*7F
$GPVTG,118.95,T,,M,2.26,N,4.2,K,D*0C
