$ADVER,3080,2.3
$GPRMC,194204.693,A,3748.8130,N,12217.8588,W,0.09,61.37,151211,,,A*4F
$GPGGA,194205.693,3748.8129,N,12217.8590,W,1,03,2.6,25.1,M,-25.1,M,,0000*5A
$GPGSA,A,2,16,05,21,,,,,,,,,,2.8,2.6,1.0*3D
$GPRMC,194205.693,A,3748.8129,N,12217.8590,W,0.13,36.69,151211,,,A*4D
$GPVTG,36.69,T,,M,0.13,N,0.2,K,N*38
$GPGGA,194206.693,3748.8129,N,12217.8592,W,1,03,2.6,25.1,M,-25.1,M,,0000*5B
$GPGSA,A,2,16,05,21,,,,,,,,,,2.8,2.6,1.0*3D
$GPRMC,194206.693,A,3748.8129,N,12217.8592,W,0.11,90.52,151211,,,A*4A
$GPVTG,90.52,T,,M,0.11,N,0.2,K,N*3E
$GPGGA,194207.693,3748.8128,N,12217.8593,W,1,03,2.6,25.1,M,-25.1,M,,0000*5A
$GPGSA,A,2,16,05,21,,,,,,,,,,2.8,2.6,1.0*3D
$GPGSV,3,1,10,21,51,284,37,05,30,046,36,16,09,324,37,29,78,077,41*78
$GPGSV,3,2,10,18,36,205,39,25,24,188,38,30,21,310,33,26,20,089,33*76
$GPGSV,3,3,10,12,03,169,,48,00,000,42*7C
$GPRMC,194207.693,A,3748.8128,N,12217.8593,W,0.12,52.13,151211,,,A*43
$GPVTG,52.13,T,,M,0.12,N,0.2,K,N*36
$GPGGA,194208.693,3748.8128,N,12217.8595,W,1,03,2.6,25.1,M,-25.1,M,,0000*53
$GPGSA,A,2,16,05,21,,,,,,,,,,2.8,2.6,1.0*3D
$GPRMC,194208.693,A,3748.8128,N,12217.8595,W,0.10,86.19,151211,,,A*4B
$GPVTG,86.19,T,,M,0.10,N,0.2,K,N*37
$GPGGA,194209.693,3748.8127,N,12217.8597,W,1,03,2.6,25.1,M,-25.1,M,,0000*5F
$GPGSA,A,2,16,05,21,,,,,,,,,,2.8,2.6,1.0*3D
$GPRMC,194209.693,A,3748.8127,N,12217.8597,W,0.12,57.22,151211,,,A*41
$GPVTG,57.22,T,,M,0.12,N,0.2,K,N*31
$GPGGA,194210.697,3748.8126,N,12217.8599,W,1,03,2.6,25.1,M,-25.1,M,,0000*5C
$GPGSA,A,2,16,05,21,,,,,,,,,,2.8,2.6,1.0*3D
$GPRMC,194210.697,A,3748.8126,N,12217.8599,W,0.10,73.47,151211,,,A*45
$GPVTG,73.47,T,,M,0.10,N,0.2,K,N*36
$GPGGA,194211.693,3748.8126,N,12217.8600,W,1,03,2.6,25.1,M,-25.1,M,,0000*5A
$GPGSA,A,2,16,05,21,,,,,,,,,,2.8,2.6,1.0*3D
$GPRMC,194211.693,A,3748.8126,N,12217.8600,W,0.10,86.78,151211,,,A*45
$GPVTG,86.78,T,,M,0.10,N,0.2,K,N*30
$GPGGA,194212.693,3748.8125,N,12217.8602,W,1,03,2.6,25.1,M,-25.1,M,,0000*58
$GPGSA,A,2,16,05,21,,,,,,,,,,2.8,2.6,1.0*3D
$GPGSV,3,1,10,21,51,284,37,05,30,046,37,16,09,324,37,29,78,077,41*79
$GPGSV,3,2,10,18,36,205,39,25,24,188,38,30,21,310,33,26,20,089,33*76
$GPGSV,3,3,10,12,03,169,,48,44,197,42*73
$GPRMC,194212.693,A,3748.8125,N,12217.8602,W,0.12,114.38,151211,,,A*7B
$GPVTG,114.38,T,,M,0.12,N,0.2,K,N*0C
$GPGGA,194213.697,3748.8125,N,12217.8604,W,1,03,2.6,25.1,M,-25.1,M,,0000*5B
$GPGSA,A,2,16,05,21,,,,,,,,,,2.8,2.6,1.0*3D
$GPRMC,194213.697,A,3748.8125,N,12217.8604,W,0.13,47.84,151211,,,A*49
$GPVTG,47.84,T,,M,0.13,N,0.2,K,N*3D
$GPGGA,194214.693,3748.8125,N,12217.8605,W,1,03,2.6,25.1,M,-25.1,M,,0000*59
$GPGSA,A,2,16,05,21,,,,,,,,,,2.8,2.6,1.0*3D
$GPRMC,194214.693,A,3748.8125,N,12217.8605,W,0.12,78.17,151211,,,A*4C
$GPVTG,78.17,T,,M,0.12,N,0.2,K,N*3A
$GPGGA,194215.693,3748.8125,N,12217.8606,W,1,03,2.6,25.1,M,-25.1,M,,0000*5B
$GPGSA,A,2,16,05,21,,,,,,,,,,2.8,2.6,1.0*3D
$GPRMC,194215.693,A,3748.8125,N,12217.8606,W,0.11,96.57,151211,,,A*49
$GPVTG,96.57,T,,M,0.11,N,0.2,K,N*3D
$GPGGA,194216.693,3748.8124,N,12217.8607,W,1,03,2.6,25.1,M,-25.1,M,,0000*58
$GPGSA,A,2,16,05,21,,,,,,,,,,2.8,2.6,1.0*3D
$GPRMC,194216.693,A,3748.8124,N,12217.8607,W,0.12,57.39,151211,,,A*4C
$GPVTG,57.39,T,,M,0.12,N,0.2,K,N*3B
$GPGGA,194217.693,3748.8123,N,12217.8608,W,1,03,2.6,25.1,M,-25.1,M,,0000*51
$GPGSA,A,2,16,05,21,,,,,,,,,,2.8,2.6,1.0*3D
$GPGSV,3,1,10,21,51,284,37,05,29,046,38,16,09,324,37,29,78,077,41*7E
$GPGSV,3,2,10,18,36,205,40,25,24,188,38,30,21,310,33,26,20,089,34*7F
$GPGSV,3,3,10,12,03,169,,48,44,197,42*73
$GPRMC,194217.693,A,3748.8123,N,12217.8608,W,0.10,91.91,151211,,,A*4F
$GPVTG,91.91,T,,M,0.10,N,0.2,K,N*31
$GPGGA,194218.693,3748.8123,N,12217.8609,W,1,03,2.6,25.1,M,-25.1,M,,0000*5F
$GPGSA,A,2,16,05,21,,,,,,,,,,2.8,2.6,1.0*3D
$GPRMC,194218.693,A,3748.8123,N,12217.8609,W,0.11,105.81,151211,,,A*7D
$GPVTG,105.81,T,,M,0.11,N,0.2,K,N*0D
$GPGGA,194219.693,3748.8123,N,12217.8609,W,1,03,2.6,25.1,M,-25.1,M,,0000*5E
$GPGSA,A,2,16,05,21,,,,,,,,,,2.8,2.6,1.0*3D
$GPRMC,194219.693,A,3748.8123,N,12217.8609,W,0.11,67.87,151211,,,A*4F
$GPVTG,67.87,T,,M,0.11,N,0.2,K,N*3E
$GPGGA,194220.693,3748.8122,N,12217.8610,W,1,03,2.6,25.1,M,-25.1,M,,0000*5D
$GPGSA,A,2,16,05,21,,,,,,,,,,2.8,2.6,1.0*3D
$GPRMC,194220.693,A,3748.8122,N,12217.8610,W,0.11,67.87,151211,,,A*4C
$GPVTG,67.87,T,,M,0.11,N,0.2,K,N*3E
$GPGGA,194221.697,3748.8121,N,12217.8610,W,1,03,2.6,25.1,M,-25.1,M,,0000*5B
$GPGSA,A,2,16,05,21,,,,,,,,,,2.8,2.6,1.0*3D
$GPRMC,194221.697,A,3748.8121,N,12217.8610,W,0.10,100.96,151211,,,A*7B
$GPVTG,100.96,T,,M,0.10,N,0.2,K,N*0F
$GPGGA,194222.693,3748.7988,N,12217.8577,W,1,06,1.3,0.1,M,-25.1,M,,0000*6E
$GPGSA,A,3,16,05,30,21,18,29,,,,,,,2.4,1.3,2.0*34
$GPGSV,3,1,10,21,51,284,37,05,29,046,38,16,09,324,37,29,78,077,41*7E
$GPGSV,3,2,10,18,36,205,40,25,24,188,38,30,21,310,32,26,20,089,34*7E
$GPGSV,3,3,10,12,03,169,,48,44,197,42*73
$GPRMC,194222.693,A,3748.7988,N,12217.8577,W,0.06,358.78,151211,,,A*72
$GPGGA,194223.693,3748.7995,N,12217.8591,W,1,06,1.3,0.8,M,-25.1,M,,0000*62
$GPGSA,A,3,16,05,30,21,18,29,,,,,,,2.4,1.3,2.0*34
$GPRMC,194223.693,A,3748.7995,N,12217.8591,W,0.09,55.82,151211,,,A*43
$GPVTG,55.82,T,,M,0.09,N,0.2,K,A*3C
$GPGGA,194224.000,3748.7991,N,12217.8584,W,1,06,1.3,1.8,M,-25.1,M,,0000*68
$GPGSA,A,3,16,05,30,21,18,29,,,,,,,2.4,1.3,2.0*34
$GPRMC,194224.000,A,3748.7991,N,12217.8584,W,0.10,47.49,151211,,,A*44
$GPVTG,47.49,T,,M,0.10,N,0.2,K,A*30
$GPGGA,194225.000,3748.7993,N,12217.8587,W,1,06,1.3,1.4,M,-25.1,M,,0000*64
$GPGSA,A,3,16,05,30,21,18,29,,,,,,,2.4,1.3,2.0*34
$GPRMC,194225.000,A,3748.7993,N,12217.8587,W,0.10,61.22,151211,,,A*4D
$GPVTG,61.22,T,,M,0.10,N,0.2,K,A*39
$GPGGA,194226.000,3748.7993,N,12217.8588,W,1,06,1.3,1.2,M,-25.1,M,,0000*6E
$GPGSA,A,3,16,05,30,21,18,29,,,,,,,2.4,1.3,2.0*34
$GPRMC,194226.000,A,3748.7993,N,12217.8588,W,0.10,53.36,151211,,,A*45
$GPVTG,53.36,T,,M,0.10,N,0.2,K,A*3D
$GPGGA,194227.000,3748.7994,N,12217.8589,W,1,06,1.3,1.1,M,-25.1,M,,0000*6A
$GPGSA,A,3,16,05,30,21,18,29,,,,,,,2.4,1.3,2.0*34
$GPGSV,3,1,10,29,78,078,42,21,51,284,37,18,36,205,40,05,29,046,37*7D
$GPGSV,3,2,10,30,26,303,32,25,24,188,37,16,09,324,37,26,20,089,34*74
$GPGSV,3,3,10,12,02,169,,48,44,197,43*73
$GPRMC,194227.000,A,3748.7994,N,12217.8589,W,0.09,59.06,151211,,,A*43
$GPVTG,59.06,T,,M,0.09,N,0.2,K,A*3C
$GPGGA,194228.000,3748.7995,N,12217.8590,W,1,07,1.0,1.2,M,-25.1,M,,0000*6D
$GPGSA,A,3,16,05,30,21,18,29,15,,,,,,1.9,1.0,1.6*38
$GPRMC,194228.000,A,3748.7995,N,12217.8590,W,0.09,37.88,151211,,,A*4B
$GPVTG,37.88,T,,M,0.09,N,0.2,K,A*32
$GPGGA,194229.000,3748.7996,N,12217.8591,W,1,07,1.0,1.2,M,-25.1,M,,0000*6E
$GPGSA,A,3,16,05,30,21,18,29,15,,,,,,1.9,1.0,1.6*38
$GPRMC,194229.000,A,3748.7996,N,12217.8591,W,0.08,42.05,151211,,,A*4E
$GPVTG,42.05,T,,M,0.08,N,0.1,K,A*37
$GPGGA,194230.000,3748.7997,N,12217.8592,W,1,07,1.0,1.2,M,-25.1,M,,0000*64
$GPGSA,A,3,16,05,30,21,18,29,15,,,,,,1.9,1.0,1.6*38
$GPRMC,194230.000,A,3748.7997,N,12217.8592,W,0.08,35.42,151211,,,A*47
$GPVTG,35.42,T,,M,0.08,N,0.1,K,A*34
$GPGGA,194231.000,3748.7997,N,12217.8592,W,1,07,1.0,1.2,M,-25.1,M,,0000*65
$GPGSA,A,3,16,05,30,21,18,29,15,,,,,,1.9,1.0,1.6*38
$GPRMC,194231.000,A,3748.7997,N,12217.8592,W,0.07,37.52,151211,,,A*4A
$GPVTG,37.52,T,,M,0.07,N,0.1,K,A*38
$GPGGA,194232.000,3748.7997,N,12217.8593,W,1,07,1.0,1.2,M,-25.1,M,,0000*67
$GPGSA,A,3,16,05,30,21,18,29,15,,,,,,1.9,1.0,1.6*38
$GPGSV,3,1,11,29,78,078,42,21,51,284,36,18,36,205,40,05,29,046,33*79
$GPGSV,3,2,11,30,26,303,33,25,24,188,37,15,22,127,35,26,20,089,34*7D
$GPGSV,3,3,11,16,09,324,37,12,02,169,,48,44,197,42*4C
$GPRMC,194232.000,A,3748.7997,N,12217.8593,W,0.10,58.11,151211,,,A*40
$GPVTG,58.11,T,,M,0.10,N,0.2,K,A*33
$GPGGA,194233.000,3748.7998,N,12217.8594,W,1,07,1.0,1.3,M,-25.1,M,,0000*6F
$GPGSA,A,3,16,05,30,21,18,29,15,,,,,,1.9,1.0,1.6*38
$GPRMC,194233.000,A,3748.7998,N,12217.8594,W,0.09,38.09,151211,,,A*4E
$GPVTG,38.09,T,,M,0.09,N,0.2,K,A*34
$GPGGA,194234.000,3748.7998,N,12217.8594,W,1,08,1.0,1.4,M,-25.1,M,,0000*60
$GPGSA,A,3,16,05,30,26,21,18,29,15,,,,,1.8,1.0,1.5*3E
$GPRMC,194234.000,A,3748.7998,N,12217.8594,W,0.05,31.26,151211,,,A*41
$GPVTG,31.26,T,,M,0.05,N,0.1,K,A*3F
$GPGGA,194235.000,3748.7998,N,12217.8595,W,1,08,1.0,1.5,M,-25.1,M,,0000*61
$GPGSA,A,3,16,05,30,26,21,18,29,15,,,,,1.8,1.0,1.5*3E
$GPRMC,194235.000,A,3748.7998,N,12217.8595,W,0.12,28.34,151211,,,A*4C
$GPVTG,28.34,T,,M,0.12,N,0.2,K,A*31
$GPGGA,194236.000,3748.7999,N,12217.8596,W,1,08,1.0,1.6,M,-25.1,M,,0000*63
$GPGSA,A,3,16,05,30,26,21,18,29,15,,,,,1.8,1.0,1.5*3E
$GPRMC,194236.000,A,3748.7999,N,12217.8596,W,0.08,25.85,151211,,,A*41
$GPVTG,25.85,T,,M,0.08,N,0.2,K,A*3D
$GPGGA,194237.000,3748.7999,N,12217.8596,W,1,08,1.0,1.6,M,-25.1,M,,0000*62
$GPGSA,A,3,16,05,30,26,21,18,29,15,,,,,1.8,1.0,1.5*3E
$GPGSV,3,1,11,29,78,078,42,21,51,284,36,18,36,205,35,05,29,046,34*7C
$GPGSV,3,2,11,30,26,303,34,25,24,188,36,15,22,127,35,26,20,089,34*7B
$GPGSV,3,3,11,16,09,324,37,12,02,169,,48,44,197,36*4F
$GPRMC,194237.000,A,3748.7999,N,12217.8596,W,0.09,27.38,151211,,,A*45
$GPGGA,194238.000,3748.7999,N,12217.8597,W,1,08,1.0,1.7,M,-25.1,M,,0000*6D
$GPGSA,A,3,16,05,30,26,21,18,29,15,,,,,1.8,1.0,1.5*3E
$GPRMC,194238.000,A,3748.7999,N,12217.8597,W,0.15,24.70,151211,,,A*49
$GPVTG,24.70,T,,M,0.15,N,0.3,K,A*3B
$GPGGA,194239.000,3748.7999,N,12217.8597,W,1,08,1.0,1.7,M,-25.1,M,,0000*6C
$GPGSA,A,3,16,05,30,26,21,18,29,15,,,,,1.8,1.0,1.5*3E
$GPRMC,194239.000,A,3748.7999,N,12217.8597,W,0.14,25.80,151211,,,A*47
$GPVTG,25.80,T,,M,0.14,N,0.3,K,A*34
$GPGGA,194240.000,3748.7999,N,12217.8596,W,1,08,1.0,2.1,M,-25.1,M,,0000*66
$GPGSA,A,3,16,05,30,26,21,18,29,15,,,,,1.8,1.0,1.5*3E
$GPRMC,194240.000,A,3748.7999,N,12217.8596,W,0.12,310.33,151211,,,A*73
$GPVTG,310.33,T,,M,0.12,N,0.2,K,A*0E
$GPGGA,194241.000,3748.7998,N,12217.8595,W,1,08,1.0,2.3,M,-25.1,M,,0000*67
$GPGSA,A,3,16,05,30,26,21,18,29,15,,,,,1.8,1.0,1.5*3E
$GPRMC,194241.000,A,3748.7998,N,12217.8595,W,0.07,340.81,151211,,,A*78
$GPVTG,340.81,T,,M,0.07,N,0.1,K,A*05
$GPGGA,194242.000,3748.7999,N,12217.8593,W,1,08,1.0,2.6,M,-25.1,M,,0000*66
$GPGSA,A,3,16,05,30,26,21,18,29,15,,,,,1.8,1.0,1.5*3E
$GPGSV,3,1,10,29,78,078,28,21,51,284,36,18,36,205,28,05,29,046,33*7A
$GPGSV,3,2,10,30,26,303,34,25,24,188,28,15,22,127,27,26,20,089,25*76
$GPGSV,3,3,10,16,09,324,37,12,02,169,*78
$GPRMC,194242.000,A,3748.7999,N,12217.8593,W,0.06,355.18,151211,,,A*79
$GPVTG,355.18,T,,M,0.06,N,0.1,K,A*00
$GPGGA,194243.000,3748.8000,N,12217.8592,W,1,08,1.0,2.8,M,-25.1,M,,0000*6E
$GPGSA,A,3,16,05,30,26,21,18,29,15,,,,,1.8,1.0,1.5*3E
$GPRMC,194243.000,A,3748.8000,N,12217.8592,W,0.31,17.55,151211,,,A*47
$GPVTG,17.55,T,,M,0.31,N,0.6,K,A*3F
$GPGGA,194244.000,3748.7999,N,12217.8592,W,1,08,1.0,2.9,M,-25.1,M,,0000*6E
$GPGSA,A,3,16,05,30,26,21,18,29,15,,,,,1.8,1.0,1.5*3E
$GPRMC,194244.000,A,3748.7999,N,12217.8592,W,0.17,41.39,151211,,,A*4B
$GPVTG,41.39,T,,M,0.17,N,0.3,K,A*37
$GPGGA,194245.000,3748.8001,N,12217.8593,W,1,07,1.0,3.1,M,-25.1,M,,0000*6F
$GPGSA,A,3,16,05,30,21,18,29,15,,,,,,1.9,1.0,1.6*38
$GPRMC,194245.000,A,3748.8001,N,12217.8593,W,0.23,45.33,151211,,,A*45
$GPVTG,45.33,T,,M,0.23,N,0.4,K,A*39
$GPGGA,194246.000,3748.8005,N,12217.8587,W,1,06,1.1,3.4,M,-25.1,M,,0000*68
$GPGSA,A,3,16,05,30,21,18,15,,,,,,,2.6,1.1,2.4*3F
$GPRMC,194246.000,A,3748.8005,N,12217.8587,W,0.48,81.11,151211,,,A*42
$GPVTG,81.11,T,,M,0.48,N,0.9,K,A*31
$GPGGA,194247.000,3748.8011,N,12217.8577,W,1,06,1.1,3.7,M,-25.1,M,,0000*60
$GPGSA,A,3,16,05,30,21,18,15,,,,,,,2.6,1.1,2.4*3F
$GPGSV,3,1,11,29,78,078,10,21,51,284,31,18,36,205,32,05,29,046,25*7B
$GPGSV,3,2,11,30,26,303,39,25,24,188,39,15,22,127,20,26,20,089,*7A
$GPGSV,3,3,11,16,09,324,39,12,02,169,,48,44,197,29*4F
$GPRMC,194247.000,A,3748.8011,N,12217.8577,W,0.61,73.59,151211,,,A*43
$GPVTG,73.59,T,,M,0.61,N,1.1,K,A*32
$GPGGA,194248.000,3748.8013,N,12217.8575,W,1,07,1.0,4.1,M,-25.1,M,,0000*6E
$GPGSA,A,3,16,05,30,21,18,15,26,,,,,,2.6,1.0,2.3*3D
$GPRMC,194248.000,A,3748.8013,N,12217.8575,W,0.23,54.98,151211,,,A*42
$GPVTG,54.98,T,,M,0.23,N,0.4,K,A*38
$GPGGA,194249.000,3748.8014,N,12217.8574,W,1,07,1.0,3.9,M,-25.1,M,,0000*66
$GPGSA,A,3,16,05,30,21,18,15,26,,,,,,2.6,1.0,2.3*3D
$GPRMC,194249.000,A,3748.8014,N,12217.8574,W,0.20,83.71,151211,,,A*4B
$GPVTG,83.71,T,,M,0.20,N,0.4,K,A*36
$GPGGA,194250.000,3748.8014,N,12217.8576,W,1,07,1.0,4.2,M,-25.1,M,,0000*60
$GPGSA,A,3,16,05,30,21,18,29,15,,,,,,1.9,1.0,1.6*38
$GPRMC,194250.000,A,3748.8014,N,12217.8576,W,0.17,295.86,151211,,,A*78
$GPVTG,295.86,T,,M,0.17,N,0.3,K,A*08
$GPGGA,194251.000,3748.8013,N,12217.8579,W,1,06,1.1,4.2,M,-25.1,M,,0000*69
$GPGSA,A,3,16,05,30,21,18,15,,,,,,,2.6,1.1,2.4*3F
$GPRMC,194251.000,A,3748.8013,N,12217.8579,W,0.33,296.12,151211,,,A*79
$GPVTG,296.12,T,,M,0.33,N,0.6,K,A*05
$GPGGA,194252.000,3748.8012,N,12217.8582,W,1,06,1.1,4.1,M,-25.1,M,,0000*6C
$GPGSA,A,3,16,05,30,21,18,15,,,,,,,2.6,1.1,2.4*3F
$GPGSV,3,1,10,29,78,078,,21,51,284,29,18,36,205,33,05,29,046,25*73
$GPGSV,3,2,10,30,26,303,33,25,24,188,39,15,22,127,19,26,20,089,*7B
$GPGSV,3,3,10,16,09,324,23,12,02,169,*7D
$GPRMC,194252.000,A,3748.8012,N,12217.8582,W,0.10,157.19,151211,,,A*7B
$GPGGA,194253.000,3748.8011,N,12217.8582,W,1,06,1.1,4.3,M,-25.1,M,,0000*6C
$GPGSA,A,3,16,05,30,21,18,15,,,,,,,2.6,1.1,2.4*3F
$GPRMC,194253.000,A,3748.8011,N,12217.8582,W,0.18,127.58,151211,,,A*73
$GPVTG,127.58,T,,M,0.18,N,0.3,K,A*0E
$GPGGA,194254.000,3748.8010,N,12217.8580,W,1,06,1.1,4.5,M,-25.1,M,,0000*6E
$GPGSA,A,3,16,05,30,21,18,15,,,,,,,2.6,1.1,2.4*3F
$GPRMC,194254.000,A,3748.8010,N,12217.8580,W,0.26,54.00,151211,,,A*42
$GPVTG,54.00,T,,M,0.26,N,0.5,K,A*3D
$GPGGA,194255.000,3748.8010,N,12217.8582,W,1,06,1.1,4.6,M,-25.1,M,,0000*6E
$GPGSA,A,3,16,05,30,21,18,15,,,,,,,2.6,1.1,2.4*3F
$GPRMC,194255.000,A,3748.8010,N,12217.8582,W,0.44,1.19,151211,,,A*7D
$GPVTG,1.19,T,,M,0.44,N,0.8,K,A*0C
$GPGGA,194256.000,3748.8011,N,12217.8583,W,1,06,1.1,4.8,M,-25.1,M,,0000*63
$GPGSA,A,3,16,05,30,21,18,15,,,,,,,2.6,1.1,2.4*3F
$GPRMC,194256.000,A,3748.8011,N,12217.8583,W,0.39,353.68,151211,,,A*76
$GPVTG,353.68,T,,M,0.39,N,0.7,K,A*0B
$GPGGA,194257.000,3748.8012,N,12217.8583,W,1,07,1.0,5.0,M,-25.1,M,,0000*68
$GPGSA,A,3,16,05,30,21,18,15,29,,,,,,1.9,1.0,1.6*38
$GPGSV,3,1,11,29,78,078,20,21,51,284,30,18,36,205,32,05,29,046,20*7C
$GPGSV,3,2,11,30,26,303,34,25,24,188,39,15,22,127,17,26,20,089,*73
$GPGSV,3,3,11,16,09,324,23,12,02,169,,48,44,197,28*45
$GPRMC,194257.000,A,3748.8012,N,12217.8583,W,0.57,294.89,151211,,,A*79
$GPVTG,294.89,T,,M,0.57,N,1.1,K,A*01
$GPGGA,194258.000,3748.8010,N,12217.8590,W,1,07,1.0,5.0,M,-25.1,M,,0000*67
$GPGSA,A,3,16,05,30,21,18,15,29,,,,,,1.9,1.0,1.6*38
$GPRMC,194258.000,A,3748.8010,N,12217.8590,W,0.47,283.57,151211,,,A*72
$GPVTG,283.57,T,,M,0.47,N,0.9,K,A*0C
$GPGGA,194259.000,3748.8009,N,12217.8595,W,1,07,1.0,5.3,M,-25.1,M,,0000*68
$GPGSA,A,3,16,05,30,21,18,15,29,,,,,,1.9,1.0,1.6*38
$GPRMC,194259.000,A,3748.8009,N,12217.8595,W,0.28,241.85,151211,,,A*76
$GPVTG,241.85,T,,M,0.28,N,0.5,K,A*08
$GPGGA,194300.000,3748.8006,N,12217.8600,W,1,08,1.0,5.4,M,-25.1,M,,0000*6D
$GPGSA,A,3,16,05,30,21,18,26,15,29,,,,,1.8,1.0,1.5*3E
$GPRMC,194300.000,A,3748.8006,N,12217.8600,W,0.33,246.28,151211,,,A*71
$GPVTG,246.28,T,,M,0.33,N,0.6,K,A*01
$GPGGA,194301.000,3748.8005,N,12217.8603,W,1,08,1.0,5.5,M,-25.1,M,,0000*6D
$GPGSA,A,3,16,05,30,21,18,26,15,29,,,,,1.8,1.0,1.5*3E
$GPRMC,194301.000,A,3748.8005,N,12217.8603,W,0.24,113.99,151211,,,A*7F
$GPVTG,113.99,T,,M,0.24,N,0.4,K,A*0C
$GPGGA,194302.000,3748.8004,N,12217.8604,W,1,08,1.0,5.8,M,-25.1,M,,0000*65
$GPGSA,A,3,16,05,30,21,18,26,15,29,,,,,1.8,1.0,1.5*3E
$GPGSV,3,1,11,29,78,078,22,21,51,284,31,18,36,205,31,05,29,046,25*79
$GPGSV,3,2,11,30,26,303,34,25,24,188,40,15,22,127,16,26,20,089,20*7E
$GPGSV,3,3,11,16,09,324,23,12,02,169,,48,44,197,28*45
$GPRMC,194302.000,A,3748.8004,N,12217.8604,W,0.35,114.83,151211,,,A*76
$GPVTG,114.83,T,,M,0.35,N,0.7,K,A*03
$GPGGA,194303.000,3748.8002,N,12217.8608,W,1,08,1.0,5.5,M,-25.1,M,,0000*63
$GPGSA,A,3,16,05,30,21,18,26,15,29,,,,,1.8,1.0,1.5*3E
$GPRMC,194303.000,A,3748.8002,N,12217.8608,W,0.32,73.92,151211,,,A*4A
$GPVTG,73.92,T,,M,0.32,N,0.6,K,A*35
$GPGGA,194304.000,3748.7999,N,12217.8613,W,1,08,1.0,5.5,M,-25.1,M,,0000*6A
$GPGSA,A,3,16,05,30,21,18,26,15,29,,,,,1.8,1.0,1.5*3E
$GPRMC,194304.000,A,3748.7999,N,12217.8613,W,0.30,161.80,151211,,,A*70
$GPVTG,161.80,T,,M,0.30,N,0.6,K,A*06
$GPGGA,194305.000,3748.7999,N,12217.8613,W,1,08,1.0,6.2,M,-25.1,M,,0000*6F
$GPGSA,A,3,16,05,30,21,18,26,15,29,,,,,1.8,1.0,1.5*3E
$GPRMC,194305.000,A,3748.7999,N,12217.8613,W,0.50,127.11,151211,,,A*7D
$GPVTG,127.11,T,,M,0.50,N,0.9,K,A*05
$GPGGA,194306.000,3748.7999,N,12217.8615,W,1,08,1.0,7.2,M,-25.1,M,,0000*6B
$GPGSA,A,3,16,05,30,21,18,26,15,29,,,,,1.8,1.0,1.5*3E
$GPRMC,194306.000,A,3748.7999,N,12217.8615,W,0.31,41.13,151211,,,A*4C
$GPVTG,41.13,T,,M,0.31,N,0.6,K,A*3E
$GPGGA,194307.000,3748.8000,N,12217.8615,W,1,08,1.0,7.8,M,-25.1,M,,0000*66
$GPGSA,A,3,16,05,30,21,18,26,15,29,,,,,1.8,1.0,1.5*3E
$GPGSV,3,1,11,29,78,078,21,21,51,284,31,18,36,205,31,05,29,046,18*74
$GPGSV,3,2,11,30,26,303,34,25,24,188,40,15,22,127,15,26,20,089,22*7F
$GPGSV,3,3,11,16,09,324,22,12,02,169,,48,44,197,27*4B
$GPVTG,109.74,T,,M,0.27,N,0.5,K,A*06
$GPGGA,194308.000,3748.8000,N,12217.8617,W,1,08,1.0,8.0,M,-25.1,M,,0000*6C
$GPGSA,A,3,16,05,30,21,18,26,15,29,,,,,1.8,1.0,1.5*3E
$GPRMC,194308.000,A,3748.8000,N,12217.8617,W,0.29,10.76,151211,,,A*48
$GPVTG,10.76,T,,M,0.29,N,0.5,K,A*33
$GPGGA,194309.000,3748.8001,N,12217.8620,W,1,08,1.0,8.5,M,-25.1,M,,0000*6D
$GPGSA,A,3,16,05,30,21,18,26,15,29,,,,,1.8,1.0,1.5*3E
$GPRMC,194309.000,A,3748.8001,N,12217.8620,W,0.28,37.80,151211,,,A*41
$GPVTG,37.80,T,,M,0.28,N,0.5,K,A*3E
$GPGGA,194310.000,3748.8002,N,12217.8621,W,1,08,1.0,8.9,M,-25.1,M,,0000*6B
$GPGSA,A,3,16,05,30,21,18,26,15,29,,,,,1.8,1.0,1.5*3E
$GPRMC,194310.000,A,3748.8002,N,12217.8621,W,0.32,34.67,151211,,,A*4A
$GPVTG,34.67,T,,M,0.32,N,0.6,K,A*3C
$GPGGA,194311.000,3748.8002,N,12217.8621,W,1,08,1.0,8.9,M,-25.1,M,,0000*6A
$GPGSA,A,3,16,05,30,21,18,26,15,29,,,,,1.8,1.0,1.5*3E
$GPRMC,194311.000,A,3748.8002,N,12217.8621,W,0.07,6.98,151211,,,A*7C
$GPVTG,6.98,T,,M,0.07,N,0.1,K,A*0C
$GPGGA,194312.000,3748.8002,N,12217.8625,W,1,07,1.0,9.2,M,-25.1,M,,0000*68
$GPGSA,A,3,16,05,30,21,18,26,15,,,,,,2.6,1.0,2.4*3A
$GPGSV,3,1,10,29,78,078,13,21,51,284,31,18,36,205,31,05,29,046,20*7F
$GPGSV,3,2,10,30,26,303,34,25,24,188,40,15,22,127,15,26,20,089,23*7F
$GPGSV,3,3,10,16,09,324,21,12,02,169,*7F
$GPRMC,194312.000,A,3748.8002,N,12217.8625,W,0.12,279.04,151211,,,A*70
$GPVTG,279.04,T,,M,0.12,N,0.2,K,A*04
$GPGGA,194313.000,3748.8002,N,12217.8627,W,1,08,1.0,9.4,M,-25.1,M,,0000*62
$GPGSA,A,3,16,05,30,21,18,26,15,29,,,,,1.8,1.0,1.5*3E
$GPRMC,194313.000,A,3748.8002,N,12217.8627,W,0.11,83.70,151211,,,A*44
$GPVTG,83.70,T,,M,0.11,N,0.2,K,A*33
$GPGGA,194314.000,3748.7998,N,12217.8632,W,1,08,1.0,8.8,M,-25.1,M,,0000*69
$GPGSA,A,3,16,05,30,21,18,26,15,29,,,,,1.8,1.0,1.5*3E
$GPRMC,194314.000,A,3748.7998,N,12217.8632,W,0.40,169.37,151211,,,A*70
$GPVTG,169.37,T,,M,0.40,N,0.7,K,A*04
$GPGGA,194315.000,3748.7997,N,12217.8633,W,1,08,1.0,8.6,M,-25.1,M,,0000*68
$GPGSA,A,3,16,05,30,21,18,26,15,29,,,,,1.8,1.0,1.5*3E
$GPRMC,194315.000,A,3748.7997,N,12217.8633,W,0.25,63.79,151211,,,A*4D
$GPVTG,63.79,T,,M,0.25,N,0.5,K,A*34
$GPGGA,194316.000,3748.7999,N,12217.8632,W,1,08,1.0,8.9,M,-25.1,M,,0000*6B
$GPGSA,A,3,16,05,30,21,18,26,15,29,,,,,1.8,1.0,1.5*3E
$GPRMC,194316.000,A,3748.7999,N,12217.8632,W,0.91,44.14,151211,,,A*40
$GPVTG,44.14,T,,M,0.91,N,1.7,K,A*36
$GPGGA,194317.000,3748.8003,N,12217.8629,W,1,08,1.0,11.3,M,-25.1,M,,0000*57
$GPGSA,A,3,16,05,30,21,18,26,15,29,,,,,1.8,1.0,1.5*3E
$GPGSV,3,1,10,29,77,080,28,21,51,285,24,18,37,205,24,05,29,046,32*7C
$GPGSV,3,2,10,30,26,303,27,25,24,188,20,15,22,127,30,26,20,088,30*7F
$GPGSV,3,3,10,16,09,324,31,12,02,169,*7E
$GPRMC,194317.000,A,3748.8003,N,12217.8629,W,0.71,317.39,151211,,,A*7A
$GPVTG,317.39,T,,M,0.71,N,1.3,K,A*06
$GPGGA,194318.000,3748.8003,N,12217.8629,W,1,08,1.0,11.4,M,-25.1,M,,0000*5F
$GPGSA,A,3,16,05,30,21,18,26,15,29,,,,,1.8,1.0,1.5*3E
$GPRMC,194318.000,A,3748.8003,N,12217.8629,W,0.28,321.81,151211,,,A*7F
$GPVTG,321.81,T,,M,0.28,N,0.5,K,A*0B
$GPGGA,194319.000,3748.8003,N,12217.8627,W,1,08,1.0,11.4,M,-25.1,M,,0000*50
$GPGSA,A,3,16,05,30,21,18,26,15,29,,,,,1.8,1.0,1.5*3E
$GPRMC,194319.000,A,3748.8003,N,12217.8627,W,0.49,329.42,151211,,,A*70
$GPVTG,329.42,T,,M,0.49,N,0.9,K,A*07
$GPGGA,194320.000,3748.8002,N,12217.8624,W,1,08,1.0,12.5,M,-25.1,M,,0000*5A
$GPGSA,A,3,16,05,30,21,18,26,15,29,,,,,1.8,1.0,1.5*3E
$GPRMC,194320.000,A,3748.8002,N,12217.8624,W,1.52,152.21,151211,,,A*78
$GPVTG,152.21,T,,M,1.52,N,2.8,K,A*04
$GPGGA,194321.000,3748.7997,N,12217.8622,W,1,08,1.0,12.5,M,-25.1,M,,0000*57
$GPGSA,A,3,16,05,30,21,18,26,15,29,,,,,1.8,1.0,1.5*3E
$GPRMC,194321.000,A,3748.7997,N,12217.8622,W,0.35,195.98,151211,,,A*7C
$GPVTG,195.98,T,,M,0.35,N,0.7,K,A*00
$GPGGA,194322.000,3748.7993,N,12217.8615,W,1,08,1.0,12.1,M,-25.1,M,,0000*50
$GPGSA,A,3,16,05,30,21,18,26,15,29,,,,,1.8,1.0,1.5*3E
$GPGSV,3,1,11,29,77,080,28,21,51,285,30,18,37,205,40,05,29,046,35*7D
$GPGSV,3,2,11,30,26,303,29,25,24,188,37,15,22,127,32,26,20,088,35*71
$GPGSV,3,3,11,16,09,324,24,12,02,169,21,48,44,197,33*4B
$GPVTG,54.13,T,,M,1.01,N,1.9,K,A*36
$GPGGA,194323.000,3748.7996,N,12217.8611,W,1,08,1.0,11.6,M,-25.1,M,,0000*54
$GPGSA,A,3,16,05,30,21,18,26,15,29,,,,,1.8,1.0,1.5*3E
$GPRMC,194323.000,A,3748.7996,N,12217.8611,W,0.35,336.22,151211,,,A*75
$GPVTG,336.22,T,,M,0.35,N,0.7,K,A*0A
$GPGGA,194324.000,3748.7998,N,12217.8609,W,1,08,1.0,11.0,M,-25.1,M,,0000*52
$GPGSA,A,3,16,05,30,21,18,26,15,29,,,,,1.8,1.0,1.5*3E
$GPRMC,194324.000,A,3748.7998,N,12217.8609,W,0.26,15.98,151211,,,A*44
$GPVTG,15.98,T,,M,0.26,N,0.5,K,A*39
$GPGGA,194325.000,3748.8000,N,12217.8606,W,1,08,1.0,10.5,M,-25.1,M,,0000*5F
$GPGSA,A,3,16,05,30,21,18,26,15,29,,,,,1.8,1.0,1.5*3E
$GPRMC,194325.000,A,3748.8000,N,12217.8606,W,0.17,47.43,151211,,,A*4E
$GPVTG,47.43,T,,M,0.17,N,0.3,K,A*3C
$GPGGA,194326.000,3748.8001,N,12217.8604,W,1,08,1.0,10.0,M,-25.1,M,,0000*5A
$GPGSA,A,3,16,05,30,21,18,26,15,29,,,,,1.8,1.0,1.5*3E
$GPRMC,194326.000,A,3748.8001,N,12217.8604,W,0.14,356.43,151211,,,A*7E
$GPVTG,356.43,T,,M,0.14,N,0.3,K,A*0C
$GPGGA,194327.000,3748.8001,N,12217.8604,W,1,08,1.0,9.9,M,-25.1,M,,0000*6A
$GPGSA,A,3,16,05,30,21,18,26,15,29,,,,,1.8,1.0,1.5*3E
$GPGSV,3,1,11,29,77,080,33,21,51,285,22,18,37,205,30,05,29,046,40*71
$GPGSV,3,2,11,30,26,303,27,25,24,188,28,15,22,127,36,26,20,088,40*77
$GPGSV,3,3,11,16,09,324,33,12,02,169,18,48,44,197,36*42
$GPRMC,194327.000,A,3748.8001,N,12217.8604,W,0.20,88.13,151211,,,A*4D
$GPVTG,88.13,T,,M,0.20,N,0.4,K,A*39
$GPGGA,194328.000,3748.8000,N,12217.8604,W,1,08,1.0,9.8,M,-25.1,M,,0000*65
$GPGSA,A,3,16,05,30,21,18,26,15,29,,,,,1.8,1.0,1.5*3E
$GPRMC,194328.000,A,3748.8000,N,12217.8604,W,0.10,325.84,151211,,,A*7A
$GPVTG,325.84,T,,M,0.10,N,0.2,K,A*06
$GPGGA,194329.000,3748.7999,N,12217.8605,W,1,07,1.1,9.5,M,-25.1,M,,0000*60
$GPGSA,A,3,05,30,21,18,26,15,29,,,,,,2.2,1.1,1.9*3D
$GPRMC,194329.000,A,3748.7999,N,12217.8605,W,0.06,312.16,151211,,,A*74
$GPVTG,312.16,T,,M,0.06,N,0.1,K,A*0D
$GPGGA,194330.000,3748.7998,N,12217.8605,W,1,08,1.0,9.1,M,-25.1,M,,0000*63
$GPGSA,A,3,16,05,30,21,18,26,15,29,,,,,1.8,1.0,1.5*3E
$GPRMC,194330.000,A,3748.7998,N,12217.8605,W,0.18,334.74,151211,,,A*72
$GPVTG,334.74,T,,M,0.18,N,0.3,K,A*00
$GPGGA,194331.000,3748.7997,N,12217.8606,W,1,08,1.0,8.6,M,-25.1,M,,0000*68
$GPGSA,A,3,16,05,30,21,18,26,15,29,,,,,1.8,1.0,1.5*3E
$GPRMC,194331.000,A,3748.7997,N,12217.8606,W,0.08,63.12,151211,,,A*4F
$GPVTG,63.12,T,,M,0.08,N,0.2,K,A*31
$GPGGA,194332.000,3748.7996,N,12217.8606,W,1,08,1.0,8.2,M,-25.1,M,,0000*6E
$GPGSA,A,3,16,05,30,21,18,26,15,29,,,,,1.8,1.0,1.5*3E
$GPGSV,3,1,11,29,77,080,32,21,51,285,24,18,37,205,30,05,29,046,33*72
$GPGSV,3,2,11,30,26,303,15,25,24,188,35,15,22,127,40,26,20,088,40*7B
$GPGSV,3,3,11,16,09,324,27,12,02,169,17,48,44,197,30*4E
$GPRMC,194332.000,A,3748.7996,N,12217.8606,W,0.06,24.59,151211,,,A*4F
$GPVTG,24.59,T,,M,0.06,N,0.1,K,A*30
$GPGGA,194333.000,3748.7997,N,12217.8607,W,1,08,1.0,7.7,M,-25.1,M,,0000*65
$GPGSA,A,3,16,05,30,21,18,26,15,29,,,,,1.8,1.0,1.5*3E
$GPRMC,194333.000,A,3748.7997,N,12217.8607,W,0.60,327.74,151211,,,A*71
$GPVTG,327.74,T,,M,0.60,N,1.1,K,A*0E
$GPGGA,194334.000,3748.7996,N,12217.8607,W,1,08,1.0,7.8,M,-25.1,M,,0000*6C
$GPGSA,A,3,16,05,30,21,18,26,15,29,,,,,1.8,1.0,1.5*3E
$GPRMC,194334.000,A,3748.7996,N,12217.8607,W,0.46,272.90,151211,,,A*78
$GPVTG,272.90,T,,M,0.46,N,0.9,K,A*08
$GPGGA,194335.000,3748.7996,N,12217.8608,W,1,08,1.0,8.7,M,-25.1,M,,0000*62
$GPGSA,A,3,16,05,30,21,18,26,15,29,,,,,1.8,1.0,1.5*3E
$GPRMC,194335.000,A,3748.7996,N,12217.8608,W,0.11,286.52,151211,,,A*71
$GPVTG,286.52,T,,M,0.11,N,0.2,K,A*04
$GPGGA,194336.000,3748.7994,N,12217.8609,W,1,08,1.0,6.7,M,-25.1,M,,0000*6C
$GPGSA,A,3,16,05,30,21,18,26,15,29,,,,,1.8,1.0,1.5*3E
$GPRMC,194336.000,A,3748.7994,N,12217.8609,W,0.16,3.17,151211,,,A*78
$GPVTG,3.17,T,,M,0.16,N,0.3,K,A*0C
$GPGGA,194337.000,3748.7993,N,12217.8609,W,1,08,1.0,6.1,M,-25.1,M,,0000*6C
$GPGSA,A,3,16,05,30,21,18,26,15,29,,,,,1.8,1.0,1.5*3E
$GPGSV,3,1,11,29,77,080,24,21,51,285,21,18,37,205,30,05,29,046,31*72
$GPGSV,3,2,11,30,26,303,17,25,24,188,35,15,22,127,37,26,20,088,36*78
$GPGSV,3,3,11,16,09,324,23,12,02,169,16,48,44,197,32*49
$GPVTG,118.76,T,,M,0.21,N,0.4,K,A*03
$GPGGA,194338.000,3748.7991,N,12217.8608,W,1,08,1.0,7.4,M,-25.1,M,,0000*64
$GPGSA,A,3,16,05,30,21,18,26,15,29,,,,,1.8,1.0,1.5*3E
$GPRMC,194338.000,A,3748.7991,N,12217.8608,W,0.37,118.41,151211,,,A*79
$GPVTG,118.41,T,,M,0.37,N,0.7,K,A*03
$GPGGA,194339.000,3748.7988,N,12217.8608,W,1,08,1.0,6.9,M,-25.1,M,,0000*61
$GPGSA,A,3,16,05,30,21,18,26,15,29,,,,,1.8,1.0,1.5*3E
$GPRMC,194339.000,A,3748.7988,N,12217.8608,W,0.43,130.68,151211,,,A*72
$GPVTG,130.68,T,,M,0.43,N,0.8,K,A*0E
$GPGGA,194340.000,3748.7986,N,12217.8607,W,1,08,1.0,5.8,M,-25.1,M,,0000*6C
$GPGSA,A,3,16,05,30,21,18,26,15,29,,,,,1.8,1.0,1.5*3E
$GPRMC,194340.000,A,3748.7986,N,12217.8607,W,0.68,102.09,151211,,,A*72
$GPVTG,102.09,T,,M,0.68,N,1.3,K,A*0B
$GPGGA,194341.000,3748.7984,N,12217.8604,W,1,08,1.0,4.8,M,-25.1,M,,0000*6D
$GPGSA,A,3,16,05,30,21,18,26,15,29,,,,,1.8,1.0,1.5*3E
$GPRMC,194341.000,A,3748.7984,N,12217.8604,W,1.49,121.54,151211,,,A*79
$GPVTG,121.54,T,,M,1.49,N,2.8,K,A*08
$GPGGA,194342.000,3748.7980,N,12217.8598,W,1,08,1.0,4.3,M,-25.1,M,,0000*67
$GPGSA,A,3,16,05,30,21,18,26,15,29,,,,,1.8,1.0,1.5*3E
$GPGSV,3,1,11,29,77,080,30,21,51,285,29,18,37,205,39,05,29,046,32*75
$GPGSV,3,2,11,30,26,303,27,25,24,188,43,15,22,127,36,26,20,088,25*79
$GPGSV,3,3,11,16,09,324,29,12,02,169,21,48,44,197,39*4C
$GPRMC,194342.000,A,3748.7980,N,12217.8598,W,2.46,124.62,151211,,,A*74
$GPVTG,124.62,T,,M,2.46,N,4.6,K,A*0C
$GPGGA,194343.000,3748.7975,N,12217.8591,W,1,07,1.2,3.8,M,-25.1,M,,0000*64
$GPGSA,A,3,16,30,21,18,26,15,29,,,,,,2.0,1.2,1.6*31
$GPRMC,194343.000,A,3748.7975,N,12217.8591,W,2.46,126.62,151211,,,A*74
$GPVTG,126.62,T,,M,2.46,N,4.6,K,A*0E
$GPGGA,194344.000,3748.7971,N,12217.8584,W,1,08,1.0,3.3,M,-25.1,M,,0000*65
$GPGSA,A,3,16,05,30,21,18,26,15,29,,,,,1.8,1.0,1.5*3E
$GPRMC,194344.000,A,3748.7971,N,12217.8584,W,2.40,124.76,151211,,,A*72
$GPVTG,124.76,T,,M,2.40,N,4.4,K,A*0D
$GPGGA,194345.000,3748.7967,N,12217.8577,W,1,08,1.0,2.8,M,-25.1,M,,0000*65
$GPGSA,A,3,16,05,30,21,18,26,15,29,,,,,1.8,1.0,1.5*3E
$GPRMC,194345.000,A,3748.7967,N,12217.8577,W,2.44,116.26,151211,,,A*78
$GPVTG,116.26,T,,M,2.44,N,4.5,K,A*0C
$GPGGA,194346.000,3748.7963,N,12217.8571,W,1,08,1.0,1.6,M,-25.1,M,,0000*69
$GPGSA,A,3,16,05,30,21,18,26,15,29,,,,,1.8,1.0,1.5*3E
$GPRMC,194346.000,A,3748.7963,N,12217.8571,W,1.98,112.39,151211,,,A*71
$GPVTG,112.39,T,,M,1.98,N,3.7,K,A*01
$GPGGA,194347.000,3748.7961,N,12217.8566,W,1,08,1.0,0.2,M,-25.1,M,,0000*69
$GPGSA,A,3,16,05,30,21,18,26,15,29,,,,,1.8,1.0,1.5*3E
$GPGSV,3,1,11,29,77,081,29,21,51,285,26,18,37,205,39,05,29,046,25*75
$GPGSV,3,2,11,30,26,302,26,25,23,188,37,15,22,127,33,26,20,088,16*78
$GPGSV,3,3,11,16,09,323,21,12,02,169,20,48,44,197,35*4E
$GPRMC,194347.000,A,3748.7961,N,12217.8566,W,1.78,109.92,151211,,,A*71
$GPVTG,109.92,T,,M,1.78,N,3.3,K,A*00
$GPGGA,194348.000,3748.7958,N,12217.8559,W,1,08,1.0,-0.7,M,-25.1,M,,0000*48
$GPGSA,A,3,16,05,30,21,18,26,15,29,,,,,1.8,1.0,1.5*3E
$GPRMC,194348.000,A,3748.7958,N,12217.8559,W,1.94,107.86,151211,,,A*71
$GPVTG,107.86,T,,M,1.94,N,3.6,K,A*0C
$GPGGA,194349.000,3748.7955,N,12217.8552,W,1,08,1.0,-1.4,M,-25.1,M,,0000*4D
$GPGSA,A,3,16,05,30,21,18,26,15,29,,,,,1.8,1.0,1.5*3E
$GPRMC,194349.000,A,3748.7955,N,12217.8552,W,2.38,120.58,151211,,,A*75
$GPVTG,120.58,T,,M,2.38,N,4.4,K,A*0A
$GPGGA,194350.000,3748.7952,N,12217.8545,W,1,08,1.0,-2.1,M,-25.1,M,,0000*42
$GPGSA,A,3,16,05,30,21,18,26,15,29,,,,,1.8,1.0,1.5*3E
$GPRMC,194350.000,A,3748.7952,N,12217.8545,W,2.29,115.33,151211,,,A*77
$GPVTG,115.33,T,,M,2.29,N,4.2,K,A*07
$GPGGA,194351.000,3748.7949,N,12217.8538,W,1,08,1.0,-2.7,M,-25.1,M,,0000*45
$GPGSA,A,3,16,05,30,21,18,26,15,29,,,,,1.8,1.0,1.5*3E
$GPRMC,194351.000,A,3748.7949,N,12217.8538,W,2.21,119.41,151211,,,A*77
$GPVTG,119.41,T,,M,2.21,N,4.1,K,A*05
$GPGGA,194352.000,3748.7946,N,12217.8531,W,1,08,1.0,-3.2,M,-25.1,M,,0000*44
$GPGSA,A,3,16,05,30,21,18,26,15,29,,,,,1.8,1.0,1.5*3E
$GPGSV,3,1,11,29,77,081,30,21,51,285,28,18,37,205,39,05,29,046,24*72
$GPGSV,3,2,11,30,26,302,26,25,23,188,42,15,22,127,34,26,20,088,24*7C
$GPGSV,3,3,11,16,09,323,21,12,02,169,,48,44,197,39*40
$GPRMC,194352.000,A,3748.7946,N,12217.8531,W,1.95,113.70,151211,,,A*76
$GPVTG,113.70,T,,M,1.95,N,3.6,K,A*01
$GPGGA,194353.000,3748.7943,N,12217.8524,W,1,08,1.0,-3.8,M,-25.1,M,,0000*4E
$GPGSA,A,3,16,05,30,21,18,26,15,29,,,,,1.8,1.0,1.5*3E
$GPRMC,194353.000,A,3748.7943,N,12217.8524,W,1.73,107.75,151211,,,A*7E
$GPVTG,107.75,T,,M,1.73,N,3.2,K,A*0D
$GPGGA,194354.000,3748.7941,N,12217.8515,W,1,08,1.0,-4.2,M,-25.1,M,,0000*44
$GPGSA,A,3,16,05,30,21,18,26,15,29,,,,,1.8,1.0,1.5*3E
$GPRMC,194354.000,A,3748.7941,N,12217.8515,W,1.98,101.43,151211,,,A*7F
$GPVTG,101.43,T,,M,1.98,N,3.7,K,A*0E
$GPGGA,194355.000,3748.7941,N,12217.8509,W,1,08,1.0,-4.6,M,-25.1,M,,0000*4C
$GPGSA,A,3,16,05,30,21,18,26,15,29,,,,,1.8,1.0,1.5*3E
$GPRMC,194355.000,A,3748.7941,N,12217.8509,W,2.13,105.71,151211,,,A*76
$GPVTG,105.71,T,,M,2.13,N,3.9,K,A*05
$GPGGA,194356.000,3748.7939,N,12217.8502,W,1,08,1.0,-5.0,M,-25.1,M,,0000*4C
$GPGSA,A,3,16,05,30,21,18,26,15,29,,,,,1.8,1.0,1.5*3E
$GPRMC,194356.000,A,3748.7939,N,12217.8502,W,2.19,102.99,151211,,,A*7A
$GPVTG,102.99,T,,M,2.19,N,4.1,K,A*01
$GPGGA,194357.000,3748.7935,N,12217.8492,W,1,08,1.0,-5.0,M,-25.1,M,,0000*49
$GPGSA,A,3,16,05,30,21,18,26,15,29,,,,,1.8,1.0,1.5*3E
$GPGSV,3,1,11,29,77,081,30,21,51,285,28,18,37,205,38,05,29,046,20*77
$GPGSV,3,2,11,30,26,302,23,25,23,188,37,15,22,127,31,26,20,088,30*7B
$GPGSV,3,3,11,16,09,323,21,12,02,169,,48,44,197,35*4C
$GPRMC,194357.000,A,3748.7935,N,12217.8492,W,2.37,110.53,151211,,,A*76
$GPGGA,194358.000,3748.7932,N,12217.8485,W,1,08,1.0,-5.0,M,-25.1,M,,0000*47
$GPGSA,A,3,16,05,30,21,18,26,15,29,,,,,1.8,1.0,1.5*3E
$GPRMC,194358.000,A,3748.7932,N,12217.8485,W,2.01,121.08,151211,,,A*71
$GPVTG,121.08,T,,M,2.01,N,3.7,K,A*00
$GPGGA,194359.000,3748.7931,N,12217.8480,W,1,08,1.0,-5.2,M,-25.1,M,,0000*42
$GPGSA,A,3,16,05,30,21,18,26,15,29,,,,,1.8,1.0,1.6*3D
$GPRMC,194359.000,A,3748.7931,N,12217.8480,W,1.54,109.03,151211,,,A*74
$GPVTG,109.03,T,,M,1.54,N,2.9,K,A*0D
$GPGGA,194400.000,3748.7929,N,12217.8474,W,1,08,1.0,-5.1,M,-25.1,M,,0000*48
$GPGSA,A,3,16,05,30,21,18,26,15,29,,,,,1.8,1.0,1.6*3D
$GPRMC,194400.000,A,3748.7929,N,12217.8474,W,1.40,103.04,151211,,,A*75
$GPVTG,103.04,T,,M,1.40,N,2.6,K,A*0A
$GPGGA,194401.000,3748.7928,N,12217.8469,W,1,08,1.0,-5.1,M,-25.1,M,,0000*44
$GPGSA,A,3,16,05,30,21,18,26,15,29,,,,,1.8,1.0,1.6*3D
$GPRMC,194401.000,A,3748.7928,N,12217.8469,W,1.27,58.99,151211,,,A*43
$GPVTG,58.99,T,,M,1.27,N,2.3,K,A*35
$GPGGA,194402.000,3748.7927,N,12217.8461,W,1,08,1.0,-4.6,M,-25.1,M,,0000*46
$GPGSA,A,3,16,05,30,21,18,26,15,29,,,,,1.8,1.0,1.6*3D
$GPGSV,3,1,11,29,77,081,27,21,51,285,23,18,37,205,34,05,29,046,22*74
$GPGSV,3,2,11,30,26,302,19,25,23,188,37,15,22,127,34,26,20,088,29*7F
$GPGSV,3,3,11,16,09,323,18,12,02,169,,48,44,197,34*47
$GPRMC,194402.000,A,3748.7927,N,12217.8461,W,1.42,85.53,151211,,,A*42
$GPVTG,85.53,T,,M,1.42,N,2.6,K,A*35
$GPGGA,194403.000,3748.7923,N,12217.8456,W,1,08,1.0,-4.0,M,-25.1,M,,0000*41
$GPGSA,A,3,16,05,30,21,18,26,15,29,,,,,1.8,1.0,1.6*3D
$GPRMC,194403.000,A,3748.7923,N,12217.8456,W,1.70,108.38,151211,,,A*7B
$GPVTG,108.38,T,,M,1.70,N,3.1,K,A*0B
$GPGGA,194404.000,3748.7916,N,12217.8450,W,1,08,1.0,-3.8,M,-25.1,M,,0000*49
$GPGSA,A,3,16,05,30,21,18,26,15,29,,,,,1.8,1.0,1.6*3D
$GPRMC,194404.000,A,3748.7916,N,12217.8450,W,2.04,118.45,151211,,,A*77
$GPVTG,118.45,T,,M,2.04,N,3.8,K,A*09
$GPGGA,194405.000,3748.7910,N,12217.8445,W,1,08,1.0,-3.3,M,-25.1,M,,0000*41
$GPGSA,A,3,16,05,30,21,18,26,15,29,,,,,1.8,1.0,1.6*3D
$GPRMC,194405.000,A,3748.7910,N,12217.8445,W,1.87,117.43,151211,,,A*75
$GPVTG,117.43,T,,M,1.87,N,3.5,K,A*05
$GPGGA,194406.000,3748.7906,N,12217.8438,W,1,08,1.0,-3.2,M,-25.1,M,,0000*4E
$GPGSA,A,3,16,05,30,21,18,26,15,29,,,,,1.8,1.0,1.6*3D
$GPRMC,194406.000,A,3748.7906,N,12217.8438,W,2.60,116.90,151211,,,A*7E
$GPVTG,116.90,T,,M,2.60,N,4.8,K,A*0A
$GPGGA,194407.000,3748.7899,N,12217.8426,W,1,08,1.0,-3.6,M,-25.1,M,,0000*43
$GPGSA,A,3,16,05,30,21,18,26,15,29,,,,,1.8,1.0,1.6*3D
$GPGSV,3,1,11,29,77,081,28,21,51,285,24,18,37,205,38,05,29,046,21*73
$GPGSV,3,2,11,30,26,302,23,25,23,188,39,15,22,127,33,26,20,088,24*72
$GPGSV,3,3,11,16,09,323,19,12,02,169,,48,44,197,38*4A
$GPRMC,194407.000,A,3748.7899,N,12217.8426,W,2.46,118.62,151211,,,A*70
$GPVTG,118.62,T,,M,2.46,N,4.6,K,A*03
$GPGGA,194408.000,3748.7895,N,12217.8418,W,1,08,1.0,-4.2,M,-25.1,M,,0000*4E
$GPGSA,A,3,16,05,30,21,18,26,15,29,,,,,1.8,1.0,1.6*3D
$GPRMC,194408.000,A,3748.7895,N,12217.8418,W,2.09,112.86,151211,,,A*75
$GPVTG,112.86,T,,M,2.09,N,3.9,K,A*00
$GPGGA,194409.000,3748.7891,N,12217.8410,W,1,08,1.0,-4.3,M,-25.1,M,,0000*42
$GPGSA,A,3,16,05,30,21,18,26,15,29,,,,,1.8,1.0,1.6*3D
$GPRMC,194409.000,A,3748.7891,N,12217.8410,W,1.76,121.10,151211,,,A*7C
$GPVTG,121.10,T,,M,1.76,N,3.3,K,A*0E
$GPGGA,194410.000,3748.7889,N,12217.8405,W,1,08,1.0,-4.3,M,-25.1,M,,0000*47
$GPGSA,A,3,16,05,30,21,18,26,15,29,,,,,1.8,1.0,1.6*3D
$GPRMC,194410.000,A,3748.7889,N,12217.8405,W,1.71,115.23,151211,,,A*79
$GPVTG,115.23,T,,M,1.71,N,3.2,K,A*0F
$GPGGA,194411.000,3748.7885,N,12217.8397,W,1,08,1.0,-4.3,M,-25.1,M,,0000*46
$GPGSA,A,3,16,05,30,21,18,26,15,29,,,,,1.8,1.0,1.6*3D
$GPRMC,194411.000,A,3748.7885,N,12217.8397,W,1.92,112.70,151211,,,A*74
$GPVTG,112.70,T,,M,1.92,N,3.6,K,A*07
$GPGGA,194412.000,3748.7881,N,12217.8391,W,1,08,1.0,-4.2,M,-25.1,M,,0000*46
$GPGSA,A,3,16,05,30,21,18,26,15,29,,,,,1.8,1.0,1.6*3D
$GPGSV,3,1,11,29,77,081,29,21,51,285,25,18,37,205,38,05,29,046,26*74
$GPGSV,3,2,11,30,26,302,23,25,23,188,42,15,22,127,33,26,20,088,25*7F
$GPGSV,3,3,11,16,09,323,19,12,02,169,,48,44,197,38*4A
$GPVTG,116.62,T,,M,1.93,N,3.6,K,A*01
$GPGGA,194413.000,3748.7876,N,12217.8382,W,1,08,1.0,-4.2,M,-25.1,M,,0000*4D
$GPGSA,A,3,16,05,30,21,18,26,15,29,,,,,1.8,1.0,1.6*3D
$GPRMC,194413.000,A,3748.7876,N,12217.8382,W,2.00,112.99,151211,,,A*71
$GPVTG,112.99,T,,M,2.00,N,3.7,K,A*09
$GPGGA,194414.000,3748.7872,N,12217.8371,W,1,08,1.0,-3.8,M,-25.1,M,,0000*4F
$GPGSA,A,3,16,05,30,21,18,26,15,29,,,,,1.8,1.0,1.6*3D
$GPRMC,194414.000,A,3748.7872,N,12217.8371,W,2.67,119.41,151211,,,A*71
$GPVTG,119.41,T,,M,2.67,N,5.0,K,A*07
$GPGGA,194415.000,3748.7864,N,12217.8357,W,1,08,1.0,-3.4,M,-25.1,M,,0000*41
$GPGSA,A,3,16,05,30,21,18,26,15,29,,,,,1.8,1.0,1.6*3D
$GPRMC,194415.000,A,3748.7864,N,12217.8357,W,2.55,115.99,151211,,,A*7B
$GPVTG,115.99,T,,M,2.55,N,4.7,K,A*09
$GPGGA,194416.000,3748.7861,N,12217.8348,W,1,08,1.0,-3.4,M,-25.1,M,,0000*49
$GPGSA,A,3,16,05,30,21,18,26,15,29,,,,,1.8,1.0,1.6*3D
$GPRMC,194416.000,A,3748.7861,N,12217.8348,W,2.30,103.54,151211,,,A*76
$GPVTG,103.54,T,,M,2.30,N,4.3,K,A*08
$GPGGA,194417.000,3748.7856,N,12217.8335,W,1,08,1.0,-3.5,M,-25.1,M,,0000*47
$GPGSA,A,3,16,05,30,21,18,26,15,29,,,,,1.8,1.0,1.6*3D
$GPGSV,3,1,11,29,77,081,29,21,51,285,25,18,37,205,38,05,29,046,24*76
$GPGSV,3,2,11,30,26,302,23,25,23,188,40,15,22,127,30,26,20,088,25*7E
$GPGSV,3,3,11,16,09,323,18,12,02,169,,48,44,197,36*45
$GPRMC,194417.000,A,3748.7856,N,12217.8335,W,2.54,103.36,151211,,,A*7F
$GPVTG,103.36,T,,M,2.54,N,4.7,K,A*0A
$GPGGA,194418.000,3748.7854,N,12217.8325,W,1,07,1.1,-3.6,M,-25.1,M,,0000*46
$GPGSA,A,3,05,30,21,18,26,15,29,,,,,,2.2,1.1,1.9*3D
$GPRMC,194418.000,A,3748.7854,N,12217.8325,W,2.42,110.57,151211,,,A*71
$GPVTG,110.57,T,,M,2.42,N,4.5,K,A*0A
$GPGGA,194419.000,3748.7853,N,12217.8317,W,1,07,1.1,-3.6,M,-25.1,M,,0000*41
$GPGSA,A,3,05,30,21,18,26,15,29,,,,,,2.2,1.1,1.9*3D
$GPRMC,194419.000,A,3748.7853,N,12217.8317,W,2.15,109.50,151211,,,A*7B
$GPVTG,109.50,T,,M,2.15,N,4.0,K,A*02
$GPGGA,194420.000,3748.7852,N,12217.8310,W,1,07,1.1,-3.9,M,-25.1,M,,0000*42
$GPGSA,A,3,05,30,21,18,26,15,29,,,,,,2.2,1.1,1.9*3D
$GPRMC,194420.000,A,3748.7852,N,12217.8310,W,2.04,98.62,151211,,,A*4F
$GPVTG,98.62,T,,M,2.04,N,3.8,K,A*35
$GPGGA,194421.000,3748.7849,N,12217.8303,W,1,07,1.1,-3.7,M,-25.1,M,,0000*45
$GPGSA,A,3,05,30,21,18,26,15,29,,,,,,2.2,1.1,1.9*3D
$GPRMC,194421.000,A,3748.7849,N,12217.8303,W,1.88,115.57,151211,,,A*73
$GPVTG,115.57,T,,M,1.88,N,3.5,K,A*0D
$GPGGA,194422.000,3748.7843,N,12217.8295,W,1,07,1.1,-4.0,M,-25.1,M,,0000*42
$GPGSA,A,3,05,30,21,18,26,15,29,,,,,,2.2,1.1,1.9*3D
$GPGSV,3,1,11,29,77,081,29,21,51,285,25,18,37,205,33,05,29,046,22*7B
$GPGSV,3,2,11,30,26,302,24,25,23,188,39,15,22,127,35,26,20,088,25*72
$GPGSV,3,3,11,16,09,323,,12,02,169,20,48,44,197,36*4E
$GPRMC,194422.000,A,3748.7843,N,12217.8295,W,1.99,110.32,151211,,,A*72
$GPVTG,110.32,T,,M,1.99,N,3.7,K,A*09
$GPGGA,194423.000,3748.7829,N,12217.8288,W,1,08,1.0,-2.0,M,-25.1,M,,0000*4B
$GPGSA,A,3,05,30,21,18,26,15,29,16,,,,,1.8,1.0,1.6*3D
$GPRMC,194423.000,A,3748.7829,N,12217.8288,W,2.00,122.38,151211,,,A*7B
$GPVTG,122.38,T,,M,2.00,N,3.7,K,A*01
$GPGGA,194424.000,3748.7820,N,12217.8282,W,1,08,1.0,-0.5,M,-25.1,M,,0000*48
$GPGSA,A,3,05,30,21,18,26,15,29,16,,,,,1.8,1.0,1.6*3D
$GPRMC,194424.000,A,3748.7820,N,12217.8282,W,2.15,129.95,151211,,,A*77
$GPVTG,129.95,T,,M,2.15,N,4.0,K,A*09
$GPGGA,194425.000,3748.7815,N,12217.8275,W,1,08,1.0,-0.3,M,-25.1,M,,0000*41
$GPGSA,A,3,05,30,21,18,26,15,29,16,,,,,1.8,1.0,1.6*3D
$GPRMC,194425.000,A,3748.7815,N,12217.8275,W,2.00,119.53,151211,,,A*75
$GPVTG,119.53,T,,M,2.00,N,3.7,K,A*04
$GPGGA,194426.000,3748.7810,N,12217.8266,W,1,08,1.0,-0.3,M,-25.1,M,,0000*45
$GPGSA,A,3,05,30,21,18,26,15,29,16,,,,,1.8,1.0,1.6*3D
$GPRMC,194426.000,A,3748.7810,N,12217.8266,W,2.06,116.48,151211,,,A*72
$GPVTG,116.48,T,,M,2.06,N,3.8,K,A*08
$GPGGA,194427.000,3748.7804,N,12217.8255,W,1,08,1.0,-0.1,M,-25.1,M,,0000*43
$GPGSA,A,3,05,30,21,18,26,15,29,16,,,,,1.8,1.0,1.6*3D
$GPGSV,3,1,11,29,77,081,29,21,51,285,25,18,37,205,37,05,29,046,23*7E
$GPGSV,3,2,11,30,26,302,23,25,23,188,39,15,22,127,29,26,20,088,21*7C
$GPGSV,3,3,11,16,09,323,17,12,02,169,19,48,44,197,38*4C
$GPVTG,112.46,T,,M,2.17,N,4.0,K,A*0D
$GPGGA,194428.000,3748.7799,N,12217.8243,W,1,07,1.1,0.3,M,-25.1,M,,0000*61
$GPGSA,A,3,05,30,21,18,26,15,29,,,,,,2.2,1.1,1.9*3D
$GPRMC,194428.000,A,3748.7799,N,12217.8243,W,2.07,119.34,151211,,,A*70
$GPVTG,119.34,T,,M,2.07,N,3.8,K,A*0D
$GPGGA,194429.000,3748.7794,N,12217.8234,W,1,07,1.1,0.2,M,-25.1,M,,0000*6C
$GPGSA,A,3,05,30,21,18,26,15,29,,,,,,2.2,1.1,1.9*3D
$GPRMC,194429.000,A,3748.7794,N,12217.8234,W,2.21,122.90,151211,,,A*7E
$GPVTG,122.90,T,,M,2.21,N,4.1,K,A*01
$GPGGA,194430.000,3748.7792,N,12217.8228,W,1,07,1.1,-0.2,M,-25.1,M,,0000*42
$GPGSA,A,3,05,30,21,18,26,15,29,,,,,,2.2,1.1,1.9*3D
$GPRMC,194430.000,A,3748.7792,N,12217.8228,W,1.99,113.40,151211,,,A*72
$GPVTG,113.40,T,,M,1.99,N,3.7,K,A*0F
$GPGGA,194431.000,3748.7788,N,12217.8218,W,1,07,1.1,-0.2,M,-25.1,M,,0000*4B
$GPGSA,A,3,05,30,21,18,26,15,29,,,,,,2.2,1.1,1.9*3D
$GPRMC,194431.000,A,3748.7788,N,12217.8218,W,1.99,107.33,151211,,,A*7A
$GPVTG,107.33,T,,M,1.99,N,3.7,K,A*0E
$GPGGA,194432.000,3748.7784,N,12217.8208,W,1,07,1.1,-0.1,M,-25.1,M,,0000*46
$GPGSA,A,3,05,30,21,18,26,15,29,,,,,,2.2,1.1,1.9*3D
$GPGSV,3,1,11,29,77,081,29,21,51,285,25,18,37,205,37,05,29,046,22*7F
$GPGSV,3,2,11,30,26,302,22,25,23,188,39,15,22,127,36,26,20,088,25*77
$GPGSV,3,3,11,16,09,323,,12,02,169,18,48,44,197,38*4B
$GPRMC,194432.000,A,3748.7784,N,12217.8208,W,1.77,107.83,151211,,,A*7F
$GPVTG,107.83,T,,M,1.77,N,3.3,K,A*01
$GPGGA,194433.000,3748.7781,N,12217.8199,W,1,07,1.1,0.0,M,-25.1,M,,0000*65
$GPGSA,A,3,05,30,21,18,26,15,29,,,,,,2.2,1.1,1.9*3D
$GPRMC,194433.000,A,3748.7781,N,12217.8199,W,1.75,101.64,151211,,,A*7D
$GPVTG,101.64,T,,M,1.75,N,3.2,K,A*0D
$GPGGA,194434.000,3748.7777,N,12217.8189,W,1,07,1.1,-0.5,M,-25.1,M,,0000*42
$GPGSA,A,3,05,30,21,18,26,15,29,,,,,,2.2,1.1,1.9*3D
$GPRMC,194434.000,A,3748.7777,N,12217.8189,W,2.10,113.70,151211,,,A*74
$GPVTG,113.70,T,,M,2.10,N,3.9,K,A*00
$GPGGA,194435.000,3748.7773,N,12217.8179,W,1,08,1.0,-0.6,M,-25.1,M,,0000*45
$GPGSA,A,3,05,30,21,18,26,15,29,16,,,,,1.8,1.0,1.6*3D
$GPRMC,194435.000,A,3748.7773,N,12217.8179,W,1.95,111.89,151211,,,A*74
$GPVTG,111.89,T,,M,1.95,N,3.6,K,A*05
$GPGGA,194436.000,3748.7765,N,12217.8173,W,1,08,1.0,0.3,M,-25.1,M,,0000*63
$GPGSA,A,3,05,30,21,18,26,15,29,16,,,,,1.8,1.0,1.6*3D
$GPRMC,194436.000,A,3748.7765,N,12217.8173,W,2.12,118.54,151211,,,A*7F
$GPVTG,118.54,T,,M,2.12,N,3.9,K,A*0F
$GPGGA,194437.000,3748.7755,N,12217.8166,W,1,08,1.0,1.3,M,-25.1,M,,0000*64
$GPGSA,A,3,05,30,21,18,26,15,29,16,,,,,1.8,1.0,1.6*3D
$GPGSV,3,1,11,29,77,081,29,21,51,285,25,18,37,205,37,05,29,046,29*74
$GPGSV,3,2,11,30,26,302,22,25,23,188,40,15,22,127,36,26,20,088,27*7B
$GPGSV,3,3,11,16,09,323,18,12,02,169,17,48,44,197,38*4D
$GPRMC,194437.000,A,3748.7755,N,12217.8166,W,2.32,121.75,151211,,,A*72
$GPVTG,121.75,T,,M,2.32,N,4.3,K,A*09
$GPGGA,194438.000,3748.7751,N,12217.8157,W,1,07,1.1,1.0,M,-25.1,M,,0000*60
$GPGSA,A,3,05,30,21,18,26,15,29,,,,,,2.2,1.1,1.9*3D
$GPRMC,194438.000,A,3748.7751,N,12217.8157,W,2.68,109.26,151211,,,A*78
$GPVTG,109.26,T,,M,2.68,N,5.0,K,A*08
$GPGGA,194439.000,3748.7748,N,12217.8148,W,1,07,1.1,0.5,M,-25.1,M,,0000*63
$GPGSA,A,3,05,30,21,18,26,15,29,,,,,,2.2,1.1,1.9*3D
$GPRMC,194439.000,A,3748.7748,N,12217.8148,W,2.07,118.17,151211,,,A*74
$GPVTG,118.17,T,,M,2.07,N,3.8,K,A*0D
$GPGGA,194440.000,3748.7744,N,12217.8139,W,1,07,1.1,0.4,M,-25.1,M,,0000*66
$GPGSA,A,3,05,30,21,18,26,15,29,,,,,,2.2,1.1,1.9*3D
$GPRMC,194440.000,A,3748.7744,N,12217.8139,W,2.32,123.04,151211,,,A*7C
$GPVTG,123.04,T,,M,2.32,N,4.3,K,A*0D
$GPGGA,194441.000,3748.7741,N,12217.8130,W,1,07,1.1,0.2,M,-25.1,M,,0000*6D
$GPGSA,A,3,05,30,21,18,26,15,29,,,,,,2.2,1.1,1.9*3D
$GPRMC,194441.000,A,3748.7741,N,12217.8130,W,2.35,111.29,151211,,,A*78
$GPVTG,111.29,T,,M,2.35,N,4.4,K,A*03
$GPGGA,194442.000,3748.7737,N,12217.8119,W,1,07,1.1,0.3,M,-25.1,M,,0000*65
$GPGSA,A,3,05,30,21,18,26,15,29,,,,,,2.2,1.1,1.9*3D
$GPGSV,3,1,11,29,77,081,29,21,51,285,25,18,37,205,37,05,29,046,21*7C
$GPGSV,3,2,11,30,26,302,21,25,23,188,40,15,22,127,36,26,20,088,20*7F
$GPGSV,3,3,11,16,09,323,,12,02,169,17,48,44,197,36*4A
$GPRMC,194442.000,A,3748.7737,N,12217.8119,W,2.27,106.01,151211,,,A*7E
$GPVTG,106.01,T,,M,2.27,N,4.2,K,A*0A
$GPGGA,194443.000,3748.7734,N,12217.8109,W,1,07,1.1,0.3,M,-25.1,M,,0000*66
$GPGSA,A,3,05,30,21,18,26,15,29,,,,,,2.2,1.1,1.9*3D
$GPRMC,194443.000,A,3748.7734,N,12217.8109,W,2.39,100.73,151211,,,A*71
$GPVTG,100.73,T,,M,2.39,N,4.4,K,A*00
$GPGGA,194444.000,3748.7728,N,12217.8096,W,1,07,1.1,0.4,M,-25.1,M,,0000*6C
$GPGSA,A,3,05,30,21,18,26,15,29,,,,,,2.2,1.1,1.9*3D
$GPRMC,194444.000,A,3748.7728,N,12217.8096,W,2.79,113.61,151211,,,A*79
$GPVTG,113.61,T,,M,2.79,N,5.2,K,A*02
$GPGGA,194445.000,3748.7724,N,12217.8086,W,1,07,1.1,0.4,M,-25.1,M,,0000*60
$GPGSA,A,3,05,30,21,18,26,15,29,,,,,,2.2,1.1,1.9*3D
$GPRMC,194445.000,A,3748.7724,N,12217.8086,W,2.22,109.40,151211,,,A*73
$GPVTG,109.40,T,,M,2.22,N,4.1,K,A*06
$GPGGA,194446.000,3748.7719,N,12217.8076,W,1,07,1.1,0.5,M,-25.1,M,,0000*63
$GPGSA,A,3,05,30,21,18,26,15,29,,,,,,2.2,1.1,1.9*3D
$GPRMC,194446.000,A,3748.7719,N,12217.8076,W,1.91,105.64,151211,,,A*70
$GPVTG,105.64,T,,M,1.91,N,3.5,K,A*04
$GPGGA,194447.000,3748.7716,N,12217.8067,W,1,07,1.1,0.4,M,-25.1,M,,0000*6C
$GPGSA,A,3,05,30,21,18,26,15,29,,,,,,2.2,1.1,1.9*3D
$GPGSV,3,1,11,29,77,083,29,21,52,286,25,18,37,205,37,05,28,046,21*7F
$GPGSV,3,2,11,30,27,302,21,25,23,187,40,15,22,126,37,26,21,088,21*71
$GPGSV,3,3,11,16,10,323,,12,02,169,23,48,44,197,35*46
$GPRMC,194447.000,A,3748.7716,N,12217.8067,W,1.90,93.18,151211,,,A*4A
$GPVTG,93.18,T,,M,1.90,N,3.5,K,A*30
$GPGGA,194448.000,3748.7715,N,12217.8060,W,1,07,1.1,-0.1,M,-25.1,M,,0000*4F
$GPGSA,A,3,05,30,21,18,26,15,29,,,,,,2.2,1.1,1.9*3D
$GPRMC,194448.000,A,3748.7715,N,12217.8060,W,1.63,100.24,151211,,,A*79
$GPVTG,100.24,T,,M,1.63,N,3.0,K,A*0D
$GPGGA,194449.000,3748.7712,N,12217.8054,W,1,07,1.1,-0.6,M,-25.1,M,,0000*49
$GPGSA,A,3,05,30,21,18,26,15,29,,,,,,2.2,1.1,1.9*3D
$GPRMC,194449.000,A,3748.7712,N,12217.8054,W,1.79,108.46,151211,,,A*7F
$GPVTG,108.46,T,,M,1.79,N,3.3,K,A*09
$GPGGA,194450.000,3748.7708,N,12217.8047,W,1,07,1.1,-0.8,M,-25.1,M,,0000*46
$GPGSA,A,3,05,30,21,18,26,15,29,,,,,,2.2,1.1,1.9*3D
$GPRMC,194450.000,A,3748.7708,N,12217.8047,W,1.73,118.81,151211,,,A*7E
$GPVTG,118.81,T,,M,1.73,N,3.2,K,A*08
$GPGGA,194451.000,3748.7702,N,12217.8036,W,1,07,1.1,-0.0,M,-25.1,M,,0000*43
$GPGSA,A,3,05,30,21,18,26,15,29,,,,,,2.2,1.1,1.9*3D
$GPRMC,194451.000,A,3748.7702,N,12217.8036,W,1.76,112.36,151211,,,A*70
$GPVTG,112.36,T,,M,1.76,N,3.3,K,A*0A
$GPGGA,194452.000,3748.7697,N,12217.8028,W,1,08,1.0,0.2,M,-25.1,M,,0000*63
$GPGSA,A,3,05,30,21,18,26,15,29,16,,,,,1.8,1.0,1.6*3D
$GPGSV,3,1,11,29,77,083,29,21,52,286,25,18,37,205,37,05,28,046,22*7C
$GPGSV,3,2,11,30,27,302,22,25,23,187,40,15,22,126,37,26,21,088,31*73
$GPGSV,3,3,11,16,10,323,18,12,02,169,23,48,44,197,37*4D
$GPRMC,194452.000,A,3748.7697,N,12217.8028,W,2.21,119.54,151211,,,A*7F
$GPVTG,119.54,T,,M,2.21,N,4.1,K,A*01
$GPGGA,194453.000,3748.7694,N,12217.8020,W,1,08,1.0,0.3,M,-25.1,M,,0000*68
$GPGSA,A,3,05,30,21,18,26,15,29,16,,,,,1.8,1.0,1.6*3D
$GPRMC,194453.000,A,3748.7694,N,12217.8020,W,1.91,115.45,151211,,,A*71
$GPVTG,115.45,T,,M,1.91,N,3.5,K,A*06
$GPGGA,194454.000,3748.7691,N,12217.8013,W,1,08,1.0,-0.0,M,-25.1,M,,0000*44
$GPGSA,A,3,05,30,21,18,26,15,29,16,,,,,1.8,1.0,1.6*3D
$GPRMC,194454.000,A,3748.7691,N,12217.8013,W,2.02,108.82,151211,,,A*7D
$GPVTG,108.82,T,,M,2.02,N,3.7,K,A*0A
$GPGGA,194455.000,3748.7686,N,12217.8006,W,1,08,1.0,0.0,M,-25.1,M,,0000*6A
$GPGSA,A,3,05,30,21,18,26,15,29,16,,,,,1.8,1.0,1.6*3D
$GPRMC,194455.000,A,3748.7686,N,12217.8006,W,2.00,116.89,151211,,,A*78
$GPVTG,116.89,T,,M,2.00,N,3.7,K,A*0C
$GPGGA,194456.000,3748.7688,N,12217.7998,W,1,08,1.0,-0.8,M,-25.1,M,,0000*43
$GPGSA,A,3,05,30,21,18,26,15,29,16,,,,,1.8,1.0,1.6*3D
$GPRMC,194456.000,A,3748.7688,N,12217.7998,W,1.99,105.32,151211,,,A*75
$GPVTG,105.32,T,,M,1.99,N,3.7,K,A*0D
$GPGGA,194457.000,3748.7687,N,12217.7992,W,1,08,1.0,-1.7,M,-25.1,M,,0000*49
$GPGSA,A,3,05,30,21,18,26,15,29,16,,,,,1.8,1.0,1.6*3D
$GPGSV,3,1,11,29,77,083,29,21,52,286,25,18,37,205,37,05,28,046,27*79
$GPGSV,3,2,11,30,27,302,22,25,23,187,41,15,22,126,37,26,21,088,24*76
$GPGSV,3,3,11,16,10,323,19,12,02,169,22,48,44,197,37*4D
$GPRMC,194457.000,A,3748.7687,N,12217.7992,W,1.84,111.86,151211,,,A*77
$GPVTG,111.86,T,,M,1.84,N,3.4,K,A*08
$GPGGA,194458.000,3748.7683,N,12217.7982,W,1,08,1.0,-1.9,M,-25.1,M,,0000*4D
$GPGSA,A,3,05,30,21,18,26,15,29,16,,,,,1.8,1.0,1.6*3D
$GPRMC,194458.000,A,3748.7683,N,12217.7982,W,1.96,109.21,151211,,,A*7A
$GPVTG,109.21,T,,M,1.96,N,3.6,K,A*0D
$GPGGA,194459.000,3748.7677,N,12217.7971,W,1,08,1.0,-0.5,M,-25.1,M,,0000*46
$GPGSA,A,3,05,30,21,18,26,15,29,16,,,,,1.8,1.0,1.6*3D
$GPRMC,194459.000,A,3748.7677,N,12217.7971,W,2.44,112.86,151211,,,A*77
$GPVTG,112.86,T,,M,2.44,N,4.5,K,A*02
$GPGGA,194500.000,3748.7677,N,12217.7964,W,1,08,1.0,-1.0,M,-25.1,M,,0000*4B
$GPGSA,A,3,05,30,21,18,26,15,29,16,,,,,1.8,1.0,1.6*3D
$GPRMC,194500.000,A,3748.7677,N,12217.7964,W,2.64,108.04,151211,,,A*7D
$GPVTG,108.04,T,,M,2.64,N,4.9,K,A*0D
$GPGGA,194501.000,3748.7676,N,12217.7957,W,2,07,1.1,-1.6,M,-25.1,M,1.8,0000*67
$GPGSA,A,3,05,30,21,18,26,15,29,,,,,,2.2,1.1,1.9*3D
$GPRMC,194501.000,A,3748.7676,N,12217.7957,W,2.28,104.85,151211,,,D*75
$GPVTG,104.85,T,,M,2.28,N,4.2,K,D*0E
$GPGGA,194502.000,3748.7675,N,12217.7948,W,2,08,1.0,-2.0,M,-25.1,M,1.8,0000*62
$GPGSA,A,3,05,30,21,18,26,15,29,16,,,,,1.8,1.0,1.6*3D
$GPGSV,3,1,11,29,77,083,29,21,52,286,25,18,37,205,37,05,28,046,21*7F
$GPGSV,3,2,11,30,27,302,22,25,23,187,38,15,22,126,36,26,21,088,29*74
$GPGSV,3,3,11,16,10,323,22,12,02,169,25,48,44,197,36*43
$GPVTG,102.39,T,,M,2.42,N,4.5,K,D*04
$GPGGA,194503.000,3748.7669,N,12217.7936,W,2,08,1.0,-1.7,M,-25.1,M,1.8,0000*63
$GPGSA,A,3,05,30,21,18,26,15,29,16,,,,,1.8,1.0,1.6*3D
$GPRMC,194503.000,A,3748.7669,N,12217.7936,W,2.07,110.07,151211,,,D*7C
$GPVTG,110.07,T,,M,2.07,N,3.8,K,D*01
$GPGGA,194504.000,3748.7663,N,12217.7926,W,2,08,1.0,-1.7,M,-25.1,M,2.8,0000*6C
$GPGSA,A,3,05,30,21,18,26,15,29,16,,,,,1.8,1.0,1.6*3D
$GPRMC,194504.000,A,3748.7663,N,12217.7926,W,2.07,117.29,151211,,,D*7B
$GPVTG,117.29,T,,M,2.07,N,3.8,K,D*0A
$GPGGA,194505.000,3748.7660,N,12217.7921,W,2,08,1.0,-3.1,M,-25.1,M,3.8,0000*6C
$GPGSA,A,3,05,30,21,18,26,15,29,16,,,,,1.8,1.0,1.6*3D
$GPRMC,194505.000,A,3748.7660,N,12217.7921,W,2.48,116.47,151211,,,D*7C
$GPVTG,116.47,T,,M,2.48,N,4.6,K,D*01
$GPGGA,194506.000,3748.7657,N,12217.7914,W,2,08,1.0,-4.1,M,-25.1,M,4.8,0000*6D
$GPGSA,A,3,05,30,21,18,26,15,29,16,,,,,1.8,1.0,1.6*3D
$GPRMC,194506.000,A,3748.7657,N,12217.7914,W,2.34,114.83,151211,,,D*7C
$GPVTG,114.83,T,,M,2.34,N,4.3,K,D*05
$GPGGA,194507.000,3748.7650,N,12217.7904,W,2,08,1.0,-4.6,M,-25.1,M,0.8,0000*69
$GPGSA,A,3,05,30,21,18,26,15,29,16,,,,,1.8,1.0,1.6*3D
$GPGSV,3,1,11,29,77,083,29,21,52,286,25,18,37,205,38,05,28,046,22*73
$GPGSV,3,2,11,30,27,302,23,25,23,187,40,15,22,126,32,26,21,088,21*76
$GPGSV,3,3,11,16,10,323,22,12,02,169,22,48,44,197,37*45
$GPRMC,194507.000,A,3748.7650,N,12217.7904,W,2.13,112.48,151211,,,D*7F
$GPVTG,112.48,T,,M,2.13,N,3.9,K,D*0C
$GPGGA,194508.000,3748.7643,N,12217.7895,W,2,08,1.0,-3.9,M,-25.1,M,1.8,0000*64
$GPGSA,A,3,05,30,21,18,26,15,29,16,,,,,1.8,1.0,1.6*3D
$GPRMC,194508.000,A,3748.7643,N,12217.7895,W,1.96,119.36,151211,,,D*77
$GPVTG,119.36,T,,M,1.96,N,3.6,K,D*0F
$GPGGA,194509.000,3748.7637,N,12217.7886,W,2,07,1.1,-4.2,M,-25.1,M,2.8,0000*65
$GPGSA,A,3,05,30,21,18,26,15,29,,,,,,2.2,1.1,1.9*3D
$GPRMC,194509.000,A,3748.7637,N,12217.7886,W,2.68,120.96,151211,,,D*75
$GPVTG,120.96,T,,M,2.68,N,5.0,K,D*0D
$GPGGA,194510.000,3748.7632,N,12217.7876,W,2,07,1.1,-3.6,M,-25.1,M,3.8,0000*65
$GPGSA,A,3,05,30,21,18,26,15,29,,,,,,2.2,1.1,1.9*3D
$GPRMC,194510.000,A,3748.7632,N,12217.7876,W,2.37,105.04,151211,,,D*71
$GPVTG,105.04,T,,M,2.37,N,4.4,K,D*0E
$GPGGA,194511.000,3748.7629,N,12217.7867,W,2,07,1.1,-3.7,M,-25.1,M,4.8,0000*68
$GPGSA,A,3,05,30,21,18,26,15,29,,,,,,2.2,1.1,1.9*3D
$GPRMC,194511.000,A,3748.7629,N,12217.7867,W,1.90,101.78,151211,,,D*7B
$GPVTG,101.78,T,,M,1.90,N,3.5,K,D*09
$GPGGA,194512.000,3748.7626,N,12217.7860,W,2,07,1.1,-4.1,M,-25.1,M,5.8,0000*63
$GPGSA,A,3,05,30,21,18,26,15,29,,,,,,2.2,1.1,1.9*3D
$GPGSV,3,1,11,29,77,083,27,21,52,286,26,18,37,205,37,05,28,046,19*79
$GPGSV,3,2,11,30,27,302,24,25,23,187,31,15,22,126,33,26,21,088,21*76
$GPGSV,3,3,11,16,10,323,,12,02,169,21,48,44,197,36*47
$GPRMC,194512.000,A,3748.7626,N,12217.7860,W,2.12,114.46,151211,,,D*70
$GPVTG,114.46,T,,M,2.12,N,3.9,K,D*05
$GPGGA,194513.000,3748.7623,N,12217.7854,W,2,07,1.1,-4.5,M,-25.1,M,1.8,0000*60
$GPGSA,A,3,05,30,21,18,26,15,29,,,,,,2.2,1.1,1.9*3D
$GPRMC,194513.000,A,3748.7623,N,12217.7854,W,1.99,122.97,151211,,,D*7A
$GPVTG,122.97,T,,M,1.99,N,3.7,K,D*02
$GPGGA,194514.000,3748.7622,N,12217.7847,W,2,07,1.1,-4.6,M,-25.1,M,1.8,0000*67
$GPGSA,A,3,05,30,21,18,26,15,29,,,,,,2.2,1.1,1.9*3D
$GPRMC,194514.000,A,3748.7622,N,12217.7847,W,2.40,135.19,151211,,,D*79
$GPVTG,135.19,T,,M,2.40,N,4.5,K,D*00
$GPGGA,194515.000,3748.7615,N,12217.7842,W,2,07,1.1,-5.1,M,-25.1,M,1.8,0000*61
$GPGSA,A,3,05,30,21,18,26,15,29,,,,,,2.2,1.1,1.9*3D
$GPRMC,194515.000,A,3748.7615,N,12217.7842,W,2.50,150.39,151211,,,D*79
$GPVTG,150.39,T,,M,2.50,N,4.6,K,D*03
$GPGGA,194516.000,3748.7609,N,12217.7836,W,2,07,1.1,-5.4,M,-25.1,M,1.8,0000*69
$GPGSA,A,3,05,30,21,18,26,15,29,,,,,,2.2,1.1,1.9*3D
$GPRMC,194516.000,A,3748.7609,N,12217.7836,W,2.04,131.99,151211,,,D*78
$GPVTG,131.99,T,,M,2.04,N,3.8,K,D*06
$GPGGA,194517.000,3748.7604,N,12217.7828,W,2,08,1.0,-5.6,M,-25.1,M,2.8,0000*65
$GPGSA,A,3,05,30,21,18,26,15,29,16,,,,,1.8,1.0,1.6*3D
$GPGSV,3,1,11,29,77,084,28,21,52,286,26,18,37,206,31,05,28,046,20*7E
$GPGSV,3,2,11,30,27,302,24,25,23,187,33,15,23,126,35,26,21,087,21*7C
$GPGSV,3,3,11,16,10,323,21,12,01,169,18,48,44,197,37*4C
$GPRMC,194517.000,A,3748.7604,N,12217.7828,W,1.73,114.34,151211,,,D*78
$GPVTG,114.34,T,,M,1.73,N,3.2,K,D*0F
$GPGGA,194518.000,3748.7599,N,12217.7819,W,2,08,1.0,-5.7,M,-25.1,M,3.8,0000*6F
$GPGSA,A,3,05,30,21,18,26,15,29,16,,,,,1.8,1.0,1.6*3D
$GPRMC,194518.000,A,3748.7599,N,12217.7819,W,2.14,101.71,151211,,,D*75
$GPVTG,101.71,T,,M,2.14,N,4.0,K,D*0D
$GPGGA,194519.000,3748.7595,N,12217.7808,W,2,08,1.0,-5.7,M,-25.1,M,1.8,0000*60
$GPGSA,A,3,05,30,21,18,26,15,29,16,,,,,1.9,1.0,1.6*3C
$GPRMC,194519.000,A,3748.7595,N,12217.7808,W,1.95,112.84,151211,,,D*7A
$GPVTG,112.84,T,,M,1.95,N,3.6,K,D*0E
$GPGGA,194520.000,3748.7590,N,12217.7798,W,2,08,1.0,-5.8,M,-25.1,M,1.8,0000*66
$GPGSA,A,3,05,30,21,18,26,15,29,16,,,,,1.9,1.0,1.6*3C
$GPRMC,194520.000,A,3748.7590,N,12217.7798,W,2.43,119.02,151211,,,D*7E
$GPVTG,119.02,T,,M,2.43,N,4.5,K,D*07
$GPGGA,194521.000,3748.7587,N,12217.7792,W,2,08,1.0,-6.5,M,-25.1,M,1.8,0000*65
$GPGSA,A,3,05,30,21,18,26,15,29,16,,,,,1.9,1.0,1.6*3C
$GPRMC,194521.000,A,3748.7587,N,12217.7792,W,2.46,124.98,151211,,,D*7B
$GPVTG,124.98,T,,M,2.46,N,4.6,K,D*0C
$GPGGA,194522.000,3748.7582,N,12217.7783,W,2,08,1.0,-6.9,M,-25.1,M,2.8,0000*6C
$GPGSA,A,3,05,30,21,18,26,15,29,16,,,,,1.9,1.0,1.6*3C
$GPGSV,3,1,11,29,77,084,28,21,52,286,26,18,37,206,36,05,28,046,20*79
$GPGSV,3,2,11,30,27,302,23,25,23,187,39,15,23,126,36,26,21,087,20*73
$GPGSV,3,3,11,16,10,323,18,12,01,169,19,48,44,197,39*49
$GPVTG,111.17,T,,M,2.44,N,4.5,K,D*0C
$GPGGA,194523.000,3748.7580,N,12217.7774,W,2,08,1.0,-7.4,M,-25.1,M,1.8,0000*68
$GPGSA,A,3,05,30,21,18,26,15,29,16,,,,,1.9,1.0,1.6*3C
$GPRMC,194523.000,A,3748.7580,N,12217.7774,W,2.14,99.19,151211,,,D*4F
$GPVTG,99.19,T,,M,2.14,N,4.0,K,D*33
$GPGGA,194524.000,3748.7577,N,12217.7766,W,2,08,1.0,-7.7,M,-25.1,M,2.8,0000*64
$GPGSA,A,3,05,30,21,18,26,15,29,16,,,,,1.9,1.0,1.6*3C
$GPRMC,194524.000,A,3748.7577,N,12217.7766,W,2.42,111.69,151211,,,D*76
$GPVTG,111.69,T,,M,2.42,N,4.5,K,D*03
$GPGGA,194525.000,3748.7574,N,12217.7758,W,2,08,1.0,-8.3,M,-25.1,M,1.8,0000*63
$GPGSA,A,3,05,30,21,18,26,15,29,16,,,,,1.9,1.0,1.6*3C
$GPRMC,194525.000,A,3748.7574,N,12217.7758,W,2.24,118.34,151211,,,D*78
$GPVTG,118.34,T,,M,2.24,N,4.2,K,D*05
$GPGGA,194526.000,3748.7568,N,12217.7748,W,2,08,1.0,-8.2,M,-25.1,M,1.8,0000*6D
$GPGSA,A,3,05,30,21,18,26,15,29,16,,,,,1.9,1.0,1.6*3C
$GPRMC,194526.000,A,3748.7568,N,12217.7748,W,2.34,115.29,151211,,,D*77
$GPVTG,115.29,T,,M,2.34,N,4.3,K,D*04
$GPGGA,194527.000,3748.7564,N,12217.7739,W,2,08,1.0,-8.1,M,-25.1,M,1.8,0000*65
$GPGSA,A,3,05,30,21,18,26,15,29,16,,,,,1.9,1.0,1.6*3C
$GPGSV,3,1,11,29,77,084,29,21,52,286,26,18,37,206,37,05,28,046,20*79
$GPGSV,3,2,11,30,27,302,22,25,23,187,39,15,23,126,36,26,21,087,20*72
$GPGSV,3,3,11,16,10,323,17,12,01,169,19,48,44,197,36*49
$GPRMC,194527.000,A,3748.7564,N,12217.7739,W,2.30,116.29,151211,,,D*7B
$GPVTG,116.29,T,,M,2.30,N,4.3,K,D*03
$GPGGA,194528.000,3748.7561,N,12217.7731,W,2,08,1.0,-8.2,M,-25.1,M,1.8,0000*64
$GPGSA,A,3,05,30,21,18,26,15,29,16,,,,,1.9,1.0,1.6*3C
$GPRMC,194528.000,A,3748.7561,N,12217.7731,W,2.25,116.90,151211,,,D*7F
$GPVTG,116.90,T,,M,2.25,N,4.2,K,D*04
$GPGGA,194529.000,3748.7557,N,12217.7723,W,2,08,1.0,-8.5,M,-25.1,M,2.8,0000*67
$GPGSA,A,3,05,30,21,18,26,15,29,16,,,,,1.9,1.0,1.6*3C
$GPRMC,194529.000,A,3748.7557,N,12217.7723,W,2.11,113.15,151211,,,D*77
$GPVTG,113.15,T,,M,2.11,N,3.9,K,D*07
$GPGGA,194530.000,3748.7556,N,12217.7717,W,2,08,1.0,-9.2,M,-25.1,M,3.8,0000*6E
$GPGSA,A,3,05,30,21,18,26,15,29,16,,,,,1.9,1.0,1.6*3C
$GPRMC,194530.000,A,3748.7556,N,12217.7717,W,2.16,106.83,151211,,,D*75
$GPVTG,106.83,T,,M,2.16,N,4.0,K,D*05
$GPGGA,194531.000,3748.7555,N,12217.7712,W,2,07,1.1,-10.7,M,-25.1,M,1.8,0000*58
$GPGSA,A,3,05,30,21,18,26,15,29,,,,,,2.2,1.1,1.9*3D
$GPRMC,194531.000,A,3748.7555,N,12217.7712,W,2.02,112.84,151211,,,D*75
$GPVTG,112.84,T,,M,2.02,N,3.7,K,D*02
$GPGGA,194532.000,3748.7550,N,12217.7705,W,2,07,1.1,-11.6,M,-25.1,M,1.8,0000*58
$GPGSA,A,3,05,30,21,18,26,15,29,,,,,,2.2,1.1,1.9*3D
$GPGSV,3,1,11,29,77,084,29,21,52,286,26,18,37,206,37,05,28,046,20*79
$GPGSV,3,2,11,30,27,302,22,25,23,187,33,15,23,126,32,26,21,087,20*7C
$GPGSV,3,3,11,16,10,323,,12,01,169,19,48,44,197,39*40
$GPRMC,194532.000,A,3748.7550,N,12217.7705,W,2.19,113.19,151211,,,D*7A
$GPVTG,113.19,T,,M,2.19,N,4.0,K,D*0D
$GPGGA,194533.000,3748.7547,N,12217.7698,W,2,07,1.1,-12.4,M,-25.1,M,1.8,0000*5B
$GPGSA,A,3,05,30,21,18,26,15,29,,,,,,2.2,1.1,1.9*3D
$GPRMC,194533.000,A,3748.7547,N,12217.7698,W,2.45,115.73,151211,,,D*7B
$GPVTG,115.73,T,,M,2.45,N,4.5,K,D*0B
$GPGGA,194534.000,3748.7543,N,12217.7690,W,2,07,1.1,-12.8,M,-25.1,M,2.8,0000*5F
$GPGSA,A,3,05,30,21,18,26,15,29,,,,,,2.2,1.1,1.9*3D
$GPRMC,194534.000,A,3748.7543,N,12217.7690,W,2.25,117.02,151211,,,D*72
$GPVTG,117.02,T,,M,2.25,N,4.2,K,D*0E
$GPGGA,194535.000,3748.7537,N,12217.7681,W,2,07,1.1,-13.0,M,-25.1,M,3.8,0000*55
$GPGSA,A,3,05,30,21,18,26,15,29,,,,,,2.2,1.1,1.9*3D
$GPRMC,194535.000,A,3748.7537,N,12217.7681,W,2.38,119.23,151211,,,D*71
$GPVTG,119.23,T,,M,2.38,N,4.4,K,D*09
$GPGGA,194536.000,3748.7533,N,12217.7672,W,2,07,1.1,-13.3,M,-25.1,M,4.8,0000*5A
$GPGSA,A,3,05,30,21,18,26,15,29,,,,,,2.2,1.1,1.9*3D
$GPRMC,194536.000,A,3748.7533,N,12217.7672,W,2.26,108.28,151211,,,D*7E
$GPVTG,108.28,T,,M,2.26,N,4.2,K,D*0B
$GPGGA,194537.000,3748.7530,N,12217.7662,W,2,07,1.1,-12.9,M,-25.1,M,1.8,0000*57
$GPGSA,A,3,05,30,21,18,26,15,29,,,,,,2.2,1.1,1.9*3D
$GPGSV,3,1,11,29,77,084,29,21,52,286,26,18,37,206,37,05,28,046,20*79
$GPGSV,3,2,11,30,27,302,22,25,23,187,32,15,23,126,34,26,21,087,19*71
$GPGSV,3,3,11,16,10,323,,12,01,169,19,48,44,197,39*40
$GPRMC,194537.000,A,3748.7530,N,12217.7662,W,2.19,115.41,151211,,,D*72
$GPVTG,115.41,T,,M,2.19,N,4.0,K,D*06
$GPGGA,194538.000,3748.7526,N,12217.7654,W,2,07,1.1,-13.1,M,-25.1,M,1.8,0000*53
$GPGSA,A,3,05,30,21,18,26,15,29,,,,,,2.2,1.1,1.9*3D
$GPRMC,194538.000,A,3748.7526,N,12217.7654,W,2.49,119.91,151211,,,D*7B
$GPVTG,119.91,T,,M,2.49,N,4.6,K,D*04
$GPGGA,194539.000,3748.7520,N,12217.7643,W,2,07,1.1,-11.8,M,-25.1,M,0.8,0000*58
$GPGSA,A,3,05,30,21,18,26,15,29,,,,,,2.2,1.1,1.9*3D
$GPRMC,194539.000,A,3748.7520,N,12217.7643,W,2.28,119.26,151211,,,D*71
$GPVTG,119.26,T,,M,2.28,N,4.2,K,D*0B
$GPGGA,194540.000,3748.7516,N,12217.7633,W,2,07,1.1,-10.8,M,-25.1,M,1.8,0000*54
$GPGSA,A,3,05,30,21,18,26,15,29,,,,,,2.2,1.1,1.9*3D
$GPRMC,194540.000,A,3748.7516,N,12217.7633,W,2.10,113.00,151211,,,D*78
$GPVTG,113.00,T,,M,2.10,N,3.9,K,D*02
$GPGGA,194541.000,3748.7510,N,12217.7622,W,2,08,1.0,-10.0,M,-25.1,M,2.8,0000*56
$GPGSA,A,3,05,30,21,18,26,15,29,16,,,,,1.9,1.0,1.6*3C
$GPRMC,194541.000,A,3748.7510,N,12217.7622,W,2.06,107.59,151211,,,D*71
$GPVTG,107.59,T,,M,2.06,N,3.8,K,D*0D
$GPGGA,194542.000,3748.7506,N,12217.7613,W,2,08,1.0,-9.1,M,-25.1,M,1.8,0000*6A
$GPGSA,A,3,05,30,21,18,26,15,29,16,,,,,1.9,1.0,1.6*3C
$GPGSV,3,1,11,29,77,084,29,21,52,286,27,18,37,206,37,05,28,046,20*78
$GPGSV,3,2,11,30,27,302,22,25,23,187,32,15,23,126,27,26,21,087,21*78
$GPGSV,3,3,11,16,10,323,22,12,01,169,18,48,44,197,39*41
$GPRMC,194542.000,A,3748.7506,N,12217.7613,W,1.91,115.87,151211,,,D*7A
$GPGGA,194543.000,3748.7500,N,12217.7606,W,2,08,1.0,-8.5,M,-25.1,M,1.8,0000*6C
$GPGSA,A,3,05,30,21,18,26,15,29,16,,,,,1.9,1.0,1.6*3C
$GPRMC,194543.000,A,3748.7500,N,12217.7606,W,2.12,126.09,151211,,,D*77
$GPVTG,126.09,T,,M,2.12,N,3.9,K,D*0F
$GPGGA,194544.000,3748.7496,N,12217.7599,W,2,08,1.0,-9.0,M,-25.1,M,1.8,0000*64
$GPGSA,A,3,05,30,21,18,26,15,29,16,,,,,1.9,1.0,1.6*3C
$GPRMC,194544.000,A,3748.7496,N,12217.7599,W,2.34,121.29,151211,,,D*7A
$GPVTG,121.29,T,,M,2.34,N,4.3,K,D*03
$GPGGA,194545.000,3748.7492,N,12217.7592,W,2,08,1.0,-8.0,M,-25.1,M,1.8,0000*6B
$GPGSA,A,3,05,30,21,18,26,15,29,16,,,,,1.9,1.0,1.6*3C
$GPRMC,194545.000,A,3748.7492,N,12217.7592,W,2.30,113.80,151211,,,D*72
$GPVTG,113.80,T,,M,2.30,N,4.3,K,D*05
