$ADVER,3080,2.3
$GPRMC,194404.678,A,3748.7980,N,12217.8605,W,0.31,13.65,031212,,,A*4B
$GPGGA,194405.678,3748.8009,N,12217.8599,W,1,06,1.4,3.5,M,-25.1,M,,0000*67
$GPGSA,A,3,15,18,29,16,21,30,,,,,,,2.3,1.4,1.8*3E
$GPRMC,194405.678,A,3748.8009,N,12217.8599,W,0.07,15.97,031212,,,A*45
$GPVTG,15.97,T,,M,0.07,N,0.1,K,A*31
$GPGGA,194406.000,3748.8006,N,12217.8600,W,1,06,1.4,4.9,M,-25.1,M,,0000*6A
$GPGSA,A,3,15,18,29,16,21,30,,,,,,,2.3,1.4,1.8*3E
$GPGSV,3,1,12,29,71,106,39,21,57,295,37,18,39,209,38,30,29,296,36*70
$GPGSV,3,2,12,15,27,119,36,16,11,322,32,05,24,045,,25,22,190,26*7A
$GPGSV,3,3,12,26,22,081,,22,03,217,,06,00,310,,48,00,000,32*79
$GPRMC,194406.000,A,3748.8006,N,12217.8600,W,0.02,45.05,031212,,,A*48
$GPVTG,45.05,T,,M,0.02,N,0.0,K,A*3B
$GPGGA,194407.000,3748.8008,N,12217.8600,W,1,06,1.4,4.2,M,-25.1,M,,0000*6E
$GPGSA,A,3,15,18,29,16,21,30,,,,,,,2.3,1.4,1.8*3E
$GPRMC,194407.000,A,3748.8008,N,12217.8600,W,0.08,22.39,031212,,,A*43
$GPVTG,22.39,T,,M,0.08,N,0.1,K,A*3E
$GPGGA,194408.000,3748.8009,N,12217.8599,W,1,06,1.4,3.9,M,-25.1,M,,0000*6F
$GPGSA,A,3,15,18,29,16,21,30,,,,,,,2.3,1.4,1.8*3E
$GPRMC,194408.000,A,3748.8009,N,12217.8599,W,0.07,21.16,031212,,,A*4F
$GPVTG,21.16,T,,M,0.07,N,0.1,K,A*3F
$GPGGA,194409.000,3748.8010,N,12217.8599,W,1,06,1.4,3.6,M,-25.1,M,,0000*69
$GPGSA,A,3,15,18,29,16,21,30,,,,,,,2.3,1.4,1.8*3E
$GPRMC,194409.000,A,3748.8010,N,12217.8599,W,0.05,8.49,031212,,,A*75
$GPVTG,8.49,T,,M,0.05,N,0.1,K,A*0C
$GPGGA,194410.000,3748.8011,N,12217.8599,W,1,06,1.4,3.5,M,-25.1,M,,0000*63
$GPGSA,A,3,15,18,29,16,21,30,,,,,,,2.3,1.4,1.8*3E
$GPRMC,194410.000,A,3748.8011,N,12217.8599,W,0.06,17.82,031212,,,A*46
$GPVTG,17.82,T,,M,0.06,N,0.1,K,A*36
$GPGGA,194411.000,3748.8011,N,12217.8599,W,1,06,1.4,3.4,M,-25.1,M,,0000*63
$GPGSA,A,3,15,18,29,16,21,30,,,,,,,2.3,1.4,1.8*3E
$GPGSV,3,1,12,29,71,106,39,21,57,295,37,18,39,209,38,30,29,296,36*70
$GPGSV,3,2,12,15,27,119,36,16,11,322,33,05,24,045,28,25,22,190,26*71
$GPGSV,3,3,12,26,22,081,,22,03,217,26,06,00,310,,48,00,000,31*7E
$GPRMC,194411.000,A,3748.8011,N,12217.8599,W,0.08,22.46,031212,,,A*47
$GPVTG,22.46,T,,M,0.08,N,0.1,K,A*36
$GPGGA,194412.000,3748.8012,N,12217.8599,W,1,06,1.4,3.4,M,-25.1,M,,0000*63
$GPGSA,A,3,15,18,29,16,21,30,,,,,,,2.3,1.4,1.8*3E
$GPRMC,194412.000,A,3748.8012,N,12217.8599,W,0.06,20.80,031212,,,A*41
$GPVTG,20.80,T,,M,0.06,N,0.1,K,A*30
$GPGGA,194413.000,3748.8012,N,12217.8599,W,1,06,1.4,3.3,M,-25.1,M,,0000*65
$GPGSA,A,3,15,18,29,16,21,30,,,,,,,2.3,1.4,1.8*3E
$GPRMC,194413.000,A,3748.8012,N,12217.8599,W,0.07,21.05,031212,,,A*4D
$GPVTG,21.05,T,,M,0.07,N,0.1,K,A*3D
$GPGGA,194414.000,3748.8012,N,12217.8599,W,1,06,1.4,3.3,M,-25.1,M,,0000*62
$GPGSA,A,3,15,18,29,16,21,30,,,,,,,2.3,1.4,1.8*3E
$GPRMC,194414.000,A,3748.8012,N,12217.8599,W,0.06,11.02,031212,,,A*4F
$GPVTG,11.02,T,,M,0.06,N,0.1,K,A*38
$GPGGA,194415.000,3748.8013,N,12217.8599,W,1,06,1.4,3.3,M,-25.1,M,,0000*62
$GPGSA,A,3,15,18,29,16,21,30,,,,,,,2.3,1.4,1.8*3E
$GPRMC,194415.000,A,3748.8013,N,12217.8599,W,0.08,17.86,031212,,,A*4B
$GPVTG,17.86,T,,M,0.08,N,0.1,K,A*3C
$GPGGA,194416.000,3748.8013,N,12217.8599,W,1,06,1.4,3.2,M,-25.1,M,,0000*60
$GPGSA,A,3,15,18,29,16,21,30,,,,,,,2.3,1.4,1.8*3E
$GPGSV,3,1,12,29,71,106,39,21,57,295,36,18,39,209,38,30,29,296,36*71
$GPGSV,3,2,12,15,27,119,36,16,11,322,33,05,24,045,28,25,22,190,27*70
$GPGSV,3,3,12,26,22,081,,22,03,217,25,06,00,310,,48,00,000,31*7D
$GPRMC,194416.000,A,3748.8013,N,12217.8599,W,0.06,17.78,031212,,,A*47
$GPVTG,17.78,T,,M,0.06,N,0.1,K,A*33
$GPGGA,194417.000,3748.8013,N,12217.8599,W,1,06,1.4,3.2,M,-25.1,M,,0000*61
$GPGSA,A,3,15,18,29,16,21,30,,,,,,,2.3,1.4,1.8*3E
$GPRMC,194417.000,A,3748.8013,N,12217.8599,W,0.06,20.06,031212,,,A*4B
$GPVTG,20.06,T,,M,0.06,N,0.1,K,A*3E
$GPGGA,194418.000,3748.8013,N,12217.8599,W,1,06,1.4,3.1,M,-25.1,M,,0000*6D
$GPGSA,A,3,15,18,29,16,21,30,,,,,,,2.3,1.4,1.8*3E
$GPRMC,194418.000,A,3748.8013,N,12217.8599,W,0.07,24.07,031212,,,A*40
$GPVTG,24.07,T,,M,0.07,N,0.1,K,A*3A
$GPGGA,194419.000,3748.8013,N,12217.8599,W,1,06,1.4,3.1,M,-25.1,M,,0000*6C
$GPGSA,A,3,15,18,29,16,21,30,,,,,,,2.3,1.4,1.8*3E
$GPRMC,194419.000,A,3748.8013,N,12217.8599,W,0.06,21.52,031212,,,A*45
$GPVTG,21.52,T,,M,0.06,N,0.1,K,A*3E
$GPGGA,194420.000,3748.8013,N,12217.8599,W,1,06,1.4,3.1,M,-25.1,M,,0000*66
$GPGSA,A,3,15,18,29,16,21,30,,,,,,,2.3,1.4,1.8*3E
$GPRMC,194420.000,A,3748.8013,N,12217.8599,W,0.07,19.65,031212,,,A*41
$GPVTG,19.65,T,,M,0.07,N,0.1,K,A*30
$GPGGA,194421.000,3748.8014,N,12217.8599,W,1,06,1.4,3.0,M,-25.1,M,,0000*61
$GPGSA,A,3,15,18,29,16,21,30,,,,,,,2.3,1.4,1.8*3E
$GPGSV,3,1,12,29,71,106,39,21,57,296,37,18,40,209,38,30,29,296,36*7D
$GPGSV,3,2,12,15,27,119,36,05,24,045,29,25,22,190,27,26,22,080,*79
$GPGSV,3,3,12,16,11,322,33,22,03,217,26,06,00,310,,48,44,197,31*78
$GPRMC,194421.000,A,3748.8014,N,12217.8599,W,0.06,13.05,031212,,,A*4A
$GPGGA,194422.000,3748.8014,N,12217.8599,W,1,06,1.4,3.0,M,-25.1,M,,0000*62
$GPGSA,A,3,15,18,29,16,21,30,,,,,,,2.3,1.4,1.8*3E
$GPRMC,194422.000,A,3748.8014,N,12217.8599,W,0.06,17.20,031212,,,A*4A
$GPVTG,17.20,T,,M,0.06,N,0.1,K,A*3E
$GPGGA,194423.000,3748.8014,N,12217.8599,W,1,06,1.4,2.9,M,-25.1,M,,0000*6B
$GPGSA,A,3,15,18,29,16,21,30,,,,,,,2.3,1.4,1.8*3E
$GPRMC,194423.000,A,3748.8014,N,12217.8599,W,0.08,22.61,031212,,,A*46
$GPVTG,22.61,T,,M,0.08,N,0.1,K,A*33
$GPGGA,194424.000,3748.8014,N,12217.8599,W,1,06,1.4,2.9,M,-25.1,M,,0000*6C
$GPGSA,A,3,15,18,29,16,21,30,,,,,,,2.3,1.4,1.8*3E
$GPRMC,194424.000,A,3748.8014,N,12217.8599,W,0.07,19.46,031212,,,A*43
$GPVTG,19.46,T,,M,0.07,N,0.1,K,A*31
$GPGGA,194425.000,3748.8013,N,12217.8599,W,1,06,1.4,2.9,M,-25.1,M,,0000*6A
$GPGSA,A,3,15,18,29,16,21,30,,,,,,,2.3,1.4,1.8*3E
$GPRMC,194425.000,A,3748.8013,N,12217.8599,W,0.05,21.07,031212,,,A*49
$GPVTG,21.07,T,,M,0.05,N,0.1,K,A*3D
$GPGGA,194426.000,3748.8013,N,12217.8599,W,1,06,1.4,2.9,M,-25.1,M,,0000*69
$GPGSA,A,3,15,18,29,16,21,30,,,,,,,2.3,1.4,1.8*3E
$GPGSV,3,1,12,29,71,106,39,21,57,296,37,18,40,209,38,30,29,296,37*7C
$GPGSV,3,2,12,15,27,119,35,05,24,045,30,25,22,190,28,26,22,080,*7D
$GPGSV,3,3,12,16,11,322,33,22,03,217,26,06,00,310,,48,44,197,32*7B
$GPRMC,194426.000,A,3748.8013,N,12217.8599,W,0.05,34.66,031212,,,A*49
$GPVTG,34.66,T,,M,0.05,N,0.1,K,A*3E
$GPGGA,194427.000,3748.8013,N,12217.8599,W,1,06,1.4,2.8,M,-25.1,M,,0000*69
$GPGSA,A,3,15,18,29,16,21,30,,,,,,,2.3,1.4,1.8*3E
$GPRMC,194427.000,A,3748.8013,N,12217.8599,W,0.08,23.10,031212,,,A*42
$GPVTG,23.10,T,,M,0.08,N,0.2,K,A*37
$GPGGA,194428.000,3748.8013,N,12217.8599,W,1,06,1.4,2.8,M,-25.1,M,,0000*66
$GPGSA,A,3,15,18,29,16,21,30,,,,,,,2.3,1.4,1.8*3E
$GPRMC,194428.000,A,3748.8013,N,12217.8599,W,0.07,34.21,031212,,,A*46
$GPVTG,34.21,T,,M,0.07,N,0.1,K,A*3F
$GPGGA,194429.000,3748.8013,N,12217.8599,W,1,05,1.5,2.8,M,-25.1,M,,0000*65
$GPGSA,A,3,15,18,29,16,30,,,,,,,,2.6,1.5,2.2*30
$GPRMC,194429.000,A,3748.8013,N,12217.8599,W,0.06,296.98,031212,,,A*7E
$GPVTG,296.98,T,,M,0.06,N,0.1,K,A*06
$GPGGA,194430.000,3748.8012,N,12217.8600,W,1,06,1.4,2.8,M,-25.1,M,,0000*6D
$GPGSA,A,3,15,18,29,16,21,30,,,,,,,2.3,1.4,1.8*3E
$GPRMC,194430.000,A,3748.8012,N,12217.8600,W,0.22,285.20,031212,,,A*73
$GPVTG,285.20,T,,M,0.22,N,0.4,K,A*04
$GPGGA,194431.000,3748.8009,N,12217.8603,W,1,06,1.4,3.8,M,-25.1,M,,0000*64
$GPGSA,A,3,15,18,29,16,21,30,,,,,,,2.3,1.4,1.8*3E
$GPGSV,3,1,11,29,71,106,25,21,57,296,28,18,40,209,31,30,29,296,27*74
$GPGSV,3,2,11,15,27,119,26,05,24,045,26,25,22,190,24,26,22,080,*77
$GPGSV,3,3,11,16,11,322,32,22,03,217,18,06,00,310,*46
$GPRMC,194431.000,A,3748.8009,N,12217.8603,W,0.14,68.67,031212,,,A*4C
$GPVTG,68.67,T,,M,0.14,N,0.3,K,A*34
$GPGGA,194432.000,3748.8006,N,12217.8606,W,1,06,1.4,4.3,M,-25.1,M,,0000*61
$GPGSA,A,3,15,18,29,16,21,30,,,,,,,2.3,1.4,1.8*3E
$GPRMC,194432.000,A,3748.8006,N,12217.8606,W,0.23,243.55,031212,,,A*7B
$GPVTG,243.55,T,,M,0.23,N,0.4,K,A*0D
$GPGGA,194433.000,3748.8004,N,12217.8609,W,1,06,1.4,5.6,M,-25.1,M,,0000*69
$GPGSA,A,3,15,18,29,16,21,30,,,,,,,2.3,1.4,1.8*3E
$GPRMC,194433.000,A,3748.8004,N,12217.8609,W,0.20,237.51,031212,,,A*73
$GPVTG,237.51,T,,M,0.20,N,0.4,K,A*09
$GPGGA,194434.000,3748.8003,N,12217.8610,W,1,06,1.4,6.0,M,-25.1,M,,0000*64
$GPGSA,A,3,15,18,29,16,21,30,,,,,,,2.3,1.4,1.8*3E
$GPRMC,194434.000,A,3748.8003,N,12217.8610,W,0.29,179.34,031212,,,A*78
$GPVTG,179.34,T,,M,0.29,N,0.5,K,A*0B
$GPGGA,194435.000,3748.8002,N,12217.8610,W,1,06,1.4,6.5,M,-25.1,M,,0000*61
$GPGSA,A,3,15,18,29,16,21,30,,,,,,,2.3,1.4,1.8*3E
$GPRMC,194435.000,A,3748.8002,N,12217.8610,W,0.49,165.93,031212,,,A*7E
$GPVTG,165.93,T,,M,0.49,N,0.9,K,A*01
$GPGGA,194436.000,3748.7997,N,12217.8609,W,1,06,1.4,7.0,M,-25.1,M,,0000*64
$GPGSA,A,3,15,18,29,16,21,30,,,,,,,2.3,1.4,1.8*3E
$GPGSV,3,1,12,29,71,106,37,21,57,296,27,18,40,209,26,30,29,296,28*72
$GPGSV,3,2,12,15,27,119,35,05,24,045,29,25,22,190,30,26,22,080,*7C
$GPGSV,3,3,12,16,11,322,27,22,03,217,27,06,00,310,,48,44,197,28*74
$GPRMC,194436.000,A,3748.7997,N,12217.8609,W,0.48,131.91,031212,,,A*7D
$GPGGA,194437.000,3748.7998,N,12217.8608,W,1,06,1.4,7.3,M,-25.1,M,,0000*68
$GPGSA,A,3,15,18,29,16,21,30,,,,,,,2.3,1.4,1.8*3E
$GPRMC,194437.000,A,3748.7998,N,12217.8608,W,0.15,19.25,031212,,,A*4E
$GPVTG,19.25,T,,M,0.15,N,0.3,K,A*35
$GPGGA,194438.000,3748.8000,N,12217.8608,W,1,06,1.4,7.4,M,-25.1,M,,0000*67
$GPGSA,A,3,15,18,29,16,21,30,,,,,,,2.3,1.4,1.8*3E
$GPRMC,194438.000,A,3748.8000,N,12217.8608,W,0.27,324.40,031212,,,A*79
$GPVTG,324.40,T,,M,0.27,N,0.5,K,A*0C
$GPGGA,194439.000,3748.8000,N,12217.8608,W,1,06,1.4,7.3,M,-25.1,M,,0000*61
$GPGSA,A,3,15,18,29,16,21,30,,,,,,,2.3,1.4,1.8*3E
$GPRMC,194439.000,A,3748.8000,N,12217.8608,W,0.23,54.77,031212,,,A*4C
$GPVTG,54.77,T,,M,0.23,N,0.4,K,A*39
$GPGGA,194440.000,3748.8003,N,12217.8605,W,1,06,1.4,7.2,M,-25.1,M,,0000*60
$GPGSA,A,3,15,18,29,16,21,30,,,,,,,2.3,1.4,1.8*3E
$GPRMC,194440.000,A,3748.8003,N,12217.8605,W,0.09,299.69,031212,,,A*78
$GPVTG,299.69,T,,M,0.09,N,0.2,K,A*0B
$GPGGA,194441.000,3748.8008,N,12217.8603,W,1,06,1.4,6.8,M,-25.1,M,,0000*67
$GPGSA,A,3,15,18,29,16,21,30,,,,,,,2.3,1.4,1.8*3E
$GPGSV,3,1,12,29,71,106,25,21,57,296,25,18,40,209,21,30,29,296,35*78
$GPGSV,3,2,12,15,27,119,25,05,24,045,32,25,22,190,29,26,22,080,28*75
$GPGSV,3,3,12,16,11,322,30,22,03,217,27,06,00,310,,48,44,197,26*7C
$GPRMC,194441.000,A,3748.8008,N,12217.8603,W,0.19,252.02,031212,,,A*7F
$GPVTG,252.02,T,,M,0.19,N,0.4,K,A*06
$GPGGA,194442.000,3748.8009,N,12217.8604,W,1,06,1.4,5.9,M,-25.1,M,,0000*60
$GPGSA,A,3,15,18,29,16,21,30,,,,,,,2.3,1.4,1.8*3E
$GPRMC,194442.000,A,3748.8009,N,12217.8604,W,0.47,345.21,031212,,,A*77
$GPVTG,345.21,T,,M,0.47,N,0.9,K,A*06
$GPGGA,194443.000,3748.8013,N,12217.8603,W,1,06,1.4,5.3,M,-25.1,M,,0000*67
$GPGSA,A,3,15,18,29,16,21,30,,,,,,,2.3,1.4,1.8*3E
$GPRMC,194443.000,A,3748.8013,N,12217.8603,W,0.24,285.70,031212,,,A*76
$GPVTG,285.70,T,,M,0.24,N,0.4,K,A*07
$GPGGA,194444.000,3748.8011,N,12217.8604,W,1,06,1.4,5.3,M,-25.1,M,,0000*65
$GPGSA,A,3,15,18,29,16,21,30,,,,,,,2.3,1.4,1.8*3E
$GPRMC,194444.000,A,3748.8011,N,12217.8604,W,0.26,175.54,031212,,,A*7C
$GPVTG,175.54,T,,M,0.26,N,0.5,K,A*0E
$GPGGA,194445.000,3748.8012,N,12217.8606,W,1,06,1.4,5.2,M,-25.1,M,,0000*64
$GPGSA,A,3,15,18,29,16,21,30,,,,,,,2.3,1.4,1.8*3E
$GPRMC,194445.000,A,3748.8012,N,12217.8606,W,0.32,267.49,031212,,,A*75
$GPVTG,267.49,T,,M,0.32,N,0.6,K,A*04
$GPGGA,194446.000,3748.8010,N,12217.8610,W,1,06,1.4,4.7,M,-25.1,M,,0000*66
$GPGSA,A,3,15,18,29,16,21,30,,,,,,,2.3,1.4,1.8*3E
$GPGSV,3,1,11,29,71,106,22,21,57,296,25,18,40,209,24,30,29,296,26*7B
$GPGSV,3,2,11,15,27,119,22,05,24,045,34,25,22,190,25,26,22,080,25*76
$GPGSV,3,3,11,16,11,322,31,22,03,217,27,06,00,310,*49
$GPRMC,194446.000,A,3748.8010,N,12217.8610,W,0.21,247.26,031212,,,A*7A
$GPVTG,247.26,T,,M,0.21,N,0.4,K,A*0F
$GPGGA,194447.000,3748.8004,N,12217.8614,W,1,06,1.4,4.0,M,-25.1,M,,0000*61
$GPGSA,A,3,15,18,29,16,21,30,,,,,,,2.3,1.4,1.8*3E
$GPRMC,194447.000,A,3748.8004,N,12217.8614,W,0.50,232.82,031212,,,A*70
$GPVTG,232.82,T,,M,0.50,N,0.9,K,A*08
$GPGGA,194448.000,3748.8000,N,12217.8620,W,1,06,1.4,3.7,M,-25.1,M,,0000*6D
$GPGSA,A,3,15,18,29,16,21,30,,,,,,,2.3,1.4,1.8*3E
$GPRMC,194448.000,A,3748.8000,N,12217.8620,W,0.37,234.39,031212,,,A*7B
$GPVTG,234.39,T,,M,0.37,N,0.7,K,A*01
$GPGGA,194449.000,3748.7994,N,12217.8625,W,1,06,1.4,2.3,M,-25.1,M,,0000*67
$GPGSA,A,3,15,18,29,16,21,30,,,,,,,2.3,1.4,1.8*3E
$GPRMC,194449.000,A,3748.7994,N,12217.8625,W,0.38,128.68,031212,,,A*71
$GPVTG,128.68,T,,M,0.38,N,0.7,K,A*04
$GPGGA,194450.000,3748.7992,N,12217.8622,W,1,06,1.4,1.4,M,-25.1,M,,0000*6A
$GPGSA,A,3,15,18,29,16,21,30,,,,,,,2.3,1.4,1.8*3E
$GPRMC,194450.000,A,3748.7992,N,12217.8622,W,0.81,73.14,031212,,,A*4E
$GPVTG,73.14,T,,M,0.81,N,1.5,K,A*31
$GPGGA,194451.000,3748.7992,N,12217.8621,W,1,06,1.4,1.1,M,-25.1,M,,0000*6D
$GPGSA,A,3,15,18,29,16,21,30,,,,,,,2.3,1.4,1.8*3E
$GPGSV,3,1,12,29,71,106,32,21,57,296,33,18,40,209,40,30,29,296,30*7B
$GPGSV,3,2,12,15,27,119,37,05,24,045,25,25,22,190,39,26,22,080,29*70
$GPGSV,3,3,12,16,11,322,27,22,03,217,36,06,00,310,,48,44,197,37*7A
$GPRMC,194451.000,A,3748.7992,N,12217.8621,W,0.44,133.43,031212,,,A*72
$GPGGA,194452.000,3748.7992,N,12217.8614,W,1,06,1.4,1.0,M,-25.1,M,,0000*69
$GPGSA,A,3,15,18,29,16,21,30,,,,,,,2.3,1.4,1.8*3E
$GPRMC,194452.000,A,3748.7992,N,12217.8614,W,1.40,83.13,031212,,,A*4D
$GPVTG,83.13,T,,M,1.40,N,2.6,K,A*35
$GPGGA,194453.000,3748.7990,N,12217.8606,W,1,06,1.4,1.0,M,-25.1,M,,0000*69
$GPGSA,A,3,15,18,29,16,21,30,,,,,,,2.3,1.4,1.8*3E
$GPRMC,194453.000,A,3748.7990,N,12217.8606,W,1.31,105.58,031212,,,A*7B
$GPVTG,105.58,T,,M,1.31,N,2.4,K,A*01
$GPGGA,194454.000,3748.7986,N,12217.8601,W,1,06,1.4,1.4,M,-25.1,M,,0000*6A
$GPGSA,A,3,15,18,29,16,21,30,,,,,,,2.3,1.4,1.8*3E
$GPRMC,194454.000,A,3748.7986,N,12217.8601,W,1.15,112.97,031212,,,A*7F
$GPVTG,112.97,T,,M,1.15,N,2.1,K,A*07
$GPGGA,194455.000,3748.7981,N,12217.8597,W,1,06,1.4,1.9,M,-25.1,M,,0000*6D
$GPGSA,A,3,15,18,29,16,21,30,,,,,,,2.3,1.4,1.8*3E
$GPRMC,194455.000,A,3748.7981,N,12217.8597,W,1.12,106.30,031212,,,A*7A
$GPVTG,106.30,T,,M,1.12,N,2.1,K,A*08
$GPGGA,194456.000,3748.7980,N,12217.8591,W,1,06,1.4,1.4,M,-25.1,M,,0000*64
$GPGSA,A,3,15,18,29,16,21,30,,,,,,,2.3,1.4,1.8*3E
$GPGSV,3,1,12,29,71,106,34,21,57,296,25,18,40,209,37,30,29,296,20*7B
$GPGSV,3,2,12,15,27,119,40,05,24,045,31,25,22,190,39,26,22,080,38*75
$GPGSV,3,3,12,16,11,322,21,22,03,217,23,06,00,310,,48,44,197,38*77
$GPRMC,194456.000,A,3748.7980,N,12217.8591,W,1.46,107.31,031212,,,A*7F
$GPVTG,107.31,T,,M,1.46,N,2.7,K,A*0F
$GPGGA,194457.000,3748.7978,N,12217.8586,W,1,06,1.4,1.0,M,-25.1,M,,0000*60
$GPGSA,A,3,15,18,29,16,21,30,,,,,,,2.3,1.4,1.8*3E
$GPRMC,194457.000,A,3748.7978,N,12217.8586,W,1.45,104.46,031212,,,A*7F
$GPVTG,104.46,T,,M,1.45,N,2.7,K,A*0F
$GPGGA,194458.000,3748.7975,N,12217.8579,W,1,06,1.4,0.5,M,-25.1,M,,0000*66
$GPGSA,A,3,15,18,29,16,21,30,,,,,,,2.3,1.4,1.8*3E
$GPRMC,194458.000,A,3748.7975,N,12217.8579,W,1.39,109.80,031212,,,A*71
$GPVTG,109.80,T,,M,1.39,N,2.6,K,A*02
$GPGGA,194459.000,3748.7972,N,12217.8573,W,1,06,1.4,-0.1,M,-25.1,M,,0000*43
$GPGSA,A,3,15,18,29,16,21,30,,,,,,,2.3,1.4,1.8*3E
$GPRMC,194459.000,A,3748.7972,N,12217.8573,W,1.42,104.51,031212,,,A*70
$GPVTG,104.51,T,,M,1.42,N,2.6,K,A*0F
$GPGGA,194500.000,3748.7969,N,12217.8567,W,1,06,1.4,-0.6,M,-25.1,M,,0000*46
$GPGSA,A,3,15,18,29,16,21,30,,,,,,,2.3,1.4,1.8*3E
$GPRMC,194500.000,A,3748.7969,N,12217.8567,W,1.22,102.68,031212,,,A*78
$GPVTG,102.68,T,,M,1.22,N,2.3,K,A*00
$GPGGA,194501.000,3748.7969,N,12217.8562,W,1,06,1.4,-1.2,M,-25.1,M,,0000*47
$GPGSA,A,3,15,18,29,16,21,30,,,,,,,2.3,1.4,1.8*3E
$GPGSV,3,1,12,29,71,106,34,21,57,296,24,18,40,209,37,30,29,296,22*78
$GPGSV,3,2,12,15,27,119,41,05,24,045,26,25,22,190,39,26,22,080,24*7F
$GPGSV,3,3,12,16,11,322,22,22,03,217,17,06,00,310,,48,44,197,37*7C
$GPRMC,194501.000,A,3748.7969,N,12217.8562,W,1.11,93.30,031212,,,A*48
$GPVTG,93.30,T,,M,1.11,N,2.1,K,A*36
$GPGGA,194502.000,3748.7968,N,12217.8557,W,1,06,1.4,-1.7,M,-25.1,M,,0000*46
$GPGSA,A,3,15,18,29,16,21,30,,,,,,,2.3,1.4,1.8*3E
$GPRMC,194502.000,A,3748.7968,N,12217.8557,W,1.47,97.96,031212,,,A*47
$GPVTG,97.96,T,,M,1.47,N,2.7,K,A*3B
$GPGGA,194503.000,3748.7967,N,12217.8552,W,1,06,1.4,-2.0,M,-25.1,M,,0000*49
$GPGSA,A,3,15,18,29,16,21,30,,,,,,,2.3,1.4,1.8*3E
$GPRMC,194503.000,A,3748.7967,N,12217.8552,W,1.75,109.41,031212,,,A*71
$GPVTG,109.41,T,,M,1.75,N,3.2,K,A*02
$GPGGA,194504.000,3748.7965,N,12217.8545,W,1,06,1.4,-2.0,M,-25.1,M,,0000*4A
$GPGSA,A,3,15,18,29,16,21,30,,,,,,,2.3,1.4,1.8*3E
$GPRMC,194504.000,A,3748.7965,N,12217.8545,W,1.50,99.67,031212,,,A*49
$GPVTG,99.67,T,,M,1.50,N,2.8,K,A*32
$GPGGA,194505.000,3748.7964,N,12217.8540,W,1,06,1.4,-2.4,M,-25.1,M,,0000*4B
$GPGSA,A,3,15,18,29,16,21,30,,,,,,,2.3,1.4,1.8*3E
$GPRMC,194505.000,A,3748.7964,N,12217.8540,W,1.32,103.99,031212,,,A*7B
$GPVTG,103.99,T,,M,1.32,N,2.4,K,A*09
$GPGGA,194506.000,3748.7963,N,12217.8536,W,1,06,1.4,-3.1,M,-25.1,M,,0000*4A
$GPGSA,A,3,15,18,29,16,21,30,,,,,,,2.3,1.4,1.8*3E
$GPGSV,3,1,12,29,71,106,33,21,57,296,24,18,40,209,38,30,29,296,23*71
$GPGSV,3,2,12,15,27,119,40,05,24,045,24,25,22,190,39,26,22,080,23*7B
$GPGSV,3,3,12,16,11,322,22,22,03,217,16,06,00,310,,48,44,197,39*73
$GPVTG,94.79,T,,M,1.05,N,2.0,K,A*38
$GPGGA,194507.000,3748.7962,N,12217.8531,W,1,06,1.4,-3.7,M,-25.1,M,,0000*4B
$GPGSA,A,3,15,18,29,16,21,30,,,,,,,2.3,1.4,1.8*3E
$GPRMC,194507.000,A,3748.7962,N,12217.8531,W,1.33,93.29,031212,,,A*4B
$GPVTG,93.29,T,,M,1.33,N,2.5,K,A*3A
$GPGGA,194508.000,3748.7959,N,12217.8525,W,1,06,1.4,-4.5,M,-25.1,M,,0000*4C
$GPGSA,A,3,15,18,29,16,21,30,,,,,,,2.3,1.4,1.8*3E
$GPRMC,194508.000,A,3748.7959,N,12217.8525,W,1.43,99.95,031212,,,A*43
$GPVTG,99.95,T,,M,1.43,N,2.7,K,A*32
$GPGGA,194509.000,3748.7958,N,12217.8520,W,1,06,1.4,-5.3,M,-25.1,M,,0000*4E
$GPGSA,A,3,15,18,29,16,21,30,,,,,,,2.3,1.4,1.8*3E
$GPRMC,194509.000,A,3748.7958,N,12217.8520,W,1.63,94.71,031212,,,A*43
$GPVTG,94.71,T,,M,1.63,N,3.0,K,A*31
$GPGGA,194510.000,3748.7958,N,12217.8514,W,1,06,1.4,-5.8,M,-25.1,M,,0000*4A
$GPGSA,A,3,15,18,29,16,21,30,,,,,,,2.3,1.4,1.8*3E
$GPRMC,194510.000,A,3748.7958,N,12217.8514,W,1.73,92.07,031212,,,A*4A
$GPVTG,92.07,T,,M,1.73,N,3.2,K,A*35
$GPGGA,194511.000,3748.7954,N,12217.8506,W,1,06,1.4,-6.4,M,-25.1,M,,0000*4B
$GPGSA,A,3,15,18,29,16,21,30,,,,,,,2.3,1.4,1.8*3E
$GPGSV,3,1,12,29,71,106,33,21,57,296,25,18,40,209,38,30,29,296,24*77
$GPGSV,3,2,12,15,27,119,32,05,24,045,22,25,22,190,39,26,22,080,25*7E
$GPGSV,3,3,12,16,11,322,21,22,03,217,17,06,00,310,,48,44,197,36*7E
$GPRMC,194511.000,A,3748.7954,N,12217.8506,W,1.67,100.37,031212,,,A*78
$GPVTG,100.37,T,,M,1.67,N,3.1,K,A*0A
$GPGGA,194512.000,3748.7953,N,12217.8500,W,1,06,1.4,-6.8,M,-25.1,M,,0000*45
$GPGSA,A,3,15,18,29,16,21,30,,,,,,,2.3,1.4,1.8*3E
$GPRMC,194512.000,A,3748.7953,N,12217.8500,W,1.84,103.56,031212,,,A*73
$GPVTG,103.56,T,,M,1.84,N,3.4,K,A*06
$GPGGA,194513.000,3748.7952,N,12217.8494,W,1,06,1.4,-7.3,M,-25.1,M,,0000*43
$GPGSA,A,3,15,18,29,16,21,30,,,,,,,2.3,1.4,1.8*3E
$GPRMC,194513.000,A,3748.7952,N,12217.8494,W,1.62,84.40,031212,,,A*4E
$GPVTG,84.40,T,,M,1.62,N,3.0,K,A*33
$GPGGA,194514.000,3748.7949,N,12217.8485,W,1,06,1.4,-6.5,M,-25.1,M,,0000*49
$GPGSA,A,3,15,18,29,16,21,30,,,,,,,2.3,1.4,1.8*3E
$GPRMC,194514.000,A,3748.7949,N,12217.8485,W,1.90,88.48,031212,,,A*4A
$GPVTG,88.48,T,,M,1.90,N,3.5,K,A*3F
$GPGGA,194515.000,3748.7945,N,12217.8476,W,1,06,1.4,-5.7,M,-25.1,M,,0000*49
$GPGSA,A,3,15,18,29,16,21,30,,,,,,,2.3,1.4,1.8*3E
$GPRMC,194515.000,A,3748.7945,N,12217.8476,W,2.00,99.94,031212,,,A*40
$GPVTG,99.94,T,,M,2.00,N,3.7,K,A*36
$GPGGA,194516.000,3748.7940,N,12217.8469,W,1,06,1.4,-4.8,M,-25.1,M,,0000*4F
$GPGSA,A,3,15,18,29,16,21,30,,,,,,,2.3,1.4,1.8*3E
$GPGSV,3,1,12,29,71,106,32,21,57,296,25,18,40,209,35,30,29,296,29*76
$GPGSV,3,2,12,15,27,119,27,05,24,045,20,25,22,190,39,26,22,080,21*7C
$GPGSV,3,3,12,16,11,322,21,22,03,217,24,06,00,310,,48,44,197,34*7C
$GPRMC,194516.000,A,3748.7940,N,12217.8469,W,2.13,108.21,031212,,,A*7D
$GPVTG,108.21,T,,M,2.13,N,3.9,K,A*0D
$GPGGA,194517.000,3748.7936,N,12217.8463,W,1,06,1.4,-4.5,M,-25.1,M,,0000*48
$GPGSA,A,3,15,18,29,16,21,30,,,,,,,2.3,1.4,1.8*3E
$GPRMC,194517.000,A,3748.7936,N,12217.8463,W,1.26,106.12,031212,,,A*7C
$GPVTG,106.12,T,,M,1.26,N,2.3,K,A*0D
$GPGGA,194518.000,3748.7937,N,12217.8460,W,1,06,1.4,-4.2,M,-25.1,M,,0000*42
$GPGSA,A,3,15,18,29,16,21,30,,,,,,,2.3,1.4,1.8*3E
$GPRMC,194518.000,A,3748.7937,N,12217.8460,W,0.99,59.30,031212,,,A*4F
$GPVTG,59.30,T,,M,0.99,N,1.8,K,A*3B
$GPGGA,194519.000,3748.7933,N,12217.8455,W,1,06,1.4,-3.4,M,-25.1,M,,0000*40
$GPGSA,A,3,15,18,29,16,21,30,,,,,,,2.3,1.4,1.8*3E
$GPRMC,194519.000,A,3748.7933,N,12217.8455,W,1.29,56.02,031212,,,A*48
$GPVTG,56.02,T,,M,1.29,N,2.4,K,A*30
$GPGGA,194520.000,3748.7933,N,12217.8449,W,1,06,1.4,-2.9,M,-25.1,M,,0000*4B
$GPGSA,A,3,15,18,29,16,21,30,,,,,,,2.3,1.4,1.8*3E
$GPRMC,194520.000,A,3748.7933,N,12217.8449,W,1.26,61.62,031212,,,A*42
$GPVTG,61.62,T,,M,1.26,N,2.3,K,A*3A
$GPGGA,194521.000,3748.7931,N,12217.8443,W,1,06,1.4,-2.9,M,-25.1,M,,0000*42
$GPGSA,A,3,15,18,29,16,21,30,,,,,,,2.3,1.4,1.8*3E
$GPGSV,3,1,12,29,71,107,29,21,57,296,18,18,40,209,34,30,29,295,20*78
$GPGSV,3,2,12,15,27,119,34,05,24,045,20,26,22,080,23,25,21,190,38*7E
$GPGSV,3,3,12,16,12,322,20,22,03,217,21,06,00,310,,48,44,197,35*7A
$GPVTG,66.54,T,,M,1.25,N,2.3,K,A*3B
$GPGGA,194522.000,3748.7931,N,12217.8439,W,1,06,1.4,-3.2,M,-25.1,M,,0000*46
$GPGSA,A,3,15,18,29,16,21,30,,,,,,,2.3,1.4,1.8*3E
$GPRMC,194522.000,A,3748.7931,N,12217.8439,W,1.23,109.85,031212,,,A*76
$GPVTG,109.85,T,,M,1.23,N,2.3,K,A*09
$GPGGA,194523.000,3748.7926,N,12217.8433,W,1,06,1.4,-2.9,M,-25.1,M,,0000*41
$GPGSA,A,3,15,18,29,16,21,30,,,,,,,2.3,1.4,1.8*3E
$GPRMC,194523.000,A,3748.7926,N,12217.8433,W,1.88,112.69,031212,,,A*72
$GPVTG,112.69,T,,M,1.88,N,3.5,K,A*07
$GPGGA,194524.000,3748.7921,N,12217.8426,W,1,06,1.4,-3.9,M,-25.1,M,,0000*44
$GPGSA,A,3,15,18,29,16,21,30,,,,,,,2.3,1.4,1.8*3E
$GPRMC,194524.000,A,3748.7921,N,12217.8426,W,1.46,113.95,031212,,,A*76
$GPVTG,113.95,T,,M,1.46,N,2.7,K,A*04
$GPGGA,194525.000,3748.7915,N,12217.8417,W,1,06,1.4,-5.1,M,-25.1,M,,0000*4E
$GPGSA,A,3,15,18,29,16,21,30,,,,,,,2.3,1.4,1.8*3E
$GPRMC,194525.000,A,3748.7915,N,12217.8417,W,1.88,95.03,031212,,,A*40
$GPVTG,95.03,T,,M,1.88,N,3.5,K,A*35
$GPGGA,194526.000,3748.7910,N,12217.8406,W,1,06,1.4,-4.8,M,-25.1,M,,0000*40
$GPGSA,A,3,15,18,29,16,21,30,,,,,,,2.3,1.4,1.8*3E
$GPGSV,3,1,12,29,71,107,30,21,57,296,23,18,40,209,35,30,29,295,19*73
$GPGSV,3,2,12,15,27,119,35,05,24,045,24,26,22,080,24,25,21,190,35*71
$GPGSV,3,3,12,16,12,322,19,22,03,217,10,06,00,310,,48,44,197,36*71
$GPRMC,194526.000,A,3748.7910,N,12217.8406,W,1.93,90.60,031212,,,A*4C
$GPVTG,90.60,T,,M,1.93,N,3.6,K,A*3C
$GPGGA,194527.000,3748.7907,N,12217.8398,W,1,06,1.4,-4.4,M,-25.1,M,,0000*4B
$GPGSA,A,3,15,18,29,16,21,30,,,,,,,2.3,1.4,1.8*3E
$GPRMC,194527.000,A,3748.7907,N,12217.8398,W,1.57,67.82,031212,,,A*47
$GPVTG,67.82,T,,M,1.57,N,2.9,K,A*3E
$GPGGA,194528.000,3748.7907,N,12217.8392,W,1,06,1.4,-5.1,M,-25.1,M,,0000*4A
$GPGSA,A,3,15,18,29,16,21,30,,,,,,,2.3,1.4,1.8*3E
$GPRMC,194528.000,A,3748.7907,N,12217.8392,W,1.21,71.74,031212,,,A*4D
$GPVTG,71.74,T,,M,1.21,N,2.2,K,A*3A
$GPGGA,194529.000,3748.7908,N,12217.8388,W,1,06,1.4,-5.5,M,-25.1,M,,0000*4B
$GPGSA,A,3,15,18,29,16,21,30,,,,,,,2.3,1.4,1.8*3E
$GPRMC,194529.000,A,3748.7908,N,12217.8388,W,1.36,67.62,031212,,,A*4E
$GPVTG,67.62,T,,M,1.36,N,2.5,K,A*3B
$GPGGA,194530.000,3748.7906,N,12217.8382,W,1,06,1.4,-6.4,M,-25.1,M,,0000*45
$GPGSA,A,3,15,18,29,16,21,30,,,,,,,2.3,1.4,1.8*3E
$GPRMC,194530.000,A,3748.7906,N,12217.8382,W,1.41,98.11,031212,,,A*46
$GPVTG,98.11,T,,M,1.41,N,2.6,K,A*3C
$GPGGA,194531.000,3748.7903,N,12217.8376,W,1,06,1.4,-7.5,M,-25.1,M,,0000*4A
$GPGSA,A,3,15,18,29,16,21,30,,,,,,,2.3,1.4,1.8*3E
$GPGSV,3,1,12,29,71,107,31,21,57,296,21,18,40,209,35,30,29,295,19*70
$GPGSV,3,2,12,15,27,119,35,05,24,045,24,26,22,080,24,25,21,190,35*71
$GPGSV,3,3,12,16,12,322,18,22,03,217,,06,00,310,,48,44,197,32*75
$GPRMC,194531.000,A,3748.7903,N,12217.8376,W,1.25,89.81,031212,,,A*42
$GPVTG,89.81,T,,M,1.25,N,2.3,K,A*32
$GPGGA,194532.000,3748.7903,N,12217.8371,W,1,06,1.4,-8.3,M,-25.1,M,,0000*47
$GPGSA,A,3,15,18,29,16,21,30,,,,,,,2.3,1.4,1.8*3E
$GPRMC,194532.000,A,3748.7903,N,12217.8371,W,1.35,62.21,031212,,,A*48
$GPVTG,62.21,T,,M,1.35,N,2.5,K,A*3A
$GPGGA,194533.000,3748.7904,N,12217.8367,W,1,06,1.4,-9.0,M,-25.1,M,,0000*44
$GPGSA,A,3,15,18,29,16,21,30,,,,,,,2.3,1.4,1.8*3E
$GPRMC,194533.000,A,3748.7904,N,12217.8367,W,1.25,64.70,031212,,,A*4A
$GPVTG,64.70,T,,M,1.25,N,2.3,K,A*3F
$GPGGA,194534.000,3748.7900,N,12217.8361,W,1,07,1.2,-9.1,M,-25.1,M,,0000*47
$GPGSA,A,3,15,18,29,16,21,30,25,,,,,,2.0,1.2,1.6*32
$GPRMC,194534.000,A,3748.7900,N,12217.8361,W,0.99,73.03,031212,,,A*4B
$GPVTG,73.03,T,,M,0.99,N,1.8,K,A*33
$GPGGA,194535.000,3748.7900,N,12217.8356,W,1,06,1.4,-9.7,M,-25.1,M,,0000*43
$GPGSA,A,3,15,18,29,21,30,25,,,,,,,2.7,1.4,2.3*32
$GPRMC,194535.000,A,3748.7900,N,12217.8356,W,1.49,91.31,031212,,,A*4F
$GPVTG,91.31,T,,M,1.49,N,2.8,K,A*31
$GPGGA,194536.000,3748.7896,N,12217.8349,W,1,07,1.2,-10.2,M,-25.1,M,,0000*7A
$GPGSA,A,3,15,18,29,16,21,30,25,,,,,,2.0,1.2,1.6*32
$GPGSV,3,1,12,29,70,108,31,21,57,296,28,18,40,210,40,30,29,295,27*70
$GPGSV,3,2,12,15,27,119,36,05,24,045,22,26,22,080,24,25,21,190,36*77
$GPGSV,3,3,12,16,12,322,18,22,03,217,,06,00,311,,48,44,197,36*70
$GPVTG,109.31,T,,M,1.72,N,3.2,K,A*02
$GPGGA,194537.000,3748.7887,N,12217.8340,W,1,07,1.2,-8.7,M,-25.1,M,,0000*4E
$GPGSA,A,3,15,18,29,16,21,30,25,,,,,,2.0,1.2,1.6*32
$GPRMC,194537.000,A,3748.7887,N,12217.8340,W,1.88,110.77,031212,,,A*73
$GPVTG,110.77,T,,M,1.88,N,3.5,K,A*0A
$GPGGA,194538.000,3748.7880,N,12217.8331,W,1,07,1.2,-7.8,M,-25.1,M,,0000*40
$GPGSA,A,3,15,18,29,16,21,30,25,,,,,,2.0,1.2,1.6*32
$GPRMC,194538.000,A,3748.7880,N,12217.8331,W,2.15,118.34,031212,,,A*75
$GPVTG,118.34,T,,M,2.15,N,4.0,K,A*00
$GPGGA,194539.000,3748.7872,N,12217.8321,W,1,07,1.2,-6.7,M,-25.1,M,,0000*43
$GPGSA,A,3,15,18,29,16,21,30,25,,,,,,2.0,1.2,1.6*32
$GPRMC,194539.000,A,3748.7872,N,12217.8321,W,1.75,113.92,031212,,,A*7A
$GPVTG,113.92,T,,M,1.75,N,3.2,K,A*07
$GPGGA,194540.000,3748.7867,N,12217.8315,W,1,07,1.2,-5.9,M,-25.1,M,,0000*43
$GPGSA,A,3,15,18,29,16,21,30,25,,,,,,2.0,1.2,1.6*32
$GPRMC,194540.000,A,3748.7867,N,12217.8315,W,1.26,113.80,031212,,,A*72
$GPVTG,113.80,T,,M,1.26,N,2.3,K,A*02
$GPGGA,194541.000,3748.7864,N,12217.8310,W,1,07,1.2,-5.6,M,-25.1,M,,0000*4B
$GPGSA,A,3,15,18,29,16,21,30,25,,,,,,2.0,1.2,1.6*32
$GPGSV,3,1,12,29,70,108,31,21,57,296,26,18,40,210,38,30,29,295,27*71
$GPGSV,3,2,12,15,27,119,31,05,24,045,23,26,22,080,23,25,21,190,37*77
$GPGSV,3,3,12,16,12,322,18,22,03,217,,06,00,311,,48,44,197,38*7E
$GPRMC,194541.000,A,3748.7864,N,12217.8310,W,1.62,106.18,031212,,,A*70
$GPVTG,106.18,T,,M,1.62,N,3.0,K,A*05
$GPGGA,194542.000,3748.7861,N,12217.8304,W,1,07,1.2,-4.8,M,-25.1,M,,0000*47
$GPGSA,A,3,15,18,29,16,21,30,25,,,,,,2.0,1.2,1.6*32
$GPRMC,194542.000,A,3748.7861,N,12217.8304,W,1.70,96.10,031212,,,A*40
$GPVTG,96.10,T,,M,1.70,N,3.2,K,A*34
$GPGGA,194543.000,3748.7858,N,12217.8297,W,1,07,1.2,-4.1,M,-25.1,M,,0000*4E
$GPGSA,A,3,15,18,29,16,21,30,25,,,,,,2.0,1.2,1.6*32
$GPRMC,194543.000,A,3748.7858,N,12217.8297,W,1.47,68.61,031212,,,A*43
$GPVTG,68.61,T,,M,1.47,N,2.7,K,A*33
$GPGGA,194544.000,3748.7857,N,12217.8292,W,1,07,1.2,-3.7,M,-25.1,M,,0000*42
$GPGSA,A,3,15,18,29,16,21,30,25,,,,,,2.0,1.2,1.6*32
$GPRMC,194544.000,A,3748.7857,N,12217.8292,W,1.28,66.86,031212,,,A*40
$GPVTG,66.86,T,,M,1.28,N,2.4,K,A*3E
$GPGGA,194545.000,3748.7854,N,12217.8285,W,1,07,1.2,-2.8,M,-25.1,M,,0000*48
$GPGSA,A,3,15,18,29,16,21,30,25,,,,,,2.0,1.2,1.6*32
$GPRMC,194545.000,A,3748.7854,N,12217.8285,W,1.45,98.67,031212,,,A*41
$GPVTG,98.67,T,,M,1.45,N,2.7,K,A*38
$GPGGA,194546.000,3748.7853,N,12217.8280,W,1,07,1.2,-2.2,M,-25.1,M,,0000*43
$GPGSA,A,3,15,18,29,16,21,30,25,,,,,,2.0,1.2,1.6*32
$GPGSV,3,1,12,29,70,108,30,21,57,296,19,18,40,210,34,30,29,295,21*76
$GPGSV,3,2,12,15,27,119,31,05,24,045,28,26,22,080,25,25,21,190,35*78
$GPGSV,3,3,12,16,12,322,18,22,03,217,,06,00,311,,48,44,197,31*77
$GPRMC,194546.000,A,3748.7853,N,12217.8280,W,1.23,83.47,031212,,,A*48
$GPVTG,83.47,T,,M,1.23,N,2.3,K,A*34
$GPGGA,194547.000,3748.7846,N,12217.8273,W,1,06,1.4,-2.5,M,-25.1,M,,0000*4A
$GPGSA,A,3,15,18,29,21,30,25,,,,,,,2.7,1.4,2.3*32
$GPRMC,194547.000,A,3748.7846,N,12217.8273,W,1.23,107.34,031212,,,A*78
$GPVTG,107.34,T,,M,1.23,N,2.3,K,A*0D
$GPGGA,194548.000,3748.7841,N,12217.8268,W,1,06,1.4,-2.9,M,-25.1,M,,0000*44
$GPGSA,A,3,15,18,29,21,30,25,,,,,,,2.7,1.4,2.3*32
$GPRMC,194548.000,A,3748.7841,N,12217.8268,W,1.22,114.83,031212,,,A*75
$GPVTG,114.83,T,,M,1.22,N,2.3,K,A*02
$GPGGA,194549.000,3748.7837,N,12217.8263,W,1,07,1.2,-2.9,M,-25.1,M,,0000*48
$GPGSA,A,3,15,18,29,16,21,30,25,,,,,,2.0,1.2,1.6*32
$GPRMC,194549.000,A,3748.7837,N,12217.8263,W,1.39,116.34,031212,,,A*7A
$GPVTG,116.34,T,,M,1.39,N,2.6,K,A*03
$GPGGA,194550.000,3748.7831,N,12217.8257,W,1,07,1.2,-2.6,M,-25.1,M,,0000*4E
$GPGSA,A,3,15,18,29,16,21,30,25,,,,,,2.0,1.2,1.6*32
$GPRMC,194550.000,A,3748.7831,N,12217.8257,W,1.35,109.44,031212,,,A*76
$GPVTG,109.44,T,,M,1.35,N,2.5,K,A*05
$GPGGA,194551.000,3748.7828,N,12217.8251,W,1,07,1.2,-3.0,M,-25.1,M,,0000*46
$GPGSA,A,3,15,18,29,16,21,30,25,,,,,,2.0,1.2,1.6*32
$GPGSV,3,1,12,29,70,108,31,21,57,297,20,18,40,210,36,30,29,295,21*7E
$GPGSV,3,2,12,15,27,119,32,05,24,045,21,26,22,080,18,25,21,190,37*7E
$GPGSV,3,3,12,16,12,322,17,22,03,217,,06,00,311,,48,44,197,38*71
$GPVTG,117.31,T,,M,1.78,N,3.3,K,A*06
$GPGGA,194552.000,3748.7822,N,12217.8244,W,1,07,1.2,-2.6,M,-25.1,M,,0000*4C
$GPGSA,A,3,15,18,29,16,21,30,25,,,,,,2.0,1.2,1.6*32
$GPRMC,194552.000,A,3748.7822,N,12217.8244,W,2.02,119.68,031212,,,A*7C
$GPVTG,119.68,T,,M,2.02,N,3.7,K,A*0E
$GPGGA,194553.000,3748.7818,N,12217.8237,W,1,07,1.2,-3.2,M,-25.1,M,,0000*45
$GPGSA,A,3,15,18,29,16,21,30,25,,,,,,2.0,1.2,1.6*32
$GPRMC,194553.000,A,3748.7818,N,12217.8237,W,1.65,115.65,031212,,,A*73
$GPVTG,115.65,T,,M,1.65,N,3.1,K,A*0B
$GPGGA,194554.000,3748.7815,N,12217.8230,W,1,07,1.2,-3.7,M,-25.1,M,,0000*4D
$GPGSA,A,3,15,18,29,16,21,30,25,,,,,,2.0,1.2,1.6*32
$GPRMC,194554.000,A,3748.7815,N,12217.8230,W,1.61,100.23,031212,,,A*7C
$GPVTG,100.23,T,,M,1.61,N,3.0,K,A*08
$GPGGA,194555.000,3748.7812,N,12217.8222,W,1,07,1.2,-4.4,M,-25.1,M,,0000*4C
$GPGSA,A,3,15,18,29,16,21,30,25,,,,,,2.0,1.2,1.6*32
$GPRMC,194555.000,A,3748.7812,N,12217.8222,W,1.70,96.94,031212,,,A*4B
$GPVTG,96.94,T,,M,1.70,N,3.1,K,A*3B
$GPGGA,194556.000,3748.7808,N,12217.8215,W,1,07,1.2,-4.0,M,-25.1,M,,0000*44
$GPGSA,A,3,15,18,29,16,21,30,25,,,,,,2.0,1.2,1.6*32
$GPGSV,3,1,12,29,70,108,31,21,57,297,22,18,40,210,35,30,29,295,21*7F
$GPGSV,3,2,12,15,27,119,33,05,24,045,21,26,22,080,24,25,21,190,37*70
$GPGSV,3,3,12,16,12,322,17,22,03,217,,06,00,311,,48,44,197,37*7E
$GPRMC,194556.000,A,3748.7808,N,12217.8215,W,1.32,106.72,031212,,,A*71
$GPVTG,106.72,T,,M,1.32,N,2.5,K,A*08
$GPGGA,194557.000,3748.7805,N,12217.8211,W,1,07,1.2,-4.4,M,-25.1,M,,0000*48
$GPGSA,A,3,15,18,29,16,21,30,25,,,,,,2.0,1.2,1.6*32
$GPRMC,194557.000,A,3748.7805,N,12217.8211,W,1.24,117.05,031212,,,A*7E
$GPVTG,117.05,T,,M,1.24,N,2.3,K,A*09
$GPGGA,194558.000,3748.7801,N,12217.8204,W,1,07,1.2,-4.8,M,-25.1,M,,0000*4B
$GPGSA,A,3,15,18,29,16,21,30,25,,,,,,2.0,1.2,1.6*32
$GPRMC,194558.000,A,3748.7801,N,12217.8204,W,1.94,119.43,031212,,,A*76
$GPVTG,119.43,T,,M,1.94,N,3.6,K,A*0A
$GPGGA,194559.000,3748.7795,N,12217.8196,W,1,07,1.2,-4.3,M,-25.1,M,,0000*4B
$GPGSA,A,3,15,18,29,16,21,30,25,,,,,,2.0,1.2,1.6*32
$GPRMC,194559.000,A,3748.7795,N,12217.8196,W,2.01,115.64,031212,,,A*7B
$GPVTG,115.64,T,,M,2.01,N,3.7,K,A*0D
$GPGGA,194600.000,3748.7790,N,12217.8188,W,1,07,1.2,-4.1,M,-25.1,M,,0000*4C
$GPGSA,A,3,15,18,29,16,21,30,25,,,,,,2.0,1.2,1.6*32
$GPRMC,194600.000,A,3748.7790,N,12217.8188,W,1.59,102.30,031212,,,A*77
$GPVTG,102.30,T,,M,1.59,N,2.9,K,A*0B
$GPGGA,194601.000,3748.7787,N,12217.8181,W,1,07,1.2,-4.0,M,-25.1,M,,0000*43
$GPGSA,A,3,15,18,29,16,21,30,25,,,,,,2.0,1.2,1.6*32
$GPGSV,3,1,12,29,70,108,32,21,57,297,21,18,40,210,35,30,29,295,21*7F
$GPGSV,3,2,12,15,27,119,33,05,24,045,21,26,22,080,22,25,21,190,36*77
$GPGSV,3,3,12,16,12,322,18,22,03,217,,06,00,311,,48,44,197,35*73
$GPRMC,194601.000,A,3748.7787,N,12217.8181,W,1.55,105.28,031212,,,A*7B
$GPVTG,105.28,T,,M,1.55,N,2.9,K,A*09
$GPGGA,194602.000,3748.7782,N,12217.8173,W,1,07,1.2,-3.0,M,-25.1,M,,0000*4F
$GPGSA,A,3,15,18,29,16,21,30,25,,,,,,2.0,1.2,1.6*32
$GPRMC,194602.000,A,3748.7782,N,12217.8173,W,1.83,100.91,031212,,,A*7C
$GPVTG,100.91,T,,M,1.83,N,3.4,K,A*09
$GPGGA,194603.000,3748.7777,N,12217.8164,W,1,07,1.2,-2.3,M,-25.1,M,,0000*40
$GPGSA,A,3,15,18,29,16,21,30,25,,,,,,2.0,1.2,1.6*32
$GPRMC,194603.000,A,3748.7777,N,12217.8164,W,2.43,116.27,031212,,,A*74
$GPVTG,116.27,T,,M,2.43,N,4.5,K,A*0A
$GPGGA,194604.000,3748.7772,N,12217.8154,W,1,07,1.2,-1.7,M,-25.1,M,,0000*46
$GPGSA,A,3,15,18,29,16,21,30,25,,,,,,2.0,1.2,1.6*32
$GPRMC,194604.000,A,3748.7772,N,12217.8154,W,2.64,114.94,031212,,,A*7A
$GPVTG,114.94,T,,M,2.64,N,4.9,K,A*09
$GPGGA,194605.000,3748.7767,N,12217.8144,W,1,07,1.2,-1.3,M,-25.1,M,,0000*46
$GPGSA,A,3,15,18,29,16,21,30,25,,,,,,2.0,1.2,1.6*32
$GPRMC,194605.000,A,3748.7767,N,12217.8144,W,2.26,108.54,031212,,,A*79
$GPVTG,108.54,T,,M,2.26,N,4.2,K,A*05
$GPGGA,194606.000,3748.7763,N,12217.8135,W,1,07,1.2,-0.5,M,-25.1,M,,0000*40
$GPGSA,A,3,15,18,29,16,21,30,25,,,,,,2.0,1.2,1.6*32
$GPGSV,3,1,12,29,70,108,31,21,57,297,21,18,40,210,36,30,29,295,22*7C
$GPGSV,3,2,12,15,27,119,33,05,24,045,22,26,22,080,20,25,21,190,37*77
$GPGSV,3,3,12,16,12,322,18,22,03,217,,06,00,311,,48,44,197,37*71
$GPRMC,194606.000,A,3748.7763,N,12217.8135,W,2.01,112.26,031212,,,A*73
$GPVTG,112.26,T,,M,2.01,N,3.7,K,A*0C
$GPGGA,194607.000,3748.7762,N,12217.8130,W,1,07,1.2,-1.2,M,-25.1,M,,0000*43
$GPGSA,A,3,15,18,29,16,21,30,25,,,,,,2.0,1.2,1.6*32
$GPRMC,194607.000,A,3748.7762,N,12217.8130,W,1.69,113.45,031212,,,A*7F
$GPVTG,113.45,T,,M,1.69,N,3.1,K,A*03
$GPGGA,194608.000,3748.7758,N,12217.8123,W,1,07,1.2,-1.1,M,-25.1,M,,0000*44
$GPGSA,A,3,15,18,29,16,21,30,25,,,,,,2.0,1.2,1.6*32
$GPRMC,194608.000,A,3748.7758,N,12217.8123,W,1.92,116.76,031212,,,A*7A
$GPVTG,116.76,T,,M,1.92,N,3.5,K,A*06
$GPGGA,194609.000,3748.7756,N,12217.8117,W,1,07,1.2,-1.4,M,-25.1,M,,0000*49
$GPGSA,A,3,15,18,29,16,21,30,25,,,,,,2.0,1.2,1.6*32
$GPRMC,194609.000,A,3748.7756,N,12217.8117,W,1.60,113.81,031212,,,A*72
$GPVTG,113.81,T,,M,1.60,N,3.0,K,A*03
$GPGGA,194610.000,3748.7753,N,12217.8110,W,1,07,1.2,-1.4,M,-25.1,M,,0000*43
$GPGSA,A,3,15,18,29,16,21,30,25,,,,,,2.0,1.2,1.6*32
$GPRMC,194610.000,A,3748.7753,N,12217.8110,W,1.60,100.78,031212,,,A*7C
$GPVTG,100.78,T,,M,1.60,N,3.0,K,A*07
$GPGGA,194611.000,3748.7749,N,12217.8103,W,1,07,1.2,-0.9,M,-25.1,M,,0000*47
$GPGSA,A,3,15,18,29,16,21,30,25,,,,,,2.0,1.2,1.6*32
$GPGSV,3,1,12,29,70,108,31,21,57,297,22,18,40,210,36,30,29,295,23*7E
$GPGSV,3,2,12,15,28,118,32,05,23,045,22,26,22,080,26,25,21,190,37*79
$GPGSV,3,3,12,16,12,322,18,22,03,217,,06,00,311,,48,44,197,34*72
$GPRMC,194611.000,A,3748.7749,N,12217.8103,W,1.56,86.74,031212,,,A*42
$GPGGA,194612.000,3748.7747,N,12217.8096,W,1,07,1.2,-0.7,M,-25.1,M,,0000*49
$GPGSA,A,3,15,18,29,16,21,30,25,,,,,,2.0,1.2,1.6*32
$GPRMC,194612.000,A,3748.7747,N,12217.8096,W,1.91,101.72,031212,,,A*71
$GPVTG,101.72,T,,M,1.91,N,3.5,K,A*07
$GPGGA,194613.000,3748.7744,N,12217.8089,W,1,07,1.2,-0.7,M,-25.1,M,,0000*45
$GPGSA,A,3,15,18,29,16,21,30,25,,,,,,2.0,1.2,1.6*32
$GPRMC,194613.000,A,3748.7744,N,12217.8089,W,1.77,99.72,031212,,,A*45
$GPVTG,99.72,T,,M,1.77,N,3.3,K,A*39
$GPGGA,194614.000,3748.7741,N,12217.8082,W,1,07,1.2,-0.5,M,-25.1,M,,0000*4E
$GPGSA,A,3,15,18,29,16,21,30,25,,,,,,2.0,1.2,1.6*32
$GPRMC,194614.000,A,3748.7741,N,12217.8082,W,1.94,102.40,031212,,,A*73
$GPVTG,102.40,T,,M,1.94,N,3.6,K,A*03
$GPGGA,194615.000,3748.7735,N,12217.8072,W,1,07,1.2,0.3,M,-25.1,M,,0000*68
$GPGSA,A,3,15,18,29,16,21,30,25,,,,,,2.0,1.2,1.6*32
$GPRMC,194615.000,A,3748.7735,N,12217.8072,W,1.92,101.13,031212,,,A*7D
$GPVTG,101.13,T,,M,1.92,N,3.5,K,A*03
$GPGGA,194616.000,3748.7730,N,12217.8063,W,1,07,1.2,0.7,M,-25.1,M,,0000*6A
$GPGSA,A,3,15,18,29,16,21,30,25,,,,,,2.0,1.2,1.6*32
$GPGSV,3,1,12,29,70,108,32,21,57,297,23,18,40,210,36,30,29,295,24*7B
$GPGSV,3,2,12,15,28,118,33,05,23,045,20,26,22,080,20,25,21,190,37*7C
$GPGSV,3,3,12,16,12,322,18,22,03,217,,06,00,311,,48,44,197,36*70
$GPRMC,194616.000,A,3748.7730,N,12217.8063,W,1.92,101.98,031212,,,A*78
$GPVTG,101.98,T,,M,1.92,N,3.6,K,A*03
$GPGGA,194617.000,3748.7727,N,12217.8055,W,1,07,1.2,0.6,M,-25.1,M,,0000*69
$GPGSA,A,3,15,18,29,16,21,30,25,,,,,,2.0,1.2,1.6*32
$GPRMC,194617.000,A,3748.7727,N,12217.8055,W,2.11,106.76,031212,,,A*75
$GPVTG,106.76,T,,M,2.11,N,3.9,K,A*03
$GPGGA,194618.000,3748.7725,N,12217.8049,W,1,07,1.2,0.2,M,-25.1,M,,0000*6D
$GPGSA,A,3,15,18,29,16,21,30,25,,,,,,2.0,1.2,1.6*32
$GPRMC,194618.000,A,3748.7725,N,12217.8049,W,2.08,110.52,031212,,,A*7C
$GPVTG,110.52,T,,M,2.08,N,3.8,K,A*0B
$GPGGA,194619.000,3748.7722,N,12217.8042,W,1,07,1.2,-0.1,M,-25.1,M,,0000*4E
$GPGSA,A,3,15,18,29,16,21,30,25,,,,,,2.0,1.2,1.6*32
$GPRMC,194619.000,A,3748.7722,N,12217.8042,W,2.32,114.77,031212,,,A*7B
$GPVTG,114.77,T,,M,2.32,N,4.3,K,A*0D
$GPGGA,194620.000,3748.7719,N,12217.8036,W,1,07,1.2,-0.3,M,-25.1,M,,0000*4D
$GPGSA,A,3,15,18,29,16,21,30,25,,,,,,2.0,1.2,1.6*32
$GPRMC,194620.000,A,3748.7719,N,12217.8036,W,1.60,102.03,031212,,,A*7A
$GPVTG,102.03,T,,M,1.60,N,3.0,K,A*09
$GPGGA,194621.000,3748.7715,N,12217.8030,W,1,07,1.2,0.3,M,-25.1,M,,0000*6B
$GPGSA,A,3,15,18,29,16,21,30,25,,,,,,2.0,1.2,1.6*32
$GPGSV,3,1,12,29,70,108,32,21,57,297,23,18,40,210,36,30,29,295,25*7A
$GPGSV,3,2,12,15,28,118,31,05,23,045,21,26,22,080,26,25,21,190,37*79
$GPGSV,3,3,12,16,12,322,18,22,04,217,,06,00,311,,48,44,197,36*77
$GPRMC,194621.000,A,3748.7715,N,12217.8030,W,2.00,101.88,031212,,,A*74
$GPVTG,101.88,T,,M,2.00,N,3.7,K,A*0B
$GPGGA,194622.000,3748.7712,N,12217.8022,W,1,07,1.2,-0.1,M,-25.1,M,,0000*43
$GPGSA,A,3,15,18,29,16,21,30,25,,,,,,2.0,1.2,1.6*32
$GPRMC,194622.000,A,3748.7712,N,12217.8022,W,2.78,109.37,031212,,,A*70
$GPVTG,109.37,T,,M,2.78,N,5.1,K,A*08
$GPGGA,194623.000,3748.7709,N,12217.8013,W,1,07,1.2,-0.4,M,-25.1,M,,0000*4F
$GPGSA,A,3,15,18,29,16,21,30,25,,,,,,2.0,1.2,1.6*32
$GPRMC,194623.000,A,3748.7709,N,12217.8013,W,2.37,107.08,031212,,,A*70
$GPVTG,107.08,T,,M,2.37,N,4.4,K,A*05
$GPGGA,194624.000,3748.7705,N,12217.8005,W,1,07,1.2,-0.6,M,-25.1,M,,0000*41
$GPGSA,A,3,15,18,29,16,21,30,25,,,,,,2.0,1.2,1.6*32
$GPRMC,194624.000,A,3748.7705,N,12217.8005,W,2.46,118.31,031212,,,A*7E
$GPVTG,118.31,T,,M,2.46,N,4.6,K,A*05
$GPGGA,194625.000,3748.7700,N,12217.7999,W,1,07,1.2,-0.4,M,-25.1,M,,0000*44
$GPGSA,A,3,15,18,29,16,21,30,25,,,,,,2.0,1.2,1.6*32
$GPRMC,194625.000,A,3748.7700,N,12217.7999,W,2.48,119.00,031212,,,A*74
$GPVTG,119.00,T,,M,2.48,N,4.6,K,A*08
$GPGGA,194626.000,3748.7694,N,12217.7989,W,1,07,1.2,-0.3,M,-25.1,M,,0000*4D
$GPGSA,A,3,15,18,29,16,21,30,25,,,,,,2.0,1.2,1.6*32
$GPGSV,3,1,12,29,70,108,32,21,57,297,28,18,40,210,38,30,29,295,30*7B
$GPGSV,3,2,12,15,28,118,30,05,23,045,22,26,22,080,25,25,21,190,37*78
$GPGSV,3,3,12,16,12,322,19,22,04,217,,06,00,311,,48,44,197,36*76
$GPVTG,115.04,T,,M,2.64,N,4.9,K,A*01
$GPGGA,194627.000,3748.7688,N,12217.7980,W,1,07,1.2,0.5,M,-25.1,M,,0000*63
$GPGSA,A,3,15,18,29,16,21,30,25,,,,,,2.0,1.2,1.6*32
$GPRMC,194627.000,A,3748.7688,N,12217.7980,W,2.09,114.46,031212,,,A*75
$GPVTG,114.46,T,,M,2.09,N,3.9,K,A*0A
$GPGGA,194628.000,3748.7682,N,12217.7971,W,1,07,1.2,1.1,M,-25.1,M,,0000*6D
$GPGSA,A,3,15,18,29,16,21,30,25,,,,,,2.0,1.2,1.6*32
$GPRMC,194628.000,A,3748.7682,N,12217.7971,W,2.49,114.52,031212,,,A*7F
$GPVTG,114.52,T,,M,2.49,N,4.6,K,A*03
$GPGGA,194629.000,3748.7678,N,12217.7964,W,1,07,1.2,1.3,M,-25.1,M,,0000*6F
$GPGSA,A,3,15,18,29,16,21,30,25,,,,,,2.0,1.2,1.6*32
$GPRMC,194629.000,A,3748.7678,N,12217.7964,W,2.03,115.60,031212,,,A*71
$GPVTG,115.60,T,,M,2.03,N,3.8,K,A*04
$GPGGA,194630.000,3748.7673,N,12217.7957,W,1,07,1.2,1.5,M,-25.1,M,,0000*6A
$GPGSA,A,3,15,18,29,16,21,30,25,,,,,,2.0,1.2,1.6*32
$GPRMC,194630.000,A,3748.7673,N,12217.7957,W,2.48,124.71,031212,,,A*7F
$GPVTG,124.71,T,,M,2.48,N,4.6,K,A*00
$GPGGA,194631.000,3748.7665,N,12217.7946,W,1,07,1.2,2.2,M,-25.1,M,,0000*68
$GPGSA,A,3,15,18,29,16,21,30,25,,,,,,2.0,1.2,1.6*32
$GPGSV,3,1,12,29,70,108,31,21,57,297,25,18,40,210,37,30,29,295,28*73
$GPGSV,3,2,12,15,28,118,27,05,23,045,21,26,22,080,25,25,21,190,37*7D
$GPGSV,3,3,12,16,12,322,26,22,04,217,,06,00,311,,48,44,197,37*7B
$GPRMC,194631.000,A,3748.7665,N,12217.7946,W,2.81,118.95,031212,,,A*79
$GPVTG,118.95,T,,M,2.81,N,5.2,K,A*05
$GPGGA,194632.000,3748.7660,N,12217.7936,W,1,07,1.2,2.5,M,-25.1,M,,0000*6E
$GPGSA,A,3,15,18,29,16,21,30,25,,,,,,2.0,1.2,1.6*32
$GPRMC,194632.000,A,3748.7660,N,12217.7936,W,2.06,110.76,031212,,,A*72
$GPVTG,110.76,T,,M,2.06,N,3.8,K,A*03
$GPGGA,194633.000,3748.7658,N,12217.7927,W,1,07,1.2,2.3,M,-25.1,M,,0000*62
$GPGSA,A,3,15,18,29,16,21,30,25,,,,,,2.0,1.2,1.6*32
$GPRMC,194633.000,A,3748.7658,N,12217.7927,W,2.51,101.28,031212,,,A*71
$GPVTG,101.28,T,,M,2.51,N,4.7,K,A*02
$GPGGA,194634.000,3748.7657,N,12217.7920,W,1,07,1.2,2.2,M,-25.1,M,,0000*6C
$GPGSA,A,3,15,18,29,16,21,30,25,,,,,,2.0,1.2,1.6*32
$GPRMC,194634.000,A,3748.7657,N,12217.7920,W,1.86,84.23,031212,,,A*40
$GPVTG,84.23,T,,M,1.86,N,3.4,K,A*38
$GPGGA,194635.000,3748.7657,N,12217.7915,W,1,07,1.2,2.0,M,-25.1,M,,0000*69
$GPGSA,A,3,15,18,29,16,21,30,25,,,,,,2.0,1.2,1.6*32
$GPRMC,194635.000,A,3748.7657,N,12217.7915,W,1.51,87.33,031212,,,A*4F
$GPVTG,87.33,T,,M,1.51,N,2.8,K,A*3D
$GPGGA,194636.000,3748.7656,N,12217.7909,W,1,07,1.2,1.5,M,-25.1,M,,0000*60
$GPGSA,A,3,15,18,29,16,21,30,25,,,,,,2.0,1.2,1.6*32
$GPGSV,3,1,12,29,70,108,31,21,57,297,23,18,40,210,38,30,29,295,28*7A
$GPGSV,3,2,12,15,28,118,35,05,23,045,22,26,22,080,25,25,21,190,37*7D
$GPGSV,3,3,12,16,12,322,23,22,04,217,,06,00,311,,48,44,197,37*7E
$GPRMC,194636.000,A,3748.7656,N,12217.7909,W,2.15,111.53,031212,,,A*7B
$GPVTG,111.53,T,,M,2.15,N,4.0,K,A*08
$GPGGA,194637.000,3748.7653,N,12217.7902,W,1,07,1.2,1.1,M,-25.1,M,,0000*6B
$GPGSA,A,3,15,18,29,16,21,30,25,,,,,,2.0,1.2,1.6*32
$GPRMC,194637.000,A,3748.7653,N,12217.7902,W,2.24,121.29,031212,,,A*78
$GPVTG,121.29,T,,M,2.24,N,4.2,K,A*06
$GPGGA,194638.000,3748.7648,N,12217.7894,W,1,07,1.2,1.0,M,-25.1,M,,0000*61
$GPGSA,A,3,15,18,29,16,21,30,25,,,,,,2.0,1.2,1.6*32
$GPRMC,194638.000,A,3748.7648,N,12217.7894,W,2.39,119.00,031212,,,A*7F
$GPVTG,119.00,T,,M,2.39,N,4.4,K,A*0C
$GPGGA,194639.000,3748.7644,N,12217.7886,W,1,07,1.2,0.8,M,-25.1,M,,0000*66
$GPGSA,A,3,15,18,29,16,21,30,25,,,,,,2.0,1.2,1.6*32
$GPRMC,194639.000,A,3748.7644,N,12217.7886,W,2.24,113.01,031212,,,A*76
$GPVTG,113.01,T,,M,2.24,N,4.1,K,A*0E
$GPGGA,194640.000,3748.7642,N,12217.7878,W,1,07,1.2,0.7,M,-25.1,M,,0000*60
$GPGSA,A,3,15,18,29,16,21,30,25,,,,,,2.0,1.2,1.6*32
$GPRMC,194640.000,A,3748.7642,N,12217.7878,W,2.11,94.22,031212,,,A*46
$GPVTG,94.22,T,,M,2.11,N,3.9,K,A*38
$GPGGA,194641.000,3748.7638,N,12217.7869,W,1,07,1.2,1.1,M,-25.1,M,,0000*6B
$GPGSA,A,3,15,18,29,16,21,30,25,,,,,,2.0,1.2,1.6*32
$GPGSV,3,1,12,29,70,108,31,21,57,297,23,18,40,210,37,30,29,295,23*7E
$GPGSV,3,2,12,15,28,118,33,05,23,045,22,26,22,080,24,25,21,190,36*7B
$GPRMC,194641.000,A,3748.7638,N,12217.7869,W,2.52,85.11,031212,,,A*4D
$GPVTG,85.11,T,,M,2.52,N,4.7,K,A*36
$GPGGA,194642.000,3748.7635,N,12217.7857,W,1,07,1.2,1.3,M,-25.1,M,,0000*6A
$GPGSA,A,3,15,18,29,16,21,30,25,,,,,,2.0,1.2,1.6*32
$GPRMC,194642.000,A,3748.7635,N,12217.7857,W,2.40,84.31,031212,,,A*4E
$GPVTG,84.31,T,,M,2.40,N,4.4,K,A*35
$GPGGA,194643.000,3748.7629,N,12217.7847,W,2,07,1.2,2.0,M,-25.1,M,1.8,0000*43
$GPGSA,A,3,15,18,29,16,21,30,25,,,,,,2.0,1.2,1.6*32
$GPRMC,194643.000,A,3748.7629,N,12217.7847,W,2.11,118.05,031212,,,D*71
$GPVTG,118.05,T,,M,2.11,N,3.9,K,D*0D
$GPGGA,194644.000,3748.7621,N,12217.7838,W,2,07,1.2,2.5,M,-25.1,M,1.8,0000*41
$GPGSA,A,3,15,18,29,16,21,30,25,,,,,,2.0,1.2,1.6*32
$GPRMC,194644.000,A,3748.7621,N,12217.7838,W,2.36,123.64,031212,,,D*7C
$GPVTG,123.64,T,,M,2.36,N,4.4,K,D*0D
$GPGGA,194645.000,3748.7618,N,12217.7831,W,2,07,1.2,2.0,M,-25.1,M,2.8,0000*45
$GPGSA,A,3,15,18,29,16,21,30,25,,,,,,2.0,1.2,1.6*32
$GPRMC,194645.000,A,3748.7618,N,12217.7831,W,2.16,116.90,031212,,,D*71
$GPVTG,116.90,T,,M,2.16,N,4.0,K,D*06
$GPGGA,194646.000,3748.7615,N,12217.7824,W,2,07,1.2,1.7,M,-25.1,M,3.8,0000*4A
$GPGSA,A,3,15,18,29,16,21,30,25,,,,,,2.0,1.2,1.6*32
$GPGSV,3,1,12,29,70,108,32,21,57,297,24,18,40,210,38,30,29,295,26*70
$GPGSV,3,2,12,15,28,118,33,05,23,045,22,26,22,080,23,25,21,190,29*72
$GPGSV,3,3,12,16,12,322,19,22,04,217,33,06,00,311,,48,44,197,36*76
$GPRMC,194646.000,A,3748.7615,N,12217.7824,W,2.20,109.10,031212,,,D*78
$GPVTG,109.10,T,,M,2.20,N,4.1,K,D*04
$GPGGA,194647.000,3748.7611,N,12217.7817,W,2,07,1.2,1.6,M,-25.1,M,4.8,0000*49
$GPGSA,A,3,15,18,29,16,21,30,25,,,,,,2.0,1.2,1.6*32
$GPRMC,194647.000,A,3748.7611,N,12217.7817,W,2.40,114.12,031212,,,D*75
$GPVTG,114.12,T,,M,2.40,N,4.4,K,D*09
$GPGGA,194648.000,3748.7608,N,12217.7811,W,2,07,1.2,1.5,M,-25.1,M,5.8,0000*4A
$GPGSA,A,3,15,18,29,16,21,30,25,,,,,,2.0,1.2,1.6*32
$GPRMC,194648.000,A,3748.7608,N,12217.7811,W,2.00,117.59,031212,,,D*7C
$GPVTG,117.59,T,,M,2.00,N,3.7,K,D*05
$GPGGA,194649.000,3748.7605,N,12217.7809,W,2,07,1.2,1.9,M,-25.1,M,1.8,0000*47
$GPGSA,A,3,15,18,29,16,21,30,25,,,,,,2.0,1.2,1.6*32
$GPRMC,194649.000,A,3748.7605,N,12217.7809,W,0.44,210.79,031212,,,D*7D
$GPVTG,210.79,T,,M,0.44,N,0.8,K,D*0D
$GPGGA,194650.000,3748.7603,N,12217.7812,W,2,07,1.2,1.8,M,-25.1,M,1.8,0000*42
$GPGSA,A,3,15,18,29,16,21,30,25,,,,,,2.0,1.2,1.6*32
$GPRMC,194650.000,A,3748.7603,N,12217.7812,W,0.60,232.13,031212,,,D*73
$GPVTG,232.13,T,,M,0.60,N,1.1,K,D*0F
$GPGGA,194651.000,3748.7599,N,12217.7816,W,2,05,1.3,2.2,M,-25.1,M,2.8,0000*4E
$GPGSA,A,3,15,18,29,16,25,,,,,,,,2.4,1.3,2.0*32
$GPGSV,3,1,12,29,70,109,25,21,57,297,28,18,41,210,27,30,29,294,28*7B
$GPGSV,3,2,12,15,28,118,24,05,23,045,16,26,22,079,16,25,21,190,23*79
$GPGSV,3,3,12,16,12,321,22,22,04,217,23,06,01,311,,48,44,197,27*7D
$GPRMC,194651.000,A,3748.7599,N,12217.7816,W,1.26,210.27,031212,,,D*72
$GPVTG,210.27,T,,M,1.26,N,2.3,K,D*0A
$GPGGA,194652.000,3748.7599,N,12217.7817,W,2,07,1.2,3.0,M,-25.1,M,3.8,0000*4D
$GPGSA,A,3,15,18,29,16,21,30,25,,,,,,2.0,1.2,1.6*32
$GPRMC,194652.000,A,3748.7599,N,12217.7817,W,0.44,208.36,031212,,,D*7C
$GPVTG,208.36,T,,M,0.44,N,0.8,K,D*0F
$GPGGA,194653.000,3748.7598,N,12217.7817,W,2,07,1.2,3.3,M,-25.1,M,4.8,0000*49
$GPGSA,A,3,15,18,29,16,21,30,25,,,,,,2.0,1.2,1.6*32
$GPRMC,194653.000,A,3748.7598,N,12217.7817,W,0.27,65.56,031212,,,D*46
$GPVTG,65.56,T,,M,0.27,N,0.5,K,D*38
$GPGGA,194654.000,3748.7596,N,12217.7810,W,2,07,1.2,3.8,M,-25.1,M,5.8,0000*4D
$GPGSA,A,3,15,18,29,16,21,30,25,,,,,,2.0,1.2,1.6*32
$GPRMC,194654.000,A,3748.7596,N,12217.7810,W,1.62,75.21,031212,,,D*49
$GPVTG,75.21,T,,M,1.62,N,3.0,K,D*3F
$GPGGA,194655.000,3748.7594,N,12217.7804,W,2,07,1.2,4.0,M,-25.1,M,6.8,0000*47
$GPGSA,A,3,15,18,29,16,21,30,25,,,,,,2.0,1.2,1.6*32
$GPRMC,194655.000,A,3748.7594,N,12217.7804,W,1.37,102.06,031212,,,D*7B
$GPVTG,102.06,T,,M,1.37,N,2.5,K,D*0F
$GPGGA,194656.000,3748.7595,N,12217.7797,W,2,07,1.2,4.0,M,-25.1,M,7.8,0000*41
$GPGSA,A,3,15,18,29,16,21,30,25,,,,,,2.0,1.2,1.6*32
$GPGSV,3,1,12,29,70,109,32,21,57,297,20,18,41,210,32,30,29,294,21*78
$GPGSV,3,2,12,15,28,118,36,05,23,045,17,26,22,079,21,25,21,190,27*7B
$GPGSV,3,3,12,16,12,321,17,22,04,217,29,06,01,311,,48,44,197,34*73
$GPRMC,194656.000,A,3748.7595,N,12217.7797,W,1.65,89.47,031212,,,D*4C
$GPVTG,89.47,T,,M,1.65,N,3.1,K,D*3A
$GPGGA,194657.000,3748.7591,N,12217.7789,W,2,07,1.2,4.1,M,-25.1,M,1.8,0000*4C
$GPGSA,A,3,15,18,29,16,21,30,25,,,,,,2.0,1.2,1.6*32
$GPRMC,194657.000,A,3748.7591,N,12217.7789,W,2.04,100.83,031212,,,D*7A
$GPVTG,100.83,T,,M,2.04,N,3.8,K,D*0F
$GPGGA,194658.000,3748.7587,N,12217.7781,W,2,07,1.2,3.3,M,-25.1,M,1.8,0000*49
$GPGSA,A,3,15,18,29,16,21,30,25,,,,,,2.0,1.2,1.6*32
$GPRMC,194658.000,A,3748.7587,N,12217.7781,W,1.75,111.46,031212,,,D*76
$GPVTG,111.46,T,,M,1.75,N,3.2,K,D*09
$GPGGA,194659.000,3748.7584,N,12217.7775,W,2,07,1.2,3.2,M,-25.1,M,2.8,0000*42
$GPGSA,A,3,15,18,29,16,21,30,25,,,,,,2.0,1.2,1.6*32
$GPRMC,194659.000,A,3748.7584,N,12217.7775,W,2.14,119.28,031212,,,D*7B
$GPVTG,119.28,T,,M,2.14,N,4.0,K,D*08
$GPGGA,194700.000,3748.7581,N,12217.7768,W,2,07,1.2,2.9,M,-25.1,M,1.8,0000*4F
$GPGSA,A,3,15,18,29,16,21,30,25,,,,,,2.0,1.2,1.6*32
$GPRMC,194700.000,A,3748.7581,N,12217.7768,W,2.18,121.64,031212,,,D*70
$GPVTG,121.64,T,,M,2.18,N,4.0,K,D*07
$GPGGA,194701.000,3748.7577,N,12217.7762,W,2,07,1.2,2.6,M,-25.1,M,1.8,0000*42
$GPGSA,A,3,15,18,29,16,21,30,25,,,,,,2.0,1.2,1.6*32
$GPGSV,3,1,12,29,70,109,32,21,57,297,26,18,41,210,34,30,29,294,30*78
$GPGSV,3,2,12,15,28,118,33,05,23,045,18,26,22,079,20,25,21,190,39*7F
$GPGSV,3,3,12,16,12,321,18,22,04,217,28,06,01,311,,48,44,197,38*71
$GPVTG,125.97,T,,M,2.19,N,4.1,K,D*0F
$GPGGA,194702.000,3748.7573,N,12217.7756,W,2,07,1.2,2.4,M,-25.1,M,1.8,0000*40
$GPGSA,A,3,15,18,29,16,21,30,25,,,,,,2.0,1.2,1.6*32
$GPRMC,194702.000,A,3748.7573,N,12217.7756,W,2.14,128.48,031212,,,D*79
$GPVTG,128.48,T,,M,2.14,N,4.0,K,D*0C
$GPGGA,194703.000,3748.7569,N,12217.7750,W,2,07,1.2,2.1,M,-25.1,M,1.8,0000*49
$GPGSA,A,3,15,18,29,16,21,30,25,,,,,,2.0,1.2,1.6*32
$GPRMC,194703.000,A,3748.7569,N,12217.7750,W,2.29,127.39,031212,,,D*72
$GPVTG,127.39,T,,M,2.29,N,4.2,K,D*09
$GPGGA,194704.000,3748.7564,N,12217.7743,W,2,07,1.2,1.8,M,-25.1,M,2.8,0000*48
$GPGSA,A,3,15,18,29,16,21,30,25,,,,,,2.0,1.2,1.6*32
$GPRMC,194704.000,A,3748.7564,N,12217.7743,W,2.33,125.52,031212,,,D*7E
$GPVTG,125.52,T,,M,2.33,N,4.3,K,D*0C
$GPGGA,194705.000,3748.7560,N,12217.7737,W,2,07,1.2,1.5,M,-25.1,M,3.8,0000*42
$GPGSA,A,3,15,18,29,16,21,30,25,,,,,,2.0,1.2,1.6*32
$GPRMC,194705.000,A,3748.7560,N,12217.7737,W,2.23,125.23,031212,,,D*7F
$GPVTG,125.23,T,,M,2.23,N,4.1,K,D*09
$GPGGA,194706.000,3748.7556,N,12217.7731,W,2,07,1.2,1.2,M,-25.1,M,4.8,0000*42
$GPGSA,A,3,15,18,29,16,21,30,25,,,,,,2.0,1.2,1.6*32
$GPGSV,3,1,12,29,70,109,32,21,57,297,26,18,41,210,40,30,29,294,30*7B
$GPGSV,3,2,12,15,28,118,37,05,23,045,19,26,22,079,19,25,21,190,38*71
$GPGSV,3,3,12,16,12,321,18,22,04,217,25,06,01,311,,48,44,197,37*73
$GPRMC,194706.000,A,3748.7556,N,12217.7731,W,2.26,124.96,031212,,,D*75
$GPVTG,124.96,T,,M,2.26,N,4.2,K,D*00
$GPGGA,194707.000,3748.7552,N,12217.7723,W,2,07,1.2,1.0,M,-25.1,M,1.8,0000*43
$GPGSA,A,3,15,18,29,16,21,30,25,,,,,,2.0,1.2,1.6*32
$GPRMC,194707.000,A,3748.7552,N,12217.7723,W,2.37,122.49,031212,,,D*77
$GPVTG,122.49,T,,M,2.37,N,4.4,K,D*02
$GPGGA,194708.000,3748.7549,N,12217.7716,W,2,07,1.2,0.5,M,-25.1,M,1.8,0000*44
$GPGSA,A,3,15,18,29,16,21,30,25,,,,,,2.0,1.2,1.6*32
$GPRMC,194708.000,A,3748.7549,N,12217.7716,W,2.39,116.96,031212,,,D*7F
$GPVTG,116.96,T,,M,2.39,N,4.4,K,D*09
$GPGGA,194709.000,3748.7544,N,12217.7707,W,2,07,1.2,0.6,M,-25.1,M,1.8,0000*4B
$GPGSA,A,3,15,18,29,16,21,30,25,,,,,,2.0,1.2,1.6*32
$GPRMC,194709.000,A,3748.7544,N,12217.7707,W,2.47,111.95,031212,,,D*7E
$GPVTG,111.95,T,,M,2.47,N,4.6,K,D*06
$GPGGA,194710.000,3748.7540,N,12217.7699,W,2,07,1.2,0.4,M,-25.1,M,2.8,0000*40
$GPGSA,A,3,15,18,29,16,21,30,25,,,,,,2.0,1.2,1.6*32
$GPRMC,194710.000,A,3748.7540,N,12217.7699,W,2.15,102.18,031212,,,D*74
$GPVTG,102.18,T,,M,2.15,N,4.0,K,D*00
$GPGGA,194711.000,3748.7536,N,12217.7690,W,2,07,1.2,0.7,M,-25.1,M,3.8,0000*4B
$GPGSA,A,3,15,18,29,16,21,30,25,,,,,,2.0,1.2,1.6*32
$GPGSV,3,1,12,29,70,109,32,21,57,297,26,18,41,210,39,30,29,294,29*7D
$GPGSV,3,2,12,15,28,118,36,05,23,045,20,26,22,079,20,25,21,190,35*7D
$GPGSV,3,3,12,16,12,321,17,22,04,218,24,06,01,311,,48,44,197,37*72
$GPRMC,194711.000,A,3748.7536,N,12217.7690,W,2.05,103.56,031212,,,D*77
$GPVTG,103.56,T,,M,2.05,N,3.8,K,D*05
$GPGGA,194712.000,3748.7532,N,12217.7680,W,2,07,1.2,1.0,M,-25.1,M,4.8,0000*4C
$GPGSA,A,3,15,18,29,16,21,30,25,,,,,,2.0,1.2,1.6*32
$GPRMC,194712.000,A,3748.7532,N,12217.7680,W,2.07,101.75,031212,,,D*70
$GPVTG,101.75,T,,M,2.07,N,3.8,K,D*04
$GPGGA,194713.000,3748.7528,N,12217.7672,W,2,07,1.2,1.0,M,-25.1,M,1.8,0000*4E
$GPGSA,A,3,15,18,29,16,21,30,25,,,,,,2.0,1.2,1.6*32
$GPRMC,194713.000,A,3748.7528,N,12217.7672,W,2.44,113.55,031212,,,D*71
$GPVTG,113.55,T,,M,2.44,N,4.5,K,D*08
$GPGGA,194714.000,3748.7525,N,12217.7665,W,2,07,1.2,0.7,M,-25.1,M,1.8,0000*44
$GPGSA,A,3,15,18,29,16,21,30,25,,,,,,2.0,1.2,1.6*32
$GPRMC,194714.000,A,3748.7525,N,12217.7665,W,2.13,112.20,031212,,,D*7C
$GPVTG,112.20,T,,M,2.13,N,3.9,K,D*02
$GPGGA,194715.000,3748.7522,N,12217.7658,W,2,07,1.2,0.4,M,-25.1,M,1.8,0000*4F
$GPGSA,A,3,15,18,29,16,21,30,25,,,,,,2.0,1.2,1.6*32
$GPRMC,194715.000,A,3748.7522,N,12217.7658,W,2.41,119.19,031212,,,D*72
$GPVTG,119.19,T,,M,2.41,N,4.5,K,D*0F
$GPGGA,194716.000,3748.7519,N,12217.7652,W,2,07,1.2,0.0,M,-25.1,M,2.8,0000*49
$GPGSA,A,3,15,18,29,16,21,30,25,,,,,,2.0,1.2,1.6*32
$GPGSV,3,1,12,29,70,109,32,21,57,297,26,18,41,210,39,30,29,294,29*7D
$GPGSV,3,2,12,15,28,118,31,05,23,045,20,26,22,079,20,25,21,190,29*77
$GPGSV,3,3,12,16,12,321,18,22,04,218,24,06,01,311,,48,44,197,39*73
$GPRMC,194716.000,A,3748.7519,N,12217.7652,W,1.94,113.18,031212,,,D*73
$GPVTG,113.18,T,,M,1.94,N,3.6,K,D*0B
$GPGGA,194717.000,3748.7514,N,12217.7645,W,2,07,1.2,0.1,M,-25.1,M,3.8,0000*43
$GPGSA,A,3,15,18,29,16,21,30,25,,,,,,2.0,1.2,1.6*32
$GPRMC,194717.000,A,3748.7514,N,12217.7645,W,2.54,130.08,031212,,,D*76
$GPVTG,130.08,T,,M,2.54,N,4.7,K,D*02
$GPGGA,194718.000,3748.7509,N,12217.7639,W,2,07,1.2,0.1,M,-25.1,M,4.8,0000*4C
$GPGSA,A,3,15,18,29,16,21,30,25,,,,,,2.0,1.2,1.6*32
$GPRMC,194718.000,A,3748.7509,N,12217.7639,W,2.50,125.49,031212,,,D*7B
$GPVTG,125.49,T,,M,2.50,N,4.6,K,D*06
$GPGGA,194719.000,3748.7505,N,12217.7631,W,2,07,1.2,0.0,M,-25.1,M,1.8,0000*4D
$GPGSA,A,3,15,18,29,16,21,30,25,,,,,,2.0,1.2,1.6*32
$GPRMC,194719.000,A,3748.7505,N,12217.7631,W,2.54,118.62,031212,,,D*7D
$GPVTG,118.62,T,,M,2.54,N,4.7,K,D*04
$GPGGA,194720.000,3748.7501,N,12217.7624,W,2,07,1.2,-0.3,M,-25.1,M,1.8,0000*69
$GPGSA,A,3,15,18,29,16,21,30,25,,,,,,2.0,1.2,1.6*32
$GPRMC,194720.000,A,3748.7501,N,12217.7624,W,2.54,117.76,031212,,,D*7D
$GPVTG,117.76,T,,M,2.54,N,4.7,K,D*0E
$GPGGA,194721.000,3748.7496,N,12217.7615,W,2,07,1.2,-0.1,M,-25.1,M,1.8,0000*67
$GPGSA,A,3,15,18,29,16,21,30,25,,,,,,2.0,1.2,1.6*32
$GPGSV,3,1,12,29,70,109,32,21,57,298,26,18,41,210,36,30,29,294,29*7D
$GPGSV,3,2,12,15,28,118,36,05,23,045,20,26,22,079,20,25,21,190,24*7D
$GPGSV,3,3,12,16,12,321,18,22,04,218,21,06,01,311,,48,44,197,36*79
$GPVTG,112.46,T,,M,2.37,N,4.4,K,D*0E
$GPGGA,194722.000,3748.7493,N,12217.7607,W,2,07,1.2,-0.1,M,-25.1,M,1.8,0000*62
$GPGSA,A,3,15,18,29,16,21,30,25,,,,,,2.0,1.2,1.6*32
$GPRMC,194722.000,A,3748.7493,N,12217.7607,W,2.41,110.02,031212,,,D*74
$GPVTG,110.02,T,,M,2.41,N,4.5,K,D*0C
$GPGGA,194723.000,3748.7489,N,12217.7599,W,2,07,1.2,-0.9,M,-25.1,M,2.8,0000*67
$GPGSA,A,3,15,18,29,16,21,30,25,,,,,,2.0,1.2,1.6*32
$GPRMC,194723.000,A,3748.7489,N,12217.7599,W,1.89,99.76,031212,,,D*4E
$GPVTG,99.76,T,,M,1.89,N,3.5,K,D*3F
$GPGGA,194724.000,3748.7480,N,12217.7589,W,2,07,1.2,0.5,M,-25.1,M,3.8,0000*48
$GPGSA,A,3,15,18,29,16,21,30,25,,,,,,2.0,1.2,1.6*32
$GPRMC,194724.000,A,3748.7480,N,12217.7589,W,1.78,98.90,031212,,,D*46
$GPVTG,98.90,T,,M,1.78,N,3.3,K,D*3E
$GPGGA,194725.000,3748.7478,N,12217.7582,W,2,07,1.2,-0.2,M,-25.1,M,4.8,0000*68
$GPGSA,A,3,15,18,29,16,21,30,25,,,,,,2.0,1.2,1.6*32
$GPRMC,194725.000,A,3748.7478,N,12217.7582,W,1.85,100.85,031212,,,D*7D
$GPVTG,100.85,T,,M,1.85,N,3.4,K,D*0F
$GPGGA,194726.000,3748.7475,N,12217.7578,W,2,07,1.2,0.5,M,-25.1,M,5.8,0000*48
$GPGSA,A,3,15,18,29,16,21,30,25,,,,,,2.0,1.2,1.6*32
$GPGSV,3,1,12,29,70,109,27,21,57,298,25,18,41,210,33,30,29,294,22*74
$GPGSV,3,2,12,15,28,118,25,05,23,045,19,26,22,079,21,25,21,190,22*72
$GPGSV,3,3,12,16,12,321,20,22,04,218,17,06,01,311,,48,44,197,36*77
$GPRMC,194726.000,A,3748.7475,N,12217.7578,W,2.21,123.85,031212,,,D*7A
$GPVTG,123.85,T,,M,2.21,N,4.1,K,D*01
$GPGGA,194727.000,3748.7472,N,12217.7571,W,2,07,1.2,0.8,M,-25.1,M,6.8,0000*49
$GPGSA,A,3,15,18,29,16,21,30,25,,,,,,2.0,1.2,1.6*32
$GPRMC,194727.000,A,3748.7472,N,12217.7571,W,2.02,109.38,031212,,,D*7A
$GPVTG,109.38,T,,M,2.02,N,3.7,K,D*0F
$GPGGA,194728.000,3748.7472,N,12217.7563,W,2,07,1.2,1.2,M,-25.1,M,7.8,0000*4F
$GPGSA,A,3,15,18,29,16,21,30,25,,,,,,2.0,1.2,1.6*32
$GPRMC,194728.000,A,3748.7472,N,12217.7563,W,1.83,96.69,031212,,,D*4F
$GPVTG,96.69,T,,M,1.83,N,3.4,K,D*35
$GPGGA,194729.000,3748.7468,N,12217.7556,W,2,07,1.2,1.4,M,-25.1,M,8.8,0000*4A
$GPGSA,A,3,15,18,29,16,21,30,25,,,,,,2.0,1.2,1.6*32
$GPRMC,194729.000,A,3748.7468,N,12217.7556,W,2.31,115.01,031212,,,D*7D
$GPVTG,115.01,T,,M,2.31,N,4.3,K,D*0B
$GPGGA,194730.000,3748.7462,N,12217.7544,W,2,07,1.2,1.7,M,-25.1,M,9.8,0000*49
$GPGSA,A,3,15,18,29,16,21,30,25,,,,,,2.0,1.2,1.6*32
$GPRMC,194730.000,A,3748.7462,N,12217.7544,W,2.58,118.28,031212,,,D*75
$GPVTG,118.28,T,,M,2.58,N,4.8,K,D*09
$GPGGA,194731.000,3748.7456,N,12217.7535,W,2,07,1.2,2.0,M,-25.1,M,1.8,0000*45
$GPGSA,A,3,15,18,29,16,21,30,25,,,,,,2.0,1.2,1.6*32
$GPGSV,3,1,12,29,70,109,30,21,57,298,29,18,41,210,40,30,29,294,30*79
$GPGSV,3,2,12,15,28,118,28,05,23,045,20,26,22,079,24,25,21,190,37*74
$GPGSV,3,3,12,16,12,321,20,22,04,218,22,06,01,311,,48,44,197,39*7E
$GPRMC,194731.000,A,3748.7456,N,12217.7535,W,2.44,110.22,031212,,,D*7A
$GPVTG,110.22,T,,M,2.44,N,4.5,K,D*0B
$GPGGA,194732.000,3748.7452,N,12217.7527,W,2,07,1.2,2.3,M,-25.1,M,1.8,0000*42
$GPGSA,A,3,15,18,29,16,21,30,25,,,,,,2.0,1.2,1.6*32
$GPRMC,194732.000,A,3748.7452,N,12217.7527,W,2.36,115.42,031212,,,D*78
$GPVTG,115.42,T,,M,2.36,N,4.4,K,D*0C
$GPGGA,194733.000,3748.7448,N,12217.7520,W,2,07,1.2,2.4,M,-25.1,M,1.8,0000*48
$GPGSA,A,3,15,18,29,16,21,30,25,,,,,,2.0,1.2,1.6*32
$GPRMC,194733.000,A,3748.7448,N,12217.7520,W,2.36,116.84,031212,,,D*7C
$GPVTG,116.84,T,,M,2.36,N,4.4,K,D*05
$GPGGA,194734.000,3748.7446,N,12217.7510,W,2,07,1.2,1.8,M,-25.1,M,1.8,0000*4D
$GPGSA,A,3,15,18,29,16,21,30,25,,,,,,2.0,1.2,1.6*32
$GPRMC,194734.000,A,3748.7446,N,12217.7510,W,2.56,118.51,031212,,,D*76
$GPVTG,118.51,T,,M,2.56,N,4.7,K,D*06
$GPGGA,194735.000,3748.7442,N,12217.7502,W,2,07,1.2,1.7,M,-25.1,M,2.8,0000*47
$GPGSA,A,3,15,18,29,16,21,30,25,,,,,,2.0,1.2,1.6*32
$GPRMC,194735.000,A,3748.7442,N,12217.7502,W,2.02,114.36,031212,,,D*7C
$GPVTG,114.36,T,,M,2.02,N,3.7,K,D*0D
$GPGGA,194736.000,3748.7440,N,12217.7497,W,2,07,1.2,1.7,M,-25.1,M,3.8,0000*4A
$GPGSA,A,3,15,18,29,16,21,30,25,,,,,,2.0,1.2,1.6*32
$GPGSV,3,1,12,29,70,109,35,21,57,298,28,18,41,210,40,30,29,294,29*75
$GPGSV,3,2,12,15,28,118,29,05,23,045,22,26,22,079,24,25,21,190,37*77
$GPGSV,3,3,12,16,12,321,20,22,04,218,21,06,01,311,,48,44,197,38*7C
$GPRMC,194736.000,A,3748.7440,N,12217.7497,W,1.69,120.50,031212,,,D*79
$GPVTG,120.50,T,,M,1.69,N,3.1,K,D*02
$GPGGA,194737.000,3748.7437,N,12217.7494,W,2,07,1.2,1.7,M,-25.1,M,4.8,0000*4F
$GPGSA,A,3,15,18,29,16,21,30,25,,,,,,2.0,1.2,1.6*32
$GPRMC,194737.000,A,3748.7437,N,12217.7494,W,0.90,99.10,031212,,,D*4B
$GPVTG,99.10,T,,M,0.90,N,1.7,K,D*36
$GPGGA,194738.000,3748.7435,N,12217.7489,W,2,07,1.2,1.4,M,-25.1,M,5.8,0000*4C
$GPGSA,A,3,15,18,29,16,21,30,25,,,,,,2.0,1.2,1.6*32
$GPRMC,194738.000,A,3748.7435,N,12217.7489,W,1.34,82.68,031212,,,D*40
$GPVTG,82.68,T,,M,1.34,N,2.5,K,D*3D
$GPGGA,194739.000,3748.7433,N,12217.7483,W,2,07,1.2,2.0,M,-25.1,M,1.8,0000*42
$GPGSA,A,3,15,18,29,16,21,30,25,,,,,,2.0,1.2,1.6*32
$GPRMC,194739.000,A,3748.7433,N,12217.7483,W,1.80,95.14,031212,,,D*4F
$GPVTG,95.14,T,,M,1.80,N,3.3,K,D*38
$GPGGA,194740.000,3748.7425,N,12217.7475,W,2,07,1.2,3.1,M,-25.1,M,2.8,0000*41
$GPGSA,A,3,15,18,29,16,21,30,25,,,,,,2.0,1.2,1.6*32
$GPRMC,194740.000,A,3748.7425,N,12217.7475,W,1.81,106.20,031212,,,D*72
$GPVTG,106.20,T,,M,1.81,N,3.3,K,D*05
$GPGGA,194741.000,3748.7419,N,12217.7467,W,2,07,1.2,3.7,M,-25.1,M,1.8,0000*49
$GPGSA,A,3,15,18,29,16,21,30,25,,,,,,2.0,1.2,1.6*32
$GPGSV,3,1,12,29,70,109,29,21,57,298,23,18,41,210,39,30,29,294,26*72
$GPGSV,3,2,12,15,28,118,29,05,23,045,23,26,22,079,25,25,21,190,37*77
$GPGSV,3,3,12,16,12,321,21,22,04,218,20,06,01,311,,48,44,197,38*7C
$GPRMC,194741.000,A,3748.7419,N,12217.7467,W,2.06,105.26,031212,,,D*76
$GPGGA,194742.000,3748.7413,N,12217.7457,W,2,07,1.2,4.3,M,-25.1,M,1.8,0000*40
$GPGSA,A,3,15,18,29,16,21,30,25,,,,,,2.0,1.2,1.6*32
$GPRMC,194742.000,A,3748.7413,N,12217.7457,W,1.79,102.17,031212,,,D*72
$GPVTG,102.17,T,,M,1.79,N,3.3,K,D*02
$GPGGA,194743.000,3748.7409,N,12217.7449,W,2,07,1.2,4.1,M,-25.1,M,1.8,0000*47
$GPGSA,A,3,15,18,29,16,21,30,25,,,,,,2.0,1.2,1.6*32
$GPRMC,194743.000,A,3748.7409,N,12217.7449,W,2.38,104.40,031212,,,D*75
$GPVTG,104.40,T,,M,2.38,N,4.4,K,D*00
$GPGGA,194744.000,3748.7405,N,12217.7440,W,2,07,1.2,3.9,M,-25.1,M,2.8,0000*49
$GPGSA,A,3,15,18,29,16,21,30,25,,,,,,2.0,1.2,1.6*32
$GPRMC,194744.000,A,3748.7405,N,12217.7440,W,2.11,115.05,031212,,,D*7D
$GPVTG,115.05,T,,M,2.11,N,3.9,K,D*00
$GPGGA,194745.000,3748.7401,N,12217.7434,W,2,07,1.2,4.1,M,-25.1,M,3.8,0000*41
