$ADVER,3080,2.3
$GPRMC,204804.197,A,3748.8049,N,12217.8639,W,0.10,345.71,290612,,,A*7C
$GPRMC,204805.197,A,3748.8048,N,12217.8642,W,0.32,224.20,290612,,,A*72
$GPRMC,204806.197,A,3748.8048,N,12217.8643,W,0.04,131.72,290612,,,A*75
$GPRMC,204807.197,A,3748.8050,N,12217.8645,W,0.10,5.52,290612,,,A*7A
$GPRMC,204808.197,A,3748.8051,N,12217.8645,W,0.04,355.66,290612,,,A*70
$GPRMC,204809.197,A,3748.8051,N,12217.8643,W,0.03,224.80,290612,,,A*7F
$GPRMC,204810.197,A,3748.8050,N,12217.8644,W,0.14,174.41,290612,,,A*7C
$GPRMC,204811.197,A,3748.8053,N,12217.8644,W,0.02,314.12,290612,,,A*7B
$GPRMC,204812.197,A,3748.8054,N,12217.8643,W,0.05,198.83,290612,,,A*71
$GPRMC,204813.197,A,3748.8056,N,12217.8642,W,0.03,23.90,290612,,,A*46
$GPRMC,204814.197,A,3748.8057,N,12217.8640,W,0.06,299.46,290612,,,A*7F
$GPRMC,204815.197,A,3748.8058,N,12217.8637,W,0.02,217.98,290612,,,A*70
$GPRMC,204816.197,A,3748.8059,N,12217.8636,W,0.14,304.72,290612,,,A*73
$GPRMC,204817.197,A,3748.8060,N,12217.8634,W,0.02,26.71,290612,,,A*4D
$GPRMC,204818.197,A,3748.8061,N,12217.8632,W,0.06,277.87,290612,,,A*7E
$GPRMC,204819.197,A,3748.8061,N,12217.8632,W,0.08,239.69,290612,,,A*7B
$GPRMC,204820.197,A,3748.8092,N,12217.8625,W,1.18,192.14,290612,,,A*73
$GPRMC,204821.197,A,3748.8077,N,12217.8670,W,1.04,187.48,290612,,,A*79
$GPRMC,204822.197,A,3748.8167,N,12217.8775,W,0.10,175.14,290612,,,A*7E
$GPRMC,204823.197,A,3748.8068,N,12217.8672,W,0.06,318.91,290612,,,A*74
$GPRMC,204824.197,A,3748.8064,N,12217.8651,W,0.05,193.62,290612,,,A*70
$GPRMC,204825.197,A,3748.8085,N,12217.8661,W,0.02,248.82,290612,,,A*71
$GPRMC,204826.197,A,3748.8083,N,12217.8667,W,0.06,258.56,290612,,,A*7E
$GPRMC,204827.197,A,3748.8068,N,12217.8657,W,0.15,59.69,290612,,,A*44
$GPRMC,204828.197,A,3748.8056,N,12217.8645,W,0.08,303.69,290612,,,A*75
$GPRMC,204829.197,A,3748.8061,N,12217.8648,W,0.06,330.51,290612,,,A*78
$GPRMC,204830.197,A,3748.8061,N,12217.8649,W,0.12,184.44,290612,,,A*7D
$GPRMC,204831.197,A,3748.8088,N,12217.8675,W,0.08,356.32,290612,,,A*73
$GPRMC,204832.197,A,3748.8075,N,12217.8666,W,0.06,299.46,290612,,,A*7F
$GPRMC,204833.197,A,3748.8074,N,12217.8667,W,0.07,19.35,290612,,,A*41
$GPRMC,204834.197,A,3748.8074,N,12217.8672,W,0.11,278.06,290612,,,A*70
$GPRMC,204835.197,A,3748.8075,N,12217.8672,W,0.06,155.81,290612,,,D*70
$GPRMC,204836.197,A,3748.8077,N,12217.8673,W,0.05,44.70,290612,,,D*4C
$GPRMC,204837.197,A,3748.8073,N,12217.8668,W,0.05,160.31,290612,,,D*71
$GPRMC,204838.197,A,3748.8074,N,12217.8666,W,0.11,335.30,290612,,,D*71
$GPRMC,204839.197,A,3748.8073,N,12217.8664,W,0.00,335.30,290612,,,D*75
$GPRMC,204840.197,A,3748.8073,N,12217.8663,W,0.10,327.04,290612,,,D*79
$GPRMC,204841.197,A,3748.8056,N,12217.8727,W,0.23,258.80,290612,,,D*7B
$GPRMC,204842.197,A,3748.8049,N,12217.8752,W,0.08,272.81,290612,,,D*74
$GPRMC,204843.197,A,3748.8051,N,12217.8748,W,0.03,244.62,290612,,,D*74
$GPRMC,204844.197,A,3748.8055,N,12217.8742,W,0.20,298.03,290612,,,D*7A
$GPRMC,204845.197,A,3748.8051,N,12217.8728,W,0.25,342.02,290612,,,D*71
$GPRMC,204846.197,A,3748.8026,N,12217.8693,W,0.31,140.43,290612,,,D*73
$GPRMC,204847.197,A,3748.8034,N,12217.8688,W,0.04,229.25,290612,,,D*71
$GPRMC,204848.197,A,3748.8044,N,12217.8695,W,0.08,3.09,290612,,,D*7D
$GPRMC,204849.197,A,3748.8047,N,12217.8698,W,0.23,172.17,290612,,,D*73
$GPRMC,204850.197,A,3748.8052,N,12217.8706,W,0.31,326.18,290612,,,D*76
$GPRMC,204851.197,A,3748.8052,N,12217.8712,W,0.18,57.28,290612,,,D*4F
$GPRMC,204852.197,A,3748.8001,N,12217.8660,W,0.07,63.04,290612,,,D*49
$GPRMC,204853.197,A,3748.8001,N,12217.8656,W,0.12,254.26,290612,,,D*7F
$GPRMC,204854.197,A,3748.8002,N,12217.8654,W,0.09,310.45,290612,,,D*77
$GPRMC,204855.000,A,3748.8003,N,12217.8654,W,0.10,239.60,290612,,,D*7D
$GPRMC,204856.000,A,3748.8003,N,12217.8653,W,0.07,328.16,290612,,,D*7F
$GPRMC,204857.000,A,3748.8004,N,12217.8651,W,0.04,92.32,290612,,,A*49
$GPRMC,204858.000,A,3748.8005,N,12217.8649,W,0.14,31.82,290612,,,A*4D
$GPRMC,204859.000,A,3748.8005,N,12217.8647,W,0.16,46.52,290612,,,A*4D
$GPRMC,204900.000,A,3748.8006,N,12217.8646,W,0.18,67.92,290612,,,A*43
$GPRMC,204901.000,A,3748.8006,N,12217.8643,W,0.31,91.51,290612,,,A*4A
$GPRMC,204902.000,A,3748.8005,N,12217.8641,W,0.72,135.49,290612,,,A*79
$GPRMC,204903.000,A,3748.8007,N,12217.8639,W,1.00,108.80,290612,,,A*7A
$GPRMC,204904.000,A,3748.8003,N,12217.8631,W,2.07,113.24,290612,,,A*71
$GPRMC,204905.000,A,3748.8005,N,12217.8622,W,1.92,115.93,290612,,,A*71
$GPRMC,204906.000,A,3748.8006,N,12217.8610,W,2.47,109.51,290612,,,A*78
$GPRMC,204907.000,A,3748.8004,N,12217.8584,W,3.33,102.39,290612,,,A*72
$GPRMC,204908.000,A,3748.8001,N,12217.8560,W,3.32,110.44,290612,,,A*7A
$GPRMC,204909.000,A,3748.7999,N,12217.8539,W,3.01,107.13,290612,,,A*74
$GPRMC,204910.000,A,3748.7997,N,12217.8537,W,1.86,118.83,290612,,,A*76
$GPRMC,204911.000,A,3748.7989,N,12217.8532,W,1.95,125.53,290612,,,A*7C
$GPRMC,204912.000,A,3748.7986,N,12217.8521,W,1.94,117.08,290612,,,A*7C
$GPRMC,204913.000,A,3748.7986,N,12217.8507,W,2.33,101.85,290612,,,A*75
$GPRMC,204914.000,A,3748.7984,N,12217.8493,W,2.52,110.30,290612,,,A*75
$GPRMC,204915.000,A,3748.7978,N,12217.8486,W,2.22,115.18,290612,,,A*7B
$GPRMC,204916.000,A,3748.7970,N,12217.8485,W,2.26,115.05,290612,,,A*7B
$GPRMC,204917.000,A,3748.7960,N,12217.8489,W,1.94,131.28,290612,,,A*74
$GPRMC,204918.000,A,3748.7948,N,12217.8487,W,2.13,128.67,290612,,,A*70
$GPRMC,204919.000,A,3748.7938,N,12217.8477,W,2.08,126.25,290612,,,A*7B
$GPRMC,204920.000,A,3748.7934,N,12217.8472,W,1.80,129.66,290612,,,A*73
$GPRMC,204921.000,A,3748.7930,N,12217.8466,W,1.80,133.71,290612,,,A*7E
$GPRMC,204922.000,A,3748.7924,N,12217.8454,W,2.05,122.08,290612,,,A*79
$GPRMC,204923.000,A,3748.7923,N,12217.8446,W,1.99,119.17,290612,,,A*7C
$GPRMC,204924.000,A,3748.7917,N,12217.8438,W,2.59,127.03,290612,,,A*72
$GPRMC,204925.000,A,3748.7908,N,12217.8425,W,2.59,120.23,290612,,,A*74
$GPRMC,204926.000,A,3748.7901,N,12217.8413,W,2.39,120.31,290612,,,A*7E
$GPRMC,204927.000,A,3748.7895,N,12217.8411,W,1.47,130.17,290612,,,A*7E
$GPRMC,204928.000,A,3748.7895,N,12217.8405,W,1.20,137.10,290612,,,A*75
$GPRMC,204929.000,A,3748.7900,N,12217.8406,W,1.25,111.22,290612,,,A*7A
$GPRMC,204930.000,A,3748.7900,N,12217.8405,W,1.05,125.98,290612,,,A*75
$GPRMC,204931.000,A,3748.7899,N,12217.8404,W,1.62,119.51,290612,,,A*7F
$GPRMC,204932.000,A,3748.7895,N,12217.8399,W,1.66,105.02,290612,,,A*7C
$GPRMC,204933.000,A,3748.7894,N,12217.8396,W,1.97,113.87,290612,,,A*77
$GPRMC,204934.000,A,3748.7888,N,12217.8385,W,2.32,114.34,290612,,,A*7C
$GPRMC,204935.000,A,3748.7886,N,12217.8380,W,1.99,118.34,290612,,,A*78
$GPRMC,204936.000,A,3748.7878,N,12217.8374,W,1.65,118.60,290612,,,A*73
$GPRMC,204937.000,A,3748.7872,N,12217.8368,W,1.59,118.54,290612,,,A*7D
$GPRMC,204938.000,A,3748.7866,N,12217.8361,W,1.61,124.82,290612,,,A*71
$GPRMC,204939.000,A,3748.7861,N,12217.8356,W,1.90,116.31,290612,,,A*74
$GPRMC,204940.000,A,3748.7856,N,12217.8349,W,2.27,125.17,290612,,,A*7B
$GPRMC,204941.000,A,3748.7848,N,12217.8339,W,3.07,124.72,290612,,,A*73
$GPRMC,204942.000,A,3748.7840,N,12217.8330,W,2.47,125.23,290612,,,A*71
$GPRMC,204943.000,A,3748.7832,N,12217.8319,W,2.60,125.70,290612,,,A*7D
$GPRMC,204944.000,A,3748.7824,N,12217.8309,W,2.15,121.48,290612,,,D*74
$GPRMC,204945.000,A,3748.7822,N,12217.8302,W,1.35,116.08,290612,,,D*79
$GPRMC,204946.000,A,3748.7821,N,12217.8298,W,0.96,131.33,290612,,,D*7E
$GPRMC,204947.000,A,3748.7821,N,12217.8293,W,1.54,120.96,290612,,,D*74
$GPRMC,204948.000,A,3748.7816,N,12217.8291,W,1.42,134.10,290612,,,D*71
$GPRMC,204949.000,A,3748.7814,N,12217.8290,W,1.20,131.64,290612,,,D*71
$GPRMC,204950.000,A,3748.7813,N,12217.8285,W,1.92,123.15,290612,,,D*76
$GPRMC,204951.000,A,3748.7816,N,12217.8286,W,0.92,122.55,290612,,,D*75
$GPRMC,204952.000,A,3748.7819,N,12217.8288,W,1.08,123.81,290612,,,D*7D
$GPRMC,204953.000,A,3748.7822,N,12217.8287,W,1.20,90.27,290612,,,D*44
$GPRMC,204954.000,A,3748.7829,N,12217.8282,W,0.38,24.59,290612,,,D*43
$GPRMC,204955.000,A,3748.7839,N,12217.8285,W,0.43,351.27,290612,,,D*70
$GPRMC,204956.000,A,3748.7846,N,12217.8288,W,0.67,355.20,290612,,,D*73
$GPRMC,204957.000,A,3748.7849,N,12217.8289,W,0.63,0.44,290612,,,D*79
$GPRMC,204958.000,A,3748.7851,N,12217.8290,W,0.64,12.07,290612,,,D*44
$GPRMC,204959.000,A,3748.7852,N,12217.8292,W,0.56,356.03,290612,,,D*72
$GPRMC,205000.000,A,3748.7852,N,12217.8294,W,0.17,0.67,290612,,,D*77
$GPRMC,205001.000,A,3748.7852,N,12217.8292,W,0.55,72.44,290612,,,D*42
$GPRMC,205002.000,A,3748.7847,N,12217.8286,W,1.16,96.15,290612,,,D*48
$GPRMC,205003.000,A,3748.7843,N,12217.8283,W,1.04,98.74,290612,,,D*42
$GPRMC,205004.000,A,3748.7838,N,12217.8274,W,1.82,100.44,290612,,,D*7C
$GPRMC,205005.000,A,3748.7832,N,12217.8264,W,2.06,105.57,290612,,,D*7E
$GPRMC,205006.000,A,3748.7833,N,12217.8252,W,1.96,98.57,290612,,,D*46
$GPRMC,205007.000,A,3748.7831,N,12217.8243,W,1.74,106.12,290612,,,D*7E
$GPRMC,205008.000,A,3748.7821,N,12217.8232,W,1.90,104.22,290612,,,D*7D
$GPRMC,205009.000,A,3748.7814,N,12217.8222,W,1.84,121.16,290612,,,D*7E
$GPRMC,205010.000,A,3748.7809,N,12217.8213,W,1.72,119.35,290612,,,D*7B
$GPRMC,205011.000,A,3748.7807,N,12217.8206,W,1.88,123.17,290612,,,D*7C
$GPRMC,205012.000,A,3748.7803,N,12217.8200,W,1.99,111.37,290612,,,D*7E
$GPRMC,205013.000,A,3748.7797,N,12217.8188,W,2.47,116.77,290612,,,D*7D
$GPRMC,205014.000,A,3748.7796,N,12217.8184,W,2.00,121.19,290612,,,D*78
$GPRMC,205015.000,A,3748.7791,N,12217.8178,W,1.96,125.86,290612,,,D*73
$GPRMC,205016.000,A,3748.7786,N,12217.8172,W,1.94,116.09,290612,,,D*79
$GPRMC,205017.000,A,3748.7786,N,12217.8171,W,2.10,119.68,290612,,,D*7C
$GPRMC,205018.000,A,3748.7789,N,12217.8165,W,1.96,115.35,290612,,,D*70
$GPRMC,205019.000,A,3748.7785,N,12217.8162,W,2.04,117.90,290612,,,D*7F
$GPRMC,205020.000,A,3748.7785,N,12217.8158,W,1.81,118.84,290612,,,D*78
$GPRMC,205021.000,A,3748.7780,N,12217.8151,W,2.16,108.53,290612,,,D*73
$GPRMC,205022.000,A,3748.7778,N,12217.8144,W,1.87,115.11,290612,,,D*72
$GPRMC,205023.000,A,3748.7771,N,12217.8137,W,1.91,117.34,290612,,,D*7C
$GPRMC,205024.000,A,3748.7771,N,12217.8132,W,1.91,120.43,290612,,,D*7A
$GPRMC,205025.000,A,3748.7768,N,12217.8127,W,1.34,115.12,290612,,,D*7A
$GPRMC,205026.000,A,3748.7763,N,12217.8121,W,1.14,117.11,290612,,,D*77
$GPRMC,205027.000,A,3748.7761,N,12217.8117,W,0.74,111.44,290612,,,D*70
$GPRMC,205028.000,A,3748.7758,N,12217.8112,W,0.37,108.68,290612,,,D*71
$GPRMC,205029.000,A,3748.7762,N,12217.8111,W,0.73,94.07,290612,,,D*47
$GPRMC,205030.000,A,3748.7765,N,12217.8108,W,0.52,95.98,290612,,,D*44
$GPRMC,205031.000,A,3748.7765,N,12217.8104,W,0.23,57.14,290612,,,D*45
$GPRMC,205032.000,A,3748.7763,N,12217.8103,W,0.32,137.01,290612,,,D*74
$GPRMC,205033.000,A,3748.7765,N,12217.8104,W,0.18,125.58,290612,,,D*73
$GPRMC,205034.000,A,3748.7763,N,12217.8102,W,0.74,109.48,290612,,,D*71
$GPRMC,205035.000,A,3748.7762,N,12217.8099,W,1.14,98.64,290612,,,D*42
$GPRMC,205036.000,A,3748.7758,N,12217.8093,W,2.00,116.02,290612,,,D*73
$GPRMC,205037.000,A,3748.7752,N,12217.8087,W,1.99,114.15,290612,,,D*7A
$GPRMC,205038.000,A,3748.7747,N,12217.8082,W,1.72,111.02,290612,,,D*72
$GPRMC,205039.000,A,3748.7748,N,12217.8082,W,1.54,129.19,290612,,,D*79
$GPRMC,205040.000,A,3748.7742,N,12217.8076,W,1.90,124.90,290612,,,D*72
$GPRMC,205041.000,A,3748.7738,N,12217.8070,W,1.94,120.80,290612,,,D*79
$GPRMC,205042.000,A,3748.7730,N,12217.8062,W,1.91,128.56,290612,,,D*77
$GPRMC,205043.000,A,3748.7724,N,12217.8056,W,2.04,124.41,290612,,,D*71
$GPRMC,205044.000,A,3748.7719,N,12217.8049,W,1.95,115.23,290612,,,D*7B
$GPRMC,205045.000,A,3748.7714,N,12217.8041,W,2.60,124.78,290612,,,D*7A
$GPRMC,205046.000,A,3748.7707,N,12217.8031,W,2.45,123.92,290612,,,D*78
$GPRMC,205047.000,A,3748.7706,N,12217.8027,W,2.24,128.90,290612,,,D*71
$GPRMC,205048.000,A,3748.7702,N,12217.8021,W,2.49,122.56,290612,,,D*77
$GPRMC,205049.000,A,3748.7698,N,12217.8015,W,2.03,120.24,290612,,,D*7A
$GPRMC,205050.000,A,3748.7696,N,12217.8010,W,2.25,124.20,290612,,,D*7D
$GPRMC,205051.000,A,3748.7689,N,12217.8001,W,2.24,121.98,290612,,,D*75
$GPRMC,205052.000,A,3748.7688,N,12217.7994,W,2.01,118.98,290612,,,D*70
$GPRMC,205053.000,A,3748.7687,N,12217.7988,W,1.79,116.17,290612,,,D*76
$GPRMC,205054.000,A,3748.7686,N,12217.7981,W,2.16,113.23,290612,,,D*71
$GPRMC,205055.000,A,3748.7686,N,12217.7973,W,1.56,109.48,290612,,,D*7C
$GPRMC,205056.000,A,3748.7685,N,12217.7967,W,1.97,118.76,290612,,,D*79
$GPRMC,205057.000,A,3748.7680,N,12217.7958,W,1.82,119.20,290612,,,D*77
$GPRMC,205058.000,A,3748.7673,N,12217.7949,W,1.66,125.29,290612,,,D*78
$GPRMC,205059.000,A,3748.7668,N,12217.7943,W,2.09,128.42,290612,,,D*73
$GPRMC,205100.000,A,3748.7663,N,12217.7936,W,1.89,117.15,290612,,,D*72
$GPRMC,205101.000,A,3748.7657,N,12217.7923,W,2.65,116.49,290612,,,D*79
$GPRMC,205102.000,A,3748.7650,N,12217.7912,W,2.47,125.29,290612,,,D*79
$GPRMC,205103.000,A,3748.7643,N,12217.7901,W,2.11,124.63,290612,,,D*74
$GPRMC,205104.000,A,3748.7641,N,12217.7896,W,1.81,111.44,290612,,,D*77
$GPRMC,205105.000,A,3748.7639,N,12217.7892,W,1.81,110.84,290612,,,D*70
$GPRMC,205106.000,A,3748.7638,N,12217.7887,W,1.93,121.14,290612,,,D*7E
$GPRMC,205107.000,A,3748.7636,N,12217.7883,W,1.72,124.95,290612,,,D*76
$GPRMC,205108.000,A,3748.7633,N,12217.7879,W,2.16,119.57,290612,,,D*78
$GPRMC,205109.000,A,3748.7628,N,12217.7874,W,1.79,116.06,290612,,,D*7F
$GPRMC,205110.000,A,3748.7624,N,12217.7869,W,2.33,117.86,290612,,,D*73
$GPRMC,205111.000,A,3748.7617,N,12217.7864,W,2.09,126.77,290612,,,D*7A
$GPRMC,205112.000,A,3748.7615,N,12217.7858,W,2.23,115.15,290612,,,D*78
$GPRMC,205113.000,A,3748.7612,N,12217.7852,W,1.95,123.26,290612,,,D*7F
$GPRMC,205114.000,A,3748.7600,N,12217.7838,W,1.96,125.41,290612,,,D*73
$GPRMC,205115.000,A,3748.7599,N,12217.7832,W,2.50,113.86,290612,,,D*7C
$GPRMC,205116.000,A,3748.7596,N,12217.7826,W,2.26,115.53,290612,,,D*7A
$GPRMC,205117.000,A,3748.7595,N,12217.7820,W,1.80,114.59,290612,,,D*7A
$GPRMC,205118.000,A,3748.7593,N,12217.7817,W,1.73,110.20,290612,,,D*71
$GPRMC,205119.000,A,3748.7587,N,12217.7804,W,1.90,113.45,290612,,,D*7A
$GPRMC,205120.000,A,3748.7582,N,12217.7801,W,1.89,119.26,290612,,,D*77
$GPRMC,205121.000,A,3748.7573,N,12217.7794,W,2.44,118.94,290612,,,D*71
$GPRMC,205122.000,A,3748.7567,N,12217.7791,W,2.06,134.68,290612,,,D*79
$GPRMC,205123.000,A,3748.7556,N,12217.7780,W,2.57,139.56,290612,,,D*7E
$GPRMC,205124.000,A,3748.7548,N,12217.7775,W,2.41,130.59,290612,,,D*7D
$GPRMC,205125.000,A,3748.7534,N,12217.7765,W,2.44,127.96,290612,,,D*76
$GPRMC,205126.000,A,3748.7523,N,12217.7756,W,2.63,127.75,290612,,,D*7B
$GPRMC,205127.000,A,3748.7514,N,12217.7750,W,2.35,137.41,290612,,,D*7D
$GPRMC,205128.000,A,3748.7504,N,12217.7742,W,2.51,126.46,290612,,,D*75
$GPRMC,205129.000,A,3748.7495,N,12217.7727,W,3.44,124.20,290612,,,D*79
$GPRMC,205130.000,A,3748.7484,N,12217.7717,W,3.18,132.55,290612,,,D*7E
$GPRMC,205131.000,A,3748.7474,N,12217.7707,W,3.00,129.66,290612,,,D*72
$GPRMC,205132.000,A,3748.7464,N,12217.7693,W,3.21,126.74,290612,,,D*73
$GPRMC,205133.000,A,3748.7459,N,12217.7691,W,2.74,142.99,290612,,,D*7E
$GPRMC,205134.000,A,3748.7449,N,12217.7679,W,2.91,137.75,290612,,,D*75
$GPRMC,205135.000,A,3748.7444,N,12217.7677,W,2.68,137.94,290612,,,D*7E
$GPRMC,205136.000,A,3748.7445,N,12217.7678,W,2.20,140.88,290612,,,D*72
$GPRMC,205137.000,A,3748.7444,N,12217.7671,W,2.81,119.13,290612,,,D*7E
$GPRMC,205138.000,A,3748.7444,N,12217.7677,W,2.23,126.94,290612,,,D*7C
$GPRMC,205139.000,A,3748.7441,N,12217.7674,W,2.05,132.11,290612,,,D*77
$GPRMC,205140.000,A,3748.7442,N,12217.7675,W,2.07,120.51,290612,,,D*7E
$GPRMC,205141.000,A,3748.7442,N,12217.7674,W,1.65,127.10,290612,,,D*7B
$GPRMC,205142.000,A,3748.7447,N,12217.7669,W,1.75,100.55,290612,,,D*74
$GPRMC,205143.000,A,3748.7446,N,12217.7663,W,1.81,101.24,290612,,,D*72
$GPRMC,205144.000,A,3748.7442,N,12217.7649,W,1.97,106.34,290612,,,D*78
$GPRMC,205145.000,A,3748.7441,N,12217.7639,W,1.94,113.62,290612,,,D*79
$GPRMC,205146.000,A,3748.7444,N,12217.7635,W,1.84,116.42,290612,,,D*75
$GPRMC,205147.000,A,3748.7445,N,12217.7628,W,1.83,115.22,290612,,,D*7B
$GPRMC,205148.000,A,3748.7449,N,12217.7630,W,1.65,115.11,290612,,,D*79
$GPRMC,205149.000,A,3748.7447,N,12217.7629,W,1.43,128.85,290612,,,D*79
$GPRMC,205150.000,A,3748.7444,N,12217.7618,W,1.54,113.14,290612,,,D*76
$GPRMC,205151.000,A,3748.7440,N,12217.7607,W,1.84,97.30,290612,,,D*4B
$GPRMC,205152.000,A,3748.7438,N,12217.7595,W,2.16,92.35,290612,,,D*47
$GPRMC,205153.000,A,3748.7433,N,12217.7584,W,1.72,106.65,290612,,,D*75
$GPRMC,205154.000,A,3748.7428,N,12217.7577,W,1.45,138.90,290612,,,D*77
$GPRMC,205155.000,A,3748.7424,N,12217.7576,W,1.45,137.15,290612,,,D*79
$GPRMC,205156.000,A,3748.7416,N,12217.7564,W,1.42,128.44,290612,,,D*75
$GPRMC,205157.000,A,3748.7415,N,12217.7557,W,1.56,120.34,290612,,,D*7D
$GPRMC,205158.000,A,3748.7417,N,12217.7548,W,1.67,108.95,290612,,,D*7D
$GPRMC,205159.000,A,3748.7419,N,12217.7539,W,1.39,114.13,290612,,,D*7C
$GPRMC,205200.000,A,3748.7416,N,12217.7531,W,1.59,113.17,290612,,,D*71
$GPRMC,205201.000,A,3748.7415,N,12217.7524,W,1.52,107.38,290612,,,D*74
$GPRMC,205202.000,A,3748.7414,N,12217.7518,W,1.41,107.74,290612,,,D*73
$GPRMC,205203.000,A,3748.7411,N,12217.7511,W,1.19,111.18,290612,,,D*7E
$GPRMC,205204.000,A,3748.7414,N,12217.7509,W,0.88,95.70,290612,,,D*4F
$GPRMC,205205.000,A,3748.7411,N,12217.7501,W,1.01,84.62,290612,,,D*40
$GPRMC,205206.000,A,3748.7407,N,12217.7493,W,0.99,88.16,290612,,,D*41
$GPRMC,205207.000,A,3748.7408,N,12217.7488,W,1.22,89.28,290612,,,D*48
$GPRMC,205208.000,A,3748.7405,N,12217.7485,W,1.21,96.12,290612,,,D*43
$GPRMC,205209.000,A,3748.7402,N,12217.7482,W,1.02,126.30,290612,,,D*79
$GPRMC,205210.000,A,3748.7403,N,12217.7479,W,1.18,110.85,290612,,,D*74
$GPRMC,205211.000,A,3748.7398,N,12217.7476,W,1.59,115.62,290612,,,D*76
$GPRMC,205212.000,A,3748.7396,N,12217.7474,W,1.30,100.82,290612,,,D*7C
$GPRMC,205213.000,A,3748.7396,N,12217.7472,W,1.14,109.39,290612,,,D*74
$GPRMC,205214.000,A,3748.7396,N,12217.7469,W,0.91,103.46,290612,,,D*77
$GPRMC,205215.000,A,3748.7393,N,12217.7468,W,0.73,110.09,290612,,,D*77
$GPRMC,205216.000,A,3748.7392,N,12217.7469,W,1.02,116.78,290612,,,D*73
$GPRMC,205217.000,A,3748.7393,N,12217.7463,W,0.77,120.01,290612,,,D*71
$GPRMC,205218.000,A,3748.7396,N,12217.7456,W,0.47,84.12,290612,,,D*43
$GPRMC,205219.000,A,3748.7394,N,12217.7450,W,0.80,97.31,290612,,,D*4E
$GPRMC,205220.000,A,3748.7388,N,12217.7439,W,1.47,112.47,290612,,,D*71
$GPRMC,205221.000,A,3748.7385,N,12217.7430,W,1.32,104.10,290612,,,D*73
$GPRMC,205222.000,A,3748.7385,N,12217.7422,W,1.47,96.37,290612,,,D*4E
$GPRMC,205223.000,A,3748.7382,N,12217.7415,W,1.39,84.64,290612,,,D*40
$GPRMC,205224.000,A,3748.7384,N,12217.7409,W,1.18,84.08,290612,,,D*45
$GPRMC,205225.000,A,3748.7384,N,12217.7406,W,0.63,76.91,290612,,,D*4B
$GPRMC,205226.000,A,3748.7385,N,12217.7400,W,1.15,65.78,290612,,,D*4A
$GPRMC,205227.000,A,3748.7385,N,12217.7396,W,0.95,115.54,290612,,,D*72
$GPRMC,205228.000,A,3748.7383,N,12217.7391,W,0.83,115.38,290612,,,D*71
$GPRMC,205229.000,A,3748.7385,N,12217.7382,W,1.14,84.47,290612,,,D*4A
$GPRMC,205230.000,A,3748.7384,N,12217.7373,W,1.04,103.95,290612,,,D*7D
$GPRMC,205231.000,A,3748.7385,N,12217.7368,W,0.75,62.98,290612,,,D*4B
$GPRMC,205232.000,A,3748.7381,N,12217.7361,W,0.97,95.43,290612,,,D*47
$GPRMC,205233.000,A,3748.7380,N,12217.7359,W,0.69,125.91,290612,,,D*78
$GPRMC,205234.000,A,3748.7376,N,12217.7356,W,0.84,74.26,290612,,,D*43
$GPRMC,205235.000,A,3748.7377,N,12217.7354,W,0.87,71.57,290612,,,D*41
$GPRMC,205236.000,A,3748.7376,N,12217.7349,W,0.84,86.56,290612,,,D*45
$GPRMC,205237.000,A,3748.7372,N,12217.7339,W,0.95,91.86,290612,,,D*4C
$GPRMC,205238.000,A,3748.7368,N,12217.7331,W,0.74,113.97,290612,,,D*74
$GPRMC,205239.000,A,3748.7368,N,12217.7325,W,0.78,85.31,290612,,,D*4E
$GPRMC,205240.000,A,3748.7369,N,12217.7319,W,0.92,76.26,290612,,,D*40
$GPRMC,205241.000,A,3748.7367,N,12217.7313,W,1.47,108.04,290612,,,D*74
$GPRMC,205242.000,A,3748.7365,N,12217.7307,W,1.42,98.10,290612,,,D*48
$GPRMC,205243.000,A,3748.7363,N,12217.7304,W,1.15,87.35,290612,,,D*47
$GPRMC,205244.000,A,3748.7363,N,12217.7298,W,1.49,100.67,290612,,,D*74
$GPRMC,205245.000,A,3748.7358,N,12217.7295,W,1.04,116.99,290612,,,D*7F
$GPRMC,205246.000,A,3748.7355,N,12217.7289,W,1.23,105.64,290612,,,D*79
$GPRMC,205247.000,A,3748.7351,N,12217.7281,W,1.31,105.42,290612,,,D*73
$GPRMC,205248.000,A,3748.7348,N,12217.7274,W,1.64,99.93,290612,,,D*46
$GPRMC,205249.000,A,3748.7346,N,12217.7267,W,1.27,105.35,290612,,,D*74
$GPRMC,205250.000,A,3748.7342,N,12217.7260,W,1.47,109.08,290612,,,D*7B
$GPRMC,205251.000,A,3748.7339,N,12217.7254,W,1.27,111.57,290612,,,D*74
$GPRMC,205252.000,A,3748.7337,N,12217.7249,W,1.14,111.18,290612,,,D*7E
$GPRMC,205253.000,A,3748.7336,N,12217.7243,W,1.17,103.45,290612,,,D*7C
$GPRMC,205254.000,A,3748.7333,N,12217.7237,W,0.90,105.52,290612,,,D*73
$GPRMC,205255.000,A,3748.7331,N,12217.7234,W,1.21,115.63,290612,,,D*7B
$GPRMC,205256.000,A,3748.7329,N,12217.7230,W,1.08,106.01,290612,,,D*78
$GPRMC,205257.000,A,3748.7327,N,12217.7224,W,1.11,101.24,290612,,,D*7A
$GPRMC,205258.000,A,3748.7324,N,12217.7219,W,1.18,107.29,290612,,,D*7A
$GPRMC,205259.000,A,3748.7323,N,12217.7213,W,1.36,109.83,290612,,,D*74
$GPRMC,205300.000,A,3748.7321,N,12217.7207,W,1.59,82.57,290612,,,D*4C
$GPRMC,205301.000,A,3748.7322,N,12217.7199,W,1.88,55.78,290612,,,D*41
$GPRMC,205302.000,A,3748.7324,N,12217.7192,W,2.30,33.82,290612,,,D*4A
$GPRMC,205303.000,A,3748.7323,N,12217.7180,W,2.04,21.35,290612,,,D*47
$GPRMC,205304.000,A,3748.7323,N,12217.7169,W,1.29,40.22,290612,,,D*4A
$GPRMC,205305.000,A,3748.7329,N,12217.7163,W,2.44,34.77,290612,,,D*40
$GPRMC,205306.000,A,3748.7335,N,12217.7157,W,2.50,32.71,290612,,,D*4C
$GPRMC,205307.000,A,3748.7340,N,12217.7154,W,1.95,27.77,290612,,,D*44
$GPRMC,205308.000,A,3748.7345,N,12217.7149,W,2.18,23.48,290612,,,D*4C
$GPRMC,205309.000,A,3748.7349,N,12217.7143,W,2.32,29.10,290612,,,D*44
$GPRMC,205310.000,A,3748.7355,N,12217.7138,W,1.73,22.23,290612,,,D*40
$GPRMC,205311.000,A,3748.7359,N,12217.7134,W,2.14,22.54,290612,,,D*43
$GPRMC,205312.000,A,3748.7362,N,12217.7130,W,1.73,32.61,290612,,,D*49
$GPRMC,205313.000,A,3748.7356,N,12217.7116,W,1.86,33.64,290612,,,D*45
$GPRMC,205314.000,A,3748.7355,N,12217.7105,W,2.23,38.14,290612,,,D*43
$GPRMC,205315.000,A,3748.7356,N,12217.7098,W,1.76,37.21,290612,,,D*4E
$GPRMC,205316.000,A,3748.7356,N,12217.7092,W,1.70,31.79,290612,,,D*4A
$GPRMC,205317.000,A,3748.7357,N,12217.7087,W,1.61,42.46,290612,,,D*46
$GPRMC,205318.000,A,3748.7362,N,12217.7082,W,1.73,34.25,290612,,,D*4D
$GPRMC,205319.000,A,3748.7365,N,12217.7076,W,1.62,30.43,290612,,,A*41
$GPRMC,205320.000,A,3748.7370,N,12217.7072,W,1.50,29.81,290612,,,A*4C
$GPRMC,205321.000,A,3748.7375,N,12217.7069,W,1.64,37.92,290612,,,A*48
$GPRMC,205322.000,A,3748.7377,N,12217.7068,W,1.61,34.91,290612,,,A*4D
$GPRMC,205323.000,A,3748.7380,N,12217.7064,W,2.10,35.73,290612,,,A*40
$GPRMC,205324.000,A,3748.7387,N,12217.7056,W,2.41,36.86,290612,,,A*4C
$GPRMC,205325.000,A,3748.7394,N,12217.7049,W,2.61,35.56,290612,,,A*4D
$GPRMC,205326.000,A,3748.7399,N,12217.7043,W,1.87,36.21,290612,,,A*41
$GPRMC,205327.000,A,3748.7405,N,12217.7038,W,1.70,27.42,290612,,,A*43
$GPRMC,205328.000,A,3748.7409,N,12217.7036,W,1.56,39.10,290612,,,A*42
$GPRMC,205329.000,A,3748.7403,N,12217.7025,W,1.05,54.55,290612,,,A*47
$GPRMC,205330.000,A,3748.7410,N,12217.7021,W,0.99,35.00,290612,,,A*4A
$GPRMC,205331.000,A,3748.7414,N,12217.7018,W,1.07,47.57,290612,,,A*44
$GPRMC,205332.000,A,3748.7416,N,12217.7017,W,0.30,55.09,290612,,,A*47
$GPRMC,205333.000,A,3748.7421,N,12217.7015,W,0.21,54.39,290612,,,A*42
$GPRMC,205334.000,A,3748.7427,N,12217.7014,W,0.38,15.92,290612,,,A*4E
$GPRMC,205335.000,A,3748.7431,N,12217.7012,W,0.17,26.85,290612,,,A*45
$GPRMC,205336.000,A,3748.7435,N,12217.7011,W,0.26,16.33,290612,,,A*4D
$GPRMC,205337.000,A,3748.7437,N,12217.7011,W,0.29,334.27,290612,,,A*77
$GPRMC,205338.000,A,3748.7437,N,12217.7011,W,0.12,313.90,290612,,,A*79
$GPRMC,205339.000,A,3748.7435,N,12217.7012,W,0.12,266.50,290612,,,A*76
$GPRMC,205340.000,A,3748.7434,N,12217.7013,W,0.19,270.44,290612,,,A*71
$GPRMC,205341.000,A,3748.7432,N,12217.7013,W,0.16,170.51,290612,,,A*7E
$GPRMC,205342.000,A,3748.7430,N,12217.7019,W,0.32,222.91,290612,,,A*7B
$GPRMC,205343.000,A,3748.7434,N,12217.7021,W,0.21,175.42,290612,,,A*78
$GPRMC,205344.000,A,3748.7431,N,12217.7021,W,0.65,12.36,290612,,,A*49
$GPRMC,205345.000,A,3748.7431,N,12217.7014,W,0.87,64.01,290612,,,A*47
$GPRMC,205346.000,A,3748.7430,N,12217.7005,W,1.38,50.28,290612,,,A*4C
$GPRMC,205347.000,A,3748.7431,N,12217.6997,W,1.71,47.30,290612,,,A*4D
$GPRMC,205348.000,A,3748.7434,N,12217.6992,W,1.82,33.78,290612,,,A*41
$GPRMC,205349.000,A,3748.7440,N,12217.6989,W,2.29,25.26,290612,,,A*47
$GPRMC,205350.000,A,3748.7445,N,12217.6985,W,1.70,21.49,290612,,,A*44
$GPRMC,205351.000,A,3748.7449,N,12217.6983,W,1.30,37.68,290612,,,A*4F
$GPRMC,205352.000,A,3748.7456,N,12217.6985,W,1.65,20.77,290612,,,A*4C
$GPRMC,205353.000,A,3748.7463,N,12217.6982,W,1.13,42.02,290612,,,A*4B
$GPRMC,205354.000,A,3748.7470,N,12217.6975,W,0.77,42.02,290612,,,A*45
$GPRMC,205355.000,A,3748.7472,N,12217.6967,W,1.94,25.96,290612,,,A*45
$GPRMC,205356.000,A,3748.7482,N,12217.6961,W,1.69,33.85,290612,,,A*48
$GPRMC,205357.000,A,3748.7488,N,12217.6956,W,1.77,22.83,290612,,,A*4E
$GPRMC,205358.000,A,3748.7492,N,12217.6952,W,1.95,31.37,290612,,,A*4F
$GPRMC,205359.000,A,3748.7497,N,12217.6948,W,1.92,37.19,290612,,,A*4D
$GPRMC,205400.000,A,3748.7503,N,12217.6944,W,2.08,46.04,290612,,,A*4C
$GPRMC,205401.000,A,3748.7508,N,12217.6938,W,2.23,42.00,290612,,,A*44
$GPRMC,205402.000,A,3748.7513,N,12217.6931,W,2.44,43.36,290612,,,A*41
$GPRMC,205403.000,A,3748.7520,N,12217.6926,W,2.38,32.53,290612,,,A*48
$GPRMC,205404.000,A,3748.7534,N,12217.6928,W,2.34,27.45,290612,,,A*4B
$GPRMC,205405.000,A,3748.7543,N,12217.6926,W,2.49,27.82,290612,,,A*45
$GPRMC,205406.000,A,3748.7552,N,12217.6923,W,2.54,26.33,290612,,,A*44
$GPRMC,205407.000,A,3748.7562,N,12217.6922,W,2.25,21.07,290612,,,A*41
$GPRMC,205408.000,A,3748.7567,N,12217.6918,W,2.09,22.43,290612,,,A*4F
$GPRMC,205409.000,A,3748.7572,N,12217.6912,W,2.19,32.74,290612,,,A*44
$GPRMC,205410.000,A,3748.7574,N,12217.6905,W,1.49,38.65,290612,,,A*40
$GPRMC,205411.000,A,3748.7577,N,12217.6895,W,2.19,26.77,290612,,,A*40
$GPRMC,205412.000,A,3748.7582,N,12217.6890,W,2.28,23.06,290612,,,A*4D
$GPRMC,205413.000,A,3748.7588,N,12217.6886,W,1.90,25.31,290612,,,A*43
$GPRMC,205414.000,A,3748.7593,N,12217.6882,W,1.87,31.99,290612,,,A*4B
$GPRMC,205415.000,A,3748.7598,N,12217.6878,W,2.35,19.86,290612,,,A*4A
$GPRMC,205416.000,A,3748.7603,N,12217.6874,W,2.27,30.05,290612,,,A*47
$GPRMC,205417.000,A,3748.7609,N,12217.6871,W,2.46,30.07,290612,,,A*4C
$GPRMC,205418.000,A,3748.7617,N,12217.6867,W,2.39,26.62,290612,,,A*47
$GPRMC,205419.000,A,3748.7622,N,12217.6863,W,2.30,26.64,290612,,,A*4B
$GPRMC,205420.000,A,3748.7623,N,12217.6857,W,1.92,28.58,290612,,,A*4D
$GPRMC,205421.000,A,3748.7627,N,12217.6854,W,2.44,30.09,290612,,,A*4E
$GPRMC,205422.000,A,3748.7632,N,12217.6852,W,2.47,19.24,290612,,,A*48
$GPRMC,205423.000,A,3748.7641,N,12217.6848,W,2.10,26.26,290612,,,A*4A
$GPRMC,205424.000,A,3748.7651,N,12217.6846,W,2.34,21.14,290612,,,A*42
$GPRMC,205425.000,A,3748.7652,N,12217.6840,W,1.95,41.76,290612,,,A*4C
$GPRMC,205426.000,A,3748.7660,N,12217.6837,W,2.17,43.89,290612,,,A*45
$GPRMC,205427.000,A,3748.7672,N,12217.6832,W,2.14,40.11,290612,,,A*43
$GPRMC,205428.000,A,3748.7679,N,12217.6827,W,2.58,33.14,290612,,,A*4A
$GPRMC,205429.000,A,3748.7685,N,12217.6822,W,2.55,31.67,290612,,,A*46
$GPRMC,205430.000,A,3748.7690,N,12217.6818,W,2.25,28.77,290612,,,A*4D
$GPRMC,205431.000,A,3748.7695,N,12217.6814,W,1.92,30.45,290612,,,A*42
$GPRMC,205432.000,A,3748.7701,N,12217.6811,W,2.42,24.20,290612,,,D*45
$GPRMC,205433.000,A,3748.7708,N,12217.6807,W,2.17,30.57,290612,,,D*4F
$GPRMC,205434.000,A,3748.7715,N,12217.6802,W,2.13,29.38,290612,,,D*44
$GPRMC,205435.000,A,3748.7721,N,12217.6797,W,2.33,32.01,290612,,,D*43
$GPRMC,205436.000,A,3748.7726,N,12217.6794,W,1.78,27.94,290612,,,D*40
$GPRMC,205437.000,A,3748.7731,N,12217.6790,W,1.98,32.93,290612,,,D*4E
$GPRMC,205438.000,A,3748.7738,N,12217.6785,W,2.29,32.15,290612,,,D*4B
$GPRMC,205439.000,A,3748.7744,N,12217.6780,W,2.36,31.64,290612,,,D*4F
$GPRMC,205440.000,A,3748.7750,N,12217.6775,W,2.33,26.79,290612,,,D*41
$GPRMC,205441.000,A,3748.7756,N,12217.6769,W,2.31,24.47,290612,,,D*46
$GPRMC,205442.000,A,3748.7762,N,12217.6764,W,2.16,31.02,290612,,,D*4F
$GPRMC,205443.000,A,3748.7768,N,12217.6760,W,1.95,23.93,290612,,,D*43
$GPRMC,205444.000,A,3748.7772,N,12217.6757,W,2.16,27.54,290612,,,D*4C
$GPRMC,205445.000,A,3748.7778,N,12217.6753,W,2.29,26.23,290612,,,D*4E
$GPRMC,205446.000,A,3748.7783,N,12217.6749,W,2.26,25.38,290612,,,D*44
$GPRMC,205447.000,A,3748.7789,N,12217.6744,W,1.58,34.49,290612,,,D*4E
$GPRMC,205448.000,A,3748.7793,N,12217.6739,W,2.06,31.95,290612,,,D*4C
$GPRMC,205449.000,A,3748.7798,N,12217.6735,W,1.84,32.30,290612,,,D*4F
$GPRMC,205450.000,A,3748.7803,N,12217.6731,W,1.90,28.84,290612,,,D*4F
$GPRMC,205451.000,A,3748.7808,N,12217.6726,W,1.46,47.10,290612,,,D*4C
$GPRMC,205452.000,A,3748.7812,N,12217.6723,W,1.72,19.81,290612,,,D*45
$GPRMC,205453.000,A,3748.7817,N,12217.6720,W,1.83,23.09,290612,,,D*45
$GPRMC,205454.000,A,3748.7821,N,12217.6717,W,1.86,29.01,290612,,,D*44
$GPRMC,205455.000,A,3748.7827,N,12217.6713,W,2.16,27.01,290612,,,D*43
$GPRMC,205456.000,A,3748.7831,N,12217.6709,W,1.74,30.83,290612,,,D*47
$GPRMC,205457.000,A,3748.7836,N,12217.6706,W,1.39,30.97,290612,,,D*42
$GPRMC,205458.000,A,3748.7838,N,12217.6701,W,1.38,32.59,290612,,,D*45
$GPRMC,205459.000,A,3748.7839,N,12217.6698,W,1.53,36.12,290612,,,D*42
$GPRMC,205500.000,A,3748.7843,N,12217.6694,W,1.48,35.61,290612,,,D*43
$GPRMC,205501.000,A,3748.7846,N,12217.6690,W,1.30,35.11,290612,,,D*4B
$GPRMC,205502.000,A,3748.7849,N,12217.6686,W,1.37,39.41,290612,,,D*4E
$GPRMC,205503.000,A,3748.7853,N,12217.6682,W,1.72,28.35,290612,,,D*42
$GPRMC,205504.000,A,3748.7857,N,12217.6678,W,1.60,31.87,290612,,,D*46
$GPRMC,205505.000,A,3748.7862,N,12217.6674,W,1.93,24.08,290612,,,D*42
$GPRMC,205506.000,A,3748.7869,N,12217.6669,W,2.13,29.57,290612,,,D*4A
$GPRMC,205507.000,A,3748.7875,N,12217.6665,W,2.14,27.13,290612,,,D*43
$GPRMC,205508.000,A,3748.7879,N,12217.6661,W,1.99,29.87,290612,,,D*41
$GPRMC,205509.000,A,3748.7884,N,12217.6657,W,2.06,35.45,290612,,,D*41
$GPRMC,205510.000,A,3748.7890,N,12217.6653,W,2.03,26.59,290612,,,D*42
$GPRMC,205511.000,A,3748.7896,N,12217.6650,W,2.19,21.46,290612,,,D*44
$GPRMC,205512.000,A,3748.7902,N,12217.6645,W,2.05,32.57,290612,,,D*40
$GPRMC,205513.000,A,3748.7907,N,12217.6640,W,1.99,38.07,290612,,,D*48
$GPRMC,205514.000,A,3748.7912,N,12217.6636,W,1.92,17.18,290612,,,D*42
$GPRMC,205515.000,A,3748.7917,N,12217.6634,W,1.89,19.73,290612,,,D*4D
$GPRMC,205516.000,A,3748.7925,N,12217.6630,W,1.73,17.78,290612,,,D*4B
$GPRMC,205517.000,A,3748.7927,N,12217.6628,W,0.58,17.95,290612,,,D*4A
$GPRMC,205518.000,A,3748.7930,N,12217.6626,W,1.31,44.86,290612,,,D*47
$GPRMC,205519.000,A,3748.7933,N,12217.6623,W,1.49,61.20,290612,,,D*44
$GPRMC,205520.000,A,3748.7935,N,12217.6620,W,1.39,45.01,290612,,,D*49
$GPRMC,205521.000,A,3748.7941,N,12217.6616,W,1.68,31.98,290612,,,D*49
$GPRMC,205522.000,A,3748.7945,N,12217.6612,W,1.66,35.12,290612,,,D*42
$GPRMC,205523.000,A,3748.7949,N,12217.6607,W,1.58,37.10,290612,,,D*46
$GPRMC,205524.000,A,3748.7955,N,12217.6603,W,2.06,24.20,290612,,,D*41
$GPRMC,205525.000,A,3748.7964,N,12217.6596,W,2.26,31.88,290612,,,D*49
$GPRMC,205526.000,A,3748.7970,N,12217.6591,W,1.78,29.29,290612,,,D*42
$GPRMC,205527.000,A,3748.7976,N,12217.6587,W,1.68,19.59,290612,,,D*47
$GPRMC,205528.000,A,3748.7981,N,12217.6583,W,1.56,42.78,290612,,,D*44
$GPRMC,205529.000,A,3748.7984,N,12217.6579,W,1.49,44.93,290612,,,D*48
$GPRMC,205530.000,A,3748.7988,N,12217.6575,W,1.57,43.29,290612,,,D*49
$GPRMC,205531.000,A,3748.7993,N,12217.6570,W,1.67,34.86,290612,,,D*41
$GPRMC,205532.000,A,3748.7998,N,12217.6565,W,1.34,33.38,290612,,,D*49
$GPRMC,205533.000,A,3748.7998,N,12217.6563,W,0.90,25.50,290612,,,D*48
$GPRMC,205534.000,A,3748.8000,N,12217.6562,W,0.16,2.71,290612,,,D*71
$GPRMC,205535.000,A,3748.8001,N,12217.6562,W,0.09,187.76,290612,,,D*74
$GPRMC,205536.000,A,3748.8003,N,12217.6563,W,0.33,270.16,290612,,,D*70
$GPRMC,205537.000,A,3748.8005,N,12217.6563,W,0.57,347.90,290612,,,D*7E
$GPRMC,205538.000,A,3748.8006,N,12217.6565,W,0.23,21.33,290612,,,D*4D
$GPRMC,205539.000,A,3748.8011,N,12217.6564,W,0.16,0.70,290612,,,D*79
$GPRMC,205540.000,A,3748.8012,N,12217.6564,W,0.28,344.01,290612,,,D*7C
$GPRMC,205541.000,A,3748.8014,N,12217.6564,W,0.17,319.49,290612,,,D*73
$GPRMC,205542.000,A,3748.8015,N,12217.6564,W,0.25,47.56,290612,,,D*46
$GPRMC,205543.000,A,3748.8017,N,12217.6564,W,0.28,80.15,290612,,,D*44
$GPRMC,205544.000,A,3748.8016,N,12217.6563,W,0.43,67.62,290612,,,D*41
$GPRMC,205545.000,A,3748.8018,N,12217.6559,W,1.32,50.45,290612,,,D*41
$GPRMC,205546.000,A,3748.8021,N,12217.6556,W,1.50,32.84,290612,,,D*4A
$GPRMC,205547.000,A,3748.8025,N,12217.6552,W,1.67,34.77,290612,,,D*45
$GPRMC,205548.000,A,3748.8029,N,12217.6548,W,1.62,33.81,290612,,,D*46
$GPRMC,205549.000,A,3748.8033,N,12217.6544,W,1.72,34.93,290612,,,D*45
$GPRMC,205550.000,A,3748.8036,N,12217.6539,W,1.95,52.26,290612,,,A*40
$GPRMC,205551.000,A,3748.8040,N,12217.6535,W,1.75,40.13,290612,,,A*47
$GPRMC,205552.000,A,3748.8043,N,12217.6531,W,1.88,34.50,290612,,,A*45
$GPRMC,205553.000,A,3748.8047,N,12217.6526,W,1.87,46.38,290612,,,A*42
$GPRMC,205554.000,A,3748.8050,N,12217.6519,W,1.53,46.43,290612,,,A*4A
$GPRMC,205555.000,A,3748.8053,N,12217.6515,W,1.46,57.21,290612,,,A*44
$GPRMC,205556.000,A,3748.8056,N,12217.6508,W,1.56,57.85,290612,,,A*41
$GPRMC,205557.000,A,3748.8058,N,12217.6503,W,1.71,57.59,290612,,,A*41
$GPRMC,205558.000,A,3748.8060,N,12217.6498,W,1.81,55.23,290612,,,A*46
$GPRMC,205559.000,A,3748.8063,N,12217.6497,W,1.62,49.80,290612,,,A*42
$GPRMC,205600.000,A,3748.8065,N,12217.6493,W,1.61,39.87,290612,,,A*4C
$GPRMC,205601.000,A,3748.8066,N,12217.6488,W,1.20,46.91,290612,,,A*4E
$GPRMC,205602.000,A,3748.8068,N,12217.6486,W,0.45,37.56,290612,,,A*42
$GPRMC,205603.000,A,3748.8068,N,12217.6485,W,0.57,107.92,290612,,,A*79
$GPRMC,205604.000,A,3748.8067,N,12217.6482,W,1.02,82.93,290612,,,A*4A
$GPRMC,205605.000,A,3748.8064,N,12217.6472,W,0.86,76.51,290612,,,A*4F
$GPRMC,205606.000,A,3748.8060,N,12217.6462,W,0.97,112.69,290612,,,A*71
$GPRMC,205607.000,A,3748.8057,N,12217.6454,W,1.68,110.26,290612,,,A*79
$GPRMC,205608.000,A,3748.8055,N,12217.6443,W,1.81,98.59,290612,,,A*4C
$GPRMC,205609.000,A,3748.8055,N,12217.6437,W,1.77,94.97,290612,,,A*49
$GPRMC,205610.000,A,3748.8056,N,12217.6434,W,1.52,99.02,290612,,,A*47
$GPRMC,205611.000,A,3748.8058,N,12217.6436,W,1.05,108.11,290612,,,A*73
$GPRMC,205612.000,A,3748.8059,N,12217.6434,W,0.78,85.23,290612,,,A*4D
$GPRMC,205613.000,A,3748.8058,N,12217.6427,W,0.84,40.81,290612,,,A*4D
$GPRMC,205614.000,A,3748.8060,N,12217.6424,W,1.72,1.27,290612,,,A*73
$GPRMC,205615.000,A,3748.8062,N,12217.6416,W,2.14,25.59,290612,,,A*4D
$GPRMC,205616.000,A,3748.8065,N,12217.6405,W,2.54,57.67,290612,,,A*47
$GPRMC,205617.000,A,3748.8072,N,12217.6392,W,3.07,52.28,290612,,,A*40
$GPRMC,205618.000,A,3748.8082,N,12217.6380,W,3.51,42.45,290612,,,A*4A
$GPRMC,205619.000,A,3748.8089,N,12217.6373,W,3.07,28.73,290612,,,A*46
$GPRMC,205620.000,A,3748.8101,N,12217.6369,W,3.42,15.82,290612,,,A*47
$GPRMC,205621.000,A,3748.8108,N,12217.6370,W,2.16,21.77,290612,,,A*4A
$GPRMC,205622.000,A,3748.8116,N,12217.6366,W,1.98,47.93,290612,,,A*4E
$GPRMC,205623.000,A,3748.8121,N,12217.6370,W,1.24,17.44,290612,,,A*44
$GPRMC,205624.000,A,3748.8121,N,12217.6370,W,1.06,12.04,290612,,,A*42
$GPRMC,205625.000,A,3748.8120,N,12217.6367,W,0.78,96.11,290612,,,A*44
$GPRMC,205626.000,A,3748.8125,N,12217.6372,W,0.30,68.68,290612,,,A*45
$GPRMC,205627.000,A,3748.8129,N,12217.6379,W,0.33,269.67,290612,,,A*7C
$GPRMC,205628.000,A,3748.8131,N,12217.6384,W,0.44,158.03,290612,,,A*7B
$GPRMC,205629.000,A,3748.8132,N,12217.6383,W,0.10,127.73,290612,,,A*70
$GPRMC,205630.000,A,3748.8139,N,12217.6380,W,1.10,341.84,290612,,,A*7B
$GPRMC,205631.000,A,3748.8146,N,12217.6378,W,1.77,30.55,290612,,,A*4D
$GPRMC,205632.000,A,3748.8154,N,12217.6367,W,2.65,25.37,290612,,,A*43
$GPRMC,205633.000,A,3748.8177,N,12217.6358,W,3.64,20.12,290612,,,A*4D
$GPRMC,205634.000,A,3748.8190,N,12217.6348,W,3.75,22.40,290612,,,A*47
$GPRMC,205635.000,A,3748.8198,N,12217.6340,W,3.46,23.36,290612,,,A*46
$GPRMC,205636.000,A,3748.8208,N,12217.6341,W,2.63,22.27,290612,,,A*49
$GPRMC,205637.000,A,3748.8213,N,12217.6338,W,1.23,38.39,290612,,,A*4F
$GPRMC,205638.000,A,3748.8220,N,12217.6332,W,1.15,65.18,290612,,,A*44
$GPRMC,205639.000,A,3748.8224,N,12217.6327,W,0.63,105.17,290612,,,A*7D
$GPRMC,205640.000,A,3748.8228,N,12217.6324,W,1.02,127.13,290612,,,A*7E
$GPRMC,205641.000,A,3748.8224,N,12217.6322,W,1.23,163.99,290612,,,A*74
$GPRMC,205642.000,A,3748.8221,N,12217.6320,W,1.43,167.72,290612,,,A*77
$GPRMC,205643.000,A,3748.8215,N,12217.6321,W,2.00,178.56,290612,,,A*7C
$GPRMC,205644.000,A,3748.8210,N,12217.6320,W,1.74,189.82,290612,,,A*78
$GPRMC,205645.000,A,3748.8209,N,12217.6325,W,1.17,236.87,290612,,,A*73
$GPRMC,205646.000,A,3748.8209,N,12217.6326,W,0.56,299.25,290612,,,A*7A
$GPRMC,205647.000,A,3748.8211,N,12217.6329,W,0.24,36.99,290612,,,A*48
$GPRMC,205648.000,A,3748.8213,N,12217.6329,W,0.98,102.44,290612,,,A*74
$GPRMC,205649.000,A,3748.8216,N,12217.6326,W,1.26,109.88,290612,,,A*70
$GPRMC,205650.000,A,3748.8229,N,12217.6322,W,1.02,91.59,290612,,,A*4A
$GPRMC,205651.000,A,3748.8231,N,12217.6318,W,1.20,105.22,290612,,,A*7B
$GPRMC,205652.000,A,3748.8233,N,12217.6312,W,1.35,61.97,290612,,,A*49
$GPRMC,205653.000,A,3748.8234,N,12217.6308,W,1.66,53.60,290612,,,A*4B
$GPRMC,205654.000,A,3748.8240,N,12217.6303,W,2.34,33.44,290612,,,A*40
$GPRMC,205655.000,A,3748.8251,N,12217.6302,W,2.67,32.38,290612,,,A*4C
$GPRMC,205656.000,A,3748.8264,N,12217.6293,W,2.34,31.98,290612,,,A*4F
$GPRMC,205657.000,A,3748.8274,N,12217.6288,W,2.21,26.98,290612,,,A*47
$GPRMC,205658.000,A,3748.8286,N,12217.6289,W,3.08,22.49,290612,,,A*46
$GPRMC,205659.000,A,3748.8301,N,12217.6287,W,3.26,17.78,290612,,,A*4F
$GPRMC,205700.000,A,3748.8313,N,12217.6285,W,3.22,14.21,290612,,,A*48
$GPRMC,205701.000,A,3748.8329,N,12217.6280,W,3.38,20.53,290612,,,A*4C
$GPRMC,205702.000,A,3748.8340,N,12217.6278,W,4.03,12.10,290612,,,A*4E
$GPRMC,205703.000,A,3748.8351,N,12217.6275,W,3.77,14.50,290612,,,A*44
$GPRMC,205704.000,A,3748.8361,N,12217.6271,W,3.52,17.58,290612,,,A*48
$GPRMC,205705.000,A,3748.8367,N,12217.6268,W,3.12,14.64,290612,,,A*4F
$GPRMC,205706.000,A,3748.8374,N,12217.6264,W,3.53,17.33,290612,,,A*46
$GPRMC,205707.000,A,3748.8378,N,12217.6261,W,2.22,26.22,290612,,,A*4B
$GPRMC,205708.000,A,3748.8386,N,12217.6261,W,2.26,28.67,290612,,,A*4E
$GPRMC,205709.000,A,3748.8391,N,12217.6257,W,2.42,43.59,290612,,,A*4E
$GPRMC,205710.000,A,3748.8397,N,12217.6250,W,2.26,44.24,290612,,,A*48
$GPRMC,205711.000,A,3748.8409,N,12217.6253,W,2.05,10.19,290612,,,A*44
$GPRMC,205712.000,A,3748.8418,N,12217.6255,W,2.31,14.47,290612,,,A*49
$GPRMC,205713.000,A,3748.8429,N,12217.6254,W,2.41,25.50,290612,,,A*48
$GPRMC,205714.000,A,3748.8438,N,12217.6250,W,3.32,10.07,290612,,,A*4A
$GPRMC,205715.000,A,3748.8444,N,12217.6245,W,2.88,32.45,290612,,,A*42
$GPRMC,205716.000,A,3748.8449,N,12217.6235,W,2.25,58.52,290612,,,A*46
$GPRMC,205717.000,A,3748.8450,N,12217.6229,W,1.57,64.43,290612,,,A*4B
$GPRMC,205718.000,A,3748.8459,N,12217.6224,W,2.06,62.30,290612,,,A*45
$GPRMC,205719.000,A,3748.8459,N,12217.6219,W,1.84,43.79,290612,,,A*4D
$GPRMC,205720.000,A,3748.8465,N,12217.6210,W,2.13,41.79,290612,,,A*4E
$GPRMC,205721.000,A,3748.8463,N,12217.6201,W,1.64,42.58,290612,,,A*4A
$GPRMC,205722.000,A,3748.8461,N,12217.6188,W,2.08,49.91,290612,,,A*4E
$GPRMC,205723.000,A,3748.8455,N,12217.6177,W,1.41,78.05,290612,,,A*49
$GPRMC,205724.000,A,3748.8451,N,12217.6168,W,1.48,76.48,290612,,,A*4A
$GPRMC,205725.000,A,3748.8446,N,12217.6154,W,1.49,82.71,290612,,,A*42
$GPRMC,205726.000,A,3748.8446,N,12217.6145,W,1.45,79.94,290612,,,A*42
$GPRMC,205727.000,A,3748.8438,N,12217.6135,W,1.99,116.65,290612,,,A*7A
$GPRMC,205728.000,A,3748.8432,N,12217.6127,W,1.61,123.47,290612,,,A*7D
$GPRMC,205729.000,A,3748.8427,N,12217.6119,W,1.75,113.94,290612,,,A*7D
$GPRMC,205730.000,A,3748.8422,N,12217.6110,W,1.78,106.59,290612,,,A*71
$GPRMC,205731.000,A,3748.8420,N,12217.6101,W,1.46,106.96,290612,,,A*7C
$GPRMC,205732.000,A,3748.8415,N,12217.6093,W,1.67,108.44,290612,,,A*71
$GPRMC,205733.000,A,3748.8414,N,12217.6082,W,1.85,110.43,290612,,,A*73
$GPRMC,205734.000,A,3748.8421,N,12217.6068,W,1.71,125.93,290612,,,A*76
$GPRMC,205735.000,A,3748.8417,N,12217.6058,W,1.47,96.39,290612,,,A*4D
$GPRMC,205736.000,A,3748.8411,N,12217.6049,W,2.01,107.56,290612,,,A*79
$GPRMC,205737.000,A,3748.8406,N,12217.6040,W,2.04,116.18,290612,,,A*78
$GPRMC,205738.000,A,3748.8401,N,12217.6031,W,2.30,109.93,290612,,,A*7C
$GPRMC,205739.000,A,3748.8394,N,12217.6022,W,2.48,120.71,290612,,,A*7C
$GPRMC,205740.000,A,3748.8388,N,12217.6014,W,2.34,126.24,290612,,,A*77
$GPRMC,205741.000,A,3748.8372,N,12217.6013,W,2.04,121.40,290612,,,A*72
$GPRMC,205742.000,A,3748.8357,N,12217.6013,W,2.42,124.93,290612,,,A*7F
$GPRMC,205743.000,A,3748.8345,N,12217.6010,W,2.26,114.33,290612,,,A*75
$GPRMC,205744.000,A,3748.8337,N,12217.6005,W,1.97,116.27,290612,,,A*7D
$GPRMC,205745.000,A,3748.8333,N,12217.5997,W,2.11,118.29,290612,,,A*74
$GPRMC,205746.000,A,3748.8322,N,12217.5994,W,1.87,121.08,290612,,,A*71
$GPRMC,205747.000,A,3748.8314,N,12217.5991,W,1.88,117.02,290612,,,A*70
$GPRMC,205748.000,A,3748.8308,N,12217.5988,W,1.76,99.80,290612,,,A*46
$GPRMC,205749.000,A,3748.8305,N,12217.5984,W,1.81,71.57,290612,,,A*42
$GPRMC,205750.000,A,3748.8303,N,12217.5978,W,2.29,77.05,290612,,,A*4F
$GPRMC,205751.000,A,3748.8302,N,12217.5972,W,2.02,76.82,290612,,,A*42
$GPRMC,205752.000,A,3748.8300,N,12217.5965,W,2.11,87.64,290612,,,A*41
$GPRMC,205753.000,A,3748.8300,N,12217.5959,W,1.99,72.38,290612,,,A*4F
$GPRMC,205754.000,A,3748.8301,N,12217.5951,W,1.88,70.55,290612,,,A*48
$GPRMC,205755.000,A,3748.8301,N,12217.5944,W,1.94,66.22,290612,,,A*47
$GPRMC,205756.000,A,3748.8302,N,12217.5936,W,2.04,63.08,290612,,,A*45
$GPRMC,205757.000,A,3748.8305,N,12217.5930,W,2.25,51.48,290612,,,A*43
$GPRMC,205758.000,A,3748.8308,N,12217.5923,W,2.20,45.18,290612,,,A*46
$GPRMC,205759.000,A,3748.8313,N,12217.5918,W,2.39,35.67,290612,,,A*42
$GPRMC,205800.000,A,3748.8316,N,12217.5914,W,1.97,41.72,290612,,,A*48
$GPRMC,205801.000,A,3748.8321,N,12217.5908,W,2.09,31.96,290612,,,A*49
$GPRMC,205802.000,A,3748.8325,N,12217.5904,W,1.93,34.66,290612,,,A*48
$GPRMC,205803.000,A,3748.8327,N,12217.5899,W,1.48,75.65,290612,,,A*4E
$GPRMC,205804.000,A,3748.8326,N,12217.5892,W,1.81,104.52,290612,,,A*75
$GPRMC,205805.000,A,3748.8324,N,12217.5885,W,1.85,102.68,290612,,,A*7B
$GPRMC,205806.000,A,3748.8322,N,12217.5877,W,1.85,103.03,290612,,,A*7F
$GPRMC,205807.000,A,3748.8320,N,12217.5870,W,1.51,108.19,290612,,,D*77
$GPRMC,205808.000,A,3748.8318,N,12217.5864,W,1.60,109.19,290612,,,D*75
$GPRMC,205809.000,A,3748.8316,N,12217.5856,W,1.55,113.22,290612,,,D*7E
$GPRMC,205810.000,A,3748.8311,N,12217.5848,W,1.88,118.24,290612,,,D*73
$GPRMC,205811.000,A,3748.8308,N,12217.5842,W,2.11,120.27,290612,,,D*7B
$GPRMC,205812.000,A,3748.8300,N,12217.5828,W,2.02,120.71,290612,,,D*7D
$GPRMC,205813.000,A,3748.8295,N,12217.5820,W,1.77,117.17,290612,,,D*7C
$GPRMC,205814.000,A,3748.8292,N,12217.5815,W,1.49,125.17,290612,,,D*76
$GPRMC,205815.000,A,3748.8290,N,12217.5811,W,1.56,117.22,290612,,,D*78
$GPRMC,205816.000,A,3748.8288,N,12217.5805,W,1.35,131.73,290612,,,D*72
$GPRMC,205817.000,A,3748.8283,N,12217.5798,W,1.89,132.83,290612,,,D*78
$GPRMC,205818.000,A,3748.8277,N,12217.5789,W,1.87,132.35,290612,,,D*7F
$GPRMC,205819.000,A,3748.8272,N,12217.5781,W,2.04,123.04,290612,,,D*79
$GPRMC,205820.000,A,3748.8268,N,12217.5772,W,2.05,112.66,290612,,,D*73
$GPRMC,205821.000,A,3748.8264,N,12217.5762,W,2.27,118.42,290612,,,D*73
$GPRMC,205822.000,A,3748.8261,N,12217.5756,W,1.95,115.63,290612,,,D*76
$GPRMC,205823.000,A,3748.8259,N,12217.5752,W,1.61,116.21,290612,,,D*76
$GPRMC,205824.000,A,3748.8253,N,12217.5744,W,1.49,121.71,290612,,,D*77
$GPRMC,205825.000,A,3748.8247,N,12217.5735,W,2.09,126.16,290612,,,D*74
$GPRMC,205826.000,A,3748.8240,N,12217.5725,W,2.04,122.60,290612,,,D*79
$GPRMC,205827.000,A,3748.8234,N,12217.5716,W,2.19,116.73,290612,,,D*72
$GPRMC,205828.000,A,3748.8229,N,12217.5708,W,2.13,114.84,290612,,,D*7E
$GPRMC,205829.000,A,3748.8225,N,12217.5702,W,2.03,119.78,290612,,,D*76
$GPRMC,205830.000,A,3748.8220,N,12217.5696,W,1.96,130.43,290612,,,D*7B
$GPRMC,205831.000,A,3748.8218,N,12217.5692,W,1.68,134.83,290612,,,D*7C
$GPRMC,205832.000,A,3748.8215,N,12217.5689,W,1.55,137.28,290612,,,D*74
$GPRMC,205833.000,A,3748.8216,N,12217.5690,W,1.27,136.63,290612,,,D*75
$GPRMC,205834.000,A,3748.8214,N,12217.5685,W,1.49,119.99,290612,,,D*74
$GPRMC,205835.000,A,3748.8208,N,12217.5677,W,1.01,120.89,290612,,,D*72
$GPRMC,205836.000,A,3748.8206,N,12217.5674,W,0.98,129.28,290612,,,D*7F
$GPRMC,205837.000,A,3748.8202,N,12217.5668,W,0.77,90.22,290612,,,D*4F
$GPRMC,205838.000,A,3748.8197,N,12217.5658,W,0.80,91.80,290612,,,D*4D
$GPRMC,205839.000,A,3748.8193,N,12217.5651,W,0.87,98.52,290612,,,D*40
$GPRMC,205839.000,A,3748.8192,N,12217.5648,W,1.28,101.12,290612,,,D*78
$GPRMC,205840.000,A,3748.8192,N,12217.5650,W,0.88,133.61,290612,,,D*71
$GPRMC,205841.000,A,3748.8189,N,12217.5649,W,0.34,127.58,290612,,,D*7A
$GPRMC,205842.000,A,3748.8189,N,12217.5649,W,0.13,248.07,290612,,,D*7C
$GPRMC,205843.000,A,3748.8184,N,12217.5648,W,0.36,212.87,290612,,,D*71
$GPRMC,205844.000,A,3748.8180,N,12217.5645,W,1.00,121.41,290612,,,D*72
$GPRMC,205845.000,A,3748.8177,N,12217.5638,W,1.39,126.83,290612,,,D*72
$GPRMC,205846.000,A,3748.8172,N,12217.5632,W,1.53,145.62,290612,,,D*78
$GPRMC,205847.000,A,3748.8174,N,12217.5635,W,1.55,139.98,290612,,,D*70
$GPRMC,205848.000,A,3748.8173,N,12217.5634,W,1.19,130.60,290612,,,D*7F
$GPRMC,205849.000,A,3748.8170,N,12217.5627,W,1.03,124.38,290612,,,D*7C
$GPRMC,205850.000,A,3748.8169,N,12217.5622,W,1.48,122.29,290612,,,D*70
$GPRMC,205851.000,A,3748.8169,N,12217.5616,W,1.53,100.51,290612,,,D*73
$GPRMC,205852.000,A,3748.8169,N,12217.5609,W,1.68,116.09,290612,,,D*7C
$GPRMC,205853.000,A,3748.8166,N,12217.5604,W,1.59,117.16,290612,,,D*72
$GPRMC,205854.000,A,3748.8164,N,12217.5600,W,1.23,116.82,290612,,,D*72
$GPRMC,205855.000,A,3748.8163,N,12217.5597,W,1.28,115.77,290612,,,D*7B
$GPRMC,205856.000,A,3748.8160,N,12217.5594,W,1.30,130.93,290612,,,D*7C
$GPRMC,205857.000,A,3748.8159,N,12217.5593,W,1.30,139.07,290612,,,D*74
$GPRMC,205858.000,A,3748.8159,N,12217.5593,W,1.38,114.33,290612,,,D*7B
$GPRMC,205859.000,A,3748.8160,N,12217.5592,W,0.69,82.79,290612,,,D*44
$GPRMC,205900.000,A,3748.8161,N,12217.5590,W,0.81,44.43,290612,,,D*4F
$GPRMC,205901.000,A,3748.8161,N,12217.5589,W,0.26,75.11,290612,,,D*4E
$GPRMC,205902.000,A,3748.8163,N,12217.5588,W,0.07,14.13,290612,,,D*48
$GPRMC,205903.000,A,3748.8165,N,12217.5589,W,0.23,40.35,290612,,,D*4D
$GPRMC,205904.000,A,3748.8170,N,12217.5589,W,0.56,68.05,290612,,,D*45
$GPRMC,205905.000,A,3748.8171,N,12217.5589,W,0.14,51.54,290612,,,D*4D
$GPRMC,205906.000,A,3748.8174,N,12217.5590,W,0.17,4.70,290612,,,D*76
$GPRMC,205907.000,A,3748.8176,N,12217.5591,W,0.20,26.25,290612,,,D*40
$GPRMC,205908.000,A,3748.8179,N,12217.5592,W,0.38,343.35,290612,,,D*7B
$GPRMC,205909.000,A,3748.8182,N,12217.5594,W,0.43,331.75,290612,,,D*75
$GPRMC,205910.000,A,3748.8184,N,12217.5596,W,0.31,342.39,290612,,,D*70
$GPRMC,205911.000,A,3748.8184,N,12217.5596,W,0.24,322.48,290612,,,D*75
$GPRMC,205912.000,A,3748.8184,N,12217.5597,W,0.16,354.15,290612,,,D*7F
$GPRMC,205913.000,A,3748.8185,N,12217.5598,W,0.57,297.24,290612,,,D*79
$GPRMC,205914.000,A,3748.8186,N,12217.5601,W,0.89,289.52,290612,,,D*73
$GPRMC,205915.000,A,3748.8186,N,12217.5604,W,0.69,288.14,290612,,,D*7A
$GPRMC,205916.000,A,3748.8187,N,12217.5607,W,0.85,291.65,290612,,,D*77
$GPRMC,205917.000,A,3748.8188,N,12217.5609,W,0.42,297.28,290612,,,D*73
$GPRMC,205918.000,A,3748.8188,N,12217.5609,W,0.06,271.73,290612,,,D*7A
$GPRMC,205919.000,A,3748.8187,N,12217.5608,W,0.29,87.87,290612,,,D*48
$GPRMC,205920.000,A,3748.8187,N,12217.5608,W,0.09,65.55,290612,,,D*43
$GPRMC,205921.000,A,3748.8187,N,12217.5607,W,0.08,79.48,290612,,,D*4D
$GPRMC,205922.000,A,3748.8187,N,12217.5607,W,0.20,85.35,290612,,,D*4D
$GPRMC,205923.000,A,3748.8187,N,12217.5607,W,0.11,354.12,290612,,,D*74
$GPRMC,205924.000,A,3748.8187,N,12217.5607,W,0.17,50.97,290612,,,D*4F
$GPRMC,205925.000,A,3748.8187,N,12217.5607,W,0.26,316.77,290612,,,D*73
$GPRMC,205926.000,A,3748.8187,N,12217.5607,W,0.04,117.07,290612,,,D*74
$GPRMC,205927.000,A,3748.8186,N,12217.5606,W,0.29,112.85,290612,,,D*75
$GPRMC,205928.000,A,3748.8186,N,12217.5606,W,0.26,96.28,290612,,,D*4F
$GPRMC,205929.000,A,3748.8186,N,12217.5605,W,0.23,112.94,290612,,,D*72
$GPRMC,205930.000,A,3748.8185,N,12217.5604,W,0.18,104.48,290612,,,D*76
$GPRMC,205931.000,A,3748.8185,N,12217.5604,W,0.23,93.00,290612,,,D*4C
$GPRMC,205932.000,A,3748.8185,N,12217.5603,W,0.18,43.91,290612,,,D*45
$GPRMC,205933.000,A,3748.8185,N,12217.5604,W,0.40,306.99,290612,,,D*74
$GPRMC,205934.000,A,3748.8186,N,12217.5606,W,0.49,300.05,290612,,,D*78
$GPRMC,205935.000,A,3748.8186,N,12217.5606,W,0.33,98.75,290612,,,D*41
$GPRMC,205936.000,A,3748.8185,N,12217.5605,W,0.19,118.24,290612,,,D*77
$GPRMC,205937.000,A,3748.8185,N,12217.5605,W,0.14,87.77,290612,,,D*4A
$GPRMC,205938.000,A,3748.8184,N,12217.5604,W,0.51,125.77,290612,,,D*7D
$GPRMC,205939.000,A,3748.8183,N,12217.5602,W,0.69,116.05,290612,,,D*73
$GPRMC,205940.000,A,3748.8180,N,12217.5597,W,0.84,135.43,290612,,,D*71
$GPRMC,205941.000,A,3748.8176,N,12217.5595,W,1.03,106.96,290612,,,D*7D
$GPRMC,205942.000,A,3748.8172,N,12217.5590,W,1.08,125.63,290612,,,D*7F
$GPRMC,205943.000,A,3748.8164,N,12217.5585,W,1.60,131.22,290612,,,D*73
$GPRMC,205944.000,A,3748.8160,N,12217.5582,W,1.54,151.30,290612,,,D*75
$GPRMC,205945.000,A,3748.8157,N,12217.5581,W,1.78,157.30,290612,,,D*7B
$GPRMC,205946.000,A,3748.8153,N,12217.5582,W,2.06,168.54,290612,,,D*7B
$GPRMC,205947.000,A,3748.8149,N,12217.5581,W,1.86,169.23,290612,,,D*78
$GPRMC,205948.000,A,3748.8144,N,12217.5582,W,2.10,166.47,290612,,,D*78
$GPRMC,205949.000,A,3748.8139,N,12217.5584,W,2.12,159.48,290612,,,D*74
$GPRMC,205950.000,A,3748.8134,N,12217.5579,W,2.25,140.78,290612,,,D*7C
$GPRMC,205951.000,A,3748.8130,N,12217.5578,W,1.81,146.32,290612,,,D*7D
$GPRMC,205952.000,A,3748.8126,N,12217.5575,W,1.18,136.44,290612,,,D*72
$GPRMC,205953.000,A,3748.8123,N,12217.5572,W,1.21,136.17,290612,,,D*7D
$GPRMC,205954.000,A,3748.8118,N,12217.5570,W,1.93,155.23,290612,,,D*7B
$GPRMC,205955.000,A,3748.8112,N,12217.5568,W,1.70,161.29,290612,,,D*79
$GPRMC,205956.000,A,3748.8111,N,12217.5565,W,1.05,143.56,290612,,,D*7E
$GPRMC,205957.000,A,3748.8109,N,12217.5561,W,1.38,143.40,290612,,,D*7B
$GPRMC,205958.000,A,3748.8106,N,12217.5554,W,1.52,130.17,290612,,,D*77
$GPRMC,205959.000,A,3748.8100,N,12217.5551,W,1.61,129.47,290612,,,D*78
$GPRMC,210000.000,A,3748.8093,N,12217.5545,W,1.80,130.02,290612,,,D*71
$GPRMC,210001.000,A,3748.8089,N,12217.5542,W,1.58,140.33,290612,,,D*7C
$GPRMC,210002.000,A,3748.8087,N,12217.5535,W,1.68,123.84,290612,,,D*7B
$GPRMC,210003.000,A,3748.8087,N,12217.5528,W,1.20,101.02,290612,,,D*74
$GPRMC,210004.000,A,3748.8086,N,12217.5521,W,1.40,102.55,290612,,,D*7C
$GPRMC,210005.000,A,3748.8080,N,12217.5518,W,1.42,131.85,290612,,,D*7E
$GPRMC,210006.000,A,3748.8076,N,12217.5516,W,1.12,148.24,290612,,,D*7A
$GPRMC,210007.000,A,3748.8072,N,12217.5512,W,0.90,137.84,290612,,,D*72
$GPRMC,210008.000,A,3748.8068,N,12217.5507,W,0.82,121.93,290612,,,D*70
$GPRMC,210009.000,A,3748.8067,N,12217.5505,W,0.48,141.91,290612,,,D*7E
$GPRMC,210010.000,A,3748.8065,N,12217.5503,W,0.47,139.92,290612,,,D*71
$GPRMC,210011.000,A,3748.8063,N,12217.5503,W,0.55,162.10,290612,,,D*71
$GPRMC,210012.000,A,3748.8059,N,12217.5503,W,0.65,125.28,290612,,,D*70
$GPRMC,210013.000,A,3748.8056,N,12217.5502,W,0.66,122.01,290612,,,D*70
$GPRMC,210014.000,A,3748.8054,N,12217.5501,W,0.52,109.05,290612,,,D*7C
$GPRMC,210015.000,A,3748.8052,N,12217.5500,W,0.52,122.22,290612,,,D*76
$GPRMC,210016.000,A,3748.8051,N,12217.5499,W,0.14,110.77,290612,,,D*74
$GPRMC,210017.000,A,3748.8049,N,12217.5500,W,0.23,321.30,290612,,,A*7F
$GPRMC,210018.000,A,3748.8048,N,12217.5500,W,0.22,332.58,290612,,,A*7C
$GPRMC,210019.000,A,3748.8047,N,12217.5500,W,0.19,67.92,290612,,,A*4F
$GPRMC,210020.000,A,3748.8046,N,12217.5499,W,0.20,50.41,290612,,,A*45
$GPRMC,210021.000,A,3748.8045,N,12217.5498,W,0.33,105.43,290612,,,A*77
$GPRMC,210022.000,A,3748.8043,N,12217.5497,W,0.37,110.66,290612,,,A*7A
$GPRMC,210023.000,A,3748.8042,N,12217.5497,W,0.22,103.95,290612,,,A*70
$GPRMC,210024.000,A,3748.8041,N,12217.5496,W,0.06,313.99,290612,,,A*7C
$GPRMC,210025.000,A,3748.8041,N,12217.5497,W,0.13,293.63,290612,,,A*74
$GPRMC,210026.000,A,3748.8040,N,12217.5497,W,0.11,134.83,290612,,,A*74
$GPRMC,210027.000,A,3748.8039,N,12217.5497,W,0.01,163.45,290612,,,A*72
$GPRMC,210028.000,A,3748.8038,N,12217.5496,W,0.17,127.86,290612,,,A*75
$GPRMC,210029.000,A,3748.8038,N,12217.5496,W,0.10,336.75,290612,,,A*7D
$GPRMC,210030.000,A,3748.8037,N,12217.5495,W,0.07,122.71,290612,,,A*7C
$GPRMC,210031.000,A,3748.8037,N,12217.5495,W,0.14,340.84,290612,,,A*73
$GPRMC,210032.000,A,3748.8036,N,12217.5495,W,0.12,347.76,290612,,,A*7D
$GPRMC,210033.000,A,3748.8036,N,12217.5494,W,0.22,44.27,290612,,,A*4A
$GPRMC,210034.000,A,3748.8036,N,12217.5493,W,0.22,112.13,290612,,,A*7F
$GPRMC,210035.000,A,3748.8036,N,12217.5492,W,0.15,13.33,290612,,,A*49
$GPRMC,210036.000,A,3748.8035,N,12217.5492,W,0.05,85.23,290612,,,A*46
$GPRMC,210037.000,A,3748.8035,N,12217.5491,W,0.07,50.19,290612,,,A*47
$GPRMC,210038.000,A,3748.8035,N,12217.5491,W,0.11,21.61,290612,,,A*46
$GPRMC,210039.000,A,3748.8035,N,12217.5490,W,0.10,36.86,290612,,,A*48
$GPRMC,210040.000,A,3748.8035,N,12217.5490,W,0.21,6.66,290612,,,A*79
$GPRMC,210041.000,A,3748.8035,N,12217.5490,W,0.11,26.38,290612,,,A*42
$GPRMC,210042.000,A,3748.8035,N,12217.5490,W,0.10,49.30,290612,,,A*41
$GPRMC,210043.000,A,3748.8035,N,12217.5490,W,0.04,48.20,290612,,,A*45
$GPRMC,210044.000,A,3748.8035,N,12217.5490,W,0.12,30.86,290612,,,A*46
$GPRMC,210045.000,A,3748.8035,N,12217.5490,W,0.07,43.40,290612,,,A*4D
$GPRMC,210046.000,A,3748.8035,N,12217.5490,W,0.17,35.56,290612,,,A*49
$GPRMC,210047.000,A,3748.8035,N,12217.5489,W,0.22,31.45,290612,,,A*40
$GPRMC,210048.000,A,3748.8035,N,12217.5489,W,0.19,69.54,290612,,,A*4A
$GPRMC,210049.000,A,3748.8035,N,12217.5489,W,0.09,120.02,290612,,,A*75
$GPRMC,210050.000,A,3748.8035,N,12217.5490,W,0.11,135.79,290612,,,A*74
$GPRMC,210051.000,A,3748.8034,N,12217.5489,W,0.09,22.78,290612,,,A*43
$GPRMC,210052.000,A,3748.8034,N,12217.5490,W,0.06,65.85,290612,,,A*46
$GPRMC,210053.000,A,3748.8034,N,12217.5490,W,0.17,6.05,290612,,,A*7A
$GPRMC,210054.000,A,3748.8035,N,12217.5490,W,0.21,329.65,290612,,,A*71
$GPRMC,210055.000,A,3748.8035,N,12217.5491,W,0.03,37.67,290612,,,A*4F
$GPRMC,210056.000,A,3748.8034,N,12217.5491,W,0.16,220.03,290612,,,A*7F
$GPRMC,210057.000,A,3748.8034,N,12217.5492,W,0.24,358.00,290612,,,A*71
$GPRMC,210058.000,A,3748.8035,N,12217.5492,W,0.20,68.37,290612,,,A*4F
$GPRMC,210059.000,A,3748.8035,N,12217.5492,W,0.06,7.02,290612,,,A*75
$GPRMC,210100.000,A,3748.8034,N,12217.5493,W,0.25,262.67,290612,,,A*7B
$GPRMC,210101.000,A,3748.8034,N,12217.5494,W,0.13,3.76,290612,,,A*7D
$GPRMC,210102.000,A,3748.8034,N,12217.5494,W,0.07,335.13,290612,,,A*7E
$GPRMC,210103.000,A,3748.8035,N,12217.5495,W,0.39,304.85,290612,,,A*7F
$GPRMC,210104.000,A,3748.8035,N,12217.5496,W,0.27,88.66,290612,,,A*4E
$GPRMC,210105.000,A,3748.8035,N,12217.5495,W,0.10,36.59,290612,,,A*41
$GPRMC,210106.000,A,3748.8035,N,12217.5495,W,0.27,111.64,290612,,,A*7C
$GPRMC,210107.000,A,3748.8035,N,12217.5495,W,0.34,79.38,290612,,,A*49
$GPRMC,210108.000,A,3748.8035,N,12217.5495,W,0.22,351.31,290612,,,A*71
$GPRMC,210109.000,A,3748.8035,N,12217.5495,W,0.15,138.14,290612,,,A*7E
$GPRMC,210110.000,A,3748.8035,N,12217.5495,W,0.24,352.46,290612,,,A*7D
$GPRMC,210111.000,A,3748.8036,N,12217.5496,W,0.44,320.50,290612,,,A*78
$GPRMC,210112.000,A,3748.8036,N,12217.5497,W,0.43,308.71,290612,,,A*74
$GPRMC,210113.000,A,3748.8037,N,12217.5499,W,0.23,304.59,290612,,,A*7A
$GPRMC,210114.000,A,3748.8037,N,12217.5500,W,0.22,273.25,290612,,,A*77
$GPRMC,210115.000,A,3748.8037,N,12217.5500,W,0.12,320.83,290612,,,A*7E
$GPRMC,210116.000,A,3748.8037,N,12217.5500,W,0.24,322.41,290612,,,A*74
$GPRMC,210117.000,A,3748.8038,N,12217.5500,W,0.29,354.56,290612,,,A*70
$GPRMC,210118.000,A,3748.8038,N,12217.5501,W,0.23,292.78,290612,,,A*73
$GPRMC,210119.000,A,3748.8038,N,12217.5502,W,0.13,300.05,290612,,,A*72
$GPRMC,210120.000,A,3748.8038,N,12217.5501,W,0.25,66.05,290612,,,A*4D
$GPRMC,210121.000,A,3748.8038,N,12217.5500,W,0.26,72.90,290612,,,A*47
$GPRMC,210122.000,A,3748.8038,N,12217.5498,W,0.30,70.94,290612,,,A*45
$GPRMC,210123.000,A,3748.8038,N,12217.5497,W,0.26,91.66,290612,,,A*4E
$GPRMC,210124.000,A,3748.8038,N,12217.5496,W,0.31,67.57,290612,,,A*45
$GPRMC,210125.000,A,3748.8038,N,12217.5495,W,0.45,98.42,290612,,,A*40
$GPRMC,210126.000,A,3748.8037,N,12217.5494,W,0.19,122.17,290612,,,A*74
$GPRMC,210127.000,A,3748.8037,N,12217.5495,W,0.28,347.98,290612,,,A*70
$GPRMC,210128.000,A,3748.8038,N,12217.5495,W,0.36,347.28,290612,,,A*74
$GPRMC,210129.000,A,3748.8039,N,12217.5495,W,0.36,13.57,290612,,,A*4E
$GPRMC,210130.000,A,3748.8039,N,12217.5496,W,0.44,334.70,290612,,,A*73
$GPRMC,210131.000,A,3748.8040,N,12217.5496,W,0.28,12.27,290612,,,A*43
$GPRMC,210132.000,A,3748.8040,N,12217.5496,W,0.28,349.21,290612,,,A*7B
$GPRMC,210133.000,A,3748.8041,N,12217.5497,W,0.44,337.15,290612,,,A*7E
$GPRMC,210134.000,A,3748.8042,N,12217.5498,W,0.53,331.80,290612,,,A*79
$GPRMC,210135.000,A,3748.8042,N,12217.5498,W,0.50,328.05,290612,,,A*7E
$GPRMC,210136.000,A,3748.8042,N,12217.5498,W,0.32,57.68,290612,,,A*49
$GPRMC,210137.000,A,3748.8042,N,12217.5498,W,0.26,17.65,290612,,,A*44
$GPRMC,210138.000,A,3748.8042,N,12217.5497,W,0.14,101.11,290612,,,A*70
$GPRMC,210139.000,A,3748.8041,N,12217.5497,W,0.29,77.48,290612,,,A*40
$GPRMC,210140.000,A,3748.8037,N,12217.5490,W,0.82,153.80,290612,,,A*7A
$GPRMC,210141.000,A,3748.8035,N,12217.5491,W,0.94,195.43,290612,,,A*7A
$GPRMC,210142.000,A,3748.8034,N,12217.5500,W,1.00,216.03,290612,,,A*71
$GPRMC,210143.000,A,3748.8033,N,12217.5507,W,1.20,221.70,290612,,,A*72
$GPRMC,210144.000,A,3748.8029,N,12217.5509,W,1.20,205.15,290612,,,A*75
$GPRMC,210145.000,A,3748.8022,N,12217.5505,W,1.42,203.70,290612,,,A*72
$GPRMC,210146.000,A,3748.8017,N,12217.5508,W,1.36,211.15,290612,,,A*79
$GPRMC,210147.000,A,3748.8013,N,12217.5512,W,1.19,203.70,290612,,,A*7A
$GPRMC,210148.000,A,3748.8012,N,12217.5517,W,0.95,219.55,290612,,,A*78
$GPRMC,210149.000,A,3748.8009,N,12217.5521,W,0.81,228.39,290612,,,A*7B
$GPRMC,210150.000,A,3748.8004,N,12217.5518,W,1.04,197.37,290612,,,A*71
$GPRMC,210151.000,A,3748.7999,N,12217.5519,W,1.21,192.56,290612,,,A*76
$GPRMC,210152.000,A,3748.7996,N,12217.5523,W,1.29,199.64,290612,,,A*71
$GPRMC,210153.000,A,3748.7994,N,12217.5526,W,0.49,209.64,290612,,,A*7A
$GPRMC,210154.000,A,3748.7988,N,12217.5522,W,1.47,179.82,290612,,,A*77
$GPRMC,210155.000,A,3748.7982,N,12217.5524,W,1.50,173.75,290612,,,A*7E
$GPRMC,210156.000,A,3748.7976,N,12217.5525,W,1.23,168.68,290612,,,A*75
$GPRMC,210157.000,A,3748.7971,N,12217.5527,W,1.22,187.40,290612,,,A*7B
$GPRMC,210158.000,A,3748.7967,N,12217.5528,W,1.14,200.05,290612,,,A*74
$GPRMC,210159.000,A,3748.7964,N,12217.5529,W,0.93,238.05,290612,,,A*72
$GPRMC,210200.000,A,3748.7962,N,12217.5535,W,0.88,218.88,290612,,,A*7B
$GPRMC,210201.000,A,3748.7955,N,12217.5533,W,1.22,196.74,290612,,,A*7F
$GPRMC,210202.000,A,3748.7949,N,12217.5538,W,1.21,194.28,290612,,,A*72
$GPRMC,210203.000,A,3748.7947,N,12217.5543,W,0.68,194.55,290612,,,A*77
$GPRMC,210204.000,A,3748.7946,N,12217.5549,W,0.55,241.77,290612,,,A*7E
$GPRMC,210205.000,A,3748.7949,N,12217.5563,W,0.90,247.46,290612,,,A*75
$GPRMC,210206.000,A,3748.7944,N,12217.5563,W,1.28,220.30,290612,,,A*79
$GPRMC,210207.000,A,3748.7938,N,12217.5566,W,1.70,208.18,290612,,,A*7B
$GPRMC,210208.000,A,3748.7934,N,12217.5570,W,1.33,216.86,290612,,,A*70
$GPRMC,210209.000,A,3748.7932,N,12217.5578,W,1.40,230.23,290612,,,A*70
$GPRMC,210210.000,A,3748.7931,N,12217.5585,W,0.93,206.92,290612,,,A*79
$GPRMC,210211.000,A,3748.7928,N,12217.5584,W,1.33,213.34,290612,,,A*72
$GPRMC,210212.000,A,3748.7923,N,12217.5588,W,1.56,211.39,290612,,,A*7A
