$ADVER,3080,2.3
$GPRMC,182857.583,A,3748.8003,N,12217.8567,W,0.00,,020411,,,A*63
$GPGGA,182858.583,3748.8000,N,12217.8584,W,1,03,10.1,-10.3,M,-25.1,M,,0000*4F
$GPGSA,A,2,11,06,03,,,,,,,,,,10.1,10.1,1.0*37
$GPGSV,3,1,12,11,28,308,36,03,19,219,32,06,17,207,34,14,76,044,38*71
$GPGSV,3,2,12,22,51,063,40,19,36,251,38,18,23,081,26,31,21,162,31*7D
$GPGSV,3,3,12,24,20,313,39,32,18,280,36,09,08,035,,48,00,000,43*7E
$GPRMC,182858.583,A,3748.8000,N,12217.8584,W,0.00,,020411,,,A*62
$GPVTG,,T,,M,0.00,N,0.0,K,N*1C
$GPGGA,182859.583,3748.7998,N,12217.8602,W,1,03,10.1,-10.3,M,-25.1,M,,0000*44
$GPGSA,A,2,11,06,03,,,,,,,,,,10.1,10.1,1.0*37
$GPRMC,182859.583,A,3748.7998,N,12217.8602,W,0.00,,020411,,,A*69
$GPVTG,,T,,M,0.00,N,0.0,K,N*1C
$GPGGA,182900.583,3748.7997,N,12217.8610,W,1,03,10.1,-10.3,M,-25.1,M,,0000*45
$GPGSA,A,2,11,06,03,,,,,,,,,,10.1,10.1,1.0*37
$GPRMC,182900.583,A,3748.7997,N,12217.8610,W,0.00,,020411,,,A*68
$GPVTG,,T,,M,0.00,N,0.0,K,N*1C
$GPGGA,182901.583,3748.8009,N,12217.8526,W,1,03,10.1,-10.3,M,-25.1,M,,0000*43
$GPGSA,A,2,11,06,03,,,,,,,,,,10.1,10.1,1.0*37
$GPRMC,182901.583,A,3748.8009,N,12217.8526,W,0.00,,020411,,,A*6E
$GPVTG,,T,,M,0.00,N,0.0,K,N*1C
$GPGGA,182902.583,3748.7975,N,12217.8754,W,1,03,10.1,-10.3,M,-25.1,M,,0000*4A
$GPGSA,A,2,11,06,03,,,,,,,,,,10.1,10.1,1.0*37
$GPRMC,182902.583,A,3748.7975,N,12217.8754,W,0.00,,020411,,,A*67
$GPVTG,,T,,M,0.00,N,0.0,K,N*1C
$GPGGA,182903.583,3748.7995,N,12217.8817,W,1,03,10.1,-10.3,M,-25.1,M,,0000*4D
$GPGSA,A,2,11,06,03,,,,,,,,,,10.1,10.1,1.0*37
$GPGSV,3,1,12,11,28,308,27,03,19,219,23,06,17,207,29,14,76,044,28*7C
$GPGSV,3,2,12,22,51,063,34,19,36,251,30,18,23,081,28,31,21,162,25*7D
$GPGSV,3,3,12,24,20,313,27,32,18,280,23,09,08,035,25,48,00,000,28*7F
$GPRMC,182903.583,A,3748.7995,N,12217.8817,W,0.00,,020411,,,A*60
$GPGGA,182904.583,3748.8065,N,12217.8374,W,1,03,10.1,-10.3,M,-25.1,M,,0000*4D
$GPGSA,A,2,11,06,03,,,,,,,,,,10.1,10.1,1.0*37
$GPRMC,182904.583,A,3748.8065,N,12217.8374,W,0.00,,020411,,,A*60
$GPVTG,,T,,M,0.00,N,0.0,K,N*1C
$GPGGA,182905.583,3748.8036,N,12217.8597,W,1,03,10.1,-10.3,M,-25.1,M,,0000*41
$GPGSA,A,2,11,06,03,,,,,,,,,,10.1,10.1,1.0*37
$GPRMC,182905.583,A,3748.8036,N,12217.8597,W,0.00,,020411,,,A*6C
$GPVTG,,T,,M,0.00,N,0.0,K,N*1C
$GPGGA,182906.583,3748.8008,N,12217.8533,W,1,03,10.1,-10.3,M,-25.1,M,,0000*41
$GPGSA,A,2,11,06,03,,,,,,,,,,10.1,10.1,1.0*37
$GPRMC,182906.583,A,3748.8008,N,12217.8533,W,0.00,,020411,,,A*6C
$GPVTG,,T,,M,0.00,N,0.0,K,N*1C
$GPGGA,182907.583,3748.8067,N,12217.8406,W,1,03,10.1,-10.3,M,-25.1,M,,0000*4E
$GPGSA,A,2,11,06,03,,,,,,,,,,10.1,10.1,1.0*37
$GPRMC,182907.583,A,3748.8067,N,12217.8406,W,0.00,,020411,,,A*63
$GPVTG,,T,,M,0.00,N,0.0,K,N*1C
$GPGGA,182908.583,3748.8076,N,12217.8402,W,1,03,10.1,-10.3,M,-25.1,M,,0000*45
$GPGSA,A,2,11,06,03,,,,,,,,,,10.1,10.1,1.0*37
$GPGSV,3,1,11,11,28,308,20,03,19,219,32,06,17,207,30,14,76,044,24*7C
$GPGSV,3,2,11,22,51,063,31,19,36,251,34,18,23,081,28,31,21,162,35*7E
$GPGSV,3,3,11,24,20,313,21,32,18,280,30,09,08,035,32*48
$GPRMC,182908.583,A,3748.8076,N,12217.8402,W,0.00,,020411,,,A*68
$GPVTG,,T,,M,0.00,N,0.0,K,N*1C
$GPGGA,182909.583,3748.8068,N,12217.8437,W,1,03,10.1,-10.3,M,-25.1,M,,0000*4D
$GPGSA,A,2,11,06,03,,,,,,,,,,10.1,10.1,1.0*37
$GPRMC,182909.583,A,3748.8068,N,12217.8437,W,0.00,,020411,,,A*60
$GPVTG,,T,,M,0.00,N,0.0,K,N*1C
$GPGGA,182910.583,3748.8093,N,12217.8412,W,1,03,10.1,-10.3,M,-25.1,M,,0000*46
$GPGSA,A,2,11,06,03,,,,,,,,,,10.1,10.1,1.0*37
$GPRMC,182910.583,A,3748.8093,N,12217.8412,W,0.00,,020411,,,A*6B
$GPVTG,,T,,M,0.00,N,0.0,K,N*1C
$GPGGA,182911.583,3748.8061,N,12217.8496,W,1,03,10.1,-10.3,M,-25.1,M,,0000*46
$GPGSA,A,2,11,06,03,,,,,,,,,,10.1,10.1,1.0*37
$GPRMC,182911.583,A,3748.8061,N,12217.8496,W,0.00,,020411,,,A*6B
$GPVTG,,T,,M,0.00,N,0.0,K,N*1C
$GPGGA,182912.583,3748.8059,N,12217.8340,W,1,03,10.1,-10.3,M,-25.1,M,,0000*42
$GPGSA,A,2,11,06,03,,,,,,,,,,10.1,10.1,1.0*37
$GPRMC,182912.583,A,3748.8059,N,12217.8340,W,0.00,,020411,,,A*6F
$GPVTG,,T,,M,0.00,N,0.0,K,N*1C
$GPGGA,182913.583,3748.8042,N,12217.8415,W,1,03,10.1,-10.3,M,-25.1,M,,0000*4E
$GPGSA,A,2,11,06,03,,,,,,,,,,10.1,10.1,1.0*37
$GPGSV,3,1,11,11,28,308,26,03,19,219,34,06,17,207,30,14,76,044,23*7B
$GPGSV,3,2,11,22,51,063,30,19,36,251,30,18,23,081,32,31,21,162,28*7C
$GPGSV,3,3,11,24,20,313,24,32,18,280,24,09,08,035,32*48
$GPRMC,182913.583,A,3748.8042,N,12217.8415,W,0.00,,020411,,,A*63
$GPGGA,182914.583,3748.8032,N,12217.8382,W,1,03,10.1,-10.3,M,-25.1,M,,0000*47
$GPGSA,A,2,11,06,03,,,,,,,,,,10.1,10.1,1.0*37
$GPRMC,182914.583,A,3748.8032,N,12217.8382,W,0.00,,020411,,,A*6A
$GPVTG,,T,,M,0.00,N,0.0,K,N*1C
$GPGGA,182915.583,3748.8037,N,12217.8423,W,1,03,10.1,-10.3,M,-25.1,M,,0000*4F
$GPGSA,A,2,11,06,03,,,,,,,,,,10.1,10.1,1.0*37
$GPRMC,182915.583,A,3748.8037,N,12217.8423,W,0.00,,020411,,,A*62
$GPVTG,,T,,M,0.00,N,0.0,K,N*1C
$GPGGA,182916.583,3748.8026,N,12217.8647,W,1,03,10.1,-10.3,M,-25.1,M,,0000*4C
$GPGSA,A,2,11,06,03,,,,,,,,,,10.1,10.1,1.0*37
$GPRMC,182916.583,A,3748.8026,N,12217.8647,W,0.00,,020411,,,A*61
$GPVTG,,T,,M,0.00,N,0.0,K,N*1C
$GPGGA,182917.583,3748.8013,N,12217.8899,W,1,03,10.1,-10.3,M,-25.1,M,,0000*46
$GPGSA,A,2,11,06,03,,,,,,,,,,10.1,10.1,1.0*37
$GPRMC,182917.583,A,3748.8013,N,12217.8899,W,0.00,,020411,,,A*6B
$GPVTG,,T,,M,0.00,N,0.0,K,N*1C
$GPGGA,182918.583,3748.8009,N,12217.8986,W,1,03,10.1,-10.3,M,-25.1,M,,0000*4D
$GPGSA,A,2,11,06,03,,,,,,,,,,10.1,10.1,1.0*37
$GPGSV,3,1,11,11,28,308,37,03,19,219,38,06,17,207,23,14,75,044,26*73
$GPGSV,3,2,11,22,51,063,36,19,36,251,24,18,23,081,30,31,21,162,28*7D
$GPGSV,3,3,11,24,20,313,36,32,18,280,32,09,08,035,39*47
$GPRMC,182918.583,A,3748.8009,N,12217.8986,W,0.00,,020411,,,A*60
$GPVTG,,T,,M,0.00,N,0.0,K,N*1C
$GPGGA,182919.583,3748.8016,N,12217.8872,W,1,03,10.1,-10.3,M,-25.1,M,,0000*48
$GPGSA,A,2,11,06,03,,,,,,,,,,10.1,10.1,1.0*37
$GPRMC,182919.583,A,3748.8016,N,12217.8872,W,0.00,,020411,,,A*65
$GPVTG,,T,,M,0.00,N,0.0,K,N*1C
$GPGGA,182920.583,3748.7993,N,12217.9297,W,1,03,10.1,-10.3,M,-25.1,M,,0000*49
$GPGSA,A,2,11,06,03,,,,,,,,,,10.1,10.1,1.0*37
$GPRMC,182920.583,A,3748.7993,N,12217.9297,W,0.00,,020411,,,A*64
$GPVTG,,T,,M,0.00,N,0.0,K,N*1C
$GPGGA,182921.583,3748.7997,N,12217.9229,W,1,03,10.1,-10.3,M,-25.1,M,,0000*49
$GPGSA,A,2,11,06,03,,,,,,,,,,10.1,10.1,1.0*37
$GPRMC,182921.583,A,3748.7997,N,12217.9229,W,0.00,,020411,,,A*64
$GPVTG,,T,,M,0.00,N,0.0,K,N*1C
$GPGGA,182922.583,3748.8023,N,12217.8745,W,1,03,10.1,-10.3,M,-25.1,M,,0000*4D
$GPGSA,A,2,11,06,03,,,,,,,,,,10.1,10.1,1.0*37
$GPRMC,182922.583,A,3748.8023,N,12217.8745,W,0.00,,020411,,,A*60
$GPVTG,,T,,M,0.00,N,0.0,K,N*1C
$GPGGA,182923.583,3748.8022,N,12217.8595,W,1,03,10.1,-10.3,M,-25.1,M,,0000*42
$GPGSA,A,2,11,06,03,,,,,,,,,,10.1,10.1,1.0*37
$GPGSV,3,1,12,11,28,308,28,03,19,219,34,06,17,207,34,14,75,044,25*77
$GPGSV,3,2,12,22,51,063,36,19,36,251,29,18,23,081,31,31,21,162,29*73
$GPGSV,3,3,12,24,20,313,29,32,18,280,26,09,08,035,35,48,44,195,22*72
$GPVTG,,T,,M,0.00,N,0.0,K,N*1C
$GPGGA,182924.583,3748.7993,N,12217.8678,W,1,03,10.1,-10.3,M,-25.1,M,,0000*49
$GPGSA,A,2,11,06,03,,,,,,,,,,10.1,10.1,1.0*37
$GPRMC,182924.583,A,3748.7993,N,12217.8678,W,0.00,,020411,,,A*64
$GPVTG,,T,,M,0.00,N,0.0,K,N*1C
$GPGGA,182925.583,3748.7985,N,12217.8643,W,1,03,10.1,-10.3,M,-25.1,M,,0000*47
$GPGSA,A,2,11,06,03,,,,,,,,,,10.1,10.1,1.0*37
$GPRMC,182925.583,A,3748.7985,N,12217.8643,W,0.00,,020411,,,A*6A
$GPVTG,,T,,M,0.00,N,0.0,K,N*1C
$GPGGA,182926.583,3748.8051,N,12217.8587,W,1,03,10.1,-10.3,M,-25.1,M,,0000*40
$GPGSA,A,2,11,06,03,,,,,,,,,,10.1,10.1,1.0*37
$GPRMC,182926.583,A,3748.8051,N,12217.8587,W,0.00,,020411,,,A*6D
$GPVTG,,T,,M,0.00,N,0.0,K,N*1C
$GPGGA,182927.583,3748.8094,N,12217.8550,W,1,03,10.1,-10.3,M,-25.1,M,,0000*42
$GPGSA,A,2,11,06,03,,,,,,,,,,10.1,10.1,1.0*37
$GPRMC,182927.583,A,3748.8094,N,12217.8550,W,0.00,,020411,,,A*6F
$GPVTG,,T,,M,0.00,N,0.0,K,N*1C
$GPGGA,182928.583,3748.8104,N,12217.8546,W,1,03,10.1,-10.3,M,-25.1,M,,0000*42
$GPGSA,A,2,11,06,03,,,,,,,,,,10.1,10.1,1.0*37
$GPGSV,3,1,12,11,28,308,17,03,19,219,38,06,17,207,33,14,75,044,27*72
$GPGSV,3,2,12,22,51,063,34,19,36,251,28,18,23,081,32,31,21,162,38*73
$GPGSV,3,3,12,24,20,313,18,32,18,280,21,09,08,035,27,48,44,195,25*73
$GPRMC,182928.583,A,3748.8104,N,12217.8546,W,0.00,,020411,,,A*6F
$GPVTG,,T,,M,0.00,N,0.0,K,N*1C
$GPGGA,182929.583,3748.8057,N,12217.8600,W,1,03,10.1,-10.3,M,-25.1,M,,0000*45
$GPGSA,A,2,11,06,03,,,,,,,,,,10.1,10.1,1.0*37
$GPRMC,182929.583,A,3748.8057,N,12217.8600,W,0.00,,020411,,,A*68
$GPVTG,,T,,M,0.00,N,0.0,K,N*1C
$GPGGA,182930.583,3748.8033,N,12217.8627,W,1,03,10.1,-10.3,M,-25.1,M,,0000*4A
$GPGSA,A,2,11,06,03,,,,,,,,,,10.1,10.1,1.0*37
$GPRMC,182930.583,A,3748.8033,N,12217.8627,W,0.00,,020411,,,A*67
$GPVTG,,T,,M,0.00,N,0.0,K,N*1C
$GPGGA,182932.583,3748.7967,N,12217.8783,W,1,03,10.1,-10.3,M,-25.1,M,,0000*40
$GPGSA,A,2,11,06,03,,,,,,,,,,10.1,10.1,1.0*37
$GPRMC,182932.583,A,3748.7967,N,12217.8783,W,0.00,,020411,,,A*6D
$GPVTG,,T,,M,0.00,N,0.0,K,N*1C
$GPGGA,182949.583,3748.7955,N,12217.8521,W,1,03,10.1,-10.3,M,-25.1,M,,0000*47
$GPGSA,A,2,11,06,03,,,,,,,,,,10.1,10.1,1.0*37
$GPRMC,182949.583,A,3748.7955,N,12217.8521,W,0.00,,020411,,,A*6A
$GPVTG,,T,,M,0.00,N,0.0,K,N*1C
$GPGGA,182950.583,3748.8032,N,12217.8452,W,1,03,10.1,-10.3,M,-25.1,M,,0000*4D
$GPGSA,A,2,11,06,03,,,,,,,,,,10.1,10.1,1.0*37
$GPRMC,182950.583,A,3748.8032,N,12217.8452,W,0.00,,020411,,,A*60
$GPVTG,,T,,M,0.00,N,0.0,K,N*1C
$GPGGA,182951.583,3748.8060,N,12217.8544,W,1,03,10.1,-10.3,M,-25.1,M,,0000*4D
$GPGSA,A,2,11,06,03,,,,,,,,,,10.1,10.1,1.0*37
$GPRMC,182951.583,A,3748.8060,N,12217.8544,W,0.00,,020411,,,A*60
$GPVTG,,T,,M,0.00,N,0.0,K,N*1C
$GPGGA,182952.583,3748.7960,N,12217.8812,W,1,03,10.1,-10.3,M,-25.1,M,,0000*46
$GPGSA,A,2,11,06,03,,,,,,,,,,10.1,10.1,1.0*37
$GPRMC,182952.583,A,3748.7960,N,12217.8812,W,0.00,,020411,,,A*6B
$GPVTG,,T,,M,0.00,N,0.0,K,N*1C
$GPGGA,182953.583,3748.8016,N,12217.8398,W,1,03,10.1,-10.3,M,-25.1,M,,0000*49
$GPGSA,A,2,11,06,03,,,,,,,,,,10.1,10.1,1.0*37
$GPGSV,3,1,11,11,28,308,26,03,19,219,33,06,17,207,26,14,75,044,20*7B
$GPGSV,3,2,11,22,51,063,28,19,36,251,32,18,23,081,33,31,21,162,33*7C
$GPGSV,3,3,11,24,20,313,25,32,18,280,32,09,08,035,29*44
$GPRMC,182953.583,A,3748.8016,N,12217.8398,W,0.00,,020411,,,A*64
$GPVTG,,T,,M,0.00,N,0.0,K,N*1C
$GPGGA,182954.583,3748.8046,N,12217.8241,W,1,03,10.1,-10.3,M,-25.1,M,,0000*4E
$GPGSA,A,2,11,06,03,,,,,,,,,,10.1,10.1,1.0*37
$GPRMC,182954.583,A,3748.8046,N,12217.8241,W,0.00,,020411,,,A*63
$GPVTG,,T,,M,0.00,N,0.0,K,N*1C
$GPGGA,182955.583,3748.8066,N,12217.8337,W,1,03,10.1,-10.3,M,-25.1,M,,0000*4D
$GPGSA,A,2,11,06,03,,,,,,,,,,10.1,10.1,1.0*37
$GPRMC,182955.583,A,3748.8066,N,12217.8337,W,0.00,,020411,,,A*60
$GPVTG,,T,,M,0.00,N,0.0,K,N*1C
$GPGGA,182956.583,3748.8044,N,12217.8446,W,1,03,10.1,-10.3,M,-25.1,M,,0000*4F
$GPGSA,A,2,11,06,03,,,,,,,,,,10.1,10.1,1.0*37
$GPRMC,182956.583,A,3748.8044,N,12217.8446,W,0.00,,020411,,,A*62
$GPVTG,,T,,M,0.00,N,0.0,K,N*1C
$GPGGA,182957.583,3748.8012,N,12217.8680,W,1,03,10.1,-10.3,M,-25.1,M,,0000*45
$GPGSA,A,2,11,06,03,,,,,,,,,,10.1,10.1,1.0*37
$GPRMC,182957.583,A,3748.8012,N,12217.8680,W,0.00,,020411,,,A*68
$GPVTG,,T,,M,0.00,N,0.0,K,N*1C
$GPGGA,182958.583,3748.7990,N,12217.8774,W,1,03,10.1,-10.3,M,-25.1,M,,0000*4C
$GPGSA,A,2,11,06,03,,,,,,,,,,10.1,10.1,1.0*37
$GPGSV,3,1,12,11,28,308,39,03,19,219,34,06,17,207,28,14,75,044,26*79
$GPGSV,3,2,12,22,51,063,30,19,36,251,35,18,23,081,31,31,21,162,31*71
$GPGSV,3,3,12,24,20,313,36,32,18,280,38,09,08,035,41,48,44,195,27*75
$GPVTG,,T,,M,0.00,N,0.0,K,N*1C
$GPGGA,182959.583,3748.8013,N,12217.8654,W,1,03,10.1,-10.3,M,-25.1,M,,0000*43
$GPGSA,A,2,11,06,03,,,,,,,,,,10.1,10.1,1.0*37
$GPRMC,182959.583,A,3748.8013,N,12217.8654,W,0.00,,020411,,,A*6E
$GPVTG,,T,,M,0.00,N,0.0,K,N*1C
$GPGGA,183000.583,3748.8004,N,12217.8691,W,1,03,10.1,-10.3,M,-25.1,M,,0000*48
$GPGSA,A,2,11,06,03,,,,,,,,,,10.1,10.1,1.0*37
$GPRMC,183000.583,A,3748.8004,N,12217.8691,W,0.00,,020411,,,A*65
$GPVTG,,T,,M,0.00,N,0.0,K,N*1C
$GPGGA,183001.583,3748.7984,N,12217.8815,W,1,03,10.1,-10.3,M,-25.1,M,,0000*45
$GPGSA,A,2,11,06,03,,,,,,,,,,10.1,10.1,1.0*37
$GPRMC,183001.583,A,3748.7984,N,12217.8815,W,0.00,,020411,,,A*68
$GPVTG,,T,,M,0.00,N,0.0,K,N*1C
$GPGGA,183002.583,3748.7982,N,12217.8858,W,1,03,10.1,-10.3,M,-25.1,M,,0000*49
$GPGSA,A,2,11,06,03,,,,,,,,,,10.1,10.1,1.0*37
$GPRMC,183002.583,A,3748.7982,N,12217.8858,W,0.00,,020411,,,A*64
$GPVTG,,T,,M,0.00,N,0.0,K,N*1C
$GPGGA,183003.583,3748.7984,N,12217.8699,W,1,03,10.1,-10.3,M,-25.1,M,,0000*4D
$GPGSA,A,2,11,06,03,,,,,,,,,,10.1,10.1,1.0*37
$GPGSV,3,1,12,11,28,308,39,03,19,219,34,06,17,207,29,14,75,044,28*76
$GPGSV,3,2,12,22,51,063,28,19,36,251,37,18,23,081,29,31,21,162,33*71
$GPGSV,3,3,12,24,20,313,42,32,18,280,37,09,08,035,31,48,44,195,33*7B
$GPRMC,183003.583,A,3748.7984,N,12217.8699,W,0.00,,020411,,,A*60
$GPVTG,,T,,M,0.00,N,0.0,K,N*1C
$GPGGA,183004.583,3748.7979,N,12217.8650,W,1,03,10.1,-10.3,M,-25.1,M,,0000*4D
$GPGSA,A,2,11,06,03,,,,,,,,,,10.1,10.1,1.0*37
$GPRMC,183004.583,A,3748.7979,N,12217.8650,W,0.00,,020411,,,A*60
$GPVTG,,T,,M,0.00,N,0.0,K,N*1C
$GPGGA,183005.583,3748.7969,N,12217.8695,W,1,03,10.1,-10.3,M,-25.1,M,,0000*44
$GPGSA,A,2,11,06,03,,,,,,,,,,10.1,10.1,1.0*37
$GPRMC,183005.583,A,3748.7969,N,12217.8695,W,0.00,,020411,,,A*69
$GPVTG,,T,,M,0.00,N,0.0,K,N*1C
$GPGGA,183006.583,3748.7965,N,12217.8658,W,1,03,10.1,-10.3,M,-25.1,M,,0000*4A
$GPGSA,A,2,11,06,03,,,,,,,,,,10.1,10.1,1.0*37
$GPRMC,183006.583,A,3748.7965,N,12217.8658,W,0.00,,020411,,,A*67
$GPVTG,,T,,M,0.00,N,0.0,K,N*1C
$GPGGA,183007.583,3748.7906,N,12217.9281,W,1,03,10.1,-10.3,M,-25.1,M,,0000*4F
$GPGSA,A,2,11,06,03,,,,,,,,,,10.1,10.1,1.0*37
$GPRMC,183007.583,A,3748.7906,N,12217.9281,W,0.00,,020411,,,A*62
$GPVTG,,T,,M,0.00,N,0.0,K,N*1C
$GPGGA,183008.583,3748.7905,N,12217.9449,W,1,03,10.1,-10.3,M,-25.1,M,,0000*41
$GPGSA,A,2,11,06,03,,,,,,,,,,10.1,10.1,1.0*37
$GPGSV,3,1,12,11,28,308,38,03,19,219,27,06,17,207,24,14,75,044,24*74
$GPGSV,3,2,12,22,51,063,27,19,36,251,31,18,23,081,29,31,21,162,32*79
$GPGSV,3,3,12,24,20,313,35,32,18,280,29,09,08,035,33,48,44,195,27*73
$GPVTG,,T,,M,0.00,N,0.0,K,N*1C
$GPGGA,183009.583,3748.7929,N,12217.9111,W,1,03,10.1,-10.3,M,-25.1,M,,0000*46
$GPGSA,A,2,11,06,03,,,,,,,,,,10.1,10.1,1.0*37
$GPRMC,183009.583,A,3748.7929,N,12217.9111,W,0.00,,020411,,,A*6B
$GPVTG,,T,,M,0.00,N,0.0,K,N*1C
$GPGGA,183010.583,3748.7960,N,12217.9091,W,1,03,10.1,-10.3,M,-25.1,M,,0000*4A
$GPGSA,A,2,11,06,03,,,,,,,,,,10.1,10.1,1.0*37
$GPRMC,183010.583,A,3748.7960,N,12217.9091,W,0.00,,020411,,,A*67
$GPVTG,,T,,M,0.00,N,0.0,K,N*1C
$GPGGA,183011.583,3748.7913,N,12217.9257,W,1,03,10.1,-10.3,M,-25.1,M,,0000*47
$GPGSA,A,2,11,06,03,,,,,,,,,,10.1,10.1,1.0*37
$GPRMC,183011.583,A,3748.7913,N,12217.9257,W,0.00,,020411,,,A*6A
$GPVTG,,T,,M,0.00,N,0.0,K,N*1C
$GPGGA,183012.583,3748.7949,N,12217.8959,W,1,03,10.1,-10.3,M,-25.1,M,,0000*4F
$GPGSA,A,2,11,06,03,,,,,,,,,,10.1,10.1,1.0*37
$GPRMC,183012.583,A,3748.7949,N,12217.8959,W,0.00,,020411,,,A*62
$GPVTG,,T,,M,0.00,N,0.0,K,N*1C
$GPGGA,183013.583,3748.7888,N,12217.9366,W,1,03,10.1,-10.3,M,-25.1,M,,0000*45
$GPGSA,A,2,11,06,03,,,,,,,,,,10.1,10.1,1.0*37
$GPGSV,3,1,12,11,28,308,40,03,19,219,20,06,17,207,21,14,75,044,24*79
$GPGSV,3,2,12,22,51,063,33,19,36,251,36,18,23,081,30,31,21,162,33*72
$GPGSV,3,3,12,24,20,313,41,32,18,280,33,09,08,035,35,48,44,195,29*73
$GPRMC,183013.583,A,3748.7888,N,12217.9366,W,0.00,,020411,,,A*68
$GPVTG,,T,,M,0.00,N,0.0,K,N*1C
$GPGGA,183014.583,3748.7891,N,12217.9470,W,1,03,10.1,-10.3,M,-25.1,M,,0000*4A
$GPGSA,A,2,11,06,03,,,,,,,,,,10.1,10.1,1.0*37
$GPRMC,183014.583,A,3748.7891,N,12217.9470,W,0.00,,020411,,,A*67
$GPVTG,,T,,M,0.00,N,0.0,K,N*1C
$GPGGA,183015.583,3748.7955,N,12217.9234,W,1,03,10.1,-10.3,M,-25.1,M,,0000*44
$GPGSA,A,2,11,06,03,,,,,,,,,,10.1,10.1,1.0*37
$GPRMC,183015.583,A,3748.7955,N,12217.9234,W,0.00,,020411,,,A*69
$GPVTG,,T,,M,0.00,N,0.0,K,N*1C
$GPGGA,183016.583,3748.8126,N,12217.7677,W,1,03,10.1,-10.3,M,-25.1,M,,0000*49
$GPGSA,A,2,11,06,03,,,,,,,,,,10.1,10.1,1.0*37
$GPRMC,183016.583,A,3748.8126,N,12217.7677,W,0.00,,020411,,,A*64
$GPVTG,,T,,M,0.00,N,0.0,K,N*1C
$GPGGA,183017.583,3748.8138,N,12217.7751,W,1,03,10.1,-10.3,M,-25.1,M,,0000*42
$GPGSA,A,2,11,06,03,,,,,,,,,,10.1,10.1,1.0*37
$GPRMC,183017.583,A,3748.8138,N,12217.7751,W,0.00,,020411,,,A*6F
$GPVTG,,T,,M,0.00,N,0.0,K,N*1C
$GPGGA,183018.583,3748.8049,N,12217.8881,W,1,03,10.1,-10.3,M,-25.1,M,,0000*47
$GPGSA,A,2,11,06,03,,,,,,,,,,10.1,10.1,1.0*37
$GPGSV,3,1,11,11,28,308,30,03,19,219,20,06,17,207,21,14,75,044,24*7D
$GPGSV,3,2,11,22,51,063,32,19,36,251,26,18,23,081,38,31,21,162,24*7F
$GPGSV,3,3,11,24,20,313,28,32,18,280,19,09,08,035,34*4C
$GPRMC,183018.583,A,3748.8049,N,12217.8881,W,0.00,,020411,,,A*6A
$GPVTG,,T,,M,0.00,N,0.0,K,N*1C
$GPGGA,183019.583,3748.7967,N,12217.9486,W,1,03,10.1,-10.3,M,-25.1,M,,0000*46
$GPGSA,A,2,11,06,03,,,,,,,,,,10.1,10.1,1.0*37
$GPRMC,183019.583,A,3748.7967,N,12217.9486,W,0.00,,020411,,,A*6B
$GPVTG,,T,,M,0.00,N,0.0,K,N*1C
$GPGGA,183020.583,3748.7995,N,12217.9204,W,1,03,10.1,-10.3,M,-25.1,M,,0000*4D
$GPGSA,A,2,11,06,03,,,,,,,,,,10.1,10.1,1.0*37
$GPRMC,183020.583,A,3748.7995,N,12217.9204,W,0.00,,020411,,,A*60
$GPVTG,,T,,M,0.00,N,0.0,K,N*1C
$GPGGA,183021.583,3748.7984,N,12217.9279,W,1,03,10.1,-10.3,M,-25.1,M,,0000*46
$GPGSA,A,2,11,06,03,,,,,,,,,,10.1,10.1,1.0*37
$GPRMC,183021.583,A,3748.7984,N,12217.9279,W,0.00,,020411,,,A*6B
$GPVTG,,T,,M,0.00,N,0.0,K,N*1C
$GPGGA,183022.583,3748.8032,N,12217.8130,W,1,03,10.1,-10.3,M,-25.1,M,,0000*41
$GPGSA,A,2,11,06,03,,,,,,,,,,10.1,10.1,1.0*37
$GPRMC,183022.583,A,3748.8032,N,12217.8130,W,0.00,,020411,,,A*6C
$GPVTG,,T,,M,0.00,N,0.0,K,N*1C
$GPGGA,183023.583,3748.7942,N,12217.8173,W,1,03,10.1,-10.3,M,-25.1,M,,0000*46
$GPGSA,A,2,11,06,03,,,,,,,,,,10.1,10.1,1.0*37
$GPGSV,3,1,12,11,28,308,39,03,19,219,33,06,17,207,35,14,75,044,35*70
$GPGSV,3,2,12,22,51,063,37,19,36,251,23,18,23,081,32,31,21,162,35*76
$GPGSV,3,3,12,24,20,313,38,32,18,280,23,09,08,035,36,48,44,195,38*7F
$GPRMC,183023.583,A,3748.7942,N,12217.8173,W,0.00,,020411,,,A*6B
$GPVTG,,T,,M,0.00,N,0.0,K,N*1C
$GPGGA,183024.583,3748.7907,N,12217.8358,W,1,03,10.1,-10.3,M,-25.1,M,,0000*4B
$GPGSA,A,2,11,06,03,,,,,,,,,,10.1,10.1,1.0*37
$GPRMC,183024.583,A,3748.7907,N,12217.8358,W,0.00,,020411,,,A*66
$GPVTG,,T,,M,0.00,N,0.0,K,N*1C
$GPGGA,183025.583,3748.7889,N,12217.8391,W,1,03,10.1,-10.3,M,-25.1,M,,0000*48
$GPGSA,A,2,11,06,03,,,,,,,,,,10.1,10.1,1.0*37
$GPRMC,183025.583,A,3748.7889,N,12217.8391,W,0.00,,020411,,,A*65
$GPVTG,,T,,M,0.00,N,0.0,K,N*1C
$GPGGA,183026.583,3748.7835,N,12217.8605,W,1,03,10.1,-10.3,M,-25.1,M,,0000*44
$GPGSA,A,2,11,06,03,,,,,,,,,,10.1,10.1,1.0*37
$GPRMC,183026.583,A,3748.7835,N,12217.8605,W,0.00,,020411,,,A*69
$GPVTG,,T,,M,0.00,N,0.0,K,N*1C
$GPGGA,183027.583,3748.7842,N,12217.8572,W,1,04,1.9,6.1,M,-25.1,M,,0000*61
$GPGSA,A,3,14,11,06,03,,,,,,,,,2.1,1.9,1.0*38
$GPRMC,183027.583,A,3748.7842,N,12217.8572,W,2.58,124.55,020411,,,A*7D
$GPVTG,124.55,T,,M,2.58,N,4.8,K,A*09
$GPGGA,183028.583,3748.7844,N,12217.8551,W,1,04,1.9,4.6,M,-25.1,M,,0000*6C
$GPGSA,A,3,14,11,06,03,,,,,,,,,2.1,1.9,1.0*38
$GPGSV,3,1,12,14,75,043,28,11,28,308,28,03,18,218,37,06,17,207,36*7C
$GPGSV,3,2,12,22,51,064,32,19,36,250,36,18,22,081,34,31,22,161,34*77
$GPGSV,3,3,12,24,20,313,30,32,18,280,23,09,08,035,23,48,44,195,39*72
$GPRMC,183028.583,A,3748.7844,N,12217.8551,W,2.10,125.57,020411,,,A*7A
$GPVTG,125.57,T,,M,2.10,N,3.9,K,A*00
$GPGGA,183029.583,3748.7840,N,12217.8536,W,1,04,1.9,3.7,M,-25.1,M,,0000*6E
$GPGSA,A,3,14,11,06,03,,,,,,,,,2.1,1.9,1.0*38
$GPRMC,183029.583,A,3748.7840,N,12217.8536,W,2.64,125.58,020411,,,A*72
$GPVTG,125.58,T,,M,2.64,N,4.9,K,A*0B
$GPGGA,183030.000,3748.7841,N,12217.8530,W,1,04,1.9,1.7,M,-25.1,M,,0000*6D
$GPGSA,A,3,14,11,06,03,,,,,,,,,2.1,1.9,1.0*38
$GPRMC,183030.000,A,3748.7841,N,12217.8530,W,2.32,130.14,020411,,,A*7C
$GPVTG,130.14,T,,M,2.32,N,4.3,K,A*0E
$GPGGA,183031.000,3748.7829,N,12217.8526,W,1,04,1.9,2.5,M,-25.1,M,,0000*64
$GPGSA,A,3,14,11,06,03,,,,,,,,,2.1,1.9,1.0*38
$GPRMC,183031.000,A,3748.7829,N,12217.8526,W,1.75,121.07,020411,,,A*76
$GPVTG,121.07,T,,M,1.75,N,3.2,K,A*0A
$GPGGA,183032.000,3748.7822,N,12217.8551,W,1,04,1.9,8.7,M,-25.1,M,,0000*64
$GPGSA,A,3,14,11,06,03,,,,,,,,,2.1,1.9,1.0*38
$GPRMC,183032.000,A,3748.7822,N,12217.8551,W,0.71,108.35,020411,,,A*71
$GPVTG,108.35,T,,M,0.71,N,1.3,K,A*06
$GPGGA,183033.000,3748.7811,N,12217.8574,W,1,04,1.9,15.9,M,-25.1,M,,0000*50
$GPGSA,A,3,14,11,06,03,,,,,,,,,2.1,1.9,1.0*38
$GPGSV,3,1,12,14,75,043,28,11,28,308,26,03,18,218,30,06,17,207,23*71
$GPGSV,3,2,12,22,51,064,33,19,36,250,36,18,22,081,31,31,22,161,30*77
$GPGSV,3,3,12,24,20,313,25,32,18,280,29,09,08,035,22,48,44,195,36*72
$GPVTG,123.44,T,,M,1.43,N,2.7,K,A*0E
$GPGGA,183034.000,3748.7816,N,12217.8559,W,1,04,1.9,14.1,M,-25.1,M,,0000*56
$GPGSA,A,3,14,11,06,03,,,,,,,,,2.1,1.9,1.0*38
$GPRMC,183034.000,A,3748.7816,N,12217.8559,W,1.35,116.71,020411,,,A*76
$GPVTG,116.71,T,,M,1.35,N,2.5,K,A*0D
$GPGGA,183035.000,3748.7816,N,12217.8557,W,1,04,1.9,14.3,M,-25.1,M,,0000*5B
$GPGSA,A,3,14,11,06,03,,,,,,,,,2.1,1.9,1.0*38
$GPRMC,183035.000,A,3748.7816,N,12217.8557,W,1.69,134.25,020411,,,A*71
$GPVTG,134.25,T,,M,1.69,N,3.1,K,A*00
$GPGGA,183036.000,3748.7810,N,12217.8543,W,1,04,1.9,12.7,M,-25.1,M,,0000*59
$GPGSA,A,3,14,11,06,03,,,,,,,,,2.1,1.9,1.0*38
$GPRMC,183036.000,A,3748.7810,N,12217.8543,W,1.70,125.76,020411,,,A*7F
$GPVTG,125.76,T,,M,1.70,N,3.1,K,A*0E
$GPGGA,183037.000,3748.7806,N,12217.8525,W,1,04,1.9,10.9,M,-25.1,M,,0000*53
$GPGSA,A,3,14,11,06,03,,,,,,,,,2.1,1.9,1.0*38
$GPRMC,183037.000,A,3748.7806,N,12217.8525,W,1.40,121.86,020411,,,A*71
$GPVTG,121.86,T,,M,1.40,N,2.6,K,A*00
$GPGGA,183038.000,3748.7800,N,12217.8517,W,1,04,1.9,11.2,M,-25.1,M,,0000*51
$GPGSA,A,3,14,11,06,03,,,,,,,,,2.1,1.9,1.0*38
$GPGSV,3,1,12,14,75,043,28,11,28,308,25,03,18,218,32,06,17,207,23*70
$GPGSV,3,2,12,22,51,064,34,19,36,250,36,18,22,081,36,31,22,161,27*71
$GPGSV,3,3,12,24,20,313,25,32,18,280,29,09,08,035,24,48,44,195,35*77
$GPRMC,183038.000,A,3748.7800,N,12217.8517,W,0.72,108.50,020411,,,A*79
$GPVTG,108.50,T,,M,0.72,N,1.3,K,A*06
$GPGGA,183039.000,3748.7797,N,12217.8521,W,1,04,1.9,12.6,M,-25.1,M,,0000*53
$GPGSA,A,3,14,11,06,03,,,,,,,,,2.1,1.9,1.0*38
$GPRMC,183039.000,A,3748.7797,N,12217.8521,W,0.74,26.70,020411,,,A*45
$GPVTG,26.70,T,,M,0.74,N,1.4,K,A*38
$GPGGA,183040.000,3748.7810,N,12217.8466,W,1,04,1.9,2.2,M,-25.1,M,,0000*6A
$GPGSA,A,3,14,11,06,03,,,,,,,,,2.1,1.9,1.0*38
$GPRMC,183040.000,A,3748.7810,N,12217.8466,W,1.28,103.53,020411,,,A*76
$GPVTG,103.53,T,,M,1.28,N,2.4,K,A*04
$GPGGA,183041.000,3748.7811,N,12217.8447,W,1,04,1.9,0.7,M,-25.1,M,,0000*6E
$GPGSA,A,3,14,11,06,03,,,,,,,,,2.1,1.9,1.0*38
$GPRMC,183041.000,A,3748.7811,N,12217.8447,W,1.20,134.80,020411,,,A*77
$GPVTG,134.80,T,,M,1.20,N,2.2,K,A*00
$GPGGA,183042.000,3748.7794,N,12217.8453,W,1,04,1.9,4.8,M,-25.1,M,,0000*61
$GPGSA,A,3,14,11,06,03,,,,,,,,,2.1,1.9,1.0*38
$GPRMC,183042.000,A,3748.7794,N,12217.8453,W,1.44,151.75,020411,,,A*78
$GPVTG,151.75,T,,M,1.44,N,2.7,K,A*0E
$GPGGA,183043.000,3748.7784,N,12217.8444,W,1,04,1.9,8.8,M,-25.1,M,,0000*6B
$GPGSA,A,3,14,11,06,03,,,,,,,,,2.1,1.9,1.0*38
$GPGSV,3,1,12,14,75,043,28,22,51,064,34,19,36,250,31,11,28,308,25*7D
$GPGSV,3,2,12,18,22,081,37,31,22,161,32,24,20,313,25,32,18,280,29*71
$GPGSV,3,3,12,03,18,218,22,06,16,207,19,09,08,034,32,48,44,195,34*76
$GPRMC,183043.000,A,3748.7784,N,12217.8444,W,2.31,136.85,020411,,,A*71
$GPVTG,136.85,T,,M,2.31,N,4.3,K,A*03
$GPGGA,183044.000,3748.7780,N,12217.8438,W,1,04,1.9,10.6,M,-25.1,M,,0000*54
$GPGSA,A,3,14,11,06,03,,,,,,,,,2.1,1.9,1.0*38
$GPRMC,183044.000,A,3748.7780,N,12217.8438,W,2.16,141.68,020411,,,A*7F
$GPVTG,141.68,T,,M,2.16,N,4.0,K,A*06
$GPGGA,183045.000,3748.7776,N,12217.8429,W,1,04,1.9,11.0,M,-25.1,M,,0000*5B
$GPGSA,A,3,14,11,06,03,,,,,,,,,2.1,1.9,1.0*38
$GPRMC,183045.000,A,3748.7776,N,12217.8429,W,2.39,140.65,020411,,,A*76
$GPVTG,140.65,T,,M,2.39,N,4.4,K,A*03
$GPGGA,183046.000,3748.7771,N,12217.8416,W,1,04,1.9,11.5,M,-25.1,M,,0000*56
$GPGSA,A,3,14,11,06,03,,,,,,,,,2.1,1.9,1.0*38
$GPRMC,183046.000,A,3748.7771,N,12217.8416,W,2.12,140.73,020411,,,A*70
$GPVTG,140.73,T,,M,2.12,N,3.9,K,A*07
$GPGGA,183047.000,3748.7768,N,12217.8411,W,1,04,1.9,11.8,M,-25.1,M,,0000*55
$GPGSA,A,3,14,11,06,03,,,,,,,,,2.1,1.9,1.0*38
$GPRMC,183047.000,A,3748.7768,N,12217.8411,W,2.06,165.65,020411,,,A*7B
$GPVTG,165.65,T,,M,2.06,N,3.8,K,A*03
$GPGGA,183048.000,3748.7764,N,12217.8424,W,1,04,1.9,13.6,M,-25.1,M,,0000*5C
$GPGSA,A,3,14,11,06,03,,,,,,,,,2.1,1.9,1.0*38
$GPGSV,3,1,12,14,75,043,28,22,51,064,34,19,36,250,35,11,28,308,25*79
$GPGSV,3,2,12,18,22,081,37,31,22,161,32,24,20,313,28,32,18,280,26*73
$GPGSV,3,3,12,03,18,218,21,06,16,207,19,09,08,034,30,48,44,195,35*76
$GPRMC,183048.000,A,3748.7764,N,12217.8424,W,1.22,192.94,020411,,,A*7D
$GPGGA,183049.000,3748.7754,N,12217.8452,W,1,04,1.9,20.9,M,-25.1,M,,0000*50
$GPGSA,A,3,14,11,06,03,,,,,,,,,2.1,1.9,1.0*38
$GPRMC,183049.000,A,3748.7754,N,12217.8452,W,1.50,159.12,020411,,,A*72
$GPVTG,159.12,T,,M,1.50,N,2.8,K,A*0D
$GPGGA,183050.000,3748.7752,N,12217.8468,W,1,04,1.9,23.7,M,-25.1,M,,0000*5A
$GPGSA,A,3,14,11,06,03,,,,,,,,,2.1,1.9,1.0*38
$GPRMC,183050.000,A,3748.7752,N,12217.8468,W,1.48,158.69,020411,,,A*71
$GPVTG,158.69,T,,M,1.48,N,2.7,K,A*06
$GPGGA,183051.000,3748.7761,N,12217.8402,W,1,05,2.1,10.1,M,-25.1,M,,0000*5B
$GPGSA,A,3,22,14,11,06,03,,,,,,,,4.4,2.1,3.9*3B
$GPRMC,183051.000,A,3748.7761,N,12217.8402,W,1.14,159.71,020411,,,A*7D
$GPVTG,159.71,T,,M,1.14,N,2.1,K,A*01
$GPGGA,183052.000,3748.7758,N,12217.8394,W,1,05,2.1,8.6,M,-25.1,M,,0000*64
$GPGSA,A,3,22,14,11,06,03,,,,,,,,4.4,2.1,3.9*3B
$GPRMC,183052.000,A,3748.7758,N,12217.8394,W,2.01,142.64,020411,,,A*75
$GPVTG,142.64,T,,M,2.01,N,3.7,K,A*0F
$GPGGA,183053.000,3748.7756,N,12217.8380,W,1,05,2.1,6.8,M,-25.1,M,,0000*6E
$GPGSA,A,3,22,14,11,06,03,,,,,,,,4.4,2.1,3.9*3B
$GPGSV,3,1,12,14,75,043,28,22,51,064,34,19,36,250,26,11,29,308,26*79
$GPGSV,3,2,12,18,22,081,34,31,22,161,45,24,21,313,27,32,18,280,26*7E
$GPGSV,3,3,12,03,18,218,22,06,16,207,20,09,08,034,26,48,44,195,35*78
$GPRMC,183053.000,A,3748.7756,N,12217.8380,W,2.56,139.92,020411,,,A*78
$GPVTG,139.92,T,,M,2.56,N,4.7,K,A*0F
$GPGGA,183054.000,3748.7750,N,12217.8372,W,1,05,2.1,6.1,M,-25.1,M,,0000*6B
$GPGSA,A,3,22,14,11,06,03,,,,,,,,4.4,2.1,3.9*3B
$GPRMC,183054.000,A,3748.7750,N,12217.8372,W,2.46,138.31,020411,,,A*7D
$GPVTG,138.31,T,,M,2.46,N,4.5,K,A*04
$GPGGA,183055.000,3748.7751,N,12217.8360,W,1,05,2.1,4.3,M,-25.1,M,,0000*68
$GPGSA,A,3,22,14,11,06,03,,,,,,,,4.4,2.1,3.9*3B
$GPRMC,183055.000,A,3748.7751,N,12217.8360,W,2.14,110.94,020411,,,A*7C
$GPVTG,110.94,T,,M,2.14,N,4.0,K,A*03
$GPGGA,183056.000,3748.7751,N,12217.8354,W,1,05,2.1,2.7,M,-25.1,M,,0000*6E
$GPGSA,A,3,22,14,11,06,03,,,,,,,,4.4,2.1,3.9*3B
$GPRMC,183056.000,A,3748.7751,N,12217.8354,W,1.58,120.23,020411,,,A*7C
$GPVTG,120.23,T,,M,1.58,N,2.9,K,A*08
$GPGGA,183057.000,3748.7751,N,12217.8342,W,1,05,2.1,2.0,M,-25.1,M,,0000*6F
$GPGSA,A,3,22,14,11,06,03,,,,,,,,4.4,2.1,3.9*3B
$GPRMC,183057.000,A,3748.7751,N,12217.8342,W,2.70,120.64,020411,,,A*70
$GPVTG,120.64,T,,M,2.70,N,5.0,K,A*0C
$GPGGA,183058.000,3748.7757,N,12217.8329,W,1,05,2.1,0.7,M,-25.1,M,,0000*6E
$GPGSA,A,3,22,14,11,06,03,,,,,,,,4.4,2.1,3.9*3B
$GPGSV,3,1,11,14,75,043,30,22,51,064,32,19,36,250,17,11,29,308,27*76
$GPGSV,3,2,11,18,22,081,36,31,22,161,27,24,21,313,25,32,18,280,22*7D
$GPGSV,3,3,11,03,18,218,22,06,16,207,21,09,08,034,19*41
$GPRMC,183058.000,A,3748.7757,N,12217.8329,W,3.48,108.14,020411,,,A*73
$GPVTG,108.14,T,,M,3.48,N,6.5,K,A*0D
$GPGGA,183059.000,3748.7763,N,12217.8321,W,1,05,2.1,-0.0,M,-25.1,M,,0000*4A
$GPGSA,A,3,22,14,11,06,03,,,,,,,,4.4,2.1,3.9*3B
$GPRMC,183059.000,A,3748.7763,N,12217.8321,W,2.31,113.70,020411,,,A*7A
$GPVTG,113.70,T,,M,2.31,N,4.3,K,A*0E
$GPGGA,183100.000,3748.7764,N,12217.8310,W,1,05,2.1,-0.3,M,-25.1,M,,0000*41
$GPGSA,A,3,22,14,11,06,03,,,,,,,,4.4,2.1,3.9*3B
$GPRMC,183100.000,A,3748.7764,N,12217.8310,W,2.44,114.16,020411,,,A*77
$GPVTG,114.16,T,,M,2.44,N,4.5,K,A*0D
$GPGGA,183101.000,3748.7764,N,12217.8299,W,1,05,2.1,0.1,M,-25.1,M,,0000*6F
$GPGSA,A,3,22,14,11,06,03,,,,,,,,4.4,2.1,3.9*3B
$GPRMC,183101.000,A,3748.7764,N,12217.8299,W,1.93,118.46,020411,,,A*76
$GPVTG,118.46,T,,M,1.93,N,3.6,K,A*09
$GPGGA,183102.000,3748.7760,N,12217.8293,W,1,03,7.5,-0.1,M,-25.1,M,,0000*48
$GPGSA,A,2,22,14,11,,,,,,,,,,7.6,7.5,1.0*34
$GPRMC,183102.000,A,3748.7760,N,12217.8293,W,2.68,134.43,020411,,,A*77
$GPVTG,134.43,T,,M,2.68,N,5.0,K,A*05
$GPGGA,183103.000,3748.7752,N,12217.8283,W,1,03,7.5,0.1,M,-25.1,M,,0000*64
$GPGSA,A,2,22,14,11,,,,,,,,,,7.6,7.5,1.0*34
$GPGSV,3,1,11,14,75,043,30,22,51,064,35,19,36,250,19,11,29,308,26*7E
$GPGSV,3,2,11,18,22,081,31,31,22,161,22,24,21,313,23,32,18,280,10*78
$GPGSV,3,3,11,03,18,218,12,06,16,207,17,09,08,034,23*4E
$GPRMC,183103.000,A,3748.7752,N,12217.8283,W,3.08,133.00,020411,,,A*71
$GPGGA,183104.000,3748.7748,N,12217.8274,W,1,03,7.5,0.2,M,-25.1,M,,0000*63
$GPGSA,A,2,22,14,11,,,,,,,,,,7.6,7.5,1.0*34
$GPRMC,183104.000,A,3748.7748,N,12217.8274,W,2.73,120.67,020411,,,A*7B
$GPVTG,120.67,T,,M,2.73,N,5.1,K,A*0D
$GPGGA,183105.000,3748.7745,N,12217.8267,W,1,04,2.2,0.2,M,-25.1,M,,0000*68
$GPGSA,A,3,22,14,11,03,,,,,,,,,4.6,2.2,4.0*32
$GPRMC,183105.000,A,3748.7745,N,12217.8267,W,2.81,131.21,020411,,,A*7A
$GPVTG,131.21,T,,M,2.81,N,5.2,K,A*01
$GPGGA,183106.000,3748.7741,N,12217.8262,W,1,03,7.6,-0.1,M,-25.1,M,,0000*42
$GPGSA,A,2,22,14,11,,,,,,,,,,7.6,7.6,1.0*37
$GPRMC,183106.000,A,3748.7741,N,12217.8262,W,2.24,147.73,020411,,,A*71
$GPVTG,147.73,T,,M,2.24,N,4.1,K,A*0A
$GPGGA,183107.000,3748.7736,N,12217.8258,W,1,03,7.6,-1.0,M,-25.1,M,,0000*4A
$GPGSA,A,2,22,14,11,,,,,,,,,,7.6,7.6,1.0*37
$GPRMC,183107.000,A,3748.7736,N,12217.8258,W,2.65,152.50,020411,,,A*79
$GPVTG,152.50,T,,M,2.65,N,4.9,K,A*02
$GPGGA,183108.000,3748.7731,N,12217.8249,W,1,03,7.6,-1.9,M,-25.1,M,,0000*4B
$GPGSA,A,2,22,14,11,,,,,,,,,,7.6,7.6,1.0*37
$GPGSV,3,1,11,14,75,043,28,22,51,064,35,19,36,250,18,11,29,308,27*77
$GPGSV,3,2,11,18,22,081,35,31,22,161,19,24,21,313,22,32,18,280,12*77
$GPGSV,3,3,11,03,18,218,18,06,16,207,18,09,08,034,19*42
$GPRMC,183108.000,A,3748.7731,N,12217.8249,W,1.94,155.19,020411,,,A*76
$GPVTG,155.19,T,,M,1.94,N,3.6,K,A*0D
$GPGGA,183109.000,3748.7735,N,12217.8241,W,1,05,2.1,-1.9,M,-25.1,M,,0000*42
$GPGSA,A,3,22,14,11,06,03,,,,,,,,4.4,2.1,3.9*3B
$GPRMC,183109.000,A,3748.7735,N,12217.8241,W,1.32,90.44,020411,,,A*47
$GPVTG,90.44,T,,M,1.32,N,2.4,K,A*32
$GPGGA,183110.000,3748.7741,N,12217.8232,W,1,05,2.1,-1.6,M,-25.1,M,,0000*42
$GPGSA,A,3,22,14,11,06,03,,,,,,,,4.4,2.1,3.9*3B
$GPRMC,183110.000,A,3748.7741,N,12217.8232,W,1.87,107.26,020411,,,A*7D
$GPVTG,107.26,T,,M,1.87,N,3.5,K,A*07
$GPGGA,183111.000,3748.7749,N,12217.8222,W,1,05,2.1,-0.9,M,-25.1,M,,0000*44
$GPGSA,A,3,22,14,11,06,03,,,,,,,,4.4,2.1,3.9*3B
$GPRMC,183111.000,A,3748.7749,N,12217.8222,W,2.39,128.71,020411,,,A*7C
$GPVTG,128.71,T,,M,2.39,N,4.4,K,A*08
$GPGGA,183112.000,3748.7753,N,12217.8210,W,1,05,2.1,0.3,M,-25.1,M,,0000*6A
$GPGSA,A,3,22,14,11,06,03,,,,,,,,4.4,2.1,3.9*3B
$GPRMC,183112.000,A,3748.7753,N,12217.8210,W,2.94,132.07,020411,,,A*78
$GPVTG,132.07,T,,M,2.94,N,5.4,K,A*04
$GPGGA,183113.000,3748.7756,N,12217.8202,W,1,05,2.1,1.1,M,-25.1,M,,0000*6E
$GPGSA,A,3,22,14,11,06,03,,,,,,,,4.4,2.1,3.9*3B
$GPGSV,3,1,11,14,75,043,29,22,51,064,37,19,36,250,18,11,29,308,27*74
$GPGSV,3,2,11,18,22,081,38,31,22,161,26,24,21,313,24,32,18,280,*73
$GPGSV,3,3,11,03,18,218,23,06,16,207,20,09,08,034,25*4E
$GPRMC,183113.000,A,3748.7756,N,12217.8202,W,2.48,123.32,020411,,,A*78
$GPVTG,123.32,T,,M,2.48,N,4.6,K,A*00
$GPGGA,183114.000,3748.7763,N,12217.8193,W,1,05,2.1,2.3,M,-25.1,M,,0000*65
$GPGSA,A,3,22,14,11,06,03,,,,,,,,4.4,2.1,3.9*3B
$GPRMC,183114.000,A,3748.7763,N,12217.8193,W,2.29,132.90,020411,,,A*7D
$GPVTG,132.90,T,,M,2.29,N,4.2,K,A*0B
$GPGGA,183115.000,3748.7766,N,12217.8184,W,1,05,2.1,1.7,M,-25.1,M,,0000*60
$GPGSA,A,3,22,14,11,06,03,,,,,,,,4.4,2.1,3.9*3B
$GPRMC,183115.000,A,3748.7766,N,12217.8184,W,1.40,127.11,020411,,,A*7E
$GPVTG,127.11,T,,M,1.40,N,2.6,K,A*08
$GPGGA,183116.000,3748.7768,N,12217.8172,W,1,05,2.1,2.2,M,-25.1,M,,0000*62
$GPGSA,A,3,22,14,11,06,03,,,,,,,,4.4,2.1,3.9*3B
$GPRMC,183116.000,A,3748.7768,N,12217.8172,W,1.14,111.31,020411,,,A*7C
$GPVTG,111.31,T,,M,1.14,N,2.1,K,A*09
$GPGGA,183117.000,3748.7764,N,12217.8160,W,1,05,2.1,2.9,M,-25.1,M,,0000*67
$GPGSA,A,3,22,14,11,06,03,,,,,,,,4.4,2.1,3.9*3B
$GPRMC,183117.000,A,3748.7764,N,12217.8160,W,1.12,119.51,020411,,,A*7A
$GPVTG,119.51,T,,M,1.12,N,2.1,K,A*01
$GPGGA,183118.000,3748.7765,N,12217.8156,W,1,05,2.1,3.5,M,-25.1,M,,0000*61
$GPGSA,A,3,22,14,11,06,03,,,,,,,,4.4,2.1,3.9*3B
$GPGSV,3,1,11,14,75,043,29,22,51,064,37,19,36,250,25,11,29,308,27*7A
$GPGSV,3,2,11,18,22,081,39,31,22,161,25,24,21,313,32,32,18,280,21*75
$GPGSV,3,3,11,03,18,218,23,06,16,207,26,09,08,034,23*4E
$GPRMC,183118.000,A,3748.7765,N,12217.8156,W,1.03,142.09,020411,,,A*72
$GPGGA,183119.000,3748.7764,N,12217.8149,W,1,05,2.1,3.8,M,-25.1,M,,0000*62
$GPGSA,A,3,22,14,11,06,03,,,,,,,,4.4,2.1,3.9*3B
$GPRMC,183119.000,A,3748.7764,N,12217.8149,W,1.29,120.86,020411,,,A*77
$GPVTG,120.86,T,,M,1.29,N,2.4,K,A*0C
$GPGGA,183120.000,3748.7764,N,12217.8142,W,1,05,2.1,4.0,M,-25.1,M,,0000*6C
$GPGSA,A,3,22,14,11,06,03,,,,,,,,4.4,2.1,3.9*3B
$GPRMC,183120.000,A,3748.7764,N,12217.8142,W,1.45,109.83,020411,,,A*72
$GPVTG,109.83,T,,M,1.45,N,2.7,K,A*0B
$GPGGA,183121.000,3748.7765,N,12217.8135,W,1,05,2.1,4.0,M,-25.1,M,,0000*6C
$GPGSA,A,3,22,14,11,06,03,,,,,,,,4.4,2.1,3.9*3B
$GPRMC,183121.000,A,3748.7765,N,12217.8135,W,2.15,108.31,020411,,,A*7C
$GPVTG,108.31,T,,M,2.15,N,4.0,K,A*04
$GPGGA,183122.000,3748.7760,N,12217.8129,W,1,05,2.1,5.3,M,-25.1,M,,0000*65
$GPGSA,A,3,22,14,11,06,03,,,,,,,,4.4,2.1,3.9*3B
$GPRMC,183122.000,A,3748.7760,N,12217.8129,W,2.56,121.90,020411,,,A*70
$GPVTG,121.90,T,,M,2.56,N,4.7,K,A*04
$GPGGA,183123.000,3748.7753,N,12217.8118,W,1,05,2.1,6.0,M,-25.1,M,,0000*66
$GPGSA,A,3,22,14,11,06,03,,,,,,,,4.4,2.1,3.9*3B
$GPGSV,3,1,11,14,75,043,29,22,51,064,35,19,36,250,23,11,29,308,27*7E
$GPGSV,3,2,11,18,22,081,39,31,22,161,23,24,21,313,28,32,18,280,21*78
$GPGSV,3,3,11,03,18,218,23,06,16,207,25,09,08,034,23*4D
$GPRMC,183123.000,A,3748.7753,N,12217.8118,W,2.10,127.66,020411,,,A*7E
$GPVTG,127.66,T,,M,2.10,N,3.9,K,A*00
$GPGGA,183124.000,3748.7746,N,12217.8108,W,1,05,2.1,7.0,M,-25.1,M,,0000*65
$GPGSA,A,3,22,14,11,06,03,,,,,,,,4.4,2.1,3.9*3B
$GPRMC,183124.000,A,3748.7746,N,12217.8108,W,1.81,132.33,020411,,,A*73
$GPVTG,132.33,T,,M,1.81,N,3.4,K,A*02
$GPGGA,183125.000,3748.7742,N,12217.8102,W,1,05,2.1,7.4,M,-25.1,M,,0000*6E
$GPGSA,A,3,22,14,11,06,03,,,,,,,,4.4,2.1,3.9*3B
$GPRMC,183125.000,A,3748.7742,N,12217.8102,W,2.08,140.42,020411,,,A*7D
$GPVTG,140.42,T,,M,2.08,N,3.9,K,A*0E
$GPGGA,183126.000,3748.7741,N,12217.8099,W,1,05,2.1,7.3,M,-25.1,M,,0000*6A
$GPGSA,A,3,22,14,11,06,03,,,,,,,,4.4,2.1,3.9*3B
$GPRMC,183126.000,A,3748.7741,N,12217.8099,W,2.21,140.48,020411,,,A*7F
$GPVTG,140.48,T,,M,2.21,N,4.1,K,A*00
$GPGGA,183127.000,3748.7741,N,12217.8088,W,1,06,1.2,5.4,M,-25.1,M,,0000*6D
$GPGSA,A,3,22,14,11,06,03,18,,,,,,,2.4,1.2,2.1*3D
$GPRMC,183127.000,A,3748.7741,N,12217.8088,W,2.57,133.34,020411,,,A*70
$GPVTG,133.34,T,,M,2.57,N,4.8,K,A*07
$GPGGA,183128.000,3748.7742,N,12217.8077,W,1,06,1.2,4.1,M,-25.1,M,,0000*65
$GPGSA,A,3,22,14,11,06,03,18,,,,,,,2.4,1.2,2.1*3D
$GPGSV,3,1,11,14,74,043,29,22,51,064,35,19,36,250,20,11,29,307,28*7C
$GPGSV,3,2,11,31,22,161,23,18,22,081,37,24,21,313,26,32,19,281,21*78
$GPGSV,3,3,11,03,18,218,24,06,16,207,25,09,07,034,30*47
$GPRMC,183128.000,A,3748.7742,N,12217.8077,W,2.23,131.52,020411,,,A*7D
$GPVTG,131.52,T,,M,2.23,N,4.1,K,A*0F
$GPGGA,183129.000,3748.7737,N,12217.8065,W,1,06,1.2,3.7,M,-25.1,M,,0000*64
$GPGSA,A,3,22,14,11,06,03,18,,,,,,,2.4,1.2,2.1*3D
$GPRMC,183129.000,A,3748.7737,N,12217.8065,W,2.20,127.45,020411,,,A*7F
$GPVTG,127.45,T,,M,2.20,N,4.1,K,A*0D
$GPGGA,183130.000,3748.7731,N,12217.8048,W,1,06,1.2,3.0,M,-25.1,M,,0000*62
$GPGSA,A,3,22,14,11,06,03,18,,,,,,,2.4,1.2,2.1*3D
$GPRMC,183130.000,A,3748.7731,N,12217.8048,W,0.95,93.01,020411,,,A*4C
$GPVTG,93.01,T,,M,0.95,N,1.8,K,A*33
$GPGGA,183131.000,3748.7730,N,12217.8035,W,1,06,1.2,2.4,M,-25.1,M,,0000*6D
$GPGSA,A,3,22,14,11,06,03,18,,,,,,,2.4,1.2,2.1*3D
$GPRMC,183131.000,A,3748.7730,N,12217.8035,W,1.37,114.95,020411,,,A*7C
$GPVTG,114.95,T,,M,1.37,N,2.5,K,A*07
$GPGGA,183132.000,3748.7728,N,12217.8024,W,1,06,1.2,2.3,M,-25.1,M,,0000*60
$GPGSA,A,3,22,14,11,06,03,18,,,,,,,2.4,1.2,2.1*3D
$GPRMC,183132.000,A,3748.7728,N,12217.8024,W,1.26,114.53,020411,,,A*7C
$GPVTG,114.53,T,,M,1.26,N,2.3,K,A*0B
$GPGGA,183133.000,3748.7718,N,12217.8013,W,1,06,1.2,4.5,M,-25.1,M,,0000*66
$GPGSA,A,3,22,14,11,06,03,18,,,,,,,2.4,1.2,2.1*3D
$GPGSV,3,1,11,14,74,043,29,22,51,064,32,19,36,250,27,11,29,307,27*73
$GPGSV,3,2,11,31,22,161,24,18,22,081,33,24,21,313,27,32,19,281,21*7A
$GPGSV,3,3,11,03,18,218,24,06,16,207,24,09,07,034,23*44
$GPRMC,183133.000,A,3748.7718,N,12217.8013,W,1.73,128.94,020411,,,A*7E
$GPGGA,183134.000,3748.7712,N,12217.8006,W,1,06,1.2,5.6,M,-25.1,M,,0000*6D
$GPGSA,A,3,22,14,11,06,03,18,,,,,,,2.4,1.2,2.1*3D
$GPRMC,183134.000,A,3748.7712,N,12217.8006,W,1.63,130.52,020411,,,A*75
$GPVTG,130.52,T,,M,1.63,N,3.0,K,A*0F
$GPGGA,183135.000,3748.7706,N,12217.8000,W,1,06,1.2,4.9,M,-25.1,M,,0000*61
$GPGSA,A,3,22,14,11,06,03,18,,,,,,,2.4,1.2,2.1*3D
$GPRMC,183135.000,A,3748.7706,N,12217.8000,W,1.46,129.03,020411,,,A*7C
$GPVTG,129.03,T,,M,1.46,N,2.7,K,A*02
$GPGGA,183136.000,3748.7705,N,12217.7997,W,1,06,1.2,4.8,M,-25.1,M,,0000*68
$GPGSA,A,3,22,14,11,06,03,18,,,,,,,2.4,1.2,2.1*3D
$GPRMC,183136.000,A,3748.7705,N,12217.7997,W,1.16,133.89,020411,,,A*78
$GPVTG,133.89,T,,M,1.16,N,2.1,K,A*08
$GPGGA,183137.000,3748.7707,N,12217.7994,W,1,06,1.2,2.7,M,-25.1,M,,0000*61
$GPGSA,A,3,22,14,11,06,03,18,,,,,,,2.4,1.2,2.1*3D
$GPRMC,183137.000,A,3748.7707,N,12217.7994,W,1.16,138.20,020411,,,A*70
$GPVTG,138.20,T,,M,1.16,N,2.1,K,A*00
$GPGGA,183138.000,3748.7705,N,12217.7991,W,1,06,1.2,2.4,M,-25.1,M,,0000*6A
$GPGSA,A,3,22,14,11,06,03,18,,,,,,,2.4,1.2,2.1*3D
$GPGSV,3,1,11,14,74,043,24,22,51,064,31,19,36,250,25,11,29,307,28*70
$GPGSV,3,2,11,31,22,161,29,18,22,081,33,24,21,313,28,32,19,281,21*78
$GPGSV,3,3,11,03,18,218,24,06,16,207,24,09,07,034,25*42
$GPRMC,183138.000,A,3748.7705,N,12217.7991,W,1.17,147.48,020411,,,A*7F
$GPVTG,147.48,T,,M,1.17,N,2.2,K,A*04
$GPGGA,183139.000,3748.7703,N,12217.7992,W,1,06,1.2,2.1,M,-25.1,M,,0000*6B
$GPGSA,A,3,22,14,11,06,03,18,,,,,,,2.4,1.2,2.1*3D
$GPRMC,183139.000,A,3748.7703,N,12217.7992,W,1.37,147.13,020411,,,A*77
$GPVTG,147.13,T,,M,1.37,N,2.5,K,A*0F
$GPGGA,183140.000,3748.7697,N,12217.7989,W,1,06,1.2,2.2,M,-25.1,M,,0000*60
$GPGSA,A,3,22,14,11,06,03,18,,,,,,,2.4,1.2,2.1*3D
$GPRMC,183140.000,A,3748.7697,N,12217.7989,W,1.17,138.39,020411,,,A*7D
$GPVTG,138.39,T,,M,1.17,N,2.2,K,A*0A
$GPGGA,183141.000,3748.7692,N,12217.7986,W,1,06,1.2,1.7,M,-25.1,M,,0000*6D
$GPGSA,A,3,22,14,11,06,03,18,,,,,,,2.4,1.2,2.1*3D
$GPRMC,183141.000,A,3748.7692,N,12217.7986,W,1.40,151.72,020411,,,A*74
$GPVTG,151.72,T,,M,1.40,N,2.6,K,A*0C
$GPGGA,183142.000,3748.7688,N,12217.7984,W,1,06,1.2,1.0,M,-25.1,M,,0000*60
$GPGSA,A,3,22,14,11,06,03,18,,,,,,,2.4,1.2,2.1*3D
$GPRMC,183142.000,A,3748.7688,N,12217.7984,W,0.15,163.97,020411,,,A*75
$GPVTG,163.97,T,,M,0.15,N,0.3,K,A*00
$GPGGA,183143.000,3748.7687,N,12217.7987,W,1,06,1.2,1.1,M,-25.1,M,,0000*6C
$GPGSA,A,3,22,14,11,06,03,18,,,,,,,2.4,1.2,2.1*3D
$GPGSV,3,1,11,14,74,043,23,22,51,064,35,19,36,250,14,11,29,307,21*78
$GPGSV,3,2,11,31,22,161,27,18,22,081,41,24,21,313,27,32,19,281,20*7D
$GPGSV,3,3,11,03,18,218,24,06,16,207,19,09,07,034,27*4E
$GPRMC,183143.000,A,3748.7687,N,12217.7987,W,1.18,342.23,020411,,,A*7A
$GPVTG,342.23,T,,M,1.18,N,2.2,K,A*01
$GPGGA,183144.000,3748.7678,N,12217.7991,W,1,06,1.2,2.5,M,-25.1,M,,0000*6B
$GPGSA,A,3,22,14,11,06,03,18,,,,,,,2.4,1.2,2.1*3D
$GPRMC,183144.000,A,3748.7678,N,12217.7991,W,0.93,335.35,020411,,,A*7F
$GPVTG,335.35,T,,M,0.93,N,1.7,K,A*02
$GPGGA,183145.000,3748.7674,N,12217.7996,W,1,06,1.2,3.4,M,-25.1,M,,0000*61
$GPGSA,A,3,22,14,11,06,03,18,,,,,,,2.4,1.2,2.1*3D
$GPRMC,183145.000,A,3748.7674,N,12217.7996,W,0.92,338.65,020411,,,A*7C
$GPVTG,338.65,T,,M,0.92,N,1.7,K,A*0B
$GPGGA,183146.000,3748.7674,N,12217.8002,W,1,05,1.4,2.8,M,-25.1,M,,0000*61
$GPGSA,A,3,22,14,11,03,18,,,,,,,,2.5,1.4,2.1*3C
$GPRMC,183146.000,A,3748.7674,N,12217.8002,W,1.59,341.65,020411,,,A*7C
$GPVTG,341.65,T,,M,1.59,N,3.0,K,A*06
$GPGGA,183147.000,3748.7683,N,12217.8003,W,1,06,1.2,3.4,M,-25.1,M,,0000*61
$GPGSA,A,3,22,14,11,06,03,18,,,,,,,2.4,1.2,2.1*3D
$GPRMC,183147.000,A,3748.7683,N,12217.8003,W,1.14,341.23,020411,,,A*7F
$GPVTG,341.23,T,,M,1.14,N,2.1,K,A*0D
$GPGGA,183148.000,3748.7681,N,12217.8003,W,1,06,1.2,4.5,M,-25.1,M,,0000*6A
$GPGSA,A,3,22,14,11,06,03,18,,,,,,,2.4,1.2,2.1*3D
$GPGSV,3,1,11,14,74,043,24,22,51,064,26,19,36,250,19,11,29,307,22*73
$GPGSV,3,2,11,31,22,161,26,18,22,081,41,24,21,313,22,32,19,281,17*7D
$GPGSV,3,3,11,03,18,218,24,06,16,207,19,09,07,034,30*48
$GPRMC,183148.000,A,3748.7681,N,12217.8003,W,0.29,179.76,020411,,,A*74
$GPGGA,183149.000,3748.7680,N,12217.8005,W,1,06,1.2,5.1,M,-25.1,M,,0000*69
$GPGSA,A,3,22,14,11,06,03,18,,,,,,,2.4,1.2,2.1*3D
$GPRMC,183149.000,A,3748.7680,N,12217.8005,W,0.65,355.88,020411,,,A*77
$GPVTG,355.88,T,,M,0.65,N,1.2,K,A*0E
$GPGGA,183150.000,3748.7676,N,12217.8006,W,1,06,1.2,6.2,M,-25.1,M,,0000*6B
$GPGSA,A,3,22,14,11,06,03,18,,,,,,,2.4,1.2,2.1*3D
$GPRMC,183150.000,A,3748.7676,N,12217.8006,W,0.50,356.69,020411,,,A*7F
$GPVTG,356.69,T,,M,0.50,N,0.9,K,A*0E
$GPGGA,183151.000,3748.7668,N,12217.8003,W,1,06,1.2,6.8,M,-25.1,M,,0000*6A
$GPGSA,A,3,22,14,11,06,03,18,,,,,,,2.4,1.2,2.1*3D
$GPRMC,183151.000,A,3748.7668,N,12217.8003,W,0.08,185.75,020411,,,A*78
$GPVTG,185.75,T,,M,0.08,N,0.1,K,A*0A
$GPGGA,183152.000,3748.7656,N,12217.7999,W,1,06,1.2,7.8,M,-25.1,M,,0000*60
$GPGSA,A,3,22,14,11,06,03,18,,,,,,,2.4,1.2,2.1*3D
$GPRMC,183152.000,A,3748.7656,N,12217.7999,W,0.78,176.07,020411,,,A*7D
$GPVTG,176.07,T,,M,0.78,N,1.4,K,A*00
$GPGGA,183153.000,3748.7643,N,12217.7994,W,1,06,1.2,9.0,M,-25.1,M,,0000*6E
$GPGSA,A,3,22,14,11,06,03,18,,,,,,,2.4,1.2,2.1*3D
$GPGSV,3,1,11,14,74,043,14,22,51,064,34,19,36,250,22,11,29,307,28*71
$GPGSV,3,2,11,31,22,161,17,18,22,081,41,24,21,313,21,32,19,281,*7A
$GPGSV,3,3,11,03,18,218,24,06,16,207,18,09,07,034,29*41
$GPRMC,183153.000,A,3748.7643,N,12217.7994,W,1.07,176.38,020411,,,A*70
$GPVTG,176.38,T,,M,1.07,N,2.0,K,A*02
$GPGGA,183154.000,3748.7631,N,12217.7988,W,1,05,1.4,10.2,M,-25.1,M,,0000*5E
$GPGSA,A,3,22,14,11,03,18,,,,,,,,2.5,1.4,2.1*3C
$GPRMC,183154.000,A,3748.7631,N,12217.7988,W,0.77,168.09,020411,,,A*74
$GPVTG,168.09,T,,M,0.77,N,1.4,K,A*0E
$GPGGA,183155.000,3748.7621,N,12217.7984,W,1,05,1.4,11.2,M,-25.1,M,,0000*53
$GPGSA,A,3,22,14,11,03,18,,,,,,,,2.5,1.4,2.1*3C
$GPRMC,183155.000,A,3748.7621,N,12217.7984,W,0.75,159.36,020411,,,A*74
$GPVTG,159.36,T,,M,0.75,N,1.4,K,A*02
$GPGGA,183156.000,3748.7619,N,12217.7982,W,1,06,1.2,11.4,M,-25.1,M,,0000*5E
$GPGSA,A,3,22,14,11,06,03,18,,,,,,,2.4,1.2,2.1*3D
$GPRMC,183156.000,A,3748.7619,N,12217.7982,W,1.14,146.10,020411,,,A*76
$GPVTG,146.10,T,,M,1.14,N,2.1,K,A*08
$GPGGA,183157.000,3748.7619,N,12217.7980,W,1,06,1.2,11.7,M,-25.1,M,,0000*5E
$GPGSA,A,3,22,14,11,06,03,18,,,,,,,2.4,1.2,2.1*3D
$GPRMC,183157.000,A,3748.7619,N,12217.7980,W,1.52,143.95,020411,,,A*7F
$GPVTG,143.95,T,,M,1.52,N,2.8,K,A*0B
$GPGGA,183158.000,3748.7624,N,12217.7978,W,1,06,1.2,11.2,M,-25.1,M,,0000*5D
$GPGSA,A,3,22,14,11,06,03,18,,,,,,,2.4,1.2,2.1*3D
$GPGSV,3,1,11,14,74,043,28,22,51,064,34,19,36,250,23,11,29,307,22*75
$GPGSV,3,2,11,31,22,161,17,18,22,081,34,24,21,313,28,32,19,281,*71
$GPGSV,3,3,11,03,18,218,25,06,16,207,20,09,07,034,29*4B
$GPRMC,183158.000,A,3748.7624,N,12217.7978,W,0.57,164.23,020411,,,A*75
$GPVTG,164.23,T,,M,0.57,N,1.1,K,A*0D
$GPGGA,183159.000,3748.7629,N,12217.7980,W,1,06,1.2,11.5,M,-25.1,M,,0000*51
$GPGSA,A,3,22,14,11,06,03,18,,,,,,,2.4,1.2,2.1*3D
$GPRMC,183159.000,A,3748.7629,N,12217.7980,W,0.24,236.65,020411,,,A*7C
$GPVTG,236.65,T,,M,0.24,N,0.5,K,A*0A
$GPGGA,183200.000,3748.7626,N,12217.7975,W,1,06,1.2,12.4,M,-25.1,M,,0000*59
$GPGSA,A,3,22,14,11,06,03,18,,,,,,,2.4,1.2,2.1*3D
$GPRMC,183200.000,A,3748.7626,N,12217.7975,W,0.48,327.04,020411,,,A*7A
$GPVTG,327.04,T,,M,0.48,N,0.9,K,A*0A
$GPGGA,183201.000,3748.7638,N,12217.7982,W,1,06,1.2,10.5,M,-25.1,M,,0000*5C
$GPGSA,A,3,22,14,11,06,03,18,,,,,,,2.4,1.2,2.1*3D
$GPRMC,183201.000,A,3748.7638,N,12217.7982,W,1.02,335.26,020411,,,A*70
$GPVTG,335.26,T,,M,1.02,N,1.9,K,A*07
$GPGGA,183202.000,3748.7646,N,12217.7982,W,1,06,1.2,10.1,M,-25.1,M,,0000*52
$GPGSA,A,3,22,14,11,06,03,18,,,,,,,2.4,1.2,2.1*3D
$GPRMC,183202.000,A,3748.7646,N,12217.7982,W,0.51,9.70,020411,,,A*72
$GPVTG,9.70,T,,M,0.51,N,0.9,K,A*0E
$GPGGA,183203.000,3748.7659,N,12217.7982,W,1,05,1.4,8.6,M,-25.1,M,,0000*66
$GPGSA,A,3,22,14,11,03,18,,,,,,,,2.5,1.4,2.1*3C
$GPGSV,3,1,11,14,74,043,23,22,51,064,34,19,36,250,20,11,29,307,22*7D
$GPGSV,3,2,11,31,22,161,30,18,22,081,36,24,21,313,28,32,19,281,22*76
$GPGSV,3,3,11,03,18,218,25,06,16,207,09,09,07,034,29*40
$GPRMC,183203.000,A,3748.7659,N,12217.7982,W,1.25,337.84,020411,,,A*7A
$GPGGA,183204.000,3748.7669,N,12217.7985,W,1,06,1.2,7.2,M,-25.1,M,,0000*6B
$GPGSA,A,3,22,14,11,06,03,18,,,,,,,2.4,1.2,2.1*3D
$GPRMC,183204.000,A,3748.7669,N,12217.7985,W,1.64,332.38,020411,,,A*7E
$GPVTG,332.38,T,,M,1.64,N,3.0,K,A*04
$GPGGA,183205.000,3748.7680,N,12217.7990,W,1,06,1.2,4.8,M,-25.1,M,,0000*60
$GPGSA,A,3,22,14,11,06,03,18,,,,,,,2.4,1.2,2.1*3D
$GPRMC,183205.000,A,3748.7680,N,12217.7990,W,0.79,340.30,020411,,,A*7C
$GPVTG,340.30,T,,M,0.79,N,1.5,K,A*03
$GPGGA,183206.000,3748.7669,N,12217.7981,W,1,06,1.2,5.3,M,-25.1,M,,0000*6E
$GPGSA,A,3,22,14,11,06,03,18,,,,,,,2.4,1.2,2.1*3D
$GPRMC,183206.000,A,3748.7669,N,12217.7981,W,0.12,134.68,020411,,,A*79
$GPVTG,134.68,T,,M,0.12,N,0.2,K,A*04
$GPGGA,183207.000,3748.7656,N,12217.7973,W,1,06,1.2,7.6,M,-25.1,M,,0000*69
$GPGSA,A,3,22,14,11,06,03,18,,,,,,,2.4,1.2,2.1*3D
$GPRMC,183207.000,A,3748.7656,N,12217.7973,W,0.44,181.27,020411,,,A*7F
$GPVTG,181.27,T,,M,0.44,N,0.8,K,A*08
$GPGGA,183208.000,3748.7646,N,12217.7968,W,1,06,1.2,9.1,M,-25.1,M,,0000*64
$GPGSA,A,3,22,14,11,06,03,18,,,,,,,2.4,1.2,2.1*3D
$GPGSV,3,1,11,14,74,043,32,22,51,064,27,19,36,250,20,11,29,307,28*75
$GPGSV,3,2,11,31,22,161,25,18,22,081,41,24,21,313,28,32,19,281,23*73
$GPGSV,3,3,11,03,18,218,24,06,16,207,21,09,07,034,29*4B
$GPRMC,183208.000,A,3748.7646,N,12217.7968,W,0.79,140.17,020411,,,A*7B
$GPVTG,140.17,T,,M,0.79,N,1.5,K,A*04
$GPGGA,183209.000,3748.7641,N,12217.7966,W,1,06,1.2,9.2,M,-25.1,M,,0000*6F
$GPGSA,A,3,22,14,11,06,03,18,,,,,,,2.4,1.2,2.1*3D
$GPRMC,183209.000,A,3748.7641,N,12217.7966,W,0.70,115.38,020411,,,A*77
$GPVTG,115.38,T,,M,0.70,N,1.3,K,A*06
$GPGGA,183210.000,3748.7647,N,12217.7965,W,1,05,1.3,8.1,M,-25.1,M,,0000*62
$GPGSA,A,3,22,14,11,06,18,,,,,,,,2.5,1.3,2.1*3E
$GPRMC,183210.000,A,3748.7647,N,12217.7965,W,1.31,64.12,020411,,,A*41
$GPVTG,64.12,T,,M,1.31,N,2.4,K,A*39
$GPGGA,183211.000,3748.7657,N,12217.7962,W,1,06,1.2,5.4,M,-25.1,M,,0000*6F
$GPGSA,A,3,22,14,11,06,03,18,,,,,,,2.4,1.2,2.1*3D
$GPRMC,183211.000,A,3748.7657,N,12217.7962,W,1.59,53.53,020411,,,A*49
$GPVTG,53.53,T,,M,1.59,N,2.9,K,A*3B
$GPGGA,183212.000,3748.7654,N,12217.7952,W,1,06,1.2,5.3,M,-25.1,M,,0000*6B
$GPGSA,A,3,22,14,11,06,03,18,,,,,,,2.4,1.2,2.1*3D
$GPRMC,183212.000,A,3748.7654,N,12217.7952,W,1.73,114.02,020411,,,A*74
$GPVTG,114.02,T,,M,1.73,N,3.2,K,A*0F
$GPGGA,183213.000,3748.7647,N,12217.7944,W,1,06,1.2,5.1,M,-25.1,M,,0000*6D
$GPGSA,A,3,22,14,11,06,03,18,,,,,,,2.4,1.2,2.1*3D
$GPGSV,3,1,11,14,74,043,30,22,51,064,35,19,36,250,25,11,29,307,26*7F
$GPGSV,3,2,11,31,22,161,34,18,22,081,38,24,21,313,28,32,19,281,22*7C
$GPGSV,3,3,11,03,18,218,20,06,16,207,21,09,07,034,25*43
$GPRMC,183213.000,A,3748.7647,N,12217.7944,W,1.85,118.31,020411,,,A*75
$GPVTG,118.31,T,,M,1.85,N,3.4,K,A*0C
$GPGGA,183214.000,3748.7640,N,12217.7940,W,1,06,1.2,5.4,M,-25.1,M,,0000*6C
$GPGSA,A,3,22,14,11,06,03,18,,,,,,,2.4,1.2,2.1*3D
$GPRMC,183214.000,A,3748.7640,N,12217.7940,W,1.42,131.84,020411,,,A*7F
$GPVTG,131.84,T,,M,1.42,N,2.6,K,A*01
$GPGGA,183215.000,3748.7631,N,12217.7936,W,1,06,1.2,6.4,M,-25.1,M,,0000*69
$GPGSA,A,3,22,14,11,06,03,18,,,,,,,2.4,1.2,2.1*3D
$GPRMC,183215.000,A,3748.7631,N,12217.7936,W,1.45,135.81,020411,,,A*7F
$GPVTG,135.81,T,,M,1.45,N,2.7,K,A*06
$GPGGA,183216.000,3748.7625,N,12217.7938,W,1,06,1.2,5.4,M,-25.1,M,,0000*62
$GPGSA,A,3,22,14,11,06,03,18,,,,,,,2.4,1.2,2.1*3D
$GPRMC,183216.000,A,3748.7625,N,12217.7938,W,1.41,164.20,020411,,,A*7C
$GPVTG,164.20,T,,M,1.41,N,2.6,K,A*0C
$GPGGA,183217.000,3748.7615,N,12217.7942,W,1,06,1.2,6.0,M,-25.1,M,,0000*6A
$GPGSA,A,3,22,14,11,06,03,18,,,,,,,2.4,1.2,2.1*3D
$GPRMC,183217.000,A,3748.7615,N,12217.7942,W,1.53,198.79,020411,,,A*7F
$GPVTG,198.79,T,,M,1.53,N,2.8,K,A*0E
$GPGGA,183218.000,3748.7611,N,12217.7950,W,1,06,1.2,3.9,M,-25.1,M,,0000*6E
$GPGSA,A,3,22,14,11,06,03,18,,,,,,,2.4,1.2,2.1*3D
$GPGSV,3,1,12,14,74,043,28,22,51,064,26,19,36,250,30,11,29,307,28*7D
$GPGSV,3,2,12,31,22,161,40,18,22,081,27,24,21,313,24,32,19,281,22*7E
$GPGSV,3,3,12,03,18,218,26,06,16,207,39,09,07,034,23,48,44,195,34*7F
$GPRMC,183218.000,A,3748.7611,N,12217.7950,W,1.17,234.69,020411,,,A*73
$GPGGA,183219.000,3748.7606,N,12217.7961,W,1,06,1.2,1.0,M,-25.1,M,,0000*60
$GPGSA,A,3,22,14,11,06,03,18,,,,,,,2.4,1.2,2.1*3D
$GPRMC,183219.000,A,3748.7606,N,12217.7961,W,1.30,236.49,020411,,,A*73
$GPVTG,236.49,T,,M,1.30,N,2.4,K,A*03
$GPGGA,183220.000,3748.7596,N,12217.7967,W,1,06,1.2,-0.6,M,-25.1,M,,0000*4C
$GPGSA,A,3,22,14,11,06,03,18,,,,,,,2.4,1.2,2.1*3D
$GPRMC,183220.000,A,3748.7596,N,12217.7967,W,1.43,244.47,020411,,,A*7A
$GPVTG,244.47,T,,M,1.43,N,2.6,K,A*0E
$GPGGA,183221.000,3748.7582,N,12217.7972,W,1,06,1.2,0.1,M,-25.1,M,,0000*66
$GPGSA,A,3,22,14,11,06,03,18,,,,,,,2.4,1.2,2.1*3D
$GPRMC,183221.000,A,3748.7582,N,12217.7972,W,1.80,236.47,020411,,,A*70
$GPVTG,236.47,T,,M,1.80,N,3.3,K,A*00
$GPGGA,183222.000,3748.7568,N,12217.7977,W,1,06,1.2,-0.8,M,-25.1,M,,0000*40
$GPGSA,A,3,22,14,11,06,03,18,,,,,,,2.4,1.2,2.1*3D
$GPRMC,183222.000,A,3748.7568,N,12217.7977,W,2.09,204.49,020411,,,A*7F
$GPVTG,204.49,T,,M,2.09,N,3.9,K,A*07
$GPGGA,183223.000,3748.7556,N,12217.7981,W,1,06,1.2,-1.5,M,-25.1,M,,0000*49
$GPGSA,A,3,22,14,11,06,03,18,,,,,,,2.4,1.2,2.1*3D
$GPGSV,3,1,12,14,74,043,27,22,51,064,28,19,36,250,20,11,29,307,23*76
$GPGSV,3,2,12,31,22,161,36,18,22,081,28,24,21,313,22,32,19,281,22*76
$GPGSV,3,3,12,03,18,218,31,06,16,207,33,09,07,034,23,48,44,195,37*70
$GPRMC,183223.000,A,3748.7556,N,12217.7981,W,2.16,211.09,020411,,,A*74
$GPVTG,211.09,T,,M,2.16,N,4.0,K,A*07
$GPGGA,183224.000,3748.7545,N,12217.7985,W,1,06,1.2,-2.1,M,-25.1,M,,0000*4F
$GPGSA,A,3,22,14,11,06,03,18,,,,,,,2.4,1.2,2.1*3D
$GPRMC,183224.000,A,3748.7545,N,12217.7985,W,2.41,186.28,020411,,,A*79
$GPVTG,186.28,T,,M,2.41,N,4.5,K,A*0E
$GPGGA,183225.000,3748.7536,N,12217.7990,W,1,06,1.2,-2.5,M,-25.1,M,,0000*4A
$GPGSA,A,3,22,14,11,06,03,18,,,,,,,2.4,1.2,2.1*3D
$GPRMC,183225.000,A,3748.7536,N,12217.7990,W,2.23,217.91,020411,,,A*75
$GPVTG,217.91,T,,M,2.23,N,4.1,K,A*07
$GPGGA,183226.000,3748.7522,N,12217.7992,W,1,06,1.2,-2.3,M,-25.1,M,,0000*48
$GPGSA,A,3,22,14,11,06,03,18,,,,,,,2.4,1.2,2.1*3D
$GPRMC,183226.000,A,3748.7522,N,12217.7992,W,2.26,209.80,020411,,,A*7B
$GPVTG,209.80,T,,M,2.26,N,4.2,K,A*0E
$GPGGA,183227.000,3748.7509,N,12217.7995,W,1,06,1.2,-1.9,M,-25.1,M,,0000*4E
$GPGSA,A,3,22,14,11,06,03,18,,,,,,,2.4,1.2,2.1*3D
$GPRMC,183227.000,A,3748.7509,N,12217.7995,W,2.19,181.55,020411,,,A*73
$GPVTG,181.55,T,,M,2.19,N,4.1,K,A*0A
$GPGGA,183228.000,3748.7500,N,12217.7996,W,1,05,2.8,-2.6,M,-25.1,M,,0000*4D
$GPGSA,A,3,22,14,06,03,18,,,,,,,,3.0,2.8,1.0*33
$GPGSV,3,1,12,14,74,043,26,22,51,064,28,19,36,250,19,11,29,307,17*7A
$GPGSV,3,2,12,31,22,161,34,18,22,081,26,24,21,313,18,32,19,281,21*70
$GPGSV,3,3,12,03,18,218,38,06,16,207,40,09,07,034,24,48,44,195,35*78
$GPRMC,183228.000,A,3748.7500,N,12217.7996,W,2.30,167.50,020411,,,A*70
$GPVTG,167.50,T,,M,2.30,N,4.3,K,A*0E
$GPGGA,183229.000,3748.7485,N,12217.7993,W,1,06,1.2,-1.7,M,-25.1,M,,0000*4D
$GPGSA,A,3,22,14,11,06,03,18,,,,,,,2.4,1.2,2.1*3D
$GPRMC,183229.000,A,3748.7485,N,12217.7993,W,2.37,169.08,020411,,,A*7C
$GPVTG,169.08,T,,M,2.37,N,4.4,K,A*0D
$GPGGA,183230.000,3748.7478,N,12217.7996,W,1,05,2.8,-2.5,M,-25.1,M,,0000*49
$GPGSA,A,3,22,14,06,03,18,,,,,,,,3.0,2.8,1.0*33
$GPRMC,183230.000,A,3748.7478,N,12217.7996,W,1.63,197.31,020411,,,A*7A
$GPVTG,197.31,T,,M,1.63,N,3.0,K,A*07
$GPGGA,183231.000,3748.7474,N,12217.8000,W,1,05,2.8,-3.3,M,-25.1,M,,0000*4A
$GPGSA,A,3,22,14,06,03,18,,,,,,,,3.0,2.8,1.0*33
$GPRMC,183231.000,A,3748.7474,N,12217.8000,W,1.37,223.61,020411,,,A*76
$GPVTG,223.61,T,,M,1.37,N,2.5,K,A*0B
$GPGGA,183232.000,3748.7461,N,12217.7998,W,1,06,1.2,-2.4,M,-25.1,M,,0000*46
$GPGSA,A,3,22,14,11,06,03,18,,,,,,,2.4,1.2,2.1*3D
$GPRMC,183232.000,A,3748.7461,N,12217.7998,W,1.39,208.31,020411,,,A*74
$GPVTG,208.31,T,,M,1.39,N,2.6,K,A*0A
$GPGGA,183233.000,3748.7456,N,12217.8003,W,1,05,2.8,-2.3,M,-25.1,M,,0000*4A
$GPGSA,A,3,22,14,06,03,18,,,,,,,,3.0,2.8,1.0*33
$GPGSV,3,1,12,14,74,043,26,22,51,064,25,19,36,250,18,11,29,307,18*79
$GPGSV,3,2,12,31,22,161,40,18,22,081,25,24,21,313,16,32,19,281,20*7F
$GPGSV,3,3,12,03,18,218,30,06,16,207,31,09,07,034,22,48,44,195,35*70
$GPVTG,196.65,T,,M,1.45,N,2.7,K,A*05
$GPGGA,183234.000,3748.7451,N,12217.8007,W,1,05,2.8,-2.5,M,-25.1,M,,0000*48
$GPGSA,A,3,22,14,06,03,18,,,,,,,,3.0,2.8,1.0*33
$GPRMC,183234.000,A,3748.7451,N,12217.8007,W,1.51,203.39,020411,,,A*7C
$GPVTG,203.39,T,,M,1.51,N,2.8,K,A*09
$GPGGA,183235.000,3748.7444,N,12217.8012,W,1,05,2.8,-2.1,M,-25.1,M,,0000*4D
$GPGSA,A,3,22,14,06,03,18,,,,,,,,3.0,2.8,1.0*33
$GPRMC,183235.000,A,3748.7444,N,12217.8012,W,1.92,196.46,020411,,,A*75
$GPVTG,196.46,T,,M,1.92,N,3.5,K,A*0D
$GPGGA,183236.000,3748.7437,N,12217.8016,W,1,05,2.8,-1.9,M,-25.1,M,,0000*45
$GPGSA,A,3,22,14,06,03,18,,,,,,,,3.0,2.8,1.0*33
$GPRMC,183236.000,A,3748.7437,N,12217.8016,W,1.97,186.70,020411,,,A*77
$GPVTG,186.70,T,,M,1.97,N,3.6,K,A*0F
$GPGGA,183237.000,3748.7430,N,12217.8019,W,1,05,2.8,-1.9,M,-25.1,M,,0000*4C
$GPGSA,A,3,22,14,06,03,18,,,,,,,,3.0,2.8,1.0*33
$GPRMC,183237.000,A,3748.7430,N,12217.8019,W,2.01,189.65,020411,,,A*79
$GPVTG,189.65,T,,M,2.01,N,3.7,K,A*09
$GPGGA,183238.000,3748.7424,N,12217.8026,W,1,05,2.8,-1.3,M,-25.1,M,,0000*40
$GPGSA,A,3,22,14,06,03,18,,,,,,,,3.0,2.8,1.0*33
$GPGSV,3,1,12,14,74,043,26,22,51,064,27,19,36,250,19,11,29,307,18*7A
$GPGSV,3,2,12,31,22,161,36,18,22,081,25,24,21,313,16,32,19,281,19*74
$GPGSV,3,3,12,03,18,218,32,06,16,207,38,09,07,034,27,48,44,195,40*7C
$GPRMC,183238.000,A,3748.7424,N,12217.8026,W,1.81,216.34,020411,,,A*75
$GPVTG,216.34,T,,M,1.81,N,3.3,K,A*07
$GPGGA,183239.000,3748.7420,N,12217.8034,W,1,05,2.8,-0.7,M,-25.1,M,,0000*43
$GPGSA,A,3,22,14,06,03,18,,,,,,,,3.0,2.8,1.0*33
$GPRMC,183239.000,A,3748.7420,N,12217.8034,W,1.78,243.46,020411,,,A*70
$GPVTG,243.46,T,,M,1.78,N,3.3,K,A*04
$GPGGA,183240.000,3748.7417,N,12217.8042,W,1,05,2.8,-0.9,M,-25.1,M,,0000*46
$GPGSA,A,3,22,14,06,03,18,,,,,,,,3.0,2.8,1.0*33
$GPRMC,183240.000,A,3748.7417,N,12217.8042,W,2.21,252.70,020411,,,A*71
$GPVTG,252.70,T,,M,2.21,N,4.1,K,A*0B
$GPGGA,183241.000,3748.7415,N,12217.8052,W,1,05,2.8,-0.6,M,-25.1,M,,0000*4B
$GPGSA,A,3,22,14,06,03,18,,,,,,,,3.0,2.8,1.0*33
$GPRMC,183241.000,A,3748.7415,N,12217.8052,W,2.15,256.36,020411,,,A*72
$GPVTG,256.36,T,,M,2.15,N,4.0,K,A*0B
$GPGGA,183242.000,3748.7412,N,12217.8059,W,1,05,2.8,-1.1,M,-25.1,M,,0000*42
$GPGSA,A,3,22,14,06,03,18,,,,,,,,3.0,2.8,1.0*33
$GPRMC,183242.000,A,3748.7412,N,12217.8059,W,1.64,249.33,020411,,,A*73
$GPVTG,249.33,T,,M,1.64,N,3.0,K,A*02
$GPGGA,183243.000,3748.7409,N,12217.8064,W,1,05,2.8,-2.2,M,-25.1,M,,0000*47
$GPGSA,A,3,22,14,06,03,18,,,,,,,,3.0,2.8,1.0*33
$GPGSV,3,1,12,14,74,043,25,22,51,064,30,19,36,250,32,11,29,307,17*79
$GPGSV,3,2,12,31,22,161,37,18,22,081,29,24,21,313,17,32,19,281,19*78
$GPGSV,3,3,12,03,18,218,32,06,16,207,31,09,07,034,28,48,44,195,37*7A
$GPRMC,183243.000,A,3748.7409,N,12217.8064,W,1.60,228.84,020411,,,A*79
$GPVTG,228.84,T,,M,1.60,N,3.0,K,A*0D
$GPGGA,183244.000,3748.7402,N,12217.8067,W,1,06,1.2,-1.7,M,-25.1,M,,0000*44
$GPGSA,A,3,22,14,11,06,03,18,,,,,,,2.4,1.2,2.1*3D
$GPRMC,183244.000,A,3748.7402,N,12217.8067,W,2.07,223.01,020411,,,A*72
$GPVTG,223.01,T,,M,2.07,N,3.8,K,A*01
$GPGGA,183245.000,3748.7374,N,12217.8054,W,1,06,1.2,1.9,M,-25.1,M,,0000*60
$GPGSA,A,3,22,14,11,06,03,18,,,,,,,2.4,1.2,2.1*3D
$GPRMC,183245.000,A,3748.7374,N,12217.8054,W,2.50,203.88,020411,,,A*74
$GPVTG,203.88,T,,M,2.50,N,4.6,K,A*09
$GPGGA,183246.000,3748.7358,N,12217.8053,W,1,06,1.2,4.0,M,-25.1,M,,0000*66
$GPGSA,A,3,22,14,11,06,03,18,,,,,,,2.4,1.2,2.1*3D
$GPRMC,183246.000,A,3748.7358,N,12217.8053,W,2.37,207.49,020411,,,A*76
$GPVTG,207.49,T,,M,2.37,N,4.4,K,A*03
$GPGGA,183247.000,3748.7349,N,12217.8057,W,1,06,1.2,4.6,M,-25.1,M,,0000*65
$GPGSA,A,3,22,14,11,06,03,18,,,,,,,2.4,1.2,2.1*3D
$GPRMC,183247.000,A,3748.7349,N,12217.8057,W,2.25,218.32,020411,,,A*72
$GPVTG,218.32,T,,M,2.25,N,4.2,K,A*04
$GPGGA,183248.000,3748.7350,N,12217.8069,W,1,06,1.2,4.1,M,-25.1,M,,0000*68
$GPGSA,A,3,22,14,11,06,03,18,,,,,,,2.4,1.2,2.1*3D
$GPGSV,3,1,12,14,74,042,26,22,50,065,31,19,35,249,24,11,29,307,24*76
$GPGSV,3,2,12,31,23,161,31,18,22,082,29,24,21,313,21,32,19,281,20*73
$GPGSV,3,3,12,03,17,218,29,06,16,206,34,09,07,034,27,48,44,195,40*74
$GPVTG,230.18,T,,M,2.05,N,3.8,K,A*09
$GPGGA,183249.000,3748.7349,N,12217.8081,W,1,06,1.2,3.9,M,-25.1,M,,0000*68
$GPGSA,A,3,22,14,11,06,03,18,,,,,,,2.4,1.2,2.1*3D
$GPRMC,183249.000,A,3748.7349,N,12217.8081,W,2.17,231.29,020411,,,A*77
$GPVTG,231.29,T,,M,2.17,N,4.0,K,A*06
$GPGGA,183250.000,3748.7339,N,12217.8084,W,1,06,1.2,4.8,M,-25.1,M,,0000*64
$GPGSA,A,3,22,14,11,06,03,18,,,,,,,2.4,1.2,2.1*3D
$GPRMC,183250.000,A,3748.7339,N,12217.8084,W,2.37,229.87,020411,,,A*72
$GPVTG,229.87,T,,M,2.37,N,4.4,K,A*0D
$GPGGA,183251.000,3748.7334,N,12217.8090,W,1,06,1.2,4.5,M,-25.1,M,,0000*60
$GPGSA,A,3,22,14,11,06,03,18,,,,,,,2.4,1.2,2.1*3D
$GPRMC,183251.000,A,3748.7334,N,12217.8090,W,2.27,232.93,020411,,,A*75
$GPVTG,232.93,T,,M,2.27,N,4.2,K,A*05
$GPGGA,183252.000,3748.7337,N,12217.8101,W,1,06,1.2,2.5,M,-25.1,M,,0000*6F
$GPGSA,A,3,22,14,11,06,03,18,,,,,,,2.4,1.2,2.1*3D
$GPRMC,183252.000,A,3748.7337,N,12217.8101,W,2.29,202.67,020411,,,A*7A
$GPVTG,202.67,T,,M,2.29,N,4.2,K,A*03
$GPGGA,183253.000,3748.7337,N,12217.8108,W,1,06,1.2,0.8,M,-25.1,M,,0000*68
$GPGSA,A,3,22,14,11,06,03,18,,,,,,,2.4,1.2,2.1*3D
$GPGSV,3,1,12,14,74,042,26,22,50,065,32,19,35,249,30,11,29,307,32*77
$GPGSV,3,2,12,31,23,161,35,18,22,082,25,24,21,313,29,32,19,281,22*71
$GPGSV,3,3,12,03,17,218,31,06,16,206,34,09,07,034,27,48,44,195,33*79
$GPRMC,183253.000,A,3748.7337,N,12217.8108,W,1.93,204.59,020411,,,A*7B
$GPVTG,204.59,T,,M,1.93,N,3.6,K,A*09
$GPGGA,183254.000,3748.7335,N,12217.8114,W,1,06,1.2,-0.1,M,-25.1,M,,0000*44
$GPGSA,A,3,22,14,11,06,03,18,,,,,,,2.4,1.2,2.1*3D
$GPRMC,183254.000,A,3748.7335,N,12217.8114,W,1.58,217.33,020411,,,A*7A
$GPVTG,217.33,T,,M,1.58,N,2.9,K,A*0E
$GPGGA,183255.000,3748.7332,N,12217.8120,W,1,06,1.2,0.2,M,-25.1,M,,0000*6B
$GPGSA,A,3,22,14,11,06,03,18,,,,,,,2.4,1.2,2.1*3D
$GPRMC,183255.000,A,3748.7332,N,12217.8120,W,1.82,233.10,020411,,,A*7B
$GPVTG,233.10,T,,M,1.82,N,3.4,K,A*02
$GPGGA,183256.000,3748.7329,N,12217.8126,W,1,06,1.2,-0.0,M,-25.1,M,,0000*4B
$GPGSA,A,3,22,14,11,06,03,18,,,,,,,2.4,1.2,2.1*3D
$GPRMC,183256.000,A,3748.7329,N,12217.8126,W,1.86,236.67,020411,,,A*75
$GPVTG,236.67,T,,M,1.86,N,3.4,K,A*03
$GPGGA,183257.000,3748.7329,N,12217.8134,W,1,06,1.2,-0.9,M,-25.1,M,,0000*40
$GPGSA,A,3,22,14,11,06,03,18,,,,,,,2.4,1.2,2.1*3D
$GPRMC,183257.000,A,3748.7329,N,12217.8134,W,1.86,211.65,020411,,,A*70
$GPVTG,211.65,T,,M,1.86,N,3.4,K,A*04
$GPGGA,183258.000,3748.7327,N,12217.8140,W,1,06,1.3,-1.4,M,-25.1,M,,0000*4F
$GPGSA,A,3,22,14,11,06,03,18,,,,,,,2.4,1.3,2.1*3C
$GPGSV,3,1,12,14,74,042,25,22,50,065,31,19,35,249,29,11,29,307,34*79
$GPGSV,3,2,12,31,23,161,32,18,22,082,25,24,21,313,28,32,19,281,26*73
$GPGSV,3,3,12,03,17,218,30,06,16,206,35,09,07,034,28,48,44,195,31*74
$GPRMC,183258.000,A,3748.7327,N,12217.8140,W,1.61,200.13,020411,,,A*7A
$GPVTG,200.13,T,,M,1.61,N,3.0,K,A*08
$GPGGA,183259.000,3748.7326,N,12217.8148,W,1,06,1.3,-2.6,M,-25.1,M,,0000*46
$GPGSA,A,3,22,14,11,06,03,18,,,,,,,2.4,1.3,2.1*3C
$GPRMC,183259.000,A,3748.7326,N,12217.8148,W,1.46,222.02,020411,,,A*77
$GPVTG,222.02,T,,M,1.46,N,2.7,K,A*0B
$GPGGA,183300.000,3748.7324,N,12217.8155,W,1,06,1.3,-2.8,M,-25.1,M,,0000*4B
$GPGSA,A,3,22,14,11,06,03,18,,,,,,,2.4,1.3,2.1*3C
$GPRMC,183300.000,A,3748.7324,N,12217.8155,W,1.99,244.80,020411,,,A*7C
$GPVTG,244.80,T,,M,1.99,N,3.7,K,A*02
