$ADVER,3080,2.3
$GPRMC,204904.274,A,3748.8053,N,12217.8607,W,0.10,60.38,231111,,,A*43
$GPRMC,204905.274,A,3748.8050,N,12217.8602,W,0.15,49.29,231111,,,A*4A
$GPRMC,204906.000,A,3748.8050,N,12217.8602,W,0.12,70.14,231111,,,A*4B
$GPRMC,204907.000,A,3748.8046,N,12217.8604,W,0.05,99.41,231111,,,A*4A
$GPRMC,204908.000,A,3748.8043,N,12217.8605,W,0.12,64.03,231111,,,A*43
$GPRMC,204909.000,A,3748.8042,N,12217.8606,W,0.12,63.41,231111,,,A*41
$GPRMC,204910.000,A,3748.8042,N,12217.8606,W,0.11,66.44,231111,,,A*4A
$GPRMC,204911.000,A,3748.8041,N,12217.8606,W,0.12,66.44,231111,,,A*4B
$GPRMC,204912.000,A,3748.8041,N,12217.8607,W,0.13,62.75,231111,,,A*4E
$GPRMC,204913.000,A,3748.8041,N,12217.8607,W,0.11,79.48,231111,,,A*49
$GPRMC,204914.000,A,3748.8040,N,12217.8607,W,0.16,69.48,231111,,,A*49
$GPRMC,204915.000,A,3748.8040,N,12217.8608,W,0.11,66.88,231111,,,A*43
$GPRMC,204916.000,A,3748.8040,N,12217.8608,W,0.08,61.44,231111,,,A*4F
$GPRMC,204917.000,A,3748.8040,N,12217.8608,W,0.14,63.74,231111,,,A*42
$GPRMC,204918.000,A,3748.8040,N,12217.8609,W,0.08,8.45,231111,,,A*7E
$GPRMC,204919.000,A,3748.8040,N,12217.8608,W,0.86,67.52,231111,,,A*47
$GPRMC,204920.000,A,3748.8045,N,12217.8609,W,1.18,356.22,231111,,,A*79
$GPRMC,204921.000,A,3748.8046,N,12217.8613,W,0.77,332.88,231111,,,A*7A
$GPRMC,204922.000,A,3748.8044,N,12217.8614,W,0.01,190.43,231111,,,A*70
$GPRMC,204923.000,A,3748.8043,N,12217.8615,W,0.19,105.57,231111,,,A*77
$GPRMC,204924.000,A,3748.8040,N,12217.8619,W,0.26,150.48,231111,,,A*7D
$GPRMC,204925.000,A,3748.8043,N,12217.8624,W,0.10,17.36,231111,,,A*4F
$GPRMC,204926.000,A,3748.8044,N,12217.8627,W,0.32,355.19,231111,,,A*70
$GPRMC,204927.000,A,3748.8050,N,12217.8633,W,0.27,340.73,231111,,,A*7D
$GPRMC,204928.000,A,3748.8053,N,12217.8637,W,0.19,353.49,231111,,,A*73
$GPRMC,204929.000,A,3748.8058,N,12217.8642,W,0.39,348.75,231111,,,A*7C
$GPRMC,204930.000,A,3748.8062,N,12217.8643,W,0.18,15.29,231111,,,A*4D
$GPRMC,204931.000,A,3748.8065,N,12217.8640,W,0.12,352.64,231111,,,A*7B
$GPRMC,204932.000,A,3748.8065,N,12217.8635,W,0.09,78.23,231111,,,A*48
$GPRMC,204933.000,A,3748.8057,N,12217.8630,W,0.57,119.05,231111,,,A*74
$GPRMC,204934.000,A,3748.8058,N,12217.8632,W,0.32,0.26,231111,,,A*75
$GPRMC,204935.000,A,3748.8056,N,12217.8635,W,0.63,226.98,231111,,,A*7A
$GPRMC,204936.000,A,3748.8055,N,12217.8637,W,0.14,352.97,231111,,,A*75
$GPRMC,204937.000,A,3748.8055,N,12217.8639,W,0.15,355.82,231111,,,A*78
$GPRMC,204938.000,A,3748.8055,N,12217.8640,W,0.20,345.51,231111,,,A*70
$GPRMC,204939.000,A,3748.8055,N,12217.8642,W,0.39,4.26,231111,,,A*7D
$GPRMC,204940.000,A,3748.8056,N,12217.8644,W,0.40,329.42,231111,,,A*76
$GPRMC,204941.000,A,3748.8057,N,12217.8645,W,0.49,60.06,231111,,,A*40
$GPRMC,204942.000,A,3748.8055,N,12217.8648,W,0.21,53.09,231111,,,A*4D
$GPRMC,204943.000,A,3748.8055,N,12217.8647,W,0.22,52.67,231111,,,A*49
$GPRMC,204944.000,A,3748.8052,N,12217.8646,W,0.57,293.74,231111,,,A*77
$GPRMC,204945.000,A,3748.8047,N,12217.8644,W,0.08,135.62,231111,,,A*72
$GPRMC,204946.000,A,3748.8044,N,12217.8641,W,0.16,105.73,231111,,,A*7B
$GPRMC,204947.000,A,3748.8040,N,12217.8638,W,0.11,67.87,231111,,,A*49
$GPRMC,204948.000,A,3748.8034,N,12217.8634,W,0.20,75.68,231111,,,A*49
$GPRMC,204949.000,A,3748.8032,N,12217.8632,W,0.23,135.81,231111,,,A*79
$GPRMC,204950.000,A,3748.8030,N,12217.8631,W,0.25,122.66,231111,,,A*79
$GPRMC,204951.000,A,3748.8027,N,12217.8630,W,0.32,121.01,231111,,,A*7B
$GPRMC,204952.000,A,3748.8024,N,12217.8630,W,0.22,216.46,231111,,,A*7E
$GPRMC,204953.000,A,3748.8020,N,12217.8630,W,0.77,184.90,231111,,,A*78
$GPRMC,204954.000,A,3748.8013,N,12217.8626,W,1.04,144.40,231111,,,A*7C
$GPRMC,204955.000,A,3748.8005,N,12217.8618,W,1.90,117.96,231111,,,A*77
$GPRMC,204956.000,A,3748.8001,N,12217.8613,W,2.03,126.96,231111,,,A*70
$GPRMC,204957.000,A,3748.7994,N,12217.8602,W,2.49,116.17,231111,,,A*7F
$GPRMC,204958.000,A,3748.7991,N,12217.8596,W,2.04,123.22,231111,,,A*72
$GPRMC,204959.000,A,3748.7986,N,12217.8586,W,2.01,115.29,231111,,,A*7F
$GPRMC,205000.000,A,3748.7988,N,12217.8585,W,1.57,115.36,231111,,,A*78
$GPRMC,205001.000,A,3748.7985,N,12217.8579,W,1.31,139.30,231111,,,A*7F
$GPRMC,205002.000,A,3748.7987,N,12217.8579,W,0.73,134.35,231111,,,A*71
$GPRMC,205003.000,A,3748.7986,N,12217.8586,W,0.85,234.24,231111,,,A*7B
$GPRMC,205004.000,A,3748.7983,N,12217.8589,W,1.07,144.00,231111,,,A*7F
$GPRMC,205005.000,A,3748.7983,N,12217.8588,W,0.83,87.47,231111,,,A*4F
$GPRMC,205006.000,A,3748.7984,N,12217.8590,W,0.30,287.69,231111,,,A*74
$GPRMC,205007.000,A,3748.7985,N,12217.8591,W,0.17,105.50,231111,,,A*73
$GPRMC,205008.000,A,3748.7985,N,12217.8590,W,0.36,142.11,231111,,,A*78
$GPRMC,205009.000,A,3748.7987,N,12217.8586,W,1.03,104.82,231111,,,A*73
$GPRMC,205010.000,A,3748.7988,N,12217.8583,W,1.24,120.41,231111,,,A*7D
$GPRMC,205011.000,A,3748.7992,N,12217.8580,W,1.50,108.07,231111,,,A*7F
$GPRMC,205012.000,A,3748.7993,N,12217.8580,W,1.36,95.39,231111,,,A*45
$GPRMC,205013.000,A,3748.7988,N,12217.8571,W,1.81,108.96,231111,,,A*7C
$GPRMC,205014.000,A,3748.7985,N,12217.8565,W,1.91,118.57,231111,,,A*7E
$GPRMC,205015.000,A,3748.7982,N,12217.8562,W,1.99,121.69,231111,,,A*70
$GPRMC,205016.000,A,3748.7981,N,12217.8556,W,2.13,121.77,231111,,,A*79
$GPRMC,205017.000,A,3748.7978,N,12217.8550,W,2.34,128.83,231111,,,A*7F
$GPRMC,205018.000,A,3748.7971,N,12217.8540,W,2.02,120.05,231111,,,A*7B
$GPRMC,205019.000,A,3748.7964,N,12217.8527,W,1.92,116.16,231111,,,A*72
$GPRMC,205020.000,A,3748.7960,N,12217.8519,W,1.81,113.73,231111,,,A*75
$GPRMC,205021.000,A,3748.7957,N,12217.8514,W,1.73,111.33,231111,,,A*76
$GPRMC,205022.000,A,3748.7955,N,12217.8512,W,1.66,122.18,231111,,,A*7C
$GPRMC,205023.000,A,3748.7951,N,12217.8505,W,1.81,118.03,231111,,,A*75
$GPRMC,205024.000,A,3748.7949,N,12217.8500,W,1.85,108.12,231111,,,A*7B
$GPRMC,205025.000,A,3748.7946,N,12217.8493,W,2.01,116.83,231111,,,A*76
$GPRMC,205026.000,A,3748.7940,N,12217.8489,W,2.23,116.90,231111,,,A*7A
$GPRMC,205027.000,A,3748.7936,N,12217.8483,W,2.48,118.55,231111,,,A*7A
$GPRMC,205028.000,A,3748.7931,N,12217.8477,W,1.97,120.01,231111,,,A*72
$GPRMC,205029.000,A,3748.7924,N,12217.8467,W,2.65,110.16,231111,,,A*7D
$GPRMC,205030.000,A,3748.7916,N,12217.8458,W,2.50,120.78,231111,,,A*75
$GPRMC,205031.000,A,3748.7912,N,12217.8450,W,2.04,113.33,231111,,,A*76
$GPRMC,205032.000,A,3748.7910,N,12217.8440,W,2.39,122.53,231111,,,A*7C
$GPRMC,205033.000,A,3748.7905,N,12217.8429,W,2.28,124.42,231111,,,A*70
$GPRMC,205034.000,A,3748.7898,N,12217.8416,W,2.19,117.99,231111,,,A*7A
$GPRMC,205035.000,A,3748.7895,N,12217.8410,W,2.10,122.00,231111,,,A*7F
$GPRMC,205036.000,A,3748.7894,N,12217.8408,W,1.91,119.34,231111,,,A*71
$GPRMC,205037.000,A,3748.7892,N,12217.8403,W,1.93,119.99,231111,,,A*78
$GPRMC,205038.000,A,3748.7885,N,12217.8389,W,2.04,122.00,231111,,,A*71
$GPRMC,205039.000,A,3748.7883,N,12217.8384,W,1.74,121.78,231111,,,A*73
$GPRMC,205040.000,A,3748.7879,N,12217.8375,W,1.92,121.14,231111,,,A*74
$GPRMC,205041.000,A,3748.7877,N,12217.8370,W,1.71,119.99,231111,,,A*7D
$GPRMC,205042.000,A,3748.7877,N,12217.8368,W,1.63,115.92,231111,,,A*73
$GPRMC,205043.000,A,3748.7876,N,12217.8366,W,1.87,117.84,231111,,,A*72
$GPRMC,205044.000,A,3748.7871,N,12217.8357,W,1.94,125.03,231111,,,A*7C
$GPRMC,205045.000,A,3748.7866,N,12217.8348,W,2.15,120.45,231111,,,A*78
$GPRMC,205046.000,A,3748.7864,N,12217.8342,W,2.09,115.18,231111,,,A*70
$GPRMC,205047.000,A,3748.7863,N,12217.8340,W,1.78,119.74,231111,,,A*77
$GPRMC,205048.000,A,3748.7857,N,12217.8326,W,2.23,118.06,231111,,,A*76
$GPRMC,205049.000,A,3748.7853,N,12217.8319,W,2.15,120.00,231111,,,A*77
$GPRMC,205050.000,A,3748.7851,N,12217.8314,W,1.83,117.71,231111,,,A*7E
$GPRMC,205051.000,A,3748.7853,N,12217.8315,W,1.15,119.02,231111,,,A*79
$GPRMC,205052.000,A,3748.7848,N,12217.8310,W,1.98,122.13,231111,,,A*78
$GPRMC,205053.000,A,3748.7843,N,12217.8302,W,2.09,124.12,231111,,,A*7D
$GPRMC,205054.000,A,3748.7839,N,12217.8289,W,1.97,112.36,231111,,,A*72
$GPRMC,205055.000,A,3748.7838,N,12217.8283,W,1.94,110.03,231111,,,A*7F
$GPRMC,205056.000,A,3748.7837,N,12217.8277,W,1.75,104.73,231111,,,A*75
$GPRMC,205057.000,A,3748.7834,N,12217.8267,W,2.34,112.76,231111,,,A*72
$GPRMC,205058.000,A,3748.7831,N,12217.8262,W,1.97,108.22,231111,,,A*7D
$GPRMC,205059.000,A,3748.7825,N,12217.8260,W,1.99,119.53,231111,,,A*73
$GPRMC,205100.000,A,3748.7821,N,12217.8261,W,2.04,123.42,231111,,,A*75
$GPRMC,205101.000,A,3748.7815,N,12217.8254,W,2.20,123.13,231111,,,A*77
$GPRMC,205102.000,A,3748.7810,N,12217.8248,W,2.38,120.87,231111,,,A*7B
$GPRMC,205103.000,A,3748.7804,N,12217.8238,W,2.80,117.69,231111,,,A*7F
$GPRMC,205104.000,A,3748.7799,N,12217.8231,W,2.59,122.46,231111,,,A*75
$GPRMC,205105.000,A,3748.7795,N,12217.8224,W,2.51,114.27,231111,,,A*76
$GPRMC,205106.000,A,3748.7787,N,12217.8219,W,2.41,122.97,231111,,,A*77
$GPRMC,205107.000,A,3748.7783,N,12217.8212,W,2.58,129.47,231111,,,A*77
$GPRMC,205108.000,A,3748.7777,N,12217.8205,W,2.82,133.01,231111,,,A*7B
$GPRMC,205109.000,A,3748.7773,N,12217.8198,W,2.62,128.96,231111,,,A*73
$GPRMC,205109.000,A,3748.7769,N,12217.8192,W,2.68,126.94,231111,,,A*74
$GPRMC,205110.000,A,3748.7765,N,12217.8186,W,2.60,120.87,231111,,,A*79
$GPRMC,205111.000,A,3748.7762,N,12217.8179,W,2.41,119.53,231111,,,A*7F
$GPRMC,205112.000,A,3748.7759,N,12217.8172,W,2.35,119.02,231111,,,A*78
$GPRMC,205113.000,A,3748.7757,N,12217.8167,W,2.09,117.01,231111,,,A*71
$GPRMC,205114.000,A,3748.7754,N,12217.8161,W,2.51,121.80,231111,,,A*72
$GPRMC,205115.000,A,3748.7751,N,12217.8155,W,2.57,125.08,231111,,,A*73
$GPRMC,205116.000,A,3748.7747,N,12217.8148,W,2.60,121.92,231111,,,A*78
$GPRMC,205117.000,A,3748.7740,N,12217.8137,W,2.48,125.32,231111,,,A*72
$GPRMC,205118.000,A,3748.7734,N,12217.8128,W,2.67,125.63,231111,,,A*79
$GPRMC,205119.000,A,3748.7727,N,12217.8118,W,2.83,132.68,231111,,,A*7E
$GPRMC,205120.000,A,3748.7722,N,12217.8110,W,2.72,123.85,231111,,,A*74
$GPRMC,205121.000,A,3748.7717,N,12217.8102,W,2.81,118.99,231111,,,A*79
$GPRMC,205122.000,A,3748.7714,N,12217.8094,W,2.88,117.89,231111,,,A*70
$GPRMC,205123.000,A,3748.7710,N,12217.8085,W,2.87,117.65,231111,,,A*78
$GPRMC,205124.000,A,3748.7706,N,12217.8074,W,2.77,119.97,231111,,,A*7A
$GPRMC,205125.000,A,3748.7702,N,12217.8067,W,2.88,123.46,231111,,,A*78
$GPRMC,205126.000,A,3748.7697,N,12217.8056,W,2.86,123.24,231111,,,A*7E
$GPRMC,205127.000,A,3748.7694,N,12217.8048,W,2.77,120.80,231111,,,A*70
$GPRMC,205128.000,A,3748.7690,N,12217.8041,W,2.43,114.18,231111,,,A*73
$GPRMC,205129.000,A,3748.7688,N,12217.8035,W,2.62,123.53,231111,,,A*70
$GPRMC,205130.000,A,3748.7687,N,12217.8030,W,2.80,119.36,231111,,,A*74
$GPRMC,205131.000,A,3748.7684,N,12217.8020,W,2.43,116.53,231111,,,A*74
$GPRMC,205132.000,A,3748.7681,N,12217.8013,W,2.56,118.02,231111,,,A*7C
$GPRMC,205133.000,A,3748.7678,N,12217.8006,W,2.57,115.34,231111,,,A*76
$GPRMC,205134.000,A,3748.7674,N,12217.7997,W,2.56,118.22,231111,,,A*78
$GPRMC,205135.000,A,3748.7669,N,12217.7988,W,2.63,118.13,231111,,,A*7F
$GPRMC,205136.000,A,3748.7665,N,12217.7978,W,2.71,121.32,231111,,,A*75
$GPRMC,205137.000,A,3748.7660,N,12217.7970,W,2.60,124.70,231111,,,A*7A
$GPRMC,205138.000,A,3748.7655,N,12217.7962,W,2.72,123.82,231111,,,A*79
$GPRMC,205139.000,A,3748.7651,N,12217.7954,W,2.80,121.82,231111,,,A*76
$GPRMC,205140.000,A,3748.7649,N,12217.7946,W,2.45,99.36,231111,,,A*46
$GPRMC,205141.000,A,3748.7650,N,12217.7937,W,2.46,93.97,231111,,,A*4B
$GPRMC,205142.000,A,3748.7653,N,12217.7926,W,2.74,113.82,231111,,,A*77
$GPRMC,205143.000,A,3748.7645,N,12217.7918,W,2.71,119.97,231111,,,A*77
$GPRMC,205144.000,A,3748.7640,N,12217.7909,W,2.90,124.72,231111,,,A*7F
$GPRMC,205145.000,A,3748.7635,N,12217.7900,W,3.02,121.67,231111,,,A*7E
$GPRMC,205146.000,A,3748.7630,N,12217.7890,W,2.87,128.57,231111,,,A*76
$GPRMC,205147.000,A,3748.7625,N,12217.7882,W,2.94,129.00,231111,,,A*71
$GPRMC,205148.000,A,3748.7620,N,12217.7874,W,2.98,131.17,231111,,,A*71
$GPRMC,205149.000,A,3748.7616,N,12217.7867,W,3.13,120.81,231111,,,A*7A
$GPRMC,205150.000,A,3748.7613,N,12217.7862,W,2.86,118.28,231111,,,A*77
$GPRMC,205151.000,A,3748.7610,N,12217.7855,W,2.75,123.20,231111,,,A*7D
$GPRMC,205152.000,A,3748.7607,N,12217.7848,W,2.51,118.49,231111,,,A*75
$GPRMC,205153.000,A,3748.7600,N,12217.7842,W,2.30,116.78,231111,,,A*72
$GPRMC,205154.000,A,3748.7593,N,12217.7835,W,2.48,117.74,231111,,,A*7E
$GPRMC,205155.000,A,3748.7591,N,12217.7827,W,2.18,119.88,231111,,,A*76
$GPRMC,205156.000,A,3748.7590,N,12217.7822,W,2.75,115.21,231111,,,A*75
$GPRMC,205157.000,A,3748.7588,N,12217.7813,W,2.79,112.62,231111,,,A*73
$GPRMC,205158.000,A,3748.7584,N,12217.7803,W,2.78,114.78,231111,,,A*7D
$GPRMC,205159.000,A,3748.7580,N,12217.7794,W,2.78,119.45,231111,,,A*7A
$GPRMC,205200.000,A,3748.7575,N,12217.7784,W,2.93,119.83,231111,,,A*71
$GPRMC,205201.000,A,3748.7570,N,12217.7773,W,2.92,119.33,231111,,,A*77
$GPRMC,205202.000,A,3748.7564,N,12217.7763,W,2.91,122.85,231111,,,A*76
$GPRMC,205203.000,A,3748.7559,N,12217.7754,W,2.79,121.72,231111,,,A*70
$GPRMC,205204.000,A,3748.7554,N,12217.7745,W,2.96,121.36,231111,,,A*7B
$GPRMC,205205.000,A,3748.7550,N,12217.7736,W,2.68,120.95,231111,,,A*73
$GPRMC,205206.000,A,3748.7545,N,12217.7727,W,2.91,120.51,231111,,,A*7A
$GPRMC,205207.000,A,3748.7541,N,12217.7717,W,2.96,118.03,231111,,,A*77
$GPRMC,205208.000,A,3748.7536,N,12217.7707,W,2.96,116.63,231111,,,A*71
$GPRMC,205209.000,A,3748.7532,N,12217.7697,W,2.88,119.79,231111,,,A*77
$GPRMC,205210.000,A,3748.7527,N,12217.7690,W,2.62,121.35,231111,,,A*7B
$GPRMC,205211.000,A,3748.7521,N,12217.7677,W,2.81,123.20,231111,,,A*7E
$GPRMC,205212.000,A,3748.7515,N,12217.7667,W,2.98,129.09,231111,,,A*72
$GPRMC,205213.000,A,3748.7509,N,12217.7657,W,2.96,124.10,231111,,,A*76
$GPRMC,205214.000,A,3748.7505,N,12217.7648,W,2.78,122.02,231111,,,A*76
$GPRMC,205215.000,A,3748.7501,N,12217.7640,W,2.83,124.96,231111,,,A*74
$GPRMC,205216.000,A,3748.7498,N,12217.7632,W,2.95,122.71,231111,,,A*7B
$GPRMC,205217.000,A,3748.7494,N,12217.7623,W,2.99,119.76,231111,,,A*75
$GPRMC,205218.000,A,3748.7492,N,12217.7615,W,3.06,116.63,231111,,,A*75
$GPRMC,205219.000,A,3748.7489,N,12217.7608,W,3.01,125.12,231111,,,A*73
$GPRMC,205220.000,A,3748.7485,N,12217.7602,W,2.64,121.56,231111,,,A*79
$GPRMC,205221.000,A,3748.7481,N,12217.7593,W,2.64,119.22,231111,,,A*7F
$GPRMC,205222.000,A,3748.7480,N,12217.7588,W,1.89,114.29,231111,,,A*71
$GPRMC,205223.000,A,3748.7474,N,12217.7577,W,2.99,113.26,231111,,,A*71
$GPRMC,205224.000,A,3748.7470,N,12217.7567,W,2.38,113.23,231111,,,A*7D
$GPRMC,205225.000,A,3748.7470,N,12217.7557,W,2.06,124.39,231111,,,A*7D
$GPRMC,205226.000,A,3748.7466,N,12217.7551,W,2.47,124.03,231111,,,A*73
$GPRMC,205227.000,A,3748.7463,N,12217.7544,W,2.94,115.46,231111,,,A*7E
$GPRMC,205228.000,A,3748.7459,N,12217.7537,W,2.40,120.79,231111,,,A*7F
$GPRMC,205229.000,A,3748.7454,N,12217.7525,W,2.82,120.33,231111,,,A*70
$GPRMC,205230.000,A,3748.7448,N,12217.7515,W,2.67,128.82,231111,,,A*7F
$GPRMC,205231.000,A,3748.7442,N,12217.7507,W,2.81,130.11,231111,,,A*7C
$GPRMC,205232.000,A,3748.7438,N,12217.7500,W,2.70,123.09,231111,,,A*70
$GPRMC,205233.000,A,3748.7435,N,12217.7493,W,2.23,120.80,231111,,,A*73
$GPRMC,205234.000,A,3748.7433,N,12217.7489,W,2.23,120.58,231111,,,A*7C
$GPRMC,205235.000,A,3748.7430,N,12217.7482,W,2.67,115.65,231111,,,A*7D
$GPRMC,205236.000,A,3748.7423,N,12217.7471,W,2.14,120.30,231111,,,A*72
$GPRMC,205237.000,A,3748.7412,N,12217.7465,W,2.15,122.39,231111,,,A*7E
$GPRMC,205238.000,A,3748.7406,N,12217.7461,W,2.07,120.04,231111,,,A*7F
$GPRMC,205239.000,A,3748.7399,N,12217.7451,W,2.35,118.71,231111,,,A*74
$GPRMC,205240.000,A,3748.7395,N,12217.7444,W,1.84,114.12,231111,,,A*72
$GPRMC,205241.000,A,3748.7394,N,12217.7439,W,2.10,116.14,231111,,,A*72
$GPRMC,205242.000,A,3748.7392,N,12217.7433,W,2.07,122.67,231111,,,A*78
$GPRMC,205243.000,A,3748.7387,N,12217.7425,W,1.93,127.00,231111,,,A*70
$GPRMC,205244.000,A,3748.7381,N,12217.7421,W,1.69,126.33,231111,,,A*71
$GPRMC,205245.000,A,3748.7378,N,12217.7416,W,1.80,127.91,231111,,,A*7C
$GPRMC,205246.000,A,3748.7381,N,12217.7409,W,1.97,105.74,231111,,,A*7A
$GPRMC,205247.000,A,3748.7378,N,12217.7405,W,1.82,110.23,231111,,,A*73
$GPRMC,205248.000,A,3748.7374,N,12217.7400,W,1.69,112.68,231111,,,A*7D
$GPRMC,205249.000,A,3748.7367,N,12217.7384,W,2.09,107.28,231111,,,A*70
$GPRMC,205250.000,A,3748.7366,N,12217.7378,W,1.87,114.72,231111,,,A*72
$GPRMC,205251.000,A,3748.7366,N,12217.7371,W,2.23,113.69,231111,,,A*7A
$GPRMC,205252.000,A,3748.7364,N,12217.7363,W,1.92,110.87,231111,,,A*72
$GPRMC,205253.000,A,3748.7359,N,12217.7356,W,2.14,120.81,231111,,,A*73
$GPRMC,205254.000,A,3748.7350,N,12217.7346,W,2.66,119.30,231111,,,A*79
$GPRMC,205255.000,A,3748.7343,N,12217.7336,W,2.78,116.53,231111,,,A*78
$GPRMC,205256.000,A,3748.7339,N,12217.7327,W,2.51,112.64,231111,,,A*7D
$GPRMC,205257.000,A,3748.7338,N,12217.7320,W,2.23,118.17,231111,,,A*71
$GPRMC,205258.000,A,3748.7324,N,12217.7297,W,2.78,125.97,231111,,,A*76
$GPRMC,205259.000,A,3748.7312,N,12217.7281,W,2.99,126.59,231111,,,A*7B
$GPRMC,205300.000,A,3748.7308,N,12217.7272,W,3.07,122.72,231111,,,A*7A
$GPRMC,205301.000,A,3748.7305,N,12217.7266,W,2.68,121.13,231111,,,A*7F
$GPRMC,205302.000,A,3748.7301,N,12217.7258,W,2.99,123.93,231111,,,A*71
$GPRMC,205303.000,A,3748.7295,N,12217.7246,W,2.93,126.04,231111,,,A*72
$GPRMC,205304.000,A,3748.7290,N,12217.7237,W,2.99,124.79,231111,,,A*74
$GPRMC,205305.000,A,3748.7285,N,12217.7227,W,3.01,120.01,231111,,,A*7B
$GPRMC,205306.000,A,3748.7282,N,12217.7219,W,2.74,119.02,231111,,,A*78
$GPRMC,205307.000,A,3748.7277,N,12217.7210,W,2.99,118.20,231111,,,A*78
$GPRMC,205308.000,A,3748.7270,N,12217.7197,W,3.05,115.81,231111,,,A*7E
$GPRMC,205309.000,A,3748.7264,N,12217.7188,W,2.75,109.50,231111,,,A*73
$GPRMC,205310.000,A,3748.7264,N,12217.7179,W,2.82,90.23,231111,,,A*48
$GPRMC,205311.000,A,3748.7268,N,12217.7169,W,2.97,63.58,231111,,,A*40
$GPRMC,205312.000,A,3748.7275,N,12217.7162,W,2.54,39.96,231111,,,A*46
$GPRMC,205313.000,A,3748.7284,N,12217.7159,W,2.21,14.92,231111,,,A*48
$GPRMC,205314.000,A,3748.7292,N,12217.7156,W,2.39,16.45,231111,,,A*46
$GPRMC,205315.000,A,3748.7294,N,12217.7142,W,2.33,29.97,231111,,,A*4D
$GPRMC,205316.000,A,3748.7297,N,12217.7128,W,2.60,30.92,231111,,,A*4A
$GPRMC,205317.000,A,3748.7304,N,12217.7124,W,2.42,22.07,231111,,,A*43
$GPRMC,205318.000,A,3748.7308,N,12217.7114,W,2.56,23.51,231111,,,A*44
$GPRMC,205319.000,A,3748.7317,N,12217.7110,W,2.76,22.72,231111,,,A*4D
$GPRMC,205320.000,A,3748.7320,N,12217.7097,W,2.23,29.17,231111,,,A*45
$GPRMC,205321.000,A,3748.7327,N,12217.7091,W,1.98,26.79,231111,,,A*41
$GPRMC,205322.000,A,3748.7333,N,12217.7081,W,2.65,45.72,231111,,,A*49
$GPRMC,205323.000,A,3748.7339,N,12217.7073,W,2.47,28.28,231111,,,A*4B
$GPRMC,205324.000,A,3748.7345,N,12217.7064,W,2.16,39.29,231111,,,A*44
$GPRMC,205325.000,A,3748.7352,N,12217.7058,W,2.82,18.99,231111,,,A*49
$GPRMC,205326.000,A,3748.7361,N,12217.7052,W,2.55,19.78,231111,,,A*44
$GPRMC,205327.000,A,3748.7367,N,12217.7040,W,2.94,30.77,231111,,,A*49
$GPRMC,205328.000,A,3748.7371,N,12217.7022,W,3.03,43.60,231111,,,A*48
$GPRMC,205329.000,A,3748.7378,N,12217.7013,W,2.93,43.12,231111,,,A*4F
$GPRMC,205330.000,A,3748.7384,N,12217.7005,W,2.81,41.74,231111,,,A*42
$GPRMC,205331.000,A,3748.7390,N,12217.6999,W,2.74,36.21,231111,,,A*41
$GPRMC,205332.000,A,3748.7398,N,12217.6996,W,2.25,28.99,231111,,,A*4D
$GPRMC,205333.000,A,3748.7405,N,12217.6996,W,2.00,17.35,231111,,,A*42
$GPRMC,205334.000,A,3748.7414,N,12217.6997,W,1.78,8.23,231111,,,A*71
$GPRMC,205335.000,A,3748.7421,N,12217.6996,W,1.59,4.04,231111,,,A*7D
$GPRMC,205336.000,A,3748.7435,N,12217.6997,W,1.67,6.66,231111,,,A*71
$GPRMC,205337.000,A,3748.7437,N,12217.6988,W,1.92,323.72,231111,,,A*77
$GPRMC,205338.000,A,3748.7443,N,12217.6984,W,2.09,335.70,231111,,,A*73
$GPRMC,205339.000,A,3748.7451,N,12217.6976,W,2.43,338.81,231111,,,A*71
$GPRMC,205340.000,A,3748.7464,N,12217.6978,W,2.08,334.91,231111,,,A*75
$GPRMC,205341.000,A,3748.7472,N,12217.6971,W,2.22,333.74,231111,,,A*7E
$GPRMC,205342.000,A,3748.7482,N,12217.6968,W,2.19,343.12,231111,,,A*75
$GPRMC,205343.000,A,3748.7493,N,12217.6964,W,2.41,8.85,231111,,,A*77
$GPRMC,205344.000,A,3748.7502,N,12217.6962,W,2.65,8.30,231111,,,A*77
$GPRMC,205345.000,A,3748.7511,N,12217.6958,W,3.19,7.34,231111,,,A*7C
$GPRMC,205346.000,A,3748.7520,N,12217.6955,W,2.63,0.05,231111,,,A*79
$GPRMC,205347.000,A,3748.7528,N,12217.6954,W,2.37,0.10,231111,,,A*74
$GPRMC,205348.000,A,3748.7527,N,12217.6943,W,2.23,14.67,231111,,,A*42
$GPRMC,205349.000,A,3748.7535,N,12217.6945,W,2.45,356.30,231111,,,A*71
$GPRMC,205350.000,A,3748.7542,N,12217.6945,W,2.32,0.28,231111,,,A*70
$GPRMC,205351.000,A,3748.7549,N,12217.6940,W,2.83,5.50,231111,,,A*7F
$GPRMC,205352.000,A,3748.7559,N,12217.6935,W,2.84,2.99,231111,,,A*7A
$GPRMC,205353.000,A,3748.7571,N,12217.6933,W,3.28,7.17,231111,,,A*73
$GPRMC,205354.000,A,3748.7579,N,12217.6927,W,2.79,8.39,231111,,,A*7F
$GPRMC,205355.000,A,3748.7586,N,12217.6920,W,2.73,15.66,231111,,,A*45
$GPRMC,205356.000,A,3748.7589,N,12217.6916,W,1.91,41.43,231111,,,A*45
$GPRMC,205357.000,A,3748.7595,N,12217.6909,W,2.96,33.72,231111,,,A*44
$GPRMC,205358.000,A,3748.7603,N,12217.6903,W,2.30,20.14,231111,,,A*43
$GPRMC,205359.000,A,3748.7610,N,12217.6900,W,2.56,10.44,231111,,,A*45
$GPRMC,205400.000,A,3748.7618,N,12217.6895,W,3.06,20.11,231111,,,A*4C
$GPRMC,205401.000,A,3748.7627,N,12217.6894,W,3.01,12.94,231111,,,A*4B
$GPRMC,205402.000,A,3748.7634,N,12217.6890,W,2.12,19.19,231111,,,A*43
$GPRMC,205403.000,A,3748.7638,N,12217.6886,W,1.99,37.56,231111,,,A*4E
$GPRMC,205404.000,A,3748.7641,N,12217.6880,W,2.82,45.03,231111,,,A*4D
$GPRMC,205405.000,A,3748.7647,N,12217.6872,W,2.80,26.57,231111,,,A*41
$GPRMC,205406.000,A,3748.7653,N,12217.6867,W,2.62,23.25,231111,,,A*4F
$GPRMC,205407.000,A,3748.7661,N,12217.6864,W,2.85,1.01,231111,,,A*73
$GPRMC,205408.000,A,3748.7669,N,12217.6864,W,2.53,352.84,231111,,,A*77
$GPRMC,205409.000,A,3748.7678,N,12217.6863,W,2.28,4.11,231111,,,A*71
$GPRMC,205410.000,A,3748.7681,N,12217.6853,W,2.33,357.34,231111,,,A*74
$GPRMC,205411.000,A,3748.7687,N,12217.6849,W,1.94,15.37,231111,,,A*40
$GPRMC,205412.000,A,3748.7695,N,12217.6847,W,2.21,28.74,231111,,,A*4A
$GPRMC,205413.000,A,3748.7701,N,12217.6841,W,2.87,34.02,231111,,,A*41
$GPRMC,205414.000,A,3748.7708,N,12217.6834,W,2.96,27.26,231111,,,A*49
$GPRMC,205415.000,A,3748.7713,N,12217.6819,W,2.98,30.07,231111,,,A*46
$GPRMC,205416.000,A,3748.7719,N,12217.6808,W,2.74,26.16,231111,,,A*4A
$GPRMC,205417.000,A,3748.7726,N,12217.6803,W,2.90,22.89,231111,,,A*44
$GPRMC,205418.000,A,3748.7735,N,12217.6802,W,2.52,24.43,231111,,,A*46
$GPRMC,205419.000,A,3748.7743,N,12217.6801,W,2.54,27.97,231111,,,A*49
$GPRMC,205420.000,A,3748.7751,N,12217.6799,W,2.65,39.75,231111,,,A*4F
$GPRMC,205421.000,A,3748.7760,N,12217.6799,W,2.68,30.78,231111,,,A*45
$GPRMC,205422.000,A,3748.7764,N,12217.6790,W,2.43,24.04,231111,,,A*4C
$GPRMC,205423.000,A,3748.7773,N,12217.6791,W,2.55,15.63,231111,,,A*4E
$GPRMC,205424.000,A,3748.7779,N,12217.6785,W,2.24,24.89,231111,,,A*46
$GPRMC,205425.000,A,3748.7788,N,12217.6784,W,2.64,0.32,231111,,,A*7A
$GPRMC,205426.000,A,3748.7796,N,12217.6783,W,2.54,15.92,231111,,,A*4C
$GPRMC,205427.000,A,3748.7804,N,12217.6775,W,2.82,27.93,231111,,,A*4B
$GPRMC,205428.000,A,3748.7803,N,12217.6754,W,2.36,16.75,231111,,,A*45
$GPRMC,205429.000,A,3748.7811,N,12217.6750,W,2.64,12.50,231111,,,A*47
$GPRMC,205430.000,A,3748.7818,N,12217.6748,W,2.63,10.48,231111,,,A*43
$GPRMC,205431.000,A,3748.7826,N,12217.6744,W,1.96,11.20,231111,,,A*45
$GPRMC,205432.000,A,3748.7833,N,12217.6744,W,2.01,10.00,231111,,,A*4C
$GPRMC,205433.000,A,3748.7834,N,12217.6732,W,2.31,8.07,231111,,,A*76
$GPRMC,205434.000,A,3748.7838,N,12217.6721,W,2.93,21.80,231111,,,A*43
$GPRMC,205435.000,A,3748.7841,N,12217.6709,W,2.79,22.34,231111,,,A*4E
$GPRMC,205436.000,A,3748.7844,N,12217.6698,W,2.65,31.49,231111,,,A*44
$GPRMC,205437.000,A,3748.7847,N,12217.6685,W,2.15,23.52,231111,,,A*44
$GPRMC,205438.000,A,3748.7851,N,12217.6678,W,2.16,21.43,231111,,,A*4F
$GPRMC,205439.000,A,3748.7855,N,12217.6674,W,2.07,31.21,231111,,,A*43
$GPRMC,205440.000,A,3748.7862,N,12217.6670,W,2.78,25.25,231111,,,A*44
$GPRMC,205441.000,A,3748.7871,N,12217.6665,W,2.94,20.35,231111,,,A*45
$GPRMC,205442.000,A,3748.7878,N,12217.6659,W,2.28,25.28,231111,,,A*4E
$GPRMC,205443.000,A,3748.7886,N,12217.6653,W,2.94,18.25,231111,,,A*40
$GPRMC,205444.000,A,3748.7896,N,12217.6650,W,2.62,15.14,231111,,,A*43
$GPRMC,205445.000,A,3748.7905,N,12217.6647,W,3.00,12.17,231111,,,A*4E
$GPRMC,205446.000,A,3748.7912,N,12217.6642,W,2.54,15.32,231111,,,A*4E
$GPRMC,205447.000,A,3748.7919,N,12217.6639,W,2.27,18.09,231111,,,A*49
$GPRMC,205448.000,A,3748.7927,N,12217.6636,W,2.62,2.26,231111,,,A*73
$GPRMC,205449.000,A,3748.7934,N,12217.6629,W,2.46,25.04,231111,,,A*4D
$GPRMC,205450.000,A,3748.7942,N,12217.6627,W,2.51,5.43,231111,,,A*7D
$GPRMC,205451.000,A,3748.7953,N,12217.6629,W,2.82,16.17,231111,,,A*4F
$GPRMC,205452.000,A,3748.7961,N,12217.6627,W,2.76,18.53,231111,,,A*46
$GPRMC,205453.000,A,3748.7969,N,12217.6625,W,2.87,13.43,231111,,,A*49
$GPRMC,205454.000,A,3748.7978,N,12217.6624,W,2.95,7.75,231111,,,A*7C
$GPRMC,205455.000,A,3748.7988,N,12217.6623,W,3.21,2.94,231111,,,A*71
$GPRMC,205456.000,A,3748.7998,N,12217.6621,W,2.96,19.80,231111,,,A*43
$GPRMC,205457.000,A,3748.8007,N,12217.6617,W,3.00,29.05,231111,,,A*47
$GPRMC,205458.000,A,3748.8013,N,12217.6611,W,2.91,22.76,231111,,,A*4D
$GPRMC,205459.000,A,3748.8019,N,12217.6604,W,2.36,39.36,231111,,,A*41
$GPRMC,205500.000,A,3748.8024,N,12217.6594,W,3.10,45.30,231111,,,A*40
$GPRMC,205501.000,A,3748.8030,N,12217.6588,W,2.96,39.14,231111,,,A*4B
$GPRMC,205502.000,A,3748.8037,N,12217.6581,W,3.06,30.66,231111,,,A*42
$GPRMC,205503.000,A,3748.8044,N,12217.6576,W,2.86,29.79,231111,,,A*40
$GPRMC,205504.000,A,3748.8051,N,12217.6569,W,2.95,35.12,231111,,,A*4F
$GPRMC,205505.000,A,3748.8057,N,12217.6560,W,2.77,29.75,231111,,,A*41
$GPRMC,205506.000,A,3748.8063,N,12217.6550,W,2.80,21.49,231111,,,A*49
$GPRMC,205507.000,A,3748.8070,N,12217.6544,W,2.96,11.30,231111,,,A*45
$GPRMC,205508.000,A,3748.8078,N,12217.6542,W,2.83,5.85,231111,,,A*7B
$GPRMC,205509.000,A,3748.8085,N,12217.6538,W,2.31,356.89,231111,,,A*75
$GPRMC,205510.000,A,3748.8093,N,12217.6539,W,2.62,355.84,231111,,,A*73
$GPRMC,205511.000,A,3748.8101,N,12217.6537,W,2.94,9.32,231111,,,A*78
$GPRMC,205512.000,A,3748.8108,N,12217.6526,W,3.17,8.91,231111,,,A*70
$GPRMC,205513.000,A,3748.8116,N,12217.6519,W,3.28,15.97,231111,,,A*44
$GPRMC,205514.000,A,3748.8119,N,12217.6502,W,3.22,28.22,231111,,,A*4C
$GPRMC,205515.000,A,3748.8126,N,12217.6497,W,2.85,21.92,231111,,,A*42
$GPRMC,205516.000,A,3748.8135,N,12217.6497,W,3.08,8.23,231111,,,A*76
$GPRMC,205517.000,A,3748.8141,N,12217.6491,W,3.12,4.62,231111,,,A*70
$GPRMC,205518.000,A,3748.8151,N,12217.6492,W,3.18,3.20,231111,,,A*76
$GPRMC,205519.000,A,3748.8156,N,12217.6483,W,3.14,20.98,231111,,,A*4E
$GPRMC,205520.000,A,3748.8161,N,12217.6473,W,3.02,20.66,231111,,,A*49
$GPRMC,205521.000,A,3748.8164,N,12217.6460,W,2.89,32.14,231111,,,A*4B
$GPRMC,205522.000,A,3748.8165,N,12217.6443,W,3.14,18.87,231111,,,A*4F
$GPRMC,205523.000,A,3748.8163,N,12217.6425,W,2.47,27.65,231111,,,A*4F
$GPRMC,205524.000,A,3748.8164,N,12217.6411,W,2.80,29.82,231111,,,A*44
$GPRMC,205525.000,A,3748.8164,N,12217.6395,W,2.53,31.43,231111,,,A*44
$GPRMC,205526.000,A,3748.8165,N,12217.6382,W,2.34,30.05,231111,,,A*42
$GPRMC,205527.000,A,3748.8168,N,12217.6370,W,2.48,31.16,231111,,,A*4B
$GPRMC,205528.000,A,3748.8172,N,12217.6360,W,2.40,29.50,231111,,,A*4D
$GPRMC,205529.000,A,3748.8172,N,12217.6345,W,2.55,29.34,231111,,,A*4D
$GPRMC,205530.000,A,3748.8171,N,12217.6325,W,2.81,35.71,231111,,,A*45
$GPRMC,205531.000,A,3748.8171,N,12217.6307,W,2.91,37.79,231111,,,A*4F
$GPRMC,205532.000,A,3748.8175,N,12217.6296,W,2.81,42.19,231111,,,A*44
$GPRMC,205533.000,A,3748.8178,N,12217.6284,W,2.85,34.55,231111,,,A*46
$GPRMC,205534.000,A,3748.8183,N,12217.6276,W,2.90,26.60,231111,,,A*49
$GPRMC,205535.000,A,3748.8190,N,12217.6270,W,2.96,19.21,231111,,,A*43
$GPRMC,205536.000,A,3748.8196,N,12217.6264,W,2.79,29.38,231111,,,A*49
$GPRMC,205537.000,A,3748.8199,N,12217.6250,W,2.90,24.16,231111,,,A*46
$GPRMC,205538.000,A,3748.8201,N,12217.6236,W,2.95,24.02,231111,,,A*4B
$GPRMC,205539.000,A,3748.8205,N,12217.6223,W,2.99,54.12,231111,,,A*40
$GPRMC,205540.000,A,3748.8206,N,12217.6206,W,3.18,45.54,231111,,,A*40
$GPRMC,205541.000,A,3748.8210,N,12217.6192,W,2.93,43.15,231111,,,A*49
$GPRMC,205542.000,A,3748.8215,N,12217.6184,W,3.03,44.65,231111,,,A*40
$GPRMC,205543.000,A,3748.8223,N,12217.6178,W,2.89,40.63,231111,,,A*46
$GPRMC,205544.000,A,3748.8234,N,12217.6175,W,2.71,36.75,231111,,,A*4B
$GPRMC,205545.000,A,3748.8243,N,12217.6177,W,2.47,38.39,231111,,,A*4B
$GPRMC,205546.000,A,3748.8254,N,12217.6183,W,2.77,25.43,231111,,,A*47
$GPRMC,205547.000,A,3748.8264,N,12217.6183,W,2.99,25.20,231111,,,A*40
$GPRMC,205548.000,A,3748.8272,N,12217.6175,W,2.57,53.10,231111,,,A*41
$GPRMC,205549.000,A,3748.8274,N,12217.6167,W,2.51,60.16,231111,,,A*45
$GPRMC,205550.000,A,3748.8278,N,12217.6163,W,2.20,55.28,231111,,,A*48
$GPRMC,205551.000,A,3748.8284,N,12217.6159,W,2.90,39.10,231111,,,A*49
$GPRMC,205552.000,A,3748.8291,N,12217.6154,W,2.82,36.32,231111,,,A*4F
$GPRMC,205553.000,A,3748.8302,N,12217.6153,W,2.95,38.35,231111,,,A*4D
$GPRMC,205554.000,A,3748.8309,N,12217.6148,W,2.81,35.80,231111,,,A*4D
$GPRMC,205555.000,A,3748.8318,N,12217.6144,W,2.80,35.55,231111,,,A*49
$GPRMC,205556.000,A,3748.8322,N,12217.6134,W,2.59,33.88,231111,,,A*46
$GPRMC,205557.000,A,3748.8330,N,12217.6132,W,2.25,29.57,231111,,,A*40
$GPRMC,205558.000,A,3748.8338,N,12217.6135,W,0.87,32.95,231111,,,D*4B
$GPRMC,205559.000,A,3748.8344,N,12217.6134,W,1.69,6.04,231111,,,D*7E
$GPRMC,205600.000,A,3748.8355,N,12217.6139,W,1.97,31.09,231111,,,D*44
$GPRMC,205601.000,A,3748.8361,N,12217.6134,W,1.89,41.16,231111,,,D*49
$GPRMC,205602.000,A,3748.8363,N,12217.6127,W,0.87,47.47,231111,,,D*47
$GPRMC,205603.000,A,3748.8361,N,12217.6119,W,0.45,83.08,231111,,,D*44
$GPRMC,205604.000,A,3748.8365,N,12217.6127,W,1.44,138.38,231111,,,D*78
$GPRMC,205605.000,A,3748.8367,N,12217.6134,W,2.06,132.35,231111,,,D*7B
$GPRMC,205606.000,A,3748.8367,N,12217.6141,W,2.37,136.49,231111,,,D*77
$GPRMC,205607.000,A,3748.8364,N,12217.6145,W,2.53,139.90,231111,,,D*78
$GPRMC,205608.000,A,3748.8358,N,12217.6148,W,2.72,141.52,231111,,,D*77
$GPRMC,205609.000,A,3748.8356,N,12217.6148,W,2.69,131.26,231111,,,D*76
$GPRMC,205610.000,A,3748.8355,N,12217.6146,W,2.57,129.03,231111,,,D*70
$GPRMC,205611.000,A,3748.8349,N,12217.6145,W,2.59,125.71,231111,,,D*78
$GPRMC,205612.000,A,3748.8344,N,12217.6144,W,2.70,128.71,231111,,,D*71
$GPRMC,205613.000,A,3748.8345,N,12217.6140,W,2.76,118.66,231111,,,D*76
$GPRMC,205614.000,A,3748.8342,N,12217.6134,W,2.59,119.78,231111,,,D*76
$GPRMC,205615.000,A,3748.8341,N,12217.6134,W,1.75,119.79,231111,,,D*78
$GPRMC,205616.000,A,3748.8341,N,12217.6129,W,2.34,112.95,231111,,,D*78
$GPRMC,205617.000,A,3748.8338,N,12217.6123,W,2.53,114.78,231111,,,D*79
$GPRMC,205618.000,A,3748.8333,N,12217.6117,W,2.57,115.79,231111,,,D*7E
$GPRMC,205619.000,A,3748.8329,N,12217.6110,W,2.56,115.48,231111,,,D*70
$GPRMC,205620.000,A,3748.8327,N,12217.6103,W,2.60,112.76,231111,,,D*79
$GPRMC,205621.000,A,3748.8324,N,12217.6096,W,2.54,117.02,231111,,,D*77
$GPRMC,205622.000,A,3748.8321,N,12217.6089,W,2.60,117.17,231111,,,D*7C
$GPRMC,205623.000,A,3748.8318,N,12217.6081,W,2.57,120.70,231111,,,D*7E
$GPRMC,205624.000,A,3748.8314,N,12217.6075,W,1.86,132.09,231111,,,D*7C
$GPRMC,205625.000,A,3748.8312,N,12217.6071,W,1.66,140.74,231111,,,A*7B
$GPRMC,205626.000,A,3748.8308,N,12217.6068,W,1.96,129.50,231111,,,A*7D
$GPRMC,205627.000,A,3748.8305,N,12217.6058,W,1.85,110.39,231111,,,A*75
$GPRMC,205628.000,A,3748.8304,N,12217.6047,W,1.80,133.20,231111,,,A*79
$GPRMC,205629.000,A,3748.8295,N,12217.6035,W,1.90,108.82,231111,,,A*75
$GPRMC,205630.000,A,3748.8291,N,12217.6025,W,2.45,112.86,231111,,,A*7C
$GPRMC,205631.000,A,3748.8284,N,12217.6009,W,2.72,123.67,231111,,,A*7E
$GPRMC,205632.000,A,3748.8277,N,12217.5997,W,2.79,116.82,231111,,,A*7A
$GPRMC,205633.000,A,3748.8275,N,12217.5987,W,2.68,129.32,231111,,,A*7F
$GPRMC,205634.000,A,3748.8272,N,12217.5981,W,2.17,118.33,231111,,,A*72
$GPRMC,205635.000,A,3748.8267,N,12217.5974,W,2.57,121.76,231111,,,A*72
$GPRMC,205636.000,A,3748.8265,N,12217.5968,W,2.35,115.17,231111,,,A*7A
$GPRMC,205637.000,A,3748.8263,N,12217.5960,W,2.25,119.33,231111,,,A*7E
$GPRMC,205638.000,A,3748.8263,N,12217.5957,W,1.43,111.08,231111,,,A*76
$GPRMC,205639.000,A,3748.8262,N,12217.5953,W,2.43,116.35,231111,,,A*78
$GPRMC,205640.000,A,3748.8260,N,12217.5947,W,2.08,114.07,231111,,,A*7D
$GPRMC,205641.000,A,3748.8260,N,12217.5945,W,1.77,117.83,231111,,,A*7A
$GPRMC,205642.000,A,3748.8255,N,12217.5940,W,1.71,117.65,231111,,,A*74
$GPRMC,205643.000,A,3748.8252,N,12217.5935,W,2.15,116.00,231111,,,A*73
$GPRMC,205644.000,A,3748.8249,N,12217.5929,W,2.03,109.73,231111,,,A*7E
$GPRMC,205645.000,A,3748.8247,N,12217.5925,W,1.34,114.60,231111,,,A*74
$GPRMC,205646.000,A,3748.8245,N,12217.5921,W,2.16,109.43,231111,,,A*7F
$GPRMC,205647.000,A,3748.8240,N,12217.5912,W,2.27,112.37,231111,,,A*70
$GPRMC,205648.000,A,3748.8235,N,12217.5903,W,2.02,113.55,231111,,,A*7F
$GPRMC,205649.000,A,3748.8229,N,12217.5894,W,2.36,119.80,231111,,,A*79
$GPRMC,205650.000,A,3748.8222,N,12217.5881,W,2.51,123.98,231111,,,A*7F
$GPRMC,205651.000,A,3748.8215,N,12217.5870,W,2.71,126.54,231111,,,A*73
$GPRMC,205652.000,A,3748.8209,N,12217.5862,W,2.74,127.66,231111,,,A*7B
$GPRMC,205653.000,A,3748.8204,N,12217.5853,W,2.45,120.33,231111,,,A*70
$GPRMC,205654.000,A,3748.8201,N,12217.5844,W,2.49,118.34,231111,,,A*74
$GPRMC,205655.000,A,3748.8198,N,12217.5836,W,2.27,113.63,231111,,,A*72
$GPRMC,205656.000,A,3748.8198,N,12217.5833,W,2.25,110.50,231111,,,A*75
$GPRMC,205657.000,A,3748.8195,N,12217.5826,W,2.24,113.03,231111,,,A*79
$GPRMC,205658.000,A,3748.8193,N,12217.5821,W,1.87,113.12,231111,,,A*7D
$GPRMC,205659.000,A,3748.8191,N,12217.5817,W,1.61,118.73,231111,,,A*7F
$GPRMC,205700.000,A,3748.8189,N,12217.5812,W,1.55,109.99,231111,,,A*7D
$GPRMC,205701.000,A,3748.8189,N,12217.5808,W,2.10,110.80,231111,,,A*75
$GPRMC,205702.000,A,3748.8184,N,12217.5792,W,2.01,96.00,231111,,,A*40
$GPRMC,205703.000,A,3748.8173,N,12217.5770,W,2.01,97.01,231111,,,A*45
$GPRMC,205704.000,A,3748.8159,N,12217.5747,W,2.34,121.88,231111,,,A*75
$GPRMC,205705.000,A,3748.8155,N,12217.5739,W,2.18,114.95,231111,,,A*75
$GPRMC,205706.000,A,3748.8147,N,12217.5724,W,2.48,124.51,231111,,,A*77
$GPRMC,205707.000,A,3748.8145,N,12217.5715,W,2.54,124.67,231111,,,A*7E
$GPRMC,205708.000,A,3748.8138,N,12217.5706,W,2.42,122.00,231111,,,A*79
$GPRMC,205709.000,A,3748.8130,N,12217.5699,W,2.77,124.48,231111,,,A*7B
$GPRMC,205710.000,A,3748.8127,N,12217.5694,W,2.41,122.59,231111,,,A*7B
$GPRMC,205711.000,A,3748.8121,N,12217.5687,W,2.44,124.94,231111,,,A*7C
$GPRMC,205712.000,A,3748.8116,N,12217.5680,W,2.76,122.77,231111,,,A*76
$GPRMC,205713.000,A,3748.8113,N,12217.5672,W,1.83,104.24,231111,,,A*74
$GPRMC,205714.000,A,3748.8111,N,12217.5666,W,2.23,112.29,231111,,,A*77
$GPRMC,205715.000,A,3748.8109,N,12217.5657,W,2.79,109.74,231111,,,A*70
$GPRMC,205716.000,A,3748.8108,N,12217.5647,W,2.70,109.95,231111,,,A*75
$GPRMC,205717.000,A,3748.8110,N,12217.5638,W,1.96,108.08,231111,,,A*7B
$GPRMC,205718.000,A,3748.8110,N,12217.5631,W,1.91,118.29,231111,,,A*78
$GPRMC,205719.000,A,3748.8108,N,12217.5618,W,2.34,127.00,231111,,,A*70
$GPRMC,205720.000,A,3748.8102,N,12217.5609,W,2.94,123.18,231111,,,A*77
$GPRMC,205721.000,A,3748.8098,N,12217.5591,W,2.38,105.03,231111,,,A*7E
$GPRMC,205722.000,A,3748.8095,N,12217.5578,W,2.46,116.89,231111,,,A*7E
$GPRMC,205723.000,A,3748.8089,N,12217.5567,W,2.46,125.05,231111,,,A*78
$GPRMC,205724.000,A,3748.8085,N,12217.5564,W,2.67,127.56,231111,,,A*77
$GPRMC,205725.000,A,3748.8077,N,12217.5558,W,2.45,123.06,231111,,,A*75
$GPRMC,205726.000,A,3748.8074,N,12217.5557,W,2.06,126.91,231111,,,A*76
$GPRMC,205727.000,A,3748.8068,N,12217.5554,W,2.16,130.11,231111,,,A*77
$GPRMC,205728.000,A,3748.8064,N,12217.5548,W,2.21,127.08,231111,,,A*73
$GPRMC,205729.000,A,3748.8070,N,12217.5546,W,2.22,110.80,231111,,,A*7E
$GPRMC,205730.000,A,3748.8064,N,12217.5535,W,2.27,116.17,231111,,,A*7A
$GPRMC,205731.000,A,3748.8058,N,12217.5530,W,2.26,147.20,231111,,,A*70
$GPRMC,205732.000,A,3748.8053,N,12217.5530,W,1.88,177.42,231111,,,A*78
$GPRMC,205733.000,A,3748.8046,N,12217.5532,W,2.44,178.70,231111,,,A*72
$GPRMC,205734.000,A,3748.8040,N,12217.5540,W,2.20,211.42,231111,,,A*79
$GPRMC,205735.000,A,3748.8031,N,12217.5538,W,2.08,209.53,231111,,,A*72
$GPRMC,205736.000,A,3748.8027,N,12217.5544,W,1.93,226.40,231111,,,A*73
$GPRMC,205737.000,A,3748.8025,N,12217.5551,W,2.52,230.47,231111,,,A*7A
$GPRMC,205738.000,A,3748.8021,N,12217.5562,W,2.40,236.73,231111,,,A*73
$GPRMC,205739.000,A,3748.8010,N,12217.5564,W,3.17,230.31,231111,,,A*75
$GPRMC,205740.000,A,3748.8004,N,12217.5573,W,2.81,223.73,231111,,,A*72
$GPRMC,205741.000,A,3748.7997,N,12217.5580,W,2.41,222.74,231111,,,A*79
$GPRMC,205742.000,A,3748.7984,N,12217.5575,W,2.93,204.09,231111,,,A*73
$GPRMC,205743.000,A,3748.7972,N,12217.5579,W,2.98,211.21,231111,,,A*72
$GPRMC,205744.000,A,3748.7960,N,12217.5579,W,2.62,200.13,231111,,,A*72
$GPRMC,205745.000,A,3748.7953,N,12217.5582,W,2.80,199.88,231111,,,A*7A
$GPRMC,205746.000,A,3748.7940,N,12217.5585,W,2.59,198.24,231111,,,A*7F
$GPRMC,205747.000,A,3748.7926,N,12217.5588,W,2.46,198.86,231111,,,A*75
$GPRMC,205748.000,A,3748.7917,N,12217.5588,W,2.70,188.33,231111,,,A*72
$GPRMC,205749.000,A,3748.7909,N,12217.5588,W,2.93,191.28,231111,,,A*73
$GPRMC,205750.000,A,3748.7907,N,12217.5596,W,2.79,200.54,231111,,,A*7E
$GPRMC,205751.000,A,3748.7902,N,12217.5605,W,2.83,217.73,231111,,,A*75
$GPRMC,205752.000,A,3748.7894,N,12217.5613,W,2.43,197.29,231111,,,A*77
$GPRMC,205753.000,A,3748.7883,N,12217.5617,W,2.67,196.49,231111,,,A*75
$GPRMC,205754.000,A,3748.7871,N,12217.5621,W,2.23,206.41,231111,,,A*78
$GPRMC,205755.000,A,3748.7863,N,12217.5624,W,2.20,211.69,231111,,,A*70
$GPRMC,205756.000,A,3748.7858,N,12217.5626,W,2.46,205.74,231111,,,A*70
$GPRMC,205757.000,A,3748.7853,N,12217.5630,W,2.39,203.82,231111,,,A*7A
$GPRMC,205758.000,A,3748.7851,N,12217.5634,W,2.67,212.06,231111,,,A*74
$GPRMC,205759.000,A,3748.7845,N,12217.5639,W,2.53,214.27,231111,,,A*7F
$GPRMC,205800.000,A,3748.7845,N,12217.5647,W,2.80,221.17,231111,,,A*7E
$GPRMC,205801.000,A,3748.7839,N,12217.5657,W,2.70,217.88,231111,,,A*79
$GPRMC,205802.000,A,3748.7832,N,12217.5665,W,2.60,213.58,231111,,,A*78
$GPRMC,205803.000,A,3748.7826,N,12217.5673,W,2.67,201.04,231111,,,A*76
$GPRMC,205804.000,A,3748.7814,N,12217.5676,W,2.84,207.28,231111,,,A*70
$GPRMC,205805.000,A,3748.7805,N,12217.5681,W,2.77,206.31,231111,,,A*7C
$GPRMC,205806.000,A,3748.7799,N,12217.5687,W,2.60,201.92,231111,,,A*7B
$GPRMC,205807.000,A,3748.7790,N,12217.5693,W,2.70,204.21,231111,,,A*7A
$GPRMC,205808.000,A,3748.7784,N,12217.5700,W,2.61,209.32,231111,,,A*74
$GPRMC,205809.000,A,3748.7778,N,12217.5705,W,2.68,198.01,231111,,,A*71
$GPRMC,205810.000,A,3748.7767,N,12217.5707,W,2.95,196.32,231111,,,A*79
$GPRMC,205811.000,A,3748.7761,N,12217.5712,W,2.75,206.42,231111,,,A*79
$GPRMC,205812.000,A,3748.7755,N,12217.5716,W,2.71,200.32,231111,,,A*7C
$GPRMC,205813.000,A,3748.7749,N,12217.5721,W,2.56,196.07,231111,,,A*7B
$GPRMC,205814.000,A,3748.7746,N,12217.5726,W,2.17,203.03,231111,,,A*7A
$GPRMC,205815.000,A,3748.7740,N,12217.5729,W,2.43,212.62,231111,,,A*74
$GPRMC,205816.000,A,3748.7735,N,12217.5735,W,2.62,201.13,231111,,,A*7F
$GPRMC,205817.000,A,3748.7728,N,12217.5739,W,2.58,209.96,231111,,,A*72
$GPRMC,205818.000,A,3748.7723,N,12217.5746,W,2.41,209.48,231111,,,A*75
$GPRMC,205819.000,A,3748.7720,N,12217.5757,W,2.57,201.00,231111,,,A*74
$GPRMC,205820.000,A,3748.7714,N,12217.5761,W,2.17,199.25,231111,,,A*7D
$GPRMC,205821.000,A,3748.7707,N,12217.5764,W,2.67,205.63,231111,,,A*78
$GPRMC,205822.000,A,3748.7700,N,12217.5770,W,2.69,208.27,231111,,,A*7A
$GPRMC,205823.000,A,3748.7694,N,12217.5776,W,2.41,215.53,231111,,,A*74
$GPRMC,205824.000,A,3748.7688,N,12217.5785,W,2.10,214.69,231111,,,A*7E
$GPRMC,205825.000,A,3748.7682,N,12217.5789,W,1.88,213.96,231111,,,A*7C
$GPRMC,205826.000,A,3748.7674,N,12217.5794,W,1.62,208.92,231111,,,A*70
$GPRMC,205827.000,A,3748.7669,N,12217.5802,W,2.31,212.28,231111,,,A*72
$GPRMC,205828.000,A,3748.7662,N,12217.5809,W,2.64,211.87,231111,,,A*7B
$GPRMC,205829.000,A,3748.7656,N,12217.5814,W,2.27,202.28,231111,,,A*71
$GPRMC,205830.000,A,3748.7650,N,12217.5818,W,2.14,202.41,231111,,,A*7C
$GPRMC,205831.000,A,3748.7641,N,12217.5822,W,2.13,197.10,231111,,,A*78
$GPRMC,205832.000,A,3748.7635,N,12217.5823,W,2.09,186.89,231111,,,A*72
$GPRMC,205833.000,A,3748.7628,N,12217.5825,W,2.27,190.89,231111,,,A*72
$GPRMC,205834.000,A,3748.7623,N,12217.5826,W,1.94,190.83,231111,,,A*7C
$GPRMC,205835.000,A,3748.7617,N,12217.5830,W,2.18,200.89,231111,,,A*7A
$GPRMC,205836.000,A,3748.7610,N,12217.5835,W,2.05,205.43,231111,,,A*74
$GPRMC,205837.000,A,3748.7604,N,12217.5840,W,2.04,196.86,231111,,,A*73
$GPRMC,205838.000,A,3748.7598,N,12217.5846,W,2.70,204.47,231111,,,A*7A
$GPRMC,205839.000,A,3748.7588,N,12217.5849,W,2.60,204.58,231111,,,A*7A
$GPRMC,205840.000,A,3748.7579,N,12217.5853,W,2.42,201.50,231111,,,A*7C
$GPRMC,205841.000,A,3748.7573,N,12217.5856,W,2.11,185.59,231111,,,A*72
$GPRMC,205842.000,A,3748.7564,N,12217.5860,W,2.61,196.81,231111,,,A*72
$GPRMC,205843.000,A,3748.7556,N,12217.5867,W,2.13,213.86,231111,,,A*79
$GPRMC,205844.000,A,3748.7548,N,12217.5876,W,2.18,206.14,231111,,,A*75
$GPRMC,205845.000,A,3748.7548,N,12217.5888,W,2.36,219.75,231111,,,A*70
$GPRMC,205846.000,A,3748.7549,N,12217.5902,W,2.07,218.51,231111,,,A*74
$GPRMC,205847.000,A,3748.7544,N,12217.5911,W,2.14,221.21,231111,,,A*75
$GPRMC,205848.000,A,3748.7536,N,12217.5922,W,2.84,216.72,231111,,,A*74
$GPRMC,205849.000,A,3748.7530,N,12217.5932,W,2.21,213.89,231111,,,A*7C
$GPRMC,205850.000,A,3748.7521,N,12217.5933,W,2.52,209.08,231111,,,A*73
$GPRMC,205851.000,A,3748.7510,N,12217.5937,W,2.60,210.27,231111,,,A*70
$GPRMC,205852.000,A,3748.7504,N,12217.5945,W,2.44,206.74,231111,,,A*74
$GPRMC,205853.000,A,3748.7495,N,12217.5950,W,2.10,205.14,231111,,,A*7C
$GPRMC,205854.000,A,3748.7485,N,12217.5952,W,2.09,205.36,231111,,,A*70
$GPRMC,205855.000,A,3748.7474,N,12217.5954,W,2.05,202.19,231111,,,A*7F
$GPRMC,205856.000,A,3748.7466,N,12217.5956,W,2.56,209.90,231111,,,A*71
$GPRMC,205857.000,A,3748.7458,N,12217.5965,W,2.53,210.92,231111,,,A*72
$GPRMC,205858.000,A,3748.7451,N,12217.5973,W,2.65,202.37,231111,,,A*7A
$GPRMC,205859.000,A,3748.7444,N,12217.5981,W,2.68,219.29,231111,,,A*7A
$GPRMC,205900.000,A,3748.7434,N,12217.5989,W,2.09,210.53,231111,,,A*7B
$GPRMC,205901.000,A,3748.7427,N,12217.5995,W,2.47,210.44,231111,,,A*79
$GPRMC,205902.000,A,3748.7416,N,12217.6000,W,2.50,203.31,231111,,,A*78
$GPRMC,205903.000,A,3748.7409,N,12217.6004,W,2.09,207.57,231111,,,A*7B
$GPRMC,205904.000,A,3748.7403,N,12217.6008,W,2.02,198.40,231111,,,A*72
$GPRMC,205905.000,A,3748.7397,N,12217.6013,W,2.43,216.41,231111,,,A*72
$GPRMC,205906.000,A,3748.7392,N,12217.6022,W,2.55,212.82,231111,,,A*7A
$GPRMC,205907.000,A,3748.7387,N,12217.6032,W,2.15,213.39,231111,,,A*7B
$GPRMC,205908.000,A,3748.7380,N,12217.6038,W,2.54,208.76,231111,,,A*7D
$GPRMC,205909.000,A,3748.7365,N,12217.6045,W,2.16,207.55,231111,,,A*75
$GPRMC,205910.000,A,3748.7355,N,12217.6049,W,2.26,199.89,231111,,,A*74
$GPRMC,205911.000,A,3748.7347,N,12217.6054,W,2.13,201.45,231111,,,A*7E
$GPRMC,205912.000,A,3748.7337,N,12217.6058,W,2.15,197.36,231111,,,A*78
$GPRMC,205913.000,A,3748.7333,N,12217.6062,W,1.82,198.70,231111,,,A*74
$GPRMC,205914.000,A,3748.7328,N,12217.6068,W,2.15,213.70,231111,,,A*7E
$GPRMC,205915.000,A,3748.7323,N,12217.6074,W,2.31,201.02,231111,,,A*79
$GPRMC,205916.000,A,3748.7312,N,12217.6081,W,2.76,197.22,231111,,,A*7F
$GPRMC,205917.000,A,3748.7298,N,12217.6085,W,2.74,202.20,231111,,,A*76
$GPRMC,205918.000,A,3748.7284,N,12217.6092,W,3.53,213.13,231111,,,A*76
$GPRMC,205919.000,A,3748.7271,N,12217.6102,W,3.22,204.43,231111,,,A*70
$GPRMC,205920.000,A,3748.7262,N,12217.6109,W,2.69,197.33,231111,,,A*73
$GPRMC,205921.000,A,3748.7253,N,12217.6115,W,2.77,198.56,231111,,,A*7E
$GPRMC,205922.000,A,3748.7245,N,12217.6124,W,2.57,188.80,231111,,,A*70
$GPRMC,205923.000,A,3748.7231,N,12217.6130,W,2.69,185.70,231111,,,A*78
$GPRMC,205924.000,A,3748.7224,N,12217.6136,W,2.45,182.39,231111,,,A*79
$GPRMC,205925.000,A,3748.7209,N,12217.6146,W,2.95,202.76,231111,,,A*7D
$GPRMC,205926.000,A,3748.7198,N,12217.6156,W,2.55,202.16,231111,,,A*7E
$GPRMC,205927.000,A,3748.7185,N,12217.6165,W,2.52,195.27,231111,,,A*7B
$GPRMC,205928.000,A,3748.7181,N,12217.6169,W,2.27,184.92,231111,,,A*70
$GPRMC,205929.000,A,3748.7176,N,12217.6172,W,2.15,183.13,231111,,,A*7C
$GPRMC,205930.000,A,3748.7171,N,12217.6173,W,1.77,189.54,231111,,,A*7C
$GPRMC,205931.000,A,3748.7168,N,12217.6178,W,1.86,194.68,231111,,,A*73
$GPRMC,205932.000,A,3748.7164,N,12217.6183,W,1.79,196.71,231111,,,A*72
$GPRMC,205933.000,A,3748.7160,N,12217.6188,W,1.88,190.81,231111,,,A*7B
$GPRMC,205934.000,A,3748.7161,N,12217.6190,W,1.88,190.28,231111,,,A*77
$GPRMC,205935.000,A,3748.7156,N,12217.6194,W,1.86,203.12,231111,,,A*78
$GPRMC,205936.000,A,3748.7152,N,12217.6198,W,2.26,213.34,231111,,,A*7F
$GPRMC,205937.000,A,3748.7148,N,12217.6205,W,1.77,211.42,231111,,,A*76
$GPRMC,205938.000,A,3748.7144,N,12217.6206,W,1.70,187.18,231111,,,A*72
$GPRMC,205939.000,A,3748.7140,N,12217.6208,W,1.54,190.61,231111,,,A*77
$GPRMC,205940.000,A,3748.7134,N,12217.6207,W,1.56,181.06,231111,,,A*76
$GPRMC,205941.000,A,3748.7127,N,12217.6212,W,2.39,201.21,231111,,,A*75
$GPRMC,205942.000,A,3748.7121,N,12217.6218,W,1.95,202.43,231111,,,A*78
$GPRMC,205943.000,A,3748.7115,N,12217.6223,W,1.77,212.47,231111,,,A*7F
$GPRMC,205944.000,A,3748.7110,N,12217.6228,W,1.74,205.73,231111,,,A*74
$GPRMC,205945.000,A,3748.7105,N,12217.6233,W,1.49,199.08,231111,,,A*7F
$GPRMC,205946.000,A,3748.7100,N,12217.6233,W,1.75,199.34,231111,,,A*79
$GPRMC,205947.000,A,3748.7097,N,12217.6236,W,1.63,193.42,231111,,,A*7E
$GPRMC,205948.000,A,3748.7092,N,12217.6240,W,1.91,202.93,231111,,,A*7F
$GPRMC,205949.000,A,3748.7088,N,12217.6245,W,1.96,206.50,231111,,,A*7C
$GPRMC,205950.000,A,3748.7082,N,12217.6251,W,2.03,207.80,231111,,,A*78
$GPRMC,205951.000,A,3748.7077,N,12217.6257,W,2.20,207.80,231111,,,A*74
$GPRMC,205952.000,A,3748.7071,N,12217.6263,W,2.23,206.23,231111,,,A*7D
$GPRMC,205953.000,A,3748.7064,N,12217.6270,W,1.86,208.18,231111,,,A*70
$GPRMC,205954.000,A,3748.7057,N,12217.6277,W,2.14,216.96,231111,,,A*71
$GPRMC,205955.000,A,3748.7051,N,12217.6284,W,2.07,215.41,231111,,,A*71
$GPRMC,205956.000,A,3748.7045,N,12217.6289,W,1.95,212.10,231111,,,A*71
$GPRMC,205957.000,A,3748.7039,N,12217.6294,W,2.16,211.00,231111,,,A*7D
$GPRMC,205958.000,A,3748.7031,N,12217.6297,W,1.98,200.94,231111,,,A*71
$GPRMC,205959.000,A,3748.7024,N,12217.6300,W,2.02,209.85,231111,,,A*72
$GPRMC,210000.000,A,3748.7018,N,12217.6304,W,2.38,219.67,231111,,,A*7C
$GPRMC,210001.000,A,3748.7011,N,12217.6311,W,2.41,217.04,231111,,,A*75
$GPRMC,210002.000,A,3748.7005,N,12217.6317,W,2.16,213.16,231111,,,A*70
$GPRMC,210003.000,A,3748.6997,N,12217.6324,W,2.57,212.81,231111,,,A*78
$GPRMC,210004.000,A,3748.6988,N,12217.6330,W,2.07,212.69,231111,,,A*77
$GPRMC,210005.000,A,3748.6984,N,12217.6339,W,2.01,202.01,231111,,,A*7A
$GPRMC,210006.000,A,3748.6979,N,12217.6345,W,2.01,208.28,231111,,,A*71
$GPRMC,210007.000,A,3748.6973,N,12217.6352,W,2.20,213.79,231111,,,A*71
$GPRMC,210008.000,A,3748.6967,N,12217.6360,W,2.41,211.94,231111,,,A*7C
$GPRMC,210009.000,A,3748.6960,N,12217.6366,W,2.31,209.10,231111,,,A*7E
$GPRMC,210010.000,A,3748.6952,N,12217.6373,W,2.59,210.00,231111,,,A*74
$GPRMC,210011.000,A,3748.6944,N,12217.6380,W,2.41,211.83,231111,,,A*7D
$GPRMC,210012.000,A,3748.6938,N,12217.6387,W,1.90,210.51,231111,,,A*73
$GPRMC,210013.000,A,3748.6929,N,12217.6394,W,1.75,210.54,231111,,,A*7E
$GPRMC,210014.000,A,3748.6923,N,12217.6400,W,2.00,213.13,231111,,,A*78
$GPRMC,210015.000,A,3748.6914,N,12217.6408,W,1.84,212.24,231111,,,A*7F
$GPRMC,210016.000,A,3748.6907,N,12217.6413,W,2.08,223.69,231111,,,A*78
$GPRMC,210017.000,A,3748.6903,N,12217.6417,W,1.42,222.82,231111,,,A*70
$GPRMC,210018.000,A,3748.6901,N,12217.6417,W,0.42,230.83,231111,,,A*7E
$GPRMC,210019.000,A,3748.6902,N,12217.6420,W,0.31,313.77,231111,,,A*77
$GPRMC,210020.000,A,3748.6904,N,12217.6423,W,0.34,325.41,231111,,,A*7D
$GPRMC,210021.000,A,3748.6907,N,12217.6426,W,0.30,346.36,231111,,,A*7B
$GPRMC,210022.000,A,3748.6909,N,12217.6429,W,0.24,334.40,231111,,,A*78
$GPRMC,210023.000,A,3748.6911,N,12217.6433,W,0.33,356.71,231111,,,A*7B
$GPRMC,210024.000,A,3748.6912,N,12217.6436,W,0.42,352.54,231111,,,A*7F
$GPRMC,210025.000,A,3748.6914,N,12217.6438,W,0.50,323.50,231111,,,A*77
$GPRMC,210026.000,A,3748.6915,N,12217.6441,W,0.42,295.04,231111,,,A*75
$GPRMC,210027.000,A,3748.6915,N,12217.6438,W,0.82,208.59,231111,,,A*7A
$GPRMC,210028.000,A,3748.6909,N,12217.6440,W,1.49,210.37,231111,,,A*70
$GPRMC,210029.000,A,3748.6902,N,12217.6442,W,2.53,199.46,231111,,,A*74
$GPRMC,210030.000,A,3748.6894,N,12217.6448,W,2.79,208.35,231111,,,A*7F
$GPRMC,210031.000,A,3748.6886,N,12217.6453,W,2.67,199.63,231111,,,A*70
$GPRMC,210032.000,A,3748.6877,N,12217.6454,W,2.67,202.07,231111,,,A*79
$GPRMC,210033.000,A,3748.6870,N,12217.6459,W,2.78,201.95,231111,,,A*74
$GPRMC,210034.000,A,3748.6863,N,12217.6466,W,2.51,204.42,231111,,,A*79
$GPRMC,210035.000,A,3748.6856,N,12217.6472,W,2.60,205.83,231111,,,A*75
$GPRMC,210036.000,A,3748.6849,N,12217.6476,W,2.26,199.37,231111,,,A*77
$GPRMC,210037.000,A,3748.6844,N,12217.6477,W,1.80,194.64,231111,,,A*7E
$GPRMC,210038.000,A,3748.6840,N,12217.6481,W,1.92,208.49,231111,,,A*76
$GPRMC,210039.000,A,3748.6834,N,12217.6490,W,1.74,208.59,231111,,,A*7D
$GPRMC,210040.000,A,3748.6827,N,12217.6497,W,2.39,208.60,231111,,,A*76
$GPRMC,210041.000,A,3748.6815,N,12217.6503,W,2.12,202.62,231111,,,A*7B
$GPRMC,210042.000,A,3748.6807,N,12217.6510,W,2.02,206.30,231111,,,A*7B
$GPRMC,210043.000,A,3748.6801,N,12217.6517,W,1.86,214.69,231111,,,A*7B
$GPRMC,210044.000,A,3748.6788,N,12217.6522,W,2.06,209.44,231111,,,A*7C
$GPRMC,210045.000,A,3748.6783,N,12217.6529,W,2.12,220.49,231111,,,A*7E
$GPRMC,210046.000,A,3748.6779,N,12217.6537,W,2.29,231.40,231111,,,A*76
$GPRMC,210047.000,A,3748.6765,N,12217.6535,W,2.30,227.09,231111,,,A*7A
$GPRMC,210048.000,A,3748.6757,N,12217.6541,W,2.46,201.75,231111,,,A*79
$GPRMC,210049.000,A,3748.6748,N,12217.6545,W,2.44,208.74,231111,,,A*78
$GPRMC,210050.000,A,3748.6739,N,12217.6549,W,2.31,194.34,231111,,,A*7A
$GPRMC,210051.000,A,3748.6732,N,12217.6551,W,1.69,203.41,231111,,,A*78
$GPRMC,210052.000,A,3748.6729,N,12217.6554,W,1.74,209.92,231111,,,A*7C
$GPRMC,210053.000,A,3748.6722,N,12217.6559,W,2.34,212.71,231111,,,A*7B
$GPRMC,210054.000,A,3748.6717,N,12217.6565,W,2.09,219.05,231111,,,A*73
$GPRMC,210055.000,A,3748.6712,N,12217.6572,W,2.11,211.16,231111,,,A*72
$GPRMC,210056.000,A,3748.6699,N,12217.6578,W,2.56,213.39,231111,,,A*75
$GPRMC,210057.000,A,3748.6688,N,12217.6581,W,2.44,210.46,231111,,,A*7A
$GPRMC,210058.000,A,3748.6680,N,12217.6587,W,2.46,213.52,231111,,,A*7F
$GPRMC,210059.000,A,3748.6676,N,12217.6593,W,2.18,216.52,231111,,,A*7C
$GPRMC,210100.000,A,3748.6671,N,12217.6600,W,2.19,217.94,231111,,,A*75
$GPRMC,210101.000,A,3748.6666,N,12217.6607,W,2.14,229.81,231111,,,A*71
$GPRMC,210102.000,A,3748.6659,N,12217.6611,W,2.01,212.42,231111,,,A*7A
$GPRMC,210103.000,A,3748.6653,N,12217.6615,W,2.01,210.08,231111,,,A*79
$GPRMC,210104.000,A,3748.6648,N,12217.6620,W,1.71,210.78,231111,,,A*71
$GPRMC,210105.000,A,3748.6642,N,12217.6623,W,1.72,205.86,231111,,,A*7F
$GPRMC,210106.000,A,3748.6636,N,12217.6626,W,1.84,204.05,231111,,,A*79
$GPRMC,210107.000,A,3748.6627,N,12217.6627,W,1.74,211.13,231111,,,A*75
$GPRMC,210108.000,A,3748.6622,N,12217.6631,W,1.60,220.25,231111,,,A*7A
$GPRMC,210109.000,A,3748.6619,N,12217.6638,W,1.84,220.14,231111,,,A*72
$GPRMC,210110.000,A,3748.6614,N,12217.6643,W,2.35,220.84,231111,,,A*7B
$GPRMC,210111.000,A,3748.6608,N,12217.6648,W,1.69,198.32,231111,,,A*7B
$GPRMC,210112.000,A,3748.6602,N,12217.6653,W,1.51,201.31,231111,,,A*73
$GPRMC,210113.000,A,3748.6592,N,12217.6657,W,1.79,196.00,231111,,,A*79
$GPRMC,210114.000,A,3748.6584,N,12217.6664,W,1.59,195.96,231111,,,A*77
$GPRMC,210115.000,A,3748.6575,N,12217.6671,W,1.85,201.95,231111,,,A*70
$GPRMC,210116.000,A,3748.6568,N,12217.6677,W,1.82,208.82,231111,,,A*71
$GPRMC,210117.000,A,3748.6562,N,12217.6681,W,2.17,209.24,231111,,,A*71
$GPRMC,210118.000,A,3748.6556,N,12217.6688,W,1.89,213.04,231111,,,A*7D
$GPRMC,210119.000,A,3748.6551,N,12217.6693,W,2.11,216.79,231111,,,A*7C
$GPRMC,210120.000,A,3748.6545,N,12217.6699,W,2.31,215.05,231111,,,A*73
$GPRMC,210121.000,A,3748.6538,N,12217.6705,W,2.46,219.20,231111,,,A*77
$GPRMC,210122.000,A,3748.6532,N,12217.6712,W,2.24,211.58,231111,,,A*7B
$GPRMC,210123.000,A,3748.6525,N,12217.6716,W,2.34,202.31,231111,,,A*74
$GPRMC,210124.000,A,3748.6518,N,12217.6721,W,2.40,217.14,231111,,,A*79
$GPRMC,210125.000,A,3748.6513,N,12217.6727,W,2.09,215.60,231111,,,A*79
$GPRMC,210126.000,A,3748.6502,N,12217.6735,W,2.18,221.07,231111,,,A*7F
$GPRMC,210127.000,A,3748.6496,N,12217.6742,W,2.13,225.59,231111,,,A*76
$GPRMC,210128.000,A,3748.6482,N,12217.6751,W,2.65,210.64,231111,,,A*77
$GPRMC,210129.000,A,3748.6476,N,12217.6757,W,2.41,210.20,231111,,,A*7D
$GPRMC,210130.000,A,3748.6467,N,12217.6763,W,2.34,206.48,231111,,,A*79
$GPRMC,210131.000,A,3748.6462,N,12217.6767,W,1.94,192.89,231111,,,A*73
$GPRMC,210132.000,A,3748.6457,N,12217.6768,W,1.85,178.92,231111,,,A*77
$GPRMC,210133.000,A,3748.6453,N,12217.6770,W,1.79,189.57,231111,,,A*7F
$GPRMC,210134.000,A,3748.6447,N,12217.6774,W,2.30,205.75,231111,,,A*70
$GPRMC,210135.000,A,3748.6442,N,12217.6776,W,2.43,185.39,231111,,,A*71
$GPRMC,210136.000,A,3748.6435,N,12217.6783,W,2.10,190.09,231111,,,A*79
$GPRMC,210137.000,A,3748.6429,N,12217.6784,W,2.02,173.35,231111,,,A*73
$GPRMC,210138.000,A,3748.6421,N,12217.6785,W,1.54,170.78,231111,,,A*7F
$GPRMC,210139.000,A,3748.6409,N,12217.6790,W,2.14,226.25,231111,,,A*7F
$GPRMC,210140.000,A,3748.6398,N,12217.6795,W,2.27,203.78,231111,,,A*74
$GPRMC,210141.000,A,3748.6394,N,12217.6802,W,1.68,241.91,231111,,,A*71
$GPRMC,210142.000,A,3748.6388,N,12217.6811,W,2.24,246.26,231111,,,A*7D
$GPRMC,210143.000,A,3748.6385,N,12217.6820,W,1.98,222.32,231111,,,A*70
$GPRMC,210144.000,A,3748.6381,N,12217.6828,W,2.30,228.01,231111,,,A*70
$GPRMC,210145.000,A,3748.6376,N,12217.6836,W,1.93,232.61,231111,,,A*71
$GPRMC,210146.000,A,3748.6372,N,12217.6843,W,1.59,223.26,231111,,,A*71
$GPRMC,210147.000,A,3748.6361,N,12217.6847,W,1.91,234.22,231111,,,A*70
$GPRMC,210148.000,A,3748.6353,N,12217.6851,W,1.54,214.40,231111,,,A*76
$GPRMC,210149.000,A,3748.6340,N,12217.6845,W,2.09,202.36,231111,,,A*7D
$GPRMC,210150.000,A,3748.6326,N,12217.6849,W,1.88,211.88,231111,,,A*74
$GPRMC,210151.000,A,3748.6322,N,12217.6856,W,1.89,218.41,231111,,,A*72
$GPRMC,210152.000,A,3748.6320,N,12217.6865,W,1.81,206.88,231111,,,A*71
$GPRMC,210153.000,A,3748.6316,N,12217.6870,W,1.90,208.07,231111,,,A*78
$GPRMC,210154.000,A,3748.6313,N,12217.6877,W,1.97,204.91,231111,,,A*79
$GPRMC,210155.000,A,3748.6308,N,12217.6884,W,2.41,214.10,231111,,,A*7E
$GPRMC,210156.000,A,3748.6302,N,12217.6891,W,2.11,206.16,231111,,,A*73
$GPRMC,210157.000,A,3748.6297,N,12217.6897,W,1.92,206.81,231111,,,A*7F
$GPRMC,210158.000,A,3748.6292,N,12217.6903,W,1.80,206.13,231111,,,A*71
$GPRMC,210159.000,A,3748.6287,N,12217.6910,W,1.87,203.43,231111,,,A*71
$GPRMC,210200.000,A,3748.6282,N,12217.6917,W,2.08,204.28,231111,,,A*72
$GPRMC,210201.000,A,3748.6275,N,12217.6921,W,1.82,202.40,231111,,,A*77
$GPRMC,210202.000,A,3748.6268,N,12217.6922,W,2.10,196.76,231111,,,A*78
$GPRMC,210203.000,A,3748.6256,N,12217.6918,W,2.43,194.61,231111,,,A*7F
$GPRMC,210204.000,A,3748.6245,N,12217.6915,W,2.11,213.98,231111,,,A*7A
$GPRMC,210205.000,A,3748.6242,N,12217.6924,W,2.31,204.26,231111,,,A*7F
$GPRMC,210206.000,A,3748.6234,N,12217.6925,W,1.61,191.45,231111,,,A*70
$GPRMC,210207.000,A,3748.6228,N,12217.6927,W,1.72,191.39,231111,,,A*77
$GPRMC,210208.000,A,3748.6225,N,12217.6933,W,1.69,205.67,231111,,,A*7F
$GPRMC,210209.000,A,3748.6213,N,12217.6934,W,2.46,213.75,231111,,,A*76
$GPRMC,210210.000,A,3748.6204,N,12217.6940,W,2.42,199.75,231111,,,A*7E
$GPRMC,210211.000,A,3748.6195,N,12217.6946,W,2.53,201.01,231111,,,A*73
$GPRMC,210212.000,A,3748.6191,N,12217.6951,W,2.07,209.50,231111,,,A*7F
$GPRMC,210213.000,A,3748.6186,N,12217.6958,W,2.37,206.31,231111,,,A*7A
$GPRMC,210214.000,A,3748.6179,N,12217.6964,W,2.48,206.84,231111,,,A*74
$GPRMC,210215.000,A,3748.6173,N,12217.6972,W,1.97,212.43,231111,,,A*77
$GPRMC,210216.000,A,3748.6167,N,12217.6978,W,2.14,207.87,231111,,,A*7F
$GPRMC,210217.000,A,3748.6149,N,12217.6989,W,2.65,216.76,231111,,,A*74
$GPRMC,210218.000,A,3748.6134,N,12217.6998,W,2.73,212.60,231111,,,A*75
$GPRMC,210219.000,A,3748.6125,N,12217.7009,W,2.49,208.83,231111,,,A*7B
$GPRMC,210220.000,A,3748.6111,N,12217.7014,W,2.72,203.19,231111,,,A*7A
$GPRMC,210221.000,A,3748.6106,N,12217.7022,W,2.25,210.99,231111,,,A*70
$GPRMC,210222.000,A,3748.6101,N,12217.7030,W,2.29,219.65,231111,,,A*71
$GPRMC,210223.000,A,3748.6087,N,12217.7035,W,2.85,210.72,231111,,,A*73
$GPRMC,210224.000,A,3748.6081,N,12217.7039,W,2.53,171.31,231111,,,A*76
$GPRMC,210225.000,A,3748.6075,N,12217.7035,W,3.04,134.85,231111,,,A*7D
$GPRMC,210226.000,A,3748.6071,N,12217.7028,W,2.97,122.07,231111,,,A*70
$GPRMC,210227.000,A,3748.6065,N,12217.7017,W,2.90,121.16,231111,,,A*7C
$GPRMC,210228.000,A,3748.6059,N,12217.7006,W,3.22,118.96,231111,,,A*76
$GPRMC,210229.000,A,3748.6054,N,12217.6995,W,3.20,117.58,231111,,,A*77
$GPRMC,210230.000,A,3748.6045,N,12217.6980,W,3.06,113.75,231111,,,A*74
$GPRMC,210231.000,A,3748.6039,N,12217.6968,W,3.01,112.05,231111,,,A*79
$GPRMC,210232.000,A,3748.6031,N,12217.6954,W,3.55,115.64,231111,,,A*7C
$GPRMC,210233.000,A,3748.6031,N,12217.6947,W,3.12,108.86,231111,,,A*7C
$GPRMC,210234.000,A,3748.6027,N,12217.6937,W,2.70,104.43,231111,,,A*7B
$GPRMC,210235.000,A,3748.6027,N,12217.6929,W,2.67,106.77,231111,,,A*76
$GPRMC,210236.000,A,3748.6024,N,12217.6920,W,2.85,103.50,231111,,,A*73
$GPRMC,210237.000,A,3748.6024,N,12217.6911,W,2.64,100.45,231111,,,A*78
$GPRMC,210238.000,A,3748.6022,N,12217.6902,W,2.53,99.90,231111,,,A*4E
$GPRMC,210239.000,A,3748.6020,N,12217.6892,W,2.95,103.73,231111,,,A*70
$GPRMC,210240.000,A,3748.6019,N,12217.6883,W,2.65,100.02,231111,,,A*7E
$GPRMC,210241.000,A,3748.6017,N,12217.6874,W,2.66,102.74,231111,,,A*79
$GPRMC,210242.000,A,3748.6016,N,12217.6865,W,2.50,100.92,231111,,,A*74
$GPRMC,210243.000,A,3748.6012,N,12217.6855,W,2.54,100.67,231111,,,A*7C
$GPRMC,210244.000,A,3748.6007,N,12217.6842,W,2.60,99.22,231111,,,A*4E
$GPRMC,210245.000,A,3748.6003,N,12217.6828,W,2.78,98.98,231111,,,A*4E
$GPRMC,210246.000,A,3748.5998,N,12217.6815,W,3.00,102.35,231111,,,A*70
$GPRMC,210247.000,A,3748.5996,N,12217.6805,W,2.84,104.91,231111,,,D*7E
$GPRMC,210248.000,A,3748.5992,N,12217.6794,W,2.86,110.85,231111,,,D*70
$GPRMC,210249.000,A,3748.5991,N,12217.6787,W,2.70,102.86,231111,,,D*79
$GPRMC,210250.000,A,3748.5987,N,12217.6776,W,2.66,100.43,231111,,,D*74
$GPRMC,210251.000,A,3748.5987,N,12217.6766,W,2.50,97.72,231111,,,D*4C
$GPRMC,210252.000,A,3748.5986,N,12217.6755,W,2.63,97.75,231111,,,D*49
$GPRMC,210253.000,A,3748.5985,N,12217.6746,W,2.31,96.05,231111,,,D*48
$GPRMC,210254.000,A,3748.5985,N,12217.6738,W,2.32,96.78,231111,,,D*4F
$GPRMC,210255.000,A,3748.5981,N,12217.6730,W,2.18,102.18,231111,,,D*70
$GPRMC,210256.000,A,3748.5983,N,12217.6724,W,2.10,101.83,231111,,,D*7D
$GPRMC,210257.000,A,3748.5983,N,12217.6715,W,2.62,99.30,231111,,,D*43
$GPRMC,210258.000,A,3748.5976,N,12217.6703,W,2.54,107.61,231111,,,D*76
$GPRMC,210259.000,A,3748.5973,N,12217.6693,W,2.86,112.68,231111,,,D*78
$GPRMC,210300.000,A,3748.5970,N,12217.6684,W,2.85,116.58,231111,,,D*74
$GPRMC,210301.000,A,3748.5968,N,12217.6676,W,2.62,109.64,231111,,,D*79
$GPRMC,210302.000,A,3748.5965,N,12217.6667,W,2.77,107.20,231111,,,D*7D
$GPRMC,210303.000,A,3748.5969,N,12217.6661,W,2.52,94.18,231111,,,D*41
$GPRMC,210304.000,A,3748.5971,N,12217.6655,W,2.29,95.42,231111,,,D*4A
$GPRMC,210305.000,A,3748.5970,N,12217.6648,W,2.25,97.28,231111,,,D*44
$GPRMC,210306.000,A,3748.5973,N,12217.6642,W,2.33,100.23,231111,,,D*7D
$GPRMC,210307.000,A,3748.5972,N,12217.6635,W,2.30,92.99,231111,,,D*45
$GPRMC,210308.000,A,3748.5971,N,12217.6627,W,2.21,100.01,231111,,,D*71
$GPRMC,210309.000,A,3748.5969,N,12217.6618,W,2.37,100.66,231111,,,D*73
$GPRMC,210310.000,A,3748.5967,N,12217.6609,W,2.54,98.53,231111,,,D*46
