$ADVER,3080,2.3
$GPRMC,201037.476,A,3748.8042,N,12217.8633,W,0.35,219.20,250711,,,A*7F
$GPRMC,201038.476,A,3748.8037,N,12217.8607,W,0.33,338.94,250711,,,A*7E
$GPRMC,201039.476,A,3748.8041,N,12217.8599,W,0.15,76.19,250711,,,A*42
$GPRMC,201040.476,A,3748.8043,N,12217.8588,W,0.04,44.73,250711,,,A*43
$GPRMC,201041.476,A,3748.8043,N,12217.8585,W,0.07,103.57,250711,,,A*78
$GPRMC,201042.476,A,3748.8043,N,12217.8588,W,0.05,11.06,250711,,,A*42
$GPRMC,201043.476,A,3748.8045,N,12217.8589,W,0.13,31.18,250711,,,A*4E
$GPRMC,201044.476,A,3748.8045,N,12217.8591,W,0.03,50.58,250711,,,A*42
$GPRMC,201045.476,A,3748.8046,N,12217.8590,W,0.35,84.97,250711,,,A*4E
$GPRMC,201046.476,A,3748.8047,N,12217.8589,W,0.17,279.15,250711,,,A*7E
$GPRMC,201047.476,A,3748.8045,N,12217.8588,W,0.38,308.95,250711,,,A*7E
$GPRMC,201048.476,A,3748.8037,N,12217.8614,W,0.55,262.76,250711,,,A*79
$GPRMC,201049.476,A,3748.8036,N,12217.8605,W,0.47,86.55,250711,,,A*43
$GPRMC,201050.476,A,3748.7934,N,12217.8624,W,0.35,245.70,250711,,,A*73
$GPRMC,201051.476,A,3748.7946,N,12217.8639,W,0.50,156.32,250711,,,A*7F
$GPRMC,201052.476,A,3748.7965,N,12217.8637,W,0.33,66.32,250711,,,A*44
$GPRMC,201053.476,A,3748.7948,N,12217.8634,W,0.14,74.03,250711,,,A*4D
$GPRMC,201054.476,A,3748.7940,N,12217.8639,W,0.13,22.18,250711,,,A*41
$GPRMC,201055.476,A,3748.7934,N,12217.8638,W,0.35,150.81,250711,,,A*72
$GPRMC,201056.476,A,3748.7934,N,12217.8630,W,0.17,284.08,250711,,,A*72
$GPRMC,201057.476,A,3748.7932,N,12217.8639,W,0.36,266.07,250711,,,A*7C
$GPRMC,201058.476,A,3748.7935,N,12217.8668,W,0.16,171.14,250711,,,A*75
$GPRMC,201059.476,A,3748.7963,N,12217.8655,W,0.29,122.37,250711,,,A*72
$GPRMC,201100.476,A,3748.7950,N,12217.8647,W,0.07,10.01,250711,,,A*45
$GPRMC,201101.476,A,3748.7974,N,12217.8627,W,1.54,3.60,250711,,,A*76
$GPRMC,201102.476,A,3748.7932,N,12217.8615,W,1.84,12.13,250711,,,A*4F
$GPRMC,201103.476,A,3748.7956,N,12217.8594,W,0.30,142.43,250711,,,A*79
$GPRMC,201104.476,A,3748.7975,N,12217.8480,W,1.05,113.31,250711,,,A*7D
$GPRMC,201105.476,A,3748.7997,N,12217.8453,W,0.33,268.87,250711,,,A*78
$GPRMC,201106.476,A,3748.8022,N,12217.8438,W,0.70,27.82,250711,,,A*45
$GPRMC,201107.476,A,3748.8030,N,12217.8356,W,0.21,240.99,250711,,,A*75
$GPRMC,201108.476,A,3748.8036,N,12217.8397,W,1.03,257.00,250711,,,A*76
$GPRMC,201109.476,A,3748.8030,N,12217.8508,W,0.51,282.12,250711,,,A*7C
$GPRMC,201110.476,A,3748.8021,N,12217.8611,W,0.78,84.80,250711,,,A*4B
$GPRMC,201111.476,A,3748.8012,N,12217.8642,W,0.68,78.00,250711,,,A*46
$GPRMC,201112.476,A,3748.8010,N,12217.8578,W,0.17,284.57,250711,,,A*76
$GPRMC,201113.476,A,3748.8012,N,12217.8494,W,0.59,287.76,250711,,,A*7C
$GPRMC,201114.476,A,3748.8009,N,12217.8578,W,0.39,284.16,250711,,,A*71
$GPRMC,201115.476,A,3748.8005,N,12217.8693,W,0.23,81.37,250711,,,A*45
$GPRMC,201116.476,A,3748.8009,N,12217.8674,W,0.88,79.03,250711,,,A*42
$GPRMC,201117.476,A,3748.8012,N,12217.8648,W,0.59,269.82,250711,,,A*70
$GPRMC,201118.476,A,3748.8013,N,12217.8666,W,1.18,268.82,250711,,,A*77
$GPRMC,201119.476,A,3748.8017,N,12217.8606,W,0.18,104.59,250711,,,A*7A
$GPRMC,201120.476,A,3748.8021,N,12217.8568,W,0.33,74.22,250711,,,A*4D
$GPRMC,201121.476,A,3748.8022,N,12217.8569,W,0.19,235.23,250711,,,A*70
$GPRMC,201122.476,A,3748.8023,N,12217.8543,W,0.40,234.94,250711,,,A*7B
$GPRMC,201123.476,A,3748.8018,N,12217.8520,W,0.88,2.97,250711,,,A*77
$GPRMC,201124.476,A,3748.8114,N,12217.8532,W,0.87,228.40,250711,,,A*71
$GPRMC,201125.476,A,3748.8087,N,12217.8563,W,0.63,217.22,250711,,,A*7D
$GPRMC,201126.476,A,3748.8093,N,12217.8570,W,0.67,87.41,250711,,,A*43
$GPRMC,201127.476,A,3748.8082,N,12217.8601,W,0.24,103.16,250711,,,A*7F
$GPRMC,201128.476,A,3748.8065,N,12217.8588,W,0.48,75.12,250711,,,A*45
$GPRMC,201129.476,A,3748.8062,N,12217.8588,W,0.30,80.08,250711,,,A*4D
$GPRMC,201130.476,A,3748.8067,N,12217.8577,W,0.69,87.22,250711,,,A*43
$GPRMC,201131.476,A,3748.8071,N,12217.8600,W,0.86,86.62,250711,,,A*42
$GPRMC,201132.476,A,3748.8077,N,12217.8524,W,0.66,270.69,250711,,,A*7C
$GPRMC,201133.476,A,3748.8076,N,12217.8522,W,1.29,83.96,250711,,,A*4E
$GPRMC,201143.476,A,3748.8092,N,12217.8466,W,0.59,72.41,250711,,,A*40
$GPRMC,201144.476,A,3748.8096,N,12217.8382,W,0.14,280.31,250711,,,A*7F
$GPRMC,201145.476,A,3748.8101,N,12217.8274,W,0.10,340.84,250711,,,A*7E
$GPRMC,201146.476,A,3748.8102,N,12217.8256,W,1.15,88.41,250711,,,A*44
$GPRMC,201147.476,A,3748.8098,N,12217.8343,W,0.64,80.71,250711,,,A*4E
$GPRMC,201148.476,A,3748.8096,N,12217.8382,W,0.06,80.71,250711,,,A*46
$GPRMC,201149.476,A,3748.8097,N,12217.8349,W,0.84,92.72,250711,,,A*4B
$GPRMC,201150.476,A,3748.8095,N,12217.8398,W,0.12,306.36,250711,,,A*7C
$GPRMC,201151.476,A,3748.8092,N,12217.8476,W,0.26,29.05,250711,,,A*44
$GPRMC,201152.476,A,3748.8001,N,12217.8502,W,0.22,8.65,250711,,,A*7E
$GPRMC,201153.476,A,3748.7989,N,12217.8514,W,0.37,31.81,250711,,,A*4A
$GPRMC,201154.476,A,3748.7989,N,12217.8519,W,0.31,27.90,250711,,,A*41
$GPRMC,201155.000,A,3748.7980,N,12217.8534,W,0.40,53.95,250711,,,A*43
$GPRMC,201156.000,A,3748.7964,N,12217.8566,W,0.78,89.88,250711,,,A*4D
$GPRMC,201157.000,A,3748.7963,N,12217.8561,W,1.70,96.68,250711,,,A*45
$GPRMC,201158.000,A,3748.7954,N,12217.8561,W,2.27,101.63,250711,,,A*7B
$GPRMC,201159.000,A,3748.7945,N,12217.8548,W,3.11,92.23,250711,,,A*4A
$GPRMC,201200.000,A,3748.7939,N,12217.8546,W,2.31,85.21,250711,,,A*47
$GPRMC,201201.000,A,3748.7925,N,12217.8555,W,2.69,82.32,250711,,,A*41
$GPRMC,201202.000,A,3748.7921,N,12217.8552,W,1.94,100.74,250711,,,A*79
$GPRMC,201203.000,A,3748.7897,N,12217.8558,W,1.52,141.80,250711,,,A*7A
$GPRMC,201204.000,A,3748.7893,N,12217.8549,W,1.42,135.86,250711,,,A*7D
$GPRMC,201205.000,A,3748.7892,N,12217.8543,W,1.07,130.53,250711,,,A*7B
$GPRMC,201206.000,A,3748.7890,N,12217.8548,W,1.35,155.41,250711,,,A*70
$GPRMC,201207.000,A,3748.7884,N,12217.8547,W,1.96,158.54,250711,,,A*7B
$GPRMC,201208.000,A,3748.7883,N,12217.8539,W,1.83,121.99,250711,,,A*71
$GPRMC,201209.000,A,3748.7883,N,12217.8521,W,1.68,126.77,250711,,,A*7B
$GPRMC,201210.000,A,3748.7876,N,12217.8509,W,1.77,143.07,250711,,,A*79
$GPRMC,201211.000,A,3748.7871,N,12217.8499,W,2.13,158.37,250711,,,A*7F
$GPRMC,201212.000,A,3748.7858,N,12217.8500,W,1.33,158.40,250711,,,A*77
$GPRMC,201213.000,A,3748.7846,N,12217.8501,W,2.18,190.28,250711,,,A*78
$GPRMC,201214.000,A,3748.7828,N,12217.8506,W,2.23,186.11,250711,,,A*75
$GPRMC,201215.000,A,3748.7811,N,12217.8507,W,2.21,192.56,250711,,,A*7B
$GPRMC,201216.000,A,3748.7802,N,12217.8500,W,2.14,157.33,250711,,,A*71
$GPRMC,201217.000,A,3748.7800,N,12217.8492,W,1.76,131.28,250711,,,A*75
$GPRMC,201218.000,A,3748.7799,N,12217.8488,W,1.26,137.36,250711,,,A*72
$GPRMC,201219.000,A,3748.7784,N,12217.8495,W,1.88,162.73,250711,,,A*76
$GPRMC,201220.000,A,3748.7783,N,12217.8494,W,1.86,177.39,250711,,,A*7E
$GPRMC,201221.000,A,3748.7773,N,12217.8498,W,1.45,190.29,250711,,,A*7B
$GPRMC,201222.000,A,3748.7754,N,12217.8502,W,2.15,180.94,250711,,,A*7E
$GPRMC,201223.000,A,3748.7722,N,12217.8512,W,2.41,183.92,250711,,,A*7B
$GPRMC,201224.000,A,3748.7708,N,12217.8521,W,2.36,170.84,250711,,,A*7F
$GPRMC,201225.000,A,3748.7697,N,12217.8516,W,2.25,167.60,250711,,,A*73
$GPRMC,201226.000,A,3748.7689,N,12217.8504,W,3.13,155.74,250711,,,A*7C
$GPRMC,201227.000,A,3748.7687,N,12217.8496,W,2.40,158.60,250711,,,A*76
$GPRMC,201228.000,A,3748.7685,N,12217.8485,W,1.82,150.93,250711,,,A*70
$GPRMC,201229.000,A,3748.7684,N,12217.8480,W,1.03,150.15,250711,,,A*72
$GPRMC,201230.000,A,3748.7683,N,12217.8473,W,1.10,182.37,250711,,,A*7C
$GPRMC,201231.000,A,3748.7690,N,12217.8464,W,0.78,175.33,250711,,,A*7A
$GPRMC,201232.000,A,3748.7706,N,12217.8457,W,1.12,195.98,250711,,,A*75
$GPRMC,201233.000,A,3748.7716,N,12217.8440,W,1.83,105.19,250711,,,A*7B
$GPRMC,201234.000,A,3748.7725,N,12217.8424,W,2.66,80.50,250711,,,A*47
$GPRMC,201235.000,A,3748.7721,N,12217.8417,W,2.04,91.79,250711,,,A*4D
$GPRMC,201236.000,A,3748.7719,N,12217.8410,W,1.53,101.08,250711,,,A*7D
$GPRMC,201237.000,A,3748.7707,N,12217.8410,W,1.25,138.54,250711,,,A*71
$GPRMC,201238.000,A,3748.7700,N,12217.8401,W,1.00,119.29,250711,,,A*77
$GPRMC,201239.000,A,3748.7692,N,12217.8399,W,1.00,126.02,250711,,,A*7F
$GPRMC,201240.000,A,3748.7674,N,12217.8401,W,1.49,165.82,250711,,,A*7D
$GPRMC,201241.000,A,3748.7662,N,12217.8398,W,1.98,185.89,250711,,,A*75
$GPRMC,201242.000,A,3748.7647,N,12217.8401,W,1.69,194.29,250711,,,A*72
$GPRMC,201243.000,A,3748.7636,N,12217.8397,W,1.82,157.23,250711,,,A*7D
$GPRMC,201244.000,A,3748.7626,N,12217.8392,W,1.88,147.87,250711,,,A*7B
$GPRMC,201245.000,A,3748.7611,N,12217.8389,W,1.51,155.75,250711,,,A*7E
$GPRMC,201246.000,A,3748.7604,N,12217.8378,W,1.36,159.28,250711,,,A*72
$GPRMC,201247.000,A,3748.7599,N,12217.8375,W,0.40,129.75,250711,,,A*76
$GPRMC,201248.000,A,3748.7602,N,12217.8369,W,1.12,82.00,250711,,,A*41
$GPRMC,201249.000,A,3748.7603,N,12217.8363,W,1.62,46.38,250711,,,A*4F
$GPRMC,201250.000,A,3748.7613,N,12217.8343,W,2.23,39.58,250711,,,A*4C
$GPRMC,201251.000,A,3748.7634,N,12217.8324,W,1.93,36.08,250711,,,A*4B
$GPRMC,201252.000,A,3748.7641,N,12217.8309,W,1.74,40.96,250711,,,A*4A
$GPRMC,201253.000,A,3748.7642,N,12217.8303,W,0.58,79.95,250711,,,A*44
$GPRMC,201254.000,A,3748.7635,N,12217.8291,W,1.64,145.06,250711,,,A*73
$GPRMC,201255.000,A,3748.7615,N,12217.8294,W,2.13,172.51,250711,,,A*70
$GPRMC,201256.000,A,3748.7597,N,12217.8298,W,3.08,165.69,250711,,,A*70
$GPRMC,201257.000,A,3748.7580,N,12217.8304,W,2.14,181.76,250711,,,A*7B
$GPRMC,201258.000,A,3748.7667,N,12217.8267,W,0.76,118.09,250711,,,A*74
$GPRMC,201259.000,A,3748.7694,N,12217.8260,W,0.16,141.87,250711,,,A*72
$GPRMC,201300.000,A,3748.7700,N,12217.8261,W,0.65,124.52,250711,,,A*7D
$GPRMC,201301.000,A,3748.7700,N,12217.8254,W,1.31,154.42,250711,,,A*7C
$GPRMC,201302.000,A,3748.7693,N,12217.8244,W,1.78,128.82,250711,,,A*7F
$GPRMC,201303.000,A,3748.7692,N,12217.8236,W,2.40,124.42,250711,,,A*72
$GPRMC,201304.000,A,3748.7691,N,12217.8231,W,2.24,134.92,250711,,,A*7F
$GPRMC,201305.000,A,3748.7688,N,12217.8223,W,1.77,123.84,250711,,,A*71
$GPRMC,201306.000,A,3748.7685,N,12217.8213,W,1.80,130.48,250711,,,A*76
$GPRMC,201307.000,A,3748.7680,N,12217.8202,W,1.78,126.96,250711,,,A*71
$GPRMC,201308.000,A,3748.7677,N,12217.8195,W,1.08,127.80,250711,,,A*7A
$GPRMC,201309.000,A,3748.7671,N,12217.8188,W,1.37,119.00,250711,,,A*78
$GPRMC,201310.000,A,3748.7670,N,12217.8187,W,0.89,130.29,250711,,,A*7A
$GPRMC,201311.000,A,3748.7668,N,12217.8177,W,0.83,115.53,250711,,,A*7D
$GPRMC,201312.000,A,3748.7664,N,12217.8166,W,1.97,121.81,250711,,,A*7E
$GPRMC,201313.000,A,3748.7659,N,12217.8156,W,1.79,113.88,250711,,,A*7A
$GPRMC,201314.000,A,3748.7654,N,12217.8137,W,1.89,115.70,250711,,,D*7C
$GPRMC,201315.000,A,3748.7650,N,12217.8120,W,1.88,117.94,250711,,,D*76
$GPRMC,201316.000,A,3748.7649,N,12217.8107,W,2.08,115.18,250711,,,D*75
$GPRMC,201317.000,A,3748.7646,N,12217.8094,W,1.62,110.79,250711,,,D*7D
$GPRMC,201318.000,A,3748.7641,N,12217.8077,W,1.75,122.06,250711,,,D*77
$GPRMC,201319.000,A,3748.7643,N,12217.8075,W,1.17,118.02,250711,,,D*7F
$GPRMC,201320.000,A,3748.7641,N,12217.8072,W,2.33,121.72,250711,,,D*78
$GPRMC,201321.000,A,3748.7641,N,12217.8068,W,2.12,124.08,250711,,,D*79
$GPRMC,201322.000,A,3748.7641,N,12217.8068,W,1.15,110.38,250711,,,D*7A
$GPRMC,201323.000,A,3748.7646,N,12217.8069,W,0.60,17.80,250711,,,D*4B
$GPRMC,201324.000,A,3748.7645,N,12217.8062,W,1.01,75.31,250711,,,D*4C
$GPRMC,201325.000,A,3748.7645,N,12217.8055,W,1.52,97.43,250711,,,D*46
$GPRMC,201326.000,A,3748.7640,N,12217.8038,W,3.03,117.25,250711,,,D*74
$GPRMC,201327.000,A,3748.7634,N,12217.8021,W,2.71,114.81,250711,,,D*77
$GPRMC,201328.000,A,3748.7631,N,12217.8009,W,2.10,116.07,250711,,,D*7C
$GPRMC,201329.000,A,3748.7631,N,12217.8007,W,1.38,117.75,250711,,,D*7E
$GPRMC,201330.000,A,3748.7628,N,12217.7998,W,1.42,120.84,250711,,,D*79
$GPRMC,201331.000,A,3748.7623,N,12217.7986,W,1.39,119.35,250711,,,D*70
$GPRMC,201332.000,A,3748.7619,N,12217.7980,W,1.83,118.18,250711,,,D*73
$GPRMC,201333.000,A,3748.7611,N,12217.7970,W,2.48,117.37,250711,,,D*73
$GPRMC,201334.000,A,3748.7607,N,12217.7963,W,2.12,110.12,250711,,,D*7E
$GPRMC,201335.000,A,3748.7606,N,12217.7954,W,1.60,101.10,250711,,,D*7E
$GPRMC,201336.000,A,3748.7605,N,12217.7943,W,1.48,104.20,250711,,,D*74
$GPRMC,201337.000,A,3748.7603,N,12217.7932,W,1.39,111.13,250711,,,D*77
$GPRMC,201338.000,A,3748.7603,N,12217.7925,W,1.02,104.57,250711,,,D*72
$GPRMC,201339.000,A,3748.7603,N,12217.7912,W,1.25,88.84,250711,,,D*49
$GPRMC,201340.000,A,3748.7602,N,12217.7905,W,0.66,77.38,250711,,,D*41
$GPRMC,201341.000,A,3748.7599,N,12217.7894,W,1.33,105.04,250711,,,D*72
$GPRMC,201342.000,A,3748.7597,N,12217.7886,W,1.92,98.94,250711,,,D*4B
$GPRMC,201343.000,A,3748.7594,N,12217.7874,W,1.75,102.42,250711,,,D*74
$GPRMC,201344.000,A,3748.7591,N,12217.7864,W,2.23,113.70,250711,,,D*76
$GPRMC,201345.000,A,3748.7589,N,12217.7857,W,2.08,116.05,250711,,,D*70
$GPRMC,201346.000,A,3748.7589,N,12217.7854,W,1.66,114.89,250711,,,D*7D
$GPRMC,201347.000,A,3748.7589,N,12217.7855,W,1.93,119.79,250711,,,D*75
$GPRMC,201348.000,A,3748.7588,N,12217.7859,W,1.66,120.07,250711,,,D*7E
$GPRMC,201349.000,A,3748.7587,N,12217.7856,W,1.56,113.64,250711,,,D*79
$GPRMC,201350.000,A,3748.7580,N,12217.7848,W,2.36,116.02,250711,,,D*79
$GPRMC,201351.000,A,3748.7575,N,12217.7843,W,1.87,121.88,250711,,,D*76
$GPRMC,201352.000,A,3748.7570,N,12217.7838,W,1.54,128.07,250711,,,D*7C
$GPRMC,201353.000,A,3748.7566,N,12217.7832,W,2.23,116.86,250711,,,D*77
$GPRMC,201354.000,A,3748.7561,N,12217.7829,W,2.40,105.38,250711,,,D*7F
$GPRMC,201355.000,A,3748.7554,N,12217.7819,W,2.26,111.98,250711,,,D*74
$GPRMC,201356.000,A,3748.7547,N,12217.7805,W,2.23,121.19,250711,,,D*77
$GPRMC,201357.000,A,3748.7541,N,12217.7803,W,1.51,123.19,250711,,,D*72
$GPRMC,201358.000,A,3748.7534,N,12217.7797,W,2.05,130.26,250711,,,D*71
$GPRMC,201359.000,A,3748.7527,N,12217.7787,W,2.66,125.64,250711,,,D*74
$GPRMC,201400.000,A,3748.7519,N,12217.7775,W,2.47,127.46,250711,,,D*7E
$GPRMC,201401.000,A,3748.7511,N,12217.7767,W,2.36,126.34,250711,,,D*76
$GPRMC,201402.000,A,3748.7508,N,12217.7761,W,2.55,126.57,250711,,,D*7B
$GPRMC,201403.000,A,3748.7504,N,12217.7751,W,2.59,120.46,250711,,,D*7F
$GPRMC,201404.000,A,3748.7498,N,12217.7745,W,2.57,116.88,250711,,,D*70
$GPRMC,201405.000,A,3748.7493,N,12217.7734,W,2.40,118.45,250711,,,D*75
$GPRMC,201406.000,A,3748.7491,N,12217.7729,W,2.04,118.59,250711,,,D*75
$GPRMC,201407.000,A,3748.7488,N,12217.7719,W,2.15,112.17,250711,,,D*7F
$GPRMC,201408.000,A,3748.7487,N,12217.7709,W,2.27,104.65,250711,,,D*7D
$GPRMC,201409.000,A,3748.7483,N,12217.7696,W,2.58,108.99,250711,,,D*78
$GPRMC,201410.000,A,3748.7483,N,12217.7693,W,2.14,109.70,250711,,,D*7B
$GPRMC,201411.000,A,3748.7482,N,12217.7695,W,1.62,120.01,250711,,,D*72
$GPRMC,201412.000,A,3748.7481,N,12217.7693,W,1.78,107.20,250711,,,D*79
$GPRMC,201413.000,A,3748.7481,N,12217.7687,W,1.42,102.74,250711,,,D*70
$GPRMC,201414.000,A,3748.7481,N,12217.7682,W,0.76,112.16,250711,,,D*71
$GPRMC,201415.000,A,3748.7477,N,12217.7678,W,0.73,104.23,250711,,,D*78
$GPRMC,201416.000,A,3748.7475,N,12217.7668,W,1.44,106.37,250711,,,D*7A
$GPRMC,201417.000,A,3748.7471,N,12217.7661,W,1.22,131.84,250711,,,D*7A
$GPRMC,201418.000,A,3748.7468,N,12217.7655,W,1.29,132.64,250711,,,D*7C
$GPRMC,201419.000,A,3748.7468,N,12217.7657,W,0.69,98.37,250711,,,D*4D
$GPRMC,201420.000,A,3748.7464,N,12217.7650,W,1.56,124.78,250711,,,D*7C
$GPRMC,201421.000,A,3748.7461,N,12217.7640,W,2.41,118.13,250711,,,D*7E
$GPRMC,201422.000,A,3748.7459,N,12217.7635,W,1.96,117.39,250711,,,D*7A
$GPRMC,201423.000,A,3748.7456,N,12217.7622,W,1.94,120.29,250711,,,D*75
$GPRMC,201424.000,A,3748.7451,N,12217.7612,W,2.11,124.72,250711,,,D*72
$GPRMC,201425.000,A,3748.7444,N,12217.7599,W,2.26,106.03,250711,,,D*75
$GPRMC,201426.000,A,3748.7441,N,12217.7584,W,2.16,99.69,250711,,,D*47
$GPRMC,201427.000,A,3748.7435,N,12217.7570,W,2.44,103.81,250711,,,D*7D
$GPRMC,201428.000,A,3748.7433,N,12217.7558,W,1.58,100.89,250711,,,D*7B
$GPRMC,201429.000,A,3748.7432,N,12217.7550,W,1.48,115.78,250711,,,D*78
$GPRMC,201430.000,A,3748.7432,N,12217.7538,W,1.56,109.10,250711,,,D*72
$GPRMC,201431.000,A,3748.7431,N,12217.7524,W,1.63,111.70,250711,,,D*74
$GPRMC,201432.000,A,3748.7431,N,12217.7518,W,1.46,101.99,250711,,,D*79
$GPRMC,201433.000,A,3748.7431,N,12217.7508,W,1.78,108.01,250711,,,D*7C
$GPRMC,201434.000,A,3748.7432,N,12217.7499,W,1.41,106.52,250711,,,D*73
$GPRMC,201435.000,A,3748.7429,N,12217.7488,W,1.32,113.53,250711,,,D*79
$GPRMC,201436.000,A,3748.7426,N,12217.7478,W,1.37,116.15,250711,,,D*78
$GPRMC,201437.000,A,3748.7423,N,12217.7469,W,1.26,106.42,250711,,,D*7F
$GPRMC,201438.000,A,3748.7423,N,12217.7467,W,1.63,108.17,250711,,,D*71
$GPRMC,201439.000,A,3748.7422,N,12217.7466,W,1.72,115.97,250711,,,D*74
$GPRMC,201440.000,A,3748.7420,N,12217.7464,W,1.37,120.60,250711,,,D*75
$GPRMC,201441.000,A,3748.7419,N,12217.7464,W,0.87,125.35,250711,,,D*71
$GPRMC,201442.000,A,3748.7417,N,12217.7462,W,0.74,118.16,250711,,,D*79
$GPRMC,201443.000,A,3748.7411,N,12217.7455,W,1.04,114.76,250711,,,D*76
$GPRMC,201444.000,A,3748.7407,N,12217.7447,W,1.65,94.91,250711,,,D*42
$GPRMC,201445.000,A,3748.7404,N,12217.7445,W,1.47,86.22,250711,,,D*49
$GPRMC,201446.000,A,3748.7401,N,12217.7442,W,0.85,100.76,250711,,,D*79
$GPRMC,201447.000,A,3748.7393,N,12217.7433,W,0.90,63.32,250711,,,D*42
$GPRMC,201448.000,A,3748.7387,N,12217.7425,W,0.89,104.71,250711,,,D*70
$GPRMC,201449.000,A,3748.7380,N,12217.7416,W,1.61,120.27,250711,,,D*74
$GPRMC,201450.000,A,3748.7376,N,12217.7412,W,1.93,116.20,250711,,,D*7E
$GPRMC,201451.000,A,3748.7370,N,12217.7405,W,1.60,117.44,250711,,,D*70
$GPRMC,201452.000,A,3748.7363,N,12217.7395,W,1.67,119.56,250711,,,A*70
$GPRMC,201453.000,A,3748.7360,N,12217.7384,W,1.85,119.12,250711,,,A*7E
$GPRMC,201454.000,A,3748.7353,N,12217.7375,W,1.77,116.11,250711,,,A*76
$GPRMC,201455.000,A,3748.7344,N,12217.7359,W,2.01,133.90,250711,,,A*73
$GPRMC,201456.000,A,3748.7335,N,12217.7346,W,2.43,114.44,250711,,,A*72
$GPRMC,201457.000,A,3748.7328,N,12217.7338,W,2.01,119.76,250711,,,A*7C
$GPRMC,201458.000,A,3748.7324,N,12217.7327,W,1.90,116.30,250711,,,A*77
$GPRMC,201459.000,A,3748.7322,N,12217.7323,W,2.03,116.20,250711,,,A*7C
$GPRMC,201500.000,A,3748.7318,N,12217.7316,W,2.40,127.01,250711,,,A*78
$GPRMC,201501.000,A,3748.7315,N,12217.7310,W,1.94,117.36,250711,,,A*7F
$GPRMC,201502.000,A,3748.7313,N,12217.7304,W,2.20,123.78,250711,,,A*7E
$GPRMC,201503.000,A,3748.7310,N,12217.7301,W,1.53,127.90,250711,,,A*7C
$GPRMC,201504.000,A,3748.7304,N,12217.7294,W,1.83,110.41,250711,,,A*76
$GPRMC,201505.000,A,3748.7301,N,12217.7287,W,2.16,113.44,250711,,,A*79
$GPRMC,201506.000,A,3748.7295,N,12217.7271,W,2.43,122.29,250711,,,A*76
$GPRMC,201507.000,A,3748.7290,N,12217.7258,W,2.01,121.98,250711,,,A*76
$GPRMC,201508.000,A,3748.7287,N,12217.7248,W,1.88,119.63,250711,,,A*73
$GPRMC,201509.000,A,3748.7284,N,12217.7243,W,1.41,126.54,250711,,,A*77
$GPRMC,201510.000,A,3748.7280,N,12217.7243,W,1.41,130.33,250711,,,A*7D
$GPRMC,201511.000,A,3748.7277,N,12217.7236,W,1.06,104.33,250711,,,A*72
$GPRMC,201512.000,A,3748.7277,N,12217.7236,W,0.84,99.46,250711,,,A*4D
$GPRMC,201513.000,A,3748.7279,N,12217.7238,W,0.64,73.45,250711,,,A*45
$GPRMC,201514.000,A,3748.7279,N,12217.7237,W,1.07,94.14,250711,,,A*44
$GPRMC,201515.000,A,3748.7276,N,12217.7233,W,1.97,107.37,250711,,,A*7D
$GPRMC,201516.000,A,3748.7268,N,12217.7219,W,2.22,107.44,250711,,,D*75
$GPRMC,201517.000,A,3748.7262,N,12217.7209,W,2.10,116.80,250711,,,D*76
$GPRMC,201518.000,A,3748.7255,N,12217.7198,W,2.49,122.87,250711,,,D*7A
$GPRMC,201519.000,A,3748.7246,N,12217.7182,W,3.06,117.23,250711,,,D*70
$GPRMC,201520.000,A,3748.7237,N,12217.7166,W,3.16,119.60,250711,,,D*7E
$GPRMC,201521.000,A,3748.7229,N,12217.7157,W,2.93,115.84,250711,,,D*78
$GPRMC,201522.000,A,3748.7226,N,12217.7148,W,2.31,107.03,250711,,,D*7E
$GPRMC,201523.000,A,3748.7225,N,12217.7134,W,2.08,94.65,250711,,,D*46
$GPRMC,201524.000,A,3748.7230,N,12217.7134,W,0.60,66.85,250711,,,D*4A
$GPRMC,201525.000,A,3748.7232,N,12217.7127,W,1.39,55.75,250711,,,D*49
$GPRMC,201526.000,A,3748.7240,N,12217.7129,W,2.18,42.42,250711,,,D*43
$GPRMC,201527.000,A,3748.7246,N,12217.7119,W,2.79,41.14,250711,,,D*40
$GPRMC,201528.000,A,3748.7254,N,12217.7113,W,2.52,30.69,250711,,,D*43
$GPRMC,201529.000,A,3748.7263,N,12217.7107,W,2.53,22.61,250711,,,D*49
$GPRMC,201530.000,A,3748.7271,N,12217.7101,W,2.41,37.50,250711,,,D*41
$GPRMC,201531.000,A,3748.7278,N,12217.7096,W,2.67,47.04,250711,,,D*44
$GPRMC,201532.000,A,3748.7284,N,12217.7089,W,2.11,52.81,250711,,,D*42
$GPRMC,201533.000,A,3748.7291,N,12217.7083,W,2.34,47.47,250711,,,D*44
$GPRMC,201534.000,A,3748.7297,N,12217.7077,W,2.90,41.70,250711,,,D*42
$GPRMC,201535.000,A,3748.7302,N,12217.7068,W,2.58,44.60,250711,,,D*40
$GPRMC,201536.000,A,3748.7309,N,12217.7058,W,3.01,42.19,250711,,,D*4E
$GPRMC,201537.000,A,3748.7316,N,12217.7049,W,2.93,39.82,250711,,,D*45
$GPRMC,201538.000,A,3748.7323,N,12217.7042,W,2.70,32.92,250711,,,D*40
$GPRMC,201539.000,A,3748.7329,N,12217.7031,W,2.31,28.39,250711,,,D*40
$GPRMC,201540.000,A,3748.7333,N,12217.7026,W,1.19,18.02,250711,,,D*41
$GPRMC,201541.000,A,3748.7334,N,12217.7024,W,0.19,186.66,250711,,,D*70
$GPRMC,201542.000,A,3748.7334,N,12217.7029,W,0.23,107.66,250711,,,D*7E
$GPRMC,201543.000,A,3748.7338,N,12217.7033,W,1.20,43.61,250711,,,D*4C
$GPRMC,201544.000,A,3748.7339,N,12217.7037,W,0.69,80.76,250711,,,D*4B
$GPRMC,201545.000,A,3748.7339,N,12217.7046,W,0.39,182.31,250711,,,D*79
$GPRMC,201546.000,A,3748.7340,N,12217.7052,W,0.27,348.51,250711,,,D*7C
$GPRMC,201547.000,A,3748.7343,N,12217.7059,W,0.90,309.28,250711,,,D*72
$GPRMC,201548.000,A,3748.7345,N,12217.7067,W,1.14,300.44,250711,,,D*78
$GPRMC,201549.000,A,3748.7345,N,12217.7070,W,0.42,309.59,250711,,,D*78
$GPRMC,201550.000,A,3748.7345,N,12217.7071,W,0.34,116.09,250711,,,D*79
$GPRMC,201551.000,A,3748.7344,N,12217.7070,W,0.62,104.42,250711,,,D*77
$GPRMC,201552.000,A,3748.7346,N,12217.7075,W,0.72,307.05,250711,,,D*70
$GPRMC,201553.000,A,3748.7350,N,12217.7086,W,1.24,294.47,250711,,,D*75
$GPRMC,201554.000,A,3748.7352,N,12217.7092,W,0.61,294.39,250711,,,D*7C
$GPRMC,201555.000,A,3748.7353,N,12217.7095,W,0.08,97.97,250711,,,D*41
$GPRMC,201556.000,A,3748.7351,N,12217.7092,W,0.29,159.22,250711,,,D*79
$GPRMC,201557.000,A,3748.7353,N,12217.7098,W,0.08,282.87,250711,,,D*79
$GPRMC,201558.000,A,3748.7353,N,12217.7100,W,0.29,352.77,250711,,,D*76
$GPRMC,201559.000,A,3748.7353,N,12217.7096,W,0.67,75.55,250711,,,A*40
$GPRMC,201600.000,A,3748.7353,N,12217.7089,W,0.74,16.32,250711,,,A*47
$GPRMC,201601.000,A,3748.7357,N,12217.7083,W,2.10,16.65,250711,,,A*4A
$GPRMC,201602.000,A,3748.7362,N,12217.7075,W,1.81,23.63,250711,,,A*4D
$GPRMC,201603.000,A,3748.7371,N,12217.7076,W,2.26,23.37,250711,,,A*42
$GPRMC,201604.000,A,3748.7376,N,12217.7072,W,2.26,23.01,250711,,,A*43
$GPRMC,201605.000,A,3748.7383,N,12217.7067,W,2.61,30.23,250711,,,A*4D
$GPRMC,201606.000,A,3748.7390,N,12217.7061,W,2.53,29.18,250711,,,A*4B
$GPRMC,201607.000,A,3748.7396,N,12217.7057,W,2.07,27.31,250711,,,A*4D
$GPRMC,201608.000,A,3748.7401,N,12217.7052,W,2.13,25.28,250711,,,A*41
$GPRMC,201609.000,A,3748.7406,N,12217.7047,W,2.21,23.49,250711,,,A*43
$GPRMC,201610.000,A,3748.7410,N,12217.7040,W,2.26,44.45,250711,,,A*41
$GPRMC,201611.000,A,3748.7414,N,12217.7035,W,2.19,38.56,250711,,,A*43
$GPRMC,201612.000,A,3748.7420,N,12217.7026,W,2.24,26.50,250711,,,A*42
$GPRMC,201613.000,A,3748.7425,N,12217.7014,W,2.25,24.86,250711,,,A*4F
$GPRMC,201614.000,A,3748.7429,N,12217.7007,W,1.51,12.86,250711,,,A*43
$GPRMC,201615.000,A,3748.7431,N,12217.7002,W,1.12,28.13,250711,,,A*4C
$GPRMC,201616.000,A,3748.7435,N,12217.6993,W,1.74,47.61,250711,,,A*47
$GPRMC,201617.000,A,3748.7438,N,12217.6985,W,1.79,38.52,250711,,,A*49
$GPRMC,201618.000,A,3748.7442,N,12217.6972,W,2.04,35.22,250711,,,A*40
$GPRMC,201619.000,A,3748.7446,N,12217.6964,W,2.42,20.18,250711,,,A*4D
$GPRMC,201620.000,A,3748.7451,N,12217.6954,W,2.56,34.74,250711,,,A*48
$GPRMC,201621.000,A,3748.7454,N,12217.6940,W,1.82,43.15,250711,,,A*44
$GPRMC,201622.000,A,3748.7460,N,12217.6937,W,1.54,28.59,250711,,,A*4E
$GPRMC,201623.000,A,3748.7466,N,12217.6934,W,1.47,24.96,250711,,,A*47
$GPRMC,201624.000,A,3748.7469,N,12217.6924,W,1.76,28.99,250711,,,A*4F
$GPRMC,201625.000,A,3748.7473,N,12217.6918,W,2.07,37.83,250711,,,A*4A
$GPRMC,201626.000,A,3748.7479,N,12217.6911,W,2.21,30.19,250711,,,A*4A
$GPRMC,201627.000,A,3748.7484,N,12217.6909,W,2.35,30.77,250711,,,A*4D
$GPRMC,201628.000,A,3748.7489,N,12217.6902,W,2.21,31.64,250711,,,A*42
$GPRMC,201629.000,A,3748.7494,N,12217.6894,W,2.04,29.87,250711,,,A*42
$GPRMC,201630.000,A,3748.7503,N,12217.6892,W,2.47,35.98,250711,,,A*47
$GPRMC,201631.000,A,3748.7512,N,12217.6890,W,2.61,37.12,250711,,,A*40
$GPRMC,201632.000,A,3748.7519,N,12217.6885,W,2.39,45.99,250711,,,A*47
$GPRMC,201633.000,A,3748.7527,N,12217.6884,W,2.41,26.68,250711,,,A*4E
$GPRMC,201634.000,A,3748.7535,N,12217.6882,W,2.35,31.47,250711,,,A*44
$GPRMC,201635.000,A,3748.7542,N,12217.6881,W,2.32,18.16,250711,,,A*4E
$GPRMC,201636.000,A,3748.7550,N,12217.6873,W,2.11,35.79,250711,,,A*44
$GPRMC,201637.000,A,3748.7558,N,12217.6866,W,2.35,42.64,250711,,,A*43
$GPRMC,201638.000,A,3748.7565,N,12217.6856,W,2.12,39.41,250711,,,A*4F
$GPRMC,201639.000,A,3748.7571,N,12217.6845,W,2.27,48.57,250711,,,A*4E
$GPRMC,201640.000,A,3748.7579,N,12217.6840,W,2.41,51.92,250711,,,A*4C
$GPRMC,201641.000,A,3748.7588,N,12217.6838,W,1.88,30.00,250711,,,A*46
$GPRMC,201642.000,A,3748.7596,N,12217.6841,W,2.19,35.79,250711,,,A*44
$GPRMC,201643.000,A,3748.7605,N,12217.6837,W,2.57,47.63,250711,,,A*49
$GPRMC,201644.000,A,3748.7612,N,12217.6834,W,2.40,44.00,250711,,,A*4B
$GPRMC,201645.000,A,3748.7618,N,12217.6835,W,1.51,51.27,250711,,,A*43
$GPRMC,201646.000,A,3748.7624,N,12217.6839,W,0.96,7.92,250711,,,A*74
$GPRMC,201647.000,A,3748.7633,N,12217.6843,W,1.38,6.28,250711,,,A*7B
$GPRMC,201648.000,A,3748.7640,N,12217.6845,W,1.15,355.48,250711,,,A*7A
$GPRMC,201649.000,A,3748.7645,N,12217.6836,W,1.45,9.50,250711,,,A*7C
$GPRMC,201650.000,A,3748.7651,N,12217.6829,W,2.06,32.21,250711,,,A*45
$GPRMC,201651.000,A,3748.7657,N,12217.6826,W,2.39,20.62,250711,,,A*45
$GPRMC,201652.000,A,3748.7662,N,12217.6819,W,2.30,30.40,250711,,,D*41
$GPRMC,201653.000,A,3748.7668,N,12217.6812,W,2.45,29.69,250711,,,D*40
$GPRMC,201654.000,A,3748.7673,N,12217.6802,W,2.83,39.80,250711,,,D*40
$GPRMC,201655.000,A,3748.7679,N,12217.6790,W,2.11,33.90,250711,,,D*4F
$GPRMC,201656.000,A,3748.7684,N,12217.6789,W,1.73,37.27,250711,,,D*49
$GPRMC,201657.000,A,3748.7690,N,12217.6785,W,2.44,36.23,250711,,,D*43
$GPRMC,201658.000,A,3748.7696,N,12217.6784,W,2.32,37.90,250711,,,D*43
$GPRMC,201659.000,A,3748.7703,N,12217.6784,W,2.61,26.41,250711,,,D*45
$GPRMC,201700.000,A,3748.7711,N,12217.6781,W,2.70,20.05,250711,,,D*48
$GPRMC,201701.000,A,3748.7719,N,12217.6776,W,2.68,18.93,250711,,,D*44
$GPRMC,201702.000,A,3748.7724,N,12217.6765,W,2.51,27.34,250711,,,D*40
$GPRMC,201703.000,A,3748.7733,N,12217.6760,W,2.74,28.74,250711,,,D*4E
$GPRMC,201704.000,A,3748.7738,N,12217.6750,W,2.33,23.11,250711,,,D*4A
$GPRMC,201705.000,A,3748.7745,N,12217.6747,W,1.94,16.78,250711,,,D*40
$GPRMC,201706.000,A,3748.7750,N,12217.6742,W,2.44,25.47,250711,,,D*40
$GPRMC,201707.000,A,3748.7755,N,12217.6732,W,2.27,35.81,250711,,,D*4D
$GPRMC,201708.000,A,3748.7757,N,12217.6720,W,2.10,38.01,250711,,,D*42
$GPRMC,201709.000,A,3748.7763,N,12217.6715,W,2.57,40.42,250711,,,D*49
$GPRMC,201710.000,A,3748.7767,N,12217.6708,W,2.56,41.63,250711,,,D*4A
$GPRMC,201711.000,A,3748.7771,N,12217.6696,W,2.40,37.52,250711,,,D*4E
$GPRMC,201712.000,A,3748.7776,N,12217.6686,W,2.17,27.41,250711,,,D*4A
$GPRMC,201713.000,A,3748.7778,N,12217.6674,W,1.67,28.31,250711,,,D*44
$GPRMC,201714.000,A,3748.7782,N,12217.6665,W,2.05,24.17,250711,,,D*49
$GPRMC,201715.000,A,3748.7786,N,12217.6659,W,2.52,18.22,250711,,,D*48
$GPRMC,201716.000,A,3748.7792,N,12217.6653,W,2.39,30.64,250711,,,D*41
$GPRMC,201717.000,A,3748.7800,N,12217.6653,W,2.48,29.26,250711,,,D*4C
$GPRMC,201718.000,A,3748.7809,N,12217.6656,W,2.53,14.40,250711,,,D*4B
$GPRMC,201719.000,A,3748.7815,N,12217.6652,W,2.40,29.32,250711,,,D*4A
$GPRMC,201720.000,A,3748.7824,N,12217.6651,W,2.09,29.83,250711,,,D*46
$GPRMC,201721.000,A,3748.7831,N,12217.6650,W,2.38,39.32,250711,,,D*4B
$GPRMC,201722.000,A,3748.7838,N,12217.6647,W,2.43,45.21,250711,,,D*42
$GPRMC,201723.000,A,3748.7845,N,12217.6642,W,2.32,33.40,250711,,,D*4C
$GPRMC,201724.000,A,3748.7848,N,12217.6628,W,2.33,32.40,250711,,,D*4A
$GPRMC,201725.000,A,3748.7853,N,12217.6621,W,2.57,35.92,250711,,,D*42
$GPRMC,201726.000,A,3748.7854,N,12217.6607,W,2.04,38.68,250711,,,D*4C
$GPRMC,201727.000,A,3748.7860,N,12217.6602,W,2.59,18.74,250711,,,D*48
$GPRMC,201728.000,A,3748.7867,N,12217.6596,W,2.57,33.56,250711,,,D*49
$GPRMC,201729.000,A,3748.7875,N,12217.6593,W,1.79,33.59,250711,,,D*4E
$GPRMC,201730.000,A,3748.7882,N,12217.6586,W,1.93,44.62,250711,,,D*46
$GPRMC,201731.000,A,3748.7889,N,12217.6581,W,2.47,37.99,250711,,,D*41
$GPRMC,201732.000,A,3748.7895,N,12217.6581,W,1.78,10.77,250711,,,D*45
$GPRMC,201733.000,A,3748.7903,N,12217.6585,W,1.69,9.16,250711,,,D*71
$GPRMC,201734.000,A,3748.7912,N,12217.6589,W,1.23,357.01,250711,,,D*7A
$GPRMC,201735.000,A,3748.7922,N,12217.6591,W,2.14,6.33,250711,,,D*70
$GPRMC,201736.000,A,3748.7928,N,12217.6591,W,2.52,16.31,250711,,,D*48
$GPRMC,201737.000,A,3748.7934,N,12217.6586,W,2.53,23.76,250711,,,D*46
$GPRMC,201738.000,A,3748.7939,N,12217.6579,W,2.54,24.46,250711,,,D*47
$GPRMC,201739.000,A,3748.7943,N,12217.6567,W,2.64,45.91,250711,,,D*4A
$GPRMC,201740.000,A,3748.7946,N,12217.6553,W,2.95,59.98,250711,,,D*4C
$GPRMC,201741.000,A,3748.7950,N,12217.6541,W,2.71,57.37,250711,,,D*48
$GPRMC,201742.000,A,3748.7954,N,12217.6529,W,2.52,52.56,250711,,,D*42
$GPRMC,201743.000,A,3748.7959,N,12217.6521,W,2.62,32.40,250711,,,D*44
$GPRMC,201744.000,A,3748.7968,N,12217.6517,W,2.41,31.99,250711,,,D*42
$GPRMC,201745.000,A,3748.7975,N,12217.6512,W,2.53,32.58,250711,,,D*47
$GPRMC,201746.000,A,3748.7984,N,12217.6511,W,2.79,25.86,250711,,,D*44
$GPRMC,201747.000,A,3748.7992,N,12217.6507,W,2.64,30.47,250711,,,D*40
$GPRMC,201748.000,A,3748.8001,N,12217.6509,W,2.49,19.93,250711,,,D*40
$GPRMC,201749.000,A,3748.8008,N,12217.6505,W,2.35,26.94,250711,,,D*44
$GPRMC,201750.000,A,3748.8013,N,12217.6500,W,2.76,43.27,250711,,,D*4F
$GPRMC,201751.000,A,3748.8018,N,12217.6491,W,2.69,44.46,250711,,,D*42
$GPRMC,201752.000,A,3748.8022,N,12217.6483,W,2.57,43.40,250711,,,D*47
$GPRMC,201753.000,A,3748.8029,N,12217.6483,W,2.84,28.33,250711,,,D*4A
$GPRMC,201754.000,A,3748.8036,N,12217.6480,W,2.78,23.31,250711,,,D*4A
$GPRMC,201755.000,A,3748.8044,N,12217.6476,W,2.80,19.44,250711,,,D*4B
$GPRMC,201756.000,A,3748.8049,N,12217.6473,W,2.09,18.27,250711,,,D*45
$GPRMC,201757.000,A,3748.8055,N,12217.6473,W,1.52,18.28,250711,,,D*4B
$GPRMC,201758.000,A,3748.8060,N,12217.6470,W,2.44,7.54,250711,,,D*70
$GPRMC,201759.000,A,3748.8065,N,12217.6463,W,1.73,10.31,250711,,,D*44
$GPRMC,201800.000,A,3748.8070,N,12217.6461,W,2.16,1.04,250711,,,D*77
$GPRMC,201801.000,A,3748.8075,N,12217.6456,W,2.28,8.09,250711,,,D*7E
$GPRMC,201802.000,A,3748.8078,N,12217.6450,W,2.31,28.90,250711,,,D*4C
$GPRMC,201803.000,A,3748.8083,N,12217.6442,W,2.63,42.87,250711,,,D*47
$GPRMC,201804.000,A,3748.8089,N,12217.6431,W,2.80,34.11,250711,,,D*4D
$GPRMC,201805.000,A,3748.8096,N,12217.6426,W,2.78,25.59,250711,,,D*4F
$GPRMC,201806.000,A,3748.8103,N,12217.6418,W,2.75,32.68,250711,,,D*45
$GPRMC,201807.000,A,3748.8108,N,12217.6408,W,2.78,30.43,250711,,,D*48
$GPRMC,201808.000,A,3748.8114,N,12217.6400,W,2.91,25.64,250711,,,D*44
$GPRMC,201809.000,A,3748.8120,N,12217.6395,W,2.40,26.64,250711,,,D*46
$GPRMC,201810.000,A,3748.8126,N,12217.6389,W,2.39,28.82,250711,,,D*4D
$GPRMC,201811.000,A,3748.8131,N,12217.6380,W,2.61,28.00,250711,,,D*44
$GPRMC,201812.000,A,3748.8138,N,12217.6376,W,2.60,20.23,250711,,,D*4F
$GPRMC,201813.000,A,3748.8146,N,12217.6376,W,2.09,25.83,250711,,,D*47
$GPRMC,201814.000,A,3748.8152,N,12217.6373,W,2.04,35.76,250711,,,D*46
$GPRMC,201815.000,A,3748.8156,N,12217.6367,W,2.20,35.27,250711,,,D*44
$GPRMC,201816.000,A,3748.8163,N,12217.6365,W,2.21,21.25,250711,,,D*45
$GPRMC,201817.000,A,3748.8171,N,12217.6362,W,2.41,18.85,250711,,,D*46
$GPRMC,201818.000,A,3748.8179,N,12217.6363,W,2.48,14.21,250711,,,D*4B
$GPRMC,201819.000,A,3748.8188,N,12217.6363,W,2.56,29.75,250711,,,D*44
$GPRMC,201820.000,A,3748.8197,N,12217.6361,W,2.52,33.28,250711,,,D*45
$GPRMC,201821.000,A,3748.8203,N,12217.6355,W,2.35,26.93,250711,,,D*48
$GPRMC,201822.000,A,3748.8207,N,12217.6347,W,2.47,25.54,250711,,,D*41
$GPRMC,201823.000,A,3748.8213,N,12217.6337,W,2.73,30.31,250711,,,D*42
$GPRMC,201824.000,A,3748.8219,N,12217.6329,W,2.65,40.03,250711,,,D*41
$GPRMC,201825.000,A,3748.8225,N,12217.6323,W,2.07,30.07,250711,,,D*42
$GPRMC,201826.000,A,3748.8229,N,12217.6316,W,2.62,26.47,250711,,,D*4B
$GPRMC,201827.000,A,3748.8236,N,12217.6310,W,2.51,32.94,250711,,,D*49
$GPRMC,201828.000,A,3748.8241,N,12217.6303,W,2.26,46.74,250711,,,D*49
$GPRMC,201829.000,A,3748.8241,N,12217.6288,W,2.53,43.73,250711,,,D*4A
$GPRMC,201830.000,A,3748.8246,N,12217.6279,W,2.56,33.93,250711,,,D*47
$GPRMC,201831.000,A,3748.8250,N,12217.6270,W,2.36,28.22,250711,,,D*4E
$GPRMC,201832.000,A,3748.8254,N,12217.6261,W,2.61,23.61,250711,,,D*47
$GPRMC,201833.000,A,3748.8262,N,12217.6265,W,2.28,20.76,250711,,,D*4F
$GPRMC,201834.000,A,3748.8273,N,12217.6271,W,2.40,25.95,250711,,,D*4B
$GPRMC,201835.000,A,3748.8283,N,12217.6276,W,2.65,22.47,250711,,,D*4D
$GPRMC,201836.000,A,3748.8292,N,12217.6275,W,2.75,28.11,250711,,,D*45
$GPRMC,201837.000,A,3748.8300,N,12217.6269,W,2.33,23.71,250711,,,D*4C
$GPRMC,201838.000,A,3748.8309,N,12217.6270,W,2.49,21.35,250711,,,D*4D
$GPRMC,201839.000,A,3748.8315,N,12217.6267,W,2.25,26.02,250711,,,D*4E
$GPRMC,201839.000,A,3748.8320,N,12217.6264,W,2.00,20.25,250711,,,D*4F
$GPRMC,201840.000,A,3748.8324,N,12217.6257,W,2.31,25.39,250711,,,D*4F
$GPRMC,201841.000,A,3748.8332,N,12217.6250,W,2.47,18.87,250711,,,D*44
$GPRMC,201842.000,A,3748.8342,N,12217.6250,W,2.66,19.50,250711,,,D*48
$GPRMC,201843.000,A,3748.8352,N,12217.6249,W,2.69,24.76,250711,,,D*45
$GPRMC,201844.000,A,3748.8357,N,12217.6247,W,2.42,27.88,250711,,,D*42
$GPRMC,201845.000,A,3748.8362,N,12217.6242,W,2.47,23.94,250711,,,D*4C
$GPRMC,201846.000,A,3748.8368,N,12217.6235,W,2.73,37.50,250711,,,D*4F
$GPRMC,201847.000,A,3748.8372,N,12217.6230,W,2.50,33.85,250711,,,D*4D
$GPRMC,201848.000,A,3748.8375,N,12217.6221,W,2.31,38.60,250711,,,D*42
$GPRMC,201849.000,A,3748.8380,N,12217.6216,W,2.17,42.65,250711,,,D*41
$GPRMC,201850.000,A,3748.8383,N,12217.6211,W,1.93,73.23,250711,,,D*42
$GPRMC,201851.000,A,3748.8383,N,12217.6205,W,2.10,108.28,250711,,,D*78
$GPRMC,201852.000,A,3748.8376,N,12217.6191,W,1.73,120.76,250711,,,D*78
$GPRMC,201853.000,A,3748.8372,N,12217.6186,W,1.71,128.96,250711,,,D*7F
$GPRMC,201854.000,A,3748.8372,N,12217.6183,W,1.48,106.34,250711,,,D*73
$GPRMC,201855.000,A,3748.8368,N,12217.6170,W,1.74,109.34,250711,,,D*75
$GPRMC,201856.000,A,3748.8365,N,12217.6161,W,1.63,114.91,250711,,,D*7E
$GPRMC,201857.000,A,3748.8361,N,12217.6160,W,1.50,126.45,250711,,,D*72
$GPRMC,201858.000,A,3748.8353,N,12217.6155,W,1.56,151.70,250711,,,D*7A
$GPRMC,201859.000,A,3748.8350,N,12217.6152,W,0.99,123.70,250711,,,D*78
$GPRMC,201900.000,A,3748.8351,N,12217.6145,W,1.47,100.43,250711,,,D*71
$GPRMC,201901.000,A,3748.8351,N,12217.6141,W,1.65,105.42,250711,,,D*70
$GPRMC,201902.000,A,3748.8351,N,12217.6135,W,1.45,142.32,250711,,,D*76
$GPRMC,201903.000,A,3748.8346,N,12217.6132,W,1.62,169.45,250711,,,D*7A
$GPRMC,201904.000,A,3748.8343,N,12217.6132,W,2.42,162.65,250711,,,D*70
$GPRMC,201905.000,A,3748.8337,N,12217.6129,W,2.04,167.31,250711,,,D*7E
$GPRMC,201906.000,A,3748.8333,N,12217.6131,W,2.34,167.80,250711,,,D*79
$GPRMC,201907.000,A,3748.8327,N,12217.6126,W,1.88,174.63,250711,,,D*70
$GPRMC,201908.000,A,3748.8323,N,12217.6118,W,0.63,158.81,250711,,,D*70
$GPRMC,201909.000,A,3748.8322,N,12217.6114,W,0.84,109.43,250711,,,D*7F
$GPRMC,201910.000,A,3748.8322,N,12217.6114,W,0.93,150.70,250711,,,A*78
$GPRMC,201911.000,A,3748.8320,N,12217.6105,W,1.85,122.30,250711,,,A*7C
$GPRMC,201912.000,A,3748.8322,N,12217.6092,W,1.91,126.00,250711,,,A*70
$GPRMC,201913.000,A,3748.8319,N,12217.6078,W,1.95,133.00,250711,,,A*7D
$GPRMC,201914.000,A,3748.8318,N,12217.6068,W,1.54,117.24,250711,,,A*77
$GPRMC,201915.000,A,3748.8321,N,12217.6061,W,1.42,90.54,250711,,,A*4B
$GPRMC,201916.000,A,3748.8319,N,12217.6049,W,2.20,115.99,250711,,,A*73
$GPRMC,201917.000,A,3748.8312,N,12217.6037,W,2.30,116.12,250711,,,A*71
$GPRMC,201918.000,A,3748.8306,N,12217.6026,W,1.98,124.64,250711,,,A*7A
$GPRMC,201919.000,A,3748.8301,N,12217.6018,W,1.94,117.14,250711,,,A*7A
$GPRMC,201920.000,A,3748.8296,N,12217.6012,W,1.76,112.29,250711,,,D*77
$GPRMC,201921.000,A,3748.8293,N,12217.6011,W,1.64,124.73,250711,,,D*79
$GPRMC,201922.000,A,3748.8288,N,12217.6006,W,1.76,125.97,250711,,,D*7E
$GPRMC,201923.000,A,3748.8284,N,12217.6012,W,1.15,122.17,250711,,,D*7C
$GPRMC,201924.000,A,3748.8280,N,12217.6018,W,1.32,121.37,250711,,,D*71
$GPRMC,201925.000,A,3748.8274,N,12217.6014,W,1.31,119.81,250711,,,D*72
$GPRMC,201926.000,A,3748.8269,N,12217.6004,W,1.22,116.76,250711,,,D*79
$GPRMC,201927.000,A,3748.8265,N,12217.6000,W,1.22,131.64,250711,,,D*76
$GPRMC,201928.000,A,3748.8260,N,12217.5991,W,1.67,116.33,250711,,,D*78
$GPRMC,201929.000,A,3748.8254,N,12217.5980,W,2.37,113.52,250711,,,D*7A
$GPRMC,201930.000,A,3748.8248,N,12217.5970,W,2.34,116.49,250711,,,D*7C
$GPRMC,201931.000,A,3748.8242,N,12217.5960,W,2.32,119.97,250711,,,D*7C
$GPRMC,201932.000,A,3748.8234,N,12217.5950,W,2.16,127.86,250711,,,D*76
$GPRMC,201933.000,A,3748.8230,N,12217.5948,W,1.85,121.65,250711,,,D*78
$GPRMC,201934.000,A,3748.8228,N,12217.5945,W,1.75,117.31,250711,,,D*70
$GPRMC,201935.000,A,3748.8225,N,12217.5941,W,1.55,119.15,250711,,,D*72
$GPRMC,201936.000,A,3748.8224,N,12217.5937,W,1.18,98.38,250711,,,D*4F
$GPRMC,201937.000,A,3748.8211,N,12217.5908,W,2.16,109.78,250711,,,D*74
$GPRMC,201938.000,A,3748.8202,N,12217.5888,W,2.31,113.40,250711,,,D*75
$GPRMC,201939.000,A,3748.8194,N,12217.5873,W,2.07,118.24,250711,,,D*70
$GPRMC,201940.000,A,3748.8188,N,12217.5862,W,1.99,120.68,250711,,,D*74
$GPRMC,201941.000,A,3748.8183,N,12217.5854,W,1.82,115.49,250711,,,D*74
$GPRMC,201942.000,A,3748.8179,N,12217.5852,W,1.67,123.57,250711,,,D*75
$GPRMC,201943.000,A,3748.8177,N,12217.5850,W,1.64,111.01,250711,,,D*79
$GPRMC,201944.000,A,3748.8172,N,12217.5842,W,1.48,105.93,250711,,,D*78
$GPRMC,201945.000,A,3748.8171,N,12217.5838,W,1.21,106.16,250711,,,D*76
$GPRMC,201946.000,A,3748.8167,N,12217.5827,W,1.33,101.37,250711,,,D*7B
$GPRMC,201947.000,A,3748.8161,N,12217.5815,W,1.76,119.09,250711,,,D*78
$GPRMC,201948.000,A,3748.8158,N,12217.5806,W,1.94,120.37,250711,,,D*74
$GPRMC,201949.000,A,3748.8156,N,12217.5800,W,2.09,116.49,250711,,,D*76
$GPRMC,201950.000,A,3748.8151,N,12217.5789,W,1.72,112.91,250711,,,D*79
$GPRMC,201951.000,A,3748.8147,N,12217.5779,W,2.54,120.91,250711,,,D*76
$GPRMC,201952.000,A,3748.8143,N,12217.5770,W,2.29,129.95,250711,,,D*7F
$GPRMC,201953.000,A,3748.8138,N,12217.5756,W,2.35,123.37,250711,,,D*79
$GPRMC,201954.000,A,3748.8136,N,12217.5740,W,2.17,121.92,250711,,,D*7A
$GPRMC,201955.000,A,3748.8129,N,12217.5726,W,2.20,128.15,250711,,,D*77
$GPRMC,201956.000,A,3748.8124,N,12217.5718,W,1.84,129.03,250711,,,D*7F
$GPRMC,201957.000,A,3748.8120,N,12217.5712,W,1.82,117.83,250711,,,D*73
$GPRMC,201958.000,A,3748.8116,N,12217.5704,W,1.39,111.52,250711,,,D*74
$GPRMC,201959.000,A,3748.8115,N,12217.5705,W,1.70,131.51,250711,,,D*7B
$GPRMC,202000.000,A,3748.8110,N,12217.5694,W,1.75,116.92,250711,,,D*7E
$GPRMC,202001.000,A,3748.8107,N,12217.5687,W,1.80,121.37,250711,,,D*7A
$GPRMC,202002.000,A,3748.8105,N,12217.5682,W,1.57,115.01,250711,,,D*76
$GPRMC,202003.000,A,3748.8100,N,12217.5673,W,1.12,110.73,250711,,,D*7D
$GPRMC,202004.000,A,3748.8097,N,12217.5664,W,1.22,101.79,250711,,,D*7A
$GPRMC,202005.000,A,3748.8098,N,12217.5658,W,1.80,103.96,250711,,,D*70
$GPRMC,202006.000,A,3748.8094,N,12217.5645,W,2.08,105.52,250711,,,D*7E
$GPRMC,202007.000,A,3748.8090,N,12217.5632,W,2.18,129.28,250711,,,D*79
$GPRMC,202008.000,A,3748.8088,N,12217.5620,W,1.74,101.34,250711,,,D*72
$GPRMC,202009.000,A,3748.8090,N,12217.5614,W,1.58,118.26,250711,,,D*78
$GPRMC,202010.000,A,3748.8093,N,12217.5610,W,1.28,139.74,250711,,,D*74
$GPRMC,202011.000,A,3748.8094,N,12217.5605,W,1.65,106.54,250711,,,D*71
$GPRMC,202012.000,A,3748.8097,N,12217.5601,W,1.07,78.78,250711,,,D*47
$GPRMC,202013.000,A,3748.8092,N,12217.5591,W,1.54,90.59,250711,,,D*4A
$GPRMC,202014.000,A,3748.8089,N,12217.5584,W,1.84,86.25,250711,,,D*42
$GPRMC,202015.000,A,3748.8089,N,12217.5574,W,2.33,82.02,250711,,,D*42
$GPRMC,202016.000,A,3748.8084,N,12217.5564,W,2.12,94.54,250711,,,D*4A
$GPRMC,202017.000,A,3748.8078,N,12217.5555,W,1.94,98.97,250711,,,D*44
$GPRMC,202018.000,A,3748.8076,N,12217.5547,W,1.66,89.87,250711,,,D*4A
$GPRMC,202019.000,A,3748.8069,N,12217.5538,W,1.52,106.87,250711,,,A*79
$GPRMC,202020.000,A,3748.8065,N,12217.5527,W,1.70,107.97,250711,,,A*71
$GPRMC,202021.000,A,3748.8056,N,12217.5512,W,2.10,112.20,250711,,,A*7B
$GPRMC,202022.000,A,3748.8049,N,12217.5501,W,1.62,124.20,250711,,,A*77
$GPRMC,202023.000,A,3748.8039,N,12217.5492,W,1.28,140.02,250711,,,A*76
$GPRMC,202024.000,A,3748.8036,N,12217.5492,W,1.96,147.50,250711,,,A*7B
$GPRMC,202025.000,A,3748.8028,N,12217.5492,W,1.81,188.32,250711,,,A*74
$GPRMC,202026.000,A,3748.8022,N,12217.5498,W,1.86,211.74,250711,,,A*71
$GPRMC,202027.000,A,3748.8015,N,12217.5505,W,1.64,194.97,250711,,,A*7E
$GPRMC,202028.000,A,3748.8007,N,12217.5508,W,2.00,205.58,250711,,,A*76
$GPRMC,202029.000,A,3748.8001,N,12217.5509,W,1.46,213.66,250711,,,A*7B
$GPRMC,202030.000,A,3748.7993,N,12217.5511,W,1.63,199.27,250711,,,A*74
$GPRMC,202031.000,A,3748.7990,N,12217.5517,W,1.56,235.72,250711,,,A*73
$GPRMC,202032.000,A,3748.7987,N,12217.5527,W,2.15,239.54,250711,,,A*79
$GPRMC,202033.000,A,3748.7983,N,12217.5535,W,2.02,223.15,250711,,,A*77
$GPRMC,202034.000,A,3748.7975,N,12217.5538,W,2.24,190.24,250711,,,A*79
$GPRMC,202035.000,A,3748.7967,N,12217.5541,W,2.38,174.68,250711,,,A*7A
$GPRMC,202036.000,A,3748.7959,N,12217.5544,W,3.27,158.61,250711,,,A*79
$GPRMC,202037.000,A,3748.7951,N,12217.5543,W,2.88,160.22,250711,,,A*7F
$GPRMC,202038.000,A,3748.7943,N,12217.5540,W,2.69,153.85,250711,,,A*72
$GPRMC,202039.000,A,3748.7940,N,12217.5544,W,1.91,170.85,250711,,,A*71
$GPRMC,202040.000,A,3748.7931,N,12217.5546,W,1.50,176.17,250711,,,A*7B
$GPRMC,202041.000,A,3748.7926,N,12217.5560,W,1.93,214.17,250711,,,A*70
$GPRMC,202042.000,A,3748.7922,N,12217.5574,W,1.80,217.06,250711,,,A*73
$GPRMC,202043.000,A,3748.7916,N,12217.5585,W,1.93,225.12,250711,,,A*7D
$GPRMC,202044.000,A,3748.7912,N,12217.5589,W,1.29,196.33,250711,,,A*7B
$GPRMC,202045.000,A,3748.7908,N,12217.5596,W,1.65,215.31,250711,,,A*7D
$GPRMC,202046.000,A,3748.7905,N,12217.5611,W,1.74,222.05,250711,,,A*7C
$GPRMC,202047.000,A,3748.7897,N,12217.5614,W,1.87,214.01,250711,,,A*7F
$GPRMC,202048.000,A,3748.7888,N,12217.5609,W,2.06,224.29,250711,,,A*71
$GPRMC,202049.000,A,3748.7880,N,12217.5613,W,2.09,211.40,250711,,,A*75
$GPRMC,202050.000,A,3748.7873,N,12217.5620,W,2.02,203.49,250711,,,A*70
$GPRMC,202051.000,A,3748.7866,N,12217.5628,W,2.23,215.26,250711,,,A*70
$GPRMC,202052.000,A,3748.7857,N,12217.5634,W,2.42,210.55,250711,,,A*7A
$GPRMC,202053.000,A,3748.7847,N,12217.5635,W,1.84,175.47,250711,,,A*71
$GPRMC,202054.000,A,3748.7841,N,12217.5637,W,2.16,162.06,250711,,,A*79
$GPRMC,202055.000,A,3748.7834,N,12217.5644,W,1.95,185.45,250711,,,A*78
$GPRMC,202056.000,A,3748.7826,N,12217.5648,W,2.41,195.38,250711,,,A*75
$GPRMC,202057.000,A,3748.7821,N,12217.5658,W,2.06,204.99,250711,,,A*71
$GPRMC,202058.000,A,3748.7819,N,12217.5669,W,2.16,221.49,250711,,,A*7C
$GPRMC,202059.000,A,3748.7813,N,12217.5674,W,2.45,223.30,250711,,,A*71
$GPRMC,202100.000,A,3748.7807,N,12217.5681,W,2.36,221.32,250711,,,A*77
$GPRMC,202101.000,A,3748.7800,N,12217.5684,W,2.12,225.65,250711,,,A*74
$GPRMC,202102.000,A,3748.7794,N,12217.5694,W,2.10,237.70,250711,,,A*71
$GPRMC,202103.000,A,3748.7791,N,12217.5707,W,2.34,239.55,250711,,,A*71
$GPRMC,202104.000,A,3748.7785,N,12217.5714,W,2.23,207.52,250711,,,A*7D
$GPRMC,202105.000,A,3748.7774,N,12217.5711,W,2.53,190.10,250711,,,A*7B
$GPRMC,202106.000,A,3748.7765,N,12217.5712,W,2.12,200.53,250711,,,A*73
$GPRMC,202107.000,A,3748.7761,N,12217.5718,W,1.68,186.67,250711,,,A*78
$GPRMC,202108.000,A,3748.7757,N,12217.5727,W,1.75,214.20,250711,,,A*79
$GPRMC,202109.000,A,3748.7750,N,12217.5728,W,1.76,223.26,250711,,,A*71
$GPRMC,202110.000,A,3748.7742,N,12217.5731,W,1.79,222.78,250711,,,A*77
$GPRMC,202111.000,A,3748.7736,N,12217.5739,W,1.88,223.80,250711,,,A*75
$GPRMC,202112.000,A,3748.7731,N,12217.5743,W,2.09,228.42,250711,,,A*73
$GPRMC,202113.000,A,3748.7726,N,12217.5750,W,1.71,223.76,250711,,,A*76
$GPRMC,202114.000,A,3748.7720,N,12217.5756,W,2.22,222.74,250711,,,A*77
$GPRMC,202115.000,A,3748.7714,N,12217.5763,W,2.11,202.01,250711,,,A*77
$GPRMC,202116.000,A,3748.7708,N,12217.5768,W,1.80,189.27,250711,,,A*7D
$GPRMC,202117.000,A,3748.7701,N,12217.5773,W,1.92,211.85,250711,,,A*76
$GPRMC,202118.000,A,3748.7694,N,12217.5781,W,2.46,213.54,250711,,,A*7D
$GPRMC,202119.000,A,3748.7688,N,12217.5792,W,2.47,221.35,250711,,,A*74
$GPRMC,202120.000,A,3748.7680,N,12217.5800,W,2.42,222.87,250711,,,A*7D
$GPRMC,202121.000,A,3748.7675,N,12217.5805,W,2.28,219.57,250711,,,A*7A
$GPRMC,202122.000,A,3748.7668,N,12217.5811,W,2.42,215.27,250711,,,A*77
$GPRMC,202123.000,A,3748.7662,N,12217.5818,W,2.08,206.85,250711,,,A*71
$GPRMC,202124.000,A,3748.7654,N,12217.5816,W,2.02,174.21,250711,,,A*7F
$GPRMC,202125.000,A,3748.7648,N,12217.5814,W,1.91,171.84,250711,,,A*72
$GPRMC,202126.000,A,3748.7639,N,12217.5816,W,2.01,176.88,250711,,,A*74
$GPRMC,202127.000,A,3748.7631,N,12217.5820,W,1.95,202.63,250711,,,A*73
$GPRMC,202128.000,A,3748.7625,N,12217.5824,W,1.86,203.07,250711,,,A*7C
$GPRMC,202129.000,A,3748.7619,N,12217.5824,W,1.94,192.82,250711,,,A*77
$GPRMC,202130.000,A,3748.7611,N,12217.5827,W,2.12,196.51,250711,,,A*73
$GPRMC,202131.000,A,3748.7605,N,12217.5832,W,2.40,191.94,250711,,,A*7A
$GPRMC,202132.000,A,3748.7600,N,12217.5835,W,1.94,195.54,250711,,,A*79
$GPRMC,202133.000,A,3748.7595,N,12217.5838,W,2.23,195.29,250711,,,A*7F
$GPRMC,202134.000,A,3748.7587,N,12217.5842,W,2.01,193.94,250711,,,A*76
$GPRMC,202135.000,A,3748.7581,N,12217.5846,W,2.02,200.09,250711,,,A*7B
$GPRMC,202136.000,A,3748.7573,N,12217.5850,W,2.38,196.68,250711,,,A*70
$GPRMC,202137.000,A,3748.7566,N,12217.5856,W,2.02,178.66,250711,,,A*74
$GPRMC,202138.000,A,3748.7560,N,12217.5857,W,1.30,181.33,250711,,,A*78
$GPRMC,202139.000,A,3748.7553,N,12217.5859,W,1.44,179.42,250711,,,A*75
$GPRMC,202140.000,A,3748.7545,N,12217.5857,W,2.02,171.00,250711,,,A*7D
$GPRMC,202141.000,A,3748.7537,N,12217.5858,W,2.16,180.73,250711,,,A*79
$GPRMC,202142.000,A,3748.7525,N,12217.5859,W,2.41,177.13,250711,,,A*74
$GPRMC,202143.000,A,3748.7517,N,12217.5860,W,2.37,195.46,250711,,,A*73
$GPRMC,202144.000,A,3748.7513,N,12217.5869,W,1.65,201.26,250711,,,A*75
$GPRMC,202145.000,A,3748.7509,N,12217.5881,W,1.76,217.59,250711,,,A*74
$GPRMC,202146.000,A,3748.7502,N,12217.5884,W,1.24,219.83,250711,,,A*77
$GPRMC,202147.000,A,3748.7490,N,12217.5880,W,1.49,207.92,250711,,,A*7C
$GPRMC,202148.000,A,3748.7480,N,12217.5880,W,2.22,193.89,250711,,,A*78
$GPRMC,202149.000,A,3748.7472,N,12217.5882,W,2.05,194.95,250711,,,A*79
$GPRMC,202150.000,A,3748.7466,N,12217.5888,W,1.99,185.56,250711,,,A*77
$GPRMC,202151.000,A,3748.7461,N,12217.5895,W,1.82,210.49,250711,,,A*76
$GPRMC,202152.000,A,3748.7456,N,12217.5904,W,2.14,209.28,250711,,,A*7B
$GPRMC,202153.000,A,3748.7450,N,12217.5911,W,2.44,206.84,250711,,,A*74
$GPRMC,202154.000,A,3748.7445,N,12217.5917,W,1.77,203.80,250711,,,A*73
$GPRMC,202155.000,A,3748.7441,N,12217.5922,W,1.82,200.39,250711,,,A*7B
$GPRMC,202156.000,A,3748.7438,N,12217.5928,W,1.37,194.15,250711,,,A*72
$GPRMC,202157.000,A,3748.7430,N,12217.5929,W,2.28,170.61,250711,,,A*7E
$GPRMC,202158.000,A,3748.7422,N,12217.5929,W,2.74,170.85,250711,,,A*71
$GPRMC,202159.000,A,3748.7409,N,12217.5928,W,2.91,181.96,250711,,,A*7F
$GPRMC,202200.000,A,3748.7401,N,12217.5935,W,2.56,195.51,250711,,,A*71
$GPRMC,202201.000,A,3748.7397,N,12217.5944,W,2.34,207.54,250711,,,A*77
$GPRMC,202202.000,A,3748.7391,N,12217.5954,W,2.22,216.96,250711,,,A*7A
$GPRMC,202203.000,A,3748.7384,N,12217.5961,W,2.41,193.86,250711,,,A*73
$GPRMC,202204.000,A,3748.7378,N,12217.5965,W,2.31,191.84,250711,,,A*74
$GPRMC,202205.000,A,3748.7372,N,12217.5969,W,2.08,188.03,250711,,,A*7E
$GPRMC,202206.000,A,3748.7367,N,12217.5973,W,1.94,184.08,250711,,,A*73
$GPRMC,202207.000,A,3748.7362,N,12217.5977,W,2.12,199.90,250711,,,A*73
$GPRMC,202208.000,A,3748.7356,N,12217.5985,W,2.28,200.61,250711,,,A*72
$GPRMC,202209.000,A,3748.7352,N,12217.5990,W,2.34,188.60,250711,,,A*7C
$GPRMC,202210.000,A,3748.7348,N,12217.5996,W,1.98,195.26,250711,,,A*72
$GPRMC,202211.000,A,3748.7341,N,12217.6000,W,2.28,193.86,250711,,,A*7B
$GPRMC,202212.000,A,3748.7335,N,12217.6003,W,2.01,193.65,250711,,,A*7E
$GPRMC,202213.000,A,3748.7330,N,12217.6007,W,2.01,201.10,250711,,,A*74
$GPRMC,202214.000,A,3748.7324,N,12217.6015,W,2.40,207.97,250711,,,A*79
$GPRMC,202215.000,A,3748.7319,N,12217.6022,W,2.42,203.82,250711,,,A*70
$GPRMC,202216.000,A,3748.7313,N,12217.6029,W,2.58,205.35,250711,,,A*73
$GPRMC,202217.000,A,3748.7307,N,12217.6036,W,2.34,198.28,250711,,,A*78
$GPRMC,202218.000,A,3748.7302,N,12217.6047,W,2.28,198.93,250711,,,A*79
$GPRMC,202219.000,A,3748.7294,N,12217.6053,W,2.08,210.57,250711,,,A*7A
$GPRMC,202220.000,A,3748.7288,N,12217.6062,W,2.13,207.33,250711,,,A*71
$GPRMC,202221.000,A,3748.7284,N,12217.6072,W,1.86,216.69,250711,,,A*7D
$GPRMC,202222.000,A,3748.7280,N,12217.6083,W,1.73,210.99,250711,,,A*77
$GPRMC,202223.000,A,3748.7275,N,12217.6092,W,2.04,216.01,250711,,,A*78
$GPRMC,202224.000,A,3748.7268,N,12217.6103,W,1.71,214.90,250711,,,A*71
$GPRMC,202225.000,A,3748.7261,N,12217.6111,W,1.74,203.14,250711,,,A*75
$GPRMC,202226.000,A,3748.7255,N,12217.6113,W,1.90,193.92,250711,,,A*7D
$GPRMC,202227.000,A,3748.7248,N,12217.6121,W,2.13,193.67,250711,,,A*73
$GPRMC,202228.000,A,3748.7241,N,12217.6125,W,1.79,167.17,250711,,,A*72
$GPRMC,202229.000,A,3748.7237,N,12217.6126,W,1.61,167.49,250711,,,A*73
$GPRMC,202230.000,A,3748.7231,N,12217.6130,W,1.55,177.63,250711,,,A*74
$GPRMC,202231.000,A,3748.7224,N,12217.6132,W,1.91,174.45,250711,,,A*7C
$GPRMC,202232.000,A,3748.7219,N,12217.6136,W,1.40,168.60,250711,,,A*73
$GPRMC,202233.000,A,3748.7213,N,12217.6142,W,1.56,182.49,250711,,,A*73
$GPRMC,202234.000,A,3748.7205,N,12217.6151,W,1.99,187.11,250711,,,A*7A
$GPRMC,202235.000,A,3748.7199,N,12217.6159,W,1.78,199.10,250711,,,A*74
$GPRMC,202236.000,A,3748.7192,N,12217.6162,W,2.22,182.16,250711,,,A*74
$GPRMC,202237.000,A,3748.7184,N,12217.6163,W,2.15,173.18,250711,,,A*77
$GPRMC,202238.000,A,3748.7177,N,12217.6165,W,2.40,186.59,250711,,,A*7D
$GPRMC,202239.000,A,3748.7171,N,12217.6168,W,1.91,180.23,250711,,,A*73
$GPRMC,202240.000,A,3748.7167,N,12217.6173,W,1.41,186.16,250711,,,A*7D
$GPRMC,202241.000,A,3748.7163,N,12217.6176,W,1.69,177.54,250711,,,A*7F
$GPRMC,202242.000,A,3748.7156,N,12217.6176,W,1.98,186.37,250711,,,A*7F
$GPRMC,202243.000,A,3748.7147,N,12217.6179,W,1.89,178.85,250711,,,A*79
$GPRMC,202244.000,A,3748.7140,N,12217.6186,W,1.50,171.90,250711,,,A*70
$GPRMC,202245.000,A,3748.7133,N,12217.6193,W,1.48,180.91,250711,,,A*77
$GPRMC,202246.000,A,3748.7127,N,12217.6195,W,1.78,191.79,250711,,,A*72
$GPRMC,202247.000,A,3748.7121,N,12217.6197,W,1.75,204.91,250711,,,A*73
$GPRMC,202248.000,A,3748.7115,N,12217.6199,W,1.70,184.85,250711,,,A*7E
$GPRMC,202249.000,A,3748.7109,N,12217.6201,W,1.87,186.29,250711,,,A*7C
$GPRMC,202250.000,A,3748.7103,N,12217.6211,W,2.26,184.51,250711,,,A*7A
$GPRMC,202251.000,A,3748.7096,N,12217.6218,W,1.91,191.35,250711,,,A*76
$GPRMC,202252.000,A,3748.7090,N,12217.6225,W,1.80,183.59,250711,,,A*74
$GPRMC,202253.000,A,3748.7084,N,12217.6229,W,1.86,179.06,250711,,,A*75
$GPRMC,202254.000,A,3748.7078,N,12217.6234,W,1.91,194.49,250711,,,A*73
$GPRMC,202255.000,A,3748.7072,N,12217.6243,W,1.46,210.58,250711,,,A*7D
$GPRMC,202256.000,A,3748.7065,N,12217.6253,W,1.96,201.84,250711,,,A*75
$GPRMC,202257.000,A,3748.7058,N,12217.6262,W,2.07,195.11,250711,,,A*71
$GPRMC,202258.000,A,3748.7049,N,12217.6270,W,2.08,189.71,250711,,,A*79
$GPRMC,202259.000,A,3748.7041,N,12217.6279,W,2.19,202.58,250711,,,A*72
$GPRMC,202300.000,A,3748.7034,N,12217.6288,W,1.77,202.52,250711,,,A*72
$GPRMC,202301.000,A,3748.7029,N,12217.6293,W,1.49,190.39,250711,,,A*7D
$GPRMC,202302.000,A,3748.7025,N,12217.6296,W,1.39,193.61,250711,,,A*7E
$GPRMC,202303.000,A,3748.7019,N,12217.6299,W,1.36,184.86,250711,,,A*7F
$GPRMC,202304.000,A,3748.7011,N,12217.6303,W,1.58,178.45,250711,,,A*76
$GPRMC,202305.000,A,3748.7004,N,12217.6306,W,1.31,205.72,250711,,,A*74
$GPRMC,202306.000,A,3748.6997,N,12217.6306,W,1.76,207.10,250711,,,A*70
$GPRMC,202307.000,A,3748.6992,N,12217.6310,W,2.08,194.70,250711,,,A*76
$GPRMC,202308.000,A,3748.6986,N,12217.6313,W,2.03,187.39,250711,,,A*7B
$GPRMC,202309.000,A,3748.6980,N,12217.6318,W,1.90,175.71,250711,,,A*7F
$GPRMC,202310.000,A,3748.6975,N,12217.6320,W,1.63,167.45,250711,,,A*7E
$GPRMC,202311.000,A,3748.6969,N,12217.6322,W,1.82,162.17,250711,,,A*7D
$GPRMC,202312.000,A,3748.6963,N,12217.6320,W,1.92,169.70,250711,,,A*7D
$GPRMC,202313.000,A,3748.6959,N,12217.6321,W,1.23,178.23,250711,,,A*78
$GPRMC,202314.000,A,3748.6955,N,12217.6325,W,1.00,208.55,250711,,,A*73
$GPRMC,202315.000,A,3748.6953,N,12217.6330,W,1.57,239.66,250711,,,A*70
$GPRMC,202316.000,A,3748.6951,N,12217.6341,W,2.77,244.29,250711,,,A*77
$GPRMC,202317.000,A,3748.6943,N,12217.6351,W,2.65,223.49,250711,,,A*70
$GPRMC,202318.000,A,3748.6935,N,12217.6363,W,2.18,216.95,250711,,,A*72
$GPRMC,202319.000,A,3748.6927,N,12217.6373,W,2.32,213.92,250711,,,A*7B
$GPRMC,202320.000,A,3748.6920,N,12217.6380,W,2.15,201.60,250711,,,A*71
$GPRMC,202321.000,A,3748.6913,N,12217.6383,W,2.15,190.34,250711,,,A*79
$GPRMC,202322.000,A,3748.6907,N,12217.6387,W,2.09,198.24,250711,,,A*7F
$GPRMC,202323.000,A,3748.6899,N,12217.6393,W,2.24,207.95,250711,,,A*7D
$GPRMC,202324.000,A,3748.6893,N,12217.6403,W,1.58,224.72,250711,,,A*7E
$GPRMC,202325.000,A,3748.6887,N,12217.6412,W,1.66,212.45,250711,,,A*76
$GPRMC,202326.000,A,3748.6882,N,12217.6419,W,1.93,210.89,250711,,,A*73
$GPRMC,202327.000,A,3748.6876,N,12217.6426,W,2.43,221.34,250711,,,A*7F
$GPRMC,202328.000,A,3748.6872,N,12217.6432,W,1.90,216.58,250711,,,A*72
$GPRMC,202329.000,A,3748.6866,N,12217.6437,W,2.11,203.43,250711,,,A*77
$GPRMC,202330.000,A,3748.6859,N,12217.6440,W,2.33,194.72,250711,,,A*7C
$GPRMC,202331.000,A,3748.6850,N,12217.6443,W,2.02,187.46,250711,,,A*70
$GPRMC,202332.000,A,3748.6841,N,12217.6446,W,1.90,190.59,250711,,,A*76
$GPRMC,202333.000,A,3748.6834,N,12217.6450,W,1.77,194.97,250711,,,A*7D
$GPRMC,202334.000,A,3748.6827,N,12217.6456,W,1.52,174.08,250711,,,A*71
$GPRMC,202335.000,A,3748.6819,N,12217.6460,W,1.46,168.54,250711,,,A*79
$GPRMC,202336.000,A,3748.6812,N,12217.6464,W,1.96,183.86,250711,,,A*72
$GPRMC,202337.000,A,3748.6802,N,12217.6467,W,2.13,184.45,250711,,,A*77
$GPRMC,202338.000,A,3748.6792,N,12217.6470,W,1.94,191.24,250711,,,A*77
$GPRMC,202339.000,A,3748.6785,N,12217.6472,W,2.10,196.38,250711,,,A*77
$GPRMC,202340.000,A,3748.6778,N,12217.6474,W,1.98,202.20,250711,,,A*79
$GPRMC,202341.000,A,3748.6768,N,12217.6473,W,1.94,193.92,250711,,,A*70
$GPRMC,202342.000,A,3748.6758,N,12217.6475,W,2.06,193.65,250711,,,A*76
$GPRMC,202343.000,A,3748.6750,N,12217.6475,W,1.88,201.59,250711,,,A*7D
$GPRMC,202344.000,A,3748.6743,N,12217.6477,W,1.45,196.10,250711,,,A*7B
$GPRMC,202345.000,A,3748.6741,N,12217.6488,W,1.81,194.97,250711,,,A*7D
$GPRMC,202346.000,A,3748.6737,N,12217.6497,W,2.36,203.67,250711,,,A*7C
$GPRMC,202347.000,A,3748.6732,N,12217.6509,W,2.54,209.24,250711,,,A*77
$GPRMC,202348.000,A,3748.6726,N,12217.6516,W,2.12,206.30,250711,,,A*7B
$GPRMC,202349.000,A,3748.6718,N,12217.6518,W,1.79,206.38,250711,,,A*7F
$GPRMC,202350.000,A,3748.6710,N,12217.6522,W,1.38,205.21,250711,,,A*78
$GPRMC,202351.000,A,3748.6710,N,12217.6530,W,0.96,224.59,250711,,,A*73
$GPRMC,202352.000,A,3748.6707,N,12217.6539,W,1.70,261.88,250711,,,A*7B
$GPRMC,202353.000,A,3748.6705,N,12217.6549,W,1.30,231.33,250711,,,A*7E
$GPRMC,202354.000,A,3748.6698,N,12217.6549,W,1.42,174.63,250711,,,A*7E
$GPRMC,202355.000,A,3748.6692,N,12217.6548,W,1.02,161.72,250711,,,A*74
$GPRMC,202356.000,A,3748.6686,N,12217.6549,W,1.52,187.77,250711,,,A*7B
$GPRMC,202357.000,A,3748.6677,N,12217.6549,W,1.84,201.48,250711,,,A*7E
$GPRMC,202358.000,A,3748.6671,N,12217.6553,W,1.66,205.23,250711,,,A*79
$GPRMC,202359.000,A,3748.6664,N,12217.6559,W,1.73,204.41,250711,,,A*77
$GPRMC,202400.000,A,3748.6654,N,12217.6562,W,1.58,200.38,250711,,,A*74
$GPRMC,202401.000,A,3748.6652,N,12217.6574,W,2.03,207.75,250711,,,A*77
$GPRMC,202402.000,A,3748.6648,N,12217.6581,W,1.75,193.91,250711,,,A*73
$GPRMC,202403.000,A,3748.6642,N,12217.6588,W,1.58,188.08,250711,,,A*74
$GPRMC,202404.000,A,3748.6635,N,12217.6596,W,2.34,195.18,250711,,,A*78
$GPRMC,202405.000,A,3748.6628,N,12217.6606,W,1.98,204.06,250711,,,A*7E
$GPRMC,202406.000,A,3748.6620,N,12217.6613,W,1.80,214.26,250711,,,A*7B
$GPRMC,202407.000,A,3748.6613,N,12217.6616,W,1.70,180.42,250711,,,A*7C
$GPRMC,202408.000,A,3748.6609,N,12217.6619,W,1.10,189.46,250711,,,A*7C
$GPRMC,202409.000,A,3748.6605,N,12217.6631,W,2.26,205.68,250711,,,A*76
$GPRMC,202410.000,A,3748.6600,N,12217.6641,W,2.28,209.72,250711,,,A*75
$GPRMC,202411.000,A,3748.6595,N,12217.6650,W,2.04,208.34,250711,,,A*76
$GPRMC,202412.000,A,3748.6587,N,12217.6657,W,2.27,202.90,250711,,,A*74
$GPRMC,202413.000,A,3748.6579,N,12217.6662,W,2.29,206.12,250711,,,A*72
$GPRMC,202414.000,A,3748.6572,N,12217.6667,W,2.21,205.15,250711,,,A*77
$GPRMC,202415.000,A,3748.6565,N,12217.6672,W,2.05,194.39,250711,,,A*77
$GPRMC,202416.000,A,3748.6558,N,12217.6677,W,1.85,196.89,250711,,,A*7D
$GPRMC,202417.000,A,3748.6552,N,12217.6682,W,2.07,193.54,250711,,,A*70
$GPRMC,202418.000,A,3748.6546,N,12217.6690,W,1.79,198.32,250711,,,A*78
$GPRMC,202419.000,A,3748.6540,N,12217.6698,W,2.25,211.08,250711,,,A*76
$GPRMC,202420.000,A,3748.6534,N,12217.6705,W,2.29,214.34,250711,,,A*7C
$GPRMC,202421.000,A,3748.6527,N,12217.6712,W,2.24,210.31,250711,,,A*75
$GPRMC,202422.000,A,3748.6521,N,12217.6716,W,2.50,214.03,250711,,,A*72
$GPRMC,202423.000,A,3748.6514,N,12217.6718,W,2.29,211.50,250711,,,A*76
$GPRMC,202424.000,A,3748.6509,N,12217.6724,W,1.63,211.92,250711,,,A*71
$GPRMC,202425.000,A,3748.6501,N,12217.6732,W,1.68,219.57,250711,,,A*75
$GPRMC,202426.000,A,3748.6495,N,12217.6741,W,1.69,219.00,250711,,,A*7D
$GPRMC,202427.000,A,3748.6490,N,12217.6746,W,1.79,210.75,250711,,,A*74
$GPRMC,202428.000,A,3748.6483,N,12217.6752,W,2.11,205.02,250711,,,A*75
$GPRMC,202429.000,A,3748.6475,N,12217.6755,W,2.08,182.54,250711,,,A*7D
$GPRMC,202430.000,A,3748.6467,N,12217.6756,W,1.91,170.55,250711,,,A*7A
$GPRMC,202431.000,A,3748.6459,N,12217.6757,W,1.96,160.79,250711,,,A*7F
$GPRMC,202432.000,A,3748.6453,N,12217.6756,W,2.11,147.16,250711,,,A*77
$GPRMC,202433.000,A,3748.6445,N,12217.6758,W,2.07,145.91,250711,,,A*75
$GPRMC,202434.000,A,3748.6438,N,12217.6760,W,1.91,152.02,250711,,,A*73
$GPRMC,202435.000,A,3748.6433,N,12217.6763,W,1.47,154.12,250711,,,A*76
$GPRMC,202436.000,A,3748.6429,N,12217.6763,W,1.61,137.92,250711,,,A*77
$GPRMC,202437.000,A,3748.6425,N,12217.6763,W,1.37,150.77,250711,,,A*73
$GPRMC,202438.000,A,3748.6417,N,12217.6768,W,1.39,162.33,250711,,,A*79
$GPRMC,202439.000,A,3748.6412,N,12217.6772,W,0.49,171.22,250711,,,A*72
$GPRMC,202440.000,A,3748.6402,N,12217.6774,W,2.07,200.96,250711,,,A*79
$GPRMC,202441.000,A,3748.6392,N,12217.6782,W,2.37,189.03,250711,,,A*72
$GPRMC,202442.000,A,3748.6387,N,12217.6782,W,1.89,189.36,250711,,,A*75
$GPRMC,202443.000,A,3748.6373,N,12217.6783,W,1.59,185.68,250711,,,A*74
$GPRMC,202444.000,A,3748.6365,N,12217.6782,W,1.43,173.26,250711,,,A*7D
$GPRMC,202445.000,A,3748.6359,N,12217.6787,W,0.88,199.96,250711,,,A*7F
$GPRMC,202446.000,A,3748.6356,N,12217.6793,W,0.83,221.82,250711,,,A*78
$GPRMC,202447.000,A,3748.6349,N,12217.6797,W,1.91,196.70,250711,,,A*73
$GPRMC,202448.000,A,3748.6342,N,12217.6807,W,2.27,212.65,250711,,,A*74
$GPRMC,202449.000,A,3748.6336,N,12217.6817,W,2.02,229.48,250711,,,A*77
$GPRMC,202450.000,A,3748.6330,N,12217.6826,W,2.20,207.01,250711,,,A*7A
$GPRMC,202451.000,A,3748.6321,N,12217.6833,W,2.36,206.01,250711,,,A*79
$GPRMC,202452.000,A,3748.6315,N,12217.6839,W,1.94,198.19,250711,,,A*71
