$ADVER,3080,2.3
$GPRMC,235752.056,A,3748.8006,N,12217.8647,W,0.36,140.10,310311,,,A*77
$GPGGA,235753.055,3748.8006,N,12217.8649,W,1,04,3.2,-7.5,M,-25.1,M,,0000*48
$GPGSA,A,3,16,23,13,07,,,,,,,,,6.6,3.2,5.8*3D
$GPRMC,235753.055,A,3748.8006,N,12217.8649,W,0.09,102.18,310311,,,A*79
$GPVTG,102.18,T,,M,0.09,N,0.2,K,A*0C
$GPGGA,235754.055,3748.8006,N,12217.8650,W,1,04,3.2,-6.9,M,-25.1,M,,0000*4A
$GPGSA,A,3,16,23,13,07,,,,,,,,,6.6,3.2,5.8*3D
$GPRMC,235754.055,A,3748.8006,N,12217.8650,W,0.12,73.65,310311,,,A*41
$GPVTG,73.65,T,,M,0.12,N,0.2,K,A*3B
$GPGGA,235755.000,3748.8006,N,12217.8652,W,1,04,3.2,-6.8,M,-25.1,M,,0000*48
$GPGSA,A,3,16,23,13,07,,,,,,,,,6.6,3.2,5.8*3D
$GPRMC,235755.000,A,3748.8006,N,12217.8652,W,0.13,101.92,310311,,,A*7F
$GPVTG,101.92,T,,M,0.13,N,0.2,K,A*06
$GPGGA,235756.000,3748.8007,N,12217.8653,W,1,04,3.2,-6.9,M,-25.1,M,,0000*4A
$GPGSA,A,3,16,23,13,07,,,,,,,,,6.6,3.2,5.8*3D
$GPGSV,3,1,12,23,70,041,34,13,52,320,39,16,46,069,31,07,32,251,40*7E
$GPGSV,3,2,12,20,48,181,38,30,30,050,28,32,28,158,37,10,18,316,35*70
$GPGSV,3,3,12,04,13,282,32,03,09,119,30,06,08,104,22,08,06,240,*76
$GPRMC,235756.000,A,3748.8007,N,12217.8653,W,0.13,77.06,310311,,,A*41
$GPVTG,77.06,T,,M,0.13,N,0.2,K,A*3B
$GPGGA,235757.000,3748.8003,N,12217.8653,W,1,05,1.8,-5.3,M,-25.1,M,,0000*4F
$GPGSA,A,3,16,23,13,07,10,,,,,,,,3.3,1.8,2.8*33
$GPRMC,235757.000,A,3748.8003,N,12217.8653,W,0.16,115.11,310311,,,A*72
$GPVTG,115.11,T,,M,0.16,N,0.3,K,A*0C
$GPGGA,235758.000,3748.8003,N,12217.8653,W,1,05,1.8,-4.8,M,-25.1,M,,0000*4A
$GPGSA,A,3,16,23,13,07,10,,,,,,,,3.3,1.8,2.8*33
$GPRMC,235758.000,A,3748.8003,N,12217.8653,W,0.12,98.42,310311,,,A*4B
$GPVTG,98.42,T,,M,0.12,N,0.2,K,A*3B
$GPGGA,235759.000,3748.8002,N,12217.8653,W,1,05,1.8,-4.6,M,-25.1,M,,0000*44
$GPGSA,A,3,16,23,13,07,10,,,,,,,,3.3,1.8,2.8*33
$GPRMC,235759.000,A,3748.8002,N,12217.8653,W,0.11,98.90,310311,,,A*47
$GPVTG,98.90,T,,M,0.11,N,0.2,K,A*37
$GPGGA,235800.000,3748.8002,N,12217.8653,W,1,05,1.8,-4.6,M,-25.1,M,,0000*47
$GPGSA,A,3,16,23,13,07,10,,,,,,,,3.3,1.8,2.8*33
$GPRMC,235800.000,A,3748.8002,N,12217.8653,W,0.25,85.19,310311,,,A*4E
$GPVTG,85.19,T,,M,0.25,N,0.5,K,A*3A
$GPGGA,235801.000,3748.8002,N,12217.8652,W,1,05,1.8,-4.4,M,-25.1,M,,0000*45
$GPGSA,A,3,16,23,13,07,10,,,,,,,,3.3,1.8,2.8*33
$GPGSV,3,1,12,23,70,041,27,13,52,320,39,20,48,181,38,16,46,069,31*75
$GPGSV,3,2,12,07,32,251,35,30,30,050,28,32,28,158,37,10,18,316,35*7B
$GPGSV,3,3,12,04,13,282,31,03,09,119,23,06,08,104,11,08,06,240,*77
$GPRMC,235801.000,A,3748.8002,N,12217.8652,W,0.16,121.82,310311,,,A*73
$GPVTG,121.82,T,,M,0.16,N,0.3,K,A*01
$GPGGA,235802.000,3748.8002,N,12217.8652,W,1,05,1.8,-4.3,M,-25.1,M,,0000*41
$GPGSA,A,3,16,23,13,07,10,,,,,,,,3.3,1.8,2.8*33
$GPRMC,235802.000,A,3748.8002,N,12217.8652,W,0.13,104.43,310311,,,A*7F
$GPVTG,104.43,T,,M,0.13,N,0.2,K,A*0F
$GPGGA,235803.000,3748.8009,N,12217.8656,W,1,08,1.2,-3.2,M,-25.1,M,,0000*4E
$GPGSA,A,3,16,23,13,07,10,20,04,32,,,,,2.3,1.2,2.0*37
$GPRMC,235803.000,A,3748.8009,N,12217.8656,W,0.07,102.45,310311,,,A*74
$GPVTG,102.45,T,,M,0.07,N,0.1,K,A*09
$GPGGA,235804.000,3748.8012,N,12217.8658,W,1,08,1.2,-2.4,M,-25.1,M,,0000*4A
$GPGSA,A,3,16,23,13,07,10,20,04,32,,,,,2.3,1.2,2.0*37
$GPRMC,235804.000,A,3748.8012,N,12217.8658,W,0.05,108.75,310311,,,A*7C
$GPVTG,108.75,T,,M,0.05,N,0.1,K,A*02
$GPGGA,235805.000,3748.8013,N,12217.8660,W,1,08,1.2,-1.8,M,-25.1,M,,0000*4E
$GPGSA,A,3,16,23,13,07,10,20,04,32,,,,,2.3,1.2,2.0*37
$GPRMC,235805.000,A,3748.8013,N,12217.8660,W,0.04,120.14,310311,,,A*7B
$GPVTG,120.14,T,,M,0.04,N,0.1,K,A*0E
$GPGGA,235806.000,3748.8014,N,12217.8662,W,1,08,1.2,-1.4,M,-25.1,M,,0000*44
$GPGSA,A,3,16,23,13,07,10,20,04,32,,,,,2.3,1.2,2.0*37
$GPGSV,3,1,12,23,70,041,39,13,52,320,35,20,48,181,35,16,46,069,31*7B
$GPGSV,3,2,12,07,32,251,36,30,30,050,34,32,28,158,37,10,18,316,35*75
$GPRMC,235806.000,A,3748.8014,N,12217.8662,W,0.20,250.15,310311,,,A*7E
$GPVTG,250.15,T,,M,0.20,N,0.4,K,A*08
$GPGGA,235807.000,3748.8012,N,12217.8663,W,1,08,1.2,-0.1,M,-25.1,M,,0000*46
$GPGSA,A,3,16,23,13,07,10,20,04,32,,,,,2.3,1.2,2.0*37
$GPRMC,235807.000,A,3748.8012,N,12217.8663,W,0.21,49.49,310311,,,A*4A
$GPVTG,49.49,T,,M,0.21,N,0.4,K,A*3A
$GPGGA,235808.000,3748.8007,N,12217.8665,W,1,08,1.2,0.4,M,-25.1,M,,0000*63
$GPGSA,A,3,16,23,13,07,10,20,04,32,,,,,2.3,1.2,2.0*37
$GPRMC,235808.000,A,3748.8007,N,12217.8665,W,1.59,203.26,310311,,,A*7C
$GPVTG,203.26,T,,M,1.59,N,2.9,K,A*0E
$GPGGA,235809.000,3748.8004,N,12217.8666,W,1,08,1.2,1.8,M,-25.1,M,,0000*6F
$GPGSA,A,3,16,23,13,07,10,20,04,32,,,,,2.3,1.2,2.0*37
$GPRMC,235809.000,A,3748.8004,N,12217.8666,W,0.10,256.41,310311,,,A*70
$GPVTG,256.41,T,,M,0.10,N,0.2,K,A*0A
$GPGGA,235810.000,3748.8004,N,12217.8667,W,1,08,1.2,2.6,M,-25.1,M,,0000*6B
$GPGSA,A,3,16,23,13,07,10,20,04,32,,,,,2.3,1.2,2.0*37
$GPRMC,235810.000,A,3748.8004,N,12217.8667,W,0.11,75.87,310311,,,A*41
$GPVTG,75.87,T,,M,0.11,N,0.2,K,A*32
$GPGGA,235811.000,3748.8003,N,12217.8667,W,1,08,1.2,3.2,M,-25.1,M,,0000*68
$GPGSA,A,3,16,23,13,07,10,20,04,32,,,,,2.3,1.2,2.0*37
$GPGSV,3,1,12,23,70,041,31,13,52,320,25,20,48,181,36,16,46,069,23*72
$GPGSV,3,2,12,07,32,251,37,30,30,050,29,32,28,158,31,10,18,316,30*7B
$GPGSV,3,3,12,04,13,282,27,03,10,119,26,06,08,104,24,08,06,240,*7B
$GPRMC,235811.000,A,3748.8003,N,12217.8667,W,0.30,33.52,310311,,,A*4E
$GPVTG,33.52,T,,M,0.30,N,0.6,K,A*3F
$GPGGA,235812.000,3748.8004,N,12217.8668,W,1,08,1.2,3.9,M,-25.1,M,,0000*68
$GPGSA,A,3,16,23,13,07,10,20,04,32,,,,,2.3,1.2,2.0*37
$GPRMC,235812.000,A,3748.8004,N,12217.8668,W,0.05,76.17,310311,,,A*43
$GPVTG,76.17,T,,M,0.05,N,0.1,K,A*3E
$GPGGA,235813.000,3748.8003,N,12217.8668,W,1,08,1.2,4.1,M,-25.1,M,,0000*61
$GPGSA,A,3,16,23,13,07,10,20,04,32,,,,,2.3,1.2,2.0*37
$GPRMC,235813.000,A,3748.8003,N,12217.8668,W,0.18,73.84,310311,,,A*46
$GPVTG,73.84,T,,M,0.18,N,0.3,K,A*3F
$GPGGA,235814.000,3748.8003,N,12217.8667,W,1,08,1.2,4.4,M,-25.1,M,,0000*6C
$GPGSA,A,3,16,23,13,07,10,20,04,32,,,,,2.3,1.2,2.0*37
$GPRMC,235814.000,A,3748.8003,N,12217.8667,W,0.15,200.62,310311,,,A*7D
$GPVTG,200.62,T,,M,0.15,N,0.3,K,A*0C
$GPGGA,235815.000,3748.8003,N,12217.8668,W,1,08,1.2,4.9,M,-25.1,M,,0000*6F
$GPGSA,A,3,16,23,13,07,10,20,04,32,,,,,2.3,1.2,2.0*37
$GPRMC,235815.000,A,3748.8003,N,12217.8668,W,0.12,234.82,310311,,,A*7D
$GPVTG,234.82,T,,M,0.12,N,0.2,K,A*03
$GPGGA,235816.000,3748.8003,N,12217.8668,W,1,08,1.2,5.3,M,-25.1,M,,0000*67
$GPGSA,A,3,16,23,13,07,10,20,04,32,,,,,2.3,1.2,2.0*37
$GPGSV,3,1,12,23,70,041,30,13,52,320,31,20,48,181,36,16,46,069,21*74
$GPGSV,3,2,12,07,32,251,38,30,30,050,,32,28,158,30,10,18,316,33*7D
$GPGSV,3,3,12,04,13,282,34,03,10,119,18,06,08,104,23,08,06,240,*73
$GPRMC,235816.000,A,3748.8003,N,12217.8668,W,0.18,100.19,310311,,,A*72
$GPVTG,100.19,T,,M,0.18,N,0.3,K,A*0E
$GPGGA,235817.000,3748.8003,N,12217.8668,W,1,08,1.2,5.6,M,-25.1,M,,0000*63
$GPGSA,A,3,16,23,13,07,10,20,04,32,,,,,2.3,1.2,2.0*37
$GPRMC,235817.000,A,3748.8003,N,12217.8668,W,0.12,61.37,310311,,,A*43
$GPVTG,61.37,T,,M,0.12,N,0.2,K,A*3F
$GPGGA,235818.000,3748.8003,N,12217.8668,W,1,08,1.2,5.9,M,-25.1,M,,0000*63
$GPGSA,A,3,16,23,13,07,10,20,04,32,,,,,2.3,1.2,2.0*37
$GPRMC,235818.000,A,3748.8003,N,12217.8668,W,0.20,316.48,310311,,,A*76
$GPVTG,316.48,T,,M,0.20,N,0.4,K,A*03
$GPGGA,235819.000,3748.8003,N,12217.8668,W,1,08,1.2,6.4,M,-25.1,M,,0000*6C
$GPGSA,A,3,16,23,13,07,10,20,04,32,,,,,2.3,1.2,2.0*37
$GPRMC,235819.000,A,3748.8003,N,12217.8668,W,0.48,21.86,310311,,,A*4C
$GPVTG,21.86,T,,M,0.48,N,0.9,K,A*35
$GPGGA,235820.000,3748.8001,N,12217.8670,W,1,08,1.2,7.1,M,-25.1,M,,0000*69
$GPGSA,A,3,16,23,13,07,10,20,04,32,,,,,2.3,1.2,2.0*37
$GPRMC,235820.000,A,3748.8001,N,12217.8670,W,0.58,182.07,310311,,,A*7D
$GPVTG,182.07,T,,M,0.58,N,1.1,K,A*0C
$GPGGA,235821.000,3748.8001,N,12217.8670,W,1,08,1.2,7.4,M,-25.1,M,,0000*6D
$GPGSA,A,3,16,23,13,07,10,20,04,32,,,,,2.3,1.2,2.0*37
$GPGSV,3,1,12,23,70,041,31,13,52,320,33,20,48,181,37,16,46,069,31*77
$GPGSV,3,2,12,07,32,251,39,30,30,050,25,32,28,158,36,10,18,316,32*7C
$GPGSV,3,3,12,04,13,282,34,03,10,119,28,06,08,104,23,08,06,240,*70
$GPRMC,235821.000,A,3748.8001,N,12217.8670,W,0.49,39.24,310311,,,A*4C
$GPVTG,39.24,T,,M,0.49,N,0.9,K,A*35
$GPGGA,235822.000,3748.8000,N,12217.8670,W,1,08,1.2,7.3,M,-25.1,M,,0000*68
$GPGSA,A,3,16,23,13,07,10,20,04,32,,,,,2.3,1.2,2.0*37
$GPRMC,235822.000,A,3748.8000,N,12217.8670,W,0.86,121.81,310311,,,A*7A
$GPVTG,121.81,T,,M,0.86,N,1.6,K,A*0F
$GPGGA,235823.000,3748.7999,N,12217.8670,W,1,08,1.2,7.3,M,-25.1,M,,0000*6F
$GPGSA,A,3,16,23,13,07,10,20,04,32,,,,,2.3,1.2,2.0*37
$GPRMC,235823.000,A,3748.7999,N,12217.8670,W,0.26,242.09,310311,,,A*71
$GPVTG,242.09,T,,M,0.26,N,0.5,K,A*01
$GPGGA,235824.000,3748.7998,N,12217.8671,W,1,08,1.2,7.3,M,-25.1,M,,0000*68
$GPGSA,A,3,16,23,13,07,10,20,04,32,,,,,2.3,1.2,2.0*37
$GPRMC,235824.000,A,3748.7998,N,12217.8671,W,0.19,177.77,310311,,,A*76
$GPVTG,177.77,T,,M,0.19,N,0.3,K,A*07
$GPGGA,235825.000,3748.7997,N,12217.8673,W,1,08,1.2,7.5,M,-25.1,M,,0000*62
$GPGSA,A,3,16,23,13,07,10,20,04,32,,,,,2.3,1.2,2.0*37
$GPRMC,235825.000,A,3748.7997,N,12217.8673,W,0.08,222.81,310311,,,A*70
$GPVTG,222.81,T,,M,0.08,N,0.1,K,A*0F
$GPGGA,235826.000,3748.7995,N,12217.8674,W,1,08,1.2,7.7,M,-25.1,M,,0000*66
$GPGSA,A,3,16,23,13,07,10,20,04,32,,,,,2.3,1.2,2.0*37
$GPGSV,3,1,12,23,70,041,25,13,52,320,34,20,48,181,37,16,46,069,21*74
$GPGSV,3,2,12,07,32,251,39,30,30,050,23,32,28,158,36,10,18,316,32*7A
$GPGSV,3,3,12,04,13,282,27,03,10,119,18,06,08,104,24,08,06,240,*76
$GPVTG,93.90,T,,M,0.27,N,0.5,K,A*3E
$GPGGA,235827.000,3748.7994,N,12217.8675,W,1,08,1.2,7.6,M,-25.1,M,,0000*66
$GPGSA,A,3,16,23,13,07,10,20,04,32,,,,,2.3,1.2,2.0*37
$GPRMC,235827.000,A,3748.7994,N,12217.8675,W,0.17,168.67,310311,,,A*7C
$GPVTG,168.67,T,,M,0.17,N,0.3,K,A*06
$GPGGA,235828.000,3748.7992,N,12217.8676,W,1,08,1.2,7.6,M,-25.1,M,,0000*6C
$GPGSA,A,3,16,23,13,07,10,20,04,32,,,,,2.3,1.2,2.0*37
$GPRMC,235828.000,A,3748.7992,N,12217.8676,W,0.13,85.32,310311,,,A*40
$GPVTG,85.32,T,,M,0.13,N,0.2,K,A*31
$GPGGA,235829.000,3748.7992,N,12217.8676,W,1,08,1.2,7.4,M,-25.1,M,,0000*6F
$GPGSA,A,3,16,23,13,07,10,20,04,32,,,,,2.3,1.2,2.0*37
$GPRMC,235829.000,A,3748.7992,N,12217.8676,W,0.14,109.25,310311,,,A*75
$GPVTG,109.25,T,,M,0.14,N,0.3,K,A*04
$GPGGA,235830.000,3748.7991,N,12217.8677,W,1,08,1.2,7.4,M,-25.1,M,,0000*65
$GPGSA,A,3,16,23,13,07,10,20,04,32,,,,,2.3,1.2,2.0*37
$GPRMC,235830.000,A,3748.7991,N,12217.8677,W,0.39,66.32,310311,,,A*4E
$GPVTG,66.32,T,,M,0.39,N,0.7,K,A*31
$GPGGA,235831.000,3748.7991,N,12217.8678,W,1,08,1.2,7.7,M,-25.1,M,,0000*68
$GPGSA,A,3,16,23,13,07,10,20,04,32,,,,,2.3,1.2,2.0*37
$GPGSV,3,1,12,23,70,041,24,13,52,320,33,20,48,181,35,16,46,069,26*77
$GPGSV,3,2,12,07,32,251,40,30,30,050,31,32,28,158,37,10,18,316,15*73
$GPGSV,3,3,12,04,13,282,29,03,10,119,31,06,08,104,24,08,06,240,*73
$GPRMC,235831.000,A,3748.7991,N,12217.8678,W,0.14,19.43,310311,,,A*41
$GPVTG,19.43,T,,M,0.14,N,0.3,K,A*34
$GPGGA,235832.000,3748.7990,N,12217.8681,W,1,08,1.2,8.0,M,-25.1,M,,0000*64
$GPGSA,A,3,16,23,13,07,10,20,04,32,,,,,2.3,1.2,2.0*37
$GPRMC,235832.000,A,3748.7990,N,12217.8681,W,0.13,5.92,310311,,,A*73
$GPVTG,5.92,T,,M,0.13,N,0.2,K,A*03
$GPGGA,235833.000,3748.7992,N,12217.8679,W,1,08,1.2,8.0,M,-25.1,M,,0000*60
$GPGSA,A,3,16,23,13,07,10,20,04,32,,,,,2.3,1.2,2.0*37
$GPRMC,235833.000,A,3748.7992,N,12217.8679,W,0.49,14.32,310311,,,A*42
$GPVTG,14.32,T,,M,0.49,N,0.9,K,A*3D
$GPGGA,235834.000,3748.7995,N,12217.8675,W,1,07,1.4,7.7,M,-25.1,M,,0000*6D
$GPGSA,A,3,16,23,13,10,20,04,32,,,,,,2.5,1.4,2.1*31
$GPRMC,235834.000,A,3748.7995,N,12217.8675,W,0.52,31.76,310311,,,A*43
$GPVTG,31.76,T,,M,0.52,N,1.0,K,A*38
$GPGGA,235835.000,3748.8000,N,12217.8671,W,1,08,1.2,7.9,M,-25.1,M,,0000*65
$GPGSA,A,3,16,23,13,07,10,20,04,32,,,,,2.3,1.2,2.0*37
$GPRMC,235835.000,A,3748.8000,N,12217.8671,W,0.73,55.77,310311,,,A*4C
$GPVTG,55.77,T,,M,0.73,N,1.4,K,A*3C
$GPGGA,235836.000,3748.8002,N,12217.8664,W,1,08,1.2,7.6,M,-25.1,M,,0000*6F
$GPGSA,A,3,16,23,13,07,10,20,04,32,,,,,2.3,1.2,2.0*37
$GPGSV,3,1,12,23,70,041,28,13,52,320,25,20,48,181,29,16,46,069,34*72
$GPGSV,3,2,12,07,32,251,24,30,30,050,30,32,28,158,33,10,18,316,18*79
$GPGSV,3,3,12,04,13,282,19,03,10,119,34,06,08,104,24,08,06,240,*75
$GPRMC,235836.000,A,3748.8002,N,12217.8664,W,0.82,90.47,310311,,,A*4D
$GPVTG,90.47,T,,M,0.82,N,1.5,K,A*39
$GPGGA,235837.000,3748.8005,N,12217.8653,W,1,08,1.2,6.4,M,-25.1,M,,0000*6E
$GPGSA,A,3,16,23,13,07,10,20,04,32,,,,,2.3,1.2,2.0*37
$GPRMC,235837.000,A,3748.8005,N,12217.8653,W,0.75,112.78,310311,,,A*70
$GPVTG,112.78,T,,M,0.75,N,1.4,K,A*07
$GPGGA,235838.000,3748.8008,N,12217.8643,W,1,08,1.2,5.6,M,-25.1,M,,0000*6C
$GPGSA,A,3,16,23,13,07,10,20,04,32,,,,,2.3,1.2,2.0*37
$GPRMC,235838.000,A,3748.8008,N,12217.8643,W,0.75,79.34,310311,,,A*47
$GPVTG,79.34,T,,M,0.75,N,1.4,K,A*33
$GPGGA,235839.000,3748.8012,N,12217.8637,W,1,08,1.2,5.1,M,-25.1,M,,0000*62
$GPGSA,A,3,16,23,13,07,10,20,04,32,,,,,2.3,1.2,2.0*37
$GPRMC,235839.000,A,3748.8012,N,12217.8637,W,0.58,88.33,310311,,,A*48
$GPVTG,88.33,T,,M,0.58,N,1.1,K,A*30
$GPGGA,235840.000,3748.8016,N,12217.8632,W,1,08,1.2,4.6,M,-25.1,M,,0000*6B
$GPGSA,A,3,16,23,13,07,10,20,04,32,,,,,2.3,1.2,2.0*37
$GPRMC,235840.000,A,3748.8016,N,12217.8632,W,0.28,73.74,310311,,,A*47
$GPVTG,73.74,T,,M,0.28,N,0.5,K,A*35
$GPGGA,235841.000,3748.8022,N,12217.8619,W,1,08,1.1,3.9,M,-25.1,M,,0000*6F
$GPGSA,A,3,16,23,13,07,10,20,04,32,,,,,2.3,1.1,2.0*34
$GPGSV,3,1,12,23,70,041,29,13,52,320,25,20,48,181,28,16,46,069,35*73
$GPGSV,3,2,12,07,32,251,26,30,30,050,34,32,28,158,33,10,18,316,25*71
$GPGSV,3,3,12,04,13,282,18,03,10,119,36,06,08,104,24,08,06,240,*76
$GPVTG,58.47,T,,M,0.32,N,0.6,K,A*34
$GPGGA,235842.000,3748.8028,N,12217.8609,W,1,08,1.1,3.3,M,-25.1,M,,0000*6D
$GPGSA,A,3,16,23,13,07,10,20,04,32,,,,,2.3,1.1,2.0*34
$GPRMC,235842.000,A,3748.8028,N,12217.8609,W,0.31,53.69,310311,,,A*46
$GPVTG,53.69,T,,M,0.31,N,0.6,K,A*30
$GPGGA,235843.000,3748.8031,N,12217.8602,W,1,08,1.1,2.1,M,-25.1,M,,0000*6C
$GPGSA,A,3,16,23,13,07,10,20,04,32,,,,,2.3,1.1,2.0*34
$GPRMC,235843.000,A,3748.8031,N,12217.8602,W,0.21,52.74,310311,,,A*48
$GPVTG,52.74,T,,M,0.21,N,0.4,K,A*3E
$GPGGA,235844.000,3748.8034,N,12217.8596,W,1,08,1.1,1.1,M,-25.1,M,,0000*63
$GPGSA,A,3,16,23,13,07,10,20,04,32,,,,,2.3,1.1,2.0*34
$GPRMC,235844.000,A,3748.8034,N,12217.8596,W,0.17,37.68,310311,,,A*4F
$GPVTG,37.68,T,,M,0.17,N,0.3,K,A*32
$GPGGA,235845.000,3748.8037,N,12217.8590,W,1,08,1.1,0.2,M,-25.1,M,,0000*65
$GPGSA,A,3,16,23,13,07,10,20,04,32,,,,,2.3,1.1,2.0*34
$GPRMC,235845.000,A,3748.8037,N,12217.8590,W,0.15,20.83,310311,,,A*4A
$GPVTG,20.83,T,,M,0.15,N,0.3,K,A*33
$GPGGA,235846.000,3748.8040,N,12217.8585,W,1,08,1.1,-0.7,M,-25.1,M,,0000*4A
$GPGSA,A,3,16,23,13,07,10,20,04,32,,,,,2.3,1.1,2.0*34
$GPGSV,3,1,12,23,70,042,29,13,53,320,27,20,47,181,29,16,46,068,36*7F
$GPGSV,3,2,12,07,32,251,25,30,30,050,35,32,28,158,33,10,19,316,25*72
$GPGSV,3,3,12,04,13,281,17,03,10,119,35,06,08,104,25,08,06,240,*78
$GPRMC,235846.000,A,3748.8040,N,12217.8585,W,0.19,29.00,310311,,,A*43
$GPVTG,29.00,T,,M,0.19,N,0.4,K,A*3A
$GPGGA,235847.000,3748.8043,N,12217.8580,W,1,08,1.1,-1.5,M,-25.1,M,,0000*4E
$GPGSA,A,3,16,23,13,07,10,20,04,32,,,,,2.3,1.1,2.0*34
$GPRMC,235847.000,A,3748.8043,N,12217.8580,W,0.19,47.98,310311,,,A*4D
$GPVTG,47.98,T,,M,0.19,N,0.4,K,A*33
$GPGGA,235848.000,3748.8045,N,12217.8576,W,1,08,1.1,-2.2,M,-25.1,M,,0000*4A
$GPGSA,A,3,16,23,13,07,10,20,04,32,,,,,2.3,1.1,2.0*34
$GPRMC,235848.000,A,3748.8045,N,12217.8576,W,0.20,45.50,310311,,,A*41
$GPVTG,45.50,T,,M,0.20,N,0.4,K,A*3F
$GPGGA,235849.000,3748.8047,N,12217.8573,W,1,08,1.1,-2.7,M,-25.1,M,,0000*49
$GPGSA,A,3,16,23,13,07,10,20,04,32,,,,,2.3,1.1,2.0*34
$GPRMC,235849.000,A,3748.8047,N,12217.8573,W,0.23,78.94,310311,,,A*42
$GPVTG,78.94,T,,M,0.23,N,0.4,K,A*3A
$GPGGA,235850.000,3748.8049,N,12217.8570,W,1,08,1.1,-3.1,M,-25.1,M,,0000*4B
$GPGSA,A,3,16,23,13,07,10,20,04,32,,,,,2.3,1.1,2.0*34
$GPRMC,235850.000,A,3748.8049,N,12217.8570,W,0.20,62.23,310311,,,A*43
$GPVTG,62.23,T,,M,0.20,N,0.4,K,A*3E
$GPGGA,235851.000,3748.8049,N,12217.8568,W,1,08,1.1,-3.0,M,-25.1,M,,0000*42
$GPGSA,A,3,16,23,13,07,10,20,04,32,,,,,2.3,1.1,2.0*34
$GPGSV,3,1,12,23,70,042,30,13,53,320,27,20,47,181,25,16,46,068,37*7A
$GPGSV,3,2,12,07,32,251,22,30,30,050,29,32,28,158,33,10,19,316,25*78
$GPGSV,3,3,12,04,13,281,15,03,10,119,34,06,08,104,25,08,06,240,*7B
$GPRMC,235851.000,A,3748.8049,N,12217.8568,W,0.16,254.63,310311,,,A*7D
$GPVTG,254.63,T,,M,0.16,N,0.3,K,A*0F
$GPGGA,235852.000,3748.8048,N,12217.8568,W,1,08,1.1,-2.9,M,-25.1,M,,0000*48
$GPGSA,A,3,16,23,13,07,10,20,04,32,,,,,2.3,1.1,2.0*34
$GPRMC,235852.000,A,3748.8048,N,12217.8568,W,0.34,237.05,310311,,,A*7A
$GPVTG,237.05,T,,M,0.34,N,0.6,K,A*0F
$GPGGA,235853.000,3748.8048,N,12217.8568,W,1,08,1.1,-2.8,M,-25.1,M,,0000*48
$GPGSA,A,3,16,23,13,07,10,20,04,32,,,,,2.3,1.1,2.0*34
$GPRMC,235853.000,A,3748.8048,N,12217.8568,W,0.19,240.29,310311,,,A*7A
$GPVTG,240.29,T,,M,0.19,N,0.4,K,A*0C
$GPGGA,235854.000,3748.8048,N,12217.8567,W,1,08,1.1,-3.0,M,-25.1,M,,0000*49
$GPGSA,A,3,16,23,13,07,10,20,04,32,,,,,2.3,1.1,2.0*34
$GPRMC,235854.000,A,3748.8048,N,12217.8567,W,0.30,8.54,310311,,,A*7D
$GPVTG,8.54,T,,M,0.30,N,0.5,K,A*02
$GPGGA,235855.000,3748.8049,N,12217.8565,W,1,08,1.1,-2.9,M,-25.1,M,,0000*43
$GPGSA,A,3,16,23,13,07,10,20,04,32,,,,,2.3,1.1,2.0*34
$GPRMC,235855.000,A,3748.8049,N,12217.8565,W,0.14,38.46,310311,,,A*49
$GPVTG,38.46,T,,M,0.14,N,0.3,K,A*32
$GPGGA,235856.000,3748.8044,N,12217.8569,W,1,08,1.1,-0.8,M,-25.1,M,,0000*42
$GPGSA,A,3,16,23,13,07,10,20,04,32,,,,,2.3,1.1,2.0*34
$GPGSV,3,1,12,23,70,042,30,13,53,320,27,20,47,181,28,16,46,068,37*77
$GPGSV,3,2,12,07,32,251,28,30,30,050,33,32,28,158,33,10,19,316,24*78
$GPGSV,3,3,12,04,13,281,16,03,10,119,35,06,08,104,26,08,06,240,*7A
$GPRMC,235856.000,A,3748.8044,N,12217.8569,W,0.31,97.94,310311,,,A*46
$GPVTG,97.94,T,,M,0.31,N,0.6,K,A*3A
$GPGGA,235857.000,3748.8044,N,12217.8568,W,1,08,1.1,-0.3,M,-25.1,M,,0000*49
$GPGSA,A,3,16,23,13,07,10,20,04,32,,,,,2.3,1.1,2.0*34
$GPRMC,235857.000,A,3748.8044,N,12217.8568,W,0.40,117.62,310311,,,A*70
$GPVTG,117.62,T,,M,0.40,N,0.7,K,A*0D
$GPGGA,235858.000,3748.8043,N,12217.8566,W,1,07,1.3,0.3,M,-25.1,M,,0000*6F
$GPGSA,A,3,16,23,13,07,10,04,32,,,,,,2.5,1.3,2.1*33
$GPRMC,235858.000,A,3748.8043,N,12217.8566,W,0.50,127.65,310311,,,A*73
$GPVTG,127.65,T,,M,0.50,N,0.9,K,A*06
$GPGGA,235859.000,3748.8042,N,12217.8564,W,1,08,1.1,0.5,M,-25.1,M,,0000*66
$GPGSA,A,3,16,23,13,07,10,20,04,32,,,,,2.3,1.1,2.0*34
$GPRMC,235859.000,A,3748.8042,N,12217.8564,W,0.32,146.12,310311,,,A*72
$GPVTG,146.12,T,,M,0.32,N,0.6,K,A*0A
$GPGGA,235900.000,3748.8041,N,12217.8563,W,1,08,1.1,0.9,M,-25.1,M,,0000*63
$GPGSA,A,3,16,23,13,07,10,20,04,32,,,,,2.3,1.1,2.0*34
$GPRMC,235900.000,A,3748.8041,N,12217.8563,W,0.26,126.71,310311,,,A*7D
$GPVTG,126.71,T,,M,0.26,N,0.5,K,A*0F
$GPGGA,235901.000,3748.8041,N,12217.8561,W,1,08,1.1,1.2,M,-25.1,M,,0000*6A
$GPGSA,A,3,16,23,13,07,10,20,04,32,,,,,2.3,1.1,2.0*34
$GPGSV,3,1,12,23,70,042,31,13,53,320,27,20,47,181,24,16,46,068,37*7A
$GPGSV,3,2,12,07,32,251,30,30,30,050,26,32,28,158,33,10,19,316,20*71
$GPGSV,3,3,12,04,13,281,25,03,10,119,36,06,08,104,26,08,06,240,*79
$GPRMC,235901.000,A,3748.8041,N,12217.8561,W,0.09,42.29,310311,,,A*4D
$GPGGA,235902.000,3748.8041,N,12217.8562,W,1,08,1.1,1.7,M,-25.1,M,,0000*6F
$GPGSA,A,3,16,23,13,07,10,20,04,32,,,,,2.3,1.1,2.0*34
$GPRMC,235902.000,A,3748.8041,N,12217.8562,W,0.12,26.62,310311,,,A*4A
$GPVTG,26.62,T,,M,0.12,N,0.2,K,A*3C
$GPGGA,235903.000,3748.8029,N,12217.8572,W,1,07,1.3,3.7,M,-25.1,M,,0000*6E
$GPGSA,A,3,16,23,13,07,20,04,32,,,,,,2.6,1.3,2.3*31
$GPRMC,235903.000,A,3748.8029,N,12217.8572,W,0.78,190.44,310311,,,A*70
$GPVTG,190.44,T,,M,0.78,N,1.4,K,A*0F
$GPGGA,235904.000,3748.8026,N,12217.8579,W,1,07,1.3,5.9,M,-25.1,M,,0000*65
$GPGSA,A,3,16,23,13,07,20,04,32,,,,,,2.6,1.3,2.3*31
$GPRMC,235904.000,A,3748.8026,N,12217.8579,W,0.43,201.54,310311,,,A*71
$GPVTG,201.54,T,,M,0.43,N,0.8,K,A*00
$GPGGA,235905.000,3748.8022,N,12217.8585,W,1,07,1.3,5.3,M,-25.1,M,,0000*69
$GPGSA,A,3,16,23,13,07,20,04,32,,,,,,2.6,1.3,2.3*31
$GPRMC,235905.000,A,3748.8022,N,12217.8585,W,0.28,172.13,310311,,,A*7E
$GPVTG,172.13,T,,M,0.28,N,0.5,K,A*04
$GPGGA,235906.000,3748.8015,N,12217.8584,W,1,07,1.4,6.0,M,-25.1,M,,0000*68
$GPGSA,A,3,16,23,13,10,20,04,32,,,,,,2.5,1.4,2.1*31
$GPGSV,3,1,12,23,70,042,27,13,53,320,24,20,47,181,28,16,46,068,29*7D
$GPGSV,3,2,12,07,32,251,24,30,30,050,27,32,28,158,34,10,19,316,14*75
$GPGSV,3,3,12,04,13,281,21,03,10,119,33,06,08,104,23,08,06,240,*7D
$GPRMC,235906.000,A,3748.8015,N,12217.8584,W,0.67,84.15,310311,,,A*4D
$GPVTG,84.15,T,,M,0.67,N,1.2,K,A*37
$GPGGA,235907.000,3748.8015,N,12217.8583,W,1,08,1.1,7.2,M,-25.1,M,,0000*67
$GPGSA,A,3,16,23,13,07,10,20,04,32,,,,,2.3,1.1,2.0*34
$GPRMC,235907.000,A,3748.8015,N,12217.8583,W,0.07,239.37,310311,,,A*79
$GPVTG,239.37,T,,M,0.07,N,0.1,K,A*07
$GPGGA,235908.000,3748.8014,N,12217.8586,W,1,08,1.1,8.1,M,-25.1,M,,0000*60
$GPGSA,A,3,16,23,13,07,10,20,04,32,,,,,2.3,1.1,2.0*34
$GPRMC,235908.000,A,3748.8014,N,12217.8586,W,0.87,129.45,310311,,,A*7D
$GPVTG,129.45,T,,M,0.87,N,1.6,K,A*0E
$GPGGA,235909.000,3748.8014,N,12217.8587,W,1,08,1.1,8.7,M,-25.1,M,,0000*66
$GPGSA,A,3,16,23,13,07,10,20,04,32,,,,,2.3,1.1,2.0*34
$GPRMC,235909.000,A,3748.8014,N,12217.8587,W,0.92,131.18,310311,,,A*78
$GPVTG,131.18,T,,M,0.92,N,1.7,K,A*0A
$GPGGA,235910.000,3748.8012,N,12217.8581,W,1,08,1.1,9.6,M,-25.1,M,,0000*6E
$GPGSA,A,3,16,23,13,07,10,20,04,32,,,,,2.3,1.1,2.0*34
$GPRMC,235910.000,A,3748.8012,N,12217.8581,W,1.33,117.94,310311,,,A*7A
$GPVTG,117.94,T,,M,1.33,N,2.5,K,A*01
$GPGGA,235911.000,3748.8007,N,12217.8574,W,1,08,1.1,8.0,M,-25.1,M,,0000*66
$GPGSA,A,3,16,23,13,07,10,20,04,32,,,,,2.3,1.1,2.0*34
$GPGSV,3,1,12,23,70,042,27,13,53,320,23,20,47,181,35,16,46,068,28*77
$GPGSV,3,2,12,07,32,251,21,30,30,050,25,32,28,158,30,10,19,316,21*70
$GPGSV,3,3,12,04,13,281,22,03,10,119,36,06,08,104,22,08,06,240,*7A
$GPRMC,235911.000,A,3748.8007,N,12217.8574,W,1.95,97.50,310311,,,A*48
$GPVTG,97.50,T,,M,1.95,N,3.6,K,A*3E
$GPGGA,235912.000,3748.8004,N,12217.8577,W,1,08,1.1,9.3,M,-25.1,M,,0000*67
$GPGSA,A,3,16,23,13,07,10,20,04,32,,,,,2.3,1.1,2.0*34
$GPRMC,235912.000,A,3748.8004,N,12217.8577,W,1.38,103.58,310311,,,A*78
$GPVTG,103.58,T,,M,1.38,N,2.6,K,A*0C
$GPGGA,235913.000,3748.8001,N,12217.8579,W,1,08,1.1,10.9,M,-25.1,M,,0000*5F
$GPGSA,A,3,16,23,13,07,10,20,04,32,,,,,2.3,1.1,2.0*34
$GPRMC,235913.000,A,3748.8001,N,12217.8579,W,1.78,118.16,310311,,,A*76
$GPVTG,118.16,T,,M,1.78,N,3.3,K,A*0C
$GPGGA,235914.000,3748.7998,N,12217.8579,W,1,08,1.1,11.6,M,-25.1,M,,0000*50
$GPGSA,A,3,16,23,13,07,10,20,04,32,,,,,2.3,1.1,2.0*34
$GPRMC,235914.000,A,3748.7998,N,12217.8579,W,1.92,123.02,310311,,,A*7E
$GPVTG,123.02,T,,M,1.92,N,3.6,K,A*00
$GPGGA,235915.000,3748.7996,N,12217.8578,W,1,08,1.1,12.2,M,-25.1,M,,0000*59
$GPGSA,A,3,16,23,13,07,10,20,04,32,,,,,2.3,1.1,2.0*34
$GPRMC,235915.000,A,3748.7996,N,12217.8578,W,1.76,120.57,310311,,,A*79
$GPVTG,120.57,T,,M,1.76,N,3.3,K,A*0C
$GPGGA,235916.000,3748.7991,N,12217.8577,W,1,08,1.1,13.2,M,-25.1,M,,0000*53
$GPGSA,A,3,16,23,13,07,10,20,04,32,,,,,2.3,1.1,2.0*34
$GPGSV,3,1,12,23,70,042,28,13,53,320,24,20,47,181,36,16,46,068,29*7D
$GPGSV,3,2,12,07,32,251,33,30,30,050,19,32,28,158,36,10,19,316,21*7A
$GPRMC,235916.000,A,3748.7991,N,12217.8577,W,1.74,130.42,310311,,,A*75
$GPVTG,130.42,T,,M,1.74,N,3.2,K,A*0A
$GPGGA,235917.000,3748.7987,N,12217.8575,W,1,08,1.1,13.7,M,-25.1,M,,0000*52
$GPGSA,A,3,16,23,13,07,10,20,04,32,,,,,2.3,1.1,2.0*34
$GPRMC,235917.000,A,3748.7987,N,12217.8575,W,2.03,132.87,310311,,,A*79
$GPVTG,132.87,T,,M,2.03,N,3.8,K,A*08
$GPGGA,235918.000,3748.7984,N,12217.8573,W,1,08,1.1,13.8,M,-25.1,M,,0000*57
$GPGSA,A,3,16,23,13,07,10,20,04,32,,,,,2.3,1.1,2.0*34
$GPRMC,235918.000,A,3748.7984,N,12217.8573,W,1.94,131.96,310311,,,A*7D
$GPVTG,131.96,T,,M,1.94,N,3.6,K,A*08
$GPGGA,235919.000,3748.7980,N,12217.8570,W,1,08,1.1,14.1,M,-25.1,M,,0000*5F
$GPGSA,A,3,16,23,13,07,10,20,04,32,,,,,2.3,1.1,2.0*34
$GPRMC,235919.000,A,3748.7980,N,12217.8570,W,2.01,128.84,310311,,,A*7F
$GPVTG,128.84,T,,M,2.01,N,3.7,K,A*0D
$GPGGA,235920.000,3748.7977,N,12217.8566,W,1,08,1.1,14.1,M,-25.1,M,,0000*5A
$GPGSA,A,3,16,23,13,07,10,20,04,32,,,,,2.3,1.1,2.0*34
$GPRMC,235920.000,A,3748.7977,N,12217.8566,W,1.52,127.14,310311,,,A*79
$GPVTG,127.14,T,,M,1.52,N,2.8,K,A*00
$GPGGA,235921.000,3748.7974,N,12217.8562,W,1,08,1.1,14.6,M,-25.1,M,,0000*5B
$GPGSA,A,3,16,23,13,07,10,20,04,32,,,,,2.3,1.1,2.0*34
$GPGSV,3,1,12,23,70,042,28,13,53,320,24,20,47,181,36,16,46,068,28*7C
$GPGSV,3,2,12,07,32,251,30,30,30,050,22,32,28,158,39,10,19,316,21*7E
$GPGSV,3,3,12,04,13,281,21,03,10,119,33,06,08,104,22,08,06,240,*7C
$GPRMC,235921.000,A,3748.7974,N,12217.8562,W,1.80,135.22,310311,,,A*76
$GPVTG,135.22,T,,M,1.80,N,3.3,K,A*03
$GPGGA,235922.000,3748.7971,N,12217.8557,W,1,08,1.1,14.9,M,-25.1,M,,0000*54
$GPGSA,A,3,16,23,13,07,10,20,04,32,,,,,2.3,1.1,2.0*34
$GPRMC,235922.000,A,3748.7971,N,12217.8557,W,1.71,131.20,310311,,,A*7E
$GPVTG,131.20,T,,M,1.71,N,3.2,K,A*0A
$GPGGA,235923.000,3748.7969,N,12217.8553,W,1,08,1.1,15.4,M,-25.1,M,,0000*54
$GPGSA,A,3,16,23,13,07,10,20,04,32,,,,,2.3,1.1,2.0*34
$GPRMC,235923.000,A,3748.7969,N,12217.8553,W,1.53,113.04,310311,,,A*74
$GPVTG,113.04,T,,M,1.53,N,2.8,K,A*07
$GPGGA,235924.000,3748.7969,N,12217.8548,W,1,08,1.1,15.8,M,-25.1,M,,0000*55
$GPGSA,A,3,16,23,13,07,10,20,04,32,,,,,2.3,1.1,2.0*34
$GPRMC,235924.000,A,3748.7969,N,12217.8548,W,1.36,103.55,310311,,,A*7F
$GPVTG,103.55,T,,M,1.36,N,2.5,K,A*0C
$GPGGA,235925.000,3748.7967,N,12217.8542,W,1,08,1.1,14.8,M,-25.1,M,,0000*51
$GPGSA,A,3,16,23,13,07,10,20,04,32,,,,,2.3,1.1,2.0*34
$GPRMC,235925.000,A,3748.7967,N,12217.8542,W,1.46,107.69,310311,,,A*76
$GPVTG,107.69,T,,M,1.46,N,2.7,K,A*02
$GPGGA,235926.000,3748.7966,N,12217.8537,W,1,08,1.1,14.8,M,-25.1,M,,0000*51
$GPGSA,A,3,16,23,13,07,10,20,04,32,,,,,2.3,1.1,2.0*34
$GPGSV,3,1,12,23,70,042,29,13,53,320,23,20,47,181,36,16,46,068,28*7A
$GPGSV,3,2,12,07,32,251,32,30,30,050,22,32,28,158,34,10,19,316,20*70
$GPGSV,3,3,12,04,13,281,25,03,10,119,32,06,08,104,23,08,06,240,*78
$GPRMC,235926.000,A,3748.7966,N,12217.8537,W,1.48,110.10,310311,,,A*70
$GPVTG,110.10,T,,M,1.48,N,2.7,K,A*04
$GPGGA,235927.000,3748.7965,N,12217.8532,W,1,08,1.1,15.2,M,-25.1,M,,0000*5D
$GPGSA,A,3,16,23,13,07,10,20,04,32,,,,,2.3,1.1,2.0*34
$GPRMC,235927.000,A,3748.7965,N,12217.8532,W,1.45,104.84,310311,,,A*72
$GPVTG,104.84,T,,M,1.45,N,2.7,K,A*01
$GPGGA,235928.000,3748.7964,N,12217.8527,W,1,08,1.1,15.6,M,-25.1,M,,0000*53
$GPGSA,A,3,16,23,13,07,10,20,04,32,,,,,2.3,1.1,2.0*34
$GPRMC,235928.000,A,3748.7964,N,12217.8527,W,1.65,113.64,310311,,,A*72
$GPVTG,113.64,T,,M,1.65,N,3.1,K,A*0C
$GPGGA,235929.000,3748.7963,N,12217.8523,W,1,08,1.1,16.0,M,-25.1,M,,0000*54
$GPGSA,A,3,16,23,13,07,10,20,04,32,,,,,2.3,1.1,2.0*34
$GPRMC,235929.000,A,3748.7963,N,12217.8523,W,0.67,101.28,310311,,,A*78
$GPVTG,101.28,T,,M,0.67,N,1.2,K,A*05
$GPGGA,235930.000,3748.7961,N,12217.8522,W,1,08,1.1,14.9,M,-25.1,M,,0000*54
$GPGSA,A,3,16,23,13,07,10,20,04,32,,,,,2.3,1.1,2.0*34
$GPRMC,235930.000,A,3748.7961,N,12217.8522,W,0.16,130.66,310311,,,A*7D
$GPVTG,130.66,T,,M,0.16,N,0.3,K,A*0B
$GPGGA,235931.000,3748.7960,N,12217.8520,W,1,08,1.1,14.1,M,-25.1,M,,0000*5E
$GPGSA,A,3,16,23,13,07,10,20,04,32,,,,,2.3,1.1,2.0*34
$GPGSV,3,1,12,23,70,042,28,13,53,320,24,20,47,181,36,16,46,068,28*7C
$GPGSV,3,2,12,07,32,251,32,30,30,050,16,32,28,158,28,10,19,316,21*7B
$GPGSV,3,3,12,04,13,281,26,03,10,119,22,06,08,104,18,08,06,240,*72
$GPRMC,235931.000,A,3748.7960,N,12217.8520,W,0.34,153.69,310311,,,A*75
$GPVTG,153.69,T,,M,0.34,N,0.6,K,A*04
$GPGGA,235932.000,3748.7959,N,12217.8519,W,1,08,1.1,13.2,M,-25.1,M,,0000*59
$GPGSA,A,3,16,23,13,07,10,20,04,32,,,,,2.3,1.1,2.0*34
$GPRMC,235932.000,A,3748.7959,N,12217.8519,W,0.18,129.75,310311,,,A*78
$GPVTG,129.75,T,,M,0.18,N,0.3,K,A*0F
$GPGGA,235933.000,3748.7958,N,12217.8517,W,1,08,1.1,12.2,M,-25.1,M,,0000*56
$GPGSA,A,3,16,23,13,07,10,20,04,32,,,,,2.3,1.1,2.0*34
$GPRMC,235933.000,A,3748.7958,N,12217.8517,W,0.24,88.26,310311,,,A*45
$GPVTG,88.26,T,,M,0.24,N,0.4,K,A*3B
$GPGGA,235934.000,3748.7956,N,12217.8516,W,1,08,1.1,11.4,M,-25.1,M,,0000*5B
$GPGSA,A,3,16,23,13,07,10,20,04,32,,,,,2.3,1.1,2.0*34
$GPRMC,235934.000,A,3748.7956,N,12217.8516,W,0.87,127.73,310311,,,A*70
$GPVTG,127.73,T,,M,0.87,N,1.6,K,A*05
$GPGGA,235935.000,3748.7955,N,12217.8512,W,1,08,1.1,10.1,M,-25.1,M,,0000*59
$GPGSA,A,3,16,23,13,07,10,20,04,32,,,,,2.3,1.1,2.0*34
$GPRMC,235935.000,A,3748.7955,N,12217.8512,W,1.67,124.65,310311,,,A*7D
$GPVTG,124.65,T,,M,1.67,N,3.1,K,A*0B
$GPGGA,235936.000,3748.7954,N,12217.8505,W,1,08,1.1,8.7,M,-25.1,M,,0000*62
$GPGSA,A,3,16,23,13,07,10,20,04,32,,,,,2.3,1.1,2.0*34
$GPGSV,3,1,12,23,70,042,28,13,53,320,23,20,47,181,25,16,46,068,28*79
$GPGSV,3,2,12,07,32,251,23,30,30,050,15,32,28,158,28,10,19,316,22*7B
$GPGSV,3,3,12,04,13,281,26,03,10,119,26,06,08,104,17,08,06,240,*79
$GPVTG,114.17,T,,M,2.07,N,3.8,K,A*01
$GPGGA,235937.000,3748.7951,N,12217.8499,W,1,07,1.5,7.5,M,-25.1,M,,0000*64
$GPGSA,A,3,23,13,07,10,20,04,32,,,,,,2.6,1.5,2.1*33
$GPRMC,235937.000,A,3748.7951,N,12217.8499,W,1.93,118.20,310311,,,A*7C
$GPVTG,118.20,T,,M,1.93,N,3.6,K,A*09
$GPGGA,235938.000,3748.7944,N,12217.8492,W,1,07,1.5,7.5,M,-25.1,M,,0000*64
$GPGSA,A,3,23,13,07,10,20,04,32,,,,,,2.6,1.5,2.1*33
$GPRMC,235938.000,A,3748.7944,N,12217.8492,W,2.51,127.22,310311,,,A*7F
$GPVTG,127.22,T,,M,2.51,N,4.7,K,A*0C
$GPGGA,235939.000,3748.7940,N,12217.8490,W,1,08,1.1,8.3,M,-25.1,M,,0000*61
$GPGSA,A,3,16,23,13,07,10,20,04,32,,,,,2.3,1.1,2.0*34
$GPRMC,235939.000,A,3748.7940,N,12217.8490,W,1.56,101.36,310311,,,A*7D
$GPVTG,101.36,T,,M,1.56,N,2.9,K,A*01
$GPGGA,235940.000,3748.7937,N,12217.8489,W,1,08,1.1,9.2,M,-25.1,M,,0000*67
$GPGSA,A,3,16,23,13,07,10,20,04,32,,,,,2.3,1.1,2.0*34
$GPRMC,235940.000,A,3748.7937,N,12217.8489,W,1.42,100.76,310311,,,A*7B
$GPVTG,100.76,T,,M,1.42,N,2.6,K,A*0E
$GPGGA,235941.000,3748.7936,N,12217.8485,W,1,08,1.1,9.7,M,-25.1,M,,0000*6E
$GPGSA,A,3,16,23,13,07,10,20,04,32,,,,,2.3,1.1,2.0*34
$GPGSV,3,1,12,23,70,042,26,13,53,320,28,20,47,181,33,16,46,068,31*73
$GPGSV,3,2,12,07,32,251,31,30,30,050,26,32,28,158,32,10,19,316,21*70
$GPGSV,3,3,12,04,13,281,26,03,10,119,36,06,08,104,17,08,06,240,*78
$GPRMC,235941.000,A,3748.7936,N,12217.8485,W,1.42,104.92,310311,,,A*79
$GPVTG,104.92,T,,M,1.42,N,2.6,K,A*00
$GPGGA,235942.000,3748.7935,N,12217.8483,W,1,08,1.1,9.9,M,-25.1,M,,0000*66
$GPGSA,A,3,16,23,13,07,10,20,04,32,,,,,2.3,1.1,2.0*34
$GPRMC,235942.000,A,3748.7935,N,12217.8483,W,1.06,112.00,310311,,,A*73
$GPVTG,112.00,T,,M,1.06,N,2.0,K,A*0A
$GPGGA,235943.000,3748.7933,N,12217.8477,W,1,08,1.1,9.6,M,-25.1,M,,0000*65
$GPGSA,A,3,16,23,13,07,10,20,04,32,,,,,2.3,1.1,2.0*34
$GPRMC,235943.000,A,3748.7933,N,12217.8477,W,1.48,109.51,310311,,,A*7B
$GPVTG,109.51,T,,M,1.48,N,2.7,K,A*09
$GPGGA,235944.000,3748.7931,N,12217.8471,W,1,08,1.1,9.3,M,-25.1,M,,0000*63
$GPGSA,A,3,16,23,13,07,10,20,04,32,,,,,2.3,1.1,2.0*34
$GPRMC,235944.000,A,3748.7931,N,12217.8471,W,1.59,111.60,310311,,,A*73
$GPVTG,111.60,T,,M,1.59,N,2.9,K,A*0C
$GPGGA,235945.000,3748.7928,N,12217.8464,W,1,08,1.1,9.3,M,-25.1,M,,0000*6E
$GPGSA,A,3,16,23,13,07,10,20,04,32,,,,,2.3,1.1,2.0*34
$GPRMC,235945.000,A,3748.7928,N,12217.8464,W,1.87,112.40,310311,,,A*7C
$GPVTG,112.40,T,,M,1.87,N,3.5,K,A*03
$GPGGA,235946.000,3748.7925,N,12217.8458,W,1,08,1.1,9.5,M,-25.1,M,,0000*69
$GPGSA,A,3,16,23,13,07,10,20,04,32,,,,,2.3,1.1,2.0*34
$GPGSV,3,1,12,23,70,042,27,13,53,320,26,20,47,181,39,16,46,068,30*77
$GPGSV,3,2,12,07,32,251,32,30,30,050,22,32,28,158,36,10,19,316,21*73
$GPGSV,3,3,12,04,13,281,24,03,10,119,32,06,08,104,17,08,06,240,*7E
$GPRMC,235946.000,A,3748.7925,N,12217.8458,W,2.05,114.58,310311,,,A*7B
$GPVTG,114.58,T,,M,2.05,N,3.8,K,A*08
$GPGGA,235947.000,3748.7922,N,12217.8451,W,1,08,1.1,9.6,M,-25.1,M,,0000*65
$GPGSA,A,3,16,23,13,07,10,20,04,32,,,,,2.3,1.1,2.0*34
$GPRMC,235947.000,A,3748.7922,N,12217.8451,W,2.01,112.05,310311,,,A*7E
$GPVTG,112.05,T,,M,2.01,N,3.7,K,A*0D
$GPGGA,235948.000,3748.7919,N,12217.8444,W,1,08,1.1,9.9,M,-25.1,M,,0000*69
$GPGSA,A,3,16,23,13,07,10,20,04,32,,,,,2.3,1.1,2.0*34
$GPRMC,235948.000,A,3748.7919,N,12217.8444,W,2.20,115.27,310311,,,A*79
$GPVTG,115.27,T,,M,2.20,N,4.1,K,A*08
$GPGGA,235949.000,3748.7918,N,12217.8435,W,1,08,1.1,10.2,M,-25.1,M,,0000*5C
$GPGSA,A,3,16,23,13,07,10,20,04,32,,,,,2.3,1.1,2.0*34
$GPRMC,235949.000,A,3748.7918,N,12217.8435,W,2.02,113.10,310311,,,A*7D
$GPVTG,113.10,T,,M,2.02,N,3.7,K,A*0B
$GPGGA,235950.000,3748.7916,N,12217.8430,W,1,08,1.1,10.7,M,-25.1,M,,0000*5A
$GPGSA,A,3,16,23,13,07,10,20,04,32,,,,,2.3,1.1,2.0*34
$GPRMC,235950.000,A,3748.7916,N,12217.8430,W,1.89,125.54,310311,,,A*7B
$GPVTG,125.54,T,,M,1.89,N,3.5,K,A*0C
$GPGGA,235951.000,3748.7913,N,12217.8424,W,1,08,1.1,11.3,M,-25.1,M,,0000*5E
$GPGSA,A,3,16,23,13,07,10,20,04,32,,,,,2.3,1.1,2.0*34
$GPGSV,3,1,12,23,70,042,28,13,53,320,26,20,47,181,32,16,46,068,29*7B
$GPGSV,3,2,12,07,32,251,33,30,30,050,24,32,28,158,33,10,19,316,21*71
$GPGSV,3,3,12,04,13,281,32,03,10,119,32,06,08,104,18,08,06,240,*76
$GPRMC,235951.000,A,3748.7913,N,12217.8424,W,1.80,120.98,310311,,,A*76
$GPVTG,120.98,T,,M,1.80,N,3.3,K,A*06
$GPGGA,235952.000,3748.7909,N,12217.8419,W,1,08,1.1,11.9,M,-25.1,M,,0000*52
$GPGSA,A,3,16,23,13,07,10,20,04,32,,,,,2.3,1.1,2.0*34
$GPRMC,235952.000,A,3748.7909,N,12217.8419,W,2.05,124.92,310311,,,A*70
$GPVTG,124.92,T,,M,2.05,N,3.8,K,A*0D
$GPGGA,235953.000,3748.7905,N,12217.8414,W,1,08,1.1,12.7,M,-25.1,M,,0000*5F
$GPGSA,A,3,16,23,13,07,10,20,04,32,,,,,2.3,1.1,2.0*34
$GPRMC,235953.000,A,3748.7905,N,12217.8414,W,2.10,120.54,310311,,,A*7A
$GPVTG,120.54,T,,M,2.10,N,3.9,K,A*06
$GPGGA,235954.000,3748.7902,N,12217.8408,W,1,08,1.1,13.3,M,-25.1,M,,0000*57
$GPGSA,A,3,16,23,13,07,10,20,04,32,,,,,2.3,1.1,2.0*34
$GPRMC,235954.000,A,3748.7902,N,12217.8408,W,1.98,116.31,310311,,,A*72
$GPVTG,116.31,T,,M,1.98,N,3.7,K,A*0D
$GPGGA,235955.000,3748.7899,N,12217.8403,W,1,08,1.1,14.1,M,-25.1,M,,0000*5B
$GPGSA,A,3,16,23,13,07,10,20,04,32,,,,,2.3,1.1,2.0*34
$GPRMC,235955.000,A,3748.7899,N,12217.8403,W,1.93,115.22,310311,,,A*71
$GPVTG,115.22,T,,M,1.93,N,3.6,K,A*06
$GPGGA,235956.000,3748.7895,N,12217.8398,W,1,08,1.1,14.5,M,-25.1,M,,0000*55
$GPGSA,A,3,16,23,13,07,10,20,04,32,,,,,2.3,1.1,2.0*34
$GPGSV,3,1,12,23,70,042,28,13,53,320,25,20,47,181,37,16,46,068,29*7D
$GPGSV,3,2,12,07,32,251,34,30,30,050,23,32,28,158,35,10,19,316,20*76
$GPGSV,3,3,12,04,13,281,25,03,10,119,31,06,08,104,23,08,06,240,*7B
$GPRMC,235956.000,A,3748.7895,N,12217.8398,W,1.85,115.92,310311,,,A*77
$GPGGA,235957.000,3748.7892,N,12217.8392,W,1,08,1.1,14.8,M,-25.1,M,,0000*54
$GPGSA,A,3,16,23,13,07,10,20,04,32,,,,,2.3,1.1,2.0*34
$GPRMC,235957.000,A,3748.7892,N,12217.8392,W,1.66,120.30,310311,,,A*78
$GPVTG,120.30,T,,M,1.66,N,3.1,K,A*0E
$GPGGA,235958.000,3748.7889,N,12217.8387,W,1,08,1.1,15.1,M,-25.1,M,,0000*5D
$GPGSA,A,3,16,23,13,07,10,20,04,32,,,,,2.3,1.1,2.0*34
$GPRMC,235958.000,A,3748.7889,N,12217.8387,W,1.79,118.66,310311,,,A*7F
$GPVTG,118.66,T,,M,1.79,N,3.3,K,A*0A
$GPGGA,235959.000,3748.7885,N,12217.8381,W,1,08,1.1,15.6,M,-25.1,M,,0000*51
$GPGSA,A,3,16,23,13,07,10,20,04,32,,,,,2.3,1.1,2.0*34
$GPRMC,235959.000,A,3748.7885,N,12217.8381,W,2.15,123.08,310311,,,A*7D
$GPVTG,123.08,T,,M,2.15,N,4.0,K,A*07
$GPGGA,000000.000,3748.7883,N,12217.8371,W,1,08,1.1,13.6,M,-25.1,M,,0000*5F
$GPGSA,A,3,16,23,13,07,10,20,04,32,,,,,2.3,1.1,2.0*34
$GPRMC,000000.000,A,3748.7883,N,12217.8371,W,1.99,119.77,010411,,,A*77
$GPVTG,119.77,T,,M,1.99,N,3.7,K,A*01
$GPGGA,000001.000,3748.7879,N,12217.8364,W,1,08,1.1,12.7,M,-25.1,M,,0000*5F
$GPGSA,A,3,16,23,13,07,10,20,04,32,,,,,2.3,1.1,2.0*34
$GPGSV,3,1,12,23,70,042,28,13,53,320,26,20,47,181,35,16,46,068,28*7D
$GPGSV,3,2,12,07,32,251,35,30,30,050,23,32,28,158,33,10,19,316,21*70
$GPGSV,3,3,12,04,13,281,32,03,10,119,32,06,08,104,11,08,06,240,*7F
$GPRMC,000001.000,A,3748.7879,N,12217.8364,W,2.21,110.95,010411,,,A*72
$GPVTG,110.95,T,,M,2.21,N,4.1,K,A*05
$GPGGA,000002.000,3748.7876,N,12217.8359,W,1,08,1.1,12.9,M,-25.1,M,,0000*53
$GPGSA,A,3,16,23,13,07,10,20,04,32,,,,,2.3,1.1,2.0*34
$GPRMC,000002.000,A,3748.7876,N,12217.8359,W,1.83,127.81,010411,,,A*7A
$GPVTG,127.81,T,,M,1.83,N,3.4,K,A*0D
$GPGGA,000003.000,3748.7873,N,12217.8350,W,1,09,1.0,12.4,M,-25.1,M,,0000*53
$GPGSA,A,3,16,23,13,07,10,20,04,32,03,,,,1.7,1.0,1.4*36
$GPRMC,000003.000,A,3748.7873,N,12217.8350,W,2.32,117.75,010411,,,A*76
$GPVTG,117.75,T,,M,2.32,N,4.3,K,A*0C
$GPGGA,000004.000,3748.7871,N,12217.8341,W,1,09,1.0,11.4,M,-25.1,M,,0000*55
$GPGSA,A,3,16,23,13,07,10,20,04,32,03,,,,1.7,1.0,1.4*36
$GPRMC,000004.000,A,3748.7871,N,12217.8341,W,1.72,108.53,010411,,,A*7E
$GPVTG,108.53,T,,M,1.72,N,3.2,K,A*07
$GPGGA,000005.000,3748.7870,N,12217.8334,W,1,09,1.0,10.6,M,-25.1,M,,0000*54
$GPGSA,A,3,16,23,13,07,10,20,04,32,03,,,,1.7,1.0,1.4*36
$GPRMC,000005.000,A,3748.7870,N,12217.8334,W,1.91,115.48,010411,,,A*77
$GPVTG,115.48,T,,M,1.91,N,3.5,K,A*0B
$GPGGA,000006.000,3748.7868,N,12217.8326,W,1,09,1.0,10.3,M,-25.1,M,,0000*58
$GPGSA,A,3,16,23,13,07,10,20,04,32,03,,,,1.7,1.0,1.4*36
$GPGSV,3,1,12,23,70,044,28,13,53,321,26,20,47,181,37,16,46,067,29*76
$GPGSV,3,2,12,07,33,252,34,30,30,049,23,32,27,158,30,10,19,316,22*74
$GPGSV,3,3,12,04,12,281,29,03,10,118,33,06,08,103,18,08,07,241,*7A
$GPRMC,000006.000,A,3748.7868,N,12217.8326,W,2.08,103.67,010411,,,A*77
$GPVTG,103.67,T,,M,2.08,N,3.9,K,A*0E
$GPGGA,000007.000,3748.7867,N,12217.8318,W,1,09,1.0,9.9,M,-25.1,M,,0000*69
$GPGSA,A,3,16,23,13,07,10,20,04,32,03,,,,1.7,1.0,1.4*36
$GPRMC,000007.000,A,3748.7867,N,12217.8318,W,2.14,106.44,010411,,,A*7D
$GPVTG,106.44,T,,M,2.14,N,4.0,K,A*09
$GPGGA,000008.000,3748.7865,N,12217.8310,W,1,09,1.0,9.6,M,-25.1,M,,0000*63
$GPGSA,A,3,16,23,13,07,10,20,04,32,03,,,,1.7,1.0,1.4*36
$GPRMC,000008.000,A,3748.7865,N,12217.8310,W,1.95,108.16,010411,,,A*7B
$GPVTG,108.16,T,,M,1.95,N,3.6,K,A*0B
$GPGGA,000009.000,3748.7863,N,12217.8303,W,1,09,1.0,9.3,M,-25.1,M,,0000*63
$GPGSA,A,3,16,23,13,07,10,20,04,32,03,,,,1.7,1.0,1.4*36
$GPRMC,000009.000,A,3748.7863,N,12217.8303,W,2.07,119.08,010411,,,A*79
$GPVTG,119.08,T,,M,2.07,N,3.8,K,A*02
$GPGGA,000010.000,3748.7860,N,12217.8297,W,1,09,1.0,8.8,M,-25.1,M,,0000*6E
$GPGSA,A,3,16,23,13,07,10,20,04,32,03,,,,1.7,1.0,1.4*36
$GPRMC,000010.000,A,3748.7860,N,12217.8297,W,2.07,122.48,010411,,,A*72
$GPVTG,122.48,T,,M,2.07,N,3.8,K,A*0E
$GPGGA,000011.000,3748.7858,N,12217.8290,W,1,09,1.0,8.4,M,-25.1,M,,0000*6F
$GPGSA,A,3,16,23,13,07,10,20,04,32,03,,,,1.7,1.0,1.4*36
$GPGSV,3,1,12,23,70,044,28,13,53,321,26,20,47,181,37,16,46,067,32*7C
$GPGSV,3,2,12,07,33,252,32,30,30,049,23,32,27,158,34,10,19,316,23*77
$GPGSV,3,3,12,04,12,281,25,03,10,118,33,06,08,103,18,08,07,241,*76
$GPRMC,000011.000,A,3748.7858,N,12217.8290,W,1.98,118.52,010411,,,A*78
$GPVTG,118.52,T,,M,1.98,N,3.7,K,A*06
$GPGGA,000012.000,3748.7855,N,12217.8283,W,1,09,1.0,8.1,M,-25.1,M,,0000*66
$GPGSA,A,3,16,23,13,07,10,20,04,32,03,,,,1.7,1.0,1.4*36
$GPRMC,000012.000,A,3748.7855,N,12217.8283,W,1.88,111.54,010411,,,A*7A
$GPVTG,111.54,T,,M,1.88,N,3.5,K,A*0A
$GPGGA,000013.000,3748.7853,N,12217.8277,W,1,09,1.0,8.4,M,-25.1,M,,0000*6F
$GPGSA,A,3,16,23,13,07,10,20,04,32,03,,,,1.7,1.0,1.4*36
$GPRMC,000013.000,A,3748.7853,N,12217.8277,W,2.05,123.54,010411,,,A*71
$GPVTG,123.54,T,,M,2.05,N,3.8,K,A*00
$GPGGA,000014.000,3748.7849,N,12217.8271,W,1,09,1.0,7.9,M,-25.1,M,,0000*67
$GPGSA,A,3,16,23,13,07,10,20,04,32,03,,,,1.7,1.0,1.4*36
$GPRMC,000014.000,A,3748.7849,N,12217.8271,W,1.72,117.97,010411,,,A*70
$GPVTG,117.97,T,,M,1.72,N,3.2,K,A*01
$GPGGA,000015.000,3748.7848,N,12217.8264,W,1,09,1.0,7.8,M,-25.1,M,,0000*62
$GPGSA,A,3,16,23,13,07,10,20,04,32,03,,,,1.7,1.0,1.4*36
$GPRMC,000015.000,A,3748.7848,N,12217.8264,W,1.97,107.32,010411,,,A*71
$GPVTG,107.32,T,,M,1.97,N,3.6,K,A*00
$GPGGA,000016.000,3748.7845,N,12217.8257,W,1,09,1.0,7.4,M,-25.1,M,,0000*60
$GPGSA,A,3,16,23,13,07,10,20,04,32,03,,,,1.7,1.0,1.4*36
$GPGSV,3,1,12,23,70,044,28,13,53,321,26,20,47,181,38,16,46,067,28*78
$GPGSV,3,2,12,07,33,252,36,30,30,049,23,32,27,158,34,10,19,316,22*72
$GPGSV,3,3,12,04,12,281,27,03,10,118,32,06,08,103,19,08,07,241,*74
$GPVTG,116.11,T,,M,1.84,N,3.4,K,A*01
$GPGGA,000017.000,3748.7842,N,12217.8252,W,1,09,1.0,7.1,M,-25.1,M,,0000*66
$GPGSA,A,3,16,23,13,07,10,20,04,32,03,,,,1.7,1.0,1.4*36
$GPRMC,000017.000,A,3748.7842,N,12217.8252,W,1.81,113.62,010411,,,A*7B
$GPVTG,113.62,T,,M,1.81,N,3.4,K,A*05
$GPGGA,000018.000,3748.7838,N,12217.8245,W,1,09,1.0,6.2,M,-25.1,M,,0000*60
$GPGSA,A,3,16,23,13,07,10,20,04,32,03,,,,1.7,1.0,1.4*36
$GPRMC,000018.000,A,3748.7838,N,12217.8245,W,1.95,115.42,010411,,,A*7E
$GPVTG,115.42,T,,M,1.95,N,3.6,K,A*06
$GPGGA,000019.000,3748.7834,N,12217.8239,W,1,09,1.0,5.4,M,-25.1,M,,0000*63
$GPGSA,A,3,16,23,13,07,10,20,04,32,03,,,,1.7,1.0,1.4*36
$GPRMC,000019.000,A,3748.7834,N,12217.8239,W,1.77,122.08,010411,,,A*7E
$GPVTG,122.08,T,,M,1.77,N,3.3,K,A*05
$GPGGA,000020.000,3748.7830,N,12217.8234,W,1,09,1.0,4.8,M,-25.1,M,,0000*6D
$GPGSA,A,3,16,23,13,07,10,20,04,32,03,,,,1.7,1.0,1.4*36
$GPRMC,000020.000,A,3748.7830,N,12217.8234,W,2.08,126.82,010411,,,A*70
$GPVTG,126.82,T,,M,2.08,N,3.8,K,A*03
$GPGGA,000021.000,3748.7826,N,12217.8227,W,1,09,1.0,4.2,M,-25.1,M,,0000*63
$GPGSA,A,3,16,23,13,07,10,20,04,32,03,,,,1.7,1.0,1.4*36
$GPGSV,3,1,12,23,70,044,28,13,53,321,26,20,47,181,38,16,46,067,27*77
$GPGSV,3,2,12,07,33,252,31,30,30,049,23,32,27,158,35,10,19,316,22*74
$GPGSV,3,3,12,04,12,281,29,03,10,118,32,06,08,103,19,08,07,241,*7A
$GPRMC,000021.000,A,3748.7826,N,12217.8227,W,1.91,120.47,010411,,,A*78
$GPVTG,120.47,T,,M,1.91,N,3.5,K,A*02
$GPGGA,000022.000,3748.7823,N,12217.8222,W,1,09,1.0,3.4,M,-25.1,M,,0000*61
$GPGSA,A,3,16,23,13,07,10,20,04,32,03,,,,1.7,1.0,1.4*36
$GPRMC,000022.000,A,3748.7823,N,12217.8222,W,1.68,109.31,010411,,,A*77
$GPVTG,109.31,T,,M,1.68,N,3.1,K,A*0A
$GPGGA,000023.000,3748.7819,N,12217.8216,W,1,09,1.0,2.4,M,-25.1,M,,0000*6F
$GPGSA,A,3,16,23,13,07,10,20,04,32,03,,,,1.7,1.0,1.4*36
$GPRMC,000023.000,A,3748.7819,N,12217.8216,W,1.56,110.46,010411,,,A*7D
$GPVTG,110.46,T,,M,1.56,N,2.9,K,A*06
$GPGGA,000024.000,3748.7816,N,12217.8211,W,1,09,1.0,1.6,M,-25.1,M,,0000*61
$GPGSA,A,3,16,23,13,07,10,20,04,32,03,,,,1.7,1.0,1.4*36
$GPRMC,000024.000,A,3748.7816,N,12217.8211,W,1.69,117.53,010411,,,A*7D
$GPVTG,117.53,T,,M,1.69,N,3.1,K,A*00
$GPGGA,000025.000,3748.7812,N,12217.8205,W,1,09,1.0,1.1,M,-25.1,M,,0000*66
$GPGSA,A,3,16,23,13,07,10,20,04,32,03,,,,1.7,1.0,1.4*36
$GPRMC,000025.000,A,3748.7812,N,12217.8205,W,2.13,129.73,010411,,,A*7C
$GPVTG,129.73,T,,M,2.13,N,3.9,K,A*09
$GPGGA,000026.000,3748.7807,N,12217.8199,W,1,09,1.0,0.7,M,-25.1,M,,0000*60
$GPGSA,A,3,16,23,13,07,10,20,04,32,03,,,,1.7,1.0,1.4*36
$GPGSV,3,1,12,23,70,044,28,13,53,321,26,20,47,181,38,16,46,067,27*77
$GPGSV,3,2,12,07,33,252,34,30,30,049,25,32,27,158,36,10,19,316,22*74
$GPGSV,3,3,12,04,12,281,28,03,10,118,32,06,08,103,19,08,07,241,*7B
$GPRMC,000026.000,A,3748.7807,N,12217.8199,W,1.96,124.98,010411,,,A*7B
$GPVTG,124.98,T,,M,1.96,N,3.6,K,A*00
$GPGGA,000027.000,3748.7804,N,12217.8193,W,1,09,1.0,0.3,M,-25.1,M,,0000*6C
$GPGSA,A,3,16,23,13,07,10,20,04,32,03,,,,1.7,1.0,1.4*36
$GPRMC,000027.000,A,3748.7804,N,12217.8193,W,1.83,122.22,010411,,,A*70
$GPVTG,122.22,T,,M,1.83,N,3.4,K,A*01
$GPGGA,000028.000,3748.7800,N,12217.8188,W,1,09,1.0,-0.1,M,-25.1,M,,0000*42
$GPGSA,A,3,16,23,13,07,10,20,04,32,03,,,,1.7,1.0,1.4*36
$GPRMC,000028.000,A,3748.7800,N,12217.8188,W,1.78,115.82,010411,,,A*7B
$GPVTG,115.82,T,,M,1.78,N,3.3,K,A*0C
$GPGGA,000029.000,3748.7798,N,12217.8181,W,1,09,1.0,-0.2,M,-25.1,M,,0000*47
$GPGSA,A,3,16,23,13,07,10,20,04,32,03,,,,1.7,1.0,1.4*36
$GPRMC,000029.000,A,3748.7798,N,12217.8181,W,1.76,120.47,010411,,,A*7C
$GPVTG,120.47,T,,M,1.76,N,3.3,K,A*0D
$GPGGA,000030.000,3748.7793,N,12217.8176,W,1,09,1.0,-0.1,M,-25.1,M,,0000*4F
$GPGSA,A,3,16,23,13,07,10,20,04,32,03,,,,1.7,1.0,1.4*36
$GPRMC,000030.000,A,3748.7793,N,12217.8176,W,1.99,123.08,010411,,,A*7E
$GPVTG,123.08,T,,M,1.99,N,3.7,K,A*00
$GPGGA,000031.000,3748.7790,N,12217.8171,W,1,09,1.0,-0.1,M,-25.1,M,,0000*4A
$GPGSA,A,3,16,23,13,07,10,20,04,32,03,,,,1.7,1.0,1.4*36
$GPGSV,3,1,12,23,70,044,28,13,53,321,26,20,47,181,38,16,46,067,28*78
$GPGSV,3,2,12,07,33,252,35,30,30,049,18,32,27,158,36,10,19,316,22*7B
$GPGSV,3,3,12,04,12,281,28,03,10,118,32,06,08,103,18,08,07,241,*7A
$GPRMC,000031.000,A,3748.7790,N,12217.8171,W,1.87,121.67,010411,,,A*7F
$GPVTG,121.67,T,,M,1.87,N,3.5,K,A*06
$GPGGA,000032.000,3748.7787,N,12217.8165,W,1,09,1.0,-0.2,M,-25.1,M,,0000*49
$GPGSA,A,3,16,23,13,07,10,20,04,32,03,,,,1.7,1.0,1.4*36
$GPRMC,000032.000,A,3748.7787,N,12217.8165,W,1.70,116.45,010411,,,A*73
$GPVTG,116.45,T,,M,1.70,N,3.2,K,A*0D
$GPGGA,000033.000,3748.7785,N,12217.8159,W,1,09,1.0,-0.1,M,-25.1,M,,0000*46
$GPGSA,A,3,16,23,13,07,10,20,04,32,03,,,,1.7,1.0,1.4*36
$GPRMC,000033.000,A,3748.7785,N,12217.8159,W,1.74,108.69,010411,,,A*7A
$GPVTG,108.69,T,,M,1.74,N,3.2,K,A*08
$GPGGA,000034.000,3748.7782,N,12217.8153,W,1,09,1.0,0.0,M,-25.1,M,,0000*60
$GPGSA,A,3,16,23,13,07,10,20,04,32,03,,,,1.7,1.0,1.4*36
$GPRMC,000034.000,A,3748.7782,N,12217.8153,W,1.72,105.22,010411,,,A*74
$GPVTG,105.22,T,,M,1.72,N,3.2,K,A*0C
$GPGGA,000035.000,3748.7781,N,12217.8146,W,1,09,1.0,0.2,M,-25.1,M,,0000*64
$GPGSA,A,3,16,23,13,07,10,20,04,32,03,,,,1.7,1.0,1.4*36
$GPRMC,000035.000,A,3748.7781,N,12217.8146,W,1.79,110.44,010411,,,A*7D
$GPVTG,110.44,T,,M,1.79,N,3.3,K,A*02
$GPGGA,000036.000,3748.7778,N,12217.8140,W,1,09,1.0,0.2,M,-25.1,M,,0000*67
$GPGSA,A,3,16,23,13,07,10,20,04,32,03,,,,1.7,1.0,1.4*36
$GPGSV,3,1,12,23,70,045,28,13,53,321,26,20,46,181,38,16,46,067,28*78
$GPGSV,3,2,12,07,33,252,35,30,30,049,21,32,27,158,36,10,19,316,22*71
$GPGSV,3,3,12,04,12,281,29,03,10,118,32,06,08,103,18,08,07,241,*7B
$GPVTG,119.90,T,,M,1.97,N,3.6,K,A*07
$GPGGA,000037.000,3748.7776,N,12217.8134,W,1,09,1.0,0.4,M,-25.1,M,,0000*6D
$GPGSA,A,3,16,23,13,07,10,20,04,32,03,,,,1.7,1.0,1.4*36
$GPRMC,000037.000,A,3748.7776,N,12217.8134,W,1.83,123.96,010411,,,A*78
$GPVTG,123.96,T,,M,1.83,N,3.4,K,A*0F
$GPGGA,000038.000,3748.7773,N,12217.8128,W,1,09,1.0,0.9,M,-25.1,M,,0000*67
$GPGSA,A,3,16,23,13,07,10,20,04,32,03,,,,1.7,1.0,1.4*36
$GPRMC,000038.000,A,3748.7773,N,12217.8128,W,1.72,121.36,010411,,,A*79
$GPVTG,121.36,T,,M,1.72,N,3.2,K,A*0F
$GPGGA,000039.000,3748.7772,N,12217.8122,W,1,09,1.0,1.1,M,-25.1,M,,0000*64
$GPGSA,A,3,16,23,13,07,10,20,04,32,03,,,,1.7,1.0,1.4*36
$GPRMC,000039.000,A,3748.7772,N,12217.8122,W,1.53,122.32,010411,,,A*77
$GPVTG,122.32,T,,M,1.53,N,2.8,K,A*00
$GPGGA,000040.000,3748.7770,N,12217.8116,W,1,09,1.0,1.2,M,-25.1,M,,0000*6C
$GPGSA,A,3,16,23,13,07,10,20,04,32,03,,,,1.7,1.0,1.4*36
$GPRMC,000040.000,A,3748.7770,N,12217.8116,W,1.53,118.83,010411,,,A*7F
$GPVTG,118.83,T,,M,1.53,N,2.8,K,A*03
$GPGGA,000041.000,3748.7768,N,12217.8111,W,1,09,1.0,1.4,M,-25.1,M,,0000*65
$GPGSA,A,3,16,23,13,07,10,20,04,32,03,,,,1.7,1.0,1.4*36
$GPGSV,3,1,12,23,70,045,28,13,53,321,26,20,46,181,38,16,46,067,27*77
$GPGSV,3,2,12,07,33,252,35,30,30,049,27,32,27,158,36,10,19,316,23*76
$GPGSV,3,3,12,04,12,280,30,03,10,118,33,06,08,103,24,08,07,241,*7C
$GPRMC,000041.000,A,3748.7768,N,12217.8111,W,1.40,118.20,010411,,,A*7B
$GPVTG,118.20,T,,M,1.40,N,2.6,K,A*06
$GPGGA,000042.000,3748.7767,N,12217.8106,W,1,09,1.0,1.5,M,-25.1,M,,0000*6E
$GPGSA,A,3,16,23,13,07,10,20,04,32,03,,,,1.7,1.0,1.4*36
$GPRMC,000042.000,A,3748.7767,N,12217.8106,W,1.12,106.77,010411,,,A*7B
$GPVTG,106.77,T,,M,1.12,N,2.1,K,A*0B
$GPGGA,000043.000,3748.7767,N,12217.8103,W,1,09,1.0,1.5,M,-25.1,M,,0000*6A
$GPGSA,A,3,16,23,13,07,10,20,04,32,03,,,,1.7,1.0,1.4*36
$GPRMC,000043.000,A,3748.7767,N,12217.8103,W,0.54,104.12,010411,,,A*7D
$GPVTG,104.12,T,,M,0.54,N,1.0,K,A*0B
$GPGGA,000044.000,3748.7766,N,12217.8102,W,1,09,1.0,1.6,M,-25.1,M,,0000*6E
$GPGSA,A,3,16,23,13,07,10,20,04,32,03,,,,1.7,1.0,1.4*36
$GPRMC,000044.000,A,3748.7766,N,12217.8102,W,0.05,126.76,010411,,,A*7C
$GPVTG,126.76,T,,M,0.05,N,0.1,K,A*0D
$GPGGA,000045.000,3748.7766,N,12217.8101,W,1,09,1.0,1.6,M,-25.1,M,,0000*6C
$GPGSA,A,3,16,23,13,07,10,20,04,32,03,,,,1.7,1.0,1.4*36
$GPRMC,000045.000,A,3748.7766,N,12217.8101,W,0.10,102.06,010411,,,A*7B
$GPVTG,102.06,T,,M,0.10,N,0.2,K,A*0B
$GPGGA,000046.000,3748.7765,N,12217.8100,W,1,09,1.0,1.6,M,-25.1,M,,0000*6D
$GPGSA,A,3,16,23,13,07,10,20,04,32,03,,,,1.7,1.0,1.4*36
$GPGSV,3,1,12,23,69,045,28,13,53,321,26,20,46,180,38,16,46,067,27*7E
$GPGSV,3,2,12,07,33,252,31,30,30,049,27,32,27,158,37,10,19,316,22*72
$GPGSV,3,3,12,04,12,280,21,03,10,118,34,06,08,103,30,08,07,241,*7E
$GPRMC,000046.000,A,3748.7765,N,12217.8100,W,0.14,137.18,010411,,,A*77
$GPVTG,137.18,T,,M,0.14,N,0.3,K,A*07
$GPGGA,000047.000,3748.7765,N,12217.8100,W,1,09,1.0,1.5,M,-25.1,M,,0000*6F
$GPGSA,A,3,16,23,13,07,10,20,04,32,03,,,,1.7,1.0,1.4*36
$GPRMC,000047.000,A,3748.7765,N,12217.8100,W,0.18,183.24,010411,,,A*7A
$GPVTG,183.24,T,,M,0.18,N,0.3,K,A*0B
$GPGGA,000048.000,3748.7764,N,12217.8100,W,1,09,1.0,1.5,M,-25.1,M,,0000*61
$GPGSA,A,3,16,23,13,07,10,20,04,32,03,,,,1.7,1.0,1.4*36
$GPRMC,000048.000,A,3748.7764,N,12217.8100,W,0.07,136.89,010411,,,A*73
$GPVTG,136.89,T,,M,0.07,N,0.1,K,A*0E
$GPGGA,000049.000,3748.7764,N,12217.8099,W,1,09,1.0,1.3,M,-25.1,M,,0000*67
$GPGSA,A,3,16,23,13,07,10,20,04,32,03,,,,1.7,1.0,1.4*36
$GPRMC,000049.000,A,3748.7764,N,12217.8099,W,0.21,128.97,010411,,,A*77
$GPVTG,128.97,T,,M,0.21,N,0.4,K,A*0F
$GPGGA,000050.000,3748.7763,N,12217.8097,W,1,09,1.0,1.2,M,-25.1,M,,0000*67
$GPGSA,A,3,16,23,13,07,10,20,04,32,03,,,,1.7,1.0,1.4*36
$GPRMC,000050.000,A,3748.7763,N,12217.8097,W,0.79,97.82,010411,,,A*4A
$GPVTG,97.82,T,,M,0.79,N,1.5,K,A*33
$GPGGA,000051.000,3748.7764,N,12217.8092,W,1,09,1.0,1.1,M,-25.1,M,,0000*67
$GPGSA,A,3,16,23,13,07,10,20,04,32,03,,,,1.7,1.0,1.4*36
$GPGSV,3,1,12,23,69,045,28,13,53,321,25,20,46,180,38,16,46,067,28*72
$GPGSV,3,2,12,07,33,252,32,30,30,049,23,32,27,158,37,10,19,316,22*75
$GPGSV,3,3,12,04,12,280,27,03,10,118,35,06,08,103,27,08,07,241,*7F
$GPRMC,000051.000,A,3748.7764,N,12217.8092,W,1.23,106.44,010411,,,A*74
$GPVTG,106.44,T,,M,1.23,N,2.3,K,A*0B
$GPGGA,000052.000,3748.7763,N,12217.8086,W,1,09,1.0,1.0,M,-25.1,M,,0000*67
$GPGSA,A,3,16,23,13,07,10,20,04,32,03,,,,1.7,1.0,1.4*36
$GPRMC,000052.000,A,3748.7763,N,12217.8086,W,1.44,115.16,010411,,,A*71
$GPVTG,115.16,T,,M,1.44,N,2.7,K,A*0B
$GPGGA,000053.000,3748.7762,N,12217.8080,W,1,09,1.0,0.9,M,-25.1,M,,0000*69
$GPGSA,A,3,16,23,13,07,10,20,04,32,03,,,,1.7,1.0,1.4*36
$GPRMC,000053.000,A,3748.7762,N,12217.8080,W,1.38,114.11,010411,,,A*7A
$GPVTG,114.11,T,,M,1.38,N,2.6,K,A*07
$GPGGA,000054.000,3748.7762,N,12217.8074,W,1,09,1.0,1.0,M,-25.1,M,,0000*6D
$GPGSA,A,3,16,23,13,07,10,20,04,32,03,,,,1.7,1.0,1.4*36
$GPRMC,000054.000,A,3748.7762,N,12217.8074,W,1.51,110.70,010411,,,A*7A
$GPVTG,110.70,T,,M,1.51,N,2.8,K,A*05
$GPGGA,000055.000,3748.7760,N,12217.8069,W,1,09,1.0,0.9,M,-25.1,M,,0000*6A
$GPGSA,A,3,16,23,13,07,10,20,04,32,03,,,,1.7,1.0,1.4*36
$GPRMC,000055.000,A,3748.7760,N,12217.8069,W,1.45,109.07,010411,,,A*78
$GPVTG,109.07,T,,M,1.45,N,2.7,K,A*07
$GPGGA,000056.000,3748.7760,N,12217.8063,W,1,09,1.0,0.9,M,-25.1,M,,0000*63
$GPGSA,A,3,16,23,13,07,10,20,04,32,03,,,,1.7,1.0,1.4*36
$GPGSV,3,1,12,23,69,045,28,13,53,321,26,20,46,180,38,16,46,067,28*71
$GPGSV,3,2,12,07,33,252,35,30,30,049,22,32,27,158,36,10,19,316,22*72
$GPGSV,3,3,12,04,12,280,27,03,10,118,29,06,08,103,23,08,07,241,*76
$GPRMC,000056.000,A,3748.7760,N,12217.8063,W,1.38,104.46,010411,,,A*73
$GPGGA,000057.000,3748.7759,N,12217.8057,W,1,09,1.0,1.0,M,-25.1,M,,0000*67
$GPGSA,A,3,16,23,13,07,10,20,04,32,03,,,,1.7,1.0,1.4*36
$GPRMC,000057.000,A,3748.7759,N,12217.8057,W,1.41,110.32,010411,,,A*77
$GPVTG,110.32,T,,M,1.41,N,2.6,K,A*0C
$GPGGA,000058.000,3748.7755,N,12217.8053,W,1,09,1.0,1.4,M,-25.1,M,,0000*64
$GPGSA,A,3,16,23,13,07,10,20,04,32,03,,,,1.7,1.0,1.4*36
$GPRMC,000058.000,A,3748.7755,N,12217.8053,W,1.80,120.26,010411,,,A*7B
$GPVTG,120.26,T,,M,1.80,N,3.3,K,A*03
$GPGGA,000059.000,3748.7751,N,12217.8049,W,1,09,1.0,1.7,M,-25.1,M,,0000*69
$GPGSA,A,3,16,23,13,07,10,20,04,32,03,,,,1.7,1.0,1.4*36
$GPRMC,000059.000,A,3748.7751,N,12217.8049,W,1.86,119.04,010411,,,A*79
$GPVTG,119.04,T,,M,1.86,N,3.4,K,A*08
$GPGGA,000100.000,3748.7747,N,12217.8044,W,1,09,1.0,2.1,M,-25.1,M,,0000*6B
$GPGSA,A,3,16,23,13,07,10,20,04,32,03,,,,1.7,1.0,1.4*36
$GPRMC,000100.000,A,3748.7747,N,12217.8044,W,1.88,111.63,010411,,,A*79
$GPVTG,111.63,T,,M,1.88,N,3.5,K,A*0E
$GPGGA,000101.000,3748.7745,N,12217.8039,W,1,09,1.0,2.4,M,-25.1,M,,0000*67
$GPGSA,A,3,16,23,13,07,10,20,04,32,03,,,,1.7,1.0,1.4*36
$GPGSV,3,1,12,23,69,045,28,13,53,321,26,20,46,180,38,16,46,067,29*70
$GPGSV,3,2,12,07,33,252,35,30,30,049,23,32,27,158,37,10,19,316,22*72
$GPGSV,3,3,12,04,12,280,26,03,10,118,27,06,08,103,19,08,07,241,*70
$GPRMC,000101.000,A,3748.7745,N,12217.8039,W,1.50,108.93,010411,,,A*72
$GPVTG,108.93,T,,M,1.50,N,2.8,K,A*00
$GPGGA,000102.000,3748.7742,N,12217.8035,W,1,09,1.0,2.6,M,-25.1,M,,0000*6D
$GPGSA,A,3,16,23,13,07,10,20,04,32,03,,,,1.7,1.0,1.4*36
$GPRMC,000102.000,A,3748.7742,N,12217.8035,W,1.48,116.86,010411,,,A*78
$GPVTG,116.86,T,,M,1.48,N,2.7,K,A*0D
$GPGGA,000103.000,3748.7739,N,12217.8029,W,1,09,1.0,3.1,M,-25.1,M,,0000*6B
$GPGSA,A,3,16,23,13,07,10,20,04,32,03,,,,1.7,1.0,1.4*36
$GPRMC,000103.000,A,3748.7739,N,12217.8029,W,1.77,123.32,010411,,,A*7D
$GPVTG,123.32,T,,M,1.77,N,3.3,K,A*0D
$GPGGA,000104.000,3748.7736,N,12217.8024,W,1,09,1.0,3.6,M,-25.1,M,,0000*69
$GPGSA,A,3,16,23,13,07,10,20,04,32,03,,,,1.7,1.0,1.4*36
$GPRMC,000104.000,A,3748.7736,N,12217.8024,W,1.74,120.36,010411,,,A*7C
$GPVTG,120.36,T,,M,1.74,N,3.2,K,A*08
$GPGGA,000105.000,3748.7733,N,12217.8018,W,1,09,1.0,4.1,M,-25.1,M,,0000*62
$GPGSA,A,3,16,23,13,07,10,20,04,32,03,,,,1.7,1.0,1.4*36
$GPRMC,000105.000,A,3748.7733,N,12217.8018,W,1.94,124.82,010411,,,A*72
$GPVTG,124.82,T,,M,1.94,N,3.6,K,A*09
$GPGGA,000106.000,3748.7729,N,12217.8013,W,1,09,1.0,4.6,M,-25.1,M,,0000*66
$GPGSA,A,3,16,23,13,07,10,20,04,32,03,,,,1.7,1.0,1.4*36
$GPGSV,3,1,12,23,69,045,29,13,53,321,26,20,46,180,38,16,46,067,29*71
$GPGSV,3,2,12,07,33,252,35,30,30,049,25,32,27,158,36,10,19,316,22*75
$GPGSV,3,3,12,04,12,280,28,03,10,118,27,06,08,103,19,08,07,241,*7E
$GPRMC,000106.000,A,3748.7729,N,12217.8013,W,2.01,133.28,010411,,,A*78
$GPVTG,133.28,T,,M,2.01,N,3.7,K,A*01
$GPGGA,000107.000,3748.7725,N,12217.8007,W,1,09,1.0,4.4,M,-25.1,M,,0000*6C
$GPGSA,A,3,16,23,13,07,10,20,04,32,03,,,,1.7,1.0,1.4*36
$GPRMC,000107.000,A,3748.7725,N,12217.8007,W,1.87,121.96,010411,,,A*7B
$GPVTG,121.96,T,,M,1.87,N,3.5,K,A*08
$GPGGA,000108.000,3748.7723,N,12217.8002,W,1,09,1.0,4.4,M,-25.1,M,,0000*60
$GPGSA,A,3,16,23,13,07,10,20,04,32,03,,,,1.7,1.0,1.4*36
$GPRMC,000108.000,A,3748.7723,N,12217.8002,W,1.66,123.90,010411,,,A*7C
$GPVTG,123.90,T,,M,1.66,N,3.1,K,A*07
$GPGGA,000109.000,3748.7719,N,12217.7997,W,1,09,1.0,3.7,M,-25.1,M,,0000*66
$GPGSA,A,3,16,23,13,07,10,20,04,32,03,,,,1.7,1.0,1.4*36
$GPRMC,000109.000,A,3748.7719,N,12217.7997,W,1.77,123.34,010411,,,A*70
$GPVTG,123.34,T,,M,1.77,N,3.3,K,A*0B
$GPGGA,000110.000,3748.7716,N,12217.7990,W,1,08,1.1,2.9,M,-25.1,M,,0000*69
$GPGSA,A,3,23,13,07,10,20,04,32,03,,,,,1.8,1.1,1.4*3F
$GPRMC,000110.000,A,3748.7716,N,12217.7990,W,2.04,124.65,010411,,,A*74
$GPVTG,124.65,T,,M,2.04,N,3.8,K,A*04
$GPGGA,000111.000,3748.7713,N,12217.7984,W,1,09,1.0,2.1,M,-25.1,M,,0000*60
$GPGSA,A,3,16,23,13,07,10,20,04,32,03,,,,1.7,1.0,1.4*36
$GPGSV,3,1,12,23,69,046,28,13,54,321,26,20,46,180,38,16,45,067,16*7B
$GPGSV,3,2,12,07,33,252,35,30,29,049,18,32,27,158,36,10,19,316,23*72
$GPGSV,3,3,12,04,12,280,29,03,10,118,29,06,08,103,19,08,07,241,*71
$GPRMC,000111.000,A,3748.7713,N,12217.7984,W,1.95,113.04,010411,,,A*7D
$GPVTG,113.04,T,,M,1.95,N,3.6,K,A*02
$GPGGA,000112.000,3748.7710,N,12217.7977,W,1,09,1.0,1.8,M,-25.1,M,,0000*66
$GPGSA,A,3,16,23,13,07,10,20,04,32,03,,,,1.7,1.0,1.4*36
$GPRMC,000112.000,A,3748.7710,N,12217.7977,W,1.98,114.51,010411,,,A*7B
$GPVTG,114.51,T,,M,1.98,N,3.7,K,A*09
$GPGGA,000113.000,3748.7707,N,12217.7970,W,1,09,1.0,1.2,M,-25.1,M,,0000*6C
$GPGSA,A,3,16,23,13,07,10,20,04,32,03,,,,1.7,1.0,1.4*36
$GPRMC,000113.000,A,3748.7707,N,12217.7970,W,1.84,113.59,010411,,,A*79
$GPVTG,113.59,T,,M,1.84,N,3.4,K,A*08
$GPGGA,000114.000,3748.7706,N,12217.7964,W,1,09,1.0,1.0,M,-25.1,M,,0000*6D
$GPGSA,A,3,16,23,13,07,10,20,04,32,03,,,,1.7,1.0,1.4*36
$GPRMC,000114.000,A,3748.7706,N,12217.7964,W,1.66,105.76,010411,,,A*7C
$GPVTG,105.76,T,,M,1.66,N,3.1,K,A*0B
$GPGGA,000115.000,3748.7705,N,12217.7957,W,1,09,1.0,0.8,M,-25.1,M,,0000*66
$GPGSA,A,3,16,23,13,07,10,20,04,32,03,,,,1.7,1.0,1.4*36
$GPRMC,000115.000,A,3748.7705,N,12217.7957,W,1.68,105.61,010411,,,A*76
$GPVTG,105.61,T,,M,1.68,N,3.1,K,A*03
$GPGGA,000116.000,3748.7703,N,12217.7950,W,1,09,1.0,0.5,M,-25.1,M,,0000*69
$GPGSA,A,3,16,23,13,07,10,20,04,32,03,,,,1.7,1.0,1.4*36
$GPGSV,3,1,12,23,69,046,28,13,54,321,26,20,46,180,38,16,45,067,27*79
$GPGSV,3,2,12,07,33,252,35,30,29,049,19,32,27,158,36,10,20,316,21*7B
$GPGSV,3,3,12,04,12,280,29,03,10,118,29,06,08,103,20,08,07,241,*7B
$GPVTG,118.48,T,,M,2.14,N,4.0,K,A*0A
$GPGGA,000117.000,3748.7700,N,12217.7944,W,1,09,1.0,1.0,M,-25.1,M,,0000*6A
$GPGSA,A,3,16,23,13,07,10,20,04,32,03,,,,1.7,1.0,1.4*36
$GPRMC,000117.000,A,3748.7700,N,12217.7944,W,1.77,110.37,010411,,,A*7A
$GPVTG,110.37,T,,M,1.77,N,3.3,K,A*08
$GPGGA,000118.000,3748.7697,N,12217.7939,W,1,09,1.0,1.3,M,-25.1,M,,0000*63
$GPGSA,A,3,16,23,13,07,10,20,04,32,03,,,,1.7,1.0,1.4*36
$GPRMC,000118.000,A,3748.7697,N,12217.7939,W,1.81,112.78,010411,,,A*70
$GPVTG,112.78,T,,M,1.81,N,3.4,K,A*0F
$GPGGA,000119.000,3748.7695,N,12217.7933,W,1,09,1.0,1.9,M,-25.1,M,,0000*60
$GPGSA,A,3,16,23,13,07,10,20,04,32,03,,,,1.7,1.0,1.4*36
$GPRMC,000119.000,A,3748.7695,N,12217.7933,W,1.68,113.67,010411,,,A*71
$GPVTG,113.67,T,,M,1.68,N,3.1,K,A*02
$GPGGA,000120.000,3748.7691,N,12217.7928,W,1,09,1.0,2.2,M,-25.1,M,,0000*6C
$GPGSA,A,3,16,23,13,07,10,20,04,32,03,,,,1.7,1.0,1.4*36
$GPRMC,000120.000,A,3748.7691,N,12217.7928,W,1.76,124.26,010411,,,A*7B
$GPVTG,124.26,T,,M,1.76,N,3.3,K,A*0E
$GPGGA,000121.000,3748.7687,N,12217.7924,W,1,09,1.0,2.4,M,-25.1,M,,0000*60
$GPGSA,A,3,16,23,13,07,10,20,04,32,03,,,,1.7,1.0,1.4*36
$GPGSV,3,1,12,23,69,046,28,13,54,321,22,20,46,180,38,16,45,067,27*7D
$GPGSV,3,2,12,07,33,252,34,30,29,049,20,32,27,158,35,10,20,316,23*71
$GPGSV,3,3,12,04,12,280,29,03,10,118,24,06,08,103,19,08,07,241,*7C
$GPRMC,000121.000,A,3748.7687,N,12217.7924,W,1.62,122.03,010411,,,A*75
$GPVTG,122.03,T,,M,1.62,N,3.0,K,A*09
$GPGGA,000122.000,3748.7684,N,12217.7920,W,1,09,1.0,2.9,M,-25.1,M,,0000*69
$GPGSA,A,3,16,23,13,07,10,20,04,32,03,,,,1.7,1.0,1.4*36
$GPRMC,000122.000,A,3748.7684,N,12217.7920,W,1.49,126.14,010411,,,A*7A
$GPVTG,126.14,T,,M,1.49,N,2.8,K,A*0B
$GPGGA,000123.000,3748.7680,N,12217.7916,W,1,09,1.0,3.5,M,-25.1,M,,0000*64
$GPGSA,A,3,16,23,13,07,10,20,04,32,03,,,,1.7,1.0,1.4*36
$GPRMC,000123.000,A,3748.7680,N,12217.7916,W,1.53,139.05,010411,,,A*7F
$GPVTG,139.05,T,,M,1.53,N,2.8,K,A*0E
$GPGGA,000124.000,3748.7675,N,12217.7913,W,1,09,1.0,3.4,M,-25.1,M,,0000*6D
$GPGSA,A,3,16,23,13,07,10,20,04,32,03,,,,1.7,1.0,1.4*36
$GPRMC,000124.000,A,3748.7675,N,12217.7913,W,1.84,124.47,010411,,,A*77
$GPVTG,124.47,T,,M,1.84,N,3.4,K,A*03
$GPGGA,000125.000,3748.7672,N,12217.7907,W,1,09,1.0,3.6,M,-25.1,M,,0000*6C
$GPGSA,A,3,16,23,13,07,10,20,04,32,03,,,,1.7,1.0,1.4*36
$GPRMC,000125.000,A,3748.7672,N,12217.7907,W,1.95,120.38,010411,,,A*78
$GPVTG,120.38,T,,M,1.95,N,3.6,K,A*0D
$GPGGA,000126.000,3748.7668,N,12217.7901,W,1,09,1.0,3.6,M,-25.1,M,,0000*62
$GPGSA,A,3,16,23,13,07,10,20,04,32,03,,,,1.7,1.0,1.4*36
$GPGSV,3,1,12,23,69,046,27,13,54,322,25,20,46,180,37,16,45,066,22*7D
$GPGSV,3,2,12,07,33,252,35,30,29,049,20,32,27,158,31,10,20,316,23*74
$GPGSV,3,3,12,04,12,280,32,03,10,118,25,06,08,103,18,08,07,241,*76
$GPRMC,000126.000,A,3748.7668,N,12217.7901,W,1.88,114.72,010411,,,A*73
$GPVTG,114.72,T,,M,1.88,N,3.5,K,A*0B
$GPGGA,000127.000,3748.7662,N,12217.7898,W,1,09,1.0,3.2,M,-25.1,M,,0000*6C
$GPGSA,A,3,16,23,13,07,10,20,04,32,03,,,,1.7,1.0,1.4*36
$GPRMC,000127.000,A,3748.7662,N,12217.7898,W,1.84,115.83,010411,,,A*7A
$GPVTG,115.83,T,,M,1.84,N,3.4,K,A*09
$GPGGA,000128.000,3748.7658,N,12217.7894,W,1,09,1.0,3.1,M,-25.1,M,,0000*65
$GPGSA,A,3,16,23,13,07,10,20,04,32,03,,,,1.7,1.0,1.4*36
$GPRMC,000128.000,A,3748.7658,N,12217.7894,W,1.67,112.87,010411,,,A*7E
$GPVTG,112.87,T,,M,1.67,N,3.1,K,A*02
$GPGGA,000129.000,3748.7655,N,12217.7890,W,1,09,1.0,3.2,M,-25.1,M,,0000*6E
$GPGSA,A,3,16,23,13,07,10,20,04,32,03,,,,1.7,1.0,1.4*36
$GPRMC,000129.000,A,3748.7655,N,12217.7890,W,1.61,109.20,010411,,,A*77
$GPVTG,109.20,T,,M,1.61,N,3.0,K,A*02
$GPGGA,000130.000,3748.7653,N,12217.7883,W,1,09,1.0,2.4,M,-25.1,M,,0000*65
$GPGSA,A,3,16,23,13,07,10,20,04,32,03,,,,1.7,1.0,1.4*36
$GPRMC,000130.000,A,3748.7653,N,12217.7883,W,1.33,123.07,010411,,,A*71
$GPVTG,123.07,T,,M,1.33,N,2.5,K,A*0C
