$ADVER,3080,2.3
$GPRMC,172822.596,A,3748.7988,N,12217.8609,W,0.14,197.17,220911,,,A*79
$GPGGA,172823.597,3748.7988,N,12217.8609,W,1,03,2.3,25.1,M,-25.1,M,,0000*51
$GPGSA,A,2,28,26,08,,,,,,,,,,2.5,2.3,1.0*32
$GPGSV,3,1,11,28,63,023,41,26,53,253,40,08,45,110,40,17,63,185,34*77
$GPGSV,3,2,11,01,21,074,37,07,19,122,37,11,17,055,27,27,17,312,29*7C
$GPGSV,3,3,11,24,16,066,29,04,00,172,,48,00,000,39*45
$GPRMC,172823.597,A,3748.7988,N,12217.8609,W,0.15,189.51,220911,,,A*75
$GPVTG,189.51,T,,M,0.15,N,0.3,K,N*01
$GPGGA,172824.596,3748.7988,N,12217.8609,W,1,03,2.3,25.1,M,-25.1,M,,0000*57
$GPGSA,A,2,28,26,08,,,,,,,,,,2.5,2.3,1.0*32
$GPRMC,172824.596,A,3748.7988,N,12217.8609,W,0.16,188.23,220911,,,A*74
$GPVTG,188.23,T,,M,0.16,N,0.3,K,N*06
$GPGGA,172825.596,3748.7988,N,12217.8609,W,1,03,2.3,25.1,M,-25.1,M,,0000*56
$GPGSA,A,2,28,26,08,,,,,,,,,,2.5,2.3,1.0*32
$GPRMC,172825.596,A,3748.7988,N,12217.8609,W,0.13,184.57,220911,,,A*7F
$GPVTG,184.57,T,,M,0.13,N,0.2,K,N*0D
$GPGGA,172826.596,3748.7987,N,12217.8609,W,1,03,2.3,25.1,M,-25.1,M,,0000*5A
$GPGSA,A,2,28,26,08,,,,,,,,,,2.5,2.3,1.0*32
$GPRMC,172826.596,A,3748.7987,N,12217.8609,W,0.15,197.26,220911,,,A*71
$GPVTG,197.26,T,,M,0.15,N,0.3,K,N*0E
$GPGGA,172827.596,3748.7987,N,12217.8609,W,1,03,2.3,25.1,M,-25.1,M,,0000*5B
$GPGSA,A,2,28,26,08,,,,,,,,,,2.5,2.3,1.0*32
$GPRMC,172827.596,A,3748.7987,N,12217.8609,W,0.12,189.61,220911,,,A*7B
$GPVTG,189.61,T,,M,0.12,N,0.2,K,N*04
$GPGGA,172828.596,3748.7987,N,12217.8609,W,1,03,2.3,25.1,M,-25.1,M,,0000*54
$GPGSA,A,2,28,26,08,,,,,,,,,,2.5,2.3,1.0*32
$GPGSV,3,1,11,28,63,023,41,26,53,253,40,08,45,110,41,17,63,185,39*7B
$GPGSV,3,2,11,01,21,074,35,07,19,122,36,11,17,055,24,27,17,312,28*7D
$GPGSV,3,3,11,24,16,066,30,04,00,172,,48,00,000,42*41
$GPRMC,172828.596,A,3748.7987,N,12217.8609,W,0.17,189.92,220911,,,A*7D
$GPGGA,172829.596,3748.7987,N,12217.8609,W,1,03,2.3,25.1,M,-25.1,M,,0000*55
$GPGSA,A,2,28,26,08,,,,,,,,,,2.5,2.3,1.0*32
$GPRMC,172829.596,A,3748.7987,N,12217.8609,W,0.10,200.76,220911,,,A*73
$GPVTG,200.76,T,,M,0.10,N,0.2,K,N*02
$GPGGA,172830.596,3748.7986,N,12217.8609,W,1,03,2.3,25.1,M,-25.1,M,,0000*5C
$GPGSA,A,2,28,26,08,,,,,,,,,,2.5,2.3,1.0*32
$GPRMC,172830.596,A,3748.7986,N,12217.8609,W,0.14,189.28,220911,,,A*77
$GPVTG,189.28,T,,M,0.14,N,0.3,K,N*0E
$GPGGA,172831.596,3748.7986,N,12217.8609,W,1,03,2.3,25.1,M,-25.1,M,,0000*5D
$GPGSA,A,2,28,26,08,,,,,,,,,,2.5,2.3,1.0*32
$GPRMC,172831.596,A,3748.7986,N,12217.8609,W,0.15,188.33,220911,,,A*7C
$GPVTG,188.33,T,,M,0.15,N,0.3,K,N*04
$GPGGA,172832.596,3748.7986,N,12217.8609,W,1,03,2.3,25.1,M,-25.1,M,,0000*5E
$GPGSA,A,2,28,26,08,,,,,,,,,,2.5,2.3,1.0*32
$GPRMC,172832.596,A,3748.7986,N,12217.8609,W,0.12,194.50,220911,,,A*70
$GPVTG,194.50,T,,M,0.12,N,0.2,K,N*0A
$GPGGA,172833.596,3748.7985,N,12217.8609,W,1,03,2.3,25.1,M,-25.1,M,,0000*5C
$GPGSA,A,2,28,26,08,,,,,,,,,,2.5,2.3,1.0*32
$GPGSV,3,1,11,28,63,023,41,26,53,253,40,08,45,110,41,17,63,185,40*75
$GPGSV,3,2,11,01,21,074,35,07,19,122,30,11,17,055,24,27,17,312,29*7A
$GPGSV,3,3,11,24,16,066,31,04,00,172,,48,00,000,42*40
$GPRMC,172833.596,A,3748.7985,N,12217.8609,W,0.14,192.43,220911,,,A*70
$GPVTG,192.43,T,,M,0.14,N,0.3,K,N*09
$GPGGA,172834.596,3748.7998,N,12217.8611,W,1,06,1.6,7.9,M,-25.1,M,,0000*65
$GPGSA,A,3,28,26,17,24,15,08,,,,,,,2.9,1.6,2.4*3A
$GPRMC,172834.596,A,3748.7998,N,12217.8611,W,0.05,217.98,220911,,,A*7A
$GPVTG,217.98,T,,M,0.05,N,0.1,K,A*0C
$GPGGA,172835.596,3748.7998,N,12217.8614,W,1,06,1.6,9.4,M,-25.1,M,,0000*62
$GPGSA,A,3,28,26,17,24,15,08,,,,,,,2.9,1.6,2.4*3A
$GPRMC,172835.596,A,3748.7998,N,12217.8614,W,0.06,180.96,220911,,,A*7E
$GPVTG,180.96,T,,M,0.06,N,0.1,K,A*0C
$GPGGA,172836.000,3748.7998,N,12217.8614,W,1,06,1.6,9.2,M,-25.1,M,,0000*6D
$GPGSA,A,3,28,26,17,24,15,08,,,,,,,2.9,1.6,2.4*3A
$GPRMC,172836.000,A,3748.7998,N,12217.8614,W,0.03,160.80,220911,,,A*7B
$GPVTG,160.80,T,,M,0.03,N,0.1,K,A*00
$GPGGA,172837.000,3748.7997,N,12217.8614,W,1,06,1.6,9.6,M,-25.1,M,,0000*67
$GPGSA,A,3,28,26,17,24,15,08,,,,,,,2.9,1.6,2.4*3A
$GPRMC,172837.000,A,3748.7997,N,12217.8614,W,0.07,179.72,220911,,,A*74
$GPVTG,179.72,T,,M,0.07,N,0.1,K,A*01
$GPGGA,172838.000,3748.7997,N,12217.8615,W,1,06,1.6,9.8,M,-25.1,M,,0000*67
$GPGSA,A,3,28,26,17,24,15,08,,,,,,,2.9,1.6,2.4*3A
$GPGSV,3,1,12,17,63,185,40,28,63,023,41,26,53,253,40,08,45,110,41*76
$GPGSV,3,2,12,15,30,300,38,24,16,066,31,01,21,074,35,07,19,122,32*7F
$GPGSV,3,3,12,11,17,055,25,27,17,312,29,04,00,172,,48,44,197,42*76
$GPRMC,172838.000,A,3748.7997,N,12217.8615,W,0.05,183.74,220911,,,A*7B
$GPVTG,183.74,T,,M,0.05,N,0.1,K,A*00
$GPGGA,172839.000,3748.7997,N,12217.8615,W,1,06,1.6,9.9,M,-25.1,M,,0000*67
$GPGSA,A,3,28,26,17,24,15,08,,,,,,,2.9,1.6,2.4*3A
$GPRMC,172839.000,A,3748.7997,N,12217.8615,W,0.08,188.47,220911,,,A*7C
$GPVTG,188.47,T,,M,0.08,N,0.1,K,A*06
$GPGGA,172839.000,3748.7997,N,12217.8615,W,1,06,1.6,10.0,M,-25.1,M,,0000*56
$GPGSA,A,3,28,26,17,24,15,08,,,,,,,2.9,1.6,2.4*3A
$GPRMC,172839.000,A,3748.7997,N,12217.8615,W,0.06,184.78,220911,,,A*72
$GPVTG,184.78,T,,M,0.06,N,0.1,K,A*08
$GPGGA,172840.000,3748.7997,N,12217.8615,W,1,06,1.6,10.0,M,-25.1,M,,0000*58
$GPGSA,A,3,28,26,17,24,15,08,,,,,,,2.9,1.6,2.4*3A
$GPRMC,172840.000,A,3748.7997,N,12217.8615,W,0.06,184.86,220911,,,A*7D
$GPVTG,184.86,T,,M,0.06,N,0.1,K,A*09
$GPGGA,172841.000,3748.7996,N,12217.8615,W,1,06,1.6,10.0,M,-25.1,M,,0000*58
$GPGSA,A,3,28,26,17,24,15,08,,,,,,,2.9,1.6,2.4*3A
$GPRMC,172841.000,A,3748.7996,N,12217.8615,W,0.07,187.03,220911,,,A*72
$GPVTG,187.03,T,,M,0.07,N,0.1,K,A*06
$GPGGA,172842.000,3748.7996,N,12217.8615,W,1,06,1.6,10.0,M,-25.1,M,,0000*5B
$GPGSA,A,3,28,26,17,24,15,08,,,,,,,2.9,1.6,2.4*3A
$GPGSV,3,1,12,17,63,185,40,28,63,023,42,26,53,253,40,08,45,110,41*75
$GPGSV,3,2,12,15,30,300,38,24,16,066,31,01,21,074,35,07,19,122,33*7E
$GPGSV,3,3,12,11,17,055,29,27,17,312,29,04,00,172,,48,44,197,42*7A
$GPRMC,172842.000,A,3748.7996,N,12217.8615,W,0.07,185.63,220911,,,A*75
$GPGGA,172843.000,3748.7997,N,12217.8615,W,2,06,1.6,9.9,M,-25.1,M,,0000*69
$GPGSA,A,3,28,26,17,24,15,08,,,,,,,2.9,1.6,2.4*3A
$GPRMC,172843.000,A,3748.7997,N,12217.8615,W,0.06,181.62,220911,,,D*74
$GPVTG,181.62,T,,M,0.06,N,0.1,K,D*03
$GPGGA,172844.000,3748.7997,N,12217.8615,W,2,06,1.6,9.8,M,-25.1,M,2.8,0000*4B
$GPGSA,A,3,28,26,17,24,15,08,,,,,,,2.9,1.6,2.4*3A
$GPRMC,172844.000,A,3748.7997,N,12217.8615,W,0.06,204.19,220911,,,D*71
$GPVTG,204.19,T,,M,0.06,N,0.1,K,D*01
$GPGGA,172845.000,3748.7997,N,12217.8614,W,2,06,1.6,9.8,M,-25.1,M,,0000*6F
$GPGSA,A,3,28,26,17,24,15,08,,,,,,,2.9,1.6,2.4*3A
$GPRMC,172845.000,A,3748.7997,N,12217.8614,W,0.05,204.51,220911,,,D*7E
$GPVTG,204.51,T,,M,0.05,N,0.1,K,D*0E
$GPGGA,172846.000,3748.7996,N,12217.8614,W,2,06,1.6,9.5,M,-25.1,M,,0000*60
$GPGSA,A,3,28,26,17,24,15,08,,,,,,,2.9,1.6,2.4*3A
$GPRMC,172846.000,A,3748.7996,N,12217.8614,W,0.08,182.28,220911,,,D*72
$GPVTG,182.28,T,,M,0.08,N,0.2,K,D*03
$GPGGA,172847.000,3748.7996,N,12217.8614,W,2,06,1.6,9.1,M,-25.1,M,,0000*65
$GPGSA,A,3,28,26,17,24,15,08,,,,,,,2.9,1.6,2.4*3A
$GPGSV,3,1,12,17,64,185,40,28,63,023,41,26,53,253,40,08,45,110,40*70
$GPGSV,3,2,12,15,30,300,38,01,21,073,35,07,19,122,33,11,17,055,28*76
$GPGSV,3,3,12,27,17,312,28,24,16,066,32,04,00,172,,48,44,197,41*75
$GPRMC,172847.000,A,3748.7996,N,12217.8614,W,0.07,195.02,220911,,,D*72
$GPVTG,195.02,T,,M,0.07,N,0.1,K,D*01
$GPGGA,172848.000,3748.7996,N,12217.8614,W,2,06,1.6,8.8,M,-25.1,M,,0000*62
$GPGSA,A,3,28,26,17,24,15,08,,,,,,,2.9,1.6,2.4*3A
$GPRMC,172848.000,A,3748.7996,N,12217.8614,W,0.08,208.60,220911,,,D*71
$GPVTG,208.60,T,,M,0.08,N,0.2,K,D*0E
$GPGGA,172849.000,3748.7996,N,12217.8613,W,2,06,1.6,8.6,M,-25.1,M,2.8,0000*4E
$GPGSA,A,3,28,26,17,24,15,08,,,,,,,2.9,1.6,2.4*3A
$GPRMC,172849.000,A,3748.7996,N,12217.8613,W,0.07,187.57,220911,,,D*78
$GPVTG,187.57,T,,M,0.07,N,0.1,K,D*02
$GPGGA,172850.000,3748.7995,N,12217.8613,W,2,06,1.6,8.3,M,-25.1,M,3.8,0000*41
$GPGSA,A,3,28,26,17,24,15,08,,,,,,,2.9,1.6,2.4*3A
$GPRMC,172850.000,A,3748.7995,N,12217.8613,W,0.07,201.04,220911,,,D*78
$GPVTG,201.04,T,,M,0.07,N,0.1,K,D*09
$GPGGA,172851.000,3748.7995,N,12217.8613,W,2,06,1.6,8.1,M,-25.1,M,4.8,0000*45
$GPGSA,A,3,28,26,17,24,15,08,,,,,,,2.9,1.6,2.4*3A
$GPRMC,172851.000,A,3748.7995,N,12217.8613,W,0.09,192.67,220911,,,D*7B
$GPVTG,192.67,T,,M,0.09,N,0.2,K,D*08
$GPGGA,172852.000,3748.7995,N,12217.8613,W,2,06,1.6,7.8,M,-25.1,M,,0000*62
$GPGSA,A,3,28,26,17,24,15,08,,,,,,,2.9,1.6,2.4*3A
$GPGSV,3,1,12,17,64,185,40,28,63,023,41,26,53,253,40,08,45,110,40*70
$GPGSV,3,2,12,15,30,300,38,01,21,073,34,07,19,122,33,11,17,055,29*76
$GPGSV,3,3,12,27,17,312,28,24,16,066,33,04,00,172,,48,44,197,42*77
$GPRMC,172852.000,A,3748.7995,N,12217.8613,W,0.02,187.54,220911,,,D*77
$GPVTG,187.54,T,,M,0.02,N,0.0,K,D*05
$GPGGA,172853.000,3748.7995,N,12217.8613,W,2,06,1.6,7.6,M,-25.1,M,,0000*6D
$GPGSA,A,3,28,26,17,24,15,08,,,,,,,2.9,1.6,2.4*3A
$GPRMC,172853.000,A,3748.7995,N,12217.8613,W,0.05,197.09,220911,,,D*78
$GPVTG,197.09,T,,M,0.05,N,0.1,K,D*0A
$GPGGA,172854.000,3748.7995,N,12217.8613,W,2,06,1.6,7.3,M,-25.1,M,,0000*6F
$GPGSA,A,3,28,26,17,24,15,08,,,,,,,2.9,1.6,2.4*3A
$GPRMC,172854.000,A,3748.7995,N,12217.8613,W,0.03,190.97,220911,,,D*79
$GPVTG,190.97,T,,M,0.03,N,0.1,K,D*0C
$GPGGA,172855.000,3748.7995,N,12217.8613,W,2,06,1.6,7.1,M,-25.1,M,2.8,0000*48
$GPGSA,A,3,28,26,17,24,15,08,,,,,,,2.9,1.6,2.4*3A
$GPRMC,172855.000,A,3748.7995,N,12217.8613,W,0.05,190.22,220911,,,D*70
$GPVTG,190.22,T,,M,0.05,N,0.1,K,D*04
$GPGGA,172856.000,3748.7995,N,12217.8612,W,2,06,1.6,6.9,M,-25.1,M,3.8,0000*42
$GPGSA,A,3,28,26,17,24,15,08,,,,,,,2.9,1.6,2.4*3A
$GPRMC,172856.000,A,3748.7995,N,12217.8612,W,0.02,182.01,220911,,,D*77
$GPVTG,182.01,T,,M,0.02,N,0.0,K,D*00
$GPGGA,172857.000,3748.7995,N,12217.8612,W,2,06,1.6,6.6,M,-25.1,M,,0000*69
$GPGSA,A,3,28,26,17,24,15,08,,,,,,,2.9,1.6,2.4*3A
$GPGSV,3,1,12,17,64,185,40,28,63,023,41,26,53,253,40,08,45,110,40*70
$GPGSV,3,2,12,15,30,300,38,01,21,073,34,07,19,122,20,11,17,055,29*74
$GPGSV,3,3,12,27,17,312,28,24,16,066,33,04,00,172,,48,44,197,42*77
$GPVTG,217.30,T,,M,0.02,N,0.0,K,D*0D
$GPGGA,172858.000,3748.7996,N,12217.8612,W,2,06,1.6,6.4,M,-25.1,M,,0000*67
$GPGSA,A,3,28,26,17,24,15,08,,,,,,,2.9,1.6,2.4*3A
$GPRMC,172858.000,A,3748.7996,N,12217.8612,W,0.10,194.13,220911,,,D*7D
$GPVTG,194.13,T,,M,0.10,N,0.2,K,D*05
$GPGGA,172859.000,3748.7996,N,12217.8612,W,2,06,1.6,6.2,M,-25.1,M,,0000*60
$GPGSA,A,3,28,26,17,24,15,08,,,,,,,2.9,1.6,2.4*3A
$GPRMC,172859.000,A,3748.7996,N,12217.8612,W,0.10,191.33,220911,,,D*7B
$GPVTG,191.33,T,,M,0.10,N,0.2,K,D*02
$GPGGA,172900.000,3748.7996,N,12217.8612,W,2,06,1.6,6.0,M,-25.1,M,,0000*6F
$GPGSA,A,3,28,26,17,24,15,08,,,,,,,2.9,1.6,2.4*3A
$GPRMC,172900.000,A,3748.7996,N,12217.8612,W,0.11,192.79,220911,,,D*7A
$GPVTG,192.79,T,,M,0.11,N,0.2,K,D*0E
$GPGGA,172901.000,3748.7996,N,12217.8612,W,2,06,1.6,5.8,M,-25.1,M,,0000*65
$GPGSA,A,3,28,26,17,24,15,08,,,,,,,2.9,1.6,2.4*3A
$GPRMC,172901.000,A,3748.7996,N,12217.8612,W,0.10,190.25,220911,,,D*71
$GPVTG,190.25,T,,M,0.10,N,0.2,K,D*04
$GPGGA,172902.000,3748.7996,N,12217.8612,W,2,06,1.6,5.7,M,-25.1,M,2.8,0000*4D
$GPGSA,A,3,28,26,17,24,15,08,,,,,,,2.9,1.6,2.4*3A
$GPGSV,3,1,12,17,64,185,40,28,63,024,41,26,53,253,40,08,45,110,40*77
$GPGSV,3,2,12,15,30,300,38,01,21,073,34,07,19,122,31,11,17,055,29*74
$GPGSV,3,3,12,27,17,312,29,24,16,066,34,04,00,172,,48,44,197,42*71
$GPRMC,172902.000,A,3748.7996,N,12217.8612,W,0.10,200.47,220911,,,D*7C
$GPVTG,200.47,T,,M,0.10,N,0.2,K,D*0A
$GPGGA,172903.000,3748.7996,N,12217.8612,W,2,06,1.6,5.5,M,-25.1,M,3.8,0000*4F
$GPGSA,A,3,28,26,17,24,15,08,,,,,,,2.9,1.6,2.4*3A
$GPRMC,172903.000,A,3748.7996,N,12217.8612,W,0.10,199.20,220911,,,D*7F
$GPVTG,199.20,T,,M,0.10,N,0.2,K,D*08
$GPGGA,172904.000,3748.7996,N,12217.8612,W,2,06,1.6,5.3,M,-25.1,M,,0000*6B
$GPGSA,A,3,28,26,17,24,15,08,,,,,,,2.9,1.6,2.4*3A
$GPRMC,172904.000,A,3748.7996,N,12217.8612,W,0.03,114.09,220911,,,D*74
$GPVTG,114.09,T,,M,0.03,N,0.1,K,D*07
$GPGGA,172905.000,3748.7996,N,12217.8612,W,2,06,1.6,5.1,M,-25.1,M,,0000*68
$GPGSA,A,3,28,26,17,24,15,08,,,,,,,2.9,1.6,2.4*3A
$GPRMC,172905.000,A,3748.7996,N,12217.8612,W,0.04,171.49,220911,,,D*75
$GPVTG,171.49,T,,M,0.04,N,0.1,K,D*07
$GPGGA,172906.000,3748.7996,N,12217.8611,W,2,06,1.6,4.9,M,-25.1,M,1.8,0000*46
$GPGSA,A,3,28,26,17,24,15,08,,,,,,,2.9,1.6,2.4*3A
$GPRMC,172906.000,A,3748.7996,N,12217.8611,W,0.04,166.84,220911,,,D*72
$GPVTG,166.84,T,,M,0.04,N,0.1,K,D*00
$GPGGA,172907.000,3748.7996,N,12217.8611,W,2,06,1.6,4.7,M,-25.1,M,2.8,0000*4A
$GPGSA,A,3,28,26,17,24,15,08,,,,,,,2.9,1.6,2.4*3A
$GPGSV,3,1,12,17,64,185,32,28,63,024,38,26,53,253,35,08,45,110,24*7C
$GPGSV,3,2,12,15,30,300,35,01,21,073,27,07,19,122,30,11,17,055,30*72
$GPGSV,3,3,12,27,17,312,28,24,16,065,30,04,00,172,,48,44,197,23*70
$GPRMC,172907.000,A,3748.7996,N,12217.8611,W,0.12,111.15,220911,,,D*7C
$GPVTG,111.15,T,,M,0.12,N,0.2,K,D*0C
$GPGGA,172908.000,3748.7996,N,12217.8612,W,2,06,1.6,3.9,M,-25.1,M,3.8,0000*4E
$GPGSA,A,3,28,26,17,24,15,08,,,,,,,2.9,1.6,2.4*3A
$GPRMC,172908.000,A,3748.7996,N,12217.8612,W,0.37,0.40,220911,,,D*76
$GPVTG,0.40,T,,M,0.37,N,0.7,K,D*0F
$GPGGA,172909.000,3748.7998,N,12217.8613,W,2,06,1.6,3.0,M,-25.1,M,4.8,0000*4E
$GPGSA,A,3,28,26,17,24,15,08,,,,,,,2.9,1.6,2.4*3A
$GPRMC,172909.000,A,3748.7998,N,12217.8613,W,0.26,199.69,220911,,,D*72
$GPVTG,199.69,T,,M,0.26,N,0.5,K,D*07
$GPGGA,172910.000,3748.8002,N,12217.8614,W,2,06,1.6,2.2,M,-25.1,M,5.8,0000*46
$GPGSA,A,3,28,26,17,24,15,08,,,,,,,2.9,1.6,2.4*3A
$GPRMC,172910.000,A,3748.8002,N,12217.8614,W,0.59,323.15,220911,,,D*78
$GPVTG,323.15,T,,M,0.59,N,1.1,K,D*02
$GPGGA,172911.000,3748.8006,N,12217.8616,W,2,06,1.6,1.2,M,-25.1,M,6.8,0000*41
$GPGSA,A,3,28,26,17,24,15,08,,,,,,,2.9,1.6,2.4*3A
$GPRMC,172911.000,A,3748.8006,N,12217.8616,W,1.06,353.74,220911,,,D*74
$GPVTG,353.74,T,,M,1.06,N,2.0,K,D*0B
$GPGGA,172912.000,3748.8011,N,12217.8618,W,2,06,1.6,1.3,M,-25.1,M,7.8,0000*4A
$GPGSA,A,3,28,26,17,24,15,08,,,,,,,2.9,1.6,2.4*3A
$GPGSV,3,1,11,17,64,185,25,28,63,024,27,26,53,253,25,08,45,110,19*78
$GPGSV,3,2,11,15,30,300,30,01,21,073,19,07,19,122,23,11,17,055,21*7B
$GPRMC,172912.000,A,3748.8011,N,12217.8618,W,0.64,59.23,220911,,,D*41
$GPVTG,59.23,T,,M,0.64,N,1.2,K,D*34
$GPGGA,172913.000,3748.8012,N,12217.8619,W,2,05,1.7,2.0,M,-25.1,M,8.8,0000*44
$GPGSA,A,3,28,26,17,24,15,,,,,,,,2.9,1.7,2.4*33
$GPRMC,172913.000,A,3748.8012,N,12217.8619,W,0.71,91.42,220911,,,D*45
$GPVTG,91.42,T,,M,0.71,N,1.3,K,D*32
$GPGGA,172914.000,3748.8013,N,12217.8619,W,2,06,1.6,1.5,M,-25.1,M,9.8,0000*47
$GPGSA,A,3,28,26,17,24,15,08,,,,,,,2.9,1.6,2.4*3A
$GPRMC,172914.000,A,3748.8013,N,12217.8619,W,0.79,75.02,220911,,,D*45
$GPVTG,75.02,T,,M,0.79,N,1.5,K,D*32
$GPGGA,172915.000,3748.8012,N,12217.8617,W,2,06,1.6,0.2,M,-25.1,M,10.8,0000*77
$GPGSA,A,3,28,26,17,24,15,08,,,,,,,2.9,1.6,2.4*3A
$GPRMC,172915.000,A,3748.8012,N,12217.8617,W,0.45,112.55,220911,,,D*76
$GPVTG,112.55,T,,M,0.45,N,0.8,K,D*03
$GPGGA,172916.000,3748.8010,N,12217.8619,W,2,06,1.6,0.1,M,-25.1,M,11.8,0000*7A
$GPGSA,A,3,28,26,17,24,15,08,,,,,,,2.9,1.6,2.4*3A
$GPRMC,172916.000,A,3748.8010,N,12217.8619,W,0.30,195.79,220911,,,D*7A
$GPVTG,195.79,T,,M,0.30,N,0.6,K,D*0E
$GPGGA,172917.000,3748.8007,N,12217.8620,W,2,06,1.6,-0.0,M,-25.1,M,12.8,0000*58
$GPGSA,A,3,28,26,17,24,15,08,,,,,,,2.9,1.6,2.4*3A
$GPGSV,3,1,12,17,64,185,31,28,63,024,30,26,53,253,37,08,45,110,27*76
$GPGSV,3,2,12,15,30,300,31,01,21,073,19,07,19,122,23,11,17,055,19*72
$GPGSV,3,3,12,27,17,312,29,24,16,065,24,04,00,172,,48,44,197,28*7F
$GPRMC,172917.000,A,3748.8007,N,12217.8620,W,0.50,224.01,220911,,,D*77
$GPVTG,224.01,T,,M,0.50,N,0.9,K,D*01
$GPGGA,172918.000,3748.8004,N,12217.8622,W,2,06,1.6,-0.4,M,-25.1,M,13.8,0000*53
$GPGSA,A,3,28,26,17,24,15,08,,,,,,,2.9,1.6,2.4*3A
$GPRMC,172918.000,A,3748.8004,N,12217.8622,W,0.54,225.97,220911,,,D*73
$GPVTG,225.97,T,,M,0.54,N,1.0,K,D*03
$GPGGA,172919.000,3748.8003,N,12217.8623,W,2,06,1.6,-0.8,M,-25.1,M,14.8,0000*5F
$GPGSA,A,3,28,26,17,24,15,08,,,,,,,2.9,1.6,2.4*3A
$GPRMC,172919.000,A,3748.8003,N,12217.8623,W,0.15,120.87,220911,,,D*76
$GPVTG,120.87,T,,M,0.15,N,0.3,K,D*03
$GPGGA,172920.000,3748.8007,N,12217.8621,W,2,06,1.6,-1.1,M,-25.1,M,15.8,0000*5A
$GPGSA,A,3,28,26,17,24,15,08,,,,,,,2.9,1.6,2.4*3A
$GPRMC,172920.000,A,3748.8007,N,12217.8621,W,1.03,24.45,220911,,,D*47
$GPVTG,24.45,T,,M,1.03,N,1.9,K,D*35
$GPGGA,172921.000,3748.8011,N,12217.8621,W,2,06,1.6,-2.1,M,-25.1,M,16.8,0000*5C
$GPGSA,A,3,28,26,17,24,15,08,,,,,,,2.9,1.6,2.4*3A
$GPRMC,172921.000,A,3748.8011,N,12217.8621,W,0.68,37.26,220911,,,D*4A
$GPVTG,37.26,T,,M,0.68,N,1.3,K,D*34
$GPGGA,172922.000,3748.8011,N,12217.8621,W,2,06,1.6,-3.1,M,-25.1,M,17.8,0000*5F
$GPGSA,A,3,28,26,17,24,15,08,,,,,,,2.9,1.6,2.4*3A
$GPGSV,3,1,12,17,64,185,28,28,63,024,29,26,53,253,32,08,45,110,27*73
$GPGSV,3,2,12,15,30,300,29,01,21,073,19,07,19,122,31,11,17,055,22*70
$GPGSV,3,3,12,27,17,312,24,24,16,065,22,04,00,172,,48,44,197,33*7E
$GPRMC,172922.000,A,3748.8011,N,12217.8621,W,0.41,58.73,220911,,,D*4B
$GPVTG,58.73,T,,M,0.41,N,0.8,K,D*3C
$GPGGA,172923.000,3748.8012,N,12217.8622,W,1,06,1.6,-3.0,M,-25.1,M,,0000*4C
$GPGSA,A,3,28,26,17,24,15,08,,,,,,,2.9,1.6,2.4*3A
$GPRMC,172923.000,A,3748.8012,N,12217.8622,W,0.65,199.22,220911,,,A*71
$GPVTG,199.22,T,,M,0.65,N,1.2,K,A*0C
$GPGGA,172924.000,3748.8011,N,12217.8622,W,1,06,1.6,-2.5,M,-25.1,M,,0000*4C
$GPGSA,A,3,28,26,17,24,15,08,,,,,,,2.9,1.6,2.4*3A
$GPRMC,172924.000,A,3748.8011,N,12217.8622,W,0.71,158.08,220911,,,A*75
$GPVTG,158.08,T,,M,0.71,N,1.3,K,A*0D
$GPGGA,172925.000,3748.8012,N,12217.8620,W,1,06,1.6,-2.6,M,-25.1,M,,0000*4F
$GPGSA,A,3,28,26,17,24,15,08,,,,,,,2.9,1.6,2.4*3A
$GPRMC,172925.000,A,3748.8012,N,12217.8620,W,0.56,185.73,220911,,,A*7C
$GPVTG,185.73,T,,M,0.56,N,1.0,K,A*07
$GPGGA,172926.000,3748.8016,N,12217.8616,W,1,05,1.8,-3.0,M,-25.1,M,,0000*47
$GPGSA,A,3,28,26,24,15,08,,,,,,,,3.0,1.8,2.4*3A
$GPRMC,172926.000,A,3748.8016,N,12217.8616,W,0.20,26.88,220911,,,A*43
$GPVTG,26.88,T,,M,0.20,N,0.4,K,A*3F
$GPGGA,172927.000,3748.8015,N,12217.8613,W,1,05,1.8,-4.1,M,-25.1,M,,0000*46
$GPGSA,A,3,28,26,24,15,08,,,,,,,,3.0,1.8,2.4*3A
$GPGSV,3,1,11,17,64,185,,28,63,024,28,26,53,253,27,08,45,110,27*7F
$GPGSV,3,2,11,15,30,300,29,01,21,073,,07,19,122,25,11,17,055,23*7F
$GPGSV,3,3,11,27,17,312,32,24,16,065,24,04,00,172,*4F
$GPRMC,172927.000,A,3748.8015,N,12217.8613,W,0.81,67.99,220911,,,A*4A
$GPVTG,67.99,T,,M,0.81,N,1.5,K,A*31
$GPGGA,172928.000,3748.8016,N,12217.8610,W,1,05,1.8,-3.6,M,-25.1,M,,0000*49
$GPGSA,A,3,28,26,24,15,08,,,,,,,,3.0,1.8,2.4*3A
$GPRMC,172928.000,A,3748.8016,N,12217.8610,W,0.43,32.63,220911,,,A*4E
$GPVTG,32.63,T,,M,0.43,N,0.8,K,A*36
$GPGGA,172929.000,3748.8015,N,12217.8612,W,1,05,1.8,-2.5,M,-25.1,M,,0000*4B
$GPGSA,A,3,28,26,24,15,08,,,,,,,,3.0,1.8,2.4*3A
$GPRMC,172929.000,A,3748.8015,N,12217.8612,W,0.09,199.19,220911,,,A*7D
$GPVTG,199.19,T,,M,0.09,N,0.2,K,A*0F
$GPGGA,172930.000,3748.8015,N,12217.8617,W,1,05,1.8,-0.5,M,-25.1,M,,0000*44
$GPGSA,A,3,28,26,24,15,08,,,,,,,,3.0,1.8,2.4*3A
$GPRMC,172930.000,A,3748.8015,N,12217.8617,W,0.18,217.57,220911,,,A*7F
$GPVTG,217.57,T,,M,0.18,N,0.3,K,A*01
$GPGGA,172931.000,3748.8012,N,12217.8620,W,1,05,1.8,1.0,M,-25.1,M,,0000*6F
$GPGSA,A,3,28,26,24,15,08,,,,,,,,3.0,1.8,2.4*3A
$GPRMC,172931.000,A,3748.8012,N,12217.8620,W,0.07,128.86,220911,,,A*70
$GPVTG,128.86,T,,M,0.07,N,0.1,K,A*0E
$GPGGA,172932.000,3748.8005,N,12217.8620,W,1,05,1.8,-0.1,M,-25.1,M,,0000*47
$GPGSA,A,3,28,26,24,15,08,,,,,,,,3.0,1.8,2.4*3A
$GPGSV,3,1,11,17,64,185,,28,63,024,28,26,53,253,28,08,45,110,26*71
$GPGSV,3,2,11,15,30,300,32,01,21,073,23,07,19,122,26,11,17,055,*76
$GPGSV,3,3,11,27,17,312,33,24,16,065,21,04,00,172,*4B
$GPRMC,172932.000,A,3748.8005,N,12217.8620,W,0.16,191.57,220911,,,A*7B
$GPGGA,172933.000,3748.8005,N,12217.8619,W,1,06,1.6,-0.9,M,-25.1,M,,0000*49
$GPGSA,A,3,28,26,24,15,17,08,,,,,,,2.9,1.6,2.4*3A
$GPRMC,172933.000,A,3748.8005,N,12217.8619,W,0.90,311.60,220911,,,A*70
$GPVTG,311.60,T,,M,0.90,N,1.7,K,A*07
$GPGGA,172934.000,3748.8005,N,12217.8624,W,1,06,1.6,-0.3,M,-25.1,M,,0000*4A
$GPGSA,A,3,28,26,24,15,17,08,,,,,,,2.9,1.6,2.4*3A
$GPRMC,172934.000,A,3748.8005,N,12217.8624,W,0.48,223.34,220911,,,A*7D
$GPVTG,223.34,T,,M,0.48,N,0.9,K,A*0C
$GPGGA,172935.000,3748.8004,N,12217.8627,W,1,06,1.6,0.8,M,-25.1,M,,0000*6F
$GPGSA,A,3,28,26,24,15,17,08,,,,,,,2.9,1.6,2.4*3A
$GPRMC,172935.000,A,3748.8004,N,12217.8627,W,0.44,256.58,220911,,,A*7A
$GPVTG,256.58,T,,M,0.44,N,0.8,K,A*09
$GPGGA,172936.000,3748.8010,N,12217.8630,W,1,05,1.8,2.1,M,-25.1,M,,0000*69
$GPGSA,A,3,28,26,24,15,08,,,,,,,,3.0,1.8,2.4*3A
$GPRMC,172936.000,A,3748.8010,N,12217.8630,W,0.36,346.64,220911,,,A*70
$GPVTG,346.64,T,,M,0.36,N,0.7,K,A*0C
$GPGGA,172937.000,3748.8017,N,12217.8630,W,1,05,1.8,3.8,M,-25.1,M,,0000*67
$GPGSA,A,3,28,26,24,15,08,,,,,,,,3.0,1.8,2.4*3A
$GPGSV,3,1,11,17,64,185,,28,63,024,24,26,53,253,28,08,45,110,27*7C
$GPGSV,3,2,11,15,30,300,38,01,21,073,30,07,19,122,27,11,17,055,28*75
$GPGSV,3,3,11,27,17,312,32,24,16,065,23,04,00,172,*48
$GPRMC,172937.000,A,3748.8017,N,12217.8630,W,0.53,5.01,220911,,,A*72
$GPVTG,5.01,T,,M,0.53,N,1.0,K,A*0E
$GPGGA,172938.000,3748.8029,N,12217.8631,W,1,05,1.8,5.6,M,-25.1,M,,0000*6C
$GPGSA,A,3,28,26,24,15,08,,,,,,,,3.0,1.8,2.4*3A
$GPRMC,172938.000,A,3748.8029,N,12217.8631,W,0.67,356.52,220911,,,A*75
$GPVTG,356.52,T,,M,0.67,N,1.2,K,A*08
$GPGGA,172939.000,3748.8037,N,12217.8632,W,1,05,1.8,7.2,M,-25.1,M,,0000*67
$GPGSA,A,3,28,26,24,15,08,,,,,,,,3.0,1.8,2.4*3A
$GPRMC,172939.000,A,3748.8037,N,12217.8632,W,0.38,338.52,220911,,,A*7A
$GPVTG,338.52,T,,M,0.38,N,0.7,K,A*0E
$GPGGA,172940.000,3748.8040,N,12217.8631,W,1,05,1.8,7.0,M,-25.1,M,,0000*68
$GPGSA,A,3,28,26,24,15,08,,,,,,,,3.0,1.8,2.4*3A
$GPRMC,172940.000,A,3748.8040,N,12217.8631,W,0.59,336.55,220911,,,A*79
$GPVTG,336.55,T,,M,0.59,N,1.1,K,A*07
$GPGGA,172941.000,3748.8048,N,12217.8631,W,1,05,1.8,6.9,M,-25.1,M,,0000*69
$GPGSA,A,3,28,26,24,15,08,,,,,,,,3.0,1.8,2.4*3A
$GPRMC,172941.000,A,3748.8048,N,12217.8631,W,0.45,341.96,220911,,,A*72
$GPVTG,341.96,T,,M,0.45,N,0.8,K,A*0D
$GPGGA,172942.000,3748.8053,N,12217.8625,W,1,05,1.8,6.7,M,-25.1,M,,0000*6B
$GPGSA,A,3,28,26,24,15,08,,,,,,,,3.0,1.8,2.4*3A
$GPGSV,3,1,11,17,64,185,,28,63,024,25,26,53,253,24,08,45,110,28*7E
$GPGSV,3,2,11,15,30,300,28,01,21,073,32,07,19,122,26,11,17,055,36*78
$GPGSV,3,3,11,27,17,312,33,24,16,065,32,04,00,172,*49
$GPRMC,172942.000,A,3748.8053,N,12217.8625,W,0.50,19.43,220911,,,A*4C
$GPVTG,19.43,T,,M,0.50,N,0.9,K,A*3E
$GPGGA,172943.000,3748.8056,N,12217.8621,W,1,05,1.8,7.2,M,-25.1,M,,0000*6F
$GPGSA,A,3,28,26,24,15,08,,,,,,,,3.0,1.8,2.4*3A
$GPRMC,172943.000,A,3748.8056,N,12217.8621,W,0.54,33.98,220911,,,A*46
$GPVTG,33.98,T,,M,0.54,N,1.0,K,A*3C
$GPGGA,172944.000,3748.8054,N,12217.8620,W,1,05,1.8,8.2,M,-25.1,M,,0000*64
$GPGSA,A,3,28,26,24,15,08,,,,,,,,3.0,1.8,2.4*3A
$GPRMC,172944.000,A,3748.8054,N,12217.8620,W,0.12,44.68,220911,,,A*4F
$GPVTG,44.68,T,,M,0.12,N,0.2,K,A*32
$GPGGA,172945.000,3748.8049,N,12217.8620,W,1,05,1.8,8.5,M,-25.1,M,,0000*6E
$GPGSA,A,3,28,26,24,15,08,,,,,,,,3.0,1.8,2.4*3A
$GPRMC,172945.000,A,3748.8049,N,12217.8620,W,0.24,68.38,220911,,,A*4C
$GPVTG,68.38,T,,M,0.24,N,0.4,K,A*3A
$GPGGA,172946.000,3748.8040,N,12217.8618,W,1,05,1.8,6.7,M,-25.1,M,,0000*63
$GPGSA,A,3,28,26,24,15,08,,,,,,,,3.0,1.8,2.4*3A
$GPRMC,172946.000,A,3748.8040,N,12217.8618,W,0.44,53.05,220911,,,A*4D
$GPVTG,53.05,T,,M,0.44,N,0.8,K,A*36
$GPGGA,172947.000,3748.8033,N,12217.8616,W,1,06,1.6,5.3,M,-25.1,M,,0000*62
$GPGSA,A,3,28,26,24,15,08,17,,,,,,,2.9,1.6,2.4*3A
$GPGSV,3,1,11,17,64,185,24,28,62,024,25,26,52,252,30,08,45,111,33*77
$GPGSV,3,2,11,15,30,300,27,01,21,073,32,07,18,123,33,27,17,312,22*73
$GPGSV,3,3,11,11,17,055,31,24,16,065,30,04,00,172,*4C
$GPRMC,172947.000,A,3748.8033,N,12217.8616,W,0.56,177.54,220911,,,A*76
$GPVTG,177.54,T,,M,0.56,N,1.0,K,A*0F
$GPGGA,172948.000,3748.8021,N,12217.8616,W,1,06,1.6,3.5,M,-25.1,M,,0000*6E
$GPGSA,A,3,28,26,24,15,08,17,,,,,,,2.9,1.6,2.4*3A
$GPRMC,172948.000,A,3748.8021,N,12217.8616,W,0.99,179.63,220911,,,A*73
$GPVTG,179.63,T,,M,0.99,N,1.8,K,A*0E
$GPGGA,172949.000,3748.8013,N,12217.8618,W,1,06,1.6,1.0,M,-25.1,M,,0000*67
$GPGSA,A,3,28,26,24,15,08,17,,,,,,,2.9,1.6,2.4*3A
$GPRMC,172949.000,A,3748.8013,N,12217.8618,W,0.80,161.08,220911,,,A*71
$GPVTG,161.08,T,,M,0.80,N,1.5,K,A*0F
$GPGGA,172950.000,3748.8013,N,12217.8618,W,1,06,1.6,0.7,M,-25.1,M,,0000*69
$GPGSA,A,3,28,26,24,15,08,17,,,,,,,2.9,1.6,2.4*3A
$GPRMC,172950.000,A,3748.8013,N,12217.8618,W,0.11,358.52,220911,,,A*76
$GPVTG,358.52,T,,M,0.11,N,0.2,K,A*06
$GPGGA,172951.000,3748.8019,N,12217.8619,W,1,06,1.6,-0.5,M,-25.1,M,,0000*4C
$GPGSA,A,3,28,26,24,15,08,17,,,,,,,2.9,1.6,2.4*3A
$GPRMC,172951.000,A,3748.8019,N,12217.8619,W,0.32,64.44,220911,,,A*46
$GPVTG,64.44,T,,M,0.32,N,0.6,K,A*38
$GPGGA,172952.000,3748.8022,N,12217.8618,W,1,06,1.6,-1.4,M,-25.1,M,,0000*46
$GPGSA,A,3,28,26,24,15,08,17,,,,,,,2.9,1.6,2.4*3A
$GPGSV,3,1,11,17,64,185,23,28,62,024,33,26,52,252,30,08,45,111,23*76
$GPGSV,3,2,11,15,30,300,34,01,21,073,33,07,18,123,21,27,17,312,35*75
$GPGSV,3,3,11,11,17,055,33,24,16,065,35,04,00,172,*4B
$GPRMC,172952.000,A,3748.8022,N,12217.8618,W,0.06,245.03,220911,,,A*79
$GPVTG,245.03,T,,M,0.06,N,0.1,K,A*0A
$GPGGA,172953.000,3748.8019,N,12217.8616,W,1,06,1.6,-2.0,M,-25.1,M,,0000*46
$GPGSA,A,3,28,26,24,15,08,17,,,,,,,2.9,1.6,2.4*3A
$GPRMC,172953.000,A,3748.8019,N,12217.8616,W,0.39,189.63,220911,,,A*77
$GPVTG,189.63,T,,M,0.39,N,0.7,K,A*05
$GPGGA,172954.000,3748.8017,N,12217.8616,W,1,06,1.6,-2.1,M,-25.1,M,,0000*4E
$GPGSA,A,3,28,26,24,15,08,17,,,,,,,2.9,1.6,2.4*3A
$GPRMC,172954.000,A,3748.8017,N,12217.8616,W,0.20,189.88,220911,,,A*73
$GPVTG,189.88,T,,M,0.20,N,0.4,K,A*0B
$GPGGA,172955.000,3748.8018,N,12217.8616,W,1,06,1.6,-2.2,M,-25.1,M,,0000*43
$GPGSA,A,3,28,26,24,15,08,17,,,,,,,2.9,1.6,2.4*3A
$GPRMC,172955.000,A,3748.8018,N,12217.8616,W,0.34,218.60,220911,,,A*75
$GPVTG,218.60,T,,M,0.34,N,0.6,K,A*01
$GPGGA,172956.000,3748.8018,N,12217.8617,W,1,06,1.6,-2.1,M,-25.1,M,,0000*42
$GPGSA,A,3,28,26,24,15,08,17,,,,,,,2.9,1.6,2.4*3A
$GPRMC,172956.000,A,3748.8018,N,12217.8617,W,0.18,54.96,220911,,,A*4A
$GPVTG,54.96,T,,M,0.18,N,0.3,K,A*39
$GPGGA,172957.000,3748.8019,N,12217.8616,W,1,06,1.6,-2.2,M,-25.1,M,,0000*40
$GPGSA,A,3,28,26,24,15,08,17,,,,,,,2.9,1.6,2.4*3A
$GPGSV,3,1,11,17,64,185,19,28,62,024,33,26,52,252,25,08,45,111,32*7B
$GPGSV,3,2,11,15,30,300,28,01,21,073,35,07,18,123,27,27,17,312,22*7E
$GPGSV,3,3,11,11,17,055,33,24,16,065,40,04,00,172,*49
$GPRMC,172957.000,A,3748.8019,N,12217.8616,W,0.08,238.88,220911,,,A*7D
$GPVTG,238.88,T,,M,0.08,N,0.2,K,A*0E
$GPGGA,172958.000,3748.8019,N,12217.8615,W,1,06,1.6,-2.3,M,-25.1,M,,0000*4D
$GPGSA,A,3,28,26,24,15,08,17,,,,,,,2.9,1.6,2.4*3A
$GPRMC,172958.000,A,3748.8019,N,12217.8615,W,0.31,206.15,220911,,,A*72
$GPVTG,206.15,T,,M,0.31,N,0.6,K,A*09
$GPGGA,172959.000,3748.8017,N,12217.8617,W,1,06,1.6,-2.5,M,-25.1,M,,0000*46
$GPGSA,A,3,28,26,24,15,08,17,,,,,,,2.9,1.6,2.4*3A
$GPRMC,172959.000,A,3748.8017,N,12217.8617,W,0.56,193.09,220911,,,A*7C
$GPVTG,193.09,T,,M,0.56,N,1.0,K,A*0D
$GPGGA,173000.000,3748.8012,N,12217.8614,W,1,06,1.6,-2.9,M,-25.1,M,,0000*48
$GPGSA,A,3,28,26,24,15,08,17,,,,,,,2.9,1.6,2.4*3A
$GPRMC,173000.000,A,3748.8012,N,12217.8614,W,0.67,159.68,220911,,,A*7D
$GPVTG,159.68,T,,M,0.67,N,1.2,K,A*0C
$GPGGA,173001.000,3748.8003,N,12217.8616,W,1,06,1.6,-3.0,M,-25.1,M,,0000*43
$GPGSA,A,3,28,26,24,15,08,17,,,,,,,2.9,1.6,2.4*3A
$GPRMC,173001.000,A,3748.8003,N,12217.8616,W,0.45,206.09,220911,,,A*70
$GPVTG,206.09,T,,M,0.45,N,0.8,K,A*09
$GPGGA,173002.000,3748.8000,N,12217.8616,W,1,06,1.6,-2.9,M,-25.1,M,,0000*4B
$GPGSA,A,3,28,26,24,15,08,17,,,,,,,2.9,1.6,2.4*3A
$GPGSV,3,1,11,17,64,185,20,28,62,024,24,26,52,252,26,08,45,111,21*76
$GPGSV,3,2,11,15,30,300,29,01,21,073,27,07,18,123,21,27,17,312,21*79
$GPGSV,3,3,11,11,17,055,25,24,16,065,28,04,00,172,*40
$GPRMC,173002.000,A,3748.8000,N,12217.8616,W,0.22,307.46,220911,,,A*7A
$GPGGA,173003.000,3748.8001,N,12217.8616,W,1,06,1.6,-2.5,M,-25.1,M,,0000*47
$GPGSA,A,3,28,26,24,15,08,17,,,,,,,2.9,1.6,2.4*3A
$GPRMC,173003.000,A,3748.8001,N,12217.8616,W,0.49,214.16,220911,,,A*71
$GPVTG,214.16,T,,M,0.49,N,0.9,K,A*09
$GPGGA,173004.000,3748.7997,N,12217.8617,W,1,06,1.6,-1.9,M,-25.1,M,,0000*47
$GPGSA,A,3,28,26,24,15,08,17,,,,,,,2.9,1.6,2.4*3A
$GPRMC,173004.000,A,3748.7997,N,12217.8617,W,0.58,173.75,220911,,,A*79
$GPVTG,173.75,T,,M,0.58,N,1.1,K,A*07
$GPGGA,173005.000,3748.7997,N,12217.8614,W,1,06,1.6,-0.9,M,-25.1,M,,0000*44
$GPGSA,A,3,28,26,24,15,08,17,,,,,,,2.9,1.6,2.4*3A
$GPRMC,173005.000,A,3748.7997,N,12217.8614,W,0.41,161.51,220911,,,A*76
$GPVTG,161.51,T,,M,0.41,N,0.8,K,A*02
$GPGGA,173006.000,3748.7996,N,12217.8613,W,1,06,1.6,-0.1,M,-25.1,M,,0000*49
$GPGSA,A,3,28,26,24,15,08,17,,,,,,,2.9,1.6,2.4*3A
$GPRMC,173006.000,A,3748.7996,N,12217.8613,W,0.25,124.81,220911,,,A*7D
$GPVTG,124.81,T,,M,0.25,N,0.5,K,A*01
$GPGGA,173007.000,3748.8000,N,12217.8613,W,1,06,1.6,1.3,M,-25.1,M,,0000*6F
$GPGSA,A,3,28,26,24,15,08,17,,,,,,,2.9,1.6,2.4*3A
$GPGSV,3,1,11,17,64,185,20,28,62,024,23,26,52,252,21,08,45,111,31*77
$GPGSV,3,2,11,15,30,300,16,01,21,073,25,07,18,123,24,27,17,312,21*72
$GPGSV,3,3,11,11,17,055,26,24,16,065,28,04,00,172,*43
$GPRMC,173007.000,A,3748.8000,N,12217.8613,W,0.27,78.46,220911,,,A*44
$GPVTG,78.46,T,,M,0.27,N,0.5,K,A*30
$GPGGA,173008.000,3748.8003,N,12217.8609,W,1,06,1.6,2.1,M,-25.1,M,,0000*69
$GPGSA,A,3,28,26,24,15,08,17,,,,,,,2.9,1.6,2.4*3A
$GPRMC,173008.000,A,3748.8003,N,12217.8609,W,0.75,95.84,220911,,,A*49
$GPVTG,95.84,T,,M,0.75,N,1.4,K,A*3A
$GPGGA,173009.000,3748.8004,N,12217.8606,W,1,06,1.6,2.4,M,-25.1,M,,0000*65
$GPGSA,A,3,28,26,24,15,08,17,,,,,,,2.9,1.6,2.4*3A
$GPRMC,173009.000,A,3748.8004,N,12217.8606,W,1.01,131.45,220911,,,A*70
$GPVTG,131.45,T,,M,1.01,N,1.9,K,A*07
$GPGGA,173010.000,3748.8008,N,12217.8609,W,1,06,1.6,1.7,M,-25.1,M,,0000*6E
$GPGSA,A,3,28,26,24,15,08,17,,,,,,,2.9,1.6,2.4*3A
$GPRMC,173010.000,A,3748.8008,N,12217.8609,W,0.39,37.34,220911,,,A*40
$GPVTG,37.34,T,,M,0.39,N,0.7,K,A*33
$GPGGA,173011.000,3748.8008,N,12217.8609,W,1,06,1.6,1.8,M,-25.1,M,,0000*60
$GPGSA,A,3,28,26,24,15,08,17,,,,,,,2.9,1.6,2.4*3A
$GPRMC,173011.000,A,3748.8008,N,12217.8609,W,0.31,116.41,220911,,,A*79
$GPVTG,116.41,T,,M,0.31,N,0.6,K,A*0A
$GPGGA,173012.000,3748.8011,N,12217.8603,W,1,05,1.8,4.2,M,-25.1,M,,0000*63
$GPGSA,A,3,28,26,24,15,08,,,,,,,,3.0,1.8,2.4*3A
$GPGSV,3,1,11,17,64,185,12,28,62,024,27,26,52,252,21,08,45,111,28*7A
$GPGSV,3,2,11,15,30,300,26,01,21,073,29,07,18,123,25,27,17,312,21*7C
$GPGSV,3,3,11,11,17,055,29,24,16,065,34,04,00,172,*41
$GPRMC,173012.000,A,3748.8011,N,12217.8603,W,0.14,108.44,220911,,,A*75
$GPVTG,108.44,T,,M,0.14,N,0.3,K,A*02
$GPGGA,173013.000,3748.8016,N,12217.8600,W,1,05,1.8,5.5,M,-25.1,M,,0000*60
$GPGSA,A,3,28,26,24,15,08,,,,,,,,3.0,1.8,2.4*3A
$GPRMC,173013.000,A,3748.8016,N,12217.8600,W,0.53,345.26,220911,,,A*7C
$GPVTG,345.26,T,,M,0.53,N,1.0,K,A*0C
$GPGGA,173014.000,3748.8021,N,12217.8596,W,1,05,1.8,6.3,M,-25.1,M,,0000*6A
$GPGSA,A,3,28,26,24,15,08,,,,,,,,3.0,1.8,2.4*3A
$GPRMC,173014.000,A,3748.8021,N,12217.8596,W,0.43,10.38,220911,,,A*4E
$GPVTG,10.38,T,,M,0.43,N,0.8,K,A*38
$GPGGA,173015.000,3748.8023,N,12217.8594,W,1,06,1.6,6.7,M,-25.1,M,,0000*62
$GPGSA,A,3,28,26,24,15,08,17,,,,,,,2.9,1.6,2.4*3A
$GPRMC,173015.000,A,3748.8023,N,12217.8594,W,0.40,23.08,220911,,,A*4F
$GPVTG,23.08,T,,M,0.40,N,0.7,K,A*37
$GPGGA,173016.000,3748.8025,N,12217.8596,W,1,06,1.6,7.0,M,-25.1,M,,0000*63
$GPGSA,A,3,28,26,24,15,08,17,,,,,,,2.9,1.6,2.4*3A
$GPRMC,173016.000,A,3748.8025,N,12217.8596,W,0.36,43.38,220911,,,A*4C
$GPVTG,43.38,T,,M,0.36,N,0.7,K,A*33
$GPGGA,173017.000,3748.8018,N,12217.8594,W,1,06,1.6,6.8,M,-25.1,M,,0000*67
$GPGSA,A,3,28,26,24,15,08,17,,,,,,,2.9,1.6,2.4*3A
$GPGSV,3,1,11,17,64,185,19,28,62,024,30,26,52,252,26,08,45,111,24*7C
$GPGSV,3,2,11,15,30,300,26,01,21,073,29,07,18,123,25,27,17,312,26*7B
$GPGSV,3,3,11,11,17,055,29,24,16,065,32,04,00,172,*47
$GPRMC,173017.000,A,3748.8018,N,12217.8594,W,0.25,100.33,220911,,,A*7E
$GPGGA,173018.000,3748.8013,N,12217.8592,W,1,06,1.6,6.5,M,-25.1,M,,0000*68
$GPGSA,A,3,28,26,24,15,08,17,,,,,,,2.9,1.6,2.4*3A
$GPRMC,173018.000,A,3748.8013,N,12217.8592,W,0.49,212.64,220911,,,A*74
$GPVTG,212.64,T,,M,0.49,N,0.9,K,A*0A
$GPGGA,173019.000,3748.8009,N,12217.8593,W,1,04,2.4,6.2,M,-25.1,M,,0000*67
$GPGSA,A,3,28,26,24,15,,,,,,,,,3.4,2.4,2.4*39
$GPRMC,173019.000,A,3748.8009,N,12217.8593,W,0.66,166.93,220911,,,A*7A
$GPVTG,166.93,T,,M,0.66,N,1.2,K,A*05
$GPGGA,173020.000,3748.8003,N,12217.8595,W,1,06,1.6,5.6,M,-25.1,M,,0000*65
$GPGSA,A,3,28,26,24,15,08,17,,,,,,,2.9,1.6,2.4*3A
$GPRMC,173020.000,A,3748.8003,N,12217.8595,W,0.52,174.52,220911,,,A*75
$GPVTG,174.52,T,,M,0.52,N,1.0,K,A*0E
$GPGGA,173021.000,3748.8006,N,12217.8594,W,1,06,1.6,5.1,M,-25.1,M,,0000*67
$GPGSA,A,3,28,26,24,15,08,17,,,,,,,2.9,1.6,2.4*3A
$GPRMC,173021.000,A,3748.8006,N,12217.8594,W,0.49,29.73,220911,,,A*40
$GPVTG,29.73,T,,M,0.49,N,0.9,K,A*36
$GPGGA,173022.000,3748.8007,N,12217.8593,W,1,06,1.6,4.6,M,-25.1,M,,0000*64
$GPGSA,A,3,28,26,24,15,08,17,,,,,,,2.9,1.6,2.4*3A
$GPGSV,3,1,11,17,64,185,19,28,62,024,33,26,52,252,23,08,45,111,31*7E
$GPGSV,3,2,11,15,30,300,29,01,21,073,29,07,18,123,20,27,17,312,26*71
$GPGSV,3,3,11,11,17,055,33,24,16,065,36,04,00,172,*48
$GPRMC,173022.000,A,3748.8007,N,12217.8593,W,0.04,126.22,220911,,,A*76
$GPVTG,126.22,T,,M,0.04,N,0.1,K,A*0D
$GPGGA,173023.000,3748.8004,N,12217.8596,W,1,06,1.6,3.8,M,-25.1,M,,0000*6A
$GPGSA,A,3,28,26,24,15,08,17,,,,,,,2.9,1.6,2.4*3A
$GPRMC,173023.000,A,3748.8004,N,12217.8596,W,0.34,21.37,220911,,,A*40
$GPVTG,21.37,T,,M,0.34,N,0.6,K,A*3B
$GPGGA,173024.000,3748.8010,N,12217.8597,W,1,05,1.8,2.6,M,-25.1,M,,0000*6B
$GPGSA,A,3,28,26,24,15,08,,,,,,,,3.0,1.8,2.4*3A
$GPRMC,173024.000,A,3748.8010,N,12217.8597,W,0.86,40.09,220911,,,A*40
$GPVTG,40.09,T,,M,0.86,N,1.6,K,A*39
$GPGGA,173025.000,3748.8009,N,12217.8597,W,1,06,1.6,3.3,M,-25.1,M,,0000*6B
$GPGSA,A,3,28,26,24,15,08,17,,,,,,,2.9,1.6,2.4*3A
$GPRMC,173025.000,A,3748.8009,N,12217.8597,W,0.45,44.69,220911,,,A*44
$GPVTG,44.69,T,,M,0.45,N,0.8,K,A*3B
$GPGGA,173026.000,3748.8007,N,12217.8599,W,1,05,1.7,2.5,M,-25.1,M,,0000*6D
$GPGSA,A,3,28,24,15,08,17,,,,,,,,3.0,1.7,2.4*37
$GPRMC,173026.000,A,3748.8007,N,12217.8599,W,0.33,84.73,220911,,,A*41
$GPVTG,84.73,T,,M,0.33,N,0.6,K,A*33
$GPGGA,173027.000,3748.8006,N,12217.8601,W,1,06,1.6,1.1,M,-25.1,M,,0000*6A
$GPGSA,A,3,28,26,24,15,08,17,,,,,,,2.9,1.6,2.4*3A
$GPGSV,3,1,11,17,64,185,17,28,62,024,26,26,52,252,17,08,45,111,18*78
$GPGSV,3,2,11,15,30,300,24,01,21,073,28,07,18,123,20,27,17,312,16*7E
$GPGSV,3,3,11,11,17,055,22,24,16,065,30,04,00,172,*4E
$GPRMC,173027.000,A,3748.8006,N,12217.8601,W,0.50,344.32,220911,,,A*7C
$GPVTG,344.32,T,,M,0.50,N,0.9,K,A*03
$GPGGA,173028.000,3748.8000,N,12217.8607,W,1,05,1.7,-0.8,M,-25.1,M,,0000*42
$GPGSA,A,3,28,26,15,08,17,,,,,,,,4.0,1.7,3.6*31
$GPRMC,173028.000,A,3748.8000,N,12217.8607,W,0.36,300.82,220911,,,A*78
$GPVTG,300.82,T,,M,0.36,N,0.7,K,A*06
$GPGGA,173029.000,3748.8006,N,12217.8608,W,1,05,1.7,-0.5,M,-25.1,M,,0000*47
$GPGSA,A,3,28,26,15,08,17,,,,,,,,4.0,1.7,3.6*31
$GPRMC,173029.000,A,3748.8006,N,12217.8608,W,0.73,347.67,220911,,,A*79
$GPVTG,347.67,T,,M,0.73,N,1.3,K,A*0A
$GPGGA,173030.000,3748.8012,N,12217.8606,W,1,05,1.8,0.8,M,-25.1,M,,0000*6B
$GPGSA,A,3,28,26,24,15,08,,,,,,,,3.0,1.8,2.4*3A
$GPRMC,173030.000,A,3748.8012,N,12217.8606,W,1.38,352.14,220911,,,A*74
$GPVTG,352.14,T,,M,1.38,N,2.6,K,A*02
$GPGGA,173031.000,3748.8020,N,12217.8605,W,1,04,2.4,5.0,M,-25.1,M,,0000*6B
$GPGSA,A,3,28,26,24,15,,,,,,,,,3.4,2.4,2.4*39
$GPRMC,173031.000,A,3748.8020,N,12217.8605,W,1.82,353.22,220911,,,A*72
$GPVTG,353.22,T,,M,1.82,N,3.4,K,A*04
$GPGGA,173032.000,3748.8030,N,12217.8610,W,1,05,1.8,4.7,M,-25.1,M,,0000*65
$GPGSA,A,3,28,26,24,15,08,,,,,,,,3.0,1.8,2.4*3A
$GPGSV,3,1,11,17,64,185,,28,62,024,26,26,52,252,18,08,45,111,18*71
$GPGSV,3,2,11,15,30,300,24,01,21,073,19,07,18,123,19,27,17,312,21*72
$GPGSV,3,3,11,11,17,055,14,24,16,065,22,04,00,172,*48
$GPRMC,173032.000,A,3748.8030,N,12217.8610,W,2.19,348.83,220911,,,A*74
$GPVTG,348.83,T,,M,2.19,N,4.1,K,A*06
$GPGGA,173033.000,3748.8036,N,12217.8613,W,1,04,2.4,4.8,M,-25.1,M,,0000*60
$GPGSA,A,3,28,26,24,15,,,,,,,,,3.4,2.4,2.4*39
$GPRMC,173033.000,A,3748.8036,N,12217.8613,W,1.34,356.44,220911,,,A*78
$GPVTG,356.44,T,,M,1.34,N,2.5,K,A*0C
$GPGGA,173034.000,3748.8047,N,12217.8614,W,1,04,2.4,5.0,M,-25.1,M,,0000*6F
$GPGSA,A,3,28,26,24,15,,,,,,,,,3.4,2.4,2.4*39
$GPRMC,173034.000,A,3748.8047,N,12217.8614,W,0.69,343.42,220911,,,A*75
$GPVTG,343.42,T,,M,0.69,N,1.3,K,A*02
$GPGGA,173035.000,3748.8054,N,12217.8614,W,1,04,1.8,4.1,M,-25.1,M,,0000*63
$GPGSA,A,3,26,24,15,08,,,,,,,,,2.1,1.8,1.0*37
$GPRMC,173035.000,A,3748.8054,N,12217.8614,W,0.76,356.80,220911,,,A*72
$GPVTG,356.80,T,,M,0.76,N,1.4,K,A*01
$GPGGA,173036.000,3748.8052,N,12217.8615,W,1,05,1.8,2.8,M,-25.1,M,,0000*69
$GPGSA,A,3,28,26,24,15,08,,,,,,,,3.0,1.8,2.4*3A
$GPRMC,173036.000,A,3748.8052,N,12217.8615,W,0.89,219.47,220911,,,A*77
$GPVTG,219.47,T,,M,0.89,N,1.7,K,A*03
$GPGGA,173037.000,3748.8044,N,12217.8623,W,1,05,1.8,1.6,M,-25.1,M,,0000*67
$GPGSA,A,3,28,26,24,15,08,,,,,,,,3.0,1.8,2.4*3A
$GPGSV,3,1,11,17,64,185,,28,62,024,26,26,52,252,23,08,45,111,17*76
$GPGSV,3,2,11,15,30,300,25,01,21,073,19,07,18,123,17,27,17,312,23*7F
$GPGSV,3,3,11,11,17,055,16,24,16,065,20,04,00,172,*48
$GPRMC,173037.000,A,3748.8044,N,12217.8623,W,0.57,229.90,220911,,,A*7E
$GPVTG,229.90,T,,M,0.57,N,1.1,K,A*0F
$GPGGA,173038.000,3748.8031,N,12217.8630,W,1,05,1.8,0.3,M,-25.1,M,,0000*6C
$GPGSA,A,3,28,26,24,15,08,,,,,,,,3.0,1.8,2.4*3A
$GPRMC,173038.000,A,3748.8031,N,12217.8630,W,1.15,198.03,220911,,,A*75
$GPVTG,198.03,T,,M,1.15,N,2.1,K,A*08
$GPGGA,173039.000,3748.8028,N,12217.8634,W,1,04,2.4,-1.2,M,-25.1,M,,0000*42
$GPGSA,A,3,28,26,24,15,,,,,,,,,3.4,2.4,2.4*39
$GPRMC,173039.000,A,3748.8028,N,12217.8634,W,0.79,178.15,220911,,,A*7A
$GPVTG,178.15,T,,M,0.79,N,1.5,K,A*0D
$GPGGA,173040.000,3748.8028,N,12217.8636,W,1,05,1.8,-2.3,M,-25.1,M,,0000*42
$GPGSA,A,3,28,26,24,15,08,,,,,,,,3.0,1.8,2.4*3A
$GPRMC,173040.000,A,3748.8028,N,12217.8636,W,0.70,188.04,220911,,,A*70
$GPVTG,188.04,T,,M,0.70,N,1.3,K,A*0D
$GPGGA,173041.000,3748.8021,N,12217.8638,W,1,05,1.8,-3.8,M,-25.1,M,,0000*4E
$GPGSA,A,3,28,26,24,15,08,,,,,,,,3.0,1.8,2.4*3A
$GPRMC,173041.000,A,3748.8021,N,12217.8638,W,0.68,198.42,220911,,,A*7C
$GPVTG,198.42,T,,M,0.68,N,1.3,K,A*07
$GPGGA,173042.000,3748.8020,N,12217.8631,W,1,05,1.8,-4.1,M,-25.1,M,,0000*4B
$GPGSA,A,3,28,26,24,15,08,,,,,,,,3.0,1.8,2.4*3A
$GPGSV,3,1,11,17,64,185,,28,62,024,26,26,52,252,25,08,45,111,22*76
$GPGSV,3,2,11,15,30,300,27,01,21,073,23,07,18,123,18,27,17,312,16*7D
$GPGSV,3,3,11,11,17,055,24,24,16,065,25,04,00,172,*4C
$GPRMC,173042.000,A,3748.8020,N,12217.8631,W,0.26,74.74,220911,,,A*4B
$GPVTG,74.74,T,,M,0.26,N,0.5,K,A*3C
$GPGGA,173043.000,3748.8013,N,12217.8634,W,1,05,1.8,-5.0,M,-25.1,M,,0000*4F
$GPGSA,A,3,28,26,24,15,08,,,,,,,,3.0,1.8,2.4*3A
$GPRMC,173043.000,A,3748.8013,N,12217.8634,W,0.48,223.04,220911,,,A*70
$GPVTG,223.04,T,,M,0.48,N,0.9,K,A*0F
$GPGGA,173044.000,3748.8011,N,12217.8637,W,1,06,1.6,-6.1,M,-25.1,M,,0000*46
$GPGSA,A,3,28,26,24,15,08,17,,,,,,,2.9,1.6,2.4*3A
$GPRMC,173044.000,A,3748.8011,N,12217.8637,W,0.67,207.56,220911,,,A*7A
$GPVTG,207.56,T,,M,0.67,N,1.2,K,A*09
$GPGGA,173045.000,3748.8006,N,12217.8636,W,1,06,1.6,-6.4,M,-25.1,M,,0000*45
$GPGSA,A,3,28,26,24,15,08,17,,,,,,,2.9,1.6,2.4*3A
$GPRMC,173045.000,A,3748.8006,N,12217.8636,W,0.44,185.56,220911,,,A*74
$GPVTG,185.56,T,,M,0.44,N,0.8,K,A*0A
$GPGGA,173046.000,3748.8004,N,12217.8633,W,1,06,1.6,-6.7,M,-25.1,M,,0000*42
$GPGSA,A,3,28,26,24,15,08,17,,,,,,,2.9,1.6,2.4*3A
$GPRMC,173046.000,A,3748.8004,N,12217.8633,W,0.35,183.45,220911,,,A*72
$GPVTG,183.45,T,,M,0.35,N,0.7,K,A*07
$GPGGA,173047.000,3748.8000,N,12217.8630,W,1,06,1.6,-6.2,M,-25.1,M,,0000*41
$GPGSA,A,3,28,26,24,15,08,17,,,,,,,2.9,1.6,2.4*3A
$GPGSV,3,1,11,17,64,185,19,28,62,024,34,26,52,252,24,08,45,111,29*77
$GPGSV,3,2,11,15,30,300,26,01,21,073,37,07,18,123,20,27,17,312,24*73
$GPGSV,3,3,11,11,17,055,35,24,16,065,38,04,00,172,*40
$GPRMC,173047.000,A,3748.8000,N,12217.8630,W,0.23,179.74,220911,,,A*74
$GPGGA,173048.000,3748.7999,N,12217.8627,W,1,06,1.6,-5.8,M,-25.1,M,,0000*47
$GPGSA,A,3,28,26,24,15,08,17,,,,,,,2.9,1.6,2.4*3A
$GPRMC,173048.000,A,3748.7999,N,12217.8627,W,0.20,194.64,220911,,,A*7A
$GPVTG,194.64,T,,M,0.20,N,0.4,K,A*05
$GPGGA,173049.000,3748.8001,N,12217.8623,W,1,06,1.6,-5.4,M,-25.1,M,,0000*49
$GPGSA,A,3,28,26,24,15,08,17,,,,,,,2.9,1.6,2.4*3A
$GPRMC,173049.000,A,3748.8001,N,12217.8623,W,0.20,155.27,220911,,,A*72
$GPVTG,155.27,T,,M,0.20,N,0.4,K,A*0F
$GPGGA,173050.000,3748.8007,N,12217.8622,W,1,06,1.6,-5.5,M,-25.1,M,,0000*47
$GPGSA,A,3,28,26,24,15,08,17,,,,,,,2.9,1.6,2.4*3A
$GPRMC,173050.000,A,3748.8007,N,12217.8622,W,0.19,218.12,220911,,,A*7B
$GPVTG,218.12,T,,M,0.19,N,0.3,K,A*0E
$GPGGA,173051.000,3748.8008,N,12217.8622,W,1,06,1.6,-5.3,M,-25.1,M,,0000*4F
$GPGSA,A,3,28,26,24,15,08,17,,,,,,,2.9,1.6,2.4*3A
$GPRMC,173051.000,A,3748.8008,N,12217.8622,W,0.11,11.89,220911,,,A*44
$GPVTG,11.89,T,,M,0.11,N,0.2,K,A*3E
$GPGGA,173052.000,3748.8008,N,12217.8622,W,1,06,1.6,-5.0,M,-25.1,M,,0000*4F
$GPGSA,A,3,28,26,24,15,08,17,,,,,,,2.9,1.6,2.4*3A
$GPGSV,3,1,11,17,64,185,27,28,62,024,33,26,52,252,17,08,45,111,32*77
$GPGSV,3,2,11,15,30,300,26,01,21,073,33,07,18,123,20,27,17,312,23*70
$GPGSV,3,3,11,11,17,055,29,24,16,065,33,04,00,172,*46
$GPRMC,173052.000,A,3748.8008,N,12217.8622,W,0.26,344.15,220911,,,A*75
$GPVTG,344.15,T,,M,0.26,N,0.5,K,A*0B
$GPGGA,173053.000,3748.8002,N,12217.8619,W,1,06,1.6,-3.2,M,-25.1,M,,0000*48
$GPGSA,A,3,28,26,24,15,08,17,,,,,,,2.9,1.6,2.4*3A
$GPRMC,173053.000,A,3748.8002,N,12217.8619,W,0.35,141.91,220911,,,A*7F
$GPVTG,141.91,T,,M,0.35,N,0.6,K,A*01
$GPGGA,173054.000,3748.8001,N,12217.8616,W,1,06,1.6,-2.1,M,-25.1,M,,0000*41
$GPGSA,A,3,28,26,24,15,08,17,,,,,,,2.9,1.6,2.4*3A
$GPRMC,173054.000,A,3748.8001,N,12217.8616,W,0.10,65.19,220911,,,A*44
$GPVTG,65.19,T,,M,0.10,N,0.2,K,A*35
$GPGGA,173055.000,3748.8001,N,12217.8614,W,1,06,1.6,-1.3,M,-25.1,M,,0000*43
$GPGSA,A,3,28,26,24,15,08,17,,,,,,,2.9,1.6,2.4*3A
$GPRMC,173055.000,A,3748.8001,N,12217.8614,W,0.08,344.83,220911,,,A*7D
$GPVTG,344.83,T,,M,0.08,N,0.2,K,A*0F
$GPGGA,173056.000,3748.8002,N,12217.8613,W,1,06,1.6,-0.8,M,-25.1,M,,0000*4E
$GPGSA,A,3,28,26,24,15,08,17,,,,,,,2.9,1.6,2.4*3A
$GPRMC,173056.000,A,3748.8002,N,12217.8613,W,0.10,119.90,220911,,,A*7B
$GPVTG,119.90,T,,M,0.10,N,0.2,K,A*0E
$GPGGA,173057.000,3748.8002,N,12217.8611,W,1,06,1.6,-0.2,M,-25.1,M,,0000*47
$GPGSA,A,3,28,26,24,15,08,17,,,,,,,2.9,1.6,2.4*3A
$GPGSV,3,1,11,17,64,185,25,28,62,024,32,26,52,252,20,08,45,111,34*76
$GPGSV,3,2,11,15,30,300,26,01,21,073,36,07,18,123,25,27,17,312,23*70
$GPGSV,3,3,11,11,17,055,35,24,16,065,37,04,00,172,*4F
$GPRMC,173057.000,A,3748.8002,N,12217.8611,W,0.19,72.10,220911,,,A*45
$GPVTG,72.10,T,,M,0.19,N,0.3,K,A*32
$GPGGA,173058.000,3748.7999,N,12217.8610,W,1,06,1.6,0.8,M,-25.1,M,,0000*6A
$GPGSA,A,3,28,26,24,15,08,17,,,,,,,2.9,1.6,2.4*3A
$GPRMC,173058.000,A,3748.7999,N,12217.8610,W,0.19,102.07,220911,,,A*7F
$GPVTG,102.07,T,,M,0.19,N,0.4,K,A*05
$GPGGA,173059.000,3748.7994,N,12217.8609,W,1,06,1.6,0.9,M,-25.1,M,,0000*6F
$GPGSA,A,3,28,26,24,15,08,17,,,,,,,2.9,1.6,2.4*3A
$GPRMC,173059.000,A,3748.7994,N,12217.8609,W,0.33,22.17,220911,,,A*41
$GPVTG,22.17,T,,M,0.33,N,0.6,K,A*3D
$GPGGA,173100.000,3748.7995,N,12217.8602,W,1,06,1.6,1.1,M,-25.1,M,,0000*61
$GPGSA,A,3,28,26,24,15,08,17,,,,,,,2.9,1.6,2.4*3A
$GPRMC,173100.000,A,3748.7995,N,12217.8602,W,1.02,51.86,220911,,,A*49
$GPVTG,51.86,T,,M,1.02,N,1.9,K,A*3C
$GPGGA,173101.000,3748.7994,N,12217.8595,W,1,06,1.6,3.4,M,-25.1,M,,0000*6B
$GPGSA,A,3,28,26,24,15,08,17,,,,,,,2.9,1.6,2.4*3A
$GPRMC,173101.000,A,3748.7994,N,12217.8595,W,0.44,112.52,220911,,,A*78
$GPVTG,112.52,T,,M,0.44,N,0.8,K,A*00
$GPGGA,173102.000,3748.7992,N,12217.8594,W,1,06,1.6,3.5,M,-25.1,M,,0000*6E
$GPGSA,A,3,28,26,24,15,08,17,,,,,,,2.9,1.6,2.4*3A
$GPGSV,3,1,12,17,64,185,29,28,62,024,28,26,52,252,23,08,45,111,35*70
$GPGSV,3,2,12,15,30,300,25,01,21,073,36,07,18,123,33,27,17,312,25*71
$GPGSV,3,3,12,11,17,055,32,24,16,065,35,04,00,172,,48,44,197,28*70
$GPRMC,173102.000,A,3748.7992,N,12217.8594,W,0.44,4.14,220911,,,A*78
$GPGGA,173103.000,3748.7992,N,12217.8597,W,1,06,1.6,2.8,M,-25.1,M,,0000*60
$GPGSA,A,3,28,26,24,15,08,17,,,,,,,2.9,1.6,2.4*3A
$GPRMC,173103.000,A,3748.7992,N,12217.8597,W,0.63,333.44,220911,,,A*7D
$GPVTG,333.44,T,,M,0.63,N,1.2,K,A*08
$GPGGA,173104.000,3748.7989,N,12217.8600,W,1,06,1.6,2.3,M,-25.1,M,,0000*6B
$GPGSA,A,3,28,26,24,15,08,17,,,,,,,2.9,1.6,2.4*3A
$GPRMC,173104.000,A,3748.7989,N,12217.8600,W,0.39,175.90,220911,,,A*7B
$GPVTG,175.90,T,,M,0.39,N,0.7,K,A*0A
$GPGGA,173105.000,3748.7990,N,12217.8603,W,1,06,1.6,2.7,M,-25.1,M,,0000*65
$GPGSA,A,3,28,26,24,15,08,17,,,,,,,2.9,1.6,2.4*3A
$GPRMC,173105.000,A,3748.7990,N,12217.8603,W,1.59,134.76,220911,,,A*7B
$GPVTG,134.76,T,,M,1.59,N,2.9,K,A*0C
$GPGGA,173106.000,3748.7986,N,12217.8599,W,1,06,1.6,2.5,M,-25.1,M,,0000*63
$GPGSA,A,3,28,26,24,15,08,17,,,,,,,2.9,1.6,2.4*3A
$GPRMC,173106.000,A,3748.7986,N,12217.8599,W,2.43,126.54,220911,,,A*74
$GPVTG,126.54,T,,M,2.43,N,4.5,K,A*0D
$GPGGA,173107.000,3748.7977,N,12217.8595,W,1,06,1.6,1.4,M,-25.1,M,,0000*62
$GPGSA,A,3,28,26,24,15,08,17,,,,,,,2.9,1.6,2.4*3A
$GPGSV,3,1,12,17,64,185,32,28,62,024,23,26,52,252,31,08,45,111,29*7F
$GPGSV,3,2,12,15,30,300,30,01,21,073,25,07,18,123,34,27,17,312,23*76
$GPGSV,3,3,12,11,17,055,24,24,16,065,24,04,00,172,,51,43,156,32*7E
$GPRMC,173107.000,A,3748.7977,N,12217.8595,W,2.71,121.45,220911,,,A*71
$GPVTG,121.45,T,,M,2.71,N,5.0,K,A*0F
$GPGGA,173108.000,3748.7968,N,12217.8589,W,1,06,1.6,-0.1,M,-25.1,M,,0000*47
$GPGSA,A,3,28,26,24,15,08,17,,,,,,,2.9,1.6,2.4*3A
$GPRMC,173108.000,A,3748.7968,N,12217.8589,W,2.64,118.83,220911,,,A*79
$GPVTG,118.83,T,,M,2.64,N,4.9,K,A*03
$GPGGA,173109.000,3748.7962,N,12217.8580,W,1,06,1.6,-0.7,M,-25.1,M,,0000*43
$GPGSA,A,3,28,26,24,15,08,17,,,,,,,2.9,1.6,2.4*3A
$GPRMC,173109.000,A,3748.7962,N,12217.8580,W,2.83,120.19,220911,,,A*7A
$GPVTG,120.19,T,,M,2.83,N,5.2,K,A*08
$GPGGA,173110.000,3748.7957,N,12217.8573,W,1,06,1.6,-0.9,M,-25.1,M,,0000*4F
$GPGSA,A,3,28,26,24,15,08,17,,,,,,,2.9,1.6,2.4*3A
$GPRMC,173110.000,A,3748.7957,N,12217.8573,W,2.59,125.05,220911,,,A*77
$GPVTG,125.05,T,,M,2.59,N,4.8,K,A*0C
$GPGGA,173111.000,3748.7952,N,12217.8566,W,1,06,1.6,-0.4,M,-25.1,M,,0000*42
$GPGSA,A,3,28,26,24,15,08,17,,,,,,,2.9,1.6,2.4*3A
$GPRMC,173111.000,A,3748.7952,N,12217.8566,W,2.45,121.04,220911,,,A*7F
$GPVTG,121.04,T,,M,2.45,N,4.5,K,A*09
$GPGGA,173112.000,3748.7944,N,12217.8560,W,1,06,1.6,-0.0,M,-25.1,M,,0000*44
$GPGSA,A,3,28,26,24,15,08,17,,,,,,,2.9,1.6,2.4*3A
$GPGSV,3,1,12,17,64,185,32,28,62,024,22,26,52,252,33,08,45,111,30*74
$GPGSV,3,2,12,15,30,300,28,01,21,073,22,07,18,123,32,27,17,312,25*78
$GPGSV,3,3,12,11,17,055,25,24,16,065,24,04,00,172,,51,43,156,35*78
$GPRMC,173112.000,A,3748.7944,N,12217.8560,W,2.44,134.78,220911,,,A*73
$GPVTG,134.78,T,,M,2.44,N,4.5,K,A*07
$GPGGA,173113.000,3748.7938,N,12217.8554,W,1,06,1.6,-0.7,M,-25.1,M,,0000*4E
$GPGSA,A,3,28,26,24,15,08,17,,,,,,,2.9,1.6,2.4*3A
$GPRMC,173113.000,A,3748.7938,N,12217.8554,W,2.82,140.66,220911,,,A*78
$GPVTG,140.66,T,,M,2.82,N,5.2,K,A*07
$GPGGA,173114.000,3748.7925,N,12217.8550,W,1,06,1.6,-1.9,M,-25.1,M,,0000*4E
$GPGSA,A,3,28,26,24,15,08,17,,,,,,,2.9,1.6,2.4*3A
$GPRMC,173114.000,A,3748.7925,N,12217.8550,W,3.15,147.43,220911,,,A*78
$GPVTG,147.43,T,,M,3.15,N,5.8,K,A*02
$GPGGA,173115.000,3748.7919,N,12217.8545,W,1,06,1.6,-2.1,M,-25.1,M,,0000*4F
$GPGSA,A,3,28,26,24,15,08,17,,,,,,,2.9,1.6,2.4*3A
$GPRMC,173115.000,A,3748.7919,N,12217.8545,W,2.72,137.63,220911,,,A*77
$GPVTG,137.63,T,,M,2.72,N,5.0,K,A*0F
$GPGGA,173116.000,3748.7916,N,12217.8538,W,2,06,1.6,-1.9,M,-25.1,M,1.8,0000*66
$GPGSA,A,3,28,26,24,15,08,17,,,,,,,2.9,1.6,2.4*3A
$GPRMC,173116.000,A,3748.7916,N,12217.8538,W,2.51,135.85,220911,,,D*7F
$GPVTG,135.85,T,,M,2.51,N,4.7,K,D*07
$GPGGA,173117.000,3748.7909,N,12217.8531,W,2,06,1.6,-2.7,M,-25.1,M,1.8,0000*6D
$GPGSA,A,3,28,26,24,15,08,17,,,,,,,2.9,1.6,2.4*3A
$GPGSV,3,1,12,17,65,185,32,28,62,025,22,26,52,251,33,08,44,111,29*7E
$GPGSV,3,2,12,15,31,299,28,01,21,072,19,27,18,312,25,07,18,123,26*7B
$GPGSV,3,3,12,11,17,054,20,24,16,065,20,04,01,171,,51,43,156,35*7A
$GPVTG,135.19,T,,M,2.43,N,4.5,K,D*03
$GPGGA,173118.000,3748.7905,N,12217.8525,W,2,06,1.6,-3.3,M,-25.1,M,1.8,0000*6E
$GPGSA,A,3,28,26,24,15,08,17,,,,,,,2.9,1.6,2.4*3A
$GPRMC,173118.000,A,3748.7905,N,12217.8525,W,2.44,133.70,220911,,,D*77
$GPVTG,133.70,T,,M,2.44,N,4.5,K,D*0D
$GPGGA,173119.000,3748.7901,N,12217.8518,W,2,06,1.6,-3.8,M,-25.1,M,2.8,0000*6D
$GPGSA,A,3,28,26,24,15,08,17,,,,,,,2.9,1.6,2.4*3A
$GPRMC,173119.000,A,3748.7901,N,12217.8518,W,2.53,127.73,220911,,,D*7C
$GPVTG,127.73,T,,M,2.53,N,4.7,K,D*0F
$GPGGA,173120.000,3748.7895,N,12217.8514,W,2,06,1.6,-3.5,M,-25.1,M,3.8,0000*6B
$GPGSA,A,3,28,26,24,15,08,17,,,,,,,2.9,1.6,2.4*3A
$GPRMC,173120.000,A,3748.7895,N,12217.8514,W,2.51,140.38,220911,,,D*7A
$GPVTG,140.38,T,,M,2.51,N,4.7,K,D*03
$GPGGA,173121.000,3748.7897,N,12217.8509,W,2,08,1.2,-4.7,M,-25.1,M,1.8,0000*69
$GPGSA,A,3,28,26,07,11,24,15,08,17,,,,,2.1,1.2,1.8*3E
$GPRMC,173121.000,A,3748.7897,N,12217.8509,W,2.09,126.83,220911,,,D*78
$GPVTG,126.83,T,,M,2.09,N,3.9,K,D*07
$GPGGA,173122.000,3748.7895,N,12217.8505,W,2,08,1.2,-4.2,M,-25.1,M,1.8,0000*61
$GPGSA,A,3,28,26,07,11,24,15,08,17,,,,,2.1,1.2,1.8*3E
$GPGSV,3,1,12,17,65,185,25,28,62,025,22,26,52,251,30,08,44,111,29*7B
$GPGSV,3,2,12,15,31,299,22,01,21,072,25,27,18,312,21,07,18,123,29*75
$GPGSV,3,3,12,11,17,054,19,24,16,064,23,04,01,171,,51,43,156,25*73
$GPRMC,173122.000,A,3748.7895,N,12217.8505,W,2.32,127.83,220911,,,D*7C
$GPVTG,127.83,T,,M,2.32,N,4.3,K,D*03
$GPGGA,173123.000,3748.7897,N,12217.8498,W,2,08,1.2,-2.5,M,-25.1,M,2.8,0000*65
$GPGSA,A,3,28,26,07,11,24,15,08,17,,,,,2.1,1.2,1.8*3E
$GPRMC,173123.000,A,3748.7897,N,12217.8498,W,2.08,144.36,220911,,,D*78
$GPVTG,144.36,T,,M,2.08,N,3.8,K,D*0D
$GPGGA,173124.000,3748.7894,N,12217.8490,W,2,08,1.2,-2.2,M,-25.1,M,3.8,0000*6F
$GPGSA,A,3,28,26,07,11,24,15,08,17,,,,,2.1,1.2,1.8*3E
$GPRMC,173124.000,A,3748.7894,N,12217.8490,W,2.22,117.19,220911,,,D*77
$GPVTG,117.19,T,,M,2.22,N,4.1,K,D*00
$GPGGA,173125.000,3748.7893,N,12217.8487,W,2,08,1.2,-3.3,M,-25.1,M,4.8,0000*68
$GPGSA,A,3,28,26,07,11,24,15,08,17,,,,,2.1,1.2,1.8*3E
$GPRMC,173125.000,A,3748.7893,N,12217.8487,W,2.07,119.71,220911,,,D*70
$GPVTG,119.71,T,,M,2.07,N,3.8,K,D*09
$GPGGA,173126.000,3748.7888,N,12217.8482,W,2,08,1.2,-3.7,M,-25.1,M,5.8,0000*61
$GPGSA,A,3,28,26,07,11,24,15,08,17,,,,,2.1,1.2,1.8*3E
$GPRMC,173126.000,A,3748.7888,N,12217.8482,W,1.98,146.30,220911,,,D*76
$GPVTG,146.30,T,,M,1.98,N,3.7,K,D*0C
$GPGGA,173127.000,3748.7882,N,12217.8475,W,2,08,1.2,-4.6,M,-25.1,M,6.8,0000*67
$GPGSA,A,3,28,26,07,11,24,15,08,17,,,,,2.1,1.2,1.8*3E
$GPGSV,3,1,12,17,65,185,23,28,62,025,17,26,52,251,22,08,44,111,23*72
$GPGSV,3,2,12,15,31,299,21,01,21,072,23,27,18,312,19,07,18,123,28*7A
$GPGSV,3,3,12,11,17,054,19,24,16,064,22,04,01,171,,51,43,156,27*70
$GPRMC,173127.000,A,3748.7882,N,12217.8475,W,1.75,150.05,220911,,,D*77
$GPVTG,150.05,T,,M,1.75,N,3.2,K,D*0B
$GPGGA,173128.000,3748.7875,N,12217.8464,W,2,08,1.2,-5.1,M,-25.1,M,7.8,0000*67
$GPGSA,A,3,28,26,07,11,24,15,08,17,,,,,2.1,1.2,1.8*3E
$GPRMC,173128.000,A,3748.7875,N,12217.8464,W,1.66,141.44,220911,,,D*77
$GPVTG,141.44,T,,M,1.66,N,3.1,K,D*0F
$GPGGA,173129.000,3748.7871,N,12217.8458,W,2,08,1.2,-7.0,M,-25.1,M,8.8,0000*61
$GPGSA,A,3,28,26,07,11,24,15,08,17,,,,,2.1,1.2,1.8*3E
$GPRMC,173129.000,A,3748.7871,N,12217.8458,W,1.55,132.32,220911,,,D*78
$GPVTG,132.32,T,,M,1.55,N,2.9,K,D*03
$GPGGA,173130.000,3748.7872,N,12217.8451,W,2,08,1.2,-6.8,M,-25.1,M,9.8,0000*6B
$GPGSA,A,3,28,26,07,11,24,15,08,17,,,,,2.1,1.2,1.8*3E
$GPRMC,173130.000,A,3748.7872,N,12217.8451,W,1.93,133.40,220911,,,D*74
$GPVTG,133.40,T,,M,1.93,N,3.6,K,D*03
$GPGGA,173131.000,3748.7873,N,12217.8446,W,2,08,1.2,-6.1,M,-25.1,M,10.8,0000*5C
$GPGSA,A,3,28,26,07,11,24,15,08,17,,,,,2.1,1.2,1.8*3E
$GPRMC,173131.000,A,3748.7873,N,12217.8446,W,0.80,136.82,220911,,,D*7A
$GPVTG,136.82,T,,M,0.80,N,1.5,K,D*0A
$GPGGA,173132.000,3748.7874,N,12217.8438,W,2,08,1.2,-5.3,M,-25.1,M,11.8,0000*51
$GPGSA,A,3,28,26,07,11,24,15,08,17,,,,,2.1,1.2,1.8*3E
$GPGSV,3,1,12,17,65,185,24,28,62,025,22,26,52,251,22,08,44,111,31*70
$GPGSV,3,2,12,15,31,299,20,01,21,072,25,27,18,312,18,07,18,123,24*70
$GPGSV,3,3,12,11,17,054,25,24,16,064,22,04,01,171,,51,43,156,30*79
$GPRMC,173132.000,A,3748.7874,N,12217.8438,W,1.30,132.02,220911,,,D*71
$GPVTG,132.02,T,,M,1.30,N,2.4,K,D*0E
$GPGGA,173133.000,3748.7873,N,12217.8434,W,2,08,1.2,-5.0,M,-25.1,M,12.8,0000*5B
$GPGSA,A,3,28,26,07,11,24,15,08,17,,,,,2.1,1.2,1.8*3E
$GPRMC,173133.000,A,3748.7873,N,12217.8434,W,1.34,137.44,220911,,,D*78
$GPVTG,137.44,T,,M,1.34,N,2.5,K,D*0C
$GPGGA,173134.000,3748.7867,N,12217.8433,W,2,08,1.2,-4.0,M,-25.1,M,13.8,0000*5E
$GPGSA,A,3,28,26,07,11,24,15,08,17,,,,,2.1,1.2,1.8*3E
$GPRMC,173134.000,A,3748.7867,N,12217.8433,W,0.93,121.58,220911,,,D*7B
$GPVTG,121.58,T,,M,0.93,N,1.7,K,D*0B
$GPGGA,173135.000,3748.7862,N,12217.8433,W,2,08,1.2,-5.2,M,-25.1,M,14.8,0000*5E
$GPGSA,A,3,28,26,07,11,24,15,08,17,,,,,2.1,1.2,1.8*3E
$GPRMC,173135.000,A,3748.7862,N,12217.8433,W,0.50,125.66,220911,,,D*79
$GPVTG,125.66,T,,M,0.50,N,0.9,K,D*02
$GPGGA,173136.000,3748.7860,N,12217.8432,W,2,08,1.2,-5.4,M,-25.1,M,15.8,0000*59
$GPGSA,A,3,28,26,07,11,24,15,08,17,,,,,2.1,1.2,1.8*3E
$GPRMC,173136.000,A,3748.7860,N,12217.8432,W,0.66,97.02,220911,,,D*46
$GPVTG,97.02,T,,M,0.66,N,1.2,K,D*37
$GPGGA,173137.000,3748.7860,N,12217.8423,W,2,08,1.2,-5.7,M,-25.1,M,16.8,0000*58
$GPGSA,A,3,28,26,07,11,24,15,08,17,,,,,2.1,1.2,1.8*3E
$GPGSV,3,1,12,17,65,185,23,28,62,025,21,26,52,251,22,08,44,111,29*7D
$GPGSV,3,2,12,15,31,299,21,01,21,072,26,27,18,312,18,07,18,123,28*7E
$GPGSV,3,3,12,11,17,054,24,24,16,064,26,04,01,171,,51,43,156,24*79
$GPVTG,95.76,T,,M,1.03,N,1.9,K,D*3F
$GPGGA,173138.000,3748.7858,N,12217.8411,W,2,08,1.2,-5.4,M,-25.1,M,17.8,0000*5F
$GPGSA,A,3,28,26,07,11,24,15,08,17,,,,,2.1,1.2,1.8*3E
$GPRMC,173138.000,A,3748.7858,N,12217.8411,W,1.26,106.98,220911,,,D*7D
$GPVTG,106.98,T,,M,1.26,N,2.3,K,D*0A
$GPGGA,173139.000,3748.7857,N,12217.8404,W,1,08,1.2,-4.1,M,-25.1,M,,0000*42
$GPGSA,A,3,28,26,07,11,24,15,08,17,,,,,2.1,1.2,1.8*3E
$GPRMC,173139.000,A,3748.7857,N,12217.8404,W,1.41,119.99,220911,,,A*7C
$GPVTG,119.99,T,,M,1.41,N,2.6,K,A*04
$GPGGA,173140.000,3748.7849,N,12217.8399,W,1,08,1.2,-2.9,M,-25.1,M,,0000*4E
$GPGSA,A,3,28,26,07,11,24,15,08,17,,,,,2.1,1.2,1.8*3E
$GPRMC,173140.000,A,3748.7849,N,12217.8399,W,1.64,117.54,220911,,,A*76
$GPVTG,117.54,T,,M,1.64,N,3.0,K,A*0B
$GPGGA,173141.000,3748.7847,N,12217.8390,W,1,08,1.2,-1.9,M,-25.1,M,,0000*4B
$GPGSA,A,3,28,26,07,11,24,15,08,17,,,,,2.1,1.2,1.8*3E
$GPRMC,173141.000,A,3748.7847,N,12217.8390,W,1.93,112.37,220911,,,A*78
$GPVTG,112.37,T,,M,1.93,N,3.6,K,A*05
$GPGGA,173142.000,3748.7842,N,12217.8381,W,1,08,1.2,-1.8,M,-25.1,M,,0000*4C
$GPGSA,A,3,28,26,07,11,24,15,08,17,,,,,2.1,1.2,1.8*3E
$GPGSV,3,1,12,17,65,185,23,28,62,025,21,26,52,251,21,08,44,111,29*7E
$GPGSV,3,2,12,15,31,299,20,01,21,072,25,27,18,312,19,07,18,123,27*72
$GPGSV,3,3,12,11,17,054,24,24,16,064,16,04,01,171,,51,43,156,28*76
$GPRMC,173142.000,A,3748.7842,N,12217.8381,W,1.89,106.39,220911,,,A*7E
$GPVTG,106.39,T,,M,1.89,N,3.5,K,A*06
$GPGGA,173143.000,3748.7837,N,12217.8368,W,1,08,1.2,-0.5,M,-25.1,M,,0000*44
$GPGSA,A,3,28,26,07,11,24,15,08,17,,,,,2.1,1.2,1.8*3E
$GPRMC,173143.000,A,3748.7837,N,12217.8368,W,1.58,107.17,220911,,,A*7B
$GPVTG,107.17,T,,M,1.58,N,2.9,K,A*0A
$GPGGA,173144.000,3748.7826,N,12217.8363,W,1,08,1.2,-1.9,M,-25.1,M,,0000*45
$GPGSA,A,3,28,26,07,11,24,15,08,17,,,,,2.1,1.2,1.8*3E
$GPRMC,173144.000,A,3748.7826,N,12217.8363,W,1.62,123.67,220911,,,A*7F
$GPVTG,123.67,T,,M,1.62,N,3.0,K,A*0A
$GPGGA,173145.000,3748.7813,N,12217.8359,W,1,08,1.2,-3.6,M,-25.1,M,,0000*46
$GPGSA,A,3,28,26,07,11,24,15,08,17,,,,,2.1,1.2,1.8*3E
$GPRMC,173145.000,A,3748.7813,N,12217.8359,W,2.60,137.77,220911,,,A*74
$GPVTG,137.77,T,,M,2.60,N,4.8,K,A*00
$GPGGA,173146.000,3748.7804,N,12217.8352,W,1,07,1.2,-2.0,M,-25.1,M,,0000*40
$GPGSA,A,3,28,26,07,11,15,08,17,,,,,,2.2,1.2,1.8*3B
$GPRMC,173146.000,A,3748.7804,N,12217.8352,W,2.01,135.44,220911,,,A*7F
$GPVTG,135.44,T,,M,2.01,N,3.7,K,A*0D
$GPGGA,173147.000,3748.7794,N,12217.8346,W,1,08,1.2,-3.0,M,-25.1,M,,0000*4C
$GPGSA,A,3,28,26,07,11,24,15,08,17,,,,,2.1,1.2,1.8*3E
$GPGSV,3,1,12,17,65,185,23,28,62,025,20,26,52,251,20,08,44,111,27*70
$GPGSV,3,2,12,15,31,299,20,01,21,072,19,27,18,312,19,07,18,123,24*7E
$GPGSV,3,3,12,11,17,054,19,24,16,064,18,04,01,171,,51,43,156,30*7F
$GPRMC,173147.000,A,3748.7794,N,12217.8346,W,2.53,124.41,220911,,,A*7F
$GPVTG,124.41,T,,M,2.53,N,4.7,K,A*08
$GPGGA,173148.000,3748.7786,N,12217.8336,W,1,08,1.2,-2.3,M,-25.1,M,,0000*45
$GPGSA,A,3,28,26,07,11,24,15,08,17,,,,,2.1,1.2,1.8*3E
$GPRMC,173148.000,A,3748.7786,N,12217.8336,W,2.95,120.45,220911,,,A*7E
$GPVTG,120.45,T,,M,2.95,N,5.5,K,A*01
$GPGGA,173149.000,3748.7788,N,12217.8324,W,1,08,1.2,-1.2,M,-25.1,M,,0000*4B
$GPGSA,A,3,28,26,07,11,24,15,08,17,,,,,2.1,1.2,1.8*3E
$GPRMC,173149.000,A,3748.7788,N,12217.8324,W,2.40,98.17,220911,,,A*4F
$GPVTG,98.17,T,,M,2.40,N,4.4,K,A*3C
$GPGGA,173150.000,3748.7788,N,12217.8317,W,1,08,1.2,-1.3,M,-25.1,M,,0000*42
$GPGSA,A,3,28,26,07,11,24,15,08,17,,,,,2.1,1.2,1.8*3E
$GPRMC,173150.000,A,3748.7788,N,12217.8317,W,1.80,93.08,220911,,,A*4D
$GPVTG,93.08,T,,M,1.80,N,3.3,K,A*36
$GPGGA,173151.000,3748.7792,N,12217.8309,W,1,08,1.2,0.3,M,-25.1,M,,0000*6B
$GPGSA,A,3,28,26,07,11,24,15,08,17,,,,,2.1,1.2,1.8*3E
$GPRMC,173151.000,A,3748.7792,N,12217.8309,W,1.43,97.27,220911,,,A*4E
$GPVTG,97.27,T,,M,1.43,N,2.6,K,A*34
$GPGGA,173152.000,3748.7783,N,12217.8303,W,1,08,1.2,1.6,M,-25.1,M,,0000*66
$GPGSA,A,3,28,26,07,11,24,15,08,17,,,,,2.1,1.2,1.8*3E
$GPGSV,3,1,11,17,65,185,28,28,62,025,24,26,52,251,28,08,44,111,29*7A
$GPGSV,3,2,11,15,31,299,27,01,21,072,19,27,18,312,26,07,18,123,28*7A
$GPGSV,3,3,11,11,17,054,21,24,16,064,26,04,01,171,*48
$GPRMC,173152.000,A,3748.7783,N,12217.8303,W,2.01,119.54,220911,,,A*71
$GPVTG,119.54,T,,M,2.01,N,3.7,K,A*02
$GPGGA,173153.000,3748.7777,N,12217.8298,W,1,08,1.2,2.2,M,-25.1,M,,0000*68
$GPGSA,A,3,28,26,07,11,24,15,08,17,,,,,2.1,1.2,1.8*3E
$GPRMC,173153.000,A,3748.7777,N,12217.8298,W,2.19,129.55,220911,,,A*73
$GPVTG,129.55,T,,M,2.19,N,4.1,K,A*08
$GPGGA,173154.000,3748.7767,N,12217.8293,W,1,08,1.2,3.1,M,-25.1,M,,0000*67
$GPGSA,A,3,28,26,07,11,24,15,08,17,,,,,2.1,1.2,1.8*3E
$GPRMC,173154.000,A,3748.7767,N,12217.8293,W,2.36,127.60,220911,,,A*7B
$GPVTG,127.60,T,,M,2.36,N,4.4,K,A*08
$GPGGA,173155.000,3748.7755,N,12217.8290,W,1,08,1.2,4.1,M,-25.1,M,,0000*63
$GPGSA,A,3,28,26,07,11,24,15,08,17,,,,,2.1,1.2,1.8*3E
$GPRMC,173155.000,A,3748.7755,N,12217.8290,W,2.18,131.00,220911,,,A*75
$GPVTG,131.00,T,,M,2.18,N,4.0,K,A*01
$GPGGA,173156.000,3748.7744,N,12217.8286,W,1,08,1.2,4.5,M,-25.1,M,,0000*63
$GPGSA,A,3,28,26,07,11,24,15,08,17,,,,,2.1,1.2,1.8*3E
$GPRMC,173156.000,A,3748.7744,N,12217.8286,W,1.99,116.67,220911,,,A*7F
$GPVTG,116.67,T,,M,1.99,N,3.7,K,A*0F
$GPGGA,173157.000,3748.7750,N,12217.8273,W,1,08,1.2,6.6,M,-25.1,M,,0000*6C
$GPGSA,A,3,28,26,07,11,24,15,08,17,,,,,2.1,1.2,1.8*3E
$GPGSV,3,1,12,17,65,185,29,28,62,025,24,26,52,251,29,08,44,111,30*71
$GPGSV,3,2,12,15,31,299,23,01,21,072,19,27,18,312,25,07,18,123,27*71
$GPGSV,3,3,12,11,17,054,24,24,16,064,20,04,01,171,,51,43,156,34*7E
$GPRMC,173157.000,A,3748.7750,N,12217.8273,W,1.94,109.36,220911,,,A*76
$GPGGA,173158.000,3748.7756,N,12217.8261,W,1,08,1.2,8.4,M,-25.1,M,,0000*6A
$GPGSA,A,3,28,26,07,11,24,15,08,17,,,,,2.1,1.2,1.8*3E
$GPRMC,173158.000,A,3748.7756,N,12217.8261,W,2.01,108.67,220911,,,A*76
$GPVTG,108.67,T,,M,2.01,N,3.7,K,A*02
$GPGGA,173159.000,3748.7751,N,12217.8254,W,1,08,1.2,8.1,M,-25.1,M,,0000*6F
$GPGSA,A,3,28,26,07,11,24,15,08,17,,,,,2.1,1.2,1.8*3E
$GPRMC,173159.000,A,3748.7751,N,12217.8254,W,2.09,120.91,220911,,,A*7D
$GPVTG,120.91,T,,M,2.09,N,3.9,K,A*07
$GPGGA,173200.000,3748.7746,N,12217.8246,W,1,08,1.2,7.8,M,-25.1,M,,0000*63
$GPGSA,A,3,28,26,07,11,24,15,08,17,,,,,2.1,1.2,1.8*3E
$GPRMC,173200.000,A,3748.7746,N,12217.8246,W,2.20,121.66,220911,,,A*75
$GPVTG,121.66,T,,M,2.20,N,4.1,K,A*0A
$GPGGA,173201.000,3748.7738,N,12217.8239,W,1,08,1.2,6.9,M,-25.1,M,,0000*63
$GPGSA,A,3,28,26,07,11,24,15,08,17,,,,,2.1,1.2,1.8*3E
$GPRMC,173201.000,A,3748.7738,N,12217.8239,W,2.67,130.70,220911,,,A*71
$GPVTG,130.70,T,,M,2.67,N,4.9,K,A*06
$GPGGA,173202.000,3748.7729,N,12217.8232,W,1,08,1.2,5.9,M,-25.1,M,,0000*68
$GPGSA,A,3,28,26,07,11,24,15,08,17,,,,,2.1,1.2,1.8*3E
$GPGSV,3,1,12,17,65,185,29,28,62,025,23,26,52,251,32,08,44,111,30*7C
$GPGSV,3,2,12,15,31,299,23,01,21,072,19,27,18,312,24,07,18,123,27*70
$GPGSV,3,3,12,11,17,054,23,24,16,064,22,04,01,171,,51,43,156,28*76
