$ADVER,3080,2.3
$GPRMC,172847.099,A,3748.7923,N,12217.8698,W,0.38,203.23,220911,,,A*7E
$GPRMC,172848.099,A,3748.7922,N,12217.8699,W,0.14,186.24,220911,,,A*76
$GPRMC,172849.099,A,3748.7924,N,12217.8698,W,0.13,193.82,220911,,,A*7F
$GPRMC,172850.099,A,3748.7923,N,12217.8698,W,0.11,200.85,220911,,,A*7C
$GPRMC,172851.099,A,3748.8012,N,12217.8615,W,0.06,248.82,220911,,,A*71
$GPRMC,172852.099,A,3748.8012,N,12217.8616,W,0.14,186.25,220911,,,A*7E
$GPRMC,172853.099,A,3748.8012,N,12217.8616,W,0.13,193.69,220911,,,A*74
$GPRMC,172854.000,A,3748.8011,N,12217.8616,W,0.11,204.23,220911,,,A*71
$GPRMC,172855.000,A,3748.8011,N,12217.8616,W,0.14,195.68,220911,,,A*71
$GPRMC,172856.000,A,3748.8010,N,12217.8616,W,0.12,194.72,220911,,,A*7F
$GPRMC,172857.000,A,3748.8010,N,12217.8617,W,0.15,195.98,220911,,,A*7D
$GPRMC,172858.000,A,3748.8009,N,12217.8617,W,0.11,193.90,220911,,,A*70
$GPRMC,172859.000,A,3748.8009,N,12217.8617,W,0.16,190.21,220911,,,A*7F
$GPRMC,172900.000,A,3748.8008,N,12217.8617,W,0.14,193.73,220911,,,A*75
$GPRMC,172901.000,A,3748.8008,N,12217.8618,W,0.13,193.96,220911,,,A*77
$GPRMC,172902.000,A,3748.8008,N,12217.8618,W,0.13,187.04,220911,,,A*7A
$GPRMC,172903.000,A,3748.8008,N,12217.8618,W,0.11,210.82,220911,,,A*7A
$GPRMC,172904.000,A,3748.8008,N,12217.8619,W,0.13,198.23,220911,,,A*76
$GPRMC,172905.000,A,3748.8009,N,12217.8620,W,0.12,270.78,220911,,,A*76
$GPRMC,172906.000,A,3748.8014,N,12217.8628,W,0.28,285.00,220911,,,A*7D
$GPRMC,172907.000,A,3748.8015,N,12217.8629,W,0.14,157.98,220911,,,A*7E
$GPRMC,172908.000,A,3748.8014,N,12217.8629,W,0.29,142.22,220911,,,A*7B
$GPRMC,172909.000,A,3748.8014,N,12217.8629,W,0.19,257.01,220911,,,A*7F
$GPRMC,172910.000,A,3748.8014,N,12217.8630,W,0.30,299.53,220911,,,A*71
$GPRMC,172911.000,A,3748.8017,N,12217.8631,W,0.64,22.34,220911,,,A*40
$GPRMC,172912.000,A,3748.8020,N,12217.8638,W,0.86,278.03,220911,,,A*7B
$GPRMC,172913.000,A,3748.8018,N,12217.8638,W,0.53,303.87,220911,,,A*78
$GPRMC,172914.000,A,3748.8015,N,12217.8634,W,0.12,175.26,220911,,,A*73
$GPRMC,172915.000,A,3748.8010,N,12217.8634,W,0.80,171.73,220911,,,A*78
$GPRMC,172916.000,A,3748.8001,N,12217.8632,W,1.64,185.41,220911,,,A*7C
$GPRMC,172917.000,A,3748.7990,N,12217.8629,W,1.17,177.54,220911,,,A*74
$GPRMC,172918.000,A,3748.7991,N,12217.8635,W,0.53,192.65,220911,,,A*7F
$GPRMC,172919.000,A,3748.7991,N,12217.8634,W,0.35,264.68,220911,,,A*78
$GPRMC,172920.000,A,3748.8005,N,12217.8632,W,1.30,355.04,220911,,,A*72
$GPRMC,172921.000,A,3748.8009,N,12217.8631,W,1.01,132.54,220911,,,A*78
$GPRMC,172922.000,A,3748.8012,N,12217.8629,W,0.24,57.94,220911,,,A*40
$GPRMC,172923.000,A,3748.8008,N,12217.8627,W,0.09,77.26,220911,,,A*40
$GPRMC,172924.000,A,3748.8003,N,12217.8625,W,0.34,243.97,220911,,,A*7F
$GPRMC,172925.000,A,3748.7997,N,12217.8623,W,0.33,267.80,220911,,,A*74
$GPRMC,172926.000,A,3748.7994,N,12217.8621,W,0.23,242.67,220911,,,A*79
$GPRMC,172927.000,A,3748.7994,N,12217.8622,W,0.21,241.31,220911,,,A*79
$GPRMC,172928.000,A,3748.7987,N,12217.8619,W,0.75,166.48,220911,,,A*75
$GPRMC,172929.000,A,3748.7983,N,12217.8614,W,0.63,164.50,220911,,,A*71
$GPRMC,172930.000,A,3748.7981,N,12217.8612,W,1.23,108.72,220911,,,A*72
$GPRMC,172931.000,A,3748.7984,N,12217.8610,W,0.66,68.44,220911,,,A*46
$GPRMC,172932.000,A,3748.7981,N,12217.8614,W,1.14,84.76,220911,,,A*43
$GPRMC,172933.000,A,3748.7991,N,12217.8605,W,0.41,36.18,220911,,,A*43
$GPRMC,172934.000,A,3748.7996,N,12217.8603,W,0.75,294.76,220911,,,A*70
$GPRMC,172935.000,A,3748.8006,N,12217.8599,W,0.57,308.91,220911,,,A*73
$GPRMC,172936.000,A,3748.8004,N,12217.8597,W,0.38,116.97,220911,,,A*7E
$GPRMC,172937.000,A,3748.8001,N,12217.8595,W,0.89,188.93,220911,,,A*71
$GPRMC,172938.000,A,3748.7997,N,12217.8593,W,0.27,118.92,220911,,,A*7D
$GPRMC,172939.000,A,3748.7997,N,12217.8601,W,0.29,252.89,220911,,,A*7D
$GPRMC,172940.000,A,3748.7992,N,12217.8609,W,0.43,206.17,220911,,,A*74
$GPRMC,172941.000,A,3748.7985,N,12217.8617,W,0.95,205.11,220911,,,A*72
$GPRMC,172942.000,A,3748.7984,N,12217.8624,W,0.37,217.01,220911,,,A*7A
$GPRMC,172943.000,A,3748.7977,N,12217.8632,W,1.13,206.74,220911,,,A*75
$GPRMC,172944.000,A,3748.7974,N,12217.8637,W,1.37,208.25,220911,,,A*78
$GPRMC,172945.000,A,3748.7966,N,12217.8636,W,1.11,189.43,220911,,,A*75
$GPRMC,172946.000,A,3748.7958,N,12217.8636,W,0.73,168.61,220911,,,A*71
$GPRMC,172947.000,A,3748.7950,N,12217.8632,W,0.68,168.53,220911,,,A*77
$GPRMC,172948.000,A,3748.7954,N,12217.8636,W,0.29,192.11,220911,,,A*7E
$GPRMC,172949.000,A,3748.7965,N,12217.8636,W,0.29,57.31,220911,,,A*47
$GPRMC,172950.000,A,3748.7976,N,12217.8635,W,0.38,353.75,220911,,,A*79
$GPRMC,172951.000,A,3748.7983,N,12217.8636,W,0.69,273.51,220911,,,A*70
$GPRMC,172952.000,A,3748.7982,N,12217.8632,W,0.48,88.51,220911,,,A*43
$GPRMC,172953.000,A,3748.7989,N,12217.8626,W,1.87,41.38,220911,,,A*44
$GPRMC,172954.000,A,3748.7993,N,12217.8620,W,1.92,27.40,220911,,,A*45
$GPRMC,172955.000,A,3748.7994,N,12217.8612,W,0.67,125.60,220911,,,A*78
$GPRMC,172956.000,A,3748.7995,N,12217.8609,W,0.46,280.08,220911,,,A*71
$GPRMC,172957.000,A,3748.7992,N,12217.8615,W,0.86,358.36,220911,,,A*7F
$GPRMC,172958.000,A,3748.7998,N,12217.8618,W,0.48,20.45,220911,,,A*4D
$GPRMC,172959.000,A,3748.7994,N,12217.8623,W,0.15,245.44,220911,,,A*70
$GPRMC,173000.000,A,3748.7994,N,12217.8627,W,0.18,339.16,220911,,,A*70
$GPRMC,173001.000,A,3748.7998,N,12217.8627,W,0.89,19.10,220911,,,A*42
$GPRMC,173002.000,A,3748.7998,N,12217.8627,W,0.52,20.06,220911,,,A*4A
$GPRMC,173003.000,A,3748.8006,N,12217.8625,W,1.03,20.06,220911,,,A*4D
$GPRMC,173004.000,A,3748.8016,N,12217.8622,W,0.51,41.06,220911,,,A*4D
$GPRMC,173005.000,A,3748.8025,N,12217.8623,W,0.50,5.28,220911,,,A*70
$GPRMC,173006.000,A,3748.8033,N,12217.8625,W,0.57,329.71,220911,,,A*74
$GPRMC,173007.000,A,3748.8036,N,12217.8623,W,0.75,21.32,220911,,,A*4A
$GPRMC,173008.000,A,3748.8035,N,12217.8619,W,0.69,356.46,220911,,,A*72
$GPRMC,173009.000,A,3748.8031,N,12217.8617,W,0.52,350.40,220911,,,A*71
$GPRMC,173010.000,A,3748.8019,N,12217.8621,W,0.46,221.12,220911,,,A*73
$GPRMC,173011.000,A,3748.8012,N,12217.8620,W,1.34,171.36,220911,,,A*7C
$GPRMC,173012.000,A,3748.7999,N,12217.8619,W,1.35,197.00,220911,,,A*7C
$GPRMC,173013.000,A,3748.7994,N,12217.8620,W,0.62,198.29,220911,,,A*7D
$GPRMC,173014.000,A,3748.7993,N,12217.8616,W,0.59,159.20,220911,,,A*74
$GPRMC,173015.000,A,3748.7992,N,12217.8615,W,0.84,212.59,220911,,,A*75
$GPRMC,173016.000,A,3748.7991,N,12217.8615,W,1.02,213.30,220911,,,A*74
$GPRMC,173017.000,A,3748.7992,N,12217.8614,W,1.10,212.99,220911,,,A*76
$GPRMC,173018.000,A,3748.7993,N,12217.8616,W,0.31,210.98,220911,,,A*7B
$GPRMC,173019.000,A,3748.7986,N,12217.8621,W,0.65,210.77,220911,,,A*7A
$GPRMC,173020.000,A,3748.7988,N,12217.8619,W,0.15,162.90,220911,,,A*7D
$GPRMC,173021.000,A,3748.7995,N,12217.8610,W,0.71,41.14,220911,,,A*47
$GPRMC,173022.000,A,3748.7992,N,12217.8609,W,0.23,85.96,220911,,,A*4E
$GPRMC,173023.000,A,3748.7988,N,12217.8611,W,0.57,220.62,220911,,,A*78
$GPRMC,173024.000,A,3748.7982,N,12217.8615,W,0.28,203.92,220911,,,A*77
$GPRMC,173025.000,A,3748.7974,N,12217.8621,W,0.57,211.26,220911,,,A*7C
$GPRMC,173026.000,A,3748.7971,N,12217.8619,W,0.41,143.53,220911,,,A*70
$GPRMC,173027.000,A,3748.7977,N,12217.8615,W,0.97,15.50,220911,,,A*41
$GPRMC,173028.000,A,3748.7979,N,12217.8614,W,0.74,8.27,220911,,,A*70
$GPRMC,173029.000,A,3748.7977,N,12217.8616,W,0.26,219.08,220911,,,A*75
$GPRMC,173030.000,A,3748.7974,N,12217.8614,W,0.79,195.52,220911,,,A*7E
$GPRMC,173031.000,A,3748.7970,N,12217.8618,W,0.63,178.77,220911,,,A*78
$GPRMC,173032.000,A,3748.7972,N,12217.8621,W,0.35,343.32,220911,,,A*7B
$GPRMC,173033.000,A,3748.7976,N,12217.8621,W,0.11,200.70,220911,,,A*78
$GPRMC,173034.000,A,3748.7984,N,12217.8619,W,0.59,308.35,220911,,,A*7D
$GPRMC,173035.000,A,3748.7987,N,12217.8618,W,0.21,301.99,220911,,,A*7E
$GPRMC,173036.000,A,3748.7993,N,12217.8618,W,0.78,351.80,220911,,,A*79
$GPRMC,173037.000,A,3748.8000,N,12217.8621,W,0.63,344.34,220911,,,A*7F
$GPRMC,173038.000,A,3748.8004,N,12217.8619,W,0.21,21.78,220911,,,A*41
$GPRMC,173039.000,A,3748.8003,N,12217.8618,W,0.44,147.91,220911,,,A*73
$GPRMC,173040.000,A,3748.8007,N,12217.8617,W,0.10,110.66,220911,,,A*7D
$GPRMC,173041.000,A,3748.8010,N,12217.8615,W,0.08,345.16,220911,,,A*74
$GPRMC,173042.000,A,3748.8014,N,12217.8614,W,0.21,247.26,220911,,,A*79
$GPRMC,173043.000,A,3748.8011,N,12217.8614,W,0.25,201.86,220911,,,A*71
$GPRMC,173044.000,A,3748.8012,N,12217.8613,W,0.26,329.60,220911,,,A*72
$GPRMC,173045.000,A,3748.8012,N,12217.8611,W,0.44,309.64,220911,,,A*73
$GPRMC,173046.000,A,3748.8015,N,12217.8610,W,0.44,300.59,220911,,,A*71
$GPRMC,173047.000,A,3748.8018,N,12217.8612,W,0.06,130.62,220911,,,A*70
$GPRMC,173048.000,A,3748.8021,N,12217.8614,W,0.24,311.71,220911,,,A*70
$GPRMC,173049.000,A,3748.8028,N,12217.8618,W,0.60,335.33,220911,,,A*74
$GPRMC,173050.000,A,3748.8018,N,12217.8625,W,0.23,245.12,220911,,,A*73
$GPRMC,173051.000,A,3748.8017,N,12217.8625,W,1.03,346.98,220911,,,A*7E
$GPRMC,173052.000,A,3748.8017,N,12217.8631,W,0.75,244.88,220911,,,A*7A
$GPRMC,173053.000,A,3748.8018,N,12217.8638,W,0.69,236.02,220911,,,A*77
$GPRMC,173054.000,A,3748.8013,N,12217.8637,W,0.62,167.40,220911,,,A*7E
$GPRMC,173055.000,A,3748.8005,N,12217.8636,W,0.72,164.68,220911,,,A*71
$GPRMC,173056.000,A,3748.7997,N,12217.8637,W,0.46,206.73,220911,,,A*74
$GPRMC,173057.000,A,3748.7985,N,12217.8637,W,0.34,225.28,220911,,,A*7C
$GPRMC,173058.000,A,3748.7979,N,12217.8646,W,1.06,206.17,220911,,,A*7B
$GPRMC,173059.000,A,3748.7978,N,12217.8646,W,0.61,138.25,220911,,,A*74
$GPRMC,173100.000,A,3748.7976,N,12217.8648,W,0.25,159.06,220911,,,A*7F
$GPRMC,173101.000,A,3748.7981,N,12217.8642,W,0.38,146.74,220911,,,A*7B
$GPRMC,173102.000,A,3748.7989,N,12217.8637,W,0.64,315.98,220911,,,A*7D
$GPRMC,173103.000,A,3748.8000,N,12217.8630,W,0.32,44.78,220911,,,A*46
$GPRMC,173104.000,A,3748.7998,N,12217.8631,W,1.43,227.47,220911,,,A*7B
$GPRMC,173105.000,A,3748.7992,N,12217.8635,W,1.45,210.43,220911,,,A*72
$GPRMC,173106.000,A,3748.7985,N,12217.8641,W,1.78,210.35,220911,,,A*7B
$GPRMC,173107.000,A,3748.7977,N,12217.8652,W,2.11,218.82,220911,,,A*7D
$GPRMC,173108.000,A,3748.7970,N,12217.8665,W,2.20,222.34,220911,,,A*77
$GPRMC,173109.000,A,3748.7965,N,12217.8673,W,2.89,216.01,220911,,,A*77
$GPRMC,173110.000,A,3748.7959,N,12217.8676,W,2.82,211.24,220911,,,A*7E
$GPRMC,173111.000,A,3748.7954,N,12217.8680,W,2.97,197.41,220911,,,A*71
$GPRMC,173112.000,A,3748.7951,N,12217.8681,W,2.87,202.64,220911,,,A*7F
$GPRMC,173113.000,A,3748.7949,N,12217.8682,W,2.77,200.72,220911,,,A*7E
$GPRMC,173114.000,A,3748.7944,N,12217.8687,W,2.62,201.24,220911,,,A*77
$GPRMC,173115.000,A,3748.7941,N,12217.8691,W,1.94,206.08,220911,,,A*77
$GPRMC,173116.000,A,3748.7937,N,12217.8697,W,2.10,189.70,220911,,,A*77
$GPRMC,173117.000,A,3748.7930,N,12217.8708,W,2.42,204.85,220911,,,A*7D
$GPRMC,173118.000,A,3748.7925,N,12217.8715,W,2.30,200.92,220911,,,A*7D
$GPRMC,173119.000,A,3748.7920,N,12217.8721,W,2.58,200.38,220911,,,A*70
$GPRMC,173120.000,A,3748.7913,N,12217.8731,W,2.61,203.09,220911,,,A*70
$GPRMC,173121.000,A,3748.7910,N,12217.8739,W,2.65,198.87,220911,,,A*79
$GPRMC,173122.000,A,3748.7906,N,12217.8743,W,2.13,193.65,220911,,,A*76
$GPRMC,173123.000,A,3748.7903,N,12217.8749,W,2.26,195.37,220911,,,A*7F
$GPRMC,173124.000,A,3748.7904,N,12217.8755,W,1.46,205.10,220911,,,A*78
$GPRMC,173125.000,A,3748.7896,N,12217.8766,W,2.35,202.40,220911,,,A*76
$GPRMC,173126.000,A,3748.7890,N,12217.8777,W,2.14,200.91,220911,,,A*7E
$GPRMC,173127.000,A,3748.7884,N,12217.8784,W,2.06,193.88,220911,,,A*74
$GPRMC,173128.000,A,3748.7878,N,12217.8791,W,1.73,192.78,220911,,,A*73
$GPRMC,173129.000,A,3748.7874,N,12217.8799,W,1.54,186.27,220911,,,A*7C
$GPRMC,173130.000,A,3748.7872,N,12217.8804,W,1.73,211.06,220911,,,A*72
$GPRMC,173131.000,A,3748.7869,N,12217.8812,W,1.77,205.02,220911,,,A*7B
$GPRMC,173132.000,A,3748.7862,N,12217.8821,W,1.65,192.42,220911,,,A*79
$GPRMC,173133.000,A,3748.7854,N,12217.8829,W,1.58,193.02,220911,,,A*7E
$GPRMC,173134.000,A,3748.7851,N,12217.8834,W,1.95,195.91,220911,,,A*7D
$GPRMC,173135.000,A,3748.7849,N,12217.8839,W,1.28,194.59,220911,,,A*7B
$GPRMC,173136.000,A,3748.7843,N,12217.8847,W,1.68,202.78,220911,,,A*70
$GPRMC,173137.000,A,3748.7834,N,12217.8856,W,2.37,205.52,220911,,,A*77
$GPRMC,173138.000,A,3748.7828,N,12217.8862,W,2.52,200.53,220911,,,A*75
$GPRMC,173139.000,A,3748.7824,N,12217.8868,W,2.18,203.19,220911,,,A*71
$GPRMC,173140.000,A,3748.7816,N,12217.8877,W,1.89,198.97,220911,,,A*7C
$GPRMC,173141.000,A,3748.7809,N,12217.8886,W,2.10,199.45,220911,,,A*70
$GPRMC,173142.000,A,3748.7799,N,12217.8897,W,2.29,187.83,220911,,,A*7A
$GPRMC,173143.000,A,3748.7791,N,12217.8907,W,2.21,186.21,220911,,,A*7A
$GPRMC,173144.000,A,3748.7779,N,12217.8918,W,2.50,201.25,220911,,,A*7B
$GPRMC,173145.000,A,3748.7772,N,12217.8925,W,2.51,196.51,220911,,,A*70
$GPRMC,173146.000,A,3748.7770,N,12217.8927,W,1.87,186.29,220911,,,A*75
$GPRMC,173147.000,A,3748.7766,N,12217.8928,W,1.74,177.08,220911,,,A*7D
$GPRMC,173148.000,A,3748.7756,N,12217.8934,W,2.01,193.42,220911,,,A*79
$GPRMC,173149.000,A,3748.7743,N,12217.8944,W,2.54,204.63,220911,,,A*75
$GPRMC,173150.000,A,3748.7732,N,12217.8953,W,2.56,193.96,220911,,,A*78
$GPRMC,173151.000,A,3748.7723,N,12217.8961,W,2.90,196.20,220911,,,A*7A
$GPRMC,173152.000,A,3748.7717,N,12217.8967,W,2.43,193.70,220911,,,A*76
$GPRMC,173153.000,A,3748.7712,N,12217.8970,W,2.44,193.08,220911,,,A*7C
$GPRMC,173154.000,A,3748.7707,N,12217.8973,W,2.69,207.22,220911,,,A*75
$GPRMC,173155.000,A,3748.7698,N,12217.8982,W,3.14,206.63,220911,,,A*72
$GPRMC,173156.000,A,3748.7688,N,12217.8993,W,2.68,208.22,220911,,,A*71
$GPRMC,173157.000,A,3748.7679,N,12217.9001,W,2.71,205.07,220911,,,A*7F
$GPRMC,173158.000,A,3748.7669,N,12217.9012,W,2.56,206.25,220911,,,A*75
$GPRMC,173159.000,A,3748.7659,N,12217.9019,W,2.36,197.46,220911,,,A*74
$GPRMC,173200.000,A,3748.7653,N,12217.9024,W,2.24,207.81,220911,,,A*7D
$GPRMC,173201.000,A,3748.7647,N,12217.9028,W,2.43,199.33,220911,,,A*79
$GPRMC,173202.000,A,3748.7643,N,12217.9031,W,2.15,205.64,220911,,,A*71
$GPRMC,173203.000,A,3748.7641,N,12217.9035,W,2.52,205.36,220911,,,A*72
$GPRMC,173204.000,A,3748.7634,N,12217.9042,W,2.63,198.15,220911,,,A*73
$GPRMC,173205.000,A,3748.7631,N,12217.9041,W,2.04,196.87,220911,,,A*70
$GPRMC,173206.000,A,3748.7623,N,12217.9046,W,2.67,206.50,220911,,,A*72
$GPRMC,173207.000,A,3748.7614,N,12217.9050,W,3.07,207.79,220911,,,A*7D
$GPRMC,173208.000,A,3748.7602,N,12217.9056,W,2.97,198.54,220911,,,A*71
$GPRMC,173209.000,A,3748.7594,N,12217.9058,W,2.32,191.20,220911,,,A*77
$GPRMC,173210.000,A,3748.7591,N,12217.9055,W,2.03,196.45,220911,,,A*71
$GPRMC,173211.000,A,3748.7582,N,12217.9054,W,2.49,185.08,220911,,,A*76
$GPRMC,173212.000,A,3748.7573,N,12217.9057,W,2.71,193.98,220911,,,A*7D
$GPRMC,173213.000,A,3748.7564,N,12217.9060,W,3.08,193.60,220911,,,A*76
$GPRMC,173214.000,A,3748.7559,N,12217.9065,W,2.74,202.74,220911,,,A*7E
$GPRMC,173215.000,A,3748.7555,N,12217.9069,W,2.50,204.50,220911,,,A*79
$GPRMC,173216.000,A,3748.7553,N,12217.9072,W,2.46,203.98,220911,,,A*72
$GPRMC,173217.000,A,3748.7549,N,12217.9077,W,2.96,199.34,220911,,,A*76
$GPRMC,173218.000,A,3748.7543,N,12217.9081,W,2.09,188.12,220911,,,A*78
$GPRMC,173219.000,A,3748.7537,N,12217.9086,W,1.59,187.13,220911,,,A*75
$GPRMC,173220.000,A,3748.7530,N,12217.9090,W,2.62,204.58,220911,,,A*73
$GPRMC,173221.000,A,3748.7521,N,12217.9099,W,2.76,202.99,220911,,,A*75
$GPRMC,173222.000,A,3748.7509,N,12217.9111,W,2.69,206.47,220911,,,A*74
$GPRMC,173223.000,A,3748.7497,N,12217.9121,W,2.79,202.37,220911,,,A*72
$GPRMC,173224.000,A,3748.7487,N,12217.9131,W,2.59,200.96,220911,,,A*7E
$GPRMC,173225.000,A,3748.7476,N,12217.9141,W,2.45,202.71,220911,,,A*70
$GPRMC,173226.000,A,3748.7471,N,12217.9148,W,2.83,202.54,220911,,,A*70
$GPRMC,173227.000,A,3748.7463,N,12217.9155,W,3.10,203.99,220911,,,A*75
$GPRMC,173228.000,A,3748.7457,N,12217.9161,W,2.93,204.80,220911,,,A*7F
$GPRMC,173229.000,A,3748.7455,N,12217.9163,W,2.33,206.97,220911,,,A*70
$GPRMC,173230.000,A,3748.7451,N,12217.9167,W,2.41,210.25,220911,,,A*73
$GPRMC,173231.000,A,3748.7443,N,12217.9173,W,3.06,210.60,220911,,,A*77
$GPRMC,173232.000,A,3748.7436,N,12217.9179,W,3.13,211.96,220911,,,A*70
$GPRMC,173233.000,A,3748.7428,N,12217.9183,W,2.56,203.41,220911,,,A*72
$GPRMC,173234.000,A,3748.7420,N,12217.9185,W,2.4                                                                                                                                                                                                                                                                                                                                                                                                                                                                                                                                                                                                                                                                                                                                                                                                                                                                                                                                                                                                                                                                5,188.66,220911,,,A*7C
$GPRMC,173235.000,A,3748.7415,N,12217.9187,W,2.29,196.85,220911,,,A*71
$GPRMC,173236.000,A,3748.7411,N,12217.9192,W,2.13,197.12,220911,,,A*74
$GPRMC,173237.000,A,3748.7409,N,12217.9197,W,1.93,206.34,220911,,,A*7D
$GPRMC,173238.000,A,3748.7402,N,12217.9206,W,3.12,205.29,220911,,,A*76
$GPRMC,173239.000,A,3748.7389,N,12217.9218,W,3.00,200.33,220911,,,A*71
$GPRMC,173240.000,A,3748.7381,N,12217.9224,W,2.64,212.52,220911,,,A*7F
$GPRMC,173241.000,A,3748.7372,N,12217.9236,W,2.33,204.32,220911,,,A*72
$GPRMC,173242.000,A,3748.7360,N,12217.9247,W,2.83,201.83,220911,,,A*70
$GPRMC,173243.000,A,3748.7353,N,12217.9249,W,2.35,198.71,220911,,,A*7C
$GPRMC,173244.000,A,3748.7348,N,12217.9250,W,2.14,190.64,220911,,,A*76
$GPRMC,173245.000,A,3748.7341,N,12217.9254,W,2.17,193.26,220911,,,A*7C
$GPRMC,173246.000,A,3748.7337,N,12217.9257,W,2.51,209.11,220911,,,A*7B
$GPRMC,173247.000,A,3748.7332,N,12217.9263,W,2.47,209.19,220911,,,A*77
$GPRMC,173248.000,A,3748.7326,N,12217.9269,W,2.91,213.33,220911,,,A*7F
$GPRMC,173249.000,A,3748.7319,N,12217.9278,W,3.28,208.78,220911,,,A*74
$GPRMC,173250.000,A,3748.7313,N,12217.9285,W,2.82,208.45,220911,,,A*7B
$GPRMC,173251.000,A,3748.7309,N,12217.9289,W,2.38,206.26,220911,,,A*77
$GPRMC,173252.000,A,3748.7300,N,12217.9296,W,2.97,204.56,220911,,,A*73
$GPRMC,173253.000,A,3748.7294,N,12217.9300,W,2.61,203.91,220911,,,A*75
$GPRMC,173254.000,A,3748.7287,N,12217.9306,W,3.12,205.57,220911,,,A*7F
$GPRMC,173255.000,A,3748.7271,N,12217.9318,W,3.40,205.51,220911,,,A*79
$GPRMC,173256.000,A,3748.7261,N,12217.9327,W,2.95,201.50,220911,,,A*7B
$GPRMC,173257.000,A,3748.7249,N,12217.9336,W,2.89,203.66,220911,,,A*7A
$GPRMC,173258.000,A,3748.7242,N,12217.9342,W,2.54,212.67,220911,,,A*7C
$GPRMC,173259.000,A,3748.7239,N,12217.9349,W,2.34,212.39,220911,,,A*77
$GPRMC,173300.000,A,3748.7234,N,12217.9355,W,2.70,206.63,220911,,,A*70
$GPRMC,173301.000,A,3748.7224,N,12217.9365,W,3.11,211.55,220911,,,A*76
$GPRMC,173302.000,A,3748.7219,N,12217.9372,W,2.83,224.65,220911,,,A*72
$GPRMC,173303.000,A,3748.7216,N,12217.9376,W,2.52,217.67,220911,,,A*76
$GPRMC,173304.000,A,3748.7208,N,12217.9384,W,2.66,205.80,220911,,,A*7E
$GPRMC,173305.000,A,3748.7198,N,12217.9390,W,2.45,205.36,220911,,,A*7C
$GPRMC,173306.000,A,3748.7195,N,12217.9392,W,1.99,209.04,220911,,,A*7F
$GPRMC,173307.000,A,3748.7191,N,12217.9394,W,2.62,198.82,220911,,,A*7E
$GPRMC,173308.000,A,3748.7189,N,12217.9394,W,2.66,194.08,220911,,,A*72
$GPRMC,173309.000,A,3748.7184,N,12217.9401,W,2.76,214.06,220911,,,A*71
$GPRMC,173310.000,A,3748.7179,N,12217.9410,W,3.15,222.54,220911,,,A*7D
$GPRMC,173311.000,A,3748.7171,N,12217.9412,W,2.63,204.33,220911,,,D*76
$GPRMC,173312.000,A,3748.7164,N,12217.9417,W,2.62,203.10,220911,,,D*73
$GPRMC,173313.000,A,3748.7156,N,12217.9427,W,3.01,209.54,220911,,,D*7E
$GPRMC,173314.000,A,3748.7149,N,12217.9436,W,2.69,209.35,220911,,,D*7F
$GPRMC,173315.000,A,3748.7142,N,12217.9440,W,2.86,200.18,220911,,,D*73
$GPRMC,173316.000,A,3748.7137,N,12217.9441,W,3.15,193.99,220911,,,D*78
$GPRMC,173317.000,A,3748.7127,N,12217.9446,W,3.27,191.60,220911,,,D*7A
$GPRMC,173318.000,A,3748.7117,N,12217.9447,W,2.48,174.76,220911,,,D*73
$GPRMC,173319.000,A,3748.7113,N,12217.9448,W,2.29,195.93,220911,,,D*7A
$GPRMC,173320.000,A,3748.7107,N,12217.9456,W,3.37,216.17,220911,,,D*70
$GPRMC,173321.000,A,3748.7096,N,12217.9467,W,3.17,217.34,220911,,,D*78
$GPRMC,173322.000,A,3748.7085,N,12217.9480,W,3.66,208.89,220911,,,D*7E
$GPRMC,173323.000,A,3748.7079,N,12217.9486,W,2.83,196.38,220911,,,D*7E
$GPRMC,173324.000,A,3748.7072,N,12217.9495,W,3.05,202.90,220911,,,D*73
$GPRMC,173325.000,A,3748.7066,N,12217.9502,W,3.10,206.35,220911,,,D*77
$GPRMC,173326.000,A,3748.7063,N,12217.9507,W,2.63,217.96,220911,,,D*78
$GPRMC,173327.000,A,3748.7056,N,12217.9514,W,3.26,212.34,220911,,,D*70
$GPRMC,173328.000,A,3748.7049,N,12217.9520,W,2.64,210.75,220911,,,D*76
$GPRMC,173329.000,A,3748.7042,N,12217.9523,W,2.75,205.94,220911,,,D*74
$GPRMC,173330.000,A,3748.7036,N,12217.9526,W,2.98,211.46,220911,,,D*73
$GPRMC,173331.000,A,3748.7026,N,12217.9530,W,2.21,205.03,220911,,,D*72
$GPRMC,173332.000,A,3748.7018,N,12217.9532,W,1.94,201.28,220911,,,D*7E
$GPRMC,173333.000,A,3748.7012,N,12217.9538,W,2.40,203.44,220911,,,D*7D
$GPRMC,173334.000,A,3748.7002,N,12217.9541,W,3.01,199.78,220911,,,D*7E
$GPRMC,173335.000,A,3748.6990,N,12217.9547,W,3.52,207.67,220911,,,D*76
$GPRMC,173336.000,A,3748.6977,N,12217.9556,W,3.90,208.09,220911,,,D*75
$GPRMC,173337.000,A,3748.6965,N,12217.9564,W,3.24,212.86,220911,,,D*75
$GPRMC,173338.000,A,3748.6954,N,12217.9570,W,3.48,206.90,220911,,,D*75
$GPRMC,173339.000,A,3748.6938,N,12217.9577,W,3.25,197.49,220911,,,D*7D
$GPRMC,173340.000,A,3748.6923,N,12217.9580,W,2.84,196.60,220911,,,D*71
$GPRMC,173341.000,A,3748.6910,N,12217.9581,W,2.91,190.63,220911,,,D*70
$GPRMC,173342.000,A,3748.6898,N,12217.9581,W,3.00,192.95,220911,,,D*70
$GPRMC,173343.000,A,3748.6887,N,12217.9583,W,3.17,198.30,220911,,,D*7E
$GPRMC,173344.000,A,3748.6880,N,12217.9586,W,2.97,193.26,220911,,,D*7E
$GPRMC,173345.000,A,3748.6872,N,12217.9589,W,3.00,204.80,220911,,,D*73
$GPRMC,173346.000,A,3748.6863,N,12217.9595,W,3.02,196.52,220911,,,D*78
$GPRMC,173347.000,A,3748.6850,N,12217.9601,W,3.51,205.42,220911,,,D*79
$GPRMC,173348.000,A,3748.6839,N,12217.9607,W,3.26,192.83,220911,,,D*7F
$GPRMC,173349.000,A,3748.6827,N,12217.9616,W,2.84,202.69,220911,,,D*76
$GPRMC,173350.000,A,3748.6819,N,12217.9624,W,2.54,201.63,220911,,,D*76
$GPRMC,173351.000,A,3748.6814,N,12217.9631,W,2.55,199.30,220911,,,D*7B
$GPRMC,173352.000,A,3748.6807,N,12217.9635,W,2.75,200.47,220911,,,D*7F
$GPRMC,173353.000,A,3748.6798,N,12217.9642,W,3.21,199.99,220911,,,D*77
$GPRMC,173354.000,A,3748.6789,N,12217.9646,W,2.63,197.69,220911,,,D*72
$GPRMC,173355.000,A,3748.6783,N,12217.9650,W,2.49,198.95,220911,,,D*7A
$GPRMC,173356.000,A,3748.6776,N,12217.9653,W,2.45,201.38,220911,,,D*78
$GPRMC,173357.000,A,3748.6765,N,12217.9656,W,2.91,196.45,220911,,,D*70
$GPRMC,173358.000,A,3748.6755,N,12217.9661,W,2.74,207.23,220911,,,D*78
$GPRMC,173359.000,A,3748.6749,N,12217.9663,W,2.33,199.19,220911,,,D*78
$GPRMC,173400.000,A,3748.6744,N,12217.9665,W,2.80,204.87,220911,,,D*70
$GPRMC,173401.000,A,3748.6738,N,12217.9672,W,3.19,208.79,220911,,,D*70
$GPRMC,173402.000,A,3748.6734,N,12217.9678,W,2.97,199.76,220911,,,D*76
$GPRMC,173403.000,A,3748.6734,N,12217.9684,W,3.15,218.05,220911,,,D*71
$GPRMC,173404.000,A,3748.6732,N,12217.9691,W,3.13,221.41,220911,,,D*78
$GPRMC,173405.000,A,3748.6727,N,12217.9703,W,2.78,220.70,220911,,,D*78
$GPRMC,173406.000,A,3748.6727,N,12217.9708,W,2.17,206.06,220911,,,D*7C
$GPRMC,173407.000,A,3748.6722,N,12217.9715,W,2.70,210.05,220911,,,D*71
$GPRMC,173408.000,A,3748.6720,N,12217.9719,W,1.79,207.69,220911,,,D*76
$GPRMC,173409.000,A,3748.6709,N,12217.9730,W,2.70,208.78,220911,,,D*72
$GPRMC,173410.000,A,3748.6694,N,12217.9742,W,3.58,216.09,220911,,,D*78
$GPRMC,173411.000,A,3748.6689,N,12217.9744,W,3.07,216.28,220911,,,D*7A
$GPRMC,173412.000,A,3748.6685,N,12217.9744,W,2.95,202.42,220911,,,D*76
$GPRMC,173413.000,A,3748.6680,N,12217.9745,W,2.51,208.54,220911,,,D*76
$GPRMC,173414.000,A,3748.6675,N,12217.9753,W,3.31,209.09,220911,,,D*72
$GPRMC,173415.000,A,3748.6664,N,12217.9757,W,3.78,201.14,220911,,,D*7E
$GPRMC,173416.000,A,3748.6653,N,12217.9765,W,3.77,193.87,220911,,,D*75
$GPRMC,173417.000,A,3748.6639,N,12217.9769,W,3.62,190.17,220911,,,D*7A
$GPRMC,173418.000,A,3748.6627,N,12217.9773,W,3.48,196.11,220911,,,D*79
$GPRMC,173419.000,A,3748.6617,N,12217.9778,W,2.88,198.18,220911,,,D*7A
$GPRMC,173420.000,A,3748.6603,N,12217.9784,W,2.54,202.44,220911,,,D*7E
$GPRMC,173421.000,A,3748.6590,N,12217.9790,W,3.07,197.77,220911,,,D*7B
$GPRMC,173422.000,A,3748.6584,N,12217.9795,W,2.43,198.43,220911,,,D*71
$GPRMC,173423.000,A,3748.6577,N,12217.9801,W,2.38,200.12,220911,,,A*71
$GPRMC,173424.000,A,3748.6570,N,12217.9809,W,2.38,204.48,220911,,,A*72
$GPRMC,173425.000,A,3748.6563,N,12217.9818,W,2.66,206.06,220911,,,A*72
$GPRMC,173426.000,A,3748.6552,N,12217.9829,W,2.83,200.36,220911,,,A*7F
$GPRMC,173427.000,A,3748.6543,N,12217.9840,W,2.78,204.94,220911,,,A*79
$GPRMC,173428.000,A,3748.6533,N,12217.9851,W,2.96,205.03,220911,,,A*7E
$GPRMC,173429.000,A,3748.6525,N,12217.9857,W,3.06,208.73,220911,,,A*7C
$GPRMC,173430.000,A,3748.6521,N,12217.9864,W,3.23,196.59,220911,,,A*7B
$GPRMC,173431.000,A,3748.6516,N,12217.9868,W,2.57,185.90,220911,,,A*77
$GPRMC,173432.000,A,3748.6509,N,12217.9874,W,2.29,193.14,220911,,,A*75
$GPRMC,173433.000,A,3748.6505,N,12217.9876,W,2.55,191.18,220911,,,A*7F
$GPRMC,173434.000,A,3748.6501,N,12217.9879,W,2.28,193.21,220911,,,A*71
$GPRMC,173435.000,A,3748.6498,N,12217.9882,W,2.07,194.07,220911,,,A*7B
$GPRMC,173436.000,A,3748.6494,N,12217.9887,W,2.23,196.77,220911,,,A*72
$GPRMC,173437.000,A,3748.6487,N,12217.9896,W,2.49,202.06,220911,,,A*75
$GPRMC,173438.000,A,3748.6482,N,12217.9902,W,2.81,202.34,220911,,,A*76
$GPRMC,173439.000,A,3748.6477,N,12217.9910,W,2.25,198.28,220911,,,A*7D
$GPRMC,173440.000,A,3748.6472,N,12217.9919,W,2.31,206.05,220911,,,A*71
$GPRMC,173441.000,A,3748.6465,N,12217.9927,W,2.50,200.54,220911,,,A*7E
$GPRMC,173442.000,A,3748.6457,N,12217.9928,W,2.63,195.90,220911,,,A*74
$GPRMC,173443.000,A,3748.6449,N,12217.9933,W,2.80,195.77,220911,,,A*74
$GPRMC,173444.000,A,3748.6438,N,12217.9940,W,3.24,196.52,220911,,,A*7A
$GPRMC,173445.000,A,3748.6428,N,12217.9950,W,3.47,204.87,220911,,,A*7E
$GPRMC,173446.000,A,3748.6420,N,12217.9955,W,2.98,201.69,220911,,,A*76
$GPRMC,173447.000,A,3748.6415,N,12217.9959,W,2.49,202.17,220911,,,A*7B
$GPRMC,173448.000,A,3748.6408,N,12217.9965,W,2.88,208.94,220911,,,A*7B
$GPRMC,173449.000,A,3748.6401,N,12217.9972,W,2.34,206.88,220911,,,A*71
$GPRMC,173450.000,A,3748.6394,N,12217.9979,W,3.02,204.96,220911,,,A*70
$GPRMC,173451.000,A,3748.6388,N,12217.9983,W,2.79,193.61,220911,,,A*71
$GPRMC,173452.000,A,3748.6383,N,12217.9987,W,2.08,197.80,220911,,,A*70
$GPRMC,173453.000,A,3748.6372,N,12217.9995,W,2.87,197.49,220911,,,A*7E
$GPRMC,173454.000,A,3748.6361,N,12218.0001,W,3.42,197.99,220911,,,A*7C
$GPRMC,173455.000,A,3748.6350,N,12218.0006,W,3.30,200.56,220911,,,A*73
$GPRMC,173456.000,A,3748.6344,N,12218.0009,W,3.00,206.33,220911,,,A*7C
$GPRMC,173457.000,A,3748.6337,N,12218.0013,W,3.08,213.64,220911,,,A*7C
$GPRMC,173458.000,A,3748.6332,N,12218.0019,W,3.44,225.49,220911,,,A*7E
$GPRMC,173459.000,A,3748.6326,N,12218.0029,W,3.06,218.35,220911,,,A*7A
$GPRMC,173500.000,A,3748.6315,N,12218.0042,W,3.34,212.17,220911,,,A*71
$GPRMC,173501.000,A,3748.6309,N,12218.0050,W,2.48,202.41,220911,,,A*76
$GPRMC,173502.000,A,3748.6299,N,12218.0060,W,3.25,203.09,220911,,,A*79
$GPRMC,173503.000,A,3748.6293,N,12218.0064,W,3.14,203.75,220911,,,A*7F
$GPRMC,173504.000,A,3748.6285,N,12218.0069,W,3.20,211.65,220911,,,A*77
$GPRMC,173505.000,A,3748.6281,N,12218.0073,W,2.58,209.64,220911,,,A*7F
$GPRMC,173506.000,A,3748.6279,N,12218.0077,W,2.31,213.35,220911,,,A*7F
$GPRMC,173507.000,A,3748.6274,N,12218.0085,W,2.45,212.13,220911,,,A*78
$GPRMC,173508.000,A,3748.6268,N,12218.0091,W,2.50,198.10,220911,,,A*79
$GPRMC,173509.000,A,3748.6256,N,12218.0094,W,2.92,169.81,220911,,,A*78
$GPRMC,173510.000,A,3748.6244,N,12218.0093,W,3.03,152.71,220911,,,A*7A
$GPRMC,173511.000,A,3748.6232,N,12218.0085,W,2.57,131.53,220911,,,A*78
$GPRMC,173512.000,A,3748.6223,N,12218.0071,W,2.51,107.73,220911,,,A*71
$GPRMC,173513.000,A,3748.6219,N,12218.0056,W,2.81,85.65,220911,,,A*4D
$GPRMC,173514.000,A,3748.6211,N,12218.0041,W,2.71,103.17,220911,,,A*71
$GPRMC,173515.000,A,3748.6200,N,12218.0025,W,2.86,115.04,220911,,,A*7F
$GPRMC,173516.000,A,3748.6195,N,12218.0011,W,2.97,114.15,220911,,,A*75
$GPRMC,173517.000,A,3748.6188,N,12217.9996,W,2.94,106.28,220911,,,A*76
$GPRMC,173518.000,A,3748.6184,N,12217.9984,W,2.63,117.72,220911,,,A*71
$GPRMC,173519.000,A,3748.6173,N,12217.9976,W,2.86,121.13,220911,,,A*7C
$GPRMC,173520.000,A,3748.6167,N,12217.9963,W,2.99,124.10,220911,,,A*7F
$GPRMC,173521.000,A,3748.6156,N,12217.9957,W,3.01,122.83,220911,,,A*77
$GPRMC,173522.000,A,3748.6149,N,12217.9949,W,2.91,123.32,220911,,,A*76
$GPRMC,173523.000,A,3748.6140,N,12217.9936,W,3.19,130.94,220911,,,A*79
$GPRMC,173524.000,A,3748.6139,N,12217.9925,W,2.86,119.16,220911,,,A*74
$GPRMC,173525.000,A,3748.6136,N,12217.9917,W,2.66,100.75,220911,,,A*78
$GPRMC,173526.000,A,3748.6136,N,12217.9908,W,2.77,108.11,220911,,,A*7F
$GPRMC,173527.000,A,3748.6128,N,12217.9898,W,2.86,109.04,220911,,,A*72
$GPRMC,173528.000,A,3748.6112,N,12217.9890,W,2.82,114.19,220911,,,A*78
$GPRMC,173529.000,A,3748.6102,N,12217.9879,W,2.96,123.15,220911,,,A*72
$GPRMC,173530.000,A,3748.6097,N,12217.9867,W,2.80,102.45,220911,,,A*79
$GPRMC,173531.000,A,3748.6091,N,12217.9854,W,3.03,110.78,220911,,,A*79
$GPRMC,173532.000,A,3748.6081,N,12217.9841,W,2.98,107.86,220911,,,A*7B
$GPRMC,173533.000,A,3748.6080,N,12217.9830,W,2.86,108.97,220911,,,A*7D
$GPRMC,173534.000,A,3748.6075,N,12217.9819,W,2.79,113.30,220911,,,A*7C
$GPRMC,173535.000,A,3748.6073,N,12217.9810,W,2.71,114.51,220911,,,A*7A
$GPRMC,173536.000,A,3748.6066,N,12217.9804,W,2.89,108.56,220911,,,A*75
$GPRMC,173537.000,A,3748.6065,N,12217.9794,W,2.70,94.97,220911,,,A*4E
$GPRMC,173538.000,A,3748.6068,N,12217.9781,W,2.82,82.84,220911,,,A*40
$GPRMC,173539.000,A,3748.6069,N,12217.9770,W,2.59,86.68,220911,,,A*4E
$GPRMC,173540.000,A,3748.6067,N,12217.9762,W,2.47,101.41,220911,,,A*77
$GPRMC,173541.000,A,3748.6061,N,12217.9754,W,2.49,111.43,220911,,,A*78
$GPRMC,173542.000,A,3748.6056,N,12217.9749,W,2.46,94.63,220911,,,A*42
$GPRMC,173543.000,A,3748.6051,N,12217.9740,W,2.62,82.29,220911,,,A*42
$GPRMC,173544.000,A,3748.6046,N,12217.9731,W,2.76,97.98,220911,,,A*4E
$GPRMC,173545.000,A,3748.6039,N,12217.9721,W,2.83,97.52,220911,,,A*4A
$GPRMC,173546.000,A,3748.6031,N,12217.9715,W,2.67,112.64,220911,,,A*75
$GPRMC,173547.000,A,3748.6021,N,12217.9705,W,3.10,123.17,220911,,,A*73
$GPRMC,173548.000,A,3748.6012,N,12217.9695,W,2.82,114.39,220911,,,A*76
$GPRMC,173549.000,A,3748.6007,N,12217.9683,W,2.75,97.07,220911,,,A*4B
$GPRMC,173550.000,A,3748.6003,N,12217.9672,W,2.75,108.73,220911,,,A*7D
$GPRMC,173551.000,A,3748.5998,N,12217.9662,W,2.68,97.90,220911,,,A*43
$GPRMC,173552.000,A,3748.5992,N,12217.9652,W,2.54,113.69,220911,,,A*7D
$GPRMC,173553.000,A,3748.5986,N,12217.9644,W,3.02,123.64,220911,,,A*72
$GPRMC,173554.000,A,3748.5982,N,12217.9630,W,2.92,113.14,220911,,,A*7E
$GPRMC,173555.000,A,3748.5978,N,12217.9620,W,2.71,108.37,220911,,,A*7D
$GPRMC,173556.000,A,3748.5974,N,12217.9613,W,2.67,113.59,220911,,,A*77
$GPRMC,173557.000,A,3748.5968,N,12217.9602,W,2.87,113.60,220911,,,A*7F
$GPRMC,173558.000,A,3748.5961,N,12217.9592,W,2.81,112.33,220911,,,A*72
$GPRMC,173559.000,A,3748.5953,N,12217.9583,W,2.89,112.99,220911,,,A*7A
$GPRMC,173600.000,A,3748.5946,N,12217.9572,W,3.12,118.07,220911,,,A*71
$GPRMC,173601.000,A,3748.5940,N,12217.9563,W,2.98,128.94,220911,,,A*7C
$GPRMC,173602.000,A,3748.5933,N,12217.9550,W,3.08,120.63,220911,,,A*73
$GPRMC,173603.000,A,3748.5927,N,12217.9540,W,3.00,115.10,220911,,,A*7C
$GPRMC,173604.000,A,3748.5925,N,12217.9530,W,2.78,104.89,220911,,,A*70
$GPRMC,173605.000,A,3748.5924,N,12217.9521,W,2.70,99.84,220911,,,A*40
$GPRMC,173606.000,A,3748.5922,N,12217.9508,W,2.93,107.76,220911,,,A*78
$GPRMC,173607.000,A,3748.5914,N,12217.9500,W,2.91,118.29,220911,,,A*72
$GPRMC,173608.000,A,3748.5907,N,12217.9490,W,2.85,109.72,220911,,,A*7C
$GPRMC,173609.000,A,3748.5906,N,12217.9483,W,2.64,108.02,220911,,,A*77
$GPRMC,173610.000,A,3748.5904,N,12217.9474,W,2.49,109.05,220911,,,A*7C
$GPRMC,173611.000,A,3748.5902,N,12217.9464,W,3.06,122.50,220911,,,A*79
$GPRMC,173612.000,A,3748.5905,N,12217.9455,W,3.02,121.03,220911,,,A*7E
$GPRMC,173613.000,A,3748.5904,N,12217.9446,W,2.90,124.93,220911,,,A*7A
$GPRMC,173614.000,A,3748.5899,N,12217.9436,W,2.77,108.08,220911,,,A*7A
$GPRMC,173615.000,A,3748.5895,N,12217.9425,W,2.76,93.21,220911,,,A*4C
$GPRMC,173616.000,A,3748.5899,N,12217.9418,W,1.80,66.80,220911,,,A*46
$GPRMC,173617.000,A,3748.5899,N,12217.9412,W,1.95,93.63,220911,,,A*4E
$GPRMC,173618.000,A,3748.5891,N,12217.9408,W,2.40,118.46,220911,,,A*7C
$GPRMC,173619.000,A,3748.5881,N,12217.9400,W,2.62,120.17,220911,,,A*7B
$GPRMC,173620.000,A,3748.5875,N,12217.9392,W,2.23,107.87,220911,,,A*7F
$GPRMC,173621.000,A,3748.5872,N,12217.9389,W,2.19,112.76,220911,,,A*70
$GPRMC,173622.000,A,3748.5866,N,12217.9386,W,1.13,123.45,220911,,,A*72
$GPRMC,173623.000,A,3748.5861,N,12217.9382,W,1.39,148.10,220911,,,A*75
$GPRMC,173624.000,A,3748.5857,N,12217.9382,W,1.74,184.61,220911,,,A*78
$GPRMC,173625.000,A,3748.5853,N,12217.9389,W,2.21,203.74,220911,,,A*7D
$GPRMC,173626.000,A,3748.5846,N,12217.9397,W,2.39,198.03,220911,,,A*7D
$GPRMC,173627.000,A,3748.5832,N,12217.9406,W,2.38,193.68,220911,,,A*77
$GPRMC,173628.000,A,3748.5812,N,12217.9420,W,3.32,200.11,220911,,,A*72
$GPRMC,173629.000,A,3748.5804,N,12217.9424,W,3.22,196.90,220911,,,A*74
$GPRMC,173630.000,A,3748.5794,N,12217.9432,W,3.26,191.05,220911,,,A*72
$GPRMC,173631.000,A,3748.5791,N,12217.9433,W,2.13,184.73,220911,,,A*75
$GPRMC,173632.000,A,3748.5786,N,12217.9437,W,1.92,187.78,220911,,,A*76
$GPRMC,173633.000,A,3748.5783,N,12217.9439,W,1.26,187.47,220911,,,A*7F
$GPRMC,173634.000,A,3748.5780,N,12217.9442,W,1.80,208.52,220911,,,A*7B
$GPRMC,173635.000,A,3748.5775,N,12217.9449,W,2.45,212.36,220911,,,A*78
$GPRMC,173636.000,A,3748.5766,N,12217.9453,W,1.75,210.64,220911,,,A*77
$GPRMC,173637.000,A,3748.5757,N,12217.9460,W,3.42,205.80,220911,,,A*7C
$GPRMC,173638.000,A,3748.5755,N,12217.9461,W,3.17,208.09,220911,,,A*7C
$GPRMC,173639.000,A,3748.5745,N,12217.9467,W,3.24,212.80,220911,,,A*70
$GPRMC,173640.000,A,3748.5734,N,12217.9469,W,2.27,195.73,220911,,,A*74
$GPRMC,173641.000,A,3748.5730,N,12217.9472,W,2.20,222.25,220911,,,A*70
$GPRMC,173642.000,A,3748.5726,N,12217.9480,W,2.31,221.88,220911,,,A*7D
$GPRMC,173643.000,A,3748.5720,N,12217.9487,W,2.06,217.06,220911,,,A*7A
$GPRMC,173644.000,A,3748.5715,N,12217.9492,W,1.86,185.09,220911,,,A*73
$GPRMC,173645.000,A,3748.5708,N,12217.9501,W,2.95,191.35,220911,,,A*7E
$GPRMC,173646.000,A,3748.5701,N,12217.9513,W,3.20,201.28,220911,,,A*7E
$GPRMC,173647.000,A,3748.5693,N,12217.9522,W,2.89,204.43,220911,,,A*7D
$GPRMC,173648.000,A,3748.5683,N,12217.9532,W,2.90,203.12,220911,,,A*79
$GPRMC,173649.000,A,3748.5677,N,12217.9540,W,2.54,209.27,220911,,,A*72
$GPRMC,173650.000,A,3748.5674,N,12217.9545,W,2.66,214.78,220911,,,A*7B
$GPRMC,173651.000,A,3748.5670,N,12217.9550,W,2.24,215.02,220911,,,A*70
$GPRMC,173652.000,A,3748.5666,N,12217.9557,W,2.21,204.60,220911,,,A*72
$GPRMC,173653.000,A,3748.5656,N,12217.9562,W,2.31,209.83,220911,,,A*77
$GPRMC,173654.000,A,3748.5646,N,12217.9569,W,2.70,209.24,220911,,,A*72
$GPRMC,173655.000,A,3748.5639,N,12217.9575,W,2.34,200.44,220911,,,A*79
$GPRMC,173656.000,A,3748.5632,N,12217.9581,W,2.38,207.55,220911,,,A*71
$GPRMC,173657.000,A,3748.5627,N,12217.9583,W,1.80,214.88,220911,,,A*74
$GPRMC,173658.000,A,3748.5618,N,12217.9589,W,2.76,201.24,220911,,,A*75
$GPRMC,173659.000,A,3748.5605,N,12217.9597,W,2.78,201.40,220911,,,A*7B
$GPRMC,173700.000,A,3748.5598,N,12217.9599,W,2.76,202.68,220911,,,A*78
$GPRMC,173701.000,A,3748.5588,N,12217.9606,W,2.55,209.25,220911,,,A*7E
$GPRMC,173702.000,A,3748.5585,N,12217.9610,W,2.79,206.52,220911,,,A*76
$GPRMC,173703.000,A,3748.5578,N,12217.9615,W,2.94,211.39,220911,,,A*78
$GPRMC,173704.000,A,3748.5573,N,12217.9619,W,2.58,210.17,220911,,,A*75
$GPRMC,173705.000,A,3748.5564,N,12217.9624,W,3.08,205.26,220911,,,A*7E
$GPRMC,173706.000,A,3748.5552,N,12217.9632,W,3.40,205.47,220911,,,A*74
$GPRMC,173707.000,A,3748.5542,N,12217.9643,W,2.97,215.20,220911,,,A*79
$GPRMC,173708.000,A,3748.5534,N,12217.9650,W,2.94,213.51,220911,,,A*76
$GPRMC,173709.000,A,3748.5522,N,12217.9658,W,2.80,208.69,220911,,,A*7C
$GPRMC,173710.000,A,3748.5513,N,12217.9664,W,3.19,205.06,220911,,,A*7C
$GPRMC,173711.000,A,3748.5501,N,12217.9671,W,3.13,209.05,220911,,,A*7F
$GPRMC,173712.000,A,3748.5488,N,12217.9680,W,3.00,207.64,220911,,,A*79
$GPRMC,173713.000,A,3748.5474,N,12217.9692,W,3.21,212.02,220911,,,A*7F
$GPRMC,173714.000,A,3748.5460,N,12217.9703,W,3.30,210.21,220911,,,A*77
$GPRMC,173715.000,A,3748.5453,N,12217.9709,W,2.98,208.97,220911,,,A*7B
$GPRMC,173716.000,A,3748.5446,N,12217.9714,W,3.34,217.91,220911,,,A*7F
$GPRMC,173717.000,A,3748.5440,N,12217.9719,W,2.57,204.36,220911,,,A*7E
$GPRMC,173718.000,A,3748.5435,N,12217.9724,W,3.08,207.41,220911,,,A*75
$GPRMC,173719.000,A,3748.5433,N,12217.9725,W,2.16,199.24,220911,,,A*7A
$GPRMC,173720.000,A,3748.5429,N,12217.9728,W,1.93,206.62,220911,,,A*7F
$GPRMC,173721.000,A,3748.5428,N,12217.9729,W,1.69,189.92,220911,,,A*70
$GPRMC,173722.000,A,3748.5424,N,12217.9729,W,1.99,194.16,220911,,,A*70
$GPRMC,173723.000,A,3748.5414,N,12217.9734,W,2.86,201.54,220911,,,A*7A
$GPRMC,173724.000,A,3748.5405,N,12217.9742,W,2.57,211.65,220911,,,A*73
$GPRMC,173725.000,A,3748.5398,N,12217.9749,W,2.93,208.94,220911,,,A*74
$GPRMC,173726.000,A,3748.5392,N,12217.9755,W,2.79,210.41,220911,,,A*75
$GPRMC,173727.000,A,3748.5385,N,12217.9763,W,2.79,203.95,220911,,,A*7C
$GPRMC,173728.000,A,3748.5382,N,12217.9768,W,2.62,213.54,220911,,,A*79
$GPRMC,173729.000,A,3748.5375,N,12217.9777,W,3.10,204.52,220911,,,A*7A
$GPRMC,173730.000,A,3748.5369,N,12217.9786,W,2.54,194.09,220911,,,A*74
$GPRMC,173731.000,A,3748.5362,N,12217.9788,W,2.45,170.88,220911,,,A*73
$GPRMC,173732.000,A,3748.5357,N,12217.9789,W,2.18,187.93,220911,,,A*7D
$GPRMC,173733.000,A,3748.5349,N,12217.9793,W,2.40,196.65,220911,,,A*7C
$GPRMC,173734.000,A,3748.5340,N,12217.9799,W,2.08,202.73,220911,,,A*7D
$GPRMC,173735.000,A,3748.5331,N,12217.9801,W,1.94,209.41,220911,,,A*78
$GPRMC,173736.000,A,3748.5325,N,12217.9804,W,2.22,221.35,220911,,,A*7C
$GPRMC,173737.000,A,3748.5317,N,12217.9806,W,2.20,201.92,220911,,,A*73
$GPRMC,173738.000,A,3748.5315,N,12217.9813,W,1.35,208.34,220911,,,A*78
$GPRMC,173739.000,A,3748.5311,N,12217.9819,W,1.66,206.28,220911,,,A*72
$GPRMC,173740.000,A,3748.5301,N,12217.9825,W,2.72,208.95,220911,,,A*7C
$GPRMC,173741.000,A,3748.5292,N,12217.9832,W,1.79,219.44,220911,,,A*74
$GPRMC,173742.000,A,3748.5286,N,12217.9838,W,2.41,202.40,220911,,,A*7E
$GPRMC,173743.000,A,3748.5277,N,12217.9842,W,2.00,197.66,220911,,,A*72
$GPRMC,173744.000,A,3748.5269,N,12217.9848,W,2.11,201.14,220911,,,A*79
$GPRMC,173745.000,A,3748.5265,N,12217.9848,W,1.32,197.01,220911,,,A*7E
$GPRMC,173746.000,A,3748.5258,N,12217.9851,W,2.00,214.61,220911,,,A*77
$GPRMC,173747.000,A,3748.5247,N,12217.9859,W,2.02,226.84,220911,,,A*78
$GPRMC,173748.000,A,3748.5239,N,12217.9865,W,1.76,198.48,220911,,,A*77
$GPRMC,173749.000,A,3748.5229,N,12217.9873,W,2.84,202.10,220911,,,A*73
$GPRMC,173750.000,A,3748.5224,N,12217.9883,W,3.55,207.10,220911,,,A*71
$GPRMC,173751.000,A,3748.5221,N,12217.9889,W,3.08,211.41,220911,,,A*74
$GPRMC,173752.000,A,3748.5209,N,12217.9904,W,3.61,206.29,220911,,,A*7E
$GPRMC,173753.000,A,3748.5201,N,12217.9915,W,3.62,207.42,220911,,,A*78
$GPRMC,173754.000,A,3748.5186,N,12217.9929,W,3.38,197.54,220911,,,A*7E
$GPRMC,173755.000,A,3748.5173,N,12217.9936,W,3.18,191.41,220911,,,A*7B
$GPRMC,173756.000,A,3748.5160,N,12217.9936,W,2.60,189.28,220911,,,A*72
$GPRMC,173757.000,A,3748.5154,N,12217.9942,W,2.05,222.07,220911,,,A*7B
$GPRMC,173758.000,A,3748.5144,N,12217.9947,W,2.15,193.95,220911,,,A*73
$GPRMC,173759.000,A,3748.5137,N,12217.9947,W,2.29,193.39,220911,,,A*7F
$GPRMC,173800.000,A,3748.5135,N,12217.9948,W,2.36,202.09,220911,,,A*77
$GPRMC,173801.000,A,3748.5131,N,12217.9951,W,2.09,197.62,220911,,,A*74
$GPRMC,173802.000,A,3748.5132,N,12217.9954,W,0.81,192.61,220911,,,A*75
$GPRMC,173803.000,A,3748.5131,N,12217.9956,W,0.37,331.19,220911,,,A*7C
$GPRMC,173804.000,A,3748.5123,N,12217.9964,W,1.00,236.75,220911,,,A*70
$GPRMC,173805.000,A,3748.5117,N,12217.9968,W,1.60,207.31,220911,,,A*7E
$GPRMC,173806.000,A,3748.5118,N,12217.9971,W,1.95,218.01,220911,,,A*7D
$GPRMC,173807.000,A,3748.5116,N,12217.9973,W,1.64,194.56,220911,,,A*7B
$GPRMC,173808.000,A,3748.5111,N,12217.9977,W,2.24,201.51,220911,,,A*78
$GPRMC,173809.000,A,3748.5107,N,12217.9981,W,2.33,198.37,220911,,,A*72
$GPRMC,173810.000,A,3748.5106,N,12217.9983,W,2.32,208.16,220911,,,A*71
$GPRMC,173811.000,A,3748.5100,N,12217.9986,W,1.09,223.31,220911,,,A*74
$GPRMC,173812.000,A,3748.5096,N,12217.9990,W,0.25,227.92,220911,,,A*7C
$GPRMC,173813.000,A,3748.5095,N,12217.9991,W,1.65,222.05,220911,,,A*71
$GPRMC,173814.000,A,3748.5091,N,12217.9996,W,1.44,226.61,220911,,,A*70
$GPRMC,173815.000,A,3748.5087,N,12218.0000,W,1.27,208.13,220911,,,A*7A
$GPRMC,173816.000,A,3748.5084,N,12218.0004,W,2.16,196.35,220911,,,A*7F
$GPRMC,173817.000,A,3748.5077,N,12218.0006,W,2.68,194.88,220911,,,A*7D
$GPRMC,173818.000,A,3748.5065,N,12218.0014,W,2.38,210.98,220911,,,A*79
$GPRMC,173819.000,A,3748.5059,N,12218.0021,W,2.38,206.12,220911,,,A*74
$GPRMC,173820.000,A,3748.5052,N,12218.0025,W,2.03,212.50,220911,,,A*7A
$GPRMC,173821.000,A,3748.5044,N,12218.0030,W,2.16,207.37,220911,,,A*79
$GPRMC,173822.000,A,3748.5037,N,12218.0037,W,2.04,195.77,220911,,,A*76
$GPRMC,173823.000,A,3748.5026,N,12218.0046,W,2.71,211.61,220911,,,A*7B
$GPRMC,173824.000,A,3748.5016,N,12218.0053,W,2.54,197.36,220911,,,A*73
$GPRMC,173825.000,A,3748.5003,N,12218.0061,W,2.70,198.97,220911,,,A*75
$GPRMC,173826.000,A,3748.4997,N,12218.0067,W,2.82,193.28,220911,,,A*77
$GPRMC,173827.000,A,3748.4990,N,12218.0072,W,2.61,201.09,220911,,,A*73
$GPRMC,173828.000,A,3748.4986,N,12218.0076,W,2.64,203.03,220911,,,A*72
$GPRMC,173829.000,A,3748.4983,N,12218.0079,W,1.57,221.36,220911,,,A*7C
$GPRMC,173830.000,A,3748.4975,N,12218.0080,W,1.77,218.16,220911,,,A*71
$GPRMC,173831.000,A,3748.4969,N,12218.0082,W,2.13,213.46,220911,,,A*70
$GPRMC,173832.000,A,3748.4968,N,12218.0086,W,2.07,223.07,220911,,,A*75
$GPRMC,173833.000,A,3748.4966,N,12218.0091,W,2.46,207.05,220911,,,A*7D
$GPRMC,173834.000,A,3748.4959,N,12218.0096,W,2.74,200.44,220911,,,A*72
$GPRMC,173835.000,A,3748.4951,N,12218.0103,W,2.40,204.10,220911,,,A*74
$GPRMC,173836.000,A,3748.4947,N,12218.0105,W,2.29,199.30,220911,,,A*7C
$GPRMC,173837.000,A,3748.4937,N,12218.0112,W,2.84,216.64,220911,,,A*7E
$GPRMC,173838.000,A,3748.4929,N,12218.0122,W,3.47,217.67,220911,,,A*71
$GPRMC,173839.000,A,3748.4924,N,12218.0129,W,2.87,212.51,220911,,,A*7B
$GPRMC,173840.000,A,3748.4919,N,12218.0136,W,2.94,207.27,220911,,,A*72
$GPRMC,173841.000,A,3748.4913,N,12218.0142,W,2.80,202.85,220911,,,A*72
$GPRMC,173842.000,A,3748.4905,N,12218.0148,W,2.95,198.22,220911,,,A*75
$GPRMC,173843.000,A,3748.4895,N,12218.0154,W,2.97,200.23,220911,,,A*70
$GPRMC,173844.000,A,3748.4890,N,12218.0157,W,2.77,186.25,220911,,,A*74
$GPRMC,173845.000,A,3748.4880,N,12218.0165,W,3.77,191.31,220911,,,A*77
$GPRMC,173846.000,A,3748.4871,N,12218.0170,W,2.87,208.34,220911,,,A*76
$GPRMC,173847.000,A,3748.4860,N,12218.0175,W,3.84,202.69,220911,,,A*72
$GPRMC,173848.000,A,3748.4851,N,12218.0178,W,4.13,199.63,220911,,,A*70
$GPRMC,173849.000,A,3748.4844,N,12218.0182,W,4.07,199.77,220911,,,A*70
$GPRMC,173850.000,A,3748.4836,N,12218.0190,W,3.86,204.23,220911,,,A*76
$GPRMC,173851.000,A,3748.4826,N,12218.0196,W,3.36,200.05,220911,,,A*7B
$GPRMC,173852.000,A,3748.4818,N,12218.0204,W,3.49,201.95,220911,,,A*7D
$GPRMC,173853.000,A,3748.4812,N,12218.0212,W,3.69,209.37,220911,,,A*73
$GPRMC,173854.000,A,3748.4808,N,12218.0217,W,3.47,205.73,220911,,,A*7A
$GPRMC,173855.000,A,3748.4804,N,12218.0220,W,2.59,204.00,220911,,,A*78
$GPRMC,173856.000,A,3748.4800,N,12218.0224,W,2.50,208.00,220911,,,A*7E
$GPRMC,173857.000,A,3748.4792,N,12218.0231,W,2.54,210.70,220911,,,A*75
$GPRMC,173858.000,A,3748.4786,N,12218.0238,W,2.27,194.27,220911,,,A*7F
$GPRMC,173859.000,A,3748.4779,N,12218.0245,W,2.90,206.02,220911,,,A*77
$GPRMC,173900.000,A,3748.4774,N,12218.0253,W,3.07,203.33,220911,,,A*78
$GPRMC,173901.000,A,3748.4767,N,12218.0257,W,2.53,198.09,220911,,,A*77
$GPRMC,173902.000,A,3748.4761,N,12218.0261,W,2.89,199.07,220911,,,A*7F
$GPRMC,173903.000,A,3748.4752,N,12218.0267,W,2.65,208.25,220911,,,A*71
$GPRMC,173904.000,A,3748.4747,N,12218.0270,W,2.39,196.09,220911,,,A*77
$GPRMC,173905.000,A,3748.4740,N,12218.0277,W,2.73,199.53,220911,,,A*78
$GPRMC,173906.000,A,3748.4730,N,12218.0286,W,2.69,196.85,220911,,,A*7D
$GPRMC,173907.000,A,3748.4719,N,12218.0294,W,2.50,195.61,220911,,,A*77
$GPRMC,173908.000,A,3748.4709,N,12218.0301,W,2.97,205.43,220911,,,A*75
$GPRMC,173909.000,A,3748.4704,N,12218.0305,W,2.39,203.53,220911,,,A*7E
$GPRMC,173910.000,A,3748.4697,N,12218.0310,W,2.85,203.72,220911,,,A*7D
$GPRMC,173911.000,A,3748.4686,N,12218.0319,W,3.51,204.77,220911,,,A*7F
$GPRMC,173912.000,A,3748.4674,N,12218.0326,W,3.16,209.04,220911,,,A*77
$GPRMC,173913.000,A,3748.4662,N,12218.0334,W,3.23,212.35,220911,,,A*7C
$GPRMC,173914.000,A,3748.4653,N,12218.0340,W,3.48,206.62,220911,,,A*70
$GPRMC,173915.000,A,3748.4647,N,12218.0343,W,2.91,197.99,220911,,,A*7D
$GPRMC,173916.000,A,3748.4636,N,12218.0348,W,2.87,196.66,220911,,,A*75
$GPRMC,173917.000,A,3748.4628,N,12218.0353,W,3.13,198.15,220911,,,A*77
$GPRMC,173918.000,A,3748.4625,N,12218.0355,W,2.71,172.59,220911,,,A*7A
$GPRMC,173919.000,A,3748.4614,N,12218.0359,W,2.83,180.44,220911,,,A*79
$GPRMC,173920.000,A,3748.4606,N,12218.0365,W,2.44,192.87,220911,,,A*78
$GPRMC,173921.000,A,3748.4600,N,12218.0371,W,2.64,196.30,220911,,,A*70
$GPRMC,173922.000,A,3748.4592,N,12218.0374,W,2.81,188.72,220911,,,A*7C
$GPRMC,173923.000,A,3748.4586,N,12218.0373,W,2.86,173.26,220911,,,A*7D
$GPRMC,173924.000,A,3748.4576,N,12218.0374,W,2.86,175.81,220911,,,A*79
$GPRMC,173925.000,A,3748.4568,N,12218.0379,W,3.28,186.93,220911,,,A*70
$GPRMC,173926.000,A,3748.4556,N,12218.0386,W,3.58,191.97,220911,,,A*7B
$GPRMC,173927.000,A,3748.4545,N,12218.0387,W,3.75,196.87,220911,,,A*70
$GPRMC,173928.000,A,3748.4542,N,12218.0386,W,3.16,195.62,220911,,,A*74
$GPRMC,173929.000,A,3748.4538,N,12218.0380,W,2.69,181.69,220911,,,A*79
$GPRMC,173930.000,A,3748.4531,N,12218.0381,W,2.58,194.08,220911,,,A*78
$GPRMC,173931.000,A,3748.4522,N,12218.0386,W,1.73,195.54,220911,,,A*7E
$GPRMC,173932.000,A,3748.4514,N,12218.0389,W,2.37,202.08,220911,,,A*70
$GPRMC,173933.000,A,3748.4504,N,12218.0388,W,2.07,194.20,220911,,,A*74
$GPRMC,173934.000,A,3748.4496,N,12218.0390,W,2.34,194.32,220911,,,A*73
$GPRMC,173935.000,A,3748.4483,N,12218.0396,W,2.66,205.16,220911,,,D*7F
$GPRMC,173936.000,A,3748.4474,N,12218.0403,W,3.10,192.96,220911,,,D*7A
$GPRMC,173937.000,A,3748.4464,N,12218.0407,W,2.74,180.67,220911,,,D*70
$GPRMC,173938.000,A,3748.4452,N,12218.0412,W,2.87,184.99,220911,,,D*77
$GPRMC,173939.000,A,3748.4439,N,12218.0420,W,3.02,186.82,220911,,,D*7E
$GPRMC,173940.000,A,3748.4426,N,12218.0427,W,2.92,193.20,220911,,,D*7D
$GPRMC,173941.000,A,3748.4416,N,12218.0432,W,2.71,190.99,220911,,,D*77
$GPRMC,173942.000,A,3748.4407,N,12218.0435,W,2.49,193.73,220911,,,D*7F
$GPRMC,173943.000,A,3748.4400,N,12218.0438,W,2.32,187.74,220911,,,D*7A
$GPRMC,173944.000,A,3748.4393,N,12218.0441,W,2.58,192.10,220911,,,D*74
$GPRMC,173945.000,A,3748.4386,N,12218.0444,W,2.56,189.76,220911,,,D*70
$GPRMC,173946.000,A,3748.4378,N,12218.0449,W,2.62,193.28,220911,,,D*78
$GPRMC,173947.000,A,3748.4368,N,12218.0455,W,2.42,197.15,220911,,,D*7D
$GPRMC,173948.000,A,3748.4358,N,12218.0460,W,2.86,187.64,220911,,,D*78
$GPRMC,173949.000,A,3748.4349,N,12218.0464,W,2.83,196.72,220911,,,D*7F
$GPRMC,173950.000,A,3748.4348,N,12218.0470,W,1.85,205.85,220911,,,D*77
$GPRMC,173951.000,A,3748.4346,N,12218.0471,W,0.79,199.56,220911,,,D*73
$GPRMC,173952.000,A,3748.4340,N,12218.0471,W,2.26,199.91,220911,,,D*75
$GPRMC,173953.000,A,3748.4329,N,12218.0478,W,2.46,196.23,220911,,,D*72
$GPRMC,173954.000,A,3748.4320,N,12218.0480,W,2.32,181.87,220911,,,D*70
$GPRMC,173955.000,A,3748.4312,N,12218.0481,W,2.95,197.08,220911,,,D*7C
$GPRMC,173956.000,A,3748.4304,N,12218.0485,W,2.46,196.77,220911,,,D*7B
$GPRMC,173957.000,A,3748.4297,N,12218.0487,W,2.00,197.34,220911,,,D*77
$GPRMC,173958.000,A,3748.4284,N,12218.0485,W,3.32,191.22,220911,,,D*79
$GPRMC,173959.000,A,3748.4281,N,12218.0481,W,2.55,171.83,220911,,,D*7C
$GPRMC,174000.000,A,3748.4277,N,12218.0477,W,2.04,197.56,220911,,,D*7A
$GPRMC,174001.000,A,3748.4269,N,12218.0476,W,1.49,215.00,220911,,,D*75
$GPRMC,174002.000,A,3748.4264,N,12218.0480,W,1.87,206.69,220911,,,D*7D
$GPRMC,174003.000,A,3748.4259,N,12218.0485,W,2.43,194.90,220911,,,D*72
$GPRMC,174004.000,A,3748.4250,N,12218.0491,W,1.90,191.62,220911,,,D*7C
$GPRMC,174005.000,A,3748.4241,N,12218.0497,W,1.53,212.82,220911,,,D*72
$GPRMC,174006.000,A,3748.4233,N,12218.0502,W,1.44,232.70,220911,,,D*70
$GPRMC,174007.000,A,3748.4227,N,12218.0508,W,1.51,253.84,220911,,,D*76
$GPRMC,174008.000,A,3748.4221,N,12218.0513,W,1.76,230.89,220911,,,D*78
$GPRMC,174009.000,A,3748.4213,N,12218.0525,W,2.80,201.32,220911,,,D*75
$GPRMC,174010.000,A,3748.4209,N,12218.0531,W,2.86,209.65,220911,,,D*7F
$GPRMC,174011.000,A,3748.4207,N,12218.0538,W,2.33,197.80,220911,,,D*78
$GPRMC,174012.000,A,3748.4200,N,12218.0544,W,2.90,191.83,220911,,,D*7B
$GPRMC,174013.000,A,3748.4191,N,12218.0549,W,3.07,184.94,220911,,,D*71
$GPRMC,174014.000,A,3748.4189,N,12218.0555,W,2.45,196.67,220911,,,D*7A
$GPRMC,174015.000,A,3748.4186,N,12218.0561,W,2.82,202.37,220911,,,D*73
$GPRMC,174016.000,A,3748.4185,N,12218.0569,W,2.96,200.04,220911,,,D*7C
$GPRMC,174017.000,A,3748.4182,N,12218.0574,W,2.57,196.55,220911,,,D*73
$GPRMC,174018.000,A,3748.4173,N,12218.0583,W,3.04,203.93,220911,,,D*78
$GPRMC,174019.000,A,3748.4161,N,12218.0592,W,2.88,208.20,220911,,,D*7C
$GPRMC,174020.000,A,3748.4153,N,12218.0598,W,2.64,204.86,220911,,,D*7F
$GPRMC,174021.000,A,3748.4147,N,12218.0600,W,2.45,192.65,220911,,,D*7B
$GPRMC,174022.000,A,3748.4138,N,12218.0600,W,2.19,188.19,220911,,,D*79
$GPRMC,174023.000,A,3748.4136,N,12218.0599,W,2.25,179.29,220911,,,D*77
$GPRMC,174024.000,A,3748.4121,N,12218.0599,W,2.53,192.94,220911,,,D*74
$GPRMC,174025.000,A,3748.4105,N,12218.0601,W,2.90,200.89,220911,,,D*7A
$GPRMC,174026.000,A,3748.4096,N,12218.0605,W,2.50,216.90,220911,,,D*75
$GPRMC,174027.000,A,3748.4093,N,12218.0611,W,2.14,233.75,220911,,,D*78
$GPRMC,174028.000,A,3748.4093,N,12218.0617,W,2.47,269.77,220911,,,D*7A
$GPRMC,174029.000,A,3748.4098,N,12218.0628,W,2.74,279.36,220911,,,D*78
$GPRMC,174030.000,A,3748.4097,N,12218.0643,W,2.59,273.33,220911,,,D*72
$GPRMC,174031.000,A,3748.4099,N,12218.0654,W,2.19,273.05,220911,,,D*7A
$GPRMC,174032.000,A,3748.4099,N,12218.0664,W,2.37,258.56,220911,,,D*79
$GPRMC,174033.000,A,3748.4105,N,12218.0670,W,2.36,273.11,220911,,,D*72
$GPRMC,174034.000,A,3748.4108,N,12218.0678,W,2.66,277.43,220911,,,D*76
$GPRMC,174035.000,A,3748.4111,N,12218.0689,W,2.74,281.80,220911,,,D*74
$GPRMC,174036.000,A,3748.4116,N,12218.0700,W,2.59,281.00,220911,,,D*77
$GPRMC,174037.000,A,3748.4117,N,12218.0712,W,2.36,270.00,220911,,,D*73
$GPRMC,174038.000,A,3748.4117,N,12218.0722,W,2.82,277.11,220911,,,D*77
$GPRMC,174039.000,A,3748.4119,N,12218.0730,W,2.49,275.51,220911,,,D*7A
$GPRMC,174040.000,A,3748.4118,N,12218.0733,W,1.91,272.03,220911,,,A*75
$GPRMC,174041.000,A,3748.4117,N,12218.0738,W,1.91,247.21,220911,,,A*76
$GPRMC,174042.000,A,3748.4115,N,12218.0746,W,2.16,252.86,220911,,,A*7B
$GPRMC,174043.000,A,3748.4114,N,12218.0753,W,2.17,245.53,220911,,,A*70
$GPRMC,174044.000,A,3748.4114,N,12218.0761,W,2.18,252.37,220911,,,A*7D
$GPRMC,174045.000,A,3748.4113,N,12218.0765,W,1.88,238.83,220911,,,A*76
$GPRMC,174046.000,A,3748.4110,N,12218.0767,W,1.88,202.65,220911,,,A*75
$GPRMC,174047.000,A,3748.4105,N,12218.0769,W,1.91,203.51,220911,,,A*70
$GPRMC,174048.000,A,3748.4107,N,12218.0773,W,1.85,254.86,220911,,,A*7B
$GPRMC,174049.000,A,3748.4109,N,12218.0782,W,1.74,256.00,220911,,,A*78
$GPRMC,174050.000,A,3748.4110,N,12218.0793,W,2.62,255.19,220911,,,A*77
$GPRMC,174051.000,A,3748.4114,N,12218.0805,W,3.00,278.69,220911,,,A*7F
$GPRMC,174052.000,A,3748.4112,N,12218.0821,W,2.73,279.91,220911,,,A*7F
$GPRMC,174053.000,A,3748.4115,N,12218.0837,W,2.95,308.48,220911,,,A*75
$GPRMC,174054.000,A,3748.4125,N,12218.0850,W,2.94,295.35,220911,,,A*7E
$GPRMC,174055.000,A,3748.4127,N,12218.0861,W,2.29,280.76,220911,,,A*7A
$GPRMC,174056.000,A,3748.4131,N,12218.0871,W,1.73,290.68,220911,,,A*7D
$GPRMC,174057.000,A,3748.4127,N,12218.0878,W,1.18,255.95,220911,,,A*74
$GPRMC,174058.000,A,3748.4128,N,12218.0886,W,0.88,292.75,220911,,,A*78
$GPRMC,174059.000,A,3748.4120,N,12218.0901,W,2.08,262.74,220911,,,A*7B
$GPRMC,174100.000,A,3748.4124,N,12218.0919,W,1.95,276.46,220911,,,A*78
$GPRMC,174101.000,A,3748.4112,N,12218.0940,W,2.69,273.51,220911,,,A*73
$GPRMC,174102.000,A,3748.4116,N,12218.0957,W,3.30,269.95,220911,,,A*7C
$GPRMC,174103.000,A,3748.4121,N,12218.0964,W,2.58,283.08,220911,,,A*76
$GPRMC,174104.000,A,3748.4126,N,12218.0975,W,3.22,277.55,220911,,,A*79
$GPRMC,174105.000,A,3748.4127,N,12218.0992,W,2.95,281.29,220911,,,A*7F
$GPRMC,174106.000,A,3748.4124,N,12218.1012,W,3.02,283.70,220911,,,A*7E
$GPRMC,174107.000,A,3748.4122,N,12218.1028,W,2.84,284.11,220911,,,A*7F
$GPRMC,174108.000,A,3748.4127,N,12218.1040,W,2.84,287.39,220911,,,A*72
$GPRMC,174109.000,A,3748.4140,N,12218.1048,W,2.64,304.93,220911,,,A*7E
$GPRMC,174110.000,A,3748.4151,N,12218.1053,W,2.46,317.00,220911,,,A*74
$GPRMC,174111.000,A,3748.4158,N,12218.1058,W,2.28,308.92,220911,,,A*7A
$GPRMC,174112.000,A,3748.4166,N,12218.1063,W,2.62,300.98,220911,,,A*70
$GPRMC,174113.000,A,3748.4174,N,12218.1069,W,2.52,298.52,220911,,,A*7D
$GPRMC,174114.000,A,3748.4181,N,12218.1076,W,3.75,305.04,220911,,,A*7C
$GPRMC,174115.000,A,3748.4186,N,12218.1088,W,2.98,299.28,220911,,,A*73
$GPRMC,174116.000,A,3748.4189,N,12218.1101,W,2.91,292.01,220911,,,A*76
$GPRMC,174117.000,A,3748.4195,N,12218.1113,W,2.62,285.37,220911,,,A*76
$GPRMC,174118.000,A,3748.4197,N,12218.1124,W,2.34,281.60,220911,,,A*7A
$GPRMC,174119.000,A,3748.4201,N,12218.1132,W,2.97,288.00,220911,,,A*76
$GPRMC,174120.000,A,3748.4207,N,12218.1143,W,2.67,293.39,220911,,,A*73
$GPRMC,174121.000,A,3748.4211,N,12218.1153,W,2.34,294.04,220911,,,A*7B
$GPRMC,174122.000,A,3748.4216,N,12218.1156,W,2.32,295.23,220911,,,A*78
$GPRMC,174123.000,A,3748.4221,N,12218.1162,W,2.61,285.32,220911,,,A*7D
$GPRMC,174124.000,A,3748.4226,N,12218.1170,W,2.53,290.47,220911,,,A*79
$GPRMC,174125.000,A,3748.4231,N,12218.1179,W,2.21,291.47,220911,,,A*73
$GPRMC,174126.000,A,3748.4237,N,12218.1188,W,2.01,277.34,220911,,,A*76
$GPRMC,174127.000,A,3748.4239,N,12218.1195,W,2.25,284.39,220911,,,A*72
$GPRMC,174128.000,A,3748.4246,N,12218.1203,W,2.32,298.83,220911,,,A*73
$GPRMC,174129.000,A,3748.4252,N,12218.1215,W,2.85,288.49,220911,,,A*7B
$GPRMC,174130.000,A,3748.4258,N,12218.1226,W,2.46,286.55,220911,,,A*75
$GPRMC,174131.000,A,3748.4263,N,12218.1235,W,2.83,285.14,220911,,,A*71
$GPRMC,174132.000,A,3748.4266,N,12218.1245,W,2.61,293.18,220911,,,A*77
$GPRMC,174133.000,A,3748.4272,N,12218.1254,W,2.59,297.33,220911,,,A*75
$GPRMC,174134.000,A,3748.4276,N,12218.1262,W,2.76,293.58,220911,,,A*77
$GPRMC,174135.000,A,3748.4277,N,12218.1271,W,2.41,288.11,220911,,,A*76
$GPRMC,174136.000,A,3748.4279,N,12218.1281,W,2.52,275.52,220911,,,A*73
$GPRMC,174137.000,A,3748.4281,N,12218.1291,W,1.92,286.13,220911,,,A*72
$GPRMC,174138.000,A,3748.4286,N,12218.1299,W,1.27,285.77,220911,,,A*7D
$GPRMC,174139.000,A,3748.4288,N,12218.1306,W,1.50,284.27,220911,,,A*71
$GPRMC,174140.000,A,3748.4292,N,12218.1315,W,2.40,302.59,220911,,,A*72
$GPRMC,174141.000,A,3748.4302,N,12218.1321,W,2.58,325.22,220911,,,A*7C
$GPRMC,174142.000,A,3748.4313,N,12218.1326,W,2.61,344.08,220911,,,A*7D
$GPRMC,174143.000,A,3748.4322,N,12218.1326,W,2.57,343.40,220911,,,A*70
$GPRMC,174144.000,A,3748.4329,N,12218.1329,W,2.38,337.95,220911,,,A*71
$GPRMC,174145.000,A,3748.4336,N,12218.1333,W,2.05,346.10,220911,,,A*70
$GPRMC,174146.000,A,3748.4344,N,12218.1331,W,2.85,4.20,220911,,,A*7A
$GPRMC,174147.000,A,3748.4357,N,12218.1325,W,2.95,9.78,220911,,,A*7D
$GPRMC,174148.000,A,3748.4365,N,12218.1320,W,2.70,11.55,220911,,,A*4B
$GPRMC,174149.000,A,3748.4372,N,12218.1315,W,2.53,15.25,220911,,,A*48
$GPRMC,174150.000,A,3748.4384,N,12218.1306,W,2.77,8.69,220911,,,A*79
$GPRMC,174151.000,A,3748.4397,N,12218.1295,W,3.41,21.71,220911,,,A*47
$GPRMC,174152.000,A,3748.4410,N,12218.1289,W,3.19,10.29,220911,,,A*43
$GPRMC,174153.000,A,3748.4420,N,12218.1283,W,3.07,9.92,220911,,,A*7C
$GPRMC,174154.000,A,3748.4428,N,12218.1281,W,2.84,10.54,220911,,,A*49
$GPRMC,174155.000,A,3748.4440,N,12218.1275,W,3.00,8.07,220911,,,A*7F
$GPRMC,174156.000,A,3748.4448,N,12218.1275,W,2.81,5.88,220911,,,A*76
$GPRMC,174157.000,A,3748.4457,N,12218.1268,W,2.91,11.48,220911,,,A*4D
$GPRMC,174158.000,A,3748.4465,N,12218.1267,W,2.51,2.91,220911,,,A*76
$GPRMC,174159.000,A,3748.4472,N,12218.1264,W,2.88,15.14,220911,,,A*4D
$GPRMC,174200.000,A,3748.4478,N,12218.1263,W,2.48,5.80,220911,,,A*7F
$GPRMC,174201.000,A,3748.4487,N,12218.1265,W,2.26,12.67,220911,,,A*4F
$GPRMC,174202.000,A,3748.4494,N,12218.1262,W,2.77,19.02,220911,,,A*45
$GPRMC,174203.000,A,3748.4502,N,12218.1261,W,2.75,12.15,220911,,,A*46
$GPRMC,174204.000,A,3748.4510,N,12218.1256,W,2.89,11.49,220911,,,A*4F
$GPRMC,174205.000,A,3748.4517,N,12218.1250,W,2.72,7.79,220911,,,A*7F
$GPRMC,174206.000,A,3748.4519,N,12218.1244,W,2.18,2.56,220911,,,A*73
$GPRMC,174207.000,A,3748.4520,N,12218.1239,W,1.75,2.05,220911,,,A*7C
$GPRMC,174208.000,A,3748.4525,N,12218.1234,W,2.11,20.05,220911,,,A*4A
$GPRMC,174209.000,A,3748.4531,N,12218.1228,W,1.97,14.51,220911,,,A*48
$GPRMC,174210.000,A,3748.4538,N,12218.1229,W,2.68,10.04,220911,,,A*4F
$GPRMC,174211.000,A,3748.4547,N,12218.1229,W,2.44,1.66,220911,,,A*7C
$GPRMC,174212.000,A,3748.4558,N,12218.1229,W,2.37,7.14,220911,,,A*76
$GPRMC,174213.000,A,3748.4569,N,12218.1228,W,2.55,9.07,220911,,,A*7C
$GPRMC,174214.000,A,3748.4576,N,12218.1224,W,2.82,2.62,220911,,,A*7B
$GPRMC,174215.000,A,3748.4586,N,12218.1223,W,3.35,5.67,220911,,,A*7D
$GPRMC,174216.000,A,3748.4595,N,12218.1221,W,2.73,3.60,220911,,,A*7C
$GPRMC,174217.000,A,3748.4606,N,12218.1220,W,2.62,5.21,220911,,,A*76
$GPRMC,174218.000,A,3748.4617,N,12218.1217,W,3.10,11.24,220911,,,A*49
$GPRMC,174219.000,A,3748.4628,N,12218.1216,W,2.89,357.65,220911,,,A*70
$GPRMC,174220.000,A,3748.4640,N,12218.1214,W,3.15,1.83,220911,,,A*7A
$GPRMC,174221.000,A,3748.4650,N,12218.1214,W,3.51,4.47,220911,,,A*77
$GPRMC,174222.000,A,3748.4661,N,12218.1204,W,3.21,14.33,220911,,,A*42
$GPRMC,174223.000,A,3748.4667,N,12218.1198,W,2.53,9.16,220911,,,A*7C
$GPRMC,174224.000,A,3748.4673,N,12218.1197,W,2.83,17.36,220911,,,A*41
$GPRMC,174225.000,A,3748.4683,N,12218.1193,W,3.26,17.72,220911,,,A*45
$GPRMC,174226.000,A,3748.4690,N,12218.1191,W,3.09,17.55,220911,,,A*4E
