$ADVER,3080,2.3
$GPRMC,005358.217,A,3748.8006,N,12217.8594,W,0.25,321.26,280112,,,A*79
$GPGGA,005359.217,3748.8007,N,12217.8594,W,1,05,2.3,0.6,M,-25.1,M,,0000*69
$GPGSA,A,3,01,20,32,31,30,,,,,,,,5.4,2.3,4.9*3C
$GPRMC,005359.217,A,3748.8007,N,12217.8594,W,0.11,359.96,280112,,,A*7A
$GPVTG,359.96,T,,M,0.11,N,0.2,K,A*0F
$GPGGA,005400.000,3748.8007,N,12217.8594,W,1,05,2.3,0.6,M,-25.1,M,,0000*66
$GPGSA,A,3,01,20,32,31,30,,,,,,,,5.4,2.3,4.9*3C
$GPGSV,3,1,12,32,81,028,39,20,59,312,39,31,52,051,42,01,44,232,37*75
$GPGSV,3,2,12,30,28,128,38,24,37,200,,23,33,276,36,11,25,215,39*7E
$GPGSV,3,3,12,14,12,068,36,16,11,150,41,13,07,262,,25,04,034,*76
$GPRMC,005400.000,A,3748.8007,N,12217.8594,W,0.11,21.28,280112,,,A*4C
$GPVTG,21.28,T,,M,0.11,N,0.2,K,A*36
$GPGGA,005401.000,3748.8008,N,12217.8594,W,1,05,2.3,0.5,M,-25.1,M,,0000*6B
$GPGSA,A,3,01,20,32,31,30,,,,,,,,5.4,2.3,4.9*3C
$GPRMC,005401.000,A,3748.8008,N,12217.8594,W,0.07,10.78,280112,,,A*42
$GPVTG,10.78,T,,M,0.07,N,0.1,K,A*35
$GPGGA,005402.000,3748.8008,N,12217.8594,W,1,05,2.3,0.4,M,-25.1,M,,0000*69
$GPGSA,A,3,01,20,32,31,30,,,,,,,,5.4,2.3,4.9*3C
$GPRMC,005402.000,A,3748.8008,N,12217.8594,W,0.14,359.41,280112,,,A*77
$GPVTG,359.41,T,,M,0.14,N,0.3,K,A*01
$GPGGA,005403.000,3748.8009,N,12217.8595,W,1,05,2.3,0.3,M,-25.1,M,,0000*6F
$GPGSA,A,3,01,20,32,31,30,,,,,,,,5.4,2.3,4.9*3C
$GPRMC,005403.000,A,3748.8009,N,12217.8595,W,0.13,344.54,280112,,,A*79
$GPVTG,344.54,T,,M,0.13,N,0.2,K,A*0F
$GPGGA,005404.000,3748.8005,N,12217.8591,W,1,06,1.6,2.8,M,-25.1,M,,0000*6C
$GPGSA,A,3,23,01,20,32,31,30,,,,,,,3.4,1.6,3.0*33
$GPRMC,005404.000,A,3748.8005,N,12217.8591,W,0.10,12.33,280112,,,A*44
$GPVTG,12.33,T,,M,0.10,N,0.2,K,A*3D
$GPGGA,005405.000,3748.8003,N,12217.8590,W,1,06,1.6,3.6,M,-25.1,M,,0000*65
$GPGSA,A,3,23,01,20,32,31,30,,,,,,,3.4,1.6,3.0*33
$GPGSV,3,1,12,32,81,028,39,20,59,312,38,31,52,051,42,01,44,232,37*74
$GPGSV,3,2,12,24,36,200,,23,33,277,36,30,28,128,39,11,25,215,39*7F
$GPGSV,3,3,12,14,12,068,36,16,11,150,41,13,07,262,,25,04,034,*76
$GPRMC,005405.000,A,3748.8003,N,12217.8590,W,0.11,21.07,280112,,,A*44
$GPVTG,21.07,T,,M,0.11,N,0.2,K,A*3B
$GPGGA,005406.000,3748.8003,N,12217.8589,W,1,06,1.6,4.0,M,-25.1,M,,0000*6F
$GPGSA,A,3,23,01,20,32,31,30,,,,,,,3.4,1.6,3.0*33
$GPRMC,005406.000,A,3748.8003,N,12217.8589,W,0.11,21.51,280112,,,A*4C
$GPVTG,21.51,T,,M,0.11,N,0.2,K,A*38
$GPGGA,005407.000,3748.8003,N,12217.8589,W,1,06,1.6,4.2,M,-25.1,M,,0000*6C
$GPGSA,A,3,23,01,20,32,31,30,,,,,,,3.4,1.6,3.0*33
$GPRMC,005407.000,A,3748.8003,N,12217.8589,W,0.09,17.13,280112,,,A*47
$GPVTG,17.13,T,,M,0.09,N,0.2,K,A*32
$GPGGA,005408.000,3748.8003,N,12217.8589,W,1,06,1.6,4.4,M,-25.1,M,,0000*65
$GPGSA,A,3,23,01,20,32,31,30,,,,,,,3.4,1.6,3.0*33
$GPRMC,005408.000,A,3748.8003,N,12217.8589,W,0.10,28.32,280112,,,A*4F
$GPVTG,28.32,T,,M,0.10,N,0.2,K,A*35
$GPGGA,005409.000,3748.8003,N,12217.8588,W,1,06,1.6,4.6,M,-25.1,M,,0000*67
$GPGSA,A,3,23,01,20,32,31,30,,,,,,,3.4,1.6,3.0*33
$GPRMC,005409.000,A,3748.8003,N,12217.8588,W,0.09,20.45,280112,,,A*4F
$GPVTG,20.45,T,,M,0.09,N,0.2,K,A*35
$GPGGA,005410.000,3748.8003,N,12217.8588,W,1,06,1.6,4.7,M,-25.1,M,,0000*6E
$GPGSA,A,3,23,01,20,32,31,30,,,,,,,3.4,1.6,3.0*33
$GPGSV,3,1,12,32,81,028,39,20,59,312,38,31,52,051,42,01,44,232,38*7B
$GPGSV,3,2,12,24,36,200,,23,33,277,36,30,28,128,39,11,25,215,39*7F
$GPGSV,3,3,12,14,12,068,36,16,11,150,41,13,07,262,,25,04,034,*76
$GPRMC,005410.000,A,3748.8003,N,12217.8588,W,0.09,27.10,280112,,,A*40
$GPVTG,27.10,T,,M,0.09,N,0.2,K,A*32
$GPGGA,005411.000,3748.8004,N,12217.8588,W,1,06,1.6,4.8,M,-25.1,M,,0000*67
$GPGSA,A,3,23,01,20,32,31,30,,,,,,,3.4,1.6,3.0*33
$GPRMC,005411.000,A,3748.8004,N,12217.8588,W,0.09,18.04,280112,,,A*4F
$GPVTG,18.04,T,,M,0.09,N,0.2,K,A*3B
$GPGGA,005412.000,3748.8004,N,12217.8588,W,1,06,1.6,4.9,M,-25.1,M,,0000*65
$GPGSA,A,3,23,01,20,32,31,30,,,,,,,3.4,1.6,3.0*33
$GPRMC,005412.000,A,3748.8004,N,12217.8588,W,0.08,30.28,280112,,,A*49
$GPVTG,30.28,T,,M,0.08,N,0.2,K,A*3E
$GPGGA,005413.000,3748.8004,N,12217.8588,W,1,06,1.6,5.0,M,-25.1,M,,0000*6C
$GPGSA,A,3,23,01,20,32,31,30,,,,,,,3.4,1.6,3.0*33
$GPRMC,005413.000,A,3748.8004,N,12217.8588,W,0.09,31.84,280112,,,A*4E
$GPVTG,31.84,T,,M,0.09,N,0.2,K,A*38
$GPGGA,005414.000,3748.8004,N,12217.8588,W,1,06,1.6,5.1,M,-25.1,M,,0000*6A
$GPGSA,A,3,23,01,20,32,31,30,,,,,,,3.4,1.6,3.0*33
$GPRMC,005414.000,A,3748.8004,N,12217.8588,W,0.09,19.40,280112,,,A*4B
$GPVTG,19.40,T,,M,0.09,N,0.2,K,A*3A
$GPGGA,005415.000,3748.8004,N,12217.8587,W,1,06,1.6,5.2,M,-25.1,M,,0000*67
$GPGSA,A,3,23,01,20,32,31,30,,,,,,,3.4,1.6,3.0*33
$GPGSV,3,1,12,32,81,028,40,20,59,312,38,31,52,051,42,01,44,232,37*7A
$GPGSV,3,2,12,24,36,200,,23,33,277,36,30,28,128,39,11,25,215,39*7F
$GPGSV,3,3,12,14,12,068,36,16,11,150,41,13,07,262,,25,04,034,*76
$GPRMC,005415.000,A,3748.8004,N,12217.8587,W,0.07,26.16,280112,,,A*44
$GPVTG,26.16,T,,M,0.07,N,0.1,K,A*38
$GPGGA,005416.000,3748.8004,N,12217.8587,W,1,06,1.6,5.3,M,-25.1,M,,0000*65
$GPGSA,A,3,23,01,20,32,31,30,,,,,,,3.4,1.6,3.0*33
$GPRMC,005416.000,A,3748.8004,N,12217.8587,W,0.08,35.39,280112,,,A*47
$GPVTG,35.39,T,,M,0.08,N,0.1,K,A*38
$GPGGA,005417.000,3748.8004,N,12217.8587,W,1,06,1.6,5.3,M,-25.1,M,,0000*64
$GPGSA,A,3,23,01,20,32,31,30,,,,,,,3.4,1.6,3.0*33
$GPRMC,005417.000,A,3748.8004,N,12217.8587,W,0.08,20.09,280112,,,A*41
$GPVTG,20.09,T,,M,0.08,N,0.1,K,A*3F
$GPGGA,005418.000,3748.8005,N,12217.8587,W,1,06,1.6,5.4,M,-25.1,M,,0000*6D
$GPGSA,A,3,23,01,20,32,31,30,,,,,,,3.4,1.6,3.0*33
$GPRMC,005418.000,A,3748.8005,N,12217.8587,W,0.09,26.54,280112,,,A*40
$GPVTG,26.54,T,,M,0.09,N,0.2,K,A*33
$GPGGA,005419.000,3748.8005,N,12217.8587,W,1,06,1.6,5.5,M,-25.1,M,,0000*6D
$GPGSA,A,3,23,01,20,32,31,30,,,,,,,3.4,1.6,3.0*33
$GPRMC,005419.000,A,3748.8005,N,12217.8587,W,0.07,21.55,280112,,,A*49
$GPVTG,21.55,T,,M,0.07,N,0.1,K,A*38
$GPGGA,005420.000,3748.8005,N,12217.8587,W,1,06,1.6,5.6,M,-25.1,M,,0000*64
$GPGSA,A,3,23,01,20,32,31,30,,,,,,,3.4,1.6,3.0*33
$GPGSV,3,1,12,32,81,028,40,20,59,312,38,31,52,051,42,01,44,231,38*76
$GPGSV,3,2,12,24,36,200,,23,33,277,36,30,28,128,39,11,25,215,39*7F
$GPGSV,3,3,12,14,12,068,37,16,11,150,41,13,08,262,,25,04,034,*78
$GPRMC,005420.000,A,3748.8005,N,12217.8587,W,0.08,34.58,280112,,,A*45
$GPVTG,34.58,T,,M,0.08,N,0.1,K,A*3E
$GPGGA,005421.000,3748.8005,N,12217.8587,W,1,06,1.6,5.7,M,-25.1,M,,0000*64
$GPGSA,A,3,23,01,20,32,31,30,,,,,,,3.4,1.6,3.0*33
$GPRMC,005421.000,A,3748.8005,N,12217.8587,W,0.06,45.00,280112,,,A*41
$GPVTG,45.00,T,,M,0.06,N,0.1,K,A*3B
$GPGGA,005422.000,3748.8005,N,12217.8587,W,1,06,1.6,5.8,M,-25.1,M,,0000*68
$GPGSA,A,3,23,01,20,32,31,30,,,,,,,3.4,1.6,3.0*33
$GPRMC,005422.000,A,3748.8005,N,12217.8587,W,0.12,9.73,280112,,,A*7B
$GPVTG,9.73,T,,M,0.12,N,0.2,K,A*01
$GPGGA,005423.000,3748.8005,N,12217.8586,W,1,06,1.6,5.9,M,-25.1,M,,0000*69
$GPGSA,A,3,23,01,20,32,31,30,,,,,,,3.4,1.6,3.0*33
$GPRMC,005423.000,A,3748.8005,N,12217.8586,W,0.13,40.68,280112,,,A*4D
$GPVTG,40.68,T,,M,0.13,N,0.2,K,A*37
$GPGGA,005424.000,3748.8009,N,12217.8586,W,1,06,1.6,5.3,M,-25.1,M,,0000*68
$GPGSA,A,3,23,01,20,32,31,30,,,,,,,3.4,1.6,3.0*33
$GPRMC,005424.000,A,3748.8009,N,12217.8586,W,1.18,23.79,280112,,,A*49
$GPVTG,23.79,T,,M,1.18,N,2.2,K,A*3A
$GPGGA,005425.000,3748.8015,N,12217.8584,W,1,06,1.6,4.3,M,-25.1,M,,0000*67
$GPGSA,A,3,23,01,20,32,31,30,,,,,,,3.4,1.6,3.0*33
$GPGSV,3,1,12,32,81,028,27,20,59,312,37,31,52,051,35,01,44,231,32*72
$GPGSV,3,2,12,24,36,200,,23,33,277,33,30,28,128,25,11,25,215,29*76
$GPGSV,3,3,12,14,12,068,29,16,11,150,34,13,08,262,,25,04,034,*75
$GPRMC,005425.000,A,3748.8015,N,12217.8584,W,0.62,15.68,280112,,,A*4E
$GPVTG,15.68,T,,M,0.62,N,1.1,K,A*33
$GPGGA,005426.000,3748.8014,N,12217.8585,W,1,06,1.6,4.1,M,-25.1,M,,0000*66
$GPGSA,A,3,23,01,20,32,31,30,,,,,,,3.4,1.6,3.0*33
$GPRMC,005426.000,A,3748.8014,N,12217.8585,W,0.28,71.92,280112,,,A*44
$GPVTG,71.92,T,,M,0.28,N,0.5,K,A*3F
$GPGGA,005427.000,3748.8012,N,12217.8585,W,1,06,1.6,4.3,M,-25.1,M,,0000*63
$GPGSA,A,3,23,01,20,32,31,30,,,,,,,3.4,1.6,3.0*33
$GPRMC,005427.000,A,3748.8012,N,12217.8585,W,0.13,287.84,280112,,,A*77
$GPVTG,287.84,T,,M,0.13,N,0.2,K,A*0C
$GPGGA,005428.000,3748.8012,N,12217.8587,W,1,05,1.8,4.2,M,-25.1,M,,0000*62
$GPGSA,A,3,23,01,20,31,30,,,,,,,,4.6,1.8,4.3*3D
$GPRMC,005428.000,A,3748.8012,N,12217.8587,W,0.58,341.61,280112,,,A*75
$GPVTG,341.61,T,,M,0.58,N,1.1,K,A*01
$GPGGA,005429.000,3748.8011,N,12217.8588,W,1,06,1.6,4.4,M,-25.1,M,,0000*64
$GPGSA,A,3,23,01,20,32,31,30,,,,,,,3.4,1.6,3.0*33
$GPRMC,005429.000,A,3748.8011,N,12217.8588,W,0.11,105.76,280112,,,A*71
$GPVTG,105.76,T,,M,0.11,N,0.2,K,A*0A
$GPGGA,005430.000,3748.8009,N,12217.8590,W,1,06,1.6,4.5,M,-25.1,M,,0000*6D
$GPGSA,A,3,23,01,20,32,31,30,,,,,,,3.4,1.6,3.0*33
$GPGSV,3,1,12,32,81,028,27,20,59,312,34,31,52,051,34,01,44,231,33*71
$GPGSV,3,2,12,24,36,200,,23,33,277,39,30,28,128,24,11,25,215,34*71
$GPGSV,3,3,12,14,12,068,27,16,11,150,27,13,08,262,,25,04,034,*79
$GPRMC,005430.000,A,3748.8009,N,12217.8590,W,0.25,106.25,280112,,,A*7B
$GPGGA,005431.000,3748.8007,N,12217.8590,W,1,06,1.6,4.5,M,-25.1,M,,0000*62
$GPGSA,A,3,23,01,20,32,31,30,,,,,,,3.4,1.6,3.0*33
$GPRMC,005431.000,A,3748.8007,N,12217.8590,W,0.57,145.59,280112,,,A*7D
$GPVTG,145.59,T,,M,0.57,N,1.1,K,A*03
$GPGGA,005432.000,3748.8005,N,12217.8590,W,1,05,1.8,4.6,M,-25.1,M,,0000*6D
$GPGSA,A,3,23,01,20,31,30,,,,,,,,4.6,1.8,4.3*3D
$GPRMC,005432.000,A,3748.8005,N,12217.8590,W,0.36,125.55,280112,,,A*71
$GPVTG,125.55,T,,M,0.36,N,0.7,K,A*09
$GPGGA,005433.000,3748.8003,N,12217.8591,W,1,05,1.8,4.6,M,-25.1,M,,0000*6B
$GPGSA,A,3,23,01,20,31,30,,,,,,,,4.6,1.8,4.3*3D
$GPRMC,005433.000,A,3748.8003,N,12217.8591,W,0.04,316.49,280112,,,A*79
$GPVTG,316.49,T,,M,0.04,N,0.1,K,A*01
$GPGGA,005434.000,3748.8003,N,12217.8593,W,1,05,1.8,4.3,M,-25.1,M,,0000*6B
$GPGSA,A,3,23,01,20,31,30,,,,,,,,4.6,1.8,4.3*3D
$GPRMC,005434.000,A,3748.8003,N,12217.8593,W,0.30,40.80,280112,,,A*4E
$GPVTG,40.80,T,,M,0.30,N,0.6,K,A*34
$GPGGA,005435.000,3748.8002,N,12217.8593,W,1,06,1.6,4.7,M,-25.1,M,,0000*62
$GPGSA,A,3,23,01,20,32,31,30,,,,,,,3.4,1.6,3.0*33
$GPGSV,3,1,12,32,81,028,27,20,59,312,31,31,52,051,36,01,44,231,30*75
$GPGSV,3,2,12,24,36,200,,23,33,277,36,30,28,128,30,11,25,215,28*76
$GPGSV,3,3,12,14,12,068,33,16,11,150,35,13,08,262,,25,04,034,*7F
$GPRMC,005435.000,A,3748.8002,N,12217.8593,W,0.09,87.81,280112,,,A*4E
$GPVTG,87.81,T,,M,0.09,N,0.2,K,A*30
$GPGGA,005436.000,3748.8004,N,12217.8593,W,1,06,1.6,3.2,M,-25.1,M,,0000*65
$GPGSA,A,3,23,01,20,32,31,30,,,,,,,3.4,1.6,3.0*33
$GPRMC,005436.000,A,3748.8004,N,12217.8593,W,0.02,57.12,280112,,,A*47
$GPVTG,57.12,T,,M,0.02,N,0.0,K,A*3E
$GPGGA,005437.000,3748.8005,N,12217.8593,W,1,06,1.6,3.4,M,-25.1,M,,0000*63
$GPGSA,A,3,23,01,20,32,31,30,,,,,,,3.4,1.6,3.0*33
$GPRMC,005437.000,A,3748.8005,N,12217.8593,W,0.04,319.06,280112,,,A*7D
$GPVTG,319.06,T,,M,0.04,N,0.1,K,A*05
$GPGGA,005438.000,3748.8003,N,12217.8595,W,1,06,1.6,5.0,M,-25.1,M,,0000*6E
$GPGSA,A,3,23,01,20,32,31,30,,,,,,,3.4,1.6,3.0*33
$GPRMC,005438.000,A,3748.8003,N,12217.8595,W,0.26,232.70,280112,,,A*7B
$GPVTG,232.70,T,,M,0.26,N,0.5,K,A*08
$GPGGA,005439.000,3748.8004,N,12217.8596,W,1,06,1.6,4.0,M,-25.1,M,,0000*6A
$GPGSA,A,3,23,01,20,32,31,30,,,,,,,3.4,1.6,3.0*33
$GPRMC,005439.000,A,3748.8004,N,12217.8596,W,0.32,207.53,280112,,,A*7C
$GPVTG,207.53,T,,M,0.32,N,0.6,K,A*09
$GPGGA,005440.000,3748.8005,N,12217.8600,W,1,06,1.6,3.6,M,-25.1,M,,0000*68
$GPGSA,A,3,23,01,20,32,31,30,,,,,,,3.4,1.6,3.0*33
$GPGSV,3,1,12,32,81,028,23,20,59,312,17,31,52,051,24,01,44,231,21*76
$GPGSV,3,2,12,24,36,200,,23,33,277,26,30,28,128,19,11,25,215,20*74
$GPGSV,3,3,12,14,12,068,26,16,11,150,13,13,08,262,,25,04,034,*7F
$GPRMC,005440.000,A,3748.8005,N,12217.8600,W,0.32,255.33,280112,,,A*7E
$GPVTG,255.33,T,,M,0.32,N,0.6,K,A*08
$GPGGA,005441.000,3748.8003,N,12217.8600,W,1,05,1.8,4.0,M,-25.1,M,,0000*63
$GPGSA,A,3,23,01,20,31,30,,,,,,,,4.6,1.8,4.3*3D
$GPRMC,005441.000,A,3748.8003,N,12217.8600,W,0.53,74.58,280112,,,A*42
$GPVTG,74.58,T,,M,0.53,N,1.0,K,A*34
$GPGGA,005442.000,3748.8005,N,12217.8595,W,1,06,1.6,4.0,M,-25.1,M,,0000*64
$GPGSA,A,3,23,01,20,32,31,30,,,,,,,3.4,1.6,3.0*33
$GPRMC,005442.000,A,3748.8005,N,12217.8595,W,0.70,84.98,280112,,,A*4A
$GPVTG,84.98,T,,M,0.70,N,1.3,K,A*35
$GPGGA,005443.000,3748.8005,N,12217.8594,W,1,05,1.8,4.5,M,-25.1,M,,0000*6C
$GPGSA,A,3,23,01,20,31,30,,,,,,,,4.6,1.8,4.3*3D
$GPRMC,005443.000,A,3748.8005,N,12217.8594,W,0.07,248.51,280112,,,A*7D
$GPVTG,248.51,T,,M,0.07,N,0.1,K,A*01
$GPGGA,005444.000,3748.8007,N,12217.8596,W,1,05,1.8,4.0,M,-25.1,M,,0000*6E
$GPGSA,A,3,23,01,20,31,30,,,,,,,,4.6,1.8,4.3*3D
$GPRMC,005444.000,A,3748.8007,N,12217.8596,W,0.60,10.33,280112,,,A*40
$GPVTG,10.33,T,,M,0.60,N,1.1,K,A*3A
$GPGGA,005445.000,3748.8008,N,12217.8598,W,1,06,1.6,3.5,M,-25.1,M,,0000*61
$GPGSA,A,3,23,01,20,32,31,30,,,,,,,3.4,1.6,3.0*33
$GPGSV,3,1,12,32,81,028,23,20,59,312,35,31,52,051,28,01,44,231,35*7F
$GPGSV,3,2,12,24,36,200,,23,33,277,39,30,28,128,25,11,25,215,35*71
$GPGSV,3,3,12,14,12,068,24,16,11,150,23,13,08,262,,25,04,034,*7E
$GPRMC,005445.000,A,3748.8008,N,12217.8598,W,0.17,103.42,280112,,,A*75
$GPGGA,005446.000,3748.8007,N,12217.8601,W,1,05,2.3,2.8,M,-25.1,M,,0000*67
$GPGSA,A,3,23,01,20,32,31,,,,,,,,4.6,2.3,4.0*34
$GPRMC,005446.000,A,3748.8007,N,12217.8601,W,0.41,132.78,280112,,,A*72
$GPVTG,132.78,T,,M,0.41,N,0.8,K,A*0F
$GPGGA,005447.000,3748.8004,N,12217.8603,W,1,06,1.6,3.1,M,-25.1,M,,0000*6A
$GPGSA,A,3,23,01,20,32,31,30,,,,,,,3.4,1.6,3.0*33
$GPRMC,005447.000,A,3748.8004,N,12217.8603,W,1.04,156.59,280112,,,A*73
$GPVTG,156.59,T,,M,1.04,N,1.9,K,A*0E
$GPGGA,005448.000,3748.8005,N,12217.8605,W,1,06,1.6,4.3,M,-25.1,M,,0000*67
$GPGSA,A,3,23,01,20,32,31,30,,,,,,,3.4,1.6,3.0*33
$GPRMC,005448.000,A,3748.8005,N,12217.8605,W,1.45,120.79,280112,,,A*7D
$GPVTG,120.79,T,,M,1.45,N,2.7,K,A*05
$GPGGA,005449.000,3748.7997,N,12217.8597,W,1,06,1.6,3.5,M,-25.1,M,,0000*62
$GPGSA,A,3,23,01,20,32,31,30,,,,,,,3.4,1.6,3.0*33
$GPRMC,005449.000,A,3748.7997,N,12217.8597,W,2.09,109.15,280112,,,A*73
$GPVTG,109.15,T,,M,2.09,N,3.9,K,A*00
$GPGGA,005450.000,3748.7992,N,12217.8588,W,1,06,1.6,3.8,M,-25.1,M,,0000*6C
$GPGSA,A,3,23,01,20,32,31,30,,,,,,,3.4,1.6,3.0*33
$GPGSV,3,1,12,32,81,028,29,20,59,312,38,31,52,051,26,01,44,231,36*75
$GPGSV,3,2,12,24,36,200,,23,33,277,42,30,28,128,29,11,25,215,42*71
$GPGSV,3,3,12,14,12,068,24,16,11,150,38,13,08,262,,25,04,034,*74
$GPRMC,005450.000,A,3748.7992,N,12217.8588,W,2.66,105.24,280112,,,A*77
$GPVTG,105.24,T,,M,2.66,N,4.9,K,A*00
$GPGGA,005451.000,3748.7989,N,12217.8579,W,1,06,1.6,3.9,M,-25.1,M,,0000*68
$GPGSA,A,3,23,01,20,32,31,30,,,,,,,3.4,1.6,3.0*33
$GPRMC,005451.000,A,3748.7989,N,12217.8579,W,2.50,108.63,280112,,,A*79
$GPVTG,108.63,T,,M,2.50,N,4.6,K,A*04
$GPGGA,005452.000,3748.7986,N,12217.8570,W,1,06,1.6,2.9,M,-25.1,M,,0000*6C
$GPGSA,A,3,23,01,20,32,31,30,,,,,,,3.4,1.6,3.0*33
$GPRMC,005452.000,A,3748.7986,N,12217.8570,W,2.27,130.75,280112,,,A*70
$GPVTG,130.75,T,,M,2.27,N,4.2,K,A*0C
$GPGGA,005453.000,3748.7979,N,12217.8567,W,1,06,1.6,3.7,M,-25.1,M,,0000*64
$GPGSA,A,3,23,01,20,32,31,30,,,,,,,3.4,1.6,3.0*33
$GPRMC,005453.000,A,3748.7979,N,12217.8567,W,2.47,136.58,280112,,,A*78
$GPVTG,136.58,T,,M,2.47,N,4.6,K,A*07
$GPGGA,005454.000,3748.7977,N,12217.8558,W,1,06,1.6,3.1,M,-25.1,M,,0000*67
$GPGSA,A,3,23,01,20,32,31,30,,,,,,,3.4,1.6,3.0*33
$GPRMC,005454.000,A,3748.7977,N,12217.8558,W,2.40,109.75,280112,,,A*79
$GPVTG,109.75,T,,M,2.40,N,4.4,K,A*01
$GPGGA,005455.000,3748.7973,N,12217.8551,W,1,06,1.6,3.0,M,-25.1,M,,0000*6A
$GPGSA,A,3,23,01,20,32,31,30,,,,,,,3.4,1.6,3.0*33
$GPGSV,3,1,12,32,81,028,34,20,59,312,40,31,52,051,26,01,44,231,41*76
$GPGSV,3,2,12,24,36,200,,23,33,277,41,30,28,128,35,11,25,215,40*7D
$GPGSV,3,3,12,14,12,068,22,16,11,150,37,13,08,262,,25,04,034,*7D
$GPRMC,005455.000,A,3748.7973,N,12217.8551,W,2.40,122.54,280112,,,A*7F
$GPVTG,122.54,T,,M,2.40,N,4.5,K,A*0A
$GPGGA,005456.000,3748.7971,N,12217.8545,W,1,06,1.6,2.7,M,-25.1,M,,0000*68
$GPGSA,A,3,23,01,20,32,31,30,,,,,,,3.4,1.6,3.0*33
$GPRMC,005456.000,A,3748.7971,N,12217.8545,W,2.18,106.58,280112,,,A*7C
$GPVTG,106.58,T,,M,2.18,N,4.0,K,A*08
$GPGGA,005457.000,3748.7967,N,12217.8538,W,1,06,1.6,2.8,M,-25.1,M,,0000*6B
$GPGSA,A,3,23,01,20,32,31,30,,,,,,,3.4,1.6,3.0*33
$GPRMC,005457.000,A,3748.7967,N,12217.8538,W,1.79,119.97,280112,,,A*79
$GPVTG,119.97,T,,M,1.79,N,3.3,K,A*05
$GPGGA,005458.000,3748.7964,N,12217.8530,W,1,06,1.6,1.7,M,-25.1,M,,0000*63
$GPGSA,A,3,23,01,20,32,31,30,,,,,,,3.4,1.6,3.0*33
$GPRMC,005458.000,A,3748.7964,N,12217.8530,W,2.44,110.15,280112,,,A*73
$GPVTG,110.15,T,,M,2.44,N,4.5,K,A*0A
$GPGGA,005459.000,3748.7962,N,12217.8524,W,1,06,1.6,0.6,M,-25.1,M,,0000*61
$GPGSA,A,3,23,01,20,32,31,30,,,,,,,3.4,1.6,3.0*33
$GPRMC,005459.000,A,3748.7962,N,12217.8524,W,1.02,128.64,280112,,,A*7D
$GPVTG,128.64,T,,M,1.02,N,1.9,K,A*0F
$GPGGA,005500.000,3748.7960,N,12217.8517,W,1,06,1.6,0.6,M,-25.1,M,,0000*6E
$GPGSA,A,3,23,01,20,32,31,30,,,,,,,3.4,1.6,3.0*33
$GPGSV,3,1,12,32,81,028,21,20,59,312,24,31,52,051,30,01,44,231,28*78
$GPGSV,3,2,12,24,36,200,,23,33,277,34,30,28,128,35,11,25,215,31*79
$GPGSV,3,3,12,14,12,068,22,16,11,150,34,13,08,262,,25,04,034,*7E
$GPVTG,127.36,T,,M,1.89,N,3.5,K,A*0A
$GPGGA,005501.000,3748.7952,N,12217.8512,W,1,06,1.6,0.8,M,-25.1,M,,0000*65
$GPGSA,A,3,23,01,20,32,31,30,,,,,,,3.4,1.6,3.0*33
$GPRMC,005501.000,A,3748.7952,N,12217.8512,W,1.57,119.69,280112,,,A*78
$GPVTG,119.69,T,,M,1.57,N,2.9,K,A*03
$GPGGA,005502.000,3748.7945,N,12217.8509,W,1,06,1.6,0.8,M,-25.1,M,,0000*6A
$GPGSA,A,3,23,01,20,32,31,30,,,,,,,3.4,1.6,3.0*33
$GPRMC,005502.000,A,3748.7945,N,12217.8509,W,1.71,122.65,280112,,,A*77
$GPVTG,122.65,T,,M,1.71,N,3.2,K,A*09
$GPGGA,005503.000,3748.7937,N,12217.8506,W,1,06,1.6,1.0,M,-25.1,M,,0000*68
$GPGSA,A,3,23,01,20,32,31,30,,,,,,,3.4,1.6,3.0*33
$GPRMC,005503.000,A,3748.7937,N,12217.8506,W,1.79,138.85,280112,,,A*71
$GPVTG,138.85,T,,M,1.79,N,3.3,K,A*05
$GPGGA,005504.000,3748.7931,N,12217.8503,W,1,06,1.6,0.7,M,-25.1,M,,0000*6A
$GPGSA,A,3,23,01,20,32,31,30,,,,,,,3.4,1.6,3.0*33
$GPRMC,005504.000,A,3748.7931,N,12217.8503,W,1.74,149.31,280112,,,A*71
$GPVTG,149.31,T,,M,1.74,N,3.2,K,A*00
$GPGGA,005505.000,3748.7929,N,12217.8500,W,1,06,1.6,1.3,M,-25.1,M,,0000*64
$GPGSA,A,3,23,01,20,32,31,30,,,,,,,3.4,1.6,3.0*33
$GPGSV,3,1,12,32,81,028,21,20,59,312,26,31,52,051,23,01,44,231,37*76
$GPGSV,3,2,12,24,36,200,,23,33,277,34,30,28,128,25,11,25,215,40*7E
$GPGSV,3,3,12,14,12,068,14,16,11,150,27,13,08,262,,25,04,034,*79
$GPRMC,005505.000,A,3748.7929,N,12217.8500,W,1.47,140.54,280112,,,A*70
$GPVTG,140.54,T,,M,1.47,N,2.7,K,A*0E
$GPGGA,005506.000,3748.7928,N,12217.8500,W,1,06,1.6,4.1,M,-25.1,M,,0000*61
$GPGSA,A,3,23,01,20,32,31,30,,,,,,,3.4,1.6,3.0*33
$GPRMC,005506.000,A,3748.7928,N,12217.8500,W,1.44,128.05,280112,,,A*7B
$GPVTG,128.05,T,,M,1.44,N,2.7,K,A*07
$GPGGA,005507.000,3748.7928,N,12217.8491,W,1,06,1.6,4.7,M,-25.1,M,,0000*6F
$GPGSA,A,3,23,01,20,32,31,30,,,,,,,3.4,1.6,3.0*33
$GPRMC,005507.000,A,3748.7928,N,12217.8491,W,2.16,118.33,280112,,,A*71
$GPVTG,118.33,T,,M,2.16,N,4.0,K,A*04
$GPGGA,005508.000,3748.7931,N,12217.8485,W,1,06,1.6,4.9,M,-25.1,M,,0000*63
$GPGSA,A,3,23,01,20,32,31,30,,,,,,,3.4,1.6,3.0*33
$GPRMC,005508.000,A,3748.7931,N,12217.8485,W,1.98,89.18,280112,,,A*46
$GPVTG,89.18,T,,M,1.98,N,3.7,K,A*31
$GPGGA,005509.000,3748.7928,N,12217.8474,W,1,06,1.6,4.0,M,-25.1,M,,0000*6D
$GPGSA,A,3,23,01,20,32,31,30,,,,,,,3.4,1.6,3.0*33
$GPRMC,005509.000,A,3748.7928,N,12217.8474,W,1.87,122.96,280112,,,A*79
$GPVTG,122.96,T,,M,1.87,N,3.5,K,A*0B
$GPGGA,005510.000,3748.7924,N,12217.8463,W,1,06,1.6,4.0,M,-25.1,M,,0000*6F
$GPGSA,A,3,23,01,20,32,31,30,,,,,,,3.4,1.6,3.0*33
$GPGSV,3,1,12,32,81,028,29,20,59,312,31,31,52,051,35,01,44,231,28*71
$GPGSV,3,2,12,24,36,200,,23,33,277,29,30,28,128,31,11,25,215,30*70
$GPGSV,3,3,12,14,12,068,29,16,11,150,30,13,08,262,,25,04,034,*71
$GPRMC,005510.000,A,3748.7924,N,12217.8463,W,1.90,110.09,280112,,,A*7A
$GPVTG,110.09,T,,M,1.90,N,3.5,K,A*0A
$GPGGA,005511.000,3748.7920,N,12217.8452,W,1,06,1.6,4.7,M,-25.1,M,,0000*6F
$GPGSA,A,3,23,01,20,32,31,30,,,,,,,3.4,1.6,3.0*33
$GPRMC,005511.000,A,3748.7920,N,12217.8452,W,2.28,128.91,280112,,,A*77
$GPVTG,128.91,T,,M,2.28,N,4.2,K,A*00
$GPGGA,005512.000,3748.7916,N,12217.8445,W,1,06,1.6,4.9,M,-25.1,M,,0000*61
$GPGSA,A,3,23,01,20,32,31,30,,,,,,,3.4,1.6,3.0*33
$GPRMC,005512.000,A,3748.7916,N,12217.8445,W,1.25,150.06,280112,,,A*78
$GPVTG,150.06,T,,M,1.25,N,2.3,K,A*08
$GPGGA,005513.000,3748.7914,N,12217.8438,W,1,06,1.6,5.0,M,-25.1,M,,0000*60
$GPGSA,A,3,23,01,20,32,31,30,,,,,,,3.4,1.6,3.0*33
$GPRMC,005513.000,A,3748.7914,N,12217.8438,W,1.22,138.57,280112,,,A*7C
$GPVTG,138.57,T,,M,1.22,N,2.3,K,A*05
$GPGGA,005514.000,3748.7914,N,12217.8433,W,1,06,1.6,4.1,M,-25.1,M,,0000*6C
$GPGSA,A,3,23,01,20,32,31,30,,,,,,,3.4,1.6,3.0*33
$GPRMC,005514.000,A,3748.7914,N,12217.8433,W,1.32,118.07,280112,,,A*76
$GPVTG,118.07,T,,M,1.32,N,2.4,K,A*04
$GPGGA,005515.000,3748.7913,N,12217.8425,W,1,06,1.6,4.2,M,-25.1,M,,0000*6E
$GPGSA,A,3,23,01,20,32,31,30,,,,,,,3.4,1.6,3.0*33
$GPGSV,3,1,12,32,81,028,26,20,59,312,25,31,52,051,30,01,44,231,32*75
$GPGSV,3,2,12,24,36,200,,23,33,277,28,30,28,128,35,11,25,215,37*72
$GPGSV,3,3,12,14,12,068,30,16,11,150,36,13,08,262,,25,04,034,*7F
$GPVTG,123.80,T,,M,1.39,N,2.6,K,A*0A
$GPGGA,005516.000,3748.7908,N,12217.8413,W,1,06,1.6,5.5,M,-25.1,M,,0000*64
$GPGSA,A,3,23,01,20,32,31,30,,,,,,,3.4,1.6,3.0*33
$GPRMC,005516.000,A,3748.7908,N,12217.8413,W,2.05,117.09,280112,,,A*7D
$GPVTG,117.09,T,,M,2.05,N,3.8,K,A*0F
$GPGGA,005517.000,3748.7902,N,12217.8404,W,1,06,1.6,6.9,M,-25.1,M,,0000*66
$GPGSA,A,3,23,01,20,32,31,30,,,,,,,3.4,1.6,3.0*33
$GPRMC,005517.000,A,3748.7902,N,12217.8404,W,1.66,131.26,280112,,,A*7F
$GPVTG,131.26,T,,M,1.66,N,3.1,K,A*09
$GPGGA,005518.000,3748.7898,N,12217.8397,W,1,06,1.6,7.6,M,-25.1,M,,0000*68
$GPGSA,A,3,23,01,20,32,31,30,,,,,,,3.4,1.6,3.0*33
$GPRMC,005518.000,A,3748.7898,N,12217.8397,W,1.62,121.87,280112,,,A*71
$GPVTG,121.87,T,,M,1.62,N,3.0,K,A*06
$GPGGA,005519.000,3748.7892,N,12217.8394,W,1,06,1.6,8.1,M,-25.1,M,,0000*68
$GPGSA,A,3,23,01,20,32,31,30,,,,,,,3.4,1.6,3.0*33
$GPRMC,005519.000,A,3748.7892,N,12217.8394,W,1.67,149.20,280112,,,A*7F
$GPVTG,149.20,T,,M,1.67,N,3.1,K,A*01
$GPGGA,005520.000,3748.7890,N,12217.8390,W,1,06,1.6,7.6,M,-25.1,M,,0000*6C
$GPGSA,A,3,23,01,20,32,31,30,,,,,,,3.4,1.6,3.0*33
$GPGSV,3,1,12,32,81,028,26,20,59,312,26,31,52,051,32,01,44,231,31*77
$GPGSV,3,2,12,24,36,200,,23,33,277,29,30,28,128,36,11,25,215,33*74
$GPGSV,3,3,12,14,12,068,35,16,11,150,37,13,08,262,,25,04,034,*7B
$GPRMC,005520.000,A,3748.7890,N,12217.8390,W,1.52,129.72,280112,,,A*74
$GPVTG,129.72,T,,M,1.52,N,2.8,K,A*0E
$GPGGA,005521.000,3748.7886,N,12217.8383,W,1,06,1.6,7.9,M,-25.1,M,,0000*67
$GPGSA,A,3,23,01,20,32,31,30,,,,,,,3.4,1.6,3.0*33
$GPRMC,005521.000,A,3748.7886,N,12217.8383,W,1.75,138.85,280112,,,A*7D
$GPVTG,138.85,T,,M,1.75,N,3.2,K,A*08
$GPGGA,005522.000,3748.7883,N,12217.8376,W,1,06,1.6,8.1,M,-25.1,M,,0000*6C
$GPGSA,A,3,23,01,20,32,31,30,,,,,,,3.4,1.6,3.0*33
$GPRMC,005522.000,A,3748.7883,N,12217.8376,W,1.91,124.80,280112,,,A*73
$GPVTG,124.80,T,,M,1.91,N,3.5,K,A*0D
$GPGGA,005523.000,3748.7882,N,12217.8369,W,1,06,1.6,7.5,M,-25.1,M,,0000*69
$GPGSA,A,3,23,01,20,32,31,30,,,,,,,3.4,1.6,3.0*33
$GPRMC,005523.000,A,3748.7882,N,12217.8369,W,1.83,120.67,280112,,,A*73
$GPVTG,120.67,T,,M,1.83,N,3.4,K,A*02
$GPGGA,005524.000,3748.7880,N,12217.8363,W,1,06,1.6,7.1,M,-25.1,M,,0000*62
$GPGSA,A,3,23,01,20,32,31,30,,,,,,,3.4,1.6,3.0*33
$GPRMC,005524.000,A,3748.7880,N,12217.8363,W,1.71,133.34,280112,,,A*75
$GPVTG,133.34,T,,M,1.71,N,3.2,K,A*0D
$GPGGA,005525.000,3748.7878,N,12217.8358,W,1,06,1.6,6.7,M,-25.1,M,,0000*6B
$GPGSA,A,3,23,01,20,32,31,30,,,,,,,3.4,1.6,3.0*33
$GPGSV,3,1,12,32,81,028,26,20,59,312,26,31,52,051,28,01,44,231,31*7C
$GPGSV,3,2,12,24,36,200,,23,33,277,29,30,28,128,39,11,25,215,37*7F
$GPGSV,3,3,12,14,12,068,25,16,11,150,38,13,08,262,,25,04,034,*75
$GPRMC,005525.000,A,3748.7878,N,12217.8358,W,1.64,124.83,280112,,,A*75
$GPVTG,124.83,T,,M,1.64,N,3.0,K,A*01
$GPGGA,005526.000,3748.7878,N,12217.8352,W,1,06,1.6,5.6,M,-25.1,M,,0000*60
$GPGSA,A,3,23,01,20,32,31,30,,,,,,,3.4,1.6,3.0*33
$GPRMC,005526.000,A,3748.7878,N,12217.8352,W,1.98,139.38,280112,,,A*73
$GPVTG,139.38,T,,M,1.98,N,3.7,K,A*09
$GPGGA,005527.000,3748.7874,N,12217.8348,W,1,06,1.6,6.7,M,-25.1,M,,0000*64
$GPGSA,A,3,23,01,20,32,31,30,,,,,,,3.4,1.6,3.0*33
$GPRMC,005527.000,A,3748.7874,N,12217.8348,W,1.31,152.77,280112,,,A*70
$GPVTG,152.77,T,,M,1.31,N,2.4,K,A*0E
$GPGGA,005528.000,3748.7869,N,12217.8344,W,1,06,1.6,6.4,M,-25.1,M,,0000*68
$GPGSA,A,3,23,01,20,32,31,30,,,,,,,3.4,1.6,3.0*33
$GPRMC,005528.000,A,3748.7869,N,12217.8344,W,1.57,126.13,280112,,,A*7E
$GPVTG,126.13,T,,M,1.57,N,2.9,K,A*02
$GPGGA,005529.000,3748.7868,N,12217.8339,W,1,06,1.6,5.7,M,-25.1,M,,0000*62
$GPGSA,A,3,23,01,20,32,31,30,,,,,,,3.4,1.6,3.0*33
$GPRMC,005529.000,A,3748.7868,N,12217.8339,W,1.48,115.68,280112,,,A*76
$GPVTG,115.68,T,,M,1.48,N,2.7,K,A*0E
$GPGGA,005530.000,3748.7864,N,12217.8333,W,1,06,1.6,6.4,M,-25.1,M,,0000*6C
$GPGSA,A,3,23,01,20,32,31,30,,,,,,,3.4,1.6,3.0*33
$GPGSV,3,1,12,32,81,028,29,20,59,312,29,31,52,051,38,01,44,231,31*7D
$GPGSV,3,2,12,24,36,200,,23,33,277,30,30,28,128,35,11,25,215,35*79
$GPGSV,3,3,12,14,12,068,24,16,11,150,39,13,08,262,,25,04,034,*75
$GPVTG,130.50,T,,M,1.75,N,3.2,K,A*08
$GPGGA,005531.000,3748.7862,N,12217.8324,W,1,06,1.6,8.1,M,-25.1,M,,0000*66
$GPGSA,A,3,23,01,20,32,31,30,,,,,,,3.4,1.6,3.0*33
$GPRMC,005531.000,A,3748.7862,N,12217.8324,W,0.95,82.44,280112,,,A*49
$GPVTG,82.44,T,,M,0.95,N,1.8,K,A*32
$GPGGA,005532.000,3748.7859,N,12217.8318,W,1,06,1.6,9.0,M,-25.1,M,,0000*62
$GPGSA,A,3,23,01,20,32,31,30,,,,,,,3.4,1.6,3.0*33
$GPRMC,005532.000,A,3748.7859,N,12217.8318,W,1.35,124.99,280112,,,A*7B
$GPVTG,124.99,T,,M,1.35,N,2.5,K,A*0A
$GPGGA,005533.000,3748.7855,N,12217.8314,W,1,06,1.6,8.0,M,-25.1,M,,0000*62
$GPGSA,A,3,23,01,20,32,31,30,,,,,,,3.4,1.6,3.0*33
$GPRMC,005533.000,A,3748.7855,N,12217.8314,W,1.37,140.68,280112,,,A*74
$GPVTG,140.68,T,,M,1.37,N,2.5,K,A*04
$GPGGA,005534.000,3748.7851,N,12217.8309,W,1,06,1.6,8.8,M,-25.1,M,,0000*65
$GPGSA,A,3,23,01,20,32,31,30,,,,,,,3.4,1.6,3.0*33
$GPRMC,005534.000,A,3748.7851,N,12217.8309,W,1.24,120.44,280112,,,A*71
$GPVTG,120.44,T,,M,1.24,N,2.3,K,A*08
$GPGGA,005535.000,3748.7846,N,12217.8303,W,1,06,1.6,9.9,M,-25.1,M,,0000*68
$GPGSA,A,3,23,01,20,32,31,30,,,,,,,3.4,1.6,3.0*33
$GPGSV,3,1,12,32,81,028,27,20,59,312,24,31,52,051,33,01,44,231,31*75
$GPGSV,3,2,12,24,36,200,,23,33,277,29,30,28,128,31,11,25,215,36*76
$GPGSV,3,3,12,14,12,068,21,16,11,150,44,13,08,262,34,25,04,034,*7D
$GPRMC,005535.000,A,3748.7846,N,12217.8303,W,1.54,129.20,280112,,,A*70
$GPVTG,129.20,T,,M,1.54,N,2.8,K,A*0F
$GPGGA,005536.000,3748.7840,N,12217.8296,W,1,06,1.6,10.9,M,-25.1,M,,0000*58
$GPGSA,A,3,23,01,20,32,31,30,,,,,,,3.4,1.6,3.0*33
$GPRMC,005536.000,A,3748.7840,N,12217.8296,W,1.89,122.76,280112,,,A*70
$GPVTG,122.76,T,,M,1.89,N,3.5,K,A*0B
$GPGGA,005537.000,3748.7830,N,12217.8285,W,1,06,1.6,15.2,M,-25.1,M,,0000*52
$GPGSA,A,3,23,01,20,32,31,30,,,,,,,3.4,1.6,3.0*33
$GPRMC,005537.000,A,3748.7830,N,12217.8285,W,1.75,119.04,280112,,,A*7A
$GPVTG,119.04,T,,M,1.75,N,3.2,K,A*02
$GPGGA,005538.000,3748.7825,N,12217.8278,W,1,06,1.6,15.4,M,-25.1,M,,0000*5D
$GPGSA,A,3,23,01,20,32,31,30,,,,,,,3.4,1.6,3.0*33
$GPRMC,005538.000,A,3748.7825,N,12217.8278,W,1.85,126.05,280112,,,A*71
$GPVTG,126.05,T,,M,1.85,N,3.4,K,A*06
$GPGGA,005539.000,3748.7820,N,12217.8272,W,1,06,1.6,16.7,M,-25.1,M,,0000*53
$GPGSA,A,3,23,01,20,32,31,30,,,,,,,3.4,1.6,3.0*33
$GPRMC,005539.000,A,3748.7820,N,12217.8272,W,1.92,123.61,280112,,,A*7E
$GPVTG,123.61,T,,M,1.92,N,3.6,K,A*05
$GPGGA,005540.000,3748.7818,N,12217.8268,W,1,06,1.6,16.5,M,-25.1,M,,0000*5F
$GPGSA,A,3,23,01,20,32,31,30,,,,,,,3.4,1.6,3.0*33
$GPGSV,3,1,12,32,81,028,27,20,59,312,26,31,52,051,33,01,44,231,31*77
$GPGSV,3,2,12,24,36,200,,23,33,277,29,30,28,128,41,11,25,215,39*7E
$GPGSV,3,3,12,14,12,068,24,16,11,150,36,13,08,262,31,25,04,034,*78
$GPRMC,005540.000,A,3748.7818,N,12217.8268,W,2.05,130.75,280112,,,A*7A
$GPVTG,130.75,T,,M,2.05,N,3.8,K,A*01
$GPGGA,005541.000,3748.7814,N,12217.8263,W,1,06,1.6,16.3,M,-25.1,M,,0000*5F
$GPGSA,A,3,23,01,20,32,31,30,,,,,,,3.4,1.6,3.0*33
$GPRMC,005541.000,A,3748.7814,N,12217.8263,W,2.28,138.08,280112,,,A*71
$GPVTG,138.08,T,,M,2.28,N,4.2,K,A*01
$GPGGA,005542.000,3748.7806,N,12217.8262,W,1,06,1.6,14.6,M,-25.1,M,,0000*59
$GPGSA,A,3,23,01,20,32,31,30,,,,,,,3.4,1.6,3.0*33
$GPRMC,005542.000,A,3748.7806,N,12217.8262,W,1.88,145.68,280112,,,A*75
$GPVTG,145.68,T,,M,1.88,N,3.5,K,A*04
$GPGGA,005543.000,3748.7799,N,12217.8255,W,1,06,1.6,16.3,M,-25.1,M,,0000*52
$GPGSA,A,3,23,01,20,32,31,30,,,,,,,3.4,1.6,3.0*33
$GPRMC,005543.000,A,3748.7799,N,12217.8255,W,1.84,132.67,280112,,,A*7A
$GPVTG,132.67,T,,M,1.84,N,3.4,K,A*06
$GPGGA,005544.000,3748.7796,N,12217.8248,W,1,06,1.6,16.7,M,-25.1,M,,0000*52
$GPGSA,A,3,23,01,20,32,31,30,,,,,,,3.4,1.6,3.0*33
$GPRMC,005544.000,A,3748.7796,N,12217.8248,W,1.74,118.92,280112,,,A*73
$GPVTG,118.92,T,,M,1.74,N,3.2,K,A*0D
$GPGGA,005545.000,3748.7793,N,12217.8240,W,1,06,1.6,17.5,M,-25.1,M,,0000*5D
$GPGSA,A,3,23,01,20,32,31,30,,,,,,,3.4,1.6,3.0*33
$GPGSV,3,1,12,32,81,028,27,20,59,312,26,31,52,051,28,01,44,231,39*75
$GPGSV,3,2,12,24,36,200,,23,33,277,29,30,28,128,39,11,25,215,41*7E
$GPGSV,3,3,12,14,12,068,25,16,11,150,38,13,08,262,31,25,04,034,*77
$GPVTG,108.86,T,,M,2.05,N,3.8,K,A*06
$GPGGA,005546.000,3748.7789,N,12217.8231,W,1,05,1.7,18.8,M,-25.1,M,,0000*53
$GPGSA,A,3,23,01,20,31,30,,,,,,,,4.7,1.7,4.3*33
$GPRMC,005546.000,A,3748.7789,N,12217.8231,W,1.66,113.61,280112,,,A*75
$GPVTG,113.61,T,,M,1.66,N,3.1,K,A*0A
$GPGGA,005547.000,3748.7785,N,12217.8225,W,1,05,1.7,19.2,M,-25.1,M,,0000*50
$GPGSA,A,3,23,01,20,31,30,,,,,,,,4.7,1.7,4.3*33
$GPRMC,005547.000,A,3748.7785,N,12217.8225,W,1.55,121.15,280112,,,A*7F
$GPVTG,121.15,T,,M,1.55,N,2.9,K,A*01
$GPGGA,005548.000,3748.7784,N,12217.8220,W,1,06,1.6,18.4,M,-25.1,M,,0000*5E
$GPGSA,A,3,23,01,20,32,31,30,,,,,,,3.4,1.6,3.0*33
$GPRMC,005548.000,A,3748.7784,N,12217.8220,W,1.70,127.54,280112,,,A*70
$GPVTG,127.54,T,,M,1.70,N,3.1,K,A*0C
$GPGGA,005549.000,3748.7785,N,12217.8218,W,1,06,1.6,14.4,M,-25.1,M,,0000*59
$GPGSA,A,3,23,01,20,32,31,30,,,,,,,3.4,1.6,3.0*33
$GPRMC,005549.000,A,3748.7785,N,12217.8218,W,1.64,130.88,280112,,,A*79
$GPVTG,130.88,T,,M,1.64,N,3.0,K,A*0F
$GPGGA,005550.000,3748.7783,N,12217.8216,W,1,06,1.6,12.5,M,-25.1,M,,0000*5E
$GPGSA,A,3,23,01,20,32,31,30,,,,,,,3.4,1.6,3.0*33
$GPGSV,3,1,12,32,81,033,27,20,59,312,26,31,51,050,30,01,44,231,34*79
$GPGSV,3,2,12,24,36,200,,23,34,277,29,30,28,128,40,11,24,214,42*74
$GPGSV,3,3,12,16,12,149,36,14,11,069,26,13,08,263,29,25,03,033,*7B
$GPRMC,005550.000,A,3748.7783,N,12217.8216,W,1.55,134.85,280112,,,A*72
$GPVTG,134.85,T,,M,1.55,N,2.9,K,A*0C
$GPGGA,005551.000,3748.7779,N,12217.8207,W,1,06,1.6,13.2,M,-25.1,M,,0000*5C
$GPGSA,A,3,23,01,20,32,31,30,,,,,,,3.4,1.6,3.0*33
$GPRMC,005551.000,A,3748.7779,N,12217.8207,W,1.59,124.69,280112,,,A*79
$GPVTG,124.69,T,,M,1.59,N,2.9,K,A*03
$GPGGA,005552.000,3748.7777,N,12217.8200,W,1,06,1.6,13.4,M,-25.1,M,,0000*50
$GPGSA,A,3,23,01,20,32,31,30,,,,,,,3.4,1.6,3.0*33
$GPRMC,005552.000,A,3748.7777,N,12217.8200,W,1.59,118.57,280112,,,A*71
$GPVTG,118.57,T,,M,1.59,N,2.9,K,A*01
$GPGGA,005553.000,3748.7776,N,12217.8194,W,1,06,1.6,12.9,M,-25.1,M,,0000*52
$GPGSA,A,3,23,01,20,32,31,30,,,,,,,3.4,1.6,3.0*33
$GPRMC,005553.000,A,3748.7776,N,12217.8194,W,1.20,119.57,280112,,,A*70
$GPVTG,119.57,T,,M,1.20,N,2.2,K,A*05
$GPGGA,005554.000,3748.7776,N,12217.8187,W,1,06,1.6,12.6,M,-25.1,M,,0000*58
$GPGSA,A,3,23,01,20,32,31,30,,,,,,,3.4,1.6,3.0*33
$GPRMC,005554.000,A,3748.7776,N,12217.8187,W,1.02,80.06,280112,,,A*40
$GPVTG,80.06,T,,M,1.02,N,1.9,K,A*38
$GPGGA,005555.000,3748.7774,N,12217.8185,W,1,06,1.6,11.9,M,-25.1,M,,0000*55
$GPGSA,A,3,23,01,20,32,31,30,,,,,,,3.4,1.6,3.0*33
$GPGSV,3,1,12,32,81,033,27,20,59,312,26,31,51,050,33,01,44,231,33*7D
$GPGSV,3,2,12,24,36,200,,23,34,277,29,30,28,128,40,11,24,214,38*79
$GPGSV,3,3,12,16,12,149,37,14,11,069,20,13,08,263,28,25,03,033,*7D
$GPRMC,005555.000,A,3748.7774,N,12217.8185,W,0.94,109.19,280112,,,A*71
$GPVTG,109.19,T,,M,0.94,N,1.7,K,A*06
$GPGGA,005556.000,3748.7774,N,12217.8182,W,1,06,1.6,10.6,M,-25.1,M,,0000*5F
$GPGSA,A,3,23,01,20,32,31,30,,,,,,,3.4,1.6,3.0*33
$GPRMC,005556.000,A,3748.7774,N,12217.8182,W,1.10,123.07,280112,,,A*7F
$GPVTG,123.07,T,,M,1.10,N,2.0,K,A*08
$GPGGA,005557.000,3748.7772,N,12217.8176,W,1,06,1.6,10.3,M,-25.1,M,,0000*56
$GPGSA,A,3,23,01,20,32,31,30,,,,,,,3.4,1.6,3.0*33
$GPRMC,005557.000,A,3748.7772,N,12217.8176,W,1.15,111.55,280112,,,A*70
$GPVTG,111.55,T,,M,1.15,N,2.1,K,A*0A
$GPGGA,005558.000,3748.7770,N,12217.8169,W,1,07,1.6,10.0,M,-25.1,M,,0000*57
$GPGSA,A,3,23,01,20,32,31,30,16,,,,,,3.0,1.6,2.6*37
$GPRMC,005558.000,A,3748.7770,N,12217.8169,W,1.44,101.31,280112,,,A*74
$GPVTG,101.31,T,,M,1.44,N,2.7,K,A*0B
$GPGGA,005559.000,3748.7767,N,12217.8161,W,1,07,1.6,10.7,M,-25.1,M,,0000*5F
$GPGSA,A,3,23,01,20,32,31,30,16,,,,,,3.0,1.6,2.6*37
$GPRMC,005559.000,A,3748.7767,N,12217.8161,W,1.29,108.89,280112,,,A*7A
$GPVTG,108.89,T,,M,1.29,N,2.4,K,A*09
$GPGGA,005600.000,3748.7766,N,12217.8154,W,1,07,1.6,10.3,M,-25.1,M,,0000*53
$GPGSA,A,3,23,01,20,32,31,30,16,,,,,,3.0,1.6,2.6*37
$GPGSV,3,1,12,32,82,034,28,20,60,312,28,31,51,050,39,01,43,231,31*7D
$GPGSV,3,2,12,24,36,200,,23,34,277,31,30,28,127,38,11,24,214,34*7C
$GPGSV,3,3,12,16,12,149,37,14,11,069,25,13,08,263,28,25,03,033,*78
$GPVTG,131.11,T,,M,1.10,N,2.0,K,A*0C
$GPGGA,005601.000,3748.7764,N,12217.8149,W,1,07,1.6,9.3,M,-25.1,M,,0000*64
$GPGSA,A,3,23,01,20,32,31,30,16,,,,,,3.0,1.6,2.6*37
$GPRMC,005601.000,A,3748.7764,N,12217.8149,W,1.05,157.38,280112,,,A*73
$GPVTG,157.38,T,,M,1.05,N,1.9,K,A*09
$GPGGA,005602.000,3748.7769,N,12217.8144,W,1,07,1.6,6.0,M,-25.1,M,,0000*6B
$GPGSA,A,3,23,01,20,32,31,30,16,,,,,,3.0,1.6,2.6*37
$GPRMC,005602.000,A,3748.7769,N,12217.8144,W,0.98,114.11,280112,,,A*79
$GPVTG,114.11,T,,M,0.98,N,1.8,K,A*01
$GPGGA,005603.000,3748.7768,N,12217.8138,W,1,07,1.6,5.4,M,-25.1,M,,0000*67
$GPGSA,A,3,23,01,20,32,31,30,16,,,,,,3.0,1.6,2.6*37
$GPRMC,005603.000,A,3748.7768,N,12217.8138,W,1.39,105.92,280112,,,A*73
$GPVTG,105.92,T,,M,1.39,N,2.6,K,A*0D
$GPGGA,005604.000,3748.7770,N,12217.8129,W,1,07,1.6,3.6,M,-25.1,M,,0000*6D
$GPGSA,A,3,23,01,20,32,31,30,16,,,,,,3.0,1.6,2.6*37
$GPRMC,005604.000,A,3748.7770,N,12217.8129,W,1.46,103.86,280112,,,A*76
$GPVTG,103.86,T,,M,1.46,N,2.7,K,A*07
$GPGGA,005605.000,3748.7772,N,12217.8122,W,1,07,1.6,1.6,M,-25.1,M,,0000*67
$GPGSA,A,3,23,01,20,32,31,30,16,,,,,,3.0,1.6,2.6*37
$GPGSV,3,1,12,32,82,034,27,20,60,312,29,31,51,050,34,01,43,231,31*7E
$GPGSV,3,2,12,24,36,200,,23,34,277,33,30,28,127,34,11,24,214,36*70
$GPGSV,3,3,12,16,12,149,38,14,11,069,24,13,08,263,27,25,03,033,*79
$GPRMC,005605.000,A,3748.7772,N,12217.8122,W,1.13,111.30,280112,,,A*70
$GPVTG,111.30,T,,M,1.13,N,2.1,K,A*0F
$GPGGA,005606.000,3748.7767,N,12217.8115,W,1,07,1.6,2.7,M,-25.1,M,,0000*66
$GPGSA,A,3,23,01,20,32,31,30,16,,,,,,3.0,1.6,2.6*37
$GPRMC,005606.000,A,3748.7767,N,12217.8115,W,1.15,105.39,280112,,,A*79
$GPVTG,105.39,T,,M,1.15,N,2.1,K,A*05
$GPGGA,005607.000,3748.7762,N,12217.8110,W,1,06,2.2,2.9,M,-25.1,M,,0000*6F
$GPGSA,A,3,01,20,32,31,30,16,,,,,,,4.4,2.2,3.8*3D
$GPRMC,005607.000,A,3748.7762,N,12217.8110,W,1.55,118.28,280112,,,A*70
$GPVTG,118.28,T,,M,1.55,N,2.9,K,A*05
$GPGGA,005608.000,3748.7760,N,12217.8104,W,1,07,1.6,2.4,M,-25.1,M,,0000*6C
$GPGSA,A,3,23,01,20,32,31,30,16,,,,,,3.0,1.6,2.6*37
$GPRMC,005608.000,A,3748.7760,N,12217.8104,W,1.65,106.16,280112,,,A*79
$GPVTG,106.16,T,,M,1.65,N,3.1,K,A*0D
$GPGGA,005609.000,3748.7757,N,12217.8096,W,1,07,1.6,2.6,M,-25.1,M,,0000*61
$GPGSA,A,3,23,01,20,32,31,30,16,,,,,,3.0,1.6,2.6*37
$GPRMC,005609.000,A,3748.7757,N,12217.8096,W,1.61,114.95,280112,,,A*7A
$GPVTG,114.95,T,,M,1.61,N,3.0,K,A*00
$GPGGA,005609.000,3748.7755,N,12217.8088,W,1,07,1.6,2.5,M,-25.1,M,,0000*6F
$GPGSA,A,3,23,01,20,32,31,30,16,,,,,,3.0,1.6,2.6*37
$GPGSV,3,1,12,32,82,034,27,20,60,312,29,31,51,050,31,01,43,231,28*73
$GPGSV,3,2,12,24,36,200,,23,34,277,31,30,28,127,42,11,24,214,35*70
$GPGSV,3,3,12,16,12,149,36,14,11,069,23,13,08,263,28,25,03,033,*7F
$GPRMC,005609.000,A,3748.7755,N,12217.8088,W,1.14,139.11,280112,,,A*76
$GPVTG,139.11,T,,M,1.14,N,2.1,K,A*01
$GPGGA,005610.000,3748.7753,N,12217.8083,W,1,07,1.6,2.0,M,-25.1,M,,0000*6F
$GPGSA,A,3,23,01,20,32,31,30,16,,,,,,3.0,1.6,2.6*37
$GPRMC,005610.000,A,3748.7753,N,12217.8083,W,1.50,117.84,280112,,,A*73
$GPVTG,117.84,T,,M,1.50,N,2.8,K,A*08
$GPGGA,005611.000,3748.7754,N,12217.8073,W,1,07,1.6,1.3,M,-25.1,M,,0000*66
$GPGSA,A,3,23,01,20,32,31,30,16,,,,,,3.0,1.6,2.6*37
$GPRMC,005611.000,A,3748.7754,N,12217.8073,W,1.51,123.21,280112,,,A*73
$GPVTG,123.21,T,,M,1.51,N,2.8,K,A*01
$GPGGA,005612.000,3748.7754,N,12217.8065,W,1,07,1.6,0.5,M,-25.1,M,,0000*65
$GPGSA,A,3,23,01,20,32,31,30,16,,,,,,3.0,1.6,2.6*37
$GPRMC,005612.000,A,3748.7754,N,12217.8065,W,2.01,102.25,280112,,,A*76
$GPVTG,102.25,T,,M,2.01,N,3.7,K,A*0E
$GPGGA,005613.000,3748.7750,N,12217.8059,W,1,07,1.6,1.3,M,-25.1,M,,0000*68
$GPGSA,A,3,23,01,20,32,31,30,16,,,,,,3.0,1.6,2.6*37
$GPRMC,005613.000,A,3748.7750,N,12217.8059,W,1.57,116.20,280112,,,A*7C
$GPVTG,116.20,T,,M,1.57,N,2.9,K,A*01
$GPGGA,005614.000,3748.7748,N,12217.8054,W,1,07,1.6,1.2,M,-25.1,M,,0000*6A
$GPGSA,A,3,23,01,20,32,31,30,16,,,,,,3.0,1.6,2.6*37
$GPGSV,3,1,12,32,82,034,25,20,60,312,29,31,51,050,35,01,43,231,30*7C
$GPGSV,3,2,12,24,36,200,,23,34,277,31,30,28,127,42,11,24,214,32*77
$GPRMC,005614.000,A,3748.7748,N,12217.8054,W,1.52,132.91,280112,,,A*76
$GPVTG,132.91,T,,M,1.52,N,2.8,K,A*09
$GPGGA,005615.000,3748.7745,N,12217.8048,W,1,07,1.6,1.7,M,-25.1,M,,0000*6E
$GPGSA,A,3,23,01,20,32,31,30,16,,,,,,3.0,1.6,2.6*37
$GPRMC,005615.000,A,3748.7745,N,12217.8048,W,1.65,113.03,280112,,,A*7B
$GPVTG,113.03,T,,M,1.65,N,3.1,K,A*0D
$GPGGA,005616.000,3748.7737,N,12217.8041,W,1,07,1.6,4.0,M,-25.1,M,,0000*63
$GPGSA,A,3,23,01,20,32,31,30,16,,,,,,3.0,1.6,2.6*37
$GPRMC,005616.000,A,3748.7737,N,12217.8041,W,1.42,119.58,280112,,,A*75
$GPVTG,119.58,T,,M,1.42,N,2.6,K,A*0A
$GPGGA,005617.000,3748.7734,N,12217.8034,W,1,07,1.6,4.4,M,-25.1,M,,0000*67
$GPGSA,A,3,23,01,20,32,31,30,16,,,,,,3.0,1.6,2.6*37
$GPRMC,005617.000,A,3748.7734,N,12217.8034,W,1.81,118.24,280112,,,A*70
$GPVTG,118.24,T,,M,1.81,N,3.4,K,A*0C
$GPGGA,005618.000,3748.7733,N,12217.8029,W,1,07,1.6,3.5,M,-25.1,M,,0000*65
$GPGSA,A,3,23,01,20,32,31,30,16,,,,,,3.0,1.6,2.6*37
$GPRMC,005618.000,A,3748.7733,N,12217.8029,W,1.64,133.56,280112,,,A*73
$GPVTG,133.56,T,,M,1.64,N,3.0,K,A*0F
$GPGGA,005619.000,3748.7728,N,12217.8023,W,1,07,1.6,3.9,M,-25.1,M,,0000*68
$GPGSA,A,3,23,01,20,32,31,30,16,,,,,,3.0,1.6,2.6*37
$GPGSV,3,1,12,32,82,035,26,20,60,312,29,31,51,050,37,01,43,230,30*7D
$GPGSV,3,2,12,24,36,200,,23,34,277,31,30,29,127,41,11,24,214,35*72
$GPGSV,3,3,12,16,12,149,29,14,11,069,27,13,08,263,29,25,03,033,*74
$GPRMC,005619.000,A,3748.7728,N,12217.8023,W,1.63,152.76,280112,,,A*70
$GPVTG,152.76,T,,M,1.63,N,3.0,K,A*0D
$GPGGA,005620.000,3748.7724,N,12217.8016,W,1,07,1.6,4.5,M,-25.1,M,,0000*63
$GPGSA,A,3,23,01,20,32,31,30,16,,,,,,3.0,1.6,2.6*37
$GPRMC,005620.000,A,3748.7724,N,12217.8016,W,1.22,138.26,280112,,,A*7C
$GPVTG,138.26,T,,M,1.22,N,2.3,K,A*03
$GPGGA,005621.000,3748.7720,N,12217.8011,W,1,07,1.6,4.9,M,-25.1,M,,0000*6D
$GPGSA,A,3,23,01,20,32,31,30,16,,,,,,3.0,1.6,2.6*37
$GPRMC,005621.000,A,3748.7720,N,12217.8011,W,1.43,143.96,280112,,,A*7E
$GPVTG,143.96,T,,M,1.43,N,2.6,K,A*06
$GPGGA,005622.000,3748.7717,N,12217.8007,W,1,07,1.6,4.5,M,-25.1,M,,0000*61
$GPGSA,A,3,23,01,20,32,31,30,16,,,,,,3.0,1.6,2.6*37
$GPRMC,005622.000,A,3748.7717,N,12217.8007,W,1.16,145.76,280112,,,A*76
$GPVTG,145.76,T,,M,1.16,N,2.2,K,A*0A
$GPGGA,005623.000,3748.7714,N,12217.8002,W,1,07,1.6,4.8,M,-25.1,M,,0000*6B
$GPGSA,A,3,23,01,20,32,31,30,16,,,,,,3.0,1.6,2.6*37
$GPRMC,005623.000,A,3748.7714,N,12217.8002,W,1.58,116.99,280112,,,A*7C
$GPVTG,116.99,T,,M,1.58,N,2.9,K,A*0C
$GPGGA,005624.000,3748.7711,N,12217.7997,W,1,07,1.6,4.9,M,-25.1,M,,0000*62
$GPGSA,A,3,23,01,20,32,31,30,16,,,,,,3.0,1.6,2.6*37
$GPGSV,3,1,12,32,82,035,28,20,60,312,29,31,51,050,37,01,43,230,33*70
$GPGSV,3,2,12,24,36,200,,23,34,277,31,30,29,127,39,11,24,214,29*70
$GPGSV,3,3,12,16,12,149,23,14,11,069,36,13,08,263,30,25,03,033,*76
$GPRMC,005624.000,A,3748.7711,N,12217.7997,W,1.68,120.25,280112,,,A*75
$GPVTG,120.25,T,,M,1.68,N,3.1,K,A*04
$GPGGA,005625.000,3748.7705,N,12217.7989,W,1,07,1.6,6.1,M,-25.1,M,,0000*63
$GPGSA,A,3,23,01,20,32,31,30,16,,,,,,3.0,1.6,2.6*37
$GPRMC,005625.000,A,3748.7705,N,12217.7989,W,1.65,133.94,280112,,,A*7B
$GPVTG,133.94,T,,M,1.65,N,3.1,K,A*01
$GPGGA,005626.000,3748.7700,N,12217.7983,W,1,07,1.6,6.8,M,-25.1,M,,0000*66
$GPGSA,A,3,23,01,20,32,31,30,16,,,,,,3.0,1.6,2.6*37
$GPRMC,005626.000,A,3748.7700,N,12217.7983,W,1.62,138.39,280112,,,A*7C
$GPVTG,138.39,T,,M,1.62,N,3.0,K,A*0B
$GPGGA,005627.000,3748.7692,N,12217.7974,W,1,07,1.6,8.8,M,-25.1,M,,0000*6B
$GPGSA,A,3,23,01,20,32,31,30,16,,,,,,3.0,1.6,2.6*37
$GPRMC,005627.000,A,3748.7692,N,12217.7974,W,1.89,137.58,280112,,,A*72
$GPVTG,137.58,T,,M,1.89,N,3.5,K,A*03
$GPGGA,005628.000,3748.7686,N,12217.7966,W,1,07,1.6,9.7,M,-25.1,M,,0000*6C
$GPGSA,A,3,23,01,20,32,31,30,16,,,,,,3.0,1.6,2.6*37
$GPRMC,005628.000,A,3748.7686,N,12217.7966,W,1.73,137.33,280112,,,A*73
$GPVTG,137.33,T,,M,1.73,N,3.2,K,A*0C
$GPGGA,005629.000,3748.7681,N,12217.7960,W,1,07,1.6,10.6,M,-25.1,M,,0000*55
$GPGSA,A,3,23,01,20,32,31,30,16,,,,,,3.0,1.6,2.6*37
$GPGSV,3,1,12,32,82,035,28,20,60,312,30,31,51,050,34,01,43,230,31*79
$GPGSV,3,2,12,24,36,200,,23,34,277,31,30,29,127,41,11,24,214,30*77
$GPGSV,3,3,12,16,12,149,23,14,11,069,26,13,08,263,31,25,03,033,*76
$GPRMC,005629.000,A,3748.7681,N,12217.7960,W,1.44,130.44,280112,,,A*70
$GPVTG,130.44,T,,M,1.44,N,2.7,K,A*0B
$GPGGA,005630.000,3748.7679,N,12217.7954,W,1,07,1.6,10.1,M,-25.1,M,,0000*5A
$GPGSA,A,3,23,01,20,32,31,30,16,,,,,,3.0,1.6,2.6*37
$GPRMC,005630.000,A,3748.7679,N,12217.7954,W,1.61,125.47,280112,,,A*78
$GPVTG,125.47,T,,M,1.61,N,3.0,K,A*0D
$GPGGA,005631.000,3748.7672,N,12217.7945,W,1,07,1.6,12.2,M,-25.1,M,,0000*51
$GPGSA,A,3,23,01,20,32,31,30,16,,,,,,3.0,1.6,2.6*37
$GPRMC,005631.000,A,3748.7672,N,12217.7945,W,2.24,129.51,280112,,,A*7B
$GPVTG,129.51,T,,M,2.24,N,4.2,K,A*01
$GPGGA,005632.000,3748.7666,N,12217.7936,W,1,07,1.6,13.5,M,-25.1,M,,0000*55
$GPGSA,A,3,23,01,20,32,31,30,16,,,,,,3.0,1.6,2.6*37
$GPRMC,005632.000,A,3748.7666,N,12217.7936,W,2.11,118.94,280112,,,A*74
$GPVTG,118.94,T,,M,2.11,N,3.9,K,A*00
$GPGGA,005633.000,3748.7663,N,12217.7930,W,1,07,1.6,14.4,M,-25.1,M,,0000*51
$GPGSA,A,3,23,01,20,32,31,30,16,,,,,,3.0,1.6,2.6*37
$GPRMC,005633.000,A,3748.7663,N,12217.7930,W,1.62,130.34,280112,,,A*71
$GPVTG,130.34,T,,M,1.62,N,3.0,K,A*0E
$GPGGA,005634.000,3748.7664,N,12217.7921,W,1,07,1.6,13.4,M,-25.1,M,,0000*56
$GPGSA,A,3,23,01,20,32,31,30,16,,,,,,3.0,1.6,2.6*37
$GPGSV,3,1,12,32,82,035,22,20,60,312,30,31,51,050,34,01,43,230,28*7B
$GPGSV,3,2,12,24,36,200,,23,34,277,30,30,29,127,31,11,24,214,30*71
$GPGSV,3,3,12,16,12,149,23,14,11,069,33,13,08,263,32,25,03,033,*71
$GPRMC,005634.000,A,3748.7664,N,12217.7921,W,1.79,116.23,280112,,,A*79
$GPGGA,005635.000,3748.7662,N,12217.7914,W,1,07,1.6,13.1,M,-25.1,M,,0000*52
$GPGSA,A,3,23,01,20,32,31,30,16,,,,,,3.0,1.6,2.6*37
$GPRMC,005635.000,A,3748.7662,N,12217.7914,W,1.73,128.12,280112,,,A*7D
$GPVTG,128.12,T,,M,1.73,N,3.2,K,A*01
$GPGGA,005636.000,3748.7661,N,12217.7908,W,1,07,1.6,12.1,M,-25.1,M,,0000*5E
$GPGSA,A,3,23,01,20,32,31,30,16,,,,,,3.0,1.6,2.6*37
$GPRMC,005636.000,A,3748.7661,N,12217.7908,W,1.91,124.79,280112,,,A*7D
$GPVTG,124.79,T,,M,1.91,N,3.5,K,A*0B
$GPGGA,005637.000,3748.7660,N,12217.7901,W,1,07,1.6,11.6,M,-25.1,M,,0000*53
$GPGSA,A,3,23,01,20,32,31,30,16,,,,,,3.0,1.6,2.6*37
$GPRMC,005637.000,A,3748.7660,N,12217.7901,W,1.43,114.80,280112,,,A*7E
$GPVTG,114.80,T,,M,1.43,N,2.7,K,A*02
$GPGGA,005638.000,3748.7658,N,12217.7895,W,1,07,1.6,11.4,M,-25.1,M,,0000*59
$GPGSA,A,3,23,01,20,32,31,30,16,,,,,,3.0,1.6,2.6*37
$GPRMC,005638.000,A,3748.7658,N,12217.7895,W,1.74,116.44,280112,,,A*78
$GPVTG,116.44,T,,M,1.74,N,3.2,K,A*08
$GPGGA,005639.000,3748.7657,N,12217.7887,W,1,07,1.6,10.2,M,-25.1,M,,0000*53
$GPGSA,A,3,23,01,20,32,31,30,16,,,,,,3.0,1.6,2.6*37
$GPGSV,3,1,12,32,82,035,23,20,60,312,29,31,51,050,35,01,43,230,29*72
$GPGSV,3,2,12,24,36,200,,23,34,277,29,30,29,127,37,11,24,214,31*7E
$GPGSV,3,3,12,16,12,149,24,14,11,069,27,13,08,263,26,25,03,033,*76
$GPRMC,005639.000,A,3748.7657,N,12217.7887,W,1.67,127.12,280112,,,A*76
$GPVTG,127.12,T,,M,1.67,N,3.1,K,A*08
$GPGGA,005640.000,3748.7656,N,12217.7880,W,1,07,1.6,8.3,M,-25.1,M,,0000*63
$GPGSA,A,3,23,01,20,32,31,30,16,,,,,,3.0,1.6,2.6*37
$GPRMC,005640.000,A,3748.7656,N,12217.7880,W,1.96,128.67,280112,,,A*7D
$GPVTG,128.67,T,,M,1.96,N,3.6,K,A*0C
$GPGGA,005641.000,3748.7653,N,12217.7874,W,1,07,1.6,7.0,M,-25.1,M,,0000*60
$GPGSA,A,3,23,01,20,32,31,30,16,,,,,,3.0,1.6,2.6*37
$GPRMC,005641.000,A,3748.7653,N,12217.7874,W,1.50,138.08,280112,,,A*70
$GPVTG,138.08,T,,M,1.50,N,2.8,K,A*01
$GPGGA,005642.000,3748.7647,N,12217.7867,W,1,07,1.6,6.9,M,-25.1,M,,0000*6C
$GPGSA,A,3,23,01,20,32,31,30,16,,,,,,3.0,1.6,2.6*37
$GPRMC,005642.000,A,3748.7647,N,12217.7867,W,1.45,142.56,280112,,,A*76
$GPVTG,142.56,T,,M,1.45,N,2.7,K,A*0C
$GPGGA,005643.000,3748.7644,N,12217.7863,W,1,07,1.6,5.2,M,-25.1,M,,0000*62
$GPGSA,A,3,23,01,20,32,31,30,16,,,,,,3.0,1.6,2.6*37
$GPRMC,005643.000,A,3748.7644,N,12217.7863,W,1.62,128.10,280112,,,A*7B
$GPVTG,128.10,T,,M,1.62,N,3.0,K,A*01
$GPGGA,005644.000,3748.7641,N,12217.7858,W,1,07,1.6,4.0,M,-25.1,M,,0000*6B
$GPGSA,A,3,23,01,20,32,31,30,16,,,,,,3.0,1.6,2.6*37
$GPGSV,3,1,12,32,82,035,23,20,60,312,29,31,51,050,36,01,43,230,29*71
$GPGSV,3,2,12,24,36,200,,23,34,277,29,30,29,127,33,11,24,214,32*79
$GPGSV,3,3,12,16,12,149,33,14,11,069,27,13,08,263,25,25,03,033,*73
$GPRMC,005644.000,A,3748.7641,N,12217.7858,W,1.86,117.13,280112,,,A*74
$GPVTG,117.13,T,,M,1.86,N,3.4,K,A*00
$GPGGA,005645.000,3748.7644,N,12217.7850,W,1,07,1.6,1.3,M,-25.1,M,,0000*61
$GPGSA,A,3,23,01,20,32,31,30,16,,,,,,3.0,1.6,2.6*37
$GPRMC,005645.000,A,3748.7644,N,12217.7850,W,1.84,112.36,280112,,,A*78
$GPVTG,112.36,T,,M,1.84,N,3.4,K,A*00
$GPGGA,005646.000,3748.7647,N,12217.7842,W,1,07,1.6,-1.4,M,-25.1,M,,0000*48
$GPGSA,A,3,23,01,20,32,31,30,16,,,,,,3.0,1.6,2.6*37
$GPRMC,005646.000,A,3748.7647,N,12217.7842,W,2.11,105.00,280112,,,A*77
$GPVTG,105.00,T,,M,2.11,N,3.9,K,A*01
$GPGGA,005647.000,3748.7649,N,12217.7834,W,1,07,1.6,-3.5,M,-25.1,M,,0000*45
$GPGSA,A,3,23,01,20,32,31,30,16,,,,,,3.0,1.6,2.6*37
$GPRMC,005647.000,A,3748.7649,N,12217.7834,W,2.01,96.86,280112,,,A*4D
$GPVTG,96.86,T,,M,2.01,N,3.7,K,A*3B
$GPGGA,005648.000,3748.7647,N,12217.7828,W,1,07,1.6,-5.5,M,-25.1,M,,0000*4F
$GPGSA,A,3,23,01,20,32,31,30,16,,,,,,3.0,1.6,2.6*37
$GPRMC,005648.000,A,3748.7647,N,12217.7828,W,1.33,105.80,280112,,,A*7E
$GPVTG,105.80,T,,M,1.33,N,2.5,K,A*07
$GPGGA,005649.000,3748.7646,N,12217.7825,W,1,07,1.6,-7.6,M,-25.1,M,,0000*43
$GPGSA,A,3,23,01,20,32,31,30,16,,,,,,3.0,1.6,2.6*37
$GPGSV,3,1,12,32,82,035,27,20,60,312,27,31,51,050,27,01,43,230,33*70
$GPGSV,3,2,12,24,36,200,,23,34,277,29,30,29,127,38,11,24,214,37*77
$GPGSV,3,3,12,16,12,149,31,14,11,069,25,13,08,263,24,25,03,033,*72
$GPVTG,100.08,T,,M,1.32,N,2.5,K,A*03
$GPGGA,005650.000,3748.7644,N,12217.7822,W,1,07,1.6,-9.2,M,-25.1,M,,0000*44
$GPGSA,A,3,23,01,20,32,31,30,16,,,,,,3.0,1.6,2.6*37
$GPRMC,005650.000,A,3748.7644,N,12217.7822,W,1.25,117.43,280112,,,A*75
$GPVTG,117.43,T,,M,1.25,N,2.3,K,A*0A
$GPGGA,005651.000,3748.7639,N,12217.7819,W,1,07,1.6,-10.1,M,-25.1,M,,0000*7C
$GPGSA,A,3,23,01,20,32,31,30,16,,,,,,3.0,1.6,2.6*37
$GPRMC,005651.000,A,3748.7639,N,12217.7819,W,1.63,121.51,280112,,,A*72
$GPVTG,121.51,T,,M,1.63,N,3.0,K,A*0C
$GPGGA,005652.000,3748.7631,N,12217.7813,W,1,07,1.6,-9.1,M,-25.1,M,,0000*45
$GPGSA,A,3,23,01,20,32,31,30,16,,,,,,3.0,1.6,2.6*37
$GPRMC,005652.000,A,3748.7631,N,12217.7813,W,1.44,102.13,280112,,,A*71
$GPVTG,102.13,T,,M,1.44,N,2.7,K,A*08
$GPGGA,005653.000,3748.7626,N,12217.7808,W,1,07,1.6,-8.4,M,-25.1,M,,0000*4C
$GPGSA,A,3,23,01,20,32,31,30,16,,,,,,3.0,1.6,2.6*37
$GPRMC,005653.000,A,3748.7626,N,12217.7808,W,1.52,103.57,280112,,,A*7A
$GPVTG,103.57,T,,M,1.52,N,2.8,K,A*01
$GPGGA,005654.000,3748.7620,N,12217.7802,W,1,07,1.6,-7.4,M,-25.1,M,,0000*48
$GPGSA,A,3,23,01,20,32,31,30,16,,,,,,3.0,1.6,2.6*37
$GPGSV,3,1,12,32,82,035,26,20,60,312,24,31,51,050,25,01,43,230,35*76
$GPGSV,3,2,12,24,36,200,,23,34,277,31,30,29,127,34,11,24,214,27*73
$GPGSV,3,3,12,16,12,149,35,14,11,069,24,13,08,263,29,25,03,033,*7A
$GPRMC,005654.000,A,3748.7620,N,12217.7802,W,1.60,131.24,280112,,,A*75
$GPVTG,131.24,T,,M,1.60,N,3.0,K,A*0C
$GPGGA,005655.000,3748.7617,N,12217.7798,W,1,07,1.6,-7.0,M,-25.1,M,,0000*45
$GPGSA,A,3,23,01,20,32,31,30,16,,,,,,3.0,1.6,2.6*37
$GPRMC,005655.000,A,3748.7617,N,12217.7798,W,1.22,103.66,280112,,,A*7D
$GPVTG,103.66,T,,M,1.22,N,2.3,K,A*0F
$GPGGA,005656.000,3748.7613,N,12217.7792,W,1,07,1.6,-6.9,M,-25.1,M,,0000*40
$GPGSA,A,3,23,01,20,32,31,30,16,,,,,,3.0,1.6,2.6*37
$GPRMC,005656.000,A,3748.7613,N,12217.7792,W,1.89,110.78,280112,,,A*7C
$GPVTG,110.78,T,,M,1.89,N,3.5,K,A*04
$GPGGA,005657.000,3748.7608,N,12217.7784,W,1,07,1.6,-5.3,M,-25.1,M,,0000*45
$GPGSA,A,3,23,01,20,32,31,30,16,,,,,,3.0,1.6,2.6*37
$GPRMC,005657.000,A,3748.7608,N,12217.7784,W,1.92,113.16,280112,,,A*71
$GPVTG,113.16,T,,M,1.92,N,3.6,K,A*06
$GPGGA,005658.000,3748.7606,N,12217.7779,W,1,07,1.6,-5.6,M,-25.1,M,,0000*43
$GPGSA,A,3,23,01,20,32,31,30,16,,,,,,3.0,1.6,2.6*37
$GPRMC,005658.000,A,3748.7606,N,12217.7779,W,1.54,121.70,280112,,,A*79
$GPVTG,121.70,T,,M,1.54,N,2.9,K,A*03
$GPGGA,005659.000,3748.7598,N,12217.7772,W,1,07,1.6,-4.0,M,-25.1,M,,0000*4A
$GPGSA,A,3,23,01,20,32,31,30,16,,,,,,3.0,1.6,2.6*37
$GPGSV,3,1,12,32,82,035,34,20,60,312,29,31,51,050,24,01,43,230,36*7A
$GPGSV,3,2,12,24,36,200,,23,34,277,29,30,29,127,35,11,24,214,34*79
$GPGSV,3,3,12,16,12,149,44,14,11,069,24,13,08,263,36,25,03,033,*72
$GPRMC,005659.000,A,3748.7598,N,12217.7772,W,1.79,119.88,280112,,,A*74
$GPVTG,119.88,T,,M,1.79,N,3.3,K,A*0B
$GPGGA,005700.000,3748.7592,N,12217.7765,W,1,07,1.6,-3.0,M,-25.1,M,,0000*4C
$GPGSA,A,3,23,01,20,32,31,30,16,,,,,,3.0,1.6,2.6*37
$GPRMC,005700.000,A,3748.7592,N,12217.7765,W,1.91,125.16,280112,,,A*7B
$GPVTG,125.16,T,,M,1.91,N,3.5,K,A*03
$GPGGA,005701.000,3748.7585,N,12217.7758,W,1,07,1.6,-1.7,M,-25.1,M,,0000*40
$GPGSA,A,3,23,01,20,32,31,30,16,,,,,,3.0,1.6,2.6*37
$GPRMC,005701.000,A,3748.7585,N,12217.7758,W,2.05,128.36,280112,,,A*73
$GPVTG,128.36,T,,M,2.05,N,3.8,K,A*0F
$GPGGA,005702.000,3748.7578,N,12217.7751,W,1,07,1.6,-0.4,M,-25.1,M,,0000*4A
$GPGSA,A,3,23,01,20,32,31,30,16,,,,,,3.0,1.6,2.6*37
$GPRMC,005702.000,A,3748.7578,N,12217.7751,W,2.11,128.35,280112,,,A*7D
$GPVTG,128.35,T,,M,2.11,N,3.9,K,A*08
$GPGGA,005703.000,3748.7572,N,12217.7745,W,1,07,1.6,0.2,M,-25.1,M,,0000*6F
$GPGSA,A,3,23,01,20,32,31,30,16,,,,,,3.0,1.6,2.6*37
$GPRMC,005703.000,A,3748.7572,N,12217.7745,W,1.98,129.09,280112,,,A*7F
$GPVTG,129.09,T,,M,1.98,N,3.7,K,A*0A
$GPGGA,005704.000,3748.7567,N,12217.7739,W,1,07,1.6,0.8,M,-25.1,M,,0000*6D
$GPGSA,A,3,23,01,20,32,31,30,16,,,,,,3.0,1.6,2.6*37
$GPGSV,3,1,12,32,82,035,33,20,60,312,28,31,51,050,25,01,43,230,35*7E
$GPGSV,3,2,12,24,36,200,,23,34,277,29,30,29,127,39,11,24,214,33*72
$GPGSV,3,3,12,16,12,149,44,14,11,069,24,13,08,263,36,25,03,033,*72
$GPRMC,005704.000,A,3748.7567,N,12217.7739,W,2.13,129.91,280112,,,A*76
$GPVTG,129.91,T,,M,2.13,N,3.9,K,A*05
$GPGGA,005705.000,3748.7562,N,12217.7734,W,1,07,1.6,1.2,M,-25.1,M,,0000*6F
$GPGSA,A,3,23,01,20,32,31,30,16,,,,,,3.0,1.6,2.6*37
$GPRMC,005705.000,A,3748.7562,N,12217.7734,W,2.02,139.08,280112,,,A*7E
$GPVTG,139.08,T,,M,2.02,N,3.7,K,A*0A
$GPGGA,005706.000,3748.7557,N,12217.7728,W,1,07,1.6,1.7,M,-25.1,M,,0000*62
$GPGSA,A,3,23,01,20,32,31,30,16,,,,,,3.0,1.6,2.6*37
$GPRMC,005706.000,A,3748.7557,N,12217.7728,W,2.03,121.25,280112,,,A*71
$GPVTG,121.25,T,,M,2.03,N,3.8,K,A*02
$GPGGA,005707.000,3748.7555,N,12217.7722,W,1,07,1.6,1.7,M,-25.1,M,,0000*6B
$GPGSA,A,3,23,01,20,32,31,30,16,,,,,,3.0,1.6,2.6*37
$GPRMC,005707.000,A,3748.7555,N,12217.7722,W,1.82,109.74,280112,,,A*7C
$GPVTG,109.74,T,,M,1.82,N,3.4,K,A*0A
$GPGGA,005708.000,3748.7550,N,12217.7715,W,1,07,1.6,2.8,M,-25.1,M,,0000*69
$GPGSA,A,3,23,01,20,32,31,30,16,,,,,,3.0,1.6,2.6*37
$GPRMC,005708.000,A,3748.7550,N,12217.7715,W,1.72,119.50,280112,,,A*7A
$GPVTG,119.50,T,,M,1.72,N,3.2,K,A*04
$GPGGA,005709.000,3748.7543,N,12217.7708,W,1,07,1.6,3.5,M,-25.1,M,,0000*6A
$GPGSA,A,3,23,01,20,32,31,30,16,,,,,,3.0,1.6,2.6*37
$GPGSV,3,1,12,32,82,035,30,20,60,312,27,31,51,050,25,01,43,230,32*75
$GPGSV,3,2,12,24,36,200,,23,34,277,29,30,29,127,39,11,24,214,37*76
$GPGSV,3,3,12,16,12,149,44,14,11,069,24,13,08,263,35,25,03,033,*71
$GPRMC,005709.000,A,3748.7543,N,12217.7708,W,2.70,126.66,280112,,,A*7D
$GPGGA,005710.000,3748.7539,N,12217.7701,W,1,07,1.6,3.8,M,-25.1,M,,0000*6B
$GPGSA,A,3,23,01,20,32,31,30,16,,,,,,3.0,1.6,2.6*37
$GPRMC,005710.000,A,3748.7539,N,12217.7701,W,2.14,144.11,280112,,,A*77
$GPVTG,144.11,T,,M,2.14,N,4.0,K,A*0F
$GPGGA,005711.000,3748.7529,N,12217.7693,W,1,07,1.6,5.7,M,-25.1,M,,0000*68
$GPGSA,A,3,23,01,20,32,31,30,16,,,,,,3.0,1.6,2.6*37
$GPRMC,005711.000,A,3748.7529,N,12217.7693,W,2.29,139.98,280112,,,A*78
$GPVTG,139.98,T,,M,2.29,N,4.2,K,A*08
$GPGGA,005712.000,3748.7527,N,12217.7687,W,1,07,1.6,5.4,M,-25.1,M,,0000*63
$GPGSA,A,3,23,01,20,32,31,30,16,,,,,,3.0,1.6,2.6*37
$GPRMC,005712.000,A,3748.7527,N,12217.7687,W,1.95,122.74,280112,,,A*7C
$GPVTG,122.74,T,,M,1.95,N,3.6,K,A*07
$GPGGA,005713.000,3748.7524,N,12217.7681,W,1,07,1.6,5.7,M,-25.1,M,,0000*64
$GPGSA,A,3,23,01,20,32,31,30,16,,,,,,3.0,1.6,2.6*37
$GPRMC,005713.000,A,3748.7524,N,12217.7681,W,1.62,123.80,280112,,,A*7A
$GPVTG,123.80,T,,M,1.62,N,3.0,K,A*03
$GPGGA,005714.000,3748.7516,N,12217.7675,W,1,07,1.6,6.6,M,-25.1,M,,0000*6B
$GPGSA,A,3,23,01,20,32,31,30,16,,,,,,3.0,1.6,2.6*37
$GPGSV,3,1,12,32,82,035,27,20,60,312,27,31,51,050,24,01,43,230,32*72
$GPGSV,3,2,12,24,36,200,,23,34,277,29,30,29,127,40,11,24,214,36*79
$GPGSV,3,3,12,16,12,149,45,14,11,069,23,13,08,263,32,25,03,033,*70
$GPRMC,005714.000,A,3748.7516,N,12217.7675,W,1.89,138.55,280112,,,A*70
$GPVTG,138.55,T,,M,1.89,N,3.5,K,A*01
$GPGGA,005715.000,3748.7506,N,12217.7668,W,1,07,1.6,8.4,M,-25.1,M,,0000*6B
$GPGSA,A,3,23,01,20,32,31,30,16,,,,,,3.0,1.6,2.6*37
$GPRMC,005715.000,A,3748.7506,N,12217.7668,W,2.08,138.26,280112,,,A*72
$GPVTG,138.26,T,,M,2.08,N,3.9,K,A*03
$GPGGA,005716.000,3748.7497,N,12217.7661,W,1,07,1.6,10.3,M,-25.1,M,,0000*56
$GPGSA,A,3,23,01,20,32,31,30,16,,,,,,3.0,1.6,2.6*37
$GPRMC,005716.000,A,3748.7497,N,12217.7661,W,2.20,140.60,280112,,,A*76
$GPVTG,140.60,T,,M,2.20,N,4.1,K,A*0B
$GPGGA,005717.000,3748.7494,N,12217.7656,W,1,07,1.6,10.1,M,-25.1,M,,0000*52
$GPGSA,A,3,23,01,20,32,31,30,16,,,,,,3.0,1.6,2.6*37
$GPRMC,005717.000,A,3748.7494,N,12217.7656,W,2.12,150.76,280112,,,A*77
$GPVTG,150.76,T,,M,2.12,N,3.9,K,A*03
$GPGGA,005718.000,3748.7494,N,12217.7652,W,1,07,1.6,9.1,M,-25.1,M,,0000*61
$GPGSA,A,3,23,01,20,32,31,30,16,,,,,,3.0,1.6,2.6*37
$GPRMC,005718.000,A,3748.7494,N,12217.7652,W,2.01,129.46,280112,,,A*73
$GPVTG,129.46,T,,M,2.01,N,3.7,K,A*02
$GPGGA,005719.000,3748.7494,N,12217.7647,W,1,07,1.6,8.5,M,-25.1,M,,0000*61
$GPGSA,A,3,23,01,20,32,31,30,16,,,,,,3.0,1.6,2.6*37
$GPGSV,3,1,12,32,82,038,27,20,60,312,28,31,50,050,21,01,43,230,34*72
$GPGSV,3,2,12,24,35,200,,23,34,278,30,30,29,127,34,11,23,214,40*78
$GPGSV,3,3,12,16,12,149,44,14,11,069,17,13,08,263,30,25,03,033,*74
$GPRMC,005719.000,A,3748.7494,N,12217.7647,W,1.89,121.79,280112,,,A*71
$GPVTG,121.79,T,,M,1.89,N,3.5,K,A*07
$GPGGA,005720.000,3748.7497,N,12217.7641,W,1,07,1.6,7.7,M,-25.1,M,,0000*63
$GPGSA,A,3,23,01,20,32,31,30,16,,,,,,3.0,1.6,2.6*37
$GPRMC,005720.000,A,3748.7497,N,12217.7641,W,1.84,122.42,280112,,,A*78
$GPVTG,122.42,T,,M,1.84,N,3.4,K,A*00
$GPGGA,005721.000,3748.7498,N,12217.7638,W,1,07,1.6,6.1,M,-25.1,M,,0000*64
$GPGSA,A,3,23,01,20,32,31,30,16,,,,,,3.0,1.6,2.6*37
$GPRMC,005721.000,A,3748.7498,N,12217.7638,W,1.45,131.58,280112,,,A*7C
$GPVTG,131.58,T,,M,1.45,N,2.7,K,A*06
$GPGGA,005722.000,3748.7496,N,12217.7634,W,1,07,1.6,5.2,M,-25.1,M,,0000*65
$GPGSA,A,3,23,01,20,32,31,30,16,,,,,,3.0,1.6,2.6*37
$GPRMC,005722.000,A,3748.7496,N,12217.7634,W,1.45,120.47,280112,,,A*73
$GPVTG,120.47,T,,M,1.45,N,2.7,K,A*08
$GPGGA,005723.000,3748.7495,N,12217.7631,W,1,07,1.6,3.9,M,-25.1,M,,0000*6F
$GPGSA,A,3,23,01,20,32,31,30,16,,,,,,3.0,1.6,2.6*37
$GPRMC,005723.000,A,3748.7495,N,12217.7631,W,1.65,134.93,280112,,,A*7A
$GPVTG,134.93,T,,M,1.65,N,3.1,K,A*01
$GPGGA,005724.000,3748.7495,N,12217.7628,W,1,07,1.6,2.5,M,-25.1,M,,0000*6D
$GPGSA,A,3,23,01,20,32,31,30,16,,,,,,3.0,1.6,2.6*37
$GPGSV,3,1,12,32,82,038,27,20,60,312,26,31,50,050,22,01,43,230,36*7D
$GPGSV,3,2,12,24,35,200,,23,34,278,29,30,29,127,28,11,23,214,35*7F
$GPGSV,3,3,12,16,12,149,43,14,11,069,17,13,08,263,27,25,03,033,*75
$GPVTG,101.77,T,,M,1.54,N,2.9,K,A*06
$GPGGA,005725.000,3748.7495,N,12217.7622,W,1,07,1.6,1.9,M,-25.1,M,,0000*69
$GPGSA,A,3,23,01,20,32,31,30,16,,,,,,3.0,1.6,2.6*37
$GPRMC,005725.000,A,3748.7495,N,12217.7622,W,1.27,97.50,280112,,,A*4F
$GPVTG,97.50,T,,M,1.27,N,2.3,K,A*33
$GPGGA,005726.000,3748.7487,N,12217.7618,W,1,07,1.6,2.5,M,-25.1,M,,0000*6F
$GPGSA,A,3,23,01,20,32,31,30,16,,,,,,3.0,1.6,2.6*37
$GPRMC,005726.000,A,3748.7487,N,12217.7618,W,1.27,134.46,280112,,,A*79
$GPVTG,134.46,T,,M,1.27,N,2.4,K,A*0B
$GPGGA,005727.000,3748.7486,N,12217.7614,W,1,07,1.6,1.7,M,-25.1,M,,0000*62
$GPGSA,A,3,23,01,20,32,31,30,16,,,,,,3.0,1.6,2.6*37
$GPRMC,005727.000,A,3748.7486,N,12217.7614,W,1.36,139.82,280112,,,A*70
$GPVTG,139.82,T,,M,1.36,N,2.5,K,A*0F
$GPGGA,005728.000,3748.7485,N,12217.7612,W,1,07,1.6,0.4,M,-25.1,M,,0000*6A
$GPGSA,A,3,23,01,20,32,31,30,16,,,,,,3.0,1.6,2.6*37
$GPRMC,005728.000,A,3748.7485,N,12217.7612,W,1.60,114.81,280112,,,A*75
$GPVTG,114.81,T,,M,1.60,N,3.0,K,A*04
$GPGGA,005729.000,3748.7483,N,12217.7607,W,1,07,1.6,-0.1,M,-25.1,M,,0000*41
$GPGSA,A,3,23,01,20,32,31,30,16,,,,,,3.0,1.6,2.6*37
$GPGSV,3,1,12,32,82,038,28,20,60,312,27,31,50,050,22,01,43,230,33*76
$GPGSV,3,2,12,24,35,200,,23,34,278,29,30,29,127,31,11,23,214,32*70
$GPGSV,3,3,12,16,12,149,41,14,11,069,18,13,08,263,34,25,03,033,*7A
$GPRMC,005729.000,A,3748.7483,N,12217.7607,W,1.73,113.10,280112,,,A*7B
$GPVTG,113.10,T,,M,1.73,N,3.2,K,A*0B
$GPGGA,005730.000,3748.7484,N,12217.7605,W,1,07,1.6,-2.6,M,-25.1,M,,0000*49
$GPGSA,A,3,23,01,20,32,31,30,16,,,,,,3.0,1.6,2.6*37
$GPRMC,005730.000,A,3748.7484,N,12217.7605,W,1.32,100.70,280112,,,A*77
$GPVTG,100.70,T,,M,1.32,N,2.4,K,A*0D
$GPGGA,005731.000,3748.7485,N,12217.7598,W,1,07,1.6,-2.6,M,-25.1,M,,0000*4E
$GPGSA,A,3,23,01,20,32,31,30,16,,,,,,3.0,1.6,2.6*37
$GPRMC,005731.000,A,3748.7485,N,12217.7598,W,1.58,90.67,280112,,,A*42
$GPVTG,90.67,T,,M,1.58,N,2.9,K,A*32
$GPGGA,005732.000,3748.7480,N,12217.7592,W,1,07,1.6,-1.5,M,-25.1,M,,0000*42
$GPGSA,A,3,23,01,20,32,31,30,16,,,,,,3.0,1.6,2.6*37
$GPRMC,005732.000,A,3748.7480,N,12217.7592,W,1.03,106.18,280112,,,A*76
$GPVTG,106.18,T,,M,1.03,N,1.9,K,A*09
$GPGGA,005733.000,3748.7479,N,12217.7580,W,1,07,1.6,-1.4,M,-25.1,M,,0000*47
$GPGSA,A,3,23,01,20,32,31,30,16,,,,,,3.0,1.6,2.6*37
$GPRMC,005733.000,A,3748.7479,N,12217.7580,W,1.83,98.52,280112,,,A*42
$GPVTG,98.52,T,,M,1.83,N,3.4,K,A*36
$GPGGA,005734.000,3748.7470,N,12217.7567,W,1,07,1.6,1.1,M,-25.1,M,,0000*68
$GPGSA,A,3,23,01,20,32,31,30,16,,,,,,3.0,1.6,2.6*37
$GPGSV,3,1,12,32,82,038,27,20,60,312,22,31,50,050,22,01,43,230,28*76
$GPGSV,3,2,12,24,35,200,,23,34,278,27,30,29,127,26,11,23,214,35*7F
$GPGSV,3,3,12,16,12,149,37,14,11,069,18,13,08,263,27,25,03,033,*79
$GPRMC,005734.000,A,3748.7470,N,12217.7567,W,1.78,113.95,280112,,,A*78
$GPVTG,113.95,T,,M,1.78,N,3.3,K,A*0C
$GPGGA,005735.000,3748.7464,N,12217.7559,W,1,07,1.6,1.7,M,-25.1,M,,0000*67
$GPGSA,A,3,23,01,20,32,31,30,16,,,,,,3.0,1.6,2.6*37
$GPRMC,005735.000,A,3748.7464,N,12217.7559,W,1.50,136.03,280112,,,A*73
$GPVTG,136.03,T,,M,1.50,N,2.8,K,A*04
$GPGGA,005736.000,3748.7458,N,12217.7555,W,1,07,1.6,2.1,M,-25.1,M,,0000*62
$GPGSA,A,3,23,01,20,32,31,30,16,,,,,,3.0,1.6,2.6*37
$GPRMC,005736.000,A,3748.7458,N,12217.7555,W,1.30,139.53,280112,,,A*7F
$GPVTG,139.53,T,,M,1.30,N,2.4,K,A*04
$GPGGA,005737.000,3748.7456,N,12217.7552,W,1,07,1.6,1.5,M,-25.1,M,,0000*6D
$GPGSA,A,3,23,01,20,32,31,30,16,,,,,,3.0,1.6,2.6*37
$GPRMC,005737.000,A,3748.7456,N,12217.7552,W,1.51,142.98,280112,,,A*7B
$GPVTG,142.98,T,,M,1.51,N,2.8,K,A*04
$GPGGA,005738.000,3748.7453,N,12217.7549,W,1,07,1.6,1.4,M,-25.1,M,,0000*6C
$GPGSA,A,3,23,01,20,32,31,30,16,,,,,,3.0,1.6,2.6*37
$GPRMC,005738.000,A,3748.7453,N,12217.7549,W,1.48,120.30,280112,,,A*75
$GPVTG,120.30,T,,M,1.48,N,2.7,K,A*05
$GPGGA,005739.000,3748.7448,N,12217.7544,W,1,07,1.6,1.5,M,-25.1,M,,0000*6B
