$ADVER,3080,2.3
$GPRMC,204958.679,A,3748.7986,N,12217.8629,W,0.02,185.13,050612,,,A*70
$GPRMC,204959.679,A,3748.7986,N,12217.8629,W,0.08,31.47,050612,,,A*44
$GPRMC,205000.679,A,3748.7986,N,12217.8629,W,0.09,31.15,050612,,,A*46
$GPRMC,205001.000,A,3748.7986,N,12217.8629,W,0.03,102.11,050612,,,A*70
$GPRMC,205002.000,A,3748.7985,N,12217.8629,W,0.05,49.26,050612,,,A*4C
$GPRMC,205003.000,A,3748.7985,N,12217.8629,W,0.11,27.21,050612,,,A*47
$GPRMC,205004.000,A,3748.8005,N,12217.8622,W,0.10,3.74,050612,,,A*72
$GPRMC,205005.000,A,3748.8004,N,12217.8621,W,0.53,121.30,050612,,,A*77
$GPRMC,205006.000,A,3748.8004,N,12217.8619,W,0.27,53.23,050612,,,A*4A
$GPRMC,205007.000,A,3748.8001,N,12217.8620,W,0.07,204.25,050612,,,A*70
$GPRMC,205008.000,A,3748.8001,N,12217.8620,W,0.14,338.35,050612,,,A*72
$GPRMC,205009.000,A,3748.8005,N,12217.8621,W,0.71,328.15,050612,,,A*76
$GPRMC,205010.000,A,3748.8005,N,12217.8619,W,0.40,341.54,050612,,,A*7D
$GPRMC,205011.000,A,3748.8001,N,12217.8620,W,0.44,164.86,050612,,,A*7C
$GPRMC,205012.000,A,3748.7995,N,12217.8622,W,0.50,181.57,050612,,,A*74
$GPRMC,205013.000,A,3748.7990,N,12217.8623,W,0.38,203.16,050612,,,A*73
$GPRMC,205014.000,A,3748.7988,N,12217.8622,W,0.13,1.33,050612,,,A*72
$GPRMC,205015.000,A,3748.7983,N,12217.8624,W,0.18,4.42,050612,,,A*76
$GPRMC,205016.000,A,3748.7980,N,12217.8624,W,0.18,56.22,050612,,,A*47
$GPRMC,205017.000,A,3748.7976,N,12217.8625,W,0.06,229.32,050612,,,A*7A
$GPRMC,205018.000,A,3748.7973,N,12217.8625,W,0.39,191.54,050612,,,A*7C
$GPRMC,205019.000,A,3748.7970,N,12217.8626,W,0.34,38.19,050612,,,A*4B
$GPRMC,205020.000,A,3748.7967,N,12217.8626,W,0.16,173.95,050612,,,A*7D
$GPRMC,205021.000,A,3748.7970,N,12217.8624,W,0.33,198.74,050612,,,A*75
$GPRMC,205022.000,A,3748.7970,N,12217.8625,W,0.51,205.05,050612,,,A*72
$GPRMC,205023.000,A,3748.7973,N,12217.8624,W,0.13,144.22,050612,,,A*74
$GPRMC,205024.000,A,3748.7978,N,12217.8622,W,1.01,24.88,050612,,,A*4B
$GPRMC,205025.000,A,3748.7981,N,12217.8620,W,0.85,14.88,050612,,,A*40
$GPRMC,205026.000,A,3748.7980,N,12217.8620,W,0.38,33.74,050612,,,A*42
$GPRMC,205027.000,A,3748.7975,N,12217.8622,W,0.40,201.87,050612,,,A*7B
$GPRMC,205028.000,A,3748.7974,N,12217.8622,W,0.11,67.38,050612,,,A*47
$GPRMC,205029.000,A,3748.7975,N,12217.8622,W,0.31,38.76,050612,,,A*45
$GPRMC,205030.000,A,3748.7976,N,12217.8621,W,0.31,34.82,050612,,,A*4A
$GPRMC,205031.000,A,3748.7977,N,12217.8620,W,0.32,36.61,050612,,,A*47
$GPRMC,205032.000,A,3748.7983,N,12217.8618,W,0.26,11.91,050612,,,A*4B
$GPRMC,205033.000,A,3748.7987,N,12217.8616,W,0.42,21.05,050612,,,A*4C
$GPRMC,205034.000,A,3748.7989,N,12217.8614,W,0.45,34.37,050612,,,A*45
$GPRMC,205035.000,A,3748.7991,N,12217.8612,W,0.26,28.92,050612,,,A*4C
$GPRMC,205036.000,A,3748.7994,N,12217.8613,W,0.53,343.24,050612,,,A*7A
$GPRMC,205037.000,A,3748.7998,N,12217.8616,W,1.15,352.85,050612,,,A*7A
$GPRMC,205038.000,A,3748.8002,N,12217.8614,W,0.97,15.53,050612,,,A*42
$GPRMC,205039.000,A,3748.7997,N,12217.8611,W,0.20,168.03,050612,,,A*7E
$GPRMC,205040.000,A,3748.7993,N,12217.8607,W,0.32,46.79,050612,,,A*40
$GPRMC,205041.000,A,3748.7996,N,12217.8607,W,0.84,357.38,050612,,,A*7F
$GPRMC,205042.000,A,3748.7997,N,12217.8609,W,0.48,348.18,050612,,,A*7F
$GPRMC,205043.000,A,3748.7999,N,12217.8613,W,1.35,303.59,050612,,,A*7A
$GPRMC,205044.000,A,3748.7998,N,12217.8620,W,1.42,277.21,050612,,,A*71
$GPRMC,205045.000,A,3748.7998,N,12217.8622,W,0.03,97.81,050612,,,A*40
$GPRMC,205046.000,A,3748.8001,N,12217.8619,W,0.78,47.33,050612,,,A*45
$GPRMC,205047.000,A,3748.8004,N,12217.8619,W,0.21,3.37,050612,,,A*79
$GPRMC,205048.000,A,3748.8007,N,12217.8621,W,0.67,7.58,050612,,,A*71
$GPRMC,205049.000,A,3748.8001,N,12217.8621,W,1.67,152.01,050612,,,A*7A
$GPRMC,205050.000,A,3748.7996,N,12217.8617,W,0.94,107.11,050612,,,A*73
$GPRMC,205051.000,A,3748.7994,N,12217.8611,W,0.67,48.69,050612,,,A*4F
$GPRMC,205052.000,A,3748.7993,N,12217.8610,W,0.20,98.47,050612,,,A*48
$GPRMC,205053.000,A,3748.7985,N,12217.8611,W,0.79,200.27,050612,,,A*76
$GPRMC,205054.000,A,3748.7986,N,12217.8612,W,0.23,300.43,050612,,,A*7D
$GPRMC,205055.000,A,3748.7984,N,12217.8615,W,0.21,34.94,050612,,,A*45
$GPRMC,205056.000,A,3748.7989,N,12217.8617,W,0.66,6.42,050612,,,A*70
$GPRMC,205057.000,A,3748.7989,N,12217.8615,W,0.37,59.63,050612,,,A*4E
$GPRMC,205058.000,A,3748.7985,N,12217.8615,W,0.08,2.13,050612,,,A*78
$GPRMC,205059.000,A,3748.7979,N,12217.8617,W,0.02,39.18,050612,,,A*41
$GPRMC,205100.000,A,3748.7976,N,12217.8618,W,0.29,135.06,050612,,,A*77
$GPRMC,205101.000,A,3748.7976,N,12217.8617,W,0.03,61.28,050612,,,A*4D
$GPRMC,205102.000,A,3748.7974,N,12217.8619,W,0.12,155.46,050612,,,A*7C
$GPRMC,205103.000,A,3748.7976,N,12217.8619,W,0.53,48.63,050612,,,A*40
$GPRMC,205104.000,A,3748.7979,N,12217.8617,W,0.55,70.05,050612,,,A*4B
$GPRMC,205105.000,A,3748.7983,N,12217.8615,W,0.82,79.77,050612,,,A*4B
$GPRMC,205106.000,A,3748.7979,N,12217.8606,W,2.15,109.67,050612,,,A*74
$GPRMC,205107.000,A,3748.7974,N,12217.8599,W,2.23,122.34,050612,,,A*77
$GPRMC,205108.000,A,3748.7970,N,12217.8591,W,1.61,105.71,050612,,,A*75
$GPRMC,205109.000,A,3748.7965,N,12217.8586,W,1.40,125.49,050612,,,A*7C
$GPRMC,205110.000,A,3748.7961,N,12217.8584,W,1.77,149.66,050612,,,A*71
$GPRMC,205111.000,A,3748.7954,N,12217.8579,W,1.80,140.16,050612,,,A*72
$GPRMC,205112.000,A,3748.7951,N,12217.8569,W,2.02,106.38,050612,,,A*72
$GPRMC,205113.000,A,3748.7942,N,12217.8558,W,2.35,115.82,050612,,,A*74
$GPRMC,205114.000,A,3748.7937,N,12217.8553,W,2.23,121.88,050612,,,A*70
$GPRMC,205115.000,A,3748.7935,N,12217.8546,W,2.33,114.79,050612,,,A*7E
$GPRMC,205116.000,A,3748.7937,N,12217.8539,W,2.27,111.50,050612,,,A*7C
$GPRMC,205117.000,A,3748.7932,N,12217.8533,W,2.19,123.52,050612,,,A*7C
$GPRMC,205118.000,A,3748.7929,N,12217.8528,W,2.19,112.94,050612,,,A*7B
$GPRMC,205119.000,A,3748.7926,N,12217.8517,W,2.37,119.40,050612,,,A*77
$GPRMC,205120.000,A,3748.7924,N,12217.8511,W,2.25,118.04,050612,,,A*7B
$GPRMC,205121.000,A,3748.7920,N,12217.8505,W,2.22,127.08,050612,,,A*7C
$GPRMC,205122.000,A,3748.7915,N,12217.8497,W,2.84,136.54,050612,,,A*76
$GPRMC,205123.000,A,3748.7911,N,12217.8488,W,2.19,124.06,050612,,,A*7D
$GPRMC,205124.000,A,3748.7910,N,12217.8477,W,2.07,95.93,050612,,,A*43
$GPRMC,205125.000,A,3748.7909,N,12217.8467,W,2.33,90.35,050612,,,A*45
$GPRMC,205126.000,A,3748.7910,N,12217.8462,W,1.68,88.55,050612,,,A*49
$GPRMC,205127.000,A,3748.7908,N,12217.8454,W,1.86,109.06,050612,,,A*7A
$GPRMC,205128.000,A,3748.7905,N,12217.8448,W,1.94,114.10,050612,,,A*7D
$GPRMC,205129.000,A,3748.7902,N,12217.8442,W,2.04,110.08,050612,,,A*76
$GPRMC,205130.000,A,3748.7898,N,12217.8433,W,1.62,84.47,050612,,,A*4E
$GPRMC,205131.000,A,3748.7895,N,12217.8426,W,1.22,86.45,050612,,,A*42
$GPRMC,205132.000,A,3748.7886,N,12217.8418,W,1.95,115.39,050612,,,A*72
$GPRMC,205133.000,A,3748.7882,N,12217.8411,W,1.96,115.98,050612,,,A*76
$GPRMC,205134.000,A,3748.7879,N,12217.8403,W,1.95,99.94,050612,,,A*4C
$GPRMC,205135.000,A,3748.7878,N,12217.8396,W,1.54,84.94,050612,,,A*46
$GPRMC,205136.000,A,3748.7880,N,12217.8393,W,1.74,107.60,050612,,,A*74
$GPRMC,205137.000,A,3748.7878,N,12217.8387,W,2.27,120.84,050612,,,A*7D
$GPRMC,205138.000,A,3748.7872,N,12217.8374,W,2.41,127.46,050612,,,A*7D
$GPRMC,205139.000,A,3748.7870,N,12217.8364,W,2.26,114.92,050612,,,A*77
$GPRMC,205140.000,A,3748.7863,N,12217.8355,W,2.40,110.68,050612,,,A*78
$GPRMC,205141.000,A,3748.7858,N,12217.8347,W,1.99,115.93,050612,,,A*74
$GPRMC,205142.000,A,3748.7852,N,12217.8335,W,2.61,112.40,050612,,,A*75
$GPRMC,205143.000,A,3748.7842,N,12217.8323,W,3.00,120.10,050612,,,A*70
$GPRMC,205144.000,A,3748.7833,N,12217.8312,W,3.77,126.38,050612,,,A*7F
$GPRMC,205145.000,A,3748.7827,N,12217.8299,W,3.32,112.00,050612,,,A*74
$GPRMC,205146.000,A,3748.7823,N,12217.8287,W,2.61,105.61,050612,,,A*7A
$GPRMC,205147.000,A,3748.7822,N,12217.8280,W,2.18,111.93,050612,,,A*7B
$GPRMC,205148.000,A,3748.7820,N,12217.8272,W,2.62,122.46,050612,,,A*7E
$GPRMC,205149.000,A,3748.7817,N,12217.8266,W,2.65,123.76,050612,,,A*7B
$GPRMC,205150.000,A,3748.7813,N,12217.8261,W,3.15,135.97,050612,,,A*7E
$GPRMC,205151.000,A,3748.7806,N,12217.8253,W,2.82,130.57,050612,,,A*7C
$GPRMC,205152.000,A,3748.7801,N,12217.8244,W,2.05,105.16,050612,,,A*72
$GPRMC,205153.000,A,3748.7801,N,12217.8238,W,1.50,91.76,050612,,,A*41
$GPRMC,205154.000,A,3748.7800,N,12217.8232,W,1.49,86.76,050612,,,A*43
$GPRMC,205155.000,A,3748.7797,N,12217.8225,W,1.70,111.64,050612,,,A*73
$GPRMC,205156.000,A,3748.7797,N,12217.8221,W,2.29,120.43,050612,,,A*7C
$GPRMC,205157.000,A,3748.7795,N,12217.8218,W,1.66,98.62,050612,,,A*4C
$GPRMC,205158.000,A,3748.7794,N,12217.8215,W,1.46,91.06,050612,,,A*46
$GPRMC,205159.000,A,3748.7798,N,12217.8213,W,1.09,82.14,050612,,,A*47
$GPRMC,205200.000,A,3748.7798,N,12217.8212,W,1.57,98.15,050612,,,A*48
$GPRMC,205201.000,A,3748.7796,N,12217.8205,W,1.55,85.18,050612,,,A*42
$GPRMC,205202.000,A,3748.7791,N,12217.8195,W,2.09,89.86,050612,,,A*4D
$GPRMC,205203.000,A,3748.7782,N,12217.8184,W,1.95,100.54,050612,,,A*77
$GPRMC,205204.000,A,3748.7777,N,12217.8173,W,2.15,115.75,050612,,,A*7E
$GPRMC,205205.000,A,3748.7776,N,12217.8164,W,2.02,98.97,050612,,,A*46
$GPRMC,205206.000,A,3748.7772,N,12217.8159,W,1.40,94.92,050612,,,A*43
$GPRMC,205207.000,A,3748.7768,N,12217.8154,W,1.48,112.50,050612,,,A*7D
$GPRMC,205208.000,A,3748.7761,N,12217.8146,W,2.06,127.56,050612,,,A*71
$GPRMC,205209.000,A,3748.7758,N,12217.8137,W,1.81,115.77,050612,,,A*72
$GPRMC,205210.000,A,3748.7755,N,12217.8127,W,2.21,117.23,050612,,,A*7C
$GPRMC,205211.000,A,3748.7749,N,12217.8120,W,2.55,131.29,050612,,,A*7A
$GPRMC,205212.000,A,3748.7744,N,12217.8112,W,2.12,135.77,050612,,,A*79
$GPRMC,205213.000,A,3748.7741,N,12217.8107,W,1.55,109.28,050612,,,A*7C
$GPRMC,205214.000,A,3748.7740,N,12217.8100,W,1.54,102.93,050612,,,A*77
$GPRMC,205215.000,A,3748.7737,N,12217.8094,W,1.31,91.17,050612,,,A*4E
$GPRMC,205216.000,A,3748.7730,N,12217.8086,W,2.13,107.56,050612,,,A*71
$GPRMC,205217.000,A,3748.7723,N,12217.8075,W,2.25,124.05,050612,,,A*7C
$GPRMC,205218.000,A,3748.7717,N,12217.8063,W,2.43,123.84,050612,,,A*7D
$GPRMC,205219.000,A,3748.7712,N,12217.8053,W,2.46,127.43,050612,,,A*70
$GPRMC,205220.000,A,3748.7706,N,12217.8045,W,2.28,126.89,050612,,,A*77
$GPRMC,205221.000,A,3748.7703,N,12217.8039,W,1.76,111.44,050612,,,A*75
$GPRMC,205222.000,A,3748.7700,N,12217.8033,W,1.96,112.21,050612,,,A*71
$GPRMC,205223.000,A,3748.7692,N,12217.8023,W,1.72,112.21,050612,,,A*71
$GPRMC,205224.000,A,3748.7686,N,12217.8013,W,1.76,91.48,050612,,,A*41
$GPRMC,205225.000,A,3748.7682,N,12217.8001,W,2.08,101.91,050612,,,A*71
$GPRMC,205226.000,A,3748.7681,N,12217.7996,W,1.75,100.90,050612,,,A*70
$GPRMC,205227.000,A,3748.7679,N,12217.7989,W,1.70,105.18,050612,,,A*78
$GPRMC,205228.000,A,3748.7679,N,12217.7984,W,1.83,115.01,050612,,,A*7F
$GPRMC,205229.000,A,3748.7677,N,12217.7978,W,1.87,119.96,050612,,,A*75
$GPRMC,205230.000,A,3748.7674,N,12217.7971,W,2.08,121.81,050612,,,A*7E
$GPRMC,205231.000,A,3748.7670,N,12217.7960,W,3.01,124.40,050612,,,A*7B
$GPRMC,205232.000,A,3748.7671,N,12217.7951,W,2.65,110.03,050612,,,A*78
$GPRMC,205233.000,A,3748.7665,N,12217.7939,W,2.47,114.32,050612,,,A*74
$GPRMC,205234.000,A,3748.7659,N,12217.7929,W,2.78,122.28,050612,,,A*7F
$GPRMC,205235.000,A,3748.7651,N,12217.7918,W,2.77,124.07,050612,,,A*70
$GPRMC,205236.000,A,3748.7643,N,12217.7908,W,2.53,114.55,050612,,,A*73
$GPRMC,205237.000,A,3748.7640,N,12217.7902,W,2.33,113.98,050612,,,A*7B
$GPRMC,205238.000,A,3748.7636,N,12217.7895,W,2.14,127.69,050612,,,A*76
$GPRMC,205239.000,A,3748.7634,N,12217.7888,W,1.98,104.33,050612,,,A*70
$GPRMC,205240.000,A,3748.7630,N,12217.7880,W,2.35,104.83,050612,,,A*7D
$GPRMC,205241.000,A,3748.7623,N,12217.7869,W,2.83,109.26,050612,,,A*76
$GPRMC,205242.000,A,3748.7618,N,12217.7862,W,1.95,105.43,050612,,,A*7D
$GPRMC,205243.000,A,3748.7612,N,12217.7853,W,2.44,120.38,050612,,,A*70
$GPRMC,205244.000,A,3748.7608,N,12217.7846,W,2.40,126.90,050612,,,A*78
$GPRMC,205245.000,A,3748.7602,N,12217.7837,W,2.46,122.71,050612,,,A*78
$GPRMC,205246.000,A,3748.7596,N,12217.7827,W,2.38,108.67,050612,,,A*72
$GPRMC,205247.000,A,3748.7590,N,12217.7818,W,2.51,110.50,050612,,,A*7B
$GPRMC,205248.000,A,3748.7589,N,12217.7808,W,2.07,89.85,050612,,,A*47
$GPRMC,205249.000,A,3748.7582,N,12217.7798,W,1.71,89.32,050612,,,A*45
$GPRMC,205250.000,A,3748.7576,N,12217.7787,W,2.20,98.57,050612,,,A*4C
$GPRMC,205251.000,A,3748.7571,N,12217.7777,W,2.56,112.37,050612,,,A*71
$GPRMC,205252.000,A,3748.7563,N,12217.7766,W,2.60,110.33,050612,,,A*72
$GPRMC,205253.000,A,3748.7564,N,12217.7756,W,2.32,107.36,050612,,,A*73
$GPRMC,205254.000,A,3748.7562,N,12217.7748,W,2.21,111.02,050612,,,A*7F
$GPRMC,205255.000,A,3748.7560,N,12217.7740,W,2.07,113.93,050612,,,A*7A
$GPRMC,205256.000,A,3748.7554,N,12217.7729,W,2.97,130.60,050612,,,A*75
$GPRMC,205257.000,A,3748.7547,N,12217.7715,W,2.72,127.60,050612,,,A*74
$GPRMC,205258.000,A,3748.7544,N,12217.7713,W,2.43,115.83,050612,,,A*70
$GPRMC,205259.000,A,3748.7543,N,12217.7705,W,2.30,112.13,050612,,,A*7B
$GPRMC,205300.000,A,3748.7543,N,12217.7700,W,2.09,113.02,050612,,,A*78
$GPRMC,205301.000,A,3748.7541,N,12217.7692,W,2.35,116.37,050612,,,A*7D
$GPRMC,205302.000,A,3748.7536,N,12217.7683,W,2.29,121.15,050612,,,A*77
$GPRMC,205303.000,A,3748.7532,N,12217.7675,W,2.22,116.02,050612,,,A*72
$GPRMC,205304.000,A,3748.7530,N,12217.7667,W,2.03,110.34,050612,,,A*74
$GPRMC,205305.000,A,3748.7526,N,12217.7658,W,2.60,113.75,050612,,,A*7D
$GPRMC,205306.000,A,3748.7522,N,12217.7649,W,2.47,110.83,050612,,,A*75
$GPRMC,205307.000,A,3748.7518,N,12217.7640,W,2.44,107.70,050612,,,A*7D
$GPRMC,205308.000,A,3748.7516,N,12217.7631,W,2.13,115.49,050612,,,A*71
$GPRMC,205309.000,A,3748.7510,N,12217.7622,W,2.67,130.65,050612,,,A*7E
$GPRMC,205310.000,A,3748.7503,N,12217.7611,W,2.52,122.37,050612,,,A*76
$GPRMC,205311.000,A,3748.7497,N,12217.7605,W,2.26,123.16,050612,,,A*7F
$GPRMC,205312.000,A,3748.7492,N,12217.7597,W,2.34,123.58,050612,,,A*78
$GPRMC,205313.000,A,3748.7487,N,12217.7589,W,2.25,116.01,050612,,,A*78
$GPRMC,205314.000,A,3748.7484,N,12217.7581,W,2.16,106.87,050612,,,A*7B
$GPRMC,205315.000,A,3748.7480,N,12217.7579,W,2.57,115.08,050612,,,A*79
$GPRMC,205316.000,A,3748.7474,N,12217.7564,W,2.80,116.01,050612,,,A*7D
$GPRMC,205317.000,A,3748.7467,N,12217.7557,W,2.43,116.46,050612,,,A*72
$GPRMC,205318.000,A,3748.7463,N,12217.7546,W,2.12,114.65,050612,,,A*7E
$GPRMC,205319.000,A,3748.7461,N,12217.7539,W,2.18,107.02,050612,,,A*7C
$GPRMC,205320.000,A,3748.7459,N,12217.7530,W,2.15,94.05,050612,,,A*45
$GPRMC,205321.000,A,3748.7456,N,12217.7519,W,2.39,95.67,050612,,,A*4B
$GPRMC,205322.000,A,3748.7453,N,12217.7512,W,2.32,96.40,050612,,,A*4B
$GPRMC,205323.000,A,3748.7449,N,12217.7508,W,2.12,107.62,050612,,,A*71
$GPRMC,205324.000,A,3748.7444,N,12217.7500,W,2.64,117.84,050612,,,A*7B
$GPRMC,205325.000,A,3748.7442,N,12217.7492,W,2.47,109.78,050612,,,A*7B
$GPRMC,205326.000,A,3748.7438,N,12217.7483,W,2.63,113.48,050612,,,A*7B
$GPRMC,205327.000,A,3748.7436,N,12217.7476,W,2.19,108.82,050612,,,A*7F
$GPRMC,205328.000,A,3748.7434,N,12217.7471,W,2.10,112.78,050612,,,A*72
$GPRMC,205329.000,A,3748.7435,N,12217.7463,W,2.51,109.92,050612,,,A*7A
$GPRMC,205330.000,A,3748.7431,N,12217.7452,W,2.23,115.39,050612,,,A*7D
$GPRMC,205331.000,A,3748.7430,N,12217.7446,W,2.57,109.78,050612,,,A*73
$GPRMC,205332.000,A,3748.7425,N,12217.7434,W,2.02,104.91,050612,,,A*7B
$GPRMC,205333.000,A,3748.7419,N,12217.7420,W,2.37,132.48,050612,,,A*77
$GPRMC,205334.000,A,3748.7418,N,12217.7415,W,1.34,94.20,050612,,,A*44
$GPRMC,205335.000,A,3748.7418,N,12217.7409,W,1.36,91.71,050612,,,A*4B
$GPRMC,205336.000,A,3748.7412,N,12217.7403,W,1.55,99.22,050612,,,A*43
$GPRMC,205337.000,A,3748.7408,N,12217.7397,W,1.44,85.84,050612,,,A*42
$GPRMC,205338.000,A,3748.7406,N,12217.7388,W,1.62,57.27,050612,,,A*4F
$GPRMC,205339.000,A,3748.7409,N,12217.7385,W,1.56,58.24,050612,,,A*47
$GPRMC,205340.000,A,3748.7408,N,12217.7379,W,1.47,80.64,050612,,,A*4A
$GPRMC,205341.000,A,3748.7403,N,12217.7370,W,1.97,88.02,050612,,,A*4C
$GPRMC,205342.000,A,3748.7399,N,12217.7363,W,1.45,88.71,050612,,,A*42
$GPRMC,205343.000,A,3748.7394,N,12217.7357,W,1.77,111.94,050612,,,A*72
$GPRMC,205344.000,A,3748.7389,N,12217.7353,W,1.62,105.33,050612,,,A*71
$GPRMC,205345.000,A,3748.7387,N,12217.7349,W,0.93,89.72,050612,,,A*4A
$GPRMC,205346.000,A,3748.7384,N,12217.7341,W,2.04,61.95,050612,,,A*41
$GPRMC,205347.000,A,3748.7385,N,12217.7331,W,1.85,62.31,050612,,,A*41
$GPRMC,205348.000,A,3748.7383,N,12217.7324,W,1.57,67.84,050612,,,A*48
$GPRMC,205349.000,A,3748.7378,N,12217.7314,W,2.03,91.40,050612,,,A*4D
$GPRMC,205350.000,A,3748.7373,N,12217.7308,W,1.80,82.98,050612,,,A*4C
$GPRMC,205351.000,A,3748.7367,N,12217.7300,W,1.83,104.69,050612,,,A*72
$GPRMC,205352.000,A,3748.7360,N,12217.7292,W,1.77,105.22,050612,,,A*79
$GPRMC,205353.000,A,3748.7353,N,12217.7283,W,1.91,114.57,050612,,,A*72
$GPRMC,205354.000,A,3748.7348,N,12217.7278,W,2.52,134.31,050612,,,A*75
$GPRMC,205355.000,A,3748.7343,N,12217.7271,W,1.98,121.17,050612,,,A*73
$GPRMC,205356.000,A,3748.7334,N,12217.7262,W,2.01,106.90,050612,,,A*7B
$GPRMC,205357.000,A,3748.7329,N,12217.7250,W,1.89,85.78,050612,,,A*48
$GPRMC,205358.000,A,3748.7319,N,12217.7240,W,2.00,104.20,050612,,,A*72
$GPRMC,205359.000,A,3748.7312,N,12217.7231,W,2.38,121.03,050612,,,D*76
$GPRMC,205400.000,A,3748.7305,N,12217.7218,W,2.24,112.26,050612,,,D*7A
$GPRMC,205401.000,A,3748.7300,N,12217.7207,W,2.10,107.09,050612,,,D*7E
$GPRMC,205402.000,A,3748.7292,N,12217.7198,W,1.90,120.70,050612,,,D*72
$GPRMC,205403.000,A,3748.7282,N,12217.7188,W,2.46,117.95,050612,,,D*74
$GPRMC,205404.000,A,3748.7276,N,12217.7178,W,2.79,113.84,050612,,,D*7F
$GPRMC,205405.000,A,3748.7271,N,12217.7169,W,2.52,94.74,050612,,,D*41
$GPRMC,205406.000,A,3748.7271,N,12217.7157,W,2.21,67.09,050612,,,D*4D
$GPRMC,205407.000,A,3748.7284,N,12217.7149,W,2.49,42.62,050612,,,D*4D
$GPRMC,205408.000,A,3748.7295,N,12217.7141,W,2.58,15.21,050612,,,D*4F
$GPRMC,205409.000,A,3748.7300,N,12217.7131,W,2.16,19.90,050612,,,D*48
$GPRMC,205410.000,A,3748.7300,N,12217.7123,W,1.81,22.52,050612,,,D*48
$GPRMC,205411.000,A,3748.7308,N,12217.7117,W,2.59,23.86,050612,,,D*48
$GPRMC,205412.000,A,3748.7316,N,12217.7111,W,2.41,22.43,050612,,,D*43
$GPRMC,205413.000,A,3748.7324,N,12217.7106,W,2.44,6.25,050612,,,D*76
$GPRMC,205414.000,A,3748.7331,N,12217.7101,W,2.61,359.18,050612,,,D*72
$GPRMC,205415.000,A,3748.7338,N,12217.7095,W,2.69,14.69,050612,,,D*42
$GPRMC,205416.000,A,3748.7343,N,12217.7087,W,2.72,20.39,050612,,,D*46
$GPRMC,205417.000,A,3748.7348,N,12217.7077,W,3.19,14.83,050612,,,D*49
$GPRMC,205418.000,A,3748.7356,N,12217.7068,W,2.90,13.99,050612,,,D*4B
$GPRMC,205419.000,A,3748.7363,N,12217.7060,W,3.01,16.49,050612,,,D*45
$GPRMC,205420.000,A,3748.7371,N,12217.7052,W,2.56,18.41,050612,,,D*48
$GPRMC,205421.000,A,3748.7380,N,12217.7045,W,3.02,20.86,050612,,,D*41
$GPRMC,205422.000,A,3748.7381,N,12217.7034,W,2.29,36.24,050612,,,D*42
$GPRMC,205423.000,A,3748.7377,N,12217.7028,W,1.60,32.89,050612,,,A*4F
$GPRMC,205424.000,A,3748.7380,N,12217.7024,W,1.10,24.51,050612,,,D*4C
$GPRMC,205425.000,A,3748.7376,N,12217.7020,W,0.56,131.26,050612,,,D*76
$GPRMC,205426.000,A,3748.7370,N,12217.7019,W,0.49,350.65,050612,,,D*75
$GPRMC,205427.000,A,3748.7371,N,12217.7020,W,0.10,12.74,050612,,,D*46
$GPRMC,205428.000,A,3748.7375,N,12217.7022,W,0.11,15.38,050612,,,D*41
$GPRMC,205429.000,A,3748.7374,N,12217.7023,W,0.37,156.50,050612,,,D*7C
$GPRMC,205430.000,A,3748.7367,N,12217.7019,W,0.83,125.02,050612,,,D*73
$GPRMC,205431.000,A,3748.7365,N,12217.7018,W,1.29,130.45,050612,,,D*77
$GPRMC,205432.000,A,3748.7366,N,12217.7018,W,0.95,177.13,050612,,,D*71
$GPRMC,205433.000,A,3748.7363,N,12217.7021,W,0.88,175.54,050612,,,D*72
$GPRMC,205434.000,A,3748.7353,N,12217.7023,W,0.72,165.42,050612,,,D*77
$GPRMC,205435.000,A,3748.7346,N,12217.7021,W,1.13,152.87,050612,,,D*7B
$GPRMC,205436.000,A,3748.7339,N,12217.7019,W,1.52,154.15,050612,,,D*73
$GPRMC,205437.000,A,3748.7333,N,12217.7015,W,0.88,153.61,050612,,,D*76
$GPRMC,205438.000,A,3748.7328,N,12217.7009,W,1.18,137.04,050612,,,D*77
$GPRMC,205439.000,A,3748.7330,N,12217.7003,W,1.45,98.50,050612,,,D*48
$GPRMC,205440.000,A,3748.7329,N,12217.6993,W,1.51,104.75,050612,,,D*79
$GPRMC,205441.000,A,3748.7322,N,12217.6986,W,1.68,120.03,050612,,,D*7A
$GPRMC,205442.000,A,3748.7314,N,12217.6979,W,0.84,133.51,050612,,,D*7A
$GPRMC,205443.000,A,3748.7313,N,12217.6975,W,0.81,31.47,050612,,,D*41
$GPRMC,205444.000,A,3748.7319,N,12217.6978,W,0.97,357.65,050612,,,D*75
$GPRMC,205445.000,A,3748.7322,N,12217.6977,W,0.99,6.64,050612,,,D*7B
$GPRMC,205446.000,A,3748.7326,N,12217.6975,W,0.22,43.23,050612,,,D*4C
$GPRMC,205447.000,A,3748.7325,N,12217.6972,W,0.79,12.49,050612,,,D*4F
$GPRMC,205448.000,A,3748.7331,N,12217.6972,W,1.11,31.71,050612,,,D*40
$GPRMC,205449.000,A,3748.7338,N,12217.6967,W,1.42,31.44,050612,,,D*4C
$GPRMC,205450.000,A,3748.7338,N,12217.6956,W,2.36,50.40,050612,,,D*45
$GPRMC,205451.000,A,3748.7344,N,12217.6952,W,2.43,28.43,050612,,,D*45
$GPRMC,205452.000,A,3748.7350,N,12217.6947,W,1.89,22.29,050612,,,D*44
$GPRMC,205453.000,A,3748.7366,N,12217.6948,W,2.03,27.57,050612,,,D*42
$GPRMC,205454.000,A,3748.7380,N,12217.6947,W,2.56,20.90,050612,,,A*4B
$GPRMC,205455.000,A,3748.7391,N,12217.6947,W,1.92,19.38,050612,,,A*49
$GPRMC,205456.000,A,3748.7409,N,12217.6947,W,2.21,7.47,050612,,,A*70
$GPRMC,205457.000,A,3748.7420,N,12217.6944,W,2.81,351.88,050612,,,A*70
$GPRMC,205458.000,A,3748.7422,N,12217.6943,W,1.67,340.68,050612,,,A*7F
$GPRMC,205459.000,A,3748.7426,N,12217.6941,W,0.45,359.10,050612,,,A*7E
$GPRMC,205500.000,A,3748.7429,N,12217.6940,W,0.78,15.99,050612,,,A*49
$GPRMC,205501.000,A,3748.7439,N,12217.6938,W,1.60,14.46,050612,,,A*4D
$GPRMC,205502.000,A,3748.7441,N,12217.6934,W,1.80,29.56,050612,,,A*4C
$GPRMC,205503.000,A,3748.7442,N,12217.6930,W,1.96,17.29,050612,,,A*48
$GPRMC,205504.000,A,3748.7448,N,12217.6927,W,2.61,15.67,050612,,,A*40
$GPRMC,205505.000,A,3748.7462,N,12217.6924,W,2.67,13.02,050612,,,A*49
$GPRMC,205506.000,A,3748.7471,N,12217.6922,W,1.98,11.90,050612,,,A*44
$GPRMC,205507.000,A,3748.7478,N,12217.6920,W,1.99,356.88,050612,,,A*76
$GPRMC,205508.000,A,3748.7489,N,12217.6916,W,2.84,21.90,050612,,,A*47
$GPRMC,205509.000,A,3748.7496,N,12217.6910,W,2.41,26.68,050612,,,A*47
$GPRMC,205510.000,A,3748.7505,N,12217.6903,W,2.24,33.18,050612,,,A*46
$GPRMC,205511.000,A,3748.7506,N,12217.6894,W,2.84,32.64,050612,,,A*4B
$GPRMC,205512.000,A,3748.7512,N,12217.6883,W,2.72,31.16,050612,,,A*44
$GPRMC,205513.000,A,3748.7515,N,12217.6875,W,2.05,41.89,050612,,,A*4A
$GPRMC,205514.000,A,3748.7530,N,12217.6870,W,2.28,17.15,050612,,,A*46
$GPRMC,205515.000,A,3748.7543,N,12217.6865,W,2.24,17.58,050612,,,A*42
$GPRMC,205516.000,A,3748.7551,N,12217.6859,W,2.71,17.43,050612,,,A*47
$GPRMC,205517.000,A,3748.7557,N,12217.6853,W,2.29,31.94,050612,,,A*49
$GPRMC,205518.000,A,3748.7566,N,12217.6849,W,2.32,24.46,050612,,,A*4E
$GPRMC,205519.000,A,3748.7576,N,12217.6847,W,2.44,15.61,050612,,,A*46
$GPRMC,205520.000,A,3748.7586,N,12217.6843,W,2.84,22.47,050612,,,A*4B
$GPRMC,205521.000,A,3748.7597,N,12217.6837,W,2.86,27.07,050612,,,A*4A
$GPRMC,205522.000,A,3748.7610,N,12217.6831,W,2.49,29.79,050612,,,A*47
$GPRMC,205523.000,A,3748.7622,N,12217.6825,W,3.14,39.63,050612,,,A*41
$GPRMC,205524.000,A,3748.7631,N,12217.6816,W,3.01,46.60,050612,,,A*4B
$GPRMC,205525.000,A,3748.7641,N,12217.6808,W,2.93,29.43,050612,,,A*40
$GPRMC,205526.000,A,3748.7647,N,12217.6804,W,2.71,26.96,050612,,,A*42
$GPRMC,205527.000,A,3748.7662,N,12217.6801,W,3.29,7.99,050612,,,A*71
$GPRMC,205528.000,A,3748.7680,N,12217.6798,W,3.40,14.50,050612,,,A*45
$GPRMC,205529.000,A,3748.7692,N,12217.6795,W,2.81,13.43,050612,,,A*43
$GPRMC,205530.000,A,3748.7708,N,12217.6793,W,3.64,18.07,050612,,,A*4E
$GPRMC,205531.000,A,3748.7722,N,12217.6786,W,3.51,16.35,050612,,,A*4A
$GPRMC,205532.000,A,3748.7731,N,12217.6780,W,3.37,18.99,050612,,,A*45
$GPRMC,205533.000,A,3748.7742,N,12217.6771,W,3.40,17.24,050612,,,A*47
$GPRMC,205534.000,A,3748.7753,N,12217.6761,W,3.41,14.20,050612,,,A*47
$GPRMC,205535.000,A,3748.7763,N,12217.6753,W,3.30,12.88,050612,,,A*46
$GPRMC,205536.000,A,3748.7769,N,12217.6749,W,3.25,12.19,050612,,,A*48
$GPRMC,205537.000,A,3748.7774,N,12217.6742,W,3.33,22.51,050612,,,A*46
$GPRMC,205538.000,A,3748.7779,N,12217.6735,W,2.81,28.21,050612,,,A*41
$GPRMC,205539.000,A,3748.7781,N,12217.6727,W,2.63,24.98,050612,,,A*46
$GPRMC,205540.000,A,3748.7780,N,12217.6721,W,2.64,17.31,050612,,,A*4B
$GPRMC,205541.000,A,3748.7779,N,12217.6715,W,2.21,31.95,050612,,,A*40
$GPRMC,205542.000,A,3748.7774,N,12217.6711,W,1.94,27.51,050612,,,D*4D
$GPRMC,205543.000,A,3748.7779,N,12217.6708,W,2.43,35.31,050612,,,D*45
$GPRMC,205544.000,A,3748.7776,N,12217.6701,W,2.10,41.86,050612,,,D*4D
$GPRMC,205545.000,A,3748.7769,N,12217.6699,W,1.54,44.72,050612,,,D*4F
$GPRMC,205546.000,A,3748.7763,N,12217.6697,W,1.77,27.74,050612,,,D*4A
$GPRMC,205547.000,A,3748.7761,N,12217.6694,W,1.38,32.46,050612,,,D*44
$GPRMC,205548.000,A,3748.7766,N,12217.6692,W,2.11,38.11,050612,,,D*4A
$GPRMC,205549.000,A,3748.7762,N,12217.6687,W,1.50,45.25,050612,,,D*40
$GPRMC,205550.000,A,3748.7761,N,12217.6680,W,1.46,52.87,050612,,,D*45
$GPRMC,205551.000,A,3748.7765,N,12217.6673,W,1.54,42.72,050612,,,D*44
$GPRMC,205552.000,A,3748.7768,N,12217.6669,W,1.09,43.82,050612,,,D*47
$GPRMC,205553.000,A,3748.7775,N,12217.6665,W,0.91,48.71,050612,,,D*41
$GPRMC,205554.000,A,3748.7781,N,12217.6666,W,0.98,44.39,050612,,,D*47
$GPRMC,205555.000,A,3748.7794,N,12217.6667,W,1.72,16.26,050612,,,D*4F
$GPRMC,205556.000,A,3748.7803,N,12217.6666,W,1.35,21.24,050612,,,D*49
$GPRMC,205557.000,A,3748.7810,N,12217.6664,W,1.81,41.61,050612,,,D*40
$GPRMC,205558.000,A,3748.7812,N,12217.6659,W,1.71,58.30,050612,,,D*40
$GPRMC,205559.000,A,3748.7822,N,12217.6657,W,1.36,12.31,050612,,,D*40
$GPRMC,205600.000,A,3748.7830,N,12217.6652,W,1.49,27.30,050612,,,D*46
$GPRMC,205601.000,A,3748.7838,N,12217.6648,W,1.69,30.05,050612,,,D*46
$GPRMC,205602.000,A,3748.7843,N,12217.6641,W,1.56,35.52,050612,,,D*4B
$GPRMC,205603.000,A,3748.7848,N,12217.6638,W,1.40,1.17,050612,,,D*7E
$GPRMC,205604.000,A,3748.7859,N,12217.6635,W,1.59,5.24,050612,,,D*78
$GPRMC,205605.000,A,3748.7868,N,12217.6633,W,1.74,3.64,050612,,,D*70
$GPRMC,205606.000,A,3748.7883,N,12217.6630,W,2.01,16.51,050612,,,D*46
$GPRMC,205607.000,A,3748.7894,N,12217.6629,W,2.19,13.19,050612,,,D*49
$GPRMC,205608.000,A,3748.7906,N,12217.6627,W,2.02,19.14,050612,,,D*4F
$GPRMC,205609.000,A,3748.7917,N,12217.6622,W,1.82,16.43,050612,,,D*4D
$GPRMC,205610.000,A,3748.7923,N,12217.6618,W,1.61,22.16,050612,,,D*41
$GPRMC,205611.000,A,3748.7926,N,12217.6614,W,1.24,39.66,050612,,,D*45
$GPRMC,205612.000,A,3748.7929,N,12217.6611,W,1.51,9.96,050612,,,D*72
$GPRMC,205613.000,A,3748.7934,N,12217.6605,W,2.19,31.01,050612,,,D*40
$GPRMC,205614.000,A,3748.7938,N,12217.6600,W,1.96,31.91,050612,,,A*46
$GPRMC,205615.000,A,3748.7944,N,12217.6595,W,1.90,26.73,050612,,,A*4F
$GPRMC,205616.000,A,3748.7947,N,12217.6586,W,1.83,38.27,050612,,,A*41
$GPRMC,205617.000,A,3748.7953,N,12217.6582,W,1.82,23.10,050612,,,A*4E
$GPRMC,205618.000,A,3748.7960,N,12217.6578,W,1.88,4.87,050612,,,A*75
$GPRMC,205619.000,A,3748.7965,N,12217.6575,W,2.18,22.14,050612,,,A*48
$GPRMC,205620.000,A,3748.7970,N,12217.6570,W,1.71,39.75,050612,,,A*42
$GPRMC,205621.000,A,3748.7973,N,12217.6565,W,1.89,46.22,050612,,,A*49
$GPRMC,205622.000,A,3748.7980,N,12217.6560,W,1.99,22.84,050612,,,A*4C
$GPRMC,205623.000,A,3748.7978,N,12217.6551,W,1.92,26.36,050612,,,A*4E
$GPRMC,205624.000,A,3748.7978,N,12217.6544,W,1.72,16.77,050612,,,A*45
$GPRMC,205625.000,A,3748.7979,N,12217.6538,W,1.63,26.17,050612,,,A*4B
$GPRMC,205626.000,A,3748.7979,N,12217.6531,W,1.23,43.78,050612,,,A*4F
$GPRMC,205627.000,A,3748.7980,N,12217.6523,W,1.41,66.50,050612,,,A*42
$GPRMC,205628.000,A,3748.7984,N,12217.6518,W,1.62,29.56,050612,,,A*4D
$GPRMC,205629.000,A,3748.7993,N,12217.6516,W,1.28,46.81,050612,,,A*49
$GPRMC,205630.000,A,3748.8000,N,12217.6515,W,1.21,33.77,050612,,,A*4C
$GPRMC,205631.000,A,3748.8014,N,12217.6508,W,2.04,24.02,050612,,,A*44
$GPRMC,205632.000,A,3748.8026,N,12217.6503,W,2.33,12.31,050612,,,A*4C
$GPRMC,205633.000,A,3748.8034,N,12217.6499,W,2.07,21.43,050612,,,A*4E
$GPRMC,205634.000,A,3748.8043,N,12217.6497,W,2.09,12.01,050612,,,A*4F
$GPRMC,205635.000,A,3748.8055,N,12217.6493,W,2.34,15.29,050612,,,A*4E
$GPRMC,205636.000,A,3748.8059,N,12217.6484,W,2.30,26.75,050612,,,A*4A
$GPRMC,205637.000,A,3748.8065,N,12217.6474,W,2.53,24.22,050612,,,A*4E
$GPRMC,205638.000,A,3748.8071,N,12217.6465,W,2.59,35.88,050612,,,A*4E
$GPRMC,205639.000,A,3748.8077,N,12217.6452,W,2.93,39.51,050612,,,A*43
$GPRMC,205640.000,A,3748.8089,N,12217.6440,W,3.01,28.84,050612,,,A*4D
$GPRMC,205641.000,A,3748.8095,N,12217.6432,W,2.76,34.25,050612,,,A*43
$GPRMC,205642.000,A,3748.8102,N,12217.6420,W,2.70,31.06,050612,,,A*4E
$GPRMC,205643.000,A,3748.8105,N,12217.6409,W,2.58,30.51,050612,,,A*4A
$GPRMC,205644.000,A,3748.8109,N,12217.6403,W,2.39,11.40,050612,,,A*4F
$GPRMC,205645.000,A,3748.8111,N,12217.6396,W,2.23,18.31,050612,,,A*48
$GPRMC,205646.000,A,3748.8115,N,12217.6390,W,2.52,34.94,050612,,,A*4E
$GPRMC,205647.000,A,3748.8120,N,12217.6383,W,2.33,25.62,050612,,,A*45
$GPRMC,205648.000,A,3748.8118,N,12217.6377,W,2.09,10.37,050612,,,A*45
$GPRMC,205649.000,A,3748.8118,N,12217.6367,W,2.12,43.31,050612,,,A*4F
$GPRMC,205650.000,A,3748.8116,N,12217.6363,W,1.67,33.77,050612,,,A*49
$GPRMC,205651.000,A,3748.8123,N,12217.6356,W,2.36,15.95,050612,,,A*47
$GPRMC,205652.000,A,3748.8137,N,12217.6348,W,2.19,34.03,050612,,,A*4F
$GPRMC,205653.000,A,3748.8143,N,12217.6342,W,1.84,46.60,050612,,,A*40
$GPRMC,205654.000,A,3748.8149,N,12217.6340,W,2.08,21.47,050612,,,A*4C
$GPRMC,205655.000,A,3748.8157,N,12217.6336,W,2.23,18.05,050612,,,A*46
$GPRMC,205656.000,A,3748.8165,N,12217.6334,W,2.15,21.80,050612,,,A*44
$GPRMC,205657.000,A,3748.8176,N,12217.6333,W,2.33,8.81,050612,,,A*7E
$GPRMC,205658.000,A,3748.8189,N,12217.6333,W,2.56,11.31,050612,,,A*41
$GPRMC,205659.000,A,3748.8199,N,12217.6333,W,2.49,18.58,050612,,,A*49
$GPRMC,205700.000,A,3748.8207,N,12217.6328,W,2.38,23.03,050612,,,A*4A
$GPRMC,205701.000,A,3748.8212,N,12217.6322,W,2.14,28.45,050612,,,A*42
$GPRMC,205702.000,A,3748.8214,N,12217.6312,W,2.44,32.42,050612,,,A*4D
$GPRMC,205703.000,A,3748.8212,N,12217.6305,W,2.13,36.96,050612,,,A*43
$GPRMC,205704.000,A,3748.8215,N,12217.6300,W,1.96,42.93,050612,,,A*4E
$GPRMC,205705.000,A,3748.8218,N,12217.6292,W,2.06,44.01,050612,,,A*4F
$GPRMC,205706.000,A,3748.8219,N,12217.6280,W,1.84,52.19,050612,,,A*49
$GPRMC,205707.000,A,3748.8221,N,12217.6269,W,1.68,50.70,050612,,,A*4B
$GPRMC,205708.000,A,3748.8222,N,12217.6263,W,2.00,41.95,050612,,,A*4B
$GPRMC,205709.000,A,3748.8230,N,12217.6258,W,2.19,32.42,050612,,,A*47
$GPRMC,205710.000,A,3748.8236,N,12217.6252,W,2.43,37.89,050612,,,A*4E
$GPRMC,205711.000,A,3748.8241,N,12217.6249,W,2.15,40.43,050612,,,A*40
$GPRMC,205712.000,A,3748.8244,N,12217.6242,W,1.90,46.54,050612,,,A*43
$GPRMC,205713.000,A,3748.8249,N,12217.6237,W,1.68,40.19,050612,,,A*45
$GPRMC,205714.000,A,3748.8255,N,12217.6233,W,1.52,31.55,050612,,,A*4C
$GPRMC,205715.000,A,3748.8258,N,12217.6225,W,1.64,45.95,050612,,,A*4D
$GPRMC,205716.000,A,3748.8264,N,12217.6219,W,1.47,23.76,050612,,,A*42
$GPRMC,205717.000,A,3748.8274,N,12217.6217,W,2.27,3.67,050612,,,A*7B
$GPRMC,205718.000,A,3748.8283,N,12217.6219,W,2.02,14.66,050612,,,A*42
$GPRMC,205719.000,A,3748.8286,N,12217.6217,W,1.72,32.05,050612,,,A*4D
$GPRMC,205720.000,A,3748.8298,N,12217.6211,W,2.02,36.03,050612,,,A*48
$GPRMC,205721.000,A,3748.8305,N,12217.6207,W,1.80,30.82,050612,,,A*4D
$GPRMC,205722.000,A,3748.8315,N,12217.6208,W,2.22,11.44,050612,,,A*42
$GPRMC,205723.000,A,3748.8320,N,12217.6203,W,1.91,27.31,050612,,,A*42
$GPRMC,205724.000,A,3748.8334,N,12217.6194,W,1.89,24.89,050612,,,A*44
$GPRMC,205725.000,A,3748.8342,N,12217.6191,W,1.85,48.48,050612,,,A*4A
$GPRMC,205726.000,A,3748.8343,N,12217.6187,W,1.32,91.08,050612,,,A*43
$GPRMC,205727.000,A,3748.8344,N,12217.6181,W,2.75,121.63,050612,,,A*74
$GPRMC,205728.000,A,3748.8344,N,12217.6178,W,2.62,119.59,050612,,,A*79
$GPRMC,205729.000,A,3748.8340,N,12217.6174,W,2.74,114.57,050612,,,A*74
$GPRMC,205730.000,A,3748.8334,N,12217.6168,W,2.84,121.16,050612,,,A*7E
$GPRMC,205731.000,A,3748.8332,N,12217.6162,W,2.53,122.10,050612,,,A*7C
$GPRMC,205732.000,A,3748.8331,N,12217.6156,W,2.06,115.03,050612,,,A*7D
$GPRMC,205733.000,A,3748.8333,N,12217.6153,W,1.80,111.99,050612,,,A*71
$GPRMC,205734.000,A,3748.8335,N,12217.6150,W,1.82,102.54,050612,,,A*72
$GPRMC,205735.000,A,3748.8333,N,12217.6145,W,1.55,104.23,050612,,,A*7D
$GPRMC,205736.000,A,3748.8335,N,12217.6143,W,2.24,129.95,050612,,,A*79
$GPRMC,205737.000,A,3748.8330,N,12217.6137,W,2.92,132.84,050612,,,A*79
$GPRMC,205738.000,A,3748.8329,N,12217.6132,W,2.71,129.03,050612,,,A*73
$GPRMC,205739.000,A,3748.8327,N,12217.6126,W,2.00,106.60,050612,,,A*77
$GPRMC,205740.000,A,3748.8324,N,12217.6121,W,1.53,114.88,050612,,,A*7D
$GPRMC,205741.000,A,3748.8324,N,12217.6119,W,1.83,122.79,050612,,,A*71
$GPRMC,205742.000,A,3748.8323,N,12217.6114,W,2.42,121.82,050612,,,A*71
$GPRMC,205743.000,A,3748.8322,N,12217.6108,W,2.44,124.54,050612,,,A*74
$GPRMC,205744.000,A,3748.8319,N,12217.6101,W,2.41,119.66,050612,,,A*78
$GPRMC,205745.000,A,3748.8316,N,12217.6095,W,2.35,123.67,050612,,,A*71
$GPRMC,205746.000,A,3748.8311,N,12217.6089,W,2.56,124.86,050612,,,A*75
$GPRMC,205747.000,A,3748.8307,N,12217.6083,W,2.25,132.28,050612,,,A*7E
$GPRMC,205748.000,A,3748.8302,N,12217.6077,W,2.47,126.05,050612,,,A*71
$GPRMC,205749.000,A,3748.8299,N,12217.6071,W,2.41,127.81,050612,,,A*7E
$GPRMC,205750.000,A,3748.8296,N,12217.6065,W,1.68,125.99,050612,,,A*7F
$GPRMC,205751.000,A,3748.8290,N,12217.6056,W,1.76,133.43,050612,,,A*77
$GPRMC,205752.000,A,3748.8286,N,12217.6049,W,2.07,125.97,050612,,,A*76
$GPRMC,205753.000,A,3748.8282,N,12217.6043,W,2.16,127.49,050612,,,A*78
$GPRMC,205754.000,A,3748.8279,N,12217.6034,W,2.68,120.34,050612,,,A*7F
$GPRMC,205755.000,A,3748.8276,N,12217.6024,W,2.54,119.24,050612,,,A*74
$GPRMC,205756.000,A,3748.8277,N,12217.6012,W,2.84,111.74,050612,,,A*73
$GPRMC,205757.000,A,3748.8279,N,12217.6001,W,1.82,121.55,050612,,,A*7B
$GPRMC,205758.000,A,3748.8278,N,12217.5994,W,2.24,106.12,050612,,,A*7A
$GPRMC,205759.000,A,3748.8275,N,12217.5987,W,3.01,117.02,050612,,,A*73
$GPRMC,205800.000,A,3748.8271,N,12217.5976,W,2.57,119.75,050612,,,A*76
$GPRMC,205801.000,A,3748.8267,N,12217.5970,W,2.36,128.04,050612,,,A*75
$GPRMC,205802.000,A,3748.8263,N,12217.5960,W,2.37,126.66,050612,,,A*78
$GPRMC,205803.000,A,3748.8259,N,12217.5951,W,2.06,133.94,050612,,,A*79
$GPRMC,205804.000,A,3748.8254,N,12217.5941,W,2.32,108.26,050612,,,A*74
$GPRMC,205805.000,A,3748.8250,N,12217.5931,W,2.02,97.45,050612,,,A*47
$GPRMC,205806.000,A,3748.8247,N,12217.5925,W,1.97,107.15,050612,,,A*75
$GPRMC,205807.000,A,3748.8242,N,12217.5920,W,1.99,105.98,050612,,,A*7D
$GPRMC,205808.000,A,3748.8239,N,12217.5913,W,2.20,111.82,050612,,,A*71
$GPRMC,205809.000,A,3748.8235,N,12217.5906,W,2.33,107.84,050612,,,A*7B
$GPRMC,205810.000,A,3748.8229,N,12217.5898,W,2.42,107.55,050612,,,A*72
$GPRMC,205811.000,A,3748.8226,N,12217.5889,W,2.20,110.37,050612,,,A*7A
$GPRMC,205812.000,A,3748.8226,N,12217.5880,W,1.98,97.95,050612,,,A*46
$GPRMC,205813.000,A,3748.8224,N,12217.5872,W,2.15,105.45,050612,,,A*79
$GPRMC,205814.000,A,3748.8219,N,12217.5863,W,2.65,117.32,050612,,,A*74
$GPRMC,205815.000,A,3748.8213,N,12217.5853,W,2.28,112.37,050612,,,A*75
$GPRMC,205816.000,A,3748.8209,N,12217.5845,W,2.09,113.66,050612,,,A*7C
$GPRMC,205817.000,A,3748.8202,N,12217.5838,W,2.62,115.84,050612,,,A*7B
$GPRMC,205818.000,A,3748.8196,N,12217.5830,W,2.52,112.38,050612,,,A*71
$GPRMC,205819.000,A,3748.8193,N,12217.5822,W,2.65,118.73,050612,,,A*77
$GPRMC,205820.000,A,3748.8190,N,12217.5814,W,2.20,110.22,050612,,,A*76
$GPRMC,205821.000,A,3748.8188,N,12217.5805,W,1.93,89.44,050612,,,A*44
$GPRMC,205822.000,A,3748.8187,N,12217.5798,W,1.60,91.72,050612,,,A*43
$GPRMC,205823.000,A,3748.8185,N,12217.5792,W,2.12,117.12,050612,,,A*75
$GPRMC,205824.000,A,3748.8178,N,12217.5783,W,2.46,103.77,050612,,,A*77
$GPRMC,205825.000,A,3748.8177,N,12217.5776,W,2.09,106.85,050612,,,A*70
$GPRMC,205826.000,A,3748.8177,N,12217.5767,W,1.58,87.49,050612,,,A*4C
$GPRMC,205827.000,A,3748.8175,N,12217.5758,W,1.39,114.94,050612,,,A*7F
$GPRMC,205828.000,A,3748.8172,N,12217.5750,W,1.99,127.36,050612,,,A*7D
$GPRMC,205829.000,A,3748.8167,N,12217.5742,W,1.91,135.63,050612,,,A*70
$GPRMC,205830.000,A,3748.8165,N,12217.5737,W,1.54,133.98,050612,,,A*73
$GPRMC,205831.000,A,3748.8165,N,12217.5731,W,1.52,108.39,050612,,,A*71
$GPRMC,205832.000,A,3748.8163,N,12217.5724,W,1.81,120.70,050612,,,A*79
$GPRMC,205833.000,A,3748.8154,N,12217.5714,W,2.01,132.29,050612,,,A*7B
$GPRMC,205834.000,A,3748.8146,N,12217.5703,W,2.54,121.87,050612,,,A*7F
$GPRMC,205835.000,A,3748.8139,N,12217.5693,W,2.61,114.50,050612,,,A*74
$GPRMC,205836.000,A,3748.8131,N,12217.5682,W,2.31,113.05,050612,,,A*7D
$GPRMC,205837.000,A,3748.8124,N,12217.5671,W,2.05,100.70,050612,,,A*73
$GPRMC,205838.000,A,3748.8119,N,12217.5661,W,1.96,104.75,050612,,,A*7B
$GPRMC,205839.000,A,3748.8116,N,12217.5653,W,1.88,133.81,050612,,,A*74
$GPRMC,205840.000,A,3748.8111,N,12217.5645,W,2.33,128.10,050612,,,A*7B
$GPRMC,205841.000,A,3748.8108,N,12217.5637,W,2.49,135.36,050612,,,A*72
$GPRMC,205842.000,A,3748.8101,N,12217.5627,W,2.06,139.14,050612,,,A*7E
$GPRMC,205843.000,A,3748.8096,N,12217.5616,W,1.90,124.41,050612,,,A*72
$GPRMC,205844.000,A,3748.8090,N,12217.5607,W,2.13,138.60,050612,,,A*75
$GPRMC,205845.000,A,3748.8087,N,12217.5597,W,1.25,123.55,050612,,,A*72
$GPRMC,205846.000,A,3748.8084,N,12217.5588,W,1.59,114.09,050612,,,A*7A
$GPRMC,205847.000,A,3748.8081,N,12217.5580,W,1.68,117.97,050612,,,A*70
$GPRMC,205848.000,A,3748.8080,N,12217.5576,W,1.47,127.22,050612,,,A*77
$GPRMC,205849.000,A,3748.8076,N,12217.5570,W,1.52,123.40,050612,,,A*7D
$GPRMC,205850.000,A,3748.8068,N,12217.5561,W,1.55,136.83,050612,,,A*76
$GPRMC,205851.000,A,3748.8062,N,12217.5552,W,0.99,120.29,050612,,,A*7B
$GPRMC,205852.000,A,3748.8064,N,12217.5545,W,0.70,96.23,050612,,,A*49
$GPRMC,205853.000,A,3748.8062,N,12217.5538,W,0.88,126.10,050612,,,A*79
$GPRMC,205854.000,A,3748.8062,N,12217.5531,W,1.20,113.48,050612,,,A*7F
$GPRMC,205855.000,A,3748.8063,N,12217.5526,W,0.46,133.87,050612,,,A*79
$GPRMC,205856.000,A,3748.8056,N,12217.5520,W,1.32,127.08,050612,,,A*7A
$GPRMC,205857.000,A,3748.8052,N,12217.5514,W,0.88,131.16,050612,,,A*70
$GPRMC,205858.000,A,3748.8046,N,12217.5508,W,0.65,122.50,050612,,,A*74
$GPRMC,205859.000,A,3748.8048,N,12217.5503,W,0.23,73.25,050612,,,A*45
$GPRMC,205900.000,A,3748.8049,N,12217.5500,W,0.78,319.27,050612,,,A*79
$GPRMC,205901.000,A,3748.8049,N,12217.5502,W,0.16,289.83,050612,,,A*74
$GPRMC,205902.000,A,3748.8046,N,12217.5504,W,0.47,181.31,050612,,,A*78
$GPRMC,205903.000,A,3748.8052,N,12217.5504,W,0.83,12.30,050612,,,A*4E
$GPRMC,205904.000,A,3748.8050,N,12217.5504,W,0.64,357.56,050612,,,A*70
$GPRMC,205905.000,A,3748.8053,N,12217.5502,W,0.27,134.30,050612,,,A*74
$GPRMC,205906.000,A,3748.8051,N,12217.5504,W,0.43,166.67,050612,,,A*74
$GPRMC,205907.000,A,3748.8046,N,12217.5508,W,0.31,99.24,050612,,,A*4C
$GPRMC,205908.000,A,3748.8045,N,12217.5506,W,0.49,146.41,050612,,,A*71
$GPRMC,205909.000,A,3748.8041,N,12217.5500,W,0.10,165.78,050612,,,A*75
$GPRMC,205910.000,A,3748.8040,N,12217.5495,W,0.06,68.93,050612,,,A*4F
$GPRMC,205911.000,A,3748.8038,N,12217.5494,W,0.18,133.36,050612,,,A*7F
$GPRMC,205912.000,A,3748.8032,N,12217.5493,W,0.89,194.55,050612,,,A*71
$GPRMC,205913.000,A,3748.8029,N,12217.5499,W,0.79,272.32,050612,,,A*75
$GPRMC,205914.000,A,3748.8026,N,12217.5506,W,0.97,234.88,050612,,,A*79
$GPRMC,205915.000,A,3748.8023,N,12217.5511,W,1.44,211.32,050612,,,A*72
$GPRMC,205916.000,A,3748.8016,N,12217.5516,W,2.09,214.71,050612,,,A*78
$GPRMC,205917.000,A,3748.8012,N,12217.5520,W,0.57,239.54,050612,,,A*79
$GPRMC,205918.000,A,3748.8007,N,12217.5523,W,0.79,204.23,050612,,,A*73
$GPRMC,205919.000,A,3748.8003,N,12217.5523,W,0.89,190.69,050612,,,A*79
$GPRMC,205920.000,A,3748.7999,N,12217.5529,W,0.70,302.84,050612,,,A*70
$GPRMC,205921.000,A,3748.7997,N,12217.5532,W,0.26,308.55,050612,,,A*70
$GPRMC,205922.000,A,3748.7991,N,12217.5532,W,0.54,183.95,050612,,,A*7D
$GPRMC,205923.000,A,3748.7985,N,12217.5531,W,0.99,192.94,050612,,,A*7A
$GPRMC,205924.000,A,3748.7980,N,12217.5537,W,1.19,204.28,050612,,,A*7C
$GPRMC,205925.000,A,3748.7979,N,12217.5541,W,1.54,207.12,050612,,,A*79
$GPRMC,205926.000,A,3748.7975,N,12217.5545,W,1.78,209.06,050612,,,A*77
$GPRMC,205927.000,A,3748.7972,N,12217.5551,W,1.36,204.47,050612,,,A*76
$GPRMC,205928.000,A,3748.7967,N,12217.5558,W,1.94,220.49,050612,,,A*74
$GPRMC,205929.000,A,3748.7964,N,12217.5563,W,0.92,201.14,050612,,,A*72
$GPRMC,205930.000,A,3748.7961,N,12217.5571,W,1.55,210.30,050612,,,A*70
$GPRMC,205931.000,A,3748.7959,N,12217.5576,W,1.85,189.87,050612,,,A*7F
$GPRMC,205932.000,A,3748.7954,N,12217.5579,W,1.69,215.10,050612,,,A*74
$GPRMC,205933.000,A,3748.7950,N,12217.5586,W,1.17,220.37,050612,,,A*7B
$GPRMC,205934.000,A,3748.7942,N,12217.5591,W,1.48,183.15,050612,,,A*79
$GPRMC,205935.000,A,3748.7934,N,12217.5593,W,0.60,197.56,050612,,,A*72
$GPRMC,205936.000,A,3748.7931,N,12217.5600,W,1.38,241.62,050612,,,A*7E
$GPRMC,205937.000,A,3748.7928,N,12217.5608,W,1.35,243.57,050612,,,A*76
$GPRMC,205938.000,A,3748.7924,N,12217.5615,W,0.28,227.43,050612,,,A*73
$GPRMC,205939.000,A,3748.7916,N,12217.5619,W,1.00,184.06,050612,,,A*7F
$GPRMC,205940.000,A,3748.7904,N,12217.5625,W,1.49,187.20,050612,,,A*77
$GPRMC,205941.000,A,3748.7894,N,12217.5627,W,1.93,183.86,050612,,,A*73
$GPRMC,205942.000,A,3748.7885,N,12217.5630,W,1.69,203.53,050612,,,A*70
$GPRMC,205943.000,A,3748.7881,N,12217.5629,W,1.27,202.25,050612,,,A*77
$GPRMC,205944.000,A,3748.7876,N,12217.5627,W,1.40,218.22,050612,,,A*7B
$GPRMC,205945.000,A,3748.7868,N,12217.5631,W,1.93,223.28,050612,,,A*7E
$GPRMC,205946.000,A,3748.7863,N,12217.5633,W,1.86,221.37,050612,,,A*7C
$GPRMC,205947.000,A,3748.7854,N,12217.5638,W,2.06,211.62,050612,,,A*7A
$GPRMC,205948.000,A,3748.7842,N,12217.5642,W,1.93,200.65,050612,,,A*77
$GPRMC,205949.000,A,3748.7829,N,12217.5646,W,2.32,191.71,050612,,,A*79
$GPRMC,205950.000,A,3748.7824,N,12217.5652,W,1.75,196.72,050612,,,A*7D
$GPRMC,205951.000,A,3748.7814,N,12217.5659,W,1.50,203.27,050612,,,A*7C
$GPRMC,205952.000,A,3748.7810,N,12217.5663,W,1.22,208.33,050612,,,A*79
$GPRMC,205953.000,A,3748.7803,N,12217.5662,W,0.64,208.73,050612,,,A*7C
$GPRMC,205954.000,A,3748.7799,N,12217.5658,W,0.32,99.69,050612,,,A*4C
$GPRMC,205955.000,A,3748.7798,N,12217.5651,W,0.68,79.27,050612,,,A*4E
$GPRMC,205956.000,A,3748.7796,N,12217.5638,W,0.85,97.33,050612,,,A*4A
$GPRMC,205957.000,A,3748.7798,N,12217.5626,W,0.96,61.30,050612,,,A*42
$GPRMC,205958.000,A,3748.7795,N,12217.5622,W,0.26,28.31,050612,,,A*43
$GPRMC,205959.000,A,3748.7788,N,12217.5623,W,0.46,199.49,050612,,,A*7D
$GPRMC,210000.000,A,3748.7786,N,12217.5622,W,0.06,345.71,050612,,,A*7F
$GPRMC,210001.000,A,3748.7784,N,12217.5621,W,0.38,72.31,050612,,,A*41
$GPRMC,210002.000,A,3748.7784,N,12217.5620,W,0.60,67.00,050612,,,A*48
$GPRMC,210003.000,A,3748.7782,N,12217.5617,W,0.47,64.37,050612,,,A*49
$GPRMC,210004.000,A,3748.7778,N,12217.5615,W,0.78,234.15,050612,,,A*72
$GPRMC,210005.000,A,3748.7775,N,12217.5622,W,0.94,237.32,050612,,,A*7E
$GPRMC,210006.000,A,3748.7763,N,12217.5628,W,1.79,193.15,050612,,,A*7A
$GPRMC,210007.000,A,3748.7742,N,12217.5634,W,1.78,197.45,050612,,,A*75
$GPRMC,210008.000,A,3748.7725,N,12217.5632,W,1.59,206.36,050612,,,A*71
$GPRMC,210009.000,A,3748.7716,N,12217.5638,W,1.38,219.93,050612,,,A*7C
$GPRMC,210010.000,A,3748.7706,N,12217.5635,W,1.52,210.82,050612,,,A*7D
$GPRMC,210011.000,A,3748.7693,N,12217.5653,W,2.39,205.42,050612,,,A*77
$GPRMC,210012.000,A,3748.7682,N,12217.5667,W,2.04,210.26,050612,,,A*7B
$GPRMC,210013.000,A,3748.7668,N,12217.5681,W,2.39,226.45,050612,,,A*78
$GPRMC,210014.000,A,3748.7670,N,12217.5697,W,2.26,246.06,050612,,,A*7E
$GPRMC,210015.000,A,3748.7669,N,12217.5707,W,2.07,235.31,050612,,,A*7C
$GPRMC,210016.000,A,3748.7665,N,12217.5717,W,2.48,224.38,050612,,,A*70
$GPRMC,210017.000,A,3748.7662,N,12217.5726,W,2.39,214.74,050612,,,A*79
$GPRMC,210018.000,A,3748.7658,N,12217.5733,W,2.45,200.59,050612,,,A*7A
$GPRMC,210019.000,A,3748.7653,N,12217.5737,W,2.28,194.34,050612,,,A*7A
$GPRMC,210020.000,A,3748.7651,N,12217.5746,W,2.23,195.32,050612,,,A*78
$GPRMC,210021.000,A,3748.7646,N,12217.5752,W,2.00,195.30,050612,,,A*79
$GPRMC,210022.000,A,3748.7641,N,12217.5759,W,1.96,200.21,050612,,,A*75
$GPRMC,210023.000,A,3748.7638,N,12217.5767,W,2.28,206.20,050612,,,A*76
$GPRMC,210024.000,A,3748.7636,N,12217.5778,W,2.38,205.26,050612,,,A*75
$GPRMC,210025.000,A,3748.7634,N,12217.5789,W,2.02,211.70,050612,,,A*77
$GPRMC,210026.000,A,3748.7631,N,12217.5797,W,2.76,190.51,050612,,,A*74
$GPRMC,210027.000,A,3748.7624,N,12217.5803,W,2.81,203.25,050612,,,A*71
$GPRMC,210028.000,A,3748.7617,N,12217.5814,W,2.43,202.90,050612,,,A*79
$GPRMC,210029.000,A,3748.7613,N,12217.5823,W,2.35,211.42,050612,,,A*74
$GPRMC,210030.000,A,3748.7607,N,12217.5828,W,2.59,199.74,050612,,,A*7E
$GPRMC,210031.000,A,3748.7601,N,12217.5834,W,2.39,200.27,050612,,,A*77
$GPRMC,210032.000,A,3748.7594,N,12217.5836,W,2.19,191.74,050612,,,A*76
$GPRMC,210033.000,A,3748.7587,N,12217.5839,W,2.12,204.40,050612,,,A*79
$GPRMC,210034.000,A,3748.7582,N,12217.5844,W,1.91,204.11,050612,,,A*7D
$GPRMC,210035.000,A,3748.7578,N,12217.5850,W,1.37,197.03,050612,,,A*7A
$GPRMC,210036.000,A,3748.7575,N,12217.5856,W,1.88,201.18,050612,,,A*70
$GPRMC,210037.000,A,3748.7569,N,12217.5859,W,1.80,191.69,050612,,,A*77
$GPRMC,210038.000,A,3748.7562,N,12217.5864,W,2.17,190.14,050612,,,A*7B
$GPRMC,210039.000,A,3748.7556,N,12217.5870,W,1.69,220.45,050612,,,A*7E
$GPRMC,210040.000,A,3748.7547,N,12217.5879,W,2.12,208.26,050612,,,A*79
$GPRMC,210041.000,A,3748.7539,N,12217.5883,W,2.22,202.33,050612,,,A*79
$GPRMC,210042.000,A,3748.7532,N,12217.5886,W,2.29,197.13,050612,,,A*72
$GPRMC,210043.000,A,3748.7525,N,12217.5891,W,1.61,214.20,050612,,,A*74
$GPRMC,210044.000,A,3748.7522,N,12217.5896,W,1.45,237.39,050612,,,A*7C
$GPRMC,210045.000,A,3748.7516,N,12217.5904,W,1.16,233.32,050612,,,A*79
$GPRMC,210046.000,A,3748.7508,N,12217.5914,W,1.28,227.19,050612,,,A*75
$GPRMC,210047.000,A,3748.7501,N,12217.5922,W,1.92,230.36,050612,,,A*72
$GPRMC,210048.000,A,3748.7499,N,12217.5928,W,1.69,229.64,050612,,,A*7C
$GPRMC,210049.000,A,3748.7498,N,12217.5935,W,2.12,222.34,050612,,,A*71
$GPRMC,210050.000,A,3748.7495,N,12217.5944,W,2.02,232.39,050612,,,A*7F
$GPRMC,210051.000,A,3748.7491,N,12217.5951,W,2.06,223.31,050612,,,A*72
$GPRMC,210052.000,A,3748.7487,N,12217.5957,W,1.99,207.86,050612,,,A*7F
$GPRMC,210053.000,A,3748.7478,N,12217.5961,W,1.99,205.14,050612,,,A*72
$GPRMC,210054.000,A,3748.7470,N,12217.5963,W,1.63,196.35,050612,,,A*70
$GPRMC,210055.000,A,3748.7461,N,12217.5971,W,1.39,228.12,050612,,,A*7E
$GPRMC,210056.000,A,3748.7452,N,12217.5981,W,1.80,235.94,050612,,,A*72
$GPRMC,210057.000,A,3748.7445,N,12217.5989,W,1.41,233.81,050612,,,A*72
$GPRMC,210058.000,A,3748.7438,N,12217.5996,W,1.41,253.26,050612,,,A*72
$GPRMC,210059.000,A,3748.7430,N,12217.6004,W,1.72,222.71,050612,,,A*7E
$GPRMC,210100.000,A,3748.7424,N,12217.6009,W,1.95,203.06,050612,,,A*71
$GPRMC,210101.000,A,3748.7419,N,12217.6014,W,2.10,224.95,050612,,,A*73
$GPRMC,210102.000,A,3748.7413,N,12217.6019,W,2.40,213.52,050612,,,A*7D
$GPRMC,210103.000,A,3748.7407,N,12217.6026,W,2.51,213.80,050612,,,A*7A
$GPRMC,210104.000,A,3748.7402,N,12217.6030,W,1.77,218.71,050612,,,A*7D
$GPRMC,210105.000,A,3748.7397,N,12217.6034,W,1.76,216.27,050612,,,A*7F
$GPRMC,210106.000,A,3748.7392,N,12217.6037,W,1.88,208.25,050612,,,A*76
$GPRMC,210107.000,A,3748.7388,N,12217.6041,W,1.93,216.47,050612,,,A*7C
$GPRMC,210108.000,A,3748.7379,N,12217.6047,W,2.57,208.04,050612,,,A*78
$GPRMC,210109.000,A,3748.7369,N,12217.6052,W,1.99,205.02,050612,,,A*76
$GPRMC,210110.000,A,3748.7359,N,12217.6057,W,2.01,204.52,050612,,,A*7E
$GPRMC,210111.000,A,3748.7352,N,12217.6060,W,2.04,201.97,050612,,,A*79
$GPRMC,210112.000,A,3748.7345,N,12217.6061,W,2.14,203.27,050612,,,A*75
$GPRMC,210113.000,A,3748.7338,N,12217.6064,W,1.79,209.99,050612,,,A*7C
$GPRMC,210114.000,A,3748.7333,N,12217.6068,W,1.89,206.38,050612,,,A*77
$GPRMC,210115.000,A,3748.7327,N,12217.6074,W,2.31,215.48,050612,,,A*7B
$GPRMC,210116.000,A,3748.7322,N,12217.6078,W,1.82,213.81,050612,,,A*79
$GPRMC,210117.000,A,3748.7317,N,12217.6086,W,2.22,216.88,050612,,,A*7A
$GPRMC,210118.000,A,3748.7310,N,12217.6089,W,1.98,199.21,050612,,,A*78
$GPRMC,210119.000,A,3748.7303,N,12217.6095,W,2.49,193.89,050612,,,A*71
$GPRMC,210120.000,A,3748.7295,N,12217.6098,W,2.36,196.10,050612,,,A*75
$GPRMC,210121.000,A,3748.7288,N,12217.6103,W,2.12,201.07,050612,,,A*76
$GPRMC,210122.000,A,3748.7281,N,12217.6107,W,2.13,200.39,050612,,,A*75
$GPRMC,210123.000,A,3748.7275,N,12217.6111,W,2.10,199.79,050612,,,A*7C
$GPRMC,210124.000,A,3748.7267,N,12217.6114,W,2.28,194.57,050612,,,A*77
$GPRMC,210125.000,A,3748.7260,N,12217.6118,W,2.17,192.57,050612,,,A*77
$GPRMC,210126.000,A,3748.7253,N,12217.6120,W,2.38,187.99,050612,,,A*74
$GPRMC,210127.000,A,3748.7246,N,12217.6121,W,2.09,181.52,050612,,,A*73
$GPRMC,210128.000,A,3748.7240,N,12217.6125,W,1.92,184.99,050612,,,A*7D
$GPRMC,210129.000,A,3748.7234,N,12217.6128,W,1.71,192.27,050612,,,A*7D
$GPRMC,210130.000,A,3748.7231,N,12217.6133,W,1.31,198.95,050612,,,A*7D
$GPRMC,210131.000,A,3748.7227,N,12217.6138,W,1.47,197.10,050612,,,A*73
$GPRMC,210132.000,A,3748.7223,N,12217.6145,W,1.82,199.62,050612,,,A*7C
$GPRMC,210133.000,A,3748.7218,N,12217.6151,W,1.80,198.42,050612,,,A*71
$GPRMC,210134.000,A,3748.7213,N,12217.6156,W,1.62,198.61,050612,,,A*77
$GPRMC,210135.000,A,3748.7203,N,12217.6163,W,1.65,197.84,050612,,,A*72
$GPRMC,210136.000,A,3748.7198,N,12217.6166,W,1.35,195.25,050612,,,A*79
$GPRMC,210137.000,A,3748.7194,N,12217.6170,W,1.75,201.60,050612,,,A*78
$GPRMC,210138.000,A,3748.7189,N,12217.6177,W,1.80,200.01,050612,,,A*70
$GPRMC,210139.000,A,3748.7184,N,12217.6182,W,1.49,196.62,050612,,,A*7A
$GPRMC,210140.000,A,3748.7180,N,12217.6186,W,1.42,198.00,050612,,,A*75
$GPRMC,210141.000,A,3748.7175,N,12217.6191,W,1.71,206.54,050612,,,A*7D
$GPRMC,210142.000,A,3748.7170,N,12217.6196,W,1.81,199.20,050612,,,A*75
$GPRMC,210143.000,A,3748.7164,N,12217.6201,W,1.77,213.86,050612,,,A*78
$GPRMC,210144.000,A,3748.7160,N,12217.6208,W,1.72,217.76,050612,,,A*7C
$GPRMC,210145.000,A,3748.7155,N,12217.6214,W,1.42,217.05,050612,,,A*71
$GPRMC,210146.000,A,3748.7145,N,12217.6219,W,2.08,206.74,050612,,,A*75
$GPRMC,210147.000,A,3748.7135,N,12217.6226,W,2.64,220.62,050612,,,A*76
$GPRMC,210148.000,A,3748.7126,N,12217.6236,W,2.22,214.92,050612,,,A*70
$GPRMC,210149.000,A,3748.7117,N,12217.6243,W,1.95,205.20,050612,,,A*77
$GPRMC,210150.000,A,3748.7110,N,12217.6249,W,1.69,200.78,050612,,,A*79
$GPRMC,210151.000,A,3748.7101,N,12217.6255,W,2.32,205.72,050612,,,A*77
$GPRMC,210152.000,A,3748.7094,N,12217.6261,W,1.95,203.53,050612,,,A*75
$GPRMC,210153.000,A,3748.7088,N,12217.6265,W,1.60,198.99,050612,,,A*70
$GPRMC,210154.000,A,3748.7083,N,12217.6268,W,2.03,193.89,050612,,,A*7D
$GPRMC,210155.000,A,3748.7076,N,12217.6271,W,1.89,192.25,050612,,,A*78
$GPRMC,210156.000,A,3748.7069,N,12217.6271,W,1.99,179.74,050612,,,A*75
$GPRMC,210157.000,A,3748.7061,N,12217.6274,W,2.18,196.23,050612,,,A*70
$GPRMC,210158.000,A,3748.7055,N,12217.6281,W,1.94,204.90,050612,,,A*75
$GPRMC,210159.000,A,3748.7044,N,12217.6293,W,1.32,230.14,050612,,,A*70
$GPRMC,210200.000,A,3748.7037,N,12217.6299,W,1.18,232.07,050612,,,A*79
$GPRMC,210201.000,A,3748.7025,N,12217.6312,W,1.07,238.65,050612,,,A*79
$GPRMC,210202.000,A,3748.7019,N,12217.6317,W,1.73,229.31,050612,,,A*72
$GPRMC,210203.000,A,3748.7013,N,12217.6322,W,1.87,228.58,050612,,,A*7A
$GPRMC,210204.000,A,3748.7008,N,12217.6330,W,2.16,225.65,050612,,,A*7C
$GPRMC,210205.000,A,3748.7003,N,12217.6338,W,1.76,216.79,050612,,,A*76
$GPRMC,210206.000,A,3748.6998,N,12217.6344,W,1.81,202.60,050612,,,A*71
$GPRMC,210207.000,A,3748.6992,N,12217.6349,W,1.88,199.61,050612,,,A*7E
$GPRMC,210208.000,A,3748.6987,N,12217.6357,W,2.02,204.17,050612,,,A*7D
$GPRMC,210209.000,A,3748.6982,N,12217.6363,W,1.96,207.13,050612,,,A*77
$GPRMC,210210.000,A,3748.6974,N,12217.6368,W,2.23,205.82,050612,,,A*7A
$GPRMC,210211.000,A,3748.6967,N,12217.6372,W,2.53,213.17,050612,,,A*7E
$GPRMC,210212.000,A,3748.6961,N,12217.6377,W,2.40,218.92,050612,,,A*7A
$GPRMC,210213.000,A,3748.6956,N,12217.6384,W,1.88,220.96,050612,,,A*7B
$GPRMC,210214.000,A,3748.6950,N,12217.6389,W,2.42,213.39,050612,,,A*77
$GPRMC,210215.000,A,3748.6941,N,12217.6394,W,2.25,216.70,050612,,,A*73
$GPRMC,210216.000,A,3748.6934,N,12217.6399,W,2.15,213.21,050612,,,A*7D
$GPRMC,210217.000,A,3748.6928,N,12217.6403,W,1.62,204.47,050612,,,A*70
$GPRMC,210218.000,A,3748.6922,N,12217.6407,W,1.83,205.59,050612,,,A*70
$GPRMC,210219.000,A,3748.6914,N,12217.6412,W,2.75,207.89,050612,,,A*75
$GPRMC,210220.000,A,3748.6906,N,12217.6415,W,2.37,195.20,050612,,,A*76
$GPRMC,210221.000,A,3748.6898,N,12217.6418,W,2.28,202.35,050612,,,A*7B
$GPRMC,210222.000,A,3748.6892,N,12217.6423,W,2.30,208.47,050612,,,A*7C
$GPRMC,210223.000,A,3748.6885,N,12217.6427,W,2.33,203.76,050612,,,A*75
$GPRMC,210224.000,A,3748.6879,N,12217.6431,W,2.04,198.04,050612,,,A*76
$GPRMC,210225.000,A,3748.6873,N,12217.6434,W,1.83,192.57,050612,,,A*78
$GPRMC,210226.000,A,3748.6867,N,12217.6437,W,2.07,196.47,050612,,,A*77
$GPRMC,210227.000,A,3748.6861,N,12217.6439,W,1.85,194.06,050612,,,A*70
$GPRMC,210228.000,A,3748.6855,N,12217.6442,W,1.68,192.21,050612,,,A*74
$GPRMC,210229.000,A,3748.6852,N,12217.6447,W,1.81,197.64,050612,,,A*74
$GPRMC,210230.000,A,3748.6850,N,12217.6451,W,1.31,185.41,050612,,,A*76
$GPRMC,210231.000,A,3748.6846,N,12217.6457,W,1.92,188.57,050612,,,A*75
$GPRMC,210232.000,A,3748.6840,N,12217.6463,W,1.50,181.81,050612,,,A*7B
$GPRMC,210233.000,A,3748.6832,N,12217.6470,W,1.09,203.94,050612,,,A*7C
$GPRMC,210234.000,A,3748.6824,N,12217.6478,W,1.61,195.31,050612,,,A*79
$GPRMC,210235.000,A,3748.6817,N,12217.6486,W,1.05,249.44,050612,,,A*7B
$GPRMC,210236.000,A,3748.6812,N,12217.6495,W,1.56,265.57,050612,,,A*75
$GPRMC,210237.000,A,3748.6808,N,12217.6504,W,1.44,265.30,050612,,,A*74
$GPRMC,210238.000,A,3748.6805,N,12217.6513,W,1.59,240.50,050612,,,A*7D
$GPRMC,210239.000,A,3748.6796,N,12217.6514,W,1.61,211.21,050612,,,A*77
$GPRMC,210240.000,A,3748.6792,N,12217.6512,W,0.98,161.32,050612,,,A*7A
$GPRMC,210241.000,A,3748.6787,N,12217.6512,W,0.65,238.53,050612,,,A*75
$GPRMC,210242.000,A,3748.6781,N,12217.6512,W,1.31,200.67,050612,,,A*7C
$GPRMC,210243.000,A,3748.6773,N,12217.6516,W,1.46,219.73,050612,,,A*79
$GPRMC,210244.000,A,3748.6766,N,12217.6519,W,1.68,203.38,050612,,,A*7D
$GPRMC,210245.000,A,3748.6756,N,12217.6516,W,1.86,195.09,050612,,,A*7E
$GPRMC,210246.000,A,3748.6751,N,12217.6518,W,1.57,202.54,050612,,,A*7D
$GPRMC,210247.000,A,3748.6743,N,12217.6523,W,2.16,208.53,050612,,,A*7C
$GPRMC,210248.000,A,3748.6732,N,12217.6536,W,1.48,235.79,050612,,,A*7F
$GPRMC,210249.000,A,3748.6723,N,12217.6547,W,1.67,219.54,050612,,,A*74
$GPRMC,210250.000,A,3748.6712,N,12217.6561,W,1.78,239.45,050612,,,A*76
$GPRMC,210251.000,A,3748.6703,N,12217.6575,W,1.65,266.74,050612,,,A*76
$GPRMC,210252.000,A,3748.6698,N,12217.6586,W,1.84,272.99,050612,,,A*73
$GPRMC,210253.000,A,3748.6694,N,12217.6594,W,1.55,262.95,050612,,,A*7C
$GPRMC,210254.000,A,3748.6689,N,12217.6598,W,1.64,214.95,050612,,,A*78
$GPRMC,210255.000,A,3748.6678,N,12217.6601,W,2.69,204.06,050612,,,A*71
$GPRMC,210256.000,A,3748.6670,N,12217.6606,W,2.27,209.01,050612,,,A*7D
$GPRMC,210257.000,A,3748.6664,N,12217.6611,W,1.99,205.66,050612,,,A*74
$GPRMC,210258.000,A,3748.6658,N,12217.6615,W,1.89,209.65,050612,,,A*7E
$GPRMC,210259.000,A,3748.6651,N,12217.6618,W,2.04,203.49,050612,,,A*79
$GPRMC,210300.000,A,3748.6644,N,12217.6622,W,1.75,202.14,050612,,,A*75
$GPRMC,210301.000,A,3748.6639,N,12217.6628,W,1.99,202.63,050612,,,A*76
$GPRMC,210302.000,A,3748.6634,N,12217.6633,W,1.99,202.21,050612,,,A*74
$GPRMC,210303.000,A,3748.6624,N,12217.6639,W,2.29,203.64,050612,,,A*76
$GPRMC,210304.000,A,3748.6616,N,12217.6643,W,1.97,211.53,050612,,,A*7C
$GPRMC,210305.000,A,3748.6607,N,12217.6648,W,2.58,197.64,050612,,,A*7F
$GPRMC,210306.000,A,3748.6596,N,12217.6651,W,2.53,193.20,050612,,,A*70
$GPRMC,210307.000,A,3748.6586,N,12217.6655,W,2.41,196.73,050612,,,A*74
$GPRMC,210308.000,A,3748.6580,N,12217.6659,W,2.12,205.90,050612,,,A*73
$GPRMC,210309.000,A,3748.6575,N,12217.6667,W,2.43,217.00,050612,,,A*7B
$GPRMC,210310.000,A,3748.6570,N,12217.6677,W,2.80,213.50,050612,,,A*79
$GPRMC,210311.000,A,3748.6564,N,12217.6685,W,2.73,209.23,050612,,,A*73
$GPRMC,210312.000,A,3748.6558,N,12217.6691,W,2.02,208.07,050612,,,A*7B
$GPRMC,210313.000,A,3748.6553,N,12217.6696,W,2.01,207.00,050612,,,A*7D
$GPRMC,210314.000,A,3748.6548,N,12217.6701,W,2.28,204.60,050612,,,A*71
$GPRMC,210315.000,A,3748.6543,N,12217.6707,W,1.91,206.24,050612,,,A*7E
$GPRMC,210316.000,A,3748.6536,N,12217.6712,W,2.67,206.94,050612,,,A*7A
$GPRMC,210317.000,A,3748.6529,N,12217.6718,W,2.35,196.27,050612,,,A*7A
$GPRMC,210318.000,A,3748.6522,N,12217.6724,W,2.46,199.37,050612,,,A*7B
$GPRMC,210319.000,A,3748.6514,N,12217.6726,W,2.63,194.16,050612,,,A*74
$GPRMC,210320.000,A,3748.6507,N,12217.6730,W,2.32,195.00,050612,,,A*79
$GPRMC,210321.000,A,3748.6500,N,12217.6734,W,2.05,190.30,050612,,,A*79
$GPRMC,210322.000,A,3748.6494,N,12217.6738,W,1.86,197.29,050612,,,A*7D
$GPRMC,210323.000,A,3748.6488,N,12217.6741,W,1.91,192.99,050612,,,A*77
$GPRMC,210324.000,A,3748.6484,N,12217.6743,W,1.68,184.43,050612,,,A*78
$GPRMC,210325.000,A,3748.6479,N,12217.6745,W,1.42,177.67,050612,,,A*7F
$GPRMC,210326.000,A,3748.6477,N,12217.6745,W,0.90,176.96,050612,,,A*73
$GPRMC,210327.000,A,3748.6475,N,12217.6751,W,0.66,104.37,050612,,,A*72
$GPRMC,210328.000,A,3748.6473,N,12217.6753,W,1.03,157.62,050612,,,A*7D
$GPRMC,210329.000,A,3748.6468,N,12217.6755,W,0.60,147.07,050612,,,A*76
$GPRMC,210330.000,A,3748.6454,N,12217.6767,W,0.75,191.39,050612,,,A*72
$GPRMC,210331.000,A,3748.6442,N,12217.6775,W,1.57,203.88,050612,,,A*74
$GPRMC,210332.000,A,3748.6434,N,12217.6782,W,1.50,222.71,050612,,,A*7C
$GPRMC,210333.000,A,3748.6427,N,12217.6787,W,0.89,223.76,050612,,,A*79
$GPRMC,210334.000,A,3748.6421,N,12217.6792,W,0.98,231.10,050612,,,A*7F
$GPRMC,210335.000,A,3748.6418,N,12217.6796,W,0.47,255.62,050612,,,A*75
$GPRMC,210336.000,A,3748.6411,N,12217.6802,W,1.03,183.73,050612,,,A*74
$GPRMC,210337.000,A,3748.6402,N,12217.6808,W,1.57,184.95,050612,,,A*73
$GPRMC,210338.000,A,3748.6395,N,12217.6814,W,0.42,188.06,050612,,,A*7B
$GPRMC,210339.000,A,3748.6387,N,12217.6821,W,1.10,219.40,050612,,,A*70
$GPRMC,210340.000,A,3748.6380,N,12217.6828,W,1.91,229.07,050612,,,A*79
$GPRMC,210341.000,A,3748.6373,N,12217.6836,W,2.40,228.33,050612,,,A*72
$GPRMC,210342.000,A,3748.6365,N,12217.6843,W,2.01,219.12,050612,,,A*70
$GPRMC,210343.000,A,3748.6360,N,12217.6849,W,1.80,218.91,050612,,,A*7E
$GPRMC,210344.000,A,3748.6357,N,12217.6854,W,1.81,217.98,050612,,,A*76
$GPRMC,210345.000,A,3748.6353,N,12217.6861,W,1.84,218.87,050612,,,A*71
$GPRMC,210346.000,A,3748.6349,N,12217.6867,W,1.72,215.43,050612,,,A*73
$GPRMC,210347.000,A,3748.6343,N,12217.6870,W,1.54,194.06,050612,,,A*71
$GPRMC,210348.000,A,3748.6338,N,12217.6876,W,2.36,221.28,050612,,,A*72
$GPRMC,210349.000,A,3748.6332,N,12217.6886,W,2.43,224.10,050612,,,A*7A
$GPRMC,210350.000,A,3748.6327,N,12217.6894,W,2.22,204.62,050612,,,A*75
$GPRMC,210351.000,A,3748.6320,N,12217.6904,W,2.03,199.38,050612,,,A*70
$GPRMC,210352.000,A,3748.6314,N,12217.6908,W,1.91,200.72,050612,,,A*7D
$GPRMC,210353.000,A,3748.6309,N,12217.6913,W,1.12,179.31,050612,,,A*7B
$GPRMC,210354.000,A,3748.6301,N,12217.6920,W,2.06,197.32,050612,,,A*71
$GPRMC,210355.000,A,3748.6295,N,12217.6921,W,1.96,204.34,050612,,,A*78
$GPRMC,210356.000,A,3748.6286,N,12217.6923,W,2.34,218.80,050612,,,A*72
$GPRMC,210357.000,A,3748.6277,N,12217.6927,W,2.05,187.68,050612,,,A*78
$GPRMC,210358.000,A,3748.6272,N,12217.6933,W,1.82,192.11,050612,,,A*71
$GPRMC,210359.000,A,3748.6268,N,12217.6939,W,2.09,204.27,050612,,,A*78
$GPRMC,210400.000,A,3748.6261,N,12217.6943,W,2.72,203.31,050612,,,A*7B
$GPRMC,210401.000,A,3748.6253,N,12217.6948,W,2.35,203.64,050612,,,A*73
$GPRMC,210402.000,A,3748.6240,N,12217.6954,W,2.24,201.35,050612,,,A*79
$GPRMC,210403.000,A,3748.6228,N,12217.6956,W,2.37,196.35,050612,,,A*7B
$GPRMC,210404.000,A,3748.6220,N,12217.6959,W,1.67,196.92,050612,,,A*70
$GPRMC,210405.000,A,3748.6213,N,12217.6961,W,1.49,195.03,050612,,,A*7D
$GPRMC,210406.000,A,3748.6204,N,12217.6971,W,1.50,218.52,050612,,,A*73
