$ADVER,3080,2.3
$GPRMC,201957.684,A,3748.8068,N,12217.8485,W,0.26,257.49,130711,,,A*7A
$GPGGA,201958.684,3748.8068,N,12217.8485,W,1,03,4.3,-15.3,M,-25.1,M,,0000*7E
$GPGSA,A,2,10,05,28,,,,,,,,,,4.5,4.3,1.0*3A
$GPRMC,201958.684,A,3748.8068,N,12217.8485,W,0.15,334.31,130711,,,A*7E
$GPVTG,334.31,T,,M,0.15,N,0.3,K,N*03
$GPGGA,201959.684,3748.8069,N,12217.8484,W,1,03,4.3,-15.3,M,-25.1,M,,0000*7F
$GPGSA,A,2,10,05,28,,,,,,,,,,4.5,4.3,1.0*3A
$GPRMC,201959.684,A,3748.8069,N,12217.8484,W,0.14,229.47,130711,,,A*72
$GPVTG,229.47,T,,M,0.14,N,0.3,K,N*0E
$GPGGA,202000.684,3748.8069,N,12217.8484,W,1,03,4.3,-15.3,M,-25.1,M,,0000*79
$GPGSA,A,2,10,05,28,,,,,,,,,,4.5,4.3,1.0*3A
$GPGSV,3,1,12,28,59,248,38,05,20,273,40,10,16,221,39,08,65,354,24*7C
$GPGSV,3,2,12,07,58,062,31,19,27,054,23,13,26,149,33,26,24,317,33*77
$GPGSV,3,3,12,11,10,107,30,17,07,188,26,03,03,036,,48,00,000,41*76
$GPRMC,202000.684,A,3748.8069,N,12217.8484,W,0.14,286.36,130711,,,A*77
$GPVTG,286.36,T,,M,0.14,N,0.3,K,N*0D
$GPGGA,202001.684,3748.8069,N,12217.8484,W,1,03,4.3,-15.3,M,-25.1,M,,0000*78
$GPGSA,A,2,10,05,28,,,,,,,,,,4.5,4.3,1.0*3A
$GPRMC,202001.684,A,3748.8069,N,12217.8484,W,0.19,6.46,130711,,,A*76
$GPVTG,6.46,T,,M,0.19,N,0.4,K,N*0A
$GPGGA,202002.684,3748.8069,N,12217.8486,W,1,03,4.3,-15.3,M,-25.1,M,,0000*79
$GPGSA,A,2,10,05,28,,,,,,,,,,4.5,4.3,1.0*3A
$GPRMC,202002.684,A,3748.8069,N,12217.8486,W,0.39,241.63,130711,,,A*73
$GPVTG,241.63,T,,M,0.39,N,0.7,K,N*0D
$GPGGA,202003.684,3748.8068,N,12217.8487,W,1,03,4.3,-15.3,M,-25.1,M,,0000*78
$GPGSA,A,2,10,05,28,,,,,,,,,,4.5,4.3,1.0*3A
$GPRMC,202003.684,A,3748.8068,N,12217.8487,W,0.18,239.67,130711,,,A*7A
$GPVTG,239.67,T,,M,0.18,N,0.3,K,N*01
$GPGGA,202015.684,3748.8063,N,12217.8483,W,1,03,4.3,-15.3,M,-25.1,M,,0000*70
$GPGSA,A,2,10,05,28,,,,,,,,,,4.4,4.3,1.0*3B
$GPGSV,3,1,12,28,59,248,34,05,20,273,39,10,16,221,40,08,65,354,28*7C
$GPGSV,3,2,12,07,58,062,23,19,27,054,24,13,26,149,21,26,24,317,25*77
$GPGSV,3,3,12,11,10,107,15,17,07,188,27,03,03,036,28,48,00,000,31*7D
$GPRMC,202015.684,A,3748.8063,N,12217.8483,W,0.32,223.71,130711,,,A*76
$GPVTG,223.71,T,,M,0.32,N,0.6,K,N*00
$GPGGA,202016.684,3748.8062,N,12217.8484,W,1,03,4.3,-15.3,M,-25.1,M,,0000*75
$GPGSA,A,2,10,05,28,,,,,,,,,,4.4,4.3,1.0*3B
$GPRMC,202016.684,A,3748.8062,N,12217.8484,W,0.18,202.78,130711,,,A*71
$GPVTG,202.78,T,,M,0.18,N,0.3,K,N*07
$GPGGA,202017.684,3748.8063,N,12217.8486,W,1,03,4.3,-15.3,M,-25.1,M,,0000*77
$GPGSA,A,2,10,05,28,,,,,,,,,,4.4,4.3,1.0*3B
$GPRMC,202017.684,A,3748.8063,N,12217.8486,W,0.37,342.02,130711,,,A*76
$GPVTG,342.02,T,,M,0.37,N,0.7,K,N*06
$GPGGA,202018.684,3748.8062,N,12217.8485,W,1,03,4.3,-15.3,M,-25.1,M,,0000*7A
$GPGSA,A,2,10,05,28,,,,,,,,,,4.4,4.3,1.0*3B
$GPRMC,202018.684,A,3748.8062,N,12217.8485,W,0.28,76.55,130711,,,A*43
$GPVTG,76.55,T,,M,0.28,N,0.5,K,N*3C
$GPGGA,202019.684,3748.8062,N,12217.8486,W,1,03,4.3,-15.3,M,-25.1,M,,0000*78
$GPGSA,A,2,10,05,28,,,,,,,,,,4.4,4.3,1.0*3B
$GPRMC,202019.684,A,3748.8062,N,12217.8486,W,0.11,323.26,130711,,,A*7C
$GPVTG,323.26,T,,M,0.11,N,0.2,K,N*06
$GPGGA,202020.684,3748.8061,N,12217.8487,W,1,03,4.3,-15.3,M,-25.1,M,,0000*70
$GPGSA,A,2,10,05,28,,,,,,,,,,4.4,4.3,1.0*3B
$GPGSV,3,1,12,28,59,248,34,05,20,273,39,10,15,221,40,08,65,354,29*7E
$GPGSV,3,2,12,07,58,063,23,19,27,053,23,13,25,149,26,26,24,317,32*74
$GPGSV,3,3,12,11,10,107,18,17,07,188,28,03,03,036,28,48,44,197,32*73
$GPVTG,300.98,T,,M,0.08,N,0.1,K,N*09
$GPGGA,202027.684,3748.8040,N,12217.8584,W,1,04,2.8,-23.0,M,-25.1,M,,0000*7A
$GPGSA,A,3,10,13,05,28,,,,,,,,,3.9,2.8,2.7*3B
$GPRMC,202027.684,A,3748.8040,N,12217.8584,W,0.08,350.36,130711,,,A*7F
$GPVTG,350.36,T,,M,0.08,N,0.2,K,A*04
$GPGGA,202028.684,3748.8043,N,12217.8584,W,1,04,2.8,-23.1,M,-25.1,M,,0000*77
$GPGSA,A,3,10,13,05,28,,,,,,,,,3.9,2.8,2.7*3B
$GPRMC,202028.684,A,3748.8043,N,12217.8584,W,0.16,37.29,130711,,,A*40
$GPVTG,37.29,T,,M,0.16,N,0.3,K,A*36
$GPGGA,202029.684,3748.8020,N,12217.8591,W,1,04,2.8,-18.6,M,-25.1,M,,0000*78
$GPGSA,A,3,10,13,05,28,,,,,,,,,3.9,2.8,2.7*3B
$GPRMC,202029.684,A,3748.8020,N,12217.8591,W,0.24,11.08,130711,,,A*46
$GPVTG,11.08,T,,M,0.24,N,0.5,K,A*36
$GPGGA,202030.000,3748.8014,N,12217.8592,W,1,04,2.8,-17.4,M,-25.1,M,,0000*73
$GPGSA,A,3,10,13,05,28,,,,,,,,,3.9,2.8,2.7*3B
$GPGSV,3,1,12,28,59,248,33,13,25,149,33,05,20,273,28,10,15,221,35*70
$GPGSV,3,2,12,08,65,355,21,07,58,063,19,19,27,053,20,26,24,317,27*7C
$GPGSV,3,3,12,11,10,107,29,17,08,188,29,03,03,036,20,48,44,197,35*70
$GPRMC,202030.000,A,3748.8014,N,12217.8592,W,0.56,24.67,130711,,,A*4A
$GPVTG,24.67,T,,M,0.56,N,1.0,K,A*38
$GPGGA,202031.000,3748.8014,N,12217.8588,W,1,04,2.8,-14.9,M,-25.1,M,,0000*77
$GPGSA,A,3,10,13,05,28,,,,,,,,,3.9,2.8,2.7*3B
$GPRMC,202031.000,A,3748.8014,N,12217.8588,W,0.57,30.66,130711,,,A*45
$GPVTG,30.66,T,,M,0.57,N,1.1,K,A*3C
$GPGGA,202032.000,3748.8011,N,12217.8587,W,1,04,2.8,-13.3,M,-25.1,M,,0000*73
$GPGSA,A,3,10,13,05,28,,,,,,,,,3.9,2.8,2.7*3B
$GPRMC,202032.000,A,3748.8011,N,12217.8587,W,0.35,34.47,130711,,,A*4F
$GPVTG,34.47,T,,M,0.35,N,0.6,K,A*39
$GPGGA,202033.000,3748.8011,N,12217.8589,W,1,04,2.8,-9.3,M,-25.1,M,,0000*47
$GPGSA,A,3,10,13,05,28,,,,,,,,,3.9,2.8,2.7*3B
$GPRMC,202033.000,A,3748.8011,N,12217.8589,W,0.07,60.65,130711,,,A*40
$GPVTG,60.65,T,,M,0.07,N,0.1,K,A*3E
$GPGGA,202034.000,3748.8014,N,12217.8587,W,1,04,2.8,-9.4,M,-25.1,M,,0000*4C
$GPGSA,A,3,10,13,05,28,,,,,,,,,3.9,2.8,2.7*3B
$GPRMC,202034.000,A,3748.8014,N,12217.8587,W,0.14,17.58,130711,,,A*40
$GPVTG,17.58,T,,M,0.14,N,0.3,K,A*30
$GPGGA,202035.000,3748.7996,N,12217.8591,W,1,04,2.8,-5.5,M,-25.1,M,,0000*4B
$GPGSA,A,3,10,13,05,28,,,,,,,,,3.9,2.8,2.7*3B
$GPGSV,3,1,12,28,59,248,27,13,25,149,34,05,20,273,29,10,15,221,34*72
$GPGSV,3,2,12,08,65,355,26,07,58,063,21,19,27,053,27,26,24,317,28*78
$GPGSV,3,3,12,11,10,107,30,17,08,188,30,03,03,036,31,48,44,197,35*70
$GPRMC,202035.000,A,3748.7996,N,12217.8591,W,0.07,94.47,130711,,,A*4D
$GPGGA,202036.000,3748.7993,N,12217.8591,W,1,04,2.8,-4.1,M,-25.1,M,,0000*48
$GPGSA,A,3,10,13,05,28,,,,,,,,,3.9,2.8,2.7*3B
$GPRMC,202036.000,A,3748.7993,N,12217.8591,W,0.22,346.36,130711,,,A*76
$GPVTG,346.36,T,,M,0.22,N,0.4,K,A*0D
$GPGGA,202037.000,3748.7990,N,12217.8592,W,1,04,2.8,-2.7,M,-25.1,M,,0000*49
$GPGSA,A,3,10,13,05,28,,,,,,,,,3.9,2.8,2.7*3B
$GPRMC,202037.000,A,3748.7990,N,12217.8592,W,0.43,352.82,130711,,,A*7A
$GPVTG,352.82,T,,M,0.43,N,0.8,K,A*0C
$GPGGA,202038.000,3748.7989,N,12217.8593,W,1,04,2.8,-1.7,M,-25.1,M,,0000*4C
$GPGSA,A,3,10,13,05,28,,,,,,,,,3.9,2.8,2.7*3B
$GPRMC,202038.000,A,3748.7989,N,12217.8593,W,0.22,7.59,130711,,,A*7E
$GPVTG,7.59,T,,M,0.22,N,0.4,K,A*02
$GPGGA,202039.000,3748.7986,N,12217.8594,W,1,04,2.8,-0.7,M,-25.1,M,,0000*44
$GPGSA,A,3,10,13,05,28,,,,,,,,,3.9,2.8,2.7*3B
$GPRMC,202039.000,A,3748.7986,N,12217.8594,W,0.29,155.75,130711,,,A*74
$GPVTG,155.75,T,,M,0.29,N,0.5,K,A*00
$GPGGA,202040.000,3748.7981,N,12217.8594,W,1,04,2.8,0.1,M,-25.1,M,,0000*66
$GPGSA,A,3,10,13,05,28,,,,,,,,,3.9,2.8,2.7*3B
$GPGSV,3,1,12,08,65,355,25,28,59,249,29,07,58,063,22,19,27,053,28*7B
$GPGSV,3,2,12,13,25,149,39,26,25,317,28,05,20,273,20,10,15,221,33*73
$GPGSV,3,3,12,11,10,107,29,17,08,188,29,03,03,036,32,48,44,197,37*71
$GPRMC,202040.000,A,3748.7981,N,12217.8594,W,0.36,184.97,130711,,,A*73
$GPVTG,184.97,T,,M,0.36,N,0.7,K,A*0C
$GPGGA,202041.000,3748.7975,N,12217.8595,W,1,04,2.8,1.3,M,-25.1,M,,0000*6E
$GPGSA,A,3,10,13,05,28,,,,,,,,,3.9,2.8,2.7*3B
$GPRMC,202041.000,A,3748.7975,N,12217.8595,W,0.21,200.29,130711,,,A*74
$GPVTG,200.29,T,,M,0.21,N,0.4,K,A*03
$GPGGA,202042.000,3748.7960,N,12217.8599,W,1,04,2.8,3.9,M,-25.1,M,,0000*6D
$GPGSA,A,3,10,13,05,28,,,,,,,,,3.9,2.8,2.7*3B
$GPRMC,202042.000,A,3748.7960,N,12217.8599,W,0.49,185.23,130711,,,A*75
$GPVTG,185.23,T,,M,0.49,N,0.9,K,A*04
$GPGGA,202043.000,3748.7949,N,12217.8601,W,1,04,2.8,6.2,M,-25.1,M,,0000*6B
$GPGSA,A,3,10,13,05,28,,,,,,,,,3.9,2.8,2.7*3B
$GPRMC,202043.000,A,3748.7949,N,12217.8601,W,0.48,188.51,130711,,,A*74
$GPVTG,188.51,T,,M,0.48,N,0.9,K,A*0D
$GPGGA,202044.000,3748.7943,N,12217.8603,W,1,04,2.8,7.5,M,-25.1,M,,0000*62
$GPGSA,A,3,10,13,05,28,,,,,,,,,3.9,2.8,2.7*3B
$GPRMC,202044.000,A,3748.7943,N,12217.8603,W,0.46,192.39,130711,,,A*70
$GPVTG,192.39,T,,M,0.46,N,0.8,K,A*07
$GPGGA,202045.000,3748.7941,N,12217.8604,W,1,04,2.8,8.2,M,-25.1,M,,0000*6E
$GPGSA,A,3,10,13,05,28,,,,,,,,,3.9,2.8,2.7*3B
$GPGSV,3,1,12,08,65,355,30,28,59,249,33,07,58,063,23,19,27,053,29*74
$GPGSV,3,2,12,13,25,149,39,26,25,317,25,05,20,273,26,10,15,221,28*72
$GPGSV,3,3,12,11,10,107,34,17,08,188,28,03,03,036,32,48,44,197,38*73
$GPRMC,202045.000,A,3748.7941,N,12217.8604,W,0.34,193.85,130711,,,A*77
$GPVTG,193.85,T,,M,0.34,N,0.6,K,A*0A
$GPGGA,202046.000,3748.7940,N,12217.8604,W,1,04,2.8,8.4,M,-25.1,M,,0000*6A
$GPGSA,A,3,10,13,05,28,,,,,,,,,3.9,2.8,2.7*3B
$GPRMC,202046.000,A,3748.7940,N,12217.8604,W,0.29,194.52,130711,,,A*74
$GPVTG,194.52,T,,M,0.29,N,0.5,K,A*08
$GPGGA,202047.000,3748.7940,N,12217.8605,W,1,04,2.8,8.4,M,-25.1,M,,0000*6A
$GPGSA,A,3,10,13,05,28,,,,,,,,,3.9,2.8,2.7*3B
$GPRMC,202047.000,A,3748.7940,N,12217.8605,W,0.31,193.01,130711,,,A*7C
$GPVTG,193.01,T,,M,0.31,N,0.6,K,A*03
$GPGGA,202048.000,3748.7938,N,12217.8605,W,1,04,2.8,8.9,M,-25.1,M,,0000*67
$GPGSA,A,3,10,13,05,28,,,,,,,,,3.9,2.8,2.7*3B
$GPRMC,202048.000,A,3748.7938,N,12217.8605,W,0.23,187.16,130711,,,A*7C
$GPVTG,187.16,T,,M,0.23,N,0.4,K,A*01
$GPGGA,202049.000,3748.7936,N,12217.8606,W,1,04,2.8,8.3,M,-25.1,M,,0000*61
$GPGSA,A,3,10,13,05,28,,,,,,,,,3.9,2.8,2.7*3B
$GPRMC,202049.000,A,3748.7936,N,12217.8606,W,0.24,141.96,130711,,,A*75
$GPVTG,141.96,T,,M,0.24,N,0.4,K,A*04
$GPGGA,202050.000,3748.7931,N,12217.8608,W,1,04,2.8,8.4,M,-25.1,M,,0000*67
$GPGSA,A,3,10,13,05,28,,,,,,,,,3.9,2.8,2.7*3B
$GPGSV,3,1,12,08,65,355,22,28,59,249,26,07,58,063,32,19,26,053,29*72
$GPGSV,3,2,12,13,25,149,21,26,25,317,22,05,20,273,25,10,15,221,27*70
$GPGSV,3,3,12,11,10,107,34,17,08,188,25,03,03,036,29,48,44,197,35*79
$GPRMC,202050.000,A,3748.7931,N,12217.8608,W,0.21,135.76,130711,,,A*7C
$GPGGA,202051.000,3748.7925,N,12217.8613,W,1,04,2.8,7.6,M,-25.1,M,,0000*64
$GPGSA,A,3,10,13,05,28,,,,,,,,,3.9,2.8,2.7*3B
$GPRMC,202051.000,A,3748.7925,N,12217.8613,W,0.56,304.31,130711,,,A*71
$GPVTG,304.31,T,,M,0.56,N,1.0,K,A*0A
$GPGGA,202052.000,3748.7929,N,12217.8615,W,1,04,2.8,5.2,M,-25.1,M,,0000*6B
$GPGSA,A,3,10,13,05,28,,,,,,,,,3.9,2.8,2.7*3B
$GPRMC,202052.000,A,3748.7929,N,12217.8615,W,0.41,219.31,130711,,,A*73
$GPVTG,219.31,T,,M,0.41,N,0.8,K,A*08
$GPGGA,202053.000,3748.7933,N,12217.8616,W,1,04,2.8,3.3,M,-25.1,M,,0000*65
$GPGSA,A,3,10,13,05,28,,,,,,,,,3.9,2.8,2.7*3B
$GPRMC,202053.000,A,3748.7933,N,12217.8616,W,0.06,191.58,130711,,,A*75
$GPVTG,191.58,T,,M,0.06,N,0.1,K,A*0E
$GPGGA,202054.000,3748.7938,N,12217.8615,W,1,04,2.8,1.5,M,-25.1,M,,0000*6E
$GPGSA,A,3,10,13,05,28,,,,,,,,,3.9,2.8,2.7*3B
$GPRMC,202054.000,A,3748.7938,N,12217.8615,W,0.10,18.15,130711,,,A*44
$GPVTG,18.15,T,,M,0.10,N,0.2,K,A*33
$GPGGA,202055.000,3748.7941,N,12217.8616,W,1,04,2.8,0.1,M,-25.1,M,,0000*67
$GPGSA,A,3,10,13,05,28,,,,,,,,,3.9,2.8,2.7*3B
$GPGSV,3,1,12,08,65,355,25,28,59,249,26,07,58,063,28,19,26,053,33*75
$GPGSV,3,2,12,13,25,149,37,26,25,317,19,05,20,273,34,10,15,221,27*7F
$GPGSV,3,3,12,11,10,107,31,17,08,188,20,03,03,036,27,48,44,197,36*74
$GPRMC,202055.000,A,3748.7941,N,12217.8616,W,0.12,224.30,130711,,,A*70
$GPVTG,224.30,T,,M,0.12,N,0.2,K,A*0B
$GPGGA,202056.000,3748.7946,N,12217.8615,W,1,04,2.8,-0.6,M,-25.1,M,,0000*4A
$GPGSA,A,3,10,13,05,28,,,,,,,,,3.9,2.8,2.7*3B
$GPRMC,202056.000,A,3748.7946,N,12217.8615,W,0.38,23.98,130711,,,A*48
$GPVTG,23.98,T,,M,0.38,N,0.7,K,A*31
$GPGGA,202057.000,3748.7949,N,12217.8615,W,1,04,2.8,-0.5,M,-25.1,M,,0000*47
$GPGSA,A,3,10,13,05,28,,,,,,,,,3.9,2.8,2.7*3B
$GPRMC,202057.000,A,3748.7949,N,12217.8615,W,0.64,23.26,130711,,,A*4A
$GPVTG,23.26,T,,M,0.64,N,1.2,K,A*39
$GPGGA,202058.000,3748.7952,N,12217.8615,W,1,04,2.8,-0.4,M,-25.1,M,,0000*43
$GPGSA,A,3,10,13,05,28,,,,,,,,,3.9,2.8,2.7*3B
$GPRMC,202058.000,A,3748.7952,N,12217.8615,W,0.49,27.95,130711,,,A*4C
$GPVTG,27.95,T,,M,0.49,N,0.9,K,A*30
$GPGGA,202059.000,3748.7954,N,12217.8615,W,1,04,2.8,-0.2,M,-25.1,M,,0000*42
$GPGSA,A,3,10,13,05,28,,,,,,,,,3.9,2.8,2.7*3B
$GPRMC,202059.000,A,3748.7954,N,12217.8615,W,0.31,48.52,130711,,,A*46
$GPVTG,48.52,T,,M,0.31,N,0.6,K,A*32
$GPGGA,202100.000,3748.7956,N,12217.8614,W,1,04,2.8,0.1,M,-25.1,M,,0000*62
$GPGSA,A,3,10,13,05,28,,,,,,,,,3.9,2.8,2.7*3B
$GPGSV,3,1,12,08,65,355,20,28,59,249,35,07,58,063,27,19,26,053,28*77
$GPGSV,3,2,12,13,25,149,37,26,25,317,24,05,20,273,25,10,15,221,36*71
$GPGSV,3,3,12,11,10,107,30,17,08,188,29,03,03,036,25,48,44,197,34*7C
$GPRMC,202100.000,A,3748.7956,N,12217.8614,W,0.22,38.36,130711,,,A*4F
$GPVTG,38.36,T,,M,0.22,N,0.4,K,A*37
$GPGGA,202101.000,3748.7959,N,12217.8614,W,1,04,2.8,0.2,M,-25.1,M,,0000*6F
$GPGSA,A,3,10,13,05,28,,,,,,,,,3.9,2.8,2.7*3B
$GPRMC,202101.000,A,3748.7959,N,12217.8614,W,0.27,23.50,130711,,,A*4E
$GPVTG,23.50,T,,M,0.27,N,0.5,K,A*39
$GPGGA,202102.000,3748.7963,N,12217.8613,W,2,04,2.8,-0.1,M,-25.1,M,1.8,0000*68
$GPGSA,A,3,10,13,05,28,,,,,,,,,3.9,2.8,2.7*3B
$GPRMC,202102.000,A,3748.7963,N,12217.8613,W,0.21,39.44,130711,,,D*4E
$GPVTG,39.44,T,,M,0.21,N,0.4,K,D*35
$GPGGA,202103.000,3748.7964,N,12217.8613,W,2,04,2.8,-0.2,M,-25.1,M,1.8,0000*6D
$GPGSA,A,3,10,13,05,28,,,,,,,,,3.9,2.8,2.7*3B
$GPRMC,202103.000,A,3748.7964,N,12217.8613,W,0.63,212.50,130711,,,D*70
$GPVTG,212.50,T,,M,0.63,N,1.2,K,D*0A
$GPGGA,202104.000,3748.7970,N,12217.8609,W,2,04,2.8,-1.3,M,-25.1,M,1.8,0000*64
$GPGSA,A,3,10,13,05,28,,,,,,,,,3.9,2.8,2.7*3B
$GPRMC,202104.000,A,3748.7970,N,12217.8609,W,0.14,166.18,130711,,,D*75
$GPVTG,166.18,T,,M,0.14,N,0.3,K,D*06
$GPGGA,202105.000,3748.7971,N,12217.8609,W,2,04,2.8,-1.5,M,-25.1,M,2.8,0000*61
$GPGSA,A,3,10,13,05,28,,,,,,,,,3.9,2.8,2.7*3B
$GPGSV,3,1,12,08,65,355,29,28,59,249,21,07,58,063,32,19,26,053,34*72
$GPGSV,3,2,12,13,25,149,37,26,25,317,26,05,20,273,27,10,15,221,25*73
$GPGSV,3,3,12,11,10,107,30,17,08,188,24,03,03,036,29,48,44,197,32*7B
$GPRMC,202105.000,A,3748.7971,N,12217.8609,W,0.44,156.80,130711,,,D*72
$GPGGA,202106.000,3748.7975,N,12217.8605,W,2,04,2.8,-3.3,M,-25.1,M,3.8,0000*6F
$GPGSA,A,3,10,13,05,28,,,,,,,,,3.9,2.8,2.7*3B
$GPRMC,202106.000,A,3748.7975,N,12217.8605,W,0.22,188.02,130711,,,D*70
$GPVTG,188.02,T,,M,0.22,N,0.4,K,D*0F
$GPGGA,202107.000,3748.7982,N,12217.8600,W,2,04,2.8,-5.6,M,-25.1,M,4.8,0000*67
$GPGSA,A,3,10,13,05,28,,,,,,,,,3.9,2.8,2.7*3B
$GPRMC,202107.000,A,3748.7982,N,12217.8600,W,0.21,16.23,130711,,,D*4A
$GPVTG,16.23,T,,M,0.21,N,0.4,K,D*39
$GPGGA,202108.000,3748.7989,N,12217.8596,W,2,04,2.8,-8.1,M,-25.1,M,5.8,0000*64
$GPGSA,A,3,10,13,05,28,,,,,,,,,3.9,2.8,2.7*3B
$GPRMC,202108.000,A,3748.7989,N,12217.8596,W,0.40,48.43,130711,,,D*48
$GPVTG,48.43,T,,M,0.40,N,0.7,K,D*30
$GPGGA,202109.000,3748.7994,N,12217.8593,W,2,04,2.8,-8.9,M,-25.1,M,6.8,0000*67
$GPGSA,A,3,10,13,05,28,,,,,,,,,3.9,2.8,2.7*3B
$GPRMC,202109.000,A,3748.7994,N,12217.8593,W,0.58,23.49,130711,,,D*4E
$GPVTG,23.49,T,,M,0.58,N,1.1,K,D*39
$GPGGA,202110.000,3748.7999,N,12217.8590,W,2,04,2.8,-10.4,M,-25.1,M,7.8,0000*54
$GPGSA,A,3,10,13,05,28,,,,,,,,,3.9,2.8,2.7*3B
$GPGSV,3,1,12,08,65,355,30,28,59,249,25,07,58,063,30,19,26,053,34*7C
$GPGSV,3,2,12,13,25,149,35,26,25,317,27,05,20,273,27,10,15,221,31*75
$GPGSV,3,3,12,11,11,107,30,17,08,188,26,03,03,036,30,48,44,197,27*74
$GPRMC,202110.000,A,3748.7999,N,12217.8590,W,0.65,27.54,130711,,,D*4E
$GPVTG,27.54,T,,M,0.65,N,1.2,K,D*3C
$GPGGA,202111.000,3748.8003,N,12217.8588,W,2,04,2.8,-10.9,M,-25.1,M,8.8,0000*5B
$GPGSA,A,3,10,13,05,28,,,,,,,,,3.9,2.8,2.7*3B
$GPRMC,202111.000,A,3748.8003,N,12217.8588,W,0.66,22.33,130711,,,D*44
$GPVTG,22.33,T,,M,0.66,N,1.2,K,D*3B
$GPGGA,202112.000,3748.8004,N,12217.8589,W,2,04,2.8,-8.9,M,-25.1,M,9.8,0000*66
$GPGSA,A,3,10,13,05,28,,,,,,,,,3.9,2.8,2.7*3B
$GPRMC,202112.000,A,3748.8004,N,12217.8589,W,0.53,23.92,130711,,,D*4D
$GPVTG,23.92,T,,M,0.53,N,1.0,K,D*35
$GPGGA,202113.000,3748.8004,N,12217.8590,W,2,03,2.6,-9.1,M,-25.1,M,,0000*40
$GPGSA,A,2,10,13,05,,,,,,,,,,2.7,2.6,1.0*35
$GPRMC,202113.000,A,3748.8004,N,12217.8590,W,0.27,33.56,130711,,,D*4E
$GPVTG,33.56,T,,M,0.27,N,0.5,K,N*31
$GPGGA,202114.000,3748.8005,N,12217.8590,W,2,03,2.6,-9.2,M,-25.1,M,1.8,0000*62
$GPGSA,A,2,10,13,05,,,,,,,,,,2.7,2.6,1.0*35
$GPRMC,202114.000,A,3748.8005,N,12217.8590,W,0.26,31.89,130711,,,D*49
$GPVTG,31.89,T,,M,0.26,N,0.5,K,N*30
$GPGGA,202115.000,3748.8003,N,12217.8593,W,2,04,2.8,-6.9,M,-25.1,M,1.8,0000*6B
$GPGSA,A,3,10,13,05,28,,,,,,,,,3.9,2.8,2.7*3B
$GPGSV,3,1,12,08,65,355,30,28,59,249,19,07,58,063,31,19,26,053,31*77
$GPGSV,3,2,12,13,25,149,35,26,25,317,29,05,20,273,33,10,15,221,30*7F
$GPGSV,3,3,12,11,11,107,30,17,08,188,19,03,03,036,22,48,44,197,33*7E
$GPRMC,202115.000,A,3748.8003,N,12217.8593,W,0.23,23.58,130711,,,D*47
$GPVTG,23.58,T,,M,0.23,N,0.4,K,D*31
$GPGGA,202116.000,3748.8002,N,12217.8596,W,2,04,2.8,-4.8,M,-25.1,M,1.8,0000*6F
$GPGSA,A,3,10,13,05,28,,,,,,,,,3.9,2.8,2.7*3B
$GPRMC,202116.000,A,3748.8002,N,12217.8596,W,0.03,161.12,130711,,,D*7B
$GPVTG,161.12,T,,M,0.03,N,0.1,K,D*0F
$GPGGA,202117.000,3748.8000,N,12217.8598,W,2,04,2.8,-2.8,M,-25.1,M,2.8,0000*67
$GPGSA,A,3,10,13,05,28,,,,,,,,,3.9,2.8,2.7*3B
$GPRMC,202117.000,A,3748.8000,N,12217.8598,W,0.06,218.03,130711,,,D*7E
$GPVTG,218.03,T,,M,0.06,N,0.1,K,D*07
$GPGGA,202118.000,3748.8000,N,12217.8599,W,2,04,2.8,-1.7,M,-25.1,M,3.8,0000*64
$GPGSA,A,3,10,13,05,28,,,,,,,,,3.9,2.8,2.7*3B
$GPRMC,202118.000,A,3748.8000,N,12217.8599,W,0.09,221.03,130711,,,D*75
$GPVTG,221.03,T,,M,0.09,N,0.2,K,D*01
$GPGGA,202119.000,3748.7999,N,12217.8600,W,2,04,2.8,-1.0,M,-25.1,M,4.8,0000*60
$GPGSA,A,3,10,13,05,28,,,,,,,,,3.9,2.8,2.7*3B
$GPRMC,202119.000,A,3748.7999,N,12217.8600,W,0.09,218.65,130711,,,D*7B
$GPVTG,218.65,T,,M,0.09,N,0.2,K,D*0B
$GPGGA,202120.000,3748.7998,N,12217.8601,W,2,04,2.8,0.1,M,-25.1,M,1.8,0000*42
$GPGSA,A,3,10,13,05,28,,,,,,,,,3.9,2.8,2.7*3B
$GPGSV,3,1,12,08,65,355,22,28,59,249,28,07,58,063,32,19,26,053,34*70
$GPGSV,3,2,12,13,25,149,36,26,25,317,30,05,20,273,32,10,15,221,28*7C
$GPGSV,3,3,12,11,11,107,30,17,08,188,18,03,03,036,22,48,44,197,33*7F
$GPRMC,202120.000,A,3748.7998,N,12217.8601,W,0.11,182.02,130711,,,D*79
$GPGGA,202121.000,3748.7998,N,12217.8602,W,2,04,2.8,0.5,M,-25.1,M,1.8,0000*44
$GPGSA,A,3,10,13,05,28,,,,,,,,,3.9,2.8,2.7*3B
$GPRMC,202121.000,A,3748.7998,N,12217.8602,W,0.07,183.90,130711,,,D*76
$GPVTG,183.90,T,,M,0.07,N,0.1,K,D*0D
$GPGGA,202122.000,3748.7996,N,12217.8603,W,2,04,2.8,1.4,M,-25.1,M,1.8,0000*48
$GPGSA,A,3,10,13,05,28,,,,,,,,,3.9,2.8,2.7*3B
$GPRMC,202122.000,A,3748.7996,N,12217.8603,W,0.02,44.89,130711,,,D*4D
$GPVTG,44.89,T,,M,0.02,N,0.0,K,D*3B
$GPGGA,202123.000,3748.7994,N,12217.8604,W,2,04,2.8,2.7,M,-25.1,M,1.8,0000*4C
$GPGSA,A,3,10,13,05,28,,,,,,,,,3.9,2.8,2.7*3B
$GPRMC,202123.000,A,3748.7994,N,12217.8604,W,0.04,207.61,130711,,,D*7C
$GPVTG,207.61,T,,M,0.04,N,0.1,K,D*0F
$GPGGA,202124.000,3748.7991,N,12217.8607,W,2,04,2.8,4.6,M,-25.1,M,1.8,0000*4A
$GPGSA,A,3,10,13,05,28,,,,,,,,,3.9,2.8,2.7*3B
$GPRMC,202124.000,A,3748.7991,N,12217.8607,W,0.22,192.26,130711,,,D*75
$GPVTG,192.26,T,,M,0.22,N,0.4,K,D*02
$GPGGA,202125.000,3748.7988,N,12217.8609,W,2,04,2.8,6.2,M,-25.1,M,2.8,0000*48
$GPGSA,A,3,10,13,05,28,,,,,,,,,3.9,2.8,2.7*3B
$GPGSV,3,1,12,08,65,355,25,28,59,249,26,07,58,063,32,19,26,053,34*79
$GPGSV,3,2,12,13,25,149,38,26,25,317,30,05,20,273,25,10,15,221,28*74
$GPGSV,3,3,12,11,11,107,30,17,08,188,17,03,03,036,24,48,44,197,33*76
$GPRMC,202125.000,A,3748.7988,N,12217.8609,W,0.37,204.78,130711,,,D*71
$GPVTG,204.78,T,,M,0.37,N,0.7,K,D*02
$GPGGA,202126.000,3748.7984,N,12217.8612,W,2,04,2.8,7.6,M,-25.1,M,1.8,0000*4B
$GPGSA,A,3,10,13,05,28,,,,,,,,,3.9,2.8,2.7*3B
$GPRMC,202126.000,A,3748.7984,N,12217.8612,W,0.49,207.69,130711,,,D*7E
$GPVTG,207.69,T,,M,0.49,N,0.9,K,D*06
$GPGGA,202127.000,3748.7985,N,12217.8610,W,2,05,1.7,7.5,M,-25.1,M,1.8,0000*47
$GPGSA,A,3,10,13,05,28,07,,,,,,,,3.2,1.7,2.6*3A
$GPRMC,202127.000,A,3748.7985,N,12217.8610,W,0.43,198.68,130711,,,D*72
$GPVTG,198.68,T,,M,0.43,N,0.8,K,D*09
$GPGGA,202128.000,3748.7984,N,12217.8608,W,2,05,1.7,8.2,M,-25.1,M,1.8,0000*48
$GPGSA,A,3,10,13,05,28,07,,,,,,,,3.2,1.7,2.6*3A
$GPRMC,202128.000,A,3748.7984,N,12217.8608,W,0.37,194.14,130711,,,D*71
$GPVTG,194.14,T,,M,0.37,N,0.7,K,D*02
$GPGGA,202129.000,3748.7985,N,12217.8606,W,2,05,1.7,8.2,M,-25.1,M,1.8,0000*46
$GPGSA,A,3,10,13,05,28,07,,,,,,,,3.2,1.7,2.6*3A
$GPRMC,202129.000,A,3748.7985,N,12217.8606,W,0.42,191.57,130711,,,D*7F
$GPVTG,191.57,T,,M,0.42,N,0.8,K,D*0D
$GPGGA,202130.000,3748.7984,N,12217.8604,W,2,05,1.7,8.4,M,-25.1,M,2.8,0000*48
$GPGSA,A,3,10,13,05,28,07,,,,,,,,3.2,1.7,2.6*3A
$GPGSV,3,1,12,08,65,356,24,28,59,249,31,07,58,064,30,19,26,053,35*79
$GPGSV,3,2,12,13,25,149,39,26,25,317,20,05,20,273,18,10,15,221,29*7B
$GPGSV,3,3,12,11,11,107,31,17,08,188,17,03,03,036,29,48,44,197,35*7C
$GPRMC,202130.000,A,3748.7984,N,12217.8604,W,0.51,162.21,130711,,,D*7B
$GPVTG,162.21,T,,M,0.51,N,0.9,K,D*03
$GPGGA,202131.000,3748.7984,N,12217.8602,W,2,05,1.7,8.3,M,-25.1,M,3.8,0000*49
$GPGSA,A,3,10,13,05,28,07,,,,,,,,3.2,1.7,2.6*3A
$GPRMC,202131.000,A,3748.7984,N,12217.8602,W,0.35,185.55,130711,,,D*74
$GPVTG,185.55,T,,M,0.35,N,0.6,K,D*04
$GPGGA,202132.000,3748.7983,N,12217.8600,W,2,05,1.7,8.3,M,-25.1,M,1.8,0000*4D
$GPGSA,A,3,10,13,05,28,07,,,,,,,,3.2,1.7,2.6*3A
$GPRMC,202132.000,A,3748.7983,N,12217.8600,W,0.34,195.49,130711,,,D*7F
$GPVTG,195.49,T,,M,0.34,N,0.6,K,D*09
$GPGGA,202133.000,3748.7990,N,12217.8596,W,2,07,1.1,6.2,M,-25.1,M,1.8,0000*49
$GPGSA,A,3,10,13,05,28,07,19,11,,,,,,2.0,1.1,1.7*35
$GPRMC,202133.000,A,3748.7990,N,12217.8596,W,0.08,241.74,130711,,,D*7B
$GPVTG,241.74,T,,M,0.08,N,0.1,K,D*05
$GPGGA,202134.000,3748.7994,N,12217.8594,W,2,07,1.1,5.0,M,-25.1,M,1.8,0000*49
$GPGSA,A,3,10,13,05,28,07,19,11,,,,,,2.0,1.1,1.7*35
$GPRMC,202134.000,A,3748.7994,N,12217.8594,W,0.05,143.84,130711,,,D*79
$GPVTG,143.84,T,,M,0.05,N,0.1,K,D*06
$GPGGA,202135.000,3748.7996,N,12217.8593,W,2,07,1.1,4.0,M,-25.1,M,2.8,0000*4F
$GPGSA,A,3,10,13,05,28,07,19,11,,,,,,2.0,1.1,1.7*35
$GPGSV,3,1,12,08,65,356,24,28,59,249,30,07,58,064,29,19,26,053,39*7C
$GPGSV,3,2,12,13,25,149,39,26,25,317,23,05,20,273,20,10,15,221,30*7B
$GPGSV,3,3,12,11,11,107,31,17,08,188,17,03,03,036,28,48,44,197,34*7C
$GPVTG,267.43,T,,M,0.09,N,0.2,K,D*07
$GPGGA,202136.000,3748.7997,N,12217.8593,W,2,07,1.1,3.7,M,-25.1,M,1.8,0000*4E
$GPGSA,A,3,10,13,05,28,07,19,11,,,,,,2.0,1.1,1.7*35
$GPRMC,202136.000,A,3748.7997,N,12217.8593,W,0.03,258.39,130711,,,D*76
$GPVTG,258.39,T,,M,0.03,N,0.1,K,D*0F
$GPGGA,202137.000,3748.7997,N,12217.8593,W,2,07,1.1,3.5,M,-25.1,M,2.8,0000*4E
$GPGSA,A,3,10,13,05,28,07,19,11,,,,,,2.0,1.1,1.7*35
$GPRMC,202137.000,A,3748.7997,N,12217.8593,W,0.05,93.90,130711,,,D*47
$GPVTG,93.90,T,,M,0.05,N,0.1,K,D*3F
$GPGGA,202138.000,3748.7998,N,12217.8593,W,2,07,1.1,3.3,M,-25.1,M,1.8,0000*4B
$GPGSA,A,3,10,13,05,28,07,19,11,,,,,,2.0,1.1,1.7*35
$GPRMC,202138.000,A,3748.7998,N,12217.8593,W,0.15,100.06,130711,,,D*72
$GPVTG,100.06,T,,M,0.15,N,0.3,K,D*08
$GPGGA,202139.000,3748.7998,N,12217.8593,W,2,07,1.1,3.3,M,-25.1,M,1.8,0000*4A
$GPGSA,A,3,10,13,05,28,07,19,11,,,,,,2.0,1.1,1.7*35
$GPRMC,202139.000,A,3748.7998,N,12217.8593,W,0.15,87.34,130711,,,D*4C
$GPVTG,87.34,T,,M,0.15,N,0.3,K,D*37
$GPGGA,202140.000,3748.7998,N,12217.8593,W,2,07,1.1,3.1,M,-25.1,M,1.8,0000*46
$GPGSA,A,3,10,13,05,28,07,19,11,,,,,,2.0,1.1,1.7*35
$GPGSV,3,1,12,08,65,356,24,28,59,249,30,07,58,064,30,19,26,053,40*7A
$GPGSV,3,2,12,26,25,317,27,13,25,149,40,05,20,273,19,10,15,221,30*7B
$GPGSV,3,3,12,11,11,107,31,17,08,188,17,03,03,036,29,48,44,197,34*7D
$GPRMC,202140.000,A,3748.7998,N,12217.8593,W,0.09,57.20,130711,,,D*47
$GPVTG,57.20,T,,M,0.09,N,0.2,K,D*33
$GPGGA,202141.000,3748.7999,N,12217.8593,W,2,07,1.1,2.9,M,-25.1,M,2.8,0000*4C
$GPGSA,A,3,10,13,05,28,07,19,11,,,,,,2.0,1.1,1.7*35
$GPRMC,202141.000,A,3748.7999,N,12217.8593,W,0.15,318.61,130711,,,D*77
$GPVTG,318.61,T,,M,0.15,N,0.3,K,D*02
$GPGGA,202142.000,3748.7999,N,12217.8593,W,2,07,1.1,2.8,M,-25.1,M,3.8,0000*4F
$GPGSA,A,3,10,13,05,28,07,19,11,,,,,,2.0,1.1,1.7*35
$GPRMC,202142.000,A,3748.7999,N,12217.8593,W,0.10,58.10,130711,,,D*40
$GPVTG,58.10,T,,M,0.10,N,0.2,K,D*37
$GPGGA,202143.000,3748.8000,N,12217.8594,W,2,07,1.1,2.8,M,-25.1,M,4.8,0000*48
$GPGSA,A,3,10,13,05,28,07,19,11,,,,,,2.0,1.1,1.7*35
$GPRMC,202143.000,A,3748.8000,N,12217.8594,W,0.11,70.06,130711,,,D*4C
$GPVTG,70.06,T,,M,0.11,N,0.2,K,D*3B
$GPGGA,202144.000,3748.8000,N,12217.8592,W,2,07,1.1,1.6,M,-25.1,M,1.8,0000*41
$GPGSA,A,3,10,13,05,28,07,19,11,,,,,,2.0,1.1,1.7*35
$GPRMC,202144.000,A,3748.8000,N,12217.8592,W,0.15,78.57,130711,,,D*45
$GPVTG,78.57,T,,M,0.15,N,0.3,K,D*32
$GPGGA,202145.000,3748.8001,N,12217.8591,W,2,07,1.1,1.1,M,-25.1,M,2.8,0000*46
$GPGSA,A,3,10,13,05,28,07,19,11,,,,,,2.0,1.1,1.7*35
$GPGSV,3,1,12,08,65,356,24,28,59,249,24,07,58,064,30,19,26,053,40*7F
$GPGSV,3,2,12,26,25,317,26,13,25,149,40,05,20,273,24,10,15,221,30*74
$GPGSV,3,3,12,11,11,107,23,17,08,188,18,03,03,036,28,48,44,197,27*72
$GPRMC,202145.000,A,3748.8001,N,12217.8591,W,0.46,2.47,130711,,,D*7C
$GPVTG,2.47,T,,M,0.46,N,0.8,K,D*03
$GPGGA,202146.000,3748.8002,N,12217.8590,W,2,07,1.1,0.1,M,-25.1,M,3.8,0000*47
$GPGSA,A,3,10,13,05,28,07,19,11,,,,,,2.0,1.1,1.7*35
$GPRMC,202146.000,A,3748.8002,N,12217.8590,W,0.14,353.35,130711,,,D*78
$GPVTG,353.35,T,,M,0.14,N,0.3,K,D*0D
$GPGGA,202147.000,3748.8002,N,12217.8591,W,2,07,1.1,-0.3,M,-25.1,M,4.8,0000*6F
$GPGSA,A,3,10,13,05,28,07,19,11,,,,,,2.0,1.1,1.7*35
$GPRMC,202147.000,A,3748.8002,N,12217.8591,W,0.20,249.79,130711,,,D*7D
$GPVTG,249.79,T,,M,0.20,N,0.4,K,D*0F
$GPGGA,202148.000,3748.8002,N,12217.8592,W,2,07,1.1,-0.8,M,-25.1,M,5.8,0000*69
$GPGSA,A,3,10,13,05,28,07,19,11,,,,,,2.0,1.1,1.7*35
$GPRMC,202148.000,A,3748.8002,N,12217.8592,W,0.05,39.48,130711,,,D*41
$GPVTG,39.48,T,,M,0.05,N,0.1,K,D*3A
$GPGGA,202149.000,3748.8003,N,12217.8592,W,2,07,1.1,-1.0,M,-25.1,M,6.8,0000*63
$GPGSA,A,3,10,13,05,28,07,19,11,,,,,,2.0,1.1,1.7*35
$GPRMC,202149.000,A,3748.8003,N,12217.8592,W,0.22,55.85,130711,,,D*4F
$GPVTG,55.85,T,,M,0.22,N,0.4,K,D*31
$GPGGA,202150.000,3748.8003,N,12217.8593,W,2,07,1.1,-1.4,M,-25.1,M,7.8,0000*6F
$GPGSA,A,3,10,13,05,28,07,19,11,,,,,,2.0,1.1,1.7*35
$GPGSV,3,1,12,08,65,356,23,28,59,249,32,07,58,064,29,19,26,053,32*72
$GPGSV,3,2,12,26,25,317,27,13,25,149,40,05,20,273,31,10,15,221,30*71
$GPGSV,3,3,12,11,11,107,24,17,08,188,25,03,03,036,28,48,44,197,33*7E
$GPRMC,202150.000,A,3748.8003,N,12217.8593,W,0.06,50.17,130711,,,D*4E
$GPVTG,50.17,T,,M,0.06,N,0.1,K,D*3C
$GPGGA,202151.000,3748.8004,N,12217.8594,W,2,07,1.1,-1.7,M,-25.1,M,1.8,0000*6B
$GPGSA,A,3,10,13,05,28,07,19,11,,,,,,2.0,1.1,1.7*35
$GPRMC,202151.000,A,3748.8004,N,12217.8594,W,0.02,17.71,130711,,,D*48
$GPVTG,17.71,T,,M,0.02,N,0.0,K,D*3A
$GPGGA,202152.000,3748.8004,N,12217.8596,W,2,07,1.1,-2.2,M,-25.1,M,1.8,0000*6C
$GPGSA,A,3,10,13,05,28,07,19,11,,,,,,2.0,1.1,1.7*35
$GPRMC,202152.000,A,3748.8004,N,12217.8596,W,0.28,246.48,130711,,,D*7D
$GPVTG,246.48,T,,M,0.28,N,0.5,K,D*0B
$GPGGA,202153.000,3748.8004,N,12217.8598,W,2,07,1.1,-2.2,M,-25.1,M,2.8,0000*60
$GPGSA,A,3,10,13,05,28,07,19,11,,,,,,2.0,1.1,1.7*35
$GPRMC,202153.000,A,3748.8004,N,12217.8598,W,0.09,255.93,130711,,,D*75
$GPVTG,255.93,T,,M,0.09,N,0.2,K,D*0B
$GPGGA,202154.000,3748.8004,N,12217.8601,W,2,07,1.1,-1.5,M,-25.1,M,1.8,0000*63
$GPGSA,A,3,10,13,05,28,07,19,11,,,,,,2.0,1.1,1.7*35
$GPRMC,202154.000,A,3748.8004,N,12217.8601,W,0.11,208.63,130711,,,D*7F
$GPVTG,208.63,T,,M,0.11,N,0.2,K,D*05
$GPGGA,202155.000,3748.8004,N,12217.8602,W,2,07,1.1,-1.4,M,-25.1,M,2.8,0000*63
$GPGSA,A,3,10,13,05,28,07,19,11,,,,,,2.0,1.1,1.7*35
$GPGSV,3,1,12,08,65,356,21,28,59,249,23,07,58,064,26,19,26,053,24*78
$GPGSV,3,2,12,26,25,317,23,13,25,149,39,05,20,273,32,10,15,221,24*7D
$GPGSV,3,3,12,11,11,107,29,17,08,188,16,03,03,036,22,48,44,197,36*7C
$GPRMC,202155.000,A,3748.8004,N,12217.8602,W,0.02,23.25,130711,,,D*46
$GPGGA,202156.000,3748.8005,N,12217.8603,W,2,07,1.1,-1.6,M,-25.1,M,1.8,0000*61
$GPGSA,A,3,10,13,05,28,07,19,11,,,,,,2.0,1.1,1.7*35
$GPRMC,202156.000,A,3748.8005,N,12217.8603,W,0.03,208.82,130711,,,D*72
$GPVTG,208.82,T,,M,0.03,N,0.1,K,D*0A
$GPGGA,202157.000,3748.8005,N,12217.8604,W,2,07,1.1,-1.7,M,-25.1,M,1.8,0000*66
$GPGSA,A,3,10,13,05,28,07,19,11,,,,,,2.0,1.1,1.7*35
$GPRMC,202157.000,A,3748.8005,N,12217.8604,W,0.02,166.39,130711,,,D*7E
$GPVTG,166.39,T,,M,0.02,N,0.0,K,D*01
$GPGGA,202158.000,3748.8005,N,12217.8604,W,2,07,1.1,-1.7,M,-25.1,M,1.8,0000*69
$GPGSA,A,3,10,13,05,28,07,19,11,,,,,,2.0,1.1,1.7*35
$GPRMC,202158.000,A,3748.8005,N,12217.8604,W,0.06,209.62,130711,,,D*71
$GPVTG,209.62,T,,M,0.06,N,0.1,K,D*00
$GPGGA,202159.000,3748.8005,N,12217.8605,W,2,07,1.1,-1.8,M,-25.1,M,1.8,0000*66
$GPGSA,A,3,10,13,05,28,07,19,11,,,,,,2.0,1.1,1.7*35
$GPRMC,202159.000,A,3748.8005,N,12217.8605,W,0.09,228.40,130711,,,D*7D
$GPVTG,228.40,T,,M,0.09,N,0.2,K,D*0F
$GPGGA,202200.000,3748.8005,N,12217.8606,W,2,07,1.1,-1.8,M,-25.1,M,1.8,0000*6A
$GPGSA,A,3,10,13,05,28,07,19,11,,,,,,2.0,1.1,1.6*34
$GPGSV,3,1,12,08,65,356,20,28,59,249,30,07,58,064,28,19,26,053,27*76
$GPGSV,3,2,12,26,25,317,30,13,25,149,39,05,20,273,32,10,15,221,22*79
$GPGSV,3,3,12,11,11,107,27,17,08,188,15,03,03,036,26,48,44,197,36*75
$GPRMC,202200.000,A,3748.8005,N,12217.8606,W,0.17,224.64,130711,,,D*74
$GPVTG,224.64,T,,M,0.17,N,0.3,K,D*0B
$GPGGA,202201.000,3748.8005,N,12217.8607,W,2,07,1.1,-1.8,M,-25.1,M,1.8,0000*6A
$GPGSA,A,3,10,13,05,28,07,19,11,,,,,,2.0,1.1,1.6*34
$GPRMC,202201.000,A,3748.8005,N,12217.8607,W,0.19,214.64,130711,,,D*79
$GPVTG,214.64,T,,M,0.19,N,0.4,K,D*01
$GPGGA,202202.000,3748.8005,N,12217.8608,W,2,07,1.1,-1.7,M,-25.1,M,1.8,0000*69
$GPGSA,A,3,10,13,05,28,07,19,11,,,,,,2.0,1.1,1.6*34
$GPRMC,202202.000,A,3748.8005,N,12217.8608,W,0.12,282.64,130711,,,D*71
$GPVTG,282.64,T,,M,0.12,N,0.2,K,D*03
$GPGGA,202203.000,3748.8005,N,12217.8608,W,2,07,1.1,-1.7,M,-25.1,M,1.8,0000*68
$GPGSA,A,3,10,13,05,28,07,19,11,,,,,,2.0,1.1,1.6*34
$GPRMC,202203.000,A,3748.8005,N,12217.8608,W,0.15,11.71,130711,,,D*4B
$GPVTG,11.71,T,,M,0.15,N,0.3,K,D*39
$GPGGA,202204.000,3748.8005,N,12217.8608,W,2,07,1.1,-1.7,M,-25.1,M,1.8,0000*6F
$GPGSA,A,3,10,13,05,28,07,19,11,,,,,,2.0,1.1,1.6*34
$GPRMC,202204.000,A,3748.8005,N,12217.8608,W,0.13,358.42,130711,,,D*74
$GPVTG,358.42,T,,M,0.13,N,0.2,K,D*00
$GPGGA,202205.000,3748.8005,N,12217.8609,W,2,07,1.1,-1.8,M,-25.1,M,1.8,0000*60
$GPGSA,A,3,10,13,05,28,07,19,11,,,,,,2.0,1.1,1.6*34
$GPGSV,3,1,12,08,65,356,20,28,59,249,24,07,58,064,26,19,26,053,31*7A
$GPGSV,3,2,12,26,25,317,29,13,25,149,37,05,20,273,33,10,15,221,35*78
$GPGSV,3,3,12,11,11,107,27,17,08,188,21,03,03,036,23,48,44,197,36*77
$GPRMC,202205.000,A,3748.8005,N,12217.8609,W,0.10,55.34,130711,,,D*48
$GPVTG,55.34,T,,M,0.10,N,0.2,K,D*3C
$GPGGA,202206.000,3748.8004,N,12217.8609,W,2,07,1.1,-1.8,M,-25.1,M,1.8,0000*62
$GPGSA,A,3,10,13,05,28,07,19,11,,,,,,2.0,1.1,1.6*34
$GPRMC,202206.000,A,3748.8004,N,12217.8609,W,0.06,342.31,130711,,,D*7D
$GPVTG,342.31,T,,M,0.06,N,0.1,K,D*08
$GPGGA,202207.000,3748.8004,N,12217.8610,W,2,07,1.1,-2.2,M,-25.1,M,2.8,0000*61
$GPGSA,A,3,10,13,05,28,07,19,11,,,,,,2.0,1.1,1.6*34
$GPRMC,202207.000,A,3748.8004,N,12217.8610,W,0.08,336.37,130711,,,D*7F
$GPVTG,336.37,T,,M,0.08,N,0.1,K,D*03
$GPGGA,202208.000,3748.8004,N,12217.8610,W,2,07,1.1,-2.3,M,-25.1,M,1.8,0000*6C
$GPGSA,A,3,10,13,05,28,07,19,11,,,,,,2.0,1.1,1.6*34
$GPRMC,202208.000,A,3748.8004,N,12217.8610,W,0.02,72.90,130711,,,D*44
$GPVTG,72.90,T,,M,0.02,N,0.0,K,D*36
$GPGGA,202209.000,3748.8003,N,12217.8610,W,2,07,1.1,-2.5,M,-25.1,M,1.8,0000*6C
$GPGSA,A,3,10,13,05,28,07,19,11,,,,,,2.0,1.1,1.6*34
$GPRMC,202209.000,A,3748.8003,N,12217.8610,W,0.03,131.77,130711,,,D*7C
$GPVTG,131.77,T,,M,0.03,N,0.1,K,D*09
$GPGGA,202210.000,3748.8003,N,12217.8611,W,2,07,1.1,-2.8,M,-25.1,M,1.8,0000*68
$GPGSA,A,3,10,13,05,28,07,19,11,,,,,,2.0,1.1,1.6*34
$GPGSV,3,1,12,08,65,356,20,28,60,250,30,07,58,064,27,19,26,053,32*7F
$GPGSV,3,2,12,26,25,317,23,13,25,149,37,05,20,272,33,10,15,221,29*7E
$GPGSV,3,3,12,11,11,107,27,17,08,188,23,03,02,036,24,48,44,197,36*73
$GPRMC,202210.000,A,3748.8003,N,12217.8611,W,0.02,190.01,130711,,,D*7E
$GPVTG,190.01,T,,M,0.02,N,0.0,K,D*03
$GPGGA,202211.000,3748.8002,N,12217.8611,W,2,07,1.1,-3.1,M,-25.1,M,1.8,0000*60
$GPGSA,A,3,10,13,05,28,07,19,11,,,,,,2.0,1.1,1.6*34
$GPRMC,202211.000,A,3748.8002,N,12217.8611,W,0.20,218.14,130711,,,D*79
$GPVTG,218.14,T,,M,0.20,N,0.4,K,D*00
$GPGGA,202212.000,3748.8002,N,12217.8611,W,2,07,1.1,-3.4,M,-25.1,M,2.8,0000*65
$GPGSA,A,3,10,13,05,28,07,19,11,,,,,,2.0,1.1,1.6*34
$GPRMC,202212.000,A,3748.8002,N,12217.8611,W,0.05,68.24,130711,,,D*4B
$GPVTG,68.24,T,,M,0.05,N,0.1,K,D*34
$GPGGA,202213.000,3748.8002,N,12217.8612,W,2,07,1.1,-3.8,M,-25.1,M,3.8,0000*6A
$GPGSA,A,3,10,13,05,28,07,19,11,,,,,,2.0,1.1,1.6*34
$GPRMC,202213.000,A,3748.8002,N,12217.8612,W,0.11,12.46,130711,,,D*45
$GPVTG,12.46,T,,M,0.11,N,0.2,K,D*3B
$GPGGA,202214.000,3748.8001,N,12217.8613,W,2,07,1.1,-3.1,M,-25.1,M,1.8,0000*64
$GPGSA,A,3,10,13,05,28,07,19,11,,,,,,2.0,1.1,1.6*34
$GPRMC,202214.000,A,3748.8001,N,12217.8613,W,0.21,23.36,130711,,,D*46
$GPVTG,23.36,T,,M,0.21,N,0.4,K,D*3B
$GPGGA,202215.000,3748.8001,N,12217.8613,W,2,07,1.1,-2.6,M,-25.1,M,1.8,0000*63
$GPGSA,A,3,10,13,05,28,07,19,11,,,,,,2.0,1.1,1.6*34
$GPGSV,3,1,12,08,65,356,20,28,60,250,25,07,58,064,28,19,26,053,30*76
$GPGSV,3,2,12,26,25,317,24,13,25,149,36,05,20,272,33,10,15,221,35*75
$GPGSV,3,3,12,11,11,107,24,17,08,188,22,03,02,036,33,48,44,197,38*79
$GPVTG,306.60,T,,M,0.10,N,0.2,K,D*08
$GPGGA,202216.000,3748.8001,N,12217.8614,W,2,07,1.1,-2.4,M,-25.1,M,1.8,0000*65
$GPGSA,A,3,10,13,05,28,07,19,11,,,,,,2.0,1.1,1.6*34
$GPRMC,202216.000,A,3748.8001,N,12217.8614,W,0.12,298.84,130711,,,D*78
$GPVTG,298.84,T,,M,0.12,N,0.2,K,D*06
$GPGGA,202217.000,3748.8000,N,12217.8615,W,2,07,1.1,-2.5,M,-25.1,M,2.8,0000*66
$GPGSA,A,3,10,13,05,28,07,19,11,,,,,,2.0,1.1,1.6*34
$GPRMC,202217.000,A,3748.8000,N,12217.8615,W,0.09,281.68,130711,,,D*79
$GPVTG,281.68,T,,M,0.09,N,0.2,K,D*06
$GPGGA,202218.000,3748.7999,N,12217.8616,W,2,07,1.1,-2.8,M,-25.1,M,3.8,0000*60
$GPGSA,A,3,10,13,05,28,07,19,11,,,,,,2.0,1.1,1.6*34
$GPRMC,202218.000,A,3748.7999,N,12217.8616,W,0.02,102.15,130711,,,D*7A
$GPVTG,102.15,T,,M,0.02,N,0.0,K,D*0D
$GPGGA,202219.000,3748.7998,N,12217.8617,W,2,07,1.1,-3.0,M,-25.1,M,4.8,0000*6F
$GPGSA,A,3,10,13,05,28,07,19,11,,,,,,2.0,1.1,1.6*34
$GPRMC,202219.000,A,3748.7998,N,12217.8617,W,0.03,75.34,130711,,,D*48
$GPVTG,75.34,T,,M,0.03,N,0.1,K,D*3F
$GPGGA,202220.000,3748.7997,N,12217.8618,W,2,07,1.1,-2.9,M,-25.1,M,1.8,0000*68
$GPGSA,A,3,10,13,05,28,07,19,11,,,,,,2.0,1.1,1.6*34
$GPGSV,3,1,12,08,65,356,21,28,60,250,23,07,58,064,30,19,26,053,29*70
$GPGSV,3,2,12,26,25,317,24,13,25,149,36,05,20,272,33,10,15,221,35*75
$GPGSV,3,3,12,11,11,107,29,17,08,188,27,03,02,036,34,48,44,197,37*79
$GPRMC,202220.000,A,3748.7997,N,12217.8618,W,0.05,108.80,130711,,,D*70
$GPVTG,108.80,T,,M,0.05,N,0.1,K,D*0D
$GPGGA,202221.000,3748.7995,N,12217.8619,W,2,07,1.1,-2.8,M,-25.1,M,0.8,0000*6A
$GPGSA,A,3,10,13,05,28,07,19,11,,,,,,2.0,1.1,1.6*34
$GPRMC,202221.000,A,3748.7995,N,12217.8619,W,0.04,190.53,130711,,,D*7C
$GPVTG,190.53,T,,M,0.04,N,0.1,K,D*03
$GPGGA,202222.000,3748.7995,N,12217.8620,W,2,07,1.1,-2.9,M,-25.1,M,1.8,0000*63
$GPGSA,A,3,10,13,05,28,07,19,11,,,,,,2.0,1.1,1.6*34
$GPRMC,202222.000,A,3748.7995,N,12217.8620,W,0.18,286.43,130711,,,D*7D
$GPVTG,286.43,T,,M,0.18,N,0.3,K,D*09
$GPGGA,202223.000,3748.7994,N,12217.8622,W,2,07,1.1,-3.2,M,-25.1,M,2.8,0000*68
$GPGSA,A,3,10,13,05,28,07,19,11,,,,,,2.0,1.1,1.6*34
$GPRMC,202223.000,A,3748.7994,N,12217.8622,W,0.30,284.50,130711,,,D*75
$GPVTG,284.50,T,,M,0.30,N,0.6,K,D*06
$GPGGA,202224.000,3748.7994,N,12217.8623,W,2,07,1.1,-3.3,M,-25.1,M,3.8,0000*6E
$GPGSA,A,3,10,13,05,28,07,19,11,,,,,,2.0,1.1,1.6*34
$GPRMC,202224.000,A,3748.7994,N,12217.8623,W,0.34,188.95,130711,,,D*71
$GPVTG,188.95,T,,M,0.34,N,0.6,K,D*04
$GPGGA,202225.000,3748.7994,N,12217.8622,W,2,07,1.1,-3.1,M,-25.1,M,4.8,0000*6B
$GPGSA,A,3,10,13,05,28,07,19,11,,,,,,2.0,1.1,1.6*34
$GPGSV,3,1,12,08,65,357,21,28,60,250,32,07,57,064,24,19,26,053,23*71
$GPGSV,3,2,12,26,25,317,25,13,25,149,36,05,20,272,33,10,15,221,35*74
$GPGSV,3,3,12,11,11,107,22,17,08,188,31,03,02,036,30,48,44,197,37*71
$GPRMC,202225.000,A,3748.7994,N,12217.8622,W,0.21,164.26,130711,,,D*7F
$GPVTG,164.26,T,,M,0.21,N,0.4,K,D*08
$GPGGA,202226.000,3748.7993,N,12217.8621,W,2,07,1.1,-3.2,M,-25.1,M,1.8,0000*6A
$GPGSA,A,3,10,13,05,28,07,19,11,,,,,,2.0,1.1,1.6*34
$GPRMC,202226.000,A,3748.7993,N,12217.8621,W,0.30,167.30,130711,,,D*7C
$GPVTG,167.30,T,,M,0.30,N,0.6,K,D*0E
$GPGGA,202227.000,3748.7993,N,12217.8621,W,2,07,1.1,-3.5,M,-25.1,M,1.8,0000*6C
$GPGSA,A,3,10,13,05,28,07,19,11,,,,,,2.0,1.1,1.6*34
$GPRMC,202227.000,A,3748.7993,N,12217.8621,W,0.07,89.00,130711,,,D*4B
$GPVTG,89.00,T,,M,0.07,N,0.1,K,D*3F
$GPGGA,202228.000,3748.7993,N,12217.8621,W,2,07,1.1,-3.9,M,-25.1,M,1.8,0000*6F
$GPGSA,A,3,10,13,05,28,07,19,11,,,,,,2.0,1.1,1.6*34
$GPRMC,202228.000,A,3748.7993,N,12217.8621,W,0.11,63.75,130711,,,D*45
$GPVTG,63.75,T,,M,0.11,N,0.2,K,D*3D
$GPGGA,202229.000,3748.7992,N,12217.8621,W,2,07,1.1,-4.2,M,-25.1,M,2.8,0000*60
$GPGSA,A,3,10,13,05,28,07,19,11,,,,,,2.0,1.1,1.6*34
$GPRMC,202229.000,A,3748.7992,N,12217.8621,W,0.08,119.91,130711,,,D*7B
$GPVTG,119.91,T,,M,0.08,N,0.1,K,D*00
$GPGGA,202230.000,3748.7993,N,12217.8620,W,2,07,1.1,-5.5,M,-25.1,M,3.8,0000*6F
$GPGSA,A,3,10,13,05,28,07,19,11,,,,,,2.0,1.1,1.6*34
$GPGSV,3,1,12,08,65,357,21,28,60,250,23,07,57,064,32,19,26,053,16*70
$GPGSV,3,2,12,26,25,317,22,13,25,149,37,05,20,272,25,10,15,221,35*75
$GPGSV,3,3,12,11,11,107,22,17,08,188,26,03,02,036,30,48,44,197,40*77
$GPRMC,202230.000,A,3748.7993,N,12217.8620,W,0.06,67.20,130711,,,D*4F
$GPVTG,67.20,T,,M,0.06,N,0.1,K,D*3C
$GPGGA,202231.000,3748.7992,N,12217.8620,W,2,07,1.1,-5.9,M,-25.1,M,4.8,0000*64
$GPGSA,A,3,10,13,05,28,07,19,11,,,,,,2.0,1.1,1.6*34
$GPRMC,202231.000,A,3748.7992,N,12217.8620,W,0.17,217.67,130711,,,D*79
$GPVTG,217.67,T,,M,0.17,N,0.3,K,D*08
$GPGGA,202232.000,3748.7985,N,12217.8623,W,2,07,1.1,-4.2,M,-25.1,M,1.8,0000*6D
$GPGSA,A,3,10,13,05,28,07,19,11,,,,,,2.0,1.1,1.6*34
$GPRMC,202232.000,A,3748.7985,N,12217.8623,W,0.10,200.43,130711,,,D*78
$GPVTG,200.43,T,,M,0.10,N,0.2,K,D*0E
$GPGGA,202233.000,3748.7982,N,12217.8626,W,2,07,1.1,-3.1,M,-25.1,M,1.8,0000*6A
$GPGSA,A,3,10,13,05,28,07,19,11,,,,,,2.0,1.1,1.6*34
$GPRMC,202233.000,A,3748.7982,N,12217.8626,W,0.38,58.60,130711,,,D*4F
$GPVTG,58.60,T,,M,0.38,N,0.7,K,D*3F
$GPGGA,202234.000,3748.7984,N,12217.8625,W,2,07,1.1,-3.1,M,-25.1,M,1.8,0000*68
$GPGSA,A,3,10,13,05,28,07,19,11,,,,,,2.0,1.1,1.6*34
$GPRMC,202234.000,A,3748.7984,N,12217.8625,W,0.31,37.64,130711,,,D*49
$GPVTG,37.64,T,,M,0.31,N,0.6,K,D*3A
$GPGGA,202235.000,3748.7985,N,12217.8623,W,2,07,1.1,-2.9,M,-25.1,M,2.8,0000*64
$GPGSA,A,3,10,13,05,28,07,19,11,,,,,,2.0,1.1,1.6*34
$GPGSV,3,1,12,08,65,357,22,28,60,250,29,07,57,064,28,19,26,053,23*74
$GPGSV,3,2,12,26,25,317,24,13,25,149,38,05,20,272,32,10,15,221,32*7D
$GPGSV,3,3,12,11,11,107,19,17,08,188,20,03,02,036,27,48,44,197,36*7E
$GPRMC,202235.000,A,3748.7985,N,12217.8623,W,0.08,188.81,130711,,,D*7B
$GPGGA,202236.000,3748.7987,N,12217.8622,W,2,07,1.1,-2.6,M,-25.1,M,3.8,0000*6A
$GPGSA,A,3,10,13,05,28,07,19,11,,,,,,2.0,1.1,1.6*34
$GPRMC,202236.000,A,3748.7987,N,12217.8622,W,0.58,241.49,130711,,,D*7C
$GPVTG,241.49,T,,M,0.58,N,1.1,K,D*0F
$GPGGA,202237.000,3748.7987,N,12217.8621,W,2,07,1.1,-2.5,M,-25.1,M,4.8,0000*6C
$GPGSA,A,3,10,13,05,28,07,19,11,,,,,,2.0,1.1,1.6*34
$GPRMC,202237.000,A,3748.7987,N,12217.8621,W,0.34,181.50,130711,,,D*73
$GPVTG,181.50,T,,M,0.34,N,0.6,K,D*04
$GPGGA,202238.000,3748.7987,N,12217.8622,W,2,07,1.1,-2.9,M,-25.1,M,1.8,0000*69
$GPGSA,A,3,10,13,05,28,07,19,11,,,,,,2.0,1.1,1.6*34
$GPRMC,202238.000,A,3748.7987,N,12217.8622,W,0.16,289.35,130711,,,D*77
$GPVTG,289.35,T,,M,0.16,N,0.3,K,D*09
$GPGGA,202239.000,3748.7988,N,12217.8623,W,2,07,1.1,-3.3,M,-25.1,M,2.8,0000*6E
$GPGSA,A,3,10,13,05,28,07,19,11,,,,,,2.0,1.1,1.6*34
$GPRMC,202239.000,A,3748.7988,N,12217.8623,W,0.13,307.90,130711,,,D*75
$GPVTG,307.90,T,,M,0.13,N,0.2,K,D*05
$GPGGA,202240.000,3748.7991,N,12217.8625,W,2,07,1.1,-5.2,M,-25.1,M,1.8,0000*6A
$GPGSA,A,3,10,13,05,28,07,19,11,,,,,,2.0,1.1,1.6*34
$GPGSV,3,1,12,08,65,357,23,28,60,250,30,07,57,064,26,19,26,053,25*75
$GPGSV,3,2,12,26,25,317,25,13,25,149,38,05,20,272,25,10,15,221,32*7A
$GPGSV,3,3,12,11,11,107,25,17,08,188,25,03,02,036,19,48,44,197,37*78
$GPRMC,202240.000,A,3748.7991,N,12217.8625,W,0.32,340.25,130711,,,D*7B
$GPVTG,340.25,T,,M,0.32,N,0.6,K,D*0F
$GPGGA,202241.000,3748.7994,N,12217.8628,W,2,07,1.1,-6.8,M,-25.1,M,2.8,0000*69
$GPGSA,A,3,10,13,05,28,07,19,11,,,,,,2.0,1.1,1.6*34
$GPRMC,202241.000,A,3748.7994,N,12217.8628,W,0.35,344.81,130711,,,D*7F
$GPVTG,344.81,T,,M,0.35,N,0.6,K,D*02
$GPGGA,202242.000,3748.8000,N,12217.8626,W,2,07,1.1,-8.5,M,-25.1,M,1.8,0000*6F
$GPGSA,A,3,10,13,05,28,07,19,11,,,,,,2.0,1.1,1.6*34
$GPRMC,202242.000,A,3748.8000,N,12217.8626,W,0.20,21.69,130711,,,D*4B
$GPVTG,21.69,T,,M,0.20,N,0.4,K,D*32
$GPGGA,202243.000,3748.8005,N,12217.8624,W,2,07,1.1,-9.6,M,-25.1,M,2.8,0000*68
$GPGSA,A,3,10,13,05,28,07,19,11,,,,,,2.0,1.1,1.6*34
$GPRMC,202243.000,A,3748.8005,N,12217.8624,W,0.16,30.80,130711,,,D*4F
$GPVTG,30.80,T,,M,0.16,N,0.3,K,D*37
$GPGGA,202244.000,3748.8006,N,12217.8623,W,2,07,1.1,-9.8,M,-25.1,M,1.8,0000*66
$GPGSA,A,3,10,13,05,28,07,19,11,,,,,,2.0,1.1,1.6*34
$GPRMC,202244.000,A,3748.8006,N,12217.8623,W,0.26,89.05,130711,,,D*40
$GPVTG,89.05,T,,M,0.26,N,0.5,K,D*3D
$GPGGA,202245.000,3748.8003,N,12217.8625,W,2,07,1.1,-9.4,M,-25.1,M,1.8,0000*68
$GPGSA,A,3,10,13,05,28,07,19,11,,,,,,2.0,1.1,1.6*34
$GPGSV,3,1,12,08,65,357,24,28,60,250,31,07,57,064,25,19,26,053,25*70
$GPGSV,3,2,12,26,25,317,31,13,25,149,37,05,20,272,30,10,15,221,31*77
$GPGSV,3,3,12,11,11,107,31,17,08,188,27,03,02,036,20,48,44,197,30*72
$GPRMC,202245.000,A,3748.8003,N,12217.8625,W,0.33,225.31,130711,,,D*75
$GPVTG,225.31,T,,M,0.33,N,0.6,K,D*09
$GPGGA,202246.000,3748.7999,N,12217.8625,W,2,07,1.1,-9.5,M,-25.1,M,2.8,0000*6C
$GPGSA,A,3,10,13,05,28,07,19,11,,,,,,2.0,1.1,1.6*34
$GPRMC,202246.000,A,3748.7999,N,12217.8625,W,0.57,170.81,130711,,,D*79
$GPVTG,170.81,T,,M,0.57,N,1.1,K,D*05
$GPGGA,202247.000,3748.7998,N,12217.8625,W,2,07,1.1,-9.8,M,-25.1,M,3.8,0000*60
$GPGSA,A,3,10,13,05,28,07,19,11,,,,,,2.0,1.1,1.6*34
$GPRMC,202247.000,A,3748.7998,N,12217.8625,W,0.41,79.28,130711,,,D*45
$GPVTG,79.28,T,,M,0.41,N,0.8,K,D*31
$GPGGA,202248.000,3748.7995,N,12217.8628,W,2,06,1.4,-9.7,M,-25.1,M,1.8,0000*66
$GPGSA,A,3,10,13,05,28,07,11,,,,,,,2.3,1.4,1.8*34
$GPRMC,202248.000,A,3748.7995,N,12217.8628,W,0.07,224.30,130711,,,D*7B
$GPVTG,224.30,T,,M,0.07,N,0.1,K,D*09
$GPGGA,202249.000,3748.7993,N,12217.8630,W,2,07,1.1,-10.2,M,-25.1,M,1.8,0000*51
$GPGSA,A,3,10,13,05,28,07,19,11,,,,,,2.0,1.1,1.6*34
$GPRMC,202249.000,A,3748.7993,N,12217.8630,W,0.12,36.43,130711,,,D*44
$GPVTG,36.43,T,,M,0.12,N,0.2,K,D*3B
$GPGGA,202250.000,3748.7991,N,12217.8631,W,2,07,1.1,-10.6,M,-25.1,M,1.8,0000*5E
$GPGSA,A,3,10,13,05,28,07,19,11,,,,,,2.0,1.1,1.6*34
$GPGSV,3,1,12,08,65,357,19,28,60,250,31,07,57,065,29,19,26,052,16*72
$GPGSV,3,2,12,26,25,317,26,13,24,150,33,05,20,272,36,10,15,221,39*72
$GPGSV,3,3,12,11,11,106,27,17,08,188,24,03,02,036,28,48,44,197,29*77
$GPRMC,202250.000,A,3748.7991,N,12217.8631,W,0.37,70.25,130711,,,D*4A
$GPVTG,70.25,T,,M,0.37,N,0.7,K,D*3B
$GPGGA,202251.000,3748.7990,N,12217.8631,W,2,07,1.1,-11.4,M,-25.1,M,1.8,0000*5D
$GPGSA,A,3,10,13,05,28,07,19,11,,,,,,2.0,1.1,1.6*34
$GPRMC,202251.000,A,3748.7990,N,12217.8631,W,0.24,12.39,130711,,,D*41
$GPVTG,12.39,T,,M,0.24,N,0.4,K,D*33
$GPGGA,202252.000,3748.7991,N,12217.8629,W,2,06,1.2,-11.5,M,-25.1,M,1.8,0000*55
$GPGSA,A,3,10,13,05,28,07,19,,,,,,,2.2,1.2,1.9*3A
$GPRMC,202252.000,A,3748.7991,N,12217.8629,W,0.30,28.96,130711,,,D*43
$GPVTG,28.96,T,,M,0.30,N,0.5,K,D*3B
$GPGGA,202253.000,3748.7992,N,12217.8627,W,2,07,1.1,-12.2,M,-25.1,M,0.8,0000*5E
$GPGSA,A,3,10,13,05,28,07,19,11,,,,,,2.0,1.1,1.6*34
$GPRMC,202253.000,A,3748.7992,N,12217.8627,W,0.76,10.71,130711,,,D*4F
$GPVTG,10.71,T,,M,0.76,N,1.4,K,D*3B
$GPGGA,202254.000,3748.7995,N,12217.8627,W,2,07,1.1,-12.5,M,-25.1,M,1.8,0000*58
$GPGSA,A,3,10,13,05,28,07,19,11,,,,,,2.0,1.1,1.6*34
$GPRMC,202254.000,A,3748.7995,N,12217.8627,W,0.90,29.38,130711,,,D*40
$GPVTG,29.38,T,,M,0.90,N,1.7,K,D*37
$GPGGA,202255.000,3748.8000,N,12217.8626,W,2,07,1.1,-12.5,M,-25.1,M,2.8,0000*51
$GPGSA,A,3,10,13,05,28,07,19,11,,,,,,2.0,1.1,1.6*34
$GPGSV,3,1,12,08,65,357,30,28,60,250,32,07,57,065,24,19,26,052,17*76
$GPGSV,3,2,12,26,25,317,26,13,24,150,19,05,20,272,34,10,15,221,33*72
$GPGSV,3,3,12,11,11,106,19,17,08,188,23,03,02,036,24,48,44,197,37*7E
$GPVTG,20.70,T,,M,1.04,N,1.9,K,D*30
$GPGGA,202256.000,3748.8007,N,12217.8626,W,2,07,1.1,-12.2,M,-25.1,M,1.8,0000*51
$GPGSA,A,3,10,13,05,28,07,19,11,,,,,,2.0,1.1,1.6*34
$GPRMC,202256.000,A,3748.8007,N,12217.8626,W,0.72,346.46,130711,,,D*71
$GPVTG,346.46,T,,M,0.72,N,1.3,K,D*0C
$GPGGA,202257.000,3748.8012,N,12217.8625,W,2,07,1.1,-12.1,M,-25.1,M,1.8,0000*54
$GPGSA,A,3,10,13,05,28,07,19,11,,,,,,2.0,1.1,1.6*34
$GPRMC,202257.000,A,3748.8012,N,12217.8625,W,0.55,26.33,130711,,,D*45
$GPVTG,26.33,T,,M,0.55,N,1.0,K,D*3D
$GPGGA,202258.000,3748.8014,N,12217.8623,W,2,07,1.1,-11.5,M,-25.1,M,1.8,0000*5C
$GPGSA,A,3,10,13,05,28,07,19,11,,,,,,2.0,1.1,1.6*34
$GPRMC,202258.000,A,3748.8014,N,12217.8623,W,0.31,38.17,130711,,,D*41
$GPVTG,38.17,T,,M,0.31,N,0.6,K,D*31
$GPGGA,202259.000,3748.8012,N,12217.8625,W,2,07,1.1,-11.1,M,-25.1,M,2.8,0000*5A
$GPGSA,A,3,10,13,05,28,07,19,11,,,,,,2.0,1.1,1.6*34
$GPRMC,202259.000,A,3748.8012,N,12217.8625,W,0.05,98.00,130711,,,D*4B
$GPVTG,98.00,T,,M,0.05,N,0.1,K,D*3D
$GPGGA,202300.000,3748.8000,N,12217.8631,W,2,07,1.1,-8.2,M,-25.1,M,3.8,0000*6B
$GPGSA,A,3,10,13,05,28,07,19,11,,,,,,2.0,1.1,1.6*34
$GPGSV,3,1,12,08,65,357,22,28,60,250,32,07,57,065,27,19,26,052,24*76
$GPGSV,3,2,12,26,25,317,27,13,24,150,23,05,20,272,36,10,15,221,35*7E
$GPGSV,3,3,12,11,11,106,26,17,08,188,25,03,02,036,23,48,44,197,36*72
$GPRMC,202300.000,A,3748.8000,N,12217.8631,W,0.30,183.71,130711,,,D*7B
$GPVTG,183.71,T,,M,0.30,N,0.6,K,D*01
$GPGGA,202301.000,3748.7992,N,12217.8632,W,2,07,1.1,-7.9,M,-25.1,M,4.8,0000*67
$GPGSA,A,3,10,13,05,28,07,19,11,,,,,,2.0,1.1,1.6*34
$GPRMC,202301.000,A,3748.7992,N,12217.8632,W,0.31,212.60,130711,,,D*7E
$GPVTG,212.60,T,,M,0.31,N,0.6,K,D*0B
$GPGGA,202302.000,3748.7986,N,12217.8633,W,2,07,1.1,-7.6,M,-25.1,M,1.8,0000*6A
$GPGSA,A,3,10,13,05,28,07,19,11,,,,,,2.0,1.1,1.6*34
$GPRMC,202302.000,A,3748.7986,N,12217.8633,W,0.16,192.52,130711,,,D*76
$GPVTG,192.52,T,,M,0.16,N,0.3,K,D*01
$GPGGA,202303.000,3748.7983,N,12217.8635,W,2,07,1.1,-7.3,M,-25.1,M,1.8,0000*6D
$GPGSA,A,3,10,13,05,28,07,19,11,,,,,,2.0,1.1,1.6*34
$GPRMC,202303.000,A,3748.7983,N,12217.8635,W,0.10,320.01,130711,,,D*7F
$GPVTG,320.01,T,,M,0.10,N,0.2,K,D*0B
$GPGGA,202304.000,3748.7975,N,12217.8641,W,2,07,1.1,-5.3,M,-25.1,M,1.8,0000*62
$GPGSA,A,3,10,13,05,28,07,19,11,,,,,,2.0,1.1,1.6*34
$GPRMC,202304.000,A,3748.7975,N,12217.8641,W,0.25,184.98,130711,,,D*78
$GPVTG,184.98,T,,M,0.25,N,0.5,K,D*06
$GPGGA,202305.000,3748.7965,N,12217.8644,W,2,07,1.1,-4.4,M,-25.1,M,2.8,0000*62
$GPGSA,A,3,10,13,05,28,07,19,11,,,,,,2.0,1.1,1.6*34
$GPGSV,3,1,12,08,65,357,23,28,60,250,31,07,57,065,26,19,26,052,25*74
$GPGSV,3,2,12,26,25,317,27,13,24,150,24,05,20,272,36,10,15,221,35*79
$GPGSV,3,3,12,11,11,106,28,17,08,188,31,03,02,036,19,48,44,197,37*71
$GPRMC,202305.000,A,3748.7965,N,12217.8644,W,0.10,221.10,130711,,,D*77
$GPVTG,221.10,T,,M,0.10,N,0.2,K,D*0B
$GPGGA,202306.000,3748.7961,N,12217.8649,W,2,07,1.1,-3.9,M,-25.1,M,3.8,0000*63
$GPGSA,A,3,10,13,05,28,07,19,11,,,,,,2.0,1.1,1.6*34
$GPRMC,202306.000,A,3748.7961,N,12217.8649,W,0.23,281.83,130711,,,D*7D
$GPVTG,281.83,T,,M,0.23,N,0.4,K,D*0D
$GPGGA,202307.000,3748.7960,N,12217.8650,W,2,07,1.1,-3.4,M,-25.1,M,4.8,0000*61
$GPGSA,A,3,10,13,05,28,07,19,11,,,,,,2.0,1.1,1.6*34
$GPRMC,202307.000,A,3748.7960,N,12217.8650,W,0.27,8.88,130711,,,D*79
$GPVTG,8.88,T,,M,0.27,N,0.5,K,D*00
$GPGGA,202308.000,3748.7958,N,12217.8653,W,2,06,1.4,-3.2,M,-25.1,M,1.8,0000*61
$GPGSA,A,3,10,13,05,28,07,11,,,,,,,2.3,1.4,1.8*34
$GPRMC,202308.000,A,3748.7958,N,12217.8653,W,0.08,256.54,130711,,,D*7B
$GPVTG,256.54,T,,M,0.08,N,0.1,K,D*01
$GPGGA,202309.000,3748.7961,N,12217.8651,W,2,07,1.1,-3.6,M,-25.1,M,1.8,0000*68
$GPGSA,A,3,10,13,05,28,07,19,11,,,,,,2.0,1.1,1.6*34
$GPRMC,202309.000,A,3748.7961,N,12217.8651,W,0.12,359.54,130711,,,D*77
$GPVTG,359.54,T,,M,0.12,N,0.2,K,D*07
$GPGGA,202310.000,3748.7960,N,12217.8651,W,2,07,1.1,-3.1,M,-25.1,M,1.8,0000*66
$GPGSA,A,3,10,13,05,28,07,19,11,,,,,,2.0,1.1,1.6*34
$GPGSV,3,1,12,08,65,357,28,28,60,250,31,07,57,065,23,19,26,052,23*7C
$GPGSV,3,2,12,26,25,317,27,13,24,150,28,05,20,272,35,10,15,221,36*75
$GPGSV,3,3,12,11,11,106,24,17,08,188,32,03,02,036,26,48,44,197,39*7C
$GPRMC,202310.000,A,3748.7960,N,12217.8651,W,0.34,201.28,130711,,,D*7D
$GPVTG,201.28,T,,M,0.34,N,0.6,K,D*00
$GPGGA,202311.000,3748.7960,N,12217.8651,W,2,07,1.1,-2.0,M,-25.1,M,2.8,0000*64
$GPGSA,A,3,10,13,05,28,07,19,11,,,,,,2.0,1.1,1.6*34
$GPRMC,202311.000,A,3748.7960,N,12217.8651,W,0.48,192.65,130711,,,D*77
$GPVTG,192.65,T,,M,0.48,N,0.9,K,D*04
$GPGGA,202312.000,3748.7962,N,12217.8649,W,2,07,1.1,-0.8,M,-25.1,M,3.8,0000*67
$GPGSA,A,3,10,13,05,28,07,19,11,,,,,,2.0,1.1,1.6*34
$GPRMC,202312.000,A,3748.7962,N,12217.8649,W,0.16,188.94,130711,,,D*71
$GPVTG,188.94,T,,M,0.16,N,0.3,K,D*00
$GPGGA,202313.000,3748.7961,N,12217.8650,W,2,07,1.1,-0.0,M,-25.1,M,4.8,0000*62
$GPGSA,A,3,10,13,05,28,07,19,11,,,,,,2.0,1.1,1.6*34
$GPRMC,202313.000,A,3748.7961,N,12217.8650,W,0.18,190.40,130711,,,D*75
$GPVTG,190.40,T,,M,0.18,N,0.3,K,D*0E
$GPGGA,202314.000,3748.7962,N,12217.8650,W,2,07,1.1,0.8,M,-25.1,M,1.8,0000*46
$GPGSA,A,3,10,13,05,28,07,19,11,,,,,,2.0,1.1,1.6*34
$GPRMC,202314.000,A,3748.7962,N,12217.8650,W,0.01,332.69,130711,,,D*78
$GPVTG,332.69,T,,M,0.01,N,0.0,K,D*04
$GPGGA,202315.000,3748.7967,N,12217.8649,W,2,07,1.1,0.3,M,-25.1,M,1.8,0000*41
$GPGSA,A,3,10,13,05,28,07,19,11,,,,,,2.0,1.1,1.6*34
$GPGSV,3,1,12,08,65,357,28,28,60,250,30,07,57,065,22,19,26,052,22*7D
$GPGSV,3,2,12,26,25,317,28,13,24,150,35,05,20,272,33,10,15,221,37*71
$GPGSV,3,3,12,11,11,106,26,17,08,188,32,03,02,036,19,48,44,197,40*7C
$GPRMC,202315.000,A,3748.7967,N,12217.8649,W,0.22,12.29,130711,,,D*40
$GPGGA,202316.000,3748.7968,N,12217.8649,W,2,07,1.1,0.4,M,-25.1,M,1.8,0000*4A
$GPGSA,A,3,10,13,05,28,07,19,11,,,,,,2.0,1.1,1.6*34
$GPRMC,202316.000,A,3748.7968,N,12217.8649,W,0.32,9.14,130711,,,D*79
$GPVTG,9.14,T,,M,0.32,N,0.6,K,D*03
$GPGGA,202317.000,3748.7972,N,12217.8648,W,2,07,1.1,-0.1,M,-25.1,M,1.8,0000*69
$GPGSA,A,3,10,13,05,28,07,19,11,,,,,,2.0,1.1,1.6*34
$GPRMC,202317.000,A,3748.7972,N,12217.8648,W,0.15,352.58,130711,,,D*72
$GPVTG,352.58,T,,M,0.15,N,0.3,K,D*06
$GPGGA,202318.000,3748.7972,N,12217.8647,W,2,06,1.4,0.0,M,-25.1,M,2.8,0000*42
$GPGSA,A,3,10,13,05,28,07,11,,,,,,,2.3,1.4,1.8*34
$GPRMC,202318.000,A,3748.7972,N,12217.8647,W,0.28,351.96,130711,,,D*7D
$GPVTG,351.96,T,,M,0.28,N,0.5,K,D*0F
$GPGGA,202319.000,3748.7972,N,12217.8648,W,2,06,1.4,-0.4,M,-25.1,M,3.8,0000*64
$GPGSA,A,3,10,13,05,28,07,11,,,,,,,2.3,1.4,1.8*34
$GPRMC,202319.000,A,3748.7972,N,12217.8648,W,0.33,282.48,130711,,,D*75
$GPVTG,282.48,T,,M,0.33,N,0.6,K,D*0A
$GPGGA,202320.000,3748.7970,N,12217.8650,W,2,07,1.1,-0.9,M,-25.1,M,1.8,0000*6E
$GPGSA,A,3,10,13,05,28,07,19,11,,,,,,2.0,1.1,1.6*34
$GPGSV,3,1,12,08,65,358,22,28,60,250,29,07,57,065,19,19,26,052,13*7A
$GPGSV,3,2,12,26,26,317,28,13,24,150,35,05,20,272,39,10,15,221,38*77
$GPGSV,3,3,12,11,11,106,18,17,09,188,30,03,02,036,20,48,44,197,38*77
$GPRMC,202320.000,A,3748.7970,N,12217.8650,W,0.17,305.84,130711,,,D*7C
$GPVTG,305.84,T,,M,0.17,N,0.3,K,D*07
$GPGGA,202321.000,3748.7968,N,12217.8650,W,2,07,1.1,-1.4,M,-25.1,M,1.8,0000*6A
$GPGSA,A,3,10,13,05,28,07,19,11,,,,,,2.0,1.1,1.6*34
$GPRMC,202321.000,A,3748.7968,N,12217.8650,W,0.27,61.60,130711,,,D*4C
$GPVTG,61.60,T,,M,0.27,N,0.5,K,D*39
$GPGGA,202322.000,3748.7970,N,12217.8648,W,2,07,1.1,-2.0,M,-25.1,M,1.8,0000*6E
$GPGSA,A,3,10,13,05,28,07,19,11,,,,,,2.0,1.1,1.6*34
$GPRMC,202322.000,A,3748.7970,N,12217.8648,W,0.28,85.81,130711,,,D*45
$GPVTG,85.81,T,,M,0.28,N,0.5,K,D*33
$GPGGA,202323.000,3748.7969,N,12217.8649,W,2,07,1.1,-1.7,M,-25.1,M,1.8,0000*62
$GPGSA,A,3,10,13,05,28,07,19,11,,,,,,2.0,1.1,1.6*34
$GPRMC,202323.000,A,3748.7969,N,12217.8649,W,0.18,39.03,130711,,,D*43
$GPVTG,39.03,T,,M,0.18,N,0.3,K,D*3B
$GPGGA,202324.000,3748.7967,N,12217.8651,W,2,07,1.1,-1.3,M,-25.1,M,1.8,0000*66
$GPGSA,A,3,10,13,05,28,07,19,11,,,,,,2.0,1.1,1.6*34
$GPRMC,202324.000,A,3748.7967,N,12217.8651,W,0.24,27.14,130711,,,D*45
$GPVTG,27.14,T,,M,0.24,N,0.5,K,D*3B
$GPGGA,202325.000,3748.7969,N,12217.8651,W,2,07,1.1,-0.4,M,-25.1,M,2.8,0000*6C
$GPGSA,A,3,10,13,05,28,07,19,11,,,,,,2.0,1.1,1.6*34
$GPGSV,3,1,12,08,65,358,23,28,60,250,30,07,57,065,23,19,26,052,23*79
$GPGSV,3,2,12,26,26,317,28,13,24,150,34,05,20,272,32,10,15,221,38*7D
$GPGSV,3,3,12,11,11,106,27,17,09,188,32,03,02,036,21,48,44,197,38*78
$GPRMC,202325.000,A,3748.7969,N,12217.8651,W,0.33,23.68,130711,,,D*43
$GPVTG,23.68,T,,M,0.33,N,0.6,K,D*31
$GPGGA,202326.000,3748.7974,N,12217.8650,W,2,07,1.1,-0.9,M,-25.1,M,3.8,0000*6E
$GPGSA,A,3,10,13,05,28,07,19,11,,,,,,2.0,1.1,1.6*34
$GPRMC,202326.000,A,3748.7974,N,12217.8650,W,0.26,17.36,130711,,,D*45
$GPVTG,17.36,T,,M,0.26,N,0.5,K,D*3A
$GPGGA,202327.000,3748.7975,N,12217.8651,W,2,06,1.4,-0.2,M,-25.1,M,1.8,0000*62
$GPGSA,A,3,10,13,05,28,07,11,,,,,,,2.3,1.4,1.8*34
$GPRMC,202327.000,A,3748.7975,N,12217.8651,W,0.22,27.58,130711,,,D*4B
$GPVTG,27.58,T,,M,0.22,N,0.4,K,D*34
$GPGGA,202328.000,3748.7973,N,12217.8652,W,2,05,1.6,0.0,M,-25.1,M,1.8,0000*46
$GPGSA,A,3,10,13,05,28,11,,,,,,,,2.6,1.6,2.0*3F
$GPRMC,202328.000,A,3748.7973,N,12217.8652,W,0.29,203.00,130711,,,D*73
$GPVTG,203.00,T,,M,0.29,N,0.5,K,D*07
$GPGGA,202329.000,3748.7970,N,12217.8654,W,2,06,1.2,-0.6,M,-25.1,M,2.8,0000*6D
$GPGSA,A,3,10,13,05,28,07,19,,,,,,,2.2,1.2,1.9*3A
$GPRMC,202329.000,A,3748.7970,N,12217.8654,W,0.89,209.93,130711,,,D*7D
$GPVTG,209.93,T,,M,0.89,N,1.6,K,D*0F
$GPGGA,202330.000,3748.7966,N,12217.8657,W,2,06,1.2,-1.1,M,-25.1,M,3.8,0000*66
$GPGSA,A,3,10,13,05,28,07,19,,,,,,,2.2,1.2,1.9*3A
$GPGSV,3,1,12,08,65,358,27,28,60,250,30,07,57,065,19,19,26,052,14*70
$GPGSV,3,2,12,26,26,317,25,13,24,150,34,05,20,272,33,10,15,221,29*71
$GPGSV,3,3,12,11,11,106,12,17,09,188,30,03,02,036,12,48,44,197,35*71
$GPRMC,202330.000,A,3748.7966,N,12217.8657,W,0.78,218.92,130711,,,D*7E
$GPVTG,218.92,T,,M,0.78,N,1.4,K,D*02
$GPGGA,202331.000,3748.7959,N,12217.8662,W,2,06,1.2,0.4,M,-25.1,M,1.8,0000*46
$GPGSA,A,3,10,13,05,28,07,19,,,,,,,2.2,1.2,1.9*3A
$GPRMC,202331.000,A,3748.7959,N,12217.8662,W,1.05,205.81,130711,,,D*70
$GPVTG,205.81,T,,M,1.05,N,1.9,K,D*0A
$GPGGA,202332.000,3748.7958,N,12217.8662,W,2,06,1.2,0.8,M,-25.1,M,1.8,0000*48
$GPGSA,A,3,10,13,05,28,07,19,,,,,,,2.2,1.2,1.9*3A
$GPRMC,202332.000,A,3748.7958,N,12217.8662,W,0.66,209.17,130711,,,D*75
$GPVTG,209.17,T,,M,0.66,N,1.2,K,D*06
$GPGGA,202333.000,3748.7959,N,12217.8659,W,2,06,1.2,1.0,M,-25.1,M,1.8,0000*49
$GPGSA,A,3,10,13,05,28,07,19,,,,,,,2.2,1.2,1.9*3A
$GPRMC,202333.000,A,3748.7959,N,12217.8659,W,0.28,160.07,130711,,,D*7A
$GPVTG,160.07,T,,M,0.28,N,0.5,K,D*07
$GPGGA,202334.000,3748.7954,N,12217.8663,W,2,07,1.1,2.1,M,-25.1,M,1.8,0000*4A
$GPGSA,A,3,10,13,05,28,07,19,11,,,,,,2.0,1.1,1.6*34
$GPRMC,202334.000,A,3748.7954,N,12217.8663,W,0.34,41.49,130711,,,D*4C
$GPVTG,41.49,T,,M,0.34,N,0.6,K,D*31
$GPGGA,202335.000,3748.7955,N,12217.8664,W,2,05,1.6,2.1,M,-25.1,M,2.8,0000*4B
$GPGSA,A,3,10,13,05,28,11,,,,,,,,2.6,1.6,2.0*3F
$GPGSV,3,1,12,08,65,358,24,28,60,250,30,07,57,065,18,19,26,052,18*7E
$GPGSV,3,2,12,26,26,317,26,13,24,150,33,05,20,272,35,10,15,221,36*7D
$GPGSV,3,3,12,11,11,106,26,17,09,188,34,03,02,036,14,48,44,197,38*79
$GPRMC,202335.000,A,3748.7955,N,12217.8664,W,0.38,12.14,130711,,,D*49
$GPGGA,202336.000,3748.7956,N,12217.8664,W,2,06,1.4,2.2,M,-25.1,M,1.8,0000*4A
$GPGSA,A,3,10,13,05,28,07,11,,,,,,,2.3,1.4,1.8*34
$GPRMC,202336.000,A,3748.7956,N,12217.8664,W,0.22,14.80,130711,,,D*49
$GPVTG,14.80,T,,M,0.22,N,0.4,K,D*31
$GPGGA,202337.000,3748.7958,N,12217.8663,W,2,06,1.4,2.3,M,-25.1,M,1.8,0000*43
$GPGSA,A,3,10,13,05,28,07,11,,,,,,,2.3,1.4,1.8*34
$GPRMC,202337.000,A,3748.7958,N,12217.8663,W,0.14,5.89,130711,,,D*7D
$GPVTG,5.89,T,,M,0.14,N,0.3,K,D*0A
$GPGGA,202338.000,3748.7957,N,12217.8665,W,2,07,1.1,2.0,M,-25.1,M,1.8,0000*42
$GPGSA,A,3,10,13,05,28,07,19,11,,,,,,2.0,1.1,1.6*34
$GPRMC,202338.000,A,3748.7957,N,12217.8665,W,0.16,15.66,130711,,,D*49
$GPVTG,15.66,T,,M,0.16,N,0.3,K,D*38
$GPGGA,202339.000,3748.7959,N,12217.8663,W,2,07,1.1,0.9,M,-25.1,M,1.8,0000*40
$GPGSA,A,3,10,13,05,28,07,19,11,,,,,,2.0,1.1,1.6*34
$GPRMC,202339.000,A,3748.7959,N,12217.8663,W,0.21,164.18,130711,,,D*7A
$GPVTG,164.18,T,,M,0.21,N,0.4,K,D*05
$GPGGA,202340.000,3748.7959,N,12217.8661,W,2,07,1.1,-0.6,M,-25.1,M,1.8,0000*6E
$GPGSA,A,3,10,13,05,28,07,19,11,,,,,,2.0,1.1,1.6*34
$GPGSV,3,1,12,08,65,358,25,28,60,250,29,07,57,065,26,19,26,052,23*72
$GPGSV,3,2,12,26,26,317,26,13,24,150,38,05,20,272,34,10,15,221,36*77
$GPGSV,3,3,12,11,11,106,25,17,09,188,19,03,02,036,16,48,44,197,35*7A
$GPRMC,202340.000,A,3748.7959,N,12217.8661,W,0.60,193.39,130711,,,D*78
$GPVTG,193.39,T,,M,0.60,N,1.1,K,D*0F
$GPGGA,202341.000,3748.7962,N,12217.8659,W,2,07,1.1,-1.6,M,-25.1,M,1.8,0000*6D
$GPGSA,A,3,10,13,05,28,07,19,11,,,,,,2.0,1.1,1.6*34
$GPRMC,202341.000,A,3748.7962,N,12217.8659,W,0.45,353.38,130711,,,D*72
$GPVTG,353.38,T,,M,0.45,N,0.8,K,D*0F
$GPGGA,202342.000,3748.7967,N,12217.8657,W,2,07,1.1,-2.7,M,-25.1,M,2.8,0000*64
$GPGSA,A,3,10,13,05,28,07,19,11,,,,,,2.0,1.1,1.6*34
$GPRMC,202342.000,A,3748.7967,N,12217.8657,W,0.48,331.71,130711,,,D*7E
$GPVTG,331.71,T,,M,0.48,N,0.9,K,D*0A
$GPGGA,202343.000,3748.7975,N,12217.8652,W,2,07,1.1,-4.9,M,-25.1,M,3.8,0000*6A
$GPGSA,A,3,10,13,05,28,07,19,11,,,,,,2.0,1.1,1.6*34
$GPRMC,202343.000,A,3748.7975,N,12217.8652,W,0.39,359.62,130711,,,D*73
$GPVTG,359.62,T,,M,0.39,N,0.7,K,D*0E
$GPGGA,202344.000,3748.7980,N,12217.8647,W,2,07,1.1,-6.4,M,-25.1,M,1.8,0000*6E
$GPGSA,A,3,10,13,05,28,07,19,11,,,,,,2.0,1.1,1.6*34
$GPRMC,202344.000,A,3748.7980,N,12217.8647,W,0.21,4.52,130711,,,D*7B
$GPVTG,4.52,T,,M,0.21,N,0.4,K,D*0C
$GPGGA,202345.000,3748.7984,N,12217.8643,W,2,07,1.1,-7.5,M,-25.1,M,1.8,0000*6F
$GPGSA,A,3,10,13,05,28,07,19,11,,,,,,2.0,1.1,1.6*34
$GPGSV,3,1,12,08,65,358,28,28,60,250,30,07,57,065,29,19,26,052,33*79
$GPGSV,3,2,12,26,26,317,25,13,24,150,39,05,20,272,29,10,15,221,28*76
$GPGSV,3,3,12,11,11,106,32,17,09,188,22,03,02,036,15,48,44,197,31*73
$GPRMC,202345.000,A,3748.7984,N,12217.8643,W,0.16,337.92,130711,,,D*71
$GPVTG,337.92,T,,M,0.16,N,0.3,K,D*00
$GPGGA,202346.000,3748.7987,N,12217.8640,W,2,07,1.1,-7.4,M,-25.1,M,1.8,0000*6D
$GPGSA,A,3,10,13,05,28,07,19,11,,,,,,2.0,1.1,1.6*34
$GPRMC,202346.000,A,3748.7987,N,12217.8640,W,0.21,82.48,130711,,,D*4C
$GPVTG,82.48,T,,M,0.21,N,0.4,K,D*39
$GPGGA,202347.000,3748.7988,N,12217.8637,W,2,06,1.2,-7.1,M,-25.1,M,2.8,0000*67
$GPGSA,A,3,10,13,05,28,07,19,,,,,,,2.2,1.2,1.9*3A
$GPRMC,202347.000,A,3748.7988,N,12217.8637,W,0.90,127.16,130711,,,D*7D
$GPVTG,127.16,T,,M,0.90,N,1.7,K,D*04
$GPGGA,202348.000,3748.7989,N,12217.8635,W,2,06,1.2,-7.2,M,-25.1,M,3.8,0000*69
$GPGSA,A,3,10,13,05,28,07,19,,,,,,,2.2,1.2,1.9*3A
$GPRMC,202348.000,A,3748.7989,N,12217.8635,W,0.52,100.26,130711,,,D*79
$GPVTG,100.26,T,,M,0.52,N,1.0,K,D*0B
$GPGGA,202349.000,3748.7992,N,12217.8632,W,2,06,1.2,-7.3,M,-25.1,M,4.8,0000*63
$GPGSA,A,3,10,13,05,28,07,19,,,,,,,2.2,1.2,1.9*3A
$GPRMC,202349.000,A,3748.7992,N,12217.8632,W,0.53,82.78,130711,,,D*44
$GPVTG,82.78,T,,M,0.53,N,1.0,K,D*3A
$GPGGA,202350.000,3748.7992,N,12217.8630,W,2,06,1.2,-7.5,M,-25.1,M,1.8,0000*6A
$GPGSA,A,3,10,13,05,28,07,19,,,,,,,2.2,1.2,1.9*3A
$GPGSV,3,1,12,08,65,358,32,28,60,251,26,07,57,065,34,26,26,316,24*71
$GPGSV,3,2,12,19,26,052,32,13,24,150,27,05,20,272,16,10,14,220,24*71
$GPRMC,202350.000,A,3748.7992,N,12217.8630,W,0.48,138.15,130711,,,D*7F
$GPVTG,138.15,T,,M,0.48,N,0.9,K,D*03
$GPGGA,202351.000,3748.7991,N,12217.8628,W,2,06,1.2,-7.2,M,-25.1,M,1.8,0000*66
$GPGSA,A,3,13,05,28,07,19,11,,,,,,,2.1,1.2,1.7*36
$GPRMC,202351.000,A,3748.7991,N,12217.8628,W,0.99,123.60,130711,,,D*70
$GPVTG,123.60,T,,M,0.99,N,1.8,K,D*07
$GPGGA,202352.000,3748.7991,N,12217.8627,W,2,04,5.7,-7.3,M,-25.1,M,1.8,0000*68
$GPGSA,A,3,13,07,19,11,,,,,,,,,7.6,5.7,5.0*39
$GPRMC,202352.000,A,3748.7991,N,12217.8627,W,0.64,98.85,130711,,,D*44
$GPVTG,98.85,T,,M,0.64,N,1.2,K,D*35
$GPGGA,202353.000,3748.7991,N,12217.8623,W,2,06,1.2,-6.8,M,-25.1,M,2.8,0000*67
$GPGSA,A,3,13,05,28,07,19,11,,,,,,,2.1,1.2,1.7*36
$GPRMC,202353.000,A,3748.7991,N,12217.8623,W,0.47,68.16,130711,,,D*45
$GPVTG,68.16,T,,M,0.47,N,0.9,K,D*3B
