$ADVER,3080,2.3
$GPRMC,202358.529,A,3748.8041,N,12217.8624,W,0.33,181.04,130711,,,A*7F
$GPGGA,202359.529,3748.8072,N,12217.8605,W,1,04,4.4,15.2,M,-25.1,M,,0000*5F
$GPGSA,A,3,08,05,19,07,,,,,,,,,4.9,4.4,2.2*3D
$GPRMC,202359.529,A,3748.8072,N,12217.8605,W,0.06,73.24,130711,,,A*45
$GPVTG,73.24,T,,M,0.06,N,0.1,K,A*38
$GPGGA,202400.529,3748.8064,N,12217.8603,W,1,04,4.4,13.9,M,-25.1,M,,0000*58
$GPGSA,A,3,08,05,19,07,,,,,,,,,4.9,4.4,2.2*3D
$GPGSV,3,1,12,08,65,358,28,07,57,066,35,19,26,052,31,05,20,272,28*77
$GPGSV,3,2,12,28,60,251,29,26,26,316,19,01,24,241,,13,24,150,40*72
$GPGSV,3,3,12,10,14,220,27,11,11,106,39,17,09,188,24,03,02,036,*7A
$GPRMC,202400.529,A,3748.8064,N,12217.8603,W,0.58,269.49,130711,,,A*76
$GPVTG,269.49,T,,M,0.58,N,1.1,K,A*00
$GPGGA,202401.000,3748.8075,N,12217.8609,W,1,04,4.4,14.9,M,-25.1,M,,0000*5A
$GPGSA,A,3,08,05,19,07,,,,,,,,,4.9,4.4,2.2*3D
$GPRMC,202401.000,A,3748.8075,N,12217.8609,W,1.25,321.43,130711,,,A*7F
$GPVTG,321.43,T,,M,1.25,N,2.3,K,A*0D
$GPGGA,202402.000,3748.8104,N,12217.8627,W,1,04,4.4,17.5,M,-25.1,M,,0000*5D
$GPGSA,A,3,08,05,19,07,,,,,,,,,4.9,4.4,2.2*3D
$GPRMC,202402.000,A,3748.8104,N,12217.8627,W,0.68,342.34,130711,,,A*7A
$GPVTG,342.34,T,,M,0.68,N,1.3,K,A*03
$GPGGA,202403.000,3748.8120,N,12217.8639,W,1,04,4.4,19.2,M,-25.1,M,,0000*5C
$GPGSA,A,3,08,05,19,07,,,,,,,,,4.9,4.4,2.2*3D
$GPRMC,202403.000,A,3748.8120,N,12217.8639,W,0.71,341.99,130711,,,A*7E
$GPVTG,341.99,T,,M,0.71,N,1.3,K,A*0F
$GPGGA,202404.000,3748.8123,N,12217.8645,W,1,04,4.4,19.5,M,-25.1,M,,0000*54
$GPGSA,A,3,08,05,19,07,,,,,,,,,4.9,4.4,2.2*3D
$GPRMC,202404.000,A,3748.8123,N,12217.8645,W,0.45,347.10,130711,,,A*71
$GPVTG,347.10,T,,M,0.45,N,0.8,K,A*05
$GPGGA,202405.000,3748.8117,N,12217.8646,W,1,04,4.4,19.2,M,-25.1,M,,0000*56
$GPGSA,A,3,08,05,19,07,,,,,,,,,4.9,4.4,2.2*3D
$GPGSV,3,1,12,08,65,358,28,07,57,066,35,19,26,052,30,05,20,272,32*7D
$GPGSV,3,2,12,28,60,251,35,26,26,316,30,01,24,241,,13,24,150,39*7A
$GPGSV,3,3,12,10,14,220,38,11,11,106,33,17,09,188,33,03,02,036,*78
$GPRMC,202405.000,A,3748.8117,N,12217.8646,W,0.22,344.70,130711,,,A*70
$GPVTG,344.70,T,,M,0.22,N,0.4,K,A*0D
$GPGGA,202406.000,3748.8108,N,12217.8645,W,1,04,4.4,18.5,M,-25.1,M,,0000*5E
$GPGSA,A,3,08,05,19,07,,,,,,,,,4.9,4.4,2.2*3D
$GPRMC,202406.000,A,3748.8108,N,12217.8645,W,0.06,179.30,130711,,,A*70
$GPVTG,179.30,T,,M,0.06,N,0.1,K,A*06
$GPGGA,202407.000,3748.8098,N,12217.8643,W,1,04,4.4,17.9,M,-25.1,M,,0000*52
$GPGSA,A,3,08,05,19,07,,,,,,,,,4.9,4.4,2.2*3D
$GPRMC,202407.000,A,3748.8098,N,12217.8643,W,0.21,161.95,130711,,,A*7C
$GPVTG,161.95,T,,M,0.21,N,0.4,K,A*00
$GPGGA,202408.000,3748.8088,N,12217.8642,W,1,04,4.4,17.3,M,-25.1,M,,0000*57
$GPGSA,A,3,08,05,19,07,,,,,,,,,4.9,4.4,2.2*3D
$GPRMC,202408.000,A,3748.8088,N,12217.8642,W,0.34,166.43,130711,,,A*7B
$GPVTG,166.43,T,,M,0.34,N,0.6,K,A*0A
$GPGGA,202409.000,3748.8067,N,12217.8642,W,1,04,4.4,18.8,M,-25.1,M,,0000*53
$GPGSA,A,3,08,05,19,07,,,,,,,,,4.9,4.4,2.2*3D
$GPRMC,202409.000,A,3748.8067,N,12217.8642,W,0.88,137.13,130711,,,A*7D
$GPVTG,137.13,T,,M,0.88,N,1.6,K,A*0D
$GPGGA,202410.000,3748.8063,N,12217.8638,W,1,04,4.4,17.6,M,-25.1,M,,0000*53
$GPGSA,A,3,08,05,19,07,,,,,,,,,4.9,4.4,2.2*3D
$GPGSV,3,1,12,08,65,358,29,07,57,066,34,19,26,052,26,05,20,272,28*71
$GPGSV,3,2,12,28,60,251,35,26,26,316,25,01,24,241,,13,24,150,38*7F
$GPGSV,3,3,12,10,14,220,38,11,11,106,36,17,09,188,24,03,02,036,*7B
$GPRMC,202410.000,A,3748.8063,N,12217.8638,W,0.63,120.59,130711,,,A*71
$GPVTG,120.59,T,,M,0.63,N,1.2,K,A*04
$GPGGA,202411.000,3748.8063,N,12217.8634,W,1,04,4.4,15.5,M,-25.1,M,,0000*5F
$GPGSA,A,3,08,05,19,07,,,,,,,,,4.9,4.4,2.2*3D
$GPRMC,202411.000,A,3748.8063,N,12217.8634,W,0.29,132.65,130711,,,A*7E
$GPVTG,132.65,T,,M,0.29,N,0.5,K,A*00
$GPGGA,202412.000,3748.8064,N,12217.8632,W,2,04,4.4,13.9,M,-25.1,M,,0000*54
$GPGSA,A,3,08,05,19,07,,,,,,,,,4.9,4.4,2.2*3D
$GPRMC,202412.000,A,3748.8064,N,12217.8632,W,0.23,208.26,130711,,,D*7E
$GPVTG,208.26,T,,M,0.23,N,0.4,K,D*03
$GPGGA,202413.000,3748.8067,N,12217.8630,W,2,04,4.4,13.1,M,-25.1,M,,0000*5C
$GPGSA,A,3,08,05,19,07,,,,,,,,,4.9,4.4,2.2*3D
$GPRMC,202413.000,A,3748.8067,N,12217.8630,W,0.03,323.94,130711,,,D*7D
$GPVTG,323.94,T,,M,0.03,N,0.1,K,D*05
$GPGGA,202414.000,3748.8068,N,12217.8630,W,2,04,4.4,12.3,M,-25.1,M,,0000*57
$GPGSA,A,3,08,05,19,07,,,,,,,,,4.9,4.4,2.2*3D
$GPRMC,202414.000,A,3748.8068,N,12217.8630,W,0.30,236.14,130711,,,D*78
$GPVTG,236.14,T,,M,0.30,N,0.6,K,D*0F
$GPGGA,202415.000,3748.8068,N,12217.8628,W,2,04,4.4,11.6,M,-25.1,M,,0000*59
$GPGSA,A,3,08,05,19,07,,,,,,,,,4.9,4.4,2.2*3D
$GPGSV,3,1,12,08,65,358,30,07,57,066,34,19,26,052,32,05,20,272,28*7C
$GPGSV,3,2,12,28,60,251,35,26,26,316,25,01,24,241,,13,24,150,39*7E
$GPGSV,3,3,12,10,14,220,34,11,11,106,40,17,09,188,29,03,02,036,*7B
$GPRMC,202415.000,A,3748.8068,N,12217.8628,W,0.18,96.07,130711,,,D*40
$GPVTG,96.07,T,,M,0.18,N,0.3,K,D*3A
$GPGGA,202416.000,3748.8071,N,12217.8622,W,2,04,4.4,11.6,M,-25.1,M,,0000*58
$GPGSA,A,3,08,05,19,07,,,,,,,,,4.9,4.4,2.2*3D
$GPRMC,202416.000,A,3748.8071,N,12217.8622,W,0.21,123.93,130711,,,D*79
$GPVTG,123.93,T,,M,0.21,N,0.4,K,D*05
$GPGGA,202417.000,3748.8071,N,12217.8619,W,2,04,4.4,11.4,M,-25.1,M,,0000*53
$GPGSA,A,3,08,05,19,07,,,,,,,,,4.9,4.4,2.2*3D
$GPRMC,202417.000,A,3748.8071,N,12217.8619,W,0.35,139.68,130711,,,D*7A
$GPVTG,139.68,T,,M,0.35,N,0.6,K,D*0D
$GPGGA,202418.000,3748.8077,N,12217.8616,W,2,04,4.4,11.4,M,-25.1,M,2.8,0000*71
$GPGSA,A,3,08,05,19,07,,,,,,,,,4.9,4.4,2.2*3D
$GPRMC,202418.000,A,3748.8077,N,12217.8616,W,1.00,345.74,130711,,,D*7F
$GPVTG,345.74,T,,M,1.00,N,1.8,K,D*01
$GPGGA,202419.000,3748.8080,N,12217.8613,W,2,04,4.4,11.7,M,-25.1,M,3.8,0000*7F
$GPGSA,A,3,08,05,19,07,,,,,,,,,4.9,4.4,2.2*3D
$GPRMC,202419.000,A,3748.8080,N,12217.8613,W,0.71,354.05,130711,,,D*72
$GPVTG,354.05,T,,M,0.71,N,1.3,K,D*0B
$GPGGA,202420.000,3748.8083,N,12217.8610,W,2,04,4.4,12.1,M,-25.1,M,,0000*55
$GPGSA,A,3,08,05,19,07,,,,,,,,,4.9,4.4,2.2*3D
$GPGSV,3,1,12,08,65,359,30,28,60,251,34,07,57,066,35,26,26,316,23*74
$GPGSV,3,2,12,19,26,052,30,01,24,241,,13,24,150,40,05,20,271,28*7E
$GPGSV,3,3,12,10,14,220,26,11,11,106,40,17,09,188,20,03,02,036,*71
$GPRMC,202420.000,A,3748.8083,N,12217.8610,W,0.43,355.80,130711,,,D*75
$GPVTG,355.80,T,,M,0.43,N,0.8,K,D*0C
$GPGGA,202421.000,3748.8086,N,12217.8608,W,2,04,4.4,12.4,M,-25.1,M,,0000*5D
$GPGSA,A,3,08,05,19,07,,,,,,,,,4.9,4.4,2.2*3D
$GPRMC,202421.000,A,3748.8086,N,12217.8608,W,0.24,295.73,130711,,,D*78
$GPVTG,295.73,T,,M,0.24,N,0.4,K,D*00
$GPGGA,202422.000,3748.8085,N,12217.8610,W,2,04,4.4,12.1,M,-25.1,M,,0000*51
$GPGSA,A,3,08,05,19,07,,,,,,,,,4.9,4.4,2.2*3D
$GPRMC,202422.000,A,3748.8085,N,12217.8610,W,0.13,277.25,130711,,,D*7A
$GPVTG,277.25,T,,M,0.13,N,0.2,K,D*0D
$GPGGA,202423.000,3748.8083,N,12217.8613,W,2,04,4.4,11.3,M,-25.1,M,,0000*54
$GPGSA,A,3,08,05,19,07,,,,,,,,,4.9,4.4,2.2*3D
$GPRMC,202423.000,A,3748.8083,N,12217.8613,W,0.29,321.14,130711,,,D*77
$GPVTG,321.14,T,,M,0.29,N,0.5,K,D*03
$GPGGA,202424.000,3748.8080,N,12217.8617,W,2,04,4.4,10.4,M,-25.1,M,2.8,0000*76
$GPGSA,A,3,08,05,19,07,,,,,,,,,4.9,4.4,2.2*3D
$GPRMC,202424.000,A,3748.8080,N,12217.8617,W,0.51,343.95,130711,,,D*75
$GPVTG,343.95,T,,M,0.51,N,0.9,K,D*0D
$GPGGA,202425.000,3748.8057,N,12217.8609,W,2,04,4.4,10.9,M,-25.1,M,3.8,0000*7E
$GPGSA,A,3,08,05,19,07,,,,,,,,,4.9,4.4,2.2*3D
$GPGSV,3,1,12,08,65,359,31,28,60,251,30,07,57,066,27,26,26,316,24*75
$GPGSV,3,2,12,19,26,052,38,01,24,241,,13,24,150,40,05,20,271,26*78
$GPGSV,3,3,12,10,14,220,26,11,11,106,41,17,09,188,26,03,02,036,*76
$GPRMC,202425.000,A,3748.8057,N,12217.8609,W,0.88,160.08,130711,,,D*72
$GPVTG,160.08,T,,M,0.88,N,1.6,K,D*00
$GPGGA,202426.000,3748.8040,N,12217.8603,W,2,04,4.4,11.1,M,-25.1,M,,0000*5D
$GPGSA,A,3,08,05,19,07,,,,,,,,,4.9,4.4,2.2*3D
$GPRMC,202426.000,A,3748.8040,N,12217.8603,W,1.09,156.88,130711,,,D*78
$GPVTG,156.88,T,,M,1.09,N,2.0,K,D*00
$GPGGA,202427.000,3748.8028,N,12217.8600,W,2,04,4.4,11.1,M,-25.1,M,,0000*51
$GPGSA,A,3,08,05,19,07,,,,,,,,,4.9,4.4,2.2*3D
$GPRMC,202427.000,A,3748.8028,N,12217.8600,W,0.98,179.23,130711,,,D*71
$GPVTG,179.23,T,,M,0.98,N,1.8,K,D*0E
$GPGGA,202428.000,3748.8025,N,12217.8601,W,2,05,2.1,11.1,M,-25.1,M,,0000*50
$GPGSA,A,3,08,05,11,19,07,,,,,,,,2.9,2.1,2.0*3A
$GPRMC,202428.000,A,3748.8025,N,12217.8601,W,0.20,297.09,130711,,,D*7A
$GPVTG,297.09,T,,M,0.20,N,0.4,K,D*0B
$GPGGA,202429.000,3748.8022,N,12217.8601,W,2,05,2.1,11.0,M,-25.1,M,,0000*57
$GPGSA,A,3,08,05,11,19,07,,,,,,,,2.9,2.1,2.0*3A
$GPRMC,202429.000,A,3748.8022,N,12217.8601,W,0.23,94.72,130711,,,D*42
$GPVTG,94.72,T,,M,0.23,N,0.4,K,D*35
$GPGGA,202430.000,3748.8027,N,12217.8605,W,2,05,2.1,11.6,M,-25.1,M,2.8,0000*7C
$GPGSA,A,3,08,05,11,19,07,,,,,,,,2.9,2.1,2.0*3A
$GPGSV,3,1,12,08,65,359,28,28,60,251,33,07,57,066,31,26,26,316,26*7B
$GPGSV,3,2,12,19,26,052,30,01,24,241,,13,24,150,41,05,20,271,34*72
$GPGSV,3,3,12,10,14,220,34,11,11,106,36,17,09,188,26,03,02,036,*75
$GPRMC,202430.000,A,3748.8027,N,12217.8605,W,0.32,56.38,130711,,,D*4B
$GPGGA,202431.000,3748.8024,N,12217.8604,W,2,05,2.1,11.2,M,-25.1,M,3.8,0000*7A
$GPGSA,A,3,08,05,11,19,07,,,,,,,,2.9,2.1,2.0*3A
$GPRMC,202431.000,A,3748.8024,N,12217.8604,W,0.13,345.26,130711,,,D*75
$GPVTG,345.26,T,,M,0.13,N,0.2,K,D*0E
$GPGGA,202432.000,3748.8022,N,12217.8604,W,2,05,2.1,10.8,M,-25.1,M,4.8,0000*73
$GPGSA,A,3,08,05,11,19,07,,,,,,,,2.9,2.1,2.0*3A
$GPRMC,202432.000,A,3748.8022,N,12217.8604,W,0.20,356.98,130711,,,D*77
$GPVTG,356.98,T,,M,0.20,N,0.4,K,D*0F
$GPGGA,202433.000,3748.8022,N,12217.8604,W,2,05,2.1,10.6,M,-25.1,M,,0000*5E
$GPGSA,A,3,08,05,11,19,07,,,,,,,,2.9,2.1,2.0*3A
$GPRMC,202433.000,A,3748.8022,N,12217.8604,W,0.60,15.12,130711,,,D*44
$GPVTG,15.12,T,,M,0.60,N,1.1,K,D*39
$GPGGA,202434.000,3748.8021,N,12217.8607,W,2,05,2.1,10.2,M,-25.1,M,,0000*5D
$GPGSA,A,3,08,05,11,19,07,,,,,,,,2.9,2.1,2.0*3A
$GPRMC,202434.000,A,3748.8021,N,12217.8607,W,0.22,266.27,130711,,,D*75
$GPVTG,266.27,T,,M,0.22,N,0.4,K,D*0B
$GPGGA,202435.000,3748.8021,N,12217.8609,W,2,05,2.1,10.2,M,-25.1,M,,0000*52
$GPGSA,A,3,08,05,11,19,07,,,,,,,,2.9,2.1,2.0*3A
$GPGSV,3,1,12,08,65,359,29,28,60,251,29,07,57,066,38,26,26,316,20*7E
$GPGSV,3,2,12,19,26,052,33,01,24,241,,13,24,150,40,05,20,271,24*71
$GPGSV,3,3,12,10,14,220,26,11,11,106,39,17,09,188,22,03,02,036,*7D
$GPRMC,202435.000,A,3748.8021,N,12217.8609,W,0.42,335.78,130711,,,D*71
$GPVTG,335.78,T,,M,0.42,N,0.8,K,D*0C
$GPGGA,202436.000,3748.8021,N,12217.8612,W,2,05,2.1,9.7,M,-25.1,M,,0000*66
$GPGSA,A,3,08,05,11,19,07,,,,,,,,2.9,2.1,2.0*3A
$GPRMC,202436.000,A,3748.8021,N,12217.8612,W,0.68,314.44,130711,,,D*7C
$GPVTG,314.44,T,,M,0.68,N,1.3,K,D*02
$GPGGA,202437.000,3748.8017,N,12217.8615,W,2,05,2.1,9.2,M,-25.1,M,2.8,0000*44
$GPGSA,A,3,08,05,11,19,07,,,,,,,,2.9,2.1,2.0*3A
$GPRMC,202437.000,A,3748.8017,N,12217.8615,W,0.51,261.58,130711,,,D*7B
$GPVTG,261.58,T,,M,0.51,N,0.9,K,D*0D
$GPGGA,202438.000,3748.8015,N,12217.8617,W,2,05,2.1,8.6,M,-25.1,M,3.8,0000*4F
$GPGSA,A,3,08,05,11,19,07,,,,,,,,2.9,2.1,2.0*3A
$GPRMC,202438.000,A,3748.8015,N,12217.8617,W,0.43,15.79,130711,,,D*45
$GPVTG,15.79,T,,M,0.43,N,0.8,K,D*3D
$GPGGA,202439.000,3748.8012,N,12217.8616,W,2,05,2.1,8.5,M,-25.1,M,4.8,0000*4C
$GPGSA,A,3,08,05,11,19,07,,,,,,,,2.9,2.1,2.0*3A
$GPRMC,202439.000,A,3748.8012,N,12217.8616,W,0.17,343.45,130711,,,D*7C
$GPVTG,343.45,T,,M,0.17,N,0.3,K,D*08
$GPGGA,202440.000,3748.8007,N,12217.8615,W,2,05,2.1,8.7,M,-25.1,M,5.8,0000*46
$GPGSA,A,3,08,05,11,19,07,,,,,,,,2.9,2.1,2.0*3A
$GPGSV,3,1,12,08,65,359,37,28,60,251,24,07,57,066,31,26,26,316,28*7D
$GPGSV,3,2,12,19,26,052,34,01,24,241,,13,24,150,28,05,20,271,33*7E
$GPGSV,3,3,12,10,14,220,26,11,11,106,27,17,09,188,22,03,02,036,*72
$GPRMC,202440.000,A,3748.8007,N,12217.8615,W,0.28,332.75,130711,,,D*7C
$GPVTG,332.75,T,,M,0.28,N,0.5,K,D*07
$GPGGA,202441.000,3748.8002,N,12217.8610,W,2,05,2.1,9.6,M,-25.1,M,6.8,0000*44
$GPGSA,A,3,08,05,11,19,07,,,,,,,,2.9,2.1,2.0*3A
$GPRMC,202441.000,A,3748.8002,N,12217.8610,W,0.17,47.46,130711,,,D*40
$GPVTG,47.46,T,,M,0.17,N,0.3,K,D*3C
$GPGGA,202442.000,3748.7997,N,12217.8607,W,2,05,2.1,10.2,M,-25.1,M,7.8,0000*76
$GPGSA,A,3,08,05,11,19,07,,,,,,,,2.9,2.1,2.0*3A
$GPRMC,202442.000,A,3748.7997,N,12217.8607,W,0.06,340.85,130711,,,D*74
$GPVTG,340.85,T,,M,0.06,N,0.1,K,D*05
$GPGGA,202443.000,3748.7994,N,12217.8605,W,2,05,2.1,10.6,M,-25.1,M,8.8,0000*7D
$GPGSA,A,3,08,05,11,19,07,,,,,,,,2.9,2.1,2.0*3A
$GPRMC,202443.000,A,3748.7994,N,12217.8605,W,0.35,344.99,130711,,,D*7D
$GPVTG,344.99,T,,M,0.35,N,0.6,K,D*0B
$GPGGA,202444.000,3748.7994,N,12217.8604,W,2,05,2.1,11.0,M,-25.1,M,9.8,0000*7D
$GPGSA,A,3,08,05,11,19,07,,,,,,,,2.9,2.1,2.0*3A
$GPRMC,202444.000,A,3748.7994,N,12217.8604,W,0.70,1.14,130711,,,D*7D
$GPVTG,1.14,T,,M,0.70,N,1.3,K,D*09
$GPGGA,202445.000,3748.7994,N,12217.8602,W,2,05,2.1,11.2,M,-25.1,M,10.8,0000*40
$GPGSA,A,3,08,05,11,19,07,,,,,,,,2.9,2.1,2.0*3A
$GPGSV,3,1,12,08,65,359,36,28,60,251,37,07,57,066,30,26,26,316,34*72
$GPGSV,3,2,12,19,26,052,32,01,24,241,,13,24,150,24,05,20,271,29*7F
$GPGSV,3,3,12,10,14,220,26,11,11,106,24,17,09,188,23,03,02,036,*70
$GPVTG,56.56,T,,M,0.59,N,1.1,K,D*34
$GPGGA,202446.000,3748.7988,N,12217.8600,W,2,05,2.1,11.7,M,-25.1,M,11.8,0000*48
$GPGSA,A,3,08,05,11,19,07,,,,,,,,2.9,2.1,2.0*3A
$GPRMC,202446.000,A,3748.7988,N,12217.8600,W,0.42,128.76,130711,,,D*79
$GPVTG,128.76,T,,M,0.42,N,0.8,K,D*0C
$GPGGA,202447.000,3748.7984,N,12217.8601,W,2,05,2.1,12.1,M,-25.1,M,12.8,0000*42
$GPGSA,A,3,08,05,11,19,07,,,,,,,,2.9,2.1,2.0*3A
$GPRMC,202447.000,A,3748.7984,N,12217.8601,W,0.34,223.09,130711,,,D*74
$GPVTG,223.09,T,,M,0.34,N,0.6,K,D*03
$GPGGA,202448.000,3748.7981,N,12217.8600,W,2,05,2.1,12.5,M,-25.1,M,13.8,0000*4C
$GPGSA,A,3,08,05,11,19,07,,,,,,,,2.9,2.1,2.0*3A
$GPRMC,202448.000,A,3748.7981,N,12217.8600,W,0.53,47.07,130711,,,D*40
$GPVTG,47.07,T,,M,0.53,N,1.0,K,D*3B
$GPGGA,202449.000,3748.7980,N,12217.8596,W,2,05,2.1,12.8,M,-25.1,M,14.8,0000*4A
$GPGSA,A,3,08,05,11,19,07,,,,,,,,2.9,2.1,2.0*3A
$GPRMC,202449.000,A,3748.7980,N,12217.8596,W,0.37,172.56,130711,,,D*7D
$GPVTG,172.56,T,,M,0.37,N,0.7,K,D*0C
$GPGGA,202450.000,3748.7980,N,12217.8593,W,2,05,2.1,12.8,M,-25.1,M,15.8,0000*46
$GPGSA,A,3,08,05,11,19,07,,,,,,,,2.9,2.1,2.0*3A
$GPGSV,3,1,12,08,65,359,28,28,60,251,27,07,57,066,37,26,26,316,31*7E
$GPGSV,3,2,12,19,26,052,39,01,24,241,,13,24,150,39,05,20,271,30*70
$GPGSV,3,3,12,10,14,220,33,11,11,106,33,17,09,188,27,03,02,036,*76
$GPRMC,202450.000,A,3748.7980,N,12217.8593,W,0.37,27.22,130711,,,D*42
$GPVTG,27.22,T,,M,0.37,N,0.7,K,D*3E
$GPGGA,202451.000,3748.7979,N,12217.8591,W,2,05,2.1,12.7,M,-25.1,M,16.8,0000*4F
$GPGSA,A,3,08,05,11,19,07,,,,,,,,2.9,2.1,2.0*3A
$GPRMC,202451.000,A,3748.7979,N,12217.8591,W,0.36,66.05,130711,,,D*46
$GPVTG,66.05,T,,M,0.36,N,0.7,K,D*3F
$GPGGA,202452.000,3748.7980,N,12217.8591,W,2,05,2.1,12.3,M,-25.1,M,17.8,0000*4F
$GPGSA,A,3,08,05,11,19,07,,,,,,,,2.9,2.1,2.0*3A
$GPRMC,202452.000,A,3748.7980,N,12217.8591,W,0.51,334.63,130711,,,D*76
$GPVTG,334.63,T,,M,0.51,N,0.9,K,D*04
$GPGGA,202453.000,3748.7982,N,12217.8593,W,1,05,2.1,11.9,M,-25.1,M,,0000*54
$GPGSA,A,3,08,05,11,19,07,,,,,,,,2.9,2.1,2.0*3A
$GPRMC,202453.000,A,3748.7982,N,12217.8593,W,0.89,318.76,130711,,,A*7D
$GPVTG,318.76,T,,M,0.89,N,1.6,K,A*00
$GPGGA,202454.000,3748.7984,N,12217.8595,W,1,05,2.0,11.4,M,-25.1,M,,0000*5F
$GPGSA,A,3,08,05,11,19,07,,,,,,,,2.9,2.0,2.0*3B
$GPRMC,202454.000,A,3748.7984,N,12217.8595,W,0.17,331.04,130711,,,A*73
$GPVTG,331.04,T,,M,0.17,N,0.3,K,A*0D
$GPGGA,202455.000,3748.7987,N,12217.8597,W,1,05,2.0,10.9,M,-25.1,M,,0000*53
$GPGSA,A,3,08,05,11,19,07,,,,,,,,2.9,2.0,2.0*3B
$GPGSV,3,1,12,08,65,359,33,28,60,251,26,07,57,066,30,26,26,316,34*77
$GPGSV,3,2,12,19,26,052,30,01,24,241,,13,24,150,26,05,20,271,27*71
$GPGSV,3,3,12,10,14,220,28,11,11,106,27,17,09,188,20,03,02,036,*7E
$GPRMC,202455.000,A,3748.7987,N,12217.8597,W,0.31,333.40,130711,,,A*75
$GPVTG,333.40,T,,M,0.31,N,0.6,K,A*0E
$GPGGA,202456.000,3748.7991,N,12217.8599,W,1,05,2.0,10.0,M,-25.1,M,,0000*50
$GPGSA,A,3,08,05,11,19,07,,,,,,,,2.9,2.0,2.0*3B
$GPRMC,202456.000,A,3748.7991,N,12217.8599,W,0.33,2.25,130711,,,A*7F
$GPVTG,2.25,T,,M,0.33,N,0.6,K,A*0E
$GPGGA,202457.000,3748.7994,N,12217.8600,W,1,05,2.0,9.3,M,-25.1,M,,0000*6C
$GPGSA,A,3,08,05,11,19,07,,,,,,,,2.9,2.0,2.0*3B
$GPRMC,202457.000,A,3748.7994,N,12217.8600,W,0.60,22.07,130711,,,A*4C
$GPVTG,22.07,T,,M,0.60,N,1.1,K,A*3C
$GPGGA,202458.000,3748.7998,N,12217.8602,W,1,05,2.0,8.6,M,-25.1,M,,0000*69
$GPGSA,A,3,08,05,11,19,07,,,,,,,,2.9,2.0,2.0*3B
$GPRMC,202458.000,A,3748.7998,N,12217.8602,W,0.29,324.71,130711,,,A*74
$GPVTG,324.71,T,,M,0.29,N,0.5,K,A*00
$GPGGA,202459.000,3748.8003,N,12217.8604,W,1,05,2.0,8.3,M,-25.1,M,,0000*6F
$GPGSA,A,3,08,05,11,19,07,,,,,,,,2.9,2.0,2.0*3B
$GPRMC,202459.000,A,3748.8003,N,12217.8604,W,0.65,359.75,130711,,,A*71
$GPVTG,359.75,T,,M,0.65,N,1.2,K,A*00
$GPGGA,202500.000,3748.8011,N,12217.8607,W,1,05,2.0,8.1,M,-25.1,M,,0000*60
$GPGSA,A,3,08,05,11,19,07,,,,,,,,2.9,2.0,2.0*3B
$GPGSV,3,1,12,08,65,359,38,28,60,251,33,07,57,066,38,26,26,316,39*7D
$GPGSV,3,2,12,19,26,052,35,01,24,241,,13,24,150,26,05,20,271,36*74
$GPGSV,3,3,12,10,14,220,22,11,11,106,26,17,09,188,,03,02,036,*77
$GPVTG,1.61,T,,M,0.67,N,1.2,K,A*09
$GPGGA,202501.000,3748.8013,N,12217.8607,W,1,05,2.0,7.8,M,-25.1,M,,0000*65
$GPGSA,A,3,08,05,11,19,07,,,,,,,,2.9,2.0,2.0*3B
$GPRMC,202501.000,A,3748.8013,N,12217.8607,W,0.59,41.56,130711,,,A*4B
$GPVTG,41.56,T,,M,0.59,N,1.1,K,A*37
$GPGGA,202502.000,3748.8016,N,12217.8606,W,1,05,2.0,7.2,M,-25.1,M,,0000*68
$GPGSA,A,3,08,05,11,19,07,,,,,,,,2.9,2.0,2.0*3B
$GPRMC,202502.000,A,3748.8016,N,12217.8606,W,0.79,15.98,130711,,,A*4D
$GPVTG,15.98,T,,M,0.79,N,1.5,K,A*32
$GPGGA,202503.000,3748.8018,N,12217.8607,W,1,05,2.0,6.7,M,-25.1,M,,0000*62
$GPGSA,A,3,08,05,11,19,07,,,,,,,,2.9,2.0,2.0*3B
$GPRMC,202503.000,A,3748.8018,N,12217.8607,W,0.56,0.01,130711,,,A*7A
$GPVTG,0.01,T,,M,0.56,N,1.0,K,A*0E
$GPGGA,202504.000,3748.8021,N,12217.8607,W,1,05,2.0,6.5,M,-25.1,M,,0000*6D
$GPGSA,A,3,08,05,11,19,07,,,,,,,,2.9,2.0,2.0*3B
$GPRMC,202504.000,A,3748.8021,N,12217.8607,W,0.91,353.79,130711,,,A*76
$GPVTG,353.79,T,,M,0.91,N,1.7,K,A*08
$GPGGA,202505.000,3748.8023,N,12217.8607,W,1,05,2.0,6.3,M,-25.1,M,,0000*68
$GPGSA,A,3,08,05,11,19,07,,,,,,,,2.9,2.0,2.0*3B
$GPGSV,3,1,12,08,65,359,35,28,60,251,25,07,57,066,37,26,26,316,35*74
$GPGSV,3,2,12,19,26,052,40,01,24,241,,13,24,150,30,05,20,271,28*7E
$GPGSV,3,3,12,10,14,220,34,11,11,106,18,17,09,188,24,03,02,036,*7B
$GPRMC,202505.000,A,3748.8023,N,12217.8607,W,0.61,345.70,130711,,,A*74
$GPVTG,345.70,T,,M,0.61,N,1.1,K,A*0F
$GPGGA,202506.000,3748.8024,N,12217.8607,W,1,05,2.0,6.7,M,-25.1,M,,0000*68
$GPGSA,A,3,08,05,11,19,07,,,,,,,,2.9,2.0,2.0*3B
$GPRMC,202506.000,A,3748.8024,N,12217.8607,W,0.75,54.46,130711,,,A*43
$GPVTG,54.46,T,,M,0.75,N,1.4,K,A*39
$GPGGA,202507.000,3748.8024,N,12217.8605,W,1,04,4.3,6.4,M,-25.1,M,,0000*6C
$GPGSA,A,3,08,05,19,07,,,,,,,,,4.8,4.3,2.2*3B
$GPRMC,202507.000,A,3748.8024,N,12217.8605,W,0.72,37.40,130711,,,A*44
$GPVTG,37.40,T,,M,0.72,N,1.3,K,A*3A
$GPGGA,202508.000,3748.8013,N,12217.8604,W,1,04,4.3,7.4,M,-25.1,M,,0000*67
$GPGSA,A,3,08,05,19,07,,,,,,,,,4.8,4.3,2.2*3B
$GPRMC,202508.000,A,3748.8013,N,12217.8604,W,0.14,1.58,130711,,,A*72
$GPVTG,1.58,T,,M,0.14,N,0.3,K,A*07
$GPGGA,202509.000,3748.7992,N,12217.8600,W,1,05,2.0,9.1,M,-25.1,M,,0000*62
$GPGSA,A,3,08,05,11,19,07,,,,,,,,2.9,2.0,2.0*3B
$GPRMC,202509.000,A,3748.7992,N,12217.8600,W,2.53,152.76,130711,,,A*72
$GPVTG,152.76,T,,M,2.53,N,4.7,K,A*0D
$GPGGA,202510.000,3748.7986,N,12217.8601,W,1,05,2.0,9.8,M,-25.1,M,,0000*67
$GPGSA,A,3,08,05,11,19,07,,,,,,,,2.9,2.0,2.0*3B
$GPGSV,3,1,12,08,65,359,30,28,60,251,30,07,57,066,29,26,26,316,24*7A
$GPGSV,3,2,12,19,26,052,27,01,24,241,,13,24,150,34,05,20,271,25*76
$GPGSV,3,3,12,10,14,220,27,11,11,106,23,17,09,188,26,03,02,036,*73
$GPRMC,202510.000,A,3748.7986,N,12217.8601,W,2.06,174.57,130711,,,A*79
$GPVTG,174.57,T,,M,2.06,N,3.8,K,A*02
$GPGGA,202511.000,3748.7994,N,12217.8607,W,1,04,2.6,10.5,M,-25.1,M,,0000*51
$GPGSA,A,3,08,05,11,07,,,,,,,,,2.8,2.6,1.0*37
$GPRMC,202511.000,A,3748.7994,N,12217.8607,W,1.02,216.60,130711,,,A*79
$GPVTG,216.60,T,,M,1.02,N,1.9,K,A*05
$GPGGA,202512.000,3748.7988,N,12217.8605,W,1,03,5.0,10.5,M,-25.1,M,,0000*5B
$GPGSA,A,2,08,05,07,,,,,,,,,,5.1,5.0,1.0*39
$GPRMC,202512.000,A,3748.7988,N,12217.8605,W,1.10,140.20,130711,,,A*72
$GPVTG,140.20,T,,M,1.10,N,2.0,K,N*07
$GPGGA,202513.000,3748.7975,N,12217.8600,W,1,03,5.0,10.2,M,-25.1,M,,0000*5A
$GPGSA,A,2,08,05,07,,,,,,,,,,5.1,5.0,1.0*39
$GPRMC,202513.000,A,3748.7975,N,12217.8600,W,1.92,165.14,130711,,,A*7E
$GPVTG,165.14,T,,M,1.92,N,3.5,K,N*09
$GPGGA,202514.000,3748.7969,N,12217.8604,W,1,04,4.3,10.5,M,-25.1,M,,0000*56
$GPGSA,A,3,08,05,19,07,,,,,,,,,4.8,4.3,2.2*3B
$GPRMC,202514.000,A,3748.7969,N,12217.8604,W,1.85,192.99,130711,,,A*7B
$GPVTG,192.99,T,,M,1.85,N,3.4,K,A*0C
$GPGGA,202515.000,3748.7957,N,12217.8602,W,1,04,4.3,11.3,M,-25.1,M,,0000*5B
$GPGSA,A,3,08,05,19,07,,,,,,,,,4.8,4.3,2.2*3B
$GPGSV,3,1,12,08,65,359,19,28,60,251,22,07,57,066,22,26,26,316,22*7F
$GPGSV,3,2,12,19,26,052,21,01,24,241,,13,24,150,28,05,20,271,26*7E
$GPGSV,3,3,12,10,14,220,24,11,11,106,,17,09,188,18,03,02,036,*7C
$GPRMC,202515.000,A,3748.7957,N,12217.8602,W,2.61,174.68,130711,,,A*7E
$GPGGA,202516.000,3748.7960,N,12217.8600,W,1,04,4.3,10.7,M,-25.1,M,,0000*5B
$GPGSA,A,3,08,05,19,07,,,,,,,,,4.8,4.3,2.2*3B
$GPRMC,202516.000,A,3748.7960,N,12217.8600,W,1.65,167.82,130711,,,A*7A
$GPVTG,167.82,T,,M,1.65,N,3.1,K,A*07
$GPGGA,202517.000,3748.7965,N,12217.8602,W,1,04,4.3,10.6,M,-25.1,M,,0000*5C
$GPGSA,A,3,08,05,19,07,,,,,,,,,4.8,4.3,2.2*3B
$GPRMC,202517.000,A,3748.7965,N,12217.8602,W,1.07,124.84,130711,,,A*79
$GPVTG,124.84,T,,M,1.07,N,2.0,K,A*02
$GPGGA,202518.000,3748.7988,N,12217.8610,W,1,04,4.3,9.8,M,-25.1,M,,0000*65
$GPGSA,A,3,08,05,19,07,,,,,,,,,4.8,4.3,2.2*3B
$GPRMC,202518.000,A,3748.7988,N,12217.8610,W,0.87,347.12,130711,,,A*77
$GPVTG,347.12,T,,M,0.87,N,1.6,K,A*06
$GPGGA,202519.000,3748.7985,N,12217.8613,W,1,04,4.3,10.4,M,-25.1,M,,0000*5E
$GPGSA,A,3,08,05,19,07,,,,,,,,,4.8,4.3,2.2*3B
$GPRMC,202519.000,A,3748.7985,N,12217.8613,W,0.36,339.75,130711,,,A*7A
$GPVTG,339.75,T,,M,0.36,N,0.7,K,A*04
$GPGGA,202520.000,3748.7981,N,12217.8618,W,1,04,4.3,11.4,M,-25.1,M,,0000*5A
$GPGSA,A,3,08,05,19,07,,,,,,,,,4.8,4.3,2.2*3B
$GPGSV,3,1,12,08,65,359,35,28,60,251,33,07,57,066,28,26,26,316,32*7A
$GPGSV,3,2,12,19,26,052,31,01,24,241,,13,24,150,32,05,20,271,41*75
$GPGSV,3,3,12,10,14,220,27,11,11,106,,17,09,188,,03,02,036,*76
$GPRMC,202520.000,A,3748.7981,N,12217.8618,W,0.14,310.69,130711,,,A*79
$GPVTG,310.69,T,,M,0.14,N,0.3,K,A*06
$GPGGA,202521.000,3748.7985,N,12217.8628,W,1,04,4.3,12.6,M,-25.1,M,,0000*5D
$GPGSA,A,3,08,05,19,07,,,,,,,,,4.8,4.3,2.2*3B
$GPRMC,202521.000,A,3748.7985,N,12217.8628,W,0.48,325.55,130711,,,A*7F
$GPVTG,325.55,T,,M,0.48,N,0.9,K,A*0C
$GPGGA,202522.000,3748.7985,N,12217.8627,W,1,04,1.6,12.9,M,-25.1,M,,0000*5E
$GPGSA,A,3,08,05,13,07,,,,,,,,,1.8,1.6,1.0*35
$GPRMC,202522.000,A,3748.7985,N,12217.8627,W,0.55,166.19,130711,,,A*72
$GPVTG,166.19,T,,M,0.55,N,1.0,K,A*05
$GPGGA,202523.000,3748.7992,N,12217.8630,W,1,03,1.9,13.4,M,-25.1,M,,0000*5B
$GPGSA,A,2,08,05,13,,,,,,,,,,2.1,1.9,1.0*36
$GPRMC,202523.000,A,3748.7992,N,12217.8630,W,0.41,190.81,130711,,,A*7E
$GPVTG,190.81,T,,M,0.41,N,0.8,K,N*0E
$GPGGA,202524.000,3748.7994,N,12217.8629,W,1,03,1.9,13.5,M,-25.1,M,,0000*53
$GPGSA,A,2,08,05,13,,,,,,,,,,2.1,1.9,1.0*36
$GPRMC,202524.000,A,3748.7994,N,12217.8629,W,0.60,60.22,130711,,,A*43
$GPVTG,60.22,T,,M,0.60,N,1.1,K,N*32
$GPGGA,202525.000,3748.7994,N,12217.8631,W,1,05,1.3,13.7,M,-25.1,M,,0000*55
$GPGSA,A,3,08,05,07,19,13,,,,,,,,2.5,1.3,2.1*34
$GPGSV,3,1,12,08,65,000,21,28,61,252,23,07,57,067,27,26,27,316,22*7D
$GPGSV,3,2,12,19,25,051,28,01,25,241,,13,23,150,29,05,19,271,24*78
$GPGSV,3,3,12,10,14,220,,11,11,105,,17,10,187,23,03,01,035,*76
$GPRMC,202525.000,A,3748.7994,N,12217.8631,W,0.56,49.26,130711,,,A*41
$GPVTG,49.26,T,,M,0.56,N,1.0,K,A*36
$GPGGA,202526.000,3748.7988,N,12217.8628,W,1,03,8.9,14.1,M,-25.1,M,,0000*57
$GPGSA,A,2,07,19,13,,,,,,,,,,9.0,8.9,1.0*37
$GPRMC,202526.000,A,3748.7988,N,12217.8628,W,0.60,92.61,130711,,,A*47
$GPVTG,92.61,T,,M,0.60,N,1.1,K,N*38
$GPGGA,202527.000,3748.7984,N,12217.8627,W,1,03,8.9,16.2,M,-25.1,M,,0000*54
$GPGSA,A,2,07,19,13,,,,,,,,,,9.0,8.9,1.0*37
$GPRMC,202527.000,A,3748.7984,N,12217.8627,W,0.99,108.17,130711,,,A*70
$GPVTG,108.17,T,,M,0.99,N,1.8,K,A*0B
$GPGGA,202528.000,3748.7989,N,12217.8623,W,1,03,9.0,16.4,M,-25.1,M,,0000*5C
$GPGSA,A,2,07,19,13,,,,,,,,,,9.0,9.0,1.0*3F
$GPRMC,202528.000,A,3748.7989,N,12217.8623,W,1.19,93.91,130711,,,A*42
$GPVTG,93.91,T,,M,1.19,N,2.2,K,A*36
$GPGGA,202529.000,3748.7986,N,12217.8622,W,1,03,9.0,15.5,M,-25.1,M,,0000*51
$GPGSA,A,2,07,19,13,,,,,,,,,,9.0,9.0,1.0*3F
$GPRMC,202529.000,A,3748.7986,N,12217.8622,W,0.51,138.97,130711,,,A*76
$GPVTG,138.97,T,,M,0.51,N,0.9,K,A*04
$GPGGA,202530.000,3748.7982,N,12217.8622,W,1,03,9.0,15.8,M,-25.1,M,,0000*50
$GPGSA,A,2,07,19,13,,,,,,,,,,9.0,9.0,1.0*3F
$GPGSV,3,1,12,08,65,000,,28,61,252,20,07,57,067,23,26,27,316,20*7B
$GPGSV,3,2,12,19,25,051,32,01,25,241,,13,23,150,25,05,19,271,*79
$GPGSV,3,3,12,10,14,220,35,11,11,105,17,17,10,187,32,03,01,035,*76
$GPRMC,202530.000,A,3748.7982,N,12217.8622,W,0.23,109.81,130711,,,A*7A
$GPVTG,109.81,T,,M,0.23,N,0.4,K,A*09
$GPGGA,202531.000,3748.7984,N,12217.8628,W,1,03,9.0,17.2,M,-25.1,M,,0000*55
$GPGSA,A,2,07,19,13,,,,,,,,,,9.0,9.0,1.0*3F
$GPRMC,202531.000,A,3748.7984,N,12217.8628,W,0.47,303.33,130711,,,A*74
$GPVTG,303.33,T,,M,0.47,N,0.9,K,A*07
$GPGGA,202532.000,3748.7987,N,12217.8650,W,1,04,5.3,19.7,M,-25.1,M,,0000*59
$GPGSA,A,3,11,07,19,13,,,,,,,,,7.0,5.3,4.6*3C
$GPRMC,202532.000,A,3748.7987,N,12217.8650,W,1.78,285.91,130711,,,A*71
$GPVTG,285.91,T,,M,1.78,N,3.3,K,A*04
$GPGGA,202533.000,3748.7990,N,12217.8663,W,1,05,1.3,20.5,M,-25.1,M,,0000*53
$GPGSA,A,3,05,11,07,19,13,,,,,,,,2.6,1.3,2.3*3D
$GPRMC,202533.000,A,3748.7990,N,12217.8663,W,1.12,284.38,130711,,,A*78
$GPVTG,284.38,T,,M,1.12,N,2.1,K,A*09
$GPGGA,202534.000,3748.7988,N,12217.8652,W,1,06,1.2,20.4,M,-25.1,M,,0000*5C
$GPGSA,A,3,08,05,11,07,19,13,,,,,,,2.2,1.2,1.8*38
$GPRMC,202534.000,A,3748.7988,N,12217.8652,W,0.35,274.33,130711,,,A*74
$GPVTG,274.33,T,,M,0.35,N,0.6,K,A*0C
$GPGGA,202535.000,3748.7987,N,12217.8640,W,1,06,1.2,21.1,M,-25.1,M,,0000*55
$GPGSA,A,3,08,05,11,07,19,13,,,,,,,2.2,1.2,1.8*38
$GPGSV,3,1,12,08,65,000,20,28,61,252,21,07,57,067,17,26,27,316,29*76
$GPGSV,3,2,12,19,25,051,36,01,25,241,,13,23,150,31,05,19,271,21*7B
$GPGSV,3,3,12,10,14,220,32,11,11,105,18,17,10,187,32,03,01,035,*7E
$GPRMC,202535.000,A,3748.7987,N,12217.8640,W,0.41,272.92,130711,,,A*77
$GPVTG,272.92,T,,M,0.41,N,0.8,K,A*0C
$GPGGA,202536.000,3748.7988,N,12217.8636,W,1,06,1.2,24.2,M,-25.1,M,,0000*5E
$GPGSA,A,3,08,05,11,07,19,13,,,,,,,2.2,1.2,1.8*38
$GPRMC,202536.000,A,3748.7988,N,12217.8636,W,0.50,101.02,130711,,,A*74
$GPVTG,101.02,T,,M,0.50,N,0.9,K,A*03
$GPGGA,202537.000,3748.7988,N,12217.8629,W,1,06,1.2,24.0,M,-25.1,M,,0000*53
$GPGSA,A,3,08,05,11,07,19,13,,,,,,,2.2,1.2,1.8*38
$GPRMC,202537.000,A,3748.7988,N,12217.8629,W,0.19,116.19,130711,,,A*7A
$GPVTG,116.19,T,,M,0.19,N,0.4,K,A*0F
$GPGGA,202538.000,3748.7986,N,12217.8621,W,1,06,1.2,23.5,M,-25.1,M,,0000*58
$GPGSA,A,3,08,05,11,07,19,13,,,,,,,2.2,1.2,1.8*38
$GPRMC,202538.000,A,3748.7986,N,12217.8621,W,0.12,322.94,130711,,,A*78
$GPVTG,322.94,T,,M,0.12,N,0.2,K,A*02
$GPGGA,202539.000,3748.7989,N,12217.8616,W,1,05,1.3,24.0,M,-25.1,M,,0000*52
$GPGSA,A,3,05,11,07,19,13,,,,,,,,2.6,1.3,2.3*3D
$GPRMC,202539.000,A,3748.7989,N,12217.8616,W,0.16,229.58,130711,,,A*7C
$GPVTG,229.58,T,,M,0.16,N,0.3,K,A*0D
$GPGGA,202540.000,3748.7993,N,12217.8615,W,1,05,1.3,23.8,M,-25.1,M,,0000*5B
$GPGSA,A,3,05,11,07,19,13,,,,,,,,2.6,1.3,2.3*3D
$GPGSV,3,1,12,08,65,000,,28,61,252,19,07,57,067,17,26,27,316,21*77
$GPGSV,3,2,12,19,25,051,28,01,25,241,,13,23,150,23,05,19,271,22*74
$GPGSV,3,3,12,10,14,220,32,11,11,105,19,17,10,187,28,03,01,035,*74
$GPRMC,202540.000,A,3748.7993,N,12217.8615,W,0.88,278.36,130711,,,A*71
$GPVTG,278.36,T,,M,0.88,N,1.6,K,A*02
$GPGGA,202541.000,3748.7994,N,12217.8612,W,1,05,1.3,24.5,M,-25.1,M,,0000*50
$GPGSA,A,3,05,11,07,19,13,,,,,,,,2.6,1.3,2.3*3D
$GPRMC,202541.000,A,3748.7994,N,12217.8612,W,0.21,256.02,130711,,,A*78
$GPVTG,256.02,T,,M,0.21,N,0.4,K,A*09
$GPGGA,202542.000,3748.8001,N,12217.8616,W,1,06,1.2,21.8,M,-25.1,M,,0000*57
$GPGSA,A,3,08,05,11,07,19,13,,,,,,,2.2,1.2,1.8*38
$GPRMC,202542.000,A,3748.8001,N,12217.8616,W,0.82,332.18,130711,,,A*74
$GPVTG,332.18,T,,M,0.82,N,1.5,K,A*08
$GPGGA,202543.000,3748.8004,N,12217.8616,W,1,03,3.4,21.4,M,-25.1,M,,0000*5E
$GPGSA,A,2,11,19,13,,,,,,,,,,3.6,3.4,1.0*3A
$GPRMC,202543.000,A,3748.8004,N,12217.8616,W,0.21,311.44,130711,,,A*71
$GPVTG,311.44,T,,M,0.21,N,0.4,K,A*09
$GPGGA,202544.000,3748.8009,N,12217.8614,W,1,04,1.3,21.0,M,-25.1,M,,0000*50
$GPGSA,A,3,05,11,19,13,,,,,,,,,5.9,1.3,5.8*3E
$GPRMC,202544.000,A,3748.8009,N,12217.8614,W,0.38,295.86,130711,,,A*72
$GPVTG,295.86,T,,M,0.38,N,0.7,K,A*01
$GPGGA,202545.000,3748.8015,N,12217.8613,W,1,05,3.1,17.2,M,-25.1,M,,0000*5D
$GPGSA,A,3,08,11,07,19,13,,,,,,,,4.9,3.1,3.8*33
$GPGSV,3,1,12,08,65,000,23,28,61,252,21,07,57,067,18,26,27,316,18*78
$GPGSV,3,2,12,19,25,051,29,01,25,241,,13,23,150,23,05,19,271,*75
$GPGSV,3,3,12,10,14,220,33,11,11,105,17,17,10,187,29,03,01,035,*7A
$GPRMC,202545.000,A,3748.8015,N,12217.8613,W,0.09,128.87,130711,,,A*7F
$GPGGA,202546.000,3748.8016,N,12217.8608,W,1,05,3.1,13.1,M,-25.1,M,,0000*50
$GPGSA,A,3,08,11,07,19,13,,,,,,,,4.9,3.1,3.8*33
$GPRMC,202546.000,A,3748.8016,N,12217.8608,W,0.38,306.42,130711,,,A*70
$GPVTG,306.42,T,,M,0.38,N,0.7,K,A*02
$GPGGA,202547.000,3748.8018,N,12217.8610,W,1,04,5.2,11.1,M,-25.1,M,,0000*50
$GPGSA,A,3,11,07,19,13,,,,,,,,,6.9,5.2,4.5*36
$GPRMC,202547.000,A,3748.8018,N,12217.8610,W,1.02,308.87,130711,,,A*79
$GPVTG,308.87,T,,M,1.02,N,1.9,K,A*02
$GPGGA,202548.000,3748.8026,N,12217.8615,W,1,04,5.2,8.2,M,-25.1,M,,0000*6C
$GPGSA,A,3,11,07,19,13,,,,,,,,,6.9,5.2,4.5*36
$GPRMC,202548.000,A,3748.8026,N,12217.8615,W,1.71,311.01,130711,,,A*7C
$GPVTG,311.01,T,,M,1.71,N,3.2,K,A*09
$GPGGA,202549.000,3748.8036,N,12217.8621,W,1,04,5.2,5.8,M,-25.1,M,,0000*6C
$GPGSA,A,3,11,07,19,13,,,,,,,,,6.9,5.2,4.5*36
$GPRMC,202549.000,A,3748.8036,N,12217.8621,W,2.62,307.06,130711,,,A*7A
$GPVTG,307.06,T,,M,2.62,N,4.9,K,A*04
$GPGGA,202550.000,3748.8045,N,12217.8627,W,1,05,3.1,4.5,M,-25.1,M,,0000*6E
$GPGSA,A,3,08,11,07,19,13,,,,,,,,4.9,3.1,3.8*33
$GPGSV,3,1,12,08,65,000,20,28,61,252,21,07,57,067,20,26,27,316,17*7F
$GPGSV,3,2,12,19,25,051,28,01,25,241,,13,23,150,23,05,19,271,*74
$GPGSV,3,3,12,10,14,220,32,11,12,105,16,17,10,187,29,03,01,035,*79
$GPRMC,202550.000,A,3748.8045,N,12217.8627,W,2.07,300.28,130711,,,A*78
$GPVTG,300.28,T,,M,2.07,N,3.8,K,A*0A
$GPGGA,202551.000,3748.8043,N,12217.8620,W,1,05,3.1,1.6,M,-25.1,M,,0000*68
$GPGSA,A,3,08,11,07,19,13,,,,,,,,4.9,3.1,3.8*33
$GPRMC,202551.000,A,3748.8043,N,12217.8620,W,1.39,296.26,130711,,,A*76
$GPVTG,296.26,T,,M,1.39,N,2.6,K,A*0B
$GPGGA,202552.000,3748.8044,N,12217.8619,W,1,05,3.1,-0.1,M,-25.1,M,,0000*4D
$GPGSA,A,3,08,11,07,19,13,,,,,,,,4.9,3.1,3.8*33
$GPRMC,202552.000,A,3748.8044,N,12217.8619,W,1.23,297.39,130711,,,A*7C
$GPVTG,297.39,T,,M,1.23,N,2.3,K,A*0A
$GPGGA,202553.000,3748.8044,N,12217.8609,W,1,05,3.1,-1.5,M,-25.1,M,,0000*48
$GPGSA,A,3,08,11,07,19,13,,,,,,,,4.9,3.1,3.8*33
$GPRMC,202553.000,A,3748.8044,N,12217.8609,W,1.51,297.56,130711,,,A*70
$GPVTG,297.56,T,,M,1.51,N,2.8,K,A*0D
$GPGGA,202554.000,3748.8050,N,12217.8642,W,1,05,3.1,-4.1,M,-25.1,M,,0000*44
$GPGSA,A,3,08,11,07,19,13,,,,,,,,4.9,3.1,3.8*33
$GPRMC,202554.000,A,3748.8050,N,12217.8642,W,4.06,284.15,130711,,,A*7F
$GPVTG,284.15,T,,M,4.06,N,7.5,K,A*07
$GPGGA,202555.000,3748.8050,N,12217.8669,W,1,04,3.2,-7.4,M,-25.1,M,,0000*48
$GPGSA,A,3,08,07,19,13,,,,,,,,,5.0,3.2,3.8*38
$GPGSV,3,1,12,08,65,000,19,28,61,252,20,07,57,067,21,26,27,316,17*75
$GPGSV,3,2,12,19,25,051,28,01,25,241,,13,23,150,23,05,19,271,*74
$GPGSV,3,3,12,10,14,220,32,11,12,105,,17,10,187,29,03,01,035,*7E
$GPRMC,202555.000,A,3748.8050,N,12217.8669,W,4.00,279.06,130711,,,A*71
$GPVTG,279.06,T,,M,4.00,N,7.4,K,A*00
$GPGGA,202556.000,3748.8054,N,12217.8712,W,1,04,3.2,-10.8,M,-25.1,M,,0000*78
$GPGSA,A,3,08,07,19,13,,,,,,,,,5.0,3.2,3.8*38
$GPRMC,202556.000,A,3748.8054,N,12217.8712,W,4.72,283.65,130711,,,A*7E
$GPVTG,283.65,T,,M,4.72,N,8.7,K,A*09
$GPGGA,202557.000,3748.8053,N,12217.8741,W,1,04,3.2,-13.1,M,-25.1,M,,0000*72
$GPGSA,A,3,08,07,19,13,,,,,,,,,5.0,3.2,3.8*38
$GPRMC,202557.000,A,3748.8053,N,12217.8741,W,4.52,274.77,130711,,,A*77
$GPVTG,274.77,T,,M,4.52,N,8.4,K,A*03
$GPGGA,202558.000,3748.8054,N,12217.8763,W,1,04,3.2,-14.7,M,-25.1,M,,0000*7B
$GPGSA,A,3,08,07,19,13,,,,,,,,,5.0,3.2,3.8*38
$GPRMC,202558.000,A,3748.8054,N,12217.8763,W,4.25,280.76,130711,,,A*75
$GPVTG,280.76,T,,M,4.25,N,7.9,K,A*0B
$GPGGA,202559.000,3748.8053,N,12217.8777,W,1,03,2.3,-15.1,M,-25.1,M,,0000*78
$GPGSA,A,2,08,19,13,,,,,,,,,,2.5,2.3,1.0*36
$GPRMC,202559.000,A,3748.8053,N,12217.8777,W,3.48,281.77,130711,,,A*7A
$GPVTG,281.77,T,,M,3.48,N,6.5,K,N*05
$GPGGA,202600.000,3748.8054,N,12217.8791,W,1,03,2.3,-15.2,M,-25.1,M,,0000*7B
$GPGSA,A,2,08,19,13,,,,,,,,,,2.5,2.3,1.0*36
$GPGSV,3,1,12,08,65,000,18,28,61,252,19,07,57,067,,26,27,316,18*72
$GPGSV,3,2,12,19,25,051,28,01,25,241,,13,23,150,23,05,19,271,*74
$GPGSV,3,3,12,10,14,220,33,11,12,105,,17,10,187,28,03,01,035,*7E
$GPRMC,202600.000,A,3748.8054,N,12217.8791,W,3.14,291.08,130711,,,A*7A
$GPGGA,202601.000,3748.8055,N,12217.8808,W,1,04,3.2,-14.7,M,-25.1,M,,0000*77
$GPGSA,A,3,08,07,19,13,,,,,,,,,5.0,3.2,3.8*38
$GPRMC,202601.000,A,3748.8055,N,12217.8808,W,3.67,284.40,130711,,,A*79
$GPVTG,284.40,T,,M,3.67,N,6.8,K,A*0B
$GPGGA,202602.000,3748.8057,N,12217.8832,W,1,04,3.2,-14.3,M,-25.1,M,,0000*7B
$GPGSA,A,3,08,07,19,13,,,,,,,,,5.0,3.2,3.8*38
$GPRMC,202602.000,A,3748.8057,N,12217.8832,W,4.24,282.48,130711,,,A*7F
$GPVTG,282.48,T,,M,4.24,N,7.8,K,A*04
$GPGGA,202603.000,3748.8051,N,12217.8791,W,1,05,1.3,-7.2,M,-25.1,M,,0000*4B
$GPGSA,A,3,08,05,07,19,13,,,,,,,,2.5,1.3,2.1*34
$GPRMC,202603.000,A,3748.8051,N,12217.8791,W,2.39,280.95,130711,,,A*76
$GPVTG,280.95,T,,M,2.39,N,4.4,K,A*03
$GPGGA,202604.000,3748.8046,N,12217.8779,W,1,05,1.3,-4.7,M,-25.1,M,,0000*4A
$GPGSA,A,3,08,05,07,19,13,,,,,,,,2.5,1.3,2.1*34
$GPRMC,202604.000,A,3748.8046,N,12217.8779,W,3.05,275.30,130711,,,A*7A
$GPVTG,275.30,T,,M,3.05,N,5.7,K,A*0A
$GPGGA,202605.000,3748.8043,N,12217.8776,W,1,05,1.3,-4.1,M,-25.1,M,,0000*47
$GPGSA,A,3,08,05,07,19,13,,,,,,,,2.5,1.3,2.1*34
$GPGSV,3,1,12,08,65,000,14,28,61,252,17,07,57,067,23,26,27,316,19*70
$GPGSV,3,2,12,19,25,051,28,01,25,241,,13,23,150,23,05,19,271,13*76
$GPGSV,3,3,12,10,14,220,32,11,12,105,,17,10,187,28,03,01,035,*7F
$GPRMC,202605.000,A,3748.8043,N,12217.8776,W,3.78,274.93,130711,,,A*73
$GPVTG,274.93,T,,M,3.78,N,7.0,K,A*0D
$GPGGA,202606.000,3748.8043,N,12217.8783,W,1,05,1.3,-2.1,M,-25.1,M,,0000*48
$GPGSA,A,3,08,05,07,19,13,,,,,,,,2.5,1.3,2.1*34
$GPRMC,202606.000,A,3748.8043,N,12217.8783,W,4.42,280.28,130711,,,A*7F
$GPVTG,280.28,T,,M,4.42,N,8.2,K,A*05
$GPGGA,202607.000,3748.8045,N,12217.8804,W,1,03,9.3,-3.5,M,-25.1,M,,0000*44
$GPGSA,A,2,07,19,13,,,,,,,,,,9.4,9.3,1.0*38
$GPRMC,202607.000,A,3748.8045,N,12217.8804,W,4.81,284.27,130711,,,A*7C
$GPVTG,284.27,T,,M,4.81,N,8.9,K,A*0A
$GPGGA,202608.000,3748.8049,N,12217.8822,W,1,03,9.3,-5.0,M,-25.1,M,,0000*40
$GPGSA,A,2,07,19,13,,,,,,,,,,9.4,9.3,1.0*38
$GPRMC,202608.000,A,3748.8049,N,12217.8822,W,4.27,290.21,130711,,,A*74
$GPVTG,290.21,T,,M,4.27,N,7.9,K,A*0A
$GPGGA,202609.000,3748.8051,N,12217.8844,W,1,04,3.2,-4.3,M,-25.1,M,,0000*46
$GPGSA,A,3,08,07,19,13,,,,,,,,,5.0,3.2,3.8*38
$GPRMC,202609.000,A,3748.8051,N,12217.8844,W,4.05,281.96,130711,,,A*70
$GPVTG,281.96,T,,M,4.05,N,7.5,K,A*0A
$GPGGA,202609.000,3748.8053,N,12217.8867,W,1,04,3.2,-5.0,M,-25.1,M,,0000*47
$GPGSA,A,3,08,07,19,13,,,,,,,,,5.0,3.2,3.8*38
$GPGSV,3,1,12,08,65,000,17,28,61,252,17,07,57,067,23,26,27,316,20*79
$GPGSV,3,2,12,19,25,051,28,01,25,241,,13,23,150,23,05,19,271,*74
$GPGSV,3,3,12,10,14,220,33,11,12,105,,17,10,187,28,03,01,035,*7E
$GPRMC,202609.000,A,3748.8053,N,12217.8867,W,4.63,280.68,130711,,,A*73
$GPVTG,280.68,T,,M,4.63,N,8.6,K,A*06
$GPGGA,202610.000,3748.8050,N,12217.8873,W,1,04,3.2,-4.8,M,-25.1,M,,0000*40
$GPGSA,A,3,08,07,19,13,,,,,,,,,5.0,3.2,3.8*38
$GPRMC,202610.000,A,3748.8050,N,12217.8873,W,3.78,280.78,130711,,,A*71
$GPVTG,280.78,T,,M,3.78,N,7.0,K,A*03
$GPGGA,202611.000,3748.8050,N,12217.8887,W,1,03,9.4,-6.0,M,-25.1,M,,0000*4B
$GPGSA,A,2,07,19,13,,,,,,,,,,9.4,9.4,1.0*3F
$GPRMC,202611.000,A,3748.8050,N,12217.8887,W,3.11,289.48,130711,,,A*7E
$GPVTG,289.48,T,,M,3.11,N,5.8,K,A*0C
$GPGGA,202612.000,3748.8049,N,12217.8877,W,1,04,3.2,-7.8,M,-25.1,M,,0000*4D
$GPGSA,A,3,08,07,19,13,,,,,,,,,5.0,3.2,3.8*38
$GPRMC,202612.000,A,3748.8049,N,12217.8877,W,0.91,273.59,130711,,,A*74
$GPVTG,273.59,T,,M,0.91,N,1.7,K,A*09
$GPGGA,202613.000,3748.8042,N,12217.8858,W,1,04,3.2,-7.4,M,-25.1,M,,0000*46
$GPGSA,A,3,08,07,19,13,,,,,,,,,5.0,3.2,3.8*38
$GPRMC,202613.000,A,3748.8042,N,12217.8858,W,0.81,137.38,130711,,,A*76
$GPVTG,137.38,T,,M,0.81,N,1.5,K,A*0E
$GPGGA,202614.000,3748.8040,N,12217.8857,W,1,03,9.4,-6.9,M,-25.1,M,,0000*4B
$GPGSA,A,2,07,19,13,,,,,,,,,,9.5,9.4,1.0*3E
$GPGSV,3,1,12,08,65,000,19,28,61,252,17,07,57,067,23,26,27,316,20*77
$GPGSV,3,2,12,19,25,051,29,01,25,241,,13,23,150,22,05,19,271,*74
$GPGSV,3,3,12,10,14,220,32,11,12,105,,17,10,187,28,03,01,035,*7F
$GPRMC,202614.000,A,3748.8040,N,12217.8857,W,0.04,84.74,130711,,,A*40
$GPGGA,202615.000,3748.8039,N,12217.8841,W,1,04,3.2,-6.1,M,-25.1,M,,0000*40
$GPGSA,A,3,08,07,19,13,,,,,,,,,5.0,3.2,3.8*38
$GPRMC,202615.000,A,3748.8039,N,12217.8841,W,0.54,4.28,130711,,,A*7C
$GPVTG,4.28,T,,M,0.54,N,1.0,K,A*03
$GPGGA,202616.000,3748.8039,N,12217.8832,W,1,04,3.2,-6.3,M,-25.1,M,,0000*45
$GPGSA,A,3,08,07,19,13,,,,,,,,,5.0,3.2,3.8*38
$GPRMC,202616.000,A,3748.8039,N,12217.8832,W,0.37,354.40,130711,,,A*76
$GPVTG,354.40,T,,M,0.37,N,0.7,K,A*08
$GPGGA,202617.000,3748.8039,N,12217.8841,W,1,05,3.1,-8.7,M,-25.1,M,,0000*48
$GPGSA,A,3,08,11,07,19,13,,,,,,,,4.9,3.1,3.8*33
$GPRMC,202617.000,A,3748.8039,N,12217.8841,W,0.96,302.69,130711,,,A*70
$GPVTG,302.69,T,,M,0.96,N,1.8,K,A*05
$GPGGA,202618.000,3748.8038,N,12217.8831,W,1,03,2.3,-9.2,M,-25.1,M,,0000*40
$GPGSA,A,2,08,19,13,,,,,,,,,,2.5,2.3,1.0*36
$GPRMC,202618.000,A,3748.8038,N,12217.8831,W,0.72,300.99,130711,,,A*7E
$GPVTG,300.99,T,,M,0.72,N,1.3,K,A*09
$GPGGA,202619.000,3748.8034,N,12217.8805,W,1,04,1.9,-10.3,M,-25.1,M,,0000*7D
$GPGSA,A,3,08,11,19,13,,,,,,,,,2.1,1.9,1.0*3A
$GPGSV,3,1,12,08,65,001,24,28,61,252,19,07,57,067,,26,27,316,21*76
$GPGSV,3,2,12,19,25,051,28,01,25,242,,13,23,150,21,05,19,271,*75
$GPGSV,3,3,12,10,14,220,32,11,12,105,17,17,10,187,28,03,01,035,*79
$GPRMC,202619.000,A,3748.8034,N,12217.8805,W,0.21,73.47,130711,,,A*46
$GPVTG,73.47,T,,M,0.21,N,0.4,K,A*3D
$GPGGA,202620.000,3748.8028,N,12217.8793,W,1,05,3.1,-12.2,M,-25.1,M,,0000*72
$GPGSA,A,3,08,11,07,19,13,,,,,,,,4.9,3.1,3.8*33
$GPRMC,202620.000,A,3748.8028,N,12217.8793,W,0.46,312.63,130711,,,A*72
$GPVTG,312.63,T,,M,0.46,N,0.9,K,A*03
$GPGGA,202621.000,3748.8026,N,12217.8777,W,1,06,1.8,-12.2,M,-25.1,M,,0000*7F
$GPGSA,A,3,08,11,07,19,13,17,,,,,,,3.0,1.8,2.4*3D
$GPRMC,202621.000,A,3748.8026,N,12217.8777,W,0.93,322.78,130711,,,A*76
$GPVTG,322.78,T,,M,0.93,N,1.7,K,A*0D
$GPGGA,202622.000,3748.8023,N,12217.8761,W,1,06,1.8,-11.5,M,-25.1,M,,0000*7A
$GPGSA,A,3,08,11,07,19,13,17,,,,,,,3.0,1.8,2.4*3D
$GPRMC,202622.000,A,3748.8023,N,12217.8761,W,0.71,339.47,130711,,,A*7D
$GPVTG,339.47,T,,M,0.71,N,1.3,K,A*03
$GPGGA,202623.000,3748.8019,N,12217.8737,W,1,05,2.3,-10.0,M,-25.1,M,,0000*7E
$GPGSA,A,3,08,11,07,19,17,,,,,,,,3.6,2.3,2.8*3D
$GPRMC,202623.000,A,3748.8019,N,12217.8737,W,0.17,26.69,130711,,,A*47
$GPVTG,26.69,T,,M,0.17,N,0.3,K,A*33
$GPGGA,202624.000,3748.8018,N,12217.8723,W,1,04,3.1,-8.7,M,-25.1,M,,0000*41
$GPGSA,A,3,08,07,19,17,,,,,,,,,4.2,3.1,2.8*3D
$GPGSV,3,1,12,08,65,001,24,28,61,253,21,07,57,067,26,26,27,316,*7B
$GPGSV,3,2,12,19,25,051,29,01,25,242,,13,23,150,,05,19,271,18*7E
$GPGSV,3,3,12,10,14,220,33,11,12,105,,17,10,187,28,03,01,035,*7E
$GPRMC,202624.000,A,3748.8018,N,12217.8723,W,0.65,318.05,130711,,,A*75
$GPVTG,318.05,T,,M,0.65,N,1.2,K,A*02
$GPGGA,202625.000,3748.8018,N,12217.8713,W,1,04,3.1,-8.6,M,-25.1,M,,0000*42
$GPGSA,A,3,08,07,19,17,,,,,,,,,4.2,3.1,2.8*3D
$GPRMC,202625.000,A,3748.8018,N,12217.8713,W,0.62,317.81,130711,,,A*73
$GPVTG,317.81,T,,M,0.62,N,1.2,K,A*06
$GPGGA,202626.000,3748.8018,N,12217.8698,W,1,05,1.4,-7.3,M,-25.1,M,,0000*4F
$GPGSA,A,3,08,05,07,19,17,,,,,,,,2.5,1.4,2.1*37
$GPRMC,202626.000,A,3748.8018,N,12217.8698,W,0.34,20.35,130711,,,A*49
$GPVTG,20.35,T,,M,0.34,N,0.6,K,A*38
$GPGGA,202627.000,3748.8015,N,12217.8686,W,1,04,1.5,-5.4,M,-25.1,M,,0000*49
$GPGSA,A,3,05,07,19,17,,,,,,,,,3.1,1.5,2.8*32
$GPRMC,202627.000,A,3748.8015,N,12217.8686,W,0.21,57.71,130711,,,A*4E
$GPVTG,57.71,T,,M,0.21,N,0.4,K,A*3E
$GPGGA,202628.000,3748.8019,N,12217.8689,W,1,04,2.6,-6.6,M,-25.1,M,,0000*44
$GPGSA,A,3,11,07,19,17,,,,,,,,,3.8,2.6,2.8*3E
$GPRMC,202628.000,A,3748.8019,N,12217.8689,W,0.53,320.15,130711,,,A*76
$GPVTG,320.15,T,,M,0.53,N,1.0,K,A*0F
$GPGGA,202629.000,3748.8021,N,12217.8690,W,1,05,2.3,-7.0,M,-25.1,M,,0000*45
$GPGSA,A,3,11,08,07,19,17,,,,,,,,3.6,2.3,2.8*3D
$GPGSV,3,1,12,08,65,001,24,28,61,253,22,07,57,067,26,26,27,316,22*78
$GPGSV,3,2,12,19,25,051,29,01,25,242,,13,23,150,,05,19,271,*77
$GPGSV,3,3,12,10,14,220,33,11,12,105,22,17,10,187,28,03,01,035,*7E
$GPRMC,202629.000,A,3748.8021,N,12217.8690,W,0.75,309.66,130711,,,A*7F
$GPGGA,202630.000,3748.8025,N,12217.8693,W,1,05,2.3,-8.0,M,-25.1,M,,0000*45
$GPGSA,A,3,11,08,07,19,17,,,,,,,,3.6,2.3,2.8*3D
$GPRMC,202630.000,A,3748.8025,N,12217.8693,W,0.95,312.42,130711,,,A*72
$GPVTG,312.42,T,,M,0.95,N,1.8,K,A*0E
$GPGGA,202631.000,3748.8032,N,12217.8701,W,1,07,1.1,-9.8,M,-25.1,M,,0000*42
$GPGSA,A,3,13,11,08,07,19,05,17,,,,,,2.1,1.1,1.8*3E
$GPRMC,202631.000,A,3748.8032,N,12217.8701,W,1.64,311.92,130711,,,A*7E
$GPVTG,311.92,T,,M,1.64,N,3.0,K,A*05
$GPGGA,202632.000,3748.8035,N,12217.8701,W,1,07,1.1,-10.2,M,-25.1,M,,0000*74
$GPGSA,A,3,13,11,08,07,19,05,17,,,,,,2.1,1.1,1.8*3E
$GPRMC,202632.000,A,3748.8035,N,12217.8701,W,1.72,310.49,130711,,,A*7A
$GPVTG,310.49,T,,M,1.72,N,3.2,K,A*07
$GPGGA,202633.000,3748.8037,N,12217.8697,W,1,07,1.1,-10.4,M,-25.1,M,,0000*7F
$GPGSA,A,3,13,11,08,07,19,05,17,,,,,,2.1,1.1,1.8*3E
$GPRMC,202633.000,A,3748.8037,N,12217.8697,W,1.59,310.07,130711,,,A*74
$GPVTG,310.07,T,,M,1.59,N,2.9,K,A*0E
$GPGGA,202634.000,3748.8042,N,12217.8701,W,1,05,2.3,-11.9,M,-25.1,M,,0000*7B
$GPGSA,A,3,11,08,07,19,17,,,,,,,,3.6,2.3,2.8*3D
$GPGSV,3,1,12,08,65,001,25,28,61,253,23,07,57,067,25,26,27,316,*7B
$GPGSV,3,2,12,19,25,051,29,01,25,242,,13,23,150,15,05,19,271,18*7A
$GPGSV,3,3,12,10,14,220,33,11,12,105,23,17,10,187,29,03,01,035,*7E
$GPRMC,202634.000,A,3748.8042,N,12217.8701,W,1.31,314.39,130711,,,A*78
$GPVTG,314.39,T,,M,1.31,N,2.4,K,A*04
$GPGGA,202635.000,3748.8045,N,12217.8705,W,1,05,2.0,-12.3,M,-25.1,M,,0000*73
$GPGSA,A,3,13,11,08,19,17,,,,,,,,3.6,2.0,3.0*32
$GPRMC,202635.000,A,3748.8045,N,12217.8705,W,1.00,323.88,130711,,,A*76
$GPVTG,323.88,T,,M,1.00,N,1.9,K,A*06
$GPGGA,202636.000,3748.8048,N,12217.8705,W,1,06,1.1,-12.0,M,-25.1,M,,0000*7F
$GPGSA,A,3,13,11,08,19,05,17,,,,,,,2.4,1.1,2.2*35
$GPRMC,202636.000,A,3748.8048,N,12217.8705,W,0.77,331.31,130711,,,A*78
$GPVTG,331.31,T,,M,0.77,N,1.4,K,A*0B
$GPGGA,202637.000,3748.8052,N,12217.8709,W,1,07,1.1,-12.5,M,-25.1,M,,0000*7D
$GPGSA,A,3,13,07,11,08,19,05,17,,,,,,2.1,1.1,1.8*3E
$GPRMC,202637.000,A,3748.8052,N,12217.8709,W,1.09,322.75,130711,,,A*74
$GPVTG,322.75,T,,M,1.09,N,2.0,K,A*06
$GPGGA,202638.000,3748.8057,N,12217.8712,W,1,07,1.1,-14.8,M,-25.1,M,,0000*76
$GPGSA,A,3,13,07,11,08,19,05,17,,,,,,2.1,1.1,1.8*3E
$GPRMC,202638.000,A,3748.8057,N,12217.8712,W,1.01,327.54,130711,,,A*7A
$GPVTG,327.54,T,,M,1.01,N,1.9,K,A*02
$GPGGA,202639.000,3748.8060,N,12217.8713,W,1,05,2.1,-15.6,M,-25.1,M,,0000*7C
$GPGSA,A,3,13,07,11,19,17,,,,,,,,3.2,2.1,2.4*3D
$GPGSV,3,1,12,08,65,001,,28,61,253,23,07,57,067,24,26,27,316,*7D
$GPGSV,3,2,12,19,25,051,29,01,25,242,,13,23,150,13,05,19,271,16*72
$GPGSV,3,3,12,10,14,220,33,11,12,105,23,17,10,187,30,03,01,035,*76
$GPRMC,202639.000,A,3748.8060,N,12217.8713,W,0.79,339.92,130711,,,A*75
$GPVTG,339.92,T,,M,0.79,N,1.5,K,A*05
$GPGGA,202640.000,3748.8058,N,12217.8705,W,1,05,1.3,-15.4,M,-25.1,M,,0000*7D
$GPGSA,A,3,07,11,19,05,17,,,,,,,,2.7,1.3,2.4*3F
$GPRMC,202640.000,A,3748.8058,N,12217.8705,W,0.49,346.14,130711,,,A*72
$GPVTG,346.14,T,,M,0.49,N,0.9,K,A*0D
$GPGGA,202641.000,3748.8060,N,12217.8707,W,1,05,2.3,-16.4,M,-25.1,M,,0000*75
$GPGSA,A,3,08,07,11,19,17,,,,,,,,3.6,2.3,2.8*3D
$GPRMC,202641.000,A,3748.8060,N,12217.8707,W,0.67,315.14,130711,,,A*70
$GPVTG,315.14,T,,M,0.67,N,1.2,K,A*0D
$GPGGA,202642.000,3748.8064,N,12217.8712,W,1,05,2.3,-17.6,M,-25.1,M,,0000*75
$GPGSA,A,3,08,07,11,19,17,,,,,,,,3.6,2.3,2.8*3D
$GPRMC,202642.000,A,3748.8064,N,12217.8712,W,1.05,313.14,130711,,,A*70
$GPVTG,313.14,T,,M,1.05,N,2.0,K,A*0F
$GPGGA,202643.000,3748.8067,N,12217.8718,W,1,04,3.2,-18.0,M,-25.1,M,,0000*75
$GPGSA,A,3,08,11,19,17,,,,,,,,,5.7,3.2,4.7*34
$GPRMC,202643.000,A,3748.8067,N,12217.8718,W,1.61,307.88,130711,,,A*7A
$GPVTG,307.88,T,,M,1.61,N,3.0,K,A*0C
$GPGGA,202644.000,3748.8069,N,12217.8725,W,1,04,3.2,-17.5,M,-25.1,M,,0000*78
$GPGSA,A,3,08,11,19,17,,,,,,,,,5.7,3.2,4.7*34
$GPGSV,3,1,12,08,65,001,24,28,61,253,23,07,57,067,,26,27,316,*7D
$GPGSV,3,2,12,19,25,051,29,01,25,242,,13,23,150,,05,19,271,*77
$GPGSV,3,3,12,10,14,220,33,11,12,105,23,17,10,187,30,03,01,035,*76
$GPRMC,202644.000,A,3748.8069,N,12217.8725,W,1.18,312.51,130711,,,A*73
$GPGGA,202645.000,3748.8072,N,12217.8733,W,1,05,2.3,-17.4,M,-25.1,M,,0000*74
$GPGSA,A,3,08,11,07,19,17,,,,,,,,3.6,2.3,2.8*3D
$GPRMC,202645.000,A,3748.8072,N,12217.8733,W,1.17,315.76,130711,,,A*72
$GPVTG,315.76,T,,M,1.17,N,2.2,K,A*0C
$GPGGA,202646.000,3748.8073,N,12217.8741,W,1,05,2.3,-16.4,M,-25.1,M,,0000*72
$GPGSA,A,3,08,11,07,19,17,,,,,,,,3.6,2.3,2.8*3D
$GPRMC,202646.000,A,3748.8073,N,12217.8741,W,0.96,314.47,130711,,,A*7E
$GPVTG,314.47,T,,M,0.96,N,1.8,K,A*0E
$GPGGA,202647.000,3748.8080,N,12217.8753,W,1,05,2.3,-17.8,M,-25.1,M,,0000*71
$GPGSA,A,3,08,11,07,19,17,,,,,,,,3.6,2.3,2.8*3D
$GPRMC,202647.000,A,3748.8080,N,12217.8753,W,2.13,307.27,130711,,,A*7B
$GPVTG,307.27,T,,M,2.13,N,4.0,K,A*08
$GPGGA,202648.000,3748.8086,N,12217.8765,W,1,05,2.3,-18.6,M,-25.1,M,,0000*7C
$GPGSA,A,3,08,11,07,19,17,,,,,,,,3.6,2.3,2.8*3D
$GPRMC,202648.000,A,3748.8086,N,12217.8765,W,2.28,306.65,130711,,,A*78
$GPVTG,306.65,T,,M,2.28,N,4.2,K,A*05
$GPGGA,202649.000,3748.8088,N,12217.8766,W,1,05,2.3,-20.1,M,-25.1,M,,0000*7C
$GPGSA,A,3,08,11,07,19,17,,,,,,,,3.6,2.3,2.8*3D
$GPGSV,3,1,12,08,65,001,23,28,61,253,23,07,56,068,21,26,27,316,*77
$GPGSV,3,2,12,01,25,242,,19,25,051,29,13,23,150,,05,19,270,*76
$GPGSV,3,3,12,10,13,220,33,11,12,105,23,17,10,187,31,03,01,035,*70
$GPRMC,202649.000,A,3748.8088,N,12217.8766,W,0.81,320.71,130711,,,A*74
$GPVTG,320.71,T,,M,0.81,N,1.5,K,A*07
$GPGGA,202650.000,3748.8097,N,12217.8784,W,1,05,2.3,-21.6,M,-25.1,M,,0000*70
$GPGSA,A,3,08,11,07,19,17,,,,,,,,3.6,2.3,2.8*3D
$GPRMC,202650.000,A,3748.8097,N,12217.8784,W,2.08,309.16,130711,,,A*77
$GPVTG,309.16,T,,M,2.08,N,3.9,K,A*00
$GPGGA,202651.000,3748.8102,N,12217.8793,W,1,05,2.3,-23.1,M,-25.1,M,,0000*7F
$GPGSA,A,3,08,11,07,19,17,,,,,,,,3.6,2.3,2.8*3D
$GPRMC,202651.000,A,3748.8102,N,12217.8793,W,1.94,310.58,130711,,,A*79
$GPVTG,310.58,T,,M,1.94,N,3.6,K,A*0B
$GPGGA,202652.000,3748.8101,N,12217.8792,W,1,05,2.3,-22.8,M,-25.1,M,,0000*76
$GPGSA,A,3,08,11,07,19,17,,,,,,,,3.6,2.3,2.8*3D
$GPRMC,202652.000,A,3748.8101,N,12217.8792,W,1.78,306.21,130711,,,A*73
$GPVTG,306.21,T,,M,1.78,N,3.3,K,A*05
$GPGGA,202653.000,3748.8094,N,12217.8778,W,1,05,2.3,-21.7,M,-25.1,M,,0000*72
$GPGSA,A,3,08,11,07,19,17,,,,,,,,3.6,2.3,2.8*3D
$GPRMC,202653.000,A,3748.8094,N,12217.8778,W,0.84,323.30,130711,,,A*7E
$GPVTG,323.30,T,,M,0.84,N,1.6,K,A*07
$GPGGA,202654.000,3748.8079,N,12217.8752,W,1,05,2.3,-18.4,M,-25.1,M,,0000*77
$GPGSA,A,3,08,11,07,19,17,,,,,,,,3.6,2.3,2.8*3D
$GPGSV,3,1,12,08,65,001,27,28,61,253,22,07,56,068,23,26,27,316,*70
$GPGSV,3,2,12,01,25,242,,19,25,051,28,13,23,150,,05,19,270,*77
$GPGSV,3,3,12,10,13,220,33,11,12,105,17,17,10,187,31,03,01,035,*77
$GPRMC,202654.000,A,3748.8079,N,12217.8752,W,0.97,105.39,130711,,,A*7F
$GPVTG,105.39,T,,M,0.97,N,1.8,K,A*04
$GPGGA,202655.000,3748.8079,N,12217.8749,W,1,05,2.3,-19.5,M,-25.1,M,,0000*7C
$GPGSA,A,3,08,11,07,19,17,,,,,,,,3.6,2.3,2.8*3D
$GPRMC,202655.000,A,3748.8079,N,12217.8749,W,0.85,107.02,130711,,,A*7D
$GPVTG,107.02,T,,M,0.85,N,1.6,K,A*03
$GPGGA,202656.000,3748.8075,N,12217.8739,W,1,05,2.3,-19.4,M,-25.1,M,,0000*75
$GPGSA,A,3,08,11,07,19,17,,,,,,,,3.6,2.3,2.8*3D
$GPRMC,202656.000,A,3748.8075,N,12217.8739,W,0.94,107.06,130711,,,A*71
$GPVTG,107.06,T,,M,0.94,N,1.7,K,A*06
$GPGGA,202657.000,3748.8074,N,12217.8731,W,1,05,2.3,-20.4,M,-25.1,M,,0000*77
$GPGSA,A,3,08,11,07,19,17,,,,,,,,3.6,2.3,2.8*3D
$GPRMC,202657.000,A,3748.8074,N,12217.8731,W,1.35,115.58,130711,,,A*7B
$GPVTG,115.58,T,,M,1.35,N,2.5,K,A*05
$GPGGA,202658.000,3748.8072,N,12217.8728,W,1,06,1.8,-20.7,M,-25.1,M,,0000*7E
$GPGSA,A,3,08,13,11,07,19,17,,,,,,,3.0,1.8,2.4*3D
$GPRMC,202658.000,A,3748.8072,N,12217.8728,W,0.52,89.29,130711,,,A*48
$GPVTG,89.29,T,,M,0.52,N,1.0,K,A*31
$GPGGA,202659.000,3748.8061,N,12217.8713,W,1,05,2.1,-19.8,M,-25.1,M,,0000*79
$GPGSA,A,3,08,13,07,19,17,,,,,,,,3.2,2.1,2.4*35
$GPGSV,3,1,12,08,65,001,30,28,61,253,,07,56,068,27,26,27,316,*72
$GPGSV,3,2,12,01,25,242,,19,25,051,29,13,23,150,30,05,19,270,*75
$GPGSV,3,3,12,10,13,220,33,11,12,105,18,17,10,187,31,03,01,035,*78
$GPRMC,202659.000,A,3748.8061,N,12217.8713,W,0.45,98.13,130711,,,A*4C
$GPGGA,202700.000,3748.8053,N,12217.8701,W,1,05,2.1,-19.1,M,-25.1,M,,0000*7F
$GPGSA,A,3,08,13,07,19,17,,,,,,,,3.2,2.1,2.4*35
$GPRMC,202700.000,A,3748.8053,N,12217.8701,W,0.43,100.23,130711,,,A*76
$GPVTG,100.23,T,,M,0.43,N,0.8,K,A*02
$GPGGA,202701.000,3748.8044,N,12217.8686,W,1,07,1.1,-17.1,M,-25.1,M,,0000*79
$GPGSA,A,3,08,13,11,05,07,19,17,,,,,,2.1,1.1,1.8*3E
$GPRMC,202701.000,A,3748.8044,N,12217.8686,W,0.32,112.29,130711,,,A*70
$GPVTG,112.29,T,,M,0.32,N,0.6,K,A*03
$GPGGA,202702.000,3748.8025,N,12217.8649,W,1,06,1.2,-11.3,M,-25.1,M,,0000*78
$GPGSA,A,3,08,13,05,07,19,17,,,,,,,2.4,1.2,2.1*32
$GPRMC,202702.000,A,3748.8025,N,12217.8649,W,0.27,147.55,130711,,,A*78
$GPVTG,147.55,T,,M,0.27,N,0.5,K,A*0F
$GPGGA,202703.000,3748.8019,N,12217.8639,W,1,07,1.1,-10.0,M,-25.1,M,,0000*71
$GPGSA,A,3,08,13,11,05,07,19,17,,,,,,2.1,1.1,1.8*3E
$GPRMC,202703.000,A,3748.8019,N,12217.8639,W,0.89,116.37,130711,,,A*75
$GPVTG,116.37,T,,M,0.89,N,1.6,K,A*09
$GPGGA,202704.000,3748.8013,N,12217.8627,W,1,06,1.2,-8.4,M,-25.1,M,,0000*4C
$GPGSA,A,3,08,13,05,07,19,17,,,,,,,2.4,1.2,2.1*32
$GPGSV,3,1,12,08,65,001,31,28,61,253,,07,56,068,27,26,27,316,*73
$GPGSV,3,2,12,01,25,242,,19,25,051,30,13,23,150,29,05,19,270,21*76
$GPGSV,3,3,12,10,13,220,33,11,12,105,13,17,10,187,31,03,01,035,*73
$GPRMC,202704.000,A,3748.8013,N,12217.8627,W,0.45,131.80,130711,,,A*7E
$GPVTG,131.80,T,,M,0.45,N,0.8,K,A*0F
$GPGGA,202705.000,3748.8006,N,12217.8617,W,1,06,1.2,-7.0,M,-25.1,M,,0000*41
$GPGSA,A,3,08,13,05,07,19,17,,,,,,,2.4,1.2,2.1*32
$GPRMC,202705.000,A,3748.8006,N,12217.8617,W,0.37,146.97,130711,,,A*7B
$GPVTG,146.97,T,,M,0.37,N,0.7,K,A*03
$GPGGA,202706.000,3748.7998,N,12217.8604,W,1,06,1.2,-5.0,M,-25.1,M,,0000*43
$GPGSA,A,3,08,13,05,07,19,17,,,,,,,2.4,1.2,2.1*32
$GPRMC,202706.000,A,3748.7998,N,12217.8604,W,0.36,147.16,130711,,,A*72
$GPVTG,147.16,T,,M,0.36,N,0.7,K,A*0A
$GPGGA,202707.000,3748.7994,N,12217.8596,W,1,05,2.1,-3.0,M,-25.1,M,,0000*43
$GPGSA,A,3,08,13,07,19,17,,,,,,,,3.2,2.1,2.4*35
$GPRMC,202707.000,A,3748.7994,N,12217.8596,W,0.65,118.69,130711,,,A*73
$GPVTG,118.69,T,,M,0.65,N,1.2,K,A*0A
$GPGGA,202708.000,3748.7991,N,12217.8588,W,1,07,1.1,-1.6,M,-25.1,M,,0000*43
$GPGSA,A,3,08,13,11,05,07,19,17,,,,,,2.1,1.1,1.8*3E
$GPRMC,202708.000,A,3748.7991,N,12217.8588,W,0.64,114.48,130711,,,A*78
$GPVTG,114.48,T,,M,0.64,N,1.2,K,A*04
$GPGGA,202709.000,3748.7989,N,12217.8584,W,1,05,2.1,-0.8,M,-25.1,M,,0000*49
$GPGSA,A,3,08,13,07,19,17,,,,,,,,3.2,2.1,2.4*35
$GPGSV,3,1,12,08,65,001,31,28,61,253,,07,56,068,19,26,27,316,*7E
$GPGSV,3,2,12,01,25,242,,19,25,051,30,13,23,150,28,05,19,270,18*7D
$GPGSV,3,3,12,10,13,220,33,11,12,105,14,17,10,187,31,03,01,035,*74
$GPRMC,202709.000,A,3748.7989,N,12217.8584,W,0.85,113.27,130711,,,A*7D
$GPVTG,113.27,T,,M,0.85,N,1.6,K,A*01
$GPGGA,202710.000,3748.7987,N,12217.8578,W,1,07,1.1,-0.1,M,-25.1,M,,0000*44
$GPGSA,A,3,08,13,11,05,07,19,17,,,,,,2.1,1.1,1.8*3E
$GPRMC,202710.000,A,3748.7987,N,12217.8578,W,0.81,116.03,130711,,,A*7F
$GPVTG,116.03,T,,M,0.81,N,1.5,K,A*05
$GPGGA,202711.000,3748.7985,N,12217.8570,W,1,07,1.1,0.7,M,-25.1,M,,0000*64
$GPGSA,A,3,08,13,11,05,07,19,17,,,,,,2.1,1.1,1.8*3E
$GPRMC,202711.000,A,3748.7985,N,12217.8570,W,1.31,113.68,130711,,,A*76
$GPVTG,113.68,T,,M,1.31,N,2.4,K,A*05
$GPGGA,202712.000,3748.7984,N,12217.8564,W,1,07,1.1,1.1,M,-25.1,M,,0000*64
$GPGSA,A,3,08,13,11,05,07,19,17,,,,,,2.1,1.1,1.8*3E
$GPRMC,202712.000,A,3748.7984,N,12217.8564,W,1.41,113.36,130711,,,A*7D
$GPVTG,113.36,T,,M,1.41,N,2.6,K,A*0B
$GPGGA,202713.000,3748.7983,N,12217.8564,W,1,07,1.1,0.7,M,-25.1,M,,0000*65
$GPGSA,A,3,08,13,11,05,07,19,17,,,,,,2.1,1.1,1.8*3E
$GPRMC,202713.000,A,3748.7983,N,12217.8564,W,0.76,110.44,130711,,,A*78
$GPVTG,110.44,T,,M,0.76,N,1.4,K,A*09
$GPGGA,202714.000,3748.7983,N,12217.8562,W,1,07,1.1,1.1,M,-25.1,M,,0000*63
$GPGSA,A,3,08,13,11,05,07,19,17,,,,,,2.1,1.1,1.8*3E
$GPGSV,3,1,12,08,65,001,31,28,61,253,21,07,56,068,27,26,27,316,25*77
$GPGSV,3,2,12,01,25,242,,19,25,051,30,13,23,150,28,05,19,270,18*7D
$GPGSV,3,3,12,10,13,220,33,11,12,105,14,17,10,187,31,03,01,035,*74
$GPVTG,131.98,T,,M,0.37,N,0.7,K,A*0C
$GPGGA,202715.000,3748.7982,N,12217.8559,W,1,07,1.1,1.8,M,-25.1,M,,0000*62
$GPGSA,A,3,08,13,11,05,07,19,17,,,,,,2.1,1.1,1.8*3E
$GPRMC,202715.000,A,3748.7982,N,12217.8559,W,0.13,190.92,130711,,,A*71
$GPVTG,190.92,T,,M,0.13,N,0.2,K,A*0E
$GPGGA,202716.000,3748.7980,N,12217.8550,W,1,06,1.3,2.4,M,-25.1,M,,0000*66
$GPGSA,A,3,08,11,05,07,19,17,,,,,,,2.3,1.3,1.9*3D
$GPRMC,202716.000,A,3748.7980,N,12217.8550,W,0.15,169.38,130711,,,A*79
$GPVTG,169.38,T,,M,0.15,N,0.3,K,A*0F
$GPGGA,202717.000,3748.7981,N,12217.8553,W,1,06,1.3,2.8,M,-25.1,M,,0000*69
$GPGSA,A,3,08,11,05,07,19,17,,,,,,,2.3,1.3,1.9*3D
$GPRMC,202717.000,A,3748.7981,N,12217.8553,W,0.21,136.11,130711,,,A*7C
$GPVTG,136.11,T,,M,0.21,N,0.4,K,A*0E
$GPGGA,202718.000,3748.7982,N,12217.8557,W,1,07,1.1,2.9,M,-25.1,M,,0000*63
$GPGSA,A,3,08,13,11,05,07,19,17,,,,,,2.1,1.1,1.8*3E
$GPRMC,202718.000,A,3748.7982,N,12217.8557,W,0.28,182.91,130711,,,A*7A
$GPVTG,182.91,T,,M,0.28,N,0.5,K,A*01
$GPGGA,202719.000,3748.7986,N,12217.8563,W,1,06,1.2,2.3,M,-25.1,M,,0000*69
$GPGSA,A,3,08,13,05,07,19,17,,,,,,,2.4,1.2,2.1*32
$GPGSV,3,1,12,08,65,002,33,28,61,253,,07,56,068,29,26,27,316,29*77
$GPGSV,3,2,12,01,25,242,,19,25,051,31,13,22,150,29,05,19,270,26*71
$GPGSV,3,3,12,10,13,219,37,11,12,105,16,17,10,187,31,03,01,035,*78
$GPRMC,202719.000,A,3748.7986,N,12217.8563,W,0.09,181.52,130711,,,A*77
$GPVTG,181.52,T,,M,0.09,N,0.2,K,A*09
$GPGGA,202720.000,3748.7988,N,12217.8568,W,1,06,1.2,1.3,M,-25.1,M,,0000*65
$GPGSA,A,3,08,13,05,07,19,17,,,,,,,2.4,1.2,2.1*32
$GPRMC,202720.000,A,3748.7988,N,12217.8568,W,0.06,247.12,130711,,,A*7A
$GPVTG,247.12,T,,M,0.06,N,0.1,K,A*08
$GPGGA,202721.000,3748.7990,N,12217.8572,W,1,06,1.2,0.3,M,-25.1,M,,0000*67
$GPGSA,A,3,08,13,05,07,19,17,,,,,,,2.4,1.2,2.1*32
$GPRMC,202721.000,A,3748.7990,N,12217.8572,W,0.04,338.47,130711,,,A*72
$GPVTG,338.47,T,,M,0.04,N,0.1,K,A*03
$GPGGA,202722.000,3748.7990,N,12217.8574,W,1,06,1.2,-0.2,M,-25.1,M,,0000*4E
$GPGSA,A,3,08,13,05,07,19,17,,,,,,,2.4,1.2,2.1*32
$GPRMC,202722.000,A,3748.7990,N,12217.8574,W,0.20,97.06,130711,,,A*42
$GPVTG,97.06,T,,M,0.20,N,0.4,K,A*33
$GPGGA,202723.000,3748.7993,N,12217.8579,W,1,06,1.2,-0.8,M,-25.1,M,,0000*4B
$GPGSA,A,3,08,13,05,07,19,17,,,,,,,2.4,1.2,2.1*32
$GPRMC,202723.000,A,3748.7993,N,12217.8579,W,0.34,309.32,130711,,,A*7B
$GPVTG,309.32,T,,M,0.34,N,0.6,K,A*07
$GPGGA,202724.000,3748.7997,N,12217.8585,W,1,06,1.2,-1.2,M,-25.1,M,,0000*40
$GPGSA,A,3,08,13,05,07,19,17,,,,,,,2.4,1.2,2.1*32
$GPGSV,3,1,12,08,65,002,33,28,61,253,,07,56,068,33,26,27,316,32*76
$GPGSV,3,2,12,01,25,242,,19,25,051,32,13,22,150,33,05,19,270,29*76
$GPGSV,3,3,12,10,13,219,38,11,12,105,,17,10,187,36,03,01,035,*77
$GPRMC,202724.000,A,3748.7997,N,12217.8585,W,0.12,342.89,130711,,,A*70
$GPVTG,342.89,T,,M,0.12,N,0.2,K,A*08
$GPGGA,202725.000,3748.8002,N,12217.8588,W,1,06,1.2,-2.4,M,-25.1,M,,0000*43
$GPGSA,A,3,08,13,05,07,19,17,,,,,,,2.4,1.2,2.1*32
$GPRMC,202725.000,A,3748.8002,N,12217.8588,W,0.13,23.07,130711,,,A*45
$GPVTG,23.07,T,,M,0.13,N,0.2,K,A*3B
$GPGGA,202726.000,3748.8005,N,12217.8591,W,1,07,1.1,-3.4,M,-25.1,M,,0000*4C
$GPGSA,A,3,08,13,11,05,07,19,17,,,,,,2.1,1.1,1.8*3E
$GPRMC,202726.000,A,3748.8005,N,12217.8591,W,0.35,334.00,130711,,,A*7F
$GPVTG,334.00,T,,M,0.35,N,0.6,K,A*09
$GPGGA,202727.000,3748.8008,N,12217.8592,W,1,07,1.1,-4.3,M,-25.1,M,,0000*43
$GPGSA,A,3,08,13,11,05,07,19,17,,,,,,2.1,1.1,1.8*3E
$GPRMC,202727.000,A,3748.8008,N,12217.8592,W,0.24,339.69,130711,,,A*72
$GPVTG,339.69,T,,M,0.24,N,0.5,K,A*08
$GPGGA,202728.000,3748.8010,N,12217.8592,W,1,07,1.1,-5.3,M,-25.1,M,,0000*44
$GPGSA,A,3,08,13,11,05,07,19,17,,,,,,2.1,1.1,1.8*3E
$GPRMC,202728.000,A,3748.8010,N,12217.8592,W,0.24,27.57,130711,,,A*45
$GPVTG,27.57,T,,M,0.24,N,0.4,K,A*38
$GPGGA,202729.000,3748.8011,N,12217.8594,W,1,06,1.2,-6.3,M,-25.1,M,,0000*43
$GPGSA,A,3,08,13,05,07,19,17,,,,,,,2.4,1.2,2.1*32
$GPGSV,3,1,12,08,65,002,20,28,61,253,,07,56,068,33,26,27,316,31*77
$GPGSV,3,2,12,01,25,242,,19,25,051,36,13,22,150,33,05,19,270,23*78
$GPGSV,3,3,12,10,13,219,38,11,12,105,18,17,10,187,37,03,01,035,*7F
$GPVTG,340.40,T,,M,0.30,N,0.6,K,A*0B
$GPGGA,202730.000,3748.8013,N,12217.8596,W,1,06,1.2,-7.2,M,-25.1,M,,0000*4B
$GPGSA,A,3,08,13,05,07,19,17,,,,,,,2.4,1.2,2.1*32
$GPRMC,202730.000,A,3748.8013,N,12217.8596,W,0.38,337.47,130711,,,A*75
$GPVTG,337.47,T,,M,0.38,N,0.7,K,A*05
$GPGGA,202731.000,3748.8015,N,12217.8598,W,1,05,1.2,-8.5,M,-25.1,M,,0000*49
$GPGSA,A,3,13,05,07,19,17,,,,,,,,3.0,1.2,2.8*36
$GPRMC,202731.000,A,3748.8015,N,12217.8598,W,0.34,72.94,130711,,,A*4C
$GPVTG,72.94,T,,M,0.34,N,0.6,K,A*34
$GPGGA,202732.000,3748.8016,N,12217.8595,W,1,06,1.1,-9.4,M,-25.1,M,,0000*44
$GPGSA,A,3,13,11,05,07,19,17,,,,,,,2.5,1.1,2.2*3B
$GPRMC,202732.000,A,3748.8016,N,12217.8595,W,0.53,86.16,130711,,,A*41
$GPVTG,86.16,T,,M,0.53,N,1.0,K,A*33
$GPGGA,202733.000,3748.8016,N,12217.8596,W,1,07,1.1,-9.9,M,-25.1,M,,0000*4A
$GPGSA,A,3,08,13,11,05,07,19,17,,,,,,2.1,1.1,1.8*3E
$GPRMC,202733.000,A,3748.8016,N,12217.8596,W,0.24,21.17,130711,,,A*4F
$GPVTG,21.17,T,,M,0.24,N,0.4,K,A*3A
$GPGGA,202734.000,3748.8017,N,12217.8600,W,1,07,1.1,-10.3,M,-25.1,M,,0000*72
$GPGSA,A,3,08,13,11,05,07,19,17,,,,,,2.1,1.1,1.8*3E
$GPGSV,3,1,12,08,65,002,24,28,61,253,,07,56,068,33,26,27,316,31*73
$GPGSV,3,2,12,01,25,242,,19,25,051,37,13,22,150,32,05,19,270,24*7F
$GPGSV,3,3,12,10,13,219,38,11,12,105,25,17,10,187,38,03,01,035,*7E
$GPRMC,202734.000,A,3748.8017,N,12217.8600,W,0.65,313.74,130711,,,A*77
$GPVTG,313.74,T,,M,0.65,N,1.2,K,A*0F
$GPGGA,202735.000,3748.8016,N,12217.8598,W,1,07,1.1,-12.2,M,-25.1,M,,0000*73
$GPGSA,A,3,08,13,11,05,07,19,17,,,,,,2.1,1.1,1.8*3E
$GPRMC,202735.000,A,3748.8016,N,12217.8598,W,0.26,12.65,130711,,,A*40
$GPVTG,12.65,T,,M,0.26,N,0.5,K,A*3C
$GPGGA,202736.000,3748.8015,N,12217.8597,W,1,07,1.1,-12.4,M,-25.1,M,,0000*7A
$GPGSA,A,3,08,13,11,05,07,19,17,,,,,,2.1,1.1,1.8*3E
$GPRMC,202736.000,A,3748.8015,N,12217.8597,W,0.39,73.51,130711,,,A*41
$GPVTG,73.51,T,,M,0.39,N,0.7,K,A*30
$GPGGA,202737.000,3748.8013,N,12217.8595,W,1,07,1.1,-12.8,M,-25.1,M,,0000*73
$GPGSA,A,3,08,13,11,05,07,19,17,,,,,,2.1,1.1,1.8*3E
$GPRMC,202737.000,A,3748.8013,N,12217.8595,W,0.47,85.32,130711,,,A*41
$GPVTG,85.32,T,,M,0.47,N,0.9,K,A*3B
$GPGGA,202738.000,3748.8012,N,12217.8596,W,1,07,1.1,-12.5,M,-25.1,M,,0000*73
$GPGSA,A,3,08,13,11,05,07,19,17,,,,,,2.1,1.1,1.8*3E
$GPRMC,202738.000,A,3748.8012,N,12217.8596,W,0.20,21.90,130711,,,A*4B
$GPVTG,21.90,T,,M,0.20,N,0.4,K,A*31
$GPGGA,202739.000,3748.8012,N,12217.8600,W,1,07,1.1,-11.6,M,-25.1,M,,0000*7E
$GPGSA,A,3,08,13,11,05,07,19,17,,,,,,2.1,1.1,1.8*3E
$GPGSV,3,1,12,08,65,002,32,28,61,253,21,07,56,068,32,26,27,316,30*77
$GPGSV,3,2,12,01,25,242,,19,25,051,37,13,22,150,26,05,19,270,25*7B
$GPGSV,3,3,12,10,13,219,38,11,12,105,26,17,10,187,39,03,01,035,*7C
$GPRMC,202739.000,A,3748.8012,N,12217.8600,W,0.20,3.61,130711,,,A*78
$GPVTG,3.61,T,,M,0.20,N,0.4,K,A*0F
