$ADVER,3080,2.3
$GPRMC,202234.541,A,3748.7967,N,12217.8567,W,0.17,258.07,130711,,,A*7E
$GPRMC,202235.541,A,3748.7979,N,12217.8581,W,0.19,139.05,130711,,,A*70
$GPRMC,202236.541,A,3748.8000,N,12217.8607,W,0.17,197.87,130711,,,A*76
$GPRMC,202237.000,A,3748.8004,N,12217.8612,W,0.16,125.89,130711,,,A*71
$GPRMC,202238.000,A,3748.8007,N,12217.8613,W,0.37,154.98,130711,,,A*79
$GPRMC,202239.000,A,3748.8006,N,12217.8614,W,0.28,186.62,130711,,,A*7A
$GPRMC,202240.000,A,3748.8005,N,12217.8615,W,0.12,236.69,130711,,,A*7C
$GPRMC,202241.000,A,3748.8004,N,12217.8614,W,0.16,159.37,130711,,,A*78
$GPRMC,202242.000,A,3748.8003,N,12217.8613,W,0.18,159.20,130711,,,A*73
$GPRMC,202243.000,A,3748.8003,N,12217.8613,W,0.14,163.70,130711,,,A*72
$GPRMC,202244.000,A,3748.8003,N,12217.8613,W,0.21,142.12,130711,,,A*74
$GPRMC,202245.000,A,3748.8000,N,12217.8610,W,0.31,207.44,130711,,,A*75
$GPRMC,202246.000,A,3748.8002,N,12217.8615,W,0.32,135.78,130711,,,A*7F
$GPRMC,202247.000,A,3748.8003,N,12217.8612,W,0.24,133.75,130711,,,A*74
$GPRMC,202248.000,A,3748.8006,N,12217.8611,W,0.25,127.50,130711,,,A*7E
$GPRMC,202249.000,A,3748.8008,N,12217.8610,W,0.27,130.40,130711,,,A*75
$GPRMC,202250.000,A,3748.8008,N,12217.8608,W,0.32,132.06,130711,,,A*70
$GPRMC,202251.000,A,3748.8008,N,12217.8607,W,0.76,127.77,130711,,,A*7C
$GPRMC,202252.000,A,3748.7996,N,12217.8586,W,0.78,155.87,130711,,,A*70
$GPRMC,202253.000,A,3748.7988,N,12217.8583,W,1.26,160.03,130711,,,A*7B
$GPRMC,202254.000,A,3748.7988,N,12217.8600,W,0.88,172.80,130711,,,A*79
$GPRMC,202255.000,A,3748.7982,N,12217.8595,W,0.56,151.40,130711,,,A*73
$GPRMC,202256.000,A,3748.7984,N,12217.8598,W,0.50,168.78,130711,,,A*7C
$GPRMC,202257.000,A,3748.7982,N,12217.8604,W,0.96,184.09,130711,,,A*73
$GPRMC,202258.000,A,3748.7979,N,12217.8612,W,1.02,167.21,130711,,,A*74
$GPRMC,202259.000,A,3748.7990,N,12217.8631,W,0.51,202.34,130711,,,A*70
$GPRMC,202300.000,A,3748.7987,N,12217.8637,W,0.70,212.50,130711,,,A*7D
$GPRMC,202301.000,A,3748.7991,N,12217.8650,W,0.07,318.68,130711,,,A*7A
$GPRMC,202302.000,A,3748.7987,N,12217.8659,W,1.35,261.28,130711,,,A*7C
$GPRMC,202303.000,A,3748.7994,N,12217.8659,W,0.84,352.90,130711,,,A*76
$GPRMC,202304.000,A,3748.7997,N,12217.8645,W,0.80,68.87,130711,,,A*47
$GPRMC,202305.000,A,3748.7999,N,12217.8628,W,1.25,47.67,130711,,,A*4E
$GPRMC,202306.000,A,3748.8001,N,12217.8627,W,0.34,45.76,130711,,,A*46
$GPRMC,202307.000,A,3748.8007,N,12217.8623,W,0.06,266.15,130711,,,A*72
$GPRMC,202308.000,A,3748.8011,N,12217.8614,W,0.25,88.07,130711,,,A*4E
$GPRMC,202309.000,A,3748.8002,N,12217.8610,W,0.24,209.39,130711,,,A*7E
$GPRMC,202310.000,A,3748.7994,N,12217.8607,W,0.55,47.73,130711,,,A*49
$GPRMC,202311.000,A,3748.7993,N,12217.8603,W,0.67,73.84,130711,,,A*45
$GPRMC,202312.000,A,3748.7990,N,12217.8590,W,0.70,78.87,130711,,,A*42
$GPRMC,202313.000,A,3748.7985,N,12217.8589,W,0.39,103.80,130711,,,A*78
$GPRMC,202314.000,A,3748.7980,N,12217.8595,W,0.34,201.83,130711,,,A*78
$GPRMC,202315.000,A,3748.7974,N,12217.8600,W,0.96,172.42,130711,,,A*7F
$GPRMC,202316.000,A,3748.7960,N,12217.8592,W,1.43,147.54,130711,,,A*79
$GPRMC,202317.000,A,3748.7957,N,12217.8589,W,0.83,134.45,130711,,,A*7F
$GPRMC,202318.000,A,3748.7957,N,12217.8589,W,0.35,113.30,130711,,,A*7A
$GPRMC,202319.000,A,3748.7957,N,12217.8584,W,0.32,116.49,130711,,,A*7A
$GPRMC,202320.000,A,3748.7957,N,12217.8579,W,0.18,108.43,130711,,,A*7F
$GPRMC,202321.000,A,3748.7961,N,12217.8583,W,0.13,264.45,130711,,,A*7A
$GPRMC,202322.000,A,3748.7966,N,12217.8589,W,0.19,149.09,130711,,,A*7A
$GPRMC,202323.000,A,3748.7966,N,12217.8587,W,0.56,130.54,130711,,,A*78
$GPRMC,202324.000,A,3748.7967,N,12217.8583,W,0.56,114.32,130711,,,A*7C
$GPRMC,202325.000,A,3748.7973,N,12217.8595,W,0.17,231.43,130711,,,A*78
$GPRMC,202326.000,A,3748.7978,N,12217.8618,W,0.86,244.67,130711,,,A*7A
$GPRMC,202327.000,A,3748.7979,N,12217.8629,W,1.11,274.11,130711,,,A*75
$GPRMC,202328.000,A,3748.7975,N,12217.8625,W,0.97,214.82,130711,,,A*79
$GPRMC,202329.000,A,3748.7972,N,12217.8612,W,0.39,196.40,130711,,,A*78
$GPRMC,202330.000,A,3748.7978,N,12217.8617,W,1.02,20.40,130711,,,A*4A
$GPRMC,202331.000,A,3748.7986,N,12217.8610,W,1.74,35.82,130711,,,A*46
$GPRMC,202332.000,A,3748.7979,N,12217.8592,W,1.51,76.17,130711,,,A*40
$GPRMC,202333.000,A,3748.7980,N,12217.8594,W,0.92,132.40,130711,,,A*7C
$GPRMC,202334.000,A,3748.7975,N,12217.8581,W,0.86,91.19,130711,,,A*44
$GPRMC,202335.000,A,3748.7967,N,12217.8588,W,0.39,111.62,130711,,,A*7E
$GPRMC,202336.000,A,3748.7961,N,12217.8598,W,0.72,251.67,130711,,,A*77
$GPRMC,202337.000,A,3748.7966,N,12217.8598,W,0.49,129.85,130711,,,A*79
$GPRMC,202338.000,A,3748.7969,N,12217.8601,W,0.23,320.47,130711,,,A*73
$GPRMC,202339.000,A,3748.7974,N,12217.8599,W,0.52,119.70,130711,,,A*76
$GPRMC,202340.000,A,3748.7979,N,12217.8597,W,0.68,107.96,130711,,,A*75
$GPRMC,202341.000,A,3748.7983,N,12217.8595,W,0.49,162.32,130711,,,A*7D
$GPRMC,202342.000,A,3748.7984,N,12217.8599,W,0.20,76.04,130711,,,A*4B
$GPRMC,202343.000,A,3748.7985,N,12217.8598,W,0.14,115.41,130711,,,A*78
$GPRMC,202344.000,A,3748.7987,N,12217.8595,W,0.22,121.05,130711,,,A*72
$GPRMC,202345.000,A,3748.7988,N,12217.8593,W,0.31,97.75,130711,,,A*43
$GPRMC,202346.000,A,3748.7994,N,12217.8596,W,0.48,62.75,130711,,,A*4C
$GPRMC,202347.000,A,3748.7994,N,12217.8596,W,0.21,87.65,130711,,,A*48
$GPRMC,202348.000,A,3748.8001,N,12217.8606,W,0.22,282.19,130711,,,A*78
$GPRMC,202349.000,A,3748.8003,N,12217.8619,W,0.26,268.83,130711,,,A*76
$GPRMC,202350.000,A,3748.8006,N,12217.8634,W,0.85,241.66,130711,,,A*7D
$GPRMC,202351.000,A,3748.8009,N,12217.8635,W,0.82,247.46,130711,,,A*71
$GPRMC,202352.000,A,3748.8009,N,12217.8636,W,0.53,229.23,130711,,,A*76
$GPRMC,202353.000,A,3748.8002,N,12217.8629,W,0.07,99.10,130711,,,A*4A
$GPRMC,202354.000,A,3748.7989,N,12217.8623,W,0.92,174.33,130711,,,A*7D
$GPRMC,202355.000,A,3748.7985,N,12217.8631,W,0.69,174.75,130711,,,A*75
$GPRMC,202356.000,A,3748.7977,N,12217.8634,W,0.41,194.47,130711,,,A*7B
$GPRMC,202357.000,A,3748.7967,N,12217.8626,W,0.04,107.16,130711,,,A*77
$GPRMC,202358.000,A,3748.7963,N,12217.8631,W,0.94,216.63,130711,,,A*72
$GPRMC,202359.000,A,3748.7959,N,12217.8633,W,1.14,212.37,130711,,,A*74
$GPRMC,202400.000,A,3748.7964,N,12217.8630,W,0.41,336.02,130711,,,A*72
$GPRMC,202401.000,A,3748.7963,N,12217.8630,W,0.31,308.87,130711,,,A*73
$GPRMC,202402.000,A,3748.7963,N,12217.8629,W,0.70,204.60,130711,,,A*79
$GPRMC,202403.000,A,3748.7962,N,12217.8629,W,0.37,209.72,130711,,,A*74
$GPRMC,202404.000,A,3748.7957,N,12217.8629,W,0.13,211.28,130711,,,A*75
$GPRMC,202405.000,A,3748.7963,N,12217.8626,W,0.15,21.94,130711,,,A*4C
$GPRMC,202406.000,A,3748.7962,N,12217.8625,W,0.04,163.43,130711,,,A*70
$GPRMC,202407.000,A,3748.7963,N,12217.8623,W,0.16,198.52,130711,,,A*71
$GPRMC,202408.000,A,3748.7965,N,12217.8621,W,0.24,234.19,130711,,,A*71
$GPRMC,202409.000,A,3748.7966,N,12217.8620,W,0.22,271.93,130711,,,A*77
$GPRMC,202410.000,A,3748.7968,N,12217.8620,W,0.10,199.64,130711,,,A*7D
$GPRMC,202411.000,A,3748.7974,N,12217.8619,W,0.41,37.83,130711,,,A*43
$GPRMC,202412.000,A,3748.7981,N,12217.8618,W,0.76,31.72,130711,,,A*47
$GPRMC,202413.000,A,3748.7982,N,12217.8619,W,0.46,31.27,130711,,,A*47
$GPRMC,202414.000,A,3748.7980,N,12217.8618,W,0.43,302.07,130711,,,A*77
$GPRMC,202415.000,A,3748.7973,N,12217.8619,W,0.84,100.21,130711,,,A*74
$GPRMC,202416.000,A,3748.7965,N,12217.8619,W,0.50,140.31,130711,,,A*7C
$GPRMC,202417.000,A,3748.7966,N,12217.8619,W,0.15,253.70,130711,,,A*7B
$GPRMC,202418.000,A,3748.7967,N,12217.8619,W,0.19,80.36,130711,,,A*47
$GPRMC,202419.000,A,3748.7971,N,12217.8615,W,0.54,96.09,130711,,,A*4F
$GPRMC,202420.000,A,3748.7978,N,12217.8613,W,0.72,337.29,130711,,,A*74
$GPRMC,202421.000,A,3748.7982,N,12217.8612,W,0.31,284.27,130711,,,A*71
$GPRMC,202422.000,A,3748.7984,N,12217.8614,W,0.42,267.51,130711,,,A*7A
$GPRMC,202423.000,A,3748.7985,N,12217.8619,W,0.67,321.03,130711,,,A*74
$GPRMC,202424.000,A,3748.7988,N,12217.8620,W,0.10,5.78,130711,,,A*7D
$GPRMC,202425.000,A,3748.7988,N,12217.8618,W,0.29,178.69,130711,,,A*76
$GPRMC,202426.000,A,3748.7975,N,12217.8621,W,1.00,170.71,130711,,,A*76
$GPRMC,202427.000,A,3748.7975,N,12217.8619,W,0.66,106.72,130711,,,A*7F
$GPRMC,202428.000,A,3748.7978,N,12217.8614,W,0.34,39.32,130711,,,A*4E
$GPRMC,202429.000,A,3748.7979,N,12217.8612,W,0.16,3.00,130711,,,A*70
$GPRMC,202430.000,A,3748.7979,N,12217.8612,W,0.10,153.98,130711,,,A*7B
$GPRMC,202431.000,A,3748.7980,N,12217.8610,W,0.18,351.25,130711,,,A*70
$GPRMC,202432.000,A,3748.7980,N,12217.8610,W,0.11,346.90,130711,,,A*72
$GPRMC,202433.000,A,3748.7981,N,12217.8609,W,0.26,359.58,130711,,,A*74
$GPRMC,202434.000,A,3748.7983,N,12217.8608,W,0.37,8.76,130711,,,A*7B
$GPRMC,202435.000,A,3748.7985,N,12217.8607,W,0.23,3.74,130711,,,A*7F
$GPRMC,202436.000,A,3748.7986,N,12217.8606,W,0.11,182.62,130711,,,A*70
$GPRMC,202437.000,A,3748.7988,N,12217.8605,W,0.03,346.54,130711,,,A*70
$GPRMC,202438.000,A,3748.7989,N,12217.8604,W,0.03,233.47,130711,,,A*7E
$GPRMC,202439.000,A,3748.7990,N,12217.8604,W,0.16,202.48,130711,,,A*7E
$GPRMC,202440.000,A,3748.7990,N,12217.8604,W,0.17,197.36,130711,,,A*77
$GPRMC,202441.000,A,3748.7991,N,12217.8603,W,0.19,191.39,130711,,,A*77
$GPRMC,202442.000,A,3748.7992,N,12217.8603,W,0.18,351.27,130711,,,A*77
$GPRMC,202443.000,A,3748.7997,N,12217.8598,W,0.74,35.18,130711,,,A*45
$GPRMC,202444.000,A,3748.8003,N,12217.8593,W,0.45,38.98,130711,,,A*45
$GPRMC,202445.000,A,3748.8007,N,12217.8591,W,0.75,14.36,130711,,,A*4B
$GPRMC,202446.000,A,3748.8011,N,12217.8586,W,0.17,61.39,130711,,,A*40
$GPRMC,202447.000,A,3748.8009,N,12217.8585,W,0.16,358.50,130711,,,A*7C
$GPRMC,202448.000,A,3748.8013,N,12217.8583,W,0.10,184.34,130711,,,A*79
$GPRMC,202449.000,A,3748.8008,N,12217.8583,W,0.31,196.87,130711,,,A*7A
$GPRMC,202450.000,A,3748.8007,N,12217.8582,W,0.52,144.25,130711,,,A*7E
$GPRMC,202451.000,A,3748.8011,N,12217.8580,W,0.18,16.50,130711,,,A*40
$GPRMC,202452.000,A,3748.8014,N,12217.8580,W,0.45,1.34,130711,,,A*7A
$GPRMC,202453.000,A,3748.8017,N,12217.8584,W,0.78,344.22,130711,,,A*77
$GPRMC,202454.000,A,3748.8019,N,12217.8589,W,0.47,357.49,130711,,,A*70
$GPRMC,202455.000,A,3748.8020,N,12217.8590,W,0.48,332.24,130711,,,A*74
$GPRMC,202456.000,A,3748.8016,N,12217.8590,W,0.10,163.09,130711,,,A*76
$GPRMC,202457.000,A,3748.8011,N,12217.8590,W,0.35,130.00,130711,,,A*78
$GPRMC,202458.000,A,3748.8008,N,12217.8590,W,0.38,110.41,130711,,,A*75
$GPRMC,202459.000,A,3748.8007,N,12217.8591,W,0.11,50.32,130711,,,A*40
$GPRMC,202500.000,A,3748.8005,N,12217.8594,W,0.20,314.37,130711,,,A*7E
$GPRMC,202501.000,A,3748.8004,N,12217.8596,W,0.12,358.85,130711,,,A*7C
$GPRMC,202502.000,A,3748.8000,N,12217.8596,W,0.28,310.57,130711,,,A*71
$GPRMC,202503.000,A,3748.7996,N,12217.8595,W,0.31,171.93,130711,,,A*7F
$GPRMC,202504.000,A,3748.7992,N,12217.8594,W,0.10,164.57,130711,,,A*72
$GPRMC,202505.000,A,3748.7992,N,12217.8594,W,0.47,341.21,130711,,,A*75
$GPRMC,202506.000,A,3748.7993,N,12217.8595,W,0.35,7.43,130711,,,A*76
$GPRMC,202507.000,A,3748.7994,N,12217.8595,W,0.65,352.09,130711,,,A*78
$GPRMC,202508.000,A,3748.7995,N,12217.8597,W,0.53,10.02,130711,,,A*4F
$GPRMC,202509.000,A,3748.8002,N,12217.8593,W,0.98,18.86,130711,,,A*41
$GPRMC,202510.000,A,3748.8006,N,12217.8592,W,0.78,0.30,130711,,,A*76
$GPRMC,202511.000,A,3748.8006,N,12217.8592,W,0.34,318.31,130711,,,A*74
$GPRMC,202512.000,A,3748.7999,N,12217.8592,W,0.62,209.10,130711,,,A*76
$GPRMC,202513.000,A,3748.7998,N,12217.8591,W,0.62,177.83,130711,,,A*75
$GPRMC,202514.000,A,3748.7998,N,12217.8589,W,0.48,133.16,130711,,,A*7F
$GPRMC,202515.000,A,3748.8000,N,12217.8587,W,0.31,129.39,130711,,,A*7F
$GPRMC,202516.000,A,3748.7999,N,12217.8585,W,0.13,93.06,130711,,,A*44
$GPRMC,202517.000,A,3748.7998,N,12217.8586,W,0.16,345.27,130711,,,A*79
$GPRMC,202518.000,A,3748.8003,N,12217.8589,W,0.60,334.59,130711,,,A*73
$GPRMC,202519.000,A,3748.8005,N,12217.8593,W,0.80,326.55,130711,,,A*7E
$GPRMC,202520.000,A,3748.8002,N,12217.8595,W,0.51,262.15,130711,,,A*7C
$GPRMC,202521.000,A,3748.8001,N,12217.8598,W,0.70,239.29,130711,,,A*71
$GPRMC,202522.000,A,3748.7997,N,12217.8599,W,0.87,212.00,130711,,,A*70
$GPRMC,202523.000,A,3748.7998,N,12217.8596,W,0.16,156.64,130711,,,A*78
$GPRMC,202524.000,A,3748.8001,N,12217.8596,W,0.19,98.61,130711,,,A*40
$GPRMC,202525.000,A,3748.8003,N,12217.8593,W,0.32,347.29,130711,,,A*72
$GPRMC,202526.000,A,3748.8007,N,12217.8593,W,0.41,278.71,130711,,,A*71
$GPRMC,202527.000,A,3748.8010,N,12217.8592,W,0.21,269.30,130711,,,A*74
$GPRMC,202528.000,A,3748.8015,N,12217.8592,W,0.27,101.46,130711,,,A*74
$GPRMC,202529.000,A,3748.8015,N,12217.8593,W,0.46,134.06,130711,,,A*71
$GPRMC,202530.000,A,3748.8017,N,12217.8595,W,0.42,344.71,130711,,,A*7C
$GPRMC,202531.000,A,3748.8018,N,12217.8595,W,0.29,356.54,130711,,,A*7B
$GPRMC,202532.000,A,3748.8018,N,12217.8601,W,0.42,314.23,130711,,,A*7D
$GPRMC,202533.000,A,3748.8016,N,12217.8602,W,0.25,239.43,130711,,,A*78
$GPRMC,202534.000,A,3748.8014,N,12217.8605,W,0.20,178.69,130711,,,A*71
$GPRMC,202535.000,A,3748.8014,N,12217.8604,W,0.31,167.27,130711,,,A*75
$GPRMC,202536.000,A,3748.8014,N,12217.8607,W,0.19,308.91,130711,,,A*79
$GPRMC,202537.000,A,3748.8009,N,12217.8610,W,0.13,351.44,130711,,,A*7C
$GPRMC,202538.000,A,3748.8007,N,12217.8607,W,0.06,207.53,130711,,,A*7B
$GPRMC,202539.000,A,3748.8008,N,12217.8601,W,0.57,89.47,130711,,,A*46
$GPRMC,202540.000,A,3748.8012,N,12217.8600,W,0.29,79.23,130711,,,A*46
$GPRMC,202541.000,A,3748.8008,N,12217.8603,W,0.21,321.69,130711,,,A*77
$GPRMC,202542.000,A,3748.7998,N,12217.8608,W,0.55,147.34,130711,,,A*79
$GPRMC,202543.000,A,3748.7996,N,12217.8605,W,0.27,90.77,130711,,,A*42
$GPRMC,202544.000,A,3748.7994,N,12217.8604,W,0.12,240.88,130711,,,A*7F
$GPRMC,202545.000,A,3748.7995,N,12217.8601,W,0.56,205.62,130711,,,A*7F
$GPRMC,202546.000,A,3748.7991,N,12217.8602,W,0.29,217.74,130711,,,A*77
$GPRMC,202547.000,A,3748.7990,N,12217.8600,W,0.74,176.61,130711,,,A*7D
$GPRMC,202548.000,A,3748.7989,N,12217.8600,W,0.53,267.84,130711,,,A*77
$GPRMC,202549.000,A,3748.7986,N,12217.8601,W,0.45,178.46,130711,,,A*7C
$GPRMC,202550.000,A,3748.7981,N,12217.8600,W,1.27,167.48,130711,,,A*77
$GPRMC,202551.000,A,3748.7982,N,12217.8595,W,1.41,136.34,130711,,,A*75
$GPRMC,202552.000,A,3748.7974,N,12217.8591,W,1.86,134.27,130711,,,A*70
$GPRMC,202553.000,A,3748.7976,N,12217.8584,W,1.38,139.52,130711,,,A*7D
$GPRMC,202554.000,A,3748.7972,N,12217.8582,W,1.19,113.15,130711,,,A*70
$GPRMC,202555.000,A,3748.7973,N,12217.8578,W,1.07,137.37,130711,,,A*7C
$GPRMC,202556.000,A,3748.7965,N,12217.8578,W,1.03,150.11,130711,,,A*79
$GPRMC,202557.000,A,3748.7960,N,12217.8577,W,1.48,153.88,130711,,,A*7E
$GPRMC,202558.000,A,3748.7952,N,12217.8572,W,1.86,152.86,130711,,,A*78
$GPRMC,202559.000,A,3748.7947,N,12217.8569,W,1.39,157.02,130711,,,A*7A
$GPRMC,202600.000,A,3748.7940,N,12217.8570,W,1.65,138.21,130711,,,A*7B
$GPRMC,202601.000,A,3748.7936,N,12217.8571,W,1.36,148.62,130711,,,A*7C
$GPRMC,202602.000,A,3748.7933,N,12217.8571,W,0.61,120.76,130711,,,A*72
$GPRMC,202603.000,A,3748.7936,N,12217.8570,W,0.58,152.65,130711,,,A*7A
$GPRMC,202604.000,A,3748.7932,N,12217.8572,W,1.01,182.57,130711,,,A*7A
$GPRMC,202605.000,A,3748.7933,N,12217.8573,W,0.64,174.51,130711,,,A*76
$GPRMC,202606.000,A,3748.7925,N,12217.8576,W,0.95,182.94,130711,,,A*79
$GPRMC,202607.000,A,3748.7915,N,12217.8578,W,0.88,163.39,130711,,,A*71
$GPRMC,202608.000,A,3748.7912,N,12217.8578,W,1.07,206.26,130711,,,A*71
$GPRMC,202609.000,A,3748.7918,N,12217.8575,W,0.50,26.86,130711,,,A*4E
$GPRMC,202609.000,A,3748.7927,N,12217.8574,W,1.20,356.25,130711,,,A*78
$GPRMC,202610.000,A,3748.7937,N,12217.8571,W,0.74,337.91,130711,,,A*7C
$GPRMC,202611.000,A,3748.7945,N,12217.8573,W,0.55,295.70,130711,,,A*7F
$GPRMC,202612.000,A,3748.7946,N,12217.8572,W,0.46,173.53,130711,,,A*76
$GPRMC,202613.000,A,3748.7948,N,12217.8569,W,1.19,151.51,130711,,,A*7A
$GPRMC,202614.000,A,3748.7949,N,12217.8567,W,1.43,154.28,130711,,,A*76
$GPRMC,202615.000,A,3748.7948,N,12217.8566,W,0.97,166.59,130711,,,A*78
$GPRMC,202616.000,A,3748.7952,N,12217.8566,W,0.76,160.97,130711,,,A*7B
$GPRMC,202617.000,A,3748.7959,N,12217.8568,W,0.46,83.75,130711,,,A*4C
$GPRMC,202618.000,A,3748.7966,N,12217.8569,W,0.69,325.26,130711,,,A*7A
$GPRMC,202619.000,A,3748.7965,N,12217.8569,W,0.86,338.49,130711,,,A*7C
$GPRMC,202620.000,A,3748.7966,N,12217.8571,W,0.52,318.39,130711,,,A*70
$GPRMC,202621.000,A,3748.7968,N,12217.8572,W,0.19,292.36,130711,,,A*7F
$GPRMC,202622.000,A,3748.7972,N,12217.8579,W,0.16,82.79,130711,,,A*4B
$GPRMC,202623.000,A,3748.7974,N,12217.8583,W,0.40,206.90,130711,,,A*73
$GPRMC,202624.000,A,3748.7979,N,12217.8580,W,0.38,217.85,130711,,,A*71
$GPRMC,202625.000,A,3748.7978,N,12217.8578,W,0.68,184.62,130711,,,A*73
$GPRMC,202626.000,A,3748.7977,N,12217.8579,W,0.37,148.67,130711,,,A*71
$GPRMC,202627.000,A,3748.7981,N,12217.8576,W,0.56,72.33,130711,,,A*48
$GPRMC,202628.000,A,3748.7982,N,12217.8571,W,0.60,73.31,130711,,,A*45
$GPRMC,202629.000,A,3748.7981,N,12217.8565,W,0.71,82.09,130711,,,A*47
$GPRMC,202630.000,A,3748.7967,N,12217.8565,W,0.47,124.66,130711,,,A*76
$GPRMC,202631.000,A,3748.7963,N,12217.8562,W,0.25,110.01,130711,,,A*76
$GPRMC,202632.000,A,3748.7966,N,12217.8556,W,0.58,0.37,130711,,,A*78
$GPRMC,202633.000,A,3748.7959,N,12217.8557,W,0.75,243.91,130711,,,A*72
$GPRMC,202634.000,A,3748.7952,N,12217.8563,W,0.60,216.30,130711,,,A*76
$GPRMC,202635.000,A,3748.7949,N,12217.8566,W,0.10,96.58,130711,,,A*4B
$GPRMC,202636.000,A,3748.7944,N,12217.8565,W,0.68,38.10,130711,,,A*41
$GPRMC,202637.000,A,3748.7938,N,12217.8569,W,0.49,13.26,130711,,,A*48
$GPRMC,202638.000,A,3748.7928,N,12217.8574,W,0.19,212.60,130711,,,A*7E
$GPRMC,202639.000,A,3748.7929,N,12217.8572,W,0.70,129.74,130711,,,A*79
$GPRMC,202640.000,A,3748.7929,N,12217.8566,W,0.86,148.68,130711,,,A*71
$GPRMC,202641.000,A,3748.7933,N,12217.8564,W,0.09,343.72,130711,,,A*7C
$GPRMC,202642.000,A,3748.7944,N,12217.8562,W,0.61,9.59,130711,,,A*73
$GPRMC,202643.000,A,3748.7949,N,12217.8559,W,0.42,15.80,130711,,,A*4F
$GPRMC,202644.000,A,3748.7957,N,12217.8558,W,0.51,30.74,130711,,,A*48
$GPRMC,202645.000,A,3748.7965,N,12217.8558,W,0.95,335.01,130711,,,A*74
$GPRMC,202646.000,A,3748.7971,N,12217.8559,W,1.00,6.91,130711,,,A*74
$GPRMC,202647.000,A,3748.7966,N,12217.8562,W,0.15,72.23,130711,,,A*44
$GPRMC,202648.000,A,3748.7967,N,12217.8558,W,0.64,107.37,130711,,,A*73
$GPRMC,202649.000,A,3748.7966,N,12217.8555,W,0.89,101.74,130711,,,A*7C
$GPRMC,202650.000,A,3748.7973,N,12217.8554,W,0.14,350.36,130711,,,A*75
$GPRMC,202651.000,A,3748.7973,N,12217.8557,W,0.72,335.10,130711,,,A*70
$GPRMC,202652.000,A,3748.7976,N,12217.8554,W,0.16,82.78,130711,,,A*46
$GPRMC,202653.000,A,3748.7976,N,12217.8555,W,0.27,18.47,130711,,,A*4B
$GPRMC,202654.000,A,3748.7969,N,12217.8561,W,0.25,245.16,130711,,,A*79
$GPRMC,202655.000,A,3748.7960,N,12217.8567,W,1.25,188.73,130711,,,A*77
$GPRMC,202656.000,A,3748.7952,N,12217.8573,W,1.37,194.58,130711,,,A*77
$GPRMC,202657.000,A,3748.7950,N,12217.8577,W,0.80,184.36,130711,,,A*74
$GPRMC,202658.000,A,3748.7945,N,12217.8582,W,1.42,199.71,130711,,,A*75
$GPRMC,202659.000,A,3748.7940,N,12217.8583,W,1.28,184.83,130711,,,A*7D
$GPRMC,202700.000,A,3748.7941,N,12217.8579,W,0.76,194.44,130711,,,A*74
$GPRMC,202701.000,A,3748.7949,N,12217.8576,W,0.70,29.00,130711,,,A*43
$GPRMC,202702.000,A,3748.7951,N,12217.8579,W,0.20,100.93,130711,,,A*73
$GPRMC,202703.000,A,3748.7957,N,12217.8575,W,0.21,338.22,130711,,,A*7A
$GPRMC,202704.000,A,3748.7967,N,12217.8570,W,0.52,2.81,130711,,,A*7C
$GPRMC,202705.000,A,3748.7969,N,12217.8569,W,0.84,13.41,130711,,,A*4C
$GPRMC,202706.000,A,3748.7968,N,12217.8570,W,0.77,9.87,130711,,,A*7B
$GPRMC,202707.000,A,3748.7969,N,12217.8568,W,0.64,9.61,130711,,,A*78
$GPRMC,202708.000,A,3748.7970,N,12217.8567,W,0.83,12.02,130711,,,A*46
$GPRMC,202709.000,A,3748.7962,N,12217.8572,W,0.41,355.46,130711,,,A*7E
$GPRMC,202710.000,A,3748.7955,N,12217.8574,W,0.52,343.69,130711,,,A*7C
$GPRMC,202711.000,A,3748.7969,N,12217.8572,W,0.65,9.52,130711,,,A*75
$GPRMC,202712.000,A,3748.7971,N,12217.8565,W,0.84,19.74,130711,,,A*43
$GPRMC,202713.000,A,3748.7966,N,12217.8562,W,0.38,76.54,130711,,,A*4F
$GPRMC,202714.000,A,3748.7956,N,12217.8559,W,1.44,158.31,130711,,,A*77
$GPRMC,202715.000,A,3748.7951,N,12217.8557,W,1.30,134.80,130711,,,A*7C
$GPRMC,202716.000,A,3748.7955,N,12217.8552,W,0.38,80.88,130711,,,A*41
$GPRMC,202717.000,A,3748.7950,N,12217.8550,W,0.43,5.24,130711,,,A*70
$GPRMC,202718.000,A,3748.7941,N,12217.8546,W,0.20,17.16,130711,,,A*4F
$GPRMC,202719.000,A,3748.7939,N,12217.8544,W,0.33,30.18,130711,,,A*4A
$GPRMC,202720.000,A,3748.7938,N,12217.8546,W,0.23,227.76,130711,,,A*7E
$GPRMC,202721.000,A,3748.7933,N,12217.8547,W,0.39,228.97,130711,,,A*7E
$GPRMC,202722.000,A,3748.7933,N,12217.8547,W,0.79,260.19,130711,,,A*73
$GPRMC,202723.000,A,3748.7944,N,12217.8545,W,0.75,331.70,130711,,,A*76
$GPRMC,202724.000,A,3748.7950,N,12217.8542,W,0.56,344.40,130711,,,A*73
$GPRMC,202725.000,A,3748.7954,N,12217.8538,W,0.09,123.22,130711,,,A*76
$GPRMC,202726.000,A,3748.7958,N,12217.8534,W,0.19,34.28,130711,,,A*49
$GPRMC,202727.000,A,3748.7959,N,12217.8534,W,0.21,24.23,130711,,,A*48
$GPRMC,202728.000,A,3748.7960,N,12217.8533,W,0.13,19.43,130711,,,A*43
$GPRMC,202729.000,A,3748.7960,N,12217.8532,W,0.07,308.05,130711,,,A*77
$GPRMC,202730.000,A,3748.7960,N,12217.8531,W,0.05,320.79,130711,,,A*7F
$GPRMC,202731.000,A,3748.7960,N,12217.8530,W,0.04,61.87,130711,,,A*49
$GPRMC,202732.000,A,3748.7959,N,12217.8529,W,0.14,71.37,130711,,,A*43
$GPRMC,202733.000,A,3748.7959,N,12217.8529,W,0.32,266.54,130711,,,A*77
$GPRMC,202734.000,A,3748.7960,N,12217.8527,W,0.13,297.07,130711,,,A*7F
$GPRMC,202735.000,A,3748.7962,N,12217.8525,W,0.29,110.00,130711,,,A*7C
$GPRMC,202736.000,A,3748.7966,N,12217.8520,W,0.35,27.96,130711,,,A*49
$GPRMC,202737.000,A,3748.7974,N,12217.8516,W,0.45,15.21,130711,,,A*44
$GPRMC,202738.000,A,3748.7970,N,12217.8515,W,0.22,6.99,130711,,,A*7C
$GPRMC,202739.000,A,3748.7977,N,12217.8510,W,0.40,351.98,130711,,,A*7B
$GPRMC,202740.000,A,3748.7982,N,12217.8506,W,0.34,39.25,130711,,,A*40
$GPRMC,202741.000,A,3748.7978,N,12217.8502,W,0.67,81.70,130711,,,A*45
$GPRMC,202742.000,A,3748.7976,N,12217.8501,W,0.44,127.47,130711,,,A*73
$GPRMC,202743.000,A,3748.7974,N,12217.8502,W,0.38,80.09,130711,,,A*4E
$GPRMC,202744.000,A,3748.7972,N,12217.8501,W,0.14,200.54,130711,,,A*70
$GPRMC,202745.000,A,3748.7971,N,12217.8501,W,0.22,307.61,130711,,,A*77
$GPRMC,202746.000,A,3748.7968,N,12217.8498,W,0.30,344.71,130711,,,A*78
$GPRMC,202747.000,A,3748.7969,N,12217.8495,W,0.25,259.58,130711,,,A*77
$GPRMC,202748.000,A,3748.7970,N,12217.8493,W,0.49,250.14,130711,,,A*7D
$GPRMC,202749.000,A,3748.7973,N,12217.8493,W,0.11,344.72,130711,,,A*76
$GPRMC,202750.000,A,3748.7975,N,12217.8494,W,0.46,330.83,130711,,,A*70
$GPRMC,202751.000,A,3748.7976,N,12217.8494,W,0.48,333.31,130711,,,A*76
$GPRMC,202752.000,A,3748.7979,N,12217.8491,W,0.62,332.08,130711,,,A*7C
$GPRMC,202753.000,A,3748.7981,N,12217.8491,W,0.46,323.78,130711,,,A*7B
$GPRMC,202754.000,A,3748.7981,N,12217.8490,W,0.29,6.51,130711,,,A*7B
$GPRMC,202755.000,A,3748.7981,N,12217.8491,W,0.29,316.80,130711,,,A*75
$GPRMC,202756.000,A,3748.7981,N,12217.8494,W,0.16,1.84,130711,,,A*7E
$GPRMC,202757.000,A,3748.7981,N,12217.8494,W,0.21,28.00,130711,,,A*4C
$GPRMC,202758.000,A,3748.7983,N,12217.8492,W,0.27,31.79,130711,,,A*47
$GPRMC,202759.000,A,3748.7986,N,12217.8489,W,0.43,52.29,130711,,,A*4B
$GPRMC,202800.000,A,3748.7985,N,12217.8488,W,0.21,345.10,130711,,,A*71
$GPRMC,202801.000,A,3748.7987,N,12217.8490,W,0.17,330.28,130711,,,A*77
$GPRMC,202802.000,A,3748.7989,N,12217.8494,W,0.25,311.11,130711,,,A*76
$GPRMC,202803.000,A,3748.7988,N,12217.8494,W,0.23,300.86,130711,,,A*7E
$GPRMC,202804.000,A,3748.7984,N,12217.8491,W,0.58,274.17,130711,,,A*76
$GPRMC,202805.000,A,3748.7981,N,12217.8497,W,0.44,258.68,130711,,,A*7F
$GPRMC,202806.000,A,3748.7979,N,12217.8499,W,0.64,156.87,130711,,,A*7B
$GPRMC,202807.000,A,3748.7975,N,12217.8497,W,0.12,246.12,130711,,,A*77
$GPRMC,202808.000,A,3748.7965,N,12217.8496,W,0.33,160.76,130711,,,A*7E
$GPRMC,202809.000,A,3748.7969,N,12217.8496,W,0.33,139.17,130711,,,A*78
$GPRMC,202810.000,A,3748.7966,N,12217.8498,W,0.31,173.22,130711,,,A*7B
$GPRMC,202811.000,A,3748.7960,N,12217.8497,W,0.41,199.88,130711,,,A*70
$GPRMC,202812.000,A,3748.7956,N,12217.8498,W,0.71,176.86,130711,,,A*75
$GPRMC,202813.000,A,3748.7953,N,12217.8496,W,0.23,168.02,130711,,,A*7B
$GPRMC,202814.000,A,3748.7956,N,12217.8497,W,0.37,190.45,130711,,,A*79
$GPRMC,202815.000,A,3748.7954,N,12217.8496,W,0.12,229.24,130711,,,A*7A
$GPRMC,202816.000,A,3748.7946,N,12217.8499,W,0.54,203.76,130711,,,A*78
$GPRMC,202817.000,A,3748.7938,N,12217.8503,W,0.82,196.83,130711,,,A*7C
$GPRMC,202818.000,A,3748.7932,N,12217.8504,W,0.82,191.23,130711,,,A*73
$GPRMC,202819.000,A,3748.7926,N,12217.8505,W,1.26,192.64,130711,,,A*79
$GPRMC,202820.000,A,3748.7927,N,12217.8505,W,1.02,182.02,130711,,,A*75
$GPRMC,202821.000,A,3748.7931,N,12217.8502,W,0.94,116.58,130711,,,A*78
$GPRMC,202822.000,A,3748.7934,N,12217.8497,W,1.30,149.92,130711,,,A*70
$GPRMC,202823.000,A,3748.7934,N,12217.8496,W,0.74,193.28,130711,,,A*77
$GPRMC,202824.000,A,3748.7937,N,12217.8494,W,0.43,182.27,130711,,,A*7A
$GPRMC,202825.000,A,3748.7940,N,12217.8492,W,0.32,183.09,130711,,,A*76
$GPRMC,202826.000,A,3748.7942,N,12217.8490,W,0.18,131.00,130711,,,A*7D
$GPRMC,202827.000,A,3748.7943,N,12217.8488,W,0.24,198.54,130711,,,A*79
$GPRMC,202828.000,A,3748.7945,N,12217.8487,W,0.03,282.30,130711,,,A*70
$GPRMC,202829.000,A,3748.7948,N,12217.8485,W,0.11,272.54,130711,,,A*70
$GPRMC,202830.000,A,3748.7954,N,12217.8482,W,0.06,61.96,130711,,,A*4A
$GPRMC,202831.000,A,3748.7959,N,12217.8479,W,0.39,66.53,130711,,,A*40
$GPRMC,202832.000,A,3748.7961,N,12217.8477,W,0.38,52.90,130711,,,A*4F
$GPRMC,202833.000,A,3748.7963,N,12217.8476,W,0.22,1.58,130711,,,A*74
$GPRMC,202834.000,A,3748.7968,N,12217.8473,W,0.28,344.68,130711,,,A*76
$GPRMC,202835.000,A,3748.7971,N,12217.8471,W,0.31,321.23,130711,,,A*79
$GPRMC,202836.000,A,3748.7971,N,12217.8472,W,0.29,17.08,130711,,,A*4F
$GPRMC,202837.000,A,3748.7973,N,12217.8470,W,0.43,54.01,130711,,,A*4C
$GPRMC,202838.000,A,3748.7974,N,12217.8468,W,0.41,28.51,130711,,,A*41
$GPRMC,202839.000,A,3748.7973,N,12217.8467,W,0.16,41.54,130711,,,A*40
$GPRMC,202840.000,A,3748.7968,N,12217.8469,W,0.85,175.22,130711,,,A*77
$GPRMC,202841.000,A,3748.7965,N,12217.8471,W,0.53,166.96,130711,,,A*74
$GPRMC,202842.000,A,3748.7959,N,12217.8471,W,1.66,141.71,130711,,,A*73
$GPRMC,202843.000,A,3748.7955,N,12217.8468,W,1.67,119.66,130711,,,A*7C
$GPRMC,202844.000,A,3748.7950,N,12217.8463,W,1.92,130.49,130711,,,A*79
$GPRMC,202845.000,A,3748.7950,N,12217.8457,W,1.20,112.90,130711,,,A*72
$GPRMC,202846.000,A,3748.7946,N,12217.8453,W,1.03,84.37,130711,,,A*40
$GPRMC,202847.000,A,3748.7938,N,12217.8452,W,0.95,126.90,130711,,,A*73
$GPRMC,202848.000,A,3748.7935,N,12217.8448,W,1.34,112.75,130711,,,A*7C
$GPRMC,202849.000,A,3748.7934,N,12217.8447,W,1.27,145.09,130711,,,A*78
$GPRMC,202850.000,A,3748.7927,N,12217.8446,W,1.11,120.14,130711,,,A*79
$GPRMC,202851.000,A,3748.7923,N,12217.8443,W,1.40,132.58,130711,,,A*76
$GPRMC,202852.000,A,3748.7922,N,12217.8440,W,0.72,120.68,130711,,,A*77
$GPRMC,202853.000,A,3748.7916,N,12217.8435,W,0.51,104.15,130711,,,A*7E
$GPRMC,202854.000,A,3748.7906,N,12217.8434,W,1.83,136.76,130711,,,A*73
$GPRMC,202855.000,A,3748.7893,N,12217.8434,W,1.80,143.14,130711,,,A*7A
$GPRMC,202856.000,A,3748.7887,N,12217.8428,W,2.18,137.83,130711,,,A*7E
$GPRMC,202857.000,A,3748.7885,N,12217.8420,W,2.25,137.87,130711,,,A*7F
$GPRMC,202858.000,A,3748.7885,N,12217.8412,W,1.82,135.86,130711,,,A*7C
$GPRMC,202859.000,A,3748.7882,N,12217.8409,W,2.35,152.98,130711,,,A*71
$GPRMC,202900.000,A,3748.7878,N,12217.8409,W,1.27,154.79,130711,,,A*70
$GPRMC,202901.000,A,3748.7872,N,12217.8408,W,1.66,126.67,130711,,,A*75
$GPRMC,202902.000,A,3748.7873,N,12217.8406,W,0.75,115.90,130711,,,A*72
$GPRMC,202903.000,A,3748.7879,N,12217.8402,W,0.80,88.10,130711,,,A*4A
$GPRMC,202904.000,A,3748.7878,N,12217.8400,W,0.68,98.98,130711,,,A*49
$GPRMC,202905.000,A,3748.7876,N,12217.8397,W,1.27,141.65,130711,,,A*72
$GPRMC,202906.000,A,3748.7874,N,12217.8391,W,1.47,128.58,130711,,,A*72
$GPRMC,202907.000,A,3748.7865,N,12217.8389,W,1.87,154.47,130711,,,A*73
$GPRMC,202908.000,A,3748.7857,N,12217.8384,W,1.81,138.78,130711,,,A*70
$GPRMC,202909.000,A,3748.7851,N,12217.8383,W,1.41,165.68,130711,,,A*75
$GPRMC,202910.000,A,3748.7855,N,12217.8375,W,1.45,145.24,130711,,,A*7E
$GPRMC,202911.000,A,3748.7849,N,12217.8373,W,2.13,156.05,130711,,,A*75
$GPRMC,202912.000,A,3748.7836,N,12217.8374,W,2.35,159.89,130711,,,A*76
$GPRMC,202913.000,A,3748.7823,N,12217.8372,W,2.00,166.47,130711,,,A*7D
$GPRMC,202914.000,A,3748.7817,N,12217.8370,W,0.52,163.28,130711,,,A*76
$GPRMC,202915.000,A,3748.7815,N,12217.8366,W,0.95,191.69,130711,,,A*71
$GPRMC,202916.000,A,3748.7816,N,12217.8364,W,0.78,162.33,130711,,,A*73
$GPRMC,202917.000,A,3748.7819,N,12217.8356,W,1.90,81.97,130711,,,A*49
$GPRMC,202918.000,A,3748.7817,N,12217.8347,W,1.80,138.95,130711,,,A*78
$GPRMC,202919.000,A,3748.7809,N,12217.8343,W,1.65,124.51,130711,,,A*7C
$GPRMC,202920.000,A,3748.7800,N,12217.8340,W,1.76,143.34,130711,,,A*7C
$GPRMC,202921.000,A,3748.7791,N,12217.8340,W,2.04,155.58,130711,,,A*71
$GPRMC,202922.000,A,3748.7781,N,12217.8339,W,2.38,169.04,130711,,,A*74
$GPRMC,202923.000,A,3748.7781,N,12217.8333,W,1.94,148.00,130711,,,A*7D
$GPRMC,202924.000,A,3748.7780,N,12217.8329,W,1.28,103.50,130711,,,A*7D
$GPRMC,202925.000,A,3748.7785,N,12217.8319,W,3.33,71.98,130711,,,A*42
$GPRMC,202926.000,A,3748.7781,N,12217.8308,W,3.21,81.56,130711,,,A*4B
$GPRMC,202927.000,A,3748.7780,N,12217.8297,W,2.67,76.02,130711,,,A*46
$GPRMC,202928.000,A,3748.7778,N,12217.8284,W,1.95,104.00,130711,,,A*74
$GPRMC,202929.000,A,3748.7767,N,12217.8276,W,2.60,134.12,130711,,,A*7F
$GPRMC,202930.000,A,3748.7762,N,12217.8268,W,2.08,139.46,130711,,,A*7F
$GPRMC,202931.000,A,3748.7751,N,12217.8267,W,1.90,158.45,130711,,,A*77
$GPRMC,202932.000,A,3748.7744,N,12217.8266,W,2.20,154.97,130711,,,A*7A
$GPRMC,202933.000,A,3748.7727,N,12217.8267,W,3.29,164.17,130711,,,A*7C
$GPRMC,202934.000,A,3748.7724,N,12217.8262,W,2.64,144.29,130711,,,A*7A
$GPRMC,202935.000,A,3748.7721,N,12217.8256,W,2.08,129.88,130711,,,A*73
$GPRMC,202936.000,A,3748.7716,N,12217.8245,W,2.58,131.33,130711,,,A*7A
$GPRMC,202937.000,A,3748.7714,N,12217.8233,W,3.91,138.12,130711,,,A*76
$GPRMC,202938.000,A,3748.7712,N,12217.8220,W,3.00,138.03,130711,,,A*75
$GPRMC,202939.000,A,3748.7708,N,12217.8212,W,3.21,138.99,130711,,,A*7E
$GPRMC,202940.000,A,3748.7696,N,12217.8207,W,2.56,144.79,130711,,,A*76
$GPRMC,202941.000,A,3748.7690,N,12217.8206,W,2.31,158.15,130711,,,A*76
$GPRMC,202942.000,A,3748.7683,N,12217.8206,W,2.60,184.14,130711,,,A*73
$GPRMC,202943.000,A,3748.7683,N,12217.8201,W,1.84,134.84,130711,,,A*7E
$GPRMC,202944.000,A,3748.7681,N,12217.8195,W,2.67,109.23,130711,,,A*78
$GPRMC,202945.000,A,3748.7682,N,12217.8182,W,3.05,90.08,130711,,,A*41
$GPRMC,202946.000,A,3748.7695,N,12217.8168,W,2.61,64.31,130711,,,A*42
$GPRMC,202947.000,A,3748.7715,N,12217.8159,W,2.80,49.38,130711,,,A*41
$GPRMC,202948.000,A,3748.7719,N,12217.8153,W,2.82,45.80,130711,,,A*45
$GPRMC,202949.000,A,3748.7732,N,12217.8140,W,2.28,64.70,130711,,,A*43
$GPRMC,202950.000,A,3748.7736,N,12217.8128,W,1.58,87.53,130711,,,A*49
$GPRMC,202951.000,A,3748.7735,N,12217.8116,W,1.47,111.70,130711,,,A*77
$GPRMC,202952.000,A,3748.7727,N,12217.8108,W,2.03,127.80,130711,,,A*71
$GPRMC,202953.000,A,3748.7725,N,12217.8096,W,1.92,125.66,130711,,,A*75
$GPRMC,202954.000,A,3748.7720,N,12217.8084,W,1.45,132.87,130711,,,A*77
$GPRMC,202955.000,A,3748.7717,N,12217.8076,W,0.16,156.58,130711,,,A*78
$GPRMC,202956.000,A,3748.7711,N,12217.8070,W,0.92,132.86,130711,,,A*76
$GPRMC,202957.000,A,3748.7704,N,12217.8067,W,2.03,126.33,130711,,,A*74
$GPRMC,202958.000,A,3748.7699,N,12217.8057,W,2.55,124.42,130711,,,A*7A
$GPRMC,202959.000,A,3748.7697,N,12217.8048,W,2.29,107.95,130711,,,A*7B
$GPRMC,203000.000,A,3748.7699,N,12217.8038,W,1.86,88.69,130711,,,A*45
$GPRMC,203001.000,A,3748.7702,N,12217.8026,W,1.99,91.33,130711,,,A*41
$GPRMC,203002.000,A,3748.7706,N,12217.8007,W,2.50,92.12,130711,,,A*43
$GPRMC,203003.000,A,3748.7713,N,12217.7988,W,2.72,76.90,130711,,,A*47
$GPRMC,203004.000,A,3748.7698,N,12217.7991,W,2.30,117.80,130711,,,A*7B
$GPRMC,203005.000,A,3748.7682,N,12217.7993,W,2.81,148.72,130711,,,A*7E
$GPRMC,203006.000,A,3748.7675,N,12217.7988,W,2.42,115.61,130711,,,A*7A
$GPRMC,203007.000,A,3748.7662,N,12217.7985,W,2.85,149.38,130711,,,A*7E
$GPRMC,203008.000,A,3748.7660,N,12217.7979,W,3.07,135.06,130711,,,A*7D
$GPRMC,203009.000,A,3748.7656,N,12217.7972,W,2.81,127.44,130711,,,A*78
$GPRMC,203010.000,A,3748.7647,N,12217.7973,W,1.36,134.48,130711,,,A*70
$GPRMC,203011.000,A,3748.7643,N,12217.7975,W,0.81,127.14,130711,,,A*75
$GPRMC,203012.000,A,3748.7636,N,12217.7968,W,2.08,133.80,130711,,,A*73
$GPRMC,203013.000,A,3748.7627,N,12217.7961,W,2.52,121.16,130711,,,A*78
$GPRMC,203014.000,A,3748.7621,N,12217.7953,W,2.15,128.24,130711,,,A*73
$GPRMC,203015.000,A,3748.7620,N,12217.7945,W,2.39,138.81,130711,,,A*74
$GPRMC,203016.000,A,3748.7615,N,12217.7938,W,2.55,122.55,130711,,,A*73
$GPRMC,203017.000,A,3748.7607,N,12217.7931,W,2.35,144.87,130711,,,A*71
$GPRMC,203018.000,A,3748.7598,N,12217.7926,W,2.27,147.27,130711,,,A*77
$GPRMC,203019.000,A,3748.7601,N,12217.7914,W,1.79,107.47,130711,,,A*7E
$GPRMC,203020.000,A,3748.7602,N,12217.7910,W,2.09,124.24,130711,,,A*73
$GPRMC,203021.000,A,3748.7600,N,12217.7903,W,2.12,118.94,130711,,,A*7C
$GPRMC,203022.000,A,3748.7606,N,12217.7888,W,2.49,114.57,130711,,,A*76
$GPRMC,203023.000,A,3748.7601,N,12217.7880,W,2.66,114.50,130711,,,A*72
$GPRMC,203024.000,A,3748.7599,N,12217.7872,W,2.33,95.03,130711,,,A*44
$GPRMC,203025.000,A,3748.7595,N,12217.7865,W,2.59,80.66,130711,,,A*44
$GPRMC,203026.000,A,3748.7586,N,12217.7859,W,2.47,113.50,130711,,,A*7B
$GPRMC,203027.000,A,3748.7581,N,12217.7851,W,2.63,107.65,130711,,,A*70
$GPRMC,203028.000,A,3748.7571,N,12217.7846,W,2.57,123.00,130711,,,A*74
$GPRMC,203029.000,A,3748.7569,N,12217.7838,W,2.32,116.42,130711,,,A*76
$GPRMC,203030.000,A,3748.7557,N,12217.7835,W,2.71,127.24,130711,,,A*7B
$GPRMC,203031.000,A,3748.7559,N,12217.7824,W,2.68,94.59,130711,,,A*4F
$GPRMC,203032.000,A,3748.7570,N,12217.7804,W,2.12,94.08,130711,,,A*4C
$GPRMC,203033.000,A,3748.7574,N,12217.7791,W,2.28,115.03,130711,,,A*70
$GPRMC,203034.000,A,3748.7569,N,12217.7781,W,2.33,140.36,130711,,,A*76
$GPRMC,203035.000,A,3748.7560,N,12217.7778,W,2.46,146.80,130711,,,A*71
$GPRMC,203036.000,A,3748.7552,N,12217.7771,W,3.23,151.75,130711,,,A*74
$GPRMC,203037.000,A,3748.7540,N,12217.7770,W,2.45,152.26,130711,,,A*73
$GPRMC,203038.000,A,3748.7541,N,12217.7762,W,2.27,123.17,130711,,,A*7E
$GPRMC,203039.000,A,3748.7535,N,12217.7758,W,2.31,131.12,130711,,,A*74
$GPRMC,203040.000,A,3748.7524,N,12217.7756,W,2.27,139.50,130711,,,A*7D
$GPRMC,203041.000,A,3748.7519,N,12217.7751,W,2.22,128.36,130711,,,A*70
$GPRMC,203042.000,A,3748.7511,N,12217.7747,W,1.82,133.98,130711,,,A*7B
$GPRMC,203043.000,A,3748.7514,N,12217.7743,W,0.33,198.09,130711,,,A*79
$GPRMC,203044.000,A,3748.7523,N,12217.7737,W,0.17,278.18,130711,,,A*72
$GPRMC,203045.000,A,3748.7533,N,12217.7733,W,0.45,329.48,130711,,,A*71
$GPRMC,203046.000,A,3748.7537,N,12217.7728,W,1.13,169.10,130711,,,A*75
$GPRMC,203047.000,A,3748.7540,N,12217.7719,W,1.48,157.53,130711,,,A*72
$GPRMC,203048.000,A,3748.7536,N,12217.7711,W,2.44,124.65,130711,,,A*7A
$GPRMC,203049.000,A,3748.7524,N,12217.7706,W,2.82,127.89,130711,,,A*75
$GPRMC,203050.000,A,3748.7521,N,12217.7698,W,2.13,146.34,130711,,,A*77
$GPRMC,203051.000,A,3748.7512,N,12217.7696,W,2.23,154.88,130711,,,A*7F
$GPRMC,203052.000,A,3748.7502,N,12217.7693,W,2.51,140.37,130711,,,A*7C
$GPRMC,203053.000,A,3748.7493,N,12217.7688,W,2.48,132.16,130711,,,A*70
$GPRMC,203054.000,A,3748.7487,N,12217.7682,W,2.19,120.52,130711,,,A*7F
$GPRMC,203055.000,A,3748.7482,N,12217.7676,W,2.01,138.47,130711,,,A*74
$GPRMC,203056.000,A,3748.7475,N,12217.7670,W,2.13,147.67,130711,,,A*70
$GPRMC,203057.000,A,3748.7470,N,12217.7662,W,2.63,139.42,130711,,,A*7E
$GPRMC,203058.000,A,3748.7467,N,12217.7656,W,2.18,137.76,130711,,,A*75
$GPRMC,203059.000,A,3748.7465,N,12217.7647,W,2.35,149.48,130711,,,A*7D
$GPRMC,203100.000,A,3748.7459,N,12217.7645,W,1.87,148.85,130711,,,A*77
$GPRMC,203101.000,A,3748.7463,N,12217.7635,W,1.90,137.61,130711,,,A*7C
$GPRMC,203102.000,A,3748.7462,N,12217.7625,W,2.08,121.47,130711,,,A*7E
$GPRMC,203103.000,A,3748.7463,N,12217.7609,W,2.77,114.89,130711,,,A*7C
$GPRMC,203104.000,A,3748.7459,N,12217.7602,W,2.06,119.91,130711,,,A*7B
$GPRMC,203105.000,A,3748.7452,N,12217.7598,W,2.05,115.10,130711,,,A*77
$GPRMC,203106.000,A,3748.7453,N,12217.7587,W,2.32,113.32,130711,,,A*79
$GPRMC,203107.000,A,3748.7453,N,12217.7578,W,2.25,130.41,130711,,,A*7B
$GPRMC,203108.000,A,3748.7451,N,12217.7569,W,2.15,117.09,130711,,,A*7C
$GPRMC,203109.000,A,3748.7448,N,12217.7564,W,1.74,94.63,130711,,,A*4A
$GPRMC,203110.000,A,3748.7452,N,12217.7553,W,1.97,109.81,130711,,,A*79
$GPRMC,203111.000,A,3748.7450,N,12217.7546,W,2.35,115.12,130711,,,A*72
$GPRMC,203112.000,A,3748.7448,N,12217.7538,W,2.54,111.52,130711,,,A*76
$GPRMC,203113.000,A,3748.7449,N,12217.7527,W,2.36,112.98,130711,,,A*79
$GPRMC,203114.000,A,3748.7449,N,12217.7518,W,2.32,101.65,130711,,,A*76
$GPRMC,203115.000,A,3748.7449,N,12217.7515,W,1.16,85.49,130711,,,A*4C
$GPRMC,203116.000,A,3748.7436,N,12217.7514,W,1.62,135.31,130711,,,A*70
$GPRMC,203117.000,A,3748.7437,N,12217.7506,W,1.81,129.28,130711,,,A*7B
$GPRMC,203118.000,A,3748.7428,N,12217.7501,W,1.78,140.32,130711,,,A*7F
$GPRMC,203119.000,A,3748.7423,N,12217.7496,W,2.10,165.43,130711,,,A*76
$GPRMC,203120.000,A,3748.7417,N,12217.7497,W,1.58,181.87,130711,,,A*77
$GPRMC,203121.000,A,3748.7406,N,12217.7497,W,2.30,150.85,130711,,,A*75
$GPRMC,203122.000,A,3748.7399,N,12217.7490,W,1.89,129.38,130711,,,A*79
$GPRMC,203123.000,A,3748.7398,N,12217.7480,W,2.16,131.20,130711,,,A*7D
$GPRMC,203124.000,A,3748.7395,N,12217.7473,W,1.44,115.23,130711,,,A*7A
$GPRMC,203125.000,A,3748.7396,N,12217.7460,W,2.48,123.57,130711,,,A*73
$GPRMC,203126.000,A,3748.7386,N,12217.7452,W,2.50,130.21,130711,,,A*7A
$GPRMC,203127.000,A,3748.7382,N,12217.7448,W,2.11,121.03,130711,,,A*71
$GPRMC,203128.000,A,3748.7379,N,12217.7438,W,2.03,120.62,130711,,,A*78
$GPRMC,203129.000,A,3748.7375,N,12217.7432,W,1.49,128.07,130711,,,A*79
$GPRMC,203130.000,A,3748.7375,N,12217.7419,W,2.67,130.29,130711,,,A*72
$GPRMC,203131.000,A,3748.7379,N,12217.7402,W,2.48,107.07,130711,,,A*70
$GPRMC,203132.000,A,3748.7384,N,12217.7388,W,1.68,82.97,130711,,,A*40
$GPRMC,203133.000,A,3748.7385,N,12217.7380,W,2.23,131.10,130711,,,A*72
$GPRMC,203134.000,A,3748.7379,N,12217.7377,W,1.85,125.55,130711,,,A*75
$GPRMC,203135.000,A,3748.7373,N,12217.7373,W,1.52,137.18,130711,,,A*7A
$GPRMC,203136.000,A,3748.7377,N,12217.7362,W,1.46,137.27,130711,,,A*74
$GPRMC,203137.000,A,3748.7377,N,12217.7356,W,1.33,135.68,130711,,,A*79
$GPRMC,203138.000,A,3748.7367,N,12217.7349,W,1.88,136.35,130711,,,A*72
$GPRMC,203139.000,A,3748.7357,N,12217.7346,W,1.62,127.38,130711,,,A*76
$GPRMC,203140.000,A,3748.7356,N,12217.7335,W,2.59,119.62,130711,,,A*74
$GPRMC,203141.000,A,3748.7360,N,12217.7325,W,2.08,115.55,130711,,,A*7D
$GPRMC,203142.000,A,3748.7355,N,12217.7317,W,2.52,126.21,130711,,,A*75
$GPRMC,203143.000,A,3748.7356,N,12217.7306,W,2.28,117.85,130711,,,A*76
$GPRMC,203144.000,A,3748.7353,N,12217.7296,W,1.88,99.56,130711,,,A*4C
$GPRMC,203145.000,A,3748.7357,N,12217.7282,W,2.07,77.98,130711,,,A*4A
$GPRMC,203146.000,A,3748.7360,N,12217.7272,W,2.04,66.09,130711,,,A*49
$GPRMC,203147.000,A,3748.7355,N,12217.7267,W,1.73,101.93,130711,,,A*7A
$GPRMC,203148.000,A,3748.7354,N,12217.7260,W,1.74,62.92,130711,,,A*41
$GPRMC,203149.000,A,3748.7354,N,12217.7251,W,1.00,69.90,130711,,,A*48
$GPRMC,203150.000,A,3748.7355,N,12217.7240,W,1.66,91.99,130711,,,A*4F
$GPRMC,203151.000,A,3748.7351,N,12217.7233,W,2.02,135.22,130711,,,A*70
$GPRMC,203152.000,A,3748.7334,N,12217.7234,W,2.61,157.71,130711,,,A*70
$GPRMC,203153.000,A,3748.7319,N,12217.7231,W,2.41,156.73,130711,,,A*7A
$GPRMC,203154.000,A,3748.7310,N,12217.7226,W,2.33,155.20,130711,,,A*72
$GPRMC,203155.000,A,3748.7303,N,12217.7219,W,2.21,151.81,130711,,,A*71
$GPRMC,203156.000,A,3748.7300,N,12217.7213,W,1.87,154.00,130711,,,A*78
$GPRMC,203157.000,A,3748.7297,N,12217.7208,W,1.91,147.21,130711,,,A*7A
$GPRMC,203158.000,A,3748.7294,N,12217.7199,W,2.67,130.82,130711,,,A*7E
$GPRMC,203159.000,A,3748.7290,N,12217.7186,W,2.47,120.03,130711,,,A*7F
$GPRMC,203200.000,A,3748.7283,N,12217.7180,W,2.24,116.62,130711,,,A*73
$GPRMC,203201.000,A,3748.7282,N,12217.7170,W,2.58,79.18,130711,,,A*42
$GPRMC,203202.000,A,3748.7280,N,12217.7162,W,1.91,71.49,130711,,,A*4A
$GPRMC,203203.000,A,3748.7288,N,12217.7153,W,2.09,42.39,130711,,,A*44
$GPRMC,203204.000,A,3748.7290,N,12217.7146,W,1.04,62.84,130711,,,A*44
$GPRMC,203205.000,A,3748.7303,N,12217.7134,W,1.90,51.80,130711,,,A*42
$GPRMC,203206.000,A,3748.7311,N,12217.7127,W,1.44,28.36,130711,,,A*4A
$GPRMC,203207.000,A,3748.7323,N,12217.7123,W,2.22,11.76,130711,,,A*43
$GPRMC,203208.000,A,3748.7330,N,12217.7114,W,3.20,22.09,130711,,,A*41
$GPRMC,203209.000,A,3748.7332,N,12217.7110,W,2.08,10.08,130711,,,A*4D
$GPRMC,203210.000,A,3748.7338,N,12217.7104,W,1.86,11.04,130711,,,A*42
$GPRMC,203211.000,A,3748.7341,N,12217.7100,W,1.47,38.78,130711,,,A*44
$GPRMC,203212.000,A,3748.7339,N,12217.7094,W,0.44,75.12,130711,,,A*43
$GPRMC,203213.000,A,3748.7337,N,12217.7090,W,0.30,114.86,130711,,,A*70
$GPRMC,203214.000,A,3748.7341,N,12217.7086,W,0.88,16.18,130711,,,A*46
$GPRMC,203215.000,A,3748.7343,N,12217.7086,W,0.74,15.84,130711,,,A*40
$GPRMC,203216.000,A,3748.7343,N,12217.7084,W,0.45,329.02,130711,,,A*71
$GPRMC,203217.000,A,3748.7349,N,12217.7082,W,0.58,343.96,130711,,,A*71
$GPRMC,203218.000,A,3748.7355,N,12217.7080,W,0.82,4.60,130711,,,A*7F
$GPRMC,203219.000,A,3748.7363,N,12217.7079,W,0.71,328.90,130711,,,A*73
$GPRMC,203220.000,A,3748.7367,N,12217.7077,W,0.12,315.70,130711,,,A*76
$GPRMC,203221.000,A,3748.7368,N,12217.7076,W,0.04,358.78,130711,,,A*7F
$GPRMC,203222.000,A,3748.7374,N,12217.7074,W,0.10,84.68,130711,,,A*45
$GPRMC,203223.000,A,3748.7373,N,12217.7074,W,0.28,336.43,130711,,,A*7B
$GPRMC,203224.000,A,3748.7377,N,12217.7068,W,1.03,30.82,130711,,,A*45
$GPRMC,203225.000,A,3748.7387,N,12217.7062,W,1.64,12.65,130711,,,A*49
$GPRMC,203226.000,A,3748.7397,N,12217.7061,W,1.83,18.35,130711,,,A*4E
$GPRMC,203227.000,A,3748.7404,N,12217.7056,W,1.13,8.14,130711,,,A*7D
$GPRMC,203228.000,A,3748.7407,N,12217.7052,W,0.67,7.23,130711,,,A*7C
$GPRMC,203229.000,A,3748.7413,N,12217.7049,W,0.85,344.29,130711,,,A*70
$GPRMC,203230.000,A,3748.7412,N,12217.7049,W,0.72,42.70,130711,,,A*48
$GPRMC,203231.000,A,3748.7408,N,12217.7049,W,0.59,64.91,130711,,,A*40
$GPRMC,203232.000,A,3748.7407,N,12217.7048,W,0.75,341.69,130711,,,A*70
$GPRMC,203233.000,A,3748.7409,N,12217.7047,W,0.82,344.88,130711,,,A*72
$GPRMC,203234.000,A,3748.7413,N,12217.7048,W,0.91,12.28,130711,,,A*49
$GPRMC,203235.000,A,3748.7417,N,12217.7044,W,0.35,18.58,130711,,,A*43
$GPRMC,203236.000,A,3748.7420,N,12217.7041,W,0.67,35.97,130711,,,A*4A
$GPRMC,203237.000,A,3748.7417,N,12217.7044,W,0.39,11.32,130711,,,A*48
$GPRMC,203238.000,A,3748.7421,N,12217.7045,W,0.45,86.87,130711,,,A*48
$GPRMC,203239.000,A,3748.7433,N,12217.7041,W,0.39,27.55,130711,,,A*41
$GPRMC,203240.000,A,3748.7441,N,12217.7036,W,1.13,44.79,130711,,,A*48
$GPRMC,203241.000,A,3748.7447,N,12217.7031,W,1.73,36.35,130711,,,A*43
$GPRMC,203242.000,A,3748.7453,N,12217.7029,W,2.39,21.83,130711,,,A*4A
$GPRMC,203243.000,A,3748.7467,N,12217.7023,W,2.45,20.13,130711,,,A*45
$GPRMC,203244.000,A,3748.7474,N,12217.7018,W,1.85,6.28,130711,,,A*7B
$GPRMC,203245.000,A,3748.7473,N,12217.7012,W,2.33,355.53,130711,,,A*70
$GPRMC,203246.000,A,3748.7478,N,12217.7009,W,2.24,359.47,130711,,,A*7D
$GPRMC,203247.000,A,3748.7488,N,12217.7003,W,2.07,10.75,130711,,,A*47
$GPRMC,203248.000,A,3748.7489,N,12217.7000,W,1.50,7.99,130711,,,A*7F
$GPRMC,203249.000,A,3748.7497,N,12217.6998,W,1.66,4.16,130711,,,A*79
$GPRMC,203250.000,A,3748.7509,N,12217.6992,W,2.01,16.56,130711,,,A*48
$GPRMC,203251.000,A,3748.7517,N,12217.6990,W,2.30,2.27,130711,,,A*75
$GPRMC,203252.000,A,3748.7532,N,12217.6983,W,2.55,2.24,130711,,,A*73
$GPRMC,203253.000,A,3748.7539,N,12217.6980,W,2.76,8.45,130711,,,A*76
$GPRMC,203254.000,A,3748.7553,N,12217.6972,W,2.12,6.20,130711,,,A*7F
$GPRMC,203255.000,A,3748.7567,N,12217.6963,W,2.97,10.19,130711,,,A*49
$GPRMC,203256.000,A,3748.7574,N,12217.6959,W,2.36,14.77,130711,,,A*46
$GPRMC,203257.000,A,3748.7583,N,12217.6951,W,2.29,9.21,130711,,,A*76
$GPRMC,203258.000,A,3748.7596,N,12217.6942,W,3.25,20.80,130711,,,A*42
$GPRMC,203259.000,A,3748.7601,N,12217.6940,W,2.84,15.48,130711,,,A*44
$GPRMC,203300.000,A,3748.7606,N,12217.6939,W,2.16,5.92,130711,,,A*7D
$GPRMC,203301.000,A,3748.7610,N,12217.6943,W,2.52,354.96,130711,,,A*75
$GPRMC,203302.000,A,3748.7623,N,12217.6939,W,2.11,8.53,130711,,,A*7F
$GPRMC,203303.000,A,3748.7627,N,12217.6939,W,2.29,357.80,130711,,,A*76
$GPRMC,203304.000,A,3748.7632,N,12217.6937,W,2.33,6.24,130711,,,A*79
$GPRMC,203305.000,A,3748.7638,N,12217.6933,W,2.71,19.09,130711,,,A*41
$GPRMC,203306.000,A,3748.7651,N,12217.6928,W,2.77,19.83,130711,,,A*43
$GPRMC,203307.000,A,3748.7658,N,12217.6919,W,3.05,30.05,130711,,,A*48
$GPRMC,203308.000,A,3748.7660,N,12217.6904,W,3.19,27.42,130711,,,A*48
$GPRMC,203309.000,A,3748.7666,N,12217.6896,W,3.00,19.99,130711,,,A*46
$GPRMC,203310.000,A,3748.7672,N,12217.6887,W,2.16,2.95,130711,,,A*7B
$GPRMC,203311.000,A,3748.7676,N,12217.6880,W,2.20,14.52,130711,,,A*40
$GPRMC,203312.000,A,3748.7680,N,12217.6874,W,2.36,21.09,130711,,,A*4E
$GPRMC,203313.000,A,3748.7685,N,12217.6867,W,2.16,9.16,130711,,,A*7E
$GPRMC,203314.000,A,3748.7687,N,12217.6865,W,2.32,0.36,130711,,,A*74
$GPRMC,203315.000,A,3748.7693,N,12217.6856,W,2.51,27.94,130711,,,A*48
$GPRMC,203316.000,A,3748.7698,N,12217.6846,W,2.07,25.26,130711,,,A*49
$GPRMC,203317.000,A,3748.7699,N,12217.6847,W,1.36,2.41,130711,,,A*7D
$GPRMC,203318.000,A,3748.7698,N,12217.6843,W,1.40,24.36,130711,,,A*42
$GPRMC,203319.000,A,3748.7697,N,12217.6840,W,1.10,53.12,130711,,,A*4C
$GPRMC,203320.000,A,3748.7697,N,12217.6838,W,1.92,38.09,130711,,,A*44
$GPRMC,203321.000,A,3748.7697,N,12217.6838,W,1.74,22.43,130711,,,A*48
$GPRMC,203322.000,A,3748.7704,N,12217.6834,W,1.43,17.12,130711,,,A*4A
$GPRMC,203323.000,A,3748.7710,N,12217.6825,W,1.74,24.88,130711,,,A*49
$GPRMC,203324.000,A,3748.7711,N,12217.6822,W,1.83,18.28,130711,,,A*45
$GPRMC,203325.000,A,3748.7716,N,12217.6812,W,1.30,8.28,130711,,,A*79
$GPRMC,203326.000,A,3748.7721,N,12217.6806,W,1.06,346.36,130711,,,A*78
$GPRMC,203327.000,A,3748.7723,N,12217.6804,W,1.61,21.61,130711,,,A*48
$GPRMC,203328.000,A,3748.7718,N,12217.6805,W,0.93,323.61,130711,,,A*73
$GPRMC,203329.000,A,3748.7710,N,12217.6807,W,1.00,322.71,130711,,,A*73
$GPRMC,203330.000,A,3748.7710,N,12217.6804,W,1.43,20.76,130711,,,A*49
$GPRMC,203331.000,A,3748.7713,N,12217.6796,W,1.91,36.47,130711,,,A*45
$GPRMC,203332.000,A,3748.7710,N,12217.6794,W,0.71,104.29,130711,,,A*70
$GPRMC,203333.000,A,3748.7707,N,12217.6796,W,0.42,55.44,130711,,,A*4B
$GPRMC,203334.000,A,3748.7715,N,12217.6790,W,1.58,19.04,130711,,,A*4F
$GPRMC,203335.000,A,3748.7726,N,12217.6776,W,2.67,36.79,130711,,,A*4E
$GPRMC,203336.000,A,3748.7734,N,12217.6767,W,1.40,49.47,130711,,,A*4D
$GPRMC,203337.000,A,3748.7746,N,12217.6755,W,2.35,45.55,130711,,,A*46
$GPRMC,203338.000,A,3748.7758,N,12217.6736,W,2.28,53.57,130711,,,A*4A
$GPRMC,203339.000,A,3748.7766,N,12217.6726,W,1.69,57.47,130711,,,A*44
$GPRMC,203340.000,A,3748.7774,N,12217.6719,W,1.36,34.62,130711,,,A*4D
$GPRMC,203341.000,A,3748.7783,N,12217.6710,W,1.67,37.83,130711,,,A*45
$GPRMC,203342.000,A,3748.7787,N,12217.6699,W,1.53,35.17,130711,,,A*4A
$GPRMC,203343.000,A,3748.7791,N,12217.6699,W,0.44,43.04,130711,,,A*48
$GPRMC,203344.000,A,3748.7803,N,12217.6698,W,1.66,27.71,130711,,,A*4B
$GPRMC,203345.000,A,3748.7808,N,12217.6691,W,1.68,19.02,130711,,,A*4F
$GPRMC,203346.000,A,3748.7814,N,12217.6684,W,1.42,30.77,130711,,,A*44
$GPRMC,203347.000,A,3748.7818,N,12217.6679,W,1.65,47.85,130711,,,A*43
$GPRMC,203348.000,A,3748.7825,N,12217.6674,W,1.38,20.06,130711,,,A*4D
$GPRMC,203349.000,A,3748.7828,N,12217.6672,W,1.31,29.70,130711,,,A*46
$GPRMC,203350.000,A,3748.7828,N,12217.6671,W,0.56,80.76,130711,,,A*48
$GPRMC,203351.000,A,3748.7836,N,12217.6668,W,0.56,158.48,130711,,,A*77
$GPRMC,203352.000,A,3748.7833,N,12217.6667,W,0.81,227.17,130711,,,A*75
$GPRMC,203353.000,A,3748.7830,N,12217.6669,W,0.43,329.28,130711,,,A*74
$GPRMC,203354.000,A,3748.7835,N,12217.6667,W,0.69,6.70,130711,,,A*73
$GPRMC,203355.000,A,3748.7841,N,12217.6664,W,1.06,33.10,130711,,,A*4A
$GPRMC,203356.000,A,3748.7835,N,12217.6669,W,0.60,227.81,130711,,,A*79
$GPRMC,203357.000,A,3748.7835,N,12217.6676,W,0.66,230.26,130711,,,A*7B
$GPRMC,203358.000,A,3748.7839,N,12217.6672,W,0.10,106.01,130711,,,A*7E
$GPRMC,203359.000,A,3748.7846,N,12217.6673,W,0.66,304.71,130711,,,A*70
$GPRMC,203400.000,A,3748.7846,N,12217.6671,W,0.55,265.19,130711,,,A*71
$GPRMC,203401.000,A,3748.7837,N,12217.6675,W,0.33,172.58,130711,,,A*72
$GPRMC,203402.000,A,3748.7836,N,12217.6668,W,1.10,85.00,130711,,,A*48
$GPRMC,203403.000,A,3748.7833,N,12217.6661,W,0.92,67.30,130711,,,A*41
$GPRMC,203404.000,A,3748.7834,N,12217.6657,W,0.88,34.60,130711,,,A*4C
$GPRMC,203405.000,A,3748.7835,N,12217.6662,W,1.50,346.56,130711,,,A*7D
$GPRMC,203406.000,A,3748.7842,N,12217.6669,W,2.70,325.82,130711,,,A*78
$GPRMC,203407.000,A,3748.7851,N,12217.6671,W,2.99,340.56,130711,,,A*7F
$GPRMC,203408.000,A,3748.7857,N,12217.6672,W,2.48,314.11,130711,,,A*7B
$GPRMC,203409.000,A,3748.7858,N,12217.6676,W,1.07,307.02,130711,,,A*79
$GPRMC,203410.000,A,3748.7854,N,12217.6673,W,1.11,235.15,130711,,,A*79
$GPRMC,203411.000,A,3748.7857,N,12217.6667,W,0.30,161.95,130711,,,A*76
$GPRMC,203412.000,A,3748.7860,N,12217.6660,W,0.15,189.54,130711,,,A*7A
$GPRMC,203413.000,A,3748.7849,N,12217.6672,W,0.22,171.11,130711,,,A*71
$GPRMC,203414.000,A,3748.7843,N,12217.6676,W,0.38,212.14,130711,,,A*70
$GPRMC,203415.000,A,3748.7841,N,12217.6671,W,0.60,87.08,130711,,,A*4A
$GPRMC,203416.000,A,3748.7839,N,12217.6669,W,0.06,6.85,130711,,,A*73
$GPRMC,203417.000,A,3748.7835,N,12217.6674,W,0.27,50.12,130711,,,A*4C
$GPRMC,203418.000,A,3748.7833,N,12217.6672,W,0.79,33.39,130711,,,A*44
$GPRMC,203419.000,A,3748.7832,N,12217.6670,W,1.31,60.26,130711,,,A*43
$GPRMC,203420.000,A,3748.7838,N,12217.6662,W,1.42,58.76,130711,,,A*4A
$GPRMC,203421.000,A,3748.7846,N,12217.6655,W,2.54,46.96,130711,,,A*43
$GPRMC,203422.000,A,3748.7846,N,12217.6647,W,2.00,43.00,130711,,,A*48
$GPRMC,203423.000,A,3748.7844,N,12217.6643,W,1.39,22.29,130711,,,A*4A
$GPRMC,203424.000,A,3748.7846,N,12217.6629,W,1.84,22.65,130711,,,A*4D
$GPRMC,203425.000,A,3748.7850,N,12217.6625,W,2.15,18.65,130711,,,A*45
$GPRMC,203426.000,A,3748.7852,N,12217.6622,W,3.02,39.55,130711,,,A*44
$GPRMC,203427.000,A,3748.7859,N,12217.6609,W,2.80,35.57,130711,,,A*42
$GPRMC,203428.000,A,3748.7875,N,12217.6596,W,2.79,22.19,130711,,,A*4C
$GPRMC,203429.000,A,3748.7882,N,12217.6585,W,2.40,19.29,130711,,,A*46
$GPRMC,203430.000,A,3748.7890,N,12217.6581,W,2.24,18.08,130711,,,A*49
$GPRMC,203431.000,A,3748.7893,N,12217.6575,W,2.48,26.76,130711,,,A*4E
$GPRMC,203432.000,A,3748.7901,N,12217.6564,W,2.04,37.37,130711,,,A*4A
$GPRMC,203433.000,A,3748.7906,N,12217.6558,W,1.50,47.70,130711,,,A*45
$GPRMC,203434.000,A,3748.7909,N,12217.6555,W,0.97,72.65,130711,,,A*48
$GPRMC,203435.000,A,3748.7905,N,12217.6554,W,0.04,357.62,130711,,,A*7D
$GPRMC,203436.000,A,3748.7906,N,12217.6553,W,0.71,294.74,130711,,,A*71
$GPRMC,203437.000,A,3748.7917,N,12217.6549,W,1.47,350.16,130711,,,A*72
$GPRMC,203438.000,A,3748.7923,N,12217.6548,W,0.59,319.69,130711,,,A*70
$GPRMC,203439.000,A,3748.7929,N,12217.6545,W,0.77,334.06,130711,,,A*7C
$GPRMC,203440.000,A,3748.7936,N,12217.6541,W,0.60,337.54,130711,,,A*7A
$GPRMC,203441.000,A,3748.7947,N,12217.6535,W,1.10,334.15,130711,,,A*7E
$GPRMC,203442.000,A,3748.7960,N,12217.6533,W,0.88,298.30,130711,,,A*7E
$GPRMC,203443.000,A,3748.7972,N,12217.6532,W,1.00,356.01,130711,,,A*7D
$GPRMC,203444.000,A,3748.7980,N,12217.6529,W,1.64,26.30,130711,,,A*49
$GPRMC,203445.000,A,3748.7988,N,12217.6521,W,2.13,22.16,130711,,,A*4B
$GPRMC,203446.000,A,3748.8005,N,12217.6511,W,2.31,11.00,130711,,,A*4F
$GPRMC,203447.000,A,3748.8017,N,12217.6501,W,1.55,31.45,130711,,,A*4E
$GPRMC,203448.000,A,3748.8031,N,12217.6498,W,1.50,15.10,130711,,,A*47
$GPRMC,203449.000,A,3748.8036,N,12217.6499,W,0.92,357.86,130711,,,A*75
$GPRMC,203450.000,A,3748.8041,N,12217.6498,W,1.22,17.23,130711,,,A*4E
$GPRMC,203451.000,A,3748.8054,N,12217.6489,W,2.77,28.62,130711,,,A*41
$GPRMC,203452.000,A,3748.8061,N,12217.6485,W,2.01,14.12,130711,,,A*41
$GPRMC,203453.000,A,3748.8064,N,12217.6483,W,1.64,10.57,130711,,,A*46
$GPRMC,203454.000,A,3748.8071,N,12217.6481,W,1.72,11.79,130711,,,A*4D
$GPRMC,203455.000,A,3748.8081,N,12217.6474,W,2.05,13.88,130711,,,A*46
$GPRMC,203456.000,A,3748.8094,N,12217.6470,W,2.95,2.20,130711,,,A*7E
$GPRMC,203457.000,A,3748.8101,N,12217.6474,W,2.32,350.79,130711,,,A*73
$GPRMC,203458.000,A,3748.8098,N,12217.6481,W,0.75,11.30,130711,,,A*4D
$GPRMC,203459.000,A,3748.8101,N,12217.6484,W,1.11,28.50,130711,,,A*47
$GPRMC,203500.000,A,3748.8104,N,12217.6486,W,1.12,25.09,130711,,,A*4F
$GPRMC,203501.000,A,3748.8108,N,12217.6490,W,1.02,26.80,130711,,,A*46
$GPRMC,203502.000,A,3748.8110,N,12217.6493,W,1.39,9.18,130711,,,A*7B
$GPRMC,203503.000,A,3748.8110,N,12217.6493,W,0.89,34.36,130711,,,A*42
$GPRMC,203504.000,A,3748.8109,N,12217.6492,W,1.09,14.65,130711,,,A*41
$GPRMC,203505.000,A,3748.8109,N,12217.6495,W,1.55,1.42,130711,,,A*7F
$GPRMC,203506.000,A,3748.8108,N,12217.6500,W,1.96,352.38,130711,,,A*77
$GPRMC,203507.000,A,3748.8105,N,12217.6505,W,1.24,356.14,130711,,,A*7D
$GPRMC,203508.000,A,3748.8103,N,12217.6509,W,0.58,37.06,130711,,,A*45
$GPRMC,203509.000,A,3748.8106,N,12217.6515,W,0.86,355.12,130711,,,A*7D
$GPRMC,203510.000,A,3748.8102,N,12217.6517,W,0.31,86.76,130711,,,A*40
$GPRMC,203511.000,A,3748.8092,N,12217.6519,W,1.15,56.01,130711,,,A*4D
$GPRMC,203512.000,A,3748.8091,N,12217.6518,W,0.76,26.39,130711,,,A*44
$GPRMC,203513.000,A,3748.8083,N,12217.6523,W,0.46,151.40,130711,,,A*72
$GPRMC,203514.000,A,3748.8082,N,12217.6523,W,0.08,60.52,130711,,,A*4E
$GPRMC,203515.000,A,3748.8080,N,12217.6524,W,0.09,68.70,130711,,,A*43
$GPRMC,203516.000,A,3748.8079,N,12217.6524,W,0.11,40.20,130711,,,A*40
$GPRMC,203517.000,A,3748.8079,N,12217.6524,W,0.11,40.20,130711,,,E*45
$GPRMC,203518.000,A,3748.8084,N,12217.6517,W,0.76,89.06,130711,,,A*4C
$GPRMC,203519.000,A,3748.8081,N,12217.6521,W,0.54,211.48,130711,,,A*74
$GPRMC,203520.000,A,3748.8077,N,12217.6525,W,0.19,209.88,130711,,,A*7F
$GPRMC,203521.000,A,3748.8075,N,12217.6525,W,0.07,204.79,130711,,,A*70
$GPRMC,203522.000,A,3748.8078,N,12217.6520,W,0.13,62.34,130711,,,A*45
$GPRMC,203523.000,A,3748.8078,N,12217.6517,W,0.20,187.63,130711,,,A*78
$GPRMC,203524.000,A,3748.8077,N,12217.6519,W,0.22,234.63,130711,,,A*77
$GPRMC,203525.000,A,3748.8071,N,12217.6525,W,0.30,227.26,130711,,,A*7F
$GPRMC,203526.000,A,3748.8071,N,12217.6524,W,0.02,226.11,130711,,,A*79
$GPRMC,203527.000,A,3748.8069,N,12217.6527,W,0.27,259.65,130711,,,A*7E
$GPRMC,203528.000,A,3748.8063,N,12217.6532,W,0.36,204.25,130711,,,A*73
$GPRMC,203529.000,A,3748.8071,N,12217.6526,W,0.99,34.13,130711,,,A*45
$GPRMC,203530.000,A,3748.8074,N,12217.6524,W,1.74,28.92,130711,,,A*4C
$GPRMC,203531.000,A,3748.8086,N,12217.6517,W,1.61,27.28,130711,,,A*4A
$GPRMC,203532.000,A,3748.8068,N,12217.6531,W,0.35,218.27,130711,,,A*7C
$GPRMC,203533.000,A,3748.8060,N,12217.6537,W,0.30,207.27,130711,,,A*78
$GPRMC,203534.000,A,3748.8047,N,12217.6546,W,0.63,203.64,130711,,,A*79
$GPRMC,203535.000,A,3748.8039,N,12217.6551,W,0.65,204.26,130711,,,A*70
$GPRMC,203536.000,A,3748.8037,N,12217.6552,W,0.30,215.24,130711,,,A*7C
$GPRMC,203537.000,A,3748.8038,N,12217.6552,W,0.27,221.62,130711,,,A*71
$GPRMC,203538.000,A,3748.8039,N,12217.6551,W,0.10,121.96,130711,,,A*70
$GPRMC,203539.000,A,3748.8037,N,12217.6552,W,0.20,200.14,130711,,,A*75
$GPRMC,203540.000,A,3748.8035,N,12217.6554,W,0.38,206.67,130711,,,A*74
$GPRMC,203541.000,A,3748.8036,N,12217.6553,W,0.22,29.39,130711,,,A*4E
$GPRMC,203542.000,A,3748.8033,N,12217.6556,W,0.44,208.86,130711,,,A*78
$GPRMC,203543.000,A,3748.8027,N,12217.6559,W,0.59,201.78,130711,,,A*77
$GPRMC,203544.000,A,3748.8023,N,12217.6562,W,0.48,207.17,130711,,,A*73
$GPRMC,203545.000,A,3748.8013,N,12217.6569,W,1.47,208.49,130711,,,A*70
$GPRMC,203546.000,A,3748.8006,N,12217.6574,W,1.29,210.32,130711,,,A*76
$GPRMC,203547.000,A,3748.7997,N,12217.6580,W,1.01,207.64,130711,,,A*7D
$GPRMC,203548.000,A,3748.7989,N,12217.6586,W,1.89,210.21,130711,,,A*7C
$GPRMC,203549.000,A,3748.7981,N,12217.6592,W,1.47,208.67,130711,,,A*79
$GPRMC,203550.000,A,3748.7972,N,12217.6598,W,1.21,208.88,130711,,,A*76
$GPRMC,203551.000,A,3748.7969,N,12217.6600,W,1.54,221.52,130711,,,A*71
$GPRMC,203552.000,A,3748.7972,N,12217.6599,W,0.75,196.89,130711,,,A*70
$GPRMC,203553.000,A,3748.7977,N,12217.6596,W,0.59,209.76,130711,,,A*70
$GPRMC,203554.000,A,3748.7994,N,12217.6584,W,0.28,348.80,130711,,,A*72
$GPRMC,203555.000,A,3748.8009,N,12217.6575,W,0.22,12.94,130711,,,A*4C
$GPRMC,203556.000,A,3748.8026,N,12217.6563,W,1.61,26.10,130711,,,A*48
$GPRMC,203557.000,A,3748.8035,N,12217.6556,W,1.16,33.81,130711,,,A*41
$GPRMC,203558.000,A,3748.8038,N,12217.6554,W,0.60,31.65,130711,,,A*49
$GPRMC,203559.000,A,3748.8039,N,12217.6553,W,0.36,27.57,130711,,,A*4B
$GPRMC,203600.000,A,3748.8038,N,12217.6554,W,0.19,31.02,130711,,,A*48
$GPRMC,203601.000,A,3748.8038,N,12217.6555,W,0.11,15.07,130711,,,A*43
$GPRMC,203602.000,A,3748.8036,N,12217.6556,W,0.06,27.02,130711,,,A*4F
$GPRMC,203603.000,A,3748.8034,N,12217.6558,W,0.02,240.59,130711,,,A*7B
$GPRMC,203604.000,A,3748.8030,N,12217.6561,W,0.14,209.23,130711,,,A*75
$GPRMC,203605.000,A,3748.8026,N,12217.6564,W,0.24,211.91,130711,,,A*75
$GPRMC,203606.000,A,3748.8023,N,12217.6567,W,0.23,208.66,130711,,,A*77
$GPRMC,203607.000,A,3748.8020,N,12217.6569,W,0.31,208.74,130711,,,A*7B
$GPRMC,203608.000,A,3748.8018,N,12217.6571,W,0.30,209.68,130711,,,A*7B
$GPRMC,203609.000,A,3748.8017,N,12217.6572,W,0.33,206.09,130711,,,A*7D
$GPRMC,203610.000,A,3748.8015,N,12217.6573,W,0.33,207.01,130711,,,A*7F
$GPRMC,203611.000,A,3748.8014,N,12217.6574,W,0.30,214.87,130711,,,A*77
$GPRMC,203612.000,A,3748.8014,N,12217.6575,W,0.30,206.82,130711,,,A*73
$GPRMC,203613.000,A,3748.8014,N,12217.6575,W,0.30,215.30,130711,,,A*79
$GPRMC,203614.000,A,3748.8013,N,12217.6575,W,0.28,210.97,130711,,,A*78
$GPRMC,203615.000,A,3748.8013,N,12217.6576,W,0.36,210.85,130711,,,A*76
$GPRMC,203616.000,A,3748.8013,N,12217.6576,W,0.33,208.50,130711,,,A*71
$GPRMC,203617.000,A,3748.8019,N,12217.6572,W,0.04,225.93,130711,,,A*7A
$GPRMC,203618.000,A,3748.8019,N,12217.6572,W,0.09,209.03,130711,,,A*7F
$GPRMC,203619.000,A,3748.8025,N,12217.6568,W,0.96,28.33,130711,,,A*4E
$GPRMC,203620.000,A,3748.8035,N,12217.6561,W,1.68,28.76,130711,,,A*4D
$GPRMC,203621.000,A,3748.8045,N,12217.6554,W,1.27,28.22,130711,,,A*47
$GPRMC,203622.000,A,3748.8058,N,12217.6544,W,1.39,28.16,130711,,,A*41
$GPRMC,203623.000,A,3748.8069,N,12217.6537,W,1.33,18.98,130711,,,A*49
$GPRMC,203624.000,A,3748.8069,N,12217.6536,W,0.97,27.82,130711,,,A*47
$GPRMC,203625.000,A,3748.8071,N,12217.6537,W,0.62,350.86,130711,,,A*73
$GPRMC,203626.000,A,3748.8074,N,12217.6536,W,0.21,321.88,130711,,,A*7B
$GPRMC,203627.000,A,3748.8078,N,12217.6534,W,0.27,201.35,130711,,,A*77
$GPRMC,203628.000,A,3748.8081,N,12217.6533,W,0.03,49.54,130711,,,A*46
$GPRMC,203629.000,A,3748.8075,N,12217.6538,W,0.13,2.60,130711,,,A*7E
$GPRMC,203630.000,A,3748.8071,N,12217.6541,W,0.35,31.41,130711,,,A*4B
$GPRMC,203631.000,A,3748.8069,N,12217.6543,W,0.08,222.62,130711,,,A*7E
$GPRMC,203632.000,A,3748.8062,N,12217.6548,W,0.05,150.58,130711,,,A*7F
$GPRMC,203633.000,A,3748.8065,N,12217.6543,W,0.20,29.86,130711,,,A*49
$GPRMC,203634.000,A,3748.8066,N,12217.6542,W,0.65,212.66,130711,,,A*79
$GPRMC,203635.000,A,3748.8054,N,12217.6550,W,0.68,201.84,130711,,,A*79
$GPRMC,203636.000,A,3748.8052,N,12217.6551,W,0.37,128.50,130711,,,A*76
$GPRMC,203637.000,A,3748.8056,N,12217.6547,W,0.79,108.59,130711,,,A*75
$GPRMC,203638.000,A,3748.8053,N,12217.6547,W,0.24,32.73,130711,,,A*47
$GPRMC,203639.000,A,3748.8055,N,12217.6548,W,0.52,5.22,130711,,,A*7E
$GPRMC,203640.000,A,3748.8056,N,12217.6546,W,0.33,103.22,130711,,,A*7D
$GPRMC,203641.000,A,3748.8045,N,12217.6554,W,0.59,185.62,130711,,,A*7B
