$ADVER,3080,2.3
$GPRMC,193135.324,A,3748.8186,N,12217.8574,W,0.00,,280812,,,A*6C
$GPGGA,193136.324,3748.8190,N,12217.8569,W,1,03,12.7,25.1,M,-25.1,M,,0000*63
$GPGSA,A,2,17,27,09,,,,,,,,,,12.7,12.7,1.0*38
$GPGSV,3,1,11,17,68,042,37,27,50,310,33,09,36,314,36,28,41,069,32*7D
$GPGSV,3,2,11,04,31,154,39,26,24,213,28,08,19,138,36,01,10,038,*78
$GPGSV,3,3,11,02,07,184,,12,05,282,,48,00,000,34*44
$GPRMC,193136.324,A,3748.8190,N,12217.8569,W,0.00,,280812,,,A*64
$GPVTG,,T,,M,0.00,N,0.0,K,N*1C
$GPGGA,193137.324,3748.8204,N,12217.8558,W,1,03,12.7,25.1,M,-25.1,M,,0000*6E
$GPGSA,A,2,17,27,09,,,,,,,,,,12.7,12.7,1.0*38
$GPRMC,193137.324,A,3748.8204,N,12217.8558,W,0.00,,280812,,,A*69
$GPVTG,,T,,M,0.00,N,0.0,K,N*1C
$GPGGA,193138.324,3748.8200,N,12217.8556,W,1,03,12.7,25.1,M,-25.1,M,,0000*6B
$GPGSA,A,2,17,27,09,,,,,,,,,,12.7,12.7,1.0*38
$GPRMC,193138.324,A,3748.8200,N,12217.8556,W,0.00,,280812,,,A*6C
$GPVTG,,T,,M,0.00,N,0.0,K,N*1C
$GPGGA,193157.324,3748.7975,N,12217.8678,W,1,03,12.6,25.1,M,-25.1,M,,0000*6A
$GPGSA,A,2,17,27,09,,,,,,,,,,12.6,12.6,1.0*38
$GPRMC,193157.324,A,3748.7975,N,12217.8678,W,0.00,,280812,,,A*6C
$GPVTG,,T,,M,0.00,N,0.0,K,N*1C
$GPGGA,193158.324,3748.8012,N,12217.8655,W,1,03,12.5,25.1,M,-25.1,M,,0000*6E
$GPGSA,A,2,17,27,09,,,,,,,,,,12.6,12.5,1.0*3B
$GPRMC,193158.324,A,3748.8012,N,12217.8655,W,0.00,,280812,,,A*6B
$GPVTG,,T,,M,0.00,N,0.0,K,N*1C
$GPGGA,193159.324,3748.8021,N,12217.8643,W,1,03,12.5,25.1,M,-25.1,M,,0000*68
$GPGSA,A,2,17,27,09,,,,,,,,,,12.6,12.5,1.0*3B
$GPRMC,193159.324,A,3748.8021,N,12217.8643,W,0.00,,280812,,,A*6D
$GPVTG,,T,,M,0.00,N,0.0,K,N*1C
$GPGGA,193234.323,3748.7898,N,12217.8722,W,1,04,2.5,-8.7,M,-25.1,M,,0000*46
$GPGSA,A,3,17,27,09,04,,,,,,,,,2.7,2.5,1.0*3F
$GPRMC,193234.323,A,3748.7898,N,12217.8722,W,4.40,236.07,280812,,,A*7F
$GPVTG,236.07,T,,M,4.40,N,8.2,K,A*07
$GPGGA,193235.323,3748.7888,N,12217.8695,W,1,04,5.2,13.8,M,-25.1,M,,0000*53
$GPGSA,A,3,17,27,09,04,,,,,,,,,8.9,5.2,7.2*3F
$GPRMC,193235.323,A,3748.7888,N,12217.8695,W,3.33,237.38,280812,,,A*7C
$GPVTG,237.38,T,,M,3.33,N,6.2,K,A*07
$GPGGA,193236.323,3748.7878,N,12217.8687,W,1,04,5.2,27.4,M,-25.1,M,,0000*57
$GPGSA,A,3,17,27,09,04,,,,,,,,,8.9,5.2,7.2*3F
$GPGSV,3,1,11,17,68,042,18,27,50,310,26,09,37,314,20,04,32,154,31*74
$GPGSV,3,2,11,28,41,069,25,26,24,213,17,08,18,138,,01,09,037,23*7D
$GPGSV,3,3,11,02,07,183,,12,06,282,,48,44,197,29*43
$GPRMC,193236.323,A,3748.7878,N,12217.8687,W,1.79,237.37,280812,,,A*70
$GPVTG,237.37,T,,M,1.79,N,3.3,K,A*00
$GPGGA,193237.000,3748.7878,N,12217.8689,W,1,04,5.2,26.6,M,-25.1,M,,0000*59
$GPGSA,A,3,17,27,09,04,,,,,,,,,8.9,5.2,7.2*3F
$GPRMC,193237.000,A,3748.7878,N,12217.8689,W,1.08,242.01,280812,,,A*7C
$GPVTG,242.01,T,,M,1.08,N,2.0,K,A*03
$GPGGA,193238.000,3748.7876,N,12217.8681,W,1,04,5.2,32.9,M,-25.1,M,,0000*5A
$GPGSA,A,3,17,27,09,04,,,,,,,,,8.9,5.2,7.2*3F
$GPRMC,193238.000,A,3748.7876,N,12217.8681,W,1.01,242.73,280812,,,A*79
$GPVTG,242.73,T,,M,1.01,N,1.9,K,A*05
$GPGGA,193239.000,3748.7862,N,12217.8692,W,1,04,5.1,38.8,M,-25.1,M,,0000*54
$GPGSA,A,3,17,27,09,04,,,,,,,,,8.9,5.1,7.2*3C
$GPRMC,193239.000,A,3748.7862,N,12217.8692,W,0.07,40.91,280812,,,A*44
$GPVTG,40.91,T,,M,0.07,N,0.1,K,A*37
$GPGGA,193240.000,3748.7881,N,12217.8671,W,1,04,5.1,33.0,M,-25.1,M,,0000*59
$GPGSA,A,3,17,27,09,04,,,,,,,,,8.8,5.1,7.2*3D
$GPRMC,193240.000,A,3748.7881,N,12217.8671,W,0.47,263.85,280812,,,A*78
$GPVTG,263.85,T,,M,0.47,N,0.9,K,A*0D
$GPGGA,193241.000,3748.7880,N,12217.8671,W,1,04,5.1,34.5,M,-25.1,M,,0000*5B
$GPGSA,A,3,17,27,09,04,,,,,,,,,8.8,5.1,7.2*3D
$GPGSV,3,1,10,17,68,042,19,27,50,310,26,09,37,314,20,04,32,154,31*74
$GPGSV,3,2,10,28,41,069,25,26,24,213,17,08,18,138,,01,09,037,22*7D
$GPGSV,3,3,10,02,07,183,,12,06,282,*7A
$GPRMC,193241.000,A,3748.7880,N,12217.8671,W,0.48,25.28,280812,,,A*40
$GPVTG,25.28,T,,M,0.48,N,0.9,K,A*35
$GPGGA,193242.000,3748.7880,N,12217.8664,W,1,04,5.1,37.2,M,-25.1,M,,0000*58
$GPGSA,A,3,17,27,09,04,,,,,,,,,8.8,5.1,7.2*3D
$GPRMC,193242.000,A,3748.7880,N,12217.8664,W,0.79,68.20,280812,,,A*44
$GPVTG,68.20,T,,M,0.79,N,1.5,K,A*3B
$GPGGA,193243.000,3748.7863,N,12217.8687,W,1,04,5.1,39.3,M,-25.1,M,,0000*56
$GPGSA,A,3,17,27,09,04,,,,,,,,,8.8,5.1,7.2*3D
$GPRMC,193243.000,A,3748.7863,N,12217.8687,W,1.19,217.64,280812,,,A*78
$GPVTG,217.64,T,,M,1.19,N,2.2,K,A*02
$GPGGA,193244.000,3748.7862,N,12217.8694,W,1,04,5.1,36.3,M,-25.1,M,,0000*5D
$GPGSA,A,3,17,27,09,04,,,,,,,,,8.8,5.1,7.2*3D
$GPRMC,193244.000,A,3748.7862,N,12217.8694,W,1.70,238.18,280812,,,A*75
$GPVTG,238.18,T,,M,1.70,N,3.2,K,A*0A
$GPGGA,193245.000,3748.7846,N,12217.8721,W,1,04,5.1,36.8,M,-25.1,M,,0000*5E
$GPGSA,A,3,17,27,09,04,,,,,,,,,8.8,5.1,7.2*3D
$GPRMC,193245.000,A,3748.7846,N,12217.8721,W,3.26,239.64,280812,,,A*76
$GPVTG,239.64,T,,M,3.26,N,6.0,K,A*06
$GPGGA,193246.000,3748.7842,N,12217.8732,W,1,04,5.1,35.1,M,-25.1,M,,0000*51
$GPGSA,A,3,17,27,09,04,,,,,,,,,8.8,5.1,7.2*3D
$GPGSV,3,1,10,17,68,042,19,27,50,310,26,09,37,314,20,04,32,154,31*74
$GPGSV,3,2,10,28,41,069,25,26,24,213,16,08,18,138,,01,09,037,22*7C
$GPGSV,3,3,10,02,07,183,,12,06,282,*7A
$GPRMC,193246.000,A,3748.7842,N,12217.8732,W,3.93,240.30,280812,,,A*72
$GPVTG,240.30,T,,M,3.93,N,7.3,K,A*05
$GPGGA,193247.000,3748.7827,N,12217.8756,W,1,04,5.1,36.9,M,-25.1,M,,0000*5A
$GPGSA,A,3,17,27,09,04,,,,,,,,,8.8,5.1,7.2*3D
$GPRMC,193247.000,A,3748.7827,N,12217.8756,W,3.50,235.42,280812,,,A*7A
$GPVTG,235.42,T,,M,3.50,N,6.5,K,A*0A
$GPGGA,193248.000,3748.7832,N,12217.8755,W,1,04,5.1,32.7,M,-25.1,M,,0000*58
$GPGSA,A,3,17,27,09,04,,,,,,,,,8.8,5.1,7.2*3D
$GPRMC,193248.000,A,3748.7832,N,12217.8755,W,2.66,236.51,280812,,,A*77
$GPVTG,236.51,T,,M,2.66,N,4.9,K,A*01
$GPGGA,193249.000,3748.7829,N,12217.8763,W,1,04,5.1,31.8,M,-25.1,M,,0000*5A
$GPGSA,A,3,17,27,09,04,,,,,,,,,8.8,5.1,7.2*3D
$GPRMC,193249.000,A,3748.7829,N,12217.8763,W,1.83,234.58,280812,,,A*7A
$GPVTG,234.58,T,,M,1.83,N,3.4,K,A*08
$GPGGA,193250.000,3748.7823,N,12217.8769,W,1,04,5.1,33.0,M,-25.1,M,,0000*58
$GPGSA,A,3,17,27,09,04,,,,,,,,,8.8,5.1,7.2*3D
$GPRMC,193250.000,A,3748.7823,N,12217.8769,W,0.92,240.30,280812,,,A*7E
$GPVTG,240.30,T,,M,0.92,N,1.7,K,A*05
$GPGGA,193251.000,3748.7814,N,12217.8778,W,1,04,5.1,35.4,M,-25.1,M,,0000*5F
$GPGSA,A,3,17,27,09,04,,,,,,,,,8.8,5.1,7.2*3D
$GPGSV,3,1,10,17,68,042,19,27,50,310,25,28,41,069,25,09,37,314,20*77
$GPGSV,3,2,10,04,32,154,31,26,24,213,16,08,18,138,,01,09,037,22*7C
$GPGSV,3,3,10,02,08,183,,12,06,282,*75
$GPVTG,229.31,T,,M,1.09,N,2.0,K,A*0C
$GPGGA,193252.000,3748.7811,N,12217.8792,W,1,04,5.1,31.9,M,-25.1,M,,0000*54
$GPGSA,A,3,17,27,09,04,,,,,,,,,8.8,5.1,7.2*3D
$GPRMC,193252.000,A,3748.7811,N,12217.8792,W,2.76,240.52,280812,,,A*75
$GPVTG,240.52,T,,M,2.76,N,5.1,K,A*0B
$GPGGA,193253.000,3748.7801,N,12217.8809,W,1,04,5.1,32.1,M,-25.1,M,,0000*52
$GPGSA,A,3,17,27,09,04,,,,,,,,,8.8,5.1,7.2*3D
$GPRMC,193253.000,A,3748.7801,N,12217.8809,W,4.08,236.02,280812,,,A*73
$GPVTG,236.02,T,,M,4.08,N,7.6,K,A*05
$GPGGA,193254.000,3748.7796,N,12217.8811,W,1,04,5.1,34.3,M,-25.1,M,,0000*59
$GPGSA,A,3,17,27,09,04,,,,,,,,,8.8,5.1,7.2*3D
$GPRMC,193254.000,A,3748.7796,N,12217.8811,W,2.48,233.16,280812,,,A*7E
$GPVTG,233.16,T,,M,2.48,N,4.6,K,A*04
$GPGGA,193255.000,3748.7790,N,12217.8817,W,1,04,5.1,36.3,M,-25.1,M,,0000*5A
$GPGSA,A,3,17,27,09,04,,,,,,,,,8.8,5.1,7.2*3D
$GPRMC,193255.000,A,3748.7790,N,12217.8817,W,2.61,237.91,280812,,,A*7F
$GPVTG,237.91,T,,M,2.61,N,4.8,K,A*0A
$GPGGA,193256.000,3748.7780,N,12217.8830,W,1,04,5.1,40.4,M,-25.1,M,,0000*5B
$GPGSA,A,3,17,27,09,04,,,,,,,,,8.8,5.1,7.2*3D
$GPGSV,3,1,10,17,68,042,19,27,50,310,25,28,41,069,25,09,37,314,21*76
$GPGSV,3,2,10,04,32,154,32,26,24,213,16,08,18,138,,01,09,037,22*7F
$GPGSV,3,3,10,02,08,183,,12,06,282,*75
$GPRMC,193256.000,A,3748.7780,N,12217.8830,W,2.12,238.83,280812,,,A*70
$GPVTG,238.83,T,,M,2.12,N,3.9,K,A*04
$GPGGA,193257.000,3748.7775,N,12217.8836,W,1,04,5.1,44.1,M,-25.1,M,,0000*57
$GPGSA,A,3,17,27,09,04,,,,,,,,,8.8,5.1,7.2*3D
$GPRMC,193257.000,A,3748.7775,N,12217.8836,W,0.88,225.94,280812,,,A*76
$GPVTG,225.94,T,,M,0.88,N,1.6,K,A*02
$GPGGA,193258.000,3748.7780,N,12217.8829,W,1,04,5.1,44.6,M,-25.1,M,,0000*5B
$GPGSA,A,3,17,27,09,04,,,,,,,,,8.8,5.1,7.2*3D
$GPRMC,193258.000,A,3748.7780,N,12217.8829,W,0.46,54.96,280812,,,A*49
$GPVTG,54.96,T,,M,0.46,N,0.9,K,A*38
$GPGGA,193259.000,3748.7796,N,12217.8798,W,1,04,5.1,45.7,M,-25.1,M,,0000*58
$GPGSA,A,3,17,27,09,04,,,,,,,,,8.8,5.1,7.2*3D
$GPRMC,193259.000,A,3748.7796,N,12217.8798,W,2.34,63.47,280812,,,A*45
$GPVTG,63.47,T,,M,2.34,N,4.3,K,A*39
$GPGGA,193300.000,3748.7802,N,12217.8789,W,1,04,5.1,43.3,M,-25.1,M,,0000*55
$GPGSA,A,3,17,27,09,04,,,,,,,,,8.8,5.1,7.2*3D
$GPRMC,193300.000,A,3748.7802,N,12217.8789,W,2.19,62.76,280812,,,A*46
$GPVTG,62.76,T,,M,2.19,N,4.1,K,A*37
$GPGGA,193301.000,3748.7809,N,12217.8772,W,1,04,5.1,44.7,M,-25.1,M,,0000*58
$GPGSA,A,3,17,27,09,04,,,,,,,,,8.8,5.1,7.2*3D
$GPGSV,3,1,10,17,68,042,19,27,50,310,25,28,41,069,25,09,37,314,21*76
$GPGSV,3,2,10,04,32,154,32,26,24,213,16,08,18,138,,01,09,037,22*7F
$GPGSV,3,3,10,02,08,183,,12,06,282,*75
$GPRMC,193301.000,A,3748.7809,N,12217.8772,W,1.80,56.37,280812,,,A*49
$GPVTG,56.37,T,,M,1.80,N,3.3,K,A*33
$GPGGA,193302.000,3748.7809,N,12217.8772,W,1,04,5.1,44.2,M,-25.1,M,,0000*5E
$GPGSA,A,3,17,27,09,04,,,,,,,,,8.8,5.1,7.2*3D
$GPRMC,193302.000,A,3748.7809,N,12217.8772,W,0.71,45.87,280812,,,A*4C
$GPVTG,45.87,T,,M,0.71,N,1.3,K,A*37
$GPGGA,193303.000,3748.7816,N,12217.8761,W,1,04,5.1,43.4,M,-25.1,M,,0000*52
$GPGSA,A,3,17,27,09,04,,,,,,,,,8.8,5.1,7.2*3D
$GPRMC,193303.000,A,3748.7816,N,12217.8761,W,1.17,44.93,280812,,,A*44
$GPVTG,44.93,T,,M,1.17,N,2.2,K,A*30
$GPGGA,193304.000,3748.7820,N,12217.8756,W,1,04,5.1,42.2,M,-25.1,M,,0000*53
$GPGSA,A,3,17,27,09,04,,,,,,,,,8.8,5.1,7.2*3D
$GPRMC,193304.000,A,3748.7820,N,12217.8756,W,1.13,46.65,280812,,,A*4D
$GPVTG,46.65,T,,M,1.13,N,2.1,K,A*3C
$GPGGA,193305.000,3748.7824,N,12217.8747,W,1,04,5.1,43.4,M,-25.1,M,,0000*51
$GPGSA,A,3,17,27,09,04,,,,,,,,,8.8,5.1,7.2*3D
$GPRMC,193305.000,A,3748.7824,N,12217.8747,W,0.83,48.47,280812,,,A*4E
$GPVTG,48.47,T,,M,0.83,N,1.5,K,A*3D
$GPGGA,193306.000,3748.7814,N,12217.8761,W,1,04,5.1,45.5,M,-25.1,M,,0000*52
$GPGSA,A,3,17,27,09,04,,,,,,,,,8.8,5.1,7.2*3D
$GPGSV,3,1,10,17,68,042,20,27,50,310,25,28,41,069,24,09,37,314,21*7D
$GPGSV,3,2,10,04,32,154,32,26,24,213,16,08,18,138,,01,09,037,22*7F
$GPGSV,3,3,10,02,08,183,,12,06,282,*75
$GPRMC,193306.000,A,3748.7814,N,12217.8761,W,0.15,270.84,280812,,,A*73
$GPVTG,270.84,T,,M,0.15,N,0.3,K,A*03
$GPGGA,193307.000,3748.7807,N,12217.8774,W,1,04,5.1,45.2,M,-25.1,M,,0000*52
$GPGSA,A,3,17,27,09,04,,,,,,,,,8.8,5.1,7.2*3D
$GPRMC,193307.000,A,3748.7807,N,12217.8774,W,0.20,265.97,280812,,,A*74
$GPVTG,265.97,T,,M,0.20,N,0.4,K,A*04
$GPGGA,193308.000,3748.7806,N,12217.8777,W,1,04,5.1,44.8,M,-25.1,M,,0000*54
$GPGSA,A,3,17,27,09,04,,,,,,,,,8.8,5.1,7.2*3D
$GPRMC,193308.000,A,3748.7806,N,12217.8777,W,0.89,224.06,280812,,,A*77
$GPVTG,224.06,T,,M,0.89,N,1.7,K,A*08
$GPGGA,193309.000,3748.7799,N,12217.8788,W,1,04,5.1,45.0,M,-25.1,M,,0000*55
$GPGSA,A,3,17,27,09,04,,,,,,,,,8.8,5.1,7.2*3D
$GPRMC,193309.000,A,3748.7799,N,12217.8788,W,1.69,229.94,280812,,,A*76
$GPVTG,229.94,T,,M,1.69,N,3.1,K,A*05
$GPGGA,193310.000,3748.7795,N,12217.8798,W,1,04,5.1,43.8,M,-25.1,M,,0000*5E
$GPGSA,A,3,17,27,09,04,,,,,,,,,8.8,5.1,7.2*3D
$GPRMC,193310.000,A,3748.7795,N,12217.8798,W,1.44,238.07,280812,,,A*76
$GPVTG,238.07,T,,M,1.44,N,2.7,K,A*07
$GPGGA,193311.000,3748.7792,N,12217.8810,W,1,04,5.1,41.6,M,-25.1,M,,0000*5B
$GPGSA,A,3,17,27,09,04,,,,,,,,,8.8,5.1,7.2*3D
$GPGSV,3,1,10,17,68,042,21,27,51,310,25,28,41,069,24,09,37,314,20*7C
$GPGSV,3,2,10,04,32,154,32,26,24,213,15,08,18,138,,01,09,037,22*7C
$GPGSV,3,3,10,02,08,183,,12,06,282,*75
$GPRMC,193311.000,A,3748.7792,N,12217.8810,W,1.44,234.20,280812,,,A*76
$GPVTG,234.20,T,,M,1.44,N,2.7,K,A*0E
$GPGGA,193312.000,3748.7792,N,12217.8814,W,1,04,5.1,39.3,M,-25.1,M,,0000*56
$GPGSA,A,3,17,27,09,04,,,,,,,,,8.8,5.1,7.2*3D
$GPRMC,193312.000,A,3748.7792,N,12217.8814,W,0.97,252.25,280812,,,A*7B
$GPVTG,252.25,T,,M,0.97,N,1.8,K,A*08
$GPGGA,193313.000,3748.7789,N,12217.8823,W,1,04,5.1,38.6,M,-25.1,M,,0000*5D
$GPGSA,A,3,17,27,09,04,,,,,,,,,8.8,5.1,7.2*3D
$GPRMC,193313.000,A,3748.7789,N,12217.8823,W,0.87,258.52,280812,,,A*7F
$GPVTG,258.52,T,,M,0.87,N,1.6,K,A*0D
$GPGGA,193314.000,3748.7777,N,12217.8844,W,1,04,5.1,38.6,M,-25.1,M,,0000*5A
$GPGSA,A,3,17,27,09,04,,,,,,,,,8.8,5.1,7.2*3D
$GPRMC,193314.000,A,3748.7777,N,12217.8844,W,2.11,243.01,280812,,,A*79
$GPVTG,243.01,T,,M,2.11,N,3.9,K,A*01
$GPGGA,193315.000,3748.7769,N,12217.8865,W,1,04,5.1,36.3,M,-25.1,M,,0000*5C
$GPGSA,A,3,17,27,09,04,,,,,,,,,8.8,5.1,7.2*3D
$GPRMC,193315.000,A,3748.7769,N,12217.8865,W,2.28,242.49,280812,,,A*73
$GPVTG,242.49,T,,M,2.28,N,4.2,K,A*0A
$GPGGA,193316.000,3748.7771,N,12217.8871,W,1,04,5.1,32.8,M,-25.1,M,,0000*5C
$GPGSA,A,3,17,27,09,04,,,,,,,,,8.8,5.1,7.2*3D
$GPGSV,3,1,10,17,68,042,21,27,51,310,25,28,41,069,24,09,37,314,21*7D
$GPGSV,3,2,10,04,32,154,32,26,24,213,15,08,18,138,,01,09,037,22*7C
$GPGSV,3,3,10,02,08,183,,12,06,282,*75
$GPVTG,252.84,T,,M,1.65,N,3.1,K,A*04
$GPGGA,193317.000,3748.7773,N,12217.8862,W,1,04,5.1,34.4,M,-25.1,M,,0000*57
$GPGSA,A,3,17,27,09,04,,,,,,,,,8.8,5.1,7.2*3D
$GPRMC,193317.000,A,3748.7773,N,12217.8862,W,0.42,23.09,280812,,,A*42
$GPVTG,23.09,T,,M,0.42,N,0.8,K,A*3B
$GPGGA,193318.000,3748.7780,N,12217.8856,W,1,04,5.1,32.3,M,-25.1,M,,0000*52
$GPGSA,A,3,17,27,09,04,,,,,,,,,8.8,5.1,7.2*3D
$GPRMC,193318.000,A,3748.7780,N,12217.8856,W,0.41,336.43,280812,,,A*7C
$GPVTG,336.43,T,,M,0.41,N,0.8,K,A*01
$GPGGA,193319.000,3748.7791,N,12217.8840,W,1,04,5.0,30.3,M,-25.1,M,,0000*57
$GPGSA,A,3,17,27,09,04,,,,,,,,,8.8,5.0,7.2*3C
$GPRMC,193319.000,A,3748.7791,N,12217.8840,W,0.46,315.34,280812,,,A*7C
$GPVTG,315.34,T,,M,0.46,N,0.9,K,A*06
$GPGGA,193320.000,3748.7798,N,12217.8832,W,1,04,5.0,28.7,M,-25.1,M,,0000*5C
$GPGSA,A,3,17,27,09,04,,,,,,,,,8.8,5.0,7.2*3C
$GPRMC,193320.000,A,3748.7798,N,12217.8832,W,0.41,333.35,280812,,,A*78
$GPVTG,333.35,T,,M,0.41,N,0.8,K,A*05
$GPGGA,193321.000,3748.7796,N,12217.8833,W,1,04,5.0,29.4,M,-25.1,M,,0000*50
$GPGSA,A,3,17,27,09,04,,,,,,,,,8.8,5.0,7.2*3C
$GPGSV,3,1,10,17,68,042,21,27,51,310,25,28,41,070,24,09,37,314,21*75
$GPGSV,3,2,10,04,32,154,32,26,23,213,14,08,18,138,,01,09,037,22*7A
$GPGSV,3,3,10,02,08,183,,12,06,282,*75
$GPRMC,193321.000,A,3748.7796,N,12217.8833,W,0.87,51.77,280812,,,A*4D
$GPVTG,51.77,T,,M,0.87,N,1.6,K,A*31
$GPGGA,193322.000,3748.7804,N,12217.8817,W,1,04,5.0,29.2,M,-25.1,M,,0000*57
$GPGSA,A,3,17,27,09,04,,,,,,,,,8.8,5.0,7.2*3C
$GPRMC,193322.000,A,3748.7804,N,12217.8817,W,2.26,55.41,280812,,,A*44
$GPVTG,55.41,T,,M,2.26,N,4.2,K,A*38
$GPGGA,193323.000,3748.7813,N,12217.8799,W,1,04,5.0,29.3,M,-25.1,M,,0000*58
$GPGSA,A,3,17,27,09,04,,,,,,,,,8.8,5.0,7.2*3C
$GPRMC,193323.000,A,3748.7813,N,12217.8799,W,2.09,53.71,280812,,,A*42
$GPVTG,53.71,T,,M,2.09,N,3.9,K,A*3C
$GPGGA,193324.000,3748.7804,N,12217.8803,W,1,04,5.0,33.4,M,-25.1,M,,0000*59
$GPGSA,A,3,17,27,09,04,,,,,,,,,8.8,5.0,7.2*3C
$GPRMC,193324.000,A,3748.7804,N,12217.8803,W,1.24,59.11,280812,,,A*4F
$GPVTG,59.11,T,,M,1.24,N,2.3,K,A*37
$GPGGA,193325.000,3748.7794,N,12217.8809,W,1,04,5.0,37.6,M,-25.1,M,,0000*52
$GPGSA,A,3,17,27,09,04,,,,,,,,,8.8,5.0,7.2*3C
$GPRMC,193325.000,A,3748.7794,N,12217.8809,W,0.25,86.22,280812,,,A*40
$GPVTG,86.22,T,,M,0.25,N,0.5,K,A*31
$GPGGA,193326.000,3748.7781,N,12217.8822,W,1,04,5.0,41.3,M,-25.1,M,,0000*58
$GPGSA,A,3,17,27,09,04,,,,,,,,,8.8,5.0,7.2*3C
$GPGSV,3,1,10,17,68,042,22,27,51,310,25,28,41,070,23,09,37,314,20*70
$GPGSV,3,2,10,04,32,154,32,26,23,213,14,08,18,138,,01,09,037,22*7A
$GPGSV,3,3,10,02,08,183,,12,06,282,*75
$GPRMC,193326.000,A,3748.7781,N,12217.8822,W,0.68,199.81,280812,,,A*71
$GPVTG,199.81,T,,M,0.68,N,1.3,K,A*09
$GPGGA,193327.000,3748.7781,N,12217.8815,W,1,04,5.0,43.5,M,-25.1,M,,0000*59
$GPGSA,A,3,17,27,09,04,,,,,,,,,8.8,5.0,7.2*3C
$GPRMC,193327.000,A,3748.7781,N,12217.8815,W,0.94,85.18,280812,,,A*4B
$GPVTG,85.18,T,,M,0.94,N,1.7,K,A*32
$GPGGA,193328.000,3748.7788,N,12217.8801,W,1,04,5.0,43.7,M,-25.1,M,,0000*58
$GPGSA,A,3,17,27,09,04,,,,,,,,,8.8,5.0,7.2*3C
$GPRMC,193328.000,A,3748.7788,N,12217.8801,W,1.45,72.03,280812,,,A*47
$GPVTG,72.03,T,,M,1.45,N,2.7,K,A*3E
$GPGGA,193329.000,3748.7799,N,12217.8784,W,1,04,5.0,42.7,M,-25.1,M,,0000*5A
$GPGSA,A,3,17,27,09,04,,,,,,,,,8.8,5.0,7.2*3C
$GPRMC,193329.000,A,3748.7799,N,12217.8784,W,2.36,52.75,280812,,,A*40
$GPVTG,52.75,T,,M,2.36,N,4.4,K,A*3F
$GPGGA,193330.000,3748.7806,N,12217.8780,W,1,04,5.0,39.5,M,-25.1,M,,0000*51
$GPGSA,A,3,17,27,09,04,,,,,,,,,8.8,5.0,7.2*3C
$GPRMC,193330.000,A,3748.7806,N,12217.8780,W,2.55,50.19,280812,,,A*48
$GPVTG,50.19,T,,M,2.55,N,4.7,K,A*31
$GPGGA,193331.000,3748.7818,N,12217.8771,W,1,04,5.0,35.9,M,-25.1,M,,0000*51
$GPGSA,A,3,17,27,09,04,,,,,,,,,8.8,5.0,7.2*3C
$GPGSV,3,1,10,17,68,042,21,27,51,310,25,28,41,070,23,09,37,314,20*73
$GPGSV,3,2,10,04,32,154,32,26,23,213,15,08,18,138,,01,09,037,21*78
$GPGSV,3,3,10,02,08,183,,12,06,282,*75
$GPRMC,193331.000,A,3748.7818,N,12217.8771,W,2.51,45.40,280812,,,A*44
$GPVTG,45.40,T,,M,2.51,N,4.7,K,A*3D
$GPGGA,193332.000,3748.7823,N,12217.8771,W,1,04,5.0,32.6,M,-25.1,M,,0000*52
$GPGSA,A,3,17,27,09,04,,,,,,,,,8.8,5.0,7.2*3C
$GPRMC,193332.000,A,3748.7823,N,12217.8771,W,1.31,35.38,280812,,,A*42
$GPVTG,35.38,T,,M,1.31,N,2.4,K,A*35
$GPGGA,193333.000,3748.7827,N,12217.8771,W,1,04,5.0,29.8,M,-25.1,M,,0000*53
$GPGSA,A,3,17,27,09,04,,,,,,,,,8.8,5.0,7.2*3C
$GPRMC,193333.000,A,3748.7827,N,12217.8771,W,0.08,348.75,280812,,,A*7C
$GPVTG,348.75,T,,M,0.08,N,0.1,K,A*09
$GPGGA,193334.000,3748.7825,N,12217.8774,W,1,04,5.0,29.6,M,-25.1,M,,0000*5D
$GPGSA,A,3,17,27,09,04,,,,,,,,,8.8,5.0,7.2*3C
$GPRMC,193334.000,A,3748.7825,N,12217.8774,W,0.45,35.02,280812,,,A*4C
$GPVTG,35.02,T,,M,0.45,N,0.8,K,A*30
$GPGGA,193335.000,3748.7816,N,12217.8782,W,1,04,5.0,32.1,M,-25.1,M,,0000*58
$GPGSA,A,3,17,27,09,04,,,,,,,,,8.8,5.0,7.2*3C
$GPRMC,193335.000,A,3748.7816,N,12217.8782,W,0.61,35.05,280812,,,A*45
$GPVTG,35.05,T,,M,0.61,N,1.1,K,A*39
$GPGGA,193336.000,3748.7827,N,12217.8767,W,1,04,5.0,30.6,M,-25.1,M,,0000*57
$GPGSA,A,3,17,27,09,04,,,,,,,,,8.8,5.0,7.2*3C
$GPGSV,3,1,10,17,68,042,21,27,51,310,25,28,41,070,22,09,37,314,20*72
$GPGSV,3,2,10,04,32,154,32,26,23,213,15,08,18,138,,01,09,037,20*79
$GPGSV,3,3,10,02,08,183,,12,06,282,*75
$GPRMC,193336.000,A,3748.7827,N,12217.8767,W,1.59,51.14,280812,,,A*47
$GPVTG,51.14,T,,M,1.59,N,2.9,K,A*3A
$GPGGA,193337.000,3748.7833,N,12217.8757,W,1,04,5.0,29.7,M,-25.1,M,,0000*59
$GPGSA,A,3,17,27,09,04,,,,,,,,,8.8,5.0,7.2*3C
$GPRMC,193337.000,A,3748.7833,N,12217.8757,W,1.32,40.19,280812,,,A*40
$GPVTG,40.19,T,,M,1.32,N,2.4,K,A*37
$GPGGA,193338.000,3748.7844,N,12217.8742,W,1,04,5.0,27.8,M,-25.1,M,,0000*53
$GPGSA,A,3,17,27,09,04,,,,,,,,,8.8,5.0,7.2*3C
$GPRMC,193338.000,A,3748.7844,N,12217.8742,W,1.19,44.53,280812,,,A*48
$GPVTG,44.53,T,,M,1.19,N,2.2,K,A*32
$GPGGA,193339.000,3748.7855,N,12217.8732,W,1,04,5.0,24.2,M,-25.1,M,,0000*5C
$GPGSA,A,3,17,27,09,04,,,,,,,,,8.8,5.0,7.2*3C
$GPRMC,193339.000,A,3748.7855,N,12217.8732,W,0.66,24.63,280812,,,A*42
$GPVTG,24.63,T,,M,0.66,N,1.2,K,A*3D
$GPGGA,193340.000,3748.7863,N,12217.8726,W,1,04,5.0,20.4,M,-25.1,M,,0000*50
$GPGSA,A,3,17,27,09,04,,,,,,,,,8.8,5.0,7.2*3C
$GPRMC,193340.000,A,3748.7863,N,12217.8726,W,0.58,305.72,280812,,,A*71
$GPVTG,305.72,T,,M,0.58,N,1.1,K,A*03
$GPGGA,193341.000,3748.7869,N,12217.8723,W,1,04,5.0,17.6,M,-25.1,M,,0000*58
$GPGSA,A,3,17,27,09,04,,,,,,,,,8.8,5.0,7.2*3C
$GPGSV,3,1,10,17,68,042,21,27,51,310,26,28,40,070,22,09,37,314,20*70
$GPGSV,3,2,10,04,32,153,32,26,23,212,15,08,18,138,,01,09,037,20*7F
$GPGSV,3,3,10,02,08,183,,12,06,282,*75
$GPVTG,10.56,T,,M,0.80,N,1.5,K,A*33
$GPGGA,193342.000,3748.7860,N,12217.8736,W,1,04,5.0,18.2,M,-25.1,M,,0000*5D
$GPGSA,A,3,17,27,09,04,,,,,,,,,8.8,5.0,7.2*3C
$GPRMC,193342.000,A,3748.7860,N,12217.8736,W,1.08,254.16,280812,,,A*72
$GPVTG,254.16,T,,M,1.08,N,2.0,K,A*02
$GPGGA,193343.000,3748.7867,N,12217.8728,W,1,04,5.0,16.0,M,-25.1,M,,0000*58
$GPGSA,A,3,17,27,09,04,,,,,,,,,8.8,5.0,7.2*3C
$GPRMC,193343.000,A,3748.7867,N,12217.8728,W,0.23,324.00,280812,,,A*72
$GPVTG,324.00,T,,M,0.23,N,0.4,K,A*0D
$GPGGA,193344.000,3748.7866,N,12217.8728,W,1,04,5.0,15.4,M,-25.1,M,,0000*59
$GPGSA,A,3,17,27,09,04,,,,,,,,,8.8,5.0,7.2*3C
$GPRMC,193344.000,A,3748.7866,N,12217.8728,W,0.52,50.97,280812,,,A*4C
$GPVTG,50.97,T,,M,0.52,N,1.0,K,A*30
$GPGGA,193345.000,3748.7866,N,12217.8723,W,1,04,5.0,16.5,M,-25.1,M,,0000*51
$GPGSA,A,3,17,27,09,04,,,,,,,,,8.8,5.0,7.2*3C
$GPRMC,193345.000,A,3748.7866,N,12217.8723,W,0.07,71.79,280812,,,A*45
$GPVTG,71.79,T,,M,0.07,N,0.1,K,A*33
$GPGGA,193346.000,3748.7864,N,12217.8723,W,1,04,5.0,16.8,M,-25.1,M,,0000*5D
$GPGSA,A,3,17,27,09,04,,,,,,,,,8.8,5.0,7.2*3C
$GPGSV,3,1,10,17,68,042,20,27,51,310,26,28,40,070,21,09,37,314,19*78
$GPGSV,3,2,10,04,32,153,32,26,23,212,15,08,18,138,,01,09,037,19*75
$GPGSV,3,3,10,02,08,183,,12,06,282,*75
$GPRMC,193346.000,A,3748.7864,N,12217.8723,W,0.98,248.35,280812,,,A*72
$GPVTG,248.35,T,,M,0.98,N,1.8,K,A*0D
$GPGGA,193347.000,3748.7875,N,12217.8711,W,1,04,5.0,14.1,M,-25.1,M,,0000*56
$GPGSA,A,3,17,27,09,04,,,,,,,,,8.8,5.0,7.3*3D
$GPRMC,193347.000,A,3748.7875,N,12217.8711,W,1.13,258.88,280812,,,A*77
$GPVTG,258.88,T,,M,1.13,N,2.1,K,A*02
$GPGGA,193348.000,3748.7879,N,12217.8705,W,1,04,5.0,13.3,M,-25.1,M,,0000*55
$GPGSA,A,3,17,27,09,04,,,,,,,,,8.8,5.0,7.3*3D
$GPRMC,193348.000,A,3748.7879,N,12217.8705,W,0.75,257.18,280812,,,A*76
$GPVTG,257.18,T,,M,0.75,N,1.4,K,A*03
$GPGGA,193349.000,3748.7877,N,12217.8708,W,1,03,50.0,13.1,M,-25.1,M,,0000*62
$GPGSA,A,2,27,09,04,,,,,,,,,,50.0,50.0,1.0*3A
$GPRMC,193349.000,A,3748.7877,N,12217.8708,W,0.71,239.83,280812,,,A*7A
$GPVTG,239.83,T,,M,0.71,N,1.3,K,N*05
$GPGGA,193350.000,3748.7872,N,12217.8714,W,1,03,50.0,14.2,M,-25.1,M,,0000*66
$GPGSA,A,2,27,09,04,,,,,,,,,,50.0,50.0,1.0*3A
$GPRMC,193350.000,A,3748.7872,N,12217.8714,W,0.76,244.69,280812,,,A*73
$GPVTG,244.69,T,,M,0.76,N,1.4,K,N*0B
$GPGGA,193351.000,3748.7870,N,12217.8717,W,1,03,50.0,14.0,M,-25.1,M,,0000*64
$GPGSA,A,2,27,09,04,,,,,,,,,,50.0,50.0,1.0*3A
$GPGSV,3,1,10,17,67,042,11,27,51,310,26,28,40,070,21,09,37,314,19*75
$GPGSV,3,2,10,04,32,153,32,26,23,212,15,08,18,138,,01,09,037,19*75
$GPGSV,3,3,10,02,08,183,,12,06,282,*75
$GPRMC,193351.000,A,3748.7870,N,12217.8717,W,0.84,231.66,280812,,,A*73
$GPVTG,231.66,T,,M,0.84,N,1.6,K,N*09
$GPGGA,193352.000,3748.7866,N,12217.8729,W,1,03,50.0,12.0,M,-25.1,M,,0000*6B
$GPGSA,A,2,27,09,04,,,,,,,,,,50.0,50.0,1.0*3A
$GPRMC,193352.000,A,3748.7866,N,12217.8729,W,2.58,233.94,280812,,,A*76
$GPVTG,233.94,T,,M,2.58,N,4.8,K,A*01
$GPGGA,193353.000,3748.7894,N,12217.8677,W,1,04,5.0,12.4,M,-25.1,M,,0000*5E
$GPGSA,A,3,17,27,09,04,,,,,,,,,8.8,5.0,7.3*3D
$GPRMC,193353.000,A,3748.7894,N,12217.8677,W,0.17,119.08,280812,,,A*77
$GPVTG,119.08,T,,M,0.17,N,0.3,K,A*09
$GPGGA,193354.000,3748.7893,N,12217.8681,W,1,04,5.0,10.3,M,-25.1,M,,0000*52
$GPGSA,A,3,17,27,09,04,,,,,,,,,8.8,5.0,7.3*3D
$GPRMC,193354.000,A,3748.7893,N,12217.8681,W,1.41,224.58,280812,,,A*74
$GPVTG,224.58,T,,M,1.41,N,2.6,K,A*04
$GPGGA,193355.000,3748.7899,N,12217.8674,W,1,04,5.0,8.2,M,-25.1,M,,0000*6B
$GPGSA,A,3,17,27,09,04,,,,,,,,,8.8,5.0,7.3*3D
$GPRMC,193355.000,A,3748.7899,N,12217.8674,W,2.13,227.65,280812,,,A*7C
$GPVTG,227.65,T,,M,2.13,N,3.9,K,A*03
$GPGGA,193356.000,3748.7911,N,12217.8651,W,1,04,5.0,8.0,M,-25.1,M,,0000*6C
$GPGSA,A,3,17,27,09,04,,,,,,,,,8.8,5.0,7.3*3D
$GPGSV,3,1,10,17,67,042,14,27,51,310,27,28,40,070,20,09,37,314,18*71
$GPGSV,3,2,10,04,32,153,32,26,23,212,16,08,18,138,,01,09,037,19*76
$GPGSV,3,3,10,02,08,183,,12,06,282,*75
$GPRMC,193356.000,A,3748.7911,N,12217.8651,W,2.17,226.14,280812,,,A*7A
$GPVTG,226.14,T,,M,2.17,N,4.0,K,A*0E
$GPGGA,193357.000,3748.7902,N,12217.8669,W,1,04,5.0,6.7,M,-25.1,M,,0000*6D
$GPGSA,A,3,17,27,09,04,,,,,,,,,8.8,5.0,7.3*3D
$GPRMC,193357.000,A,3748.7902,N,12217.8669,W,3.38,237.61,280812,,,A*7C
$GPVTG,237.61,T,,M,3.38,N,6.3,K,A*01
$GPGGA,193358.000,3748.7895,N,12217.8680,W,1,03,50.0,7.2,M,-25.1,M,,0000*59
$GPGSA,A,2,27,09,04,,,,,,,,,,50.0,50.0,1.0*3A
$GPRMC,193358.000,A,3748.7895,N,12217.8680,W,3.06,241.62,280812,,,A*74
$GPVTG,241.62,T,,M,3.06,N,5.7,K,A*09
$GPGGA,193359.000,3748.7885,N,12217.8704,W,1,04,5.0,5.2,M,-25.1,M,,0000*61
$GPGSA,A,3,17,27,09,04,,,,,,,,,8.8,5.0,7.3*3D
$GPRMC,193359.000,A,3748.7885,N,12217.8704,W,2.82,246.75,280812,,,A*75
$GPVTG,246.75,T,,M,2.82,N,5.2,K,A*00
$GPGGA,193400.000,3748.7882,N,12217.8717,W,1,04,4.9,2.9,M,-25.1,M,,0000*6B
$GPGSA,A,3,17,27,09,04,,,,,,,,,8.8,4.9,7.3*35
$GPRMC,193400.000,A,3748.7882,N,12217.8717,W,2.18,251.39,280812,,,A*76
$GPVTG,251.39,T,,M,2.18,N,4.0,K,A*0E
$GPGGA,193401.000,3748.7876,N,12217.8731,W,1,04,4.9,3.2,M,-25.1,M,,0000*6F
$GPGSA,A,3,17,27,09,04,,,,,,,,,8.8,4.9,7.3*35
$GPGSV,3,1,10,17,67,042,14,27,51,310,27,28,40,070,20,09,37,314,18*71
$GPGSV,3,2,10,04,32,153,32,26,23,212,16,08,18,138,,01,09,037,18*77
$GPGSV,3,3,10,02,08,183,,12,06,282,*75
$GPRMC,193401.000,A,3748.7876,N,12217.8731,W,1.53,258.14,280812,,,A*72
$GPVTG,258.14,T,,M,1.53,N,2.8,K,A*0A
$GPGGA,193402.000,3748.7869,N,12217.8743,W,1,04,4.9,4.4,M,-25.1,M,,0000*66
$GPGSA,A,3,17,27,09,04,,,,,,,,,8.8,4.9,7.3*35
$GPRMC,193402.000,A,3748.7869,N,12217.8743,W,0.83,260.02,280812,,,A*7A
$GPVTG,260.02,T,,M,0.83,N,1.5,K,A*04
$GPGGA,193403.000,3748.7860,N,12217.8756,W,1,03,2.7,4.9,M,-25.1,M,,0000*68
$GPGSA,A,2,17,27,04,,,,,,,,,,2.9,2.7,1.0*3B
$GPRMC,193403.000,A,3748.7860,N,12217.8756,W,0.63,239.96,280812,,,A*79
$GPVTG,239.96,T,,M,0.63,N,1.2,K,A*0C
$GPGGA,193404.000,3748.7851,N,12217.8768,W,1,03,2.7,5.4,M,-25.1,M,,0000*6C
$GPGSA,A,2,17,27,04,,,,,,,,,,2.9,2.7,1.0*3B
$GPRMC,193404.000,A,3748.7851,N,12217.8768,W,0.63,223.60,280812,,,A*73
$GPVTG,223.60,T,,M,0.63,N,1.2,K,A*0E
$GPGGA,193405.000,3748.7849,N,12217.8770,W,1,03,2.7,5.6,M,-25.1,M,,0000*6F
$GPGSA,A,2,17,27,04,,,,,,,,,,2.9,2.7,1.0*3B
$GPRMC,193405.000,A,3748.7849,N,12217.8770,W,0.29,119.21,280812,,,A*73
$GPVTG,119.21,T,,M,0.29,N,0.5,K,A*09
$GPGGA,193406.000,3748.7847,N,12217.8759,W,1,04,4.9,8.8,M,-25.1,M,,0000*65
$GPGSA,A,3,17,27,09,04,,,,,,,,,8.8,4.9,7.3*35
$GPGSV,3,1,10,17,67,042,13,27,51,310,27,28,40,070,19,09,37,314,17*73
$GPGSV,3,2,10,04,32,153,32,26,23,212,15,08,18,138,,01,09,037,18*74
$GPGSV,3,3,10,02,08,183,,12,06,282,*75
$GPRMC,193406.000,A,3748.7847,N,12217.8759,W,2.02,63.96,280812,,,A*4E
$GPGGA,193407.000,3748.7853,N,12217.8752,W,1,03,50.0,7.7,M,-25.1,M,,0000*55
$GPGSA,A,2,27,09,04,,,,,,,,,,50.0,50.0,1.0*3A
$GPRMC,193407.000,A,3748.7853,N,12217.8752,W,1.94,52.85,280812,,,A*4D
$GPVTG,52.85,T,,M,1.94,N,3.6,K,N*31
$GPGGA,193408.000,3748.7857,N,12217.8746,W,1,03,50.0,7.6,M,-25.1,M,,0000*5A
$GPGSA,A,2,27,09,04,,,,,,,,,,50.0,50.0,1.0*3A
$GPRMC,193408.000,A,3748.7857,N,12217.8746,W,2.01,45.73,280812,,,A*43
$GPVTG,45.73,T,,M,2.01,N,3.7,K,N*30
$GPGGA,193409.000,3748.7862,N,12217.8739,W,1,03,50.0,7.1,M,-25.1,M,,0000*52
$GPGSA,A,2,27,09,04,,,,,,,,,,50.0,50.0,1.0*3A
$GPRMC,193409.000,A,3748.7862,N,12217.8739,W,2.10,43.53,280812,,,A*48
$GPVTG,43.53,T,,M,2.10,N,3.9,K,N*3A
$GPGGA,193410.000,3748.7860,N,12217.8736,W,1,03,50.0,9.4,M,-25.1,M,,0000*5C
$GPGSA,A,2,27,09,04,,,,,,,,,,50.0,50.0,1.0*3A
$GPRMC,193410.000,A,3748.7860,N,12217.8736,W,2.28,47.15,280812,,,A*40
$GPVTG,47.15,T,,M,2.28,N,4.2,K,N*3B
$GPGGA,193411.000,3748.7864,N,12217.8730,W,6,00,50.0,9.3,M,-25.1,M,,0000*5C
$GPGSA,A,2,,,,,,,,,,,,,50.0,50.0,50.0*06
$GPGSV,3,1,10,17,67,042,,27,51,310,27,28,40,070,18,09,38,314,16*7E
$GPGSV,3,2,10,04,32,153,31,26,23,212,16,08,17,138,,01,09,037,18*7B
$GPGSV,3,3,10,02,08,183,,12,06,282,*75
$GPRMC,193411.000,A,3748.7864,N,12217.8730,W,2.28,47.15,280812,,,E*47
$GPVTG,47.15,T,,M,2.28,N,4.2,K,N*3B
$GPGGA,193412.000,3748.7868,N,12217.8724,W,6,00,50.0,9.3,M,-25.1,M,,0000*56
$GPGSA,A,2,,,,,,,,,,,,,50.0,50.0,50.0*06
$GPRMC,193412.000,A,3748.7868,N,12217.8724,W,2.28,47.15,280812,,,E*4D
$GPVTG,47.15,T,,M,2.28,N,4.2,K,N*3B
$GPGGA,193413.000,3748.7873,N,12217.8718,W,6,00,50.0,9.2,M,-25.1,M,,0000*53
$GPGSA,A,2,,,,,,,,,,,,,50.0,50.0,50.0*06
$GPRMC,193413.000,A,3748.7873,N,12217.8718,W,2.28,47.15,280812,,,E*49
$GPVTG,47.15,T,,M,2.28,N,4.2,K,N*3B
$GPGGA,193414.000,3748.7877,N,12217.8713,W,6,00,50.0,9.1,M,-25.1,M,,0000*58
$GPGSA,A,2,,,,,,,,,,,,,50.0,50.0,50.0*06
$GPRMC,193414.000,A,3748.7877,N,12217.8713,W,2.28,47.15,280812,,,E*41
$GPVTG,47.15,T,,M,2.28,N,4.2,K,N*3B
$GPGGA,193415.000,3748.7881,N,12217.8707,W,6,00,50.0,9.0,M,-25.1,M,,0000*54
$GPGSA,A,2,,,,,,,,,,,,,50.0,50.0,50.0*06
$GPRMC,193415.000,A,3748.7881,N,12217.8707,W,2.28,47.15,280812,,,E*4C
$GPVTG,47.15,T,,M,2.28,N,4.2,K,N*3B
$GPGGA,193416.000,3748.7886,N,12217.8701,W,6,00,50.0,9.0,M,-25.1,M,,0000*56
$GPGSA,A,2,,,,,,,,,,,,,50.0,50.0,50.0*06
$GPGSV,3,1,10,17,67,042,,27,51,310,27,28,40,070,18,09,38,314,16*7E
$GPGSV,3,2,10,04,32,153,31,26,23,212,16,08,17,138,,01,09,037,19*7A
$GPGSV,3,3,10,02,08,183,,12,06,282,*75
$GPRMC,193416.000,A,3748.7886,N,12217.8701,W,2.28,47.15,280812,,,E*4E
$GPVTG,47.15,T,,M,2.28,N,4.2,K,N*3B
$GPGGA,193417.000,3748.7890,N,12217.8695,W,6,00,50.0,8.9,M,-25.1,M,,0000*54
$GPGSA,A,2,,,,,,,,,,,,,50.0,50.0,50.0*06
$GPRMC,193417.000,A,3748.7890,N,12217.8695,W,2.28,47.15,280812,,,E*44
$GPVTG,47.15,T,,M,2.28,N,4.2,K,N*3B
$GPGGA,193418.000,3748.7894,N,12217.8689,W,6,00,50.0,8.8,M,-25.1,M,,0000*53
$GPGSA,A,2,,,,,,,,,,,,,50.0,50.0,50.0*06
$GPRMC,193418.000,A,3748.7894,N,12217.8689,W,2.28,47.15,280812,,,E*42
$GPVTG,47.15,T,,M,2.28,N,4.2,K,N*3B
$GPGGA,193419.000,3748.7878,N,12217.8682,W,1,03,50.0,10.2,M,-25.1,M,,0000*6C
$GPGSA,A,2,27,09,04,,,,,,,,,,50.0,50.0,1.0*3A
$GPRMC,193419.000,A,3748.7878,N,12217.8682,W,1.86,62.35,280812,,,A*4C
$GPVTG,62.35,T,,M,1.86,N,3.5,K,N*39
$GPGGA,193420.000,3748.7875,N,12217.8688,W,1,03,50.0,10.9,M,-25.1,M,,0000*6A
$GPGSA,A,2,27,09,04,,,,,,,,,,50.0,50.0,1.0*3A
$GPRMC,193420.000,A,3748.7875,N,12217.8688,W,1.35,62.72,280812,,,A*4A
$GPVTG,62.72,T,,M,1.35,N,2.5,K,N*33
$GPGGA,193421.000,3748.7868,N,12217.8694,W,1,03,50.0,12.3,M,-25.1,M,,0000*62
$GPGSA,A,2,27,09,04,,,,,,,,,,50.0,50.0,1.0*3A
$GPGSV,3,1,10,17,67,042,,27,51,310,28,28,40,070,18,09,38,314,14*73
$GPGSV,3,2,10,04,32,153,31,26,23,212,17,08,17,138,,01,09,037,18*7A
$GPGSV,3,3,10,02,08,183,,12,06,282,*75
$GPRMC,193421.000,A,3748.7868,N,12217.8694,W,1.08,49.79,280812,,,A*46
$GPVTG,49.79,T,,M,1.08,N,2.0,K,N*3A
$GPGGA,193422.000,3748.7870,N,12217.8692,W,1,03,50.0,12.9,M,-25.1,M,,0000*64
$GPGSA,A,2,27,09,04,,,,,,,,,,50.0,50.0,1.0*3A
$GPRMC,193422.000,A,3748.7870,N,12217.8692,W,1.20,42.88,280812,,,A*45
$GPVTG,42.88,T,,M,1.20,N,2.2,K,N*37
$GPGGA,193423.000,3748.7858,N,12217.8705,W,1,03,50.0,15.2,M,-25.1,M,,0000*6C
$GPGSA,A,2,27,09,04,,,,,,,,,,50.0,50.0,1.0*3A
$GPRMC,193423.000,A,3748.7858,N,12217.8705,W,0.99,37.77,280812,,,A*40
$GPVTG,37.77,T,,M,0.99,N,1.8,K,N*3F
$GPGGA,193424.000,3748.7850,N,12217.8716,W,1,03,50.0,16.7,M,-25.1,M,,0000*67
$GPGSA,A,2,27,09,04,,,,,,,,,,50.0,50.0,1.0*3A
$GPRMC,193424.000,A,3748.7850,N,12217.8716,W,0.83,34.78,280812,,,A*4A
$GPVTG,34.78,T,,M,0.83,N,1.5,K,N*35
$GPGGA,193425.000,3748.7833,N,12217.8738,W,1,03,50.0,19.0,M,-25.1,M,,0000*67
$GPGSA,A,2,27,09,04,,,,,,,,,,50.0,50.0,1.0*3A
$GPRMC,193425.000,A,3748.7833,N,12217.8738,W,0.45,20.26,280812,,,A*46
$GPVTG,20.26,T,,M,0.45,N,0.8,K,N*3D
$GPGGA,193426.000,3748.7813,N,12217.8768,W,1,03,50.0,21.2,M,-25.1,M,,0000*6A
$GPGSA,A,2,27,09,04,,,,,,,,,,50.0,50.0,1.0*3A
$GPGSV,3,1,10,17,67,042,,27,51,310,28,28,40,070,19,09,38,314,13*75
$GPGSV,3,2,10,04,32,153,31,26,23,212,17,08,17,138,,01,09,037,18*7A
$GPGSV,3,3,10,02,08,183,,12,06,282,*75
$GPRMC,193426.000,A,3748.7813,N,12217.8768,W,0.28,284.65,280812,,,A*72
$GPVTG,284.65,T,,M,0.28,N,0.5,K,N*00
$GPGGA,193427.000,3748.7813,N,12217.8769,W,6,00,50.0,21.3,M,-25.1,M,,0000*6F
$GPGSA,A,2,,,,,,,,,,,,,50.0,50.0,50.0*06
$GPRMC,193427.000,A,3748.7813,N,12217.8769,W,0.28,284.65,280812,,,E*76
$GPVTG,284.65,T,,M,0.28,N,0.5,K,N*00
$GPGGA,193428.000,3748.7777,N,12217.8819,W,1,03,50.0,23.8,M,-25.1,M,,0000*68
$GPGSA,A,2,27,09,04,,,,,,,,,,50.0,50.0,1.0*3A
$GPRMC,193428.000,A,3748.7777,N,12217.8819,W,1.43,199.69,280812,,,A*77
$GPVTG,199.69,T,,M,1.43,N,2.6,K,N*0E
$GPGGA,193429.000,3748.7757,N,12217.8857,W,1,03,50.0,24.3,M,-25.1,M,,0000*6D
$GPGSA,A,2,27,09,04,,,,,,,,,,50.0,50.0,1.0*3A
$GPRMC,193429.000,A,3748.7757,N,12217.8857,W,2.19,236.87,280812,,,A*74
$GPVTG,236.87,T,,M,2.19,N,4.1,K,N*05
$GPGGA,193430.000,3748.7778,N,12217.8830,W,1,03,50.0,23.4,M,-25.1,M,,0000*69
$GPGSA,A,2,27,09,04,,,,,,,,,,50.0,50.0,1.0*3A
$GPRMC,193430.000,A,3748.7778,N,12217.8830,W,1.35,247.10,280812,,,A*75
$GPVTG,247.10,T,,M,1.35,N,2.5,K,N*02
$GPGGA,193431.000,3748.7776,N,12217.8834,W,6,00,50.0,23.5,M,-25.1,M,,0000*67
$GPGSA,A,2,,,,,,,,,,,,,50.0,50.0,50.0*06
$GPGSV,3,1,10,17,67,042,,27,51,310,27,28,40,070,20,09,38,314,*72
$GPGSV,3,2,10,04,32,153,31,26,23,212,17,08,17,138,,01,09,037,18*7A
$GPGSV,3,3,10,02,08,183,,12,06,282,*75
$GPRMC,193431.000,A,3748.7776,N,12217.8834,W,1.35,247.10,280812,,,E*7A
$GPGGA,193432.000,3748.7775,N,12217.8839,W,6,00,50.0,23.7,M,-25.1,M,,0000*68
$GPGSA,A,2,,,,,,,,,,,,,50.0,50.0,50.0*06
$GPRMC,193432.000,A,3748.7775,N,12217.8839,W,1.35,247.10,280812,,,E*77
$GPVTG,247.10,T,,M,1.35,N,2.5,K,N*02
$GPGGA,193433.000,3748.7773,N,12217.8843,W,6,00,50.0,23.8,M,-25.1,M,,0000*6D
$GPGSA,A,2,,,,,,,,,,,,,50.0,50.0,50.0*06
$GPRMC,193433.000,A,3748.7773,N,12217.8843,W,1.35,247.10,280812,,,E*7D
$GPVTG,247.10,T,,M,1.35,N,2.5,K,N*02
$GPGGA,193434.000,3748.7772,N,12217.8847,W,6,00,50.0,23.9,M,-25.1,M,,0000*6E
$GPGSA,A,2,,,,,,,,,,,,,50.0,50.0,50.0*06
$GPRMC,193434.000,A,3748.7772,N,12217.8847,W,1.35,247.10,280812,,,E*7F
$GPVTG,247.10,T,,M,1.35,N,2.5,K,N*02
$GPGGA,193435.000,3748.7770,N,12217.8852,W,6,00,50.0,24.1,M,-25.1,M,,0000*66
$GPGSA,A,2,,,,,,,,,,,,,50.0,50.0,50.0*06
$GPRMC,193435.000,A,3748.7770,N,12217.8852,W,1.35,247.10,280812,,,E*78
$GPVTG,247.10,T,,M,1.35,N,2.5,K,N*02
$GPGGA,193436.000,3748.7769,N,12217.8856,W,6,00,50.0,24.2,M,-25.1,M,,0000*6A
$GPGSA,A,2,,,,,,,,,,,,,50.0,50.0,50.0*06
$GPGSV,3,1,10,17,67,042,,27,51,310,27,28,40,070,21,09,38,314,*73
$GPGSV,3,2,10,04,32,153,31,26,23,212,18,08,17,138,,01,09,037,18*75
$GPGSV,3,3,10,02,08,183,,12,06,282,*75
$GPRMC,193436.000,A,3748.7769,N,12217.8856,W,1.35,247.10,280812,,,E*77
$GPVTG,247.10,T,,M,1.35,N,2.5,K,N*02
$GPGGA,193437.000,3748.7768,N,12217.8860,W,6,00,50.0,24.4,M,-25.1,M,,0000*69
$GPGSA,A,2,,,,,,,,,,,,,50.0,50.0,50.0*06
$GPRMC,193437.000,A,3748.7768,N,12217.8860,W,1.35,247.10,280812,,,E*72
$GPVTG,247.10,T,,M,1.35,N,2.5,K,N*02
$GPGGA,193438.000,3748.7766,N,12217.8865,W,6,00,50.0,24.5,M,-25.1,M,,0000*6C
$GPGSA,A,2,,,,,,,,,,,,,50.0,50.0,50.0*06
$GPRMC,193438.000,A,3748.7766,N,12217.8865,W,1.35,247.10,280812,,,E*76
$GPVTG,247.10,T,,M,1.35,N,2.5,K,N*02
$GPGGA,193439.000,3748.7765,N,12217.8869,W,6,00,50.0,24.7,M,-25.1,M,,0000*60
$GPGSA,A,2,,,,,,,,,,,,,50.0,50.0,50.0*06
$GPRMC,193439.000,A,3748.7765,N,12217.8869,W,1.35,247.10,280812,,,E*78
$GPVTG,247.10,T,,M,1.35,N,2.5,K,N*02
$GPGGA,193440.000,3748.7763,N,12217.8874,W,6,00,50.0,24.8,M,-25.1,M,,0000*6B
$GPGSA,A,2,,,,,,,,,,,,,50.0,50.0,50.0*06
$GPRMC,193440.000,A,3748.7763,N,12217.8874,W,1.35,247.10,280812,,,E*7C
$GPVTG,247.10,T,,M,1.35,N,2.5,K,N*02
$GPGGA,193441.000,3748.7762,N,12217.8878,W,6,00,50.0,24.9,M,-25.1,M,,0000*66
$GPGSA,A,2,,,,,,,,,,,,,50.0,50.0,50.0*06
$GPGSV,3,1,10,17,67,042,,27,51,310,27,28,40,070,21,09,38,314,*73
$GPGSV,3,2,10,04,32,153,30,26,23,212,17,08,17,139,,01,09,037,18*7A
$GPGSV,3,3,10,02,08,183,,12,06,283,*74
$GPVTG,247.10,T,,M,1.35,N,2.5,K,N*02
$GPGGA,193442.000,3748.7760,N,12217.8882,W,6,00,50.0,25.1,M,-25.1,M,,0000*6B
$GPGSA,A,2,,,,,,,,,,,,,50.0,50.0,50.0*06
$GPRMC,193442.000,A,3748.7760,N,12217.8882,W,1.35,247.10,280812,,,E*74
$GPVTG,247.10,T,,M,1.35,N,2.5,K,N*02
$GPGGA,193443.000,3748.7759,N,12217.8887,W,6,00,50.0,25.2,M,-25.1,M,,0000*66
$GPGSA,A,2,,,,,,,,,,,,,50.0,50.0,50.0*06
$GPRMC,193443.000,A,3748.7759,N,12217.8887,W,1.35,247.10,280812,,,E*7A
$GPVTG,247.10,T,,M,1.35,N,2.5,K,N*02
$GPGGA,193444.000,3748.7757,N,12217.8891,W,6,00,50.0,25.4,M,-25.1,M,,0000*6E
$GPGSA,A,2,,,,,,,,,,,,,50.0,50.0,50.0*06
$GPRMC,193444.000,A,3748.7757,N,12217.8891,W,1.35,247.10,280812,,,E*74
$GPVTG,247.10,T,,M,1.35,N,2.5,K,N*02
$GPGGA,193445.000,3748.7842,N,12217.8715,W,1,03,2.6,26.3,M,-25.1,M,,0000*56
$GPGSA,A,2,17,27,04,,,,,,,,,,2.8,2.6,1.0*3B
$GPRMC,193445.000,A,3748.7842,N,12217.8715,W,2.64,232.55,280812,,,A*7D
$GPVTG,232.55,T,,M,2.64,N,4.9,K,N*0C
$GPGGA,193446.000,3748.7808,N,12217.8774,W,1,03,2.6,25.9,M,-25.1,M,,0000*55
$GPGSA,A,2,17,27,04,,,,,,,,,,2.8,2.6,1.0*3B
$GPGSV,3,1,10,17,67,042,16,27,51,310,27,28,40,070,21,09,38,314,*74
$GPGSV,3,2,10,04,32,153,30,26,23,212,18,08,17,139,,01,09,037,19*74
$GPGSV,3,3,10,02,08,183,,12,06,283,*74
$GPRMC,193446.000,A,3748.7808,N,12217.8774,W,3.60,233.59,280812,,,A*7F
$GPVTG,233.59,T,,M,3.60,N,6.7,K,N*08
$GPGGA,193447.000,3748.7776,N,12217.8831,W,1,03,2.6,25.3,M,-25.1,M,,0000*56
$GPGSA,A,2,17,27,04,,,,,,,,,,2.8,2.6,1.0*3B
$GPRMC,193447.000,A,3748.7776,N,12217.8831,W,3.16,234.38,280812,,,A*77
$GPVTG,234.38,T,,M,3.16,N,5.9,K,N*04
$GPGGA,193448.000,3748.7757,N,12217.8864,W,1,03,2.6,25.0,M,-25.1,M,,0000*59
$GPGSA,A,2,17,27,04,,,,,,,,,,2.8,2.6,1.0*3B
$GPRMC,193448.000,A,3748.7757,N,12217.8864,W,2.62,235.09,280812,,,A*7A
$GPVTG,235.09,T,,M,2.62,N,4.8,K,N*05
$GPGGA,193449.000,3748.7755,N,12217.8867,W,1,03,2.6,24.9,M,-25.1,M,,0000*51
$GPGSA,A,2,17,27,04,,,,,,,,,,2.8,2.6,1.0*3B
$GPRMC,193449.000,A,3748.7755,N,12217.8867,W,1.76,235.87,280812,,,A*7A
$GPVTG,235.87,T,,M,1.76,N,3.3,K,N*09
$GPGGA,193450.000,3748.7752,N,12217.8872,W,6,00,50.0,25.0,M,-25.1,M,,0000*67
$GPGSA,A,2,,,,,,,,,,,,,50.0,50.0,50.0*06
$GPRMC,193450.000,A,3748.7752,N,12217.8872,W,1.76,235.87,280812,,,E*75
$GPVTG,235.87,T,,M,1.76,N,3.3,K,N*09
$GPGGA,193451.000,3748.7752,N,12217.8871,W,1,03,2.6,25.0,M,-25.1,M,,0000*50
$GPGSA,A,2,17,27,04,,,,,,,,,,2.8,2.6,1.0*3B
$GPGSV,3,1,10,17,67,042,16,27,51,310,27,28,40,070,21,09,38,314,*74
$GPGSV,3,2,10,04,32,153,30,26,23,212,18,08,17,139,,01,09,037,19*74
$GPGSV,3,3,10,02,08,183,,12,06,283,*74
$GPVTG,233.33,T,,M,1.33,N,2.5,K,N*06
$GPGGA,193452.000,3748.7765,N,12217.8848,W,1,03,2.6,25.3,M,-25.1,M,,0000*5E
$GPGSA,A,2,17,27,04,,,,,,,,,,2.8,2.6,1.0*3B
$GPRMC,193452.000,A,3748.7765,N,12217.8848,W,0.61,54.25,280812,,,A*44
$GPVTG,54.25,T,,M,0.61,N,1.1,K,N*33
$GPGGA,193453.000,3748.7766,N,12217.8846,W,6,00,50.0,25.4,M,-25.1,M,,0000*60
$GPGSA,A,2,,,,,,,,,,,,,50.0,50.0,50.0*06
$GPRMC,193453.000,A,3748.7766,N,12217.8846,W,0.61,54.25,280812,,,E*4C
$GPVTG,54.25,T,,M,0.61,N,1.1,K,N*33
$GPGGA,193454.000,3748.7767,N,12217.8845,W,6,00,50.0,25.5,M,-25.1,M,,0000*64
$GPGSA,A,2,,,,,,,,,,,,,50.0,50.0,50.0*06
$GPRMC,193454.000,A,3748.7767,N,12217.8845,W,0.61,54.25,280812,,,E*49
$GPVTG,54.25,T,,M,0.61,N,1.1,K,N*33
$GPGGA,193455.000,3748.7768,N,12217.8843,W,6,00,50.0,25.5,M,-25.1,M,,0000*6C
$GPGSA,A,2,,,,,,,,,,,,,50.0,50.0,50.0*06
$GPRMC,193455.000,A,3748.7768,N,12217.8843,W,0.61,54.25,280812,,,E*41
$GPVTG,54.25,T,,M,0.61,N,1.1,K,N*33
$GPGGA,193456.000,3748.7769,N,12217.8841,W,6,00,50.0,25.6,M,-25.1,M,,0000*6F
$GPGSA,A,2,,,,,,,,,,,,,50.0,50.0,50.0*06
$GPGSV,3,1,10,17,67,042,17,27,51,310,26,28,40,070,21,09,38,314,*74
$GPGSV,3,2,10,04,32,153,30,26,23,212,18,08,17,139,,01,09,037,20*7E
$GPGSV,3,3,10,02,08,183,,12,06,283,*74
$GPRMC,193456.000,A,3748.7769,N,12217.8841,W,0.61,54.25,280812,,,E*41
$GPVTG,54.25,T,,M,0.61,N,1.1,K,N*33
$GPGGA,193457.000,3748.7770,N,12217.8840,W,6,00,50.0,25.6,M,-25.1,M,,0000*67
$GPGSA,A,2,,,,,,,,,,,,,50.0,50.0,50.0*06
$GPRMC,193457.000,A,3748.7770,N,12217.8840,W,0.61,54.25,280812,,,E*49
$GPVTG,54.25,T,,M,0.61,N,1.1,K,N*33
$GPGGA,193458.000,3748.7788,N,12217.8808,W,1,03,2.6,25.9,M,-25.1,M,,0000*59
$GPGSA,A,2,17,27,04,,,,,,,,,,2.8,2.6,1.0*3B
$GPRMC,193458.000,A,3748.7788,N,12217.8808,W,1.58,55.71,280812,,,A*42
$GPVTG,55.71,T,,M,1.58,N,2.9,K,N*33
$GPGGA,193459.000,3748.7771,N,12217.8837,W,1,03,2.6,25.5,M,-25.1,M,,0000*5E
$GPGSA,A,2,17,27,04,,,,,,,,,,2.8,2.6,1.0*3B
$GPRMC,193459.000,A,3748.7771,N,12217.8837,W,0.04,38.86,280812,,,A*42
$GPVTG,38.86,T,,M,0.04,N,0.1,K,N*32
$GPGGA,193500.000,3748.7760,N,12217.8854,W,1,03,2.6,25.3,M,-25.1,M,,0000*50
$GPGSA,A,2,17,27,04,,,,,,,,,,2.8,2.6,1.0*3B
$GPRMC,193500.000,A,3748.7760,N,12217.8854,W,0.24,43.23,280812,,,A*4B
$GPVTG,43.23,T,,M,0.24,N,0.4,K,N*36
$GPGGA,193501.000,3748.7753,N,12217.8868,W,1,03,2.6,25.1,M,-25.1,M,,0000*5C
$GPGSA,A,2,17,27,04,,,,,,,,,,2.8,2.6,1.0*3B
$GPGSV,3,1,10,17,67,042,18,27,51,310,26,28,40,070,21,09,38,314,*7B
$GPGSV,3,2,10,04,32,153,30,26,23,212,17,08,17,139,,01,09,037,20*71
$GPGSV,3,3,10,02,08,183,,12,06,283,*74
$GPRMC,193501.000,A,3748.7753,N,12217.8868,W,0.07,290.84,280812,,,A*75
$GPVTG,290.84,T,,M,0.07,N,0.1,K,N*03
$GPGGA,193502.000,3748.7761,N,12217.8854,W,1,03,2.6,25.2,M,-25.1,M,,0000*52
$GPGSA,A,2,17,27,04,,,,,,,,,,2.8,2.6,1.0*3B
$GPRMC,193502.000,A,3748.7761,N,12217.8854,W,0.75,51.45,280812,,,A*4F
$GPVTG,51.45,T,,M,0.75,N,1.4,K,N*30
$GPGGA,193503.000,3748.7773,N,12217.8832,W,1,03,2.6,25.5,M,-25.1,M,,0000*57
$GPGSA,A,2,17,27,04,,,,,,,,,,2.8,2.6,1.0*3B
$GPRMC,193503.000,A,3748.7773,N,12217.8832,W,2.00,53.41,280812,,,A*4B
$GPVTG,53.41,T,,M,2.00,N,3.7,K,N*37
$GPGGA,193504.000,3748.7780,N,12217.8821,W,1,03,2.6,25.5,M,-25.1,M,,0000*5E
$GPGSA,A,2,17,27,04,,,,,,,,,,2.8,2.6,1.0*3B
$GPRMC,193504.000,A,3748.7780,N,12217.8821,W,2.50,52.42,280812,,,A*45
$GPVTG,52.42,T,,M,2.50,N,4.6,K,N*36
$GPGGA,193505.000,3748.7791,N,12217.8801,W,1,03,2.6,25.7,M,-25.1,M,,0000*5F
$GPGSA,A,2,17,27,04,,,,,,,,,,2.8,2.6,1.0*3B
$GPRMC,193505.000,A,3748.7791,N,12217.8801,W,3.42,53.97,280812,,,A*4D
$GPVTG,53.97,T,,M,3.42,N,6.3,K,N*3A
$GPGGA,193506.000,3748.7801,N,12217.8785,W,1,03,2.6,25.8,M,-25.1,M,,0000*56
$GPGSA,A,2,17,27,04,,,,,,,,,,2.8,2.6,1.0*3B
$GPGSV,3,1,10,17,67,042,19,27,51,310,25,28,40,070,21,09,38,314,*79
$GPGSV,3,2,10,04,32,153,30,26,23,212,17,08,17,139,,01,09,037,20*71
$GPGSV,3,3,10,02,08,183,,12,06,283,*74
$GPRMC,193506.000,A,3748.7801,N,12217.8785,W,3.05,54.10,280812,,,A*40
$GPVTG,54.10,T,,M,3.05,N,5.7,K,N*36
$GPGGA,193507.000,3748.7803,N,12217.8781,W,1,03,2.6,25.7,M,-25.1,M,,0000*5E
$GPGSA,A,2,17,27,04,,,,,,,,,,2.8,2.6,1.0*3B
$GPRMC,193507.000,A,3748.7803,N,12217.8781,W,2.54,53.38,280812,,,A*4F
$GPVTG,53.38,T,,M,2.54,N,4.7,K,N*3F
$GPGGA,193508.000,3748.7807,N,12217.8771,W,1,03,2.6,25.6,M,-25.1,M,,0000*5B
$GPGSA,A,2,17,27,04,,,,,,,,,,2.8,2.6,1.0*3B
$GPRMC,193508.000,A,3748.7807,N,12217.8771,W,1.89,57.39,280812,,,A*4D
$GPVTG,57.39,T,,M,1.89,N,3.5,K,N*3C
$GPGGA,193509.000,3748.7799,N,12217.8792,W,1,03,2.6,25.8,M,-25.1,M,,0000*51
$GPGSA,A,2,17,27,04,,,,,,,,,,2.8,2.6,1.0*3B
$GPRMC,193509.000,A,3748.7799,N,12217.8792,W,0.58,236.36,280812,,,A*7E
$GPVTG,236.36,T,,M,0.58,N,1.1,K,N*0D
$GPGGA,193510.000,3748.7792,N,12217.8805,W,1,03,2.6,25.8,M,-25.1,M,,0000*53
$GPGSA,A,2,17,27,04,,,,,,,,,,2.8,2.6,1.0*3B
$GPRMC,193510.000,A,3748.7792,N,12217.8805,W,2.37,233.70,280812,,,A*70
$GPVTG,233.70,T,,M,2.37,N,4.4,K,N*01
$GPGGA,193511.000,3748.7779,N,12217.8829,W,1,03,2.6,25.7,M,-25.1,M,,0000*56
$GPGSA,A,2,17,27,04,,,,,,,,,,2.8,2.6,1.0*3B
$GPGSV,3,1,10,17,67,042,18,27,51,310,25,28,40,070,22,09,38,314,*7B
$GPGSV,3,2,10,04,32,153,30,26,23,212,17,08,17,139,,01,09,037,21*70
$GPGSV,3,3,10,02,08,183,,12,06,283,*74
$GPRMC,193511.000,A,3748.7779,N,12217.8829,W,3.67,234.09,280812,,,A*77
$GPVTG,234.09,T,,M,3.67,N,6.8,K,N*02
$GPGGA,193512.000,3748.7780,N,12217.8825,W,1,03,2.6,25.8,M,-25.1,M,,0000*50
$GPGSA,A,2,17,27,04,,,,,,,,,,2.8,2.6,1.0*3B
$GPRMC,193512.000,A,3748.7780,N,12217.8825,W,2.11,234.95,280812,,,A*7B
$GPVTG,234.95,T,,M,2.11,N,3.9,K,N*03
$GPGGA,193513.000,3748.7781,N,12217.8821,W,1,03,2.6,25.8,M,-25.1,M,,0000*54
$GPGSA,A,2,17,27,04,,,,,,,,,,2.8,2.6,1.0*3B
$GPRMC,193513.000,A,3748.7781,N,12217.8821,W,0.65,233.93,280812,,,A*7F
$GPVTG,233.93,T,,M,0.65,N,1.2,K,N*0A
$GPGGA,193514.000,3748.7778,N,12217.8826,W,1,03,2.6,25.8,M,-25.1,M,,0000*52
$GPGSA,A,2,17,27,04,,,,,,,,,,2.8,2.6,1.0*3B
$GPRMC,193514.000,A,3748.7778,N,12217.8826,W,1.43,234.10,280812,,,A*70
$GPVTG,234.10,T,,M,1.43,N,2.6,K,N*04
$GPGGA,193515.000,3748.7769,N,12217.8846,W,1,03,2.6,26.0,M,-25.1,M,,0000*5E
$GPGSA,A,2,17,27,04,,,,,,,,,,2.8,2.6,1.0*3B
$GPRMC,193515.000,A,3748.7769,N,12217.8846,W,2.80,234.56,280812,,,A*79
$GPVTG,234.56,T,,M,2.80,N,5.2,K,N*09
$GPGGA,193516.000,3748.7758,N,12217.8868,W,1,03,2.6,25.9,M,-25.1,M,,0000*59
$GPGSA,A,2,17,27,04,,,,,,,,,,2.8,2.6,1.0*3B
$GPGSV,3,1,10,17,67,042,18,27,51,310,24,28,40,070,22,09,38,314,*7A
$GPGSV,3,2,10,04,32,153,30,26,23,212,17,08,17,139,,01,09,037,21*70
$GPGSV,3,3,10,02,08,183,,12,06,283,*74
$GPRMC,193516.000,A,3748.7758,N,12217.8868,W,3.12,235.82,280812,,,A*76
$GPGGA,193517.000,3748.7759,N,12217.8868,W,1,03,2.6,25.9,M,-25.1,M,,0000*59
$GPGSA,A,2,17,27,04,,,,,,,,,,2.8,2.6,1.0*3B
$GPRMC,193517.000,A,3748.7759,N,12217.8868,W,1.94,237.02,280812,,,A*70
$GPVTG,237.02,T,,M,1.94,N,3.6,K,N*0F
$GPGGA,193518.000,3748.7756,N,12217.8863,W,1,04,4.8,27.4,M,-25.1,M,,0000*52
$GPGSA,A,3,17,27,09,04,,,,,,,,,8.7,4.8,7.3*3B
$GPRMC,193518.000,A,3748.7756,N,12217.8863,W,0.52,208.66,280812,,,A*7E
$GPVTG,208.66,T,,M,0.52,N,1.0,K,A*01
$GPGGA,193519.000,3748.7754,N,12217.8855,W,1,04,4.8,32.5,M,-25.1,M,,0000*51
$GPGSA,A,3,17,27,09,04,,,,,,,,,8.7,4.8,7.3*3B
$GPRMC,193519.000,A,3748.7754,N,12217.8855,W,1.51,64.82,280812,,,A*48
$GPVTG,64.82,T,,M,1.51,N,2.8,K,A*3A
$GPGGA,193520.000,3748.7768,N,12217.8831,W,1,03,2.6,32.1,M,-25.1,M,,0000*5D
$GPGSA,A,2,17,27,04,,,,,,,,,,2.8,2.6,1.0*3B
$GPRMC,193520.000,A,3748.7768,N,12217.8831,W,2.11,56.41,280812,,,A*46
$GPVTG,56.41,T,,M,2.11,N,3.9,K,A*33
$GPGGA,193521.000,3748.7778,N,12217.8813,W,1,03,2.6,32.0,M,-25.1,M,,0000*5C
$GPGSA,A,2,17,27,04,,,,,,,,,,2.8,2.6,1.0*3B
$GPGSV,3,1,10,17,67,042,17,27,51,309,24,28,40,070,22,09,38,314,14*78
$GPGSV,3,2,10,04,33,153,29,26,23,212,18,08,17,139,,01,09,037,21*76
$GPGSV,3,3,10,02,09,183,,12,06,283,*75
$GPRMC,193521.000,A,3748.7778,N,12217.8813,W,1.90,59.90,280812,,,A*4F
$GPVTG,59.90,T,,M,1.90,N,3.5,K,A*36
$GPGGA,193522.000,3748.7777,N,12217.8807,W,1,04,4.8,34.6,M,-25.1,M,,0000*5A
$GPGSA,A,3,17,27,09,04,,,,,,,,,8.7,4.8,7.3*3B
$GPRMC,193522.000,A,3748.7777,N,12217.8807,W,1.36,73.73,280812,,,A*4F
$GPVTG,73.73,T,,M,1.36,N,2.5,K,A*3E
$GPGGA,193523.000,3748.7768,N,12217.8807,W,1,04,4.8,40.5,M,-25.1,M,,0000*55
$GPGSA,A,3,17,27,09,04,,,,,,,,,8.7,4.8,7.3*3B
$GPRMC,193523.000,A,3748.7768,N,12217.8807,W,1.30,94.34,280812,,,A*4C
$GPVTG,94.34,T,,M,1.30,N,2.4,K,A*33
$GPGGA,193524.000,3748.7772,N,12217.8787,W,1,04,4.8,43.3,M,-25.1,M,,0000*5B
$GPGSA,A,3,17,27,09,04,,,,,,,,,8.7,4.8,7.3*3B
$GPRMC,193524.000,A,3748.7772,N,12217.8787,W,1.40,85.45,280812,,,A*46
$GPVTG,85.45,T,,M,1.40,N,2.6,K,A*30
$GPGGA,193525.000,3748.7779,N,12217.8778,W,1,03,50.0,40.7,M,-25.1,M,,0000*68
$GPGSA,A,2,27,09,04,,,,,,,,,,50.0,50.0,1.0*3A
$GPRMC,193525.000,A,3748.7779,N,12217.8778,W,1.22,81.79,280812,,,A*43
$GPVTG,81.79,T,,M,1.22,N,2.3,K,N*35
$GPGGA,193526.000,3748.7785,N,12217.8769,W,1,03,50.0,38.5,M,-25.1,M,,0000*65
$GPGSA,A,2,27,09,04,,,,,,,,,,50.0,50.0,1.0*3A
$GPGSV,3,1,10,17,67,042,,27,51,309,23,28,40,070,23,09,38,314,16*7A
$GPGSV,3,2,10,04,33,153,29,26,23,212,18,08,17,139,,01,09,037,21*76
$GPGSV,3,3,10,02,09,183,,12,06,283,*75
$GPVTG,77.94,T,,M,1.26,N,2.3,K,N*3B
$GPGGA,193527.000,3748.7793,N,12217.8759,W,1,03,50.0,35.4,M,-25.1,M,,0000*6C
$GPGSA,A,2,27,09,04,,,,,,,,,,50.0,50.0,1.0*3A
$GPRMC,193527.000,A,3748.7793,N,12217.8759,W,1.26,81.26,280812,,,A*48
$GPVTG,81.26,T,,M,1.26,N,2.3,K,N*3B
$GPGGA,193528.000,3748.7805,N,12217.8742,W,1,03,50.0,31.2,M,-25.1,M,,0000*6B
$GPGSA,A,2,27,09,04,,,,,,,,,,50.0,50.0,1.0*3A
$GPRMC,193528.000,A,3748.7805,N,12217.8742,W,1.56,68.42,280812,,,A*4F
$GPVTG,68.42,T,,M,1.56,N,2.9,K,N*33
$GPGGA,193529.000,3748.7807,N,12217.8737,W,6,00,50.0,31.3,M,-25.1,M,,0000*6F
$GPGSA,A,2,,,,,,,,,,,,,50.0,50.0,50.0*06
$GPRMC,193529.000,A,3748.7807,N,12217.8737,W,1.56,68.42,280812,,,E*4A
$GPVTG,68.42,T,,M,1.56,N,2.9,K,N*33
$GPGGA,193530.000,3748.7812,N,12217.8733,W,1,03,50.0,30.3,M,-25.1,M,,0000*62
$GPGSA,A,2,27,09,04,,,,,,,,,,50.0,50.0,1.0*3A
$GPRMC,193530.000,A,3748.7812,N,12217.8733,W,1.36,46.76,280812,,,A*4B
$GPVTG,46.76,T,,M,1.36,N,2.5,K,N*32
$GPGGA,193531.000,3748.7819,N,12217.8724,W,1,03,50.0,28.2,M,-25.1,M,,0000*66
$GPGSA,A,2,27,09,04,,,,,,,,,,50.0,50.0,1.0*3A
$GPGSV,3,1,10,17,67,042,,27,51,309,23,28,40,070,23,09,38,314,17*7B
$GPGSV,3,2,10,04,33,153,29,26,23,212,18,08,17,139,,01,09,037,21*76
$GPGSV,3,3,10,02,09,183,,12,06,283,*75
$GPRMC,193531.000,A,3748.7819,N,12217.8724,W,1.40,61.07,280812,,,A*45
$GPVTG,61.07,T,,M,1.40,N,2.6,K,N*33
$GPGGA,193532.000,3748.7821,N,12217.8719,W,6,00,50.0,28.2,M,-25.1,M,,0000*64
$GPGSA,A,2,,,,,,,,,,,,,50.0,50.0,50.0*06
$GPRMC,193532.000,A,3748.7821,N,12217.8719,W,1.40,61.07,280812,,,E*47
$GPVTG,61.07,T,,M,1.40,N,2.6,K,N*33
$GPGGA,193533.000,3748.7823,N,12217.8715,W,6,00,50.0,28.2,M,-25.1,M,,0000*6B
$GPGSA,A,2,,,,,,,,,,,,,50.0,50.0,50.0*06
$GPRMC,193533.000,A,3748.7823,N,12217.8715,W,1.40,61.07,280812,,,E*48
$GPVTG,61.07,T,,M,1.40,N,2.6,K,N*33
$GPGGA,193534.000,3748.7825,N,12217.8711,W,6,00,50.0,28.2,M,-25.1,M,,0000*6E
$GPGSA,A,2,,,,,,,,,,,,,50.0,50.0,50.0*06
$GPRMC,193534.000,A,3748.7825,N,12217.8711,W,1.40,61.07,280812,,,E*4D
$GPVTG,61.07,T,,M,1.40,N,2.6,K,N*33
$GPGGA,193535.000,3748.7846,N,12217.8662,W,1,03,50.0,24.4,M,-25.1,M,,0000*61
$GPGSA,A,2,27,09,04,,,,,,,,,,50.0,50.0,1.0*3A
$GPRMC,193535.000,A,3748.7846,N,12217.8662,W,3.19,60.78,280812,,,A*4F
$GPVTG,60.78,T,,M,3.19,N,5.9,K,N*3C
$GPGGA,193536.000,3748.7850,N,12217.8652,W,6,00,50.0,24.3,M,-25.1,M,,0000*65
$GPGSA,A,2,,,,,,,,,,,,,50.0,50.0,50.0*06
$GPGSV,3,1,10,17,67,042,,27,51,309,23,28,40,070,24,09,38,314,19*72
$GPGSV,3,2,10,04,33,153,29,26,23,212,19,08,17,139,,01,09,037,21*77
$GPGSV,3,3,10,02,09,183,,12,06,283,*75
$GPRMC,193536.000,A,3748.7850,N,12217.8652,W,3.19,60.78,280812,,,E*4C
$GPVTG,60.78,T,,M,3.19,N,5.9,K,N*3C
$GPGGA,193537.000,3748.7845,N,12217.8686,W,1,03,50.0,25.0,M,-25.1,M,,0000*6F
$GPGSA,A,2,27,09,04,,,,,,,,,,50.0,50.0,1.0*3A
$GPRMC,193537.000,A,3748.7845,N,12217.8686,W,1.99,357.47,280812,,,A*75
$GPVTG,357.47,T,,M,1.99,N,3.7,K,N*05
$GPGGA,193538.000,3748.7857,N,12217.8659,W,1,03,50.0,23.8,M,-25.1,M,,0000*6F
$GPGSA,A,2,27,09,04,,,,,,,,,,50.0,50.0,1.0*3A
$GPRMC,193538.000,A,3748.7857,N,12217.8659,W,2.08,57.30,280812,,,A*43
$GPVTG,57.30,T,,M,2.08,N,3.9,K,N*33
$GPGGA,193539.000,3748.7856,N,12217.8663,W,1,03,50.0,23.9,M,-25.1,M,,0000*67
$GPGSA,A,2,27,09,04,,,,,,,,,,50.0,50.0,1.0*3A
$GPRMC,193539.000,A,3748.7856,N,12217.8663,W,1.45,61.26,280812,,,A*42
$GPVTG,61.26,T,,M,1.45,N,2.7,K,N*34
$GPGGA,193540.000,3748.7837,N,12217.8708,W,1,03,50.0,25.7,M,-25.1,M,,0000*6A
$GPGSA,A,2,27,09,04,,,,,,,,,,50.0,50.0,1.0*3A
$GPRMC,193540.000,A,3748.7837,N,12217.8708,W,0.49,226.33,280812,,,A*7F
$GPVTG,226.33,T,,M,0.49,N,0.9,K,N*00
$GPGGA,193541.000,3748.7822,N,12217.8735,W,1,03,50.0,26.8,M,-25.1,M,,0000*6D
$GPGSA,A,2,27,09,04,,,,,,,,,,50.0,50.0,1.0*3A
$GPGSV,3,1,10,17,67,042,,27,51,309,23,28,40,070,24,09,38,314,20*78
$GPGSV,3,2,10,04,33,153,29,26,23,212,19,08,17,139,,01,09,037,21*77
$GPGSV,3,3,10,02,09,183,,12,06,283,*75
$GPRMC,193541.000,A,3748.7822,N,12217.8735,W,1.45,239.55,280812,,,A*77
$GPVTG,239.55,T,,M,1.45,N,2.7,K,N*0F
$GPGGA,193542.000,3748.7843,N,12217.8700,W,1,03,50.0,25.3,M,-25.1,M,,0000*67
$GPGSA,A,2,27,09,04,,,,,,,,,,50.0,50.0,1.0*3A
$GPRMC,193542.000,A,3748.7843,N,12217.8700,W,0.31,305.32,280812,,,A*78
$GPVTG,305.32,T,,M,0.31,N,0.6,K,N*01
$GPGGA,193543.000,3748.7887,N,12217.8628,W,1,03,50.0,23.3,M,-25.1,M,,0000*63
$GPGSA,A,2,27,09,04,,,,,,,,,,50.0,50.0,1.0*3A
$GPRMC,193543.000,A,3748.7887,N,12217.8628,W,2.62,47.24,280812,,,A*4C
$GPVTG,47.24,T,,M,2.62,N,4.9,K,N*3C
$GPGGA,193544.000,3748.7869,N,12217.8667,W,1,03,50.0,24.6,M,-25.1,M,,0000*6D
$GPGSA,A,2,27,09,04,,,,,,,,,,50.0,50.0,1.0*3A
$GPRMC,193544.000,A,3748.7869,N,12217.8667,W,1.42,34.27,280812,,,A*46
$GPVTG,34.27,T,,M,1.42,N,2.6,K,N*33
$GPGGA,193545.000,3748.7857,N,12217.8690,W,1,03,50.0,25.6,M,-25.1,M,,0000*68
$GPGSA,A,2,27,09,04,,,,,,,,,,50.0,50.0,1.0*3A
$GPRMC,193545.000,A,3748.7857,N,12217.8690,W,0.73,68.62,280812,,,A*49
$GPVTG,68.62,T,,M,0.73,N,1.4,K,N*39
$GPGGA,193546.000,3748.7850,N,12217.8703,W,1,03,50.0,26.0,M,-25.1,M,,0000*62
$GPGSA,A,2,27,09,04,,,,,,,,,,50.0,50.0,1.0*3A
$GPGSV,3,1,11,17,67,042,,27,51,309,23,28,40,070,25,09,38,314,20*78
$GPGSV,3,2,11,04,33,153,28,26,23,212,20,08,17,139,,01,09,037,20*7C
$GPGSV,3,3,11,02,09,183,,12,06,283,,48,44,197,31*45
$GPRMC,193546.000,A,3748.7850,N,12217.8703,W,0.33,51.42,280812,,,A*4A
$GPVTG,51.42,T,,M,0.33,N,0.6,K,N*36
$GPGGA,193547.000,3748.7806,N,12217.8782,W,1,03,50.0,27.2,M,-25.1,M,,0000*6A
$GPGSA,A,2,27,09,04,,,,,,,,,,50.0,50.0,1.0*3A
$GPRMC,193547.000,A,3748.7806,N,12217.8782,W,2.09,225.26,280812,,,A*79
$GPVTG,225.26,T,,M,2.09,N,3.9,K,N*02
$GPGGA,193548.000,3748.7777,N,12217.8829,W,1,03,50.0,28.5,M,-25.1,M,,0000*6A
$GPGSA,A,2,27,09,04,,,,,,,,,,50.0,50.0,1.0*3A
$GPRMC,193548.000,A,3748.7777,N,12217.8829,W,2.98,231.99,280812,,,A*78
$GPVTG,231.99,T,,M,2.98,N,5.5,K,N*01
$GPGGA,193549.000,3748.7777,N,12217.8833,W,1,03,50.0,28.3,M,-25.1,M,,0000*66
$GPGSA,A,2,27,09,04,,,,,,,,,,50.0,50.0,1.0*3A
$GPRMC,193549.000,A,3748.7777,N,12217.8833,W,2.92,244.19,280812,,,A*72
$GPVTG,244.19,T,,M,2.92,N,5.4,K,N*00
$GPGGA,193550.000,3748.7784,N,12217.8828,W,1,03,50.0,28.1,M,-25.1,M,,0000*6A
$GPGSA,A,2,27,09,04,,,,,,,,,,50.0,50.0,1.0*3A
$GPRMC,193550.000,A,3748.7784,N,12217.8828,W,2.42,243.80,280812,,,A*76
$GPVTG,243.80,T,,M,2.42,N,4.5,K,N*0A
$GPGGA,193551.000,3748.7800,N,12217.8799,W,1,03,50.0,27.8,M,-25.1,M,,0000*6B
$GPGSA,A,2,27,09,04,,,,,,,,,,50.0,50.0,1.0*3A
$GPGSV,3,1,11,17,67,042,,27,52,309,22,28,40,071,25,09,38,314,21*7A
$GPGSV,3,2,11,04,33,153,28,26,23,212,20,08,17,139,,02,09,183,*73
$GPGSV,3,3,11,01,08,037,20,12,07,283,,48,44,197,31*4A
$GPVTG,227.22,T,,M,1.30,N,2.4,K,N*01
$GPGGA,193552.000,3748.7707,N,12217.8959,W,1,03,50.0,29.2,M,-25.1,M,,0000*66
$GPGSA,A,2,27,09,04,,,,,,,,,,50.0,50.0,1.0*3A
$GPRMC,193552.000,A,3748.7707,N,12217.8959,W,5.33,231.81,280812,,,A*7D
$GPVTG,231.81,T,,M,5.33,N,9.9,K,N*0E
$GPGGA,193553.000,3748.7681,N,12217.9010,W,1,03,50.0,29.3,M,-25.1,M,,0000*6C
$GPGSA,A,2,27,09,04,,,,,,,,,,50.0,50.0,1.0*3A
$GPRMC,193553.000,A,3748.7681,N,12217.9010,W,6.37,235.07,280812,,,A*7B
$GPVTG,235.07,T,,M,6.37,N,11.8,K,N*3B
$GPGGA,193554.000,3748.7698,N,12217.8984,W,1,03,50.0,29.1,M,-25.1,M,,0000*64
$GPGSA,A,2,27,09,04,,,,,,,,,,50.0,50.0,1.0*3A
$GPRMC,193554.000,A,3748.7698,N,12217.8984,W,5.18,237.07,280812,,,A*7D
$GPVTG,237.07,T,,M,5.18,N,9.6,K,N*00
$GPGGA,193555.000,3748.7753,N,12217.8886,W,1,03,50.0,28.4,M,-25.1,M,,0000*64
$GPGSA,A,2,27,09,04,,,,,,,,,,50.0,50.0,1.0*3A
$GPRMC,193555.000,A,3748.7753,N,12217.8886,W,2.44,225.78,280812,,,A*7C
$GPVTG,225.78,T,,M,2.44,N,4.5,K,N*0B
$GPGGA,193556.000,3748.7746,N,12217.8896,W,1,03,50.0,28.4,M,-25.1,M,,0000*62
$GPGSA,A,2,27,09,04,,,,,,,,,,50.0,50.0,1.0*3A
$GPGSV,3,1,11,17,67,042,,27,52,309,22,28,40,071,25,09,38,314,21*7A
$GPGSV,3,2,11,04,33,153,27,26,23,212,20,08,17,139,,02,09,183,*7C
$GPGSV,3,3,11,01,08,037,20,12,07,283,,48,44,197,30*4B
$GPRMC,193556.000,A,3748.7746,N,12217.8896,W,2.61,232.66,280812,,,A*74
$GPVTG,232.66,T,,M,2.61,N,4.8,K,N*08
$GPGGA,193557.000,3748.7799,N,12217.8801,W,1,03,50.0,28.0,M,-25.1,M,,0000*6B
$GPGSA,A,2,27,09,04,,,,,,,,,,50.0,50.0,1.0*3A
$GPRMC,193557.000,A,3748.7799,N,12217.8801,W,0.18,221.52,280812,,,A*70
$GPVTG,221.52,T,,M,0.18,N,0.3,K,N*0E
$GPGGA,193558.000,3748.7723,N,12217.8929,W,1,03,50.0,28.9,M,-25.1,M,,0000*67
$GPGSA,A,2,27,09,04,,,,,,,,,,50.0,50.0,1.0*3A
$GPRMC,193558.000,A,3748.7723,N,12217.8929,W,2.91,234.43,280812,,,A*72
$GPVTG,234.43,T,,M,2.91,N,5.4,K,N*0B
$GPGGA,193559.000,3748.7638,N,12217.9080,W,1,03,50.0,29.5,M,-25.1,M,,0000*6B
$GPGSA,A,2,27,09,04,,,,,,,,,,50.0,50.0,1.0*3A
$GPRMC,193559.000,A,3748.7638,N,12217.9080,W,5.82,231.44,280812,,,A*74
$GPVTG,231.44,T,,M,5.82,N,10.8,K,N*34
$GPGGA,193600.000,3748.7565,N,12217.9197,W,1,03,50.0,30.1,M,-25.1,M,,0000*64
$GPGSA,A,2,27,09,04,,,,,,,,,,50.0,50.0,1.0*3A
$GPRMC,193600.000,A,3748.7565,N,12217.9197,W,7.89,229.92,280812,,,A*7C
$GPVTG,229.92,T,,M,7.89,N,14.6,K,N*35
$GPGGA,193601.000,3748.7488,N,12217.9324,W,1,03,50.0,30.5,M,-25.1,M,,0000*69
$GPGSA,A,2,27,09,04,,,,,,,,,,50.0,50.0,1.0*3A
$GPGSV,3,1,11,17,67,042,,27,52,309,21,28,40,071,24,09,38,314,21*78
$GPGSV,3,2,11,04,33,153,27,26,23,212,20,08,17,139,,02,09,183,*7C
$GPGSV,3,3,11,01,08,037,20,12,07,283,,48,44,197,28*42
$GPRMC,193601.000,A,3748.7488,N,12217.9324,W,10.18,231.40,280812,,,A*4D
$GPVTG,231.40,T,,M,10.18,N,18.8,K,N*0F
$GPGGA,193602.000,3748.7476,N,12217.9337,W,1,03,50.0,30.7,M,-25.1,M,,0000*6B
$GPGSA,A,2,27,09,04,,,,,,,,,,50.0,50.0,1.0*3A
$GPRMC,193602.000,A,3748.7476,N,12217.9337,W,9.69,230.50,280812,,,A*73
$GPVTG,230.50,T,,M,9.69,N,18.0,K,N*39
$GPGGA,193603.000,3748.7573,N,12217.9166,W,1,03,50.0,29.9,M,-25.1,M,,0000*6E
$GPGSA,A,2,27,09,04,,,,,,,,,,50.0,50.0,1.0*3A
$GPRMC,193603.000,A,3748.7573,N,12217.9166,W,6.11,228.54,280812,,,A*7D
$GPVTG,228.54,T,,M,6.11,N,11.3,K,N*3E
$GPGGA,193604.000,3748.7641,N,12217.9052,W,1,03,50.0,29.5,M,-25.1,M,,0000*61
$GPGSA,A,2,27,09,04,,,,,,,,,,50.0,50.0,1.0*3A
$GPRMC,193604.000,A,3748.7641,N,12217.9052,W,3.35,227.01,280812,,,A*72
$GPVTG,227.01,T,,M,3.35,N,6.2,K,N*05
$GPGGA,193605.000,3748.7868,N,12217.8652,W,1,04,4.7,31.4,M,-25.1,M,,0000*5B
$GPGSA,A,3,27,09,04,17,,,,,,,,,8.7,4.7,7.4*33
$GPRMC,193605.000,A,3748.7868,N,12217.8652,W,4.24,57.88,280812,,,A*42
$GPVTG,57.88,T,,M,4.24,N,7.9,K,A*33
$GPGGA,193606.000,3748.7869,N,12217.8646,W,1,04,4.7,30.2,M,-25.1,M,,0000*5B
$GPGSA,A,3,27,09,04,17,,,,,,,,,8.7,4.7,7.4*33
$GPGSV,3,1,11,17,67,042,18,27,52,309,21,28,40,071,24,09,38,314,22*72
$GPGSV,3,2,11,04,33,153,26,26,23,212,20,08,17,139,,02,09,183,*7D
$GPGSV,3,3,11,01,08,037,20,12,07,283,,48,44,197,25*4F
$GPRMC,193606.000,A,3748.7869,N,12217.8646,W,4.54,58.23,280812,,,A*4C
$GPGGA,193607.000,3748.7870,N,12217.8636,W,1,04,4.7,29.8,M,-25.1,M,,0000*57
$GPGSA,A,3,27,09,04,17,,,,,,,,,8.7,4.7,7.4*33
$GPRMC,193607.000,A,3748.7870,N,12217.8636,W,4.33,58.74,280812,,,A*41
$GPVTG,58.74,T,,M,4.33,N,8.0,K,A*3F
$GPGGA,193608.000,3748.7870,N,12217.8629,W,1,04,4.7,30.8,M,-25.1,M,,0000*5E
$GPGSA,A,3,27,09,04,17,,,,,,,,,8.7,4.7,7.4*33
$GPRMC,193608.000,A,3748.7870,N,12217.8629,W,3.52,59.20,280812,,,A*40
$GPVTG,59.20,T,,M,3.52,N,6.5,K,A*34
$GPGGA,193609.000,3748.7883,N,12217.8601,W,1,04,4.6,30.8,M,-25.1,M,,0000*58
$GPGSA,A,3,27,09,04,17,,,,,,,,,8.7,4.6,7.4*32
$GPRMC,193609.000,A,3748.7883,N,12217.8601,W,3.09,60.86,280812,,,A*4F
$GPVTG,60.86,T,,M,3.09,N,5.7,K,A*3D
$GPGGA,193610.000,3748.7884,N,12217.8600,W,1,04,4.6,29.3,M,-25.1,M,,0000*55
$GPGSA,A,3,27,09,04,17,,,,,,,,,8.7,4.6,7.4*32
$GPRMC,193610.000,A,3748.7884,N,12217.8600,W,1.63,60.00,280812,,,A*41
$GPVTG,60.00,T,,M,1.63,N,3.0,K,A*3C
$GPGGA,193611.000,3748.7882,N,12217.8602,W,1,04,4.6,29.8,M,-25.1,M,,0000*5B
$GPGSA,A,3,27,09,04,17,,,,,,,,,8.7,4.6,7.4*32
$GPGSV,3,1,11,17,67,042,18,27,52,309,20,28,40,071,24,09,38,314,22*73
$GPGSV,3,2,11,04,33,153,26,26,23,212,20,08,17,139,,02,09,183,*7D
$GPGSV,3,3,11,01,08,037,20,12,07,283,,48,44,197,31*4A
$GPRMC,193611.000,A,3748.7882,N,12217.8602,W,1.00,66.42,280812,,,A*41
$GPVTG,66.42,T,,M,1.00,N,1.8,K,A*33
$GPGGA,193612.000,3748.7882,N,12217.8607,W,1,04,4.6,27.9,M,-25.1,M,,0000*52
$GPGSA,A,3,27,09,04,17,,,,,,,,,8.7,4.6,7.4*32
$GPRMC,193612.000,A,3748.7882,N,12217.8607,W,0.40,46.25,280812,,,A*41
$GPVTG,46.25,T,,M,0.40,N,0.7,K,A*3B
$GPGGA,193613.000,3748.7879,N,12217.8614,W,1,04,4.6,28.7,M,-25.1,M,,0000*54
$GPGSA,A,3,27,09,04,17,,,,,,,,,8.7,4.6,7.4*32
$GPRMC,193613.000,A,3748.7879,N,12217.8614,W,0.55,35.41,280812,,,A*44
$GPVTG,35.41,T,,M,0.55,N,1.0,K,A*3F
$GPGGA,193614.000,3748.7874,N,12217.8627,W,1,04,4.6,31.0,M,-25.1,M,,0000*51
$GPGSA,A,3,27,09,04,17,,,,,,,,,8.7,4.6,7.4*32
$GPRMC,193614.000,A,3748.7874,N,12217.8627,W,0.14,280.04,280812,,,A*76
$GPVTG,280.04,T,,M,0.14,N,0.3,K,A*05
$GPGGA,193615.000,3748.7874,N,12217.8633,W,1,04,4.6,28.7,M,-25.1,M,,0000*5A
$GPGSA,A,3,27,09,04,17,,,,,,,,,8.7,4.6,7.4*32
$GPRMC,193615.000,A,3748.7874,N,12217.8633,W,0.97,246.12,280812,,,A*74
$GPVTG,246.12,T,,M,0.97,N,1.8,K,A*09
$GPGGA,193616.000,3748.7877,N,12217.8632,W,1,04,4.6,26.9,M,-25.1,M,,0000*5B
$GPGSA,A,3,27,09,04,17,,,,,,,,,8.7,4.6,7.4*32
$GPGSV,3,1,11,17,67,042,19,27,52,309,20,28,40,071,23,09,38,314,22*75
$GPGSV,3,2,11,04,33,153,26,26,23,212,20,08,17,139,,02,09,183,*7D
$GPGSV,3,3,11,01,08,037,20,12,07,283,,48,44,197,31*4A
$GPRMC,193616.000,A,3748.7877,N,12217.8632,W,0.15,298.91,280812,,,A*77
$GPVTG,298.91,T,,M,0.15,N,0.3,K,A*01
$GPGGA,193617.000,3748.7878,N,12217.8633,W,1,04,4.6,25.6,M,-25.1,M,,0000*58
$GPGSA,A,3,27,09,04,17,,,,,,,,,8.7,4.6,7.4*32
$GPRMC,193617.000,A,3748.7878,N,12217.8633,W,0.63,91.59,280812,,,A*46
