$ADVER,3080,2.3
$GPRMC,214333.972,A,3748.7996,N,12217.8387,W,0.00,,180511,,,A*6C
$GPGGA,214334.976,3748.8013,N,12217.8306,W,1,03,10.9,25.1,M,-25.1,M,,0000*6B
$GPGSA,A,2,03,16,06,,,,,,,,,,10.9,10.9,1.0*30
$GPRMC,214334.976,A,3748.8013,N,12217.8306,W,0.00,,180511,,,A*6D
$GPVTG,,T,,M,0.00,N,0.0,K,N*1C
$GPGGA,214335.976,3748.8015,N,12217.8298,W,1,03,10.9,25.1,M,-25.1,M,,0000*6A
$GPGSA,A,2,03,16,06,,,,,,,,,,10.9,10.9,1.0*30
$GPRMC,214335.976,A,3748.8015,N,12217.8298,W,0.00,,180511,,,A*6C
$GPVTG,,T,,M,0.00,N,0.0,K,N*1C
$GPGGA,214336.975,3748.8016,N,12217.8292,W,1,03,10.9,25.1,M,-25.1,M,,0000*63
$GPGSA,A,2,03,16,06,,,,,,,,,,10.9,10.9,1.0*30
$GPGSV,3,1,12,16,30,045,36,03,24,093,41,06,19,078,40,13,74,015,32*73
$GPGSV,3,2,12,23,54,105,39,07,52,282,20,10,39,296,19,08,26,262,25*7C
$GPGSV,3,3,12,20,19,176,36,19,12,122,37,32,02,161,,04,01,257,*7B
$GPRMC,214336.975,A,3748.8016,N,12217.8292,W,0.00,,180511,,,A*65
$GPVTG,,T,,M,0.00,N,0.0,K,N*1C
$GPGGA,214337.971,3748.8019,N,12217.8295,W,1,03,10.9,25.1,M,-25.1,M,,0000*6E
$GPGSA,A,2,03,16,06,,,,,,,,,,11.0,10.9,1.0*38
$GPRMC,214337.971,A,3748.8019,N,12217.8295,W,0.00,,180511,,,A*68
$GPVTG,,T,,M,0.00,N,0.0,K,N*1C
$GPGGA,214338.975,3748.8021,N,12217.8293,W,1,03,10.9,25.1,M,-25.1,M,,0000*68
$GPGSA,A,2,03,16,06,,,,,,,,,,11.0,10.9,1.0*38
$GPRMC,214338.975,A,3748.8021,N,12217.8293,W,0.00,,180511,,,A*6E
$GPVTG,,T,,M,0.00,N,0.0,K,N*1C
$GPGGA,214339.975,3748.8022,N,12217.8282,W,1,03,10.9,25.1,M,-25.1,M,,0000*6A
$GPGSA,A,2,03,16,06,,,,,,,,,,11.0,10.9,1.0*38
$GPRMC,214339.975,A,3748.8022,N,12217.8282,W,0.00,,180511,,,A*6C
$GPVTG,,T,,M,0.00,N,0.0,K,N*1C
$GPGGA,214340.975,3748.8025,N,12217.8271,W,1,03,10.9,25.1,M,-25.1,M,,0000*6F
$GPGSA,A,2,03,16,06,,,,,,,,,,11.0,10.9,1.0*38
$GPRMC,214340.975,A,3748.8025,N,12217.8271,W,0.00,,180511,,,A*69
$GPVTG,,T,,M,0.00,N,0.0,K,N*1C
$GPGGA,214341.971,3748.8026,N,12217.8274,W,1,03,10.9,25.1,M,-25.1,M,,0000*6C
$GPGSA,A,2,03,16,06,,,,,,,,,,11.0,10.9,1.0*38
$GPGSV,3,1,12,16,30,045,35,03,24,093,40,06,19,078,39,13,74,015,32*7F
$GPGSV,3,2,12,23,54,105,39,07,52,282,19,10,39,296,25,08,26,262,26*7A
$GPGSV,3,3,12,20,19,176,36,19,12,122,38,32,02,161,,04,01,257,*74
$GPRMC,214341.971,A,3748.8026,N,12217.8274,W,0.00,,180511,,,A*6A
$GPVTG,,T,,M,0.00,N,0.0,K,N*1C
$GPGGA,214342.975,3748.8026,N,12217.8283,W,1,03,10.9,25.1,M,-25.1,M,,0000*63
$GPGSA,A,2,03,16,06,,,,,,,,,,11.0,10.9,1.0*38
$GPRMC,214342.975,A,3748.8026,N,12217.8283,W,0.00,,180511,,,A*65
$GPVTG,,T,,M,0.00,N,0.0,K,N*1C
$GPGGA,214343.975,3748.8026,N,12217.8293,W,1,03,10.9,25.1,M,-25.1,M,,0000*63
$GPGSA,A,2,03,16,06,,,,,,,,,,11.0,10.9,1.0*38
$GPRMC,214343.975,A,3748.8026,N,12217.8293,W,0.00,,180511,,,A*65
$GPVTG,,T,,M,0.00,N,0.0,K,N*1C
$GPGGA,214344.975,3748.8026,N,12217.8301,W,1,03,10.9,25.1,M,-25.1,M,,0000*6E
$GPGSA,A,2,03,16,06,,,,,,,,,,11.0,10.9,1.0*38
$GPRMC,214344.975,A,3748.8026,N,12217.8301,W,0.00,,180511,,,A*68
$GPVTG,,T,,M,0.00,N,0.0,K,N*1C
$GPGGA,214345.971,3748.8027,N,12217.8310,W,1,03,10.9,25.1,M,-25.1,M,,0000*6A
$GPGSA,A,2,03,16,06,,,,,,,,,,11.0,10.9,1.0*38
$GPRMC,214345.971,A,3748.8027,N,12217.8310,W,0.00,,180511,,,A*6C
$GPVTG,,T,,M,0.00,N,0.0,K,N*1C
$GPGGA,214346.975,3748.8027,N,12217.8316,W,1,03,10.9,25.1,M,-25.1,M,,0000*6B
$GPGSA,A,2,03,16,06,,,,,,,,,,11.0,10.9,1.0*38
$GPGSV,3,1,12,16,30,045,34,03,24,093,39,06,19,078,39,13,74,015,32*70
$GPGSV,3,2,12,23,53,105,39,07,52,282,,10,39,296,25,08,26,262,26*75
$GPGSV,3,3,12,20,19,176,36,19,12,122,38,32,02,161,,05,01,326,*72
$GPRMC,214346.975,A,3748.8027,N,12217.8316,W,0.00,,180511,,,A*6D
$GPVTG,,T,,M,0.00,N,0.0,K,N*1C
$GPGGA,214347.975,3748.8028,N,12217.8316,W,1,03,10.9,25.1,M,-25.1,M,,0000*65
$GPGSA,A,2,03,16,06,,,,,,,,,,11.0,10.9,1.0*38
$GPRMC,214347.975,A,3748.8028,N,12217.8316,W,0.00,,180511,,,A*63
$GPVTG,,T,,M,0.00,N,0.0,K,N*1C
$GPGGA,214348.975,3748.8029,N,12217.8317,W,1,03,10.9,25.1,M,-25.1,M,,0000*6A
$GPGSA,A,2,03,16,06,,,,,,,,,,11.0,10.9,1.0*38
$GPRMC,214348.975,A,3748.8029,N,12217.8317,W,0.00,,180511,,,A*6C
$GPVTG,,T,,M,0.00,N,0.0,K,N*1C
$GPGGA,214349.971,3748.8029,N,12217.8319,W,1,03,10.9,25.1,M,-25.1,M,,0000*61
$GPGSA,A,2,03,16,06,,,,,,,,,,11.0,10.9,1.0*38
$GPRMC,214349.971,A,3748.8029,N,12217.8319,W,0.00,,180511,,,A*67
$GPVTG,,T,,M,0.00,N,0.0,K,N*1C
$GPGGA,214350.975,3748.8028,N,12217.8320,W,1,03,10.9,25.1,M,-25.1,M,,0000*66
$GPGSA,A,2,03,16,06,,,,,,,,,,11.0,10.9,1.0*38
$GPRMC,214350.975,A,3748.8028,N,12217.8320,W,0.00,,180511,,,A*60
$GPVTG,,T,,M,0.00,N,0.0,K,N*1C
$GPGGA,214351.975,3748.8000,N,12217.8436,W,1,05,5.0,9.5,M,-25.1,M,,0000*6C
$GPGSA,A,3,03,16,19,06,23,,,,,,,,6.2,5.0,3.6*3D
$GPGSV,3,1,12,16,30,045,34,03,24,093,39,06,19,078,39,13,74,015,32*70
$GPGSV,3,2,12,23,53,105,39,07,52,282,,10,39,296,25,08,26,262,27*74
$GPGSV,3,3,12,20,19,176,36,19,12,122,37,32,02,161,,05,01,326,*7D
$GPRMC,214351.975,A,3748.8000,N,12217.8436,W,0.10,0.00,180511,,,A*74
$GPGGA,214352.975,3748.8000,N,12217.8439,W,1,05,5.0,9.3,M,-25.1,M,,0000*66
$GPGSA,A,3,03,16,19,06,23,,,,,,,,6.2,5.0,3.6*3D
$GPRMC,214352.975,A,3748.8000,N,12217.8439,W,0.05,324.99,180511,,,A*79
$GPVTG,324.99,T,,M,0.05,N,0.1,K,A*0C
$GPGGA,214354.000,3748.8000,N,12217.8436,W,1,05,5.0,9.4,M,-25.1,M,,0000*63
$GPGSA,A,3,03,16,19,06,23,,,,,,,,6.2,5.0,3.6*3D
$GPRMC,214354.000,A,3748.8000,N,12217.8436,W,0.10,9.90,180511,,,A*7A
$GPVTG,9.90,T,,M,0.10,N,0.2,K,A*0E
$GPGGA,214355.000,3748.7999,N,12217.8435,W,1,05,5.0,9.4,M,-25.1,M,,0000*67
$GPGSA,A,3,03,16,19,06,23,,,,,,,,6.2,5.0,3.6*3D
$GPRMC,214355.000,A,3748.7999,N,12217.8435,W,0.07,328.57,180511,,,A*73
$GPVTG,328.57,T,,M,0.07,N,0.1,K,A*00
$GPGGA,214356.000,3748.7998,N,12217.8433,W,1,05,5.0,9.6,M,-25.1,M,,0000*61
$GPGSA,A,3,03,16,19,06,23,,,,,,,,6.2,5.0,3.6*3D
$GPRMC,214356.000,A,3748.7998,N,12217.8433,W,0.14,300.61,180511,,,A*7A
$GPVTG,300.61,T,,M,0.14,N,0.3,K,A*0F
$GPGGA,214357.000,3748.7997,N,12217.8430,W,1,05,5.0,9.9,M,-25.1,M,,0000*63
$GPGSA,A,3,03,16,19,06,23,,,,,,,,6.2,5.0,3.6*3D
$GPGSV,3,1,12,23,53,105,39,16,30,045,29,03,24,093,38,06,19,077,39*7F
$GPGSV,3,2,12,19,12,122,36,13,74,016,31,07,52,282,21,10,39,295,26*7A
$GPGSV,3,3,12,08,26,262,27,20,19,176,36,32,02,161,19,05,01,326,*74
$GPRMC,214357.000,A,3748.7997,N,12217.8430,W,0.14,314.77,180511,,,A*75
$GPVTG,314.77,T,,M,0.14,N,0.3,K,A*0D
$GPGGA,214358.000,3748.7996,N,12217.8426,W,1,05,5.0,10.4,M,-25.1,M,,0000*5F
$GPGSA,A,3,03,16,19,06,23,,,,,,,,6.2,5.0,3.6*3D
$GPRMC,214358.000,A,3748.7996,N,12217.8426,W,0.16,306.57,180511,,,A*7F
$GPVTG,306.57,T,,M,0.16,N,0.3,K,A*0E
$GPGGA,214359.000,3748.7994,N,12217.8420,W,1,05,5.0,10.9,M,-25.1,M,,0000*57
$GPGSA,A,3,03,16,19,06,23,,,,,,,,6.2,5.0,3.6*3D
$GPRMC,214359.000,A,3748.7994,N,12217.8420,W,0.09,304.99,180511,,,A*74
$GPVTG,304.99,T,,M,0.09,N,0.2,K,A*01
$GPGGA,214400.000,3748.7994,N,12217.8420,W,1,05,5.0,10.9,M,-25.1,M,,0000*5C
$GPGSA,A,3,03,16,19,06,23,,,,,,,,6.2,5.0,3.6*3D
$GPRMC,214400.000,A,3748.7994,N,12217.8420,W,0.06,325.22,180511,,,A*73
$GPVTG,325.22,T,,M,0.06,N,0.1,K,A*0E
$GPGGA,214401.000,3748.7994,N,12217.8419,W,1,04,4.4,11.0,M,-25.1,M,,0000*5B
$GPGSA,A,3,03,19,06,23,,,,,,,,,4.5,4.4,1.0*3E
$GPRMC,214401.000,A,3748.7994,N,12217.8419,W,0.18,143.36,180511,,,A*70
$GPVTG,143.36,T,,M,0.18,N,0.3,K,A*04
$GPGGA,214402.000,3748.7993,N,12217.8415,W,1,05,5.0,11.3,M,-25.1,M,,0000*54
$GPGSA,A,3,03,16,19,06,23,,,,,,,,6.2,5.0,3.6*3D
$GPGSV,3,1,12,23,53,105,39,16,30,045,19,03,24,093,38,06,19,077,38*7D
$GPGSV,3,2,12,19,12,122,36,13,74,016,30,07,52,282,28,10,39,295,25*71
$GPGSV,3,3,12,08,26,262,31,20,19,176,37,32,02,161,19,05,01,326,*72
$GPRMC,214402.000,A,3748.7993,N,12217.8415,W,0.44,133.00,180511,,,A*73
$GPVTG,133.00,T,,M,0.44,N,0.8,K,A*04
$GPGGA,214403.000,3748.7990,N,12217.8494,W,1,06,3.3,5.5,M,-25.1,M,,0000*6A
$GPGSA,A,3,03,16,19,06,13,23,,,,,,,4.7,3.3,3.3*38
$GPRMC,214403.000,A,3748.7990,N,12217.8494,W,0.19,332.46,180511,,,A*71
$GPVTG,332.46,T,,M,0.19,N,0.4,K,A*01
$GPGGA,214404.000,3748.7982,N,12217.8527,W,1,06,3.3,3.4,M,-25.1,M,,0000*60
$GPGSA,A,3,03,16,19,06,13,23,,,,,,,4.7,3.3,3.3*38
$GPRMC,214404.000,A,3748.7982,N,12217.8527,W,0.14,287.98,180511,,,A*7D
$GPVTG,287.98,T,,M,0.14,N,0.3,K,A*07
$GPGGA,214405.000,3748.7987,N,12217.8540,W,1,06,3.3,2.1,M,-25.1,M,,0000*61
$GPGSA,A,3,03,16,19,06,13,23,,,,,,,4.7,3.3,3.3*38
$GPRMC,214405.000,A,3748.7987,N,12217.8540,W,0.21,337.39,180511,,,A*7F
$GPVTG,337.39,T,,M,0.21,N,0.4,K,A*07
$GPGGA,214406.000,3748.7992,N,12217.8548,W,1,06,3.3,1.2,M,-25.1,M,,0000*6E
$GPGSA,A,3,03,16,19,06,13,23,,,,,,,4.7,3.3,3.4*3F
$GPRMC,214406.000,A,3748.7992,N,12217.8548,W,0.13,307.57,180511,,,A*7A
$GPVTG,307.57,T,,M,0.13,N,0.2,K,A*0B
$GPGGA,214407.000,3748.7996,N,12217.8553,W,1,06,3.3,0.5,M,-25.1,M,,0000*67
$GPGSA,A,3,03,16,19,06,13,23,,,,,,,4.7,3.3,3.4*3F
$GPGSV,3,1,12,13,74,016,30,23,53,105,39,07,52,282,26,10,39,295,23*7C
$GPGSV,3,2,12,16,30,045,28,08,26,262,29,03,24,093,38,20,19,176,37*7F
$GPGSV,3,3,12,06,19,077,37,19,12,122,35,32,02,161,20,05,01,326,*78
$GPRMC,214407.000,A,3748.7996,N,12217.8553,W,0.15,321.59,180511,,,A*79
$GPGGA,214408.000,3748.8000,N,12217.8557,W,1,06,3.3,-0.1,M,-25.1,M,,0000*4C
$GPGSA,A,3,03,16,19,06,13,23,,,,,,,4.7,3.3,3.4*3F
$GPRMC,214408.000,A,3748.8000,N,12217.8557,W,0.19,324.76,180511,,,A*7F
$GPVTG,324.76,T,,M,0.19,N,0.3,K,A*02
$GPGGA,214409.000,3748.8005,N,12217.8560,W,1,06,3.3,-0.6,M,-25.1,M,,0000*4B
$GPGSA,A,3,03,16,19,06,13,23,,,,,,,4.7,3.3,3.4*3F
$GPRMC,214409.000,A,3748.8005,N,12217.8560,W,0.14,311.43,180511,,,A*72
$GPVTG,311.43,T,,M,0.14,N,0.3,K,A*0F
$GPGGA,214410.000,3748.8012,N,12217.8561,W,1,06,3.3,-1.1,M,-25.1,M,,0000*42
$GPGSA,A,3,03,16,19,06,13,23,,,,,,,4.7,3.3,3.4*3F
$GPRMC,214410.000,A,3748.8012,N,12217.8561,W,0.18,325.30,180511,,,A*72
$GPVTG,325.30,T,,M,0.18,N,0.3,K,A*00
$GPGGA,214411.000,3748.8024,N,12217.8558,W,1,06,3.3,-1.6,M,-25.1,M,,0000*4B
$GPGSA,A,3,03,16,19,06,13,23,,,,,,,4.7,3.3,3.4*3F
$GPRMC,214411.000,A,3748.8024,N,12217.8558,W,0.21,339.64,180511,,,A*7A
$GPVTG,339.64,T,,M,0.21,N,0.4,K,A*01
$GPGGA,214412.000,3748.8035,N,12217.8557,W,1,06,3.3,-2.2,M,-25.1,M,,0000*40
$GPGSA,A,3,03,16,19,06,13,23,,,,,,,4.7,3.3,3.4*3F
$GPGSV,3,1,12,13,74,016,30,23,53,105,39,07,52,282,25,10,39,295,21*7D
$GPGSV,3,2,12,16,30,045,29,08,26,262,29,03,24,093,38,20,19,176,37*7E
$GPGSV,3,3,12,06,19,077,37,19,12,122,35,32,02,161,20,05,01,326,*78
$GPRMC,214412.000,A,3748.8035,N,12217.8557,W,0.23,332.10,180511,,,A*7C
$GPVTG,332.10,T,,M,0.23,N,0.4,K,A*0B
$GPGGA,214413.000,3748.8035,N,12217.8559,W,1,06,3.3,-2.4,M,-25.1,M,,0000*49
$GPGSA,A,3,03,16,19,06,13,23,,,,,,,4.7,3.3,3.4*3F
$GPRMC,214413.000,A,3748.8035,N,12217.8559,W,0.15,302.97,180511,,,A*7A
$GPVTG,302.97,T,,M,0.15,N,0.3,K,A*05
$GPGGA,214414.000,3748.8037,N,12217.8561,W,1,06,3.3,-2.7,M,-25.1,M,,0000*44
$GPGSA,A,3,03,16,19,06,13,23,,,,,,,4.7,3.3,3.4*3F
$GPRMC,214414.000,A,3748.8037,N,12217.8561,W,0.18,306.22,180511,,,A*73
$GPVTG,306.22,T,,M,0.18,N,0.3,K,A*02
$GPGGA,214415.000,3748.8040,N,12217.8562,W,1,06,3.3,-2.9,M,-25.1,M,,0000*48
$GPGSA,A,3,03,16,19,06,13,23,,,,,,,4.7,3.3,3.4*3F
$GPRMC,214415.000,A,3748.8040,N,12217.8562,W,0.08,211.15,180511,,,A*73
$GPVTG,211.15,T,,M,0.08,N,0.1,K,A*02
$GPGGA,214416.000,3748.8034,N,12217.8555,W,1,06,3.3,-2.4,M,-25.1,M,,0000*41
$GPGSA,A,3,03,16,19,06,13,23,,,,,,,4.7,3.3,3.4*3F
$GPRMC,214416.000,A,3748.8034,N,12217.8555,W,1.15,136.90,180511,,,A*71
$GPVTG,136.90,T,,M,1.15,N,2.1,K,A*06
$GPGGA,214417.000,3748.8026,N,12217.8549,W,1,06,3.3,-2.1,M,-25.1,M,,0000*4B
$GPGSA,A,3,03,16,19,06,13,23,,,,,,,4.7,3.3,3.4*3F
$GPGSV,3,1,12,13,74,016,29,23,53,105,35,07,52,282,31,10,39,295,30*7C
$GPGSV,3,2,12,16,30,045,23,08,26,262,34,03,24,093,37,20,19,176,37*77
$GPGSV,3,3,12,06,19,077,32,19,12,122,31,32,02,161,19,05,01,326,*73
$GPRMC,214417.000,A,3748.8026,N,12217.8549,W,1.96,132.72,180511,,,A*7D
$GPVTG,132.72,T,,M,1.96,N,3.6,K,A*03
$GPGGA,214418.000,3748.8012,N,12217.8541,W,1,06,3.3,-1.4,M,-25.1,M,,0000*4D
$GPGSA,A,3,03,16,19,06,13,23,,,,,,,4.7,3.3,3.4*3F
$GPRMC,214418.000,A,3748.8012,N,12217.8541,W,2.47,138.01,180511,,,A*7C
$GPVTG,138.01,T,,M,2.47,N,4.6,K,A*05
$GPGGA,214419.000,3748.8007,N,12217.8537,W,1,06,3.3,-1.5,M,-25.1,M,,0000*48
$GPGSA,A,3,03,16,19,06,13,23,,,,,,,4.7,3.3,3.4*3F
$GPRMC,214419.000,A,3748.8007,N,12217.8537,W,2.54,128.80,180511,,,A*72
$GPVTG,128.80,T,,M,2.54,N,4.7,K,A*0E
$GPGGA,214420.000,3748.8000,N,12217.8535,W,1,06,3.3,-1.7,M,-25.1,M,,0000*45
$GPGSA,A,3,03,16,19,06,13,23,,,,,,,4.7,3.3,3.4*3F
$GPRMC,214420.000,A,3748.8000,N,12217.8535,W,2.10,126.24,180511,,,A*7D
$GPVTG,126.24,T,,M,2.10,N,3.9,K,A*07
$GPGGA,214421.000,3748.7996,N,12217.8537,W,1,07,1.9,-2.9,M,-25.1,M,,0000*4B
$GPGSA,A,3,20,03,16,19,06,13,23,,,,,,3.0,1.9,2.3*33
$GPRMC,214421.000,A,3748.7996,N,12217.8537,W,2.23,117.32,180511,,,A*72
$GPVTG,117.32,T,,M,2.23,N,4.1,K,A*0D
$GPGGA,214422.000,3748.7982,N,12217.8538,W,1,07,1.9,-2.8,M,-25.1,M,,0000*43
$GPGSA,A,3,20,03,16,19,06,13,23,,,,,,3.0,1.9,2.3*33
$GPGSV,3,1,12,13,74,016,29,23,53,105,36,07,52,282,29,10,39,295,23*74
$GPGSV,3,2,12,16,29,045,32,08,26,262,33,03,24,093,37,20,19,176,37*78
$GPGSV,3,3,12,06,19,077,25,19,12,122,34,32,02,161,19,05,01,326,*70
$GPVTG,122.52,T,,M,2.36,N,4.4,K,A*0C
$GPGGA,214423.000,3748.7971,N,12217.8534,W,1,07,1.9,-2.1,M,-25.1,M,,0000*4B
$GPGSA,A,3,20,03,16,19,06,13,23,,,,,,3.0,1.9,2.3*33
$GPRMC,214423.000,A,3748.7971,N,12217.8534,W,2.46,124.57,180511,,,A*7A
$GPVTG,124.57,T,,M,2.46,N,4.6,K,A*0A
$GPGGA,214424.000,3748.7963,N,12217.8528,W,1,07,1.9,-1.6,M,-25.1,M,,0000*46
$GPGSA,A,3,20,03,16,19,06,13,23,,,,,,3.0,1.9,2.3*33
$GPRMC,214424.000,A,3748.7963,N,12217.8528,W,2.62,125.52,180511,,,A*71
$GPVTG,125.52,T,,M,2.62,N,4.8,K,A*06
$GPGGA,214425.000,3748.7957,N,12217.8523,W,1,07,1.9,-1.2,M,-25.1,M,,0000*4F
$GPGSA,A,3,20,03,16,19,06,13,23,,,,,,3.0,1.9,2.3*33
$GPRMC,214425.000,A,3748.7957,N,12217.8523,W,2.51,126.78,180511,,,A*77
$GPVTG,126.78,T,,M,2.51,N,4.7,K,A*02
$GPGGA,214426.000,3748.7954,N,12217.8518,W,1,07,1.9,-1.2,M,-25.1,M,,0000*47
$GPGSA,A,3,20,03,16,19,06,13,23,,,,,,3.0,1.9,2.3*33
$GPRMC,214426.000,A,3748.7954,N,12217.8518,W,2.45,121.64,180511,,,A*70
$GPVTG,121.64,T,,M,2.45,N,4.5,K,A*0F
$GPGGA,214427.000,3748.7951,N,12217.8511,W,2,07,1.9,-1.1,M,-25.1,M,,0000*4A
$GPGSA,A,3,20,03,16,19,06,13,23,,,,,,3.0,1.9,2.3*33
$GPGSV,3,1,12,13,74,016,29,23,53,105,36,07,52,282,29,10,39,295,23*74
$GPGSV,3,2,12,16,29,045,30,08,26,262,33,03,24,093,29,20,19,176,38*7A
$GPGSV,3,3,12,06,19,077,23,19,12,122,36,32,02,161,20,05,01,326,*7E
$GPRMC,214427.000,A,3748.7951,N,12217.8511,W,2.32,120.46,180511,,,D*79
$GPVTG,120.46,T,,M,2.32,N,4.3,K,D*0D
$GPGGA,214428.000,3748.7948,N,12217.8504,W,2,07,1.9,-1.1,M,-25.1,M,,0000*49
$GPGSA,A,3,20,03,16,19,06,13,23,,,,,,3.0,1.9,2.3*33
$GPRMC,214428.000,A,3748.7948,N,12217.8504,W,2.15,119.86,180511,,,D*79
$GPVTG,119.86,T,,M,2.15,N,4.0,K,D*0D
$GPGGA,214429.000,3748.7945,N,12217.8497,W,2,07,1.9,-1.0,M,-25.1,M,,0000*4F
$GPGSA,A,3,20,03,16,19,06,13,23,,,,,,3.0,1.9,2.3*33
$GPRMC,214429.000,A,3748.7945,N,12217.8497,W,2.06,120.30,180511,,,D*7B
$GPVTG,120.30,T,,M,2.06,N,3.8,K,D*07
$GPGGA,214430.000,3748.7941,N,12217.8488,W,2,07,1.9,-0.9,M,-25.1,M,2.8,0000*61
$GPGSA,A,3,20,03,16,19,06,13,23,,,,,,3.0,1.9,2.3*33
$GPRMC,214430.000,A,3748.7941,N,12217.8488,W,2.30,121.25,180511,,,D*79
$GPVTG,121.25,T,,M,2.30,N,4.3,K,D*0B
$GPGGA,214431.000,3748.7937,N,12217.8480,W,2,07,1.9,-1.0,M,-25.1,M,1.8,0000*62
$GPGSA,A,3,20,03,16,19,06,13,23,,,,,,3.0,1.9,2.3*33
$GPRMC,214431.000,A,3748.7937,N,12217.8480,W,2.38,119.83,180511,,,D*7E
$GPVTG,119.83,T,,M,2.38,N,4.4,K,D*03
$GPGGA,214432.000,3748.7933,N,12217.8472,W,2,07,1.9,-1.1,M,-25.1,M,2.8,0000*6A
$GPGSA,A,3,20,03,16,19,06,13,23,,,,,,3.0,1.9,2.3*33
$GPGSV,3,1,12,13,74,016,29,23,53,105,37,07,52,282,29,10,39,295,23*75
$GPGSV,3,2,12,16,29,045,30,08,26,262,34,03,24,093,36,20,19,176,38*73
$GPGSV,3,3,12,06,19,077,24,19,12,122,32,32,02,161,20,05,01,326,*7D
$GPRMC,214432.000,A,3748.7933,N,12217.8472,W,2.37,126.40,180511,,,D*78
$GPVTG,126.40,T,,M,2.37,N,4.4,K,D*0F
$GPGGA,214433.000,3748.7930,N,12217.8465,W,2,07,1.9,-1.3,M,-25.1,M,1.8,0000*6F
$GPGSA,A,3,20,03,16,19,06,13,23,,,,,,3.0,1.9,2.3*33
$GPRMC,214433.000,A,3748.7930,N,12217.8465,W,2.23,122.00,180511,,,D*79
$GPVTG,122.00,T,,M,2.23,N,4.1,K,D*0F
$GPGGA,214434.000,3748.7927,N,12217.8458,W,2,07,1.9,-1.5,M,-25.1,M,1.8,0000*66
$GPGSA,A,3,20,03,16,19,06,13,23,,,,,,3.0,1.9,2.3*33
$GPRMC,214434.000,A,3748.7927,N,12217.8458,W,2.25,121.99,180511,,,D*73
$GPVTG,121.99,T,,M,2.25,N,4.2,K,D*09
$GPGGA,214435.000,3748.7924,N,12217.8448,W,2,07,1.9,-1.6,M,-25.1,M,2.8,0000*65
$GPGSA,A,3,20,03,16,19,06,13,23,,,,,,3.0,1.9,2.3*33
$GPRMC,214435.000,A,3748.7924,N,12217.8448,W,2.20,112.94,180511,,,D*78
$GPVTG,112.94,T,,M,2.20,N,4.1,K,D*02
$GPGGA,214436.000,3748.7920,N,12217.8441,W,2,07,1.9,-1.3,M,-25.1,M,1.8,0000*6D
$GPGSA,A,3,20,03,16,19,06,13,23,,,,,,3.0,1.9,2.3*33
$GPRMC,214436.000,A,3748.7920,N,12217.8441,W,2.32,125.03,180511,,,D*7F
$GPVTG,125.03,T,,M,2.32,N,4.3,K,D*09
$GPGGA,214437.000,3748.7916,N,12217.8435,W,2,07,1.9,-1.2,M,-25.1,M,2.8,0000*68
$GPGSA,A,3,20,03,16,19,06,13,23,,,,,,3.0,1.9,2.3*33
$GPGSV,3,1,12,13,74,016,29,23,53,105,34,07,52,282,28,10,39,295,24*70
$GPGSV,3,2,12,16,29,045,23,08,26,262,30,03,24,093,34,20,19,176,37*78
$GPGSV,3,3,12,06,19,077,27,19,12,122,34,32,02,161,20,05,01,326,*78
$GPRMC,214437.000,A,3748.7916,N,12217.8435,W,1.75,127.49,180511,,,D*74
$GPVTG,127.49,T,,M,1.75,N,3.2,K,D*03
$GPGGA,214438.000,3748.7913,N,12217.8427,W,2,07,1.9,-1.4,M,-25.1,M,3.8,0000*66
$GPGSA,A,3,20,03,16,19,06,13,23,,,,,,3.0,1.9,2.3*33
$GPRMC,214438.000,A,3748.7913,N,12217.8427,W,2.15,115.59,180511,,,D*78
$GPVTG,115.59,T,,M,2.15,N,4.0,K,D*03
$GPGGA,214439.000,3748.7911,N,12217.8421,W,2,07,1.9,-1.6,M,-25.1,M,4.8,0000*66
$GPGSA,A,3,20,03,16,19,06,13,23,,,,,,3.0,1.9,2.3*33
$GPRMC,214439.000,A,3748.7911,N,12217.8421,W,1.90,114.62,180511,,,D*7A
$GPVTG,114.62,T,,M,1.90,N,3.5,K,D*06
$GPGGA,214440.000,3748.7909,N,12217.8417,W,2,07,1.9,-2.0,M,-25.1,M,5.8,0000*60
$GPGSA,A,3,20,03,16,19,06,13,23,,,,,,3.0,1.9,2.3*33
$GPRMC,214440.000,A,3748.7909,N,12217.8417,W,1.70,119.45,180511,,,D*7E
$GPVTG,119.45,T,,M,1.70,N,3.1,K,D*04
$GPGGA,214441.000,3748.7907,N,12217.8412,W,2,07,1.9,-2.4,M,-25.1,M,6.8,0000*6D
$GPGSA,A,3,20,03,16,19,06,13,23,,,,,,3.0,1.9,2.3*33
$GPRMC,214441.000,A,3748.7907,N,12217.8412,W,2.35,124.44,180511,,,D*79
$GPVTG,124.44,T,,M,2.35,N,4.3,K,D*0C
$GPGGA,214442.000,3748.7904,N,12217.8406,W,2,07,1.9,-2.9,M,-25.1,M,7.8,0000*64
$GPGSA,A,3,20,03,16,19,06,13,23,,,,,,3.0,1.9,2.3*33
$GPGSV,3,1,12,13,74,016,29,23,53,105,34,07,52,282,24,10,39,295,22*7A
$GPGSV,3,2,12,16,29,045,24,08,26,262,31,03,24,093,34,20,19,176,38*71
$GPGSV,3,3,12,06,19,077,28,19,12,122,32,32,02,161,19,05,01,326,*7B
$GPVTG,120.53,T,,M,2.14,N,4.0,K,D*0E
$GPGGA,214443.000,3748.7902,N,12217.8401,W,2,07,1.9,-3.3,M,-25.1,M,8.8,0000*60
$GPGSA,A,3,20,03,16,19,06,13,23,,,,,,3.0,1.9,2.3*33
$GPRMC,214443.000,A,3748.7902,N,12217.8401,W,1.94,115.26,180511,,,D*72
$GPVTG,115.26,T,,M,1.94,N,3.6,K,D*00
$GPGGA,214444.000,3748.7900,N,12217.8396,W,2,07,1.9,-3.5,M,-25.1,M,9.8,0000*6B
$GPGSA,A,3,20,03,16,19,06,13,23,,,,,,3.0,1.9,2.3*33
$GPRMC,214444.000,A,3748.7900,N,12217.8396,W,1.99,120.73,180511,,,D*75
$GPVTG,120.73,T,,M,1.99,N,3.7,K,D*0A
$GPGGA,214445.000,3748.7897,N,12217.8391,W,2,07,1.9,-3.8,M,-25.1,M,10.8,0000*57
$GPGSA,A,3,20,03,16,19,06,13,23,,,,,,3.0,1.9,2.3*33
$GPRMC,214445.000,A,3748.7897,N,12217.8391,W,1.83,126.33,180511,,,D*75
$GPVTG,126.33,T,,M,1.83,N,3.4,K,D*00
$GPGGA,214446.000,3748.7895,N,12217.8387,W,2,07,1.9,-4.1,M,-25.1,M,11.8,0000*5E
$GPGSA,A,3,20,03,16,19,06,13,23,,,,,,3.0,1.9,2.3*33
$GPRMC,214446.000,A,3748.7895,N,12217.8387,W,1.88,124.93,180511,,,D*70
$GPVTG,124.93,T,,M,1.88,N,3.5,K,D*02
$GPGGA,214447.000,3748.7892,N,12217.8381,W,2,07,1.9,-4.6,M,-25.1,M,1.8,0000*68
$GPGSA,A,3,20,03,16,19,06,13,23,,,,,,3.0,1.9,2.3*33
$GPGSV,3,1,12,13,74,016,28,23,53,105,35,07,52,282,26,10,39,295,22*78
$GPGSV,3,2,12,16,29,045,25,08,26,262,35,03,24,093,34,20,19,176,37*7B
$GPGSV,3,3,12,06,19,077,28,19,12,122,27,32,02,161,18,05,01,326,*7E
$GPRMC,214447.000,A,3748.7892,N,12217.8381,W,2.04,120.07,180511,,,D*7E
$GPVTG,120.07,T,,M,2.04,N,3.8,K,D*01
$GPGGA,214448.000,3748.7888,N,12217.8372,W,2,07,1.9,-4.6,M,-25.1,M,2.8,0000*63
$GPGSA,A,3,20,03,16,19,06,13,23,,,,,,3.0,1.9,2.3*33
$GPRMC,214448.000,A,3748.7888,N,12217.8372,W,2.20,123.01,180511,,,D*75
$GPVTG,123.01,T,,M,2.20,N,4.1,K,D*0C
$GPGGA,214449.000,3748.7885,N,12217.8367,W,2,07,1.9,-4.9,M,-25.1,M,3.8,0000*65
$GPGSA,A,3,20,03,16,19,06,13,23,,,,,,3.0,1.9,2.3*33
$GPRMC,214449.000,A,3748.7885,N,12217.8367,W,1.94,127.65,180511,,,D*77
$GPVTG,127.65,T,,M,1.94,N,3.6,K,D*06
$GPGGA,214450.000,3748.7881,N,12217.8360,W,2,07,1.9,-5.1,M,-25.1,M,4.8,0000*60
$GPGSA,A,3,20,03,16,19,06,13,23,,,,,,3.0,1.9,2.3*33
$GPRMC,214450.000,A,3748.7881,N,12217.8360,W,2.13,124.03,180511,,,D*73
$GPVTG,124.03,T,,M,2.13,N,3.9,K,D*06
$GPGGA,214451.000,3748.7877,N,12217.8353,W,2,07,1.9,-5.3,M,-25.1,M,1.8,0000*6F
$GPGSA,A,3,20,03,16,19,06,13,23,,,,,,3.0,1.9,2.3*33
$GPRMC,214451.000,A,3748.7877,N,12217.8353,W,2.21,119.34,180511,,,D*70
$GPVTG,119.34,T,,M,2.21,N,4.1,K,D*02
$GPGGA,214452.000,3748.7870,N,12217.8343,W,2,07,1.9,-4.7,M,-25.1,M,1.8,0000*6F
$GPGSA,A,3,20,03,16,19,06,13,23,,,,,,3.0,1.9,2.3*33
$GPGSV,3,1,12,13,74,016,29,23,53,105,35,07,52,282,27,10,39,295,22*78
$GPGSV,3,2,12,16,29,045,26,08,26,262,34,03,24,093,35,20,19,176,35*7A
$GPGSV,3,3,12,06,19,077,23,19,12,122,29,32,02,161,18,05,01,326,*7B
$GPRMC,214452.000,A,3748.7870,N,12217.8343,W,2.18,119.88,180511,,,D*78
$GPVTG,119.88,T,,M,2.18,N,4.0,K,D*0E
$GPGGA,214453.000,3748.7862,N,12217.8333,W,2,07,1.9,-4.2,M,-25.1,M,1.8,0000*6F
$GPGSA,A,3,20,03,16,19,06,13,23,,,,,,3.0,1.9,2.3*33
$GPRMC,214453.000,A,3748.7862,N,12217.8333,W,2.45,125.58,180511,,,D*77
$GPVTG,125.58,T,,M,2.45,N,4.5,K,D*01
$GPGGA,214454.000,3748.7855,N,12217.8323,W,2,07,1.9,-3.7,M,-25.1,M,2.8,0000*6C
$GPGSA,A,3,20,03,16,19,06,13,23,,,,,,3.0,1.9,2.3*33
$GPRMC,214454.000,A,3748.7855,N,12217.8323,W,2.49,127.47,180511,,,D*75
$GPVTG,127.47,T,,M,2.49,N,4.6,K,D*02
$GPGGA,214455.000,3748.7848,N,12217.8314,W,2,07,1.9,-3.2,M,-25.1,M,3.8,0000*61
$GPGSA,A,3,20,03,16,19,06,13,23,,,,,,3.0,1.9,2.3*33
$GPRMC,214455.000,A,3748.7848,N,12217.8314,W,2.52,123.65,180511,,,D*72
$GPVTG,123.65,T,,M,2.52,N,4.7,K,D*0D
$GPGGA,214456.000,3748.7846,N,12217.8307,W,2,07,1.9,-4.4,M,-25.1,M,4.8,0000*68
$GPGSA,A,3,20,03,16,19,06,13,23,,,,,,3.0,1.9,2.3*33
$GPRMC,214456.000,A,3748.7846,N,12217.8307,W,2.49,127.15,180511,,,D*74
$GPVTG,127.15,T,,M,2.49,N,4.6,K,D*05
$GPGGA,214457.000,3748.7842,N,12217.8300,W,2,07,1.9,-4.5,M,-25.1,M,1.8,0000*6E
$GPGSA,A,3,20,03,16,19,06,13,23,,,,,,3.0,1.9,2.3*33
$GPGSV,3,1,12,13,74,016,29,23,53,105,36,07,52,282,27,10,39,295,22*7B
$GPGSV,3,2,12,16,29,045,26,08,26,262,34,03,24,093,37,20,19,176,36*7B
$GPGSV,3,3,12,06,19,077,23,19,12,122,33,32,02,161,17,05,01,326,*7F
$GPRMC,214457.000,A,3748.7842,N,12217.8300,W,2.46,119.54,180511,,,D*71
$GPVTG,119.54,T,,M,2.46,N,4.6,K,D*02
$GPGGA,214458.000,3748.7839,N,12217.8292,W,2,07,1.9,-4.5,M,-25.1,M,1.8,0000*67
$GPGSA,A,3,20,03,16,19,06,13,23,,,,,,3.0,1.9,2.3*33
$GPRMC,214458.000,A,3748.7839,N,12217.8292,W,2.56,115.32,180511,,,D*75
$GPVTG,115.32,T,,M,2.56,N,4.7,K,D*0E
$GPGGA,214459.000,3748.7836,N,12217.8284,W,2,07,1.9,-4.8,M,-25.1,M,1.8,0000*63
$GPGSA,A,3,20,03,16,19,06,13,23,,,,,,3.0,1.9,2.3*33
$GPRMC,214459.000,A,3748.7836,N,12217.8284,W,2.25,115.69,180511,,,D*76
$GPVTG,115.69,T,,M,2.25,N,4.2,K,D*01
$GPGGA,214500.000,3748.7829,N,12217.8272,W,2,07,1.9,-4.4,M,-25.1,M,2.8,0000*66
$GPGSA,A,3,20,03,16,19,06,13,23,,,,,,3.0,1.9,2.3*33
$GPRMC,214500.000,A,3748.7829,N,12217.8272,W,2.18,118.81,180511,,,D*79
$GPVTG,118.81,T,,M,2.18,N,4.0,K,D*06
$GPGGA,214501.000,3748.7826,N,12217.8267,W,2,07,1.9,-4.3,M,-25.1,M,3.8,0000*6A
$GPGSA,A,3,20,03,16,19,06,13,23,,,,,,3.0,1.9,2.3*33
$GPRMC,214501.000,A,3748.7826,N,12217.8267,W,1.72,112.37,180511,,,D*7B
$GPVTG,112.37,T,,M,1.72,N,3.2,K,D*0B
$GPGGA,214502.000,3748.7823,N,12217.8263,W,2,07,1.9,-4.1,M,-25.1,M,4.8,0000*6D
$GPGSA,A,3,20,03,16,19,06,13,23,,,,,,3.0,1.9,2.3*33
$GPGSV,3,1,12,13,74,016,28,23,53,105,35,07,52,282,27,10,39,295,23*78
$GPGSV,3,2,12,16,29,045,21,08,26,262,32,03,24,093,32,20,19,176,37*7E
$GPGSV,3,3,12,06,19,077,23,19,12,122,26,32,02,161,21,05,01,326,*7E
$GPRMC,214502.000,A,3748.7823,N,12217.8263,W,2.04,129.00,180511,,,D*77
$GPGGA,214503.000,3748.7819,N,12217.8258,W,2,07,1.9,-3.8,M,-25.1,M,5.8,0000*62
$GPGSA,A,3,20,03,16,19,06,13,23,,,,,,3.0,1.9,2.3*33
$GPRMC,214503.000,A,3748.7819,N,12217.8258,W,2.33,122.13,180511,,,D*7A
$GPVTG,122.13,T,,M,2.33,N,4.3,K,D*0E
$GPGGA,214504.000,3748.7815,N,12217.8254,W,2,07,1.9,-3.3,M,-25.1,M,6.8,0000*6D
$GPGSA,A,3,20,03,16,19,06,13,23,,,,,,3.0,1.9,2.3*33
$GPRMC,214504.000,A,3748.7815,N,12217.8254,W,2.01,121.36,180511,,,D*78
$GPVTG,121.36,T,,M,2.01,N,3.7,K,D*08
$GPGGA,214505.000,3748.7807,N,12217.8246,W,2,07,1.9,-2.1,M,-25.1,M,7.8,0000*6E
$GPGSA,A,3,20,03,16,19,06,13,23,,,,,,3.0,1.9,2.3*33
$GPRMC,214505.000,A,3748.7807,N,12217.8246,W,2.59,127.07,180511,,,D*70
$GPVTG,127.07,T,,M,2.59,N,4.8,K,D*09
$GPGGA,214506.000,3748.7799,N,12217.8235,W,2,07,1.9,-1.4,M,-25.1,M,8.8,0000*68
$GPGSA,A,3,20,03,16,19,06,13,23,,,,,,3.0,1.9,2.3*33
$GPRMC,214506.000,A,3748.7799,N,12217.8235,W,2.77,123.31,180511,,,D*72
$GPVTG,123.31,T,,M,2.77,N,5.1,K,D*0C
$GPGGA,214507.000,3748.7791,N,12217.8223,W,2,07,1.9,-0.9,M,-25.1,M,9.8,0000*6B
$GPGSA,A,3,20,03,16,19,06,13,23,,,,,,3.0,1.9,2.3*33
$GPGSV,3,1,12,13,74,016,27,23,53,105,36,07,52,282,27,10,39,295,23*74
$GPGSV,3,2,12,16,29,045,29,08,26,262,34,03,24,093,30,20,19,176,40*72
$GPGSV,3,3,12,06,19,077,23,19,12,122,32,32,02,161,23,05,01,326,*79
$GPRMC,214507.000,A,3748.7791,N,12217.8223,W,2.69,127.34,180511,,,D*72
$GPVTG,127.34,T,,M,2.69,N,5.0,K,D*03
$GPGGA,214508.000,3748.7787,N,12217.8214,W,2,07,1.9,-1.5,M,-25.1,M,10.8,0000*52
$GPGSA,A,3,20,03,16,19,06,13,23,,,,,,3.0,1.9,2.3*33
$GPRMC,214508.000,A,3748.7787,N,12217.8214,W,2.69,121.80,180511,,,D*77
$GPVTG,121.80,T,,M,2.69,N,5.0,K,D*0A
$GPGGA,214509.000,3748.7782,N,12217.8206,W,2,07,1.9,-1.1,M,-25.1,M,11.8,0000*50
$GPGSA,A,3,20,03,16,19,06,13,23,,,,,,3.0,1.9,2.3*33
$GPRMC,214509.000,A,3748.7782,N,12217.8206,W,2.53,123.88,180511,,,D*73
$GPVTG,123.88,T,,M,2.53,N,4.7,K,D*0F
$GPGGA,214510.000,3748.7770,N,12217.8190,W,2,07,1.9,0.8,M,-25.1,M,12.8,0000*7F
$GPGSA,A,3,20,03,16,19,06,13,23,,,,,,3.0,1.9,2.3*33
$GPRMC,214510.000,A,3748.7770,N,12217.8190,W,2.65,123.41,180511,,,D*7A
$GPVTG,123.41,T,,M,2.65,N,4.9,K,D*01
$GPGGA,214511.000,3748.7758,N,12217.8177,W,2,07,1.9,2.9,M,-25.1,M,13.8,0000*7F
$GPGSA,A,3,20,03,16,19,06,13,23,,,,,,3.0,1.9,2.3*33
$GPRMC,214511.000,A,3748.7758,N,12217.8177,W,2.71,127.18,180511,,,D*75
$GPVTG,127.18,T,,M,2.71,N,5.0,K,D*04
$GPGGA,214512.000,3748.7751,N,12217.8167,W,2,07,1.9,3.6,M,-25.1,M,14.8,0000*7D
$GPGSA,A,3,20,03,16,19,06,13,23,,,,,,3.0,1.9,2.3*33
$GPGSV,3,1,12,13,74,016,29,23,53,105,36,07,52,282,27,10,39,295,23*7A
$GPGSV,3,2,12,16,29,045,23,08,26,262,31,03,24,093,36,20,19,176,41*7A
$GPGSV,3,3,12,06,19,077,23,19,12,122,27,32,02,161,19,05,01,326,*74
$GPRMC,214512.000,A,3748.7751,N,12217.8167,W,2.85,129.89,180511,,,D*73
$GPVTG,129.89,T,,M,2.85,N,5.3,K,D*0A
$GPGGA,214513.000,3748.7746,N,12217.8158,W,2,07,1.9,3.6,M,-25.1,M,15.8,0000*77
$GPGSA,A,3,20,03,16,19,06,13,23,,,,,,3.0,1.9,2.3*33
$GPRMC,214513.000,A,3748.7746,N,12217.8158,W,2.78,133.11,180511,,,D*70
$GPVTG,133.11,T,,M,2.78,N,5.1,K,D*00
$GPGGA,214514.000,3748.7741,N,12217.8151,W,2,07,1.9,3.5,M,-25.1,M,16.8,0000*7E
$GPGSA,A,3,20,03,16,19,06,13,23,,,,,,3.0,1.9,2.3*33
$GPRMC,214514.000,A,3748.7741,N,12217.8151,W,2.86,134.69,180511,,,D*70
$GPVTG,134.69,T,,M,2.86,N,5.3,K,D*0B
$GPGGA,214515.000,3748.7732,N,12217.8142,W,2,07,1.9,4.4,M,-25.1,M,17.8,0000*7E
$GPGSA,A,3,20,03,16,19,06,13,23,,,,,,3.0,1.9,2.3*33
$GPRMC,214515.000,A,3748.7732,N,12217.8142,W,2.76,137.49,180511,,,D*79
$GPVTG,137.49,T,,M,2.76,N,5.1,K,D*07
$GPGGA,214516.000,3748.7720,N,12217.8133,W,1,07,1.9,6.5,M,-25.1,M,,0000*68
$GPGSA,A,3,20,03,16,19,06,13,23,,,,,,3.0,1.9,2.3*33
$GPRMC,214516.000,A,3748.7720,N,12217.8133,W,2.89,143.71,180511,,,A*72
$GPVTG,143.71,T,,M,2.89,N,5.4,K,A*0F
$GPGGA,214517.000,3748.7710,N,12217.8125,W,1,07,1.9,7.9,M,-25.1,M,,0000*60
$GPGSA,A,3,20,03,16,19,06,13,23,,,,,,3.0,1.9,2.3*33
$GPGSV,3,1,12,13,74,016,29,23,53,105,35,07,52,282,28,10,39,295,27*72
$GPGSV,3,2,12,16,29,045,24,08,26,262,32,03,24,093,35,20,19,176,41*7D
$GPGSV,3,3,12,06,19,077,24,19,12,122,37,32,02,161,19,05,01,326,*72
$GPRMC,214517.000,A,3748.7710,N,12217.8125,W,3.04,144.42,180511,,,A*74
$GPVTG,144.42,T,,M,3.04,N,5.6,K,A*0E
$GPGGA,214518.000,3748.7703,N,12217.8118,W,1,07,1.9,8.1,M,-25.1,M,,0000*64
$GPGSA,A,3,20,03,16,19,06,13,23,,,,,,3.0,1.9,2.3*33
$GPRMC,214518.000,A,3748.7703,N,12217.8118,W,2.99,146.81,180511,,,A*7F
$GPVTG,146.81,T,,M,2.99,N,5.5,K,A*05
$GPGGA,214519.000,3748.7698,N,12217.8114,W,1,07,1.9,8.0,M,-25.1,M,,0000*6B
$GPGSA,A,3,20,03,16,19,06,13,23,,,,,,3.0,1.9,2.3*33
$GPRMC,214519.000,A,3748.7698,N,12217.8114,W,2.50,141.72,180511,,,A*7F
$GPVTG,141.72,T,,M,2.50,N,4.6,K,A*09
$GPGGA,214520.000,3748.7695,N,12217.8109,W,1,07,1.9,7.7,M,-25.1,M,,0000*68
$GPGSA,A,3,20,03,16,19,06,13,23,,,,,,3.0,1.9,2.3*33
$GPRMC,214520.000,A,3748.7695,N,12217.8109,W,2.84,131.86,180511,,,A*71
$GPVTG,131.86,T,,M,2.84,N,5.3,K,A*08
$GPGGA,214521.000,3748.7696,N,12217.8116,W,1,08,1.1,5.6,M,-25.1,M,,0000*60
$GPGSA,A,3,20,03,16,19,06,13,23,08,,,,,2.0,1.1,1.7*35
$GPRMC,214521.000,A,3748.7696,N,12217.8116,W,2.59,131.73,180511,,,A*77
$GPVTG,131.73,T,,M,2.59,N,4.8,K,A*08
$GPGGA,214522.000,3748.7696,N,12217.8115,W,1,08,1.1,4.4,M,-25.1,M,,0000*63
$GPGSA,A,3,20,03,16,19,06,13,23,08,,,,,2.0,1.1,1.7*35
$GPGSV,3,1,12,13,74,018,28,23,53,106,35,07,52,283,29,10,40,295,27*70
$GPGSV,3,2,12,16,29,045,24,08,27,262,33,03,24,092,33,06,19,077,32*7A
$GPGSV,3,3,12,20,18,176,40,19,12,121,37,05,02,326,,32,02,161,*7D
$GPRMC,214522.000,A,3748.7696,N,12217.8115,W,2.70,127.25,180511,,,A*78
$GPGGA,214523.000,3748.7694,N,12217.8112,W,1,08,1.1,3.5,M,-25.1,M,,0000*61
$GPGSA,A,3,20,03,16,19,06,13,23,08,,,,,2.0,1.1,1.7*35
$GPRMC,214523.000,A,3748.7694,N,12217.8112,W,2.78,125.04,180511,,,A*75
$GPVTG,125.04,T,,M,2.78,N,5.1,K,A*06
$GPGGA,214524.000,3748.7691,N,12217.8107,W,1,08,1.1,2.9,M,-25.1,M,,0000*6A
$GPGSA,A,3,20,03,16,19,06,13,23,08,,,,,2.0,1.1,1.7*35
$GPRMC,214524.000,A,3748.7691,N,12217.8107,W,2.79,128.42,180511,,,A*7D
$GPVTG,128.42,T,,M,2.79,N,5.2,K,A*0B
$GPGGA,214525.000,3748.7688,N,12217.8101,W,1,08,1.1,2.4,M,-25.1,M,,0000*68
$GPGSA,A,3,20,03,16,19,06,13,23,08,,,,,2.0,1.1,1.7*35
$GPRMC,214525.000,A,3748.7688,N,12217.8101,W,2.71,129.15,180511,,,A*79
$GPVTG,129.15,T,,M,2.71,N,5.0,K,A*02
$GPGGA,214526.000,3748.7685,N,12217.8094,W,1,08,1.1,2.3,M,-25.1,M,,0000*6C
$GPGSA,A,3,20,03,16,19,06,13,23,08,,,,,2.0,1.1,1.7*35
$GPRMC,214526.000,A,3748.7685,N,12217.8094,W,2.74,121.79,180511,,,A*7D
$GPVTG,121.79,T,,M,2.74,N,5.1,K,A*04
$GPGGA,214527.000,3748.7682,N,12217.8088,W,1,08,1.1,1.9,M,-25.1,M,,0000*6E
$GPGSA,A,3,20,03,16,19,06,13,23,08,,,,,2.0,1.1,1.7*35
$GPGSV,3,1,12,13,74,018,28,23,53,106,35,07,52,283,29,10,40,295,27*70
$GPGSV,3,2,12,16,29,045,25,08,27,262,35,03,24,092,33,06,19,077,27*79
$GPGSV,3,3,12,20,18,176,40,19,12,121,37,05,02,326,,32,02,161,*7D
$GPRMC,214527.000,A,3748.7682,N,12217.8088,W,2.75,121.95,180511,,,A*75
$GPVTG,121.95,T,,M,2.75,N,5.1,K,A*07
$GPGGA,214528.000,3748.7679,N,12217.8081,W,1,08,1.1,1.5,M,-25.1,M,,0000*60
$GPGSA,A,3,20,03,16,19,06,13,23,08,,,,,2.0,1.1,1.7*35
$GPRMC,214528.000,A,3748.7679,N,12217.8081,W,2.54,121.51,180511,,,A*7C
$GPVTG,121.51,T,,M,2.54,N,4.7,K,A*0B
$GPGGA,214529.000,3748.7677,N,12217.8074,W,1,08,1.1,1.1,M,-25.1,M,,0000*61
$GPGSA,A,3,20,03,16,19,06,13,23,08,,,,,2.0,1.1,1.7*35
$GPRMC,214529.000,A,3748.7677,N,12217.8074,W,2.73,122.01,180511,,,A*7A
$GPVTG,122.01,T,,M,2.73,N,5.1,K,A*0F
$GPGGA,214530.000,3748.7675,N,12217.8066,W,1,08,1.1,0.7,M,-25.1,M,,0000*6F
$GPGSA,A,3,20,03,16,19,06,13,23,08,,,,,2.0,1.1,1.7*35
$GPRMC,214530.000,A,3748.7675,N,12217.8066,W,2.80,112.32,180511,,,A*7C
$GPVTG,112.32,T,,M,2.80,N,5.2,K,A*03
$GPGGA,214531.000,3748.7674,N,12217.8056,W,1,08,1.1,0.3,M,-25.1,M,,0000*68
$GPGSA,A,3,20,03,16,19,06,13,23,08,,,,,2.0,1.1,1.7*35
$GPRMC,214531.000,A,3748.7674,N,12217.8056,W,2.74,111.84,180511,,,A*7A
$GPVTG,111.84,T,,M,2.74,N,5.1,K,A*05
$GPGGA,214532.000,3748.7671,N,12217.8047,W,1,08,1.1,0.2,M,-25.1,M,,0000*6F
$GPGSA,A,3,20,03,16,19,06,13,23,08,,,,,2.0,1.1,1.7*35
$GPGSV,3,1,12,13,74,018,28,23,53,106,35,07,52,283,27,10,40,295,22*7B
$GPGSV,3,2,12,16,29,045,29,08,27,262,29,03,24,092,33,06,19,077,31*7F
$GPGSV,3,3,12,20,18,176,35,19,12,121,38,05,02,326,19,32,02,161,*78
$GPRMC,214532.000,A,3748.7671,N,12                                                                                                                                                                                                                                                                                                                                                                                                                                                                                                                                                                                                                                                                                                                                                                                                                                                                                                                                                                                                                                                                217.8047,W,2.75,114.09,180511,,,A*7D
$GPVTG,114.09,T,,M,2.75,N,5.1,K,A*04
$GPGGA,214533.000,3748.7670,N,12217.8038,W,1,08,1.1,0.2,M,-25.1,M,,0000*67
$GPGSA,A,3,20,03,16,19,06,13,23,08,,,,,2.0,1.1,1.7*35
$GPRMC,214533.000,A,3748.7670,N,12217.8038,W,2.47,93.70,180511,,,A*44
$GPVTG,93.70,T,,M,2.47,N,4.6,K,A*33
$GPGGA,214534.000,3748.7668,N,12217.8028,W,1,08,1.1,0.6,M,-25.1,M,,0000*6C
$GPGSA,A,3,20,03,16,19,06,13,23,08,,,,,2.0,1.1,1.7*35
$GPRMC,214534.000,A,3748.7668,N,12217.8028,W,2.64,82.67,180511,,,A*4C
$GPVTG,82.67,T,,M,2.64,N,4.9,K,A*3B
$GPGGA,214535.000,3748.7668,N,12217.8018,W,1,08,1.1,0.6,M,-25.1,M,,0000*6E
$GPGSA,A,3,20,03,16,19,06,13,23,08,,,,,2.0,1.1,1.7*35
$GPRMC,214535.000,A,3748.7668,N,12217.8018,W,2.80,76.90,180511,,,A*47
$GPVTG,76.90,T,,M,2.80,N,5.2,K,A*38
$GPGGA,214536.000,3748.7670,N,12217.8007,W,1,08,1.1,0.4,M,-25.1,M,,0000*68
$GPGSA,A,3,20,03,16,19,06,13,23,08,,,,,2.0,1.1,1.7*35
$GPRMC,214536.000,A,3748.7670,N,12217.8007,W,2.71,85.90,180511,,,A*41
$GPVTG,85.90,T,,M,2.71,N,5.0,K,A*38
$GPGGA,214537.000,3748.7670,N,12217.7998,W,1,08,1.1,0.2,M,-25.1,M,,0000*6F
$GPGSA,A,3,20,03,16,19,06,13,23,08,,,,,2.0,1.1,1.7*35
$GPGSV,3,1,12,13,74,018,28,23,53,106,36,07,52,283,25,10,40,295,23*7B
$GPGSV,3,2,12,16,29,045,30,08,27,262,27,03,24,092,33,06,19,077,38*70
$GPGSV,3,3,12,20,18,176,39,19,12,121,38,05,02,326,18,32,02,161,*75
$GPRMC,214537.000,A,3748.7670,N,12217.7998,W,2.32,103.64,180511,,,A*73
$GPVTG,103.64,T,,M,2.32,N,4.3,K,A*09
$GPGGA,214538.000,3748.7668,N,12217.7991,W,1,08,1.1,-0.1,M,-25.1,M,,0000*4E
$GPGSA,A,3,20,03,16,19,06,13,23,08,,,,,2.0,1.1,1.7*35
$GPRMC,214538.000,A,3748.7668,N,12217.7991,W,2.65,120.54,180511,,,A*7C
$GPVTG,120.54,T,,M,2.65,N,4.9,K,A*03
$GPGGA,214539.000,3748.7665,N,12217.7983,W,1,08,1.1,-0.2,M,-25.1,M,,0000*42
$GPGSA,A,3,20,03,16,19,06,13,23,08,,,,,2.0,1.1,1.7*35
$GPRMC,214539.000,A,3748.7665,N,12217.7983,W,2.70,118.33,180511,,,A*7D
$GPVTG,118.33,T,,M,2.70,N,5.0,K,A*05
$GPGGA,214540.000,3748.7662,N,12217.7975,W,1,08,1.1,-0.3,M,-25.1,M,,0000*43
$GPGSA,A,3,20,03,16,19,06,13,23,08,,,,,2.0,1.1,1.7*35
$GPRMC,214540.000,A,3748.7662,N,12217.7975,W,2.88,125.85,180511,,,A*79
$GPVTG,125.85,T,,M,2.88,N,5.3,K,A*02
$GPGGA,214541.000,3748.7658,N,12217.7967,W,1,08,1.1,-0.5,M,-25.1,M,,0000*4E
$GPGSA,A,3,20,03,16,19,06,13,23,08,,,,,2.0,1.1,1.7*35
$GPRMC,214541.000,A,3748.7658,N,12217.7967,W,2.74,123.13,180511,,,A*78
$GPVTG,123.13,T,,M,2.74,N,5.1,K,A*0A
$GPGGA,214542.000,3748.7656,N,12217.7959,W,1,08,1.1,-0.5,M,-25.1,M,,0000*4E
$GPGSA,A,3,20,03,16,19,06,13,23,08,,,,,2.0,1.1,1.7*35
$GPGSV,3,1,12,13,74,019,28,23,53,106,36,07,52,283,29,10,40,295,24*71
$GPGSV,3,2,12,16,29,045,20,08,27,262,33,03,24,092,32,06,19,077,28*74
$GPGSV,3,3,12,20,18,176,39,19,12,121,34,05,02,326,18,32,02,161,*79
$GPRMC,214542.000,A,3748.7656,N,12217.7959,W,2.59,117.19,180511,,,A*7A
$GPGGA,214543.000,3748.7654,N,12217.7950,W,1,08,1.1,-0.8,M,-25.1,M,,0000*49
$GPGSA,A,3,20,03,16,19,06,13,23,08,,,,,2.0,1.1,1.7*35
$GPRMC,214543.000,A,3748.7654,N,12217.7950,W,2.75,108.05,180511,,,A*7D
$GPVTG,108.05,T,,M,2.75,N,5.1,K,A*05
$GPGGA,214544.000,3748.7652,N,12217.7941,W,1,08,1.1,-1.0,M,-25.1,M,,0000*41
$GPGSA,A,3,20,03,16,19,06,13,23,08,,,,,2.0,1.1,1.7*35
$GPRMC,214544.000,A,3748.7652,N,12217.7941,W,2.77,107.52,180511,,,A*73
$GPVTG,107.52,T,,M,2.77,N,5.1,K,A*0A
$GPGGA,214545.000,3748.7651,N,12217.7931,W,1,08,1.1,-1.1,M,-25.1,M,,0000*45
$GPGSA,A,3,20,03,16,19,06,13,23,08,,,,,2.0,1.1,1.7*35
$GPRMC,214545.000,A,3748.7651,N,12217.7931,W,2.75,105.60,180511,,,A*77
$GPVTG,105.60,T,,M,2.75,N,5.1,K,A*0B
$GPGGA,214546.000,3748.7651,N,12217.7922,W,1,08,1.1,-1.4,M,-25.1,M,,0000*41
$GPGSA,A,3,20,03,16,19,06,13,23,08,,,,,2.0,1.1,1.7*35
$GPRMC,214546.000,A,3748.7651,N,12217.7922,W,2.35,114.16,180511,,,A*73
$GPVTG,114.16,T,,M,2.35,N,4.4,K,A*0A
$GPGGA,214547.000,3748.7651,N,12217.7916,W,1,08,1.1,-2.4,M,-25.1,M,,0000*44
$GPGSA,A,3,20,03,16,19,06,13,23,08,,,,,2.0,1.1,1.7*35
$GPGSV,3,1,12,13,74,019,28,23,53,106,30,07,52,283,28,10,40,295,24*76
$GPGSV,3,2,12,16,29,045,28,08,27,262,28,03,24,092,37,06,19,077,29*72
$GPGSV,3,3,12,20,18,176,36,19,12,121,38,05,02,326,13,32,02,161,*71
$GPRMC,214547.000,A,3748.7651,N,12217.7916,W,2.31,120.36,180511,,,A*74
$GPVTG,120.36,T,,M,2.31,N,4.3,K,A*0C
$GPGGA,214548.000,3748.7651,N,12217.7909,W,1,08,1.1,-3.2,M,-25.1,M,,0000*42
$GPGSA,A,3,20,03,16,19,06,13,23,08,,,,,2.0,1.1,1.7*35
$GPRMC,214548.000,A,3748.7651,N,12217.7909,W,1.88,114.29,180511,,,A*7D
$GPVTG,114.29,T,,M,1.88,N,3.5,K,A*05
$GPGGA,214549.000,3748.7650,N,12217.7904,W,1,08,1.1,-4.2,M,-25.1,M,,0000*48
$GPGSA,A,3,20,03,16,19,06,13,23,08,,,,,2.0,1.1,1.7*35
$GPRMC,214549.000,A,3748.7650,N,12217.7904,W,1.36,112.53,180511,,,A*7E
$GPVTG,112.53,T,,M,1.36,N,2.5,K,A*0A
$GPGGA,214550.000,3748.7651,N,12217.7901,W,1,08,1.1,-4.6,M,-25.1,M,,0000*40
$GPGSA,A,3,20,03,16,19,06,13,23,08,,,,,2.0,1.1,1.7*35
$GPRMC,214550.000,A,3748.7651,N,12217.7901,W,0.73,26.74,180511,,,A*41
$GPVTG,26.74,T,,M,0.73,N,1.4,K,A*3B
$GPGGA,214551.000,3748.7657,N,12217.7901,W,1,08,1.1,-4.7,M,-25.1,M,,0000*46
$GPGSA,A,3,20,03,16,19,06,13,23,08,,,,,2.0,1.1,1.7*35
$GPRMC,214551.000,A,3748.7657,N,12217.7901,W,1.38,343.44,180511,,,A*7B
$GPVTG,343.44,T,,M,1.38,N,2.6,K,A*07
$GPGGA,214552.000,3748.7661,N,12217.7904,W,1,08,1.1,-5.1,M,-25.1,M,,0000*42
$GPGSA,A,3,20,03,16,19,06,13,23,08,,,,,2.0,1.1,1.7*35
$GPGSV,3,1,12,13,74,019,34,23,53,106,38,07,52,283,27,10,40,295,28*70
$GPGSV,3,2,12,16,29,045,41,08,27,262,20,03,24,092,32,06,19,077,28*71
$GPGSV,3,3,12,20,18,176,24,19,12,121,29,05,02,326,14,32,02,161,*75
$GPRMC,214552.000,A,3748.7661,N,12217.7904,W,1.69,310.70,180511,,,A*7D
$GPVTG,310.70,T,,M,1.69,N,3.1,K,A*04
$GPGGA,214553.000,3748.7665,N,12217.7909,W,1,08,1.1,-5.5,M,-25.1,M,,0000*4E
$GPGSA,A,3,20,03,16,19,06,13,23,08,,,,,2.0,1.1,1.7*35
$GPRMC,214553.000,A,3748.7665,N,12217.7909,W,1.85,315.08,180511,,,A*7D
$GPVTG,315.08,T,,M,1.85,N,3.4,K,A*09
$GPGGA,214554.000,3748.7669,N,12217.7914,W,1,08,1.1,-5.7,M,-25.1,M,,0000*4B
$GPGSA,A,3,20,03,16,19,06,13,23,08,,,,,2.0,1.1,1.7*35
$GPRMC,214554.000,A,3748.7669,N,12217.7914,W,1.63,302.26,180511,,,A*78
$GPVTG,302.26,T,,M,1.63,N,3.0,K,A*0F
$GPGGA,214555.000,3748.7672,N,12217.7916,W,1,07,1.2,-5.6,M,-25.1,M,,0000*4F
$GPGSA,A,3,20,03,16,06,13,23,08,,,,,,2.1,1.2,1.8*30
$GPRMC,214555.000,A,3748.7672,N,12217.7916,W,0.86,280.87,180511,,,A*7B
$GPVTG,280.87,T,,M,0.86,N,1.6,K,A*01
$GPGGA,214556.000,3748.7672,N,12217.7917,W,1,08,1.1,-5.9,M,-25.1,M,,0000*4E
$GPGSA,A,3,20,03,16,19,06,13,23,08,,,,,2.0,1.1,1.7*35
$GPRMC,214556.000,A,3748.7672,N,12217.7917,W,0.26,264.29,180511,,,A*7D
$GPVTG,264.29,T,,M,0.26,N,0.5,K,A*07
$GPGGA,214557.000,3748.7673,N,12217.7917,W,1,08,1.1,-6.1,M,-25.1,M,,0000*45
$GPGSA,A,3,20,03,16,19,06,13,23,08,,,,,2.0,1.1,1.7*35
$GPGSV,3,1,12,13,74,019,34,23,53,106,37,07,52,283,29,10,40,295,24*7D
$GPGSV,3,2,12,16,29,045,40,08,27,262,22,03,24,092,41,06,19,077,37*78
$GPGSV,3,3,12,20,18,176,34,19,12,121,22,05,02,326,17,32,02,161,*7C
$GPRMC,214557.000,A,3748.7673,N,12217.7917,W,0.37,316.81,180511,,,A*7B
$GPVTG,316.81,T,,M,0.37,N,0.7,K,A*03
$GPGGA,214558.000,3748.7674,N,12217.7917,W,1,08,1.1,-6.2,M,-25.1,M,,0000*4E
$GPGSA,A,3,20,03,16,19,06,13,23,08,,,,,2.0,1.1,1.7*35
$GPRMC,214558.000,A,3748.7674,N,12217.7917,W,0.17,319.17,180511,,,A*71
$GPVTG,319.17,T,,M,0.17,N,0.3,K,A*05
$GPGGA,214559.000,3748.7674,N,12217.7917,W,1,08,1.1,-6.4,M,-25.1,M,,0000*49
$GPGSA,A,3,20,03,16,19,06,13,23,08,,,,,2.0,1.1,1.7*35
$GPRMC,214559.000,A,3748.7674,N,12217.7917,W,0.05,243.32,180511,,,A*7A
$GPVTG,243.32,T,,M,0.05,N,0.1,K,A*0D
$GPGGA,214600.000,3748.7673,N,12217.7917,W,1,08,1.1,-6.5,M,-25.1,M,,0000*40
$GPGSA,A,3,20,03,16,19,06,13,23,08,,,,,2.0,1.1,1.7*35
$GPRMC,214600.000,A,3748.7673,N,12217.7917,W,0.11,277.53,180511,,,A*77
$GPVTG,277.53,T,,M,0.11,N,0.2,K,A*0B
$GPGGA,214601.000,3748.7674,N,12217.7919,W,1,08,1.1,-7.0,M,-25.1,M,,0000*4C
$GPGSA,A,3,20,03,16,19,06,13,23,08,,,,,2.0,1.1,1.7*35
$GPRMC,214601.000,A,3748.7674,N,12217.7919,W,0.09,318.75,180511,,,A*7A
$GPVTG,318.75,T,,M,0.09,N,0.2,K,A*0E
$GPGGA,214602.000,3748.7674,N,12217.7920,W,1,08,1.1,-7.4,M,-25.1,M,,0000*41
$GPGSA,A,3,20,03,16,19,06,13,23,08,,,,,2.0,1.1,1.7*35
$GPGSV,3,1,12,13,74,019,27,23,53,106,37,07,52,283,31,10,40,295,23*71
$GPGSV,3,2,12,16,29,045,24,08,27,262,36,03,24,092,34,06,19,077,30*7A
$GPGSV,3,3,12,20,18,176,36,19,12,121,21,05,02,326,24,32,02,161,*7D
$GPRMC,214602.000,A,3748.7674,N,12217.7920,W,0.20,70.88,180511,,,A*47
$GPGGA,214603.000,3748.7675,N,12217.7918,W,2,08,1.1,-7.3,M,-25.1,M,1.8,0000*69
$GPGSA,A,3,20,03,16,19,06,13,23,08,,,,,2.0,1.1,1.7*35
$GPRMC,214603.000,A,3748.7675,N,12217.7918,W,0.20,28.62,180511,,,D*40
$GPVTG,28.62,T,,M,0.20,N,0.4,K,D*30
$GPGGA,214604.000,3748.7673,N,12217.7916,W,2,08,1.1,-7.3,M,-25.1,M,1.8,0000*66
$GPGSA,A,3,20,03,16,19,06,13,23,08,,,,,2.0,1.1,1.7*35
$GPRMC,214604.000,A,3748.7673,N,12217.7916,W,0.66,165.72,180511,,,D*74
$GPVTG,165.72,T,,M,0.66,N,1.2,K,D*0C
$GPGGA,214605.000,3748.7671,N,12217.7914,W,2,08,1.1,-7.5,M,-25.1,M,1.8,0000*61
$GPGSA,A,3,20,03,16,19,06,13,23,08,,,,,2.0,1.1,1.7*35
$GPRMC,214605.000,A,3748.7671,N,12217.7914,W,1.46,145.25,180511,,,D*76
$GPVTG,145.25,T,,M,1.46,N,2.7,K,D*09
$GPGGA,214606.000,3748.7667,N,12217.7908,W,2,08,1.1,-7.7,M,-25.1,M,1.8,0000*6A
$GPGSA,A,3,20,03,16,19,06,13,23,08,,,,,2.0,1.1,1.7*35
$GPRMC,214606.000,A,3748.7667,N,12217.7908,W,2.27,126.36,180511,,,D*7C
$GPVTG,126.36,T,,M,2.27,N,4.2,K,D*09
$GPGGA,214607.000,3748.7662,N,12217.7900,W,2,08,1.1,-8.2,M,-25.1,M,2.8,0000*6F
$GPGSA,A,3,20,03,16,19,06,13,23,08,,,,,2.0,1.1,1.7*35
$GPGSV,3,1,12,13,74,019,29,23,53,106,34,07,52,283,31,10,40,295,24*7B
$GPGSV,3,2,12,16,29,045,23,08,27,262,34,03,24,092,27,06,19,077,26*7A
$GPGSV,3,3,12,20,18,176,31,19,12,121,32,05,02,326,22,32,02,161,*7E
$GPRMC,214607.000,A,3748.7662,N,12217.7900,W,2.40,130.20,180511,,,D*71
$GPVTG,130.20,T,,M,2.40,N,4.4,K,D*0E
$GPGGA,214608.000,3748.7658,N,12217.7894,W,2,08,1.1,-8.1,M,-25.1,M,3.8,0000*67
$GPGSA,A,3,20,03,16,19,06,13,23,08,,,,,2.0,1.1,1.7*35
$GPRMC,214608.000,A,3748.7658,N,12217.7894,W,2.32,119.08,180511,,,D*7F
$GPVTG,119.08,T,,M,2.32,N,4.3,K,D*0D
$GPGGA,214609.000,3748.7653,N,12217.7888,W,2,08,1.1,-7.8,M,-25.1,M,1.8,0000*64
$GPGSA,A,3,20,03,16,19,06,13,23,08,,,,,2.0,1.1,1.7*35
$GPRMC,214609.000,A,3748.7653,N,12217.7888,W,2.46,127.27,180511,,,D*7B
$GPVTG,127.27,T,,M,2.46,N,4.6,K,D*0B
$GPGGA,214610.000,3748.7648,N,12217.7882,W,2,08,1.1,-7.5,M,-25.1,M,1.8,0000*61
$GPGSA,A,3,20,03,16,19,06,13,23,08,,,,,2.0,1.1,1.7*35
$GPRMC,214610.000,A,3748.7648,N,12217.7882,W,2.29,125.99,180511,,,D*7D
$GPVTG,125.99,T,,M,2.29,N,4.2,K,D*01
$GPGGA,214611.000,3748.7646,N,12217.7874,W,2,08,1.1,-8.2,M,-25.1,M,1.8,0000*6F
$GPGSA,A,3,20,03,16,19,06,13,23,08,,,,,2.0,1.1,1.7*35
$GPRMC,214611.000,A,3748.7646,N,12217.7874,W,2.44,117.68,180511,,,D*7F
$GPVTG,117.68,T,,M,2.44,N,4.5,K,D*02
$GPGGA,214612.000,3748.7639,N,12217.7866,W,2,08,1.1,-7.8,M,-25.1,M,2.8,0000*61
$GPGSA,A,3,20,03,16,19,06,13,23,08,,,,,2.0,1.1,1.7*35
$GPGSV,3,1,12,13,74,020,21,23,53,106,32,07,52,284,31,10,40,294,29*74
$GPGSV,3,2,12,16,29,045,23,08,27,263,35,03,24,092,20,06,19,076,19*70
$GPGSV,3,3,12,20,18,176,32,19,12,121,37,05,02,326,21,32,01,161,*78
$GPRMC,214612.000,A,3748.7639,N,12217.7866,W,2.75,116.21,180511,,,D*79
$GPVTG,116.21,T,,M,2.75,N,5.1,K,D*09
$GPGGA,214613.000,3748.7630,N,12217.7859,W,2,08,1.1,-7.0,M,-25.1,M,3.8,0000*6C
$GPGSA,A,3,20,03,16,19,06,13,23,08,,,,,2.0,1.1,1.7*35
$GPRMC,214613.000,A,3748.7630,N,12217.7859,W,2.54,119.69,180511,,,D*7D
$GPVTG,119.69,T,,M,2.54,N,4.7,K,D*0E
$GPGGA,214614.000,3748.7625,N,12217.7853,W,2,08,1.1,-6.2,M,-25.1,M,4.8,0000*61
$GPGSA,A,3,20,03,16,19,06,13,23,08,,,,,2.0,1.1,1.7*35
$GPRMC,214614.000,A,3748.7625,N,12217.7853,W,2.33,117.44,180511,,,D*74
$GPVTG,117.44,T,,M,2.33,N,4.3,K,D*0A
$GPGGA,214615.000,3748.7621,N,12217.7846,W,2,08,1.1,-6.1,M,-25.1,M,1.8,0000*66
$GPGSA,A,3,20,03,16,19,06,13,23,08,,,,,2.0,1.1,1.7*35
$GPRMC,214615.000,A,3748.7621,N,12217.7846,W,2.60,115.18,180511,,,D*78
$GPVTG,115.18,T,,M,2.60,N,4.8,K,D*0C
$GPGGA,214616.000,3748.7616,N,12217.7838,W,2,08,1.1,-6.4,M,-25.1,M,1.8,0000*6D
$GPGSA,A,3,20,03,16,19,06,13,23,08,,,,,2.0,1.1,1.7*35
$GPRMC,214616.000,A,3748.7616,N,12217.7838,W,2.54,119.08,180511,,,D*7C
$GPVTG,119.08,T,,M,2.54,N,4.7,K,D*09
$GPGGA,214617.000,3748.7610,N,12217.7831,W,2,08,1.1,-5.8,M,-25.1,M,1.8,0000*6C
$GPGSA,A,3,20,03,16,19,06,13,23,08,,,,,2.0,1.1,1.7*35
$GPGSV,3,1,12,13,74,020,27,23,53,106,36,07,52,284,31,10,40,294,21*7E
$GPGSV,3,2,12,16,29,045,18,08,27,263,35,03,24,092,22,06,19,076,21*71
$GPGSV,3,3,12,20,18,176,32,19,13,121,31,05,02,326,20,32,01,161,*7E
$GPRMC,214617.000,A,3748.7610,N,12217.7831,W,2.68,118.86,180511,,,D*7A
$GPVTG,118.86,T,,M,2.68,N,5.0,K,D*07
$GPGGA,214618.000,3748.7603,N,12217.7825,W,2,08,1.1,-5.0,M,-25.1,M,1.8,0000*6C
$GPGSA,A,3,20,03,16,19,06,13,23,08,,,,,2.0,1.1,1.7*35
$GPRMC,214618.000,A,3748.7603,N,12217.7825,W,2.77,130.15,180511,,,D*7C
$GPVTG,130.15,T,,M,2.77,N,5.1,K,D*08
$GPGGA,214619.000,3748.7596,N,12217.7820,W,2,08,1.1,-4.2,M,-25.1,M,1.8,0000*64
$GPGSA,A,3,20,03,16,19,06,13,23,08,,,,,2.0,1.1,1.7*35
$GPRMC,214619.000,A,3748.7596,N,12217.7820,W,2.63,127.85,180511,,,D*7D
$GPVTG,127.85,T,,M,2.63,N,4.9,K,D*0B
$GPGGA,214620.000,3748.7590,N,12217.7813,W,2,08,1.1,-3.6,M,-25.1,M,2.8,0000*68
$GPGSA,A,3,20,03,16,19,06,13,23,08,,,,,2.0,1.1,1.7*35
$GPRMC,214620.000,A,3748.7590,N,12217.7813,W,2.75,125.30,180511,,,D*7A
$GPVTG,125.30,T,,M,2.75,N,5.1,K,D*09
$GPGGA,214621.000,3748.7583,N,12217.7806,W,2,08,1.1,-2.4,M,-25.1,M,1.8,0000*6F
$GPGSA,A,3,20,03,16,19,06,13,23,08,,,,,2.0,1.1,1.7*35
$GPRMC,214621.000,A,3748.7583,N,12217.7806,W,2.80,130.30,180511,,,D*73
$GPVTG,130.30,T,,M,2.80,N,5.2,K,D*04
$GPGGA,214622.000,3748.7575,N,12217.7799,W,2,08,1.1,-1.4,M,-25.1,M,1.8,0000*6F
$GPGSA,A,3,20,03,16,19,06,13,23,08,,,,,2.0,1.1,1.7*35
$GPGSV,3,1,12,13,74,020,28,23,53,106,35,07,52,284,30,10,40,294,24*76
$GPGSV,3,2,12,16,29,045,19,08,27,263,35,03,24,092,21,06,19,076,22*70
$GPGSV,3,3,12,20,18,176,40,19,13,121,33,05,02,326,19,32,01,161,*73
$GPVTG,132.64,T,,M,2.91,N,5.4,K,D*01
$GPGGA,214623.000,3748.7569,N,12217.7791,W,2,08,1.1,-0.9,M,-25.1,M,1.8,0000*67
$GPGSA,A,3,20,03,16,19,06,13,23,08,,,,,2.0,1.1,1.7*35
$GPRMC,214623.000,A,3748.7569,N,12217.7791,W,3.03,127.40,180511,,,D*7F
$GPVTG,127.40,T,,M,3.03,N,5.6,K,D*0B
$GPGGA,214624.000,3748.7561,N,12217.7785,W,2,08,1.1,0.6,M,-25.1,M,2.8,0000*4C
$GPGSA,A,3,20,03,16,19,06,13,23,08,,,,,2.0,1.1,1.7*35
$GPRMC,214624.000,A,3748.7561,N,12217.7785,W,2.91,133.63,180511,,,D*7B
$GPVTG,133.63,T,,M,2.91,N,5.4,K,D*07
$GPGGA,214625.000,3748.7554,N,12217.7777,W,2,08,1.1,0.8,M,-25.1,M,3.8,0000*49
$GPGSA,A,3,20,03,16,19,06,13,23,08,,,,,2.0,1.1,1.7*35
$GPRMC,214625.000,A,3748.7554,N,12217.7777,W,2.77,128.73,180511,,,D*72
$GPVTG,128.73,T,,M,2.77,N,5.1,K,D*01
$GPGGA,214626.000,3748.7550,N,12217.7769,W,2,08,1.1,1.1,M,-25.1,M,4.8,0000*4E
$GPGSA,A,3,20,03,16,19,06,13,23,08,,,,,2.0,1.1,1.7*35
$GPRMC,214626.000,A,3748.7550,N,12217.7769,W,2.78,122.40,180511,,,D*7F
$GPVTG,122.40,T,,M,2.78,N,5.1,K,D*04
$GPGGA,214627.000,3748.7543,N,12217.7763,W,2,08,1.1,2.3,M,-25.1,M,1.8,0000*43
$GPGSA,A,3,20,03,16,19,06,13,23,08,,,,,2.0,1.1,1.7*35
$GPGSV,3,1,12,13,74,020,28,23,53,106,35,07,52,284,28,10,40,294,24*7F
$GPGSV,3,2,12,16,29,045,19,08,27,263,35,03,24,092,22,06,19,076,22*73
$GPGSV,3,3,12,20,18,176,35,19,13,121,34,05,02,326,19,32,01,161,*76
$GPRMC,214627.000,A,3748.7543,N,12217.7763,W,2.84,134.80,180511,,,D*7E
$GPVTG,134.80,T,,M,2.84,N,5.3,K,D*0E
$GPGGA,214628.000,3748.7537,N,12217.7756,W,2,08,1.1,2.8,M,-25.1,M,1.8,0000*42
$GPGSA,A,3,20,03,16,19,06,13,23,08,,,,,2.0,1.1,1.7*35
$GPRMC,214628.000,A,3748.7537,N,12217.7756,W,2.71,132.27,180511,,,D*75
$GPVTG,132.27,T,,M,2.71,N,5.0,K,D*0C
$GPGGA,214629.000,3748.7531,N,12217.7749,W,2,08,1.1,3.5,M,-25.1,M,1.8,0000*47
$GPGSA,A,3,20,03,16,19,06,13,23,08,,,,,2.0,1.1,1.7*35
$GPRMC,214629.000,A,3748.7531,N,12217.7749,W,2.70,127.40,180511,,,D*78
$GPVTG,127.40,T,,M,2.70,N,5.0,K,D*08
$GPGGA,214630.000,3748.7526,N,12217.7740,W,2,08,1.1,4.6,M,-25.1,M,2.8,0000*47
$GPGSA,A,3,20,03,16,19,06,13,23,08,,,,,2.0,1.1,1.7*35
$GPRMC,214630.000,A,3748.7526,N,12217.7740,W,2.52,127.76,180511,,,D*7A
$GPVTG,127.76,T,,M,2.52,N,4.7,K,D*0B
$GPGGA,214631.000,3748.7518,N,12217.7732,W,2,08,1.1,6.7,M,-25.1,M,3.8,0000*4C
$GPGSA,A,3,20,03,16,19,06,13,23,08,,,,,2.0,1.1,1.7*35
$GPRMC,214631.000,A,3748.7518,N,12217.7732,W,2.42,131.86,180511,,,D*7A
$GPVTG,131.86,T,,M,2.42,N,4.5,K,D*00
$GPGGA,214632.000,3748.7514,N,12217.7726,W,2,08,1.1,7.2,M,-25.1,M,1.8,0000*40
$GPGSA,A,3,20,03,16,19,06,13,23,08,,,,,2.0,1.1,1.7*35
$GPGSV,3,1,12,13,74,020,28,23,53,106,36,07,52,284,29,10,40,294,24*7D
$GPGSV,3,2,12,16,29,045,19,08,27,263,26,03,24,092,24,06,19,076,21*74
$GPGSV,3,3,12,20,18,176,25,19,13,121,34,05,02,326,18,32,01,161,*76
$GPRMC,214632.000,A,3748.7514,N,12217.7726,W,2.73,153.25,180511,,,D*7F
$GPVTG,153.25,T,,M,2.73,N,5.1,K,D*0A
$GPGGA,214633.000,3748.7505,N,12217.7719,W,2,08,1.1,8.7,M,-25.1,M,1.8,0000*47
$GPGSA,A,3,20,03,16,19,06,13,23,08,,,,,2.0,1.1,1.7*35
$GPRMC,214633.000,A,3748.7505,N,12217.7719,W,3.27,147.22,180511,,,D*70
$GPVTG,147.22,T,,M,3.27,N,6.1,K,D*0B
$GPGGA,214634.000,3748.7500,N,12217.7710,W,2,08,1.1,9.5,M,-25.1,M,1.8,0000*4F
$GPGSA,A,3,20,03,16,19,06,13,23,08,,,,,2.0,1.1,1.7*35
$GPRMC,214634.000,A,3748.7500,N,12217.7710,W,2.98,129.43,180511,,,D*71
$GPVTG,129.43,T,,M,2.98,N,5.5,K,D*06
$GPGGA,214635.000,3748.7496,N,12217.7701,W,2,08,1.1,9.9,M,-25.1,M,1.8,0000*4C
$GPGSA,A,3,20,03,16,19,06,13,23,08,,,,,2.0,1.1,1.7*35
$GPRMC,214635.000,A,3748.7496,N,12217.7701,W,2.96,133.29,180511,,,D*77
$GPVTG,133.29,T,,M,2.96,N,5.5,K,D*0F
$GPGGA,214636.000,3748.7491,N,12217.7693,W,2,08,1.1,10.0,M,-25.1,M,1.8,0000*73
$GPGSA,A,3,20,03,16,19,06,13,23,08,,,,,2.0,1.1,1.7*35
$GPRMC,214636.000,A,3748.7491,N,12217.7693,W,3.28,133.88,180511,,,D*76
$GPVTG,133.88,T,,M,3.28,N,6.1,K,D*07
$GPGGA,214637.000,3748.7487,N,12217.7682,W,2,08,1.1,9.6,M,-25.1,M,2.8,0000*48
$GPGSA,A,3,20,03,16,19,06,13,23,08,,,,,2.0,1.1,1.7*35
$GPGSV,3,1,12,13,74,020,29,23,53,106,36,07,52,284,25,10,40,294,24*70
$GPGSV,3,2,12,16,29,045,19,08,27,263,27,03,24,092,23,06,19,076,21*72
$GPGSV,3,3,12,20,18,176,24,19,13,121,34,05,02,326,18,32,01,161,*77
$GPRMC,214637.000,A,3748.7487,N,12217.7682,W,3.09,130.06,180511,,,D*76
$GPVTG,130.06,T,,M,3.09,N,5.7,K,D*04
$GPGGA,214638.000,3748.7483,N,12217.7670,W,2,08,1.1,10.1,M,-25.1,M,3.8,0000*70
$GPGSA,A,3,20,03,16,19,06,13,23,08,,,,,2.0,1.1,1.7*35
$GPRMC,214638.000,A,3748.7483,N,12217.7670,W,2.79,128.28,180511,,,D*73
$GPVTG,128.28,T,,M,2.79,N,5.2,K,D*02
$GPGGA,214639.000,3748.7480,N,12217.7660,W,2,08,1.1,10.0,M,-25.1,M,1.8,0000*70
$GPGSA,A,3,20,03,16,19,06,13,23,08,,,,,2.0,1.1,1.7*35
$GPRMC,214639.000,A,3748.7480,N,12217.7660,W,2.46,123.29,180511,,,D*76
$GPVTG,123.29,T,,M,2.46,N,4.6,K,D*01
$GPGGA,214640.000,3748.7477,N,12217.7653,W,2,08,1.1,9.9,M,-25.1,M,2.8,0000*44
$GPGSA,A,3,20,03,16,19,06,13,23,08,,,,,2.0,1.1,1.7*35
$GPRMC,214640.000,A,3748.7477,N,12217.7653,W,2.37,129.62,180511,,,D*73
$GPVTG,129.62,T,,M,2.37,N,4.4,K,D*00
$GPGGA,214641.000,3748.7473,N,12217.7646,W,2,08,1.1,10.0,M,-25.1,M,1.8,0000*77
$GPGSA,A,3,20,03,16,19,06,13,23,08,,,,,2.0,1.1,1.7*35
$GPRMC,214641.000,A,3748.7473,N,12217.7646,W,2.88,124.06,180511,,,D*79
$GPVTG,124.06,T,,M,2.88,N,5.3,K,D*0D
$GPGGA,214642.000,3748.7470,N,12217.7638,W,2,08,1.1,9.5,M,-25.1,M,1.8,0000*43
$GPGSA,A,3,20,03,16,19,06,13,23,08,,,,,2.0,1.1,1.7*35
$GPGSV,3,1,12,13,75,020,29,23,52,107,37,07,52,284,25,10,40,294,24*70
$GPGSV,3,2,12,16,29,045,19,08,27,263,32,03,24,092,25,06,19,076,21*70
$GPGSV,3,3,12,20,18,176,34,19,13,121,29,05,02,326,18,32,01,161,*7A
$GPVTG,130.25,T,,M,2.69,N,5.0,K,D*05
$GPGGA,214643.000,3748.7467,N,12217.7629,W,2,08,1.1,8.8,M,-25.1,M,2.8,0000*4B
$GPGSA,A,3,20,03,16,19,06,13,23,08,,,,,2.0,1.1,1.7*35
$GPRMC,214643.000,A,3748.7467,N,12217.7629,W,2.58,126.72,180511,,,D*7B
$GPVTG,126.72,T,,M,2.58,N,4.8,K,D*0B
$GPGGA,214644.000,3748.7466,N,12217.7620,W,2,08,1.1,7.7,M,-25.1,M,3.8,0000*45
$GPGSA,A,3,20,03,16,19,06,13,23,08,,,,,2.0,1.1,1.7*35
$GPRMC,214644.000,A,3748.7466,N,12217.7620,W,2.70,128.28,180511,,,D*7F
$GPVTG,128.28,T,,M,2.70,N,5.0,K,D*09
$GPGGA,214645.000,3748.7463,N,12217.7612,W,2,08,1.1,7.6,M,-25.1,M,1.8,0000*43
$GPGSA,A,3,20,03,16,19,06,13,23,08,,,,,2.0,1.1,1.7*35
$GPRMC,214645.000,A,3748.7463,N,12217.7612,W,2.61,117.50,180511,,,D*79
$GPVTG,117.50,T,,M,2.61,N,4.8,K,D*03
$GPGGA,214646.000,3748.7461,N,12217.7603,W,2,08,1.1,7.3,M,-25.1,M,1.8,0000*47
$GPGSA,A,3,20,03,16,19,06,13,23,08,,,,,2.0,1.1,1.7*35
$GPRMC,214646.000,A,3748.7461,N,12217.7603,W,2.67,114.88,180511,,,D*78
$GPVTG,114.88,T,,M,2.67,N,4.9,K,D*02
$GPGGA,214647.000,3748.7460,N,12217.7593,W,2,08,1.1,6.5,M,-25.1,M,1.8,0000*4A
$GPGSA,A,3,20,03,16,19,06,13,23,08,,,,,2.0,1.1,1.7*35
$GPGSV,3,1,12,13,75,021,29,07,52,284,26,23,52,107,37,10,40,294,24*72
$GPGSV,3,2,12,16,29,045,19,08,27,263,32,03,24,092,33,06,19,076,22*74
$GPGSV,3,3,12,20,18,176,38,19,13,121,30,05,02,326,19,32,01,161,*7F
$GPRMC,214647.000,A,3748.7460,N,12217.7593,W,2.75,123.84,180511,,,D*79
$GPVTG,123.84,T,,M,2.75,N,5.1,K,D*00
$GPGGA,214648.000,3748.7458,N,12217.7586,W,2,08,1.1,6.0,M,-25.1,M,2.8,0000*4C
$GPGSA,A,3,20,03,16,19,06,13,23,08,,,,,2.0,1.1,1.7*35
$GPRMC,214648.000,A,3748.7458,N,12217.7586,W,2.50,124.68,180511,,,D*7B
$GPVTG,124.68,T,,M,2.50,N,4.6,K,D*04
$GPGGA,214649.000,3748.7457,N,12217.7577,W,2,08,1.1,5.0,M,-25.1,M,3.8,0000*4E
$GPGSA,A,3,20,03,16,19,06,13,23,08,,,,,2.0,1.1,1.7*35
$GPRMC,214649.000,A,3748.7457,N,12217.7577,W,2.62,119.78,180511,,,D*75
$GPVTG,119.78,T,,M,2.62,N,4.9,K,D*05
$GPGGA,214650.000,3748.7457,N,12217.7568,W,2,08,1.1,4.2,M,-25.1,M,4.8,0000*4C
$GPGSA,A,3,20,03,16,19,06,13,23,08,,,,,2.0,1.1,1.7*35
$GPRMC,214650.000,A,3748.7457,N,12217.7568,W,2.69,113.19,180511,,,D*75
$GPVTG,113.19,T,,M,2.69,N,5.0,K,D*0B
$GPGGA,214651.000,3748.7457,N,12217.7558,W,2,08,1.1,3.5,M,-25.1,M,1.8,0000*4B
$GPGSA,A,3,20,03,16,19,06,13,23,08,,,,,2.0,1.1,1.7*35
$GPRMC,214651.000,A,3748.7457,N,12217.7558,W,2.46,114.91,180511,,,D*7D
$GPVTG,114.91,T,,M,2.46,N,4.6,K,D*06
$GPGGA,214652.000,3748.7455,N,12217.7548,W,2,08,1.1,3.3,M,-25.1,M,1.8,0000*4D
$GPGSA,A,3,20,03,16,19,06,13,23,08,,,,,2.0,1.1,1.7*35
$GPGSV,3,1,12,13,75,021,29,07,52,284,22,23,52,107,36,10,40,294,23*70
$GPGSV,3,2,12,16,29,045,30,08,27,263,32,03,24,092,35,06,19,076,29*72
$GPGSV,3,3,12,20,18,176,39,19,13,121,27,05,02,326,18,32,01,161,*79
$GPRMC,214652.000,A,3748.7455,N,12217.7548,W,2.61,108.66,180511,,,D*7D
$GPVTG,108.66,T,,M,2.61,N,4.8,K,D*08
$GPGGA,214653.000,3748.7454,N,12217.7539,W,2,08,1.1,3.2,M,-25.1,M,1.8,0000*4A
$GPGSA,A,3,20,03,16,19,06,13,23,08,,,,,2.0,1.1,1.7*35
$GPRMC,214653.000,A,3748.7454,N,12217.7539,W,2.25,103.47,180511,,,D*73
$GPVTG,103.47,T,,M,2.25,N,4.2,K,D*0A
$GPGGA,214654.000,3748.7454,N,12217.7531,W,2,08,1.1,2.1,M,-25.1,M,2.8,0000*44
$GPGSA,A,3,20,03,16,19,06,13,23,08,,,,,2.0,1.1,1.7*35
$GPRMC,214654.000,A,3748.7454,N,12217.7531,W,2.02,112.60,180511,,,D*7C
$GPVTG,112.60,T,,M,2.02,N,3.7,K,D*08
$GPGGA,214655.000,3748.7453,N,12217.7524,W,2,08,1.1,1.2,M,-25.1,M,3.8,0000*47
$GPGSA,A,3,20,03,16,19,06,13,23,08,,,,,2.0,1.1,1.7*35
$GPRMC,214655.000,A,3748.7453,N,12217.7524,W,2.21,130.19,180511,,,D*71
$GPVTG,130.19,T,,M,2.21,N,4.1,K,D*06
$GPGGA,214656.000,3748.7452,N,12217.7515,W,2,08,1.1,0.5,M,-25.1,M,4.8,0000*46
$GPGSA,A,3,20,03,16,19,06,13,23,08,,,,,2.0,1.1,1.7*35
$GPRMC,214656.000,A,3748.7452,N,12217.7515,W,2.24,115.96,180511,,,D*74
$GPVTG,115.96,T,,M,2.24,N,4.1,K,D*03
$GPGGA,214657.000,3748.7448,N,12217.7507,W,2,08,1.1,0.5,M,-25.1,M,1.8,0000*4A
$GPGSA,A,3,20,03,16,19,06,13,23,08,,,,,2.0,1.1,1.7*35
$GPGSV,3,1,12,13,75,021,28,07,52,284,29,23,52,107,36,10,40,294,24*7D
$GPGSV,3,2,12,16,29,045,29,08,27,263,32,03,24,092,25,06,19,076,24*76
$GPGSV,3,3,12,20,18,176,37,19,13,121,22,05,02,326,18,32,01,161,*72
$GPRMC,214657.000,A,3748.7448,N,12217.7507,W,2.52,124.94,180511,,,D*7C
$GPVTG,124.94,T,,M,2.52,N,4.7,K,D*04
$GPGGA,214658.000,3748.7444,N,12217.7498,W,2,08,1.1,0.0,M,-25.1,M,2.8,0000*48
$GPGSA,A,3,20,03,16,19,06,13,23,08,,,,,2.0,1.1,1.7*35
$GPRMC,214658.000,A,3748.7444,N,12217.7498,W,2.84,123.34,180511,,,D*7E
$GPVTG,123.34,T,,M,2.84,N,5.3,K,D*07
$GPGGA,214659.000,3748.7440,N,12217.7490,W,2,08,1.1,-0.4,M,-25.1,M,1.8,0000*6F
$GPGSA,A,3,20,03,16,19,06,13,23,08,,,,,2.0,1.1,1.7*35
$GPRMC,214659.000,A,3748.7440,N,12217.7490,W,2.89,124.54,180511,,,D*7F
$GPVTG,124.54,T,,M,2.89,N,5.3,K,D*0B
$GPGGA,214700.000,3748.7435,N,12217.7484,W,2,08,1.1,-0.4,M,-25.1,M,1.8,0000*65
$GPGSA,A,3,20,03,16,19,06,13,23,08,,,,,2.0,1.1,1.7*35
$GPRMC,214700.000,A,3748.7435,N,12217.7484,W,2.38,116.76,180511,,,D*7E
$GPVTG,116.76,T,,M,2.38,N,4.4,K,D*06
$GPGGA,214701.000,3748.7433,N,12217.7478,W,2,08,1.1,-0.7,M,-25.1,M,2.8,0000*61
$GPGSA,A,3,20,03,16,19,06,13,23,08,,,,,2.0,1.1,1.7*35
$GPRMC,214701.000,A,3748.7433,N,12217.7478,W,2.10,119.52,180511,,,D*79
$GPVTG,119.52,T,,M,2.10,N,3.9,K,D*0F
$GPGGA,214702.000,3748.7429,N,12217.7471,W,2,08,1.1,-0.8,M,-25.1,M,3.8,0000*6E
$GPGSA,A,3,20,03,16,19,06,13,23,08,,,,,2.0,1.1,1.7*35
$GPGSV,3,1,12,13,75,021,28,07,52,284,29,23,52,107,29,10,40,294,25*72
$GPGSV,3,2,12,16,29,045,20,08,27,263,31,03,24,092,36,06,19,076,22*78
$GPGSV,3,3,12,20,18,176,36,19,13,121,32,05,02,326,19,32,01,161,*73
$GPVTG,121.80,T,,M,2.78,N,5.2,K,D*08
$GPGGA,214703.000,3748.7427,N,12217.7463,W,2,08,1.1,-1.8,M,-25.1,M,4.8,0000*64
$GPGSA,A,3,20,03,16,19,06,13,23,08,,,,,2.0,1.1,1.7*35
$GPRMC,214703.000,A,3748.7427,N,12217.7463,W,2.99,112.01,180511,,,D*78
$GPVTG,112.01,T,,M,2.99,N,5.5,K,D*09
$GPGGA,214704.000,3748.7425,N,12217.7455,W,2,08,1.1,-3.0,M,-25.1,M,5.8,0000*6F
$GPGSA,A,3,20,03,16,19,06,13,23,08,,,,,2.0,1.1,1.7*35
$GPRMC,214704.000,A,3748.7425,N,12217.7455,W,2.17,116.67,180511,,,D*7A
$GPVTG,116.67,T,,M,2.17,N,4.0,K,D*0F
$GPGGA,214705.000,3748.7422,N,12217.7449,W,2,08,1.1,-3.7,M,-25.1,M,1.8,0000*67
$GPGSA,A,3,20,03,16,19,06,13,23,08,,,,,2.0,1.1,1.7*35
$GPRMC,214705.000,A,3748.7422,N,12217.7449,W,2.25,132.50,180511,,,D*72
$GPVTG,132.50,T,,M,2.25,N,4.2,K,D*0E
