$ADVER,3080,2.3
$GPRMC,171522.120,A,3748.8007,N,12217.8598,W,0.55,318.53,051112,,,A*7B
$GPGGA,171523.120,3748.8007,N,12217.8598,W,1,04,3.2,-1.4,M,-25.1,M,,0000*44
$GPGSA,A,3,04,02,10,09,,,,,,,,,5.1,3.2,4.0*3D
$GPRMC,171523.120,A,3748.8007,N,12217.8598,W,0.33,315.91,051112,,,A*79
$GPVTG,315.91,T,,M,0.33,N,0.6,K,A*04
$GPGGA,171524.120,3748.8007,N,12217.8598,W,1,04,3.2,-1.6,M,-25.1,M,,0000*41
$GPGSA,A,3,04,02,10,09,,,,,,,,,5.1,3.2,4.0*3D
$GPRMC,171524.120,A,3748.8007,N,12217.8598,W,0.31,317.99,051112,,,A*76
$GPVTG,317.99,T,,M,0.31,N,0.6,K,A*0C
$GPGGA,171525.000,3748.8007,N,12217.8599,W,1,04,3.2,-1.7,M,-25.1,M,,0000*43
$GPGSA,A,3,04,02,10,09,,,,,,,,,5.1,3.2,4.0*3D
$GPGSV,3,1,12,02,71,166,45,04,49,056,38,09,44,214,43,10,20,109,40*7B
$GPGSV,3,2,12,12,56,322,42,24,34,195,36,25,20,310,30,17,14,066,35*76
$GPGSV,3,3,12,29,08,260,,05,05,160,,14,01,301,,48,00,000,39*7A
$GPRMC,171525.000,A,3748.8007,N,12217.8599,W,0.31,313.29,051112,,,A*7A
$GPVTG,313.29,T,,M,0.31,N,0.6,K,A*03
$GPGGA,171526.000,3748.8008,N,12217.8599,W,1,04,3.2,-1.8,M,-25.1,M,,0000*40
$GPGSA,A,3,04,02,10,09,,,,,,,,,5.1,3.2,4.0*3D
$GPRMC,171526.000,A,3748.8008,N,12217.8599,W,0.30,318.28,051112,,,A*7D
$GPVTG,318.28,T,,M,0.30,N,0.6,K,A*08
$GPGGA,171527.000,3748.8008,N,12217.8599,W,1,04,3.2,-1.8,M,-25.1,M,,0000*41
$GPGSA,A,3,04,02,10,09,,,,,,,,,5.1,3.2,4.0*3D
$GPRMC,171527.000,A,3748.8008,N,12217.8599,W,0.33,315.60,051112,,,A*7E
$GPVTG,315.60,T,,M,0.33,N,0.6,K,A*0A
$GPGGA,171528.000,3748.8007,N,12217.8599,W,1,05,2.3,-1.4,M,-25.1,M,,0000*4C
$GPGSA,A,3,04,17,02,10,09,,,,,,,,3.5,2.3,2.6*39
$GPRMC,171528.000,A,3748.8007,N,12217.8599,W,0.25,310.40,051112,,,A*7E
$GPVTG,310.40,T,,M,0.25,N,0.5,K,A*09
$GPGGA,171529.000,3748.8006,N,12217.8598,W,1,05,2.3,-1.1,M,-25.1,M,,0000*48
$GPGSA,A,3,04,17,02,10,09,,,,,,,,3.5,2.3,2.6*39
$GPRMC,171529.000,A,3748.8006,N,12217.8598,W,0.25,309.27,051112,,,A*76
$GPVTG,309.27,T,,M,0.25,N,0.5,K,A*00
$GPGGA,171530.000,3748.8006,N,12217.8598,W,1,05,2.3,-0.9,M,-25.1,M,,0000*49
$GPGSA,A,3,04,17,02,10,09,,,,,,,,3.5,2.3,2.6*39
$GPGSV,3,1,12,02,71,166,44,12,56,322,42,04,49,056,38,09,44,214,42*71
$GPGSV,3,2,12,24,34,195,36,10,20,109,40,25,20,310,30,17,14,066,35*7C
$GPGSV,3,3,12,29,08,260,,05,05,160,,14,01,301,,48,44,197,39*75
$GPRMC,171530.000,A,3748.8006,N,12217.8598,W,0.25,309.00,051112,,,A*7B
$GPGGA,171531.000,3748.8006,N,12217.8598,W,1,05,2.3,-0.8,M,-25.1,M,,0000*49
$GPGSA,A,3,04,17,02,10,09,,,,,,,,3.5,2.3,2.6*39
$GPRMC,171531.000,A,3748.8006,N,12217.8598,W,0.25,307.88,051112,,,A*74
$GPVTG,307.88,T,,M,0.25,N,0.5,K,A*0B
$GPGGA,171532.000,3748.8005,N,12217.8598,W,1,05,2.3,-0.7,M,-25.1,M,,0000*46
$GPGSA,A,3,04,17,02,10,09,,,,,,,,3.5,2.3,2.6*39
$GPRMC,171532.000,A,3748.8005,N,12217.8598,W,0.21,306.31,051112,,,A*73
$GPVTG,306.31,T,,M,0.21,N,0.4,K,A*0D
$GPGGA,171533.000,3748.8005,N,12217.8598,W,1,05,2.3,-0.6,M,-25.1,M,,0000*46
$GPGSA,A,3,04,17,02,10,09,,,,,,,,3.5,2.3,2.6*39
$GPRMC,171533.000,A,3748.8005,N,12217.8598,W,0.22,304.73,051112,,,A*75
$GPVTG,304.73,T,,M,0.22,N,0.4,K,A*0A
$GPGGA,171534.000,3748.8007,N,12217.8601,W,1,06,1.6,-0.8,M,-25.1,M,,0000*4B
$GPGSA,A,3,04,17,12,02,10,09,,,,,,,2.9,1.6,2.5*32
$GPRMC,171534.000,A,3748.8007,N,12217.8601,W,0.11,219.93,051112,,,A*70
$GPVTG,219.93,T,,M,0.11,N,0.2,K,A*0F
$GPGGA,171535.000,3748.8008,N,12217.8602,W,1,06,1.6,-0.9,M,-25.1,M,,0000*47
$GPGSA,A,3,04,17,12,02,10,09,,,,,,,2.9,1.6,2.5*32
$GPGSV,3,1,12,02,71,166,44,12,56,322,42,04,49,056,39,09,44,214,42*70
$GPGSV,3,2,12,24,34,195,36,10,20,109,39,25,20,310,30,17,14,066,36*71
$GPGSV,3,3,12,29,08,260,,05,05,159,,14,01,301,,48,44,197,40*71
$GPRMC,171535.000,A,3748.8008,N,12217.8602,W,0.08,199.34,051112,,,A*73
$GPVTG,199.34,T,,M,0.08,N,0.2,K,A*01
$GPGGA,171536.000,3748.8008,N,12217.8603,W,1,06,1.6,-1.0,M,-25.1,M,,0000*4D
$GPGSA,A,3,04,17,12,02,10,09,,,,,,,2.9,1.6,2.5*32
$GPRMC,171536.000,A,3748.8008,N,12217.8603,W,0.10,203.47,051112,,,A*7C
$GPVTG,203.47,T,,M,0.10,N,0.2,K,A*0C
$GPGGA,171537.000,3748.8008,N,12217.8603,W,1,06,1.6,-1.0,M,-25.1,M,,0000*4C
$GPGSA,A,3,04,17,12,02,10,09,,,,,,,2.9,1.6,2.5*32
$GPRMC,171537.000,A,3748.8008,N,12217.8603,W,0.09,199.71,051112,,,A*70
$GPVTG,199.71,T,,M,0.09,N,0.2,K,A*01
$GPGGA,171538.000,3748.8008,N,12217.8604,W,1,06,1.6,-1.1,M,-25.1,M,,0000*45
$GPGSA,A,3,04,17,12,02,10,09,,,,,,,2.9,1.6,2.5*32
$GPRMC,171538.000,A,3748.8008,N,12217.8604,W,0.09,200.29,051112,,,A*76
$GPVTG,200.29,T,,M,0.09,N,0.2,K,A*0F
$GPGGA,171539.000,3748.8008,N,12217.8604,W,1,06,1.6,-1.1,M,-25.1,M,,0000*44
$GPGSA,A,3,04,17,12,02,10,09,,,,,,,2.9,1.6,2.5*32
$GPRMC,171539.000,A,3748.8008,N,12217.8604,W,0.08,202.20,051112,,,A*7D
$GPVTG,202.20,T,,M,0.08,N,0.1,K,A*06
$GPGGA,171540.000,3748.8008,N,12217.8604,W,1,06,1.6,-1.1,M,-25.1,M,,0000*4A
$GPGSA,A,3,04,17,12,02,10,09,,,,,,,2.9,1.6,2.5*32
$GPGSV,3,1,12,02,71,166,44,12,56,322,43,04,49,056,39,09,44,214,42*71
$GPGSV,3,2,12,24,34,195,36,10,20,109,38,25,20,310,31,17,14,066,36*71
$GPGSV,3,3,12,29,08,260,,05,05,159,,14,01,301,,48,44,197,41*70
$GPRMC,171540.000,A,3748.8008,N,12217.8604,W,0.10,188.70,051112,,,A*7E
$GPVTG,188.70,T,,M,0.10,N,0.2,K,A*08
$GPGGA,171541.000,3748.8008,N,12217.8604,W,1,06,1.6,-1.1,M,-25.1,M,,0000*4B
$GPGSA,A,3,04,17,12,02,10,09,,,,,,,2.9,1.6,2.5*32
$GPRMC,171541.000,A,3748.8008,N,12217.8604,W,0.08,181.01,051112,,,A*79
$GPVTG,181.01,T,,M,0.08,N,0.2,K,A*0E
$GPGGA,171542.000,3748.8008,N,12217.8604,W,1,06,1.6,-1.2,M,-25.1,M,,0000*4B
$GPGSA,A,3,04,17,12,02,10,09,,,,,,,2.9,1.6,2.5*32
$GPRMC,171542.000,A,3748.8008,N,12217.8604,W,0.10,188.63,051112,,,A*7E
$GPVTG,188.63,T,,M,0.10,N,0.2,K,A*0A
$GPGGA,171543.000,3748.8007,N,12217.8604,W,1,06,1.6,-1.2,M,-25.1,M,,0000*45
$GPGSA,A,3,04,17,12,02,10,09,,,,,,,2.9,1.6,2.5*32
$GPRMC,171543.000,A,3748.8007,N,12217.8604,W,0.09,178.17,051112,,,A*74
$GPVTG,178.17,T,,M,0.09,N,0.2,K,A*0E
$GPGGA,171544.000,3748.8007,N,12217.8605,W,1,06,1.6,-1.2,M,-25.1,M,,0000*43
$GPGSA,A,3,04,17,12,02,10,09,,,,,,,2.9,1.6,2.5*32
$GPRMC,171544.000,A,3748.8007,N,12217.8605,W,0.09,186.54,051112,,,A*74
$GPVTG,186.54,T,,M,0.09,N,0.2,K,A*08
$GPGGA,171545.000,3748.8007,N,12217.8605,W,1,06,1.6,-1.3,M,-25.1,M,,0000*43
$GPGSA,A,3,04,17,12,02,10,09,,,,,,,2.9,1.6,2.5*32
$GPGSV,3,1,12,02,71,166,44,12,56,322,43,04,49,056,39,09,44,214,42*71
$GPGSV,3,2,12,24,34,195,37,10,20,109,38,25,20,310,31,17,14,066,36*70
$GPGSV,3,3,12,29,08,260,,05,05,159,,14,01,301,,48,44,197,40*71
$GPVTG,189.58,T,,M,0.09,N,0.2,K,A*0B
$GPGGA,171546.000,3748.8007,N,12217.8605,W,1,06,1.6,-1.3,M,-25.1,M,,0000*40
$GPGSA,A,3,04,17,12,02,10,09,,,,,,,2.9,1.6,2.5*32
$GPRMC,171546.000,A,3748.8007,N,12217.8605,W,0.09,184.99,051112,,,A*75
$GPVTG,184.99,T,,M,0.09,N,0.2,K,A*0B
$GPGGA,171547.000,3748.8007,N,12217.8605,W,1,06,1.6,-1.3,M,-25.1,M,,0000*41
$GPGSA,A,3,04,17,12,02,10,09,,,,,,,2.9,1.6,2.5*32
$GPRMC,171547.000,A,3748.8007,N,12217.8605,W,0.09,183.57,051112,,,A*71
$GPVTG,183.57,T,,M,0.09,N,0.2,K,A*0E
$GPGGA,171548.000,3748.8007,N,12217.8605,W,1,06,1.6,-1.4,M,-25.1,M,,0000*49
$GPGSA,A,3,04,17,12,02,10,09,,,,,,,2.9,1.6,2.5*32
$GPRMC,171548.000,A,3748.8007,N,12217.8605,W,0.09,179.30,051112,,,A*7A
$GPVTG,179.30,T,,M,0.09,N,0.2,K,A*0A
$GPGGA,171549.000,3748.8006,N,12217.8605,W,1,06,1.6,-1.4,M,-25.1,M,,0000*49
$GPGSA,A,3,04,17,12,02,10,09,,,,,,,2.9,1.6,2.5*32
$GPRMC,171549.000,A,3748.8006,N,12217.8605,W,0.09,185.83,051112,,,A*71
$GPVTG,185.83,T,,M,0.09,N,0.2,K,A*01
$GPGGA,171550.000,3748.8006,N,12217.8605,W,1,06,1.6,-1.4,M,-25.1,M,,0000*41
$GPGSA,A,3,04,17,12,02,10,09,,,,,,,2.9,1.6,2.5*32
$GPGSV,3,1,12,02,71,166,44,12,56,322,43,04,49,056,38,09,44,214,42*70
$GPGSV,3,2,12,24,34,195,37,10,20,109,38,25,20,310,31,17,14,066,36*70
$GPGSV,3,3,12,29,08,260,,05,05,159,,14,01,301,,48,44,197,40*71
$GPRMC,171550.000,A,3748.8006,N,12217.8605,W,0.11,193.40,051112,,,A*78
$GPVTG,193.40,T,,M,0.11,N,0.2,K,A*00
$GPGGA,171551.000,3748.8006,N,12217.8605,W,1,06,1.6,-1.4,M,-25.1,M,,0000*40
$GPGSA,A,3,04,17,12,02,10,09,,,,,,,2.9,1.6,2.5*32
$GPRMC,171551.000,A,3748.8006,N,12217.8605,W,0.08,190.98,051112,,,A*77
$GPVTG,190.98,T,,M,0.08,N,0.1,K,A*0D
$GPGGA,171552.000,3748.8006,N,12217.8605,W,1,06,1.6,-1.4,M,-25.1,M,,0000*43
$GPGSA,A,3,04,17,12,02,10,09,,,,,,,2.9,1.6,2.5*32
$GPRMC,171552.000,A,3748.8006,N,12217.8605,W,0.10,178.61,051112,,,A*7D
$GPVTG,178.61,T,,M,0.10,N,0.2,K,A*07
$GPGGA,171553.000,3748.8006,N,12217.8605,W,1,06,1.6,-1.4,M,-25.1,M,,0000*42
$GPGSA,A,3,04,17,12,02,10,09,,,,,,,2.9,1.6,2.5*32
$GPRMC,171553.000,A,3748.8006,N,12217.8605,W,0.07,194.30,051112,,,A*7C
$GPVTG,194.30,T,,M,0.07,N,0.1,K,A*04
$GPGGA,171554.000,3748.8006,N,12217.8605,W,1,06,1.6,-1.4,M,-25.1,M,,0000*45
$GPGSA,A,3,04,17,12,02,10,09,,,,,,,2.9,1.6,2.5*32
$GPRMC,171554.000,A,3748.8006,N,12217.8605,W,0.14,186.19,051112,,,A*71
$GPVTG,186.19,T,,M,0.14,N,0.3,K,A*0C
$GPGGA,171555.000,3748.8006,N,12217.8606,W,1,06,1.6,-1.5,M,-25.1,M,,0000*46
$GPGSA,A,3,04,17,12,02,10,09,,,,,,,2.9,1.6,2.5*32
$GPGSV,3,1,12,02,71,166,22,12,56,322,30,04,49,056,39,09,44,214,42*75
$GPGSV,3,2,12,24,34,195,22,10,20,109,25,25,20,310,32,17,13,066,21*7A
$GPGSV,3,3,12,29,08,261,,05,05,159,,14,01,301,,48,44,197,37*70
$GPRMC,171555.000,A,3748.8006,N,12217.8606,W,0.09,248.10,051112,,,A*77
$GPVTG,248.10,T,,M,0.09,N,0.2,K,A*09
$GPGGA,171556.000,3748.8007,N,12217.8607,W,1,06,1.6,-1.5,M,-25.1,M,,0000*45
$GPGSA,A,3,04,17,12,02,10,09,,,,,,,2.9,1.6,2.5*32
$GPRMC,171556.000,A,3748.8007,N,12217.8607,W,0.16,297.89,051112,,,A*78
$GPVTG,297.89,T,,M,0.16,N,0.3,K,A*04
$GPGGA,171557.000,3748.8007,N,12217.8607,W,1,06,1.6,-1.5,M,-25.1,M,,0000*44
$GPGSA,A,3,04,17,12,02,10,09,,,,,,,2.9,1.6,2.5*32
$GPRMC,171557.000,A,3748.8007,N,12217.8607,W,0.12,197.98,051112,,,A*7E
$GPVTG,197.98,T,,M,0.12,N,0.2,K,A*02
$GPGGA,171558.000,3748.8007,N,12217.8608,W,1,06,1.6,-1.7,M,-25.1,M,,0000*46
$GPGSA,A,3,04,17,12,02,10,09,,,,,,,2.9,1.6,2.5*32
$GPRMC,171558.000,A,3748.8007,N,12217.8608,W,0.23,248.08,051112,,,A*74
$GPVTG,248.08,T,,M,0.23,N,0.4,K,A*0E
$GPGGA,171559.000,3748.8007,N,12217.8609,W,1,06,1.6,-1.9,M,-25.1,M,,0000*48
$GPGSA,A,3,04,17,12,02,10,09,,,,,,,2.9,1.6,2.5*32
$GPRMC,171559.000,A,3748.8007,N,12217.8609,W,0.14,241.63,051112,,,A*74
$GPVTG,241.63,T,,M,0.14,N,0.3,K,A*09
$GPGGA,171600.000,3748.8008,N,12217.8611,W,1,06,1.6,-2.1,M,-25.1,M,,0000*4A
$GPGSA,A,3,04,17,12,02,10,09,,,,,,,2.9,1.6,2.5*32
$GPGSV,3,1,12,02,71,166,37,12,56,322,41,04,49,056,27,09,44,214,37*7A
$GPGSV,3,2,12,24,34,195,33,10,20,109,34,25,20,310,31,17,13,066,30*79
$GPGSV,3,3,12,29,08,261,,05,05,159,,14,01,301,,48,44,197,38*7F
$GPVTG,189.76,T,,M,0.09,N,0.2,K,A*07
$GPGGA,171601.000,3748.8008,N,12217.8612,W,1,06,1.6,-2.2,M,-25.1,M,,0000*4B
$GPGSA,A,3,04,17,12,02,10,09,,,,,,,2.9,1.6,2.5*32
$GPRMC,171601.000,A,3748.8008,N,12217.8612,W,0.11,178.81,051112,,,A*7F
$GPVTG,178.81,T,,M,0.11,N,0.2,K,A*08
$GPGGA,171602.000,3748.8008,N,12217.8614,W,1,06,1.6,-2.6,M,-25.1,M,,0000*4A
$GPGSA,A,3,04,17,12,02,10,09,,,,,,,2.9,1.6,2.5*32
$GPRMC,171602.000,A,3748.8008,N,12217.8614,W,0.11,100.61,051112,,,A*7B
$GPVTG,100.61,T,,M,0.11,N,0.2,K,A*09
$GPGGA,171603.000,3748.8007,N,12217.8617,W,1,06,1.6,-2.9,M,-25.1,M,,0000*48
$GPGSA,A,3,04,17,12,02,10,09,,,,,,,2.9,1.6,2.5*32
$GPRMC,171603.000,A,3748.8007,N,12217.8617,W,0.35,216.70,051112,,,A*74
$GPVTG,216.70,T,,M,0.35,N,0.6,K,A*0F
$GPGGA,171604.000,3748.8007,N,12217.8621,W,1,06,1.6,-2.9,M,-25.1,M,,0000*4A
$GPGSA,A,3,04,17,12,02,10,09,,,,,,,2.9,1.6,2.5*32
$GPRMC,171604.000,A,3748.8007,N,12217.8621,W,0.15,240.07,051112,,,A*77
$GPVTG,240.07,T,,M,0.15,N,0.3,K,A*0B
$GPGGA,171605.000,3748.8007,N,12217.8621,W,1,05,1.8,-2.5,M,-25.1,M,,0000*4A
$GPGSA,A,3,04,17,12,02,09,,,,,,,,3.1,1.8,2.5*34
$GPGSV,3,1,11,02,71,166,22,12,56,322,32,04,49,056,27,09,44,214,30*7E
$GPGSV,3,2,11,24,34,195,24,10,20,109,,25,20,310,32,17,13,066,27*7E
$GPGSV,3,3,11,29,08,261,,05,05,159,,14,01,301,*44
$GPRMC,171605.000,A,3748.8007,N,12217.8621,W,0.27,281.59,051112,,,A*71
$GPVTG,281.59,T,,M,0.27,N,0.5,K,A*0A
$GPGGA,171606.000,3748.8007,N,12217.8626,W,1,04,6.6,-3.6,M,-25.1,M,,0000*44
$GPGSA,A,3,04,17,02,09,,,,,,,,,7.1,6.6,2.6*39
$GPRMC,171606.000,A,3748.8007,N,12217.8626,W,0.58,284.37,051112,,,A*70
$GPVTG,284.37,T,,M,0.58,N,1.1,K,A*0A
$GPGGA,171607.000,3748.8009,N,12217.8631,W,1,04,1.9,-4.6,M,-25.1,M,,0000*42
$GPGSA,A,3,04,12,02,09,,,,,,,,,5.9,1.9,5.5*3A
$GPRMC,171607.000,A,3748.8009,N,12217.8631,W,1.17,325.55,051112,,,A*7D
$GPVTG,325.55,T,,M,1.17,N,2.2,K,A*0E
$GPGGA,171608.000,3748.8001,N,12217.8631,W,1,05,1.8,-5.2,M,-25.1,M,,0000*40
$GPGSA,A,3,04,17,12,02,09,,,,,,,,3.1,1.8,2.5*34
$GPRMC,171608.000,A,3748.8001,N,12217.8631,W,0.84,190.35,051112,,,A*7B
$GPVTG,190.35,T,,M,0.84,N,1.6,K,A*08
$GPGGA,171609.000,3748.7988,N,12217.8621,W,1,06,1.6,-3.1,M,-25.1,M,,0000*4F
$GPGSA,A,3,04,17,12,02,10,09,,,,,,,2.9,1.6,2.4*33
$GPRMC,171609.000,A,3748.7988,N,12217.8621,W,0.94,172.66,051112,,,A*77
$GPVTG,172.66,T,,M,0.94,N,1.7,K,A*02
$GPGGA,171610.000,3748.7985,N,12217.8613,W,1,06,1.6,-2.4,M,-25.1,M,,0000*4F
$GPGSA,A,3,04,17,12,02,10,09,,,,,,,2.9,1.6,2.4*33
$GPGSV,3,1,11,02,71,166,26,12,56,322,23,04,49,056,24,09,44,214,29*71
$GPGSV,3,2,11,24,34,195,26,10,20,109,30,25,20,310,21,17,13,066,25*7F
$GPGSV,3,3,11,29,08,261,,05,05,159,,14,01,301,*44
$GPRMC,171610.000,A,3748.7985,N,12217.8613,W,0.47,157.64,051112,,,A*78
$GPVTG,157.64,T,,M,0.47,N,0.9,K,A*06
$GPGGA,171611.000,3748.7984,N,12217.8605,W,1,06,1.6,-0.8,M,-25.1,M,,0000*46
$GPGSA,A,3,04,17,12,02,10,09,,,,,,,2.9,1.6,2.4*33
$GPRMC,171611.000,A,3748.7984,N,12217.8605,W,0.55,140.22,051112,,,A*78
$GPVTG,140.22,T,,M,0.55,N,1.0,K,A*09
$GPGGA,171612.000,3748.7990,N,12217.8604,W,1,06,1.6,-0.1,M,-25.1,M,,0000*48
$GPGSA,A,3,04,17,12,02,10,09,,,,,,,2.9,1.6,2.4*33
$GPRMC,171612.000,A,3748.7990,N,12217.8604,W,0.12,275.72,051112,,,A*7C
$GPVTG,275.72,T,,M,0.12,N,0.2,K,A*09
$GPGGA,171613.000,3748.7991,N,12217.8606,W,1,05,1.8,0.1,M,-25.1,M,,0000*6A
$GPGSA,A,3,04,17,12,02,09,,,,,,,,3.1,1.8,2.5*34
$GPRMC,171613.000,A,3748.7991,N,12217.8606,W,0.28,305.95,051112,,,A*78
$GPVTG,305.95,T,,M,0.28,N,0.5,K,A*08
$GPGGA,171614.000,3748.7989,N,12217.8604,W,1,06,1.6,-0.1,M,-25.1,M,,0000*46
$GPGSA,A,3,04,17,12,02,10,09,,,,,,,2.9,1.6,2.4*33
$GPRMC,171614.000,A,3748.7989,N,12217.8604,W,2.06,144.16,051112,,,A*76
$GPVTG,144.16,T,,M,2.06,N,3.8,K,A*04
$GPGGA,171615.000,3748.7988,N,12217.8605,W,1,06,1.6,-0.2,M,-25.1,M,,0000*44
$GPGSA,A,3,04,17,12,02,10,09,,,,,,,2.9,1.6,2.4*33
$GPGSV,3,1,11,02,71,166,31,12,56,322,32,04,49,056,30,09,44,214,34*7E
$GPGSV,3,2,11,24,34,195,34,10,20,109,33,25,20,310,33,17,13,066,28*71
$GPGSV,3,3,11,29,08,261,,05,05,159,,14,01,301,*44
$GPRMC,171615.000,A,3748.7988,N,12217.8605,W,2.12,179.04,051112,,,A*7F
$GPGGA,171616.000,3748.7983,N,12217.8606,W,1,06,1.6,-1.5,M,-25.1,M,,0000*49
$GPGSA,A,3,04,17,12,02,10,09,,,,,,,2.9,1.6,2.4*33
$GPRMC,171616.000,A,3748.7983,N,12217.8606,W,1.71,143.43,051112,,,A*78
$GPVTG,143.43,T,,M,1.71,N,3.2,K,A*0A
$GPGGA,171617.000,3748.7976,N,12217.8595,W,1,06,1.6,-2.8,M,-25.1,M,,0000*45
$GPGSA,A,3,04,17,12,02,10,09,,,,,,,2.9,1.6,2.4*33
$GPRMC,171617.000,A,3748.7976,N,12217.8595,W,1.98,120.67,051112,,,A*7E
$GPVTG,120.67,T,,M,1.98,N,3.7,K,A*0B
$GPGGA,171618.000,3748.7972,N,12217.8585,W,1,06,1.6,-3.6,M,-25.1,M,,0000*40
$GPGSA,A,3,04,17,12,02,10,09,,,,,,,2.9,1.6,2.4*33
$GPRMC,171618.000,A,3748.7972,N,12217.8585,W,1.84,123.54,051112,,,A*7A
$GPVTG,123.54,T,,M,1.84,N,3.4,K,A*06
$GPGGA,171619.000,3748.7968,N,12217.8580,W,1,06,1.6,-4.3,M,-25.1,M,,0000*4D
$GPGSA,A,3,04,17,12,02,10,09,,,,,,,2.9,1.6,2.4*33
$GPRMC,171619.000,A,3748.7968,N,12217.8580,W,1.39,118.17,051112,,,A*7C
$GPVTG,118.17,T,,M,1.39,N,2.6,K,A*0C
$GPGGA,171620.000,3748.7965,N,12217.8573,W,1,06,1.6,-4.4,M,-25.1,M,,0000*41
$GPGSA,A,3,04,17,12,02,10,09,,,,,,,2.9,1.6,2.4*33
$GPGSV,3,1,12,02,71,166,29,12,56,322,24,04,49,056,28,09,44,214,33*7D
$GPGSV,3,2,12,24,34,195,35,10,20,109,36,25,20,310,27,17,13,066,28*73
$GPGSV,3,3,12,29,08,261,,05,05,159,,14,01,301,,48,44,197,36*71
$GPRMC,171620.000,A,3748.7965,N,12217.8573,W,1.45,122.96,051112,,,A*7C
$GPVTG,122.96,T,,M,1.45,N,2.7,K,A*06
$GPGGA,171621.000,3748.7960,N,12217.8565,W,1,06,1.6,-4.8,M,-25.1,M,,0000*4E
$GPGSA,A,3,04,17,12,02,10,09,,,,,,,2.9,1.6,2.4*33
$GPRMC,171621.000,A,3748.7960,N,12217.8565,W,2.02,121.22,051112,,,A*73
$GPVTG,121.22,T,,M,2.02,N,3.7,K,A*0B
$GPGGA,171622.000,3748.7954,N,12217.8557,W,1,06,1.6,-4.4,M,-25.1,M,,0000*47
$GPGSA,A,3,04,17,12,02,10,09,,,,,,,2.9,1.6,2.4*33
$GPRMC,171622.000,A,3748.7954,N,12217.8557,W,2.44,123.27,051112,,,A*73
$GPVTG,123.27,T,,M,2.44,N,4.5,K,A*0B
$GPGGA,171623.000,3748.7946,N,12217.8550,W,1,06,1.6,-3.1,M,-25.1,M,,0000*40
$GPGSA,A,3,04,17,12,02,10,09,,,,,,,2.9,1.6,2.4*33
$GPRMC,171623.000,A,3748.7946,N,12217.8550,W,2.00,123.97,051112,,,A*7D
$GPVTG,123.97,T,,M,2.00,N,3.7,K,A*05
$GPGGA,171624.000,3748.7939,N,12217.8538,W,1,06,1.6,-2.1,M,-25.1,M,,0000*40
$GPGSA,A,3,04,17,12,02,10,09,,,,,,,2.9,1.6,2.4*33
$GPRMC,171624.000,A,3748.7939,N,12217.8538,W,2.43,119.36,051112,,,A*79
$GPVTG,119.36,T,,M,2.43,N,4.5,K,A*05
$GPGGA,171625.000,3748.7931,N,12217.8525,W,1,06,1.6,-1.2,M,-25.1,M,,0000*45
$GPGSA,A,3,04,17,12,02,10,09,,,,,,,2.9,1.6,2.4*33
$GPGSV,3,1,12,02,71,166,30,12,56,322,23,04,49,056,26,09,44,214,34*7B
$GPGSV,3,2,12,24,34,195,35,10,20,109,36,25,20,310,24,17,13,066,27*7F
$GPGSV,3,3,12,29,08,261,,05,05,159,,14,01,301,,48,44,197,36*71
$GPRMC,171625.000,A,3748.7931,N,12217.8525,W,2.08,122.19,051112,,,A*76
$GPVTG,122.19,T,,M,2.08,N,3.9,K,A*04
$GPGGA,171626.000,3748.7926,N,12217.8522,W,1,06,1.6,-0.5,M,-25.1,M,,0000*41
$GPGSA,A,3,04,17,12,02,10,09,,,,,,,2.9,1.6,2.4*33
$GPRMC,171626.000,A,3748.7926,N,12217.8522,W,1.61,118.07,051112,,,A*7E
$GPVTG,118.07,T,,M,1.61,N,3.0,K,A*07
$GPGGA,171627.000,3748.7923,N,12217.8510,W,1,06,1.6,0.6,M,-25.1,M,,0000*6A
$GPGSA,A,3,04,17,12,02,10,09,,,,,,,2.9,1.6,2.4*33
$GPRMC,171627.000,A,3748.7923,N,12217.8510,W,1.55,116.06,051112,,,A*73
$GPVTG,116.06,T,,M,1.55,N,2.9,K,A*07
$GPGGA,171628.000,3748.7920,N,12217.8505,W,1,06,1.6,0.6,M,-25.1,M,,0000*62
$GPGSA,A,3,04,17,12,02,10,09,,,,,,,2.9,1.6,2.4*33
$GPRMC,171628.000,A,3748.7920,N,12217.8505,W,1.46,117.50,051112,,,A*7B
$GPVTG,117.50,T,,M,1.46,N,2.7,K,A*09
$GPGGA,171629.000,3748.7918,N,12217.8500,W,1,06,1.6,0.5,M,-25.1,M,,0000*6E
$GPGSA,A,3,04,17,12,02,10,09,,,,,,,2.9,1.6,2.4*33
$GPRMC,171629.000,A,3748.7918,N,12217.8500,W,1.65,112.25,051112,,,A*72
$GPVTG,112.25,T,,M,1.65,N,3.1,K,A*08
$GPGGA,171630.000,3748.7922,N,12217.8499,W,1,06,1.6,-0.3,M,-25.1,M,,0000*45
$GPGSA,A,3,04,17,12,02,10,09,,,,,,,2.9,1.6,2.4*33
$GPGSV,3,1,12,02,71,166,30,12,56,322,23,04,49,056,31,09,44,214,35*7C
$GPGSV,3,2,12,24,34,195,36,10,20,109,36,25,20,310,24,17,13,066,22*79
$GPGSV,3,3,12,29,08,261,,05,05,159,,14,01,301,,48,44,197,35*72
$GPVTG,88.42,T,,M,1.43,N,2.6,K,A*39
$GPGGA,171631.000,3748.7923,N,12217.8492,W,1,06,1.6,0.1,M,-25.1,M,,0000*61
$GPGSA,A,3,04,17,12,02,10,09,,,,,,,2.9,1.6,2.4*33
$GPRMC,171631.000,A,3748.7923,N,12217.8492,W,1.54,101.20,051112,,,A*7C
$GPVTG,101.20,T,,M,1.54,N,2.9,K,A*04
$GPGGA,171632.000,3748.7922,N,12217.8482,W,1,06,1.6,1.0,M,-25.1,M,,0000*62
$GPGSA,A,3,04,17,12,02,10,09,,,,,,,2.9,1.6,2.4*33
$GPRMC,171632.000,A,3748.7922,N,12217.8482,W,2.04,105.35,051112,,,A*79
$GPVTG,105.35,T,,M,2.04,N,3.8,K,A*02
$GPGGA,171633.000,3748.7922,N,12217.8478,W,1,06,1.6,0.0,M,-25.1,M,,0000*67
$GPGSA,A,3,04,17,12,02,10,09,,,,,,,2.9,1.6,2.4*33
$GPRMC,171633.000,A,3748.7922,N,12217.8478,W,1.62,100.71,051112,,,A*7B
$GPVTG,100.71,T,,M,1.62,N,3.0,K,A*0C
$GPGGA,171634.000,3748.7917,N,12217.8470,W,1,06,1.6,0.6,M,-25.1,M,,0000*68
$GPGSA,A,3,04,17,12,02,10,09,,,,,,,2.9,1.6,2.4*33
$GPRMC,171634.000,A,3748.7917,N,12217.8470,W,1.45,123.11,051112,,,A*70
$GPVTG,123.11,T,,M,1.45,N,2.7,K,A*08
$GPGGA,171635.000,3748.7910,N,12217.8462,W,1,06,1.6,1.8,M,-25.1,M,,0000*62
$GPGSA,A,3,04,17,12,02,10,09,,,,,,,2.9,1.6,2.4*33
$GPGSV,3,1,12,02,71,166,26,12,56,322,23,04,49,056,30,09,44,214,28*76
$GPGSV,3,2,12,24,34,195,29,10,20,109,23,25,20,310,24,17,13,066,23*72
$GPGSV,3,3,12,29,08,261,,05,05,159,,14,01,301,,48,44,197,31*76
$GPRMC,171635.000,A,3748.7910,N,12217.8462,W,1.86,141.94,051112,,,A*73
$GPVTG,141.94,T,,M,1.86,N,3.4,K,A*0C
$GPGGA,171636.000,3748.7912,N,12217.8461,W,1,06,1.6,0.9,M,-25.1,M,,0000*60
$GPGSA,A,3,04,17,12,02,10,09,,,,,,,2.9,1.6,2.4*33
$GPRMC,171636.000,A,3748.7912,N,12217.8461,W,1.12,119.50,051112,,,A*79
$GPVTG,119.50,T,,M,1.12,N,2.1,K,A*00
$GPGGA,171637.000,3748.7914,N,12217.8460,W,1,06,1.6,-0.1,M,-25.1,M,,0000*43
$GPGSA,A,3,04,17,12,02,10,09,,,,,,,2.9,1.6,2.4*33
$GPRMC,171637.000,A,3748.7914,N,12217.8460,W,1.00,125.87,051112,,,A*79
$GPVTG,125.87,T,,M,1.00,N,1.9,K,A*0D
$GPGGA,171638.000,3748.7914,N,12217.8459,W,1,06,1.6,-1.2,M,-25.1,M,,0000*44
$GPGSA,A,3,04,17,12,02,10,09,,,,,,,2.9,1.6,2.4*33
$GPRMC,171638.000,A,3748.7914,N,12217.8459,W,1.32,126.64,051112,,,A*73
$GPVTG,126.64,T,,M,1.32,N,2.5,K,A*0D
$GPGGA,171639.000,3748.7909,N,12217.8455,W,1,06,1.6,-1.7,M,-25.1,M,,0000*40
$GPGSA,A,3,04,17,12,02,10,09,,,,,,,2.9,1.6,2.4*33
$GPRMC,171639.000,A,3748.7909,N,12217.8455,W,1.10,114.21,051112,,,A*72
$GPVTG,114.21,T,,M,1.10,N,2.0,K,A*08
$GPGGA,171640.000,3748.7906,N,12217.8445,W,1,06,1.6,-1.3,M,-25.1,M,,0000*44
$GPGSA,A,3,04,17,12,02,10,09,,,,,,,2.9,1.6,2.4*33
$GPGSV,3,1,12,02,71,166,26,12,56,322,23,04,49,056,31,09,44,214,31*7F
$GPGSV,3,2,12,24,34,195,33,10,20,109,42,25,20,310,18,17,13,066,31*72
$GPGSV,3,3,12,29,08,261,14,05,05,159,,14,01,301,,48,44,197,34*76
$GPRMC,171640.000,A,3748.7906,N,12217.8445,W,1.70,115.20,051112,,,A*74
$GPVTG,115.20,T,,M,1.70,N,3.1,K,A*0E
$GPGGA,171641.000,3748.7898,N,12217.8433,W,1,06,1.6,-0.3,M,-25.1,M,,0000*43
$GPGSA,A,3,04,17,12,02,10,09,,,,,,,2.9,1.6,2.4*33
$GPRMC,171641.000,A,3748.7898,N,12217.8433,W,1.85,119.96,051112,,,A*79
$GPVTG,119.96,T,,M,1.85,N,3.4,K,A*00
$GPGGA,171642.000,3748.7889,N,12217.8421,W,1,06,1.6,0.8,M,-25.1,M,,0000*65
$GPGSA,A,3,04,17,12,02,10,09,,,,,,,2.9,1.6,2.4*33
$GPRMC,171642.000,A,3748.7889,N,12217.8421,W,1.70,125.01,051112,,,A*72
$GPVTG,125.01,T,,M,1.70,N,3.2,K,A*0D
$GPGGA,171643.000,3748.7879,N,12217.8410,W,1,06,1.6,1.7,M,-25.1,M,,0000*67
$GPGSA,A,3,04,17,12,02,10,09,,,,,,,2.9,1.6,2.4*33
$GPRMC,171643.000,A,3748.7879,N,12217.8410,W,2.02,125.80,051112,,,A*71
$GPVTG,125.80,T,,M,2.02,N,3.7,K,A*07
$GPGGA,171644.000,3748.7877,N,12217.8404,W,1,06,1.6,2.0,M,-25.1,M,,0000*6F
$GPGSA,A,3,04,17,12,02,10,09,,,,,,,2.9,1.6,2.4*33
$GPRMC,171644.000,A,3748.7877,N,12217.8404,W,1.59,112.89,051112,,,A*7D
$GPVTG,112.89,T,,M,1.59,N,3.0,K,A*00
$GPGGA,171645.000,3748.7875,N,12217.8398,W,1,06,1.6,2.2,M,-25.1,M,,0000*6C
$GPGSA,A,3,04,17,12,02,10,09,,,,,,,2.9,1.6,2.4*33
$GPGSV,3,1,12,02,71,166,34,12,56,322,23,04,49,056,32,09,44,214,38*76
$GPGSV,3,2,12,24,34,195,40,10,20,109,39,25,20,310,20,17,13,066,31*71
$GPGSV,3,3,12,29,08,261,,05,05,159,,14,01,301,,48,44,197,41*71
$GPVTG,112.64,T,,M,1.78,N,3.3,K,A*03
$GPGGA,171646.000,3748.7874,N,12217.8391,W,1,06,1.6,2.3,M,-25.1,M,,0000*66
$GPGSA,A,3,04,17,12,02,10,09,,,,,,,2.9,1.6,2.4*33
$GPRMC,171646.000,A,3748.7874,N,12217.8391,W,2.11,111.40,051112,,,A*7E
$GPVTG,111.40,T,,M,2.11,N,3.9,K,A*00
$GPGGA,171647.000,3748.7873,N,12217.8384,W,1,06,1.6,2.4,M,-25.1,M,,0000*63
$GPGSA,A,3,04,17,12,02,10,09,,,,,,,2.9,1.6,2.4*33
$GPRMC,171647.000,A,3748.7873,N,12217.8384,W,2.10,109.14,051112,,,A*75
$GPVTG,109.14,T,,M,2.10,N,3.9,K,A*09
$GPGGA,171648.000,3748.7874,N,12217.8380,W,1,06,1.6,2.5,M,-25.1,M,,0000*6E
$GPGSA,A,3,04,17,12,02,10,09,,,,,,,2.9,1.6,2.4*33
$GPRMC,171648.000,A,3748.7874,N,12217.8380,W,1.77,112.10,051112,,,A*75
$GPVTG,112.10,T,,M,1.77,N,3.3,K,A*0F
$GPGGA,171649.000,3748.7871,N,12217.8369,W,1,06,1.6,3.5,M,-25.1,M,,0000*6C
$GPGSA,A,3,04,17,12,02,10,09,,,,,,,2.9,1.6,2.4*33
$GPRMC,171649.000,A,3748.7871,N,12217.8369,W,1.94,111.08,051112,,,A*71
$GPVTG,111.08,T,,M,1.94,N,3.6,K,A*0D
$GPGGA,171650.000,3748.7870,N,12217.8364,W,1,06,1.6,3.3,M,-25.1,M,,0000*6E
$GPGSA,A,3,04,17,12,02,10,09,,,,,,,2.9,1.6,2.4*33
$GPGSV,3,1,12,02,71,165,34,12,57,322,23,04,48,056,28,09,44,213,37*76
$GPGSV,3,2,12,24,34,195,39,10,21,109,39,25,20,310,20,17,13,066,32*7D
$GPGSV,3,3,12,29,08,261,27,05,06,159,,14,01,300,,48,44,197,38*78
$GPRMC,171650.000,A,3748.7870,N,12217.8364,W,2.13,120.73,051112,,,A*77
$GPVTG,120.73,T,,M,2.13,N,4.0,K,A*0E
$GPGGA,171651.000,3748.7869,N,12217.8354,W,1,06,1.6,4.6,M,-25.1,M,,0000*66
$GPGSA,A,3,04,17,12,02,10,09,,,,,,,2.9,1.6,2.4*33
$GPRMC,171651.000,A,3748.7869,N,12217.8354,W,2.30,116.00,051112,,,A*7D
$GPVTG,116.00,T,,M,2.30,N,4.3,K,A*0D
$GPGGA,171652.000,3748.7860,N,12217.8343,W,1,06,1.6,5.4,M,-25.1,M,,0000*69
$GPGSA,A,3,04,17,12,02,10,09,,,,,,,2.9,1.6,2.4*33
$GPRMC,171652.000,A,3748.7860,N,12217.8343,W,2.45,125.17,051112,,,A*75
$GPVTG,125.17,T,,M,2.45,N,4.5,K,A*0F
$GPGGA,171653.000,3748.7854,N,12217.8334,W,1,06,1.6,6.8,M,-25.1,M,,0000*60
$GPGSA,A,3,04,17,12,02,10,09,,,,,,,2.9,1.6,2.4*33
$GPRMC,171653.000,A,3748.7854,N,12217.8334,W,2.07,116.62,051112,,,A*77
$GPVTG,116.62,T,,M,2.07,N,3.8,K,A*01
$GPGGA,171654.000,3748.7844,N,12217.8324,W,1,06,1.6,7.8,M,-25.1,M,,0000*66
$GPGSA,A,3,04,17,12,02,10,09,,,,,,,2.9,1.6,2.4*33
$GPRMC,171654.000,A,3748.7844,N,12217.8324,W,2.11,112.66,051112,,,A*77
$GPVTG,112.66,T,,M,2.11,N,3.9,K,A*07
$GPGGA,171655.000,3748.7835,N,12217.8311,W,1,06,1.6,9.4,M,-25.1,M,,0000*65
$GPGSA,A,3,04,17,12,02,10,09,,,,,,,2.9,1.6,2.4*33
$GPGSV,3,1,12,02,71,165,34,12,57,322,23,04,48,056,28,09,44,213,37*76
$GPGSV,3,2,12,24,34,195,39,10,21,109,38,25,20,310,20,17,13,066,25*7A
$GPGSV,3,3,12,29,08,261,29,05,06,159,,14,01,300,,48,44,197,39*77
$GPRMC,171655.000,A,3748.7835,N,12217.8311,W,2.13,106.35,051112,,,A*77
$GPVTG,106.35,T,,M,2.13,N,3.9,K,A*06
$GPGGA,171656.000,3748.7831,N,12217.8302,W,1,06,1.6,10.7,M,-25.1,M,,0000*5B
$GPGSA,A,3,04,17,12,02,10,09,,,,,,,2.9,1.6,2.4*33
$GPRMC,171656.000,A,3748.7831,N,12217.8302,W,2.20,109.83,051112,,,A*70
$GPVTG,109.83,T,,M,2.20,N,4.1,K,A*0B
$GPGGA,171657.000,3748.7829,N,12217.8295,W,1,06,1.6,10.5,M,-25.1,M,,0000*5E
$GPGSA,A,3,04,17,12,02,10,09,,,,,,,2.9,1.6,2.4*33
$GPRMC,171657.000,A,3748.7829,N,12217.8295,W,2.21,113.23,051112,,,A*77
$GPVTG,113.23,T,,M,2.21,N,4.1,K,A*0B
$GPGGA,171658.000,3748.7829,N,12217.8290,W,1,06,1.6,10.1,M,-25.1,M,,0000*50
$GPGSA,A,3,04,17,12,02,10,09,,,,,,,2.9,1.6,2.4*33
$GPRMC,171658.000,A,3748.7829,N,12217.8290,W,1.98,110.80,051112,,,A*76
$GPVTG,110.80,T,,M,1.98,N,3.7,K,A*01
$GPGGA,171659.000,3748.7830,N,12217.8284,W,1,06,1.6,9.7,M,-25.1,M,,0000*62
$GPGSA,A,3,04,17,12,02,10,09,,,,,,,2.9,1.6,2.4*33
$GPRMC,171659.000,A,3748.7830,N,12217.8284,W,2.42,108.23,051112,,,A*7E
$GPVTG,108.23,T,,M,2.42,N,4.5,K,A*00
$GPGGA,171700.000,3748.7828,N,12217.8276,W,1,06,1.6,9.3,M,-25.1,M,,0000*6F
$GPGSA,A,3,04,17,12,02,10,09,,,,,,,2.9,1.6,2.4*33
$GPGSV,3,1,12,02,71,165,33,12,57,322,24,04,48,056,34,09,44,213,33*7F
$GPGSV,3,2,12,24,34,195,35,10,21,109,38,25,20,310,20,17,13,066,23*70
$GPGSV,3,3,12,29,08,261,21,05,06,159,32,14,01,300,,48,44,197,34*73
$GPVTG,112.13,T,,M,2.15,N,4.0,K,A*0F
$GPGGA,171701.000,3748.7821,N,12217.8262,W,1,06,1.6,10.2,M,-25.1,M,,0000*5B
$GPGSA,A,3,04,17,12,02,10,09,,,,,,,2.9,1.6,2.4*33
$GPRMC,171701.000,A,3748.7821,N,12217.8262,W,2.27,130.71,051112,,,A*75
$GPVTG,130.71,T,,M,2.27,N,4.2,K,A*08
$GPGGA,171702.000,3748.7815,N,12217.8253,W,1,06,1.6,10.4,M,-25.1,M,,0000*5B
$GPGSA,A,3,04,17,12,02,10,09,,,,,,,2.9,1.6,2.4*33
$GPRMC,171702.000,A,3748.7815,N,12217.8253,W,2.14,124.24,051112,,,A*76
$GPVTG,124.24,T,,M,2.14,N,4.0,K,A*0F
$GPGGA,171703.000,3748.7810,N,12217.8242,W,1,06,1.6,10.9,M,-25.1,M,,0000*52
$GPGSA,A,3,04,17,12,02,10,09,,,,,,,2.9,1.6,2.4*33
$GPRMC,171703.000,A,3748.7810,N,12217.8242,W,2.25,116.76,051112,,,A*76
$GPVTG,116.76,T,,M,2.25,N,4.2,K,A*09
$GPGGA,171704.000,3748.7802,N,12217.8227,W,1,06,1.6,12.9,M,-25.1,M,,0000*57
$GPGSA,A,3,04,17,12,02,10,09,,,,,,,2.9,1.6,2.4*33
$GPRMC,171704.000,A,3748.7802,N,12217.8227,W,2.36,126.16,051112,,,A*76
$GPVTG,126.16,T,,M,2.36,N,4.4,K,A*08
$GPGGA,171705.000,3748.7798,N,12217.8219,W,1,06,1.6,13.2,M,-25.1,M,,0000*5D
$GPGSA,A,3,04,17,12,02,10,09,,,,,,,2.9,1.6,2.4*33
$GPGSV,3,1,12,02,71,165,31,12,57,322,24,04,48,056,34,09,44,213,30*7E
$GPGSV,3,2,12,24,34,195,37,10,21,109,39,25,20,310,23,17,13,066,23*70
$GPGSV,3,3,12,29,08,261,27,05,06,159,36,14,01,300,,48,44,197,37*72
$GPRMC,171705.000,A,3748.7798,N,12217.8219,W,2.38,123.60,051112,,,A*7C
$GPVTG,123.60,T,,M,2.38,N,4.4,K,A*02
$GPGGA,171706.000,3748.7799,N,12217.8218,W,1,06,1.6,12.3,M,-25.1,M,,0000*5E
$GPGSA,A,3,04,17,12,02,10,09,,,,,,,2.9,1.6,2.4*33
$GPRMC,171706.000,A,3748.7799,N,12217.8218,W,2.19,127.15,051112,,,A*7A
$GPVTG,127.15,T,,M,2.19,N,4.1,K,A*02
$GPGGA,171707.000,3748.7798,N,12217.8216,W,1,06,1.6,11.2,M,-25.1,M,,0000*52
$GPGSA,A,3,04,17,12,02,10,09,,,,,,,2.9,1.6,2.4*33
$GPRMC,171707.000,A,3748.7798,N,12217.8216,W,2.09,123.92,051112,,,A*7E
$GPVTG,123.92,T,,M,2.09,N,3.9,K,A*07
$GPGGA,171708.000,3748.7795,N,12217.8214,W,1,06,1.6,10.3,M,-25.1,M,,0000*52
$GPGSA,A,3,04,17,12,02,10,09,,,,,,,2.9,1.6,2.4*33
$GPRMC,171708.000,A,3748.7795,N,12217.8214,W,1.76,115.92,051112,,,A*70
$GPVTG,115.92,T,,M,1.76,N,3.3,K,A*03
$GPGGA,171709.000,3748.7796,N,12217.8214,W,1,06,1.6,8.9,M,-25.1,M,,0000*63
$GPGSA,A,3,04,17,12,02,10,09,,,,,,,2.9,1.6,2.4*33
$GPRMC,171709.000,A,3748.7796,N,12217.8214,W,1.84,122.63,051112,,,A*75
$GPVTG,122.63,T,,M,1.84,N,3.4,K,A*03
$GPGGA,171710.000,3748.7789,N,12217.8204,W,1,06,1.6,10.0,M,-25.1,M,,0000*54
$GPGSA,A,3,04,17,12,02,10,09,,,,,,,2.9,1.6,2.4*33
$GPGSV,3,1,12,02,71,165,33,12,57,322,24,04,48,056,30,09,44,213,37*7F
$GPGSV,3,2,12,24,34,195,37,10,21,109,33,25,20,310,20,17,13,066,24*7E
$GPGSV,3,3,12,29,08,261,28,05,06,159,37,14,01,300,,48,44,197,39*72
$GPRMC,171710.000,A,3748.7789,N,12217.8204,W,1.92,112.83,051112,,,A*78
$GPVTG,112.83,T,,M,1.92,N,3.6,K,A*0B
$GPGGA,171711.000,3748.7783,N,12217.8194,W,1,06,1.6,10.3,M,-25.1,M,,0000*56
$GPGSA,A,3,04,17,12,02,10,09,,,,,,,2.9,1.6,2.4*33
$GPRMC,171711.000,A,3748.7783,N,12217.8194,W,1.83,106.53,051112,,,A*71
$GPVTG,106.53,T,,M,1.83,N,3.4,K,A*01
$GPGGA,171712.000,3748.7776,N,12217.8183,W,1,06,1.6,10.2,M,-25.1,M,,0000*58
$GPGSA,A,3,04,17,12,02,10,09,,,,,,,2.9,1.6,2.4*33
$GPRMC,171712.000,A,3748.7776,N,12217.8183,W,1.88,120.55,051112,,,A*77
$GPVTG,120.55,T,,M,1.88,N,3.5,K,A*09
$GPGGA,171713.000,3748.7771,N,12217.8176,W,1,06,1.6,10.6,M,-25.1,M,,0000*50
$GPGSA,A,3,04,17,12,02,10,09,,,,,,,2.9,1.6,2.4*33
$GPRMC,171713.000,A,3748.7771,N,12217.8176,W,1.97,123.28,051112,,,A*7C
$GPVTG,123.28,T,,M,1.97,N,3.6,K,A*0D
$GPGGA,171714.000,3748.7759,N,12217.8162,W,1,06,1.6,12.2,M,-25.1,M,,0000*5E
$GPGSA,A,3,04,17,12,02,10,09,,,,,,,2.9,1.6,2.4*33
$GPRMC,171714.000,A,3748.7759,N,12217.8162,W,2.07,123.25,051112,,,A*73
$GPVTG,123.25,T,,M,2.07,N,3.8,K,A*04
$GPGGA,171715.000,3748.7750,N,12217.8150,W,1,06,1.6,13.4,M,-25.1,M,,0000*50
$GPGSA,A,3,04,17,12,02,10,09,,,,,,,2.9,1.6,2.4*33
$GPGSV,3,1,12,02,72,165,31,12,57,322,24,04,48,056,30,09,43,213,34*7A
$GPGSV,3,2,12,24,33,195,37,10,21,109,36,25,20,310,22,17,13,066,24*7E
$GPGSV,3,3,12,29,08,261,24,05,06,159,27,14,00,300,,48,44,197,36*71
$GPVTG,122.40,T,,M,2.19,N,4.1,K,A*07
$GPGGA,171716.000,3748.7746,N,12217.8145,W,1,06,1.6,14.3,M,-25.1,M,,0000*50
$GPGSA,A,3,04,17,12,02,10,09,,,,,,,2.9,1.6,2.4*33
$GPRMC,171716.000,A,3748.7746,N,12217.8145,W,1.99,124.21,051112,,,A*7D
$GPVTG,124.21,T,,M,1.99,N,3.7,K,A*0C
$GPGGA,171717.000,3748.7741,N,12217.8137,W,1,06,1.6,14.6,M,-25.1,M,,0000*56
$GPGSA,A,3,04,17,12,02,10,09,,,,,,,2.9,1.6,2.4*33
$GPRMC,171717.000,A,3748.7741,N,12217.8137,W,2.03,115.78,051112,,,A*70
$GPVTG,115.78,T,,M,2.03,N,3.8,K,A*0D
$GPGGA,171718.000,3748.7735,N,12217.8126,W,1,06,1.6,14.8,M,-25.1,M,,0000*54
$GPGSA,A,3,04,17,12,02,10,09,,,,,,,2.9,1.6,2.4*33
$GPRMC,171718.000,A,3748.7735,N,12217.8126,W,2.11,111.37,051112,,,A*70
$GPVTG,111.37,T,,M,2.11,N,3.9,K,A*00
$GPGGA,171719.000,3748.7725,N,12217.8112,W,1,06,1.6,15.9,M,-25.1,M,,0000*53
$GPGSA,A,3,04,17,12,02,10,09,,,,,,,2.9,1.6,2.4*33
$GPRMC,171719.000,A,3748.7725,N,12217.8112,W,2.26,114.53,051112,,,A*74
$GPVTG,114.53,T,,M,2.26,N,4.2,K,A*0F
$GPGGA,171720.000,3748.7720,N,12217.8103,W,1,06,1.6,15.8,M,-25.1,M,,0000*5D
$GPGSA,A,3,04,17,12,02,10,09,,,,,,,2.9,1.6,2.4*33
$GPGSV,3,1,12,02,72,165,33,12,57,322,24,04,48,056,31,09,43,213,36*7B
$GPGSV,3,2,12,24,33,195,38,10,21,109,37,25,20,310,22,17,13,066,24*70
$GPGSV,3,3,12,29,09,261,24,05,06,159,29,14,00,300,,48,44,197,38*70
$GPRMC,171720.000,A,3748.7720,N,12217.8103,W,2.28,115.01,051112,,,A*73
$GPVTG,115.01,T,,M,2.28,N,4.2,K,A*07
$GPGGA,171721.000,3748.7715,N,12217.8095,W,1,06,1.6,16.4,M,-25.1,M,,0000*5B
$GPGSA,A,3,04,17,12,02,10,09,,,,,,,2.9,1.6,2.4*33
$GPRMC,171721.000,A,3748.7715,N,12217.8095,W,2.18,115.13,051112,,,A*7A
$GPVTG,115.13,T,,M,2.18,N,4.0,K,A*05
$GPGGA,171722.000,3748.7714,N,12217.8089,W,1,06,1.6,15.8,M,-25.1,M,,0000*5B
$GPGSA,A,3,04,17,12,02,10,09,,,,,,,2.9,1.6,2.4*33
$GPRMC,171722.000,A,3748.7714,N,12217.8089,W,1.97,116.99,051112,,,A*70
$GPVTG,116.99,T,,M,1.97,N,3.6,K,A*01
$GPGGA,171723.000,3748.7712,N,12217.8084,W,1,06,1.6,15.0,M,-25.1,M,,0000*59
$GPGSA,A,3,04,17,12,02,10,09,,,,,,,2.9,1.6,2.4*33
$GPRMC,171723.000,A,3748.7712,N,12217.8084,W,2.07,113.86,051112,,,A*7B
$GPVTG,113.86,T,,M,2.07,N,3.8,K,A*0E
$GPGGA,171724.000,3748.7711,N,12217.8079,W,1,06,1.6,14.2,M,-25.1,M,,0000*5C
$GPGSA,A,3,04,17,12,02,10,09,,,,,,,2.9,1.6,2.4*33
$GPRMC,171724.000,A,3748.7711,N,12217.8079,W,1.96,115.61,051112,,,A*79
$GPVTG,115.61,T,,M,1.96,N,3.6,K,A*04
$GPGGA,171725.000,3748.7708,N,12217.8070,W,1,06,1.6,14.0,M,-25.1,M,,0000*5E
$GPGSA,A,3,04,17,12,02,10,09,,,,,,,2.9,1.6,2.4*33
$GPGSV,3,1,12,02,72,165,33,12,57,322,25,04,48,056,31,09,43,213,37*7B
$GPGSV,3,2,12,24,33,195,38,10,21,109,37,25,20,310,22,17,13,066,24*70
$GPGSV,3,3,12,29,09,261,24,05,06,159,26,14,00,300,,48,44,197,39*7E
$GPRMC,171725.000,A,3748.7708,N,12217.8070,W,2.00,109.23,051112,,,A*7E
$GPVTG,109.23,T,,M,2.00,N,3.7,K,A*02
$GPGGA,171726.000,3748.7703,N,12217.8059,W,1,06,1.6,14.7,M,-25.1,M,,0000*5A
$GPGSA,A,3,04,17,12,02,10,09,,,,,,,2.9,1.6,2.4*33
$GPRMC,171726.000,A,3748.7703,N,12217.8059,W,2.04,96.61,051112,,,A*48
$GPVTG,96.61,T,,M,2.04,N,3.8,K,A*38
$GPGGA,171727.000,3748.7700,N,12217.8051,W,1,06,1.6,15.0,M,-25.1,M,,0000*56
$GPGSA,A,3,04,17,12,02,10,09,,,,,,,2.9,1.6,2.4*33
$GPRMC,171727.000,A,3748.7700,N,12217.8051,W,1.79,108.29,051112,,,A*71
$GPVTG,108.29,T,,M,1.79,N,3.3,K,A*00
$GPGGA,171728.000,3748.7696,N,12217.8042,W,1,06,1.6,15.4,M,-25.1,M,,0000*51
$GPGSA,A,3,04,17,12,02,10,09,,,,,,,2.9,1.6,2.4*33
$GPRMC,171728.000,A,3748.7696,N,12217.8042,W,2.37,114.86,051112,,,A*73
$GPVTG,114.86,T,,M,2.37,N,4.4,K,A*01
$GPGGA,171729.000,3748.7692,N,12217.8034,W,1,06,1.6,14.9,M,-25.1,M,,0000*59
$GPGSA,A,3,04,17,12,02,10,09,,,,,,,2.9,1.6,2.4*33
$GPRMC,171729.000,A,3748.7692,N,12217.8034,W,2.41,118.49,051112,,,A*79
$GPVTG,118.49,T,,M,2.41,N,4.5,K,A*0E
$GPGGA,171730.000,3748.7688,N,12217.8025,W,1,06,1.6,14.7,M,-25.1,M,,0000*54
$GPGSA,A,3,04,17,12,02,10,09,,,,,,,2.9,1.6,2.4*33
$GPGSV,3,1,12,02,72,165,33,12,57,322,25,04,48,056,33,09,43,213,37*79
$GPGSV,3,2,12,24,33,195,38,10,21,109,37,25,20,310,22,17,13,066,22*76
$GPGSV,3,3,12,29,09,261,25,05,06,159,28,14,00,300,,48,44,197,38*70
$GPRMC,171730.000,A,3748.7688,N,12217.8025,W,2.42,121.00,051112,,,A*7E
$GPVTG,121.00,T,,M,2.42,N,4.5,K,A*0A
$GPGGA,171731.000,3748.7686,N,12217.8019,W,1,06,1.6,13.9,M,-25.1,M,,0000*5D
$GPGSA,A,3,04,17,12,02,10,09,,,,,,,2.9,1.6,2.4*33
$GPRMC,171731.000,A,3748.7686,N,12217.8019,W,2.16,116.17,051112,,,A*7D
$GPVTG,116.17,T,,M,2.16,N,4.0,K,A*0C
$GPGGA,171732.000,3748.7684,N,12217.8012,W,1,06,1.6,13.4,M,-25.1,M,,0000*5A
$GPGSA,A,3,04,17,12,02,10,09,,,,,,,2.9,1.6,2.4*33
$GPRMC,171732.000,A,3748.7684,N,12217.8012,W,2.07,110.69,051112,,,A*78
$GPVTG,110.69,T,,M,2.07,N,3.8,K,A*0C
$GPGGA,171733.000,3748.7684,N,12217.8007,W,1,06,1.6,12.4,M,-25.1,M,,0000*5E
$GPGSA,A,3,04,17,12,02,10,09,,,,,,,2.9,1.6,2.4*33
$GPRMC,171733.000,A,3748.7684,N,12217.8007,W,1.94,102.04,051112,,,A*7C
$GPVTG,102.04,T,,M,1.94,N,3.6,K,A*03
$GPGGA,171734.000,3748.7687,N,12217.8004,W,1,06,1.6,10.8,M,-25.1,M,,0000*57
$GPGSA,A,3,04,17,12,02,10,09,,,,,,,2.9,1.6,2.4*33
$GPRMC,171734.000,A,3748.7687,N,12217.8004,W,2.00,104.37,051112,,,A*73
$GPVTG,104.37,T,,M,2.00,N,3.7,K,A*0A
$GPGGA,171735.000,3748.7691,N,12217.8003,W,1,06,1.6,9.2,M,-25.1,M,,0000*64
$GPGSA,A,3,04,17,12,02,10,09,,,,,,,2.9,1.6,2.4*33
$GPGSV,3,1,12,02,72,165,33,12,57,322,25,04,48,056,33,09,43,213,37*79
$GPGSV,3,2,12,24,33,195,39,10,21,109,38,25,20,310,22,17,13,066,23*79
$GPGSV,3,3,12,29,09,261,25,05,06,159,32,14,00,300,,48,44,197,40*74
$GPRMC,171735.000,A,3748.7691,N,12217.8003,W,1.65,94.63,051112,,,A*4B
$GPGGA,171736.000,3748.7692,N,12217.7999,W,1,06,1.6,8.1,M,-25.1,M,,0000*63
$GPGSA,A,3,04,17,12,02,10,09,,,,,,,2.9,1.6,2.4*33
$GPRMC,171736.000,A,3748.7692,N,12217.7999,W,1.58,103.15,051112,,,A*7E
$GPVTG,103.15,T,,M,1.58,N,2.9,K,A*0C
$GPGGA,171737.000,3748.7686,N,12217.7989,W,1,06,1.6,8.2,M,-25.1,M,,0000*65
$GPGSA,A,3,04,17,12,02,10,09,,,,,,,2.9,1.6,2.4*33
$GPRMC,171737.000,A,3748.7686,N,12217.7989,W,1.89,120.76,051112,,,A*73
$GPVTG,120.76,T,,M,1.89,N,3.5,K,A*09
$GPGGA,171738.000,3748.7685,N,12217.7984,W,1,06,1.6,7.8,M,-25.1,M,,0000*61
$GPGSA,A,3,04,17,12,02,10,09,,,,,,,2.9,1.6,2.4*33
$GPRMC,171738.000,A,3748.7685,N,12217.7984,W,1.88,115.65,051112,,,A*77
$GPVTG,115.65,T,,M,1.88,N,3.5,K,A*0C
$GPGGA,171739.000,3748.7683,N,12217.7979,W,1,06,1.6,7.2,M,-25.1,M,,0000*6E
$GPGSA,A,3,04,17,12,02,10,09,,,,,,,2.9,1.6,2.4*33
$GPRMC,171739.000,A,3748.7683,N,12217.7979,W,2.17,123.33,051112,,,A*71
$GPVTG,123.33,T,,M,2.17,N,4.0,K,A*0D
$GPGGA,171740.000,3748.7679,N,12217.7972,W,1,06,1.6,6.8,M,-25.1,M,,0000*65
$GPGSA,A,3,04,17,12,02,10,09,,,,,,,2.9,1.6,2.4*33
$GPGSV,3,1,12,02,72,165,33,12,57,322,25,04,48,056,33,09,43,213,37*79
$GPGSV,3,2,12,24,33,195,39,10,21,109,38,25,20,310,21,17,13,066,31*79
$GPGSV,3,3,12,29,09,261,31,05,06,159,38,14,00,300,,48,44,197,38*74
$GPRMC,171740.000,A,3748.7679,N,12217.7972,W,2.00,119.87,051112,,,A*71
$GPVTG,119.87,T,,M,2.00,N,3.7,K,A*0D
$GPGGA,171741.000,3748.7677,N,12217.7967,W,1,06,1.6,6.1,M,-25.1,M,,0000*67
$GPGSA,A,3,04,17,12,02,10,09,,,,,,,2.9,1.6,2.4*33
$GPRMC,171741.000,A,3748.7677,N,12217.7967,W,2.32,124.21,051112,,,A*79
$GPVTG,124.21,T,,M,2.32,N,4.3,K,A*0D
$GPGGA,171742.000,3748.7674,N,12217.7961,W,1,06,1.6,5.7,M,-25.1,M,,0000*64
$GPGSA,A,3,04,17,12,02,10,09,,,,,,,2.9,1.6,2.4*33
$GPRMC,171742.000,A,3748.7674,N,12217.7961,W,2.25,123.28,051112,,,A*77
$GPVTG,123.28,T,,M,2.25,N,4.2,K,A*04
$GPGGA,171743.000,3748.7668,N,12217.7952,W,2,06,1.6,5.4,M,-25.1,M,1.8,0000*4F
$GPGSA,A,3,04,17,12,02,10,09,,,,,,,2.9,1.6,2.4*33
$GPRMC,171743.000,A,3748.7668,N,12217.7952,W,2.12,122.81,051112,,,D*78
$GPVTG,122.81,T,,M,2.12,N,3.9,K,D*0B
$GPGGA,171744.000,3748.7659,N,12217.7941,W,2,06,1.6,5.5,M,-25.1,M,1.8,0000*49
$GPGSA,A,3,04,17,12,02,10,09,,,,,,,2.9,1.6,2.4*33
$GPRMC,171744.000,A,3748.7659,N,12217.7941,W,2.12,127.23,051112,,,D*72
$GPVTG,127.23,T,,M,2.12,N,3.9,K,D*06
$GPGGA,171745.000,3748.7656,N,12217.7935,W,2,06,1.6,4.9,M,-25.1,M,1.8,0000*49
$GPGSA,A,3,04,17,12,02,10,09,,,,,,,2.9,1.6,2.4*33
$GPGSV,3,1,12,02,72,165,34,12,57,322,25,04,48,056,32,09,43,213,37*7F
$GPGSV,3,2,12,24,33,195,39,10,21,109,34,25,20,310,21,17,13,066,24*71
$GPGSV,3,3,12,29,09,261,31,05,06,159,34,14,00,300,,48,44,197,37*77
$GPRMC,171745.000,A,3748.7656,N,12217.7935,W,2.26,122.58,051112,,,D*71
$GPVTG,122.58,T,,M,2.26,N,4.2,K,D*04
$GPGGA,171746.000,3748.7652,N,12217.7928,W,2,06,1.6,4.6,M,-25.1,M,1.8,0000*4D
$GPGSA,A,3,04,17,12,02,10,09,,,,,,,2.9,1.6,2.4*33
$GPRMC,171746.000,A,3748.7652,N,12217.7928,W,1.98,115.89,051112,,,D*74
$GPVTG,115.89,T,,M,1.98,N,3.7,K,D*08
$GPGGA,171747.000,3748.7647,N,12217.7920,W,2,06,1.6,4.8,M,-25.1,M,1.8,0000*4E
$GPGSA,A,3,04,17,12,02,10,09,,,,,,,2.9,1.6,2.4*33
$GPRMC,171747.000,A,3748.7647,N,12217.7920,W,1.94,113.92,051112,,,D*79
$GPVTG,113.92,T,,M,1.94,N,3.6,K,D*09
$GPGGA,171748.000,3748.7641,N,12217.7910,W,2,06,1.6,5.0,M,-25.1,M,2.8,0000*4E
$GPGSA,A,3,04,17,12,02,10,09,,,,,,,2.9,1.6,2.4*33
$GPRMC,171748.000,A,3748.7641,N,12217.7910,W,2.12,114.56,051112,,,D*71
$GPVTG,114.56,T,,M,2.12,N,3.9,K,D*04
$GPGGA,171749.000,3748.7634,N,12217.7899,W,2,06,1.6,5.3,M,-25.1,M,1.8,0000*4D
$GPGSA,A,3,04,17,12,02,10,09,,,,,,,2.9,1.6,2.4*33
$GPRMC,171749.000,A,3748.7634,N,12217.7899,W,2.25,122.04,051112,,,D*74
$GPVTG,122.04,T,,M,2.25,N,4.2,K,D*0E
$GPGGA,171750.000,3748.7630,N,12217.7891,W,2,06,1.6,5.4,M,-25.1,M,1.8,0000*4E
$GPGSA,A,3,04,17,12,02,10,09,,,,,,,2.9,1.6,2.4*33
$GPGSV,3,1,12,02,72,164,34,12,57,322,24,04,48,055,32,09,43,213,37*7C
$GPGSV,3,2,12,24,33,195,38,10,21,108,37,25,21,310,21,17,13,067,32*75
$GPGSV,3,3,12,29,09,261,26,05,06,159,27,14,00,300,,48,44,197,38*7C
$GPVTG,127.92,T,,M,2.56,N,4.7,K,D*05
$GPGGA,171751.000,3748.7625,N,12217.7885,W,2,06,1.6,5.5,M,-25.1,M,1.8,0000*4F
$GPGSA,A,3,04,17,12,02,10,09,,,,,,,2.9,1.6,2.4*33
$GPRMC,171751.000,A,3748.7625,N,12217.7885,W,2.70,130.46,051112,,,D*75
$GPVTG,130.46,T,,M,2.70,N,5.0,K,D*08
$GPGGA,171752.000,3748.7620,N,12217.7877,W,2,06,1.6,5.6,M,-25.1,M,2.8,0000*44
$GPGSA,A,3,04,17,12,02,10,09,,,,,,,2.9,1.6,2.4*33
$GPRMC,171752.000,A,3748.7620,N,12217.7877,W,2.21,129.04,051112,,,D*74
$GPVTG,129.04,T,,M,2.21,N,4.1,K,D*02
$GPGGA,171753.000,3748.7612,N,12217.7867,W,2,06,1.6,6.2,M,-25.1,M,3.8,0000*43
$GPGSA,A,3,04,17,12,02,10,09,,,,,,,2.9,1.6,2.4*33
$GPRMC,171753.000,A,3748.7612,N,12217.7867,W,2.33,119.48,051112,,,D*7D
$GPVTG,119.48,T,,M,2.33,N,4.3,K,D*08
$GPGGA,171754.000,3748.7602,N,12217.7853,W,2,06,1.6,7.5,M,-25.1,M,4.8,0000*43
$GPGSA,A,3,04,17,12,02,10,09,,,,,,,2.9,1.6,2.4*33
$GPRMC,171754.000,A,3748.7602,N,12217.7853,W,2.56,119.36,051112,,,D*76
$GPVTG,119.36,T,,M,2.56,N,4.7,K,D*06
$GPGGA,171755.000,3748.7592,N,12217.7839,W,2,06,1.6,8.6,M,-25.1,M,1.8,0000*4D
$GPGSA,A,3,04,17,12,02,10,09,,,,,,,2.9,1.6,2.4*33
$GPGSV,3,1,12,02,72,164,34,12,57,322,24,04,48,055,32,09,43,213,37*7C
$GPGSV,3,2,12,24,33,195,38,10,21,108,36,25,21,310,21,17,13,067,26*71
$GPGSV,3,3,12,29,09,261,26,05,06,159,37,14,00,300,,48,44,197,37*72
$GPRMC,171755.000,A,3748.7592,N,12217.7839,W,2.63,123.15,051112,,,D*7F
$GPVTG,123.15,T,,M,2.63,N,4.9,K,D*06
$GPGGA,171756.000,3748.7584,N,12217.7829,W,2,06,1.6,9.0,M,-25.1,M,1.8,0000*4F
$GPGSA,A,3,04,17,12,02,10,09,,,,,,,2.9,1.6,2.4*33
$GPRMC,171756.000,A,3748.7584,N,12217.7829,W,2.65,122.88,051112,,,D*79
$GPVTG,122.88,T,,M,2.65,N,4.9,K,D*05
$GPGGA,171757.000,3748.7579,N,12217.7821,W,2,06,1.6,9.4,M,-25.1,M,1.8,0000*40
$GPGSA,A,3,04,17,12,02,10,09,,,,,,,2.9,1.6,2.4*33
$GPRMC,171757.000,A,3748.7579,N,12217.7821,W,2.28,106.79,051112,,,D*73
$GPVTG,106.79,T,,M,2.28,N,4.2,K,D*0F
$GPGGA,171758.000,3748.7575,N,12217.7816,W,2,06,1.6,10.4,M,-25.1,M,1.8,0000*7F
$GPGSA,A,3,04,17,12,02,10,09,,,,,,,2.9,1.6,2.4*33
$GPRMC,171758.000,A,3748.7575,N,12217.7816,W,2.11,109.59,051112,,,D*73
$GPVTG,109.59,T,,M,2.11,N,3.9,K,D*04
$GPGGA,171759.000,3748.7572,N,12217.7815,W,2,06,1.6,11.1,M,-25.1,M,2.8,0000*7D
$GPGSA,A,3,04,17,12,02,10,09,,,,,,,2.9,1.6,2.4*33
$GPRMC,171759.000,A,3748.7572,N,12217.7815,W,2.30,109.53,051112,,,D*7F
$GPVTG,109.53,T,,M,2.30,N,4.3,K,D*00
$GPGGA,171800.000,3748.7567,N,12217.7808,W,2,06,1.6,11.8,M,-25.1,M,3.8,0000*7E
$GPGSA,A,3,04,17,12,02,10,09,,,,,,,2.9,1.6,2.4*33
$GPGSV,3,1,12,02,72,164,34,12,57,322,24,04,48,055,28,09,43,213,37*77
$GPGSV,3,2,12,24,33,195,31,10,21,108,33,25,21,310,22,17,13,067,25*7D
$GPGSV,3,3,12,29,09,261,25,05,06,159,36,14,00,300,,48,44,197,35*72
$GPRMC,171800.000,A,3748.7567,N,12217.7808,W,1.99,104.40,051112,,,D*7B
$GPVTG,104.40,T,,M,1.99,N,3.7,K,D*0C
$GPGGA,171801.000,3748.7559,N,12217.7796,W,2,06,1.6,12.3,M,-25.1,M,4.8,0000*75
$GPGSA,A,3,04,17,12,02,10,09,,,,,,,2.9,1.6,2.4*33
$GPRMC,171801.000,A,3748.7559,N,12217.7796,W,2.13,101.85,051112,,,D*72
$GPVTG,101.85,T,,M,2.13,N,3.9,K,D*0F
$GPGGA,171802.000,3748.7550,N,12217.7784,W,2,06,1.6,12.9,M,-25.1,M,1.8,0000*73
$GPGSA,A,3,04,17,12,02,10,09,,,,,,,2.9,1.6,2.4*33
$GPRMC,171802.000,A,3748.7550,N,12217.7784,W,2.40,106.99,051112,,,D*77
$GPVTG,106.99,T,,M,2.40,N,4.4,K,D*09
$GPGGA,171803.000,3748.7535,N,12217.7770,W,2,06,1.6,14.2,M,-25.1,M,2.8,0000*74
$GPGSA,A,3,04,17,12,02,10,09,,,,,,,2.9,1.6,2.4*33
$GPRMC,171803.000,A,3748.7535,N,12217.7770,W,2.73,118.24,051112,,,D*77
$GPVTG,118.24,T,,M,2.73,N,5.1,K,D*04
$GPGGA,171804.000,3748.7525,N,12217.7759,W,2,06,1.6,14.6,M,-25.1,M,3.8,0000*7C
$GPGSA,A,3,04,17,12,02,10,09,,,,,,,2.9,1.6,2.4*33
$GPRMC,171804.000,A,3748.7525,N,12217.7759,W,2.83,123.76,051112,,,D*7A
$GPVTG,123.76,T,,M,2.83,N,5.2,K,D*07
$GPGGA,171805.000,3748.7523,N,12217.7755,W,2,06,1.6,14.9,M,-25.1,M,4.8,0000*7F
$GPGSA,A,3,04,17,12,02,10,09,,,,,,,2.9,1.6,2.4*33
$GPGSV,3,1,12,02,72,164,34,12,57,322,24,04,48,055,21,09,43,213,36*7F
$GPGSV,3,2,12,24,33,195,31,10,21,108,28,25,21,310,21,17,13,067,25*74
$GPRMC,171805.000,A,3748.7523,N,12217.7755,W,2.84,123.03,051112,,,D*74
$GPVTG,123.03,T,,M,2.84,N,5.3,K,D*03
$GPGGA,171806.000,3748.7519,N,12217.7750,W,2,06,1.6,15.3,M,-25.1,M,5.8,0000*7A
$GPGSA,A,3,04,17,12,02,10,09,,,,,,,2.9,1.6,2.4*33
$GPRMC,171806.000,A,3748.7519,N,12217.7750,W,2.39,120.88,051112,,,D*7D
$GPVTG,120.88,T,,M,2.39,N,4.4,K,D*03
$GPGGA,171807.000,3748.7515,N,12217.7747,W,2,06,1.6,16.6,M,-25.1,M,1.8,0000*73
$GPGSA,A,3,04,17,12,02,10,09,,,,,,,2.9,1.6,2.4*33
$GPRMC,171807.000,A,3748.7515,N,12217.7747,W,1.16,100.01,051112,,,D*7B
$GPVTG,100.01,T,,M,1.16,N,2.1,K,D*0D
$GPGGA,171808.000,3748.7517,N,12217.7746,W,2,06,1.6,16.5,M,-25.1,M,1.8,0000*7C
$GPGSA,A,3,04,17,12,02,10,09,,,,,,,2.9,1.6,2.4*33
$GPRMC,171808.000,A,3748.7517,N,12217.7746,W,1.47,101.82,051112,,,D*79
$GPVTG,101.82,T,,M,1.47,N,2.7,K,D*05
$GPGGA,171809.000,3748.7514,N,12217.7742,W,2,06,1.6,17.9,M,-25.1,M,1.8,0000*77
$GPGSA,A,3,04,17,12,02,10,09,,,,,,,2.9,1.6,2.4*33
$GPRMC,171809.000,A,3748.7514,N,12217.7742,W,1.97,105.59,051112,,,D*70
$GPVTG,105.59,T,,M,1.97,N,3.7,K,D*0B
$GPGGA,171810.000,3748.7510,N,12217.7736,W,2,06,1.6,18.4,M,-25.1,M,2.8,0000*79
$GPGSA,A,3,04,17,12,02,10,09,,,,,,,2.9,1.6,2.4*33
$GPGSV,3,1,12,02,72,164,34,12,57,322,24,04,48,055,22,09,43,213,37*7D
$GPGSV,3,2,12,24,33,195,37,10,21,108,27,25,21,310,20,17,13,067,25*7C
$GPGSV,3,3,12,29,09,261,32,05,06,159,32,14,00,300,,48,44,197,39*7C
$GPRMC,171810.000,A,3748.7510,N,12217.7736,W,1.84,111.97,051112,,,D*7A
$GPVTG,111.97,T,,M,1.84,N,3.4,K,D*0D
$GPGGA,171811.000,3748.7501,N,12217.7728,W,2,06,1.6,19.4,M,-25.1,M,1.8,0000*75
$GPGSA,A,3,04,17,12,02,10,09,,,,,,,2.9,1.6,2.4*33
$GPRMC,171811.000,A,3748.7501,N,12217.7728,W,2.60,125.31,051112,,,D*76
$GPVTG,125.31,T,,M,2.60,N,4.8,K,D*04
$GPGGA,171812.000,3748.7492,N,12217.7719,W,2,06,1.6,20.3,M,-25.1,M,2.8,0000*71
$GPGSA,A,3,04,17,12,02,10,09,,,,,,,2.9,1.6,2.4*33
$GPRMC,171812.000,A,3748.7492,N,12217.7719,W,2.49,124.85,051112,,,D*79
$GPVTG,124.85,T,,M,2.49,N,4.6,K,D*0F
$GPGGA,171813.000,3748.7484,N,12217.7711,W,2,06,1.6,21.0,M,-25.1,M,1.8,0000*7E
$GPGSA,A,3,04,17,12,02,10,09,,,,,,,2.9,1.6,2.4*33
$GPRMC,171813.000,A,3748.7484,N,12217.7711,W,2.92,124.30,051112,,,D*7F
$GPVTG,124.30,T,,M,2.92,N,5.4,K,D*04
$GPGGA,171814.000,3748.7481,N,12217.7705,W,2,06,1.6,21.5,M,-25.1,M,1.8,0000*7C
$GPGSA,A,3,04,17,12,02,10,09,,,,,,,2.9,1.6,2.4*33
$GPRMC,171814.000,A,3748.7481,N,12217.7705,W,2.99,116.67,051112,,,D*70
$GPVTG,116.67,T,,M,2.99,N,5.5,K,D*0D
$GPGGA,171815.000,3748.7474,N,12217.7695,W,2,06,1.6,21.8,M,-25.1,M,1.8,0000*72
$GPGSA,A,3,04,17,12,02,10,09,,,,,,,2.9,1.6,2.4*33
$GPGSV,3,1,12,02,72,164,34,12,57,322,23,04,48,055,22,09,43,213,37*7A
$GPGSV,3,2,12,24,33,195,39,10,21,108,30,25,21,310,20,17,13,067,24*75
$GPGSV,3,3,12,29,09,261,30,05,06,159,36,14,00,300,,48,44,197,37*74
$GPRMC,171815.000,A,3748.7474,N,12217.7695,W,3.03,112.78,051112,,,D*7B
$GPVTG,112.78,T,,M,3.03,N,5.6,K,D*06
$GPGGA,171816.000,3748.7473,N,12217.7690,W,2,06,1.6,22.3,M,-25.1,M,2.8,0000*78
$GPGSA,A,3,04,17,12,02,10,09,,,,,,,2.9,1.6,2.4*33
$GPRMC,171816.000,A,3748.7473,N,12217.7690,W,2.38,107.02,051112,,,D*7A
$GPVTG,107.02,T,,M,2.38,N,4.4,K,D*05
$GPGGA,171817.000,3748.7472,N,12217.7686,W,2,06,1.6,22.8,M,-25.1,M,1.8,0000*77
$GPGSA,A,3,04,17,12,02,10,09,,,,,,,2.9,1.6,2.4*33
$GPRMC,171817.000,A,3748.7472,N,12217.7686,W,2.04,103.58,051112,,,D*79
$GPVTG,103.58,T,,M,2.04,N,3.8,K,D*0A
$GPGGA,171818.000,3748.7468,N,12217.7679,W,2,06,1.6,23.5,M,-25.1,M,2.8,0000*7C
$GPGSA,A,3,04,17,12,02,10,09,,,,,,,2.9,1.6,2.4*33
$GPRMC,171818.000,A,3748.7468,N,12217.7679,W,2.49,114.36,051112,,,D*7A
$GPVTG,114.36,T,,M,2.49,N,4.6,K,D*04
$GPGGA,171819.000,3748.7458,N,12217.7670,W,2,06,1.6,24.3,M,-25.1,M,1.8,0000*75
$GPGSA,A,3,04,17,12,02,10,09,,,,,,,2.9,1.6,2.4*33
$GPRMC,171819.000,A,3748.7458,N,12217.7670,W,2.45,116.09,051112,,,D*73
$GPVTG,116.09,T,,M,2.45,N,4.5,K,D*05
$GPGGA,171820.000,3748.7451,N,12217.7662,W,2,06,1.6,25.1,M,-25.1,M,1.8,0000*76
$GPGSA,A,3,04,17,12,02,10,09,,,,,,,2.9,1.6,2.4*33
$GPGSV,3,1,12,02,72,164,33,12,57,322,24,04,48,055,21,09,43,213,37*79
$GPGSV,3,2,12,24,33,195,39,10,21,108,30,25,21,310,,17,13,067,28*7B
$GPGSV,3,3,12,29,09,261,28,05,06,159,43,14,00,300,,48,44,197,42*7D
$GPRMC,171820.000,A,3748.7451,N,12217.7662,W,2.79,118.05,051112,,,D*7E
$GPVTG,118.05,T,,M,2.79,N,5.2,K,D*0E
$GPGGA,171821.000,3748.7452,N,12217.7656,W,2,06,1.6,24.6,M,-25.1,M,1.8,0000*75
$GPGSA,A,3,04,17,12,02,10,09,,,,,,,2.9,1.6,2.4*33
$GPRMC,171821.000,A,3748.7452,N,12217.7656,W,2.67,113.04,051112,,,D*7E
$GPVTG,113.04,T,,M,2.67,N,4.9,K,D*01
$GPGGA,171822.000,3748.7448,N,12217.7648,W,2,06,1.6,24.1,M,-25.1,M,1.8,0000*75
$GPGSA,A,3,04,17,12,02,10,09,,,,,,,2.9,1.6,2.4*33
$GPRMC,171822.000,A,3748.7448,N,12217.7648,W,2.46,115.70,051112,,,D*7F
$GPVTG,115.70,T,,M,2.46,N,4.6,K,D*08
$GPGGA,171823.000,3748.7443,N,12217.7638,W,2,06,1.6,23.9,M,-25.1,M,2.8,0000*74
$GPGSA,A,3,04,17,12,02,10,09,,,,,,,2.9,1.6,2.4*33
$GPRMC,171823.000,A,3748.7443,N,12217.7638,W,2.44,113.61,051112,,,D*76
$GPVTG,113.61,T,,M,2.44,N,4.5,K,D*0F
$GPGGA,171824.000,3748.7435,N,12217.7627,W,2,06,1.6,23.6,M,-25.1,M,3.8,0000*72
$GPGSA,A,3,04,17,12,02,10,09,,,,,,,2.9,1.6,2.4*33
$GPRMC,171824.000,A,3748.7435,N,12217.7627,W,2.55,121.71,051112,,,D*7E
$GPVTG,121.71,T,,M,2.55,N,4.7,K,D*0D
$GPGGA,171825.000,3748.7435,N,12217.7621,W,2,06,1.6,23.1,M,-25.1,M,1.8,0000*70
$GPGSA,A,3,04,17,12,02,10,09,,,,,,,2.9,1.6,2.4*33
$GPGSV,3,1,12,02,72,164,33,12,57,322,24,04,48,055,21,09,43,213,37*79
$GPGSV,3,2,12,24,33,195,34,10,21,108,30,25,21,310,,17,13,067,23*7D
$GPGSV,3,3,12,29,09,261,27,05,06,159,36,14,00,300,,48,44,197,39*7C
$GPVTG,115.01,T,,M,2.30,N,4.3,K,D*0A
$GPGGA,171826.000,3748.7432,N,12217.7614,W,2,06,1.6,22.5,M,-25.1,M,1.8,0000*77
$GPGSA,A,3,04,17,12,02,10,09,,,,,,,2.9,1.6,2.4*33
$GPRMC,171826.000,A,3748.7432,N,12217.7614,W,2.25,113.97,051112,,,D*75
$GPVTG,113.97,T,,M,2.25,N,4.2,K,D*06
$GPGGA,171827.000,3748.7425,N,12217.7604,W,2,06,1.6,21.9,M,-25.1,M,1.8,0000*7E
$GPGSA,A,3,04,17,12,02,10,09,,,,,,,2.9,1.6,2.4*33
$GPRMC,171827.000,A,3748.7425,N,12217.7604,W,2.89,124.35,051112,,,D*79
$GPVTG,124.35,T,,M,2.89,N,5.3,K,D*0C
$GPGGA,171828.000,3748.7416,N,12217.7593,W,2,06,1.6,21.5,M,-25.1,M,1.8,0000*70
$GPGSA,A,3,04,17,12,02,10,09,,,,,,,2.9,1.6,2.4*33
$GPRMC,171828.000,A,3748.7416,N,12217.7593,W,2.56,116.24,051112,,,D*78
$GPVTG,116.24,T,,M,2.56,N,4.7,K,D*0A
$GPGGA,171829.000,3748.7409,N,12217.7582,W,2,06,1.6,21.3,M,-25.1,M,2.8,0000*7A
$GPGSA,A,3,04,17,12,02,10,09,,,,,,,2.9,1.6,2.4*33
$GPRMC,171829.000,A,3748.7409,N,12217.7582,W,2.46,120.72,051112,,,D*70
$GPVTG,120.72,T,,M,2.46,N,4.6,K,D*0C
$GPGGA,171830.000,3748.7406,N,12217.7576,W,2,06,1.6,20.6,M,-25.1,M,3.8,0000*73
$GPGSA,A,3,04,17,12,02,10,09,,,,,,,2.9,1.6,2.4*33
$GPGSV,3,1,12,02,72,164,33,12,57,322,24,04,48,055,22,09,43,213,38*75
$GPGSV,3,2,12,24,33,195,39,10,21,108,38,25,21,310,,17,13,067,22*79
$GPGSV,3,3,12,29,09,261,31,05,06,159,31,14,00,300,,48,44,197,40*72
$GPRMC,171830.000,A,3748.7406,N,12217.7576,W,2.66,122.33,051112,,,D*79
$GPVTG,122.33,T,,M,2.66,N,4.9,K,D*06
$GPGGA,171831.000,3748.7403,N,12217.7569,W,2,06,1.6,19.8,M,-25.1,M,1.8,0000*7F
$GPGSA,A,3,04,17,12,02,10,09,,,,,,,2.9,1.6,2.4*33
$GPRMC,171831.000,A,3748.7403,N,12217.7569,W,2.38,116.54,051112,,,D*7E
$GPVTG,116.54,T,,M,2.38,N,4.4,K,D*06
$GPGGA,171832.000,3748.7401,N,12217.7561,W,2,06,1.6,19.3,M,-25.1,M,1.8,0000*7D
$GPGSA,A,3,04,17,12,02,10,09,,,,,,,2.9,1.6,2.4*33
$GPRMC,171832.000,A,3748.7401,N,12217.7561,W,2.24,113.04,051112,,,D*7A
$GPVTG,113.04,T,,M,2.24,N,4.2,K,D*0D
$GPGGA,171833.000,3748.7399,N,12217.7554,W,2,06,1.6,18.8,M,-25.1,M,1.8,0000*76
$GPGSA,A,3,04,17,12,02,10,09,,,,,,,2.9,1.6,2.4*33
$GPRMC,171833.000,A,3748.7399,N,12217.7554,W,2.34,114.87,051112,,,D*76
$GPVTG,114.87,T,,M,2.34,N,4.3,K,D*01
$GPGGA,171834.000,3748.7398,N,12217.7545,W,2,07,1.5,18.6,M,-25.1,M,1.8,0000*7C
$GPGSA,A,3,04,17,12,02,10,09,05,,,,,,2.5,1.5,2.0*3D
$GPRMC,171834.000,A,3748.7398,N,12217.7545,W,2.42,113.21,051112,,,D*7A
$GPVTG,113.21,T,,M,2.42,N,4.5,K,D*0D
$GPGGA,171835.000,3748.7401,N,12217.7537,W,2,07,1.5,17.5,M,-25.1,M,1.8,0000*73
$GPGSA,A,3,04,17,12,02,10,09,05,,,,,,2.5,1.5,2.0*3D
$GPGSV,3,1,12,02,72,164,33,12,58,322,24,04,48,055,30,09,43,213,37*76
$GPGSV,3,2,12,24,33,195,38,10,21,108,38,25,21,310,19,17,13,067,31*72
$GPGSV,3,3,12,29,09,261,30,05,06,159,27,14,00,300,,48,44,197,39*7A
$GPRMC,171835.000,A,3748.7401,N,12217.7537,W,2.18,121.31,051112,,,D*76
$GPVTG,121.31,T,,M,2.18,N,4.0,K,D*07
$GPGGA,171836.000,3748.7404,N,12217.7529,W,2,07,1.5,16.6,M,-25.1,M,2.8,0000*7B
$GPGSA,A,3,04,17,12,02,10,09,05,,,,,,2.5,1.5,2.0*3D
$GPRMC,171836.000,A,3748.7404,N,12217.7529,W,1.98,110.67,051112,,,D*75
$GPVTG,110.67,T,,M,1.98,N,3.7,K,D*0D
$GPGGA,171837.000,3748.7406,N,12217.7522,W,2,07,1.5,15.8,M,-25.1,M,0.8,0000*7C
$GPGSA,A,3,04,17,12,02,10,09,05,,,,,,2.5,1.5,2.0*3D
$GPRMC,171837.000,A,3748.7406,N,12217.7522,W,2.05,117.80,051112,,,D*74
$GPVTG,117.80,T,,M,2.05,N,3.8,K,D*0B
$GPGGA,171838.000,3748.7407,N,12217.7516,W,2,07,1.5,14.9,M,-25.1,M,1.8,0000*74
$GPGSA,A,3,04,17,12,02,10,09,05,,,,,,2.5,1.5,2.0*3D
$GPRMC,171838.000,A,3748.7407,N,12217.7516,W,1.93,112.69,051112,,,D*73
$GPVTG,112.69,T,,M,1.93,N,3.6,K,D*0B
$GPGGA,171839.000,3748.7408,N,12217.7510,W,2,07,1.5,14.0,M,-25.1,M,1.8,0000*75
$GPGSA,A,3,04,17,12,02,10,09,05,,,,,,2.5,1.5,2.0*3D
$GPRMC,171839.000,A,3748.7408,N,12217.7510,W,1.83,108.72,051112,,,D*7B
$GPVTG,108.72,T,,M,1.83,N,3.4,K,D*09
$GPGGA,171840.000,3748.7410,N,12217.7505,W,2,07,1.5,13.0,M,-25.1,M,2.8,0000*72
$GPGSA,A,3,04,17,12,02,10,09,05,,,,,,2.5,1.5,2.0*3D
$GPGSV,3,1,12,02,72,164,30,12,58,322,24,04,48,055,31,09,43,213,38*7B
$GPGSV,3,2,12,24,33,195,38,10,21,108,37,25,21,310,19,17,13,067,26*7B
$GPGSV,3,3,12,29,09,261,30,05,06,159,25,14,00,300,,48,44,197,39*78
$GPRMC,171840.000,A,3748.7410,N,12217.7505,W,1.72,98.84,051112,,,D*47
$GPVTG,98.84,T,,M,1.72,N,3.2,K,D*30
$GPGGA,171841.000,3748.7408,N,12217.7497,W,2,07,1.5,13.7,M,-25.1,M,3.8,0000*76
$GPGSA,A,3,04,17,12,02,10,09,05,,,,,,2.5,1.5,2.0*3D
$GPRMC,171841.000,A,3748.7408,N,12217.7497,W,2.31,118.89,051112,,,D*75
$GPVTG,118.89,T,,M,2.31,N,4.3,K,D*06
$GPGGA,171842.000,3748.7406,N,12217.7490,W,2,07,1.5,13.9,M,-25.1,M,4.8,0000*75
$GPGSA,A,3,04,17,12,02,10,09,05,,,,,,2.5,1.5,2.0*3D
$GPRMC,171842.000,A,3748.7406,N,12217.7490,W,1.93,115.45,051112,,,D*79
$GPVTG,115.45,T,,M,1.93,N,3.6,K,D*02
$GPGGA,171843.000,3748.7405,N,12217.7484,W,2,07,1.5,13.6,M,-25.1,M,5.8,0000*7C
$GPGSA,A,3,04,17,12,02,10,09,05,,,,,,2.5,1.5,2.0*3D
$GPRMC,171843.000,A,3748.7405,N,12217.7484,W,1.94,109.07,051112,,,D*72
$GPVTG,109.07,T,,M,1.94,N,3.6,K,D*0E
$GPGGA,171844.000,3748.7404,N,12217.7478,W,2,07,1.5,13.2,M,-25.1,M,1.8,0000*79
$GPGSA,A,3,04,17,12,02,10,09,05,,,,,,2.5,1.5,2.0*3D
$GPRMC,171844.000,A,3748.7404,N,12217.7478,W,1.73,109.00,051112,,,D*79
$GPVTG,109.00,T,,M,1.73,N,3.2,K,D*04
$GPGGA,171845.000,3748.7403,N,12217.7471,W,2,07,1.5,13.6,M,-25.1,M,1.8,0000*72
$GPGSA,A,3,04,17,12,02,10,09,05,,,,,,2.5,1.5,2.0*3D
$GPGSV,3,1,12,02,72,164,32,12,58,322,24,04,48,055,30,09,43,213,37*77
$GPGSV,3,2,12,24,33,195,37,10,21,108,37,25,21,310,20,17,13,067,24*7C
$GPGSV,3,3,12,29,09,261,29,05,06,159,25,14,00,300,,48,44,197,34*7D
$GPRMC,171845.000,A,3748.7403,N,12217.7471,W,1.75,105.34,051112,,,D*7B
$GPGGA,171846.000,3748.7402,N,12217.7465,W,2,07,1.5,13.6,M,-25.1,M,2.8,0000*76
$GPGSA,A,3,04,17,12,02,10,09,05,,,,,,2.5,1.5,2.0*3D
$GPRMC,171846.000,A,3748.7402,N,12217.7465,W,1.76,113.09,051112,,,D*76
$GPVTG,113.09,T,,M,1.76,N,3.3,K,D*02
$GPGGA,171847.000,3748.7400,N,12217.7459,W,2,07,1.5,13.3,M,-25.1,M,3.8,0000*7E
$GPGSA,A,3,04,17,12,02,10,09,05,,,,,,2.5,1.5,2.0*3D
$GPRMC,171847.000,A,3748.7400,N,12217.7459,W,2.10,111.25,051112,,,D*75
$GPVTG,111.25,T,,M,2.10,N,3.9,K,D*07
$GPGGA,171848.000,3748.7396,N,12217.7451,W,2,07,1.5,13.1,M,-25.1,M,4.8,0000*74
$GPGSA,A,3,04,17,12,02,10,09,05,,,,,,2.5,1.5,2.0*3D
$GPRMC,171848.000,A,3748.7396,N,12217.7451,W,1.88,102.20,051112,,,D*7F
$GPVTG,102.20,T,,M,1.88,N,3.5,K,D*0E
$GPGGA,171849.000,3748.7387,N,12217.7440,W,2,07,1.5,13.6,M,-25.1,M,1.8,0000*77
$GPGSA,A,3,04,17,12,02,10,09,05,,,,,,2.5,1.5,2.0*3D
$GPRMC,171849.000,A,3748.7387,N,12217.7440,W,1.51,103.93,051112,,,D*73
$GPVTG,103.93,T,,M,1.51,N,2.8,K,D*0F
$GPGGA,171850.000,3748.7383,N,12217.7431,W,2,07,1.5,12.4,M,-25.1,M,1.8,0000*7E
$GPGSA,A,3,04,17,12,02,10,09,05,,,,,,2.5,1.5,2.0*3D
$GPGSV,3,1,12,02,72,164,29,12,58,322,25,04,48,055,31,09,43,213,32*78
$GPGSV,3,2,12,24,33,195,32,10,21,108,28,25,21,310,20,17,13,067,24*77
$GPGSV,3,3,12,29,09,261,26,05,06,159,23,14,00,300,,48,44,197,31*71
$GPRMC,171850.000,A,3748.7383,N,12217.7431,W,1.73,100.67,051112,,,D*71
$GPVTG,100.67,T,,M,1.73,N,3.2,K,D*0C
$GPGGA,171851.000,3748.7380,N,12217.7419,W,2,07,1.5,11.7,M,-25.1,M,2.8,0000*75
$GPGSA,A,3,04,17,12,02,10,09,05,,,,,,2.5,1.5,2.0*3D
$GPRMC,171851.000,A,3748.7380,N,12217.7419,W,2.18,124.47,051112,,,D*73
$GPVTG,124.47,T,,M,2.18,N,4.0,K,D*03
$GPGGA,171852.000,3748.7376,N,12217.7410,W,2,07,1.5,11.2,M,-25.1,M,3.8,0000*72
$GPGSA,A,3,04,17,12,02,10,09,05,,,,,,2.5,1.5,2.0*3D
$GPRMC,171852.000,A,3748.7376,N,12217.7410,W,2.06,114.77,051112,,,D*7F
$GPVTG,114.77,T,,M,2.06,N,3.8,K,D*03
$GPGGA,171853.000,3748.7371,N,12217.7399,W,2,07,1.5,10.8,M,-25.1,M,4.8,0000*7E
$GPGSA,A,3,04,17,12,02,10,09,05,,,,,,2.5,1.5,2.0*3D
$GPRMC,171853.000,A,3748.7371,N,12217.7399,W,2.22,116.47,051112,,,D*78
$GPVTG,116.47,T,,M,2.22,N,4.1,K,D*0A
$GPGGA,171854.000,3748.7363,N,12217.7386,W,2,07,1.5,10.9,M,-25.1,M,5.8,0000*74
$GPGSA,A,3,04,17,12,02,10,09,05,,,,,,2.5,1.5,2.0*3D
$GPRMC,171854.000,A,3748.7363,N,12217.7386,W,2.13,113.44,051112,,,D*76
$GPVTG,113.44,T,,M,2.13,N,3.9,K,D*01
$GPGGA,171855.000,3748.7357,N,12217.7374,W,2,07,1.5,10.9,M,-25.1,M,1.8,0000*7B
$GPGSA,A,3,04,17,12,02,10,09,05,,,,,,2.5,1.5,2.0*3D
$GPGSV,3,1,12,02,72,164,31,12,58,322,25,04,48,055,31,09,43,213,37*74
$GPGSV,3,2,12,24,33,195,36,10,21,108,36,25,21,310,21,17,13,067,24*7D
$GPGSV,3,3,12,29,09,261,28,05,06,159,27,14,00,300,,48,44,197,39*73
$GPRMC,171855.000,A,3748.7357,N,12217.7374,W,2.25,120.86,051112,,,D*76
$GPVTG,120.86,T,,M,2.25,N,4.2,K,D*06
$GPGGA,171856.000,3748.7353,N,12217.7367,W,2,07,1.5,11.4,M,-25.1,M,1.8,0000*72
$GPGSA,A,3,04,17,12,02,10,09,05,,,,,,2.5,1.5,2.0*3D
$GPRMC,171856.000,A,3748.7353,N,12217.7367,W,2.20,117.85,051112,,,D*71
$GPVTG,117.85,T,,M,2.20,N,4.1,K,D*07
$GPGGA,171857.000,3748.7346,N,12217.7353,W,2,07,1.5,12.2,M,-25.1,M,1.8,0000*75
$GPGSA,A,3,04,17,12,02,10,09,05,,,,,,2.5,1.5,2.0*3D
$GPRMC,171857.000,A,3748.7346,N,12217.7353,W,2.46,117.95,051112,,,D*72
$GPVTG,117.95,T,,M,2.46,N,4.6,K,D*01
$GPGGA,171858.000,3748.7341,N,12217.7343,W,2,07,1.5,12.2,M,-25.1,M,2.8,0000*7F
$GPGSA,A,3,04,17,12,02,10,09,05,,,,,,2.5,1.5,2.0*3D
$GPRMC,171858.000,A,3748.7341,N,12217.7343,W,2.17,112.50,051112,,,D*73
$GPVTG,112.50,T,,M,2.17,N,4.0,K,D*0F
$GPGGA,171859.000,3748.7338,N,12217.7338,W,2,07,1.5,11.2,M,-25.1,M,3.8,0000*7E
$GPGSA,A,3,04,17,12,02,10,09,05,,,,,,2.5,1.5,2.0*3D
$GPRMC,171859.000,A,3748.7338,N,12217.7338,W,2.05,128.00,051112,,,D*7F
$GPVTG,128.00,T,,M,2.05,N,3.8,K,D*0F
$GPGGA,171900.000,3748.7333,N,12217.7332,W,2,07,1.5,11.1,M,-25.1,M,4.8,0000*76
$GPGSA,A,3,04,17,12,02,10,09,05,,,,,,2.5,1.5,2.0*3D
$GPGSV,3,1,12,02,72,164,26,12,58,322,24,04,48,055,29,09,43,213,30*7D
$GPGSV,3,2,12,24,33,195,33,10,21,108,39,25,21,310,21,17,13,067,21*72
$GPGSV,3,3,12,29,09,261,29,05,06,159,21,14,00,300,,48,44,197,29*75
$GPRMC,171900.000,A,3748.7333,N,12217.7332,W,2.50,139.01,051112,,,D*72
$GPVTG,139.01,T,,M,2.50,N,4.6,K,D*07
$GPGGA,171901.000,3748.7328,N,12217.7324,W,2,07,1.5,10.9,M,-25.1,M,5.8,0000*72
$GPGSA,A,3,04,17,12,02,10,09,05,,,,,,2.5,1.5,2.0*3D
$GPRMC,171901.000,A,3748.7328,N,12217.7324,W,2.43,131.61,051112,,,D*72
$GPVTG,131.61,T,,M,2.43,N,4.5,K,D*08
$GPGGA,171902.000,3748.7322,N,12217.7315,W,2,07,1.5,11.0,M,-25.1,M,6.8,0000*72
$GPGSA,A,3,04,17,12,02,10,09,05,,,,,,2.5,1.5,2.0*3D
$GPRMC,171902.000,A,3748.7322,N,12217.7315,W,2.57,125.99,051112,,,D*7E
$GPVTG,125.99,T,,M,2.57,N,4.8,K,D*02
$GPGGA,171903.000,3748.7316,N,12217.7304,W,2,07,1.5,11.2,M,-25.1,M,1.8,0000*71
