$ADVER,3080,2.3
$GPRMC,214034.501,A,3748.8074,N,12217.8521,W,0.12,20.17,101212,,,A*44
$GPRMC,214035.501,A,3748.8066,N,12217.8523,W,0.10,38.42,101212,,,A*4F
$GPRMC,214036.501,A,3748.8060,N,12217.8525,W,0.17,16.38,101212,,,A*4A
$GPRMC,214037.501,A,3748.8053,N,12217.8526,W,0.15,28.69,101212,,,A*43
$GPRMC,214038.501,A,3748.8050,N,12217.8527,W,0.06,25.94,101212,,,A*43
$GPRMC,214039.501,A,3748.8047,N,12217.8526,W,0.11,88.75,101212,,,A*4B
$GPRMC,214040.501,A,3748.8043,N,12217.8526,W,0.25,6.60,101212,,,A*74
$GPRMC,214041.501,A,3748.8040,N,12217.8528,W,0.17,21.60,101212,,,A*4C
$GPRMC,214042.501,A,3748.8038,N,12217.8530,W,0.17,37.10,101212,,,A*49
$GPRMC,214043.501,A,3748.8034,N,12217.8531,W,0.08,64.24,101212,,,A*4A
$GPRMC,214044.501,A,3748.8032,N,12217.8533,W,0.16,356.32,101212,,,A*73
$GPRMC,214045.501,A,3748.8030,N,12217.8533,W,0.11,61.85,101212,,,A*4C
$GPRMC,214046.501,A,3748.8028,N,12217.8534,W,0.09,60.70,101212,,,A*43
$GPRMC,214047.501,A,3748.8026,N,12217.8532,W,0.13,24.91,101212,,,A*4E
$GPRMC,214048.501,A,3748.8024,N,12217.8532,W,0.16,30.52,101212,,,A*4C
$GPRMC,214049.501,A,3748.8022,N,12217.8533,W,0.08,147.50,101212,,,A*76
$GPRMC,214050.501,A,3748.8020,N,12217.8532,W,0.21,7.72,101212,,,A*73
$GPRMC,214051.501,A,3748.8019,N,12217.8533,W,0.08,101.72,101212,,,A*75
$GPRMC,214052.501,A,3748.8018,N,12217.8533,W,0.18,10.14,101212,,,A*47
$GPRMC,214053.501,A,3748.8016,N,12217.8534,W,0.15,15.18,101212,,,A*4B
$GPRMC,214054.501,A,3748.8020,N,12217.8530,W,0.72,203.30,101212,,,A*73
$GPRMC,214055.501,A,3748.8065,N,12217.8499,W,1.08,208.76,101212,,,A*74
$GPRMC,214057.501,A,3748.8064,N,12217.8498,W,2.72,206.61,101212,,,A*70
$GPRMC,214058.501,A,3748.8109,N,12217.8468,W,2.17,209.26,101212,,,A*75
$GPRMC,214059.501,A,3748.8042,N,12217.8512,W,0.42,30.59,101212,,,A*44
$GPRMC,214100.501,A,3748.8008,N,12217.8534,W,4.38,28.83,101212,,,A*44
$GPRMC,214101.501,A,3748.7968,N,12217.8561,W,2.82,28.44,101212,,,A*49
$GPRMC,214102.501,A,3748.8000,N,12217.8538,W,0.22,47.65,101212,,,A*4C
$GPRMC,214103.501,A,3748.7933,N,12217.8583,W,3.10,207.77,101212,,,A*7C
$GPRMC,214104.501,A,3748.7942,N,12217.8670,W,0.77,229.08,101212,,,A*74
$GPRMC,214105.501,A,3748.7989,N,12217.8611,W,0.43,235.20,101212,,,A*75
$GPRMC,214106.000,A,3748.7989,N,12217.8611,W,0.13,230.58,101212,,,A*7D
$GPRMC,214107.000,A,3748.7990,N,12217.8610,W,0.07,356.27,101212,,,A*79
$GPRMC,214108.000,A,3748.7990,N,12217.8609,W,0.17,19.86,101212,,,A*4C
$GPRMC,214109.000,A,3748.7990,N,12217.8610,W,0.13,244.39,101212,,,A*7F
$GPRMC,214110.000,A,3748.7990,N,12217.8610,W,0.15,247.66,101212,,,A*78
$GPRMC,214111.000,A,3748.7990,N,12217.8610,W,0.18,241.87,101212,,,A*7D
$GPRMC,214112.000,A,3748.7989,N,12217.8611,W,0.25,237.37,101212,,,A*73
$GPRMC,214113.000,A,3748.7989,N,12217.8611,W,0.27,234.63,101212,,,A*72
$GPRMC,214114.000,A,3748.7989,N,12217.8611,W,0.30,232.57,101212,,,A*72
$GPRMC,214115.000,A,3748.7989,N,12217.8611,W,0.09,272.77,101212,,,A*7F
$GPRMC,214116.000,A,3748.7989,N,12217.8611,W,0.13,247.67,101212,,,A*70
$GPRMC,214117.000,A,3748.7989,N,12217.8611,W,0.14,245.74,101212,,,A*76
$GPRMC,214118.000,A,3748.7989,N,12217.8611,W,0.18,241.15,101212,,,A*76
$GPRMC,214119.000,A,3748.7988,N,12217.8612,W,0.30,234.39,101212,,,A*73
$GPRMC,214120.000,A,3748.7988,N,12217.8612,W,0.17,238.12,101212,,,A*79
$GPRMC,214121.000,A,3748.7987,N,12217.8613,W,0.28,235.44,101212,,,A*74
$GPRMC,214122.000,A,3748.7987,N,12217.8613,W,0.34,233.27,101212,,,A*79
$GPRMC,214123.000,A,3748.7987,N,12217.8614,W,0.12,242.88,101212,,,A*78
$GPRMC,214124.000,A,3748.7986,N,12217.8614,W,0.12,329.75,101212,,,A*70
$GPRMC,214125.000,A,3748.7988,N,12217.8614,W,0.22,263.95,101212,,,A*7D
$GPRMC,214126.000,A,3748.7989,N,12217.8615,W,0.71,225.16,101212,,,A*71
$GPRMC,214127.000,A,3748.7986,N,12217.8616,W,1.62,186.34,101212,,,A*75
$GPRMC,214128.000,A,3748.7987,N,12217.8613,W,1.03,193.70,101212,,,A*7D
$GPRMC,214129.000,A,3748.7991,N,12217.8607,W,0.08,275.40,101212,,,A*7C
$GPRMC,214130.000,A,3748.7990,N,12217.8608,W,0.26,31.66,101212,,,A*40
$GPRMC,214131.000,A,3748.7991,N,12217.8605,W,0.53,42.96,101212,,,A*44
$GPRMC,214132.000,A,3748.7993,N,12217.8604,W,0.35,64.39,101212,,,A*45
$GPRMC,214133.000,A,3748.7999,N,12217.8604,W,0.68,351.86,101212,,,A*77
$GPRMC,214134.000,A,3748.7996,N,12217.8609,W,0.39,86.29,101212,,,A*4A
$GPRMC,214135.000,A,3748.7994,N,12217.8609,W,0.03,255.84,101212,,,A*7B
$GPRMC,214136.000,A,3748.7993,N,12217.8610,W,0.03,356.66,101212,,,A*79
$GPRMC,214137.000,A,3748.7991,N,12217.8610,W,0.11,18.57,101212,,,A*42
$GPRMC,214138.000,A,3748.7990,N,12217.8610,W,0.06,9.00,101212,,,A*78
$GPRMC,214139.000,A,3748.7989,N,12217.8610,W,0.03,259.28,101212,,,A*79
$GPRMC,214140.000,A,3748.7989,N,12217.8610,W,0.15,31.71,101212,,,A*40
$GPRMC,214141.000,A,3748.7988,N,12217.8610,W,0.05,346.99,101212,,,A*74
$GPRMC,214142.000,A,3748.7988,N,12217.8611,W,0.03,288.29,101212,,,A*78
$GPRMC,214143.000,A,3748.7987,N,12217.8611,W,0.28,299.05,101212,,,A*71
$GPRMC,214144.000,A,3748.7988,N,12217.8611,W,0.19,336.51,101212,,,A*7E
$GPRMC,214145.000,A,3748.7990,N,12217.8612,W,0.27,327.37,101212,,,A*78
$GPRMC,214146.000,A,3748.7990,N,12217.8611,W,0.35,82.37,101212,,,A*47
$GPRMC,214147.000,A,3748.7990,N,12217.8611,W,0.05,41.97,101212,,,A*40
$GPRMC,214148.000,A,3748.7996,N,12217.8607,W,0.10,25.63,101212,,,A*43
$GPRMC,214149.000,A,3748.7997,N,12217.8607,W,0.15,296.70,101212,,,A*7E
$GPRMC,214150.000,A,3748.7997,N,12217.8609,W,0.49,285.97,101212,,,A*7A
$GPRMC,214151.000,A,3748.7995,N,12217.8610,W,0.22,229.84,101212,,,A*78
$GPRMC,214152.000,A,3748.7996,N,12217.8610,W,0.31,101.80,101212,,,A*77
$GPRMC,214153.000,A,3748.7999,N,12217.8612,W,0.98,329.06,101212,,,A*7E
$GPRMC,214154.000,A,3748.7997,N,12217.8615,W,0.83,223.00,101212,,,A*77
$GPRMC,214155.000,A,3748.7992,N,12217.8622,W,0.62,264.65,101212,,,A*78
$GPRMC,214156.000,A,3748.7986,N,12217.8629,W,0.40,245.79,101212,,,A*7B
$GPRMC,214157.000,A,3748.7985,N,12217.8630,W,0.14,192.80,101212,,,A*7F
$GPRMC,214158.000,A,3748.7984,N,12217.8629,W,0.49,59.71,101212,,,A*49
$GPRMC,214159.000,A,3748.7986,N,12217.8623,W,0.82,54.99,101212,,,A*4C
$GPRMC,214200.000,A,3748.7985,N,12217.8616,W,0.88,134.93,101212,,,A*71
$GPRMC,214201.000,A,3748.7985,N,12217.8613,W,0.17,136.70,101212,,,A*7C
$GPRMC,214202.000,A,3748.7987,N,12217.8614,W,0.16,43.94,101212,,,A*42
$GPRMC,214203.000,A,3748.7986,N,12217.8613,W,0.65,134.76,101212,,,A*7C
$GPRMC,214204.000,A,3748.7984,N,12217.8613,W,0.78,144.56,101212,,,A*70
$GPRMC,214205.000,A,3748.7984,N,12217.8613,W,0.63,105.97,101212,,,A*73
$GPRMC,214206.000,A,3748.7984,N,12217.8615,W,0.22,116.62,101212,,,A*7B
$GPRMC,214207.000,A,3748.7985,N,12217.8615,W,0.65,299.34,101212,,,A*7F
$GPRMC,214208.000,A,3748.7986,N,12217.8615,W,0.59,304.73,101212,,,A*7A
$GPRMC,214209.000,A,3748.7986,N,12217.8613,W,0.25,325.39,101212,,,A*7B
$GPRMC,214210.000,A,3748.7987,N,12217.8610,W,0.06,39.26,101212,,,A*40
$GPRMC,214211.000,A,3748.7987,N,12217.8608,W,0.21,359.46,101212,,,A*7E
$GPRMC,214212.000,A,3748.7987,N,12217.8605,W,0.18,44.69,101212,,,A*48
$GPRMC,214213.000,A,3748.7988,N,12217.8603,W,0.37,318.26,101212,,,A*7C
$GPRMC,214214.000,A,3748.7988,N,12217.8601,W,0.62,326.15,101212,,,A*74
$GPRMC,214215.000,A,3748.7989,N,12217.8599,W,0.25,325.07,101212,,,A*75
$GPRMC,214216.000,A,3748.7987,N,12217.8594,W,0.43,105.44,101212,,,A*72
$GPRMC,214217.000,A,3748.7986,N,12217.8590,W,0.48,100.33,101212,,,A*78
$GPRMC,214218.000,A,3748.7986,N,12217.8586,W,0.34,89.44,101212,,,A*4B
$GPRMC,214219.000,A,3748.7985,N,12217.8583,W,0.17,351.57,101212,,,A*79
$GPRMC,214220.000,A,3748.7985,N,12217.8588,W,0.41,265.33,101212,,,A*7F
$GPRMC,214221.000,A,3748.7985,N,12217.8590,W,0.46,116.06,101212,,,A*71
$GPRMC,214222.000,A,3748.7986,N,12217.8593,W,0.58,118.18,101212,,,A*7C
$GPRMC,214223.000,A,3748.7986,N,12217.8596,W,0.16,107.90,101212,,,A*7C
$GPRMC,214224.000,A,3748.7985,N,12217.8596,W,0.97,106.36,101212,,,A*7C
$GPRMC,214225.000,A,3748.7983,N,12217.8592,W,0.69,107.26,101212,,,A*7E
$GPRMC,214226.000,A,3748.7981,N,12217.8589,W,0.49,120.99,101212,,,A*76
$GPRMC,214227.000,A,3748.7981,N,12217.8588,W,0.89,100.86,101212,,,A*76
$GPRMC,214228.000,A,3748.7981,N,12217.8588,W,1.27,128.27,101212,,,A*7D
$GPRMC,214229.000,A,3748.7978,N,12217.8585,W,0.85,149.13,101212,,,A*7E
$GPRMC,214230.000,A,3748.7974,N,12217.8586,W,0.39,198.49,101212,,,A*7D
$GPRMC,214231.000,A,3748.7972,N,12217.8583,W,0.17,173.08,101212,,,A*73
$GPRMC,214232.000,A,3748.7969,N,12217.8579,W,0.91,116.28,101212,,,A*70
$GPRMC,214233.000,A,3748.7965,N,12217.8575,W,1.16,124.02,101212,,,A*76
$GPRMC,214234.000,A,3748.7963,N,12217.8576,W,0.86,118.24,101212,,,A*77
$GPRMC,214235.000,A,3748.7960,N,12217.8575,W,0.75,110.21,101212,,,A*77
$GPRMC,214236.000,A,3748.7958,N,12217.8562,W,1.05,94.38,101212,,,A*4A
$GPRMC,214237.000,A,3748.7957,N,12217.8562,W,0.76,123.42,101212,,,A*71
$GPRMC,214238.000,A,3748.7955,N,12217.8564,W,1.05,123.99,101212,,,A*79
$GPRMC,214239.000,A,3748.7951,N,12217.8559,W,1.71,121.48,101212,,,A*7F
$GPRMC,214240.000,A,3748.7950,N,12217.8550,W,1.99,116.16,101212,,,A*70
$GPRMC,214241.000,A,3748.7947,N,12217.8543,W,1.80,121.31,101212,,,A*7C
$GPRMC,214242.000,A,3748.7943,N,12217.8539,W,1.81,126.54,101212,,,A*73
$GPRMC,214243.000,A,3748.7941,N,12217.8534,W,1.79,128.25,101212,,,A*72
$GPRMC,214244.000,A,3748.7939,N,12217.8530,W,1.69,134.36,101212,,,A*70
$GPRMC,214245.000,A,3748.7936,N,12217.8522,W,1.72,124.72,101212,,,A*76
$GPRMC,214246.000,A,3748.7934,N,12217.8511,W,2.01,107.80,101212,,,A*7C
$GPRMC,214247.000,A,3748.7932,N,12217.8500,W,1.81,111.51,101212,,,A*7B
$GPRMC,214248.000,A,3748.7930,N,12217.8495,W,1.70,111.91,101212,,,A*79
$GPRMC,214249.000,A,3748.7926,N,12217.8486,W,1.61,110.05,101212,,,A*71
$GPRMC,214250.000,A,3748.7923,N,12217.8482,W,1.59,102.28,101212,,,A*7F
$GPRMC,214251.000,A,3748.7923,N,12217.8476,W,1.69,101.79,101212,,,A*71
$GPRMC,214252.000,A,3748.7922,N,12217.8468,W,1.98,98.29,101212,,,A*46
$GPRMC,214253.000,A,3748.7920,N,12217.8460,W,1.77,94.12,101212,,,A*48
$GPRMC,214254.000,A,3748.7921,N,12217.8457,W,0.92,94.49,101212,,,A*4E
$GPRMC,214255.000,A,3748.7920,N,12217.8454,W,1.12,104.02,101212,,,A*73
$GPRMC,214256.000,A,3748.7918,N,12217.8446,W,1.40,114.82,101212,,,A*76
$GPRMC,214257.000,A,3748.7914,N,12217.8441,W,1.41,130.10,101212,,,A*70
$GPRMC,214258.000,A,3748.7910,N,12217.8437,W,1.92,118.55,101212,,,A*7F
$GPRMC,214259.000,A,3748.7903,N,12217.8435,W,1.79,124.39,101212,,,A*7E
$GPRMC,214300.000,A,3748.7895,N,12217.8423,W,1.94,117.00,101212,,,A*73
$GPRMC,214301.000,A,3748.7889,N,12217.8416,W,2.04,117.84,101212,,,A*7F
$GPRMC,214302.000,A,3748.7885,N,12217.8412,W,2.07,115.97,101212,,,A*77
$GPRMC,214303.000,A,3748.7885,N,12217.8403,W,2.06,103.91,101212,,,A*76
$GPRMC,214304.000,A,3748.7883,N,12217.8396,W,1.93,110.50,101212,,,A*7C
$GPRMC,214305.000,A,3748.7880,N,12217.8388,W,2.17,121.37,101212,,,A*7D
$GPRMC,214306.000,A,3748.7873,N,12217.8382,W,1.90,121.03,101212,,,A*73
$GPRMC,214307.000,A,3748.7870,N,12217.8376,W,1.69,127.69,101212,,,A*76
$GPRMC,214308.000,A,3748.7867,N,12217.8371,W,2.19,119.92,101212,,,A*75
$GPRMC,214309.000,A,3748.7863,N,12217.8365,W,2.17,120.54,101212,,,A*7B
$GPRMC,214310.000,A,3748.7855,N,12217.8362,W,2.16,124.75,101212,,,A*77
$GPRMC,214311.000,A,3748.7849,N,12217.8354,W,1.78,117.79,101212,,,A*79
$GPRMC,214312.000,A,3748.7849,N,12217.8350,W,0.60,108.11,101212,,,A*76
$GPRMC,214313.000,A,3748.7849,N,12217.8350,W,0.40,314.80,101212,,,A*72
$GPRMC,214314.000,A,3748.7852,N,12217.8350,W,1.52,309.58,101212,,,A*74
$GPRMC,214315.000,A,3748.7856,N,12217.8350,W,1.78,303.29,101212,,,A*75
$GPRMC,214316.000,A,3748.7859,N,12217.8352,W,1.74,315.13,101212,,,A*79
$GPRMC,214317.000,A,3748.7851,N,12217.8337,W,0.61,134.46,101212,,,A*77
$GPRMC,214318.000,A,3748.7844,N,12217.8321,W,1.51,115.04,101212,,,A*7C
$GPRMC,214319.000,A,3748.7838,N,12217.8307,W,2.01,110.15,101212,,,A*71
$GPRMC,214320.000,A,3748.7834,N,12217.8300,W,1.83,122.75,101212,,,A*7E
$GPRMC,214321.000,A,3748.7828,N,12217.8290,W,1.92,134.89,101212,,,A*7E
$GPRMC,214322.000,A,3748.7824,N,12217.8284,W,1.68,122.91,101212,,,A*7F
$GPRMC,214323.000,A,3748.7820,N,12217.8276,W,2.22,114.36,101212,,,A*72
$GPRMC,214324.000,A,3748.7818,N,12217.8268,W,1.74,131.07,101212,,,A*74
$GPRMC,214325.000,A,3748.7810,N,12217.8256,W,1.89,133.01,101212,,,A*76
$GPRMC,214326.000,A,3748.7803,N,12217.8242,W,1.98,123.89,101212,,,A*73
$GPRMC,214327.000,A,3748.7799,N,12217.8233,W,2.13,116.17,101212,,,A*79
$GPRMC,214328.000,A,3748.7794,N,12217.8222,W,2.17,111.45,101212,,,A*7F
$GPRMC,214329.000,A,3748.7790,N,12217.8210,W,2.37,114.88,101212,,,A*7D
$GPRMC,214330.000,A,3748.7786,N,12217.8196,W,2.50,110.16,101212,,,A*7D
$GPRMC,214331.000,A,3748.7782,N,12217.8190,W,2.25,116.31,101212,,,A*7F
$GPRMC,214332.000,A,3748.7778,N,12217.8184,W,2.15,118.12,101212,,,A*70
$GPRMC,214333.000,A,3748.7774,N,12217.8179,W,2.10,122.76,101212,,,A*71
$GPRMC,214334.000,A,3748.7770,N,12217.8172,W,2.37,119.31,101212,,,A*77
$GPRMC,214335.000,A,3748.7766,N,12217.8163,W,2.54,115.16,101212,,,A*7D
$GPRMC,214336.000,A,3748.7762,N,12217.8154,W,2.53,116.07,101212,,,A*7A
$GPRMC,214337.000,A,3748.7758,N,12217.8144,W,2.22,108.47,101212,,,A*7E
$GPRMC,214338.000,A,3748.7755,N,12217.8135,W,2.10,116.08,101212,,,A*7F
$GPRMC,214339.000,A,3748.7750,N,12217.8126,W,1.87,114.41,101212,,,A*7B
$GPRMC,214340.000,A,3748.7745,N,12217.8119,W,1.99,124.93,101212,,,A*7E
$GPRMC,214341.000,A,3748.7739,N,12217.8111,W,2.31,115.50,101212,,,A*70
$GPRMC,214342.000,A,3748.7733,N,12217.8103,W,2.52,119.01,101212,,,A*77
$GPRMC,214343.000,A,3748.7727,N,12217.8098,W,2.46,108.86,101212,,,A*7A
$GPRMC,214344.000,A,3748.7723,N,12217.8091,W,1.91,117.28,101212,,,A*73
$GPRMC,214345.000,A,3748.7719,N,12217.8086,W,1.94,117.33,101212,,,A*72
$GPRMC,214346.000,A,3748.7714,N,12217.8079,W,2.07,125.74,101212,,,A*77
$GPRMC,214347.000,A,3748.7707,N,12217.8069,W,2.24,124.69,101212,,,A*79
$GPRMC,214348.000,A,3748.7699,N,12217.8066,W,2.14,119.86,101212,,,A*73
$GPRMC,214349.000,A,3748.7693,N,12217.8058,W,2.16,115.58,101212,,,A*78
$GPRMC,214350.000,A,3748.7687,N,12217.8048,W,2.30,117.01,101212,,,A*7E
$GPRMC,214351.000,A,3748.7678,N,12217.8046,W,2.26,117.29,101212,,,A*7C
$GPRMC,214352.000,A,3748.7668,N,12217.8039,W,2.50,126.74,101212,,,A*7D
$GPRMC,214353.000,A,3748.7663,N,12217.8028,W,2.35,126.65,101212,,,A*74
$GPRMC,214354.000,A,3748.7661,N,12217.8014,W,2.31,123.98,101212,,,A*7D
$GPRMC,214355.000,A,3748.7660,N,12217.8005,W,2.09,120.76,101212,,,A*75
$GPRMC,214356.000,A,3748.7658,N,12217.7997,W,2.30,116.74,101212,,,A*7D
$GPRMC,214357.000,A,3748.7656,N,12217.7989,W,2.44,124.66,101212,,,A*7C
$GPRMC,214358.000,A,3748.7652,N,12217.7982,W,2.22,124.03,101212,,,A*7F
$GPRMC,214359.000,A,3748.7646,N,12217.7978,W,2.24,126.20,101212,,,A*7B
$GPRMC,214400.000,A,3748.7641,N,12217.7971,W,2.66,124.26,101212,,,A*7C
$GPRMC,214401.000,A,3748.7635,N,12217.7961,W,2.44,120.91,101212,,,A*77
$GPRMC,214402.000,A,3748.7630,N,12217.7954,W,2.36,109.67,101212,,,A*70
$GPRMC,214403.000,A,3748.7627,N,12217.7945,W,2.57,114.12,101212,,,A*7E
$GPRMC,214404.000,A,3748.7627,N,12217.7933,W,2.38,108.56,101212,,,A*7C
$GPRMC,214405.000,A,3748.7626,N,12217.7924,W,2.16,108.96,101212,,,A*7A
$GPRMC,214406.000,A,3748.7625,N,12217.7916,W,2.20,117.39,101212,,,A*75
$GPRMC,214407.000,A,3748.7622,N,12217.7909,W,2.24,117.39,101212,,,A*79
$GPRMC,214408.000,A,3748.7621,N,12217.7901,W,1.98,119.07,101212,,,A*7A
$GPRMC,214409.000,A,3748.7619,N,12217.7891,W,1.93,106.76,101212,,,A*7B
$GPRMC,214410.000,A,3748.7616,N,12217.7884,W,2.55,107.95,101212,,,A*7D
$GPRMC,214411.000,A,3748.7612,N,12217.7870,W,2.51,109.74,101212,,,A*76
$GPRMC,214412.000,A,3748.7607,N,12217.7858,W,2.35,110.94,101212,,,A*7F
$GPRMC,214413.000,A,3748.7603,N,12217.7845,W,2.60,107.77,101212,,,A*7D
$GPRMC,214414.000,A,3748.7600,N,12217.7839,W,2.17,107.17,101212,,,A*74
$GPRMC,214415.000,A,3748.7599,N,12217.7833,W,2.45,111.44,101212,,,A*7A
$GPRMC,214416.000,A,3748.7596,N,12217.7826,W,2.52,121.19,101212,,,A*7F
$GPRMC,214417.000,A,3748.7593,N,12217.7820,W,2.11,113.19,101212,,,A*7B
$GPRMC,214418.000,A,3748.7590,N,12217.7815,W,2.49,118.82,101212,,,A*75
$GPRMC,214419.000,A,3748.7589,N,12217.7810,W,1.99,118.05,101212,,,A*78
$GPRMC,214420.000,A,3748.7585,N,12217.7804,W,2.45,128.22,101212,,,A*7F
$GPRMC,214421.000,A,3748.7580,N,12217.7796,W,2.53,130.29,101212,,,A*7A
$GPRMC,214422.000,A,3748.7574,N,12217.7786,W,2.47,120.41,101212,,,A*79
$GPRMC,214423.000,A,3748.7572,N,12217.7775,W,2.58,110.12,101212,,,A*79
$GPRMC,214424.000,A,3748.7568,N,12217.7763,W,2.61,105.00,101212,,,A*7F
$GPRMC,214425.000,A,3748.7566,N,12217.7750,W,2.61,116.67,101212,,,A*73
$GPRMC,214426.000,A,3748.7559,N,12217.7746,W,2.72,124.24,101212,,,A*7F
$GPRMC,214427.000,A,3748.7556,N,12217.7736,W,2.49,115.77,101212,,,A*7A
$GPRMC,214428.000,A,3748.7551,N,12217.7729,W,2.67,118.65,101212,,,A*7E
$GPRMC,214429.000,A,3748.7547,N,12217.7720,W,2.32,127.85,101212,,,A*73
$GPRMC,214430.000,A,3748.7543,N,12217.7713,W,2.16,136.14,101212,,,A*71
$GPRMC,214431.000,A,3748.7538,N,12217.7712,W,2.20,146.45,101212,,,A*7B
$GPRMC,214432.000,A,3748.7533,N,12217.7708,W,2.34,134.17,101212,,,A*7F
$GPRMC,214433.000,A,3748.7528,N,12217.7701,W,2.37,127.68,101212,,,A*74
$GPRMC,214434.000,A,3748.7526,N,12217.7696,W,2.23,119.79,101212,,,A*7A
$GPRMC,214435.000,A,3748.7519,N,12217.7687,W,2.26,123.16,101212,,,A*72
$GPRMC,214436.000,A,3748.7511,N,12217.7682,W,2.02,128.15,101212,,,A*72
$GPRMC,214437.000,A,3748.7505,N,12217.7676,W,2.44,128.33,101212,,,A*7B
$GPRMC,214438.000,A,3748.7502,N,12217.7667,W,2.08,118.46,101212,,,A*7A
$GPRMC,214439.000,A,3748.7496,N,12217.7663,W,1.76,130.10,101212,,,A*70
$GPRMC,214440.000,A,3748.7490,N,12217.7658,W,2.08,132.77,101212,,,A*79
$GPRMC,214441.000,A,3748.7485,N,12217.7647,W,2.41,127.49,101212,,,A*76
$GPRMC,214442.000,A,3748.7479,N,12217.7641,W,2.52,134.27,101212,,,A*78
$GPRMC,214443.000,A,3748.7476,N,12217.7637,W,1.96,129.15,101212,,,A*71
$GPRMC,214444.000,A,3748.7475,N,12217.7631,W,2.28,115.14,101212,,,A*7B
$GPRMC,214445.000,A,3748.7472,N,12217.7622,W,2.39,119.55,101212,,,A*76
$GPRMC,214446.000,A,3748.7469,N,12217.7609,W,2.45,121.83,101212,,,A*7D
$GPRMC,214447.000,A,3748.7463,N,12217.7599,W,2.50,130.06,101212,,,A*75
$GPRMC,214448.000,A,3748.7455,N,12217.7589,W,2.40,120.99,101212,,,A*78
$GPRMC,214449.000,A,3748.7450,N,12217.7579,W,2.43,119.06,101212,,,A*7C
$GPRMC,214450.000,A,3748.7448,N,12217.7564,W,2.04,119.06,101212,,,A*72
$GPRMC,214451.000,A,3748.7446,N,12217.7555,W,1.92,111.46,101212,,,A*7F
$GPRMC,214452.000,A,3748.7445,N,12217.7546,W,2.19,111.72,101212,,,A*7A
$GPRMC,214453.000,A,3748.7442,N,12217.7534,W,2.27,127.08,101212,,,A*7C
$GPRMC,214454.000,A,3748.7440,N,12217.7522,W,2.43,115.68,101212,,,A*7B
$GPRMC,214455.000,A,3748.7435,N,12217.7519,W,2.18,119.80,101212,,,A*74
$GPRMC,214456.000,A,3748.7432,N,12217.7513,W,2.45,108.31,101212,,,A*78
$GPRMC,214457.000,A,3748.7429,N,12217.7501,W,2.39,116.75,101212,,,A*74
$GPRMC,214458.000,A,3748.7425,N,12217.7494,W,1.60,126.59,101212,,,A*78
$GPRMC,214459.000,A,3748.7423,N,12217.7490,W,1.60,131.40,101212,,,A*75
$GPRMC,214500.000,A,3748.7419,N,12217.7488,W,1.58,141.44,101212,,,A*70
$GPRMC,214501.000,A,3748.7416,N,12217.7486,W,1.73,139.60,101212,,,A*70
$GPRMC,214502.000,A,3748.7412,N,12217.7480,W,1.57,117.54,101212,,,A*7C
$GPRMC,214503.000,A,3748.7409,N,12217.7472,W,1.56,130.22,101212,,,A*7F
$GPRMC,214504.000,A,3748.7406,N,12217.7462,W,1.11,116.94,101212,,,A*7C
$GPRMC,214505.000,A,3748.7403,N,12217.7456,W,1.58,113.97,101212,,,A*74
$GPRMC,214506.000,A,3748.7400,N,12217.7442,W,2.33,101.39,101212,,,A*78
$GPRMC,214507.000,A,3748.7392,N,12217.7435,W,2.33,86.41,101212,,,A*44
$GPRMC,214508.000,A,3748.7389,N,12217.7425,W,2.15,101.22,101212,,,A*7F
$GPRMC,214509.000,A,3748.7384,N,12217.7415,W,2.71,97.77,101212,,,A*4C
$GPRMC,214510.000,A,3748.7383,N,12217.7399,W,2.37,96.59,101212,,,A*4F
$GPRMC,214511.000,A,3748.7382,N,12217.7387,W,1.94,98.74,101212,,,A*4B
$GPRMC,214512.000,A,3748.7374,N,12217.7383,W,1.89,117.64,101212,,,A*7E
$GPRMC,214513.000,A,3748.7368,N,12217.7379,W,1.73,120.04,101212,,,A*70
$GPRMC,214514.000,A,3748.7364,N,12217.7374,W,1.85,109.98,101212,,,A*71
$GPRMC,214515.000,A,3748.7361,N,12217.7367,W,1.53,123.04,101212,,,A*71
$GPRMC,214516.000,A,3748.7359,N,12217.7361,W,1.98,108.75,101212,,,A*77
$GPRMC,214517.000,A,3748.7359,N,12217.7345,W,1.61,116.72,101212,,,A*7E
$GPRMC,214518.000,A,3748.7349,N,12217.7339,W,1.66,122.17,101212,,,A*78
$GPRMC,214519.000,A,3748.7343,N,12217.7341,W,1.63,129.93,101212,,,A*7E
$GPRMC,214520.000,A,3748.7341,N,12217.7337,W,2.44,122.96,101212,,,A*7F
$GPRMC,214521.000,A,3748.7336,N,12217.7330,W,2.76,120.39,101212,,,A*7F
$GPRMC,214522.000,A,3748.7330,N,12217.7322,W,2.08,116.61,101212,,,A*78
$GPRMC,214523.000,A,3748.7326,N,12217.7311,W,1.81,113.67,101212,,,A*7F
$GPRMC,214524.000,A,3748.7319,N,12217.7307,W,1.46,145.03,101212,,,A*79
$GPRMC,214525.000,A,3748.7311,N,12217.7310,W,1.43,151.93,101212,,,A*7F
$GPRMC,214526.000,A,3748.7304,N,12217.7302,W,1.79,130.67,101212,,,A*7E
$GPRMC,214527.000,A,3748.7296,N,12217.7293,W,1.72,134.38,101212,,,A*79
$GPRMC,214528.000,A,3748.7288,N,12217.7284,W,1.90,135.93,101212,,,A*73
$GPRMC,214529.000,A,3748.7281,N,12217.7279,W,1.59,130.24,101212,,,A*75
$GPRMC,214530.000,A,3748.7276,N,12217.7272,W,2.06,141.14,101212,,,A*72
$GPRMC,214531.000,A,3748.7270,N,12217.7264,W,2.61,122.51,101212,,,A*77
$GPRMC,214532.000,A,3748.7267,N,12217.7254,W,2.38,120.31,101212,,,A*79
$GPRMC,214533.000,A,3748.7265,N,12217.7246,W,2.20,118.65,101212,,,A*7A
$GPRMC,214534.000,A,3748.7264,N,12217.7233,W,1.97,114.55,101212,,,A*7E
$GPRMC,214535.000,A,3748.7264,N,12217.7223,W,2.00,111.94,101212,,,A*7B
$GPRMC,214536.000,A,3748.7264,N,12217.7218,W,1.70,108.54,101212,,,A*70
$GPRMC,214537.000,A,3748.7261,N,12217.7210,W,1.72,111.87,101212,,,A*78
$GPRMC,214538.000,A,3748.7257,N,12217.7206,W,1.94,111.75,101212,,,A*70
$GPRMC,214539.000,A,3748.7259,N,12217.7197,W,1.35,86.84,101212,,,A*4E
$GPRMC,214540.000,A,3748.7267,N,12217.7189,W,1.74,41.08,101212,,,A*48
$GPRMC,214541.000,A,3748.7275,N,12217.7179,W,2.55,35.22,101212,,,A*4E
$GPRMC,214542.000,A,3748.7283,N,12217.7171,W,2.79,33.10,101212,,,A*45
$GPRMC,214543.000,A,3748.7291,N,12217.7162,W,2.76,25.78,101212,,,A*43
$GPRMC,214544.000,A,3748.7299,N,12217.7153,W,2.88,24.23,101212,,,A*40
$GPRMC,214545.000,A,3748.7307,N,12217.7146,W,2.77,19.71,101212,,,A*4A
$GPRMC,214546.000,A,3748.7311,N,12217.7141,W,1.96,20.21,101212,,,A*4A
$GPRMC,214547.000,A,3748.7317,N,12217.7138,W,2.36,6.52,101212,,,A*7A
$GPRMC,214548.000,A,3748.7324,N,12217.7134,W,2.33,12.55,101212,,,A*4E
$GPRMC,214549.000,A,3748.7331,N,12217.7128,W,2.30,15.88,101212,,,A*42
$GPRMC,214550.000,A,3748.7336,N,12217.7120,W,2.14,5.34,101212,,,A*75
$GPRMC,214551.000,A,3748.7341,N,12217.7114,W,2.04,27.52,101212,,,A*42
$GPRMC,214552.000,A,3748.7346,N,12217.7107,W,2.42,35.58,101212,,,A*4F
$GPRMC,214553.000,A,3748.7354,N,12217.7102,W,2.44,22.61,101212,,,A*42
$GPRMC,214554.000,A,3748.7362,N,12217.7096,W,2.49,11.02,101212,,,A*44
$GPRMC,214555.000,A,3748.7365,N,12217.7085,W,2.37,18.87,101212,,,A*4D
$GPRMC,214556.000,A,3748.7373,N,12217.7083,W,2.28,25.33,101212,,,A*40
$GPRMC,214557.000,A,3748.7381,N,12217.7077,W,2.17,28.26,101212,,,A*42
$GPRMC,214558.000,A,3748.7388,N,12217.7070,W,2.37,24.51,101212,,,A*4D
$GPRMC,214559.000,A,3748.7396,N,12217.7065,W,2.82,19.11,101212,,,A*43
$GPRMC,214600.000,A,3748.7402,N,12217.7060,W,2.55,13.12,101212,,,A*40
$GPRMC,214601.000,A,3748.7410,N,12217.7054,W,2.31,3.80,101212,,,A*7D
$GPRMC,214602.000,A,3748.7414,N,12217.7049,W,1.72,16.38,101212,,,A*45
$GPRMC,214603.000,A,3748.7420,N,12217.7047,W,1.39,20.16,101212,,,A*4B
$GPRMC,214604.000,A,3748.7428,N,12217.7044,W,2.19,14.06,101212,,,A*40
$GPRMC,214605.000,A,3748.7433,N,12217.7039,W,2.70,14.08,101212,,,A*40
$GPRMC,214606.000,A,3748.7438,N,12217.7034,W,2.66,13.51,101212,,,A*49
$GPRMC,214607.000,A,3748.7448,N,12217.7028,W,2.74,18.19,101212,,,A*46
$GPRMC,214608.000,A,3748.7453,N,12217.7018,W,2.58,15.67,101212,,,A*4A
$GPRMC,214609.000,A,3748.7456,N,12217.7011,W,2.29,18.47,101212,,,A*4E
$GPRMC,214610.000,A,3748.7462,N,12217.7007,W,2.60,5.48,101212,,,A*78
$GPRMC,214611.000,A,3748.7467,N,12217.7001,W,1.70,15.15,101212,,,A*41
$GPRMC,214612.000,A,3748.7471,N,12217.6992,W,1.70,46.11,101212,,,A*45
$GPRMC,214613.000,A,3748.7478,N,12217.6984,W,1.66,47.91,101212,,,A*44
$GPRMC,214614.000,A,3748.7485,N,12217.6978,W,1.85,22.48,101212,,,A*48
$GPRMC,214615.000,A,3748.7491,N,12217.6974,W,1.71,31.05,101212,,,A*40
$GPRMC,214616.000,A,3748.7501,N,12217.6970,W,2.29,23.25,101212,,,A*40
$GPRMC,214617.000,A,3748.7508,N,12217.6969,W,2.47,21.82,101212,,,A*47
$GPRMC,214618.000,A,3748.7517,N,12217.6964,W,2.49,22.23,101212,,,A*4D
$GPRMC,214619.000,A,3748.7526,N,12217.6958,W,2.61,12.02,101212,,,A*4B
$GPRMC,214620.000,A,3748.7534,N,12217.6952,W,2.23,22.38,101212,,,A*44
$GPRMC,214621.000,A,3748.7537,N,12217.6946,W,2.30,26.46,101212,,,A*4C
$GPRMC,214622.000,A,3748.7543,N,12217.6940,W,2.17,19.87,101212,,,A*4E
$GPRMC,214623.000,A,3748.7548,N,12217.6933,W,2.65,19.49,101212,,,A*47
$GPRMC,214624.000,A,3748.7554,N,12217.6925,W,2.29,16.65,101212,,,A*43
$GPRMC,214625.000,A,3748.7558,N,12217.6919,W,2.29,16.88,101212,,,A*42
$GPRMC,214626.000,A,3748.7564,N,12217.6912,W,2.81,27.23,101212,,,A*44
$GPRMC,214627.000,A,3748.7568,N,12217.6904,W,2.37,37.30,101212,,,A*40
$GPRMC,214628.000,A,3748.7572,N,12217.6894,W,1.77,42.09,101212,,,A*43
$GPRMC,214629.000,A,3748.7574,N,12217.6887,W,1.49,33.72,101212,,,A*41
$GPRMC,214630.000,A,3748.7582,N,12217.6883,W,2.50,16.33,101212,,,A*4D
$GPRMC,214631.000,A,3748.7590,N,12217.6879,W,2.24,23.21,101212,,,A*4C
$GPRMC,214632.000,A,3748.7600,N,12217.6877,W,2.69,1.79,101212,,,A*7F
$GPRMC,214633.000,A,3748.7611,N,12217.6872,W,2.82,16.19,101212,,,A*4E
$GPRMC,214634.000,A,3748.7617,N,12217.6862,W,2.91,37.25,101212,,,A*40
$GPRMC,214635.000,A,3748.7624,N,12217.6853,W,2.88,25.20,101212,,,A*4D
$GPRMC,214636.000,A,3748.7632,N,12217.6850,W,2.67,19.38,101212,,,A*4D
$GPRMC,214637.000,A,3748.7638,N,12217.6846,W,2.92,9.01,101212,,,A*70
$GPRMC,214638.000,A,3748.7645,N,12217.6846,W,2.46,13.83,101212,,,A*4D
$GPRMC,214639.000,A,3748.7650,N,12217.6841,W,2.70,5.04,101212,,,A*72
$GPRMC,214640.000,A,3748.7655,N,12217.6833,W,1.93,19.61,101212,,,A*4C
$GPRMC,214641.000,A,3748.7660,N,12217.6826,W,2.82,8.78,101212,,,A*74
$GPRMC,214642.000,A,3748.7669,N,12217.6821,W,2.84,12.57,101212,,,A*49
$GPRMC,214643.000,A,3748.7676,N,12217.6819,W,2.46,7.22,101212,,,A*75
$GPRMC,214644.000,A,3748.7684,N,12217.6815,W,2.85,357.95,101212,,,A*76
$GPRMC,214645.000,A,3748.7694,N,12217.6816,W,2.59,358.86,101212,,,A*79
$GPRMC,214646.000,A,3748.7698,N,12217.6809,W,2.42,13.69,101212,,,A*4F
$GPRMC,214647.000,A,3748.7703,N,12217.6802,W,2.50,14.87,101212,,,A*42
$GPRMC,214648.000,A,3748.7708,N,12217.6796,W,2.37,18.37,101212,,,A*42
$GPRMC,214649.000,A,3748.7710,N,12217.6782,W,3.01,47.90,101212,,,A*4C
$GPRMC,214650.000,A,3748.7713,N,12217.6767,W,2.64,33.31,101212,,,A*46
$GPRMC,214651.000,A,3748.7719,N,12217.6758,W,2.67,24.05,101212,,,A*43
$GPRMC,214652.000,A,3748.7725,N,12217.6753,W,2.89,21.91,101212,,,A*4C
$GPRMC,214653.000,A,3748.7732,N,12217.6745,W,3.01,18.07,101212,,,A*48
$GPRMC,214654.000,A,3748.7740,N,12217.6741,W,2.81,8.47,101212,,,A*72
$GPRMC,214655.000,A,3748.7746,N,12217.6734,W,2.54,12.39,101212,,,A*4D
$GPRMC,214656.000,A,3748.7754,N,12217.6730,W,2.24,12.72,101212,,,A*41
$GPRMC,214657.000,A,3748.7761,N,12217.6726,W,2.28,9.69,101212,,,A*7D
$GPRMC,214658.000,A,3748.7768,N,12217.6722,W,2.53,13.42,101212,,,A*41
$GPRMC,214659.000,A,3748.7776,N,12217.6716,W,2.46,14.94,101212,,,A*40
$GPRMC,214700.000,A,3748.7782,N,12217.6709,W,2.39,27.82,101212,,,A*47
$GPRMC,214701.000,A,3748.7786,N,12217.6704,W,2.35,32.91,101212,,,A*45
$GPRMC,214702.000,A,3748.7793,N,12217.6701,W,2.41,19.04,101212,,,A*41
$GPRMC,214703.000,A,3748.7798,N,12217.6697,W,2.51,14.13,101212,,,A*4F
$GPRMC,214704.000,A,3748.7805,N,12217.6692,W,2.78,5.69,101212,,,A*70
$GPRMC,214705.000,A,3748.7815,N,12217.6691,W,3.05,359.67,101212,,,A*7C
$GPRMC,214706.000,A,3748.7822,N,12217.6688,W,2.50,2.51,101212,,,A*7A
$GPRMC,214707.000,A,3748.7826,N,12217.6685,W,1.81,39.20,101212,,,A*43
$GPRMC,214708.000,A,3748.7831,N,12217.6683,W,2.29,29.65,101212,,,A*4D
$GPRMC,214709.000,A,3748.7840,N,12217.6683,W,2.71,2.40,101212,,,A*79
$GPRMC,214710.000,A,3748.7850,N,12217.6688,W,2.30,6.64,101212,,,A*7C
$GPRMC,214711.000,A,3748.7859,N,12217.6688,W,2.16,20.09,101212,,,A*4F
$GPRMC,214712.000,A,3748.7864,N,12217.6684,W,2.49,26.24,101212,,,A*4D
$GPRMC,214713.000,A,3748.7869,N,12217.6673,W,2.68,25.90,101212,,,A*46
$GPRMC,214714.000,A,3748.7873,N,12217.6662,W,2.76,21.78,101212,,,A*47
$GPRMC,214715.000,A,3748.7877,N,12217.6653,W,2.62,28.48,101212,,,A*4F
$GPRMC,214716.000,A,3748.7882,N,12217.6647,W,2.67,26.76,101212,,,A*45
$GPRMC,214717.000,A,3748.7888,N,12217.6644,W,2.17,24.69,101212,,,A*46
$GPRMC,214718.000,A,3748.7897,N,12217.6642,W,2.85,15.74,101212,,,A*44
$GPRMC,214719.000,A,3748.7905,N,12217.6640,W,2.79,10.07,101212,,,A*4F
$GPRMC,214720.000,A,3748.7912,N,12217.6637,W,2.72,24.11,101212,,,A*48
$GPRMC,214721.000,A,3748.7920,N,12217.6633,W,2.70,17.69,101212,,,A*41
$GPRMC,214722.000,A,3748.7931,N,12217.6632,W,2.75,9.30,101212,,,A*75
$GPRMC,214723.000,A,3748.7939,N,12217.6628,W,2.55,15.80,101212,,,A*43
$GPRMC,214724.000,A,3748.7945,N,12217.6619,W,2.41,41.16,101212,,,A*46
$GPRMC,214725.000,A,3748.7950,N,12217.6613,W,2.25,33.99,101212,,,A*49
$GPRMC,214726.000,A,3748.7954,N,12217.6609,W,2.46,22.31,101212,,,A*42
$GPRMC,214727.000,A,3748.7959,N,12217.6608,W,2.28,14.94,101212,,,A*4D
$GPRMC,214728.000,A,3748.7966,N,12217.6608,W,2.50,8.48,101212,,,A*7D
$GPRMC,214729.000,A,3748.7974,N,12217.6610,W,2.65,2.62,101212,,,A*72
$GPRMC,214730.000,A,3748.7981,N,12217.6607,W,2.64,6.53,101212,,,A*71
$GPRMC,214731.000,A,3748.7987,N,12217.6600,W,2.58,30.09,101212,,,A*44
$GPRMC,214732.000,A,3748.7994,N,12217.6593,W,2.36,14.95,101212,,,A*47
$GPRMC,214733.000,A,3748.8001,N,12217.6586,W,2.80,7.24,101212,,,A*7D
$GPRMC,214734.000,A,3748.8008,N,12217.6580,W,2.73,18.16,101212,,,A*46
$GPRMC,214735.000,A,3748.8013,N,12217.6573,W,2.80,21.21,101212,,,A*43
$GPRMC,214736.000,A,3748.8023,N,12217.6565,W,2.83,23.71,101212,,,A*40
$GPRMC,214737.000,A,3748.8029,N,12217.6562,W,2.47,20.03,101212,,,A*42
$GPRMC,214738.000,A,3748.8035,N,12217.6556,W,2.64,21.11,101212,,,A*44
$GPRMC,214739.000,A,3748.8041,N,12217.6550,W,2.56,25.97,101212,,,A*4B
$GPRMC,214740.000,A,3748.8048,N,12217.6550,W,2.75,3.39,101212,,,A*7D
$GPRMC,214741.000,A,3748.8053,N,12217.6548,W,2.41,357.37,101212,,,A*74
$GPRMC,214742.000,A,3748.8060,N,12217.6544,W,2.97,12.37,101212,,,A*42
$GPRMC,214743.000,A,3748.8066,N,12217.6535,W,3.23,33.03,101212,,,A*49
$GPRMC,214744.000,A,3748.8073,N,12217.6523,W,3.07,45.30,101212,,,A*4A
$GPRMC,214745.000,A,3748.8076,N,12217.6513,W,2.38,50.96,101212,,,A*48
$GPRMC,214746.000,A,3748.8078,N,12217.6502,W,2.12,43.90,101212,,,A*49
$GPRMC,214747.000,A,3748.8084,N,12217.6496,W,2.48,22.03,101212,,,A*45
$GPRMC,214748.000,A,3748.8092,N,12217.6493,W,2.49,17.60,101212,,,A*4A
$GPRMC,214749.000,A,3748.8100,N,12217.6487,W,2.75,11.85,101212,,,A*46
$GPRMC,214750.000,A,3748.8107,N,12217.6483,W,2.98,16.78,101212,,,A*4B
$GPRMC,214751.000,A,3748.8113,N,12217.6477,W,2.64,13.47,101212,,,A*4E
$GPRMC,214752.000,A,3748.8119,N,12217.6471,W,2.65,12.58,101212,,,A*4F
$GPRMC,214753.000,A,3748.8126,N,12217.6464,W,2.74,20.74,101212,,,A*49
$GPRMC,214754.000,A,3748.8132,N,12217.6458,W,2.54,27.87,101212,,,A*4D
$GPRMC,214755.000,A,3748.8138,N,12217.6451,W,2.53,21.77,101212,,,A*41
$GPRMC,214756.000,A,3748.8142,N,12217.6443,W,2.68,22.10,101212,,,A*46
$GPRMC,214757.000,A,3748.8148,N,12217.6437,W,2.72,20.68,101212,,,A*48
$GPRMC,214758.000,A,3748.8154,N,12217.6431,W,2.69,15.92,101212,,,A*45
$GPRMC,214759.000,A,3748.8159,N,12217.6425,W,2.58,10.52,101212,,,A*47
$GPRMC,214800.000,A,3748.8161,N,12217.6413,W,2.84,358.30,101212,,,A*70
$GPRMC,214801.000,A,3748.8164,N,12217.6405,W,2.84,5.13,101212,,,A*79
$GPRMC,214802.000,A,3748.8167,N,12217.6394,W,2.69,16.46,101212,,,A*47
$GPRMC,214803.000,A,3748.8171,N,12217.6384,W,2.75,14.77,101212,,,A*4D
$GPRMC,214804.000,A,3748.8176,N,12217.6379,W,2.27,15.83,101212,,,A*42
$GPRMC,214805.000,A,3748.8185,N,12217.6379,W,2.85,7.91,101212,,,A*77
$GPRMC,214806.000,A,3748.8190,N,12217.6373,W,2.70,17.94,101212,,,A*44
$GPRMC,214807.000,A,3748.8196,N,12217.6366,W,2.72,26.05,101212,,,A*4F
$GPRMC,214808.000,A,3748.8200,N,12217.6356,W,2.77,18.33,101212,,,A*42
$GPRMC,214809.000,A,3748.8204,N,12217.6346,W,2.74,18.76,101212,,,A*44
$GPRMC,214810.000,A,3748.8211,N,12217.6343,W,2.67,13.19,101212,,,A*4D
$GPRMC,214811.000,A,3748.8219,N,12217.6340,W,2.68,15.09,101212,,,A*4F
$GPRMC,214812.000,A,3748.8225,N,12217.6334,W,2.58,30.51,101212,,,A*49
$GPRMC,214813.000,A,3748.8229,N,12217.6325,W,2.50,26.87,101212,,,A*40
$GPRMC,214814.000,A,3748.8235,N,12217.6317,W,2.93,34.20,101212,,,A*4A
$GPRMC,214815.000,A,3748.8240,N,12217.6306,W,3.00,29.66,101212,,,A*4C
$GPRMC,214816.000,A,3748.8248,N,12217.6302,W,2.85,20.56,101212,,,A*45
$GPRMC,214817.000,A,3748.8255,N,12217.6298,W,2.95,7.30,101212,,,A*7E
$GPRMC,214818.000,A,3748.8261,N,12217.6292,W,2.80,10.89,101212,,,A*4C
$GPRMC,214819.000,A,3748.8268,N,12217.6288,W,2.56,16.25,101212,,,A*44
$GPRMC,214820.000,A,3748.8277,N,12217.6290,W,2.78,11.51,101212,,,A*41
$GPRMC,214821.000,A,3748.8285,N,12217.6287,W,2.95,8.75,101212,,,A*76
$GPRMC,214822.000,A,3748.8293,N,12217.6286,W,2.92,4.69,101212,,,A*75
$GPRMC,214823.000,A,3748.8300,N,12217.6282,W,2.61,7.65,101212,,,A*78
$GPRMC,214824.000,A,3748.8306,N,12217.6278,W,2.54,12.25,101212,,,A*4A
$GPRMC,214825.000,A,3748.8312,N,12217.6274,W,2.68,20.82,101212,,,A*41
$GPRMC,214826.000,A,3748.8316,N,12217.6263,W,2.74,31.49,101212,,,A*4A
$GPRMC,214827.000,A,3748.8319,N,12217.6252,W,2.68,31.65,101212,,,A*45
$GPRMC,214828.000,A,3748.8326,N,12217.6248,W,2.67,22.82,101212,,,A*49
$GPRMC,214829.000,A,3748.8331,N,12217.6242,W,2.54,26.29,101212,,,A*41
$GPRMC,214830.000,A,3748.8338,N,12217.6235,W,2.17,34.41,101212,,,A*4A
$GPRMC,214831.000,A,3748.8343,N,12217.6227,W,2.85,38.87,101212,,,A*49
$GPRMC,214832.000,A,3748.8349,N,12217.6219,W,2.78,38.24,101212,,,A*46
$GPRMC,214833.000,A,3748.8356,N,12217.6211,W,2.84,35.53,101212,,,A*4F
$GPRMC,214834.000,A,3748.8363,N,12217.6204,W,2.94,43.46,101212,,,A*4E
$GPRMC,214835.000,A,3748.8370,N,12217.6199,W,2.94,39.60,101212,,,A*43
$GPRMC,214836.000,A,3748.8375,N,12217.6189,W,2.87,44.32,101212,,,A*4B
$GPRMC,214837.000,A,3748.8381,N,12217.6182,W,2.08,40.07,101212,,,A*4F
$GPRMC,214838.000,A,3748.8385,N,12217.6181,W,1.72,56.82,101212,,,A*43
$GPRMC,214839.000,A,3748.8387,N,12217.6179,W,1.71,98.80,101212,,,A*44
$GPRMC,214840.000,A,3748.8383,N,12217.6174,W,2.26,104.40,101212,,,A*7A
$GPRMC,214841.000,A,3748.8384,N,12217.6171,W,2.17,103.98,101212,,,A*79
$GPRMC,214842.000,A,3748.8384,N,12217.6171,W,2.05,112.58,101212,,,A*75
$GPRMC,214843.000,A,3748.8387,N,12217.6173,W,1.87,121.32,101212,,,A*70
$GPRMC,214844.000,A,3748.8386,N,12217.6177,W,2.08,135.79,101212,,,A*7C
$GPRMC,214845.000,A,3748.8382,N,12217.6174,W,2.28,129.86,101212,,,A*75
$GPRMC,214846.000,A,3748.8381,N,12217.6168,W,2.32,115.37,101212,,,A*76
$GPRMC,214847.000,A,3748.8376,N,12217.6163,W,2.86,155.70,101212,,,A*7C
$GPRMC,214848.000,A,3748.8374,N,12217.6156,W,2.17,118.98,101212,,,A*70
$GPRMC,214849.000,A,3748.8369,N,12217.6149,W,2.83,115.86,101212,,,A*7C
$GPRMC,214850.000,A,3748.8367,N,12217.6140,W,2.76,110.70,101212,,,A*75
$GPRMC,214851.000,A,3748.8358,N,12217.6128,W,2.72,118.82,101212,,,A*77
$GPRMC,214852.000,A,3748.8348,N,12217.6124,W,2.23,103.17,101212,,,A*7B
$GPRMC,214853.000,A,3748.8340,N,12217.6116,W,2.60,125.39,101212,,,A*7C
$GPRMC,214854.000,A,3748.8336,N,12217.6110,W,2.19,124.82,101212,,,A*73
$GPRMC,214855.000,A,3748.8331,N,12217.6101,W,2.30,107.46,101212,,,A*77
$GPRMC,214856.000,A,3748.8328,N,12217.6099,W,1.89,123.80,101212,,,A*71
$GPRMC,214857.000,A,3748.8321,N,12217.6094,W,2.20,130.97,101212,,,A*70
$GPRMC,214858.000,A,3748.8319,N,12217.6092,W,1.94,119.67,101212,,,A*7A
$GPRMC,214859.000,A,3748.8318,N,12217.6086,W,1.91,110.41,101212,,,A*77
$GPRMC,214900.000,A,3748.8316,N,12217.6080,W,1.93,124.64,101212,,,A*70
$GPRMC,214901.000,A,3748.8312,N,12217.6072,W,2.14,131.42,101212,,,A*74
$GPRMC,214902.000,A,3748.8312,N,12217.6065,W,2.82,121.23,101212,,,A*78
$GPRMC,214903.000,A,3748.8295,N,12217.6056,W,2.36,117.03,101212,,,A*7F
$GPRMC,214904.000,A,3748.8284,N,12217.6047,W,2.63,126.52,101212,,,A*7E
$GPRMC,214905.000,A,3748.8283,N,12217.6035,W,2.76,114.32,101212,,,A*7E
$GPRMC,214906.000,A,3748.8280,N,12217.6025,W,2.63,116.91,101212,,,A*70
$GPRMC,214907.000,A,3748.8280,N,12217.6017,W,2.40,110.66,101212,,,A*7F
$GPRMC,214908.000,A,3748.8276,N,12217.6008,W,2.65,115.74,101212,,,A*76
$GPRMC,214909.000,A,3748.8273,N,12217.6003,W,1.92,114.99,101212,,,A*70
$GPRMC,214910.000,A,3748.8270,N,12217.5998,W,2.08,118.58,101212,,,A*72
$GPRMC,214911.000,A,3748.8265,N,12217.5992,W,2.49,118.94,101212,,,A*78
$GPRMC,214912.000,A,3748.8261,N,12217.5985,W,2.09,112.99,101212,,,A*7A
$GPRMC,214913.000,A,3748.8257,N,12217.5975,W,2.27,113.64,101212,,,A*7E
$GPRMC,214914.000,A,3748.8252,N,12217.5966,W,2.57,121.81,101212,,,A*73
$GPRMC,214915.000,A,3748.8248,N,12217.5958,W,2.63,117.47,101212,,,A*7C
$GPRMC,214916.000,A,3748.8245,N,12217.5949,W,1.93,105.42,101212,,,A*78
$GPRMC,214917.000,A,3748.8243,N,12217.5942,W,0.97,110.72,101212,,,A*76
$GPRMC,214918.000,A,3748.8241,N,12217.5939,W,1.28,115.60,101212,,,A*74
$GPRMC,214919.000,A,3748.8236,N,12217.5931,W,2.14,112.92,101212,,,A*7B
$GPRMC,214920.000,A,3748.8231,N,12217.5923,W,1.87,118.41,101212,,,A*78
$GPRMC,214921.000,A,3748.8227,N,12217.5915,W,2.11,120.78,101212,,,A*76
$GPRMC,214922.000,A,3748.8222,N,12217.5900,W,2.90,122.73,101212,,,A*74
$GPRMC,214923.000,A,3748.8218,N,12217.5897,W,1.63,109.99,101212,,,A*71
$GPRMC,214924.000,A,3748.8215,N,12217.5888,W,1.63,109.70,101212,,,A*72
$GPRMC,214925.000,A,3748.8214,N,12217.5886,W,1.81,123.07,101212,,,A*78
$GPRMC,214926.000,A,3748.8211,N,12217.5881,W,1.94,120.32,101212,,,A*78
$GPRMC,214927.000,A,3748.8208,N,12217.5881,W,1.62,136.84,101212,,,A*72
$GPRMC,214928.000,A,3748.8203,N,12217.5874,W,2.10,123.77,101212,,,A*72
$GPRMC,214929.000,A,3748.8197,N,12217.5864,W,2.16,122.00,101212,,,A*7B
$GPRMC,214930.000,A,3748.8191,N,12217.5853,W,2.29,115.37,101212,,,A*7D
$GPRMC,214931.000,A,3748.8186,N,12217.5844,W,1.91,125.32,101212,,,A*7A
$GPRMC,214932.000,A,3748.8182,N,12217.5840,W,1.90,126.55,101212,,,A*7A
$GPRMC,214933.000,A,3748.8178,N,12217.5833,W,2.15,123.16,101212,,,A*76
$GPRMC,214934.000,A,3748.8175,N,12217.5827,W,2.03,112.90,101212,,,A*72
$GPRMC,214935.000,A,3748.8173,N,12217.5823,W,1.30,125.00,101212,,,A*7F
$GPRMC,214936.000,A,3748.8171,N,12217.5816,W,2.04,114.02,101212,,,A*7C
$GPRMC,214937.000,A,3748.8167,N,12217.5809,W,1.97,119.12,101212,,,A*71
$GPRMC,214938.000,A,3748.8163,N,12217.5800,W,2.12,116.37,101212,,,A*75
$GPRMC,214939.000,A,3748.8160,N,12217.5792,W,1.82,118.31,101212,,,A*71
$GPRMC,214940.000,A,3748.8158,N,12217.5780,W,1.83,113.74,101212,,,A*7C
$GPRMC,214941.000,A,3748.8154,N,12217.5769,W,1.73,100.24,101212,,,A*7E
$GPRMC,214942.000,A,3748.8154,N,12217.5763,W,0.90,81.80,101212,,,A*4D
$GPRMC,214943.000,A,3748.8154,N,12217.5756,W,0.99,116.84,101212,,,A*78
$GPRMC,214944.000,A,3748.8150,N,12217.5748,W,1.55,128.58,101212,,,A*79
$GPRMC,214945.000,A,3748.8144,N,12217.5738,W,1.51,118.19,101212,,,A*78
$GPRMC,214946.000,A,3748.8140,N,12217.5731,W,1.81,133.31,101212,,,A*78
$GPRMC,214947.000,A,3748.8136,N,12217.5722,W,2.11,116.90,101212,,,A*7C
$GPRMC,214948.000,A,3748.8134,N,12217.5712,W,1.70,127.08,101212,,,A*75
$GPRMC,214949.000,A,3748.8129,N,12217.5705,W,1.77,139.76,101212,,,A*7F
$GPRMC,214950.000,A,3748.8125,N,12217.5702,W,1.62,140.21,101212,,,A*74
$GPRMC,214951.000,A,3748.8118,N,12217.5694,W,2.09,146.15,101212,,,A*7A
$GPRMC,214952.000,A,3748.8113,N,12217.5688,W,1.59,128.83,101212,,,A*7E
$GPRMC,214953.000,A,3748.8110,N,12217.5680,W,1.29,107.62,101212,,,A*71
$GPRMC,214954.000,A,3748.8107,N,12217.5673,W,1.65,106.56,101212,,,A*72
$GPRMC,214955.000,A,3748.8105,N,12217.5663,W,1.94,104.00,101212,,,A*7F
$GPRMC,214956.000,A,3748.8105,N,12217.5651,W,1.65,99.90,101212,,,A*4F
$GPRMC,214957.000,A,3748.8105,N,12217.5643,W,1.05,51.70,101212,,,A*41
$GPRMC,214958.000,A,3748.8103,N,12217.5639,W,0.95,358.71,101212,,,A*76
$GPRMC,214959.000,A,3748.8102,N,12217.5635,W,0.53,19.39,101212,,,A*4A
$GPRMC,215000.000,A,3748.8097,N,12217.5627,W,0.69,94.08,101212,,,A*4E
$GPRMC,215001.000,A,3748.8090,N,12217.5620,W,0.81,113.09,101212,,,A*76
$GPRMC,215002.000,A,3748.8086,N,12217.5612,W,1.06,117.39,101212,,,A*7A
$GPRMC,215003.000,A,3748.8081,N,12217.5605,W,1.37,163.30,101212,,,A*72
$GPRMC,215004.000,A,3748.8074,N,12217.5598,W,1.27,136.60,101212,,,A*7C
$GPRMC,215005.000,A,3748.8065,N,12217.5583,W,2.06,124.17,101212,,,A*74
$GPRMC,215006.000,A,3748.8062,N,12217.5569,W,1.88,125.35,101212,,,A*70
$GPRMC,215007.000,A,3748.8051,N,12217.5554,W,2.53,122.19,101212,,,A*73
$GPRMC,215008.000,A,3748.8048,N,12217.5543,W,1.65,90.00,101212,,,A*44
$GPRMC,215009.000,A,3748.8051,N,12217.5532,W,1.67,48.63,101212,,,A*49
$GPRMC,215010.000,A,3748.8062,N,12217.5529,W,1.86,7.22,101212,,,A*7A
$GPRMC,215011.000,A,3748.8059,N,12217.5524,W,1.21,65.63,101212,,,A*42
$GPRMC,215012.000,A,3748.8051,N,12217.5520,W,1.61,161.86,101212,,,A*77
$GPRMC,215013.000,A,3748.8040,N,12217.5517,W,1.52,159.27,101212,,,A*72
$GPRMC,215014.000,A,3748.8030,N,12217.5523,W,1.34,187.29,101212,,,A*78
$GPRMC,215015.000,A,3748.8023,N,12217.5522,W,2.27,200.97,101212,,,A*72
$GPRMC,215016.000,A,3748.8014,N,12217.5528,W,1.92,193.25,101212,,,A*72
$GPRMC,215017.000,A,3748.8005,N,12217.5525,W,1.98,201.85,101212,,,A*76
$GPRMC,215018.000,A,3748.7998,N,12217.5524,W,1.75,217.26,101212,,,A*77
$GPRMC,215019.000,A,3748.7992,N,12217.5530,W,1.33,225.69,101212,,,A*71
$GPRMC,215020.000,A,3748.7986,N,12217.5533,W,1.99,217.00,101212,,,A*73
$GPRMC,215021.000,A,3748.7981,N,12217.5532,W,1.32,200.60,101212,,,A*75
$GPRMC,215022.000,A,3748.7973,N,12217.5530,W,1.82,181.81,101212,,,A*77
$GPRMC,215023.000,A,3748.7967,N,12217.5527,W,1.79,188.87,101212,,,A*7E
$GPRMC,215024.000,A,3748.7960,N,12217.5523,W,2.14,196.20,101212,,,A*70
$GPRMC,215025.000,A,3748.7950,N,12217.5519,W,1.71,193.92,101212,,,A*77
$GPRMC,215026.000,A,3748.7940,N,12217.5521,W,1.76,183.53,101212,,,A*75
$GPRMC,215027.000,A,3748.7932,N,12217.5520,W,2.01,192.50,101212,,,A*70
$GPRMC,215028.000,A,3748.7924,N,12217.5531,W,2.09,212.98,101212,,,A*7F
$GPRMC,215029.000,A,3748.7920,N,12217.5538,W,1.44,193.69,101212,,,A*7D
$GPRMC,215030.000,A,3748.7913,N,12217.5541,W,2.83,193.52,101212,,,A*7B
$GPRMC,215031.000,A,3748.7903,N,12217.5541,W,3.36,183.72,101212,,,A*77
$GPRMC,215032.000,A,3748.7899,N,12217.5552,W,1.89,209.70,101212,,,A*71
$GPRMC,215033.000,A,3748.7892,N,12217.5558,W,2.07,208.63,101212,,,A*77
$GPRMC,215034.000,A,3748.7891,N,12217.5566,W,1.95,229.47,101212,,,A*73
$GPRMC,215035.000,A,3748.7883,N,12217.5568,W,2.40,193.25,101212,,,A*72
$GPRMC,215036.000,A,3748.7879,N,12217.5575,W,2.66,213.17,101212,,,A*76
$GPRMC,215037.000,A,3748.7872,N,12217.5580,W,2.28,212.51,101212,,,A*7F
$GPRMC,215038.000,A,3748.7865,N,12217.5582,W,2.15,202.41,101212,,,A*7A
$GPRMC,215039.000,A,3748.7860,N,12217.5592,W,2.77,203.93,101212,,,A*75
$GPRMC,215040.000,A,3748.7851,N,12217.5597,W,2.68,177.16,101212,,,A*7F
$GPRMC,215041.000,A,3748.7844,N,12217.5605,W,2.04,200.49,101212,,,A*71
$GPRMC,215042.000,A,3748.7837,N,12217.5611,W,1.79,218.74,101212,,,A*7D
$GPRMC,215043.000,A,3748.7834,N,12217.5619,W,2.18,235.90,101212,,,A*76
$GPRMC,215044.000,A,3748.7831,N,12217.5619,W,2.28,240.49,101212,,,A*71
$GPRMC,215045.000,A,3748.7825,N,12217.5628,W,1.97,233.91,101212,,,A*71
$GPRMC,215046.000,A,3748.7817,N,12217.5629,W,1.72,208.04,101212,,,A*7D
$GPRMC,215047.000,A,3748.7810,N,12217.5632,W,2.14,189.31,101212,,,A*7E
$GPRMC,215048.000,A,3748.7805,N,12217.5638,W,2.34,209.39,101212,,,A*7E
$GPRMC,215049.000,A,3748.7796,N,12217.5643,W,2.29,214.98,101212,,,A*7D
$GPRMC,215050.000,A,3748.7789,N,12217.5645,W,2.15,212.60,101212,,,A*73
$GPRMC,215051.000,A,3748.7782,N,12217.5650,W,2.50,209.45,101212,,,A*71
$GPRMC,215052.000,A,3748.7775,N,12217.5661,W,2.70,209.25,101212,,,A*7C
$GPRMC,215053.000,A,3748.7768,N,12217.5667,W,2.48,200.96,101212,,,A*7D
$GPRMC,215054.000,A,3748.7764,N,12217.5674,W,2.10,212.06,101212,,,A*73
$GPRMC,215055.000,A,3748.7759,N,12217.5676,W,2.16,223.88,101212,,,A*7C
$GPRMC,215056.000,A,3748.7754,N,12217.5685,W,2.01,234.03,101212,,,A*7D
$GPRMC,215057.000,A,3748.7750,N,12217.5691,W,2.50,228.50,101212,,,A*72
$GPRMC,215058.000,A,3748.7748,N,12217.5702,W,2.27,219.41,101212,,,A*7D
$GPRMC,215059.000,A,3748.7745,N,12217.5714,W,1.62,225.88,101212,,,A*7E
$GPRMC,215100.000,A,3748.7736,N,12217.5713,W,1.93,188.21,101212,,,A*79
$GPRMC,215101.000,A,3748.7727,N,12217.5722,W,2.40,209.74,101212,,,A*7D
$GPRMC,215102.000,A,3748.7719,N,12217.5731,W,1.98,227.66,101212,,,A*78
$GPRMC,215103.000,A,3748.7716,N,12217.5739,W,2.18,246.71,101212,,,A*74
$GPRMC,215104.000,A,3748.7712,N,12217.5749,W,2.34,241.75,101212,,,A*7D
$GPRMC,215105.000,A,3748.7712,N,12217.5761,W,3.14,273.85,101212,,,A*7B
$GPRMC,215106.000,A,3748.7710,N,12217.5772,W,2.57,255.07,101212,,,A*70
$GPRMC,215107.000,A,3748.7706,N,12217.5779,W,2.33,222.02,101212,,,A*7A
$GPRMC,215108.000,A,3748.7698,N,12217.5782,W,2.68,211.45,101212,,,A*7A
$GPRMC,215109.000,A,3748.7690,N,12217.5790,W,2.96,205.90,101212,,,A*7C
$GPRMC,215110.000,A,3748.7682,N,12217.5793,W,2.11,203.75,101212,,,A*76
$GPRMC,215111.000,A,3748.7676,N,12217.5796,W,1.67,213.97,101212,,,A*76
$GPRMC,215112.000,A,3748.7671,N,12217.5802,W,1.85,209.15,101212,,,A*7D
$GPRMC,215113.000,A,3748.7665,N,12217.5804,W,1.56,199.36,101212,,,A*7A
$GPRMC,215114.000,A,3748.7660,N,12217.5807,W,1.66,204.54,101212,,,A*7B
$GPRMC,215115.000,A,3748.7657,N,12217.5808,W,1.56,196.96,101212,,,A*74
$GPRMC,215116.000,A,3748.7651,N,12217.5814,W,1.72,208.54,101212,,,A*70
$GPRMC,215117.000,A,3748.7648,N,12217.5818,W,1.79,205.98,101212,,,A*73
$GPRMC,215118.000,A,3748.7642,N,12217.5824,W,1.83,201.57,101212,,,A*7B
$GPRMC,215119.000,A,3748.7635,N,12217.5829,W,1.62,194.14,101212,,,A*70
$GPRMC,215120.000,A,3748.7628,N,12217.5831,W,1.90,187.51,101212,,,A*71
$GPRMC,215121.000,A,3748.7618,N,12217.5833,W,2.13,210.68,101212,,,A*7E
$GPRMC,215122.000,A,3748.7613,N,12217.5840,W,2.24,215.83,101212,,,A*76
$GPRMC,215123.000,A,3748.7607,N,12217.5849,W,2.41,223.30,101212,,,A*75
$GPRMC,215124.000,A,3748.7600,N,12217.5848,W,1.86,193.08,101212,,,A*7F
$GPRMC,215125.000,A,3748.7591,N,12217.5854,W,1.61,196.38,101212,,,A*77
$GPRMC,215126.000,A,3748.7579,N,12217.5852,W,1.60,204.75,101212,,,A*74
$GPRMC,215127.000,A,3748.7566,N,12217.5859,W,1.72,205.19,101212,,,A*78
$GPRMC,215128.000,A,3748.7556,N,12217.5865,W,2.20,187.83,101212,,,A*75
$GPRMC,215129.000,A,3748.7546,N,12217.5875,W,1.63,201.68,101212,,,A*78
$GPRMC,215130.000,A,3748.7538,N,12217.5881,W,1.57,221.18,101212,,,A*70
$GPRMC,215131.000,A,3748.7536,N,12217.5883,W,1.64,227.34,101212,,,A*75
$GPRMC,215132.000,A,3748.7526,N,12217.5885,W,1.81,193.35,101212,,,A*77
$GPRMC,215133.000,A,3748.7517,N,12217.5886,W,1.82,173.72,101212,,,A*79
$GPRMC,215134.000,A,3748.7511,N,12217.5887,W,1.94,160.48,101212,,,A*75
$GPRMC,215135.000,A,3748.7504,N,12217.5891,W,1.75,148.16,101212,,,A*79
$GPRMC,215136.000,A,3748.7499,N,12217.5891,W,1.46,173.98,101212,,,A*71
$GPRMC,215137.000,A,3748.7494,N,12217.5897,W,1.31,229.91,101212,,,A*7E
$GPRMC,215138.000,A,3748.7490,N,12217.5902,W,2.09,226.67,101212,,,A*76
$GPRMC,215139.000,A,3748.7486,N,12217.5916,W,2.90,213.74,101212,,,A*71
$GPRMC,215140.000,A,3748.7476,N,12217.5922,W,2.02,188.65,101212,,,A*7D
$GPRMC,215141.000,A,3748.7468,N,12217.5930,W,1.74,214.19,101212,,,A*7F
$GPRMC,215142.000,A,3748.7467,N,12217.5935,W,1.35,210.40,101212,,,A*7B
$GPRMC,215143.000,A,3748.7465,N,12217.5938,W,0.86,185.33,101212,,,A*77
$GPRMC,215144.000,A,3748.7464,N,12217.5941,W,1.84,184.79,101212,,,A*73
$GPRMC,215145.000,A,3748.7460,N,12217.5945,W,1.30,189.52,101212,,,A*79
$GPRMC,215146.000,A,3748.7457,N,12217.5948,W,1.29,198.26,101212,,,A*78
$GPRMC,215147.000,A,3748.7446,N,12217.5956,W,1.68,187.01,101212,,,A*78
$GPRMC,215148.000,A,3748.7438,N,12217.5959,W,1.99,168.40,101212,,,A*7B
$GPRMC,215149.000,A,3748.7426,N,12217.5954,W,1.72,169.33,101212,,,A*78
$GPRMC,215150.000,A,3748.7417,N,12217.5958,W,1.37,211.45,101212,,,A*72
$GPRMC,215151.000,A,3748.7406,N,12217.5966,W,1.93,206.75,101212,,,A*75
$GPRMC,215152.000,A,3748.7400,N,12217.5976,W,1.30,216.03,101212,,,A*78
$GPRMC,215153.000,A,3748.7397,N,12217.5983,W,1.31,222.89,101212,,,A*7E
$GPRMC,215154.000,A,3748.7393,N,12217.5988,W,1.91,209.26,101212,,,A*70
$GPRMC,215155.000,A,3748.7384,N,12217.5996,W,2.17,211.73,101212,,,A*7C
$GPRMC,215156.000,A,3748.7381,N,12217.6003,W,1.76,212.13,101212,,,A*7D
$GPRMC,215157.000,A,3748.7374,N,12217.6008,W,1.75,223.17,101212,,,A*78
$GPRMC,215158.000,A,3748.7366,N,12217.6009,W,1.67,207.47,101212,,,A*75
$GPRMC,215159.000,A,3748.7362,N,12217.6011,W,1.56,219.47,101212,,,A*74
$GPRMC,215200.000,A,3748.7360,N,12217.6017,W,1.80,216.39,101212,,,A*72
$GPRMC,215201.000,A,3748.7354,N,12217.6023,W,1.69,203.34,101212,,,A*7D
$GPRMC,215202.000,A,3748.7348,N,12217.6031,W,1.87,223.12,101212,,,A*76
$GPRMC,215203.000,A,3748.7340,N,12217.6038,W,2.34,223.93,101212,,,A*74
$GPRMC,215204.000,A,3748.7336,N,12217.6048,W,1.78,238.21,101212,,,A*7D
$GPRMC,215205.000,A,3748.7329,N,12217.6053,W,2.74,210.32,101212,,,A*7F
$GPRMC,215206.000,A,3748.7324,N,12217.6060,W,2.53,213.90,101212,,,A*7F
$GPRMC,215207.000,A,3748.7322,N,12217.6071,W,2.56,236.90,101212,,,A*7A
$GPRMC,215208.000,A,3748.7316,N,12217.6079,W,2.73,214.30,101212,,,A*77
$GPRMC,215209.000,A,3748.7305,N,12217.6081,W,2.26,206.81,101212,,,A*7A
$GPRMC,215210.000,A,3748.7294,N,12217.6086,W,2.19,215.14,101212,,,A*7E
$GPRMC,215211.000,A,3748.7286,N,12217.6088,W,2.38,200.57,101212,,,A*72
$GPRMC,215212.000,A,3748.7278,N,12217.6092,W,1.68,211.11,101212,,,A*7F
$GPRMC,215213.000,A,3748.7274,N,12217.6099,W,1.65,204.25,101212,,,A*77
$GPRMC,215214.000,A,3748.7271,N,12217.6102,W,1.84,204.32,101212,,,A*7F
$GPRMC,215215.000,A,3748.7263,N,12217.6107,W,1.99,206.65,101212,,,A*74
$GPRMC,215216.000,A,3748.7259,N,12217.6110,W,1.43,204.35,101212,,,A*78
$GPRMC,215217.000,A,3748.7255,N,12217.6117,W,2.10,214.79,101212,,,A*7E
$GPRMC,215218.000,A,3748.7247,N,12217.6122,W,1.63,191.88,101212,,,A*73
$GPRMC,215219.000,A,3748.7242,N,12217.6127,W,1.67,193.63,101212,,,A*71
$GPRMC,215220.000,A,3748.7236,N,12217.6129,W,1.49,181.94,101212,,,A*71
$GPRMC,215221.000,A,3748.7232,N,12217.6133,W,1.43,192.40,101212,,,A*7E
$GPRMC,215222.000,A,3748.7225,N,12217.6137,W,1.91,197.02,101212,,,A*73
$GPRMC,215223.000,A,3748.7219,N,12217.6141,W,1.67,185.55,101212,,,A*74
$GPRMC,215224.000,A,3748.7215,N,12217.6144,W,1.21,190.65,101212,,,A*7F
$GPRMC,215225.000,A,3748.7210,N,12217.6147,W,1.50,188.22,101212,,,A*74
$GPRMC,215226.000,A,3748.7204,N,12217.6151,W,1.33,188.59,101212,,,A*7C
$GPRMC,215227.000,A,3748.7199,N,12217.6154,W,1.53,184.14,101212,,,A*7C
$GPRMC,215228.000,A,3748.7195,N,12217.6154,W,1.47,175.95,101212,,,A*7D
$GPRMC,215229.000,A,3748.7189,N,12217.6158,W,1.12,183.52,101212,,,A*7F
$GPRMC,215230.000,A,3748.7183,N,12217.6164,W,1.46,199.38,101212,,,A*74
$GPRMC,215231.000,A,3748.7180,N,12217.6168,W,1.43,193.76,101212,,,A*7F
$GPRMC,215232.000,A,3748.7176,N,12217.6171,W,0.83,213.80,101212,,,A*72
$GPRMC,215233.000,A,3748.7172,N,12217.6174,W,1.22,199.71,101212,,,A*77
$GPRMC,215234.000,A,3748.7165,N,12217.6179,W,1.42,195.30,101212,,,A*74
$GPRMC,215235.000,A,3748.7159,N,12217.6180,W,1.34,163.82,101212,,,A*7D
$GPRMC,215236.000,A,3748.7149,N,12217.6187,W,1.51,181.72,101212,,,A*78
$GPRMC,215237.000,A,3748.7146,N,12217.6191,W,1.01,183.71,101212,,,A*75
$GPRMC,215238.000,A,3748.7137,N,12217.6196,W,1.35,187.07,101212,,,A*79
$GPRMC,215239.000,A,3748.7132,N,12217.6205,W,0.75,214.27,101212,,,A*7A
$GPRMC,215240.000,A,3748.7124,N,12217.6211,W,1.13,201.56,101212,,,A*75
$GPRMC,215241.000,A,3748.7115,N,12217.6216,W,1.72,189.46,101212,,,A*74
$GPRMC,215242.000,A,3748.7109,N,12217.6217,W,1.57,184.55,101212,,,A*73
$GPRMC,215243.000,A,3748.7109,N,12217.6218,W,0.10,15.95,101212,,,A*4A
$GPRMC,215244.000,A,3748.7110,N,12217.6217,W,0.48,79.21,101212,,,A*42
$GPRMC,215245.000,A,3748.7108,N,12217.6218,W,0.94,96.12,101212,,,A*45
$GPRMC,215246.000,A,3748.7103,N,12217.6217,W,0.91,173.55,101212,,,A*7E
$GPRMC,215247.000,A,3748.7099,N,12217.6220,W,1.26,192.37,101212,,,A*7F
$GPRMC,215248.000,A,3748.7096,N,12217.6226,W,1.11,199.12,101212,,,A*71
$GPRMC,215249.000,A,3748.7090,N,12217.6231,W,0.74,192.46,101212,,,A*78
$GPRMC,215250.000,A,3748.7087,N,12217.6234,W,1.60,192.80,101212,,,A*7D
$GPRMC,215251.000,A,3748.7078,N,12217.6237,W,1.55,174.83,101212,,,A*72
$GPRMC,215252.000,A,3748.7074,N,12217.6243,W,1.80,203.46,101212,,,A*7C
$GPRMC,215253.000,A,3748.7072,N,12217.6249,W,1.04,228.84,101212,,,A*7A
$GPRMC,215254.000,A,3748.7062,N,12217.6255,W,1.73,200.65,101212,,,A*74
$GPRMC,215255.000,A,3748.7051,N,12217.6263,W,1.80,193.90,101212,,,A*7F
$GPRMC,215256.000,A,3748.7044,N,12217.6268,W,1.56,204.56,101212,,,A*7F
$GPRMC,215257.000,A,3748.7037,N,12217.6274,W,1.58,211.14,101212,,,A*7B
$GPRMC,215258.000,A,3748.7034,N,12217.6278,W,1.52,218.30,101212,,,A*7E
$GPRMC,215259.000,A,3748.7029,N,12217.6286,W,1.92,209.43,101212,,,A*7A
$GPRMC,215300.000,A,3748.7023,N,12217.6298,W,2.04,212.25,101212,,,A*74
$GPRMC,215301.000,A,3748.7017,N,12217.6305,W,1.78,213.93,101212,,,A*73
$GPRMC,215302.000,A,3748.7013,N,12217.6309,W,1.42,217.54,101212,,,A*7E
$GPRMC,215303.000,A,3748.7008,N,12217.6315,W,1.01,238.45,101212,,,A*72
$GPRMC,215304.000,A,3748.7001,N,12217.6319,W,1.27,209.00,101212,,,A*77
$GPRMC,215305.000,A,3748.6996,N,12217.6323,W,1.77,212.01,101212,,,A*77
$GPRMC,215306.000,A,3748.6991,N,12217.6329,W,1.90,225.75,101212,,,A*77
$GPRMC,215307.000,A,3748.6990,N,12217.6342,W,2.01,223.34,101212,,,A*72
$GPRMC,215308.000,A,3748.6982,N,12217.6346,W,2.24,209.77,101212,,,A*72
$GPRMC,215309.000,A,3748.6972,N,12217.6352,W,2.10,208.74,101212,,,A*7C
$GPRMC,215310.000,A,3748.6963,N,12217.6358,W,2.21,204.11,101212,,,A*73
$GPRMC,215311.000,A,3748.6955,N,12217.6363,W,2.07,203.57,101212,,,A*7E
$GPRMC,215312.000,A,3748.6951,N,12217.6366,W,1.54,186.38,101212,,,A*7E
$GPRMC,215313.000,A,3748.6943,N,12217.6368,W,1.65,204.75,101212,,,A*70
$GPRMC,215314.000,A,3748.6940,N,12217.6374,W,1.70,222.06,101212,,,A*7D
$GPRMC,215315.000,A,3748.6935,N,12217.6380,W,1.92,219.41,101212,,,A*72
$GPRMC,215316.000,A,3748.6928,N,12217.6385,W,1.77,218.94,101212,,,A*7A
$GPRMC,215317.000,A,3748.6922,N,12217.6390,W,1.91,210.78,101212,,,A*77
$GPRMC,215318.000,A,3748.6918,N,12217.6393,W,1.54,216.25,101212,,,A*75
$GPRMC,215319.000,A,3748.6912,N,12217.6397,W,1.55,195.56,101212,,,A*77
$GPRMC,215320.000,A,3748.6906,N,12217.6401,W,1.46,207.75,101212,,,A*7B
$GPRMC,215321.000,A,3748.6903,N,12217.6408,W,1.72,219.05,101212,,,A*79
$GPRMC,215322.000,A,3748.6896,N,12217.6416,W,1.79,207.37,101212,,,A*7D
$GPRMC,215323.000,A,3748.6891,N,12217.6419,W,2.09,190.22,101212,,,A*79
$GPRMC,215324.000,A,3748.6883,N,12217.6423,W,1.98,196.57,101212,,,A*7B
$GPRMC,215325.000,A,3748.6875,N,12217.6423,W,1.68,211.47,101212,,,A*71
$GPRMC,215326.000,A,3748.6870,N,12217.6430,W,1.83,220.78,101212,,,A*7E
$GPRMC,215327.000,A,3748.6864,N,12217.6438,W,1.89,221.65,101212,,,A*75
$GPRMC,215328.000,A,3748.6857,N,12217.6444,W,2.40,204.61,101212,,,A*74
$GPRMC,215329.000,A,3748.6850,N,12217.6448,W,1.85,194.06,101212,,,A*7F
$GPRMC,215330.000,A,3748.6846,N,12217.6451,W,2.01,208.06,101212,,,A*71
$GPRMC,215331.000,A,3748.6841,N,12217.6455,W,1.74,209.75,101212,,,A*77
$GPRMC,215332.000,A,3748.6835,N,12217.6460,W,2.21,199.42,101212,,,A*7C
$GPRMC,215333.000,A,3748.6828,N,12217.6466,W,1.58,204.78,101212,,,A*74
$GPRMC,215334.000,A,3748.6824,N,12217.6469,W,1.19,173.97,101212,,,A*77
$GPRMC,215335.000,A,3748.6817,N,12217.6474,W,1.23,190.71,101212,,,A*76
$GPRMC,215336.000,A,3748.6810,N,12217.6477,W,1.23,189.23,101212,,,A*7E
$GPRMC,215337.000,A,3748.6804,N,12217.6470,W,0.39,208.57,101212,,,A*7E
$GPRMC,215338.000,A,3748.6807,N,12217.6467,W,0.84,319.96,101212,,,A*7E
$GPRMC,215339.000,A,3748.6813,N,12217.6463,W,2.26,4.11,101212,,,A*74
$GPRMC,215340.000,A,3748.6821,N,12217.6460,W,2.73,0.50,101212,,,A*79
$GPRMC,215341.000,A,3748.6828,N,12217.6455,W,2.67,2.92,101212,,,A*7E
$GPRMC,215342.000,A,3748.6835,N,12217.6449,W,2.66,22.70,101212,,,A*43
$GPRMC,215343.000,A,3748.6842,N,12217.6444,W,2.67,12.33,101212,,,A*4A
$GPRMC,215344.000,A,3748.6850,N,12217.6443,W,2.71,10.46,101212,,,A*4E
$GPRMC,215345.000,A,3748.6858,N,12217.6439,W,2.55,12.75,101212,,,A*4E
$GPRMC,215346.000,A,3748.6865,N,12217.6434,W,2.67,9.56,101212,,,A*74
$GPRMC,215347.000,A,3748.6871,N,12217.6426,W,2.61,21.82,101212,,,A*46
$GPRMC,215348.000,A,3748.6879,N,12217.6419,W,3.51,27.11,101212,,,A*43
$GPRMC,215349.000,A,3748.6885,N,12217.6410,W,2.73,24.46,101212,,,A*48
$GPRMC,215350.000,A,3748.6892,N,12217.6408,W,2.62,14.45,101212,,,A*4F
$GPRMC,215351.000,A,3748.6900,N,12217.6408,W,2.85,11.96,101212,,,A*46
$GPRMC,215352.000,A,3748.6907,N,12217.6405,W,2.42,12.25,101212,,,A*4F
$GPRMC,215353.000,A,3748.6912,N,12217.6399,W,2.46,19.42,101212,,,A*46
$GPRMC,215354.000,A,3748.6918,N,12217.6395,W,2.56,3.21,101212,,,A*78
$GPRMC,215355.000,A,3748.6924,N,12217.6392,W,2.41,8.95,101212,,,A*73
$GPRMC,215356.000,A,3748.6929,N,12217.6386,W,2.44,16.85,101212,,,A*43
$GPRMC,215357.000,A,3748.6937,N,12217.6381,W,2.66,6.68,101212,,,A*78
$GPRMC,215358.000,A,3748.6943,N,12217.6374,W,2.53,7.85,101212,,,A*7A
$GPRMC,215359.000,A,3748.6948,N,12217.6366,W,2.46,24.66,101212,,,A*4B
$GPRMC,215400.000,A,3748.6954,N,12217.6361,W,2.69,4.12,101212,,,A*76
$GPRMC,215401.000,A,3748.6960,N,12217.6356,W,2.40,4.85,101212,,,A*71
$GPRMC,215402.000,A,3748.6966,N,12217.6351,W,2.47,3.72,101212,,,A*7B
$GPRMC,215403.000,A,3748.6972,N,12217.6345,W,1.89,17.17,101212,,,A*4D
$GPRMC,215404.000,A,3748.6977,N,12217.6344,W,2.24,2.02,101212,,,A*7A
$GPRMC,215405.000,A,3748.6982,N,12217.6338,W,2.53,350.47,101212,,,A*7F
$GPRMC,215406.000,A,3748.6987,N,12217.6337,W,1.57,342.31,101212,,,A*73
$GPRMC,215407.000,A,3748.6993,N,12217.6334,W,1.64,344.22,101212,,,A*70
$GPRMC,215408.000,A,3748.6991,N,12217.6329,W,0.09,221.03,101212,,,A*7A
$GPRMC,215409.000,A,3748.6987,N,12217.6325,W,0.70,154.20,101212,,,A*7E
$GPRMC,215410.000,A,3748.6984,N,12217.6321,W,0.83,130.26,101212,,,A*79
$GPRMC,215411.000,A,3748.6982,N,12217.6326,W,1.28,224.86,101212,,,A*75
$GPRMC,215412.000,A,3748.6978,N,12217.6331,W,1.69,236.44,101212,,,A*7D
$GPRMC,215413.000,A,3748.6974,N,12217.6337,W,1.53,232.68,101212,,,A*75
$GPRMC,215414.000,A,3748.6970,N,12217.6340,W,1.66,207.59,101212,,,A*74
$GPRMC,215415.000,A,3748.6963,N,12217.6345,W,1.54,196.38,101212,,,A*7F
$GPRMC,215416.000,A,3748.6957,N,12217.6351,W,1.70,194.87,101212,,,A*7E
$GPRMC,215417.000,A,3748.6950,N,12217.6356,W,2.03,215.03,101212,,,A*7E
$GPRMC,215418.000,A,3748.6945,N,12217.6364,W,2.05,214.61,101212,,,A*77
$GPRMC,215419.000,A,3748.6939,N,12217.6369,W,1.93,216.19,101212,,,A*71
$GPRMC,215420.000,A,3748.6933,N,12217.6374,W,1.53,208.65,101212,,,A*75
$GPRMC,215421.000,A,3748.6927,N,12217.6377,W,1.61,203.03,101212,,,A*78
$GPRMC,215422.000,A,3748.6917,N,12217.6383,W,1.64,225.13,101212,,,A*73
$GPRMC,215423.000,A,3748.6911,N,12217.6391,W,2.09,208.22,101212,,,A*72
$GPRMC,215424.000,A,3748.6905,N,12217.6398,W,2.03,221.37,101212,,,A*7C
$GPRMC,215425.000,A,3748.6902,N,12217.6403,W,2.11,220.67,101212,,,A*78
$GPRMC,215426.000,A,3748.6897,N,12217.6407,W,1.64,222.67,101212,,,A*71
$GPRMC,215427.000,A,3748.6889,N,12217.6413,W,2.33,212.72,101212,,,A*7C
$GPRMC,215428.000,A,3748.6879,N,12217.6424,W,2.98,218.07,101212,,,A*71
$GPRMC,215429.000,A,3748.6872,N,12217.6437,W,2.60,218.84,101212,,,A*75
$GPRMC,215430.000,A,3748.6867,N,12217.6447,W,1.90,224.59,101212,,,A*7D
$GPRMC,215431.000,A,3748.6865,N,12217.6450,W,1.95,221.15,101212,,,A*70
$GPRMC,215432.000,A,3748.6862,N,12217.6457,W,1.83,215.57,101212,,,A*75
$GPRMC,215433.000,A,3748.6854,N,12217.6466,W,2.28,206.23,101212,,,A*70
$GPRMC,215434.000,A,3748.6846,N,12217.6471,W,2.29,200.75,101212,,,A*76
$GPRMC,215435.000,A,3748.6839,N,12217.6475,W,2.40,198.75,101212,,,A*76
$GPRMC,215436.000,A,3748.6831,N,12217.6481,W,1.95,199.98,101212,,,A*7F
$GPRMC,215437.000,A,3748.6825,N,12217.6487,W,1.67,215.90,101212,,,A*7F
$GPRMC,215438.000,A,3748.6821,N,12217.6490,W,1.48,213.86,101212,,,A*7E
$GPRMC,215439.000,A,3748.6819,N,12217.6490,W,1.97,200.62,101212,,,A*7E
$GPRMC,215440.000,A,3748.6815,N,12217.6491,W,1.21,179.38,101212,,,A*72
$GPRMC,215441.000,A,3748.6813,N,12217.6490,W,0.98,147.53,101212,,,A*77
$GPRMC,215442.000,A,3748.6807,N,12217.6491,W,1.23,195.52,101212,,,A*7F
$GPRMC,215443.000,A,3748.6803,N,12217.6491,W,1.28,202.21,101212,,,A*78
