$ADVER,3080,2.3
$GPRMC,201722.642,A,3747.7107,N,12215.4763,W,1.34,207.79,230412,,,A*76
$GPGGA,201723.642,3747.7085,N,12215.4781,W,1,04,2.2,16.7,M,-25.1,M,,0000*56
$GPGSA,A,3,07,16,20,13,,,,,,,,,3.4,2.2,2.6*31
$GPRMC,201723.642,A,3747.7085,N,12215.4781,W,1.00,207.59,230412,,,A*75
$GPVTG,207.59,T,,M,1.00,N,1.8,K,A*0C
$GPGGA,201724.642,3747.7102,N,12215.4760,W,1,04,2.2,4.5,M,-25.1,M,,0000*61
$GPGSA,A,3,07,16,20,13,,,,,,,,,3.4,2.2,2.6*31
$GPRMC,201724.642,A,3747.7102,N,12215.4760,W,0.48,203.24,230412,,,A*70
$GPVTG,203.24,T,,M,0.48,N,0.9,K,A*0F
$GPGGA,201725.000,3747.7100,N,12215.4758,W,1,04,2.2,3.8,M,-25.1,M,,0000*63
$GPGSA,A,3,07,16,20,13,,,,,,,,,3.4,2.2,2.6*31
$GPGSV,3,1,12,20,77,214,21,16,41,121,37,13,29,290,24,07,15,230,32*7D
$GPGSV,3,2,12,23,57,316,23,30,44,081,14,31,17,046,,01,14,205,23*76
$GPGSV,3,3,12,04,12,311,14,11,00,194,17,10,00,317,,48,44,197,32*77
$GPRMC,201725.000,A,3747.7100,N,12215.4758,W,0.53,224.26,230412,,,A*75
$GPVTG,224.26,T,,M,0.53,N,1.0,K,A*0A
$GPGGA,201726.000,3747.7101,N,12215.4765,W,1,04,2.2,6.8,M,-25.1,M,,0000*6A
$GPGSA,A,3,07,16,20,13,,,,,,,,,3.4,2.2,2.6*31
$GPRMC,201726.000,A,3747.7101,N,12215.4765,W,0.54,205.22,230412,,,A*79
$GPVTG,205.22,T,,M,0.54,N,1.0,K,A*0A
$GPGGA,201727.000,3747.7116,N,12215.4761,W,1,04,2.2,2.9,M,-25.1,M,,0000*6C
$GPGSA,A,3,07,16,20,13,,,,,,,,,3.4,2.2,2.6*31
$GPRMC,201727.000,A,3747.7116,N,12215.4761,W,0.35,193.28,230412,,,A*7B
$GPVTG,193.28,T,,M,0.35,N,0.6,K,A*0C
$GPGGA,201728.000,3747.7124,N,12215.4753,W,1,04,2.2,-2.1,M,-25.1,M,,0000*46
$GPGSA,A,3,07,16,20,13,,,,,,,,,3.4,2.2,2.6*31
$GPRMC,201728.000,A,3747.7124,N,12215.4753,W,0.15,188.86,230412,,,A*78
$GPVTG,188.86,T,,M,0.15,N,0.3,K,A*05
$GPGGA,201729.000,3747.7130,N,12215.4750,W,1,04,2.2,-4.4,M,-25.1,M,,0000*42
$GPGSA,A,3,07,16,20,13,,,,,,,,,3.4,2.2,2.6*31
$GPRMC,201729.000,A,3747.7130,N,12215.4750,W,0.11,177.99,230412,,,A*75
$GPVTG,177.99,T,,M,0.11,N,0.2,K,A*0E
$GPGGA,201730.000,3747.7130,N,12215.4749,W,1,04,2.2,-5.4,M,-25.1,M,,0000*43
$GPGSA,A,3,07,16,20,13,,,,,,,,,3.4,2.2,2.6*31
$GPGSV,3,1,12,20,77,214,23,16,41,121,38,13,29,290,24,07,15,230,32*70
$GPGSV,3,2,12,23,57,316,23,30,44,081,,31,17,046,,01,14,205,23*73
$GPGSV,3,3,12,04,12,311,14,11,00,194,19,10,00,317,,48,44,197,33*78
$GPRMC,201730.000,A,3747.7130,N,12215.4749,W,0.24,156.72,230412,,,A*75
$GPGGA,201731.000,3747.7137,N,12215.4745,W,1,04,2.2,-7.8,M,-25.1,M,,0000*47
$GPGSA,A,3,07,16,20,13,,,,,,,,,3.4,2.2,2.6*31
$GPRMC,201731.000,A,3747.7137,N,12215.4745,W,0.13,23.16,230412,,,A*4A
$GPVTG,23.16,T,,M,0.13,N,0.2,K,A*3B
$GPGGA,201732.000,3747.7133,N,12215.4745,W,1,04,2.2,-7.5,M,-25.1,M,,0000*4D
$GPGSA,A,3,07,16,20,13,,,,,,,,,3.4,2.2,2.6*31
$GPRMC,201732.000,A,3747.7133,N,12215.4745,W,0.04,66.29,230412,,,A*46
$GPVTG,66.29,T,,M,0.04,N,0.1,K,A*33
$GPGGA,201733.000,3747.7128,N,12215.4743,W,1,04,2.2,-7.9,M,-25.1,M,,0000*4C
$GPGSA,A,3,07,16,20,13,,,,,,,,,3.4,2.2,2.6*31
$GPRMC,201733.000,A,3747.7128,N,12215.4743,W,0.23,158.54,230412,,,A*78
$GPVTG,158.54,T,,M,0.23,N,0.4,K,A*05
$GPGGA,201734.000,3747.7115,N,12215.4746,W,1,04,2.2,-5.2,M,-25.1,M,,0000*49
$GPGSA,A,3,07,16,20,13,,,,,,,,,3.4,2.2,2.6*31
$GPRMC,201734.000,A,3747.7115,N,12215.4746,W,0.50,186.29,230412,,,A*79
$GPVTG,186.29,T,,M,0.50,N,0.9,K,A*05
$GPGGA,201735.000,3747.7104,N,12215.4750,W,1,04,2.2,-2.4,M,-25.1,M,,0000*4E
$GPGSA,A,3,07,16,20,13,,,,,,,,,3.4,2.2,2.6*31
$GPGSV,3,1,12,20,77,214,26,16,41,121,37,13,29,290,30,07,15,230,32*7F
$GPGSV,3,2,12,23,57,316,27,30,44,081,,31,17,046,,01,14,205,24*70
$GPGSV,3,3,12,04,12,311,14,11,00,194,22,10,00,317,,48,44,197,29*7B
$GPRMC,201735.000,A,3747.7104,N,12215.4750,W,0.49,206.14,230412,,,A*72
$GPVTG,206.14,T,,M,0.49,N,0.9,K,A*08
$GPGGA,201736.000,3747.7095,N,12215.4752,W,1,04,2.2,-0.2,M,-25.1,M,,0000*42
$GPGSA,A,3,07,16,20,13,,,,,,,,,3.4,2.2,2.6*31
$GPRMC,201736.000,A,3747.7095,N,12215.4752,W,0.54,185.52,230412,,,A*7C
$GPVTG,185.52,T,,M,0.54,N,1.0,K,A*06
$GPGGA,201737.000,3747.7087,N,12215.4755,W,1,04,2.2,2.4,M,-25.1,M,,0000*6E
$GPGSA,A,3,07,16,20,13,,,,,,,,,3.4,2.2,2.6*31
$GPRMC,201737.000,A,3747.7087,N,12215.4755,W,0.62,208.35,230412,,,A*7B
$GPVTG,208.35,T,,M,0.62,N,1.1,K,A*05
$GPGGA,201738.000,3747.7083,N,12215.4757,W,1,04,2.2,3.3,M,-25.1,M,,0000*61
$GPGSA,A,3,07,16,20,13,,,,,,,,,3.4,2.2,2.6*31
$GPRMC,201738.000,A,3747.7083,N,12215.4757,W,0.69,238.48,230412,,,A*70
$GPVTG,238.48,T,,M,0.69,N,1.3,K,A*05
$GPGGA,201739.000,3747.7075,N,12215.4759,W,1,04,2.2,5.0,M,-25.1,M,,0000*62
$GPGSA,A,3,07,16,20,13,,,,,,,,,3.4,2.2,2.6*31
$GPRMC,201739.000,A,3747.7075,N,12215.4759,W,0.36,209.35,230412,,,A*74
$GPVTG,209.35,T,,M,0.36,N,0.7,K,A*02
$GPGGA,201740.000,3747.7069,N,12215.4763,W,1,04,2.2,7.9,M,-25.1,M,,0000*63
$GPGSA,A,3,07,16,20,13,,,,,,,,,3.4,2.2,2.6*31
$GPGSV,3,1,12,20,77,214,22,16,41,121,23,13,29,290,34,07,15,230,38*70
$GPGSV,3,2,12,23,57,316,30,30,44,081,,31,17,046,,01,14,205,19*78
$GPGSV,3,3,12,04,12,311,27,11,00,194,16,10,00,317,,48,44,197,29*7C
$GPRMC,201740.000,A,3747.7069,N,12215.4763,W,0.64,186.95,230412,,,A*77
$GPVTG,186.95,T,,M,0.64,N,1.2,K,A*0F
$GPGGA,201741.000,3747.7066,N,12215.4764,W,1,04,2.2,7.9,M,-25.1,M,,0000*6A
$GPGSA,A,3,07,16,20,13,,,,,,,,,3.4,2.2,2.6*31
$GPRMC,201741.000,A,3747.7066,N,12215.4764,W,1.05,231.93,230412,,,A*71
$GPVTG,231.93,T,,M,1.05,N,1.9,K,A*0B
$GPGGA,201742.000,3747.7061,N,12215.4768,W,1,04,2.2,9.4,M,-25.1,M,,0000*61
$GPGSA,A,3,07,16,20,13,,,,,,,,,3.4,2.2,2.6*31
$GPRMC,201742.000,A,3747.7061,N,12215.4768,W,0.91,208.48,230412,,,A*79
$GPVTG,208.48,T,,M,0.91,N,1.7,K,A*05
$GPGGA,201743.000,3747.7059,N,12215.4769,W,1,04,2.2,10.1,M,-25.1,M,,0000*57
$GPGSA,A,3,07,16,20,13,,,,,,,,,3.4,2.2,2.6*31
$GPRMC,201743.000,A,3747.7059,N,12215.4769,W,0.39,184.77,230412,,,A*7B
$GPVTG,184.77,T,,M,0.39,N,0.7,K,A*0D
$GPGGA,201744.000,3747.7054,N,12215.4770,W,1,04,2.2,11.5,M,-25.1,M,,0000*50
$GPGSA,A,3,07,16,20,13,,,,,,,,,3.4,2.2,2.6*31
$GPRMC,201744.000,A,3747.7054,N,12215.4770,W,0.64,205.78,230412,,,A*74
$GPVTG,205.78,T,,M,0.64,N,1.2,K,A*04
$GPGGA,201745.000,3747.7052,N,12215.4769,W,1,04,2.2,11.8,M,-25.1,M,,0000*52
$GPGSA,A,3,07,16,20,13,,,,,,,,,3.4,2.2,2.6*31
$GPGSV,3,1,12,20,77,214,24,16,41,121,26,13,29,290,34,07,15,230,37*7C
$GPGSV,3,2,12,23,57,316,24,30,44,081,18,31,17,046,,01,14,205,23*7D
$GPGSV,3,3,12,04,12,311,28,11,00,194,16,10,00,317,,48,44,197,37*7C
$GPRMC,201745.000,A,3747.7052,N,12215.4769,W,0.53,210.05,230412,,,A*71
$GPGGA,201746.000,3747.7048,N,12215.4772,W,1,04,2.2,13.8,M,-25.1,M,,0000*52
$GPGSA,A,3,07,16,20,13,,,,,,,,,3.4,2.2,2.6*31
$GPRMC,201746.000,A,3747.7048,N,12215.4772,W,0.62,221.82,230412,,,A*7C
$GPVTG,221.82,T,,M,0.62,N,1.1,K,A*02
$GPGGA,201747.000,3747.7049,N,12215.4771,W,1,04,2.2,12.5,M,-25.1,M,,0000*5D
$GPGSA,A,3,07,16,20,13,,,,,,,,,3.4,2.2,2.6*31
$GPRMC,201747.000,A,3747.7049,N,12215.4771,W,0.55,219.78,230412,,,A*75
$GPVTG,219.78,T,,M,0.55,N,1.0,K,A*09
$GPGGA,201748.000,3747.7048,N,12215.4773,W,1,04,2.2,12.9,M,-25.1,M,,0000*5D
$GPGSA,A,3,07,16,20,13,,,,,,,,,3.4,2.2,2.6*31
$GPRMC,201748.000,A,3747.7048,N,12215.4773,W,0.55,217.03,230412,,,A*7B
$GPVTG,217.03,T,,M,0.55,N,1.0,K,A*0B
$GPGGA,201749.000,3747.7045,N,12215.4775,W,1,04,2.2,14.1,M,-25.1,M,,0000*59
$GPGSA,A,3,07,16,20,13,,,,,,,,,3.4,2.2,2.6*31
$GPRMC,201749.000,A,3747.7045,N,12215.4775,W,0.50,217.26,230412,,,A*73
$GPVTG,217.26,T,,M,0.50,N,0.9,K,A*01
$GPGGA,201750.000,3747.7039,N,12215.4781,W,1,04,2.2,17.1,M,-25.1,M,,0000*52
$GPGSA,A,3,07,16,20,13,,,,,,,,,3.4,2.2,2.6*31
$GPGSV,3,1,12,20,77,214,24,16,41,121,30,13,29,290,34,07,15,230,35*79
$GPGSV,3,2,12,23,57,316,28,30,44,081,19,31,17,046,,01,14,205,25*76
$GPGSV,3,3,12,04,12,311,29,11,00,194,18,10,00,317,,48,44,197,38*7C
$GPRMC,201750.000,A,3747.7039,N,12215.4781,W,0.69,217.73,230412,,,A*71
$GPVTG,217.73,T,,M,0.69,N,1.3,K,A*00
$GPGGA,201751.000,3747.7037,N,12215.4783,W,1,04,2.2,18.1,M,-25.1,M,,0000*50
$GPGSA,A,3,07,16,20,13,,,,,,,,,3.4,2.2,2.6*31
$GPRMC,201751.000,A,3747.7037,N,12215.4783,W,0.63,222.41,230412,,,A*71
$GPVTG,222.41,T,,M,0.63,N,1.2,K,A*0C
$GPGGA,201752.000,3747.7035,N,12215.4785,W,1,05,2.0,17.3,M,-25.1,M,,0000*59
$GPGSA,A,3,07,16,20,13,23,,,,,,,,3.3,2.0,2.6*35
$GPRMC,201752.000,A,3747.7035,N,12215.4785,W,0.88,200.57,230412,,,A*74
$GPVTG,200.57,T,,M,0.88,N,1.6,K,A*0A
$GPGGA,201753.000,3747.7031,N,12215.4786,W,1,05,2.0,16.8,M,-25.1,M,,0000*55
$GPGSA,A,3,07,16,20,13,23,,,,,,,,3.3,2.0,2.6*35
$GPRMC,201753.000,A,3747.7031,N,12215.4786,W,0.59,198.81,230412,,,A*77
$GPVTG,198.81,T,,M,0.59,N,1.1,K,A*08
$GPGGA,201754.000,3747.7025,N,12215.4788,W,1,05,2.0,16.8,M,-25.1,M,,0000*59
$GPGSA,A,3,07,16,20,13,23,,,,,,,,3.3,2.0,2.6*35
$GPRMC,201754.000,A,3747.7025,N,12215.4788,W,0.53,207.07,230412,,,A*7A
$GPVTG,207.07,T,,M,0.53,N,1.0,K,A*08
$GPGGA,201755.000,3747.7018,N,12215.4791,W,1,05,2.0,17.3,M,-25.1,M,,0000*54
$GPGSA,A,3,07,16,20,13,23,,,,,,,,3.3,2.0,2.6*35
$GPGSV,3,1,12,20,77,213,18,23,57,317,30,30,44,081,20,16,41,120,28*75
$GPGSV,3,2,12,13,29,290,33,31,17,046,,07,15,231,40,01,14,205,24*7D
$GPGSV,3,3,12,04,12,311,29,11,00,194,18,10,00,317,,48,44,197,34*70
$GPRMC,201755.000,A,3747.7018,N,12215.4791,W,0.49,204.38,230412,,,A*79
$GPVTG,204.38,T,,M,0.49,N,0.9,K,A*04
$GPGGA,201756.000,3747.7011,N,12215.4785,W,1,05,2.0,16.8,M,-25.1,M,,0000*51
$GPGSA,A,3,07,16,20,13,23,,,,,,,,3.3,2.0,2.6*35
$GPRMC,201756.000,A,3747.7011,N,12215.4785,W,0.50,181.98,230412,,,A*7A
$GPVTG,181.98,T,,M,0.50,N,0.9,K,A*08
$GPGGA,201757.000,3747.7006,N,12215.4779,W,1,05,2.0,16.0,M,-25.1,M,,0000*5D
$GPGSA,A,3,07,16,20,13,23,,,,,,,,3.3,2.0,2.6*35
$GPRMC,201757.000,A,3747.7006,N,12215.4779,W,0.57,148.81,230412,,,A*74
$GPVTG,148.81,T,,M,0.57,N,1.1,K,A*0B
$GPGGA,201758.000,3747.7000,N,12215.4780,W,1,05,2.0,17.0,M,-25.1,M,,0000*53
$GPGSA,A,3,07,16,20,13,23,,,,,,,,3.3,2.0,2.6*35
$GPRMC,201758.000,A,3747.7000,N,12215.4780,W,0.40,184.71,230412,,,A*72
$GPVTG,184.71,T,,M,0.40,N,0.7,K,A*05
$GPGGA,201759.000,3747.6995,N,12215.4778,W,1,05,2.0,17.0,M,-25.1,M,,0000*51
$GPGSA,A,3,07,16,20,13,23,,,,,,,,3.3,2.0,2.6*35
$GPRMC,201759.000,A,3747.6995,N,12215.4778,W,0.42,197.57,230412,,,A*74
$GPVTG,197.57,T,,M,0.42,N,0.8,K,A*0E
$GPGGA,201800.000,3747.6994,N,12215.4773,W,2,05,2.0,16.0,M,-25.1,M,1.8,0000*7D
$GPGSA,A,3,07,16,20,13,23,,,,,,,,3.3,2.0,2.6*35
$GPGSV,3,1,12,20,77,213,20,23,57,317,28,30,44,081,19,16,41,120,24*71
$GPGSV,3,2,12,13,29,290,27,31,17,046,,07,15,231,33,01,14,205,20*78
$GPGSV,3,3,12,04,12,311,30,11,00,194,18,10,00,317,,48,44,197,27*7A
$GPRMC,201800.000,A,3747.6994,N,12215.4773,W,0.28,181.91,230412,,,D*79
$GPGGA,201801.000,3747.6995,N,12215.4767,W,2,05,2.0,14.4,M,-25.1,M,2.8,0000*7D
$GPGSA,A,3,07,16,20,13,23,,,,,,,,3.3,2.0,2.6*35
$GPRMC,201801.000,A,3747.6995,N,12215.4767,W,0.44,114.26,230412,,,D*76
$GPVTG,114.26,T,,M,0.44,N,0.8,K,D*00
$GPGGA,201802.000,3747.6995,N,12215.4763,W,2,05,2.0,13.1,M,-25.1,M,1.8,0000*7B
$GPGSA,A,3,07,16,20,13,23,,,,,,,,3.3,2.0,2.6*35
$GPRMC,201802.000,A,3747.6995,N,12215.4763,W,0.32,108.42,230412,,,D*7F
$GPVTG,108.42,T,,M,0.32,N,0.6,K,D*00
$GPGGA,201803.000,3747.6997,N,12215.4764,W,2,05,2.0,12.0,M,-25.1,M,2.8,0000*7C
$GPGSA,A,3,07,16,20,13,23,,,,,,,,3.3,2.0,2.6*35
$GPRMC,201803.000,A,3747.6997,N,12215.4764,W,0.09,80.34,230412,,,D*43
$GPVTG,80.34,T,,M,0.09,N,0.2,K,D*3C
$GPGGA,201804.000,3747.6997,N,12215.4765,W,2,04,3.8,11.7,M,-25.1,M,3.8,0000*77
$GPGSA,A,3,07,16,13,23,,,,,,,,,8.1,3.8,7.1*35
$GPRMC,201804.000,A,3747.6997,N,12215.4765,W,0.23,93.68,230412,,,D*46
$GPVTG,93.68,T,,M,0.23,N,0.4,K,D*39
$GPGGA,201805.000,3747.6997,N,12215.4764,W,2,05,2.0,10.9,M,-25.1,M,1.8,0000*72
$GPGSA,A,3,07,16,20,13,23,,,,,,,,3.3,2.0,2.6*35
$GPGSV,3,1,12,20,77,213,25,23,57,317,29,30,44,081,20,16,41,120,30*7A
$GPGSV,3,2,12,13,29,290,32,31,17,046,,07,15,231,39,01,14,205,19*7C
$GPGSV,3,3,12,04,12,311,30,11,00,194,23,10,00,317,,48,44,197,33*77
$GPRMC,201805.000,A,3747.6997,N,12215.4764,W,0.06,349.68,230412,,,D*75
$GPVTG,349.68,T,,M,0.06,N,0.1,K,D*0F
$GPGGA,201806.000,3747.6994,N,12215.4765,W,2,05,2.0,11.6,M,-25.1,M,1.8,0000*7D
$GPGSA,A,3,07,16,20,13,23,,,,,,,,3.3,2.0,2.6*35
$GPRMC,201806.000,A,3747.6994,N,12215.4765,W,0.11,104.35,230412,,,D*71
$GPVTG,104.35,T,,M,0.11,N,0.2,K,D*09
$GPGGA,201807.000,3747.6990,N,12215.4766,W,2,05,2.0,12.2,M,-25.1,M,1.8,0000*7C
$GPGSA,A,3,07,16,20,13,23,,,,,,,,3.3,2.0,2.6*35
$GPRMC,201807.000,A,3747.6990,N,12215.4766,W,0.11,129.47,230412,,,D*7D
$GPVTG,129.47,T,,M,0.11,N,0.2,K,D*03
$GPGGA,201808.000,3747.6986,N,12215.4766,W,2,05,2.0,12.9,M,-25.1,M,2.8,0000*7C
$GPGSA,A,3,07,16,20,13,23,,,,,,,,3.3,2.0,2.6*35
$GPRMC,201808.000,A,3747.6986,N,12215.4766,W,0.22,161.01,230412,,,D*7B
$GPVTG,161.01,T,,M,0.22,N,0.4,K,D*0B
$GPGGA,201809.000,3747.6983,N,12215.4767,W,2,05,2.0,13.4,M,-25.1,M,3.8,0000*74
$GPGSA,A,3,07,16,20,13,23,,,,,,,,3.3,2.0,2.6*35
$GPRMC,201809.000,A,3747.6983,N,12215.4767,W,0.09,186.35,230412,,,D*79
$GPVTG,186.35,T,,M,0.09,N,0.2,K,D*0A
$GPGGA,201810.000,3747.6980,N,12215.4767,W,2,05,2.0,14.1,M,-25.1,M,4.8,0000*7A
$GPGSA,A,3,07,16,20,13,23,,,,,,,,3.3,2.0,2.6*35
$GPGSV,3,1,12,20,77,213,29,23,57,317,29,30,44,081,21,16,41,120,26*70
$GPGSV,3,2,12,13,29,290,26,31,17,046,,07,15,231,39,01,14,205,19*79
$GPGSV,3,3,12,04,12,311,31,11,00,194,24,10,00,317,,48,44,197,30*72
$GPRMC,201810.000,A,3747.6980,N,12215.4767,W,0.17,171.48,230412,,,D*7F
$GPVTG,171.48,T,,M,0.17,N,0.3,K,D*06
$GPGGA,201811.000,3747.6977,N,12215.4766,W,2,05,2.0,14.6,M,-25.1,M,1.8,0000*70
$GPGSA,A,3,07,16,20,13,23,,,,,,,,3.3,2.0,2.6*35
$GPRMC,201811.000,A,3747.6977,N,12215.4766,W,0.18,168.10,230412,,,D*7D
$GPVTG,168.10,T,,M,0.18,N,0.3,K,D*0C
$GPGGA,201812.000,3747.6975,N,12215.4768,W,2,05,2.0,15.5,M,-25.1,M,1.8,0000*7D
$GPGSA,A,3,07,16,20,13,23,,,,,,,,3.3,2.0,2.6*35
$GPRMC,201812.000,A,3747.6975,N,12215.4768,W,0.29,214.64,230412,,,D*7B
$GPVTG,214.64,T,,M,0.29,N,0.5,K,D*03
$GPGGA,201813.000,3747.6974,N,12215.4767,W,2,05,2.0,15.8,M,-25.1,M,1.8,0000*7F
$GPGSA,A,3,07,16,20,13,23,,,,,,,,3.3,2.0,2.6*35
$GPRMC,201813.000,A,3747.6974,N,12215.4767,W,0.35,128.72,230412,,,D*72
$GPVTG,128.72,T,,M,0.35,N,0.6,K,D*06
$GPGGA,201814.000,3747.6972,N,12215.4770,W,2,05,2.0,15.9,M,-25.1,M,2.8,0000*7A
$GPGSA,A,3,07,16,20,13,23,,,,,,,,3.3,2.0,2.6*35
$GPRMC,201814.000,A,3747.6972,N,12215.4770,W,0.38,137.80,230412,,,D*7B
$GPVTG,137.80,T,,M,0.38,N,0.7,K,D*09
$GPGGA,201815.000,3747.6975,N,12215.4771,W,2,05,2.0,13.9,M,-25.1,M,3.8,0000*7A
$GPGSA,A,3,07,16,20,13,23,,,,,,,,3.3,2.0,2.6*35
$GPGSV,3,1,12,20,77,213,20,23,57,317,21,30,44,081,,16,41,120,23*77
$GPGSV,3,2,12,13,29,290,32,31,17,046,,07,15,231,34,01,14,205,16*7E
$GPGSV,3,3,12,04,12,311,25,11,00,194,13,10,00,317,,48,44,197,26*74
$GPVTG,245.11,T,,M,0.44,N,0.8,K,D*03
$GPGGA,201816.000,3747.6980,N,12215.4768,W,2,05,2.0,13.0,M,-25.1,M,4.8,0000*75
$GPGSA,A,3,07,16,20,13,23,,,,,,,,3.3,2.0,2.6*35
$GPRMC,201816.000,A,3747.6980,N,12215.4768,W,0.22,51.62,230412,,,D*4B
$GPVTG,51.62,T,,M,0.22,N,0.4,K,D*3C
$GPGGA,201817.000,3747.6983,N,12215.4762,W,2,05,2.0,12.8,M,-25.1,M,1.8,0000*71
$GPGSA,A,3,07,16,20,13,23,,,,,,,,3.3,2.0,2.6*35
$GPRMC,201817.000,A,3747.6983,N,12215.4762,W,0.68,72.08,230412,,,D*40
$GPVTG,72.08,T,,M,0.68,N,1.3,K,D*39
$GPGGA,201818.000,3747.6985,N,12215.4758,W,2,05,2.0,12.3,M,-25.1,M,2.8,0000*79
$GPGSA,A,3,07,16,20,13,23,,,,,,,,3.3,2.0,2.6*35
$GPRMC,201818.000,A,3747.6985,N,12215.4758,W,0.36,206.70,230412,,,D*75
$GPVTG,206.70,T,,M,0.36,N,0.7,K,D*09
$GPGGA,201819.000,3747.6989,N,12215.4757,W,2,05,2.0,12.8,M,-25.1,M,3.8,0000*71
$GPGSA,A,3,07,16,20,13,23,,,,,,,,3.3,2.0,2.6*35
$GPRMC,201819.000,A,3747.6989,N,12215.4757,W,0.24,78.10,230412,,,D*49
$GPVTG,78.10,T,,M,0.24,N,0.5,K,D*35
$GPGGA,201820.000,3747.6989,N,12215.4756,W,2,05,2.0,14.2,M,-25.1,M,4.8,0000*71
$GPGSA,A,3,07,16,20,13,23,,,,,,,,3.3,2.0,2.6*35
$GPGSV,3,1,11,20,76,212,20,23,57,317,29,30,44,081,,16,41,120,31*7F
$GPGSV,3,2,11,13,30,291,22,31,17,046,,07,15,231,25,01,13,205,22*75
$GPGSV,3,3,11,04,12,310,25,10,00,317,,11,00,194,13*41
$GPRMC,201820.000,A,3747.6989,N,12215.4756,W,0.09,92.39,230412,,,D*42
$GPVTG,92.39,T,,M,0.09,N,0.2,K,D*32
$GPGGA,201821.000,3747.6990,N,12215.4751,W,2,04,2.2,13.5,M,-25.1,M,5.8,0000*7D
$GPGSA,A,3,07,16,20,13,,,,,,,,,3.4,2.2,2.6*31
$GPRMC,201821.000,A,3747.6990,N,12215.4751,W,0.29,84.62,230412,,,D*47
$GPVTG,84.62,T,,M,0.29,N,0.5,K,D*3E
$GPGGA,201822.000,3747.6991,N,12215.4746,W,2,05,2.0,13.4,M,-25.1,M,6.8,0000*78
$GPGSA,A,3,07,16,20,13,23,,,,,,,,3.3,2.0,2.6*35
$GPRMC,201822.000,A,3747.6991,N,12215.4746,W,1.11,34.20,230412,,,D*44
$GPVTG,34.20,T,,M,1.11,N,2.0,K,D*3E
$GPGGA,201823.000,3747.6990,N,12215.4740,W,2,05,2.0,13.1,M,-25.1,M,7.8,0000*7A
$GPGSA,A,3,07,16,20,13,23,,,,,,,,3.3,2.0,2.6*35
$GPRMC,201823.000,A,3747.6990,N,12215.4740,W,0.77,36.10,230412,,,D*42
$GPVTG,36.10,T,,M,0.77,N,1.4,K,D*39
$GPGGA,201824.000,3747.6993,N,12215.4736,W,2,05,2.0,12.5,M,-25.1,M,8.8,0000*75
$GPGSA,A,3,07,16,20,13,23,,,,,,,,3.3,2.0,2.6*35
$GPRMC,201824.000,A,3747.6993,N,12215.4736,W,0.99,51.53,230412,,,D*41
$GPVTG,51.53,T,,M,0.99,N,1.8,K,D*33
$GPGGA,201825.000,3747.6993,N,12215.4735,W,2,05,2.0,13.3,M,-25.1,M,9.8,0000*71
$GPGSA,A,3,07,16,20,13,23,,,,,,,,3.3,2.0,2.6*35
$GPGSV,3,1,12,20,76,212,21,23,57,317,21,30,44,081,,16,41,120,32*76
$GPGSV,3,2,12,13,30,291,21,31,17,046,,07,15,231,26,01,13,205,22*76
$GPGSV,3,3,12,04,12,310,18,10,00,317,,11,00,194,,48,44,197,30*7E
$GPRMC,201825.000,A,3747.6993,N,12215.4735,W,0.31,36.57,230412,,,D*44
$GPVTG,36.57,T,,M,0.31,N,0.6,K,D*3B
$GPGGA,201826.000,3747.7000,N,12215.4733,W,2,05,2.0,12.8,M,-25.1,M,10.8,0000*44
$GPGSA,A,3,07,16,20,13,23,,,,,,,,3.3,2.0,2.6*35
$GPRMC,201826.000,A,3747.7000,N,12215.4733,W,0.70,24.52,230412,,,D*40
$GPVTG,24.52,T,,M,0.70,N,1.3,K,D*3C
$GPGGA,201827.000,3747.7003,N,12215.4729,W,2,05,2.0,11.5,M,-25.1,M,11.8,0000*42
$GPGSA,A,3,07,16,20,13,23,,,,,,,,3.3,2.0,2.6*35
$GPRMC,201827.000,A,3747.7003,N,12215.4729,W,0.90,24.66,230412,,,D*40
$GPVTG,24.66,T,,M,0.90,N,1.7,K,D*31
$GPGGA,201828.000,3747.7013,N,12215.4727,W,2,05,2.0,9.4,M,-25.1,M,12.8,0000*79
$GPGSA,A,3,07,16,20,13,23,,,,,,,,3.3,2.0,2.6*35
$GPRMC,201828.000,A,3747.7013,N,12215.4727,W,1.09,359.07,230412,,,D*7F
$GPVTG,359.07,T,,M,1.09,N,2.0,K,D*0A
$GPGGA,201829.000,3747.7024,N,12215.4723,W,2,05,2.0,8.4,M,-25.1,M,13.8,0000*78
$GPGSA,A,3,07,16,20,13,23,,,,,,,,3.3,2.0,2.6*35
$GPRMC,201829.000,A,3747.7024,N,12215.4723,W,0.59,356.00,230412,,,D*72
$GPVTG,356.00,T,,M,0.59,N,1.1,K,D*04
$GPGGA,201830.000,3747.7029,N,12215.4716,W,2,05,2.0,8.7,M,-25.1,M,14.8,0000*7F
$GPGSA,A,3,07,16,20,13,23,,,,,,,,3.3,2.0,2.6*35
$GPGSV,3,1,12,20,76,212,22,23,57,317,28,30,44,081,,16,41,120,29*76
$GPGSV,3,2,12,13,30,291,21,31,17,046,,07,15,231,21,01,13,205,22*71
$GPGSV,3,3,12,04,12,310,26,10,00,317,,11,00,194,,48,44,197,29*7B
$GPRMC,201830.000,A,3747.7029,N,12215.4716,W,1.16,34.92,230412,,,D*47
$GPGGA,201831.000,3747.7031,N,12215.4712,W,2,04,2.2,9.5,M,-25.1,M,15.8,0000*72
$GPGSA,A,3,07,16,20,13,,,,,,,,,3.4,2.2,2.6*31
$GPRMC,201831.000,A,3747.7031,N,12215.4712,W,0.48,80.84,230412,,,D*49
$GPVTG,80.84,T,,M,0.48,N,0.9,K,D*39
$GPGGA,201832.000,3747.7036,N,12215.4707,W,2,05,2.0,9.4,M,-25.1,M,16.8,0000*73
$GPGSA,A,3,07,16,20,13,23,,,,,,,,3.3,2.0,2.6*35
$GPRMC,201832.000,A,3747.7036,N,12215.4707,W,0.75,78.33,230412,,,D*4C
$GPVTG,78.33,T,,M,0.75,N,1.4,K,D*30
$GPGGA,201833.000,3747.7031,N,12215.4705,W,2,05,2.0,11.4,M,-25.1,M,17.8,0000*4F
$GPGSA,A,3,07,16,20,13,23,,,,,,,,3.3,2.0,2.6*35
$GPRMC,201833.000,A,3747.7031,N,12215.4705,W,0.70,119.93,230412,,,D*71
$GPVTG,119.93,T,,M,0.70,N,1.3,K,D*0E
$GPGGA,201834.000,3747.7028,N,12215.4707,W,1,05,2.0,12.9,M,-25.1,M,,0000*5F
$GPGSA,A,3,07,16,20,13,23,,,,,,,,3.3,2.0,2.6*35
$GPRMC,201834.000,A,3747.7028,N,12215.4707,W,0.33,134.98,230412,,,A*7A
$GPVTG,134.98,T,,M,0.33,N,0.6,K,A*0C
$GPGGA,201835.000,3747.7021,N,12215.4720,W,1,05,2.0,15.4,M,-25.1,M,,0000*58
$GPGSA,A,3,07,16,20,13,23,,,,,,,,3.3,2.0,2.6*35
$GPGSV,3,1,12,20,76,212,23,23,57,317,19,30,44,081,,16,41,120,24*78
$GPGSV,3,2,12,13,30,291,22,31,17,046,,07,15,231,29,01,13,205,18*73
$GPGSV,3,3,12,04,12,310,17,10,00,317,,11,00,194,,48,44,197,25*75
$GPRMC,201835.000,A,3747.7021,N,12215.4720,W,1.03,203.04,230412,,,A*77
$GPVTG,203.04,T,,M,1.03,N,1.9,K,A*02
$GPGGA,201836.000,3747.7016,N,12215.4727,W,1,05,2.0,16.1,M,-25.1,M,,0000*5E
$GPGSA,A,3,07,16,20,13,23,,,,,,,,3.3,2.0,2.6*35
$GPRMC,201836.000,A,3747.7016,N,12215.4727,W,1.39,202.05,230412,,,A*7E
$GPVTG,202.05,T,,M,1.39,N,2.6,K,A*07
$GPGGA,201837.000,3747.7011,N,12215.4728,W,1,05,2.0,18.2,M,-25.1,M,,0000*5A
$GPGSA,A,3,07,16,20,13,23,,,,,,,,3.3,2.0,2.6*35
$GPRMC,201837.000,A,3747.7011,N,12215.4728,W,1.74,165.16,230412,,,A*7E
$GPVTG,165.16,T,,M,1.74,N,3.2,K,A*0B
$GPGGA,201838.000,3747.7004,N,12215.4728,W,1,05,2.0,19.8,M,-25.1,M,,0000*5A
$GPGSA,A,3,07,16,20,13,23,,,,,,,,3.3,2.0,2.6*35
$GPRMC,201838.000,A,3747.7004,N,12215.4728,W,1.00,185.08,230412,,,A*77
$GPVTG,185.08,T,,M,1.00,N,1.9,K,A*00
$GPGGA,201839.000,3747.7002,N,12215.4727,W,1,05,2.0,21.1,M,-25.1,M,,0000*50
$GPGSA,A,3,07,16,20,13,23,,,,,,,,3.3,2.0,2.6*35
$GPRMC,201839.000,A,3747.7002,N,12215.4727,W,0.96,183.84,230412,,,A*73
$GPVTG,183.84,T,,M,0.96,N,1.8,K,A*0D
$GPGGA,201840.000,3747.6997,N,12215.4729,W,1,05,2.0,22.1,M,-25.1,M,,0000*57
$GPGSA,A,3,07,16,20,13,23,,,,,,,,3.3,2.0,2.6*35
$GPGSV,3,1,12,20,76,212,23,23,57,317,21,30,44,081,,16,41,120,36*70
$GPGSV,3,2,12,13,30,291,21,31,17,046,,07,15,231,27,01,13,205,18*7E
$GPGSV,3,3,12,04,12,310,18,10,00,317,,11,00,194,,48,44,197,30*7E
$GPRMC,201840.000,A,3747.6997,N,12215.4729,W,0.86,213.51,230412,,,A*74
$GPVTG,213.51,T,,M,0.86,N,1.6,K,A*00
$GPGGA,201841.000,3747.6995,N,12215.4733,W,1,05,2.0,23.5,M,-25.1,M,,0000*5A
$GPGSA,A,3,07,16,20,13,23,,,,,,,,3.3,2.0,2.6*35
$GPRMC,201841.000,A,3747.6995,N,12215.4733,W,0.37,301.26,230412,,,A*74
$GPVTG,301.26,T,,M,0.37,N,0.7,K,A*08
$GPGGA,201842.000,3747.7002,N,12215.4733,W,1,05,2.0,23.1,M,-25.1,M,,0000*5B
$GPGSA,A,3,07,16,20,13,23,,,,,,,,3.3,2.0,2.6*35
$GPRMC,201842.000,A,3747.7002,N,12215.4733,W,0.36,205.43,230412,,,A*76
$GPVTG,205.43,T,,M,0.36,N,0.7,K,A*0F
$GPGGA,201843.000,3747.7009,N,12215.4732,W,1,05,2.0,21.6,M,-25.1,M,,0000*55
$GPGSA,A,3,07,16,20,13,23,,,,,,,,3.3,2.0,2.6*35
$GPRMC,201843.000,A,3747.7009,N,12215.4732,W,0.40,208.13,230412,,,A*74
$GPVTG,208.13,T,,M,0.40,N,0.7,K,A*06
$GPGGA,201844.000,3747.7015,N,12215.4730,W,1,05,2.0,20.5,M,-25.1,M,,0000*5F
$GPGSA,A,3,07,16,20,13,23,,,,,,,,3.3,2.0,2.6*35
$GPRMC,201844.000,A,3747.7015,N,12215.4730,W,0.17,235.79,230412,,,A*7C
$GPVTG,235.79,T,,M,0.17,N,0.3,K,A*02
$GPGGA,201845.000,3747.7024,N,12215.4728,W,1,05,2.0,18.5,M,-25.1,M,,0000*5E
$GPGSA,A,3,07,16,20,13,23,,,,,,,,3.3,2.0,2.6*35
$GPGSV,3,1,12,20,76,212,25,23,57,317,29,30,44,081,,16,41,120,36*7E
$GPGSV,3,2,12,13,30,291,27,31,17,046,,07,15,231,24,01,13,205,19*7A
$GPGSV,3,3,12,04,12,310,26,10,00,317,,11,00,194,17,48,44,197,30*75
$GPVTG,249.41,T,,M,0.07,N,0.1,K,A*01
$GPGGA,201846.000,3747.7031,N,12215.4727,W,1,05,2.0,17.3,M,-25.1,M,,0000*5F
$GPGSA,A,3,07,16,20,13,23,,,,,,,,3.3,2.0,2.6*35
$GPRMC,201846.000,A,3747.7031,N,12215.4727,W,0.13,21.33,230412,,,A*43
$GPVTG,21.33,T,,M,0.13,N,0.2,K,A*3E
$GPGGA,201847.000,3747.7036,N,12215.4725,W,1,05,2.0,16.2,M,-25.1,M,,0000*5B
$GPGSA,A,3,07,16,20,13,23,,,,,,,,3.3,2.0,2.6*35
$GPRMC,201847.000,A,3747.7036,N,12215.4725,W,0.29,26.11,230412,,,A*49
$GPVTG,26.11,T,,M,0.29,N,0.5,K,A*37
$GPGGA,201848.000,3747.7042,N,12215.4724,W,1,05,2.0,15.1,M,-25.1,M,,0000*56
$GPGSA,A,3,07,16,20,13,23,,,,,,,,3.3,2.0,2.6*35
$GPRMC,201848.000,A,3747.7042,N,12215.4724,W,0.30,27.13,230412,,,A*4F
$GPVTG,27.13,T,,M,0.30,N,0.6,K,A*3F
$GPGGA,201849.000,3747.7044,N,12215.4725,W,1,05,2.0,14.3,M,-25.1,M,,0000*53
$GPGSA,A,3,07,16,20,13,23,,,,,,,,3.3,2.0,2.6*35
$GPRMC,201849.000,A,3747.7044,N,12215.4725,W,0.38,236.27,230412,,,A*74
$GPVTG,236.27,T,,M,0.38,N,0.7,K,A*03
$GPGGA,201850.000,3747.7042,N,12215.4728,W,1,05,2.0,14.6,M,-25.1,M,,0000*55
$GPGSA,A,3,07,16,20,13,23,,,,,,,,3.3,2.0,2.6*35
$GPGSV,3,1,12,20,76,211,26,23,57,317,29,30,44,080,,16,42,120,35*7F
$GPGSV,3,2,12,13,30,291,27,31,17,046,,07,15,231,26,01,13,205,20*72
$GPGSV,3,3,12,04,12,310,27,10,00,317,,11,00,194,17,48,44,197,25*70
$GPRMC,201850.000,A,3747.7042,N,12215.4728,W,0.39,244.30,230412,,,A*75
$GPVTG,244.30,T,,M,0.39,N,0.7,K,A*01
$GPGGA,201851.000,3747.7039,N,12215.4731,W,1,05,2.0,15.2,M,-25.1,M,,0000*55
$GPGSA,A,3,07,16,20,13,23,,,,,,,,3.3,2.0,2.6*35
$GPRMC,201851.000,A,3747.7039,N,12215.4731,W,0.53,162.79,230412,,,A*76
$GPVTG,162.79,T,,M,0.53,N,1.0,K,A*01
$GPGGA,201852.000,3747.7040,N,12215.4731,W,1,05,2.0,14.9,M,-25.1,M,,0000*52
$GPGSA,A,3,07,16,20,13,23,,,,,,,,3.3,2.0,2.6*35
$GPRMC,201852.000,A,3747.7040,N,12215.4731,W,0.55,350.46,230412,,,A*72
$GPVTG,350.46,T,,M,0.55,N,1.0,K,A*08
$GPGGA,201853.000,3747.7048,N,12215.4728,W,1,05,2.0,14.4,M,-25.1,M,,0000*5E
$GPGSA,A,3,07,16,20,13,23,,,,,,,,3.3,2.0,2.6*35
$GPRMC,201853.000,A,3747.7048,N,12215.4728,W,0.46,350.82,230412,,,A*79
$GPVTG,350.82,T,,M,0.46,N,0.9,K,A*0A
$GPGGA,201854.000,3747.7056,N,12215.4726,W,1,05,2.0,13.4,M,-25.1,M,,0000*5F
$GPGSA,A,3,07,16,20,13,23,,,,,,,,3.3,2.0,2.6*35
$GPRMC,201854.000,A,3747.7056,N,12215.4726,W,0.56,349.22,230412,,,A*7C
$GPVTG,349.22,T,,M,0.56,N,1.0,K,A*01
$GPGGA,201855.000,3747.7057,N,12215.4727,W,1,05,2.0,14.0,M,-25.1,M,,0000*5D
$GPGSA,A,3,07,16,20,13,23,,,,,,,,3.3,2.0,2.6*35
$GPGSV,3,1,12,20,76,211,19,23,57,317,29,30,44,080,,16,42,120,31*77
$GPGSV,3,2,12,13,30,291,16,31,17,046,,07,15,231,26,01,13,205,23*73
$GPGSV,3,3,12,04,12,310,27,10,00,317,,11,00,194,,48,44,197,27*74
$GPRMC,201855.000,A,3747.7057,N,12215.4727,W,0.18,353.47,230412,,,A*7F
$GPVTG,353.47,T,,M,0.18,N,0.3,K,A*01
$GPGGA,201856.000,3747.7057,N,12215.4727,W,1,05,2.0,15.3,M,-25.1,M,,0000*5C
$GPGSA,A,3,07,16,20,13,23,,,,,,,,3.3,2.0,2.6*35
$GPRMC,201856.000,A,3747.7057,N,12215.4727,W,0.44,13.42,230412,,,A*47
$GPVTG,13.42,T,,M,0.44,N,0.8,K,A*31
$GPGGA,201857.000,3747.7059,N,12215.4725,W,1,04,3.8,15.2,M,-25.1,M,,0000*58
$GPGSA,A,3,07,16,13,23,,,,,,,,,8.1,3.8,7.1*35
$GPRMC,201857.000,A,3747.7059,N,12215.4725,W,0.20,317.57,230412,,,A*7B
$GPVTG,317.57,T,,M,0.20,N,0.4,K,A*0C
$GPGGA,201858.000,3747.7056,N,12215.4724,W,1,05,2.0,16.4,M,-25.1,M,,0000*54
$GPGSA,A,3,07,16,20,13,23,,,,,,,,3.3,2.0,2.6*35
$GPRMC,201858.000,A,3747.7056,N,12215.4724,W,0.28,86.16,230412,,,A*4C
$GPVTG,86.16,T,,M,0.28,N,0.5,K,A*3B
$GPGGA,201859.000,3747.7053,N,12215.4724,W,1,05,2.0,18.3,M,-25.1,M,,0000*59
$GPGSA,A,3,07,16,20,13,23,,,,,,,,3.3,2.0,2.6*35
$GPRMC,201859.000,A,3747.7053,N,12215.4724,W,0.61,67.64,230412,,,A*4F
$GPVTG,67.64,T,,M,0.61,N,1.1,K,A*39
$GPGGA,201900.000,3747.7060,N,12215.4721,W,1,05,2.0,17.3,M,-25.1,M,,0000*5E
$GPGSA,A,3,07,16,20,13,23,,,,,,,,3.3,2.0,2.6*35
$GPGSV,3,1,11,20,76,211,21,23,57,317,29,30,44,080,15,16,42,120,31*7B
$GPGSV,3,2,11,13,30,291,24,31,17,046,,07,15,231,24,01,13,205,22*72
$GPGSV,3,3,11,04,12,310,27,10,00,317,,11,00,194,*41
$GPRMC,201900.000,A,3747.7060,N,12215.4721,W,0.06,254.61,230412,,,A*71
$GPGGA,201901.000,3747.7067,N,12215.4718,W,1,05,2.0,16.0,M,-25.1,M,,0000*50
$GPGSA,A,3,07,16,20,13,23,,,,,,,,3.3,2.0,2.6*35
$GPRMC,201901.000,A,3747.7067,N,12215.4718,W,0.59,34.03,230412,,,A*47
$GPVTG,34.03,T,,M,0.59,N,1.1,K,A*35
$GPGGA,201902.000,3747.7073,N,12215.4715,W,1,05,2.0,14.8,M,-25.1,M,,0000*51
$GPGSA,A,3,07,16,20,13,23,,,,,,,,3.3,2.0,2.6*35
$GPRMC,201902.000,A,3747.7073,N,12215.4715,W,0.41,36.76,230412,,,A*45
$GPVTG,36.76,T,,M,0.41,N,0.8,K,A*34
$GPGGA,201903.000,3747.7079,N,12215.4715,W,1,05,2.0,13.8,M,-25.1,M,,0000*5D
$GPGSA,A,3,07,16,20,13,23,,,,,,,,3.3,2.0,2.6*35
$GPRMC,201903.000,A,3747.7079,N,12215.4715,W,0.48,357.63,230412,,,A*77
$GPVTG,357.63,T,,M,0.48,N,0.9,K,A*0C
$GPGGA,201904.000,3747.7081,N,12215.4715,W,1,05,2.0,13.6,M,-25.1,M,,0000*53
$GPGSA,A,3,07,16,20,13,23,,,,,,,,3.3,2.0,2.6*35
$GPRMC,201904.000,A,3747.7081,N,12215.4715,W,0.56,27.00,230412,,,A*49
$GPVTG,27.00,T,,M,0.56,N,1.0,K,A*3A
$GPGGA,201905.000,3747.7080,N,12215.4719,W,1,05,2.0,13.3,M,-25.1,M,,0000*5A
$GPGSA,A,3,07,16,20,13,23,,,,,,,,3.3,2.0,2.6*35
$GPGSV,3,1,11,20,76,211,25,23,57,317,29,30,44,080,17,16,42,120,32*7E
$GPGSV,3,2,11,13,30,291,21,31,17,046,,07,15,231,24,01,13,205,23*76
$GPGSV,3,3,11,04,12,310,27,10,00,317,,11,00,194,*41
$GPRMC,201905.000,A,3747.7080,N,12215.4719,W,0.59,6.39,230412,,,A*73
$GPVTG,6.39,T,,M,0.59,N,1.1,K,A*0D
$GPGGA,201906.000,3747.7080,N,12215.4721,W,1,05,2.0,12.9,M,-25.1,M,,0000*59
$GPGSA,A,3,07,16,20,13,23,,,,,,,,3.3,2.0,2.6*35
$GPRMC,201906.000,A,3747.7080,N,12215.4721,W,0.42,51.55,230412,,,A*49
$GPVTG,51.55,T,,M,0.42,N,0.8,K,A*37
$GPGGA,201907.000,3747.7075,N,12215.4722,W,1,05,2.0,13.4,M,-25.1,M,,0000*5D
$GPGSA,A,3,07,16,20,13,23,,,,,,,,3.3,2.0,2.6*35
$GPRMC,201907.000,A,3747.7075,N,12215.4722,W,0.35,98.10,230412,,,A*45
$GPVTG,98.10,T,,M,0.35,N,0.7,K,A*3C
$GPGGA,201908.000,3747.7075,N,12215.4723,W,1,05,2.0,12.7,M,-25.1,M,,0000*51
$GPGSA,A,3,07,16,20,13,23,,,,,,,,3.3,2.0,2.6*35
$GPRMC,201908.000,A,3747.7075,N,12215.4723,W,0.11,195.56,230412,,,A*73
$GPVTG,195.56,T,,M,0.11,N,0.2,K,A*01
$GPGGA,201909.000,3747.7067,N,12215.4727,W,1,05,2.0,13.8,M,-25.1,M,,0000*59
$GPGSA,A,3,07,16,20,13,23,,,,,,,,3.3,2.0,2.6*35
$GPRMC,201909.000,A,3747.7067,N,12215.4727,W,0.26,171.07,230412,,,A*7F
$GPVTG,171.07,T,,M,0.26,N,0.5,K,A*0C
$GPGGA,201910.000,3747.7063,N,12215.4728,W,1,05,2.0,13.9,M,-25.1,M,,0000*5B
$GPGSA,A,3,07,16,20,13,23,,,,,,,,3.3,2.0,2.6*35
$GPGSV,3,1,11,20,76,211,23,23,57,317,30,30,44,080,18,16,42,120,31*7C
$GPGSV,3,2,11,13,30,291,25,31,17,046,,07,15,231,25,01,13,205,24*74
$GPGSV,3,3,11,04,12,310,30,10,00,317,,11,00,194,*47
$GPRMC,201910.000,A,3747.7063,N,12215.4728,W,0.14,69.17,230412,,,A*44
$GPVTG,69.17,T,,M,0.14,N,0.3,K,A*32
$GPGGA,201911.000,3747.7056,N,12215.4733,W,1,05,2.0,15.6,M,-25.1,M,,0000*5F
$GPGSA,A,3,07,16,20,13,23,,,,,,,,3.3,2.0,2.6*35
$GPRMC,201911.000,A,3747.7056,N,12215.4733,W,0.14,199.91,230412,,,A*79
$GPVTG,199.91,T,,M,0.14,N,0.3,K,A*02
$GPGGA,201912.000,3747.7051,N,12215.4733,W,1,05,2.0,17.1,M,-25.1,M,,0000*5E
$GPGSA,A,3,07,16,20,13,23,,,,,,,,3.3,2.0,2.6*35
$GPRMC,201912.000,A,3747.7051,N,12215.4733,W,0.54,142.44,230412,,,A*77
$GPVTG,142.44,T,,M,0.54,N,1.0,K,A*0A
$GPGGA,201913.000,3747.7048,N,12215.4731,W,1,05,2.0,16.0,M,-25.1,M,,0000*55
$GPGSA,A,3,07,16,20,13,23,,,,,,,,3.3,2.0,2.6*35
$GPRMC,201913.000,A,3747.7048,N,12215.4731,W,1.02,144.43,230412,,,A*7F
$GPVTG,144.43,T,,M,1.02,N,1.9,K,A*00
$GPGGA,201914.000,3747.7037,N,12215.4729,W,1,05,2.0,15.9,M,-25.1,M,,0000*59
$GPGSA,A,3,07,16,20,13,23,,,,,,,,3.3,2.0,2.6*35
$GPRMC,201914.000,A,3747.7037,N,12215.4729,W,1.31,141.03,230412,,,A*78
$GPVTG,141.03,T,,M,1.31,N,2.4,K,A*0F
$GPGGA,201915.000,3747.7032,N,12215.4728,W,1,05,2.0,16.2,M,-25.1,M,,0000*54
$GPGSA,A,3,07,16,20,13,23,,,,,,,,3.3,2.0,2.6*35
$GPGSV,3,1,12,20,76,211,23,23,57,317,24,30,44,080,18,16,42,120,32*79
$GPGSV,3,2,12,13,30,291,21,31,17,046,,07,15,231,33,01,13,205,24*74
$GPGSV,3,3,12,04,12,310,21,10,00,317,,11,00,194,,48,44,197,34*70
$GPRMC,201915.000,A,3747.7032,N,12215.4728,W,0.97,122.86,230412,,,A*78
$GPGGA,201916.000,3747.7027,N,12215.4724,W,1,05,2.0,15.7,M,-25.1,M,,0000*59
$GPGSA,A,3,07,16,20,13,23,,,,,,,,3.3,2.0,2.6*35
$GPRMC,201916.000,A,3747.7027,N,12215.4724,W,0.71,143.32,230412,,,A*73
$GPVTG,143.32,T,,M,0.71,N,1.3,K,A*0E
$GPGGA,201917.000,3747.7017,N,12215.4722,W,1,05,2.0,14.9,M,-25.1,M,,0000*52
$GPGSA,A,3,07,16,20,13,23,,,,,,,,3.3,2.0,2.6*35
$GPRMC,201917.000,A,3747.7017,N,12215.4722,W,0.86,163.54,230412,,,A*7D
$GPVTG,163.54,T,,M,0.86,N,1.6,K,A*01
$GPGGA,201918.000,3747.7006,N,12215.4723,W,1,05,2.0,15.7,M,-25.1,M,,0000*53
$GPGSA,A,3,07,16,20,13,23,,,,,,,,3.3,2.0,2.6*35
$GPRMC,201918.000,A,3747.7006,N,12215.4723,W,1.11,167.55,230412,,,A*79
$GPVTG,167.55,T,,M,1.11,N,2.1,K,A*0F
$GPGGA,201919.000,3747.6995,N,12215.4725,W,1,05,2.0,17.4,M,-25.1,M,,0000*57
$GPGSA,A,3,07,16,20,13,23,,,,,,,,3.3,2.0,2.6*35
$GPRMC,201919.000,A,3747.6995,N,12215.4725,W,1.27,170.13,230412,,,A*7D
$GPVTG,170.13,T,,M,1.27,N,2.4,K,A*0B
$GPGGA,201920.000,3747.6989,N,12215.4726,W,1,05,2.0,17.3,M,-25.1,M,,0000*54
$GPGSA,A,3,07,16,20,13,23,,,,,,,,3.3,2.0,2.6*35
$GPGSV,3,1,11,20,76,211,19,23,57,317,24,30,44,080,18,16,42,120,32*73
$GPGSV,3,2,11,13,30,291,22,31,16,046,,07,15,231,30,01,13,205,17*76
$GPGSV,3,3,11,04,12,310,23,10,00,317,,51,43,156,32*49
$GPRMC,201920.000,A,3747.6989,N,12215.4726,W,1.24,170.76,230412,,,A*79
$GPVTG,170.76,T,,M,1.24,N,2.3,K,A*0C
$GPGGA,201921.000,3747.6988,N,12215.4727,W,1,04,2.1,16.7,M,-25.1,M,,0000*50
$GPGSA,A,3,07,16,20,13,,,,,,,,,3.4,2.1,2.7*33
$GPRMC,201921.000,A,3747.6988,N,12215.4727,W,0.19,213.12,230412,,,A*73
$GPVTG,213.12,T,,M,0.19,N,0.4,K,A*02
$GPGGA,201922.000,3747.6989,N,12215.4727,W,1,05,2.0,14.9,M,-25.1,M,,0000*5E
$GPGSA,A,3,07,16,20,13,23,,,,,,,,3.3,2.0,2.6*35
$GPRMC,201922.000,A,3747.6989,N,12215.4727,W,0.33,168.03,230412,,,A*76
$GPVTG,168.03,T,,M,0.33,N,0.6,K,A*07
$GPGGA,201923.000,3747.6988,N,12215.4725,W,2,05,2.0,14.7,M,-25.1,M,1.8,0000*76
$GPGSA,A,3,07,16,20,13,23,,,,,,,,3.3,2.0,2.6*35
$GPRMC,201923.000,A,3747.6988,N,12215.4725,W,0.05,47.85,230412,,,D*46
$GPVTG,47.85,T,,M,0.05,N,0.1,K,D*32
$GPGGA,201924.000,3747.6985,N,12215.4719,W,2,05,2.0,13.2,M,-25.1,M,1.8,0000*71
$GPGSA,A,3,07,16,20,13,23,,,,,,,,3.3,2.0,2.6*35
$GPRMC,201924.000,A,3747.6985,N,12215.4719,W,0.61,145.09,230412,,,D*76
$GPVTG,145.09,T,,M,0.61,N,1.1,K,D*06
$GPGGA,201925.000,3747.6982,N,12215.4716,W,2,05,2.0,12.4,M,-25.1,M,1.8,0000*7F
$GPGSA,A,3,07,16,20,13,23,,,,,,,,3.3,2.0,2.6*35
$GPGSV,3,1,11,20,76,211,25,23,57,317,17,30,44,080,18,16,42,120,33*7D
$GPGSV,3,2,11,13,30,291,23,31,16,046,,07,15,231,31,01,13,205,17*76
$GPGSV,3,3,11,04,12,310,22,10,00,317,,51,43,156,35*4F
$GPRMC,201925.000,A,3747.6982,N,12215.4716,W,0.30,21.54,230412,,,D*40
$GPVTG,21.54,T,,M,0.30,N,0.5,K,D*3C
$GPGGA,201926.000,3747.6983,N,12215.4714,W,2,04,2.1,10.7,M,-25.1,M,1.8,0000*7E
$GPGSA,A,3,07,16,20,13,,,,,,,,,3.4,2.1,2.7*33
$GPRMC,201926.000,A,3747.6983,N,12215.4714,W,0.60,27.99,230412,,,D*42
$GPVTG,27.99,T,,M,0.60,N,1.1,K,D*3B
$GPGGA,201927.000,3747.6987,N,12215.4712,W,2,05,2.0,8.7,M,-25.1,M,2.8,0000*47
$GPGSA,A,3,07,16,20,13,23,,,,,,,,3.3,2.0,2.6*35
$GPRMC,201927.000,A,3747.6987,N,12215.4712,W,0.31,24.49,230412,,,D*4B
$GPVTG,24.49,T,,M,0.31,N,0.6,K,D*37
$GPGGA,201928.000,3747.6978,N,12215.4714,W,2,05,2.0,9.0,M,-25.1,M,3.8,0000*49
$GPGSA,A,3,07,16,20,13,23,,,,,,,,3.3,2.0,2.6*35
$GPRMC,201928.000,A,3747.6978,N,12215.4714,W,0.56,123.92,230412,,,D*73
$GPVTG,123.92,T,,M,0.56,N,1.0,K,D*01
$GPGGA,201929.000,3747.6969,N,12215.4717,W,2,05,2.0,10.1,M,-25.1,M,1.8,0000*70
$GPGSA,A,3,07,16,20,13,23,,,,,,,,3.3,2.0,2.6*35
$GPRMC,201929.000,A,3747.6969,N,12215.4717,W,1.01,155.89,230412,,,D*79
$GPVTG,155.89,T,,M,1.01,N,1.9,K,D*00
$GPGGA,201930.000,3747.6969,N,12215.4716,W,2,05,2.0,8.5,M,-25.1,M,1.8,0000*44
$GPGSA,A,3,07,16,20,13,23,,,,,,,,3.3,2.0,2.6*35
$GPGSV,3,1,11,20,76,211,22,23,57,317,18,30,44,080,20,16,42,120,33*7E
$GPGSV,3,2,11,13,30,291,23,31,16,046,,07,15,231,25,01,13,205,17*73
$GPGSV,3,3,11,04,12,310,22,10,00,317,,51,43,156,33*49
$GPRMC,201930.000,A,3747.6969,N,12215.4716,W,0.96,174.66,230412,,,D*7D
$GPGGA,201931.000,3747.6974,N,12215.4712,W,2,05,2.0,4.8,M,-25.1,M,1.8,0000*4C
$GPGSA,A,3,07,16,20,13,23,,,,,,,,3.3,2.0,2.6*35
$GPRMC,201931.000,A,3747.6974,N,12215.4712,W,0.63,142.50,230412,,,D*7E
$GPVTG,142.50,T,,M,0.63,N,1.2,K,D*0C
$GPGGA,201932.000,3747.6973,N,12215.4711,W,2,05,2.0,4.1,M,-25.1,M,1.8,0000*42
$GPGSA,A,3,07,16,20,13,23,,,,,,,,3.3,2.0,2.6*35
$GPRMC,201932.000,A,3747.6973,N,12215.4711,W,0.60,28.83,230412,,,D*49
$GPVTG,28.83,T,,M,0.60,N,1.1,K,D*3F
$GPGGA,201933.000,3747.6976,N,12215.4712,W,2,05,2.0,4.3,M,-25.1,M,2.8,0000*44
$GPGSA,A,3,07,16,20,13,23,,,,,,,,3.3,2.0,2.6*35
$GPRMC,201933.000,A,3747.6976,N,12215.4712,W,0.35,94.80,230412,,,D*4A
$GPVTG,94.80,T,,M,0.35,N,0.6,K,D*3D
$GPGGA,201934.000,3747.6981,N,12215.4713,W,2,05,2.0,4.1,M,-25.1,M,3.8,0000*49
$GPGSA,A,3,07,16,20,13,23,,,,,,,,3.3,2.0,2.6*35
$GPRMC,201934.000,A,3747.6981,N,12215.4713,W,0.63,13.85,230412,,,D*4D
$GPVTG,13.85,T,,M,0.63,N,1.2,K,D*31
$GPGGA,201935.000,3747.6987,N,12215.4714,W,2,05,2.0,4.4,M,-25.1,M,1.8,0000*4E
$GPGSA,A,3,07,16,20,13,23,,,,,,,,3.3,2.0,2.6*35
$GPGSV,3,1,11,20,76,211,18,23,57,317,23,30,44,080,20,16,42,120,35*79
$GPGSV,3,2,11,13,30,291,23,31,16,046,,07,15,231,29,01,13,205,16*7E
$GPGSV,3,3,11,04,12,310,23,10,00,317,,51,43,156,32*49
$GPRMC,201935.000,A,3747.6987,N,12215.4714,W,0.68,18.73,230412,,,D*44
$GPVTG,18.73,T,,M,0.68,N,1.3,K,D*39
$GPGGA,201936.000,3747.6987,N,12215.4716,W,2,05,2.0,5.9,M,-25.1,M,1.8,0000*43
$GPGSA,A,3,07,16,20,13,23,,,,,,,,3.3,2.0,2.6*35
$GPRMC,201936.000,A,3747.6987,N,12215.4716,W,0.39,126.65,230412,,,D*7A
$GPVTG,126.65,T,,M,0.39,N,0.7,K,D*03
$GPGGA,201937.000,3747.6988,N,12215.4720,W,2,05,2.0,7.4,M,-25.1,M,1.8,0000*47
$GPGSA,A,3,07,16,20,13,23,,,,,,,,3.3,2.0,2.6*35
$GPRMC,201937.000,A,3747.6988,N,12215.4720,W,0.74,2.07,230412,,,D*7B
$GPVTG,2.07,T,,M,0.74,N,1.4,K,D*0B
$GPGGA,201938.000,3747.6990,N,12215.4725,W,2,05,2.0,9.4,M,-25.1,M,1.8,0000*4A
$GPGSA,A,3,07,16,20,13,23,,,,,,,,3.3,2.0,2.6*35
$GPRMC,201938.000,A,3747.6990,N,12215.4725,W,0.28,13.31,230412,,,D*44
$GPVTG,13.31,T,,M,0.28,N,0.5,K,D*37
$GPGGA,201939.000,3747.7000,N,12215.4728,W,2,05,2.0,10.5,M,-25.1,M,2.8,0000*7D
$GPGSA,A,3,07,16,20,13,23,,,,,,,,3.3,2.0,2.6*35
$GPRMC,201939.000,A,3747.7000,N,12215.4728,W,0.04,163.25,230412,,,D*74
$GPVTG,163.25,T,,M,0.04,N,0.1,K,D*0E
$GPGGA,201940.000,3747.7012,N,12215.4726,W,2,05,2.0,7.8,M,-25.1,M,3.8,0000*44
$GPGSA,A,3,07,16,20,13,23,,,,,,,,3.3,2.0,2.6*35
$GPGSV,3,1,11,20,76,211,19,23,57,317,22,30,44,080,20,16,42,120,35*79
$GPGSV,3,2,11,13,30,291,23,31,16,046,,07,15,231,29,01,13,205,23*78
$GPGSV,3,3,11,04,12,310,16,10,00,317,,51,43,156,33*4E
$GPRMC,201940.000,A,3747.7012,N,12215.4726,W,0.12,45.85,230412,,,D*4F
$GPVTG,45.85,T,,M,0.12,N,0.2,K,D*35
$GPGGA,201941.000,3747.7016,N,12215.4723,W,2,05,2.0,6.6,M,-25.1,M,1.8,0000*49
$GPGSA,A,3,07,16,20,13,23,,,,,,,,3.3,2.0,2.6*35
$GPRMC,201941.000,A,3747.7016,N,12215.4723,W,1.02,36.22,230412,,,D*46
$GPVTG,36.22,T,,M,1.02,N,1.9,K,D*36
$GPGGA,201942.000,3747.7020,N,12215.4716,W,2,05,2.0,4.8,M,-25.1,M,1.8,0000*45
$GPGSA,A,3,07,16,20,13,23,,,,,,,,3.3,2.0,2.6*35
$GPRMC,201942.000,A,3747.7020,N,12215.4716,W,1.50,54.47,230412,,,D*46
$GPVTG,54.47,T,,M,1.50,N,2.8,K,D*34
$GPGGA,201943.000,3747.7021,N,12215.4709,W,2,05,2.0,2.7,M,-25.1,M,1.8,0000*42
$GPGSA,A,3,07,16,20,13,23,,,,,,,,3.3,2.0,2.6*35
$GPRMC,201943.000,A,3747.7021,N,12215.4709,W,1.05,66.26,230412,,,D*4E
$GPVTG,66.26,T,,M,1.05,N,1.9,K,D*30
$GPGGA,201944.000,3747.7026,N,12215.4702,W,2,05,2.0,0.3,M,-25.1,M,2.8,0000*4C
$GPGSA,A,3,07,16,20,13,23,,,,,,,,3.3,2.0,2.6*35
$GPRMC,201944.000,A,3747.7026,N,12215.4702,W,1.03,56.29,230412,,,D*4F
$GPVTG,56.29,T,,M,1.03,N,1.9,K,D*3A
$GPGGA,201945.000,3747.7020,N,12215.4700,W,2,05,2.0,0.5,M,-25.1,M,3.8,0000*4E
$GPGSA,A,3,07,16,20,13,23,,,,,,,,3.3,2.0,2.6*35
$GPGSV,3,1,11,20,76,211,24,23,57,317,23,30,44,080,19,16,42,120,35*7C
$GPGSV,3,2,11,13,30,291,23,31,16,046,,07,15,231,23,01,13,205,24*75
$GPGSV,3,3,11,04,12,310,18,10,00,317,,51,43,156,30*43
$GPRMC,201945.000,A,3747.7020,N,12215.4700,W,0.74,106.42,230412,,,D*72
$GPGGA,201946.000,3747.7017,N,12215.4696,W,2,05,2.0,-0.3,M,-25.1,M,4.8,0000*6B
$GPGSA,A,3,07,16,20,13,23,,,,,,,,3.3,2.0,2.6*35
$GPRMC,201946.000,A,3747.7017,N,12215.4696,W,1.77,123.56,230412,,,D*7B
$GPVTG,123.56,T,,M,1.77,N,3.3,K,D*0A
$GPGGA,201947.000,3747.7005,N,12215.4695,W,2,05,2.0,1.1,M,-25.1,M,1.8,0000*41
$GPGSA,A,3,07,16,20,13,23,,,,,,,,3.3,2.0,2.6*35
$GPRMC,201947.000,A,3747.7005,N,12215.4695,W,1.45,139.61,230412,,,D*74
$GPVTG,139.61,T,,M,1.45,N,2.7,K,D*01
$GPGGA,201948.000,3747.7000,N,12215.4692,W,2,05,2.0,1.8,M,-25.1,M,1.8,0000*45
$GPGSA,A,3,07,16,20,13,23,,,,,,,,3.3,2.0,2.6*35
$GPRMC,201948.000,A,3747.7000,N,12215.4692,W,1.22,140.66,230412,,,D*71
$GPVTG,140.66,T,,M,1.22,N,2.3,K,D*0D
$GPGGA,201949.000,3747.7006,N,12215.4685,W,2,05,2.0,1.1,M,-25.1,M,1.8,0000*4D
$GPGSA,A,3,07,16,20,13,23,,,,,,,,3.3,2.0,2.6*35
$GPRMC,201949.000,A,3747.7006,N,12215.4685,W,1.37,99.62,230412,,,D*45
$GPVTG,99.62,T,,M,1.37,N,2.5,K,D*3E
$GPGGA,201950.000,3747.7011,N,12215.4677,W,2,05,2.0,-0.4,M,-25.1,M,2.8,0000*64
$GPGSA,A,3,07,16,20,13,23,,,,,,,,3.3,2.0,2.6*35
$GPGSV,3,1,11,20,76,210,22,23,57,318,23,30,44,080,18,16,42,119,34*7E
$GPGSV,3,2,11,13,30,291,24,31,16,046,,07,15,231,24,01,13,204,34*75
$GPGSV,3,3,11,04,12,310,24,10,00,317,,51,43,156,32*4E
$GPRMC,201950.000,A,3747.7011,N,12215.4677,W,0.96,78.15,230412,,,D*43
$GPVTG,78.15,T,,M,0.96,N,1.8,K,D*35
$GPGGA,201951.000,3747.7013,N,12215.4672,W,2,05,2.0,-0.5,M,-25.1,M,3.8,0000*62
$GPGSA,A,3,07,16,20,13,23,,,,,,,,3.3,2.0,2.6*35
$GPRMC,201951.000,A,3747.7013,N,12215.4672,W,1.29,56.02,230412,,,D*4A
$GPVTG,56.02,T,,M,1.29,N,2.4,K,D*35
$GPGGA,201952.000,3747.7006,N,12215.4666,W,2,05,2.0,0.4,M,-25.1,M,4.8,0000*4B
$GPGSA,A,3,07,16,20,13,23,,,,,,,,3.3,2.0,2.6*35
$GPRMC,201952.000,A,3747.7006,N,12215.4666,W,1.17,120.71,230412,,,D*71
$GPVTG,120.71,T,,M,1.17,N,2.2,K,D*0A
$GPGGA,201953.000,3747.6999,N,12215.4662,W,2,05,2.0,0.8,M,-25.1,M,5.8,0000*4D
$GPGSA,A,3,07,16,20,13,23,,,,,,,,3.3,2.0,2.6*35
$GPRMC,201953.000,A,3747.6999,N,12215.4662,W,1.53,132.47,230412,,,D*7C
$GPVTG,132.47,T,,M,1.53,N,2.8,K,D*06
$GPGGA,201954.000,3747.6991,N,12215.4660,W,2,05,2.0,3.1,M,-25.1,M,1.8,0000*4E
$GPGSA,A,3,07,16,20,13,23,,,,,,,,3.3,2.0,2.6*35
$GPRMC,201954.000,A,3747.6991,N,12215.4660,W,1.65,130.82,230412,,,D*7F
$GPVTG,130.82,T,,M,1.65,N,3.1,K,D*00
$GPGGA,201955.000,3747.6986,N,12215.4656,W,2,05,2.0,4.4,M,-25.1,M,1.8,0000*4E
$GPGSA,A,3,07,16,20,13,23,,,,,,,,3.3,2.0,2.6*35
$GPGSV,3,1,11,20,76,210,22,23,57,318,23,30,44,080,18,16,42,119,34*7E
$GPGSV,3,2,11,13,30,291,24,31,16,046,,07,15,231,24,01,13,204,36*77
$GPGSV,3,3,11,04,12,310,23,10,00,317,,51,43,156,32*49
$GPRMC,201955.000,A,3747.6986,N,12215.4656,W,1.53,141.94,230412,,,D*79
$GPVTG,141.94,T,,M,1.53,N,2.8,K,D*0C
$GPGGA,201956.000,3747.6977,N,12215.4656,W,2,05,2.0,4.8,M,-25.1,M,2.8,0000*4C
$GPGSA,A,3,07,16,20,13,23,,,,,,,,3.3,2.0,2.6*35
$GPRMC,201956.000,A,3747.6977,N,12215.4656,W,1.74,156.14,230412,,,D*7F
$GPVTG,156.14,T,,M,1.74,N,3.2,K,D*0C
$GPGGA,201957.000,3747.6969,N,12215.4655,W,2,05,2.0,6.9,M,-25.1,M,3.8,0000*43
$GPGSA,A,3,07,16,20,13,23,,,,,,,,3.3,2.0,2.6*35
$GPRMC,201957.000,A,3747.6969,N,12215.4655,W,1.69,148.91,230412,,,D*7C
$GPVTG,148.91,T,,M,1.69,N,3.1,K,D*01
$GPGGA,201958.000,3747.6964,N,12215.4649,W,2,05,2.0,6.7,M,-25.1,M,1.8,0000*40
$GPGSA,A,3,07,16,20,13,23,,,,,,,,3.3,2.0,2.6*35
$GPRMC,201958.000,A,3747.6964,N,12215.4649,W,1.82,158.42,230412,,,D*79
$GPVTG,158.42,T,,M,1.82,N,3.4,K,D*0E
$GPGGA,201959.000,3747.6956,N,12215.4648,W,2,05,2.0,8.1,M,-25.1,M,1.8,0000*49
$GPGSA,A,3,07,16,20,13,23,,,,,,,,3.3,2.0,2.6*35
$GPRMC,201959.000,A,3747.6956,N,12215.4648,W,1.38,153.38,230412,,,D*7F
$GPVTG,153.38,T,,M,1.38,N,2.6,K,D*0A
$GPGGA,202000.000,3747.6955,N,12215.4645,W,2,05,2.0,8.6,M,-25.1,M,1.8,0000*46
$GPGSA,A,3,07,16,20,13,23,,,,,,,,3.3,2.0,2.6*35
$GPGSV,3,1,11,20,76,210,22,23,57,318,24,30,44,080,17,16,42,119,34*76
$GPGSV,3,2,11,13,30,291,25,31,16,046,,07,15,231,27,01,13,204,27*75
$GPGSV,3,3,11,04,12,310,24,10,00,317,,51,43,156,31*4D
$GPRMC,202000.000,A,3747.6955,N,12215.4645,W,1.34,152.73,230412,,,D*75
$GPGGA,202001.000,3747.6948,N,12215.4643,W,2,05,2.0,9.9,M,-25.1,M,1.8,0000*43
$GPGSA,A,3,07,16,20,13,23,,,,,,,,3.3,2.0,2.6*35
$GPRMC,202001.000,A,3747.6948,N,12215.4643,W,1.42,149.80,230412,,,D*79
$GPVTG,149.80,T,,M,1.42,N,2.6,K,D*0F
$GPGGA,202002.000,3747.6938,N,12215.4645,W,2,05,2.0,13.0,M,-25.1,M,2.8,0000*70
$GPGSA,A,3,07,16,20,13,23,,,,,,,,3.3,2.0,2.6*35
$GPRMC,202002.000,A,3747.6938,N,12215.4645,W,1.11,140.62,230412,,,D*78
$GPVTG,140.62,T,,M,1.11,N,2.1,K,D*0B
$GPGGA,202003.000,3747.6922,N,12215.4647,W,2,05,2.0,16.5,M,-25.1,M,3.8,0000*79
$GPGSA,A,3,07,16,20,13,23,,,,,,,,3.3,2.0,2.6*35
$GPRMC,202003.000,A,3747.6922,N,12215.4647,W,1.01,136.60,230412,,,D*72
$GPVTG,136.60,T,,M,1.01,N,1.9,K,D*02
$GPGGA,202004.000,3747.6911,N,12215.4643,W,2,05,2.0,18.5,M,-25.1,M,1.8,0000*76
$GPGSA,A,3,07,16,20,13,23,,,,,,,,3.3,2.0,2.6*35
$GPRMC,202004.000,A,3747.6911,N,12215.4643,W,1.22,135.68,230412,,,D*7B
$GPVTG,135.68,T,,M,1.22,N,2.3,K,D*01
$GPGGA,202005.000,3747.6902,N,12215.4641,W,2,05,2.0,21.3,M,-25.1,M,2.8,0000*78
$GPGSA,A,3,07,16,20,13,23,,,,,,,,3.3,2.0,2.6*35
$GPGSV,3,1,11,20,76,210,22,23,57,318,24,30,44,080,16,16,42,119,33*70
$GPGSV,3,2,11,13,30,291,25,31,16,046,,07,15,231,34,01,13,204,35*74
$GPGSV,3,3,11,04,12,310,26,10,00,317,,51,43,156,30*4E
$GPRMC,202005.000,A,3747.6902,N,12215.4641,W,1.42,142.41,230412,,,D*77
$GPVTG,142.41,T,,M,1.42,N,2.6,K,D*09
$GPGGA,202006.000,3747.6892,N,12215.4635,W,2,05,1.9,22.9,M,-25.1,M,3.8,0000*72
$GPGSA,A,3,07,16,20,13,23,,,,,,,,3.3,1.9,2.6*3F
$GPRMC,202006.000,A,3747.6892,N,12215.4635,W,1.43,145.62,230412,,,D*78
$GPVTG,145.62,T,,M,1.43,N,2.7,K,D*0F
$GPGGA,202007.000,3747.6878,N,12215.4634,W,2,05,1.9,24.1,M,-25.1,M,1.8,0000*7A
$GPGSA,A,3,07,16,20,13,23,,,,,,,,3.3,1.9,2.6*3F
$GPRMC,202007.000,A,3747.6878,N,12215.4634,W,1.76,155.23,230412,,,D*7E
$GPVTG,155.23,T,,M,1.76,N,3.3,K,D*08
$GPGGA,202008.000,3747.6872,N,12215.4629,W,2,05,1.9,22.6,M,-25.1,M,2.8,0000*71
$GPGSA,A,3,07,16,20,13,23,,,,,,,,3.3,1.9,2.6*3F
$GPRMC,202008.000,A,3747.6872,N,12215.4629,W,1.40,145.36,230412,,,D*77
$GPVTG,145.36,T,,M,1.40,N,2.6,K,D*0C
$GPGGA,202009.000,3747.6865,N,12215.4624,W,2,05,1.9,22.9,M,-25.1,M,3.8,0000*75
$GPGSA,A,3,07,16,20,13,23,,,,,,,,3.3,1.9,2.6*3F
$GPRMC,202009.000,A,3747.6865,N,12215.4624,W,1.55,133.69,230412,,,D*72
$GPVTG,133.69,T,,M,1.55,N,2.9,K,D*0C
$GPGGA,202010.000,3747.6851,N,12215.4621,W,2,05,1.9,24.6,M,-25.1,M,1.8,0000*74
$GPGSA,A,3,07,16,20,13,23,,,,,,,,3.3,1.9,2.6*3F
$GPGSV,3,1,11,20,76,210,22,23,57,318,24,30,44,080,17,16,42,119,33*71
$GPGSV,3,2,11,13,30,291,25,31,16,046,,07,15,231,33,01,13,204,36*70
$GPGSV,3,3,11,04,12,310,22,10,00,317,,51,43,156,33*49
$GPRMC,202010.000,A,3747.6851,N,12215.4621,W,1.43,137.56,230412,,,D*77
$GPVTG,137.56,T,,M,1.43,N,2.7,K,D*0D
$GPGGA,202011.000,3747.6844,N,12215.4618,W,2,05,1.9,26.5,M,-25.1,M,1.8,0000*7A
$GPGSA,A,3,07,16,20,13,23,,,,,,,,3.3,1.9,2.6*3F
$GPRMC,202011.000,A,3747.6844,N,12215.4618,W,1.23,123.43,230412,,,D*7F
$GPVTG,123.43,T,,M,1.23,N,2.3,K,D*0E
$GPGGA,202012.000,3747.6841,N,12215.4612,W,2,05,1.9,25.6,M,-25.1,M,2.8,0000*75
$GPGSA,A,3,07,16,20,13,23,,,,,,,,3.3,1.9,2.6*3F
$GPRMC,202012.000,A,3747.6841,N,12215.4612,W,1.45,141.83,230412,,,D*7B
$GPVTG,141.83,T,,M,1.45,N,2.7,K,D*02
$GPGGA,202013.000,3747.6838,N,12215.4605,W,2,05,1.9,25.3,M,-25.1,M,3.8,0000*78
$GPGSA,A,3,07,16,20,13,23,,,,,,,,3.3,1.9,2.6*3F
$GPRMC,202013.000,A,3747.6838,N,12215.4605,W,1.51,138.34,230412,,,D*75
$GPVTG,138.34,T,,M,1.51,N,2.8,K,D*0A
$GPGGA,202014.000,3747.6841,N,12215.4599,W,2,05,1.9,24.8,M,-25.1,M,4.8,0000*7A
$GPGSA,A,3,07,16,20,13,23,,,,,,,,3.3,1.9,2.6*3F
$GPRMC,202014.000,A,3747.6841,N,12215.4599,W,1.45,131.67,230412,,,D*70
$GPVTG,131.67,T,,M,1.45,N,2.7,K,D*0F
$GPGGA,202015.000,3747.6843,N,12215.4593,W,2,05,1.9,24.1,M,-25.1,M,5.8,0000*7B
$GPGSA,A,3,07,16,20,13,23,,,,,,,,3.3,1.9,2.6*3F
$GPGSV,3,1,11,20,76,210,22,23,57,318,23,30,44,080,16,16,42,119,33*77
$GPGSV,3,2,11,13,30,291,26,31,16,046,,07,15,231,27,01,13,204,31*71
$GPGSV,3,3,11,04,12,310,22,10,00,317,,51,43,156,36*4C
$GPRMC,202015.000,A,3747.6843,N,12215.4593,W,1.47,140.71,230412,,,D*7A
$GPGGA,202016.000,3747.6846,N,12215.4585,W,2,05,1.9,23.2,M,-25.1,M,6.8,0000*7D
$GPGSA,A,3,07,16,20,13,23,,,,,,,,3.3,1.9,2.6*3F
$GPRMC,202016.000,A,3747.6846,N,12215.4585,W,1.50,145.91,230412,,,D*76
$GPVTG,145.91,T,,M,1.50,N,2.8,K,D*0E
$GPGGA,202017.000,3747.6838,N,12215.4583,W,2,05,1.9,24.5,M,-25.1,M,1.8,0000*74
$GPGSA,A,3,07,16,20,13,23,,,,,,,,3.3,1.9,2.6*3F
$GPRMC,202017.000,A,3747.6838,N,12215.4583,W,2.20,161.45,230412,,,D*73
$GPVTG,161.45,T,,M,2.20,N,4.1,K,D*0A
$GPGGA,202018.000,3747.6831,N,12215.4580,W,2,05,1.9,25.4,M,-25.1,M,1.8,0000*71
$GPGSA,A,3,07,16,20,13,23,,,,,,,,3.3,1.9,2.6*3F
$GPRMC,202018.000,A,3747.6831,N,12215.4580,W,1.81,144.63,230412,,,D*7D
$GPVTG,144.63,T,,M,1.81,N,3.4,K,D*03
$GPGGA,202019.000,3747.6822,N,12215.4577,W,2,05,1.9,27.4,M,-25.1,M,1.8,0000*78
$GPGSA,A,3,07,16,20,13,23,,,,,,,,3.3,1.9,2.6*3F
$GPRMC,202019.000,A,3747.6822,N,12215.4577,W,1.39,134.79,230412,,,D*79
$GPVTG,134.79,T,,M,1.39,N,2.6,K,D*0F
$GPGGA,202020.000,3747.6814,N,12215.4575,W,2,05,1.9,28.4,M,-25.1,M,2.8,0000*79
$GPGSA,A,3,07,16,20,13,23,,,,,,,,3.3,1.9,2.6*3F
$GPGSV,3,1,11,20,76,210,21,23,57,318,23,30,44,080,16,16,42,119,33*74
$GPGSV,3,2,11,13,30,291,26,31,16,046,,07,15,231,31,01,13,204,30*77
$GPGSV,3,3,11,04,12,310,22,10,00,317,,51,43,156,34*4E
$GPRMC,202020.000,A,3747.6814,N,12215.4575,W,1.52,140.47,230412,,,D*77
$GPVTG,140.47,T,,M,1.52,N,2.8,K,D*02
$GPGGA,202021.000,3747.6797,N,12215.4570,W,2,05,1.9,29.9,M,-25.1,M,1.8,0000*76
$GPGSA,A,3,07,16,20,13,23,,,,,,,,3.3,1.9,2.6*3F
$GPRMC,202021.000,A,3747.6797,N,12215.4570,W,2.22,148.99,230412,,,D*78
$GPVTG,148.99,T,,M,2.22,N,4.1,K,D*02
$GPGGA,202022.000,3747.6787,N,12215.4566,W,2,05,1.9,30.8,M,-25.1,M,2.8,0000*79
$GPGSA,A,3,07,16,20,13,23,,,,,,,,3.3,1.9,2.6*3F
$GPRMC,202022.000,A,3747.6787,N,12215.4566,W,2.27,145.18,230412,,,D*7C
$GPVTG,145.18,T,,M,2.27,N,4.2,K,D*00
$GPGGA,202023.000,3747.6778,N,12215.4561,W,2,05,1.9,30.6,M,-25.1,M,1.8,0000*72
$GPGSA,A,3,07,16,20,13,23,,,,,,,,3.3,1.9,2.6*3F
$GPRMC,202023.000,A,3747.6778,N,12215.4561,W,2.43,150.22,230412,,,D*75
$GPVTG,150.22,T,,M,2.43,N,4.5,K,D*08
$GPGGA,202024.000,3747.6772,N,12215.4553,W,2,05,1.9,28.5,M,-25.1,M,0.8,0000*75
$GPGSA,A,3,07,16,20,13,23,,,,,,,,3.3,1.9,2.6*3F
$GPRMC,202024.000,A,3747.6772,N,12215.4553,W,2.77,152.90,230412,,,D*75
$GPVTG,152.90,T,,M,2.77,N,5.1,K,D*01
$GPGGA,202025.000,3747.6768,N,12215.4545,W,2,05,1.9,28.2,M,-25.1,M,1.8,0000*7E
$GPGSA,A,3,07,16,20,13,23,,,,,,,,3.3,1.9,2.6*3F
$GPGSV,3,1,11,20,76,210,21,23,57,318,23,30,44,080,,16,42,119,34*74
$GPGSV,3,2,11,13,30,291,26,31,16,046,,07,15,231,32,01,13,204,37*73
$GPGSV,3,3,11,04,12,310,22,10,00,317,,51,43,156,34*4E
$GPRMC,202025.000,A,3747.6768,N,12215.4545,W,2.19,138.84,230412,,,D*79
$GPVTG,138.84,T,,M,2.19,N,4.1,K,D*01
$GPGGA,202026.000,3747.6762,N,12215.4538,W,2,05,1.9,27.6,M,-25.1,M,2.8,0000*75
$GPGSA,A,3,07,16,20,13,23,,,,,,,,3.3,1.9,2.6*3F
$GPRMC,202026.000,A,3747.6762,N,12215.4538,W,2.65,143.33,230412,,,D*71
$GPVTG,143.33,T,,M,2.65,N,4.9,K,D*02
$GPGGA,202027.000,3747.6758,N,12215.4530,W,2,05,1.9,27.1,M,-25.1,M,3.8,0000*73
$GPGSA,A,3,07,16,20,13,23,,,,,,,,3.3,1.9,2.6*3F
$GPRMC,202027.000,A,3747.6758,N,12215.4530,W,2.51,141.54,230412,,,D*75
$GPVTG,141.54,T,,M,2.51,N,4.7,K,D*08
$GPGGA,202028.000,3747.6755,N,12215.4523,W,2,05,1.9,26.6,M,-25.1,M,1.8,0000*77
$GPGSA,A,3,07,16,20,13,23,,,,,,,,3.3,1.9,2.6*3F
$GPRMC,202028.000,A,3747.6755,N,12215.4523,W,2.41,135.70,230412,,,D*71
$GPVTG,135.70,T,,M,2.41,N,4.5,K,D*0E
$GPGGA,202029.000,3747.6758,N,12215.4515,W,2,05,1.9,24.7,M,-25.1,M,1.8,0000*7D
$GPGSA,A,3,07,16,20,13,23,,,,,,,,3.3,1.9,2.6*3F
$GPRMC,202029.000,A,3747.6758,N,12215.4515,W,1.88,123.50,230412,,,D*7B
$GPVTG,123.50,T,,M,1.88,N,3.5,K,D*0A
$GPGGA,202030.000,3747.6758,N,12215.4508,W,2,05,1.9,22.9,M,-25.1,M,1.8,0000*71
$GPGSA,A,3,07,16,20,13,23,,,,,,,,3.3,1.9,2.6*3F
$GPGSV,3,1,11,20,76,210,21,23,57,318,23,30,44,080,29,16,42,119,34*7F
$GPGSV,3,2,11,13,30,291,27,31,16,046,,07,15,231,32,01,13,204,36*73
$GPGSV,3,3,11,04,12,310,22,10,00,317,,51,43,156,34*4E
$GPVTG,117.50,T,,M,1.87,N,3.5,K,D*02
$GPGGA,202031.000,3747.6756,N,12215.4500,W,2,05,1.9,20.7,M,-25.1,M,1.8,0000*7A
$GPGSA,A,3,07,16,20,13,23,,,,,,,,3.3,1.9,2.6*3F
$GPRMC,202031.000,A,3747.6756,N,12215.4500,W,2.15,128.91,230412,,,D*79
$GPVTG,128.91,T,,M,2.15,N,4.0,K,D*09
$GPGGA,202032.000,3747.6752,N,12215.4494,W,2,05,1.9,19.5,M,-25.1,M,2.8,0000*7A
$GPGSA,A,3,07,16,20,13,23,,,,,,,,3.3,1.9,2.6*3F
$GPRMC,202032.000,A,3747.6752,N,12215.4494,W,2.35,140.93,230412,,,D*7C
$GPVTG,140.93,T,,M,2.35,N,4.4,K,D*03
$GPGGA,202033.000,3747.6750,N,12215.4488,W,2,05,1.9,16.7,M,-25.1,M,3.8,0000*78
$GPGSA,A,3,07,16,20,13,23,,,,,,,,3.3,1.9,2.6*3F
$GPRMC,202033.000,A,3747.6750,N,12215.4488,W,2.19,148.54,230412,,,D*7F
$GPVTG,148.54,T,,M,2.19,N,4.0,K,D*0A
$GPGGA,202034.000,3747.6744,N,12215.4482,W,2,05,1.9,15.1,M,-25.1,M,4.8,0000*72
$GPGSA,A,3,07,16,20,13,23,,,,,,,,3.3,1.9,2.6*3F
$GPRMC,202034.000,A,3747.6744,N,12215.4482,W,2.13,145.17,230412,,,D*77
$GPVTG,145.17,T,,M,2.13,N,3.9,K,D*04
$GPGGA,202035.000,3747.6743,N,12215.4475,W,2,05,1.9,12.8,M,-25.1,M,1.8,0000*77
$GPGSA,A,3,07,16,20,13,23,,,,,,,,3.3,1.9,2.6*3F
$GPGSV,3,1,11,20,76,210,23,23,57,318,23,30,44,080,29,16,42,119,34*7D
$GPGSV,3,2,11,13,30,291,27,31,16,046,,07,15,231,31,01,13,204,36*70
$GPGSV,3,3,11,04,12,310,21,10,00,317,,51,43,156,34*4D
$GPRMC,202035.000,A,3747.6743,N,12215.4475,W,2.55,131.45,230412,,,D*7F
$GPVTG,131.45,T,,M,2.55,N,4.7,K,D*0B
$GPGGA,202036.000,3747.6743,N,12215.4466,W,2,05,1.9,11.0,M,-25.1,M,1.8,0000*7D
$GPGSA,A,3,07,16,20,13,23,,,,,,,,3.3,1.9,2.6*3F
$GPRMC,202036.000,A,3747.6743,N,12215.4466,W,2.70,126.62,230412,,,D*7A
$GPVTG,126.62,T,,M,2.70,N,5.0,K,D*09
$GPGGA,202037.000,3747.6739,N,12215.4458,W,2,05,1.9,10.8,M,-25.1,M,1.8,0000*75
$GPGSA,A,3,07,16,20,13,23,,,,,,,,3.3,1.9,2.6*3F
$GPRMC,202037.000,A,3747.6739,N,12215.4458,W,2.59,115.28,230412,,,D*7E
$GPVTG,115.28,T,,M,2.59,N,4.8,K,D*05
$GPGGA,202038.000,3747.6743,N,12215.4446,W,2,05,1.9,8.3,M,-25.1,M,2.8,0000*49
$GPGSA,A,3,07,16,20,13,23,,,,,,,,3.3,1.9,2.6*3F
$GPRMC,202038.000,A,3747.6743,N,12215.4446,W,2.16,103.85,230412,,,D*78
$GPVTG,103.85,T,,M,2.16,N,4.0,K,D*06
$GPGGA,202039.000,3747.6748,N,12215.4438,W,2,05,1.9,6.6,M,-25.1,M,3.8,0000*40
$GPGSA,A,3,07,16,20,13,23,,,,,,,,3.3,1.9,2.6*3F
$GPRMC,202039.000,A,3747.6748,N,12215.4438,W,2.05,99.26,230412,,,D*42
$GPVTG,99.26,T,,M,2.05,N,3.8,K,D*30
$GPGGA,202040.000,3747.6740,N,12215.4432,W,2,05,1.9,6.6,M,-25.1,M,4.8,0000*4B
$GPGSA,A,3,07,16,20,13,23,,,,,,,,3.3,1.9,2.6*3F
$GPGSV,3,1,11,20,76,210,23,23,57,318,23,30,44,080,29,16,42,119,34*7D
$GPGSV,3,2,11,13,30,291,26,31,16,046,,07,15,231,32,01,13,204,33*77
$GPGSV,3,3,11,04,12,310,22,10,00,317,,51,43,156,33*49
$GPRMC,202040.000,A,3747.6740,N,12215.4432,W,2.01,115.73,230412,,,D*7F
$GPVTG,115.73,T,,M,2.01,N,3.7,K,D*0E
$GPGGA,202041.000,3747.6730,N,12215.4430,W,2,04,2.4,7.8,M,-25.1,M,1.8,0000*4A
$GPGSA,A,3,07,16,20,23,,,,,,,,,3.9,2.4,3.1*3F
$GPRMC,202041.000,A,3747.6730,N,12215.4430,W,2.23,120.18,230412,,,D*70
$GPVTG,120.18,T,,M,2.23,N,4.1,K,D*04
$GPGGA,202042.000,3747.6725,N,12215.4426,W,2,05,1.9,8.6,M,-25.1,M,1.8,0000*44
$GPGSA,A,3,07,16,20,13,23,,,,,,,,3.3,1.9,2.6*3F
$GPRMC,202042.000,A,3747.6725,N,12215.4426,W,1.85,116.01,230412,,,D*72
$GPVTG,116.01,T,,M,1.85,N,3.4,K,D*04
$GPGGA,202043.000,3747.6708,N,12215.4422,W,2,05,1.9,10.2,M,-25.1,M,1.8,0000*73
$GPGSA,A,3,07,16,20,13,23,,,,,,,,3.3,1.9,2.6*3F
$GPRMC,202043.000,A,3747.6708,N,12215.4422,W,1.99,122.56,230412,,,D*70
$GPVTG,122.56,T,,M,1.99,N,3.7,K,D*0F
$GPGGA,202044.000,3747.6691,N,12215.4420,W,2,05,1.9,13.2,M,-25.1,M,1.8,0000*74
$GPGSA,A,3,07,16,20,13,23,,,,,,,,3.3,1.9,2.6*3F
$GPRMC,202044.000,A,3747.6691,N,12215.4420,W,2.09,118.38,230412,,,D*7F
$GPVTG,118.38,T,,M,2.09,N,3.9,K,D*0A
$GPGGA,202045.000,3747.6686,N,12215.4417,W,2,05,1.9,15.2,M,-25.1,M,2.8,0000*72
$GPGSA,A,3,07,16,20,13,23,,,,,,,,3.3,1.9,2.6*3F
$GPGSV,3,1,11,20,76,210,23,23,57,318,23,30,44,080,26,16,42,119,34*72
$GPGSV,3,2,11,13,30,291,25,31,16,046,,07,15,231,33,01,13,204,33*75
$GPGSV,3,3,11,04,12,310,22,10,00,317,,51,43,156,32*48
$GPRMC,202045.000,A,3747.6686,N,12215.4417,W,1.98,106.31,230412,,,D*71
$GPGGA,202046.000,3747.6684,N,12215.4413,W,2,05,1.9,15.9,M,-25.1,M,3.8,0000*7D
$GPGSA,A,3,07,16,20,13,23,,,,,,,,3.3,1.9,2.6*3F
$GPRMC,202046.000,A,3747.6684,N,12215.4413,W,1.42,77.40,230412,,,D*42
$GPVTG,77.40,T,,M,1.42,N,2.6,K,D*3F
$GPGGA,202047.000,3747.6689,N,12215.4408,W,2,05,1.9,15.2,M,-25.1,M,4.8,0000*77
$GPGSA,A,3,07,16,20,13,23,,,,,,,,3.3,1.9,2.6*3F
$GPRMC,202047.000,A,3747.6689,N,12215.4408,W,1.32,110.45,230412,,,D*76
$GPVTG,110.45,T,,M,1.32,N,2.4,K,D*0F
$GPGGA,202048.000,3747.6688,N,12215.4401,W,2,05,1.9,13.2,M,-25.1,M,5.8,0000*77
$GPGSA,A,3,07,16,20,13,23,,,,,,,,3.3,1.9,2.6*3F
$GPRMC,202048.000,A,3747.6688,N,12215.4401,W,1.92,126.88,230412,,,D*7F
$GPVTG,126.88,T,,M,1.92,N,3.6,K,D*02
$GPGGA,202049.000,3747.6680,N,12215.4396,W,2,05,1.9,13.4,M,-25.1,M,6.8,0000*72
$GPGSA,A,3,07,16,20,13,23,,,,,,,,3.3,1.9,2.6*3F
$GPRMC,202049.000,A,3747.6680,N,12215.4396,W,2.15,128.40,230412,,,D*79
$GPVTG,128.40,T,,M,2.15,N,4.0,K,D*05
$GPGGA,202050.000,3747.6680,N,12215.4392,W,2,05,1.9,12.9,M,-25.1,M,7.8,0000*73
$GPGSA,A,3,07,16,20,13,23,,,,,,,,3.3,1.9,2.6*3F
$GPGSV,3,1,11,20,76,208,23,23,58,318,21,30,44,079,22,16,42,119,34*74
$GPGSV,3,2,11,13,30,292,25,31,16,047,,07,16,231,31,01,13,204,34*71
$GPGSV,3,3,11,04,12,309,23,10,01,317,,51,43,156,32*40
$GPRMC,202050.000,A,3747.6680,N,12215.4392,W,1.92,123.40,230412,,,D*72
$GPVTG,123.40,T,,M,1.92,N,3.5,K,D*00
$GPGGA,202051.000,3747.6674,N,12215.4384,W,2,05,1.9,12.0,M,-25.1,M,8.8,0000*78
$GPGSA,A,3,07,16,20,13,23,,,,,,,,3.3,1.9,2.6*3F
$GPRMC,202051.000,A,3747.6674,N,12215.4384,W,1.75,114.54,230412,,,D*77
$GPVTG,114.54,T,,M,1.75,N,3.2,K,D*0F
$GPGGA,202052.000,3747.6674,N,12215.4378,W,2,06,1.8,11.2,M,-25.1,M,,0000*55
$GPGSA,A,3,07,16,20,13,23,01,,,,,,,3.2,1.8,2.6*3E
$GPRMC,202052.000,A,3747.6674,N,12215.4378,W,1.44,120.69,230412,,,D*7C
$GPVTG,120.69,T,,M,1.44,N,2.7,K,D*00
$GPGGA,202053.000,3747.6665,N,12215.4371,W,2,06,1.8,12.1,M,-25.1,M,10.8,0000*4A
$GPGSA,A,3,07,16,20,13,23,01,,,,,,,3.2,1.8,2.6*3E
$GPRMC,202053.000,A,3747.6665,N,12215.4371,W,1.50,118.47,230412,,,D*76
$GPVTG,118.47,T,,M,1.50,N,2.8,K,D*0D
$GPGGA,202054.000,3747.6655,N,12215.4366,W,2,06,1.8,14.4,M,-25.1,M,11.8,0000*4A
$GPGSA,A,3,07,16,20,13,23,01,,,,,,,3.2,1.8,2.6*3E
$GPRMC,202054.000,A,3747.6655,N,12215.4366,W,1.78,107.90,230412,,,D*7A
$GPVTG,107.90,T,,M,1.78,N,3.3,K,D*09
$GPGGA,202055.000,3747.6657,N,12215.4356,W,2,06,1.8,11.8,M,-25.1,M,,0000*55
$GPGSA,A,3,07,16,20,13,23,01,,,,,,,3.2,1.8,2.6*3E
$GPGSV,3,1,11,20,76,208,21,23,58,319,22,30,44,079,26,16,42,119,33*77
$GPGSV,3,2,11,13,30,292,24,07,16,231,31,31,16,047,,01,13,204,33*77
$GPGSV,3,3,11,04,12,309,22,10,01,317,,51,43,156,33*40
$GPRMC,202055.000,A,3747.6657,N,12215.4356,W,1.62,85.36,230412,,,D*46
$GPVTG,85.36,T,,M,1.62,N,3.0,K,D*36
$GPGGA,202056.000,3747.6659,N,12215.4348,W,2,06,1.8,10.2,M,-25.1,M,2.8,0000*78
$GPGSA,A,3,07,16,20,13,23,01,,,,,,,3.2,1.8,2.6*3E
$GPRMC,202056.000,A,3747.6659,N,12215.4348,W,1.52,70.20,230412,,,D*4A
$GPVTG,70.20,T,,M,1.52,N,2.8,K,D*31
$GPGGA,202057.000,3747.6661,N,12215.4340,W,2,06,1.8,9.0,M,-25.1,M,3.8,0000*41
$GPGSA,A,3,07,16,20,13,23,01,,,,,,,3.2,1.8,2.6*3E
$GPRMC,202057.000,A,3747.6661,N,12215.4340,W,1.59,91.21,230412,,,D*4D
$GPVTG,91.21,T,,M,1.59,N,2.9,K,D*35
$GPGGA,202058.000,3747.6667,N,12215.4332,W,2,06,1.8,6.7,M,-25.1,M,1.8,0000*47
$GPGSA,A,3,07,16,20,13,23,01,,,,,,,3.2,1.8,2.6*3E
$GPRMC,202058.000,A,3747.6667,N,12215.4332,W,1.38,76.30,230412,,,D*4F
$GPVTG,76.30,T,,M,1.38,N,2.6,K,D*34
$GPGGA,202059.000,3747.6671,N,12215.4324,W,2,06,1.8,4.5,M,-25.1,M,1.8,0000*46
$GPGSA,A,3,07,16,20,13,23,01,,,,,,,3.2,1.8,2.6*3E
$GPRMC,202059.000,A,3747.6671,N,12215.4324,W,1.57,88.02,230412,,,D*47
$GPVTG,88.02,T,,M,1.57,N,2.9,K,D*32
$GPGGA,202100.000,3747.6663,N,12215.4318,W,2,06,1.8,4.5,M,-25.1,M,1.8,0000*47
$GPGSA,A,3,07,16,20,13,23,01,,,,,,,3.2,1.8,2.6*3E
$GPGSV,3,1,11,20,76,208,22,23,58,319,23,30,44,079,27,16,42,119,33*74
$GPGSV,3,2,11,13,30,292,24,07,16,231,31,31,16,047,,01,13,204,35*71
$GPGSV,3,3,11,04,12,309,22,10,01,317,,51,43,156,31*42
$GPVTG,104.26,T,,M,1.47,N,2.7,K,D*0E
$GPGGA,202101.000,3747.6664,N,12215.4312,W,2,06,1.8,2.8,M,-25.1,M,1.8,0000*40
$GPGSA,A,3,07,16,20,13,23,01,,,,,,,3.2,1.8,2.6*3E
$GPRMC,202101.000,A,3747.6664,N,12215.4312,W,1.21,94.75,230412,,,D*46
$GPVTG,94.75,T,,M,1.21,N,2.2,K,D*35
$GPGGA,202102.000,3747.6664,N,12215.4305,W,2,06,1.8,0.5,M,-25.1,M,1.8,0000*4A
$GPGSA,A,3,07,16,20,13,23,01,,,,,,,3.2,1.8,2.6*3E
$GPRMC,202102.000,A,3747.6664,N,12215.4305,W,1.55,102.34,230412,,,D*7B
$GPVTG,102.34,T,,M,1.55,N,2.9,K,D*06
$GPGGA,202103.000,3747.6654,N,12215.4301,W,2,06,1.8,1.0,M,-25.1,M,2.8,0000*4B
$GPGSA,A,3,07,16,20,13,23,01,,,,,,,3.2,1.8,2.6*3E
$GPRMC,202103.000,A,3747.6654,N,12215.4301,W,2.01,118.38,230412,,,D*78
$GPVTG,118.38,T,,M,2.01,N,3.7,K,D*0C
$GPGGA,202104.000,3747.6643,N,12215.4298,W,2,06,1.8,3.6,M,-25.1,M,3.8,0000*4E
$GPGSA,A,3,07,16,20,13,23,01,,,,,,,3.2,1.8,2.6*3E
$GPRMC,202104.000,A,3747.6643,N,12215.4298,W,2.05,123.49,230412,,,D*72
$GPVTG,123.49,T,,M,2.05,N,3.8,K,D*09
$GPGGA,202105.000,3747.6631,N,12215.4293,W,2,06,1.8,6.0,M,-25.1,M,1.8,0000*40
$GPGSA,A,3,07,16,20,13,23,01,,,,,,,3.2,1.8,2.6*3E
$GPGSV,3,1,11,20,76,208,27,23,58,319,22,30,44,079,30,16,42,119,33*76
$GPGSV,3,2,11,13,30,292,24,07,16,231,31,31,16,047,,01,13,204,35*71
$GPGSV,3,3,11,04,12,309,21,10,01,317,,51,43,156,34*44
