$ADVER,3080,2.3
$GPRMC,201334.210,A,3747.7362,N,12215.4824,W,5.22,347.21,230412,,,A*70
$GPGGA,201335.210,3747.7279,N,12215.4797,W,1,04,5.3,-4.4,M,-25.1,M,,0000*4B
$GPGSA,A,3,01,32,07,16,,,,,,,,,6.9,5.3,4.4*3B
$GPRMC,201335.210,A,3747.7279,N,12215.4797,W,4.62,348.45,230412,,,A*75
$GPVTG,348.45,T,,M,4.62,N,8.5,K,A*0E
$GPGGA,201336.210,3747.7279,N,12215.4798,W,1,04,5.3,-4.4,M,-25.1,M,,0000*47
$GPGSA,A,3,01,32,07,16,,,,,,,,,6.9,5.3,4.4*3B
$GPRMC,201336.210,A,3747.7279,N,12215.4798,W,4.06,350.54,230412,,,A*72
$GPVTG,350.54,T,,M,4.06,N,7.5,K,A*0A
$GPGGA,201337.000,3747.7279,N,12215.4798,W,1,04,5.3,-4.4,M,-25.1,M,,0000*45
$GPGSA,A,3,01,32,07,16,,,,,,,,,6.9,5.3,4.4*3B
$GPRMC,201337.000,A,3747.7279,N,12215.4798,W,3.34,353.15,230412,,,A*70
$GPVTG,353.15,T,,M,3.34,N,6.2,K,A*0C
$GPGGA,201338.000,3747.7284,N,12215.4800,W,1,04,5.3,-4.7,M,-25.1,M,,0000*45
$GPGSA,A,3,01,32,07,16,,,,,,,,,6.9,5.3,4.4*3B
$GPRMC,201338.000,A,3747.7284,N,12215.4800,W,2.67,354.39,230412,,,A*7D
$GPVTG,354.39,T,,M,2.67,N,5.0,K,A*03
$GPGGA,201339.000,3747.7285,N,12215.4801,W,1,04,5.3,-4.7,M,-25.1,M,,0000*44
$GPGSA,A,3,01,32,07,16,,,,,,,,,6.9,5.3,4.4*3B
$GPGSV,3,1,12,32,59,144,31,16,40,123,35,01,15,206,33,07,13,229,26*7A
$GPGSV,3,2,12,20,78,221,25,23,56,314,30,30,44,084,19,13,28,289,29*70
$GPGSV,3,3,12,31,19,046,,04,11,312,,11,01,195,,24,00,179,*73
$GPRMC,201339.000,A,3747.7285,N,12215.4801,W,2.11,356.95,230412,,,A*79
$GPVTG,356.95,T,,M,2.11,N,3.9,K,A*09
$GPGGA,201340.000,3747.7282,N,12215.4800,W,1,04,5.3,-4.3,M,-25.1,M,,0000*48
$GPGSA,A,3,01,32,07,16,,,,,,,,,6.9,5.3,4.4*3B
$GPRMC,201340.000,A,3747.7282,N,12215.4800,W,1.66,358.76,230412,,,A*71
$GPVTG,358.76,T,,M,1.66,N,3.1,K,A*01
$GPGGA,201341.000,3747.7276,N,12215.4798,W,1,04,5.3,-3.6,M,-25.1,M,,0000*4E
$GPGSA,A,3,01,32,07,16,,,,,,,,,6.9,5.3,4.4*3B
$GPRMC,201341.000,A,3747.7276,N,12215.4798,W,1.32,1.20,230412,,,A*78
$GPVTG,1.20,T,,M,1.32,N,2.4,K,A*08
$GPGGA,201342.000,3747.7268,N,12215.4797,W,1,04,5.3,-2.9,M,-25.1,M,,0000*43
$GPGSA,A,3,01,32,07,16,,,,,,,,,6.9,5.3,4.4*3B
$GPRMC,201342.000,A,3747.7268,N,12215.4797,W,1.02,3.24,230412,,,A*7E
$GPVTG,3.24,T,,M,1.02,N,1.9,K,A*03
$GPGGA,201343.000,3747.7263,N,12215.4795,W,1,04,5.3,-2.3,M,-25.1,M,,0000*41
$GPGSA,A,3,01,32,07,16,,,,,,,,,6.9,5.3,4.4*3B
$GPRMC,201343.000,A,3747.7263,N,12215.4795,W,0.84,6.72,230412,,,A*7F
$GPVTG,6.72,T,,M,0.84,N,1.5,K,A*06
$GPGGA,201344.000,3747.7258,N,12215.4794,W,1,04,5.3,-1.7,M,-25.1,M,,0000*48
$GPGSA,A,3,01,32,07,16,,,,,,,,,6.9,5.3,4.4*3B
$GPGSV,3,1,12,20,78,221,26,32,59,144,31,23,56,314,29,30,44,084,18*77
$GPGSV,3,2,12,16,40,123,35,13,28,289,28,31,19,046,,01,15,206,32*77
$GPGSV,3,3,12,07,13,230,33,04,11,312,,11,01,195,23,24,00,179,*7E
$GPRMC,201344.000,A,3747.7258,N,12215.4794,W,0.63,11.75,230412,,,A*49
$GPVTG,11.75,T,,M,0.63,N,1.2,K,A*39
$GPGGA,201345.000,3747.7252,N,12215.4793,W,1,04,5.3,-1.2,M,-25.1,M,,0000*41
$GPGSA,A,3,01,32,07,16,,,,,,,,,6.9,5.3,4.4*3B
$GPRMC,201345.000,A,3747.7252,N,12215.4793,W,0.40,27.29,230412,,,A*48
$GPVTG,27.29,T,,M,0.40,N,0.7,K,A*30
$GPGGA,201346.000,3747.7247,N,12215.4792,W,1,04,5.3,-0.6,M,-25.1,M,,0000*42
$GPGSA,A,3,01,32,07,16,,,,,,,,,6.9,5.3,4.4*3B
$GPRMC,201346.000,A,3747.7247,N,12215.4792,W,0.23,51.18,230412,,,A*48
$GPVTG,51.18,T,,M,0.23,N,0.4,K,A*35
$GPGGA,201347.000,3747.7243,N,12215.4791,W,1,04,5.3,-0.2,M,-25.1,M,,0000*40
$GPGSA,A,3,01,32,07,16,,,,,,,,,6.9,5.3,4.4*3B
$GPRMC,201347.000,A,3747.7243,N,12215.4791,W,0.25,34.34,230412,,,A*45
$GPVTG,34.34,T,,M,0.25,N,0.5,K,A*3F
$GPGGA,201348.000,3747.7239,N,12215.4790,W,1,04,5.3,0.3,M,-25.1,M,,0000*6F
$GPGSA,A,3,01,32,07,16,,,,,,,,,6.9,5.3,4.4*3B
$GPRMC,201348.000,A,3747.7239,N,12215.4790,W,0.19,37.54,230412,,,A*4C
$GPVTG,37.54,T,,M,0.19,N,0.3,K,A*33
$GPGGA,201349.000,3747.7235,N,12215.4790,W,1,04,5.3,0.8,M,-25.1,M,,0000*69
$GPGSA,A,3,01,32,07,16,,,,,,,,,6.9,5.3,4.4*3B
$GPGSV,3,1,12,20,78,221,26,32,59,144,31,23,56,314,27,30,44,084,18*79
$GPGSV,3,2,12,16,40,123,34,13,28,289,26,31,19,046,,01,15,206,27*7C
$GPGSV,3,3,12,07,13,230,30,04,11,312,20,11,01,195,15,24,00,179,*7A
$GPRMC,201349.000,A,3747.7235,N,12215.4790,W,0.17,63.78,230412,,,A*40
$GPVTG,63.78,T,,M,0.17,N,0.3,K,A*32
$GPGGA,201350.000,3747.7232,N,12215.4789,W,1,04,5.3,1.2,M,-25.1,M,,0000*65
$GPGSA,A,3,01,32,07,16,,,,,,,,,6.9,5.3,4.4*3B
$GPRMC,201350.000,A,3747.7232,N,12215.4789,W,0.10,63.77,230412,,,A*4F
$GPVTG,63.77,T,,M,0.10,N,0.2,K,A*3B
$GPGGA,201351.000,3747.7228,N,12215.4789,W,1,04,5.3,1.7,M,-25.1,M,,0000*6A
$GPGSA,A,3,01,32,07,16,,,,,,,,,6.9,5.3,4.4*3B
$GPRMC,201351.000,A,3747.7228,N,12215.4789,W,0.08,82.09,230412,,,A*4A
$GPVTG,82.09,T,,M,0.08,N,0.1,K,A*37
$GPGGA,201352.000,3747.7224,N,12215.4788,W,1,04,5.3,2.0,M,-25.1,M,,0000*60
$GPGSA,A,3,01,32,07,16,,,,,,,,,6.9,5.3,4.4*3B
$GPRMC,201352.000,A,3747.7224,N,12215.4788,W,0.15,135.14,230412,,,A*79
$GPVTG,135.14,T,,M,0.15,N,0.3,K,A*08
$GPGGA,201353.000,3747.7221,N,12215.4787,W,1,04,5.3,2.4,M,-25.1,M,,0000*6F
$GPGSA,A,3,01,32,07,16,,,,,,,,,6.9,5.3,4.4*3B
$GPRMC,201353.000,A,3747.7221,N,12215.4787,W,0.16,155.17,230412,,,A*74
$GPVTG,155.17,T,,M,0.16,N,0.3,K,A*0E
$GPGGA,201354.000,3747.7218,N,12215.4787,W,1,04,5.3,2.7,M,-25.1,M,,0000*61
$GPGSA,A,3,01,32,07,16,,,,,,,,,6.9,5.3,4.4*3B
$GPGSV,3,1,12,20,78,221,26,32,59,144,31,23,56,314,17,30,44,084,17*75
$GPGSV,3,2,12,16,40,123,33,13,28,289,26,31,19,046,,01,15,206,27*7B
$GPGSV,3,3,12,07,13,230,30,04,11,312,20,11,01,195,15,24,00,179,*7A
$GPVTG,152.10,T,,M,0.17,N,0.3,K,A*0F
$GPGGA,201355.000,3747.7215,N,12215.4786,W,1,04,5.3,2.9,M,-25.1,M,,0000*62
$GPGSA,A,3,01,32,07,16,,,,,,,,,6.9,5.3,4.4*3B
$GPRMC,201355.000,A,3747.7215,N,12215.4786,W,0.21,151.86,230412,,,A*7C
$GPVTG,151.86,T,,M,0.21,N,0.4,K,A*01
$GPGGA,201356.000,3747.7212,N,12215.4786,W,1,04,5.3,3.2,M,-25.1,M,,0000*6C
$GPGSA,A,3,01,32,07,16,,,,,,,,,6.9,5.3,4.4*3B
$GPRMC,201356.000,A,3747.7212,N,12215.4786,W,0.18,164.29,230412,,,A*71
$GPVTG,164.29,T,,M,0.18,N,0.3,K,A*0F
$GPGGA,201357.000,3747.7208,N,12215.4786,W,1,04,5.3,3.5,M,-25.1,M,,0000*61
$GPGSA,A,3,01,32,07,16,,,,,,,,,6.9,5.3,4.4*3B
$GPRMC,201357.000,A,3747.7208,N,12215.4786,W,0.29,167.12,230412,,,A*72
$GPVTG,167.12,T,,M,0.29,N,0.5,K,A*00
$GPGGA,201358.000,3747.7208,N,12215.4783,W,1,04,5.3,2.3,M,-25.1,M,,0000*6C
$GPGSA,A,3,01,32,07,16,,,,,,,,,6.9,5.3,4.4*3B
$GPRMC,201358.000,A,3747.7208,N,12215.4783,W,0.24,152.32,230412,,,A*71
$GPVTG,152.32,T,,M,0.24,N,0.4,K,A*08
$GPGGA,201359.000,3747.7204,N,12215.4784,W,1,04,5.3,3.1,M,-25.1,M,,0000*65
$GPGSA,A,3,01,32,07,16,,,,,,,,,6.9,5.3,4.4*3B
$GPGSV,3,1,12,20,78,221,26,32,59,144,26,23,56,314,25,30,44,084,*74
$GPGSV,3,2,12,16,40,123,33,13,28,289,25,31,19,046,,01,15,206,28*77
$GPGSV,3,3,12,07,13,230,31,04,11,312,20,11,01,195,,24,00,179,*7F
$GPRMC,201359.000,A,3747.7204,N,12215.4784,W,0.32,164.06,230412,,,A*7E
$GPVTG,164.06,T,,M,0.32,N,0.6,K,A*0F
$GPGGA,201400.000,3747.7200,N,12215.4785,W,1,04,5.3,4.4,M,-25.1,M,,0000*69
$GPGSA,A,3,01,32,07,16,,,,,,,,,6.9,5.3,4.4*3B
$GPRMC,201400.000,A,3747.7200,N,12215.4785,W,0.37,157.04,230412,,,A*77
$GPVTG,157.04,T,,M,0.37,N,0.7,K,A*09
$GPGGA,201401.000,3747.7182,N,12215.4785,W,1,04,5.3,6.0,M,-25.1,M,,0000*67
$GPGSA,A,3,01,32,07,16,,,,,,,,,6.9,5.3,4.4*3B
$GPRMC,201401.000,A,3747.7182,N,12215.4785,W,1.24,164.16,230412,,,A*7F
$GPVTG,164.16,T,,M,1.24,N,2.3,K,A*0F
$GPGGA,201402.000,3747.7153,N,12215.4783,W,1,04,5.3,7.7,M,-25.1,M,,0000*68
$GPGSA,A,3,01,32,07,16,,,,,,,,,6.9,5.3,4.4*3B
$GPRMC,201402.000,A,3747.7153,N,12215.4783,W,2.36,176.27,230412,,,A*77
$GPVTG,176.27,T,,M,2.36,N,4.4,K,A*0F
$GPGGA,201403.000,3747.7145,N,12215.4785,W,1,04,5.3,9.0,M,-25.1,M,,0000*61
$GPGSA,A,3,01,32,07,16,,,,,,,,,6.9,5.3,4.4*3B
$GPRMC,201403.000,A,3747.7145,N,12215.4785,W,2.46,174.15,230412,,,A*73
$GPVTG,174.15,T,,M,2.46,N,4.5,K,A*0A
$GPGGA,201404.000,3747.7143,N,12215.4788,W,1,04,5.3,10.4,M,-25.1,M,,0000*51
$GPGSA,A,3,01,32,07,16,,,,,,,,,6.9,5.3,4.4*3B
$GPGSV,3,1,12,20,78,221,20,32,59,144,32,23,56,314,20,30,44,084,*72
$GPGSV,3,2,12,16,40,123,32,13,28,289,27,31,19,046,,01,15,206,21*7D
$GPGSV,3,3,12,07,13,230,30,04,11,312,22,11,01,195,,24,00,179,*7C
$GPRMC,201404.000,A,3747.7143,N,12215.4788,W,2.57,173.31,230412,,,A*7E
$GPVTG,173.31,T,,M,2.57,N,4.8,K,A*06
$GPGGA,201405.000,3747.7127,N,12215.4790,W,1,04,5.3,12.8,M,-25.1,M,,0000*55
$GPGSA,A,3,01,32,07,16,,,,,,,,,6.9,5.3,4.4*3B
$GPRMC,201405.000,A,3747.7127,N,12215.4790,W,3.21,176.18,230412,,,A*7A
$GPVTG,176.18,T,,M,3.21,N,5.9,K,A*08
$GPGGA,201406.000,3747.7096,N,12215.4790,W,1,04,5.3,15.3,M,-25.1,M,,0000*51
$GPGSA,A,3,01,32,07,16,,,,,,,,,6.9,5.3,4.4*3B
$GPRMC,201406.000,A,3747.7096,N,12215.4790,W,4.43,176.03,230412,,,A*7B
$GPVTG,176.03,T,,M,4.43,N,8.2,K,A*07
$GPGGA,201407.000,3747.7086,N,12215.4791,W,1,04,5.3,16.9,M,-25.1,M,,0000*59
$GPGSA,A,3,01,32,07,16,,,,,,,,,6.9,5.3,4.4*3B
$GPRMC,201407.000,A,3747.7086,N,12215.4791,W,4.64,175.68,230412,,,A*71
$GPVTG,175.68,T,,M,4.64,N,8.6,K,A*08
$GPGGA,201408.000,3747.7085,N,12215.4792,W,1,04,5.3,18.0,M,-25.1,M,,0000*51
$GPGSA,A,3,01,32,07,16,,,,,,,,,6.9,5.3,4.4*3B
$GPRMC,201408.000,A,3747.7085,N,12215.4792,W,4.94,177.37,230412,,,A*79
$GPVTG,177.37,T,,M,4.94,N,9.2,K,A*0A
$GPGGA,201409.000,3747.7090,N,12215.4794,W,1,04,5.3,19.3,M,-25.1,M,,0000*50
$GPGSA,A,3,01,32,07,16,,,,,,,,,6.9,5.3,4.4*3B
$GPGSV,3,1,12,20,78,221,28,32,59,144,39,23,56,314,26,30,44,084,*77
$GPGSV,3,2,12,16,40,123,36,13,28,289,31,31,19,046,,01,15,206,18*74
$GPGSV,3,3,12,07,13,230,29,04,11,312,20,11,01,195,,24,00,179,*76
$GPVTG,177.10,T,,M,3.45,N,6.4,K,A*0D
$GPGGA,201410.000,3747.7083,N,12215.4792,W,1,04,5.3,20.8,M,-25.1,M,,0000*5D
$GPGSA,A,3,01,32,07,16,,,,,,,,,6.9,5.3,4.4*3B
$GPRMC,201410.000,A,3747.7083,N,12215.4792,W,2.72,171.03,230412,,,A*79
$GPVTG,171.03,T,,M,2.72,N,5.0,K,A*0B
$GPGGA,201411.000,3747.7087,N,12215.4792,W,1,04,5.3,22.0,M,-25.1,M,,0000*52
$GPGSA,A,3,01,32,07,16,,,,,,,,,6.9,5.3,4.4*3B
$GPRMC,201411.000,A,3747.7087,N,12215.4792,W,1.51,177.93,230412,,,A*71
$GPVTG,177.93,T,,M,1.51,N,2.8,K,A*09
$GPGGA,201412.000,3747.7090,N,12215.4793,W,1,04,5.3,23.0,M,-25.1,M,,0000*57
$GPGSA,A,3,01,32,07,16,,,,,,,,,6.9,5.3,4.4*3B
$GPRMC,201412.000,A,3747.7090,N,12215.4793,W,0.57,192.66,230412,,,A*73
$GPVTG,192.66,T,,M,0.57,N,1.1,K,A*05
$GPGGA,201413.000,3747.7103,N,12215.4794,W,1,04,5.3,23.6,M,-25.1,M,,0000*5C
$GPGSA,A,3,01,32,07,16,,,,,,,,,6.9,5.3,4.4*3B
$GPRMC,201413.000,A,3747.7103,N,12215.4794,W,0.82,200.53,230412,,,A*78
$GPVTG,200.53,T,,M,0.82,N,1.5,K,A*07
$GPGGA,201414.000,3747.7103,N,12215.4794,W,1,04,5.3,24.5,M,-25.1,M,,0000*5F
$GPGSA,A,3,01,32,07,16,,,,,,,,,6.9,5.3,4.4*3B
$GPGSV,3,1,12,20,78,221,25,32,59,144,31,23,56,314,22,30,44,084,*76
$GPGSV,3,2,12,16,40,123,31,13,28,289,18,31,19,046,,01,15,206,20*73
$GPGSV,3,3,12,07,13,230,34,04,11,312,20,11,01,195,,24,00,179,*7A
$GPRMC,201414.000,A,3747.7103,N,12215.4794,W,1.13,193.66,230412,,,A*79
$GPVTG,193.66,T,,M,1.13,N,2.1,K,A*06
$GPGGA,201415.000,3747.7088,N,12215.4793,W,1,04,5.3,25.8,M,-25.1,M,,0000*57
$GPGSA,A,3,01,32,07,16,,,,,,,,,6.9,5.3,4.4*3B
$GPRMC,201415.000,A,3747.7088,N,12215.4793,W,1.43,186.02,230412,,,A*7E
$GPVTG,186.02,T,,M,1.43,N,2.7,K,A*03
$GPGGA,201416.000,3747.7071,N,12215.4791,W,1,04,5.3,27.1,M,-25.1,M,,0000*5B
$GPGSA,A,3,01,32,07,16,,,,,,,,,6.9,5.3,4.4*3B
$GPRMC,201416.000,A,3747.7071,N,12215.4791,W,2.19,182.86,230412,,,A*7D
$GPVTG,182.86,T,,M,2.19,N,4.1,K,A*07
$GPGGA,201417.000,3747.7068,N,12215.4791,W,1,04,5.3,27.8,M,-25.1,M,,0000*5B
$GPGSA,A,3,01,32,07,16,,,,,,,,,6.9,5.3,4.4*3B
$GPRMC,201417.000,A,3747.7068,N,12215.4791,W,2.76,180.55,230412,,,A*71
$GPVTG,180.55,T,,M,2.76,N,5.1,K,A*03
$GPGGA,201418.000,3747.7057,N,12215.4790,W,1,04,5.3,28.7,M,-25.1,M,,0000*59
$GPGSA,A,3,01,32,07,16,,,,,,,,,6.9,5.3,4.4*3B
$GPRMC,201418.000,A,3747.7057,N,12215.4790,W,2.32,179.01,230412,,,A*74
$GPVTG,179.01,T,,M,2.32,N,4.3,K,A*07
$GPGGA,201419.000,3747.7048,N,12215.4788,W,1,04,5.3,29.6,M,-25.1,M,,0000*5F
$GPGSA,A,3,01,32,07,16,,,,,,,,,6.9,5.3,4.4*3B
$GPGSV,3,1,11,20,78,220,24,32,59,144,27,23,56,314,28,30,44,084,*78
$GPGSV,3,2,11,16,40,122,32,13,28,289,17,31,18,046,,01,15,206,23*7F
$GPGSV,3,3,11,07,13,230,34,04,11,312,21,11,01,195,*41
$GPRMC,201419.000,A,3747.7048,N,12215.4788,W,1.99,180.93,230412,,,A*7D
$GPVTG,180.93,T,,M,1.99,N,3.7,K,A*0B
$GPGGA,201420.000,3747.7047,N,12215.4793,W,1,04,5.3,32.3,M,-25.1,M,,0000*5F
$GPGSA,A,3,01,32,07,16,,,,,,,,,6.9,5.3,4.4*3B
$GPRMC,201420.000,A,3747.7047,N,12215.4793,W,1.51,185.92,230412,,,A*72
$GPVTG,185.92,T,,M,1.51,N,2.8,K,A*05
$GPGGA,201421.000,3747.7042,N,12215.4792,W,1,04,5.3,32.6,M,-25.1,M,,0000*5F
$GPGSA,A,3,01,32,07,16,,,,,,,,,6.9,5.3,4.4*3B
$GPRMC,201421.000,A,3747.7042,N,12215.4792,W,1.64,186.94,230412,,,A*74
$GPVTG,186.94,T,,M,1.64,N,3.0,K,A*0F
$GPGGA,201422.000,3747.7025,N,12215.4787,W,1,04,5.3,32.3,M,-25.1,M,,0000*5C
$GPGSA,A,3,01,32,07,16,,,,,,,,,6.9,5.3,4.4*3B
$GPRMC,201422.000,A,3747.7025,N,12215.4787,W,2.30,181.26,230412,,,A*7E
$GPVTG,181.26,T,,M,2.30,N,4.3,K,A*07
$GPGGA,201423.000,3747.7022,N,12215.4784,W,1,04,5.3,31.5,M,-25.1,M,,0000*5C
$GPGSA,A,3,01,32,07,16,,,,,,,,,6.9,5.3,4.4*3B
$GPRMC,201423.000,A,3747.7022,N,12215.4784,W,2.32,179.61,230412,,,A*7D
$GPVTG,179.61,T,,M,2.32,N,4.3,K,A*01
$GPGGA,201424.000,3747.7016,N,12215.4782,W,1,04,5.3,31.5,M,-25.1,M,,0000*5A
$GPGSA,A,3,01,32,07,16,,,,,,,,,6.9,5.3,4.4*3B
$GPGSV,3,1,11,20,78,220,19,32,59,144,26,23,56,314,27,30,44,084,*78
$GPGSV,3,2,11,16,40,122,32,13,28,289,25,31,18,046,,01,15,206,26*7B
$GPGSV,3,3,11,07,13,230,21,04,11,312,20,11,01,195,*44
$GPRMC,201424.000,A,3747.7016,N,12215.4782,W,2.16,173.78,230412,,,A*7F
$GPGGA,201425.000,3747.7009,N,12215.4778,W,1,04,5.3,31.6,M,-25.1,M,,0000*53
$GPGSA,A,3,01,32,07,16,,,,,,,,,6.9,5.3,4.4*3B
$GPRMC,201425.000,A,3747.7009,N,12215.4778,W,1.88,175.12,230412,,,A*7B
$GPVTG,175.12,T,,M,1.88,N,3.5,K,A*0A
$GPGGA,201426.000,3747.7006,N,12215.4775,W,1,04,5.3,31.5,M,-25.1,M,,0000*51
$GPGSA,A,3,01,32,07,16,,,,,,,,,6.9,5.3,4.4*3B
$GPRMC,201426.000,A,3747.7006,N,12215.4775,W,1.56,179.01,230412,,,A*77
$GPVTG,179.01,T,,M,1.56,N,2.9,K,A*0A
$GPGGA,201427.000,3747.6999,N,12215.4772,W,1,04,5.3,31.4,M,-25.1,M,,0000*58
$GPGSA,A,3,01,32,07,16,,,,,,,,,6.9,5.3,4.4*3B
$GPRMC,201427.000,A,3747.6999,N,12215.4772,W,1.88,161.72,230412,,,A*71
$GPVTG,161.72,T,,M,1.88,N,3.5,K,A*09
$GPGGA,201428.000,3747.6998,N,12215.4770,W,1,04,5.3,30.9,M,-25.1,M,,0000*58
$GPGSA,A,3,01,32,07,16,,,,,,,,,6.9,5.3,4.4*3B
$GPRMC,201428.000,A,3747.6998,N,12215.4770,W,1.69,170.66,230412,,,A*77
$GPVTG,170.66,T,,M,1.69,N,3.1,K,A*07
$GPGGA,201429.000,3747.6997,N,12215.4770,W,1,04,5.3,31.0,M,-25.1,M,,0000*5E
$GPGSA,A,3,01,32,07,16,,,,,,,,,6.9,5.3,4.4*3B
$GPGSV,3,1,11,20,78,220,22,32,59,144,27,23,56,314,22,30,44,084,*74
$GPGSV,3,2,11,16,40,122,32,13,28,289,23,31,18,046,,01,15,206,27*7C
$GPGSV,3,3,11,07,13,230,26,04,11,312,19,11,01,195,*49
$GPRMC,201429.000,A,3747.6997,N,12215.4770,W,1.49,167.81,230412,,,A*74
$GPVTG,167.81,T,,M,1.49,N,2.8,K,A*02
$GPGGA,201430.000,3747.7003,N,12215.4774,W,1,04,5.3,31.1,M,-25.1,M,,0000*56
$GPGSA,A,3,01,32,07,16,,,,,,,,,6.9,5.3,4.4*3B
$GPRMC,201430.000,A,3747.7003,N,12215.4774,W,1.08,181.99,230412,,,A*79
$GPVTG,181.99,T,,M,1.08,N,2.0,K,A*0E
$GPGGA,201431.000,3747.7009,N,12215.4779,W,1,04,5.3,31.5,M,-25.1,M,,0000*54
$GPGSA,A,3,01,32,07,16,,,,,,,,,6.9,5.3,4.4*3B
$GPRMC,201431.000,A,3747.7009,N,12215.4779,W,0.75,205.02,230412,,,A*79
$GPVTG,205.02,T,,M,0.75,N,1.4,K,A*0F
$GPGGA,201432.000,3747.7014,N,12215.4787,W,1,04,5.3,32.7,M,-25.1,M,,0000*5B
$GPGSA,A,3,01,32,07,16,,,,,,,,,6.9,5.3,4.4*3B
$GPRMC,201432.000,A,3747.7014,N,12215.4787,W,0.53,243.12,230412,,,A*70
$GPVTG,243.12,T,,M,0.53,N,1.0,K,A*0C
$GPGGA,201433.000,3747.7018,N,12215.4799,W,1,04,5.3,34.3,M,-25.1,M,,0000*5B
$GPGSA,A,3,01,32,07,16,,,,,,,,,6.9,5.3,4.4*3B
$GPRMC,201433.000,A,3747.7018,N,12215.4799,W,0.91,275.04,230412,,,A*7E
$GPVTG,275.04,T,,M,0.91,N,1.7,K,A*07
$GPGGA,201434.000,3747.7022,N,12215.4800,W,1,04,5.3,33.9,M,-25.1,M,,0000*57
$GPGSA,A,3,01,32,07,16,,,,,,,,,6.9,5.3,4.4*3B
$GPGSV,3,1,11,20,78,220,29,32,59,144,28,23,56,314,25,30,44,084,*77
$GPGSV,3,2,11,16,40,122,21,13,28,289,27,31,18,046,,01,15,206,33*7F
$GPRMC,201434.000,A,3747.7022,N,12215.4800,W,0.47,244.14,230412,,,A*77
$GPVTG,244.14,T,,M,0.47,N,0.9,K,A*00
$GPGGA,201435.000,3747.7026,N,12215.4800,W,1,04,5.3,33.0,M,-25.1,M,,0000*5B
$GPGSA,A,3,01,32,07,16,,,,,,,,,6.9,5.3,4.4*3B
$GPRMC,201435.000,A,3747.7026,N,12215.4800,W,0.37,213.22,230412,,,A*72
$GPVTG,213.22,T,,M,0.37,N,0.7,K,A*0E
$GPGGA,201436.000,3747.7030,N,12215.4801,W,1,04,5.3,32.6,M,-25.1,M,,0000*59
$GPGSA,A,3,01,32,07,16,,,,,,,,,6.9,5.3,4.4*3B
$GPRMC,201436.000,A,3747.7030,N,12215.4801,W,0.34,198.99,230412,,,A*74
$GPVTG,198.99,T,,M,0.34,N,0.6,K,A*0C
$GPGGA,201437.000,3747.7033,N,12215.4802,W,1,04,5.3,32.1,M,-25.1,M,,0000*5F
$GPGSA,A,3,01,32,07,16,,,,,,,,,6.9,5.3,4.4*3B
$GPRMC,201437.000,A,3747.7033,N,12215.4802,W,0.38,180.01,230412,,,A*71
$GPVTG,180.01,T,,M,0.38,N,0.7,K,A*09
$GPGGA,201438.000,3747.7042,N,12215.4802,W,1,04,5.3,30.4,M,-25.1,M,,0000*51
$GPGSA,A,3,01,32,07,16,,,,,,,,,6.9,5.3,4.4*3B
$GPRMC,201438.000,A,3747.7042,N,12215.4802,W,0.48,266.33,230412,,,A*75
$GPVTG,266.33,T,,M,0.48,N,0.9,K,A*0A
$GPGGA,201439.000,3747.7042,N,12215.4800,W,1,04,5.3,29.6,M,-25.1,M,,0000*58
$GPGSA,A,3,01,32,07,16,,,,,,,,,6.9,5.3,4.4*3B
$GPGSV,3,1,11,20,78,220,24,32,59,144,32,23,56,314,18,30,44,084,*7F
$GPGSV,3,2,11,16,40,122,28,13,28,289,17,31,18,046,,01,15,206,33*75
$GPGSV,3,3,11,07,13,230,27,04,11,312,12,11,01,195,19*4B
$GPRMC,201439.000,A,3747.7042,N,12215.4800,W,0.15,168.43,230412,,,A*74
$GPVTG,168.43,T,,M,0.15,N,0.3,K,A*02
$GPGGA,201440.000,3747.7037,N,12215.4794,W,1,04,5.3,29.1,M,-25.1,M,,0000*51
$GPGSA,A,3,01,32,07,16,,,,,,,,,6.9,5.3,4.4*3B
$GPRMC,201440.000,A,3747.7037,N,12215.4794,W,0.68,146.33,230412,,,A*7B
$GPVTG,146.33,T,,M,0.68,N,1.3,K,A*02
$GPGGA,201441.000,3747.7038,N,12215.4792,W,1,04,5.3,28.5,M,-25.1,M,,0000*5C
$GPGSA,A,3,01,32,07,16,,,,,,,,,6.9,5.3,4.4*3B
$GPRMC,201441.000,A,3747.7038,N,12215.4792,W,0.48,160.96,230412,,,A*7A
$GPVTG,160.96,T,,M,0.48,N,0.9,K,A*00
$GPGGA,201442.000,3747.7048,N,12215.4795,W,1,04,5.3,27.3,M,-25.1,M,,0000*56
$GPGSA,A,3,01,32,07,16,,,,,,,,,6.9,5.3,4.4*3B
$GPRMC,201442.000,A,3747.7048,N,12215.4795,W,0.19,279.71,230412,,,A*7F
$GPVTG,279.71,T,,M,0.19,N,0.4,K,A*0B
$GPGGA,201443.000,3747.7054,N,12215.4796,W,1,04,5.3,26.6,M,-25.1,M,,0000*5D
$GPGSA,A,3,01,32,07,16,,,,,,,,,6.9,5.3,4.4*3B
$GPRMC,201443.000,A,3747.7054,N,12215.4796,W,0.90,317.59,230412,,,A*72
$GPVTG,317.59,T,,M,0.90,N,1.7,K,A*0B
$GPGGA,201444.000,3747.7050,N,12215.4790,W,1,04,5.3,25.8,M,-25.1,M,,0000*55
$GPGSA,A,3,01,32,07,16,,,,,,,,,6.9,5.3,4.4*3B
$GPGSV,3,1,11,20,78,219,27,32,59,144,31,23,56,315,28,30,44,083,19*78
$GPGSV,3,2,11,16,40,122,28,13,29,289,24,31,18,046,,01,15,206,32*75
$GPGSV,3,3,11,07,14,230,27,04,11,312,,11,01,195,19*4F
$GPRMC,201444.000,A,3747.7050,N,12215.4790,W,0.38,328.44,230412,,,A*75
$GPVTG,328.44,T,,M,0.38,N,0.7,K,A*08
$GPGGA,201445.000,3747.7048,N,12215.4777,W,1,04,5.3,23.4,M,-25.1,M,,0000*5E
$GPGSA,A,3,01,32,07,16,,,,,,,,,6.9,5.3,4.4*3B
$GPRMC,201445.000,A,3747.7048,N,12215.4777,W,0.80,107.14,230412,,,A*7D
$GPVTG,107.14,T,,M,0.80,N,1.5,K,A*02
$GPGGA,201446.000,3747.7046,N,12215.4772,W,1,04,5.3,23.1,M,-25.1,M,,0000*53
$GPGSA,A,3,01,32,07,16,,,,,,,,,6.9,5.3,4.4*3B
$GPRMC,201446.000,A,3747.7046,N,12215.4772,W,0.59,115.36,230412,,,A*72
$GPVTG,115.36,T,,M,0.59,N,1.1,K,A*01
$GPGGA,201447.000,3747.7045,N,12215.4768,W,1,04,5.3,22.4,M,-25.1,M,,0000*5E
$GPGSA,A,3,01,32,07,16,,,,,,,,,6.9,5.3,4.4*3B
$GPRMC,201447.000,A,3747.7045,N,12215.4768,W,0.35,130.04,230412,,,A*77
$GPVTG,130.04,T,,M,0.35,N,0.7,K,A*0A
$GPGGA,201448.000,3747.7044,N,12215.4764,W,1,04,5.3,21.8,M,-25.1,M,,0000*53
$GPGSA,A,3,01,32,07,16,,,,,,,,,6.9,5.3,4.4*3B
$GPRMC,201448.000,A,3747.7044,N,12215.4764,W,0.39,120.72,230412,,,A*79
$GPVTG,120.72,T,,M,0.39,N,0.7,K,A*06
$GPGGA,201449.000,3747.7042,N,12215.4762,W,1,04,5.3,21.4,M,-25.1,M,,0000*5E
$GPGSA,A,3,01,32,07,16,,,,,,,,,6.9,5.3,4.4*3B
$GPGSV,3,1,12,20,78,219,22,32,59,144,31,23,56,315,28,30,44,083,*76
$GPGSV,3,2,12,16,40,122,32,13,29,289,23,31,18,046,,01,15,206,32*7A
$GPGSV,3,3,12,07,14,230,36,04,11,312,19,11,01,195,17,48,44,197,36*7C
$GPVTG,119.57,T,,M,0.43,N,0.8,K,A*09
$GPGGA,201450.000,3747.7042,N,12215.4759,W,1,04,5.3,21.0,M,-25.1,M,,0000*5A
$GPGSA,A,3,01,32,07,16,,,,,,,,,6.9,5.3,4.4*3B
$GPRMC,201450.000,A,3747.7042,N,12215.4759,W,0.32,109.06,230412,,,A*7B
$GPVTG,109.06,T,,M,0.32,N,0.6,K,A*04
$GPGGA,201451.000,3747.7032,N,12215.4757,W,1,04,5.2,21.3,M,-25.1,M,,0000*50
$GPGSA,A,3,01,32,07,16,,,,,,,,,6.9,5.2,4.4*3A
$GPRMC,201451.000,A,3747.7032,N,12215.4757,W,0.44,125.97,230412,,,A*74
$GPVTG,125.97,T,,M,0.44,N,0.8,K,A*0D
$GPGGA,201452.000,3747.7028,N,12215.4756,W,1,04,5.2,21.3,M,-25.1,M,,0000*59
$GPGSA,A,3,01,32,07,16,,,,,,,,,6.9,5.2,4.4*3A
$GPRMC,201452.000,A,3747.7028,N,12215.4756,W,0.70,155.17,230412,,,A*75
$GPVTG,155.17,T,,M,0.70,N,1.3,K,A*0F
$GPGGA,201453.000,3747.7030,N,12215.4755,W,1,04,5.2,21.3,M,-25.1,M,,0000*52
$GPGSA,A,3,01,32,07,16,,,,,,,,,6.9,5.2,4.4*3A
$GPRMC,201453.000,A,3747.7030,N,12215.4755,W,0.48,146.44,230412,,,A*71
$GPVTG,146.44,T,,M,0.48,N,0.9,K,A*0B
$GPGGA,201454.000,3747.7034,N,12215.4755,W,1,04,5.2,21.3,M,-25.1,M,,0000*51
$GPGSA,A,3,01,32,07,16,,,,,,,,,6.9,5.2,4.4*3A
$GPGSV,3,1,12,20,78,219,22,32,59,144,30,23,56,315,19,30,44,083,*75
$GPGSV,3,2,12,16,40,122,32,13,29,289,28,31,18,046,,01,15,206,26*74
$GPGSV,3,3,12,07,14,230,36,04,11,312,27,11,01,195,16,48,44,197,32*74
$GPRMC,201454.000,A,3747.7034,N,12215.4755,W,0.34,119.07,230412,,,A*74
$GPVTG,119.07,T,,M,0.34,N,0.6,K,A*02
$GPGGA,201455.000,3747.7038,N,12215.4755,W,1,04,5.2,21.3,M,-25.1,M,,0000*5C
$GPGSA,A,3,01,32,07,16,,,,,,,,,6.9,5.2,4.4*3A
$GPRMC,201455.000,A,3747.7038,N,12215.4755,W,0.14,77.08,230412,,,A*4D
$GPVTG,77.08,T,,M,0.14,N,0.3,K,A*33
$GPGGA,201456.000,3747.7033,N,12215.4754,W,1,04,5.2,21.5,M,-25.1,M,,0000*53
$GPGSA,A,3,01,32,07,16,,,,,,,,,6.9,5.2,4.4*3A
$GPRMC,201456.000,A,3747.7033,N,12215.4754,W,0.19,103.76,230412,,,A*72
$GPVTG,103.76,T,,M,0.19,N,0.3,K,A*05
$GPGGA,201457.000,3747.7031,N,12215.4754,W,1,04,5.2,21.7,M,-25.1,M,,0000*52
$GPGSA,A,3,01,32,07,16,,,,,,,,,6.9,5.2,4.4*3A
$GPRMC,201457.000,A,3747.7031,N,12215.4754,W,0.31,109.22,230412,,,A*70
$GPVTG,109.22,T,,M,0.31,N,0.6,K,A*01
$GPGGA,201458.000,3747.7031,N,12215.4754,W,1,04,5.2,21.9,M,-25.1,M,,0000*53
$GPGSA,A,3,01,32,07,16,,,,,,,,,6.9,5.2,4.4*3A
$GPRMC,201458.000,A,3747.7031,N,12215.4754,W,0.43,108.25,230412,,,A*7C
$GPVTG,108.25,T,,M,0.43,N,0.8,K,A*0C
$GPGGA,201459.000,3747.7031,N,12215.4755,W,1,04,5.2,22.5,M,-25.1,M,,0000*5C
$GPGSA,A,3,01,32,07,16,,,,,,,,,6.9,5.2,4.4*3A
$GPGSV,3,1,12,20,78,219,19,32,59,144,31,23,56,315,27,30,44,083,*71
$GPGSV,3,2,12,16,40,122,25,13,29,289,32,31,18,046,,01,15,206,27*78
$GPGSV,3,3,12,07,14,230,36,04,11,312,21,11,01,195,17,48,44,197,35*74
$GPRMC,201459.000,A,3747.7031,N,12215.4755,W,0.19,100.23,230412,,,A*7D
$GPVTG,100.23,T,,M,0.19,N,0.3,K,A*06
$GPGGA,201500.000,3747.7033,N,12215.4755,W,1,04,5.2,22.6,M,-25.1,M,,0000*50
$GPGSA,A,3,01,32,07,16,,,,,,,,,6.9,5.2,4.4*3A
$GPRMC,201500.000,A,3747.7033,N,12215.4755,W,0.26,99.68,230412,,,A*40
$GPVTG,99.68,T,,M,0.26,N,0.5,K,A*32
$GPGGA,201501.000,3747.7032,N,12215.4760,W,1,04,5.2,23.8,M,-25.1,M,,0000*59
$GPGSA,A,3,01,32,07,16,,,,,,,,,6.9,5.2,4.4*3A
$GPRMC,201501.000,A,3747.7032,N,12215.4760,W,0.17,313.63,230412,,,A*7E
$GPVTG,313.63,T,,M,0.17,N,0.3,K,A*0C
$GPGGA,201502.000,3747.7032,N,12215.4762,W,1,04,5.2,24.3,M,-25.1,M,,0000*54
$GPGSA,A,3,01,32,07,16,,,,,,,,,6.9,5.2,4.4*3A
$GPRMC,201502.000,A,3747.7032,N,12215.4762,W,0.11,313.55,230412,,,A*7C
$GPVTG,313.55,T,,M,0.11,N,0.2,K,A*0E
$GPGGA,201503.000,3747.7032,N,12215.4763,W,1,04,5.2,24.8,M,-25.1,M,,0000*5F
$GPGSA,A,3,01,32,07,16,,,,,,,,,6.9,5.2,4.4*3A
$GPRMC,201503.000,A,3747.7032,N,12215.4763,W,0.07,270.43,230412,,,A*78
$GPVTG,270.43,T,,M,0.07,N,0.1,K,A*09
$GPGGA,201504.000,3747.7032,N,12215.4764,W,1,04,5.2,25.0,M,-25.1,M,,0000*56
$GPGSA,A,3,01,32,07,16,,,,,,,,,6.9,5.2,4.4*3A
$GPGSV,3,1,12,20,78,219,18,32,59,144,31,23,56,315,26,30,44,083,*71
$GPGSV,3,2,12,16,40,122,29,13,29,289,22,31,18,046,,01,15,206,28*7A
$GPGSV,3,3,12,07,14,230,31,04,11,312,20,11,01,195,17,48,44,197,32*75
$GPRMC,201504.000,A,3747.7032,N,12215.4764,W,0.11,137.16,230412,,,A*7F
$GPGGA,201505.000,3747.7025,N,12215.4764,W,1,04,5.2,25.4,M,-25.1,M,,0000*55
$GPGSA,A,3,01,32,07,16,,,,,,,,,6.9,5.2,4.4*3A
$GPRMC,201505.000,A,3747.7025,N,12215.4764,W,0.62,179.13,230412,,,A*73
$GPVTG,179.13,T,,M,0.62,N,1.2,K,A*07
$GPGGA,201506.000,3747.7024,N,12215.4766,W,1,04,5.2,25.6,M,-25.1,M,,0000*57
$GPGSA,A,3,01,32,07,16,,,,,,,,,6.9,5.2,4.4*3A
$GPRMC,201506.000,A,3747.7024,N,12215.4766,W,0.40,288.81,230412,,,A*75
$GPVTG,288.81,T,,M,0.40,N,0.7,K,A*05
$GPGGA,201507.000,3747.7023,N,12215.4765,W,1,04,5.2,25.5,M,-25.1,M,,0000*51
$GPGSA,A,3,01,32,07,16,,,,,,,,,6.9,5.2,4.4*3A
$GPRMC,201507.000,A,3747.7023,N,12215.4765,W,0.41,105.75,230412,,,A*7C
$GPVTG,105.75,T,,M,0.41,N,0.8,K,A*06
$GPGGA,201508.000,3747.7006,N,12215.4765,W,1,04,5.2,26.6,M,-25.1,M,,0000*59
$GPGSA,A,3,01,32,07,16,,,,,,,,,6.9,5.2,4.4*3A
$GPRMC,201508.000,A,3747.7006,N,12215.4765,W,1.55,178.20,230412,,,A*7A
$GPVTG,178.20,T,,M,1.55,N,2.9,K,A*0B
$GPGGA,201509.000,3747.7000,N,12215.4769,W,1,04,5.2,27.5,M,-25.1,M,,0000*50
$GPGSA,A,3,01,32,07,16,,,,,,,,,6.9,5.2,4.4*3A
$GPGSV,3,1,12,20,78,219,35,32,59,144,35,23,56,315,30,30,44,083,17*7B
$GPGSV,3,2,12,16,40,122,34,13,29,289,24,31,18,046,,01,15,206,22*7A
$GPGSV,3,3,12,07,14,230,24,04,11,312,24,11,01,195,18,48,44,197,38*70
$GPRMC,201509.000,A,3747.7000,N,12215.4769,W,1.20,192.81,230412,,,A*7C
$GPVTG,192.81,T,,M,1.20,N,2.2,K,A*0D
$GPGGA,201510.000,3747.6998,N,12215.4774,W,1,04,5.2,27.9,M,-25.1,M,,0000*51
$GPGSA,A,3,01,32,07,16,,,,,,,,,6.9,5.2,4.4*3A
$GPRMC,201510.000,A,3747.6998,N,12215.4774,W,0.52,183.11,230412,,,A*7C
$GPVTG,183.11,T,,M,0.52,N,1.0,K,A*01
$GPGGA,201511.000,3747.6995,N,12215.4777,W,1,04,5.2,28.5,M,-25.1,M,,0000*5D
$GPGSA,A,3,01,32,07,16,,,,,,,,,6.9,5.2,4.4*3A
$GPRMC,201511.000,A,3747.6995,N,12215.4777,W,0.52,198.06,230412,,,A*7F
$GPVTG,198.06,T,,M,0.52,N,1.0,K,A*0D
$GPGGA,201512.000,3747.6996,N,12215.4778,W,1,04,5.2,29.3,M,-25.1,M,,0000*55
$GPGSA,A,3,01,32,07,16,,,,,,,,,6.9,5.2,4.4*3A
$GPRMC,201512.000,A,3747.6996,N,12215.4778,W,0.53,306.81,230412,,,A*7B
$GPVTG,306.81,T,,M,0.53,N,1.0,K,A*06
$GPGGA,201513.000,3747.6998,N,12215.4779,W,1,04,5.2,30.0,M,-25.1,M,,0000*50
$GPGSA,A,3,01,32,07,16,,,,,,,,,6.9,5.2,4.4*3A
$GPRMC,201513.000,A,3747.6998,N,12215.4779,W,0.92,338.76,230412,,,A*7D
$GPVTG,338.76,T,,M,0.92,N,1.7,K,A*09
$GPGGA,201514.000,3747.6994,N,12215.4777,W,1,04,5.2,30.8,M,-25.1,M,,0000*5D
$GPGSA,A,3,01,32,07,16,,,,,,,,,6.9,5.2,4.4*3A
$GPGSV,3,1,12,20,78,219,35,32,59,144,38,23,56,315,30,30,44,083,17*76
$GPGSV,3,2,12,16,40,122,33,13,29,289,25,31,18,046,,01,15,206,22*7C
$GPGSV,3,3,12,07,14,230,24,04,11,312,26,11,01,195,19,48,44,197,36*7D
$GPRMC,201514.000,A,3747.6994,N,12215.4777,W,0.30,290.10,230412,,,A*73
$GPVTG,290.10,T,,M,0.30,N,0.6,K,A*02
$GPGGA,201515.000,3747.7002,N,12215.4781,W,1,04,5.2,30.6,M,-25.1,M,,0000*5C
$GPGSA,A,3,01,32,07,16,,,,,,,,,6.9,5.2,4.5*3B
$GPRMC,201515.000,A,3747.7002,N,12215.4781,W,0.81,191.72,230412,,,A*70
$GPVTG,191.72,T,,M,0.81,N,1.5,K,A*0C
$GPGGA,201516.000,3747.7041,N,12215.4789,W,1,04,5.2,29.5,M,-25.1,M,,0000*5B
$GPGSA,A,3,01,32,07,16,,,,,,,,,6.9,5.2,4.5*3B
$GPRMC,201516.000,A,3747.7041,N,12215.4789,W,1.31,356.96,230412,,,A*75
$GPVTG,356.96,T,,M,1.31,N,2.4,K,A*07
$GPGGA,201517.000,3747.7076,N,12215.4797,W,1,04,5.2,28.5,M,-25.1,M,,0000*50
$GPGSA,A,3,01,32,07,16,,,,,,,,,6.9,5.2,4.5*3B
$GPRMC,201517.000,A,3747.7076,N,12215.4797,W,2.65,347.49,230412,,,A*7F
$GPVTG,347.49,T,,M,2.65,N,4.9,K,A*0C
$GPGGA,201518.000,3747.7084,N,12215.4801,W,1,04,5.2,28.1,M,-25.1,M,,0000*56
$GPGSA,A,3,01,32,07,16,,,,,,,,,6.9,5.2,4.5*3B
$GPRMC,201518.000,A,3747.7084,N,12215.4801,W,3.05,341.29,230412,,,A*7A
$GPVTG,341.29,T,,M,3.05,N,5.6,K,A*05
$GPGGA,201519.000,3747.7068,N,12215.4799,W,1,04,5.2,28.5,M,-25.1,M,,0000*5F
$GPGSA,A,3,01,32,07,16,,,,,,,,,6.9,5.2,4.5*3B
$GPGSV,3,1,12,20,77,218,35,32,58,145,38,23,56,315,25,30,44,083,16*7D
$GPGSV,3,2,12,16,40,122,33,13,29,289,21,31,18,046,,01,15,206,22*78
$GPGSV,3,3,12,07,14,230,21,04,11,312,25,11,00,195,18,48,44,197,38*75
$GPRMC,201519.000,A,3747.7068,N,12215.4799,W,1.59,342.57,230412,,,A*76
$GPGGA,201520.000,3747.7051,N,12215.4796,W,1,04,5.2,29.1,M,-25.1,M,,0000*55
$GPGSA,A,3,01,32,07,16,,,,,,,,,6.9,5.2,4.5*3B
$GPRMC,201520.000,A,3747.7051,N,12215.4796,W,0.63,358.10,230412,,,A*79
$GPVTG,358.10,T,,M,0.63,N,1.2,K,A*04
$GPGGA,201521.000,3747.7038,N,12215.4793,W,1,04,5.2,29.6,M,-25.1,M,,0000*59
$GPGSA,A,3,01,32,07,16,,,,,,,,,6.9,5.2,4.5*3B
$GPRMC,201521.000,A,3747.7038,N,12215.4793,W,0.35,289.67,230412,,,A*7C
$GPVTG,289.67,T,,M,0.35,N,0.7,K,A*0E
$GPGGA,201522.000,3747.7034,N,12215.4791,W,1,04,5.2,29.8,M,-25.1,M,,0000*5A
$GPGSA,A,3,01,32,07,16,,,,,,,,,6.9,5.2,4.5*3B
$GPRMC,201522.000,A,3747.7034,N,12215.4791,W,0.10,233.20,230412,,,A*74
$GPVTG,233.20,T,,M,0.10,N,0.2,K,A*0E
$GPGGA,201523.000,3747.7033,N,12215.4791,W,1,04,5.2,29.5,M,-25.1,M,,0000*51
$GPGSA,A,3,01,32,07,16,,,,,,,,,6.9,5.2,4.5*3B
$GPRMC,201523.000,A,3747.7033,N,12215.4791,W,0.71,190.10,230412,,,A*7C
$GPVTG,190.10,T,,M,0.71,N,1.3,K,A*00
$GPGGA,201524.000,3747.7049,N,12215.4795,W,1,04,5.2,28.9,M,-25.1,M,,0000*52
$GPGSA,A,3,01,32,07,16,,,,,,,,,6.9,5.2,4.5*3B
$GPGSV,3,1,12,20,77,218,30,32,58,145,29,23,56,315,26,30,44,083,18*75
$GPGSV,3,2,12,16,40,122,29,13,29,289,28,31,18,046,,01,15,206,22*7A
$GPGSV,3,3,12,07,14,230,33,04,11,312,24,11,00,195,,48,44,197,40*71
$GPRMC,201524.000,A,3747.7049,N,12215.4795,W,0.29,256.96,230412,,,A*78
$GPVTG,256.96,T,,M,0.29,N,0.5,K,A*0D
$GPGGA,201525.000,3747.7066,N,12215.4794,W,1,04,5.2,27.5,M,-25.1,M,,0000*5C
$GPGSA,A,3,01,32,07,16,,,,,,,,,6.9,5.2,4.5*3B
$GPRMC,201525.000,A,3747.7066,N,12215.4794,W,0.77,2.88,230412,,,A*72
$GPVTG,2.88,T,,M,0.77,N,1.4,K,A*0A
$GPGGA,201526.000,3747.7094,N,12215.4796,W,1,04,5.2,25.9,M,-25.1,M,,0000*5E
$GPGSA,A,3,01,32,07,16,,,,,,,,,6.9,5.2,4.5*3B
$GPRMC,201526.000,A,3747.7094,N,12215.4796,W,0.97,358.35,230412,,,A*7A
$GPVTG,358.35,T,,M,0.97,N,1.8,K,A*02
$GPGGA,201527.000,3747.7123,N,12215.4797,W,1,04,5.2,24.2,M,-25.1,M,,0000*59
$GPGSA,A,3,01,32,07,16,,,,,,,,,6.9,5.2,4.5*3B
$GPRMC,201527.000,A,3747.7123,N,12215.4797,W,2.29,357.35,230412,,,A*7F
$GPVTG,357.35,T,,M,2.29,N,4.2,K,A*05
$GPGGA,201528.000,3747.7144,N,12215.4798,W,1,04,5.2,22.7,M,-25.1,M,,0000*5B
$GPGSA,A,3,01,32,07,16,,,,,,,,,6.9,5.2,4.5*3B
$GPRMC,201528.000,A,3747.7144,N,12215.4798,W,2.40,353.28,230412,,,A*79
$GPVTG,353.28,T,,M,2.40,N,4.4,K,A*04
$GPGGA,201529.000,3747.7162,N,12215.4799,W,1,04,5.2,21.4,M,-25.1,M,,0000*5F
$GPGSA,A,3,01,32,07,16,,,,,,,,,6.9,5.2,4.5*3B
$GPGSV,3,1,12,20,77,218,32,32,58,145,35,23,56,315,27,30,44,083,17*74
$GPGSV,3,2,12,16,40,122,30,13,29,289,19,31,18,046,,01,15,206,23*71
$GPGSV,3,3,12,07,14,230,31,04,11,312,20,11,00,195,,48,44,197,36*76
$GPRMC,201529.000,A,3747.7162,N,12215.4799,W,2.51,354.90,230412,,,A*79
$GPVTG,354.90,T,,M,2.51,N,4.6,K,A*02
$GPGGA,201530.000,3747.7158,N,12215.4793,W,1,04,5.2,19.8,M,-25.1,M,,0000*53
$GPGSA,A,3,01,32,07,16,,,,,,,,,6.8,5.2,4.5*3A
$GPRMC,201530.000,A,3747.7158,N,12215.4793,W,1.54,0.04,230412,,,A*7B
$GPVTG,0.04,T,,M,1.54,N,2.8,K,A*03
$GPGGA,201531.000,3747.7168,N,12215.4791,W,1,04,5.2,18.5,M,-25.1,M,,0000*5F
$GPGSA,A,3,01,32,07,16,,,,,,,,,6.8,5.2,4.5*3A
$GPRMC,201531.000,A,3747.7168,N,12215.4791,W,1.78,3.73,230412,,,A*76
$GPVTG,3.73,T,,M,1.78,N,3.3,K,A*04
$GPGGA,201532.000,3747.7173,N,12215.4794,W,1,04,5.2,18.7,M,-25.1,M,,0000*51
$GPGSA,A,3,01,32,07,16,,,,,,,,,6.8,5.2,4.5*3A
$GPRMC,201532.000,A,3747.7173,N,12215.4794,W,1.12,351.98,230412,,,A*77
$GPVTG,351.98,T,,M,1.12,N,2.1,K,A*0A
$GPGGA,201533.000,3747.7176,N,12215.4792,W,1,04,5.2,18.0,M,-25.1,M,,0000*54
$GPGSA,A,3,01,32,07,16,,,,,,,,,6.8,5.2,4.5*3A
$GPRMC,201533.000,A,3747.7176,N,12215.4792,W,0.75,23.24,230412,,,A*44
$GPVTG,23.24,T,,M,0.75,N,1.4,K,A*3D
$GPGGA,201534.000,3747.7184,N,12215.4789,W,1,04,5.2,16.4,M,-25.1,M,,0000*5E
$GPGSA,A,3,01,32,07,16,,,,,,,,,6.8,5.2,4.5*3A
$GPGSV,3,1,12,20,77,218,32,32,58,145,30,23,56,315,27,30,44,083,27*72
$GPGSV,3,2,12,16,40,122,32,13,29,289,33,31,18,046,,01,15,206,33*7A
$GPGSV,3,3,12,07,14,230,33,04,11,312,24,11,00,195,,48,44,197,39*7F
$GPRMC,201534.000,A,3747.7184,N,12215.4789,W,0.26,68.28,230412,,,A*41
$GPGGA,201535.000,3747.7202,N,12215.4788,W,1,04,5.2,14.1,M,-25.1,M,,0000*54
$GPGSA,A,3,01,32,07,16,,,,,,,,,6.8,5.2,4.5*3A
$GPRMC,201535.000,A,3747.7202,N,12215.4788,W,0.97,7.21,230412,,,A*76
$GPVTG,7.21,T,,M,0.97,N,1.8,K,A*0E
$GPGGA,201536.000,3747.7214,N,12215.4788,W,1,04,5.2,13.0,M,-25.1,M,,0000*56
$GPGSA,A,3,01,32,07,16,,,,,,,,,6.8,5.2,4.5*3A
$GPRMC,201536.000,A,3747.7214,N,12215.4788,W,1.79,14.66,230412,,,A*42
$GPVTG,14.66,T,,M,1.79,N,3.3,K,A*37
$GPGGA,201537.000,3747.7211,N,12215.4787,W,1,04,5.2,12.8,M,-25.1,M,,0000*54
$GPGSA,A,3,01,32,07,16,,,,,,,,,6.8,5.2,4.5*3A
$GPRMC,201537.000,A,3747.7211,N,12215.4787,W,2.13,5.36,230412,,,A*73
$GPVTG,5.36,T,,M,2.13,N,4.0,K,A*09
$GPGGA,201538.000,3747.7214,N,12215.4788,W,1,04,5.2,12.4,M,-25.1,M,,0000*5D
$GPGSA,A,3,01,32,07,16,,,,,,,,,6.8,5.2,4.5*3A
$GPRMC,201538.000,A,3747.7214,N,12215.4788,W,2.32,2.70,230412,,,A*70
$GPVTG,2.70,T,,M,2.32,N,4.3,K,A*0C
$GPGGA,201539.000,3747.7215,N,12215.4788,W,1,04,5.2,12.2,M,-25.1,M,,0000*5B
$GPGSA,A,3,01,32,07,16,,,,,,,,,6.8,5.2,4.5*3A
$GPGSV,3,1,12,20,77,218,29,32,58,145,35,23,56,315,29,30,44,083,17*70
$GPGSV,3,2,12,16,40,122,36,13,29,289,30,31,18,046,,01,15,206,24*7B
$GPGSV,3,3,12,07,14,230,30,04,11,312,19,11,00,195,20,48,44,197,39*70
$GPRMC,201539.000,A,3747.7215,N,12215.4788,W,1.70,12.84,230412,,,A*4F
$GPVTG,12.84,T,,M,1.70,N,3.2,K,A*35
$GPGGA,201540.000,3747.7220,N,12215.4786,W,1,04,5.2,12.4,M,-25.1,M,,0000*5B
$GPGSA,A,3,01,32,07,16,,,,,,,,,6.8,5.2,4.5*3A
$GPRMC,201540.000,A,3747.7220,N,12215.4786,W,1.34,1.37,230412,,,A*73
$GPVTG,1.37,T,,M,1.34,N,2.5,K,A*09
$GPGGA,201541.000,3747.7230,N,12215.4788,W,1,04,5.2,12.3,M,-25.1,M,,0000*52
$GPGSA,A,3,01,32,07,16,,,,,,,,,6.8,5.2,4.5*3A
$GPRMC,201541.000,A,3747.7230,N,12215.4788,W,1.08,8.75,230412,,,A*7D
$GPVTG,8.75,T,,M,1.08,N,2.0,K,A*0C
$GPGGA,201542.000,3747.7243,N,12215.4791,W,1,04,5.2,11.9,M,-25.1,M,,0000*54
$GPGSA,A,3,01,32,07,16,,,,,,,,,6.8,5.2,4.5*3A
$GPRMC,201542.000,A,3747.7243,N,12215.4791,W,0.90,4.59,230412,,,A*70
$GPVTG,4.59,T,,M,0.90,N,1.7,K,A*0A
$GPGGA,201543.000,3747.7255,N,12215.4793,W,1,04,5.2,11.6,M,-25.1,M,,0000*5F
$GPGSA,A,3,01,32,07,16,,,,,,,,,6.8,5.2,4.5*3A
$GPRMC,201543.000,A,3747.7255,N,12215.4793,W,0.99,357.90,230412,,,A*7D
$GPVTG,357.90,T,,M,0.99,N,1.8,K,A*0C
$GPGGA,201544.000,3747.7263,N,12215.4795,W,1,04,5.2,11.5,M,-25.1,M,,0000*58
$GPGSA,A,3,01,32,07,16,,,,,,,,,6.8,5.2,4.5*3A
$GPGSV,3,1,12,20,77,218,37,32,58,145,40,23,56,315,32,30,44,083,26*75
$GPGSV,3,2,12,16,40,122,41,13,29,289,33,31,18,046,,01,15,206,32*7F
$GPRMC,201544.000,A,3747.7263,N,12215.4795,W,0.93,353.30,230412,,,A*7D
$GPVTG,353.30,T,,M,0.93,N,1.7,K,A*07
$GPGGA,201545.000,3747.7271,N,12215.4797,W,1,04,5.2,11.3,M,-25.1,M,,0000*5E
$GPGSA,A,3,01,32,07,16,,,,,,,,,6.8,5.2,4.5*3A
$GPRMC,201545.000,A,3747.7271,N,12215.4797,W,0.95,351.92,230412,,,A*71
$GPVTG,351.92,T,,M,0.95,N,1.8,K,A*04
$GPGGA,201546.000,3747.7276,N,12215.4799,W,1,04,5.2,11.2,M,-25.1,M,,0000*55
$GPGSA,A,3,01,32,07,16,,,,,,,,,6.8,5.2,4.5*3A
$GPRMC,201546.000,A,3747.7276,N,12215.4799,W,0.84,351.63,230412,,,A*75
$GPVTG,351.63,T,,M,0.84,N,1.5,K,A*07
$GPGGA,201547.000,3747.7281,N,12215.4800,W,1,04,5.2,11.0,M,-25.1,M,,0000*51
$GPGSA,A,3,01,32,07,16,,,,,,,,,6.8,5.2,4.5*3A
$GPRMC,201547.000,A,3747.7281,N,12215.4800,W,0.75,357.92,230412,,,A*75
$GPVTG,357.92,T,,M,0.75,N,1.4,K,A*00
$GPGGA,201548.000,3747.7286,N,12215.4801,W,1,04,5.2,10.9,M,-25.1,M,,0000*50
$GPGSA,A,3,01,32,07,16,,,,,,,,,6.8,5.2,4.5*3A
$GPRMC,201548.000,A,3747.7286,N,12215.4801,W,0.77,356.01,230412,,,A*75
$GPVTG,356.01,T,,M,0.77,N,1.4,K,A*09
$GPGGA,201549.000,3747.7289,N,12215.4802,W,1,04,5.2,10.7,M,-25.1,M,,0000*53
$GPGSA,A,3,01,32,07,16,,,,,,,,,6.8,5.2,4.5*3A
$GPGSV,3,1,12,20,77,217,37,32,58,145,40,23,56,315,34,30,44,082,25*7E
$GPGSV,3,2,12,16,41,122,38,13,29,290,34,31,18,046,,01,14,205,31*7E
$GPGSV,3,3,12,07,14,230,31,04,11,311,22,11,00,194,26,48,44,197,39*7D
$GPRMC,201549.000,A,3747.7289,N,12215.4802,W,0.43,10.73,230412,,,A*4B
$GPVTG,10.73,T,,M,0.43,N,0.8,K,A*37
$GPGGA,201550.000,3747.7289,N,12215.4801,W,1,04,5.2,10.7,M,-25.1,M,,0000*58
$GPGSA,A,3,01,32,07,16,,,,,,,,,6.8,5.2,4.5*3A
$GPRMC,201550.000,A,3747.7289,N,12215.4801,W,0.52,113.49,230412,,,A*7B
$GPVTG,113.49,T,,M,0.52,N,1.0,K,A*05
$GPGGA,201551.000,3747.7293,N,12215.4802,W,1,04,5.2,10.7,M,-25.1,M,,0000*51
$GPGSA,A,3,01,32,07,16,,,,,,,,,6.8,5.2,4.5*3A
$GPRMC,201551.000,A,3747.7293,N,12215.4802,W,0.46,6.64,230412,,,A*7D
$GPVTG,6.64,T,,M,0.46,N,0.8,K,A*03
$GPGGA,201552.000,3747.7297,N,12215.4803,W,1,04,5.2,10.6,M,-25.1,M,,0000*56
$GPGSA,A,3,01,32,07,16,,,,,,,,,6.8,5.2,4.5*3A
$GPRMC,201552.000,A,3747.7297,N,12215.4803,W,0.13,328.65,230412,,,A*75
$GPVTG,328.65,T,,M,0.13,N,0.2,K,A*07
$GPGGA,201553.000,3747.7294,N,12215.4803,W,1,04,5.2,10.8,M,-25.1,M,,0000*5A
$GPGSA,A,3,01,32,07,16,,,,,,,,,6.8,5.2,4.5*3A
$GPRMC,201553.000,A,3747.7294,N,12215.4803,W,0.40,350.65,230412,,,A*7E
$GPVTG,350.65,T,,M,0.40,N,0.7,K,A*0B
$GPGGA,201554.000,3747.7296,N,12215.4804,W,1,04,5.2,10.8,M,-25.1,M,,0000*58
$GPGSA,A,3,01,32,07,16,,,,,,,,,6.8,5.2,4.5*3A
$GPGSV,3,1,12,20,77,217,37,32,58,145,40,23,56,315,30,30,44,082,20*7F
$GPGSV,3,2,12,16,41,122,39,13,29,290,34,31,18,046,,01,14,205,25*7A
$GPGSV,3,3,12,07,14,230,32,04,11,311,29,11,00,194,21,48,44,197,38*73
$GPRMC,201554.000,A,3747.7296,N,12215.4804,W,0.06,291.88,230412,,,A*71
$GPVTG,291.88,T,,M,0.06,N,0.1,K,A*00
$GPGGA,201555.000,3747.7296,N,12215.4805,W,1,04,5.2,11.0,M,-25.1,M,,0000*51
$GPGSA,A,3,01,32,07,16,,,,,,,,,6.8,5.2,4.5*3A
$GPRMC,201555.000,A,3747.7296,N,12215.4805,W,0.36,348.71,230412,,,A*71
$GPVTG,348.71,T,,M,0.36,N,0.7,K,A*06
$GPGGA,201556.000,3747.7302,N,12215.4806,W,1,04,5.2,11.0,M,-25.1,M,,0000*5D
$GPGSA,A,3,01,32,07,16,,,,,,,,,6.8,5.2,4.5*3A
$GPRMC,201556.000,A,3747.7302,N,12215.4806,W,1.24,349.36,230412,,,A*7D
$GPVTG,349.36,T,,M,1.24,N,2.3,K,A*00
$GPGGA,201557.000,3747.7296,N,12215.4805,W,1,04,5.2,11.2,M,-25.1,M,,0000*51
$GPGSA,A,3,01,32,07,16,,,,,,,,,6.8,5.2,4.5*3A
$GPRMC,201557.000,A,3747.7296,N,12215.4805,W,0.37,34.30,230412,,,A*4F
$GPVTG,34.30,T,,M,0.37,N,0.7,K,A*3A
$GPGGA,201558.000,3747.7289,N,12215.4804,W,1,04,5.2,11.5,M,-25.1,M,,0000*56
$GPGSA,A,3,01,32,07,16,,,,,,,,,6.8,5.2,4.5*3A
$GPRMC,201558.000,A,3747.7289,N,12215.4804,W,0.28,113.29,230412,,,A*7D
$GPVTG,113.29,T,,M,0.28,N,0.5,K,A*0A
$GPGGA,201559.000,3747.7293,N,12215.4804,W,1,04,5.2,11.5,M,-25.1,M,,0000*5C
$GPGSA,A,3,01,32,07,16,,,,,,,,,6.8,5.2,4.5*3A
$GPGSV,3,1,12,20,77,217,37,32,58,145,40,23,56,315,32,30,44,082,21*7C
$GPGSV,3,2,12,16,41,122,40,13,29,290,29,31,18,046,,01,14,205,25*78
$GPGSV,3,3,12,07,14,230,32,04,11,311,22,11,00,194,20,48,44,197,38*79
$GPVTG,26.59,T,,M,0.10,N,0.2,K,A*36
$GPGGA,201600.000,3747.7306,N,12215.4806,W,1,04,5.2,11.4,M,-25.1,M,,0000*5D
$GPGSA,A,3,01,32,07,16,,,,,,,,,6.8,5.2,4.5*3A
$GPRMC,201600.000,A,3747.7306,N,12215.4806,W,0.49,355.50,230412,,,A*7E
$GPVTG,355.50,T,,M,0.49,N,0.9,K,A*0F
$GPGGA,201601.000,3747.7303,N,12215.4806,W,1,04,5.2,11.5,M,-25.1,M,,0000*58
$GPGSA,A,3,01,32,07,16,,,,,,,,,6.8,5.2,4.5*3A
$GPRMC,201601.000,A,3747.7303,N,12215.4806,W,0.10,358.52,230412,,,A*79
$GPVTG,358.52,T,,M,0.10,N,0.2,K,A*07
$GPGGA,201602.000,3747.7307,N,12215.4807,W,1,04,5.2,11.5,M,-25.1,M,,0000*5E
$GPGSA,A,3,01,32,07,16,,,,,,,,,6.8,5.2,4.5*3A
$GPRMC,201602.000,A,3747.7307,N,12215.4807,W,0.75,7.54,230412,,,A*73
$GPVTG,7.54,T,,M,0.75,N,1.4,K,A*0C
$GPGGA,201603.000,3747.7315,N,12215.4808,W,1,04,5.2,11.5,M,-25.1,M,,0000*53
$GPGSA,A,3,01,32,07,16,,,,,,,,,6.8,5.2,4.5*3A
$GPRMC,201603.000,A,3747.7315,N,12215.4808,W,0.41,342.59,230412,,,A*76
$GPVTG,342.59,T,,M,0.41,N,0.8,K,A*09
$GPGGA,201604.000,3747.7242,N,12215.4783,W,1,05,4.6,11.3,M,-25.1,M,,0000*59
$GPGSA,A,3,01,32,20,07,16,,,,,,,,6.1,4.6,4.0*31
$GPGSV,3,1,12,20,77,217,37,32,58,145,40,23,56,315,30,30,44,082,21*7E
$GPGSV,3,2,12,16,41,122,40,13,29,290,30,31,18,046,,01,14,205,24*71
$GPGSV,3,3,12,07,14,230,32,04,11,311,25,11,00,194,19,48,44,197,37*7B
$GPRMC,201604.000,A,3747.7242,N,12215.4783,W,0.42,172.40,230412,,,A*74
$GPVTG,172.40,T,,M,0.42,N,0.8,K,A*03
$GPGGA,201605.000,3747.7215,N,12215.4772,W,1,05,4.6,11.2,M,-25.1,M,,0000*55
$GPGSA,A,3,01,32,20,07,16,,,,,,,,6.1,4.6,4.0*31
$GPRMC,201605.000,A,3747.7215,N,12215.4772,W,0.21,53.65,230412,,,A*49
$GPVTG,53.65,T,,M,0.21,N,0.4,K,A*3F
$GPGGA,201606.000,3747.7202,N,12215.4765,W,1,05,4.6,11.0,M,-25.1,M,,0000*54
$GPGSA,A,3,01,32,20,07,16,,,,,,,,6.1,4.6,4.0*31
$GPRMC,201606.000,A,3747.7202,N,12215.4765,W,0.56,32.25,230412,,,A*49
$GPVTG,32.25,T,,M,0.56,N,1.0,K,A*39
$GPGGA,201607.000,3747.7190,N,12215.4760,W,1,05,4.6,11.1,M,-25.1,M,,0000*59
$GPGSA,A,3,01,32,20,07,16,,,,,,,,6.1,4.6,3.9*3F
$GPRMC,201607.000,A,3747.7190,N,12215.4760,W,0.13,334.27,230412,,,A*73
$GPVTG,334.27,T,,M,0.13,N,0.2,K,A*0C
$GPGGA,201608.000,3747.7190,N,12215.4757,W,1,05,4.6,10.8,M,-25.1,M,,0000*5A
$GPGSA,A,3,01,32,20,07,16,,,,,,,,6.1,4.6,3.9*3F
$GPRMC,201608.000,A,3747.7190,N,12215.4757,W,0.38,356.59,230412,,,A*7C
$GPVTG,356.59,T,,M,0.38,N,0.7,K,A*0D
$GPGGA,201609.000,3747.7187,N,12215.4754,W,1,05,4.6,10.7,M,-25.1,M,,0000*51
$GPGSA,A,3,01,32,20,07,16,,,,,,,,6.1,4.6,3.9*3F
$GPGSV,3,1,12,20,77,216,37,32,58,145,40,23,56,315,30,30,44,082,22*7C
$GPGSV,3,2,12,16,41,121,41,13,29,290,30,31,18,046,19,01,14,205,26*79
$GPGSV,3,3,12,07,14,230,32,04,12,311,25,11,00,194,17,48,44,197,38*79
$GPRMC,201609.000,A,3747.7187,N,12215.4754,W,0.14,282.99,230412,,,A*72
$GPVTG,282.99,T,,M,0.14,N,0.3,K,A*03
$GPGGA,201610.000,3747.7182,N,12215.4753,W,1,05,4.6,10.7,M,-25.1,M,,0000*5B
$GPGSA,A,3,01,32,20,07,16,,,,,,,,6.1,4.6,3.9*3F
$GPRMC,201610.000,A,3747.7182,N,12215.4753,W,0.07,40.67,230412,,,A*47
$GPVTG,40.67,T,,M,0.07,N,0.1,K,A*3E
$GPGGA,201611.000,3747.7175,N,12215.4750,W,1,05,4.6,10.9,M,-25.1,M,,0000*5F
$GPGSA,A,3,01,32,20,07,16,,,,,,,,6.1,4.6,3.9*3F
$GPRMC,201611.000,A,3747.7175,N,12215.4750,W,0.19,150.99,230412,,,A*73
$GPVTG,150.99,T,,M,0.19,N,0.3,K,A*02
$GPGGA,201612.000,3747.7172,N,12215.4749,W,1,05,4.6,11.0,M,-25.1,M,,0000*5B
$GPGSA,A,3,01,32,20,07,16,,,,,,,,6.1,4.6,3.9*3F
$GPRMC,201612.000,A,3747.7172,N,12215.4749,W,0.22,186.35,230412,,,A*7A
$GPVTG,186.35,T,,M,0.22,N,0.4,K,A*00
$GPGGA,201613.000,3747.7172,N,12215.4749,W,1,05,4.6,10.8,M,-25.1,M,,0000*53
$GPGSA,A,3,01,32,20,07,16,,,,,,,,6.1,4.6,3.9*3F
$GPRMC,201613.000,A,3747.7172,N,12215.4749,W,0.45,257.08,230412,,,A*7B
$GPVTG,257.08,T,,M,0.45,N,0.8,K,A*0C
$GPGGA,201614.000,3747.7167,N,12215.4749,W,1,05,4.6,10.7,M,-25.1,M,,0000*5F
$GPGSA,A,3,01,32,20,07,16,,,,,,,,6.1,4.6,3.9*3F
$GPGSV,3,1,12,20,77,216,36,32,58,145,40,23,56,315,29,30,44,082,21*76
$GPGSV,3,2,12,16,41,121,41,13,29,290,30,31,18,046,18,01,14,205,26*78
$GPGSV,3,3,12,07,14,230,29,04,12,311,22,11,00,194,16,48,44,197,41*7B
$GPVTG,174.51,T,,M,0.28,N,0.5,K,A*04
$GPGGA,201615.000,3747.7157,N,12215.4748,W,1,05,4.6,11.0,M,-25.1,M,,0000*5A
$GPGSA,A,3,01,32,20,07,16,,,,,,,,6.1,4.6,3.9*3F
$GPRMC,201615.000,A,3747.7157,N,12215.4748,W,0.35,138.46,230412,,,A*7C
$GPVTG,138.46,T,,M,0.35,N,0.7,K,A*04
$GPGGA,201616.000,3747.7139,N,12215.4748,W,1,05,4.6,11.6,M,-25.1,M,,0000*57
$GPGSA,A,3,01,32,20,07,16,,,,,,,,6.1,4.6,3.9*3F
$GPRMC,201616.000,A,3747.7139,N,12215.4748,W,0.47,159.20,230412,,,A*75
$GPVTG,159.20,T,,M,0.47,N,0.9,K,A*08
$GPGGA,201617.000,3747.7134,N,12215.4750,W,1,05,4.6,12.1,M,-25.1,M,,0000*56
$GPGSA,A,3,01,32,20,07,16,,,,,,,,6.1,4.6,3.9*3F
$GPRMC,201617.000,A,3747.7134,N,12215.4750,W,0.43,187.88,230412,,,A*75
$GPVTG,187.88,T,,M,0.43,N,0.8,K,A*0C
$GPGGA,201618.000,3747.7123,N,12215.4752,W,1,05,4.6,12.8,M,-25.1,M,,0000*54
$GPGSA,A,3,01,32,20,07,16,,,,,,,,6.1,4.6,3.9*3F
$GPRMC,201618.000,A,3747.7123,N,12215.4752,W,0.26,193.87,230412,,,A*77
$GPVTG,193.87,T,,M,0.26,N,0.5,K,A*08
$GPGGA,201619.000,3747.7114,N,12215.4752,W,1,05,4.6,13.1,M,-25.1,M,,0000*59
$GPGSA,A,3,01,32,20,07,16,,,,,,,,6.1,4.6,3.9*3F
$GPGSV,3,1,12,20,77,216,22,32,58,145,33,23,56,316,23,30,44,082,18*74
$GPGSV,3,2,12,16,41,121,33,13,29,290,18,31,18,046,,07,14,230,35*7C
$GPGSV,3,3,12,01,14,205,22,04,12,311,21,11,00,194,,48,44,197,34*76
$GPRMC,201619.000,A,3747.7114,N,12215.4752,W,0.25,193.96,230412,,,A*71
$GPVTG,193.96,T,,M,0.25,N,0.5,K,A*0B
$GPGGA,201620.000,3747.7105,N,12215.4753,W,1,05,4.6,13.6,M,-25.1,M,,0000*55
$GPGSA,A,3,01,32,20,07,16,,,,,,,,6.1,4.6,3.9*3F
$GPRMC,201620.000,A,3747.7105,N,12215.4753,W,0.51,183.49,230412,,,A*7A
$GPVTG,183.49,T,,M,0.51,N,0.9,K,A*07
$GPGGA,201621.000,3747.7100,N,12215.4753,W,1,05,4.6,13.7,M,-25.1,M,,0000*50
$GPGSA,A,3,01,32,20,07,16,,,,,,,,6.1,4.6,3.9*3F
$GPRMC,201621.000,A,3747.7100,N,12215.4753,W,0.21,206.09,230412,,,A*73
$GPVTG,206.09,T,,M,0.21,N,0.4,K,A*07
$GPGGA,201622.000,3747.7103,N,12215.4755,W,1,05,4.6,14.2,M,-25.1,M,,0000*54
$GPGSA,A,3,01,32,20,07,16,,,,,,,,6.1,4.6,3.9*3F
$GPRMC,201622.000,A,3747.7103,N,12215.4755,W,0.34,288.48,230412,,,A*72
$GPVTG,288.48,T,,M,0.34,N,0.6,K,A*02
$GPGGA,201623.000,3747.7107,N,12215.4756,W,1,05,4.6,14.7,M,-25.1,M,,0000*57
$GPGSA,A,3,01,32,20,07,16,,,,,,,,6.1,4.6,3.9*3F
$GPRMC,201623.000,A,3747.7107,N,12215.4756,W,0.35,341.38,230412,,,A*76
$GPVTG,341.38,T,,M,0.35,N,0.6,K,A*00
$GPGGA,201624.000,3747.7103,N,12215.4756,W,1,05,4.6,15.2,M,-25.1,M,,0000*50
$GPGSA,A,3,01,32,20,07,16,,,,,,,,6.1,4.6,3.9*3F
$GPGSV,3,1,12,20,77,216,21,32,58,145,33,23,56,316,22,30,44,082,17*79
$GPGSV,3,2,12,16,41,121,34,13,29,290,26,31,18,046,,07,14,230,27*75
$GPGSV,3,3,12,01,14,205,21,04,12,311,19,11,00,194,,48,44,197,29*72
$GPRMC,201624.000,A,3747.7103,N,12215.4756,W,0.26,133.21,230412,,,A*78
$GPVTG,133.21,T,,M,0.26,N,0.5,K,A*0E
$GPGGA,201625.000,3747.7100,N,12215.4754,W,1,05,4.6,15.6,M,-25.1,M,,0000*54
$GPGSA,A,3,01,32,20,07,16,,,,,,,,6.1,4.6,3.9*3F
$GPRMC,201625.000,A,3747.7100,N,12215.4754,W,0.28,30.97,230412,,,A*49
$GPVTG,30.97,T,,M,0.28,N,0.5,K,A*3F
$GPGGA,201626.000,3747.7099,N,12215.4751,W,1,05,4.6,15.5,M,-25.1,M,,0000*50
$GPGSA,A,3,01,32,20,07,16,,,,,,,,6.1,4.6,3.9*3F
$GPRMC,201626.000,A,3747.7099,N,12215.4751,W,0.46,165.26,230412,,,A*7D
$GPVTG,165.26,T,,M,0.46,N,0.8,K,A*01
$GPGGA,201627.000,3747.7098,N,12215.4754,W,1,05,4.6,15.9,M,-25.1,M,,0000*59
$GPGSA,A,3,01,32,20,07,16,,,,,,,,6.1,4.6,3.9*3F
$GPRMC,201627.000,A,3747.7098,N,12215.4754,W,0.42,223.79,230412,,,A*77
$GPVTG,223.79,T,,M,0.42,N,0.8,K,A*0E
$GPGGA,201628.000,3747.7097,N,12215.4760,W,1,05,4.6,16.9,M,-25.1,M,,0000*5D
$GPGSA,A,3,01,32,20,07,16,,,,,,,,6.1,4.6,3.9*3F
$GPRMC,201628.000,A,3747.7097,N,12215.4760,W,0.40,263.82,230412,,,A*72
$GPVTG,263.82,T,,M,0.40,N,0.7,K,A*03
$GPGGA,201629.000,3747.7093,N,12215.4764,W,1,05,4.6,17.8,M,-25.1,M,,0000*5C
$GPGSA,A,3,01,32,20,07,16,,,,,,,,6.1,4.6,3.9*3F
$GPGSV,3,1,12,20,77,216,29,32,58,145,34,23,56,316,25,30,44,082,18*7E
$GPGSV,3,2,12,16,41,121,39,13,29,290,25,31,18,046,,07,14,230,27*7B
$GPGSV,3,3,12,01,14,205,17,04,12,311,21,11,00,194,,48,44,197,39*7D
$GPVTG,332.54,T,,M,0.25,N,0.5,K,A*0C
$GPGGA,201630.000,3747.7092,N,12215.4765,W,1,05,4.6,17.9,M,-25.1,M,,0000*55
$GPGSA,A,3,01,32,20,07,16,,,,,,,,6.1,4.6,3.9*3F
$GPRMC,201630.000,A,3747.7092,N,12215.4765,W,0.27,16.83,230412,,,A*4B
$GPVTG,16.83,T,,M,0.27,N,0.5,K,A*31
$GPGGA,201631.000,3747.7094,N,12215.4764,W,1,05,4.6,16.7,M,-25.1,M,,0000*5C
$GPGSA,A,3,01,32,20,07,16,,,,,,,,6.1,4.6,3.9*3F
$GPRMC,201631.000,A,3747.7094,N,12215.4764,W,0.87,115.51,230412,,,A*7A
$GPVTG,115.51,T,,M,0.87,N,1.6,K,A*04
$GPGGA,201632.000,3747.7087,N,12215.4765,W,1,05,4.6,17.5,M,-25.1,M,,0000*5F
$GPGSA,A,3,01,32,20,07,16,,,,,,,,6.1,4.6,3.9*3F
$GPRMC,201632.000,A,3747.7087,N,12215.4765,W,1.35,189.22,230412,,,A*73
$GPVTG,189.22,T,,M,1.35,N,2.5,K,A*0D
$GPGGA,201633.000,3747.7095,N,12215.4765,W,1,05,4.6,17.2,M,-25.1,M,,0000*5A
$GPGSA,A,3,01,32,20,07,16,,,,,,,,6.1,4.6,3.9*3F
$GPRMC,201633.000,A,3747.7095,N,12215.4765,W,0.35,171.38,230412,,,A*7C
$GPVTG,171.38,T,,M,0.35,N,0.6,K,A*01
$GPGGA,201634.000,3747.7098,N,12215.4765,W,1,05,4.6,17.6,M,-25.1,M,,0000*54
$GPGSA,A,3,01,32,20,07,16,,,,,,,,6.1,4.6,3.9*3F
$GPGSV,3,1,12,20,77,216,21,32,58,145,26,23,56,316,24,30,44,082,17*7B
$GPGSV,3,2,12,16,41,121,29,13,29,290,25,31,18,046,,07,14,230,25*78
$GPGSV,3,3,12,01,14,205,20,04,12,311,21,11,00,194,,48,44,197,29*78
$GPRMC,201634.000,A,3747.7098,N,12215.4765,W,0.82,31.88,230412,,,A*44
$GPVTG,31.88,T,,M,0.82,N,1.5,K,A*31
$GPGGA,201635.000,3747.7088,N,12215.4764,W,1,05,4.6,18.6,M,-25.1,M,,0000*5A
$GPGSA,A,3,01,32,20,07,16,,,,,,,,6.1,4.6,3.9*3F
$GPRMC,201635.000,A,3747.7088,N,12215.4764,W,1.20,346.65,230412,,,A*7C
$GPVTG,346.65,T,,M,1.20,N,2.2,K,A*0C
$GPGGA,201636.000,3747.7086,N,12215.4764,W,1,05,4.6,18.9,M,-25.1,M,,0000*58
$GPGSA,A,3,01,32,20,07,16,,,,,,,,6.1,4.6,3.9*3F
$GPRMC,201636.000,A,3747.7086,N,12215.4764,W,0.40,15.22,230412,,,A*40
$GPVTG,15.22,T,,M,0.40,N,0.7,K,A*3A
$GPGGA,201637.000,3747.7082,N,12215.4765,W,1,05,4.6,19.3,M,-25.1,M,,0000*57
$GPGSA,A,3,01,32,20,07,16,,,,,,,,6.1,4.6,3.9*3F
$GPRMC,201637.000,A,3747.7082,N,12215.4765,W,0.49,213.28,230412,,,A*73
$GPVTG,213.28,T,,M,0.49,N,0.9,K,A*03
$GPGGA,201638.000,3747.7087,N,12215.4765,W,1,05,4.6,19.2,M,-25.1,M,,0000*5C
$GPGSA,A,3,01,32,20,07,16,,,,,,,,6.1,4.6,3.9*3F
$GPRMC,201638.000,A,3747.7087,N,12215.4765,W,0.68,182.94,230412,,,A*76
$GPVTG,182.94,T,,M,0.68,N,1.3,K,A*07
$GPGGA,201639.000,3747.7085,N,12215.4763,W,1,05,4.6,18.9,M,-25.1,M,,0000*53
$GPGSA,A,3,01,32,20,07,16,,,,,,,,6.1,4.6,3.9*3F
$GPGSV,3,1,12,20,77,216,23,32,58,145,31,23,56,316,32,30,44,082,*7E
$GPGSV,3,2,12,16,41,121,38,13,29,290,19,31,18,046,,07,14,230,22*70
$GPGSV,3,3,12,01,14,205,20,04,12,311,20,11,00,194,,48,44,197,36*77
$GPRMC,201639.000,A,3747.7085,N,12215.4763,W,0.60,170.33,230412,,,A*7B
$GPVTG,170.33,T,,M,0.60,N,1.1,K,A*0D
$GPGGA,201640.000,3747.7100,N,12215.4766,W,1,05,4.6,18.3,M,-25.1,M,,0000*5E
$GPGSA,A,3,01,32,20,07,16,,,,,,,,6.1,4.6,3.9*3F
$GPRMC,201640.000,A,3747.7100,N,12215.4766,W,0.46,172.24,230412,,,A*7C
$GPVTG,172.24,T,,M,0.46,N,0.8,K,A*05
$GPGGA,201641.000,3747.7096,N,12215.4767,W,2,05,4.6,18.4,M,-25.1,M,1.8,0000*73
$GPGSA,A,3,01,32,20,07,16,,,,,,,,6.1,4.6,3.9*3F
$GPRMC,201641.000,A,3747.7096,N,12215.4767,W,0.71,228.72,230412,,,D*7C
$GPVTG,228.72,T,,M,0.71,N,1.3,K,D*01
$GPGGA,201642.000,3747.7089,N,12215.4767,W,2,05,4.6,18.5,M,-25.1,M,2.8,0000*7C
$GPGSA,A,3,01,32,20,07,16,,,,,,,,6.1,4.6,3.9*3F
$GPRMC,201642.000,A,3747.7089,N,12215.4767,W,0.38,206.80,230412,,,D*7D
$GPVTG,206.80,T,,M,0.38,N,0.7,K,D*08
$GPGGA,201643.000,3747.7092,N,12215.4765,W,2,05,4.6,17.9,M,-25.1,M,3.8,0000*77
$GPGSA,A,3,01,32,20,07,16,,,,,,,,6.1,4.6,3.9*3F
$GPRMC,201643.000,A,3747.7092,N,12215.4765,W,0.40,149.91,230412,,,D*73
$GPVTG,149.91,T,,M,0.40,N,0.7,K,D*0F
$GPGGA,201644.000,3747.7084,N,12215.4762,W,2,05,4.6,17.8,M,-25.1,M,4.8,0000*76
$GPGSA,A,3,01,32,20,07,16,,,,,,,,6.1,4.6,3.9*3F
$GPGSV,3,1,12,20,77,216,22,32,58,145,33,23,56,316,17,30,44,082,18*73
$GPGSV,3,2,12,16,41,121,34,13,29,290,24,31,18,046,,07,14,230,32*73
$GPGSV,3,3,12,01,14,205,21,04,12,311,16,11,00,194,,48,44,197,29*7D
$GPRMC,201644.000,A,3747.7084,N,12215.4762,W,1.88,172.01,230412,,,D*70
$GPGGA,201645.000,3747.7067,N,12215.4759,W,2,05,4.6,18.0,M,-25.1,M,5.8,0000*74
$GPGSA,A,3,01,32,20,07,16,,,,,,,,6.1,4.6,3.9*3F
$GPRMC,201645.000,A,3747.7067,N,12215.4759,W,2.34,172.31,230412,,,D*73
$GPVTG,172.31,T,,M,2.34,N,4.3,K,D*0C
$GPGGA,201646.000,3747.7050,N,12215.4758,W,2,05,4.6,18.3,M,-25.1,M,6.8,0000*72
$GPGSA,A,3,01,32,20,07,16,,,,,,,,6.1,4.6,3.9*3F
$GPRMC,201646.000,A,3747.7050,N,12215.4758,W,2.00,170.44,230412,,,D*72
$GPVTG,170.44,T,,M,2.00,N,3.7,K,D*08
$GPGGA,201647.000,3747.7039,N,12215.4754,W,2,05,4.6,18.3,M,-25.1,M,7.8,0000*71
$GPGSA,A,3,01,32,20,07,16,,,,,,,,6.1,4.6,3.9*3F
$GPRMC,201647.000,A,3747.7039,N,12215.4754,W,1.43,159.50,230412,,,D*7A
$GPVTG,159.50,T,,M,1.43,N,2.7,K,D*03
$GPGGA,201648.000,3747.7039,N,12215.4757,W,2,05,4.6,18.8,M,-25.1,M,8.8,0000*79
$GPGSA,A,3,01,32,20,07,16,,,,,,,,6.1,4.6,3.9*3F
$GPRMC,201648.000,A,3747.7039,N,12215.4757,W,1.54,176.83,230412,,,D*73
$GPVTG,176.83,T,,M,1.54,N,2.8,K,D*09
$GPGGA,201649.000,3747.7033,N,12215.4759,W,2,05,4.6,19.2,M,-25.1,M,9.8,0000*76
$GPGSA,A,3,01,32,20,07,16,,,,,,,,6.1,4.6,3.9*3F
$GPGSV,3,1,12,20,77,216,22,32,58,145,33,23,56,316,19,30,44,082,18*7D
$GPGSV,3,2,12,16,41,121,35,13,29,290,23,31,18,046,,07,14,230,31*76
$GPGSV,3,3,12,01,14,205,21,04,12,311,18,11,00,194,,48,44,197,27*7D
$GPRMC,201649.000,A,3747.7033,N,12215.4759,W,1.73,170.36,230412,,,D*7B
$GPVTG,170.36,T,,M,1.73,N,3.2,K,D*0F
$GPGGA,201650.000,3747.7023,N,12215.4756,W,2,04,7.6,19.0,M,-25.1,M,10.8,0000*48
$GPGSA,A,3,32,20,07,16,,,,,,,,,9.0,7.6,4.8*35
$GPRMC,201650.000,A,3747.7023,N,12215.4756,W,2.53,170.58,230412,,,D*74
$GPVTG,170.58,T,,M,2.53,N,4.7,K,D*04
$GPGGA,201651.000,3747.7029,N,12215.4761,W,2,04,7.6,19.6,M,-25.1,M,11.8,0000*40
$GPGSA,A,3,32,20,07,16,,,,,,,,,9.0,7.6,4.8*35
$GPRMC,201651.000,A,3747.7029,N,12215.4761,W,1.10,177.30,230412,,,D*76
$GPVTG,177.30,T,,M,1.10,N,2.0,K,D*08
$GPGGA,201652.000,3747.7025,N,12215.4761,W,2,04,7.6,19.6,M,-25.1,M,12.8,0000*4C
$GPGSA,A,3,32,20,07,16,,,,,,,,,9.0,7.6,4.8*35
$GPRMC,201652.000,A,3747.7025,N,12215.4761,W,1.70,173.15,230412,,,D*7C
$GPVTG,173.15,T,,M,1.70,N,3.1,K,D*0D
$GPGGA,201653.000,3747.7026,N,12215.4762,W,2,04,7.6,19.7,M,-25.1,M,13.8,0000*4D
$GPGSA,A,3,32,20,07,16,,,,,,,,,9.0,7.6,4.8*35
$GPRMC,201653.000,A,3747.7026,N,12215.4762,W,1.22,172.33,230412,,,D*7F
$GPVTG,172.33,T,,M,1.22,N,2.3,K,D*0C
$GPGGA,201654.000,3747.7024,N,12215.4761,W,2,04,7.6,19.5,M,-25.1,M,14.8,0000*4E
$GPGSA,A,3,32,20,07,16,,,,,,,,,9.0,7.6,4.8*35
$GPGSV,3,1,12,20,77,216,25,32,58,145,32,23,56,316,20,30,44,082,18*71
$GPGSV,3,2,12,16,41,121,34,13,29,290,23,31,18,046,,07,14,230,33*75
$GPGSV,3,3,12,01,14,205,,04,12,311,18,11,00,194,24,51,43,156,38*74
$GPRMC,201654.000,A,3747.7024,N,12215.4761,W,0.91,175.14,230412,,,D*72
$GPVTG,175.14,T,,M,0.91,N,1.7,K,D*00
$GPGGA,201655.000,3747.7031,N,12215.4764,W,2,04,7.6,19.7,M,-25.1,M,15.8,0000*4D
$GPGSA,A,3,32,20,07,16,,,,,,,,,9.0,7.6,4.8*35
$GPRMC,201655.000,A,3747.7031,N,12215.4764,W,0.24,194.49,230412,,,D*7B
$GPVTG,194.49,T,,M,0.24,N,0.4,K,D*0B
$GPGGA,201656.000,3747.7035,N,12215.4765,W,2,04,7.6,19.6,M,-25.1,M,16.8,0000*49
$GPGSA,A,3,32,20,07,16,,,,,,,,,9.0,7.6,4.8*35
$GPRMC,201656.000,A,3747.7035,N,12215.4765,W,0.06,204.16,230412,,,D*7D
$GPVTG,204.16,T,,M,0.06,N,0.1,K,D*0E
$GPGGA,201657.000,3747.7037,N,12215.4765,W,2,04,7.6,19.4,M,-25.1,M,17.8,0000*49
$GPGSA,A,3,32,20,07,16,,,,,,,,,9.0,7.6,4.8*35
$GPRMC,201657.000,A,3747.7037,N,12215.4765,W,0.04,317.61,230412,,,D*7F
$GPVTG,317.61,T,,M,0.04,N,0.1,K,D*0F
$GPGGA,201658.000,3747.7044,N,12215.4766,W,2,05,4.6,19.0,M,-25.1,M,1.8,0000*70
$GPGSA,A,3,32,20,07,16,01,,,,,,,,6.1,4.6,3.9*3F
$GPRMC,201658.000,A,3747.7044,N,12215.4766,W,0.17,181.75,230412,,,D*7D
$GPVTG,181.75,T,,M,0.17,N,0.3,K,D*07
$GPGGA,201659.000,3747.7067,N,12215.4766,W,1,05,4.6,17.9,M,-25.1,M,,0000*53
$GPGSA,A,3,32,20,07,16,01,,,,,,,,6.1,4.6,3.9*3F
$GPGSV,3,1,12,20,77,216,25,32,58,145,31,23,56,316,20,30,44,082,19*73
$GPGSV,3,2,12,16,41,121,34,13,29,290,20,31,18,046,,07,14,230,33*76
$GPGSV,3,3,12,01,14,205,21,04,12,311,17,11,00,194,22,51,43,156,36*70
$GPVTG,342.94,T,,M,0.20,N,0.4,K,A*03
$GPGGA,201700.000,3747.7086,N,12215.4766,W,2,05,4.6,17.0,M,-25.1,M,1.8,0000*7C
$GPGSA,A,3,32,20,07,16,01,,,,,,,,6.1,4.6,3.9*3F
$GPRMC,201700.000,A,3747.7086,N,12215.4766,W,0.79,8.15,230412,,,D*71
$GPVTG,8.15,T,,M,0.79,N,1.5,K,D*0E
$GPGGA,201701.000,3747.7098,N,12215.4763,W,2,05,4.6,15.9,M,-25.1,M,1.8,0000*7C
$GPGSA,A,3,32,20,07,16,01,,,,,,,,6.1,4.6,3.9*3F
$GPRMC,201701.000,A,3747.7098,N,12215.4763,W,0.69,7.03,230412,,,D*73
$GPVTG,7.03,T,,M,0.69,N,1.3,K,D*01
$GPGGA,201702.000,3747.7121,N,12215.4763,W,2,05,4.6,14.8,M,-25.1,M,1.8,0000*7C
$GPGSA,A,3,32,20,07,16,01,,,,,,,,6.1,4.6,3.9*3F
$GPRMC,201702.000,A,3747.7121,N,12215.4763,W,1.41,4.59,230412,,,D*74
$GPVTG,4.59,T,,M,1.41,N,2.6,K,D*00
$GPGGA,201703.000,3747.7125,N,12215.4761,W,2,05,4.6,14.0,M,-25.1,M,1.8,0000*73
$GPGSA,A,3,32,20,07,16,01,,,,,,,,6.1,4.6,3.9*3F
$GPRMC,201703.000,A,3747.7125,N,12215.4761,W,1.09,5.96,230412,,,D*7D
$GPVTG,5.96,T,,M,1.09,N,2.0,K,D*08
$GPGGA,201704.000,3747.7128,N,12215.4760,W,2,05,4.6,13.4,M,-25.1,M,2.8,0000*78
$GPGSA,A,3,32,20,07,16,01,,,,,,,,6.1,4.6,3.9*3F
$GPGSV,3,1,12,20,77,216,21,32,58,145,31,23,56,316,18,30,44,082,19*7C
$GPGSV,3,2,12,16,41,121,34,13,29,290,19,31,18,046,,07,14,230,33*7C
$GPGSV,3,3,12,01,14,205,20,04,12,311,16,11,00,194,12,51,43,156,36*73
$GPRMC,201704.000,A,3747.7128,N,12215.4760,W,1.74,2.32,230412,,,D*75
$GPVTG,2.32,T,,M,1.74,N,3.2,K,D*08
$GPGGA,201705.000,3747.7121,N,12215.4757,W,2,05,4.6,12.9,M,-25.1,M,1.8,0000*7B
$GPGSA,A,3,32,20,07,16,01,,,,,,,,6.1,4.6,3.9*3F
$GPRMC,201705.000,A,3747.7121,N,12215.4757,W,1.71,6.94,230412,,,D*74
$GPVTG,6.94,T,,M,1.71,N,3.2,K,D*05
$GPGGA,201706.000,3747.7117,N,12215.4759,W,2,05,4.6,13.1,M,-25.1,M,1.8,0000*7A
$GPGSA,A,3,32,20,07,16,01,,,,,,,,6.1,4.6,3.9*3F
$GPRMC,201706.000,A,3747.7117,N,12215.4759,W,2.33,359.86,230412,,,D*73
$GPVTG,359.86,T,,M,2.33,N,4.3,K,D*0C
$GPGGA,201707.000,3747.7118,N,12215.4759,W,2,05,4.6,12.9,M,-25.1,M,0.8,0000*7C
$GPGSA,A,3,32,20,07,16,01,,,,,,,,6.0,4.6,3.9*3E
$GPRMC,201707.000,A,3747.7118,N,12215.4759,W,2.28,1.85,230412,,,D*7A
$GPVTG,1.85,T,,M,2.28,N,4.2,K,D*0A
$GPGGA,201708.000,3747.7127,N,12215.4764,W,2,05,4.6,13.1,M,-25.1,M,1.8,0000*79
$GPGSA,A,3,32,20,07,16,01,,,,,,,,6.0,4.6,3.9*3E
$GPRMC,201708.000,A,3747.7127,N,12215.4764,W,2.50,355.03,230412,,,D*74
$GPVTG,355.03,T,,M,2.50,N,4.6,K,D*0D
$GPGGA,201709.000,3747.7128,N,12215.4762,W,2,05,4.6,12.7,M,-25.1,M,1.8,0000*76
$GPGSA,A,3,32,20,07,16,01,,,,,,,,6.0,4.6,3.9*3E
$GPGSV,3,1,12,20,77,216,23,32,58,145,31,23,56,316,18,30,44,082,18*7F
$GPGSV,3,2,12,16,41,121,34,13,29,290,17,31,18,046,,07,14,230,33*72
$GPGSV,3,3,12,01,14,205,19,04,12,311,17,11,00,194,,51,43,156,36*7B
$GPRMC,201709.000,A,3747.7128,N,12215.4762,W,1.13,1.91,230412,,,D*71
$GPVTG,1.91,T,,M,1.13,N,2.1,K,D*01
$GPGGA,201710.000,3747.7112,N,12215.4758,W,2,05,4.6,12.4,M,-25.1,M,2.8,0000*7E
$GPGSA,A,3,32,20,07,16,01,,,,,,,,6.0,4.6,3.9*3E
$GPRMC,201710.000,A,3747.7112,N,12215.4758,W,0.60,151.78,230412,,,D*7F
$GPVTG,151.78,T,,M,0.60,N,1.1,K,D*04
$GPGGA,201711.000,3747.7095,N,12215.4758,W,2,05,4.6,12.7,M,-25.1,M,1.8,0000*71
$GPGSA,A,3,32,20,07,16,01,,,,,,,,6.0,4.6,3.9*3E
$GPRMC,201711.000,A,3747.7095,N,12215.4758,W,1.27,170.50,230412,,,D*7B
$GPVTG,170.50,T,,M,1.27,N,2.3,K,D*0E
$GPGGA,201712.000,3747.7092,N,12215.4756,W,2,05,4.6,12.1,M,-25.1,M,1.8,0000*7D
$GPGSA,A,3,32,20,07,16,01,,,,,,,,6.0,4.6,3.9*3E
$GPRMC,201712.000,A,3747.7092,N,12215.4756,W,0.81,152.76,230412,,,D*78
$GPVTG,152.76,T,,M,0.81,N,1.5,K,D*02
$GPGGA,201713.000,3747.7092,N,12215.4751,W,2,05,4.6,11.2,M,-25.1,M,1.8,0000*7B
$GPGSA,A,3,32,20,07,16,01,,,,,,,,6.0,4.6,3.9*3E
$GPRMC,201713.000,A,3747.7092,N,12215.4751,W,0.37,63.18,230412,,,D*48
$GPVTG,63.18,T,,M,0.37,N,0.7,K,D*37
$GPGGA,201714.000,3747.7099,N,12215.4748,W,2,05,4.6,10.2,M,-25.1,M,2.8,0000*7D
$GPGSA,A,3,32,20,07,16,01,,,,,,,,6.0,4.6,3.9*3E
$GPGSV,3,1,12,20,77,216,28,32,58,145,32,23,56,316,19,30,44,082,18*76
$GPGSV,3,2,12,16,41,121,35,13,29,290,19,31,18,046,,07,14,230,29*76
$GPGSV,3,3,12,01,14,205,20,04,12,311,,11,00,194,19,51,43,156,34*7D
$GPVTG,33.16,T,,M,0.25,N,0.5,K,D*3D
$GPGGA,201715.000,3747.7105,N,12215.4746,W,2,05,4.6,9.5,M,-25.1,M,3.8,0000*48
$GPGSA,A,3,32,20,07,16,01,,,,,,,,6.0,4.6,3.9*3E
$GPRMC,201715.000,A,3747.7105,N,12215.4746,W,0.62,18.03,230412,,,D*41
$GPVTG,18.03,T,,M,0.62,N,1.1,K,D*36
$GPGGA,201716.000,3747.7119,N,12215.4745,W,2,05,4.6,8.5,M,-25.1,M,1.8,0000*46
$GPGSA,A,3,32,20,07,16,01,,,,,,,,6.0,4.6,3.9*3E
$GPRMC,201716.000,A,3747.7119,N,12215.4745,W,1.50,4.60,230412,,,D*74
$GPVTG,4.60,T,,M,1.50,N,2.8,K,D*04
$GPGGA,201717.000,3747.7132,N,12215.4743,W,2,05,4.6,7.5,M,-25.1,M,1.8,0000*47
$GPGSA,A,3,32,20,07,16,01,,,,,,,,6.0,4.6,3.9*3E
$GPRMC,201717.000,A,3747.7132,N,12215.4743,W,1.79,4.38,230412,,,D*7C
$GPVTG,4.38,T,,M,1.79,N,3.3,K,D*08
$GPGGA,201718.000,3747.7142,N,12215.4741,W,2,05,4.6,6.8,M,-25.1,M,1.8,0000*41
$GPGSA,A,3,32,20,07,16,01,,,,,,,,6.0,4.6,3.9*3E
$GPRMC,201718.000,A,3747.7142,N,12215.4741,W,1.40,5.28,230412,,,D*7C
$GPVTG,5.28,T,,M,1.40,N,2.6,K,D*06
$GPGGA,201719.000,3747.7138,N,12215.4741,W,2,05,4.6,6.9,M,-25.1,M,1.8,0000*4C
$GPGSA,A,3,32,20,07,16,01,,,,,,,,6.0,4.6,3.9*3E
$GPGSV,3,1,12,20,77,214,28,32,57,145,32,23,57,316,19,30,44,081,18*79
$GPGSV,3,2,12,16,41,121,34,13,29,290,18,31,17,046,,07,15,230,29*78
$GPGSV,3,3,12,01,14,205,21,04,12,311,,11,00,194,17,10,00,317,*70
