$ADVER,3080,2.3
$GPRMC,211458.149,A,3747.7004,N,12215.4778,W,0.04,45.65,230412,,,A*46
$GPGGA,211459.149,3747.7004,N,12215.4778,W,1,04,2.3,19.7,M,-25.1,M,,0000*54
$GPGSA,A,3,07,13,20,32,,,,,,,,,5.7,2.3,5.3*31
$GPRMC,211459.149,A,3747.7004,N,12215.4778,W,0.23,141.66,230412,,,A*74
$GPVTG,141.66,T,,M,0.23,N,0.4,K,A*0C
$GPGGA,211500.149,3747.7003,N,12215.4778,W,1,04,2.3,20.0,M,-25.1,M,,0000*53
$GPGSA,A,3,07,13,20,32,,,,,,,,,5.7,2.3,5.3*31
$GPRMC,211500.149,A,3747.7003,N,12215.4778,W,0.20,129.70,230412,,,A*74
$GPVTG,129.70,T,,M,0.20,N,0.4,K,A*06
$GPGGA,211501.000,3747.7003,N,12215.4777,W,1,04,2.3,20.0,M,-25.1,M,,0000*51
$GPGSA,A,3,07,13,20,32,,,,,,,,,5.7,2.3,5.3*31
$GPRMC,211501.000,A,3747.7003,N,12215.4777,W,0.17,86.59,230412,,,A*4D
$GPVTG,86.59,T,,M,0.17,N,0.3,K,A*3A
$GPGGA,211502.000,3747.7003,N,12215.4776,W,1,04,2.3,20.4,M,-25.1,M,,0000*57
$GPGSA,A,3,07,13,20,32,,,,,,,,,5.7,2.3,5.3*31
$GPRMC,211502.000,A,3747.7003,N,12215.4776,W,0.18,79.91,230412,,,A*44
$GPVTG,79.91,T,,M,0.18,N,0.3,K,A*31
$GPGGA,211503.000,3747.7003,N,12215.4776,W,1,04,2.3,20.8,M,-25.1,M,,0000*5A
$GPGSA,A,3,07,13,20,32,,,,,,,,,5.7,2.3,5.3*31
$GPGSV,3,1,12,20,50,182,34,13,48,314,30,07,35,250,35,32,31,157,34*7F
$GPGSV,3,2,12,23,71,011,23,16,50,080,27,30,33,051,,10,22,315,22*73
$GPRMC,211503.000,A,3747.7003,N,12215.4776,W,0.14,110.38,230412,,,A*74
$GPVTG,110.38,T,,M,0.14,N,0.3,K,A*00
$GPGGA,211504.000,3747.7003,N,12215.4776,W,1,04,2.3,21.2,M,-25.1,M,,0000*56
$GPGSA,A,3,07,13,20,32,,,,,,,,,5.7,2.3,5.3*31
$GPRMC,211504.000,A,3747.7003,N,12215.4776,W,0.15,131.58,230412,,,A*77
$GPVTG,131.58,T,,M,0.15,N,0.3,K,A*04
$GPGGA,211505.000,3747.6998,N,12215.4778,W,1,04,2.3,21.5,M,-25.1,M,,0000*54
$GPGSA,A,3,07,13,20,32,,,,,,,,,5.7,2.3,5.3*31
$GPRMC,211505.000,A,3747.6998,N,12215.4778,W,0.21,135.72,230412,,,A*79
$GPVTG,135.72,T,,M,0.21,N,0.4,K,A*08
$GPGGA,211506.000,3747.6995,N,12215.4779,W,1,04,2.3,22.0,M,-25.1,M,,0000*5D
$GPGSA,A,3,07,13,20,32,,,,,,,,,5.7,2.3,5.3*31
$GPRMC,211506.000,A,3747.6995,N,12215.4779,W,0.48,134.42,230412,,,A*7B
$GPVTG,134.42,T,,M,0.48,N,0.9,K,A*08
$GPGGA,211507.000,3747.6995,N,12215.4774,W,1,04,2.3,21.8,M,-25.1,M,,0000*5A
$GPGSA,A,3,07,13,20,32,,,,,,,,,5.7,2.3,5.3*31
$GPRMC,211507.000,A,3747.6995,N,12215.4774,W,0.64,166.78,230412,,,A*77
$GPVTG,166.78,T,,M,0.64,N,1.2,K,A*02
$GPGGA,211508.000,3747.7000,N,12215.4769,W,1,04,2.3,21.6,M,-25.1,M,,0000*53
$GPGSA,A,3,07,13,20,32,,,,,,,,,5.7,2.3,5.3*31
$GPGSV,3,1,12,20,50,182,33,13,48,314,26,07,35,250,43,32,31,157,32*78
$GPGSV,3,2,12,23,71,011,21,16,50,080,26,30,33,051,,10,22,315,31*72
$GPGSV,3,3,12,04,13,287,25,03,08,122,,06,06,107,,08,02,237,*76
$GPRMC,211508.000,A,3747.7000,N,12215.4769,W,0.44,76.58,230412,,,A*40
$GPVTG,76.58,T,,M,0.44,N,0.8,K,A*39
$GPGGA,211509.000,3747.7000,N,12215.4769,W,1,04,2.3,21.6,M,-25.1,M,,0000*52
$GPGSA,A,3,07,13,20,32,,,,,,,,,5.7,2.3,5.3*31
$GPRMC,211509.000,A,3747.7000,N,12215.4769,W,0.21,69.51,230412,,,A*45
$GPVTG,69.51,T,,M,0.21,N,0.4,K,A*31
$GPGGA,211510.000,3747.6999,N,12215.4770,W,1,04,2.3,21.8,M,-25.1,M,,0000*54
$GPGSA,A,3,07,13,20,32,,,,,,,,,5.7,2.3,5.3*31
$GPRMC,211510.000,A,3747.6999,N,12215.4770,W,0.13,120.14,230412,,,A*71
$GPVTG,120.14,T,,M,0.13,N,0.2,K,A*0B
$GPGGA,211511.000,3747.7000,N,12215.4770,W,1,04,2.3,22.1,M,-25.1,M,,0000*57
$GPGSA,A,3,07,13,20,32,,,,,,,,,5.7,2.3,5.3*31
$GPRMC,211511.000,A,3747.7000,N,12215.4770,W,0.36,101.37,230412,,,A*7D
$GPVTG,101.37,T,,M,0.36,N,0.7,K,A*0B
$GPGGA,211512.000,3747.7000,N,12215.4769,W,1,04,2.3,22.4,M,-25.1,M,,0000*59
$GPGSA,A,3,07,13,20,32,,,,,,,,,5.7,2.3,5.3*31
$GPRMC,211512.000,A,3747.7000,N,12215.4769,W,0.21,97.11,230412,,,A*4A
$GPVTG,97.11,T,,M,0.21,N,0.4,K,A*34
$GPGGA,211513.000,3747.6998,N,12215.4773,W,1,04,2.3,22.2,M,-25.1,M,,0000*5C
$GPGSA,A,3,07,13,20,32,,,,,,,,,5.7,2.3,5.3*31
$GPGSV,3,1,12,20,50,182,37,13,48,314,31,07,35,250,21,32,31,157,36*7A
$GPGSV,3,2,12,23,71,011,27,16,50,080,28,30,33,051,,10,22,315,23*79
$GPGSV,3,3,12,04,13,287,18,03,08,122,,06,06,107,,08,02,237,*78
$GPRMC,211513.000,A,3747.6998,N,12215.4773,W,0.51,235.28,230412,,,A*7E
$GPVTG,235.28,T,,M,0.51,N,0.9,K,A*0E
$GPGGA,211514.000,3747.6994,N,12215.4785,W,1,04,2.3,21.0,M,-25.1,M,,0000*5F
$GPGSA,A,3,07,13,20,32,,,,,,,,,5.7,2.3,5.3*31
$GPRMC,211514.000,A,3747.6994,N,12215.4785,W,0.70,241.99,230412,,,A*76
$GPVTG,241.99,T,,M,0.70,N,1.3,K,A*0F
$GPGGA,211515.000,3747.6989,N,12215.4794,W,1,04,2.3,20.2,M,-25.1,M,,0000*51
$GPGSA,A,3,07,13,20,32,,,,,,,,,5.7,2.3,5.3*31
$GPRMC,211515.000,A,3747.6989,N,12215.4794,W,0.90,225.27,230412,,,A*72
$GPVTG,225.27,T,,M,0.90,N,1.7,K,A*02
$GPGGA,211516.000,3747.6990,N,12215.4794,W,1,04,2.3,20.0,M,-25.1,M,,0000*58
$GPGSA,A,3,07,13,20,32,,,,,,,,,5.7,2.3,5.3*31
$GPRMC,211516.000,A,3747.6990,N,12215.4794,W,0.31,257.93,230412,,,A*78
$GPVTG,257.93,T,,M,0.31,N,0.6,K,A*03
$GPGGA,211517.000,3747.6986,N,12215.4795,W,1,04,2.3,19.8,M,-25.1,M,,0000*5D
$GPGSA,A,3,07,13,20,32,,,,,,,,,5.7,2.3,5.3*31
$GPRMC,211517.000,A,3747.6986,N,12215.4795,W,0.25,186.77,230412,,,A*7F
$GPVTG,186.77,T,,M,0.25,N,0.5,K,A*00
$GPGGA,211518.000,3747.6980,N,12215.4803,W,1,04,2.3,19.0,M,-25.1,M,,0000*5C
$GPGSA,A,3,07,13,20,32,,,,,,,,,5.7,2.3,5.3*31
$GPGSV,3,1,12,20,50,182,29,13,48,314,29,07,35,250,15,32,31,157,36*7B
$GPGSV,3,2,12,23,71,011,18,16,50,080,18,30,33,051,,10,22,315,19*7F
$GPGSV,3,3,12,04,13,287,23,03,08,122,,06,06,107,,08,02,237,*70
$GPVTG,199.47,T,,M,0.39,N,0.7,K,A*02
$GPGGA,211519.000,3747.6981,N,12215.4798,W,1,04,2.3,19.1,M,-25.1,M,,0000*50
$GPGSA,A,3,07,13,20,32,,,,,,,,,5.7,2.3,5.3*31
$GPRMC,211519.000,A,3747.6981,N,12215.4798,W,0.54,78.26,230412,,,A*49
$GPVTG,78.26,T,,M,0.54,N,1.0,K,A*36
$GPGGA,211520.000,3747.6981,N,12215.4800,W,1,04,2.3,18.2,M,-25.1,M,,0000*56
$GPGSA,A,3,07,13,20,32,,,,,,,,,5.7,2.3,5.3*31
$GPRMC,211520.000,A,3747.6981,N,12215.4800,W,0.88,67.61,230412,,,A*41
$GPVTG,67.61,T,,M,0.88,N,1.6,K,A*3C
$GPGGA,211521.000,3747.6987,N,12215.4792,W,1,04,2.3,17.5,M,-25.1,M,,0000*5D
$GPGSA,A,3,07,13,20,32,,,,,,,,,5.7,2.3,5.3*31
$GPRMC,211521.000,A,3747.6987,N,12215.4792,W,0.92,26.18,230412,,,A*42
$GPVTG,26.18,T,,M,0.92,N,1.7,K,A*3D
$GPGGA,211522.000,3747.6983,N,12215.4796,W,1,04,2.3,17.2,M,-25.1,M,,0000*59
$GPGSA,A,3,07,13,20,32,,,,,,,,,5.7,2.3,5.3*31
$GPRMC,211522.000,A,3747.6983,N,12215.4796,W,1.59,265.24,230412,,,A*7D
$GPVTG,265.24,T,,M,1.59,N,2.9,K,A*0C
$GPGGA,211523.000,3747.6985,N,12215.4794,W,1,04,2.3,18.5,M,-25.1,M,,0000*54
$GPGSA,A,3,07,13,20,32,,,,,,,,,5.7,2.3,5.3*31
$GPGSV,3,1,12,20,50,182,36,13,48,314,26,07,35,250,30,32,31,157,37*7C
$GPGSV,3,2,12,23,71,011,21,16,50,080,17,30,33,051,,10,22,315,20*70
$GPGSV,3,3,12,04,13,287,23,03,08,122,18,06,06,107,,08,02,237,*79
$GPRMC,211523.000,A,3747.6985,N,12215.4794,W,0.20,101.37,230412,,,A*74
$GPVTG,101.37,T,,M,0.20,N,0.4,K,A*0F
$GPGGA,211524.000,3747.6989,N,12215.4786,W,1,04,2.3,20.4,M,-25.1,M,,0000*56
$GPGSA,A,3,07,13,20,32,,,,,,,,,5.7,2.3,5.3*31
$GPRMC,211524.000,A,3747.6989,N,12215.4786,W,0.46,51.08,230412,,,A*44
$GPVTG,51.08,T,,M,0.46,N,0.8,K,A*3B
$GPGGA,211525.000,3747.6996,N,12215.4775,W,1,04,2.3,21.9,M,-25.1,M,,0000*59
$GPGSA,A,3,07,13,20,32,,,,,,,,,5.7,2.3,5.3*31
$GPRMC,211525.000,A,3747.6996,N,12215.4775,W,0.96,53.58,230412,,,A*4D
$GPVTG,53.58,T,,M,0.96,N,1.8,K,A*30
$GPGGA,211526.000,3747.7001,N,12215.4772,W,1,04,2.3,21.9,M,-25.1,M,,0000*5B
$GPGSA,A,3,07,13,20,32,,,,,,,,,5.7,2.3,5.3*31
$GPRMC,211526.000,A,3747.7001,N,12215.4772,W,0.76,40.53,230412,,,A*48
$GPVTG,40.53,T,,M,0.76,N,1.4,K,A*3B
$GPGGA,211527.000,3747.7007,N,12215.4764,W,1,04,2.3,20.0,M,-25.1,M,,0000*53
$GPGSA,A,3,07,13,20,32,,,,,,,,,5.7,2.3,5.3*31
$GPRMC,211527.000,A,3747.7007,N,12215.4764,W,0.97,82.14,230412,,,A*4A
$GPVTG,82.14,T,,M,0.97,N,1.8,K,A*35
$GPGGA,211528.000,3747.7014,N,12215.4754,W,1,04,2.3,20.5,M,-25.1,M,,0000*58
$GPGSA,A,3,07,13,20,32,,,,,,,,,5.7,2.3,5.3*31
$GPGSV,3,1,12,20,50,182,29,13,48,314,29,07,35,250,27,32,31,157,21*7C
$GPGSV,3,2,12,23,71,011,23,16,50,080,17,30,33,051,,10,22,315,31*72
$GPGSV,3,3,12,04,13,287,22,03,08,122,17,06,06,107,,08,02,237,*77
$GPRMC,211528.000,A,3747.7014,N,12215.4754,W,1.55,58.93,230412,,,A*43
$GPVTG,58.93,T,,M,1.55,N,2.9,K,A*30
$GPGGA,211529.000,3747.7015,N,12215.4757,W,1,04,2.3,22.0,M,-25.1,M,,0000*5C
$GPGSA,A,3,07,13,20,32,,,,,,,,,5.7,2.3,5.3*31
$GPRMC,211529.000,A,3747.7015,N,12215.4757,W,0.36,26.82,230412,,,A*4D
$GPVTG,26.82,T,,M,0.36,N,0.7,K,A*31
$GPGGA,211530.000,3747.7017,N,12215.4761,W,1,04,2.3,23.6,M,-25.1,M,,0000*54
$GPGSA,A,3,07,13,20,32,,,,,,,,,5.7,2.3,5.3*31
$GPRMC,211530.000,A,3747.7017,N,12215.4761,W,0.39,147.30,230412,,,A*72
$GPVTG,147.30,T,,M,0.39,N,0.7,K,A*01
$GPGGA,211531.000,3747.7019,N,12215.4765,W,1,04,2.3,23.7,M,-25.1,M,,0000*5E
$GPGSA,A,3,07,13,20,32,,,,,,,,,5.7,2.3,5.3*31
$GPRMC,211531.000,A,3747.7019,N,12215.4765,W,0.18,159.83,230412,,,A*7D
$GPVTG,159.83,T,,M,0.18,N,0.3,K,A*01
$GPGGA,211532.000,3747.7018,N,12215.4772,W,1,04,2.3,23.4,M,-25.1,M,,0000*59
$GPGSA,A,3,07,13,20,32,,,,,,,,,5.7,2.3,5.3*31
$GPRMC,211532.000,A,3747.7018,N,12215.4772,W,0.52,142.98,230412,,,A*77
$GPVTG,142.98,T,,M,0.52,N,1.0,K,A*0D
$GPGGA,211533.000,3747.7024,N,12215.4767,W,1,04,2.3,22.7,M,-25.1,M,,0000*51
$GPGSA,A,3,07,13,20,32,,,,,,,,,5.7,2.3,5.3*31
$GPGSV,3,1,12,20,50,182,29,13,48,314,23,07,35,250,29,32,31,157,22*7B
$GPGSV,3,2,12,23,71,011,26,16,50,080,,30,33,051,,10,22,315,21*70
$GPGSV,3,3,12,04,13,287,21,03,08,122,,06,06,107,,08,02,237,*72
$GPRMC,211533.000,A,3747.7024,N,12215.4767,W,0.71,58.51,230412,,,A*43
$GPGGA,211534.000,3747.7030,N,12215.4759,W,1,04,2.3,20.6,M,-25.1,M,,0000*5D
$GPGSA,A,3,07,13,20,32,,,,,,,,,5.7,2.3,5.3*31
$GPWPL,3747.7030,N,12215.4759,W,00001*61
$ADPMB,5,0
$GPRMC,211534.000,A,3747.7030,N,12215.4759,W,1.20,49.33,230412,,,A*4D
$GPVTG,49.33,T,,M,1.20,N,2.2,K,A*33
$GPGGA,211535.000,3747.7025,N,12215.4757,W,1,04,2.3,20.4,M,-25.1,M,,0000*54
$GPGSA,A,3,07,13,20,32,,,,,,,,,5.7,2.3,5.3*31
$GPWPL,3747.7025,N,12215.4757,W,00002*68
$ADPMB,5,0
$GPRMC,211535.000,A,3747.7025,N,12215.4757,W,0.84,95.65,230412,,,A*4B
$GPVTG,95.65,T,,M,0.84,N,1.6,K,A*39
$GPGGA,211536.000,3747.7019,N,12215.4759,W,1,04,2.3,24.7,M,-25.1,M,,0000*51
$GPGSA,A,3,07,13,20,32,,,,,,,,,5.7,2.3,5.3*31
$GPRMC,211536.000,A,3747.7019,N,12215.4759,W,0.68,54.26,230412,,,A*41
$GPVTG,54.26,T,,M,0.68,N,1.3,K,A*34
$GPGGA,211537.000,3747.7016,N,12215.4748,W,1,04,2.3,26.3,M,-25.1,M,,0000*59
$GPGSA,A,3,07,13,20,32,,,,,,,,,5.7,2.3,5.3*31
$GPRMC,211537.000,A,3747.7016,N,12215.4748,W,1.79,60.13,230412,,,A*4F
$GPVTG,60.13,T,,M,1.79,N,3.3,K,A*36
$GPGGA,211538.000,3747.7015,N,12215.4752,W,1,04,2.3,28.5,M,-25.1,M,,0000*56
$GPGSA,A,3,07,13,20,32,,,,,,,,,5.7,2.3,5.3*31
$GPGSV,3,1,12,20,50,182,25,13,48,314,31,07,35,250,27,32,31,157,22*7A
$GPGSV,3,2,12,23,71,011,29,16,50,080,,30,33,051,,10,22,315,22*7C
$GPGSV,3,3,12,04,13,287,19,03,08,122,,06,06,107,,08,02,237,*79
$GPRMC,211538.000,A,3747.7015,N,12215.4752,W,1.03,69.65,230412,,,A*4D
$GPVTG,69.65,T,,M,1.03,N,1.9,K,A*3B
$GPGGA,211539.000,3747.7013,N,12215.4753,W,1,04,2.3,29.1,M,-25.1,M,,0000*55
$GPGSA,A,3,07,13,20,32,,,,,,,,,5.7,2.3,5.3*31
$GPRMC,211539.000,A,3747.7013,N,12215.4753,W,0.38,114.40,230412,,,A*7E
$GPVTG,114.40,T,,M,0.38,N,0.7,K,A*01
$GPGGA,211540.000,3747.7009,N,12215.4751,W,1,04,2.3,29.2,M,-25.1,M,,0000*51
$GPGSA,A,3,07,13,20,32,,,,,,,,,5.7,2.3,5.3*31
$GPRMC,211540.000,A,3747.7009,N,12215.4751,W,0.32,217.35,230412,,,A*71
$GPVTG,217.35,T,,M,0.32,N,0.6,K,A*08
$GPGGA,211541.000,3747.7009,N,12215.4753,W,1,03,2.6,27.9,M,-25.1,M,,0000*55
$GPGSA,A,2,07,13,20,,,,,,,,,,2.7,2.6,1.0*34
$GPRMC,211541.000,A,3747.7009,N,12215.4753,W,0.29,234.29,230412,,,A*74
$GPVTG,234.29,T,,M,0.29,N,0.5,K,N*02
$GPGGA,211542.000,3747.7007,N,12215.4757,W,1,04,2.3,27.6,M,-25.1,M,,0000*51
$GPGSA,A,3,07,13,20,32,,,,,,,,,5.7,2.3,5.3*31
$GPRMC,211542.000,A,3747.7007,N,12215.4757,W,1.06,167.62,230412,,,A*7B
$GPVTG,167.62,T,,M,1.06,N,2.0,K,A*0C
$GPGGA,211543.000,3747.7005,N,12215.4767,W,1,04,2.3,28.2,M,-25.1,M,,0000*5A
$GPGSA,A,3,07,13,20,32,,,,,,,,,5.7,2.3,5.3*31
$GPGSV,3,1,12,20,50,182,28,13,48,314,35,07,35,250,34,32,31,157,24*77
$GPGSV,3,2,12,23,71,011,33,16,50,080,,30,33,051,,10,22,315,37*73
$GPGSV,3,3,12,04,13,287,39,03,08,122,,06,06,107,,08,02,237,*7B
$GPRMC,211543.000,A,3747.7005,N,12215.4767,W,1.45,162.26,230412,,,A*79
$GPVTG,162.26,T,,M,1.45,N,2.7,K,A*09
$GPGGA,211544.000,3747.7002,N,12215.4775,W,1,04,2.3,29.8,M,-25.1,M,,0000*52
$GPGSA,A,3,07,13,20,32,,,,,,,,,5.7,2.3,5.3*31
$GPRMC,211544.000,A,3747.7002,N,12215.4775,W,1.40,160.40,230412,,,A*7D
$GPVTG,160.40,T,,M,1.40,N,2.6,K,A*0F
$GPGGA,211545.000,3747.6997,N,12215.4777,W,1,04,2.3,30.1,M,-25.1,M,,0000*54
$GPGSA,A,3,07,13,20,32,,,,,,,,,5.7,2.3,5.3*31
$GPRMC,211545.000,A,3747.6997,N,12215.4777,W,1.82,155.87,230412,,,A*79
$GPVTG,155.87,T,,M,1.82,N,3.4,K,A*0F
$GPGGA,211546.000,3747.6992,N,12215.4775,W,1,04,2.3,30.2,M,-25.1,M,,0000*53
$GPGSA,A,3,07,13,20,32,,,,,,,,,5.7,2.3,5.3*31
$GPRMC,211546.000,A,3747.6992,N,12215.4775,W,2.24,149.88,230412,,,A*70
$GPVTG,149.88,T,,M,2.24,N,4.1,K,A*00
$GPGGA,211547.000,3747.6988,N,12215.4773,W,1,04,2.3,29.8,M,-25.1,M,,0000*5D
$GPGSA,A,3,07,13,20,32,,,,,,,,,5.7,2.3,5.3*31
$GPRMC,211547.000,A,3747.6988,N,12215.4773,W,1.49,163.25,230412,,,A*7B
$GPVTG,163.25,T,,M,1.49,N,2.8,K,A*08
$GPGGA,211548.000,3747.6983,N,12215.4773,W,1,04,2.3,30.2,M,-25.1,M,,0000*5B
$GPGSA,A,3,07,13,20,32,,,,,,,,,5.7,2.3,5.3*31
$GPGSV,3,1,12,23,71,012,34,16,50,080,,20,50,182,29,13,48,314,36*7B
$GPGSV,3,2,12,07,35,250,35,30,32,050,,32,30,157,26,10,22,315,37*7B
$GPGSV,3,3,12,04,13,286,34,03,08,122,,06,06,106,,08,03,237,*77
$GPVTG,161.73,T,,M,1.98,N,3.7,K,A*0B
$GPGGA,211549.000,3747.6977,N,12215.4771,W,1,04,2.3,31.2,M,-25.1,M,,0000*52
$GPGSA,A,3,07,13,20,32,,,,,,,,,5.8,2.3,5.3*3E
$GPRMC,211549.000,A,3747.6977,N,12215.4771,W,1.68,166.31,230412,,,A*74
$GPVTG,166.31,T,,M,1.68,N,3.1,K,A*03
$GPGGA,211550.000,3747.6971,N,12215.4763,W,1,04,2.3,30.6,M,-25.1,M,,0000*5A
$GPGSA,A,3,07,13,20,32,,,,,,,,,5.8,2.3,5.3*3E
$GPRMC,211550.000,A,3747.6971,N,12215.4763,W,1.88,161.83,230412,,,A*79
$GPVTG,161.83,T,,M,1.88,N,3.5,K,A*07
$GPGGA,211551.000,3747.6966,N,12215.4766,W,1,04,2.3,32.0,M,-25.1,M,,0000*5C
$GPGSA,A,3,07,13,20,32,,,,,,,,,5.8,2.3,5.3*3E
$GPRMC,211551.000,A,3747.6966,N,12215.4766,W,1.37,172.72,230412,,,A*73
$GPVTG,172.72,T,,M,1.37,N,2.5,K,A*0E
$GPGGA,211552.000,3747.6962,N,12215.4765,W,1,04,2.3,33.0,M,-25.1,M,,0000*59
$GPGSA,A,3,07,13,20,32,,,,,,,,,5.8,2.3,5.3*3E
$GPRMC,211552.000,A,3747.6962,N,12215.4765,W,1.34,170.58,230412,,,A*7E
$GPVTG,170.58,T,,M,1.34,N,2.5,K,A*07
$GPGGA,211553.000,3747.6958,N,12215.4757,W,1,04,2.3,32.5,M,-25.1,M,,0000*54
$GPGSA,A,3,07,13,20,32,,,,,,,,,5.8,2.3,5.3*3E
$GPGSV,3,1,12,23,71,012,35,16,50,080,,20,50,182,28,13,48,314,37*7A
$GPGSV,3,2,12,07,35,250,35,30,32,050,,32,30,157,26,10,22,315,38*74
$GPGSV,3,3,12,04,13,286,35,03,08,122,,06,06,106,,08,03,237,*76
$GPRMC,211553.000,A,3747.6958,N,12215.4757,W,1.88,150.48,230412,,,A*73
$GPVTG,150.48,T,,M,1.88,N,3.5,K,A*02
$GPGGA,211554.000,3747.6953,N,12215.4759,W,1,04,2.3,33.8,M,-25.1,M,,0000*5A
$GPGSA,A,3,07,13,20,32,,,,,,,,,5.8,2.3,5.3*3E
$GPRMC,211554.000,A,3747.6953,N,12215.4759,W,1.73,155.06,230412,,,A*7A
$GPVTG,155.06,T,,M,1.73,N,3.2,K,A*0E
$GPGGA,211555.000,3747.6948,N,12215.4756,W,1,04,2.3,34.7,M,-25.1,M,,0000*56
$GPGSA,A,3,07,13,20,32,,,,,,,,,5.8,2.3,5.3*3E
$GPRMC,211555.000,A,3747.6948,N,12215.4756,W,2.29,151.88,230412,,,A*70
$GPVTG,151.88,T,,M,2.29,N,4.2,K,A*07
$GPGGA,211556.000,3747.6943,N,12215.4747,W,1,04,2.3,33.7,M,-25.1,M,,0000*59
$GPGSA,A,3,07,13,20,32,,,,,,,,,5.8,2.3,5.3*3E
$GPRMC,211556.000,A,3747.6943,N,12215.4747,W,2.16,152.55,230412,,,A*77
$GPVTG,152.55,T,,M,2.16,N,4.0,K,A*0A
$GPGGA,211557.000,3747.6938,N,12215.4733,W,1,04,2.3,32.2,M,-25.1,M,,0000*53
$GPGSA,A,3,07,13,20,32,,,,,,,,,5.8,2.3,5.3*3E
$GPRMC,211557.000,A,3747.6938,N,12215.4733,W,2.47,141.50,230412,,,A*7A
$GPVTG,141.50,T,,M,2.47,N,4.6,K,A*0F
$GPGGA,211558.000,3747.6934,N,12215.4726,W,1,04,2.3,31.1,M,-25.1,M,,0000*54
$GPGSA,A,3,07,13,20,32,,,,,,,,,5.8,2.3,5.3*3E
$GPGSV,3,1,12,23,71,012,35,16,50,080,,20,50,182,28,13,48,314,37*7A
$GPGSV,3,2,12,07,35,250,34,30,32,050,,32,30,157,25,10,22,315,37*79
$GPGSV,3,3,12,04,13,286,36,03,08,122,,06,06,106,,08,03,237,*75
$GPRMC,211558.000,A,3747.6934,N,12215.4726,W,1.97,147.12,230412,,,A*73
$GPVTG,147.12,T,,M,1.97,N,3.6,K,A*06
$GPGGA,211559.000,3747.6929,N,12215.4719,W,1,04,2.3,30.4,M,-25.1,M,,0000*51
$GPGSA,A,3,07,13,20,32,,,,,,,,,5.8,2.3,5.3*3E
$GPRMC,211559.000,A,3747.6929,N,12215.4719,W,1.95,146.70,230412,,,A*75
$GPVTG,146.70,T,,M,1.95,N,3.6,K,A*01
$GPGGA,211600.000,3747.6927,N,12215.4709,W,1,04,2.3,29.5,M,-25.1,M,,0000*58
$GPGSA,A,3,07,13,20,32,,,,,,,,,5.8,2.3,5.3*3E
$GPRMC,211600.000,A,3747.6927,N,12215.4709,W,2.31,140.69,230412,,,A*76
$GPVTG,140.69,T,,M,2.31,N,4.3,K,A*00
$GPGGA,211601.000,3747.6925,N,12215.4696,W,1,04,2.3,26.9,M,-25.1,M,,0000*5F
$GPGSA,A,3,07,13,20,32,,,,,,,,,5.8,2.3,5.3*3E
$GPRMC,211601.000,A,3747.6925,N,12215.4696,W,2.26,135.33,230412,,,A*79
$GPVTG,135.33,T,,M,2.26,N,4.2,K,A*0A
$GPGGA,211602.000,3747.6923,N,12215.4682,W,1,04,2.3,24.6,M,-25.1,M,,0000*52
$GPGSA,A,3,07,13,20,32,,,,,,,,,5.8,2.3,5.3*3E
$GPRMC,211602.000,A,3747.6923,N,12215.4682,W,2.03,134.92,230412,,,A*74
$GPVTG,134.92,T,,M,2.03,N,3.8,K,A*0A
$GPGGA,211603.000,3747.6919,N,12215.4671,W,1,04,2.3,24.3,M,-25.1,M,,0000*53
$GPGSA,A,3,07,13,20,32,,,,,,,,,5.8,2.3,5.3*3E
$GPGSV,3,1,12,23,71,012,35,16,50,080,18,20,50,182,27,13,48,314,37*7C
$GPGSV,3,2,12,07,35,250,34,30,32,050,,32,30,157,25,10,22,315,37*79
$GPGSV,3,3,12,04,13,286,37,03,08,122,,06,06,106,13,08,03,237,*76
$GPRMC,211603.000,A,3747.6919,N,12215.4671,W,2.35,135.77,230412,,,A*7F
$GPGGA,211604.000,3747.6915,N,12215.4663,W,1,06,1.8,23.5,M,-25.1,M,,0000*50
$GPGSA,A,3,07,13,20,32,04,23,,,,,,,3.1,1.8,2.5*3D
$GPRMC,211604.000,A,3747.6915,N,12215.4663,W,2.22,139.24,230412,,,A*7B
$GPVTG,139.24,T,,M,2.22,N,4.1,K,A*07
$GPGGA,211605.000,3747.6912,N,12215.4653,W,1,06,1.8,21.7,M,-25.1,M,,0000*55
$GPGSA,A,3,07,13,20,32,04,23,,,,,,,3.1,1.8,2.5*3D
$GPRMC,211605.000,A,3747.6912,N,12215.4653,W,2.35,129.90,230412,,,A*76
$GPVTG,129.90,T,,M,2.35,N,4.4,K,A*0A
$GPGGA,211606.000,3747.6909,N,12215.4646,W,1,06,1.8,21.5,M,-25.1,M,,0000*5A
$GPGSA,A,3,07,13,20,32,04,23,,,,,,,3.1,1.8,2.5*3D
$GPRMC,211606.000,A,3747.6909,N,12215.4646,W,2.43,132.70,230412,,,A*7E
$GPVTG,132.70,T,,M,2.43,N,4.5,K,A*0E
$GPGGA,211607.000,3747.6902,N,12215.4641,W,1,06,1.8,21.9,M,-25.1,M,,0000*5B
$GPGSA,A,3,07,13,20,32,04,23,,,,,,,3.1,1.8,2.5*3D
$GPRMC,211607.000,A,3747.6902,N,12215.4641,W,1.85,138.21,230412,,,A*74
$GPVTG,138.21,T,,M,1.85,N,3.4,K,A*0F
$GPGGA,211608.000,3747.6897,N,12215.4639,W,1,06,1.8,23.1,M,-25.1,M,,0000*5C
$GPGSA,A,3,07,13,20,32,04,23,,,,,,,3.1,1.8,2.5*3D
$GPGSV,3,1,12,23,71,012,36,16,50,080,18,20,50,182,27,13,48,314,38*70
$GPGSV,3,2,12,07,36,250,34,30,32,050,,32,30,157,26,10,22,315,38*76
$GPGSV,3,3,12,04,13,286,37,03,08,121,,06,07,106,14,08,03,238,*7C
$GPRMC,211608.000,A,3747.6897,N,12215.4639,W,2.14,134.96,230412,,,A*72
$GPVTG,134.96,T,,M,2.14,N,4.0,K,A*07
$GPGGA,211609.000,3747.6891,N,12215.4635,W,1,06,1.8,24.2,M,-25.1,M,,0000*53
$GPGSA,A,3,07,13,20,32,04,23,,,,,,,3.1,1.8,2.5*3D
$GPRMC,211609.000,A,3747.6891,N,12215.4635,W,2.01,130.68,230412,,,A*78
$GPVTG,130.68,T,,M,2.01,N,3.7,K,A*06
$GPGGA,211610.000,3747.6887,N,12215.4631,W,1,06,1.8,24.4,M,-25.1,M,,0000*5E
$GPGSA,A,3,07,13,20,32,04,23,,,,,,,3.1,1.8,2.5*3D
$GPRMC,211610.000,A,3747.6887,N,12215.4631,W,1.98,136.99,230412,,,A*78
$GPVTG,136.99,T,,M,1.98,N,3.7,K,A*0D
$GPGGA,211611.000,3747.6885,N,12215.4628,W,1,06,1.8,24.8,M,-25.1,M,,0000*59
$GPGSA,A,3,07,13,20,32,04,23,,,,,,,3.1,1.8,2.5*3D
$GPRMC,211611.000,A,3747.6885,N,12215.4628,W,1.59,133.77,230412,,,A*7B
$GPVTG,133.77,T,,M,1.59,N,2.9,K,A*0A
$GPGGA,211612.000,3747.6880,N,12215.4618,W,1,06,1.8,23.5,M,-25.1,M,,0000*56
$GPGSA,A,3,07,13,20,32,04,23,,,,,,,3.1,1.8,2.5*3D
$GPRMC,211612.000,A,3747.6880,N,12215.4618,W,2.07,131.71,230412,,,A*72
$GPVTG,131.71,T,,M,2.07,N,3.8,K,A*06
$GPGGA,211613.000,3747.6875,N,12215.4610,W,1,06,1.8,23.0,M,-25.1,M,,0000*50
$GPGSA,A,3,07,13,20,32,04,23,,,,,,,3.1,1.8,2.5*3D
$GPGSV,3,1,12,23,71,012,36,16,50,080,18,20,50,182,28,13,48,314,38*7F
$GPGSV,3,2,12,07,36,250,34,30,32,050,,32,30,157,26,10,22,315,37*79
$GPGSV,3,3,12,04,13,286,37,03,08,121,12,06,07,106,14,08,03,238,*7F
$GPRMC,211613.000,A,3747.6875,N,12215.4610,W,2.36,132.82,230412,,,A*7C
$GPVTG,132.82,T,,M,2.36,N,4.4,K,A*00
$GPGGA,211614.000,3747.6871,N,12215.4603,W,1,06,1.8,22.6,M,-25.1,M,,0000*56
$GPGSA,A,3,07,13,20,32,04,23,,,,,,,3.1,1.8,2.5*3D
$GPRMC,211614.000,A,3747.6871,N,12215.4603,W,2.36,131.36,230412,,,A*71
$GPVTG,131.36,T,,M,2.36,N,4.4,K,A*0C
$GPGGA,211615.000,3747.6866,N,12215.4595,W,1,06,1.8,22.2,M,-25.1,M,,0000*59
$GPGSA,A,3,07,13,20,32,04,23,,,,,,,3.1,1.8,2.5*3D
$GPRMC,211615.000,A,3747.6866,N,12215.4595,W,2.26,137.14,230412,,,A*7D
$GPVTG,137.14,T,,M,2.26,N,4.2,K,A*0D
$GPGGA,211616.000,3747.6862,N,12215.4588,W,1,06,1.8,21.7,M,-25.1,M,,0000*54
$GPGSA,A,3,07,13,20,32,04,23,,,,,,,3.1,1.8,2.5*3D
$GPRMC,211616.000,A,3747.6862,N,12215.4588,W,1.93,127.03,230412,,,A*7C
$GPVTG,127.03,T,,M,1.93,N,3.6,K,A*04
$GPGGA,211617.000,3747.6861,N,12215.4580,W,1,06,1.8,20.4,M,-25.1,M,,0000*5C
$GPGSA,A,3,07,13,20,32,04,23,,,,,,,3.1,1.8,2.5*3D
$GPRMC,211617.000,A,3747.6861,N,12215.4580,W,1.80,126.98,230412,,,A*77
$GPVTG,126.98,T,,M,1.80,N,3.3,K,A*00
$GPGGA,211618.000,3747.6856,N,12215.4572,W,1,06,1.8,19.6,M,-25.1,M,,0000*52
$GPGSA,A,3,07,13,20,32,04,23,,,,,,,3.1,1.8,2.5*3D
$GPGSV,3,1,12,23,71,012,36,16,50,080,17,20,50,182,27,13,48,314,38*7F
$GPGSV,3,2,12,07,36,250,31,30,32,050,,32,30,157,27,10,22,315,37*7D
$GPGSV,3,3,12,04,13,286,38,03,08,121,13,06,07,106,16,08,03,238,*73
$GPVTG,139.04,T,,M,2.25,N,4.2,K,A*01
$GPGGA,211619.000,3747.6851,N,12215.4568,W,1,06,1.8,19.8,M,-25.1,M,,0000*51
$GPGSA,A,3,07,13,20,32,04,23,,,,,,,3.1,1.8,2.5*3D
$GPRMC,211619.000,A,3747.6851,N,12215.4568,W,1.89,130.73,230412,,,A*77
$GPVTG,130.73,T,,M,1.89,N,3.5,K,A*0D
$GPGGA,211620.000,3747.6848,N,12215.4561,W,1,06,1.8,19.2,M,-25.1,M,,0000*50
$GPGSA,A,3,07,13,20,32,04,23,,,,,,,3.1,1.8,2.5*3D
$GPRMC,211620.000,A,3747.6848,N,12215.4561,W,2.19,130.66,230412,,,A*72
$GPVTG,130.66,T,,M,2.19,N,4.1,K,A*00
$GPGGA,211621.000,3747.6844,N,12215.4554,W,1,06,1.8,18.8,M,-25.1,M,,0000*50
$GPGSA,A,3,07,13,20,32,04,23,,,,,,,3.1,1.8,2.5*3D
$GPRMC,211621.000,A,3747.6844,N,12215.4554,W,2.16,127.21,230412,,,A*73
$GPVTG,127.21,T,,M,2.16,N,4.0,K,A*0B
$GPGGA,211622.000,3747.6840,N,12215.4549,W,1,06,1.8,18.7,M,-25.1,M,,0000*54
$GPGSA,A,3,07,13,20,32,04,23,,,,,,,3.1,1.8,2.5*3D
$GPRMC,211622.000,A,3747.6840,N,12215.4549,W,1.96,136.55,230412,,,A*70
$GPVTG,136.55,T,,M,1.96,N,3.6,K,A*02
$GPGGA,211623.000,3747.6836,N,12215.4541,W,1,06,1.8,17.7,M,-25.1,M,,0000*53
$GPGSA,A,3,07,13,20,32,04,23,,,,,,,3.1,1.8,2.5*3D
$GPGSV,3,1,12,23,71,012,31,16,50,080,17,20,50,182,28,13,48,314,39*76
$GPGSV,3,2,12,07,36,250,36,30,32,050,,32,30,157,27,10,22,315,37*7A
$GPGSV,3,3,12,04,13,286,40,03,08,121,22,06,07,106,23,08,03,238,*78
$GPRMC,211623.000,A,3747.6836,N,12215.4541,W,1.91,133.30,230412,,,A*79
$GPVTG,133.30,T,,M,1.91,N,3.5,K,A*00
$GPGGA,211624.000,3747.6834,N,12215.4531,W,1,06,1.8,16.0,M,-25.1,M,,0000*57
$GPGSA,A,3,07,13,20,32,04,23,,,,,,,3.1,1.8,2.5*3D
$GPRMC,211624.000,A,3747.6834,N,12215.4531,W,1.79,122.12,230412,,,A*7D
$GPVTG,122.12,T,,M,1.79,N,3.3,K,A*00
$GPGGA,211625.000,3747.6831,N,12215.4527,W,1,06,1.8,15.7,M,-25.1,M,,0000*50
$GPGSA,A,3,07,13,20,32,04,23,,,,,,,3.1,1.8,2.5*3D
$GPRMC,211625.000,A,3747.6831,N,12215.4527,W,1.73,138.90,230412,,,A*75
$GPVTG,138.90,T,,M,1.73,N,3.2,K,A*0A
$GPGGA,211626.000,3747.6826,N,12215.4522,W,1,06,1.8,15.2,M,-25.1,M,,0000*55
$GPGSA,A,3,07,13,20,32,04,23,,,,,,,3.1,1.8,2.5*3D
$GPRMC,211626.000,A,3747.6826,N,12215.4522,W,2.28,131.13,230412,,,A*7A
$GPVTG,131.13,T,,M,2.28,N,4.2,K,A*02
$GPGGA,211627.000,3747.6820,N,12215.4518,W,1,06,1.8,15.2,M,-25.1,M,,0000*5B
$GPGSA,A,3,07,13,20,32,04,23,,,,,,,3.1,1.8,2.5*3D
$GPRMC,211627.000,A,3747.6820,N,12215.4518,W,2.26,140.77,230412,,,A*7E
$GPVTG,140.77,T,,M,2.26,N,4.2,K,A*08
$GPGGA,211628.000,3747.6816,N,12215.4513,W,1,06,1.8,14.8,M,-25.1,M,,0000*51
$GPGSA,A,3,07,13,20,32,04,23,,,,,,,3.1,1.8,2.5*3D
$GPGSV,3,1,12,23,71,012,32,16,50,080,25,20,50,182,30,13,48,314,38*7C
$GPGSV,3,2,12,07,36,250,37,30,32,050,,32,30,157,28,10,22,315,37*74
$GPGSV,3,3,12,04,13,286,32,03,08,121,20,06,07,106,21,08,03,238,*7D
$GPRMC,211628.000,A,3747.6816,N,12215.4513,W,1.73,133.20,230412,,,A*7A
$GPVTG,133.20,T,,M,1.73,N,3.2,K,A*0A
$GPGGA,211629.000,3747.6813,N,12215.4508,W,1,06,1.8,14.7,M,-25.1,M,,0000*50
$GPGSA,A,3,07,13,20,32,04,23,,,,,,,3.1,1.8,2.5*3D
$GPRMC,211629.000,A,3747.6813,N,12215.4508,W,1.83,120.15,230412,,,A*7F
$GPVTG,120.15,T,,M,1.83,N,3.4,K,A*07
$GPGGA,211630.000,3747.6809,N,12215.4503,W,1,06,1.8,14.6,M,-25.1,M,,0000*59
$GPGSA,A,3,07,13,20,32,04,23,,,,,,,3.1,1.8,2.5*3D
$GPRMC,211630.000,A,3747.6809,N,12215.4503,W,1.92,124.01,230412,,,A*76
$GPVTG,124.01,T,,M,1.92,N,3.6,K,A*04
$GPGGA,211631.000,3747.6806,N,12215.4501,W,1,06,1.8,15.1,M,-25.1,M,,0000*53
$GPGSA,A,3,07,13,20,32,04,23,,,,,,,3.1,1.8,2.5*3D
$GPRMC,211631.000,A,3747.6806,N,12215.4501,W,1.49,134.09,230412,,,A*75
$GPVTG,134.09,T,,M,1.49,N,2.8,K,A*04
$GPGGA,211632.000,3747.6802,N,12215.4499,W,1,06,1.8,15.6,M,-25.1,M,,0000*53
$GPGSA,A,3,07,13,20,32,04,23,,,,,,,3.1,1.8,2.5*3D
$GPRMC,211632.000,A,3747.6802,N,12215.4499,W,1.99,131.72,230412,,,A*76
$GPVTG,131.72,T,,M,1.99,N,3.7,K,A*0E
$GPGGA,211633.000,3747.6798,N,12215.4497,W,1,06,1.8,16.2,M,-25.1,M,,0000*57
$GPGSA,A,3,07,13,20,32,04,23,,,,,,,3.1,1.8,2.5*3D
$GPGSV,3,1,12,23,71,012,36,16,50,080,28,20,50,182,28,13,48,314,38*7C
$GPGSV,3,2,12,07,36,250,35,30,32,050,39,32,30,157,27,10,22,315,38*7C
$GPGSV,3,3,12,04,13,286,39,03,08,121,18,06,07,106,20,08,03,238,*7C
$GPVTG,130.39,T,,M,1.82,N,3.4,K,A*09
$GPGGA,211634.000,3747.6793,N,12215.4502,W,1,06,1.8,18.5,M,-25.1,M,,0000*5F
$GPGSA,A,3,07,13,20,32,04,23,,,,,,,3.1,1.8,2.5*3D
$GPRMC,211634.000,A,3747.6793,N,12215.4502,W,1.93,148.25,230412,,,A*72
$GPVTG,148.25,T,,M,1.93,N,3.6,K,A*09
$GPGGA,211635.000,3747.6787,N,12215.4503,W,1,06,1.8,20.1,M,-25.1,M,,0000*55
$GPGSA,A,3,07,13,20,32,04,23,,,,,,,3.1,1.8,2.5*3D
$GPRMC,211635.000,A,3747.6787,N,12215.4503,W,1.56,145.97,230412,,,A*7A
$GPVTG,145.97,T,,M,1.56,N,2.9,K,A*0A
$GPGGA,211636.000,3747.6783,N,12215.4507,W,1,06,1.8,22.4,M,-25.1,M,,0000*51
$GPGSA,A,3,07,13,20,32,04,23,,,,,,,3.1,1.8,2.5*3D
$GPRMC,211636.000,A,3747.6783,N,12215.4507,W,1.51,140.16,230412,,,A*72
$GPVTG,140.16,T,,M,1.51,N,2.8,K,A*00
$GPGGA,211637.000,3747.6778,N,12215.4505,W,1,06,1.8,23.4,M,-25.1,M,,0000*57
$GPGSA,A,3,07,13,20,32,04,23,,,,,,,3.1,1.8,2.5*3D
$GPRMC,211637.000,A,3747.6778,N,12215.4505,W,1.96,141.93,230412,,,A*72
$GPVTG,141.93,T,,M,1.96,N,3.6,K,A*08
$GPGGA,211638.000,3747.6773,N,12215.4494,W,1,06,1.8,22.2,M,-25.1,M,,0000*5D
$GPGSA,A,3,07,13,20,32,04,23,,,,,,,3.1,1.8,2.5*3D
$GPGSV,3,1,12,23,71,012,35,16,50,080,31,20,50,182,28,13,48,314,38*77
$GPGSV,3,2,12,07,36,250,30,30,32,050,37,32,30,157,27,10,22,315,38*77
$GPGSV,3,3,12,04,13,286,37,03,08,121,18,06,07,106,19,08,03,238,*78
$GPRMC,211638.000,A,3747.6773,N,12215.4494,W,1.98,143.79,230412,,,A*77
$GPVTG,143.79,T,,M,1.98,N,3.7,K,A*01
$GPGGA,211639.000,3747.6768,N,12215.4484,W,1,06,1.8,20.9,M,-25.1,M,,0000*5E
$GPGSA,A,3,07,13,20,32,04,23,,,,,,,3.1,1.8,2.5*3D
$GPRMC,211639.000,A,3747.6768,N,12215.4484,W,2.22,154.53,230412,,,A*71
$GPVTG,154.53,T,,M,2.22,N,4.1,K,A*0C
$GPGGA,211640.000,3747.6762,N,12215.4472,W,1,06,1.8,18.7,M,-25.1,M,,0000*56
$GPGSA,A,3,07,13,20,32,04,23,,,,,,,3.1,1.8,2.5*3D
$GPRMC,211640.000,A,3747.6762,N,12215.4472,W,2.21,149.63,230412,,,A*70
$GPVTG,149.63,T,,M,2.21,N,4.1,K,A*00
$GPGGA,211641.000,3747.6756,N,12215.4463,W,1,06,1.8,17.7,M,-25.1,M,,0000*5F
$GPGSA,A,3,07,13,20,32,04,23,,,,,,,3.1,1.8,2.5*3D
$GPRMC,211641.000,A,3747.6756,N,12215.4463,W,2.05,144.51,230412,,,A*7C
$GPVTG,144.51,T,,M,2.05,N,3.8,K,A*04
$GPGGA,211642.000,3747.6750,N,12215.4457,W,1,06,1.8,17.7,M,-25.1,M,,0000*5D
$GPGSA,A,3,07,13,20,32,04,23,,,,,,,3.1,1.8,2.5*3D
$GPRMC,211642.000,A,3747.6750,N,12215.4457,W,2.24,133.48,230412,,,A*75
$GPVTG,133.48,T,,M,2.24,N,4.2,K,A*02
$GPGGA,211643.000,3747.6743,N,12215.4458,W,1,06,1.8,19.1,M,-25.1,M,,0000*59
$GPGSA,A,3,07,13,20,32,04,23,,,,,,,3.1,1.8,2.5*3D
$GPGSV,3,1,12,23,71,013,35,16,50,079,32,20,49,182,29,13,49,314,38*7B
$GPGSV,3,2,12,07,36,250,30,30,32,050,38,32,30,157,26,10,22,315,35*74
$GPGSV,3,3,12,04,13,286,37,03,09,121,19,06,07,106,18,08,03,238,*79
$GPRMC,211643.000,A,3747.6743,N,12215.4458,W,1.89,140.20,230412,,,A*77
$GPVTG,140.20,T,,M,1.89,N,3.5,K,A*0C
$GPGGA,211644.000,3747.6737,N,12215.4457,W,1,06,1.8,20.1,M,-25.1,M,,0000*58
$GPGSA,A,3,07,13,20,32,04,23,,,,,,,3.1,1.8,2.5*3D
$GPRMC,211644.000,A,3747.6737,N,12215.4457,W,1.70,138.00,230412,,,A*77
$GPVTG,138.00,T,,M,1.70,N,3.1,K,A*03
$GPGGA,211645.000,3747.6732,N,12215.4457,W,1,06,1.8,21.4,M,-25.1,M,,0000*58
$GPGSA,A,3,07,13,20,32,04,23,,,,,,,3.1,1.8,2.5*3D
$GPRMC,211645.000,A,3747.6732,N,12215.4457,W,1.43,138.74,230412,,,A*70
$GPVTG,138.74,T,,M,1.43,N,2.6,K,A*06
$GPGGA,211646.000,3747.6728,N,12215.4459,W,1,06,1.8,23.1,M,-25.1,M,,0000*59
$GPGSA,A,3,07,13,20,32,04,23,,,,,,,3.1,1.8,2.5*3D
$GPRMC,211646.000,A,3747.6728,N,12215.4459,W,1.24,155.18,230412,,,A*76
$GPVTG,155.18,T,,M,1.24,N,2.3,K,A*03
$GPGGA,211647.000,3747.6724,N,12215.4455,W,1,06,1.8,23.1,M,-25.1,M,,0000*58
$GPGSA,A,3,07,13,20,32,04,23,,,,,,,3.1,1.8,2.5*3D
$GPRMC,211647.000,A,3747.6724,N,12215.4455,W,1.54,144.96,230412,,,A*76
$GPVTG,144.96,T,,M,1.54,N,2.9,K,A*08
$GPGGA,211648.000,3747.6720,N,12215.4452,W,1,06,1.8,23.6,M,-25.1,M,,0000*53
$GPGSA,A,3,07,13,20,32,04,23,,,,,,,3.1,1.8,2.5*3D
$GPGSV,3,1,12,23,71,013,35,16,50,079,23,20,49,182,29,13,49,314,38*7B
$GPGSV,3,2,12,07,36,250,32,30,32,050,22,32,30,157,26,10,22,315,36*7E
$GPGSV,3,3,12,04,13,286,34,03,09,121,18,06,07,106,18,08,03,238,*7B
$GPVTG,145.76,T,,M,1.37,N,2.5,K,A*0E
$GPGGA,211649.000,3747.6718,N,12215.4449,W,1,06,1.8,23.6,M,-25.1,M,,0000*53
$GPGSA,A,3,07,13,20,32,04,23,,,,,,,3.1,1.8,2.5*3D
$GPRMC,211649.000,A,3747.6718,N,12215.4449,W,1.26,147.75,230412,,,A*71
$GPVTG,147.75,T,,M,1.26,N,2.3,K,A*09
$GPGGA,211650.000,3747.6712,N,12215.4443,W,1,06,1.8,23.4,M,-25.1,M,,0000*59
$GPGSA,A,3,07,13,20,32,04,23,,,,,,,3.1,1.8,2.5*3D
$GPRMC,211650.000,A,3747.6712,N,12215.4443,W,2.05,150.51,230412,,,A*7B
$GPVTG,150.51,T,,M,2.05,N,3.8,K,A*01
$GPGGA,211651.000,3747.6708,N,12215.4439,W,1,06,1.8,23.3,M,-25.1,M,,0000*59
$GPGSA,A,3,07,13,20,32,04,23,,,,,,,3.1,1.8,2.5*3D
$GPRMC,211651.000,A,3747.6708,N,12215.4439,W,1.64,152.22,230412,,,A*7E
$GPVTG,152.22,T,,M,1.64,N,3.0,K,A*0B
$GPGGA,211652.000,3747.6702,N,12215.4437,W,1,06,1.8,23.9,M,-25.1,M,,0000*54
$GPGSA,A,3,07,13,20,32,04,23,,,,,,,3.1,1.8,2.5*3D
$GPRMC,211652.000,A,3747.6702,N,12215.4437,W,1.69,152.28,230412,,,A*7E
$GPVTG,152.28,T,,M,1.69,N,3.1,K,A*0D
$GPGGA,211653.000,3747.6695,N,12215.4432,W,1,06,1.8,24.3,M,-25.1,M,,0000*52
$GPGSA,A,3,07,13,20,32,04,23,,,,,,,3.1,1.8,2.5*3D
$GPGSV,3,1,12,23,71,013,35,16,50,079,24,20,49,182,29,13,49,314,38*7C
$GPGSV,3,2,12,07,36,250,33,30,32,050,23,32,30,157,26,10,22,315,37*7F
$GPGSV,3,3,12,04,13,286,35,03,09,121,19,06,07,106,18,08,03,238,*7B
$GPRMC,211653.000,A,3747.6695,N,12215.4432,W,1.61,144.49,230412,,,A*7D
$GPVTG,144.49,T,,M,1.61,N,3.0,K,A*04
$GPGGA,211654.000,3747.6689,N,12215.4425,W,1,06,1.8,24.2,M,-25.1,M,,0000*5F
$GPGSA,A,3,07,13,20,32,04,23,,,,,,,3.1,1.8,2.5*3D
$GPRMC,211654.000,A,3747.6689,N,12215.4425,W,2.01,137.33,230412,,,A*7D
$GPVTG,137.33,T,,M,2.01,N,3.7,K,A*0F
$GPGGA,211655.000,3747.6683,N,12215.4419,W,1,06,1.8,24.2,M,-25.1,M,,0000*5B
$GPGSA,A,3,07,13,20,32,04,23,,,,,,,3.1,1.8,2.5*3D
$GPRMC,211655.000,A,3747.6683,N,12215.4419,W,1.95,138.56,230412,,,A*7B
$GPVTG,138.56,T,,M,1.95,N,3.6,K,A*0C
$GPGGA,211656.000,3747.6678,N,12215.4411,W,1,06,1.8,23.7,M,-25.1,M,,0000*56
$GPGSA,A,3,07,13,20,32,04,23,,,,,,,3.1,1.8,2.5*3D
$GPRMC,211656.000,A,3747.6678,N,12215.4411,W,2.06,140.72,230412,,,A*74
$GPVTG,140.72,T,,M,2.06,N,3.8,K,A*02
$GPGGA,211657.000,3747.6672,N,12215.4402,W,1,06,1.8,22.9,M,-25.1,M,,0000*50
$GPGSA,A,3,07,13,20,32,04,23,,,,,,,3.1,1.8,2.5*3D
$GPRMC,211657.000,A,3747.6672,N,12215.4402,W,2.05,144.99,230412,,,A*7F
$GPVTG,144.99,T,,M,2.05,N,3.8,K,A*00
$GPGGA,211658.000,3747.6667,N,12215.4397,W,1,06,1.8,22.7,M,-25.1,M,,0000*5E
$GPGSA,A,3,07,13,20,32,04,23,,,,,,,3.1,1.8,2.5*3D
$GPGSV,3,1,12,23,71,013,35,16,50,079,29,20,49,182,28,13,49,314,38*70
$GPGSV,3,2,12,07,36,250,33,30,32,050,30,32,30,157,25,10,22,315,37*7E
$GPGSV,3,3,12,04,13,286,36,03,09,121,19,06,07,106,18,08,03,238,*78
$GPRMC,211658.000,A,3747.6667,N,12215.4397,W,1.75,136.50,230412,,,A*7B
$GPVTG,136.50,T,,M,1.75,N,3.2,K,A*0E
$GPGGA,211659.000,3747.6663,N,12215.4392,W,1,06,1.8,22.5,M,-25.1,M,,0000*5C
$GPGSA,A,3,07,13,20,32,04,23,,,,,,,3.1,1.8,2.5*3D
$GPRMC,211659.000,A,3747.6663,N,12215.4392,W,1.53,145.79,230412,,,A*70
$GPVTG,145.79,T,,M,1.53,N,2.8,K,A*0E
$GPGGA,211700.000,3747.6659,N,12215.4389,W,1,06,1.8,22.5,M,-25.1,M,,0000*52
$GPGSA,A,3,07,13,20,32,04,23,,,,,,,3.1,1.8,2.5*3D
$GPRMC,211700.000,A,3747.6659,N,12215.4389,W,1.51,137.21,230412,,,A*74
$GPVTG,137.21,T,,M,1.51,N,2.8,K,A*04
$GPGGA,211701.000,3747.6655,N,12215.4383,W,1,06,1.8,22.0,M,-25.1,M,,0000*50
$GPGSA,A,3,07,13,20,32,04,23,,,,,,,3.1,1.8,2.5*3D
$GPRMC,211701.000,A,3747.6655,N,12215.4383,W,1.56,138.34,230412,,,A*7F
$GPVTG,138.34,T,,M,1.56,N,2.9,K,A*09
$GPGGA,211702.000,3747.6651,N,12215.4378,W,1,06,1.8,21.7,M,-25.1,M,,0000*57
$GPGSA,A,3,07,13,20,32,04,23,,,,,,,3.1,1.8,2.5*3D
$GPRMC,211702.000,A,3747.6651,N,12215.4378,W,1.92,143.10,230412,,,A*7E
$GPVTG,143.10,T,,M,1.92,N,3.6,K,A*05
$GPGGA,211703.000,3747.6646,N,12215.4371,W,1,06,1.8,21.2,M,-25.1,M,,0000*5C
$GPGSA,A,3,07,13,20,32,04,23,,,,,,,3.1,1.8,2.5*3D
$GPGSV,3,1,12,23,71,013,35,16,50,079,29,20,49,182,28,13,49,314,38*70
$GPGSV,3,2,12,07,36,250,34,30,32,050,27,32,30,157,25,10,22,315,37*7F
$GPGSV,3,3,12,04,13,286,36,03,09,121,19,06,07,106,18,08,03,238,*78
$GPRMC,211703.000,A,3747.6646,N,12215.4371,W,2.03,134.05,230412,,,A*7F
$GPVTG,134.05,T,,M,2.03,N,3.8,K,A*04
$GPGGA,211704.000,3747.6641,N,12215.4365,W,1,06,1.8,20.9,M,-25.1,M,,0000*53
$GPGSA,A,3,07,13,20,32,04,23,,,,,,,3.1,1.8,2.5*3D
$GPRMC,211704.000,A,3747.6641,N,12215.4365,W,1.79,131.12,230412,,,A*77
$GPVTG,131.12,T,,M,1.79,N,3.3,K,A*02
$GPGGA,211705.000,3747.6637,N,12215.4360,W,1,06,1.8,20.6,M,-25.1,M,,0000*59
$GPGSA,A,3,07,13,20,32,04,23,,,,,,,3.1,1.8,2.5*3D
$GPRMC,211705.000,A,3747.6637,N,12215.4360,W,1.64,140.43,230412,,,A*7C
$GPVTG,140.43,T,,M,1.64,N,3.0,K,A*0F
$GPGGA,211706.000,3747.6632,N,12215.4356,W,1,06,1.8,20.4,M,-25.1,M,,0000*58
$GPGSA,A,3,07,13,20,32,04,23,,,,,,,3.1,1.8,2.5*3D
$GPRMC,211706.000,A,3747.6632,N,12215.4356,W,1.54,149.97,230412,,,A*7C
$GPVTG,149.97,T,,M,1.54,N,2.9,K,A*04
$GPGGA,211707.000,3747.6629,N,12215.4359,W,1,06,1.8,22.2,M,-25.1,M,,0000*58
$GPGSA,A,3,07,13,20,32,04,23,,,,,,,3.1,1.8,2.5*3D
$GPRMC,211707.000,A,3747.6629,N,12215.4359,W,1.05,142.80,230412,,,A*71
$GPVTG,142.80,T,,M,1.05,N,2.0,K,A*04
$GPGGA,211708.000,3747.6625,N,12215.4355,W,1,06,1.8,22.5,M,-25.1,M,,0000*50
$GPGSA,A,3,07,13,20,32,04,23,,,,,,,3.1,1.8,2.5*3D
$GPGSV,3,1,12,23,71,013,35,16,50,079,32,20,49,182,28,13,49,314,38*7A
$GPGSV,3,2,12,07,36,250,38,30,32,050,26,32,30,157,26,10,22,315,36*70
$GPGSV,3,3,12,04,13,286,34,03,09,121,19,06,07,106,18,08,03,238,*7A
$GPRMC,211708.000,A,3747.6625,N,12215.4355,W,1.37,143.06,230412,,,A*70
$GPGGA,211709.000,3747.6620,N,12215.4351,W,1,06,1.8,23.1,M,-25.1,M,,0000*55
$GPGSA,A,3,07,13,20,32,04,23,,,,,,,3.1,1.8,2.5*3D
$GPRMC,211709.000,A,3747.6620,N,12215.4351,W,1.82,149.95,230412,,,A*7E
$GPVTG,149.95,T,,M,1.82,N,3.4,K,A*01
$GPGGA,211710.000,3747.6617,N,12215.4341,W,1,06,1.8,22.3,M,-25.1,M,,0000*5B
$GPGSA,A,3,07,13,20,32,04,23,,,,,,,3.1,1.8,2.5*3D
$GPRMC,211710.000,A,3747.6617,N,12215.4341,W,1.76,130.26,230412,,,A*7E
$GPVTG,130.26,T,,M,1.76,N,3.3,K,A*0B
$GPGGA,211711.000,3747.6614,N,12215.4335,W,1,06,1.8,22.0,M,-25.1,M,,0000*59
$GPGSA,A,3,07,13,20,32,04,23,,,,,,,3.1,1.8,2.5*3D
$GPRMC,211711.000,A,3747.6614,N,12215.4335,W,1.73,142.19,230412,,,A*73
$GPVTG,142.19,T,,M,1.73,N,3.2,K,A*06
$GPGGA,211712.000,3747.6612,N,12215.4331,W,1,06,1.8,22.3,M,-25.1,M,,0000*5B
$GPGSA,A,3,07,13,20,32,04,23,,,,,,,3.1,1.8,2.5*3D
$GPRMC,211712.000,A,3747.6612,N,12215.4331,W,1.66,140.35,230412,,,A*7A
$GPVTG,140.35,T,,M,1.66,N,3.1,K,A*0D
$GPGGA,211713.000,3747.6609,N,12215.4323,W,1,06,1.8,21.7,M,-25.1,M,,0000*54
$GPGSA,A,3,07,13,20,32,04,23,,,,,,,3.1,1.8,2.5*3D
$GPGSV,3,1,12,23,71,013,35,16,50,079,31,20,49,182,29,13,49,314,38*78
$GPGSV,3,2,12,07,36,250,36,30,32,050,21,32,30,157,26,10,22,315,33*7C
$GPGSV,3,3,12,04,13,286,36,03,09,121,18,06,07,106,17,08,03,238,*76
$GPRMC,211713.000,A,3747.6609,N,12215.4323,W,1.63,136.51,230412,,,A*74
$GPVTG,136.51,T,,M,1.63,N,3.0,K,A*0A
$GPGGA,211714.000,3747.6607,N,12215.4314,W,1,06,1.8,21.1,M,-25.1,M,,0000*5F
$GPGSA,A,3,07,13,20,32,04,23,,,,,,,3.1,1.8,2.5*3D
$GPRMC,211714.000,A,3747.6607,N,12215.4314,W,1.59,126.37,230412,,,A*71
$GPVTG,126.37,T,,M,1.59,N,2.9,K,A*0A
$GPGGA,211715.000,3747.6605,N,12215.4302,W,1,06,1.8,19.5,M,-25.1,M,,0000*54
$GPGSA,A,3,07,13,20,32,04,23,,,,,,,3.1,1.8,2.5*3D
$GPRMC,211715.000,A,3747.6605,N,12215.4302,W,2.02,131.54,230412,,,A*7B
$GPVTG,131.54,T,,M,2.02,N,3.7,K,A*0B
$GPGGA,211716.000,3747.6600,N,12215.4297,W,1,06,1.8,19.9,M,-25.1,M,,0000*53
$GPGSA,A,3,07,13,20,32,04,23,,,,,,,3.1,1.8,2.5*3D
$GPRMC,211716.000,A,3747.6600,N,12215.4297,W,1.94,122.85,230412,,,A*72
$GPVTG,122.85,T,,M,1.94,N,3.6,K,A*08
$GPGGA,211717.000,3747.6595,N,12215.4294,W,1,06,1.8,20.8,M,-25.1,M,,0000*55
$GPGSA,A,3,07,13,20,32,04,23,,,,,,,3.1,1.8,2.5*3D
$GPRMC,211717.000,A,3747.6595,N,12215.4294,W,1.93,136.94,230412,,,A*7D
$GPVTG,136.94,T,,M,1.93,N,3.6,K,A*0A
$GPGGA,211718.000,3747.6590,N,12215.4295,W,1,06,1.8,22.3,M,-25.1,M,,0000*57
$GPGSA,A,3,07,13,20,32,04,23,,,,,,,3.1,1.8,2.5*3D
$GPGSV,3,1,12,23,71,013,35,16,50,079,21,20,49,182,28,13,49,314,37*77
$GPGSV,3,2,12,07,36,250,31,30,32,050,21,32,30,157,25,10,22,315,37*7C
$GPGSV,3,3,12,04,13,286,36,03,09,121,18,06,07,106,17,08,03,238,*76
$GPRMC,211718.000,A,3747.6590,N,12215.4295,W,1.59,138.10,230412,,,A*72
$GPVTG,138.10,T,,M,1.59,N,3.0,K,A*08
$GPGGA,211719.000,3747.6586,N,12215.4300,W,1,06,1.8,24.7,M,-25.1,M,,0000*5E
$GPGSA,A,3,07,13,20,32,04,23,,,,,,,3.1,1.8,2.5*3D
$GPRMC,211719.000,A,3747.6586,N,12215.4300,W,1.63,142.26,230412,,,A*78
$GPVTG,142.26,T,,M,1.63,N,3.0,K,A*09
$GPGGA,211720.000,3747.6584,N,12215.4302,W,1,06,1.8,26.2,M,-25.1,M,,0000*53
$GPGSA,A,3,07,13,20,32,04,23,,,,,,,3.1,1.8,2.5*3D
$GPRMC,211720.000,A,3747.6584,N,12215.4302,W,1.26,143.21,230412,,,A*75
$GPVTG,143.21,T,,M,1.26,N,2.3,K,A*0C
$GPGGA,211721.000,3747.6580,N,12215.4302,W,1,06,1.8,27.1,M,-25.1,M,,0000*54
$GPGSA,A,3,07,13,20,32,04,23,,,,,,,3.0,1.8,2.5*3C
$GPRMC,211721.000,A,3747.6580,N,12215.4302,W,1.43,169.66,230412,,,A*78
$GPVTG,169.66,T,,M,1.43,N,2.6,K,A*01
$GPGGA,211722.000,3747.6576,N,12215.4301,W,1,06,1.8,27.4,M,-25.1,M,,0000*58
$GPGSA,A,3,07,13,20,32,04,23,,,,,,,3.0,1.8,2.5*3C
$GPRMC,211722.000,A,3747.6576,N,12215.4301,W,0.96,163.06,230412,,,A*74
$GPVTG,163.06,T,,M,0.96,N,1.8,K,A*09
$GPGGA,211723.000,3747.6574,N,12215.4290,W,1,06,1.8,25.8,M,-25.1,M,,0000*5C
$GPGSA,A,3,07,13,20,32,04,23,,,,,,,3.0,1.8,2.5*3C
$GPGSV,3,1,12,23,71,013,28,16,50,079,23,20,49,182,24,13,49,314,33*71
$GPGSV,3,2,12,07,36,250,30,30,32,050,20,32,30,157,31,10,22,315,37*79
$GPGSV,3,3,12,04,13,286,36,03,09,121,18,06,07,106,16,08,03,238,*77
$GPVTG,140.86,T,,M,1.45,N,2.7,K,A*03
$GPGGA,211724.000,3747.6569,N,12215.4278,W,1,06,1.8,23.8,M,-25.1,M,,0000*57
$GPGSA,A,3,07,13,20,32,04,23,,,,,,,3.0,1.8,2.5*3C
$GPRMC,211724.000,A,3747.6569,N,12215.4278,W,1.58,138.71,230412,,,A*7E
$GPVTG,138.71,T,,M,1.58,N,2.9,K,A*06
$GPGGA,211725.000,3747.6563,N,12215.4271,W,1,06,1.8,23.2,M,-25.1,M,,0000*5F
$GPGSA,A,3,07,13,20,32,04,23,,,,,,,3.0,1.8,2.5*3C
$GPRMC,211725.000,A,3747.6563,N,12215.4271,W,1.65,152.24,230412,,,A*7E
$GPVTG,152.24,T,,M,1.65,N,3.1,K,A*0D
$GPGGA,211726.000,3747.6556,N,12215.4264,W,1,05,2.2,22.5,M,-25.1,M,,0000*52
$GPGSA,A,3,07,13,20,32,04,,,,,,,,3.3,2.2,2.6*34
$GPRMC,211726.000,A,3747.6556,N,12215.4264,W,1.69,166.56,230412,,,A*71
$GPVTG,166.56,T,,M,1.69,N,3.1,K,A*03
$GPGGA,211727.000,3747.6550,N,12215.4256,W,1,05,2.2,21.1,M,-25.1,M,,0000*53
$GPGSA,A,3,07,13,20,32,04,,,,,,,,3.3,2.2,2.6*34
$GPRMC,211727.000,A,3747.6550,N,12215.4256,W,1.92,179.01,230412,,,A*7F
$GPVTG,179.01,T,,M,1.92,N,3.6,K,A*0C
$GPGGA,211728.000,3747.6546,N,12215.4245,W,1,06,1.8,20.4,M,-25.1,M,,0000*57
$GPGSA,A,3,07,13,20,32,04,23,,,,,,,3.0,1.8,2.5*3C
$GPGSV,3,1,12,23,71,013,19,16,50,079,18,20,49,182,31,13,49,314,26*7B
$GPGSV,3,2,12,07,36,250,33,30,32,050,15,32,30,157,26,10,22,315,27*7B
$GPGSV,3,3,12,04,13,286,27,03,09,121,13,06,07,106,15,08,03,238,*7F
$GPRMC,211728.000,A,3747.6546,N,12215.4245,W,2.57,126.04,230412,,,A*70
$GPVTG,126.04,T,,M,2.57,N,4.8,K,A*00
$GPGGA,211729.000,3747.6541,N,12215.4233,W,1,06,1.8,18.9,M,-25.1,M,,0000*56
$GPGSA,A,3,07,13,20,32,04,23,,,,,,,3.0,1.8,2.5*3C
$GPRMC,211729.000,A,3747.6541,N,12215.4233,W,2.64,128.84,230412,,,A*71
$GPVTG,128.84,T,,M,2.64,N,4.9,K,A*07
$GPGGA,211730.000,3747.6534,N,12215.4225,W,1,06,1.8,17.9,M,-25.1,M,,0000*54
$GPGSA,A,3,07,13,20,32,04,23,,,,,,,3.0,1.8,2.5*3C
$GPRMC,211730.000,A,3747.6534,N,12215.4225,W,1.89,107.64,230412,,,A*7F
$GPVTG,107.64,T,,M,1.89,N,3.5,K,A*0F
$GPGGA,211731.000,3747.6528,N,12215.4221,W,1,06,1.8,17.3,M,-25.1,M,,0000*56
$GPGSA,A,3,07,13,20,32,04,23,,,,,,,3.0,1.8,2.4*3D
$GPRMC,211731.000,A,3747.6528,N,12215.4221,W,1.96,116.81,230412,,,A*72
$GPVTG,116.81,T,,M,1.96,N,3.6,K,A*09
$GPGGA,211732.000,3747.6524,N,12215.4211,W,1,06,1.8,15.9,M,-25.1,M,,0000*52
$GPGSA,A,3,07,13,20,32,04,23,,,,,,,3.0,1.8,2.4*3D
$GPRMC,211732.000,A,3747.6524,N,12215.4211,W,1.71,128.14,230412,,,A*76
$GPVTG,128.14,T,,M,1.71,N,3.2,K,A*05
$GPGGA,211733.000,3747.6518,N,12215.4205,W,1,06,1.8,15.8,M,-25.1,M,,0000*58
$GPGSA,A,3,07,13,20,32,04,23,,,,,,,3.0,1.8,2.4*3D
$GPGSV,3,1,12,23,71,013,22,16,50,079,19,20,49,182,29,13,49,314,32*7E
$GPGSV,3,2,12,07,36,250,36,30,32,050,20,32,30,157,26,10,22,315,34*7A
$GPGSV,3,3,12,04,13,286,39,03,09,121,15,06,07,106,14,08,03,238,*77
$GPRMC,211733.000,A,3747.6518,N,12215.4205,W,2.26,119.79,230412,,,A*75
$GPVTG,119.79,T,,M,2.26,N,4.2,K,A*0A
$GPGGA,211734.000,3747.6511,N,12215.4202,W,1,06,1.8,16.3,M,-25.1,M,,0000*59
$GPGSA,A,3,07,13,20,32,04,23,,,,,,,3.0,1.8,2.4*3D
$GPRMC,211734.000,A,3747.6511,N,12215.4202,W,2.20,116.17,230412,,,A*7D
$GPVTG,116.17,T,,M,2.20,N,4.1,K,A*08
$GPGGA,211735.000,3747.6505,N,12215.4198,W,1,06,1.8,16.7,M,-25.1,M,,0000*59
$GPGSA,A,3,07,13,20,32,04,23,,,,,,,3.0,1.8,2.4*3D
$GPRMC,211735.000,A,3747.6505,N,12215.4198,W,1.95,120.89,230412,,,A*76
$GPVTG,120.89,T,,M,1.95,N,3.6,K,A*07
$GPGGA,211736.000,3747.6500,N,12215.4194,W,1,06,1.8,16.3,M,-25.1,M,,0000*57
$GPGSA,A,3,07,13,20,32,04,23,,,,,,,3.0,1.8,2.4*3D
$GPRMC,211736.000,A,3747.6500,N,12215.4194,W,2.01,133.16,230412,,,A*76
$GPVTG,133.16,T,,M,2.01,N,3.7,K,A*0C
$GPGGA,211737.000,3747.6496,N,12215.4187,W,1,06,1.8,15.9,M,-25.1,M,,0000*53
$GPGSA,A,3,07,13,20,32,04,23,,,,,,,3.0,1.8,2.4*3D
$GPRMC,211737.000,A,3747.6496,N,12215.4187,W,2.38,122.54,230412,,,A*77
$GPVTG,122.54,T,,M,2.38,N,4.4,K,A*04
$GPGGA,211738.000,3747.6494,N,12215.4183,W,1,06,1.8,16.4,M,-25.1,M,,0000*54
$GPGSA,A,3,07,13,20,32,04,23,,,,,,,3.0,1.8,2.4*3D
$GPGSV,3,1,12,23,71,013,25,16,50,079,24,20,49,182,32,13,49,314,30*7F
$GPGSV,3,2,12,07,36,250,38,30,32,050,19,32,30,157,29,10,22,315,32*77
$GPGSV,3,3,12,04,13,286,35,03,09,121,16,06,07,106,14,08,03,238,*78
$GPVTG,112.58,T,,M,1.66,N,3.1,K,A*01
$GPGGA,211739.000,3747.6486,N,12215.4180,W,1,06,1.8,15.8,M,-25.1,M,,0000*5A
$GPGSA,A,3,07,13,20,32,04,23,,,,,,,3.0,1.8,2.4*3D
$GPRMC,211739.000,A,3747.6486,N,12215.4180,W,2.33,136.66,230412,,,A*70
$GPVTG,136.66,T,,M,2.33,N,4.3,K,A*0C
$GPGGA,211740.000,3747.6480,N,12215.4178,W,1,06,1.8,16.1,M,-25.1,M,,0000*5F
$GPGSA,A,3,07,13,20,32,04,23,,,,,,,3.0,1.8,2.4*3D
$GPRMC,211740.000,A,3747.6480,N,12215.4178,W,2.08,134.66,230412,,,A*75
$GPVTG,134.66,T,,M,2.08,N,3.8,K,A*0A
$GPGGA,211741.000,3747.6475,N,12215.4179,W,1,06,1.8,17.7,M,-25.1,M,,0000*52
$GPGSA,A,3,07,13,20,32,04,23,,,,,,,3.0,1.8,2.4*3D
$GPRMC,211741.000,A,3747.6475,N,12215.4179,W,1.89,126.79,230412,,,A*78
$GPVTG,126.79,T,,M,1.89,N,3.5,K,A*00
$GPGGA,211742.000,3747.6471,N,12215.4173,W,1,06,1.8,17.3,M,-25.1,M,,0000*5B
$GPGSA,A,3,07,13,20,32,04,23,,,,,,,3.0,1.8,2.4*3D
$GPRMC,211742.000,A,3747.6471,N,12215.4173,W,2.02,124.02,230412,,,A*7B
$GPVTG,124.02,T,,M,2.02,N,3.7,K,A*0C
$GPGGA,211743.000,3747.6468,N,12215.4164,W,1,06,1.8,15.8,M,-25.1,M,,0000*5D
$GPGSA,A,3,07,13,20,32,04,23,,,,,,,3.0,1.8,2.4*3D
$GPGSV,3,1,12,23,71,013,26,16,50,079,30,20,49,182,32,13,49,314,29*71
$GPGSV,3,2,12,07,36,250,29,30,32,050,23,32,30,157,27,10,22,315,26*75
$GPGSV,3,3,12,04,13,286,32,03,09,121,20,06,07,106,14,08,03,238,*7A
$GPRMC,211743.000,A,3747.6468,N,12215.4164,W,1.84,134.01,230412,,,A*7B
$GPVTG,134.01,T,,M,1.84,N,3.4,K,A*00
$GPGGA,211744.000,3747.6462,N,12215.4160,W,1,06,1.8,14.9,M,-25.1,M,,0000*54
$GPGSA,A,3,07,13,20,32,04,23,,,,,,,3.0,1.8,2.4*3D
$GPRMC,211744.000,A,3747.6462,N,12215.4160,W,2.08,158.18,230412,,,A*77
$GPVTG,158.18,T,,M,2.08,N,3.8,K,A*09
$GPGGA,211745.000,3747.6456,N,12215.4157,W,1,06,1.8,13.7,M,-25.1,M,,0000*5F
$GPGSA,A,3,07,13,20,32,04,23,,,,,,,3.0,1.8,2.4*3D
$GPRMC,211745.000,A,3747.6456,N,12215.4157,W,2.04,151.99,230412,,,A*79
$GPVTG,151.99,T,,M,2.04,N,3.8,K,A*05
$GPGGA,211746.000,3747.6455,N,12215.4152,W,1,06,1.8,12.8,M,-25.1,M,,0000*54
$GPGSA,A,3,07,13,20,32,04,23,,,,,,,3.0,1.8,2.4*3D
$GPRMC,211746.000,A,3747.6455,N,12215.4152,W,1.49,129.93,230412,,,A*73
$GPVTG,129.93,T,,M,1.49,N,2.8,K,A*0B
$GPGGA,211747.000,3747.6448,N,12215.4154,W,1,06,1.8,12.0,M,-25.1,M,,0000*57
$GPGSA,A,3,07,13,20,32,04,23,,,,,,,3.0,1.8,2.4*3D
$GPRMC,211747.000,A,3747.6448,N,12215.4154,W,1.49,159.45,230412,,,A*74
$GPVTG,159.45,T,,M,1.49,N,2.8,K,A*07
$GPGGA,211748.000,3747.6444,N,12215.4156,W,1,06,1.8,11.3,M,-25.1,M,,0000*56
$GPGSA,A,3,07,13,20,32,04,23,,,,,,,3.0,1.8,2.4*3D
$GPGSV,3,1,12,23,71,013,27,16,50,079,27,20,49,182,34,13,49,314,28*71
$GPGSV,3,2,12,07,36,250,25,30,32,050,23,32,30,157,35,10,22,315,22*7E
$GPGSV,3,3,12,04,13,286,30,03,09,121,20,06,07,106,,08,03,238,*7D
$GPRMC,211748.000,A,3747.6444,N,12215.4156,W,1.59,181.46,230412,,,A*72
$GPVTG,181.46,T,,M,1.59,N,2.9,K,A*01
$GPGGA,211749.000,3747.6440,N,12215.4155,W,1,06,1.8,10.6,M,-25.1,M,,0000*54
$GPGSA,A,3,07,13,20,32,04,23,,,,,,,3.0,1.8,2.4*3D
$GPRMC,211749.000,A,3747.6440,N,12215.4155,W,2.28,172.08,230412,,,A*77
$GPVTG,172.08,T,,M,2.28,N,4.2,K,A*0F
$GPGGA,211750.000,3747.6439,N,12215.4148,W,1,06,1.8,9.3,M,-25.1,M,,0000*63
$GPGSA,A,3,07,13,20,32,04,23,,,,,,,3.0,1.8,2.4*3D
$GPRMC,211750.000,A,3747.6439,N,12215.4148,W,2.04,141.79,230412,,,A*75
$GPVTG,141.79,T,,M,2.04,N,3.8,K,A*0A
$GPGGA,211751.000,3747.6436,N,12215.4142,W,1,06,1.8,9.0,M,-25.1,M,,0000*64
$GPGSA,A,3,07,13,20,32,04,23,,,,,,,3.0,1.8,2.4*3D
$GPRMC,211751.000,A,3747.6436,N,12215.4142,W,2.03,127.00,230412,,,A*78
$GPVTG,127.00,T,,M,2.03,N,3.8,K,A*03
$GPGGA,211752.000,3747.6431,N,12215.4138,W,1,06,1.8,8.8,M,-25.1,M,,0000*64
$GPGSA,A,3,07,13,20,32,04,23,,,,,,,3.0,1.8,2.4*3D
$GPRMC,211752.000,A,3747.6431,N,12215.4138,W,2.07,132.53,230412,,,A*77
$GPVTG,132.53,T,,M,2.07,N,3.8,K,A*05
$GPGGA,211753.000,3747.6428,N,12215.4132,W,1,06,1.8,8.7,M,-25.1,M,,0000*68
$GPGSA,A,3,07,13,20,32,04,23,,,,,,,3.0,1.8,2.4*3D
$GPGSV,3,1,12,23,71,013,24,16,50,079,16,20,49,182,35,13,49,314,20*79
$GPGSV,3,2,12,07,36,250,32,30,32,050,20,32,30,157,30,10,22,315,24*78
$GPGSV,3,3,12,04,13,286,27,03,09,121,20,06,07,106,,08,03,238,*7B
$GPVTG,137.02,T,,M,2.04,N,3.8,K,A*07
$GPGGA,211754.000,3747.6425,N,12215.4124,W,1,06,1.8,8.7,M,-25.1,M,,0000*65
$GPGSA,A,3,07,13,20,32,04,23,,,,,,,3.0,1.8,2.4*3D
$GPRMC,211754.000,A,3747.6425,N,12215.4124,W,2.21,128.72,230412,,,A*75
$GPVTG,128.72,T,,M,2.21,N,4.1,K,A*07
$GPGGA,211755.000,3747.6425,N,12215.4116,W,1,06,1.8,8.7,M,-25.1,M,,0000*65
$GPGSA,A,3,07,13,20,32,04,23,,,,,,,3.0,1.8,2.4*3D
$GPRMC,211755.000,A,3747.6425,N,12215.4116,W,2.01,136.97,230412,,,A*73
$GPVTG,136.97,T,,M,2.01,N,3.7,K,A*00
$GPGGA,211756.000,3747.6415,N,12215.4116,W,1,06,1.8,7.4,M,-25.1,M,,0000*69
$GPGSA,A,3,07,13,20,32,04,23,,,,,,,3.0,1.8,2.4*3D
$GPRMC,211756.000,A,3747.6415,N,12215.4116,W,1.76,143.09,230412,,,A*75
$GPVTG,143.09,T,,M,1.76,N,3.3,K,A*02
$GPGGA,211757.000,3747.6410,N,12215.4114,W,1,06,1.8,6.3,M,-25.1,M,,0000*69
$GPGSA,A,3,07,13,20,32,04,23,,,,,,,3.0,1.8,2.4*3D
$GPRMC,211757.000,A,3747.6410,N,12215.4114,W,1.83,144.05,230412,,,A*72
$GPVTG,144.05,T,,M,1.83,N,3.4,K,A*04
$GPGGA,211758.000,3747.6407,N,12215.4103,W,1,06,1.8,6.3,M,-25.1,M,,0000*66
$GPGSA,A,3,07,13,20,32,04,23,,,,,,,3.0,1.8,2.4*3D
$GPGSV,3,1,12,23,71,013,33,16,50,079,16,20,49,182,28,13,49,314,29*7A
$GPGSV,3,2,12,07,36,250,31,30,32,050,,32,30,157,32,10,22,315,27*78
$GPGSV,3,3,12,04,13,286,28,03,09,121,28,06,07,106,,08,03,238,*7C
$GPRMC,211758.000,A,3747.6407,N,12215.4103,W,2.15,141.36,230412,,,A*74
$GPVTG,141.36,T,,M,2.15,N,4.0,K,A*0E
$GPGGA,211759.000,3747.6404,N,12215.4094,W,1,06,1.8,6.4,M,-25.1,M,,0000*6C
$GPGSA,A,3,07,13,20,32,04,23,,,,,,,3.0,1.8,2.4*3D
$GPRMC,211759.000,A,3747.6404,N,12215.4094,W,2.07,130.20,230412,,,A*7B
$GPVTG,130.20,T,,M,2.07,N,3.8,K,A*03
$GPGGA,211800.000,3747.6401,N,12215.4087,W,1,06,1.8,6.5,M,-25.1,M,,0000*69
$GPGSA,A,3,07,13,20,32,04,23,,,,,,,3.0,1.8,2.4*3D
$GPRMC,211800.000,A,3747.6401,N,12215.4087,W,2.20,136.00,230412,,,A*7E
$GPVTG,136.00,T,,M,2.20,N,4.1,K,A*0C
$GPGGA,211801.000,3747.6395,N,12215.4081,W,1,06,1.8,6.9,M,-25.1,M,,0000*68
$GPGSA,A,3,07,13,20,32,04,23,,,,,,,3.0,1.8,2.4*3D
$GPRMC,211801.000,A,3747.6395,N,12215.4081,W,2.28,139.76,230412,,,A*75
$GPVTG,139.76,T,,M,2.28,N,4.2,K,A*09
$GPGGA,211802.000,3747.6387,N,12215.4077,W,1,06,1.8,8.1,M,-25.1,M,,0000*67
$GPGSA,A,3,07,13,20,32,04,23,,,,,,,3.0,1.8,2.4*3D
$GPRMC,211802.000,A,3747.6387,N,12215.4077,W,2.27,145.54,230412,,,A*78
$GPVTG,145.54,T,,M,2.27,N,4.2,K,A*0D
$GPGGA,211803.000,3747.6378,N,12215.4076,W,1,06,1.8,9.0,M,-25.1,M,,0000*67
$GPGSA,A,3,07,13,20,32,04,23,,,,,,,3.0,1.8,2.4*3D
$GPGSV,3,1,12,23,71,013,25,16,50,079,23,20,49,182,34,13,49,314,29*76
$GPGSV,3,2,12,07,36,250,29,30,32,050,,32,30,157,24,10,22,315,29*78
$GPGSV,3,3,12,04,13,286,34,03,09,121,20,06,07,106,,08,03,238,*79
$GPRMC,211803.000,A,3747.6378,N,12215.4076,W,2.07,141.98,230412,,,A*7E
$GPVTG,141.98,T,,M,2.07,N,3.8,K,A*06
$GPGGA,211804.000,3747.6372,N,12215.4074,W,1,06,1.8,10.4,M,-25.1,M,,0000*54
$GPGSA,A,3,07,13,20,32,04,23,,,,,,,3.0,1.8,2.4*3D
$GPRMC,211804.000,A,3747.6372,N,12215.4074,W,1.92,135.71,230412,,,A*7A
$GPVTG,135.71,T,,M,1.92,N,3.6,K,A*03
$GPGGA,211805.000,3747.6365,N,12215.4078,W,1,06,1.8,11.4,M,-25.1,M,,0000*5E
$GPGSA,A,3,07,13,20,32,04,23,,,,,,,3.0,1.8,2.4*3D
$GPRMC,211805.000,A,3747.6365,N,12215.4078,W,1.68,148.85,230412,,,A*75
$GPVTG,148.85,T,,M,1.68,N,3.1,K,A*00
$GPGGA,211806.000,3747.6359,N,12215.4080,W,1,06,1.8,12.6,M,-25.1,M,,0000*54
$GPGSA,A,3,07,13,20,32,04,23,,,,,,,3.0,1.8,2.4*3D
$GPRMC,211806.000,A,3747.6359,N,12215.4080,W,1.84,145.47,230412,,,A*7F
$GPVTG,145.47,T,,M,1.84,N,3.4,K,A*04
$GPGGA,211807.000,3747.6354,N,12215.4075,W,1,06,1.8,12.5,M,-25.1,M,,0000*51
$GPGSA,A,3,07,13,20,32,04,23,,,,,,,3.0,1.8,2.4*3D
$GPRMC,211807.000,A,3747.6354,N,12215.4075,W,1.79,142.83,230412,,,A*74
$GPVTG,142.83,T,,M,1.79,N,3.3,K,A*0E
$GPGGA,211808.000,3747.6350,N,12215.4068,W,1,05,2.0,11.8,M,-25.1,M,,0000*50
$GPGSA,A,3,07,13,32,04,23,,,,,,,,3.4,2.0,2.8*3C
$GPGSV,3,1,12,23,71,013,30,16,50,079,32,20,49,182,,13,49,314,29*75
$GPGSV,3,2,12,07,36,250,33,30,32,050,25,32,30,157,31,10,22,315,29*70
$GPGSV,3,3,12,04,13,286,33,03,09,121,18,06,07,106,,08,03,238,*75
$GPVTG,145.02,T,,M,1.72,N,3.2,K,A*0A
$GPGGA,211809.000,3747.6346,N,12215.4067,W,1,06,1.8,12.2,M,-25.1,M,,0000*58
$GPGSA,A,3,07,13,20,32,04,23,,,,,,,3.0,1.8,2.4*3D
$GPRMC,211809.000,A,3747.6346,N,12215.4067,W,1.75,141.63,230412,,,A*7B
$GPVTG,141.63,T,,M,1.75,N,3.2,K,A*0E
$GPGGA,211810.000,3747.6340,N,12215.4069,W,1,06,1.8,14.1,M,-25.1,M,,0000*5D
$GPGSA,A,3,07,13,20,32,04,23,,,,,,,3.0,1.8,2.4*3D
$GPRMC,211810.000,A,3747.6340,N,12215.4069,W,1.16,127.98,230412,,,A*7A
$GPVTG,127.98,T,,M,1.16,N,2.1,K,A*0D
$GPGGA,211811.000,3747.6336,N,12215.4069,W,1,06,1.8,15.4,M,-25.1,M,,0000*59
$GPGSA,A,3,07,13,20,32,04,23,,,,,,,3.0,1.8,2.4*3D
$GPRMC,211811.000,A,3747.6336,N,12215.4069,W,1.24,138.30,230412,,,A*77
$GPVTG,138.30,T,,M,1.24,N,2.3,K,A*02
$GPGGA,211812.000,3747.6330,N,12215.4065,W,1,06,1.8,15.6,M,-25.1,M,,0000*52
$GPGSA,A,3,07,13,20,32,04,23,,,,,,,3.0,1.8,2.4*3D
$GPRMC,211812.000,A,3747.6330,N,12215.4065,W,1.52,143.07,230412,,,A*77
$GPVTG,143.07,T,,M,1.52,N,2.8,K,A*00
$GPGGA,211813.000,3747.6330,N,12215.4057,W,1,06,1.8,15.1,M,-25.1,M,,0000*55
$GPGSA,A,3,07,13,20,32,04,23,,,,,,,3.0,1.8,2.4*3D
$GPGSV,3,1,12,23,71,013,23,16,50,079,28,20,49,182,30,13,49,314,29*7F
$GPGSV,3,2,12,07,36,250,35,30,32,050,26,32,30,157,30,10,22,315,26*7B
$GPGSV,3,3,12,04,13,286,34,03,09,121,18,06,07,106,,08,03,238,*72
$GPRMC,211813.000,A,3747.6330,N,12215.4057,W,1.15,115.04,230412,,,A*74
$GPVTG,115.04,T,,M,1.15,N,2.1,K,A*0A
$GPGGA,211814.000,3747.6334,N,12215.4049,W,1,06,1.8,14.4,M,-25.1,M,,0000*5D
$GPGSA,A,3,07,13,20,32,04,23,,,,,,,3.0,1.8,2.4*3D
$GPRMC,211814.000,A,3747.6334,N,12215.4049,W,0.68,98.72,230412,,,A*46
$GPVTG,98.72,T,,M,0.68,N,1.3,K,A*35
$GPGGA,211815.000,3747.6336,N,12215.4042,W,1,06,1.8,13.9,M,-25.1,M,,0000*5F
$GPGSA,A,3,07,13,20,32,04,23,,,,,,,3.0,1.8,2.4*3D
$GPRMC,211815.000,A,3747.6336,N,12215.4042,W,0.47,101.63,230412,,,A*72
$GPVTG,101.63,T,,M,0.47,N,0.9,K,A*02
$GPGGA,211816.000,3747.6340,N,12215.4033,W,1,06,1.8,11.9,M,-25.1,M,,0000*59
$GPGSA,A,3,07,13,20,32,04,23,,,,,,,3.0,1.8,2.4*3D
$GPRMC,211816.000,A,3747.6340,N,12215.4033,W,0.67,72.37,230412,,,A*40
$GPVTG,72.37,T,,M,0.67,N,1.2,K,A*3E
$GPGGA,211817.000,3747.6339,N,12215.4026,W,1,06,1.8,10.7,M,-25.1,M,,0000*5D
$GPGSA,A,3,07,13,20,32,04,23,,,,,,,3.0,1.8,2.4*3D
$GPRMC,211817.000,A,3747.6339,N,12215.4026,W,0.20,118.67,230412,,,A*70
$GPVTG,118.67,T,,M,0.20,N,0.4,K,A*02
$GPGGA,211818.000,3747.6338,N,12215.4024,W,1,06,1.8,9.8,M,-25.1,M,,0000*66
$GPGSA,A,3,07,13,20,32,04,23,,,,,,,3.0,1.8,2.4*3D
$GPGSV,3,1,12,23,71,013,23,16,50,079,24,20,49,182,30,13,49,314,29*73
$GPGSV,3,2,12,07,36,250,28,30,32,050,26,32,30,157,29,10,22,315,33*7B
$GPGSV,3,3,12,04,13,286,35,03,09,121,18,06,07,106,,08,03,238,*73
$GPRMC,211818.000,A,3747.6338,N,12215.4024,W,0.24,94.96,230412,,,A*43
$GPVTG,94.96,T,,M,0.24,N,0.4,K,A*3D
$GPGGA,211819.000,3747.6338,N,12215.4023,W,1,06,1.8,9.6,M,-25.1,M,,0000*6E
$GPGSA,A,3,07,13,20,32,04,23,,,,,,,3.0,1.8,2.4*3D
$GPRMC,211819.000,A,3747.6338,N,12215.4023,W,0.26,193.88,230412,,,A*7E
$GPVTG,193.88,T,,M,0.26,N,0.5,K,A*07
$GPGGA,211820.000,3747.6342,N,12215.4018,W,1,06,1.8,10.8,M,-25.1,M,,0000*57
$GPGSA,A,3,07,13,20,32,04,23,,,,,,,3.0,1.8,2.4*3D
$GPRMC,211820.000,A,3747.6342,N,12215.4018,W,0.17,303.39,230412,,,A*72
$GPVTG,303.39,T,,M,0.17,N,0.3,K,A*02
$GPGGA,211821.000,3747.6342,N,12215.4023,W,1,06,1.8,12.5,M,-25.1,M,,0000*51
$GPGSA,A,3,07,13,20,32,04,23,,,,,,,3.0,1.8,2.4*3D
$GPRMC,211821.000,A,3747.6342,N,12215.4023,W,0.10,25.59,230412,,,A*4D
$GPVTG,25.59,T,,M,0.10,N,0.2,K,A*35
$GPGGA,211822.000,3747.6342,N,12215.4022,W,1,06,1.8,12.2,M,-25.1,M,,0000*54
$GPGSA,A,3,07,13,20,32,04,23,,,,,,,3.0,1.8,2.4*3D
$GPRMC,211822.000,A,3747.6342,N,12215.4022,W,0.18,198.82,230412,,,A*76
$GPVTG,198.82,T,,M,0.18,N,0.3,K,A*0D
$GPGGA,211823.000,3747.6346,N,12215.4014,W,1,06,1.8,12.5,M,-25.1,M,,0000*53
$GPGSA,A,3,07,13,20,32,04,23,,,,,,,3.0,1.8,2.4*3D
$GPGSV,3,1,12,23,71,013,30,16,50,079,31,20,49,182,32,13,49,314,28*76
$GPGSV,3,2,12,07,36,250,29,30,32,050,21,32,30,157,25,10,22,315,35*77
$GPGSV,3,3,12,04,13,286,35,03,09,121,17,06,07,106,,08,03,238,*7C
$GPVTG,111.01,T,,M,0.30,N,0.6,K,A*08
$GPGGA,211824.000,3747.6345,N,12215.4005,W,1,06,1.8,11.6,M,-25.1,M,,0000*57
$GPGSA,A,3,07,13,20,32,04,23,,,,,,,3.0,1.8,2.4*3D
$GPRMC,211824.000,A,3747.6345,N,12215.4005,W,0.67,159.79,230412,,,A*73
$GPVTG,159.79,T,,M,0.67,N,1.2,K,A*0C
$GPGGA,211825.000,3747.6345,N,12215.4001,W,1,06,1.8,11.5,M,-25.1,M,,0000*51
$GPGSA,A,3,07,13,20,32,04,23,,,,,,,3.0,1.8,2.4*3D
$GPRMC,211825.000,A,3747.6345,N,12215.4001,W,0.62,158.48,230412,,,A*70
$GPVTG,158.48,T,,M,0.62,N,1.1,K,A*09
$GPGGA,211826.000,3747.6341,N,12215.4006,W,1,06,1.8,12.0,M,-25.1,M,,0000*57
$GPGSA,A,3,07,13,20,32,04,23,,,,,,,3.0,1.8,2.4*3D
$GPRMC,211826.000,A,3747.6341,N,12215.4006,W,0.88,204.42,230412,,,A*74
$GPVTG,204.42,T,,M,0.88,N,1.6,K,A*0A
$GPGGA,211827.000,3747.6338,N,12215.4011,W,1,06,1.8,12.5,M,-25.1,M,,0000*5B
$GPGSA,A,3,07,13,20,32,04,23,,,,,,,3.0,1.8,2.4*3D
$GPRMC,211827.000,A,3747.6338,N,12215.4011,W,1.89,206.70,230412,,,A*7E
$GPVTG,206.70,T,,M,1.89,N,3.5,K,A*08
$GPGGA,211828.000,3747.6333,N,12215.4018,W,1,06,1.8,13.0,M,-25.1,M,,0000*52
$GPGSA,A,3,07,13,20,32,04,23,,,,,,,3.0,1.8,2.4*3D
$GPGSV,3,1,12,23,71,013,30,16,50,079,29,20,49,182,25,13,49,314,32*72
$GPGSV,3,2,12,07,36,250,31,30,32,050,29,32,30,157,27,10,22,315,36*77
$GPGSV,3,3,12,04,13,286,25,03,09,121,17,06,07,106,,08,03,238,*7D
$GPRMC,211828.000,A,3747.6333,N,12215.4018,W,2.34,228.71,230412,,,A*7B
$GPVTG,228.71,T,,M,2.34,N,4.3,K,A*01
$GPGGA,211829.000,3747.6325,N,12215.4032,W,1,06,1.8,14.7,M,-25.1,M,,0000*5C
$GPGSA,A,3,07,13,20,32,04,23,,,,,,,3.0,1.8,2.4*3D
$GPRMC,211829.000,A,3747.6325,N,12215.4032,W,4.01,229.99,230412,,,A*72
$GPVTG,229.99,T,,M,4.01,N,7.4,K,A*02
$GPGGA,211830.000,3747.6314,N,12215.4052,W,1,06,1.8,16.3,M,-25.1,M,,0000*56
$GPGSA,A,3,07,13,20,32,04,23,,,,,,,3.0,1.8,2.4*3D
$GPRMC,211830.000,A,3747.6314,N,12215.4052,W,4.82,232.20,230412,,,A*7D
$GPVTG,232.20,T,,M,4.82,N,8.9,K,A*03
$GPGGA,211831.000,3747.6302,N,12215.4075,W,1,06,1.8,18.9,M,-25.1,M,,0000*51
$GPGSA,A,3,07,13,20,32,04,23,,,,,,,3.0,1.8,2.4*3D
$GPRMC,211831.000,A,3747.6302,N,12215.4075,W,4.36,226.41,230412,,,A*73
$GPVTG,226.41,T,,M,4.36,N,8.1,K,A*06
$GPGGA,211832.000,3747.6291,N,12215.4081,W,1,06,1.8,18.1,M,-25.1,M,,0000*5A
$GPGSA,A,3,07,13,20,32,04,23,,,,,,,3.0,1.8,2.4*3D
$GPRMC,211832.000,A,3747.6291,N,12215.4081,W,3.82,219.73,230412,,,A*75
$GPVTG,219.73,T,,M,3.82,N,7.1,K,A*0C
$GPGGA,211833.000,3747.6285,N,12215.4088,W,1,06,1.8,17.9,M,-25.1,M,,0000*50
$GPGSA,A,3,07,13,20,32,04,23,,,,,,,3.0,1.8,2.4*3D
$GPGSV,3,1,12,23,71,013,27,16,50,079,25,20,49,182,31,13,49,314,31*7E
$GPGSV,3,2,12,07,36,250,24,30,32,050,30,32,30,157,24,10,22,315,33*7D
$GPGSV,3,3,12,04,13,286,37,03,09,121,25,06,07,106,,08,03,238,*7F
$GPRMC,211833.000,A,3747.6285,N,12215.4088,W,3.04,236.44,230412,,,A*7F
$GPVTG,236.44,T,,M,3.04,N,5.6,K,A*0E
$GPGGA,211834.000,3747.6285,N,12215.4095,W,1,06,1.8,18.4,M,-25.1,M,,0000*59
$GPGSA,A,3,07,13,20,32,04,23,,,,,,,3.0,1.8,2.4*3D
$GPRMC,211834.000,A,3747.6285,N,12215.4095,W,2.79,242.88,230412,,,A*7C
$GPVTG,242.88,T,,M,2.79,N,5.2,K,A*02
$GPGGA,211835.000,3747.6281,N,12215.4102,W,1,06,1.8,17.2,M,-25.1,M,,0000*5A
$GPGSA,A,3,07,13,20,32,04,23,,,,,,,3.0,1.8,2.4*3D
$GPRMC,211835.000,A,3747.6281,N,12215.4102,W,2.98,243.52,230412,,,A*7F
$GPVTG,243.52,T,,M,2.98,N,5.5,K,A*0C
$GPGGA,211836.000,3747.6276,N,12215.4111,W,1,06,1.8,17.2,M,-25.1,M,,0000*53
$GPGSA,A,3,07,13,20,32,04,23,,,,,,,3.0,1.8,2.4*3D
$GPRMC,211836.000,A,3747.6276,N,12215.4111,W,2.80,233.10,230412,,,A*7E
$GPVTG,233.10,T,,M,2.80,N,5.2,K,A*03
$GPGGA,211837.000,3747.6271,N,12215.4118,W,1,06,1.8,18.8,M,-25.1,M,,0000*59
$GPGSA,A,3,07,13,20,32,04,23,,,,,,,3.0,1.8,2.4*3D
$GPRMC,211837.000,A,3747.6271,N,12215.4118,W,1.64,212.23,230412,,,A*7B
$GPVTG,212.23,T,,M,1.64,N,3.0,K,A*0D
$GPGGA,211838.000,3747.6265,N,12215.4116,W,1,06,1.8,18.6,M,-25.1,M,,0000*53
$GPGSA,A,3,07,13,20,32,04,23,,,,,,,3.0,1.8,2.4*3D
$GPGSV,3,1,12,23,71,013,28,16,50,079,27,20,49,182,29,13,49,314,34*7F
$GPGSV,3,2,12,07,36,250,33,30,32,050,31,32,30,157,25,10,22,315,39*71
$GPGSV,3,3,12,04,13,286,26,03,09,121,27,06,07,106,24,08,03,238,*7B
$GPRMC,211838.000,A,3747.6265,N,12215.4116,W,1.40,192.63,230412,,,A*76
$GPVTG,192.63,T,,M,1.40,N,2.6,K,A*03
$GPGGA,211839.000,3747.6261,N,12215.4111,W,1,06,1.8,17.4,M,-25.1,M,,0000*5C
$GPGSA,A,3,07,13,20,32,04,23,,,,,,,3.0,1.8,2.4*3D
$GPRMC,211839.000,A,3747.6261,N,12215.4111,W,0.93,177.95,230412,,,A*79
$GPVTG,177.95,T,,M,0.93,N,1.7,K,A*0C
$GPGGA,211840.000,3747.6259,N,12215.4109,W,1,06,1.8,17.1,M,-25.1,M,,0000*55
$GPGSA,A,3,07,13,20,32,04,23,,,,,,,3.0,1.8,2.4*3D
$GPRMC,211840.000,A,3747.6259,N,12215.4109,W,0.97,198.94,230412,,,A*71
$GPVTG,198.94,T,,M,0.97,N,1.8,K,A*07
$GPGGA,211841.000,3747.6262,N,12215.4101,W,1,06,1.8,15.3,M,-25.1,M,,0000*54
$GPGSA,A,3,07,13,20,32,04,23,,,,,,,3.0,1.8,2.4*3D
