$ADVER,3080,2.3
$GPWPL,3748.7138,N,12217.9219,W,00001*69
$ADPMB,5,0
$GPRMC,204927.178,A,3748.7138,N,12217.9219,W,3.61,223.09,160611,,,A*76
$GPGGA,204928.183,3748.7122,N,12217.9202,W,1,03,9.0,25.1,M,-25.1,M,,0000*56
$GPGSA,A,2,10,08,28,,,,,,,,,,9.0,9.0,1.0*31
$GPGSV,3,1,11,08,45,292,38,10,40,255,39,28,26,217,39,07,65,337,32*7F
$GPGSV,3,2,11,13,63,120,,23,29,132,,19,28,095,22,03,25,061,*7B
$GPGSV,3,3,11,05,19,310,,06,16,049,,16,07,042,*4C
$GPRMC,204928.183,A,3748.7122,N,12217.9202,W,3.67,216.92,160611,,,A*7E
$GPVTG,216.92,T,,M,3.67,N,6.8,K,N*00
$GPGGA,204929.183,3748.7115,N,12217.9204,W,1,03,9.0,25.1,M,-25.1,M,,0000*55
$GPGSA,A,2,10,08,28,,,,,,,,,,9.0,9.0,1.0*31
$GPRMC,204929.183,A,3748.7115,N,12217.9204,W,4.37,231.36,160611,,,A*74
$GPVTG,231.36,T,,M,4.37,N,8.1,K,N*0E
$GPGGA,204930.183,3748.7108,N,12217.9211,W,1,03,9.0,25.1,M,-25.1,M,,0000*55
$GPGSA,A,2,10,08,28,,,,,,,,,,9.0,9.0,1.0*31
$GPRMC,204930.183,A,3748.7108,N,12217.9211,W,3.92,233.14,160611,,,A*7E
$GPVTG,233.14,T,,M,3.92,N,7.3,K,N*09
$GPGGA,204931.178,3748.7103,N,12217.9217,W,1,03,9.0,25.1,M,-25.1,M,,0000*5D
$GPGSA,A,2,10,08,28,,,,,,,,,,9.0,9.0,1.0*31
$GPRMC,204931.178,A,3748.7103,N,12217.9217,W,3.80,239.33,160611,,,A*7A
$GPVTG,239.33,T,,M,3.80,N,7.0,K,N*06
$GPGGA,204932.183,3748.7099,N,12217.9223,W,1,03,9.0,25.1,M,-25.1,M,,0000*5F
$GPGSA,A,2,10,08,28,,,,,,,,,,9.0,9.0,1.0*31
$GPRMC,204932.183,A,3748.7099,N,12217.9223,W,4.67,241.11,160611,,,A*79
$GPVTG,241.11,T,,M,4.67,N,8.6,K,N*0E
$GPGGA,204933.183,3748.7093,N,12217.9228,W,1,03,8.9,25.1,M,-25.1,M,,0000*57
$GPGSA,A,2,10,08,28,,,,,,,,,,9.0,8.9,1.0*39
$GPGSV,3,1,11,08,45,292,39,10,40,255,39,28,26,217,38,07,65,337,33*7E
$GPGSV,3,2,11,13,63,120,26,23,29,132,,19,28,095,,03,25,061,*7F
$GPGSV,3,3,11,05,19,310,39,06,16,049,,16,07,042,*46
$GPVTG,239.75,T,,M,4.26,N,7.9,K,N*06
$GPGGA,204934.183,3748.7097,N,12217.9137,W,1,03,8.9,25.1,M,-25.1,M,,0000*59
$GPGSA,A,2,10,08,28,,,,,,,,,,9.0,8.9,1.0*39
$GPRMC,204934.183,A,3748.7097,N,12217.9137,W,3.36,238.09,160611,,,A*73
$GPVTG,238.09,T,,M,3.36,N,6.2,K,N*00
$GPGGA,204935.183,3748.7094,N,12217.9171,W,1,03,8.9,25.1,M,-25.1,M,,0000*59
$GPGSA,A,2,10,08,28,,,,,,,,,,9.0,8.9,1.0*39
$GPRMC,204935.183,A,3748.7094,N,12217.9171,W,3.83,234.86,160611,,,A*76
$GPVTG,234.86,T,,M,3.83,N,7.1,K,N*07
$GPGGA,204936.183,3748.7074,N,12217.9348,W,1,03,8.9,25.1,M,-25.1,M,,0000*5C
$GPGSA,A,2,10,08,28,,,,,,,,,,9.0,8.9,1.0*39
$GPRMC,204936.183,A,3748.7074,N,12217.9348,W,3.04,233.47,160611,,,A*76
$GPVTG,233.47,T,,M,3.04,N,5.6,K,N*07
$GPGGA,204937.183,3748.7062,N,12217.9302,W,1,03,8.9,25.1,M,-25.1,M,,0000*54
$GPGSA,A,2,10,08,28,,,,,,,,,,9.0,8.9,1.0*39
$GPRMC,204937.183,A,3748.7062,N,12217.9302,W,3.11,221.38,160611,,,A*71
$GPVTG,221.38,T,,M,3.11,N,5.8,K,N*06
$GPGGA,204938.183,3748.7067,N,12217.9324,W,1,03,8.9,25.1,M,-25.1,M,,0000*5A
$GPGSA,A,2,10,08,28,,,,,,,,,,9.0,8.9,1.0*39
$GPGSV,3,1,11,08,45,292,40,10,40,255,39,28,26,217,37,07,65,337,35*79
$GPGSV,3,2,11,13,63,120,28,23,29,132,22,19,28,095,22,03,25,061,19*79
$GPGSV,3,3,11,05,19,310,39,06,16,049,,16,07,042,19*4E
$GPRMC,204938.183,A,3748.7067,N,12217.9324,W,3.61,223.09,160611,,,A*78
$GPVTG,223.09,T,,M,3.61,N,6.7,K,N*0D
$GPGGA,204939.183,3748.7059,N,12217.9288,W,1,03,8.9,25.1,M,-25.1,M,,0000*51
$GPGSA,A,2,10,08,28,,,,,,,,,,9.0,8.9,1.0*39
$GPRMC,204939.183,A,3748.7059,N,12217.9288,W,3.43,209.04,160611,,,A*76
$GPVTG,209.04,T,,M,3.43,N,6.3,K,N*0C
$GPGGA,204940.183,3748.7046,N,12217.9197,W,1,03,8.9,25.1,M,-25.1,M,,0000*5C
$GPGSA,A,2,10,08,28,,,,,,,,,,9.0,8.9,1.0*39
$GPRMC,204940.183,A,3748.7046,N,12217.9197,W,4.55,236.72,160611,,,A*76
$GPVTG,236.72,T,,M,4.55,N,8.4,K,N*08
$GPGGA,204941.183,3748.7057,N,12217.9262,W,1,03,8.9,25.1,M,-25.1,M,,0000*54
$GPGSA,A,2,10,08,28,,,,,,,,,,9.0,8.9,1.0*39
$GPRMC,204941.183,A,3748.7057,N,12217.9262,W,2.93,224.48,160611,,,A*78
$GPVTG,224.48,T,,M,2.93,N,5.4,K,N*03
$GPGGA,204942.183,3748.7046,N,12217.9164,W,1,03,8.9,25.1,M,-25.1,M,,0000*52
$GPGSA,A,2,10,08,28,,,,,,,,,,9.0,8.9,1.0*39
$GPRMC,204942.183,A,3748.7046,N,12217.9164,W,3.03,216.33,160611,,,A*7B
$GPVTG,216.33,T,,M,3.03,N,5.6,K,N*04
$GPGGA,204943.183,3748.7035,N,12217.9291,W,1,03,8.9,25.1,M,-25.1,M,,0000*5E
$GPGSA,A,2,10,08,28,,,,,,,,,,9.0,8.9,1.0*39
$GPGSV,3,1,11,08,45,292,40,10,40,255,39,28,26,217,37,07,65,337,34*78
$GPGSV,3,2,11,13,63,120,28,23,29,132,24,19,28,095,21,03,25,061,20*76
$GPGSV,3,3,11,05,19,310,37,06,16,049,22,16,07,042,18*41
$GPRMC,204943.183,A,3748.7035,N,12217.9291,W,3.04,225.99,160611,,,A*70
$GPVTG,225.99,T,,M,3.04,N,5.6,K,N*03
$GPGGA,204944.183,3748.7032,N,12217.9324,W,1,03,8.9,25.1,M,-25.1,M,,0000*51
$GPGSA,A,2,10,08,28,,,,,,,,,,9.0,8.9,1.0*39
$GPRMC,204944.183,A,3748.7032,N,12217.9324,W,3.44,225.82,160611,,,A*71
$GPVTG,225.82,T,,M,3.44,N,6.4,K,N*0C
$GPGGA,204945.183,3748.7019,N,12217.9284,W,1,03,8.9,25.1,M,-25.1,M,,0000*52
$GPGSA,A,2,10,08,28,,,,,,,,,,8.9,8.9,1.0*31
$GPRMC,204945.183,A,3748.7019,N,12217.9284,W,3.86,231.06,160611,,,A*75
$GPVTG,231.06,T,,M,3.86,N,7.2,K,N*0C
$GPGGA,204946.183,3748.7011,N,12217.9302,W,1,03,8.9,25.1,M,-25.1,M,,0000*56
$GPGSA,A,2,10,08,28,,,,,,,,,,8.9,8.9,1.0*31
$GPRMC,204946.183,A,3748.7011,N,12217.9302,W,2.97,227.32,160611,,,A*70
$GPVTG,227.32,T,,M,2.97,N,5.5,K,N*08
$GPGGA,204947.183,3748.7006,N,12217.9299,W,1,03,8.9,25.1,M,-25.1,M,,0000*52
$GPGSA,A,2,10,08,28,,,,,,,,,,8.9,8.9,1.0*31
$GPRMC,204947.183,A,3748.7006,N,12217.9299,W,3.10,224.71,160611,,,A*7E
$GPVTG,224.71,T,,M,3.10,N,5.7,K,N*00
$GPGGA,204948.183,3748.7000,N,12217.9299,W,1,03,8.9,25.1,M,-25.1,M,,0000*5B
$GPGSA,A,2,10,08,28,,,,,,,,,,8.9,8.9,1.0*31
$GPGSV,3,1,11,08,45,292,40,10,40,255,39,28,26,217,38,07,65,337,34*77
$GPGSV,3,2,11,13,63,120,27,23,29,132,25,19,28,095,21,03,25,060,20*79
$GPGSV,3,3,11,05,19,309,38,06,16,049,20,16,07,042,18*44
$GPRMC,204948.183,A,3748.7000,N,12217.9299,W,3.52,234.11,160611,,,A*76
$GPVTG,234.11,T,,M,3.52,N,6.5,K,N*00
$GPGGA,204949.183,3748.6993,N,12217.9306,W,1,03,8.9,25.1,M,-25.1,M,,0000*5F
$GPGSA,A,2,10,08,28,,,,,,,,,,8.9,8.9,1.0*31
$GPRMC,204949.183,A,3748.6993,N,12217.9306,W,2.94,220.94,160611,,,A*71
$GPVTG,220.94,T,,M,2.94,N,5.4,K,N*01
$GPGGA,204950.183,3748.6989,N,12217.9308,W,1,03,8.9,25.1,M,-25.1,M,,0000*52
$GPGSA,A,2,10,08,28,,,,,,,,,,8.9,8.9,1.0*31
$GPRMC,204950.183,A,3748.6989,N,12217.9308,W,3.83,234.86,160611,,,A*7D
$GPVTG,234.86,T,,M,3.83,N,7.1,K,N*07
$GPGGA,204951.183,3748.7019,N,12217.9418,W,1,04,2.9,-4.9,M,-25.1,M,,0000*4F
$GPGSA,A,3,10,08,28,07,,,,,,,,,3.0,2.9,1.0*3F
$GPRMC,204951.183,A,3748.7019,N,12217.9418,W,2.65,217.52,160611,,,A*7A
$GPVTG,217.52,T,,M,2.65,N,4.9,K,A*02
$GPGGA,204952.183,3748.7012,N,12217.9425,W,1,04,2.9,-4.4,M,-25.1,M,,0000*44
$GPGSA,A,3,10,08,28,07,,,,,,,,,3.0,2.9,1.0*3F
$GPRMC,204952.183,A,3748.7012,N,12217.9425,W,2.75,215.84,160611,,,A*74
$GPVTG,215.84,T,,M,2.75,N,5.1,K,A*03
$GPGGA,204953.183,3748.7006,N,12217.9430,W,1,04,2.9,-4.7,M,-25.1,M,,0000*47
$GPGSA,A,3,10,08,28,07,,,,,,,,,3.0,2.9,1.0*3F
$GPGSV,3,1,11,07,65,337,33,08,46,292,40,10,40,255,39,28,26,217,39*72
$GPGSV,3,2,11,13,63,120,27,23,29,132,28,19,28,095,21,03,25,060,19*7E
$GPGSV,3,3,11,05,19,309,30,06,16,049,19,16,07,042,17*49
$GPRMC,204953.183,A,3748.7006,N,12217.9430,W,2.69,213.71,160611,,,A*75
$GPVTG,213.71,T,,M,2.69,N,5.0,K,A*03
$GPGGA,204954.000,3748.7000,N,12217.9435,W,1,04,2.9,-4.1,M,-25.1,M,,0000*4F
$GPGSA,A,3,10,08,28,07,,,,,,,,,3.0,2.9,1.0*3F
$GPRMC,204954.000,A,3748.7000,N,12217.9435,W,2.52,208.23,160611,,,A*7E
$GPVTG,208.23,T,,M,2.52,N,4.7,K,A*00
$GPGGA,204955.000,3748.6994,N,12217.9442,W,1,04,2.9,-4.9,M,-25.1,M,,0000*43
$GPGSA,A,3,10,08,28,07,,,,,,,,,3.0,2.9,1.0*3F
$GPRMC,204955.000,A,3748.6994,N,12217.9442,W,3.04,199.21,160611,,,A*71
$GPVTG,199.21,T,,M,3.04,N,5.6,K,A*0B
$GPGGA,204956.000,3748.6990,N,12217.9463,W,1,04,2.9,-5.4,M,-25.1,M,,0000*4B
$GPGSA,A,3,10,08,28,07,,,,,,,,,3.0,2.9,1.0*3F
$GPRMC,204956.000,A,3748.6990,N,12217.9463,W,2.49,209.10,160611,,,A*75
$GPVTG,209.10,T,,M,2.49,N,4.6,K,A*0A
$GPGGA,204957.000,3748.6985,N,12217.9462,W,1,04,2.9,-6.3,M,-25.1,M,,0000*4B
$GPGSA,A,3,10,08,28,07,,,,,,,,,3.0,2.9,1.0*3F
$GPRMC,204957.000,A,3748.6985,N,12217.9462,W,2.28,212.43,160611,,,A*7A
$GPVTG,212.43,T,,M,2.28,N,4.2,K,A*05
$GPGGA,204958.000,3748.6978,N,12217.9468,W,1,04,2.9,-6.1,M,-25.1,M,,0000*4E
$GPGSA,A,3,10,08,28,07,,,,,,,,,3.0,2.9,1.0*3F
$GPGSV,3,1,11,07,65,337,29,08,46,292,35,10,40,255,36,28,26,217,39*74
$GPGSV,3,2,11,13,63,120,28,23,29,132,29,19,28,095,21,03,25,060,19*70
$GPGSV,3,3,11,05,19,309,35,06,16,049,18,16,07,042,17*4D
$GPRMC,204958.000,A,3748.6978,N,12217.9468,W,2.82,213.83,160611,,,A*70
$GPVTG,213.83,T,,M,2.82,N,5.2,K,A*09
$GPGGA,204959.000,3748.6972,N,12217.9475,W,1,04,2.9,-6.5,M,-25.1,M,,0000*4D
$GPGSA,A,3,10,08,28,07,,,,,,,,,3.0,2.9,1.0*3F
$GPRMC,204959.000,A,3748.6972,N,12217.9475,W,2.86,216.04,160611,,,A*79
$GPVTG,216.04,T,,M,2.86,N,5.3,K,A*06
$GPGGA,205000.000,3748.6965,N,12217.9480,W,1,04,2.9,-6.5,M,-25.1,M,,0000*45
$GPGSA,A,3,10,08,28,07,,,,,,,,,3.0,2.9,1.0*3F
$GPRMC,205000.000,A,3748.6965,N,12217.9480,W,3.00,217.59,160611,,,A*77
$GPVTG,217.59,T,,M,3.00,N,5.6,K,A*05
$GPGGA,205001.000,3748.6957,N,12217.9481,W,1,04,2.9,-5.3,M,-25.1,M,,0000*41
$GPGSA,A,3,10,08,28,07,,,,,,,,,3.0,2.9,1.0*3F
$GPRMC,205001.000,A,3748.6957,N,12217.9481,W,2.76,215.93,160611,,,A*72
$GPVTG,215.93,T,,M,2.76,N,5.1,K,A*06
$GPGGA,205002.000,3748.6950,N,12217.9483,W,1,04,2.9,-4.5,M,-25.1,M,,0000*40
$GPGSA,A,3,10,08,28,07,,,,,,,,,3.0,2.9,1.0*3F
$GPRMC,205002.000,A,3748.6950,N,12217.9483,W,2.82,214.94,160611,,,A*79
$GPVTG,214.94,T,,M,2.82,N,5.2,K,A*08
$GPGGA,205003.000,3748.6943,N,12217.9487,W,1,04,2.9,-4.0,M,-25.1,M,,0000*42
$GPGSA,A,3,10,08,28,07,,,,,,,,,3.0,2.9,1.0*3F
$GPGSV,3,1,11,07,65,337,31,08,46,292,37,10,40,255,38,28,26,217,39*71
$GPGSV,3,2,11,13,63,120,27,23,29,132,29,19,28,095,21,03,25,060,20*75
$GPGSV,3,3,11,05,19,309,26,06,16,049,18,16,07,042,17*4F
$GPRMC,205003.000,A,3748.6943,N,12217.9487,W,2.74,218.72,160611,,,A*73
$GPVTG,218.72,T,,M,2.74,N,5.1,K,A*06
$GPGGA,205004.000,3748.6937,N,12217.9492,W,1,04,2.9,-3.7,M,-25.1,M,,0000*42
$GPGSA,A,3,10,08,28,07,,,,,,,,,3.0,2.9,1.0*3F
$GPRMC,205004.000,A,3748.6937,N,12217.9492,W,2.74,221.73,160611,,,A*78
$GPVTG,221.73,T,,M,2.74,N,5.1,K,A*0D
$GPGGA,205005.000,3748.6931,N,12217.9496,W,1,04,2.9,-3.4,M,-25.1,M,,0000*42
$GPGSA,A,3,10,08,28,07,,,,,,,,,3.0,2.9,1.0*3F
$GPRMC,205005.000,A,3748.6931,N,12217.9496,W,2.72,222.36,160611,,,A*7F
$GPVTG,222.36,T,,M,2.72,N,5.0,K,A*08
$GPGGA,205006.000,3748.6924,N,12217.9501,W,1,04,2.9,-3.1,M,-25.1,M,,0000*4F
$GPGSA,A,3,10,08,28,07,,,,,,,,,3.0,2.9,1.0*3F
$GPRMC,205006.000,A,3748.6924,N,12217.9501,W,2.71,216.96,160611,,,A*79
$GPVTG,216.96,T,,M,2.71,N,5.0,K,A*06
$GPGGA,205007.000,3748.6920,N,12217.9513,W,1,04,2.9,-4.5,M,-25.1,M,,0000*4A
$GPGSA,A,3,10,08,28,07,,,,,,,,,3.0,2.9,1.0*3F
$GPRMC,205007.000,A,3748.6920,N,12217.9513,W,2.77,219.02,160611,,,A*7B
$GPVTG,219.02,T,,M,2.77,N,5.1,K,A*03
$GPGGA,205008.000,3748.6913,N,12217.9520,W,1,04,2.9,-4.8,M,-25.1,M,,0000*48
$GPGSA,A,3,10,08,28,07,,,,,,,,,3.0,2.9,1.0*3F
$GPGSV,3,1,11,07,65,337,31,08,46,292,38,10,40,255,39,28,26,217,39*7F
$GPGSV,3,2,11,13,63,120,27,23,29,132,29,19,28,095,26,03,25,060,21*73
$GPGSV,3,3,11,05,19,309,34,06,16,049,17,16,07,042,17*43
$GPRMC,205008.000,A,3748.6913,N,12217.9520,W,3.02,214.08,160611,,,A*70
$GPVTG,214.08,T,,M,3.02,N,5.6,K,A*00
$GPGGA,205009.000,3748.6907,N,12217.9526,W,1,04,2.9,-4.8,M,-25.1,M,,0000*4A
$GPGSA,A,3,10,08,28,07,,,,,,,,,3.0,2.9,1.0*3F
$GPRMC,205009.000,A,3748.6907,N,12217.9526,W,2.96,218.27,160611,,,A*7F
$GPVTG,218.27,T,,M,2.96,N,5.5,K,A*0E
$GPGGA,205010.000,3748.6900,N,12217.9532,W,1,04,2.9,-4.8,M,-25.1,M,,0000*40
$GPGSA,A,3,10,08,28,07,,,,,,,,,3.0,2.9,1.0*3F
$GPRMC,205010.000,A,3748.6900,N,12217.9532,W,3.03,217.81,160611,,,A*7B
$GPVTG,217.81,T,,M,3.03,N,5.6,K,A*03
$GPGGA,205011.000,3748.6893,N,12217.9537,W,1,04,2.9,-4.7,M,-25.1,M,,0000*40
$GPGSA,A,3,10,08,28,07,,,,,,,,,3.0,2.9,1.0*3F
$GPRMC,205011.000,A,3748.6893,N,12217.9537,W,3.06,219.81,160611,,,A*7F
$GPVTG,219.81,T,,M,3.06,N,5.7,K,A*09
$GPGGA,205012.000,3748.6887,N,12217.9542,W,1,04,2.9,-4.5,M,-25.1,M,,0000*46
$GPGSA,A,3,10,08,28,07,,,,,,,,,3.0,2.9,1.0*3F
$GPRMC,205012.000,A,3748.6887,N,12217.9542,W,2.79,218.51,160611,,,A*7E
$GPVTG,218.51,T,,M,2.79,N,5.2,K,A*09
$GPGGA,205013.000,3748.6881,N,12217.9547,W,1,04,2.9,-4.4,M,-25.1,M,,0000*45
$GPGSA,A,3,10,08,28,07,,,,,,,,,3.0,2.9,1.0*3F
$GPGSV,3,1,11,07,65,337,32,08,46,292,38,10,40,255,39,28,26,217,39*7C
$GPGSV,3,2,11,13,63,120,28,23,29,132,23,19,28,095,24,03,25,060,23*76
$GPGSV,3,3,11,05,19,309,38,06,16,049,18,16,07,042,17*40
$GPRMC,205013.000,A,3748.6881,N,12217.9547,W,2.68,216.33,160611,,,A*76
$GPVTG,216.33,T,,M,2.68,N,5.0,K,A*01
$GPGGA,205014.000,3748.6874,N,12217.9552,W,1,04,2.9,-4.3,M,-25.1,M,,0000*4B
$GPGSA,A,3,10,08,28,07,,,,,,,,,3.0,2.9,1.0*3F
$GPRMC,205014.000,A,3748.6874,N,12217.9552,W,2.75,212.62,160611,,,A*73
$GPVTG,212.62,T,,M,2.75,N,5.1,K,A*0C
$GPGGA,205015.000,3748.6867,N,12217.9556,W,1,04,2.9,-4.1,M,-25.1,M,,0000*4E
$GPGSA,A,3,10,08,28,07,,,,,,,,,3.0,2.9,1.0*3F
$GPRMC,205015.000,A,3748.6867,N,12217.9556,W,2.92,209.76,160611,,,A*72
$GPVTG,209.76,T,,M,2.92,N,5.4,K,A*0F
$GPGGA,205016.000,3748.6860,N,12217.9560,W,1,04,2.9,-3.9,M,-25.1,M,,0000*40
$GPGSA,A,3,10,08,28,07,,,,,,,,,3.0,2.9,1.0*3F
$GPRMC,205016.000,A,3748.6860,N,12217.9560,W,2.86,211.13,160611,,,A*7C
$GPVTG,211.13,T,,M,2.86,N,5.3,K,A*07
$GPGGA,205017.000,3748.6853,N,12217.9564,W,1,04,2.9,-3.6,M,-25.1,M,,0000*4A
$GPGSA,A,3,10,08,28,07,,,,,,,,,3.0,2.9,1.0*3F
$GPRMC,205017.000,A,3748.6853,N,12217.9564,W,2.69,216.97,160611,,,A*73
$GPVTG,216.97,T,,M,2.69,N,5.0,K,A*0E
$GPGGA,205018.000,3748.6847,N,12217.9568,W,1,04,2.9,-3.3,M,-25.1,M,,0000*49
$GPGSA,A,3,10,08,28,07,,,,,,,,,3.0,2.9,1.0*3F
$GPGSV,3,1,11,07,65,338,32,13,62,120,27,08,46,292,39,10,40,255,39*72
$GPGSV,3,2,11,23,29,132,23,19,28,095,21,28,27,217,39,03,25,060,*7D
$GPGSV,3,3,11,05,19,309,38,06,16,049,19,16,07,042,21*44
$GPRMC,205018.000,A,3748.6847,N,12217.9568,W,2.80,219.08,160611,,,A*7B
$GPVTG,219.08,T,,M,2.80,N,5.2,K,A*02
$GPGGA,205019.000,3748.6840,N,12217.9573,W,1,04,2.9,-3.1,M,-25.1,M,,0000*47
$GPGSA,A,3,10,08,28,07,,,,,,,,,3.0,2.9,1.0*3F
$GPRMC,205019.000,A,3748.6840,N,12217.9573,W,2.96,216.38,160611,,,A*7C
$GPVTG,216.38,T,,M,2.96,N,5.5,K,A*0E
$GPGGA,205020.000,3748.6833,N,12217.9578,W,1,04,2.9,-2.9,M,-25.1,M,,0000*4B
$GPGSA,A,3,10,08,28,07,,,,,,,,,3.0,2.9,1.0*3F
$GPRMC,205020.000,A,3748.6833,N,12217.9578,W,3.01,212.73,160611,,,A*7D
$GPVTG,212.73,T,,M,3.01,N,5.6,K,A*09
$GPGGA,205021.000,3748.6826,N,12217.9582,W,1,04,2.9,-2.6,M,-25.1,M,,0000*44
$GPGSA,A,3,10,08,28,07,,,,,,,,,3.0,2.9,1.0*3F
$GPRMC,205021.000,A,3748.6826,N,12217.9582,W,2.91,214.54,160611,,,A*76
$GPVTG,214.54,T,,M,2.91,N,5.4,K,A*00
$GPGGA,205022.000,3748.6819,N,12217.9587,W,1,04,2.9,-2.5,M,-25.1,M,,0000*4D
$GPGSA,A,3,10,08,28,07,,,,,,,,,3.0,2.9,1.0*3F
$GPRMC,205022.000,A,3748.6819,N,12217.9587,W,2.91,216.95,160611,,,A*73
$GPVTG,216.95,T,,M,2.91,N,5.4,K,A*0F
$GPGGA,205023.000,3748.6813,N,12217.9595,W,1,04,2.9,-2.7,M,-25.1,M,,0000*47
$GPGSA,A,3,10,08,28,07,,,,,,,,,3.0,2.9,1.0*3F
$GPGSV,3,1,11,07,65,338,32,13,62,120,27,08,46,292,39,10,40,255,39*72
$GPGSV,3,2,11,23,29,132,27,19,28,095,21,28,27,217,39,03,25,060,22*79
$GPGSV,3,3,11,05,19,309,31,06,16,049,20,16,07,042,18*4D
$GPRMC,205023.000,A,3748.6813,N,12217.9595,W,2.88,218.67,160611,,,A*70
$GPVTG,218.67,T,,M,2.88,N,5.3,K,A*03
$GPGGA,205024.000,3748.6807,N,12217.9602,W,1,04,2.8,-2.8,M,-25.1,M,,0000*46
$GPGSA,A,3,10,08,28,07,,,,,,,,,3.0,2.8,1.0*3E
$GPRMC,205024.000,A,3748.6807,N,12217.9602,W,2.77,215.35,160611,,,A*75
$GPVTG,215.35,T,,M,2.77,N,5.1,K,A*0B
$GPGGA,205025.000,3748.6801,N,12217.9606,W,1,04,2.8,-2.6,M,-25.1,M,,0000*4B
$GPGSA,A,3,10,08,28,07,,,,,,,,,3.0,2.8,1.0*3E
$GPRMC,205025.000,A,3748.6801,N,12217.9606,W,2.75,213.17,160611,,,A*72
$GPVTG,213.17,T,,M,2.75,N,5.1,K,A*0F
$GPGGA,205026.000,3748.6794,N,12217.9609,W,1,04,2.8,-2.3,M,-25.1,M,,0000*41
$GPGSA,A,3,10,08,28,07,,,,,,,,,3.0,2.8,1.0*3E
$GPRMC,205026.000,A,3748.6794,N,12217.9609,W,2.76,214.69,160611,,,A*70
$GPVTG,214.69,T,,M,2.76,N,5.1,K,A*02
$GPGGA,205027.000,3748.6787,N,12217.9613,W,1,04,2.8,-2.0,M,-25.1,M,,0000*4A
$GPGSA,A,3,10,08,28,07,,,,,,,,,3.0,2.8,1.0*3E
$GPRMC,205027.000,A,3748.6787,N,12217.9613,W,2.80,215.96,160611,,,A*70
$GPVTG,215.96,T,,M,2.80,N,5.2,K,A*09
$GPGGA,205028.000,3748.6781,N,12217.9614,W,1,04,2.8,-1.6,M,-25.1,M,,0000*41
$GPGSA,A,3,10,08,28,07,,,,,,,,,3.0,2.8,1.0*3E
$GPGSV,3,1,11,07,65,338,32,13,62,120,27,08,46,292,39,10,40,255,39*72
$GPGSV,3,2,11,23,29,132,27,19,28,095,24,28,27,217,40,03,25,060,23*73
$GPGSV,3,3,11,05,19,309,35,06,16,049,21,16,07,042,17*47
$GPRMC,205028.000,A,3748.6781,N,12217.9614,W,2.64,208.05,160611,,,A*72
$GPVTG,208.05,T,,M,2.64,N,4.9,K,A*0F
$GPGGA,205029.000,3748.6774,N,12217.9616,W,1,04,2.8,-1.1,M,-25.1,M,,0000*4F
$GPGSA,A,3,10,08,28,07,,,,,,,,,3.0,2.8,1.0*3E
$GPRMC,205029.000,A,3748.6774,N,12217.9616,W,2.80,211.36,160611,,,A*79
$GPVTG,211.36,T,,M,2.80,N,5.2,K,A*07
$GPGGA,205030.000,3748.6767,N,12217.9619,W,1,04,2.8,-0.8,M,-25.1,M,,0000*42
$GPGSA,A,3,10,08,28,07,,,,,,,,,3.0,2.8,1.0*3E
$GPRMC,205030.000,A,3748.6767,N,12217.9619,W,2.54,211.76,160611,,,A*71
$GPVTG,211.76,T,,M,2.54,N,4.7,K,A*0E
$GPGGA,205031.000,3748.6761,N,12217.9624,W,1,04,2.8,-0.2,M,-25.1,M,,0000*41
$GPGSA,A,3,10,08,28,07,,,,,,,,,3.0,2.8,1.0*3E
$GPRMC,205031.000,A,3748.6761,N,12217.9624,W,2.75,211.01,160611,,,A*7B
$GPVTG,211.01,T,,M,2.75,N,5.1,K,A*0A
$GPGGA,205032.000,3748.6756,N,12217.9630,W,1,04,2.8,0.5,M,-25.1,M,,0000*69
$GPGSA,A,3,10,08,28,07,,,,,,,,,3.0,2.8,1.0*3E
$GPRMC,205032.000,A,3748.6756,N,12217.9630,W,2.77,213.20,160611,,,A*7A
$GPVTG,213.20,T,,M,2.77,N,5.1,K,A*09
$GPGGA,205033.000,3748.6749,N,12217.9636,W,1,04,2.8,0.9,M,-25.1,M,,0000*6C
$GPGSA,A,3,10,08,28,07,,,,,,,,,3.0,2.8,1.0*3E
$GPGSV,3,1,11,07,65,338,32,13,62,120,23,08,46,292,39,10,40,255,39*76
$GPGSV,3,2,11,23,29,132,22,19,28,095,25,28,27,217,27,03,25,060,23*76
$GPGSV,3,3,11,05,19,309,36,06,16,049,22,16,07,042,17*47
$GPRMC,205033.000,A,3748.6749,N,12217.9636,W,2.79,213.54,160611,,,A*7E
$GPVTG,213.54,T,,M,2.79,N,5.2,K,A*07
$GPGGA,205034.000,3748.6744,N,12217.9640,W,1,04,2.8,1.4,M,-25.1,M,,0000*6B
$GPGSA,A,3,10,08,28,07,,,,,,,,,3.0,2.8,1.0*3E
$GPRMC,205034.000,A,3748.6744,N,12217.9640,W,2.55,219.52,160611,,,A*77
$GPVTG,219.52,T,,M,2.55,N,4.7,K,A*01
$GPGGA,205035.000,3748.6738,N,12217.9646,W,1,04,2.8,1.8,M,-25.1,M,,0000*6B
$GPGSA,A,3,10,08,28,07,,,,,,,,,3.0,2.8,1.0*3E
$GPRMC,205035.000,A,3748.6738,N,12217.9646,W,3.18,229.52,160611,,,A*70
$GPVTG,229.52,T,,M,3.18,N,5.9,K,A*05
$GPGGA,205036.000,3748.6729,N,12217.9651,W,1,04,2.8,1.1,M,-25.1,M,,0000*67
$GPGSA,A,3,10,08,28,07,,,,,,,,,3.0,2.8,1.0*3E
$GPRMC,205036.000,A,3748.6729,N,12217.9651,W,2.99,218.16,160611,,,A*7F
$GPVTG,218.16,T,,M,2.99,N,5.5,K,A*03
$GPGGA,205037.000,3748.6721,N,12217.9654,W,1,04,2.8,0.9,M,-25.1,M,,0000*62
$GPGSA,A,3,10,08,28,07,,,,,,,,,3.0,2.8,1.0*3E
$GPRMC,205037.000,A,3748.6721,N,12217.9654,W,3.03,211.52,160611,,,A*78
$GPVTG,211.52,T,,M,3.03,N,5.6,K,A*0B
$GPGGA,205038.000,3748.6714,N,12217.9659,W,1,04,2.8,1.0,M,-25.1,M,,0000*6E
$GPGSA,A,3,10,08,28,07,,,,,,,,,3.0,2.8,1.0*3E
$GPGSV,3,1,12,07,65,338,31,13,62,120,23,08,46,292,39,10,40,255,37*78
$GPGSV,3,2,12,23,29,132,22,19,28,095,21,28,27,217,26,03,25,060,22*71
$GPGSV,3,3,12,05,19,309,32,06,16,049,22,16,07,042,17,48,44,197,31*71
$GPRMC,205038.000,A,3748.6714,N,12217.9659,W,2.83,196.09,160611,,,A*77
$GPVTG,196.09,T,,M,2.83,N,5.3,K,A*05
$GPGGA,205039.000,3748.6707,N,12217.9663,W,1,04,2.8,1.2,M,-25.1,M,,0000*66
$GPGSA,A,3,10,08,28,07,,,,,,,,,3.0,2.8,1.0*3E
$GPRMC,205039.000,A,3748.6707,N,12217.9663,W,2.51,189.92,160611,,,A*7E
$GPVTG,189.92,T,,M,2.51,N,4.6,K,A*02
$GPGGA,205040.000,3748.6701,N,12217.9676,W,1,04,2.8,0.5,M,-25.1,M,,0000*6C
$GPGSA,A,3,10,08,28,07,,,,,,,,,3.0,2.8,1.0*3E
$GPRMC,205040.000,A,3748.6701,N,12217.9676,W,2.77,220.77,160611,,,A*7D
$GPVTG,220.77,T,,M,2.77,N,5.1,K,A*0B
$GPGGA,205041.000,3748.6696,N,12217.9685,W,1,04,2.8,0.7,M,-25.1,M,,0000*6C
$GPGSA,A,3,10,08,28,07,,,,,,,,,3.0,2.8,1.0*3E
$GPRMC,205041.000,A,3748.6696,N,12217.9685,W,3.05,232.10,160611,,,A*79
$GPVTG,232.10,T,,M,3.05,N,5.6,K,A*0A
$GPGGA,205042.000,3748.6690,N,12217.9687,W,1,04,2.8,0.9,M,-25.1,M,,0000*65
$GPGSA,A,3,10,08,28,07,,,,,,,,,3.0,2.8,1.0*3E
$GPRMC,205042.000,A,3748.6690,N,12217.9687,W,2.79,231.57,160611,,,A*74
$GPVTG,231.57,T,,M,2.79,N,5.2,K,A*04
$GPGGA,205043.000,3748.6687,N,12217.9694,W,1,04,2.8,1.7,M,-25.1,M,,0000*6F
$GPGSA,A,3,10,08,28,07,,,,,,,,,3.0,2.8,1.0*3E
$GPGSV,3,1,12,07,65,338,31,13,62,120,27,08,46,292,39,10,40,255,38*73
$GPGSV,3,2,12,23,29,132,26,19,28,095,22,28,27,217,25,03,25,060,21*76
$GPGSV,3,3,12,05,19,309,41,06,16,049,21,16,07,042,18,48,44,197,23*7A
$GPRMC,205043.000,A,3748.6687,N,12217.9694,W,2.79,229.70,160611,,,A*7D
$GPVTG,229.70,T,,M,2.79,N,5.2,K,A*08
$GPGGA,205044.000,3748.6683,N,12217.9702,W,1,04,2.8,2.4,M,-25.1,M,,0000*62
$GPGSA,A,3,10,08,28,07,,,,,,,,,3.0,2.8,1.0*3E
$GPRMC,205044.000,A,3748.6683,N,12217.9702,W,2.90,228.58,160611,,,A*7C
$GPVTG,228.58,T,,M,2.90,N,5.4,K,A*02
$GPGGA,205045.000,3748.6678,N,12217.9708,W,1,04,2.8,2.9,M,-25.1,M,,0000*60
$GPGSA,A,3,10,08,28,07,,,,,,,,,3.0,2.8,1.0*3E
$GPRMC,205045.000,A,3748.6678,N,12217.9708,W,2.88,212.79,160611,,,A*70
$GPVTG,212.79,T,,M,2.88,N,5.3,K,A*06
$GPGGA,205046.000,3748.6669,N,12217.9715,W,1,04,2.8,2.6,M,-25.1,M,,0000*60
$GPGSA,A,3,10,08,28,07,,,,,,,,,3.0,2.8,1.0*3E
$GPRMC,205046.000,A,3748.6669,N,12217.9715,W,3.12,207.39,160611,,,A*7D
$GPVTG,207.39,T,,M,3.12,N,5.8,K,A*0F
$GPGGA,205047.000,3748.6661,N,12217.9721,W,1,04,2.8,2.4,M,-25.1,M,,0000*6C
$GPGSA,A,3,10,08,28,07,,,,,,,,,3.0,2.8,1.0*3E
$GPRMC,205047.000,A,3748.6661,N,12217.9721,W,3.08,206.90,160611,,,A*7A
$GPVTG,206.90,T,,M,3.08,N,5.7,K,A*09
$GPGGA,205048.000,3748.6651,N,12217.9732,W,1,04,2.8,2.6,M,-25.1,M,,0000*60
$GPGSA,A,3,10,08,28,07,,,,,,,,,3.0,2.8,1.0*3E
$GPGSV,3,1,12,07,65,338,31,13,62,121,21,08,46,293,39,10,40,254,38*74
$GPGSV,3,2,12,23,29,132,27,19,28,094,23,28,27,217,34,03,25,060,21*77
$GPGSV,3,3,12,05,19,309,40,06,16,049,21,16,06,042,18,48,44,197,26*7F
$GPRMC,205048.000,A,3748.6651,N,12217.9732,W,3.20,209.07,160611,,,A*7F
$GPGGA,205049.000,3748.6642,N,12217.9743,W,1,04,2.8,1.8,M,-25.1,M,,0000*68
$GPGSA,A,3,10,08,28,07,,,,,,,,,3.0,2.8,1.0*3E
$GPRMC,205049.000,A,3748.6642,N,12217.9743,W,3.07,203.56,160611,,,A*71
$GPVTG,203.56,T,,M,3.07,N,5.7,K,A*09
$GPGGA,205050.000,3748.6632,N,12217.9748,W,1,04,2.8,1.8,M,-25.1,M,,0000*6C
$GPGSA,A,3,10,08,28,07,,,,,,,,,3.0,2.8,1.0*3E
$GPRMC,205050.000,A,3748.6632,N,12217.9748,W,3.05,198.16,160611,,,A*72
$GPVTG,198.16,T,,M,3.05,N,5.6,K,A*0F
$GPGGA,205051.000,3748.6623,N,12217.9758,W,1,04,2.8,2.0,M,-25.1,M,,0000*67
$GPGSA,A,3,10,08,28,07,,,,,,,,,3.0,2.8,1.0*3E
$GPRMC,205051.000,A,3748.6623,N,12217.9758,W,2.57,205.63,160611,,,A*71
$GPVTG,205.63,T,,M,2.57,N,4.8,K,A*03
$GPGGA,205052.000,3748.6616,N,12217.9767,W,1,04,2.8,1.7,M,-25.1,M,,0000*6A
$GPGSA,A,3,10,08,28,07,,,,,,,,,3.0,2.8,1.0*3E
$GPRMC,205052.000,A,3748.6616,N,12217.9767,W,2.14,220.39,160611,,,A*77
$GPVTG,220.39,T,,M,2.14,N,4.0,K,A*04
$GPGGA,205053.000,3748.6614,N,12217.9778,W,1,04,2.8,0.2,M,-25.1,M,,0000*63
$GPGSA,A,3,10,08,28,07,,,,,,,,,3.0,2.8,1.0*3E
$GPGSV,3,1,12,07,65,338,26,13,62,121,22,08,46,293,31,10,40,254,35*74
$GPGSV,3,2,12,23,29,132,27,19,28,094,23,28,27,217,39,03,25,060,22*79
$GPGSV,3,3,12,05,19,309,26,06,16,049,21,16,06,042,18,48,44,197,43*7C
$GPRMC,205053.000,A,3748.6614,N,12217.9778,W,2.62,219.08,160611,,,A*73
$GPVTG,219.08,T,,M,2.62,N,4.9,K,A*04
$GPGGA,205054.000,3748.6607,N,12217.9791,W,1,04,2.8,-0.4,M,-25.1,M,,0000*4A
$GPGSA,A,3,10,08,28,07,,,,,,,,,3.0,2.8,1.0*3E
$GPRMC,205054.000,A,3748.6607,N,12217.9791,W,2.78,224.01,160611,,,A*7D
$GPVTG,224.01,T,,M,2.78,N,5.2,K,A*02
$GPGGA,205055.000,3748.6601,N,12217.9800,W,1,04,2.8,-0.5,M,-25.1,M,,0000*4B
$GPGSA,A,3,10,08,28,07,,,,,,,,,3.0,2.8,1.0*3E
$GPRMC,205055.000,A,3748.6601,N,12217.9800,W,3.35,234.98,160611,,,A*74
$GPVTG,234.98,T,,M,3.35,N,6.2,K,A*08
$GPGGA,205056.000,3748.6596,N,12217.9802,W,1,04,2.8,-1.6,M,-25.1,M,,0000*45
$GPGSA,A,3,10,08,28,07,,,,,,,,,3.0,2.8,1.0*3E
$GPRMC,205056.000,A,3748.6596,N,12217.9802,W,2.74,224.16,160611,,,A*7B
$GPVTG,224.16,T,,M,2.74,N,5.1,K,A*0B
$GPGGA,205057.000,3748.6590,N,12217.9800,W,1,04,2.8,-2.2,M,-25.1,M,,0000*47
$GPGSA,A,3,10,08,28,07,,,,,,,,,3.0,2.8,1.0*3E
$GPRMC,205057.000,A,3748.6590,N,12217.9800,W,2.62,207.26,160611,,,A*7B
$GPVTG,207.26,T,,M,2.62,N,4.8,K,A*06
$GPGGA,205058.000,3748.6583,N,12217.9812,W,1,04,2.8,-3.3,M,-25.1,M,,0000*49
$GPGSA,A,3,10,08,28,07,,,,,,,,,3.0,2.8,1.0*3E
$GPGSV,3,1,12,07,65,338,24,13,62,121,22,08,46,293,39,10,40,254,36*7D
$GPGSV,3,2,12,23,29,132,25,19,28,094,23,28,27,217,38,03,25,060,21*79
$GPGSV,3,3,12,05,19,309,35,06,16,049,20,16,06,042,18,48,44,197,36*7D
$GPRMC,205058.000,A,3748.6583,N,12217.9812,W,2.83,205.76,160611,,,A*7D
$GPVTG,205.76,T,,M,2.83,N,5.2,K,A*05
$GPGGA,205059.000,3748.6576,N,12217.9830,W,1,04,2.8,-4.5,M,-25.1,M,,0000*43
$GPGSA,A,3,10,08,28,07,,,,,,,,,3.0,2.8,1.0*3E
$GPRMC,205059.000,A,3748.6576,N,12217.9830,W,2.75,212.01,160611,,,A*79
$GPVTG,212.01,T,,M,2.75,N,5.1,K,A*09
$GPGGA,205100.000,3748.6570,N,12217.9828,W,1,04,2.8,-4.6,M,-25.1,M,,0000*42
$GPGSA,A,3,10,08,28,07,,,,,,,,,3.0,2.8,1.0*3E
$GPRMC,205100.000,A,3748.6570,N,12217.9828,W,2.52,203.90,160611,,,A*76
$GPVTG,203.90,T,,M,2.52,N,4.7,K,A*03
$GPGGA,205101.000,3748.6563,N,12217.9824,W,1,04,2.8,-4.4,M,-25.1,M,,0000*4F
$GPGSA,A,3,10,08,28,07,,,,,,,,,3.0,2.8,1.0*3E
$GPRMC,205101.000,A,3748.6563,N,12217.9824,W,2.41,197.16,160611,,,A*7B
$GPVTG,197.16,T,,M,2.41,N,4.5,K,A*03
$GPGGA,205102.000,3748.6556,N,12217.9823,W,1,04,2.8,-4.2,M,-25.1,M,,0000*4B
$GPGSA,A,3,10,08,28,07,,,,,,,,,3.0,2.8,1.0*3E
$GPRMC,205102.000,A,3748.6556,N,12217.9823,W,2.65,198.81,160611,,,A*7E
$GPVTG,198.81,T,,M,2.65,N,4.9,K,A*08
$GPGGA,205103.000,3748.6549,N,12217.9826,W,1,03,3.3,-4.2,M,-25.1,M,,0000*4C
$GPGSA,A,2,08,28,07,,,,,,,,,,3.5,3.3,1.0*31
$GPGSV,3,1,12,07,65,338,32,13,62,121,27,08,46,293,39,10,40,254,*7A
$GPGSV,3,2,12,23,29,132,21,19,28,094,21,28,27,217,38,03,25,060,20*7E
$GPGSV,3,3,12,05,19,309,36,06,16,049,19,16,06,042,17,48,44,197,32*7F
$GPRMC,205103.000,A,3748.6549,N,12217.9826,W,2.51,199.88,160611,,,A*7B
$GPGGA,205104.000,3748.6544,N,12217.9825,W,1,04,2.8,-5.2,M,-25.1,M,,0000*49
$GPGSA,A,3,10,08,28,07,,,,,,,,,3.0,2.8,1.0*3E
$GPRMC,205104.000,A,3748.6544,N,12217.9825,W,2.78,219.08,160611,,,A*7A
$GPVTG,219.08,T,,M,2.78,N,5.1,K,A*06
$GPGGA,205105.000,3748.6540,N,12217.9822,W,1,04,2.8,-6.3,M,-25.1,M,,0000*49
$GPGSA,A,3,10,08,28,07,,,,,,,,,3.0,2.8,1.0*3E
$GPRMC,205105.000,A,3748.6540,N,12217.9822,W,2.03,203.19,160611,,,A*7F
$GPVTG,203.19,T,,M,2.03,N,3.8,K,A*0E
$GPGGA,205106.000,3748.6534,N,12217.9830,W,1,04,2.8,-6.0,M,-25.1,M,,0000*49
$GPGSA,A,3,10,08,28,07,,,,,,,,,3.0,2.8,1.0*3E
$GPRMC,205106.000,A,3748.6534,N,12217.9830,W,2.78,215.44,160611,,,A*7F
$GPVTG,215.44,T,,M,2.78,N,5.2,K,A*01
$GPGGA,205107.000,3748.6526,N,12217.9837,W,1,04,2.8,-5.4,M,-25.1,M,,0000*4B
$GPGSA,A,3,10,08,28,07,,,,,,,,,3.0,2.8,1.0*3E
$GPRMC,205107.000,A,3748.6526,N,12217.9837,W,2.84,210.75,160611,,,A*7E
$GPVTG,210.75,T,,M,2.84,N,5.3,K,A*04
$GPGGA,205108.000,3748.6519,N,12217.9838,W,1,04,2.8,-5.6,M,-25.1,M,,0000*45
$GPGSA,A,3,10,08,28,07,,,,,,,,,3.0,2.8,1.0*3E
$GPGSV,3,1,12,07,65,338,32,13,62,121,27,08,46,293,39,10,40,254,39*70
$GPGSV,3,2,12,23,29,132,22,19,28,094,15,28,27,217,38,03,25,060,20*7A
$GPGSV,3,3,12,05,19,309,36,06,16,049,20,16,06,042,16,48,44,197,36*70
$GPRMC,205108.000,A,3748.6519,N,12217.9838,W,2.86,206.83,160611,,,A*7E
$GPVTG,206.83,T,,M,2.86,N,5.3,K,A*08
$GPGGA,205109.000,3748.6512,N,12217.9841,W,1,04,2.8,-5.5,M,-25.1,M,,0000*42
$GPGSA,A,3,10,08,28,07,,,,,,,,,3.0,2.8,1.0*3E
$GPRMC,205109.000,A,3748.6512,N,12217.9841,W,2.75,211.68,160611,,,A*75
$GPVTG,211.68,T,,M,2.75,N,5.1,K,A*05
$GPGGA,205110.000,3748.6506,N,12217.9843,W,1,04,2.8,-5.7,M,-25.1,M,,0000*4F
$GPGSA,A,3,10,08,28,07,,,,,,,,,3.0,2.8,1.0*3E
$GPRMC,205110.000,A,3748.6506,N,12217.9843,W,2.73,213.89,160611,,,A*71
$GPVTG,213.89,T,,M,2.73,N,5.1,K,A*0E
$GPGGA,205111.000,3748.6500,N,12217.9847,W,1,04,2.8,-5.7,M,-25.1,M,,0000*4C
$GPGSA,A,3,10,08,28,07,,,,,,,,,3.0,2.8,1.0*3E
$GPRMC,205111.000,A,3748.6500,N,12217.9847,W,2.76,218.49,160611,,,A*70
$GPVTG,218.49,T,,M,2.76,N,5.1,K,A*0C
$GPGGA,205112.000,3748.6494,N,12217.9852,W,1,04,2.8,-5.5,M,-25.1,M,,0000*45
$GPGSA,A,3,10,08,28,07,,,,,,,,,3.0,2.8,1.0*3E
$GPRMC,205112.000,A,3748.6494,N,12217.9852,W,2.75,220.17,160611,,,A*78
$GPVTG,220.17,T,,M,2.75,N,5.1,K,A*0F
$GPGGA,205113.000,3748.6487,N,12217.9857,W,1,04,2.8,-5.4,M,-25.1,M,,0000*42
$GPGSA,A,3,10,08,28,07,,,,,,,,,3.0,2.8,1.0*3E
$GPGSV,3,1,12,07,65,338,32,13,62,121,27,08,46,293,39,10,40,254,39*70
$GPGSV,3,2,12,23,29,132,22,19,28,094,17,28,27,217,39,03,25,060,20*79
$GPGSV,3,3,12,05,19,309,37,06,16,049,19,16,06,042,16,48,44,197,34*79
$GPRMC,205113.000,A,3748.6487,N,12217.9857,W,2.96,215.05,160611,,,A*76
$GPVTG,215.05,T,,M,2.96,N,5.5,K,A*03
$GPGGA,205114.000,3748.6480,N,12217.9864,W,1,04,2.8,-4.9,M,-25.1,M,,0000*4E
$GPGSA,A,3,10,08,28,07,,,,,,,,,3.0,2.8,1.0*3E
$GPRMC,205114.000,A,3748.6480,N,12217.9864,W,2.89,214.25,160611,,,A*7B
$GPVTG,214.25,T,,M,2.89,N,5.3,K,A*08
$GPGGA,205115.000,3748.6472,N,12217.9869,W,1,04,2.8,-4.3,M,-25.1,M,,0000*45
$GPGSA,A,3,10,08,28,07,,,,,,,,,3.0,2.8,1.0*3E
$GPRMC,205115.000,A,3748.6472,N,12217.9869,W,2.83,209.02,160611,,,A*79
$GPVTG,209.02,T,,M,2.83,N,5.2,K,A*0A
$GPGGA,205116.000,3748.6465,N,12217.9874,W,1,04,2.8,-3.9,M,-25.1,M,,0000*41
$GPGSA,A,3,10,08,28,07,,,,,,,,,3.0,2.8,1.0*3E
$GPRMC,205116.000,A,3748.6465,N,12217.9874,W,2.73,209.85,160611,,,A*70
$GPVTG,209.85,T,,M,2.73,N,5.1,K,A*09
$GPGGA,205117.000,3748.6458,N,12217.9879,W,1,04,2.8,-3.4,M,-25.1,M,,0000*4E
$GPGSA,A,3,10,08,28,07,,,,,,,,,3.0,2.8,1.0*3E
$GPRMC,205117.000,A,3748.6458,N,12217.9879,W,2.76,213.79,160611,,,A*7F
$GPVTG,213.79,T,,M,2.76,N,5.1,K,A*04
$GPGGA,205118.000,3748.6451,N,12217.9884,W,1,04,2.8,-3.0,M,-25.1,M,,0000*4E
$GPGSA,A,3,10,08,28,07,,,,,,,,,3.0,2.8,1.0*3E
$GPGSV,3,1,12,07,65,339,32,13,62,121,27,08,46,293,39,10,39,254,39*7F
$GPGSV,3,2,12,23,29,132,22,19,29,094,21,28,27,217,39,03,25,060,20*7D
$GPGSV,3,3,12,05,19,309,36,06,15,049,18,16,06,042,15,48,44,197,33*7E
$GPRMC,205118.000,A,3748.6451,N,12217.9884,W,2.82,214.41,160611,,,A*7C
$GPGGA,205119.000,3748.6444,N,12217.9889,W,1,04,2.8,-2.7,M,-25.1,M,,0000*40
$GPGSA,A,3,10,08,28,07,,,,,,,,,3.0,2.8,1.0*3E
$GPRMC,205119.000,A,3748.6444,N,12217.9889,W,2.90,214.17,160611,,,A*74
$GPVTG,214.17,T,,M,2.90,N,5.4,K,A*06
$GPGGA,205120.000,3748.6437,N,12217.9893,W,1,04,2.8,-2.4,M,-25.1,M,,0000*46
$GPGSA,A,3,10,08,28,07,,,,,,,,,3.0,2.8,1.0*3E
$GPRMC,205120.000,A,3748.6437,N,12217.9893,W,2.72,215.41,160611,,,A*7F
$GPVTG,215.41,T,,M,2.72,N,5.0,K,A*0C
$GPGGA,205121.000,3748.6431,N,12217.9899,W,1,04,2.8,-2.0,M,-25.1,M,,0000*4F
$GPGSA,A,3,10,08,28,07,,,,,,,,,3.0,2.8,1.0*3E
$GPRMC,205121.000,A,3748.6431,N,12217.9899,W,2.88,224.03,160611,,,A*73
$GPVTG,224.03,T,,M,2.88,N,5.3,K,A*0E
$GPGGA,205122.000,3748.6425,N,12217.9905,W,1,04,2.8,-1.7,M,-25.1,M,,0000*49
$GPGSA,A,3,10,08,28,07,,,,,,,,,3.0,2.8,1.0*3E
$GPRMC,205122.000,A,3748.6425,N,12217.9905,W,2.95,223.48,160611,,,A*75
$GPVTG,223.48,T,,M,2.95,N,5.5,K,A*0C
$GPGGA,205123.000,3748.6419,N,12217.9911,W,1,04,2.8,-1.5,M,-25.1,M,,0000*40
$GPGSA,A,3,10,08,28,07,,,,,,,,,3.0,2.8,1.0*3E
$GPGSV,3,1,12,07,65,339,32,13,62,121,26,08,46,293,39,10,39,254,39*7E
$GPGSV,3,2,12,23,29,132,22,19,29,094,21,28,27,217,40,03,25,060,20*73
$GPGSV,3,3,12,05,19,309,37,06,15,049,17,16,06,042,16,48,44,197,35*75
$GPRMC,205123.000,A,3748.6419,N,12217.9911,W,2.97,219.93,160611,,,A*73
$GPVTG,219.93,T,,M,2.97,N,5.5,K,A*01
$GPGGA,205124.000,3748.6412,N,12217.9916,W,1,04,2.8,-1.3,M,-25.1,M,,0000*4D
$GPGSA,A,3,10,08,28,07,,,,,,,,,3.0,2.8,1.0*3E
$GPRMC,205124.000,A,3748.6412,N,12217.9916,W,2.96,220.07,160611,,,A*7E
$GPVTG,220.07,T,,M,2.96,N,5.5,K,A*07
$GPGGA,205125.000,3748.6406,N,12217.9922,W,1,04,2.8,-1.1,M,-25.1,M,,0000*4C
$GPGSA,A,3,10,08,28,07,,,,,,,,,3.0,2.8,1.0*3E
$GPRMC,205125.000,A,3748.6406,N,12217.9922,W,2.96,221.30,160611,,,A*78
$GPVTG,221.30,T,,M,2.96,N,5.5,K,A*02
$GPGGA,205126.000,3748.6400,N,12217.9927,W,1,04,2.8,-0.8,M,-25.1,M,,0000*44
$GPGSA,A,3,10,08,28,07,,,,,,,,,3.0,2.8,1.0*3E
$GPRMC,205126.000,A,3748.6400,N,12217.9927,W,2.94,216.55,160611,,,A*7D
$GPVTG,216.55,T,,M,2.94,N,5.4,K,A*06
$GPGGA,205127.000,3748.6393,N,12217.9932,W,1,04,2.8,-0.7,M,-25.1,M,,0000*43
$GPGSA,A,3,10,08,28,07,,,,,,,,,3.0,2.8,1.0*3E
$GPRMC,205127.000,A,3748.6393,N,12217.9932,W,2.92,212.15,160611,,,A*73
$GPVTG,212.15,T,,M,2.92,N,5.4,K,A*00
$GPGGA,205128.000,3748.6386,N,12217.9936,W,2,04,2.8,-0.6,M,-25.1,M,1.8,0000*69
$GPGSA,A,3,10,08,28,07,,,,,,,,,3.0,2.8,1.0*3E
$GPGSV,3,1,12,07,65,339,32,13,62,121,27,08,46,293,39,10,39,254,39*7F
$GPGSV,3,2,12,23,29,132,23,19,29,094,20,28,27,217,40,03,25,060,*71
$GPGSV,3,3,12,05,19,309,33,06,15,049,17,16,06,042,15,48,44,197,36*71
$GPRMC,205128.000,A,3748.6386,N,12217.9936,W,2.95,210.61,160611,,,D*7F
$GPVTG,210.61,T,,M,2.95,N,5.5,K,D*02
$GPGGA,205129.000,3748.6378,N,12217.9940,W,2,04,2.8,-0.7,M,-25.1,M,1.8,0000*69
$GPGSA,A,3,10,08,28,07,,,,,,,,,3.0,2.8,1.0*3E
$GPRMC,205129.000,A,3748.6378,N,12217.9940,W,2.91,209.64,160611,,,D*77
$GPVTG,209.64,T,,M,2.91,N,5.4,K,D*0A
$GPGGA,205130.000,3748.6372,N,12217.9944,W,2,04,2.8,-0.7,M,-25.1,M,2.8,0000*6C
$GPGSA,A,3,10,08,28,07,,,,,,,,,3.0,2.8,1.0*3E
$GPRMC,205130.000,A,3748.6372,N,12217.9944,W,2.76,211.61,160611,,,D*74
$GPVTG,211.61,T,,M,2.76,N,5.1,K,D*0A
$GPGGA,205131.000,3748.6365,N,12217.9948,W,2,04,2.8,-0.8,M,-25.1,M,3.8,0000*69
$GPGSA,A,3,10,08,28,07,,,,,,,,,3.0,2.8,1.0*3E
$GPRMC,205131.000,A,3748.6365,N,12217.9948,W,2.90,213.38,160611,,,D*79
$GPVTG,213.38,T,,M,2.90,N,5.4,K,D*09
$GPGGA,205132.000,3748.6358,N,12217.9952,W,2,04,2.8,-0.8,M,-25.1,M,4.8,0000*68
$GPGSA,A,3,10,08,28,07,,,,,,,,,3.0,2.8,1.0*3E
$GPRMC,205132.000,A,3748.6358,N,12217.9952,W,2.99,214.64,160611,,,D*78
$GPVTG,214.64,T,,M,2.99,N,5.5,K,D*0F
$GPGGA,205133.000,3748.6351,N,12217.9957,W,2,04,2.8,-0.8,M,-25.1,M,1.8,0000*60
$GPGSA,A,3,10,08,28,07,,,,,,,,,3.0,2.8,1.0*3E
$GPGSV,3,1,12,07,65,339,32,13,62,121,27,08,46,293,39,10,39,254,39*7F
$GPGSV,3,2,12,23,29,132,30,19,29,094,20,28,27,217,40,03,25,060,*73
$GPGSV,3,3,12,05,19,309,37,06,15,049,17,16,06,042,15,48,44,197,35*76
$GPRMC,205133.000,A,3748.6351,N,12217.9957,W,2.79,215.05,160611,,,D*7D
$GPGGA,205134.000,3748.6345,N,12217.9962,W,2,04,2.8,-0.9,M,-25.1,M,2.8,0000*66
$GPGSA,A,3,10,08,28,07,,,,,,,,,3.0,2.8,1.0*3E
$GPRMC,205134.000,A,3748.6345,N,12217.9962,W,2.84,214.79,160611,,,D*71
$GPVTG,214.79,T,,M,2.84,N,5.3,K,D*09
$GPGGA,205135.000,3748.6338,N,12217.9967,W,2,04,2.8,-0.9,M,-25.1,M,1.8,0000*6B
$GPGSA,A,3,10,08,28,07,,,,,,,,,3.0,2.8,1.0*3E
$GPRMC,205135.000,A,3748.6338,N,12217.9967,W,2.98,214.12,160611,,,D*7F
$GPVTG,214.12,T,,M,2.98,N,5.5,K,D*0F
$GPGGA,205136.000,3748.6331,N,12217.9971,W,2,04,2.8,-0.9,M,-25.1,M,2.8,0000*65
$GPGSA,A,3,10,08,28,07,,,,,,,,,3.0,2.8,1.0*3E
$GPRMC,205136.000,A,3748.6331,N,12217.9971,W,2.87,213.02,160611,,,D*7A
$GPVTG,213.02,T,,M,2.87,N,5.3,K,D*01
$GPGGA,205137.000,3748.6324,N,12217.9976,W,2,04,2.8,-0.9,M,-25.1,M,1.8,0000*64
$GPGSA,A,3,10,08,28,07,,,,,,,,,3.0,2.8,1.0*3E
$GPRMC,205137.000,A,3748.6324,N,12217.9976,W,3.01,215.30,160611,,,D*70
$GPVTG,215.30,T,,M,3.01,N,5.6,K,D*0C
$GPGGA,205138.000,3748.6317,N,12217.9981,W,2,04,2.8,-0.9,M,-25.1,M,2.8,0000*60
$GPGSA,A,3,10,08,28,07,,,,,,,,,3.0,2.8,1.0*3E
$GPGSV,3,1,12,07,65,339,32,13,62,121,27,08,46,293,39,10,39,254,40*71
$GPGSV,3,2,12,23,29,132,22,19,29,094,21,28,27,217,40,03,25,060,*71
$GPGSV,3,3,12,05,19,309,36,06,15,049,18,16,06,042,13,48,44,197,35*7E
$GPRMC,205138.000,A,3748.6317,N,12217.9981,W,2.92,211.72,160611,,,D*7E
$GPVTG,211.72,T,,M,2.92,N,5.4,K,D*07
$GPGGA,205139.000,3748.6310,N,12217.9985,W,2,04,2.8,-0.9,M,-25.1,M,1.8,0000*61
$GPGSA,A,3,10,08,28,07,,,,,,,,,3.0,2.8,1.0*3E
$GPRMC,205139.000,A,3748.6310,N,12217.9985,W,2.91,209.68,160611,,,D*7D
$GPVTG,209.68,T,,M,2.91,N,5.4,K,D*06
$GPGGA,205140.000,3748.6303,N,12217.9990,W,2,04,2.8,-0.9,M,-25.1,M,1.8,0000*69
$GPGSA,A,3,10,08,28,07,,,,,,,,,3.0,2.8,1.0*3E
$GPRMC,205140.000,A,3748.6303,N,12217.9990,W,2.85,213.51,160611,,,D*71
$GPVTG,213.51,T,,M,2.85,N,5.3,K,D*05
$GPGGA,205141.000,3748.6296,N,12217.9993,W,2,04,2.8,-0.9,M,-25.1,M,1.8,0000*66
$GPGSA,A,3,10,08,28,07,,,,,,,,,3.0,2.8,1.0*3E
$GPRMC,205141.000,A,3748.6296,N,12217.9993,W,2.57,207.97,160611,,,D*7E
$GPVTG,207.97,T,,M,2.57,N,4.8,K,D*0F
$GPGGA,205142.000,3748.6290,N,12217.9997,W,2,04,2.8,-1.0,M,-25.1,M,2.8,0000*6C
$GPGSA,A,3,10,08,28,07,,,,,,,,,3.0,2.8,1.0*3E
$GPRMC,205142.000,A,3748.6290,N,12217.9997,W,2.70,214.66,160611,,,D*76
$GPVTG,214.66,T,,M,2.70,N,5.0,K,D*0F
$GPGGA,205143.000,3748.6284,N,12218.0002,W,2,04,2.8,-1.1,M,-25.1,M,3.8,0000*6B
$GPGSA,A,3,10,08,28,07,,,,,,,,,3.0,2.8,1.0*3E
$GPGSV,3,1,12,07,65,339,31,13,62,121,27,08,46,293,39,10,39,254,40*72
$GPGSV,3,2,12,23,29,132,22,19,29,094,21,28,27,217,40,03,25,060,22*71
$GPGSV,3,3,12,05,19,309,20,06,15,049,18,16,06,042,13,48,44,197,26*7B
$GPRMC,205143.000,A,3748.6284,N,12218.0002,W,2.79,218.64,160611,,,D*76
$GPVTG,218.64,T,,M,2.79,N,5.2,K,D*0A
$GPGGA,205144.000,3748.6279,N,12218.0007,W,2,04,2.8,-1.1,M,-25.1,M,4.8,0000*6C
$GPGSA,A,3,10,08,28,07,,,,,,,,,3.0,2.8,1.0*3E
$GPRMC,205144.000,A,3748.6279,N,12218.0007,W,2.74,218.89,160611,,,D*78
$GPVTG,218.89,T,,M,2.74,N,5.1,K,D*07
$GPGGA,205145.000,3748.6273,N,12218.0012,W,2,04,2.8,-1.2,M,-25.1,M,5.8,0000*61
$GPGSA,A,3,10,08,28,07,,,,,,,,,3.0,2.8,1.0*3E
$GPRMC,205145.000,A,3748.6273,N,12218.0012,W,2.78,220.65,160611,,,D*72
$GPVTG,220.65,T,,M,2.78,N,5.2,K,D*01
$GPGGA,205146.000,3748.6267,N,12218.0017,W,2,04,2.8,-1.2,M,-25.1,M,6.8,0000*61
$GPGSA,A,3,10,08,28,07,,,,,,,,,3.0,2.8,1.0*3E
$GPRMC,205146.000,A,3748.6267,N,12218.0017,W,2.90,218.07,160611,,,D*78
$GPVTG,218.07,T,,M,2.90,N,5.4,K,D*0E
$GPGGA,205147.000,3748.6260,N,12218.0023,W,2,04,2.8,-1.3,M,-25.1,M,7.8,0000*60
$GPGSA,A,3,10,08,28,07,,,,,,,,,3.0,2.8,1.0*3E
$GPRMC,205147.000,A,3748.6260,N,12218.0023,W,2.95,214.97,160611,,,D*79
$GPVTG,214.97,T,,M,2.95,N,5.5,K,D*0F
$GPGGA,205148.000,3748.6254,N,12218.0027,W,2,04,2.8,-1.4,M,-25.1,M,8.8,0000*64
$GPGSA,A,3,10,08,28,07,,,,,,,,,3.0,2.8,1.0*3E
$GPGSV,3,1,12,07,65,339,32,13,62,121,20,08,46,293,39,10,39,254,39*78
$GPGSV,3,2,12,19,29,094,21,23,29,132,22,28,27,217,40,03,25,060,22*71
$GPGSV,3,3,12,05,19,309,25,06,15,048,26,16,06,042,15,48,44,197,37*74
$GPVTG,214.24,T,,M,2.87,N,5.3,K,D*02
$GPGGA,205149.000,3748.6247,N,12218.0031,W,2,04,2.8,-1.5,M,-25.1,M,9.8,0000*60
$GPGSA,A,3,10,08,28,07,,,,,,,,,3.0,2.8,1.0*3E
$GPRMC,205149.000,A,3748.6247,N,12218.0031,W,2.88,203.41,160611,,,D*70
$GPVTG,203.41,T,,M,2.88,N,5.3,K,D*08
$GPGGA,205150.000,3748.6240,N,12218.0031,W,2,04,2.8,-1.6,M,-25.1,M,10.8,0000*54
$GPGSA,A,3,10,08,28,07,,,,,,,,,3.0,2.8,1.0*3E
$GPRMC,205150.000,A,3748.6240,N,12218.0031,W,2.55,183.11,160611,,,D*71
$GPVTG,183.11,T,,M,2.55,N,4.7,K,D*03
$GPGGA,205151.000,3748.6233,N,12218.0027,W,2,04,2.8,-1.7,M,-25.1,M,1.8,0000*67
$GPGSA,A,3,10,08,28,07,,,,,,,,,3.0,2.8,1.0*3E
$GPRMC,205151.000,A,3748.6233,N,12218.0027,W,2.43,163.38,160611,,,D*71
$GPVTG,163.38,T,,M,2.43,N,4.5,K,D*03
$GPGGA,205152.000,3748.6228,N,12218.0023,W,2,04,2.8,-2.0,M,-25.1,M,1.8,0000*6E
$GPGSA,A,3,10,08,28,07,,,,,,,,,3.0,2.8,1.0*3E
$GPRMC,205152.000,A,3748.6228,N,12218.0023,W,1.96,141.16,160611,,,D*7B
$GPVTG,141.16,T,,M,1.96,N,3.6,K,D*00
$GPGGA,205153.000,3748.6227,N,12218.0017,W,2,04,2.8,-2.5,M,-25.1,M,1.8,0000*62
$GPGSA,A,3,10,08,28,07,,,,,,,,,3.0,2.8,1.0*3E
$GPGSV,3,1,12,07,65,339,21,13,62,121,34,08,46,293,23,10,39,254,33*7E
$GPGSV,3,2,12,19,29,094,20,23,29,132,37,28,27,217,40,03,25,060,22*74
$GPGSV,3,3,12,05,19,309,30,06,15,048,24,16,06,042,15,48,44,197,39*7C
$GPRMC,205153.000,A,3748.6227,N,12218.0017,W,1.90,108.76,160611,,,D*7F
$GPVTG,108.76,T,,M,1.90,N,3.5,K,D*0E
$GPGGA,205154.000,3748.6222,N,12218.0003,W,2,04,2.8,-1.7,M,-25.1,M,1.8,0000*64
$GPGSA,A,3,10,08,28,07,,,,,,,,,3.0,2.8,1.0*3E
$GPRMC,205154.000,A,3748.6222,N,12218.0003,W,2.88,97.14,160611,,,D*41
$GPVTG,97.14,T,,M,2.88,N,5.3,K,D*37
$GPGGA,205155.000,3748.6215,N,12217.9995,W,2,04,2.8,-1.5,M,-25.1,M,2.8,0000*60
$GPGSA,A,3,10,08,28,07,,,,,,,,,3.0,2.8,1.0*3E
$GPRMC,205155.000,A,3748.6215,N,12217.9995,W,3.28,99.31,160611,,,D*46
$GPVTG,99.31,T,,M,3.28,N,6.1,K,D*34
$GPGGA,205156.000,3748.6211,N,12217.9986,W,2,04,2.8,-1.2,M,-25.1,M,3.8,0000*63
$GPGSA,A,3,10,08,28,07,,,,,,,,,3.0,2.8,1.0*3E
$GPRMC,205156.000,A,3748.6211,N,12217.9986,W,3.48,95.93,160611,,,D*41
$GPVTG,95.93,T,,M,3.48,N,6.5,K,D*32
$GPGGA,205157.000,3748.6206,N,12217.9980,W,2,04,2.8,-1.0,M,-25.1,M,1.8,0000*62
$GPGSA,A,3,10,08,28,07,,,,,,,,,3.0,2.8,1.0*3E
$GPRMC,205157.000,A,3748.6206,N,12217.9980,W,3.10,99.20,160611,,,D*49
$GPVTG,99.20,T,,M,3.10,N,5.7,K,D*3A
$GPGGA,205158.000,3748.6206,N,12217.9978,W,2,04,2.8,-2.2,M,-25.1,M,1.8,0000*6B
$GPGSA,A,3,10,08,28,07,,,,,,,,,3.0,2.8,1.0*3E
$GPGSV,3,1,12,07,65,339,20,13,62,121,34,08,46,293,25,10,39,254,34*7E
$GPGSV,3,2,12,19,29,094,21,23,29,132,39,28,27,217,34,03,25,060,21*7B
$GPGSV,3,3,12,05,19,309,21,06,15,048,19,16,06,042,17,48,44,197,35*7C
$GPRMC,205158.000,A,3748.6206,N,12217.9978,W,2.56,107.50,160611,,,D*73
$GPVTG,107.50,T,,M,2.56,N,4.7,K,D*09
$GPGGA,205159.000,3748.6202,N,12217.9977,W,2,04,2.8,-2.4,M,-25.1,M,2.8,0000*64
$GPGSA,A,3,10,08,28,07,,,,,,,,,3.0,2.8,1.0*3E
$GPRMC,205159.000,A,3748.6202,N,12217.9977,W,3.09,134.03,160611,,,D*74
$GPVTG,134.03,T,,M,3.09,N,5.7,K,D*05
$GPGGA,205200.000,3748.6197,N,12217.9978,W,2,04,2.8,-3.0,M,-25.1,M,3.8,0000*6F
$GPGSA,A,3,10,08,28,07,,,,,,,,,3.0,2.8,1.0*3E
$GPRMC,205200.000,A,3748.6197,N,12217.9978,W,2.72,128.96,160611,,,D*77
$GPVTG,128.96,T,,M,2.72,N,5.0,K,D*0E
$GPGGA,205201.000,3748.6194,N,12217.9980,W,2,04,2.8,-4.0,M,-25.1,M,4.8,0000*6A
$GPGSA,A,3,10,08,28,07,,,,,,,,,3.0,2.8,1.0*3E
$GPRMC,205201.000,A,3748.6194,N,12217.9980,W,2.56,124.56,160611,,,D*74
$GPVTG,124.56,T,,M,2.56,N,4.7,K,D*0E
$GPGGA,205202.000,3748.6188,N,12217.9982,W,2,04,2.8,-4.5,M,-25.1,M,5.8,0000*62
$GPGSA,A,3,10,08,28,07,,,,,,,,,3.0,2.8,1.0*3E
$GPRMC,205202.000,A,3748.6188,N,12217.9982,W,2.55,127.62,160611,,,D*7F
$GPVTG,127.62,T,,M,2.55,N,4.7,K,D*09
$GPGGA,205203.000,3748.6184,N,12217.9968,W,2,04,2.8,-4.5,M,-25.1,M,1.8,0000*6F
$GPGSA,A,3,10,08,28,07,,,,,,,,,3.0,2.8,1.0*3E
$GPGSV,3,1,12,07,65,339,26,13,62,121,35,08,46,293,26,10,39,254,34*7A
$GPGSV,3,2,12,19,29,094,28,23,29,132,39,28,27,217,34,03,25,060,22*71
$GPGSV,3,3,12,05,19,309,21,06,15,048,21,16,06,042,17,48,44,197,39*7B
$GPVTG,113.05,T,,M,2.39,N,4.4,K,D*06
$GPGGA,205204.000,3748.6176,N,12217.9948,W,2,04,2.8,-3.6,M,-25.1,M,1.8,0000*63
$GPGSA,A,3,10,08,28,07,,,,,,,,,3.0,2.8,1.0*3E
$GPRMC,205204.000,A,3748.6176,N,12217.9948,W,3.06,109.22,160611,,,D*71
$GPVTG,109.22,T,,M,3.06,N,5.7,K,D*07
$GPGGA,205205.000,3748.6164,N,12217.9921,W,2,04,2.8,-1.8,M,-25.1,M,1.8,0000*62
$GPGSA,A,3,10,08,28,07,,,,,,,,,3.0,2.8,1.0*3E
$GPRMC,205205.000,A,3748.6164,N,12217.9921,W,3.31,111.51,160611,,,D*75
$GPVTG,111.51,T,,M,3.31,N,6.1,K,D*0B
$GPGGA,205206.000,3748.6160,N,12217.9911,W,2,04,2.8,-1.9,M,-25.1,M,2.8,0000*64
$GPGSA,A,3,10,08,28,07,,,,,,,,,3.0,2.8,1.0*3E
$GPRMC,205206.000,A,3748.6160,N,12217.9911,W,2.57,114.98,160611,,,D*70
$GPVTG,114.98,T,,M,2.57,N,4.8,K,D*01
$GPGGA,205207.000,3748.6149,N,12217.9887,W,2,04,2.8,-0.3,M,-25.1,M,3.8,0000*6A
$GPGSA,A,3,10,08,28,07,,,,,,,,,3.0,2.8,1.0*3E
$GPRMC,205207.000,A,3748.6149,N,12217.9887,W,2.97,112.42,160611,,,D*79
$GPVTG,112.42,T,,M,2.97,N,5.5,K,D*00
$GPGGA,205208.000,3748.6135,N,12217.9867,W,2,04,2.8,1.8,M,-25.1,M,4.8,0000*40
$GPGSA,A,3,10,08,28,07,,,,,,,,,3.0,2.8,1.0*3E
$GPGSV,3,1,12,07,65,339,26,13,62,121,35,08,46,293,25,10,39,254,34*79
$GPGSV,3,2,12,19,29,094,34,23,29,132,39,28,27,217,35,03,25,060,23*7C
$GPGSV,3,3,12,05,19,309,20,06,15,048,21,16,06,042,18,48,44,197,41*7A
$GPRMC,205208.000,A,3748.6135,N,12217.9867,W,3.26,117.96,160611,,,D*74
$GPVTG,117.96,T,,M,3.26,N,6.0,K,D*01
$GPGGA,205209.000,3748.6125,N,12217.9857,W,2,04,2.8,2.8,M,-25.1,M,1.8,0000*45
$GPGSA,A,3,10,08,28,07,,,,,,,,,3.0,2.8,1.0*3E
$GPRMC,205209.000,A,3748.6125,N,12217.9857,W,2.90,118.95,160611,,,D*77
$GPVTG,118.95,T,,M,2.90,N,5.4,K,D*06
$GPGGA,205210.000,3748.6119,N,12217.9849,W,2,04,2.8,3.5,M,-25.1,M,1.8,0000*41
$GPGSA,A,3,10,08,28,07,,,,,,,,,3.0,2.8,1.0*3E
$GPRMC,205210.000,A,3748.6119,N,12217.9849,W,2.52,115.93,160611,,,D*7A
$GPVTG,115.93,T,,M,2.52,N,4.7,K,D*01
$GPGGA,205211.000,3748.6119,N,12217.9845,W,2,04,2.8,3.1,M,-25.1,M,1.8,0000*48
$GPGSA,A,3,10,08,28,07,,,,,,,,,3.0,2.8,1.0*3E
$GPRMC,205211.000,A,3748.6119,N,12217.9845,W,1.91,120.37,160611,,,D*73
$GPVTG,120.37,T,,M,1.91,N,3.5,K,D*00
$GPGGA,205212.000,3748.6115,N,12217.9829,W,2,04,2.8,3.8,M,-25.1,M,1.8,0000*44
$GPGSA,A,3,10,08,28,07,,,,,,,,,3.0,2.8,1.0*3E
$GPRMC,205212.000,A,3748.6115,N,12217.9829,W,2.44,111.67,160611,,,D*7A
$GPVTG,111.67,T,,M,2.44,N,4.5,K,D*0B
$GPGGA,205213.000,3748.6108,N,12217.9816,W,2,04,2.8,5.0,M,-25.1,M,1.8,0000*4B
$GPGSA,A,3,10,08,28,07,,,,,,,,,3.0,2.8,1.0*3E
$GPGSV,3,1,12,07,65,339,27,13,62,121,36,08,46,293,25,10,39,254,33*7C
$GPGSV,3,2,12,19,29,094,35,23,29,132,39,28,27,217,36,03,25,060,30*7C
$GPGSV,3,3,12,05,19,309,21,06,15,048,21,16,06,042,18,48,44,197,40*7A
$GPRMC,205213.000,A,3748.6108,N,12217.9816,W,2.26,106.35,160611,,,D*7E
$GPVTG,106.35,T,,M,2.26,N,4.2,K,D*09
$GPGGA,205214.000,3748.6107,N,12217.9799,W,2,04,2.8,5.7,M,-25.1,M,2.8,0000*4F
$GPGSA,A,3,10,08,28,07,,,,,,,,,3.0,2.8,1.0*3E
$GPRMC,205214.000,A,3748.6107,N,12217.9799,W,2.25,96.90,160611,,,D*4A
$GPVTG,96.90,T,,M,2.25,N,4.2,K,D*3D
$GPGGA,205215.000,3748.6105,N,12217.9791,W,2,04,2.8,5.7,M,-25.1,M,1.8,0000*47
$GPGSA,A,3,10,08,28,07,,,,,,,,,3.0,2.8,1.0*3E
$GPRMC,205215.000,A,3748.6105,N,12217.9791,W,2.12,100.61,160611,,,D*75
$GPVTG,100.61,T,,M,2.12,N,3.9,K,D*05
$GPGGA,205216.000,3748.6106,N,12217.9790,W,2,04,2.8,4.8,M,-25.1,M,1.8,0000*48
$GPGSA,A,3,10,08,28,07,,,,,,,,,3.0,2.8,1.0*3E
$GPRMC,205216.000,A,3748.6106,N,12217.9790,W,1.95,108.33,160611,,,D*77
$GPVTG,108.33,T,,M,1.95,N,3.6,K,D*09
$GPGGA,205217.000,3748.6099,N,12217.9771,W,2,04,2.8,5.9,M,-25.1,M,2.8,0000*42
$GPGSA,A,3,10,08,28,07,,,,,,,,,3.0,2.8,1.0*3E
$GPRMC,205217.000,A,3748.6099,N,12217.9771,W,2.40,112.59,160611,,,D*72
$GPVTG,112.59,T,,M,2.40,N,4.4,K,D*00
$GPGGA,205218.000,3748.6096,N,12217.9769,W,2,04,2.8,5.4,M,-25.1,M,1.8,0000*45
$GPGSA,A,3,10,08,28,07,,,,,,,,,3.0,2.8,1.0*3E
$GPGSV,3,1,12,07,65,339,27,13,62,121,36,08,46,293,25,10,39,254,33*7C
$GPGSV,3,2,12,19,29,094,36,23,29,132,39,28,27,217,37,03,25,060,24*7B
$GPGSV,3,3,12,05,19,309,22,06,15,048,21,16,06,042,17,48,44,197,39*78
$GPVTG,127.81,T,,M,1.96,N,3.6,K,D*0E
$GPGGA,205219.000,3748.6088,N,12217.9762,W,2,04,2.8,6.2,M,-25.1,M,2.8,0000*46
$GPGSA,A,3,10,08,28,07,,,,,,,,,3.0,2.8,1.0*3E
$GPRMC,205219.000,A,3748.6088,N,12217.9762,W,2.14,118.46,160611,,,D*7B
$GPVTG,118.46,T,,M,2.14,N,4.0,K,D*01
$GPGGA,205220.000,3748.6088,N,12217.9758,W,2,04,2.8,5.5,M,-25.1,M,3.8,0000*40
$GPGSA,A,3,10,08,28,07,,,,,,,,,3.0,2.8,1.0*3E
$GPRMC,205220.000,A,3748.6088,N,12217.9758,W,1.78,125.32,160611,,,D*7C
$GPVTG,125.32,T,,M,1.78,N,3.3,K,D*01
$GPGGA,205221.000,3748.6083,N,12217.9746,W,2,04,2.8,5.8,M,-25.1,M,1.8,0000*4A
$GPGSA,A,3,10,08,28,07,,,,,,,,,3.0,2.8,1.0*3E
$GPRMC,205221.000,A,3748.6083,N,12217.9746,W,2.51,128.19,160611,,,D*75
$GPVTG,128.19,T,,M,2.51,N,4.7,K,D*0E
$GPGGA,205222.000,3748.6080,N,12217.9739,W,2,04,2.8,5.7,M,-25.1,M,1.8,0000*4D
$GPGSA,A,3,10,08,28,07,,,,,,,,,3.0,2.8,1.0*3E
$GPRMC,205222.000,A,3748.6080,N,12217.9739,W,2.22,123.18,160611,,,D*73
$GPVTG,123.18,T,,M,2.22,N,4.1,K,D*06
$GPGGA,205223.000,3748.6077,N,12217.9733,W,2,04,2.8,5.3,M,-25.1,M,1.8,0000*4A
$GPGSA,A,3,10,08,28,07,,,,,,,,,3.0,2.8,1.0*3E
$GPGSV,3,1,12,07,65,339,27,13,62,121,36,08,46,293,26,10,39,254,34*78
$GPGSV,3,2,12,19,29,094,36,23,29,132,39,28,27,217,38,03,25,060,31*70
$GPGSV,3,3,12,05,19,309,27,06,15,048,21,16,06,042,16,48,44,197,40*72
$GPRMC,205223.000,A,3748.6077,N,12217.9733,W,2.46,120.71,160611,,,D*7E
$GPVTG,120.71,T,,M,2.46,N,4.6,K,D*0F
$GPGGA,205224.000,3748.6069,N,12217.9712,W,2,04,2.8,6.6,M,-25.1,M,2.8,0000*44
$GPGSA,A,3,10,08,28,07,,,,,,,,,3.0,2.8,1.0*3E
$GPRMC,205224.000,A,3748.6069,N,12217.9712,W,2.87,108.66,160611,,,D*74
$GPVTG,108.66,T,,M,2.87,N,5.3,K,D*0A
$GPGGA,205225.000,3748.6064,N,12217.9703,W,2,04,2.8,7.0,M,-25.1,M,3.8,0000*4E
$GPGSA,A,3,10,08,28,07,,,,,,,,,3.0,2.8,1.0*3E
$GPRMC,205225.000,A,3748.6064,N,12217.9703,W,2.45,112.90,160611,,,D*74
$GPVTG,112.90,T,,M,2.45,N,4.5,K,D*01
$GPGGA,205226.000,3748.6058,N,12217.9694,W,2,04,2.8,7.6,M,-25.1,M,4.8,0000*4C
$GPGSA,A,3,10,08,28,07,,,,,,,,,3.0,2.8,1.0*3E
$GPRMC,205226.000,A,3748.6058,N,12217.9694,W,2.75,117.43,160611,,,D*7F
$GPVTG,117.43,T,,M,2.75,N,5.1,K,D*0C
$GPGGA,205227.000,3748.6055,N,12217.9697,W,2,06,2.2,7.7,M,-25.1,M,1.8,0000*4F
$GPGSA,A,3,10,08,28,07,13,23,,,,,,,4.9,2.2,4.4*38
$GPRMC,205227.000,A,3748.6055,N,12217.9697,W,2.67,112.20,160611,,,D*73
$GPVTG,112.20,T,,M,2.67,N,4.9,K,D*06
$GPGGA,205228.000,3748.6052,N,12217.9693,W,2,06,2.2,7.2,M,-25.1,M,1.8,0000*46
$GPGSA,A,3,10,08,28,07,13,23,,,,,,,4.9,2.2,4.4*38
$GPGSV,3,1,12,07,65,340,27,13,62,122,36,08,46,294,26,10,39,253,34*75
$GPGSV,3,2,12,19,29,093,36,23,28,132,39,28,28,217,38,03,24,059,24*76
$GPGSV,3,3,12,05,19,308,26,06,15,048,19,16,06,042,17,48,44,197,40*78
$GPRMC,205228.000,A,3748.6052,N,12217.9693,W,2.64,111.29,160611,,,D*76
$GPVTG,111.29,T,,M,2.64,N,4.9,K,D*0F
$GPGGA,205229.000,3748.6047,N,12217.9686,W,2,06,2.2,6.7,M,-25.1,M,1.8,0000*43
$GPGSA,A,3,10,08,28,07,13,23,,,,,,,4.9,2.2,4.4*38
$GPRMC,205229.000,A,3748.6047,N,12217.9686,W,2.72,112.33,160611,,,D*78
$GPVTG,112.33,T,,M,2.72,N,5.0,K,D*08
$GPGGA,205230.000,3748.6039,N,12217.9677,W,2,06,2.2,7.7,M,-25.1,M,2.8,0000*4E
$GPGSA,A,3,10,08,28,07,13,23,,,,,,,4.9,2.2,4.4*38
$GPRMC,205230.000,A,3748.6039,N,12217.9677,W,2.69,110.24,160611,,,D*79
$GPVTG,110.24,T,,M,2.69,N,5.0,K,D*06
$GPGGA,205231.000,3748.6034,N,12217.9669,W,2,06,2.2,7.8,M,-25.1,M,3.8,0000*43
$GPGSA,A,3,10,08,28,07,13,23,,,,,,,4.9,2.2,4.4*38
$GPRMC,205231.000,A,3748.6034,N,12217.9669,W,2.63,113.14,160611,,,D*70
$GPVTG,113.14,T,,M,2.63,N,4.9,K,D*04
$GPGGA,205232.000,3748.6029,N,12217.9662,W,2,06,2.2,8.2,M,-25.1,M,1.8,0000*40
$GPGSA,A,3,10,08,28,07,13,23,,,,,,,4.9,2.2,4.4*38
$GPRMC,205232.000,A,3748.6029,N,12217.9662,W,2.69,114.89,160611,,,D*7D
$GPVTG,114.89,T,,M,2.69,N,5.0,K,D*05
$GPGGA,205233.000,3748.6027,N,12217.9654,W,2,07,1.5,7.2,M,-25.1,M,1.8,0000*40
$GPGSA,A,3,10,08,28,07,13,19,23,,,,,,3.3,1.5,2.9*32
$GPGSV,3,1,12,07,65,340,27,13,62,122,36,08,46,294,25,10,39,253,34*76
$GPGSV,3,2,12,19,29,093,36,23,28,132,39,28,28,217,39,03,24,059,25*76
$GPGSV,3,3,12,05,19,308,25,06,15,048,18,16,06,042,20,48,44,197,39*70
$GPVTG,117.26,T,,M,2.60,N,4.8,K,D*03
$GPGGA,205234.000,3748.6025,N,12217.9647,W,2,07,1.5,6.2,M,-25.1,M,1.8,0000*46
$GPGSA,A,3,10,08,28,07,13,19,23,,,,,,3.3,1.5,2.9*32
$GPRMC,205234.000,A,3748.6025,N,12217.9647,W,2.55,114.35,160611,,,D*78
$GPVTG,114.35,T,,M,2.55,N,4.7,K,D*0B
$GPGGA,205235.000,3748.6023,N,12217.9640,W,2,07,1.5,5.3,M,-25.1,M,1.8,0000*44
$GPGSA,A,3,10,08,28,07,13,19,23,,,,,,3.3,1.5,2.9*32
$GPRMC,205235.000,A,3748.6023,N,12217.9640,W,2.74,117.93,160611,,,D*74
$GPVTG,117.93,T,,M,2.74,N,5.1,K,D*00
$GPGGA,205236.000,3748.6021,N,12217.9633,W,2,07,1.5,4.5,M,-25.1,M,2.8,0000*45
$GPGSA,A,3,10,08,28,07,13,19,23,,,,,,3.3,1.5,2.9*32
$GPRMC,205236.000,A,3748.6021,N,12217.9633,W,2.26,115.63,160611,,,D*7B
$GPVTG,115.63,T,,M,2.26,N,4.2,K,D*08
$GPGGA,205237.000,3748.6019,N,12217.9627,W,2,07,1.5,3.9,M,-25.1,M,3.8,0000*40
$GPGSA,A,3,10,08,28,07,13,19,23,,,,,,3.3,1.5,2.9*32
$GPRMC,205237.000,A,3748.6019,N,12217.9627,W,2.33,114.13,160611,,,D*76
$GPVTG,114.13,T,,M,2.33,N,4.3,K,D*0B
$GPGGA,205238.000,3748.6017,N,12217.9621,W,2,07,1.5,3.2,M,-25.1,M,4.8,0000*4B
$GPGSA,A,3,10,08,28,07,13,19,23,,,,,,3.3,1.5,2.9*32
$GPGSV,3,1,12,07,65,340,27,13,61,122,36,08,46,294,25,10,39,253,33*72
$GPGSV,3,2,12,19,29,093,37,23,28,132,38,28,28,217,28,03,24,059,28*7B
$GPGSV,3,3,12,05,19,308,24,06,15,048,24,16,06,042,30,48,44,197,39*7F
$GPRMC,205238.000,A,3748.6017,N,12217.9621,W,2.51,125.01,160611,,,D*74
$GPVTG,125.01,T,,M,2.51,N,4.7,K,D*0A
$GPGGA,205239.000,3748.6015,N,12217.9615,W,2,07,1.5,2.5,M,-25.1,M,1.8,0000*4C
$GPGSA,A,3,10,08,28,07,13,19,23,,,,,,3.3,1.5,2.9*32
$GPRMC,205239.000,A,3748.6015,N,12217.9615,W,2.27,111.56,160611,,,D*74
$GPVTG,111.56,T,,M,2.27,N,4.2,K,D*0B
$GPGGA,205240.000,3748.6013,N,12217.9608,W,2,07,1.5,1.9,M,-25.1,M,1.8,0000*47
$GPGSA,A,3,10,08,28,07,13,19,23,,,,,,3.3,1.5,2.9*32
$GPRMC,205240.000,A,3748.6013,N,12217.9608,W,2.46,116.61,160611,,,D*74
$GPVTG,116.61,T,,M,2.46,N,4.6,K,D*0B
$GPGGA,205241.000,3748.6010,N,12217.9600,W,2,07,1.5,1.5,M,-25.1,M,1.8,0000*41
$GPGSA,A,3,10,08,28,07,13,19,23,,,,,,3.3,1.5,2.9*32
$GPRMC,205241.000,A,3748.6010,N,12217.9600,W,2.59,113.24,160611,,,D*74
$GPVTG,113.24,T,,M,2.59,N,4.8,K,D*0F
$GPGGA,205242.000,3748.6007,N,12217.9591,W,2,07,1.5,1.0,M,-25.1,M,1.8,0000*4A
$GPGSA,A,3,10,08,28,07,13,19,23,,,,,,3.3,1.5,2.9*32
$GPRMC,205242.000,A,3748.6007,N,12217.9591,W,2.57,111.32,160611,,,D*71
$GPVTG,111.32,T,,M,2.57,N,4.8,K,D*04
$GPGGA,205243.000,3748.6001,N,12217.9582,W,2,07,1.5,1.3,M,-25.1,M,1.8,0000*4C
$GPGSA,A,3,10,08,28,07,13,19,23,,,,,,3.3,1.5,2.9*32
$GPGSV,3,1,12,07,65,340,27,13,61,122,36,08,46,294,25,10,39,253,34*75
$GPGSV,3,2,12,19,29,093,25,23,28,132,38,28,28,217,38,03,24,059,22*73
$GPGSV,3,3,12,05,19,308,25,06,15,048,23,16,06,042,19,48,44,197,40*7C
$GPRMC,205243.000,A,3748.6001,N,12217.9582,W,2.63,112.25,160611,,,D*76
$GPVTG,112.25,T,,M,2.63,N,4.9,K,D*07
$GPGGA,205244.000,3748.5995,N,12217.9572,W,2,07,1.5,1.7,M,-25.1,M,1.8,0000*47
$GPGSA,A,3,10,08,28,07,13,19,23,,,,,,3.3,1.5,2.9*32
$GPRMC,205244.000,A,3748.5995,N,12217.9572,W,2.75,117.76,160611,,,D*7D
$GPVTG,117.76,T,,M,2.75,N,5.1,K,D*0A
$GPGGA,205245.000,3748.5986,N,12217.9562,W,2,07,1.5,2.3,M,-25.1,M,1.8,0000*42
$GPGSA,A,3,10,08,28,07,13,19,23,,,,,,3.3,1.5,2.9*32
$GPRMC,205245.000,A,3748.5986,N,12217.9562,W,3.02,116.59,160611,,,D*72
$GPVTG,116.59,T,,M,3.02,N,5.6,K,D*00
$GPGGA,205246.000,3748.5982,N,12217.9553,W,2,07,1.5,2.2,M,-25.1,M,1.8,0000*46
$GPGSA,A,3,10,08,28,07,13,19,23,,,,,,3.3,1.5,2.9*32
$GPRMC,205246.000,A,3748.5982,N,12217.9553,W,2.86,113.34,160611,,,D*74
$GPVTG,113.34,T,,M,2.86,N,5.3,K,D*06
$GPGGA,205247.000,3748.5986,N,12217.9544,W,2,07,1.5,1.4,M,-25.1,M,1.8,0000*40
$GPGSA,A,3,10,08,28,07,13,19,23,,,,,,3.3,1.5,2.9*32
$GPRMC,205247.000,A,3748.5986,N,12217.9544,W,2.61,101.78,160611,,,D*75
$GPVTG,101.78,T,,M,2.61,N,4.8,K,D*0E
$GPGGA,205248.000,3748.5986,N,12217.9536,W,2,07,1.5,0.9,M,-25.1,M,2.8,0000*45
$GPGSA,A,3,10,08,28,07,13,19,23,,,,,,3.3,1.5,2.9*32
$GPGSV,3,1,12,07,65,340,26,13,61,122,36,08,46,294,25,10,39,253,34*74
$GPGSV,3,2,12,19,29,093,24,23,28,132,39,28,28,217,38,03,24,059,22*73
$GPGSV,3,3,12,05,19,308,25,06,15,048,17,16,06,042,18,48,44,197,40*7A
$GPRMC,205248.000,A,3748.5986,N,12217.9536,W,2.54,115.63,160611,,,D*76
$GPVTG,115.63,T,,M,2.54,N,4.7,K,D*08
$GPGGA,205249.000,3748.5980,N,12217.9527,W,2,07,1.5,1.2,M,-25.1,M,3.8,0000*49
$GPGSA,A,3,10,08,28,07,13,19,23,,,,,,3.3,1.5,2.9*32
$GPRMC,205249.000,A,3748.5980,N,12217.9527,W,2.66,119.05,160611,,,D*7C
$GPVTG,119.05,T,,M,2.66,N,4.9,K,D*0B
$GPGGA,205250.000,3748.5976,N,12217.9520,W,2,07,1.5,0.6,M,-25.1,M,4.8,0000*4D
$GPGSA,A,3,10,08,28,07,13,19,23,,,,,,3.3,1.5,2.9*32
$GPRMC,205250.000,A,3748.5976,N,12217.9520,W,2.96,124.95,160611,,,D*72
$GPVTG,124.95,T,,M,2.96,N,5.5,K,D*0E
$GPGGA,205251.000,3748.5971,N,12217.9512,W,2,07,1.5,-0.2,M,-25.1,M,1.8,0000*66
$GPGSA,A,3,10,08,28,07,13,19,23,,,,,,3.3,1.5,2.9*32
$GPRMC,205251.000,A,3748.5971,N,12217.9512,W,2.72,115.54,160611,,,D*70
$GPVTG,115.54,T,,M,2.72,N,5.0,K,D*0E
$GPGGA,205252.000,3748.5966,N,12217.9505,W,2,07,1.5,0.3,M,-25.1,M,1.8,0000*49
$GPGSA,A,3,10,08,28,07,13,19,23,,,,,,3.3,1.5,2.9*32
$GPRMC,205252.000,A,3748.5966,N,12217.9505,W,2.62,113.47,160611,,,D*76
$GPVTG,113.47,T,,M,2.62,N,4.9,K,D*03
$GPGGA,205253.000,3748.5961,N,12217.9498,W,2,07,1.5,0.8,M,-25.1,M,1.8,0000*41
$GPGSA,A,3,10,08,28,07,13,19,23,,,,,,3.3,1.5,2.9*32
$GPGSV,3,1,12,07,65,340,27,13,61,122,36,08,46,294,25,10,39,253,34*75
$GPGSV,3,2,12,19,29,093,35,23,28,132,39,28,28,217,31,03,24,059,21*79
$GPGSV,3,3,12,05,19,308,25,06,15,048,17,16,06,042,07,48,44,197,40*74
$GPVTG,105.71,T,,M,2.61,N,4.8,K,D*03
$GPGGA,205254.000,3748.5958,N,12217.9489,W,2,07,1.5,1.0,M,-25.1,M,2.8,0000*46
$GPGSA,A,3,10,08,28,07,13,19,23,,,,,,3.3,1.5,2.9*32
$GPRMC,205254.000,A,3748.5958,N,12217.9489,W,2.52,115.34,160611,,,D*79
$GPVTG,115.34,T,,M,2.52,N,4.7,K,D*0C
$GPGGA,205255.000,3748.5953,N,12217.9481,W,2,07,1.5,1.1,M,-25.1,M,3.8,0000*44
$GPGSA,A,3,10,08,28,07,13,19,23,,,,,,3.3,1.5,2.9*32
$GPRMC,205255.000,A,3748.5953,N,12217.9481,W,2.49,120.24,160611,,,D*76
$GPVTG,120.24,T,,M,2.49,N,4.6,K,D*00
$GPGGA,205256.000,3748.5949,N,12217.9474,W,2,07,1.5,1.2,M,-25.1,M,4.8,0000*42
$GPGSA,A,3,10,08,28,07,13,19,23,,,,,,3.3,1.5,2.9*32
$GPRMC,205256.000,A,3748.5949,N,12217.9474,W,2.56,124.97,160611,,,D*76
$GPVTG,124.97,T,,M,2.56,N,4.7,K,D*03
$GPGGA,205257.000,3748.5944,N,12217.9466,W,2,07,1.5,1.3,M,-25.1,M,1.8,0000*49
$GPGSA,A,3,10,08,28,07,13,19,23,,,,,,3.3,1.5,2.9*32
$GPRMC,205257.000,A,3748.5944,N,12217.9466,W,2.68,124.75,160611,,,D*78
$GPVTG,124.75,T,,M,2.68,N,5.0,K,D*04
$GPGGA,205258.000,3748.5939,N,12217.9458,W,2,07,1.5,1.4,M,-25.1,M,1.8,0000*46
$GPGSA,A,3,10,08,28,07,13,19,23,,,,,,3.3,1.5,2.9*32
$GPGSV,3,1,12,07,65,340,27,13,61,122,36,08,46,294,25,10,39,253,33*72
$GPGSV,3,2,12,19,29,093,36,23,28,132,39,28,28,217,32,03,24,059,25*7D
$GPGSV,3,3,12,05,19,308,25,06,15,048,17,16,06,042,,48,44,197,40*73
$GPRMC,205258.000,A,3748.5939,N,12217.9458,W,2.69,129.05,160611,,,D*7B
$GPVTG,129.05,T,,M,2.69,N,5.0,K,D*0F
$GPGGA,205259.000,3748.5936,N,12217.9450,W,2,07,1.5,1.4,M,-25.1,M,1.8,0000*40
$GPGSA,A,3,10,08,28,07,13,19,23,,,,,,3.3,1.5,2.9*32
$GPRMC,205259.000,A,3748.5936,N,12217.9450,W,2.38,113.16,160611,,,D*72
$GPVTG,113.16,T,,M,2.38,N,4.4,K,D*05
$GPGGA,205300.000,3748.5929,N,12217.9444,W,2,07,1.5,2.5,M,-25.1,M,2.8,0000*47
$GPGSA,A,3,10,08,28,07,13,19,23,,,,,,3.3,1.5,2.9*32
$GPRMC,205300.000,A,3748.5929,N,12217.9444,W,2.27,118.91,160611,,,D*7E
$GPVTG,118.91,T,,M,2.27,N,4.2,K,D*09
$GPGGA,205301.000,3748.5924,N,12217.9439,W,2,07,1.5,3.6,M,-25.1,M,3.8,0000*42
$GPGSA,A,3,10,08,28,07,13,19,23,,,,,,3.3,1.5,2.9*32
$GPRMC,205301.000,A,3748.5924,N,12217.9439,W,2.08,115.73,160611,,,D*74
$GPVTG,115.73,T,,M,2.08,N,3.8,K,D*08
$GPGGA,205302.000,3748.5917,N,12217.9434,W,2,07,1.5,5.2,M,-25.1,M,1.8,0000*4C
$GPGSA,A,3,10,08,28,07,13,19,23,,,,,,3.3,1.5,2.9*32
$GPRMC,205302.000,A,3748.5917,N,12217.9434,W,2.20,119.24,160611,,,D*7E
$GPVTG,119.24,T,,M,2.20,N,4.1,K,D*02
$GPGGA,205303.000,3748.5912,N,12217.9428,W,2,07,1.5,5.9,M,-25.1,M,1.8,0000*4E
$GPGSA,A,3,10,08,28,07,13,19,23,,,,,,3.3,1.5,2.9*32
$GPGSV,3,1,12,07,65,340,27,13,61,122,36,08,46,294,24,10,39,253,33*73
$GPGSV,3,2,12,19,29,093,25,23,28,132,24,28,28,217,38,03,24,059,28*74
$GPGSV,3,3,12,05,19,308,24,06,15,048,18,16,06,042,16,48,44,197,40*7A
$GPRMC,205303.000,A,3748.5912,N,12217.9428,W,2.05,114.11,160611,,,D*7B
$GPVTG,114.11,T,,M,2.05,N,3.8,K,D*00
$GPGGA,205304.000,3748.5907,N,12217.9418,W,2,07,1.5,6.2,M,-25.1,M,1.8,0000*46
$GPGSA,A,3,10,08,28,07,13,19,23,,,,,,3.3,1.5,2.9*32
$GPRMC,205304.000,A,3748.5907,N,12217.9418,W,2.20,109.04,160611,,,D*74
$GPVTG,109.04,T,,M,2.20,N,4.1,K,D*01
$GPGGA,205305.000,3748.5911,N,12217.9416,W,2,07,1.5,4.4,M,-25.1,M,1.8,0000*4A
$GPGSA,A,3,10,08,28,07,13,19,23,,,,,,3.3,1.5,2.9*32
$GPRMC,205305.000,A,3748.5911,N,12217.9416,W,2.13,108.99,160611,,,D*79
$GPVTG,108.99,T,,M,2.13,N,3.9,K,D*0B
$GPGGA,205306.000,3748.5907,N,12217.9411,W,2,07,1.5,3.8,M,-25.1,M,1.8,0000*42
$GPGSA,A,3,10,08,28,07,13,19,23,,,,,,3.3,1.5,2.9*32
$GPRMC,205306.000,A,3748.5907,N,12217.9411,W,1.70,108.71,160611,,,D*7A
$GPVTG,108.71,T,,M,1.70,N,3.2,K,D*00
$GPGGA,205307.000,3748.5904,N,12217.9406,W,2,07,1.5,2.3,M,-25.1,M,2.8,0000*4F
$GPGSA,A,3,10,08,28,07,13,19,23,,,,,,3.3,1.5,2.9*32
$GPRMC,205307.000,A,3748.5904,N,12217.9406,W,2.18,109.71,160611,,,D*72
$GPVTG,109.71,T,,M,2.18,N,4.0,K,D*09
$GPGGA,205308.000,3748.5898,N,12217.9399,W,2,07,1.5,0.9,M,-25.1,M,3.8,0000*4C
$GPGSA,A,3,10,08,28,07,13,19,23,,,,,,3.3,1.5,2.9*32
$GPGSV,3,1,12,07,65,340,21,13,61,122,23,08,46,294,24,10,39,253,33*71
$GPGSV,3,2,12,19,29,093,21,23,28,132,22,28,28,217,38,03,24,059,26*78
$GPGSV,3,3,12,05,19,308,24,06,15,048,20,16,06,042,16,48,44,197,26*71
$GPRMC,205308.000,A,3748.5898,N,12217.9399,W,1.74,102.58,160611,,,D*71
$GPVTG,102.58,T,,M,1.74,N,3.2,K,D*05
$GPGGA,205309.000,3748.5898,N,12217.9394,W,2,07,1.5,-1.1,M,-25.1,M,4.8,0000*63
