$ADVER,3080,2.3
$GPRMC,214927.002,A,3748.5558,N,12217.8531,W,1.07,210.64,180712,,,A*72
$GPGGA,214928.002,3748.5562,N,12217.8528,W,1,03,3.0,-9.4,M,-25.1,M,,0000*4F
$GPGSA,A,2,15,08,04,,,,,,,,,,3.2,3.0,1.0*38
$GPRMC,214928.002,A,3748.5562,N,12217.8528,W,0.77,225.12,180712,,,A*7D
$GPVTG,225.12,T,,M,0.77,N,1.4,K,N*01
$GPGGA,214929.002,3748.5554,N,12217.8519,W,1,03,3.0,-9.4,M,-25.1,M,,0000*49
$GPGSA,A,2,15,08,04,,,,,,,,,,3.2,3.0,1.0*38
$GPRMC,214929.002,A,3748.5554,N,12217.8519,W,1.09,218.13,180712,,,A*7C
$GPVTG,218.13,T,,M,1.09,N,2.0,K,N*01
$GPGGA,214930.002,3748.5542,N,12217.8534,W,1,03,3.0,-9.4,M,-25.1,M,,0000*49
$GPGSA,A,2,15,08,04,,,,,,,,,,3.2,3.0,1.0*38
$GPRMC,214930.002,A,3748.5542,N,12217.8534,W,1.82,217.39,180712,,,A*78
$GPVTG,217.39,T,,M,1.82,N,3.4,K,N*00
$GPGGA,214931.002,3748.5534,N,12217.8542,W,1,03,3.0,-9.4,M,-25.1,M,,0000*48
$GPGSA,A,2,15,08,04,,,,,,,,,,3.2,3.0,1.0*38
$GPGSV,3,1,10,15,32,275,32,08,31,130,34,04,18,161,36,17,80,065,*72
$GPGSV,3,2,10,28,50,053,34,27,39,315,,26,36,222,35,09,23,315,*75
$GPGSV,3,3,10,01,17,048,,11,03,038,*7B
$GPRMC,214931.002,A,3748.5534,N,12217.8542,W,1.18,195.91,180712,,,A*71
$GPVTG,195.91,T,,M,1.18,N,2.2,K,N*0F
$GPGGA,214932.002,3748.5536,N,12217.8541,W,1,03,3.0,-9.4,M,-25.1,M,,0000*4A
$GPGSA,A,2,15,08,04,,,,,,,,,,3.2,3.0,1.0*38
$GPRMC,214932.002,A,3748.5536,N,12217.8541,W,1.62,230.40,180712,,,A*7E
$GPVTG,230.40,T,,M,1.62,N,3.0,K,N*01
$GPGGA,214934.004,3748.5532,N,12217.8560,W,1,03,3.0,-9.4,M,-25.1,M,,0000*4D
$GPGSA,A,2,15,08,04,,,,,,,,,,3.2,3.0,1.0*38
$GPRMC,214934.004,A,3748.5532,N,12217.8560,W,2.09,215.01,180712,,,A*75
$GPVTG,215.01,T,,M,2.09,N,3.9,K,N*04
$GPGGA,214935.004,3748.5514,N,12217.8546,W,1,03,3.0,-9.4,M,-25.1,M,,0000*4C
$GPGSA,A,2,15,08,04,,,,,,,,,,3.2,3.0,1.0*38
$GPRMC,214935.004,A,3748.5514,N,12217.8546,W,0.44,194.23,180712,,,A*75
$GPVTG,194.23,T,,M,0.44,N,0.8,K,N*07
$GPGGA,214936.004,3748.5548,N,12217.8540,W,1,03,3.0,-9.4,M,-25.1,M,,0000*40
$GPGSA,A,2,15,08,04,,,,,,,,,,3.2,3.0,1.0*38
$GPGSV,3,1,11,15,32,275,33,08,31,130,32,04,18,161,25,17,80,065,34*71
$GPGSV,3,2,11,28,50,053,33,27,39,315,22,26,36,222,34,09,23,315,*72
$GPGSV,3,3,11,01,17,048,27,11,03,038,,51,00,000,35*4D
$GPRMC,214936.004,A,3748.5548,N,12217.8540,W,0.34,166.46,180712,,,A*70
$GPVTG,166.46,T,,M,0.34,N,0.6,K,N*00
$GPGGA,214937.004,3748.5543,N,12217.8543,W,1,03,3.0,-9.4,M,-25.1,M,,0000*49
$GPGSA,A,2,15,08,04,,,,,,,,,,3.2,3.0,1.0*38
$GPRMC,214937.004,A,3748.5543,N,12217.8543,W,1.12,180.88,180712,,,A*76
$GPVTG,180.88,T,,M,1.12,N,2.1,K,N*0A
$GPGGA,214938.004,3748.5522,N,12217.8556,W,1,03,3.0,-9.4,M,-25.1,M,,0000*45
$GPGSA,A,2,15,08,04,,,,,,,,,,3.2,3.0,1.0*38
$GPRMC,214938.004,A,3748.5522,N,12217.8556,W,1.34,114.82,180712,,,A*79
$GPVTG,114.82,T,,M,1.34,N,2.5,K,N*0D
$GPGGA,214939.004,3748.5522,N,12217.8501,W,1,03,3.0,-9.4,M,-25.1,M,,0000*46
$GPGSA,A,2,15,08,04,,,,,,,,,,3.2,3.0,1.0*38
$GPRMC,214939.004,A,3748.5522,N,12217.8501,W,0.53,143.81,180712,,,A*7B
$GPVTG,143.81,T,,M,0.53,N,1.0,K,N*0A
$GPGGA,214940.004,3748.5496,N,12217.8609,W,1,03,3.0,-9.4,M,-25.1,M,,0000*4D
$GPGSA,A,2,15,08,04,,,,,,,,,,3.2,3.0,1.0*38
$GPRMC,214940.004,A,3748.5496,N,12217.8609,W,1.29,151.44,180712,,,A*76
$GPVTG,151.44,T,,M,1.29,N,2.4,K,N*0B
$GPGGA,214941.004,3748.5426,N,12217.8603,W,1,03,3.0,-9.4,M,-25.1,M,,0000*4D
$GPGSA,A,2,15,08,04,,,,,,,,,,3.2,3.0,1.0*38
$GPGSV,3,1,11,15,32,275,21,08,31,130,33,04,18,161,33,17,80,065,24*75
$GPGSV,3,2,11,28,50,053,18,27,39,315,21,26,36,222,27,09,23,315,21*79
$GPGSV,3,3,11,01,17,048,21,11,03,038,,51,00,000,36*48
$GPRMC,214941.004,A,3748.5426,N,12217.8603,W,0.58,80.58,180712,,,A*41
$GPVTG,80.58,T,,M,0.58,N,1.1,K,N*3A
$GPGGA,214942.004,3748.5361,N,12217.8624,W,1,03,3.0,-9.4,M,-25.1,M,,0000*4F
$GPGSA,A,2,15,08,04,,,,,,,,,,3.2,3.0,1.0*38
$GPRMC,214942.004,A,3748.5361,N,12217.8624,W,0.78,336.93,180712,,,A*78
$GPVTG,336.93,T,,M,0.78,N,1.4,K,N*04
$GPGGA,214943.004,3748.5434,N,12217.8519,W,1,03,3.0,-9.4,M,-25.1,M,,0000*44
$GPGSA,A,2,15,08,04,,,,,,,,,,3.2,3.0,1.0*38
$GPRMC,214943.004,A,3748.5434,N,12217.8519,W,0.83,334.29,180712,,,A*74
$GPVTG,334.29,T,,M,0.83,N,1.5,K,N*02
$GPGGA,214944.004,3748.5418,N,12217.8481,W,1,03,3.0,-9.4,M,-25.1,M,,0000*4D
$GPGSA,A,2,15,08,04,,,,,,,,,,3.2,3.0,1.0*38
$GPRMC,214944.004,A,3748.5418,N,12217.8481,W,0.38,40.02,180712,,,A*44
$GPVTG,40.02,T,,M,0.38,N,0.7,K,N*38
$GPGGA,214945.004,3748.5395,N,12217.8455,W,1,03,3.0,-9.4,M,-25.1,M,,0000*47
$GPGSA,A,2,15,08,04,,,,,,,,,,3.2,3.0,1.0*38
$GPRMC,214945.004,A,3748.5395,N,12217.8455,W,0.47,13.75,180712,,,A*40
$GPVTG,13.75,T,,M,0.47,N,0.9,K,N*38
$GPGGA,214946.004,3748.5423,N,12217.8482,W,1,03,3.0,-9.4,M,-25.1,M,,0000*44
$GPGSA,A,2,15,08,04,,,,,,,,,,3.2,3.0,1.0*38
$GPGSV,3,1,11,15,32,275,22,08,31,130,31,04,18,161,32,17,80,065,19*7B
$GPGSV,3,2,11,28,50,053,18,27,39,315,22,26,36,222,18,09,23,315,21*76
$GPGSV,3,3,11,01,17,048,12,11,03,038,16,51,00,000,36*4F
$GPVTG,356.45,T,,M,0.66,N,1.2,K,N*00
$GPGGA,214947.004,3748.5477,N,12217.8442,W,1,03,3.0,-9.4,M,-25.1,M,,0000*48
$GPGSA,A,2,15,08,04,,,,,,,,,,3.2,3.0,1.0*38
$GPRMC,214947.004,A,3748.5477,N,12217.8442,W,0.32,159.39,180712,,,A*7A
$GPVTG,159.39,T,,M,0.32,N,0.6,K,N*02
$GPGGA,214948.004,3748.5501,N,12217.8517,W,1,03,3.0,-9.4,M,-25.1,M,,0000*46
$GPGSA,A,2,15,08,04,,,,,,,,,,3.2,3.0,1.0*38
$GPRMC,214948.004,A,3748.5501,N,12217.8517,W,1.35,182.11,180712,,,A*7E
$GPVTG,182.11,T,,M,1.35,N,2.5,K,N*09
$GPGGA,214957.004,3748.5498,N,12217.8581,W,1,03,3.0,-9.4,M,-25.1,M,,0000*46
$GPGSA,A,2,15,08,04,,,,,,,,,,3.2,3.0,1.0*38
$GPRMC,214957.004,A,3748.5498,N,12217.8581,W,2.17,299.37,180712,,,A*70
$GPVTG,299.37,T,,M,2.17,N,4.0,K,N*04
$GPGGA,214958.004,3748.5524,N,12217.8514,W,1,03,3.0,-9.4,M,-25.1,M,,0000*43
$GPGSA,A,2,15,08,04,,,,,,,,,,3.2,3.0,1.0*38
$GPRMC,214958.004,A,3748.5524,N,12217.8514,W,0.17,78.49,180712,,,A*43
$GPVTG,78.49,T,,M,0.17,N,0.3,K,N*35
$GPGGA,214959.004,3748.5459,N,12217.8533,W,1,03,3.0,-9.4,M,-25.1,M,,0000*4C
$GPGSA,A,2,15,08,04,,,,,,,,,,3.2,3.0,1.0*38
$GPRMC,214959.004,A,3748.5459,N,12217.8533,W,1.91,156.95,180712,,,A*7F
$GPVTG,156.95,T,,M,1.91,N,3.5,K,N*03
$GPGGA,215000.004,3748.5551,N,12217.8508,W,1,03,3.0,-9.4,M,-25.1,M,,0000*49
$GPGSA,A,2,15,08,04,,,,,,,,,,3.2,3.0,1.0*38
$GPRMC,215000.004,A,3748.5551,N,12217.8508,W,3.66,156.73,180712,,,A*78
$GPVTG,156.73,T,,M,3.66,N,6.8,K,N*09
$GPGGA,215001.004,3748.5499,N,12217.8525,W,1,03,3.0,-9.4,M,-25.1,M,,0000*42
$GPGSA,A,2,15,08,04,,,,,,,,,,3.2,3.0,1.0*38
$GPGSV,3,1,11,15,32,275,27,08,31,130,37,04,18,161,30,17,80,065,29*79
$GPGSV,3,2,11,28,50,053,33,27,39,315,19,26,36,222,28,09,23,315,21*74
$GPGSV,3,3,11,01,17,048,21,11,03,038,27,51,00,000,29*43
$GPRMC,215001.004,A,3748.5499,N,12217.8525,W,1.80,126.87,180712,,,A*75
$GPVTG,126.87,T,,M,1.80,N,3.3,K,N*01
$GPGGA,215002.004,3748.5454,N,12217.8490,W,1,03,3.0,-9.4,M,-25.1,M,,0000*4F
$GPGSA,A,2,15,08,04,,,,,,,,,,3.2,3.0,1.0*38
$GPRMC,215002.004,A,3748.5454,N,12217.8490,W,0.66,96.06,180712,,,A*42
$GPVTG,96.06,T,,M,0.66,N,1.2,K,N*38
$GPGGA,215003.004,3748.5486,N,12217.8532,W,1,03,3.0,-9.4,M,-25.1,M,,0000*48
$GPGSA,A,2,15,08,04,,,,,,,,,,3.2,3.0,1.0*38
$GPRMC,215003.004,A,3748.5486,N,12217.8532,W,2.09,112.40,180712,,,A*71
$GPVTG,112.40,T,,M,2.09,N,3.9,K,N*05
$GPGGA,215004.004,3748.5473,N,12217.8527,W,1,03,3.0,-9.4,M,-25.1,M,,0000*41
$GPGSA,A,2,15,08,04,,,,,,,,,,3.2,3.0,1.0*38
$GPRMC,215004.004,A,3748.5473,N,12217.8527,W,1.90,108.94,180712,,,A*79
$GPVTG,108.94,T,,M,1.90,N,3.5,K,N*08
$GPGGA,215005.004,3748.5434,N,12217.8478,W,1,03,3.0,-9.4,M,-25.1,M,,0000*48
$GPGSA,A,2,15,08,04,,,,,,,,,,3.2,3.0,1.0*38
$GPRMC,215005.004,A,3748.5434,N,12217.8478,W,1.35,108.44,180712,,,A*72
$GPVTG,108.44,T,,M,1.35,N,2.5,K,N*0B
$GPGGA,215006.004,3748.5455,N,12217.8504,W,1,03,3.0,-9.4,M,-25.1,M,,0000*46
$GPGSA,A,2,15,08,04,,,,,,,,,,3.2,3.0,1.0*38
$GPGSV,3,1,11,15,32,275,25,08,31,130,35,04,18,161,33,17,80,065,29*7A
$GPGSV,3,2,11,28,50,053,33,27,39,315,23,26,36,222,26,09,23,315,24*76
$GPGSV,3,3,11,01,17,048,24,11,03,038,17,51,00,000,34*49
$GPRMC,215006.004,A,3748.5455,N,12217.8504,W,2.15,109.87,180712,,,A*73
$GPVTG,109.87,T,,M,2.15,N,4.0,K,N*07
$GPGGA,215007.004,3748.5441,N,12217.8494,W,1,03,3.0,-9.4,M,-25.1,M,,0000*4A
$GPGSA,A,2,15,08,04,,,,,,,,,,3.2,3.0,1.0*38
$GPRMC,215007.004,A,3748.5441,N,12217.8494,W,1.36,133.66,180712,,,A*7B
$GPVTG,133.66,T,,M,1.36,N,2.5,K,N*00
$GPGGA,215008.004,3748.5434,N,12217.8497,W,1,03,3.0,-9.4,M,-25.1,M,,0000*44
$GPGSA,A,2,15,08,04,,,,,,,,,,3.2,3.0,1.0*38
$GPRMC,215008.004,A,3748.5434,N,12217.8497,W,2.51,179.71,180712,,,A*7F
$GPVTG,179.71,T,,M,2.51,N,4.7,K,N*0E
$GPGGA,215009.004,3748.5554,N,12217.8432,W,1,03,3.0,-9.4,M,-25.1,M,,0000*4D
$GPGSA,A,2,15,08,04,,,,,,,,,,3.2,3.0,1.0*38
$GPRMC,215009.004,A,3748.5554,N,12217.8432,W,0.32,218.68,180712,,,A*7D
$GPVTG,218.68,T,,M,0.32,N,0.6,K,N*00
$GPGGA,215010.004,3748.5458,N,12217.8512,W,1,03,3.0,-9.4,M,-25.1,M,,0000*4B
$GPGSA,A,2,15,08,04,,,,,,,,,,3.2,3.0,1.0*38
$GPRMC,215010.004,A,3748.5458,N,12217.8512,W,1.60,40.14,180712,,,A*49
$GPVTG,40.14,T,,M,1.60,N,3.0,K,N*37
$GPGGA,215011.004,3748.5406,N,12217.8539,W,1,03,3.0,-9.4,M,-25.1,M,,0000*48
$GPGSA,A,2,15,08,04,,,,,,,,,,3.2,3.0,1.0*38
$GPGSV,3,1,11,15,32,275,37,08,31,130,26,04,18,161,24,17,80,065,22*76
$GPGSV,3,2,11,28,50,053,23,27,39,315,29,26,36,222,35,09,23,315,26*7D
$GPGSV,3,3,11,01,17,048,25,11,03,038,,51,00,000,28*43
$GPRMC,215011.004,A,3748.5406,N,12217.8539,W,1.29,154.20,180712,,,A*74
$GPVTG,154.20,T,,M,1.29,N,2.4,K,N*0C
$GPGGA,215012.004,3748.5451,N,12217.8501,W,1,03,3.0,-9.4,M,-25.1,M,,0000*42
$GPGSA,A,2,15,08,04,,,,,,,,,,3.2,3.0,1.0*38
$GPRMC,215012.004,A,3748.5451,N,12217.8501,W,2.56,185.11,180712,,,A*7B
$GPVTG,185.11,T,,M,2.56,N,4.7,K,N*0C
$GPGGA,215013.004,3748.5449,N,12217.8491,W,1,03,3.0,-9.4,M,-25.1,M,,0000*42
$GPGSA,A,2,15,08,04,,,,,,,,,,3.2,3.0,1.0*38
$GPRMC,215013.004,A,3748.5449,N,12217.8491,W,1.64,168.81,180712,,,A*73
$GPVTG,168.81,T,,M,1.64,N,3.0,K,N*04
$GPGGA,215014.004,3748.5383,N,12217.8549,W,1,03,3.0,-9.4,M,-25.1,M,,0000*40
$GPGSA,A,2,15,08,04,,,,,,,,,,3.2,3.0,1.0*38
$GPRMC,215014.004,A,3748.5383,N,12217.8549,W,3.45,169.43,180712,,,A*7F
$GPVTG,169.43,T,,M,3.45,N,6.4,K,N*0B
$GPGGA,215015.004,3748.5382,N,12217.8542,W,1,03,3.0,-9.4,M,-25.1,M,,0000*4B
$GPGSA,A,2,15,08,04,,,,,,,,,,3.2,3.0,1.0*38
$GPRMC,215015.004,A,3748.5382,N,12217.8542,W,3.37,156.76,180712,,,A*7B
$GPVTG,156.76,T,,M,3.37,N,6.2,K,N*02
$GPGGA,215016.004,3748.5317,N,12217.8558,W,1,03,3.0,-9.4,M,-25.1,M,,0000*4F
$GPGSA,A,2,15,08,04,,,,,,,,,,3.2,3.0,1.0*38
$GPGSV,3,1,11,15,32,274,31,08,31,130,31,04,19,161,26,17,80,063,23*73
$GPGSV,3,2,11,28,50,054,26,27,39,315,23,26,36,222,22,09,23,315,22*77
$GPGSV,3,3,11,01,17,047,21,11,03,038,,51,43,156,30*44
$GPRMC,215016.004,A,3748.5317,N,12217.8558,W,2.84,163.60,180712,,,A*77
$GPVTG,163.60,T,,M,2.84,N,5.3,K,N*08
$GPGGA,215017.004,3748.5360,N,12217.8519,W,1,03,3.0,-9.4,M,-25.1,M,,0000*4B
$GPGSA,A,2,15,08,04,,,,,,,,,,3.2,3.0,1.0*38
$GPRMC,215017.004,A,3748.5360,N,12217.8519,W,1.99,137.12,180712,,,A*78
$GPVTG,137.12,T,,M,1.99,N,3.7,K,N*01
$GPGGA,215018.004,3748.5328,N,12217.8507,W,1,03,3.0,-9.4,M,-25.1,M,,0000*47
$GPGSA,A,2,15,08,04,,,,,,,,,,3.2,3.0,1.0*38
$GPRMC,215018.004,A,3748.5328,N,12217.8507,W,2.57,152.05,180712,,,A*70
$GPVTG,152.05,T,,M,2.57,N,4.8,K,N*0D
$GPGGA,215019.004,3748.5351,N,12217.8489,W,1,03,3.0,-9.4,M,-25.1,M,,0000*4F
$GPGSA,A,2,15,08,04,,,,,,,,,,3.2,3.0,1.0*38
$GPRMC,215019.004,A,3748.5351,N,12217.8489,W,3.75,183.68,180712,,,A*7E
$GPVTG,183.68,T,,M,3.75,N,6.9,K,N*08
$GPGGA,215020.004,3748.5457,N,12217.8432,W,1,03,3.0,-9.4,M,-25.1,M,,0000*44
$GPGSA,A,2,15,08,04,,,,,,,,,,3.2,3.0,1.0*38
$GPRMC,215020.004,A,3748.5457,N,12217.8432,W,3.25,153.00,180712,,,A*73
$GPVTG,153.00,T,,M,3.25,N,6.0,K,N*07
$GPGGA,215021.004,3748.5418,N,12217.8439,W,1,03,3.0,-9.4,M,-25.1,M,,0000*45
$GPGSA,A,2,15,08,04,,,,,,,,,,3.2,3.0,1.0*38
$GPGSV,3,1,11,15,32,274,17,08,31,130,30,04,19,161,23,17,80,063,23*73
$GPGSV,3,2,11,28,50,054,26,27,39,315,23,26,36,222,30,09,23,315,22*74
$GPGSV,3,3,11,01,17,047,20,11,03,038,,51,43,156,34*41
$GPVTG,95.28,T,,M,2.76,N,5.1,K,N*33
$GPGGA,215022.004,3748.5437,N,12217.8404,W,1,03,3.0,-9.4,M,-25.1,M,,0000*45
$GPGSA,A,2,15,08,04,,,,,,,,,,3.2,3.0,1.0*38
$GPRMC,215022.004,A,3748.5437,N,12217.8404,W,2.31,66.73,180712,,,A*45
$GPVTG,66.73,T,,M,2.31,N,4.3,K,N*31
$GPGGA,215023.004,3748.5473,N,12217.8391,W,1,03,3.0,-9.4,M,-25.1,M,,0000*4F
$GPGSA,A,2,15,08,04,,,,,,,,,,3.2,3.0,1.0*38
$GPRMC,215023.004,A,3748.5473,N,12217.8391,W,2.49,145.62,180712,,,A*70
$GPVTG,145.62,T,,M,2.49,N,4.6,K,N*0B
$GPGGA,215024.004,3748.5460,N,12217.8409,W,1,03,3.1,-9.4,M,-25.1,M,,0000*4D
$GPGSA,A,2,15,08,04,,,,,,,,,,3.2,3.1,1.0*39
$GPRMC,215024.004,A,3748.5460,N,12217.8409,W,2.34,115.55,180712,,,A*78
$GPVTG,115.55,T,,M,2.34,N,4.3,K,N*05
$GPGGA,215025.004,3748.5487,N,12217.8376,W,1,03,3.1,-9.4,M,-25.1,M,,0000*4A
$GPGSA,A,2,15,08,04,,,,,,,,,,3.2,3.1,1.0*39
$GPRMC,215025.004,A,3748.5487,N,12217.8376,W,4.37,53.62,180712,,,A*4D
$GPVTG,53.62,T,,M,4.37,N,8.1,K,N*39
$GPGGA,215026.004,3748.5582,N,12217.8304,W,1,03,3.1,-9.4,M,-25.1,M,,0000*48
$GPGSA,A,2,15,08,04,,,,,,,,,,3.2,3.1,1.0*39
$GPGSV,3,1,11,15,32,274,36,08,31,130,26,04,19,161,21,17,80,063,30*77
$GPGSV,3,2,11,28,50,054,27,27,39,315,32,26,36,222,29,09,23,315,36*78
$GPGSV,3,3,11,01,17,047,23,11,03,038,,51,43,156,26*41
$GPRMC,215026.004,A,3748.5582,N,12217.8304,W,4.83,46.67,180712,,,A*41
$GPVTG,46.67,T,,M,4.83,N,8.9,K,N*3F
$GPGGA,215027.004,3748.5390,N,12217.8485,W,1,03,3.1,-9.4,M,-25.1,M,,0000*42
$GPGSA,A,2,15,08,04,,,,,,,,,,3.2,3.1,1.0*39
$GPRMC,215027.004,A,3748.5390,N,12217.8485,W,1.42,55.32,180712,,,A*41
$GPVTG,55.32,T,,M,1.42,N,2.6,K,N*30
$GPGGA,215028.004,3748.5513,N,12217.8351,W,1,03,3.1,-9.4,M,-25.1,M,,0000*4E
$GPGSA,A,2,15,08,04,,,,,,,,,,3.2,3.1,1.0*39
$GPRMC,215028.004,A,3748.5513,N,12217.8351,W,1.77,80.63,180712,,,A*47
$GPVTG,80.63,T,,M,1.77,N,3.3,K,N*3E
$GPGGA,215029.004,3748.5509,N,12217.8352,W,1,03,3.1,-9.4,M,-25.1,M,,0000*47
$GPGSA,A,2,15,08,04,,,,,,,,,,3.2,3.1,1.0*39
$GPRMC,215029.004,A,3748.5509,N,12217.8352,W,8.74,37.95,180712,,,A*41
$GPVTG,37.95,T,,M,8.74,N,16.2,K,N*04
$GPGGA,215101.004,3748.5204,N,12217.8137,W,1,03,3.1,-9.4,M,-25.1,M,,0000*47
$GPGSA,A,2,15,08,04,,,,,,,,,,3.2,3.1,1.0*39
$GPGSV,3,1,11,15,32,274,21,08,30,130,32,04,19,161,21,17,80,062,30*74
$GPGSV,3,2,11,28,50,054,31,27,39,315,21,26,35,221,19,09,23,315,22*7B
$GPGSV,3,3,11,01,16,047,31,11,03,038,23,51,43,156,34*41
$GPRMC,215101.004,A,3748.5204,N,12217.8137,W,3.72,51.53,180712,,,A*46
$GPVTG,51.53,T,,M,3.72,N,6.9,K,N*39
$GPGGA,215102.004,3748.5134,N,12217.8181,W,1,03,3.1,-9.4,M,-25.1,M,,0000*49
$GPGSA,A,2,15,08,04,,,,,,,,,,3.2,3.1,1.0*39
$GPRMC,215102.004,A,3748.5134,N,12217.8181,W,2.94,45.47,180712,,,A*41
$GPVTG,45.47,T,,M,2.94,N,5.4,K,N*3E
$GPGGA,215103.004,3748.5208,N,12217.8139,W,1,03,3.1,-9.4,M,-25.1,M,,0000*47
$GPGSA,A,2,15,08,04,,,,,,,,,,3.2,3.1,1.0*39
$GPRMC,215103.004,A,3748.5208,N,12217.8139,W,3.05,66.57,180712,,,A*46
$GPVTG,66.57,T,,M,3.05,N,5.6,K,N*35
$GPGGA,215104.004,3748.5296,N,12217.8066,W,1,03,3.1,-9.4,M,-25.1,M,,0000*4C
$GPGSA,A,2,15,08,04,,,,,,,,,,3.2,3.1,1.0*39
$GPRMC,215104.004,A,3748.5296,N,12217.8066,W,4.05,178.00,180712,,,A*76
$GPVTG,178.00,T,,M,4.05,N,7.5,K,N*0F
$GPGGA,215105.004,3748.5221,N,12217.8104,W,1,03,3.1,-9.4,M,-25.1,M,,0000*44
$GPGSA,A,2,15,08,04,,,,,,,,,,3.2,3.1,1.0*39
$GPRMC,215105.004,A,3748.5221,N,12217.8104,W,2.99,84.48,180712,,,A*43
$GPVTG,84.48,T,,M,2.99,N,5.5,K,N*30
$GPGGA,215106.004,3748.5235,N,12217.8070,W,1,03,3.1,-9.4,M,-25.1,M,,0000*40
$GPGSA,A,2,15,08,04,,,,,,,,,,3.2,3.1,1.0*39
$GPGSV,3,1,10,15,32,274,20,08,30,130,32,04,19,161,21,17,80,062,30*74
$GPGSV,3,2,10,28,50,054,32,27,39,315,24,26,35,221,19,09,23,315,22*7C
$GPGSV,3,3,10,01,16,047,27,11,03,038,23*71
$GPRMC,215106.004,A,3748.5235,N,12217.8070,W,1.63,191.56,180712,,,A*7B
$GPVTG,191.56,T,,M,1.63,N,3.0,K,N*0F
$GPGGA,215107.004,3748.5203,N,12217.8030,W,1,03,3.1,-9.4,M,-25.1,M,,0000*40
$GPGSA,A,2,15,08,04,,,,,,,,,,3.2,3.1,1.0*39
$GPRMC,215107.004,A,3748.5203,N,12217.8030,W,1.96,191.79,180712,,,A*7C
$GPVTG,191.79,T,,M,1.96,N,3.6,K,N*0E
$GPGGA,215108.004,3748.5184,N,12217.8036,W,1,03,3.1,-9.4,M,-25.1,M,,0000*45
$GPGSA,A,2,15,08,04,,,,,,,,,,3.2,3.1,1.0*39
$GPRMC,215108.004,A,3748.5184,N,12217.8036,W,3.28,35.49,180712,,,A*42
$GPVTG,35.49,T,,M,3.28,N,6.1,K,N*37
$GPGGA,215109.004,3748.5179,N,12217.8062,W,1,03,3.1,-9.4,M,-25.1,M,,0000*47
$GPGSA,A,2,15,08,04,,,,,,,,,,3.3,3.1,1.0*38
$GPRMC,215109.004,A,3748.5179,N,12217.8062,W,1.55,63.41,180712,,,A*43
$GPVTG,63.41,T,,M,1.55,N,2.9,K,N*38
$GPGGA,215110.004,3748.5163,N,12217.8025,W,1,03,3.1,-9.4,M,-25.1,M,,0000*47
$GPGSA,A,2,15,08,04,,,,,,,,,,3.3,3.1,1.0*38
$GPRMC,215110.004,A,3748.5163,N,12217.8025,W,0.80,23.71,180712,,,A*4D
$GPVTG,23.71,T,,M,0.80,N,1.5,K,N*39
$GPGGA,215111.004,3748.5090,N,12217.8035,W,1,03,3.1,-9.4,M,-25.1,M,,0000*4A
$GPGSA,A,2,15,08,04,,,,,,,,,,3.3,3.1,1.0*38
$GPGSV,3,1,11,15,32,274,19,08,30,130,33,04,19,161,28,17,80,062,31*76
$GPGSV,3,2,11,28,50,054,31,27,39,315,23,26,35,221,19,09,23,315,23*78
$GPGSV,3,3,11,01,16,047,20,11,03,038,20,51,43,156,33*45
$GPVTG,40.23,T,,M,1.30,N,2.4,K,N*33
$GPGGA,215112.004,3748.5086,N,12217.8036,W,1,03,3.1,-9.4,M,-25.1,M,,0000*4D
$GPGSA,A,2,15,08,04,,,,,,,,,,3.3,3.1,1.0*38
$GPRMC,215112.004,A,3748.5086,N,12217.8036,W,2.06,352.35,180712,,,A*7E
$GPVTG,352.35,T,,M,2.06,N,3.8,K,N*0F
$GPGGA,215113.004,3748.5021,N,12217.8082,W,1,03,3.1,-9.4,M,-25.1,M,,0000*4E
$GPGSA,A,2,15,08,04,,,,,,,,,,3.3,3.1,1.0*38
$GPRMC,215113.004,A,3748.5021,N,12217.8082,W,0.80,16.15,180712,,,A*40
$GPVTG,16.15,T,,M,0.80,N,1.5,K,N*3D
$GPGGA,215114.004,3748.5109,N,12217.8042,W,1,03,3.1,-9.4,M,-25.1,M,,0000*4E
$GPGSA,A,2,15,08,04,,,,,,,,,,3.3,3.1,1.0*38
$GPRMC,215114.004,A,3748.5109,N,12217.8042,W,4.27,188.45,180712,,,A*7A
$GPVTG,188.45,T,,M,4.27,N,7.9,K,N*0D
$GPGGA,215115.004,3748.5226,N,12217.7979,W,1,03,3.1,-9.4,M,-25.1,M,,0000*4F
$GPGSA,A,2,15,08,04,,,,,,,,,,3.3,3.1,1.0*38
$GPRMC,215115.004,A,3748.5226,N,12217.7979,W,1.71,165.46,180712,,,A*7D
$GPVTG,165.46,T,,M,1.71,N,3.2,K,N*04
$GPGGA,215116.004,3748.5260,N,12217.7969,W,1,03,3.1,-9.4,M,-25.1,M,,0000*4F
$GPGSA,A,2,15,08,04,,,,,,,,,,3.3,3.1,1.0*38
$GPGSV,3,1,11,15,32,274,19,08,30,130,34,04,19,161,19,17,80,062,30*72
$GPGSV,3,2,11,28,50,054,32,27,39,315,23,26,35,221,24,09,23,315,22*74
$GPGSV,3,3,11,01,16,047,20,11,03,038,13,51,43,156,25*42
$GPRMC,215116.004,A,3748.5260,N,12217.7969,W,3.77,39.33,180712,,,A*43
$GPVTG,39.33,T,,M,3.77,N,7.0,K,N*3C
$GPGGA,215117.004,3748.5328,N,12217.7971,W,1,03,3.1,-9.4,M,-25.1,M,,0000*4A
$GPGSA,A,2,15,08,04,,,,,,,,,,3.3,3.1,1.0*38
$GPRMC,215117.004,A,3748.5328,N,12217.7971,W,2.00,62.82,180712,,,A*43
$GPVTG,62.82,T,,M,2.00,N,3.7,K,N*3A
$GPGGA,215118.004,3748.5298,N,12217.8030,W,1,03,3.1,-9.4,M,-25.1,M,,0000*4C
$GPGSA,A,2,15,08,04,,,,,,,,,,3.3,3.1,1.0*38
$GPRMC,215118.004,A,3748.5298,N,12217.8030,W,1.59,136.52,180712,,,A*77
$GPVTG,136.52,T,,M,1.59,N,2.9,K,N*07
$GPGGA,215119.004,3748.5261,N,12217.8028,W,1,03,3.1,-9.4,M,-25.1,M,,0000*42
$GPGSA,A,2,15,08,04,,,,,,,,,,3.3,3.1,1.0*38
$GPRMC,215119.004,A,3748.5261,N,12217.8028,W,3.01,160.74,180712,,,A*71
$GPVTG,160.74,T,,M,3.01,N,5.6,K,N*07
$GPGGA,215120.004,3748.5334,N,12217.7936,W,1,03,3.1,-9.4,M,-25.1,M,,0000*40
$GPGSA,A,2,15,08,04,,,,,,,,,,3.3,3.1,1.0*38
$GPRMC,215120.004,A,3748.5334,N,12217.7936,W,2.34,175.91,180712,,,A*7B
$GPVTG,175.91,T,,M,2.34,N,4.3,K,N*0B
$GPGGA,215121.004,3748.5433,N,12217.7895,W,1,03,3.1,-9.4,M,-25.1,M,,0000*49
$GPGSA,A,2,15,08,04,,,,,,,,,,3.3,3.1,1.0*38
$GPGSV,3,1,10,15,32,274,19,08,30,130,34,04,19,161,20,17,80,062,30*79
$GPGSV,3,2,10,28,50,054,32,27,39,315,20,26,35,221,20,09,23,315,23*73
$GPGSV,3,3,10,01,16,047,20,11,03,038,*77
$GPRMC,215121.004,A,3748.5433,N,12217.7895,W,2.46,168.59,180712,,,A*7F
$GPVTG,168.59,T,,M,2.46,N,4.6,K,N*03
$GPGGA,215122.004,3748.5204,N,12217.7968,W,1,03,3.1,-9.4,M,-25.1,M,,0000*4B
$GPGSA,A,2,15,08,04,,,,,,,,,,3.3,3.1,1.0*38
$GPRMC,215122.004,A,3748.5204,N,12217.7968,W,1.21,103.16,180712,,,A*79
$GPVTG,103.16,T,,M,1.21,N,2.2,K,N*05
$GPGGA,215123.004,3748.5109,N,12217.8009,W,1,03,3.1,-9.4,M,-25.1,M,,0000*45
$GPGSA,A,2,15,08,04,,,,,,,,,,3.3,3.1,1.0*38
$GPRMC,215123.004,A,3748.5109,N,12217.8009,W,3.33,56.79,180712,,,A*4E
$GPVTG,56.79,T,,M,3.33,N,6.2,K,N*38
$GPGGA,215124.004,3748.5122,N,12217.8025,W,1,03,3.1,-9.4,M,-25.1,M,,0000*45
$GPGSA,A,2,15,08,04,,,,,,,,,,3.3,3.1,1.0*38
$GPRMC,215124.004,A,3748.5122,N,12217.8025,W,2.65,137.25,180712,,,A*73
$GPVTG,137.25,T,,M,2.65,N,4.9,K,N*0C
$GPGGA,215125.004,3748.5128,N,12217.8015,W,1,03,3.1,-9.4,M,-25.1,M,,0000*4D
$GPGSA,A,2,15,08,04,,,,,,,,,,3.3,3.1,1.0*38
$GPRMC,215125.004,A,3748.5128,N,12217.8015,W,1.56,99.80,180712,,,A*42
$GPVTG,99.80,T,,M,1.56,N,2.9,K,N*33
$GPGGA,215126.004,3748.5160,N,12217.7994,W,1,03,3.1,-9.4,M,-25.1,M,,0000*4D
$GPGSA,A,2,15,08,04,,,,,,,,,,3.3,3.1,1.0*38
$GPGSV,3,1,10,15,32,274,27,08,30,130,34,04,19,161,25,17,80,062,30*71
$GPGSV,3,2,10,28,50,054,32,27,39,315,23,26,35,221,24,09,23,315,23*74
$GPGSV,3,3,10,01,16,047,21,11,03,038,*76
$GPRMC,215126.004,A,3748.5160,N,12217.7994,W,1.66,148.54,180712,,,A*75
$GPVTG,148.54,T,,M,1.66,N,3.1,K,N*0D
$GPGGA,215127.004,3748.5102,N,12217.7973,W,1,03,3.1,-9.4,M,-25.1,M,,0000*41
$GPGSA,A,2,15,08,04,,,,,,,,,,3.3,3.1,1.0*38
$GPRMC,215127.004,A,3748.5102,N,12217.7973,W,2.65,143.85,180712,,,A*7E
$GPVTG,143.85,T,,M,2.65,N,4.9,K,N*05
$GPGGA,215128.004,3748.5140,N,12217.7980,W,1,03,3.1,-9.4,M,-25.1,M,,0000*44
$GPGSA,A,2,15,08,04,,,,,,,,,,3.3,3.1,1.0*38
$GPRMC,215128.004,A,3748.5140,N,12217.7980,W,1.43,103.79,180712,,,A*7B
$GPVTG,103.79,T,,M,1.43,N,2.6,K,N*0C
$GPGGA,215129.004,3748.5124,N,12217.8030,W,1,03,3.1,-9.4,M,-25.1,M,,0000*4A
$GPGSA,A,2,15,08,04,,,,,,,,,,3.3,3.1,1.0*38
$GPRMC,215129.004,A,3748.5124,N,12217.8030,W,1.22,77.95,180712,,,A*42
$GPVTG,77.95,T,,M,1.22,N,2.3,K,N*3E
$GPGGA,215130.004,3748.5093,N,12217.8053,W,1,03,3.1,-9.4,M,-25.1,M,,0000*4A
$GPGSA,A,2,15,08,04,,,,,,,,,,3.3,3.1,1.0*38
$GPRMC,215130.004,A,3748.5093,N,12217.8053,W,2.44,33.18,180712,,,A*44
$GPVTG,33.18,T,,M,2.44,N,4.5,K,N*38
$GPGGA,215131.004,3748.5096,N,12217.7997,W,1,03,3.1,-9.4,M,-25.1,M,,0000*40
$GPGSA,A,2,15,08,04,,,,,,,,,,3.3,3.1,1.0*38
$GPGSV,3,1,10,15,32,274,19,08,30,130,34,04,19,161,27,17,80,062,30*7E
$GPGSV,3,2,10,28,50,054,33,27,39,315,24,26,35,221,16,09,23,315,23*73
$GPGSV,3,3,10,01,16,047,20,11,03,038,*77
$GPRMC,215131.004,A,3748.5096,N,12217.7997,W,2.36,84.70,180712,,,A*49
$GPVTG,84.70,T,,M,2.36,N,4.4,K,N*3E
$GPGGA,215132.004,3748.5076,N,12217.7978,W,1,03,3.1,-9.4,M,-25.1,M,,0000*4C
$GPGSA,A,2,15,08,04,,,,,,,,,,3.3,3.1,1.0*38
$GPRMC,215132.004,A,3748.5076,N,12217.7978,W,2.51,92.05,180712,,,A*41
$GPVTG,92.05,T,,M,2.51,N,4.7,K,N*39
$GPGGA,215133.004,3748.5245,N,12217.7803,W,1,04,1.4,-118.8,M,-25.1,M,,0000*4F
$GPGSA,A,3,15,08,28,04,,,,,,,,,1.7,1.4,1.0*32
$GPRMC,215133.004,A,3748.5245,N,12217.7803,W,2.21,148.55,180712,,,A*7B
$GPVTG,148.55,T,,M,2.21,N,4.1,K,A*04
$GPGGA,215134.004,3748.5175,N,12217.7855,W,1,04,1.4,-57.4,M,-25.1,M,,0000*7D
$GPGSA,A,3,15,08,28,04,,,,,,,,,1.7,1.4,1.0*32
$GPRMC,215134.004,A,3748.5175,N,12217.7855,W,1.63,175.69,180712,,,A*7B
$GPVTG,175.69,T,,M,1.63,N,3.0,K,A*06
$GPGGA,215135.004,3748.5146,N,12217.7853,W,1,04,1.4,-43.0,M,-25.1,M,,0000*7B
$GPGSA,A,3,15,08,28,04,,,,,,,,,1.7,1.4,1.0*32
$GPRMC,215135.004,A,3748.5146,N,12217.7853,W,1.42,190.85,180712,,,A*76
$GPVTG,190.85,T,,M,1.42,N,2.6,K,A*0B
$GPGGA,215136.000,3748.5135,N,12217.7848,W,1,04,1.4,-39.5,M,-25.1,M,,0000*7A
$GPGSA,A,3,15,08,28,04,,,,,,,,,1.7,1.4,1.0*32
$GPGSV,3,1,10,28,50,054,33,15,32,273,20,08,30,130,34,04,19,161,28*7B
$GPGSV,3,2,10,17,80,061,30,27,39,315,23,26,35,221,19,09,23,315,23*7F
$GPGSV,3,3,10,01,16,047,29,11,03,038,*7E
$GPRMC,215136.000,A,3748.5135,N,12217.7848,W,1.31,164.50,180712,,,A*78
$GPGGA,215137.000,3748.5134,N,12217.7845,W,1,04,1.4,-42.7,M,-25.1,M,,0000*79
$GPGSA,A,3,15,08,28,04,,,,,,,,,1.7,1.4,1.0*32
$GPRMC,215137.000,A,3748.5134,N,12217.7845,W,1.72,133.69,180712,,,A*7A
$GPVTG,133.69,T,,M,1.72,N,3.2,K,A*06
$GPGGA,215138.000,3748.5123,N,12217.7845,W,1,04,1.4,-38.9,M,-25.1,M,,0000*73
$GPGSA,A,3,15,08,28,04,,,,,,,,,1.7,1.4,1.0*32
$GPRMC,215138.000,A,3748.5123,N,12217.7845,W,2.09,144.42,180712,,,A*75
$GPVTG,144.42,T,,M,2.09,N,3.9,K,A*0B
$GPGGA,215139.000,3748.5122,N,12217.7833,W,1,04,1.4,-42.3,M,-25.1,M,,0000*75
$GPGSA,A,3,15,08,28,04,,,,,,,,,1.7,1.4,1.0*32
$GPRMC,215139.000,A,3748.5122,N,12217.7833,W,2.86,136.82,180712,,,A*7A
$GPVTG,136.82,T,,M,2.86,N,5.3,K,A*09
$GPGGA,215140.000,3748.5100,N,12217.7848,W,1,04,1.4,-30.0,M,-25.1,M,,0000*71
$GPGSA,A,3,15,08,28,04,,,,,,,,,1.7,1.4,1.0*32
$GPRMC,215140.000,A,3748.5100,N,12217.7848,W,1.92,166.97,180712,,,A*7F
$GPVTG,166.97,T,,M,1.92,N,3.6,K,A*0D
$GPGGA,215141.000,3748.5082,N,12217.7853,W,1,04,1.4,-20.4,M,-25.1,M,,0000*74
$GPGSA,A,3,15,08,28,04,,,,,,,,,1.7,1.4,1.0*32
$GPGSV,3,1,10,28,50,054,32,15,32,273,19,08,30,130,35,04,19,161,20*79
$GPGSV,3,2,10,17,80,061,29,27,39,315,23,26,35,221,22,09,23,315,23*7F
$GPGSV,3,3,10,01,16,047,29,11,03,038,*7E
$GPRMC,215141.000,A,3748.5082,N,12217.7853,W,1.56,183.81,180712,,,A*7B
$GPVTG,183.81,T,,M,1.56,N,2.9,K,A*07
$GPGGA,215142.000,3748.5076,N,12217.7853,W,1,04,1.4,-18.2,M,-25.1,M,,0000*71
$GPGSA,A,3,15,08,28,04,,,,,,,,,1.7,1.4,1.0*32
$GPRMC,215142.000,A,3748.5076,N,12217.7853,W,1.24,171.08,180712,,,A*7A
$GPVTG,171.08,T,,M,1.24,N,2.3,K,A*04
$GPGGA,215143.000,3748.5074,N,12217.7845,W,1,04,1.4,-18.2,M,-25.1,M,,0000*75
$GPGSA,A,3,15,08,28,04,,,,,,,,,1.7,1.4,1.0*32
$GPRMC,215143.000,A,3748.5074,N,12217.7845,W,1.28,165.05,180712,,,A*7A
$GPVTG,165.05,T,,M,1.28,N,2.4,K,A*07
$GPGGA,215144.000,3748.5066,N,12217.7844,W,1,04,1.4,-14.6,M,-25.1,M,,0000*78
$GPGSA,A,3,15,08,28,04,,,,,,,,,1.7,1.4,1.0*32
$GPRMC,215144.000,A,3748.5066,N,12217.7844,W,1.13,178.42,180712,,,A*78
$GPVTG,178.42,T,,M,1.13,N,2.1,K,A*05
$GPGGA,215145.000,3748.5059,N,12217.7846,W,1,04,1.4,-11.9,M,-25.1,M,,0000*7D
$GPGSA,A,3,15,08,28,04,,,,,,,,,1.7,1.4,1.0*32
$GPRMC,215145.000,A,3748.5059,N,12217.7846,W,1.17,196.77,180712,,,A*75
$GPVTG,196.77,T,,M,1.17,N,2.2,K,A*04
$GPGGA,215146.000,3748.5052,N,12217.7854,W,1,04,1.4,-9.6,M,-25.1,M,,0000*40
$GPGSA,A,3,15,08,28,04,,,,,,,,,1.7,1.4,1.0*32
$GPGSV,3,1,11,28,50,054,28,15,32,273,20,08,30,130,31,04,19,161,22*7F
$GPGSV,3,2,11,17,80,061,29,27,39,315,24,26,35,221,22,09,23,315,23*79
$GPGSV,3,3,11,01,16,047,30,11,03,038,,51,43,156,26*42
$GPRMC,215146.000,A,3748.5052,N,12217.7854,W,1.70,218.55,180712,,,A*7A
$GPVTG,218.55,T,,M,1.70,N,3.2,K,A*01
$GPGGA,215147.000,3748.5049,N,12217.7856,W,1,04,1.4,-9.6,M,-25.1,M,,0000*49
$GPGSA,A,3,15,08,28,04,,,,,,,,,1.7,1.4,1.0*32
$GPRMC,215147.000,A,3748.5049,N,12217.7856,W,1.17,200.75,180712,,,A*79
$GPVTG,200.75,T,,M,1.17,N,2.2,K,A*0A
$GPGGA,215148.000,3748.5046,N,12217.7850,W,1,04,1.4,-12.3,M,-25.1,M,,0000*70
$GPGSA,A,3,15,08,28,04,,,,,,,,,1.7,1.4,1.0*32
$GPRMC,215148.000,A,3748.5046,N,12217.7850,W,2.28,170.05,180712,,,A*73
$GPVTG,170.05,T,,M,2.28,N,4.2,K,A*00
$GPGGA,215149.000,3748.5048,N,12217.7839,W,1,04,1.4,-16.3,M,-25.1,M,,0000*74
$GPGSA,A,3,15,08,28,04,,,,,,,,,1.7,1.4,1.0*32
$GPRMC,215149.000,A,3748.5048,N,12217.7839,W,1.77,182.29,180712,,,A*79
$GPVTG,182.29,T,,M,1.77,N,3.3,K,A*0C
$GPGGA,215150.000,3748.5047,N,12217.7836,W,1,04,1.4,-18.1,M,-25.1,M,,0000*70
$GPGSA,A,3,15,08,28,04,,,,,,,,,1.7,1.4,1.0*32
$GPRMC,215150.000,A,3748.5047,N,12217.7836,W,2.17,202.97,180712,,,A*7A
$GPVTG,202.97,T,,M,2.17,N,4.0,K,A*03
$GPGGA,215151.000,3748.5045,N,12217.7842,W,1,04,1.4,-20.2,M,-25.1,M,,0000*78
$GPGSA,A,3,15,08,28,04,,,,,,,,,1.7,1.4,1.0*32
$GPGSV,3,1,11,28,50,054,28,15,32,273,21,08,30,130,26,04,19,161,25*7F
$GPGSV,3,2,11,17,80,061,20,27,39,315,20,26,35,221,23,09,23,315,19*7C
$GPGSV,3,3,11,01,16,047,20,11,03,038,,51,43,156,32*46
$GPRMC,215151.000,A,3748.5045,N,12217.7842,W,2.58,211.28,180712,,,A*77
$GPGGA,215152.000,3748.5042,N,12217.7849,W,1,04,1.4,-21.1,M,-25.1,M,,0000*75
$GPGSA,A,3,15,08,28,04,,,,,,,,,1.7,1.4,1.0*32
$GPRMC,215152.000,A,3748.5042,N,12217.7849,W,2.41,204.49,180712,,,A*73
$GPVTG,204.49,T,,M,2.41,N,4.5,K,A*00
$GPGGA,215153.000,3748.5032,N,12217.7858,W,1,04,1.4,-18.6,M,-25.1,M,,0000*7E
$GPGSA,A,3,15,08,28,04,,,,,,,,,1.7,1.4,1.0*32
$GPRMC,215153.000,A,3748.5032,N,12217.7858,W,1.76,211.58,180712,,,A*76
$GPVTG,211.58,T,,M,1.76,N,3.3,K,A*02
$GPGGA,215154.000,3748.5024,N,12217.7864,W,1,04,1.4,-18.7,M,-25.1,M,,0000*70
$GPGSA,A,3,15,08,28,04,,,,,,,,,1.7,1.4,1.0*32
$GPRMC,215154.000,A,3748.5024,N,12217.7864,W,2.20,197.83,180712,,,A*72
$GPVTG,197.83,T,,M,2.20,N,4.1,K,A*0C
$GPGGA,215155.000,3748.5017,N,12217.7863,W,1,04,1.4,-18.3,M,-25.1,M,,0000*72
$GPGSA,A,3,15,08,28,04,,,,,,,,,1.7,1.4,1.0*32
$GPRMC,215155.000,A,3748.5017,N,12217.7863,W,2.32,176.07,180712,,,A*74
$GPVTG,176.07,T,,M,2.32,N,4.3,K,A*0E
$GPGGA,215156.000,3748.5007,N,12217.7865,W,1,04,1.4,-16.9,M,-25.1,M,,0000*72
$GPGSA,A,3,15,08,28,04,,,,,,,,,1.7,1.4,1.0*32
$GPGSV,3,1,11,28,50,054,27,15,32,273,21,08,30,130,20,04,19,161,29*7A
$GPGSV,3,2,11,17,80,061,21,27,39,315,19,26,35,221,25,09,23,315,17*7F
$GPGSV,3,3,11,01,16,047,21,11,03,038,,48,44,197,34*43
$GPRMC,215156.000,A,3748.5007,N,12217.7865,W,1.82,194.66,180712,,,A*73
$GPVTG,194.66,T,,M,1.82,N,3.4,K,A*0D
$GPGGA,215157.000,3748.4994,N,12217.7877,W,1,04,1.4,-14.5,M,-25.1,M,,0000*7C
$GPGSA,A,3,15,08,28,04,,,,,,,,,1.7,1.4,1.0*32
$GPRMC,215157.000,A,3748.4994,N,12217.7877,W,2.32,220.23,180712,,,A*76
$GPVTG,220.23,T,,M,2.32,N,4.3,K,A*08
$GPGGA,215158.000,3748.4985,N,12217.7887,W,1,04,1.4,-13.8,M,-25.1,M,,0000*76
$GPGSA,A,3,15,08,28,04,,,,,,,,,1.7,1.4,1.0*32
$GPRMC,215158.000,A,3748.4985,N,12217.7887,W,2.29,206.49,180712,,,A*74
$GPVTG,206.49,T,,M,2.29,N,4.2,K,A*0B
$GPGGA,215159.000,3748.4977,N,12217.7897,W,1,04,1.4,-12.8,M,-25.1,M,,0000*7A
$GPGSA,A,3,15,08,28,04,,,,,,,,,1.7,1.4,1.0*32
$GPRMC,215159.000,A,3748.4977,N,12217.7897,W,2.40,217.58,180712,,,A*76
$GPVTG,217.58,T,,M,2.40,N,4.4,K,A*02
$GPGGA,215200.000,3748.4969,N,12217.7905,W,1,04,1.4,-11.4,M,-25.1,M,,0000*7F
$GPGSA,A,3,15,08,28,04,,,,,,,,,1.7,1.4,1.0*32
$GPRMC,215200.000,A,3748.4969,N,12217.7905,W,2.45,212.82,180712,,,A*7B
$GPVTG,212.82,T,,M,2.45,N,4.5,K,A*04
$GPGGA,215201.000,3748.4963,N,12217.7909,W,1,04,1.4,-11.1,M,-25.1,M,,0000*7D
$GPGSA,A,3,15,08,28,04,,,,,,,,,1.7,1.4,1.0*32
$GPGSV,3,1,11,28,50,054,34,15,32,273,22,08,30,130,41,04,19,161,38*7C
$GPGSV,3,2,11,17,80,061,34,27,39,315,25,26,35,221,32,09,23,315,18*7D
$GPGSV,3,3,11,01,16,047,25,11,03,038,,48,44,197,36*45
$GPRMC,215201.000,A,3748.4963,N,12217.7909,W,2.30,213.78,180712,,,A*7A
$GPVTG,213.78,T,,M,2.30,N,4.3,K,A*04
$GPGGA,215202.000,3748.4957,N,12217.7909,W,1,04,1.4,-12.0,M,-25.1,M,,0000*7B
$GPGSA,A,3,15,08,28,04,,,,,,,,,1.7,1.4,1.0*32
$GPRMC,215202.000,A,3748.4957,N,12217.7909,W,2.41,206.29,180712,,,A*78
$GPVTG,206.29,T,,M,2.41,N,4.5,K,A*04
$GPGGA,215203.000,3748.4950,N,12217.7910,W,1,04,1.4,-12.3,M,-25.1,M,,0000*76
$GPGSA,A,3,15,08,28,04,,,,,,,,,1.7,1.4,1.0*32
$GPRMC,215203.000,A,3748.4950,N,12217.7910,W,2.31,192.69,180712,,,A*7B
$GPVTG,192.69,T,,M,2.31,N,4.3,K,A*0F
$GPGGA,215204.000,3748.4945,N,12217.7907,W,1,04,1.4,-13.0,M,-25.1,M,,0000*71
$GPGSA,A,3,15,08,28,04,,,,,,,,,1.7,1.4,1.0*32
$GPRMC,215204.000,A,3748.4945,N,12217.7907,W,2.40,199.24,180712,,,A*7A
$GPVTG,199.24,T,,M,2.40,N,4.4,K,A*0C
$GPGGA,215205.000,3748.4938,N,12217.7910,W,1,04,1.4,-13.0,M,-25.1,M,,0000*7C
$GPGSA,A,3,15,08,28,04,,,,,,,,,1.7,1.4,1.0*32
$GPRMC,215205.000,A,3748.4938,N,12217.7910,W,2.40,206.99,180712,,,A*74
$GPVTG,206.99,T,,M,2.40,N,4.4,K,A*0F
$GPGGA,215206.000,3748.4933,N,12217.7908,W,1,04,1.4,-13.8,M,-25.1,M,,0000*75
$GPGSA,A,3,15,08,28,04,,,,,,,,,1.7,1.4,1.0*32
$GPGSV,3,1,11,28,50,054,34,15,32,273,22,08,30,130,40,04,19,161,38*7D
$GPGSV,3,2,11,17,80,061,34,27,39,315,19,26,35,221,25,09,23,315,20*7F
$GPGSV,3,3,11,01,16,047,30,11,03,038,,48,44,197,36*41
$GPRMC,215206.000,A,3748.4933,N,12217.7908,W,2.05,189.62,180712,,,A*74
$GPGGA,215207.000,3748.4929,N,12217.7904,W,1,04,1.4,-14.7,M,-25.1,M,,0000*7B
$GPGSA,A,3,15,08,28,04,,,,,,,,,1.7,1.4,1.0*32
$GPRMC,215207.000,A,3748.4929,N,12217.7904,W,1.95,201.69,180712,,,A*70
$GPVTG,201.69,T,,M,1.95,N,3.6,K,A*09
$GPGGA,215208.000,3748.4925,N,12217.7902,W,1,04,1.4,-15.5,M,-25.1,M,,0000*7D
$GPGSA,A,3,15,08,28,04,,,,,,,,,1.7,1.4,1.0*32
$GPRMC,215208.000,A,3748.4925,N,12217.7902,W,1.97,206.72,180712,,,A*7A
$GPVTG,206.72,T,,M,1.97,N,3.6,K,A*06
$GPGGA,215209.000,3748.4920,N,12217.7899,W,1,04,1.4,-16.4,M,-25.1,M,,0000*78
$GPGSA,A,3,15,08,28,04,,,,,,,,,1.7,1.4,1.0*32
$GPRMC,215209.000,A,3748.4920,N,12217.7899,W,2.16,195.93,180712,,,A*71
$GPVTG,195.93,T,,M,2.16,N,4.0,K,A*0B
$GPGGA,215210.000,3748.4913,N,12217.7905,W,1,04,1.4,-16.2,M,-25.1,M,,0000*72
$GPGSA,A,3,15,08,28,04,,,,,,,,,1.7,1.4,1.0*32
$GPRMC,215210.000,A,3748.4913,N,12217.7905,W,2.35,190.34,180712,,,A*74
$GPVTG,190.34,T,,M,2.35,N,4.3,K,A*01
$GPGGA,215211.000,3748.4905,N,12217.7913,W,1,04,1.4,-15.8,M,-25.1,M,,0000*7A
$GPGSA,A,3,15,08,28,04,,,,,,,,,1.7,1.4,1.0*32
$GPGSV,3,1,11,28,50,054,28,15,32,273,21,08,30,130,37,04,19,161,38*73
$GPGSV,3,2,11,17,80,061,31,27,39,315,20,26,35,221,25,09,23,315,21*71
$GPGSV,3,3,11,01,16,047,25,11,03,038,,48,44,197,31*42
$GPRMC,215211.000,A,3748.4905,N,12217.7913,W,2.19,208.93,180712,,,A*74
$GPVTG,208.93,T,,M,2.19,N,4.1,K,A*02
$GPGGA,215212.000,3748.4899,N,12217.7918,W,1,04,1.4,-16.0,M,-25.1,M,,0000*7D
$GPGSA,A,3,15,08,28,04,,,,,,,,,1.7,1.4,1.0*32
$GPRMC,215212.000,A,3748.4899,N,12217.7918,W,2.74,220.12,180712,,,A*70
$GPVTG,220.12,T,,M,2.74,N,5.1,K,A*0B
$GPGGA,215213.000,3748.4894,N,12217.7926,W,1,04,1.4,-16.0,M,-25.1,M,,0000*7C
$GPGSA,A,3,15,08,28,04,,,,,,,,,1.7,1.4,1.0*32
$GPRMC,215213.000,A,3748.4894,N,12217.7926,W,2.66,212.98,180712,,,A*71
$GPVTG,212.98,T,,M,2.66,N,4.9,K,A*02
$GPGGA,215214.000,3748.4889,N,12217.7929,W,1,04,1.4,-16.4,M,-25.1,M,,0000*7C
$GPGSA,A,3,15,08,28,04,,,,,,,,,1.7,1.4,1.0*32
$GPRMC,215214.000,A,3748.4889,N,12217.7929,W,2.56,206.63,180712,,,A*77
$GPVTG,206.63,T,,M,2.56,N,4.7,K,A*0E
$GPGGA,215215.000,3748.4882,N,12217.7932,W,1,04,1.4,-16.6,M,-25.1,M,,0000*7E
$GPGSA,A,3,15,08,28,04,,,,,,,,,1.7,1.4,1.0*32
$GPRMC,215215.000,A,3748.4882,N,12217.7932,W,2.37,203.60,180712,,,A*76
$GPVTG,203.60,T,,M,2.37,N,4.4,K,A*0C
$GPGGA,215216.000,3748.4876,N,12217.7934,W,1,04,1.4,-17.0,M,-25.1,M,,0000*77
$GPGSA,A,3,15,08,28,04,,,,,,,,,1.7,1.4,1.0*32
$GPGSV,3,1,11,17,79,060,30,28,49,055,29,27,40,315,19,26,35,221,24*71
$GPGSV,3,2,11,15,32,273,21,08,30,130,36,09,24,316,19,04,20,161,38*7C
$GPGSV,3,3,11,01,16,047,19,11,02,038,,48,44,197,36*4B
$GPRMC,215216.000,A,3748.4876,N,12217.7934,W,2.52,211.93,180712,,,A*74
$GPVTG,211.93,T,,M,2.52,N,4.7,K,A*03
$GPGGA,215217.000,3748.4870,N,12217.7937,W,1,04,1.4,-17.3,M,-25.1,M,,0000*70
$GPGSA,A,3,15,08,28,04,,,,,,,,,1.7,1.4,1.0*32
$GPRMC,215217.000,A,3748.4870,N,12217.7937,W,2.50,212.04,180712,,,A*7F
$GPVTG,212.04,T,,M,2.50,N,4.6,K,A*0D
$GPGGA,215218.000,3748.4864,N,12217.7941,W,1,04,1.4,-17.4,M,-25.1,M,,0000*7C
$GPGSA,A,3,15,08,28,04,,,,,,,,,1.7,1.4,1.0*32
$GPRMC,215218.000,A,3748.4864,N,12217.7941,W,2.45,204.43,180712,,,A*74
$GPVTG,204.43,T,,M,2.45,N,4.5,K,A*0E
$GPGGA,215219.000,3748.4857,N,12217.7946,W,1,04,1.4,-17.3,M,-25.1,M,,0000*7D
$GPGSA,A,3,15,08,28,04,,,,,,,,,1.7,1.4,1.0*32
$GPRMC,215219.000,A,3748.4857,N,12217.7946,W,2.35,195.95,180712,,,A*75
$GPVTG,195.95,T,,M,2.35,N,4.4,K,A*08
$GPGGA,215220.000,3748.4851,N,12217.7949,W,1,04,1.4,-17.4,M,-25.1,M,,0000*79
$GPGSA,A,3,15,08,28,04,,,,,,,,,1.7,1.4,1.0*32
$GPRMC,215220.000,A,3748.4851,N,12217.7949,W,2.34,203.43,180712,,,A*70
$GPVTG,203.43,T,,M,2.34,N,4.3,K,A*09
$GPGGA,215221.000,3748.4845,N,12217.7955,W,1,04,1.4,-17.3,M,-25.1,M,,0000*77
$GPGSA,A,3,15,08,28,04,,,,,,,,,1.7,1.4,1.0*32
$GPGSV,3,1,11,17,79,060,31,28,49,055,33,27,40,315,19,26,35,221,18*74
$GPGSV,3,2,11,15,32,273,21,08,30,130,37,09,24,316,19,04,20,161,38*7D
$GPGSV,3,3,11,01,16,047,26,11,02,038,,48,44,197,33*42
$GPRMC,215221.000,A,3748.4845,N,12217.7955,W,2.57,216.91,180712,,,A*77
$GPVTG,216.91,T,,M,2.57,N,4.8,K,A*0C
$GPGGA,215222.000,3748.4839,N,12217.7954,W,1,04,1.4,-17.8,M,-25.1,M,,0000*75
$GPGSA,A,3,15,08,28,04,,,,,,,,,1.7,1.4,1.0*32
$GPRMC,215222.000,A,3748.4839,N,12217.7954,W,2.35,203.46,180712,,,A*74
$GPVTG,203.46,T,,M,2.35,N,4.4,K,A*0A
$GPGGA,215223.000,3748.4833,N,12217.7950,W,1,04,1.4,-18.5,M,-25.1,M,,0000*78
$GPGSA,A,3,15,08,28,04,,,,,,,,,1.7,1.4,1.0*32
$GPRMC,215223.000,A,3748.4833,N,12217.7950,W,2.21,191.36,180712,,,A*71
$GPVTG,191.36,T,,M,2.21,N,4.1,K,A*05
$GPGGA,215224.000,3748.4828,N,12217.7943,W,1,04,1.4,-19.3,M,-25.1,M,,0000*70
$GPGSA,A,3,15,08,28,04,,,,,,,,,1.7,1.4,1.0*32
$GPRMC,215224.000,A,3748.4828,N,12217.7943,W,2.37,166.39,180712,,,A*7E
$GPVTG,166.39,T,,M,2.37,N,4.4,K,A*00
$GPGGA,215225.000,3748.4822,N,12217.7936,W,1,04,1.4,-20.0,M,-25.1,M,,0000*70
$GPGSA,A,3,15,08,28,04,,,,,,,,,1.7,1.4,1.0*32
$GPRMC,215225.000,A,3748.4822,N,12217.7936,W,2.30,167.13,180712,,,A*79
$GPVTG,167.13,T,,M,2.30,N,4.3,K,A*09
$GPGGA,215226.000,3748.4817,N,12217.7932,W,1,04,1.4,-20.6,M,-25.1,M,,0000*77
$GPGSA,A,3,15,08,28,04,,,,,,,,,1.7,1.4,1.0*32
$GPGSV,3,1,11,17,79,060,31,28,49,055,32,27,40,315,19,26,35,221,18*75
$GPGSV,3,2,11,15,32,273,20,08,30,130,37,09,24,316,19,04,20,161,38*7C
$GPGSV,3,3,11,01,16,047,26,11,02,038,,48,44,197,29*49
$GPRMC,215226.000,A,3748.4817,N,12217.7932,W,2.10,180.22,180712,,,A*71
$GPVTG,180.22,T,,M,2.10,N,3.9,K,A*0D
$GPGGA,215227.000,3748.4811,N,12217.7933,W,1,04,1.4,-21.1,M,-25.1,M,,0000*77
$GPGSA,A,3,15,08,28,04,,,,,,,,,1.7,1.4,1.0*32
$GPRMC,215227.000,A,3748.4811,N,12217.7933,W,2.29,202.44,180712,,,A*74
$GPVTG,202.44,T,,M,2.29,N,4.2,K,A*02
$GPGGA,215228.000,3748.4806,N,12217.7931,W,1,04,1.4,-21.7,M,-25.1,M,,0000*7A
$GPGSA,A,3,15,08,28,04,,,,,,,,,1.7,1.4,1.0*32
$GPRMC,215228.000,A,3748.4806,N,12217.7931,W,1.95,197.47,180712,,,A*77
$GPVTG,197.47,T,,M,1.95,N,3.6,K,A*09
$GPGGA,215229.000,3748.4803,N,12217.7930,W,1,04,1.4,-22.4,M,-25.1,M,,0000*7F
$GPGSA,A,3,15,08,28,04,,,,,,,,,1.7,1.4,1.0*32
$GPRMC,215229.000,A,3748.4803,N,12217.7930,W,1.83,211.93,180712,,,A*71
$GPVTG,211.93,T,,M,1.83,N,3.4,K,A*08
$GPGGA,215230.000,3748.4802,N,12217.7926,W,1,04,1.4,-23.7,M,-25.1,M,,0000*73
$GPGSA,A,3,15,08,28,04,,,,,,,,,1.7,1.4,1.0*32
$GPRMC,215230.000,A,3748.4802,N,12217.7926,W,1.98,206.39,180712,,,A*73
$GPVTG,206.39,T,,M,1.98,N,3.7,K,A*07
$GPGGA,215231.000,3748.4799,N,12217.7928,W,1,04,1.4,-24.5,M,-25.1,M,,0000*74
$GPGSA,A,3,15,08,28,04,,,,,,,,,1.7,1.4,1.0*32
$GPGSV,3,1,11,17,79,060,30,28,49,055,27,27,40,315,18,26,35,221,24*7E
$GPGSV,3,2,11,15,32,273,20,08,30,130,37,09,24,316,18,04,20,161,38*7D
$GPGSV,3,3,11,01,16,047,23,11,02,038,,48,44,197,37*43
$GPRMC,215231.000,A,3748.4799,N,12217.7928,W,2.15,214.90,180712,,,A*77
$GPVTG,214.90,T,,M,2.15,N,4.0,K,A*01
$GPGGA,215232.000,3748.4796,N,12217.7928,W,1,04,1.4,-25.3,M,-25.1,M,,0000*7F
$GPGSA,A,3,15,08,28,04,,,,,,,,,1.7,1.4,1.0*32
$GPRMC,215232.000,A,3748.4796,N,12217.7928,W,2.18,198.16,180712,,,A*7F
$GPVTG,198.16,T,,M,2.18,N,4.0,K,A*05
$GPGGA,215233.000,3748.4791,N,12217.7934,W,1,04,1.4,-25.6,M,-25.1,M,,0000*71
$GPGSA,A,3,15,08,28,04,,,,,,,,,1.7,1.4,1.0*32
$GPRMC,215233.000,A,3748.4791,N,12217.7934,W,2.19,192.48,180712,,,A*74
$GPVTG,192.48,T,,M,2.19,N,4.1,K,A*04
$GPGGA,215234.000,3748.4786,N,12217.7944,W,1,04,1.4,-25.6,M,-25.1,M,,0000*77
$GPGSA,A,3,15,08,28,04,,,,,,,,,1.7,1.4,1.0*32
$GPRMC,215234.000,A,3748.4786,N,12217.7944,W,2.24,205.64,180712,,,A*7F
$GPVTG,205.64,T,,M,2.24,N,4.2,K,A*0A
$GPGGA,215235.000,3748.4781,N,12217.7951,W,1,04,1.4,-25.8,M,-25.1,M,,0000*7B
$GPGSA,A,3,15,08,28,04,,,,,,,,,1.7,1.4,1.0*32
$GPRMC,215235.000,A,3748.4781,N,12217.7951,W,1.98,207.13,180712,,,A*7B
$GPVTG,207.13,T,,M,1.98,N,3.7,K,A*0E
$GPGGA,215236.000,3748.4776,N,12217.7959,W,1,04,1.4,-25.8,M,-25.1,M,,0000*78
$GPGSA,A,3,15,08,28,04,,,,,,,,,1.7,1.4,1.0*32
$GPGSV,3,1,11,17,79,060,32,28,49,055,31,27,40,315,18,26,35,221,23*7C
$GPGSV,3,2,11,15,32,273,20,08,30,130,37,09,24,316,18,04,20,161,36*73
$GPGSV,3,3,11,01,16,047,27,11,02,038,16,48,44,197,32*45
$GPRMC,215236.000,A,3748.4776,N,12217.7959,W,2.21,206.61,180712,,,A*7D
$GPVTG,206.61,T,,M,2.21,N,4.1,K,A*0A
$GPGGA,215237.000,3748.4771,N,12217.7969,W,1,04,1.4,-25.8,M,-25.1,M,,0000*7D
$GPGSA,A,3,15,08,28,04,,,,,,,,,1.7,1.4,1.0*32
$GPRMC,215237.000,A,3748.4771,N,12217.7969,W,2.26,203.57,180712,,,A*7F
$GPVTG,203.57,T,,M,2.26,N,4.2,K,A*0E
$GPGGA,215238.000,3748.4765,N,12217.7977,W,1,04,1.4,-25.8,M,-25.1,M,,0000*78
$GPGSA,A,3,15,08,28,04,,,,,,,,,1.7,1.4,1.0*32
$GPRMC,215238.000,A,3748.4765,N,12217.7977,W,2.41,207.08,180712,,,A*75
$GPVTG,207.08,T,,M,2.41,N,4.5,K,A*06
$GPGGA,215239.000,3748.4760,N,12217.7984,W,1,04,1.4,-25.8,M,-25.1,M,,0000*70
$GPGSA,A,3,15,08,28,04,,,,,,,,,1.7,1.4,1.0*32
$GPRMC,215239.000,A,3748.4760,N,12217.7984,W,2.20,202.45,180712,,,A*76
$GPVTG,202.45,T,,M,2.20,N,4.1,K,A*09
$GPGGA,215240.000,3748.4755,N,12217.7988,W,1,04,1.4,-26.0,M,-25.1,M,,0000*7F
$GPGSA,A,3,15,08,28,04,,,,,,,,,1.7,1.4,1.0*32
$GPRMC,215240.000,A,3748.4755,N,12217.7988,W,2.18,197.24,180712,,,A*71
$GPVTG,197.24,T,,M,2.18,N,4.0,K,A*0B
$GPGGA,215241.000,3748.4749,N,12217.7992,W,1,04,1.4,-26.2,M,-25.1,M,,0000*7A
$GPGSA,A,3,15,08,28,04,,,,,,,,,1.7,1.4,1.0*32
$GPGSV,3,1,11,17,79,060,32,28,49,055,32,27,40,315,19,26,35,221,32*7E
$GPGSV,3,2,11,15,32,273,20,08,30,130,37,09,24,316,18,04,20,161,35*70
$GPGSV,3,3,11,01,16,047,26,11,02,038,16,48,44,197,35*43
$GPRMC,215241.000,A,3748.4749,N,12217.7992,W,2.32,199.76,180712,,,A*77
$GPVTG,199.76,T,,M,2.32,N,4.3,K,A*09
$GPGGA,215242.000,3748.4744,N,12217.7998,W,1,04,1.4,-26.4,M,-25.1,M,,0000*78
$GPGSA,A,3,15,08,28,04,,,,,,,,,1.7,1.4,1.0*32
$GPRMC,215242.000,A,3748.4744,N,12217.7998,W,2.26,206.25,180712,,,A*75
$GPVTG,206.25,T,,M,2.26,N,4.2,K,A*0E
$GPGGA,215243.000,3748.4738,N,12217.8007,W,1,04,1.4,-26.2,M,-25.1,M,,0000*74
$GPGSA,A,3,15,08,28,04,,,,,,,,,1.7,1.4,1.0*32
$GPRMC,215243.000,A,3748.4738,N,12217.8007,W,2.56,210.27,180712,,,A*7D
$GPVTG,210.27,T,,M,2.56,N,4.7,K,A*09
$GPGGA,215244.000,3748.4731,N,12217.8030,W,1,04,1.4,-25.1,M,-25.1,M,,0000*7E
$GPGSA,A,3,15,08,28,04,,,,,,,,,1.7,1.4,1.0*32
$GPRMC,215244.000,A,3748.4731,N,12217.8030,W,2.91,229.97,180712,,,A*7D
$GPVTG,229.97,T,,M,2.91,N,5.4,K,A*01
$GPGGA,215245.000,3748.4722,N,12217.8054,W,1,04,1.4,-23.8,M,-25.1,M,,0000*70
$GPGSA,A,3,15,08,28,04,,,,,,,,,1.7,1.4,1.0*32
$GPRMC,215245.000,A,3748.4722,N,12217.8054,W,2.77,228.44,180712,,,A*7B
$GPVTG,228.44,T,,M,2.77,N,5.1,K,A*03
$GPGGA,215246.000,3748.4717,N,12217.8061,W,1,04,1.4,-23.8,M,-25.1,M,,0000*73
$GPGSA,A,3,15,08,28,04,,,,,,,,,1.7,1.4,1.0*32
$GPGSV,3,1,11,17,79,059,32,28,49,055,30,27,40,314,18,26,35,221,33*77
$GPGSV,3,2,11,15,32,273,30,08,30,131,37,09,24,316,18,04,20,161,36*73
$GPGSV,3,3,11,01,16,047,21,11,02,037,16,48,44,197,37*49
$GPRMC,215246.000,A,3748.4717,N,12217.8061,W,2.42,216.06,180712,,,A*75
$GPVTG,216.06,T,,M,2.42,N,4.5,K,A*0B
$GPGGA,215247.000,3748.4711,N,12217.8079,W,1,04,1.4,-23.0,M,-25.1,M,,0000*75
$GPGSA,A,3,15,08,28,04,,,,,,,,,1.7,1.4,1.0*32
$GPRMC,215247.000,A,3748.4711,N,12217.8079,W,2.73,226.03,180712,,,A*7F
$GPVTG,226.03,T,,M,2.73,N,5.1,K,A*0A
$GPGGA,215248.000,3748.4705,N,12217.8092,W,1,04,1.4,-22.4,M,-25.1,M,,0000*7F
$GPGSA,A,3,15,08,28,04,,,,,,,,,1.7,1.4,1.0*32
$GPRMC,215248.000,A,3748.4705,N,12217.8092,W,2.58,218.22,180712,,,A*77
$GPVTG,218.22,T,,M,2.58,N,4.8,K,A*05
$GPGGA,215249.000,3748.4698,N,12217.8104,W,1,04,1.4,-21.9,M,-25.1,M,,0000*7B
$GPGSA,A,3,15,08,28,04,,,,,,,,,1.7,1.4,1.0*32
$GPRMC,215249.000,A,3748.4698,N,12217.8104,W,2.65,212.59,180712,,,A*75
$GPVTG,212.59,T,,M,2.65,N,4.9,K,A*0C
$GPGGA,215250.000,3748.4693,N,12217.8114,W,2,04,1.4,-21.5,M,-25.1,M,1.8,0000*51
$GPGSA,A,3,15,08,28,04,,,,,,,,,1.7,1.4,1.0*32
$GPRMC,215250.000,A,3748.4693,N,12217.8114,W,2.64,217.34,180712,,,D*7D
$GPVTG,217.34,T,,M,2.64,N,4.9,K,D*06
$GPGGA,215251.000,3748.4687,N,12217.8125,W,2,04,1.4,-21.1,M,-25.1,M,1.8,0000*53
$GPGSA,A,3,15,08,28,04,,,,,,,,,1.7,1.4,1.0*32
$GPGSV,3,1,11,17,79,059,32,28,49,055,31,27,40,314,21,26,35,221,33*7C
$GPGSV,3,2,11,15,32,273,30,08,30,131,37,09,24,316,22,04,20,161,36*7A
$GPGSV,3,3,11,01,16,047,22,11,02,037,14,48,44,197,37*48
$GPRMC,215251.000,A,3748.4687,N,12217.8125,W,2.69,220.00,180712,,,D*75
$GPGGA,215252.000,3748.4682,N,12217.8136,W,2,04,1.4,-20.7,M,-25.1,M,0.8,0000*51
$GPGSA,A,3,15,08,28,04,,,,,,,,,1.7,1.4,1.0*32
$GPRMC,215252.000,A,3748.4682,N,12217.8136,W,2.62,214.60,180712,,,D*7B
$GPVTG,214.60,T,,M,2.62,N,4.9,K,D*02
$GPGGA,215253.000,3748.4676,N,12217.8145,W,2,04,1.4,-20.2,M,-25.1,M,1.8,0000*5B
$GPGSA,A,3,15,08,28,04,,,,,,,,,1.7,1.4,1.0*32
$GPRMC,215253.000,A,3748.4676,N,12217.8145,W,2.57,216.89,180712,,,D*76
$GPVTG,216.89,T,,M,2.57,N,4.8,K,D*00
$GPGGA,215254.000,3748.4671,N,12217.8155,W,2,04,1.4,-19.8,M,-25.1,M,2.8,0000*59
$GPGSA,A,3,15,08,28,04,,,,,,,,,1.7,1.4,1.0*32
$GPRMC,215254.000,A,3748.4671,N,12217.8155,W,2.48,219.03,180712,,,D*74
$GPVTG,219.03,T,,M,2.48,N,4.6,K,D*0D
$GPGGA,215255.000,3748.4665,N,12217.8163,W,2,04,1.4,-19.4,M,-25.1,M,3.8,0000*55
$GPGSA,A,3,15,08,28,04,,,,,,,,,1.7,1.4,1.0*32
$GPRMC,215255.000,A,3748.4665,N,12217.8163,W,2.51,219.00,180712,,,D*7E
$GPVTG,219.00,T,,M,2.51,N,4.6,K,D*06
$GPGGA,215256.000,3748.4661,N,12217.8166,W,2,04,1.4,-19.4,M,-25.1,M,1.8,0000*55
$GPGSA,A,3,15,08,28,04,,,,,,,,,1.7,1.4,1.0*32
$GPGSV,3,1,11,17,79,059,33,28,49,055,31,27,40,314,27,26,35,221,33*7B
$GPGSV,3,2,11,15,32,273,29,08,30,131,37,09,24,316,22,04,20,161,37*73
$GPGSV,3,3,11,01,16,047,22,11,02,037,,48,44,197,36*4C
$GPRMC,215256.000,A,3748.4661,N,12217.8166,W,2.37,203.92,180712,,,D*7C
$GPVTG,203.92,T,,M,2.37,N,4.4,K,D*04
$GPGGA,215257.000,3748.4655,N,12217.8175,W,2,04,1.4,-18.9,M,-25.1,M,1.8,0000*5D
$GPGSA,A,3,15,08,28,04,,,,,,,,,1.7,1.4,1.0*32
$GPRMC,215257.000,A,3748.4655,N,12217.8175,W,2.36,215.88,180712,,,D*75
$GPVTG,215.88,T,,M,2.36,N,4.4,K,D*09
$GPGGA,215258.000,3748.4650,N,12217.8178,W,2,04,1.4,-18.9,M,-25.1,M,1.8,0000*5A
$GPGSA,A,3,15,08,28,04,,,,,,,,,1.7,1.4,1.0*32
$GPRMC,215258.000,A,3748.4650,N,12217.8178,W,2.25,216.70,180712,,,D*74
$GPVTG,216.70,T,,M,2.25,N,4.2,K,D*09
$GPGGA,215259.000,3748.4646,N,12217.8183,W,2,04,1.4,-18.8,M,-25.1,M,2.8,0000*5A
$GPGSA,A,3,15,08,28,04,,,,,,,,,1.7,1.4,1.0*32
$GPRMC,215259.000,A,3748.4646,N,12217.8183,W,2.07,205.75,180712,,,D*71
$GPVTG,205.75,T,,M,2.07,N,3.8,K,D*03
$GPGGA,215300.000,3748.4640,N,12217.8192,W,2,04,1.4,-18.3,M,-25.1,M,1.8,0000*59
$GPGSA,A,3,15,08,28,04,,,,,,,,,1.7,1.4,1.0*32
$GPRMC,215300.000,A,3748.4640,N,12217.8192,W,2.20,206.32,180712,,,D*7F
$GPVTG,206.32,T,,M,2.20,N,4.1,K,D*08
$GPGGA,215301.000,3748.4636,N,12217.8195,W,2,04,1.4,-18.3,M,-25.1,M,1.8,0000*5E
$GPGSA,A,3,15,08,28,04,,,,,,,,,1.7,1.4,1.0*32
$GPGSV,3,1,11,17,79,059,33,28,49,055,31,27,40,314,25,26,35,221,24*7F
$GPGSV,3,2,11,15,32,273,24,08,30,131,38,09,24,316,18,04,20,161,37*78
$GPGSV,3,3,11,01,16,047,22,11,02,037,,48,44,197,33*49
$GPRMC,215301.000,A,3748.4636,N,12217.8195,W,2.20,214.23,180712,,,D*7B
$GPVTG,214.23,T,,M,2.20,N,4.1,K,D*0B
$GPGGA,215302.000,3748.4631,N,12217.8202,W,2,04,1.4,-18.0,M,-25.1,M,1.8,0000*54
$GPGSA,A,3,15,08,28,04,,,,,,,,,1.7,1.4,1.0*32
$GPRMC,215302.000,A,3748.4631,N,12217.8202,W,2.18,207.09,180712,,,D*73
$GPVTG,207.09,T,,M,2.18,N,4.0,K,D*0B
$GPGGA,215303.000,3748.4626,N,12217.8205,W,2,03,4.5,-17.9,M,-25.1,M,2.8,0000*52
$GPGSA,A,2,08,28,04,,,,,,,,,,4.6,4.5,1.0*37
$GPRMC,215303.000,A,3748.4626,N,12217.8205,W,2.17,205.83,180712,,,D*7C
$GPVTG,205.83,T,,M,2.17,N,4.0,K,N*0E
$GPGGA,215304.000,3748.4621,N,12217.8205,W,2,04,1.4,-18.1,M,-25.1,M,3.8,0000*57
$GPGSA,A,3,15,08,28,04,,,,,,,,,1.7,1.4,1.0*32
$GPRMC,215304.000,A,3748.4621,N,12217.8205,W,2.08,211.94,180712,,,D*71
$GPVTG,211.94,T,,M,2.08,N,3.8,K,D*06
$GPGGA,215305.000,3748.4617,N,12217.8209,W,2,03,4.5,-18.1,M,-25.1,M,4.8,0000*5B
$GPGSA,A,2,08,28,04,,,,,,,,,,4.6,4.5,1.0*37
$GPRMC,215305.000,A,3748.4617,N,12217.8209,W,2.10,217.79,180712,,,D*75
$GPVTG,217.79,T,,M,2.10,N,3.9,K,D*0B
$GPGGA,215306.000,3748.4616,N,12217.8206,W,2,04,1.4,-18.6,M,-25.1,M,5.8,0000*53
$GPGSA,A,3,15,08,28,04,,,,,,,,,1.7,1.4,1.0*32
$GPGSV,3,1,11,17,79,059,26,28,49,055,23,27,40,314,18,26,35,221,34*77
$GPGSV,3,2,11,15,32,273,17,08,30,131,38,09,24,316,19,04,20,161,37*79
$GPGSV,3,3,11,01,16,047,22,11,02,037,,48,44,197,33*49
$GPRMC,215306.000,A,3748.4616,N,12217.8206,W,1.36,218.26,180712,,,D*7A
$GPGGA,215307.000,3748.4615,N,12217.8209,W,2,04,1.4,-18.8,M,-25.1,M,6.8,0000*53
$GPGSA,A,3,15,08,28,04,,,,,,,,,1.7,1.4,1.0*32
$GPRMC,215307.000,A,3748.4615,N,12217.8209,W,1.50,223.28,180712,,,D*71
$GPVTG,223.28,T,,M,1.50,N,2.8,K,D*0F
$GPGGA,215308.000,3748.4616,N,12217.8211,W,2,04,1.4,-19.1,M,-25.1,M,1.8,0000*59
$GPGSA,A,3,15,08,28,04,,,,,,,,,1.7,1.4,1.0*32
$GPRMC,215308.000,A,3748.4616,N,12217.8211,W,1.52,211.91,180712,,,D*75
$GPVTG,211.91,T,,M,1.52,N,2.8,K,D*0E
$GPGGA,215309.000,3748.4609,N,12217.8217,W,2,04,1.4,-19.0,M,-25.1,M,1.8,0000*51
$GPGSA,A,3,15,08,28,04,,,,,,,,,1.7,1.4,1.0*32
$GPRMC,215309.000,A,3748.4609,N,12217.8217,W,2.15,210.97,180712,,,D*7B
$GPVTG,210.97,T,,M,2.15,N,4.0,K,D*07
$GPGGA,215310.000,3748.4602,N,12217.8224,W,2,04,1.4,-18.7,M,-25.1,M,1.8,0000*54
$GPGSA,A,3,15,08,28,04,,,,,,,,,1.7,1.4,1.0*32
$GPRMC,215310.000,A,3748.4602,N,12217.8224,W,2.16,213.92,180712,,,D*7D
$GPVTG,213.92,T,,M,2.16,N,4.0,K,D*02
$GPGGA,215311.000,3748.4595,N,12217.8231,W,2,04,1.4,-18.5,M,-25.1,M,2.8,0000*5D
$GPGSA,A,3,15,08,28,04,,,,,,,,,1.7,1.4,1.0*32
$GPGSV,3,1,11,17,79,059,33,28,49,055,30,27,40,314,26,26,35,221,33*7B
$GPGSV,3,2,11,15,32,273,29,08,30,131,38,09,24,316,18,04,20,161,37*75
$GPGSV,3,3,11,01,16,047,22,11,02,037,,48,44,197,37*4D
$GPRMC,215311.000,A,3748.4595,N,12217.8231,W,2.26,216.69,180712,,,D*77
$GPVTG,216.69,T,,M,2.26,N,4.2,K,D*02
$GPGGA,215312.000,3748.4588,N,12217.8238,W,2,04,1.4,-18.2,M,-25.1,M,1.8,0000*5F
$GPGSA,A,3,15,08,28,04,,,,,,,,,1.7,1.4,1.0*32
$GPRMC,215312.000,A,3748.4588,N,12217.8238,W,2.36,215.00,180712,,,D*7C
$GPVTG,215.00,T,,M,2.36,N,4.4,K,D*09
$GPGGA,215313.000,3748.4581,N,12217.8245,W,2,04,1.4,-18.0,M,-25.1,M,2.8,0000*5C
$GPGSA,A,3,15,08,28,04,,,,,,,,,1.7,1.4,1.0*32
$GPRMC,215313.000,A,3748.4581,N,12217.8245,W,2.32,214.12,180712,,,D*78
$GPVTG,214.12,T,,M,2.32,N,4.3,K,D*08
$GPGGA,215314.000,3748.4575,N,12217.8250,W,2,04,1.4,-17.9,M,-25.1,M,1.8,0000*51
$GPGSA,A,3,15,08,28,04,,,,,,,,,1.7,1.4,1.0*32
$GPRMC,215314.000,A,3748.4575,N,12217.8250,W,2.28,211.60,180712,,,D*7B
$GPVTG,211.60,T,,M,2.28,N,4.2,K,D*02
$GPGGA,215315.000,3748.4568,N,12217.8255,W,2,04,1.4,-17.7,M,-25.1,M,1.8,0000*57
$GPGSA,A,3,15,08,28,04,,,,,,,,,1.7,1.4,1.0*32
$GPRMC,215315.000,A,3748.4568,N,12217.8255,W,2.31,206.51,180712,,,D*7F
$GPVTG,206.51,T,,M,2.31,N,4.3,K,D*0F
$GPGGA,215316.000,3748.4560,N,12217.8260,W,2,04,1.4,-17.4,M,-25.1,M,1.8,0000*59
$GPGSA,A,3,15,08,28,04,,,,,,,,,1.7,1.4,1.0*32
$GPGSV,3,1,11,17,79,058,33,28,49,055,30,27,40,314,19,26,34,221,33*77
$GPGSV,3,2,11,15,32,273,29,08,29,131,37,09,24,316,18,04,20,161,37*72
$GPGSV,3,3,11,01,16,046,21,11,02,037,,48,44,197,37*4F
$GPRMC,215316.000,A,3748.4560,N,12217.8260,W,2.15,207.17,180712,,,D*77
$GPVTG,207.17,T,,M,2.15,N,4.0,K,D*09
$GPGGA,215317.000,3748.4553,N,12217.8266,W,2,04,1.4,-17.2,M,-25.1,M,2.8,0000*5B
$GPGSA,A,3,15,08,28,04,,,,,,,,,1.7,1.4,1.0*32
$GPRMC,215317.000,A,3748.4553,N,12217.8266,W,2.13,212.62,180712,,,D*70
$GPVTG,212.62,T,,M,2.13,N,4.0,K,D*09
$GPGGA,215318.000,3748.4547,N,12217.8271,W,2,04,1.4,-17.0,M,-25.1,M,3.8,0000*54
$GPGSA,A,3,15,08,28,04,,,,,,,,,1.7,1.4,1.0*32
$GPRMC,215318.000,A,3748.4547,N,12217.8271,W,2.33,212.57,180712,,,D*78
$GPVTG,212.57,T,,M,2.33,N,4.3,K,D*0E
$GPGGA,215319.000,3748.4541,N,12217.8276,W,2,04,1.4,-16.8,M,-25.1,M,4.8,0000*5A
$GPGSA,A,3,15,08,28,04,,,,,,,,,1.7,1.4,1.0*32
$GPRMC,215319.000,A,3748.4541,N,12217.8276,W,2.38,218.37,180712,,,D*7F
$GPVTG,218.37,T,,M,2.38,N,4.4,K,D*0E
$GPGGA,215320.000,3748.4535,N,12217.8281,W,2,04,1.4,-16.7,M,-25.1,M,1.8,0000*51
$GPGSA,A,3,15,08,28,04,,,,,,,,,1.7,1.4,1.0*32
$GPRMC,215320.000,A,3748.4535,N,12217.8281,W,2.46,218.44,180712,,,D*73
$GPVTG,218.44,T,,M,2.46,N,4.6,K,D*01
$GPGGA,215321.000,3748.4530,N,12217.8287,W,2,04,1.4,-16.5,M,-25.1,M,1.8,0000*51
$GPGSA,A,3,15,08,28,04,,,,,,,,,1.7,1.4,1.0*32
$GPGSV,3,1,11,17,79,058,33,28,49,055,30,27,40,314,28,26,34,221,29*7E
$GPGSV,3,2,11,15,32,273,29,08,29,131,37,09,24,316,17,04,20,161,37*7D
$GPGSV,3,3,11,01,16,046,20,11,02,037,,48,44,197,36*4F
$GPRMC,215321.000,A,3748.4530,N,12217.8287,W,2.28,217.44,180712,,,D*76
$GPGGA,215322.000,3748.4524,N,12217.8292,W,2,04,1.4,-16.3,M,-25.1,M,1.8,0000*55
$GPGSA,A,3,15,08,28,04,,,,,,,,,1.7,1.4,1.0*32
$GPRMC,215322.000,A,3748.4524,N,12217.8292,W,2.07,214.06,180712,,,D*7C
$GPVTG,214.06,T,,M,2.07,N,3.8,K,D*07
$GPGGA,215323.000,3748.4519,N,12217.8296,W,2,04,1.4,-16.2,M,-25.1,M,2.8,0000*5C
$GPGSA,A,3,15,08,28,04,,,,,,,,,1.7,1.4,1.0*32
$GPRMC,215323.000,A,3748.4519,N,12217.8296,W,2.17,212.32,180712,,,D*77
$GPVTG,212.32,T,,M,2.17,N,4.0,K,D*08
$GPGGA,215324.000,3748.4514,N,12217.8300,W,2,04,1.4,-16.2,M,-25.1,M,3.8,0000*59
$GPGSA,A,3,15,08,28,04,,,,,,,,,1.7,1.4,1.0*32
$GPRMC,215324.000,A,3748.4514,N,12217.8300,W,2.29,215.17,180712,,,D*7E
$GPVTG,215.17,T,,M,2.29,N,4.2,K,D*07
$GPGGA,215325.000,3748.4509,N,12217.8305,W,2,04,1.4,-16.1,M,-25.1,M,4.8,0000*55
$GPGSA,A,3,15,08,28,04,,,,,,,,,1.7,1.4,1.0*32
$GPRMC,215325.000,A,3748.4509,N,12217.8305,W,2.34,215.11,180712,,,D*7C
$GPVTG,215.11,T,,M,2.34,N,4.3,K,D*0C
$GPGGA,215326.000,3748.4504,N,12217.8306,W,2,04,1.4,-16.4,M,-25.1,M,1.8,0000*58
$GPGSA,A,3,15,08,28,04,,,,,,,,,1.7,1.4,1.0*32
$GPGSV,3,1,11,17,79,058,33,28,49,055,30,27,40,314,25,26,34,221,28*72
$GPGSV,3,2,11,15,32,273,21,08,29,131,37,09,24,316,18,04,20,161,36*7B
$GPGSV,3,3,11,01,16,046,21,11,02,037,,48,44,197,33*4B
$GPRMC,215326.000,A,3748.4504,N,12217.8306,W,2.24,221.79,180712,,,D*79
$GPVTG,221.79,T,,M,2.24,N,4.1,K,D*06
$GPGGA,215327.000,3748.4500,N,12217.8310,W,2,04,1.4,-16.2,M,-25.1,M,1.8,0000*5C
$GPGSA,A,3,15,08,28,04,,,,,,,,,1.7,1.4,1.0*32
$GPRMC,215327.000,A,3748.4500,N,12217.8310,W,2.09,220.88,180712,,,D*7B
$GPVTG,220.88,T,,M,2.09,N,3.9,K,D*09
$GPGGA,215328.000,3748.4494,N,12217.8316,W,2,04,1.4,-16.2,M,-25.1,M,1.8,0000*59
$GPGSA,A,3,15,08,28,04,,,,,,,,,1.7,1.4,1.0*32
$GPRMC,215328.000,A,3748.4494,N,12217.8316,W,2.15,215.29,180712,,,D*7E
$GPVTG,215.29,T,,M,2.15,N,4.0,K,D*07
$GPGGA,215329.000,3748.4488,N,12217.8320,W,2,04,1.4,-16.3,M,-25.1,M,1.8,0000*51
$GPGSA,A,3,15,08,28,04,,,,,,,,,1.7,1.4,1.0*32
$GPRMC,215329.000,A,3748.4488,N,12217.8320,W,2.25,209.11,180712,,,D*72
$GPVTG,209.11,T,,M,2.25,N,4.2,K,D*00
$GPGGA,215330.000,3748.4482,N,12217.8325,W,2,04,1.4,-16.0,M,-25.1,M,2.8,0000*56
$GPGSA,A,3,15,08,28,04,,,,,,,,,1.7,1.4,1.0*32
$GPRMC,215330.000,A,3748.4482,N,12217.8325,W,2.36,210.66,180712,,,D*7F
$GPVTG,210.66,T,,M,2.36,N,4.4,K,D*0C
$GPGGA,215331.000,3748.4476,N,12217.8330,W,2,04,1.4,-15.7,M,-25.1,M,3.8,0000*5D
$GPGSA,A,3,15,08,28,04,,,,,,,,,1.7,1.4,1.0*32
$GPGSV,3,1,11,17,79,058,33,28,49,055,31,27,40,314,26,26,34,221,32*7B
$GPGSV,3,2,11,15,32,273,28,08,29,131,38,09,24,316,17,04,20,161,28*7D
$GPGSV,3,3,11,01,16,046,21,11,02,037,,48,44,197,36*4E
$GPRMC,215331.000,A,3748.4476,N,12217.8330,W,2.33,205.78,180712,,,D*7F
$GPVTG,205.78,T,,M,2.33,N,4.3,K,D*05
$GPGGA,215332.000,3748.4471,N,12217.8334,W,2,04,1.4,-15.4,M,-25.1,M,1.8,0000*5C
$GPGSA,A,3,15,08,28,04,,,,,,,,,1.7,1.4,1.0*32
$GPRMC,215332.000,A,3748.4471,N,12217.8334,W,2.16,210.65,180712,,,D*70
$GPVTG,210.65,T,,M,2.16,N,4.0,K,D*09
$GPGGA,215333.000,3748.4465,N,12217.8338,W,2,04,1.4,-15.2,M,-25.1,M,1.8,0000*52
$GPGSA,A,3,15,08,28,04,,,,,,,,,1.7,1.4,1.0*32
$GPRMC,215333.000,A,3748.4465,N,12217.8338,W,2.09,213.65,180712,,,D*75
$GPVTG,213.65,T,,M,2.09,N,3.9,K,D*0A
$GPGGA,215334.000,3748.4460,N,12217.8343,W,2,04,1.4,-15.1,M,-25.1,M,1.8,0000*5F
$GPGSA,A,3,15,08,28,04,,,,,,,,,1.7,1.4,1.0*32
$GPRMC,215334.000,A,3748.4460,N,12217.8343,W,2.26,213.73,180712,,,D*71
$GPVTG,213.73,T,,M,2.26,N,4.2,K,D*0C
$GPGGA,215335.000,3748.4454,N,12217.8348,W,2,04,1.4,-15.0,M,-25.1,M,2.8,0000*50
$GPGSA,A,3,15,08,28,04,,,,,,,,,1.7,1.4,1.0*32
$GPRMC,215335.000,A,3748.4454,N,12217.8348,W,2.29,214.55,180712,,,D*70
$GPVTG,214.55,T,,M,2.29,N,4.2,K,D*00
$GPGGA,215336.000,3748.4449,N,12217.8350,W,2,04,1.4,-15.0,M,-25.1,M,3.8,0000*57
$GPGSA,A,3,15,08,28,04,,,,,,,,,1.7,1.4,1.0*32
$GPGSV,3,1,11,17,79,058,33,28,49,055,31,27,40,314,26,26,34,221,24*7C
$GPGSV,3,2,11,15,32,273,23,08,29,131,38,09,24,316,18,04,20,161,31*71
$GPGSV,3,3,11,01,16,046,21,11,02,037,,48,44,197,32*4A
$GPVTG,202.55,T,,M,2.07,N,3.8,K,D*06
$GPGGA,215337.000,3748.4443,N,12217.8360,W,2,04,1.4,-14.5,M,-25.1,M,1.8,0000*59
$GPGSA,A,3,15,08,28,04,,,,,,,,,1.7,1.4,1.0*32
$GPRMC,215337.000,A,3748.4443,N,12217.8360,W,2.14,204.65,180712,,,D*72
$GPVTG,204.65,T,,M,2.14,N,4.0,K,D*0E
$GPGGA,215338.000,3748.4437,N,12217.8365,W,2,04,1.4,-14.3,M,-25.1,M,1.8,0000*56
$GPGSA,A,3,15,08,28,04,,,,,,,,,1.7,1.4,1.0*32
$GPRMC,215338.000,A,3748.4437,N,12217.8365,W,2.35,209.68,180712,,,D*78
$GPVTG,209.68,T,,M,2.35,N,4.3,K,D*0E
$GPGGA,215339.000,3748.4431,N,12217.8371,W,2,04,1.4,-14.2,M,-25.1,M,1.8,0000*55
$GPGSA,A,3,15,08,28,04,,,,,,,,,1.7,1.4,1.0*32
$GPRMC,215339.000,A,3748.4431,N,12217.8371,W,2.52,211.35,180712,,,D*7A
$GPVTG,211.35,T,,M,2.52,N,4.7,K,D*0A
$GPGGA,215340.000,3748.4426,N,12217.8373,W,2,04,1.4,-14.3,M,-25.1,M,1.8,0000*5E
$GPGSA,A,3,15,08,28,04,,,,,,,,,1.7,1.4,1.0*32
$GPRMC,215340.000,A,3748.4426,N,12217.8373,W,2.17,213.35,180712,,,D*73
$GPVTG,213.35,T,,M,2.17,N,4.0,K,D*0E
$GPGGA,215341.000,3748.4420,N,12217.8376,W,2,04,1.4,-14.2,M,-25.1,M,2.8,0000*5E
$GPGSA,A,3,15,08,28,04,,,,,,,,,1.7,1.4,1.0*32
$GPGSV,3,1,11,17,79,058,31,28,49,055,29,27,40,314,25,26,34,221,31*70
$GPGSV,3,2,11,15,32,273,30,08,29,131,38,09,24,316,18,04,20,161,32*70
$GPGSV,3,3,11,01,16,046,22,11,02,037,,48,44,197,35*4E
$GPRMC,215341.000,A,3748.4420,N,12217.8376,W,2.34,205.40,180712,,,D*75
$GPVTG,205.40,T,,M,2.34,N,4.3,K,D*09
$GPGGA,215342.000,3748.4413,N,12217.8381,W,2,04,1.4,-14.1,M,-25.1,M,1.8,0000*55
$GPGSA,A,3,15,08,28,04,,,,,,,,,1.7,1.4,1.0*32
$GPRMC,215342.000,A,3748.4413,N,12217.8381,W,2.52,208.64,180712,,,D*75
$GPVTG,208.64,T,,M,2.52,N,4.7,K,D*06
$GPGGA,215343.000,3748.4406,N,12217.8386,W,2,04,1.4,-13.9,M,-25.1,M,2.8,0000*5B
$GPGSA,A,3,15,08,28,04,,,,,,,,,1.7,1.4,1.0*32
$GPRMC,215343.000,A,3748.4406,N,12217.8386,W,2.42,214.65,180712,,,D*7A
$GPVTG,214.65,T,,M,2.42,N,4.5,K,D*09
$GPGGA,215344.000,3748.4400,N,12217.8391,W,2,04,1.4,-13.8,M,-25.1,M,1.8,0000*5E
$GPGSA,A,3,15,08,28,04,,,,,,,,,1.7,1.4,1.0*32
$GPRMC,215344.000,A,3748.4400,N,12217.8391,W,2.33,208.32,180712,,,D*74
$GPVTG,208.32,T,,M,2.33,N,4.3,K,D*06
$GPGGA,215345.000,3748.4395,N,12217.8387,W,2,04,1.4,-14.2,M,-25.1,M,1.8,0000*5E
$GPGSA,A,3,15,08,28,04,,,,,,,,,1.7,1.4,1.0*32
$GPRMC,215345.000,A,3748.4395,N,12217.8387,W,2.21,198.24,180712,,,D*77
$GPVTG,198.24,T,,M,2.21,N,4.1,K,D*0A
$GPGGA,215346.000,3748.4388,N,12217.8385,W,2,04,1.4,-14.3,M,-25.1,M,1.8,0000*52
$GPGSA,A,3,15,08,28,04,,,,,,,,,1.7,1.4,1.0*32
$GPGSV,3,1,11,17,79,057,34,28,49,055,32,27,40,314,27,26,34,220,30*72
$GPGSV,3,2,11,15,32,272,22,08,29,131,38,09,24,316,18,04,20,161,37*77
$GPGSV,3,3,11,01,16,046,28,11,02,037,,48,44,197,34*45
$GPRMC,215346.000,A,3748.4388,N,12217.8385,W,2.24,177.65,180712,,,D*7B
$GPVTG,177.65,T,,M,2.24,N,4.1,K,D*0B
$GPGGA,215347.000,3748.4382,N,12217.8388,W,2,04,1.4,-14.2,M,-25.1,M,2.8,0000*56
$GPGSA,A,3,15,08,28,04,,,,,,,,,1.7,1.4,1.0*32
$GPRMC,215347.000,A,3748.4382,N,12217.8388,W,2.12,199.99,180712,,,D*7B
$GPVTG,199.99,T,,M,2.12,N,3.9,K,D*02
$GPGGA,215348.000,3748.4376,N,12217.8395,W,2,04,1.4,-14.1,M,-25.1,M,1.8,0000*5E
$GPGSA,A,3,15,08,28,04,,,,,,,,,1.7,1.4,1.0*32
$GPRMC,215348.000,A,3748.4376,N,12217.8395,W,2.38,217.66,180712,,,D*7E
$GPVTG,217.66,T,,M,2.38,N,4.4,K,D*05
$GPGGA,215349.000,3748.4370,N,12217.8407,W,2,04,1.4,-13.7,M,-25.1,M,2.8,0000*57
$GPGSA,A,3,15,08,28,04,,,,,,,,,1.7,1.4,1.0*32
$GPRMC,215349.000,A,3748.4370,N,12217.8407,W,2.41,217.29,180712,,,D*70
$GPVTG,217.29,T,,M,2.41,N,4.5,K,D*01
$GPGGA,215350.000,3748.4365,N,12217.8416,W,2,04,1.4,-13.5,M,-25.1,M,1.8,0000*5A
$GPGSA,A,3,15,08,28,04,,,,,,,,,1.7,1.4,1.0*32
$GPRMC,215350.000,A,3748.4365,N,12217.8416,W,2.31,216.36,180712,,,D*74
$GPVTG,216.36,T,,M,2.31,N,4.3,K,D*0F
$GPGGA,215351.000,3748.4359,N,12217.8423,W,2,04,1.4,-13.3,M,-25.1,M,1.8,0000*54
$GPGSA,A,3,15,08,28,04,,,,,,,,,1.7,1.4,1.0*32
$GPGSV,3,1,11,17,79,057,33,28,49,055,32,27,40,314,27,26,34,220,25*71
$GPGSV,3,2,11,15,32,272,29,08,29,131,35,09,24,316,19,04,20,161,37*70
$GPGSV,3,3,11,01,16,046,27,11,02,037,,48,44,197,31*4F
$GPRMC,215351.000,A,3748.4359,N,12217.8423,W,2.47,214.88,180712,,,D*7A
$GPGGA,215352.000,3748.4353,N,12217.8427,W,2,04,1.4,-13.3,M,-25.1,M,1.8,0000*59
$GPGSA,A,3,15,08,28,04,,,,,,,,,1.7,1.4,1.0*32
$GPRMC,215352.000,A,3748.4353,N,12217.8427,W,2.45,211.54,180712,,,D*71
$GPVTG,211.54,T,,M,2.45,N,4.5,K,D*09
