$ADVER,3080,2.3
$GPRMC,214734.345,A,3748.5666,N,12217.8638,W,1.55,164.35,180712,,,A*79
$GPGGA,214735.345,3748.5665,N,12217.8636,W,1,03,2.3,25.1,M,-25.1,M,,0000*51
$GPGSA,A,2,17,26,27,,,,,,,,,,2.5,2.3,1.0*33
$GPGSV,3,1,10,17,81,069,38,27,38,315,34,26,37,223,39,28,51,052,*7F
$GPGSV,3,2,10,08,32,129,42,09,22,315,,04,18,162,39,01,17,049,*7A
$GPGSV,3,3,10,11,04,039,,48,00,000,43*7D
$GPRMC,214735.345,A,3748.5665,N,12217.8636,W,1.05,182.18,180712,,,A*77
$GPVTG,182.18,T,,M,1.05,N,1.9,K,N*0C
$GPGGA,214736.345,3748.5651,N,12217.8624,W,1,03,2.3,25.1,M,-25.1,M,,0000*56
$GPGSA,A,2,17,26,27,,,,,,,,,,2.5,2.3,1.0*33
$GPRMC,214736.345,A,3748.5651,N,12217.8624,W,1.71,169.62,180712,,,A*7B
$GPVTG,169.62,T,,M,1.71,N,3.2,K,N*0E
$GPGGA,214737.345,3748.5645,N,12217.8621,W,1,03,2.3,25.1,M,-25.1,M,,0000*57
$GPGSA,A,2,17,26,27,,,,,,,,,,2.5,2.3,1.0*33
$GPRMC,214737.345,A,3748.5645,N,12217.8621,W,1.64,171.11,180712,,,A*73
$GPVTG,171.11,T,,M,1.64,N,3.0,K,N*05
$GPGGA,214738.345,3748.5641,N,12217.8620,W,1,03,2.3,25.1,M,-25.1,M,,0000*5D
$GPGSA,A,2,17,26,27,,,,,,,,,,2.5,2.3,1.0*33
$GPRMC,214738.345,A,3748.5641,N,12217.8620,W,1.80,156.70,180712,,,A*71
$GPVTG,156.70,T,,M,1.80,N,3.3,K,N*0E
$GPGGA,214739.345,3748.5636,N,12217.8618,W,1,03,2.3,25.1,M,-25.1,M,,0000*57
$GPGSA,A,2,17,26,27,,,,,,,,,,2.5,2.3,1.0*33
$GPRMC,214739.345,A,3748.5636,N,12217.8618,W,1.73,155.37,180712,,,A*77
$GPVTG,155.37,T,,M,1.73,N,3.2,K,N*03
$GPGGA,214740.345,3748.5632,N,12217.8618,W,1,03,2.3,25.1,M,-25.1,M,,0000*5D
$GPGSA,A,2,17,26,27,,,,,,,,,,2.5,2.3,1.0*33
$GPGSV,3,1,10,17,81,069,41,27,38,315,38,26,37,223,39,28,51,052,42*7B
$GPGSV,3,2,10,08,32,129,40,09,22,315,38,04,18,162,39,01,17,049,21*70
$GPGSV,3,3,10,11,04,039,,48,00,000,39*70
$GPRMC,214740.345,A,3748.5632,N,12217.8618,W,1.77,167.85,180712,,,A*71
$GPGGA,214741.345,3748.5627,N,12217.8616,W,1,03,2.3,25.1,M,-25.1,M,,0000*56
$GPGSA,A,2,17,26,27,,,,,,,,,,2.5,2.3,1.0*33
$GPRMC,214741.345,A,3748.5627,N,12217.8616,W,1.82,164.39,180712,,,A*74
$GPVTG,164.39,T,,M,1.82,N,3.4,K,N*07
$GPGGA,214742.345,3748.5622,N,12217.8614,W,1,03,2.2,25.1,M,-25.1,M,,0000*53
$GPGSA,A,2,17,26,27,,,,,,,,,,2.5,2.2,1.0*32
$GPRMC,214742.345,A,3748.5622,N,12217.8614,W,1.90,159.85,180712,,,A*7A
$GPVTG,159.85,T,,M,1.90,N,3.5,K,N*0C
$GPGGA,214743.345,3748.5618,N,12217.8610,W,1,03,2.2,25.1,M,-25.1,M,,0000*5F
$GPGSA,A,2,17,26,27,,,,,,,,,,2.5,2.2,1.0*32
$GPRMC,214743.345,A,3748.5618,N,12217.8610,W,1.81,144.89,180712,,,A*76
$GPVTG,144.89,T,,M,1.81,N,3.4,K,N*0D
$GPGGA,214744.345,3748.5613,N,12217.8608,W,1,03,2.2,25.1,M,-25.1,M,,0000*5A
$GPGSA,A,2,17,26,27,,,,,,,,,,2.5,2.2,1.0*32
$GPRMC,214744.345,A,3748.5613,N,12217.8608,W,1.75,154.91,180712,,,A*70
$GPVTG,154.91,T,,M,1.75,N,3.2,K,N*08
$GPGGA,214745.345,3748.5609,N,12217.8606,W,1,03,2.2,25.1,M,-25.1,M,,0000*5E
$GPGSA,A,2,17,26,27,,,,,,,,,,2.5,2.2,1.0*32
$GPGSV,3,1,10,17,81,069,41,27,38,315,39,26,37,223,39,28,51,052,42*7A
$GPGSV,3,2,10,08,32,129,38,09,22,315,39,04,18,162,38,01,17,049,33*7C
$GPGSV,3,3,10,11,04,039,,48,00,000,39*70
$GPRMC,214745.345,A,3748.5609,N,12217.8606,W,1.71,147.03,180712,,,A*79
$GPVTG,147.03,T,,M,1.71,N,3.2,K,N*05
$GPGGA,214746.345,3748.5607,N,12217.8602,W,1,03,2.2,25.1,M,-25.1,M,,0000*57
$GPGSA,A,2,17,26,27,,,,,,,,,,2.5,2.2,1.0*32
$GPRMC,214746.345,A,3748.5607,N,12217.8602,W,1.69,128.14,180712,,,A*76
$GPVTG,128.14,T,,M,1.69,N,3.1,K,N*00
$GPGGA,214747.345,3748.5605,N,12217.8597,W,1,03,2.2,25.1,M,-25.1,M,,0000*5B
$GPGSA,A,2,17,26,27,,,,,,,,,,2.5,2.2,1.0*32
$GPRMC,214747.345,A,3748.5605,N,12217.8597,W,1.65,126.24,180712,,,A*7B
$GPVTG,126.24,T,,M,1.65,N,3.0,K,N*00
$GPGGA,214748.345,3748.5603,N,12217.8594,W,1,03,2.2,25.1,M,-25.1,M,,0000*51
$GPGSA,A,2,17,26,27,,,,,,,,,,2.5,2.2,1.0*32
$GPRMC,214748.345,A,3748.5603,N,12217.8594,W,1.46,132.71,180712,,,A*75
$GPVTG,132.71,T,,M,1.46,N,2.7,K,N*02
$GPGGA,214749.345,3748.5600,N,12217.8592,W,1,03,2.2,25.1,M,-25.1,M,,0000*55
$GPGSA,A,2,17,26,27,,,,,,,,,,2.5,2.2,1.0*32
$GPRMC,214749.345,A,3748.5600,N,12217.8592,W,1.36,133.00,180712,,,A*71
$GPVTG,133.00,T,,M,1.36,N,2.5,K,N*00
$GPGGA,214750.345,3748.5598,N,12217.8598,W,2,03,2.2,25.1,M,-25.1,M,,0000*56
$GPGSA,A,2,17,26,27,,,,,,,,,,2.5,2.2,1.0*32
$GPGSV,3,1,10,17,81,069,41,27,38,315,40,26,37,223,38,28,51,052,34*74
$GPGSV,3,2,10,08,32,129,30,09,22,315,39,04,18,162,37,01,17,048,26*7E
$GPGSV,3,3,10,11,04,038,,48,44,197,39*7E
$GPVTG,131.28,T,,M,1.52,N,2.8,K,N*07
$GPGGA,214751.345,3748.5595,N,12217.8617,W,2,03,2.2,25.1,M,-25.1,M,3.2,0000*71
$GPGSA,A,2,17,26,27,,,,,,,,,,2.5,2.2,1.0*32
$GPRMC,214751.345,A,3748.5595,N,12217.8617,W,1.39,152.49,180712,,,D*79
$GPVTG,152.49,T,,M,1.39,N,2.6,K,N*06
$GPGGA,214752.345,3748.5594,N,12217.8611,W,2,03,2.2,25.1,M,-25.1,M,,0000*5A
$GPGSA,A,2,17,26,27,,,,,,,,,,2.5,2.2,1.0*32
$GPRMC,214752.345,A,3748.5594,N,12217.8611,W,0.85,101.61,180712,,,D*77
$GPVTG,101.61,T,,M,0.85,N,1.6,K,N*0F
$GPGGA,214753.345,3748.5593,N,12217.8606,W,2,03,2.2,25.1,M,-25.1,M,,0000*5A
$GPGSA,A,2,17,26,27,,,,,,,,,,2.5,2.2,1.0*32
$GPRMC,214753.345,A,3748.5593,N,12217.8606,W,0.64,171.35,180712,,,D*7E
$GPVTG,171.35,T,,M,0.64,N,1.2,K,N*02
$GPGGA,214754.345,3748.5590,N,12217.8609,W,2,03,2.2,25.1,M,-25.1,M,,0000*51
$GPGSA,A,2,17,26,27,,,,,,,,,,2.5,2.2,1.0*32
$GPRMC,214754.345,A,3748.5590,N,12217.8609,W,1.32,161.86,180712,,,D*7E
$GPVTG,161.86,T,,M,1.32,N,2.5,K,N*0D
$GPGGA,214755.345,3748.5587,N,12217.8610,W,2,03,2.2,25.1,M,-25.1,M,,0000*5E
$GPGSA,A,2,17,26,27,,,,,,,,,,2.5,2.2,1.0*32
$GPGSV,3,1,10,17,81,069,39,27,38,315,37,26,37,223,39,28,51,052,29*76
$GPGSV,3,2,10,08,32,129,37,09,22,315,37,04,18,162,37,01,17,048,22*73
$GPGSV,3,3,10,11,04,038,,48,44,197,38*7F
$GPRMC,214755.345,A,3748.5587,N,12217.8610,W,1.15,175.76,180712,,,D*7E
$GPVTG,175.76,T,,M,1.15,N,2.1,K,N*06
$GPGGA,214756.345,3748.5582,N,12217.8609,W,2,03,2.2,25.1,M,-25.1,M,3.2,0000*7F
$GPGSA,A,2,17,26,27,,,,,,,,,,2.5,2.2,1.0*32
$GPRMC,214756.345,A,3748.5582,N,12217.8609,W,1.30,172.92,180712,,,D*7A
$GPVTG,172.92,T,,M,1.30,N,2.4,K,N*09
$GPGGA,214757.345,3748.5574,N,12217.8604,W,2,03,2.2,25.1,M,-25.1,M,2.2,0000*7B
$GPGSA,A,2,17,26,27,,,,,,,,,,2.5,2.2,1.0*32
$GPRMC,214757.345,A,3748.5574,N,12217.8604,W,1.20,194.41,180712,,,D*78
$GPVTG,194.41,T,,M,1.20,N,2.2,K,N*08
$GPGGA,214758.345,3748.5572,N,12217.8562,W,2,04,1.9,13.2,M,-25.1,M,2.2,0000*78
$GPGSA,A,3,17,26,27,15,,,,,,,,,2.2,1.9,1.0*38
$GPRMC,214758.345,A,3748.5572,N,12217.8562,W,1.18,213.34,180712,,,D*77
$GPVTG,213.34,T,,M,1.18,N,2.2,K,D*07
$GPGGA,214759.345,3748.5574,N,12217.8548,W,2,04,1.9,10.9,M,-25.1,M,3.2,0000*7E
$GPGSA,A,3,17,26,27,15,,,,,,,,,2.2,1.9,1.0*38
$GPRMC,214759.345,A,3748.5574,N,12217.8548,W,1.28,186.02,180712,,,D*71
$GPVTG,186.02,T,,M,1.28,N,2.4,K,D*08
$GPGGA,214800.345,3748.5568,N,12217.8556,W,2,04,1.9,12.1,M,-25.1,M,,0000*5A
$GPGSA,A,3,17,26,27,15,,,,,,,,,2.2,1.9,1.0*38
$GPGSV,3,1,11,17,81,068,39,27,38,315,35,26,36,222,38,15,32,275,37*76
$GPGSV,3,2,11,28,51,052,36,08,32,129,39,09,22,315,37,04,18,162,32*7E
$GPGSV,3,3,11,01,17,048,21,11,04,038,19,48,44,197,39*4F
$GPRMC,214800.345,A,3748.5568,N,12217.8556,W,1.14,195.92,180712,,,D*74
$GPVTG,195.92,T,,M,1.14,N,2.1,K,D*09
$GPGGA,214801.000,3748.5566,N,12217.8559,W,2,04,1.9,12.7,M,-25.1,M,2.8,0000*7A
$GPGSA,A,3,17,26,27,15,,,,,,,,,2.2,1.9,1.0*38
$GPRMC,214801.000,A,3748.5566,N,12217.8559,W,0.83,198.54,180712,,,D*7E
$GPVTG,198.54,T,,M,0.83,N,1.5,K,D*06
$GPGGA,214802.000,3748.5564,N,12217.8563,W,2,04,1.9,13.2,M,-25.1,M,3.8,0000*77
$GPGSA,A,3,17,26,27,15,,,,,,,,,2.2,1.9,1.0*38
$GPRMC,214802.000,A,3748.5564,N,12217.8563,W,0.93,229.32,180712,,,D*7E
$GPVTG,229.32,T,,M,0.93,N,1.7,K,D*0C
$GPGGA,214803.000,3748.5565,N,12217.8565,W,2,04,1.9,13.3,M,-25.1,M,,0000*55
$GPGSA,A,3,17,26,27,15,,,,,,,,,2.2,1.9,1.0*38
$GPRMC,214803.000,A,3748.5565,N,12217.8565,W,0.40,331.55,180712,,,D*7F
$GPVTG,331.55,T,,M,0.40,N,0.7,K,D*0A
$GPGGA,214804.000,3748.5565,N,12217.8566,W,2,04,1.9,13.8,M,-25.1,M,,0000*5A
$GPGSA,A,3,17,26,27,15,,,,,,,,,2.2,1.9,1.0*38
$GPRMC,214804.000,A,3748.5565,N,12217.8566,W,0.17,138.77,180712,,,D*72
$GPVTG,138.77,T,,M,0.17,N,0.3,K,D*07
$GPGGA,214805.000,3748.5564,N,12217.8566,W,2,04,1.9,14.2,M,-25.1,M,,0000*57
$GPGSA,A,3,17,26,27,15,,,,,,,,,2.2,1.9,1.0*38
$GPGSV,3,1,11,17,81,068,39,27,38,315,37,26,36,222,38,15,32,275,37*74
$GPGSV,3,2,11,28,51,052,36,08,32,129,32,09,22,315,38,04,18,162,38*70
$GPGSV,3,3,11,01,17,048,21,11,04,038,20,48,44,197,37*4B
$GPRMC,214805.000,A,3748.5564,N,12217.8566,W,0.41,144.99,180712,,,D*7A
$GPGGA,214806.000,3748.5564,N,12217.8566,W,2,04,1.9,14.5,M,-25.1,M,,0000*53
$GPGSA,A,3,17,26,27,15,,,,,,,,,2.2,1.9,1.0*38
$GPRMC,214806.000,A,3748.5564,N,12217.8566,W,0.27,153.47,180712,,,D*7C
$GPVTG,153.47,T,,M,0.27,N,0.5,K,D*0C
$GPGGA,214807.000,3748.5567,N,12217.8586,W,2,04,1.9,18.6,M,-25.1,M,2.8,0000*74
$GPGSA,A,3,17,26,27,15,,,,,,,,,2.2,1.9,1.0*38
$GPRMC,214807.000,A,3748.5567,N,12217.8586,W,1.08,348.45,180712,,,D*76
$GPVTG,348.45,T,,M,1.08,N,2.0,K,D*0D
$GPGGA,214808.000,3748.5575,N,12217.8579,W,2,04,1.9,16.7,M,-25.1,M,3.8,0000*76
$GPGSA,A,3,17,26,27,15,,,,,,,,,2.2,1.9,1.0*38
$GPRMC,214808.000,A,3748.5575,N,12217.8579,W,1.58,19.29,180712,,,D*42
$GPVTG,19.29,T,,M,1.58,N,2.9,K,D*3C
$GPGGA,214809.000,3748.5586,N,12217.8583,W,2,04,1.9,16.5,M,-25.1,M,4.8,0000*7B
$GPGSA,A,3,17,26,27,15,,,,,,,,,2.2,1.9,1.0*38
$GPRMC,214809.000,A,3748.5586,N,12217.8583,W,2.10,12.02,180712,,,D*47
$GPVTG,12.02,T,,M,2.10,N,3.9,K,D*30
$GPGGA,214810.000,3748.5588,N,12217.8570,W,2,04,1.9,13.2,M,-25.1,M,5.8,0000*72
$GPGSA,A,3,17,26,27,15,,,,,,,,,2.2,1.9,1.0*38
$GPGSV,3,1,11,17,81,068,29,27,38,315,33,26,36,222,20,15,32,275,27*79
$GPGSV,3,2,11,28,51,052,31,08,32,129,28,09,22,315,24,04,18,162,20*78
$GPGSV,3,3,11,01,17,048,22,11,04,038,14,48,44,197,26*4F
$GPRMC,214810.000,A,3748.5588,N,12217.8570,W,2.27,349.39,180712,,,D*7C
$GPVTG,349.39,T,,M,2.27,N,4.2,K,D*0D
$GPGGA,214811.000,3748.5588,N,12217.8562,W,2,04,1.9,11.6,M,-25.1,M,6.8,0000*75
$GPGSA,A,3,17,26,27,15,,,,,,,,,2.2,1.9,1.0*38
$GPRMC,214811.000,A,3748.5588,N,12217.8562,W,2.34,54.79,180712,,,D*47
$GPVTG,54.79,T,,M,2.34,N,4.3,K,D*35
$GPGGA,214812.000,3748.5593,N,12217.8549,W,2,04,1.9,9.4,M,-25.1,M,7.8,0000*4F
$GPGSA,A,3,17,26,27,15,,,,,,,,,2.2,1.9,1.0*38
$GPRMC,214812.000,A,3748.5593,N,12217.8549,W,2.43,21.32,180712,,,D*4A
$GPVTG,21.32,T,,M,2.43,N,4.5,K,D*3E
$GPGGA,214813.000,3748.5599,N,12217.8555,W,2,04,1.9,11.7,M,-25.1,M,8.8,0000*7C
$GPGSA,A,3,17,26,27,15,,,,,,,,,2.2,1.9,1.0*38
$GPRMC,214813.000,A,3748.5599,N,12217.8555,W,2.49,349.99,180712,,,D*7A
$GPVTG,349.99,T,,M,2.49,N,4.6,K,D*0B
$GPGGA,214814.000,3748.5604,N,12217.8559,W,2,04,1.9,12.4,M,-25.1,M,9.8,0000*71
$GPGSA,A,3,17,26,27,15,,,,,,,,,2.2,1.9,1.0*38
$GPRMC,214814.000,A,3748.5604,N,12217.8559,W,1.79,342.25,180712,,,D*7A
$GPVTG,342.25,T,,M,1.79,N,3.3,K,D*05
$GPGGA,214815.000,3748.5609,N,12217.8562,W,2,04,1.9,12.7,M,-25.1,M,10.8,0000*4E
$GPGSA,A,3,17,26,27,15,,,,,,,,,2.2,1.9,1.0*38
$GPGSV,3,1,11,17,81,068,36,27,38,315,38,26,36,222,38,15,32,275,41*75
$GPGSV,3,2,11,28,51,052,29,08,32,129,34,09,22,315,40,04,18,162,25*7B
$GPGSV,3,3,11,01,17,048,23,11,04,038,16,48,44,197,36*4D
$GPRMC,214815.000,A,3748.5609,N,12217.8562,W,1.91,322.35,180712,,,D*7F
$GPVTG,322.35,T,,M,1.91,N,3.5,K,D*02
$GPGGA,214816.000,3748.5614,N,12217.8565,W,2,04,1.9,14.2,M,-25.1,M,,0000*52
$GPGSA,A,3,17,26,27,15,,,,,,,,,2.2,1.9,1.0*38
$GPRMC,214816.000,A,3748.5614,N,12217.8565,W,1.68,26.90,180712,,,D*49
$GPVTG,26.90,T,,M,1.68,N,3.1,K,D*38
$GPGGA,214817.000,3748.5618,N,12217.8566,W,2,04,1.9,13.4,M,-25.1,M,2.8,0000*79
$GPGSA,A,3,17,26,27,15,,,,,,,,,2.2,1.9,1.0*38
$GPRMC,214817.000,A,3748.5618,N,12217.8566,W,1.78,340.24,180712,,,D*7A
$GPVTG,340.24,T,,M,1.78,N,3.3,K,D*07
$GPGGA,214818.000,3748.5624,N,12217.8569,W,2,04,1.9,14.6,M,-25.1,M,3.8,0000*72
$GPGSA,A,3,17,26,27,15,,,,,,,,,2.2,1.9,1.0*38
$GPRMC,214818.000,A,3748.5624,N,12217.8569,W,1.91,349.53,180712,,,D*7B
$GPVTG,349.53,T,,M,1.91,N,3.5,K,D*0F
$GPGGA,214819.000,3748.5628,N,12217.8572,W,2,04,1.9,16.2,M,-25.1,M,4.8,0000*74
$GPGSA,A,3,17,26,27,15,,,,,,,,,2.2,1.9,1.0*38
$GPRMC,214819.000,A,3748.5628,N,12217.8572,W,1.43,341.78,180712,,,D*72
$GPVTG,341.78,T,,M,1.43,N,2.6,K,D*03
$GPGGA,214820.000,3748.5630,N,12217.8572,W,2,04,1.9,16.4,M,-25.1,M,5.8,0000*70
$GPGSA,A,3,17,26,27,15,,,,,,,,,2.2,1.9,1.0*38
$GPGSV,3,1,10,17,81,068,26,27,38,315,30,26,36,222,25,15,32,275,31*76
$GPGSV,3,2,10,28,51,052,24,08,32,129,16,09,22,315,28,04,18,162,18*77
$GPGSV,3,3,10,01,17,048,17,11,04,038,13*78
$GPRMC,214820.000,A,3748.5630,N,12217.8572,W,0.77,341.34,180712,,,D*7F
$GPGGA,214821.000,3748.5628,N,12217.8569,W,2,04,1.9,14.1,M,-25.1,M,6.8,0000*76
$GPGSA,A,3,17,26,27,15,,,,,,,,,2.2,1.9,1.0*38
$GPRMC,214821.000,A,3748.5628,N,12217.8569,W,0.49,267.04,180712,,,D*76
$GPVTG,267.04,T,,M,0.49,N,0.9,K,D*0B
$GPGGA,214822.000,3748.5625,N,12217.8566,W,2,04,1.9,12.2,M,-25.1,M,7.8,0000*73
$GPGSA,A,3,17,26,27,15,,,,,,,,,2.2,1.9,1.0*38
$GPRMC,214822.000,A,3748.5625,N,12217.8566,W,0.81,247.94,180712,,,D*78
$GPVTG,247.94,T,,M,0.81,N,1.5,K,D*09
$GPGGA,214823.000,3748.5620,N,12217.8565,W,2,04,1.9,11.5,M,-25.1,M,8.8,0000*7F
$GPGSA,A,3,17,26,27,15,,,,,,,,,2.2,1.9,1.0*38
$GPRMC,214823.000,A,3748.5620,N,12217.8565,W,0.38,204.70,180712,,,D*70
$GPVTG,204.70,T,,M,0.38,N,0.7,K,D*05
$GPGGA,214824.000,3748.5611,N,12217.8544,W,2,04,1.9,8.7,M,-25.1,M,9.8,0000*42
$GPGSA,A,3,17,26,27,15,,,,,,,,,2.2,1.9,1.0*38
$GPRMC,214824.000,A,3748.5611,N,12217.8544,W,0.80,128.01,180712,,,D*7E
$GPVTG,128.01,T,,M,0.80,N,1.5,K,D*0E
$GPGGA,214825.000,3748.5609,N,12217.8542,W,2,04,1.9,8.3,M,-25.1,M,10.8,0000*70
$GPGSA,A,3,17,26,27,15,,,,,,,,,2.2,1.9,1.0*38
$GPGSV,3,1,11,17,81,068,26,27,38,315,23,26,36,222,35,15,32,275,23*77
$GPGSV,3,2,11,28,51,052,24,08,32,129,29,09,22,315,25,04,18,162,31*7C
$GPGSV,3,3,11,01,17,048,22,11,04,038,,48,44,197,32*4F
$GPRMC,214825.000,A,3748.5609,N,12217.8542,W,0.68,147.82,180712,,,D*74
$GPVTG,147.82,T,,M,0.68,N,1.3,K,D*0C
$GPGGA,214826.000,3748.5606,N,12217.8542,W,2,04,1.9,9.0,M,-25.1,M,11.8,0000*7F
$GPGSA,A,3,17,26,27,15,,,,,,,,,2.2,1.9,1.0*38
$GPRMC,214826.000,A,3748.5606,N,12217.8542,W,0.26,98.40,180712,,,D*4F
$GPVTG,98.40,T,,M,0.26,N,0.5,K,D*3C
$GPGGA,214827.000,3748.5603,N,12217.8539,W,2,04,1.9,9.3,M,-25.1,M,12.8,0000*77
$GPGSA,A,3,17,26,27,15,,,,,,,,,2.2,1.9,1.0*38
$GPRMC,214827.000,A,3748.5603,N,12217.8539,W,0.85,110.20,180712,,,D*79
$GPVTG,110.20,T,,M,0.85,N,1.6,K,D*00
$GPGGA,214828.000,3748.5600,N,12217.8535,W,2,04,1.9,9.2,M,-25.1,M,13.8,0000*77
$GPGSA,A,3,17,26,27,15,,,,,,,,,2.2,1.9,1.0*38
$GPRMC,214828.000,A,3748.5600,N,12217.8535,W,0.51,146.12,180712,,,D*72
$GPVTG,146.12,T,,M,0.51,N,0.9,K,D*05
$GPGGA,214829.000,3748.5602,N,12217.8530,W,2,04,1.9,7.7,M,-25.1,M,14.8,0000*7D
$GPGSA,A,3,17,26,27,15,,,,,,,,,2.2,1.9,1.0*38
$GPRMC,214829.000,A,3748.5602,N,12217.8530,W,0.27,34.54,180712,,,D*43
$GPVTG,34.54,T,,M,0.27,N,0.5,K,D*3E
$GPGGA,214830.000,3748.5605,N,12217.8522,W,2,04,1.9,5.9,M,-25.1,M,15.8,0000*7C
$GPGSA,A,3,17,26,27,15,,,,,,,,,2.2,1.9,1.0*38
$GPGSV,3,1,11,17,81,068,28,27,38,315,29,26,36,222,33,15,32,275,34*73
$GPGSV,3,2,11,28,51,052,25,08,32,129,26,09,22,315,28,04,18,162,30*7E
$GPGSV,3,3,11,01,17,048,23,11,04,038,,48,44,197,34*48
$GPRMC,214830.000,A,3748.5605,N,12217.8522,W,0.39,132.05,180712,,,D*73
$GPVTG,132.05,T,,M,0.39,N,0.7,K,D*00
$GPGGA,214831.000,3748.5607,N,12217.8517,W,2,04,1.9,5.3,M,-25.1,M,16.8,0000*70
$GPGSA,A,3,17,26,27,15,,,,,,,,,2.2,1.9,1.0*38
$GPRMC,214831.000,A,3748.5607,N,12217.8517,W,0.34,98.17,180712,,,D*49
$GPVTG,98.17,T,,M,0.34,N,0.6,K,D*3E
$GPGGA,214832.000,3748.5608,N,12217.8523,W,2,04,1.9,6.8,M,-25.1,M,,0000*62
$GPGSA,A,3,17,26,27,15,,,,,,,,,2.2,1.9,1.0*38
$GPRMC,214832.000,A,3748.5608,N,12217.8523,W,0.27,204.18,180712,,,D*78
$GPVTG,204.18,T,,M,0.27,N,0.5,K,D*07
$GPGGA,214833.000,3748.5606,N,12217.8521,W,2,04,1.9,6.8,M,-25.1,M,18.8,0000*70
$GPGSA,A,3,17,26,27,15,,,,,,,,,2.2,1.9,1.0*38
$GPRMC,214833.000,A,3748.5606,N,12217.8521,W,0.79,171.97,180712,,,D*78
$GPVTG,171.97,T,,M,0.79,N,1.5,K,D*0B
$GPGGA,214834.000,3748.5607,N,12217.8517,W,1,04,1.9,6.1,M,-25.1,M,,0000*66
$GPGSA,A,3,17,26,27,15,,,,,,,,,2.2,1.9,1.0*38
$GPRMC,214834.000,A,3748.5607,N,12217.8517,W,0.40,165.78,180712,,,A*70
$GPVTG,165.78,T,,M,0.40,N,0.7,K,A*03
$GPGGA,214835.000,3748.5608,N,12217.8515,W,2,04,1.9,5.5,M,-25.1,M,,0000*6E
$GPGSA,A,3,17,26,27,15,,,,,,,,,2.2,1.9,1.0*38
$GPGSV,3,1,11,17,81,068,31,27,38,315,31,26,36,222,33,15,32,275,32*74
$GPGSV,3,2,11,28,51,052,34,08,32,129,21,09,22,315,29,04,18,162,25*7C
$GPGSV,3,3,11,01,17,048,21,11,04,038,,48,44,197,36*48
$GPRMC,214835.000,A,3748.5608,N,12217.8515,W,0.21,228.52,180712,,,D*7C
$GPVTG,228.52,T,,M,0.21,N,0.4,K,D*00
$GPGGA,214836.000,3748.5609,N,12217.8514,W,2,04,1.9,4.8,M,-25.1,M,,0000*61
$GPGSA,A,3,17,26,27,15,,,,,,,,,2.2,1.9,1.0*38
$GPRMC,214836.000,A,3748.5609,N,12217.8514,W,0.37,290.29,180712,,,D*77
$GPVTG,290.29,T,,M,0.37,N,0.7,K,D*0B
$GPGGA,214837.000,3748.5611,N,12217.8520,W,2,04,1.9,5.3,M,-25.1,M,2.8,0000*40
$GPGSA,A,3,17,26,27,15,,,,,,,,,2.2,1.9,1.0*38
$GPRMC,214837.000,A,3748.5611,N,12217.8520,W,0.30,271.10,180712,,,D*7A
$GPVTG,271.10,T,,M,0.30,N,0.6,K,D*08
$GPGGA,214838.000,3748.5614,N,12217.8508,W,2,04,1.9,0.9,M,-25.1,M,3.8,0000*4E
$GPGSA,A,3,17,26,27,15,,,,,,,,,2.2,1.9,1.0*38
$GPRMC,214838.000,A,3748.5614,N,12217.8508,W,0.54,272.61,180712,,,D*7D
$GPVTG,272.61,T,,M,0.54,N,1.0,K,D*08
$GPGGA,214839.000,3748.5615,N,12217.8505,W,2,04,1.9,-1.3,M,-25.1,M,4.8,0000*62
$GPGSA,A,3,17,26,27,15,,,,,,,,,2.2,1.9,1.0*38
$GPRMC,214839.000,A,3748.5615,N,12217.8505,W,0.72,300.45,180712,,,D*76
$GPVTG,300.45,T,,M,0.72,N,1.3,K,D*0D
$GPGGA,214840.000,3748.5615,N,12217.8505,W,2,04,1.9,-2.5,M,-25.1,M,5.8,0000*68
$GPGSA,A,3,17,26,27,15,,,,,,,,,2.2,1.9,1.0*38
$GPGSV,3,1,11,17,81,068,37,27,38,315,29,26,36,222,28,15,32,275,34*77
$GPGSV,3,2,11,28,51,052,39,08,32,129,24,09,22,315,25,04,18,162,30*7C
$GPGSV,3,3,11,01,17,048,28,11,04,038,,48,44,197,38*4F
$GPRMC,214840.000,A,3748.5615,N,12217.8505,W,0.03,213.97,180712,,,D*72
$GPVTG,213.97,T,,M,0.03,N,0.1,K,D*04
$GPGGA,214841.000,3748.5615,N,12217.8505,W,2,04,1.9,-3.0,M,-25.1,M,,0000*4E
$GPGSA,A,3,17,26,27,15,,,,,,,,,2.2,1.9,1.0*38
$GPRMC,214841.000,A,3748.5615,N,12217.8505,W,0.11,186.47,180712,,,D*72
$GPVTG,186.47,T,,M,0.11,N,0.2,K,D*06
$GPGGA,214842.000,3748.5616,N,12217.8506,W,2,04,1.9,-3.4,M,-25.1,M,,0000*49
$GPGSA,A,3,17,26,27,15,,,,,,,,,2.2,1.9,1.0*38
$GPRMC,214842.000,A,3748.5616,N,12217.8506,W,0.10,225.29,180712,,,D*72
$GPVTG,225.29,T,,M,0.10,N,0.2,K,D*05
$GPGGA,214843.000,3748.5616,N,12217.8506,W,2,04,1.9,-3.8,M,-25.1,M,2.8,0000*60
$GPGSA,A,3,17,26,27,15,,,,,,,,,2.2,1.9,1.0*38
$GPRMC,214843.000,A,3748.5616,N,12217.8506,W,0.24,206.66,180712,,,D*7E
$GPVTG,206.66,T,,M,0.24,N,0.4,K,D*0E
$GPGGA,214844.000,3748.5617,N,12217.8506,W,2,04,1.9,-4.1,M,-25.1,M,3.8,0000*69
$GPGSA,A,3,17,26,27,15,,,,,,,,,2.2,1.9,1.0*38
$GPRMC,214844.000,A,3748.5617,N,12217.8506,W,0.08,230.41,180712,,,D*76
$GPVTG,230.41,T,,M,0.08,N,0.1,K,D*05
$GPGGA,214845.000,3748.5611,N,12217.8503,W,2,04,1.9,-6.0,M,-25.1,M,4.8,0000*6F
$GPGSA,A,3,17,26,27,15,,,,,,,,,2.2,1.9,1.0*38
$GPGSV,3,1,11,17,81,068,34,27,38,315,36,26,36,222,24,15,32,275,28*7B
$GPGSV,3,2,11,28,51,052,31,08,32,129,27,09,22,315,34,04,18,162,28*7E
$GPGSV,3,3,11,01,17,048,25,11,04,038,,48,44,197,29*42
$GPRMC,214845.000,A,3748.5611,N,12217.8503,W,0.55,214.94,180712,,,D*72
$GPVTG,214.94,T,,M,0.55,N,1.0,K,D*03
$GPGGA,214846.000,3748.5609,N,12217.8505,W,2,03,3.1,-6.3,M,-25.1,M,,0000*4F
$GPGSA,A,2,17,27,15,,,,,,,,,,3.2,3.1,1.0*36
$GPRMC,214846.000,A,3748.5609,N,12217.8505,W,1.62,233.60,180712,,,D*75
$GPVTG,233.60,T,,M,1.62,N,3.0,K,D*0A
$GPGGA,214847.000,3748.5599,N,12217.8512,W,2,04,1.9,-6.6,M,-25.1,M,2.8,0000*6E
$GPGSA,A,3,17,26,27,15,,,,,,,,,2.2,1.9,1.0*38
$GPRMC,214847.000,A,3748.5599,N,12217.8512,W,2.40,210.99,180712,,,D*7C
$GPVTG,210.99,T,,M,2.40,N,4.4,K,D*0D
$GPGGA,214848.000,3748.5604,N,12217.8508,W,2,04,1.9,-8.0,M,-25.1,M,3.8,0000*64
$GPGSA,A,3,17,26,27,15,,,,,,,,,2.2,1.9,1.0*38
$GPRMC,214848.000,A,3748.5604,N,12217.8508,W,1.18,234.14,180712,,,D*72
$GPVTG,234.14,T,,M,1.18,N,2.2,K,D*00
$GPGGA,214849.000,3748.5602,N,12217.8499,W,2,04,1.9,-9.6,M,-25.1,M,4.8,0000*6A
$GPGSA,A,3,17,26,27,15,,,,,,,,,2.2,1.9,1.0*38
$GPRMC,214849.000,A,3748.5602,N,12217.8499,W,0.45,182.48,180712,,,D*72
$GPVTG,182.48,T,,M,0.45,N,0.8,K,D*06
$GPGGA,214850.000,3748.5600,N,12217.8492,W,2,04,1.9,-10.2,M,-25.1,M,5.8,0000*56
$GPGSA,A,3,17,26,27,15,,,,,,,,,2.2,1.9,1.0*38
$GPGSV,3,1,11,17,81,068,31,27,38,315,22,26,36,222,31,15,32,275,29*7E
$GPGSV,3,2,11,28,51,052,35,08,32,129,25,09,22,315,21,04,18,162,27*73
$GPGSV,3,3,11,01,17,048,21,11,04,038,,48,44,197,33*4D
$GPRMC,214850.000,A,3748.5600,N,12217.8492,W,0.83,126.51,180712,,,D*7F
$GPGGA,214851.000,3748.5594,N,12217.8488,W,2,04,1.9,-9.4,M,-25.1,M,6.8,0000*6F
$GPGSA,A,3,17,26,27,15,,,,,,,,,2.2,1.9,1.0*38
$GPRMC,214851.000,A,3748.5594,N,12217.8488,W,1.65,134.75,180712,,,D*77
$GPVTG,134.75,T,,M,1.65,N,3.1,K,D*0C
$GPGGA,214852.000,3748.5592,N,12217.8485,W,2,04,1.9,-9.3,M,-25.1,M,7.8,0000*61
$GPGSA,A,3,17,26,27,15,,,,,,,,,2.2,1.9,1.0*38
$GPRMC,214852.000,A,3748.5592,N,12217.8485,W,1.34,156.09,180712,,,D*74
$GPVTG,156.09,T,,M,1.34,N,2.5,K,D*02
$GPGGA,214853.000,3748.5588,N,12217.8488,W,2,04,1.9,-8.2,M,-25.1,M,,0000*47
$GPGSA,A,3,17,26,27,15,,,,,,,,,2.2,1.9,1.0*38
$GPRMC,214853.000,A,3748.5588,N,12217.8488,W,1.20,199.10,180712,,,D*7D
$GPVTG,199.10,T,,M,1.20,N,2.2,K,D*0B
$GPGGA,214854.000,3748.5587,N,12217.8479,W,2,04,1.9,-9.5,M,-25.1,M,,0000*47
$GPGSA,A,3,17,26,27,15,,,,,,,,,2.2,1.9,1.0*38
$GPRMC,214854.000,A,3748.5587,N,12217.8479,W,0.62,145.32,180712,,,D*7D
$GPVTG,145.32,T,,M,0.62,N,1.2,K,D*0E
$GPGGA,214855.000,3748.5584,N,12217.8478,W,2,04,1.9,-8.9,M,-25.1,M,2.8,0000*6D
$GPGSA,A,3,17,26,27,15,,,,,,,,,2.2,1.9,1.0*38
$GPGSV,3,1,11,17,81,068,33,27,38,315,26,26,36,222,33,15,32,275,28*7B
$GPGSV,3,2,11,28,51,052,28,08,32,129,28,09,22,315,30,04,18,162,27*72
$GPGSV,3,3,11,01,17,048,22,11,04,038,,48,44,197,31*4C
$GPRMC,214855.000,A,3748.5584,N,12217.8478,W,0.39,345.58,180712,,,D*7E
$GPVTG,345.58,T,,M,0.39,N,0.7,K,D*0A
$GPGGA,214856.000,3748.5585,N,12217.8476,W,2,04,1.9,-8.8,M,-25.1,M,3.8,0000*61
$GPGSA,A,3,17,26,27,15,,,,,,,,,2.2,1.9,1.0*38
$GPRMC,214856.000,A,3748.5585,N,12217.8476,W,0.27,117.53,180712,,,D*73
$GPVTG,117.53,T,,M,0.27,N,0.5,K,D*09
$GPGGA,214857.000,3748.5584,N,12217.8477,W,2,04,1.9,-8.6,M,-25.1,M,4.8,0000*69
$GPGSA,A,3,17,26,27,15,,,,,,,,,2.2,1.9,1.0*38
$GPRMC,214857.000,A,3748.5584,N,12217.8477,W,0.11,116.02,180712,,,D*72
$GPVTG,116.02,T,,M,0.11,N,0.2,K,D*0E
$GPGGA,214858.000,3748.5583,N,12217.8481,W,2,04,1.9,-7.5,M,-25.1,M,5.8,0000*65
$GPGSA,A,3,17,26,27,15,,,,,,,,,2.2,1.9,1.0*38
$GPRMC,214858.000,A,3748.5583,N,12217.8481,W,1.04,175.36,180712,,,D*74
$GPVTG,175.36,T,,M,1.04,N,1.9,K,D*03
$GPGGA,214859.000,3748.5575,N,12217.8489,W,2,04,1.9,-5.5,M,-25.1,M,6.8,0000*64
$GPGSA,A,3,17,26,27,15,,,,,,,,,2.2,1.9,1.0*38
$GPRMC,214859.000,A,3748.5575,N,12217.8489,W,1.63,183.58,180712,,,D*74
$GPVTG,183.58,T,,M,1.63,N,3.0,K,D*08
$GPGGA,214900.000,3748.5569,N,12217.8498,W,2,04,1.9,-4.2,M,-25.1,M,7.8,0000*63
$GPGSA,A,3,17,26,27,15,,,,,,,,,2.2,1.9,1.0*38
$GPGSV,3,1,11,17,81,068,27,27,38,315,26,26,36,222,31,15,32,275,29*7D
$GPGSV,3,2,11,28,51,052,26,08,32,129,34,09,22,315,26,04,18,162,28*79
$GPGSV,3,3,11,01,17,048,21,11,04,038,,48,44,197,32*4C
$GPRMC,214900.000,A,3748.5569,N,12217.8498,W,1.51,196.77,180712,,,D*7C
$GPVTG,196.77,T,,M,1.51,N,2.8,K,D*09
$GPGGA,214901.000,3748.5564,N,12217.8506,W,2,04,1.9,-2.8,M,-25.1,M,8.8,0000*6A
$GPGSA,A,3,17,26,27,15,,,,,,,,,2.2,1.9,1.0*38
$GPRMC,214901.000,A,3748.5564,N,12217.8506,W,0.93,208.28,180712,,,D*77
$GPVTG,208.28,T,,M,0.93,N,1.7,K,D*04
$GPGGA,214902.000,3748.5565,N,12217.8511,W,2,04,1.9,-2.7,M,-25.1,M,9.8,0000*60
$GPGSA,A,3,17,26,27,15,,,,,,,,,2.2,1.9,1.0*38
$GPRMC,214902.000,A,3748.5565,N,12217.8511,W,1.27,235.69,180712,,,D*76
$GPVTG,235.69,T,,M,1.27,N,2.3,K,D*06
$GPGGA,214903.000,3748.5561,N,12217.8518,W,2,04,1.9,-1.7,M,-25.1,M,,0000*40
$GPGSA,A,3,17,26,27,15,,,,,,,,,2.2,1.9,1.0*38
$GPRMC,214903.000,A,3748.5561,N,12217.8518,W,1.50,206.70,180712,,,D*72
$GPVTG,206.70,T,,M,1.50,N,2.8,K,D*05
$GPGGA,214904.000,3748.5557,N,12217.8523,W,2,04,1.9,-0.5,M,-25.1,M,,0000*49
$GPGSA,A,3,17,26,27,15,,,,,,,,,2.2,1.9,1.0*38
$GPRMC,214904.000,A,3748.5557,N,12217.8523,W,1.34,215.96,180712,,,D*70
$GPVTG,215.96,T,,M,1.34,N,2.5,K,D*00
$GPGGA,214905.000,3748.5552,N,12217.8532,W,2,04,1.9,0.3,M,-25.1,M,,0000*66
$GPGSA,A,3,17,26,27,15,,,,,,,,,2.2,1.9,1.0*38
$GPGSV,3,1,11,17,81,068,25,27,38,315,29,26,36,222,39,15,32,275,33*73
$GPGSV,3,2,11,28,51,052,25,08,32,129,24,09,22,315,26,04,18,162,36*74
$GPGSV,3,3,11,01,17,048,21,11,04,038,,48,44,197,31*4F
$GPRMC,214905.000,A,3748.5552,N,12217.8532,W,1.92,211.85,180712,,,D*7E
$GPGGA,214906.000,3748.5547,N,12217.8535,W,2,04,1.9,1.2,M,-25.1,M,2.8,0000*42
$GPGSA,A,3,17,26,27,15,,,,,,,,,2.2,1.9,1.0*38
$GPRMC,214906.000,A,3748.5547,N,12217.8535,W,1.59,196.16,180712,,,D*7F
$GPVTG,196.16,T,,M,1.59,N,2.9,K,D*07
$GPGGA,214907.000,3748.5542,N,12217.8540,W,2,04,1.9,1.8,M,-25.1,M,3.8,0000*4F
$GPGSA,A,3,17,26,27,15,,,,,,,,,2.2,1.9,1.0*38
$GPRMC,214907.000,A,3748.5542,N,12217.8540,W,1.48,189.37,180712,,,D*74
$GPVTG,189.37,T,,M,1.48,N,2.7,K,D*04
$GPGGA,214908.000,3748.5538,N,12217.8543,W,2,04,1.9,2.7,M,-25.1,M,4.8,0000*45
$GPGSA,A,3,17,26,27,15,,,,,,,,,2.2,1.9,1.0*38
$GPRMC,214908.000,A,3748.5538,N,12217.8543,W,1.42,184.24,180712,,,D*70
$GPVTG,184.24,T,,M,1.42,N,2.6,K,D*00
$GPGGA,214909.000,3748.5534,N,12217.8547,W,2,04,1.9,3.3,M,-25.1,M,5.8,0000*48
$GPGSA,A,3,17,26,27,15,,,,,,,,,2.2,1.9,1.0*38
$GPRMC,214909.000,A,3748.5534,N,12217.8547,W,1.45,179.13,180712,,,D*78
$GPVTG,179.13,T,,M,1.45,N,2.7,K,D*00
$GPGGA,214910.000,3748.5530,N,12217.8553,W,2,04,1.9,3.3,M,-25.1,M,,0000*62
$GPGSA,A,3,17,26,27,15,,,,,,,,,2.2,1.9,1.0*38
$GPGSV,3,1,11,17,81,068,22,27,38,315,30,26,36,222,35,15,32,275,35*76
$GPGSV,3,2,11,28,51,052,20,08,32,129,24,09,22,315,31,04,18,162,31*70
$GPGSV,3,3,11,01,17,048,21,11,04,038,,48,44,197,31*4F
$GPRMC,214910.000,A,3748.5530,N,12217.8553,W,1.51,187.76,180712,,,D*76
$GPVTG,187.76,T,,M,1.51,N,2.8,K,D*08
$GPGGA,214911.000,3748.5526,N,12217.8561,W,2,04,1.9,3.2,M,-25.1,M,,0000*64
$GPGSA,A,3,17,26,27,15,,,,,,,,,2.2,1.9,1.0*38
$GPRMC,214911.000,A,3748.5526,N,12217.8561,W,1.47,189.76,180712,,,D*78
$GPVTG,189.76,T,,M,1.47,N,2.7,K,D*0E
$GPGGA,214912.000,3748.5522,N,12217.8570,W,2,04,1.9,2.9,M,-25.1,M,2.8,0000*4D
$GPGSA,A,3,17,26,27,15,,,,,,,,,2.2,1.9,1.0*38
$GPRMC,214912.000,A,3748.5522,N,12217.8570,W,1.87,214.45,180712,,,D*74
$GPVTG,214.45,T,,M,1.87,N,3.5,K,D*06
$GPGGA,214913.000,3748.5519,N,12217.8576,W,2,04,1.9,3.1,M,-25.1,M,3.8,0000*4A
$GPGSA,A,3,17,26,27,15,,,,,,,,,2.2,1.9,1.0*38
$GPRMC,214913.000,A,3748.5519,N,12217.8576,W,1.65,207.03,180712,,,D*77
$GPVTG,207.03,T,,M,1.65,N,3.1,K,D*0E
$GPGGA,214914.000,3748.5521,N,12217.8580,W,2,04,1.9,3.3,M,-25.1,M,4.8,0000*4A
$GPGSA,A,3,17,26,27,15,,,,,,,,,2.2,1.9,1.0*38
$GPRMC,214914.000,A,3748.5521,N,12217.8580,W,0.77,210.88,180712,,,D*75
$GPVTG,210.88,T,,M,0.77,N,1.4,K,D*0E
$GPGGA,214915.000,3748.5518,N,12217.8584,W,2,04,1.9,3.6,M,-25.1,M,,0000*62
$GPGSA,A,3,17,26,27,15,,,,,,,,,2.2,1.9,1.0*38
$GPGSV,3,1,11,17,81,068,24,27,38,315,30,26,36,222,30,15,32,275,32*72
$GPGSV,3,2,11,28,51,052,23,08,32,129,24,09,22,315,28,04,18,162,31*7B
$GPGSV,3,3,11,01,17,048,21,11,04,038,,48,44,197,32*4C
$GPRMC,214915.000,A,3748.5518,N,12217.8584,W,0.99,232.44,180712,,,D*7A
$GPVTG,232.44,T,,M,0.99,N,1.8,K,D*02
$GPGGA,214916.000,3748.5515,N,12217.8589,W,2,04,1.9,2.8,M,-25.1,M,2.8,0000*4A
$GPGSA,A,3,17,26,27,15,,,,,,,,,2.2,1.9,1.0*38
$GPRMC,214916.000,A,3748.5515,N,12217.8589,W,1.46,187.35,180712,,,D*71
$GPVTG,187.35,T,,M,1.46,N,2.7,K,D*06
$GPGGA,214917.000,3748.5510,N,12217.8588,W,2,03,2.4,2.8,M,-25.1,M,,0000*62
$GPGSA,A,2,17,26,15,,,,,,,,,,2.6,2.4,1.0*36
$GPRMC,214917.000,A,3748.5510,N,12217.8588,W,1.74,171.06,180712,,,D*7C
$GPVTG,171.06,T,,M,1.74,N,3.2,K,N*00
$GPGGA,214918.000,3748.5504,N,12217.8592,W,2,04,1.9,3.1,M,-25.1,M,,0000*62
$GPGSA,A,3,17,26,27,15,,,,,,,,,2.2,1.9,1.0*38
$GPRMC,214918.000,A,3748.5504,N,12217.8592,W,1.35,195.80,180712,,,D*7C
$GPVTG,195.80,T,,M,1.35,N,2.5,K,D*0D
$GPGGA,214919.000,3748.5496,N,12217.8600,W,2,04,1.9,3.7,M,-25.1,M,2.8,0000*43
$GPGSA,A,3,17,26,27,15,,,,,,,,,2.2,1.9,1.0*38
$GPRMC,214919.000,A,3748.5496,N,12217.8600,W,1.52,206.11,180712,,,D*7F
$GPVTG,206.11,T,,M,1.52,N,2.8,K,D*00
$GPGGA,214920.000,3748.5487,N,12217.8604,W,2,04,1.9,4.8,M,-25.1,M,3.8,0000*44
$GPGSA,A,3,17,26,27,15,,,,,,,,,2.2,1.9,1.0*38
$GPGSV,3,1,11,17,81,068,24,27,38,315,23,26,36,222,34,15,32,275,30*76
$GPGSV,3,2,11,28,51,052,22,08,32,129,33,09,22,315,22,04,18,162,31*76
$GPGSV,3,3,11,01,17,048,20,11,04,038,,48,44,197,36*49
$GPRMC,214920.000,A,3748.5487,N,12217.8604,W,1.62,183.54,180712,,,D*7D
$GPVTG,183.54,T,,M,1.62,N,3.0,K,D*05
$GPGGA,214921.000,3748.5479,N,12217.8604,W,2,04,1.9,5.3,M,-25.1,M,4.8,0000*49
$GPGSA,A,3,17,26,27,15,,,,,,,,,2.2,1.9,1.0*38
$GPRMC,214921.000,A,3748.5479,N,12217.8604,W,1.90,154.78,180712,,,D*74
$GPVTG,154.78,T,,M,1.90,N,3.5,K,D*09
$GPGGA,214922.000,3748.5475,N,12217.8611,W,2,04,1.9,4.1,M,-25.1,M,,0000*63
$GPGSA,A,3,17,26,27,15,,,,,,,,,2.2,1.9,1.0*38
$GPRMC,214922.000,A,3748.5475,N,12217.8611,W,1.53,167.29,180712,,,D*74
$GPVTG,167.29,T,,M,1.53,N,2.8,K,D*0E
$GPGGA,214923.000,3748.5468,N,12217.8614,W,2,04,1.9,4.4,M,-25.1,M,,0000*6E
$GPGSA,A,3,17,26,27,15,,,,,,,,,2.2,1.9,1.0*38
$GPRMC,214923.000,A,3748.5468,N,12217.8614,W,2.00,171.24,180712,,,D*73
$GPVTG,171.24,T,,M,2.00,N,3.7,K,D*0F
$GPGGA,214924.000,3748.5464,N,12217.8614,W,2,04,1.9,4.1,M,-25.1,M,,0000*60
$GPGSA,A,3,17,26,27,15,,,,,,,,,2.2,1.9,1.0*38
$GPRMC,214924.000,A,3748.5464,N,12217.8614,W,1.66,156.18,180712,,,D*71
$GPVTG,156.18,T,,M,1.66,N,3.1,K,D*00
$GPGGA,214925.000,3748.5460,N,12217.8607,W,2,04,1.9,4.6,M,-25.1,M,,0000*60
$GPGSA,A,3,17,26,27,15,,,,,,,,,2.2,1.9,1.0*38
$GPGSV,3,1,11,17,81,068,24,27,38,315,25,26,36,222,35,15,32,275,32*73
$GPGSV,3,2,11,28,51,052,24,08,32,129,33,09,22,315,25,04,18,162,39*7F
$GPGSV,3,3,11,01,17,048,19,11,04,038,,48,44,197,37*42
$GPRMC,214925.000,A,3748.5460,N,12217.8607,W,2.04,150.63,180712,,,D*7B
$GPVTG,150.63,T,,M,2.04,N,3.8,K,D*04
$GPGGA,214926.000,3748.5455,N,12217.8602,W,2,04,1.9,4.9,M,-25.1,M,2.8,0000*4B
$GPGSA,A,3,17,26,27,15,,,,,,,,,2.2,1.9,1.0*38
$GPRMC,214926.000,A,3748.5455,N,12217.8602,W,2.28,139.64,180712,,,D*7D
$GPVTG,139.64,T,,M,2.28,N,4.2,K,D*0F
$GPGGA,214927.000,3748.5448,N,12217.8596,W,2,04,1.9,6.2,M,-25.1,M,3.8,0000*40
$GPGSA,A,3,17,26,27,15,,,,,,,,,2.2,1.9,1.0*38
$GPRMC,214927.000,A,3748.5448,N,12217.8596,W,1.98,144.88,180712,,,D*7E
$GPVTG,144.88,T,,M,1.98,N,3.7,K,D*0D
$GPGGA,214928.000,3748.5442,N,12217.8585,W,2,04,1.9,5.0,M,-25.1,M,,0000*63
$GPGSA,A,3,17,26,27,15,,,,,,,,,2.2,1.9,1.0*38
$GPRMC,214928.000,A,3748.5442,N,12217.8585,W,2.78,178.43,180712,,,D*7C
$GPVTG,178.43,T,,M,2.78,N,5.1,K,D*08
$GPGGA,214929.000,3748.5436,N,12217.8594,W,2,04,1.9,6.0,M,-25.1,M,,0000*62
$GPGSA,A,3,17,26,27,15,,,,,,,,,2.2,1.9,1.0*38
$GPRMC,214929.000,A,3748.5436,N,12217.8594,W,2.08,187.62,180712,,,D*7A
$GPVTG,187.62,T,,M,2.08,N,3.8,K,D*03
$GPGGA,214930.000,3748.5436,N,12217.8592,W,2,04,1.9,7.0,M,-25.1,M,,0000*6D
$GPGSA,A,3,17,26,27,15,,,,,,,,,2.2,1.9,1.0*38
$GPGSV,3,1,11,17,81,068,24,27,38,315,25,26,36,222,27,15,32,275,23*70
$GPGSV,3,2,11,28,51,052,23,08,32,129,33,09,22,315,24,04,18,162,39*79
$GPGSV,3,3,11,01,17,048,16,11,04,038,,48,44,197,34*4E
$GPRMC,214930.000,A,3748.5436,N,12217.8592,W,1.84,190.64,180712,,,D*73
$GPVTG,190.64,T,,M,1.84,N,3.4,K,D*08
$GPGGA,214931.000,3748.5433,N,12217.8593,W,2,04,1.9,7.5,M,-25.1,M,2.8,0000*49
$GPGSA,A,3,17,26,27,15,,,,,,,,,2.2,1.9,1.0*38
$GPRMC,214931.000,A,3748.5433,N,12217.8593,W,2.11,193.54,180712,,,D*79
$GPVTG,193.54,T,,M,2.11,N,3.9,K,D*0A
$GPGGA,214932.000,3748.5426,N,12217.8590,W,2,04,1.9,8.4,M,-25.1,M,3.8,0000*42
$GPGSA,A,3,17,26,27,15,,,,,,,,,2.2,1.9,1.0*38
$GPRMC,214932.000,A,3748.5426,N,12217.8590,W,2.28,169.38,180712,,,D*78
$GPVTG,169.38,T,,M,2.28,N,4.2,K,D*03
$GPGGA,214933.000,3748.5418,N,12217.8589,W,2,04,1.9,8.9,M,-25.1,M,4.8,0000*4C
$GPGSA,A,3,17,26,27,15,,,,,,,,,2.2,1.9,1.0*38
$GPRMC,214933.000,A,3748.5418,N,12217.8589,W,2.34,161.82,180712,,,D*78
$GPVTG,161.82,T,,M,2.34,N,4.3,K,D*06
$GPGGA,214934.000,3748.5414,N,12217.8585,W,2,04,1.9,9.1,M,-25.1,M,,0000*60
$GPGSA,A,3,17,26,27,15,,,,,,,,,2.2,1.9,1.0*38
$GPRMC,214934.000,A,3748.5414,N,12217.8585,W,2.20,163.99,180712,,,D*72
$GPVTG,163.99,T,,M,2.20,N,4.1,K,D*09
$GPGGA,214935.000,3748.5409,N,12217.8586,W,2,04,1.9,8.8,M,-25.1,M,,0000*66
$GPGSA,A,3,17,26,27,15,,,,,,,,,2.2,1.9,1.0*38
$GPGSV,3,1,11,17,81,068,25,27,38,315,29,26,36,222,37,15,32,275,34*7A
$GPGSV,3,2,11,28,51,052,23,08,32,129,34,09,22,315,27,04,18,162,40*73
$GPGSV,3,3,11,01,17,048,19,11,04,038,,48,44,197,38*4D
$GPRMC,214935.000,A,3748.5409,N,12217.8586,W,2.15,156.61,180712,,,D*7B
$GPVTG,156.61,T,,M,2.15,N,4.0,K,D*0F
$GPGGA,214936.000,3748.5404,N,12217.8585,W,2,04,1.9,8.8,M,-25.1,M,,0000*6B
$GPGSA,A,3,17,26,27,15,,,,,,,,,2.2,1.9,1.0*38
$GPRMC,214936.000,A,3748.5404,N,12217.8585,W,2.23,155.27,180712,,,D*72
$GPVTG,155.27,T,,M,2.23,N,4.1,K,D*0A
$GPGGA,214937.000,3748.5399,N,12217.8582,W,2,04,1.9,8.0,M,-25.1,M,2.8,0000*42
$GPGSA,A,3,17,26,27,15,,,,,,,,,2.2,1.9,1.0*38
$GPRMC,214937.000,A,3748.5399,N,12217.8582,W,1.92,166.03,180712,,,D*78
$GPVTG,166.03,T,,M,1.92,N,3.6,K,D*05
$GPGGA,214938.000,3748.5395,N,12217.8578,W,2,04,1.9,7.7,M,-25.1,M,3.8,0000*4D
$GPGSA,A,3,17,26,27,15,,,,,,,,,2.2,1.9,1.0*38
$GPRMC,214938.000,A,3748.5395,N,12217.8578,W,1.90,157.13,180712,,,D*7F
$GPVTG,157.13,T,,M,1.90,N,3.5,K,D*07
$GPGGA,214939.000,3748.5390,N,12217.8573,W,2,04,1.9,7.6,M,-25.1,M,4.8,0000*44
$GPGSA,A,3,17,26,27,15,,,,,,,,,2.2,1.9,1.0*38
$GPRMC,214939.000,A,3748.5390,N,12217.8573,W,2.46,160.73,180712,,,D*7A
$GPVTG,160.73,T,,M,2.46,N,4.6,K,D*09
$GPGGA,214940.000,3748.5381,N,12217.8565,W,2,04,1.9,7.3,M,-25.1,M,,0000*6A
$GPGSA,A,3,17,26,27,15,,,,,,,,,2.2,1.9,1.0*38
$GPGSV,3,1,11,17,81,068,25,27,38,315,29,26,36,222,27,15,32,275,34*7B
$GPGSV,3,2,11,28,51,052,25,08,32,129,35,09,22,315,28,04,18,162,40*7B
$GPGSV,3,3,11,01,17,048,19,11,04,038,,48,44,197,31*44
$GPRMC,214940.000,A,3748.5381,N,12217.8565,W,2.53,148.32,180712,,,D*78
$GPVTG,148.32,T,,M,2.53,N,4.7,K,D*03
$GPGGA,214941.000,3748.5376,N,12217.8562,W,2,04,1.9,7.4,M,-25.1,M,,0000*63
$GPGSA,A,3,17,26,27,15,,,,,,,,,2.2,1.9,1.0*38
$GPRMC,214941.000,A,3748.5376,N,12217.8562,W,2.28,134.40,180712,,,D*74
$GPVTG,134.40,T,,M,2.28,N,4.2,K,D*04
$GPGGA,214942.000,3748.5374,N,12217.8566,W,2,04,1.9,8.2,M,-25.1,M,,0000*6F
$GPGSA,A,3,17,26,27,15,,,,,,,,,2.2,1.9,1.0*38
$GPRMC,214942.000,A,3748.5374,N,12217.8566,W,1.38,181.21,180712,,,D*7A
$GPVTG,181.21,T,,M,1.38,N,2.6,K,D*0D
$GPGGA,214943.000,3748.5372,N,12217.8569,W,2,04,1.9,9.3,M,-25.1,M,2.8,0000*43
$GPGSA,A,3,17,26,27,15,,,,,,,,,2.2,1.9,1.0*38
$GPRMC,214943.000,A,3748.5372,N,12217.8569,W,1.01,121.95,180712,,,D*7D
$GPVTG,121.95,T,,M,1.01,N,1.9,K,D*0E
$GPGGA,214944.000,3748.5366,N,12217.8565,W,2,04,1.9,10.6,M,-25.1,M,3.8,0000*71
$GPGSA,A,3,17,26,27,15,,,,,,,,,2.2,1.9,1.0*38
$GPRMC,214944.000,A,3748.5366,N,12217.8565,W,2.04,135.46,180712,,,D*7E
$GPVTG,135.46,T,,M,2.04,N,3.8,K,D*00
$GPGGA,214945.000,3748.5357,N,12217.8556,W,2,04,1.9,11.2,M,-25.1,M,4.8,0000*70
$GPGSA,A,3,17,26,27,15,,,,,,,,,2.2,1.9,1.0*38
$GPGSV,3,1,11,17,80,064,23,28,50,053,26,27,39,315,25,26,36,222,27*72
$GPGSV,3,2,11,15,32,275,25,08,31,130,36,09,23,315,25,04,19,161,32*74
$GPGSV,3,3,11,01,17,048,19,11,03,038,,48,44,197,36*44
$GPRMC,214945.000,A,3748.5357,N,12217.8556,W,1.51,149.70,180712,,,D*70
$GPVTG,149.70,T,,M,1.51,N,2.8,K,D*0C
$GPGGA,214946.000,3748.5356,N,12217.8543,W,2,03,2.4,10.9,M,-25.1,M,,0000*57
$GPGSA,A,2,17,26,15,,,,,,,,,,2.6,2.4,1.0*36
$GPRMC,214946.000,A,3748.5356,N,12217.8543,W,0.60,117.86,180712,,,D*77
$GPVTG,117.86,T,,M,0.60,N,1.1,K,D*07
$GPGGA,214947.000,3748.5357,N,12217.8534,W,2,03,2.4,11.0,M,-25.1,M,,0000*5F
$GPGSA,A,2,17,26,15,,,,,,,,,,2.6,2.4,1.0*36
$GPRMC,214947.000,A,3748.5357,N,12217.8534,W,0.49,51.57,180712,,,D*43
$GPVTG,51.57,T,,M,0.49,N,0.9,K,D*3A
$GPGGA,214948.000,3748.5360,N,12217.8528,W,2,03,2.4,10.9,M,-25.1,M,,0000*51
$GPGSA,A,2,17,26,15,,,,,,,,,,2.6,2.4,1.0*36
$GPRMC,214948.000,A,3748.5360,N,12217.8528,W,1.41,19.66,180712,,,D*42
$GPVTG,19.66,T,,M,1.41,N,2.6,K,D*30
$GPGGA,214949.000,3748.5354,N,12217.8515,W,2,04,1.9,11.6,M,-25.1,M,,0000*5E
$GPGSA,A,3,17,26,27,15,,,,,,,,,2.2,1.9,1.0*38
$GPRMC,214949.000,A,3748.5354,N,12217.8515,W,0.98,61.58,180712,,,D*4D
$GPVTG,61.58,T,,M,0.98,N,1.8,K,D*3A
$GPGGA,214950.000,3748.5348,N,12217.8496,W,2,03,2.4,10.0,M,-25.1,M,2.8,0000*7B
$GPGSA,A,2,17,26,15,,,,,,,,,,2.6,2.4,1.0*36
$GPGSV,3,1,11,17,80,064,24,28,50,053,29,27,39,315,17,26,36,222,27*7B
$GPGSV,3,2,11,15,32,274,22,08,31,130,37,09,23,315,18,04,19,161,25*7B
$GPGSV,3,3,11,01,17,048,21,11,03,038,,48,44,197,34*4D
$GPRMC,214950.000,A,3748.5348,N,12217.8496,W,1.55,78.83,180712,,,D*4C
$GPVTG,78.83,T,,M,1.55,N,2.9,K,D*36
$GPGGA,214951.000,3748.5339,N,12217.8500,W,2,04,1.9,11.8,M,-25.1,M,,0000*56
$GPGSA,A,3,17,26,27,15,,,,,,,,,2.2,1.9,1.0*38
$GPRMC,214951.000,A,3748.5339,N,12217.8500,W,1.52,101.95,180712,,,D*7A
$GPVTG,101.95,T,,M,1.52,N,2.8,K,D*08
$GPGGA,214952.000,3748.5328,N,12217.8508,W,2,04,1.9,13.6,M,-25.1,M,,0000*51
$GPGSA,A,3,17,26,27,15,,,,,,,,,2.2,1.9,1.0*38
$GPRMC,214952.000,A,3748.5328,N,12217.8508,W,2.06,144.07,180712,,,D*79
$GPVTG,144.07,T,,M,2.06,N,3.8,K,D*01
$GPGGA,214953.000,3748.5316,N,12217.8502,W,2,04,1.9,15.9,M,-25.1,M,,0000*5E
$GPGSA,A,3,17,26,27,15,,,,,,,,,2.2,1.9,1.0*38
$GPRMC,214953.000,A,3748.5316,N,12217.8502,W,1.97,133.37,180712,,,D*77
$GPVTG,133.37,T,,M,1.97,N,3.7,K,D*06
$GPGGA,214954.000,3748.5310,N,12217.8503,W,2,04,1.9,17.1,M,-25.1,M,,0000*54
$GPGSA,A,3,17,26,27,15,,,,,,,,,2.2,1.9,1.0*38
$GPRMC,214954.000,A,3748.5310,N,12217.8503,W,1.36,112.25,180712,,,D*7C
$GPVTG,112.25,T,,M,1.36,N,2.5,K,D*0E
$GPGGA,214955.000,3748.5309,N,12217.8488,W,2,04,1.9,17.2,M,-25.1,M,2.8,0000*78
$GPGSA,A,3,17,26,27,15,,,,,,,,,2.2,1.9,1.0*38
$GPGSV,3,1,11,17,80,064,24,28,50,053,30,27,39,315,21,26,36,222,23*72
$GPGSV,3,2,11,15,32,274,21,08,31,130,37,09,23,315,19,04,19,161,23*7F
$GPGSV,3,3,11,01,17,048,28,11,03,038,16,48,44,197,34*43
$GPRMC,214955.000,A,3748.5309,N,12217.8488,W,0.84,78.84,180712,,,D*49
$GPVTG,78.84,T,,M,0.84,N,1.6,K,D*30
$GPGGA,214956.000,3748.5311,N,12217.8490,W,2,04,1.9,17.6,M,-25.1,M,,0000*5B
$GPGSA,A,3,17,26,27,15,,,,,,,,,2.2,1.9,1.0*38
$GPRMC,214956.000,A,3748.5311,N,12217.8490,W,0.55,58.18,180712,,,D*41
$GPVTG,58.18,T,,M,0.55,N,1.0,K,D*3D
$GPGGA,214957.000,3748.5306,N,12217.8489,W,2,04,1.9,18.5,M,-25.1,M,,0000*58
$GPGSA,A,3,17,26,27,15,,,,,,,,,2.2,1.9,1.0*38
$GPRMC,214957.000,A,3748.5306,N,12217.8489,W,0.59,110.40,180712,,,D*72
$GPVTG,110.40,T,,M,0.59,N,1.1,K,D*00
$GPGGA,214958.000,3748.5305,N,12217.8487,W,2,04,1.9,18.8,M,-25.1,M,,0000*57
$GPGSA,A,3,17,26,27,15,,,,,,,,,2.2,1.9,1.0*38
$GPRMC,214958.000,A,3748.5305,N,12217.8487,W,0.56,108.35,180712,,,D*74
$GPVTG,108.35,T,,M,0.56,N,1.0,K,D*05
$GPGGA,214959.000,3748.5316,N,12217.8496,W,2,04,1.9,19.9,M,-25.1,M,,0000*54
$GPGSA,A,3,17,26,27,15,,,,,,,,,2.2,1.9,1.0*38
$GPRMC,214959.000,A,3748.5316,N,12217.8496,W,0.68,149.24,180712,,,D*7F
$GPVTG,149.24,T,,M,0.68,N,1.3,K,D*0E
$GPGGA,215000.000,3748.5312,N,12217.8489,W,2,03,3.0,20.7,M,-25.1,M,,0000*52
$GPGSA,A,2,17,27,15,,,,,,,,,,3.2,3.0,1.0*37
$GPGSV,3,1,11,17,80,064,24,28,50,053,30,27,39,315,20,26,36,222,18*7B
$GPGSV,3,2,11,15,32,274,25,08,31,130,37,09,23,315,21,04,19,161,23*70
$GPGSV,3,3,11,01,17,048,28,11,03,038,15,48,44,197,25*40
$GPRMC,215000.000,A,3748.5312,N,12217.8489,W,1.34,123.07,180712,,,D*74
$GPVTG,123.07,T,,M,1.34,N,2.5,K,D*0E
$GPGGA,215001.000,3748.5309,N,12217.8485,W,2,03,3.0,21.0,M,-25.1,M,2.8,0000*77
$GPGSA,A,2,17,27,15,,,,,,,,,,3.2,3.0,1.0*37
$GPRMC,215001.000,A,3748.5309,N,12217.8485,W,1.63,115.26,180712,,,D*77
$GPVTG,115.26,T,,M,1.63,N,3.0,K,D*0E
$GPGGA,215002.000,3748.5302,N,12217.8480,W,2,03,3.0,21.9,M,-25.1,M,3.8,0000*72
$GPGSA,A,2,17,27,15,,,,,,,,,,3.2,3.0,1.0*37
$GPRMC,215002.000,A,3748.5302,N,12217.8480,W,1.87,141.13,180712,,,D*77
$GPVTG,141.13,T,,M,1.87,N,3.5,K,D*06
$GPGGA,215003.000,3748.5302,N,12217.8473,W,2,04,1.9,23.4,M,-25.1,M,4.8,0000*7B
$GPGSA,A,3,17,26,27,15,,,,,,,,,2.2,1.9,1.0*38
$GPRMC,215003.000,A,3748.5302,N,12217.8473,W,2.12,133.25,180712,,,D*75
$GPVTG,133.25,T,,M,2.12,N,3.9,K,D*05
$GPGGA,215004.000,3748.5298,N,12217.8466,W,2,04,1.9,23.9,M,-25.1,M,5.8,0000*76
$GPGSA,A,3,17,26,27,15,,,,,,,,,2.2,1.9,1.0*38
$GPRMC,215004.000,A,3748.5298,N,12217.8466,W,2.97,144.59,180712,,,D*72
$GPVTG,144.59,T,,M,2.97,N,5.5,K,D*09
$GPGGA,215005.000,3748.5295,N,12217.8448,W,2,04,1.9,23.4,M,-25.1,M,6.8,0000*78
$GPGSA,A,3,17,26,27,15,,,,,,,,,2.2,1.9,1.0*38
$GPGSV,3,1,11,17,80,064,31,28,50,053,31,27,39,315,27,26,36,222,19*78
$GPGSV,3,2,11,15,32,274,24,08,31,130,37,09,23,315,23,04,19,161,21*71
$GPGSV,3,3,11,01,17,048,26,11,03,038,15,48,44,197,24*4F
$GPRMC,215005.000,A,3748.5295,N,12217.8448,W,3.20,140.09,180712,,,D*7E
$GPVTG,140.09,T,,M,3.20,N,5.9,K,D*09
$GPGGA,215006.000,3748.5294,N,12217.8445,W,2,04,1.9,23.9,M,-25.1,M,7.8,0000*7B
$GPGSA,A,3,17,26,27,15,,,,,,,,,2.2,1.9,1.0*38
$GPRMC,215006.000,A,3748.5294,N,12217.8445,W,2.48,160.12,180712,,,D*76
$GPVTG,160.12,T,,M,2.48,N,4.6,K,D*00
$GPGGA,215007.000,3748.5300,N,12217.8453,W,2,04,1.9,25.9,M,-25.1,M,8.8,0000*78
$GPGSA,A,3,17,26,27,15,,,,,,,,,2.2,1.9,1.0*38
$GPRMC,215007.000,A,3748.5300,N,12217.8453,W,1.97,137.88,180712,,,D*7C
$GPVTG,137.88,T,,M,1.97,N,3.6,K,D*07
$GPGGA,215008.000,3748.5295,N,12217.8463,W,2,04,1.9,29.7,M,-25.1,M,9.8,0000*7A
$GPGSA,A,3,17,26,27,15,,,,,,,,,2.2,1.9,1.0*38
$GPRMC,215008.000,A,3748.5295,N,12217.8463,W,1.24,156.62,180712,,,D*76
$GPVTG,156.62,T,,M,1.24,N,2.3,K,D*08
$GPGGA,215009.000,3748.5295,N,12217.8473,W,2,04,1.9,33.0,M,-25.1,M,10.8,0000*4E
$GPGSA,A,3,17,26,27,15,,,,,,,,,2.2,1.9,1.0*38
$GPRMC,215009.000,A,3748.5295,N,12217.8473,W,1.26,141.90,180712,,,D*7F
$GPVTG,141.90,T,,M,1.26,N,2.3,K,D*01
$GPGGA,215010.000,3748.5293,N,12217.8473,W,2,04,1.9,34.1,M,-25.1,M,11.8,0000*47
$GPGSA,A,3,17,26,27,15,,,,,,,,,2.2,1.9,1.0*38
$GPGSV,3,1,10,17,80,064,28,28,50,053,32,27,39,315,23,26,36,222,20*7C
$GPGSV,3,2,10,15,32,274,23,08,31,130,42,09,23,315,23,04,19,161,22*76
$GPGSV,3,3,10,01,17,048,33,11,03,038,*7B
$GPRMC,215010.000,A,3748.5293,N,12217.8473,W,2.05,141.58,180712,,,D*77
$GPVTG,141.58,T,,M,2.05,N,3.8,K,D*0D
$GPGGA,215011.000,3748.5300,N,12217.8463,W,2,04,1.9,33.5,M,-25.1,M,12.8,0000*4C
$GPGSA,A,3,17,26,27,15,,,,,,,,,2.2,1.9,1.0*38
$GPRMC,215011.000,A,3748.5300,N,12217.8463,W,0.83,116.89,180712,,,D*7E
$GPVTG,116.89,T,,M,0.83,N,1.5,K,D*00
$GPGGA,215012.000,3748.5301,N,12217.8453,W,2,04,1.9,33.4,M,-25.1,M,13.8,0000*4D
$GPGSA,A,3,17,26,27,15,,,,,,,,,2.2,1.9,1.0*38
$GPRMC,215012.000,A,3748.5301,N,12217.8453,W,1.43,136.68,180712,,,D*7F
$GPVTG,136.68,T,,M,1.43,N,2.7,K,D*01
$GPGGA,215013.000,3748.5306,N,12217.8441,W,2,04,1.9,32.7,M,-25.1,M,14.8,0000*4D
$GPGSA,A,3,17,26,27,15,,,,,,,,,2.2,1.9,1.0*38
$GPRMC,215013.000,A,3748.5306,N,12217.8441,W,0.32,103.00,180712,,,D*75
$GPVTG,103.00,T,,M,0.32,N,0.6,K,D*0D
$GPGGA,215014.000,3748.5309,N,12217.8435,W,2,03,2.2,33.5,M,-25.1,M,15.8,0000*4B
$GPGSA,A,2,17,26,27,,,,,,,,,,2.5,2.2,1.0*32
$GPRMC,215014.000,A,3748.5309,N,12217.8435,W,0.84,43.96,180712,,,D*49
$GPVTG,43.96,T,,M,0.84,N,1.6,K,D*3B
$GPGGA,215015.000,3748.5315,N,12217.8423,W,2,03,2.2,35.2,M,-25.1,M,16.8,0000*42
$GPGSA,A,2,17,26,27,,,,,,,,,,2.5,2.2,1.0*32
$GPGSV,3,1,10,17,80,064,27,28,50,053,33,27,39,315,23,26,36,222,19*78
$GPGSV,3,2,10,15,32,274,17,08,31,130,37,09,23,315,23,04,19,161,22*73
$GPGSV,3,3,10,01,17,048,33,11,03,038,20*79
$GPRMC,215015.000,A,3748.5315,N,12217.8423,W,1.67,47.34,180712,,,D*42
$GPVTG,47.34,T,,M,1.67,N,3.1,K,D*3E
$GPGGA,215016.000,3748.5315,N,12217.8411,W,2,03,2.2,36.4,M,-25.1,M,17.8,0000*44
$GPGSA,A,2,17,26,27,,,,,,,,,,2.5,2.2,1.0*32
$GPRMC,215016.000,A,3748.5315,N,12217.8411,W,0.99,89.89,180712,,,D*44
$GPVTG,89.89,T,,M,0.99,N,1.8,K,D*31
$GPGGA,215017.000,3748.5317,N,12217.8410,W,1,03,2.2,36.6,M,-25.1,M,,0000*57
$GPGSA,A,2,17,26,27,,,,,,,,,,2.5,2.2,1.0*32
$GPRMC,215017.000,A,3748.5317,N,12217.8410,W,1.07,172.05,180712,,,A*74
$GPVTG,172.05,T,,M,1.07,N,2.0,K,A*08
$GPGGA,215018.000,3748.5320,N,12217.8409,W,1,03,2.2,36.9,M,-25.1,M,,0000*5B
$GPGSA,A,2,17,26,27,,,,,,,,,,2.5,2.2,1.0*32
$GPRMC,215018.000,A,3748.5320,N,12217.8409,W,0.76,187.62,180712,,,A*7B
$GPVTG,187.62,T,,M,0.76,N,1.4,K,A*03
$GPGGA,215019.000,3748.5323,N,12217.8380,W,1,04,1.9,37.9,M,-25.1,M,,0000*51
$GPGSA,A,3,17,26,27,15,,,,,,,,,2.2,1.9,1.0*38
$GPRMC,215019.000,A,3748.5323,N,12217.8380,W,2.36,145.93,180712,,,A*79
$GPVTG,145.93,T,,M,2.36,N,4.4,K,A*00
$GPGGA,215020.000,3748.5327,N,12217.8365,W,1,03,2.2,38.9,M,-25.1,M,,0000*54
$GPGSA,A,2,17,26,27,,,,,,,,,,2.5,2.2,1.0*32
$GPGSV,3,1,10,17,80,063,26,28,50,054,32,27,39,315,22,26,36,222,20*73
$GPGSV,3,2,10,15,32,274,18,08,31,130,25,09,23,315,23,04,19,161,22*7F
$GPGSV,3,3,10,01,17,047,29,11,03,038,20*7D
$GPRMC,215020.000,A,3748.5327,N,12217.8365,W,1.80,97.73,180712,,,A*42
$GPVTG,97.73,T,,M,1.80,N,3.3,K,A*3E
$GPGGA,215021.000,3748.5327,N,12217.8349,W,1,04,1.9,39.0,M,-25.1,M,,0000*5C
$GPGSA,A,3,17,26,27,15,,,,,,,,,2.2,1.9,1.0*38
$GPRMC,215021.000,A,3748.5327,N,12217.8349,W,2.07,102.51,180712,,,A*7C
$GPVTG,102.51,T,,M,2.07,N,3.8,K,A*04
$GPGGA,215022.000,3748.5334,N,12217.8333,W,1,04,1.9,39.2,M,-25.1,M,,0000*52
$GPGSA,A,3,17,26,27,15,,,,,,,,,2.2,1.9,1.0*38
$GPRMC,215022.000,A,3748.5334,N,12217.8333,W,1.51,76.32,180712,,,A*47
$GPVTG,76.32,T,,M,1.51,N,2.8,K,A*32
$GPGGA,215023.000,3748.5338,N,12217.8320,W,1,04,1.9,39.2,M,-25.1,M,,0000*5D
$GPGSA,A,3,17,26,27,15,,,,,,,,,2.2,1.9,1.0*38
$GPRMC,215023.000,A,3748.5338,N,12217.8320,W,1.15,70.30,180712,,,A*4C
$GPVTG,70.30,T,,M,1.15,N,2.1,K,A*3F
$GPGGA,215024.000,3748.5343,N,12217.8297,W,1,04,1.9,38.4,M,-25.1,M,,0000*5C
$GPGSA,A,3,17,26,27,15,,,,,,,,,2.2,1.9,1.0*38
$GPRMC,215024.000,A,3748.5343,N,12217.8297,W,1.23,53.82,180712,,,A*47
$GPVTG,53.82,T,,M,1.23,N,2.3,K,A*30
$GPGGA,215025.000,3748.5344,N,12217.8272,W,1,04,1.9,38.1,M,-25.1,M,,0000*54
$GPGSA,A,3,17,26,27,15,,,,,,,,,2.2,1.9,1.0*38
$GPGSV,3,1,10,17,80,063,26,28,50,054,32,27,39,315,22,26,36,222,20*73
$GPGSV,3,2,10,15,32,274,22,08,31,130,26,09,23,315,22,04,19,161,21*77
$GPGSV,3,3,10,01,17,047,29,11,03,038,21*7C
$GPRMC,215025.000,A,3748.5344,N,12217.8272,W,1.96,105.90,180712,,,A*75
$GPVTG,105.90,T,,M,1.96,N,3.6,K,A*0B
$GPGGA,215026.000,3748.5331,N,12217.8236,W,1,04,1.9,37.4,M,-25.1,M,,0000*5F
$GPGSA,A,3,17,26,27,15,,,,,,,,,2.2,1.9,1.0*38
$GPRMC,215026.000,A,3748.5331,N,12217.8236,W,4.53,131.16,180712,,,A*71
$GPVTG,131.16,T,,M,4.53,N,8.4,K,A*07
$GPGGA,215027.000,3748.5318,N,12217.8223,W,1,04,1.9,37.6,M,-25.1,M,,0000*53
$GPGSA,A,3,17,26,27,15,,,,,,,,,2.2,1.9,1.0*38
$GPRMC,215027.000,A,3748.5318,N,12217.8223,W,3.63,140.29,180712,,,A*71
$GPVTG,140.29,T,,M,3.63,N,6.7,K,A*04
$GPGGA,215028.000,3748.5302,N,12217.8203,W,1,04,1.9,36.7,M,-25.1,M,,0000*55
$GPGSA,A,3,17,26,27,15,,,,,,,,,2.2,1.9,1.0*38
$GPRMC,215028.000,A,3748.5302,N,12217.8203,W,3.54,149.68,180712,,,A*7F
$GPVTG,149.68,T,,M,3.54,N,6.6,K,A*0D
$GPGGA,215029.000,3748.5286,N,12217.8192,W,1,04,1.9,35.0,M,-25.1,M,,0000*56
$GPGSA,A,3,17,26,27,15,,,,,,,,,2.2,1.9,1.0*38
$GPRMC,215029.000,A,3748.5286,N,12217.8192,W,2.65,160.99,180712,,,A*7E
$GPVTG,160.99,T,,M,2.65,N,4.9,K,A*06
$GPGGA,215030.000,3748.5275,N,12217.8184,W,1,04,1.9,34.1,M,-25.1,M,,0000*55
$GPGSA,A,3,17,26,27,15,,,,,,,,,2.2,1.9,1.0*38
$GPGSV,3,1,10,17,80,063,25,28,50,054,31,27,39,315,21,26,36,222,21*71
$GPGSV,3,2,10,15,32,274,21,08,31,130,33,09,23,315,22,04,19,161,24*75
$GPRMC,215030.000,A,3748.5275,N,12217.8184,W,1.55,175.02,180712,,,A*7B
$GPVTG,175.02,T,,M,1.55,N,2.9,K,A*06
$GPGGA,215031.000,3748.5272,N,12217.8185,W,1,04,1.9,35.7,M,-25.1,M,,0000*55
$GPGSA,A,3,17,26,27,15,,,,,,,,,2.2,1.9,1.0*38
$GPRMC,215031.000,A,3748.5272,N,12217.8185,W,2.25,157.38,180712,,,A*71
$GPVTG,157.38,T,,M,2.25,N,4.2,K,A*06
$GPGGA,215032.000,3748.5269,N,12217.8188,W,1,04,1.9,36.2,M,-25.1,M,,0000*57
$GPGSA,A,3,17,26,27,15,,,,,,,,,2.2,1.9,1.0*38
$GPRMC,215032.000,A,3748.5269,N,12217.8188,W,1.29,129.33,180712,,,A*78
$GPVTG,129.33,T,,M,1.29,N,2.4,K,A*0B
$GPGGA,215033.000,3748.5261,N,12217.8201,W,1,04,1.9,38.9,M,-25.1,M,,0000*59
$GPGSA,A,3,17,26,27,15,,,,,,,,,2.2,1.9,1.0*38
$GPRMC,215033.000,A,3748.5261,N,12217.8201,W,0.96,169.31,180712,,,A*70
$GPVTG,169.31,T,,M,0.96,N,1.8,K,A*07
$GPGGA,215034.000,3748.5259,N,12217.8209,W,1,04,1.9,40.8,M,-25.1,M,,0000*53
$GPGSA,A,3,17,26,27,15,,,,,,,,,2.2,1.9,1.0*38
$GPRMC,215034.000,A,3748.5259,N,12217.8209,W,0.43,171.89,180712,,,A*76
$GPVTG,171.89,T,,M,0.43,N,0.8,K,A*04
$GPGGA,215035.000,3748.5256,N,12217.8223,W,1,04,1.9,43.1,M,-25.1,M,,0000*5F
$GPGSA,A,3,17,26,27,15,,,,,,,,,2.2,1.9,1.0*38
$GPGSV,3,1,10,17,80,063,22,28,50,054,30,27,39,315,21,26,36,222,22*74
$GPGSV,3,2,10,15,32,274,21,08,31,130,41,09,23,315,22,04,19,161,25*71
$GPGSV,3,3,10,01,17,047,31,11,03,038,26*72
$GPRMC,215035.000,A,3748.5256,N,12217.8223,W,0.48,198.32,180712,,,A*7C
$GPVTG,198.32,T,,M,0.48,N,0.9,K,A*09
$GPGGA,215036.000,3748.5256,N,12217.8232,W,1,04,1.9,43.3,M,-25.1,M,,0000*5E
$GPGSA,A,3,17,26,27,15,,,,,,,,,2.2,1.9,1.0*38
$GPRMC,215036.000,A,3748.5256,N,12217.8232,W,0.41,148.03,180712,,,A*79
$GPVTG,148.03,T,,M,0.41,N,0.8,K,A*0E
$GPGGA,215037.000,3748.5244,N,12217.8246,W,1,04,1.9,43.9,M,-25.1,M,,0000*55
$GPGSA,A,3,17,26,27,15,,,,,,,,,2.2,1.9,1.0*38
$GPRMC,215037.000,A,3748.5244,N,12217.8246,W,1.75,204.99,180712,,,A*76
$GPVTG,204.99,T,,M,1.75,N,3.2,K,A*09
$GPGGA,215038.000,3748.5225,N,12217.8247,W,1,04,1.9,43.0,M,-25.1,M,,0000*55
$GPGSA,A,3,17,26,27,15,,,,,,,,,2.2,1.9,1.0*38
$GPRMC,215038.000,A,3748.5225,N,12217.8247,W,2.12,197.82,180712,,,A*7E
$GPVTG,197.82,T,,M,2.12,N,3.9,K,A*03
$GPGGA,215039.000,3748.5211,N,12217.8251,W,1,04,1.9,42.4,M,-25.1,M,,0000*51
$GPGSA,A,3,17,26,27,15,,,,,,,,,2.2,1.9,1.0*38
$GPRMC,215039.000,A,3748.5211,N,12217.8251,W,2.16,219.16,180712,,,A*73
$GPVTG,219.16,T,,M,2.16,N,4.0,K,A*01
$GPGGA,215040.000,3748.5192,N,12217.8247,W,1,04,1.9,41.7,M,-25.1,M,,0000*50
$GPGSA,A,3,17,26,27,15,,,,,,,,,2.2,1.9,1.0*38
$GPGSV,3,1,10,17,80,063,27,28,50,054,31,27,39,315,21,26,36,222,16*77
$GPGSV,3,2,10,15,32,274,21,08,31,130,37,09,23,315,22,04,19,161,21*74
$GPGSV,3,3,10,01,17,047,30,11,03,038,20*75
$GPRMC,215040.000,A,3748.5192,N,12217.8247,W,2.71,200.02,180712,,,A*7E
$GPVTG,200.02,T,,M,2.71,N,5.0,K,A*0C
$GPGGA,215041.000,3748.5181,N,12217.8244,W,1,03,3.0,41.6,M,-25.1,M,,0000*5D
$GPGSA,A,2,17,27,15,,,,,,,,,,3.2,3.0,1.0*37
$GPRMC,215041.000,A,3748.5181,N,12217.8244,W,3.69,191.15,180712,,,A*7B
$GPVTG,191.15,T,,M,3.69,N,6.8,K,A*02
$GPGGA,215042.000,3748.5171,N,12217.8234,W,1,03,3.0,41.2,M,-25.1,M,,0000*52
$GPGSA,A,2,17,27,15,,,,,,,,,,3.2,3.0,1.0*37
$GPRMC,215042.000,A,3748.5171,N,12217.8234,W,3.26,196.65,180712,,,A*7B
$GPVTG,196.65,T,,M,3.26,N,6.0,K,A*01
$GPGGA,215043.000,3748.5162,N,12217.8254,W,1,04,1.9,41.3,M,-25.1,M,,0000*5A
$GPGSA,A,3,17,26,27,15,,,,,,,,,2.2,1.9,1.0*38
$GPRMC,215043.000,A,3748.5162,N,12217.8254,W,4.13,218.07,180712,,,A*7E
$GPVTG,218.07,T,,M,4.13,N,7.6,K,A*06
$GPGGA,215044.000,3748.5175,N,12217.8249,W,1,04,1.9,41.7,M,-25.1,M,,0000*53
$GPGSA,A,3,17,26,27,15,,,,,,,,,2.2,1.9,1.0*38
$GPRMC,215044.000,A,3748.5175,N,12217.8249,W,1.58,278.62,180712,,,A*7C
$GPVTG,278.62,T,,M,1.58,N,2.9,K,A*03
$GPGGA,215045.000,3748.5166,N,12217.8236,W,1,04,1.9,41.5,M,-25.1,M,,0000*5A
$GPGSA,A,3,17,26,27,15,,,,,,,,,2.2,1.9,1.0*38
$GPGSV,3,1,10,17,80,063,25,28,50,054,31,27,39,315,20,26,36,222,23*72
$GPGSV,3,2,10,15,32,274,20,08,31,130,38,09,23,315,21,04,19,161,25*7D
$GPGSV,3,3,10,01,17,047,22,11,03,038,21*77
$GPRMC,215045.000,A,3748.5166,N,12217.8236,W,0.52,204.54,180712,,,A*72
$GPGGA,215046.000,3748.5164,N,12217.8217,W,1,04,1.9,41.6,M,-25.1,M,,0000*5B
$GPGSA,A,3,17,26,27,15,,,,,,,,,2.2,1.9,1.0*38
$GPRMC,215046.000,A,3748.5164,N,12217.8217,W,1.49,122.10,180712,,,A*7C
$GPVTG,122.10,T,,M,1.49,N,2.8,K,A*0B
$GPGGA,215047.000,3748.5158,N,12217.8197,W,1,04,1.9,41.0,M,-25.1,M,,0000*58
$GPGSA,A,3,17,26,27,15,,,,,,,,,2.2,1.9,1.0*38
$GPRMC,215047.000,A,3748.5158,N,12217.8197,W,1.31,102.51,180712,,,A*71
$GPVTG,102.51,T,,M,1.31,N,2.4,K,A*0F
$GPGGA,215048.000,3748.5141,N,12217.8198,W,1,04,1.9,42.2,M,-25.1,M,,0000*51
$GPGSA,A,3,17,26,27,15,,,,,,,,,2.2,1.9,1.0*38
$GPRMC,215048.000,A,3748.5141,N,12217.8198,W,0.29,118.09,180712,,,A*77
$GPVTG,118.09,T,,M,0.29,N,0.5,K,A*02
$GPGGA,215049.000,3748.5133,N,12217.8187,W,1,04,1.9,41.3,M,-25.1,M,,0000*59
$GPGSA,A,3,17,26,27,15,,,,,,,,,2.2,1.9,1.0*38
$GPRMC,215049.000,A,3748.5133,N,12217.8187,W,1.22,71.88,180712,,,A*40
$GPVTG,71.88,T,,M,1.22,N,2.3,K,A*3B
$GPGGA,215050.000,3748.5129,N,12217.8188,W,1,04,1.9,41.5,M,-25.1,M,,0000*53
$GPGSA,A,3,17,26,27,15,,,,,,,,,2.2,1.9,1.0*38
$GPGSV,3,1,11,17,80,062,26,28,50,054,29,27,39,315,20,26,35,221,31*7B
$GPGSV,3,2,11,15,32,274,27,08,30,130,37,09,23,315,21,04,19,161,25*75
$GPGSV,3,3,11,01,16,047,26,11,03,038,11,48,44,197,31*41
$GPRMC,215050.000,A,3748.5129,N,12217.8188,W,0.97,68.12,180712,,,A*48
$GPVTG,68.12,T,,M,0.97,N,1.8,K,A*37
$GPGGA,215051.000,3748.5124,N,12217.8189,W,1,04,1.9,41.8,M,-25.1,M,,0000*53
$GPGSA,A,3,17,26,27,15,,,,,,,,,2.2,1.9,1.0*38
$GPRMC,215051.000,A,3748.5124,N,12217.8189,W,0.92,81.62,180712,,,A*40
$GPVTG,81.62,T,,M,0.92,N,1.7,K,A*3D
$GPGGA,215052.000,3748.5118,N,12217.8188,W,1,04,1.9,42.6,M,-25.1,M,,0000*53
$GPGSA,A,3,17,26,27,15,,,,,,,,,2.2,1.9,1.0*38
$GPRMC,215052.000,A,3748.5118,N,12217.8188,W,1.49,101.88,180712,,,A*77
$GPVTG,101.88,T,,M,1.49,N,2.8,K,A*0B
$GPGGA,215053.000,3748.5124,N,12217.8200,W,1,04,1.9,45.1,M,-25.1,M,,0000*5E
$GPGSA,A,3,17,26,27,15,,,,,,,,,2.2,1.9,1.0*38
$GPRMC,215053.000,A,3748.5124,N,12217.8200,W,1.76,98.03,180712,,,A*44
$GPVTG,98.03,T,,M,1.76,N,3.3,K,A*3F
$GPGGA,215054.000,3748.5125,N,12217.8203,W,1,04,1.9,46.3,M,-25.1,M,,0000*5A
$GPGSA,A,3,17,26,27,15,,,,,,,,,2.2,1.9,1.0*38
$GPRMC,215054.000,A,3748.5125,N,12217.8203,W,1.63,101.15,180712,,,A*73
$GPVTG,101.15,T,,M,1.63,N,3.0,K,A*0E
$GPGGA,215055.000,3748.5123,N,12217.8202,W,1,04,1.9,47.4,M,-25.1,M,,0000*5A
$GPGSA,A,3,17,26,27,15,,,,,,,,,2.2,1.9,1.0*38
$GPGSV,3,1,11,17,80,062,27,28,50,054,30,27,39,315,21,26,35,221,25*76
$GPGSV,3,2,11,15,32,274,28,08,30,130,37,09,23,315,20,04,19,161,24*7A
$GPGSV,3,3,11,01,16,047,27,11,03,038,,48,44,197,34*45
$GPRMC,215055.000,A,3748.5123,N,12217.8202,W,1.00,67.95,180712,,,A*49
$GPVTG,67.95,T,,M,1.00,N,1.9,K,A*39
$GPGGA,215056.000,3748.5118,N,12217.8204,W,1,04,1.9,49.1,M,-25.1,M,,0000*5C
$GPGSA,A,3,17,26,27,15,,,,,,,,,2.2,1.9,1.0*38
$GPRMC,215056.000,A,3748.5118,N,12217.8204,W,1.47,94.86,180712,,,A*49
$GPVTG,94.86,T,,M,1.47,N,2.7,K,A*39
$GPGGA,215057.000,3748.5113,N,12217.8189,W,1,04,1.9,48.3,M,-25.1,M,,0000*53
$GPGSA,A,3,17,26,27,15,,,,,,,,,2.2,1.9,1.0*38
$GPRMC,215057.000,A,3748.5113,N,12217.8189,W,2.31,98.30,180712,,,A*46
$GPVTG,98.30,T,,M,2.31,N,4.3,K,A*38
$GPGGA,215058.000,3748.5111,N,12217.8179,W,2,04,1.9,46.5,M,-25.1,M,,0000*5A
$GPGSA,A,3,17,26,27,15,,,,,,,,,2.2,1.9,1.0*38
$GPRMC,215058.000,A,3748.5111,N,12217.8179,W,1.34,66.30,180712,,,D*46
$GPVTG,66.30,T,,M,1.34,N,2.5,K,D*3A
$GPGGA,215059.000,3748.5118,N,12217.8170,W,2,04,1.9,43.9,M,-25.1,M,2.8,0000*76
$GPGSA,A,3,17,26,27,15,,,,,,,,,2.2,1.9,1.0*38
$GPRMC,215059.000,A,3748.5118,N,12217.8170,W,1.59,0.97,180712,,,D*71
$GPVTG,0.97,T,,M,1.59,N,3.0,K,D*08
$GPGGA,215100.000,3748.5116,N,12217.8170,W,2,04,1.9,43.9,M,-25.1,M,3.8,0000*74
$GPGSA,A,3,17,26,27,15,,,,,,,,,2.2,1.9,1.0*38
$GPGSV,3,1,11,17,80,062,26,28,50,054,30,27,39,315,21,26,35,221,31*72
$GPGSV,3,2,11,15,32,274,25,08,30,130,37,09,23,315,20,04,19,161,22*71
$GPGSV,3,3,11,01,16,047,28,11,03,038,,48,44,197,23*4C
$GPRMC,215100.000,A,3748.5116,N,12217.8170,W,0.91,343.81,180712,,,D*74
$GPVTG,343.81,T,,M,0.91,N,1.7,K,D*0B
$GPGGA,215101.000,3748.5117,N,12217.8177,W,2,04,1.9,44.8,M,-25.1,M,4.8,0000*72
$GPGSA,A,3,17,26,27,15,,,,,,,,,2.2,1.9,1.0*38
$GPRMC,215101.000,A,3748.5117,N,12217.8177,W,0.66,339.49,180712,,,D*72
$GPVTG,339.49,T,,M,0.66,N,1.2,K,D*0F
$GPGGA,215102.000,3748.5114,N,12217.8170,W,2,04,1.9,44.7,M,-25.1,M,5.8,0000*7B
$GPGSA,A,3,17,26,27,15,,,,,,,,,2.2,1.9,1.0*38
$GPRMC,215102.000,A,3748.5114,N,12217.8170,W,0.66,108.14,180712,,,D*7D
$GPVTG,108.14,T,,M,0.66,N,1.2,K,D*07
$GPGGA,215103.000,3748.5103,N,12217.8168,W,2,04,1.9,45.9,M,-25.1,M,6.8,0000*79
$GPGSA,A,3,17,26,27,15,,,,,,,,,2.2,1.9,1.0*38
$GPRMC,215103.000,A,3748.5103,N,12217.8168,W,0.69,85.91,180712,,,D*45
$GPVTG,85.91,T,,M,0.69,N,1.3,K,D*30
$GPGGA,215104.000,3748.5105,N,12217.8166,W,2,04,1.9,44.9,M,-25.1,M,7.8,0000*76
$GPGSA,A,3,17,26,27,15,,,,,,,,,2.2,1.9,1.0*38
$GPRMC,215104.000,A,3748.5105,N,12217.8166,W,1.59,1.03,180712,,,D*7F
$GPVTG,1.03,T,,M,1.59,N,2.9,K,D*0C
$GPGGA,215105.000,3748.5108,N,12217.8160,W,2,04,1.9,43.8,M,-25.1,M,8.8,0000*75
$GPGSA,A,3,17,26,27,15,,,,,,,,,2.2,1.9,1.0*38
$GPGSV,3,1,11,17,80,062,22,28,50,054,30,27,39,315,21,26,35,221,29*7F
$GPGSV,3,2,11,15,32,274,32,08,30,130,30,09,23,315,21,04,19,161,32*70
$GPGSV,3,3,11,01,16,047,21,11,03,038,,48,44,197,26*40
$GPRMC,215105.000,A,3748.5108,N,12217.8160,W,0.93,30.49,180712,,,D*4E
$GPVTG,30.49,T,,M,0.93,N,1.7,K,D*3A
$GPGGA,215106.000,3748.5108,N,12217.8151,W,2,03,3.0,43.7,M,-25.1,M,9.8,0000*76
$GPGSA,A,2,17,27,15,,,,,,,,,,3.2,3.0,1.0*37
$GPRMC,215106.000,A,3748.5108,N,12217.8151,W,0.65,49.66,180712,,,D*45
$GPVTG,49.66,T,,M,0.65,N,1.2,K,N*3F
$GPGGA,215107.000,3748.5111,N,12217.8144,W,2,03,3.0,43.1,M,-25.1,M,10.8,0000*45
$GPGSA,A,2,17,27,15,,,,,,,,,,3.2,3.0,1.0*37
$GPRMC,215107.000,A,3748.5111,N,12217.8144,W,1.32,73.12,180712,,,D*41
$GPVTG,73.12,T,,M,1.32,N,2.5,K,N*32
$GPGGA,215108.000,3748.5111,N,12217.8137,W,2,04,1.9,41.9,M,-25.1,M,11.8,0000*49
$GPGSA,A,3,17,26,27,15,,,,,,,,,2.2,1.9,1.0*38
$GPRMC,215108.000,A,3748.5111,N,12217.8137,W,1.08,52.63,180712,,,D*46
$GPVTG,52.63,T,,M,1.08,N,2.0,K,D*31
$GPGGA,215109.000,3748.5105,N,12217.8140,W,2,04,1.9,40.4,M,-25.1,M,12.8,0000*42
$GPGSA,A,3,17,26,27,15,,,,,,,,,2.2,1.9,1.0*38
$GPRMC,215109.000,A,3748.5105,N,12217.8140,W,0.75,190.93,180712,,,D*79
$GPVTG,190.93,T,,M,0.75,N,1.4,K,D*0D
$GPGGA,215110.000,3748.5100,N,12217.8132,W,2,04,1.9,38.0,M,-25.1,M,13.8,0000*40
$GPGSA,A,3,17,26,27,15,,,,,,,,,2.2,1.9,1.0*38
$GPGSV,3,1,11,17,80,062,24,28,50,054,32,27,39,315,22,26,35,221,23*72
$GPGSV,3,2,11,15,32,274,21,08,30,130,34,09,23,315,21,04,19,161,29*7C
$GPGSV,3,3,11,01,16,047,21,11,03,038,,48,44,197,23*45
$GPRMC,215110.000,A,3748.5100,N,12217.8132,W,1.09,169.75,180712,,,D*75
$GPVTG,169.75,T,,M,1.09,N,2.0,K,D*0E
$GPGGA,215111.000,3748.5099,N,12217.8128,W,2,04,1.9,37.3,M,-25.1,M,14.8,0000*40
$GPGSA,A,3,17,26,27,15,,,,,,,,,2.2,1.9,1.0*38
$GPRMC,215111.000,A,3748.5099,N,12217.8128,W,1.41,137.46,180712,,,D*79
$GPVTG,137.46,T,,M,1.41,N,2.6,K,D*0F
$GPGGA,215112.000,3748.5093,N,12217.8119,W,2,04,1.9,37.4,M,-25.1,M,15.8,0000*4D
$GPGSA,A,3,17,26,27,15,,,,,,,,,2.2,1.9,1.0*38
$GPRMC,215112.000,A,3748.5093,N,12217.8119,W,1.22,103.03,180712,,,D*71
$GPVTG,103.03,T,,M,1.22,N,2.3,K,D*09
$GPGGA,215113.000,3748.5092,N,12217.8113,W,2,04,1.9,36.9,M,-25.1,M,16.8,0000*48
$GPGSA,A,3,17,26,27,15,,,,,,,,,2.2,1.9,1.0*38
$GPRMC,215113.000,A,3748.5092,N,12217.8113,W,1.57,119.14,180712,,,D*74
$GPVTG,119.14,T,,M,1.57,N,2.9,K,D*0C
$GPGGA,215114.000,3748.5084,N,12217.8105,W,2,04,1.9,36.7,M,-25.1,M,17.8,0000*40
$GPGSA,A,3,17,26,27,15,,,,,,,,,2.2,1.9,1.0*38
$GPRMC,215114.000,A,3748.5084,N,12217.8105,W,0.97,111.98,180712,,,D*72
$GPVTG,111.98,T,,M,0.97,N,1.8,K,D*0F
$GPGGA,215115.000,3748.5073,N,12217.8087,W,1,04,1.9,37.1,M,-25.1,M,,0000*56
$GPGSA,A,3,17,26,27,15,,,,,,,,,2.2,1.9,1.0*38
$GPGSV,3,1,11,17,80,062,29,28,50,054,33,27,39,315,23,26,35,221,30*7D
$GPGSV,3,2,11,15,32,274,21,08,30,130,34,09,23,315,24,04,19,161,30*71
$GPGSV,3,3,11,01,16,047,35,11,03,038,,48,44,197,31*43
$GPRMC,215115.000,A,3748.5073,N,12217.8087,W,1.38,119.51,180712,,,A*7C
$GPGGA,215116.000,3748.5064,N,12217.8073,W,1,04,1.9,37.0,M,-25.1,M,,0000*59
$GPGSA,A,3,17,26,27,15,,,,,,,,,2.2,1.9,1.0*38
$GPRMC,215116.000,A,3748.5064,N,12217.8073,W,1.63,124.26,180712,,,A*72
$GPVTG,124.26,T,,M,1.63,N,3.0,K,A*09
$GPGGA,215117.000,3748.5062,N,12217.8063,W,1,04,1.9,36.7,M,-25.1,M,,0000*59
$GPGSA,A,3,17,26,27,15,,,,,,,,,2.2,1.9,1.0*38
$GPRMC,215117.000,A,3748.5062,N,12217.8063,W,0.95,120.76,180712,,,A*7D
$GPVTG,120.76,T,,M,0.95,N,1.8,K,A*0A
$GPGGA,215118.000,3748.5060,N,12217.8053,W,1,04,1.9,36.3,M,-25.1,M,,0000*53
$GPGSA,A,3,17,26,27,15,,,,,,,,,2.2,1.9,1.0*38
$GPRMC,215118.000,A,3748.5060,N,12217.8053,W,1.80,120.26,180712,,,A*73
$GPVTG,120.26,T,,M,1.80,N,3.3,K,A*03
$GPGGA,215119.000,3748.5057,N,12217.8056,W,1,04,1.9,35.4,M,-25.1,M,,0000*57
$GPGSA,A,3,17,26,27,15,,,,,,,,,2.2,1.9,1.0*38
