$ADVER,3080,2.3
$GPRMC,214734.143,A,3748.5482,N,12217.8581,W,0.00,,180712,,,A*6E
$GPRMC,214735.143,A,3748.5491,N,12217.8569,W,0.00,,180712,,,A*6B
$GPRMC,214736.143,A,3748.5512,N,12217.8545,W,0.00,,180712,,,A*6C
$GPRMC,214737.143,A,3748.5509,N,12217.8549,W,0.00,,180712,,,A*6B
$GPRMC,214738.143,A,3748.5502,N,12217.8557,W,0.00,,180712,,,A*60
$GPRMC,214739.143,A,3748.5501,N,12217.8558,W,0.00,,180712,,,A*6D
$GPRMC,214740.143,A,3748.5503,N,12217.8556,W,0.00,,180712,,,A*6F
$GPRMC,214741.143,A,3748.5502,N,12217.8558,W,0.00,,180712,,,A*61
$GPRMC,214742.143,A,3748.5503,N,12217.8555,W,0.00,,180712,,,A*6E
$GPRMC,214743.143,A,3748.5504,N,12217.8554,W,0.00,,180712,,,A*69
$GPRMC,214744.143,A,3748.5502,N,12217.8557,W,0.00,,180712,,,A*6B
$GPRMC,214745.143,A,3748.5501,N,12217.8558,W,0.00,,180712,,,A*66
$GPRMC,214746.143,A,3748.5501,N,12217.8558,W,0.00,,180712,,,A*65
$GPRMC,214747.143,A,3748.5501,N,12217.8557,W,0.00,,180712,,,A*6B
$GPRMC,214748.143,A,3748.5495,N,12217.8564,W,0.00,,180712,,,A*68
$GPRMC,214749.143,A,3748.5486,N,12217.8576,W,0.00,,180712,,,A*68
$GPRMC,214750.143,A,3748.5491,N,12217.8570,W,0.00,,180712,,,A*60
$GPRMC,214751.143,A,3748.5632,N,12217.8414,W,0.00,,180712,,,A*69
$GPRMC,214752.143,A,3748.5742,N,12217.8314,W,0.00,,180712,,,A*6B
$GPRMC,214753.143,A,3748.5206,N,12217.8901,W,0.00,,180712,,,A*61
$GPRMC,214754.143,A,3748.4974,N,12217.9223,W,0.00,,180712,,,A*63
$GPRMC,214758.143,A,3748.5370,N,12217.8684,W,0.00,,180712,,,A*68
$GPRMC,214759.143,A,3748.4525,N,12217.9603,W,0.00,,180712,,,A*60
$GPRMC,214800.143,A,3748.3471,N,12218.0812,W,0.00,,180712,,,A*6C
$GPRMC,214801.143,A,3748.3439,N,12218.0869,W,0.00,,180712,,,A*6D
$GPRMC,214802.143,A,3748.4315,N,12217.9871,W,0.00,,180712,,,A*6F
$GPRMC,214803.143,A,3748.6025,N,12217.7868,W,0.00,,180712,,,A*6A
$GPRMC,214804.143,A,3748.5674,N,12217.8283,W,0.00,,180712,,,A*6C
$GPRMC,214805.143,A,3748.5290,N,12217.8720,W,0.00,,180712,,,A*6F
$GPRMC,214806.143,A,3748.5600,N,12217.8363,W,0.00,,180712,,,A*62
$GPRMC,214807.143,A,3748.5435,N,12217.8557,W,0.00,,180712,,,A*66
$GPRMC,214808.143,A,3748.5592,N,12217.8380,W,0.00,,180712,,,A*69
$GPRMC,214809.143,A,3748.4422,N,12217.9784,W,0.00,,180712,,,A*62
$GPRMC,214814.143,A,3748.4185,N,12218.0061,W,0.00,,180712,,,A*6C
$GPRMC,214815.143,A,3748.5380,N,12217.8679,W,0.00,,180712,,,A*63
$GPRMC,214822.143,A,3748.5500,N,12217.8478,W,2.15,215.46,180712,,,A*76
$GPRMC,214823.143,A,3748.5547,N,12217.8437,W,1.20,202.92,180712,,,A*75
$GPRMC,214824.000,A,3748.5555,N,12217.8405,W,1.05,166.47,180712,,,A*78
$GPRMC,214825.000,A,3748.5571,N,12217.8393,W,1.59,182.97,180712,,,A*79
$GPRMC,214826.000,A,3748.5572,N,12217.8390,W,1.79,210.83,180712,,,A*75
$GPRMC,214827.000,A,3748.5569,N,12217.8392,W,1.74,207.67,180712,,,A*7D
$GPRMC,214828.000,A,3748.5567,N,12217.8399,W,0.89,196.96,180712,,,A*71
$GPRMC,214829.000,A,3748.5562,N,12217.8401,W,0.51,195.18,180712,,,A*73
$GPRMC,214830.000,A,3748.5553,N,12217.8413,W,0.98,231.72,180712,,,A*7E
$GPRMC,214831.000,A,3748.5545,N,12217.8425,W,1.12,232.63,180712,,,A*7D
$GPRMC,214832.000,A,3748.5538,N,12217.8435,W,0.95,238.18,180712,,,A*7D
$GPRMC,214833.000,A,3748.5535,N,12217.8439,W,1.40,239.25,180712,,,A*7B
$GPRMC,214834.000,A,3748.5536,N,12217.8441,W,0.65,13.22,180712,,,A*4B
$GPRMC,214835.000,A,3748.5536,N,12217.8436,W,0.62,42.63,180712,,,A*4C
$GPRMC,214836.000,A,3748.5540,N,12217.8438,W,0.28,60.35,180712,,,A*4D
$GPRMC,214837.000,A,3748.5541,N,12217.8435,W,0.27,61.00,180712,,,A*48
$GPRMC,214838.000,A,3748.5542,N,12217.8431,W,0.28,68.11,180712,,,A*46
$GPRMC,214839.000,A,3748.5542,N,12217.8429,W,0.25,69.71,180712,,,A*44
$GPRMC,214840.000,A,3748.5543,N,12217.8427,W,0.25,62.63,180712,,,A*4D
$GPRMC,214841.000,A,3748.5544,N,12217.8428,W,0.18,65.12,180712,,,A*4B
$GPRMC,214842.000,A,3748.5545,N,12217.8428,W,0.22,60.59,180712,,,A*4A
$GPRMC,214843.000,A,3748.5546,N,12217.8427,W,0.36,57.72,180712,,,A*4F
$GPRMC,214844.000,A,3748.5547,N,12217.8427,W,0.44,59.98,180712,,,A*46
$GPRMC,214845.000,A,3748.5547,N,12217.8423,W,0.51,56.52,180712,,,A*4E
$GPRMC,214846.000,A,3748.5547,N,12217.8421,W,0.28,74.51,180712,,,A*42
$GPRMC,214847.000,A,3748.5546,N,12217.8417,W,0.43,56.95,180712,,,A*42
$GPRMC,214848.000,A,3748.5546,N,12217.8414,W,0.29,72.59,180712,,,A*44
$GPRMC,214849.000,A,3748.5546,N,12217.8411,W,0.30,65.89,180712,,,A*43
$GPRMC,214850.000,A,3748.5546,N,12217.8408,W,0.41,59.94,180712,,,A*46
$GPRMC,214851.000,A,3748.5546,N,12217.8405,W,0.35,64.22,180712,,,A*4A
$GPRMC,214852.000,A,3748.5546,N,12217.8403,W,0.37,62.87,180712,,,A*44
$GPRMC,214853.000,A,3748.5545,N,12217.8399,W,0.45,67.13,180712,,,A*4F
$GPRMC,214854.000,A,3748.5545,N,12217.8395,W,0.47,61.88,180712,,,A*42
$GPRMC,214855.000,A,3748.5545,N,12217.8392,W,0.20,71.69,180712,,,A*4B
$GPRMC,214856.000,A,3748.5544,N,12217.8389,W,0.26,71.58,180712,,,A*47
$GPRMC,214857.000,A,3748.5544,N,12217.8386,W,0.43,64.27,180712,,,A*46
$GPRMC,214858.000,A,3748.5544,N,12217.8383,W,0.36,56.45,180712,,,A*4B
$GPRMC,214859.000,A,3748.5544,N,12217.8381,W,0.14,116.33,180712,,,A*7C
$GPRMC,214900.000,A,3748.5543,N,12217.8379,W,0.08,133.79,180712,,,A*75
$GPRMC,214901.000,A,3748.5543,N,12217.8378,W,0.06,149.03,180712,,,A*7B
$GPRMC,214902.000,A,3748.5543,N,12217.8377,W,0.27,28.79,180712,,,A*4F
$GPRMC,214903.000,A,3748.5546,N,12217.8377,W,0.48,338.13,180712,,,A*7C
$GPRMC,214904.000,A,3748.5549,N,12217.8383,W,1.08,323.56,180712,,,A*71
$GPRMC,214905.000,A,3748.5553,N,12217.8395,W,0.97,279.16,180712,,,A*71
$GPRMC,214906.000,A,3748.5554,N,12217.8409,W,0.94,273.40,180712,,,A*7D
$GPRMC,214907.000,A,3748.5555,N,12217.8420,W,0.75,259.51,180712,,,A*71
$GPRMC,214908.000,A,3748.5556,N,12217.8432,W,1.11,276.45,180712,,,A*75
$GPRMC,214909.000,A,3748.5557,N,12217.8441,W,0.95,251.20,180712,,,A*7A
$GPRMC,214910.000,A,3748.5557,N,12217.8450,W,1.82,218.98,180712,,,A*7B
$GPRMC,214911.000,A,3748.5555,N,12217.8462,W,1.75,226.08,180712,,,A*75
$GPRMC,214912.000,A,3748.5552,N,12217.8472,W,1.43,217.16,180712,,,A*78
$GPRMC,214913.000,A,3748.5549,N,12217.8477,W,1.87,220.91,180712,,,A*75
$GPRMC,214914.000,A,3748.5546,N,12217.8485,W,1.47,214.52,180712,,,A*74
$GPRMC,214915.000,A,3748.5543,N,12217.8490,W,1.26,213.64,180712,,,A*71
$GPRMC,214916.000,A,3748.5538,N,12217.8495,W,1.78,224.38,180712,,,A*7D
$GPRMC,214917.000,A,3748.5532,N,12217.8507,W,2.05,222.02,180712,,,A*7A
$GPRMC,214918.000,A,3748.5526,N,12217.8515,W,1.70,220.31,180712,,,A*70
$GPRMC,214919.000,A,3748.5523,N,12217.8516,W,1.35,221.31,180712,,,A*77
$GPRMC,214920.000,A,3748.5520,N,12217.8518,W,1.25,224.24,180712,,,A*70
$GPRMC,214921.000,A,3748.5517,N,12217.8524,W,1.44,219.42,180712,,,A*73
$GPRMC,214922.000,A,3748.5514,N,12217.8530,W,1.54,214.09,180712,,,A*75
$GPRMC,214923.000,A,3748.5513,N,12217.8536,W,1.09,211.32,180712,,,A*70
$GPRMC,214924.000,A,3748.5511,N,12217.8540,W,1.33,209.12,180712,,,A*76
$GPRMC,214925.000,A,3748.5510,N,12217.8544,W,0.87,185.01,180712,,,A*79
$GPRMC,214926.000,A,3748.5507,N,12217.8546,W,1.33,177.18,180712,,,A*75
$GPRMC,214927.000,A,3748.5503,N,12217.8549,W,1.83,169.20,180712,,,A*70
$GPRMC,214928.000,A,3748.5496,N,12217.8552,W,1.67,158.76,180712,,,A*73
$GPRMC,214929.000,A,3748.5490,N,12217.8548,W,1.53,134.61,180712,,,A*74
$GPRMC,214930.000,A,3748.5484,N,12217.8543,W,1.78,140.97,180712,,,A*71
$GPRMC,214931.000,A,3748.5479,N,12217.8540,W,1.88,132.92,180712,,,A*7E
$GPRMC,214932.000,A,3748.5474,N,12217.8534,W,2.01,124.84,180712,,,A*71
$GPRMC,214933.000,A,3748.5469,N,12217.8528,W,1.88,133.26,180712,,,A*7D
$GPRMC,214934.000,A,3748.5464,N,12217.8527,W,1.74,161.37,180712,,,A*7C
$GPRMC,214935.000,A,3748.5459,N,12217.8526,W,1.99,174.46,180712,,,A*73
$GPRMC,214936.000,A,3748.5452,N,12217.8526,W,1.97,168.80,180712,,,A*72
$GPRMC,214937.000,A,3748.5447,N,12217.8526,W,1.93,161.56,180712,,,A*71
$GPRMC,214938.000,A,3748.5440,N,12217.8529,W,2.32,182.15,180712,,,A*74
$GPRMC,214939.000,A,3748.5433,N,12217.8532,W,1.63,183.17,180712,,,A*7F
$GPRMC,214940.000,A,3748.5427,N,12217.8530,W,2.12,170.10,180712,,,A*78
$GPRMC,214941.000,A,3748.5420,N,12217.8533,W,2.25,184.63,180712,,,A*76
$GPRMC,214942.000,A,3748.5414,N,12217.8532,W,2.02,166.56,180712,,,A*7C
$GPRMC,214943.000,A,3748.5409,N,12217.8529,W,2.29,162.37,180712,,,A*71
$GPRMC,214944.000,A,3748.5403,N,12217.8525,W,2.27,148.30,180712,,,A*71
$GPRMC,214945.000,A,3748.5399,N,12217.8517,W,2.29,135.61,180712,,,A*75
$GPRMC,214946.000,A,3748.5396,N,12217.8510,W,1.96,129.25,180712,,,A*74
$GPRMC,214947.000,A,3748.5393,N,12217.8505,W,2.06,133.60,180712,,,A*74
$GPRMC,214948.000,A,3748.5389,N,12217.8499,W,2.04,137.17,180712,,,A*72
$GPRMC,214949.000,A,3748.5385,N,12217.8495,W,1.88,143.67,180712,,,A*70
$GPRMC,214950.000,A,3748.5380,N,12217.8491,W,2.04,150.89,180712,,,A*7C
$GPRMC,214951.000,A,3748.5376,N,12217.8486,W,2.04,145.92,180712,,,A*7C
$GPRMC,214952.000,A,3748.5372,N,12217.8480,W,2.13,124.11,180712,,,A*77
$GPRMC,214953.000,A,3748.5370,N,12217.8473,W,1.80,133.47,180712,,,A*74
$GPRMC,214954.000,A,3748.5366,N,12217.8468,W,2.22,130.14,180712,,,A*70
$GPRMC,214955.000,A,3748.5363,N,12217.8460,W,2.19,130.68,180712,,,A*7F
$GPRMC,214956.000,A,3748.5357,N,12217.8459,W,2.04,121.47,180712,,,A*70
$GPRMC,214957.000,A,3748.5354,N,12217.8454,W,1.89,136.58,180712,,,A*71
$GPRMC,214958.000,A,3748.5350,N,12217.8450,W,2.14,143.33,180712,,,A*76
$GPRMC,214959.000,A,3748.5346,N,12217.8447,W,1.67,138.80,180712,,,A*75
$GPRMC,215000.000,A,3748.5342,N,12217.8442,W,2.41,132.63,180712,,,A*70
$GPRMC,215001.000,A,3748.5338,N,12217.8434,W,1.86,124.51,180712,,,A*73
$GPRMC,215002.000,A,3748.5335,N,12217.8429,W,1.93,127.62,180712,,,A*76
$GPRMC,215003.000,A,3748.5332,N,12217.8423,W,2.03,124.51,180712,,,A*73
$GPRMC,215004.000,A,3748.5328,N,12217.8415,W,2.59,127.26,180712,,,A*76
$GPRMC,215005.000,A,3748.5323,N,12217.8406,W,2.59,122.80,180712,,,A*77
$GPRMC,215006.000,A,3748.5320,N,12217.8400,W,2.00,116.33,180712,,,A*72
$GPRMC,215007.000,A,3748.5318,N,12217.8393,W,2.23,110.62,180712,,,A*76
$GPRMC,215008.000,A,3748.5316,N,12217.8385,W,2.23,113.39,180712,,,A*7D
$GPRMC,215009.000,A,3748.5312,N,12217.8381,W,2.49,116.32,180712,,,A*7E
$GPRMC,215010.000,A,3748.5309,N,12217.8373,W,2.33,112.46,180712,,,A*7B
$GPRMC,215011.000,A,3748.5307,N,12217.8364,W,2.29,116.20,180712,,,A*7D
$GPRMC,215012.000,A,3748.5304,N,12217.8358,W,2.38,124.85,180712,,,A*7C
$GPRMC,215013.000,A,3748.5301,N,12217.8352,W,2.18,128.35,180712,,,A*77
$GPRMC,215014.000,A,3748.5299,N,12217.8344,W,2.04,131.79,180712,,,A*7A
$GPRMC,215015.000,A,3748.5295,N,12217.8340,W,2.05,112.76,180712,,,A*7C
$GPRMC,215016.000,A,3748.5292,N,12217.8336,W,2.10,118.74,180712,,,A*75
$GPRMC,215017.000,A,3748.5292,N,12217.8326,W,2.56,99.19,180712,,,A*44
$GPRMC,215018.000,A,3748.5289,N,12217.8316,W,2.48,116.17,180712,,,A*75
$GPRMC,215019.000,A,3748.5285,N,12217.8312,W,1.96,118.86,180712,,,A*7A
$GPRMC,215020.000,A,3748.5281,N,12217.8309,W,1.90,124.04,180712,,,A*7D
$GPRMC,215021.000,A,3748.5279,N,12217.8302,W,2.11,116.32,180712,,,A*7E
$GPRMC,215022.000,A,3748.5275,N,12217.8296,W,1.97,118.83,180712,,,A*74
$GPRMC,215023.000,A,3748.5273,N,12217.8292,W,1.93,119.71,180712,,,A*7F
$GPRMC,215024.000,A,3748.5272,N,12217.8287,W,1.61,119.21,180712,,,A*75
$GPRMC,215025.000,A,3748.5271,N,12217.8284,W,1.19,114.10,180712,,,A*74
$GPRMC,215026.000,A,3748.5271,N,12217.8279,W,1.73,113.10,180712,,,A*7E
$GPRMC,215027.000,A,3748.5272,N,12217.8276,W,1.43,108.62,180712,,,A*7F
$GPRMC,215028.000,A,3748.5271,N,12217.8272,W,1.55,123.69,180712,,,A*72
$GPRMC,215029.000,A,3748.5272,N,12217.8266,W,1.81,123.35,180712,,,A*75
$GPRMC,215030.000,A,3748.5272,N,12217.8261,W,1.73,124.26,180712,,,A*72
$GPRMC,215031.000,A,3748.5269,N,12217.8256,W,2.07,120.89,180712,,,A*7C
$GPRMC,215032.000,A,3748.5264,N,12217.8252,W,1.95,126.56,180712,,,A*7A
$GPRMC,215033.000,A,3748.5261,N,12217.8247,W,2.07,117.51,180712,,,A*77
$GPRMC,215034.000,A,3748.5253,N,12217.8243,W,2.15,119.56,180712,,,A*7F
$GPRMC,215035.000,A,3748.5253,N,12217.8238,W,2.20,118.81,180712,,,A*7F
$GPRMC,215036.000,A,3748.5254,N,12217.8231,W,1.94,115.51,180712,,,A*7E
$GPRMC,215037.000,A,3748.5256,N,12217.8225,W,1.81,111.13,180712,,,A*7E
$GPRMC,215038.000,A,3748.5249,N,12217.8219,W,2.10,120.62,180712,,,A*7F
$GPRMC,215039.000,A,3748.5244,N,12217.8214,W,2.48,129.10,180712,,,A*7F
$GPRMC,215040.000,A,3748.5238,N,12217.8209,W,1.25,134.09,180712,,,A*7A
$GPRMC,215041.000,A,3748.5235,N,12217.8206,W,1.05,173.57,180712,,,A*73
$GPRMC,215042.000,A,3748.5233,N,12217.8202,W,0.83,113.88,180712,,,A*79
$GPRMC,215043.000,A,3748.5232,N,12217.8196,W,1.56,116.20,180712,,,A*79
$GPRMC,215044.000,A,3748.5229,N,12217.8191,W,1.64,99.94,180712,,,A*4B
$GPRMC,215045.000,A,3748.5225,N,12217.8183,W,1.63,114.50,180712,,,A*7E
$GPRMC,215046.000,A,3748.5219,N,12217.8175,W,2.01,132.23,180712,,,A*7C
$GPRMC,215047.000,A,3748.5212,N,12217.8171,W,1.53,135.77,180712,,,A*70
$GPRMC,215048.000,A,3748.5208,N,12217.8163,W,1.29,124.93,180712,,,A*70
$GPRMC,215049.000,A,3748.5205,N,12217.8161,W,1.61,144.89,180712,,,A*7F
$GPRMC,215050.000,A,3748.5198,N,12217.8153,W,2.15,124.27,180712,,,A*73
$GPRMC,215051.000,A,3748.5194,N,12217.8147,W,1.77,113.00,180712,,,A*7D
$GPRMC,215052.000,A,3748.5191,N,12217.8138,W,1.97,121.97,180712,,,A*72
$GPRMC,215053.000,A,3748.5186,N,12217.8135,W,2.19,102.53,180712,,,A*74
$GPRMC,215054.000,A,3748.5183,N,12217.8123,W,2.56,99.10,180712,,,A*4E
$GPRMC,215055.000,A,3748.5178,N,12217.8116,W,2.40,101.84,180712,,,A*77
$GPRMC,215056.000,A,3748.5174,N,12217.8109,W,2.35,109.02,180712,,,A*72
$GPRMC,215057.000,A,3748.5167,N,12217.8105,W,2.01,125.34,180712,,,A*71
$GPRMC,215058.000,A,3748.5163,N,12217.8100,W,1.69,134.58,180712,,,A*78
$GPRMC,215059.000,A,3748.5160,N,12217.8095,W,1.80,135.29,180712,,,A*77
$GPRMC,215100.000,A,3748.5158,N,12217.8092,W,1.66,112.30,180712,,,A*73
$GPRMC,215101.000,A,3748.5153,N,12217.8086,W,1.70,113.64,180712,,,A*7B
$GPRMC,215102.000,A,3748.5148,N,12217.8080,W,1.42,115.92,180712,,,A*7A
$GPRMC,215103.000,A,3748.5143,N,12217.8075,W,1.69,118.85,180712,,,A*78
$GPRMC,215104.000,A,3748.5141,N,12217.8069,W,1.76,106.44,180712,,,A*7C
$GPRMC,215105.000,A,3748.5138,N,12217.8066,W,1.82,107.36,180712,,,A*73
$GPRMC,215106.000,A,3748.5137,N,12217.8062,W,1.97,100.01,180712,,,A*7C
$GPRMC,215107.000,A,3748.5135,N,12217.8055,W,1.81,102.85,180712,,,A*72
$GPRMC,215108.000,A,3748.5132,N,12217.8048,W,1.79,123.89,180712,,,A*7E
$GPRMC,215109.000,A,3748.5129,N,12217.8040,W,1.55,111.71,180712,,,A*75
$GPRMC,215110.000,A,3748.5125,N,12217.8037,W,1.27,124.76,180712,,,A*75
$GPRMC,215111.000,A,3748.5125,N,12217.8030,W,2.02,117.44,180712,,,A*76
$GPRMC,215112.000,A,3748.5122,N,12217.8022,W,2.28,105.40,180712,,,A*7E
$GPRMC,215113.000,A,3748.5120,N,12217.8014,W,2.41,117.08,180712,,,A*78
$GPRMC,215114.000,A,3748.5116,N,12217.8007,W,2.53,136.25,180712,,,A*77
$GPRMC,215115.000,A,3748.5111,N,12217.8002,W,1.70,136.74,180712,,,A*72
$GPRMC,215116.000,A,3748.5107,N,12217.7995,W,2.19,136.79,180712,,,A*7F
$GPRMC,215117.000,A,3748.5104,N,12217.7991,W,1.70,133.08,180712,,,A*76
$GPRMC,215118.000,A,3748.5101,N,12217.7986,W,1.81,115.25,180712,,,A*7F
$GPRMC,215119.000,A,3748.5098,N,12217.7979,W,1.92,104.79,180712,,,A*74
$GPRMC,215120.000,A,3748.5095,N,12217.7973,W,1.95,126.08,180712,,,A*78
$GPRMC,215121.000,A,3748.5091,N,12217.7969,W,1.92,126.01,180712,,,A*78
$GPRMC,215122.000,A,3748.5089,N,12217.7963,W,2.09,120.74,180712,,,A*7D
$GPRMC,215123.000,A,3748.5086,N,12217.7956,W,2.34,105.91,180712,,,A*77
$GPRMC,215124.000,A,3748.5082,N,12217.7950,W,1.44,118.54,180712,,,A*73
$GPRMC,215125.000,A,3748.5079,N,12217.7945,W,2.63,111.39,180712,,,A*76
$GPRMC,215126.000,A,3748.5075,N,12217.7938,W,2.14,124.76,180712,,,A*7E
$GPRMC,215127.000,A,3748.5071,N,12217.7933,W,1.65,139.48,180712,,,A*74
$GPRMC,215128.000,A,3748.5065,N,12217.7931,W,1.80,155.59,180712,,,A*7D
$GPRMC,215129.000,A,3748.5064,N,12217.7923,W,2.31,117.32,180712,,,A*7C
$GPRMC,215130.000,A,3748.5065,N,12217.7915,W,1.80,116.88,180712,,,A*79
$GPRMC,215131.000,A,3748.5062,N,12217.7907,W,2.07,114.53,180712,,,A*74
$GPRMC,215132.000,A,3748.5059,N,12217.7899,W,1.88,120.30,180712,,,A*7F
$GPRMC,215133.000,A,3748.5057,N,12217.7893,W,1.61,115.46,180712,,,A*7A
$GPRMC,215134.000,A,3748.5057,N,12217.7887,W,1.47,114.50,180712,,,A*7A
$GPRMC,215135.000,A,3748.5056,N,12217.7883,W,1.66,117.09,180712,,,A*72
$GPRMC,215136.000,A,3748.5053,N,12217.7880,W,1.05,154.41,180712,,,A*79
$GPRMC,215137.000,A,3748.5048,N,12217.7882,W,1.33,198.84,180712,,,A*7C
$GPRMC,215138.000,A,3748.5045,N,12217.7884,W,2.06,206.68,180712,,,A*7B
$GPRMC,215139.000,A,3748.5040,N,12217.7886,W,2.18,208.34,180712,,,A*75
$GPRMC,215140.000,A,3748.5034,N,12217.7888,W,1.72,223.80,180712,,,A*7F
$GPRMC,215141.000,A,3748.5029,N,12217.7893,W,1.90,218.09,180712,,,A*7D
$GPRMC,215142.000,A,3748.5023,N,12217.7896,W,1.64,208.72,180712,,,A*77
$GPRMC,215143.000,A,3748.5017,N,12217.7901,W,2.94,212.75,180712,,,A*7E
$GPRMC,215144.000,A,3748.5011,N,12217.7906,W,2.12,212.48,180712,,,A*78
$GPRMC,215145.000,A,3748.5005,N,12217.7909,W,1.68,212.45,180712,,,A*70
$GPRMC,215146.000,A,3748.4999,N,12217.7915,W,2.00,211.04,180712,,,A*78
$GPRMC,215147.000,A,3748.4995,N,12217.7921,W,1.92,231.83,180712,,,A*77
$GPRMC,215148.000,A,3748.4986,N,12217.7928,W,2.39,217.33,180712,,,A*7E
$GPRMC,215149.000,A,3748.4977,N,12217.7932,W,2.09,221.40,180712,,,A*78
$GPRMC,215150.000,A,3748.4972,N,12217.7936,W,2.12,217.29,180712,,,A*71
$GPRMC,215151.000,A,3748.4966,N,12217.7939,W,2.36,218.99,180712,,,A*78
$GPRMC,215152.000,A,3748.4961,N,12217.7943,W,2.14,218.74,180712,,,A*72
$GPRMC,215153.000,A,3748.4955,N,12217.7949,W,1.58,217.95,180712,,,A*75
$GPRMC,215154.000,A,3748.4951,N,12217.7951,W,1.63,217.86,180712,,,A*75
$GPRMC,215155.000,A,3748.4948,N,12217.7951,W,1.35,206.27,180712,,,A*74
$GPRMC,215156.000,A,3748.4943,N,12217.7952,W,1.75,207.44,180712,,,A*7F
$GPRMC,215157.000,A,3748.4938,N,12217.7955,W,1.67,226.47,180712,,,A*76
$GPRMC,215158.000,A,3748.4932,N,12217.7958,W,2.30,205.02,180712,,,A*7F
$GPRMC,215159.000,A,3748.4926,N,12217.7962,W,2.23,211.46,180712,,,A*75
$GPRMC,215200.000,A,3748.4922,N,12217.7968,W,2.31,207.55,180712,,,A*72
$GPRMC,215201.000,A,3748.4916,N,12217.7975,W,2.01,210.51,180712,,,A*79
$GPRMC,215202.000,A,3748.4910,N,12217.7978,W,1.28,213.67,180712,,,A*7F
$GPRMC,215203.000,A,3748.4906,N,12217.7982,W,1.96,216.43,180712,,,A*7A
$GPRMC,215204.000,A,3748.4901,N,12217.7990,W,2.41,234.83,180712,,,A*7C
$GPRMC,215205.000,A,3748.4898,N,12217.7998,W,3.00,229.10,180712,,,A*76
$GPRMC,215206.000,A,3748.4893,N,12217.8005,W,2.31,214.27,180712,,,A*75
$GPRMC,215207.000,A,3748.4887,N,12217.8007,W,2.17,217.86,180712,,,A*7F
$GPRMC,215208.000,A,3748.4883,N,12217.8010,W,1.28,206.65,180712,,,A*70
$GPRMC,215209.000,A,3748.4878,N,12217.8012,W,1.98,213.35,180712,,,A*7D
$GPRMC,215210.000,A,3748.4873,N,12217.8014,W,1.71,212.62,180712,,,A*7C
$GPRMC,215211.000,A,3748.4869,N,12217.8017,W,1.71,214.74,180712,,,A*74
$GPRMC,215212.000,A,3748.4865,N,12217.8019,W,1.91,215.58,180712,,,A*74
$GPRMC,215213.000,A,3748.4860,N,12217.8022,W,1.80,210.86,180712,,,A*7E
$GPRMC,215214.000,A,3748.4856,N,12217.8023,W,1.59,206.71,180712,,,A*76
$GPRMC,215215.000,A,3748.4851,N,12217.8025,W,1.54,235.00,180712,,,A*7D
$GPRMC,215216.000,A,3748.4848,N,12217.8029,W,1.85,218.51,180712,,,A*7D
$GPRMC,215217.000,A,3748.4843,N,12217.8030,W,1.41,214.29,180712,,,A*74
$GPRMC,215218.000,A,3748.4837,N,12217.8038,W,1.98,219.35,180712,,,A*74
$GPRMC,215219.000,A,3748.4830,N,12217.8045,W,2.02,211.48,180712,,,A*7A
$GPRMC,215220.000,A,3748.4824,N,12217.8047,W,1.66,200.26,180712,,,A*7E
$GPRMC,215221.000,A,3748.4819,N,12217.8053,W,1.31,192.36,180712,,,A*7F
$GPRMC,215222.000,A,3748.4814,N,12217.8058,W,1.70,213.53,180712,,,A*76
$GPRMC,215223.000,A,3748.4808,N,12217.8062,W,1.44,213.96,180712,,,A*7D
$GPRMC,215224.000,A,3748.4800,N,12217.8064,W,1.69,216.51,180712,,,A*75
$GPRMC,215225.000,A,3748.4796,N,12217.8065,W,1.51,221.39,180712,,,A*74
$GPRMC,215226.000,A,3748.4792,N,12217.8069,W,1.78,216.97,180712,,,A*74
$GPRMC,215227.000,A,3748.4786,N,12217.8077,W,1.72,211.23,180712,,,A*7D
$GPRMC,215228.000,A,3748.4783,N,12217.8083,W,1.06,205.66,180712,,,A*7B
$GPRMC,215229.000,A,3748.4779,N,12217.8084,W,1.22,213.21,180712,,,A*7A
$GPRMC,215230.000,A,3748.4777,N,12217.8086,W,1.52,218.26,180712,,,A*75
$GPRMC,215231.000,A,3748.4776,N,12217.8087,W,1.10,220.23,180712,,,A*7C
$GPRMC,215232.000,A,3748.4772,N,12217.8088,W,0.80,218.94,180712,,,A*7B
$GPRMC,215233.000,A,3748.4769,N,12217.8089,W,0.84,205.22,180712,,,A*74
$GPRMC,215234.000,A,3748.4764,N,12217.8092,W,1.20,210.19,180712,,,A*77
$GPRMC,215235.000,A,3748.4757,N,12217.8097,W,1.49,214.52,180712,,,A*77
$GPRMC,215236.000,A,3748.4751,N,12217.8102,W,1.28,213.30,180712,,,A*7B
$GPRMC,215237.000,A,3748.4744,N,12217.8108,W,1.28,223.03,180712,,,A*77
$GPRMC,215238.000,A,3748.4741,N,12217.8110,W,1.14,210.80,180712,,,A*70
$GPRMC,215239.000,A,3748.4736,N,12217.8112,W,1.39,216.96,180712,,,A*7D
$GPRMC,215240.000,A,3748.4729,N,12217.8117,W,2.09,230.63,180712,,,A*76
$GPRMC,215241.000,A,3748.4724,N,12217.8124,W,1.98,227.83,180712,,,A*79
$GPRMC,215242.000,A,3748.4720,N,12217.8129,W,1.56,223.65,180712,,,A*7D
$GPRMC,215243.000,A,3748.4716,N,12217.8137,W,1.76,228.63,180712,,,A*79
$GPRMC,215244.000,A,3748.4710,N,12217.8143,W,1.99,215.23,180712,,,A*70
$GPRMC,215245.000,A,3748.4705,N,12217.8148,W,2.35,229.02,180712,,,A*77
$GPRMC,215246.000,A,3748.4699,N,12217.8151,W,2.26,209.81,180712,,,A*73
$GPRMC,215247.000,A,3748.4693,N,12217.8155,W,2.09,212.78,180712,,,A*7D
$GPRMC,215248.000,A,3748.4688,N,12217.8158,W,1.63,218.96,180712,,,A*70
$GPRMC,215249.000,A,3748.4684,N,12217.8162,W,2.19,214.36,180712,,,A*7C
$GPRMC,215250.000,A,3748.4681,N,12217.8162,W,1.90,216.58,180712,,,A*79
$GPRMC,215251.000,A,3748.4677,N,12217.8165,W,1.93,224.22,180712,,,A*79
$GPRMC,215252.000,A,3748.4675,N,12217.8168,W,1.14,235.81,180712,,,A*73
$GPRMC,215253.000,A,3748.4670,N,12217.8168,W,1.87,195.08,180712,,,A*75
$GPRMC,215254.000,A,3748.4666,N,12217.8169,W,1.57,203.91,180712,,,A*75
$GPRMC,215255.000,A,3748.4660,N,12217.8173,W,2.04,217.09,180712,,,A*78
$GPRMC,215256.000,A,3748.4654,N,12217.8176,W,2.07,214.13,180712,,,A*72
$GPRMC,215257.000,A,3748.4646,N,12217.8180,W,1.63,208.05,180712,,,A*72
$GPRMC,215258.000,A,3748.4643,N,12217.8187,W,1.42,216.11,180712,,,A*76
$GPRMC,215259.000,A,3748.4641,N,12217.8191,W,1.67,219.03,180712,,,A*79
$GPRMC,215300.000,A,3748.4639,N,12217.8193,W,1.71,223.05,180712,,,A*71
$GPRMC,215301.000,A,3748.4633,N,12217.8194,W,1.26,195.75,180712,,,A*76
$GPRMC,215302.000,A,3748.4629,N,12217.8195,W,1.28,194.37,180712,,,A*76
$GPRMC,215303.000,A,3748.4625,N,12217.8204,W,1.74,219.28,180712,,,A*71
$GPRMC,215304.000,A,3748.4621,N,12217.8207,W,1.26,219.11,180712,,,A*7C
$GPRMC,215305.000,A,3748.4616,N,12217.8218,W,2.37,221.11,180712,,,A*7F
$GPRMC,215306.000,A,3748.4608,N,12217.8224,W,2.56,208.06,180712,,,A*76
$GPRMC,215307.000,A,3748.4602,N,12217.8230,W,2.58,213.11,180712,,,A*7A
$GPRMC,215308.000,A,3748.4596,N,12217.8236,W,2.30,220.89,180712,,,A*72
$GPRMC,215309.000,A,3748.4587,N,12217.8242,W,2.72,210.42,180712,,,A*72
$GPRMC,215310.000,A,3748.4578,N,12217.8251,W,2.40,215.99,180712,,,A*7A
$GPRMC,215311.000,A,3748.4570,N,12217.8258,W,2.64,211.35,180712,,,A*7E
$GPRMC,215312.000,A,3748.4559,N,12217.8265,W,2.60,214.76,180712,,,A*7E
$GPRMC,215313.000,A,3748.4552,N,12217.8274,W,3.22,216.34,180712,,,A*77
$GPRMC,215314.000,A,3748.4547,N,12217.8280,W,2.05,211.27,180712,,,A*7E
$GPRMC,215315.000,A,3748.4543,N,12217.8284,W,2.02,202.21,180712,,,A*7C
$GPRMC,215316.000,A,3748.4541,N,12217.8287,W,2.10,211.92,180712,,,A*77
$GPRMC,215317.000,A,3748.4534,N,12217.8295,W,2.58,211.22,180712,,,A*70
$GPRMC,215318.000,A,3748.4528,N,12217.8301,W,2.16,207.34,180712,,,A*74
$GPRMC,215319.000,A,3748.4523,N,12217.8306,W,2.38,216.14,180712,,,A*77
$GPRMC,215320.000,A,3748.4516,N,12217.8309,W,2.16,201.92,180712,,,A*70
$GPRMC,215321.000,A,3748.4510,N,12217.8311,W,1.78,212.36,180712,,,A*79
$GPRMC,215322.000,A,3748.4508,N,12217.8315,W,1.88,201.93,180712,,,A*75
$GPRMC,215323.000,A,3748.4502,N,12217.8318,W,2.17,206.22,180712,,,A*7B
$GPRMC,215324.000,A,3748.4494,N,12217.8321,W,2.67,196.36,180712,,,A*70
$GPRMC,215325.000,A,3748.4488,N,12217.8325,W,2.32,215.40,180712,,,A*71
$GPRMC,215326.000,A,3748.4484,N,12217.8329,W,2.15,215.66,180712,,,A*73
$GPRMC,215327.000,A,3748.4478,N,12217.8333,W,2.35,202.93,180712,,,A*74
$GPRMC,215328.000,A,3748.4469,N,12217.8341,W,2.27,224.46,180712,,,A*71
$GPRMC,215329.000,A,3748.4463,N,12217.8343,W,2.22,215.02,180712,,,A*7F
$GPRMC,215330.000,A,3748.4458,N,12217.8345,W,2.17,207.53,180712,,,A*78
$GPRMC,215331.000,A,3748.4455,N,12217.8352,W,1.89,236.42,180712,,,A*74
$GPRMC,215332.000,A,3748.4451,N,12217.8356,W,2.32,209.11,180712,,,A*7E
$GPRMC,215333.000,A,3748.4448,N,12217.8359,W,1.95,202.48,180712,,,A*71
$GPRMC,215334.000,A,3748.4442,N,12217.8363,W,2.53,205.17,180712,,,A*71
$GPRMC,215335.000,A,3748.4435,N,12217.8364,W,2.00,207.77,180712,,,A*75
$GPRMC,215336.000,A,3748.4431,N,12217.8366,W,2.32,213.01,180712,,,A*75
$GPRMC,215337.000,A,3748.4424,N,12217.8368,W,2.14,223.07,180712,,,A*7F
$GPRMC,215338.000,A,3748.4418,N,12217.8377,W,2.43,218.40,180712,,,A*78
$GPRMC,215339.000,A,3748.4410,N,12217.8378,W,2.80,200.93,180712,,,A*76
$GPRMC,215340.000,A,3748.4404,N,12217.8377,W,2.43,201.15,180712,,,A*72
$GPRMC,215341.000,A,3748.4396,N,12217.8380,W,2.71,197.10,180712,,,A*7F
$GPRMC,215342.000,A,3748.4387,N,12217.8387,W,2.89,210.86,180712,,,A*7F
$GPRMC,215343.000,A,3748.4380,N,12217.8392,W,2.56,210.66,180712,,,A*71
$GPRMC,215344.000,A,3748.4374,N,12217.8397,W,2.66,220.78,180712,,,A*77
$GPRMC,215345.000,A,3748.4370,N,12217.8405,W,2.10,214.81,180712,,,A*7E
$GPRMC,215346.000,A,3748.4363,N,12217.8407,W,1.91,202.29,180712,,,A*72
$GPRMC,215347.000,A,3748.4360,N,12217.8412,W,1.71,211.17,180712,,,A*75
$GPRMC,215348.000,A,3748.4357,N,12217.8421,W,2.15,215.81,180712,,,A*74
$GPRMC,215349.000,A,3748.4352,N,12217.8426,W,1.70,217.34,180712,,,A*7B
$GPRMC,215350.000,A,3748.4353,N,12217.8430,W,1.38,233.14,180712,,,A*7D
$GPRMC,215351.000,A,3748.4351,N,12217.8431,W,2.09,219.19,180712,,,A*7B
$GPRMC,215352.000,A,3748.4344,N,12217.8436,W,2.67,214.84,180712,,,A*7A
$GPRMC,215353.000,A,3748.4337,N,12217.8434,W,2.01,199.54,180712,,,A*76
$GPRMC,215354.000,A,3748.4330,N,12217.8440,W,2.08,218.71,180712,,,A*71
$GPRMC,215355.000,A,3748.4325,N,12217.8446,W,2.44,211.22,180712,,,A*75
$GPRMC,215356.000,A,3748.4320,N,12217.8454,W,2.03,222.40,180712,,,A*77
$GPRMC,215357.000,A,3748.4312,N,12217.8465,W,1.83,220.32,180712,,,A*79
$GPRMC,215358.000,A,3748.4306,N,12217.8473,W,2.14,218.37,180712,,,A*77
$GPRMC,215359.000,A,3748.4300,N,12217.8477,W,2.05,209.80,180712,,,A*78
$GPRMC,215400.000,A,3748.4296,N,12217.8481,W,2.21,230.62,180712,,,A*74
$GPRMC,215401.000,A,3748.4293,N,12217.8482,W,1.60,200.82,180712,,,A*78
$GPRMC,215402.000,A,3748.4289,N,12217.8480,W,1.52,196.66,180712,,,A*75
$GPRMC,215403.000,A,3748.4284,N,12217.8482,W,1.84,202.93,180712,,,A*74
$GPRMC,215404.000,A,3748.4280,N,12217.8486,W,2.49,228.33,180712,,,A*73
$GPRMC,215405.000,A,3748.4272,N,12217.8495,W,3.15,225.29,180712,,,A*73
$GPRMC,215406.000,A,3748.4264,N,12217.8499,W,2.17,197.92,180712,,,A*72
$GPRMC,215407.000,A,3748.4255,N,12217.8499,W,1.76,186.66,180712,,,A*7E
$GPRMC,215408.000,A,3748.4248,N,12217.8500,W,2.09,188.87,180712,,,A*76
$GPRMC,215409.000,A,3748.4242,N,12217.8500,W,2.64,179.16,180712,,,A*70
$GPRMC,215410.000,A,3748.4235,N,12217.8496,W,2.98,167.56,180712,,,A*7E
$GPRMC,215411.000,A,3748.4227,N,12217.8490,W,2.81,170.48,180712,,,A*7B
$GPRMC,215412.000,A,3748.4219,N,12217.8486,W,2.57,168.64,180712,,,A*7E
$GPRMC,215413.000,A,3748.4212,N,12217.8481,W,2.47,164.15,180712,,,A*78
$GPRMC,215414.000,A,3748.4205,N,12217.8475,W,2.55,159.56,180712,,,A*78
$GPRMC,215415.000,A,3748.4199,N,12217.8471,W,2.32,158.91,180712,,,A*70
$GPRMC,215416.000,A,3748.4193,N,12217.8468,W,2.32,155.28,180712,,,A*7E
$GPRMC,215417.000,A,3748.4188,N,12217.8465,W,1.86,156.55,180712,,,A*7D
$GPRMC,215418.000,A,3748.4183,N,12217.8461,W,1.93,155.11,180712,,,A*7A
$GPRMC,215419.000,A,3748.4177,N,12217.8460,W,1.89,175.62,180712,,,A*7C
$GPRMC,215420.000,A,3748.4172,N,12217.8459,W,2.22,160.40,180712,,,A*7F
$GPRMC,215421.000,A,3748.4162,N,12217.8454,W,2.36,159.59,180712,,,A*75
$GPRMC,215422.000,A,3748.4155,N,12217.8454,W,1.99,167.53,180712,,,A*73
$GPRMC,215423.000,A,3748.4149,N,12217.8451,W,2.15,172.86,180712,,,A*71
$GPRMC,215424.000,A,3748.4143,N,12217.8453,W,1.84,177.10,180712,,,A*7F
$GPRMC,215425.000,A,3748.4138,N,12217.8459,W,1.70,178.04,180712,,,A*79
$GPRMC,215426.000,A,3748.4133,N,12217.8459,W,1.63,194.50,180712,,,A*70
$GPRMC,215427.000,A,3748.4128,N,12217.8461,W,1.85,210.46,180712,,,A*70
$GPRMC,215428.000,A,3748.4123,N,12217.8465,W,2.10,211.28,180712,,,A*76
$GPRMC,215429.000,A,3748.4117,N,12217.8470,W,2.30,209.95,180712,,,A*79
$GPRMC,215430.000,A,3748.4111,N,12217.8474,W,2.17,205.88,180712,,,A*76
$GPRMC,215431.000,A,3748.4104,N,12217.8479,W,2.51,205.09,180712,,,A*75
$GPRMC,215432.000,A,3748.4098,N,12217.8486,W,2.44,201.84,180712,,,A*77
$GPRMC,215433.000,A,3748.4093,N,12217.8490,W,1.96,208.32,180712,,,A*72
$GPRMC,215434.000,A,3748.4089,N,12217.8492,W,2.44,221.35,180712,,,A*7C
$GPRMC,215435.000,A,3748.4085,N,12217.8499,W,2.59,225.03,180712,,,A*77
$GPRMC,215436.000,A,3748.4079,N,12217.8504,W,2.92,203.36,180712,,,A*77
$GPRMC,215437.000,A,3748.4075,N,12217.8504,W,1.99,211.12,180712,,,A*77
$GPRMC,215438.000,A,3748.4071,N,12217.8507,W,2.05,214.10,180712,,,A*7E
$GPRMC,215439.000,A,3748.4066,N,12217.8512,W,2.02,215.62,180712,,,A*7E
$GPRMC,215440.000,A,3748.4061,N,12217.8517,W,2.09,218.27,180712,,,A*75
$GPRMC,215441.000,A,3748.4056,N,12217.8520,W,2.12,209.25,180712,,,A*7C
$GPRMC,215442.000,A,3748.4051,N,12217.8525,W,2.07,212.35,180712,,,A*72
$GPRMC,215443.000,A,3748.4047,N,12217.8530,W,1.83,210.30,180712,,,A*78
$GPRMC,215444.000,A,3748.4042,N,12217.8531,W,2.17,204.34,180712,,,A*74
$GPRMC,215445.000,A,3748.4037,N,12217.8534,W,1.89,196.14,180712,,,A*7C
$GPRMC,215446.000,A,3748.4033,N,12217.8537,W,1.74,199.03,180712,,,A*73
$GPRMC,215447.000,A,3748.4029,N,12217.8543,W,1.90,211.72,180712,,,A*75
$GPRMC,215448.000,A,3748.4025,N,12217.8550,W,2.07,197.28,180712,,,A*7B
$GPRMC,215449.000,A,3748.4019,N,12217.8555,W,2.12,193.07,180712,,,A*7D
$GPRMC,215450.000,A,3748.4015,N,12217.8561,W,1.99,210.45,180712,,,A*70
$GPRMC,215451.000,A,3748.4010,N,12217.8569,W,2.38,217.11,180712,,,A*72
$GPRMC,215452.000,A,3748.4004,N,12217.8577,W,2.26,216.29,180712,,,A*7E
$GPRMC,215453.000,A,3748.4000,N,12217.8588,W,2.13,223.92,180712,,,A*7B
$GPRMC,215454.000,A,3748.3994,N,12217.8594,W,2.45,222.86,180712,,,A*75
$GPRMC,215455.000,A,3748.3988,N,12217.8600,W,2.24,208.19,180712,,,A*7E
$GPRMC,215456.000,A,3748.3984,N,12217.8609,W,2.24,203.02,180712,,,A*79
$GPRMC,215457.000,A,3748.3978,N,12217.8612,W,2.48,199.55,180712,,,A*79
$GPRMC,215458.000,A,3748.3972,N,12217.8614,W,1.58,189.92,180712,,,A*72
$GPRMC,215459.000,A,3748.3968,N,12217.8616,W,1.26,201.26,180712,,,A*7F
$GPRMC,215500.000,A,3748.3966,N,12217.8618,W,1.70,214.37,180712,,,A*75
$GPRMC,215501.000,A,3748.3960,N,12217.8625,W,2.02,215.97,180712,,,A*71
$GPRMC,215502.000,A,3748.3953,N,12217.8634,W,2.71,214.58,180712,,,A*74
$GPRMC,215503.000,A,3748.3944,N,12217.8643,W,3.17,215.46,180712,,,A*7C
$GPRMC,215504.000,A,3748.3940,N,12217.8652,W,2.14,205.06,180712,,,A*78
$GPRMC,215505.000,A,3748.3936,N,12217.8660,W,1.62,204.33,180712,,,A*7C
$GPRMC,215506.000,A,3748.3932,N,12217.8669,W,1.93,204.27,180712,,,A*79
$GPRMC,215507.000,A,3748.3927,N,12217.8678,W,2.12,210.38,180712,,,A*7D
$GPRMC,215508.000,A,3748.3922,N,12217.8685,W,2.44,213.79,180712,,,A*70
$GPRMC,215509.000,A,3748.3918,N,12217.8692,W,2.33,215.53,180712,,,A*70
$GPRMC,215510.000,A,3748.3912,N,12217.8700,W,2.13,216.07,180712,,,A*78
$GPRMC,215511.000,A,3748.3908,N,12217.8707,W,2.05,213.75,180712,,,A*72
$GPRMC,215512.000,A,3748.3902,N,12217.8715,W,2.27,209.79,180712,,,A*7F
$GPRMC,215513.000,A,3748.3896,N,12217.8723,W,2.37,199.98,180712,,,A*73
$GPRMC,215514.000,A,3748.3889,N,12217.8730,W,1.94,200.52,180712,,,A*77
$GPRMC,215515.000,A,3748.3886,N,12217.8732,W,1.63,191.27,180712,,,A*7A
$GPRMC,215516.000,A,3748.3882,N,12217.8725,W,1.99,204.59,180712,,,A*78
$GPRMC,215517.000,A,3748.3878,N,12217.8725,W,2.55,218.36,180712,,,A*7B
$GPRMC,215518.000,A,3748.3873,N,12217.8734,W,3.09,220.43,180712,,,A*7E
$GPRMC,215519.000,A,3748.3866,N,12217.8743,W,2.80,217.91,180712,,,A*70
$GPRMC,215520.000,A,3748.3858,N,12217.8759,W,2.47,215.52,180712,,,A*7A
$GPRMC,215521.000,A,3748.3852,N,12217.8774,W,2.50,218.72,180712,,,A*77
$GPRMC,215522.000,A,3748.3847,N,12217.8787,W,2.46,218.33,180712,,,A*7E
$GPRMC,215523.000,A,3748.3842,N,12217.8798,W,2.20,217.24,180712,,,A*7D
$GPRMC,215524.000,A,3748.3837,N,12217.8809,W,2.15,221.70,180712,,,A*7D
$GPRMC,215525.000,A,3748.3833,N,12217.8818,W,2.08,217.92,180712,,,A*7D
$GPRMC,215526.000,A,3748.3827,N,12217.8825,W,2.10,216.51,180712,,,A*72
$GPRMC,215527.000,A,3748.3823,N,12217.8826,W,1.82,196.74,180712,,,A*70
$GPRMC,215528.000,A,3748.3819,N,12217.8823,W,1.35,192.71,180712,,,A*7E
$GPRMC,215529.000,A,3748.3816,N,12217.8829,W,1.89,212.74,180712,,,A*73
$GPRMC,215530.000,A,3748.3811,N,12217.8835,W,2.05,216.45,180712,,,A*70
$GPRMC,215531.000,A,3748.3806,N,12217.8840,W,2.08,210.50,180712,,,A*7A
$GPRMC,215532.000,A,3748.3800,N,12217.8844,W,2.06,214.11,180712,,,A*74
$GPRMC,215533.000,A,3748.3794,N,12217.8843,W,2.09,203.01,180712,,,A*78
$GPRMC,215534.000,A,3748.3789,N,12217.8845,W,2.29,214.90,180712,,,A*79
$GPRMC,215535.000,A,3748.3785,N,12217.8849,W,1.55,236.14,180712,,,A*7C
$GPRMC,215536.000,A,3748.3782,N,12217.8853,W,1.59,232.71,180712,,,A*78
$GPRMC,215537.000,A,3748.3779,N,12217.8858,W,2.07,231.08,180712,,,A*73
$GPRMC,215538.000,A,3748.3776,N,12217.8863,W,1.89,212.14,180712,,,A*72
$GPRMC,215539.000,A,3748.3771,N,12217.8866,W,1.43,214.36,180712,,,A*71
$GPRMC,215540.000,A,3748.3761,N,12217.8866,W,1.66,204.60,180712,,,A*7B
$GPRMC,215541.000,A,3748.3756,N,12217.8865,W,1.77,209.30,180712,,,A*75
$GPRMC,215542.000,A,3748.3749,N,12217.8866,W,1.56,196.94,180712,,,A*73
$GPRMC,215543.000,A,3748.3741,N,12217.8867,W,2.39,196.67,180712,,,A*7D
$GPRMC,215544.000,A,3748.3733,N,12217.8869,W,2.42,203.49,180712,,,A*7E
$GPRMC,215545.000,A,3748.3726,N,12217.8870,W,2.10,201.19,180712,,,A*73
$GPRMC,215546.000,A,3748.3719,N,12217.8870,W,2.29,203.44,180712,,,A*7C
$GPRMC,215547.000,A,3748.3712,N,12217.8871,W,2.00,201.43,180712,,,A*79
$GPRMC,215548.000,A,3748.3704,N,12217.8870,W,2.33,199.49,180712,,,A*78
$GPRMC,215549.000,A,3748.3697,N,12217.8872,W,2.41,210.19,180712,,,A*72
$GPRMC,215550.000,A,3748.3691,N,12217.8876,W,1.87,207.34,180712,,,A*78
$GPRMC,215551.000,A,3748.3685,N,12217.8877,W,2.09,189.77,180712,,,A*7A
$GPRMC,215552.000,A,3748.3678,N,12217.8875,W,2.40,166.31,180712,,,A*77
$GPRMC,215553.000,A,3748.3672,N,12217.8863,W,2.65,132.88,180712,,,A*7F
$GPRMC,215554.000,A,3748.3666,N,12217.8845,W,2.37,118.85,180712,,,A*7B
$GPRMC,215555.000,A,3748.3664,N,12217.8832,W,2.05,106.73,180712,,,A*7F
$GPRMC,215556.000,A,3748.3662,N,12217.8819,W,1.89,101.16,180712,,,A*70
$GPRMC,215557.000,A,3748.3662,N,12217.8807,W,1.94,92.40,180712,,,A*4A
$GPRMC,215558.000,A,3748.3663,N,12217.8793,W,2.10,99.88,180712,,,A*46
$GPRMC,215559.000,A,3748.3661,N,12217.8782,W,2.39,93.94,180712,,,A*49
$GPRMC,215600.000,A,3748.3659,N,12217.8769,W,2.26,113.97,180712,,,A*7C
$GPRMC,215601.000,A,3748.3657,N,12217.8758,W,2.02,102.76,180712,,,A*78
$GPRMC,215602.000,A,3748.3652,N,12217.8748,W,2.02,120.65,180712,,,A*7D
$GPRMC,215603.000,A,3748.3649,N,12217.8739,W,1.79,120.57,180712,,,A*7E
$GPRMC,215604.000,A,3748.3647,N,12217.8730,W,1.76,108.66,180712,,,A*79
$GPRMC,215605.000,A,3748.3645,N,12217.8722,W,1.97,107.36,180712,,,A*7C
$GPRMC,215606.000,A,3748.3644,N,12217.8713,W,1.33,104.57,180712,,,A*76
$GPRMC,215607.000,A,3748.3639,N,12217.8700,W,3.60,116.98,180712,,,A*7B
$GPRMC,215608.000,A,3748.3634,N,12217.8687,W,2.64,124.34,180712,,,A*75
$GPRMC,215609.000,A,3748.3630,N,12217.8675,W,2.83,113.27,180712,,,A*72
$GPRMC,215610.000,A,3748.3628,N,12217.8665,W,2.42,113.65,180712,,,A*79
$GPRMC,215611.000,A,3748.3624,N,12217.8657,W,2.72,123.58,180712,,,A*7B
$GPRMC,215612.000,A,3748.3621,N,12217.8646,W,2.48,104.29,180712,,,A*77
$GPRMC,215613.000,A,3748.3619,N,12217.8634,W,2.45,93.48,180712,,,A*4D
$GPRMC,215614.000,A,3748.3617,N,12217.8625,W,2.68,86.58,180712,,,A*4E
$GPRMC,215615.000,A,3748.3614,N,12217.8617,W,1.62,98.82,180712,,,A*4C
$GPRMC,215616.000,A,3748.3612,N,12217.8611,W,2.22,98.83,180712,,,A*49
$GPRMC,215617.000,A,3748.3614,N,12217.8602,W,2.09,101.09,180712,,,A*76
$GPRMC,215618.000,A,3748.3607,N,12217.8594,W,2.32,108.97,180712,,,A*71
$GPRMC,215619.000,A,3748.3606,N,12217.8584,W,1.92,102.07,180712,,,A*7A
$GPRMC,215620.000,A,3748.3606,N,12217.8575,W,2.09,88.51,180712,,,A*4F
$GPRMC,215621.000,A,3748.3604,N,12217.8569,W,2.23,115.53,180712,,,A*7E
$GPRMC,215622.000,A,3748.3601,N,12217.8565,W,2.62,117.57,180712,,,A*77
$GPRMC,215623.000,A,3748.3593,N,12217.8561,W,2.15,136.06,180712,,,A*7D
$GPRMC,215624.000,A,3748.3593,N,12217.8550,W,3.07,97.02,180712,,,A*44
$GPRMC,215625.000,A,3748.3593,N,12217.8540,W,2.09,81.58,180712,,,A*43
$GPRMC,215626.000,A,3748.3593,N,12217.8532,W,1.92,101.29,180712,,,A*7B
$GPRMC,215627.000,A,3748.3592,N,12217.8525,W,2.11,99.46,180712,,,A*4C
$GPRMC,215628.000,A,3748.3593,N,12217.8516,W,2.43,84.21,180712,,,A*48
$GPRMC,215629.000,A,3748.3595,N,12217.8505,W,2.82,81.69,180712,,,A*49
$GPRMC,215630.000,A,3748.3597,N,12217.8496,W,1.63,89.56,180712,,,A*40
$GPRMC,215631.000,A,3748.3597,N,12217.8489,W,2.17,92.71,180712,,,A*40
$GPRMC,215632.000,A,3748.3597,N,12217.8480,W,2.20,96.77,180712,,,A*4C
$GPRMC,215633.000,A,3748.3596,N,12217.8473,W,2.16,108.30,180712,,,A*70
$GPRMC,215634.000,A,3748.3592,N,12217.8463,W,2.22,114.86,180712,,,A*75
$GPRMC,215635.000,A,3748.3590,N,12217.8454,W,2.46,110.66,180712,,,A*7A
$GPRMC,215636.000,A,3748.3588,N,12217.8445,W,2.29,105.42,180712,,,A*7B
$GPRMC,215637.000,A,3748.3587,N,12217.8438,W,2.02,102.67,180712,,,A*76
$GPRMC,215638.000,A,3748.3587,N,12217.8431,W,1.92,104.87,180712,,,A*72
$GPRMC,215639.000,A,3748.3587,N,12217.8422,W,2.29,88.57,180712,,,A*4A
$GPRMC,215640.000,A,3748.3588,N,12217.8413,W,2.62,76.50,180712,,,A*40
$GPRMC,215641.000,A,3748.3590,N,12217.8404,W,2.40,75.87,180712,,,A*47
$GPRMC,215642.000,A,3748.3592,N,12217.8395,W,2.56,74.35,180712,,,A*46
$GPRMC,215643.000,A,3748.3594,N,12217.8386,W,2.39,65.65,180712,,,A*4F
$GPRMC,215644.000,A,3748.3595,N,12217.8379,W,2.21,76.72,180712,,,A*44
$GPRMC,215645.000,A,3748.3595,N,12217.8373,W,1.90,84.62,180712,,,A*4A
$GPRMC,215646.000,A,3748.3594,N,12217.8366,W,2.00,102.87,180712,,,A*72
$GPRMC,215647.000,A,3748.3592,N,12217.8359,W,2.20,93.94,180712,,,A*40
$GPRMC,215648.000,A,3748.3593,N,12217.8349,W,2.60,79.89,180712,,,A*43
$GPRMC,215649.000,A,3748.3595,N,12217.8339,W,2.30,72.64,180712,,,A*4E
$GPRMC,215650.000,A,3748.3595,N,12217.8330,W,2.32,94.36,180712,,,A*42
$GPRMC,215651.000,A,3748.3593,N,12217.8322,W,1.91,101.19,180712,,,A*7C
$GPRMC,215652.000,A,3748.3590,N,12217.8316,W,2.02,103.91,180712,,,A*70
$GPRMC,215653.000,A,3748.3587,N,12217.8308,W,2.05,105.06,180712,,,A*77
$GPRMC,215654.000,A,3748.3583,N,12217.8302,W,2.23,102.09,180712,,,A*72
$GPRMC,215655.000,A,3748.3582,N,12217.8294,W,2.02,91.31,180712,,,A*4F
$GPRMC,215656.000,A,3748.3579,N,12217.8287,W,1.73,110.79,180712,,,A*7B
$GPRMC,215657.000,A,3748.3574,N,12217.8282,W,2.04,133.79,180712,,,A*70
$GPRMC,215658.000,A,3748.3568,N,12217.8277,W,1.46,126.09,180712,,,A*7E
$GPRMC,215659.000,A,3748.3563,N,12217.8275,W,1.46,158.57,180712,,,A*74
$GPRMC,215700.000,A,3748.3558,N,12217.8280,W,1.49,171.63,180712,,,A*78
$GPRMC,215701.000,A,3748.3549,N,12217.8286,W,1.83,182.21,180712,,,A*73
$GPRMC,215702.000,A,3748.3542,N,12217.8288,W,1.70,161.50,180712,,,A*72
$GPRMC,215703.000,A,3748.3535,N,12217.8284,W,2.13,159.60,180712,,,A*71
$GPRMC,215704.000,A,3748.3531,N,12217.8278,W,2.18,140.98,180712,,,A*75
$GPRMC,215705.000,A,3748.3525,N,12217.8274,W,2.59,142.25,180712,,,A*7C
$GPRMC,215706.000,A,3748.3515,N,12217.8267,W,2.47,145.24,180712,,,A*77
$GPRMC,215707.000,A,3748.3507,N,12217.8260,W,2.56,146.37,180712,,,A*73
$GPRMC,215708.000,A,3748.3501,N,12217.8256,W,2.40,138.68,180712,,,A*7B
$GPRMC,215709.000,A,3748.3495,N,12217.8250,W,2.38,137.23,180712,,,A*7F
$GPRMC,215710.000,A,3748.3490,N,12217.8244,W,2.53,129.60,180712,,,A*72
$GPRMC,215711.000,A,3748.3484,N,12217.8239,W,2.31,141.97,180712,,,A*7E
$GPRMC,215712.000,A,3748.3477,N,12217.8235,W,2.58,139.77,180712,,,A*73
$GPRMC,215713.000,A,3748.3472,N,12217.8233,W,1.93,140.09,180712,,,A*72
$GPRMC,215714.000,A,3748.3467,N,12217.8229,W,1.76,129.90,180712,,,A*7E
$GPRMC,215715.000,A,3748.3462,N,12217.8225,W,1.82,126.57,180712,,,A*79
$GPRMC,215716.000,A,3748.3456,N,12217.8221,W,2.37,133.67,180712,,,A*73
$GPRMC,215717.000,A,3748.3452,N,12217.8212,W,2.19,151.91,180712,,,A*77
$GPRMC,215718.000,A,3748.3449,N,12217.8203,W,2.33,145.58,180712,,,A*7A
$GPRMC,215719.000,A,3748.3449,N,12217.8192,W,2.37,126.92,180712,,,A*77
$GPRMC,215720.000,A,3748.3441,N,12217.8190,W,2.36,122.49,180712,,,A*74
$GPRMC,215721.000,A,3748.3440,N,12217.8187,W,2.19,117.26,180712,,,A*70
$GPRMC,215722.000,A,3748.3435,N,12217.8184,W,1.81,114.83,180712,,,A*7C
$GPRMC,215723.000,A,3748.3438,N,12217.8177,W,1.77,108.91,180712,,,A*7B
$GPRMC,215724.000,A,3748.3439,N,12217.8174,W,2.05,115.19,180712,,,A*74
$GPRMC,215725.000,A,3748.3438,N,12217.8172,W,1.76,113.08,180712,,,A*73
$GPRMC,215726.000,A,3748.3435,N,12217.8168,W,1.86,118.93,180712,,,A*70
$GPRMC,215727.000,A,3748.3431,N,12217.8165,W,1.39,127.14,180712,,,A*7F
$GPRMC,215728.000,A,3748.3431,N,12217.8161,W,1.21,127.78,180712,,,A*77
$GPRMC,215729.000,A,3748.3425,N,12217.8155,W,1.69,136.74,180712,,,A*74
$GPRMC,215730.000,A,3748.3418,N,12217.8147,W,2.25,114.88,180712,,,A*79
$GPRMC,215731.000,A,3748.3413,N,12217.8140,W,2.00,90.16,180712,,,A*49
$GPRMC,215732.000,A,3748.3413,N,12217.8129,W,2.00,76.11,180712,,,A*4A
$GPRMC,215733.000,A,3748.3412,N,12217.8120,W,0.91,58.12,180712,,,A*46
$GPRMC,215734.000,A,3748.3415,N,12217.8114,W,1.80,101.92,180712,,,A*75
$GPRMC,215735.000,A,3748.3416,N,12217.8100,W,2.13,108.76,180712,,,A*78
$GPRMC,215736.000,A,3748.3420,N,12217.8088,W,1.73,101.34,180712,,,A*75
$GPRMC,215737.000,A,3748.3423,N,12217.8079,W,1.60,103.24,180712,,,A*78
$GPRMC,215738.000,A,3748.3426,N,12217.8070,W,1.83,110.93,180712,,,A*78
$GPRMC,215739.000,A,3748.3425,N,12217.8062,W,1.89,101.64,180712,,,A*7B
$GPRMC,215740.000,A,3748.3424,N,12217.8054,W,3.14,95.54,180712,,,A*48
$GPRMC,215741.000,A,3748.3424,N,12217.8046,W,2.41,85.76,180712,,,A*4A
$GPRMC,215742.000,A,3748.3428,N,12217.8031,W,2.46,84.85,180712,,,A*4F
$GPRMC,215743.000,A,3748.3423,N,12217.8017,W,2.27,86.09,180712,,,A*40
$GPRMC,215744.000,A,3748.3417,N,12217.8007,W,2.40,99.92,180712,,,A*4C
$GPRMC,215745.000,A,3748.3413,N,12217.7999,W,2.09,102.64,180712,,,A*7F
$GPRMC,215746.000,A,3748.3409,N,12217.7990,W,1.59,94.83,180712,,,A*4F
$GPRMC,215747.000,A,3748.3405,N,12217.7984,W,1.75,111.13,180712,,,A*7C
$GPRMC,215748.000,A,3748.3399,N,12217.7981,W,1.96,135.71,180712,,,A*7B
$GPRMC,215749.000,A,3748.3392,N,12217.7977,W,1.99,129.76,180712,,,A*7D
$GPRMC,215750.000,A,3748.3386,N,12217.7974,W,2.02,123.99,180712,,,A*79
$GPRMC,215751.000,A,3748.3379,N,12217.7968,W,2.28,119.45,180712,,,A*75
$GPRMC,215752.000,A,3748.3374,N,12217.7963,W,2.17,115.60,180712,,,A*77
$GPRMC,215753.000,A,3748.3367,N,12217.7956,W,2.43,108.55,180712,,,A*79
$GPRMC,215754.000,A,3748.3361,N,12217.7952,W,1.92,116.16,180712,,,A*7B
$GPRMC,215755.000,A,3748.3356,N,12217.7947,W,1.85,111.05,180712,,,A*79
$GPRMC,215756.000,A,3748.3354,N,12217.7941,W,2.25,102.30,180712,,,A*73
$GPRMC,215757.000,A,3748.3351,N,12217.7934,W,2.21,102.12,180712,,,A*71
$GPRMC,215758.000,A,3748.3349,N,12217.7928,W,2.08,105.40,180712,,,A*71
$GPRMC,215759.000,A,3748.3345,N,12217.7921,W,2.22,109.45,180712,,,A*74
$GPRMC,215800.000,A,3748.3344,N,12217.7920,W,1.77,106.46,180712,,,A*78
$GPRMC,215801.000,A,3748.3341,N,12217.7915,W,1.88,118.72,180712,,,A*72
$GPRMC,215802.000,A,3748.3337,N,12217.7907,W,2.29,126.63,180712,,,A*76
$GPRMC,215803.000,A,3748.3333,N,12217.7899,W,2.03,126.53,180712,,,A*7E
$GPRMC,215804.000,A,3748.3328,N,12217.7891,W,2.00,119.85,180712,,,A*7F
$GPRMC,215805.000,A,3748.3324,N,12217.7883,W,2.27,111.23,180712,,,A*70
$GPRMC,215806.000,A,3748.3327,N,12217.7875,W,2.07,94.66,180712,,,A*46
$GPRMC,215807.000,A,3748.3331,N,12217.7868,W,1.81,112.57,180712,,,A*7C
$GPRMC,215808.000,A,3748.3332,N,12217.7859,W,1.79,113.52,180712,,,A*71
$GPRMC,215809.000,A,3748.3336,N,12217.7854,W,1.61,103.77,180712,,,A*76
$GPRMC,215810.000,A,3748.3339,N,12217.7846,W,2.05,90.94,180712,,,A*45
$GPRMC,215811.000,A,3748.3341,N,12217.7835,W,1.98,87.33,180712,,,A*43
$GPRMC,215812.000,A,3748.3343,N,12217.7828,W,1.18,71.33,180712,,,A*4F
$GPRMC,215813.000,A,3748.3342,N,12217.7819,W,1.91,100.41,180712,,,A*7E
$GPRMC,215814.000,A,3748.3338,N,12217.7808,W,3.51,113.10,180712,,,A*7C
$GPRMC,215815.000,A,3748.3337,N,12217.7800,W,2.38,112.43,180712,,,A*73
$GPRMC,215816.000,A,3748.3336,N,12217.7792,W,1.72,89.82,180712,,,A*46
$GPRMC,215817.000,A,3748.3333,N,12217.7785,W,1.71,105.28,180712,,,A*72
$GPRMC,215818.000,A,3748.3331,N,12217.7772,W,1.87,104.55,180712,,,A*75
$GPRMC,215819.000,A,3748.3329,N,12217.7763,W,1.61,105.64,180712,,,A*76
$GPRMC,215820.000,A,3748.3327,N,12217.7762,W,1.32,105.50,180712,,,A*72
$GPRMC,215821.000,A,3748.3323,N,12217.7758,W,2.23,112.32,180712,,,A*7F
$GPRMC,215822.000,A,3748.3315,N,12217.7749,W,2.39,114.95,180712,,,A*79
$GPRMC,215823.000,A,3748.3310,N,12217.7740,W,2.34,105.79,180712,,,A*7B
$GPRMC,215824.000,A,3748.3303,N,12217.7735,W,1.67,98.73,180712,,,A*46
$GPRMC,215825.000,A,3748.3298,N,12217.7728,W,2.57,113.17,180712,,,A*78
$GPRMC,215826.000,A,3748.3294,N,12217.7718,W,2.38,114.13,180712,,,A*7E
$GPRMC,215827.000,A,3748.3289,N,12217.7714,W,1.92,123.65,180712,,,A*79
$GPRMC,215828.000,A,3748.3289,N,12217.7711,W,0.96,105.67,180712,,,A*70
$GPRMC,215829.000,A,3748.3291,N,12217.7705,W,1.93,93.23,180712,,,A*47
$GPRMC,215830.000,A,3748.3289,N,12217.7704,W,1.26,96.67,180712,,,A*4C
$GPRMC,215831.000,A,3748.3286,N,12217.7698,W,1.50,114.46,180712,,,A*7F
$GPRMC,215832.000,A,3748.3283,N,12217.7689,W,2.15,107.13,180712,,,A*79
$GPRMC,215833.000,A,3748.3278,N,12217.7680,W,2.47,118.16,180712,,,A*79
$GPRMC,215834.000,A,3748.3275,N,12217.7671,W,2.23,95.56,180712,,,A*4F
$GPRMC,215835.000,A,3748.3272,N,12217.7662,W,2.33,116.63,180712,,,A*76
$GPRMC,215836.000,A,3748.3267,N,12217.7653,W,2.33,110.24,180712,,,A*76
$GPRMC,215837.000,A,3748.3262,N,12217.7645,W,2.17,120.51,180712,,,A*72
$GPRMC,215838.000,A,3748.3257,N,12217.7637,W,2.04,118.59,180712,,,A*7F
$GPRMC,215839.000,A,3748.3251,N,12217.7629,W,2.31,110.44,180712,,,A*75
$GPRMC,215840.000,A,3748.3247,N,12217.7620,W,2.19,91.54,180712,,,A*46
$GPRMC,215841.000,A,3748.3245,N,12217.7611,W,2.28,91.42,180712,,,A*42
$GPRMC,215842.000,A,3748.3242,N,12217.7605,W,2.10,119.72,180712,,,A*7A
$GPRMC,215843.000,A,3748.3235,N,12217.7601,W,2.94,147.39,180712,,,A*77
$GPRMC,215844.000,A,3748.3230,N,12217.7594,W,2.67,148.11,180712,,,A*73
$GPRMC,215845.000,A,3748.3226,N,12217.7592,W,2.42,144.78,180712,,,A*77
$GPRMC,215846.000,A,3748.3220,N,12217.7590,W,2.27,134.30,180712,,,A*78
$GPRMC,215847.000,A,3748.3216,N,12217.7584,W,1.86,126.33,180712,,,A*71
$GPRMC,215848.000,A,3748.3211,N,12217.7581,W,2.37,154.26,180712,,,A*74
$GPRMC,215849.000,A,3748.3202,N,12217.7580,W,2.20,150.91,180712,,,A*78
$GPRMC,215850.000,A,3748.3194,N,12217.7578,W,1.67,143.39,180712,,,A*7B
$GPRMC,215851.000,A,3748.3197,N,12217.7568,W,1.22,134.99,180712,,,A*73
$GPRMC,215852.000,A,3748.3201,N,12217.7559,W,1.62,96.50,180712,,,A*46
$GPRMC,215853.000,A,3748.3203,N,12217.7551,W,1.38,97.56,180712,,,A*45
$GPRMC,215854.000,A,3748.3201,N,12217.7544,W,1.92,122.10,180712,,,A*79
$GPRMC,215855.000,A,3748.3194,N,12217.7538,W,2.32,133.12,180712,,,A*77
$GPRMC,215856.000,A,3748.3189,N,12217.7536,W,2.03,142.13,180712,,,A*73
$GPRMC,215857.000,A,3748.3182,N,12217.7533,W,2.29,162.04,180712,,,A*70
$GPRMC,215858.000,A,3748.3176,N,12217.7535,W,1.25,154.48,180712,,,A*70
$GPRMC,215859.000,A,3748.3172,N,12217.7539,W,1.81,185.08,180712,,,A*7F
$GPRMC,215900.000,A,3748.3168,N,12217.7539,W,1.80,175.39,180712,,,A*75
$GPRMC,215901.000,A,3748.3169,N,12217.7534,W,1.71,132.73,180712,,,A*7B
$GPRMC,215902.000,A,3748.3167,N,12217.7518,W,2.70,97.97,180712,,,A*4E
$GPRMC,215903.000,A,3748.3165,N,12217.7510,W,2.55,106.33,180712,,,A*75
$GPRMC,215904.000,A,3748.3161,N,12217.7497,W,2.85,105.43,180712,,,A*71
$GPRMC,215905.000,A,3748.3158,N,12217.7487,W,1.95,105.54,180712,,,A*7F
$GPRMC,215906.000,A,3748.3158,N,12217.7480,W,1.14,87.85,180712,,,A*45
$GPRMC,215907.000,A,3748.3159,N,12217.7472,W,1.08,105.48,180712,,,A*7F
$GPRMC,215908.000,A,3748.3156,N,12217.7470,W,1.39,120.95,180712,,,A*78
$GPRMC,215909.000,A,3748.3149,N,12217.7467,W,2.36,130.49,180712,,,A*7D
$GPRMC,215910.000,A,3748.3146,N,12217.7460,W,2.08,123.92,180712,,,A*74
$GPRMC,215911.000,A,3748.3147,N,12217.7453,W,2.31,117.52,180712,,,A*75
$GPRMC,215912.000,A,3748.3145,N,12217.7446,W,2.48,132.62,180712,,,A*7A
$GPRMC,215913.000,A,3748.3143,N,12217.7436,W,2.03,112.48,180712,,,A*7F
$GPRMC,215914.000,A,3748.3142,N,12217.7430,W,1.60,116.34,180712,,,A*76
$GPRMC,215915.000,A,3748.3144,N,12217.7425,W,0.66,125.41,180712,,,A*70
$GPRMC,215916.000,A,3748.3147,N,12217.7419,W,2.21,112.86,180712,,,A*71
$GPRMC,215917.000,A,3748.3149,N,12217.7411,W,2.14,114.70,180712,,,A*7F
$GPRMC,215918.000,A,3748.3150,N,12217.7407,W,1.46,104.31,180712,,,A*7F
$GPRMC,215919.000,A,3748.3149,N,12217.7402,W,2.24,118.91,180712,,,A*73
$GPRMC,215920.000,A,3748.3149,N,12217.7396,W,1.80,133.19,180712,,,A*77
$GPRMC,215921.000,A,3748.3142,N,12217.7397,W,1.39,157.34,180712,,,A*73
$GPRMC,215922.000,A,3748.3140,N,12217.7396,W,0.43,52.72,180712,,,A*49
$GPRMC,215923.000,A,3748.3139,N,12217.7387,W,2.10,98.14,180712,,,A*44
$GPRMC,215924.000,A,3748.3140,N,12217.7375,W,1.78,96.82,180712,,,A*4C
$GPRMC,215925.000,A,3748.3139,N,12217.7360,W,2.61,113.77,180712,,,A*7A
$GPRMC,215926.000,A,3748.3139,N,12217.7348,W,1.33,91.59,180712,,,A*40
$GPRMC,215927.000,A,3748.3141,N,12217.7339,W,2.04,88.71,180712,,,A*4D
$GPRMC,215928.000,A,3748.3148,N,12217.7325,W,2.55,73.74,180712,,,A*43
$GPRMC,215929.000,A,3748.3154,N,12217.7315,W,2.87,71.97,180712,,,A*4C
$GPRMC,215930.000,A,3748.3157,N,12217.7306,W,2.10,75.57,180712,,,A*43
$GPRMC,215931.000,A,3748.3157,N,12217.7302,W,1.03,88.56,180712,,,A*44
$GPRMC,215932.000,A,3748.3159,N,12217.7306,W,0.86,171.88,180712,,,A*75
$GPRMC,215933.000,A,3748.3160,N,12217.7306,W,1.05,137.64,180712,,,A*74
$GPRMC,215934.000,A,3748.3158,N,12217.7303,W,1.83,160.80,180712,,,A*7B
$GPRMC,215935.000,A,3748.3156,N,12217.7291,W,2.74,125.00,180712,,,A*7C
$GPRMC,215936.000,A,3748.3152,N,12217.7282,W,1.86,107.80,180712,,,A*7F
$GPRMC,215937.000,A,3748.3148,N,12217.7278,W,1.66,119.00,180712,,,A*79
$GPRMC,215938.000,A,3748.3149,N,12217.7282,W,1.17,149.29,180712,,,A*7A
$GPRMC,215939.000,A,3748.3140,N,12217.7288,W,1.73,143.37,180712,,,A*7F
$GPRMC,215940.000,A,3748.3138,N,12217.7288,W,1.09,135.02,180712,,,A*74
$GPRMC,215941.000,A,3748.3139,N,12217.7286,W,1.25,95.45,180712,,,A*4C
$GPRMC,215942.000,A,3748.3135,N,12217.7288,W,0.78,93.30,180712,,,A*40
$GPRMC,215943.000,A,3748.3131,N,12217.7288,W,1.22,117.68,180712,,,A*7B
$GPRMC,215944.000,A,3748.3129,N,12217.7288,W,0.85,131.24,180712,,,A*75
$GPRMC,215945.000,A,3748.3121,N,12217.7289,W,1.35,161.31,180712,,,A*76
$GPRMC,215946.000,A,3748.3113,N,12217.7287,W,0.55,136.00,180712,,,A*7D
$GPRMC,215947.000,A,3748.3112,N,12217.7287,W,0.48,221.90,180712,,,A*7D
$GPRMC,215948.000,A,3748.3108,N,12217.7287,W,0.53,231.89,180712,,,A*7A
$GPRMC,215949.000,A,3748.3107,N,12217.7284,W,0.26,98.56,180712,,,A*46
$GPRMC,215950.000,A,3748.3109,N,12217.7278,W,0.31,58.55,180712,,,A*4A
$GPRMC,215951.000,A,3748.3111,N,12217.7276,W,0.18,72.91,180712,,,A*47
$GPRMC,215952.000,A,3748.3108,N,12217.7266,W,0.75,79.65,180712,,,A*46
$GPRMC,215953.000,A,3748.3110,N,12217.7260,W,1.18,68.76,180712,,,A*40
$GPRMC,215954.000,A,3748.3116,N,12217.7255,W,1.65,25.08,180712,,,A*4D
$GPRMC,215955.000,A,3748.3126,N,12217.7248,W,2.24,28.98,180712,,,A*41
$GPRMC,215956.000,A,3748.3129,N,12217.7241,W,1.95,26.41,180712,,,A*47
$GPRMC,215957.000,A,3748.3137,N,12217.7236,W,2.48,21.43,180712,,,A*4F
$GPRMC,215958.000,A,3748.3141,N,12217.7233,W,2.35,23.74,180712,,,A*48
$GPRMC,215959.000,A,3748.3138,N,12217.7229,W,1.78,58.33,180712,,,A*49
$GPRMC,220000.000,A,3748.3140,N,12217.7226,W,1.11,31.81,180712,,,A*43
$GPRMC,220001.000,A,3748.3141,N,12217.7222,W,0.88,11.59,180712,,,A*41
$GPRMC,220002.000,A,3748.3142,N,12217.7218,W,0.86,338.48,180712,,,A*7E
$GPRMC,220003.000,A,3748.3143,N,12217.7224,W,0.88,328.13,180712,,,A*70
$GPRMC,220004.000,A,3748.3144,N,12217.7232,W,0.83,297.14,180712,,,A*7E
$GPRMC,220005.000,A,3748.3136,N,12217.7239,W,0.84,258.70,180712,,,A*77
$GPRMC,220006.000,A,3748.3135,N,12217.7241,W,1.06,242.49,180712,,,A*72
$GPRMC,220007.000,A,3748.3129,N,12217.7240,W,0.74,202.07,180712,,,A*75
$GPRMC,220008.000,A,3748.3130,N,12217.7237,W,0.78,165.59,180712,,,A*77
$GPRMC,220009.000,A,3748.3119,N,12217.7239,W,1.71,150.54,180712,,,A*70
$GPRMC,220010.000,A,3748.3110,N,12217.7243,W,1.59,149.29,180712,,,A*74
$GPRMC,220011.000,A,3748.3105,N,12217.7240,W,2.78,145.09,180712,,,A*7C
$GPRMC,220012.000,A,3748.3103,N,12217.7236,W,1.58,154.37,180712,,,A*74
$GPRMC,220013.000,A,3748.3100,N,12217.7233,W,0.71,175.31,180712,,,A*7C
$GPRMC,220014.000,A,3748.3099,N,12217.7231,W,0.69,197.19,180712,,,A*77
$GPRMC,220015.000,A,3748.3097,N,12217.7230,W,0.93,207.69,180712,,,A*71
$GPRMC,220016.000,A,3748.3094,N,12217.7229,W,1.22,203.35,180712,,,A*7F
$GPRMC,220017.000,A,3748.3090,N,12217.7228,W,1.96,193.25,180712,,,A*7F
$GPRMC,220018.000,A,3748.3091,N,12217.7225,W,2.21,181.98,180712,,,A*76
$GPRMC,220019.000,A,3748.3089,N,12217.7222,W,2.23,202.16,180712,,,A*75
$GPRMC,220020.000,A,3748.3086,N,12217.7223,W,2.42,216.71,180712,,,A*72
$GPRMC,220021.000,A,3748.3088,N,12217.7225,W,1.93,226.36,180712,,,A*74
$GPRMC,220022.000,A,3748.3084,N,12217.7218,W,1.66,208.03,180712,,,A*75
$GPRMC,220023.000,A,3748.3083,N,12217.7216,W,0.94,228.73,180712,,,A*74
$GPRMC,220024.000,A,3748.3082,N,12217.7206,W,0.29,286.78,180712,,,A*7A
$GPRMC,220025.000,A,3748.3080,N,12217.7205,W,0.49,290.18,180712,,,A*7D
$GPRMC,220026.000,A,3748.3078,N,12217.7204,W,0.63,341.30,180712,,,A*77
$GPRMC,220027.000,A,3748.3076,N,12217.7200,W,0.42,17.43,180712,,,A*4B
$GPRMC,220028.000,A,3748.3071,N,12217.7195,W,0.64,107.42,180712,,,A*79
$GPRMC,220029.000,A,3748.3072,N,12217.7190,W,0.82,46.24,180712,,,A*42
$GPRMC,220030.000,A,3748.3070,N,12217.7182,W,1.11,49.40,180712,,,A*4D
$GPRMC,220031.000,A,3748.3064,N,12217.7172,W,0.91,55.09,180712,,,A*4F
$GPRMC,220032.000,A,3748.3058,N,12217.7159,W,1.05,84.33,180712,,,A*43
$GPRMC,220033.000,A,3748.3056,N,12217.7148,W,1.30,70.56,180712,,,A*42
$GPRMC,220034.000,A,3748.3049,N,12217.7135,W,1.74,105.68,180712,,,A*7F
$GPRMC,220035.000,A,3748.3045,N,12217.7128,W,2.26,92.59,180712,,,A*47
$GPRMC,220036.000,A,3748.3044,N,12217.7110,W,3.79,84.28,180712,,,A*44
$GPRMC,220037.000,A,3748.3037,N,12217.7109,W,3.30,82.89,180712,,,A*49
$GPRMC,220038.000,A,3748.3034,N,12217.7102,W,2.56,87.01,180712,,,A*4A
$GPRMC,220039.000,A,3748.3025,N,12217.7107,W,0.76,116.21,180712,,,A*75
$GPRMC,220040.000,A,3748.3013,N,12217.7116,W,0.72,179.92,180712,,,A*7B
$GPRMC,220041.000,A,3748.3005,N,12217.7124,W,0.66,253.14,180712,,,A*7C
$GPRMC,220042.000,A,3748.2992,N,12217.7134,W,1.18,200.68,180712,,,A*7D
$GPRMC,220043.000,A,3748.2979,N,12217.7147,W,1.23,205.88,180712,,,A*7E
$GPRMC,220044.000,A,3748.2977,N,12217.7151,W,1.39,248.95,180712,,,A*7E
$GPRMC,220045.000,A,3748.2976,N,12217.7155,W,1.39,248.95,180712,,,E*7E
$GPRMC,220046.000,A,3748.2974,N,12217.7160,W,1.39,248.95,180712,,,E*79
$GPRMC,220047.000,A,3748.2948,N,12217.7104,W,4.70,118.68,180712,,,A*7D
$GPRMC,220048.000,A,3748.2923,N,12217.7071,W,3.73,132.40,180712,,,A*7A
$GPRMC,220049.000,A,3748.2925,N,12217.7080,W,1.81,160.62,180712,,,A*7B
$GPRMC,220050.000,A,3748.2926,N,12217.7099,W,0.94,253.27,180712,,,A*7F
$GPRMC,220051.000,A,3748.2932,N,12217.7124,W,1.56,311.24,180712,,,A*77
$GPRMC,220052.000,A,3748.2929,N,12217.7135,W,1.80,326.42,180712,,,A*71
$GPRMC,220053.000,A,3748.2925,N,12217.7132,W,1.54,336.66,180712,,,A*75
$GPRMC,220054.000,A,3748.2920,N,12217.7120,W,1.36,321.06,180712,,,A*70
$GPRMC,220055.000,A,3748.2916,N,12217.7107,W,0.50,311.66,180712,,,A*75
$GPRMC,220056.000,A,3748.2911,N,12217.7094,W,0.56,101.38,180712,,,A*74
$GPRMC,220057.000,A,3748.2908,N,12217.7083,W,1.20,93.60,180712,,,A*4C
$GPRMC,220058.000,A,3748.2906,N,12217.7069,W,1.22,75.69,180712,,,A*4A
$GPRMC,220059.000,A,3748.2904,N,12217.7058,W,0.59,69.00,180712,,,A*44
$GPRMC,220100.000,A,3748.2904,N,12217.7050,W,1.15,50.75,180712,,,A*40
$GPRMC,220101.000,A,3748.2908,N,12217.7041,W,0.83,18.76,180712,,,A*4C
$GPRMC,220102.000,A,3748.2911,N,12217.7040,W,0.79,48.39,180712,,,A*4D
$GPRMC,220103.000,A,3748.2913,N,12217.7038,W,0.79,48.39,180712,,,E*45
$GPRMC,220104.000,A,3748.2926,N,12217.7021,W,3.78,46.45,180712,,,A*4F
$GPRMC,220105.000,A,3748.2930,N,12217.6982,W,6.24,64.74,180712,,,A*46
$GPRMC,220106.000,A,3748.2928,N,12217.6971,W,4.47,57.10,180712,,,A*45
$GPRMC,220107.000,A,3748.2922,N,12217.6950,W,4.05,75.90,180712,,,A*43
$GPRMC,220108.000,A,3748.2920,N,12217.6943,W,2.33,92.20,180712,,,A*4D
$GPRMC,220109.000,A,3748.2917,N,12217.6942,W,0.46,74.67,180712,,,A*42
$GPRMC,220110.000,A,3748.2920,N,12217.6955,W,0.40,201.88,180712,,,A*7F
$GPRMC,220111.000,A,3748.2913,N,12217.6986,W,0.24,177.75,180712,,,A*72
$GPRMC,220112.000,A,3748.2914,N,12217.7003,W,0.32,59.16,180712,,,A*4C
$GPRMC,220113.000,A,3748.2918,N,12217.7014,W,1.34,273.61,180712,,,A*7A
$GPRMC,220114.000,A,3748.2919,N,12217.7019,W,1.34,273.61,180712,,,E*75
$GPRMC,220115.000,A,3748.2930,N,12217.7035,W,3.63,308.92,180712,,,A*74
$GPRMC,220116.000,A,3748.2926,N,12217.7040,W,1.96,291.73,180712,,,A*74
$GPRMC,220117.000,A,3748.2931,N,12217.7057,W,2.15,288.04,180712,,,A*75
$GPRMC,220118.000,A,3748.2933,N,12217.7054,W,1.44,335.04,180712,,,A*7B
$GPRMC,220119.000,A,3748.2937,N,12217.7046,W,1.43,6.31,180712,,,A*7F
$GPRMC,220120.000,A,3748.2941,N,12217.7036,W,1.34,11.86,180712,,,A*49
$GPRMC,220121.000,A,3748.2947,N,12217.7028,W,1.73,9.18,180712,,,A*7C
$GPRMC,220122.000,A,3748.2953,N,12217.7020,W,1.23,345.47,180712,,,A*76
$GPRMC,220123.000,A,3748.2955,N,12217.7019,W,0.50,282.64,180712,,,A*75
$GPRMC,220124.000,A,3748.2954,N,12217.7028,W,0.82,231.53,180712,,,A*72
$GPRMC,220125.000,A,3748.2948,N,12217.7029,W,1.76,171.27,180712,,,A*71
$GPRMC,220126.000,A,3748.2939,N,12217.7025,W,2.03,169.24,180712,,,A*73
$GPRMC,220127.000,A,3748.2930,N,12217.7023,W,2.07,159.78,180712,,,A*73
$GPRMC,220128.000,A,3748.2923,N,12217.7017,W,1.81,157.41,180712,,,A*70
$GPRMC,220129.000,A,3748.2917,N,12217.7016,W,1.25,175.36,180712,,,A*79
$GPRMC,220130.000,A,3748.2913,N,12217.7023,W,2.17,212.10,180712,,,A*77
$GPRMC,220131.000,A,3748.2910,N,12217.7025,W,2.13,201.31,180712,,,A*76
$GPRMC,220132.000,A,3748.2910,N,12217.7023,W,1.48,196.39,180712,,,A*7B
$GPRMC,220133.000,A,3748.2904,N,12217.7024,W,1.86,197.69,180712,,,A*7E
$GPRMC,220134.000,A,3748.2899,N,12217.7026,W,1.86,197.69,180712,,,E*7A
$GPRMC,220135.000,A,3748.2908,N,12217.7038,W,2.05,278.97,180712,,,A*72
$GPRMC,220136.000,A,3748.2903,N,12217.7052,W,2.24,295.40,180712,,,A*7C
$GPRMC,220137.000,A,3748.2899,N,12217.7059,W,1.97,309.40,180712,,,A*7B
$GPRMC,220138.000,A,3748.2895,N,12217.7068,W,1.96,317.37,180712,,,A*74
$GPRMC,220139.000,A,3748.2877,N,12217.7080,W,0.82,329.92,180712,,,A*79
$GPRMC,220140.000,A,3748.2869,N,12217.7090,W,1.06,303.94,180712,,,A*7A
$GPRMC,220141.000,A,3748.2867,N,12217.7095,W,0.37,332.40,180712,,,A*78
$GPRMC,220142.000,A,3748.2860,N,12217.7096,W,0.42,172.26,180712,,,A*7B
$GPRMC,220143.000,A,3748.2832,N,12217.7102,W,2.26,178.01,180712,,,A*7E
$GPRMC,220144.000,A,3748.2823,N,12217.7108,W,1.98,213.45,180712,,,A*7B
$GPRMC,220145.000,A,3748.2821,N,12217.7111,W,2.48,224.36,180712,,,A*7E
$GPRMC,220146.000,A,3748.2801,N,12217.7102,W,2.70,193.18,180712,,,A*75
$GPRMC,220147.000,A,3748.2780,N,12217.7102,W,3.49,194.53,180712,,,A*71
$GPRMC,220148.000,A,3748.2767,N,12217.7110,W,4.06,207.74,180712,,,A*74
$GPRMC,220149.000,A,3748.2749,N,12217.7115,W,4.90,199.95,180712,,,A*78
$GPRMC,220150.000,A,3748.2736,N,12217.7115,W,4.61,184.08,180712,,,A*7E
$GPRMC,220151.000,A,3748.2727,N,12217.7117,W,3.76,195.76,180712,,,A*75
$GPRMC,220152.000,A,3748.2727,N,12217.7109,W,2.96,193.81,180712,,,A*78
$GPRMC,220153.000,A,3748.2717,N,12217.7109,W,2.99,190.50,180712,,,A*7A
$GPRMC,220154.000,A,3748.2746,N,12217.7114,W,1.92,182.13,180712,,,A*79
$GPRMC,220155.000,A,3748.2754,N,12217.7115,W,2.22,155.33,180712,,,A*7A
