$ADVER,3080,2.3
$GPRMC,194258.751,A,3748.7809,N,12217.8716,W,0.62,33.65,111011,,,A*4B
$GPRMC,194259.751,A,3748.7809,N,12217.8717,W,0.57,33.95,111011,,,A*42
$GPRMC,194300.751,A,3748.7810,N,12217.8717,W,0.61,36.17,111011,,,A*4D
$GPRMC,194301.751,A,3748.7812,N,12217.8716,W,0.53,32.80,111011,,,A*44
$GPRMC,194302.751,A,3748.7814,N,12217.8716,W,0.54,33.29,111011,,,A*44
$GPRMC,194303.751,A,3748.7815,N,12217.8715,W,0.65,33.48,111011,,,A*42
$GPRMC,194304.751,A,3748.7997,N,12217.8577,W,0.05,28.60,111011,,,A*4E
$GPRMC,194305.751,A,3748.7977,N,12217.8610,W,0.06,80.99,111011,,,A*44
$GPRMC,194306.000,A,3748.7973,N,12217.8614,W,0.05,96.98,111011,,,A*41
$GPRMC,194307.000,A,3748.7973,N,12217.8611,W,0.08,85.08,111011,,,A*43
$GPRMC,194308.000,A,3748.7973,N,12217.8610,W,0.06,74.26,111011,,,A*41
$GPRMC,194309.000,A,3748.7973,N,12217.8608,W,0.07,82.70,111011,,,A*42
$GPRMC,194310.000,A,3748.7974,N,12217.8607,W,0.07,94.70,111011,,,A*45
$GPRMC,194311.000,A,3748.7974,N,12217.8606,W,0.08,86.00,111011,,,A*4E
$GPRMC,194312.000,A,3748.7973,N,12217.8608,W,0.05,94.77,111011,,,A*4A
$GPRMC,194313.000,A,3748.7971,N,12217.8609,W,0.06,112.10,111011,,,A*75
$GPRMC,194314.000,A,3748.7974,N,12217.8604,W,0.09,61.14,111011,,,A*44
$GPRMC,194315.000,A,3748.7984,N,12217.8598,W,0.70,29.87,111011,,,A*44
$GPRMC,194316.000,A,3748.7988,N,12217.8595,W,0.22,289.54,111011,,,A*77
$GPRMC,194317.000,A,3748.7993,N,12217.8594,W,0.30,3.43,111011,,,A*78
$GPRMC,194318.000,A,3748.7999,N,12217.8594,W,0.07,16.86,111011,,,A*44
$GPRMC,194319.000,A,3748.8002,N,12217.8594,W,0.22,144.54,111011,,,A*7F
$GPRMC,194320.000,A,3748.8006,N,12217.8594,W,0.20,122.74,111011,,,A*71
$GPRMC,194321.000,A,3748.8009,N,12217.8594,W,0.39,174.91,111011,,,A*7F
$GPRMC,194322.000,A,3748.8004,N,12217.8598,W,0.15,152.89,111011,,,A*7E
$GPRMC,194323.000,A,3748.7999,N,12217.8602,W,0.31,314.96,111011,,,A*75
$GPRMC,194324.000,A,3748.7996,N,12217.8605,W,0.24,117.28,111011,,,A*7A
$GPRMC,194325.000,A,3748.7994,N,12217.8606,W,0.02,52.32,111011,,,A*45
$GPRMC,194326.000,A,3748.7991,N,12217.8606,W,0.40,170.46,111011,,,A*77
$GPRMC,194327.000,A,3748.7991,N,12217.8607,W,0.08,140.29,111011,,,A*71
$GPRMC,194328.000,A,3748.7991,N,12217.8606,W,0.13,156.04,111011,,,A*7D
$GPRMC,194329.000,A,3748.7992,N,12217.8606,W,0.06,59.27,111011,,,A*44
$GPRMC,194330.000,A,3748.7992,N,12217.8606,W,0.07,85.36,111011,,,A*4C
$GPRMC,194331.000,A,3748.7998,N,12217.8605,W,0.12,42.88,111011,,,A*4E
$GPRMC,194332.000,A,3748.8004,N,12217.8605,W,0.13,49.96,111011,,,A*4B
$GPRMC,194333.000,A,3748.8008,N,12217.8604,W,0.19,46.71,111011,,,A*4B
$GPRMC,194334.000,A,3748.8005,N,12217.8605,W,0.27,199.30,111011,,,A*7B
$GPRMC,194335.000,A,3748.8008,N,12217.8605,W,0.35,0.01,111011,,,A*77
$GPRMC,194336.000,A,3748.8009,N,12217.8603,W,0.34,94.02,111011,,,A*4C
$GPRMC,194337.000,A,3748.8014,N,12217.8600,W,0.64,358.34,111011,,,A*71
$GPRMC,194338.000,A,3748.8018,N,12217.8598,W,0.52,7.41,111011,,,A*7E
$GPRMC,194339.000,A,3748.8019,N,12217.8596,W,0.36,132.66,111011,,,A*70
$GPRMC,194340.000,A,3748.8019,N,12217.8596,W,0.56,25.49,111011,,,A*42
$GPRMC,194341.000,A,3748.8021,N,12217.8597,W,0.11,249.52,111011,,,A*78
$GPRMC,194342.000,A,3748.8021,N,12217.8599,W,0.13,243.99,111011,,,A*7A
$GPRMC,194343.000,A,3748.8023,N,12217.8599,W,0.40,50.92,111011,,,A*44
$GPRMC,194344.000,A,3748.8019,N,12217.8602,W,0.21,262.18,111011,,,A*7D
$GPRMC,194345.000,A,3748.8017,N,12217.8601,W,0.71,9.06,111011,,,A*74
$GPRMC,194346.000,A,3748.8016,N,12217.8604,W,0.86,0.60,111011,,,A*72
$GPRMC,194347.000,A,3748.8020,N,12217.8602,W,0.53,60.43,111011,,,A*4F
$GPRMC,194348.000,A,3748.8021,N,12217.8602,W,0.14,75.88,111011,,,A*41
$GPRMC,194349.000,A,3748.8024,N,12217.8604,W,0.51,4.72,111011,,,A*71
$GPRMC,194350.000,A,3748.8026,N,12217.8608,W,0.28,287.68,111011,,,A*7B
$GPRMC,194351.000,A,3748.8026,N,12217.8609,W,0.24,22.27,111011,,,A*41
$GPRMC,194352.000,A,3748.8025,N,12217.8607,W,0.24,140.67,111011,,,A*7E
$GPRMC,194353.000,A,3748.8023,N,12217.8606,W,0.21,115.33,111011,,,A*7C
$GPRMC,194354.000,A,3748.8023,N,12217.8604,W,0.15,75.40,111011,,,A*4D
$GPRMC,194355.000,A,3748.8023,N,12217.8603,W,0.33,357.21,111011,,,A*7B
$GPRMC,194356.000,A,3748.8020,N,12217.8607,W,0.18,265.84,111011,,,A*79
$GPRMC,194357.000,A,3748.8018,N,12217.8611,W,0.37,291.33,111011,,,A*7E
$GPRMC,194358.000,A,3748.8018,N,12217.8615,W,0.79,316.49,111011,,,A*7C
$GPRMC,194359.000,A,3748.8015,N,12217.8615,W,0.63,161.37,111011,,,A*70
$GPRMC,194400.000,A,3748.8015,N,12217.8614,W,0.23,181.64,111011,,,A*76
$GPRMC,194401.000,A,3748.8016,N,12217.8614,W,0.05,69.22,111011,,,A*45
$GPRMC,194402.000,A,3748.8018,N,12217.8613,W,0.03,126.36,111011,,,A*76
$GPRMC,194403.000,A,3748.8020,N,12217.8612,W,0.05,125.97,111011,,,A*73
$GPRMC,194404.000,A,3748.8021,N,12217.8612,W,0.16,167.65,111011,,,A*7C
$GPRMC,194405.000,A,3748.8021,N,12217.8612,W,0.05,123.83,111011,,,A*77
$GPRMC,194406.000,A,3748.8022,N,12217.8612,W,0.03,67.14,111011,,,A*4E
$GPRMC,194407.000,A,3748.8026,N,12217.8608,W,0.14,81.76,111011,,,A*4A
$GPRMC,194408.000,A,3748.8030,N,12217.8604,W,0.16,32.72,111011,,,A*40
$GPRMC,194409.000,A,3748.8032,N,12217.8603,W,0.26,8.17,111011,,,A*7D
$GPRMC,194410.000,A,3748.8034,N,12217.8599,W,0.15,316.55,111011,,,A*79
$GPRMC,194411.000,A,3748.8034,N,12217.8597,W,0.23,38.71,111011,,,A*4A
$GPRMC,194412.000,A,3748.8034,N,12217.8597,W,0.10,2.70,111011,,,A*71
$GPRMC,194413.000,A,3748.8034,N,12217.8599,W,0.06,46.29,111011,,,A*45
$GPRMC,194414.000,A,3748.8026,N,12217.8596,W,0.08,227.60,111011,,,A*78
$GPRMC,194415.000,A,3748.8024,N,12217.8596,W,0.26,303.57,111011,,,A*74
$GPRMC,194416.000,A,3748.8023,N,12217.8598,W,0.31,307.18,111011,,,A*77
$GPRMC,194417.000,A,3748.8022,N,12217.8604,W,0.31,289.43,111011,,,A*78
$GPRMC,194418.000,A,3748.8022,N,12217.8608,W,0.36,203.90,111011,,,A*70
$GPRMC,194419.000,A,3748.8020,N,12217.8606,W,0.26,117.84,111011,,,A*7F
$GPRMC,194420.000,A,3748.8019,N,12217.8610,W,0.22,258.32,111011,,,A*79
$GPRMC,194421.000,A,3748.8021,N,12217.8612,W,0.27,113.00,111011,,,A*79
$GPRMC,194422.000,A,3748.8021,N,12217.8612,W,0.19,317.02,111011,,,A*73
$GPRMC,194423.000,A,3748.8019,N,12217.8614,W,0.26,345.73,111011,,,A*72
$GPRMC,194424.000,A,3748.8019,N,12217.8611,W,0.28,56.94,111011,,,A*46
$GPRMC,194425.000,A,3748.8016,N,12217.8609,W,0.10,260.04,111011,,,A*74
$GPRMC,194426.000,A,3748.8016,N,12217.8611,W,0.10,21.17,111011,,,A*4B
$GPRMC,194427.000,A,3748.8005,N,12217.8609,W,0.18,235.22,111011,,,A*78
$GPRMC,194428.000,A,3748.7999,N,12217.8607,W,0.27,273.19,111011,,,A*7C
$GPRMC,194429.000,A,3748.7998,N,12217.8608,W,0.18,266.19,111011,,,A*7B
$GPRMC,194430.000,A,3748.7999,N,12217.8611,W,0.35,289.56,111011,,,A*7F
$GPRMC,194431.000,A,3748.7990,N,12217.8611,W,0.20,262.68,111011,,,A*7B
$GPRMC,194432.000,A,3748.7990,N,12217.8611,W,0.16,195.35,111011,,,A*7E
$GPRMC,194433.000,A,3748.7990,N,12217.8611,W,0.26,143.07,111011,,,A*76
$GPRMC,194434.000,A,3748.7990,N,12217.8610,W,0.10,196.63,111011,,,A*7F
$GPRMC,194435.000,A,3748.7990,N,12217.8609,W,0.09,217.79,111011,,,A*7F
$GPRMC,194436.000,A,3748.7990,N,12217.8608,W,0.03,22.20,111011,,,A*4F
$GPRMC,194437.000,A,3748.7989,N,12217.8607,W,0.08,181.51,111011,,,A*7C
$GPRMC,194438.000,A,3748.7988,N,12217.8605,W,0.07,135.17,111011,,,A*72
$GPRMC,194439.000,A,3748.7987,N,12217.8605,W,0.11,193.18,111011,,,A*78
$GPRMC,194440.000,A,3748.7986,N,12217.8603,W,0.26,128.07,111011,,,A*7B
$GPRMC,194441.000,A,3748.7986,N,12217.8600,W,0.04,354.55,111011,,,A*77
$GPRMC,194442.000,A,3748.7987,N,12217.8597,W,0.54,86.08,111011,,,A*49
$GPRMC,194443.000,A,3748.7987,N,12217.8596,W,0.28,82.64,111011,,,A*4C
$GPRMC,194444.000,A,3748.7990,N,12217.8588,W,0.32,63.49,111011,,,A*49
$GPRMC,194445.000,A,3748.7992,N,12217.8589,W,0.20,175.26,111011,,,A*77
$GPRMC,194446.000,A,3748.7993,N,12217.8582,W,0.41,148.41,111011,,,A*76
$GPRMC,194447.000,A,3748.7992,N,12217.8580,W,0.38,131.12,111011,,,A*72
$GPRMC,194448.000,A,3748.7990,N,12217.8582,W,0.23,109.20,111011,,,A*7D
$GPRMC,194449.000,A,3748.7991,N,12217.8585,W,0.24,341.66,111011,,,A*71
$GPRMC,194450.000,A,3748.7994,N,12217.8587,W,0.23,328.47,111011,,,A*75
$GPRMC,194451.000,A,3748.7997,N,12217.8589,W,0.46,330.62,111011,,,A*74
$GPRMC,194452.000,A,3748.7997,N,12217.8589,W,0.68,330.59,111011,,,A*73
$GPRMC,194453.000,A,3748.7997,N,12217.8591,W,0.33,330.61,111011,,,A*7E
$GPRMC,194454.000,A,3748.7997,N,12217.8593,W,0.30,304.78,111011,,,A*77
$GPRMC,194455.000,A,3748.7996,N,12217.8595,W,0.19,5.19,111011,,,A*7F
$GPRMC,194456.000,A,3748.7999,N,12217.8596,W,0.13,128.09,111011,,,A*75
$GPRMC,194457.000,A,3748.7998,N,12217.8597,W,0.21,166.43,111011,,,A*71
$GPRMC,194458.000,A,3748.7998,N,12217.8597,W,0.28,138.55,111011,,,A*7B
$GPRMC,194459.000,A,3748.7996,N,12217.8597,W,0.23,159.44,111011,,,A*78
$GPRMC,194500.000,A,3748.7995,N,12217.8599,W,0.22,303.28,111011,,,A*7E
$GPRMC,194501.000,A,3748.7991,N,12217.8599,W,0.08,274.96,111011,,,A*77
$GPRMC,194502.000,A,3748.7988,N,12217.8599,W,0.08,175.38,111011,,,A*7A
$GPRMC,194503.000,A,3748.7985,N,12217.8601,W,0.26,147.62,111011,,,A*76
$GPRMC,194504.000,A,3748.7984,N,12217.8604,W,0.16,145.22,111011,,,A*70
$GPRMC,194505.000,A,3748.7983,N,12217.8607,W,0.33,316.22,111011,,,A*76
$GPRMC,194506.000,A,3748.7984,N,12217.8611,W,0.17,153.74,111011,,,A*73
$GPRMC,194507.000,A,3748.7987,N,12217.8613,W,0.05,359.27,111011,,,A*7E
$GPRMC,194508.000,A,3748.7990,N,12217.8614,W,0.38,34.25,111011,,,A*44
$GPRMC,194509.000,A,3748.7993,N,12217.8616,W,0.32,187.79,111011,,,A*7E
$GPRMC,194510.000,A,3748.7995,N,12217.8617,W,0.33,87.19,111011,,,A*47
$GPRMC,194511.000,A,3748.7997,N,12217.8612,W,0.51,82.23,111011,,,A*49
$GPRMC,194512.000,A,3748.7996,N,12217.8609,W,0.14,51.23,111011,,,A*4E
$GPRMC,194513.000,A,3748.7998,N,12217.8608,W,0.18,266.55,111011,,,A*7B
$GPRMC,194514.000,A,3748.8002,N,12217.8607,W,0.23,276.16,111011,,,A*78
$GPRMC,194515.000,A,3748.8006,N,12217.8605,W,0.03,145.33,111011,,,A*79
$GPRMC,194516.000,A,3748.8010,N,12217.8603,W,0.10,61.68,111011,,,A*40
$GPRMC,194517.000,A,3748.8013,N,12217.8601,W,0.03,109.66,111011,,,A*73
$GPRMC,194518.000,A,3748.8016,N,12217.8600,W,0.09,140.86,111011,,,A*71
$GPRMC,194519.000,A,3748.8019,N,12217.8598,W,0.26,94.91,111011,,,A*4E
$GPRMC,194520.000,A,3748.8021,N,12217.8592,W,0.48,118.10,111011,,,A*71
$GPRMC,194521.000,A,3748.8021,N,12217.8584,W,0.73,194.32,111011,,,A*7B
$GPRMC,194522.000,A,3748.8018,N,12217.8587,W,0.61,206.86,111011,,,A*75
$GPRMC,194523.000,A,3748.8017,N,12217.8584,W,1.15,122.44,111011,,,A*71
$GPRMC,194524.000,A,3748.8011,N,12217.8575,W,1.26,116.57,111011,,,A*7B
$GPRMC,194525.000,A,3748.8008,N,12217.8564,W,1.26,115.06,111011,,,A*75
$GPRMC,194526.000,A,3748.8003,N,12217.8565,W,0.64,81.57,111011,,,A*43
$GPRMC,194527.000,A,3748.7997,N,12217.8564,W,0.18,344.17,111011,,,A*7D
$GPRMC,194528.000,A,3748.7995,N,12217.8558,W,0.23,111.25,111011,,,A*74
$GPRMC,194529.000,A,3748.7993,N,12217.8553,W,0.04,341.97,111011,,,A*73
$GPRMC,194530.000,A,3748.7991,N,12217.8548,W,0.14,124.96,111011,,,A*72
$GPRMC,194531.000,A,3748.7989,N,12217.8542,W,0.65,108.64,111011,,,A*75
$GPRMC,194532.000,A,3748.7985,N,12217.8536,W,1.48,103.81,111011,,,A*77
$GPRMC,194533.000,A,3748.7979,N,12217.8532,W,1.53,104.77,111011,,,A*75
$GPRMC,194534.000,A,3748.7974,N,12217.8532,W,1.84,126.41,111011,,,A*70
$GPRMC,194535.000,A,3748.7970,N,12217.8530,W,2.14,122.43,111011,,,A*7B
$GPRMC,194536.000,A,3748.7960,N,12217.8531,W,1.70,126.19,111011,,,A*72
$GPRMC,194537.000,A,3748.7944,N,12217.8532,W,2.12,132.43,111011,,,A*7B
$GPRMC,194538.000,A,3748.7937,N,12217.8530,W,1.93,129.03,111011,,,A*76
$GPRMC,194539.000,A,3748.7928,N,12217.8525,W,1.88,113.55,111011,,,A*7D
$GPRMC,194540.000,A,3748.7925,N,12217.8517,W,1.88,120.81,111011,,,A*76
$GPRMC,194541.000,A,3748.7918,N,12217.8512,W,1.57,122.99,111011,,,A*75
$GPRMC,194542.000,A,3748.7915,N,12217.8505,W,1.64,118.51,111011,,,A*70
$GPRMC,194543.000,A,3748.7915,N,12217.8501,W,1.77,117.24,111011,,,A*7A
$GPRMC,194544.000,A,3748.7914,N,12217.8494,W,1.70,114.19,111011,,,A*7B
$GPRMC,194545.000,A,3748.7917,N,12217.8492,W,1.13,98.81,111011,,,A*4E
$GPRMC,194546.000,A,3748.7916,N,12217.8487,W,1.55,103.23,111011,,,A*71
$GPRMC,194547.000,A,3748.7916,N,12217.8483,W,1.96,94.73,111011,,,A*41
$GPRMC,194548.000,A,3748.7916,N,12217.8477,W,1.53,81.81,111011,,,A*45
$GPRMC,194549.000,A,3748.7917,N,12217.8471,W,0.79,90.68,111011,,,A*4D
$GPRMC,194550.000,A,3748.7923,N,12217.8471,W,0.45,305.10,111011,,,A*7D
$GPRMC,194551.000,A,3748.7925,N,12217.8471,W,0.06,8.09,111011,,,A*7B
$GPRMC,194552.000,A,3748.7927,N,12217.8472,W,0.23,307.91,111011,,,A*73
$GPRMC,194553.000,A,3748.7929,N,12217.8474,W,0.29,336.54,111011,,,A*7B
$GPRMC,194554.000,A,3748.7929,N,12217.8472,W,0.01,323.62,111011,,,A*71
$GPRMC,194555.000,A,3748.7929,N,12217.8470,W,0.33,73.82,111011,,,A*4B
$GPRMC,194556.000,A,3748.7927,N,12217.8468,W,0.47,140.13,111011,,,A*75
$GPRMC,194557.000,A,3748.7925,N,12217.8464,W,0.86,133.14,111011,,,A*74
$GPRMC,194558.000,A,3748.7922,N,12217.8460,W,1.30,102.24,111011,,,A*75
$GPRMC,194559.000,A,3748.7921,N,12217.8460,W,1.43,79.28,111011,,,A*42
$GPRMC,194600.000,A,3748.7920,N,12217.8453,W,1.98,89.43,111011,,,A*48
$GPRMC,194601.000,A,3748.7915,N,12217.8446,W,0.97,96.43,111011,,,A*4B
$GPRMC,194602.000,A,3748.7907,N,12217.8439,W,0.66,108.59,111011,,,A*70
$GPRMC,194603.000,A,3748.7904,N,12217.8435,W,0.32,70.18,111011,,,A*44
$GPRMC,194604.000,A,3748.7902,N,12217.8434,W,0.20,351.73,111011,,,A*7A
$GPRMC,194605.000,A,3748.7906,N,12217.8433,W,0.74,77.17,111011,,,A*4C
$GPRMC,194606.000,A,3748.7910,N,12217.8430,W,1.26,77.73,111011,,,A*4F
$GPRMC,194607.000,A,3748.7906,N,12217.8426,W,1.82,137.93,111011,,,A*7B
$GPRMC,194608.000,A,3748.7902,N,12217.8421,W,2.16,137.94,111011,,,A*7E
$GPRMC,194609.000,A,3748.7898,N,12217.8414,W,2.34,126.38,111011,,,A*7D
$GPRMC,194610.000,A,3748.7895,N,12217.8407,W,2.54,118.67,111011,,,A*7B
$GPRMC,194611.000,A,3748.7890,N,12217.8402,W,2.28,126.22,111011,,,A*7D
$GPRMC,194612.000,A,3748.7885,N,12217.8397,W,2.45,127.63,111011,,,A*7E
$GPRMC,194613.000,A,3748.7883,N,12217.8391,W,2.09,125.12,111011,,,A*73
$GPRMC,194614.000,A,3748.7880,N,12217.8383,W,1.95,110.16,111011,,,A*70
$GPRMC,194615.000,A,3748.7880,N,12217.8376,W,1.73,119.46,111011,,,A*7F
$GPRMC,194616.000,A,3748.7878,N,12217.8370,W,2.13,132.42,111011,,,A*75
$GPRMC,194617.000,A,3748.7875,N,12217.8362,W,2.38,129.75,111011,,,A*7D
$GPRMC,194618.000,A,3748.7871,N,12217.8356,W,2.31,126.96,111011,,,A*7A
$GPRMC,194619.000,A,3748.7866,N,12217.8348,W,2.04,112.99,111011,,,A*7C
$GPRMC,194620.000,A,3748.7863,N,12217.8342,W,1.74,104.91,111011,,,A*72
$GPRMC,194621.000,A,3748.7855,N,12217.8335,W,2.02,112.90,111011,,,A*72
$GPRMC,194622.000,A,3748.7852,N,12217.8331,W,1.96,132.71,111011,,,A*71
$GPRMC,194623.000,A,3748.7847,N,12217.8324,W,2.43,131.67,111011,,,A*7F
$GPRMC,194624.000,A,3748.7841,N,12217.8316,W,2.21,117.20,111011,,,A*7C
$GPRMC,194625.000,A,3748.7839,N,12217.8309,W,1.98,106.92,111011,,,A*74
$GPRMC,194626.000,A,3748.7838,N,12217.8302,W,1.88,99.21,111011,,,A*43
$GPRMC,194627.000,A,3748.7836,N,12217.8295,W,1.98,112.56,111011,,,A*70
$GPRMC,194628.000,A,3748.7833,N,12217.8290,W,2.05,126.69,111011,,,A*73
$GPRMC,194629.000,A,3748.7831,N,12217.8283,W,2.02,119.15,111011,,,A*72
$GPRMC,194630.000,A,3748.7829,N,12217.8274,W,2.22,109.42,111011,,,A*7A
$GPRMC,194631.000,A,3748.7828,N,12217.8264,W,2.22,107.23,111011,,,A*72
$GPRMC,194632.000,A,3748.7826,N,12217.8256,W,2.02,96.86,111011,,,A*4A
$GPRMC,194633.000,A,3748.7823,N,12217.8249,W,1.84,91.33,111011,,,A*44
$GPRMC,194634.000,A,3748.7819,N,12217.8241,W,1.76,105.05,111011,,,A*76
$GPRMC,194635.000,A,3748.7814,N,12217.8233,W,1.99,109.48,111011,,,A*7B
$GPRMC,194636.000,A,3748.7809,N,12217.8227,W,2.12,119.33,111011,,,A*7C
$GPRMC,194637.000,A,3748.7806,N,12217.8222,W,1.88,108.83,111011,,,A*7C
$GPRMC,194638.000,A,3748.7801,N,12217.8218,W,1.96,112.96,111011,,,A*7D
$GPRMC,194639.000,A,3748.7798,N,12217.8212,W,2.05,114.26,111011,,,A*7D
$GPRMC,194640.000,A,3748.7795,N,12217.8205,W,2.18,120.57,111011,,,A*75
$GPRMC,194641.000,A,3748.7789,N,12217.8198,W,2.20,113.83,111011,,,A*7C
$GPRMC,194642.000,A,3748.7784,N,12217.8191,W,2.03,123.12,111011,,,A*71
$GPRMC,194643.000,A,3748.7778,N,12217.8182,W,1.93,116.79,111011,,,A*70
$GPRMC,194644.000,A,3748.7771,N,12217.8173,W,1.90,106.48,111011,,,A*70
$GPRMC,194645.000,A,3748.7764,N,12217.8165,W,2.11,104.61,111011,,,A*71
$GPRMC,194646.000,A,3748.7757,N,12217.8158,W,2.47,114.48,111011,,,A*75
$GPRMC,194647.000,A,3748.7750,N,12217.8150,W,2.37,116.38,111011,,,A*79
$GPRMC,194648.000,A,3748.7744,N,12217.8141,W,2.38,121.80,111011,,,A*7B
$GPRMC,194649.000,A,3748.7735,N,12217.8138,W,2.44,129.70,111011,,,A*7E
$GPRMC,194650.000,A,3748.7726,N,12217.8134,W,2.19,127.26,111011,,,A*7D
$GPRMC,194651.000,A,3748.7725,N,12217.8130,W,1.82,92.24,111011,,,A*47
$GPRMC,194652.000,A,3748.7725,N,12217.8125,W,1.70,95.60,111011,,,A*4A
$GPRMC,194653.000,A,3748.7717,N,12217.8117,W,1.71,116.64,111011,,,A*74
$GPRMC,194654.000,A,3748.7712,N,12217.8110,W,1.61,88.74,111011,,,A*47
$GPRMC,194655.000,A,3748.7707,N,12217.8101,W,1.67,109.14,111011,,,A*7A
$GPRMC,194656.000,A,3748.7701,N,12217.8093,W,1.57,104.46,111011,,,A*7C
$GPRMC,194657.000,A,3748.7692,N,12217.8083,W,1.95,116.95,111011,,,A*74
$GPRMC,194658.000,A,3748.7690,N,12217.8076,W,1.77,118.74,111011,,,A*7E
$GPRMC,194659.000,A,3748.7688,N,12217.8070,W,1.96,116.03,111011,,,A*71
$GPRMC,194700.000,A,3748.7687,N,12217.8061,W,1.82,98.18,111011,,,A*4B
$GPRMC,194701.000,A,3748.7686,N,12217.8054,W,2.01,107.22,111011,,,A*7B
$GPRMC,194702.000,A,3748.7687,N,12217.8049,W,1.83,115.01,111011,,,A*7E
$GPRMC,194703.000,A,3748.7685,N,12217.8044,W,2.05,120.88,111011,,,A*7A
$GPRMC,194704.000,A,3748.7683,N,12217.8036,W,2.22,121.25,111011,,,A*7D
$GPRMC,194705.000,A,3748.7681,N,12217.8028,W,2.31,119.76,111011,,,A*7E
$GPRMC,194706.000,A,3748.7678,N,12217.8019,W,2.23,115.16,111011,,,A*70
$GPRMC,194707.000,A,3748.7675,N,12217.8010,W,2.47,120.08,111011,,,A*7E
$GPRMC,194708.000,A,3748.7672,N,12217.8002,W,2.21,123.91,111011,,,A*76
$GPRMC,194709.000,A,3748.7672,N,12217.7996,W,2.13,118.39,111011,,,A*77
$GPRMC,194710.000,A,3748.7671,N,12217.7990,W,2.49,125.04,111011,,,A*75
$GPRMC,194711.000,A,3748.7669,N,12217.7980,W,2.56,118.26,111011,,,D*79
$GPRMC,194712.000,A,3748.7666,N,12217.7971,W,2.43,117.31,111011,,,D*76
$GPRMC,194713.000,A,3748.7663,N,12217.7962,W,2.59,118.25,111011,,,D*71
$GPRMC,194714.000,A,3748.7659,N,12217.7951,W,2.41,106.03,111011,,,D*7D
$GPRMC,194715.000,A,3748.7658,N,12217.7942,W,2.09,98.64,111011,,,D*44
$GPRMC,194716.000,A,3748.7652,N,12217.7930,W,2.29,104.54,111011,,,D*7D
$GPRMC,194717.000,A,3748.7650,N,12217.7920,W,1.96,98.21,111011,,,D*4E
$GPRMC,194718.000,A,3748.7648,N,12217.7909,W,1.61,84.52,111011,,,D*42
$GPRMC,194719.000,A,3748.7650,N,12217.7901,W,1.43,86.76,111011,,,D*46
$GPRMC,194720.000,A,3748.7643,N,12217.7891,W,2.01,110.50,111011,,,D*79
$GPRMC,194721.000,A,3748.7637,N,12217.7881,W,1.84,105.06,111011,,,D*73
$GPRMC,194722.000,A,3748.7634,N,12217.7876,W,1.64,110.05,111011,,,D*72
$GPRMC,194723.000,A,3748.7629,N,12217.7870,W,1.74,121.78,111011,,,D*70
$GPRMC,194724.000,A,3748.7625,N,12217.7866,W,2.24,120.91,111011,,,D*7C
$GPRMC,194725.000,A,3748.7620,N,12217.7861,W,1.94,117.22,111011,,,D*7B
$GPRMC,194726.000,A,3748.7619,N,12217.7861,W,0.78,153.29,111011,,,D*7A
$GPRMC,194727.000,A,3748.7613,N,12217.7856,W,0.97,134.24,111011,,,D*78
$GPRMC,194728.000,A,3748.7606,N,12217.7852,W,1.27,130.10,111011,,,D*7E
$GPRMC,194729.000,A,3748.7596,N,12217.7849,W,1.65,131.20,111011,,,D*7B
$GPRMC,194730.000,A,3748.7588,N,12217.7845,W,2.21,114.23,111011,,,D*77
$GPRMC,194731.000,A,3748.7577,N,12217.7838,W,2.27,124.08,111011,,,D*70
$GPRMC,194732.000,A,3748.7570,N,12217.7831,W,2.06,126.87,111011,,,D*7B
$GPRMC,194733.000,A,3748.7567,N,12217.7825,W,1.93,125.18,111011,,,D*73
$GPRMC,194734.000,A,3748.7559,N,12217.7817,W,1.65,107.17,111011,,,D*7E
$GPRMC,194735.000,A,3748.7549,N,12217.7809,W,2.09,119.15,111011,,,D*75
$GPRMC,194736.000,A,3748.7541,N,12217.7802,W,1.86,111.89,111011,,,D*7C
$GPRMC,194737.000,A,3748.7528,N,12217.7796,W,2.57,127.62,111011,,,D*7F
$GPRMC,194738.000,A,3748.7521,N,12217.7788,W,2.48,131.91,111011,,,D*73
$GPRMC,194739.000,A,3748.7516,N,12217.7784,W,2.17,125.77,111011,,,D*7D
$GPRMC,194740.000,A,3748.7512,N,12217.7779,W,1.75,118.05,111011,,,D*79
$GPRMC,194741.000,A,3748.7507,N,12217.7774,W,1.78,135.75,111011,,,D*74
$GPRMC,194742.000,A,3748.7504,N,12217.7769,W,1.42,111.80,111011,,,D*7D
$GPRMC,194743.000,A,3748.7502,N,12217.7763,W,1.96,119.70,111011,,,D*7E
$GPRMC,194744.000,A,3748.7505,N,12217.7759,W,1.54,116.83,111011,,,D*7A
$GPRMC,194745.000,A,3748.7506,N,12217.7749,W,1.72,103.37,111011,,,D*76
$GPRMC,194746.000,A,3748.7504,N,12217.7741,W,1.72,103.69,111011,,,D*74
$GPRMC,194747.000,A,3748.7505,N,12217.7738,W,1.39,99.73,111011,,,D*4C
$GPRMC,194748.000,A,3748.7504,N,12217.7733,W,1.89,120.12,111011,,,D*76
$GPRMC,194749.000,A,3748.7502,N,12217.7726,W,2.20,125.88,111011,,,D*73
$GPRMC,194750.000,A,3748.7501,N,12217.7719,W,1.95,113.04,111011,,,D*78
$GPRMC,194751.000,A,3748.7501,N,12217.7713,W,1.55,110.04,111011,,,D*7C
$GPRMC,194752.000,A,3748.7497,N,12217.7704,W,1.62,95.67,111011,,,D*4A
$GPRMC,194753.000,A,3748.7493,N,12217.7695,W,2.01,101.34,111011,,,D*7A
$GPRMC,194754.000,A,3748.7490,N,12217.7687,W,1.78,115.23,111011,,,D*73
$GPRMC,194755.000,A,3748.7482,N,12217.7679,W,1.80,123.74,111011,,,D*70
$GPRMC,194756.000,A,3748.7476,N,12217.7672,W,1.43,129.41,111011,,,D*70
$GPRMC,194757.000,A,3748.7467,N,12217.7665,W,1.93,120.17,111011,,,D*70
$GPRMC,194758.000,A,3748.7461,N,12217.7657,W,2.06,123.77,111011,,,D*72
$GPRMC,194759.000,A,3748.7456,N,12217.7650,W,1.76,118.73,111011,,,D*78
$GPRMC,194800.000,A,3748.7458,N,12217.7645,W,1.76,114.84,111011,,,D*75
$GPRMC,194801.000,A,3748.7452,N,12217.7644,W,1.44,131.24,111011,,,D*73
$GPRMC,194802.000,A,3748.7445,N,12217.7643,W,1.20,147.95,111011,,,D*78
$GPRMC,194803.000,A,3748.7439,N,12217.7637,W,1.16,119.48,111011,,,D*7F
$GPRMC,194804.000,A,3748.7432,N,12217.7627,W,1.84,91.86,111011,,,D*4A
$GPRMC,194805.000,A,3748.7430,N,12217.7618,W,1.79,84.96,111011,,,D*42
$GPRMC,194806.000,A,3748.7429,N,12217.7613,W,1.63,97.98,111011,,,D*45
$GPRMC,194807.000,A,3748.7429,N,12217.7597,W,1.51,97.52,111011,,,D*4C
$GPRMC,194808.000,A,3748.7428,N,12217.7581,W,2.12,107.08,111011,,,D*76
$GPRMC,194809.000,A,3748.7426,N,12217.7566,W,2.17,106.36,111011,,,D*79
$GPRMC,194810.000,A,3748.7423,N,12217.7555,W,1.94,109.07,111011,,,D*71
$GPRMC,194811.000,A,3748.7421,N,12217.7545,W,1.85,106.08,111011,,,D*73
$GPRMC,194812.000,A,3748.7420,N,12217.7535,W,1.85,109.17,111011,,,D*77
$GPRMC,194813.000,A,3748.7418,N,12217.7529,W,1.48,100.03,111011,,,D*7D
$GPRMC,194814.000,A,3748.7417,N,12217.7520,W,1.69,77.27,111011,,,D*48
$GPRMC,194815.000,A,3748.7417,N,12217.7515,W,1.65,85.41,111011,,,D*4E
$GPRMC,194816.000,A,3748.7413,N,12217.7506,W,1.40,84.93,111011,,,D*42
$GPRMC,194817.000,A,3748.7413,N,12217.7500,W,1.68,88.80,111011,,,D*41
$GPRMC,194818.000,A,3748.7412,N,12217.7494,W,1.61,76.60,111011,,,D*45
$GPRMC,194819.000,A,3748.7409,N,12217.7486,W,1.91,84.80,111011,,,D*41
$GPRMC,194820.000,A,3748.7405,N,12217.7478,W,1.72,101.01,111011,,,D*7E
$GPRMC,194821.000,A,3748.7406,N,12217.7475,W,1.29,105.93,111011,,,D*70
$GPRMC,194822.000,A,3748.7403,N,12217.7471,W,1.78,112.38,111011,,,D*71
$GPRMC,194823.000,A,3748.7395,N,12217.7463,W,2.00,103.27,111011,,,D*79
$GPRMC,194824.000,A,3748.7392,N,12217.7456,W,1.61,110.84,111011,,,D*70
$GPRMC,194825.000,A,3748.7386,N,12217.7451,W,1.45,105.53,111011,,,D*7B
$GPRMC,194826.000,A,3748.7382,N,12217.7445,W,1.35,111.59,111011,,,D*71
$GPRMC,194827.000,A,3748.7380,N,12217.7439,W,1.79,118.51,111011,,,D*70
$GPRMC,194828.000,A,3748.7381,N,12217.7428,W,1.98,112.63,111011,,,D*7A
$GPRMC,194829.000,A,3748.7378,N,12217.7420,W,2.03,108.46,111011,,,D*78
$GPRMC,194830.000,A,3748.7376,N,12217.7415,W,1.68,116.75,111011,,,D*79
$GPRMC,194831.000,A,3748.7374,N,12217.7408,W,1.71,117.84,111011,,,D*71
$GPRMC,194832.000,A,3748.7371,N,12217.7402,W,1.45,115.62,111011,,,D*70
$GPRMC,194833.000,A,3748.7368,N,12217.7396,W,1.18,110.93,111011,,,D*70
$GPRMC,194834.000,A,3748.7363,N,12217.7389,W,1.36,74.71,111011,,,D*41
$GPRMC,194835.000,A,3748.7357,N,12217.7383,W,1.42,101.71,111011,,,D*7D
$GPRMC,194836.000,A,3748.7361,N,12217.7372,W,2.23,109.77,111011,,,D*7F
$GPRMC,194837.000,A,3748.7356,N,12217.7364,W,1.68,137.77,111011,,,D*7C
$GPRMC,194838.000,A,3748.7349,N,12217.7357,W,2.30,127.09,111011,,,D*7B
$GPRMC,194839.000,A,3748.7340,N,12217.7346,W,2.27,121.08,111011,,,D*72
$GPRMC,194840.000,A,3748.7333,N,12217.7336,W,1.84,112.94,111011,,,D*70
$GPRMC,194841.000,A,3748.7328,N,12217.7329,W,1.96,117.70,111011,,,D*79
$GPRMC,194842.000,A,3748.7330,N,12217.7322,W,1.72,95.89,111011,,,D*4F
$GPRMC,194843.000,A,3748.7324,N,12217.7313,W,1.74,115.23,111011,,,D*76
$GPRMC,194844.000,A,3748.7319,N,12217.7305,W,1.65,114.28,111011,,,D*72
$GPRMC,194845.000,A,3748.7314,N,12217.7296,W,1.86,116.66,111011,,,D*70
$GPRMC,194846.000,A,3748.7307,N,12217.7286,W,1.86,114.96,111011,,,D*7D
$GPRMC,194847.000,A,3748.7300,N,12217.7277,W,2.04,112.78,111011,,,D*7A
$GPRMC,194848.000,A,3748.7292,N,12217.7269,W,1.75,112.05,111011,,,A*7A
$GPRMC,194849.000,A,3748.7288,N,12217.7264,W,1.44,107.15,111011,,,A*7A
$GPRMC,194850.000,A,3748.7282,N,12217.7257,W,1.45,100.59,111011,,,A*76
$GPRMC,194851.000,A,3748.7280,N,12217.7251,W,1.41,84.90,111011,,,A*4F
$GPRMC,194852.000,A,3748.7281,N,12217.7250,W,1.56,61.69,111011,,,A*47
$GPRMC,194853.000,A,3748.7279,N,12217.7244,W,1.78,91.10,111011,,,D*4C
$GPRMC,194854.000,A,3748.7281,N,12217.7237,W,1.75,85.42,111011,,,D*47
$GPRMC,194855.000,A,3748.7282,N,12217.7230,W,1.61,90.19,111011,,,D*4D
$GPRMC,194856.000,A,3748.7278,N,12217.7220,W,1.72,91.61,111011,,,D*46
$GPRMC,194857.000,A,3748.7272,N,12217.7211,W,1.73,110.96,111011,,,D*7E
$GPRMC,194858.000,A,3748.7267,N,12217.7199,W,1.83,111.67,111011,,,D*76
$GPRMC,194859.000,A,3748.7263,N,12217.7191,W,2.07,114.78,111011,,,D*7F
$GPRMC,194900.000,A,3748.7259,N,12217.7183,W,1.73,114.72,111011,,,D*72
$GPRMC,194901.000,A,3748.7256,N,12217.7175,W,1.55,101.76,111011,,,D*71
$GPRMC,194902.000,A,3748.7258,N,12217.7169,W,2.09,63.63,111011,,,D*4A
$GPRMC,194903.000,A,3748.7263,N,12217.7155,W,2.27,45.06,111011,,,D*47
$GPRMC,194904.000,A,3748.7272,N,12217.7143,W,2.42,26.61,111011,,,D*40
$GPRMC,194905.000,A,3748.7279,N,12217.7139,W,2.35,24.52,111011,,,A*40
$GPRMC,194906.000,A,3748.7283,N,12217.7128,W,2.30,31.50,111011,,,A*45
$GPRMC,194907.000,A,3748.7288,N,12217.7116,W,2.48,32.52,111011,,,D*49
$GPRMC,194908.000,A,3748.7293,N,12217.7105,W,2.70,29.65,111011,,,D*4B
$GPRMC,194909.000,A,3748.7299,N,12217.7097,W,2.60,31.91,111011,,,D*49
$GPRMC,194910.000,A,3748.7306,N,12217.7091,W,2.66,29.90,111011,,,D*4E
$GPRMC,194911.000,A,3748.7312,N,12217.7085,W,2.48,21.92,111011,,,D*49
$GPRMC,194912.000,A,3748.7318,N,12217.7080,W,2.39,22.62,111011,,,D*4F
$GPRMC,194913.000,A,3748.7325,N,12217.7076,W,2.40,26.10,111011,,,D*46
$GPRMC,194914.000,A,3748.7332,N,12217.7073,W,2.43,23.31,111011,,,D*47
$GPRMC,194915.000,A,3748.7341,N,12217.7069,W,2.59,32.38,111011,,,D*4B
$GPRMC,194916.000,A,3748.7347,N,12217.7064,W,2.53,30.74,111011,,,D*43
$GPRMC,194917.000,A,3748.7355,N,12217.7060,W,2.73,36.40,111011,,,D*46
$GPRMC,194918.000,A,3748.7361,N,12217.7053,W,2.42,23.62,111011,,,D*48
$GPRMC,194919.000,A,3748.7368,N,12217.7046,W,2.39,18.28,111011,,,D*4E
$GPRMC,194920.000,A,3748.7373,N,12217.7040,W,2.44,31.34,111011,,,D*44
$GPRMC,194921.000,A,3748.7378,N,12217.7036,W,2.32,30.51,111011,,,D*4C
$GPRMC,194922.000,A,3748.7382,N,12217.7031,W,2.51,33.39,111011,,,D*45
$GPRMC,194923.000,A,3748.7387,N,12217.7027,W,2.44,31.64,111011,,,D*48
$GPRMC,194924.000,A,3748.7396,N,12217.7028,W,2.46,19.75,111011,,,D*48
$GPRMC,194925.000,A,3748.7405,N,12217.7026,W,2.32,20.83,111011,,,D*4A
$GPRMC,194926.000,A,3748.7411,N,12217.7023,W,1.99,13.76,111011,,,D*41
$GPRMC,194927.000,A,3748.7413,N,12217.7018,W,1.00,26.44,111011,,,D*4D
$GPRMC,194928.000,A,3748.7414,N,12217.7014,W,0.86,82.04,111011,,,D*4C
$GPRMC,194929.000,A,3748.7417,N,12217.7012,W,1.59,34.47,111011,,,D*41
$GPRMC,194930.000,A,3748.7423,N,12217.7010,W,2.04,20.84,111011,,,D*4D
$GPRMC,194931.000,A,3748.7429,N,12217.7008,W,2.05,25.34,111011,,,D*40
$GPRMC,194932.000,A,3748.7434,N,12217.7001,W,2.50,21.05,111011,,,D*40
$GPRMC,194933.000,A,3748.7440,N,12217.6997,W,2.32,17.68,111011,,,D*4F
$GPRMC,194934.000,A,3748.7445,N,12217.6993,W,2.22,26.41,111011,,,D*41
$GPRMC,194935.000,A,3748.7452,N,12217.6989,W,2.18,25.88,111011,,,D*42
$GPRMC,194936.000,A,3748.7458,N,12217.6982,W,2.39,33.09,111011,,,D*4D
$GPRMC,194937.000,A,3748.7459,N,12217.6982,W,2.10,35.08,111011,,,D*41
$GPRMC,194938.000,A,3748.7466,N,12217.6977,W,2.55,35.18,111011,,,D*48
$GPRMC,194939.000,A,3748.7474,N,12217.6971,W,2.07,28.48,111011,,,D*42
$GPRMC,194940.000,A,3748.7481,N,12217.6966,W,2.05,36.66,111011,,,D*41
$GPRMC,194941.000,A,3748.7493,N,12217.6960,W,2.28,28.18,111011,,,D*4C
$GPRMC,194942.000,A,3748.7499,N,12217.6956,W,2.04,35.30,111011,,,D*48
$GPRMC,194943.000,A,3748.7506,N,12217.6949,W,2.58,33.33,111011,,,D*4C
$GPRMC,194944.000,A,3748.7509,N,12217.6939,W,2.71,39.93,111011,,,D*48
$GPRMC,194945.000,A,3748.7514,N,12217.6932,W,2.63,32.74,111011,,,D*4F
$GPRMC,194946.000,A,3748.7525,N,12217.6924,W,2.67,23.11,111011,,,D*4E
$GPRMC,194947.000,A,3748.7534,N,12217.6923,W,2.38,23.53,111011,,,D*44
$GPRMC,194948.000,A,3748.7540,N,12217.6920,W,2.30,21.63,111011,,,D*42
$GPRMC,194949.000,A,3748.7546,N,12217.6919,W,2.37,20.67,111011,,,D*4D
$GPRMC,194950.000,A,3748.7553,N,12217.6913,W,2.45,30.76,111011,,,D*4F
$GPRMC,194951.000,A,3748.7560,N,12217.6905,W,2.39,30.14,111011,,,D*46
$GPRMC,194952.000,A,3748.7564,N,12217.6901,W,2.39,27.74,111011,,,D*45
$GPRMC,194953.000,A,3748.7569,N,12217.6895,W,2.27,25.75,111011,,,D*49
$GPRMC,194954.000,A,3748.7574,N,12217.6892,W,2.33,26.74,111011,,,A*47
$GPRMC,194955.000,A,3748.7580,N,12217.6888,W,2.17,28.71,111011,,,A*4B
$GPRMC,194956.000,A,3748.7585,N,12217.6884,W,2.34,28.86,111011,,,A*48
$GPRMC,194957.000,A,3748.7590,N,12217.6878,W,2.56,42.77,111011,,,A*48
$GPRMC,194958.000,A,3748.7597,N,12217.6873,W,2.70,37.61,111011,,,A*4A
$GPRMC,194959.000,A,3748.7604,N,12217.6870,W,2.71,25.46,111011,,,A*46
$GPRMC,195000.000,A,3748.7611,N,12217.6868,W,2.31,27.26,111011,,,A*4F
$GPRMC,195001.000,A,3748.7616,N,12217.6863,W,2.56,34.02,111011,,,A*47
$GPRMC,195002.000,A,3748.7622,N,12217.6858,W,2.29,36.48,111011,,,A*4F
$GPRMC,195003.000,A,3748.7624,N,12217.6850,W,2.21,40.43,111011,,,A*42
$GPRMC,195004.000,A,3748.7627,N,12217.6844,W,2.17,28.22,111011,,,A*4F
$GPRMC,195005.000,A,3748.7632,N,12217.6838,W,2.37,38.86,111011,,,A*4C
$GPRMC,195006.000,A,3748.7636,N,12217.6831,W,2.29,34.47,111011,,,A*4C
$GPRMC,195007.000,A,3748.7643,N,12217.6827,W,2.58,35.20,111011,,,A*4E
$GPRMC,195008.000,A,3748.7649,N,12217.6818,W,2.33,39.12,111011,,,A*47
$GPRMC,195009.000,A,3748.7655,N,12217.6814,W,2.02,26.04,111011,,,A*4C
$GPRMC,195010.000,A,3748.7660,N,12217.6812,W,1.88,23.58,111011,,,A*49
$GPRMC,195011.000,A,3748.7666,N,12217.6806,W,2.62,21.36,111011,,,A*46
$GPRMC,195012.000,A,3748.7674,N,12217.6803,W,2.37,28.40,111011,,,A*4B
$GPRMC,195013.000,A,3748.7681,N,12217.6801,W,2.47,21.91,111011,,,A*40
$GPRMC,195014.000,A,3748.7687,N,12217.6798,W,2.42,13.29,111011,,,A*49
$GPRMC,195015.000,A,3748.7693,N,12217.6795,W,2.32,18.50,111011,,,A*42
$GPRMC,195016.000,A,3748.7700,N,12217.6793,W,2.14,26.85,111011,,,A*4D
$GPRMC,195017.000,A,3748.7708,N,12217.6790,W,2.70,18.19,111011,,,A*4D
$GPRMC,195018.000,A,3748.7713,N,12217.6786,W,2.21,28.92,111011,,,A*4B
$GPRMC,195019.000,A,3748.7717,N,12217.6781,W,2.20,28.34,111011,,,A*44
$GPRMC,195020.000,A,3748.7721,N,12217.6776,W,2.00,30.67,111011,,,A*4E
$GPRMC,195021.000,A,3748.7730,N,12217.6775,W,2.13,27.29,111011,,,A*42
$GPRMC,195022.000,A,3748.7735,N,12217.6770,W,2.07,29.67,111011,,,A*40
$GPRMC,195023.000,A,3748.7739,N,12217.6763,W,2.11,24.42,111011,,,A*42
$GPRMC,195024.000,A,3748.7743,N,12217.6760,W,1.75,22.93,111011,,,A*40
$GPRMC,195025.000,A,3748.7746,N,12217.6755,W,1.30,22.05,111011,,,A*4C
$GPRMC,195026.000,A,3748.7751,N,12217.6752,W,1.35,24.08,111011,,,A*40
$GPRMC,195027.000,A,3748.7760,N,12217.6751,W,1.76,22.41,111011,,,A*4C
$GPRMC,195028.000,A,3748.7770,N,12217.6744,W,2.28,1.21,111011,,,A*79
$GPRMC,195029.000,A,3748.7778,N,12217.6745,W,1.67,354.49,111011,,,A*74
$GPRMC,195030.000,A,3748.7786,N,12217.6747,W,1.65,338.17,111011,,,A*7C
$GPRMC,195031.000,A,3748.7794,N,12217.6749,W,1.30,21.04,111011,,,A*49
$GPRMC,195032.000,A,3748.7804,N,12217.6746,W,1.98,41.81,111011,,,A*4A
$GPRMC,195033.000,A,3748.7807,N,12217.6739,W,1.78,43.88,111011,,,A*45
$GPRMC,195034.000,A,3748.7812,N,12217.6738,W,1.34,1.63,111011,,,A*7C
$GPRMC,195035.000,A,3748.7814,N,12217.6739,W,0.61,221.15,111011,,,A*7A
$GPRMC,195036.000,A,3748.7805,N,12217.6742,W,1.49,184.33,111011,,,A*76
$GPRMC,195037.000,A,3748.7801,N,12217.6741,W,0.43,148.85,111011,,,A*76
$GPRMC,195038.000,A,3748.7798,N,12217.6739,W,1.03,90.06,111011,,,A*43
$GPRMC,195039.000,A,3748.7788,N,12217.6742,W,0.46,127.17,111011,,,A*72
$GPRMC,195040.000,A,3748.7782,N,12217.6746,W,0.99,159.44,111011,,,A*7F
$GPRMC,195041.000,A,3748.7783,N,12217.6744,W,0.04,134.06,111011,,,A*74
$GPRMC,195042.000,A,3748.7784,N,12217.6741,W,0.26,31.31,111011,,,A*45
$GPRMC,195043.000,A,3748.7793,N,12217.6729,W,1.40,55.98,111011,,,A*4C
$GPRMC,195044.000,A,3748.7801,N,12217.6714,W,2.37,45.71,111011,,,A*44
$GPRMC,195045.000,A,3748.7806,N,12217.6709,W,2.21,24.01,111011,,,A*49
$GPRMC,195046.000,A,3748.7810,N,12217.6705,W,1.73,1.81,111011,,,A*7A
$GPRMC,195047.000,A,3748.7815,N,12217.6705,W,1.85,356.73,111011,,,A*7B
$GPRMC,195048.000,A,3748.7820,N,12217.6704,W,1.97,6.46,111011,,,A*70
$GPRMC,195049.000,A,3748.7825,N,12217.6702,W,2.13,20.14,111011,,,A*4E
$GPRMC,195050.000,A,3748.7830,N,12217.6699,W,2.22,23.34,111011,,,A*42
$GPRMC,195051.000,A,3748.7837,N,12217.6696,W,2.07,21.39,111011,,,A*43
$GPRMC,195052.000,A,3748.7845,N,12217.6692,W,2.23,26.49,111011,,,A*47
$GPRMC,195053.000,A,3748.7848,N,12217.6690,W,1.39,36.28,111011,,,A*47
$GPRMC,195054.000,A,3748.7853,N,12217.6686,W,1.55,42.34,111011,,,A*49
$GPRMC,195055.000,A,3748.7860,N,12217.6683,W,2.10,35.98,111011,,,A*49
$GPRMC,195056.000,A,3748.7866,N,12217.6676,W,2.08,35.82,111011,,,A*44
$GPRMC,195057.000,A,3748.7872,N,12217.6672,W,2.01,23.77,111011,,,A*40
$GPRMC,195058.000,A,3748.7877,N,12217.6669,W,1.94,17.27,111011,,,A*4D
$GPRMC,195059.000,A,3748.7881,N,12217.6668,W,1.90,17.45,111011,,,A*44
$GPRMC,195100.000,A,3748.7892,N,12217.6663,W,1.31,17.14,111011,,,A*4F
$GPRMC,195101.000,A,3748.7897,N,12217.6662,W,0.84,55.40,111011,,,A*42
$GPRMC,195102.000,A,3748.7900,N,12217.6658,W,1.21,42.20,111011,,,A*49
$GPRMC,195103.000,A,3748.7901,N,12217.6652,W,1.75,24.08,111011,,,A*48
$GPRMC,195104.000,A,3748.7906,N,12217.6644,W,1.89,44.23,111011,,,A*43
$GPRMC,195105.000,A,3748.7913,N,12217.6640,W,2.12,22.99,111011,,,A*42
$GPRMC,195106.000,A,3748.7922,N,12217.6639,W,1.31,11.73,111011,,,A*4B
$GPRMC,195107.000,A,3748.7922,N,12217.6641,W,0.40,185.09,111011,,,A*73
$GPRMC,195108.000,A,3748.7918,N,12217.6640,W,0.84,160.25,111011,,,A*79
$GPRMC,195109.000,A,3748.7924,N,12217.6630,W,1.86,73.74,111011,,,A*44
$GPRMC,195110.000,A,3748.7933,N,12217.6624,W,2.53,50.14,111011,,,A*43
$GPRMC,195111.000,A,3748.7940,N,12217.6619,W,2.40,36.90,111011,,,A*46
$GPRMC,195112.000,A,3748.7945,N,12217.6618,W,2.45,23.87,111011,,,A*46
$GPRMC,195113.000,A,3748.7953,N,12217.6618,W,2.35,14.64,111011,,,A*4E
$GPRMC,195114.000,A,3748.7960,N,12217.6617,W,2.30,19.88,111011,,,A*4C
$GPRMC,195115.000,A,3748.7966,N,12217.6612,W,2.21,26.02,111011,,,A*40
$GPRMC,195116.000,A,3748.7969,N,12217.6604,W,1.64,29.68,111011,,,A*4A
$GPRMC,195117.000,A,3748.7972,N,12217.6601,W,1.48,23.66,111011,,,D*4B
$GPRMC,195118.000,A,3748.7974,N,12217.6594,W,2.06,48.18,111011,,,D*40
$GPRMC,195119.000,A,3748.7977,N,12217.6589,W,2.06,29.27,111011,,,D*45
$GPRMC,195120.000,A,3748.7982,N,12217.6580,W,2.11,32.32,111011,,,D*44
$GPRMC,195121.000,A,3748.7981,N,12217.6578,W,1.85,38.20,111011,,,D*46
$GPRMC,195122.000,A,3748.7984,N,12217.6573,W,1.98,26.12,111011,,,D*49
$GPRMC,195123.000,A,3748.7986,N,12217.6565,W,2.46,28.20,111011,,,D*42
$GPRMC,195124.000,A,3748.7989,N,12217.6561,W,2.05,29.88,111011,,,D*4A
$GPRMC,195125.000,A,3748.7993,N,12217.6554,W,2.22,22.87,111011,,,D*47
$GPRMC,195126.000,A,3748.8002,N,12217.6552,W,1.98,20.77,111011,,,D*43
$GPRMC,195127.000,A,3748.8006,N,12217.6550,W,1.89,49.86,111011,,,D*45
$GPRMC,195128.000,A,3748.8004,N,12217.6544,W,1.94,54.13,111011,,,D*41
$GPRMC,195129.000,A,3748.8006,N,12217.6537,W,2.47,35.59,111011,,,D*42
$GPRMC,195130.000,A,3748.8008,N,12217.6530,W,2.10,30.64,111011,,,D*4A
$GPRMC,195131.000,A,3748.8014,N,12217.6524,W,2.20,37.60,111011,,,D*43
$GPRMC,195132.000,A,3748.8025,N,12217.6514,W,2.74,29.00,111011,,,D*49
$GPRMC,195133.000,A,3748.8032,N,12217.6509,W,2.49,27.94,111011,,,D*4F
$GPRMC,195134.000,A,3748.8040,N,12217.6505,W,2.79,25.62,111011,,,D*49
$GPRMC,195135.000,A,3748.8045,N,12217.6499,W,2.24,38.77,111011,,,D*49
$GPRMC,195136.000,A,3748.8050,N,12217.6492,W,2.12,40.16,111011,,,D*48
$GPRMC,195137.000,A,3748.8055,N,12217.6486,W,1.87,25.56,111011,,,D*41
$GPRMC,195138.000,A,3748.8055,N,12217.6483,W,1.70,43.66,111011,,,D*40
$GPRMC,195139.000,A,3748.8056,N,12217.6476,W,2.12,48.90,111011,,,D*4D
$GPRMC,195140.000,A,3748.8057,N,12217.6467,W,1.66,39.52,111011,,,D*4A
$GPRMC,195141.000,A,3748.8062,N,12217.6458,W,1.57,45.17,111011,,,D*49
$GPRMC,195142.000,A,3748.8071,N,12217.6446,W,2.12,42.67,111011,,,D*45
$GPRMC,195143.000,A,3748.8077,N,12217.6438,W,2.54,36.09,111011,,,D*42
$GPRMC,195144.000,A,3748.8084,N,12217.6431,W,2.49,33.35,111011,,,D*46
$GPRMC,195145.000,A,3748.8093,N,12217.6423,W,2.60,37.08,111011,,,D*43
$GPRMC,195146.000,A,3748.8103,N,12217.6421,W,2.23,16.50,111011,,,D*43
$GPRMC,195147.000,A,3748.8111,N,12217.6422,W,2.07,18.90,111011,,,D*46
$GPRMC,195148.000,A,3748.8118,N,12217.6420,W,2.79,20.32,111011,,,D*48
$GPRMC,195149.000,A,3748.8126,N,12217.6411,W,3.05,23.08,111011,,,D*46
$GPRMC,195150.000,A,3748.8136,N,12217.6402,W,3.21,23.68,111011,,,D*4D
$GPRMC,195151.000,A,3748.8150,N,12217.6396,W,2.93,17.53,111011,,,D*41
$GPRMC,195152.000,A,3748.8153,N,12217.6393,W,2.52,25.57,111011,,,D*4C
$GPRMC,195153.000,A,3748.8160,N,12217.6390,W,2.14,29.75,111011,,,D*40
$GPRMC,195154.000,A,3748.8168,N,12217.6389,W,2.16,12.43,111011,,,D*48
$GPRMC,195155.000,A,3748.8173,N,12217.6391,W,1.78,19.52,111011,,,D*4A
$GPRMC,195156.000,A,3748.8175,N,12217.6392,W,1.70,20.34,111011,,,D*4E
$GPRMC,195157.000,A,3748.8181,N,12217.6392,W,2.44,14.46,111011,,,D*42
$GPRMC,195158.000,A,3748.8188,N,12217.6391,W,1.89,21.51,111011,,,D*45
$GPRMC,195159.000,A,3748.8189,N,12217.6390,W,1.64,19.40,111011,,,D*4C
$GPRMC,195200.000,A,3748.8190,N,12217.6385,W,2.19,34.76,111011,,,D*4C
$GPRMC,195201.000,A,3748.8197,N,12217.6381,W,2.44,28.15,111011,,,D*4E
$GPRMC,195202.000,A,3748.8205,N,12217.6375,W,2.68,38.87,111011,,,D*4A
$GPRMC,195203.000,A,3748.8209,N,12217.6372,W,1.97,27.07,111011,,,D*45
$GPRMC,195204.000,A,3748.8209,N,12217.6370,W,1.70,23.65,111011,,,D*49
$GPRMC,195205.000,A,3748.8216,N,12217.6366,W,1.58,20.04,111011,,,D*4F
$GPRMC,195206.000,A,3748.8223,N,12217.6364,W,2.63,14.73,111011,,,D*44
$GPRMC,195207.000,A,3748.8229,N,12217.6358,W,2.92,23.97,111011,,,D*40
$GPRMC,195208.000,A,3748.8232,N,12217.6349,W,2.10,34.03,111011,,,D*44
$GPRMC,195209.000,A,3748.8238,N,12217.6343,W,2.33,19.12,111011,,,D*4B
$GPRMC,195210.000,A,3748.8243,N,12217.6333,W,2.65,36.60,111011,,,D*43
$GPRMC,195211.000,A,3748.8248,N,12217.6327,W,2.39,31.46,111011,,,D*46
$GPRMC,195212.000,A,3748.8254,N,12217.6320,W,2.58,36.39,111011,,,D*47
$GPRMC,195213.000,A,3748.8260,N,12217.6314,W,2.66,21.23,111011,,,D*46
$GPRMC,195214.000,A,3748.8267,N,12217.6309,W,2.43,35.99,111011,,,D*49
$GPRMC,195215.000,A,3748.8279,N,12217.6304,W,2.11,41.76,111011,,,D*4F
$GPRMC,195216.000,A,3748.8285,N,12217.6298,W,2.31,38.39,111011,,,D*4C
$GPRMC,195217.000,A,3748.8288,N,12217.6291,W,2.25,33.41,111011,,,D*48
$GPRMC,195218.000,A,3748.8290,N,12217.6285,W,2.10,59.85,111011,,,D*49
$GPRMC,195219.000,A,3748.8291,N,12217.6278,W,1.97,39.66,111011,,,D*4C
$GPRMC,195220.000,A,3748.8293,N,12217.6271,W,2.03,27.89,111011,,,D*4D
$GPRMC,195221.000,A,3748.8299,N,12217.6267,W,2.17,24.39,111011,,,D*4C
$GPRMC,195222.000,A,3748.8306,N,12217.6264,W,2.08,37.56,111011,,,D*4E
$GPRMC,195223.000,A,3748.8306,N,12217.6259,W,1.96,43.93,111011,,,D*4F
$GPRMC,195224.000,A,3748.8306,N,12217.6253,W,1.82,34.94,111011,,,D*40
$GPRMC,195225.000,A,3748.8306,N,12217.6246,W,1.95,41.26,111011,,,D*48
$GPRMC,195226.000,A,3748.8313,N,12217.6240,W,2.30,37.80,111011,,,D*48
$GPRMC,195227.000,A,3748.8320,N,12217.6233,W,2.08,44.02,111011,,,D*48
$GPRMC,195228.000,A,3748.8324,N,12217.6225,W,2.02,45.66,111011,,,D*4D
$GPRMC,195229.000,A,3748.8322,N,12217.6220,W,2.07,40.84,111011,,,D*43
$GPRMC,195230.000,A,3748.8324,N,12217.6213,W,2.02,58.20,111011,,,D*4F
$GPRMC,195231.000,A,3748.8326,N,12217.6204,W,2.13,47.86,111011,,,D*48
$GPRMC,195232.000,A,3748.8326,N,12217.6196,W,1.81,52.98,111011,,,D*40
$GPRMC,195233.000,A,3748.8337,N,12217.6192,W,2.48,39.23,111011,,,D*4E
$GPRMC,195234.000,A,3748.8340,N,12217.6182,W,2.62,42.50,111011,,,D*48
$GPRMC,195235.000,A,3748.8344,N,12217.6175,W,2.40,25.14,111011,,,D*44
$GPRMC,195236.000,A,3748.8350,N,12217.6171,W,2.47,33.73,111011,,,D*47
$GPRMC,195237.000,A,3748.8355,N,12217.6169,W,2.21,31.71,111011,,,D*4A
$GPRMC,195238.000,A,3748.8363,N,12217.6169,W,2.24,25.30,111011,,,D*45
$GPRMC,195239.000,A,3748.8366,N,12217.6170,W,1.74,23.63,111011,,,D*4F
$GPRMC,195240.000,A,3748.8370,N,12217.6171,W,1.87,54.94,111011,,,D*43
$GPRMC,195241.000,A,3748.8371,N,12217.6168,W,2.11,79.72,111011,,,D*40
$GPRMC,195242.000,A,3748.8368,N,12217.6165,W,1.43,92.07,111011,,,D*45
$GPRMC,195243.000,A,3748.8366,N,12217.6166,W,1.74,107.95,111011,,,D*7B
$GPRMC,195244.000,A,3748.8368,N,12217.6164,W,1.52,100.68,111011,,,D*71
$GPRMC,195245.000,A,3748.8368,N,12217.6164,W,1.49,108.69,111011,,,D*73
$GPRMC,195246.000,A,3748.8364,N,12217.6161,W,1.73,128.91,111011,,,D*75
$GPRMC,195247.000,A,3748.8359,N,12217.6160,W,1.50,109.74,111011,,,D*72
$GPRMC,195248.000,A,3748.8358,N,12217.6157,W,1.54,104.57,111011,,,D*70
$GPRMC,195249.000,A,3748.8354,N,12217.6157,W,1.53,114.22,111011,,,D*79
$GPRMC,195250.000,A,3748.8350,N,12217.6152,W,1.48,112.23,111011,,,D*7D
$GPRMC,195251.000,A,3748.8345,N,12217.6149,W,1.59,124.53,111011,,,D*70
$GPRMC,195252.000,A,3748.8345,N,12217.6145,W,1.58,96.62,111011,,,D*44
$GPRMC,195253.000,A,3748.8346,N,12217.6141,W,1.26,101.05,111011,,,D*75
$GPRMC,195254.000,A,3748.8341,N,12217.6139,W,1.84,122.68,111011,,,D*78
$GPRMC,195255.000,A,3748.8341,N,12217.6135,W,1.49,115.20,111011,,,D*7C
$GPRMC,195256.000,A,3748.8339,N,12217.6129,W,2.13,133.90,111011,,,D*7E
$GPRMC,195257.000,A,3748.8335,N,12217.6123,W,2.21,127.29,111011,,,D*7F
$GPRMC,195258.000,A,3748.8328,N,12217.6120,W,2.01,134.48,111011,,,D*78
$GPRMC,195259.000,A,3748.8323,N,12217.6116,W,1.96,121.74,111011,,,D*71
$GPRMC,195300.000,A,3748.8316,N,12217.6108,W,2.07,109.31,111011,,,A*70
$GPRMC,195301.000,A,3748.8309,N,12217.6100,W,2.17,128.33,111011,,,A*77
$GPRMC,195302.000,A,3748.8303,N,12217.6093,W,1.72,116.40,111011,,,A*7C
$GPRMC,195303.000,A,3748.8299,N,12217.6085,W,1.99,122.14,111011,,,A*7B
$GPRMC,195304.000,A,3748.8293,N,12217.6080,W,2.09,141.70,111011,,,A*7E
$GPRMC,195305.000,A,3748.8294,N,12217.6078,W,1.08,122.64,111011,,,A*7D
$GPRMC,195306.000,A,3748.8291,N,12217.6077,W,1.75,142.45,111011,,,A*7B
$GPRMC,195307.000,A,3748.8288,N,12217.6068,W,2.01,118.90,111011,,,A*7B
$GPRMC,195308.000,A,3748.8286,N,12217.6064,W,1.30,119.56,111011,,,A*7C
$GPRMC,195309.000,A,3748.8284,N,12217.6059,W,1.37,120.94,111011,,,A*72
$GPRMC,195310.000,A,3748.8286,N,12217.6051,W,1.39,116.23,111011,,,A*77
$GPRMC,195311.000,A,3748.8279,N,12217.6043,W,1.88,115.80,111011,,,D*70
$GPRMC,195312.000,A,3748.8274,N,12217.6037,W,1.70,116.13,111011,,,D*73
$GPRMC,195313.000,A,3748.8268,N,12217.6031,W,1.48,107.58,111011,,,D*7D
$GPRMC,195314.000,A,3748.8264,N,12217.6022,W,1.25,89.42,111011,,,D*43
$GPRMC,195315.000,A,3748.8260,N,12217.6018,W,1.66,116.30,111011,,,D*7A
$GPRMC,195316.000,A,3748.8257,N,12217.6012,W,1.86,122.19,111011,,,D*75
$GPRMC,195317.000,A,3748.8254,N,12217.6005,W,1.75,107.20,111011,,,D*70
$GPRMC,195318.000,A,3748.8250,N,12217.6001,W,1.38,96.38,111011,,,D*46
$GPRMC,195319.000,A,3748.8248,N,12217.5994,W,1.83,108.83,111011,,,D*7E
$GPRMC,195320.000,A,3748.8245,N,12217.5985,W,1.76,101.89,111011,,,D*70
$GPRMC,195321.000,A,3748.8243,N,12217.5976,W,1.76,106.77,111011,,,D*7D
$GPRMC,195322.000,A,3748.8242,N,12217.5964,W,1.86,118.42,111011,,,D*7A
$GPRMC,195323.000,A,3748.8238,N,12217.5952,W,2.14,119.14,111011,,,D*79
$GPRMC,195324.000,A,3748.8238,N,12217.5946,W,1.85,103.24,111011,,,D*78
$GPRMC,195325.000,A,3748.8235,N,12217.5936,W,1.98,112.57,111011,,,D*7B
$GPRMC,195326.000,A,3748.8230,N,12217.5928,W,1.90,128.82,111011,,,D*7B
$GPRMC,195327.000,A,3748.8226,N,12217.5920,W,2.21,127.09,111011,,,D*70
$GPRMC,195328.000,A,3748.8222,N,12217.5914,W,2.07,103.41,111011,,,D*72
$GPRMC,195329.000,A,3748.8221,N,12217.5905,W,1.91,92.60,111011,,,D*46
$GPRMC,195330.000,A,3748.8220,N,12217.5895,W,1.87,89.36,111011,,,D*49
$GPRMC,195331.000,A,3748.8219,N,12217.5883,W,2.01,100.28,111011,,,D*77
$GPRMC,195332.000,A,3748.8215,N,12217.5874,W,1.80,99.49,111011,,,D*4C
$GPRMC,195333.000,A,3748.8209,N,12217.5866,W,2.28,119.38,111011,,,D*7D
$GPRMC,195334.000,A,3748.8201,N,12217.5857,W,1.91,121.62,111011,,,D*75
$GPRMC,195335.000,A,3748.8193,N,12217.5854,W,1.86,134.52,111011,,,D*7E
$GPRMC,195336.000,A,3748.8188,N,12217.5854,W,1.22,133.02,111011,,,D*7B
$GPRMC,195337.000,A,3748.8186,N,12217.5850,W,1.12,109.75,111011,,,D*7A
$GPRMC,195338.000,A,3748.8187,N,12217.5844,W,1.59,100.12,111011,,,D*76
$GPRMC,195339.000,A,3748.8185,N,12217.5835,W,1.68,92.52,111011,,,D*4F
$GPRMC,195340.000,A,3748.8181,N,12217.5826,W,1.39,111.68,111011,,,D*70
$GPRMC,195341.000,A,3748.8176,N,12217.5818,W,1.85,124.26,111011,,,D*7F
$GPRMC,195342.000,A,3748.8171,N,12217.5811,W,1.76,119.81,111011,,,D*7D
$GPRMC,195343.000,A,3748.8166,N,12217.5804,W,1.86,128.44,111011,,,D*7A
$GPRMC,195344.000,A,3748.8163,N,12217.5795,W,1.56,103.24,111011,,,D*7D
$GPRMC,195345.000,A,3748.8164,N,12217.5787,W,1.56,90.14,111011,,,D*40
$GPRMC,195346.000,A,3748.8159,N,12217.5776,W,1.77,104.05,111011,,,D*7C
$GPRMC,195347.000,A,3748.8150,N,12217.5768,W,1.58,122.79,111011,,,D*79
$GPRMC,195348.000,A,3748.8145,N,12217.5760,W,1.62,132.10,111011,,,D*7D
$GPRMC,195349.000,A,3748.8142,N,12217.5747,W,2.14,109.84,111011,,,D*79
$GPRMC,195350.000,A,3748.8133,N,12217.5736,W,1.80,106.87,111011,,,D*73
$GPRMC,195351.000,A,3748.8128,N,12217.5727,W,1.59,115.56,111011,,,D*72
$GPRMC,195352.000,A,3748.8125,N,12217.5721,W,1.95,116.51,111011,,,D*7E
$GPRMC,195353.000,A,3748.8123,N,12217.5715,W,1.65,118.53,111011,,,D*7D
$GPRMC,195354.000,A,3748.8119,N,12217.5707,W,2.24,127.42,111011,,,D*7A
$GPRMC,195355.000,A,3748.8117,N,12217.5699,W,1.78,112.01,111011,,,D*78
$GPRMC,195356.000,A,3748.8112,N,12217.5691,W,1.81,116.50,111011,,,D*70
$GPRMC,195357.000,A,3748.8110,N,12217.5682,W,2.02,121.30,111011,,,D*7B
$GPRMC,195358.000,A,3748.8105,N,12217.5678,W,1.27,102.37,111011,,,D*77
$GPRMC,195359.000,A,3748.8105,N,12217.5671,W,1.75,101.15,111011,,,D*7B
$GPRMC,195400.000,A,3748.8102,N,12217.5663,W,1.92,99.32,111011,,,D*48
$GPRMC,195401.000,A,3748.8097,N,12217.5654,W,2.35,131.26,111011,,,D*78
$GPRMC,195402.000,A,3748.8098,N,12217.5645,W,2.20,107.98,111011,,,D*70
$GPRMC,195403.000,A,3748.8097,N,12217.5636,W,2.20,105.59,111011,,,D*75
$GPRMC,195404.000,A,3748.8091,N,12217.5628,W,2.07,121.88,111011,,,D*74
$GPRMC,195405.000,A,3748.8086,N,12217.5622,W,1.74,121.21,111011,,,D*7D
$GPRMC,195406.000,A,3748.8085,N,12217.5613,W,1.33,131.61,111011,,,D*79
$GPRMC,195407.000,A,3748.8084,N,12217.5606,W,1.60,127.13,111011,,,D*79
$GPRMC,195408.000,A,3748.8081,N,12217.5597,W,2.34,133.00,111011,,,D*7D
$GPRMC,195409.000,A,3748.8074,N,12217.5593,W,2.21,124.36,111011,,,D*75
$GPRMC,195410.000,A,3748.8069,N,12217.5587,W,2.09,113.63,111011,,,D*7A
$GPRMC,195411.000,A,3748.8064,N,12217.5576,W,2.68,97.31,111011,,,D*45
$GPRMC,195412.000,A,3748.8060,N,12217.5569,W,2.11,106.46,111011,,,A*7E
$GPRMC,195413.000,A,3748.8057,N,12217.5561,W,2.06,123.53,111011,,,A*76
$GPRMC,195414.000,A,3748.8052,N,12217.5552,W,1.82,127.37,111011,,,A*7D
$GPRMC,195415.000,A,3748.8046,N,12217.5546,W,2.11,138.78,111011,,,A*70
$GPRMC,195416.000,A,3748.8038,N,12217.5542,W,1.23,138.89,111011,,,A*72
$GPRMC,195417.000,A,3748.8036,N,12217.5535,W,0.96,87.74,111011,,,A*45
$GPRMC,195418.000,A,3748.8035,N,12217.5531,W,1.48,146.21,111011,,,A*73
$GPRMC,195419.000,A,3748.8031,N,12217.5528,W,1.79,155.69,111011,,,A*72
$GPRMC,195420.000,A,3748.8027,N,12217.5529,W,1.83,193.33,111011,,,A*7E
$GPRMC,195421.000,A,3748.8022,N,12217.5534,W,1.80,240.09,111011,,,A*71
$GPRMC,195422.000,A,3748.8013,N,12217.5541,W,2.68,228.52,111011,,,A*77
$GPRMC,195423.000,A,3748.8006,N,12217.5548,W,2.47,232.51,111011,,,A*7E
$GPRMC,195424.000,A,3748.7999,N,12217.5556,W,2.29,226.23,111011,,,A*7E
$GPRMC,195425.000,A,3748.7996,N,12217.5559,W,1.93,217.49,111011,,,A*73
$GPRMC,195426.000,A,3748.7991,N,12217.5564,W,1.52,211.87,111011,,,A*70
$GPRMC,195427.000,A,3748.7985,N,12217.5566,W,1.41,210.66,111011,,,A*7A
$GPRMC,195428.000,A,3748.7976,N,12217.5569,W,2.20,197.31,111011,,,A*7C
$GPRMC,195429.000,A,3748.7972,N,12217.5567,W,1.25,190.68,111011,,,A*7A
$GPRMC,195430.000,A,3748.7966,N,12217.5571,W,2.24,210.30,111011,,,A*74
$GPRMC,195431.000,A,3748.7961,N,12217.5579,W,2.25,206.19,111011,,,A*77
$GPRMC,195432.000,A,3748.7957,N,12217.5583,W,2.46,221.30,111011,,,A*7F
$GPRMC,195433.000,A,3748.7957,N,12217.5582,W,0.99,213.18,111011,,,A*74
$GPRMC,195434.000,A,3748.7948,N,12217.5589,W,1.64,210.15,111011,,,A*7B
$GPRMC,195435.000,A,3748.7941,N,12217.5589,W,1.58,203.70,111011,,,A*7D
$GPRMC,195436.000,A,3748.7930,N,12217.5594,W,1.94,198.43,111011,,,A*75
$GPRMC,195437.000,A,3748.7930,N,12217.5595,W,1.52,204.08,111011,,,A*76
$GPRMC,195438.000,A,3748.7924,N,12217.5601,W,1.91,222.45,111011,,,A*70
$GPRMC,195439.000,A,3748.7915,N,12217.5603,W,1.99,206.73,111011,,,A*7A
$GPRMC,195440.000,A,3748.7914,N,12217.5608,W,2.06,214.21,111011,,,A*7F
$GPRMC,195441.000,A,3748.7903,N,12217.5613,W,3.22,199.43,111011,,,A*77
$GPRMC,195442.000,A,3748.7891,N,12217.5615,W,2.56,201.52,111011,,,A*78
$GPRMC,195443.000,A,3748.7880,N,12217.5615,W,1.82,206.32,111011,,,A*72
$GPRMC,195444.000,A,3748.7872,N,12217.5613,W,2.28,208.43,111011,,,A*75
$GPRMC,195445.000,A,3748.7861,N,12217.5618,W,2.17,217.07,111011,,,A*7F
$GPRMC,195446.000,A,3748.7852,N,12217.5625,W,1.97,204.08,111011,,,A*74
$GPRMC,195447.000,A,3748.7846,N,12217.5627,W,2.34,190.86,111011,,,A*70
$GPRMC,195448.000,A,3748.7834,N,12217.5626,W,2.18,201.01,111011,,,A*71
$GPRMC,195449.000,A,3748.7829,N,12217.5628,W,1.60,202.90,111011,,,A*75
$GPRMC,195450.000,A,3748.7824,N,12217.5631,W,1.63,205.94,111011,,,A*78
$GPRMC,195451.000,A,3748.7816,N,12217.5636,W,1.91,207.11,111011,,,A*7D
$GPRMC,195452.000,A,3748.7815,N,12217.5643,W,1.19,238.63,111011,,,A*76
$GPRMC,195453.000,A,3748.7815,N,12217.5649,W,1.11,254.13,111011,,,A*78
$GPRMC,195454.000,A,3748.7818,N,12217.5659,W,2.34,276.62,111011,,,A*71
$GPRMC,195455.000,A,3748.7823,N,12217.5672,W,3.57,285.56,111011,,,A*7E
$GPRMC,195456.000,A,3748.7829,N,12217.5686,W,3.34,285.80,111011,,,A*72
$GPRMC,195457.000,A,3748.7827,N,12217.5695,W,2.39,258.87,111011,,,A*74
$GPRMC,195458.000,A,3748.7815,N,12217.5699,W,1.97,224.18,111011,,,A*7C
$GPRMC,195459.000,A,3748.7810,N,12217.5703,W,1.14,240.16,111011,,,A*7D
$GPRMC,195500.000,A,3748.7795,N,12217.5708,W,1.72,226.40,111011,,,A*7A
$GPRMC,195501.000,A,3748.7786,N,12217.5716,W,2.14,239.95,111011,,,A*73
$GPRMC,195502.000,A,3748.7772,N,12217.5723,W,2.12,220.28,111011,,,A*75
$GPRMC,195503.000,A,3748.7756,N,12217.5725,W,2.65,203.66,111011,,,A*7F
$GPRMC,195504.000,A,3748.7744,N,12217.5724,W,2.44,208.32,111011,,,A*73
$GPRMC,195505.000,A,3748.7738,N,12217.5726,W,1.52,216.09,111011,,,D*7D
$GPRMC,195506.000,A,3748.7730,N,12217.5724,W,1.42,213.16,111011,,,D*7E
$GPRMC,195507.000,A,3748.7726,N,12217.5723,W,1.39,213.05,111011,,,D*71
$GPRMC,195508.000,A,3748.7724,N,12217.5721,W,1.31,217.08,111011,,,D*7F
$GPRMC,195509.000,A,3748.7717,N,12217.5727,W,1.77,241.46,111011,,,D*73
$GPRMC,195510.000,A,3748.7711,N,12217.5733,W,1.64,235.81,111011,,,D*72
$GPRMC,195511.000,A,3748.7706,N,12217.5737,W,1.52,222.08,111011,,,D*73
$GPRMC,195512.000,A,3748.7700,N,12217.5746,W,1.64,212.08,111011,,,D*76
$GPRMC,195513.000,A,3748.7694,N,12217.5754,W,1.81,222.30,111011,,,D*7B
$GPRMC,195514.000,A,3748.7688,N,12217.5763,W,1.83,214.81,111011,,,D*78
$GPRMC,195515.000,A,3748.7684,N,12217.5769,W,1.96,213.06,111011,,,D*73
$GPRMC,195516.000,A,3748.7676,N,12217.5781,W,2.69,206.50,111011,,,D*7F
$GPRMC,195517.000,A,3748.7667,N,12217.5793,W,3.15,216.31,111011,,,D*71
$GPRMC,195518.000,A,3748.7664,N,12217.5803,W,2.80,212.27,111011,,,D*75
$GPRMC,195519.000,A,3748.7658,N,12217.5810,W,2.50,206.23,111011,,,D*75
$GPRMC,195520.000,A,3748.7652,N,12217.5817,W,2.39,204.06,111011,,,D*78
$GPRMC,195521.000,A,3748.7645,N,12217.5824,W,2.27,190.35,111011,,,D*7E
$GPRMC,195522.000,A,3748.7638,N,12217.5828,W,2.19,186.91,111011,,,D*7F
$GPRMC,195523.000,A,3748.7634,N,12217.5831,W,1.88,188.76,111011,,,D*76
$GPRMC,195524.000,A,3748.7628,N,12217.5835,W,2.23,198.90,111011,,,D*73
$GPRMC,195525.000,A,3748.7623,N,12217.5841,W,2.02,209.62,111011,,,D*7F
$GPRMC,195526.000,A,3748.7618,N,12217.5845,W,2.41,197.29,111011,,,D*7C
$GPRMC,195527.000,A,3748.7611,N,12217.5850,W,2.11,192.81,111011,,,D*72
$GPRMC,195528.000,A,3748.7606,N,12217.5854,W,2.17,201.49,111011,,,A*71
$GPRMC,195529.000,A,3748.7602,N,12217.5854,W,2.12,201.27,111011,,,A*79
$GPRMC,195530.000,A,3748.7598,N,12217.5857,W,1.83,198.70,111011,,,A*78
$GPRMC,195531.000,A,3748.7591,N,12217.5861,W,1.81,185.20,111011,,,A*7E
$GPRMC,195532.000,A,3748.7586,N,12217.5861,W,1.92,190.33,111011,,,A*7F
$GPRMC,195533.000,A,3748.7581,N,12217.5865,W,2.05,196.23,111011,,,A*77
$GPRMC,195534.000,A,3748.7576,N,12217.5869,W,1.90,187.14,111011,,,A*7F
$GPRMC,195535.000,A,3748.7571,N,12217.5873,W,1.88,191.62,111011,,,A*7D
$GPRMC,195536.000,A,3748.7568,N,12217.5876,W,1.44,194.58,111011,,,A*7F
$GPRMC,195537.000,A,3748.7560,N,12217.5882,W,2.33,196.73,111011,,,A*75
$GPRMC,195538.000,A,3748.7551,N,12217.5890,W,2.10,198.13,111011,,,A*72
$GPRMC,195539.000,A,3748.7545,N,12217.5893,W,2.11,200.33,111011,,,A*74
$GPRMC,195540.000,A,3748.7540,N,12217.5897,W,1.95,201.28,111011,,,A*7F
$GPRMC,195541.000,A,3748.7535,N,12217.5907,W,1.59,249.15,111011,,,D*73
$GPRMC,195542.000,A,3748.7529,N,12217.5914,W,1.56,250.23,111011,,,D*7D
$GPRMC,195543.000,A,3748.7521,N,12217.5921,W,1.38,242.21,111011,,,D*7B
$GPRMC,195544.000,A,3748.7515,N,12217.5928,W,1.71,231.16,111011,,,D*7F
$GPRMC,195545.000,A,3748.7506,N,12217.5933,W,2.04,220.22,111011,,,D*70
$GPRMC,195546.000,A,3748.7497,N,12217.5936,W,2.06,229.07,111011,,,D*73
$GPRMC,195547.000,A,3748.7489,N,12217.5944,W,1.95,236.08,111011,,,D*70
$GPRMC,195548.000,A,3748.7480,N,12217.5953,W,2.44,235.89,111011,,,D*75
$GPRMC,195549.000,A,3748.7476,N,12217.5959,W,1.72,219.84,111011,,,D*72
$GPRMC,195550.000,A,3748.7472,N,12217.5961,W,1.81,198.65,111011,,,D*7C
$GPRMC,195551.000,A,3748.7467,N,12217.5963,W,2.03,196.90,111011,,,D*76
$GPRMC,195552.000,A,3748.7462,N,12217.5965,W,2.32,201.59,111011,,,D*7C
$GPRMC,195553.000,A,3748.7456,N,12217.5969,W,1.99,205.16,111011,,,D*7B
$GPRMC,195554.000,A,3748.7451,N,12217.5972,W,2.06,199.03,111011,,,D*76
$GPRMC,195555.000,A,3748.7445,N,12217.5977,W,2.08,209.49,111011,,,D*7D
$GPRMC,195556.000,A,3748.7439,N,12217.5981,W,1.52,207.60,111011,,,D*75
$GPRMC,195557.000,A,3748.7433,N,12217.5988,W,1.93,195.37,111011,,,D*70
$GPRMC,195558.000,A,3748.7424,N,12217.5995,W,1.78,189.28,111011,,,D*73
$GPRMC,195559.000,A,3748.7416,N,12217.6001,W,1.94,197.98,111011,,,D*72
$GPRMC,195600.000,A,3748.7410,N,12217.6003,W,2.45,209.01,111011,,,D*72
$GPRMC,195601.000,A,3748.7404,N,12217.6007,W,1.72,226.93,111011,,,D*73
$GPRMC,195602.000,A,3748.7396,N,12217.6010,W,1.39,211.28,111011,,,D*71
$GPRMC,195603.000,A,3748.7393,N,12217.6015,W,1.38,212.35,111011,,,D*7E
$GPRMC,195604.000,A,3748.7391,N,12217.6019,W,2.15,205.44,111011,,,D*7B
$GPRMC,195605.000,A,3748.7386,N,12217.6023,W,2.16,208.69,111011,,,D*74
$GPRMC,195606.000,A,3748.7381,N,12217.6027,W,2.06,205.63,111011,,,D*72
$GPRMC,195607.000,A,3748.7375,N,12217.6033,W,2.30,212.89,111011,,,D*7A
$GPRMC,195608.000,A,3748.7368,N,12217.6042,W,2.15,203.37,111011,,,D*7D
$GPRMC,195609.000,A,3748.7363,N,12217.6046,W,1.92,205.47,111011,,,D*7E
$GPRMC,195610.000,A,3748.7358,N,12217.6050,W,1.71,188.48,111011,,,D*7D
$GPRMC,195611.000,A,3748.7352,N,12217.6052,W,2.25,199.76,111011,,,D*7B
$GPRMC,195612.000,A,3748.7344,N,12217.6060,W,2.59,206.42,111011,,,D*77
$GPRMC,195613.000,A,3748.7337,N,12217.6065,W,2.02,202.78,111011,,,D*74
$GPRMC,195614.000,A,3748.7332,N,12217.6070,W,2.03,216.48,111011,,,D*75
$GPRMC,195615.000,A,3748.7326,N,12217.6078,W,2.10,219.85,111011,,,D*75
$GPRMC,195616.000,A,3748.7323,N,12217.6080,W,2.02,215.80,111011,,,D*7E
$GPRMC,195617.000,A,3748.7318,N,12217.6082,W,2.06,198.78,111011,,,D*70
$GPRMC,195618.000,A,3748.7313,N,12217.6084,W,2.09,197.11,111011,,,D*7D
$GPRMC,195619.000,A,3748.7305,N,12217.6090,W,2.52,211.05,111011,,,D*78
$GPRMC,195620.000,A,3748.7298,N,12217.6100,W,2.21,218.55,111011,,,D*77
$GPRMC,195621.000,A,3748.7293,N,12217.6105,W,1.99,216.98,111011,,,D*77
$GPRMC,195622.000,A,3748.7288,N,12217.6111,W,1.88,221.18,111011,,,D*77
$GPRMC,195623.000,A,3748.7282,N,12217.6119,W,1.93,206.34,111011,,,D*75
$GPRMC,195624.000,A,3748.7275,N,12217.6125,W,1.89,202.20,111011,,,D*7F
$GPRMC,195625.000,A,3748.7271,N,12217.6131,W,1.80,197.43,111011,,,D*7C
$GPRMC,195626.000,A,3748.7266,N,12217.6134,W,2.25,205.51,111011,,,D*7B
$GPRMC,195627.000,A,3748.7260,N,12217.6140,W,2.98,213.68,111011,,,D*74
$GPRMC,195628.000,A,3748.7255,N,12217.6145,W,2.18,202.32,111011,,,D*7F
$GPRMC,195629.000,A,3748.7250,N,12217.6149,W,2.39,210.43,111011,,,D*71
$GPRMC,195630.000,A,3748.7245,N,12217.6156,W,2.28,204.47,111011,,,D*72
$GPRMC,195631.000,A,3748.7240,N,12217.6160,W,1.95,194.04,111011,,,D*7B
$GPRMC,195632.000,A,3748.7234,N,12217.6163,W,2.04,202.08,111011,,,D*73
$GPRMC,195633.000,A,3748.7228,N,12217.6168,W,2.03,202.07,111011,,,D*7C
$GPRMC,195634.000,A,3748.7223,N,12217.6173,W,1.89,194.03,111011,,,D*73
$GPRMC,195635.000,A,3748.7218,N,12217.6174,W,1.71,172.33,111011,,,D*71
$GPRMC,195636.000,A,3748.7213,N,12217.6174,W,1.68,170.90,111011,,,D*7A
$GPRMC,195637.000,A,3748.7207,N,12217.6174,W,2.03,186.37,111011,,,D*74
$GPRMC,195638.000,A,3748.7202,N,12217.6177,W,1.64,184.18,111011,,,D*70
$GPRMC,195639.000,A,3748.7197,N,12217.6179,W,1.55,194.74,111011,,,D*79
$GPRMC,195640.000,A,3748.7192,N,12217.6181,W,1.71,178.72,111011,,,D*77
$GPRMC,195641.000,A,3748.7186,N,12217.6184,W,2.07,187.13,111011,,,D*73
$GPRMC,195642.000,A,3748.7180,N,12217.6187,W,1.84,190.73,111011,,,D*7D
$GPRMC,195643.000,A,3748.7175,N,12217.6190,W,1.52,194.75,111011,,,D*79
$GPRMC,195644.000,A,3748.7170,N,12217.6193,W,1.65,187.24,111011,,,D*7A
$GPRMC,195645.000,A,3748.7165,N,12217.6194,W,1.66,183.16,111011,,,D*7E
$GPRMC,195646.000,A,3748.7160,N,12217.6197,W,1.54,196.06,111011,,,D*7F
$GPRMC,195647.000,A,3748.7155,N,12217.6199,W,1.43,187.06,111011,,,D*70
$GPRMC,195648.000,A,3748.7150,N,12217.6200,W,1.43,191.84,111011,,,D*74
$GPRMC,195649.000,A,3748.7141,N,12217.6203,W,1.64,183.99,111011,,,D*7C
$GPRMC,195650.000,A,3748.7136,N,12217.6205,W,1.34,188.13,111011,,,D*7E
$GPRMC,195651.000,A,3748.7132,N,12217.6209,W,1.29,202.21,111011,,,D*7B
$GPRMC,195652.000,A,3748.7129,N,12217.6212,W,1.73,209.86,111011,,,D*71
$GPRMC,195653.000,A,3748.7125,N,12217.6217,W,1.33,210.09,111011,,,D*72
$GPRMC,195654.000,A,3748.7121,N,12217.6221,W,0.65,187.98,111011,,,D*73
$GPRMC,195655.000,A,3748.7119,N,12217.6223,W,0.32,236.54,111011,,,D*70
$GPRMC,195656.000,A,3748.7121,N,12217.6229,W,0.46,235.42,111011,,,D*75
$GPRMC,195657.000,A,3748.7120,N,12217.6231,W,0.30,242.75,111011,,,D*79
$GPRMC,195658.000,A,3748.7118,N,12217.6233,W,0.13,223.31,111011,,,D*79
$GPRMC,195659.000,A,3748.7117,N,12217.6239,W,0.10,200.99,111011,,,D*7D
$GPRMC,195700.000,A,3748.7114,N,12217.6237,W,0.35,142.87,111011,,,D*70
$GPRMC,195701.000,A,3748.7110,N,12217.6242,W,0.32,169.24,111011,,,D*70
$GPRMC,195702.000,A,3748.7108,N,12217.6248,W,0.31,211.24,111011,,,D*7F
$GPRMC,195703.000,A,3748.7107,N,12217.6249,W,0.34,199.16,111011,,,D*77
$GPRMC,195704.000,A,3748.7106,N,12217.6249,W,0.57,182.29,111011,,,D*72
$GPRMC,195705.000,A,3748.7104,N,12217.6250,W,0.73,190.08,111011,,,D*7F
$GPRMC,195706.000,A,3748.7102,N,12217.6250,W,0.95,208.82,111011,,,D*72
