$ADVER,3080,2.3
$GPRMC,194330.382,A,3748.8207,N,12217.8496,W,0.69,212.42,111011,,,A*71
$GPGGA,194331.382,3748.8159,N,12217.8531,W,1,04,7.0,4.0,M,-25.1,M,,0000*63
$GPGSA,A,3,25,12,04,10,,,,,,,,,7.9,7.0,3.7*3E
$GPRMC,194331.382,A,3748.8159,N,12217.8531,W,0.53,204.10,111011,,,A*7D
$GPVTG,204.10,T,,M,0.53,N,1.0,K,A*0D
$GPGGA,194332.382,3748.8131,N,12217.8548,W,1,04,7.0,6.4,M,-25.1,M,,0000*66
$GPGSA,A,3,25,12,04,10,,,,,,,,,7.9,7.0,3.7*3E
$GPRMC,194332.382,A,3748.8131,N,12217.8548,W,0.39,194.24,111011,,,A*7F
$GPVTG,194.24,T,,M,0.39,N,0.7,K,A*0A
$GPGGA,194333.000,3748.8122,N,12217.8552,W,1,04,7.0,6.9,M,-25.1,M,,0000*6A
$GPGSA,A,3,25,12,04,10,,,,,,,,,7.9,7.0,3.7*3E
$GPRMC,194333.000,A,3748.8122,N,12217.8552,W,0.23,201.08,111011,,,A*74
$GPVTG,201.08,T,,M,0.23,N,0.4,K,A*03
$GPGGA,194334.000,3748.8084,N,12217.8576,W,1,04,7.0,10.4,M,-25.1,M,,0000*5C
$GPGSA,A,3,25,12,04,10,,,,,,,,,7.9,7.0,3.7*3E
$GPRMC,194334.000,A,3748.8084,N,12217.8576,W,0.26,201.89,111011,,,A*74
$GPVTG,201.89,T,,M,0.26,N,0.5,K,A*0E
$GPGGA,194335.000,3748.8025,N,12217.8617,W,1,04,7.0,17.1,M,-25.1,M,,0000*50
$GPGSA,A,3,25,12,04,10,,,,,,,,,7.9,7.0,3.7*3E
$GPGSV,3,1,12,04,55,066,32,12,49,317,32,27,46,213,33,25,17,307,31*77
$GPGSV,3,2,12,10,16,113,27,02,63,172,22,09,53,231,33,17,19,061,25*79
$GPRMC,194335.000,A,3748.8025,N,12217.8617,W,0.56,206.48,111011,,,A*77
$GPVTG,206.48,T,,M,0.56,N,1.0,K,A*07
$GPGGA,194336.000,3748.8007,N,12217.8628,W,1,04,6.9,18.5,M,-25.1,M,,0000*5C
$GPGSA,A,3,25,12,04,10,,,,,,,,,7.9,6.9,3.7*36
$GPRMC,194336.000,A,3748.8007,N,12217.8628,W,0.46,198.93,111011,,,A*7B
$GPVTG,198.93,T,,M,0.46,N,0.8,K,A*0D
$GPGGA,194337.000,3748.7991,N,12217.8637,W,1,04,6.9,19.8,M,-25.1,M,,0000*56
$GPGSA,A,3,25,12,04,10,,,,,,,,,7.9,6.9,3.7*36
$GPRMC,194337.000,A,3748.7991,N,12217.8637,W,0.44,203.00,111011,,,A*74
$GPVTG,203.00,T,,M,0.44,N,0.8,K,A*04
$GPGGA,194338.000,3748.7978,N,12217.8645,W,1,04,6.9,20.8,M,-25.1,M,,0000*51
$GPGSA,A,3,25,12,04,10,,,,,,,,,7.9,6.9,3.7*36
$GPRMC,194338.000,A,3748.7978,N,12217.8645,W,0.49,199.26,111011,,,A*70
$GPVTG,199.26,T,,M,0.49,N,0.9,K,A*0C
$GPGGA,194339.000,3748.7976,N,12217.8645,W,1,04,6.9,20.6,M,-25.1,M,,0000*50
$GPGSA,A,3,25,12,04,10,,,,,,,,,7.9,6.9,3.7*36
$GPRMC,194339.000,A,3748.7976,N,12217.8645,W,0.34,191.19,111011,,,A*71
$GPVTG,191.19,T,,M,0.34,N,0.6,K,A*0D
$GPGGA,194340.000,3748.7974,N,12217.8645,W,1,04,6.9,20.3,M,-25.1,M,,0000*59
$GPGSA,A,3,25,12,04,10,,,,,,,,,7.9,6.9,3.7*36
$GPGSV,3,1,12,04,55,066,33,12,49,317,31,27,46,213,28,25,17,307,30*7E
$GPGSV,3,2,12,10,16,113,27,02,63,172,18,09,53,231,33,17,19,061,25*70
$GPGSV,3,3,12,14,02,310,,29,01,255,,05,01,162,,28,00,118,*74
$GPRMC,194340.000,A,3748.7974,N,12217.8645,W,0.22,179.91,111011,,,A*7C
$GPVTG,179.91,T,,M,0.22,N,0.4,K,A*0E
$GPGGA,194341.000,3748.7976,N,12217.8642,W,1,04,6.9,19.7,M,-25.1,M,,0000*53
$GPGSA,A,3,25,12,04,10,,,,,,,,,7.9,6.9,3.7*36
$GPRMC,194341.000,A,3748.7976,N,12217.8642,W,0.17,176.04,111011,,,A*7D
$GPVTG,176.04,T,,M,0.17,N,0.3,K,A*0C
$GPGGA,194342.000,3748.7977,N,12217.8640,W,1,04,6.9,19.1,M,-25.1,M,,0000*55
$GPGSA,A,3,25,12,04,10,,,,,,,,,7.9,6.9,3.7*36
$GPRMC,194342.000,A,3748.7977,N,12217.8640,W,0.08,104.97,111011,,,A*7C
$GPVTG,104.97,T,,M,0.08,N,0.2,K,A*0C
$GPGGA,194343.000,3748.7979,N,12217.8637,W,1,04,6.9,18.5,M,-25.1,M,,0000*5F
$GPGSA,A,3,25,12,04,10,,,,,,,,,7.9,6.9,3.7*36
$GPRMC,194343.000,A,3748.7979,N,12217.8637,W,0.18,52.18,111011,,,A*47
$GPVTG,52.18,T,,M,0.18,N,0.3,K,A*39
$GPGGA,194344.000,3748.7981,N,12217.8635,W,1,04,6.9,18.0,M,-25.1,M,,0000*58
$GPGSA,A,3,25,12,04,10,,,,,,,,,7.8,6.9,3.7*37
$GPRMC,194344.000,A,3748.7981,N,12217.8635,W,0.23,44.66,111011,,,A*43
$GPVTG,44.66,T,,M,0.23,N,0.4,K,A*38
$GPGGA,194345.000,3748.7982,N,12217.8633,W,1,04,6.9,17.6,M,-25.1,M,,0000*55
$GPGSA,A,3,25,12,04,10,,,,,,,,,7.8,6.9,3.7*37
$GPGSV,3,1,12,02,64,172,22,04,55,066,33,09,53,231,20,12,49,317,32*7F
$GPGSV,3,2,12,27,46,213,27,17,19,062,25,25,17,307,33,10,16,113,31*76
$GPGSV,3,3,12,14,02,310,20,29,01,255,,05,01,162,,28,00,118,*76
$GPRMC,194345.000,A,3748.7982,N,12217.8633,W,0.32,36.46,111011,,,A*40
$GPVTG,36.46,T,,M,0.32,N,0.6,K,A*3D
$GPGGA,194346.000,3748.7983,N,12217.8632,W,1,04,6.9,17.3,M,-25.1,M,,0000*53
$GPGSA,A,3,25,12,04,10,,,,,,,,,7.8,6.9,3.7*37
$GPRMC,194346.000,A,3748.7983,N,12217.8632,W,0.41,39.66,111011,,,A*4A
$GPVTG,39.66,T,,M,0.41,N,0.8,K,A*3A
$GPGGA,194347.000,3748.7983,N,12217.8631,W,1,04,6.9,17.1,M,-25.1,M,,0000*53
$GPGSA,A,3,25,12,04,10,,,,,,,,,7.8,6.9,3.7*37
$GPRMC,194347.000,A,3748.7983,N,12217.8631,W,0.42,36.14,111011,,,A*41
$GPVTG,36.14,T,,M,0.42,N,0.8,K,A*33
$GPGGA,194348.000,3748.7988,N,12217.8627,W,1,04,6.9,16.7,M,-25.1,M,,0000*57
$GPGSA,A,3,25,12,04,10,,,,,,,,,7.8,6.9,3.7*37
$GPRMC,194348.000,A,3748.7988,N,12217.8627,W,0.65,31.12,111011,,,A*46
$GPVTG,31.12,T,,M,0.65,N,1.2,K,A*3C
$GPGGA,194349.000,3748.7996,N,12217.8624,W,1,04,6.9,16.4,M,-25.1,M,,0000*59
$GPGSA,A,3,25,12,04,10,,,,,,,,,7.8,6.9,3.7*37
$GPRMC,194349.000,A,3748.7996,N,12217.8624,W,0.92,23.10,111011,,,A*42
$GPVTG,23.10,T,,M,0.92,N,1.7,K,A*30
$GPGGA,194350.000,3748.8002,N,12217.8621,W,1,04,6.9,16.1,M,-25.1,M,,0000*5A
$GPGSA,A,3,25,12,04,10,,,,,,,,,7.8,6.9,3.7*37
$GPGSV,3,1,12,02,64,172,21,04,55,066,34,09,52,231,29,12,49,317,32*73
$GPGSV,3,2,12,27,46,213,27,17,19,062,21,25,17,307,33,10,16,113,32*71
$GPGSV,3,3,12,14,02,310,19,29,01,255,,05,01,162,,28,00,118,*7C
$GPVTG,30.50,T,,M,0.86,N,1.6,K,A*32
$GPGGA,194351.000,3748.8009,N,12217.8617,W,1,04,6.9,15.8,M,-25.1,M,,0000*5F
$GPGSA,A,3,25,12,04,10,,,,,,,,,7.8,6.9,3.7*37
$GPRMC,194351.000,A,3748.8009,N,12217.8617,W,0.86,31.43,111011,,,A*4B
$GPVTG,31.43,T,,M,0.86,N,1.6,K,A*31
$GPGGA,194352.000,3748.8015,N,12217.8614,W,1,04,6.9,15.5,M,-25.1,M,,0000*5F
$GPGSA,A,3,25,12,04,10,,,,,,,,,7.8,6.9,3.7*37
$GPRMC,194352.000,A,3748.8015,N,12217.8614,W,0.84,31.40,111011,,,A*47
$GPVTG,31.40,T,,M,0.84,N,1.6,K,A*30
$GPGGA,194353.000,3748.8021,N,12217.8610,W,1,04,6.9,15.1,M,-25.1,M,,0000*59
$GPGSA,A,3,25,12,04,10,,,,,,,,,7.8,6.9,3.7*37
$GPRMC,194353.000,A,3748.8021,N,12217.8610,W,0.86,31.28,111011,,,A*49
$GPVTG,31.28,T,,M,0.86,N,1.6,K,A*3C
$GPGGA,194354.000,3748.8026,N,12217.8607,W,1,04,6.9,14.7,M,-25.1,M,,0000*58
$GPGSA,A,3,25,12,04,10,,,,,,,,,7.8,6.9,3.7*37
$GPRMC,194354.000,A,3748.8026,N,12217.8607,W,0.88,30.88,111011,,,A*4A
$GPVTG,30.88,T,,M,0.88,N,1.6,K,A*39
$GPGGA,194355.000,3748.8032,N,12217.8603,W,1,04,6.9,14.3,M,-25.1,M,,0000*5C
$GPGSA,A,3,25,12,04,10,,,,,,,,,7.8,6.9,3.7*37
$GPGSV,3,1,12,02,64,172,22,04,55,066,34,09,52,231,27,12,49,317,32*7E
$GPGSV,3,2,12,27,46,213,27,17,19,062,21,25,17,307,31,10,16,113,33*72
$GPGSV,3,3,12,14,02,310,,29,01,255,,05,01,162,,28,00,118,*74
$GPRMC,194355.000,A,3748.8032,N,12217.8603,W,1.04,28.35,111011,,,A*40
$GPVTG,28.35,T,,M,1.04,N,1.9,K,A*3C
$GPGGA,194356.000,3748.8037,N,12217.8600,W,1,04,6.9,13.8,M,-25.1,M,,0000*55
$GPGSA,A,3,25,12,04,10,,,,,,,,,7.8,6.9,3.7*37
$GPRMC,194356.000,A,3748.8037,N,12217.8600,W,0.85,35.63,111011,,,A*42
$GPVTG,35.63,T,,M,0.85,N,1.6,K,A*34
$GPGGA,194357.000,3748.8041,N,12217.8598,W,1,04,6.9,13.5,M,-25.1,M,,0000*5A
$GPGSA,A,3,25,12,04,10,,,,,,,,,7.8,6.9,3.7*37
$GPRMC,194357.000,A,3748.8041,N,12217.8598,W,0.90,32.44,111011,,,A*46
$GPVTG,32.44,T,,M,0.90,N,1.7,K,A*33
$GPGGA,194358.000,3748.8045,N,12217.8595,W,1,04,6.9,13.1,M,-25.1,M,,0000*58
$GPGSA,A,3,25,12,04,10,,,,,,,,,7.8,6.9,3.7*37
$GPRMC,194358.000,A,3748.8045,N,12217.8595,W,0.90,31.21,111011,,,A*40
$GPVTG,31.21,T,,M,0.90,N,1.7,K,A*33
$GPGGA,194359.000,3748.8048,N,12217.8593,W,1,04,6.9,12.8,M,-25.1,M,,0000*5A
$GPGSA,A,3,25,12,04,10,,,,,,,,,7.8,6.9,3.7*37
$GPRMC,194359.000,A,3748.8048,N,12217.8593,W,0.93,30.86,111011,,,A*45
$GPVTG,30.86,T,,M,0.93,N,1.7,K,A*3C
$GPGGA,194400.000,3748.8051,N,12217.8591,W,1,04,6.9,12.5,M,-25.1,M,,0000*56
$GPGSA,A,3,25,12,04,10,,,,,,,,,7.8,6.9,3.7*37
$GPGSV,3,1,12,02,64,172,23,04,55,066,34,09,52,231,33,12,49,317,33*7B
$GPGSV,3,2,12,27,46,213,27,17,19,062,16,25,17,307,34,10,16,113,34*74
$GPGSV,3,3,12,14,02,310,,29,01,255,,05,01,162,,28,00,118,*74
$GPRMC,194400.000,A,3748.8051,N,12217.8591,W,0.92,32.41,111011,,,A*4C
$GPVTG,32.41,T,,M,0.92,N,1.7,K,A*34
$GPGGA,194401.000,3748.8053,N,12217.8590,W,1,04,6.9,12.2,M,-25.1,M,,0000*53
$GPGSA,A,3,25,12,04,10,,,,,,,,,7.8,6.9,3.7*37
$GPRMC,194401.000,A,3748.8053,N,12217.8590,W,0.87,31.82,111011,,,A*46
$GPVTG,31.82,T,,M,0.87,N,1.6,K,A*3D
$GPGGA,194402.000,3748.8055,N,12217.8588,W,1,04,6.8,11.9,M,-25.1,M,,0000*56
$GPGSA,A,3,25,12,04,10,,,,,,,,,7.8,6.8,3.7*36
$GPRMC,194402.000,A,3748.8055,N,12217.8588,W,0.87,30.92,111011,,,A*4A
$GPVTG,30.92,T,,M,0.87,N,1.6,K,A*3D
$GPGGA,194403.000,3748.8057,N,12217.8587,W,1,04,6.8,11.4,M,-25.1,M,,0000*57
$GPGSA,A,3,25,12,04,10,,,,,,,,,7.8,6.8,3.7*36
$GPRMC,194403.000,A,3748.8057,N,12217.8587,W,0.81,26.39,111011,,,A*46
$GPVTG,26.39,T,,M,0.81,N,1.5,K,A*3E
$GPGGA,194404.000,3748.8059,N,12217.8586,W,1,04,6.8,11.0,M,-25.1,M,,0000*5B
$GPGSA,A,3,25,12,04,10,,,,,,,,,7.8,6.8,3.7*36
$GPRMC,194404.000,A,3748.8059,N,12217.8586,W,0.98,14.19,111011,,,A*45
$GPVTG,14.19,T,,M,0.98,N,1.8,K,A*38
$GPGGA,194405.000,3748.8054,N,12217.8588,W,1,04,6.8,10.5,M,-25.1,M,,0000*5D
$GPGSA,A,3,25,12,04,10,,,,,,,,,7.8,6.8,3.7*36
$GPGSV,3,1,12,02,64,172,17,04,55,066,31,09,52,231,17,12,49,317,29*74
$GPGSV,3,2,12,27,46,213,28,17,19,062,29,25,17,307,36,10,16,113,24*74
$GPGSV,3,3,12,14,02,310,25,29,01,255,,05,01,162,,28,00,118,*73
$GPRMC,194405.000,A,3748.8054,N,12217.8588,W,0.58,49.76,111011,,,A*4A
$GPGGA,194406.000,3748.8039,N,12217.8595,W,1,04,6.8,10.5,M,-25.1,M,,0000*59
$GPGSA,A,3,25,12,04,10,,,,,,,,,7.8,6.8,3.7*36
$GPRMC,194406.000,A,3748.8039,N,12217.8595,W,0.62,36.36,111011,,,A*4B
$GPVTG,36.36,T,,M,0.62,N,1.1,K,A*39
$GPGGA,194407.000,3748.8019,N,12217.8605,W,1,04,6.8,10.5,M,-25.1,M,,0000*50
$GPGSA,A,3,25,12,04,10,,,,,,,,,7.8,6.8,3.7*36
$GPRMC,194407.000,A,3748.8019,N,12217.8605,W,0.95,135.29,111011,,,A*76
$GPVTG,135.29,T,,M,0.95,N,1.8,K,A*04
$GPGGA,194408.000,3748.8002,N,12217.8613,W,1,04,6.8,10.5,M,-25.1,M,,0000*52
$GPGSA,A,3,25,12,04,10,,,,,,,,,7.8,6.8,3.7*36
$GPRMC,194408.000,A,3748.8002,N,12217.8613,W,0.89,145.49,111011,,,A*78
$GPVTG,145.49,T,,M,0.89,N,1.7,K,A*07
$GPGGA,194409.000,3748.7978,N,12217.8624,W,1,04,6.8,10.5,M,-25.1,M,,0000*5C
$GPGSA,A,3,25,12,04,10,,,,,,,,,7.8,6.8,3.7*36
$GPRMC,194409.000,A,3748.7978,N,12217.8624,W,1.82,196.16,111011,,,A*78
$GPVTG,196.16,T,,M,1.82,N,3.4,K,A*08
$GPGGA,194410.000,3748.7978,N,12217.8623,W,1,04,6.8,10.2,M,-25.1,M,,0000*54
$GPGSA,A,3,25,12,04,10,,,,,,,,,7.7,6.8,3.7*39
$GPGSV,3,1,12,02,64,172,27,04,55,066,35,09,52,231,30,12,49,317,35*7B
$GPGSV,3,2,12,27,46,213,34,17,19,062,27,25,17,307,37,10,16,113,35*76
$GPGSV,3,3,12,14,02,310,28,29,01,255,,05,01,162,,28,00,118,*7E
$GPRMC,194410.000,A,3748.7978,N,12217.8623,W,0.13,114.47,111011,,,A*70
$GPVTG,114.47,T,,M,0.13,N,0.2,K,A*0A
$GPGGA,194411.000,3748.7978,N,12217.8621,W,1,04,6.8,9.8,M,-25.1,M,,0000*65
$GPGSA,A,3,25,12,04,10,,,,,,,,,7.7,6.8,3.7*39
$GPRMC,194411.000,A,3748.7978,N,12217.8621,W,0.39,39.73,111011,,,A*42
$GPVTG,39.73,T,,M,0.39,N,0.7,K,A*3E
$GPGGA,194412.000,3748.7978,N,12217.8620,W,1,04,6.8,9.5,M,-25.1,M,,0000*6A
$GPGSA,A,3,25,12,04,10,,,,,,,,,7.7,6.8,3.7*39
$GPRMC,194412.000,A,3748.7978,N,12217.8620,W,0.50,33.45,111011,,,A*40
$GPVTG,33.45,T,,M,0.50,N,0.9,K,A*30
$GPGGA,194413.000,3748.7980,N,12217.8617,W,1,04,6.8,9.0,M,-25.1,M,,0000*6D
$GPGSA,A,3,25,12,04,10,,,,,,,,,7.7,6.8,3.7*39
$GPRMC,194413.000,A,3748.7980,N,12217.8617,W,0.70,34.22,111011,,,A*46
$GPVTG,34.22,T,,M,0.70,N,1.3,K,A*3F
$GPGGA,194414.000,3748.7984,N,12217.8613,W,1,04,6.8,8.4,M,-25.1,M,,0000*6F
$GPGSA,A,3,25,12,04,10,,,,,,,,,7.7,6.8,3.7*39
$GPRMC,194414.000,A,3748.7984,N,12217.8613,W,0.82,32.80,111011,,,A*42
$GPVTG,32.80,T,,M,0.82,N,1.5,K,A*3A
$GPGGA,194415.000,3748.7990,N,12217.8609,W,1,04,6.8,7.8,M,-25.1,M,,0000*63
$GPGSA,A,3,25,12,04,10,,,,,,,,,7.7,6.8,3.7*39
$GPGSV,3,1,12,02,64,172,26,04,55,066,34,09,52,231,29,12,49,317,31*77
$GPGSV,3,2,12,27,46,213,34,17,19,062,29,25,17,307,37,10,16,113,34*79
$GPGSV,3,3,12,14,02,310,30,29,01,255,,05,01,162,,28,00,118,*77
$GPRMC,194415.000,A,3748.7990,N,12217.8609,W,1.01,31.16,111011,,,A*4B
$GPVTG,31.16,T,,M,1.01,N,1.9,K,A*30
$GPGGA,194416.000,3748.7996,N,12217.8604,W,1,04,6.8,7.3,M,-25.1,M,,0000*60
$GPGSA,A,3,25,12,04,10,,,,,,,,,7.7,6.8,3.7*39
$GPRMC,194416.000,A,3748.7996,N,12217.8604,W,1.06,31.83,111011,,,A*48
$GPVTG,31.83,T,,M,1.06,N,2.0,K,A*31
$GPGGA,194417.000,3748.8002,N,12217.8600,W,1,04,6.8,6.8,M,-25.1,M,,0000*64
$GPGSA,A,3,25,12,04,10,,,,,,,,,7.7,6.8,3.7*39
$GPRMC,194417.000,A,3748.8002,N,12217.8600,W,1.07,29.71,111011,,,A*43
$GPVTG,29.71,T,,M,1.07,N,2.0,K,A*34
$GPGGA,194418.000,3748.8008,N,12217.8596,W,1,04,6.8,6.4,M,-25.1,M,,0000*61
$GPGSA,A,3,25,12,04,10,,,,,,,,,7.7,6.8,3.7*39
$GPRMC,194418.000,A,3748.8008,N,12217.8596,W,1.25,25.53,111011,,,A*46
$GPVTG,25.53,T,,M,1.25,N,2.3,K,A*3B
$GPGGA,194419.000,3748.8012,N,12217.8594,W,1,04,6.8,6.0,M,-25.1,M,,0000*6D
$GPGSA,A,3,25,12,04,10,,,,,,,,,7.7,6.8,3.7*39
$GPRMC,194419.000,A,3748.8012,N,12217.8594,W,0.89,30.02,111011,,,A*49
$GPVTG,30.02,T,,M,0.89,N,1.6,K,A*3A
$GPGGA,194420.000,3748.8017,N,12217.8590,W,1,04,6.8,5.5,M,-25.1,M,,0000*60
$GPGSA,A,3,25,12,04,10,,,,,,,,,7.7,6.8,3.7*39
$GPGSV,3,1,12,02,64,172,,04,55,065,30,09,52,231,25,12,49,317,34*7D
$GPGSV,3,2,12,27,46,212,29,17,19,062,30,25,17,307,37,10,16,113,34*7C
$GPGSV,3,3,12,14,02,310,31,29,01,255,,05,01,162,,28,00,118,*76
$GPRMC,194420.000,A,3748.8017,N,12217.8590,W,1.02,29.39,111011,,,A*40
$GPVTG,29.39,T,,M,1.02,N,1.9,K,A*37
$GPGGA,194421.000,3748.8018,N,12217.8590,W,1,04,6.8,5.2,M,-25.1,M,,0000*69
$GPGSA,A,3,25,12,04,10,,,,,,,,,7.7,6.8,3.7*39
$GPRMC,194421.000,A,3748.8018,N,12217.8590,W,0.37,17.63,111011,,,A*4B
$GPVTG,17.63,T,,M,0.37,N,0.7,K,A*3D
$GPGGA,194422.000,3748.8023,N,12217.8589,W,1,04,6.8,4.9,M,-25.1,M,,0000*60
$GPGSA,A,3,25,12,04,10,,,,,,,,,7.7,6.8,3.7*39
$GPRMC,194422.000,A,3748.8023,N,12217.8589,W,0.85,10.74,111011,,,A*40
$GPVTG,10.74,T,,M,0.85,N,1.6,K,A*35
$GPGGA,194423.000,3748.8024,N,12217.8591,W,1,04,6.8,4.8,M,-25.1,M,,0000*6E
$GPGSA,A,3,25,12,04,10,,,,,,,,,7.7,6.8,3.7*39
$GPRMC,194423.000,A,3748.8024,N,12217.8591,W,0.85,340.41,111011,,,A*7F
$GPVTG,340.41,T,,M,0.85,N,1.6,K,A*05
$GPGGA,194424.000,3748.8027,N,12217.8591,W,1,04,6.8,4.5,M,-25.1,M,,0000*67
$GPGSA,A,3,25,12,04,10,,,,,,,,,7.7,6.8,3.7*39
$GPRMC,194424.000,A,3748.8027,N,12217.8591,W,0.76,20.00,111011,,,A*47
$GPVTG,20.00,T,,M,0.76,N,1.4,K,A*3B
$GPGGA,194425.000,3748.8040,N,12217.8582,W,1,04,6.8,4.0,M,-25.1,M,,0000*60
$GPGSA,A,3,25,12,04,10,,,,,,,,,7.7,6.8,3.7*39
$GPGSV,3,1,12,02,64,172,25,04,55,065,30,09,52,231,24,12,49,317,36*79
$GPGSV,3,2,12,27,46,212,25,17,19,062,30,25,17,307,40,10,16,113,25*70
$GPGSV,3,3,12,14,02,310,35,29,01,255,,05,01,162,,28,00,118,*72
$GPRMC,194425.000,A,3748.8040,N,12217.8582,W,1.33,34.95,111011,,,A*4C
$GPVTG,34.95,T,,M,1.33,N,2.5,K,A*30
$GPGGA,194426.000,3748.8053,N,12217.8575,W,1,04,6.8,4.0,M,-25.1,M,,0000*69
$GPGSA,A,3,25,12,04,10,,,,,,,,,7.7,6.8,3.7*39
$GPRMC,194426.000,A,3748.8053,N,12217.8575,W,1.25,22.48,111011,,,A*45
$GPVTG,22.48,T,,M,1.25,N,2.3,K,A*36
$GPGGA,194427.000,3748.8076,N,12217.8565,W,1,04,6.8,3.2,M,-25.1,M,,0000*6B
$GPGSA,A,3,25,12,04,10,,,,,,,,,7.7,6.8,3.7*39
$GPRMC,194427.000,A,3748.8076,N,12217.8565,W,1.89,20.81,111011,,,A*43
$GPVTG,20.81,T,,M,1.89,N,3.5,K,A*30
$GPGGA,194428.000,3748.8095,N,12217.8558,W,1,04,6.8,2.6,M,-25.1,M,,0000*62
$GPGSA,A,3,25,12,04,10,,,,,,,,,7.7,6.8,3.7*39
$GPRMC,194428.000,A,3748.8095,N,12217.8558,W,2.22,16.11,111011,,,A*41
$GPVTG,16.11,T,,M,2.22,N,4.1,K,A*3D
$GPGGA,194429.000,3748.8110,N,12217.8552,W,1,04,6.7,3.0,M,-25.1,M,,0000*6D
$GPGSA,A,3,25,12,04,10,,,,,,,,,7.7,6.7,3.7*36
$GPRMC,194429.000,A,3748.8110,N,12217.8552,W,2.15,12.04,111011,,,A*42
$GPVTG,12.04,T,,M,2.15,N,4.0,K,A*38
$GPGGA,194430.000,3748.8108,N,12217.8556,W,1,04,6.7,3.8,M,-25.1,M,,0000*60
$GPGSA,A,3,25,12,04,10,,,,,,,,,7.7,6.7,3.7*36
$GPGSV,3,1,12,02,64,172,29,04,55,065,30,09,52,231,25,12,49,317,34*76
$GPGSV,3,2,12,27,46,212,19,17,19,062,31,25,17,307,30,10,16,113,25*79
$GPGSV,3,3,12,14,02,310,26,29,01,255,,05,01,162,,28,00,118,*70
$GPVTG,22.05,T,,M,1.69,N,3.1,K,A*34
$GPGGA,194431.000,3748.8107,N,12217.8558,W,1,04,6.7,4.4,M,-25.1,M,,0000*6B
$GPGSA,A,3,25,12,04,10,,,,,,,,,7.7,6.7,3.7*36
$GPRMC,194431.000,A,3748.8107,N,12217.8558,W,1.14,19.18,111011,,,A*43
$GPVTG,19.18,T,,M,1.14,N,2.1,K,A*3B
$GPGGA,194432.000,3748.8106,N,12217.8560,W,1,04,6.7,4.9,M,-25.1,M,,0000*6F
$GPGSA,A,3,25,12,04,10,,,,,,,,,7.7,6.7,3.7*36
$GPRMC,194432.000,A,3748.8106,N,12217.8560,W,0.91,30.36,111011,,,A*41
$GPVTG,30.36,T,,M,0.91,N,1.7,K,A*35
$GPGGA,194433.000,3748.8093,N,12217.8568,W,1,04,6.7,6.4,M,-25.1,M,,0000*64
$GPGSA,A,3,25,12,04,10,,,,,,,,,7.7,6.7,3.7*36
$GPRMC,194433.000,A,3748.8093,N,12217.8568,W,0.55,52.62,111011,,,A*48
$GPVTG,52.62,T,,M,0.55,N,1.0,K,A*3F
$GPGGA,194434.000,3748.8080,N,12217.8572,W,1,04,6.7,8.1,M,-25.1,M,,0000*61
$GPGSA,A,3,25,12,04,10,,,,,,,,,7.7,6.7,3.7*36
$GPRMC,194434.000,A,3748.8080,N,12217.8572,W,0.68,93.85,111011,,,A*4C
$GPVTG,93.85,T,,M,0.68,N,1.3,K,A*36
$GPGGA,194435.000,3748.8066,N,12217.8577,W,1,04,6.7,8.8,M,-25.1,M,,0000*64
$GPGSA,A,3,25,12,04,10,,,,,,,,,7.7,6.7,3.7*36
$GPGSV,3,1,12,02,64,172,25,04,55,065,33,09,52,231,26,12,49,317,34*7A
$GPGSV,3,2,12,27,46,212,24,17,19,062,24,25,17,307,24,10,16,113,22*71
$GPGSV,3,3,12,14,02,310,23,29,01,255,,05,01,162,,28,00,118,*75
$GPRMC,194435.000,A,3748.8066,N,12217.8577,W,0.55,167.91,111011,,,A*71
$GPVTG,167.91,T,,M,0.55,N,1.0,K,A*04
$GPGGA,194436.000,3748.8060,N,12217.8580,W,1,03,50.0,8.8,M,-25.1,M,,0000*5A
$GPGSA,A,2,25,12,04,,,,,,,,,,50.0,50.0,1.0*32
$GPRMC,194436.000,A,3748.8060,N,12217.8580,W,1.22,188.39,111011,,,A*7E
$GPVTG,188.39,T,,M,1.22,N,2.3,K,A*06
$GPGGA,194437.000,3748.8040,N,12217.8587,W,1,04,6.7,8.9,M,-25.1,M,,0000*6C
$GPGSA,A,3,25,12,04,10,,,,,,,,,7.6,6.7,3.7*37
$GPRMC,194437.000,A,3748.8040,N,12217.8587,W,3.28,194.76,111011,,,A*74
$GPVTG,194.76,T,,M,3.28,N,6.1,K,A*0E
$GPGGA,194438.000,3748.8035,N,12217.8588,W,1,04,6.7,10.0,M,-25.1,M,,0000*5E
$GPGSA,A,3,25,12,04,10,,,,,,,,,7.6,6.7,3.6*36
$GPRMC,194438.000,A,3748.8035,N,12217.8588,W,3.03,212.10,111011,,,A*72
$GPVTG,212.10,T,,M,3.03,N,5.6,K,A*0E
$GPGGA,194439.000,3748.8030,N,12217.8595,W,1,04,6.7,11.6,M,-25.1,M,,0000*51
$GPGSA,A,3,25,12,04,10,,,,,,,,,7.6,6.7,3.6*36
$GPRMC,194439.000,A,3748.8030,N,12217.8595,W,1.62,227.88,111011,,,A*78
$GPVTG,227.88,T,,M,1.62,N,3.0,K,A*0C
$GPGGA,194440.000,3748.8042,N,12217.8590,W,1,04,6.7,11.6,M,-25.1,M,,0000*5F
$GPGSA,A,3,25,12,04,10,,,,,,,,,7.6,6.7,3.6*36
$GPGSV,3,1,12,02,64,172,25,04,55,065,25,09,52,231,25,12,49,317,32*78
$GPGSV,3,2,12,27,46,212,27,17,19,062,28,25,17,307,36,10,16,113,21*7E
$GPGSV,3,3,12,14,02,310,29,29,01,255,,05,01,162,,28,00,118,*7F
$GPRMC,194440.000,A,3748.8042,N,12217.8590,W,0.63,153.47,111011,,,A*75
$GPVTG,153.47,T,,M,0.63,N,1.2,K,A*0F
$GPGGA,194441.000,3748.8048,N,12217.8587,W,1,03,19.0,11.6,M,-25.1,M,,0000*6C
$GPGSA,A,2,25,12,10,,,,,,,,,,19.0,19.0,1.0*37
$GPRMC,194441.000,A,3748.8048,N,12217.8587,W,0.02,268.72,111011,,,A*72
$GPVTG,268.72,T,,M,0.02,N,0.0,K,N*09
$GPGGA,194442.000,3748.8059,N,12217.8581,W,1,04,6.7,11.6,M,-25.1,M,,0000*57
$GPGSA,A,3,25,12,04,10,,,,,,,,,7.6,6.7,3.6*36
$GPRMC,194442.000,A,3748.8059,N,12217.8581,W,2.17,35.36,111011,,,A*4B
$GPVTG,35.36,T,,M,2.17,N,4.0,K,A*3E
$GPGGA,194443.000,3748.8052,N,12217.8584,W,1,04,6.7,12.0,M,-25.1,M,,0000*5D
$GPGSA,A,3,25,12,04,10,,,,,,,,,7.6,6.7,3.6*36
$GPRMC,194443.000,A,3748.8052,N,12217.8584,W,1.78,30.92,111011,,,A*45
$GPVTG,30.92,T,,M,1.78,N,3.3,K,A*3B
$GPGGA,194444.000,3748.8040,N,12217.8595,W,1,04,6.7,11.7,M,-25.1,M,,0000*5D
$GPGSA,A,3,25,12,04,10,,,,,,,,,7.6,6.7,3.6*36
$GPRMC,194444.000,A,3748.8040,N,12217.8595,W,0.92,306.56,111011,,,A*7A
$GPVTG,306.56,T,,M,0.92,N,1.7,K,A*06
$GPGGA,194445.000,3748.8044,N,12217.8595,W,1,03,19.0,11.6,M,-25.1,M,,0000*67
$GPGSA,A,2,25,12,10,,,,,,,,,,19.0,19.0,1.0*37
$GPGSV,3,1,12,02,64,172,26,04,55,065,,09,52,231,28,12,49,317,30*73
$GPGSV,3,2,12,27,46,212,25,17,19,062,26,25,17,307,27,10,16,113,21*72
$GPGSV,3,3,12,14,02,310,,29,01,255,,05,01,162,,28,00,118,*74
$GPRMC,194445.000,A,3748.8044,N,12217.8595,W,0.32,304.97,111011,,,A*7A
$GPGGA,194446.000,3748.8041,N,12217.8595,W,1,04,6.7,11.5,M,-25.1,M,,0000*5C
$GPGSA,A,3,25,12,04,10,,,,,,,,,7.6,6.7,3.6*36
$GPRMC,194446.000,A,3748.8041,N,12217.8595,W,0.77,110.65,111011,,,A*77
$GPVTG,110.65,T,,M,0.77,N,1.4,K,A*0B
$GPGGA,194447.000,3748.8046,N,12217.8588,W,1,04,6.7,11.1,M,-25.1,M,,0000*52
$GPGSA,A,3,25,12,04,10,,,,,,,,,7.6,6.7,3.6*36
$GPRMC,194447.000,A,3748.8046,N,12217.8588,W,0.46,62.99,111011,,,A*48
$GPVTG,62.99,T,,M,0.46,N,0.8,K,A*33
$GPGGA,194448.000,3748.8039,N,12217.8593,W,1,04,6.7,11.1,M,-25.1,M,,0000*5F
$GPGSA,A,3,25,12,04,10,,,,,,,,,7.6,6.7,3.6*36
$GPRMC,194448.000,A,3748.8039,N,12217.8593,W,0.18,317.27,111011,,,A*7A
$GPVTG,317.27,T,,M,0.18,N,0.3,K,A*07
$GPGGA,194449.000,3748.8037,N,12217.8593,W,1,04,6.7,10.8,M,-25.1,M,,0000*58
$GPGSA,A,3,25,12,04,10,,,,,,,,,7.6,6.7,3.6*36
$GPRMC,194449.000,A,3748.8037,N,12217.8593,W,0.14,181.70,111011,,,A*76
$GPVTG,181.70,T,,M,0.14,N,0.3,K,A*04
$GPGGA,194450.000,3748.8045,N,12217.8584,W,1,04,6.7,10.6,M,-25.1,M,,0000*5D
$GPGSA,A,3,25,12,04,10,,,,,,,,,7.6,6.7,3.6*36
$GPGSV,3,1,12,02,64,172,40,04,55,065,33,09,52,231,38,12,49,317,33*71
$GPGSV,3,2,12,27,46,212,37,17,19,062,31,25,17,307,31,10,16,113,36*76
$GPGSV,3,3,12,14,02,310,23,29,01,255,,05,01,162,,28,00,118,*75
$GPRMC,194450.000,A,3748.8045,N,12217.8584,W,0.74,81.45,111011,,,A*4C
$GPVTG,81.45,T,,M,0.74,N,1.4,K,A*33
$GPGGA,194451.000,3748.8039,N,12217.8586,W,1,04,6.7,10.7,M,-25.1,M,,0000*54
$GPGSA,A,3,25,12,04,10,,,,,,,,,7.6,6.7,3.6*36
$GPRMC,194451.000,A,3748.8039,N,12217.8586,W,0.50,78.83,111011,,,A*4E
$GPVTG,78.83,T,,M,0.50,N,0.9,K,A*35
$GPGGA,194452.000,3748.8043,N,12217.8579,W,1,04,6.7,9.9,M,-25.1,M,,0000*6C
$GPGSA,A,3,25,12,04,10,,,,,,,,,7.6,6.7,3.6*36
$GPRMC,194452.000,A,3748.8043,N,12217.8579,W,0.78,73.29,111011,,,A*41
$GPVTG,73.29,T,,M,0.78,N,1.4,K,A*38
$GPGGA,194453.000,3748.8044,N,12217.8571,W,1,04,6.7,10.1,M,-25.1,M,,0000*52
$GPGSA,A,3,25,12,04,10,,,,,,,,,7.6,6.7,3.6*36
$GPRMC,194453.000,A,3748.8044,N,12217.8571,W,0.84,58.29,111011,,,A*45
$GPVTG,58.29,T,,M,0.84,N,1.6,K,A*30
$GPGGA,194454.000,3748.8034,N,12217.8575,W,1,04,6.7,11.5,M,-25.1,M,,0000*53
$GPGSA,A,3,25,12,04,10,,,,,,,,,7.6,6.7,3.6*36
$GPRMC,194454.000,A,3748.8034,N,12217.8575,W,0.57,47.81,111011,,,A*43
$GPVTG,47.81,T,,M,0.57,N,1.1,K,A*35
$GPGGA,194455.000,3748.8031,N,12217.8571,W,1,04,6.7,12.6,M,-25.1,M,,0000*53
$GPGSA,A,3,25,12,04,10,,,,,,,,,7.6,6.7,3.6*36
$GPGSV,3,1,12,02,64,172,35,04,55,065,34,09,52,231,34,12,49,317,25*7F
$GPGSV,3,2,12,27,46,212,31,17,19,062,38,25,17,307,22,10,16,113,37*7A
$GPGSV,3,3,12,14,02,310,,29,01,255,,05,01,162,,28,00,118,*74
$GPRMC,194455.000,A,3748.8031,N,12217.8571,W,0.26,47.25,111011,,,A*4B
$GPVTG,47.25,T,,M,0.26,N,0.5,K,A*38
$GPGGA,194456.000,3748.8022,N,12217.8574,W,1,03,4.0,13.6,M,-25.1,M,,0000*54
$GPGSA,A,2,25,04,10,,,,,,,,,,4.2,4.0,1.0*32
$GPRMC,194456.000,A,3748.8022,N,12217.8574,W,0.25,269.36,111011,,,A*70
$GPVTG,269.36,T,,M,0.25,N,0.5,K,N*08
$GPGGA,194457.000,3748.8013,N,12217.8579,W,1,04,6.6,14.6,M,-25.1,M,,0000*5E
$GPGSA,A,3,25,12,04,10,,,,,,,,,7.6,6.6,3.6*37
$GPRMC,194457.000,A,3748.8013,N,12217.8579,W,0.44,257.65,111011,,,A*72
$GPVTG,257.65,T,,M,0.44,N,0.8,K,A*06
$GPGGA,194458.000,3748.8004,N,12217.8586,W,1,03,4.2,14.9,M,-25.1,M,,0000*59
$GPGSA,A,2,12,04,10,,,,,,,,,,4.3,4.2,1.0*35
$GPRMC,194458.000,A,3748.8004,N,12217.8586,W,0.95,220.87,111011,,,A*7B
$GPVTG,220.87,T,,M,0.95,N,1.8,K,A*07
$GPGGA,194459.000,3748.7999,N,12217.8587,W,1,04,6.6,14.9,M,-25.1,M,,0000*5A
$GPGSA,A,3,25,12,04,10,,,,,,,,,7.6,6.6,3.6*37
$GPRMC,194459.000,A,3748.7999,N,12217.8587,W,0.96,233.58,111011,,,A*7A
$GPVTG,233.58,T,,M,0.96,N,1.8,K,A*04
$GPGGA,194500.000,3748.7975,N,12217.8605,W,1,04,6.6,17.1,M,-25.1,M,,0000*57
$GPGSA,A,3,25,12,04,10,,,,,,,,,7.6,6.6,3.6*37
$GPGSV,3,1,12,02,64,172,30,04,55,065,32,09,52,231,24,12,49,317,18*73
$GPGSV,3,2,12,27,46,212,25,17,19,062,30,25,17,307,21,10,16,113,37*74
$GPGSV,3,3,12,14,02,310,,29,01,255,,05,01,162,,28,00,118,*74
$GPRMC,194500.000,A,3748.7975,N,12217.8605,W,1.06,205.97,111011,,,A*72
$GPGGA,194501.000,3748.7972,N,12217.8605,W,1,04,6.6,17.2,M,-25.1,M,,0000*52
$GPGSA,A,3,25,12,04,10,,,,,,,,,7.6,6.6,3.6*37
$GPRMC,194501.000,A,3748.7972,N,12217.8605,W,0.67,201.66,111011,,,A*78
$GPVTG,201.66,T,,M,0.67,N,1.2,K,A*0C
$GPGGA,194502.000,3748.7966,N,12217.8605,W,1,03,4.0,17.9,M,-25.1,M,,0000*5C
$GPGSA,A,2,25,04,10,,,,,,,,,,4.1,4.0,1.0*31
$GPRMC,194502.000,A,3748.7966,N,12217.8605,W,0.40,188.34,111011,,,A*7E
$GPVTG,188.34,T,,M,0.40,N,0.7,K,A*08
$GPGGA,194503.000,3748.7965,N,12217.8603,W,1,04,6.6,18.1,M,-25.1,M,,0000*5C
$GPGSA,A,3,25,12,04,10,,,,,,,,,7.5,6.6,3.6*34
$GPRMC,194503.000,A,3748.7965,N,12217.8603,W,0.24,224.55,111011,,,A*7A
$GPVTG,224.55,T,,M,0.24,N,0.5,K,A*0A
$GPGGA,194504.000,3748.7960,N,12217.8602,W,1,04,6.6,19.0,M,-25.1,M,,0000*5F
$GPGSA,A,3,25,12,04,10,,,,,,,,,7.5,6.6,3.6*34
$GPRMC,194504.000,A,3748.7960,N,12217.8602,W,0.19,203.51,111011,,,A*76
$GPVTG,203.51,T,,M,0.19,N,0.3,K,A*03
$GPGGA,194505.000,3748.7955,N,12217.8603,W,1,03,4.0,20.3,M,-25.1,M,,0000*53
$GPGSA,A,2,25,04,10,,,,,,,,,,4.1,4.0,1.0*31
$GPGSV,3,1,12,02,64,172,32,04,55,065,28,09,52,231,25,12,49,317,17*74
$GPGSV,3,2,12,27,46,212,25,17,19,062,26,25,17,307,23,10,16,113,37*71
$GPGSV,3,3,12,14,02,310,,29,01,255,,05,01,162,,28,00,118,*74
$GPRMC,194505.000,A,3748.7955,N,12217.8603,W,0.07,176.44,111011,,,A*7A
$GPVTG,176.44,T,,M,0.07,N,0.1,K,A*0B
$GPGGA,194506.000,3748.7950,N,12217.8602,W,1,03,4.0,21.2,M,-25.1,M,,0000*54
$GPGSA,A,2,25,04,10,,,,,,,,,,4.1,4.0,1.0*31
$GPRMC,194506.000,A,3748.7950,N,12217.8602,W,0.18,122.29,111011,,,A*79
$GPVTG,122.29,T,,M,0.18,N,0.3,K,A*0D
$GPGGA,194507.000,3748.7949,N,12217.8599,W,1,03,4.0,21.5,M,-25.1,M,,0000*5B
$GPGSA,A,2,25,04,10,,,,,,,,,,4.1,4.0,1.0*31
$GPRMC,194507.000,A,3748.7949,N,12217.8599,W,0.40,102.32,111011,,,A*74
$GPVTG,102.32,T,,M,0.40,N,0.7,K,A*0C
$GPGGA,194508.000,3748.7960,N,12217.8586,W,1,04,6.6,21.1,M,-25.1,M,,0000*56
$GPGSA,A,3,25,12,04,10,,,,,,,,,7.5,6.6,3.6*34
$GPRMC,194508.000,A,3748.7960,N,12217.8586,W,0.81,60.35,111011,,,A*41
$GPVTG,60.35,T,,M,0.81,N,1.5,K,A*30
$GPGGA,194509.000,3748.7969,N,12217.8575,W,1,03,4.0,21.5,M,-25.1,M,,0000*55
$GPGSA,A,2,25,04,10,,,,,,,,,,4.1,4.0,1.0*31
$GPRMC,194509.000,A,3748.7969,N,12217.8575,W,1.52,34.71,111011,,,A*4B
$GPVTG,34.71,T,,M,1.52,N,2.8,K,A*30
$GPGGA,194510.000,3748.7982,N,12217.8559,W,1,04,6.6,21.4,M,-25.1,M,,0000*54
$GPGSA,A,3,25,12,04,10,,,,,,,,,7.5,6.6,3.6*34
$GPGSV,3,1,12,02,64,172,32,04,55,065,25,09,52,231,29,12,49,317,18*7A
$GPGSV,3,2,12,27,46,212,30,17,19,062,26,25,17,307,23,10,16,113,33*71
$GPGSV,3,3,12,14,02,310,,29,01,255,,05,01,162,,28,00,118,*74
$GPRMC,194510.000,A,3748.7982,N,12217.8559,W,1.59,33.95,111011,,,A*4E
$GPVTG,33.95,T,,M,1.59,N,2.9,K,A*37
$GPGGA,194511.000,3748.7970,N,12217.8567,W,1,04,6.6,23.1,M,-25.1,M,,0000*52
$GPGSA,A,3,25,12,04,10,,,,,,,,,7.5,6.6,3.6*34
$GPRMC,194511.000,A,3748.7970,N,12217.8567,W,0.73,45.54,111011,,,A*4A
$GPVTG,45.54,T,,M,0.73,N,1.3,K,A*3B
$GPGGA,194512.000,3748.7961,N,12217.8569,W,1,04,6.6,25.2,M,-25.1,M,,0000*5A
$GPGSA,A,3,25,12,04,10,,,,,,,,,7.5,6.6,3.6*34
$GPRMC,194512.000,A,3748.7961,N,12217.8569,W,0.46,60.40,111011,,,A*43
$GPVTG,60.40,T,,M,0.46,N,0.8,K,A*35
$GPGGA,194513.000,3748.7936,N,12217.8579,W,1,04,6.6,29.5,M,-25.1,M,,0000*53
$GPGSA,A,3,25,12,04,10,,,,,,,,,7.5,6.6,3.6*34
$GPRMC,194513.000,A,3748.7936,N,12217.8579,W,0.60,103.94,111011,,,A*78
$GPVTG,103.94,T,,M,0.60,N,1.1,K,A*04
$GPGGA,194514.000,3748.7931,N,12217.8579,W,1,04,6.6,30.3,M,-25.1,M,,0000*5D
$GPGSA,A,3,25,12,04,10,,,,,,,,,7.5,6.6,3.6*34
$GPRMC,194514.000,A,3748.7931,N,12217.8579,W,0.50,114.53,111011,,,A*76
$GPVTG,114.53,T,,M,0.50,N,0.9,K,A*03
$GPGGA,194515.000,3748.7934,N,12217.8578,W,1,04,6.6,29.1,M,-25.1,M,,0000*52
$GPGSA,A,3,25,12,04,10,,,,,,,,,7.5,6.6,3.6*34
$GPGSV,3,1,12,02,64,172,32,04,55,065,34,09,52,231,22,12,49,317,13*7A
$GPGSV,3,2,12,27,46,212,30,17,19,062,27,25,17,307,23,10,16,113,33*70
$GPGSV,3,3,12,14,02,310,,29,01,255,,05,01,162,,28,00,118,*74
$GPRMC,194515.000,A,3748.7934,N,12217.8578,W,0.31,131.29,111011,,,A*7E
$GPVTG,131.29,T,,M,0.31,N,0.6,K,A*01
$GPGGA,194516.000,3748.7947,N,12217.8569,W,1,04,6.6,26.6,M,-25.1,M,,0000*5D
$GPGSA,A,3,25,12,04,10,,,,,,,,,7.5,6.6,3.6*34
$GPRMC,194516.000,A,3748.7947,N,12217.8569,W,0.13,185.27,111011,,,A*78
$GPVTG,185.27,T,,M,0.13,N,0.2,K,A*04
$GPGGA,194517.000,3748.7958,N,12217.8564,W,1,04,6.6,24.6,M,-25.1,M,,0000*5D
$GPGSA,A,3,25,12,04,10,,,,,,,,,7.5,6.6,3.6*34
$GPRMC,194517.000,A,3748.7958,N,12217.8564,W,0.11,85.72,111011,,,A*49
$GPVTG,85.72,T,,M,0.11,N,0.2,K,A*37
$GPGGA,194518.000,3748.7958,N,12217.8561,W,1,04,6.6,24.7,M,-25.1,M,,0000*56
$GPGSA,A,3,25,12,04,10,,,,,,,,,7.5,6.6,3.6*34
$GPRMC,194518.000,A,3748.7958,N,12217.8561,W,0.45,69.42,111011,,,A*43
$GPVTG,69.42,T,,M,0.45,N,0.8,K,A*3D
$GPGGA,194519.000,3748.7972,N,12217.8546,W,1,04,6.6,23.1,M,-25.1,M,,0000*5B
$GPGSA,A,3,25,12,04,10,,,,,,,,,7.5,6.6,3.6*34
$GPRMC,194519.000,A,3748.7972,N,12217.8546,W,1.06,52.15,111011,,,A*43
$GPVTG,52.15,T,,M,1.06,N,2.0,K,A*3B
$GPGGA,194520.000,3748.7981,N,12217.8533,W,1,04,6.6,22.8,M,-25.1,M,,0000*57
$GPGSA,A,3,25,12,04,10,,,,,,,,,7.5,6.6,3.6*34
$GPGSV,3,1,12,02,64,172,32,04,55,065,32,09,52,230,23,12,50,318,23*78
$GPGSV,3,2,12,27,46,212,28,17,19,062,27,25,17,308,19,10,17,113,33*7E
$GPGSV,3,3,12,14,01,309,,29,01,255,,05,01,162,,51,43,156,35*7A
$GPRMC,194520.000,A,3748.7981,N,12217.8533,W,1.30,37.56,111011,,,A*46
$GPVTG,37.56,T,,M,1.30,N,2.4,K,A*3E
$GPGGA,194521.000,3748.7959,N,12217.8547,W,1,04,6.6,25.8,M,-25.1,M,,0000*57
$GPGSA,A,3,25,12,04,10,,,,,,,,,7.5,6.6,3.6*34
$GPRMC,194521.000,A,3748.7959,N,12217.8547,W,0.37,27.74,111011,,,A*46
$GPVTG,27.74,T,,M,0.37,N,0.7,K,A*38
$GPGGA,194522.000,3748.7943,N,12217.8554,W,1,04,6.6,28.4,M,-25.1,M,,0000*5C
$GPGSA,A,3,25,12,04,10,,,,,,,,,7.5,6.6,3.6*34
$GPRMC,194522.000,A,3748.7943,N,12217.8554,W,0.46,154.83,111011,,,A*77
$GPVTG,154.83,T,,M,0.46,N,0.8,K,A*0C
$GPGGA,194523.000,3748.7949,N,12217.8553,W,2,04,6.5,26.9,M,-25.1,M,,0000*53
$GPGSA,A,3,25,12,04,10,,,,,,,,,7.5,6.5,3.6*37
$GPRMC,194523.000,A,3748.7949,N,12217.8553,W,0.78,146.59,111011,,,D*77
$GPVTG,146.59,T,,M,0.78,N,1.4,K,D*0D
$GPGGA,194524.000,3748.7958,N,12217.8547,W,2,04,6.5,25.8,M,-25.1,M,,0000*53
$GPGSA,A,3,25,12,04,10,,,,,,,,,7.5,6.5,3.6*37
$GPRMC,194524.000,A,3748.7958,N,12217.8547,W,0.68,116.46,111011,,,D*7F
$GPVTG,116.46,T,,M,0.68,N,1.3,K,D*00
$GPGGA,194525.000,3748.7969,N,12217.8542,W,2,04,6.5,24.0,M,-25.1,M,,0000*5C
$GPGSA,A,3,25,12,04,10,,,,,,,,,7.5,6.5,3.6*37
$GPGSV,3,1,12,02,64,172,33,04,55,065,26,09,52,230,33,12,50,318,23*7D
$GPGSV,3,2,12,27,46,212,34,17,19,062,23,25,17,308,22,10,17,113,30*7C
$GPGSV,3,3,12,14,01,309,,29,01,255,,05,01,162,,51,43,156,38*77
$GPRMC,194525.000,A,3748.7969,N,12217.8542,W,0.71,106.17,111011,,,D*74
$GPVTG,106.17,T,,M,0.71,N,1.3,K,D*0D
$GPGGA,194526.000,3748.7978,N,12217.8536,W,2,04,6.5,22.3,M,-25.1,M,2.8,0000*7D
$GPGSA,A,3,25,12,04,10,,,,,,,,,7.5,6.5,3.6*37
$GPRMC,194526.000,A,3748.7978,N,12217.8536,W,0.60,59.07,111011,,,D*4E
$GPVTG,59.07,T,,M,0.60,N,1.1,K,D*35
$GPGGA,194527.000,3748.7988,N,12217.8534,W,2,04,6.5,19.9,M,-25.1,M,3.8,0000*72
$GPGSA,A,3,25,12,04,10,,,,,,,,,7.5,6.5,3.6*37
$GPRMC,194527.000,A,3748.7988,N,12217.8534,W,0.32,338.42,111011,,,D*70
$GPVTG,338.42,T,,M,0.32,N,0.6,K,D*01
$GPGGA,194528.000,3748.7984,N,12217.8540,W,2,04,6.5,20.0,M,-25.1,M,4.8,0000*76
$GPGSA,A,3,25,12,04,10,,,,,,,,,7.5,6.5,3.6*37
$GPRMC,194528.000,A,3748.7984,N,12217.8540,W,0.70,56.37,111011,,,D*4F
$GPVTG,56.37,T,,M,0.70,N,1.3,K,D*3A
$GPGGA,194529.000,3748.7962,N,12217.8556,W,2,04,6.5,21.8,M,-25.1,M,5.8,0000*70
$GPGSA,A,3,25,12,04,10,,,,,,,,,7.5,6.5,3.6*37
$GPRMC,194529.000,A,3748.7962,N,12217.8556,W,0.76,180.81,111011,,,D*70
$GPVTG,180.81,T,,M,0.76,N,1.4,K,D*0C
$GPGGA,194530.000,3748.7960,N,12217.8556,W,2,04,6.5,21.4,M,-25.1,M,,0000*55
$GPGSA,A,3,25,12,04,10,,,,,,,,,7.5,6.5,3.6*37
$GPGSV,3,1,12,02,64,172,30,04,55,065,19,09,52,230,33,12,50,318,23*72
$GPGSV,3,2,12,27,46,212,34,17,19,062,23,25,17,308,23,10,17,113,24*78
$GPGSV,3,3,12,14,01,309,,29,01,255,,05,01,162,,51,43,156,35*7A
$GPRMC,194530.000,A,3748.7960,N,12217.8556,W,1.07,134.31,111011,,,D*79
$GPGGA,194531.000,3748.7955,N,12217.8558,W,2,04,6.5,19.7,M,-25.1,M,,0000*54
$GPGSA,A,3,25,12,04,10,,,,,,,,,7.4,6.5,3.6*36
$GPRMC,194531.000,A,3748.7955,N,12217.8558,W,1.08,120.80,111011,,,D*70
$GPVTG,120.80,T,,M,1.08,N,2.0,K,D*08
$GPGGA,194532.000,3748.7937,N,12217.8567,W,2,04,6.5,20.7,M,-25.1,M,2.8,0000*71
$GPGSA,A,3,25,12,04,10,,,,,,,,,7.4,6.5,3.6*36
$GPRMC,194532.000,A,3748.7937,N,12217.8567,W,2.07,139.70,111011,,,D*70
$GPVTG,139.70,T,,M,2.07,N,3.8,K,D*0A
$GPGGA,194533.000,3748.7931,N,12217.8568,W,2,04,6.5,20.6,M,-25.1,M,1.8,0000*7B
$GPGSA,A,3,25,12,04,10,,,,,,,,,7.4,6.5,3.6*36
$GPRMC,194533.000,A,3748.7931,N,12217.8568,W,1.50,152.48,111011,,,D*7F
$GPVTG,152.48,T,,M,1.50,N,2.8,K,D*0C
$GPGGA,194534.000,3748.7921,N,12217.8571,W,2,04,6.5,19.0,M,-25.1,M,1.8,0000*79
$GPGSA,A,3,25,12,04,10,,,,,,,,,7.4,6.5,3.6*36
$GPRMC,194534.000,A,3748.7921,N,12217.8571,W,1.93,152.86,111011,,,D*7C
$GPVTG,152.86,T,,M,1.93,N,3.6,K,D*0E
$GPGGA,194535.000,3748.7893,N,12217.8584,W,2,04,6.5,17.1,M,-25.1,M,1.8,0000*75
$GPGSA,A,3,25,12,04,10,,,,,,,,,7.4,6.5,3.6*36
$GPGSV,3,1,12,02,64,172,30,04,55,065,25,09,52,230,34,12,50,318,23*7A
$GPGSV,3,2,12,27,46,212,34,17,19,062,24,25,17,308,25,10,17,113,24*79
$GPGSV,3,3,12,14,01,309,19,29,01,255,,05,01,162,,51,43,156,36*71
$GPRMC,194535.000,A,3748.7893,N,12217.8584,W,3.58,186.07,111011,,,D*7A
$GPVTG,186.07,T,,M,3.58,N,6.6,K,D*0E
$GPGGA,194536.000,3748.7863,N,12217.8601,W,2,04,6.5,18.6,M,-25.1,M,1.8,0000*7F
$GPGSA,A,3,25,12,04,10,,,,,,,,,7.4,6.5,3.6*36
$GPRMC,194536.000,A,3748.7863,N,12217.8601,W,3.58,186.42,111011,,,D*79
$GPVTG,186.42,T,,M,3.58,N,6.6,K,D*0F
$GPGGA,194537.000,3748.7875,N,12217.8593,W,2,04,6.5,15.5,M,-25.1,M,1.8,0000*7F
$GPGSA,A,3,25,12,04,10,,,,,,,,,7.4,6.5,3.6*36
$GPRMC,194537.000,A,3748.7875,N,12217.8593,W,2.57,174.04,111011,,,D*76
$GPVTG,174.04,T,,M,2.57,N,4.8,K,D*02
$GPGGA,194538.000,3748.7872,N,12217.8593,W,2,04,6.5,14.7,M,-25.1,M,2.8,0000*77
$GPGSA,A,3,25,12,04,10,,,,,,,,,7.4,6.5,3.6*36
$GPRMC,194538.000,A,3748.7872,N,12217.8593,W,2.02,166.96,111011,,,D*76
$GPVTG,166.96,T,,M,2.02,N,3.7,K,D*02
$GPGGA,194539.000,3748.7886,N,12217.8580,W,2,04,6.5,14.8,M,-25.1,M,1.8,0000*73
$GPGSA,A,3,25,12,04,10,,,,,,,,,7.4,6.5,3.6*36
$GPRMC,194539.000,A,3748.7886,N,12217.8580,W,1.82,104.22,111011,,,D*7E
$GPVTG,104.22,T,,M,1.82,N,3.4,K,D*01
$GPGGA,194540.000,3748.7915,N,12217.8549,W,2,04,6.5,12.8,M,-25.1,M,2.8,0000*76
$GPGSA,A,3,25,12,04,10,,,,,,,,,7.4,6.5,3.6*36
$GPGSV,3,1,12,02,64,172,36,04,55,065,25,09,52,230,34,12,50,318,22*7D
$GPGSV,3,2,12,27,46,212,35,17,19,062,17,25,17,308,25,10,17,113,25*79
$GPGSV,3,3,12,14,01,309,19,29,01,255,,05,01,162,,51,43,156,36*71
$GPRMC,194540.000,A,3748.7915,N,12217.8549,W,2.82,85.33,111011,,,D*45
$GPVTG,85.33,T,,M,2.82,N,5.2,K,D*3A
$GPGGA,194541.000,3748.7903,N,12217.8547,W,2,04,6.5,13.6,M,-25.1,M,1.8,0000*72
$GPGSA,A,3,25,12,04,10,,,,,,,,,7.4,6.5,3.6*36
$GPRMC,194541.000,A,3748.7903,N,12217.8547,W,2.35,100.76,111011,,,D*7C
$GPVTG,100.76,T,,M,2.35,N,4.4,K,D*0C
$GPGGA,194542.000,3748.7897,N,12217.8544,W,2,04,6.5,12.9,M,-25.1,M,1.8,0000*70
$GPGSA,A,3,25,12,04,10,,,,,,,,,7.4,6.5,3.6*36
$GPRMC,194542.000,A,3748.7897,N,12217.8544,W,1.58,102.86,111011,,,D*75
$GPVTG,102.86,T,,M,1.58,N,2.9,K,D*02
$GPGGA,194543.000,3748.7882,N,12217.8551,W,2,04,6.5,13.6,M,-25.1,M,1.8,0000*7F
$GPGSA,A,3,25,12,04,10,,,,,,,,,7.4,6.5,3.6*36
$GPRMC,194543.000,A,3748.7882,N,12217.8551,W,1.51,133.94,111011,,,D*7C
$GPVTG,133.94,T,,M,1.51,N,2.8,K,D*0B
$GPGGA,194544.000,3748.7866,N,12217.8560,W,2,04,6.5,13.7,M,-25.1,M,2.8,0000*72
$GPGSA,A,3,25,12,04,10,,,,,,,,,7.4,6.5,3.6*36
$GPRMC,194544.000,A,3748.7866,N,12217.8560,W,1.77,136.66,111011,,,D*7F
$GPVTG,136.66,T,,M,1.77,N,3.3,K,D*0D
$GPGGA,194545.000,3748.7849,N,12217.8565,W,2,04,6.5,14.7,M,-25.1,M,3.8,0000*7D
$GPGSA,A,3,25,12,04,10,,,,,,,,,7.4,6.5,3.6*36
$GPGSV,3,1,12,02,64,172,36,04,55,064,25,09,52,230,35,12,50,318,29*76
$GPGSV,3,2,12,27,45,212,41,17,19,062,19,25,18,308,26,10,17,112,28*77
$GPGSV,3,3,12,14,01,309,20,29,01,255,,05,01,162,,51,43,156,34*79
$GPRMC,194545.000,A,3748.7849,N,12217.8565,W,1.71,154.13,111011,,,D*76
$GPGGA,194546.000,3748.7865,N,12217.8547,W,2,04,6.5,13.9,M,-25.1,M,1.8,0000*7B
$GPGSA,A,3,25,12,04,10,,,,,,,,,7.4,6.5,3.6*36
$GPRMC,194546.000,A,3748.7865,N,12217.8547,W,1.60,111.38,111011,,,D*73
$GPVTG,111.38,T,,M,1.60,N,3.0,K,D*06
$GPGGA,194547.000,3748.7882,N,12217.8529,W,2,04,6.5,13.0,M,-25.1,M,1.8,0000*72
$GPGSA,A,3,25,12,04,10,,,,,,,,,7.4,6.5,3.6*36
$GPRMC,194547.000,A,3748.7882,N,12217.8529,W,2.10,83.62,111011,,,D*42
$GPVTG,83.62,T,,M,2.10,N,3.9,K,D*3E
$GPGGA,194548.000,3748.7886,N,12217.8519,W,2,04,6.5,13.6,M,-25.1,M,1.8,0000*7C
$GPGSA,A,3,25,12,04,10,,,,,,,,,7.4,6.5,3.6*36
$GPRMC,194548.000,A,3748.7886,N,12217.8519,W,1.92,77.57,111011,,,D*4E
$GPVTG,77.57,T,,M,1.92,N,3.6,K,D*35
$GPGGA,194549.000,3748.7892,N,12217.8509,W,2,04,6.5,13.3,M,-25.1,M,1.8,0000*7C
$GPGSA,A,3,25,12,04,10,,,,,,,,,7.4,6.5,3.6*36
$GPRMC,194549.000,A,3748.7892,N,12217.8509,W,2.04,84.63,111011,,,D*4C
$GPVTG,84.63,T,,M,2.04,N,3.8,K,D*3C
$GPGGA,194550.000,3748.7888,N,12217.8508,W,2,04,6.5,13.9,M,-25.1,M,1.8,0000*74
$GPGSA,A,3,25,12,04,10,,,,,,,,,7.4,6.5,3.6*36
$GPGSV,3,1,12,02,65,172,29,04,55,064,31,09,52,230,36,12,50,318,28*7E
$GPGSV,3,2,12,27,45,212,35,17,19,062,19,25,18,308,30,10,17,112,25*7E
$GPGSV,3,3,12,29,01,256,,14,01,309,20,05,01,162,,51,43,156,36*78
$GPRMC,194550.000,A,3748.7888,N,12217.8508,W,1.05,73.65,111011,,,D*42
$GPVTG,73.65,T,,M,1.05,N,2.0,K,D*39
$GPGGA,194551.000,3748.7884,N,12217.8509,W,2,04,6.5,14.8,M,-25.1,M,2.8,0000*7D
$GPGSA,A,3,25,12,04,10,,,,,,,,,7.4,6.5,3.6*36
$GPRMC,194551.000,A,3748.7884,N,12217.8509,W,0.81,41.85,111011,,,D*4C
$GPVTG,41.85,T,,M,0.81,N,1.5,K,D*3D
$GPGGA,194552.000,3748.7887,N,12217.8507,W,2,04,6.4,14.6,M,-25.1,M,3.8,0000*7D
$GPGSA,A,3,25,12,04,10,,,,,,,,,7.4,6.4,3.6*37
$GPRMC,194552.000,A,3748.7887,N,12217.8507,W,0.77,7.53,111011,,,D*72
$GPVTG,7.53,T,,M,0.77,N,1.4,K,D*0C
$GPGGA,194553.000,3748.7888,N,12217.8507,W,2,04,6.4,14.3,M,-25.1,M,1.8,0000*74
$GPGSA,A,3,25,12,04,10,,,,,,,,,7.4,6.4,3.6*37
$GPRMC,194553.000,A,3748.7888,N,12217.8507,W,0.47,0.65,111011,,,D*7D
$GPVTG,0.65,T,,M,0.47,N,0.9,K,D*01
$GPGGA,194554.000,3748.7875,N,12217.8518,W,2,03,4.1,15.9,M,-25.1,M,1.8,0000*74
$GPGSA,A,2,12,04,10,,,,,,,,,,4.3,4.1,1.0*36
$GPRMC,194554.000,A,3748.7875,N,12217.8518,W,0.05,65.05,111011,,,D*45
$GPVTG,65.05,T,,M,0.05,N,0.1,K,N*30
$GPGGA,194555.000,3748.7887,N,12217.8513,W,2,04,6.4,13.4,M,-25.1,M,1.8,0000*78
$GPGSA,A,3,25,12,04,10,,,,,,,,,7.4,6.4,3.6*37
$GPGSV,3,1,12,02,65,172,33,04,55,064,33,09,52,230,31,12,50,318,22*7A
$GPGSV,3,2,12,27,45,212,28,17,19,062,19,25,18,308,14,10,17,112,29*78
$GPGSV,3,3,12,29,01,256,,14,01,309,,05,01,162,,51,43,156,37*7B
$GPRMC,194555.000,A,3748.7887,N,12217.8513,W,0.92,251.33,111011,,,D*7C
$GPVTG,251.33,T,,M,0.92,N,1.7,K,D*03
$GPGGA,194556.000,3748.7891,N,12217.8515,W,2,04,6.4,10.6,M,-25.1,M,2.8,0000*78
$GPGSA,A,3,25,12,04,10,,,,,,,,,7.4,6.4,3.6*37
$GPRMC,194556.000,A,3748.7891,N,12217.8515,W,0.93,234.20,111011,,,D*7E
$GPVTG,234.20,T,,M,0.93,N,1.7,K,D*03
$GPGGA,194557.000,3748.7878,N,12217.8522,W,2,04,6.4,10.4,M,-25.1,M,3.8,0000*79
$GPGSA,A,3,25,12,04,10,,,,,,,,,7.4,6.4,3.6*37
$GPRMC,194557.000,A,3748.7878,N,12217.8522,W,0.96,152.80,111011,,,D*70
$GPVTG,152.80,T,,M,0.96,N,1.8,K,D*00
$GPGGA,194558.000,3748.7893,N,12217.8501,W,2,04,6.4,8.8,M,-25.1,M,4.8,0000*40
$GPGSA,A,3,25,12,04,10,,,,,,,,,7.4,6.4,3.6*37
$GPRMC,194558.000,A,3748.7893,N,12217.8501,W,2.01,81.15,111011,,,D*44
$GPVTG,81.15,T,,M,2.01,N,3.7,K,D*32
$GPGGA,194559.000,3748.7892,N,12217.8492,W,2,04,6.4,9.5,M,-25.1,M,1.8,0000*42
$GPGSA,A,3,25,12,04,10,,,,,,,,,7.3,6.4,3.6*30
$GPRMC,194559.000,A,3748.7892,N,12217.8492,W,1.45,67.48,111011,,,D*4C
$GPVTG,67.48,T,,M,1.45,N,2.7,K,D*30
$GPGGA,194600.000,3748.7897,N,12217.8482,W,2,04,6.4,9.4,M,-25.1,M,0.8,0000*49
$GPGSA,A,3,25,12,04,10,,,,,,,,,7.3,6.4,3.6*30
$GPGSV,3,1,12,02,65,172,32,04,55,064,24,09,52,230,33,12,50,318,25*78
$GPGSV,3,2,12,27,45,212,34,17,19,062,22,25,18,308,27,10,17,112,29*7D
$GPGSV,3,3,12,29,01,256,,14,01,309,,05,01,162,,51,43,156,29*74
$GPRMC,194600.000,A,3748.7897,N,12217.8482,W,1.83,61.93,111011,,,D*4D
$GPGGA,194601.000,3748.7905,N,12217.8471,W,2,04,6.4,7.5,M,-25.1,M,1.8,0000*40
$GPGSA,A,3,25,12,04,10,,,,,,,,,7.3,6.4,3.6*30
$GPRMC,194601.000,A,3748.7905,N,12217.8471,W,2.12,64.35,111011,,,D*48
$GPVTG,64.35,T,,M,2.12,N,3.9,K,D*37
$GPGGA,194602.000,3748.7912,N,12217.8461,W,2,04,6.4,7.0,M,-25.1,M,2.8,0000*42
$GPGSA,A,3,25,12,04,10,,,,,,,,,7.3,6.4,3.6*30
$GPRMC,194602.000,A,3748.7912,N,12217.8461,W,2.50,44.95,111011,,,D*42
$GPVTG,44.95,T,,M,2.50,N,4.6,K,D*31
$GPGGA,194603.000,3748.7908,N,12217.8458,W,2,04,6.4,7.5,M,-25.1,M,3.8,0000*46
$GPGSA,A,3,25,12,04,10,,,,,,,,,7.3,6.4,3.6*30
$GPRMC,194603.000,A,3748.7908,N,12217.8458,W,2.01,54.41,111011,,,D*4E
$GPVTG,54.41,T,,M,2.01,N,3.7,K,D*3B
$GPGGA,194604.000,3748.7909,N,12217.8455,W,2,04,6.4,6.4,M,-25.1,M,4.8,0000*4A
$GPGSA,A,3,25,12,04,10,,,,,,,,,7.3,6.4,3.6*30
$GPRMC,194604.000,A,3748.7909,N,12217.8455,W,1.13,74.90,111011,,,D*4B
$GPVTG,74.90,T,,M,1.13,N,2.1,K,D*32
$GPGGA,194605.000,3748.7893,N,12217.8461,W,2,04,6.4,7.6,M,-25.1,M,1.8,0000*48
$GPGSA,A,3,25,12,04,10,,,,,,,,,7.3,6.4,3.6*30
$GPGSV,3,1,12,02,65,172,29,04,55,064,27,09,52,230,34,12,50,318,23*70
$GPGSV,3,2,12,27,45,212,34,17,19,062,22,25,18,308,21,10,17,112,27*75
$GPGSV,3,3,12,29,01,256,,14,01,309,,05,01,162,,51,43,156,35*79
$GPRMC,194605.000,A,3748.7893,N,12217.8461,W,1.27,156.55,111011,,,D*70
$GPVTG,156.55,T,,M,1.27,N,2.4,K,D*08
$GPGGA,194606.000,3748.7880,N,12217.8465,W,2,04,6.4,9.0,M,-25.1,M,1.8,0000*45
$GPGSA,A,3,25,12,04,10,,,,,,,,,7.3,6.4,3.6*30
$GPRMC,194606.000,A,3748.7880,N,12217.8465,W,1.28,143.99,111011,,,D*7E
$GPVTG,143.99,T,,M,1.28,N,2.4,K,D*03
$GPGGA,194607.000,3748.7868,N,12217.8464,W,2,04,6.4,10.3,M,-25.1,M,1.8,0000*78
$GPGSA,A,3,25,12,04,10,,,,,,,,,7.3,6.4,3.6*30
$GPRMC,194607.000,A,3748.7868,N,12217.8464,W,1.55,145.49,111011,,,D*79
$GPVTG,145.49,T,,M,1.55,N,2.9,K,D*0F
$GPGGA,194608.000,3748.7854,N,12217.8466,W,2,04,6.4,12.3,M,-25.1,M,2.8,0000*7B
$GPGSA,A,3,25,12,04,10,,,,,,,,,7.3,6.4,3.6*30
$GPRMC,194608.000,A,3748.7854,N,12217.8466,W,1.48,127.95,111011,,,D*72
$GPVTG,127.95,T,,M,1.48,N,2.7,K,D*08
$GPGGA,194609.000,3748.7857,N,12217.8457,W,2,04,6.4,11.4,M,-25.1,M,3.8,0000*7E
$GPGSA,A,3,25,12,04,10,,,,,,,,,7.3,6.4,3.6*30
$GPRMC,194609.000,A,3748.7857,N,12217.8457,W,1.58,130.00,111011,,,D*79
$GPVTG,130.00,T,,M,1.58,N,2.9,K,D*0D
$GPGGA,194610.000,3748.7861,N,12217.8443,W,2,04,6.4,9.8,M,-25.1,M,4.8,0000*44
$GPGSA,A,3,25,12,04,10,,,,,,,,,7.3,6.4,3.6*30
$GPGSV,3,1,12,02,65,172,35,04,55,064,27,09,52,230,34,12,50,318,23*7D
$GPGSV,3,2,12,27,45,212,35,17,19,062,25,25,18,308,21,10,17,112,31*74
$GPGSV,3,3,12,29,01,256,,14,01,309,,05,01,162,,51,43,156,36*7A
$GPRMC,194610.000,A,3748.7861,N,12217.8443,W,1.65,121.33,111011,,,D*7F
$GPVTG,121.33,T,,M,1.65,N,3.0,K,D*0B
$GPGGA,194611.000,3748.7879,N,12217.8421,W,2,04,6.4,7.3,M,-25.1,M,1.8,0000*48
$GPGSA,A,3,25,12,04,10,,,,,,,,,7.3,6.4,3.6*30
$GPRMC,194611.000,A,3748.7879,N,12217.8421,W,1.62,83.53,111011,,,D*4B
$GPVTG,83.53,T,,M,1.62,N,3.0,K,D*33
$GPGGA,194612.000,3748.7890,N,12217.8406,W,2,04,6.4,5.5,M,-25.1,M,1.8,0000*4D
$GPGSA,A,3,25,12,04,10,,,,,,,,,7.3,6.4,3.6*30
$GPRMC,194612.000,A,3748.7890,N,12217.8406,W,1.44,78.71,111011,,,D*4A
$GPVTG,78.71,T,,M,1.44,N,2.7,K,D*35
$GPGGA,194613.000,3748.7887,N,12217.8401,W,2,04,6.4,4.7,M,-25.1,M,2.8,0000*4D
$GPGSA,A,3,25,12,04,10,,,,,,,,,7.3,6.4,3.6*30
$GPRMC,194613.000,A,3748.7887,N,12217.8401,W,1.38,101.04,111011,,,D*7C
$GPVTG,101.04,T,,M,1.38,N,2.5,K,D*01
$GPGGA,194614.000,3748.7873,N,12217.8405,W,2,04,6.4,4.8,M,-25.1,M,3.8,0000*4B
$GPGSA,A,3,25,12,04,10,,,,,,,,,7.3,6.4,3.6*30
$GPRMC,194614.000,A,3748.7873,N,12217.8405,W,1.45,108.65,111011,,,D*70
$GPVTG,108.65,T,,M,1.45,N,2.7,K,D*07
$GPGGA,194615.000,3748.7853,N,12217.8408,W,2,04,6.4,7.5,M,-25.1,M,4.8,0000*4C
$GPGSA,A,3,25,12,04,10,,,,,,,,,7.3,6.4,3.6*30
$GPGSV,3,1,12,02,65,171,31,04,54,064,27,09,52,230,29,12,50,318,23*77
$GPGSV,3,2,12,27,45,212,35,17,19,062,24,25,18,308,22,10,17,112,20*76
$GPGSV,3,3,12,29,02,256,,05,01,162,,14,01,309,,51,43,156,36*79
$GPRMC,194615.000,A,3748.7853,N,12217.8408,W,1.80,112.23,111011,,,D*7E
$GPGGA,194616.000,3748.7847,N,12217.8400,W,2,04,6.4,7.8,M,-25.1,M,5.8,0000*4E
$GPGSA,A,3,25,12,04,10,,,,,,,,,7.3,6.4,3.6*30
$GPRMC,194616.000,A,3748.7847,N,12217.8400,W,1.62,110.22,111011,,,D*7F
$GPVTG,110.22,T,,M,1.62,N,3.0,K,D*0E
$GPGGA,194617.000,3748.7855,N,12217.8381,W,2,04,6.4,8.4,M,-25.1,M,1.8,0000*45
$GPGSA,A,3,25,12,04,10,,,,,,,,,7.3,6.4,3.6*30
$GPRMC,194617.000,A,3748.7855,N,12217.8381,W,1.77,117.04,111011,,,D*74
$GPVTG,117.04,T,,M,1.77,N,3.3,K,D*0A
$GPGGA,194618.000,3748.7872,N,12217.8357,W,2,04,6.4,6.3,M,-25.1,M,1.8,0000*4D
$GPGSA,A,3,25,12,04,10,,,,,,,,,7.3,6.4,3.6*30
$GPRMC,194618.000,A,3748.7872,N,12217.8357,W,1.86,96.14,111011,,,D*42
$GPVTG,96.14,T,,M,1.86,N,3.5,K,D*3B
$GPGGA,194619.000,3748.7886,N,12217.8336,W,2,04,6.4,3.9,M,-25.1,M,1.8,0000*4F
$GPGSA,A,3,25,12,04,10,,,,,,,,,7.3,6.4,3.6*30
$GPRMC,194619.000,A,3748.7886,N,12217.8336,W,2.53,85.21,111011,,,D*40
$GPVTG,85.21,T,,M,2.53,N,4.7,K,D*31
$GPGGA,194620.000,3748.7887,N,12217.8324,W,2,04,6.4,3.7,M,-25.1,M,1.8,0000*49
$GPGSA,A,3,25,12,04,10,,,,,,,,,7.3,6.4,3.6*30
$GPGSV,3,1,12,02,65,171,32,04,54,064,27,09,52,230,31,12,50,318,22*7C
$GPGSV,3,2,12,27,45,212,35,17,18,062,24,25,18,308,22,10,17,112,29*7E
$GPGSV,3,3,12,29,02,256,,05,01,162,,14,01,309,,51,43,156,37*78
$GPRMC,194620.000,A,3748.7887,N,12217.8324,W,2.05,85.20,111011,,,D*4A
$GPVTG,85.20,T,,M,2.05,N,3.8,K,D*3B
$GPGGA,194621.000,3748.7888,N,12217.8314,W,2,04,6.3,3.4,M,-25.1,M,2.8,0000*43
$GPGSA,A,3,25,12,04,10,,,,,,,,,7.3,6.3,3.6*37
$GPRMC,194621.000,A,3748.7888,N,12217.8314,W,2.63,63.53,111011,,,D*4B
$GPVTG,63.53,T,,M,2.63,N,4.9,K,D*31
$GPGGA,194622.000,3748.7891,N,12217.8303,W,2,04,6.3,1.7,M,-25.1,M,3.8,0000*4E
$GPGSA,A,3,25,12,04,10,,,,,,,,,7.3,6.3,3.6*37
$GPRMC,194622.000,A,3748.7891,N,12217.8303,W,2.48,67.92,111011,,,D*46
$GPVTG,67.92,T,,M,2.48,N,4.6,K,D*3E
$GPGGA,194623.000,3748.7888,N,12217.8295,W,2,04,6.3,1.3,M,-25.1,M,4.8,0000*4A
$GPGSA,A,3,25,12,04,10,,,,,,,,,7.3,6.3,3.5*34
$GPRMC,194623.000,A,3748.7888,N,12217.8295,W,3.24,86.19,111011,,,D*46
$GPVTG,86.19,T,,M,3.24,N,6.0,K,D*3D
$GPGGA,194624.000,3748.7867,N,12217.8301,W,2,04,6.3,2.5,M,-25.1,M,1.8,0000*40
$GPGSA,A,3,25,12,04,10,,,,,,,,,7.3,6.3,3.5*34
$GPRMC,194624.000,A,3748.7867,N,12217.8301,W,2.64,122.54,111011,,,D*7F
$GPVTG,122.54,T,,M,2.64,N,4.9,K,D*05
$GPGGA,194625.000,3748.7851,N,12217.8302,W,2,04,6.3,3.6,M,-25.1,M,2.8,0000*46
$GPGSA,A,3,25,12,04,10,,,,,,,,,7.3,6.3,3.5*34
$GPGSV,3,1,12,02,65,171,33,04,54,064,27,09,52,230,32,12,50,318,22*7E
$GPGSV,3,2,12,27,45,212,36,17,18,062,23,25,18,308,24,10,17,112,29*7C
$GPGSV,3,3,12,29,02,256,,05,01,162,,14,01,309,,51,43,156,31*7E
$GPRMC,194625.000,A,3748.7851,N,12217.8302,W,2.15,105.06,111011,,,D*7C
$GPVTG,105.06,T,,M,2.15,N,4.0,K,D*08
$GPGGA,194626.000,3748.7830,N,12217.8310,W,2,04,6.3,4.3,M,-25.1,M,3.8,0000*42
$GPGSA,A,3,25,12,04,10,,,,,,,,,7.3,6.3,3.5*34
$GPRMC,194626.000,A,3748.7830,N,12217.8310,W,1.66,165.85,111011,,,D*71
$GPVTG,165.85,T,,M,1.66,N,3.1,K,D*04
$GPGGA,194627.000,3748.7839,N,12217.8299,W,2,03,50.0,2.2,M,-25.1,M,4.8,0000*7D
$GPGSA,A,2,25,12,04,,,,,,,,,,50.0,50.0,1.0*32
$GPRMC,194627.000,A,3748.7839,N,12217.8299,W,1.05,136.36,111011,,,D*72
$GPVTG,136.36,T,,M,1.05,N,1.9,K,N*0F
$GPGGA,194628.000,3748.7825,N,12217.8310,W,2,03,4.0,1.7,M,-25.1,M,5.8,0000*49
$GPGSA,A,2,25,04,10,,,,,,,,,,4.1,4.0,1.0*31
$GPRMC,194628.000,A,3748.7825,N,12217.8310,W,2.23,203.81,111011,,,D*7E
$GPVTG,203.81,T,,M,2.23,N,4.1,K,N*0C
$GPGGA,194629.000,3748.7818,N,12217.8307,W,2,03,4.0,1.9,M,-25.1,M,6.8,0000*4D
$GPGSA,A,2,25,04,10,,,,,,,,,,4.1,4.0,1.0*31
$GPRMC,194629.000,A,3748.7818,N,12217.8307,W,2.82,179.01,111011,,,D*7A
$GPVTG,179.01,T,,M,2.82,N,5.2,K,N*03
$GPGGA,194630.000,3748.7810,N,12217.8307,W,6,00,50.0,1.5,M,-25.1,M,,0000*57
$GPGSA,A,2,,,,,,,,,,,,,50.0,50.0,50.0*06
$GPGSV,3,1,11,02,65,171,15,04,54,064,21,09,52,230,17,12,50,318,*78
$GPGSV,3,2,11,27,45,212,21,17,18,062,15,25,18,308,12,10,17,112,20*70
$GPGSV,3,3,11,29,02,256,,05,01,162,,14,01,309,*4E
$GPRMC,194630.000,A,3748.7810,N,12217.8307,W,2.82,179.01,111011,,,E*7B
$GPGGA,194631.000,3748.7802,N,12217.8307,W,6,00,50.0,1.2,M,-25.1,M,,0000*52
$GPGSA,A,2,,,,,,,,,,,,,50.0,50.0,50.0*06
$GPRMC,194631.000,A,3748.7802,N,12217.8307,W,2.82,179.01,111011,,,E*79
$GPVTG,179.01,T,,M,2.82,N,5.2,K,N*03
$GPGGA,194632.000,3748.7794,N,12217.8306,W,6,00,50.0,0.9,M,-25.1,M,,0000*5A
$GPGSA,A,2,,,,,,,,,,,,,50.0,50.0,50.0*06
$GPRMC,194632.000,A,3748.7794,N,12217.8306,W,2.82,179.01,111011,,,E*7B
$GPVTG,179.01,T,,M,2.82,N,5.2,K,N*03
$GPGGA,194633.000,3748.7786,N,12217.8306,W,6,00,50.0,0.5,M,-25.1,M,,0000*54
$GPGSA,A,2,,,,,,,,,,,,,50.0,50.0,50.0*06
$GPRMC,194633.000,A,3748.7786,N,12217.8306,W,2.82,179.01,111011,,,E*79
$GPVTG,179.01,T,,M,2.82,N,5.2,K,N*03
$GPGGA,194634.000,3748.7768,N,12217.8316,W,2,03,4.1,0.7,M,-25.1,M,11.8,0000*71
$GPGSA,A,2,12,04,10,,,,,,,,,,4.2,4.1,1.0*37
$GPRMC,194634.000,A,3748.7768,N,12217.8316,W,2.81,191.47,111011,,,D*79
$GPVTG,191.47,T,,M,2.81,N,5.2,K,N*04
$GPGGA,194635.000,3748.7769,N,12217.8310,W,2,04,6.3,1.7,M,-25.1,M,12.8,0000*72
$GPGSA,A,3,12,04,10,25,,,,,,,,,7.2,6.3,3.5*35
$GPGSV,3,1,12,02,65,171,35,04,54,064,29,09,52,230,33,12,50,318,23*76
$GPGSV,3,2,12,27,45,212,34,17,18,062,15,25,18,308,22,10,17,112,32*77
$GPGSV,3,3,12,29,02,256,,05,01,162,,14,01,309,,51,43,156,32*7D
$GPRMC,194635.000,A,3748.7769,N,12217.8310,W,1.74,169.17,111011,,,D*74
$GPVTG,169.17,T,,M,1.74,N,3.2,K,D*03
$GPGGA,194636.000,3748.7775,N,12217.8273,W,2,04,6.3,2.7,M,-25.1,M,13.8,0000*7A
$GPGSA,A,3,12,04,10,25,,,,,,,,,7.2,6.3,3.5*35
$GPRMC,194636.000,A,3748.7775,N,12217.8273,W,1.54,129.61,111011,,,D*79
$GPVTG,129.61,T,,M,1.54,N,2.8,K,D*0F
$GPGGA,194637.000,3748.7797,N,12217.8235,W,2,04,6.3,2.9,M,-25.1,M,14.8,0000*7C
$GPGSA,A,3,12,04,10,25,,,,,,,,,7.2,6.3,3.5*35
$GPRMC,194637.000,A,3748.7797,N,12217.8235,W,1.95,88.03,111011,,,D*45
$GPVTG,88.03,T,,M,1.95,N,3.6,K,D*33
$GPGGA,194638.000,3748.7819,N,12217.8199,W,2,04,6.3,1.7,M,-25.1,M,15.8,0000*73
$GPGSA,A,3,12,04,10,25,,,,,,,,,7.2,6.3,3.5*35
$GPRMC,194638.000,A,3748.7819,N,12217.8199,W,2.60,80.78,111011,,,D*4B
$GPVTG,80.78,T,,M,2.60,N,4.8,K,D*37
$GPGGA,194639.000,3748.7841,N,12217.8169,W,2,04,6.3,-1.4,M,-25.1,M,16.8,0000*5D
$GPGSA,A,3,12,04,10,25,,,,,,,,,7.2,6.3,3.5*35
$GPRMC,194639.000,A,3748.7841,N,12217.8169,W,3.25,61.10,111011,,,D*49
$GPVTG,61.10,T,,M,3.25,N,6.0,K,D*3C
$GPGGA,194640.000,3748.7854,N,12217.8146,W,2,04,6.3,-2.8,M,-25.1,M,17.8,0000*54
$GPGSA,A,3,12,04,10,25,,,,,,,,,7.2,6.3,3.5*35
$GPGSV,3,1,12,02,65,171,31,04,54,064,27,09,52,230,37,12,50,318,22*79
$GPGSV,3,2,12,27,45,212,37,17,18,062,21,25,18,308,22,10,17,112,32*73
$GPGSV,3,3,12,29,02,256,,05,01,162,,14,01,309,,51,43,156,35*7A
$GPRMC,194640.000,A,3748.7854,N,12217.8146,W,2.72,60.57,111011,,,D*4F
$GPVTG,60.57,T,,M,2.72,N,5.0,K,D*3E
$GPGGA,194641.000,3748.7810,N,12217.8173,W,1,04,6.3,-0.7,M,-25.1,M,,0000*4D
$GPGSA,A,3,12,04,10,25,,,,,,,,,7.2,6.3,3.5*35
$GPRMC,194641.000,A,3748.7810,N,12217.8173,W,1.58,112.72,111011,,,A*75
$GPVTG,112.72,T,,M,1.58,N,2.9,K,A*0D
$GPGGA,194642.000,3748.7765,N,12217.8199,W,1,04,6.3,-0.1,M,-25.1,M,,0000*41
$GPGSA,A,3,12,04,10,25,,,,,,,,,7.2,6.3,3.5*35
$GPRMC,194642.000,A,3748.7765,N,12217.8199,W,2.51,171.95,111011,,,A*79
$GPVTG,171.95,T,,M,2.51,N,4.6,K,A*02
$GPGGA,194643.000,3748.7728,N,12217.8220,W,1,04,6.3,1.9,M,-25.1,M,,0000*6C
$GPGSA,A,3,12,04,10,25,,,,,,,,,7.2,6.3,3.5*35
$GPRMC,194643.000,A,3748.7728,N,12217.8220,W,3.01,170.72,111011,,,A*7C
$GPVTG,170.72,T,,M,3.01,N,5.6,K,A*0F
$GPGGA,194644.000,3748.7725,N,12217.8212,W,1,04,6.3,1.3,M,-25.1,M,,0000*6D
$GPGSA,A,3,12,04,10,25,,,,,,,,,7.2,6.3,3.5*35
$GPRMC,194644.000,A,3748.7725,N,12217.8212,W,3.17,169.75,111011,,,A*7F
$GPVTG,169.75,T,,M,3.17,N,5.9,K,A*08
$GPGGA,194645.000,3748.7738,N,12217.8185,W,1,04,6.3,1.8,M,-25.1,M,,0000*66
$GPGSA,A,3,12,04,10,25,,,,,,,,,7.2,6.3,3.5*35
$GPGSV,3,1,12,02,65,171,33,04,54,064,24,09,52,230,36,12,50,318,22*79
$GPGSV,3,2,12,27,45,212,37,17,18,062,22,25,18,308,22,10,17,112,31*73
$GPGSV,3,3,12,29,02,256,,05,01,162,,14,01,309,,51,43,156,35*7A
$GPRMC,194645.000,A,3748.7738,N,12217.8185,W,2.40,119.60,111011,,,A*7F
$GPGGA,194646.000,3748.7748,N,12217.8163,W,1,04,6.3,2.7,M,-25.1,M,,0000*66
$GPGSA,A,3,12,04,10,25,,,,,,,,,7.2,6.3,3.5*35
$GPRMC,194646.000,A,3748.7748,N,12217.8163,W,2.59,96.30,111011,,,A*48
$GPVTG,96.30,T,,M,2.59,N,4.8,K,A*33
$GPGGA,194647.000,3748.7745,N,12217.8152,W,2,04,6.3,5.1,M,-25.1,M,1.8,0000*4D
$GPGSA,A,3,12,04,10,25,,,,,,,,,7.2,6.3,3.5*35
$GPRMC,194647.000,A,3748.7745,N,12217.8152,W,2.07,100.16,111011,,,D*72
$GPVTG,100.16,T,,M,2.07,N,3.8,K,D*00
$GPGGA,194648.000,3748.7737,N,12217.8148,W,2,04,6.3,6.7,M,-25.1,M,1.8,0000*49
$GPGSA,A,3,12,04,10,25,,,,,,,,,7.2,6.3,3.5*35
$GPRMC,194648.000,A,3748.7737,N,12217.8148,W,1.85,117.19,111011,,,D*73
$GPVTG,117.19,T,,M,1.85,N,3.4,K,D*0C
$GPGGA,194649.000,3748.7724,N,12217.8143,W,2,04,6.3,9.5,M,-25.1,M,1.8,0000*4C
$GPGSA,A,3,12,04,10,25,,,,,,,,,7.2,6.3,3.5*35
$GPRMC,194649.000,A,3748.7724,N,12217.8143,W,2.66,114.10,111011,,,D*7F
$GPVTG,114.10,T,,M,2.66,N,4.9,K,D*02
$GPGGA,194650.000,3748.7712,N,12217.8139,W,2,04,6.3,10.8,M,-25.1,M,1.8,0000*79
$GPGSA,A,3,12,04,10,25,,,,,,,,,7.2,6.3,3.5*35
$GPGSV,3,1,12,02,65,171,34,04,54,064,29,09,51,229,36,12,50,318,23*79
$GPGSV,3,2,12,27,45,212,37,17,18,062,22,25,18,308,22,10,17,112,31*73
$GPGSV,3,3,12,29,02,256,,05,02,162,,14,01,309,,51,43,156,35*79
$GPRMC,194650.000,A,3748.7712,N,12217.8139,W,2.16,126.71,111011,,,D*7E
$GPVTG,126.71,T,,M,2.16,N,4.0,K,D*0A
$GPGGA,194651.000,3748.7724,N,12217.8117,W,2,04,6.2,10.2,M,-25.1,M,2.8,0000*79
$GPGSA,A,3,12,04,10,25,,,,,,,,,7.2,6.2,3.5*34
$GPRMC,194651.000,A,3748.7724,N,12217.8117,W,2.89,114.33,111011,,,D*77
$GPVTG,114.33,T,,M,2.89,N,5.3,K,D*09
$GPGGA,194652.000,3748.7745,N,12217.8086,W,2,04,6.2,8.5,M,-25.1,M,3.8,0000*4B
$GPGSA,A,3,12,04,10,25,,,,,,,,,7.2,6.2,3.5*34
$GPRMC,194652.000,A,3748.7745,N,12217.8086,W,2.63,101.37,111011,,,D*7E
$GPVTG,101.37,T,,M,2.63,N,4.9,K,D*06
$GPGGA,194653.000,3748.7765,N,12217.8055,W,2,04,6.2,6.9,M,-25.1,M,1.8,0000*46
$GPGSA,A,3,12,04,10,25,,,,,,,,,7.2,6.2,3.5*34
$GPRMC,194653.000,A,3748.7765,N,12217.8055,W,2.65,95.53,111011,,,D*4B
$GPVTG,95.53,T,,M,2.65,N,4.9,K,D*3E
$GPGGA,194654.000,3748.7763,N,12217.8041,W,2,04,6.2,7.7,M,-25.1,M,1.8,0000*4D
$GPGSA,A,3,12,04,10,25,,,,,,,,,7.2,6.2,3.5*34
$GPRMC,194654.000,A,3748.7763,N,12217.8041,W,2.38,102.37,111011,,,D*7A
$GPVTG,102.37,T,,M,2.38,N,4.4,K,D*06
$GPGGA,194655.000,3748.7758,N,12217.8033,W,2,04,6.2,8.4,M,-25.1,M,1.8,0000*4D
$GPGSA,A,3,12,04,10,25,,,,,,,,,7.2,6.2,3.5*34
$GPGSV,3,1,12,02,65,171,34,04,54,064,29,09,51,229,35,12,50,318,23*7A
$GPGSV,3,2,12,27,45,212,37,17,18,062,23,25,18,308,22,10,17,112,32*71
$GPGSV,3,3,12,29,02,256,,05,02,162,19,14,01,309,,51,43,156,37*73
$GPRMC,194655.000,A,3748.7758,N,12217.8033,W,1.81,113.67,111011,,,D*72
$GPVTG,113.67,T,,M,1.81,N,3.4,K,D*05
$GPGGA,194656.000,3748.7741,N,12217.8035,W,2,04,6.2,10.5,M,-25.1,M,2.8,0000*7B
$GPGSA,A,3,12,04,10,25,,,,,,,,,7.2,6.2,3.5*34
$GPRMC,194656.000,A,3748.7741,N,12217.8035,W,2.20,130.17,111011,,,D*71
$GPVTG,130.17,T,,M,2.20,N,4.1,K,D*09
$GPGGA,194657.000,3748.7718,N,12217.8034,W,2,04,6.2,14.3,M,-25.1,M,1.8,0000*76
$GPGSA,A,3,12,04,10,25,,,,,,,,,7.2,6.2,3.5*34
$GPRMC,194657.000,A,3748.7718,N,12217.8034,W,2.49,138.48,111011,,,D*70
$GPVTG,138.48,T,,M,2.49,N,4.6,K,D*03
$GPGGA,194658.000,3748.7711,N,12217.8028,W,2,04,6.2,14.6,M,-25.1,M,2.8,0000*7B
$GPGSA,A,3,12,04,10,25,,,,,,,,,7.1,6.2,3.5*37
$GPRMC,194658.000,A,3748.7711,N,12217.8028,W,2.53,140.03,111011,,,D*70
$GPVTG,140.03,T,,M,2.53,N,4.7,K,D*09
$GPGGA,194659.000,3748.7695,N,12217.8026,W,2,04,6.2,16.8,M,-25.1,M,1.8,0000*76
$GPGSA,A,3,12,04,10,25,,,,,,,,,7.1,6.2,3.5*37
$GPRMC,194659.000,A,3748.7695,N,12217.8026,W,2.34,157.40,111011,,,D*72
$GPVTG,157.40,T,,M,2.34,N,4.3,K,D*0D
$GPGGA,194700.000,3748.7677,N,12217.8027,W,2,04,6.2,19.4,M,-25.1,M,1.8,0000*75
$GPGSA,A,3,12,04,10,25,,,,,,,,,7.1,6.2,3.5*37
$GPGSV,3,1,12,02,65,171,35,04,54,064,29,09,51,229,35,12,50,318,23*7B
$GPGSV,3,2,12,27,45,212,37,17,18,062,21,25,18,308,22,10,17,112,33*72
$GPGSV,3,3,12,29,02,256,,05,02,162,18,14,01,309,,51,43,156,34*71
$GPRMC,194700.000,A,3748.7677,N,12217.8027,W,2.35,169.46,111011,,,D*78
$GPGGA,194701.000,3748.7665,N,12217.8022,W,2,04,6.2,21.4,M,-25.1,M,1.8,0000*79
$GPGSA,A,3,12,04,10,25,,,,,,,,,7.1,6.2,3.5*37
$GPRMC,194701.000,A,3748.7665,N,12217.8022,W,2.62,175.15,111011,,,D*76
$GPVTG,175.15,T,,M,2.62,N,4.8,K,D*05
$GPGGA,194702.000,3748.7673,N,12217.8005,W,2,04,6.2,20.1,M,-25.1,M,2.8,0000*7F
$GPGSA,A,3,12,04,10,25,,,,,,,,,7.1,6.2,3.5*37
$GPRMC,194702.000,A,3748.7673,N,12217.8005,W,2.35,172.68,111011,,,D*78
$GPVTG,172.68,T,,M,2.35,N,4.4,K,D*06
$GPGGA,194703.000,3748.7688,N,12217.7982,W,2,04,6.2,18.3,M,-25.1,M,3.8,0000*7B
$GPGSA,A,3,12,04,10,25,,,,,,,,,7.1,6.2,3.5*37
$GPRMC,194703.000,A,3748.7688,N,12217.7982,W,1.95,158.11,111011,,,D*7B
$GPVTG,158.11,T,,M,1.95,N,3.6,K,D*0C
$GPGGA,194704.000,3748.7672,N,12217.7981,W,2,05,1.9,19.6,M,-25.1,M,4.8,0000*74
$GPGSA,A,3,12,04,10,25,02,,,,,,,,2.5,1.9,1.7*38
$GPRMC,194704.000,A,3748.7672,N,12217.7981,W,1.74,123.22,111011,,,D*79
$GPVTG,123.22,T,,M,1.74,N,3.2,K,D*0B
$GPGGA,194705.000,3748.7670,N,12217.7976,W,2,05,1.9,19.1,M,-25.1,M,1.8,0000*7D
$GPGSA,A,3,12,04,10,25,02,,,,,,,,2.5,1.9,1.7*38
$GPGSV,3,1,12,02,65,171,35,04,54,063,29,09,51,229,35,12,50,318,23*7C
$GPGSV,3,2,12,27,45,211,36,17,18,062,22,25,18,308,22,10,17,112,33*73
$GPGSV,3,3,12,29,02,256,,05,02,161,24,14,01,309,,51,43,156,37*7E
$GPRMC,194705.000,A,3748.7670,N,12217.7976,W,1.80,124.64,111011,,,D*7C
$GPVTG,124.64,T,,M,1.80,N,3.3,K,D*04
$GPGGA,194706.000,3748.7660,N,12217.7968,W,2,05,1.9,19.6,M,-25.1,M,1.8,0000*77
$GPGSA,A,3,12,04,10,25,02,,,,,,,,2.5,1.9,1.7*38
$GPRMC,194706.000,A,3748.7660,N,12217.7968,W,2.02,123.14,111011,,,D*78
$GPVTG,123.14,T,,M,2.02,N,3.7,K,D*09
$GPGGA,194707.000,3748.7652,N,12217.7959,W,2,05,1.9,20.0,M,-25.1,M,1.8,0000*79
$GPGSA,A,3,12,04,10,25,02,,,,,,,,2.5,1.9,1.7*38
$GPRMC,194707.000,A,3748.7652,N,12217.7959,W,1.87,119.62,111011,,,D*7C
$GPVTG,119.62,T,,M,1.87,N,3.5,K,D*0D
$GPGGA,194708.000,3748.7645,N,12217.7950,W,2,05,1.9,20.4,M,-25.1,M,1.8,0000*7D
$GPGSA,A,3,12,04,10,25,02,,,,,,,,2.5,1.9,1.7*38
$GPRMC,194708.000,A,3748.7645,N,12217.7950,W,2.33,118.30,111011,,,D*76
$GPVTG,118.30,T,,M,2.33,N,4.3,K,D*06
$GPGGA,194709.000,3748.7642,N,12217.7942,W,2,05,1.9,20.1,M,-25.1,M,1.8,0000*7D
$GPGSA,A,3,12,04,10,25,02,,,,,,,,2.6,1.9,1.7*3B
$GPRMC,194709.000,A,3748.7642,N,12217.7942,W,2.06,119.74,111011,,,D*74
$GPVTG,119.74,T,,M,2.06,N,3.8,K,D*0D
$GPGGA,194710.000,3748.7638,N,12217.7934,W,2,05,1.9,19.9,M,-25.1,M,2.8,0000*78
$GPGSA,A,3,12,04,10,25,02,,,,,,,,2.6,1.9,1.7*3B
$GPGSV,3,1,12,02,65,171,35,04,54,063,29,09,51,229,35,12,50,318,23*7C
$GPGSV,3,2,12,27,45,211,36,17,18,062,22,25,18,308,21,10,17,112,32*71
$GPGSV,3,3,12,29,02,256,,05,02,161,16,14,01,309,,51,43,156,37*7F
$GPRMC,194710.000,A,3748.7638,N,12217.7934,W,1.91,122.39,111011,,,D*7C
$GPVTG,122.39,T,,M,1.91,N,3.5,K,D*0C
$GPGGA,194711.000,3748.7632,N,12217.7924,W,2,05,1.9,20.2,M,-25.1,M,1.8,0000*70
$GPGSA,A,3,12,04,10,25,02,,,,,,,,2.6,1.9,1.7*3B
$GPRMC,194711.000,A,3748.7632,N,12217.7924,W,1.84,121.52,111011,,,D*7C
$GPVTG,121.52,T,,M,1.84,N,3.4,K,D*07
$GPGGA,194712.000,3748.7627,N,12217.7915,W,2,05,1.9,20.3,M,-25.1,M,1.8,0000*74
$GPGSA,A,3,12,04,10,25,02,,,,,,,,2.6,1.9,1.7*3B
$GPRMC,194712.000,A,3748.7627,N,12217.7915,W,1.60,119.16,111011,,,D*78
$GPVTG,119.16,T,,M,1.60,N,3.0,K,D*02
$GPGGA,194713.000,3748.7624,N,12217.7907,W,2,05,1.9,20.2,M,-25.1,M,1.8,0000*74
$GPGSA,A,3,12,04,10,25,02,,,,,,,,2.6,1.9,1.7*3B
$GPRMC,194713.000,A,3748.7624,N,12217.7907,W,1.26,103.80,111011,,,D*7F
$GPVTG,103.80,T,,M,1.26,N,2.3,K,D*06
$GPGGA,194714.000,3748.7623,N,12217.7901,W,2,05,1.9,19.8,M,-25.1,M,2.8,0000*71
$GPGSA,A,3,12,04,10,25,02,,,,,,,,2.6,1.9,1.7*3B
$GPRMC,194714.000,A,3748.7623,N,12217.7901,W,1.17,87.74,111011,,,D*4D
$GPVTG,87.74,T,,M,1.17,N,2.2,K,D*33
$GPGGA,194715.000,3748.7621,N,12217.7894,W,2,05,1.9,19.6,M,-25.1,M,3.8,0000*70
$GPGSA,A,3,12,04,10,25,02,,,,,,,,2.6,1.9,1.7*3B
