$ADVER,3080,2.3
$GPRMC,211454.604,A,3748.7716,N,12217.8959,W,2.80,215.31,100611,,,A*75
$GPGGA,211455.604,3748.7705,N,12217.8970,W,1,03,3.0,2.7,M,-25.1,M,,0000*68
$GPGSA,A,2,28,23,10,,,,,,,,,,3.2,3.0,1.0*3A
$GPRMC,211455.604,A,3748.7705,N,12217.8970,W,1.28,178.24,100611,,,A*70
$GPVTG,178.24,T,,M,1.28,N,2.4,K,N*07
$GPGGA,211456.604,3748.7702,N,12217.8962,W,1,03,3.0,2.7,M,-25.1,M,,0000*6F
$GPGSA,A,2,28,23,10,,,,,,,,,,3.2,3.0,1.0*3A
$GPRMC,211456.604,A,3748.7702,N,12217.8962,W,2.00,203.90,100611,,,A*7E
$GPVTG,203.90,T,,M,2.00,N,3.7,K,N*0C
$GPGGA,211457.604,3748.7689,N,12217.8990,W,1,03,3.0,2.7,M,-25.1,M,,0000*61
$GPGSA,A,2,28,23,10,,,,,,,,,,3.2,3.0,1.0*3A
$GPRMC,211457.604,A,3748.7689,N,12217.8990,W,1.95,208.40,100611,,,A*79
$GPVTG,208.40,T,,M,1.95,N,3.6,K,N*04
$GPGGA,211458.604,3748.7686,N,12217.8984,W,1,03,3.0,2.7,M,-25.1,M,,0000*64
$GPGSA,A,2,28,23,10,,,,,,,,,,3.2,3.0,1.0*3A
$GPGSV,3,1,11,10,40,255,38,23,29,132,25,28,27,217,42,07,65,338,29*70
$GPGSV,3,2,11,13,63,120,23,08,45,292,36,19,28,095,22,03,25,060,21*77
$GPGSV,3,3,11,05,19,309,24,06,16,049,23,16,06,042,18*4B
$GPRMC,211458.604,A,3748.7686,N,12217.8984,W,2.45,215.69,100611,,,A*75
$GPVTG,215.69,T,,M,2.45,N,4.5,K,N*09
$GPGGA,211459.604,3748.7685,N,12217.8977,W,1,03,3.0,2.7,M,-25.1,M,,0000*6A
$GPGSA,A,2,28,23,10,,,,,,,,,,3.2,3.0,1.0*3A
$GPRMC,211459.604,A,3748.7685,N,12217.8977,W,1.93,216.64,100611,,,A*7D
$GPVTG,216.64,T,,M,1.93,N,3.6,K,N*0B
$GPGGA,211500.604,3748.7681,N,12217.8978,W,1,03,3.0,2.7,M,-25.1,M,,0000*6C
$GPGSA,A,2,28,23,10,,,,,,,,,,3.2,3.0,1.0*3A
$GPRMC,211500.604,A,3748.7681,N,12217.8978,W,2.36,223.88,100611,,,A*73
$GPVTG,223.88,T,,M,2.36,N,4.4,K,N*06
$GPGGA,211501.604,3748.7681,N,12217.8966,W,1,03,3.0,2.7,M,-25.1,M,,0000*62
$GPGSA,A,2,28,23,10,,,,,,,,,,3.2,3.0,1.0*3A
$GPRMC,211501.604,A,3748.7681,N,12217.8966,W,1.03,178.03,100611,,,A*76
$GPVTG,178.03,T,,M,1.03,N,1.9,K,N*05
$GPGGA,211502.604,3748.7666,N,12217.9000,W,1,03,3.0,2.7,M,-25.1,M,,0000*60
$GPGSA,A,2,28,23,10,,,,,,,,,,3.2,3.0,1.0*3A
$GPRMC,211502.604,A,3748.7666,N,12217.9000,W,1.70,200.24,100611,,,A*79
$GPVTG,200.24,T,,M,1.70,N,3.2,K,N*01
$GPGGA,211503.604,3748.7660,N,12217.9004,W,1,03,3.0,2.7,M,-25.1,M,,0000*63
$GPGSA,A,2,28,23,10,,,,,,,,,,3.2,3.0,1.0*3A
$GPGSV,3,1,11,10,40,255,39,23,29,132,24,28,27,217,41,07,65,338,28*72
$GPGSV,3,2,11,13,63,120,22,08,45,292,36,19,28,095,22,03,25,060,21*76
$GPGSV,3,3,11,05,19,309,25,06,16,049,23,16,06,042,20*41
$GPRMC,211503.604,A,3748.7660,N,12217.9004,W,1.36,176.90,100611,,,A*75
$GPVTG,176.90,T,,M,1.36,N,2.5,K,N*08
$GPGGA,211504.604,3748.7662,N,12217.9000,W,1,03,3.0,2.7,M,-25.1,M,,0000*62
$GPGSA,A,2,28,23,10,,,,,,,,,,3.2,3.0,1.0*3A
$GPRMC,211504.604,A,3748.7662,N,12217.9000,W,0.65,260.15,100611,,,A*7A
$GPVTG,260.15,T,,M,0.65,N,1.2,K,N*02
$GPGGA,211505.604,3748.7655,N,12217.9012,W,1,03,3.0,2.7,M,-25.1,M,,0000*64
$GPGSA,A,2,28,23,10,,,,,,,,,,3.2,3.0,1.0*3A
$GPRMC,211505.604,A,3748.7655,N,12217.9012,W,1.69,215.10,100611,,,A*76
$GPVTG,215.10,T,,M,1.69,N,3.1,K,N*09
$GPGGA,211506.604,3748.7653,N,12217.9009,W,1,03,3.0,2.7,M,-25.1,M,,0000*6B
$GPGSA,A,2,28,23,10,,,,,,,,,,3.2,3.0,1.0*3A
$GPRMC,211506.604,A,3748.7653,N,12217.9009,W,1.39,211.36,100611,,,A*7C
$GPVTG,211.36,T,,M,1.39,N,2.6,K,N*0A
$GPGGA,211507.604,3748.7659,N,12217.8976,W,1,03,3.1,2.7,M,-25.1,M,,0000*61
$GPGSA,A,2,28,23,10,,,,,,,,,,3.2,3.1,1.0*3B
$GPRMC,211507.604,A,3748.7659,N,12217.8976,W,2.06,213.19,100611,,,A*77
$GPVTG,213.19,T,,M,2.06,N,3.8,K,N*05
$GPGGA,211508.604,3748.7627,N,12217.9065,W,1,03,3.1,2.7,M,-25.1,M,,0000*6D
$GPGSA,A,2,28,23,10,,,,,,,,,,3.2,3.1,1.0*3B
$GPGSV,3,1,11,10,40,255,38,23,29,132,26,28,27,217,38,07,65,338,28*7F
$GPGSV,3,2,11,13,63,120,22,08,45,292,36,19,28,095,22,03,25,060,21*76
$GPGSV,3,3,11,05,19,309,25,06,16,049,23,16,06,042,21*40
$GPRMC,211508.604,A,3748.7627,N,12217.9065,W,1.93,213.26,100611,,,A*78
$GPGGA,211509.604,3748.7633,N,12217.9031,W,1,03,3.1,2.7,M,-25.1,M,,0000*68
$GPGSA,A,2,28,23,10,,,,,,,,,,3.2,3.1,1.0*3B
$GPRMC,211509.604,A,3748.7633,N,12217.9031,W,2.35,221.67,100611,,,A*76
$GPVTG,221.67,T,,M,2.35,N,4.3,K,N*01
$GPGGA,211510.604,3748.7631,N,12217.9025,W,1,03,3.1,2.7,M,-25.1,M,,0000*67
$GPGSA,A,2,28,23,10,,,,,,,,,,3.2,3.1,1.0*3B
$GPRMC,211510.604,A,3748.7631,N,12217.9025,W,1.46,184.11,100611,,,A*73
$GPVTG,184.11,T,,M,1.46,N,2.7,K,N*09
$GPGGA,211511.604,3748.7629,N,12217.9016,W,1,03,3.1,2.7,M,-25.1,M,,0000*6F
$GPGSA,A,2,28,23,10,,,,,,,,,,3.2,3.1,1.0*3B
$GPRMC,211511.604,A,3748.7629,N,12217.9016,W,2.02,207.33,100611,,,A*70
$GPVTG,207.33,T,,M,2.02,N,3.7,K,N*03
$GPGGA,211512.604,3748.7612,N,12217.9055,W,1,03,3.1,2.7,M,-25.1,M,,0000*63
$GPGSA,A,2,28,23,10,,,,,,,,,,3.2,3.1,1.0*3B
$GPRMC,211512.604,A,3748.7612,N,12217.9055,W,1.92,195.10,100611,,,A*7F
$GPVTG,195.10,T,,M,1.92,N,3.6,K,N*01
$GPGGA,211513.604,3748.7609,N,12217.9044,W,1,03,3.1,2.7,M,-25.1,M,,0000*68
$GPGSA,A,2,28,23,10,,,,,,,,,,3.2,3.1,1.0*3B
$GPGSV,3,1,11,10,40,255,39,23,29,132,25,28,27,217,38,07,65,338,28*7D
$GPGSV,3,2,11,13,63,120,22,08,45,292,37,19,28,095,22,03,25,060,22*74
$GPGSV,3,3,11,05,19,309,25,06,16,049,23,16,06,042,21*40
$GPRMC,211513.604,A,3748.7609,N,12217.9044,W,2.49,203.49,100611,,,A*71
$GPVTG,203.49,T,,M,2.49,N,4.6,K,N*03
$GPGGA,211514.604,3748.7623,N,12217.8982,W,1,03,3.1,2.7,M,-25.1,M,,0000*65
$GPGSA,A,2,28,23,10,,,,,,,,,,3.2,3.1,1.0*3B
$GPRMC,211514.604,A,3748.7623,N,12217.8982,W,1.40,180.87,100611,,,A*7C
$GPVTG,180.87,T,,M,1.40,N,2.6,K,N*05
$GPGGA,211515.604,3748.7721,N,12217.8887,W,1,03,3.1,2.7,M,-25.1,M,,0000*63
$GPGSA,A,2,28,23,10,,,,,,,,,,3.2,3.1,1.0*3B
$GPRMC,211515.604,A,3748.7721,N,12217.8887,W,1.38,17.93,100611,,,A*4F
$GPVTG,17.93,T,,M,1.38,N,2.6,K,N*30
$GPGGA,211516.604,3748.7749,N,12217.8939,W,1,03,3.1,2.7,M,-25.1,M,,0000*6A
$GPGSA,A,2,28,23,10,,,,,,,,,,3.2,3.1,1.0*3B
$GPRMC,211516.604,A,3748.7749,N,12217.8939,W,1.29,14.84,100611,,,A*43
$GPVTG,14.84,T,,M,1.29,N,2.4,K,N*37
$GPGGA,211517.604,3748.7660,N,12217.9016,W,1,03,3.1,2.7,M,-25.1,M,,0000*64
$GPGSA,A,2,28,23,10,,,,,,,,,,3.2,3.1,1.0*3B
$GPRMC,211517.604,A,3748.7660,N,12217.9016,W,0.45,118.30,100611,,,A*74
$GPVTG,118.30,T,,M,0.45,N,0.8,K,N*00
$GPGGA,211518.604,3748.7595,N,12217.9057,W,1,03,3.1,2.7,M,-25.1,M,,0000*67
$GPGSA,A,2,28,23,10,,,,,,,,,,3.2,3.1,1.0*3B
$GPGSV,3,1,11,10,40,255,36,23,29,132,25,28,27,217,38,07,65,338,28*72
$GPGSV,3,2,11,13,63,120,22,08,45,292,37,19,28,095,23,03,25,060,17*73
$GPGSV,3,3,11,05,19,309,32,06,16,049,23,16,06,042,15*41
$GPRMC,211518.604,A,3748.7595,N,12217.9057,W,0.22,290.17,100611,,,A*70
$GPVTG,290.17,T,,M,0.22,N,0.4,K,N*0B
$GPGGA,211519.604,3748.7606,N,12217.9018,W,1,03,3.1,2.7,M,-25.1,M,,0000*64
$GPGSA,A,2,28,23,10,,,,,,,,,,3.2,3.1,1.0*3B
$GPRMC,211519.604,A,3748.7606,N,12217.9018,W,1.52,207.20,100611,,,A*7F
$GPVTG,207.20,T,,M,1.52,N,2.8,K,N*09
$GPGGA,211520.604,3748.7599,N,12217.9019,W,1,03,3.1,2.7,M,-25.1,M,,0000*6A
$GPGSA,A,2,28,23,10,,,,,,,,,,3.2,3.1,1.0*3B
$GPRMC,211520.604,A,3748.7599,N,12217.9019,W,1.39,189.55,100611,,,A*7B
$GPVTG,189.55,T,,M,1.39,N,2.6,K,N*0D
$GPGGA,211521.604,3748.7591,N,12217.9044,W,1,03,3.1,2.7,M,-25.1,M,,0000*6B
$GPGSA,A,2,28,23,10,,,,,,,,,,3.2,3.1,1.0*3B
$GPRMC,211521.604,A,3748.7591,N,12217.9044,W,1.90,203.28,100611,,,A*72
$GPVTG,203.28,T,,M,1.90,N,3.5,K,N*07
$GPGGA,211522.604,3748.7579,N,12217.9068,W,1,03,3.1,2.7,M,-25.1,M,,0000*60
$GPGSA,A,2,28,23,10,,,,,,,,,,3.2,3.1,1.0*3B
$GPRMC,211522.604,A,3748.7579,N,12217.9068,W,2.26,208.90,100611,,,A*7F
$GPVTG,208.90,T,,M,2.26,N,4.2,K,N*01
$GPGGA,211523.604,3748.7589,N,12217.9013,W,1,03,3.1,2.7,M,-25.1,M,,0000*62
$GPGSA,A,2,28,23,10,,,,,,,,,,3.2,3.1,1.0*3B
$GPGSV,3,1,11,10,40,255,38,23,29,132,32,28,27,217,37,07,65,338,28*75
$GPGSV,3,2,11,13,63,120,23,08,45,292,37,19,28,095,23,03,25,060,21*77
$GPGSV,3,3,11,05,19,309,30,06,16,049,22,16,06,042,20*44
$GPRMC,211523.604,A,3748.7589,N,12217.9013,W,1.87,218.10,100611,,,A*7C
$GPVTG,218.10,T,,M,1.87,N,3.5,K,N*00
$GPGGA,211524.604,3748.7584,N,12217.9017,W,1,03,3.1,2.7,M,-25.1,M,,0000*6C
$GPGSA,A,2,28,23,10,,,,,,,,,,3.2,3.1,1.0*3B
$GPRMC,211524.604,A,3748.7584,N,12217.9017,W,1.30,171.59,100611,,,A*7F
$GPVTG,171.59,T,,M,1.30,N,2.4,K,N*0D
$GPGGA,211525.604,3748.7565,N,12217.9062,W,1,03,3.1,2.7,M,-25.1,M,,0000*60
$GPGSA,A,2,28,23,10,,,,,,,,,,3.2,3.1,1.0*3B
$GPRMC,211525.604,A,3748.7565,N,12217.9062,W,1.48,179.20,100611,,,A*7A
$GPVTG,179.20,T,,M,1.48,N,2.7,K,N*07
$GPGGA,211526.604,3748.7544,N,12217.9119,W,1,03,3.1,2.7,M,-25.1,M,,0000*6D
$GPGSA,A,2,28,23,10,,,,,,,,,,3.2,3.1,1.0*3B
$GPRMC,211526.604,A,3748.7544,N,12217.9119,W,2.65,223.84,100611,,,A*79
$GPVTG,223.84,T,,M,2.65,N,4.9,K,N*01
$GPGGA,211527.604,3748.7547,N,12217.9097,W,1,03,3.1,2.7,M,-25.1,M,,0000*68
$GPGSA,A,2,28,23,10,,,,,,,,,,3.2,3.1,1.0*3B
$GPRMC,211527.604,A,3748.7547,N,12217.9097,W,3.10,218.75,100611,,,A*79
$GPVTG,218.75,T,,M,3.10,N,5.7,K,N*0B
$GPGGA,211528.604,3748.7537,N,12217.9113,W,1,03,3.1,2.7,M,-25.1,M,,0000*6D
$GPGSA,A,2,28,23,10,,,,,,,,,,3.2,3.1,1.0*3B
$GPGSV,3,1,11,10,40,255,38,23,29,132,22,28,27,217,37,07,65,338,28*74
$GPGSV,3,2,11,13,63,120,24,08,45,292,36,19,28,095,21,03,25,060,21*73
$GPGSV,3,3,11,05,19,309,23,06,16,049,22,16,06,042,23*45
$GPRMC,211528.604,A,3748.7537,N,12217.9113,W,2.81,215.94,100611,,,A*77
$GPVTG,215.94,T,,M,2.81,N,5.2,K,N*05
$GPGGA,211529.604,3748.7557,N,12217.9056,W,1,03,3.1,2.7,M,-25.1,M,,0000*6A
$GPGSA,A,2,28,23,10,,,,,,,,,,3.2,3.1,1.0*3B
$GPRMC,211529.604,A,3748.7557,N,12217.9056,W,2.65,221.77,100611,,,A*70
$GPVTG,221.77,T,,M,2.65,N,4.9,K,N*0F
$GPGGA,211530.604,3748.7570,N,12217.9056,W,1,03,3.1,2.7,M,-25.1,M,,0000*67
$GPGSA,A,2,28,23,10,,,,,,,,,,3.2,3.1,1.0*3B
$GPRMC,211530.604,A,3748.7570,N,12217.9056,W,1.90,210.07,100611,,,A*71
$GPVTG,210.07,T,,M,1.90,N,3.5,K,N*08
$GPGGA,211531.604,3748.7543,N,12217.9102,W,1,03,3.1,2.7,M,-25.1,M,,0000*66
$GPGSA,A,2,28,23,10,,,,,,,,,,3.2,3.1,1.0*3B
$GPRMC,211531.604,A,3748.7543,N,12217.9102,W,1.33,203.90,100611,,,A*75
$GPVTG,203.90,T,,M,1.33,N,2.5,K,N*0C
$GPGGA,211532.604,3748.7542,N,12217.9074,W,1,03,3.1,2.7,M,-25.1,M,,0000*64
$GPGSA,A,2,28,23,10,,,,,,,,,,3.2,3.1,1.0*3B
$GPRMC,211532.604,A,3748.7542,N,12217.9074,W,1.54,216.70,100611,,,A*7C
$GPVTG,216.70,T,,M,1.54,N,2.9,K,N*0B
$GPGGA,211533.604,3748.7524,N,12217.9114,W,1,03,3.1,2.7,M,-25.1,M,,0000*62
$GPGSA,A,2,28,23,10,,,,,,,,,,3.2,3.1,1.0*3B
$GPGSV,3,1,11,10,40,255,37,23,29,132,23,28,27,217,38,07,65,338,28*75
$GPGSV,3,2,11,13,63,120,23,08,45,292,36,19,28,095,21,03,25,060,21*74
$GPGSV,3,3,11,05,19,309,24,06,16,049,22,16,06,042,23*42
$GPVTG,205.74,T,,M,1.70,N,3.2,K,N*01
$GPGGA,211534.604,3748.7516,N,12217.9137,W,1,03,3.1,2.7,M,-25.1,M,,0000*65
$GPGSA,A,2,28,23,10,,,,,,,,,,3.2,3.1,1.0*3B
$GPRMC,211534.604,A,3748.7516,N,12217.9137,W,2.21,220.02,100611,,,A*7C
$GPVTG,220.02,T,,M,2.21,N,4.1,K,N*04
$GPGGA,211535.604,3748.7518,N,12217.9123,W,1,03,3.1,2.7,M,-25.1,M,,0000*6F
$GPGSA,A,2,28,23,10,,,,,,,,,,3.2,3.1,1.0*3B
$GPRMC,211535.604,A,3748.7518,N,12217.9123,W,1.73,205.65,100611,,,A*74
$GPVTG,205.65,T,,M,1.73,N,3.2,K,N*02
$GPGGA,211536.604,3748.7523,N,12217.9096,W,1,03,3.1,2.7,M,-25.1,M,,0000*6B
$GPGSA,A,2,28,23,10,,,,,,,,,,3.2,3.1,1.0*3B
$GPRMC,211536.604,A,3748.7523,N,12217.9096,W,1.81,205.26,100611,,,A*7A
$GPVTG,205.26,T,,M,1.81,N,3.4,K,N*0E
$GPGGA,211537.604,3748.7502,N,12217.9150,W,1,03,3.1,2.7,M,-25.1,M,,0000*62
$GPGSA,A,2,28,23,10,,,,,,,,,,3.2,3.1,1.0*3B
$GPRMC,211537.604,A,3748.7502,N,12217.9150,W,1.15,186.71,100611,,,A*74
$GPVTG,186.71,T,,M,1.15,N,2.1,K,N*0D
$GPGGA,211538.604,3748.7506,N,12217.9129,W,1,03,3.1,2.7,M,-25.1,M,,0000*67
$GPGSA,A,2,28,23,10,,,,,,,,,,3.2,3.1,1.0*3B
$GPGSV,3,1,12,10,40,255,37,23,29,132,22,28,27,217,38,07,65,338,28*77
$GPGSV,3,2,12,13,63,120,24,08,45,292,41,19,28,095,21,03,25,060,21*70
$GPGSV,3,3,12,05,19,309,24,06,16,049,22,16,06,042,23,51,00,000,25*72
$GPRMC,211538.604,A,3748.7506,N,12217.9129,W,1.10,177.80,100611,,,A*74
$GPVTG,177.80,T,,M,1.10,N,2.0,K,N*09
$GPGGA,211539.604,3748.7501,N,12217.9133,W,1,03,3.1,2.7,M,-25.1,M,,0000*6A
$GPGSA,A,2,28,23,10,,,,,,,,,,3.2,3.1,1.0*3B
$GPRMC,211539.604,A,3748.7501,N,12217.9133,W,1.24,183.54,100611,,,A*7C
$GPVTG,183.54,T,,M,1.24,N,2.3,K,N*0F
$GPGGA,211540.604,3748.7491,N,12217.9144,W,1,03,3.1,2.7,M,-25.1,M,,0000*6C
$GPGSA,A,2,28,23,10,,,,,,,,,,3.2,3.1,1.0*3B
$GPRMC,211540.604,A,3748.7491,N,12217.9144,W,2.29,209.60,100611,,,A*72
$GPVTG,209.60,T,,M,2.29,N,4.3,K,N*01
$GPGGA,211541.604,3748.7483,N,12217.9153,W,1,03,3.1,2.7,M,-25.1,M,,0000*68
$GPGSA,A,2,28,23,10,,,,,,,,,,3.2,3.1,1.0*3B
$GPRMC,211541.604,A,3748.7483,N,12217.9153,W,1.79,204.66,100611,,,A*7B
$GPVTG,204.66,T,,M,1.79,N,3.3,K,N*0B
$GPGGA,211542.604,3748.7491,N,12217.9112,W,1,03,3.1,2.7,M,-25.1,M,,0000*6D
$GPGSA,A,2,28,23,10,,,,,,,,,,3.3,3.1,1.0*3A
$GPRMC,211542.604,A,3748.7491,N,12217.9112,W,1.49,188.01,100611,,,A*7B
$GPVTG,188.01,T,,M,1.49,N,2.8,K,N*04
$GPGGA,211543.604,3748.7478,N,12217.9145,W,1,03,3.1,2.7,M,-25.1,M,,0000*69
$GPGSA,A,2,28,23,10,,,,,,,,,,3.3,3.1,1.0*3A
$GPGSV,3,1,12,10,39,254,37,23,29,132,22,28,27,217,38,07,65,339,27*76
$GPGSV,3,2,12,13,62,121,30,08,46,293,34,19,29,094,21,03,25,060,21*75
$GPGSV,3,3,12,05,19,309,24,06,16,049,22,16,06,042,22,51,43,156,28*7B
$GPRMC,211543.604,A,3748.7478,N,12217.9145,W,1.34,208.12,100611,,,A*7C
$GPVTG,208.12,T,,M,1.34,N,2.5,K,N*0A
$GPGGA,211544.604,3748.7463,N,12217.9187,W,1,03,3.1,2.7,M,-25.1,M,,0000*6A
$GPGSA,A,2,28,23,10,,,,,,,,,,3.3,3.1,1.0*3A
$GPRMC,211544.604,A,3748.7463,N,12217.9187,W,0.55,227.06,100611,,,A*71
$GPVTG,227.06,T,,M,0.55,N,1.0,K,N*02
$GPGGA,211545.604,3748.7462,N,12217.9187,W,1,03,3.1,2.7,M,-25.1,M,,0000*6A
$GPGSA,A,2,28,23,10,,,,,,,,,,3.3,3.1,1.0*3A
$GPRMC,211545.604,A,3748.7462,N,12217.9187,W,0.38,20.16,100611,,,A*4E
$GPVTG,20.16,T,,M,0.38,N,0.7,K,N*3B
$GPGGA,211546.604,3748.7470,N,12217.9158,W,1,03,3.1,2.7,M,-25.1,M,,0000*68
$GPGSA,A,2,28,23,10,,,,,,,,,,3.3,3.1,1.0*3A
$GPRMC,211546.604,A,3748.7470,N,12217.9158,W,0.33,15.82,100611,,,A*4C
$GPVTG,15.82,T,,M,0.33,N,0.6,K,N*3A
$GPGGA,211547.604,3748.7458,N,12217.9193,W,1,03,3.1,2.7,M,-25.1,M,,0000*64
$GPGSA,A,2,28,23,10,,,,,,,,,,3.3,3.1,1.0*3A
$GPRMC,211547.604,A,3748.7458,N,12217.9193,W,0.44,10.89,100611,,,A*4E
$GPVTG,10.89,T,,M,0.44,N,0.8,K,N*3A
$GPGGA,211548.604,3748.7457,N,12217.9192,W,1,03,3.1,2.7,M,-25.1,M,,0000*65
$GPGSA,A,2,28,23,10,,,,,,,,,,3.3,3.1,1.0*3A
$GPGSV,3,1,12,10,39,254,39,23,28,132,24,28,27,217,38,07,65,339,28*70
$GPGSV,3,2,12,13,62,121,29,08,46,293,36,19,29,094,22,03,25,060,21*7C
$GPGSV,3,3,12,05,19,309,29,06,16,049,13,16,06,042,21,51,43,156,27*78
$GPRMC,211548.604,A,3748.7457,N,12217.9192,W,0.30,15.42,100611,,,A*4E
$GPGGA,211549.604,3748.7457,N,12217.9193,W,1,03,3.1,2.7,M,-25.1,M,,0000*65
$GPGSA,A,2,28,23,10,,,,,,,,,,3.3,3.1,1.0*3A
$GPRMC,211549.604,A,3748.7457,N,12217.9193,W,0.32,8.38,100611,,,A*7D
$GPVTG,8.38,T,,M,0.32,N,0.6,K,N*06
$GPGGA,211550.604,3748.7456,N,12217.9191,W,1,03,3.1,2.7,M,-25.1,M,,0000*6E
$GPGSA,A,2,28,23,10,,,,,,,,,,3.3,3.1,1.0*3A
$GPRMC,211550.604,A,3748.7456,N,12217.9191,W,0.40,23.13,100611,,,A*43
$GPVTG,23.13,T,,M,0.40,N,0.7,K,N*32
$GPGGA,211551.604,3748.7456,N,12217.9186,W,1,03,3.1,2.7,M,-25.1,M,,0000*69
$GPGSA,A,2,28,23,10,,,,,,,,,,3.3,3.1,1.0*3A
$GPRMC,211551.604,A,3748.7456,N,12217.9186,W,0.36,11.62,100611,,,A*42
$GPVTG,11.62,T,,M,0.36,N,0.7,K,N*34
$GPGGA,211552.604,3748.7455,N,12217.9189,W,1,03,3.1,2.7,M,-25.1,M,,0000*66
$GPGSA,A,2,28,23,10,,,,,,,,,,3.3,3.1,1.0*3A
$GPRMC,211552.604,A,3748.7455,N,12217.9189,W,0.34,18.07,100611,,,A*45
$GPVTG,18.07,T,,M,0.34,N,0.6,K,N*3D
$GPGGA,211553.604,3748.7453,N,12217.9194,W,1,03,3.1,2.7,M,-25.1,M,,0000*6D
$GPGSA,A,2,28,23,10,,,,,,,,,,3.3,3.1,1.0*3A
$GPGSV,3,1,12,10,39,254,40,23,28,132,25,28,27,217,38,07,65,339,28*7F
$GPGSV,3,2,12,13,62,121,29,08,46,293,36,19,29,094,23,03,25,060,21*7D
$GPGSV,3,3,12,05,19,309,29,06,16,049,21,16,06,042,21,51,43,156,28*76
$GPRMC,211553.604,A,3748.7453,N,12217.9194,W,0.30,9.05,100611,,,A*78
$GPVTG,9.05,T,,M,0.30,N,0.6,K,N*0B
$GPGGA,211554.604,3748.7452,N,12217.9197,W,1,03,3.1,2.7,M,-25.1,M,,0000*68
$GPGSA,A,2,28,23,10,,,,,,,,,,3.3,3.1,1.0*3A
$GPRMC,211554.604,A,3748.7452,N,12217.9197,W,0.30,15.42,100611,,,A*43
$GPVTG,15.42,T,,M,0.30,N,0.6,K,N*35
$GPGGA,211555.604,3748.7452,N,12217.9197,W,1,03,3.1,2.7,M,-25.1,M,,0000*69
$GPGSA,A,2,28,23,10,,,,,,,,,,3.3,3.1,1.0*3A
$GPRMC,211555.604,A,3748.7452,N,12217.9197,W,0.38,15.14,100611,,,A*49
$GPVTG,15.14,T,,M,0.38,N,0.7,K,N*3F
$GPGGA,211556.604,3748.7453,N,12217.9194,W,1,03,3.1,2.7,M,-25.1,M,,0000*68
$GPGSA,A,2,28,23,10,,,,,,,,,,3.3,3.1,1.0*3A
$GPRMC,211556.604,A,3748.7453,N,12217.9194,W,0.35,14.75,100611,,,A*43
$GPVTG,14.75,T,,M,0.35,N,0.6,K,N*35
$GPGGA,211557.604,3748.7453,N,12217.9193,W,1,03,3.1,2.7,M,-25.1,M,,0000*6E
$GPGSA,A,2,28,23,10,,,,,,,,,,3.3,3.1,1.0*3A
$GPRMC,211557.604,A,3748.7453,N,12217.9193,W,0.35,14.75,100611,,,A*45
$GPVTG,14.75,T,,M,0.35,N,0.6,K,N*35
$GPGGA,211558.604,3748.7455,N,12217.9189,W,1,03,3.1,2.7,M,-25.1,M,,0000*6C
$GPGSA,A,2,28,23,10,,,,,,,,,,3.3,3.1,1.0*3A
$GPGSV,3,1,12,10,39,254,40,23,28,132,25,28,27,217,38,07,65,339,29*7E
$GPGSV,3,2,12,13,62,121,29,08,46,293,36,19,29,094,23,03,25,060,21*7D
$GPGSV,3,3,12,05,19,309,29,06,16,049,22,16,06,042,21,51,43,156,27*7A
$GPVTG,21.49,T,,M,0.36,N,0.7,K,N*3E
$GPGGA,211559.604,3748.7480,N,12217.9108,W,1,03,3.1,2.7,M,-25.1,M,,0000*6C
$GPGSA,A,2,28,23,10,,,,,,,,,,3.3,3.1,1.0*3A
$GPRMC,211559.604,A,3748.7480,N,12217.9108,W,0.39,280.90,100611,,,A*7F
$GPVTG,280.90,T,,M,0.39,N,0.7,K,N*0C
$GPGGA,211600.604,3748.7492,N,12217.9070,W,1,03,3.1,2.7,M,-25.1,M,,0000*6E
$GPGSA,A,2,28,23,10,,,,,,,,,,3.3,3.1,1.0*3A
$GPRMC,211600.604,A,3748.7492,N,12217.9070,W,0.33,311.73,100611,,,A*73
$GPVTG,311.73,T,,M,0.33,N,0.6,K,N*03
$GPGGA,211601.604,3748.7479,N,12217.9115,W,1,03,3.1,2.7,M,-25.1,M,,0000*68
$GPGSA,A,2,28,23,10,,,,,,,,,,3.3,3.1,1.0*3A
$GPRMC,211601.604,A,3748.7479,N,12217.9115,W,0.29,348.82,100611,,,A*7C
$GPVTG,348.82,T,,M,0.29,N,0.5,K,N*09
$GPGGA,211602.604,3748.7497,N,12217.9061,W,1,03,3.1,2.7,M,-25.1,M,,0000*69
$GPGSA,A,2,28,23,10,,,,,,,,,,3.3,3.1,1.0*3A
$GPRMC,211602.604,A,3748.7497,N,12217.9061,W,0.94,270.54,100611,,,A*7A
$GPVTG,270.54,T,,M,0.94,N,1.7,K,N*0D
$GPGGA,211603.604,3748.7610,N,12217.8697,W,1,03,8.5,2.7,M,-25.1,M,,0000*64
$GPGSA,A,2,28,10,08,,,,,,,,,,8.5,8.5,1.0*31
$GPGSV,3,1,12,10,39,254,40,23,28,132,17,28,27,217,38,07,65,339,30*77
$GPGSV,3,2,12,13,62,121,28,08,46,293,35,19,29,094,23,03,25,060,20*7E
$GPGSV,3,3,12,05,19,309,29,06,16,049,22,16,06,042,21,51,43,156,25*78
$GPRMC,211603.604,A,3748.7610,N,12217.8697,W,1.75,268.50,100611,,,A*7B
$GPVTG,268.50,T,,M,1.75,N,3.2,K,N*09
$GPGGA,211604.604,3748.7611,N,12217.8700,W,1,03,8.5,2.7,M,-25.1,M,,0000*6D
$GPGSA,A,2,28,10,08,,,,,,,,,,8.5,8.5,1.0*31
$GPRMC,211604.604,A,3748.7611,N,12217.8700,W,0.97,286.33,100611,,,A*7A
$GPVTG,286.33,T,,M,0.97,N,1.8,K,N*09
$GPGGA,211605.604,3748.7617,N,12217.8677,W,1,03,8.5,2.7,M,-25.1,M,,0000*6B
$GPGSA,A,2,28,10,08,,,,,,,,,,8.5,8.5,1.0*31
$GPRMC,211605.604,A,3748.7617,N,12217.8677,W,2.14,71.83,100611,,,A*44
$GPVTG,71.83,T,,M,2.14,N,4.0,K,N*3C
$GPGGA,211606.604,3748.7612,N,12217.8680,W,1,03,8.5,2.7,M,-25.1,M,,0000*65
$GPGSA,A,2,28,10,08,,,,,,,,,,8.5,8.5,1.0*31
$GPRMC,211606.604,A,3748.7612,N,12217.8680,W,2.86,229.79,100611,,,A*7B
$GPVTG,229.79,T,,M,2.86,N,5.3,K,N*0F
$GPGGA,211607.604,3748.7717,N,12217.9019,W,1,04,1.8,-92.0,M,-25.1,M,,0000*77
$GPGSA,A,3,28,23,10,08,,,,,,,,,2.1,1.8,1.0*3B
$GPRMC,211607.604,A,3748.7717,N,12217.9019,W,3.67,233.20,100611,,,A*70
$GPVTG,233.20,T,,M,3.67,N,6.8,K,A*01
$GPGGA,211608.604,3748.7706,N,12217.9006,W,1,04,1.8,-86.6,M,-25.1,M,,0000*75
$GPGSA,A,3,28,23,10,08,,,,,,,,,2.1,1.8,1.0*3B
$GPGSV,3,1,12,08,46,293,35,10,39,254,40,23,28,132,23,28,27,217,38*7A
$GPGSV,3,2,12,07,65,339,25,13,62,121,28,19,29,094,23,03,25,060,20*70
$GPGSV,3,3,12,05,19,309,24,06,16,049,23,16,06,042,20,51,43,156,32*73
$GPRMC,211608.604,A,3748.7706,N,12217.9006,W,2.54,217.01,100611,,,A*75
$GPVTG,217.01,T,,M,2.54,N,4.7,K,A*08
$GPGGA,211609.604,3748.7689,N,12217.8986,W,1,04,1.8,-78.5,M,-25.1,M,,0000*70
$GPGSA,A,3,28,23,10,08,,,,,,,,,2.1,1.8,1.0*3B
$GPRMC,211609.604,A,3748.7689,N,12217.8986,W,2.24,208.18,100611,,,A*73
$GPVTG,208.18,T,,M,2.24,N,4.1,K,A*0F
$GPGGA,211610.000,3748.7676,N,12217.8983,W,1,04,1.8,-71.0,M,-25.1,M,,0000*73
$GPGSA,A,3,28,23,10,08,,,,,,,,,2.1,1.8,1.0*3B
$GPRMC,211610.000,A,3748.7676,N,12217.8983,W,2.10,201.93,100611,,,A*71
$GPVTG,201.93,T,,M,2.10,N,3.9,K,A*0D
$GPGGA,211611.000,3748.7669,N,12217.8981,W,1,04,1.8,-69.7,M,-25.1,M,,0000*70
$GPGSA,A,3,28,23,10,08,,,,,,,,,2.1,1.8,1.0*3B
$GPRMC,211611.000,A,3748.7669,N,12217.8981,W,2.23,208.55,100611,,,A*7F
$GPVTG,208.55,T,,M,2.23,N,4.1,K,A*01
$GPGGA,211612.000,3748.7661,N,12217.8982,W,1,04,1.8,-68.3,M,-25.1,M,,0000*7D
$GPGSA,A,3,28,23,10,08,,,,,,,,,2.1,1.8,1.0*3B
$GPRMC,211612.000,A,3748.7661,N,12217.8982,W,2.17,209.43,100611,,,A*76
$GPVTG,209.43,T,,M,2.17,N,4.0,K,A*01
$GPGGA,211613.000,3748.7654,N,12217.8985,W,1,04,1.8,-67.2,M,-25.1,M,,0000*73
$GPGSA,A,3,28,23,10,08,,,,,,,,,2.1,1.8,1.0*3B
$GPGSV,3,1,12,07,65,339,25,13,62,121,29,08,46,293,36,10,39,254,39*78
$GPGSV,3,2,12,19,29,094,22,23,28,132,28,28,27,217,34,03,25,060,21*79
$GPGSV,3,3,12,05,19,309,34,06,15,049,22,16,06,042,20,48,44,197,35*75
$GPVTG,215.16,T,,M,2.38,N,4.4,K,A*05
$GPGGA,211614.000,3748.7649,N,12217.8993,W,1,04,1.8,-67.5,M,-25.1,M,,0000*78
$GPGSA,A,3,28,23,10,08,,,,,,,,,2.1,1.8,1.0*3B
$GPRMC,211614.000,A,3748.7649,N,12217.8993,W,2.33,212.65,100611,,,A*72
$GPVTG,212.65,T,,M,2.33,N,4.3,K,A*0A
$GPGGA,211615.000,3748.7644,N,12217.9003,W,1,04,1.8,-68.2,M,-25.1,M,,0000*7D
$GPGSA,A,3,28,23,10,08,,,,,,,,,2.1,1.8,1.0*3B
$GPRMC,211615.000,A,3748.7644,N,12217.9003,W,2.40,215.36,100611,,,A*7A
$GPVTG,215.36,T,,M,2.40,N,4.4,K,A*08
$GPGGA,211616.000,3748.7640,N,12217.9016,W,1,04,1.8,-69.7,M,-25.1,M,,0000*7A
$GPGSA,A,3,28,23,10,08,,,,,,,,,2.1,1.8,1.0*3B
$GPRMC,211616.000,A,3748.7640,N,12217.9016,W,2.57,223.67,100611,,,A*7E
$GPVTG,223.67,T,,M,2.57,N,4.8,K,A*03
$GPGGA,211617.000,3748.7637,N,12217.9026,W,1,04,1.8,-70.4,M,-25.1,M,,0000*73
$GPGSA,A,3,28,23,10,08,,,,,,,,,2.1,1.8,1.0*3B
$GPRMC,211617.000,A,3748.7637,N,12217.9026,W,2.22,224.00,100611,,,A*78
$GPVTG,224.00,T,,M,2.22,N,4.1,K,A*0E
$GPGGA,211618.000,3748.7632,N,12217.9032,W,1,04,1.8,-70.7,M,-25.1,M,,0000*7F
$GPGSA,A,3,28,23,10,08,,,,,,,,,2.1,1.8,1.0*3B
$GPGSV,3,1,12,07,65,339,27,13,62,121,28,08,46,293,36,10,39,254,38*7A
$GPGSV,3,2,12,19,29,094,22,23,28,132,28,28,27,217,33,03,25,060,21*7E
$GPGSV,3,3,12,05,19,309,38,06,15,048,23,16,06,042,23,48,44,197,34*7B
$GPRMC,211618.000,A,3748.7632,N,12217.9032,W,2.16,208.36,100611,,,A*7B
$GPVTG,208.36,T,,M,2.16,N,4.0,K,A*03
$GPGGA,211619.000,3748.7627,N,12217.9038,W,1,04,1.8,-71.1,M,-25.1,M,,0000*77
$GPGSA,A,3,28,23,10,08,,,,,,,,,2.1,1.8,1.0*3B
$GPRMC,211619.000,A,3748.7627,N,12217.9038,W,2.22,204.70,100611,,,A*7D
$GPVTG,204.70,T,,M,2.22,N,4.1,K,A*0B
$GPGGA,211620.000,3748.7623,N,12217.9049,W,1,04,1.8,-72.5,M,-25.1,M,,0000*78
$GPGSA,A,3,28,23,10,08,,,,,,,,,2.1,1.8,1.0*3B
$GPRMC,211620.000,A,3748.7623,N,12217.9049,W,2.52,216.39,100611,,,A*7C
$GPVTG,216.39,T,,M,2.52,N,4.7,K,A*04
$GPGGA,211621.000,3748.7554,N,12217.9055,W,1,05,1.5,-29.7,M,-25.1,M,,0000*77
$GPGSA,A,3,28,23,10,08,05,,,,,,,,3.7,1.5,3.3*35
$GPRMC,211621.000,A,3748.7554,N,12217.9055,W,2.48,216.31,100611,,,A*70
$GPVTG,216.31,T,,M,2.48,N,4.6,K,A*06
$GPGGA,211622.000,3748.7532,N,12217.9057,W,1,05,1.5,-18.0,M,-25.1,M,,0000*73
$GPGSA,A,3,28,23,10,08,05,,,,,,,,3.7,1.5,3.3*35
$GPRMC,211622.000,A,3748.7532,N,12217.9057,W,1.97,214.62,100611,,,A*74
$GPVTG,214.62,T,,M,1.97,N,3.6,K,A*04
$GPGGA,211623.000,3748.7521,N,12217.9066,W,1,05,1.5,-14.6,M,-25.1,M,,0000*78
$GPGSA,A,3,28,23,10,08,05,,,,,,,,3.7,1.5,3.3*35
$GPGSV,3,1,12,07,65,339,26,13,62,121,28,08,46,293,33,10,39,254,31*77
$GPGSV,3,2,12,19,29,094,22,23,28,132,27,28,27,217,33,03,25,060,22*72
$GPGSV,3,3,12,05,19,309,25,06,15,048,22,16,06,042,21,48,44,197,34*74
$GPRMC,211623.000,A,3748.7521,N,12217.9066,W,2.58,223.83,100611,,,A*7E
$GPVTG,223.83,T,,M,2.58,N,4.8,K,A*06
$GPGGA,211624.000,3748.7514,N,12217.9063,W,1,05,1.5,-12.3,M,-25.1,M,,0000*7F
$GPGSA,A,3,28,23,10,08,05,,,,,,,,3.7,1.5,3.3*35
$GPRMC,211624.000,A,3748.7514,N,12217.9063,W,1.85,217.42,100611,,,A*73
$GPVTG,217.42,T,,M,1.85,N,3.4,K,A*04
$GPGGA,211625.000,3748.7503,N,12217.9063,W,1,05,1.5,-7.5,M,-25.1,M,,0000*4A
$GPGSA,A,3,28,23,10,08,05,,,,,,,,3.7,1.5,3.3*35
$GPRMC,211625.000,A,3748.7503,N,12217.9063,W,1.95,217.06,100611,,,A*75
$GPVTG,217.06,T,,M,1.95,N,3.6,K,A*07
$GPGGA,211626.000,3748.7498,N,12217.9068,W,1,05,1.5,-7.5,M,-25.1,M,,0000*41
$GPGSA,A,3,28,23,10,08,05,,,,,,,,3.7,1.5,3.3*35
$GPRMC,211626.000,A,3748.7498,N,12217.9068,W,2.21,217.07,100611,,,A*73
$GPVTG,217.07,T,,M,2.21,N,4.1,K,A*0A
$GPGGA,211627.000,3748.7486,N,12217.9074,W,1,05,1.5,-3.6,M,-25.1,M,,0000*45
$GPGSA,A,3,28,23,10,08,05,,,,,,,,3.7,1.5,3.4*32
$GPRMC,211627.000,A,3748.7486,N,12217.9074,W,2.58,213.11,100611,,,A*7D
$GPVTG,213.11,T,,M,2.58,N,4.8,K,A*0E
$GPGGA,211628.000,3748.7473,N,12217.9078,W,1,05,1.5,0.4,M,-25.1,M,,0000*60
$GPGSA,A,3,28,23,10,08,05,,,,,,,,3.7,1.5,3.4*32
$GPGSV,3,1,12,07,65,339,21,13,62,121,24,08,46,293,33,10,39,254,37*7A
$GPGSV,3,2,12,19,29,094,23,23,28,132,33,28,27,217,36,03,25,060,22*73
$GPGSV,3,3,12,05,19,309,24,06,15,048,22,16,06,042,21,48,44,197,35*74
$GPVTG,207.27,T,,M,2.78,N,5.1,K,A*04
$GPGGA,211629.000,3748.7462,N,12217.9081,W,1,05,1.5,3.8,M,-25.1,M,,0000*68
$GPGSA,A,3,28,23,10,08,05,,,,,,,,3.7,1.5,3.4*32
$GPRMC,211629.000,A,3748.7462,N,12217.9081,W,2.40,205.30,100611,,,A*7E
$GPVTG,205.30,T,,M,2.40,N,4.5,K,A*0E
$GPGGA,211630.000,3748.7453,N,12217.9083,W,1,05,1.5,5.8,M,-25.1,M,,0000*66
$GPGSA,A,3,28,23,10,08,05,,,,,,,,3.7,1.5,3.4*32
$GPRMC,211630.000,A,3748.7453,N,12217.9083,W,2.28,202.68,100611,,,A*72
$GPVTG,202.68,T,,M,2.28,N,4.2,K,A*0D
$GPGGA,211631.000,3748.7447,N,12217.9082,W,1,05,1.5,6.0,M,-25.1,M,,0000*68
$GPGSA,A,3,28,23,10,08,05,,,,,,,,3.7,1.5,3.4*32
$GPRMC,211631.000,A,3748.7447,N,12217.9082,W,2.11,200.96,100611,,,A*7E
$GPVTG,200.96,T,,M,2.11,N,3.9,K,A*08
$GPGGA,211632.000,3748.7445,N,12217.9087,W,1,05,1.5,3.9,M,-25.1,M,,0000*60
$GPGSA,A,3,28,23,10,08,05,,,,,,,,3.7,1.5,3.4*32
$GPRMC,211632.000,A,3748.7445,N,12217.9087,W,1.97,198.31,100611,,,A*78
$GPVTG,198.31,T,,M,1.97,N,3.7,K,A*04
$GPGGA,211633.000,3748.7441,N,12217.9095,W,1,05,1.5,2.9,M,-25.1,M,,0000*67
$GPGSA,A,3,28,23,10,08,05,,,,,,,,3.7,1.5,3.4*32
$GPGSV,3,1,12,07,65,339,26,13,62,121,26,08,46,293,34,10,39,254,37*78
$GPGSV,3,2,12,19,29,094,27,23,28,132,25,28,27,217,36,03,25,060,22*70
$GPGSV,3,3,12,05,19,309,24,06,15,048,23,16,06,042,21,48,44,197,32*72
$GPRMC,211633.000,A,3748.7441,N,12217.9095,W,2.06,196.43,100611,,,A*7E
$GPVTG,196.43,T,,M,2.06,N,3.8,K,A*0B
$GPGGA,211634.000,3748.7437,N,12217.9100,W,1,05,1.5,2.1,M,-25.1,M,,0000*64
$GPGSA,A,3,28,23,10,08,05,,,,,,,,3.7,1.5,3.4*32
$GPRMC,211634.000,A,3748.7437,N,12217.9100,W,1.91,213.04,100611,,,A*75
$GPVTG,213.04,T,,M,1.91,N,3.5,K,A*06
$GPGGA,211635.000,3748.7433,N,12217.9105,W,1,05,1.5,1.2,M,-25.1,M,,0000*64
$GPGSA,A,3,28,23,10,08,05,,,,,,,,3.7,1.5,3.4*32
$GPRMC,211635.000,A,3748.7433,N,12217.9105,W,2.06,202.33,100611,,,A*7C
$GPVTG,202.33,T,,M,2.06,N,3.8,K,A*02
$GPGGA,211636.000,3748.7431,N,12217.9114,W,1,05,1.5,-0.9,M,-25.1,M,,0000*42
$GPGSA,A,3,28,23,10,08,05,,,,,,,,3.7,1.5,3.4*32
$GPRMC,211636.000,A,3748.7431,N,12217.9114,W,2.08,218.83,100611,,,A*73
$GPVTG,218.83,T,,M,2.08,N,3.9,K,A*0D
$GPGGA,211637.000,3748.7426,N,12217.9122,W,1,05,1.5,-0.8,M,-25.1,M,,0000*41
$GPGSA,A,3,28,23,10,08,05,,,,,,,,3.7,1.5,3.4*32
$GPRMC,211637.000,A,3748.7426,N,12217.9122,W,1.64,221.29,100611,,,A*72
$GPVTG,221.29,T,,M,1.64,N,3.0,K,A*07
$GPGGA,211638.000,3748.7419,N,12217.9127,W,1,05,1.5,0.8,M,-25.1,M,,0000*6A
$GPGSA,A,3,28,23,10,08,05,,,,,,,,3.7,1.5,3.4*32
$GPGSV,3,1,12,07,65,339,27,13,62,121,27,08,46,293,35,10,39,254,36*78
$GPGSV,3,2,12,19,29,094,21,23,28,132,31,28,27,217,34,03,25,060,22*71
$GPGSV,3,3,12,05,19,309,24,06,15,048,23,16,06,042,20,48,44,197,36*77
$GPRMC,211638.000,A,3748.7419,N,12217.9127,W,2.27,216.10,100611,,,A*7E
$GPVTG,216.10,T,,M,2.27,N,4.2,K,A*08
$GPGGA,211639.000,3748.7416,N,12217.9132,W,1,05,1.5,0.5,M,-25.1,M,,0000*6D
$GPGSA,A,3,28,23,10,08,05,,,,,,,,3.7,1.5,3.4*32
$GPRMC,211639.000,A,3748.7416,N,12217.9132,W,2.11,221.45,100611,,,A*75
$GPVTG,221.45,T,,M,2.11,N,3.9,K,A*05
$GPGGA,211640.000,3748.7411,N,12217.9136,W,1,05,1.5,0.4,M,-25.1,M,,0000*61
$GPGSA,A,3,28,23,10,08,05,,,,,,,,3.7,1.5,3.4*32
$GPRMC,211640.000,A,3748.7411,N,12217.9136,W,2.53,212.32,100611,,,A*7E
$GPVTG,212.32,T,,M,2.53,N,4.7,K,A*0A
$GPGGA,211641.000,3748.7404,N,12217.9139,W,1,05,1.5,1.2,M,-25.1,M,,0000*6C
$GPGSA,A,3,28,23,10,08,05,,,,,,,,3.7,1.5,3.4*32
$GPRMC,211641.000,A,3748.7404,N,12217.9139,W,2.47,210.00,100611,,,A*72
$GPVTG,210.00,T,,M,2.47,N,4.6,K,A*0D
$GPGGA,211642.000,3748.7398,N,12217.9142,W,1,05,1.5,1.7,M,-25.1,M,,0000*64
$GPGSA,A,3,28,23,10,08,05,,,,,,,,3.7,1.5,3.4*32
$GPRMC,211642.000,A,3748.7398,N,12217.9142,W,2.27,215.97,100611,,,A*72
$GPVTG,215.97,T,,M,2.27,N,4.2,K,A*04
$GPGGA,211643.000,3748.7393,N,12217.9146,W,1,05,1.5,1.7,M,-25.1,M,,0000*6A
$GPGSA,A,3,28,23,10,08,05,,,,,,,,3.7,1.5,3.4*32
$GPGSV,3,1,12,07,65,340,26,13,62,121,28,08,46,293,36,10,39,254,37*7A
$GPGSV,3,2,12,19,29,094,29,23,28,132,32,28,27,217,33,03,25,059,22*77
$GPGSV,3,3,12,05,19,309,24,06,15,048,22,16,06,042,19,48,44,197,33*79
$GPRMC,211643.000,A,3748.7393,N,12217.9146,W,2.22,216.40,100611,,,A*70
$GPGGA,211644.000,3748.7389,N,12217.9154,W,1,05,1.5,1.0,M,-25.1,M,,0000*62
$GPGSA,A,3,28,23,10,08,05,,,,,,,,3.7,1.5,3.4*32
$GPRMC,211644.000,A,3748.7389,N,12217.9154,W,2.26,215.93,100611,,,A*76
$GPVTG,215.93,T,,M,2.26,N,4.2,K,A*01
$GPGGA,211645.000,3748.7384,N,12217.9160,W,1,05,1.5,0.4,M,-25.1,M,,0000*6C
$GPGSA,A,3,28,23,10,08,05,,,,,,,,3.7,1.5,3.4*32
$GPRMC,211645.000,A,3748.7384,N,12217.9160,W,2.17,210.01,100611,,,A*71
$GPVTG,210.01,T,,M,2.17,N,4.0,K,A*0F
$GPGGA,211646.000,3748.7378,N,12217.9166,W,1,05,1.5,0.2,M,-25.1,M,,0000*6C
$GPGSA,A,3,28,23,10,08,05,,,,,,,,3.7,1.5,3.4*32
$GPRMC,211646.000,A,3748.7378,N,12217.9166,W,2.14,200.02,100611,,,A*76
$GPVTG,200.02,T,,M,2.14,N,4.0,K,A*0E
$GPGGA,211647.000,3748.7373,N,12217.9174,W,1,05,1.5,-0.1,M,-25.1,M,,0000*4B
$GPGSA,A,3,28,23,10,08,05,,,,,,,,3.7,1.5,3.4*32
$GPRMC,211647.000,A,3748.7373,N,12217.9174,W,1.94,212.26,100611,,,A*71
$GPVTG,212.26,T,,M,1.94,N,3.6,K,A*01
$GPGGA,211648.000,3748.7367,N,12217.9185,W,1,05,1.5,0.3,M,-25.1,M,,0000*60
$GPGSA,A,3,28,23,10,08,05,,,,,,,,3.7,1.5,3.4*32
$GPGSV,3,1,12,07,65,340,26,13,62,121,28,08,46,293,31,10,39,254,35*7F
$GPGSV,3,2,12,19,29,094,24,23,28,132,24,28,28,217,38,03,25,059,25*7E
$GPGSV,3,3,12,05,19,309,29,06,15,048,23,16,05,042,19,48,44,197,33*76
$GPRMC,211648.000,A,3748.7367,N,12217.9185,W,1.70,220.00,100611,,,A*7A
$GPVTG,220.00,T,,M,1.70,N,3.2,K,A*0A
$GPGGA,211649.000,3748.7362,N,12217.9195,W,1,05,1.5,0.6,M,-25.1,M,,0000*60
$GPGSA,A,3,28,23,10,08,05,,,,,,,,3.7,1.5,3.4*32
$GPRMC,211649.000,A,3748.7362,N,12217.9195,W,2.25,227.59,100611,,,A*77
$GPVTG,227.59,T,,M,2.25,N,4.2,K,A*05
$GPGGA,211650.000,3748.7355,N,12217.9201,W,1,05,1.5,1.5,M,-25.1,M,,0000*60
$GPGSA,A,3,28,23,10,08,05,,,,,,,,3.7,1.5,3.4*32
$GPRMC,211650.000,A,3748.7355,N,12217.9201,W,2.09,214.10,100611,,,A*76
$GPVTG,214.10,T,,M,2.09,N,3.9,K,A*0A
$GPGGA,211651.000,3748.7347,N,12217.9200,W,1,05,1.5,1.4,M,-25.1,M,,0000*62
$GPGSA,A,3,28,23,10,08,05,,,,,,,,3.7,1.5,3.4*32
$GPRMC,211651.000,A,3748.7347,N,12217.9200,W,2.26,205.71,100611,,,A*7F
$GPVTG,205.71,T,,M,2.26,N,4.2,K,A*0C
$GPGGA,211652.000,3748.7340,N,12217.9201,W,1,05,1.5,1.2,M,-25.1,M,,0000*61
$GPGSA,A,3,28,23,10,08,05,,,,,,,,3.7,1.5,3.4*32
$GPRMC,211652.000,A,3748.7340,N,12217.9201,W,2.33,206.74,100611,,,A*78
$GPVTG,206.74,T,,M,2.33,N,4.3,K,A*0F
$GPGGA,211653.000,3748.7333,N,12217.9204,W,1,05,1.5,0.9,M,-25.1,M,,0000*6B
$GPGSA,A,3,28,23,10,08,05,,,,,,,,3.7,1.5,3.4*32
$GPGSV,3,1,12,07,65,340,23,13,62,121,25,08,46,293,34,10,39,254,35*72
$GPGSV,3,2,12,19,29,094,21,23,28,132,32,28,28,217,37,03,25,059,23*75
$GPGSV,3,3,12,05,19,309,32,06,15,048,23,16,05,042,19,48,44,197,36*79
$GPRMC,211653.000,A,3748.7333,N,12217.9204,W,2.57,211.93,100611,,,A*75
$GPVTG,211.93,T,,M,2.57,N,4.8,K,A*09
$GPGGA,211654.000,3748.7328,N,12217.9207,W,1,05,1.5,-0.4,M,-25.1,M,,0000*45
$GPGSA,A,3,28,23,10,08,05,,,,,,,,3.7,1.5,3.4*32
$GPRMC,211654.000,A,3748.7328,N,12217.9207,W,2.40,209.93,100611,,,A*74
$GPVTG,209.93,T,,M,2.40,N,4.4,K,A*0A
$GPGGA,211655.000,3748.7321,N,12217.9208,W,1,05,1.5,-0.4,M,-25.1,M,,0000*42
$GPGSA,A,3,28,23,10,08,05,,,,,,,,3.7,1.5,3.4*32
$GPRMC,211655.000,A,3748.7321,N,12217.9208,W,2.26,212.47,100611,,,A*70
$GPVTG,212.47,T,,M,2.26,N,4.2,K,A*0F
$GPGGA,211656.000,3748.7315,N,12217.9209,W,1,05,1.5,-0.7,M,-25.1,M,,0000*44
$GPGSA,A,3,28,23,10,08,05,,,,,,,,3.7,1.5,3.4*32
$GPRMC,211656.000,A,3748.7315,N,12217.9209,W,2.11,205.56,100611,,,A*77
$GPVTG,205.56,T,,M,2.11,N,3.9,K,A*01
$GPGGA,211657.000,3748.7310,N,12217.9217,W,1,05,1.5,-2.3,M,-25.1,M,,0000*49
$GPGSA,A,3,28,23,10,08,05,,,,,,,,3.7,1.5,3.4*32
$GPRMC,211657.000,A,3748.7310,N,12217.9217,W,2.46,211.43,100611,,,A*7F
$GPVTG,211.43,T,,M,2.46,N,4.6,K,A*0A
$GPGGA,211658.000,3748.7303,N,12217.9230,W,1,05,1.5,-2.5,M,-25.1,M,,0000*47
$GPGSA,A,3,28,23,10,08,05,,,,,,,,3.7,1.5,3.4*32
$GPGSV,3,1,12,07,65,340,24,13,62,121,26,08,46,293,35,10,39,254,36*74
$GPGSV,3,2,12,19,29,094,25,23,28,132,27,28,28,217,37,03,25,059,22*74
$GPGSV,3,3,12,05,19,309,24,06,15,048,22,16,05,042,18,48,44,197,36*7E
$GPVTG,219.38,T,,M,2.48,N,4.6,K,A*00
$GPGGA,211659.000,3748.7296,N,12217.9243,W,1,05,1.5,-2.9,M,-25.1,M,,0000*43
$GPGSA,A,3,28,23,10,08,05,,,,,,,,3.7,1.5,3.4*32
$GPRMC,211659.000,A,3748.7296,N,12217.9243,W,2.44,218.52,100611,,,A*74
$GPVTG,218.52,T,,M,2.44,N,4.5,K,A*02
$GPGGA,211700.000,3748.7290,N,12217.9252,W,1,05,1.5,-3.6,M,-25.1,M,,0000*46
$GPGSA,A,3,28,23,10,08,05,,,,,,,,3.7,1.5,3.4*32
$GPRMC,211700.000,A,3748.7290,N,12217.9252,W,2.01,216.32,100611,,,A*76
$GPVTG,216.32,T,,M,2.01,N,3.7,K,A*0E
$GPGGA,211701.000,3748.7284,N,12217.9257,W,1,05,1.5,-3.6,M,-25.1,M,,0000*47
$GPGSA,A,3,28,23,10,08,05,,,,,,,,3.7,1.5,3.4*32
$GPRMC,211701.000,A,3748.7284,N,12217.9257,W,2.53,219.95,100611,,,A*72
$GPVTG,219.95,T,,M,2.53,N,4.7,K,A*0C
$GPGGA,211702.000,3748.7275,N,12217.9258,W,1,05,1.5,-2.4,M,-25.1,M,,0000*46
$GPGSA,A,3,28,23,10,08,05,,,,,,,,3.7,1.5,3.4*32
$GPRMC,211702.000,A,3748.7275,N,12217.9258,W,2.41,213.11,100611,,,A*75
$GPVTG,213.11,T,,M,2.41,N,4.5,K,A*0B
$GPGGA,211703.000,3748.7268,N,12217.9266,W,1,05,1.5,-2.3,M,-25.1,M,,0000*41
$GPGSA,A,3,28,23,10,08,05,,,,,,,,3.7,1.5,3.4*32
$GPGSV,3,1,12,07,65,340,25,13,62,121,27,08,46,293,35,10,39,254,36*74
$GPGSV,3,2,12,19,29,094,24,23,28,132,24,28,28,217,33,03,25,059,22*72
$GPGSV,3,3,12,05,19,309,24,06,15,048,22,16,05,042,18,48,44,197,35*7D
$GPRMC,211703.000,A,3748.7268,N,12217.9266,W,2.07,210.15,100611,,,A*70
$GPVTG,210.15,T,,M,2.07,N,3.8,K,A*04
$GPGGA,211704.000,3748.7260,N,12217.9273,W,1,05,1.5,-1.1,M,-25.1,M,,0000*4B
$GPGSA,A,3,28,23,10,08,05,,,,,,,,3.7,1.5,3.4*32
$GPRMC,211704.000,A,3748.7260,N,12217.9273,W,2.34,200.74,100611,,,A*7D
$GPVTG,200.74,T,,M,2.34,N,4.3,K,A*0E
$GPGGA,211705.000,3748.7254,N,12217.9279,W,1,05,1.5,-1.4,M,-25.1,M,,0000*42
$GPGSA,A,3,28,23,10,08,05,,,,,,,,3.7,1.5,3.4*32
$GPRMC,211705.000,A,3748.7254,N,12217.9279,W,1.76,204.74,100611,,,A*70
$GPVTG,204.74,T,,M,1.76,N,3.3,K,A*08
$GPGGA,211706.000,3748.7250,N,12217.9286,W,1,05,1.5,-2.2,M,-25.1,M,,0000*40
$GPGSA,A,3,28,23,10,08,05,,,,,,,,3.7,1.5,3.4*32
$GPRMC,211706.000,A,3748.7250,N,12217.9286,W,1.76,193.83,100611,,,A*72
$GPVTG,193.83,T,,M,1.76,N,3.3,K,A*0D
$GPGGA,211707.000,3748.7245,N,12217.9287,W,1,05,1.5,-2.7,M,-25.1,M,,0000*41
$GPGSA,A,3,28,23,10,08,05,,,,,,,,3.7,1.5,3.4*32
$GPRMC,211707.000,A,3748.7245,N,12217.9287,W,1.81,199.24,100611,,,A*79
$GPVTG,199.24,T,,M,1.81,N,3.3,K,A*02
$GPGGA,211708.000,3748.7239,N,12217.9288,W,1,05,1.5,-3.2,M,-25.1,M,,0000*4E
$GPGSA,A,3,28,23,10,08,05,,,,,,,,3.7,1.5,3.4*32
$GPGSV,3,1,12,07,65,340,25,13,62,121,28,08,46,293,32,10,39,254,31*7B
$GPGSV,3,2,12,19,29,094,24,23,28,132,33,28,28,217,38,03,25,059,23*7E
$GPGSV,3,3,12,05,19,309,24,06,15,048,22,16,05,042,18,48,44,197,34*7C
$GPRMC,211708.000,A,3748.7239,N,12217.9288,W,2.00,209.69,100611,,,A*7B
$GPVTG,209.69,T,,M,2.00,N,3.7,K,A*0F
$GPGGA,211709.000,3748.7236,N,12217.9296,W,1,05,1.5,-3.8,M,-25.1,M,,0000*45
$GPGSA,A,3,28,23,10,08,05,,,,,,,,3.7,1.5,3.4*32
$GPRMC,211709.000,A,3748.7236,N,12217.9296,W,1.55,209.31,100611,,,A*74
$GPVTG,209.31,T,,M,1.55,N,2.9,K,A*0E
$GPGGA,211710.000,3748.7233,N,12217.9309,W,1,05,1.5,-4.7,M,-25.1,M,,0000*47
$GPGSA,A,3,28,23,10,08,05,,,,,,,,3.7,1.5,3.4*32
$GPRMC,211710.000,A,3748.7233,N,12217.9309,W,2.01,229.72,100611,,,A*79
$GPVTG,229.72,T,,M,2.01,N,3.7,K,A*06
$GPGGA,211711.000,3748.7229,N,12217.9318,W,1,05,1.5,-4.4,M,-25.1,M,,0000*4E
$GPGSA,A,3,28,23,10,08,05,,,,,,,,3.7,1.5,3.4*32
$GPRMC,211711.000,A,3748.7229,N,12217.9318,W,1.79,230.05,100611,,,A*77
$GPVTG,230.05,T,,M,1.79,N,3.3,K,A*06
$GPGGA,211712.000,3748.7225,N,12217.9328,W,1,05,1.5,-4.4,M,-25.1,M,,0000*42
$GPGSA,A,3,28,23,10,08,05,,,,,,,,3.7,1.5,3.4*32
$GPRMC,211712.000,A,3748.7225,N,12217.9328,W,1.51,223.46,100611,,,A*74
$GPVTG,223.46,T,,M,1.51,N,2.8,K,A*03
$GPGGA,211713.000,3748.7221,N,12217.9329,W,1,05,1.5,-4.3,M,-25.1,M,,0000*41
$GPGSA,A,3,28,23,10,08,05,,,,,,,,3.7,1.5,3.4*32
$GPGSV,3,1,12,07,65,340,26,13,62,121,28,08,46,293,35,10,39,254,36*78
$GPGSV,3,2,12,19,29,094,22,23,28,132,25,28,28,217,37,03,25,059,22*71
$GPGSV,3,3,12,05,19,309,22,06,15,048,21,16,05,042,17,48,44,197,35*77
$GPVTG,192.37,T,,M,1.77,N,3.3,K,A*02
$GPGGA,211714.000,3748.7214,N,12217.9323,W,1,05,1.5,-3.1,M,-25.1,M,,0000*4F
$GPGSA,A,3,28,23,10,08,05,,,,,,,,3.7,1.5,3.4*32
$GPRMC,211714.000,A,3748.7214,N,12217.9323,W,1.91,188.19,100611,,,A*7F
$GPVTG,188.19,T,,M,1.91,N,3.5,K,A*0B
$GPGGA,211715.000,3748.7207,N,12217.9319,W,1,05,1.5,-2.0,M,-25.1,M,,0000*45
$GPGSA,A,3,28,23,10,08,05,,,,,,,,3.7,1.5,3.4*32
$GPRMC,211715.000,A,3748.7207,N,12217.9319,W,1.75,207.83,100611,,,A*78
$GPVTG,207.83,T,,M,1.75,N,3.2,K,A*01
$GPGGA,211716.000,3748.7200,N,12217.9327,W,1,05,1.5,-0.7,M,-25.1,M,,0000*49
$GPGSA,A,3,28,23,10,08,05,,,,,,,,3.7,1.5,3.4*32
$GPRMC,211716.000,A,3748.7200,N,12217.9327,W,2.04,221.65,100611,,,A*78
$GPVTG,221.65,T,,M,2.04,N,3.8,K,A*02
$GPGGA,211717.000,3748.7195,N,12217.9339,W,1,05,1.5,-0.2,M,-25.1,M,,0000*4D
$GPGSA,A,3,28,23,10,08,05,,,,,,,,3.7,1.5,3.4*32
$GPRMC,211717.000,A,3748.7195,N,12217.9339,W,1.62,219.13,100611,,,A*70
$GPVTG,219.13,T,,M,1.62,N,3.0,K,A*03
$GPGGA,211718.000,3748.7194,N,12217.9343,W,2,04,1.8,-0.1,M,-25.1,M,,0000*42
$GPGSA,A,3,28,23,10,08,,,,,,,,,2.1,1.8,1.0*3B
$GPGSV,3,1,12,07,65,340,26,13,62,122,29,08,46,293,36,10,39,253,37*7F
$GPGSV,3,2,12,19,29,093,21,23,28,132,26,28,28,217,38,03,24,059,15*7C
$GPGSV,3,3,12,05,19,308,21,06,15,048,20,16,05,042,16,48,44,197,34*74
$GPRMC,211718.000,A,3748.7194,N,12217.9343,W,0.43,226.60,100611,,,D*7C
$GPVTG,226.60,T,,M,0.43,N,0.8,K,D*07
$GPGGA,211719.000,3748.7196,N,12217.9345,W,2,05,1.5,-1.2,M,-25.1,M,,0000*49
$GPGSA,A,3,28,23,10,08,05,,,,,,,,3.7,1.5,3.4*32
$GPRMC,211719.000,A,3748.7196,N,12217.9345,W,0.18,323.67,100611,,,D*74
$GPVTG,323.67,T,,M,0.18,N,0.3,K,D*01
$GPGGA,211720.000,3748.7198,N,12217.9346,W,2,05,1.5,-2.2,M,-25.1,M,,0000*4D
$GPGSA,A,3,28,23,10,08,05,,,,,,,,3.7,1.5,3.4*32
$GPRMC,211720.000,A,3748.7198,N,12217.9346,W,0.31,353.98,100611,,,D*7F
$GPVTG,353.98,T,,M,0.31,N,0.6,K,D*08
$GPGGA,211721.000,3748.7202,N,12217.9347,W,2,05,1.5,-4.0,M,-25.1,M,2.8,0000*6D
$GPGSA,A,3,28,23,10,08,05,,,,,,,,3.7,1.5,3.4*32
$GPRMC,211721.000,A,3748.7202,N,12217.9347,W,0.06,28.92,100611,,,D*4E
$GPVTG,28.92,T,,M,0.06,N,0.1,K,D*3E
$GPGGA,211722.000,3748.7203,N,12217.9348,W,2,05,1.5,-4.5,M,-25.1,M,3.8,0000*64
$GPGSA,A,3,28,23,10,08,05,,,,,,,,3.7,1.5,3.4*32
$GPRMC,211722.000,A,3748.7203,N,12217.9348,W,0.03,134.33,100611,,,D*71
$GPVTG,134.33,T,,M,0.03,N,0.1,K,D*0C
$GPGGA,211723.000,3748.7206,N,12217.9349,W,2,05,1.5,-6.4,M,-25.1,M,4.8,0000*65
$GPGSA,A,3,28,23,10,08,05,,,,,,,,3.7,1.5,3.4*32
$GPGSV,3,1,12,07,65,340,27,13,62,122,30,08,46,293,36,10,39,253,38*79
$GPGSV,3,2,12,19,29,093,,23,28,132,28,28,28,217,38,03,24,059,*75
$GPGSV,3,3,12,05,19,308,20,06,15,048,20,16,05,042,15,48,44,197,33*71
$GPRMC,211723.000,A,3748.7206,N,12217.9349,W,0.04,158.43,100611,,,D*7E
$GPVTG,158.43,T,,M,0.04,N,0.1,K,D*06
$GPGGA,211724.000,3748.7210,N,12217.9350,W,2,05,1.5,-9.0,M,-25.1,M,,0000*44
$GPGSA,A,3,28,23,10,08,05,,,,,,,,3.7,1.5,3.4*32
$GPRMC,211724.000,A,3748.7210,N,12217.9350,W,0.20,4.33,100611,,,D*7F
$GPVTG,4.33,T,,M,0.20,N,0.4,K,D*0A
$GPGGA,211725.000,3748.7209,N,12217.9351,W,2,05,1.5,-8.3,M,-25.1,M,,0000*4E
$GPGSA,A,3,28,23,10,08,05,,,,,,,,3.7,1.5,3.4*32
$GPRMC,211725.000,A,3748.7209,N,12217.9351,W,0.02,191.34,100611,,,D*7D
$GPVTG,191.34,T,,M,0.02,N,0.0,K,D*04
$GPGGA,211726.000,3748.7208,N,12217.9352,W,2,05,1.5,-7.7,M,-25.1,M,,0000*44
$GPGSA,A,3,28,23,10,08,05,,,,,,,,3.7,1.5,3.4*32
$GPRMC,211726.000,A,3748.7208,N,12217.9352,W,0.35,199.02,100611,,,D*75
$GPVTG,199.02,T,,M,0.35,N,0.7,K,D*0A
$GPGGA,211727.000,3748.7204,N,12217.9367,W,2,05,1.5,-7.5,M,-25.1,M,2.8,0000*69
$GPGSA,A,3,28,23,10,08,05,,,,,,,,3.7,1.5,3.4*32
$GPRMC,211727.000,A,3748.7204,N,12217.9367,W,1.37,216.02,100611,,,D*79
$GPVTG,216.02,T,,M,1.37,N,2.5,K,D*0D
$GPGGA,211728.000,3748.7198,N,12217.9377,W,2,05,1.5,-6.6,M,-25.1,M,3.8,0000*62
$GPGSA,A,3,28,23,10,08,05,,,,,,,,3.7,1.5,3.4*32
$GPGSV,3,1,12,07,65,340,26,13,62,122,23,08,46,293,36,10,39,253,38*7A
$GPGSV,3,2,12,19,29,093,22,23,28,132,28,28,28,217,38,03,24,059,*75
$GPGSV,3,3,12,05,19,308,25,06,15,048,20,16,05,042,16,48,44,197,36*72
$GPVTG,212.79,T,,M,1.89,N,3.5,K,D*01
$GPGGA,211729.000,3748.7192,N,12217.9387,W,2,05,1.5,-6.0,M,-25.1,M,1.8,0000*62
$GPGSA,A,3,28,23,10,08,05,,,,,,,,3.7,1.5,3.4*32
$GPRMC,211729.000,A,3748.7192,N,12217.9387,W,2.51,223.15,100611,,,D*76
$GPVTG,223.15,T,,M,2.51,N,4.7,K,D*0A
$GPGGA,211730.000,3748.7185,N,12217.9394,W,2,05,1.5,-5.2,M,-25.1,M,1.8,0000*6F
$GPGSA,A,3,28,23,10,08,05,,,,,,,,3.7,1.5,3.4*32
$GPRMC,211730.000,A,3748.7185,N,12217.9394,W,2.48,215.73,100611,,,D*77
$GPVTG,215.73,T,,M,2.48,N,4.6,K,D*06
$GPGGA,211731.000,3748.7178,N,12217.9400,W,2,05,1.5,-4.2,M,-25.1,M,1.8,0000*67
$GPGSA,A,3,28,23,10,08,05,,,,,,,,3.7,1.5,3.4*32
$GPRMC,211731.000,A,3748.7178,N,12217.9400,W,2.74,224.54,100611,,,D*76
$GPVTG,224.54,T,,M,2.74,N,5.1,K,D*08
$GPGGA,211732.000,3748.7170,N,12217.9400,W,2,05,1.5,-2.6,M,-25.1,M,1.8,0000*6E
$GPGSA,A,3,28,23,10,08,05,,,,,,,,3.7,1.5,3.4*32
$GPRMC,211732.000,A,3748.7170,N,12217.9400,W,2.14,207.66,100611,,,D*7B
$GPVTG,207.66,T,,M,2.14,N,4.0,K,D*0E
$GPGGA,211733.000,3748.7165,N,12217.9392,W,2,05,1.5,-2.1,M,-25.1,M,1.8,0000*60
$GPGSA,A,3,28,23,10,08,05,,,,,,,,3.7,1.5,3.4*32
$GPGSV,3,1,12,07,65,340,26,13,62,122,28,08,46,293,36,10,39,253,38*71
$GPGSV,3,2,12,19,29,093,20,23,28,132,24,28,28,217,38,03,24,059,17*7D
$GPGSV,3,3,12,05,19,308,26,06,15,048,19,16,05,042,15,48,44,197,35*7B
$GPRMC,211733.000,A,3748.7165,N,12217.9392,W,1.99,188.42,100611,,,D*76
$GPVTG,188.42,T,,M,1.99,N,3.7,K,D*0A
$GPGGA,211734.000,3748.7161,N,12217.9382,W,2,05,1.5,-2.6,M,-25.1,M,2.8,0000*66
$GPGSA,A,3,28,23,10,08,05,,,,,,,,3.7,1.5,3.4*32
$GPRMC,211734.000,A,3748.7161,N,12217.9382,W,1.83,192.15,100611,,,D*76
$GPVTG,192.15,T,,M,1.83,N,3.4,K,D*0B
$GPGGA,211735.000,3748.7155,N,12217.9390,W,2,05,1.5,-3.1,M,-25.1,M,3.8,0000*64
$GPGSA,A,3,28,23,10,08,05,,,,,,,,3.7,1.5,3.4*32
$GPRMC,211735.000,A,3748.7155,N,12217.9390,W,2.34,195.63,100611,,,D*7A
$GPVTG,195.63,T,,M,2.34,N,4.3,K,D*02
$GPGGA,211736.000,3748.7150,N,12217.9385,W,2,05,1.5,-3.4,M,-25.1,M,1.8,0000*61
$GPGSA,A,3,28,23,10,08,05,,,,,,,,3.7,1.5,3.4*32
$GPRMC,211736.000,A,3748.7150,N,12217.9385,W,2.25,183.36,100611,,,D*7F
$GPVTG,183.36,T,,M,2.25,N,4.2,K,D*04
$GPGGA,211737.000,3748.7145,N,12217.9381,W,2,05,1.5,-3.7,M,-25.1,M,1.8,0000*63
$GPGSA,A,3,28,23,10,08,05,,,,,,,,3.7,1.5,3.4*32
$GPRMC,211737.000,A,3748.7145,N,12217.9381,W,2.01,195.53,100611,,,D*7C
$GPVTG,195.53,T,,M,2.01,N,3.7,K,D*04
$GPGGA,211738.000,3748.7140,N,12217.9375,W,2,05,1.5,-3.7,M,-25.1,M,1.8,0000*62
$GPGSA,A,3,28,23,10,08,05,,,,,,,,3.7,1.5,3.4*32
$GPGSV,3,1,12,07,65,340,26,13,62,122,28,08,46,293,36,10,39,253,38*71
$GPGSV,3,2,12,19,29,093,21,23,28,132,28,28,28,217,39,03,24,059,18*7E
$GPGSV,3,3,12,05,19,308,29,06,15,048,18,16,05,042,15,48,44,197,36*76
$GPRMC,211738.000,A,3748.7140,N,12217.9375,W,1.92,201.74,100611,,,D*7F
$GPVTG,201.74,T,,M,1.92,N,3.5,K,D*04
$GPGGA,211739.000,3748.7135,N,12217.9373,W,2,05,1.5,-3.5,M,-25.1,M,2.8,0000*66
$GPGSA,A,3,28,23,10,08,05,,,,,,,,3.7,1.5,3.4*32
$GPRMC,211739.000,A,3748.7135,N,12217.9373,W,2.11,203.56,100611,,,D*70
$GPVTG,203.56,T,,M,2.11,N,3.9,K,D*02
$GPGGA,211740.000,3748.7130,N,12217.9371,W,2,05,1.5,-3.3,M,-25.1,M,0.8,0000*6B
$GPGSA,A,3,28,23,10,08,05,,,,,,,,3.7,1.5,3.4*32
$GPRMC,211740.000,A,3748.7130,N,12217.9371,W,2.17,210.82,100611,,,D*74
$GPVTG,210.82,T,,M,2.17,N,4.0,K,D*01
$GPGGA,211741.000,3748.7124,N,12217.9370,W,2,05,1.5,-3.2,M,-25.1,M,1.8,0000*6E
$GPGSA,A,3,28,23,10,08,05,,,,,,,,3.7,1.5,3.4*32
$GPRMC,211741.000,A,3748.7124,N,12217.9370,W,2.29,208.87,100611,,,D*70
$GPVTG,208.87,T,,M,2.29,N,4.2,K,D*02
$GPGGA,211742.000,3748.7119,N,12217.9370,W,2,05,1.5,-3.1,M,-25.1,M,2.8,0000*63
$GPGSA,A,3,28,23,10,08,05,,,,,,,,3.7,1.5,3.4*32
$GPRMC,211742.000,A,3748.7119,N,12217.9370,W,2.37,211.60,100611,,,D*73
$GPVTG,211.60,T,,M,2.37,N,4.4,K,D*0A
$GPGGA,211743.000,3748.7112,N,12217.9378,W,2,05,1.5,-3.1,M,-25.1,M,1.8,0000*62
$GPGSA,A,3,28,23,10,08,05,,,,,,,,3.7,1.5,3.4*32
$GPGSV,3,1,12,07,65,340,25,13,62,122,28,08,46,293,35,10,39,253,37*7E
$GPGSV,3,2,12,19,29,093,21,23,28,132,25,28,28,217,38,03,24,059,18*72
$GPRMC,211743.000,A,3748.7112,N,12217.9378,W,2.50,208.26,100611,,,D*7A
$GPVTG,208.26,T,,M,2.50,N,4.6,K,D*03
$GPGGA,211744.000,3748.7106,N,12217.9383,W,2,05,1.5,-3.1,M,-25.1,M,2.8,0000*67
$GPGSA,A,3,28,23,10,08,05,,,,,,,,3.7,1.5,3.4*32
$GPRMC,211744.000,A,3748.7106,N,12217.9383,W,2.48,204.09,100611,,,D*74
$GPVTG,204.09,T,,M,2.48,N,4.6,K,D*0B
$GPGGA,211745.000,3748.7099,N,12217.9392,W,2,05,1.5,-3.2,M,-25.1,M,3.8,0000*63
$GPGSA,A,3,28,23,10,08,05,,,,,,,,3.7,1.5,3.4*32
$GPRMC,211745.000,A,3748.7099,N,12217.9392,W,2.30,204.28,100611,,,D*7E
$GPVTG,204.28,T,,M,2.30,N,4.3,K,D*02
$GPGGA,211746.000,3748.7093,N,12217.9395,W,2,05,1.5,-3.2,M,-25.1,M,4.8,0000*6A
$GPGSA,A,3,28,23,10,08,05,,,,,,,,3.7,1.5,3.4*32
$GPRMC,211746.000,A,3748.7093,N,12217.9395,W,2.04,197.09,100611,,,D*7D
$GPVTG,197.09,T,,M,2.04,N,3.8,K,D*03
$GPGGA,211747.000,3748.7088,N,12217.9398,W,2,05,1.5,-3.4,M,-25.1,M,5.8,0000*6B
$GPGSA,A,3,28,23,10,08,05,,,,,,,,3.7,1.5,3.4*32
$GPRMC,211747.000,A,3748.7088,N,12217.9398,W,1.78,188.91,100611,,,D*7C
$GPVTG,188.91,T,,M,1.78,N,3.3,K,D*0F
$GPGGA,211748.000,3748.7083,N,12217.9400,W,2,05,1.5,-3.3,M,-25.1,M,1.8,0000*6A
$GPGSA,A,3,28,23,10,08,05,,,,,,,,3.7,1.5,3.4*32
$GPGSV,3,1,12,07,65,341,27,13,61,122,28,08,46,294,36,10,39,253,37*7A
$GPGSV,3,2,12,19,29,093,20,28,28,218,38,23,28,133,21,03,24,059,18*79
$GPGSV,3,3,12,05,20,308,35,06,15,048,18,16,05,042,16,48,44,197,35*71
$GPRMC,211748.000,A,3748.7083,N,12217.9400,W,2.04,180.65,100611,,,D*75
$GPVTG,180.65,T,,M,2.04,N,3.8,K,D*0F
$GPGGA,211749.000,3748.7076,N,12217.9411,W,2,05,1.5,-3.4,M,-25.1,M,1.8,0000*66
$GPGSA,A,3,28,23,10,08,05,,,,,,,,3.7,1.5,3.4*32
$GPRMC,211749.000,A,3748.7076,N,12217.9411,W,2.36,212.82,100611,,,D*7E
$GPVTG,212.82,T,,M,2.36,N,4.4,K,D*04
$GPGGA,211750.000,3748.7070,N,12217.9420,W,2,05,1.5,-3.4,M,-25.1,M,1.8,0000*6A
$GPGSA,A,3,28,23,10,08,05,,,,,,,,3.7,1.5,3.4*32
$GPRMC,211750.000,A,3748.7070,N,12217.9420,W,2.43,213.63,100611,,,D*7E
$GPVTG,213.63,T,,M,2.43,N,4.5,K,D*09
$GPGGA,211751.000,3748.7065,N,12217.9418,W,2,05,1.5,-3.3,M,-25.1,M,2.8,0000*60
$GPGSA,A,3,28,23,10,08,05,,,,,,,,3.7,1.5,3.4*32
$GPRMC,211751.000,A,3748.7065,N,12217.9418,W,2.22,204.56,100611,,,D*77
$GPVTG,204.56,T,,M,2.22,N,4.1,K,D*0A
$GPGGA,211752.000,3748.7060,N,12217.9419,W,2,05,1.5,-3.3,M,-25.1,M,3.8,0000*66
$GPGSA,A,3,28,23,10,08,05,,,,,,,,3.7,1.5,3.4*32
$GPRMC,211752.000,A,3748.7060,N,12217.9419,W,2.07,193.42,100611,,,D*7F
$GPVTG,193.42,T,,M,2.07,N,3.8,K,D*0B
$GPGGA,211753.000,3748.7054,N,12217.9424,W,2,05,1.5,-3.3,M,-25.1,M,4.8,0000*69
$GPGSA,A,3,28,23,10,08,05,,,,,,,,3.7,1.5,3.4*32
$GPGSV,3,1,12,07,65,341,27,13,61,122,28,08,46,294,36,10,39,253,37*7A
$GPGSV,3,2,12,19,29,093,20,28,28,218,38,23,28,133,28,03,24,059,19*71
$GPGSV,3,3,12,05,20,308,36,06,15,048,18,16,05,042,16,48,44,197,35*72
$GPRMC,211753.000,A,3748.7054,N,12217.9424,W,2.11,195.97,100611,,,D*7E
$GPVTG,195.97,T,,M,2.11,N,3.9,K,D*03
$GPGGA,211754.000,3748.7047,N,12217.9427,W,2,05,1.5,-3.3,M,-25.1,M,1.8,0000*6A
$GPGSA,A,3,28,23,10,08,05,,,,,,,,3.7,1.5,3.4*32
$GPRMC,211754.000,A,3748.7047,N,12217.9427,W,2.46,205.36,100611,,,D*7B
$GPVTG,205.36,T,,M,2.46,N,4.6,K,D*08
$GPGGA,211755.000,3748.7041,N,12217.9425,W,2,05,1.5,-3.3,M,-25.1,M,1.8,0000*6F
$GPGSA,A,3,28,23,10,08,05,,,,,,,,3.7,1.5,3.4*32
$GPRMC,211755.000,A,3748.7041,N,12217.9425,W,2.36,191.22,100611,,,D*72
$GPVTG,191.22,T,,M,2.36,N,4.4,K,D*06
$GPGGA,211756.000,3748.7035,N,12217.9426,W,2,05,1.5,-3.4,M,-25.1,M,1.8,0000*6B
$GPGSA,A,3,28,23,10,08,05,,,,,,,,3.7,1.5,3.4*32
$GPRMC,211756.000,A,3748.7035,N,12217.9426,W,2.24,201.71,100611,,,D*7E
$GPVTG,201.71,T,,M,2.24,N,4.1,K,D*0C
$GPGGA,211757.000,3748.7029,N,12217.9435,W,2,05,1.5,-3.4,M,-25.1,M,2.8,0000*66
$GPGSA,A,3,28,23,10,08,05,,,,,,,,3.7,1.5,3.4*32
$GPRMC,211757.000,A,3748.7029,N,12217.9435,W,2.53,214.50,100611,,,D*77
$GPVTG,214.50,T,,M,2.53,N,4.7,K,D*0D
$GPGGA,211758.000,3748.7022,N,12217.9445,W,2,05,1.5,-3.5,M,-25.1,M,3.8,0000*65
$GPGSA,A,3,28,23,10,08,05,,,,,,,,3.7,1.5,3.4*32
$GPGSV,3,1,12,07,65,341,27,13,61,122,28,08,46,294,36,10,39,253,37*7A
$GPGSV,3,2,12,19,29,093,19,28,28,218,37,23,28,133,25,03,24,059,19*79
$GPGSV,3,3,12,05,20,308,36,06,15,048,18,16,05,042,17,48,44,197,35*73
$GPRMC,211758.000,A,3748.7022,N,12217.9445,W,2.45,211.68,100611,,,D*7D
$GPVTG,211.68,T,,M,2.45,N,4.5,K,D*06
$GPGGA,211759.000,3748.7017,N,12217.9451,W,2,05,1.5,-3.6,M,-25.1,M,4.8,0000*63
$GPGSA,A,3,28,23,10,08,05,,,,,,,,3.7,1.5,3.4*32
$GPRMC,211759.000,A,3748.7017,N,12217.9451,W,2.29,214.08,100611,,,D*76
$GPVTG,214.08,T,,M,2.29,N,4.2,K,D*08
$GPGGA,211800.000,3748.7011,N,12217.9455,W,2,05,1.5,-3.7,M,-25.1,M,1.8,0000*66
$GPGSA,A,3,28,23,10,08,05,,,,,,,,3.7,1.5,3.4*32
$GPRMC,211800.000,A,3748.7011,N,12217.9455,W,2.52,217.85,100611,,,D*7D
$GPVTG,217.85,T,,M,2.52,N,4.7,K,D*07
$GPGGA,211801.000,3748.7006,N,12217.9459,W,2,05,1.5,-3.7,M,-25.1,M,1.8,0000*6D
$GPGSA,A,3,28,23,10,08,05,,,,,,,,3.7,1.5,3.4*32
$GPRMC,211801.000,A,3748.7006,N,12217.9459,W,2.59,212.76,100611,,,D*74
$GPVTG,212.76,T,,M,2.59,N,4.8,K,D*0A
$GPGGA,211802.000,3748.7000,N,12217.9459,W,2,05,1.5,-3.8,M,-25.1,M,1.8,0000*67
$GPGSA,A,3,28,23,10,08,05,,,,,,,,3.7,1.5,3.4*32
$GPRMC,211802.000,A,3748.7000,N,12217.9459,W,2.42,205.90,100611,,,D*75
$GPVTG,205.90,T,,M,2.42,N,4.5,K,D*03
$GPGGA,211803.000,3748.6995,N,12217.9458,W,2,06,1.4,-4.1,M,-25.1,M,2.8,0000*6C
$GPGSA,A,3,13,28,23,10,08,05,,,,,,,2.7,1.4,2.3*36
$GPGSV,3,1,12,07,65,341,26,13,61,122,27,08,46,294,36,10,39,253,37*74
$GPGSV,3,2,12,19,29,093,20,28,28,218,31,23,28,133,30,03,24,059,18*70
$GPGSV,3,3,12,05,20,308,25,06,15,048,18,16,05,042,16,48,44,197,35*70
$GPRMC,211803.000,A,3748.6995,N,12217.9458,W,2.27,209.28,100611,,,D*7D
$GPGGA,211804.000,3748.6990,N,12217.9457,W,2,06,1.4,-3.1,M,-25.1,M,3.8,0000*67
$GPGSA,A,3,13,28,23,10,08,05,,,,,,,2.7,1.4,2.3*36
$GPRMC,211804.000,A,3748.6990,N,12217.9457,W,2.31,204.50,100611,,,D*75
$GPVTG,204.50,T,,M,2.31,N,4.3,K,D*0C
$GPGGA,211805.000,3748.6984,N,12217.9458,W,2,06,1.4,-3.3,M,-25.1,M,4.8,0000*69
$GPGSA,A,3,13,28,23,10,08,05,,,,,,,2.7,1.4,2.3*36
$GPRMC,211805.000,A,3748.6984,N,12217.9458,W,2.08,197.43,100611,,,D*7F
$GPVTG,197.43,T,,M,2.08,N,3.9,K,D*00
$GPGGA,211806.000,3748.6981,N,12217.9458,W,2,06,1.4,-3.3,M,-25.1,M,1.8,0000*6A
$GPGSA,A,3,13,28,23,10,08,05,,,,,,,2.7,1.4,2.3*36
$GPRMC,211806.000,A,3748.6981,N,12217.9458,W,1.63,214.20,100611,,,D*7A
$GPVTG,214.20,T,,M,1.63,N,3.0,K,D*0A
$GPGGA,211807.000,3748.6976,N,12217.9462,W,2,06,1.4,-2.9,M,-25.1,M,1.8,0000*61
$GPGSA,A,3,13,28,23,10,08,05,,,,,,,2.7,1.4,2.3*36
$GPRMC,211807.000,A,3748.6976,N,12217.9462,W,2.24,228.69,100611,,,D*78
$GPVTG,228.69,T,,M,2.24,N,4.1,K,D*0E
$GPGGA,211808.000,3748.6972,N,12217.9467,W,2,06,1.4,-2.8,M,-25.1,M,1.8,0000*6E
$GPGSA,A,3,13,28,23,10,08,05,,,,,,,2.7,1.4,2.3*36
$GPGSV,3,1,12,07,65,341,26,13,61,122,28,08,46,294,36,10,39,253,37*7B
$GPGSV,3,2,12,19,29,093,20,28,28,218,36,23,28,133,29,03,24,059,18*7F
$GPGSV,3,3,12,05,20,308,35,06,15,048,17,16,05,042,15,48,44,197,35*7D
$GPRMC,211808.000,A,3748.6972,N,12217.9467,W,2.25,227.74,100611,,,D*74
$GPVTG,227.74,T,,M,2.25,N,4.2,K,D*0F
$GPGGA,211809.000,3748.6967,N,12217.9472,W,2,06,1.4,-2.7,M,-25.1,M,1.8,0000*60
$GPGSA,A,3,13,28,23,10,08,05,,,,,,,2.7,1.4,2.3*36
$GPRMC,211809.000,A,3748.6967,N,12217.9472,W,2.28,220.98,100611,,,D*7D
$GPVTG,220.98,T,,M,2.28,N,4.2,K,D*07
$GPGGA,211810.000,3748.6962,N,12217.9477,W,2,06,1.4,-2.5,M,-25.1,M,2.8,0000*69
$GPGSA,A,3,13,28,23,10,08,05,,,,,,,2.7,1.4,2.3*36
$GPRMC,211810.000,A,3748.6962,N,12217.9477,W,2.17,225.60,100611,,,D*7B
$GPVTG,225.60,T,,M,2.17,N,4.0,K,D*0B
$GPGGA,211811.000,3748.6958,N,12217.9482,W,2,06,1.4,-3.0,M,-25.1,M,3.8,0000*6E
$GPGSA,A,3,13,28,23,10,08,05,,,,,,,2.7,1.4,2.3*36
$GPRMC,211811.000,A,3748.6958,N,12217.9482,W,2.53,212.66,100611,,,D*7B
$GPVTG,212.66,T,,M,2.53,N,4.7,K,D*0E
$GPGGA,211812.000,3748.6951,N,12217.9486,W,2,06,1.4,-2.5,M,-25.1,M,4.8,0000*63
$GPGSA,A,3,13,28,23,10,08,05,,,,,,,2.7,1.4,2.3*36
$GPRMC,211812.000,A,3748.6951,N,12217.9486,W,2.64,208.85,100611,,,D*77
$GPVTG,208.85,T,,M,2.64,N,4.9,K,D*02
$GPGGA,211813.000,3748.6944,N,12217.9490,W,2,06,1.4,-2.3,M,-25.1,M,5.8,0000*66
$GPGSA,A,3,13,28,23,10,08,05,,,,,,,2.7,1.4,2.3*36
$GPGSV,3,1,12,07,65,341,27,13,61,122,25,08,46,294,36,10,39,253,38*78
$GPGSV,3,2,12,19,29,093,20,28,28,218,36,23,28,133,29,03,24,059,18*7F
$GPGSV,3,3,12,05,20,308,25,06,15,048,17,16,05,042,15,48,44,197,35*7C
$GPRMC,211813.000,A,3748.6944,N,12217.9490,W,2.18,207.87,100611,,,D*73
$GPVTG,207.87,T,,M,2.18,N,4.0,K,D*0D
$GPGGA,211814.000,3748.6938,N,12217.9492,W,2,06,1.4,-2.2,M,-25.1,M,6.8,0000*6A
$GPGSA,A,3,13,28,23,10,08,05,,,,,,,2.7,1.4,2.3*36
$GPRMC,211814.000,A,3748.6938,N,12217.9492,W,2.09,199.06,100611,,,D*70
$GPVTG,199.06,T,,M,2.09,N,3.9,K,D*0E
$GPGGA,211815.000,3748.6932,N,12217.9495,W,2,06,1.4,-1.7,M,-25.1,M,7.8,0000*61
$GPGSA,A,3,13,28,23,10,08,05,,,,,,,2.7,1.4,2.3*36
$GPRMC,211815.000,A,3748.6932,N,12217.9495,W,2.10,203.03,100611,,,D*71
$GPVTG,203.03,T,,M,2.10,N,3.9,K,D*03
$GPGGA,211816.000,3748.6926,N,12217.9498,W,2,06,1.4,-1.5,M,-25.1,M,8.8,0000*67
$GPGSA,A,3,13,28,23,10,08,05,,,,,,,2.7,1.4,2.3*36
$GPRMC,211816.000,A,3748.6926,N,12217.9498,W,2.33,205.85,100611,,,D*73
$GPVTG,205.85,T,,M,2.33,N,4.3,K,D*07
$GPGGA,211817.000,3748.6920,N,12217.9502,W,2,06,1.4,-1.0,M,-25.1,M,9.8,0000*66
$GPGSA,A,3,13,28,23,10,08,05,,,,,,,2.7,1.4,2.3*36
$GPRMC,211817.000,A,3748.6920,N,12217.9502,W,2.16,211.34,100611,,,D*7E
$GPVTG,211.34,T,,M,2.16,N,4.0,K,D*0C
$GPGGA,211818.000,3748.6915,N,12217.9506,W,2,06,1.4,-0.8,M,-25.1,M,1.8,0000*6A
$GPGSA,A,3,13,28,23,10,08,05,,,,,,,2.7,1.4,2.4*31
$GPGSV,3,1,12,07,65,341,28,13,61,122,30,08,46,294,37,10,39,253,38*72
$GPGSV,3,2,12,19,29,093,21,28,28,218,37,23,27,133,29,03,24,059,22*79
$GPGSV,3,3,12,05,20,308,35,06,15,048,17,16,05,042,15,48,44,197,34*7C
$GPRMC,211818.000,A,3748.6915,N,12217.9506,W,2.26,220.47,100611,,,D*76
$GPVTG,220.47,T,,M,2.26,N,4.2,K,D*0B
$GPGGA,211819.000,3748.6910,N,12217.9513,W,2,06,1.4,-1.4,M,-25.1,M,1.8,0000*67
$GPGSA,A,3,13,28,23,10,08,05,,,,,,,2.7,1.4,2.4*31
$GPRMC,211819.000,A,3748.6910,N,12217.9513,W,2.58,221.80,100611,,,D*75
$GPVTG,221.80,T,,M,2.58,N,4.8,K,D*02
$GPGGA,211820.000,3748.6904,N,12217.9520,W,2,06,1.4,-1.8,M,-25.1,M,1.8,0000*64
$GPGSA,A,3,13,28,23,10,08,05,,,,,,,2.7,1.4,2.4*31
$GPRMC,211820.000,A,3748.6904,N,12217.9520,W,2.64,214.87,100611,,,D*74
$GPVTG,214.87,T,,M,2.64,N,4.9,K,D*0D
$GPGGA,211821.000,3748.6897,N,12217.9525,W,2,06,1.4,-1.5,M,-25.1,M,1.8,0000*66
$GPGSA,A,3,13,28,23,10,08,05,,,,,,,2.7,1.4,2.4*31
$GPRMC,211821.000,A,3748.6897,N,12217.9525,W,2.57,217.41,100611,,,D*72
$GPVTG,217.41,T,,M,2.57,N,4.8,K,D*05
$GPGGA,211822.000,3748.6891,N,12217.9530,W,2,06,1.4,-1.5,M,-25.1,M,2.8,0000*64
$GPGSA,A,3,13,28,23,10,08,05,,,,,,,2.7,1.4,2.4*31
$GPRMC,211822.000,A,3748.6891,N,12217.9530,W,2.59,214.54,100611,,,D*7A
$GPVTG,214.54,T,,M,2.59,N,4.8,K,D*0C
$GPGGA,211823.000,3748.6884,N,12217.9535,W,2,06,1.4,-1.4,M,-25.1,M,3.8,0000*64
$GPGSA,A,3,13,28,23,10,08,05,,,,,,,2.7,1.4,2.4*31
$GPGSV,3,1,12,07,65,341,29,13,61,122,30,08,46,294,37,10,39,253,38*73
$GPGSV,3,2,12,19,29,093,22,28,28,218,37,23,27,133,21,03,24,059,23*73
$GPGSV,3,3,12,05,20,308,36,06,15,048,17,16,05,042,14,48,44,197,35*7F
$GPRMC,211823.000,A,3748.6884,N,12217.9535,W,2.43,209.60,100611,,,D*7A
$GPGGA,211824.000,3748.6878,N,12217.9539,W,2,06,1.4,-1.6,M,-25.1,M,1.8,0000*6C
$GPGSA,A,3,13,28,23,10,08,05,,,,,,,2.7,1.4,2.4*31
$GPRMC,211824.000,A,3748.6878,N,12217.9539,W,2.46,201.59,100611,,,D*75
$GPVTG,201.59,T,,M,2.46,N,4.5,K,D*06
$GPGGA,211825.000,3748.6871,N,12217.9543,W,2,06,1.4,-2.0,M,-25.1,M,1.8,0000*6C
$GPGSA,A,3,13,28,23,10,08,05,,,,,,,2.7,1.4,2.4*31
$GPRMC,211825.000,A,3748.6871,N,12217.9543,W,2.54,201.77,100611,,,D*7F
$GPVTG,201.77,T,,M,2.54,N,4.7,K,D*0B
$GPGGA,211826.000,3748.6864,N,12217.9548,W,2,06,1.4,-2.2,M,-25.1,M,1.8,0000*62
$GPGSA,A,3,13,28,23,10,08,05,,,,,,,2.7,1.4,2.4*31
$GPRMC,211826.000,A,3748.6864,N,12217.9548,W,2.45,210.02,100611,,,D*71
$GPVTG,210.02,T,,M,2.45,N,4.5,K,D*0B
$GPGGA,211827.000,3748.6858,N,12217.9553,W,2,06,1.4,-2.4,M,-25.1,M,1.8,0000*60
$GPGSA,A,3,13,28,23,10,08,05,,,,,,,2.7,1.4,2.4*31
$GPRMC,211827.000,A,3748.6858,N,12217.9553,W,2.41,215.19,100611,,,D*7E
$GPVTG,215.19,T,,M,2.41,N,4.5,K,D*00
$GPGGA,211828.000,3748.6852,N,12217.9557,W,2,06,1.4,-2.5,M,-25.1,M,2.8,0000*63
$GPGSA,A,3,13,28,23,10,08,05,,,,,,,2.7,1.4,2.4*31
$GPGSV,3,1,12,07,65,341,28,13,61,122,29,08,46,294,37,10,39,253,38*7A
$GPGSV,3,2,12,19,29,093,22,28,28,218,37,23,27,133,22,03,24,059,22*71
$GPGSV,3,3,12,05,20,308,36,06,15,048,17,16,05,042,14,48,44,197,32*78
$GPRMC,211828.000,A,3748.6852,N,12217.9557,W,2.52,201.32,100611,,,D*71
$GPVTG,201.32,T,,M,2.52,N,4.7,K,D*0C
$GPGGA,211829.000,3748.6845,N,12217.9563,W,2,06,1.4,-2.5,M,-25.1,M,3.8,0000*62
$GPGSA,A,3,13,28,23,10,08,05,,,,,,,2.7,1.4,2.4*31
$GPRMC,211829.000,A,3748.6845,N,12217.9563,W,2.51,212.10,100611,,,D*70
$GPVTG,212.10,T,,M,2.51,N,4.6,K,D*0C
$GPGGA,211830.000,3748.6839,N,12217.9568,W,2,06,1.4,-2.6,M,-25.1,M,1.8,0000*6B
$GPGSA,A,3,13,28,23,10,08,05,,,,,,,2.7,1.4,2.4*31
$GPRMC,211830.000,A,3748.6839,N,12217.9568,W,2.40,210.86,100611,,,D*75
$GPVTG,210.86,T,,M,2.40,N,4.4,K,D*03
$GPGGA,211831.000,3748.6832,N,12217.9575,W,2,06,1.4,-3.4,M,-25.1,M,1.8,0000*6E
$GPGSA,A,3,13,28,23,10,08,05,,,,,,,2.7,1.4,2.4*31
$GPRMC,211831.000,A,3748.6832,N,12217.9575,W,2.19,215.17,100611,,,D*72
$GPVTG,215.17,T,,M,2.19,N,4.1,K,D*07
$GPGGA,211832.000,3748.6828,N,12217.9580,W,2,06,1.4,-4.0,M,-25.1,M,1.8,0000*6F
$GPGSA,A,3,13,28,23,10,08,05,,,,,,,2.7,1.4,2.4*31
$GPRMC,211832.000,A,3748.6828,N,12217.9580,W,1.48,227.54,100611,,,D*71
$GPVTG,227.54,T,,M,1.48,N,2.7,K,D*06
$GPGGA,211833.000,3748.6824,N,12217.9587,W,2,06,1.4,-4.3,M,-25.1,M,2.8,0000*65
$GPGSA,A,3,13,28,23,10,08,05,,,,,,,2.7,1.4,2.4*31
$GPGSV,3,1,12,07,65,341,25,13,61,122,25,08,46,294,24,10,39,253,28*78
$GPGSV,3,2,12,19,29,093,21,28,28,218,28,23,27,133,25,03,24,059,21*78
$GPGSV,3,3,12,05,20,308,35,06,15,048,18,16,05,042,14,48,44,197,31*77
$GPRMC,211833.000,A,3748.6824,N,12217.9587,W,0.66,195.39,100611,,,D*77
$GPVTG,195.39,T,,M,0.66,N,1.2,K,D*0C
$GPGGA,211834.000,3748.6822,N,12217.9588,W,2,06,1.4,-4.7,M,-25.1,M,3.8,0000*6E
$GPGSA,A,3,13,28,23,10,08,05,,,,,,,2.7,1.4,2.4*31
$GPRMC,211834.000,A,3748.6822,N,12217.9588,W,1.29,219.41,100611,,,D*7B
$GPVTG,219.41,T,,M,1.29,N,2.4,K,D*0B
$GPGGA,211835.000,3748.6817,N,12217.9588,W,2,06,1.4,-5.6,M,-25.1,M,4.8,0000*6E
$GPGSA,A,3,13,28,23,10,08,05,,,,,,,2.7,1.4,2.4*31
$GPRMC,211835.000,A,3748.6817,N,12217.9588,W,2.03,184.24,100611,,,D*73
$GPVTG,184.24,T,,M,2.03,N,3.8,K,D*09
$GPGGA,211836.000,3748.6810,N,12217.9588,W,2,06,1.4,-6.0,M,-25.1,M,1.8,0000*6A
$GPGSA,A,3,13,28,23,10,08,05,,,,,,,2.7,1.4,2.4*31
$GPRMC,211836.000,A,3748.6810,N,12217.9588,W,2.38,188.59,100611,,,D*79
$GPVTG,188.59,T,,M,2.38,N,4.4,K,D*0C
$GPGGA,211837.000,3748.6804,N,12217.9590,W,2,06,1.4,-6.3,M,-25.1,M,1.8,0000*64
$GPGSA,A,3,13,28,23,10,08,05,,,,,,,2.7,1.4,2.4*31
$GPRMC,211837.000,A,3748.6804,N,12217.9590,W,2.30,205.43,100611,,,D*71
$GPVTG,205.43,T,,M,2.30,N,4.3,K,D*0E
