$ADVER,3080,2.3
$GPRMC,193322.575,A,3748.8006,N,12217.8588,W,0.15,190.76,201011,,,A*71
$GPGGA,193323.575,3748.8008,N,12217.8589,W,1,04,1.7,5.9,M,-25.1,M,,0000*66
$GPGSA,A,3,02,10,25,09,,,,,,,,,3.1,1.7,2.6*3F
$GPGSV,3,1,10,02,76,153,33,09,42,218,39,27,35,205,37,25,27,311,39*7B
$GPGSV,3,2,10,10,23,102,28,12,61,323,30,04,46,053,,17,10,069,*7D
$GPGSV,3,3,10,05,09,156,,29,09,263,*73
$GPRMC,193323.575,A,3748.8008,N,12217.8589,W,0.15,183.28,201011,,,A*76
$GPVTG,183.28,T,,M,0.15,N,0.3,K,A*0A
$GPGGA,193324.575,3748.8008,N,12217.8589,W,1,04,1.7,6.0,M,-25.1,M,,0000*6B
$GPGSA,A,3,02,10,25,09,,,,,,,,,3.1,1.7,2.6*3F
$GPRMC,193324.575,A,3748.8008,N,12217.8589,W,0.18,194.62,201011,,,A*74
$GPVTG,194.62,T,,M,0.18,N,0.3,K,A*0F
$GPGGA,193325.000,3748.8007,N,12217.8589,W,1,04,1.7,6.0,M,-25.1,M,,0000*62
$GPGSA,A,3,02,10,25,09,,,,,,,,,3.1,1.7,2.6*3F
$GPRMC,193325.000,A,3748.8007,N,12217.8589,W,0.11,174.25,201011,,,A*79
$GPVTG,174.25,T,,M,0.11,N,0.2,K,A*0A
$GPGGA,193326.000,3748.8008,N,12217.8589,W,1,04,1.7,6.1,M,-25.1,M,,0000*6F
$GPGSA,A,3,02,10,25,09,,,,,,,,,3.1,1.7,2.6*3F
$GPRMC,193326.000,A,3748.8008,N,12217.8589,W,0.16,189.38,201011,,,A*7C
$GPVTG,189.38,T,,M,0.16,N,0.3,K,A*02
$GPGGA,193327.000,3748.8008,N,12217.8590,W,1,04,1.7,6.1,M,-25.1,M,,0000*66
$GPGSA,A,3,02,10,25,09,,,,,,,,,3.1,1.7,2.6*3F
$GPRMC,193327.000,A,3748.8008,N,12217.8590,W,0.17,186.25,201011,,,A*77
$GPVTG,186.25,T,,M,0.17,N,0.3,K,A*00
$GPGGA,193328.000,3748.8008,N,12217.8590,W,1,04,1.7,6.2,M,-25.1,M,,0000*6A
$GPGSA,A,3,02,10,25,09,,,,,,,,,3.1,1.7,2.6*3F
$GPGSV,3,1,11,02,76,153,33,09,42,218,39,27,35,205,37,25,27,311,39*7A
$GPGSV,3,2,11,10,23,102,28,12,61,323,27,04,46,053,34,17,10,069,29*76
$GPGSV,3,3,11,05,09,156,,29,09,263,,48,00,000,38*45
$GPRMC,193328.000,A,3748.8008,N,12217.8590,W,0.19,187.73,201011,,,A*74
$GPGGA,193329.000,3748.8007,N,12217.8590,W,1,04,1.7,6.3,M,-25.1,M,,0000*65
$GPGSA,A,3,02,10,25,09,,,,,,,,,3.1,1.7,2.6*3F
$GPRMC,193329.000,A,3748.8007,N,12217.8590,W,0.17,191.58,201011,,,A*7A
$GPVTG,191.58,T,,M,0.17,N,0.3,K,A*0C
$GPGGA,193330.000,3748.8008,N,12217.8591,W,1,04,1.7,6.3,M,-25.1,M,,0000*63
$GPGSA,A,3,02,10,25,09,,,,,,,,,3.1,1.7,2.6*3F
$GPRMC,193330.000,A,3748.8008,N,12217.8591,W,0.17,191.37,201011,,,A*75
$GPVTG,191.37,T,,M,0.17,N,0.3,K,A*05
$GPGGA,193331.000,3748.8008,N,12217.8591,W,1,04,1.7,6.4,M,-25.1,M,,0000*65
$GPGSA,A,3,02,10,25,09,,,,,,,,,3.1,1.7,2.6*3F
$GPRMC,193331.000,A,3748.8008,N,12217.8591,W,0.17,192.59,201011,,,A*7F
$GPVTG,192.59,T,,M,0.17,N,0.3,K,A*0E
$GPGGA,193332.000,3748.8008,N,12217.8591,W,1,04,1.7,6.4,M,-25.1,M,,0000*66
$GPGSA,A,3,02,10,25,09,,,,,,,,,3.1,1.7,2.6*3F
$GPRMC,193332.000,A,3748.8008,N,12217.8591,W,0.17,192.98,201011,,,A*71
$GPVTG,192.98,T,,M,0.17,N,0.3,K,A*03
$GPGGA,193333.000,3748.8007,N,12217.8591,W,1,04,1.7,6.4,M,-25.1,M,,0000*68
$GPGSA,A,3,02,10,25,09,,,,,,,,,3.1,1.7,2.6*3F
$GPGSV,3,1,11,02,76,153,33,09,42,218,39,27,35,205,37,25,27,311,38*7B
$GPGSV,3,2,11,10,23,102,28,12,61,323,27,04,46,053,34,17,10,069,29*76
$GPGSV,3,3,11,05,09,156,,29,09,263,,48,00,000,38*45
$GPRMC,193333.000,A,3748.8007,N,12217.8591,W,0.18,188.76,201011,,,A*7B
$GPVTG,188.76,T,,M,0.18,N,0.3,K,A*07
$GPGGA,193334.000,3748.8007,N,12217.8591,W,1,04,1.7,6.4,M,-25.1,M,,0000*6F
$GPGSA,A,3,02,10,25,09,,,,,,,,,3.1,1.7,2.6*3F
$GPRMC,193334.000,A,3748.8007,N,12217.8591,W,0.17,193.24,201011,,,A*7E
$GPVTG,193.24,T,,M,0.17,N,0.3,K,A*05
$GPGGA,193335.000,3748.8007,N,12217.8591,W,1,04,1.7,6.4,M,-25.1,M,,0000*6E
$GPGSA,A,3,02,10,25,09,,,,,,,,,3.1,1.7,2.6*3F
$GPRMC,193335.000,A,3748.8007,N,12217.8591,W,0.16,187.94,201011,,,A*70
$GPVTG,187.94,T,,M,0.16,N,0.3,K,A*0A
$GPGGA,193336.000,3748.8007,N,12217.8593,W,1,04,1.7,6.7,M,-25.1,M,,0000*6C
$GPGSA,A,3,02,10,25,09,,,,,,,,,3.1,1.7,2.6*3F
$GPRMC,193336.000,A,3748.8007,N,12217.8593,W,0.25,216.26,201011,,,A*73
$GPVTG,216.26,T,,M,0.25,N,0.5,K,A*0E
$GPGGA,193337.000,3748.8007,N,12217.8593,W,1,04,1.7,6.7,M,-25.1,M,,0000*6D
$GPGSA,A,3,02,10,25,09,,,,,,,,,3.1,1.7,2.6*3F
$GPRMC,193337.000,A,3748.8007,N,12217.8593,W,0.19,199.92,201011,,,A*76
$GPVTG,199.92,T,,M,0.19,N,0.3,K,A*0C
$GPGGA,193338.000,3748.8007,N,12217.8593,W,1,04,1.7,6.6,M,-25.1,M,,0000*63
$GPGSA,A,3,02,10,25,09,,,,,,,,,3.1,1.7,2.6*3F
$GPGSV,3,1,11,02,76,153,34,09,42,218,38,27,35,205,36,25,27,311,38*7C
$GPGSV,3,2,11,10,23,102,28,12,61,323,28,04,46,053,34,17,10,069,29*79
$GPGSV,3,3,11,05,09,156,,29,09,263,,48,00,000,38*45
$GPRMC,193338.000,A,3748.8007,N,12217.8593,W,0.17,189.22,201011,,,A*7D
$GPVTG,189.22,T,,M,0.17,N,0.3,K,A*08
$GPGGA,193339.000,3748.8007,N,12217.8593,W,1,04,1.7,6.6,M,-25.1,M,,0000*62
$GPGSA,A,3,02,10,25,09,,,,,,,,,3.1,1.7,2.6*3F
$GPRMC,193339.000,A,3748.8007,N,12217.8593,W,0.15,191.61,201011,,,A*70
$GPVTG,191.61,T,,M,0.15,N,0.3,K,A*04
$GPGGA,193339.000,3748.8007,N,12217.8594,W,1,04,1.7,6.7,M,-25.1,M,,0000*64
$GPGSA,A,3,02,10,25,09,,,,,,,,,3.1,1.7,2.6*3F
$GPRMC,193339.000,A,3748.8007,N,12217.8594,W,0.18,195.02,201011,,,A*7B
$GPVTG,195.02,T,,M,0.18,N,0.3,K,A*08
$GPGGA,193340.000,3748.8007,N,12217.8594,W,1,04,1.7,6.8,M,-25.1,M,,0000*65
$GPGSA,A,3,02,10,25,09,,,,,,,,,3.1,1.7,2.6*3F
$GPRMC,193340.000,A,3748.8007,N,12217.8594,W,0.17,192.63,201011,,,A*7A
$GPVTG,192.63,T,,M,0.17,N,0.3,K,A*07
$GPGGA,193341.000,3748.8007,N,12217.8595,W,1,04,1.7,6.9,M,-25.1,M,,0000*64
$GPGSA,A,3,02,10,25,09,,,,,,,,,3.1,1.7,2.6*3F
$GPRMC,193341.000,A,3748.8007,N,12217.8595,W,0.17,185.56,201011,,,A*7A
$GPVTG,185.56,T,,M,0.17,N,0.3,K,A*07
$GPGGA,193342.000,3748.8007,N,12217.8596,W,1,04,1.7,7.0,M,-25.1,M,,0000*6C
$GPGSA,A,3,02,10,25,09,,,,,,,,,3.1,1.7,2.6*3F
$GPGSV,3,1,11,02,76,153,34,09,42,218,39,27,35,205,36,25,27,311,38*7D
$GPGSV,3,2,11,10,23,102,29,12,61,323,28,04,46,053,34,17,10,069,28*79
$GPGSV,3,3,11,05,09,156,,29,09,263,,48,00,000,39*44
$GPRMC,193342.000,A,3748.8007,N,12217.8596,W,0.17,197.56,201011,,,A*79
$GPVTG,197.56,T,,M,0.17,N,0.3,K,A*04
$GPGGA,193343.000,3748.8007,N,12217.8596,W,1,04,1.7,7.2,M,-25.1,M,,0000*6F
$GPGSA,A,3,02,10,25,09,,,,,,,,,3.1,1.7,2.6*3F
$GPRMC,193343.000,A,3748.8007,N,12217.8596,W,0.19,190.31,201011,,,A*70
$GPVTG,190.31,T,,M,0.19,N,0.4,K,A*0B
$GPGGA,193344.000,3748.8007,N,12217.8597,W,1,04,1.7,7.3,M,-25.1,M,,0000*68
$GPGSA,A,3,02,10,25,09,,,,,,,,,3.1,1.7,2.6*3F
$GPRMC,193344.000,A,3748.8007,N,12217.8597,W,0.14,195.81,201011,,,A*75
$GPVTG,195.81,T,,M,0.14,N,0.3,K,A*0F
$GPGGA,193345.000,3748.8007,N,12217.8597,W,1,04,1.7,7.4,M,-25.1,M,,0000*6E
$GPGSA,A,3,02,10,25,09,,,,,,,,,3.1,1.7,2.6*3F
$GPRMC,193345.000,A,3748.8007,N,12217.8597,W,0.17,196.31,201011,,,A*7F
$GPVTG,196.31,T,,M,0.17,N,0.3,K,A*04
$GPGGA,193346.000,3748.8006,N,12217.8598,W,1,04,1.7,6.7,M,-25.1,M,,0000*61
$GPGSA,A,3,02,10,25,09,,,,,,,,,3.1,1.7,2.6*3F
$GPRMC,193346.000,A,3748.8006,N,12217.8598,W,0.17,190.26,201011,,,A*72
$GPVTG,190.26,T,,M,0.17,N,0.3,K,A*04
$GPGGA,193347.000,3748.8006,N,12217.8598,W,1,04,1.7,6.1,M,-25.1,M,,0000*66
$GPGSA,A,3,02,10,25,09,,,,,,,,,3.1,1.7,2.6*3F
$GPGSV,3,1,11,02,76,153,33,12,61,323,29,04,46,053,34,09,42,218,40*75
$GPGSV,3,2,11,27,34,205,37,25,27,311,38,10,23,102,29,17,10,069,28*79
$GPGSV,3,3,11,05,09,156,,29,09,263,,48,44,197,40*45
$GPRMC,193347.000,A,3748.8006,N,12217.8598,W,0.19,193.87,201011,,,A*75
$GPVTG,193.87,T,,M,0.19,N,0.4,K,A*05
$GPGGA,193348.000,3748.8006,N,12217.8598,W,1,04,1.7,5.4,M,-25.1,M,,0000*6F
$GPGSA,A,3,02,10,25,09,,,,,,,,,3.1,1.7,2.6*3F
$GPRMC,193348.000,A,3748.8006,N,12217.8598,W,0.20,192.16,201011,,,A*79
$GPVTG,192.16,T,,M,0.20,N,0.4,K,A*06
$GPGGA,193349.000,3748.8006,N,12217.8599,W,1,04,1.7,4.8,M,-25.1,M,,0000*62
$GPGSA,A,3,02,10,25,09,,,,,,,,,3.1,1.7,2.6*3F
$GPRMC,193349.000,A,3748.8006,N,12217.8599,W,0.24,194.68,201011,,,A*72
$GPVTG,194.68,T,,M,0.24,N,0.4,K,A*0D
$GPGGA,193350.000,3748.8005,N,12217.8599,W,1,04,1.7,4.2,M,-25.1,M,,0000*63
$GPGSA,A,3,02,10,25,09,,,,,,,,,3.1,1.7,2.6*3F
$GPRMC,193350.000,A,3748.8005,N,12217.8599,W,0.22,193.74,201011,,,A*75
$GPVTG,193.74,T,,M,0.22,N,0.4,K,A*01
$GPGGA,193351.000,3748.8005,N,12217.8599,W,1,04,1.7,3.6,M,-25.1,M,,0000*61
$GPGSA,A,3,02,10,25,09,,,,,,,,,3.1,1.7,2.6*3F
$GPRMC,193351.000,A,3748.8005,N,12217.8599,W,0.23,195.24,201011,,,A*76
$GPVTG,195.24,T,,M,0.23,N,0.4,K,A*03
$GPGGA,193352.000,3748.8005,N,12217.8600,W,1,04,1.7,3.1,M,-25.1,M,,0000*66
$GPGSA,A,3,02,10,25,09,,,,,,,,,3.1,1.7,2.6*3F
$GPGSV,3,1,11,02,76,153,33,12,61,323,29,04,46,053,35,09,42,218,40*74
$GPGSV,3,2,11,27,34,205,38,25,27,311,38,10,23,102,29,17,10,069,27*79
$GPGSV,3,3,11,05,09,156,,29,09,263,,48,44,197,39*4B
$GPVTG,194.80,T,,M,0.25,N,0.5,K,A*0B
$GPGGA,193353.000,3748.8005,N,12217.8600,W,1,04,1.7,2.6,M,-25.1,M,,0000*61
$GPGSA,A,3,02,10,25,09,,,,,,,,,3.1,1.7,2.6*3F
$GPRMC,193353.000,A,3748.8005,N,12217.8600,W,0.25,190.93,201011,,,A*78
$GPVTG,190.93,T,,M,0.25,N,0.5,K,A*0D
$GPGGA,193354.000,3748.8005,N,12217.8600,W,1,04,1.7,2.2,M,-25.1,M,,0000*62
$GPGSA,A,3,02,10,25,09,,,,,,,,,3.1,1.7,2.6*3F
$GPRMC,193354.000,A,3748.8005,N,12217.8600,W,0.27,193.19,201011,,,A*7C
$GPVTG,193.19,T,,M,0.27,N,0.5,K,A*0E
$GPGGA,193355.000,3748.8005,N,12217.8600,W,1,04,1.7,1.8,M,-25.1,M,,0000*6A
$GPGSA,A,3,02,10,25,09,,,,,,,,,3.1,1.7,2.6*3F
$GPRMC,193355.000,A,3748.8005,N,12217.8600,W,0.25,192.04,201011,,,A*72
$GPVTG,192.04,T,,M,0.25,N,0.5,K,A*01
$GPGGA,193356.000,3748.8005,N,12217.8601,W,1,04,1.7,1.5,M,-25.1,M,,0000*65
$GPGSA,A,3,02,10,25,09,,,,,,,,,3.1,1.7,2.6*3F
$GPRMC,193356.000,A,3748.8005,N,12217.8601,W,0.25,197.36,201011,,,A*74
$GPVTG,197.36,T,,M,0.25,N,0.5,K,A*05
$GPGGA,193357.000,3748.8004,N,12217.8602,W,1,06,1.2,1.2,M,-25.1,M,,0000*66
$GPGSA,A,3,02,12,10,25,09,04,,,,,,,2.4,1.2,2.0*3F
$GPGSV,3,1,11,02,76,153,33,12,61,323,29,04,46,053,35,09,42,218,40*74
$GPGSV,3,2,11,27,34,205,35,25,27,311,38,10,23,102,29,17,10,069,28*7B
$GPGSV,3,3,11,05,09,156,,29,09,263,,48,44,197,39*4B
$GPRMC,193357.000,A,3748.8004,N,12217.8602,W,0.16,175.13,201011,,,A*7C
$GPVTG,175.13,T,,M,0.16,N,0.3,K,A*08
$GPGGA,193358.000,3748.8004,N,12217.8602,W,1,06,1.2,0.9,M,-25.1,M,,0000*63
$GPGSA,A,3,02,12,10,25,09,04,,,,,,,2.4,1.2,2.0*3F
$GPRMC,193358.000,A,3748.8004,N,12217.8602,W,0.13,176.96,201011,,,A*78
$GPVTG,176.96,T,,M,0.13,N,0.2,K,A*02
$GPGGA,193359.000,3748.8003,N,12217.8603,W,1,06,1.2,0.7,M,-25.1,M,,0000*6A
$GPGSA,A,3,02,12,10,25,09,04,,,,,,,2.4,1.2,2.0*3F
$GPRMC,193359.000,A,3748.8003,N,12217.8603,W,0.14,176.12,201011,,,A*74
$GPVTG,176.12,T,,M,0.14,N,0.3,K,A*08
$GPGGA,193400.000,3748.8003,N,12217.8604,W,1,06,1.2,0.5,M,-25.1,M,,0000*64
$GPGSA,A,3,02,12,10,25,09,04,,,,,,,2.4,1.2,2.0*3F
$GPRMC,193400.000,A,3748.8003,N,12217.8604,W,0.12,175.81,201011,,,A*77
$GPVTG,175.81,T,,M,0.12,N,0.2,K,A*06
$GPGGA,193401.000,3748.8003,N,12217.8604,W,1,06,1.2,0.3,M,-25.1,M,,0000*63
$GPGSA,A,3,02,12,10,25,09,04,,,,,,,2.4,1.2,2.0*3F
$GPRMC,193401.000,A,3748.8003,N,12217.8604,W,0.14,177.60,201011,,,A*7D
$GPVTG,177.60,T,,M,0.14,N,0.3,K,A*0C
$GPGGA,193402.000,3748.8003,N,12217.8605,W,1,06,1.2,0.2,M,-25.1,M,,0000*60
$GPGSA,A,3,02,12,10,25,09,04,,,,,,,2.4,1.2,2.0*3F
$GPGSV,3,1,11,02,76,152,33,12,61,323,30,04,46,053,35,09,42,217,40*72
$GPGSV,3,2,11,27,34,205,37,25,27,311,38,10,23,102,30,17,10,069,29*70
$GPGSV,3,3,11,05,09,156,,29,09,263,,48,44,197,39*4B
$GPRMC,193402.000,A,3748.8003,N,12217.8605,W,0.12,166.81,201011,,,A*76
$GPVTG,166.81,T,,M,0.12,N,0.2,K,A*04
$GPGGA,193403.000,3748.8003,N,12217.8605,W,1,07,1.2,0.0,M,-25.1,M,,0000*62
$GPGSA,A,3,02,17,12,10,25,09,04,,,,,,2.1,1.2,1.7*38
$GPRMC,193403.000,A,3748.8003,N,12217.8605,W,0.15,184.93,201011,,,A*7F
$GPVTG,184.93,T,,M,0.15,N,0.3,K,A*0D
$GPGGA,193404.000,3748.8003,N,12217.8606,W,1,07,1.2,-0.1,M,-25.1,M,,0000*4A
$GPGSA,A,3,02,17,12,10,25,09,04,,,,,,2.1,1.2,1.7*38
$GPRMC,193404.000,A,3748.8003,N,12217.8606,W,0.13,176.67,201011,,,A*7B
$GPVTG,176.67,T,,M,0.13,N,0.2,K,A*0C
$GPGGA,193405.000,3748.8002,N,12217.8606,W,1,07,1.2,-0.2,M,-25.1,M,,0000*49
$GPGSA,A,3,02,17,12,10,25,09,04,,,,,,2.1,1.2,1.7*38
$GPRMC,193405.000,A,3748.8002,N,12217.8606,W,0.14,180.35,201011,,,A*72
$GPVTG,180.35,T,,M,0.14,N,0.3,K,A*04
$GPGGA,193406.000,3748.8002,N,12217.8607,W,1,07,1.2,-0.3,M,-25.1,M,,0000*4A
$GPGSA,A,3,02,17,12,10,25,09,04,,,,,,2.1,1.2,1.7*38
$GPRMC,193406.000,A,3748.8002,N,12217.8607,W,0.12,169.57,201011,,,A*75
$GPVTG,169.57,T,,M,0.12,N,0.2,K,A*00
$GPGGA,193407.000,3748.8002,N,12217.8607,W,1,07,1.2,-0.4,M,-25.1,M,,0000*4C
$GPGSA,A,3,02,17,12,10,25,09,04,,,,,,2.1,1.2,1.7*38
$GPGSV,3,1,11,02,76,152,33,12,61,323,30,04,46,053,36,09,42,217,40*71
$GPGSV,3,2,11,27,34,205,38,25,28,312,38,10,23,102,30,17,10,069,30*7B
$GPGSV,3,3,11,05,09,156,,29,09,263,,48,44,197,39*4B
$GPVTG,173.64,T,,M,0.12,N,0.2,K,A*0B
$GPGGA,193408.000,3748.8002,N,12217.8607,W,1,07,1.2,-0.4,M,-25.1,M,,0000*43
$GPGSA,A,3,02,17,12,10,25,09,04,,,,,,2.1,1.2,1.7*38
$GPRMC,193408.000,A,3748.8002,N,12217.8607,W,0.10,168.61,201011,,,A*7D
$GPVTG,168.61,T,,M,0.10,N,0.2,K,A*06
$GPGGA,193409.000,3748.8002,N,12217.8607,W,1,07,1.2,-0.5,M,-25.1,M,,0000*43
$GPGSA,A,3,02,17,12,10,25,09,04,,,,,,2.1,1.2,1.7*38
$GPRMC,193409.000,A,3748.8002,N,12217.8607,W,0.12,164.12,201011,,,A*76
$GPVTG,164.12,T,,M,0.12,N,0.2,K,A*0C
$GPGGA,193410.000,3748.8002,N,12217.8608,W,1,07,1.2,-0.6,M,-25.1,M,,0000*47
$GPGSA,A,3,02,17,12,10,25,09,04,,,,,,2.1,1.2,1.7*38
$GPRMC,193410.000,A,3748.8002,N,12217.8608,W,0.11,169.33,201011,,,A*7C
$GPVTG,169.33,T,,M,0.11,N,0.2,K,A*01
$GPGGA,193411.000,3748.8002,N,12217.8608,W,1,07,1.2,-0.6,M,-25.1,M,,0000*46
$GPGSA,A,3,02,17,12,10,25,09,04,,,,,,2.1,1.2,1.7*38
$GPRMC,193411.000,A,3748.8002,N,12217.8608,W,0.10,169.05,201011,,,A*79
$GPVTG,169.05,T,,M,0.10,N,0.2,K,A*05
$GPGGA,193412.000,3748.8002,N,12217.8608,W,1,07,1.2,-0.7,M,-25.1,M,,0000*44
$GPGSA,A,3,02,17,12,10,25,09,04,,,,,,2.1,1.2,1.7*38
$GPGSV,3,1,11,02,76,152,34,12,61,323,30,04,46,053,36,09,42,217,40*76
$GPGSV,3,2,11,27,34,205,38,25,28,312,38,10,23,102,30,17,10,069,31*7A
$GPGSV,3,3,11,05,09,156,,29,09,263,,48,44,197,39*4B
$GPRMC,193412.000,A,3748.8002,N,12217.8608,W,0.11,164.39,201011,,,A*79
$GPVTG,164.39,T,,M,0.11,N,0.2,K,A*06
$GPGGA,193413.000,3748.8002,N,12217.8608,W,1,07,1.2,-0.7,M,-25.1,M,,0000*45
$GPGSA,A,3,02,17,12,10,25,09,04,,,,,,2.1,1.2,1.7*38
$GPRMC,193413.000,A,3748.8002,N,12217.8608,W,0.11,160.98,201011,,,A*77
$GPVTG,160.98,T,,M,0.11,N,0.2,K,A*09
$GPGGA,193414.000,3748.8002,N,12217.8609,W,1,07,1.2,-0.7,M,-25.1,M,,0000*43
$GPGSA,A,3,02,17,12,10,25,09,04,,,,,,2.1,1.2,1.7*38
$GPRMC,193414.000,A,3748.8002,N,12217.8609,W,0.12,160.96,201011,,,A*7C
$GPVTG,160.96,T,,M,0.12,N,0.2,K,A*04
$GPGGA,193415.000,3748.8002,N,12217.8609,W,1,07,1.2,-0.8,M,-25.1,M,,0000*4D
$GPGSA,A,3,02,17,12,10,25,09,04,,,,,,2.1,1.2,1.7*38
$GPRMC,193415.000,A,3748.8002,N,12217.8609,W,0.11,161.76,201011,,,A*71
$GPVTG,161.76,T,,M,0.11,N,0.2,K,A*08
$GPGGA,193416.000,3748.8002,N,12217.8609,W,1,07,1.2,-0.8,M,-25.1,M,,0000*4E
$GPGSA,A,3,02,17,12,10,25,09,04,,,,,,2.1,1.2,1.7*38
$GPRMC,193416.000,A,3748.8002,N,12217.8609,W,0.12,165.43,201011,,,A*73
$GPVTG,165.43,T,,M,0.12,N,0.2,K,A*09
$GPGGA,193417.000,3748.8002,N,12217.8609,W,1,07,1.2,-0.8,M,-25.1,M,,0000*4F
$GPGSA,A,3,02,17,12,10,25,09,04,,,,,,2.1,1.2,1.7*38
$GPGSV,3,1,11,02,76,152,34,12,61,323,31,04,46,053,36,09,42,217,40*77
$GPGSV,3,2,11,27,34,205,39,25,28,312,38,10,23,102,30,17,10,069,32*78
$GPGSV,3,3,11,05,09,156,,29,09,263,,48,44,197,39*4B
$GPRMC,193417.000,A,3748.8002,N,12217.8609,W,0.11,158.55,201011,,,A*78
$GPVTG,158.55,T,,M,0.11,N,0.2,K,A*03
$GPGGA,193418.000,3748.8002,N,12217.8609,W,1,07,1.2,-0.7,M,-25.1,M,,0000*4F
$GPGSA,A,3,02,17,12,10,25,09,04,,,,,,2.1,1.2,1.7*38
$GPRMC,193418.000,A,3748.8002,N,12217.8609,W,0.10,162.72,201011,,,A*7A
$GPVTG,162.72,T,,M,0.10,N,0.2,K,A*0E
$GPGGA,193419.000,3748.8001,N,12217.8609,W,1,07,1.2,-0.7,M,-25.1,M,,0000*4D
$GPGSA,A,3,02,17,12,10,25,09,04,,,,,,2.1,1.2,1.7*38
$GPRMC,193419.000,A,3748.8001,N,12217.8609,W,0.12,159.20,201011,,,A*75
$GPVTG,159.20,T,,M,0.12,N,0.2,K,A*03
$GPGGA,193420.000,3748.8001,N,12217.8610,W,1,07,1.2,-0.6,M,-25.1,M,,0000*4E
$GPGSA,A,3,02,17,12,10,25,09,04,,,,,,2.1,1.2,1.7*38
$GPRMC,193420.000,A,3748.8001,N,12217.8610,W,0.09,150.66,201011,,,A*76
$GPVTG,150.66,T,,M,0.09,N,0.2,K,A*02
$GPGGA,193421.000,3748.8001,N,12217.8610,W,1,07,1.2,-0.6,M,-25.1,M,,0000*4F
$GPGSA,A,3,02,17,12,10,25,09,04,,,,,,2.1,1.2,1.7*38
$GPRMC,193421.000,A,3748.8001,N,12217.8610,W,0.12,169.02,201011,,,A*75
$GPVTG,169.02,T,,M,0.12,N,0.2,K,A*00
$GPGGA,193422.000,3748.8001,N,12217.8610,W,1,07,1.2,-0.6,M,-25.1,M,,0000*4C
$GPGSA,A,3,02,17,12,10,25,09,04,,,,,,2.1,1.2,1.7*38
$GPGSV,3,1,11,02,76,152,33,12,61,323,30,04,46,053,35,09,42,217,40*72
$GPGSV,3,2,11,27,34,205,39,25,28,312,38,10,23,102,30,17,10,069,32*78
$GPGSV,3,3,11,05,09,156,,29,09,263,,48,44,197,39*4B
$GPVTG,162.93,T,,M,0.12,N,0.2,K,A*03
$GPGGA,193423.000,3748.8001,N,12217.8610,W,1,07,1.2,-0.5,M,-25.1,M,,0000*4E
$GPGSA,A,3,02,17,12,10,25,09,04,,,,,,2.1,1.2,1.7*38
$GPRMC,193423.000,A,3748.8001,N,12217.8610,W,0.10,165.96,201011,,,A*74
$GPVTG,165.96,T,,M,0.10,N,0.2,K,A*03
$GPGGA,193424.000,3748.8001,N,12217.8610,W,1,07,1.2,-0.5,M,-25.1,M,,0000*49
$GPGSA,A,3,02,17,12,10,25,09,04,,,,,,2.1,1.2,1.7*38
$GPRMC,193424.000,A,3748.8001,N,12217.8610,W,0.12,161.79,201011,,,A*74
$GPVTG,161.79,T,,M,0.12,N,0.2,K,A*04
$GPGGA,193425.000,3748.8001,N,12217.8611,W,1,07,1.2,-0.5,M,-25.1,M,,0000*49
$GPGSA,A,3,02,17,12,10,25,09,04,,,,,,2.1,1.2,1.7*38
$GPRMC,193425.000,A,3748.8001,N,12217.8611,W,0.10,168.87,201011,,,A*7E
$GPVTG,168.87,T,,M,0.10,N,0.2,K,A*0E
$GPGGA,193426.000,3748.8001,N,12217.8611,W,1,07,1.2,-0.5,M,-25.1,M,,0000*4A
$GPGSA,A,3,02,17,12,10,25,09,04,,,,,,2.1,1.2,1.7*38
$GPRMC,193426.000,A,3748.8001,N,12217.8611,W,0.11,166.75,201011,,,A*7F
$GPVTG,166.75,T,,M,0.11,N,0.2,K,A*0C
$GPGGA,193427.000,3748.8001,N,12217.8611,W,1,07,1.2,-0.5,M,-25.1,M,,0000*4B
$GPGSA,A,3,02,17,12,10,25,09,04,,,,,,2.1,1.2,1.7*38
$GPGSV,3,1,11,02,76,152,34,12,61,323,30,04,46,053,35,09,42,217,40*75
$GPGSV,3,2,11,27,34,205,39,25,28,312,37,10,23,102,31,17,10,069,32*76
$GPGSV,3,3,11,05,09,156,,29,09,263,,48,44,197,38*4A
$GPRMC,193427.000,A,3748.8001,N,12217.8611,W,0.11,158.61,201011,,,A*76
$GPVTG,158.61,T,,M,0.11,N,0.2,K,A*04
$GPGGA,193428.000,3748.8001,N,12217.8611,W,1,07,1.2,-0.5,M,-25.1,M,,0000*44
$GPGSA,A,3,02,17,12,10,25,09,04,,,,,,2.1,1.2,1.7*38
$GPRMC,193428.000,A,3748.8001,N,12217.8611,W,0.12,166.37,201011,,,A*74
$GPVTG,166.37,T,,M,0.12,N,0.2,K,A*09
$GPGGA,193429.000,3748.8000,N,12217.8611,W,1,07,1.2,-0.5,M,-25.1,M,,0000*44
$GPGSA,A,3,02,17,12,10,25,09,04,,,,,,2.1,1.2,1.7*38
$GPRMC,193429.000,A,3748.8000,N,12217.8611,W,0.11,173.13,201011,,,A*75
$GPVTG,173.13,T,,M,0.11,N,0.2,K,A*08
$GPGGA,193430.000,3748.8000,N,12217.8612,W,1,07,1.2,-0.4,M,-25.1,M,,0000*4E
$GPGSA,A,3,02,17,12,10,25,09,04,,,,,,2.1,1.2,1.7*38
$GPRMC,193430.000,A,3748.8000,N,12217.8612,W,0.11,168.49,201011,,,A*7B
$GPVTG,168.49,T,,M,0.11,N,0.2,K,A*0D
$GPGGA,193431.000,3748.8000,N,12217.8612,W,1,07,1.2,-0.4,M,-25.1,M,,0000*4F
$GPGSA,A,3,02,17,12,10,25,09,04,,,,,,2.1,1.2,1.7*38
$GPRMC,193431.000,A,3748.8000,N,12217.8612,W,0.12,165.41,201011,,,A*7C
$GPVTG,165.41,T,,M,0.12,N,0.2,K,A*0B
$GPGGA,193432.000,3748.8000,N,12217.8612,W,1,07,1.2,-0.4,M,-25.1,M,,0000*4C
$GPGSA,A,3,02,17,12,10,25,09,04,,,,,,2.1,1.2,1.7*38
$GPGSV,3,1,11,02,76,152,34,12,61,323,29,04,46,053,35,09,42,217,40*7D
$GPGSV,3,2,11,27,34,205,39,25,28,312,38,10,23,102,30,17,10,069,32*78
$GPGSV,3,3,11,05,09,156,,29,09,263,,48,44,197,38*4A
$GPRMC,193432.000,A,3748.8000,N,12217.8612,W,0.14,169.77,201011,,,A*70
$GPVTG,169.77,T,,M,0.14,N,0.3,K,A*05
$GPGGA,193433.000,3748.8000,N,12217.8612,W,1,07,1.2,-0.4,M,-25.1,M,,0000*4D
$GPGSA,A,3,02,17,12,10,25,09,04,,,,,,2.1,1.2,1.7*38
$GPRMC,193433.000,A,3748.8000,N,12217.8612,W,0.11,175.26,201011,,,A*7D
$GPVTG,175.26,T,,M,0.11,N,0.2,K,A*08
$GPGGA,193434.000,3748.8000,N,12217.8612,W,1,07,1.2,-0.4,M,-25.1,M,,0000*4A
$GPGSA,A,3,02,17,12,10,25,09,04,,,,,,2.1,1.2,1.7*38
$GPRMC,193434.000,A,3748.8000,N,12217.8612,W,0.16,165.01,201011,,,A*79
$GPVTG,165.01,T,,M,0.16,N,0.3,K,A*0A
$GPGGA,193435.000,3748.8000,N,12217.8612,W,1,07,1.2,-0.4,M,-25.1,M,,0000*4B
$GPGSA,A,3,02,17,12,10,25,09,04,,,,,,2.1,1.2,1.7*38
$GPRMC,193435.000,A,3748.8000,N,12217.8612,W,0.11,171.07,201011,,,A*7C
$GPVTG,171.07,T,,M,0.11,N,0.2,K,A*0F
$GPGGA,193436.000,3748.7999,N,12217.8613,W,1,07,1.2,-0.4,M,-25.1,M,,0000*4F
$GPGSA,A,3,02,17,12,10,25,09,04,,,,,,2.1,1.2,1.7*38
$GPRMC,193436.000,A,3748.7999,N,12217.8613,W,0.15,167.30,201011,,,A*7F
$GPVTG,167.30,T,,M,0.15,N,0.3,K,A*09
$GPGGA,193437.000,3748.7999,N,12217.8613,W,1,07,1.2,-0.4,M,-25.1,M,,0000*4E
$GPGSA,A,3,02,17,12,10,25,09,04,,,,,,2.1,1.2,1.7*38
$GPGSV,3,1,11,02,76,152,34,12,61,323,29,04,46,053,35,09,42,217,40*7D
$GPGSV,3,2,11,27,34,205,39,25,28,312,38,10,23,102,30,17,10,069,32*78
$GPGSV,3,3,11,05,09,156,,29,09,263,,48,44,197,39*4B
$GPVTG,172.76,T,,M,0.12,N,0.2,K,A*09
$GPGGA,193438.000,3748.7999,N,12217.8613,W,2,07,1.2,-0.4,M,-25.1,M,2.8,0000*66
$GPGSA,A,3,02,17,12,10,25,09,04,,,,,,2.1,1.2,1.7*38
$GPRMC,193438.000,A,3748.7999,N,12217.8613,W,0.14,155.91,201011,,,D*7F
$GPVTG,155.91,T,,M,0.14,N,0.3,K,D*07
$GPGGA,193439.000,3748.7999,N,12217.8613,W,2,07,1.2,-0.3,M,-25.1,M,2.8,0000*60
$GPGSA,A,3,02,17,12,10,25,09,04,,,,,,2.1,1.2,1.7*38
$GPRMC,193439.000,A,3748.7999,N,12217.8613,W,0.13,153.82,201011,,,D*7D
$GPVTG,153.82,T,,M,0.13,N,0.2,K,D*05
$GPGGA,193440.000,3748.7999,N,12217.8613,W,2,07,1.2,-0.4,M,-25.1,M,2.8,0000*69
$GPGSA,A,3,02,17,12,10,25,09,04,,,,,,2.1,1.2,1.7*38
$GPRMC,193440.000,A,3748.7999,N,12217.8613,W,0.17,165.07,201011,,,D*7F
$GPVTG,165.07,T,,M,0.17,N,0.3,K,D*08
$GPGGA,193441.000,3748.7999,N,12217.8613,W,2,07,1.2,-0.4,M,-25.1,M,3.8,0000*69
$GPGSA,A,3,02,17,12,10,25,09,04,,,,,,2.1,1.2,1.7*38
$GPRMC,193441.000,A,3748.7999,N,12217.8613,W,0.16,164.47,201011,,,D*7A
$GPVTG,164.47,T,,M,0.16,N,0.3,K,D*0C
$GPGGA,193442.000,3748.7999,N,12217.8613,W,2,07,1.2,-0.5,M,-25.1,M,2.8,0000*6A
$GPGSA,A,3,02,17,12,10,25,09,04,,,,,,2.1,1.2,1.7*38
$GPGSV,3,1,11,02,76,152,34,12,61,323,29,04,46,053,35,09,42,217,40*7D
$GPGSV,3,2,11,27,34,205,39,25,28,312,38,10,23,102,29,17,10,069,31*73
$GPGSV,3,3,11,05,09,156,,29,09,263,,48,44,197,39*4B
$GPRMC,193442.000,A,3748.7999,N,12217.8613,W,0.15,163.00,201011,,,D*7E
$GPVTG,163.00,T,,M,0.15,N,0.3,K,D*0B
$GPGGA,193443.000,3748.7999,N,12217.8613,W,2,07,1.2,-0.6,M,-25.1,M,2.8,0000*68
$GPGSA,A,3,02,17,12,10,25,09,04,,,,,,2.1,1.2,1.7*38
$GPRMC,193443.000,A,3748.7999,N,12217.8613,W,0.16,171.17,201011,,,D*79
$GPVTG,171.17,T,,M,0.16,N,0.3,K,D*0D
$GPGGA,193444.000,3748.7998,N,12217.8613,W,2,07,1.2,-0.6,M,-25.1,M,2.8,0000*6E
$GPGSA,A,3,02,17,12,10,25,09,04,,,,,,2.1,1.2,1.7*38
$GPRMC,193444.000,A,3748.7998,N,12217.8613,W,0.15,163.26,201011,,,D*7D
$GPVTG,163.26,T,,M,0.15,N,0.3,K,D*0F
$GPGGA,193445.000,3748.7998,N,12217.8613,W,2,07,1.2,-0.7,M,-25.1,M,2.8,0000*6E
$GPGSA,A,3,02,17,12,10,25,09,04,,,,,,2.1,1.2,1.7*38
$GPRMC,193445.000,A,3748.7998,N,12217.8613,W,0.13,189.98,201011,,,D*7B
$GPVTG,189.98,T,,M,0.13,N,0.2,K,D*09
$GPGGA,193446.000,3748.7998,N,12217.8613,W,2,07,1.2,-0.7,M,-25.1,M,2.8,0000*6D
$GPGSA,A,3,02,17,12,10,25,09,04,,,,,,2.1,1.2,1.7*38
$GPRMC,193446.000,A,3748.7998,N,12217.8613,W,0.09,173.93,201011,,,D*7D
$GPVTG,173.93,T,,M,0.09,N,0.2,K,D*0C
$GPGGA,193447.000,3748.7999,N,12217.8614,W,2,07,1.2,-0.7,M,-25.1,M,3.8,0000*6B
$GPGSA,A,3,02,17,12,10,25,09,04,,,,,,2.1,1.2,1.7*38
$GPGSV,3,1,11,02,76,151,34,12,61,323,29,04,45,053,35,09,42,217,40*7D
$GPGSV,3,2,11,27,34,204,39,25,28,312,38,10,23,101,29,17,10,070,31*79
$GPGSV,3,3,11,05,10,156,,29,09,264,,48,44,197,39*44
$GPRMC,193447.000,A,3748.7999,N,12217.8614,W,0.10,177.21,201011,,,D*7F
$GPVTG,177.21,T,,M,0.10,N,0.2,K,D*09
$GPGGA,193448.000,3748.7999,N,12217.8614,W,2,07,1.2,-0.7,M,-25.1,M,2.8,0000*65
$GPGSA,A,3,02,17,12,10,25,09,04,,,,,,2.1,1.2,1.7*38
$GPRMC,193448.000,A,3748.7999,N,12217.8614,W,0.09,179.77,201011,,,D*75
$GPVTG,179.77,T,,M,0.09,N,0.2,K,D*0C
$GPGGA,193449.000,3748.7999,N,12217.8614,W,2,07,1.2,-0.7,M,-25.1,M,3.8,0000*65
$GPGSA,A,3,02,17,12,10,25,09,04,,,,,,2.1,1.2,1.7*38
$GPRMC,193449.000,A,3748.7999,N,12217.8614,W,0.10,167.87,201011,,,D*7C
$GPVTG,167.87,T,,M,0.10,N,0.2,K,D*04
$GPGGA,193450.000,3748.7999,N,12217.8614,W,2,07,1.2,-0.6,M,-25.1,M,2.8,0000*6D
$GPGSA,A,3,02,17,12,10,25,09,04,,,,,,2.1,1.2,1.7*38
$GPRMC,193450.000,A,3748.7999,N,12217.8614,W,0.03,295.09,201011,,,D*7E
$GPVTG,295.09,T,,M,0.03,N,0.1,K,D*0D
$GPGGA,193451.000,3748.7999,N,12217.8614,W,2,07,1.2,-0.6,M,-25.1,M,2.8,0000*6C
$GPGSA,A,3,02,17,12,10,25,09,04,,,,,,2.1,1.2,1.7*38
$GPRMC,193451.000,A,3748.7999,N,12217.8614,W,0.20,157.18,201011,,,D*73
$GPVTG,157.18,T,,M,0.20,N,0.4,K,D*04
$GPGGA,193452.000,3748.7999,N,12217.8614,W,2,07,1.2,-0.6,M,-25.1,M,2.8,0000*6F
$GPGSA,A,3,02,17,12,10,25,09,04,,,,,,2.1,1.2,1.7*38
$GPGSV,3,1,11,02,76,151,34,12,61,323,27,04,45,053,35,09,42,217,40*73
$GPGSV,3,2,11,27,34,204,39,25,28,312,38,10,23,101,29,17,10,070,31*79
$GPGSV,3,3,11,05,10,156,,29,09,264,,48,44,197,39*44
$GPRMC,193452.000,A,3748.7999,N,12217.8614,W,0.12,168.37,201011,,,D*70
$GPVTG,168.37,T,,M,0.12,N,0.2,K,D*02
$GPGGA,193453.000,3748.7999,N,12217.8614,W,2,07,1.2,-0.8,M,-25.1,M,2.8,0000*60
$GPGSA,A,3,02,17,12,10,25,09,04,,,,,,2.1,1.2,1.7*38
$GPRMC,193453.000,A,3748.7999,N,12217.8614,W,0.18,170.51,201011,,,D*72
$GPVTG,170.51,T,,M,0.18,N,0.3,K,D*00
$GPGGA,193454.000,3748.7998,N,12217.8614,W,2,07,1.2,-0.9,M,-25.1,M,3.8,0000*66
$GPGSA,A,3,02,17,12,10,25,09,04,,,,,,2.1,1.2,1.7*38
$GPRMC,193454.000,A,3748.7998,N,12217.8614,W,0.20,172.17,201011,,,D*7F
$GPVTG,172.17,T,,M,0.20,N,0.4,K,D*0C
$GPGGA,193455.000,3748.7998,N,12217.8614,W,2,07,1.2,-1.0,M,-25.1,M,4.8,0000*68
$GPGSA,A,3,02,17,12,10,25,09,04,,,,,,2.1,1.2,1.7*38
$GPRMC,193455.000,A,3748.7998,N,12217.8614,W,0.19,172.86,201011,,,D*7C
$GPVTG,172.86,T,,M,0.19,N,0.3,K,D*09
$GPGGA,193456.000,3748.7997,N,12217.8614,W,2,07,1.2,-1.2,M,-25.1,M,2.8,0000*60
$GPGSA,A,3,02,17,12,10,25,09,04,,,,,,2.1,1.2,1.7*38
$GPRMC,193456.000,A,3748.7997,N,12217.8614,W,0.19,174.20,201011,,,D*7A
$GPVTG,174.20,T,,M,0.19,N,0.3,K,D*03
$GPGGA,193457.000,3748.7997,N,12217.8615,W,2,07,1.2,-1.3,M,-25.1,M,2.8,0000*61
$GPGSA,A,3,02,17,12,10,25,09,04,,,,,,2.1,1.2,1.7*38
$GPGSV,3,1,11,02,76,151,34,12,61,323,29,04,45,053,35,09,42,217,40*7D
$GPGSV,3,2,11,27,34,204,39,25,28,312,38,10,23,101,28,17,10,070,30*79
$GPGSV,3,3,11,05,10,156,,29,09,264,,48,44,197,38*45
$GPRMC,193457.000,A,3748.7997,N,12217.8615,W,0.14,193.53,201011,,,D*7A
$GPGGA,193458.000,3748.7997,N,12217.8615,W,2,07,1.2,-1.4,M,-25.1,M,2.8,0000*69
$GPGSA,A,3,02,17,12,10,25,09,04,,,,,,2.1,1.2,1.7*38
$GPRMC,193458.000,A,3748.7997,N,12217.8615,W,0.08,168.87,201011,,,D*75
$GPVTG,168.87,T,,M,0.08,N,0.2,K,D*02
$GPGGA,193459.000,3748.7997,N,12217.8615,W,2,07,1.2,-1.4,M,-25.1,M,3.8,0000*69
$GPGSA,A,3,02,17,12,10,25,09,04,,,,,,2.1,1.2,1.7*38
$GPRMC,193459.000,A,3748.7997,N,12217.8615,W,0.08,160.26,201011,,,D*77
$GPVTG,160.26,T,,M,0.08,N,0.1,K,D*02
$GPGGA,193500.000,3748.7997,N,12217.8615,W,2,07,1.2,-1.5,M,-25.1,M,4.8,0000*62
$GPGSA,A,3,02,17,12,10,25,09,04,,,,,,2.1,1.2,1.7*38
$GPRMC,193500.000,A,3748.7997,N,12217.8615,W,0.09,184.24,201011,,,D*73
$GPVTG,184.24,T,,M,0.09,N,0.2,K,D*08
$GPGGA,193501.000,3748.7997,N,12217.8615,W,2,07,1.2,-1.4,M,-25.1,M,5.8,0000*63
$GPGSA,A,3,02,17,12,10,25,09,04,,,,,,2.1,1.2,1.7*38
$GPRMC,193501.000,A,3748.7997,N,12217.8615,W,0.11,242.03,201011,,,D*77
$GPVTG,242.03,T,,M,0.11,N,0.2,K,D*0D
$GPGGA,193502.000,3748.7997,N,12217.8616,W,2,07,1.2,-1.4,M,-25.1,M,6.8,0000*60
$GPGSA,A,3,02,17,12,10,25,09,04,,,,,,2.1,1.2,1.7*38
$GPGSV,3,1,11,02,76,151,31,12,61,323,31,04,45,053,32,09,42,217,29*79
$GPGSV,3,2,11,27,34,204,21,25,28,312,37,10,23,101,30,17,10,070,29*7E
$GPGSV,3,3,11,05,10,156,,29,09,264,,48,44,197,35*48
$GPRMC,193502.000,A,3748.7997,N,12217.8616,W,0.23,211.51,201011,,,D*77
$GPVTG,211.51,T,,M,0.23,N,0.4,K,D*0B
$GPGGA,193503.000,3748.7997,N,12217.8616,W,2,07,1.2,-1.3,M,-25.1,M,7.8,0000*67
$GPGSA,A,3,02,17,12,10,25,09,04,,,,,,2.1,1.2,1.7*38
$GPRMC,193503.000,A,3748.7997,N,12217.8616,W,0.11,244.60,201011,,,D*75
$GPVTG,244.60,T,,M,0.11,N,0.2,K,D*0E
$GPGGA,193504.000,3748.7997,N,12217.8617,W,2,07,1.2,-1.5,M,-25.1,M,2.8,0000*62
$GPGSA,A,3,02,17,12,10,25,09,04,,,,,,2.1,1.2,1.7*38
$GPRMC,193504.000,A,3748.7997,N,12217.8617,W,0.09,127.92,201011,,,D*71
$GPVTG,127.92,T,,M,0.09,N,0.2,K,D*0C
$GPGGA,193505.000,3748.7997,N,12217.8617,W,2,07,1.2,-1.7,M,-25.1,M,2.8,0000*61
$GPGSA,A,3,02,17,12,10,25,09,04,,,,,,2.1,1.2,1.7*38
$GPRMC,193505.000,A,3748.7997,N,12217.8617,W,0.32,201.23,201011,,,D*75
$GPVTG,201.23,T,,M,0.32,N,0.6,K,D*0D
$GPGGA,193506.000,3748.7998,N,12217.8617,W,2,07,1.2,-1.5,M,-25.1,M,3.8,0000*6E
$GPGSA,A,3,02,17,12,10,25,09,04,,,,,,2.1,1.2,1.7*38
$GPRMC,193506.000,A,3748.7998,N,12217.8617,W,0.19,2.69,201011,,,D*7F
$GPVTG,2.69,T,,M,0.19,N,0.4,K,D*09
$GPGGA,193507.000,3748.7998,N,12217.8617,W,2,07,1.2,-1.7,M,-25.1,M,4.8,0000*6A
$GPGSA,A,3,02,17,12,10,25,09,04,,,,,,2.1,1.2,1.7*38
$GPGSV,3,1,11,02,76,151,31,12,61,323,34,04,45,053,23,09,42,217,30*74
$GPGSV,3,2,11,27,34,204,33,25,28,312,32,10,23,101,24,17,10,070,23*77
$GPGSV,3,3,11,05,10,156,16,29,09,264,,48,44,197,31*4B
$GPRMC,193507.000,A,3748.7998,N,12217.8617,W,0.06,314.46,201011,,,D*79
$GPVTG,314.46,T,,M,0.06,N,0.1,K,D*0B
$GPGGA,193508.000,3748.7998,N,12217.8617,W,2,07,1.2,-2.0,M,-25.1,M,5.8,0000*60
$GPGSA,A,3,02,17,12,10,25,09,04,,,,,,2.1,1.2,1.7*38
$GPRMC,193508.000,A,3748.7998,N,12217.8617,W,0.18,141.22,201011,,,D*79
$GPVTG,141.22,T,,M,0.18,N,0.3,K,D*06
$GPGGA,193509.000,3748.7998,N,12217.8618,W,2,07,1.2,-2.0,M,-25.1,M,6.8,0000*6D
$GPGSA,A,3,02,17,12,10,25,09,04,,,,,,2.1,1.2,1.7*38
$GPRMC,193509.000,A,3748.7998,N,12217.8618,W,0.11,272.48,201011,,,D*71
$GPVTG,272.48,T,,M,0.11,N,0.2,K,D*01
$GPGGA,193510.000,3748.7997,N,12217.8624,W,2,07,1.2,-1.8,M,-25.1,M,7.8,0000*6F
$GPGSA,A,3,02,17,12,10,25,09,04,,,,,,2.1,1.2,1.7*38
$GPRMC,193510.000,A,3748.7997,N,12217.8624,W,2.14,260.60,201011,,,D*77
$GPVTG,260.60,T,,M,2.14,N,4.0,K,D*09
$GPGGA,193511.000,3748.7997,N,12217.8628,W,2,07,1.2,-1.5,M,-25.1,M,8.8,0000*60
$GPGSA,A,3,02,17,12,10,25,09,04,,,,,,2.1,1.2,1.7*38
$GPRMC,193511.000,A,3748.7997,N,12217.8628,W,0.69,251.10,201011,,,D*77
$GPVTG,251.10,T,,M,0.69,N,1.3,K,D*02
$GPGGA,193512.000,3748.7997,N,12217.8627,W,2,07,1.2,-2.1,M,-25.1,M,9.8,0000*6A
$GPGSA,A,3,02,17,12,10,25,09,04,,,,,,2.1,1.2,1.7*38
$GPGSV,3,1,11,02,76,151,30,12,61,323,31,04,45,053,33,09,42,217,29*79
$GPGSV,3,2,11,27,34,204,25,25,28,312,25,10,23,101,29,17,10,070,22*7A
$GPGSV,3,3,11,05,10,156,24,29,09,264,,48,44,197,32*49
$GPVTG,40.38,T,,M,0.17,N,0.3,K,D*32
$GPGGA,193513.000,3748.7996,N,12217.8627,W,2,07,1.2,-2.8,M,-25.1,M,10.8,0000*5B
$GPGSA,A,3,02,17,12,10,25,09,04,,,,,,2.1,1.2,1.7*38
$GPRMC,193513.000,A,3748.7996,N,12217.8627,W,0.58,294.24,201011,,,D*77
$GPVTG,294.24,T,,M,0.58,N,1.1,K,D*0C
$GPGGA,193514.000,3748.7997,N,12217.8629,W,2,07,1.2,-3.6,M,-25.1,M,11.8,0000*5D
$GPGSA,A,3,02,17,12,10,25,09,04,,,,,,2.1,1.2,1.7*38
$GPRMC,193514.000,A,3748.7997,N,12217.8629,W,0.28,301.00,201011,,,D*73
$GPVTG,301.00,T,,M,0.28,N,0.5,K,D*05
$GPGGA,193515.000,3748.7997,N,12217.8628,W,2,07,1.2,-4.2,M,-25.1,M,12.8,0000*5D
$GPGSA,A,3,02,17,12,10,25,09,04,,,,,,2.1,1.2,1.7*38
$GPRMC,193515.000,A,3748.7997,N,12217.8628,W,0.44,274.49,201011,,,D*77
$GPVTG,274.49,T,,M,0.44,N,0.8,K,D*0C
$GPGGA,193516.000,3748.7996,N,12217.8629,W,2,07,1.2,-4.6,M,-25.1,M,13.8,0000*5B
$GPGSA,A,3,02,17,12,10,25,09,04,,,,,,2.1,1.2,1.7*38
$GPRMC,193516.000,A,3748.7996,N,12217.8629,W,0.71,228.56,201011,,,D*75
$GPVTG,228.56,T,,M,0.71,N,1.3,K,D*07
$GPGGA,193517.000,3748.8000,N,12217.8626,W,2,07,1.2,-3.8,M,-25.1,M,14.8,0000*52
$GPGSA,A,3,02,17,12,10,25,09,04,,,,,,2.1,1.2,1.7*38
$GPGSV,3,1,11,02,76,151,23,12,61,323,34,04,45,053,31,09,42,217,24*71
$GPGSV,3,2,11,27,34,204,29,25,28,312,38,10,23,101,29,17,10,070,27*7F
$GPGSV,3,3,11,05,10,156,28,29,09,264,,48,44,197,25*43
$GPRMC,193517.000,A,3748.8000,N,12217.8626,W,0.20,205.81,201011,,,D*73
$GPVTG,205.81,T,,M,0.20,N,0.4,K,D*00
$GPGGA,193518.000,3748.8001,N,12217.8626,W,2,07,1.2,-3.5,M,-25.1,M,15.8,0000*50
$GPGSA,A,3,02,17,12,10,25,09,04,,,,,,2.1,1.2,1.7*38
$GPRMC,193518.000,A,3748.8001,N,12217.8626,W,0.23,10.47,201011,,,D*42
$GPVTG,10.47,T,,M,0.23,N,0.4,K,D*3F
$GPGGA,193519.000,3748.8002,N,12217.8625,W,2,07,1.2,-3.4,M,-25.1,M,16.8,0000*53
$GPGSA,A,3,02,17,12,10,25,09,04,,,,,,2.1,1.2,1.7*38
$GPRMC,193519.000,A,3748.8002,N,12217.8625,W,0.75,32.24,201011,,,D*45
$GPVTG,32.24,T,,M,0.75,N,1.4,K,D*38
$GPGGA,193520.000,3748.8002,N,12217.8624,W,2,07,1.2,-4.0,M,-25.1,M,17.8,0000*5A
$GPGSA,A,3,02,17,12,10,25,09,04,,,,,,2.1,1.2,1.7*38
$GPRMC,193520.000,A,3748.8002,N,12217.8624,W,0.53,114.71,201011,,,D*7F
$GPVTG,114.71,T,,M,0.53,N,1.0,K,D*0D
$GPGGA,193521.000,3748.7999,N,12217.8620,W,1,07,1.2,-4.0,M,-25.1,M,,0000*48
$GPGSA,A,3,02,17,12,10,25,09,04,,,,,,2.1,1.2,1.7*38
$GPRMC,193521.000,A,3748.7999,N,12217.8620,W,0.91,167.44,201011,,,A*77
$GPVTG,167.44,T,,M,0.91,N,1.7,K,A*03
$GPGGA,193522.000,3748.7998,N,12217.8621,W,1,07,1.2,-3.9,M,-25.1,M,,0000*45
$GPGSA,A,3,02,17,12,10,25,09,04,,,,,,2.1,1.2,1.7*38
$GPGSV,3,1,11,02,76,151,32,12,61,323,26,04,45,053,36,09,42,217,26*77
$GPGSV,3,2,11,27,34,204,29,25,28,312,32,10,23,101,30,17,10,070,29*73
$GPGSV,3,3,11,05,10,156,33,29,09,264,,48,44,197,32*4F
$GPRMC,193522.000,A,3748.7998,N,12217.8621,W,0.45,187.15,201011,,,A*77
$GPVTG,187.15,T,,M,0.45,N,0.8,K,A*0E
$GPGGA,193523.000,3748.7997,N,12217.8621,W,1,07,1.2,-3.9,M,-25.1,M,,0000*4B
$GPGSA,A,3,02,17,12,10,25,09,04,,,,,,2.1,1.2,1.7*38
$GPRMC,193523.000,A,3748.7997,N,12217.8621,W,0.44,179.02,201011,,,A*7F
$GPVTG,179.02,T,,M,0.44,N,0.8,K,A*08
$GPGGA,193524.000,3748.8000,N,12217.8618,W,1,07,1.2,-3.6,M,-25.1,M,,0000*41
$GPGSA,A,3,02,17,12,10,25,09,04,,,,,,2.1,1.2,1.7*38
$GPRMC,193524.000,A,3748.8000,N,12217.8618,W,0.05,35.27,201011,,,A*41
$GPVTG,35.27,T,,M,0.05,N,0.1,K,A*3A
$GPGGA,193525.000,3748.7999,N,12217.8617,W,1,07,1.2,-3.6,M,-25.1,M,,0000*49
$GPGSA,A,3,02,17,12,10,25,09,04,,,,,,2.1,1.2,1.7*38
$GPRMC,193525.000,A,3748.7999,N,12217.8617,W,0.49,175.12,201011,,,A*72
$GPVTG,175.12,T,,M,0.49,N,0.9,K,A*09
$GPGGA,193526.000,3748.8001,N,12217.8614,W,1,07,1.2,-3.4,M,-25.1,M,,0000*4C
$GPGSA,A,3,02,17,12,10,25,09,04,,,,,,2.1,1.2,1.7*38
$GPRMC,193526.000,A,3748.8001,N,12217.8614,W,0.51,36.49,201011,,,A*44
$GPVTG,36.49,T,,M,0.51,N,0.9,K,A*38
$GPGGA,193527.000,3748.8003,N,12217.8612,W,1,07,1.2,-3.4,M,-25.1,M,,0000*49
$GPGSA,A,3,02,17,12,10,25,09,04,,,,,,2.1,1.2,1.7*38
$GPGSV,3,1,11,02,76,151,41,12,61,323,35,04,45,053,40,09,42,217,35*72
$GPGSV,3,2,11,27,34,204,25,25,28,312,34,10,23,101,39,17,10,070,38*70
$GPGSV,3,3,11,05,10,156,38,29,09,264,,48,44,197,26*41
$GPRMC,193527.000,A,3748.8003,N,12217.8612,W,0.47,356.78,201011,,,A*71
$GPVTG,356.78,T,,M,0.47,N,0.9,K,A*08
$GPGGA,193528.000,3748.8004,N,12217.8611,W,1,07,1.2,-3.6,M,-25.1,M,,0000*40
$GPGSA,A,3,02,17,12,10,25,09,04,,,,,,2.1,1.2,1.7*38
$GPRMC,193528.000,A,3748.8004,N,12217.8611,W,0.16,66.77,201011,,,A*41
$GPVTG,66.77,T,,M,0.16,N,0.3,K,A*39
$GPGGA,193529.000,3748.8003,N,12217.8609,W,1,07,1.2,-3.2,M,-25.1,M,,0000*4B
$GPGSA,A,3,02,17,12,10,25,09,04,,,,,,2.1,1.2,1.7*38
$GPRMC,193529.000,A,3748.8003,N,12217.8609,W,0.22,82.34,201011,,,A*44
$GPVTG,82.34,T,,M,0.22,N,0.4,K,A*34
$GPGGA,193530.000,3748.8003,N,12217.8606,W,1,07,1.2,-2.9,M,-25.1,M,,0000*46
$GPGSA,A,3,02,17,12,10,25,09,04,,,,,,2.1,1.2,1.7*38
$GPRMC,193530.000,A,3748.8003,N,12217.8606,W,0.08,36.33,201011,,,A*43
$GPVTG,36.33,T,,M,0.08,N,0.1,K,A*31
$GPGGA,193531.000,3748.8004,N,12217.8605,W,1,07,1.2,-2.6,M,-25.1,M,,0000*4C
$GPGSA,A,3,02,17,12,10,25,09,04,,,,,,2.1,1.2,1.7*38
$GPRMC,193531.000,A,3748.8004,N,12217.8605,W,0.05,45.20,201011,,,A*4D
$GPVTG,45.20,T,,M,0.05,N,0.1,K,A*3A
$GPGGA,193532.000,3748.8004,N,12217.8605,W,1,07,1.2,-2.6,M,-25.1,M,,0000*4F
$GPGSA,A,3,02,17,12,10,25,09,04,,,,,,2.1,1.2,1.7*38
$GPGSV,3,1,10,02,76,151,34,12,61,323,35,04,45,053,40,09,42,217,30*74
$GPGSV,3,2,10,27,34,204,26,25,28,312,39,10,23,101,39,17,10,070,37*70
$GPGSV,3,3,10,05,10,156,29,29,09,264,*77
$GPRMC,193532.000,A,3748.8004,N,12217.8605,W,0.02,327.70,201011,,,A*7B
$GPGGA,193533.000,3748.8005,N,12217.8604,W,1,07,1.2,-2.6,M,-25.1,M,,0000*4E
$GPGSA,A,3,02,17,12,10,25,09,04,,,,,,2.1,1.2,1.7*38
$GPRMC,193533.000,A,3748.8005,N,12217.8604,W,0.06,37.18,201011,,,A*42
$GPVTG,37.18,T,,M,0.06,N,0.1,K,A*37
$GPGGA,193534.000,3748.8005,N,12217.8603,W,1,07,1.2,-2.3,M,-25.1,M,,0000*4B
$GPGSA,A,3,02,17,12,10,25,09,04,,,,,,2.1,1.2,1.7*38
$GPRMC,193534.000,A,3748.8005,N,12217.8603,W,0.04,35.67,201011,,,A*4A
$GPVTG,35.67,T,,M,0.04,N,0.1,K,A*3F
$GPGGA,193535.000,3748.8005,N,12217.8602,W,1,07,1.2,-2.2,M,-25.1,M,,0000*4A
$GPGSA,A,3,02,17,12,10,25,09,04,,,,,,2.1,1.2,1.7*38
$GPRMC,193535.000,A,3748.8005,N,12217.8602,W,0.22,143.10,201011,,,A*7E
$GPVTG,143.10,T,,M,0.22,N,0.4,K,A*0E
$GPGGA,193536.000,3748.8005,N,12217.8602,W,1,07,1.2,-2.3,M,-25.1,M,,0000*48
$GPGSA,A,3,02,17,12,10,25,09,04,,,,,,2.1,1.2,1.7*38
$GPRMC,193536.000,A,3748.8005,N,12217.8602,W,0.10,101.03,201011,,,A*78
$GPVTG,101.03,T,,M,0.10,N,0.2,K,A*0D
$GPGGA,193537.000,3748.8005,N,12217.8601,W,1,07,1.2,-2.2,M,-25.1,M,,0000*4B
$GPGSA,A,3,02,17,12,10,25,09,04,,,,,,2.1,1.2,1.7*38
$GPGSV,3,1,10,02,76,151,34,12,61,323,27,04,45,053,40,09,42,217,29*7F
$GPGSV,3,2,10,27,34,204,,25,28,312,34,10,23,101,39,17,10,070,38*76
$GPGSV,3,3,10,05,10,156,31,29,09,264,*7E
$GPRMC,193537.000,A,3748.8005,N,12217.8601,W,0.08,9.48,201011,,,A*75
$GPVTG,9.48,T,,M,0.08,N,0.1,K,A*01
$GPGGA,193538.000,3748.8005,N,12217.8600,W,1,07,1.2,-2.1,M,-25.1,M,,0000*46
$GPGSA,A,3,02,17,12,10,25,09,04,,,,,,2.1,1.2,1.7*38
$GPRMC,193538.000,A,3748.8005,N,12217.8600,W,0.15,146.90,201011,,,A*78
$GPVTG,146.90,T,,M,0.15,N,0.3,K,A*00
$GPGGA,193539.000,3748.8013,N,12217.8597,W,1,07,1.2,-1.7,M,-25.1,M,,0000*48
$GPGSA,A,3,02,17,12,10,25,09,04,,,,,,2.1,1.2,1.7*38
$GPRMC,193539.000,A,3748.8013,N,12217.8597,W,0.09,52.80,201011,,,A*4B
$GPVTG,52.80,T,,M,0.09,N,0.2,K,A*39
$GPGGA,193540.000,3748.8012,N,12217.8596,W,1,07,1.2,-1.5,M,-25.1,M,,0000*44
$GPGSA,A,3,02,17,12,10,25,09,04,,,,,,2.1,1.2,1.7*38
$GPRMC,193540.000,A,3748.8012,N,12217.8596,W,0.52,38.58,201011,,,A*42
$GPVTG,38.58,T,,M,0.52,N,1.0,K,A*3D
$GPGGA,193541.000,3748.8011,N,12217.8591,W,1,07,1.2,-0.4,M,-25.1,M,,0000*41
$GPGSA,A,3,02,17,12,10,25,09,04,,,,,,2.1,1.2,1.7*38
$GPRMC,193541.000,A,3748.8011,N,12217.8591,W,0.92,54.71,201011,,,A*4A
$GPVTG,54.71,T,,M,0.92,N,1.7,K,A*37
$GPGGA,193542.000,3748.8010,N,12217.8584,W,1,07,1.2,0.9,M,-25.1,M,,0000*67
$GPGSA,A,3,02,17,12,10,25,09,04,,,,,,2.1,1.2,1.7*38
$GPGSV,3,1,10,02,76,151,26,12,61,323,24,04,45,053,34,09,42,217,22*77
$GPGSV,3,2,10,27,34,204,25,25,28,312,25,10,23,101,38,17,10,070,38*70
$GPGSV,3,3,10,05,10,156,23,29,09,264,*7D
$GPRMC,193542.000,A,3748.8010,N,12217.8584,W,0.43,69.92,201011,,,A*43
$GPVTG,69.92,T,,M,0.43,N,0.8,K,A*36
$GPGGA,193543.000,3748.8011,N,12217.8578,W,1,07,1.2,1.2,M,-25.1,M,,0000*6E
$GPGSA,A,3,02,17,12,10,25,09,04,,,,,,2.1,1.2,1.7*38
$GPRMC,193543.000,A,3748.8011,N,12217.8578,W,0.53,97.69,201011,,,A*44
$GPVTG,97.69,T,,M,0.53,N,1.0,K,A*3B
$GPGGA,193544.000,3748.8009,N,12217.8574,W,1,07,1.2,1.9,M,-25.1,M,,0000*67
$GPGSA,A,3,02,17,12,10,25,09,04,,,,,,2.1,1.2,1.7*38
$GPRMC,193544.000,A,3748.8009,N,12217.8574,W,0.35,94.91,201011,,,A*42
$GPVTG,94.91,T,,M,0.35,N,0.7,K,A*39
$GPGGA,193545.000,3748.8009,N,12217.8572,W,1,07,1.2,2.0,M,-25.1,M,,0000*6A
$GPGSA,A,3,02,17,12,10,25,09,04,,,,,,2.1,1.2,1.7*38
$GPRMC,193545.000,A,3748.8009,N,12217.8572,W,0.32,5.77,201011,,,A*72
$GPVTG,5.77,T,,M,0.32,N,0.6,K,A*0F
$GPGGA,193546.000,3748.8008,N,12217.8571,W,1,07,1.2,2.3,M,-25.1,M,,0000*68
$GPGSA,A,3,02,17,12,10,25,09,04,,,,,,2.1,1.2,1.7*38
$GPRMC,193546.000,A,3748.8008,N,12217.8571,W,0.17,23.00,201011,,,A*40
$GPVTG,23.00,T,,M,0.17,N,0.3,K,A*39
$GPGGA,193547.000,3748.8007,N,12217.8570,W,1,07,1.2,2.2,M,-25.1,M,,0000*66
$GPGSA,A,3,02,17,12,10,25,09,04,,,,,,2.1,1.2,1.7*38
$GPGSV,3,1,10,02,77,150,31,12,62,323,28,04,45,053,36,09,41,217,27*7A
$GPGSV,3,2,10,27,34,204,26,25,28,312,24,10,23,101,38,05,10,156,36*7A
$GPGSV,3,3,10,17,10,070,38,29,09,264,*71
$GPRMC,193547.000,A,3748.8007,N,12217.8570,W,0.28,84.44,201011,,,A*4E
$GPVTG,84.44,T,,M,0.28,N,0.5,K,A*3E
$GPGGA,193548.000,3748.8005,N,12217.8571,W,1,07,1.2,2.0,M,-25.1,M,,0000*68
$GPGSA,A,3,02,17,12,10,25,09,04,,,,,,2.1,1.2,1.7*38
$GPRMC,193548.000,A,3748.8005,N,12217.8571,W,0.35,71.40,201011,,,A*40
$GPVTG,71.40,T,,M,0.35,N,0.7,K,A*3E
$GPGGA,193549.000,3748.8001,N,12217.8574,W,1,06,1.7,1.3,M,-25.1,M,,0000*6C
$GPGSA,A,3,02,17,12,10,09,04,,,,,,,2.8,1.7,2.2*35
$GPRMC,193549.000,A,3748.8001,N,12217.8574,W,0.14,79.29,201011,,,A*44
$GPVTG,79.29,T,,M,0.14,N,0.3,K,A*3E
$GPGGA,193550.000,3748.7999,N,12217.8576,W,1,07,1.2,1.0,M,-25.1,M,,0000*66
$GPGSA,A,3,02,17,12,10,25,09,04,,,,,,2.1,1.2,1.7*38
$GPRMC,193550.000,A,3748.7999,N,12217.8576,W,0.05,148.01,201011,,,A*70
$GPVTG,148.01,T,,M,0.05,N,0.1,K,A*05
$GPGGA,193551.000,3748.7994,N,12217.8573,W,1,07,1.2,0.9,M,-25.1,M,,0000*67
$GPGSA,A,3,02,17,12,10,25,09,04,,,,,,2.1,1.2,1.7*38
$GPRMC,193551.000,A,3748.7994,N,12217.8573,W,0.62,126.08,201011,,,A*79
$GPVTG,126.08,T,,M,0.62,N,1.2,K,A*07
$GPGGA,193552.000,3748.7994,N,12217.8573,W,1,07,1.2,0.9,M,-25.1,M,,0000*64
$GPGSA,A,3,02,17,12,10,25,09,04,,,,,,2.1,1.2,1.7*38
$GPGSV,3,1,10,02,77,150,31,12,62,323,27,04,45,053,36,09,41,217,25*77
$GPGSV,3,2,10,27,34,204,27,25,28,312,20,10,23,101,38,05,10,156,26*7E
$GPGSV,3,3,10,17,10,070,38,29,09,264,*71
$GPRMC,193552.000,A,3748.7994,N,12217.8573,W,0.08,222.36,201011,,,A*7C
$GPVTG,222.36,T,,M,0.08,N,0.2,K,A*00
$GPGGA,193553.000,3748.7996,N,12217.8578,W,1,07,1.2,-0.2,M,-25.1,M,,0000*4A
$GPGSA,A,3,02,17,12,10,25,09,04,,,,,,2.1,1.2,1.7*38
$GPRMC,193553.000,A,3748.7996,N,12217.8578,W,0.26,245.05,201011,,,A*79
$GPVTG,245.05,T,,M,0.26,N,0.5,K,A*0A
$GPGGA,193554.000,3748.7997,N,12217.8581,W,1,07,1.2,-0.6,M,-25.1,M,,0000*4E
$GPGSA,A,3,02,17,12,10,25,09,04,,,,,,2.1,1.2,1.7*38
$GPRMC,193554.000,A,3748.7997,N,12217.8581,W,0.22,325.36,201011,,,A*7A
$GPVTG,325.36,T,,M,0.22,N,0.4,K,A*08
$GPGGA,193555.000,3748.7999,N,12217.8583,W,1,07,1.2,-1.0,M,-25.1,M,,0000*44
$GPGSA,A,3,02,17,12,10,25,09,04,,,,,,2.1,1.2,1.7*38
$GPRMC,193555.000,A,3748.7999,N,12217.8583,W,0.12,320.30,201011,,,A*77
$GPVTG,320.30,T,,M,0.12,N,0.2,K,A*0E
$GPGGA,193556.000,3748.7991,N,12217.8585,W,1,07,1.2,-2.5,M,-25.1,M,,0000*4F
$GPGSA,A,3,02,17,12,10,25,09,04,,,,,,2.1,1.2,1.7*38
$GPRMC,193556.000,A,3748.7991,N,12217.8585,W,0.21,116.33,201011,,,A*7E
$GPVTG,116.33,T,,M,0.21,N,0.4,K,A*0C
$GPGGA,193557.000,3748.7990,N,12217.8585,W,1,07,1.2,-2.5,M,-25.1,M,,0000*4F
$GPGSA,A,3,02,17,12,10,25,09,04,,,,,,2.1,1.2,1.7*38
$GPGSV,3,1,11,02,77,150,31,12,62,323,24,04,45,053,37,09,41,217,23*72
$GPGSV,3,2,11,27,34,204,23,25,28,312,21,10,23,101,39,05,10,156,30*7C
$GPGSV,3,3,11,17,10,070,39,29,09,264,,48,44,197,31*40
$GPRMC,193557.000,A,3748.7990,N,12217.8585,W,0.08,226.42,201011,,,A*73
$GPVTG,226.42,T,,M,0.08,N,0.2,K,A*07
$GPGGA,193558.000,3748.7991,N,12217.8580,W,1,07,1.2,-2.1,M,-25.1,M,,0000*40
$GPGSA,A,3,02,17,12,10,25,09,04,,,,,,2.1,1.2,1.7*38
$GPRMC,193558.000,A,3748.7991,N,12217.8580,W,0.14,220.42,201011,,,A*73
$GPVTG,220.42,T,,M,0.14,N,0.3,K,A*0D
$GPGGA,193559.000,3748.7994,N,12217.8578,W,1,07,1.2,-1.5,M,-25.1,M,,0000*44
$GPGSA,A,3,02,17,12,10,25,09,04,,,,,,2.1,1.2,1.7*38
$GPRMC,193559.000,A,3748.7994,N,12217.8578,W,0.23,298.46,201011,,,A*73
$GPVTG,298.46,T,,M,0.23,N,0.4,K,A*09
$GPGGA,193600.000,3748.7991,N,12217.8580,W,1,07,1.2,-1.4,M,-25.1,M,,0000*48
$GPGSA,A,3,02,17,12,10,25,09,04,,,,,,2.1,1.2,1.7*38
$GPRMC,193600.000,A,3748.7991,N,12217.8580,W,0.35,236.47,201011,,,A*7C
$GPVTG,236.47,T,,M,0.35,N,0.7,K,A*08
$GPGGA,193601.000,3748.7990,N,12217.8578,W,1,07,1.2,-0.9,M,-25.1,M,,0000*43
$GPGSA,A,3,02,17,12,10,25,09,04,,,,,,2.1,1.2,1.7*38
$GPRMC,193601.000,A,3748.7990,N,12217.8578,W,0.44,49.89,201011,,,A*45
$GPVTG,49.89,T,,M,0.44,N,0.8,K,A*39
$GPGGA,193602.000,3748.7988,N,12217.8579,W,1,07,1.2,-1.1,M,-25.1,M,,0000*41
$GPGSA,A,3,02,17,12,10,25,09,04,,,,,,2.1,1.2,1.7*38
$GPGSV,3,1,10,02,77,150,27,12,62,323,20,04,45,053,35,09,41,217,28*79
$GPGSV,3,2,10,27,34,204,24,25,28,312,21,10,23,101,32,05,10,156,33*72
$GPGSV,3,3,10,17,10,070,39,29,09,264,*70
$GPRMC,193602.000,A,3748.7988,N,12217.8579,W,0.26,69.13,201011,,,A*4B
$GPGGA,193603.000,3748.7983,N,12217.8582,W,1,07,1.2,-2.0,M,-25.1,M,,0000*4D
$GPGSA,A,3,02,17,12,10,25,09,04,,,,,,2.1,1.2,1.7*38
$GPRMC,193603.000,A,3748.7983,N,12217.8582,W,0.18,241.98,201011,,,A*73
$GPVTG,241.98,T,,M,0.18,N,0.3,K,A*01
$GPGGA,193604.000,3748.7983,N,12217.8583,W,1,07,1.2,-2.2,M,-25.1,M,,0000*49
$GPGSA,A,3,02,17,12,10,25,09,04,,,,,,2.1,1.2,1.7*38
$GPRMC,193604.000,A,3748.7983,N,12217.8583,W,0.64,272.44,201011,,,A*7F
$GPVTG,272.44,T,,M,0.64,N,1.2,K,A*0B
$GPGGA,193605.000,3748.7985,N,12217.8589,W,1,07,1.2,-3.7,M,-25.1,M,,0000*40
$GPGSA,A,3,02,17,12,10,25,09,04,,,,,,2.1,1.2,1.7*38
$GPRMC,193605.000,A,3748.7985,N,12217.8589,W,0.70,288.53,201011,,,A*74
$GPVTG,288.53,T,,M,0.70,N,1.3,K,A*0C
$GPGGA,193606.000,3748.7989,N,12217.8591,W,1,07,1.2,-3.0,M,-25.1,M,,0000*41
$GPGSA,A,3,02,17,12,10,25,09,04,,,,,,2.1,1.2,1.7*38
$GPRMC,193606.000,A,3748.7989,N,12217.8591,W,0.60,319.23,201011,,,A*7D
$GPVTG,319.23,T,,M,0.60,N,1.1,K,A*01
$GPGGA,193607.000,3748.7991,N,12217.8588,W,1,07,1.2,-2.1,M,-25.1,M,,0000*41
$GPGSA,A,3,02,17,12,10,25,09,04,,,,,,2.1,1.2,1.7*38
$GPGSV,3,1,10,02,77,150,32,12,62,323,23,04,45,053,33,09,41,217,24*74
$GPGSV,3,2,10,27,34,204,24,25,28,312,21,10,23,101,37,05,10,156,27*72
$GPGSV,3,3,10,17,10,070,38,29,09,264,*71
$GPRMC,193607.000,A,3748.7991,N,12217.8588,W,0.10,24.54,201011,,,A*47
$GPVTG,24.54,T,,M,0.10,N,0.2,K,A*39
$GPGGA,193608.000,3748.7988,N,12217.8588,W,1,07,1.2,-1.8,M,-25.1,M,,0000*4C
$GPGSA,A,3,02,17,12,10,25,09,04,,,,,,2.1,1.2,1.7*38
$GPRMC,193608.000,A,3748.7988,N,12217.8588,W,0.35,175.21,201011,,,A*70
$GPVTG,175.21,T,,M,0.35,N,0.7,K,A*0C
$GPGGA,193609.000,3748.7987,N,12217.8587,W,1,07,1.2,-1.4,M,-25.1,M,,0000*41
$GPGSA,A,3,02,17,12,10,25,09,04,,,,,,2.1,1.2,1.7*38
$GPRMC,193609.000,A,3748.7987,N,12217.8587,W,0.40,104.18,201011,,,A*7F
$GPVTG,104.18,T,,M,0.40,N,0.7,K,A*02
$GPGGA,193610.000,3748.7984,N,12217.8588,W,1,07,1.2,-1.5,M,-25.1,M,,0000*44
$GPGSA,A,3,02,17,12,10,25,09,04,,,,,,2.1,1.2,1.7*38
$GPRMC,193610.000,A,3748.7984,N,12217.8588,W,0.25,120.28,201011,,,A*7D
$GPVTG,120.28,T,,M,0.25,N,0.5,K,A*06
$GPGGA,193611.000,3748.7981,N,12217.8591,W,1,07,1.2,-1.9,M,-25.1,M,,0000*44
$GPGSA,A,3,02,17,12,10,25,09,04,,,,,,2.1,1.2,1.7*38
$GPRMC,193611.000,A,3748.7981,N,12217.8591,W,0.25,140.52,201011,,,A*7A
$GPVTG,140.52,T,,M,0.25,N,0.5,K,A*0D
$GPGGA,193612.000,3748.7980,N,12217.8591,W,1,07,1.2,-1.8,M,-25.1,M,,0000*47
$GPGSA,A,3,02,17,12,10,25,09,04,,,,,,2.1,1.2,1.7*38
$GPGSV,3,1,10,02,77,150,31,12,62,323,23,04,45,053,20,09,41,217,24*75
$GPGSV,3,2,10,27,34,204,25,25,28,312,21,10,23,101,23,05,10,156,32*72
$GPGSV,3,3,10,17,10,070,27,29,09,264,*7F
$GPRMC,193612.000,A,3748.7980,N,12217.8591,W,0.17,305.69,201011,,,A*72
$GPVTG,305.69,T,,M,0.17,N,0.3,K,A*01
$GPGGA,193613.000,3748.7978,N,12217.8594,W,1,07,1.2,-2.0,M,-25.1,M,,0000*4F
$GPGSA,A,3,02,17,12,10,25,09,04,,,,,,2.1,1.2,1.7*38
$GPRMC,193613.000,A,3748.7978,N,12217.8594,W,0.48,314.64,201011,,,A*76
$GPVTG,314.64,T,,M,0.48,N,0.9,K,A*0C
$GPGGA,193614.000,3748.7976,N,12217.8594,W,1,07,1.2,-2.3,M,-25.1,M,,0000*45
$GPGSA,A,3,02,17,12,10,25,09,04,,,,,,2.1,1.2,1.7*38
$GPRMC,193614.000,A,3748.7976,N,12217.8594,W,0.31,39.29,201011,,,A*44
$GPVTG,39.29,T,,M,0.31,N,0.6,K,A*38
$GPGGA,193615.000,3748.7971,N,12217.8594,W,1,07,1.2,-2.9,M,-25.1,M,,0000*49
$GPGSA,A,3,02,17,12,10,25,09,04,,,,,,2.1,1.2,1.7*38
$GPRMC,193615.000,A,3748.7971,N,12217.8594,W,0.40,170.21,201011,,,A*70
$GPVTG,170.21,T,,M,0.40,N,0.7,K,A*0B
$GPGGA,193616.000,3748.7970,N,12217.8596,W,1,07,1.2,-3.6,M,-25.1,M,,0000*47
$GPGSA,A,3,02,17,12,10,25,09,04,,,,,,2.1,1.2,1.7*38
$GPRMC,193616.000,A,3748.7970,N,12217.8596,W,0.60,168.62,201011,,,A*7C
$GPVTG,168.62,T,,M,0.60,N,1.1,K,A*00
$GPGGA,193617.000,3748.7962,N,12217.8595,W,1,07,1.2,-4.5,M,-25.1,M,,0000*42
$GPGSA,A,3,02,17,12,10,25,09,04,,,,,,2.1,1.2,1.7*38
$GPGSV,3,1,10,02,77,149,29,12,62,323,23,04,45,052,24,09,41,217,24*71
$GPGSV,3,2,10,27,33,204,25,25,28,312,22,10,24,101,30,05,10,155,31*73
$GPGSV,3,3,10,17,10,070,25,29,09,264,*7D
$GPRMC,193617.000,A,3748.7962,N,12217.8595,W,0.78,188.77,201011,,,A*7E
$GPGGA,193618.000,3748.7958,N,12217.8592,W,1,07,1.2,-5.2,M,-25.1,M,,0000*45
$GPGSA,A,3,02,17,12,10,25,09,04,,,,,,2.1,1.2,1.7*38
$GPRMC,193618.000,A,3748.7958,N,12217.8592,W,0.24,61.67,201011,,,A*41
$GPVTG,61.67,T,,M,0.24,N,0.4,K,A*39
$GPGGA,193619.000,3748.7956,N,12217.8587,W,1,07,1.2,-4.9,M,-25.1,M,,0000*44
$GPGSA,A,3,02,17,12,10,25,09,04,,,,,,2.1,1.2,1.7*38
$GPRMC,193619.000,A,3748.7956,N,12217.8587,W,0.52,14.76,201011,,,A*49
$GPVTG,14.76,T,,M,0.52,N,1.0,K,A*3F
$GPGGA,193620.000,3748.7957,N,12217.8584,W,1,07,1.2,-4.7,M,-25.1,M,,0000*42
$GPGSA,A,3,02,17,12,10,25,09,04,,,,,,2.1,1.2,1.7*38
$GPRMC,193620.000,A,3748.7957,N,12217.8584,W,0.70,85.47,201011,,,A*4B
$GPVTG,85.47,T,,M,0.70,N,1.3,K,A*36
$GPGGA,193621.000,3748.7952,N,12217.8577,W,1,07,1.2,-4.2,M,-25.1,M,,0000*4F
$GPGSA,A,3,02,17,12,10,25,09,04,,,,,,2.1,1.2,1.7*38
$GPRMC,193621.000,A,3748.7952,N,12217.8577,W,0.94,85.30,201011,,,A*49
$GPVTG,85.30,T,,M,0.94,N,1.7,K,A*38
$GPGGA,193622.000,3748.7950,N,12217.8571,W,1,07,1.2,-3.1,M,-25.1,M,,0000*4C
$GPGSA,A,3,02,17,12,10,25,09,04,,,,,,2.1,1.2,1.7*38
$GPGSV,3,1,11,02,77,149,30,12,62,323,23,04,45,052,25,09,41,217,34*78
$GPGSV,3,2,11,27,33,204,34,25,28,312,22,10,24,101,30,05,10,155,38*7B
$GPGSV,3,3,11,17,10,070,23,29,09,264,,48,44,197,35*4F
$GPRMC,193622.000,A,3748.7950,N,12217.8571,W,1.21,91.48,201011,,,A*4B
$GPVTG,91.48,T,,M,1.21,N,2.2,K,A*3B
$GPGGA,193623.000,3748.7949,N,12217.8566,W,1,07,1.2,-2.7,M,-25.1,M,,0000*44
$GPGSA,A,3,02,17,12,10,25,09,04,,,,,,2.1,1.2,1.7*38
$GPRMC,193623.000,A,3748.7949,N,12217.8566,W,1.54,106.86,201011,,,A*7B
$GPVTG,106.86,T,,M,1.54,N,2.8,K,A*0E
$GPGGA,193624.000,3748.7948,N,12217.8564,W,1,07,1.2,-1.9,M,-25.1,M,,0000*4D
$GPGSA,A,3,02,17,12,10,25,09,04,,,,,,2.1,1.2,1.7*38
$GPRMC,193624.000,A,3748.7948,N,12217.8564,W,1.38,107.35,201011,,,A*7C
$GPVTG,107.35,T,,M,1.38,N,2.6,K,A*03
$GPGGA,193625.000,3748.7946,N,12217.8563,W,1,07,1.2,-0.9,M,-25.1,M,,0000*44
$GPGSA,A,3,02,17,12,10,25,09,04,,,,,,2.1,1.2,1.7*38
$GPRMC,193625.000,A,3748.7946,N,12217.8563,W,1.00,122.58,201011,,,A*73
$GPVTG,122.58,T,,M,1.00,N,1.9,K,A*08
$GPGGA,193626.000,3748.7943,N,12217.8562,W,1,07,1.2,-0.1,M,-25.1,M,,0000*4B
$GPGSA,A,3,02,17,12,10,25,09,04,,,,,,2.1,1.2,1.7*38
$GPRMC,193626.000,A,3748.7943,N,12217.8562,W,1.52,120.11,201011,,,A*7C
$GPVTG,120.11,T,,M,1.52,N,2.8,K,A*02
$GPGGA,193627.000,3748.7939,N,12217.8556,W,2,07,1.2,0.1,M,-25.1,M,1.8,0000*49
$GPGSA,A,3,02,17,12,10,25,09,04,,,,,,2.1,1.2,1.7*38
$GPGSV,3,1,11,02,77,149,30,12,62,323,22,04,45,052,25,09,41,217,34*79
$GPGSV,3,2,11,27,33,204,35,25,28,312,22,10,24,101,26,05,10,155,38*7D
$GPGSV,3,3,11,17,10,070,23,29,09,264,,48,44,197,35*4F
$GPRMC,193627.000,A,3748.7939,N,12217.8556,W,1.52,111.82,201011,,,D*7A
$GPVTG,111.82,T,,M,1.52,N,2.8,K,D*0F
$GPGGA,193628.000,3748.7935,N,12217.8554,W,2,07,1.2,-0.0,M,-25.1,M,1.8,0000*64
$GPGSA,A,3,02,17,12,10,25,09,04,,,,,,2.1,1.2,1.7*38
$GPRMC,193628.000,A,3748.7935,N,12217.8554,W,1.55,110.05,201011,,,D*72
$GPVTG,110.05,T,,M,1.55,N,2.9,K,D*07
$GPGGA,193629.000,3748.7930,N,12217.8551,W,2,07,1.2,0.7,M,-25.1,M,1.8,0000*4F
$GPGSA,A,3,02,17,12,10,25,09,04,,,,,,2.1,1.2,1.7*38
$GPRMC,193629.000,A,3748.7930,N,12217.8551,W,1.28,103.68,201011,,,D*70
$GPVTG,103.68,T,,M,1.28,N,2.4,K,D*09
$GPGGA,193630.000,3748.7926,N,12217.8545,W,2,07,1.2,1.6,M,-25.1,M,2.8,0000*46
$GPGSA,A,3,02,17,12,10,25,09,04,,,,,,2.1,1.2,1.7*38
$GPRMC,193630.000,A,3748.7926,N,12217.8545,W,1.91,117.14,201011,,,D*76
$GPVTG,117.14,T,,M,1.91,N,3.5,K,D*05
$GPGGA,193631.000,3748.7923,N,12217.8537,W,2,07,1.2,2.0,M,-25.1,M,3.8,0000*43
$GPGSA,A,3,02,17,12,10,25,09,04,,,,,,2.1,1.2,1.7*38
$GPRMC,193631.000,A,3748.7923,N,12217.8537,W,1.94,102.48,201011,,,D*7F
$GPVTG,102.48,T,,M,1.94,N,3.6,K,D*0E
$GPGGA,193632.000,3748.7921,N,12217.8532,W,2,07,1.2,1.9,M,-25.1,M,1.8,0000*4F
$GPGSA,A,3,02,17,12,10,25,09,04,,,,,,2.1,1.2,1.7*38
$GPGSV,3,1,11,02,77,149,31,12,62,323,22,04,45,052,24,09,41,217,34*79
$GPGSV,3,2,11,27,33,204,35,25,28,312,21,10,24,101,26,05,10,155,38*7E
$GPGSV,3,3,11,17,10,070,22,29,09,264,,48,44,197,37*4C
$GPVTG,80.21,T,,M,0.93,N,1.7,K,D*3F
$GPGGA,193633.000,3748.7919,N,12217.8526,W,2,07,1.2,2.0,M,-25.1,M,1.8,0000*4A
$GPGSA,A,3,02,17,12,10,25,09,04,,,,,,2.1,1.2,1.7*38
$GPRMC,193633.000,A,3748.7919,N,12217.8526,W,1.39,122.73,201011,,,D*79
$GPVTG,122.73,T,,M,1.39,N,2.6,K,D*02
$GPGGA,193634.000,3748.7911,N,12217.8516,W,2,07,1.2,1.9,M,-25.1,M,1.8,0000*4C
$GPGSA,A,3,02,17,12,10,25,09,04,,,,,,2.1,1.2,1.7*38
$GPRMC,193634.000,A,3748.7911,N,12217.8516,W,2.15,129.77,201011,,,D*77
$GPVTG,129.77,T,,M,2.15,N,4.0,K,D*00
$GPGGA,193635.000,3748.7908,N,12217.8510,W,2,07,1.2,2.3,M,-25.1,M,1.8,0000*4A
$GPGSA,A,3,02,17,12,10,25,09,04,,,,,,2.1,1.2,1.7*38
$GPRMC,193635.000,A,3748.7908,N,12217.8510,W,1.50,105.11,201011,,,D*74
$GPVTG,105.11,T,,M,1.50,N,2.8,K,D*02
$GPGGA,193636.000,3748.7907,N,12217.8504,W,2,07,1.2,1.9,M,-25.1,M,2.8,0000*49
$GPGSA,A,3,02,17,12,10,25,09,04,,,,,,2.1,1.2,1.7*38
$GPRMC,193636.000,A,3748.7907,N,12217.8504,W,1.61,96.54,201011,,,D*45
$GPVTG,96.54,T,,M,1.61,N,3.0,K,D*33
$GPGGA,193637.000,3748.7912,N,12217.8499,W,2,07,1.2,2.0,M,-25.1,M,3.8,0000*42
$GPGSA,A,3,02,17,12,10,25,09,04,,,,,,2.1,1.2,1.7*38
$GPGSV,3,1,11,02,77,149,31,12,62,323,22,04,45,052,25,09,41,217,34*78
$GPGSV,3,2,11,27,33,204,35,25,28,312,22,10,24,101,28,05,10,155,38*73
$GPGSV,3,3,11,17,10,070,21,29,09,264,,48,44,197,36*4E
$GPRMC,193637.000,A,3748.7912,N,12217.8499,W,1.81,89.29,201011,,,D*4F
$GPVTG,89.29,T,,M,1.81,N,3.4,K,D*3D
$GPGGA,193638.000,3748.7916,N,12217.8489,W,2,07,1.2,2.4,M,-25.1,M,1.8,0000*4E
$GPGSA,A,3,02,17,12,10,25,09,04,,,,,,2.1,1.2,1.7*38
$GPRMC,193638.000,A,3748.7916,N,12217.8489,W,1.92,88.57,201011,,,D*4F
$GPVTG,88.57,T,,M,1.92,N,3.6,K,D*35
$GPGGA,193639.000,3748.7917,N,12217.8482,W,2,07,1.2,2.5,M,-25.1,M,1.8,0000*44
$GPGSA,A,3,02,17,12,10,25,09,04,,,,,,2.1,1.2,1.7*38
$GPRMC,193639.000,A,3748.7917,N,12217.8482,W,1.37,87.36,201011,,,D*43
$GPVTG,87.36,T,,M,1.37,N,2.5,K,D*30
$GPGGA,193640.000,3748.7917,N,12217.8478,W,2,07,1.2,1.4,M,-25.1,M,2.8,0000*4E
$GPGSA,A,3,02,17,12,10,25,09,04,,,,,,2.1,1.2,1.7*38
$GPRMC,193640.000,A,3748.7917,N,12217.8478,W,1.26,81.74,201011,,,D*48
$GPVTG,81.74,T,,M,1.26,N,2.3,K,D*36
$GPGGA,193641.000,3748.7917,N,12217.8469,W,2,07,1.2,1.6,M,-25.1,M,3.8,0000*4C
$GPGSA,A,3,02,17,12,10,25,09,04,,,,,,2.1,1.2,1.7*38
$GPRMC,193641.000,A,3748.7917,N,12217.8469,W,1.29,92.74,201011,,,D*44
$GPVTG,92.74,T,,M,1.29,N,2.4,K,D*3C
$GPGGA,193642.000,3748.7923,N,12217.8464,W,2,07,1.2,1.8,M,-25.1,M,4.8,0000*4C
$GPGSA,A,3,02,17,12,10,25,09,04,,,,,,2.1,1.2,1.7*38
$GPGSV,3,1,11,02,77,149,29,12,62,323,22,04,45,052,23,09,41,217,27*75
$GPGSV,3,2,11,27,33,204,29,25,28,312,22,10,24,101,25,05,10,155,29*73
$GPGSV,3,3,11,17,10,070,21,29,09,264,,48,44,197,34*4C
$GPRMC,193642.000,A,3748.7923,N,12217.8464,W,1.15,82.37,201011,,,D*44
$GPVTG,82.37,T,,M,1.15,N,2.1,K,D*30
$GPGGA,193643.000,3748.7930,N,12217.8459,W,2,07,1.2,1.8,M,-25.1,M,5.8,0000*40
$GPGSA,A,3,02,17,12,10,25,09,04,,,,,,2.1,1.2,1.7*38
$GPRMC,193643.000,A,3748.7930,N,12217.8459,W,0.84,87.49,201011,,,D*4C
$GPVTG,87.49,T,,M,0.84,N,1.6,K,D*31
$GPGGA,193644.000,3748.7933,N,12217.8453,W,2,07,1.2,2.1,M,-25.1,M,1.8,0000*40
$GPGSA,A,3,02,17,12,10,25,09,04,,,,,,2.1,1.2,1.7*38
$GPRMC,193644.000,A,3748.7933,N,12217.8453,W,1.60,124.28,201011,,,D*76
$GPVTG,124.28,T,,M,1.60,N,3.0,K,D*01
$GPGGA,193645.000,3748.7933,N,12217.8448,W,2,07,1.2,2.5,M,-25.1,M,1.8,0000*4F
$GPGSA,A,3,02,17,12,10,25,09,04,,,,,,2.1,1.2,1.7*38
$GPRMC,193645.000,A,3748.7933,N,12217.8448,W,1.17,118.17,201011,,,D*7E
$GPVTG,118.17,T,,M,1.17,N,2.2,K,D*01
$GPGGA,193646.000,3748.7927,N,12217.8443,W,2,06,1.7,2.8,M,-25.1,M,1.8,0000*4B
$GPGSA,A,3,02,17,12,10,09,04,,,,,,,2.8,1.7,2.2*35
$GPRMC,193646.000,A,3748.7927,N,12217.8443,W,1.63,126.72,201011,,,D*7E
$GPVTG,126.72,T,,M,1.63,N,3.0,K,D*0F
$GPGGA,193647.000,3748.7921,N,12217.8438,W,2,07,1.2,3.4,M,-25.1,M,2.8,0000*4A
$GPGSA,A,3,02,17,12,10,25,09,04,,,,,,2.1,1.2,1.7*38
$GPGSV,3,1,11,02,77,149,29,12,62,323,22,04,45,052,24,09,41,217,33*77
$GPGSV,3,2,11,27,33,204,28,25,28,312,15,10,24,101,22,05,10,155,26*7E
$GPGSV,3,3,11,17,10,070,21,29,09,264,26,48,44,197,29*44
$GPVTG,130.94,T,,M,2.26,N,4.2,K,D*07
$GPGGA,193648.000,3748.7922,N,12217.8431,W,2,07,1.2,3.1,M,-25.1,M,3.8,0000*4B
$GPGSA,A,3,02,17,12,10,25,09,04,,,,,,2.1,1.2,1.7*38
$GPRMC,193648.000,A,3748.7922,N,12217.8431,W,2.57,115.76,201011,,,D*70
$GPVTG,115.76,T,,M,2.57,N,4.8,K,D*00
$GPGGA,193649.000,3748.7919,N,12217.8422,W,2,07,1.2,3.2,M,-25.1,M,4.8,0000*44
$GPGSA,A,3,02,17,12,10,25,09,04,,,,,,2.1,1.2,1.7*38
$GPRMC,193649.000,A,3748.7919,N,12217.8422,W,2.86,119.84,201011,,,D*76
$GPVTG,119.84,T,,M,2.86,N,5.3,K,D*07
$GPGGA,193650.000,3748.7911,N,12217.8412,W,2,07,1.2,4.2,M,-25.1,M,1.8,0000*45
$GPGSA,A,3,02,17,12,10,25,09,04,,,,,,2.1,1.2,1.7*38
$GPRMC,193650.000,A,3748.7911,N,12217.8412,W,2.52,123.04,201011,,,D*7D
$GPVTG,123.04,T,,M,2.52,N,4.7,K,D*0A
$GPGGA,193651.000,3748.7903,N,12217.8402,W,2,07,1.2,5.0,M,-25.1,M,2.8,0000*46
$GPGSA,A,3,02,17,12,10,25,09,04,,,,,,2.1,1.2,1.7*38
$GPRMC,193651.000,A,3748.7903,N,12217.8402,W,2.79,118.54,201011,,,D*7A
$GPVTG,118.54,T,,M,2.79,N,5.2,K,D*0A
$GPGGA,193652.000,3748.7897,N,12217.8393,W,2,07,1.2,4.7,M,-25.1,M,3.8,0000*41
$GPGSA,A,3,02,17,12,10,25,09,04,,,,,,2.1,1.2,1.7*38
$GPGSV,3,1,11,02,77,149,23,12,62,323,21,04,45,052,19,09,41,217,33*70
$GPGSV,3,2,11,27,33,204,32,25,28,312,21,10,24,101,18,05,10,155,28*75
$GPGSV,3,3,11,17,10,070,16,29,09,264,26,48,44,197,34*4C
$GPRMC,193652.000,A,3748.7897,N,12217.8393,W,2.37,114.10,201011,,,D*7C
$GPVTG,114.10,T,,M,2.37,N,4.4,K,D*0B
$GPGGA,193653.000,3748.7890,N,12217.8384,W,2,07,1.2,4.2,M,-25.1,M,4.8,0000*43
$GPGSA,A,3,02,17,12,10,25,09,04,,,,,,2.1,1.2,1.7*38
$GPRMC,193653.000,A,3748.7890,N,12217.8384,W,1.75,98.30,201011,,,D*4E
$GPVTG,98.30,T,,M,1.75,N,3.2,K,D*38
$GPGGA,193654.000,3748.7882,N,12217.8372,W,2,07,1.2,4.8,M,-25.1,M,5.8,0000*45
$GPGSA,A,3,02,17,12,10,25,09,04,,,,,,2.1,1.2,1.7*38
$GPRMC,193654.000,A,3748.7882,N,12217.8372,W,1.56,99.69,201011,,,D*4F
$GPVTG,99.69,T,,M,1.56,N,2.9,K,D*3E
$GPGGA,193655.000,3748.7875,N,12217.8365,W,2,07,1.2,4.9,M,-25.1,M,6.8,0000*48
$GPGSA,A,3,02,17,12,10,25,09,04,,,,,,2.1,1.2,1.7*38
$GPRMC,193655.000,A,3748.7875,N,12217.8365,W,1.55,126.43,201011,,,D*7E
$GPVTG,126.43,T,,M,1.55,N,2.9,K,D*00
$GPGGA,193656.000,3748.7865,N,12217.8353,W,2,07,1.2,5.8,M,-25.1,M,1.8,0000*48
$GPGSA,A,3,02,17,12,10,25,09,04,,,,,,2.1,1.2,1.7*38
$GPRMC,193656.000,A,3748.7865,N,12217.8353,W,1.75,122.23,201011,,,D*79
$GPVTG,122.23,T,,M,1.75,N,3.2,K,D*0A
$GPGGA,193657.000,3748.7857,N,12217.8347,W,2,07,1.2,6.2,M,-25.1,M,1.8,0000*44
$GPGSA,A,3,02,17,12,10,25,09,04,,,,,,2.1,1.2,1.7*38
$GPGSV,3,1,11,02,77,149,30,12,62,323,22,04,45,052,21,09,41,217,34*7D
$GPGSV,3,2,11,27,33,204,33,25,28,312,21,10,24,101,29,05,10,155,42*7A
$GPGSV,3,3,11,17,10,070,27,29,09,264,26,48,44,197,37*4D
$GPRMC,193657.000,A,3748.7857,N,12217.8347,W,1.95,122.65,201011,,,D*70
$GPVTG,122.65,T,,M,1.95,N,3.6,K,D*02
$GPGGA,193658.000,3748.7851,N,12217.8339,W,2,07,1.2,6.1,M,-25.1,M,1.8,0000*47
$GPGSA,A,3,02,17,12,10,25,09,04,,,,,,2.1,1.2,1.7*38
$GPRMC,193658.000,A,3748.7851,N,12217.8339,W,1.53,106.61,201011,,,D*78
$GPVTG,106.61,T,,M,1.53,N,2.8,K,D*05
$GPGGA,193659.000,3748.7848,N,12217.8332,W,2,07,1.2,5.5,M,-25.1,M,2.8,0000*41
$GPGSA,A,3,02,17,12,10,25,09,04,,,,,,2.1,1.2,1.7*38
$GPRMC,193659.000,A,3748.7848,N,12217.8332,W,1.76,105.74,201011,,,D*7A
$GPVTG,105.74,T,,M,1.76,N,3.3,K,D*0F
$GPGGA,193700.000,3748.7847,N,12217.8325,W,2,07,1.2,5.3,M,-25.1,M,3.8,0000*42
$GPGSA,A,3,02,17,12,10,25,09,04,,,,,,2.1,1.2,1.7*38
$GPRMC,193700.000,A,3748.7847,N,12217.8325,W,1.92,108.32,201011,,,D*7B
$GPVTG,108.32,T,,M,1.92,N,3.6,K,D*0F
$GPGGA,193701.000,3748.7848,N,12217.8322,W,2,06,1.3,4.4,M,-25.1,M,4.8,0000*4A
$GPGSA,A,3,02,17,12,25,09,04,,,,,,,2.2,1.3,1.7*3B
$GPRMC,193701.000,A,3748.7848,N,12217.8322,W,1.02,122.15,201011,,,D*76
$GPVTG,122.15,T,,M,1.02,N,1.9,K,D*06
$GPGGA,193702.000,3748.7848,N,12217.8320,W,2,07,1.2,4.2,M,-25.1,M,1.8,0000*48
$GPGSA,A,3,02,17,12,10,25,09,04,,,,,,2.1,1.2,1.7*38
$GPGSV,3,1,11,02,77,149,25,12,62,323,21,04,45,052,21,09,41,217,29*76
$GPGSV,3,2,11,27,33,204,26,25,28,312,20,10,24,101,15,05,10,155,33*76
$GPGSV,3,3,11,17,10,070,18,29,09,264,26,48,44,197,27*40
$GPRMC,193702.000,A,3748.7848,N,12217.8320,W,0.47,174.96,201011,,,D*7F
$GPVTG,174.96,T,,M,0.47,N,0.9,K,D*0F
$GPGGA,193703.000,3748.7846,N,12217.8316,W,2,07,1.2,4.1,M,-25.1,M,2.8,0000*42
$GPGSA,A,3,02,17,12,10,25,09,04,,,,,,2.1,1.2,1.7*38
