$ADVER,3080,2.3
$GPRMC,174234.320,A,3748.8002,N,12217.8589,W,0.06,39.82,201011,,,A*46
$GPRMC,174235.320,A,3748.7990,N,12217.8612,W,0.05,18.98,201011,,,A*40
$GPRMC,174236.000,A,3748.7990,N,12217.8612,W,0.04,25.70,201011,,,A*4B
$GPRMC,174237.000,A,3748.7990,N,12217.8612,W,0.02,40.68,201011,,,A*46
$GPRMC,174238.000,A,3748.7990,N,12217.8612,W,0.03,50.45,201011,,,A*46
$GPRMC,174239.000,A,3748.7990,N,12217.8612,W,0.04,179.28,201011,,,A*71
$GPRMC,174240.000,A,3748.7990,N,12217.8612,W,0.02,89.55,201011,,,A*4D
$GPRMC,174241.000,A,3748.7991,N,12217.8612,W,0.02,76.31,201011,,,A*4F
$GPRMC,174242.000,A,3748.7991,N,12217.8612,W,0.02,248.16,201011,,,A*76
$GPRMC,174243.000,A,3748.7991,N,12217.8612,W,0.02,104.56,201011,,,A*78
$GPRMC,174244.000,A,3748.7991,N,12217.8612,W,0.02,15.77,201011,,,A*4D
$GPRMC,174245.000,A,3748.7992,N,12217.8612,W,0.03,194.22,201011,,,A*76
$GPRMC,174246.000,A,3748.7992,N,12217.8612,W,0.03,349.30,201011,,,A*74
$GPRMC,174247.000,A,3748.7993,N,12217.8612,W,0.01,157.33,201011,,,A*78
$GPRMC,174248.000,A,3748.7993,N,12217.8612,W,0.03,320.54,201011,,,A*76
$GPRMC,174249.000,A,3748.7993,N,12217.8612,W,0.02,349.87,201011,,,A*77
$GPRMC,174250.000,A,3748.7994,N,12217.8612,W,0.03,353.02,201011,,,A*7F
$GPRMC,174251.000,A,3748.7994,N,12217.8612,W,0.03,335.75,201011,,,A*7E
$GPRMC,174252.000,A,3748.7995,N,12217.8612,W,0.05,338.95,201011,,,A*79
$GPRMC,174253.000,A,3748.7996,N,12217.8612,W,0.03,26.25,201011,,,A*4A
$GPRMC,174254.000,A,3748.7996,N,12217.8612,W,0.08,6.52,201011,,,A*74
$GPRMC,174255.000,A,3748.7997,N,12217.8612,W,0.14,350.72,201011,,,A*7B
$GPRMC,174256.000,A,3748.7999,N,12217.8612,W,0.39,356.47,201011,,,A*79
$GPRMC,174257.000,A,3748.8000,N,12217.8612,W,0.29,331.78,201011,,,A*72
$GPRMC,174258.000,A,3748.8001,N,12217.8612,W,0.01,73.12,201011,,,A*4F
$GPRMC,174259.000,A,3748.7999,N,12217.8612,W,0.06,115.07,201011,,,A*7B
$GPRMC,174300.000,A,3748.7999,N,12217.8612,W,0.29,10.45,201011,,,A*49
$GPRMC,174301.000,A,3748.7998,N,12217.8611,W,0.52,150.08,201011,,,A*7A
$GPRMC,174302.000,A,3748.7997,N,12217.8612,W,0.14,333.37,201011,,,A*7C
$GPRMC,174303.000,A,3748.7998,N,12217.8611,W,0.10,172.16,201011,,,A*71
$GPRMC,174304.000,A,3748.7998,N,12217.8612,W,0.19,87.64,201011,,,A*42
$GPRMC,174305.000,A,3748.7999,N,12217.8611,W,0.22,116.25,201011,,,A*75
$GPRMC,174306.000,A,3748.7999,N,12217.8611,W,0.09,73.78,201011,,,A*45
$GPRMC,174307.000,A,3748.7999,N,12217.8610,W,0.26,200.21,201011,,,A*72
$GPRMC,174308.000,A,3748.7998,N,12217.8609,W,0.07,117.20,201011,,,A*73
$GPRMC,174309.000,A,3748.7998,N,12217.8609,W,0.07,82.11,201011,,,A*4D
$GPRMC,174310.000,A,3748.7998,N,12217.8608,W,0.07,49.69,201011,,,A*4C
$GPRMC,174311.000,A,3748.7998,N,12217.8607,W,0.06,57.00,201011,,,A*43
$GPRMC,174312.000,A,3748.7998,N,12217.8607,W,0.06,56.02,201011,,,A*43
$GPRMC,174313.000,A,3748.7998,N,12217.8606,W,0.06,57.44,201011,,,A*40
$GPRMC,174314.000,A,3748.7998,N,12217.8606,W,0.08,48.30,201011,,,A*44
$GPRMC,174315.000,A,3748.7998,N,12217.8606,W,0.07,38.64,201011,,,A*4C
$GPRMC,174316.000,A,3748.7998,N,12217.8606,W,0.05,56.64,201011,,,A*45
$GPRMC,174317.000,A,3748.7998,N,12217.8606,W,0.06,49.85,201011,,,A*46
$GPRMC,174318.000,A,3748.7998,N,12217.8605,W,0.07,68.60,201011,,,A*43
$GPRMC,174319.000,A,3748.7998,N,12217.8605,W,0.08,30.59,201011,,,A*4A
$GPRMC,174320.000,A,3748.7998,N,12217.8605,W,0.07,45.16,201011,,,A*46
$GPRMC,174321.000,A,3748.7998,N,12217.8604,W,0.07,65.52,201011,,,A*44
$GPRMC,174322.000,A,3748.7999,N,12217.8604,W,0.08,61.10,201011,,,A*4B
$GPRMC,174323.000,A,3748.8000,N,12217.8603,W,0.13,1.70,201011,,,A*71
$GPRMC,174324.000,A,3748.8000,N,12217.8602,W,0.10,26.09,201011,,,A*4F
$GPRMC,174325.000,A,3748.8001,N,12217.8602,W,0.13,9.95,201011,,,A*74
$GPRMC,174326.000,A,3748.8001,N,12217.8601,W,0.11,34.09,201011,,,A*4D
$GPRMC,174327.000,A,3748.8002,N,12217.8601,W,0.12,26.77,201011,,,A*46
$GPRMC,174328.000,A,3748.8003,N,12217.8601,W,0.13,25.84,201011,,,A*46
$GPRMC,174329.000,A,3748.8004,N,12217.8601,W,0.11,19.72,201011,,,A*44
$GPRMC,174330.000,A,3748.8004,N,12217.8601,W,0.14,24.04,201011,,,A*46
$GPRMC,174331.000,A,3748.8005,N,12217.8600,W,0.11,25.97,201011,,,A*49
$GPRMC,174332.000,A,3748.8005,N,12217.8600,W,0.12,30.68,201011,,,A*4D
$GPRMC,174333.000,A,3748.8006,N,12217.8600,W,0.11,25.71,201011,,,A*40
$GPRMC,174334.000,A,3748.8006,N,12217.8600,W,0.12,21.30,201011,,,A*45
$GPRMC,174335.000,A,3748.8007,N,12217.8600,W,0.11,20.17,201011,,,A*42
$GPRMC,174336.000,A,3748.8007,N,12217.8600,W,0.10,24.77,201011,,,A*42
$GPRMC,174337.000,A,3748.8008,N,12217.8600,W,0.11,28.00,201011,,,A*41
$GPRMC,174338.000,A,3748.8008,N,12217.8600,W,0.09,38.66,201011,,,A*46
$GPRMC,174339.000,A,3748.8008,N,12217.8600,W,0.10,25.04,201011,,,A*47
$GPRMC,174340.000,A,3748.8009,N,12217.8600,W,0.10,17.34,201011,,,A*4A
$GPRMC,174341.000,A,3748.8009,N,12217.8599,W,0.08,32.88,201011,,,A*41
$GPRMC,174342.000,A,3748.8010,N,12217.8600,W,0.11,24.60,201011,,,A*40
$GPRMC,174343.000,A,3748.8010,N,12217.8600,W,0.10,10.36,201011,,,A*44
$GPRMC,174344.000,A,3748.8010,N,12217.8600,W,0.07,27.55,201011,,,A*44
$GPRMC,174345.000,A,3748.8011,N,12217.8600,W,0.11,11.66,201011,,,A*46
$GPRMC,174346.000,A,3748.8011,N,12217.8600,W,0.10,26.75,201011,,,A*42
$GPRMC,174347.000,A,3748.8011,N,12217.8600,W,0.10,29.45,201011,,,A*4F
$GPRMC,174348.000,A,3748.8012,N,12217.8600,W,0.12,17.40,201011,,,A*49
$GPRMC,174349.000,A,3748.8012,N,12217.8600,W,0.10,35.15,201011,,,A*4A
$GPRMC,174350.000,A,3748.8012,N,12217.8600,W,0.11,20.49,201011,,,A*4E
$GPRMC,174351.000,A,3748.8013,N,12217.8601,W,0.12,11.75,201011,,,A*41
$GPRMC,174352.000,A,3748.8013,N,12217.8601,W,0.14,11.38,201011,,,A*4D
$GPRMC,174353.000,A,3748.8013,N,12217.8601,W,0.08,48.44,201011,,,A*46
$GPRMC,174354.000,A,3748.8014,N,12217.8601,W,0.12,17.73,201011,,,A*43
$GPRMC,174355.000,A,3748.8014,N,12217.8601,W,0.11,36.91,201011,,,A*4E
$GPRMC,174356.000,A,3748.8014,N,12217.8601,W,0.09,49.30,201011,,,A*47
$GPRMC,174357.000,A,3748.8014,N,12217.8601,W,0.16,13.50,201011,,,A*41
$GPRMC,174358.000,A,3748.8015,N,12217.8601,W,0.06,70.22,201011,,,A*4E
$GPRMC,174359.000,A,3748.8013,N,12217.8600,W,0.37,34.97,201011,,,A*44
$GPRMC,174400.000,A,3748.8013,N,12217.8599,W,0.87,27.76,201011,,,A*4A
$GPRMC,174401.000,A,3748.8014,N,12217.8599,W,0.44,49.60,201011,,,A*4C
$GPRMC,174402.000,A,3748.8013,N,12217.8600,W,0.58,305.69,201011,,,A*74
$GPRMC,174403.000,A,3748.8011,N,12217.8599,W,0.84,130.09,201011,,,A*77
$GPRMC,174404.000,A,3748.8010,N,12217.8600,W,0.74,299.75,201011,,,A*76
$GPRMC,174405.000,A,3748.8008,N,12217.8601,W,1.34,139.80,201011,,,A*79
$GPRMC,174406.000,A,3748.8002,N,12217.8600,W,1.55,188.97,201011,,,A*7A
$GPRMC,174407.000,A,3748.8000,N,12217.8603,W,0.61,198.63,201011,,,A*76
$GPRMC,174408.000,A,3748.7995,N,12217.8608,W,2.17,228.16,201011,,,A*71
$GPRMC,174409.000,A,3748.7991,N,12217.8611,W,0.52,204.46,201011,,,A*74
$GPRMC,174410.000,A,3748.7993,N,12217.8610,W,0.42,65.53,201011,,,A*4F
$GPRMC,174411.000,A,3748.7995,N,12217.8609,W,0.44,40.14,201011,,,A*42
$GPRMC,174412.000,A,3748.7997,N,12217.8609,W,0.09,75.80,201011,,,A*41
$GPRMC,174413.000,A,3748.7998,N,12217.8611,W,0.36,299.43,201011,,,A*75
$GPRMC,174414.000,A,3748.7998,N,12217.8609,W,0.43,115.72,201011,,,A*7C
$GPRMC,174415.000,A,3748.7998,N,12217.8608,W,0.41,205.60,201011,,,A*7F
$GPRMC,174416.000,A,3748.7999,N,12217.8609,W,0.04,288.42,201011,,,A*78
$GPRMC,174417.000,A,3748.8001,N,12217.8607,W,0.13,101.60,201011,,,A*74
$GPRMC,174418.000,A,3748.8002,N,12217.8607,W,0.29,291.04,201011,,,A*79
$GPRMC,174419.000,A,3748.8004,N,12217.8608,W,0.73,330.20,201011,,,A*72
$GPRMC,174420.000,A,3748.8004,N,12217.8607,W,0.97,12.09,201011,,,A*45
$GPRMC,174421.000,A,3748.8003,N,12217.8606,W,0.23,212.89,201011,,,A*77
$GPRMC,174422.000,A,3748.8000,N,12217.8606,W,0.15,113.14,201011,,,A*74
$GPRMC,174423.000,A,3748.8000,N,12217.8606,W,0.12,101.67,201011,,,A*75
$GPRMC,174424.000,A,3748.8003,N,12217.8607,W,0.13,331.27,201011,,,A*74
$GPRMC,174425.000,A,3748.8002,N,12217.8607,W,0.51,197.25,201011,,,A*7E
$GPRMC,174426.000,A,3748.8002,N,12217.8608,W,0.07,191.29,201011,,,A*7B
$GPRMC,174427.000,A,3748.8002,N,12217.8609,W,0.19,324.68,201011,,,A*7D
$GPRMC,174428.000,A,3748.8003,N,12217.8610,W,0.14,37.37,201011,,,A*4D
$GPRMC,174429.000,A,3748.8002,N,12217.8613,W,0.22,233.11,201011,,,A*79
$GPRMC,174430.000,A,3748.8000,N,12217.8616,W,0.28,145.59,201011,,,A*72
$GPRMC,174431.000,A,3748.8001,N,12217.8615,W,0.02,302.54,201011,,,A*75
$GPRMC,174432.000,A,3748.8003,N,12217.8612,W,0.23,33.58,201011,,,A*4D
$GPRMC,174433.000,A,3748.8001,N,12217.8616,W,0.35,260.55,201011,,,A*74
$GPRMC,174434.000,A,3748.7999,N,12217.8619,W,0.08,270.45,201011,,,A*75
$GPRMC,174435.000,A,3748.7998,N,12217.8621,W,0.17,290.35,201011,,,A*79
$GPRMC,174436.000,A,3748.7997,N,12217.8621,W,0.23,205.28,201011,,,A*72
$GPRMC,174437.000,A,3748.7993,N,12217.8625,W,0.45,245.55,201011,,,A*7D
$GPRMC,174438.000,A,3748.7990,N,12217.8627,W,0.31,213.83,201011,,,A*78
$GPRMC,174439.000,A,3748.7989,N,12217.8627,W,0.23,246.79,201011,,,A*77
$GPRMC,174440.000,A,3748.7986,N,12217.8629,W,0.43,97.59,201011,,,A*42
$GPRMC,174441.000,A,3748.7986,N,12217.8628,W,0.29,126.90,201011,,,A*70
$GPRMC,174442.000,A,3748.7987,N,12217.8629,W,0.10,170.31,201011,,,A*71
$GPRMC,174443.000,A,3748.7985,N,12217.8631,W,0.31,125.70,201011,,,A*7D
$GPRMC,174444.000,A,3748.7984,N,12217.8631,W,0.16,105.18,201011,,,A*72
$GPRMC,174445.000,A,3748.7986,N,12217.8626,W,0.44,95.62,201011,,,A*45
$GPRMC,174446.000,A,3748.7986,N,12217.8622,W,0.67,103.04,201011,,,A*7D
$GPRMC,174447.000,A,3748.7985,N,12217.8621,W,0.14,108.36,201011,,,A*72
$GPRMC,174448.000,A,3748.7984,N,12217.8623,W,0.16,35.21,201011,,,A*45
$GPRMC,174449.000,A,3748.7985,N,12217.8623,W,0.35,46.33,201011,,,A*43
$GPRMC,174450.000,A,3748.7983,N,12217.8627,W,0.13,105.51,201011,,,A*7F
$GPRMC,174451.000,A,3748.7982,N,12217.8628,W,0.68,203.40,201011,,,A*79
$GPRMC,174452.000,A,3748.7978,N,12217.8633,W,1.29,209.38,201011,,,A*74
$GPRMC,174453.000,A,3748.7972,N,12217.8638,W,2.48,223.19,201011,,,A*7B
$GPRMC,174454.000,A,3748.7966,N,12217.8644,W,2.58,213.17,201011,,,A*7E
$GPRMC,174455.000,A,3748.7959,N,12217.8652,W,2.75,216.34,201011,,,A*7F
$GPRMC,174456.000,A,3748.7948,N,12217.8663,W,2.50,209.26,201011,,,A*74
$GPRMC,174457.000,A,3748.7939,N,12217.8670,W,2.22,204.70,201011,,,A*7A
$GPRMC,174458.000,A,3748.7934,N,12217.8675,W,1.90,193.66,201011,,,A*7D
$GPRMC,174459.000,A,3748.7929,N,12217.8679,W,1.72,188.23,201011,,,A*7B
$GPRMC,174500.000,A,3748.7925,N,12217.8689,W,2.07,210.86,201011,,,A*79
$GPRMC,174501.000,A,3748.7918,N,12217.8697,W,2.41,211.30,201011,,,A*77
$GPRMC,174502.000,A,3748.7915,N,12217.8700,W,2.18,212.39,201011,,,A*70
$GPRMC,174503.000,A,3748.7915,N,12217.8702,W,1.95,216.93,201011,,,A*71
$GPRMC,174504.000,A,3748.7913,N,12217.8708,W,1.96,205.23,201011,,,A*70
$GPRMC,174505.000,A,3748.7914,N,12217.8713,W,2.71,209.05,201011,,,A*7E
$GPRMC,174506.000,A,3748.7911,N,12217.8717,W,2.17,204.56,201011,,,A*77
$GPRMC,174507.000,A,3748.7907,N,12217.8720,W,2.03,198.58,201011,,,A*78
$GPRMC,174508.000,A,3748.7903,N,12217.8724,W,2.11,197.31,201011,,,A*74
$GPRMC,174509.000,A,3748.7900,N,12217.8731,W,2.29,214.41,201011,,,A*76
$GPRMC,174510.000,A,3748.7896,N,12217.8738,W,2.27,204.69,201011,,,A*7C
$GPRMC,174511.000,A,3748.7891,N,12217.8745,W,2.06,208.22,201011,,,A*70
$GPRMC,174512.000,A,3748.7890,N,12217.8749,W,1.91,198.63,201011,,,A*7C
$GPRMC,174513.000,A,3748.7890,N,12217.8752,W,2.07,206.55,201011,,,A*7A
$GPRMC,174514.000,A,3748.7893,N,12217.8755,W,1.88,188.75,201011,,,A*7A
$GPRMC,174515.000,A,3748.7889,N,12217.8757,W,1.80,185.01,201011,,,A*74
$GPRMC,174516.000,A,3748.7891,N,12217.8761,W,1.45,192.31,201011,,,A*77
$GPRMC,174517.000,A,3748.7891,N,12217.8765,W,1.20,216.14,201011,,,A*79
$GPRMC,174518.000,A,3748.7889,N,12217.8766,W,1.47,194.47,201011,,,A*72
$GPRMC,174519.000,A,3748.7890,N,12217.8768,W,0.74,228.65,201011,,,A*70
$GPRMC,174520.000,A,3748.7895,N,12217.8773,W,0.78,198.79,201011,,,A*7C
$GPRMC,174521.000,A,3748.7899,N,12217.8777,W,1.06,211.29,201011,,,A*7A
$GPRMC,174522.000,A,3748.7894,N,12217.8781,W,1.41,195.54,201011,,,A*7B
$GPRMC,174523.000,A,3748.7892,N,12217.8787,W,1.47,196.83,201011,,,A*75
$GPRMC,174524.000,A,3748.7889,N,12217.8793,W,1.28,199.26,201011,,,A*74
$GPRMC,174525.000,A,3748.7885,N,12217.8798,W,1.54,213.84,201011,,,A*70
$GPRMC,174526.000,A,3748.7881,N,12217.8803,W,1.67,210.34,201011,,,A*72
$GPRMC,174527.000,A,3748.7873,N,12217.8815,W,2.01,215.43,201011,,,A*7F
$GPRMC,174528.000,A,3748.7870,N,12217.8820,W,1.64,219.86,201011,,,A*70
$GPRMC,174529.000,A,3748.7864,N,12217.8825,W,1.77,220.85,201011,,,A*7A
$GPRMC,174530.000,A,3748.7861,N,12217.8830,W,1.89,222.21,201011,,,A*7E
$GPRMC,174531.000,A,3748.7857,N,12217.8832,W,1.93,217.01,201011,,,A*77
$GPRMC,174532.000,A,3748.7852,N,12217.8835,W,1.52,204.32,201011,,,A*79
$GPRMC,174533.000,A,3748.7848,N,12217.8839,W,1.69,201.31,201011,,,A*71
$GPRMC,174534.000,A,3748.7841,N,12217.8843,W,1.87,198.03,201011,,,A*70
$GPRMC,174535.000,A,3748.7835,N,12217.8846,W,1.98,192.31,201011,,,A*72
$GPRMC,174536.000,A,3748.7830,N,12217.8849,W,1.67,199.95,201011,,,A*7E
$GPRMC,174537.000,A,3748.7823,N,12217.8853,W,1.98,207.54,201011,,,A*7F
$GPRMC,174538.000,A,3748.7817,N,12217.8856,W,2.15,199.99,201011,,,A*71
$GPRMC,174539.000,A,3748.7810,N,12217.8860,W,1.78,196.52,201011,,,A*72
$GPRMC,174540.000,A,3748.7805,N,12217.8865,W,1.83,202.42,201011,,,A*76
$GPRMC,174541.000,A,3748.7801,N,12217.8871,W,1.82,207.89,201011,,,A*75
$GPRMC,174542.000,A,3748.7795,N,12217.8878,W,1.72,208.30,201011,,,A*7F
$GPRMC,174543.000,A,3748.7792,N,12217.8884,W,1.79,212.10,201011,,,A*78
$GPRMC,174544.000,A,3748.7787,N,12217.8889,W,2.23,204.41,201011,,,A*79
$GPRMC,174545.000,A,3748.7782,N,12217.8892,W,2.12,205.14,201011,,,A*74
$GPRMC,174546.000,A,3748.7779,N,12217.8893,W,2.17,190.21,201011,,,A*7E
$GPRMC,174547.000,A,3748.7768,N,12217.8897,W,2.12,194.92,201011,,,A*72
$GPRMC,174548.000,A,3748.7760,N,12217.8902,W,2.41,187.18,201011,,,A*7E
$GPRMC,174549.000,A,3748.7754,N,12217.8911,W,2.62,206.48,201011,,,A*74
$GPRMC,174550.000,A,3748.7747,N,12217.8916,W,2.24,198.37,201011,,,A*77
$GPRMC,174551.000,A,3748.7737,N,12217.8922,W,2.53,196.46,201011,,,A*7E
$GPRMC,174552.000,A,3748.7729,N,12217.8927,W,2.45,204.51,201011,,,A*7E
$GPRMC,174553.000,A,3748.7725,N,12217.8935,W,2.47,205.83,201011,,,A*7C
$GPRMC,174554.000,A,3748.7722,N,12217.8942,W,2.14,207.18,201011,,,A*7A
$GPRMC,174555.000,A,3748.7717,N,12217.8948,W,2.16,199.07,201011,,,A*7F
$GPRMC,174556.000,A,3748.7706,N,12217.8951,W,2.39,186.75,201011,,,A*72
$GPRMC,174557.000,A,3748.7694,N,12217.8957,W,2.55,209.98,201011,,,A*72
$GPRMC,174558.000,A,3748.7681,N,12217.8961,W,2.79,204.31,201011,,,A*7C
$GPRMC,174559.000,A,3748.7668,N,12217.8972,W,2.83,208.84,201011,,,A*7F
$GPRMC,174600.000,A,3748.7659,N,12217.8979,W,2.64,205.07,201011,,,A*76
$GPRMC,174601.000,A,3748.7649,N,12217.8983,W,2.68,204.82,201011,,,A*73
$GPRMC,174602.000,A,3748.7638,N,12217.8990,W,2.91,212.25,201011,,,A*78
$GPRMC,174603.000,A,3748.7628,N,12217.8998,W,2.65,203.03,201011,,,A*7F
$GPRMC,174604.000,A,3748.7617,N,12217.9002,W,2.68,206.72,201011,,,A*71
$GPRMC,174605.000,A,3748.7606,N,12217.9009,W,2.94,200.25,201011,,,A*7C
$GPRMC,174606.000,A,3748.7598,N,12217.9012,W,2.68,198.60,201011,,,A*71
$GPRMC,174607.000,A,3748.7589,N,12217.9015,W,2.48,207.94,201011,,,A*7B
$GPRMC,174608.000,A,3748.7580,N,12217.9020,W,2.24,204.48,201011,,,A*73
$GPRMC,174609.000,A,3748.7573,N,12217.9023,W,2.32,199.85,201011,,,A*7C
$GPRMC,174610.000,A,3748.7563,N,12217.9028,W,2.37,202.37,201011,,,A*73
$GPRMC,174611.000,A,3748.7553,N,12217.9034,W,2.00,204.51,201011,,,A*7E
$GPRMC,174612.000,A,3748.7546,N,12217.9036,W,1.99,189.60,201011,,,A*7C
$GPRMC,174613.000,A,3748.7543,N,12217.9038,W,2.22,215.56,201011,,,A*76
$GPRMC,174614.000,A,3748.7531,N,12217.9046,W,2.36,199.04,201011,,,A*78
$GPRMC,174615.000,A,3748.7528,N,12217.9049,W,2.16,211.06,201011,,,A*7D
$GPRMC,174616.000,A,3748.7523,N,12217.9054,W,2.14,206.69,201011,,,A*74
$GPRMC,174617.000,A,3748.7515,N,12217.9058,W,2.23,195.67,201011,,,A*7F
$GPRMC,174618.000,A,3748.7506,N,12217.9062,W,2.23,193.40,201011,,,A*78
$GPRMC,174619.000,A,3748.7498,N,12217.9063,W,2.20,191.49,201011,,,A*76
$GPRMC,174620.000,A,3748.7490,N,12217.9069,W,2.41,206.73,201011,,,A*7D
$GPRMC,174621.000,A,3748.7485,N,12217.9074,W,2.17,203.20,201011,,,A*74
$GPRMC,174622.000,A,3748.7478,N,12217.9085,W,2.41,202.88,201011,,,A*7B
$GPRMC,174623.000,A,3748.7470,N,12217.9096,W,2.21,212.75,201011,,,A*75
$GPRMC,174624.000,A,3748.7458,N,12217.9111,W,2.45,207.01,201011,,,A*73
$GPRMC,174625.000,A,3748.7447,N,12217.9120,W,2.46,202.13,201011,,,A*7B
$GPRMC,174626.000,A,3748.7444,N,12217.9121,W,2.47,198.84,201011,,,A*75
$GPRMC,174627.000,A,3748.7432,N,12217.9129,W,2.69,198.44,201011,,,A*7D
$GPRMC,174628.000,A,3748.7422,N,12217.9136,W,2.50,195.74,201011,,,A*79
$GPRMC,174629.000,A,3748.7411,N,12217.9138,W,2.32,194.86,201011,,,A*7E
$GPRMC,174630.000,A,3748.7400,N,12217.9143,W,2.19,201.55,201011,,,A*72
$GPRMC,174631.000,A,3748.7390,N,12217.9147,W,2.58,196.50,201011,,,A*74
$GPRMC,174632.000,A,3748.7380,N,12217.9150,W,2.94,196.44,201011,,,A*75
$GPRMC,174633.000,A,3748.7370,N,12217.9153,W,2.53,195.70,201011,,,A*77
$GPRMC,174634.000,A,3748.7365,N,12217.9157,W,2.17,201.17,201011,,,A*7F
$GPRMC,174635.000,A,3748.7358,N,12217.9164,W,2.47,201.03,201011,,,A*70
$GPRMC,174636.000,A,3748.7354,N,12217.9172,W,2.32,197.06,201011,,,A*73
$GPRMC,174637.000,A,3748.7352,N,12217.9176,W,2.05,201.65,201011,,,A*7D
$GPRMC,174638.000,A,3748.7348,N,12217.9180,W,2.12,206.09,201011,,,A*7B
$GPRMC,174639.000,A,3748.7341,N,12217.9183,W,2.68,195.77,201011,,,A*7D
$GPRMC,174640.000,A,3748.7337,N,12217.9189,W,2.16,193.33,201011,,,A*77
$GPRMC,174641.000,A,3748.7332,N,12217.9193,W,2.13,199.11,201011,,,A*77
$GPRMC,174642.000,A,3748.7326,N,12217.9200,W,2.11,204.24,201011,,,A*7B
$GPRMC,174643.000,A,3748.7316,N,12217.9205,W,2.03,203.12,201011,,,A*7D
$GPRMC,174644.000,A,3748.7305,N,12217.9213,W,2.24,202.37,201011,,,A*7C
$GPRMC,174645.000,A,3748.7292,N,12217.9220,W,2.34,195.68,201011,,,A*74
$GPRMC,174646.000,A,3748.7282,N,12217.9224,W,2.32,192.30,201011,,,A*7E
$GPRMC,174647.000,A,3748.7274,N,12217.9227,W,2.22,196.10,201011,,,A*72
$GPRMC,174648.000,A,3748.7266,N,12217.9230,W,2.05,200.21,201011,,,A*73
$GPRMC,174649.000,A,3748.7258,N,12217.9239,W,2.26,209.73,201011,,,A*79
$GPRMC,174650.000,A,3748.7255,N,12217.9243,W,1.92,216.05,201011,,,A*72
$GPRMC,174651.000,A,3748.7254,N,12217.9251,W,1.99,224.85,201011,,,A*73
$GPRMC,174652.000,A,3748.7256,N,12217.9259,W,2.18,221.37,201011,,,A*7C
$GPRMC,174653.000,A,3748.7254,N,12217.9264,W,2.18,217.50,201011,,,A*75
$GPRMC,174654.000,A,3748.7251,N,12217.9269,W,2.00,200.84,201011,,,A*7C
$GPRMC,174655.000,A,3748.7238,N,12217.9269,W,2.57,180.05,201011,,,A*72
$GPRMC,174656.000,A,3748.7231,N,12217.9270,W,2.40,184.99,201011,,,A*77
$GPRMC,174657.000,A,3748.7228,N,12217.9276,W,2.54,202.52,201011,,,A*77
$GPRMC,174658.000,A,3748.7223,N,12217.9286,W,2.64,217.30,201011,,,A*7F
$GPRMC,174659.000,A,3748.7218,N,12217.9297,W,2.53,216.80,201011,,,A*78
$GPRMC,174700.000,A,3748.7211,N,12217.9307,W,2.74,196.17,201011,,,A*74
$GPRMC,174701.000,A,3748.7200,N,12217.9312,W,2.43,188.48,201011,,,A*70
$GPRMC,174702.000,A,3748.7192,N,12217.9318,W,2.40,193.80,201011,,,A*7C
$GPRMC,174703.000,A,3748.7184,N,12217.9327,W,2.63,198.41,201011,,,A*71
$GPRMC,174704.000,A,3748.7177,N,12217.9334,W,2.77,202.51,201011,,,A*7C
$GPRMC,174705.000,A,3748.7167,N,12217.9338,W,2.56,205.75,201011,,,A*72
$GPRMC,174706.000,A,3748.7159,N,12217.9343,W,2.67,205.90,201011,,,A*79
$GPRMC,174707.000,A,3748.7149,N,12217.9352,W,2.68,204.53,201011,,,A*78
$GPRMC,174708.000,A,3748.7141,N,12217.9356,W,2.21,200.26,201011,,,A*70
$GPRMC,174709.000,A,3748.7131,N,12217.9359,W,2.38,197.76,201011,,,A*79
$GPRMC,174710.000,A,3748.7120,N,12217.9364,W,2.66,193.20,201011,,,A*73
$GPRMC,174711.000,A,3748.7110,N,12217.9367,W,2.65,188.10,201011,,,A*78
$GPRMC,174712.000,A,3748.7103,N,12217.9370,W,2.59,197.22,201011,,,A*7F
$GPRMC,174713.000,A,3748.7097,N,12217.9372,W,2.61,200.81,201011,,,A*7F
$GPRMC,174714.000,A,3748.7092,N,12217.9376,W,2.35,206.91,201011,,,A*7F
$GPRMC,174715.000,A,3748.7088,N,12217.9382,W,2.06,209.42,201011,,,A*7F
$GPRMC,174716.000,A,3748.7082,N,12217.9387,W,2.23,208.11,201011,,,A*73
$GPRMC,174717.000,A,3748.7074,N,12217.9393,W,2.25,207.44,201011,,,A*77
$GPRMC,174718.000,A,3748.7068,N,12217.9393,W,2.41,205.76,201011,,,A*74
$GPRMC,174719.000,A,3748.7061,N,12217.9397,W,2.56,212.43,201011,,,A*7E
$GPRMC,174720.000,A,3748.7051,N,12217.9403,W,2.71,201.07,201011,,,A*7A
$GPRMC,174721.000,A,3748.7044,N,12217.9403,W,2.52,193.55,201011,,,A*71
$GPRMC,174722.000,A,3748.7035,N,12217.9409,W,2.48,200.18,201011,,,A*75
$GPRMC,174723.000,A,3748.7025,N,12217.9416,W,2.70,213.76,201011,,,A*7A
$GPRMC,174724.000,A,3748.7017,N,12217.9424,W,2.59,211.23,201011,,,A*74
$GPRMC,174725.000,A,3748.7007,N,12217.9430,W,2.73,200.85,201011,,,A*75
$GPRMC,174726.000,A,3748.6997,N,12217.9438,W,2.38,193.15,201011,,,A*70
$GPRMC,174727.000,A,3748.6989,N,12217.9442,W,2.09,194.26,201011,,,A*76
$GPRMC,174728.000,A,3748.6982,N,12217.9447,W,2.31,190.29,201011,,,A*77
$GPRMC,174729.000,A,3748.6973,N,12217.9452,W,2.24,213.52,201011,,,A*7C
$GPRMC,174730.000,A,3748.6965,N,12217.9459,W,2.99,214.79,201011,,,A*70
$GPRMC,174731.000,A,3748.6960,N,12217.9466,W,2.39,214.10,201011,,,A*7D
$GPRMC,174732.000,A,3748.6954,N,12217.9469,W,2.28,217.15,201011,,,A*70
$GPRMC,174733.000,A,3748.6949,N,12217.9478,W,2.64,211.28,201011,,,A*7D
$GPRMC,174734.000,A,3748.6942,N,12217.9487,W,2.79,215.98,201011,,,A*72
$GPRMC,174735.000,A,3748.6942,N,12217.9493,W,2.31,204.73,201011,,,A*7F
$GPRMC,174736.000,A,3748.6937,N,12217.9498,W,2.52,197.34,201011,,,A*7A
$GPRMC,174737.000,A,3748.6932,N,12217.9500,W,2.44,194.84,201011,,,A*71
$GPRMC,174738.000,A,3748.6923,N,12217.9506,W,2.51,200.57,201011,,,A*7C
$GPRMC,174739.000,A,3748.6913,N,12217.9512,W,2.62,193.32,201011,,,A*71
$GPRMC,174740.000,A,3748.6906,N,12217.9516,W,2.53,194.82,201011,,,A*71
$GPRMC,174741.000,A,3748.6897,N,12217.9521,W,2.39,197.45,201011,,,A*79
$GPRMC,174742.000,A,3748.6889,N,12217.9529,W,2.18,200.80,201011,,,A*7A
$GPRMC,174743.000,A,3748.6882,N,12217.9535,W,2.54,207.67,201011,,,A*7B
$GPRMC,174744.000,A,3748.6877,N,12217.9544,W,2.77,208.69,201011,,,A*70
$GPRMC,174745.000,A,3748.6869,N,12217.9551,W,2.53,207.58,201011,,,A*71
$GPRMC,174746.000,A,3748.6865,N,12217.9555,W,2.31,199.04,201011,,,A*73
$GPRMC,174747.000,A,3748.6856,N,12217.9555,W,2.49,203.53,201011,,,A*7F
$GPRMC,174748.000,A,3748.6846,N,12217.9562,W,2.61,208.82,201011,,,A*78
$GPRMC,174749.000,A,3748.6840,N,12217.9568,W,2.46,204.58,201011,,,A*7B
$GPRMC,174750.000,A,3748.6833,N,12217.9576,W,2.71,203.03,201011,,,A*75
$GPRMC,174751.000,A,3748.6827,N,12217.9582,W,2.59,204.90,201011,,,A*7D
$GPRMC,174752.000,A,3748.6817,N,12217.9589,W,2.67,202.09,201011,,,A*7D
$GPRMC,174753.000,A,3748.6806,N,12217.9594,W,2.82,200.58,201011,,,A*7D
$GPRMC,174754.000,A,3748.6795,N,12217.9602,W,2.86,206.98,201011,,,A*7D
$GPRMC,174755.000,A,3748.6785,N,12217.9611,W,2.78,204.60,201011,,,A*7B
$GPRMC,174756.000,A,3748.6779,N,12217.9614,W,2.68,194.51,201011,,,A*77
$GPRMC,174757.000,A,3748.6777,N,12217.9620,W,2.48,201.12,201011,,,A*75
$GPRMC,174758.000,A,3748.6773,N,12217.9625,W,2.64,201.37,201011,,,A*72
$GPRMC,174759.000,A,3748.6771,N,12217.9631,W,2.19,201.96,201011,,,A*75
$GPRMC,174800.000,A,3748.6769,N,12217.9637,W,2.27,210.62,201011,,,A*7F
$GPRMC,174801.000,A,3748.6764,N,12217.9646,W,2.61,211.68,201011,,,A*7C
$GPRMC,174802.000,A,3748.6760,N,12217.9652,W,2.61,215.80,201011,,,A*7C
$GPRMC,174803.000,A,3748.6753,N,12217.9661,W,2.61,203.32,201011,,,A*73
$GPRMC,174804.000,A,3748.6740,N,12217.9671,W,2.83,197.46,201011,,,A*76
$GPRMC,174805.000,A,3748.6729,N,12217.9675,W,2.72,204.93,201011,,,A*73
$GPRMC,174806.000,A,3748.6723,N,12217.9680,W,2.52,206.89,201011,,,A*7B
$GPRMC,174807.000,A,3748.6715,N,12217.9682,W,2.35,191.51,201011,,,A*74
$GPRMC,174808.000,A,3748.6706,N,12217.9687,W,2.46,203.71,201011,,,A*72
$GPRMC,174809.000,A,3748.6698,N,12217.9693,W,2.87,215.80,201011,,,A*74
$GPRMC,174810.000,A,3748.6690,N,12217.9699,W,3.23,211.11,201011,,,A*7D
$GPRMC,174811.000,A,3748.6683,N,12217.9702,W,2.96,197.09,201011,,,A*76
$GPRMC,174812.000,A,3748.6678,N,12217.9701,W,2.71,194.52,201011,,,A*76
$GPRMC,174813.000,A,3748.6673,N,12217.9701,W,2.49,195.59,201011,,,A*7D
$GPRMC,174814.000,A,3748.6665,N,12217.9706,W,2.26,193.15,201011,,,A*7D
$GPRMC,174815.000,A,3748.6657,N,12217.9713,W,2.25,195.65,201011,,,A*7B
$GPRMC,174816.000,A,3748.6647,N,12217.9721,W,2.38,193.83,201011,,,A*7A
$GPRMC,174817.000,A,3748.6638,N,12217.9725,W,2.73,185.78,201011,,,A*7B
$GPRMC,174818.000,A,3748.6626,N,12217.9732,W,2.52,185.90,201011,,,A*78
$GPRMC,174819.000,A,3748.6619,N,12217.9736,W,2.23,191.87,201011,,,A*74
$GPRMC,174820.000,A,3748.6611,N,12217.9744,W,2.10,190.25,201011,,,A*7A
$GPRMC,174821.000,A,3748.6607,N,12217.9747,W,1.85,192.36,201011,,,A*70
$GPRMC,174822.000,A,3748.6605,N,12217.9749,W,1.84,193.34,201011,,,A*7D
$GPRMC,174823.000,A,3748.6600,N,12217.9754,W,1.96,200.25,201011,,,A*7F
$GPRMC,174824.000,A,3748.6595,N,12217.9759,W,2.06,194.14,201011,,,A*7C
$GPRMC,174825.000,A,3748.6590,N,12217.9766,W,2.27,199.97,201011,,,A*71
$GPRMC,174826.000,A,3748.6583,N,12217.9778,W,2.39,204.67,201011,,,A*78
$GPRMC,174827.000,A,3748.6577,N,12217.9790,W,2.40,209.60,201011,,,A*70
$GPRMC,174828.000,A,3748.6571,N,12217.9798,W,2.40,209.04,201011,,,A*73
$GPRMC,174829.000,A,3748.6568,N,12217.9804,W,2.53,206.21,201011,,,A*7A
$GPRMC,174830.000,A,3748.6560,N,12217.9813,W,2.61,202.41,201011,,,A*7F
$GPRMC,174831.000,A,3748.6557,N,12217.9817,W,2.31,204.45,201011,,,A*79
$GPRMC,174832.000,A,3748.6550,N,12217.9819,W,2.41,202.04,201011,,,A*77
$GPRMC,174833.000,A,3748.6545,N,12217.9824,W,2.77,207.16,201011,,,A*7F
$GPRMC,174834.000,A,3748.6538,N,12217.9828,W,2.58,200.93,201011,,,A*79
$GPRMC,174835.000,A,3748.6528,N,12217.9831,W,2.52,198.25,201011,,,A*74
$GPRMC,174836.000,A,3748.6521,N,12217.9832,W,2.31,191.76,201011,,,A*77
$GPRMC,174837.000,A,3748.6515,N,12217.9836,W,2.65,210.01,201011,,,A*7E
$GPRMC,174838.000,A,3748.6510,N,12217.9845,W,2.62,201.64,201011,,,A*74
$GPRMC,174839.000,A,3748.6506,N,12217.9853,W,2.34,202.82,201011,,,A*7D
$GPRMC,174840.000,A,3748.6501,N,12217.9859,W,2.39,201.23,201011,,,A*7B
$GPRMC,174841.000,A,3748.6499,N,12217.9862,W,1.73,196.85,201011,,,A*7E
$GPRMC,174842.000,A,3748.6493,N,12217.9862,W,1.65,196.73,201011,,,A*79
$GPRMC,174843.000,A,3748.6491,N,12217.9864,W,2.06,200.60,201011,,,A*74
$GPRMC,174844.000,A,3748.6484,N,12217.9870,W,2.30,205.90,201011,,,A*7D
$GPRMC,174845.000,A,3748.6478,N,12217.9876,W,2.16,201.49,201011,,,A*7D
$GPRMC,174846.000,A,3748.6472,N,12217.9882,W,1.97,199.21,201011,,,A*79
$GPRMC,174847.000,A,3748.6464,N,12217.9887,W,2.14,209.05,201011,,,A*7E
$GPRMC,174848.000,A,3748.6455,N,12217.9893,W,2.57,213.46,201011,,,A*7D
$GPRMC,174849.000,A,3748.6443,N,12217.9903,W,3.03,209.53,201011,,,A*7C
$GPRMC,174850.000,A,3748.6431,N,12217.9913,W,2.92,208.50,201011,,,A*7B
$GPRMC,174851.000,A,3748.6421,N,12217.9922,W,2.95,208.38,201011,,,A*70
$GPRMC,174852.000,A,3748.6413,N,12217.9925,W,2.78,211.83,201011,,,A*7E
$GPRMC,174853.000,A,3748.6406,N,12217.9927,W,2.84,208.11,201011,,,A*79
$GPRMC,174854.000,A,3748.6398,N,12217.9932,W,2.80,201.58,201011,,,A*7A
$GPRMC,174855.000,A,3748.6390,N,12217.9937,W,2.45,203.41,201011,,,A*75
$GPRMC,174856.000,A,3748.6383,N,12217.9938,W,2.32,199.21,201011,,,A*7D
$GPRMC,174857.000,A,3748.6374,N,12217.9946,W,2.72,207.12,201011,,,A*7D
$GPRMC,174858.000,A,3748.6367,N,12217.9953,W,2.45,202.33,201011,,,A*76
$GPRMC,174859.000,A,3748.6362,N,12217.9958,W,2.48,199.97,201011,,,A*7B
$GPRMC,174900.000,A,3748.6355,N,12217.9962,W,2.78,201.32,201011,,,A*75
$GPRMC,174901.000,A,3748.6350,N,12217.9968,W,2.77,209.32,201011,,,A*7C
$GPRMC,174902.000,A,3748.6343,N,12217.9975,W,2.29,211.09,201011,,,A*7B
$GPRMC,174903.000,A,3748.6338,N,12217.9982,W,2.59,209.67,201011,,,A*78
$GPRMC,174904.000,A,3748.6335,N,12217.9987,W,2.61,213.28,201011,,,A*7C
$GPRMC,174905.000,A,3748.6332,N,12217.9991,W,2.26,213.11,201011,,,A*74
$GPRMC,174906.000,A,3748.6324,N,12218.0000,W,2.49,211.11,201011,,,A*7C
$GPRMC,174907.000,A,3748.6321,N,12218.0006,W,2.19,206.25,201011,,,A*7A
$GPRMC,174908.000,A,3748.6319,N,12218.0010,W,2.32,207.00,201011,,,A*76
$GPRMC,174909.000,A,3748.6317,N,12218.0020,W,2.09,212.92,201011,,,A*7D
$GPRMC,174910.000,A,3748.6312,N,12218.0027,W,2.44,211.16,201011,,,A*71
$GPRMC,174911.000,A,3748.6305,N,12218.0034,W,2.66,213.79,201011,,,A*7F
$GPRMC,174912.000,A,3748.6291,N,12218.0045,W,3.12,207.70,201011,,,A*78
$GPRMC,174913.000,A,3748.6275,N,12218.0052,W,3.18,182.01,201011,,,A*77
$GPRMC,174914.000,A,3748.6260,N,12218.0048,W,3.09,152.03,201011,,,A*70
$GPRMC,174915.000,A,3748.6249,N,12218.0039,W,2.91,135.30,201011,,,A*7D
$GPRMC,174916.000,A,3748.6237,N,12218.0036,W,3.13,128.00,201011,,,A*7C
$GPRMC,174917.000,A,3748.6229,N,12218.0027,W,3.02,123.68,201011,,,A*77
$GPRMC,174918.000,A,3748.6223,N,12218.0018,W,2.90,118.76,201011,,,A*73
$GPRMC,174919.000,A,3748.6217,N,12218.0008,W,2.97,110.34,201011,,,A*7D
$GPRMC,174920.000,A,3748.6209,N,12217.9999,W,2.38,115.24,201011,,,A*7E
$GPRMC,174921.000,A,3748.6198,N,12217.9996,W,2.37,125.25,201011,,,A*76
$GPRMC,174922.000,A,3748.6190,N,12217.9986,W,2.72,120.78,201011,,,A*70
$GPRMC,174923.000,A,3748.6183,N,12217.9977,W,2.54,128.90,201011,,,A*77
$GPRMC,174924.000,A,3748.6173,N,12217.9975,W,2.34,130.85,201011,,,A*76
$GPRMC,174925.000,A,3748.6166,N,12217.9965,W,2.49,125.86,201011,,,A*7F
$GPRMC,174926.000,A,3748.6162,N,12217.9950,W,2.68,118.73,201011,,,A*79
$GPRMC,174927.000,A,3748.6158,N,12217.9937,W,2.54,123.02,201011,,,A*71
$GPRMC,174928.000,A,3748.6155,N,12217.9924,W,2.43,122.43,201011,,,A*73
$GPRMC,174929.000,A,3748.6151,N,12217.9914,W,2.63,120.93,201011,,,A*78
$GPRMC,174930.000,A,3748.6148,N,12217.9903,W,2.95,118.24,201011,,,A*70
$GPRMC,174931.000,A,3748.6143,N,12217.9891,W,2.88,116.83,201011,,,A*7F
$GPRMC,174932.000,A,3748.6140,N,12217.9879,W,2.88,120.71,201011,,,A*71
$GPRMC,174933.000,A,3748.6137,N,12217.9868,W,2.76,119.04,201011,,,A*79
$GPRMC,174934.000,A,3748.6134,N,12217.9857,W,2.68,113.28,201011,,,A*7A
$GPRMC,174935.000,A,3748.6131,N,12217.9848,W,2.49,110.20,201011,,,A*78
$GPRMC,174936.000,A,3748.6128,N,12217.9838,W,2.23,115.17,201011,,,A*79
$GPRMC,174937.000,A,3748.6124,N,12217.9830,W,2.49,126.69,201011,,,A*79
$GPRMC,174938.000,A,3748.6119,N,12217.9821,W,2.69,125.60,201011,,,A*70
$GPRMC,174939.000,A,3748.6114,N,12217.9811,W,2.85,124.46,201011,,,A*78
$GPRMC,174940.000,A,3748.6110,N,12217.9802,W,2.40,119.69,201011,,,A*7A
$GPRMC,174941.000,A,3748.6107,N,12217.9794,W,2.35,113.77,201011,,,A*7A
$GPRMC,174942.000,A,3748.6103,N,12217.9785,W,2.21,106.13,201011,,,A*7E
$GPRMC,174943.000,A,3748.6100,N,12217.9777,W,2.34,117.68,201011,,,A*79
$GPRMC,174944.000,A,3748.6096,N,12217.9771,W,2.51,120.61,201011,,,A*78
$GPRMC,174945.000,A,3748.6089,N,12217.9765,W,2.55,129.42,201011,,,A*7E
$GPRMC,174946.000,A,3748.6083,N,12217.9752,W,3.03,120.53,201011,,,A*78
$GPRMC,174947.000,A,3748.6077,N,12217.9742,W,2.34,115.58,201011,,,A*7B
$GPRMC,174948.000,A,3748.6072,N,12217.9731,W,2.57,119.61,201011,,,A*76
$GPRMC,174949.000,A,3748.6068,N,12217.9720,W,2.74,126.74,201011,,,A*75
$GPRMC,174950.000,A,3748.6062,N,12217.9711,W,1.87,120.26,201011,,,A*7B
$GPRMC,174951.000,A,3748.6058,N,12217.9704,W,2.07,118.83,201011,,,A*78
$GPRMC,174952.000,A,3748.6054,N,12217.9699,W,2.13,122.60,201011,,,A*73
$GPRMC,174953.000,A,3748.6051,N,12217.9691,W,1.76,108.28,201011,,,A*7B
$GPRMC,174954.000,A,3748.6049,N,12217.9682,W,2.13,106.51,201011,,,A*77
$GPRMC,174955.000,A,3748.6047,N,12217.9673,W,2.29,117.32,201011,,,A*7A
$GPRMC,174956.000,A,3748.6039,N,12217.9666,W,2.05,111.46,201011,,,A*7F
$GPRMC,174957.000,A,3748.6035,N,12217.9657,W,1.82,114.93,201011,,,A*71
$GPRMC,174958.000,A,3748.6033,N,12217.9649,W,2.37,113.85,201011,,,A*7A
$GPRMC,174959.000,A,3748.6030,N,12217.9643,W,2.44,115.41,201011,,,A*78
$GPRMC,175000.000,A,3748.6026,N,12217.9633,W,2.28,122.40,201011,,,A*73
$GPRMC,175001.000,A,3748.6021,N,12217.9626,W,2.51,118.82,201011,,,A*78
$GPRMC,175002.000,A,3748.6015,N,12217.9615,W,2.54,129.97,201011,,,A*7F
$GPRMC,175003.000,A,3748.6008,N,12217.9610,W,1.78,134.86,201011,,,A*76
$GPRMC,175004.000,A,3748.6001,N,12217.9603,W,2.52,117.71,201011,,,A*78
$GPRMC,175005.000,A,3748.5994,N,12217.9594,W,2.89,109.36,201011,,,A*78
$GPRMC,175006.000,A,3748.5990,N,12217.9582,W,2.67,110.60,201011,,,A*73
$GPRMC,175007.000,A,3748.5983,N,12217.9573,W,2.57,112.01,201011,,,A*78
$GPRMC,175008.000,A,3748.5977,N,12217.9566,W,2.55,127.28,201011,,,A*77
$GPRMC,175009.000,A,3748.5969,N,12217.9562,W,2.56,130.54,201011,,,A*73
$GPRMC,175010.000,A,3748.5962,N,12217.9558,W,2.62,132.38,201011,,,A*76
$GPRMC,175011.000,A,3748.5955,N,12217.9551,W,2.50,139.09,201011,,,A*72
$GPRMC,175012.000,A,3748.5948,N,12217.9543,W,2.63,125.07,201011,,,A*7D
$GPRMC,175013.000,A,3748.5942,N,12217.9536,W,2.98,122.45,201011,,,A*71
$GPRMC,175014.000,A,3748.5937,N,12217.9527,W,2.54,119.71,201011,,,A*7B
$GPRMC,175015.000,A,3748.5934,N,12217.9517,W,2.46,119.99,201011,,,A*7F
$GPRMC,175016.000,A,3748.5931,N,12217.9507,W,2.80,116.92,201011,,,A*76
$GPRMC,175017.000,A,3748.5929,N,12217.9495,W,2.68,122.58,201011,,,A*73
$GPRMC,175018.000,A,3748.5924,N,12217.9488,W,2.72,124.11,201011,,,A*7D
$GPRMC,175019.000,A,3748.5918,N,12217.9480,W,2.88,119.36,201011,,,A*75
$GPRMC,175020.000,A,3748.5914,N,12217.9468,W,2.79,122.42,201011,,,A*70
$GPRMC,175021.000,A,3748.5909,N,12217.9458,W,2.49,126.24,201011,,,A*79
$GPRMC,175022.000,A,3748.5900,N,12217.9456,W,2.43,133.97,201011,,,A*7B
$GPRMC,175023.000,A,3748.5893,N,12217.9448,W,2.67,132.04,201011,,,A*73
$GPRMC,175024.000,A,3748.5887,N,12217.9442,W,3.05,114.82,201011,,,A*74
$GPRMC,175025.000,A,3748.5883,N,12217.9435,W,2.89,112.82,201011,,,A*72
$GPRMC,175026.000,A,3748.5879,N,12217.9431,W,2.55,117.96,201011,,,A*71
$GPRMC,175027.000,A,3748.5875,N,12217.9424,W,2.40,135.01,201011,,,A*72
$GPRMC,175028.000,A,3748.5870,N,12217.9421,W,2.50,135.53,201011,,,A*7B
$GPRMC,175029.000,A,3748.5864,N,12217.9418,W,2.45,142.92,201011,,,A*7C
$GPRMC,175030.000,A,3748.5857,N,12217.9415,W,2.11,147.40,201011,,,A*72
$GPRMC,175031.000,A,3748.5848,N,12217.9419,W,2.07,164.66,201011,,,A*73
$GPRMC,175032.000,A,3748.5842,N,12217.9419,W,1.87,172.75,201011,,,A*74
$GPRMC,175033.000,A,3748.5834,N,12217.9423,W,2.09,187.33,201011,,,A*70
$GPRMC,175034.000,A,3748.5831,N,12217.9425,W,1.79,193.01,201011,,,A*74
$GPRMC,175035.000,A,3748.5828,N,12217.9427,W,2.33,205.37,201011,,,A*7B
$GPRMC,175036.000,A,3748.5824,N,12217.9428,W,2.11,200.86,201011,,,A*74
$GPRMC,175037.000,A,3748.5821,N,12217.9427,W,2.26,197.02,201011,,,A*7A
$GPRMC,175038.000,A,3748.5816,N,12217.9430,W,2.55,198.64,201011,,,A*7C
$GPRMC,175039.000,A,3748.5811,N,12217.9431,W,1.91,192.70,201011,,,A*7F
$GPRMC,175040.000,A,3748.5805,N,12217.9430,W,1.88,171.21,201011,,,A*74
$GPRMC,175041.000,A,3748.5798,N,12217.9430,W,1.93,170.98,201011,,,A*77
$GPRMC,175042.000,A,3748.5795,N,12217.9427,W,1.84,177.22,201011,,,A*7F
$GPRMC,175043.000,A,3748.5787,N,12217.9431,W,1.73,196.19,201011,,,A*75
$GPRMC,175044.000,A,3748.5781,N,12217.9438,W,1.92,212.61,201011,,,A*72
$GPRMC,175045.000,A,3748.5775,N,12217.9446,W,1.63,206.73,201011,,,A*79
$GPRMC,175046.000,A,3748.5768,N,12217.9454,W,1.69,201.86,201011,,,A*72
$GPRMC,175047.000,A,3748.5761,N,12217.9460,W,1.44,199.96,201011,,,A*71
$GPRMC,175048.000,A,3748.5756,N,12217.9461,W,1.68,198.08,201011,,,A*73
$GPRMC,175049.000,A,3748.5752,N,12217.9462,W,1.96,195.05,201011,,,A*74
$GPRMC,175050.000,A,3748.5747,N,12217.9461,W,1.74,197.89,201011,,,A*71
$GPRMC,175051.000,A,3748.5740,N,12217.9465,W,1.71,194.48,201011,,,A*78
$GPRMC,175052.000,A,3748.5736,N,12217.9467,W,1.94,205.41,201011,,,A*71
$GPRMC,175053.000,A,3748.5731,N,12217.9474,W,2.05,201.72,201011,,,A*7A
$GPRMC,175054.000,A,3748.5724,N,12217.9480,W,1.86,198.04,201011,,,A*78
$GPRMC,175055.000,A,3748.5720,N,12217.9484,W,1.94,197.21,201011,,,A*72
$GPRMC,175056.000,A,3748.5714,N,12217.9488,W,2.20,195.94,201011,,,A*7A
$GPRMC,175057.000,A,3748.5708,N,12217.9491,W,2.13,189.46,201011,,,A*7C
$GPRMC,175058.000,A,3748.5703,N,12217.9494,W,2.09,192.40,201011,,,A*7A
$GPRMC,175059.000,A,3748.5700,N,12217.9499,W,1.88,183.70,201011,,,A*7C
$GPRMC,175100.000,A,3748.5693,N,12217.9508,W,1.55,191.78,201011,,,A*78
$GPRMC,175101.000,A,3748.5685,N,12217.9515,W,1.92,207.97,201011,,,A*74
$GPRMC,175102.000,A,3748.5680,N,12217.9517,W,1.40,195.41,201011,,,A*7C
$GPRMC,175103.000,A,3748.5676,N,12217.9520,W,1.57,183.67,201011,,,A*75
$GPRMC,175104.000,A,3748.5671,N,12217.9522,W,1.76,189.27,201011,,,A*7A
$GPRMC,175105.000,A,3748.5662,N,12217.9529,W,1.73,197.36,201011,,,A*78
$GPRMC,175106.000,A,3748.5657,N,12217.9535,W,1.88,203.82,201011,,,A*75
$GPRMC,175107.000,A,3748.5653,N,12217.9539,W,1.44,190.28,201011,,,A*75
$GPRMC,175108.000,A,3748.5646,N,12217.9542,W,2.09,192.77,201011,,,A*70
$GPRMC,175109.000,A,3748.5640,N,12217.9549,W,2.00,207.47,201011,,,A*79
$GPRMC,175110.000,A,3748.5634,N,12217.9558,W,2.03,206.89,201011,,,A*72
$GPRMC,175111.000,A,3748.5625,N,12217.9566,W,2.16,207.36,201011,,,A*7F
$GPRMC,175112.000,A,3748.5617,N,12217.9572,W,2.50,201.27,201011,,,A*7C
$GPRMC,175113.000,A,3748.5609,N,12217.9580,W,2.32,207.55,201011,,,A*78
$GPRMC,175114.000,A,3748.5598,N,12217.9590,W,2.07,204.22,201011,,,A*70
$GPRMC,175115.000,A,3748.5588,N,12217.9597,W,2.14,205.04,201011,,,A*70
$GPRMC,175116.000,A,3748.5580,N,12217.9604,W,2.24,204.71,201011,,,A*72
$GPRMC,175117.000,A,3748.5571,N,12217.9608,W,2.49,209.75,201011,,,A*73
$GPRMC,175118.000,A,3748.5563,N,12217.9617,W,2.50,211.17,201011,,,A*74
$GPRMC,175119.000,A,3748.5555,N,12217.9624,W,2.62,210.72,201011,,,A*73
$GPRMC,175120.000,A,3748.5548,N,12217.9630,W,2.52,214.48,201011,,,A*7E
$GPRMC,175121.000,A,3748.5541,N,12217.9638,W,2.49,211.06,201011,,,A*7B
$GPRMC,175122.000,A,3748.5531,N,12217.9644,W,2.69,209.80,201011,,,A*71
$GPRMC,175123.000,A,3748.5519,N,12217.9649,W,2.59,206.90,201011,,,A*7A
$GPRMC,175124.000,A,3748.5509,N,12217.9653,W,2.62,207.19,201011,,,A*7F
$GPRMC,175125.000,A,3748.5503,N,12217.9659,W,2.97,207.86,201011,,,A*72
$GPRMC,175126.000,A,3748.5494,N,12217.9666,W,2.77,207.98,201011,,,A*73
$GPRMC,175127.000,A,3748.5488,N,12217.9672,W,2.53,208.03,201011,,,A*71
$GPRMC,175128.000,A,3748.5483,N,12217.9676,W,2.36,205.85,201011,,,A*71
$GPRMC,175129.000,A,3748.5478,N,12217.9680,W,2.11,205.48,201011,,,A*79
$GPRMC,175130.000,A,3748.5473,N,12217.9684,W,2.19,209.62,201011,,,A*72
$GPRMC,175131.000,A,3748.5469,N,12217.9688,W,2.48,206.82,201011,,,A*71
$GPRMC,175132.000,A,3748.5463,N,12217.9692,W,2.42,196.68,201011,,,A*77
$GPRMC,175133.000,A,3748.5454,N,12217.9698,W,2.62,199.30,201011,,,A*78
$GPRMC,175134.000,A,3748.5445,N,12217.9706,W,3.06,208.70,201011,,,A*75
$GPRMC,175135.000,A,3748.5436,N,12217.9714,W,2.60,208.68,201011,,,A*7B
$GPRMC,175136.000,A,3748.5428,N,12217.9722,W,2.33,208.78,201011,,,A*75
$GPRMC,175137.000,A,3748.5424,N,12217.9725,W,2.28,214.11,201011,,,A*77
$GPRMC,175138.000,A,3748.5418,N,12217.9731,W,2.27,213.27,201011,,,A*7F
$GPRMC,175139.000,A,3748.5416,N,12217.9735,W,2.48,210.33,201011,,,A*7B
$GPRMC,175140.000,A,3748.5407,N,12217.9745,W,2.14,205.32,201011,,,A*7E
$GPRMC,175141.000,A,3748.5401,N,12217.9750,W,2.18,197.21,201011,,,A*7B
$GPRMC,175142.000,A,3748.5395,N,12217.9753,W,2.14,192.00,201011,,,A*7B
$GPRMC,175143.000,A,3748.5388,N,12217.9756,W,1.99,185.78,201011,,,A*7C
$GPRMC,175144.000,A,3748.5380,N,12217.9761,W,2.16,182.36,201011,,,A*7E
$GPRMC,175145.000,A,3748.5371,N,12217.9766,W,2.07,179.06,201011,,,A*71
$GPRMC,175146.000,A,3748.5363,N,12217.9774,W,2.09,173.91,201011,,,A*78
$GPRMC,175147.000,A,3748.5356,N,12217.9776,W,2.01,165.35,201011,,,A*7C
$GPRMC,175148.000,A,3748.5352,N,12217.9774,W,1.63,175.61,201011,,,A*72
$GPRMC,175149.000,A,3748.5345,N,12217.9779,W,1.51,181.05,201011,,,A*70
$GPRMC,175150.000,A,3748.5340,N,12217.9783,W,1.60,204.40,201011,,,A*75
$GPRMC,175151.000,A,3748.5334,N,12217.9788,W,2.09,223.58,201011,,,A*7C
$GPRMC,175152.000,A,3748.5326,N,12217.9794,W,2.16,216.72,201011,,,A*71
$GPRMC,175153.000,A,3748.5319,N,12217.9799,W,1.95,196.89,201011,,,A*76
$GPRMC,175154.000,A,3748.5314,N,12217.9803,W,1.78,197.74,201011,,,A*70
$GPRMC,175155.000,A,3748.5306,N,12217.9808,W,1.54,198.72,201011,,,A*7E
$GPRMC,175156.000,A,3748.5297,N,12217.9814,W,1.62,196.46,201011,,,A*75
$GPRMC,175157.000,A,3748.5290,N,12217.9819,W,1.60,190.51,201011,,,A*7C
$GPRMC,175158.000,A,3748.5286,N,12217.9824,W,2.24,216.35,201011,,,A*76
$GPRMC,175159.000,A,3748.5282,N,12217.9829,W,2.00,205.36,201011,,,A*79
$GPRMC,175200.000,A,3748.5275,N,12217.9834,W,1.98,202.90,201011,,,A*7B
$GPRMC,175201.000,A,3748.5271,N,12217.9838,W,1.82,209.03,201011,,,A*78
$GPRMC,175202.000,A,3748.5270,N,12217.9842,W,1.66,212.63,201011,,,A*71
$GPRMC,175203.000,A,3748.5266,N,12217.9846,W,1.61,200.82,201011,,,A*78
$GPRMC,175204.000,A,3748.5263,N,12217.9850,W,1.48,214.76,201011,,,A*78
$GPRMC,175205.000,A,3748.5260,N,12217.9855,W,1.36,204.19,201011,,,A*7E
$GPRMC,175206.000,A,3748.5252,N,12217.9856,W,1.56,185.89,201011,,,A*7A
$GPRMC,175207.000,A,3748.5248,N,12217.9858,W,1.75,184.36,201011,,,A*7A
$GPRMC,175208.000,A,3748.5243,N,12217.9859,W,1.70,189.24,201011,,,A*74
$GPRMC,175209.000,A,3748.5238,N,12217.9863,W,2.07,199.83,201011,,,A*7F
$GPRMC,175210.000,A,3748.5229,N,12217.9870,W,1.98,188.63,201011,,,A*7E
$GPRMC,175211.000,A,3748.5223,N,12217.9871,W,2.01,197.43,201011,,,A*7B
$GPRMC,175212.000,A,3748.5215,N,12217.9876,W,1.89,198.45,201011,,,A*70
$GPRMC,175213.000,A,3748.5210,N,12217.9877,W,1.65,189.02,201011,,,A*74
$GPRMC,175214.000,A,3748.5203,N,12217.9882,W,2.12,187.71,201011,,,A*72
$GPRMC,175215.000,A,3748.5198,N,12217.9886,W,2.18,200.79,201011,,,A*78
$GPRMC,175216.000,A,3748.5193,N,12217.9891,W,1.97,202.37,201011,,,A*7A
$GPRMC,175217.000,A,3748.5183,N,12217.9901,W,1.68,210.05,201011,,,A*70
$GPRMC,175218.000,A,3748.5180,N,12217.9906,W,1.53,239.82,201011,,,A*77
$GPRMC,175219.000,A,3748.5175,N,12217.9913,W,1.60,225.44,201011,,,A*7F
$GPRMC,175220.000,A,3748.5164,N,12217.9923,W,1.80,201.53,201011,,,A*78
$GPRMC,175221.000,A,3748.5156,N,12217.9927,W,1.78,192.11,201011,,,A*74
$GPRMC,175222.000,A,3748.5151,N,12217.9929,W,1.37,193.34,201011,,,A*73
$GPRMC,175223.000,A,3748.5145,N,12217.9931,W,1.57,188.12,201011,,,A*76
$GPRMC,175224.000,A,3748.5137,N,12217.9936,W,1.83,188.25,201011,,,A*7E
$GPRMC,175225.000,A,3748.5128,N,12217.9942,W,1.36,196.80,201011,,,A*7C
$GPRMC,175226.000,A,3748.5123,N,12217.9954,W,1.39,198.68,201011,,,A*74
$GPRMC,175227.000,A,3748.5120,N,12217.9960,W,1.40,205.82,201011,,,A*7C
$GPRMC,175228.000,A,3748.5114,N,12217.9966,W,1.59,215.27,201011,,,A*74
$GPRMC,175229.000,A,3748.5107,N,12217.9974,W,2.05,211.66,201011,,,A*7F
$GPRMC,175230.000,A,3748.5103,N,12217.9981,W,1.72,215.50,201011,,,A*7B
$GPRMC,175231.000,A,3748.5096,N,12217.9990,W,1.21,222.06,201011,,,A*76
$GPRMC,175232.000,A,3748.5093,N,12217.9996,W,1.66,204.80,201011,,,A*7F
$GPRMC,175233.000,A,3748.5085,N,12218.0003,W,1.64,192.60,201011,,,A*7A
$GPRMC,175234.000,A,3748.5079,N,12218.0005,W,1.78,197.99,201011,,,A*76
$GPRMC,175235.000,A,3748.5073,N,12218.0013,W,1.49,204.86,201011,,,A*7F
$GPRMC,175236.000,A,3748.5067,N,12218.0022,W,1.54,196.27,201011,,,A*74
$GPRMC,175237.000,A,3748.5062,N,12218.0027,W,1.57,192.79,201011,,,A*79
$GPRMC,175238.000,A,3748.5055,N,12218.0032,W,1.61,192.88,201011,,,A*7D
$GPRMC,175239.000,A,3748.5048,N,12218.0038,W,2.00,183.38,201011,,,A*75
$GPRMC,175240.000,A,3748.5039,N,12218.0042,W,2.03,205.80,201011,,,A*7D
$GPRMC,175241.000,A,3748.5030,N,12218.0049,W,2.13,213.44,201011,,,A*70
$GPRMC,175242.000,A,3748.5022,N,12218.0057,W,2.36,213.90,201011,,,A*71
$GPRMC,175243.000,A,3748.5016,N,12218.0065,W,2.36,219.52,201011,,,A*72
$GPRMC,175244.000,A,3748.5009,N,12218.0069,W,2.22,212.50,201011,,,A*7B
$GPRMC,175245.000,A,3748.5000,N,12218.0078,W,2.26,207.91,201011,,,A*7E
$GPRMC,175246.000,A,3748.4991,N,12218.0085,W,2.69,204.42,201011,,,A*79
$GPRMC,175247.000,A,3748.4978,N,12218.0094,W,2.72,197.66,201011,,,A*7A
$GPRMC,175248.000,A,3748.4967,N,12218.0100,W,2.47,201.09,201011,,,A*74
$GPRMC,175249.000,A,3748.4956,N,12218.0105,W,2.27,205.04,201011,,,A*7D
$GPRMC,175250.000,A,3748.4947,N,12218.0107,W,1.77,205.60,201011,,,A*73
$GPRMC,175251.000,A,3748.4944,N,12218.0110,W,1.69,204.08,201011,,,A*77
$GPRMC,175252.000,A,3748.4936,N,12218.0115,W,1.58,190.40,201011,,,A*74
$GPRMC,175253.000,A,3748.4930,N,12218.0121,W,1.85,202.03,201011,,,A*7B
$GPRMC,175254.000,A,3748.4921,N,12218.0128,W,2.06,200.89,201011,,,A*7D
$GPRMC,175255.000,A,3748.4914,N,12218.0131,W,1.78,193.19,201011,,,A*78
$GPRMC,175256.000,A,3748.4911,N,12218.0132,W,1.32,178.91,201011,,,A*76
$GPRMC,175257.000,A,3748.4905,N,12218.0133,W,1.97,187.56,201011,,,A*77
$GPRMC,175258.000,A,3748.4897,N,12218.0140,W,2.12,204.01,201011,,,A*72
$GPRMC,175259.000,A,3748.4892,N,12218.0141,W,1.99,204.89,201011,,,A*77
$GPRMC,175300.000,A,3748.4882,N,12218.0143,W,2.39,207.34,201011,,,A*75
$GPRMC,175301.000,A,3748.4875,N,12218.0151,W,1.77,225.93,201011,,,A*7B
$GPRMC,175302.000,A,3748.4869,N,12218.0159,W,2.00,213.96,201011,,,A*7E
$GPRMC,175303.000,A,3748.4865,N,12218.0165,W,2.61,209.12,201011,,,A*7C
$GPRMC,175304.000,A,3748.4858,N,12218.0171,W,2.72,204.06,201011,,,A*7A
$GPRMC,175305.000,A,3748.4849,N,12218.0176,W,2.54,195.84,201011,,,A*79
$GPRMC,175306.000,A,3748.4840,N,12218.0182,W,2.52,198.88,201011,,,A*7F
$GPRMC,175307.000,A,3748.4832,N,12218.0191,W,2.51,202.92,201011,,,A*71
$GPRMC,175308.000,A,3748.4823,N,12218.0199,W,2.81,206.42,201011,,,A*72
$GPRMC,175309.000,A,3748.4813,N,12218.0206,W,2.65,202.31,201011,,,A*7F
$GPRMC,175310.000,A,3748.4804,N,12218.0215,W,2.70,216.27,201011,,,A*75
$GPRMC,175311.000,A,3748.4799,N,12218.0219,W,2.39,209.00,201011,,,A*75
$GPRMC,175312.000,A,3748.4792,N,12218.0223,W,2.31,193.56,201011,,,A*7F
$GPRMC,175313.000,A,3748.4783,N,12218.0232,W,2.54,197.48,201011,,,A*76
$GPRMC,175314.000,A,3748.4773,N,12218.0242,W,2.50,192.13,201011,,,A*76
$GPRMC,175315.000,A,3748.4765,N,12218.0247,W,2.47,191.64,201011,,,A*70
$GPRMC,175316.000,A,3748.4758,N,12218.0250,W,2.59,197.40,201011,,,A*74
$GPRMC,175317.000,A,3748.4748,N,12218.0259,W,2.70,202.62,201011,,,A*79
$GPRMC,175318.000,A,3748.4739,N,12218.0269,W,2.83,204.90,201011,,,A*74
$GPRMC,175319.000,A,3748.4730,N,12218.0277,W,2.68,205.44,201011,,,A*7E
$GPRMC,175320.000,A,3748.4723,N,12218.0280,W,2.57,203.13,201011,,,A*76
$GPRMC,175321.000,A,3748.4716,N,12218.0284,W,2.35,200.51,201011,,,A*74
$GPRMC,175322.000,A,3748.4710,N,12218.0288,W,2.36,198.55,201011,,,A*78
$GPRMC,175323.000,A,3748.4701,N,12218.0295,W,2.53,195.86,201011,,,A*75
$GPRMC,175324.000,A,3748.4693,N,12218.0303,W,2.63,196.09,201011,,,A*71
$GPRMC,175325.000,A,3748.4685,N,12218.0311,W,2.93,194.92,201011,,,A*7B
$GPRMC,175326.000,A,3748.4675,N,12218.0320,W,3.33,188.08,201011,,,A*70
$GPRMC,175327.000,A,3748.4665,N,12218.0324,W,3.17,185.51,201011,,,A*73
$GPRMC,175328.000,A,3748.4659,N,12218.0325,W,2.58,194.40,201011,,,A*78
$GPRMC,175329.000,A,3748.4651,N,12218.0329,W,2.63,197.08,201011,,,A*7A
$GPRMC,175330.000,A,3748.4641,N,12218.0334,W,2.52,191.03,201011,,,A*70
$GPRMC,175331.000,A,3748.4635,N,12218.0337,W,2.43,189.43,201011,,,A*7C
$GPRMC,175332.000,A,3748.4632,N,12218.0337,W,1.83,184.29,201011,,,A*76
$GPRMC,175333.000,A,3748.4624,N,12218.0340,W,2.29,186.14,201011,,,A*7F
$GPRMC,175334.000,A,3748.4617,N,12218.0344,W,2.28,182.71,201011,,,A*7A
$GPRMC,175335.000,A,3748.4609,N,12218.0349,W,1.63,200.22,201011,,,A*7A
$GPRMC,175336.000,A,3748.4605,N,12218.0354,W,1.16,196.32,201011,,,A*76
$GPRMC,175337.000,A,3748.4605,N,12218.0353,W,0.75,209.30,201011,,,A*73
$GPRMC,175338.000,A,3748.4601,N,12218.0356,W,1.59,214.34,201011,,,A*7A
$GPRMC,175339.000,A,3748.4595,N,12218.0358,W,2.08,200.08,201011,,,A*76
$GPRMC,175339.000,A,3748.4587,N,12218.0362,W,2.04,201.72,201011,,,A*7C
$GPRMC,175340.000,A,3748.4580,N,12218.0366,W,2.36,198.93,201011,,,A*7C
$GPRMC,175341.000,A,3748.4575,N,12218.0366,W,1.82,171.81,201011,,,A*7F
$GPRMC,175342.000,A,3748.4569,N,12218.0366,W,2.00,172.93,201011,,,A*78
$GPRMC,175343.000,A,3748.4562,N,12218.0367,W,1.60,191.46,201011,,,A*73
$GPRMC,175344.000,A,3748.4555,N,12218.0371,W,1.82,202.58,201011,,,A*7D
$GPRMC,175345.000,A,3748.4546,N,12218.0377,W,1.59,194.23,201011,,,A*7E
$GPRMC,175346.000,A,3748.4539,N,12218.0380,W,1.69,176.77,201011,,,A*73
$GPRMC,175347.000,A,3748.4535,N,12218.0385,W,1.71,192.05,201011,,,A*7D
$GPRMC,175348.000,A,3748.4528,N,12218.0392,W,1.87,199.48,201011,,,A*73
$GPRMC,175349.000,A,3748.4520,N,12218.0395,W,2.25,202.02,201011,,,A*79
$GPRMC,175350.000,A,3748.4513,N,12218.0399,W,2.14,204.85,201011,,,A*76
$GPRMC,175351.000,A,3748.4504,N,12218.0402,W,2.72,195.03,201011,,,A*71
$GPRMC,175352.000,A,3748.4498,N,12218.0405,W,1.93,202.91,201011,,,A*7B
$GPRMC,175353.000,A,3748.4492,N,12218.0409,W,2.37,195.13,201011,,,A*76
$GPRMC,175354.000,A,3748.4483,N,12218.0412,W,2.64,189.78,201011,,,A*7D
$GPRMC,175355.000,A,3748.4474,N,12218.0415,W,2.45,179.45,201011,,,A*71
$GPRMC,175356.000,A,3748.4465,N,12218.0420,W,2.07,176.50,201011,,,A*79
$GPRMC,175357.000,A,3748.4456,N,12218.0423,W,1.79,186.28,201011,,,A*71
$GPRMC,175358.000,A,3748.4451,N,12218.0425,W,1.38,188.47,201011,,,A*7D
$GPRMC,175359.000,A,3748.4446,N,12218.0428,W,1.29,190.22,201011,,,A*7D
$GPRMC,175400.000,A,3748.4441,N,12218.0429,W,1.29,184.61,201011,,,A*72
$GPRMC,175401.000,A,3748.4437,N,12218.0428,W,1.11,163.08,201011,,,A*7E
$GPRMC,175402.000,A,3748.4431,N,12218.0429,W,1.72,162.58,201011,,,A*7B
$GPRMC,175403.000,A,3748.4423,N,12218.0433,W,2.20,177.28,201011,,,A*75
$GPRMC,175404.000,A,3748.4418,N,12218.0431,W,2.21,166.36,201011,,,A*76
$GPRMC,175405.000,A,3748.4411,N,12218.0429,W,1.95,154.84,201011,,,A*73
$GPRMC,175406.000,A,3748.4404,N,12218.0428,W,1.97,167.84,201011,,,A*77
$GPRMC,175407.000,A,3748.4397,N,12218.0430,W,1.74,171.08,201011,,,A*7C
$GPRMC,175408.000,A,3748.4392,N,12218.0431,W,1.42,154.19,201011,,,A*75
$GPRMC,175409.000,A,3748.4387,N,12218.0430,W,1.72,177.94,201011,,,A*76
$GPRMC,175410.000,A,3748.4382,N,12218.0432,W,1.44,170.66,201011,,,A*76
$GPRMC,175411.000,A,3748.4377,N,12218.0434,W,1.51,164.68,201011,,,A*74
$GPRMC,175412.000,A,3748.4371,N,12218.0437,W,1.38,180.90,201011,,,A*70
$GPRMC,175413.000,A,3748.4365,N,12218.0441,W,1.53,194.06,201011,,,A*72
$GPRMC,175414.000,A,3748.4359,N,12218.0444,W,1.82,185.94,201011,,,A*78
$GPRMC,175415.000,A,3748.4355,N,12218.0443,W,1.26,161.99,201011,,,A*7B
$GPRMC,175416.000,A,3748.4352,N,12218.0444,W,1.61,185.74,201011,,,A*72
$GPRMC,175417.000,A,3748.4345,N,12218.0447,W,1.69,183.69,201011,,,A*74
$GPRMC,175418.000,A,3748.4338,N,12218.0450,W,2.31,191.83,201011,,,A*7E
$GPRMC,175419.000,A,3748.4332,N,12218.0453,W,1.72,193.03,201011,,,A*78
$GPRMC,175420.000,A,3748.4322,N,12218.0459,W,1.30,173.18,201011,,,A*7B
$GPRMC,175421.000,A,3748.4313,N,12218.0464,W,1.44,175.09,201011,,,A*73
$GPRMC,175422.000,A,3748.4308,N,12218.0465,W,1.58,185.13,201011,,,A*72
$GPRMC,175423.000,A,3748.4304,N,12218.0466,W,1.78,186.98,201011,,,A*7E
$GPRMC,175424.000,A,3748.4300,N,12218.0468,W,0.85,165.30,201011,,,A*7F
$GPRMC,175425.000,A,3748.4294,N,12218.0473,W,1.01,175.22,201011,,,A*77
$GPRMC,175426.000,A,3748.4286,N,12218.0475,W,1.68,189.49,201011,,,A*70
$GPRMC,175427.000,A,3748.4278,N,12218.0477,W,1.64,177.83,201011,,,A*79
$GPRMC,175428.000,A,3748.4271,N,12218.0480,W,2.33,189.44,201011,,,A*7C
$GPRMC,175429.000,A,3748.4260,N,12218.0485,W,2.36,193.14,201011,,,A*73
$GPRMC,175430.000,A,3748.4250,N,12218.0489,W,2.34,188.41,201011,,,A*7C
$GPRMC,175431.000,A,3748.4242,N,12218.0492,W,1.85,198.27,201011,,,A*7C
$GPRMC,175432.000,A,3748.4234,N,12218.0495,W,1.99,202.21,201011,,,A*72
$GPRMC,175433.000,A,3748.4225,N,12218.0498,W,2.10,209.11,201011,,,A*74
$GPRMC,175434.000,A,3748.4215,N,12218.0502,W,2.53,181.02,201011,,,A*74
$GPRMC,175435.000,A,3748.4204,N,12218.0505,W,2.57,184.07,201011,,,A*76
$GPRMC,175436.000,A,3748.4194,N,12218.0510,W,3.00,193.74,201011,,,A*7A
$GPRMC,175437.000,A,3748.4187,N,12218.0515,W,2.78,191.25,201011,,,A*74
$GPRMC,175438.000,A,3748.4173,N,12218.0523,W,2.88,181.79,201011,,,A*72
$GPRMC,175439.000,A,3748.4166,N,12218.0525,W,2.50,183.07,201011,,,A*7F
$GPRMC,175440.000,A,3748.4158,N,12218.0529,W,2.65,182.69,201011,,,A*7F
$GPRMC,175441.000,A,3748.4148,N,12218.0534,W,2.77,187.99,201011,,,A*7A
$GPRMC,175442.000,A,3748.4139,N,12218.0539,W,2.72,188.33,201011,,,A*78
$GPRMC,175443.000,A,3748.4128,N,12218.0543,W,2.58,186.35,201011,,,A*74
$GPRMC,175444.000,A,3748.4119,N,12218.0546,W,2.49,181.60,201011,,,A*73
$GPRMC,175445.000,A,3748.4112,N,12218.0548,W,2.75,196.93,201011,,,A*72
$GPRMC,175446.000,A,3748.4105,N,12218.0550,W,2.64,195.43,201011,,,A*70
$GPRMC,175447.000,A,3748.4097,N,12218.0555,W,2.76,200.86,201011,,,A*7B
$GPRMC,175448.000,A,3748.4090,N,12218.0560,W,2.57,195.09,201011,,,A*7E
$GPRMC,175449.000,A,3748.4084,N,12218.0563,W,1.78,186.56,201011,,,A*7F
$GPRMC,175450.000,A,3748.4079,N,12218.0564,W,1.82,200.00,201011,,,A*79
$GPRMC,175451.000,A,3748.4074,N,12218.0569,W,2.09,227.18,201011,,,A*74
$GPRMC,175452.000,A,3748.4077,N,12218.0574,W,2.30,260.71,201011,,,A*7E
$GPRMC,175453.000,A,3748.4080,N,12218.0581,W,2.40,259.41,201011,,,A*73
$GPRMC,175454.000,A,3748.4085,N,12218.0591,W,2.47,261.01,201011,,,A*78
$GPRMC,175455.000,A,3748.4091,N,12218.0598,W,2.31,277.84,201011,,,A*7E
$GPRMC,175456.000,A,3748.4097,N,12218.0605,W,2.43,270.96,201011,,,A*7D
$GPRMC,175457.000,A,3748.4098,N,12218.0615,W,2.34,272.33,201011,,,A*7F
$GPRMC,175458.000,A,3748.4098,N,12218.0623,W,2.23,268.53,201011,,,A*7E
$GPRMC,175459.000,A,3748.4101,N,12218.0633,W,2.00,257.89,201011,,,A*75
$GPRMC,175500.000,A,3748.4107,N,12218.0641,W,2.04,257.33,201011,,,A*7E
$GPRMC,175501.000,A,3748.4108,N,12218.0648,W,2.42,247.94,201011,,,A*77
$GPRMC,175502.000,A,3748.4108,N,12218.0657,W,2.56,238.87,201011,,,A*75
$GPRMC,175503.000,A,3748.4109,N,12218.0668,W,2.31,241.47,201011,,,A*7A
$GPRMC,175504.000,A,3748.4109,N,12218.0675,W,2.15,251.75,201011,,,A*77
$GPRMC,175505.000,A,3748.4109,N,12218.0684,W,2.30,256.03,201011,,,A*79
$GPRMC,175506.000,A,3748.4109,N,12218.0695,W,2.47,257.68,201011,,,A*76
$GPRMC,175507.000,A,3748.4112,N,12218.0705,W,2.00,251.85,201011,,,A*73
$GPRMC,175508.000,A,3748.4111,N,12218.0712,W,2.13,251.99,201011,,,A*76
$GPRMC,175509.000,A,3748.4115,N,12218.0720,W,2.46,274.40,201011,,,A*71
$GPRMC,175510.000,A,3748.4120,N,12218.0731,W,2.84,275.60,201011,,,A*72
$GPRMC,175511.000,A,3748.4122,N,12218.0738,W,2.12,263.16,201011,,,A*71
$GPRMC,175512.000,A,3748.4125,N,12218.0746,W,2.01,253.48,201011,,,A*76
$GPRMC,175513.000,A,3748.4126,N,12218.0753,W,1.89,247.22,201011,,,A*7A
$GPRMC,175514.000,A,3748.4124,N,12218.0754,W,1.63,267.08,201011,,,A*76
$GPRMC,175515.000,A,3748.4128,N,12218.0755,W,1.82,253.78,201011,,,A*75
$GPRMC,175516.000,A,3748.4129,N,12218.0761,W,1.42,259.20,201011,,,A*7B
$GPRMC,175517.000,A,3748.4129,N,12218.0764,W,1.88,277.21,201011,,,A*74
$GPRMC,175518.000,A,3748.4135,N,12218.0769,W,2.14,289.66,201011,,,A*7F
$GPRMC,175519.000,A,3748.4134,N,12218.0778,W,2.15,283.43,201011,,,A*73
$GPRMC,175520.000,A,3748.4135,N,12218.0789,W,2.36,287.63,201011,,,A*71
$GPRMC,175521.000,A,3748.4140,N,12218.0796,W,2.06,307.95,201011,,,A*7F
$GPRMC,175522.000,A,3748.4143,N,12218.0805,W,1.35,296.58,201011,,,A*71
$GPRMC,175523.000,A,3748.4147,N,12218.0812,W,1.44,306.38,201011,,,A*7A
$GPRMC,175524.000,A,3748.4151,N,12218.0819,W,1.17,326.88,201011,,,A*7E
$GPRMC,175525.000,A,3748.4152,N,12218.0824,W,1.25,287.40,201011,,,A*7D
$GPRMC,175526.000,A,3748.4145,N,12218.0834,W,2.14,273.01,201011,,,A*76
$GPRMC,175527.000,A,3748.4145,N,12218.0850,W,2.58,273.81,201011,,,A*75
$GPRMC,175528.000,A,3748.4144,N,12218.0865,W,2.22,281.56,201011,,,A*77
$GPRMC,175529.000,A,3748.4144,N,12218.0877,W,1.77,298.19,201011,,,A*75
$GPRMC,175530.000,A,3748.4154,N,12218.0879,W,1.76,305.44,201011,,,A*7E
$GPRMC,175531.000,A,3748.4165,N,12218.0880,W,1.56,331.33,201011,,,A*7E
$GPRMC,175532.000,A,3748.4177,N,12218.0885,W,1.66,341.25,201011,,,A*78
$GPRMC,175533.000,A,3748.4184,N,12218.0894,W,2.25,314.67,201011,,,A*77
$GPRMC,175534.000,A,3748.4189,N,12218.0906,W,2.15,323.63,201011,,,A*74
$GPRMC,175535.000,A,3748.4191,N,12218.0912,W,1.90,321.71,201011,,,A*76
$GPRMC,175536.000,A,3748.4193,N,12218.0919,W,1.33,314.22,201011,,,A*75
$GPRMC,175537.000,A,3748.4196,N,12218.0926,W,1.65,326.00,201011,,,A*7F
$GPRMC,175538.000,A,3748.4198,N,12218.0932,W,1.24,318.60,201011,,,A*75
$GPRMC,175539.000,A,3748.4201,N,12218.0939,W,1.54,294.14,201011,,,A*7D
$GPRMC,175540.000,A,3748.4196,N,12218.0954,W,2.27,270.83,201011,,,A*76
$GPRMC,175541.000,A,3748.4192,N,12218.0980,W,2.46,278.81,201011,,,A*77
$GPRMC,175542.000,A,3748.4190,N,12218.0996,W,2.39,273.56,201011,,,A*78
$GPRMC,175543.000,A,3748.4191,N,12218.1011,W,2.81,289.33,201011,,,A*7A
$GPRMC,175544.000,A,3748.4194,N,12218.1024,W,2.45,287.25,201011,,,A*7F
$GPRMC,175545.000,A,3748.4200,N,12218.1033,W,2.14,287.56,201011,,,A*76
$GPRMC,175546.000,A,3748.4204,N,12218.1042,W,1.86,282.41,201011,,,A*7C
$GPRMC,175547.000,A,3748.4208,N,12218.1050,W,2.05,281.67,201011,,,A*7D
$GPRMC,175548.000,A,3748.4213,N,12218.1058,W,2.18,285.99,201011,,,A*79
$GPRMC,175549.000,A,3748.4219,N,12218.1068,W,2.15,280.02,201011,,,A*7B
$GPRMC,175550.000,A,3748.4223,N,12218.1085,W,2.43,289.17,201011,,,A*77
$GPRMC,175551.000,A,3748.4232,N,12218.1096,W,2.37,297.03,201011,,,A*7D
$GPRMC,175552.000,A,3748.4239,N,12218.1106,W,2.30,290.97,201011,,,A*70
$GPRMC,175553.000,A,3748.4241,N,12218.1115,W,2.41,292.04,201011,,,A*72
$GPRMC,175554.000,A,3748.4245,N,12218.1122,W,2.48,286.64,201011,,,A*7F
$GPRMC,175555.000,A,3748.4249,N,12218.1131,W,2.59,291.25,201011,,,A*73
$GPRMC,175556.000,A,3748.4253,N,12218.1139,W,2.76,302.09,201011,,,A*7B
$GPRMC,175557.000,A,3748.4259,N,12218.1147,W,2.77,298.51,201011,,,A*77
$GPRMC,175558.000,A,3748.4265,N,12218.1155,W,2.83,292.05,201011,,,A*74
$GPRMC,175559.000,A,3748.4270,N,12218.1166,W,2.86,288.62,201011,,,A*7E
$GPRMC,175600.000,A,3748.4270,N,12218.1175,W,2.54,289.75,201011,,,A*7B
$GPRMC,175601.000,A,3748.4272,N,12218.1184,W,2.53,290.94,201011,,,A*76
$GPRMC,175602.000,A,3748.4274,N,12218.1193,W,2.58,290.34,201011,,,A*74
$GPRMC,175603.000,A,3748.4275,N,12218.1200,W,1.56,292.20,201011,,,A*77
$GPRMC,175604.000,A,3748.4277,N,12218.1207,W,1.46,295.75,201011,,,A*73
$GPRMC,175605.000,A,3748.4278,N,12218.1213,W,1.70,295.39,201011,,,A*75
$GPRMC,175606.000,A,3748.4282,N,12218.1220,W,2.22,283.51,201011,,,A*7E
$GPRMC,175607.000,A,3748.4285,N,12218.1228,W,2.23,288.62,201011,,,A*7A
$GPRMC,175608.000,A,3748.4288,N,12218.1237,W,2.78,298.27,201011,,,A*78
$GPRMC,175609.000,A,3748.4293,N,12218.1247,W,2.91,301.10,201011,,,A*76
$GPRMC,175610.000,A,3748.4298,N,12218.1255,W,2.42,303.30,201011,,,A*78
$GPRMC,175611.000,A,3748.4297,N,12218.1264,W,2.63,289.03,201011,,,A*74
$GPRMC,175612.000,A,3748.4302,N,12218.1273,W,2.46,285.33,201011,,,A*74
$GPRMC,175613.000,A,3748.4307,N,12218.1280,W,1.86,304.56,201011,,,A*78
$GPRMC,175614.000,A,3748.4312,N,12218.1288,W,2.48,301.50,201011,,,A*71
$GPRMC,175615.000,A,3748.4321,N,12218.1295,W,2.54,315.42,201011,,,A*77
$GPRMC,175616.000,A,3748.4329,N,12218.1300,W,2.21,313.96,201011,,,A*7C
$GPRMC,175617.000,A,3748.4332,N,12218.1305,W,1.54,317.01,201011,,,A*79
$GPRMC,175618.000,A,3748.4335,N,12218.1308,W,1.68,340.56,201011,,,A*73
$GPRMC,175619.000,A,3748.4340,N,12218.1308,W,2.25,357.49,201011,,,A*72
$GPRMC,175620.000,A,3748.4345,N,12218.1308,W,2.16,348.20,201011,,,A*7C
$GPRMC,175621.000,A,3748.4350,N,12218.1307,W,1.89,2.76,201011,,,A*7D
$GPRMC,175622.000,A,3748.4356,N,12218.1304,W,2.26,12.76,201011,,,A*4C
$GPRMC,175623.000,A,3748.4362,N,12218.1302,W,2.40,12.60,201011,,,A*4B
$GPRMC,175624.000,A,3748.4368,N,12218.1298,W,2.32,13.50,201011,,,A*43
$GPRMC,175625.000,A,3748.4374,N,12218.1296,W,2.27,13.97,201011,,,A*4E
$GPRMC,175626.000,A,3748.4381,N,12218.1293,W,2.29,6.32,201011,,,A*77
$GPRMC,175627.000,A,3748.4387,N,12218.1290,W,2.93,8.57,201011,,,A*7F
$GPRMC,175628.000,A,3748.4395,N,12218.1289,W,2.80,10.22,201011,,,A*42
$GPRMC,175629.000,A,3748.4403,N,12218.1285,W,2.50,10.58,201011,,,A*47
$GPRMC,175630.000,A,3748.4411,N,12218.1281,W,2.62,15.39,201011,,,A*4B
$GPRMC,175631.000,A,3748.4416,N,12218.1277,W,2.38,7.85,201011,,,A*7F
$GPRMC,175632.000,A,3748.4423,N,12218.1274,W,2.84,15.15,201011,,,A*44
$GPRMC,175633.000,A,3748.4430,N,12218.1269,W,2.93,17.07,201011,,,A*4C
$GPRMC,175634.000,A,3748.4437,N,12218.1264,W,2.98,15.20,201011,,,A*4D
$GPRMC,175635.000,A,3748.4445,N,12218.1260,W,2.94,17.81,201011,,,A*48
$GPRMC,175636.000,A,3748.4454,N,12218.1258,W,3.06,8.20,201011,,,A*7F
$GPRMC,175637.000,A,3748.4462,N,12218.1256,W,2.60,10.59,201011,,,A*43
$GPRMC,175638.000,A,3748.4470,N,12218.1257,W,2.84,9.55,201011,,,A*70
