$ADVER,3080,2.3
$GPRMC,174133.421,A,3748.7996,N,12217.8600,W,0.18,161.01,201011,,,A*75
$GPGGA,174134.421,3748.7987,N,12217.8598,W,1,05,1.8,-2.6,M,-25.1,M,,0000*41
$GPGSA,A,3,09,12,15,17,28,,,,,,,,3.3,1.8,2.8*33
$GPRMC,174134.421,A,3748.7987,N,12217.8598,W,0.19,176.19,201011,,,A*7E
$GPVTG,176.19,T,,M,0.19,N,0.4,K,A*09
$GPGGA,174135.000,3748.7974,N,12217.8599,W,1,05,1.8,-2.1,M,-25.1,M,,0000*4D
$GPGSA,A,3,09,12,15,17,28,,,,,,,,3.3,1.8,2.8*33
$GPRMC,174135.000,A,3748.7974,N,12217.8599,W,0.07,354.71,201011,,,A*76
$GPVTG,354.71,T,,M,0.07,N,0.1,K,A*0F
$GPGGA,174136.000,3748.7985,N,12217.8602,W,1,05,1.8,-2.9,M,-25.1,M,,0000*49
$GPGSA,A,3,09,12,15,17,28,,,,,,,,3.3,1.8,2.8*33
$GPRMC,174136.000,A,3748.7985,N,12217.8602,W,0.15,338.51,201011,,,A*71
$GPVTG,338.51,T,,M,0.15,N,0.3,K,A*06
$GPGGA,174137.000,3748.7985,N,12217.8608,W,1,05,1.8,-2.2,M,-25.1,M,,0000*49
$GPGSA,A,3,09,12,15,17,28,,,,,,,,3.3,1.8,2.8*33
$GPRMC,174137.000,A,3748.7985,N,12217.8608,W,0.13,209.66,201011,,,A*7B
$GPVTG,209.66,T,,M,0.13,N,0.2,K,A*06
$GPGGA,174138.000,3748.7981,N,12217.8618,W,1,05,1.8,-2.2,M,-25.1,M,,0000*43
$GPGSA,A,3,09,12,15,17,28,,,,,,,,3.3,1.8,2.8*33
$GPGSV,3,1,10,27,64,284,35,17,51,043,27,09,50,304,34,28,27,089,27*72
$GPGSV,3,2,10,12,18,295,36,15,16,240,39,04,49,139,27,02,24,181,38*77
$GPGSV,3,3,10,26,08,204,,48,00,000,41*7B
$GPRMC,174138.000,A,3748.7981,N,12217.8618,W,0.32,188.19,201011,,,A*70
$GPVTG,188.19,T,,M,0.32,N,0.6,K,A*03
$GPGGA,174139.000,3748.7981,N,12217.8621,W,1,05,1.8,-1.9,M,-25.1,M,,0000*40
$GPGSA,A,3,09,12,15,17,28,,,,,,,,3.3,1.8,2.8*33
$GPRMC,174139.000,A,3748.7981,N,12217.8621,W,0.31,198.47,201011,,,A*72
$GPVTG,198.47,T,,M,0.31,N,0.6,K,A*0A
$GPGGA,174140.000,3748.7982,N,12217.8622,W,1,05,1.8,-1.5,M,-25.1,M,,0000*42
$GPGSA,A,3,09,12,15,17,28,,,,,,,,3.3,1.8,2.8*33
$GPRMC,174140.000,A,3748.7982,N,12217.8622,W,0.12,184.37,201011,,,A*77
$GPVTG,184.37,T,,M,0.12,N,0.2,K,A*05
$GPGGA,174141.000,3748.7984,N,12217.8622,W,1,05,1.8,-1.2,M,-25.1,M,,0000*42
$GPGSA,A,3,09,12,15,17,28,,,,,,,,3.3,1.8,2.8*33
$GPRMC,174141.000,A,3748.7984,N,12217.8622,W,0.11,128.95,201011,,,A*7D
$GPVTG,128.95,T,,M,0.11,N,0.2,K,A*08
$GPGGA,174142.000,3748.7985,N,12217.8622,W,1,05,1.8,-0.8,M,-25.1,M,,0000*4B
$GPGSA,A,3,09,12,15,17,28,,,,,,,,3.3,1.8,2.8*33
$GPRMC,174142.000,A,3748.7985,N,12217.8622,W,0.20,133.25,201011,,,A*7C
$GPVTG,133.25,T,,M,0.20,N,0.4,K,A*0D
$GPGGA,174143.000,3748.7985,N,12217.8622,W,1,05,1.8,-0.5,M,-25.1,M,,0000*47
$GPGSA,A,3,09,12,15,17,28,,,,,,,,3.3,1.8,2.8*33
$GPGSV,3,1,10,27,64,284,36,17,51,043,41,09,50,304,40,28,27,089,32*76
$GPGSV,3,2,10,12,18,295,35,15,16,240,29,04,49,139,27,02,24,181,34*79
$GPGSV,3,3,10,26,08,204,20,48,00,000,41*79
$GPRMC,174143.000,A,3748.7985,N,12217.8622,W,0.14,162.85,201011,,,A*74
$GPVTG,162.85,T,,M,0.14,N,0.3,K,A*03
$GPGGA,174144.000,3748.7985,N,12217.8622,W,1,05,1.8,-0.3,M,-25.1,M,,0000*46
$GPGSA,A,3,09,12,15,17,28,,,,,,,,3.3,1.8,2.8*33
$GPRMC,174144.000,A,3748.7985,N,12217.8622,W,0.25,173.89,201011,,,A*7D
$GPVTG,173.89,T,,M,0.25,N,0.5,K,A*0B
$GPGGA,174145.000,3748.7984,N,12217.8622,W,1,05,1.8,-0.2,M,-25.1,M,,0000*47
$GPGSA,A,3,09,12,15,17,28,,,,,,,,3.3,1.8,2.8*33
$GPRMC,174145.000,A,3748.7984,N,12217.8622,W,0.19,171.83,201011,,,A*7A
$GPVTG,171.83,T,,M,0.19,N,0.4,K,A*0D
$GPGGA,174146.000,3748.7983,N,12217.8622,W,1,05,1.8,-0.0,M,-25.1,M,,0000*41
$GPGSA,A,3,09,12,15,17,28,,,,,,,,3.3,1.8,2.8*33
$GPRMC,174146.000,A,3748.7983,N,12217.8622,W,0.32,172.81,201011,,,A*76
$GPVTG,172.81,T,,M,0.32,N,0.6,K,A*07
$GPGGA,174147.000,3748.7983,N,12217.8622,W,1,05,1.8,0.0,M,-25.1,M,,0000*6D
$GPGSA,A,3,09,12,15,17,28,,,,,,,,3.3,1.8,2.8*33
$GPRMC,174147.000,A,3748.7983,N,12217.8622,W,0.08,9.00,201011,,,A*7A
$GPVTG,9.00,T,,M,0.08,N,0.2,K,A*0E
$GPGGA,174148.000,3748.7984,N,12217.8621,W,1,05,1.8,0.0,M,-25.1,M,,0000*66
$GPGSA,A,3,09,12,15,17,28,,,,,,,,3.3,1.8,2.8*33
$GPGSV,3,1,10,27,64,284,37,17,51,043,42,09,50,304,42,04,49,139,27*7E
$GPGSV,3,2,10,28,27,089,33,02,24,181,36,12,18,295,33,15,16,239,26*75
$GPGSV,3,3,10,26,08,204,14,48,44,197,43*73
$GPRMC,174148.000,A,3748.7984,N,12217.8621,W,0.16,8.88,201011,,,A*7F
$GPVTG,8.88,T,,M,0.16,N,0.3,K,A*01
$GPGGA,174149.000,3748.7984,N,12217.8621,W,1,05,1.8,-0.0,M,-25.1,M,,0000*4A
$GPGSA,A,3,09,12,15,17,28,,,,,,,,3.3,1.8,2.8*33
$GPRMC,174149.000,A,3748.7984,N,12217.8621,W,0.12,173.47,201011,,,A*74
$GPVTG,173.47,T,,M,0.12,N,0.2,K,A*0A
$GPGGA,174150.000,3748.7984,N,12217.8620,W,1,05,1.8,-0.1,M,-25.1,M,,0000*42
$GPGSA,A,3,09,12,15,17,28,,,,,,,,3.3,1.8,2.8*33
$GPRMC,174150.000,A,3748.7984,N,12217.8620,W,0.16,170.11,201011,,,A*79
$GPVTG,170.11,T,,M,0.16,N,0.3,K,A*0F
$GPGGA,174151.000,3748.7984,N,12217.8620,W,1,05,1.8,-0.1,M,-25.1,M,,0000*43
$GPGSA,A,3,09,12,15,17,28,,,,,,,,3.3,1.8,2.8*33
$GPRMC,174151.000,A,3748.7984,N,12217.8620,W,0.18,174.45,201011,,,A*73
$GPVTG,174.45,T,,M,0.18,N,0.3,K,A*04
$GPGGA,174152.000,3748.7984,N,12217.8620,W,1,05,1.8,-0.2,M,-25.1,M,,0000*43
$GPGSA,A,3,09,12,15,17,28,,,,,,,,3.3,1.8,2.8*33
$GPRMC,174152.000,A,3748.7984,N,12217.8620,W,0.16,166.27,201011,,,A*79
$GPVTG,166.27,T,,M,0.16,N,0.3,K,A*0D
$GPGGA,174153.000,3748.7985,N,12217.8619,W,1,05,1.8,-0.3,M,-25.1,M,,0000*48
$GPGSA,A,3,09,12,15,17,28,,,,,,,,3.3,1.8,2.8*33
$GPGSV,3,1,10,27,64,284,38,17,51,043,42,09,50,304,42,04,49,139,27*71
$GPGSV,3,2,10,28,27,089,34,02,24,181,36,12,18,295,32,15,16,239,34*70
$GPRMC,174153.000,A,3748.7985,N,12217.8619,W,0.15,173.44,201011,,,A*71
$GPVTG,173.44,T,,M,0.15,N,0.3,K,A*0F
$GPGGA,174154.000,3748.7985,N,12217.8619,W,1,05,1.8,-0.5,M,-25.1,M,,0000*49
$GPGSA,A,3,09,12,15,17,28,,,,,,,,3.3,1.8,2.8*33
$GPRMC,174154.000,A,3748.7985,N,12217.8619,W,0.14,160.70,201011,,,A*72
$GPVTG,160.70,T,,M,0.14,N,0.3,K,A*0B
$GPGGA,174155.000,3748.7986,N,12217.8618,W,1,05,1.8,-0.6,M,-25.1,M,,0000*49
$GPGSA,A,3,09,12,15,17,28,,,,,,,,3.3,1.8,2.8*33
$GPRMC,174155.000,A,3748.7986,N,12217.8618,W,0.14,167.18,201011,,,A*78
$GPVTG,167.18,T,,M,0.14,N,0.3,K,A*02
$GPGGA,174156.000,3748.7986,N,12217.8617,W,1,05,1.8,-0.6,M,-25.1,M,,0000*45
$GPGSA,A,3,09,12,15,17,28,,,,,,,,3.3,1.8,2.8*33
$GPRMC,174156.000,A,3748.7986,N,12217.8617,W,0.13,171.53,201011,,,A*7B
$GPVTG,171.53,T,,M,0.13,N,0.2,K,A*0C
$GPGGA,174157.000,3748.7990,N,12217.8617,W,1,06,1.2,-1.2,M,-25.1,M,,0000*4F
$GPGSA,A,3,02,09,12,15,17,28,,,,,,,2.9,1.2,2.6*3E
$GPRMC,174157.000,A,3748.7990,N,12217.8617,W,0.04,33.18,201011,,,A*43
$GPVTG,33.18,T,,M,0.04,N,0.1,K,A*31
$GPGGA,174158.000,3748.7992,N,12217.8617,W,1,06,1.2,-1.6,M,-25.1,M,,0000*46
$GPGSA,A,3,02,09,12,15,17,28,,,,,,,2.9,1.2,2.6*3E
$GPGSV,3,1,10,27,64,284,39,17,51,043,41,09,50,304,43,04,49,138,33*76
$GPGSV,3,2,10,28,27,089,36,02,24,181,37,12,18,295,33,15,16,239,33*75
$GPGSV,3,3,10,26,08,204,15,48,44,197,43*72
$GPRMC,174158.000,A,3748.7992,N,12217.8617,W,0.06,26.77,201011,,,A*41
$GPVTG,26.77,T,,M,0.06,N,0.1,K,A*3E
$GPGGA,174159.000,3748.7994,N,12217.8616,W,1,06,1.2,-1.9,M,-25.1,M,,0000*4F
$GPGSA,A,3,02,09,12,15,17,28,,,,,,,2.9,1.2,2.6*3E
$GPRMC,174159.000,A,3748.7994,N,12217.8616,W,0.05,21.44,201011,,,A*43
$GPVTG,21.44,T,,M,0.05,N,0.1,K,A*3A
$GPGGA,174200.000,3748.7996,N,12217.8616,W,1,06,1.2,-2.1,M,-25.1,M,,0000*49
$GPGSA,A,3,02,09,12,15,17,28,,,,,,,2.9,1.2,2.6*3E
$GPRMC,174200.000,A,3748.7996,N,12217.8616,W,0.05,15.06,201011,,,A*4F
$GPVTG,15.06,T,,M,0.05,N,0.1,K,A*3B
$GPGGA,174201.000,3748.7997,N,12217.8615,W,1,06,1.2,-2.3,M,-25.1,M,,0000*48
$GPGSA,A,3,02,09,12,15,17,28,,,,,,,2.9,1.2,2.6*3E
$GPRMC,174201.000,A,3748.7997,N,12217.8615,W,0.06,24.26,201011,,,A*4F
$GPVTG,24.26,T,,M,0.06,N,0.1,K,A*38
$GPGGA,174202.000,3748.7998,N,12217.8615,W,1,06,1.2,-2.4,M,-25.1,M,,0000*43
$GPGSA,A,3,02,09,12,15,17,28,,,,,,,2.9,1.2,2.6*3E
$GPRMC,174202.000,A,3748.7998,N,12217.8615,W,0.06,1.25,201011,,,A*77
$GPVTG,1.25,T,,M,0.06,N,0.1,K,A*0C
$GPGGA,174203.000,3748.7999,N,12217.8615,W,1,06,1.2,-2.5,M,-25.1,M,,0000*42
$GPGSA,A,3,02,09,12,15,17,28,,,,,,,2.9,1.2,2.6*3E
$GPGSV,3,1,10,27,64,284,40,17,51,043,41,09,50,304,43,04,49,138,32*79
$GPGSV,3,2,10,28,27,089,37,02,24,181,38,12,18,295,33,15,16,239,34*7C
$GPGSV,3,3,10,26,08,204,16,48,44,197,42*70
$GPRMC,174203.000,A,3748.7999,N,12217.8615,W,0.05,29.00,201011,,,A*49
$GPVTG,29.00,T,,M,0.05,N,0.1,K,A*32
$GPGGA,174204.000,3748.7999,N,12217.8614,W,1,06,1.2,-2.6,M,-25.1,M,,0000*47
$GPGSA,A,3,02,09,12,15,17,28,,,,,,,2.9,1.2,2.6*3E
$GPRMC,174204.000,A,3748.7999,N,12217.8614,W,0.06,13.07,201011,,,A*42
$GPVTG,13.07,T,,M,0.06,N,0.1,K,A*3F
$GPGGA,174205.000,3748.8000,N,12217.8614,W,1,06,1.2,-2.7,M,-25.1,M,,0000*41
$GPGSA,A,3,02,09,12,15,17,28,,,,,,,2.9,1.2,2.6*3E
$GPRMC,174205.000,A,3748.8000,N,12217.8614,W,0.05,15.12,201011,,,A*44
$GPVTG,15.12,T,,M,0.05,N,0.1,K,A*3E
$GPGGA,174206.000,3748.8000,N,12217.8614,W,1,06,1.2,-2.7,M,-25.1,M,,0000*42
$GPGSA,A,3,02,09,12,15,17,28,,,,,,,2.9,1.2,2.6*3E
$GPRMC,174206.000,A,3748.8000,N,12217.8614,W,0.07,16.89,201011,,,A*44
$GPVTG,16.89,T,,M,0.07,N,0.1,K,A*3D
$GPGGA,174207.000,3748.8000,N,12217.8614,W,1,06,1.2,-2.8,M,-25.1,M,,0000*4C
$GPGSA,A,3,02,09,12,15,17,28,,,,,,,2.9,1.2,2.6*3E
$GPRMC,174207.000,A,3748.8000,N,12217.8614,W,0.07,27.42,201011,,,A*40
$GPVTG,27.42,T,,M,0.07,N,0.1,K,A*38
$GPGGA,174208.000,3748.8001,N,12217.8613,W,1,06,1.2,-2.8,M,-25.1,M,,0000*45
$GPGSA,A,3,02,09,12,15,17,28,,,,,,,2.9,1.2,2.6*3E
$GPGSV,3,1,10,27,64,284,40,17,51,043,40,09,50,304,42,04,49,138,31*7A
$GPGSV,3,2,10,28,27,089,38,02,24,181,38,12,18,295,33,15,16,239,33*74
$GPGSV,3,3,10,26,08,204,15,48,44,197,42*73
$GPRMC,174208.000,A,3748.8001,N,12217.8613,W,0.06,17.16,201011,,,A*4A
$GPGGA,174209.000,3748.8001,N,12217.8613,W,1,06,1.2,-2.9,M,-25.1,M,,0000*45
$GPGSA,A,3,02,09,12,15,17,28,,,,,,,2.9,1.2,2.6*3E
$GPRMC,174209.000,A,3748.8001,N,12217.8613,W,0.06,23.78,201011,,,A*44
$GPVTG,23.78,T,,M,0.06,N,0.1,K,A*34
$GPGGA,174210.000,3748.8001,N,12217.8613,W,1,06,1.2,-2.9,M,-25.1,M,,0000*4D
$GPGSA,A,3,02,09,12,15,17,28,,,,,,,2.9,1.2,2.6*3E
$GPRMC,174210.000,A,3748.8001,N,12217.8613,W,0.06,19.22,201011,,,A*4A
$GPVTG,19.22,T,,M,0.06,N,0.1,K,A*32
$GPGGA,174211.000,3748.8002,N,12217.8613,W,1,06,1.2,-2.9,M,-25.1,M,,0000*4F
$GPGSA,A,3,02,09,12,15,17,28,,,,,,,2.9,1.2,2.6*3E
$GPRMC,174211.000,A,3748.8002,N,12217.8613,W,0.06,13.67,201011,,,A*43
$GPVTG,13.67,T,,M,0.06,N,0.1,K,A*39
$GPGGA,174212.000,3748.8002,N,12217.8613,W,1,06,1.2,-2.9,M,-25.1,M,,0000*4C
$GPGSA,A,3,02,09,12,15,17,28,,,,,,,2.9,1.2,2.6*3E
$GPRMC,174212.000,A,3748.8002,N,12217.8613,W,0.07,19.23,201011,,,A*4B
$GPVTG,19.23,T,,M,0.07,N,0.1,K,A*32
$GPGGA,174213.000,3748.8002,N,12217.8612,W,1,06,1.2,-3.0,M,-25.1,M,,0000*44
$GPGSA,A,3,02,09,12,15,17,28,,,,,,,2.9,1.2,2.6*3E
$GPGSV,3,1,10,27,64,284,40,17,51,043,40,09,50,304,42,04,49,138,31*7A
$GPGSV,3,2,10,28,27,089,38,02,24,181,37,12,18,295,34,15,16,239,33*7C
$GPGSV,3,3,10,26,08,204,15,48,44,197,41*70
$GPRMC,174213.000,A,3748.8002,N,12217.8612,W,0.06,31.69,201011,,,A*4E
$GPVTG,31.69,T,,M,0.06,N,0.1,K,A*37
$GPGGA,174214.000,3748.8003,N,12217.8612,W,1,06,1.2,-3.0,M,-25.1,M,,0000*42
$GPGSA,A,3,02,09,12,15,17,28,,,,,,,2.9,1.2,2.6*3E
$GPRMC,174214.000,A,3748.8003,N,12217.8612,W,0.06,26.15,201011,,,A*45
$GPVTG,26.15,T,,M,0.06,N,0.1,K,A*3A
$GPGGA,174215.000,3748.8003,N,12217.8612,W,1,06,1.2,-2.9,M,-25.1,M,,0000*4B
$GPGSA,A,3,02,09,12,15,17,28,,,,,,,2.9,1.2,2.6*3E
$GPRMC,174215.000,A,3748.8003,N,12217.8612,W,0.05,28.97,201011,,,A*43
$GPVTG,28.97,T,,M,0.05,N,0.1,K,A*3D
$GPGGA,174216.000,3748.8003,N,12217.8612,W,1,06,1.2,-2.9,M,-25.1,M,,0000*48
$GPGSA,A,3,02,09,12,15,17,28,,,,,,,2.9,1.2,2.6*3E
$GPRMC,174216.000,A,3748.8003,N,12217.8612,W,0.07,20.63,201011,,,A*41
$GPVTG,20.63,T,,M,0.07,N,0.1,K,A*3C
$GPGGA,174217.000,3748.8003,N,12217.8612,W,1,06,1.2,-2.9,M,-25.1,M,,0000*49
$GPGSA,A,3,02,09,12,15,17,28,,,,,,,2.9,1.2,2.6*3E
$GPRMC,174217.000,A,3748.8003,N,12217.8612,W,0.06,37.09,201011,,,A*4B
$GPVTG,37.09,T,,M,0.06,N,0.1,K,A*37
$GPGGA,174218.000,3748.8003,N,12217.8612,W,1,06,1.2,-2.9,M,-25.1,M,,0000*46
$GPGSA,A,3,02,09,12,15,17,28,,,,,,,2.9,1.2,2.6*3E
$GPGSV,3,1,10,27,64,283,40,17,51,043,39,09,50,304,42,04,49,138,30*72
$GPGSV,3,2,10,28,27,089,39,02,24,181,37,12,18,295,34,15,16,239,33*7D
$GPGSV,3,3,10,26,08,204,16,48,44,197,41*73
$GPRMC,174218.000,A,3748.8003,N,12217.8612,W,0.05,26.12,201011,,,A*4D
$GPVTG,26.12,T,,M,0.05,N,0.1,K,A*3E
$GPGGA,174219.000,3748.8003,N,12217.8612,W,1,06,1.2,-2.9,M,-25.1,M,,0000*47
$GPGSA,A,3,02,09,12,15,17,28,,,,,,,2.9,1.2,2.6*3E
$GPRMC,174219.000,A,3748.8003,N,12217.8612,W,0.06,33.36,201011,,,A*4D
$GPVTG,33.36,T,,M,0.06,N,0.1,K,A*3F
$GPGGA,174220.000,3748.8004,N,12217.8612,W,1,06,1.2,-2.9,M,-25.1,M,,0000*4A
$GPGSA,A,3,02,09,12,15,17,28,,,,,,,2.9,1.2,2.6*3E
$GPRMC,174220.000,A,3748.8004,N,12217.8612,W,0.05,25.22,201011,,,A*41
$GPVTG,25.22,T,,M,0.05,N,0.1,K,A*3E
$GPGGA,174221.000,3748.8004,N,12217.8611,W,1,06,1.2,-2.8,M,-25.1,M,,0000*49
$GPGSA,A,3,02,09,12,15,17,28,,,,,,,2.9,1.2,2.6*3E
$GPRMC,174221.000,A,3748.8004,N,12217.8611,W,0.05,34.06,201011,,,A*45
$GPVTG,34.06,T,,M,0.05,N,0.1,K,A*38
$GPGGA,174222.000,3748.8004,N,12217.8611,W,1,06,1.2,-2.8,M,-25.1,M,,0000*4A
$GPGSA,A,3,02,09,12,15,17,28,,,,,,,2.9,1.2,2.6*3E
$GPRMC,174222.000,A,3748.8004,N,12217.8611,W,0.06,39.11,201011,,,A*4E
$GPVTG,39.11,T,,M,0.06,N,0.1,K,A*30
$GPGGA,174223.000,3748.8004,N,12217.8611,W,1,06,1.2,-2.8,M,-25.1,M,,0000*4B
$GPGSA,A,3,02,09,12,15,17,28,,,,,,,2.9,1.2,2.6*3E
$GPGSV,3,1,10,27,64,283,41,17,51,043,39,09,50,304,42,04,49,138,30*73
$GPGSV,3,2,10,28,27,089,39,02,24,181,37,12,18,295,34,15,16,239,33*7D
$GPGSV,3,3,10,26,08,204,16,48,44,197,40*72
$GPRMC,174223.000,A,3748.8004,N,12217.8611,W,0.06,24.88,201011,,,A*43
$GPGGA,174224.000,3748.8004,N,12217.8611,W,1,06,1.2,-2.8,M,-25.1,M,,0000*4C
$GPGSA,A,3,02,09,12,15,17,28,,,,,,,2.9,1.2,2.6*3E
$GPRMC,174224.000,A,3748.8004,N,12217.8611,W,0.05,38.59,201011,,,A*46
$GPVTG,38.59,T,,M,0.05,N,0.1,K,A*3E
$GPGGA,174225.000,3748.8004,N,12217.8611,W,1,06,1.2,-2.8,M,-25.1,M,,0000*4D
$GPGSA,A,3,02,09,12,15,17,28,,,,,,,2.9,1.2,2.6*3E
$GPRMC,174225.000,A,3748.8004,N,12217.8611,W,0.05,34.50,201011,,,A*42
$GPVTG,34.50,T,,M,0.05,N,0.1,K,A*3B
$GPGGA,174226.000,3748.8004,N,12217.8611,W,2,06,1.2,-2.7,M,-25.1,M,1.8,0000*65
$GPGSA,A,3,02,09,12,15,17,28,,,,,,,2.9,1.2,2.6*3E
$GPRMC,174226.000,A,3748.8004,N,12217.8611,W,0.07,25.51,201011,,,D*47
$GPVTG,25.51,T,,M,0.07,N,0.1,K,D*3D
$GPGGA,174227.000,3748.8004,N,12217.8611,W,2,06,1.2,-2.6,M,-25.1,M,1.8,0000*65
$GPGSA,A,3,02,09,12,15,17,28,,,,,,,2.9,1.2,2.6*3E
$GPRMC,174227.000,A,3748.8004,N,12217.8611,W,0.04,18.44,201011,,,D*4F
$GPVTG,18.44,T,,M,0.04,N,0.1,K,D*34
$GPGGA,174228.000,3748.8004,N,12217.8611,W,2,06,1.2,-2.6,M,-25.1,M,1.8,0000*6A
$GPGSA,A,3,02,09,12,15,17,28,,,,,,,2.9,1.2,2.6*3E
$GPGSV,3,1,10,27,64,283,41,17,51,043,40,09,50,304,43,04,49,138,30*7C
$GPGSV,3,2,10,28,27,089,39,02,24,181,37,12,18,295,34,15,16,239,33*7D
$GPGSV,3,3,10,26,08,204,16,48,44,197,43*71
$GPRMC,174228.000,A,3748.8004,N,12217.8611,W,0.08,68.13,201011,,,D*49
$GPVTG,68.13,T,,M,0.08,N,0.1,K,D*3D
$GPGGA,174229.000,3748.8004,N,12217.8611,W,2,06,1.2,-2.6,M,-25.1,M,2.8,0000*68
$GPGSA,A,3,02,09,12,15,17,28,,,,,,,2.9,1.2,2.6*3E
$GPRMC,174229.000,A,3748.8004,N,12217.8611,W,0.07,54.13,201011,,,D*48
$GPVTG,54.13,T,,M,0.07,N,0.1,K,D*3D
$GPGGA,174230.000,3748.8004,N,12217.8611,W,2,06,1.2,-2.6,M,-25.1,M,3.8,0000*61
$GPGSA,A,3,02,09,12,15,17,28,,,,,,,2.9,1.2,2.6*3E
$GPRMC,174230.000,A,3748.8004,N,12217.8611,W,0.05,52.25,201011,,,D*41
$GPVTG,52.25,T,,M,0.05,N,0.1,K,D*3C
$GPGGA,174231.000,3748.8004,N,12217.8610,W,2,06,1.2,-2.6,M,-25.1,M,4.8,0000*66
$GPGSA,A,3,02,09,12,15,17,28,,,,,,,2.9,1.2,2.6*3E
$GPRMC,174231.000,A,3748.8004,N,12217.8610,W,0.06,48.00,201011,,,D*4E
$GPVTG,48.00,T,,M,0.06,N,0.1,K,D*33
$GPGGA,174232.000,3748.8004,N,12217.8610,W,2,06,1.2,-2.5,M,-25.1,M,1.8,0000*63
$GPGSA,A,3,02,09,12,15,17,28,,,,,,,2.9,1.2,2.6*3E
$GPRMC,174232.000,A,3748.8004,N,12217.8610,W,0.07,6.23,201011,,,D*77
$GPVTG,6.23,T,,M,0.07,N,0.1,K,D*09
$GPGGA,174233.000,3748.8004,N,12217.8610,W,2,06,1.2,-2.4,M,-25.1,M,1.8,0000*63
$GPGSA,A,3,02,09,12,15,17,28,,,,,,,2.9,1.2,2.6*3E
$GPGSV,3,1,10,27,64,283,32,17,51,043,32,09,50,304,42,04,49,138,29*74
$GPGSV,3,2,10,28,27,089,20,02,24,181,37,12,18,295,34,15,16,239,33*75
$GPGSV,3,3,10,26,08,204,16,48,44,197,36*73
$GPRMC,174233.000,A,3748.8004,N,12217.8610,W,0.13,84.08,201011,,,D*40
$GPVTG,84.08,T,,M,0.13,N,0.2,K,D*3C
$GPGGA,174234.000,3748.8003,N,12217.8                                                                                                                                                                                                                                                                                                                                                                                                                                                                                                                                                                                                                                                                                                                                                                                                                                                                                                                                                                                                                                                                610,W,2,06,1.2,-2.2,M,-25.1,M,2.8,0000*66
$GPGSA,A,3,02,09,12,15,17,28,,,,,,,2.9,1.2,2.6*3E
$GPRMC,174234.000,A,3748.8003,N,12217.8610,W,0.20,264.94,201011,,,D*79
$GPVTG,264.94,T,,M,0.20,N,0.4,K,D*03
$GPGGA,174235.000,3748.8000,N,12217.8612,W,2,06,1.2,-2.0,M,-25.1,M,1.8,0000*67
$GPGSA,A,3,02,09,12,15,17,28,,,,,,,2.9,1.2,2.6*3E
$GPRMC,174235.000,A,3748.8000,N,12217.8612,W,0.42,182.35,201011,,,D*7D
$GPVTG,182.35,T,,M,0.42,N,0.8,K,D*0B
$GPGGA,174236.000,3748.7998,N,12217.8610,W,2,06,1.2,-1.5,M,-25.1,M,2.8,0000*64
$GPGSA,A,3,02,09,12,15,17,28,,,,,,,2.9,1.2,2.6*3E
$GPRMC,174236.000,A,3748.7998,N,12217.8610,W,0.18,223.30,201011,,,D*79
$GPVTG,223.30,T,,M,0.18,N,0.3,K,D*02
$GPGGA,174237.000,3748.7998,N,12217.8608,W,2,06,1.2,-1.2,M,-25.1,M,3.8,0000*6A
$GPGSA,A,3,02,09,12,15,17,28,,,,,,,2.9,1.2,2.6*3E
$GPRMC,174237.000,A,3748.7998,N,12217.8608,W,0.08,156.34,201011,,,D*75
$GPVTG,156.34,T,,M,0.08,N,0.2,K,D*07
$GPGGA,174238.000,3748.7998,N,12217.8606,W,2,06,1.2,-0.8,M,-25.1,M,4.8,0000*67
$GPGSA,A,3,02,09,12,15,17,28,,,,,,,2.9,1.2,2.6*3E
$GPGSV,3,1,10,27,64,283,33,17,51,043,26,09,50,304,34,04,49,138,18*73
$GPGSV,3,2,10,28,27,089,24,02,24,181,31,12,18,295,28,15,16,239,19*72
$GPGSV,3,3,10,26,08,204,,48,44,197,32*70
$GPRMC,174238.000,A,3748.7998,N,12217.8606,W,0.27,225.54,201011,,,D*78
$GPGGA,174239.000,3748.7999,N,12217.8601,W,2,06,1.2,-0.4,M,-25.1,M,5.8,0000*6D
$GPGSA,A,3,02,09,12,15,17,28,,,,,,,2.9,1.2,2.6*3E
$GPRMC,174239.000,A,3748.7999,N,12217.8601,W,0.60,62.12,201011,,,D*4F
$GPVTG,62.12,T,,M,0.60,N,1.1,K,D*39
$GPGGA,174240.000,3748.7999,N,12217.8598,W,2,06,1.2,-0.2,M,-25.1,M,6.8,0000*65
$GPGSA,A,3,02,09,12,15,17,28,,,,,,,2.9,1.2,2.6*3E
$GPRMC,174240.000,A,3748.7999,N,12217.8598,W,0.27,161.54,201011,,,D*71
$GPVTG,161.54,T,,M,0.27,N,0.5,K,D*0F
$GPGGA,174241.000,3748.7998,N,12217.8597,W,2,06,1.2,0.1,M,-25.1,M,7.8,0000*45
$GPGSA,A,3,02,09,12,15,17,28,,,,,,,2.9,1.2,2.6*3E
$GPRMC,174241.000,A,3748.7998,N,12217.8597,W,0.38,201.88,201011,,,D*74
$GPVTG,201.88,T,,M,0.38,N,0.7,K,D*07
$GPGGA,174242.000,3748.7996,N,12217.8598,W,2,06,1.2,0.9,M,-25.1,M,8.8,0000*40
$GPGSA,A,3,02,09,12,15,17,28,,,,,,,2.9,1.2,2.6*3E
$GPRMC,174242.000,A,3748.7996,N,12217.8598,W,0.64,259.65,201011,,,D*71
$GPVTG,259.65,T,,M,0.64,N,1.2,K,D*04
$GPGGA,174243.000,3748.7997,N,12217.8601,W,2,06,1.2,0.4,M,-25.1,M,9.8,0000*4F
$GPGSA,A,3,02,09,12,15,17,28,,,,,,,2.9,1.2,2.6*3E
$GPGSV,3,1,09,27,64,283,25,17,51,043,27,09,50,304,27,04,49,138,19*7E
$GPGSV,3,2,09,28,27,089,29,02,24,181,20,12,18,295,26,15,16,239,23*70
$GPGSV,3,3,09,26,08,204,17*4C
$GPRMC,174243.000,A,3748.7997,N,12217.8601,W,0.43,23.77,201011,,,D*4B
$GPVTG,23.77,T,,M,0.43,N,0.8,K,D*36
$GPGGA,174244.000,3748.7999,N,12217.8602,W,2,06,1.2,-0.6,M,-25.1,M,10.8,0000*52
$GPGSA,A,3,02,09,12,15,17,28,,,,,,,2.9,1.2,2.6*3E
$GPRMC,174244.000,A,3748.7999,N,12217.8602,W,0.02,80.60,201011,,,D*4B
$GPVTG,80.60,T,,M,0.02,N,0.0,K,D*34
$GPGGA,174245.000,3748.8000,N,12217.8604,W,2,06,1.2,0.0,M,-25.1,M,11.8,0000*79
$GPGSA,A,3,02,09,12,15,17,28,,,,,,,2.9,1.2,2.6*3E
$GPRMC,174245.000,A,3748.8000,N,12217.8604,W,0.35,10.24,201011,,,D*47
$GPVTG,10.24,T,,M,0.35,N,0.6,K,D*3F
$GPGGA,174246.000,3748.8003,N,12217.8605,W,2,06,1.2,0.4,M,-25.1,M,12.8,0000*7F
$GPGSA,A,3,02,09,12,15,17,28,,,,,,,2.9,1.2,2.6*3E
$GPRMC,174246.000,A,3748.8003,N,12217.8605,W,0.03,254.50,201011,,,D*72
$GPVTG,254.50,T,,M,0.03,N,0.1,K,D*0C
$GPGGA,174247.000,3748.8003,N,12217.8606,W,2,06,1.2,0.7,M,-25.1,M,13.8,0000*7F
$GPGSA,A,3,02,09,12,15,17,28,,,,,,,2.9,1.2,2.6*3E
$GPRMC,174247.000,A,3748.8003,N,12217.8606,W,0.18,194.05,201011,,,D*75
$GPVTG,194.05,T,,M,0.18,N,0.3,K,D*0B
$GPGGA,174248.000,3748.8003,N,12217.8605,W,2,06,1.2,0.7,M,-25.1,M,14.8,0000*74
$GPGSA,A,3,02,09,12,15,17,28,,,,,,,2.9,1.2,2.6*3E
$GPGSV,3,1,09,27,64,283,29,17,51,043,33,09,50,304,35,04,49,138,18*75
$GPGSV,3,2,09,28,27,089,31,02,24,181,30,12,18,295,32,15,16,239,23*7D
$GPGSV,3,3,09,26,08,204,17*4C
$GPRMC,174248.000,A,3748.8003,N,12217.8605,W,0.07,81.01,201011,,,D*46
$GPVTG,81.01,T,,M,0.07,N,0.1,K,D*36
$GPGGA,174249.000,3748.8004,N,12217.8603,W,2,06,1.2,0.6,M,-25.1,M,15.8,0000*74
$GPGSA,A,3,02,09,12,15,17,28,,,,,,,2.9,1.2,2.6*3E
$GPRMC,174249.000,A,3748.8004,N,12217.8603,W,0.32,348.86,201011,,,D*79
$GPVTG,348.86,T,,M,0.32,N,0.6,K,D*0E
$GPGGA,174250.000,3748.8004,N,12217.8602,W,2,06,1.2,0.4,M,-25.1,M,16.8,0000*7C
$GPGSA,A,3,02,09,12,15,17,28,,,,,,,2.9,1.2,2.6*3E
$GPRMC,174250.000,A,3748.8004,N,12217.8602,W,0.07,135.07,201011,,,D*77
$GPVTG,135.07,T,,M,0.07,N,0.1,K,D*0E
$GPGGA,174251.000,3748.8004,N,12217.8601,W,2,06,1.2,1.0,M,-25.1,M,17.8,0000*7A
$GPGSA,A,3,02,09,12,15,17,28,,,,,,,2.9,1.2,2.6*3E
$GPRMC,174251.000,A,3748.8004,N,12217.8601,W,0.30,83.79,201011,,,D*44
$GPVTG,83.79,T,,M,0.30,N,0.6,K,D*38
$GPGGA,174252.000,3748.8002,N,12217.8602,W,1,06,1.2,1.9,M,-25.1,M,,0000*66
$GPGSA,A,3,02,09,12,15,17,28,,,,,,,2.9,1.2,2.6*3E
$GPRMC,174252.000,A,3748.8002,N,12217.8602,W,0.22,143.82,201011,,,A*7D
$GPVTG,143.82,T,,M,0.22,N,0.4,K,A*05
$GPGGA,174253.000,3748.8000,N,12217.8607,W,1,06,1.2,3.4,M,-25.1,M,,0000*6F
$GPGSA,A,3,02,09,12,15,17,28,,,,,,,2.9,1.2,2.6*3E
$GPGSV,3,1,10,27,64,283,35,17,51,043,25,09,50,304,39,04,49,138,26*76
$GPGSV,3,2,10,28,27,089,28,02,24,181,38,12,18,295,39,15,16,239,36*7A
$GPGSV,3,3,10,26,08,204,26,48,44,197,39*7F
$GPRMC,174253.000,A,3748.8000,N,12217.8607,W,0.13,188.20,201011,,,A*76
$GPGGA,174254.000,3748.7999,N,12217.8609,W,1,06,1.2,3.5,M,-25.1,M,,0000*61
$GPGSA,A,3,02,09,12,15,17,28,,,,,,,2.9,1.2,2.6*3E
$GPRMC,174254.000,A,3748.7999,N,12217.8609,W,0.06,271.65,201011,,,A*79
$GPVTG,271.65,T,,M,0.06,N,0.1,K,A*0D
$GPGGA,174255.000,3748.7998,N,12217.8611,W,1,06,1.2,3.7,M,-25.1,M,,0000*6A
$GPGSA,A,3,02,09,12,15,17,28,,,,,,,2.9,1.2,2.6*3E
$GPRMC,174255.000,A,3748.7998,N,12217.8611,W,0.18,346.31,201011,,,A*7B
$GPVTG,346.31,T,,M,0.18,N,0.3,K,A*04
$GPGGA,174256.000,3748.7997,N,12217.8612,W,1,06,1.2,3.6,M,-25.1,M,,0000*64
$GPGSA,A,3,02,09,12,15,17,28,,,,,,,2.9,1.2,2.6*3E
$GPRMC,174256.000,A,3748.7997,N,12217.8612,W,0.17,179.48,201011,,,A*7B
$GPVTG,179.48,T,,M,0.17,N,0.3,K,A*0B
$GPGGA,174257.000,3748.7999,N,12217.8609,W,1,06,1.2,3.1,M,-25.1,M,,0000*66
$GPGSA,A,3,02,09,12,15,17,28,,,,,,,2.9,1.2,2.6*3E
$GPRMC,174257.000,A,3748.7999,N,12217.8609,W,0.26,127.31,201011,,,A*79
$GPVTG,127.31,T,,M,0.26,N,0.5,K,A*0A
$GPGGA,174258.000,3748.7999,N,12217.8610,W,2,06,1.2,4.2,M,-25.1,M,1.8,0000*41
$GPGSA,A,3,02,09,12,15,17,28,,,,,,,2.9,1.2,2.6*3E
$GPGSV,3,1,10,27,64,283,23,17,51,043,27,09,50,304,25,04,49,138,28*70
$GPGSV,3,2,10,28,27,089,26,02,24,181,34,12,18,295,27,15,16,239,21*71
$GPGSV,3,3,10,26,08,204,22,48,44,197,36*74
$GPRMC,174258.000,A,3748.7999,N,12217.8610,W,0.50,190.37,201011,,,D*70
$GPVTG,190.37,T,,M,0.50,N,0.9,K,D*08
$GPGGA,174259.000,3748.8000,N,12217.8609,W,2,06,1.2,4.1,M,-25.1,M,2.8,0000*4E
$GPGSA,A,3,02,09,12,15,17,28,,,,,,,2.9,1.2,2.6*3E
$GPRMC,174259.000,A,3748.8000,N,12217.8609,W,0.28,18.34,201011,,,D*42
$GPVTG,18.34,T,,M,0.28,N,0.5,K,D*39
$GPGGA,174300.000,3748.8000,N,12217.8608,W,2,06,1.2,4.1,M,-25.1,M,3.8,0000*43
$GPGSA,A,3,02,09,12,15,17,28,,,,,,,2.9,1.2,2.6*3E
$GPRMC,174300.000,A,3748.8000,N,12217.8608,W,0.17,52.03,201011,,,D*48
$GPVTG,52.03,T,,M,0.17,N,0.3,K,D*39
$GPGGA,174301.000,3748.8001,N,12217.8606,W,2,06,1.2,3.1,M,-25.1,M,4.8,0000*4D
$GPGSA,A,3,02,09,12,15,17,28,,,,,,,2.9,1.2,2.6*3E
$GPRMC,174301.000,A,3748.8001,N,12217.8606,W,0.36,248.75,201011,,,D*7D
$GPVTG,248.75,T,,M,0.36,N,0.7,K,D*06
$GPGGA,174302.000,3748.8002,N,12217.8607,W,2,06,1.2,3.2,M,-25.1,M,5.8,0000*4E
$GPGSA,A,3,02,09,12,15,17,28,,,,,,,2.9,1.2,2.6*3E
$GPRMC,174302.000,A,3748.8002,N,12217.8607,W,0.87,53.24,201011,,,D*4A
$GPVTG,53.24,T,,M,0.87,N,1.6,K,D*30
$GPGGA,174303.000,3748.8002,N,12217.8606,W,2,06,1.2,2.9,M,-25.1,M,6.8,0000*47
$GPGSA,A,3,02,09,12,15,17,28,,,,,,,2.9,1.2,2.6*3E
$GPGSV,3,1,10,27,64,283,31,17,51,043,36,09,50,304,33,04,49,138,29*75
$GPGSV,3,2,10,28,27,089,40,02,24,181,39,12,18,295,18,15,16,239,27*76
$GPGSV,3,3,10,26,08,204,21,48,44,197,36*77
$GPRMC,174303.000,A,3748.8002,N,12217.8606,W,0.10,13.30,201011,,,D*45
$GPVTG,13.30,T,,M,0.10,N,0.2,K,D*3A
$GPGGA,174304.000,3748.8001,N,12217.8608,W,2,06,1.2,2.5,M,-25.1,M,1.8,0000*46
$GPGSA,A,3,02,09,12,15,17,28,,,,,,,2.9,1.2,2.6*3E
$GPRMC,174304.000,A,3748.8001,N,12217.8608,W,0.18,325.20,201011,,,D*70
$GPVTG,325.20,T,,M,0.18,N,0.3,K,D*04
$GPGGA,174305.000,3748.8000,N,12217.8609,W,2,06,1.2,1.8,M,-25.1,M,2.8,0000*4A
$GPGSA,A,3,02,09,12,15,17,28,,,,,,,2.9,1.2,2.6*3E
$GPRMC,174305.000,A,3748.8000,N,12217.8609,W,0.75,234.51,201011,,,D*7D
$GPVTG,234.51,T,,M,0.75,N,1.4,K,D*0E
$GPGGA,174306.000,3748.8000,N,12217.8612,W,2,06,1.2,1.6,M,-25.1,M,3.8,0000*4C
$GPGSA,A,3,02,09,12,15,17,28,,,,,,,2.9,1.2,2.6*3E
$GPRMC,174306.000,A,3748.8000,N,12217.8612,W,0.60,286.54,201011,,,D*7C
$GPVTG,286.54,T,,M,0.60,N,1.1,K,D*03
$GPGGA,174307.000,3748.7999,N,12217.8616,W,2,06,1.2,2.4,M,-25.1,M,1.8,0000*4C
$GPGSA,A,3,02,09,12,15,17,28,,,,,,,2.9,1.2,2.6*3E
$GPRMC,174307.000,A,3748.7999,N,12217.8616,W,0.32,296.81,201011,,,D*71
$GPVTG,296.81,T,,M,0.32,N,0.6,K,D*0B
$GPGGA,174308.000,3748.7999,N,12217.8620,W,2,06,1.2,3.1,M,-25.1,M,2.8,0000*41
$GPGSA,A,3,02,09,12,15,17,28,,,,,,,2.9,1.2,2.6*3E
$GPGSV,3,1,10,27,64,283,30,17,51,043,25,09,50,304,31,04,49,138,33*7F
$GPGSV,3,2,10,28,27,089,31,02,24,181,39,12,18,295,25,15,16,239,36*7E
$GPGSV,3,3,10,26,08,204,25,48,44,197,37*72
$GPRMC,174308.000,A,3748.7999,N,12217.8620,W,0.73,324.77,201011,,,D*7F
$GPGGA,174309.000,3748.8000,N,12217.8619,W,2,06,1.2,3.2,M,-25.1,M,3.8,0000*4E
$GPGSA,A,3,02,09,12,15,17,28,,,,,,,2.9,1.2,2.6*3E
$GPRMC,174309.000,A,3748.8000,N,12217.8619,W,0.55,16.42,201011,,,D*42
$GPVTG,16.42,T,,M,0.55,N,1.0,K,D*38
$GPGGA,174310.000,3748.8000,N,12217.8619,W,2,06,1.2,2.1,M,-25.1,M,1.8,0000*46
$GPGSA,A,3,02,09,12,15,17,28,,,,,,,2.9,1.2,2.6*3E
$GPRMC,174310.000,A,3748.8000,N,12217.8619,W,0.32,63.46,201011,,,D*4D
$GPVTG,63.46,T,,M,0.32,N,0.6,K,D*38
$GPGGA,174311.000,3748.8000,N,12217.8621,W,2,05,1.3,1.3,M,-25.1,M,2.8,0000*4C
$GPGSA,A,3,02,09,12,17,28,,,,,,,,3.0,1.3,2.7*32
$GPRMC,174311.000,A,3748.8000,N,12217.8621,W,0.36,304.92,201011,,,D*78
$GPVTG,304.92,T,,M,0.36,N,0.7,K,D*06
$GPGGA,174312.000,3748.8000,N,12217.8621,W,2,05,1.3,1.2,M,-25.1,M,3.8,0000*4F
$GPGSA,A,3,02,09,12,17,28,,,,,,,,3.0,1.3,2.7*32
$GPRMC,174312.000,A,3748.8000,N,12217.8621,W,0.28,67.90,201011,,,D*40
$GPVTG,67.90,T,,M,0.28,N,0.5,K,D*3F
$GPGGA,174313.000,3748.7998,N,12217.8622,W,2,06,1.2,2.0,M,-25.1,M,4.8,0000*4E
$GPGSA,A,3,02,09,12,15,17,28,,,,,,,2.9,1.2,2.6*3E
$GPGSV,3,1,10,27,64,283,23,17,51,043,36,09,50,304,28,04,49,138,32*76
$GPGSV,3,2,10,28,27,089,34,02,24,181,35,12,18,295,27,15,16,239,25*77
$GPGSV,3,3,10,26,08,204,25,48,44,197,32*77
$GPRMC,174313.000,A,3748.7998,N,12217.8622,W,0.25,344.12,201011,,,D*70
$GPVTG,344.12,T,,M,0.25,N,0.5,K,D*0A
$GPGGA,174314.000,3748.7996,N,12217.8621,W,2,05,1.7,2.9,M,-25.1,M,5.8,0000*4A
$GPGSA,A,3,02,09,12,15,17,,,,,,,,4.0,1.7,3.6*3F
$GPRMC,174314.000,A,3748.7996,N,12217.8621,W,0.36,174.19,201011,,,D*72
$GPVTG,174.19,T,,M,0.36,N,0.7,K,D*00
$GPGGA,174315.000,3748.7993,N,12217.8620,W,2,06,1.2,3.3,M,-25.1,M,1.8,0000*46
$GPGSA,A,3,02,09,12,15,17,28,,,,,,,2.9,1.2,2.6*3E
$GPRMC,174315.000,A,3748.7993,N,12217.8620,W,0.38,172.06,201011,,,D*71
$GPVTG,172.06,T,,M,0.38,N,0.7,K,D*06
$GPGGA,174316.000,3748.7993,N,12217.8617,W,2,06,1.2,2.1,M,-25.1,M,1.8,0000*42
$GPGSA,A,3,02,09,12,15,17,28,,,,,,,2.9,1.2,2.6*3E
$GPRMC,174316.000,A,3748.7993,N,12217.8617,W,0.27,187.51,201011,,,D*70
$GPVTG,187.51,T,,M,0.27,N,0.5,K,D*02
$GPGGA,174317.000,3748.7992,N,12217.8616,W,2,05,1.3,2.6,M,-25.1,M,2.8,0000*45
$GPGSA,A,3,02,09,12,17,28,,,,,,,,3.0,1.3,2.7*32
$GPRMC,174317.000,A,3748.7992,N,12217.8616,W,0.21,10.27,201011,,,D*49
$GPVTG,10.27,T,,M,0.21,N,0.4,K,D*3B
$GPGGA,174318.000,3748.7993,N,12217.8615,W,2,06,1.2,2.1,M,-25.1,M,3.8,0000*4C
$GPGSA,A,3,02,09,12,15,17,28,,,,,,,2.9,1.2,2.6*3E
$GPGSV,3,1,10,27,64,283,31,17,51,043,26,09,50,304,29,04,49,138,35*72
$GPGSV,3,2,10,28,27,089,33,02,24,181,36,12,18,295,31,15,16,239,23*72
$GPGSV,3,3,10,26,08,204,21,48,44,197,37*76
$GPRMC,174318.000,A,3748.7993,N,12217.8615,W,0.33,6.41,201011,,,D*70
$GPVTG,6.41,T,,M,0.33,N,0.6,K,D*0D
$GPGGA,174319.000,3748.7994,N,12217.8616,W,2,06,1.2,2.5,M,-25.1,M,4.8,0000*4A
$GPGSA,A,3,02,09,12,15,17,28,,,,,,,2.9,1.2,2.6*3E
$GPRMC,174319.000,A,3748.7994,N,12217.8616,W,0.43,22.93,201011,,,D*4B
$GPVTG,22.93,T,,M,0.43,N,0.8,K,D*3D
$GPGGA,174320.000,3748.7995,N,12217.8615,W,2,06,1.2,2.5,M,-25.1,M,1.8,0000*47
$GPGSA,A,3,02,09,12,15,17,28,,,,,,,2.9,1.2,2.6*3E
$GPRMC,174320.000,A,3748.7995,N,12217.8615,W,0.24,128.16,201011,,,D*74
$GPVTG,128.16,T,,M,0.24,N,0.4,K,D*06
$GPGGA,174321.000,3748.7995,N,12217.8613,W,2,06,1.2,2.7,M,-25.1,M,1.8,0000*42
$GPGSA,A,3,02,09,12,15,17,28,,,,,,,2.9,1.2,2.6*3E
$GPRMC,174321.000,A,3748.7995,N,12217.8613,W,0.98,80.13,201011,,,D*42
$GPVTG,80.13,T,,M,0.98,N,1.8,K,D*3A
$GPGGA,174322.000,3748.7996,N,12217.8611,W,2,06,1.2,2.4,M,-25.1,M,1.8,0000*43
$GPGSA,A,3,02,09,12,15,17,28,,,,,,,2.9,1.2,2.6*3E
$GPRMC,174322.000,A,3748.7996,N,12217.8611,W,0.16,339.00,201011,,,D*75
$GPVTG,339.00,T,,M,0.16,N,0.3,K,D*05
$GPGGA,174323.000,3748.7996,N,12217.8610,W,2,05,1.3,2.9,M,-25.1,M,2.8,0000*4F
$GPGSA,A,3,02,12,15,17,28,,,,,,,,4.1,1.3,3.9*36
$GPGSV,3,1,10,27,64,283,26,17,51,043,34,09,50,304,19,04,49,138,20*70
$GPGSV,3,2,10,28,27,089,33,02,24,181,27,12,18,295,21,15,16,239,24*74
$GPGSV,3,3,10,26,08,204,20,48,44,197,26*77
$GPRMC,174323.000,A,3748.7996,N,12217.8610,W,0.34,42.80,201011,,,D*42
$GPGGA,174324.000,3748.7999,N,12217.8608,W,2,06,1.2,2.1,M,-25.1,M,3.8,0000*45
$GPGSA,A,3,02,09,12,15,17,28,,,,,,,2.9,1.2,2.6*3E
$GPRMC,174324.000,A,3748.7999,N,12217.8608,W,0.38,100.21,201011,,,D*73
$GPVTG,100.21,T,,M,0.38,N,0.7,K,D*06
$GPGGA,174325.000,3748.7997,N,12217.8606,W,2,06,1.2,2.3,M,-25.1,M,4.8,0000*41
$GPGSA,A,3,02,09,12,15,17,28,,,,,,,2.9,1.2,2.6*3E
$GPRMC,174325.000,A,3748.7997,N,12217.8606,W,0.79,137.41,201011,,,D*75
$GPVTG,137.41,T,,M,0.79,N,1.5,K,D*02
$GPGGA,174326.000,3748.7998,N,12217.8604,W,2,06,1.2,1.8,M,-25.1,M,5.8,0000*46
$GPGSA,A,3,02,09,12,15,17,28,,,,,,,2.9,1.2,2.6*3E
$GPRMC,174326.000,A,3748.7998,N,12217.8604,W,0.07,162.31,201011,,,D*75
$GPVTG,162.31,T,,M,0.07,N,0.1,K,D*09
$GPGGA,174327.000,3748.8002,N,12217.8601,W,2,06,1.2,0.4,M,-25.1,M,6.8,0000*49
$GPGSA,A,3,02,09,12,15,17,28,,,,,,,2.9,1.2,2.6*3E
$GPRMC,174327.000,A,3748.8002,N,12217.8601,W,0.89,5.16,201011,,,D*77
$GPVTG,5.16,T,,M,0.89,N,1.6,K,D*0C
$GPGGA,174328.000,3748.8007,N,12217.8600,W,2,06,1.2,0.2,M,-25.1,M,7.8,0000*45
$GPGSA,A,3,02,09,12,15,17,28,,,,,,,2.9,1.2,2.6*3E
$GPGSV,3,1,09,27,64,283,29,17,51,043,34,09,50,304,31,04,49,138,20*7D
$GPGSV,3,2,09,28,27,089,31,02,24,181,22,12,18,295,22,15,16,239,24*78
$GPGSV,3,3,09,26,08,204,20*48
$GPRMC,174328.000,A,3748.8007,N,12217.8600,W,1.03,349.45,201011,,,D*72
$GPVTG,349.45,T,,M,1.03,N,1.9,K,D*0D
$GPGGA,174329.000,3748.8006,N,12217.8598,W,2,05,1.8,0.9,M,-25.1,M,8.8,0000*4A
$GPGSA,A,3,02,09,15,17,28,,,,,,,,4.4,1.8,4.1*3D
$GPRMC,174329.000,A,3748.8006,N,12217.8598,W,0.54,350.40,201011,,,D*7E
$GPVTG,350.40,T,,M,0.54,N,1.0,K,D*0A
$GPGGA,174330.000,3748.8005,N,12217.8597,W,2,05,1.8,1.4,M,-25.1,M,9.8,0000*43
$GPGSA,A,3,02,09,15,17,28,,,,,,,,4.4,1.8,4.1*3D
$GPRMC,174330.000,A,3748.8005,N,12217.8597,W,0.39,9.18,201011,,,D*73
$GPVTG,9.18,T,,M,0.39,N,0.7,K,D*05
$GPGGA,174331.000,3748.8001,N,12217.8596,W,2,05,1.8,2.5,M,-25.1,M,10.8,0000*7D
$GPGSA,A,3,02,09,15,17,28,,,,,,,,4.4,1.8,4.1*3D
$GPRMC,174331.000,A,3748.8001,N,12217.8596,W,0.06,157.94,201011,,,D*75
$GPVTG,157.94,T,,M,0.06,N,0.1,K,D*01
$GPGGA,174332.000,3748.8002,N,12217.8597,W,2,06,1.2,3.5,M,-25.1,M,11.8,0000*75
$GPGSA,A,3,02,09,12,15,17,28,,,,,,,2.9,1.2,2.6*3E
$GPRMC,174332.000,A,3748.8002,N,12217.8597,W,0.45,326.95,201011,,,D*76
$GPVTG,326.95,T,,M,0.45,N,0.8,K,D*0A
$GPGGA,174333.000,3748.8004,N,12217.8600,W,2,06,1.2,3.4,M,-25.1,M,12.8,0000*7D
$GPGSA,A,3,02,09,12,15,17,28,,,,,,,2.9,1.2,2.6*3E
$GPGSV,3,1,09,27,64,283,28,17,51,043,34,09,50,304,32,04,49,138,26*79
$GPGSV,3,2,09,28,27,089,24,02,24,181,22,12,18,295,25,15,16,239,23*7C
$GPGSV,3,3,09,26,08,204,20*48
$GPRMC,174333.000,A,3748.8004,N,12217.8600,W,0.37,328.41,201011,,,D*7E
$GPVTG,328.41,T,,M,0.37,N,0.7,K,D*07
$GPGGA,174334.000,3748.8005,N,12217.8600,W,2,06,1.2,3.5,M,-25.1,M,13.8,0000*7B
$GPGSA,A,3,02,09,12,15,17,28,,,,,,,2.9,1.2,2.6*3E
$GPRMC,174334.000,A,3748.8005,N,12217.8600,W,0.75,350.47,201011,,,D*77
$GPVTG,350.47,T,,M,0.75,N,1.4,K,D*0A
$GPGGA,174335.000,3748.8006,N,12217.8601,W,2,06,1.2,2.9,M,-25.1,M,14.8,0000*72
$GPGSA,A,3,02,09,12,15,17,28,,,,,,,2.9,1.2,2.6*3E
$GPRMC,174335.000,A,3748.8006,N,12217.8601,W,0.52,318.85,201011,,,D*73
$GPVTG,318.85,T,,M,0.52,N,1.0,K,D*09
$GPGGA,174336.000,3748.8011,N,12217.8600,W,2,06,1.2,1.5,M,-25.1,M,15.8,0000*78
$GPGSA,A,3,02,09,12,15,17,28,,,,,,,2.9,1.2,2.6*3E
$GPRMC,174336.000,A,3748.8011,N,12217.8600,W,0.19,18.16,201011,,,D*41
$GPVTG,18.16,T,,M,0.19,N,0.3,K,D*3D
$GPGGA,174337.000,3748.8016,N,12217.8599,W,2,06,1.2,0.8,M,-25.1,M,16.8,0000*72
$GPGSA,A,3,02,09,12,15,17,28,,,,,,,2.9,1.2,2.6*3E
$GPRMC,174337.000,A,3748.8016,N,12217.8599,W,0.12,78.49,201011,,,D*43
$GPVTG,78.49,T,,M,0.12,N,0.2,K,D*3B
$GPGGA,174338.000,3748.8017,N,12217.8599,W,2,06,1.2,-0.3,M,-25.1,M,17.8,0000*5B
$GPGSA,A,3,02,09,12,15,17,28,,,,,,,2.9,1.2,2.6*3E
$GPGSV,3,1,09,27,64,283,28,17,51,043,36,09,50,304,31,04,49,138,22*7C
$GPGSV,3,2,09,28,27,089,32,02,24,181,22,12,18,295,23,15,16,239,23*7D
$GPGSV,3,3,09,26,08,204,21*49
$GPRMC,174338.000,A,3748.8017,N,12217.8599,W,0.26,229.12,201011,,,D*72
$GPVTG,229.12,T,,M,0.26,N,0.5,K,D*03
$GPGGA,174339.000,3748.8020,N,12217.8599,W,1,06,1.2,-1.2,M,-25.1,M,,0000*4D
$GPGSA,A,3,02,09,12,15,17,28,,,,,,,2.9,1.2,2.6*3E
$GPRMC,174339.000,A,3748.8020,N,12217.8599,W,0.50,253.83,201011,,,A*76
$GPVTG,253.83,T,,M,0.50,N,0.9,K,A*0E
$GPGGA,174340.000,3748.8024,N,12217.8599,W,1,06,1.2,-1.9,M,-25.1,M,,0000*4C
$GPGSA,A,3,02,09,12,15,17,28,,,,,,,2.9,1.2,2.6*3E
$GPRMC,174340.000,A,3748.8024,N,12217.8599,W,0.20,179.63,201011,,,A*7E
$GPVTG,179.63,T,,M,0.20,N,0.4,K,A*01
$GPGGA,174341.000,3748.8026,N,12217.8600,W,1,06,1.2,-2.5,M,-25.1,M,,0000*43
$GPGSA,A,3,02,09,12,15,17,28,,,,,,,2.9,1.2,2.6*3E
$GPRMC,174341.000,A,3748.8026,N,12217.8600,W,0.88,27.93,201011,,,A*49
$GPVTG,27.93,T,,M,0.88,N,1.6,K,A*35
$GPGGA,174342.000,3748.8028,N,12217.8601,W,1,06,1.2,-2.7,M,-25.1,M,,0000*4D
$GPGSA,A,3,02,09,12,15,17,28,,,,,,,2.9,1.2,2.6*3E
$GPRMC,174342.000,A,3748.8028,N,12217.8601,W,0.23,1.06,201011,,,A*7C
$GPVTG,1.06,T,,M,0.23,N,0.4,K,A*0F
$GPGGA,174343.000,3748.8029,N,12217.8603,W,1,06,1.2,-2.8,M,-25.1,M,,0000*40
$GPGSA,A,3,02,09,12,15,17,28,,,,,,,2.9,1.2,2.6*3E
$GPGSV,3,1,09,27,64,283,28,17,51,043,38,09,50,304,31,04,49,138,27*77
$GPGSV,3,2,09,28,27,089,39,02,24,181,23,12,18,295,31,15,16,239,23*74
$GPGSV,3,3,09,26,08,204,22*4A
$GPRMC,174343.000,A,3748.8029,N,12217.8603,W,0.59,6.38,201011,,,A*79
$GPVTG,6.38,T,,M,0.59,N,1.1,K,A*0C
$GPGGA,174344.000,3748.8028,N,12217.8603,W,1,06,1.2,-3.5,M,-25.1,M,,0000*4A
$GPGSA,A,3,02,09,12,15,17,28,,,,,,,2.9,1.2,2.6*3E
$GPRMC,174344.000,A,3748.8028,N,12217.8603,W,0.88,53.48,201011,,,A*44
$GPVTG,53.48,T,,M,0.88,N,1.6,K,A*30
$GPGGA,174345.000,3748.8032,N,12217.8600,W,1,05,1.3,-5.2,M,-25.1,M,,0000*40
$GPGSA,A,3,02,09,12,17,28,,,,,,,,3.0,1.3,2.7*32
$GPRMC,174345.000,A,3748.8032,N,12217.8600,W,1.19,40.17,201011,,,A*4C
$GPVTG,40.17,T,,M,1.19,N,2.2,K,A*36
$GPGGA,174346.000,3748.8031,N,12217.8596,W,1,05,1.3,-6.4,M,-25.1,M,,0000*49
$GPGSA,A,3,02,09,12,17,28,,,,,,,,3.0,1.3,2.7*32
$GPRMC,174346.000,A,3748.8031,N,12217.8596,W,0.74,49.10,201011,,,A*44
$GPVTG,49.10,T,,M,0.74,N,1.4,K,A*37
$GPGGA,174347.000,3748.8030,N,12217.8597,W,1,06,1.2,-6.7,M,-25.1,M,,0000*49
$GPGSA,A,3,02,09,12,15,17,28,,,,,,,2.9,1.2,2.6*3E
$GPRMC,174347.000,A,3748.8030,N,12217.8597,W,0.31,31.09,201011,,,A*43
$GPVTG,31.09,T,,M,0.31,N,0.6,K,A*32
$GPGGA,174348.000,3748.8030,N,12217.8597,W,1,06,1.2,-6.2,M,-25.1,M,,0000*43
$GPGSA,A,3,02,09,12,15,17,28,,,,,,,2.9,1.2,2.6*3E
$GPGSV,3,1,09,27,64,283,28,17,51,043,32,09,50,304,26,04,49,138,30*7D
$GPGSV,3,2,09,28,27,089,32,02,24,181,20,12,18,295,33,15,16,239,15*7B
$GPGSV,3,3,09,26,08,204,21*49
$GPRMC,174348.000,A,3748.8030,N,12217.8597,W,0.33,38.47,201011,,,A*4D
$GPVTG,38.47,T,,M,0.33,N,0.6,K,A*33
$GPGGA,174349.000,3748.8028,N,12217.8595,W,1,06,1.2,-5.3,M,-25.1,M,,0000*4B
$GPGSA,A,3,02,09,12,15,17,28,,,,,,,2.9,1.2,2.6*3E
$GPRMC,174349.000,A,3748.8028,N,12217.8595,W,0.30,62.33,201011,,,A*48
$GPVTG,62.33,T,,M,0.30,N,0.6,K,A*3C
$GPGGA,174350.000,3748.8025,N,12217.8594,W,1,06,1.2,-5.4,M,-25.1,M,,0000*48
$GPGSA,A,3,02,09,12,15,17,28,,,,,,,2.9,1.2,2.6*3E
$GPRMC,174350.000,A,3748.8025,N,12217.8594,W,0.21,300.44,201011,,,A*7B
$GPVTG,300.44,T,,M,0.21,N,0.4,K,A*09
$GPGGA,174351.000,3748.8026,N,12217.8594,W,1,06,1.2,-5.3,M,-25.1,M,,0000*4D
$GPGSA,A,3,02,09,12,15,17,28,,,,,,,2.9,1.2,2.6*3E
$GPRMC,174351.000,A,3748.8026,N,12217.8594,W,0.35,294.13,201011,,,A*72
$GPVTG,294.13,T,,M,0.35,N,0.7,K,A*01
$GPGGA,174352.000,3748.8026,N,12217.8593,W,1,05,1.3,-5.1,M,-25.1,M,,0000*49
$GPGSA,A,3,02,09,12,17,28,,,,,,,,3.0,1.3,2.7*32
$GPRMC,174352.000,A,3748.8026,N,12217.8593,W,0.45,37.53,201011,,,A*4E
$GPVTG,37.53,T,,M,0.45,N,0.8,K,A*36
$GPGGA,174353.000,3748.8022,N,12217.8593,W,1,05,1.3,-5.0,M,-25.1,M,,0000*4D
$GPGSA,A,3,02,09,12,17,28,,,,,,,,3.0,1.3,2.7*32
$GPGSV,3,1,09,27,64,283,24,17,51,043,32,09,50,304,25,04,49,138,27*74
$GPGSV,3,2,09,28,27,089,29,02,24,181,22,12,18,295,23,15,16,239,*76
$GPGSV,3,3,09,26,08,204,19*42
$GPRMC,174353.000,A,3748.8022,N,12217.8593,W,0.44,138.59,201011,,,A*7E
$GPVTG,138.59,T,,M,0.44,N,0.8,K,A*03
$GPGGA,174354.000,3748.8017,N,12217.8595,W,1,05,1.3,-5.6,M,-25.1,M,,0000*4C
$GPGSA,A,3,02,09,12,17,28,,,,,,,,3.0,1.3,2.7*32
$GPRMC,174354.000,A,3748.8017,N,12217.8595,W,0.47,177.99,201011,,,A*7D
$GPVTG,177.99,T,,M,0.47,N,0.9,K,A*06
$GPGGA,174355.000,3748.8015,N,12217.8595,W,1,05,1.3,-5.7,M,-25.1,M,,0000*4E
$GPGSA,A,3,02,09,12,17,28,,,,,,,,3.0,1.3,2.7*32
$GPRMC,174355.000,A,3748.8015,N,12217.8595,W,0.07,294.48,201011,,,A*78
$GPVTG,294.48,T,,M,0.07,N,0.1,K,A*08
$GPGGA,174356.000,3748.8017,N,12217.8597,W,1,05,1.3,-6.6,M,-25.1,M,,0000*4F
$GPGSA,A,3,02,09,12,17,28,,,,,,,,3.0,1.3,2.7*32
$GPRMC,174356.000,A,3748.8017,N,12217.8597,W,0.40,234.56,201011,,,A*7D
$GPVTG,234.56,T,,M,0.40,N,0.7,K,A*08
$GPGGA,174357.000,3748.8014,N,12217.8598,W,1,04,1.4,-6.8,M,-25.1,M,,0000*4A
$GPGSA,A,3,02,12,17,28,,,,,,,,,4.1,1.4,3.9*35
$GPRMC,174357.000,A,3748.8014,N,12217.8598,W,0.41,88.96,201011,,,A*48
$GPVTG,88.96,T,,M,0.41,N,0.8,K,A*3F
$GPGGA,174358.000,3748.8016,N,12217.8595,W,1,03,2.5,-7.1,M,-25.1,M,,0000*47
$GPGSA,A,2,02,17,28,,,,,,,,,,2.7,2.5,1.0*3E
$GPGSV,3,1,09,27,64,283,19,17,51,043,28,09,50,304,13,04,49,138,20*73
$GPGSV,3,2,09,28,27,089,29,02,24,181,23,12,18,295,13,15,16,239,*74
$GPGSV,3,3,09,26,08,204,17*4C
$GPRMC,174358.000,A,3748.8016,N,12217.8595,W,0.99,46.98,201011,,,A*41
$GPVTG,46.98,T,,M,0.99,N,1.8,K,A*37
$GPGGA,174359.000,3748.8022,N,12217.8595,W,1,05,1.8,-7.4,M,-25.1,M,,0000*4C
$GPGSA,A,3,02,09,15,17,28,,,,,,,,4.4,1.8,4.0*3C
$GPRMC,174359.000,A,3748.8022,N,12217.8595,W,1.23,344.20,201011,,,A*75
$GPVTG,344.20,T,,M,1.23,N,2.3,K,A*0D
$GPGGA,174400.000,3748.8020,N,12217.8595,W,1,06,1.2,-8.4,M,-25.1,M,,0000*43
$GPGSA,A,3,02,09,12,15,17,28,,,,,,,2.9,1.2,2.6*3E
$GPRMC,174400.000,A,3748.8020,N,12217.8595,W,0.14,165.98,201011,,,A*7B
$GPVTG,165.98,T,,M,0.14,N,0.3,K,A*08
$GPGGA,174401.000,3748.8014,N,12217.8597,W,1,06,1.2,-9.8,M,-25.1,M,,0000*4A
$GPGSA,A,3,02,09,12,15,17,28,,,,,,,2.9,1.2,2.6*3E
$GPRMC,174401.000,A,3748.8014,N,12217.8597,W,1.10,130.21,201011,,,A*78
$GPVTG,130.21,T,,M,1.10,N,2.0,K,A*0E
$GPGGA,174402.000,3748.8011,N,12217.8604,W,1,06,1.2,-6.6,M,-25.1,M,,0000*44
$GPGSA,A,3,02,09,12,15,17,28,,,,,,,2.9,1.2,2.6*3E
$GPRMC,174402.000,A,3748.8011,N,12217.8604,W,1.26,120.01,201011,,,A*71
$GPVTG,120.01,T,,M,1.26,N,2.3,K,A*0B
$GPGGA,174403.000,3748.8009,N,12217.8603,W,1,05,1.7,-5.5,M,-25.1,M,,0000*4D
$GPGSA,A,3,02,09,12,15,17,,,,,,,,3.9,1.7,3.6*31
$GPGSV,3,1,10,27,64,283,31,17,51,043,22,09,50,304,34,04,49,138,27*79
$GPGSV,3,2,10,28,27,089,17,02,24,181,28,12,18,295,35,15,16,239,39*74
$GPGSV,3,3,10,26,08,204,25,48,44,197,34*71
$GPVTG,116.09,T,,M,1.02,N,1.9,K,A*09
$GPGGA,174404.000,3748.8010,N,12217.8603,W,2,05,1.7,-4.7,M,-25.1,M,1.8,0000*65
$GPGSA,A,3,02,09,12,15,17,,,,,,,,3.9,1.7,3.6*31
$GPRMC,174404.000,A,3748.8010,N,12217.8603,W,1.34,114.70,201011,,,D*76
$GPVTG,114.70,T,,M,1.34,N,2.5,K,D*0A
$GPGGA,174405.000,3748.8003,N,12217.8601,W,2,06,1.2,-3.4,M,-25.1,M,2.8,0000*65
$GPGSA,A,3,02,09,12,15,17,28,,,,,,,2.9,1.2,2.6*3E
$GPRMC,174405.000,A,3748.8003,N,12217.8601,W,2.14,123.44,201011,,,D*75
$GPVTG,123.44,T,,M,2.14,N,4.0,K,D*0B
$GPGGA,174406.000,3748.7997,N,12217.8598,W,2,06,1.2,-2.9,M,-25.1,M,3.8,0000*63
$GPGSA,A,3,02,09,12,15,17,28,,,,,,,2.9,1.2,2.6*3E
$GPRMC,174406.000,A,3748.7997,N,12217.8598,W,2.13,118.22,201011,,,D*71
$GPVTG,118.22,T,,M,2.13,N,3.9,K,D*0A
$GPGGA,174407.000,3748.7993,N,12217.8586,W,2,06,1.2,-3.1,M,-25.1,M,4.8,0000*67
$GPGSA,A,3,02,09,12,15,17,28,,,,,,,2.9,1.2,2.6*3E
$GPRMC,174407.000,A,3748.7993,N,12217.8586,W,2.02,124.99,201011,,,D*74
$GPVTG,124.99,T,,M,2.02,N,3.7,K,D*0B
$GPGGA,174408.000,3748.7985,N,12217.8582,W,2,06,1.2,-3.1,M,-25.1,M,1.8,0000*6E
$GPGSA,A,3,02,09,12,15,17,28,,,,,,,2.9,1.2,2.6*3E
$GPGSV,3,1,10,27,64,283,27,17,51,043,23,09,50,304,26,04,49,138,35*7F
$GPGSV,3,2,10,28,27,089,21,02,24,181,38,12,18,295,26,15,16,239,32*79
$GPGSV,3,3,10,26,08,204,25,48,44,197,38*7D
$GPRMC,174408.000,A,3748.7985,N,12217.8582,W,2.01,135.99,201011,,,D*7B
$GPVTG,135.99,T,,M,2.01,N,3.7,K,D*08
$GPGGA,174409.000,3748.7979,N,12217.8575,W,2,06,1.2,-3.2,M,-25.1,M,1.8,0000*67
$GPGSA,A,3,02,09,12,15,17,28,,,,,,,2.9,1.2,2.6*3E
$GPRMC,174409.000,A,3748.7979,N,12217.8575,W,1.86,127.27,201011,,,D*7B
$GPVTG,127.27,T,,M,1.86,N,3.4,K,D*01
$GPGGA,174410.000,3748.7976,N,12217.8565,W,2,06,1.2,-4.6,M,-25.1,M,1.8,0000*62
$GPGSA,A,3,02,09,12,15,17,28,,,,,,,2.9,1.2,2.6*3E
$GPRMC,174410.000,A,3748.7976,N,12217.8565,W,2.12,110.72,201011,,,D*77
$GPVTG,110.72,T,,M,2.12,N,3.9,K,D*06
$GPGGA,174411.000,3748.7974,N,12217.8556,W,2,06,1.2,-3.7,M,-25.1,M,1.8,0000*67
$GPGSA,A,3,02,09,12,15,17,28,,,,,,,2.9,1.2,2.6*3E
$GPRMC,174411.000,A,3748.7974,N,12217.8556,W,1.87,101.36,201011,,,D*7B
$GPVTG,101.36,T,,M,1.87,N,3.5,K,D*05
$GPGGA,174412.000,3748.7969,N,12217.8557,W,2,06,1.2,-3.0,M,-25.1,M,1.8,0000*6E
$GPGSA,A,3,02,09,12,15,17,28,,,,,,,2.9,1.2,2.6*3E
$GPRMC,174412.000,A,3748.7969,N,12217.8557,W,1.13,130.07,201011,,,D*78
$GPVTG,130.07,T,,M,1.13,N,2.1,K,D*0D
$GPGGA,174413.000,3748.7964,N,12217.8547,W,2,06,1.2,-2.7,M,-25.1,M,2.8,0000*66
$GPGSA,A,3,02,09,12,15,17,28,,,,,,,2.9,1.2,2.6*3E
$GPGSV,3,1,10,27,64,283,25,17,51,043,23,09,50,304,22,04,49,138,33*7F
$GPGSV,3,2,10,28,27,089,14,02,24,181,35,12,18,295,20,15,16,239,30*76
$GPGSV,3,3,10,26,08,204,30,48,44,197,30*71
$GPRMC,174413.000,A,3748.7964,N,12217.8547,W,1.80,101.65,201011,,,D*79
$GPVTG,101.65,T,,M,1.80,N,3.3,K,D*02
$GPGGA,174414.000,3748.7961,N,12217.8534,W,2,05,1.7,-1.4,M,-25.1,M,3.8,0000*67
$GPGSA,A,3,02,09,12,15,17,,,,,,,,3.9,1.7,3.5*32
$GPRMC,174414.000,A,3748.7961,N,12217.8534,W,2.63,88.94,201011,,,D*4F
$GPVTG,88.94,T,,M,2.63,N,4.9,K,D*3F
$GPGGA,174415.000,3748.7959,N,12217.8525,W,2,05,1.7,-0.4,M,-25.1,M,1.8,0000*6E
$GPGSA,A,3,02,09,12,15,17,,,,,,,,3.9,1.7,3.5*32
$GPRMC,174415.000,A,3748.7959,N,12217.8525,W,1.74,100.18,201011,,,D*75
$GPVTG,100.18,T,,M,1.74,N,3.2,K,D*03
$GPGGA,174416.000,3748.7955,N,12217.8519,W,2,06,1.2,-0.9,M,-25.1,M,1.8,0000*65
$GPGSA,A,3,02,09,12,15,17,28,,,,,,,2.9,1.2,2.6*3E
$GPRMC,174416.000,A,3748.7955,N,12217.8519,W,1.61,126.56,201011,,,D*7F
$GPVTG,126.56,T,,M,1.61,N,3.0,K,D*0B
$GPGGA,174417.000,3748.7946,N,12217.8524,W,2,06,1.2,1.3,M,-25.1,M,2.8,0000*4D
$GPGSA,A,3,02,09,12,15,17,28,,,,,,,2.9,1.2,2.6*3E
$GPRMC,174417.000,A,3748.7946,N,12217.8524,W,1.96,141.13,201011,,,D*7A
$GPVTG,141.13,T,,M,1.96,N,3.6,K,D*05
$GPGGA,174418.000,3748.7943,N,12217.8515,W,2,06,1.2,0.2,M,-25.1,M,3.8,0000*44
$GPGSA,A,3,02,09,12,15,17,28,,,,,,,2.9,1.2,2.6*3E
$GPGSV,3,1,10,27,64,283,26,17,51,043,23,09,50,304,28,04,49,138,31*74
$GPGSV,3,2,10,28,27,089,28,02,24,181,39,12,18,295,25,15,16,239,36*76
$GPGSV,3,3,10,26,08,204,40,48,44,197,38*7E
$GPRMC,174418.000,A,3748.7943,N,12217.8515,W,1.84,115.78,201011,,,D*7D
$GPGGA,174419.000,3748.7942,N,12217.8505,W,2,06,1.2,-0.6,M,-25.1,M,4.8,0000*6B
$GPGSA,A,3,02,09,12,15,17,28,,,,,,,2.9,1.2,2.6*3E
$GPRMC,174419.000,A,3748.7942,N,12217.8505,W,1.82,103.26,201011,,,D*76
$GPVTG,103.26,T,,M,1.82,N,3.4,K,D*02
$GPGGA,174420.000,3748.7940,N,12217.8500,W,2,06,1.2,-0.6,M,-25.1,M,1.8,0000*63
$GPGSA,A,3,02,09,12,15,17,28,,,,,,,2.9,1.2,2.6*3E
$GPRMC,174420.000,A,3748.7940,N,12217.8500,W,1.38,111.84,201011,,,D*71
$GPVTG,111.84,T,,M,1.38,N,2.5,K,D*08
$GPGGA,174421.000,3748.7936,N,12217.8496,W,2,06,1.2,-0.2,M,-25.1,M,1.8,0000*69
$GPGSA,A,3,02,09,12,15,17,28,,,,,,,2.9,1.2,2.6*3E
$GPRMC,174421.000,A,3748.7936,N,12217.8496,W,1.79,112.41,201011,,,D*70
$GPVTG,112.41,T,,M,1.79,N,3.3,K,D*00
$GPGGA,174422.000,3748.7933,N,12217.8492,W,2,06,1.2,0.8,M,-25.1,M,2.8,0000*4F
$GPGSA,A,3,02,09,12,15,17,28,,,,,,,2.9,1.2,2.6*3E
$GPRMC,174422.000,A,3748.7933,N,12217.8492,W,1.52,105.08,201011,,,D*70
$GPVTG,105.08,T,,M,1.52,N,2.8,K,D*08
$GPGGA,174423.000,3748.7929,N,12217.8490,W,2,06,1.2,1.7,M,-25.1,M,3.8,0000*48
$GPGSA,A,3,02,09,12,15,17,28,,,,,,,2.9,1.2,2.6*3E
$GPGSV,3,1,10,27,64,283,26,17,51,043,24,09,50,304,26,04,49,138,34*78
$GPGSV,3,2,10,28,27,089,25,02,24,181,37,12,18,295,25,15,16,239,32*71
$GPGSV,3,3,10,26,08,204,24,48,44,197,39*7D
$GPRMC,174423.000,A,3748.7929,N,12217.8490,W,1.53,111.12,201011,,,D*77
$GPVTG,111.12,T,,M,1.53,N,2.8,K,D*07
$GPGGA,174424.000,3748.7925,N,12217.8485,W,2,06,1.2,2.0,M,-25.1,M,4.8,0000*44
$GPGSA,A,3,02,09,12,15,17,28,,,,,,,2.9,1.2,2.6*3E
$GPRMC,174424.000,A,3748.7925,N,12217.8485,W,2.08,119.11,201011,,,D*7E
$GPVTG,119.11,T,,M,2.08,N,3.9,K,D*01
$GPGGA,174425.000,3748.7920,N,12217.8480,W,2,06,1.2,1.7,M,-25.1,M,5.8,0000*40
$GPGSA,A,3,02,09,12,15,17,28,,,,,,,2.9,1.2,2.6*3E
$GPRMC,174425.000,A,3748.7920,N,12217.8480,W,1.92,119.51,201011,,,D*7B
$GPVTG,119.51,T,,M,1.92,N,3.6,K,D*0A
$GPGGA,174426.000,3748.7917,N,12217.8473,W,2,06,1.2,2.4,M,-25.1,M,1.8,0000*4F
$GPGSA,A,3,02,09,12,15,17,28,,,,,,,2.9,1.2,2.6*3E
$GPRMC,174426.000,A,3748.7917,N,12217.8473,W,1.52,118.01,201011,,,D*78
$GPVTG,118.01,T,,M,1.52,N,2.8,K,D*0D
$GPGGA,174427.000,3748.7912,N,12217.8469,W,2,06,1.2,1.7,M,-25.1,M,2.8,0000*43
$GPGSA,A,3,02,09,12,15,17,28,,,,,,,2.9,1.2,2.6*3E
$GPRMC,174427.000,A,3748.7912,N,12217.8469,W,1.91,124.66,201011,,,D*76
$GPVTG,124.66,T,,M,1.91,N,3.5,K,D*00
$GPGGA,174428.000,3748.7908,N,12217.8462,W,2,06,1.2,0.6,M,-25.1,M,1.8,0000*4F
$GPGSA,A,3,02,09,12,15,17,28,,,,,,,2.9,1.2,2.6*3E
$GPGSV,3,1,10,27,64,283,23,17,51,043,28,09,50,304,27,04,49,138,32*76
$GPGSV,3,2,10,28,27,089,25,02,24,181,38,12,18,295,26,15,16,239,34*7B
$GPGSV,3,3,10,26,08,204,31,48,44,197,37*77
$GPRMC,174428.000,A,3748.7908,N,12217.8462,W,1.90,115.92,201011,,,D*71
$GPVTG,115.92,T,,M,1.90,N,3.5,K,D*08
$GPGGA,174429.000,3748.7906,N,12217.8451,W,2,06,1.2,-1.2,M,-25.1,M,2.8,0000*6B
$GPGSA,A,3,02,09,12,15,17,28,,,,,,,2.9,1.2,2.6*3E
$GPRMC,174429.000,A,3748.7906,N,12217.8451,W,1.57,113.71,201011,,,D*7E
$GPVTG,113.71,T,,M,1.57,N,2.9,K,D*05
$GPGGA,174430.000,3748.7903,N,12217.8447,W,2,06,1.2,-0.9,M,-25.1,M,3.8,0000*6A
$GPGSA,A,3,02,09,12,15,17,28,,,,,,,2.9,1.2,2.6*3E
$GPRMC,174430.000,A,3748.7903,N,12217.8447,W,1.49,119.01,201011,,,D*76
$GPVTG,119.01,T,,M,1.49,N,2.8,K,D*06
$GPGGA,174431.000,3748.7900,N,12217.8442,W,2,06,1.2,-0.8,M,-25.1,M,4.8,0000*6B
$GPGSA,A,3,02,09,12,15,17,28,,,,,,,2.9,1.2,2.6*3E
$GPRMC,174431.000,A,3748.7900,N,12217.8442,W,1.46,128.66,201011,,,D*7D
$GPVTG,128.66,T,,M,1.46,N,2.7,K,D*05
$GPGGA,174432.000,3748.7896,N,12217.8437,W,2,06,1.2,-1.0,M,-25.1,M,1.8,0000*68
$GPGSA,A,3,02,09,12,15,17,28,,,,,,,2.9,1.2,2.6*3E
$GPRMC,174432.000,A,3748.7896,N,12217.8437,W,1.96,120.15,201011,,,D*73
$GPVTG,120.15,T,,M,1.96,N,3.6,K,D*04
$GPGGA,174433.000,3748.7894,N,12217.8428,W,2,06,1.2,-2.4,M,-25.1,M,1.8,0000*62
$GPGSA,A,3,02,09,12,15,17,28,,,,,,,2.9,1.2,2.6*3E
$GPGSV,3,1,10,27,64,283,26,17,51,043,27,09,50,304,28,04,49,138,34*75
$GPGSV,3,2,10,28,27,089,25,02,24,181,39,12,18,295,22,15,16,239,34*7E
$GPGSV,3,3,10,26,08,204,23,48,44,197,39*7A
$GPVTG,118.59,T,,M,2.11,N,3.9,K,D*04
$GPGGA,174434.000,3748.7891,N,12217.8421,W,2,06,1.2,-3.2,M,-25.1,M,1.8,0000*6E
$GPGSA,A,3,02,09,12,15,17,28,,,,,,,2.9,1.2,2.6*3E
$GPRMC,174434.000,A,3748.7891,N,12217.8421,W,1.71,117.97,201011,,,D*72
$GPVTG,117.97,T,,M,1.71,N,3.2,K,D*07
$GPGGA,174435.000,3748.7889,N,12217.8413,W,2,06,1.2,-3.9,M,-25.1,M,1.8,0000*6C
$GPGSA,A,3,02,09,12,15,17,28,,,,,,,2.9,1.2,2.6*3E
$GPRMC,174435.000,A,3748.7889,N,12217.8413,W,2.21,117.52,201011,,,D*74
$GPVTG,117.52,T,,M,2.21,N,4.1,K,D*0C
$GPGGA,174436.000,3748.7886,N,12217.8405,W,2,06,1.2,-4.7,M,-25.1,M,2.8,0000*6D
$GPGSA,A,3,02,09,12,15,17,28,,,,,,,2.9,1.2,2.6*3E
$GPRMC,174436.000,A,3748.7886,N,12217.8405,W,1.99,123.63,201011,,,D*7A
$GPVTG,123.63,T,,M,1.99,N,3.7,K,D*08
$GPGGA,174437.000,3748.7884,N,12217.8396,W,2,06,1.2,-6.0,M,-25.1,M,3.8,0000*67
$GPGSA,A,3,02,09,12,15,17,28,,,,,,,2.9,1.2,2.6*3E
$GPRMC,174437.000,A,3748.7884,N,12217.8396,W,1.74,107.31,201011,,,D*76
$GPVTG,107.31,T,,M,1.74,N,3.2,K,D*0F
$GPGGA,174438.000,3748.7881,N,12217.8390,W,2,06,1.2,-6.9,M,-25.1,M,1.8,0000*60
$GPGSA,A,3,02,09,12,15,17,28,,,,,,,2.9,1.2,2.6*3E
$GPGSV,3,1,10,27,64,283,26,17,51,043,24,09,50,304,28,04,49,138,32*70
$GPGSV,3,2,10,28,27,089,28,02,24,181,31,12,18,295,23,15,16,239,34*7A
$GPGSV,3,3,10,26,08,204,20,48,44,197,33*73
$GPRMC,174438.000,A,3748.7881,N,12217.8390,W,1.43,117.14,201011,,,D*78
$GPVTG,117.14,T,,M,1.43,N,2.7,K,D*09
$GPGGA,174439.000,3748.7878,N,12217.8384,W,2,06,1.2,-7.2,M,-25.1,M,2.8,0000*6B
$GPGSA,A,3,02,09,12,15,17,28,,,,,,,2.9,1.2,2.6*3E
$GPRMC,174439.000,A,3748.7878,N,12217.8384,W,1.77,113.38,201011,,,D*77
$GPVTG,113.38,T,,M,1.77,N,3.3,K,D*01
$GPGGA,174440.000,3748.7874,N,12217.8375,W,2,06,1.2,-8.7,M,-25.1,M,1.8,0000*6E
$GPGSA,A,3,02,09,12,15,17,28,,,,,,,2.9,1.2,2.6*3E
$GPRMC,174440.000,A,3748.7874,N,12217.8375,W,1.97,119.75,201011,,,D*76
$GPVTG,119.75,T,,M,1.97,N,3.7,K,D*08
$GPGGA,174441.000,3748.7864,N,12217.8369,W,2,06,1.2,-6.6,M,-25.1,M,2.8,0000*6F
$GPGSA,A,3,02,09,12,15,17,28,,,,,,,2.9,1.2,2.6*3E
$GPRMC,174441.000,A,3748.7864,N,12217.8369,W,2.06,124.99,201011,,,D*7C
$GPVTG,124.99,T,,M,2.06,N,3.8,K,D*00
$GPGGA,174442.000,3748.7859,N,12217.8363,W,2,06,1.2,-7.0,M,-25.1,M,3.8,0000*6E
$GPGSA,A,3,02,09,12,15,17,28,,,,,,,2.9,1.2,2.6*3E
$GPRMC,174442.000,A,3748.7859,N,12217.8363,W,2.14,121.36,201011,,,D*78
$GPVTG,121.36,T,,M,2.14,N,4.0,K,D*0C
$GPGGA,174443.000,3748.7855,N,12217.8356,W,2,06,1.2,-7.4,M,-25.1,M,1.8,0000*63
$GPGSA,A,3,02,09,12,15,17,28,,,,,,,2.9,1.2,2.6*3E
$GPGSV,3,1,10,27,64,283,28,17,51,043,24,09,50,304,29,04,49,138,31*7C
$GPGSV,3,2,10,28,27,089,25,02,24,181,36,12,18,295,23,15,16,239,35*71
$GPGSV,3,3,10,26,08,204,23,48,44,197,40*74
$GPRMC,174443.000,A,3748.7855,N,12217.8356,W,2.23,116.08,201011,,,D*7E
$GPVTG,116.08,T,,M,2.23,N,4.1,K,D*00
$GPGGA,174444.000,3748.7853,N,12217.8347,W,2,06,1.2,-8.1,M,-25.1,M,1.8,0000*68
$GPGSA,A,3,02,09,12,15,17,28,,,,,,,2.9,1.2,2.6*3E
$GPRMC,174444.000,A,3748.7853,N,12217.8347,W,2.08,115.34,201011,,,D*7A
$GPVTG,115.34,T,,M,2.08,N,3.9,K,D*0A
$GPGGA,174445.000,3748.7850,N,12217.8340,W,2,06,1.2,-7.5,M,-25.1,M,1.8,0000*66
$GPGSA,A,3,02,09,12,15,17,28,,,,,,,2.9,1.2,2.6*3E
$GPRMC,174445.000,A,3748.7850,N,12217.8340,W,2.07,114.15,201011,,,D*72
$GPVTG,114.15,T,,M,2.07,N,3.8,K,D*06
$GPGGA,174446.000,3748.7848,N,12217.8334,W,2,06,1.2,-7.2,M,-25.1,M,1.8,0000*68
$GPGSA,A,3,02,09,12,15,17,28,,,,,,,2.9,1.2,2.6*3E
$GPRMC,174446.000,A,3748.7848,N,12217.8334,W,1.79,106.30,201011,,,D*75
$GPVTG,106.30,T,,M,1.79,N,3.3,K,D*03
$GPGGA,174447.000,3748.7847,N,12217.8327,W,2,06,1.2,-7.5,M,-25.1,M,2.8,0000*60
$GPGSA,A,3,02,09,12,15,17,28,,,,,,,2.9,1.2,2.6*3E
$GPRMC,174447.000,A,3748.7847,N,12217.8327,W,1.71,100.68,201011,,,D*7A
$GPVTG,100.68,T,,M,1.71,N,3.2,K,D*01
$GPGGA,174448.000,3748.7845,N,12217.8321,W,2,06,1.2,-8.1,M,-25.1,M,3.8,0000*61
$GPGSA,A,3,02,09,12,15,17,28,,,,,,,2.9,1.2,2.6*3E
$GPGSV,3,1,10,27,64,283,27,17,51,043,24,09,50,304,27,04,49,138,33*7F
$GPGSV,3,2,10,28,27,089,31,02,24,181,37,12,18,295,24,15,16,239,33*74
$GPGSV,3,3,10,26,08,204,24,48,44,197,40*73
$GPVTG,107.58,T,,M,1.65,N,3.1,K,D*03
$GPGGA,174449.000,3748.7843,N,12217.8314,W,2,06,1.2,-8.7,M,-25.1,M,4.8,0000*61
$GPGSA,A,3,02,09,12,15,17,28,,,,,,,2.9,1.2,2.6*3E
$GPRMC,174449.000,A,3748.7843,N,12217.8314,W,1.79,109.67,201011,,,D*7E
$GPVTG,109.67,T,,M,1.79,N,3.3,K,D*0E
$GPGGA,174450.000,3748.7840,N,12217.8306,W,2,06,1.2,-9.4,M,-25.1,M,1.8,0000*6E
$GPGSA,A,3,02,09,12,15,17,28,,,,,,,2.9,1.2,2.6*3E
$GPRMC,174450.000,A,3748.7840,N,12217.8306,W,1.62,101.31,201011,,,D*77
$GPVTG,101.31,T,,M,1.62,N,3.0,K,D*0C
$GPGGA,174451.000,3748.7836,N,12217.8300,W,2,06,1.2,-8.1,M,-25.1,M,1.8,0000*6C
$GPGSA,A,3,02,09,12,15,17,28,,,,,,,2.8,1.2,2.6*3F
$GPRMC,174451.000,A,3748.7836,N,12217.8300,W,1.71,109.79,201011,,,D*77
$GPVTG,109.79,T,,M,1.71,N,3.2,K,D*08
$GPGGA,174452.000,3748.7833,N,12217.8293,W,2,06,1.2,-8.0,M,-25.1,M,1.8,0000*60
$GPGSA,A,3,02,09,12,15,17,28,,,,,,,2.8,1.2,2.6*3F
$GPRMC,174452.000,A,3748.7833,N,12217.8293,W,1.57,118.00,201011,,,D*70
$GPVTG,118.00,T,,M,1.57,N,2.9,K,D*08
$GPGGA,174453.000,3748.7829,N,12217.8288,W,2,06,1.2,-7.8,M,-25.1,M,2.8,0000*64
$GPGSA,A,3,02,09,12,15,17,28,,,,,,,2.8,1.2,2.6*3F
$GPGSV,3,1,09,27,64,283,24,17,51,043,23,09,50,304,34,04,49,138,26*75
$GPGSV,3,2,09,28,27,089,23,02,24,181,31,12,18,295,28,15,16,239,38*7E
$GPGSV,3,3,09,26,08,204,29*41
$GPRMC,174453.000,A,3748.7829,N,12217.8288,W,1.88,108.04,201011,,,D*77
$GPVTG,108.04,T,,M,1.88,N,3.5,K,D*02
$GPGGA,174454.000,3748.7826,N,12217.8284,W,2,06,1.2,-7.0,M,-25.1,M,3.8,0000*69
$GPGSA,A,3,02,09,12,15,17,28,,,,,,,2.8,1.2,2.6*3F
$GPRMC,174454.000,A,3748.7826,N,12217.8284,W,1.86,103.24,201011,,,D*74
$GPVTG,103.24,T,,M,1.86,N,3.4,K,D*04
$GPGGA,174455.000,3748.7824,N,12217.8277,W,2,06,1.2,-7.3,M,-25.1,M,4.8,0000*62
$GPGSA,A,3,02,09,12,15,17,28,,,,,,,2.8,1.2,2.6*3F
$GPRMC,174455.000,A,3748.7824,N,12217.8277,W,1.82,93.00,201011,,,D*41
$GPVTG,93.00,T,,M,1.82,N,3.4,K,D*3E
$GPGGA,174456.000,3748.7820,N,12217.8271,W,2,06,1.2,-8.4,M,-25.1,M,5.8,0000*6A
$GPGSA,A,3,02,09,12,15,17,28,,,,,,,2.8,1.2,2.6*3F
$GPRMC,174456.000,A,3748.7820,N,12217.8271,W,1.90,127.85,201011,,,D*70
$GPVTG,127.85,T,,M,1.90,N,3.5,K,D*0F
$GPGGA,174457.000,3748.7815,N,12217.8267,W,2,06,1.2,-9.4,M,-25.1,M,6.8,0000*68
$GPGSA,A,3,02,09,12,15,17,28,,,,,,,2.8,1.2,2.6*3F
$GPRMC,174457.000,A,3748.7815,N,12217.8267,W,1.64,128.66,201011,,,D*79
$GPVTG,128.66,T,,M,1.64,N,3.0,K,D*03
$GPGGA,174458.000,3748.7808,N,12217.8261,W,2,06,1.2,-8.5,M,-25.1,M,7.8,0000*6C
$GPGSA,A,3,02,09,12,15,17,28,,,,,,,2.8,1.2,2.6*3F
$GPGSV,3,1,10,27,64,283,25,17,51,043,29,09,50,304,27,04,49,138,36*75
$GPGSV,3,2,10,28,27,089,21,02,24,181,39,12,18,295,21,15,16,239,37*7A
$GPGSV,3,3,10,26,08,204,22,48,44,197,39*7B
$GPRMC,174458.000,A,3748.7808,N,12217.8261,W,1.57,118.63,201011,,,D*7A
$GPVTG,118.63,T,,M,1.57,N,2.9,K,D*0D
$GPGGA,174459.000,3748.7801,N,12217.8256,W,2,06,1.2,-7.2,M,-25.1,M,1.8,0000*6E
$GPGSA,A,3,02,09,12,15,17,28,,,,,,,2.8,1.2,2.6*3F
$GPRMC,174459.000,A,3748.7801,N,12217.8256,W,1.60,117.98,201011,,,D*79
$GPVTG,117.98,T,,M,1.60,N,3.0,K,D*0A
$GPGGA,174500.000,3748.7797,N,12217.8257,W,2,06,1.2,-5.8,M,-25.1,M,2.8,0000*69
$GPGSA,A,3,02,09,12,15,17,28,,,,,,,2.8,1.2,2.6*3F
$GPRMC,174500.000,A,3748.7797,N,12217.8257,W,0.40,123.04,201011,,,D*74
$GPVTG,123.04,T,,M,0.40,N,0.7,K,D*0F
$GPGGA,174501.000,3748.7796,N,12217.8258,W,2,06,1.2,-5.7,M,-25.1,M,1.8,0000*6A
$GPGSA,A,3,02,09,12,15,17,28,,,,,,,2.8,1.2,2.6*3F
$GPRMC,174501.000,A,3748.7796,N,12217.8258,W,0.16,167.31,201011,,,D*7E
$GPVTG,167.31,T,,M,0.16,N,0.3,K,D*0E
$GPGGA,174502.000,3748.7796,N,12217.8259,W,2,06,1.2,-5.9,M,-25.1,M,1.8,0000*66
$GPGSA,A,3,02,09,12,15,17,28,,,,,,,2.8,1.2,2.6*3F
$GPRMC,174502.000,A,3748.7796,N,12217.8259,W,0.23,288.84,201011,,,D*76
$GPVTG,288.84,T,,M,0.23,N,0.4,K,D*03
$GPGGA,174503.000,3748.7796,N,12217.8259,W,2,06,1.2,-6.6,M,-25.1,M,1.8,0000*6B
$GPGSA,A,3,02,09,12,15,17,28,,,,,,,2.8,1.2,2.6*3F
$GPGSV,3,1,10,27,64,283,31,17,51,043,25,09,50,304,28,04,49,138,35*70
$GPGSV,3,2,10,28,27,089,24,02,24,181,39,12,18,295,22,15,16,239,38*73
$GPGSV,3,3,10,26,08,204,23,48,44,197,39*7A
$GPVTG,355.90,T,,M,0.31,N,0.6,K,D*06
$GPGGA,174504.000,3748.7795,N,12217.8261,W,2,06,1.2,-7.4,M,-25.1,M,0.8,0000*66
$GPGSA,A,3,02,09,12,15,17,28,,,,,,,2.8,1.2,2.6*3F
$GPRMC,174504.000,A,3748.7795,N,12217.8261,W,0.25,53.41,201011,,,D*43
$GPVTG,53.41,T,,M,0.25,N,0.5,K,D*39
$GPGGA,174505.000,3748.7796,N,12217.8260,W,2,06,1.2,-8.3,M,-25.1,M,1.8,0000*6C
$GPGSA,A,3,02,09,12,15,17,28,,,,,,,2.8,1.2,2.6*3F
$GPRMC,174505.000,A,3748.7796,N,12217.8260,W,0.19,73.88,201011,,,D*48
$GPVTG,73.88,T,,M,0.19,N,0.4,K,D*30
$GPGGA,174506.000,3748.7797,N,12217.8257,W,2,06,1.2,-8.8,M,-25.1,M,2.8,0000*62
$GPGSA,A,3,02,09,12,15,17,28,,,,,,,2.8,1.2,2.6*3F
$GPRMC,174506.000,A,3748.7797,N,12217.8257,W,0.14,64.94,201011,,,D*48
$GPVTG,64.94,T,,M,0.14,N,0.3,K,D*31
$GPGGA,174507.000,3748.7796,N,12217.8258,W,2,06,1.2,-10.1,M,-25.1,M,3.8,0000*5C
$GPGSA,A,3,02,09,12,15,17,28,,,,,,,2.8,1.2,2.6*3F
$GPRMC,174507.000,A,3748.7796,N,12217.8258,W,0.31,145.48,201011,,,D*73
$GPVTG,145.48,T,,M,0.31,N,0.6,K,D*00
$GPGGA,174508.000,3748.7794,N,12217.8258,W,2,06,1.2,-9.3,M,-25.1,M,1.8,0000*69
$GPGSA,A,3,02,09,12,15,17,28,,,,,,,2.8,1.2,2.6*3F
$GPGSV,3,1,10,27,64,283,26,17,51,043,26,09,50,304,27,04,49,138,31*7E
$GPGSV,3,2,10,28,27,089,24,02,24,181,39,12,18,295,22,15,16,239,37*7C
$GPGSV,3,3,10,26,08,204,23,48,44,197,39*7A
$GPRMC,174508.000,A,3748.7794,N,12217.8258,W,1.22,105.76,201011,,,D*74
$GPVTG,105.76,T,,M,1.22,N,2.3,K,D*0D
$GPGGA,174509.000,3748.7790,N,12217.8259,W,2,06,1.2,-6.7,M,-25.1,M,1.8,0000*66
$GPGSA,A,3,02,09,12,15,17,28,,,,,,,2.8,1.2,2.6*3F
$GPRMC,174509.000,A,3748.7790,N,12217.8259,W,1.35,117.00,201011,,,D*74
$GPVTG,117.00,T,,M,1.35,N,2.5,K,D*0F
$GPGGA,174510.000,3748.7787,N,12217.8255,W,2,06,1.2,-6.2,M,-25.1,M,1.8,0000*61
$GPGSA,A,3,02,09,12,15,17,28,,,,,,,2.8,1.2,2.6*3F
$GPRMC,174510.000,A,3748.7787,N,12217.8255,W,1.37,133.21,201011,,,D*71
