$ADVER,3080,2.3
$GPRMC,210353.009,A,3748.7993,N,12217.8555,W,0.17,170.70,230611,,,A*75
$GPRMC,210354.005,A,3748.7991,N,12217.8555,W,0.33,126.60,230611,,,A*78
$GPRMC,210355.005,A,3748.7991,N,12217.8557,W,0.28,115.99,230611,,,A*77
$GPRMC,210356.000,A,3748.7991,N,12217.8558,W,0.25,107.47,230611,,,A*73
$GPRMC,210357.000,A,3748.7991,N,12217.8560,W,0.27,105.85,230611,,,A*77
$GPRMC,210358.000,A,3748.7991,N,12217.8561,W,0.23,107.82,230611,,,A*78
$GPRMC,210359.000,A,3748.7991,N,12217.8562,W,0.23,29.06,230611,,,A*4B
$GPRMC,210400.000,A,3748.7991,N,12217.8561,W,0.39,97.22,230611,,,A*4B
$GPRMC,210401.000,A,3748.7991,N,12217.8560,W,0.32,105.68,230611,,,A*74
$GPRMC,210402.000,A,3748.7991,N,12217.8560,W,0.31,107.21,230611,,,A*7B
$GPRMC,210403.000,A,3748.7991,N,12217.8559,W,0.37,115.22,230611,,,A*76
$GPRMC,210404.000,A,3748.7996,N,12217.8601,W,0.02,208.71,230611,,,A*77
$GPRMC,210405.000,A,3748.7996,N,12217.8605,W,0.15,84.03,230611,,,A*47
$GPRMC,210406.000,A,3748.7995,N,12217.8606,W,0.20,128.51,230611,,,A*72
$GPRMC,210407.000,A,3748.7995,N,12217.8606,W,0.09,273.79,230611,,,A*7F
$GPRMC,210408.000,A,3748.7995,N,12217.8607,W,0.10,142.81,230611,,,A*7F
$GPRMC,210409.000,A,3748.7994,N,12217.8607,W,0.08,101.36,230611,,,A*7D
$GPRMC,210410.000,A,3748.7994,N,12217.8607,W,0.07,82.30,230611,,,A*46
$GPRMC,210411.000,A,3748.7994,N,12217.8608,W,0.03,85.73,230611,,,A*4C
$GPRMC,210412.000,A,3748.7994,N,12217.8608,W,0.07,129.68,230611,,,A*76
$GPRMC,210413.000,A,3748.7994,N,12217.8607,W,0.11,79.82,230611,,,A*4F
$GPRMC,210414.000,A,3748.7995,N,12217.8605,W,0.29,74.40,230611,,,A*43
$GPRMC,210415.000,A,3748.7996,N,12217.8603,W,0.67,50.83,230611,,,A*44
$GPRMC,210416.000,A,3748.7996,N,12217.8601,W,0.37,70.01,230611,,,A*48
$GPRMC,210417.000,A,3748.7995,N,12217.8595,W,0.35,68.30,230611,,,A*4D
$GPRMC,210418.000,A,3748.7994,N,12217.8591,W,0.48,83.61,230611,,,A*4C
$GPRMC,210419.000,A,3748.7997,N,12217.8591,W,0.27,16.28,230611,,,A*46
$GPRMC,210420.000,A,3748.7996,N,12217.8591,W,0.49,14.71,230611,,,A*4B
$GPRMC,210421.000,A,3748.7998,N,12217.8593,W,0.40,331.35,230611,,,A*7B
$GPRMC,210422.000,A,3748.8002,N,12217.8596,W,0.83,358.16,230611,,,A*79
$GPRMC,210423.000,A,3748.8002,N,12217.8598,W,0.48,343.09,230611,,,A*75
$GPRMC,210424.000,A,3748.7995,N,12217.8600,W,0.45,225.62,230611,,,A*79
$GPRMC,210425.000,A,3748.7989,N,12217.8604,W,0.15,194.69,230611,,,A*76
$GPRMC,210426.000,A,3748.7984,N,12217.8607,W,0.19,170.34,230611,,,A*75
$GPRMC,210427.000,A,3748.7980,N,12217.8610,W,0.37,199.76,230611,,,A*7B
$GPRMC,210428.000,A,3748.7975,N,12217.8613,W,0.76,209.22,230611,,,A*73
$GPRMC,210429.000,A,3748.7973,N,12217.8615,W,0.42,143.37,230611,,,A*7C
$GPRMC,210430.000,A,3748.7971,N,12217.8615,W,0.19,63.56,230611,,,A*4C
$GPRMC,210431.000,A,3748.7973,N,12217.8620,W,0.76,250.29,230611,,,A*7A
$GPRMC,210432.000,A,3748.7975,N,12217.8623,W,0.03,192.59,230611,,,A*74
$GPRMC,210433.000,A,3748.7977,N,12217.8622,W,0.14,89.06,230611,,,A*41
$GPRMC,210434.000,A,3748.7978,N,12217.8622,W,0.22,197.87,230611,,,A*7B
$GPRMC,210435.000,A,3748.7978,N,12217.8621,W,0.41,219.97,230611,,,A*78
$GPRMC,210436.000,A,3748.7978,N,12217.8621,W,0.46,215.78,230611,,,A*71
$GPRMC,210437.000,A,3748.7979,N,12217.8620,W,0.01,38.33,230611,,,A*41
$GPRMC,210438.000,A,3748.7981,N,12217.8618,W,0.06,222.96,230611,,,A*73
$GPRMC,210439.000,A,3748.7982,N,12217.8617,W,0.41,217.09,230611,,,A*7D
$GPRMC,210440.000,A,3748.7983,N,12217.8616,W,0.49,220.94,230611,,,A*7B
$GPRMC,210441.000,A,3748.7984,N,12217.8616,W,0.43,227.17,230611,,,A*7B
$GPRMC,210442.000,A,3748.7985,N,12217.8615,W,0.27,230.27,230611,,,D*78
$GPRMC,210443.000,A,3748.7987,N,12217.8613,W,0.05,311.92,230611,,,D*71
$GPRMC,210444.000,A,3748.7989,N,12217.8612,W,0.07,40.12,230611,,,D*44
$GPRMC,210445.000,A,3748.7990,N,12217.8611,W,0.03,53.23,230611,,,D*4A
$GPRMC,210446.000,A,3748.7992,N,12217.8609,W,0.09,36.66,230611,,,D*4A
$GPRMC,210447.000,A,3748.7993,N,12217.8608,W,0.09,53.08,230611,,,D*40
$GPRMC,210448.000,A,3748.7994,N,12217.8607,W,0.10,75.04,230611,,,D*47
$GPRMC,210449.000,A,3748.7994,N,12217.8606,W,0.20,104.05,230611,,,D*72
$GPRMC,210450.000,A,3748.7995,N,12217.8605,W,0.58,67.89,230611,,,D*47
$GPRMC,210451.000,A,3748.7992,N,12217.8603,W,1.34,103.60,230611,,,D*78
$GPRMC,210452.000,A,3748.7987,N,12217.8600,W,1.86,113.50,230611,,,D*77
$GPRMC,210453.000,A,3748.7983,N,12217.8594,W,2.03,118.08,230611,,,D*74
$GPRMC,210454.000,A,3748.7980,N,12217.8587,W,1.72,98.28,230611,,,D*4C
$GPRMC,210455.000,A,3748.7980,N,12217.8581,W,1.84,121.19,230611,,,D*73
$GPRMC,210456.000,A,3748.7979,N,12217.8574,W,2.05,124.13,230611,,,D*79
$GPRMC,210457.000,A,3748.7977,N,12217.8567,W,2.31,118.90,230611,,,D*77
$GPRMC,210458.000,A,3748.7974,N,12217.8560,W,2.18,123.18,230611,,,D*7F
$GPRMC,210459.000,A,3748.7972,N,12217.8553,W,2.04,121.64,230611,,,D*7C
$GPRMC,210500.000,A,3748.7970,N,12217.8547,W,1.81,125.81,230611,,,D*77
$GPRMC,210501.000,A,3748.7969,N,12217.8540,W,2.18,106.28,230611,,,D*78
$GPRMC,210502.000,A,3748.7967,N,12217.8533,W,2.04,118.70,230611,,,D*7E
$GPRMC,210503.000,A,3748.7963,N,12217.8526,W,2.62,124.60,230611,,,D*71
$GPRMC,210504.000,A,3748.7957,N,12217.8518,W,2.60,109.09,230611,,,D*7E
$GPRMC,210505.000,A,3748.7951,N,12217.8512,W,2.31,115.07,230611,,,D*74
$GPRMC,210506.000,A,3748.7947,N,12217.8506,W,2.27,113.56,230611,,,D*70
$GPRMC,210507.000,A,3748.7945,N,12217.8498,W,2.18,103.42,230611,,,D*7D
$GPRMC,210508.000,A,3748.7945,N,12217.8490,W,2.02,100.90,230611,,,D*7D
$GPRMC,210509.000,A,3748.7944,N,12217.8483,W,1.75,112.34,230611,,,D*71
$GPRMC,210510.000,A,3748.7942,N,12217.8476,W,2.16,108.68,230611,,,D*71
$GPRMC,210511.000,A,3748.7941,N,12217.8467,W,2.27,101.48,230611,,,D*7A
$GPRMC,210512.000,A,3748.7940,N,12217.8459,W,2.02,103.52,230611,,,D*7B
$GPRMC,210513.000,A,3748.7938,N,12217.8452,W,1.78,98.87,230611,,,D*4B
$GPRMC,210514.000,A,3748.7935,N,12217.8445,W,2.11,118.18,230611,,,D*74
$GPRMC,210515.000,A,3748.7932,N,12217.8439,W,1.91,121.03,230611,,,D*72
$GPRMC,210516.000,A,3748.7930,N,12217.8433,W,1.73,110.48,230611,,,D*78
$GPRMC,210517.000,A,3748.7927,N,12217.8427,W,1.68,111.87,230611,,,D*72
$GPRMC,210518.000,A,3748.7924,N,12217.8421,W,1.98,118.36,230611,,,D*74
$GPRMC,210519.000,A,3748.7921,N,12217.8414,W,2.17,120.05,230611,,,D*79
$GPRMC,210520.000,A,3748.7918,N,12217.8407,W,2.35,113.24,230611,,,D*78
$GPRMC,210521.000,A,3748.7915,N,12217.8400,W,2.10,115.59,230611,,,D*78
$GPRMC,210522.000,A,3748.7911,N,12217.8393,W,2.06,123.78,230611,,,D*73
$GPRMC,210523.000,A,3748.7910,N,12217.8386,W,1.96,123.49,230611,,,D*7F
$GPRMC,210524.000,A,3748.7908,N,12217.8379,W,2.32,126.74,230611,,,D*77
$GPRMC,210525.000,A,3748.7905,N,12217.8371,W,2.20,120.64,230611,,,D*77
$GPRMC,210526.000,A,3748.7903,N,12217.8363,W,2.21,113.98,230611,,,D*73
$GPRMC,210527.000,A,3748.7900,N,12217.8355,W,2.16,110.79,230611,,,D*7C
$GPRMC,210528.000,A,3748.7898,N,12217.8346,W,2.27,106.71,230611,,,D*7C
$GPRMC,210529.000,A,3748.7895,N,12217.8338,W,2.24,112.16,230611,,,D*7E
$GPRMC,210530.000,A,3748.7892,N,12217.8330,W,2.23,117.67,230611,,,D*7D
$GPRMC,210531.000,A,3748.7888,N,12217.8324,W,2.04,120.76,230611,,,D*73
$GPRMC,210532.000,A,3748.7885,N,12217.8318,W,1.87,118.55,230611,,,D*70
$GPRMC,210533.000,A,3748.7882,N,12217.8312,W,2.06,111.81,230611,,,D*76
$GPRMC,210534.000,A,3748.7880,N,12217.8305,W,1.82,114.12,230611,,,D*75
$GPRMC,210535.000,A,3748.7878,N,12217.8298,W,2.36,109.50,230611,,,D*70
$GPRMC,210536.000,A,3748.7875,N,12217.8292,W,2.19,123.65,230611,,,D*77
$GPRMC,210537.000,A,3748.7874,N,12217.8287,W,1.77,120.30,230611,,,D*7B
$GPRMC,210538.000,A,3748.7870,N,12217.8280,W,1.76,111.20,230611,,,D*75
$GPRMC,210539.000,A,3748.7865,N,12217.8274,W,1.99,114.77,230611,,,D*7D
$GPRMC,210540.000,A,3748.7860,N,12217.8267,W,2.10,119.81,230611,,,D*72
$GPRMC,210541.000,A,3748.7854,N,12217.8260,W,2.24,119.13,230611,,,D*7F
$GPRMC,210542.000,A,3748.7846,N,12217.8252,W,2.72,129.32,230611,,,D*7D
$GPRMC,210543.000,A,3748.7838,N,12217.8246,W,2.18,131.04,230611,,,D*70
$GPRMC,210544.000,A,3748.7834,N,12217.8236,W,2.77,112.86,230611,,,D*7E
$GPRMC,210545.000,A,3748.7831,N,12217.8228,W,2.46,122.14,230611,,,D*7F
$GPRMC,210546.000,A,3748.7827,N,12217.8220,W,1.95,114.36,230611,,,D*7B
$GPRMC,210547.000,A,3748.7824,N,12217.8212,W,2.51,124.36,230611,,,D*70
$GPRMC,210548.000,A,3748.7818,N,12217.8204,W,1.64,126.43,230611,,,D*72
$GPRMC,210549.000,A,3748.7812,N,12217.8197,W,1.73,130.59,230611,,,D*7A
$GPRMC,210550.000,A,3748.7808,N,12217.8189,W,2.10,136.16,230611,,,D*7D
$GPRMC,210551.000,A,3748.7802,N,12217.8179,W,2.29,132.01,230611,,,D*71
$GPRMC,210552.000,A,3748.7798,N,12217.8171,W,2.10,117.28,230611,,,D*70
$GPRMC,210553.000,A,3748.7795,N,12217.8164,W,1.63,114.20,230611,,,D*74
$GPRMC,210554.000,A,3748.7794,N,12217.8159,W,1.68,113.04,230611,,,D*76
$GPRMC,210555.000,A,3748.7791,N,12217.8151,W,2.00,109.10,230611,,,D*79
$GPRMC,210556.000,A,3748.7789,N,12217.8144,W,1.92,99.58,230611,,,D*4B
$GPRMC,210557.000,A,3748.7787,N,12217.8134,W,1.92,89.75,230611,,,D*4D
$GPRMC,210558.000,A,3748.7784,N,12217.8127,W,1.65,113.91,230611,,,D*73
$GPRMC,210559.000,A,3748.7780,N,12217.8121,W,1.83,130.05,230611,,,D*74
$GPRMC,210600.000,A,3748.7775,N,12217.8115,W,2.29,119.40,230611,,,D*7F
$GPRMC,210601.000,A,3748.7772,N,12217.8108,W,2.11,105.23,230611,,,D*76
$GPRMC,210602.000,A,3748.7769,N,12217.8102,W,2.07,104.08,230611,,,D*7A
$GPRMC,210603.000,A,3748.7766,N,12217.8095,W,1.68,102.61,230611,,,D*78
$GPRMC,210604.000,A,3748.7764,N,12217.8089,W,1.40,95.77,230611,,,D*42
$GPRMC,210605.000,A,3748.7761,N,12217.8081,W,1.80,115.05,230611,,,D*7E
$GPRMC,210606.000,A,3748.7758,N,12217.8073,W,1.81,118.47,230611,,,D*70
$GPRMC,210607.000,A,3748.7754,N,12217.8065,W,2.01,115.29,230611,,,D*74
$GPRMC,210608.000,A,3748.7751,N,12217.8059,W,1.86,93.28,230611,,,D*43
$GPRMC,210609.000,A,3748.7750,N,12217.8051,W,1.85,95.03,230611,,,D*47
$GPRMC,210610.000,A,3748.7749,N,12217.8043,W,1.89,94.15,230611,,,D*4E
$GPRMC,210611.000,A,3748.7748,N,12217.8034,W,2.24,106.74,230611,,,D*77
$GPRMC,210612.000,A,3748.7745,N,12217.8024,W,2.50,115.44,230611,,,D*7A
$GPRMC,210613.000,A,3748.7742,N,12217.8015,W,2.31,109.84,230611,,,D*78
$GPRMC,210614.000,A,3748.7738,N,12217.8007,W,2.05,108.40,230611,,,D*7F
$GPRMC,210615.000,A,3748.7735,N,12217.8000,W,2.15,119.12,230611,,,D*72
$GPRMC,210616.000,A,3748.7731,N,12217.7993,W,2.06,113.81,230611,,,D*7B
$GPRMC,210617.000,A,3748.7727,N,12217.7985,W,2.26,111.65,230611,,,D*70
$GPRMC,210618.000,A,3748.7722,N,12217.7978,W,2.13,115.55,230611,,,D*79
$GPRMC,210619.000,A,3748.7718,N,12217.7970,W,2.03,119.94,230611,,,D*79
$GPRMC,210620.000,A,3748.7713,N,12217.7964,W,1.99,121.85,230611,,,D*76
$GPRMC,210621.000,A,3748.7708,N,12217.7957,W,1.97,111.81,230611,,,D*74
$GPRMC,210622.000,A,3748.7708,N,12217.7950,W,1.83,94.97,230611,,,D*4E
$GPRMC,210623.000,A,3748.7706,N,12217.7941,W,2.17,106.77,230611,,,D*7B
$GPRMC,210624.000,A,3748.7704,N,12217.7933,W,1.93,100.04,230611,,,D*76
$GPRMC,210625.000,A,3748.7703,N,12217.7926,W,2.05,97.72,230611,,,D*46
$GPRMC,210626.000,A,3748.7701,N,12217.7919,W,1.85,105.24,230611,,,D*79
$GPRMC,210627.000,A,3748.7696,N,12217.7911,W,1.61,108.12,230611,,,D*7D
$GPRMC,210628.000,A,3748.7691,N,12217.7904,W,2.14,120.87,230611,,,D*76
$GPRMC,210629.000,A,3748.7687,N,12217.7897,W,1.98,110.66,230611,,,D*70
$GPRMC,210630.000,A,3748.7682,N,12217.7890,W,1.79,106.80,230611,,,D*7A
$GPRMC,210631.000,A,3748.7677,N,12217.7885,W,1.88,118.72,230611,,,D*79
$GPRMC,210632.000,A,3748.7673,N,12217.7879,W,2.03,115.01,230611,,,D*74
$GPRMC,210633.000,A,3748.7669,N,12217.7872,W,2.07,115.61,230611,,,D*77
$GPRMC,210634.000,A,3748.7667,N,12217.7865,W,2.66,105.54,230611,,,D*78
$GPRMC,210635.000,A,3748.7666,N,12217.7857,W,1.83,90.57,230611,,,D*4F
$GPRMC,210636.000,A,3748.7658,N,12217.7849,W,1.60,116.47,230611,,,D*7D
$GPRMC,210637.000,A,3748.7652,N,12217.7841,W,2.21,120.47,230611,,,D*7D
$GPRMC,210638.000,A,3748.7647,N,12217.7833,W,2.22,118.10,230611,,,D*79
$GPRMC,210639.000,A,3748.7642,N,12217.7826,W,2.28,121.93,230611,,,D*72
$GPRMC,210640.000,A,3748.7637,N,12217.7818,W,2.32,117.52,230611,,,D*70
$GPRMC,210641.000,A,3748.7632,N,12217.7809,W,2.44,108.95,230611,,,D*70
$GPRMC,210642.000,A,3748.7626,N,12217.7801,W,2.09,100.88,230611,,,D*73
$GPRMC,210643.000,A,3748.7618,N,12217.7794,W,2.03,100.76,230611,,,D*77
$GPRMC,210644.000,A,3748.7613,N,12217.7788,W,2.15,93.61,230611,,,D*4C
$GPRMC,210645.000,A,3748.7609,N,12217.7778,W,2.22,88.25,230611,,,D*47
$GPRMC,210646.000,A,3748.7608,N,12217.7768,W,2.41,93.34,230611,,,D*4B
$GPRMC,210647.000,A,3748.7609,N,12217.7757,W,2.49,88.07,230611,,,D*45
$GPRMC,210648.000,A,3748.7602,N,12217.7746,W,2.32,99.21,230611,,,D*49
$GPRMC,210649.000,A,3748.7597,N,12217.7737,W,2.46,94.32,230611,,,D*4D
$GPRMC,210650.000,A,3748.7593,N,12217.7727,W,2.24,94.21,230611,,,D*46
$GPRMC,210651.000,A,3748.7583,N,12217.7722,W,2.25,102.69,230611,,,D*70
$GPRMC,210652.000,A,3748.7576,N,12217.7716,W,2.16,112.77,230611,,,D*70
$GPRMC,210653.000,A,3748.7569,N,12217.7709,W,2.45,105.36,230611,,,D*74
$GPRMC,210654.000,A,3748.7572,N,12217.7700,W,2.35,104.36,230611,,,D*76
$GPRMC,210655.000,A,3748.7568,N,12217.7692,W,2.37,106.62,230611,,,D*77
$GPRMC,210656.000,A,3748.7565,N,12217.7684,W,2.45,98.81,230611,,,D*40
$GPRMC,210657.000,A,3748.7562,N,12217.7675,W,2.26,86.54,230611,,,D*4A
$GPRMC,210658.000,A,3748.7561,N,12217.7667,W,2.41,80.63,230611,,,D*46
$GPRMC,210659.000,A,3748.7560,N,12217.7660,W,2.23,98.58,230611,,,D*44
$GPRMC,210700.000,A,3748.7558,N,12217.7652,W,2.27,93.75,230611,,,D*43
$GPRMC,210701.000,A,3748.7553,N,12217.7646,W,2.14,90.64,230611,,,D*4F
$GPRMC,210702.000,A,3748.7545,N,12217.7637,W,2.04,98.72,230611,,,D*43
$GPRMC,210703.000,A,3748.7541,N,12217.7631,W,2.25,83.75,230611,,,D*4E
$GPRMC,210704.000,A,3748.7536,N,12217.7624,W,2.37,86.01,230611,,,D*48
$GPRMC,210705.000,A,3748.7532,N,12217.7618,W,2.57,88.52,230611,,,D*4C
$GPRMC,210706.000,A,3748.7529,N,12217.7610,W,2.35,96.84,230611,,,D*4D
$GPRMC,210707.000,A,3748.7525,N,12217.7602,W,2.48,93.00,230611,,,D*40
$GPRMC,210708.000,A,3748.7521,N,12217.7594,W,2.31,99.81,230611,,,D*4A
$GPRMC,210709.000,A,3748.7516,N,12217.7587,W,2.02,108.72,230611,,,D*78
$GPRMC,210710.000,A,3748.7513,N,12217.7579,W,2.33,80.99,230611,,,D*42
$GPRMC,210711.000,A,3748.7510,N,12217.7575,W,2.05,87.97,230611,,,D*40
$GPRMC,210712.000,A,3748.7506,N,12217.7567,W,2.20,91.85,230611,,,D*44
$GPRMC,210713.000,A,3748.7493,N,12217.7566,W,1.87,101.60,230611,,,D*74
$GPRMC,210714.000,A,3748.7492,N,12217.7559,W,2.08,107.55,230611,,,D*7A
$GPRMC,210715.000,A,3748.7491,N,12217.7550,W,2.21,118.03,230611,,,D*77
$GPRMC,210716.000,A,3748.7489,N,12217.7542,W,2.17,121.75,230611,,,D*70
$GPRMC,210717.000,A,3748.7488,N,12217.7534,W,2.00,112.16,230611,,,D*72
$GPRMC,210718.000,A,3748.7486,N,12217.7527,W,2.24,108.02,230611,,,D*79
$GPRMC,210719.000,A,3748.7484,N,12217.7519,W,2.19,114.04,230611,,,D*72
$GPRMC,210720.000,A,3748.7482,N,12217.7512,W,1.78,115.56,230611,,,D*77
$GPRMC,210721.000,A,3748.7480,N,12217.7506,W,1.80,114.09,230611,,,D*7D
$GPRMC,210722.000,A,3748.7479,N,12217.7500,W,1.96,105.11,230611,,,D*70
$GPRMC,210723.000,A,3748.7476,N,12217.7492,W,2.21,111.62,230611,,,D*7A
$GPRMC,210724.000,A,3748.7469,N,12217.7484,W,2.20,91.65,230611,,,D*4B
$GPRMC,210725.000,A,3748.7467,N,12217.7480,W,1.85,109.85,230611,,,D*72
$GPRMC,210726.000,A,3748.7462,N,12217.7478,W,1.69,108.12,230611,,,D*7E
$GPRMC,210727.000,A,3748.7454,N,12217.7471,W,2.07,112.88,230611,,,D*70
$GPRMC,210728.000,A,3748.7445,N,12217.7464,W,1.58,122.36,230611,,,D*74
$GPRMC,210729.000,A,3748.7441,N,12217.7459,W,1.60,128.05,230611,,,D*7E
$GPRMC,210730.000,A,3748.7435,N,12217.7455,W,1.61,131.18,230611,,,D*7C
$GPRMC,210731.000,A,3748.7430,N,12217.7447,W,1.52,113.05,230611,,,D*77
$GPRMC,210732.000,A,3748.7428,N,12217.7438,W,1.18,109.56,230611,,,D*76
$GPRMC,210733.000,A,3748.7425,N,12217.7435,W,1.06,128.40,230611,,,A*79
$GPRMC,210734.000,A,3748.7419,N,12217.7428,W,2.01,141.14,230611,,,A*77
$GPRMC,210735.000,A,3748.7417,N,12217.7422,W,1.48,131.52,230611,,,A*79
$GPRMC,210736.000,A,3748.7412,N,12217.7419,W,1.16,139.54,230611,,,A*72
$GPRMC,210737.000,A,3748.7410,N,12217.7416,W,0.72,122.57,230611,,,A*74
$GPRMC,210738.000,A,3748.7409,N,12217.7414,W,1.36,124.34,230611,,,A*73
$GPRMC,210739.000,A,3748.7409,N,12217.7407,W,1.24,130.84,230611,,,A*7D
$GPRMC,210740.000,A,3748.7409,N,12217.7400,W,1.14,105.33,230611,,,A*7D
$GPRMC,210741.000,A,3748.7407,N,12217.7393,W,1.48,120.08,230611,,,A*79
$GPRMC,210742.000,A,3748.7400,N,12217.7388,W,1.17,117.72,230611,,,A*74
$GPRMC,210743.000,A,3748.7390,N,12217.7379,W,1.04,127.72,230611,,,A*74
$GPRMC,210744.000,A,3748.7386,N,12217.7374,W,1.16,123.26,230611,,,A*7F
$GPRMC,210745.000,A,3748.7387,N,12217.7365,W,1.47,108.60,230611,,,A*70
$GPRMC,210746.000,A,3748.7389,N,12217.7358,W,1.27,88.26,230611,,,A*4E
$GPRMC,210747.000,A,3748.7386,N,12217.7351,W,1.54,96.47,230611,,,A*45
$GPRMC,210748.000,A,3748.7384,N,12217.7347,W,1.38,109.13,230611,,,D*76
$GPRMC,210749.000,A,3748.7380,N,12217.7338,W,1.99,123.50,230611,,,D*7F
$GPRMC,210750.000,A,3748.7376,N,12217.7329,W,2.18,132.30,230611,,,D*72
$GPRMC,210751.000,A,3748.7371,N,12217.7319,W,2.27,123.66,230611,,,D*78
$GPRMC,210752.000,A,3748.7363,N,12217.7311,W,2.14,126.45,230611,,,D*74
$GPRMC,210753.000,A,3748.7352,N,12217.7302,W,2.37,118.19,230611,,,D*70
$GPRMC,210754.000,A,3748.7342,N,12217.7295,W,2.17,109.73,230611,,,D*77
$GPRMC,210755.000,A,3748.7340,N,12217.7285,W,2.40,110.75,230611,,,D*79
$GPRMC,210756.000,A,3748.7335,N,12217.7276,W,2.07,117.63,230611,,,D*77
$GPRMC,210757.000,A,3748.7333,N,12217.7268,W,2.07,120.95,230611,,,D*72
$GPRMC,210758.000,A,3748.7330,N,12217.7260,W,2.16,127.52,230611,,,D*7A
$GPRMC,210759.000,A,3748.7320,N,12217.7255,W,2.22,136.27,230611,,,D*79
$GPRMC,210800.000,A,3748.7311,N,12217.7248,W,2.70,134.49,230611,,,D*79
$GPRMC,210801.000,A,3748.7303,N,12217.7241,W,2.21,113.29,230611,,,D*75
$GPRMC,210802.000,A,3748.7297,N,12217.7234,W,2.07,104.58,230611,,,D*7C
$GPRMC,210803.000,A,3748.7291,N,12217.7226,W,2.45,115.41,230611,,,D*76
$GPRMC,210804.000,A,3748.7292,N,12217.7216,W,2.34,103.42,230611,,,D*73
$GPRMC,210805.000,A,3748.7294,N,12217.7207,W,2.03,107.30,230611,,,D*71
$GPRMC,210806.000,A,3748.7295,N,12217.7199,W,1.96,108.76,230611,,,D*75
$GPRMC,210807.000,A,3748.7296,N,12217.7190,W,1.83,92.14,230611,,,D*4C
$GPRMC,210808.000,A,3748.7298,N,12217.7183,W,1.54,79.01,230611,,,D*44
$GPRMC,210809.000,A,3748.7301,N,12217.7176,W,1.61,41.77,230611,,,D*42
$GPRMC,210810.000,A,3748.7302,N,12217.7169,W,1.49,28.17,230611,,,D*44
$GPRMC,210811.000,A,3748.7305,N,12217.7164,W,1.27,25.13,230611,,,D*4E
$GPRMC,210812.000,A,3748.7308,N,12217.7160,W,1.66,8.41,230611,,,D*79
$GPRMC,210813.000,A,3748.7312,N,12217.7156,W,2.11,357.53,230611,,,D*7F
$GPRMC,210814.000,A,3748.7316,N,12217.7153,W,1.56,1.99,230611,,,D*7F
$GPRMC,210815.000,A,3748.7320,N,12217.7146,W,1.48,39.80,230611,,,D*43
$GPRMC,210816.000,A,3748.7324,N,12217.7136,W,2.14,39.91,230611,,,D*49
$GPRMC,210817.000,A,3748.7329,N,12217.7125,W,2.24,26.23,230611,,,D*43
$GPRMC,210818.000,A,3748.7333,N,12217.7117,W,1.50,25.68,230611,,,D*4A
$GPRMC,210819.000,A,3748.7334,N,12217.7112,W,1.30,28.90,230611,,,D*45
$GPRMC,210820.000,A,3748.7335,N,12217.7103,W,1.63,21.22,230611,,,D*48
$GPRMC,210821.000,A,3748.7336,N,12217.7096,W,1.02,31.80,230611,,,D*49
$GPRMC,210822.000,A,3748.7337,N,12217.7090,W,0.90,15.49,230611,,,D*44
$GPRMC,210823.000,A,3748.7339,N,12217.7086,W,1.10,9.92,230611,,,D*7E
$GPRMC,210824.000,A,3748.7342,N,12217.7080,W,1.53,19.60,230611,,,D*48
$GPRMC,210825.000,A,3748.7347,N,12217.7076,W,2.18,22.05,230611,,,D*42
$GPRMC,210826.000,A,3748.7354,N,12217.7074,W,2.23,11.30,230611,,,D*4F
$GPRMC,210827.000,A,3748.7360,N,12217.7071,W,1.79,25.85,230611,,,D*49
$GPRMC,210828.000,A,3748.7366,N,12217.7069,W,1.79,5.65,230611,,,D*75
$GPRMC,210829.000,A,3748.7370,N,12217.7062,W,1.47,14.25,230611,,,D*41
$GPRMC,210830.000,A,3748.7374,N,12217.7053,W,1.91,17.33,230611,,,D*40
$GPRMC,210831.000,A,3748.7382,N,12217.7047,W,1.63,2.92,230611,,,D*7F
$GPRMC,210832.000,A,3748.7389,N,12217.7042,W,1.65,7.24,230611,,,D*7C
$GPRMC,210833.000,A,3748.7396,N,12217.7033,W,1.83,0.83,230611,,,D*77
$GPRMC,210834.000,A,3748.7400,N,12217.7027,W,1.77,359.36,230611,,,D*77
$GPRMC,210835.000,A,3748.7406,N,12217.7022,W,1.75,22.97,230611,,,D*43
$GPRMC,210836.000,A,3748.7412,N,12217.7019,W,2.21,24.13,230611,,,D*45
$GPRMC,210837.000,A,3748.7419,N,12217.7017,W,1.98,25.19,230611,,,D*4B
$GPRMC,210838.000,A,3748.7426,N,12217.7016,W,1.86,18.07,230611,,,D*47
$GPRMC,210839.000,A,3748.7432,N,12217.7015,W,1.52,6.36,230611,,,D*74
$GPRMC,210840.000,A,3748.7437,N,12217.7012,W,1.54,348.28,230611,,,D*78
$GPRMC,210841.000,A,3748.7442,N,12217.7009,W,1.94,351.34,230611,,,A*7D
$GPRMC,210842.000,A,3748.7447,N,12217.7007,W,1.73,351.31,230611,,,A*79
$GPRMC,210843.000,A,3748.7452,N,12217.7010,W,1.64,346.10,230611,,,A*79
$GPRMC,210844.000,A,3748.7454,N,12217.7010,W,1.71,347.34,230611,,,A*7B
$GPRMC,210845.000,A,3748.7463,N,12217.7012,W,1.80,354.08,230611,,,A*7F
$GPRMC,210846.000,A,3748.7470,N,12217.7012,W,2.23,0.26,230611,,,A*7A
$GPRMC,210847.000,A,3748.7476,N,12217.7009,W,1.82,9.79,230611,,,A*7C
$GPRMC,210848.000,A,3748.7481,N,12217.7006,W,1.87,12.44,230611,,,A*45
$GPRMC,210849.000,A,3748.7487,N,12217.7005,W,2.06,7.25,230611,,,A*78
$GPRMC,210850.000,A,3748.7493,N,12217.7004,W,1.73,13.37,230611,,,A*43
$GPRMC,210851.000,A,3748.7498,N,12217.7001,W,1.80,9.95,230611,,,A*73
$GPRMC,210852.000,A,3748.7507,N,12217.7005,W,2.35,351.97,230611,,,A*72
$GPRMC,210853.000,A,3748.7515,N,12217.7007,W,2.40,344.51,230611,,,A*7E
$GPRMC,210854.000,A,3748.7520,N,12217.7002,W,2.26,4.51,230611,,,A*7D
$GPRMC,210855.000,A,3748.7527,N,12217.7002,W,1.86,359.89,230611,,,A*7C
$GPRMC,210856.000,A,3748.7533,N,12217.7002,W,1.58,3.46,230611,,,A*76
$GPRMC,210857.000,A,3748.7537,N,12217.6996,W,1.90,9.26,230611,,,A*7E
$GPRMC,210858.000,A,3748.7541,N,12217.6989,W,1.97,355.85,230611,,,A*7A
$GPRMC,210859.000,A,3748.7547,N,12217.6987,W,1.79,356.55,230611,,,A*7D
$GPRMC,210900.000,A,3748.7553,N,12217.6984,W,1.67,7.12,230611,,,A*7D
$GPRMC,210901.000,A,3748.7558,N,12217.6978,W,1.96,21.88,230611,,,A*4D
$GPRMC,210902.000,A,3748.7567,N,12217.6976,W,1.90,7.21,230611,,,A*7D
$GPRMC,210903.000,A,3748.7574,N,12217.6974,W,1.75,359.58,230611,,,A*71
$GPRMC,210904.000,A,3748.7580,N,12217.6972,W,2.04,11.74,230611,,,A*4F
$GPRMC,210905.000,A,3748.7586,N,12217.6968,W,2.33,7.33,230611,,,A*73
$GPRMC,210906.000,A,3748.7589,N,12217.6949,W,2.12,21.52,230611,,,A*4C
$GPRMC,210907.000,A,3748.7593,N,12217.6934,W,2.10,30.64,230611,,,A*4B
$GPRMC,210908.000,A,3748.7602,N,12217.6930,W,2.09,17.63,230611,,,A*41
$GPRMC,210909.000,A,3748.7605,N,12217.6928,W,1.54,18.56,230611,,,A*4C
$GPRMC,210910.000,A,3748.7610,N,12217.6926,W,2.02,27.25,230611,,,A*46
$GPRMC,210911.000,A,3748.7614,N,12217.6921,W,1.65,27.59,230611,,,A*4D
$GPRMC,210912.000,A,3748.7619,N,12217.6913,W,1.50,28.74,230611,,,A*44
$GPRMC,210913.000,A,3748.7624,N,12217.6904,W,1.94,32.28,230611,,,A*47
$GPRMC,210914.000,A,3748.7636,N,12217.6899,W,2.88,20.42,230611,,,A*47
$GPRMC,210915.000,A,3748.7643,N,12217.6889,W,2.56,34.68,230611,,,A*4B
$GPRMC,210916.000,A,3748.7650,N,12217.6880,W,3.53,26.48,230611,,,A*46
$GPRMC,210917.000,A,3748.7657,N,12217.6873,W,2.16,37.05,230611,,,A*45
$GPRMC,210918.000,A,3748.7661,N,12217.6868,W,1.53,26.58,230611,,,A*4F
$GPRMC,210919.000,A,3748.7665,N,12217.6862,W,1.75,39.72,230611,,,A*42
$GPRMC,210920.000,A,3748.7669,N,12217.6858,W,1.57,38.37,230611,,,A*4D
$GPRMC,210921.000,A,3748.7673,N,12217.6852,W,1.92,23.95,230611,,,A*46
$GPRMC,210922.000,A,3748.7675,N,12217.6848,W,1.95,13.61,230611,,,A*47
$GPRMC,210923.000,A,3748.7683,N,12217.6847,W,2.11,4.14,230611,,,A*7B
$GPRMC,210924.000,A,3748.7692,N,12217.6845,W,2.18,13.28,230611,,,A*4E
$GPRMC,210925.000,A,3748.7700,N,12217.6841,W,1.90,6.52,230611,,,A*7B
$GPRMC,210926.000,A,3748.7707,N,12217.6834,W,2.08,7.52,230611,,,A*7E
$GPRMC,210927.000,A,3748.7714,N,12217.6826,W,2.08,9.53,230611,,,A*71
$GPRMC,210928.000,A,3748.7723,N,12217.6820,W,1.98,14.80,230611,,,A*44
$GPRMC,210929.000,A,3748.7730,N,12217.6816,W,2.02,11.79,230611,,,A*41
$GPRMC,210930.000,A,3748.7736,N,12217.6814,W,1.94,12.25,230611,,,A*4B
$GPRMC,210931.000,A,3748.7743,N,12217.6807,W,2.12,30.50,230611,,,A*45
$GPRMC,210932.000,A,3748.7752,N,12217.6795,W,2.12,21.01,230611,,,A*46
$GPRMC,210933.000,A,3748.7756,N,12217.6786,W,2.13,20.42,230611,,,A*46
$GPRMC,210934.000,A,3748.7761,N,12217.6781,W,2.09,32.05,230611,,,A*49
$GPRMC,210935.000,A,3748.7763,N,12217.6772,W,1.69,27.66,230611,,,A*42
$GPRMC,210936.000,A,3748.7766,N,12217.6764,W,1.75,11.82,230611,,,A*41
$GPRMC,210937.000,A,3748.7773,N,12217.6763,W,2.00,6.95,230611,,,A*72
$GPRMC,210938.000,A,3748.7778,N,12217.6759,W,2.03,16.37,230611,,,A*45
$GPRMC,210939.000,A,3748.7786,N,12217.6759,W,1.88,14.47,230611,,,A*40
$GPRMC,210940.000,A,3748.7791,N,12217.6754,W,1.81,33.50,230611,,,A*4F
$GPRMC,210941.000,A,3748.7796,N,12217.6750,W,1.50,14.44,230611,,,A*41
$GPRMC,210942.000,A,3748.7802,N,12217.6746,W,1.53,16.18,230611,,,A*4F
$GPRMC,210943.000,A,3748.7808,N,12217.6740,W,1.57,5.43,230611,,,A*7A
$GPRMC,210944.000,A,3748.7814,N,12217.6739,W,1.71,29.31,230611,,,A*41
$GPRMC,210945.000,A,3748.7818,N,12217.6729,W,2.15,32.71,230611,,,A*42
$GPRMC,210946.000,A,3748.7823,N,12217.6721,W,2.12,32.48,230611,,,A*4C
$GPRMC,210947.000,A,3748.7829,N,12217.6718,W,1.76,20.00,230611,,,A*43
$GPRMC,210948.000,A,3748.7835,N,12217.6718,W,1.45,356.65,230611,,,A*70
$GPRMC,210949.000,A,3748.7838,N,12217.6715,W,1.39,9.25,230611,,,A*77
$GPRMC,210950.000,A,3748.7842,N,12217.6707,W,1.91,34.65,230611,,,A*49
$GPRMC,210951.000,A,3748.7847,N,12217.6701,W,1.92,22.45,230611,,,A*4D
$GPRMC,210952.000,A,3748.7852,N,12217.6698,W,1.64,21.30,230611,,,A*43
$GPRMC,210953.000,A,3748.7857,N,12217.6694,W,1.55,20.56,230611,,,A*48
$GPRMC,210954.000,A,3748.7861,N,12217.6691,W,1.28,8.16,230611,,,A*7B
$GPRMC,210955.000,A,3748.7869,N,12217.6691,W,1.75,351.95,230611,,,A*7E
$GPRMC,210956.000,A,3748.7875,N,12217.6692,W,2.05,334.53,230611,,,A*7E
$GPRMC,210957.000,A,3748.7882,N,12217.6692,W,2.07,2.40,230611,,,A*71
$GPRMC,210958.000,A,3748.7888,N,12217.6688,W,2.11,17.29,230611,,,A*43
$GPRMC,210959.000,A,3748.7893,N,12217.6682,W,1.67,18.06,230611,,,A*42
$GPRMC,211000.000,A,3748.7898,N,12217.6682,W,1.43,8.91,230611,,,A*74
$GPRMC,211001.000,A,3748.7902,N,12217.6682,W,1.37,7.57,230611,,,A*71
$GPRMC,211002.000,A,3748.7906,N,12217.6680,W,1.17,14.56,230611,,,A*45
$GPRMC,211003.000,A,3748.7909,N,12217.6679,W,1.18,19.93,230611,,,A*46
$GPRMC,211004.000,A,3748.7914,N,12217.6678,W,1.85,14.37,230611,,,A*4B
$GPRMC,211005.000,A,3748.7920,N,12217.6677,W,1.83,0.85,230611,,,A*78
$GPRMC,211006.000,A,3748.7926,N,12217.6677,W,1.62,3.80,230611,,,A*74
$GPRMC,211007.000,A,3748.7930,N,12217.6677,W,1.24,14.46,230611,,,A*4C
$GPRMC,211008.000,A,3748.7935,N,12217.6674,W,1.80,38.33,230611,,,A*47
$GPRMC,211009.000,A,3748.7940,N,12217.6667,W,2.05,39.52,230611,,,A*4E
$GPRMC,211010.000,A,3748.7945,N,12217.6662,W,1.71,23.20,230611,,,A*48
$GPRMC,211011.000,A,3748.7953,N,12217.6651,W,1.91,19.99,230611,,,A*4B
$GPRMC,211012.000,A,3748.7960,N,12217.6642,W,1.70,23.68,230611,,,A*42
$GPRMC,211013.000,A,3748.7966,N,12217.6635,W,1.86,11.05,230611,,,A*46
$GPRMC,211014.000,A,3748.7973,N,12217.6628,W,2.21,21.60,230611,,,A*47
$GPRMC,211015.000,A,3748.7979,N,12217.6623,W,2.01,24.66,230611,,,A*46
$GPRMC,211016.000,A,3748.7985,N,12217.6618,W,1.52,24.33,230611,,,A*4B
$GPRMC,211017.000,A,3748.7988,N,12217.6612,W,1.24,54.84,230611,,,A*47
$GPRMC,211018.000,A,3748.7992,N,12217.6607,W,1.72,28.61,230611,,,A*44
$GPRMC,211019.000,A,3748.7996,N,12217.6599,W,2.02,11.36,230611,,,A*49
$GPRMC,211020.000,A,3748.8002,N,12217.6594,W,2.00,27.45,230611,,,A*46
$GPRMC,211021.000,A,3748.8005,N,12217.6580,W,1.29,55.01,230611,,,A*48
$GPRMC,211022.000,A,3748.8009,N,12217.6565,W,1.37,61.19,230611,,,A*4D
$GPRMC,211023.000,A,3748.8014,N,12217.6556,W,1.38,44.24,230611,,,A*46
$GPRMC,211024.000,A,3748.8019,N,12217.6555,W,1.30,35.85,230611,,,A*4A
$GPRMC,211025.000,A,3748.8024,N,12217.6550,W,1.31,11.55,230611,,,A*4A
$GPRMC,211026.000,A,3748.8029,N,12217.6547,W,1.63,47.21,230611,,,A*45
$GPRMC,211027.000,A,3748.8034,N,12217.6541,W,1.86,59.09,230611,,,A*40
$GPRMC,211028.000,A,3748.8039,N,12217.6539,W,1.75,47.48,230611,,,A*4B
$GPRMC,211029.000,A,3748.8044,N,12217.6532,W,1.22,51.66,230611,,,A*42
$GPRMC,211030.000,A,3748.8048,N,12217.6525,W,1.62,71.81,230611,,,A*4F
$GPRMC,211031.000,A,3748.8050,N,12217.6516,W,1.85,78.98,230611,,,A*4F
$GPRMC,211032.000,A,3748.8051,N,12217.6509,W,1.89,77.42,230611,,,A*47
$GPRMC,211033.000,A,3748.8053,N,12217.6501,W,1.98,73.55,230611,,,A*4E
$GPRMC,211034.000,A,3748.8054,N,12217.6492,W,1.62,78.34,230611,,,A*4C
$GPRMC,211035.000,A,3748.8057,N,12217.6481,W,1.60,76.93,230611,,,A*4D
$GPRMC,211036.000,A,3748.8057,N,12217.6474,W,1.51,80.60,230611,,,A*43
$GPRMC,211037.000,A,3748.8058,N,12217.6462,W,1.79,85.32,230611,,,A*42
$GPRMC,211038.000,A,3748.8060,N,12217.6453,W,1.63,80.67,230611,,,A*4A
$GPRMC,211039.000,A,3748.8061,N,12217.6446,W,1.74,106.55,230611,,,A*76
$GPRMC,211040.000,A,3748.8060,N,12217.6437,W,2.24,95.31,230611,,,A*40
$GPRMC,211041.000,A,3748.8058,N,12217.6425,W,1.70,72.34,230611,,,A*47
$GPRMC,211042.000,A,3748.8062,N,12217.6419,W,0.83,46.39,230611,,,A*45
$GPRMC,211043.000,A,3748.8069,N,12217.6417,W,0.54,29.14,230611,,,A*4D
$GPRMC,211044.000,A,3748.8074,N,12217.6414,W,0.50,2.53,230611,,,A*7B
$GPRMC,211045.000,A,3748.8081,N,12217.6408,W,0.90,14.55,230611,,,A*40
$GPRMC,211046.000,A,3748.8085,N,12217.6409,W,1.47,347.29,230611,,,A*73
$GPRMC,211047.000,A,3748.8094,N,12217.6413,W,0.96,349.79,230611,,,A*7F
$GPRMC,211048.000,A,3748.8096,N,12217.6409,W,0.79,95.06,230611,,,A*42
$GPRMC,211049.000,A,3748.8107,N,12217.6409,W,1.08,132.63,230611,,,A*72
$GPRMC,211050.000,A,3748.8107,N,12217.6406,W,1.71,163.86,230611,,,A*74
$GPRMC,211051.000,A,3748.8114,N,12217.6403,W,0.62,28.69,230611,,,A*4E
$GPRMC,211052.000,A,3748.8124,N,12217.6399,W,1.06,36.04,230611,,,A*4D
$GPRMC,211053.000,A,3748.8135,N,12217.6394,W,0.62,22.75,230611,,,A*41
$GPRMC,211054.000,A,3748.8141,N,12217.6391,W,0.57,29.75,230611,,,A*4D
$GPRMC,211055.000,A,3748.8152,N,12217.6383,W,1.36,29.96,230611,,,A*46
$GPRMC,211056.000,A,3748.8164,N,12217.6384,W,1.55,56.16,230611,,,A*42
$GPRMC,211057.000,A,3748.8161,N,12217.6380,W,1.41,68.96,230611,,,A*42
$GPRMC,211058.000,A,3748.8160,N,12217.6372,W,2.12,99.35,230611,,,A*43
$GPRMC,211059.000,A,3748.8163,N,12217.6362,W,1.95,94.51,230611,,,A*43
$GPRMC,211100.000,A,3748.8164,N,12217.6343,W,1.87,89.31,230611,,,A*43
$GPRMC,211101.000,A,3748.8172,N,12217.6340,W,1.48,103.91,230611,,,A*7C
$GPRMC,211102.000,A,3748.8174,N,12217.6337,W,1.32,115.19,230611,,,A*73
$GPRMC,211103.000,A,3748.8182,N,12217.6334,W,1.10,92.13,230611,,,A*4C
$GPRMC,211104.000,A,3748.8180,N,12217.6332,W,1.14,92.96,230611,,,A*46
$GPRMC,211105.000,A,3748.8184,N,12217.6332,W,0.81,131.17,230611,,,A*7F
$GPRMC,211106.000,A,3748.8183,N,12217.6333,W,0.34,172.92,230611,,,A*7E
$GPRMC,211107.000,A,3748.8187,N,12217.6336,W,0.38,120.48,230611,,,A*72
$GPRMC,211108.000,A,3748.8194,N,12217.6332,W,1.19,52.86,230611,,,A*4F
$GPRMC,211109.000,A,3748.8202,N,12217.6326,W,1.32,79.24,230611,,,A*4F
$GPRMC,211110.000,A,3748.8208,N,12217.6324,W,0.95,70.68,230611,,,A*42
$GPRMC,211111.000,A,3748.8208,N,12217.6317,W,1.59,118.56,230611,,,A*70
$GPRMC,211112.000,A,3748.8209,N,12217.6309,W,0.89,138.62,230611,,,A*74
$GPRMC,211113.000,A,3748.8213,N,12217.6306,W,1.23,91.22,230611,,,A*46
$GPRMC,211114.000,A,3748.8218,N,12217.6305,W,0.95,88.08,230611,,,A*45
$GPRMC,211115.000,A,3748.8223,N,12217.6301,W,0.99,40.95,230611,,,A*44
$GPRMC,211116.000,A,3748.8232,N,12217.6298,W,1.35,56.78,230611,,,A*45
$GPRMC,211117.000,A,3748.8240,N,12217.6293,W,1.18,93.66,230611,,,A*43
$GPRMC,211118.000,A,3748.8244,N,12217.6287,W,0.86,131.58,230611,,,A*7F
$GPRMC,211119.000,A,3748.8251,N,12217.6287,W,0.17,188.40,230611,,,A*79
$GPRMC,211120.000,A,3748.8263,N,12217.6289,W,0.46,77.66,230611,,,A*4D
$GPRMC,211121.000,A,3748.8270,N,12217.6291,W,0.62,77.96,230611,,,A*4E
$GPRMC,211122.000,A,3748.8272,N,12217.6291,W,0.31,62.11,230611,,,A*42
$GPRMC,211123.000,A,3748.8274,N,12217.6290,W,0.26,22.67,230611,,,A*47
$GPRMC,211124.000,A,3748.8279,N,12217.6292,W,0.69,60.47,230611,,,A*40
$GPRMC,211125.000,A,3748.8289,N,12217.6291,W,0.71,35.26,230611,,,A*43
$GPRMC,211126.000,A,3748.8296,N,12217.6289,W,0.97,67.91,230611,,,A*44
$GPRMC,211127.000,A,3748.8304,N,12217.6287,W,1.59,47.24,230611,,,A*4E
$GPRMC,211128.000,A,3748.8306,N,12217.6280,W,1.46,73.21,230611,,,A*48
$GPRMC,211129.000,A,3748.8310,N,12217.6272,W,1.43,80.32,230611,,,A*48
$GPRMC,211130.000,A,3748.8313,N,12217.6266,W,1.93,65.60,230611,,,A*47
$GPRMC,211131.000,A,3748.8322,N,12217.6261,W,1.56,76.58,230611,,,A*43
$GPRMC,211132.000,A,3748.8328,N,12217.6255,W,2.19,33.44,230611,,,A*49
$GPRMC,211133.000,A,3748.8331,N,12217.6251,W,2.18,47.27,230611,,,A*43
$GPRMC,211134.000,A,3748.8330,N,12217.6241,W,1.79,59.88,230611,,,A*4A
$GPRMC,211135.000,A,3748.8336,N,12217.6233,W,1.98,56.40,230611,,,A*4C
$GPRMC,211136.000,A,3748.8339,N,12217.6223,W,1.78,47.99,230611,,,A*4B
$GPRMC,211137.000,A,3748.8346,N,12217.6215,W,1.14,46.06,230611,,,A*4A
$GPRMC,211138.000,A,3748.8350,N,12217.6209,W,1.44,43.41,230611,,,A*4C
$GPRMC,211139.000,A,3748.8361,N,12217.6204,W,2.29,26.78,230611,,,A*43
$GPRMC,211140.000,A,3748.8370,N,12217.6196,W,2.45,40.18,230611,,,A*49
$GPRMC,211141.000,A,3748.8379,N,12217.6188,W,1.68,52.65,230611,,,A*4B
$GPRMC,211142.000,A,3748.8381,N,12217.6179,W,2.67,115.73,230611,,,A*78
$GPRMC,211143.000,A,3748.8376,N,12217.6168,W,2.57,120.65,230611,,,A*73
$GPRMC,211144.000,A,3748.8365,N,12217.6154,W,2.48,128.96,230611,,,A*73
$GPRMC,211145.000,A,3748.8356,N,12217.6141,W,2.36,126.52,230611,,,A*79
$GPRMC,211146.000,A,3748.8349,N,12217.6130,W,2.04,118.43,230611,,,A*7E
$GPRMC,211147.000,A,3748.8343,N,12217.6121,W,1.63,124.53,230611,,,A*79
$GPRMC,211148.000,A,3748.8333,N,12217.6110,W,2.18,128.33,230611,,,A*76
$GPRMC,211149.000,A,3748.8329,N,12217.6104,W,1.09,135.97,230611,,,A*78
$GPRMC,211150.000,A,3748.8326,N,12217.6101,W,0.79,153.72,230611,,,A*77
$GPRMC,211151.000,A,3748.8320,N,12217.6093,W,1.19,149.13,230611,,,A*71
$GPRMC,211152.000,A,3748.8314,N,12217.6087,W,1.50,151.02,230611,,,A*74
$GPRMC,211153.000,A,3748.8311,N,12217.6080,W,1.93,146.88,230611,,,A*7C
$GPRMC,211154.000,A,3748.8306,N,12217.6073,W,2.29,129.27,230611,,,A*7F
$GPRMC,211155.000,A,3748.8300,N,12217.6065,W,2.58,125.55,230611,,,A*70
$GPRMC,211156.000,A,3748.8294,N,12217.6056,W,2.43,132.10,230611,,,A*72
$GPRMC,211157.000,A,3748.8288,N,12217.6047,W,2.14,120.00,230611,,,A*7E
$GPRMC,211158.000,A,3748.8283,N,12217.6035,W,1.70,119.35,230611,,,A*72
$GPRMC,211159.000,A,3748.8281,N,12217.6025,W,1.27,140.90,230611,,,D*74
$GPRMC,211200.000,A,3748.8278,N,12217.6016,W,2.08,115.73,230611,,,D*7E
$GPRMC,211201.000,A,3748.8276,N,12217.6005,W,2.10,115.35,230611,,,D*78
$GPRMC,211202.000,A,3748.8274,N,12217.5996,W,2.06,120.11,230611,,,D*7E
$GPRMC,211203.000,A,3748.8272,N,12217.5989,W,2.10,122.43,230611,,,D*75
$GPRMC,211204.000,A,3748.8270,N,12217.5982,W,1.93,114.02,230611,,,D*73
$GPRMC,211205.000,A,3748.8269,N,12217.5975,W,1.84,101.56,230611,,,D*71
$GPRMC,211206.000,A,3748.8268,N,12217.5969,W,1.75,106.21,230611,,,D*77
$GPRMC,211207.000,A,3748.8267,N,12217.5963,W,1.61,105.81,230611,,,D*7F
$GPRMC,211208.000,A,3748.8265,N,12217.5957,W,1.87,118.87,230611,,,D*77
$GPRMC,211209.000,A,3748.8261,N,12217.5952,W,2.44,129.00,230611,,,D*76
$GPRMC,211210.000,A,3748.8257,N,12217.5943,W,1.57,129.91,230611,,,D*72
$GPRMC,211211.000,A,3748.8255,N,12217.5937,W,1.60,119.42,230611,,,D*7B
$GPRMC,211212.000,A,3748.8254,N,12217.5931,W,1.55,111.97,230611,,,D*79
$GPRMC,211213.000,A,3748.8253,N,12217.5925,W,1.62,107.22,230611,,,D*77
$GPRMC,211214.000,A,3748.8251,N,12217.5918,W,1.71,118.39,230611,,,D*7A
$GPRMC,211215.000,A,3748.8249,N,12217.5912,W,1.77,113.34,230611,,,D*78
$GPRMC,211216.000,A,3748.8246,N,12217.5904,W,2.22,116.16,230611,,,D*75
$GPRMC,211217.000,A,3748.8244,N,12217.5896,W,1.97,112.81,230611,,,D*7B
$GPRMC,211218.000,A,3748.8242,N,12217.5889,W,1.96,103.71,230611,,,D*72
$GPRMC,211219.000,A,3748.8240,N,12217.5881,W,2.03,115.77,230611,,,D*77
$GPRMC,211220.000,A,3748.8237,N,12217.5874,W,1.98,116.10,230611,,,D*74
$GPRMC,211221.000,A,3748.8235,N,12217.5867,W,1.83,112.60,230611,,,D*7C
$GPRMC,211222.000,A,3748.8232,N,12217.5860,W,1.78,111.74,230611,,,D*7D
$GPRMC,211223.000,A,3748.8229,N,12217.5854,W,1.76,120.97,230611,,,D*70
$GPRMC,211224.000,A,3748.8226,N,12217.5848,W,1.82,115.64,230611,,,D*74
$GPRMC,211225.000,A,3748.8223,N,12217.5842,W,2.07,115.96,230611,,,D*79
$GPRMC,211226.000,A,3748.8220,N,12217.5835,W,1.97,111.82,230611,,,D*72
$GPRMC,211227.000,A,3748.8217,N,12217.5828,W,1.58,121.28,230611,,,D*7B
$GPRMC,211228.000,A,3748.8214,N,12217.5822,W,1.59,124.21,230611,,,D*70
$GPRMC,211229.000,A,3748.8210,N,12217.5816,W,2.07,123.84,230611,,,D*72
$GPRMC,211230.000,A,3748.8202,N,12217.5807,W,2.04,117.93,230611,,,D*7B
$GPRMC,211231.000,A,3748.8194,N,12217.5800,W,2.10,129.29,230611,,,D*78
$GPRMC,211232.000,A,3748.8188,N,12217.5794,W,1.77,122.30,230611,,,D*75
$GPRMC,211233.000,A,3748.8184,N,12217.5789,W,1.58,127.66,230611,,,D*7F
$GPRMC,211234.000,A,3748.8178,N,12217.5783,W,2.05,126.23,230611,,,D*7A
$GPRMC,211235.000,A,3748.8173,N,12217.5776,W,2.07,113.46,230611,,,D*7D
$GPRMC,211236.000,A,3748.8171,N,12217.5767,W,1.97,114.72,230611,,,D*76
$GPRMC,211237.000,A,3748.8168,N,12217.5761,W,1.72,118.62,230611,,,D*7F
$GPRMC,211238.000,A,3748.8166,N,12217.5754,W,1.95,105.44,230611,,,D*79
$GPRMC,211239.000,A,3748.8162,N,12217.5746,W,1.63,122.33,230611,,,D*73
$GPRMC,211240.000,A,3748.8158,N,12217.5739,W,1.36,131.91,230611,,,D*76
$GPRMC,211241.000,A,3748.8155,N,12217.5730,W,1.38,129.93,230611,,,D*76
$GPRMC,211242.000,A,3748.8152,N,12217.5724,W,1.57,111.86,230611,,,D*71
$GPRMC,211243.000,A,3748.8148,N,12217.5718,W,1.46,102.08,230611,,,D*70
$GPRMC,211244.000,A,3748.8146,N,12217.5712,W,1.59,111.72,230611,,,D*72
$GPRMC,211245.000,A,3748.8144,N,12217.5705,W,1.98,125.12,230611,,,D*7B
$GPRMC,211246.000,A,3748.8141,N,12217.5697,W,1.84,121.16,230611,,,D*7A
$GPRMC,211247.000,A,3748.8137,N,12217.5691,W,1.32,132.85,230611,,,D*79
$GPRMC,211248.000,A,3748.8134,N,12217.5685,W,1.07,124.29,230611,,,D*77
$GPRMC,211249.000,A,3748.8132,N,12217.5681,W,1.04,119.59,230611,,,D*7E
$GPRMC,211250.000,A,3748.8130,N,12217.5678,W,0.63,111.08,230611,,,D*7E
$GPRMC,211251.000,A,3748.8125,N,12217.5674,W,0.86,141.88,230611,,,D*71
$GPRMC,211252.000,A,3748.8119,N,12217.5667,W,1.89,139.04,230611,,,D*7A
$GPRMC,211253.000,A,3748.8114,N,12217.5660,W,2.15,137.94,230611,,,D*70
$GPRMC,211254.000,A,3748.8110,N,12217.5654,W,2.36,146.48,230611,,,D*72
$GPRMC,211255.000,A,3748.8102,N,12217.5644,W,2.64,151.20,230611,,,D*7E
$GPRMC,211256.000,A,3748.8095,N,12217.5635,W,2.28,156.16,230611,,,D*7E
$GPRMC,211257.000,A,3748.8092,N,12217.5628,W,2.36,128.19,230611,,,D*7D
$GPRMC,211258.000,A,3748.8091,N,12217.5619,W,2.22,130.94,230611,,,D*7A
$GPRMC,211259.000,A,3748.8086,N,12217.5610,W,2.16,132.40,230611,,,D*78
$GPRMC,211300.000,A,3748.8079,N,12217.5600,W,1.94,134.93,230611,,,D*75
$GPRMC,211301.000,A,3748.8075,N,12217.5594,W,1.32,148.74,230611,,,D*78
$GPRMC,211302.000,A,3748.8073,N,12217.5589,W,1.22,162.76,230611,,,D*7A
$GPRMC,211303.000,A,3748.8069,N,12217.5584,W,0.87,122.48,230611,,,D*7A
$GPRMC,211304.000,A,3748.8069,N,12217.5578,W,1.25,114.24,230611,,,D*78
$GPRMC,211305.000,A,3748.8067,N,12217.5573,W,0.92,87.55,230611,,,A*49
$GPRMC,211306.000,A,3748.8068,N,12217.5574,W,0.19,140.68,230611,,,A*75
$GPRMC,211307.000,A,3748.8073,N,12217.5572,W,0.84,101.62,230611,,,A*73
$GPRMC,211308.000,A,3748.8076,N,12217.5569,W,1.29,133.33,230611,,,A*70
$GPRMC,211309.000,A,3748.8075,N,12217.5561,W,2.03,135.18,230611,,,A*7E
$GPRMC,211310.000,A,3748.8074,N,12217.5557,W,2.09,140.82,230611,,,A*79
$GPRMC,211311.000,A,3748.8067,N,12217.5549,W,1.67,129.97,230611,,,A*75
$GPRMC,211312.000,A,3748.8059,N,12217.5540,W,1.32,136.75,230611,,,A*70
$GPRMC,211313.000,A,3748.8054,N,12217.5532,W,1.08,144.60,230611,,,A*71
$GPRMC,211314.000,A,3748.8050,N,12217.5524,W,1.09,159.00,230611,,,A*7E
$GPRMC,211315.000,A,3748.8044,N,12217.5518,W,1.19,153.85,230611,,,A*73
$GPRMC,211316.000,A,3748.8039,N,12217.5517,W,0.98,178.43,230611,,,A*7E
$GPRMC,211317.000,A,3748.8039,N,12217.5516,W,0.88,123.08,230611,,,A*7E
$GPRMC,211318.000,A,3748.8045,N,12217.5512,W,0.47,349.47,230611,,,A*78
$GPRMC,211319.000,A,3748.8049,N,12217.5510,W,0.45,320.86,230611,,,A*77
$GPRMC,211320.000,A,3748.8047,N,12217.5512,W,1.53,192.05,230611,,,A*77
$GPRMC,211321.000,A,3748.8037,N,12217.5513,W,2.27,181.84,230611,,,A*7B
$GPRMC,211322.000,A,3748.8029,N,12217.5517,W,1.83,193.47,230611,,,A*72
$GPRMC,211323.000,A,3748.8021,N,12217.5525,W,1.50,219.01,230611,,,A*77
$GPRMC,211324.000,A,3748.8017,N,12217.5530,W,1.25,237.70,230611,,,A*79
$GPRMC,211325.000,A,3748.8015,N,12217.5535,W,1.18,237.88,230611,,,A*76
$GPRMC,211326.000,A,3748.8011,N,12217.5538,W,0.97,218.38,230611,,,A*7C
$GPRMC,211327.000,A,3748.8007,N,12217.5539,W,0.54,203.02,230611,,,A*77
$GPRMC,211328.000,A,3748.8003,N,12217.5539,W,1.41,206.07,230611,,,A*79
$GPRMC,211329.000,A,3748.7999,N,12217.5537,W,0.60,186.31,230611,,,A*7F
$GPRMC,211330.000,A,3748.7994,N,12217.5538,W,0.68,167.89,230611,,,A*71
$GPRMC,211331.000,A,3748.7987,N,12217.5540,W,1.46,195.93,230611,,,A*76
$GPRMC,211332.000,A,3748.7977,N,12217.5541,W,1.56,188.04,230611,,,A*78
$GPRMC,211333.000,A,3748.7968,N,12217.5540,W,1.16,192.11,230611,,,A*7D
$GPRMC,211334.000,A,3748.7963,N,12217.5544,W,1.38,201.33,230611,,,A*70
$GPRMC,211335.000,A,3748.7953,N,12217.5547,W,1.14,206.92,230611,,,A*73
$GPRMC,211336.000,A,3748.7945,N,12217.5546,W,1.21,228.98,230611,,,A*76
$GPRMC,211337.000,A,3748.7936,N,12217.5549,W,1.23,210.40,230611,,,A*70
$GPRMC,211338.000,A,3748.7936,N,12217.5555,W,1.44,228.06,230611,,,A*7A
$GPRMC,211339.000,A,3748.7928,N,12217.5565,W,1.64,213.77,230611,,,A*7B
$GPRMC,211340.000,A,3748.7921,N,12217.5574,W,1.65,242.93,230611,,,A*73
$GPRMC,211341.000,A,3748.7917,N,12217.5578,W,1.12,241.93,230611,,,A*78
$GPRMC,211342.000,A,3748.7914,N,12217.5585,W,0.84,252.87,230611,,,A*73
$GPRMC,211343.000,A,3748.7913,N,12217.5590,W,0.80,246.08,230611,,,A*77
$GPRMC,211344.000,A,3748.7909,N,12217.5596,W,1.22,235.51,230611,,,A*7C
$GPRMC,211345.000,A,3748.7902,N,12217.5604,W,0.68,220.34,230611,,,A*76
$GPRMC,211346.000,A,3748.7897,N,12217.5611,W,0.85,252.99,230611,,,A*7D
$GPRMC,211347.000,A,3748.7894,N,12217.5618,W,0.68,235.40,230611,,,A*70
$GPRMC,211348.000,A,3748.7891,N,12217.5622,W,0.76,221.72,230611,,,A*78
$GPRMC,211349.000,A,3748.7886,N,12217.5626,W,1.58,215.64,230611,,,A*76
$GPRMC,211350.000,A,3748.7876,N,12217.5631,W,1.61,223.83,230611,,,A*71
$GPRMC,211351.000,A,3748.7868,N,12217.5637,W,1.51,222.69,230611,,,A*7F
$GPRMC,211352.000,A,3748.7860,N,12217.5640,W,1.80,226.90,230611,,,A*7A
$GPRMC,211353.000,A,3748.7855,N,12217.5646,W,1.82,267.01,230611,,,A*74
$GPRMC,211354.000,A,3748.7852,N,12217.5651,W,0.83,224.31,230611,,,A*76
$GPRMC,211355.000,A,3748.7845,N,12217.5651,W,0.59,197.36,230611,,,A*7A
$GPRMC,211356.000,A,3748.7838,N,12217.5654,W,0.76,216.51,230611,,,A*70
$GPRMC,211357.000,A,3748.7832,N,12217.5658,W,1.40,237.14,230611,,,A*71
$GPRMC,211358.000,A,3748.7825,N,12217.5662,W,1.11,228.18,230611,,,A*77
$GPRMC,211359.000,A,3748.7819,N,12217.5666,W,0.74,222.13,230611,,,A*7E
$GPRMC,211400.000,A,3748.7815,N,12217.5668,W,0.26,197.19,230611,,,A*77
$GPRMC,211401.000,A,3748.7810,N,12217.5670,W,1.30,189.49,230611,,,A*76
$GPRMC,211402.000,A,3748.7804,N,12217.5672,W,1.90,189.05,230611,,,A*70
$GPRMC,211403.000,A,3748.7798,N,12217.5674,W,1.94,201.38,230611,,,A*74
$GPRMC,211404.000,A,3748.7791,N,12217.5678,W,1.69,202.27,230611,,,A*79
$GPRMC,211405.000,A,3748.7785,N,12217.5684,W,1.48,216.34,230611,,,A*7A
$GPRMC,211406.000,A,3748.7780,N,12217.5690,W,1.70,222.61,230611,,,A*75
$GPRMC,211407.000,A,3748.7773,N,12217.5696,W,1.69,203.12,230611,,,A*71
$GPRMC,211408.000,A,3748.7763,N,12217.5703,W,1.97,200.21,230611,,,A*70
$GPRMC,211409.000,A,3748.7757,N,12217.5710,W,1.45,218.11,230611,,,A*71
$GPRMC,211410.000,A,3748.7752,N,12217.5714,W,1.71,213.92,230611,,,A*7F
$GPRMC,211411.000,A,3748.7747,N,12217.5718,W,1.59,208.04,230611,,,A*79
$GPRMC,211412.000,A,3748.7739,N,12217.5721,W,1.22,186.99,230611,,,A*74
$GPRMC,211413.000,A,3748.7732,N,12217.5724,W,1.10,197.69,230611,,,A*75
$GPRMC,211414.000,A,3748.7726,N,12217.5727,W,1.93,192.22,230611,,,A*75
$GPRMC,211415.000,A,3748.7719,N,12217.5730,W,1.96,202.45,230611,,,A*70
$GPRMC,211416.000,A,3748.7712,N,12217.5734,W,1.20,208.76,230611,,,A*7B
$GPRMC,211417.000,A,3748.7707,N,12217.5739,W,1.68,224.88,230611,,,A*70
$GPRMC,211418.000,A,3748.7700,N,12217.5746,W,2.19,215.82,230611,,,A*7D
$GPRMC,211419.000,A,3748.7696,N,12217.5751,W,2.27,218.06,230611,,,A*78
$GPRMC,211420.000,A,3748.7691,N,12217.5757,W,2.03,221.58,230611,,,A*74
$GPRMC,211421.000,A,3748.7687,N,12217.5763,W,1.78,214.31,230611,,,A*73
$GPRMC,211422.000,A,3748.7682,N,12217.5768,W,2.39,214.47,230611,,,A*79
$GPRMC,211423.000,A,3748.7678,N,12217.5773,W,2.48,212.66,230611,,,A*74
$GPRMC,211424.000,A,3748.7674,N,12217.5778,W,1.94,223.07,230611,,,A*73
$GPRMC,211425.000,A,3748.7670,N,12217.5783,W,1.92,235.63,230611,,,A*71
$GPRMC,211426.000,A,3748.7670,N,12217.5788,W,1.29,217.67,230611,,,A*7D
$GPRMC,211427.000,A,3748.7663,N,12217.5794,W,1.10,187.20,230611,,,A*70
$GPRMC,211428.000,A,3748.7658,N,12217.5796,W,0.93,178.33,230611,,,A*7D
$GPRMC,211429.000,A,3748.7654,N,12217.5797,W,1.11,186.96,230611,,,A*74
$GPRMC,211430.000,A,3748.7650,N,12217.5799,W,1.04,209.98,230611,,,A*78
$GPRMC,211431.000,A,3748.7647,N,12217.5802,W,1.21,234.25,230611,,,A*7D
$GPRMC,211432.000,A,3748.7644,N,12217.5806,W,1.27,215.83,230611,,,A*70
$GPRMC,211433.000,A,3748.7642,N,12217.5807,W,1.16,182.91,230611,,,A*7A
$GPRMC,211434.000,A,3748.7637,N,12217.5808,W,1.51,197.53,230611,,,A*79
$GPRMC,211435.000,A,3748.7632,N,12217.5812,W,1.62,215.67,230611,,,A*78
$GPRMC,211436.000,A,3748.7628,N,12217.5815,W,1.37,204.84,230611,,,A*7A
$GPRMC,211437.000,A,3748.7621,N,12217.5820,W,1.59,221.28,230611,,,A*7D
$GPRMC,211438.000,A,3748.7616,N,12217.5824,W,1.82,215.56,230611,,,A*7A
$GPRMC,211439.000,A,3748.7612,N,12217.5829,W,1.95,226.83,230611,,,A*7C
$GPRMC,211440.000,A,3748.7607,N,12217.5834,W,1.78,224.55,230611,,,A*70
$GPRMC,211441.000,A,3748.7602,N,12217.5837,W,2.18,200.91,230611,,,A*7C
$GPRMC,211442.000,A,3748.7597,N,12217.5841,W,2.09,210.02,230611,,,A*7A
$GPRMC,211443.000,A,3748.7591,N,12217.5844,W,1.88,214.96,230611,,,A*7B
$GPRMC,211444.000,A,3748.7585,N,12217.5847,W,2.03,214.19,230611,,,A*7D
$GPRMC,211445.000,A,3748.7581,N,12217.5850,W,1.66,219.93,230611,,,A*71
$GPRMC,211446.000,A,3748.7578,N,12217.5853,W,1.33,223.44,230611,,,A*74
$GPRMC,211447.000,A,3748.7573,N,12217.5858,W,2.21,217.60,230611,,,A*74
$GPRMC,211448.000,A,3748.7566,N,12217.5863,W,1.89,195.54,230611,,,A*78
$GPRMC,211449.000,A,3748.7560,N,12217.5865,W,2.24,189.15,230611,,,A*75
$GPRMC,211450.000,A,3748.7554,N,12217.5867,W,1.17,200.69,230611,,,A*72
$GPRMC,211451.000,A,3748.7548,N,12217.5871,W,1.25,208.42,230611,,,A*79
$GPRMC,211452.000,A,3748.7544,N,12217.5873,W,0.77,208.31,230611,,,A*76
$GPRMC,211453.000,A,3748.7541,N,12217.5877,W,0.53,259.97,230611,,,A*78
$GPRMC,211454.000,A,3748.7537,N,12217.5880,W,0.80,220.99,230611,,,A*78
$GPRMC,211455.000,A,3748.7530,N,12217.5883,W,1.00,211.55,230611,,,A*76
$GPRMC,211456.000,A,3748.7526,N,12217.5887,W,1.00,213.60,230611,,,A*72
$GPRMC,211457.000,A,3748.7522,N,12217.5890,W,1.23,208.83,230611,,,A*77
$GPRMC,211458.000,A,3748.7513,N,12217.5899,W,1.67,225.01,230611,,,A*76
$GPRMC,211459.000,A,3748.7506,N,12217.5905,W,1.70,189.34,230611,,,A*72
$GPRMC,211500.000,A,3748.7503,N,12217.5910,W,1.44,184.35,230611,,,A*75
$GPRMC,211501.000,A,3748.7497,N,12217.5912,W,1.56,193.55,230611,,,A*79
$GPRMC,211502.000,A,3748.7494,N,12217.5917,W,1.48,218.00,230611,,,A*73
$GPRMC,211503.000,A,3748.7490,N,12217.5918,W,2.08,189.12,230611,,,A*76
$GPRMC,211504.000,A,3748.7485,N,12217.5920,W,1.81,197.76,230611,,,A*71
$GPRMC,211505.000,A,3748.7481,N,12217.5921,W,1.56,204.95,230611,,,A*7B
$GPRMC,211506.000,A,3748.7475,N,12217.5923,W,1.09,224.37,230611,,,A*71
$GPRMC,211507.000,A,3748.7473,N,12217.5928,W,1.01,220.19,230611,,,A*7D
$GPRMC,211508.000,A,3748.7469,N,12217.5929,W,1.45,199.92,230611,,,A*7A
$GPRMC,211509.000,A,3748.7464,N,12217.5933,W,1.65,187.94,230611,,,A*76
$GPRMC,211510.000,A,3748.7457,N,12217.5936,W,2.48,188.63,230611,,,A*70
$GPRMC,211511.000,A,3748.7450,N,12217.5940,W,2.19,199.55,230611,,,A*76
$GPRMC,211512.000,A,3748.7445,N,12217.5947,W,1.96,211.56,230611,,,A*72
$GPRMC,211513.000,A,3748.7442,N,12217.5956,W,1.85,206.71,230611,,,A*75
$GPRMC,211514.000,A,3748.7438,N,12217.5962,W,2.02,191.27,230611,,,A*7A
$GPRMC,211515.000,A,3748.7432,N,12217.5976,W,1.92,208.77,230611,,,A*78
$GPRMC,211516.000,A,3748.7429,N,12217.5986,W,1.66,228.34,230611,,,A*70
$GPRMC,211517.000,A,3748.7418,N,12217.6003,W,2.09,230.94,230611,,,A*7D
$GPRMC,211518.000,A,3748.7411,N,12217.6014,W,2.20,216.11,230611,,,A*7F
$GPRMC,211519.000,A,3748.7400,N,12217.6020,W,1.86,213.52,230611,,,A*74
$GPRMC,211520.000,A,3748.7393,N,12217.6023,W,2.08,208.32,230611,,,A*79
$GPRMC,211521.000,A,3748.7384,N,12217.6028,W,2.06,198.49,230611,,,A*7D
$GPRMC,211522.000,A,3748.7376,N,12217.6028,W,1.85,195.60,230611,,,A*7D
$GPRMC,211523.000,A,3748.7371,N,12217.6031,W,1.82,201.15,230611,,,A*78
$GPRMC,211524.000,A,3748.7366,N,12217.6035,W,2.03,214.48,230611,,,A*7B
$GPRMC,211525.000,A,3748.7365,N,12217.6040,W,1.60,211.09,230611,,,A*7D
$GPRMC,211526.000,A,3748.7364,N,12217.6044,W,1.93,209.78,230611,,,A*78
$GPRMC,211527.000,A,3748.7362,N,12217.6048,W,1.81,204.14,230611,,,A*77
$GPRMC,211528.000,A,3748.7361,N,12217.6056,W,2.21,208.39,230611,,,A*7E
$GPRMC,211529.000,A,3748.7358,N,12217.6062,W,2.25,207.48,230611,,,A*7F
$GPRMC,211530.000,A,3748.7351,N,12217.6065,W,1.83,214.16,230611,,,A*7F
$GPRMC,211531.000,A,3748.7346,N,12217.6068,W,1.74,212.37,230611,,,A*78
$GPRMC,211532.000,A,3748.7341,N,12217.6072,W,1.37,218.79,230611,,,A*70
$GPRMC,211533.000,A,3748.7337,N,12217.6076,W,1.65,215.01,230611,,,A*71
$GPRMC,211534.000,A,3748.7332,N,12217.6080,W,1.60,212.45,230611,,,A*78
$GPRMC,211535.000,A,3748.7327,N,12217.6084,W,1.88,210.77,230611,,,A*7C
$GPRMC,211536.000,A,3748.7320,N,12217.6084,W,1.96,197.11,230611,,,A*7B
$GPRMC,211537.000,A,3748.7313,N,12217.6085,W,2.00,193.93,230611,,,A*79
$GPRMC,211538.000,A,3748.7306,N,12217.6087,W,2.17,198.00,230611,,,A*77
$GPRMC,211539.000,A,3748.7299,N,12217.6088,W,2.18,194.27,230611,,,A*78
$GPRMC,211540.000,A,3748.7292,N,12217.6090,W,2.35,198.61,230611,,,A*75
$GPRMC,211541.000,A,3748.7286,N,12217.6095,W,2.19,205.80,230611,,,A*72
$GPRMC,211542.000,A,3748.7276,N,12217.6103,W,2.30,206.90,230611,,,A*79
$GPRMC,211543.000,A,3748.7272,N,12217.6109,W,1.79,208.61,230611,,,A*78
$GPRMC,211544.000,A,3748.7268,N,12217.6115,W,1.86,207.26,230611,,,A*75
$GPRMC,211545.000,A,3748.7262,N,12217.6119,W,2.02,209.59,230611,,,A*7B
$GPRMC,211546.000,A,3748.7259,N,12217.6125,W,1.92,218.67,230611,,,A*78
$GPRMC,211547.000,A,3748.7254,N,12217.6128,W,1.67,204.86,230611,,,A*71
$GPRMC,211548.000,A,3748.7247,N,12217.6132,W,1.84,195.79,230611,,,A*71
$GPRMC,211549.000,A,3748.7240,N,12217.6135,W,1.55,193.36,230611,,,A*71
$GPRMC,211550.000,A,3748.7235,N,12217.6140,W,1.47,191.10,230611,,,A*7C
$GPRMC,211551.000,A,3748.7227,N,12217.6147,W,2.39,205.03,230611,,,A*7F
$GPRMC,211552.000,A,3748.7222,N,12217.6154,W,1.64,197.50,230611,,,A*7E
$GPRMC,211553.000,A,3748.7216,N,12217.6159,W,1.47,197.42,230611,,,A*77
$GPRMC,211554.000,A,3748.7215,N,12217.6167,W,1.41,190.99,230611,,,A*79
$GPRMC,211555.000,A,3748.7209,N,12217.6171,W,2.00,200.64,230611,,,A*7C
$GPRMC,211556.000,A,3748.7203,N,12217.6175,W,2.05,199.97,230611,,,A*7B
$GPRMC,211557.000,A,3748.7197,N,12217.6178,W,1.76,199.63,230611,,,A*75
$GPRMC,211558.000,A,3748.7192,N,12217.6180,W,1.74,198.88,230611,,,A*7E
$GPRMC,211559.000,A,3748.7186,N,12217.6182,W,1.70,183.74,230611,,,A*75
$GPRMC,211600.000,A,3748.7180,N,12217.6183,W,1.54,187.08,230611,,,A*74
$GPRMC,211601.000,A,3748.7175,N,12217.6185,W,1.56,196.44,230611,,,A*73
$GPRMC,211602.000,A,3748.7168,N,12217.6189,W,1.90,195.95,230611,,,A*75
$GPRMC,211603.000,A,3748.7163,N,12217.6193,W,2.16,184.78,230611,,,A*7A
$GPRMC,211604.000,A,3748.7161,N,12217.6200,W,1.34,199.34,230611,,,A*71
$GPRMC,211605.000,A,3748.7158,N,12217.6204,W,1.25,208.62,230611,,,A*76
$GPRMC,211606.000,A,3748.7155,N,12217.6209,W,1.65,187.88,230611,,,A*71
$GPRMC,211607.000,A,3748.7150,N,12217.6211,W,1.69,194.64,230611,,,A*70
$GPRMC,211608.000,A,3748.7145,N,12217.6217,W,1.87,193.68,230611,,,A*76
$GPRMC,211609.000,A,3748.7140,N,12217.6220,W,1.70,198.53,230611,,,A*7D
$GPRMC,211610.000,A,3748.7135,N,12217.6225,W,1.93,202.48,230611,,,A*75
$GPRMC,211611.000,A,3748.7128,N,12217.6233,W,1.87,195.17,230611,,,A*7D
$GPRMC,211612.000,A,3748.7122,N,12217.6236,W,1.89,193.11,230611,,,A*7F
$GPRMC,211613.000,A,3748.7118,N,12217.6238,W,1.29,185.89,230611,,,A*75
$GPRMC,211614.000,A,3748.7115,N,12217.6240,W,0.79,207.60,230611,,,A*7A
$GPRMC,211615.000,A,3748.7111,N,12217.6242,W,1.78,201.65,230611,,,A*7E
$GPRMC,211616.000,A,3748.7105,N,12217.6245,W,1.95,201.49,230611,,,A*72
$GPRMC,211617.000,A,3748.7096,N,12217.6257,W,1.98,200.69,230611,,,A*75
$GPRMC,211618.000,A,3748.7089,N,12217.6263,W,1.73,196.98,230611,,,A*74
$GPRMC,211619.000,A,3748.7082,N,12217.6272,W,2.07,197.63,230611,,,A*7B
$GPRMC,211620.000,A,3748.7078,N,12217.6275,W,2.30,204.24,230611,,,A*7D
$GPRMC,211621.000,A,3748.7074,N,12217.6277,W,1.74,184.75,230611,,,A*7E
$GPRMC,211622.000,A,3748.7071,N,12217.6278,W,1.30,175.88,230611,,,A*7B
$GPRMC,211623.000,A,3748.7069,N,12217.6279,W,1.05,165.05,230611,,,A*70
$GPRMC,211624.000,A,3748.7069,N,12217.6281,W,0.97,183.71,230611,,,A*71
$GPRMC,211625.000,A,3748.7067,N,12217.6284,W,1.08,191.63,230611,,,A*7C
$GPRMC,211626.000,A,3748.7063,N,12217.6287,W,1.49,210.67,230611,,,A*73
$GPRMC,211627.000,A,3748.7059,N,12217.6291,W,1.54,227.82,230611,,,A*7F
$GPRMC,211628.000,A,3748.7055,N,12217.6296,W,1.61,233.20,230611,,,A*70
$GPRMC,211629.000,A,3748.7050,N,12217.6301,W,2.07,216.00,230611,,,A*7D
$GPRMC,211630.000,A,3748.7047,N,12217.6305,W,2.09,209.81,230611,,,A*7E
$GPRMC,211631.000,A,3748.7042,N,12217.6310,W,2.23,203.60,230611,,,A*73
$GPRMC,211632.000,A,3748.7035,N,12217.6314,W,1.84,218.39,230611,,,A*7C
$GPRMC,211633.000,A,3748.7030,N,12217.6316,W,2.18,198.95,230611,,,A*71
$GPRMC,211634.000,A,3748.7024,N,12217.6319,W,1.91,207.47,230611,,,A*74
$GPRMC,211635.000,A,3748.7016,N,12217.6323,W,1.83,215.93,230611,,,A*74
$GPRMC,211636.000,A,3748.7010,N,12217.6328,W,1.72,208.41,230611,,,A*77
$GPRMC,211637.000,A,3748.7007,N,12217.6332,W,2.07,219.20,230611,,,A*7D
$GPRMC,211638.000,A,3748.7003,N,12217.6336,W,1.86,211.21,230611,,,A*71
$GPRMC,211639.000,A,3748.6998,N,12217.6341,W,1.99,211.22,230611,,,A*77
$GPRMC,211640.000,A,3748.6993,N,12217.6345,W,1.73,214.17,230611,,,A*71
$GPRMC,211641.000,A,3748.6987,N,12217.6350,W,1.84,220.53,230611,,,A*7E
$GPRMC,211642.000,A,3748.6982,N,12217.6355,W,1.82,216.02,230611,,,A*7A
$GPRMC,211643.000,A,3748.6976,N,12217.6360,W,1.91,216.31,230611,,,A*74
$GPRMC,211644.000,A,3748.6970,N,12217.6365,W,1.94,211.10,230611,,,A*71
$GPRMC,211645.000,A,3748.6961,N,12217.6373,W,1.75,216.72,230611,,,A*7B
$GPRMC,211646.000,A,3748.6952,N,12217.6382,W,1.86,216.01,230611,,,A*7E
$GPRMC,211647.000,A,3748.6944,N,12217.6390,W,1.90,214.62,230611,,,A*7B
$GPRMC,211648.000,A,3748.6937,N,12217.6396,W,2.11,207.44,230611,,,A*7A
$GPRMC,211649.000,A,3748.6929,N,12217.6402,W,1.78,213.07,230611,,,A*70
$GPRMC,211650.000,A,3748.6922,N,12217.6404,W,1.35,198.02,230611,,,A*79
$GPRMC,211651.000,A,3748.6915,N,12217.6408,W,1.25,189.05,230611,,,A*76
$GPRMC,211652.000,A,3748.6911,N,12217.6409,W,0.53,229.86,230611,,,A*72
$GPRMC,211653.000,A,3748.6908,N,12217.6411,W,0.55,167.61,230611,,,A*74
$GPRMC,211654.000,A,3748.6905,N,12217.6415,W,0.51,178.14,230611,,,A*72
$GPRMC,211655.000,A,3748.6906,N,12217.6421,W,0.17,165.15,230611,,,A*78
$GPRMC,211656.000,A,3748.6905,N,12217.6424,W,0.36,198.72,230611,,,A*7D
$GPRMC,211657.000,A,3748.6905,N,12217.6425,W,0.23,199.35,230611,,,A*7B
$GPRMC,211658.000,A,3748.6904,N,12217.6427,W,0.22,229.75,230611,,,A*7A
$GPRMC,211659.000,A,3748.6902,N,12217.6429,W,0.69,232.06,230611,,,A*72
$GPRMC,211700.000,A,3748.6899,N,12217.6433,W,1.77,209.47,230611,,,A*74
$GPRMC,211701.000,A,3748.6892,N,12217.6437,W,1.97,182.59,230611,,,A*7B
$GPRMC,211702.000,A,3748.6890,N,12217.6440,W,1.75,215.31,230611,,,A*75
$GPRMC,211703.000,A,3748.6885,N,12217.6445,W,2.02,216.72,230611,,,A*72
$GPRMC,211704.000,A,3748.6878,N,12217.6452,W,2.05,198.50,230611,,,A*73
$GPRMC,211705.000,A,3748.6871,N,12217.6459,W,2.37,190.79,230611,,,A*72
$GPRMC,211706.000,A,3748.6864,N,12217.6463,W,2.29,189.73,230611,,,A*71
$GPRMC,211707.000,A,3748.6857,N,12217.6469,W,1.96,200.72,230611,,,A*7E
$GPRMC,211708.000,A,3748.6851,N,12217.6476,W,1.99,216.61,230611,,,A*73
$GPRMC,211709.000,A,3748.6846,N,12217.6481,W,2.09,211.23,230611,,,A*77
$GPRMC,211710.000,A,3748.6841,N,12217.6485,W,2.07,202.67,230611,,,A*70
$GPRMC,211711.000,A,3748.6835,N,12217.6486,W,2.12,182.22,230611,,,A*7F
$GPRMC,211712.000,A,3748.6828,N,12217.6486,W,2.20,176.18,230611,,,A*73
$GPRMC,211713.000,A,3748.6821,N,12217.6487,W,2.15,186.14,230611,,,A*7F
$GPRMC,211714.000,A,3748.6815,N,12217.6491,W,2.19,194.58,230611,,,A*7F
$GPRMC,211715.000,A,3748.6807,N,12217.6491,W,1.77,190.95,230611,,,A*73
$GPRMC,211716.000,A,3748.6802,N,12217.6491,W,1.70,191.52,230611,,,A*78
$GPRMC,211717.000,A,3748.6799,N,12217.6496,W,1.71,189.93,230611,,,A*76
$GPRMC,211718.000,A,3748.6791,N,12217.6496,W,1.54,194.45,230611,,,A*71
$GPRMC,211719.000,A,3748.6785,N,12217.6496,W,1.80,199.17,230611,,,A*76
$GPRMC,211720.000,A,3748.6780,N,12217.6497,W,1.96,203.30,230611,,,A*7A
$GPRMC,211721.000,A,3748.6776,N,12217.6501,W,1.34,209.00,230611,,,A*7D
$GPRMC,211722.000,A,3748.6772,N,12217.6504,W,1.83,210.42,230611,,,A*7D
$GPRMC,211723.000,A,3748.6768,N,12217.6510,W,1.28,209.12,230611,,,A*7E
$GPRMC,211724.000,A,3748.6762,N,12217.6510,W,1.62,210.79,230611,,,A*78
$GPRMC,211725.000,A,3748.6757,N,12217.6514,W,2.01,218.61,230611,,,A*7C
$GPRMC,211726.000,A,3748.6749,N,12217.6520,W,1.92,206.72,230611,,,A*73
$GPRMC,211727.000,A,3748.6744,N,12217.6526,W,1.87,211.38,230611,,,A*75
$GPRMC,211728.000,A,3748.6739,N,12217.6531,W,1.54,199.88,230611,,,A*70
$GPRMC,211729.000,A,3748.6735,N,12217.6534,W,1.44,202.71,230611,,,D*7B
$GPRMC,211730.000,A,3748.6731,N,12217.6535,W,1.90,198.10,230611,,,D*78
$GPRMC,211731.000,A,3748.6725,N,12217.6539,W,2.38,196.77,230611,,,D*7E
$GPRMC,211732.000,A,3748.6716,N,12217.6544,W,2.12,185.92,230611,,,D*76
$GPRMC,211733.000,A,3748.6710,N,12217.6552,W,2.18,194.96,230611,,,D*78
$GPRMC,211734.000,A,3748.6704,N,12217.6556,W,1.73,197.09,230611,,,D*75
$GPRMC,211735.000,A,3748.6698,N,12217.6563,W,1.38,195.72,230611,,,D*77
$GPRMC,211736.000,A,3748.6692,N,12217.6573,W,1.47,202.14,230611,,,D*7A
$GPRMC,211737.000,A,3748.6688,N,12217.6580,W,1.84,222.05,230611,,,D*71
$GPRMC,211738.000,A,3748.6682,N,12217.6587,W,1.72,213.67,230611,,,D*7C
$GPRMC,211739.000,A,3748.6675,N,12217.6591,W,1.65,217.32,230611,,,D*70
$GPRMC,211740.000,A,3748.6671,N,12217.6597,W,1.65,223.73,230611,,,D*7E
$GPRMC,211741.000,A,3748.6669,N,12217.6604,W,1.22,215.75,230611,,,D*7F
$GPRMC,211742.000,A,3748.6665,N,12217.6609,W,1.67,219.77,230611,,,D*72
$GPRMC,211743.000,A,3748.6659,N,12217.6613,W,1.35,212.55,230611,,,D*7B
$GPRMC,211744.000,A,3748.6654,N,12217.6618,W,1.87,213.90,230611,,,D*7B
$GPRMC,211745.000,A,3748.6648,N,12217.6622,W,2.00,204.99,230611,,,D*7D
$GPRMC,211746.000,A,3748.6642,N,12217.6625,W,2.07,196.78,230611,,,D*73
$GPRMC,211747.000,A,3748.6633,N,12217.6633,W,2.25,194.65,230611,,,D*7D
$GPRMC,211748.000,A,3748.6625,N,12217.6637,W,2.15,194.79,230611,,,A*7A
$GPRMC,211749.000,A,3748.6618,N,12217.6640,W,2.17,201.61,230611,,,A*71
$GPRMC,211750.000,A,3748.6612,N,12217.6644,W,2.09,213.43,230611,,,A*7B
$GPRMC,211751.000,A,3748.6607,N,12217.6647,W,1.96,205.46,230611,,,A*7A
$GPRMC,211752.000,A,3748.6603,N,12217.6653,W,1.97,219.72,230611,,,A*73
$GPRMC,211753.000,A,3748.6598,N,12217.6656,W,1.89,206.30,230611,,,A*71
$GPRMC,211754.000,A,3748.6594,N,12217.6660,W,1.39,200.17,230611,,,A*77
$GPRMC,211755.000,A,3748.6589,N,12217.6663,W,1.91,191.56,230611,,,A*75
$GPRMC,211756.000,A,3748.6583,N,12217.6666,W,1.91,189.06,230611,,,A*75
$GPRMC,211757.000,A,3748.6577,N,12217.6670,W,1.88,208.23,230611,,,A*7D
$GPRMC,211758.000,A,3748.6573,N,12217.6676,W,1.85,214.55,230611,,,A*71
$GPRMC,211759.000,A,3748.6569,N,12217.6681,W,1.86,217.02,230611,,,A*71
$GPRMC,211800.000,A,3748.6564,N,12217.6687,W,1.96,202.61,230611,,,A*79
