$ADVER,3080,2.3
$GPRMC,214422.445,A,3748.7718,N,12217.8135,W,1.66,123.56,160911,,,A*7F
$GPGGA,214423.445,3748.7715,N,12217.8131,W,1,04,5.5,6.2,M,-25.1,M,,0000*62
$GPGSA,A,3,04,17,02,10,,,,,,,,,8.1,5.5,6.0*3C
$GPRMC,214423.445,A,3748.7715,N,12217.8131,W,1.91,124.86,160911,,,A*75
$GPVTG,124.86,T,,M,1.91,N,3.5,K,A*0B
$GPGGA,214424.445,3748.7711,N,12217.8124,W,1,04,5.5,6.4,M,-25.1,M,,0000*63
$GPGSA,A,3,04,17,02,10,,,,,,,,,8.1,5.5,6.0*3C
$GPRMC,214424.445,A,3748.7711,N,12217.8124,W,1.88,117.43,160911,,,A*73
$GPVTG,117.43,T,,M,1.88,N,3.5,K,A*0A
$GPGGA,214425.000,3748.7710,N,12217.8120,W,1,04,5.5,6.5,M,-25.1,M,,0000*63
$GPGSA,A,3,04,17,02,10,,,,,,,,,8.1,5.5,6.0*3C
$GPGSV,3,1,12,02,71,166,40,04,48,056,41,10,21,106,40,17,14,066,39*7F
$GPGSV,3,2,12,12,57,321,,09,46,221,29,27,38,207,,25,23,310,*74
$GPGSV,3,3,12,05,07,157,,29,07,261,,30,00,310,,14,00,302,*77
$GPRMC,214425.000,A,3748.7710,N,12217.8120,W,1.88,114.78,160911,,,A*79
$GPVTG,114.78,T,,M,1.88,N,3.5,K,A*01
$GPGGA,214426.000,3748.7707,N,12217.8113,W,1,04,5.5,6.7,M,-25.1,M,,0000*64
$GPGSA,A,3,04,17,02,10,,,,,,,,,8.1,5.5,6.0*3C
$GPRMC,214426.000,A,3748.7707,N,12217.8113,W,1.84,113.54,160911,,,A*79
$GPVTG,113.54,T,,M,1.84,N,3.4,K,A*05
$GPGGA,214427.000,3748.7705,N,12217.8107,W,1,04,5.5,6.8,M,-25.1,M,,0000*6D
$GPGSA,A,3,04,17,02,10,,,,,,,,,8.1,5.5,6.0*3C
$GPRMC,214427.000,A,3748.7705,N,12217.8107,W,1.86,112.89,160911,,,A*7C
$GPVTG,112.89,T,,M,1.86,N,3.4,K,A*06
$GPGGA,214428.000,3748.7702,N,12217.8102,W,1,04,5.5,6.9,M,-25.1,M,,0000*61
$GPGSA,A,3,04,17,02,10,,,,,,,,,8.1,5.5,6.0*3C
$GPRMC,214428.000,A,3748.7702,N,12217.8102,W,1.84,120.66,160911,,,A*73
$GPVTG,120.66,T,,M,1.84,N,3.4,K,A*04
$GPGGA,214429.000,3748.7699,N,12217.8096,W,1,04,5.5,7.0,M,-25.1,M,,0000*67
$GPGSA,A,3,04,17,02,10,,,,,,,,,8.1,5.5,6.0*3C
$GPRMC,214429.000,A,3748.7699,N,12217.8096,W,1.69,123.41,160911,,,A*78
$GPVTG,123.41,T,,M,1.69,N,3.1,K,A*04
$GPGGA,214430.000,3748.7696,N,12217.8091,W,1,04,5.5,7.1,M,-25.1,M,,0000*66
$GPGSA,A,3,04,17,02,10,,,,,,,,,8.1,5.5,6.0*3C
$GPGSV,3,1,12,02,71,166,39,04,48,056,41,10,21,106,38,17,14,066,39*7E
$GPGSV,3,2,12,12,57,321,35,09,46,221,30,27,38,207,,25,23,310,*7A
$GPGSV,3,3,12,05,07,157,,29,07,261,,30,00,310,,14,00,302,*77
$GPRMC,214430.000,A,3748.7696,N,12217.8091,W,1.87,111.39,160911,,,A*76
$GPGGA,214431.000,3748.7695,N,12217.8085,W,1,04,5.5,7.1,M,-25.1,M,,0000*61
$GPGSA,A,3,04,17,02,10,,,,,,,,,8.1,5.5,6.0*3C
$GPRMC,214431.000,A,3748.7695,N,12217.8085,W,1.59,109.87,160911,,,A*7E
$GPVTG,109.87,T,,M,1.59,N,2.9,K,A*0C
$GPGGA,214432.000,3748.7687,N,12217.8092,W,1,04,5.5,5.8,M,-25.1,M,,0000*6C
$GPGSA,A,3,04,17,02,10,,,,,,,,,8.1,5.5,6.0*3C
$GPRMC,214432.000,A,3748.7687,N,12217.8092,W,1.90,77.18,160911,,,A*43
$GPVTG,77.18,T,,M,1.90,N,3.5,K,A*3A
$GPGGA,214433.000,3748.7679,N,12217.8091,W,1,04,5.5,5.7,M,-25.1,M,,0000*60
$GPGSA,A,3,04,17,02,10,,,,,,,,,8.1,5.5,6.0*3C
$GPRMC,214433.000,A,3748.7679,N,12217.8091,W,1.26,149.38,160911,,,A*73
$GPVTG,149.38,T,,M,1.26,N,2.3,K,A*0E
$GPGGA,214434.000,3748.7669,N,12217.8110,W,1,04,5.5,2.2,M,-25.1,M,,0000*6C
$GPGSA,A,3,04,17,02,10,,,,,,,,,8.1,5.5,6.0*3C
$GPRMC,214434.000,A,3748.7669,N,12217.8110,W,1.41,146.13,160911,,,A*7A
$GPVTG,146.13,T,,M,1.41,N,2.6,K,A*0C
$GPGGA,214435.000,3748.7664,N,12217.8106,W,1,04,5.5,2.1,M,-25.1,M,,0000*64
$GPGSA,A,3,04,17,02,10,,,,,,,,,8.1,5.5,6.0*3C
$GPGSV,3,1,12,02,71,166,32,04,48,056,35,10,21,106,30,17,14,066,37*70
$GPGSV,3,2,12,12,57,321,26,09,46,221,,27,38,207,,25,23,310,*7B
$GPGSV,3,3,12,05,07,157,,29,07,261,,30,00,310,,14,00,302,*77
$GPRMC,214435.000,A,3748.7664,N,12217.8106,W,2.13,141.19,160911,,,A*78
$GPVTG,141.19,T,,M,2.13,N,3.9,K,A*0B
$GPGGA,214436.000,3748.7657,N,12217.8105,W,1,04,5.5,1.7,M,-25.1,M,,0000*61
$GPGSA,A,3,04,17,02,10,,,,,,,,,8.1,5.5,6.0*3C
$GPRMC,214436.000,A,3748.7657,N,12217.8105,W,2.11,143.46,160911,,,A*72
$GPVTG,143.46,T,,M,2.11,N,3.9,K,A*01
$GPGGA,214437.000,3748.7656,N,12217.8122,W,1,04,5.5,-0.8,M,-25.1,M,,0000*47
$GPGSA,A,3,04,17,02,10,,,,,,,,,8.1,5.5,6.0*3C
$GPRMC,214437.000,A,3748.7656,N,12217.8122,W,0.86,121.14,160911,,,A*78
$GPVTG,121.14,T,,M,0.86,N,1.6,K,A*03
$GPGGA,214438.000,3748.7651,N,12217.8119,W,1,04,5.5,-0.1,M,-25.1,M,,0000*4E
$GPGSA,A,3,04,17,02,10,,,,,,,,,8.1,5.5,6.0*3C
$GPRMC,214438.000,A,3748.7651,N,12217.8119,W,1.53,134.37,160911,,,A*74
$GPVTG,134.37,T,,M,1.53,N,2.8,K,A*02
$GPGGA,214439.000,3748.7642,N,12217.8107,W,1,04,5.5,0.7,M,-25.1,M,,0000*69
$GPGSA,A,3,04,17,02,10,,,,,,,,,8.1,5.5,6.0*3C
$GPRMC,214439.000,A,3748.7642,N,12217.8107,W,1.61,127.76,160911,,,A*7E
$GPVTG,127.76,T,,M,1.61,N,3.0,K,A*0D
$GPGGA,214440.000,3748.7646,N,12217.8110,W,1,04,5.5,1.0,M,-25.1,M,,0000*63
$GPGSA,A,3,04,17,02,10,,,,,,,,,8.1,5.5,6.0*3C
$GPGSV,3,1,12,02,71,166,32,04,48,056,34,10,21,106,27,17,14,066,39*79
$GPGSV,3,2,12,12,57,321,27,09,46,221,22,27,38,207,21,25,23,310,*79
$GPGSV,3,3,12,05,07,157,,29,07,261,,30,00,310,,14,00,302,*77
$GPVTG,116.24,T,,M,0.87,N,1.6,K,A*05
$GPGGA,214441.000,3748.7649,N,12217.8114,W,1,04,5.5,0.9,M,-25.1,M,,0000*61
$GPGSA,A,3,04,17,02,10,,,,,,,,,8.1,5.5,6.0*3C
$GPRMC,214441.000,A,3748.7649,N,12217.8114,W,0.72,102.98,160911,,,A*7C
$GPVTG,102.98,T,,M,0.72,N,1.3,K,A*08
$GPGGA,214442.000,3748.7653,N,12217.8128,W,1,04,5.5,-0.7,M,-25.1,M,,0000*45
$GPGSA,A,3,04,17,02,10,,,,,,,,,8.2,5.5,6.0*3F
$GPRMC,214442.000,A,3748.7653,N,12217.8128,W,1.15,116.94,160911,,,A*72
$GPVTG,116.94,T,,M,1.15,N,2.1,K,A*00
$GPGGA,214443.000,3748.7650,N,12217.8124,W,1,04,5.5,-0.9,M,-25.1,M,,0000*45
$GPGSA,A,3,04,17,02,10,,,,,,,,,8.2,5.5,6.0*3F
$GPRMC,214443.000,A,3748.7650,N,12217.8124,W,1.75,135.03,160911,,,A*75
$GPVTG,135.03,T,,M,1.75,N,3.2,K,A*0B
$GPGGA,214444.000,3748.7644,N,12217.8121,W,1,04,5.5,-0.6,M,-25.1,M,,0000*4D
$GPGSA,A,3,04,17,02,10,,,,,,,,,8.2,5.5,6.0*3F
$GPRMC,214444.000,A,3748.7644,N,12217.8121,W,1.41,167.81,160911,,,A*78
$GPVTG,167.81,T,,M,1.41,N,2.6,K,A*04
$GPGGA,214445.000,3748.7642,N,12217.8113,W,1,04,5.5,0.5,M,-25.1,M,,0000*65
$GPGSA,A,3,04,17,02,10,,,,,,,,,8.2,5.5,6.0*3F
$GPGSV,3,1,12,02,71,166,31,04,48,056,34,10,21,106,27,17,14,066,32*71
$GPGSV,3,2,12,12,57,321,28,09,46,221,20,27,38,207,20,25,23,310,25*72
$GPGSV,3,3,12,05,07,157,,29,07,261,,30,00,310,,14,00,302,*77
$GPRMC,214445.000,A,3748.7642,N,12217.8113,W,0.45,86.51,160911,,,A*48
$GPVTG,86.51,T,,M,0.45,N,0.8,K,A*3E
$GPGGA,214446.000,3748.7642,N,12217.8105,W,1,04,5.5,1.5,M,-25.1,M,,0000*60
$GPGSA,A,3,04,17,02,10,,,,,,,,,8.2,5.5,6.0*3F
$GPRMC,214446.000,A,3748.7642,N,12217.8105,W,0.44,188.48,160911,,,A*7A
$GPVTG,188.48,T,,M,0.44,N,0.8,K,A*08
$GPGGA,214447.000,3748.7641,N,12217.8104,W,1,04,5.5,1.5,M,-25.1,M,,0000*63
$GPGSA,A,3,04,17,02,10,,,,,,,,,8.2,5.5,6.0*3F
$GPRMC,214447.000,A,3748.7641,N,12217.8104,W,1.58,150.54,160911,,,A*7D
$GPVTG,150.54,T,,M,1.58,N,2.9,K,A*0F
$GPGGA,214448.000,3748.7632,N,12217.8084,W,1,04,5.5,2.9,M,-25.1,M,,0000*6E
$GPGSA,A,3,04,17,02,10,,,,,,,,,8.2,5.5,6.0*3F
$GPRMC,214448.000,A,3748.7632,N,12217.8084,W,2.53,130.51,160911,,,A*74
$GPVTG,130.51,T,,M,2.53,N,4.7,K,A*0C
$GPGGA,214449.000,3748.7628,N,12217.8073,W,1,03,4.9,4.1,M,-25.1,M,,0000*68
$GPGSA,A,2,04,17,10,,,,,,,,,,5.0,4.9,1.0*39
$GPRMC,214449.000,A,3748.7628,N,12217.8073,W,1.94,123.34,160911,,,A*7F
$GPVTG,123.34,T,,M,1.94,N,3.6,K,N*0C
$GPGGA,214450.000,3748.7628,N,12217.8068,W,1,03,4.9,5.0,M,-25.1,M,,0000*6A
$GPGSA,A,2,04,17,10,,,,,,,,,,5.0,4.9,1.0*39
$GPGSV,3,1,12,02,71,166,,04,48,056,29,10,21,106,25,17,14,066,39*76
$GPGSV,3,2,12,12,57,321,34,09,46,221,20,27,38,207,24,25,23,310,40*78
$GPGSV,3,3,12,05,07,157,,29,07,261,,30,00,310,,14,00,302,*77
$GPRMC,214450.000,A,3748.7628,N,12217.8068,W,1.05,103.28,160911,,,A*7A
$GPVTG,103.28,T,,M,1.05,N,1.9,K,N*06
$GPGGA,214451.000,3748.7631,N,12217.8067,W,1,03,4.9,5.4,M,-25.1,M,,0000*68
$GPGSA,A,2,04,17,10,,,,,,,,,,5.0,4.9,1.0*39
$GPRMC,214451.000,A,3748.7631,N,12217.8067,W,0.74,80.45,160911,,,A*4A
$GPVTG,80.45,T,,M,0.74,N,1.4,K,N*3D
$GPGGA,214452.000,3748.7631,N,12217.8061,W,1,04,5.5,6.1,M,-25.1,M,,0000*61
$GPGSA,A,3,04,17,02,10,,,,,,,,,8.2,5.5,6.0*3F
$GPRMC,214452.000,A,3748.7631,N,12217.8061,W,0.90,76.85,160911,,,A*40
$GPVTG,76.85,T,,M,0.90,N,1.7,K,A*3E
$GPGGA,214453.000,3748.7633,N,12217.8057,W,1,04,5.5,6.6,M,-25.1,M,,0000*60
$GPGSA,A,3,04,17,02,10,,,,,,,,,8.2,5.5,6.0*3F
$GPRMC,214453.000,A,3748.7633,N,12217.8057,W,0.58,72.65,160911,,,A*48
$GPVTG,72.65,T,,M,0.58,N,1.1,K,A*36
$GPGGA,214454.000,3748.7639,N,12217.8074,W,1,04,5.5,5.6,M,-25.1,M,,0000*6F
$GPGSA,A,3,04,17,02,10,,,,,,,,,8.2,5.5,6.0*3F
$GPRMC,214454.000,A,3748.7639,N,12217.8074,W,0.21,285.17,160911,,,A*75
$GPVTG,285.17,T,,M,0.21,N,0.4,K,A*03
$GPGGA,214455.000,3748.7642,N,12217.8088,W,1,04,5.5,4.8,M,-25.1,M,,0000*6E
$GPGSA,A,3,04,17,02,10,,,,,,,,,8.2,5.5,6.0*3F
$GPGSV,3,1,12,02,71,166,23,04,48,056,30,10,21,106,26,17,14,066,40*72
$GPGSV,3,2,12,12,57,321,33,09,46,221,21,27,38,207,23,25,23,310,38*76
$GPGSV,3,3,12,05,07,157,,29,07,261,,30,00,310,,14,00,302,*77
$GPRMC,214455.000,A,3748.7642,N,12217.8088,W,0.74,316.69,160911,,,A*79
$GPGGA,214456.000,3748.7643,N,12217.8096,W,1,04,5.5,4.6,M,-25.1,M,,0000*6D
$GPGSA,A,3,04,17,02,10,,,,,,,,,8.2,5.5,6.0*3F
$GPRMC,214456.000,A,3748.7643,N,12217.8096,W,0.69,313.87,160911,,,A*7D
$GPVTG,313.87,T,,M,0.69,N,1.3,K,A*0E
$GPGGA,214457.000,3748.7645,N,12217.8091,W,1,04,5.5,5.3,M,-25.1,M,,0000*69
$GPGSA,A,3,04,17,02,10,,,,,,,,,8.2,5.5,6.0*3F
$GPRMC,214457.000,A,3748.7645,N,12217.8091,W,0.58,352.36,160911,,,A*70
$GPVTG,352.36,T,,M,0.58,N,1.1,K,A*01
$GPGGA,214458.000,3748.7647,N,12217.8082,W,1,04,5.5,6.1,M,-25.1,M,,0000*67
$GPGSA,A,3,04,17,02,10,,,,,,,,,8.2,5.5,6.0*3F
$GPRMC,214458.000,A,3748.7647,N,12217.8082,W,0.49,45.02,160911,,,A*4D
$GPVTG,45.02,T,,M,0.49,N,0.9,K,A*3A
$GPGGA,214459.000,3748.7646,N,12217.8083,W,1,04,5.5,5.9,M,-25.1,M,,0000*6D
$GPGSA,A,3,04,17,02,10,,,,,,,,,8.2,5.5,6.0*3F
$GPRMC,214459.000,A,3748.7646,N,12217.8083,W,0.18,117.96,160911,,,A*73
$GPVTG,117.96,T,,M,0.18,N,0.3,K,A*0F
$GPGGA,214500.000,3748.7645,N,12217.8096,W,1,04,5.5,4.1,M,-25.1,M,,0000*6E
$GPGSA,A,3,04,17,02,10,,,,,,,,,8.2,5.5,6.0*3F
$GPGSV,3,1,12,02,71,166,23,04,48,056,31,10,21,106,27,17,14,066,36*73
$GPGSV,3,2,12,12,57,321,26,09,46,221,25,27,38,207,22,25,23,310,26*78
$GPGSV,3,3,12,05,07,157,,29,07,261,,30,00,310,,14,00,302,*77
$GPRMC,214500.000,A,3748.7645,N,12217.8096,W,0.18,279.63,160911,,,A*78
$GPVTG,279.63,T,,M,0.18,N,0.3,K,A*0E
$GPGGA,214501.000,3748.7645,N,12217.8100,W,1,04,5.5,3.3,M,-25.1,M,,0000*64
$GPGSA,A,3,04,17,02,10,,,,,,,,,8.2,5.5,6.0*3F
$GPRMC,214501.000,A,3748.7645,N,12217.8100,W,0.29,277.24,160911,,,A*78
$GPVTG,277.24,T,,M,0.29,N,0.5,K,A*07
$GPGGA,214502.000,3748.7645,N,12217.8099,W,1,04,5.5,2.9,M,-25.1,M,,0000*6D
$GPGSA,A,3,04,17,02,10,,,,,,,,,8.2,5.5,6.0*3F
$GPRMC,214502.000,A,3748.7645,N,12217.8099,W,0.58,225.92,160911,,,A*76
$GPVTG,225.92,T,,M,0.58,N,1.1,K,A*0E
$GPGGA,214503.000,3748.7645,N,12217.8107,W,1,04,5.5,1.9,M,-25.1,M,,0000*69
$GPGSA,A,3,04,17,02,10,,,,,,,,,8.2,5.5,6.0*3F
$GPRMC,214503.000,A,3748.7645,N,12217.8107,W,1.01,251.44,160911,,,A*74
$GPVTG,251.44,T,,M,1.01,N,1.9,K,A*03
$GPGGA,214504.000,3748.7644,N,12217.8096,W,1,04,5.5,3.6,M,-25.1,M,,0000*6B
$GPGSA,A,3,04,17,02,10,,,,,,,,,8.2,5.5,6.0*3F
$GPRMC,214504.000,A,3748.7644,N,12217.8096,W,1.32,326.55,160911,,,A*7A
$GPVTG,326.55,T,,M,1.32,N,2.4,K,A*0C
$GPGGA,214505.000,3748.7644,N,12217.8095,W,1,03,6.6,4.3,M,-25.1,M,,0000*6C
$GPGSA,A,2,04,17,02,,,,,,,,,,6.6,6.6,1.0*32
$GPGSV,3,1,12,02,71,166,24,04,48,056,38,10,21,106,19,17,14,066,28*7F
$GPGSV,3,2,12,12,57,321,39,09,46,221,23,27,38,207,22,25,23,310,40*70
$GPGSV,3,3,12,05,07,157,,29,07,261,,30,00,310,27,14,00,302,*72
$GPRMC,214505.000,A,3748.7644,N,12217.8095,W,0.62,317.17,160911,,,A*78
$GPVTG,317.17,T,,M,0.62,N,1.2,K,N*06
$GPGGA,214506.000,3748.7645,N,12217.8092,W,1,03,6.6,5.7,M,-25.1,M,,0000*6C
$GPGSA,A,2,04,17,02,,,,,,,,,,6.6,6.6,1.0*32
$GPRMC,214506.000,A,3748.7645,N,12217.8092,W,0.77,292.87,160911,,,A*7C
$GPVTG,292.87,T,,M,0.77,N,1.4,K,N*01
$GPGGA,214507.000,3748.7657,N,12217.8073,W,1,03,6.5,9.4,M,-25.1,M,,0000*6D
$GPGSA,A,2,04,17,02,,,,,,,,,,6.6,6.5,1.0*31
$GPRMC,214507.000,A,3748.7657,N,12217.8073,W,1.65,342.16,160911,,,A*77
$GPVTG,342.16,T,,M,1.65,N,3.1,K,N*00
$GPGGA,214508.000,3748.7655,N,12217.8075,W,1,04,5.5,8.1,M,-25.1,M,,0000*66
$GPGSA,A,3,04,17,02,10,,,,,,,,,8.2,5.5,6.0*3F
$GPRMC,214508.000,A,3748.7655,N,12217.8075,W,0.82,78.65,160911,,,A*4A
$GPVTG,78.65,T,,M,0.82,N,1.5,K,A*3F
$GPGGA,214509.000,3748.7647,N,12217.8054,W,1,04,5.5,7.8,M,-25.1,M,,0000*61
$GPGSA,A,3,04,17,02,10,,,,,,,,,8.2,5.5,6.0*3F
$GPRMC,214509.000,A,3748.7647,N,12217.8054,W,1.26,117.95,160911,,,A*73
$GPVTG,117.95,T,,M,1.26,N,2.3,K,A*02
$GPGGA,214510.000,3748.7643,N,12217.8035,W,1,04,5.5,8.8,M,-25.1,M,,0000*65
$GPGSA,A,3,04,17,02,10,,,,,,,,,8.2,5.5,6.0*3F
$GPGSV,3,1,12,02,71,166,24,04,48,056,26,10,21,106,22,17,14,066,32*73
$GPGSV,3,2,12,12,57,321,26,09,46,221,14,27,38,207,17,25,23,310,31*7A
$GPGSV,3,3,12,05,07,157,,29,07,261,,30,00,310,10,14,00,302,*76
$GPRMC,214510.000,A,3748.7643,N,12217.8035,W,0.81,108.34,160911,,,A*71
$GPGGA,214511.000,3748.7641,N,12217.8000,W,1,04,5.5,12.2,M,-25.1,M,,0000*51
$GPGSA,A,3,04,17,02,10,,,,,,,,,8.2,5.5,6.0*3F
$GPRMC,214511.000,A,3748.7641,N,12217.8000,W,0.78,56.74,160911,,,A*4C
$GPVTG,56.74,T,,M,0.78,N,1.4,K,A*37
$GPGGA,214512.000,3748.7646,N,12217.7993,W,1,04,5.5,14.2,M,-25.1,M,,0000*5F
$GPGSA,A,3,04,17,02,10,,,,,,,,,8.2,5.5,6.0*3F
$GPRMC,214512.000,A,3748.7646,N,12217.7993,W,0.96,337.47,160911,,,A*70
$GPVTG,337.47,T,,M,0.96,N,1.8,K,A*0F
$GPGGA,214513.000,3748.7636,N,12217.7974,W,1,04,5.5,16.1,M,-25.1,M,,0000*51
$GPGSA,A,3,04,17,02,10,,,,,,,,,8.2,5.5,6.0*3F
$GPRMC,214513.000,A,3748.7636,N,12217.7974,W,1.27,135.63,160911,,,A*72
$GPVTG,135.63,T,,M,1.27,N,2.3,K,A*0A
$GPGGA,214514.000,3748.7633,N,12217.7975,W,1,04,5.5,15.9,M,-25.1,M,,0000*59
$GPGSA,A,3,04,17,02,10,,,,,,,,,8.2,5.5,6.0*3F
$GPRMC,214514.000,A,3748.7633,N,12217.7975,W,1.19,84.14,160911,,,A*47
$GPVTG,84.14,T,,M,1.19,N,2.2,K,A*3D
$GPGGA,214515.000,3748.7635,N,12217.7983,W,1,04,5.5,15.5,M,-25.1,M,,0000*5B
$GPGSA,A,3,04,17,02,10,,,,,,,,,8.2,5.5,6.0*3F
$GPGSV,3,1,12,02,71,166,34,04,48,056,32,10,21,106,26,17,14,066,41*77
$GPGSV,3,2,12,12,57,321,29,09,46,221,17,27,38,207,24,25,23,310,30*77
$GPGSV,3,3,12,05,07,157,,29,07,261,,30,00,310,13,14,00,302,*75
$GPRMC,214515.000,A,3748.7635,N,12217.7983,W,1.06,66.93,160911,,,A*44
$GPVTG,66.93,T,,M,1.06,N,2.0,K,A*32
$GPGGA,214516.000,3748.7634,N,12217.7989,W,1,04,5.5,15.1,M,-25.1,M,,0000*57
$GPGSA,A,3,04,17,02,10,,,,,,,,,8.2,5.5,6.0*3F
$GPRMC,214516.000,A,3748.7634,N,12217.7989,W,1.38,113.24,160911,,,A*7E
$GPVTG,113.24,T,,M,1.38,N,2.6,K,A*06
$GPGGA,214517.000,3748.7633,N,12217.7995,W,1,04,5.5,14.2,M,-25.1,M,,0000*5E
$GPGSA,A,3,04,17,02,10,,,,,,,,,8.2,5.5,6.0*3F
$GPRMC,214517.000,A,3748.7633,N,12217.7995,W,1.74,99.36,160911,,,A*4D
$GPVTG,99.36,T,,M,1.74,N,3.2,K,A*3B
$GPGGA,214518.000,3748.7630,N,12217.8002,W,1,04,5.5,12.7,M,-25.1,M,,0000*59
$GPGSA,A,3,04,17,02,10,,,,,,,,,8.2,5.5,6.0*3F
$GPRMC,214518.000,A,3748.7630,N,12217.8002,W,1.34,96.75,160911,,,A*45
$GPVTG,96.75,T,,M,1.34,N,2.5,K,A*31
$GPGGA,214519.000,3748.7626,N,12217.8007,W,1,04,5.5,11.1,M,-25.1,M,,0000*5F
$GPGSA,A,3,04,17,02,10,,,,,,,,,8.2,5.5,6.0*3F
$GPRMC,214519.000,A,3748.7626,N,12217.8007,W,1.11,102.98,160911,,,A*7E
$GPVTG,102.98,T,,M,1.11,N,2.0,K,A*0C
$GPGGA,214520.000,3748.7626,N,12217.7994,W,1,04,5.5,11.8,M,-25.1,M,,0000*50
$GPGSA,A,3,04,17,02,10,,,,,,,,,8.2,5.5,6.0*3F
$GPGSV,3,1,12,02,71,166,22,04,48,056,26,10,21,106,33,17,14,066,35*72
$GPGSV,3,2,12,12,57,321,25,09,46,221,25,27,38,207,24,25,23,310,24*7F
$GPGSV,3,3,12,05,07,157,,29,07,261,,30,00,310,,14,00,302,*77
$GPRMC,214520.000,A,3748.7626,N,12217.7994,W,1.33,100.37,160911,,,A*7F
$GPVTG,100.37,T,,M,1.33,N,2.5,K,A*0E
$GPGGA,214521.000,3748.7619,N,12217.7997,W,1,04,5.5,10.7,M,-25.1,M,,0000*50
$GPGSA,A,3,04,17,02,10,,,,,,,,,8.2,5.5,6.0*3F
$GPRMC,214521.000,A,3748.7619,N,12217.7997,W,1.35,127.38,160911,,,A*7D
$GPVTG,127.38,T,,M,1.35,N,2.5,K,A*02
$GPGGA,214522.000,3748.7613,N,12217.7997,W,1,04,5.5,10.1,M,-25.1,M,,0000*5F
$GPGSA,A,3,04,17,02,10,,,,,,,,,8.2,5.5,6.0*3F
$GPRMC,214522.000,A,3748.7613,N,12217.7997,W,1.11,131.49,160911,,,A*73
$GPVTG,131.49,T,,M,1.11,N,2.1,K,A*01
$GPGGA,214523.000,3748.7606,N,12217.7999,W,1,04,5.5,9.5,M,-25.1,M,,0000*68
$GPGSA,A,3,04,17,02,10,,,,,,,,,8.2,5.5,6.0*3F
$GPRMC,214523.000,A,3748.7606,N,12217.7999,W,1.19,130.42,160911,,,A*7A
$GPVTG,130.42,T,,M,1.19,N,2.2,K,A*00
$GPGGA,214524.000,3748.7601,N,12217.7999,W,1,04,5.5,9.1,M,-25.1,M,,0000*6C
$GPGSA,A,3,04,17,02,10,,,,,,,,,8.2,5.5,6.0*3F
$GPRMC,214524.000,A,3748.7601,N,12217.7999,W,1.03,130.01,160911,,,A*76
$GPVTG,130.01,T,,M,1.03,N,1.9,K,A*04
$GPGGA,214525.000,3748.7597,N,12217.7999,W,1,04,5.5,8.8,M,-25.1,M,,0000*69
$GPGSA,A,3,04,17,02,10,,,,,,,,,8.2,5.5,6.0*3F
$GPGSV,3,1,12,02,71,166,27,04,48,056,32,10,21,106,33,17,14,066,32*75
$GPGSV,3,2,12,12,57,321,19,09,46,221,24,27,38,207,24,25,23,310,24*71
$GPGSV,3,3,12,05,07,157,,29,07,261,,30,00,310,,14,00,302,*77
$GPRMC,214525.000,A,3748.7597,N,12217.7999,W,0.90,134.34,160911,,,A*72
$GPVTG,134.34,T,,M,0.90,N,1.7,K,A*03
$GPGGA,214526.000,3748.7593,N,12217.8002,W,1,04,5.5,8.2,M,-25.1,M,,0000*60
$GPGSA,A,3,04,17,02,10,,,,,,,,,8.2,5.5,6.0*3F
$GPRMC,214526.000,A,3748.7593,N,12217.8002,W,0.49,145.25,160911,,,A*73
$GPVTG,145.25,T,,M,0.49,N,0.9,K,A*0E
$GPGGA,214527.000,3748.7591,N,12217.8003,W,1,04,5.5,8.0,M,-25.1,M,,0000*60
$GPGSA,A,3,04,17,02,10,,,,,,,,,8.2,5.5,6.0*3F
$GPRMC,214527.000,A,3748.7591,N,12217.8003,W,0.20,225.70,160911,,,A*7B
$GPVTG,225.70,T,,M,0.20,N,0.4,K,A*09
$GPGGA,214528.000,3748.7590,N,12217.8004,W,1,04,5.5,8.0,M,-25.1,M,,0000*69
$GPGSA,A,3,04,17,02,10,,,,,,,,,8.2,5.5,6.0*3F
$GPRMC,214528.000,A,3748.7590,N,12217.8004,W,0.22,254.89,160911,,,A*70
$GPVTG,254.89,T,,M,0.22,N,0.4,K,A*0B
$GPGGA,214529.000,3748.7589,N,12217.8002,W,1,04,5.5,8.0,M,-25.1,M,,0000*66
$GPGSA,A,3,04,17,02,10,,,,,,,,,8.2,5.5,6.0*3F
$GPRMC,214529.000,A,3748.7589,N,12217.8002,W,0.28,144.36,160911,,,A*73
$GPVTG,144.36,T,,M,0.28,N,0.5,K,A*06
$GPGGA,214530.000,3748.7587,N,12217.7999,W,1,04,5.5,7.9,M,-25.1,M,,0000*62
$GPGSA,A,3,04,17,02,10,,,,,,,,,8.2,5.5,6.0*3F
$GPGSV,3,1,12,02,71,166,28,04,48,056,30,10,21,106,33,17,14,066,33*79
$GPGSV,3,2,12,12,57,321,22,09,46,221,27,27,38,207,23,25,23,310,23*7A
$GPGSV,3,3,12,05,07,157,,29,07,261,,30,00,310,,14,00,302,*77
$GPRMC,214530.000,A,3748.7587,N,12217.7999,W,0.90,125.53,160911,,,A*76
$GPVTG,125.53,T,,M,0.90,N,1.7,K,A*02
$GPGGA,214531.000,3748.7585,N,12217.7994,W,1,04,5.5,7.9,M,-25.1,M,,0000*6C
$GPGSA,A,3,04,17,02,10,,,,,,,,,8.2,5.5,6.0*3F
$GPRMC,214531.000,A,3748.7585,N,12217.7994,W,1.21,108.70,160911,,,A*7D
$GPVTG,108.70,T,,M,1.21,N,2.2,K,A*01
$GPGGA,214532.000,3748.7583,N,12217.7988,W,1,04,5.5,7.9,M,-25.1,M,,0000*64
$GPGSA,A,3,04,17,02,10,,,,,,,,,8.2,5.5,6.0*3F
$GPRMC,214532.000,A,3748.7583,N,12217.7988,W,1.56,105.41,160911,,,A*7A
$GPVTG,105.41,T,,M,1.56,N,2.9,K,A*05
$GPGGA,214533.000,3748.7580,N,12217.7982,W,1,04,5.5,7.8,M,-25.1,M,,0000*6D
$GPGSA,A,3,04,17,02,10,,,,,,,,,8.2,5.5,6.0*3F
$GPRMC,214533.000,A,3748.7580,N,12217.7982,W,1.57,112.65,160911,,,A*73
$GPVTG,112.65,T,,M,1.57,N,2.9,K,A*04
$GPGGA,214534.000,3748.7579,N,12217.7980,W,1,04,5.5,7.0,M,-25.1,M,,0000*66
$GPGSA,A,3,04,17,02,10,,,,,,,,,8.2,5.5,6.0*3F
$GPRMC,214534.000,A,3748.7579,N,12217.7980,W,1.44,112.16,160911,,,A*76
$GPVTG,112.16,T,,M,1.44,N,2.7,K,A*0C
$GPGGA,214535.000,3748.7577,N,12217.7977,W,1,04,5.5,6.7,M,-25.1,M,,0000*67
$GPGSA,A,3,04,17,02,10,,,,,,,,,8.2,5.5,6.0*3F
$GPGSV,3,1,12,02,71,166,30,04,48,056,33,10,21,106,33,17,14,066,27*76
$GPGSV,3,2,12,12,57,321,23,09,46,221,33,27,38,207,34,25,23,310,23*78
$GPGSV,3,3,12,05,07,157,31,29,07,261,,30,00,310,,14,00,302,*75
$GPRMC,214535.000,A,3748.7577,N,12217.7977,W,1.44,120.36,160911,,,A*72
$GPVTG,120.36,T,,M,1.44,N,2.7,K,A*0F
$GPGGA,214536.000,3748.7574,N,12217.7972,W,1,04,5.5,6.6,M,-25.1,M,,0000*63
$GPGSA,A,3,04,17,02,10,,,,,,,,,8.2,5.5,6.0*3F
$GPRMC,214536.000,A,3748.7574,N,12217.7972,W,1.51,120.94,160911,,,A*7B
$GPVTG,120.94,T,,M,1.51,N,2.8,K,A*0C
$GPGGA,214537.000,3748.7571,N,12217.7967,W,1,04,5.5,6.5,M,-25.1,M,,0000*60
$GPGSA,A,3,04,17,02,10,,,,,,,,,8.2,5.5,6.0*3F
$GPRMC,214537.000,A,3748.7571,N,12217.7967,W,1.51,117.86,160911,,,A*7C
$GPVTG,117.86,T,,M,1.51,N,2.8,K,A*0B
$GPGGA,214538.000,3748.7570,N,12217.7965,W,1,04,5.5,6.0,M,-25.1,M,,0000*69
$GPGSA,A,3,04,17,02,10,,,,,,,,,8.2,5.5,6.0*3F
$GPRMC,214538.000,A,3748.7570,N,12217.7965,W,1.41,112.56,160911,,,A*79
$GPVTG,112.56,T,,M,1.41,N,2.6,K,A*0C
$GPGGA,214539.000,3748.7568,N,12217.7960,W,1,04,5.5,5.8,M,-25.1,M,,0000*6F
$GPGSA,A,3,04,17,02,10,,,,,,,,,8.2,5.5,6.0*3F
$GPRMC,214539.000,A,3748.7568,N,12217.7960,W,1.73,115.95,160911,,,A*7D
$GPVTG,115.95,T,,M,1.73,N,3.2,K,A*00
$GPGGA,214540.000,3748.7565,N,12217.7954,W,1,04,5.5,5.5,M,-25.1,M,,0000*66
$GPGSA,A,3,04,17,02,10,,,,,,,,,8.2,5.5,6.0*3F
$GPGSV,3,1,12,02,71,166,30,04,48,056,33,10,21,106,29,17,14,066,36*7D
$GPGSV,3,2,12,12,57,321,25,09,46,221,25,27,38,207,28,25,23,310,19*7D
$GPGSV,3,3,12,05,07,157,33,29,07,261,,30,00,310,,14,00,302,*77
$GPRMC,214540.000,A,3748.7565,N,12217.7954,W,1.59,120.46,160911,,,A*79
$GPVTG,120.46,T,,M,1.59,N,2.9,K,A*0A
$GPGGA,214541.000,3748.7562,N,12217.7949,W,1,04,5.5,5.3,M,-25.1,M,,0000*6A
$GPGSA,A,3,04,17,02,10,,,,,,,,,8.2,5.5,6.0*3F
$GPRMC,214541.000,A,3748.7562,N,12217.7949,W,1.34,114.01,160911,,,A*7C
$GPVTG,114.01,T,,M,1.34,N,2.5,K,A*09
$GPGGA,214542.000,3748.7560,N,12217.7944,W,1,04,5.5,5.1,M,-25.1,M,,0000*64
$GPGSA,A,3,04,17,02,10,,,,,,,,,8.2,5.5,6.0*3F
$GPRMC,214542.000,A,3748.7560,N,12217.7944,W,1.17,112.91,160911,,,A*7E
$GPVTG,112.91,T,,M,1.17,N,2.2,K,A*00
$GPGGA,214543.000,3748.7560,N,12217.7941,W,1,04,5.5,4.8,M,-25.1,M,,0000*68
$GPGSA,A,3,04,17,02,10,,,,,,,,,8.2,5.5,6.0*3F
$GPRMC,214543.000,A,3748.7560,N,12217.7941,W,1.02,103.01,160911,,,A*77
$GPVTG,103.01,T,,M,1.02,N,1.9,K,A*05
$GPGGA,214544.000,3748.7559,N,12217.7937,W,1,04,5.5,4.6,M,-25.1,M,,0000*6A
$GPGSA,A,3,04,17,02,10,,,,,,,,,8.2,5.5,6.0*3F
$GPRMC,214544.000,A,3748.7559,N,12217.7937,W,0.99,105.65,160911,,,A*7C
$GPVTG,105.65,T,,M,0.99,N,1.8,K,A*03
$GPGGA,214545.000,3748.7558,N,12217.7934,W,1,04,5.5,4.4,M,-25.1,M,,0000*6B
$GPGSA,A,3,04,17,02,10,,,,,,,,,8.2,5.5,6.0*3F
$GPGSV,3,1,12,02,71,166,30,04,48,056,34,10,21,106,34,17,14,066,37*77
$GPGSV,3,2,12,12,57,321,26,09,46,221,25,27,38,207,29,25,23,310,20*75
$GPGSV,3,3,12,05,07,157,39,29,07,261,,30,00,310,,14,00,302,*7D
$GPRMC,214545.000,A,3748.7558,N,12217.7934,W,0.97,108.58,160911,,,A*72
$GPVTG,108.58,T,,M,0.97,N,1.8,K,A*0E
$GPGGA,214546.000,3748.7553,N,12217.7923,W,1,04,5.5,4.8,M,-25.1,M,,0000*69
$GPGSA,A,3,04,17,02,10,,,,,,,,,8.2,5.5,6.0*3F
$GPRMC,214546.000,A,3748.7553,N,12217.7923,W,1.27,129.50,160911,,,A*7D
$GPVTG,129.50,T,,M,1.27,N,2.3,K,A*07
$GPGGA,214547.000,3748.7553,N,12217.7927,W,1,04,5.5,3.9,M,-25.1,M,,0000*6A
$GPGSA,A,3,04,17,02,10,,,,,,,,,8.2,5.5,6.0*3F
$GPRMC,214547.000,A,3748.7553,N,12217.7927,W,1.40,117.71,160911,,,A*77
$GPVTG,117.71,T,,M,1.40,N,2.6,K,A*0D
$GPGGA,214548.000,3748.7552,N,12217.7926,W,1,04,5.5,3.3,M,-25.1,M,,0000*6F
$GPGSA,A,3,04,17,02,10,,,,,,,,,8.2,5.5,6.0*3F
$GPRMC,214548.000,A,3748.7552,N,12217.7926,W,1.38,111.29,160911,,,A*7C
$GPVTG,111.29,T,,M,1.38,N,2.6,K,A*09
$GPGGA,214549.000,3748.7551,N,12217.7922,W,1,04,5.5,3.0,M,-25.1,M,,0000*6A
$GPGSA,A,3,04,17,02,10,,,,,,,,,8.2,5.5,6.0*3F
$GPRMC,214549.000,A,3748.7551,N,12217.7922,W,1.31,118.10,160911,,,A*70
$GPVTG,118.10,T,,M,1.31,N,2.4,K,A*01
$GPGGA,214550.000,3748.7549,N,12217.7919,W,1,04,5.5,2.6,M,-25.1,M,,0000*64
$GPGSA,A,3,04,17,02,10,,,,,,,,,8.2,5.5,6.0*3F
$GPGSV,3,1,12,02,72,166,30,12,57,321,26,04,48,055,33,09,45,221,32*78
$GPGSV,3,2,12,27,38,207,35,25,23,310,21,10,21,106,27,17,14,067,33*73
$GPGSV,3,3,12,05,07,157,39,29,07,261,,30,01,310,,14,00,302,*7C
$GPRMC,214550.000,A,3748.7549,N,12217.7919,W,1.44,131.50,160911,,,A*74
$GPVTG,131.50,T,,M,1.44,N,2.7,K,A*0F
$GPGGA,214551.000,3748.7546,N,12217.7916,W,1,04,5.5,2.4,M,-25.1,M,,0000*67
$GPGSA,A,3,04,17,02,10,,,,,,,,,8.2,5.5,6.0*3F
$GPRMC,214551.000,A,3748.7546,N,12217.7916,W,1.37,150.35,160911,,,A*75
$GPVTG,150.35,T,,M,1.37,N,2.5,K,A*0D
$GPGGA,214552.000,3748.7541,N,12217.7910,W,1,04,5.5,2.7,M,-25.1,M,,0000*66
$GPGSA,A,3,04,17,02,10,,,,,,,,,8.2,5.5,6.0*3F
$GPRMC,214552.000,A,3748.7541,N,12217.7910,W,1.50,152.08,160911,,,A*7A
$GPVTG,152.08,T,,M,1.50,N,2.8,K,A*0D
$GPGGA,214553.000,3748.7538,N,12217.7906,W,1,04,5.5,2.8,M,-25.1,M,,0000*61
$GPGSA,A,3,04,17,02,10,,,,,,,,,8.2,5.5,6.0*3F
$GPRMC,214553.000,A,3748.7538,N,12217.7906,W,1.46,140.46,160911,,,A*7C
$GPVTG,140.46,T,,M,1.46,N,2.7,K,A*0C
$GPGGA,214554.000,3748.7539,N,12217.7911,W,1,04,5.5,2.4,M,-25.1,M,,0000*6D
$GPGSA,A,3,04,17,02,10,,,,,,,,,8.2,5.5,6.0*3F
$GPRMC,214554.000,A,3748.7539,N,12217.7911,W,0.98,137.93,160911,,,A*76
$GPVTG,137.93,T,,M,0.98,N,1.8,K,A*0A
$GPGGA,214555.000,3748.7544,N,12217.7924,W,1,04,5.5,1.4,M,-25.1,M,,0000*63
$GPGSA,A,3,04,17,02,10,,,,,,,,,8.2,5.5,6.0*3F
$GPGSV,3,1,12,02,72,166,31,12,57,321,23,04,48,055,25,09,45,221,33*7A
$GPGSV,3,2,12,27,38,207,36,25,23,310,21,10,21,106,22,17,14,067,28*7F
$GPGSV,3,3,12,05,07,157,27,29,07,261,,30,01,310,,14,00,302,*73
$GPRMC,214555.000,A,3748.7544,N,12217.7924,W,0.61,158.07,160911,,,A*79
$GPGGA,214556.000,3748.7547,N,12217.7936,W,1,04,5.5,0.2,M,-25.1,M,,0000*67
$GPGSA,A,3,04,17,02,10,,,,,,,,,8.2,5.5,6.0*3F
$GPRMC,214556.000,A,3748.7547,N,12217.7936,W,0.94,159.99,160911,,,A*76
$GPVTG,159.99,T,,M,0.94,N,1.7,K,A*0B
$GPGGA,214557.000,3748.7541,N,12217.7930,W,1,04,5.5,0.2,M,-25.1,M,,0000*66
$GPGSA,A,3,04,17,02,10,,,,,,,,,8.2,5.5,6.0*3F
$GPRMC,214557.000,A,3748.7541,N,12217.7930,W,1.83,141.40,160911,,,A*7D
$GPVTG,141.40,T,,M,1.83,N,3.4,K,A*00
$GPGGA,214558.000,3748.7538,N,12217.7923,W,1,04,5.5,0.7,M,-25.1,M,,0000*60
$GPGSA,A,3,04,17,02,10,,,,,,,,,8.2,5.5,6.0*3F
$GPRMC,214558.000,A,3748.7538,N,12217.7923,W,1.24,126.93,160911,,,A*7C
$GPVTG,126.93,T,,M,1.24,N,2.3,K,A*04
$GPGGA,214559.000,3748.7535,N,12217.7922,W,1,04,5.5,0.2,M,-25.1,M,,0000*68
$GPGSA,A,3,04,17,02,10,,,,,,,,,8.2,5.5,6.0*3F
$GPRMC,214559.000,A,3748.7535,N,12217.7922,W,1.44,141.49,160911,,,A*71
$GPVTG,141.49,T,,M,1.44,N,2.7,K,A*00
$GPGGA,214600.000,3748.7535,N,12217.7932,W,1,04,5.5,-1.3,M,-25.1,M,,0000*4B
$GPGSA,A,3,04,17,02,10,,,,,,,,,8.2,5.5,6.0*3F
$GPGSV,3,1,12,02,72,166,31,12,57,321,23,04,48,055,27,09,45,221,34*7F
$GPGSV,3,2,12,27,38,207,36,25,23,310,21,10,21,106,25,17,14,067,29*79
$GPGSV,3,3,12,05,07,157,38,29,07,261,,30,01,310,,14,00,302,*7D
$GPRMC,214600.000,A,3748.7535,N,12217.7932,W,0.59,167.93,160911,,,A*71
$GPVTG,167.93,T,,M,0.59,N,1.1,K,A*0B
$GPGGA,214601.000,3748.7536,N,12217.7947,W,1,04,5.5,-3.6,M,-25.1,M,,0000*4C
$GPGSA,A,3,04,17,02,10,,,,,,,,,8.2,5.5,6.0*3F
$GPRMC,214601.000,A,3748.7536,N,12217.7947,W,0.47,224.60,160911,,,A*76
$GPVTG,224.60,T,,M,0.47,N,0.9,K,A*05
$GPGGA,214602.000,3748.7526,N,12217.7955,W,1,04,5.5,-6.5,M,-25.1,M,,0000*4B
$GPGSA,A,3,04,17,02,10,,,,,,,,,8.2,5.5,6.0*3F
$GPRMC,214602.000,A,3748.7526,N,12217.7955,W,0.99,177.22,160911,,,A*77
$GPVTG,177.22,T,,M,0.99,N,1.8,K,A*05
$GPGGA,214603.000,3748.7517,N,12217.7958,W,1,04,5.5,-9.1,M,-25.1,M,,0000*4E
$GPGSA,A,3,04,17,02,10,,,,,,,,,8.2,5.5,6.0*3F
$GPRMC,214603.000,A,3748.7517,N,12217.7958,W,1.02,160.68,160911,,,A*72
$GPVTG,160.68,T,,M,1.02,N,1.9,K,A*0F
$GPGGA,214604.000,3748.7509,N,12217.7959,W,1,04,5.5,-11.1,M,-25.1,M,,0000*7E
$GPGSA,A,3,04,17,02,10,,,,,,,,,8.2,5.5,6.0*3F
$GPRMC,214604.000,A,3748.7509,N,12217.7959,W,1.27,171.40,160911,,,A*76
$GPVTG,171.40,T,,M,1.27,N,2.3,K,A*0B
$GPGGA,214605.000,3748.7500,N,12217.7958,W,1,03,2.7,-12.1,M,-25.1,M,,0000*76
$GPGSA,A,2,04,02,10,,,,,,,,,,2.9,2.7,1.0*3B
$GPGSV,3,1,12,02,72,166,28,12,57,321,23,04,48,055,24,09,45,221,35*75
$GPGSV,3,2,12,27,38,207,36,25,23,310,22,10,21,106,37,17,14,067,27*77
$GPGSV,3,3,12,05,07,157,40,29,07,261,,30,01,310,,14,00,302,*72
$GPRMC,214605.000,A,3748.7500,N,12217.7958,W,0.85,180.45,160911,,,A*7D
$GPVTG,180.45,T,,M,0.85,N,1.6,K,N*00
$GPGGA,214606.000,3748.7496,N,12217.7953,W,1,04,5.5,-12.3,M,-25.1,M,,0000*70
$GPGSA,A,3,04,17,02,10,,,,,,,,,8.2,5.5,6.0*3F
$GPRMC,214606.000,A,3748.7496,N,12217.7953,W,0.75,175.64,160911,,,A*7D
$GPVTG,175.64,T,,M,0.75,N,1.4,K,A*0B
$GPGGA,214607.000,3748.7487,N,12217.7960,W,1,04,5.5,-14.3,M,-25.1,M,,0000*77
$GPGSA,A,3,04,17,02,10,,,,,,,,,8.2,5.5,6.0*3F
$GPRMC,214607.000,A,3748.7487,N,12217.7960,W,1.19,188.82,160911,,,A*7D
$GPVTG,188.82,T,,M,1.19,N,2.2,K,A*0F
$GPGGA,214608.000,3748.7482,N,12217.7955,W,1,04,5.5,-14.4,M,-25.1,M,,0000*7C
$GPGSA,A,3,04,17,02,10,,,,,,,,,8.2,5.5,6.0*3F
$GPRMC,214608.000,A,3748.7482,N,12217.7955,W,1.02,168.21,160911,,,A*7C
$GPVTG,168.21,T,,M,1.02,N,1.9,K,A*0A
$GPGGA,214609.000,3748.7476,N,12217.7956,W,1,04,5.5,-15.4,M,-25.1,M,,0000*74
$GPGSA,A,3,04,17,02,10,,,,,,,,,8.2,5.5,6.0*3F
$GPRMC,214609.000,A,3748.7476,N,12217.7956,W,0.88,175.95,160911,,,A*75
$GPVTG,175.95,T,,M,0.88,N,1.6,K,A*05
$GPGGA,214610.000,3748.7473,N,12217.7953,W,1,04,5.5,-15.2,M,-25.1,M,,0000*7A
$GPGSA,A,3,04,17,02,10,,,,,,,,,8.2,5.5,6.0*3F
$GPGSV,3,1,12,02,72,166,29,12,57,321,22,04,48,055,31,09,45,221,34*70
$GPGSV,3,2,12,27,38,207,36,25,23,310,19,10,21,106,36,17,14,067,32*7A
$GPGSV,3,3,12,05,07,157,33,29,07,261,,30,01,310,,14,00,302,*76
$GPRMC,214610.000,A,3748.7473,N,12217.7953,W,0.84,171.27,160911,,,A*7C
$GPVTG,171.27,T,,M,0.84,N,1.6,K,A*04
$GPGGA,214611.000,3748.7470,N,12217.7953,W,1,04,5.5,-15.6,M,-25.1,M,,0000*7C
$GPGSA,A,3,04,17,02,10,,,,,,,,,8.2,5.5,6.0*3F
$GPRMC,214611.000,A,3748.7470,N,12217.7953,W,0.54,158.61,160911,,,A*7A
$GPVTG,158.61,T,,M,0.54,N,1.0,K,A*06
$GPGGA,214612.000,3748.7468,N,12217.7950,W,1,04,5.5,-15.7,M,-25.1,M,,0000*74
$GPGSA,A,3,04,17,02,10,,,,,,,,,8.2,5.5,6.1*3E
$GPRMC,214612.000,A,3748.7468,N,12217.7950,W,0.57,139.48,160911,,,A*7C
$GPVTG,139.48,T,,M,0.57,N,1.1,K,A*08
$GPGGA,214613.000,3748.7465,N,12217.7950,W,1,04,5.5,-15.9,M,-25.1,M,,0000*76
$GPGSA,A,3,04,17,02,10,,,,,,,,,8.2,5.5,6.1*3E
$GPRMC,214613.000,A,3748.7465,N,12217.7950,W,0.60,135.37,160911,,,A*70
$GPVTG,135.37,T,,M,0.60,N,1.1,K,A*08
$GPGGA,214614.000,3748.7464,N,12217.7946,W,1,04,5.5,-15.9,M,-25.1,M,,0000*77
$GPGSA,A,3,04,17,02,10,,,,,,,,,8.2,5.5,6.1*3E
$GPRMC,214614.000,A,3748.7464,N,12217.7946,W,0.85,103.37,160911,,,A*7F
$GPVTG,103.37,T,,M,0.85,N,1.6,K,A*01
$GPGGA,214615.000,3748.7463,N,12217.7943,W,1,04,5.5,-15.9,M,-25.1,M,,0000*74
$GPGSA,A,3,04,17,02,10,,,,,,,,,8.2,5.5,6.1*3E
$GPGSV,3,1,12,02,72,166,29,12,57,321,20,04,48,055,31,09,45,221,28*7F
$GPGSV,3,2,12,27,38,207,35,25,23,310,19,10,21,106,35,17,14,067,33*7B
$GPGSV,3,3,12,05,07,157,32,29,07,261,,30,01,310,,14,00,302,*77
$GPRMC,214615.000,A,3748.7463,N,12217.7943,W,0.56,112.91,160911,,,A*7E
$GPVTG,112.91,T,,M,0.56,N,1.0,K,A*05
$GPGGA,214616.000,3748.7462,N,12217.7939,W,1,04,5.5,-15.8,M,-25.1,M,,0000*7A
$GPGSA,A,3,04,17,02,10,,,,,,,,,8.2,5.5,6.1*3E
$GPRMC,214616.000,A,3748.7462,N,12217.7939,W,0.72,144.42,160911,,,A*7A
$GPVTG,144.42,T,,M,0.72,N,1.3,K,A*0D
$GPGGA,214617.000,3748.7461,N,12217.7936,W,1,04,5.5,-15.7,M,-25.1,M,,0000*78
$GPGSA,A,3,04,17,02,10,,,,,,,,,8.2,5.5,6.1*3E
$GPRMC,214617.000,A,3748.7461,N,12217.7936,W,0.72,155.38,160911,,,A*7A
$GPVTG,155.38,T,,M,0.72,N,1.3,K,A*00
$GPGGA,214618.000,3748.7459,N,12217.7930,W,1,04,5.5,-15.3,M,-25.1,M,,0000*7E
$GPGSA,A,3,04,17,02,10,,,,,,,,,8.2,5.5,6.1*3E
$GPRMC,214618.000,A,3748.7459,N,12217.7930,W,0.60,126.16,160911,,,A*73
$GPVTG,126.16,T,,M,0.60,N,1.1,K,A*09
$GPGGA,214619.000,3748.7457,N,12217.7920,W,1,04,5.5,-13.8,M,-25.1,M,,0000*7D
$GPGSA,A,3,04,17,02,10,,,,,,,,,8.2,5.5,6.1*3E
$GPRMC,214619.000,A,3748.7457,N,12217.7920,W,0.66,134.58,160911,,,A*72
$GPVTG,134.58,T,,M,0.66,N,1.2,K,A*05
$GPGGA,214620.000,3748.7454,N,12217.7908,W,1,04,5.5,-12.0,M,-25.1,M,,0000*77
$GPGSA,A,3,04,17,02,10,,,,,,,,,8.2,5.5,6.1*3E
$GPGSV,3,1,12,02,72,165,33,12,57,321,20,04,48,055,31,09,45,220,31*7E
$GPGSV,3,2,12,27,37,207,35,25,23,310,19,10,21,105,32,17,14,067,32*71
$GPGSV,3,3,12,05,08,156,31,29,07,261,,30,01,310,,14,00,302,*7A
$GPRMC,214620.000,A,3748.7454,N,12217.7908,W,0.72,126.23,160911,,,A*7B
$GPVTG,126.23,T,,M,0.72,N,1.3,K,A*0E
$GPGGA,214621.000,3748.7453,N,12217.7899,W,1,04,5.5,-11.1,M,-25.1,M,,0000*7A
$GPGSA,A,3,04,17,02,10,,,,,,,,,8.2,5.5,6.1*3E
$GPRMC,214621.000,A,3748.7453,N,12217.7899,W,0.78,121.77,160911,,,A*78
$GPVTG,121.77,T,,M,0.78,N,1.4,K,A*05
$GPGGA,214622.000,3748.7453,N,12217.7893,W,1,04,5.5,-10.6,M,-25.1,M,,0000*75
$GPGSA,A,3,04,17,02,10,,,,,,,,,8.2,5.5,6.1*3E
$GPRMC,214622.000,A,3748.7453,N,12217.7893,W,0.72,122.20,160911,,,A*7A
$GPVTG,122.20,T,,M,0.72,N,1.3,K,A*09
$GPGGA,214623.000,3748.7452,N,12217.7887,W,1,04,5.5,-10.1,M,-25.1,M,,0000*77
$GPGSA,A,3,04,17,02,10,,,,,,,,,8.2,5.5,6.1*3E
$GPRMC,214623.000,A,3748.7452,N,12217.7887,W,0.87,128.16,160911,,,A*7A
$GPVTG,128.16,T,,M,0.87,N,1.6,K,A*09
$GPGGA,214624.000,3748.7451,N,12217.7877,W,2,04,5.5,-8.9,M,-25.1,M,1.8,0000*69
$GPGSA,A,3,04,17,02,10,,,,,,,,,8.2,5.5,6.1*3E
$GPRMC,214624.000,A,3748.7451,N,12217.7877,W,0.70,123.38,160911,,,D*7B
$GPVTG,123.38,T,,M,0.70,N,1.3,K,D*06
$GPGGA,214625.000,3748.7449,N,12217.7864,W,2,04,5.5,-7.5,M,-25.1,M,1.8,0000*60
$GPGSA,A,3,04,17,02,10,,,,,,,,,8.2,5.5,6.1*3E
$GPGSV,3,1,12,02,72,165,29,12,57,321,21,04,48,055,31,09,45,220,32*77
$GPGSV,3,2,12,27,37,207,36,25,23,310,22,10,21,105,27,17,14,067,32*7E
$GPGSV,3,3,12,05,08,156,26,29,07,261,,30,01,310,,14,00,302,*7C
$GPRMC,214625.000,A,3748.7449,N,12217.7864,W,0.92,120.50,160911,,,D*70
$GPGGA,214626.000,3748.7449,N,12217.7848,W,2,04,5.5,-5.1,M,-25.1,M,1.8,0000*6B
$GPGSA,A,3,04,17,02,10,,,,,,,,,8.2,5.5,6.1*3E
$GPRMC,214626.000,A,3748.7449,N,12217.7848,W,1.11,122.53,160911,,,D*76
$GPVTG,122.53,T,,M,1.11,N,2.1,K,D*0D
$GPGGA,214627.000,3748.7451,N,12217.7852,W,2,04,5.5,-4.8,M,-25.1,M,2.8,0000*63
$GPGSA,A,3,04,17,02,10,,,,,,,,,8.2,5.5,6.1*3E
$GPRMC,214627.000,A,3748.7451,N,12217.7852,W,0.72,120.09,160911,,,D*7C
$GPVTG,120.09,T,,M,0.72,N,1.3,K,D*05
$GPGGA,214628.000,3748.7446,N,12217.7829,W,2,05,2.3,0.1,M,-25.1,M,1.8,0000*45
$GPGSA,A,3,04,17,02,10,09,,,,,,,,3.4,2.3,2.5*3B
$GPRMC,214628.000,A,3748.7446,N,12217.7829,W,0.47,193.50,160911,,,D*7B
$GPVTG,193.50,T,,M,0.47,N,0.9,K,D*0C
$GPGGA,214629.000,3748.7443,N,12217.7818,W,2,05,2.3,2.5,M,-25.1,M,2.8,0000*46
$GPGSA,A,3,04,17,02,10,09,,,,,,,,3.4,2.3,2.5*3B
$GPRMC,214629.000,A,3748.7443,N,12217.7818,W,0.20,219.13,160911,,,D*7A
$GPVTG,219.13,T,,M,0.20,N,0.4,K,D*06
$GPGGA,214630.000,3748.7437,N,12217.7801,W,2,05,2.3,5.0,M,-25.1,M,3.8,0000*46
$GPGSA,A,3,04,17,02,10,09,,,,,,,,3.4,2.3,2.5*3B
$GPGSV,3,1,12,02,72,165,29,12,58,321,32,04,48,055,21,09,45,220,34*7D
$GPGSV,3,2,12,27,37,207,35,25,24,310,29,10,21,105,21,17,14,067,25*71
$GPGSV,3,3,12,05,08,156,20,29,07,261,,30,01,310,29,14,00,302,*71
$GPRMC,214630.000,A,3748.7437,N,12217.7801,W,0.83,152.18,160911,,,D*77
$GPVTG,152.18,T,,M,0.83,N,1.5,K,D*08
$GPGGA,214631.000,3748.7427,N,12217.7790,W,2,05,2.3,5.4,M,-25.1,M,4.8,0000*42
$GPGSA,A,3,04,17,02,10,09,,,,,,,,3.4,2.3,2.5*3B
$GPRMC,214631.000,A,3748.7427,N,12217.7790,W,1.71,149.53,160911,,,D*79
$GPVTG,149.53,T,,M,1.71,N,3.2,K,D*04
$GPGGA,214632.000,3748.7414,N,12217.7781,W,2,05,2.3,5.5,M,-25.1,M,5.8,0000*41
$GPGSA,A,3,04,17,02,10,09,,,,,,,,3.4,2.3,2.5*3B
$GPRMC,214632.000,A,3748.7414,N,12217.7781,W,1.61,153.15,160911,,,D*72
$GPVTG,153.15,T,,M,1.61,N,3.0,K,D*0E
$GPGGA,214633.000,3748.7412,N,12217.7786,W,2,05,2.3,4.8,M,-25.1,M,6.8,0000*4E
$GPGSA,A,3,04,17,02,10,09,,,,,,,,3.4,2.3,2.5*3B
$GPRMC,214633.000,A,3748.7412,N,12217.7786,W,0.67,146.48,160911,,,D*79
$GPVTG,146.48,T,,M,0.67,N,1.2,K,D*05
$GPGGA,214634.000,3748.7413,N,12217.7791,W,2,05,2.3,4.4,M,-25.1,M,7.8,0000*43
$GPGSA,A,3,04,17,02,10,09,,,,,,,,3.4,2.3,2.5*3B
$GPRMC,214634.000,A,3748.7413,N,12217.7791,W,0.24,323.43,160911,,,D*74
$GPVTG,323.43,T,,M,0.24,N,0.4,K,D*0F
$GPGGA,214635.000,3748.7404,N,12217.7784,W,2,05,2.3,6.2,M,-25.1,M,8.8,0000*4B
$GPGSA,A,3,04,17,02,10,09,,,,,,,,3.4,2.3,2.5*3B
$GPGSV,3,1,12,02,72,165,23,12,58,321,33,04,48,055,31,09,45,220,34*77
$GPGSV,3,2,12,27,37,207,30,25,24,310,21,10,21,105,22,17,14,067,24*7E
$GPGSV,3,3,12,05,08,156,19,29,07,261,,30,01,310,35,14,00,302,*76
$GPRMC,214635.000,A,3748.7404,N,12217.7784,W,0.68,128.75,160911,,,D*73
$GPVTG,128.75,T,,M,0.68,N,1.3,K,D*0D
$GPGGA,214636.000,3748.7398,N,12217.7777,W,2,04,5.5,7.3,M,-25.1,M,9.8,0000*47
$GPGSA,A,3,04,17,02,09,,,,,,,,,6.0,5.5,2.5*3A
$GPRMC,214636.000,A,3748.7398,N,12217.7777,W,0.43,147.07,160911,,,D*7B
$GPVTG,147.07,T,,M,0.43,N,0.8,K,D*02
$GPGGA,214637.000,3748.7405,N,12217.7785,W,2,05,2.3,7.1,M,-25.1,M,10.8,0000*72
$GPGSA,A,3,04,17,02,10,09,,,,,,,,3.4,2.3,2.5*3B
$GPRMC,214637.000,A,3748.7405,N,12217.7785,W,0.42,328.76,160911,,,D*78
$GPVTG,328.76,T,,M,0.42,N,0.8,K,D*0E
$GPGGA,214638.000,3748.7411,N,12217.7791,W,2,05,2.3,7.2,M,-25.1,M,11.8,0000*7F
$GPGSA,A,3,04,17,02,10,09,,,,,,,,3.4,2.3,2.5*3B
$GPRMC,214638.000,A,3748.7411,N,12217.7791,W,0.98,322.97,160911,,,D*75
$GPVTG,322.97,T,,M,0.98,N,1.8,K,D*0D
$GPGGA,214639.000,3748.7409,N,12217.7788,W,2,05,2.3,8.6,M,-25.1,M,12.8,0000*77
$GPGSA,A,3,04,17,02,10,09,,,,,,,,3.4,2.3,2.5*3B
$GPRMC,214639.000,A,3748.7409,N,12217.7788,W,0.17,132.23,160911,,,D*7E
$GPVTG,132.23,T,,M,0.17,N,0.3,K,D*0C
$GPGGA,214640.000,3748.7406,N,12217.7782,W,2,05,2.3,9.7,M,-25.1,M,13.8,0000*7D
$GPGSA,A,3,04,17,02,10,09,,,,,,,,3.4,2.3,2.5*3B
$GPGSV,3,1,12,02,72,165,24,12,58,321,35,04,48,055,30,09,45,220,34*77
$GPGSV,3,2,12,27,37,207,30,25,24,310,28,10,21,105,19,17,14,067,28*73
$GPGSV,3,3,12,05,08,156,,29,07,261,27,30,01,310,36,14,00,302,*78
$GPVTG,133.66,T,,M,0.86,N,1.6,K,D*00
$GPGGA,214641.000,3748.7403,N,12217.7777,W,2,05,2.3,11.1,M,-25.1,M,14.8,0000*4B
$GPGSA,A,3,04,17,02,10,09,,,,,,,,3.4,2.3,2.5*3B
$GPRMC,214641.000,A,3748.7403,N,12217.7777,W,0.24,122.38,160911,,,D*70
$GPVTG,122.38,T,,M,0.24,N,0.4,K,D*00
$GPGGA,214642.000,3748.7403,N,12217.7776,W,2,05,2.3,11.6,M,-25.1,M,15.8,0000*4F
$GPGSA,A,3,04,17,02,10,09,,,,,,,,3.4,2.3,2.5*3B
$GPRMC,214642.000,A,3748.7403,N,12217.7776,W,0.28,127.91,160911,,,D*78
$GPVTG,127.91,T,,M,0.28,N,0.5,K,D*0B
$GPGGA,214643.000,3748.7404,N,12217.7775,W,2,05,2.3,12.3,M,-25.1,M,16.8,0000*4F
$GPGSA,A,3,04,17,02,10,09,,,,,,,,3.4,2.3,2.5*3B
$GPRMC,214643.000,A,3748.7404,N,12217.7775,W,0.33,344.58,160911,,,D*75
$GPVTG,344.58,T,,M,0.33,N,0.6,K,D*00
$GPGGA,214644.000,3748.7404,N,12217.7774,W,2,04,5.5,12.9,M,-25.1,M,17.8,0000*42
$GPGSA,A,3,04,17,02,09,,,,,,,,,6.0,5.5,2.5*3A
$GPRMC,214644.000,A,3748.7404,N,12217.7774,W,0.66,331.32,160911,,,D*7D
$GPVTG,331.32,T,,M,0.66,N,1.2,K,D*0B
$GPGGA,214645.000,3748.7405,N,12217.7772,W,1,04,5.5,13.4,M,-25.1,M,,0000*5B
$GPGSA,A,3,04,17,02,09,,,,,,,,,6.0,5.5,2.5*3A
$GPGSV,3,1,12,02,72,165,24,12,58,321,35,04,48,055,30,09,45,220,34*77
$GPGSV,3,2,12,27,37,207,30,25,24,310,29,10,21,105,13,17,14,067,29*79
$GPGSV,3,3,12,05,08,156,,29,07,261,27,30,01,310,37,14,00,302,*79
$GPRMC,214645.000,A,3748.7405,N,12217.7772,W,0.72,333.73,160911,,,A*7C
$GPVTG,333.73,T,,M,0.72,N,1.3,K,A*0D
$GPGGA,214646.000,3748.7406,N,12217.7770,W,1,04,5.5,13.9,M,-25.1,M,,0000*54
$GPGSA,A,3,04,17,02,09,,,,,,,,,6.0,5.5,2.5*3A
$GPRMC,214646.000,A,3748.7406,N,12217.7770,W,0.56,336.10,160911,,,A*78
$GPVTG,336.10,T,,M,0.56,N,1.0,K,A*08
$GPGGA,214647.000,3748.7407,N,12217.7769,W,1,04,5.5,14.3,M,-25.1,M,,0000*51
$GPGSA,A,3,04,17,02,09,,,,,,,,,6.0,5.5,2.5*3A
$GPRMC,214647.000,A,3748.7407,N,12217.7769,W,0.61,332.29,160911,,,A*7A
$GPVTG,332.29,T,,M,0.61,N,1.1,K,A*03
$GPGGA,214648.000,3748.7409,N,12217.7769,W,1,04,5.5,14.5,M,-25.1,M,,0000*56
$GPGSA,A,3,04,17,02,09,,,,,,,,,6.0,5.5,2.5*3A
$GPRMC,214648.000,A,3748.7409,N,12217.7769,W,0.76,329.73,160911,,,A*78
$GPVTG,329.73,T,,M,0.76,N,1.4,K,A*05
$GPGGA,214649.000,3748.7411,N,12217.7769,W,1,04,5.5,14.7,M,-25.1,M,,0000*5C
$GPGSA,A,3,04,17,02,09,,,,,,,,,6.0,5.5,2.5*3A
$GPRMC,214649.000,A,3748.7411,N,12217.7769,W,0.85,329.52,160911,,,A*7F
$GPVTG,329.52,T,,M,0.85,N,1.6,K,A*08
$GPGGA,214650.000,3748.7412,N,12217.7769,W,1,04,5.5,14.8,M,-25.1,M,,0000*58
$GPGSA,A,3,04,17,02,09,,,,,,,,,6.0,5.5,2.5*3A
$GPGSV,3,1,12,02,72,165,25,12,58,321,35,04,47,055,30,09,45,220,34*79
$GPGSV,3,2,12,27,37,207,30,25,24,310,25,10,21,105,15,17,14,067,29*73
$GPGSV,3,3,12,05,08,156,,29,07,262,27,30,01,310,37,14,00,301,*79
$GPRMC,214650.000,A,3748.7412,N,12217.7769,W,0.69,328.78,160911,,,A*7F
$GPVTG,328.78,T,,M,0.69,N,1.3,K,A*06
$GPGGA,214651.000,3748.7413,N,12217.7767,W,1,03,7.0,15.7,M,-25.1,M,,0000*58
$GPGSA,A,2,04,02,09,,,,,,,,,,7.1,7.0,1.0*3C
$GPRMC,214651.000,A,3748.7413,N,12217.7767,W,0.57,312.12,160911,,,A*79
$GPVTG,312.12,T,,M,0.57,N,1.0,K,A*0D
$GPGGA,214652.000,3748.7415,N,12217.7769,W,1,05,2.3,16.1,M,-25.1,M,,0000*56
$GPGSA,A,3,04,17,02,10,09,,,,,,,,3.4,2.3,2.5*3B
$GPRMC,214652.000,A,3748.7415,N,12217.7769,W,0.39,1.50,160911,,,A*7D
$GPVTG,1.50,T,,M,0.39,N,0.7,K,A*04
$GPGGA,214653.000,3748.7412,N,12217.7769,W,1,05,2.3,15.3,M,-25.1,M,,0000*51
$GPGSA,A,3,04,17,02,10,09,,,,,,,,3.4,2.3,2.5*3B
$GPRMC,214653.000,A,3748.7412,N,12217.7769,W,0.73,99.00,160911,,,A*41
$GPVTG,99.00,T,,M,0.73,N,1.4,K,A*3C
$GPGGA,214654.000,3748.7414,N,12217.7775,W,1,05,2.3,14.8,M,-25.1,M,,0000*57
$GPGSA,A,3,04,17,02,10,09,,,,,,,,3.4,2.3,2.5*3B
$GPRMC,214654.000,A,3748.7414,N,12217.7775,W,0.23,301.32,160911,,,A*7B
$GPVTG,301.32,T,,M,0.23,N,0.4,K,A*0B
$GPGGA,214655.000,3748.7427,N,12217.7794,W,1,05,2.3,15.7,M,-25.1,M,,0000*57
$GPGSA,A,3,04,17,02,10,09,,,,,,,,3.4,2.3,2.5*3B
$GPGSV,3,1,12,02,72,165,25,12,58,321,35,04,47,055,24,09,45,220,34*7C
$GPGSV,3,2,12,27,37,207,31,25,24,310,35,10,21,105,23,17,14,067,20*7F
$GPGSV,3,3,12,05,08,156,,29,07,262,28,30,01,310,37,14,00,301,*76
$GPVTG,263.47,T,,M,0.55,N,1.0,K,A*08
$GPGGA,214656.000,3748.7432,N,12217.7806,W,1,05,2.3,16.5,M,-25.1,M,,0000*55
$GPGSA,A,3,04,17,02,10,09,,,,,,,,3.4,2.3,2.5*3B
$GPRMC,214656.000,A,3748.7432,N,12217.7806,W,0.58,277.02,160911,,,A*79
$GPVTG,277.02,T,,M,0.58,N,1.1,K,A*00
$GPGGA,214657.000,3748.7441,N,12217.7819,W,1,05,2.3,17.5,M,-25.1,M,,0000*5F
$GPGSA,A,3,04,17,02,10,09,,,,,,,,3.4,2.3,2.5*3B
$GPRMC,214657.000,A,3748.7441,N,12217.7819,W,0.61,297.62,160911,,,A*70
$GPVTG,297.62,T,,M,0.61,N,1.1,K,A*02
$GPGGA,214658.000,3748.7458,N,12217.7833,W,1,05,2.3,18.9,M,-25.1,M,,0000*53
$GPGSA,A,3,04,17,02,10,09,,,,,,,,3.4,2.3,2.5*3B
$GPRMC,214658.000,A,3748.7458,N,12217.7833,W,1.17,316.32,160911,,,A*72
$GPVTG,316.32,T,,M,1.17,N,2.2,K,A*0F
$GPGGA,214659.000,3748.7471,N,12217.7839,W,1,05,2.3,19.8,M,-25.1,M,,0000*53
$GPGSA,A,3,04,17,02,10,09,,,,,,,,3.4,2.3,2.5*3B
$GPRMC,214659.000,A,3748.7471,N,12217.7839,W,1.10,303.45,160911,,,A*71
$GPVTG,303.45,T,,M,1.10,N,2.0,K,A*0E
$GPGGA,214700.000,3748.7482,N,12217.7851,W,1,05,2.3,19.9,M,-25.1,M,,0000*5D
$GPGSA,A,3,04,17,02,10,09,,,,,,,,3.4,2.3,2.5*3B
$GPGSV,3,1,12,02,72,165,26,12,58,321,35,04,47,055,23,09,45,220,34*78
$GPGSV,3,2,12,27,37,207,31,25,24,310,33,10,21,105,19,17,14,067,25*75
$GPGSV,3,3,12,05,08,156,,29,07,262,23,30,01,310,32,14,00,301,*78
$GPRMC,214700.000,A,3748.7482,N,12217.7851,W,1.82,300.07,160911,,,A*70
$GPVTG,300.07,T,,M,1.82,N,3.4,K,A*05
$GPGGA,214701.000,3748.7492,N,12217.7868,W,1,05,2.3,20.5,M,-25.1,M,,0000*51
$GPGSA,A,3,04,17,02,10,09,,,,,,,,3.4,2.3,2.5*3B
$GPRMC,214701.000,A,3748.7492,N,12217.7868,W,3.52,315.11,160911,,,A*76
$GPVTG,315.11,T,,M,3.52,N,6.5,K,A*0D
$GPGGA,214702.000,3748.7494,N,12217.7877,W,1,04,5.5,20.8,M,-25.1,M,,0000*57
$GPGSA,A,3,04,17,02,09,,,,,,,,,6.1,5.5,2.5*3B
$GPRMC,214702.000,A,3748.7494,N,12217.7877,W,3.75,311.13,160911,,,A*7E
$GPVTG,311.13,T,,M,3.75,N,6.9,K,A*02
$GPGGA,214703.000,3748.7495,N,12217.7884,W,1,04,5.5,20.4,M,-25.1,M,,0000*57
$GPGSA,A,3,04,17,02,09,,,,,,,,,6.1,5.5,2.5*3B
$GPRMC,214703.000,A,3748.7495,N,12217.7884,W,2.81,300.89,160911,,,A*7B
$GPVTG,300.89,T,,M,2.81,N,5.2,K,A*03
$GPGGA,214704.000,3748.7500,N,12217.7897,W,1,05,2.3,21.0,M,-25.1,M,,0000*5A
$GPGSA,A,3,04,17,02,10,09,,,,,,,,3.4,2.3,2.5*3B
$GPRMC,214704.000,A,3748.7500,N,12217.7897,W,1.95,290.80,160911,,,A*74
$GPVTG,290.80,T,,M,1.95,N,3.6,K,A*06
$GPGGA,214705.000,3748.7492,N,12217.7898,W,1,04,5.5,21.4,M,-25.1,M,,0000*5A
$GPGSA,A,3,04,17,02,09,,,,,,,,,6.1,5.5,2.5*3B
$GPGSV,3,1,12,02,72,165,27,12,58,321,21,04,47,055,23,09,45,220,35*7D
$GPGSV,3,2,12,27,37,207,37,25,24,310,37,10,21,105,17,17,14,067,21*7D
$GPGSV,3,3,12,05,08,156,,29,07,262,23,30,01,310,20,14,00,301,*7B
$GPRMC,214705.000,A,3748.7492,N,12217.7898,W,0.83,230.95,160911,,,A*78
$GPVTG,230.95,T,,M,0.83,N,1.5,K,A*0F
$GPGGA,214706.000,3748.7483,N,12217.7896,W,1,05,2.3,21.8,M,-25.1,M,,0000*5B
$GPGSA,A,3,04,17,02,10,09,,,,,,,,3.4,2.3,2.5*3B
$GPRMC,214706.000,A,3748.7483,N,12217.7896,W,1.72,175.23,160911,,,A*75
$GPVTG,175.23,T,,M,1.72,N,3.2,K,A*0A
$GPGGA,214707.000,3748.7468,N,12217.7887,W,1,05,2.3,21.9,M,-25.1,M,,0000*5E
$GPGSA,A,3,04,17,02,10,09,,,,,,,,3.4,2.3,2.5*3B
$GPRMC,214707.000,A,3748.7468,N,12217.7887,W,3.09,168.88,160911,,,A*72
$GPVTG,168.88,T,,M,3.09,N,5.7,K,A*0A
$GPGGA,214708.000,3748.7457,N,12217.7885,W,1,04,5.5,21.9,M,-25.1,M,,0000*5F
$GPGSA,A,3,04,17,02,09,,,,,,,,,6.1,5.5,2.5*3B
$GPRMC,214708.000,A,3748.7457,N,12217.7885,W,3.15,172.52,160911,,,A*72
$GPVTG,172.52,T,,M,3.15,N,5.8,K,A*04
$GPGGA,214709.000,3748.7448,N,12217.7884,W,1,04,5.5,22.3,M,-25.1,M,,0000*58
$GPGSA,A,3,04,17,02,09,,,,,,,,,6.1,5.5,2.5*3B
$GPRMC,214709.000,A,3748.7448,N,12217.7884,W,3.25,171.74,160911,,,A*78
$GPVTG,171.74,T,,M,3.25,N,6.0,K,A*0B
$GPGGA,214710.000,3748.7448,N,12217.7888,W,1,04,5.5,23.0,M,-25.1,M,,0000*5E
$GPGSA,A,3,04,17,02,09,,,,,,,,,6.1,5.5,2.5*3B
$GPGSV,3,1,12,02,72,165,29,12,58,321,28,04,47,055,25,09,45,220,35*7C
$GPGSV,3,2,12,27,37,207,36,25,24,310,41,10,21,105,,17,14,067,20*7A
$GPGSV,3,3,12,05,08,156,21,29,07,262,36,30,01,310,20,14,00,301,*7C
$GPRMC,214710.000,A,3748.7448,N,12217.7888,W,2.09,181.78,160911,,,A*70
$GPGGA,214711.000,3748.7446,N,12217.7893,W,1,04,5.5,23.2,M,-25.1,M,,0000*59
$GPGSA,A,3,04,17,02,09,,,,,,,,,6.1,5.5,2.5*3B
$GPRMC,214711.000,A,3748.7446,N,12217.7893,W,1.57,201.56,160911,,,A*7A
$GPVTG,201.56,T,,M,1.57,N,2.9,K,A*05
$GPGGA,214712.000,3748.7443,N,12217.7897,W,1,05,2.3,23.6,M,-25.1,M,,0000*5F
$GPGSA,A,3,04,17,02,10,09,,,,,,,,3.4,2.3,2.5*3B
$GPRMC,214712.000,A,3748.7443,N,12217.7897,W,1.07,221.87,160911,,,A*73
$GPVTG,221.87,T,,M,1.07,N,2.0,K,A*07
$GPGGA,214713.000,3748.7435,N,12217.7895,W,1,05,2.3,23.7,M,-25.1,M,,0000*5C
$GPGSA,A,3,04,17,02,10,09,,,,,,,,3.4,2.3,2.5*3B
$GPRMC,214713.000,A,3748.7435,N,12217.7895,W,1.56,203.34,160911,,,A*7D
$GPVTG,203.34,T,,M,1.56,N,2.9,K,A*02
$GPGGA,214714.000,3748.7425,N,12217.7889,W,2,05,2.3,23.0,M,-25.1,M,1.8,0000*74
$GPGSA,A,3,04,17,02,10,09,,,,,,,,3.4,2.3,2.5*3B
$GPRMC,214714.000,A,3748.7425,N,12217.7889,W,1.46,216.08,160911,,,D*79
$GPVTG,216.08,T,,M,1.46,N,2.7,K,D*03
$GPGGA,214715.000,3748.7422,N,12217.7893,W,2,05,2.3,22.8,M,-25.1,M,1.8,0000*70
$GPGSA,A,3,04,17,02,10,09,,,,,,,,3.4,2.3,2.5*3B
$GPGSV,3,1,12,02,72,165,29,12,58,321,28,04,47,055,25,09,45,220,36*7F
$GPGSV,3,2,12,27,37,207,36,25,24,310,40,10,21,105,21,17,14,067,19*72
$GPGSV,3,3,12,05,08,156,21,29,07,262,37,30,01,310,19,14,00,301,*77
$GPRMC,214715.000,A,3748.7422,N,12217.7893,W,2.07,226.98,160911,,,D*78
$GPVTG,226.98,T,,M,2.07,N,3.8,K,D*01
$GPGGA,214716.000,3748.7413,N,12217.7891,W,2,04,2.9,21.8,M,-25.1,M,2.8,0000*78
$GPGSA,A,3,04,02,10,09,,,,,,,,,4.7,2.9,3.7*30
$GPRMC,214716.000,A,3748.7413,N,12217.7891,W,2.05,197.30,160911,,,D*72
$GPVTG,197.30,T,,M,2.05,N,3.8,K,D*08
$GPGGA,214717.000,3748.7402,N,12217.7889,W,2,04,2.9,20.8,M,-25.1,M,3.8,0000*70
$GPGSA,A,3,04,02,10,09,,,,,,,,,4.7,2.9,3.7*30
$GPRMC,214717.000,A,3748.7402,N,12217.7889,W,1.65,212.09,160911,,,D*7B
$GPVTG,212.09,T,,M,1.65,N,3.1,K,D*00
$GPGGA,214718.000,3748.7390,N,12217.7885,W,2,04,2.9,19.4,M,-25.1,M,1.8,0000*7B
$GPGSA,A,3,04,02,10,09,,,,,,,,,4.7,2.9,3.7*30
$GPRMC,214718.000,A,3748.7390,N,12217.7885,W,1.49,218.90,160911,,,D*70
$GPVTG,218.90,T,,M,1.49,N,2.8,K,D*0C
$GPGGA,214719.000,3748.7396,N,12217.7899,W,2,04,2.9,19.5,M,-25.1,M,1.8,0000*70
$GPGSA,A,3,04,02,10,09,,,,,,,,,4.7,2.9,3.7*30
$GPRMC,214719.000,A,3748.7396,N,12217.7899,W,1.50,264.80,160911,,,D*78
$GPVTG,264.80,T,,M,1.50,N,2.8,K,D*0E
$GPGGA,214720.000,3748.7407,N,12217.7915,W,2,05,2.3,20.2,M,-25.1,M,1.8,0000*76
$GPGSA,A,3,04,17,02,10,09,,,,,,,,3.4,2.3,2.5*3B
$GPGSV,3,1,12,02,73,164,29,12,58,321,30,04,47,055,26,09,44,220,36*74
$GPGSV,3,2,12,27,37,206,36,25,24,310,28,10,22,105,20,17,13,067,18*79
$GPGSV,3,3,12,05,08,156,21,29,08,262,33,30,01,310,12,14,00,301,*77
$GPRMC,214720.000,A,3748.7407,N,12217.7915,W,1.10,270.78,160911,,,D*7E
$GPVTG,270.78,T,,M,1.10,N,2.0,K,D*00
$GPGGA,214721.000,3748.7415,N,12217.7927,W,2,05,2.3,21.5,M,-25.1,M,2.8,0000*70
$GPGSA,A,3,04,17,02,10,09,,,,,,,,3.4,2.3,2.5*3B
$GPRMC,214721.000,A,3748.7415,N,12217.7927,W,1.36,231.66,160911,,,D*73
$GPVTG,231.66,T,,M,1.36,N,2.5,K,D*0B
$GPGGA,214722.000,3748.7407,N,12217.7933,W,2,05,2.3,22.9,M,-25.1,M,3.8,0000*7B
$GPGSA,A,3,04,17,02,10,09,,,,,,,,3.4,2.3,2.5*3B
$GPRMC,214722.000,A,3748.7407,N,12217.7933,W,1.83,201.85,160911,,,D*76
$GPVTG,201.85,T,,M,1.83,N,3.4,K,D*0B
$GPGGA,214723.000,3748.7398,N,12217.7938,W,2,05,2.3,23.8,M,-25.1,M,1.8,0000*72
$GPGSA,A,3,04,17,02,10,09,,,,,,,,3.4,2.3,2.5*3B
$GPRMC,214723.000,A,3748.7398,N,12217.7938,W,2.23,185.77,160911,,,D*76
$GPVTG,185.77,T,,M,2.23,N,4.1,K,D*02
$GPGGA,214724.000,3748.7398,N,12217.7948,W,2,05,2.3,24.3,M,-25.1,M,1.8,0000*7E
$GPGSA,A,3,04,17,02,10,09,,,,,,,,3.4,2.3,2.5*3B
$GPRMC,214724.000,A,3748.7398,N,12217.7948,W,2.28,188.17,160911,,,D*76
$GPVTG,188.17,T,,M,2.28,N,4.2,K,D*01
$GPGGA,214725.000,3748.7390,N,12217.7956,W,2,05,2.3,24.9,M,-25.1,M,1.8,0000*72
$GPGSA,A,3,04,17,02,10,09,,,,,,,,3.4,2.3,2.5*3B
$GPGSV,3,1,12,02,73,164,29,12,58,321,32,04,47,055,25,09,44,220,36*75
$GPGSV,3,2,12,27,37,206,36,25,24,310,27,10,22,105,19,17,13,067,17*73
$GPGSV,3,3,12,05,08,156,19,29,08,262,42,30,01,310,13,14,00,301,*7B
$GPVTG,189.50,T,,M,1.58,N,2.9,K,D*0A
$GPGGA,214726.000,3748.7383,N,12217.7961,W,2,05,2.3,24.8,M,-25.1,M,1.8,0000*76
$GPGSA,A,3,04,17,02,10,09,,,,,,,,3.4,2.3,2.5*3B
$GPRMC,214726.000,A,3748.7383,N,12217.7961,W,1.09,234.46,160911,,,D*75
$GPVTG,234.46,T,,M,1.09,N,2.0,K,D*05
$GPGGA,214727.000,3748.7389,N,12217.7976,W,2,05,2.3,24.1,M,-25.1,M,2.8,0000*71
$GPGSA,A,3,04,17,02,10,09,,,,,,,,3.4,2.3,2.5*3B
$GPRMC,214727.000,A,3748.7389,N,12217.7976,W,2.55,272.78,160911,,,D*7D
$GPVTG,272.78,T,,M,2.55,N,4.7,K,D*01
$GPGGA,214728.000,3748.7366,N,12217.7964,W,2,06,1.6,23.8,M,-25.1,M,3.8,0000*76
$GPGSA,A,3,04,17,02,10,12,09,,,,,,,2.9,1.6,2.5*32
$GPRMC,214728.000,A,3748.7366,N,12217.7964,W,2.07,214.73,160911,,,D*7C
$GPVTG,214.73,T,,M,2.07,N,3.8,K,D*05
$GPGGA,214729.000,3748.7352,N,12217.7965,W,2,06,1.6,23.4,M,-25.1,M,4.8,0000*7A
$GPGSA,A,3,04,17,02,10,12,09,,,,,,,2.9,1.6,2.5*32
$GPRMC,214729.000,A,3748.7352,N,12217.7965,W,1.96,221.35,160911,,,D*74
$GPVTG,221.35,T,,M,1.96,N,3.6,K,D*04
$GPGGA,214730.000,3748.7344,N,12217.7964,W,2,06,1.6,22.6,M,-25.1,M,5.8,0000*76
$GPGSA,A,3,04,17,02,10,12,09,,,,,,,2.9,1.6,2.5*32
$GPGSV,3,1,12,02,73,164,30,12,58,321,33,04,47,055,25,09,44,220,36*7C
$GPGSV,3,2,12,27,37,206,31,25,24,311,37,10,22,105,18,17,13,067,18*7A
$GPGSV,3,3,12,05,08,156,19,29,08,262,37,30,02,310,14,14,00,301,*7D
$GPRMC,214730.000,A,3748.7344,N,12217.7964,W,1.65,225.78,160911,,,D*7B
$GPVTG,225.78,T,,M,1.65,N,3.1,K,D*02
$GPGGA,214731.000,3748.7335,N,12217.7965,W,2,06,1.6,22.0,M,-25.1,M,6.8,0000*75
$GPGSA,A,3,04,17,02,10,12,09,,,,,,,2.9,1.6,2.5*32
$GPRMC,214731.000,A,3748.7335,N,12217.7965,W,1.55,220.10,160911,,,D*75
$GPVTG,220.10,T,,M,1.55,N,2.9,K,D*03
$GPGGA,214732.000,3748.7328,N,12217.7968,W,2,06,1.6,21.3,M,-25.1,M,7.8,0000*76
$GPGSA,A,3,04,17,02,10,12,09,,,,,,,2.9,1.6,2.5*32
$GPRMC,214732.000,A,3748.7328,N,12217.7968,W,1.71,218.50,160911,,,D*7E
$GPVTG,218.50,T,,M,1.71,N,3.2,K,D*00
$GPGGA,214733.000,3748.7320,N,12217.7972,W,2,06,1.6,20.4,M,-25.1,M,8.8,0000*7D
$GPGSA,A,3,04,17,02,10,12,09,,,,,,,2.9,1.6,2.5*32
$GPRMC,214733.000,A,3748.7320,N,12217.7972,W,1.48,193.52,160911,,,D*74
$GPVTG,193.52,T,,M,1.48,N,2.7,K,D*0C
$GPGGA,214734.000,3748.7310,N,12217.7966,W,2,06,1.6,19.9,M,-25.1,M,9.8,0000*7A
$GPGSA,A,3,04,17,02,10,12,09,,,,,,,2.9,1.6,2.5*32
$GPRMC,214734.000,A,3748.7310,N,12217.7966,W,1.87,177.11,160911,,,D*7B
$GPVTG,177.11,T,,M,1.87,N,3.5,K,D*01
$GPGGA,214735.000,3748.7304,N,12217.7952,W,2,06,1.6,20.7,M,-25.1,M,10.8,0000*45
$GPGSA,A,3,04,17,02,10,12,09,,,,,,,2.9,1.6,2.5*32
$GPGSV,3,1,12,02,73,164,29,12,58,321,24,04,47,055,37,09,44,220,23*75
$GPGSV,3,2,12,27,37,206,28,25,24,311,22,10,22,105,18,17,13,067,35*79
$GPGSV,3,3,12,05,08,156,28,29,08,262,20,30,02,310,13,14,00,301,*7E
$GPRMC,214735.000,A,3748.7304,N,12217.7952,W,0.93,172.77,160911,,,D*79
$GPVTG,172.77,T,,M,0.93,N,1.7,K,D*00
$GPGGA,214736.000,3748.7300,N,12217.7940,W,2,06,1.6,21.3,M,-25.1,M,11.8,0000*45
$GPGSA,A,3,04,17,02,10,12,09,,,,,,,2.9,1.6,2.5*32
$GPRMC,214736.000,A,3748.7300,N,12217.7940,W,0.91,137.13,160911,,,D*7C
$GPVTG,137.13,T,,M,0.91,N,1.7,K,D*01
$GPGGA,214737.000,3748.7283,N,12217.7928,W,2,06,1.6,20.3,M,-25.1,M,12.8,0000*42
$GPGSA,A,3,04,17,02,10,12,09,,,,,,,2.9,1.6,2.5*32
$GPRMC,214737.000,A,3748.7283,N,12217.7928,W,2.14,177.88,160911,,,D*70
$GPVTG,177.88,T,,M,2.14,N,4.0,K,D*0A
$GPGGA,214738.000,3748.7264,N,12217.7925,W,2,06,1.6,17.0,M,-25.1,M,13.8,0000*4F
$GPGSA,A,3,04,17,02,10,12,09,,,,,,,2.9,1.6,2.5*32
$GPRMC,214738.000,A,3748.7264,N,12217.7925,W,2.22,167.62,160911,,,D*7B
$GPVTG,167.62,T,,M,2.22,N,4.1,K,D*0B
$GPGGA,214739.000,3748.7241,N,12217.7918,W,2,06,1.6,16.8,M,-25.1,M,14.8,0000*49
$GPGSA,A,3,04,17,02,10,12,09,,,,,,,2.9,1.6,2.5*32
$GPRMC,214739.000,A,3748.7241,N,12217.7918,W,2.71,162.37,160911,,,D*70
$GPVTG,162.37,T,,M,2.71,N,5.0,K,D*08
$GPGGA,214740.000,3748.7225,N,12217.7917,W,2,06,1.6,16.1,M,-25.1,M,15.8,0000*42
$GPGSA,A,3,04,17,02,10,12,09,,,,,,,2.9,1.6,2.5*32
$GPGSV,3,1,12,02,73,164,31,12,58,321,18,04,47,055,25,09,44,220,36*74
$GPGSV,3,2,12,27,37,206,38,25,24,311,23,10,22,105,18,17,13,067,26*7B
$GPGSV,3,3,12,05,08,156,20,29,08,262,20,30,02,310,13,14,00,301,*76
$GPRMC,214740.000,A,3748.7225,N,12217.7917,W,2.63,174.75,160911,,,D*71
$GPVTG,174.75,T,,M,2.63,N,4.9,K,D*02
$GPGGA,214741.000,3748.7222,N,12217.7920,W,2,06,1.6,15.0,M,-25.1,M,16.8,0000*41
$GPGSA,A,3,04,17,02,10,12,09,,,,,,,2.9,1.6,2.5*32
$GPRMC,214741.000,A,3748.7222,N,12217.7920,W,0.80,146.55,160911,,,D*7F
$GPVTG,146.55,T,,M,0.80,N,1.5,K,D*07
$GPGGA,214742.000,3748.7227,N,12217.7910,W,2,06,1.6,16.0,M,-25.1,M,17.8,0000*46
$GPGSA,A,3,04,17,02,10,12,09,,,,,,,2.9,1.6,2.4*33
$GPRMC,214742.000,A,3748.7227,N,12217.7910,W,0.81,56.44,160911,,,D*4B
$GPVTG,56.44,T,,M,0.81,N,1.5,K,D*36
$GPGGA,214743.000,3748.7221,N,12217.7900,W,1,06,1.6,16.7,M,-25.1,M,,0000*54
$GPGSA,A,3,04,17,02,10,12,09,,,,,,,2.9,1.6,2.4*33
$GPRMC,214743.000,A,3748.7221,N,12217.7900,W,0.84,127.15,160911,,,A*7E
$GPVTG,127.15,T,,M,0.84,N,1.6,K,A*06
$GPGGA,214744.000,3748.7220,N,12217.7895,W,1,06,1.6,17.0,M,-25.1,M,,0000*59
$GPGSA,A,3,04,17,02,10,12,09,,,,,,,2.9,1.6,2.4*33
$GPRMC,214744.000,A,3748.7220,N,12217.7895,W,1.28,135.85,160911,,,A*78
$GPVTG,135.85,T,,M,1.28,N,2.4,K,A*0A
$GPGGA,214745.000,3748.7230,N,12217.7900,W,1,05,2.0,17.8,M,-25.1,M,,0000*5A
$GPGSA,A,3,04,17,10,12,09,,,,,,,,4.2,2.0,3.6*3A
$GPGSV,3,1,12,02,73,164,13,12,58,321,19,04,47,055,26,09,44,220,23*72
$GPGSV,3,2,12,27,37,206,16,25,24,311,23,10,22,105,17,17,13,067,25*7B
$GPGSV,3,3,12,05,08,156,21,29,08,262,29,30,02,310,,14,00,301,*7C
$GPRMC,214745.000,A,3748.7230,N,12217.7900,W,0.49,257.76,160911,,,A*78
$GPGGA,214746.000,3748.7238,N,12217.7908,W,1,05,2.0,17.1,M,-25.1,M,,0000*50
$GPGSA,A,3,04,17,10,12,09,,,,,,,,4.2,2.0,3.6*3A
$GPRMC,214746.000,A,3748.7238,N,12217.7908,W,0.94,289.33,160911,,,A*79
$GPVTG,289.33,T,,M,0.94,N,1.7,K,A*05
$GPGGA,214747.000,3748.7250,N,12217.7915,W,1,06,1.6,16.6,M,-25.1,M,,0000*53
$GPGSA,A,3,04,17,02,10,12,09,,,,,,,2.9,1.6,2.4*33
$GPRMC,214747.000,A,3748.7250,N,12217.7915,W,1.46,292.93,160911,,,A*74
$GPVTG,292.93,T,,M,1.46,N,2.7,K,A*08
$GPGGA,214748.000,3748.7251,N,12217.7913,W,1,06,1.6,16.1,M,-25.1,M,,0000*5C
$GPGSA,A,3,04,17,02,10,12,09,,,,,,,2.9,1.6,2.4*33
$GPRMC,214748.000,A,3748.7251,N,12217.7913,W,0.94,304.56,160911,,,A*75
$GPVTG,304.56,T,,M,0.94,N,1.7,K,A*02
$GPGGA,214749.000,3748.7253,N,12217.7905,W,1,06,1.6,15.1,M,-25.1,M,,0000*5B
$GPGSA,A,3,04,17,02,10,12,09,,,,,,,2.9,1.6,2.4*33
$GPRMC,214749.000,A,3748.7253,N,12217.7905,W,0.63,34.17,160911,,,A*4C
$GPVTG,34.17,T,,M,0.63,N,1.2,K,A*3A
$GPGGA,214750.000,3748.7252,N,12217.7898,W,1,06,1.6,15.6,M,-25.1,M,,0000*50
$GPGSA,A,3,04,17,02,10,12,09,,,,,,,2.9,1.6,2.4*33
$GPGSV,3,1,12,02,73,164,29,12,58,321,19,04,47,055,35,09,44,220,21*7B
$GPGSV,3,2,12,27,37,206,23,25,24,311,23,10,22,105,25,17,13,067,35*7D
$GPGSV,3,3,12,05,08,156,27,29,08,262,25,30,02,310,,14,00,301,*76
$GPRMC,214750.000,A,3748.7252,N,12217.7898,W,0.69,42.49,160911,,,A*40
$GPVTG,42.49,T,,M,0.69,N,1.3,K,A*3B
$GPGGA,214751.000,3748.7258,N,12217.7899,W,1,06,1.6,14.4,M,-25.1,M,,0000*59
$GPGSA,A,3,04,17,02,10,12,09,,,,,,,2.9,1.6,2.4*33
$GPRMC,214751.000,A,3748.7258,N,12217.7899,W,1.47,351.40,160911,,,A*7F
$GPVTG,351.40,T,,M,1.47,N,2.7,K,A*09
$GPGGA,214752.000,3748.7264,N,12217.7897,W,1,06,1.6,14.0,M,-25.1,M,,0000*5F
$GPGSA,A,3,04,17,02,10,12,09,,,,,,,2.9,1.6,2.4*33
$GPRMC,214752.000,A,3748.7264,N,12217.7897,W,0.88,351.85,160911,,,A*76
$GPVTG,351.85,T,,M,0.88,N,1.6,K,A*00
$GPGGA,214753.000,3748.7271,N,12217.7900,W,1,05,2.5,13.6,M,-25.1,M,,0000*57
$GPGSA,A,3,04,17,02,10,12,,,,,,,,4.3,2.5,3.4*37
$GPRMC,214753.000,A,3748.7271,N,12217.7900,W,1.00,313.85,160911,,,A*7B
$GPVTG,313.85,T,,M,1.00,N,1.8,K,A*09
$GPGGA,214754.000,3748.7263,N,12217.7890,W,1,05,2.5,15.7,M,-25.1,M,,0000*5C
$GPGSA,A,3,04,17,02,10,12,,,,,,,,4.3,2.5,3.4*37
$GPRMC,214754.000,A,3748.7263,N,12217.7890,W,0.21,210.55,160911,,,A*7A
$GPVTG,210.55,T,,M,0.21,N,0.4,K,A*09
$GPGGA,214755.000,3748.7263,N,12217.7890,W,1,05,2.5,15.8,M,-25.1,M,,0000*52
$GPGSA,A,3,04,17,02,10,12,,,,,,,,4.3,2.5,3.4*37
$GPGSV,3,1,12,02,73,164,28,12,58,321,25,04,47,055,36,09,44,220,*75
$GPGSV,3,2,12,27,37,206,23,25,24,311,23,10,22,105,25,17,13,067,41*7E
$GPGSV,3,3,12,05,08,156,21,29,08,262,31,30,02,310,,14,00,301,*75
$GPRMC,214755.000,A,3748.7263,N,12217.7890,W,0.10,339.92,160911,,,A*78
$GPVTG,339.92,T,,M,0.10,N,0.2,K,A*0C
$GPGGA,214756.000,3748.7272,N,12217.7899,W,1,05,2.5,13.6,M,-25.1,M,,0000*50
$GPGSA,A,3,04,17,02,10,12,,,,,,,,4.3,2.5,3.4*37
$GPRMC,214756.000,A,3748.7272,N,12217.7899,W,0.38,308.49,160911,,,A*7C
$GPVTG,308.49,T,,M,0.38,N,0.7,K,A*07
$GPGGA,214757.000,3748.7276,N,12217.7901,W,1,04,2.9,13.8,M,-25.1,M,,0000*56
$GPGSA,A,3,04,17,10,12,,,,,,,,,4.8,2.9,3.9*3F
$GPRMC,214757.000,A,3748.7276,N,12217.7901,W,0.10,354.45,160911,,,A*76
$GPVTG,354.45,T,,M,0.10,N,0.2,K,A*0D
$GPGGA,214758.000,3748.7282,N,12217.7908,W,1,06,1.6,13.0,M,-25.1,M,,0000*5D
$GPGSA,A,3,04,17,02,10,12,09,,,,,,,2.9,1.6,2.4*33
$GPRMC,214758.000,A,3748.7282,N,12217.7908,W,0.66,7.22,160911,,,A*7E
$GPVTG,7.22,T,,M,0.66,N,1.2,K,A*09
$GPGGA,214759.000,3748.7292,N,12217.7911,W,1,06,1.6,11.6,M,-25.1,M,,0000*51
$GPGSA,A,3,04,17,02,10,12,09,,,,,,,2.9,1.6,2.4*33
$GPRMC,214759.000,A,3748.7292,N,12217.7911,W,0.83,0.30,160911,,,A*79
$GPVTG,0.30,T,,M,0.83,N,1.5,K,A*01
$GPGGA,214800.000,3748.7303,N,12217.7912,W,1,06,1.6,10.9,M,-25.1,M,,0000*56
$GPGSA,A,3,04,17,02,10,12,09,,,,,,,2.9,1.6,2.4*33
$GPGSV,3,1,12,02,73,164,25,12,58,321,28,04,47,055,37,09,44,220,21*77
$GPGSV,3,2,12,27,37,206,20,25,24,311,28,10,22,105,24,17,13,067,40*76
$GPGSV,3,3,12,05,08,156,27,29,08,262,23,30,02,310,,14,00,301,*70
$GPVTG,16.24,T,,M,1.16,N,2.1,K,A*39
$GPGGA,214801.000,3748.7310,N,12217.7909,W,1,06,1.6,10.6,M,-25.1,M,,0000*50
$GPGSA,A,3,04,17,02,10,12,09,,,,,,,2.9,1.6,2.4*33
$GPRMC,214801.000,A,3748.7310,N,12217.7909,W,1.09,44.85,160911,,,A*44
$GPVTG,44.85,T,,M,1.09,N,2.0,K,A*3A
$GPGGA,214802.000,3748.7317,N,12217.7902,W,1,06,1.6,11.6,M,-25.1,M,,0000*5E
$GPGSA,A,3,04,17,02,10,12,09,,,,,,,2.9,1.6,2.4*33
$GPRMC,214802.000,A,3748.7317,N,12217.7902,W,1.93,32.02,160911,,,A*46
$GPVTG,32.02,T,,M,1.93,N,3.6,K,A*30
$GPGGA,214803.000,3748.7323,N,12217.7899,W,1,06,1.6,11.4,M,-25.1,M,,0000*59
$GPGSA,A,3,04,17,02,10,12,09,,,,,,,2.9,1.6,2.4*33
$GPRMC,214803.000,A,3748.7323,N,12217.7899,W,1.69,39.82,160911,,,A*45
$GPVTG,39.82,T,,M,1.69,N,3.1,K,A*31
$GPGGA,214804.000,3748.7330,N,12217.7896,W,1,06,1.6,11.5,M,-25.1,M,,0000*52
$GPGSA,A,3,04,17,02,10,12,09,,,,,,,2.9,1.6,2.4*33
$GPRMC,214804.000,A,3748.7330,N,12217.7896,W,1.66,37.09,160911,,,A*4D
$GPVTG,37.09,T,,M,1.66,N,3.1,K,A*33
$GPGGA,214805.000,3748.7337,N,12217.7890,W,1,06,1.6,11.5,M,-25.1,M,,0000*52
$GPGSA,A,3,04,17,02,10,12,09,,,,,,,2.9,1.6,2.4*33
$GPGSV,3,1,12,02,73,164,32,12,58,321,30,04,47,055,39,09,44,220,22*75
$GPGSV,3,2,12,27,37,206,20,25,24,311,29,10,22,105,25,17,13,067,32*73
$GPGSV,3,3,12,05,08,156,22,29,08,262,22,30,02,310,,14,00,301,*74
