$ADVER,3080,2.3
$GPWPL,3748.7222,N,12217.9217,W,00001*6F
$ADPMB,5,0
$GPRMC,211551.287,A,3748.7222,N,12217.9217,W,2.91,220.54,230611,,,A*79
$GPGGA,211552.287,3748.7213,N,12217.9225,W,1,04,2.7,-4.4,M,-25.1,M,,0000*40
$GPGSA,A,3,08,05,10,28,,,,,,,,,2.9,2.7,1.0*3B
$GPRMC,211552.287,A,3748.7213,N,12217.9225,W,2.81,212.59,230611,,,A*74
$GPVTG,212.59,T,,M,2.81,N,5.2,K,A*0C
$GPGGA,211553.287,3748.7206,N,12217.9226,W,1,04,6.7,-4.6,M,-25.1,M,,0000*40
$GPGSA,A,3,08,05,10,28,,,,,,,,,10.0,6.7,7.4*07
$GPRMC,211553.287,A,3748.7206,N,12217.9226,W,2.83,209.12,230611,,,A*75
$GPVTG,209.12,T,,M,2.83,N,5.2,K,A*0B
$GPGGA,211554.000,3748.7202,N,12217.9228,W,1,04,6.7,-4.7,M,-25.1,M,,0000*41
$GPGSA,A,3,08,05,10,28,,,,,,,,,10.0,6.7,7.4*07
$GPGSV,3,1,12,08,59,328,33,28,49,234,36,10,24,230,36,05,23,285,31*78
$GPGSV,3,2,12,07,63,039,22,13,38,144,25,19,31,066,24,26,13,317,16*74
$GPGSV,3,3,12,03,12,041,20,23,07,143,21,11,04,117,15,06,02,034,*7A
$GPRMC,211554.000,A,3748.7202,N,12217.9228,W,2.78,216.15,230611,,,A*78
$GPVTG,216.15,T,,M,2.78,N,5.2,K,A*06
$GPGGA,211555.000,3748.7195,N,12217.9230,W,1,04,6.7,-5.0,M,-25.1,M,,0000*42
$GPGSA,A,3,08,05,10,28,,,,,,,,,10.0,6.7,7.4*07
$GPRMC,211555.000,A,3748.7195,N,12217.9230,W,2.84,213.27,230611,,,A*7A
$GPVTG,213.27,T,,M,2.84,N,5.3,K,A*00
$GPGGA,211556.000,3748.7188,N,12217.9234,W,1,04,6.7,-5.1,M,-25.1,M,,0000*48
$GPGSA,A,3,08,05,10,28,,,,,,,,,10.0,6.7,7.4*07
$GPRMC,211556.000,A,3748.7188,N,12217.9234,W,2.83,211.48,230611,,,A*7D
$GPVTG,211.48,T,,M,2.83,N,5.2,K,A*0D
$GPGGA,211557.000,3748.7181,N,12217.9239,W,1,04,6.7,-5.1,M,-25.1,M,,0000*4D
$GPGSA,A,3,08,05,10,28,,,,,,,,,10.0,6.7,7.4*07
$GPRMC,211557.000,A,3748.7181,N,12217.9239,W,2.77,212.27,230611,,,A*79
$GPVTG,212.27,T,,M,2.77,N,5.1,K,A*0F
$GPGGA,211558.000,3748.7175,N,12217.9245,W,1,04,6.7,-5.0,M,-25.1,M,,0000*43
$GPGSA,A,3,08,05,10,28,,,,,,,,,9.9,6.7,7.4*36
$GPRMC,211558.000,A,3748.7175,N,12217.9245,W,2.72,215.21,230611,,,A*72
$GPVTG,215.21,T,,M,2.72,N,5.0,K,A*0A
$GPGGA,211559.000,3748.7169,N,12217.9252,W,1,04,6.7,-5.0,M,-25.1,M,,0000*49
$GPGSA,A,3,08,05,10,28,,,,,,,,,9.9,6.7,7.4*36
$GPGSV,3,1,12,08,59,328,33,28,49,234,36,10,24,230,36,05,23,285,39*70
$GPGSV,3,2,12,07,63,039,22,13,38,144,19,19,31,066,20,26,13,317,*78
$GPGSV,3,3,12,03,12,041,20,23,07,143,20,11,04,117,15,06,02,034,*7B
$GPVTG,215.22,T,,M,2.72,N,5.0,K,A*09
$GPGGA,211600.000,3748.7163,N,12217.9259,W,1,04,6.7,-4.9,M,-25.1,M,,0000*4F
$GPGSA,A,3,08,05,10,28,,,,,,,,,9.9,6.7,7.4*36
$GPRMC,211600.000,A,3748.7163,N,12217.9259,W,2.76,217.69,230611,,,A*7C
$GPVTG,217.69,T,,M,2.76,N,5.1,K,A*01
$GPGGA,211601.000,3748.7157,N,12217.9266,W,1,04,6.7,-4.8,M,-25.1,M,,0000*44
$GPGSA,A,3,08,05,10,28,,,,,,,,,9.9,6.7,7.3*31
$GPRMC,211601.000,A,3748.7157,N,12217.9266,W,2.81,211.83,230611,,,A*7C
$GPVTG,211.83,T,,M,2.81,N,5.2,K,A*08
$GPGGA,211602.000,3748.7151,N,12217.9271,W,1,04,6.7,-4.8,M,-25.1,M,,0000*47
$GPGSA,A,3,08,05,10,28,,,,,,,,,9.9,6.7,7.3*31
$GPRMC,211602.000,A,3748.7151,N,12217.9271,W,2.80,206.63,230611,,,A*76
$GPVTG,206.63,T,,M,2.80,N,5.2,K,A*01
$GPGGA,211603.000,3748.7144,N,12217.9275,W,1,04,6.6,-4.8,M,-25.1,M,,0000*47
$GPGSA,A,3,08,05,10,28,,,,,,,,,9.9,6.6,7.3*30
$GPRMC,211603.000,A,3748.7144,N,12217.9275,W,2.66,210.73,230611,,,A*79
$GPVTG,210.73,T,,M,2.66,N,4.9,K,A*05
$GPGGA,211604.000,3748.7137,N,12217.9281,W,1,04,6.6,-4.8,M,-25.1,M,,0000*4F
$GPGSA,A,3,08,05,10,28,,,,,,,,,9.9,6.6,7.3*30
$GPGSV,3,1,12,08,59,328,32,28,49,234,36,10,24,230,37,05,23,285,36*7F
$GPGSV,3,2,12,07,63,039,22,13,38,144,20,19,31,066,20,26,13,317,20*70
$GPGSV,3,3,12,03,12,041,19,23,07,143,19,11,04,117,15,06,02,034,*7B
$GPRMC,211604.000,A,3748.7137,N,12217.9281,W,3.22,211.22,230611,,,A*75
$GPVTG,211.22,T,,M,3.22,N,6.0,K,A*0A
$GPGGA,211605.000,3748.7131,N,12217.9287,W,1,04,6.6,-4.8,M,-25.1,M,,0000*4E
$GPGSA,A,3,08,05,10,28,,,,,,,,,9.9,6.6,7.3*30
$GPRMC,211605.000,A,3748.7131,N,12217.9287,W,2.80,214.02,230611,,,A*7A
$GPVTG,214.02,T,,M,2.80,N,5.2,K,A*05
$GPGGA,211606.000,3748.7125,N,12217.9292,W,1,04,6.6,-4.8,M,-25.1,M,,0000*4C
$GPGSA,A,3,08,05,10,28,,,,,,,,,9.9,6.6,7.3*30
$GPRMC,211606.000,A,3748.7125,N,12217.9292,W,2.75,213.95,230611,,,A*7B
$GPVTG,213.95,T,,M,2.75,N,5.1,K,A*05
$GPGGA,211607.000,3748.7118,N,12217.9298,W,1,04,6.6,-4.8,M,-25.1,M,,0000*49
$GPGSA,A,3,08,05,10,28,,,,,,,,,9.9,6.6,7.3*30
$GPRMC,211607.000,A,3748.7118,N,12217.9298,W,2.70,214.25,230611,,,A*77
$GPVTG,214.25,T,,M,2.70,N,5.0,K,A*0D
$GPGGA,211608.000,3748.7113,N,12217.9303,W,1,04,6.6,-4.9,M,-25.1,M,,0000*4F
$GPGSA,A,3,08,05,10,28,,,,,,,,,9.9,6.6,7.3*30
$GPRMC,211608.000,A,3748.7113,N,12217.9303,W,2.71,215.29,230611,,,A*7C
$GPVTG,215.29,T,,M,2.71,N,5.0,K,A*01
$GPGGA,211609.000,3748.7107,N,12217.9308,W,1,04,6.6,-4.9,M,-25.1,M,,0000*40
$GPGSA,A,3,08,05,10,28,,,,,,,,,9.8,6.6,7.3*31
$GPGSV,3,1,12,08,59,328,33,28,49,234,36,10,24,230,37,05,23,285,38*70
$GPGSV,3,2,12,07,63,039,22,13,38,144,26,19,31,066,19,26,13,317,34*79
$GPGSV,3,3,12,03,12,041,19,23,07,143,19,11,04,117,15,06,02,034,*7B
$GPRMC,211609.000,A,3748.7107,N,12217.9308,W,2.62,216.85,230611,,,A*74
$GPVTG,216.85,T,,M,2.62,N,4.8,K,A*0F
$GPGGA,211610.000,3748.7101,N,12217.9314,W,1,04,6.6,-5.0,M,-25.1,M,,0000*4B
$GPGSA,A,3,08,05,10,28,,,,,,,,,9.8,6.6,7.3*31
$GPRMC,211610.000,A,3748.7101,N,12217.9314,W,2.71,214.28,230611,,,A*70
$GPVTG,214.28,T,,M,2.71,N,5.0,K,A*01
$GPGGA,211611.000,3748.7095,N,12217.9319,W,1,04,6.6,-5.1,M,-25.1,M,,0000*4A
$GPGSA,A,3,08,05,10,28,,,,,,,,,9.8,6.6,7.3*31
$GPRMC,211611.000,A,3748.7095,N,12217.9319,W,2.70,215.67,230611,,,A*7B
$GPVTG,215.67,T,,M,2.70,N,5.0,K,A*0A
$GPGGA,211612.000,3748.7089,N,12217.9324,W,1,04,6.6,-5.2,M,-25.1,M,,0000*49
$GPGSA,A,3,08,05,10,28,,,,,,,,,9.8,6.6,7.3*31
$GPRMC,211612.000,A,3748.7089,N,12217.9324,W,2.69,219.03,230611,,,A*7D
$GPVTG,219.03,T,,M,2.69,N,5.0,K,A*0C
$GPGGA,211613.000,3748.7083,N,12217.9330,W,1,04,6.6,-5.2,M,-25.1,M,,0000*47
$GPGSA,A,3,08,05,10,28,,,,,,,,,9.8,6.6,7.3*31
$GPRMC,211613.000,A,3748.7083,N,12217.9330,W,2.93,215.54,230611,,,A*78
$GPVTG,215.54,T,,M,2.93,N,5.4,K,A*03
$GPGGA,211614.000,3748.7076,N,12217.9336,W,1,04,6.6,-5.3,M,-25.1,M,,0000*4D
$GPGSA,A,3,08,05,10,28,,,,,,,,,9.8,6.6,7.3*31
$GPGSV,3,1,12,08,59,328,33,28,49,234,36,10,24,230,38,05,23,285,38*7F
$GPGSV,3,2,12,07,63,039,22,13,38,144,19,19,31,066,18,26,13,317,28*79
$GPGSV,3,3,12,03,12,041,19,23,07,143,20,11,04,117,17,06,02,034,*73
$GPRMC,211614.000,A,3748.7076,N,12217.9336,W,3.14,211.41,230611,,,A*7D
$GPGGA,211615.000,3748.7069,N,12217.9339,W,1,04,6.6,-5.8,M,-25.1,M,,0000*46
$GPGSA,A,3,08,05,10,28,,,,,,,,,9.8,6.6,7.3*31
$GPRMC,211615.000,A,3748.7069,N,12217.9339,W,2.70,214.76,230611,,,A*7F
$GPVTG,214.76,T,,M,2.70,N,5.0,K,A*0B
$GPGGA,211616.000,3748.7063,N,12217.9344,W,1,04,6.6,-5.9,M,-25.1,M,,0000*44
$GPGSA,A,3,08,05,10,28,,,,,,,,,9.8,6.6,7.2*30
$GPRMC,211616.000,A,3748.7063,N,12217.9344,W,2.60,210.39,230611,,,A*72
$GPVTG,210.39,T,,M,2.60,N,4.8,K,A*0C
$GPGGA,211617.000,3748.7057,N,12217.9348,W,1,04,6.6,-5.9,M,-25.1,M,,0000*4E
$GPGSA,A,3,08,05,10,28,,,,,,,,,9.8,6.6,7.2*30
$GPRMC,211617.000,A,3748.7057,N,12217.9348,W,2.51,208.63,230611,,,A*7C
$GPVTG,208.63,T,,M,2.51,N,4.7,K,A*07
$GPGGA,211618.000,3748.7051,N,12217.9353,W,1,04,6.6,-5.9,M,-25.1,M,,0000*4D
$GPGSA,A,3,08,05,10,28,,,,,,,,,9.8,6.6,7.2*30
$GPRMC,211618.000,A,3748.7051,N,12217.9353,W,2.60,211.72,230611,,,A*75
$GPVTG,211.72,T,,M,2.60,N,4.8,K,A*02
$GPGGA,211619.000,3748.7045,N,12217.9359,W,1,04,6.5,-5.9,M,-25.1,M,,0000*40
$GPGSA,A,3,08,05,10,28,,,,,,,,,9.8,6.5,7.2*33
$GPGSV,3,1,12,07,63,039,22,08,59,329,33,28,49,234,36,13,38,144,20*71
$GPGSV,3,2,12,19,31,065,19,10,24,230,36,05,23,285,38,26,13,317,36*7F
$GPGSV,3,3,12,03,12,041,20,23,07,143,19,11,05,117,16,06,02,034,*73
$GPRMC,211619.000,A,3748.7045,N,12217.9359,W,2.58,217.01,230611,,,A*72
$GPVTG,217.01,T,,M,2.58,N,4.8,K,A*0B
$GPGGA,211620.000,3748.7040,N,12217.9365,W,1,04,6.5,-5.9,M,-25.1,M,,0000*40
$GPGSA,A,3,08,05,10,28,,,,,,,,,9.7,6.5,7.2*3C
$GPRMC,211620.000,A,3748.7040,N,12217.9365,W,2.58,222.93,230611,,,A*7F
$GPVTG,222.93,T,,M,2.58,N,4.8,K,A*06
$GPGGA,211621.000,3748.7035,N,12217.9373,W,1,04,6.5,-5.8,M,-25.1,M,,0000*45
$GPGSA,A,3,08,05,10,28,,,,,,,,,9.7,6.5,7.2*3C
$GPRMC,211621.000,A,3748.7035,N,12217.9373,W,2.72,208.93,230611,,,A*7B
$GPVTG,208.93,T,,M,2.72,N,5.0,K,A*0F
$GPGGA,211622.000,3748.7026,N,12217.9369,W,1,04,6.5,-6.2,M,-25.1,M,,0000*46
$GPGSA,A,3,08,05,10,28,,,,,,,,,9.7,6.5,7.2*3C
$GPRMC,211622.000,A,3748.7026,N,12217.9369,W,2.67,201.84,230611,,,A*7A
$GPVTG,201.84,T,,M,2.67,N,4.9,K,A*0C
$GPGGA,211623.000,3748.7020,N,12217.9372,W,1,04,6.5,-6.3,M,-25.1,M,,0000*4A
$GPGSA,A,3,08,05,10,28,,,,,,,,,9.7,6.5,7.2*3C
$GPRMC,211623.000,A,3748.7020,N,12217.9372,W,2.64,211.28,230611,,,A*73
$GPVTG,211.28,T,,M,2.64,N,4.9,K,A*08
$GPGGA,211624.000,3748.7012,N,12217.9372,W,1,04,6.5,-6.4,M,-25.1,M,,0000*4B
$GPGSA,A,3,08,05,10,28,,,,,,,,,9.7,6.5,7.2*3C
$GPGSV,3,1,12,07,63,039,22,08,59,329,33,28,49,234,36,13,38,144,26*77
$GPGSV,3,2,12,19,31,065,19,10,24,230,37,05,23,285,21,26,13,317,27*76
$GPGSV,3,3,12,03,12,041,20,23,07,143,20,11,05,117,15,06,02,034,*7A
$GPRMC,211624.000,A,3748.7012,N,12217.9372,W,2.58,215.28,230611,,,A*7E
$GPVTG,215.28,T,,M,2.58,N,4.8,K,A*02
$GPGGA,211625.000,3748.7006,N,12217.9378,W,1,04,6.5,-6.3,M,-25.1,M,,0000*42
$GPGSA,A,3,08,05,10,28,,,,,,,,,9.7,6.5,7.2*3C
$GPRMC,211625.000,A,3748.7006,N,12217.9378,W,2.66,210.79,230611,,,A*7C
$GPVTG,210.79,T,,M,2.66,N,4.9,K,A*0F
$GPGGA,211626.000,3748.7000,N,12217.9386,W,1,04,6.5,-6.1,M,-25.1,M,,0000*44
$GPGSA,A,3,08,05,10,28,,,,,,,,,9.7,6.5,7.2*3C
$GPRMC,211626.000,A,3748.7000,N,12217.9386,W,2.77,222.09,230611,,,A*7E
$GPVTG,222.09,T,,M,2.77,N,5.1,K,A*00
$GPGGA,211627.000,3748.6994,N,12217.9393,W,1,04,6.5,-6.0,M,-25.1,M,,0000*45
$GPGSA,A,3,08,05,10,28,,,,,,,,,9.7,6.5,7.2*3C
$GPRMC,211627.000,A,3748.6994,N,12217.9393,W,2.71,217.03,230611,,,A*74
$GPVTG,217.03,T,,M,2.71,N,5.0,K,A*0B
$GPGGA,211628.000,3748.6988,N,12217.9400,W,1,04,6.5,-5.7,M,-25.1,M,,0000*4E
$GPGSA,A,3,08,05,10,28,,,,,,,,,9.7,6.5,7.2*3C
$GPRMC,211628.000,A,3748.6988,N,12217.9400,W,2.67,214.02,230611,,,A*7E
$GPVTG,214.02,T,,M,2.67,N,4.9,K,A*06
$GPGGA,211629.000,3748.6983,N,12217.9408,W,1,04,6.5,-5.4,M,-25.1,M,,0000*4F
$GPGSA,A,3,08,05,10,28,,,,,,,,,9.7,6.5,7.2*3C
$GPGSV,3,1,12,07,63,039,22,08,59,329,33,28,49,234,36,13,38,144,27*76
$GPGSV,3,2,12,19,31,065,18,10,24,230,27,05,23,285,34,26,13,317,27*72
$GPGSV,3,3,12,03,12,041,20,23,07,143,20,11,05,117,15,06,02,034,*7A
$GPRMC,211629.000,A,3748.6983,N,12217.9408,W,2.66,212.46,230611,,,A*7B
$GPGGA,211630.000,3748.6976,N,12217.9414,W,1,04,6.5,-5.2,M,-25.1,M,,0000*46
$GPGSA,A,3,08,05,10,28,,,,,,,,,9.7,6.5,7.2*3C
$GPRMC,211630.000,A,3748.6976,N,12217.9414,W,2.73,202.55,230611,,,A*73
$GPVTG,202.55,T,,M,2.73,N,5.1,K,A*0F
$GPGGA,211631.000,3748.6970,N,12217.9417,W,1,04,6.5,-5.1,M,-25.1,M,,0000*41
$GPGSA,A,3,08,05,10,28,,,,,,,,,9.6,6.5,7.2*3D
$GPRMC,211631.000,A,3748.6970,N,12217.9417,W,2.28,204.28,230611,,,A*75
$GPVTG,204.28,T,,M,2.28,N,4.2,K,A*0F
$GPGGA,211632.000,3748.6965,N,12217.9425,W,1,04,6.5,-4.8,M,-25.1,M,,0000*4F
$GPGSA,A,3,08,05,10,28,,,,,,,,,9.6,6.5,7.1*3E
$GPRMC,211632.000,A,3748.6965,N,12217.9425,W,2.43,218.42,230611,,,A*7F
$GPVTG,218.42,T,,M,2.43,N,4.5,K,A*04
$GPGGA,211633.000,3748.6960,N,12217.9433,W,1,04,6.5,-4.6,M,-25.1,M,,0000*42
$GPGSA,A,3,08,05,10,28,,,,,,,,,9.6,6.5,7.1*3E
$GPRMC,211633.000,A,3748.6960,N,12217.9433,W,2.60,222.17,230611,,,A*74
$GPVTG,222.17,T,,M,2.60,N,4.8,K,A*01
$GPGGA,211634.000,3748.6955,N,12217.9442,W,1,04,6.5,-4.3,M,-25.1,M,,0000*40
$GPGSA,A,3,08,05,10,28,,,,,,,,,9.6,6.5,7.1*3E
$GPGSV,3,1,12,07,63,039,22,08,59,329,33,28,49,234,36,13,38,144,27*76
$GPGSV,3,2,12,19,31,065,18,10,24,230,38,05,23,285,36,26,13,317,26*7F
$GPGSV,3,3,12,03,12,041,20,23,07,143,20,11,05,117,15,06,02,034,*7A
$GPRMC,211634.000,A,3748.6955,N,12217.9442,W,2.83,224.47,230611,,,A*7D
$GPVTG,224.47,T,,M,2.83,N,5.2,K,A*04
$GPGGA,211635.000,3748.6950,N,12217.9449,W,1,04,6.5,-4.3,M,-25.1,M,,0000*4F
$GPGSA,A,3,08,05,10,28,,,,,,,,,9.6,6.5,7.1*3E
$GPRMC,211635.000,A,3748.6950,N,12217.9449,W,2.48,221.17,230611,,,A*75
$GPVTG,221.17,T,,M,2.48,N,4.6,K,A*06
$GPGGA,211636.000,3748.6944,N,12217.9456,W,1,04,6.4,-4.2,M,-25.1,M,,0000*47
$GPGSA,A,3,08,05,10,28,,,,,,,,,9.6,6.4,7.1*3F
$GPRMC,211636.000,A,3748.6944,N,12217.9456,W,2.73,217.73,230611,,,A*72
$GPVTG,217.73,T,,M,2.73,N,5.1,K,A*0F
$GPGGA,211637.000,3748.6938,N,12217.9462,W,1,04,6.4,-4.0,M,-25.1,M,,0000*48
$GPGSA,A,3,08,05,10,28,,,,,,,,,9.6,6.4,7.1*3F
$GPRMC,211637.000,A,3748.6938,N,12217.9462,W,2.76,215.31,230611,,,A*7E
$GPVTG,215.31,T,,M,2.76,N,5.1,K,A*0E
$GPGGA,211638.000,3748.6932,N,12217.9468,W,1,04,6.4,-3.9,M,-25.1,M,,0000*49
$GPGSA,A,3,08,05,10,28,,,,,,,,,9.6,6.4,7.1*3F
$GPRMC,211638.000,A,3748.6932,N,12217.9468,W,2.62,217.31,230611,,,A*76
$GPVTG,217.31,T,,M,2.62,N,4.9,K,A*00
$GPGGA,211639.000,3748.6927,N,12217.9473,W,1,04,6.4,-3.8,M,-25.1,M,,0000*47
$GPGSA,A,3,08,05,10,28,,,,,,,,,9.6,6.4,7.1*3F
$GPGSV,3,1,12,07,63,039,22,08,59,329,32,28,49,234,36,13,38,144,27*77
$GPGSV,3,2,12,19,31,065,19,10,24,230,38,05,23,285,38,26,13,317,18*7D
$GPGSV,3,3,12,03,12,041,19,23,07,143,19,11,05,117,15,06,02,034,*7A
$GPRMC,211639.000,A,3748.6927,N,12217.9473,W,2.55,214.92,230611,,,A*77
$GPVTG,214.92,T,,M,2.55,N,4.7,K,A*00
$GPGGA,211640.000,3748.6920,N,12217.9484,W,1,04,6.4,-3.4,M,-25.1,M,,0000*4A
$GPGSA,A,3,08,05,10,28,,,,,,,,,9.6,6.4,7.1*3F
$GPRMC,211640.000,A,3748.6920,N,12217.9484,W,2.91,219.11,230611,,,A*78
$GPVTG,219.11,T,,M,2.91,N,5.4,K,A*0C
$GPGGA,211641.000,3748.6914,N,12217.9493,W,1,04,6.4,-3.2,M,-25.1,M,,0000*4C
$GPGSA,A,3,08,05,10,28,,,,,,,,,9.6,6.4,7.1*3F
$GPRMC,211641.000,A,3748.6914,N,12217.9493,W,2.66,223.73,230611,,,A*7D
$GPVTG,223.73,T,,M,2.66,N,4.9,K,A*05
$GPGGA,211642.000,3748.6909,N,12217.9500,W,1,04,6.4,-3.0,M,-25.1,M,,0000*4A
$GPGSA,A,3,08,05,10,28,,,,,,,,,9.6,6.4,7.1*3F
$GPRMC,211642.000,A,3748.6909,N,12217.9500,W,2.66,218.63,230611,,,A*70
$GPVTG,218.63,T,,M,2.66,N,4.9,K,A*0C
$GPGGA,211643.000,3748.6903,N,12217.9507,W,1,04,6.4,-2.7,M,-25.1,M,,0000*40
$GPGSA,A,3,08,05,10,28,,,,,,,,,9.5,6.4,7.1*3C
$GPRMC,211643.000,A,3748.6903,N,12217.9507,W,2.59,214.51,230611,,,A*7D
$GPVTG,214.51,T,,M,2.59,N,4.8,K,A*0C
$GPGGA,211644.000,3748.6896,N,12217.9513,W,1,04,6.4,-2.5,M,-25.1,M,,0000*4D
$GPGSA,A,3,08,05,10,28,,,,,,,,,9.5,6.4,7.1*3C
$GPGSV,3,1,12,07,63,039,23,08,59,329,32,28,49,234,36,13,38,144,27*76
$GPGSV,3,2,12,19,31,065,20,10,24,230,38,05,23,285,38,26,13,317,19*76
$GPGSV,3,3,12,03,12,041,19,23,07,143,17,11,05,117,15,06,02,034,*74
$GPRMC,211644.000,A,3748.6896,N,12217.9513,W,2.78,212.54,230611,,,A*72
$GPGGA,211645.000,3748.6890,N,12217.9520,W,1,04,6.4,-2.4,M,-25.1,M,,0000*4B
$GPGSA,A,3,08,05,10,28,,,,,,,,,9.5,6.4,7.1*3C
$GPRMC,211645.000,A,3748.6890,N,12217.9520,W,2.77,214.79,230611,,,A*73
$GPVTG,214.79,T,,M,2.77,N,5.1,K,A*02
$GPGGA,211646.000,3748.6884,N,12217.9526,W,1,04,6.4,-2.2,M,-25.1,M,,0000*4D
$GPGSA,A,3,08,05,10,28,,,,,,,,,9.5,6.4,7.1*3C
$GPRMC,211646.000,A,3748.6884,N,12217.9526,W,2.63,216.68,230611,,,A*74
$GPVTG,216.68,T,,M,2.63,N,4.9,K,A*0C
$GPGGA,211647.000,3748.6878,N,12217.9531,W,1,04,6.4,-2.2,M,-25.1,M,,0000*49
$GPGSA,A,3,08,05,10,28,,,,,,,,,9.5,6.4,7.0*3D
$GPRMC,211647.000,A,3748.6878,N,12217.9531,W,2.62,215.40,230611,,,A*78
$GPVTG,215.40,T,,M,2.62,N,4.8,K,A*05
$GPGGA,211648.000,3748.6872,N,12217.9536,W,1,04,6.4,-2.1,M,-25.1,M,,0000*48
$GPGSA,A,3,08,05,10,28,,,,,,,,,9.5,6.4,7.0*3D
$GPRMC,211648.000,A,3748.6872,N,12217.9536,W,2.68,216.36,230611,,,A*72
$GPVTG,216.36,T,,M,2.68,N,5.0,K,A*04
$GPGGA,211649.000,3748.6866,N,12217.9543,W,1,04,6.4,-2.0,M,-25.1,M,,0000*4F
$GPGSA,A,3,08,05,10,28,,,,,,,,,9.5,6.4,7.0*3D
$GPGSV,3,1,12,07,63,040,23,08,60,329,33,28,50,235,36,13,38,144,26*7B
$GPGSV,3,2,12,19,31,065,21,10,24,230,38,05,23,285,39,26,14,317,19*71
$GPGSV,3,3,12,03,12,041,19,23,07,143,18,11,05,117,14,06,02,033,*7D
$GPRMC,211649.000,A,3748.6866,N,12217.9543,W,2.77,214.96,230611,,,A*72
$GPVTG,214.96,T,,M,2.77,N,5.1,K,A*03
$GPGGA,211650.000,3748.6860,N,12217.9548,W,1,04,6.4,-1.9,M,-25.1,M,,0000*40
$GPGSA,A,3,08,05,10,28,,,,,,,,,9.5,6.4,7.0*3D
$GPRMC,211650.000,A,3748.6860,N,12217.9548,W,2.66,217.16,230611,,,A*7C
$GPVTG,217.16,T,,M,2.66,N,4.9,K,A*01
$GPGGA,211651.000,3748.6854,N,12217.9554,W,1,04,6.4,-1.8,M,-25.1,M,,0000*4A
$GPGSA,A,3,08,05,10,28,,,,,,,,,9.5,6.4,7.0*3D
$GPRMC,211651.000,A,3748.6854,N,12217.9554,W,2.59,221.01,230611,,,A*78
$GPVTG,221.01,T,,M,2.59,N,4.8,K,A*0F
$GPGGA,211652.000,3748.6849,N,12217.9560,W,1,04,6.4,-1.8,M,-25.1,M,,0000*42
$GPGSA,A,3,08,05,10,28,,,,,,,,,9.5,6.4,7.0*3D
$GPRMC,211652.000,A,3748.6849,N,12217.9560,W,2.64,221.25,230611,,,A*78
$GPVTG,221.25,T,,M,2.64,N,4.9,K,A*06
$GPGGA,211653.000,3748.6844,N,12217.9566,W,1,04,6.4,-1.7,M,-25.1,M,,0000*47
$GPGSA,A,3,08,05,10,28,,,,,,,,,9.5,6.4,7.0*3D
$GPRMC,211653.000,A,3748.6844,N,12217.9566,W,2.59,219.07,230611,,,A*77
$GPVTG,219.07,T,,M,2.59,N,4.8,K,A*02
$GPGGA,211654.000,3748.6838,N,12217.9572,W,1,04,6.3,-1.6,M,-25.1,M,,0000*48
$GPGSA,A,3,08,05,10,28,,,,,,,,,9.5,6.3,7.0*3A
$GPGSV,3,1,12,07,63,040,23,08,60,329,33,28,50,235,35,13,38,144,26*78
$GPGSV,3,2,12,19,31,065,21,10,24,230,38,05,23,285,39,26,14,317,24*7F
$GPGSV,3,3,12,03,12,041,19,23,07,143,18,11,05,117,14,06,02,033,*7D
$GPRMC,211654.000,A,3748.6838,N,12217.9572,W,2.57,216.19,230611,,,A*70
$GPVTG,216.19,T,,M,2.57,N,4.8,K,A*0C
$GPGGA,211655.000,3748.6832,N,12217.9577,W,1,04,6.3,-1.5,M,-25.1,M,,0000*45
$GPGSA,A,3,08,05,10,28,,,,,,,,,9.4,6.3,7.0*3B
$GPRMC,211655.000,A,3748.6832,N,12217.9577,W,2.65,213.15,230611,,,A*76
$GPVTG,213.15,T,,M,2.65,N,4.9,K,A*05
$GPGGA,211656.000,3748.6825,N,12217.9584,W,2,04,6.3,-1.3,M,-25.1,M,,0000*49
$GPGSA,A,3,08,05,10,28,,,,,,,,,9.4,6.3,7.0*3B
$GPRMC,211656.000,A,3748.6825,N,12217.9584,W,2.64,213.73,230611,,,D*7B
$GPVTG,213.73,T,,M,2.64,N,4.9,K,D*01
$GPGGA,211657.000,3748.6819,N,12217.9591,W,2,04,6.3,-1.2,M,-25.1,M,,0000*42
$GPGSA,A,3,08,05,10,28,,,,,,,,,9.4,6.3,7.0*3B
$GPRMC,211657.000,A,3748.6819,N,12217.9591,W,2.61,212.70,230611,,,D*76
$GPVTG,212.70,T,,M,2.61,N,4.8,K,D*07
$GPGGA,211658.000,3748.6812,N,12217.9598,W,2,04,6.3,-0.9,M,-25.1,M,,0000*45
$GPGSA,A,3,08,05,10,28,,,,,,,,,9.4,6.3,7.0*3B
$GPRMC,211658.000,A,3748.6812,N,12217.9598,W,2.62,212.61,230611,,,D*78
$GPVTG,212.61,T,,M,2.62,N,4.8,K,D*04
$GPGGA,211659.000,3748.6806,N,12217.9605,W,2,04,6.3,-0.6,M,-25.1,M,,0000*49
$GPGSA,A,3,08,05,10,28,,,,,,,,,9.4,6.3,7.0*3B
$GPGSV,3,1,12,07,63,040,23,08,60,329,33,28,50,235,36,13,38,144,25*78
$GPGSV,3,2,12,19,31,065,21,10,24,230,38,05,23,285,39,26,14,317,24*7F
$GPGSV,3,3,12,03,12,041,21,23,07,143,22,11,05,117,20,06,02,033,*78
$GPRMC,211659.000,A,3748.6806,N,12217.9605,W,2.62,213.27,230611,,,D*78
$GPGGA,211700.000,3748.6800,N,12217.9611,W,2,04,6.3,-0.4,M,-25.1,M,2.8,0000*61
$GPGSA,A,3,08,05,10,28,,,,,,,,,9.4,6.3,7.0*3B
$GPRMC,211700.000,A,3748.6800,N,12217.9611,W,2.48,215.49,230611,,,D*70
$GPVTG,215.49,T,,M,2.48,N,4.6,K,D*0F
$GPGGA,211701.000,3748.6794,N,12217.9618,W,2,04,6.3,-0.2,M,-25.1,M,,0000*49
$GPGSA,A,3,08,05,10,28,,,,,,,,,9.4,6.3,7.0*3B
$GPRMC,211701.000,A,3748.6794,N,12217.9618,W,2.56,212.13,230611,,,D*7D
$GPVTG,212.13,T,,M,2.56,N,4.7,K,D*09
$GPGGA,211702.000,3748.6788,N,12217.9624,W,2,04,6.3,0.0,M,-25.1,M,,0000*67
$GPGSA,A,3,08,05,10,28,,,,,,,,,9.4,6.3,7.0*3B
$GPRMC,211702.000,A,3748.6788,N,12217.9624,W,2.58,217.60,230611,,,D*73
$GPVTG,217.60,T,,M,2.58,N,4.8,K,D*09
$GPGGA,211703.000,3748.6782,N,12217.9631,W,2,04,6.3,0.2,M,-25.1,M,,0000*6A
$GPGSA,A,3,08,05,10,28,,,,,,,,,9.4,6.3,7.0*3B
$GPRMC,211703.000,A,3748.6782,N,12217.9631,W,2.56,221.09,230611,,,D*78
$GPVTG,221.09,T,,M,2.56,N,4.7,K,D*02
$GPGGA,211704.000,3748.6777,N,12217.9639,W,2,04,6.3,0.4,M,-25.1,M,,0000*69
$GPGSA,A,3,08,05,10,28,,,,,,,,,9.4,6.3,6.9*33
$GPGSV,3,1,12,07,63,040,23,08,60,329,33,28,50,235,36,13,38,144,25*78
$GPGSV,3,2,12,19,31,065,22,10,24,230,37,05,23,285,39,26,14,317,24*73
$GPGSV,3,3,12,03,12,041,20,23,07,143,21,11,05,117,19,06,02,033,*70
$GPRMC,211704.000,A,3748.6777,N,12217.9639,W,2.51,222.69,230611,,,D*7F
$GPVTG,222.69,T,,M,2.51,N,4.7,K,D*00
$GPGGA,211705.000,3748.6772,N,12217.9646,W,2,04,6.3,0.7,M,-25.1,M,2.8,0000*42
$GPGSA,A,3,08,05,10,28,,,,,,,,,9.4,6.3,6.9*33
$GPRMC,211705.000,A,3748.6772,N,12217.9646,W,2.57,223.29,230611,,,D*70
$GPVTG,223.29,T,,M,2.57,N,4.8,K,D*0C
$GPGGA,211706.000,3748.6766,N,12217.9653,W,2,04,6.3,0.9,M,-25.1,M,3.8,0000*4F
$GPGSA,A,3,08,05,10,28,,,,,,,,,9.4,6.3,6.9*33
$GPRMC,211706.000,A,3748.6766,N,12217.9653,W,2.72,218.79,230611,,,D*78
$GPVTG,218.79,T,,M,2.72,N,5.0,K,D*0F
$GPGGA,211707.000,3748.6760,N,12217.9659,W,2,04,6.3,1.1,M,-25.1,M,,0000*6E
$GPGSA,A,3,08,05,10,28,,,,,,,,,9.3,6.3,6.9*34
$GPRMC,211707.000,A,3748.6760,N,12217.9659,W,2.79,212.77,230611,,,D*7A
$GPVTG,212.77,T,,M,2.79,N,5.2,K,D*02
$GPGGA,211708.000,3748.6753,N,12217.9664,W,2,04,6.3,1.3,M,-25.1,M,2.8,0000*49
$GPGSA,A,3,08,05,10,28,,,,,,,,,9.3,6.3,6.9*34
$GPRMC,211708.000,A,3748.6753,N,12217.9664,W,2.68,209.36,230611,,,D*74
$GPVTG,209.36,T,,M,2.68,N,5.0,K,D*0F
$GPGGA,211709.000,3748.6747,N,12217.9669,W,2,04,6.3,1.3,M,-25.1,M,3.8,0000*41
$GPGSA,A,3,08,05,10,28,,,,,,,,,9.3,6.3,6.9*34
$GPGSV,3,1,12,07,63,040,23,08,60,329,33,28,50,235,35,13,38,144,20*7E
$GPGSV,3,2,12,19,31,065,22,10,24,230,37,05,23,285,39,26,14,317,33*75
$GPGSV,3,3,12,03,12,041,21,23,07,143,21,11,05,117,18,06,02,033,*70
$GPRMC,211709.000,A,3748.6747,N,12217.9669,W,2.62,214.52,230611,,,D*79
$GPVTG,214.52,T,,M,2.62,N,4.8,K,D*02
$GPGGA,211710.000,3748.6741,N,12217.9674,W,2,04,6.3,1.4,M,-25.1,M,4.8,0000*43
$GPGSA,A,3,08,05,10,28,,,,,,,,,9.3,6.3,6.9*34
$GPRMC,211710.000,A,3748.6741,N,12217.9674,W,2.42,214.22,230611,,,D*7E
$GPVTG,214.22,T,,M,2.42,N,4.5,K,D*0A
$GPGGA,211711.000,3748.6736,N,12217.9678,W,2,04,6.3,1.5,M,-25.1,M,5.8,0000*4E
$GPGSA,A,3,08,05,10,28,,,,,,,,,9.3,6.3,6.9*34
$GPRMC,211711.000,A,3748.6736,N,12217.9678,W,2.31,214.55,230611,,,D*77
$GPVTG,214.55,T,,M,2.31,N,4.3,K,D*08
$GPGGA,211712.000,3748.6729,N,12217.9687,W,2,04,6.2,1.7,M,-25.1,M,6.8,0000*43
$GPGSA,A,3,08,05,10,28,,,,,,,,,9.3,6.2,6.9*35
$GPRMC,211712.000,A,3748.6729,N,12217.9687,W,2.28,211.58,230611,,,D*7A
$GPVTG,211.58,T,,M,2.28,N,4.2,K,D*09
$GPGGA,211713.000,3748.6722,N,12217.9695,W,2,04,6.2,2.2,M,-25.1,M,7.8,0000*4D
$GPGSA,A,3,08,05,10,28,,,,,,,,,9.3,6.2,6.9*35
$GPRMC,211713.000,A,3748.6722,N,12217.9695,W,1.82,204.30,230611,,,D*7A
$GPVTG,204.30,T,,M,1.82,N,3.4,K,D*01
$GPGGA,211714.000,3748.6719,N,12217.9694,W,2,04,6.2,2.2,M,-25.1,M,8.8,0000*4C
$GPGSA,A,3,08,05,10,28,,,,,,,,,9.3,6.2,6.9*35
$GPGSV,3,1,12,07,63,040,22,08,60,329,30,28,50,235,32,13,38,144,19*71
$GPGSV,3,2,12,19,31,065,21,10,24,230,31,05,23,285,39,26,14,317,27*75
$GPGSV,3,3,12,03,12,041,21,23,07,143,14,11,05,117,17,06,02,033,*79
$GPVTG,197.39,T,,M,1.63,N,3.0,K,D*0A
$GPGGA,211715.000,3748.6714,N,12217.9696,W,2,04,6.2,2.3,M,-25.1,M,9.8,0000*42
$GPGSA,A,3,08,05,10,28,,,,,,,,,9.3,6.2,6.9*35
$GPRMC,211715.000,A,3748.6714,N,12217.9696,W,2.09,202.58,230611,,,D*72
$GPVTG,202.58,T,,M,2.09,N,3.9,K,D*04
$GPGGA,211716.000,3748.6707,N,12217.9694,W,2,04,6.2,1.0,M,-25.1,M,10.8,0000*79
$GPGSA,A,3,08,05,10,28,,,,,,,,,9.3,6.2,6.9*35
$GPRMC,211716.000,A,3748.6707,N,12217.9694,W,2.53,211.81,230611,,,D*78
$GPVTG,211.81,T,,M,2.53,N,4.7,K,D*04
$GPGGA,211717.000,3748.6701,N,12217.9701,W,2,04,6.2,1.2,M,-25.1,M,11.8,0000*70
$GPGSA,A,3,08,05,10,28,,,,,,,,,9.3,6.2,6.9*35
$GPRMC,211717.000,A,3748.6701,N,12217.9701,W,2.41,220.45,230611,,,D*7B
$GPVTG,220.45,T,,M,2.41,N,4.5,K,D*0F
$GPGGA,211718.000,3748.6697,N,12217.9706,W,2,04,6.2,1.4,M,-25.1,M,12.8,0000*73
$GPGSA,A,3,08,05,10,28,,,,,,,,,9.3,6.2,6.9*35
$GPRMC,211718.000,A,3748.6697,N,12217.9706,W,2.28,215.33,230611,,,D*75
$GPVTG,215.33,T,,M,2.28,N,4.2,K,D*00
$GPGGA,211719.000,3748.6692,N,12217.9709,W,2,04,6.2,1.5,M,-25.1,M,13.8,0000*78
$GPGSA,A,3,08,05,10,28,,,,,,,,,9.2,6.2,6.9*34
$GPGSV,3,1,12,07,63,040,23,08,60,329,31,28,50,235,34,13,38,144,25*78
$GPGSV,3,2,12,19,31,065,21,10,24,230,30,05,23,285,39,26,14,317,24*77
$GPGSV,3,3,12,03,12,041,20,23,07,143,18,11,05,117,16,06,02,033,*75
$GPRMC,211719.000,A,3748.6692,N,12217.9709,W,2.27,198.82,230611,,,D*7D
$GPVTG,198.82,T,,M,2.27,N,4.2,K,D*03
$GPGGA,211720.000,3748.6688,N,12217.9712,W,2,04,6.2,1.7,M,-25.1,M,14.8,0000*76
$GPGSA,A,3,08,05,10,28,,,,,,,,,9.2,6.2,6.9*34
$GPRMC,211720.000,A,3748.6688,N,12217.9712,W,1.83,205.81,230611,,,D*7F
$GPVTG,205.81,T,,M,1.83,N,3.4,K,D*0B
$GPGGA,211721.000,3748.6683,N,12217.9716,W,2,04,6.2,1.7,M,-25.1,M,15.8,0000*79
$GPGSA,A,3,08,05,10,28,,,,,,,,,9.2,6.2,6.8*35
$GPRMC,211721.000,A,3748.6683,N,12217.9716,W,1.93,207.00,230611,,,D*7B
$GPVTG,207.00,T,,M,1.93,N,3.6,K,D*03
$GPGGA,211722.000,3748.6680,N,12217.9713,W,2,04,6.2,-0.1,M,-25.1,M,16.8,0000*55
$GPGSA,A,3,08,05,10,28,,,,,,,,,9.2,6.2,6.8*35
$GPRMC,211722.000,A,3748.6680,N,12217.9713,W,2.34,224.84,230611,,,D*7D
$GPVTG,224.84,T,,M,2.34,N,4.3,K,D*02
$GPGGA,211723.000,3748.6675,N,12217.9719,W,2,04,6.2,-0.4,M,-25.1,M,17.8,0000*50
$GPGSA,A,3,08,05,10,28,,,,,,,,,9.2,6.2,6.8*35
$GPRMC,211723.000,A,3748.6675,N,12217.9719,W,2.52,224.51,230611,,,D*74
$GPVTG,224.51,T,,M,2.52,N,4.7,K,D*0E
$GPGGA,211724.000,3748.6671,N,12217.9717,W,1,04,6.2,-1.9,M,-25.1,M,,0000*42
$GPGSA,A,3,08,05,10,28,,,,,,,,,9.2,6.2,6.8*35
$GPGSV,3,1,12,07,63,040,23,08,60,329,33,28,50,235,22,13,38,144,25*7D
$GPGSV,3,2,12,19,31,065,21,10,24,230,29,05,23,285,39,26,14,317,24*7F
$GPGSV,3,3,12,03,12,041,19,23,07,143,19,11,05,117,17,06,02,033,*7F
$GPRMC,211724.000,A,3748.6671,N,12217.9717,W,2.48,212.15,230611,,,A*72
$GPVTG,212.15,T,,M,2.48,N,4.6,K,A*04
$GPGGA,211725.000,3748.6670,N,12217.9694,W,1,04,6.2,-7.4,M,-25.1,M,,0000*43
$GPGSA,A,3,08,05,10,28,,,,,,,,,9.2,6.2,6.8*35
$GPRMC,211725.000,A,3748.6670,N,12217.9694,W,1.83,212.39,230611,,,A*72
$GPVTG,212.39,T,,M,1.83,N,3.4,K,A*0B
$GPGGA,211726.000,3748.6666,N,12217.9687,W,1,04,6.2,-10.3,M,-25.1,M,,0000*74
$GPGSA,A,3,08,05,10,28,,,,,,,,,9.2,6.2,6.8*35
$GPRMC,211726.000,A,3748.6666,N,12217.9687,W,2.08,209.22,230611,,,A*74
$GPVTG,209.22,T,,M,2.08,N,3.8,K,A*07
$GPGGA,211727.000,3748.6660,N,12217.9683,W,1,04,6.2,-12.4,M,-25.1,M,,0000*72
$GPGSA,A,3,08,05,10,28,,,,,,,,,9.2,6.2,6.8*35
$GPRMC,211727.000,A,3748.6660,N,12217.9683,W,2.07,207.05,230611,,,A*73
$GPVTG,207.05,T,,M,2.07,N,3.8,K,A*03
$GPGGA,211728.000,3748.6655,N,12217.9675,W,1,04,6.2,-15.2,M,-25.1,M,,0000*73
$GPGSA,A,3,08,05,10,28,,,,,,,,,9.2,6.2,6.8*35
$GPRMC,211728.000,A,3748.6655,N,12217.9675,W,2.34,195.03,230611,,,A*7D
$GPVTG,195.03,T,,M,2.34,N,4.3,K,A*01
$GPGGA,211729.000,3748.6650,N,12217.9672,W,1,04,6.2,-16.5,M,-25.1,M,,0000*74
$GPGSA,A,3,08,05,10,28,,,,,,,,,9.2,6.2,6.8*35
$GPGSV,3,1,12,07,63,040,22,08,60,329,28,28,50,235,25,13,38,144,25*71
$GPGSV,3,2,12,19,31,065,20,10,24,230,37,05,23,285,39,26,14,317,35*71
$GPGSV,3,3,12,03,12,041,20,23,07,143,18,11,05,117,19,06,02,033,*7A
$GPVTG,184.95,T,,M,2.09,N,3.9,K,A*0D
$GPGGA,211730.000,3748.6641,N,12217.9684,W,1,04,6.1,-15.0,M,-25.1,M,,0000*70
$GPGSA,A,3,08,05,10,28,,,,,,,,,9.2,6.1,6.8*36
$GPRMC,211730.000,A,3748.6641,N,12217.9684,W,2.03,178.66,230611,,,A*7B
$GPVTG,178.66,T,,M,2.03,N,3.8,K,A*09
$GPGGA,211731.000,3748.6635,N,12217.9682,W,1,04,6.1,-15.3,M,-25.1,M,,0000*77
$GPGSA,A,3,08,05,10,28,,,,,,,,,9.2,6.1,6.8*36
$GPRMC,211731.000,A,3748.6635,N,12217.9682,W,2.11,172.04,230611,,,A*72
$GPVTG,172.04,T,,M,2.11,N,3.9,K,A*05
$GPGGA,211732.000,3748.6629,N,12217.9686,W,1,04,6.1,-15.6,M,-25.1,M,,0000*78
$GPGSA,A,3,08,05,10,28,,,,,,,,,9.1,6.1,6.8*35
$GPRMC,211732.000,A,3748.6629,N,12217.9686,W,1.85,176.05,230611,,,A*73
$GPVTG,176.05,T,,M,1.85,N,3.4,K,A*03
$GPGGA,211733.000,3748.6621,N,12217.9691,W,1,04,6.1,-15.4,M,-25.1,M,,0000*75
$GPGSA,A,3,08,05,10,28,,,,,,,,,9.1,6.1,6.8*35
$GPRMC,211733.000,A,3748.6621,N,12217.9691,W,2.03,167.63,230611,,,A*71
$GPVTG,167.63,T,,M,2.03,N,3.8,K,A*02
$GPGGA,211734.000,3748.6613,N,12217.9701,W,1,04,6.1,-14.1,M,-25.1,M,,0000*7F
$GPGSA,A,3,08,05,10,28,,,,,,,,,9.1,6.1,6.8*35
$GPGSV,3,1,12,07,63,040,22,08,60,329,23,28,50,235,29,13,38,144,20*73
$GPGSV,3,2,12,19,31,065,20,10,24,230,32,05,23,285,34,26,14,317,33*7F
$GPGSV,3,3,12,03,12,041,19,23,07,143,18,11,05,117,20,06,02,033,*7A
$GPRMC,211734.000,A,3748.6613,N,12217.9701,W,1.94,162.27,230611,,,A*77
$GPVTG,162.27,T,,M,1.94,N,3.6,K,A*04
$GPGGA,211735.000,3748.6611,N,12217.9692,W,1,04,6.1,-14.9,M,-25.1,M,,0000*7F
$GPGSA,A,3,08,05,10,28,,,,,,,,,9.1,6.1,6.8*35
$GPRMC,211735.000,A,3748.6611,N,12217.9692,W,1.68,155.47,230611,,,A*7E
$GPVTG,155.47,T,,M,1.68,N,3.1,K,A*02
$GPGGA,211736.000,3748.6603,N,12217.9702,W,1,04,6.1,-14.5,M,-25.1,M,,0000*7B
$GPGSA,A,3,08,05,10,28,,,,,,,,,9.1,6.1,6.8*35
$GPRMC,211736.000,A,3748.6603,N,12217.9702,W,2.04,182.52,230611,,,A*71
$GPVTG,182.52,T,,M,2.04,N,3.8,K,A*0C
$GPGGA,211737.000,3748.6594,N,12217.9710,W,1,04,6.1,-13.7,M,-25.1,M,,0000*71
$GPGSA,A,3,08,05,10,28,,,,,,,,,9.1,6.1,6.8*35
$GPRMC,211737.000,A,3748.6594,N,12217.9710,W,2.08,164.32,230611,,,A*7C
$GPVTG,164.32,T,,M,2.08,N,3.9,K,A*0F
$GPGGA,211738.000,3748.6586,N,12217.9718,W,1,04,6.1,-12.9,M,-25.1,M,,0000*7A
$GPGSA,A,3,08,05,10,28,,,,,,,,,9.1,6.1,6.7*3A
$GPRMC,211738.000,A,3748.6586,N,12217.9718,W,2.25,159.75,230611,,,A*7A
$GPVTG,159.75,T,,M,2.25,N,4.2,K,A*01
$GPGGA,211739.000,3748.6577,N,12217.9729,W,1,04,6.1,-12.3,M,-25.1,M,,0000*7D
$GPGSA,A,3,08,05,10,28,,,,,,,,,9.1,6.1,6.7*3A
$GPGSV,3,1,12,07,63,040,21,08,60,329,27,28,50,235,37,13,38,144,21*7A
$GPGSV,3,2,12,19,31,065,19,10,24,230,38,05,23,285,36,26,14,317,24*7B
$GPGSV,3,3,12,03,12,041,19,23,07,143,17,11,05,117,18,06,02,033,*7E
$GPRMC,211739.000,A,3748.6577,N,12217.9729,W,2.25,186.64,230611,,,A*75
$GPVTG,186.64,T,,M,2.25,N,4.2,K,A*03
$GPGGA,211740.000,3748.6569,N,12217.9738,W,1,04,6.1,-11.8,M,-25.1,M,,0000*74
$GPGSA,A,3,08,05,10,28,,,,,,,,,9.1,6.1,6.7*3A
$GPRMC,211740.000,A,3748.6569,N,12217.9738,W,2.03,190.95,230611,,,A*79
$GPVTG,190.95,T,,M,2.03,N,3.8,K,A*03
$GPGGA,211741.000,3748.6562,N,12217.9746,W,1,04,6.1,-11.2,M,-25.1,M,,0000*7D
$GPGSA,A,3,08,05,10,28,,,,,,,,,9.1,6.1,6.7*3A
$GPRMC,211741.000,A,3748.6562,N,12217.9746,W,2.17,195.76,230611,,,A*77
$GPVTG,195.76,T,,M,2.17,N,4.0,K,A*01
$GPGGA,211742.000,3748.6555,N,12217.9756,W,1,04,6.1,-10.6,M,-25.1,M,,0000*7E
$GPGSA,A,3,08,05,10,28,,,,,,,,,9.1,6.1,6.7*3A
$GPRMC,211742.000,A,3748.6555,N,12217.9756,W,2.41,202.93,230611,,,A*74
$GPVTG,202.93,T,,M,2.41,N,4.5,K,A*01
$GPGGA,211743.000,3748.6548,N,12217.9766,W,1,04,6.1,-9.9,M,-25.1,M,,0000*47
$GPGSA,A,3,08,05,10,28,,,,,,,,,9.1,6.1,6.7*3A
$GPRMC,211743.000,A,3748.6548,N,12217.9766,W,2.55,211.28,230611,,,A*7D
$GPVTG,211.28,T,,M,2.55,N,4.7,K,A*04
$GPGGA,211744.000,3748.6541,N,12217.9778,W,1,04,6.1,-9.1,M,-25.1,M,,0000*4E
$GPGSA,A,3,08,05,10,28,,,,,,,,,9.1,6.1,6.7*3A
$GPGSV,3,1,12,07,63,040,21,08,60,329,35,28,50,235,31,13,38,144,21*7F
$GPGSV,3,2,12,19,31,065,19,10,24,230,32,05,23,285,38,26,14,317,24*7F
$GPGSV,3,3,12,03,12,041,18,23,07,143,16,11,05,117,17,06,02,033,*71
$GPRMC,211744.000,A,3748.6541,N,12217.9778,W,2.79,214.31,230611,,,A*7F
$GPGGA,211745.000,3748.6531,N,12217.9802,W,1,04,6.1,-6.8,M,-25.1,M,,0000*4C
$GPGSA,A,3,08,05,10,28,,,,,,,,,9.0,6.1,6.7*3B
$GPRMC,211745.000,A,3748.6531,N,12217.9802,W,2.58,213.01,230611,,,A*7C
$GPVTG,213.01,T,,M,2.58,N,4.8,K,A*0F
$GPGGA,211746.000,3748.6526,N,12217.9805,W,1,04,6.1,-6.3,M,-25.1,M,,0000*45
$GPGSA,A,3,08,05,10,28,,,,,,,,,9.0,6.1,6.7*3B
$GPRMC,211746.000,A,3748.6526,N,12217.9805,W,2.24,207.24,230611,,,A*77
$GPVTG,207.24,T,,M,2.24,N,4.1,K,A*0F
$GPGGA,211747.000,3748.6519,N,12217.9814,W,1,04,6.1,-5.5,M,-25.1,M,,0000*4D
$GPGSA,A,3,08,05,10,28,,,,,,,,,9.0,6.1,6.7*3B
$GPRMC,211747.000,A,3748.6519,N,12217.9814,W,2.66,213.38,230611,,,A*74
$GPVTG,213.38,T,,M,2.66,N,4.9,K,A*09
$GPGGA,211748.000,3748.6512,N,12217.9822,W,1,04,6.1,-4.7,M,-25.1,M,,0000*4F
$GPGSA,A,3,08,05,10,28,,,,,,,,,9.0,6.1,6.7*3B
$GPRMC,211748.000,A,3748.6512,N,12217.9822,W,2.84,211.18,230611,,,A*79
$GPVTG,211.18,T,,M,2.84,N,5.3,K,A*0E
$GPGGA,211749.000,3748.6505,N,12217.9831,W,1,04,6.1,-3.8,M,-25.1,M,,0000*42
$GPGSA,A,3,08,05,10,28,,,,,,,,,9.0,6.1,6.7*3B
$GPGSV,3,1,12,07,63,040,22,08,60,329,31,28,50,235,35,13,38,144,21*7C
$GPGSV,3,2,12,19,31,065,18,10,24,230,36,05,23,285,38,26,14,317,24*7A
$GPGSV,3,3,12,03,12,041,18,23,07,143,16,11,05,117,16,06,02,033,*70
$GPRMC,211749.000,A,3748.6505,N,12217.9831,W,2.98,209.86,230611,,,A*7F
$GPVTG,209.86,T,,M,2.98,N,5.5,K,A*0B
$GPGGA,211750.000,3748.6498,N,12217.9839,W,1,04,6.0,-3.0,M,-25.1,M,,0000*4E
$GPGSA,A,3,08,05,10,28,,,,,,,,,9.0,6.0,6.7*3A
$GPRMC,211750.000,A,3748.6498,N,12217.9839,W,2.86,213.99,230611,,,A*70
$GPVTG,213.99,T,,M,2.86,N,5.3,K,A*07
$GPGGA,211751.000,3748.6491,N,12217.9846,W,1,04,6.0,-2.4,M,-25.1,M,,0000*4B
$GPGSA,A,3,08,05,10,28,,,,,,,,,9.0,6.0,6.7*3A
$GPRMC,211751.000,A,3748.6491,N,12217.9846,W,2.81,216.64,230611,,,A*70
$GPVTG,216.64,T,,M,2.81,N,5.2,K,A*06
$GPGGA,211752.000,3748.6484,N,12217.9856,W,2,04,6.0,-1.5,M,-25.1,M,,0000*4C
$GPGSA,A,3,08,05,10,28,,,,,,,,,9.0,6.0,6.7*3A
$GPRMC,211752.000,A,3748.6484,N,12217.9856,W,2.93,219.15,230611,,,D*79
$GPVTG,219.15,T,,M,2.93,N,5.4,K,D*0F
$GPGGA,211753.000,3748.6478,N,12217.9865,W,2,04,6.0,-0.8,M,-25.1,M,2.8,0000*66
$GPGSA,A,3,08,05,10,28,,,,,,,,,9.0,6.0,6.7*3A
$GPRMC,211753.000,A,3748.6478,N,12217.9865,W,2.72,220.93,230611,,,D*70
$GPVTG,220.93,T,,M,2.72,N,5.0,K,D*00
$GPGGA,211754.000,3748.6471,N,12217.9874,W,2,04,6.0,-0.2,M,-25.1,M,3.8,0000*63
$GPGSA,A,3,08,05,10,28,,,,,,,,,9.0,6.0,6.7*3A
$GPGSV,3,1,12,07,63,040,23,08,60,329,32,28,50,235,35,13,38,144,24*7B
$GPGSV,3,2,12,19,31,065,18,10,24,230,37,05,23,285,38,26,14,317,24*7B
$GPGSV,3,3,12,03,12,041,17,23,07,143,16,11,05,117,15,06,02,033,*7C
$GPRMC,211754.000,A,3748.6471,N,12217.9874,W,2.99,222.39,230611,,,D*79
$GPVTG,222.39,T,,M,2.99,N,5.5,K,D*02
$GPGGA,211755.000,3748.6465,N,12217.9883,W,2,04,6.0,0.5,M,-25.1,M,4.8,0000*42
$GPGSA,A,3,08,05,10,28,,,,,,,,,9.0,6.0,6.7*3A
$GPRMC,211755.000,A,3748.6465,N,12217.9883,W,2.92,224.29,230611,,,D*79
$GPVTG,224.29,T,,M,2.92,N,5.4,K,D*0F
$GPGGA,211756.000,3748.6458,N,12217.9892,W,2,04,6.0,1.1,M,-25.1,M,,0000*68
$GPGSA,A,3,08,05,10,28,,,,,,,,,9.0,6.0,6.6*3B
$GPRMC,211756.000,A,3748.6458,N,12217.9892,W,2.91,222.90,230611,,,D*73
$GPVTG,222.90,T,,M,2.91,N,5.4,K,D*08
$GPGGA,211757.000,3748.6452,N,12217.9899,W,2,04,6.0,1.6,M,-25.1,M,,0000*6F
$GPGSA,A,3,08,05,10,28,,,,,,,,,9.0,6.0,6.6*3B
$GPRMC,211757.000,A,3748.6452,N,12217.9899,W,2.81,221.84,230611,,,D*74
$GPVTG,221.84,T,,M,2.81,N,5.2,K,D*09
$GPGGA,211758.000,3748.6446,N,12217.9906,W,2,04,6.0,2.1,M,-25.1,M,,0000*66
$GPGSA,A,3,08,05,10,28,,,,,,,,,9.0,6.0,6.6*3B
$GPRMC,211758.000,A,3748.6446,N,12217.9906,W,2.90,221.83,230611,,,D*7E
$GPVTG,221.83,T,,M,2.90,N,5.4,K,D*08
$GPGGA,211759.000,3748.6439,N,12217.9913,W,2,04,6.0,2.4,M,-25.1,M,2.8,0000*4A
$GPGSA,A,3,08,05,10,28,,,,,,,,,8.9,6.0,6.6*33
$GPGSV,3,1,12,07,63,040,23,08,60,329,33,28,50,235,35,13,38,144,23*7D
$GPGSV,3,2,12,19,31,065,19,10,24,230,35,05,23,285,38,26,14,317,25*79
$GPGSV,3,3,12,03,12,041,17,23,07,143,16,11,05,117,14,06,02,033,*7D
$GPRMC,211759.000,A,3748.6439,N,12217.9913,W,2.95,217.03,230611,,,D*7B
$GPGGA,211800.000,3748.6432,N,12217.9919,W,2,04,6.0,2.9,M,-25.1,M,3.8,0000*44
$GPGSA,A,3,08,05,10,28,,,,,,,,,8.9,6.0,6.6*33
$GPRMC,211800.000,A,3748.6432,N,12217.9919,W,2.96,215.40,230611,,,D*7F
$GPVTG,215.40,T,,M,2.96,N,5.5,K,D*07
$GPGGA,211801.000,3748.6425,N,12217.9926,W,2,04,6.0,3.3,M,-25.1,M,4.8,0000*43
$GPGSA,A,3,08,05,10,28,,,,,,,,,8.9,6.0,6.6*33
$GPRMC,211801.000,A,3748.6425,N,12217.9926,W,2.98,217.78,230611,,,D*73
$GPVTG,217.78,T,,M,2.98,N,5.5,K,D*00
$GPGGA,211802.000,3748.6419,N,12217.9932,W,2,04,6.0,3.6,M,-25.1,M,,0000*6D
$GPGSA,A,3,08,05,10,28,,,,,,,,,8.9,6.0,6.6*33
$GPRMC,211802.000,A,3748.6419,N,12217.9932,W,2.69,221.53,230611,,,D*78
$GPVTG,221.53,T,,M,2.69,N,5.0,K,D*07
$GPGGA,211803.000,3748.6413,N,12217.9938,W,2,04,6.0,3.9,M,-25.1,M,,0000*63
$GPGSA,A,3,08,05,10,28,,,,,,,,,8.9,6.0,6.6*33
$GPRMC,211803.000,A,3748.6413,N,12217.9938,W,2.96,219.85,230611,,,D*79
$GPVTG,219.85,T,,M,2.96,N,5.5,K,D*02
$GPGGA,211804.000,3748.6406,N,12217.9945,W,2,04,6.0,4.2,M,-25.1,M,,0000*66
$GPGSA,A,3,08,05,10,28,,,,,,,,,8.9,6.0,6.6*33
$GPGSV,3,1,12,07,63,040,23,08,60,329,32,28,50,235,35,13,38,144,20*7F
$GPGSV,3,2,12,19,31,065,19,10,24,230,35,05,23,285,38,26,14,317,33*7E
$GPGSV,3,3,12,03,12,041,17,23,07,143,21,11,05,117,14,06,02,033,*79
$GPRMC,211804.000,A,3748.6406,N,12217.9945,W,3.01,221.84,230611,,,D*75
$GPVTG,221.84,T,,M,3.01,N,5.6,K,D*04
$GPGGA,211805.000,3748.6400,N,12217.9952,W,2,04,6.0,4.4,M,-25.1,M,,0000*61
$GPGSA,A,3,08,05,10,28,,,,,,,,,8.9,6.0,6.6*33
$GPRMC,211805.000,A,3748.6400,N,12217.9952,W,2.97,222.84,230611,,,D*79
$GPVTG,222.84,T,,M,2.97,N,5.5,K,D*0A
$GPGGA,211806.000,3748.6394,N,12217.9958,W,2,04,6.0,4.6,M,-25.1,M,2.8,0000*44
$GPGSA,A,3,08,05,10,28,,,,,,,,,8.9,6.0,6.6*33
$GPRMC,211806.000,A,3748.6394,N,12217.9958,W,2.90,221.35,230611,,,D*74
$GPVTG,221.35,T,,M,2.90,N,5.4,K,D*05
$GPGGA,211807.000,3748.6388,N,12217.9964,W,2,04,6.0,4.8,M,-25.1,M,3.8,0000*48
$GPGSA,A,3,08,05,10,28,,,,,,,,,8.9,6.0,6.6*33
$GPRMC,211807.000,A,3748.6388,N,12217.9964,W,2.92,222.78,230611,,,D*7F
$GPVTG,222.78,T,,M,2.92,N,5.4,K,D*0D
$GPGGA,211808.000,3748.6382,N,12217.9971,W,2,04,6.0,4.9,M,-25.1,M,,0000*6D
$GPGSA,A,3,08,05,10,28,,,,,,,,,8.9,6.0,6.6*33
$GPRMC,211808.000,A,3748.6382,N,12217.9971,W,3.12,223.70,230611,,,D*7E
$GPVTG,223.70,T,,M,3.12,N,5.8,K,D*01
$GPGGA,211809.000,3748.6376,N,12217.9977,W,2,04,6.0,5.1,M,-25.1,M,,0000*68
$GPGSA,A,3,08,05,10,28,,,,,,,,,8.9,6.0,6.6*33
$GPGSV,3,1,12,07,63,040,23,08,60,329,33,28,50,235,36,13,38,144,21*7C
$GPGSV,3,2,12,19,31,065,20,10,24,230,36,05,23,285,38,26,14,317,24*71
$GPGSV,3,3,12,03,12,041,17,23,07,143,21,11,05,117,13,06,02,033,*7E
$GPRMC,211809.000,A,3748.6376,N,12217.9977,W,3.18,220.21,230611,,,D*7F
$GPVTG,220.21,T,,M,3.18,N,5.9,K,D*0D
$GPGGA,211810.000,3748.6369,N,12217.9982,W,2,04,5.9,5.1,M,-25.1,M,,0000*6E
$GPGSA,A,3,08,05,10,28,,,,,,,,,8.9,5.9,6.6*39
$GPRMC,211810.000,A,3748.6369,N,12217.9982,W,3.05,218.06,230611,,,D*71
$GPVTG,218.06,T,,M,3.05,N,5.7,K,D*01
$GPGGA,211811.000,3748.6362,N,12217.9987,W,2,04,5.9,5.0,M,-25.1,M,,0000*60
$GPGSA,A,3,08,05,10,28,,,,,,,,,8.9,5.9,6.6*39
$GPRMC,211811.000,A,3748.6362,N,12217.9987,W,3.00,217.29,230611,,,D*79
$GPVTG,217.29,T,,M,3.00,N,5.5,K,D*04
$GPGGA,211812.000,3748.6355,N,12217.9992,W,2,04,5.9,5.0,M,-25.1,M,,0000*63
$GPGSA,A,3,08,05,10,28,,,,,,,,,8.9,5.9,6.6*39
$GPRMC,211812.000,A,3748.6355,N,12217.9992,W,3.05,218.04,230611,,,D*7F
$GPVTG,218.04,T,,M,3.05,N,5.7,K,D*03
$GPGGA,211813.000,3748.6349,N,12217.9997,W,2,04,5.9,4.9,M,-25.1,M,2.8,0000*46
$GPGSA,A,3,08,05,10,28,,,,,,,,,8.8,5.9,6.6*38
$GPRMC,211813.000,A,3748.6349,N,12217.9997,W,3.10,220.30,230611,,,D*7E
$GPVTG,220.30,T,,M,3.10,N,5.7,K,D*0B
$GPGGA,211814.000,3748.6341,N,12218.0005,W,2,04,5.9,5.5,M,-25.1,M,,0000*64
$GPGSA,A,3,08,05,10,28,,,,,,,,,8.8,5.9,6.6*38
$GPGSV,3,1,12,07,63,041,23,08,60,330,33,28,50,235,36,13,37,144,26*7D
$GPGSV,3,2,12,19,31,064,20,10,24,229,37,05,23,284,27,26,14,317,28*7A
$GPGSV,3,3,12,03,11,041,17,23,06,144,20,11,05,116,,06,02,033,*79
$GPRMC,211814.000,A,3748.6341,N,12218.0005,W,3.07,217.07,230611,,,D*73
$GPGGA,211815.000,3748.6334,N,12218.0013,W,2,04,5.9,6.0,M,-25.1,M,2.8,0000*42
$GPGSA,A,3,08,05,10,28,,,,,,,,,8.8,5.9,6.5*3B
$GPRMC,211815.000,A,3748.6334,N,12218.0013,W,3.03,217.33,230611,,,D*74
$GPVTG,217.33,T,,M,3.03,N,5.6,K,D*0F
$GPGGA,211816.000,3748.6328,N,12218.0025,W,2,04,5.9,6.8,M,-25.1,M,,0000*65
$GPGSA,A,3,08,05,10,28,,,,,,,,,8.8,5.9,6.5*3B
$GPRMC,211816.000,A,3748.6328,N,12218.0025,W,3.12,225.62,230611,,,D*7A
$GPVTG,225.62,T,,M,3.12,N,5.8,K,D*04
$GPGGA,211817.000,3748.6318,N,12218.0022,W,2,04,5.9,6.9,M,-25.1,M,,0000*61
$GPGSA,A,3,08,05,10,28,,,,,,,,,8.8,5.9,6.5*3B
$GPRMC,211817.000,A,3748.6318,N,12218.0022,W,2.96,207.17,230611,,,D*70
$GPVTG,207.17,T,,M,2.96,N,5.5,K,D*06
$GPGGA,211818.000,3748.6312,N,12218.0030,W,2,04,5.9,7.6,M,-25.1,M,2.8,0000*4D
$GPGSA,A,3,08,05,10,28,,,,,,,,,8.8,5.9,6.5*3B
$GPRMC,211818.000,A,3748.6312,N,12218.0030,W,3.03,223.72,230611,,,D*7E
$GPVTG,223.72,T,,M,3.03,N,5.6,K,D*0D
$GPGGA,211819.000,3748.6303,N,12218.0027,W,2,04,5.9,7.6,M,-25.1,M,3.8,0000*4B
$GPGSA,A,3,08,05,10,28,,,,,,,,,8.8,5.9,6.5*3B
$GPGSV,3,1,12,07,63,041,23,08,60,330,33,28,50,235,36,13,37,144,26*7D
$GPGSV,3,2,12,19,31,064,20,10,24,229,37,05,23,284,26,26,14,317,31*73
$GPGSV,3,3,12,03,11,041,17,23,06,144,20,11,05,116,,06,02,033,*79
$GPRMC,211819.000,A,3748.6303,N,12218.0027,W,2.85,218.86,230611,,,D*75
$GPVTG,218.86,T,,M,2.85,N,5.3,K,D*04
$GPGGA,211820.000,3748.6292,N,12218.0020,W,2,04,5.9,7.5,M,-25.1,M,,0000*69
$GPGSA,A,3,08,05,10,28,,,,,,,,,8.8,5.9,6.5*3B
$GPRMC,211820.000,A,3748.6292,N,12218.0020,W,2.85,212.60,230611,,,D*73
$GPVTG,212.60,T,,M,2.85,N,5.3,K,D*06
$GPGGA,211821.000,3748.6283,N,12218.0017,W,2,04,5.9,7.6,M,-25.1,M,,0000*6F
$GPGSA,A,3,08,05,10,28,,,,,,,,,8.8,5.9,6.5*3B
$GPRMC,211821.000,A,3748.6283,N,12218.0017,W,2.75,214.20,230611,,,D*7B
$GPVTG,214.20,T,,M,2.75,N,5.1,K,D*09
$GPGGA,211822.000,3748.6277,N,12218.0024,W,2,04,5.9,8.0,M,-25.1,M,,0000*6E
$GPGSA,A,3,08,05,10,28,,,,,,,,,8.8,5.9,6.5*3B
$GPRMC,211822.000,A,3748.6277,N,12218.0024,W,2.93,217.21,230611,,,D*79
$GPVTG,217.21,T,,M,2.93,N,5.4,K,D*06
$GPGGA,211823.000,3748.6269,N,12218.0028,W,2,04,5.9,8.2,M,-25.1,M,2.8,0000*4A
$GPGSA,A,3,08,05,10,28,,,,,,,,,8.8,5.9,6.5*3B
$GPRMC,211823.000,A,3748.6269,N,12218.0028,W,2.98,216.46,230611,,,D*70
$GPVTG,216.46,T,,M,2.98,N,5.5,K,D*0C
$GPGGA,211824.000,3748.6260,N,12218.0027,W,2,04,5.9,8.2,M,-25.1,M,3.8,0000*4A
$GPGSA,A,3,08,05,10,28,,,,,,,,,8.8,5.9,6.5*3B
$GPGSV,3,1,12,07,63,041,22,08,60,330,33,28,50,235,36,13,37,144,21*7B
$GPGSV,3,2,12,19,31,064,24,10,24,229,37,05,23,284,27,26,14,317,21*77
$GPGSV,3,3,12,03,11,041,17,23,06,144,20,11,05,116,,06,02,033,*79
$GPRMC,211824.000,A,3748.6260,N,12218.0027,W,2.97,212.17,230611,,,D*7E
$GPVTG,212.17,T,,M,2.97,N,5.5,K,D*03
$GPGGA,211825.000,3748.6253,N,12218.0032,W,2,04,5.9,8.4,M,-25.1,M,4.8,0000*4E
$GPGSA,A,3,08,05,10,28,,,,,,,,,8.8,5.9,6.5*3B
$GPRMC,211825.000,A,3748.6253,N,12218.0032,W,3.01,214.22,230611,,,D*75
$GPVTG,214.22,T,,M,3.01,N,5.6,K,D*0E
$GPGGA,211826.000,3748.6245,N,12218.0037,W,2,04,5.9,8.5,M,-25.1,M,5.8,0000*4F
$GPGSA,A,3,08,05,10,28,,,,,,,,,8.8,5.9,6.5*3B
$GPRMC,211826.000,A,3748.6245,N,12218.0037,W,2.86,211.39,230611,,,D*75
$GPVTG,211.39,T,,M,2.86,N,5.3,K,D*0A
$GPGGA,211827.000,3748.6239,N,12218.0048,W,2,04,5.9,8.9,M,-25.1,M,6.8,0000*42
$GPGSA,A,3,08,05,10,28,,,,,,,,,8.7,5.9,6.5*34
$GPRMC,211827.000,A,3748.6239,N,12218.0048,W,3.04,211.92,230611,,,D*7D
$GPVTG,211.92,T,,M,3.04,N,5.6,K,D*05
$GPGGA,211828.000,3748.6232,N,12218.0055,W,2,04,5.9,9.2,M,-25.1,M,7.8,0000*41
$GPGSA,A,3,08,05,10,28,,,,,,,,,8.7,5.9,6.5*34
$GPRMC,211828.000,A,3748.6232,N,12218.0055,W,3.02,208.67,230611,,,D*71
$GPVTG,208.67,T,,M,3.02,N,5.6,K,D*01
$GPGGA,211829.000,3748.6226,N,12218.0063,W,2,04,5.9,9.4,M,-25.1,M,8.8,0000*49
$GPGSA,A,3,08,05,10,28,,,,,,,,,8.7,5.9,6.5*34
$GPGSV,3,1,12,07,63,041,22,08,60,330,33,28,50,235,36,13,37,144,20*7A
$GPGSV,3,2,12,19,31,064,18,10,24,229,37,05,23,284,37,26,14,317,20*78
$GPGSV,3,3,12,03,11,041,18,23,06,144,20,11,05,116,,06,02,033,*76
$GPRMC,211829.000,A,3748.6226,N,12218.0063,W,2.98,215.19,230611,,,D*77
$GPGGA,211830.000,3748.6219,N,12218.0070,W,2,04,5.9,9.8,M,-25.1,M,9.8,0000*42
$GPGSA,A,3,08,05,10,28,,,,,,,,,8.7,5.9,6.5*34
$GPRMC,211830.000,A,3748.6219,N,12218.0070,W,3.05,207.91,230611,,,D*77
$GPVTG,207.91,T,,M,3.05,N,5.6,K,D*00
$GPGGA,211831.000,3748.6211,N,12218.0074,W,2,04,5.8,9.9,M,-25.1,M,10.8,0000*77
$GPGSA,A,3,08,05,10,28,,,,,,,,,8.7,5.8,6.5*35
$GPRMC,211831.000,A,3748.6211,N,12218.0074,W,3.06,193.51,230611,,,D*7B
$GPVTG,193.51,T,,M,3.06,N,5.7,K,D*00
$GPGGA,211832.000,3748.6203,N,12218.0079,W,2,04,5.8,10.4,M,-25.1,M,,0000*58
$GPGSA,A,3,08,05,10,28,,,,,,,,,8.7,5.8,6.5*35
$GPRMC,211832.000,A,3748.6203,N,12218.0079,W,3.04,188.78,230611,,,D*75
$GPVTG,188.78,T,,M,3.04,N,5.6,K,D*02
$GPGGA,211833.000,3748.6193,N,12218.0090,W,2,04,5.8,11.7,M,-25.1,M,,0000*56
$GPGSA,A,3,08,05,10,28,,,,,,,,,8.7,5.8,6.5*35
$GPRMC,211833.000,A,3748.6193,N,12218.0090,W,2.22,195.71,230611,,,D*79
$GPVTG,195.71,T,,M,2.22,N,4.1,K,D*04
$GPGGA,211834.000,3748.6187,N,12218.0099,W,2,04,5.8,12.8,M,-25.1,M,,0000*51
$GPGSA,A,3,08,05,10,28,,,,,,,,,8.7,5.8,6.4*34
$GPGSV,3,1,12,07,63,041,22,08,60,330,21,28,50,235,36,13,37,144,35*7D
$GPGSV,3,2,12,19,31,064,20,10,24,229,36,05,23,284,30,26,14,317,21*74
$GPGSV,3,3,12,03,11,041,18,23,06,144,36,11,05,116,,06,02,033,*71
$GPRMC,211834.000,A,3748.6187,N,12218.0099,W,1.39,216.91,230611,,,D*7D
$GPVTG,216.91,T,,M,1.39,N,2.6,K,D*0A
$GPGGA,211835.000,3748.6181,N,12218.0102,W,2,04,5.8,13.7,M,-25.1,M,2.8,0000*7F
$GPGSA,A,3,08,05,10,28,,,,,,,,,8.7,5.8,6.4*34
$GPRMC,211835.000,A,3748.6181,N,12218.0102,W,1.98,176.99,230611,,,D*7F
$GPVTG,176.99,T,,M,1.98,N,3.7,K,D*0C
$GPGGA,211836.000,3748.6176,N,12218.0116,W,2,04,5.8,14.9,M,-25.1,M,,0000*5C
$GPGSA,A,3,08,05,10,28,,,,,,,,,8.7,5.8,6.4*34
$GPRMC,211836.000,A,3748.6176,N,12218.0116,W,1.10,195.13,230611,,,D*7E
$GPVTG,195.13,T,,M,1.10,N,2.0,K,D*05
$GPGGA,211837.000,3748.6170,N,12218.0123,W,2,04,5.8,16.1,M,-25.1,M,,0000*57
$GPGSA,A,3,08,05,10,28,,,,,,,,,8.7,5.8,6.4*34
$GPRMC,211837.000,A,3748.6170,N,12218.0123,W,1.53,161.32,230611,,,D*70
$GPVTG,161.32,T,,M,1.53,N,2.8,K,D*02
$GPGGA,211838.000,3748.6163,N,12218.0136,W,2,04,5.8,17.8,M,-25.1,M,2.8,0000*72
$GPGSA,A,3,08,05,10,28,,,,,,,,,8.7,5.8,6.4*34
$GPRMC,211838.000,A,3748.6163,N,12218.0136,W,1.68,165.03,230611,,,D*77
$GPVTG,165.03,T,,M,1.68,N,3.1,K,D*04
$GPGGA,211839.000,3748.6155,N,12218.0157,W,2,04,5.8,20.7,M,-25.1,M,,0000*5E
$GPGSA,A,3,08,05,10,28,,,,,,,,,8.7,5.8,6.4*34
$GPGSV,3,1,12,07,63,041,22,08,60,330,21,28,50,235,36,13,37,144,36*7E
$GPGSV,3,2,12,19,31,064,21,10,24,229,30,05,23,284,31,26,14,317,20*73
$GPGSV,3,3,12,03,11,041,19,23,06,144,32,11,05,116,27,06,02,033,*71
$GPRMC,211839.000,A,3748.6155,N,12218.0157,W,1.85,172.16,230611,,,D*75
$GPVTG,172.16,T,,M,1.85,N,3.4,K,D*00
$GPGGA,211840.000,3748.6150,N,12218.0173,W,2,04,5.8,23.1,M,-25.1,M,,0000*56
$GPGSA,A,3,08,05,10,28,,,,,,,,,8.7,5.8,6.4*34
$GPRMC,211840.000,A,3748.6150,N,12218.0173,W,1.09,211.64,230611,,,D*7F
$GPVTG,211.64,T,,M,1.09,N,2.0,K,D*02
$GPGGA,211841.000,3748.6151,N,12218.0190,W,2,04,5.8,25.8,M,-25.1,M,2.8,0000*70
$GPGSA,A,3,08,05,10,28,,,,,,,,,8.6,5.8,6.4*35
$GPRMC,211841.000,A,3748.6151,N,12218.0190,W,0.70,242.29,230611,,,D*72
$GPVTG,242.29,T,,M,0.70,N,1.3,K,D*02
$GPGGA,211842.000,3748.6154,N,12218.0188,W,2,04,5.8,27.4,M,-25.1,M,1.8,0000*72
$GPGSA,A,3,08,05,10,28,,,,,,,,,8.6,5.8,6.4*35
$GPRMC,211842.000,A,3748.6154,N,12218.0188,W,0.39,151.76,230611,,,D*7B
$GPVTG,151.76,T,,M,0.39,N,0.7,K,D*01
$GPGGA,211843.000,3748.6152,N,12218.0178,W,2,04,5.8,27.1,M,-25.1,M,2.8,0000*7C
$GPGSA,A,3,08,05,10,28,,,,,,,,,8.6,5.8,6.4*35
$GPRMC,211843.000,A,3748.6152,N,12218.0178,W,0.48,203.85,230611,,,D*7D
$GPVTG,203.85,T,,M,0.48,N,0.9,K,D*01
$GPGGA,211844.000,3748.6145,N,12218.0178,W,2,04,5.8,27.2,M,-25.1,M,1.8,0000*7D
$GPGSA,A,3,08,05,10,28,,,,,,,,,8.6,5.8,6.4*35
$GPGSV,3,1,12,07,63,041,26,08,60,330,21,28,50,235,31,13,37,144,37*7C
$GPGSV,3,2,12,19,30,064,20,10,23,229,23,05,23,284,25,26,14,317,19*79
$GPGSV,3,3,12,03,11,040,18,23,06,144,37,11,05,116,28,06,01,033,*78
$GPVTG,275.61,T,,M,0.55,N,1.0,K,D*0E
$GPGGA,211845.000,3748.6148,N,12218.0138,W,2,04,5.8,24.8,M,-25.1,M,1.8,0000*7C
$GPGSA,A,3,08,05,10,28,,,,,,,,,8.6,5.8,6.4*35
$GPRMC,211845.000,A,3748.6148,N,12218.0138,W,1.34,68.24,230611,,,D*4A
$GPVTG,68.24,T,,M,1.34,N,2.5,K,D*31
$GPGGA,211846.000,3748.6154,N,12218.0155,W,2,04,5.8,24.6,M,-25.1,M,2.8,0000*74
$GPGSA,A,3,08,05,10,28,,,,,,,,,8.6,5.8,6.4*35
$GPRMC,211846.000,A,3748.6154,N,12218.0155,W,1.19,33.96,230611,,,D*47
$GPVTG,33.96,T,,M,1.19,N,2.2,K,D*3E
$GPGGA,211847.000,3748.6160,N,12218.0183,W,2,04,5.8,26.6,M,-25.1,M,3.8,0000*7A
$GPGSA,A,3,08,05,10,28,,,,,,,,,8.6,5.8,6.4*35
$GPRMC,211847.000,A,3748.6160,N,12218.0183,W,1.42,335.07,230611,,,D*79
$GPVTG,335.07,T,,M,1.42,N,2.6,K,D*09
$GPGGA,211848.000,3748.6163,N,12218.0205,W,2,04,5.8,29.9,M,-25.1,M,4.8,0000*7C
$GPGSA,A,3,08,05,10,28,,,,,,,,,8.6,5.8,6.4*35
$GPRMC,211848.000,A,3748.6163,N,12218.0205,W,1.23,344.27,230611,,,D*7B
$GPVTG,344.27,T,,M,1.23,N,2.3,K,D*0F
$GPGGA,211849.000,3748.6161,N,12218.0203,W,2,04,5.8,29.7,M,-25.1,M,1.8,0000*72
$GPGSA,A,3,08,05,10,28,,,,,,,,,8.6,5.8,6.4*35
$GPGSV,3,1,12,07,63,041,23,08,60,330,20,28,50,235,34,13,37,144,39*73
$GPGSV,3,2,12,19,30,064,19,10,23,229,31,05,23,284,27,26,14,317,19*72
$GPGSV,3,3,12,03,11,040,18,23,06,144,32,11,05,116,27,06,01,033,*72
$GPRMC,211849.000,A,3748.6161,N,12218.0203,W,0.53,209.45,230611,,,D*74
$GPVTG,209.45,T,,M,0.53,N,1.0,K,D*05
$GPGGA,211850.000,3748.6155,N,12218.0201,W,2,04,5.8,29.8,M,-25.1,M,1.8,0000*70
$GPGSA,A,3,08,05,10,28,,,,,,,,,8.6,5.8,6.4*35
$GPRMC,211850.000,A,3748.6155,N,12218.0201,W,1.25,151.61,230611,,,D*71
$GPVTG,151.61,T,,M,1.25,N,2.3,K,D*0D
$GPGGA,211851.000,3748.6148,N,12218.0163,W,2,05,1.6,26.7,M,-25.1,M,1.8,0000*71
$GPGSA,A,3,08,05,23,10,28,,,,,,,,2.7,1.6,2.1*34
$GPRMC,211851.000,A,3748.6148,N,12218.0163,W,2.65,109.45,230611,,,D*77
$GPVTG,109.45,T,,M,2.65,N,4.9,K,D*0D
$GPGGA,211852.000,3748.6137,N,12218.0046,W,2,05,1.6,13.0,M,-25.1,M,1.8,0000*7D
$GPGSA,A,3,08,05,23,10,28,,,,,,,,2.7,1.6,2.1*34
$GPRMC,211852.000,A,3748.6137,N,12218.0046,W,2.67,98.04,230611,,,D*44
$GPVTG,98.04,T,,M,2.67,N,4.9,K,D*33
$GPGGA,211853.000,3748.6132,N,12217.9989,W,2,05,1.6,8.3,M,-25.1,M,1.8,0000*4C
$GPGSA,A,3,08,05,23,10,28,,,,,,,,2.7,1.6,2.1*34
$GPRMC,211853.000,A,3748.6132,N,12217.9989,W,2.32,96.19,230611,,,D*4E
$GPVTG,96.19,T,,M,2.32,N,4.3,K,D*3B
$GPGGA,211854.000,3748.6127,N,12217.9959,W,2,05,1.6,5.9,M,-25.1,M,2.8,0000*46
$GPGSA,A,3,08,05,23,10,28,,,,,,,,2.7,1.6,2.1*34
$GPGSV,3,1,12,07,63,042,25,08,60,331,22,28,50,236,34,13,37,144,39*76
$GPGSV,3,2,12,19,30,064,29,10,23,229,32,05,23,284,24,26,15,317,18*71
$GPGSV,3,3,12,03,11,040,19,23,06,144,32,11,05,116,15,06,01,033,*72
$GPRMC,211854.000,A,3748.6127,N,12217.9959,W,2.40,100.29,230611,,,D*78
$GPVTG,100.29,T,,M,2.40,N,4.4,K,D*04
$GPGGA,211855.000,3748.6123,N,12217.9934,W,2,05,1.6,4.8,M,-25.1,M,3.8,0000*49
$GPGSA,A,3,08,05,23,10,28,,,,,,,,2.7,1.6,2.1*34
$GPRMC,211855.000,A,3748.6123,N,12217.9934,W,2.47,85.39,230611,,,D*4C
$GPVTG,85.39,T,,M,2.47,N,4.6,K,D*3C
$GPGGA,211856.000,3748.6119,N,12217.9918,W,2,05,1.6,3.4,M,-25.1,M,1.8,0000*44
$GPGSA,A,3,08,05,23,10,28,,,,,,,,2.7,1.6,2.1*34
$GPRMC,211856.000,A,3748.6119,N,12217.9918,W,2.26,95.68,230611,,,D*4A
$GPVTG,95.68,T,,M,2.26,N,4.2,K,D*3A
$GPGGA,211857.000,3748.6116,N,12217.9904,W,2,05,1.6,1.1,M,-25.1,M,1.8,0000*40
$GPGSA,A,3,08,05,23,10,28,,,,,,,,2.7,1.6,2.1*34
$GPRMC,211857.000,A,3748.6116,N,12217.9904,W,2.17,95.98,230611,,,D*44
$GPVTG,95.98,T,,M,2.17,N,4.0,K,D*35
$GPGGA,211858.000,3748.6115,N,12217.9894,W,2,05,1.6,-0.4,M,-25.1,M,1.8,0000*6D
$GPGSA,A,3,08,05,23,10,28,,,,,,,,2.7,1.6,2.1*34
$GPRMC,211858.000,A,3748.6115,N,12217.9894,W,2.78,87.30,230611,,,D*48
$GPVTG,87.30,T,,M,2.78,N,5.2,K,D*3E
$GPGGA,211859.000,3748.6113,N,12217.9884,W,2,05,1.6,-0.7,M,-25.1,M,1.8,0000*68
$GPGSA,A,3,08,05,23,10,28,,,,,,,,2.7,1.6,2.1*34
$GPGSV,3,1,12,07,63,042,26,08,60,331,25,28,50,236,34,13,37,144,39*72
$GPGSV,3,2,12,19,30,064,30,10,23,229,36,05,23,284,24,26,15,317,17*72
$GPGSV,3,3,12,03,11,040,19,23,06,144,25,11,05,116,24,06,01,033,*76
$GPVTG,83.42,T,,M,2.11,N,3.9,K,D*3D
$GPGGA,211900.000,3748.6110,N,12217.9875,W,2,05,1.6,-1.4,M,-25.1,M,2.8,0000*69
$GPGSA,A,3,08,05,23,10,28,,,,,,,,2.7,1.6,2.1*34
$GPRMC,211900.000,A,3748.6110,N,12217.9875,W,2.27,94.32,230611,,,D*44
$GPVTG,94.32,T,,M,2.27,N,4.2,K,D*35
$GPGGA,211901.000,3748.6105,N,12217.9867,W,2,05,1.6,-2.1,M,-25.1,M,3.8,0000*68
$GPGSA,A,3,08,05,23,10,28,,,,,,,,2.7,1.6,2.1*34
$GPRMC,211901.000,A,3748.6105,N,12217.9867,W,2.50,106.64,230611,,,D*7B
$GPVTG,106.64,T,,M,2.50,N,4.6,K,D*08
$GPGGA,211902.000,3748.6105,N,12217.9856,W,2,05,1.6,-3.5,M,-25.1,M,4.8,0000*6B
$GPGSA,A,3,08,05,23,10,28,,,,,,,,2.7,1.6,2.1*34
$GPRMC,211902.000,A,3748.6105,N,12217.9856,W,2.58,104.17,230611,,,D*74
$GPVTG,104.17,T,,M,2.58,N,4.8,K,D*08
$GPGGA,211903.000,3748.6103,N,12217.9843,W,2,05,1.6,-4.1,M,-25.1,M,1.8,0000*6E
$GPGSA,A,3,08,05,23,10,28,,,,,,,,2.7,1.6,2.1*34
$GPRMC,211903.000,A,3748.6103,N,12217.9843,W,2.73,103.78,230611,,,D*70
$GPVTG,103.78,T,,M,2.73,N,5.1,K,D*07
$GPGGA,211904.000,3748.6097,N,12217.9834,W,2,05,1.6,-4.4,M,-25.1,M,1.8,0000*60
$GPGSA,A,3,08,05,23,10,28,,,,,,,,2.7,1.6,2.1*34
$GPGSV,3,1,12,07,63,042,26,08,60,331,25,28,50,236,35,13,37,144,38*72
$GPGSV,3,2,12,19,30,064,29,10,23,229,35,05,23,284,27,26,15,317,17*7A
$GPGSV,3,3,12,03,11,040,19,23,06,144,25,11,05,116,24,06,01,033,*76
$GPRMC,211904.000,A,3748.6097,N,12217.9834,W,2.38,98.89,230611,,,D*49
$GPVTG,98.89,T,,M,2.38,N,4.4,K,D*31
$GPGGA,211905.000,3748.6093,N,12217.9825,W,2,05,1.6,-4.0,M,-25.1,M,2.8,0000*62
$GPGSA,A,3,08,05,23,10,28,,,,,,,,2.7,1.6,2.1*34
$GPRMC,211905.000,A,3748.6093,N,12217.9825,W,2.17,111.97,230611,,,D*7E
$GPVTG,111.97,T,,M,2.17,N,4.0,K,D*07
$GPGGA,211906.000,3748.6089,N,12217.9821,W,2,05,1.6,-4.4,M,-25.1,M,3.8,0000*6B
$GPGSA,A,3,08,05,23,10,28,,,,,,,,2.7,1.6,2.1*34
$GPRMC,211906.000,A,3748.6089,N,12217.9821,W,1.63,103.42,230611,,,D*79
$GPVTG,103.42,T,,M,1.63,N,3.0,K,D*0B
$GPGGA,211907.000,3748.6088,N,12217.9814,W,2,05,1.6,-4.7,M,-25.1,M,4.8,0000*69
$GPGSA,A,3,08,05,23,10,28,,,,,,,,2.7,1.6,2.1*34
$GPRMC,211907.000,A,3748.6088,N,12217.9814,W,1.60,97.30,230611,,,D*45
$GPVTG,97.30,T,,M,1.60,N,3.0,K,D*31
$GPGGA,211908.000,3748.6083,N,12217.9806,W,2,05,1.6,-3.6,M,-25.1,M,1.8,0000*6D
$GPGSA,A,3,08,05,23,10,28,,,,,,,,2.7,1.6,2.1*34
$GPRMC,211908.000,A,3748.6083,N,12217.9806,W,2.14,97.27,230611,,,D*44
$GPVTG,97.27,T,,M,2.14,N,4.0,K,D*30
$GPGGA,211909.000,3748.6075,N,12217.9800,W,2,05,1.6,-3.4,M,-25.1,M,1.8,0000*61
$GPGSA,A,3,08,05,23,10,28,,,,,,,,2.7,1.6,2.1*34
$GPGSV,3,1,12,07,63,042,26,08,60,331,24,28,50,236,35,13,37,144,38*73
$GPGSV,3,2,12,19,30,064,29,10,23,229,32,05,23,284,28,26,15,317,22*74
$GPGSV,3,3,12,03,11,040,19,23,06,144,33,11,05,116,24,06,01,033,*71
$GPRMC,211909.000,A,3748.6075,N,12217.9800,W,2.44,94.16,230611,,,D*4E
$GPVTG,94.16,T,,M,2.44,N,4.5,K,D*31
$GPGGA,211910.000,3748.6067,N,12217.9793,W,2,05,1.6,-3.3,M,-25.1,M,1.8,0000*68
$GPGSA,A,3,08,05,23,10,28,,,,,,,,2.7,1.6,2.1*34
$GPRMC,211910.000,A,3748.6067,N,12217.9793,W,2.46,113.37,230611,,,D*7F
$GPVTG,113.37,T,,M,2.46,N,4.6,K,D*0D
$GPGGA,211911.000,3748.6059,N,12217.9782,W,2,05,1.6,-2.3,M,-25.1,M,2.8,0000*66
$GPGSA,A,3,08,05,23,10,28,,,,,,,,2.7,1.6,2.1*34
$GPRMC,211911.000,A,3748.6059,N,12217.9782,W,2.76,117.70,230611,,,D*77
$GPVTG,117.70,T,,M,2.76,N,5.1,K,D*0F
$GPGGA,211912.000,3748.6057,N,12217.9772,W,2,05,1.6,-2.5,M,-25.1,M,3.8,0000*63
$GPGSA,A,3,08,05,23,10,28,,,,,,,,2.7,1.6,2.1*34
$GPRMC,211912.000,A,3748.6057,N,12217.9772,W,2.55,115.11,230611,,,D*71
$GPVTG,115.11,T,,M,2.55,N,4.7,K,D*0C
$GPGGA,211913.000,3748.6052,N,12217.9764,W,2,05,1.6,-2.5,M,-25.1,M,4.8,0000*67
$GPGSA,A,3,08,05,23,10,28,,,,,,,,2.7,1.6,2.1*34
$GPRMC,211913.000,A,3748.6052,N,12217.9764,W,2.39,104.03,230611,,,D*7B
$GPVTG,104.03,T,,M,2.39,N,4.4,K,D*06
$GPGGA,211914.000,3748.6046,N,12217.9757,W,2,05,1.6,-2.2,M,-25.1,M,1.8,0000*67
$GPGSA,A,3,08,05,23,10,28,,,,,,,,2.7,1.6,2.1*34
$GPGSV,3,1,12,07,63,042,26,08,60,331,25,28,50,236,35,13,37,144,39*73
$GPGSV,3,2,12,19,30,064,29,10,23,229,33,05,23,284,26,26,15,317,21*78
$GPGSV,3,3,12,03,11,040,23,23,06,144,28,11,05,116,24,06,01,033,*72
$GPVTG,113.92,T,,M,2.71,N,5.0,K,D*01
$GPGGA,211915.000,3748.6044,N,12217.9744,W,2,05,1.6,-1.5,M,-25.1,M,1.8,0000*62
$GPGSA,A,3,08,05,23,10,28,,,,,,,,2.7,1.6,2.1*34
$GPRMC,211915.000,A,3748.6044,N,12217.9744,W,2.76,109.80,230611,,,D*75
$GPVTG,109.80,T,,M,2.76,N,5.1,K,D*0F
$GPGGA,211916.000,3748.6041,N,12217.9736,W,2,05,1.6,-2.0,M,-25.1,M,1.8,0000*67
$GPGSA,A,3,08,05,23,10,28,,,,,,,,2.7,1.6,2.1*34
$GPRMC,211916.000,A,3748.6041,N,12217.9736,W,2.65,98.35,230611,,,D*43
$GPVTG,98.35,T,,M,2.65,N,4.9,K,D*33
$GPGGA,211917.000,3748.6040,N,12217.9725,W,2,05,1.6,-2.0,M,-25.1,M,2.8,0000*66
$GPGSA,A,3,08,05,23,10,28,,,,,,,,2.7,1.6,2.1*34
$GPRMC,211917.000,A,3748.6040,N,12217.9725,W,2.43,105.11,230611,,,D*76
$GPVTG,105.11,T,,M,2.43,N,4.5,K,D*08
$GPGGA,211918.000,3748.6036,N,12217.9717,W,2,05,1.6,-2.2,M,-25.1,M,3.8,0000*6A
$GPGSA,A,3,08,05,23,10,28,,,,,,,,2.7,1.6,2.1*34
$GPRMC,211918.000,A,3748.6036,N,12217.9717,W,2.58,100.48,230611,,,D*7A
$GPVTG,100.48,T,,M,2.58,N,4.8,K,D*06
$GPGGA,211919.000,3748.6036,N,12217.9709,W,2,05,1.6,-2.9,M,-25.1,M,4.8,0000*68
$GPGSA,A,3,08,05,23,10,28,,,,,,,,2.7,1.6,2.1*34
$GPGSV,3,1,12,07,63,042,26,08,60,331,24,28,51,236,34,13,37,144,39*72
$GPGSV,3,2,12,19,30,064,29,10,23,229,33,05,23,284,27,26,15,317,22*7A
$GPGSV,3,3,12,03,11,040,17,23,06,144,25,11,05,116,24,06,01,033,*78
$GPRMC,211919.000,A,3748.6036,N,12217.9709,W,2.77,96.19,230611,,,D*43
$GPVTG,96.19,T,,M,2.77,N,5.1,K,D*39
$GPGGA,211920.000,3748.6030,N,12217.9703,W,2,05,1.6,-3.1,M,-25.1,M,1.8,0000*62
$GPGSA,A,3,08,05,23,10,28,,,,,,,,2.7,1.6,2.1*34
$GPRMC,211920.000,A,3748.6030,N,12217.9703,W,2.39,97.43,230611,,,D*41
$GPVTG,97.43,T,,M,2.39,N,4.4,K,D*39
$GPGGA,211921.000,3748.6030,N,12217.9693,W,2,05,1.6,-3.1,M,-25.1,M,1.8,0000*6B
$GPGSA,A,3,08,05,23,10,28,,,,,,,,2.7,1.6,2.1*34
$GPRMC,211921.000,A,3748.6030,N,12217.9693,W,2.36,92.89,230611,,,D*44
$GPVTG,92.89,T,,M,2.36,N,4.4,K,D*35
$GPGGA,211922.000,3748.6025,N,12217.9685,W,2,05,1.6,-3.1,M,-25.1,M,1.8,0000*6B
$GPGSA,A,3,08,05,23,10,28,,,,,,,,2.7,1.6,2.1*34
$GPRMC,211922.000,A,3748.6025,N,12217.9685,W,2.16,100.75,230611,,,D*7F
$GPVTG,100.75,T,,M,2.16,N,4.0,K,D*0A
$GPGGA,211923.000,3748.6018,N,12217.9682,W,2,05,1.6,-3.7,M,-25.1,M,2.8,0000*66
$GPGSA,A,3,08,05,23,10,28,,,,,,,,2.7,1.6,2.1*34
$GPRMC,211923.000,A,3748.6018,N,12217.9682,W,2.36,106.96,230611,,,D*7E
$GPVTG,106.96,T,,M,2.36,N,4.4,K,D*07
$GPGGA,211924.000,3748.6013,N,12217.9676,W,2,05,1.6,-4.1,M,-25.1,M,3.8,0000*61
$GPGSA,A,3,08,05,23,10,28,,,,,,,,2.7,1.6,2.1*34
$GPGSV,3,1,12,07,63,042,26,08,60,331,24,28,51,236,34,13,37,144,37*7C
$GPGSV,3,2,12,19,30,064,22,10,23,229,34,05,23,284,28,26,15,317,22*79
$GPGSV,3,3,12,03,11,040,30,23,06,144,37,11,05,116,24,06,01,033,*7E
$GPRMC,211924.000,A,3748.6013,N,12217.9676,W,2.42,106.92,230611,,,D*7E
$GPVTG,106.92,T,,M,2.42,N,4.5,K,D*01
$GPGGA,211925.000,3748.6009,N,12217.9665,W,2,05,1.6,-3.4,M,-25.1,M,4.8,0000*6C
$GPGSA,A,3,08,05,23,10,28,,,,,,,,2.7,1.6,2.1*34
$GPRMC,211925.000,A,3748.6009,N,12217.9665,W,2.60,101.36,230611,,,D*7F
$GPVTG,101.36,T,,M,2.60,N,4.8,K,D*05
$GPGGA,211926.000,3748.6004,N,12217.9653,W,2,05,1.6,-2.6,M,-25.1,M,1.8,0000*61
$GPGSA,A,3,08,05,23,10,28,,,,,,,,2.7,1.6,2.1*34
$GPRMC,211926.000,A,3748.6004,N,12217.9653,W,2.40,106.25,230611,,,D*73
$GPVTG,106.25,T,,M,2.40,N,4.4,K,D*0E
$GPGGA,211927.000,3748.5998,N,12217.9648,W,2,05,1.6,-2.8,M,-25.1,M,1.8,0000*6B
$GPGSA,A,3,08,05,23,10,28,,,,,,,,2.7,1.6,2.1*34
$GPRMC,211927.000,A,3748.5998,N,12217.9648,W,2.39,113.10,230611,,,D*7B
$GPVTG,113.10,T,,M,2.39,N,4.4,K,D*02
$GPGGA,211928.000,3748.5992,N,12217.9641,W,2,05,1.6,-2.7,M,-25.1,M,2.8,0000*6B
$GPGSA,A,3,08,05,23,10,28,,,,,,,,2.7,1.6,2.1*34
$GPRMC,211928.000,A,3748.5992,N,12217.9641,W,2.35,111.52,230611,,,D*7F
$GPVTG,111.52,T,,M,2.35,N,4.3,K,D*0D
$GPGGA,211929.000,3748.5983,N,12217.9638,W,2,05,1.6,-3.4,M,-25.1,M,3.8,0000*67
$GPGSA,A,3,08,05,23,10,28,,,,,,,,2.7,1.6,2.1*34
$GPGSV,3,1,12,07,63,042,26,08,60,331,24,28,51,236,35,13,37,144,38*72
$GPGSV,3,2,12,19,30,064,23,10,23,229,30,05,23,284,27,26,15,317,22*73
$GPGSV,3,3,12,03,11,040,19,23,06,144,36,11,05,116,24,06,01,033,*74
$GPRMC,211929.000,A,3748.5983,N,12217.9638,W,2.36,113.36,230611,,,D*73
$GPVTG,113.36,T,,M,2.36,N,4.4,K,D*09
$GPGGA,211930.000,3748.5979,N,12217.9632,W,2,05,1.6,-3.9,M,-25.1,M,4.8,0000*6A
$GPGSA,A,3,08,05,23,10,28,,,,,,,,2.7,1.6,2.1*34
$GPRMC,211930.000,A,3748.5979,N,12217.9632,W,2.48,115.85,230611,,,D*73
$GPVTG,115.85,T,,M,2.48,N,4.6,K,D*0C
$GPGGA,211931.000,3748.5977,N,12217.9620,W,2,05,1.6,-3.4,M,-25.1,M,5.8,0000*6A
$GPGSA,A,3,08,05,23,10,28,,,,,,,,2.7,1.6,2.1*34
$GPRMC,211931.000,A,3748.5977,N,12217.9620,W,2.59,111.92,230611,,,D*7D
$GPVTG,111.92,T,,M,2.59,N,4.8,K,D*00
$GPGGA,211932.000,3748.5976,N,12217.9609,W,2,05,1.6,-3.4,M,-25.1,M,1.8,0000*67
$GPGSA,A,3,08,05,23,10,28,,,,,,,,2.7,1.6,2.1*34
$GPRMC,211932.000,A,3748.5976,N,12217.9609,W,2.84,103.89,230611,,,D*7D
$GPVTG,103.89,T,,M,2.84,N,5.3,K,D*03
$GPGGA,211933.000,3748.5971,N,12217.9598,W,2,05,1.6,-2.7,M,-25.1,M,1.8,0000*68
$GPGSA,A,3,08,05,23,10,28,,,,,,,,2.7,1.6,2.1*34
$GPRMC,211933.000,A,3748.5971,N,12217.9598,W,2.66,98.26,230611,,,D*4A
$GPVTG,98.26,T,,M,2.66,N,4.9,K,D*32
$GPGGA,211934.000,3748.5965,N,12217.9589,W,2,05,1.6,-2.4,M,-25.1,M,1.8,0000*69
$GPGSA,A,3,08,05,23,10,28,,,,,,,,2.7,1.6,2.1*34
$GPGSV,3,1,12,07,63,042,26,08,60,331,24,28,51,236,34,13,37,144,38*73
