$ADVER,3080,2.3
$GPRMC,212529.057,A,3748.7988,N,12217.8609,W,0.29,193.61,210711,,,A*74
$GPRMC,212530.057,A,3748.7984,N,12217.8609,W,0.05,285.28,210711,,,A*77
$GPRMC,212531.057,A,3748.7981,N,12217.8609,W,0.10,197.78,210711,,,A*72
$GPRMC,212532.057,A,3748.7980,N,12217.8609,W,0.11,359.63,210711,,,A*7B
$GPRMC,212533.052,A,3748.7979,N,12217.8609,W,0.13,212.62,210711,,,A*74
$GPRMC,212534.057,A,3748.7977,N,12217.8609,W,0.05,67.77,210711,,,A*4B
$GPRMC,212536.056,A,3748.7873,N,12217.8591,W,1.19,148.23,210711,,,A*7E
$GPRMC,212537.056,A,3748.7892,N,12217.8599,W,0.21,201.32,210711,,,A*7C
$GPRMC,212538.056,A,3748.7837,N,12217.8624,W,0.11,356.58,210711,,,A*75
$GPRMC,212539.056,A,3748.8150,N,12217.8559,W,1.45,182.63,210711,,,A*79
$GPRMC,212540.056,A,3748.8023,N,12217.8594,W,1.97,185.80,210711,,,A*76
$GPRMC,212541.056,A,3748.7991,N,12217.8598,W,1.14,180.59,210711,,,A*7E
$GPRMC,212542.000,A,3748.7970,N,12217.8596,W,1.36,182.38,210711,,,A*7A
$GPRMC,212543.000,A,3748.7939,N,12217.8607,W,1.46,180.96,210711,,,A*7C
$GPRMC,212544.000,A,3748.7918,N,12217.8608,W,1.28,176.13,210711,,,A*7B
$GPRMC,212545.000,A,3748.7915,N,12217.8618,W,0.75,177.13,210711,,,A*7E
$GPRMC,212546.000,A,3748.7911,N,12217.8625,W,0.48,174.06,210711,,,A*7E
$GPRMC,212547.000,A,3748.7909,N,12217.8629,W,0.16,96.78,210711,,,A*45
$GPRMC,212548.000,A,3748.7912,N,12217.8631,W,0.85,190.13,210711,,,A*79
$GPRMC,212549.000,A,3748.7915,N,12217.8632,W,0.46,182.95,210711,,,A*7E
$GPRMC,212550.000,A,3748.7915,N,12217.8633,W,0.15,162.24,210711,,,A*75
$GPRMC,212551.000,A,3748.7912,N,12217.8634,W,0.37,54.46,210711,,,A*44
$GPRMC,212552.000,A,3748.7907,N,12217.8635,W,0.70,160.46,210711,,,A*77
$GPRMC,212553.000,A,3748.7915,N,12217.8631,W,0.49,45.83,210711,,,A*44
$GPRMC,212554.000,A,3748.7926,N,12217.8633,W,1.37,19.12,210711,,,A*48
$GPRMC,212555.000,A,3748.7932,N,12217.8634,W,0.48,351.59,210711,,,A*72
$GPRMC,212556.000,A,3748.7937,N,12217.8633,W,0.14,226.12,210711,,,A*74
$GPRMC,212557.000,A,3748.7951,N,12217.8630,W,0.26,354.85,210711,,,A*7D
$GPRMC,212558.000,A,3748.7952,N,12217.8624,W,0.49,113.83,210711,,,A*7A
$GPRMC,212559.000,A,3748.7952,N,12217.8622,W,0.48,161.03,210711,,,A*71
$GPRMC,212600.000,A,3748.7933,N,12217.8616,W,1.57,154.68,210711,,,A*7A
$GPRMC,212601.000,A,3748.7929,N,12217.8611,W,0.78,144.12,210711,,,A*77
$GPRMC,212602.000,A,3748.7922,N,12217.8610,W,1.14,189.53,210711,,,A*71
$GPRMC,212603.000,A,3748.7908,N,12217.8611,W,1.57,193.26,210711,,,A*77
$GPRMC,212604.000,A,3748.7916,N,12217.8619,W,0.72,214.17,210711,,,A*7F
$GPRMC,212605.000,A,3748.7918,N,12217.8623,W,0.06,7.27,210711,,,A*79
$GPRMC,212606.000,A,3748.7931,N,12217.8622,W,1.08,25.04,210711,,,A*4E
$GPRMC,212607.000,A,3748.7945,N,12217.8618,W,1.44,25.31,210711,,,A*4B
$GPRMC,212608.000,A,3748.7951,N,12217.8616,W,0.98,26.35,210711,,,A*48
$GPRMC,212609.000,A,3748.7963,N,12217.8612,W,1.32,26.24,210711,,,A*4D
$GPRMC,212609.000,A,3748.7966,N,12217.8610,W,0.93,28.55,210711,,,A*48
$GPRMC,212610.000,A,3748.7973,N,12217.8607,W,0.31,28.65,210711,,,A*49
$GPRMC,212611.000,A,3748.7975,N,12217.8607,W,0.29,28.84,210711,,,A*48
$GPRMC,212612.000,A,3748.7975,N,12217.8607,W,0.05,49.01,210711,,,A*4F
$GPRMC,212613.000,A,3748.7972,N,12217.8608,W,0.09,170.77,210711,,,A*70
$GPRMC,212614.000,A,3748.7972,N,12217.8608,W,0.03,42.43,210711,,,A*4A
$GPRMC,212615.000,A,3748.7979,N,12217.8605,W,0.19,29.26,210711,,,A*48
$GPRMC,212616.000,A,3748.7987,N,12217.8601,W,0.77,25.87,210711,,,A*41
$GPRMC,212617.000,A,3748.7994,N,12217.8598,W,1.09,25.07,210711,,,A*41
$GPRMC,212618.000,A,3748.7999,N,12217.8595,W,0.64,25.40,210711,,,A*47
$GPRMC,212619.000,A,3748.8002,N,12217.8593,W,0.27,28.51,210711,,,A*4E
$GPRMC,212620.000,A,3748.8007,N,12217.8591,W,0.53,25.97,210711,,,A*47
$GPRMC,212621.000,A,3748.8013,N,12217.8587,W,0.18,38.86,210711,,,A*47
$GPRMC,212622.000,A,3748.8017,N,12217.8584,W,0.82,29.94,210711,,,A*43
$GPRMC,212623.000,A,3748.8017,N,12217.8583,W,0.30,34.25,210711,,,A*4A
$GPRMC,212624.000,A,3748.8020,N,12217.8581,W,0.38,33.06,210711,,,A*45
$GPRMC,212625.000,A,3748.8025,N,12217.8578,W,0.57,27.01,210711,,,A*4C
$GPRMC,212626.000,A,3748.8026,N,12217.8578,W,0.44,37.30,210711,,,A*4D
$GPRMC,212627.000,A,3748.8019,N,12217.8581,W,0.49,199.07,210711,,,A*7A
$GPRMC,212628.000,A,3748.8016,N,12217.8582,W,0.62,200.04,210711,,,A*70
$GPRMC,212629.000,A,3748.8012,N,12217.8584,W,0.92,200.96,210711,,,A*77
$GPRMC,212630.000,A,3748.8006,N,12217.8587,W,0.44,202.00,210711,,,A*7F
$GPRMC,212631.000,A,3748.8005,N,12217.8587,W,0.08,59.84,210711,,,A*45
$GPRMC,212632.000,A,3748.8001,N,12217.8589,W,0.35,200.98,210711,,,A*71
$GPRMC,212633.000,A,3748.7999,N,12217.8591,W,0.11,194.92,210711,,,A*7C
$GPRMC,212634.000,A,3748.7997,N,12217.8592,W,0.07,179.44,210711,,,A*79
$GPRMC,212635.000,A,3748.7994,N,12217.8594,W,0.10,210.96,210711,,,A*78
$GPRMC,212636.000,A,3748.7992,N,12217.8595,W,0.05,180.22,210711,,,A*7D
$GPRMC,212637.000,A,3748.7990,N,12217.8596,W,0.11,184.01,210711,,,A*7D
$GPRMC,212638.000,A,3748.7988,N,12217.8598,W,0.08,196.72,210711,,,A*7A
$GPRMC,212639.000,A,3748.7985,N,12217.8599,W,0.08,170.25,210711,,,A*7D
$GPRMC,212640.000,A,3748.7983,N,12217.8600,W,0.04,197.25,210711,,,A*73
$GPRMC,212641.000,A,3748.7981,N,12217.8601,W,0.05,198.46,210711,,,A*7A
$GPRMC,212642.000,A,3748.7979,N,12217.8602,W,0.08,193.74,210711,,,A*7A
$GPRMC,212643.000,A,3748.7978,N,12217.8604,W,0.04,178.99,210711,,,A*76
$GPRMC,212644.000,A,3748.7976,N,12217.8605,W,0.05,190.51,210711,,,A*7D
$GPRMC,212645.000,A,3748.7979,N,12217.8603,W,0.43,23.68,210711,,,A*44
$GPRMC,212646.000,A,3748.7980,N,12217.8603,W,0.13,22.47,210711,,,A*48
$GPRMC,212647.000,A,3748.7980,N,12217.8604,W,0.05,21.68,210711,,,A*47
$GPRMC,212648.000,A,3748.7979,N,12217.8605,W,0.03,44.07,210711,,,A*43
$GPRMC,212649.000,A,3748.7978,N,12217.8605,W,0.03,43.76,210711,,,A*42
$GPRMC,212650.000,A,3748.7976,N,12217.8607,W,0.07,15.65,210711,,,A*43
$GPRMC,212651.000,A,3748.7974,N,12217.8608,W,0.01,178.86,210711,,,A*7E
$GPRMC,212652.000,A,3748.7972,N,12217.8610,W,0.04,228.86,210711,,,A*71
$GPRMC,212653.000,A,3748.7971,N,12217.8611,W,0.03,203.58,210711,,,A*7F
$GPRMC,212654.000,A,3748.7969,N,12217.8612,W,0.03,187.66,210711,,,A*70
$GPRMC,212655.000,A,3748.7967,N,12217.8613,W,0.04,247.50,210711,,,A*73
$GPRMC,212656.000,A,3748.7967,N,12217.8614,W,0.06,355.04,210711,,,A*76
$GPRMC,212657.000,A,3748.7969,N,12217.8613,W,0.07,26.43,210711,,,A*4B
$GPRMC,212658.000,A,3748.7970,N,12217.8613,W,0.05,4.34,210711,,,A*7E
$GPRMC,212659.000,A,3748.7972,N,12217.8613,W,0.19,23.43,210711,,,A*45
$GPRMC,212700.000,A,3748.7970,N,12217.8614,W,0.24,24.35,210711,,,A*45
$GPRMC,212701.000,A,3748.7967,N,12217.8616,W,0.39,203.86,210711,,,A*73
$GPRMC,212702.000,A,3748.7966,N,12217.8616,W,0.34,201.99,210711,,,A*70
$GPRMC,212703.000,A,3748.7964,N,12217.8617,W,0.36,200.25,210711,,,A*76
$GPRMC,212704.000,A,3748.7964,N,12217.8617,W,0.12,181.75,210711,,,A*78
$GPRMC,212705.000,A,3748.7967,N,12217.8616,W,0.09,24.86,210711,,,A*43
$GPRMC,212706.000,A,3748.7969,N,12217.8615,W,0.06,34.48,210711,,,A*41
$GPRMC,212707.000,A,3748.7972,N,12217.8614,W,0.33,17.26,210711,,,A*44
$GPRMC,212708.000,A,3748.7978,N,12217.8611,W,0.16,30.51,210711,,,A*46
$GPRMC,212709.000,A,3748.7980,N,12217.8610,W,0.08,19.45,210711,,,A*40
$GPRMC,212710.000,A,3748.7982,N,12217.8610,W,0.12,28.83,210711,,,A*49
$GPRMC,212711.000,A,3748.7983,N,12217.8609,W,0.08,37.28,210711,,,A*45
$GPRMC,212712.000,A,3748.7985,N,12217.8608,W,0.09,28.32,210711,,,A*45
$GPRMC,212713.000,A,3748.7986,N,12217.8607,W,0.09,33.66,210711,,,A*43
$GPRMC,212714.000,A,3748.7987,N,12217.8607,W,0.10,28.58,210711,,,A*4A
$GPRMC,212715.000,A,3748.7988,N,12217.8607,W,0.10,22.34,210711,,,A*44
$GPRMC,212716.000,A,3748.7989,N,12217.8606,W,0.09,42.21,210711,,,A*4D
$GPRMC,212717.000,A,3748.7989,N,12217.8606,W,0.06,34.01,210711,,,A*40
$GPRMC,212718.000,A,3748.7990,N,12217.8606,W,0.08,44.64,210711,,,A*4D
$GPRMC,212719.000,A,3748.7991,N,12217.8605,W,0.08,14.29,210711,,,A*42
$GPRMC,212720.000,A,3748.7992,N,12217.8605,W,0.08,34.18,210711,,,A*4B
$GPRMC,212721.000,A,3748.7993,N,12217.8605,W,0.08,34.48,210711,,,A*4E
$GPRMC,212722.000,A,3748.7994,N,12217.8604,W,0.08,34.69,210711,,,A*48
$GPRMC,212723.000,A,3748.7994,N,12217.8604,W,0.09,40.50,210711,,,A*41
$GPRMC,212724.000,A,3748.7995,N,12217.8604,W,0.07,31.21,210711,,,A*49
$GPRMC,212725.000,A,3748.7996,N,12217.8603,W,0.04,44.17,210711,,,A*48
$GPRMC,212726.000,A,3748.7996,N,12217.8603,W,0.27,25.22,210711,,,A*4B
$GPRMC,212727.000,A,3748.7997,N,12217.8603,W,0.28,25.50,210711,,,A*41
$GPRMC,212728.000,A,3748.7998,N,12217.8602,W,0.13,33.23,210711,,,A*4B
$GPRMC,212729.000,A,3748.7999,N,12217.8602,W,0.18,28.57,210711,,,A*49
$GPRMC,212730.000,A,3748.7999,N,12217.8602,W,0.07,87.91,210711,,,A*40
$GPRMC,212731.000,A,3748.8001,N,12217.8601,W,0.07,4.38,210711,,,A*7D
$GPRMC,212732.000,A,3748.7999,N,12217.8602,W,1.00,204.97,210711,,,A*7B
$GPRMC,212733.000,A,3748.7996,N,12217.8604,W,1.37,216.84,210711,,,A*76
$GPRMC,212734.000,A,3748.7996,N,12217.8604,W,0.08,240.54,210711,,,A*72
$GPRMC,212735.000,A,3748.7998,N,12217.8602,W,0.49,33.97,210711,,,A*47
$GPRMC,212736.000,A,3748.7998,N,12217.8601,W,0.04,208.34,210711,,,A*7D
$GPRMC,212737.000,A,3748.7997,N,12217.8600,W,0.22,203.20,210711,,,A*78
$GPRMC,212738.000,A,3748.7994,N,12217.8599,W,0.11,57.87,210711,,,A*49
$GPRMC,212739.000,A,3748.7988,N,12217.8600,W,0.29,154.53,210711,,,A*76
$GPRMC,212740.000,A,3748.7988,N,12217.8597,W,0.20,141.36,210711,,,A*7B
$GPRMC,212741.000,A,3748.7989,N,12217.8595,W,0.46,198.12,210711,,,A*7B
$GPRMC,212742.000,A,3748.7985,N,12217.8596,W,0.15,179.56,210711,,,A*7E
$GPRMC,212743.000,A,3748.7987,N,12217.8594,W,0.07,335.17,210711,,,A*73
$GPRMC,212744.000,A,3748.7989,N,12217.8593,W,0.06,190.36,210711,,,A*72
$GPRMC,212745.000,A,3748.7989,N,12217.8592,W,0.46,202.80,210711,,,A*73
$GPRMC,212746.000,A,3748.7990,N,12217.8591,W,0.42,26.24,210711,,,A*45
$GPRMC,212747.000,A,3748.7992,N,12217.8590,W,0.52,33.14,210711,,,A*41
$GPRMC,212748.000,A,3748.7995,N,12217.8588,W,0.82,30.28,210711,,,A*41
$GPRMC,212749.000,A,3748.7997,N,12217.8586,W,0.86,29.99,210711,,,A*4A
$GPRMC,212750.000,A,3748.7997,N,12217.8586,W,0.72,22.63,210711,,,A*47
$GPRMC,212751.000,A,3748.7993,N,12217.8588,W,0.41,27.19,210711,,,A*44
$GPRMC,212752.000,A,3748.7987,N,12217.8590,W,0.86,204.92,210711,,,A*70
$GPRMC,212753.000,A,3748.7981,N,12217.8593,W,0.97,199.00,210711,,,A*78
$GPRMC,212754.000,A,3748.7976,N,12217.8595,W,0.76,197.99,210711,,,A*70
$GPRMC,212755.000,A,3748.7978,N,12217.8595,W,0.33,25.64,210711,,,A*44
$GPRMC,212756.000,A,3748.7985,N,12217.8594,W,0.37,15.76,210711,,,A*40
$GPRMC,212757.000,A,3748.7990,N,12217.8594,W,0.09,296.89,210711,,,A*71
$GPRMC,212758.000,A,3748.7993,N,12217.8594,W,0.29,209.71,210711,,,A*7E
$GPRMC,212759.000,A,3748.7995,N,12217.8594,W,0.31,22.99,210711,,,A*4D
$GPRMC,212800.000,A,3748.7996,N,12217.8593,W,0.19,197.69,210711,,,A*70
$GPRMC,212801.000,A,3748.7994,N,12217.8594,W,0.27,66.77,210711,,,A*49
$GPRMC,212802.000,A,3748.7999,N,12217.8594,W,0.29,339.97,210711,,,A*7E
$GPRMC,212803.000,A,3748.7997,N,12217.8595,W,0.09,253.18,210711,,,A*78
$GPRMC,212804.000,A,3748.7995,N,12217.8595,W,0.20,205.13,210711,,,A*7E
$GPRMC,212805.000,A,3748.7990,N,12217.8597,W,1.31,190.76,210711,,,A*75
$GPRMC,212806.000,A,3748.7979,N,12217.8602,W,1.70,188.53,210711,,,A*75
$GPRMC,212807.000,A,3748.7976,N,12217.8602,W,0.42,192.91,210711,,,A*7E
$GPRMC,212808.000,A,3748.7979,N,12217.8603,W,0.42,12.69,210711,,,A*41
$GPRMC,212809.000,A,3748.7981,N,12217.8603,W,1.24,347.05,210711,,,A*7F
$GPRMC,212810.000,A,3748.7983,N,12217.8599,W,0.67,49.15,210711,,,A*4F
$GPRMC,212811.000,A,3748.7989,N,12217.8597,W,1.44,21.34,210711,,,A*47
$GPRMC,212812.000,A,3748.7994,N,12217.8595,W,0.40,18.11,210711,,,A*42
$GPRMC,212813.000,A,3748.7990,N,12217.8599,W,0.44,127.47,210711,,,A*71
$GPRMC,212814.000,A,3748.7983,N,12217.8604,W,0.35,169.84,210711,,,A*70
$GPRMC,212815.000,A,3748.7978,N,12217.8609,W,0.16,108.01,210711,,,A*73
$GPRMC,212816.000,A,3748.7982,N,12217.8607,W,0.53,66.40,210711,,,A*46
$GPRMC,212817.000,A,3748.7981,N,12217.8611,W,0.29,202.33,210711,,,A*7A
$GPRMC,212818.000,A,3748.7984,N,12217.8610,W,0.75,32.17,210711,,,A*4F
$GPRMC,212819.000,A,3748.7992,N,12217.8605,W,1.04,40.88,210711,,,A*49
$GPRMC,212820.000,A,3748.7994,N,12217.8600,W,0.97,43.31,210711,,,A*4A
$GPRMC,212821.000,A,3748.7994,N,12217.8600,W,0.57,356.74,210711,,,A*71
$GPRMC,212822.000,A,3748.7994,N,12217.8604,W,0.78,29.62,210711,,,A*47
$GPRMC,212823.000,A,3748.7998,N,12217.8603,W,0.56,23.60,210711,,,A*49
$GPRMC,212824.000,A,3748.8001,N,12217.8603,W,0.33,35.28,210711,,,A*40
$GPRMC,212825.000,A,3748.8002,N,12217.8602,W,0.26,16.36,210711,,,A*49
$GPRMC,212826.000,A,3748.8005,N,12217.8601,W,0.43,18.20,210711,,,A*44
$GPRMC,212827.000,A,3748.8007,N,12217.8599,W,0.54,28.23,210711,,,A*43
$GPRMC,212828.000,A,3748.8008,N,12217.8596,W,0.36,107.51,210711,,,A*71
$GPRMC,212829.000,A,3748.8007,N,12217.8597,W,0.16,48.59,210711,,,A*4E
$GPRMC,212830.000,A,3748.8005,N,12217.8593,W,0.71,50.71,210711,,,A*42
$GPRMC,212831.000,A,3748.8004,N,12217.8590,W,0.21,347.11,210711,,,A*77
$GPRMC,212832.000,A,3748.8003,N,12217.8592,W,0.19,189.94,210711,,,A*77
$GPRMC,212833.000,A,3748.7997,N,12217.8597,W,0.92,195.41,210711,,,A*7E
$GPRMC,212834.000,A,3748.7997,N,12217.8601,W,0.85,246.49,210711,,,A*76
$GPRMC,212835.000,A,3748.7991,N,12217.8606,W,0.65,249.89,210711,,,A*7B
$GPRMC,212836.000,A,3748.7984,N,12217.8614,W,1.59,237.08,210711,,,A*71
$GPRMC,212837.000,A,3748.7979,N,12217.8618,W,1.42,219.10,210711,,,A*71
$GPRMC,212838.000,A,3748.7978,N,12217.8619,W,0.72,292.55,210711,,,A*7E
$GPRMC,212839.000,A,3748.7979,N,12217.8621,W,0.86,284.13,210711,,,A*7B
$GPRMC,212840.000,A,3748.7978,N,12217.8623,W,1.05,208.43,210711,,,A*7D
$GPRMC,212841.000,A,3748.7973,N,12217.8627,W,1.63,204.78,210711,,,A*77
$GPRMC,212842.000,A,3748.7970,N,12217.8629,W,1.57,193.28,210711,,,A*76
$GPRMC,212843.000,A,3748.7969,N,12217.8630,W,1.65,222.53,210711,,,A*73
$GPRMC,212844.000,A,3748.7963,N,12217.8636,W,1.99,228.66,210711,,,A*77
$GPRMC,212845.000,A,3748.7960,N,12217.8641,W,2.10,219.27,210711,,,A*70
$GPRMC,212846.000,A,3748.7956,N,12217.8645,W,1.71,212.95,210711,,,A*74
$GPRMC,212847.000,A,3748.7950,N,12217.8652,W,3.18,214.04,210711,,,A*76
$GPRMC,212848.000,A,3748.7939,N,12217.8663,W,2.55,199.14,210711,,,A*7B
$GPRMC,212849.000,A,3748.7930,N,12217.8675,W,2.53,208.56,210711,,,A*7F
$GPRMC,212850.000,A,3748.7919,N,12217.8682,W,0.94,152.91,210711,,,A*7A
$GPRMC,212851.000,A,3748.7915,N,12217.8685,W,0.55,146.16,210711,,,A*77
$GPRMC,212852.000,A,3748.7912,N,12217.8689,W,0.80,127.42,210711,,,A*71
$GPRMC,212853.000,A,3748.7910,N,12217.8692,W,0.73,116.58,210711,,,A*7D
$GPRMC,212854.000,A,3748.7909,N,12217.8692,W,1.01,118.32,210711,,,A*74
$GPRMC,212855.000,A,3748.7907,N,12217.8692,W,0.95,119.53,210711,,,A*71
$GPRMC,212856.000,A,3748.7908,N,12217.8694,W,0.83,132.06,210711,,,A*75
$GPRMC,212857.000,A,3748.7905,N,12217.8700,W,1.70,203.66,210711,,,A*7F
$GPRMC,212858.000,A,3748.7893,N,12217.8711,W,2.05,196.75,210711,,,A*72
$GPRMC,212859.000,A,3748.7885,N,12217.8717,W,1.69,202.49,210711,,,A*7A
$GPRMC,212900.000,A,3748.7881,N,12217.8720,W,1.24,173.23,210711,,,A*77
$GPRMC,212901.000,A,3748.7881,N,12217.8722,W,1.40,163.81,210711,,,A*7F
$GPRMC,212902.000,A,3748.7883,N,12217.8723,W,0.96,161.81,210711,,,A*77
$GPRMC,212903.000,A,3748.7882,N,12217.8727,W,1.69,203.20,210711,,,A*7E
$GPRMC,212904.000,A,3748.7876,N,12217.8734,W,1.65,194.55,210711,,,A*73
$GPRMC,212905.000,A,3748.7867,N,12217.8741,W,1.60,189.07,210711,,,A*7E
$GPRMC,212906.000,A,3748.7861,N,12217.8747,W,1.55,179.65,210711,,,A*70
$GPRMC,212907.000,A,3748.7852,N,12217.8752,W,1.52,200.78,210711,,,A*73
$GPRMC,212908.000,A,3748.7842,N,12217.8758,W,1.37,177.58,210711,,,A*75
$GPRMC,212909.000,A,3748.7836,N,12217.8764,W,1.19,173.95,210711,,,A*71
$GPRMC,212910.000,A,3748.7826,N,12217.8774,W,1.40,218.23,210711,,,A*76
$GPRMC,212911.000,A,3748.7819,N,12217.8782,W,1.51,208.75,210711,,,A*70
$GPRMC,212912.000,A,3748.7811,N,12217.8791,W,1.61,177.66,210711,,,A*73
$GPRMC,212913.000,A,3748.7799,N,12217.8802,W,1.67,177.43,210711,,,A*79
$GPRMC,212914.000,A,3748.7785,N,12217.8811,W,1.82,166.85,210711,,,A*70
$GPRMC,212915.000,A,3748.7780,N,12217.8815,W,1.37,177.09,210711,,,A*7A
$GPRMC,212916.000,A,3748.7773,N,12217.8820,W,1.98,185.68,210711,,,A*7C
$GPRMC,212917.000,A,3748.7763,N,12217.8827,W,2.02,188.73,210711,,,A*7C
$GPRMC,212918.000,A,3748.7758,N,12217.8834,W,1.72,175.62,210711,,,A*7F
$GPRMC,212919.000,A,3748.7756,N,12217.8840,W,1.85,190.71,210711,,,A*72
$GPRMC,212920.000,A,3748.7743,N,12217.8857,W,1.71,182.23,210711,,,A*75
$GPRMC,212921.000,A,3748.7727,N,12217.8879,W,2.49,210.91,210711,,,A*73
$GPRMC,212922.000,A,3748.7709,N,12217.8903,W,3.02,207.90,210711,,,A*79
$GPRMC,212923.000,A,3748.7711,N,12217.8918,W,2.42,200.47,210711,,,A*73
$GPRMC,212924.000,A,3748.7705,N,12217.8928,W,1.97,195.24,210711,,,A*73
$GPRMC,212925.000,A,3748.7700,N,12217.8939,W,1.76,203.59,210711,,,A*7E
$GPRMC,212926.000,A,3748.7696,N,12217.8952,W,1.84,204.41,210711,,,A*7D
$GPRMC,212927.000,A,3748.7693,N,12217.8963,W,1.71,209.50,210711,,,A*7C
$GPRMC,212928.000,A,3748.7684,N,12217.8971,W,1.51,203.29,210711,,,A*70
$GPRMC,212929.000,A,3748.7670,N,12217.8978,W,2.24,184.28,210711,,,A*7F
$GPRMC,212930.000,A,3748.7658,N,12217.8990,W,2.18,194.54,210711,,,A*7E
$GPRMC,212931.000,A,3748.7649,N,12217.8997,W,1.92,199.47,210711,,,A*76
$GPRMC,212932.000,A,3748.7651,N,12217.8996,W,1.77,206.43,210711,,,A*77
$GPRMC,212933.000,A,3748.7646,N,12217.9002,W,1.55,189.31,210711,,,A*74
$GPRMC,212934.000,A,3748.7643,N,12217.9007,W,1.39,211.37,210711,,,A*7D
$GPRMC,212935.000,A,3748.7642,N,12217.9016,W,1.30,202.11,210711,,,A*72
$GPRMC,212936.000,A,3748.7642,N,12217.9022,W,1.14,212.50,210711,,,A*74
$GPRMC,212937.000,A,3748.7638,N,12217.9031,W,1.38,215.93,210711,,,A*7C
$GPRMC,212938.000,A,3748.7630,N,12217.9039,W,1.62,214.74,210711,,,A*74
$GPRMC,212939.000,A,3748.7625,N,12217.9045,W,1.31,202.28,210711,,,A*72
$GPRMC,212940.000,A,3748.7621,N,12217.9052,W,1.31,211.27,210711,,,A*73
$GPRMC,212941.000,A,3748.7613,N,12217.9059,W,1.39,187.81,210711,,,A*70
$GPRMC,212942.000,A,3748.7608,N,12217.9065,W,1.08,195.65,210711,,,A*7D
$GPRMC,212943.000,A,3748.7604,N,12217.9068,W,0.98,184.34,210711,,,A*71
$GPRMC,212944.000,A,3748.7599,N,12217.9073,W,1.22,184.88,210711,,,A*7C
$GPRMC,212945.000,A,3748.7596,N,12217.9074,W,1.08,181.17,210711,,,A*7E
$GPRMC,212946.000,A,3748.7589,N,12217.9079,W,1.14,198.25,210711,,,A*7A
$GPRMC,212947.000,A,3748.7585,N,12217.9082,W,1.03,198.66,210711,,,A*72
$GPRMC,212948.000,A,3748.7582,N,12217.9085,W,1.36,217.39,210711,,,A*75
$GPRMC,212949.000,A,3748.7580,N,12217.9088,W,0.73,217.64,210711,,,A*73
$GPRMC,212950.000,A,3748.7576,N,12217.9091,W,1.17,191.56,210711,,,A*75
$GPRMC,212951.000,A,3748.7570,N,12217.9093,W,2.08,187.92,210711,,,A*72
$GPRMC,212952.000,A,3748.7557,N,12217.9102,W,2.96,214.88,210711,,,A*78
$GPRMC,212953.000,A,3748.7550,N,12217.9109,W,2.25,219.79,210711,,,A*7E
$GPRMC,212954.000,A,3748.7540,N,12217.9115,W,0.89,253.15,210711,,,A*75
$GPRMC,212955.000,A,3748.7527,N,12217.9131,W,1.31,226.82,210711,,,A*7D
$GPRMC,212956.000,A,3748.7513,N,12217.9151,W,3.42,216.14,210711,,,A*75
$GPRMC,212957.000,A,3748.7507,N,12217.9161,W,2.94,218.16,210711,,,A*74
$GPRMC,212958.000,A,3748.7500,N,12217.9171,W,2.73,213.45,210711,,,A*79
$GPRMC,212959.000,A,3748.7495,N,12217.9177,W,2.12,209.35,210711,,,A*78
$GPRMC,213000.000,A,3748.7494,N,12217.9181,W,1.74,210.37,210711,,,A*7D
$GPRMC,213001.000,A,3748.7490,N,12217.9185,W,1.93,212.96,210711,,,A*7C
$GPRMC,213002.000,A,3748.7487,N,12217.9184,W,1.86,215.70,210711,,,A*73
$GPRMC,213003.000,A,3748.7486,N,12217.9182,W,1.36,204.37,210711,,,A*7D
$GPRMC,213004.000,A,3748.7483,N,12217.9176,W,1.58,207.38,210711,,,A*70
$GPRMC,213005.000,A,3748.7490,N,12217.9157,W,0.71,167.61,210711,,,A*73
$GPRMC,213006.000,A,3748.7489,N,12217.9148,W,0.74,158.48,210711,,,A*74
$GPRMC,213007.000,A,3748.7489,N,12217.9139,W,0.53,169.90,210711,,,A*71
$GPRMC,213008.000,A,3748.7495,N,12217.9126,W,0.41,150.82,210711,,,A*77
$GPRMC,213009.000,A,3748.7498,N,12217.9127,W,0.26,228.24,210711,,,A*7B
$GPRMC,213010.000,A,3748.7504,N,12217.9128,W,0.71,219.32,210711,,,A*7F
$GPRMC,213011.000,A,3748.7510,N,12217.9122,W,0.97,107.73,210711,,,A*70
$GPRMC,213012.000,A,3748.7508,N,12217.9122,W,0.88,142.57,210711,,,A*73
$GPRMC,213013.000,A,3748.7505,N,12217.9120,W,0.63,118.47,210711,,,A*76
$GPRMC,213014.000,A,3748.7490,N,12217.9126,W,1.16,180.87,210711,,,A*74
$GPRMC,213015.000,A,3748.7489,N,12217.9125,W,0.67,168.33,210711,,,A*70
$GPRMC,213016.000,A,3748.7488,N,12217.9123,W,0.35,126.83,210711,,,A*72
$GPRMC,213017.000,A,3748.7487,N,12217.9123,W,0.67,177.48,210711,,,A*78
$GPRMC,213018.000,A,3748.7487,N,12217.9121,W,0.81,155.61,210711,,,A*76
$GPRMC,213019.000,A,3748.7480,N,12217.9120,W,0.92,165.02,210711,,,A*75
$GPRMC,213020.000,A,3748.7474,N,12217.9117,W,1.02,148.65,210711,,,A*76
$GPRMC,213021.000,A,3748.7464,N,12217.9121,W,0.81,173.65,210711,,,A*71
$GPRMC,213022.000,A,3748.7457,N,12217.9124,W,0.78,174.50,210711,,,A*70
$GPRMC,213023.000,A,3748.7455,N,12217.9121,W,0.86,188.49,210711,,,A*7C
$GPRMC,213024.000,A,3748.7454,N,12217.9121,W,1.33,197.57,210711,,,A*74
$GPRMC,213025.000,A,3748.7460,N,12217.9120,W,0.63,204.80,210711,,,A*74
$GPRMC,213026.000,A,3748.7454,N,12217.9129,W,0.65,45.80,210711,,,A*48
$GPRMC,213027.000,A,3748.7456,N,12217.9134,W,0.21,320.69,210711,,,A*70
$GPRMC,213028.000,A,3748.7457,N,12217.9138,W,0.57,236.81,210711,,,A*73
$GPRMC,213029.000,A,3748.7456,N,12217.9143,W,0.35,182.30,210711,,,A*7D
$GPRMC,213030.000,A,3748.7451,N,12217.9150,W,1.13,209.37,210711,,,A*72
$GPRMC,213031.000,A,3748.7448,N,12217.9157,W,0.91,203.76,210711,,,A*78
$GPRMC,213032.000,A,3748.7451,N,12217.9157,W,0.30,165.83,210711,,,A*71
$GPRMC,213033.000,A,3748.7451,N,12217.9160,W,0.21,180.65,210711,,,A*77
$GPRMC,213034.000,A,3748.7448,N,12217.9162,W,0.26,149.62,210711,,,A*7F
$GPRMC,213035.000,A,3748.7445,N,12217.9166,W,0.37,132.02,210711,,,A*7D
$GPRMC,213036.000,A,3748.7442,N,12217.9167,W,0.35,206.41,210711,,,A*79
$GPRMC,213037.000,A,3748.7435,N,12217.9170,W,0.71,194.41,210711,,,A*76
$GPRMC,213038.000,A,3748.7428,N,12217.9169,W,1.10,191.90,210711,,,A*72
$GPRMC,213039.000,A,3748.7415,N,12217.9174,W,1.70,206.04,210711,,,A*77
$GPRMC,213040.000,A,3748.7399,N,12217.9182,W,1.42,179.76,210711,,,A*7C
$GPRMC,213041.000,A,3748.7391,N,12217.9187,W,1.78,200.41,210711,,,A*70
$GPRMC,213042.000,A,3748.7385,N,12217.9195,W,1.93,220.20,210711,,,A*75
$GPRMC,213043.000,A,3748.7386,N,12217.9197,W,1.53,201.90,210711,,,A*71
$GPRMC,213044.000,A,3748.7381,N,12217.9198,W,1.26,191.93,210711,,,A*75
$GPRMC,213045.000,A,3748.7382,N,12217.9197,W,0.69,183.20,210711,,,A*79
$GPRMC,213046.000,A,3748.7383,N,12217.9197,W,1.18,194.23,210711,,,A*79
$GPRMC,213047.000,A,3748.7381,N,12217.9197,W,1.02,171.41,210711,,,A*7E
$GPRMC,213048.000,A,3748.7372,N,12217.9199,W,1.12,175.68,210711,,,A*7D
$GPRMC,213049.000,A,3748.7361,N,12217.9203,W,1.29,183.91,210711,,,A*79
$GPRMC,213050.000,A,3748.7354,N,12217.9208,W,1.50,206.51,210711,,,A*70
$GPRMC,213051.000,A,3748.7344,N,12217.9215,W,1.26,194.83,210711,,,A*7A
$GPRMC,213052.000,A,3748.7340,N,12217.9217,W,1.05,192.73,210711,,,A*77
$GPRMC,213053.000,A,3748.7333,N,12217.9220,W,1.80,209.48,210711,,,A*72
$GPRMC,213054.000,A,3748.7329,N,12217.9223,W,1.74,206.92,210711,,,A*7E
$GPRMC,213055.000,A,3748.7328,N,12217.9227,W,2.71,221.76,210711,,,A*73
$GPRMC,213056.000,A,3748.7329,N,12217.9227,W,1.44,202.47,210711,,,A*77
$GPRMC,213057.000,A,3748.7332,N,12217.9226,W,1.21,203.74,210711,,,A*7F
$GPRMC,213058.000,A,3748.7333,N,12217.9228,W,1.01,194.45,210711,,,A*72
$GPRMC,213059.000,A,3748.7325,N,12217.9237,W,1.21,173.92,210711,,,A*7B
$GPRMC,213100.000,A,3748.7325,N,12217.9237,W,0.62,131.37,210711,,,A*79
$GPRMC,213101.000,A,3748.7317,N,12217.9242,W,0.64,171.92,210711,,,A*76
$GPRMC,213102.000,A,3748.7308,N,12217.9252,W,0.82,191.89,210711,,,A*76
$GPRMC,213103.000,A,3748.7295,N,12217.9264,W,1.13,200.52,210711,,,A*73
$GPRMC,213104.000,A,3748.7290,N,12217.9271,W,1.95,208.39,210711,,,A*7E
$GPRMC,213105.000,A,3748.7280,N,12217.9277,W,1.75,202.53,210711,,,A*70
$GPRMC,213106.000,A,3748.7275,N,12217.9281,W,1.96,218.07,210711,,,A*77
$GPRMC,213107.000,A,3748.7269,N,12217.9287,W,1.53,202.40,210711,,,A*7C
$GPRMC,213108.000,A,3748.7255,N,12217.9300,W,2.94,218.44,210711,,,A*75
$GPRMC,213109.000,A,3748.7243,N,12217.9315,W,2.65,214.62,210711,,,A*71
$GPRMC,213110.000,A,3748.7236,N,12217.9326,W,2.09,210.61,210711,,,A*76
$GPRMC,213111.000,A,3748.7227,N,12217.9334,W,2.33,206.53,210711,,,A*7B
$GPRMC,213112.000,A,3748.7227,N,12217.9333,W,1.89,205.03,210711,,,A*7B
$GPRMC,213113.000,A,3748.7225,N,12217.9336,W,1.51,197.53,210711,,,A*75
$GPRMC,213114.000,A,3748.7229,N,12217.9332,W,1.08,190.66,210711,,,A*77
$GPRMC,213115.000,A,3748.7225,N,12217.9335,W,1.55,197.39,210711,,,A*78
$GPRMC,213116.000,A,3748.7224,N,12217.9334,W,1.79,212.40,210711,,,A*75
$GPRMC,213117.000,A,3748.7218,N,12217.9339,W,1.86,208.98,210711,,,A*78
$GPRMC,213118.000,A,3748.7208,N,12217.9350,W,1.94,211.55,210711,,,A*73
$GPRMC,213119.000,A,3748.7198,N,12217.9359,W,1.78,204.72,210711,,,A*72
$GPRMC,213120.000,A,3748.7186,N,12217.9370,W,2.26,219.86,210711,,,A*73
$GPRMC,213121.000,A,3748.7177,N,12217.9379,W,2.39,211.36,210711,,,A*78
$GPRMC,213122.000,A,3748.7175,N,12217.9380,W,2.08,209.82,210711,,,A*7B
$GPRMC,213123.000,A,3748.7164,N,12217.9390,W,2.44,208.03,210711,,,A*7B
$GPRMC,213124.000,A,3748.7160,N,12217.9392,W,1.72,194.78,210711,,,A*76
$GPRMC,213125.000,A,3748.7152,N,12217.9400,W,1.62,200.46,210711,,,A*78
$GPRMC,213126.000,A,3748.7147,N,12217.9406,W,2.05,214.41,210711,,,A*79
$GPRMC,213127.000,A,3748.7133,N,12217.9419,W,3.39,220.38,210711,,,A*72
$GPRMC,213128.000,A,3748.7124,N,12217.9426,W,3.05,213.70,210711,,,A*74
$GPRMC,213129.000,A,3748.7119,N,12217.9423,W,2.04,204.17,210711,,,A*79
$GPRMC,213130.000,A,3748.7110,N,12217.9426,W,1.74,200.64,210711,,,A*79
$GPRMC,213131.000,A,3748.7099,N,12217.9432,W,2.39,211.47,210711,,,A*76
$GPRMC,213132.000,A,3748.7085,N,12217.9442,W,3.11,211.64,210711,,,A*75
$GPRMC,213133.000,A,3748.7072,N,12217.9450,W,2.48,206.20,210711,,,A*74
$GPRMC,213134.000,A,3748.7060,N,12217.9457,W,2.29,192.77,210711,,,A*7C
$GPRMC,213135.000,A,3748.7048,N,12217.9465,W,2.61,190.50,210711,,,A*7D
$GPRMC,213136.000,A,3748.7036,N,12217.9474,W,3.08,197.27,210711,,,A*7E
$GPRMC,213137.000,A,3748.7026,N,12217.9482,W,2.75,186.76,210711,,,A*78
$GPRMC,213138.000,A,3748.7018,N,12217.9485,W,2.67,186.70,210711,,,A*78
$GPRMC,213139.000,A,3748.7011,N,12217.9487,W,2.43,180.37,210711,,,A*71
$GPRMC,213140.000,A,3748.6996,N,12217.9494,W,2.75,188.58,210711,,,A*7E
$GPRMC,213141.000,A,3748.6979,N,12217.9502,W,3.42,200.25,210711,,,A*7C
$GPRMC,213142.000,A,3748.6965,N,12217.9509,W,3.27,195.74,210711,,,A*71
$GPRMC,213143.000,A,3748.6959,N,12217.9510,W,2.82,191.85,210711,,,A*73
$GPRMC,213144.000,A,3748.6955,N,12217.9512,W,2.59,194.31,210711,,,D*73
$GPRMC,213145.000,A,3748.6952,N,12217.9514,W,2.24,192.65,210711,,,D*7E
$GPRMC,213146.000,A,3748.6944,N,12217.9522,W,3.09,212.29,210711,,,D*72
$GPRMC,213147.000,A,3748.6934,N,12217.9535,W,4.32,218.85,210711,,,D*71
$GPRMC,213148.000,A,3748.6921,N,12217.9549,W,4.56,214.80,210711,,,D*7A
$GPRMC,213149.000,A,3748.6915,N,12217.9552,W,3.60,206.10,210711,,,D*7E
$GPRMC,213150.000,A,3748.6914,N,12217.9551,W,2.52,190.40,210711,,,D*7D
$GPRMC,213151.000,A,3748.6909,N,12217.9549,W,2.08,176.32,210711,,,D*7B
$GPRMC,213152.000,A,3748.6908,N,12217.9545,W,1.46,173.55,210711,,,D*78
$GPRMC,213153.000,A,3748.6912,N,12217.9541,W,0.91,191.20,210711,,,D*73
$GPRMC,213154.000,A,3748.6914,N,12217.9542,W,0.74,198.23,210711,,,D*70
$GPRMC,213155.000,A,3748.6915,N,12217.9543,W,1.09,214.39,210711,,,D*76
$GPRMC,213156.000,A,3748.6915,N,12217.9544,W,0.95,202.50,210711,,,D*7E
$GPRMC,213157.000,A,3748.6917,N,12217.9542,W,0.76,202.76,210711,,,D*72
$GPRMC,213158.000,A,3748.6920,N,12217.9540,W,0.40,184.28,210711,,,D*78
$GPRMC,213159.000,A,3748.6922,N,12217.9539,W,0.22,152.11,210711,,,D*70
$GPRMC,213200.000,A,3748.6926,N,12217.9536,W,0.68,113.54,210711,,,D*7E
$GPRMC,213201.000,A,3748.6931,N,12217.9531,W,0.80,163.47,210711,,,D*7D
$GPRMC,213202.000,A,3748.6936,N,12217.9525,W,0.49,125.67,210711,,,D*79
$GPRMC,213203.000,A,3748.6934,N,12217.9527,W,0.55,133.42,210711,,,D*75
$GPRMC,213204.000,A,3748.6933,N,12217.9525,W,0.55,104.89,210711,,,D*74
$GPRMC,213205.000,A,3748.6934,N,12217.9527,W,0.65,78.41,210711,,,D*4D
$GPRMC,213206.000,A,3748.6932,N,12217.9527,W,0.74,176.43,210711,,,D*75
$GPRMC,213207.000,A,3748.6926,N,12217.9534,W,1.31,220.23,210711,,,D*75
$GPRMC,213208.000,A,3748.6918,N,12217.9544,W,1.07,210.28,210711,,,D*7D
$GPRMC,213209.000,A,3748.6912,N,12217.9548,W,0.80,205.20,210711,,,D*78
$GPRMC,213210.000,A,3748.6904,N,12217.9555,W,0.97,192.55,210711,,,D*72
$GPRMC,213211.000,A,3748.6899,N,12217.9558,W,1.10,183.35,210711,,,D*73
$GPRMC,213212.000,A,3748.6892,N,12217.9562,W,1.06,168.78,210711,,,D*79
$GPRMC,213213.000,A,3748.6888,N,12217.9569,W,0.67,177.39,210711,,,D*75
$GPRMC,213214.000,A,3748.6878,N,12217.9579,W,1.49,199.44,210711,,,D*7B
$GPRMC,213215.000,A,3748.6868,N,12217.9591,W,1.76,223.41,210711,,,D*76
$GPRMC,213216.000,A,3748.6862,N,12217.9598,W,1.10,197.35,210711,,,D*79
$GPRMC,213217.000,A,3748.6850,N,12217.9611,W,1.33,205.43,210711,,,D*73
$GPRMC,213218.000,A,3748.6843,N,12217.9617,W,1.31,176.01,210711,,,D*7B
$GPRMC,213219.000,A,3748.6838,N,12217.9622,W,1.19,174.32,210711,,,D*78
$GPRMC,213220.000,A,3748.6834,N,12217.9628,W,1.19,150.92,210711,,,D*78
$GPRMC,213221.000,A,3748.6827,N,12217.9635,W,1.33,173.76,210711,,,D*74
$GPRMC,213222.000,A,3748.6820,N,12217.9640,W,1.75,202.86,210711,,,D*7A
$GPRMC,213223.000,A,3748.6814,N,12217.9643,W,1.58,194.39,210711,,,D*78
$GPRMC,213224.000,A,3748.6802,N,12217.9654,W,1.91,207.39,210711,,,D*72
$GPRMC,213225.000,A,3748.6795,N,12217.9657,W,1.60,195.19,210711,,,D*75
$GPRMC,213226.000,A,3748.6789,N,12217.9654,W,1.40,182.75,210711,,,D*76
$GPRMC,213227.000,A,3748.6784,N,12217.9654,W,1.20,181.56,210711,,,D*7E
$GPRMC,213228.000,A,3748.6775,N,12217.9658,W,1.19,184.07,210711,,,D*78
$GPRMC,213229.000,A,3748.6768,N,12217.9661,W,1.22,185.03,210711,,,D*72
$GPRMC,213230.000,A,3748.6763,N,12217.9663,W,1.14,173.87,210711,,,D*73
$GPRMC,213231.000,A,3748.6759,N,12217.9661,W,1.74,185.51,210711,,,D*7D
$GPRMC,213232.000,A,3748.6763,N,12217.9661,W,1.33,178.18,210711,,,D*7B
$GPRMC,213233.000,A,3748.6749,N,12217.9670,W,2.67,191.06,210711,,,D*78
$GPRMC,213234.000,A,3748.6737,N,12217.9679,W,2.35,190.66,210711,,,D*7F
$GPRMC,213235.000,A,3748.6727,N,12217.9685,W,1.68,200.86,210711,,,D*73
$GPRMC,213236.000,A,3748.6721,N,12217.9692,W,2.01,194.04,210711,,,D*78
$GPRMC,213237.000,A,3748.6718,N,12217.9698,W,1.32,192.17,210711,,,D*7E
$GPRMC,213238.000,A,3748.6715,N,12217.9703,W,1.33,189.14,210711,,,D*77
$GPRMC,213239.000,A,3748.6705,N,12217.9708,W,1.44,183.34,210711,,,D*74
$GPRMC,213240.000,A,3748.6692,N,12217.9716,W,2.16,190.84,210711,,,D*77
$GPRMC,213241.000,A,3748.6681,N,12217.9729,W,1.96,193.40,210711,,,D*78
$GPRMC,213242.000,A,3748.6674,N,12217.9734,W,2.24,192.02,210711,,,D*70
$GPRMC,213243.000,A,3748.6664,N,12217.9740,W,1.73,181.56,210711,,,D*71
$GPRMC,213244.000,A,3748.6654,N,12217.9748,W,2.00,203.58,210711,,,D*7D
$GPRMC,213245.000,A,3748.6637,N,12217.9763,W,3.59,210.37,210711,,,A*73
$GPRMC,213246.000,A,3748.6617,N,12217.9780,W,4.35,208.66,210711,,,A*7F
$GPRMC,213247.000,A,3748.6602,N,12217.9790,W,3.92,206.03,210711,,,A*7C
$GPRMC,213248.000,A,3748.6600,N,12217.9793,W,3.08,207.77,210711,,,A*73
$GPRMC,213249.000,A,3748.6607,N,12217.9792,W,1.85,205.09,210711,,,A*78
$GPRMC,213250.000,A,3748.6600,N,12217.9793,W,1.48,192.59,210711,,,A*7F
$GPRMC,213251.000,A,3748.6597,N,12217.9793,W,0.95,191.80,210711,,,A*75
$GPRMC,213252.000,A,3748.6596,N,12217.9792,W,1.74,201.17,210711,,,A*7C
$GPRMC,213253.000,A,3748.6585,N,12217.9795,W,3.21,201.97,210711,,,A*72
$GPRMC,213254.000,A,3748.6573,N,12217.9799,W,2.70,195.40,210711,,,A*71
$GPRMC,213255.000,A,3748.6564,N,12217.9802,W,2.79,193.37,210711,,,A*74
$GPRMC,213256.000,A,3748.6560,N,12217.9801,W,2.36,189.83,210711,,,A*7F
$GPRMC,213257.000,A,3748.6551,N,12217.9808,W,1.73,205.41,210711,,,A*7E
$GPRMC,213258.000,A,3748.6541,N,12217.9814,W,1.77,189.01,210711,,,A*7A
$GPRMC,213259.000,A,3748.6530,N,12217.9821,W,2.61,212.27,210711,,,A*7A
$GPRMC,213300.000,A,3748.6516,N,12217.9835,W,2.74,203.97,210711,,,A*79
$GPRMC,213301.000,A,3748.6507,N,12217.9842,W,2.97,202.96,210711,,,A*75
$GPRMC,213302.000,A,3748.6498,N,12217.9849,W,2.62,204.83,210711,,,A*72
$GPRMC,213303.000,A,3748.6489,N,12217.9858,W,3.10,208.94,210711,,,A*7D
$GPRMC,213304.000,A,3748.6476,N,12217.9870,W,2.52,200.86,210711,,,A*7C
$GPRMC,213305.000,A,3748.6474,N,12217.9868,W,2.18,185.07,210711,,,A*7F
$GPRMC,213306.000,A,3748.6468,N,12217.9869,W,2.32,190.07,210711,,,A*7C
$GPRMC,213307.000,A,3748.6465,N,12217.9867,W,2.20,197.11,210711,,,A*7D
$GPRMC,213308.000,A,3748.6461,N,12217.9868,W,2.31,202.47,210711,,,D*70
$GPRMC,213309.000,A,3748.6454,N,12217.9874,W,2.88,209.27,210711,,,D*75
$GPRMC,213310.000,A,3748.6443,N,12217.9885,W,3.77,211.37,210711,,,D*7C
$GPRMC,213311.000,A,3748.6436,N,12217.9892,W,3.17,214.31,210711,,,D*7C
$GPRMC,213312.000,A,3748.6430,N,12217.9899,W,2.52,205.82,210711,,,D*7A
$GPRMC,213313.000,A,3748.6420,N,12217.9909,W,2.26,205.98,210711,,,D*7A
$GPRMC,213314.000,A,3748.6412,N,12217.9919,W,2.00,198.15,210711,,,D*7B
$GPRMC,213315.000,A,3748.6409,N,12217.9920,W,1.33,165.97,210711,,,D*71
$GPRMC,213316.000,A,3748.6408,N,12217.9918,W,1.20,142.30,210711,,,D*72
$GPRMC,213317.000,A,3748.6407,N,12217.9915,W,0.92,136.91,210711,,,D*71
$GPRMC,213318.000,A,3748.6410,N,12217.9912,W,0.90,132.37,210711,,,D*75
$GPRMC,213319.000,A,3748.6409,N,12217.9914,W,0.93,134.52,210711,,,D*7C
$GPRMC,213320.000,A,3748.6407,N,12217.9916,W,0.75,170.32,210711,,,D*74
$GPRMC,213321.000,A,3748.6405,N,12217.9918,W,1.10,175.09,210711,,,D*76
$GPRMC,213322.000,A,3748.6399,N,12217.9921,W,1.24,168.15,210711,,,D*7B
$GPRMC,213323.000,A,3748.6401,N,12217.9916,W,1.29,159.18,210711,,,D*7A
$GPRMC,213324.000,A,3748.6404,N,12217.9912,W,0.92,157.46,210711,,,D*78
$GPRMC,213325.000,A,3748.6403,N,12217.9913,W,0.75,166.63,210711,,,D*73
$GPRMC,213326.000,A,3748.6405,N,12217.9910,W,0.86,187.87,210711,,,D*7C
$GPRMC,213327.000,A,3748.6404,N,12217.9913,W,1.01,210.87,210711,,,D*7C
$GPRMC,213328.000,A,3748.6401,N,12217.9917,W,0.80,221.01,210711,,,D*76
$GPRMC,213329.000,A,3748.6397,N,12217.9922,W,0.83,206.10,210711,,,D*7F
$GPRMC,213330.000,A,3748.6391,N,12217.9927,W,0.94,203.90,210711,,,D*7F
$GPRMC,213331.000,A,3748.6382,N,12217.9934,W,1.08,204.95,210711,,,D*78
$GPRMC,213332.000,A,3748.6375,N,12217.9939,W,1.34,189.68,210711,,,D*75
$GPRMC,213333.000,A,3748.6365,N,12217.9944,W,1.37,184.55,210711,,,D*7F
$GPRMC,213334.000,A,3748.6355,N,12217.9949,W,1.42,186.88,210711,,,D*76
$GPRMC,213335.000,A,3748.6346,N,12217.9953,W,1.51,183.15,210711,,,D*7D
$GPRMC,213336.000,A,3748.6338,N,12217.9957,W,1.43,189.52,210711,,,D*79
$GPRMC,213337.000,A,3748.6329,N,12217.9961,W,1.63,190.31,210711,,,D*72
$GPRMC,213338.000,A,3748.6321,N,12217.9965,W,1.53,176.66,210711,,,D*78
$GPRMC,213339.000,A,3748.6313,N,12217.9972,W,1.40,174.21,210711,,,D*7D
$GPRMC,213340.000,A,3748.6305,N,12217.9977,W,1.23,185.83,210711,,,D*72
$GPRMC,213341.000,A,3748.6302,N,12217.9981,W,0.87,189.34,210711,,,D*72
$GPRMC,213342.000,A,3748.6298,N,12217.9986,W,1.23,190.59,210711,,,D*78
$GPRMC,213343.000,A,3748.6296,N,12217.9992,W,1.30,193.52,210711,,,D*78
$GPRMC,213344.000,A,3748.6304,N,12217.9989,W,1.47,209.96,210711,,,D*77
$GPRMC,213345.000,A,3748.6296,N,12217.9993,W,1.40,196.34,210711,,,D*7D
$GPRMC,213346.000,A,3748.6297,N,12217.9996,W,1.10,198.09,210711,,,D*7F
$GPRMC,213347.000,A,3748.6302,N,12217.9993,W,0.74,200.54,210711,,,D*7F
$GPRMC,213348.000,A,3748.6304,N,12217.9991,W,0.69,142.93,210711,,,D*76
$GPRMC,213349.000,A,3748.6302,N,12217.9993,W,0.77,102.89,210711,,,D*73
$GPRMC,213350.000,A,3748.6293,N,12217.9999,W,1.10,132.55,210711,,,D*7A
$GPRMC,213351.000,A,3748.6288,N,12218.0003,W,0.78,98.74,210711,,,D*40
$GPRMC,213352.000,A,3748.6286,N,12218.0005,W,0.86,35.41,210711,,,D*4B
$GPRMC,213353.000,A,3748.6289,N,12218.0005,W,0.76,42.33,210711,,,D*4F
$GPRMC,213354.000,A,3748.6287,N,12218.0007,W,0.69,44.49,210711,,,D*41
$GPRMC,213355.000,A,3748.6283,N,12218.0010,W,0.07,43.61,210711,,,D*47
$GPRMC,213356.000,A,3748.6283,N,12218.0014,W,0.55,210.68,210711,,,D*7A
$GPRMC,213357.000,A,3748.6280,N,12218.0016,W,0.61,174.22,210711,,,D*72
$GPRMC,213358.000,A,3748.6274,N,12218.0017,W,1.47,120.21,210711,,,D*70
$GPRMC,213359.000,A,3748.6266,N,12218.0017,W,2.34,114.60,210711,,,D*77
$GPRMC,213400.000,A,3748.6260,N,12218.0017,W,2.45,108.25,210711,,,D*70
$GPRMC,213401.000,A,3748.6255,N,12218.0012,W,2.53,88.80,210711,,,D*43
$GPRMC,213402.000,A,3748.6249,N,12218.0009,W,2.15,92.73,210711,,,D*42
$GPRMC,213403.000,A,3748.6238,N,12218.0013,W,2.12,107.04,210711,,,D*74
$GPRMC,213404.000,A,3748.6237,N,12218.0003,W,2.22,98.91,210711,,,D*45
$GPRMC,213405.000,A,3748.6232,N,12217.9993,W,2.30,110.43,210711,,,D*7A
$GPRMC,213406.000,A,3748.6226,N,12217.9983,W,2.22,122.51,210711,,,D*7C
$GPRMC,213407.000,A,3748.6215,N,12217.9980,W,2.37,136.69,210711,,,D*74
$GPRMC,213408.000,A,3748.6211,N,12217.9974,W,2.34,116.11,210711,,,D*7A
$GPRMC,213409.000,A,3748.6208,N,12217.9965,W,2.19,98.92,210711,,,D*40
$GPRMC,213410.000,A,3748.6204,N,12217.9959,W,1.72,106.95,210711,,,D*74
$GPRMC,213411.000,A,3748.6197,N,12217.9950,W,2.00,119.92,210711,,,D*7A
$GPRMC,213412.000,A,3748.6191,N,12217.9941,W,2.38,123.66,210711,,,D*76
$GPRMC,213413.000,A,3748.6183,N,12217.9932,W,2.49,132.04,210711,,,D*72
$GPRMC,213414.000,A,3748.6176,N,12217.9926,W,2.17,114.11,210711,,,D*71
$GPRMC,213415.000,A,3748.6170,N,12217.9917,W,2.13,101.26,210711,,,D*70
$GPRMC,213416.000,A,3748.6164,N,12217.9908,W,1.99,111.64,210711,,,D*7E
$GPRMC,213417.000,A,3748.6160,N,12217.9902,W,2.24,117.29,210711,,,D*7B
$GPRMC,213418.000,A,3748.6153,N,12217.9894,W,2.54,127.22,210711,,,D*75
$GPRMC,213419.000,A,3748.6146,N,12217.9886,W,2.39,114.00,210711,,,D*78
$GPRMC,213420.000,A,3748.6142,N,12217.9877,W,2.10,102.22,210711,,,D*74
$GPRMC,213421.000,A,3748.6139,N,12217.9868,W,2.24,91.96,210711,,,D*44
$GPRMC,213422.000,A,3748.6139,N,12217.9861,W,2.31,91.21,210711,,,D*46
$GPRMC,213423.000,A,3748.6134,N,12217.9856,W,2.06,99.57,210711,,,D*43
$GPRMC,213424.000,A,3748.6133,N,12217.9851,W,2.03,111.88,210711,,,D*72
$GPRMC,213425.000,A,3748.6129,N,12217.9846,W,2.04,111.87,210711,,,D*76
$GPRMC,213426.000,A,3748.6125,N,12217.9840,W,2.14,112.71,210711,,,D*74
$GPRMC,213427.000,A,3748.6122,N,12217.9834,W,2.04,102.65,210711,,,D*74
$GPRMC,213428.000,A,3748.6120,N,12217.9828,W,1.81,91.38,210711,,,D*49
$GPRMC,213429.000,A,3748.6115,N,12217.9823,W,1.79,110.62,210711,,,D*75
$GPRMC,213430.000,A,3748.6112,N,12217.9816,W,2.11,114.95,210711,,,D*7D
$GPRMC,213431.000,A,3748.6108,N,12217.9809,W,1.92,112.40,210711,,,D*7F
$GPRMC,213432.000,A,3748.6103,N,12217.9804,W,1.85,119.85,210711,,,D*7E
$GPRMC,213433.000,A,3748.6099,N,12217.9796,W,2.58,130.82,210711,,,D*76
$GPRMC,213434.000,A,3748.6095,N,12217.9788,W,2.21,118.84,210711,,,D*70
$GPRMC,213435.000,A,3748.6092,N,12217.9781,W,2.02,104.79,210711,,,D*71
$GPRMC,213436.000,A,3748.6089,N,12217.9774,W,1.79,124.20,210711,,,D*73
$GPRMC,213437.000,A,3748.6086,N,12217.9766,W,1.66,118.87,210711,,,D*72
$GPRMC,213438.000,A,3748.6083,N,12217.9757,W,2.27,113.91,210711,,,D*70
$GPRMC,213439.000,A,3748.6079,N,12217.9749,W,2.16,122.47,210711,,,D*70
$GPRMC,213440.000,A,3748.6074,N,12217.9741,W,2.37,131.35,210711,,,D*7F
$GPRMC,213441.000,A,3748.6068,N,12217.9732,W,2.45,119.45,210711,,,D*7F
$GPRMC,213442.000,A,3748.6066,N,12217.9725,W,1.93,115.26,210711,,,D*75
$GPRMC,213443.000,A,3748.6060,N,12217.9717,W,2.06,125.70,210711,,,D*7C
$GPRMC,213444.000,A,3748.6052,N,12217.9707,W,2.94,138.06,210711,,,D*7D
$GPRMC,213445.000,A,3748.6040,N,12217.9696,W,2.77,127.60,210711,,,D*75
$GPRMC,213446.000,A,3748.6034,N,12217.9688,W,2.52,132.30,210711,,,D*7C
$GPRMC,213447.000,A,3748.6030,N,12217.9681,W,2.34,120.77,210711,,,D*70
$GPRMC,213448.000,A,3748.6026,N,12217.9672,W,2.30,103.55,210711,,,D*71
$GPRMC,213449.000,A,3748.6021,N,12217.9662,W,2.05,87.43,210711,,,D*4A
$GPRMC,213450.000,A,3748.6016,N,12217.9651,W,2.51,110.55,210711,,,D*7F
$GPRMC,213451.000,A,3748.6009,N,12217.9643,W,2.50,126.66,210711,,,D*77
$GPRMC,213452.000,A,3748.6006,N,12217.9637,W,2.18,128.25,210711,,,D*7D
$GPRMC,213453.000,A,3748.6005,N,12217.9633,W,2.36,124.15,210711,,,D*78
$GPRMC,213454.000,A,3748.6004,N,12217.9627,W,2.28,122.83,210711,,,D*7D
$GPRMC,213455.000,A,3748.6002,N,12217.9622,W,2.09,124.91,210711,,,D*79
$GPRMC,213456.000,A,3748.6001,N,12217.9617,W,2.26,116.73,210711,,,D*7F
$GPRMC,213457.000,A,3748.5997,N,12217.9611,W,2.04,124.96,210711,,,D*77
$GPRMC,213458.000,A,3748.5993,N,12217.9606,W,1.81,119.80,210711,,,D*7D
$GPRMC,213459.000,A,3748.5989,N,12217.9597,W,2.46,102.63,210711,,,D*73
$GPRMC,213500.000,A,3748.5985,N,12217.9585,W,2.03,108.65,210711,,,D*7C
$GPRMC,213501.000,A,3748.5982,N,12217.9577,W,1.92,115.83,210711,,,D*78
$GPRMC,213502.000,A,3748.5980,N,12217.9571,W,1.92,105.26,210711,,,D*71
$GPRMC,213503.000,A,3748.5979,N,12217.9564,W,1.63,97.18,210711,,,D*4B
$GPRMC,213504.000,A,3748.5974,N,12217.9554,W,1.59,103.02,210711,,,D*7C
$GPRMC,213505.000,A,3748.5972,N,12217.9548,W,1.17,106.97,210711,,,D*75
$GPRMC,213506.000,A,3748.5970,N,12217.9543,W,1.89,110.51,210711,,,D*75
$GPRMC,213507.000,A,3748.5969,N,12217.9536,W,2.10,119.52,210711,,,D*77
$GPRMC,213508.000,A,3748.5966,N,12217.9528,W,2.09,107.73,210711,,,D*7C
$GPRMC,213509.000,A,3748.5963,N,12217.9521,W,2.01,97.71,210711,,,D*43
$GPRMC,213510.000,A,3748.5959,N,12217.9513,W,2.04,111.50,210711,,,D*7A
$GPRMC,213511.000,A,3748.5957,N,12217.9505,W,1.97,105.35,210711,,,D*7D
$GPRMC,213512.000,A,3748.5953,N,12217.9497,W,2.09,111.01,210711,,,D*76
$GPRMC,213513.000,A,3748.5949,N,12217.9489,W,2.12,117.83,210711,,,D*75
$GPRMC,213514.000,A,3748.5944,N,12217.9480,W,2.47,121.19,210711,,,D*70
$GPRMC,213515.000,A,3748.5939,N,12217.9473,W,2.34,123.24,210711,,,D*7F
$GPRMC,213516.000,A,3748.5934,N,12217.9465,W,2.34,126.52,210711,,,D*72
$GPRMC,213517.000,A,3748.5929,N,12217.9458,W,2.46,129.64,210711,,,D*7E
$GPRMC,213518.000,A,3748.5929,N,12217.9453,W,2.24,113.42,210711,,,D*73
$GPRMC,213519.000,A,3748.5925,N,12217.9445,W,2.13,110.47,210711,,,D*7B
$GPRMC,213520.000,A,3748.5922,N,12217.9439,W,2.04,105.48,210711,,,D*70
$GPRMC,213521.000,A,3748.5919,N,12217.9432,W,2.22,121.24,210711,,,D*7A
$GPRMC,213522.000,A,3748.5916,N,12217.9427,W,2.18,110.81,210711,,,D*76
$GPRMC,213523.000,A,3748.5917,N,12217.9418,W,2.02,116.46,210711,,,D*7C
$GPRMC,213524.000,A,3748.5910,N,12217.9406,W,2.33,107.06,210711,,,D*75
$GPRMC,213525.000,A,3748.5904,N,12217.9397,W,2.23,108.90,210711,,,D*7F
$GPRMC,213526.000,A,3748.5895,N,12217.9386,W,2.29,117.40,210711,,,D*7C
$GPRMC,213527.000,A,3748.5887,N,12217.9380,W,1.83,138.82,210711,,,D*78
$GPRMC,213528.000,A,3748.5881,N,12217.9379,W,2.20,126.89,210711,,,D*79
$GPRMC,213529.000,A,3748.5873,N,12217.9377,W,2.48,145.02,210711,,,D*73
$GPRMC,213530.000,A,3748.5863,N,12217.9375,W,2.09,136.64,210711,,,D*79
$GPRMC,213531.000,A,3748.5859,N,12217.9370,W,1.70,150.52,210711,,,D*7C
$GPRMC,213532.000,A,3748.5855,N,12217.9373,W,2.20,174.65,210711,,,D*74
$GPRMC,213533.000,A,3748.5847,N,12217.9380,W,2.21,201.17,210711,,,D*7F
$GPRMC,213534.000,A,3748.5841,N,12217.9389,W,2.41,208.89,210711,,,D*7F
$GPRMC,213535.000,A,3748.5835,N,12217.9399,W,2.16,205.52,210711,,,D*75
$GPRMC,213536.000,A,3748.5825,N,12217.9408,W,1.94,200.06,210711,,,D*75
$GPRMC,213537.000,A,3748.5816,N,12217.9418,W,2.57,207.40,210711,,,D*7C
$GPRMC,213538.000,A,3748.5809,N,12217.9427,W,2.68,204.91,210711,,,D*72
$GPRMC,213539.000,A,3748.5795,N,12217.9439,W,2.55,203.05,210711,,,D*72
$GPRMC,213540.000,A,3748.5790,N,12217.9440,W,2.69,203.54,210711,,,D*7C
$GPRMC,213541.000,A,3748.5779,N,12217.9449,W,2.97,209.80,210711,,,D*71
$GPRMC,213542.000,A,3748.5773,N,12217.9456,W,2.62,204.61,210711,,,D*7E
$GPRMC,213543.000,A,3748.5770,N,12217.9458,W,1.86,212.72,210711,,,D*7E
$GPRMC,213544.000,A,3748.5776,N,12217.9454,W,0.86,225.37,210711,,,D*77
$GPRMC,213545.000,A,3748.5773,N,12217.9458,W,0.45,172.18,210711,,,D*7C
$GPRMC,213546.000,A,3748.5775,N,12217.9459,W,0.37,198.11,210711,,,D*70
$GPRMC,213547.000,A,3748.5771,N,12217.9459,W,0.64,185.77,210711,,,D*7F
$GPRMC,213548.000,A,3748.5765,N,12217.9461,W,0.47,200.61,210711,,,D*76
$GPRMC,213549.000,A,3748.5764,N,12217.9467,W,0.60,309.35,210711,,,D*7C
$GPRMC,213550.000,A,3748.5764,N,12217.9470,W,0.70,318.25,210711,,,D*72
$GPRMC,213551.000,A,3748.5767,N,12217.9472,W,0.46,243.17,210711,,,D*79
$GPRMC,213552.000,A,3748.5771,N,12217.9474,W,0.63,242.99,210711,,,D*7B
$GPRMC,213553.000,A,3748.5771,N,12217.9475,W,0.59,289.35,210711,,,D*73
$GPRMC,213554.000,A,3748.5767,N,12217.9477,W,0.45,288.78,210711,,,D*74
$GPRMC,213555.000,A,3748.5763,N,12217.9481,W,0.82,234.20,210711,,,D*79
$GPRMC,213556.000,A,3748.5757,N,12217.9485,W,1.18,215.77,210711,,,D*7A
$GPRMC,213557.000,A,3748.5754,N,12217.9486,W,0.55,208.78,210711,,,D*70
$GPRMC,213558.000,A,3748.5747,N,12217.9491,W,0.43,240.03,210711,,,D*7C
$GPRMC,213559.000,A,3748.5740,N,12217.9496,W,0.93,205.78,210711,,,D*7D
$GPRMC,213600.000,A,3748.5730,N,12217.9502,W,0.95,206.59,210711,,,D*7F
$GPRMC,213601.000,A,3748.5722,N,12217.9509,W,0.83,181.01,210711,,,D*70
$GPRMC,213602.000,A,3748.5709,N,12217.9517,W,1.42,191.88,210711,,,D*79
$GPRMC,213603.000,A,3748.5701,N,12217.9521,W,1.43,215.01,210711,,,D*7A
$GPRMC,213604.000,A,3748.5698,N,12217.9524,W,1.45,205.59,210711,,,D*73
$GPRMC,213605.000,A,3748.5694,N,12217.9528,W,1.32,200.53,210711,,,D*7D
$GPRMC,213606.000,A,3748.5694,N,12217.9528,W,1.08,197.04,210711,,,D*78
$GPRMC,213607.000,A,3748.5692,N,12217.9532,W,1.67,221.45,210711,,,D*76
$GPRMC,213608.000,A,3748.5680,N,12217.9541,W,1.62,206.31,210711,,,D*7D
$GPRMC,213609.000,A,3748.5671,N,12217.9546,W,1.19,192.28,210711,,,D*7F
$GPRMC,213610.000,A,3748.5662,N,12217.9552,W,1.83,210.03,210711,,,D*73
$GPRMC,213611.000,A,3748.5642,N,12217.9563,W,2.17,202.28,210711,,,D*76
$GPRMC,213612.000,A,3748.5634,N,12217.9567,W,1.86,181.34,210711,,,D*7E
$GPRMC,213613.000,A,3748.5629,N,12217.9568,W,1.56,178.32,210711,,,D*71
$GPRMC,213614.000,A,3748.5628,N,12217.9569,W,1.34,190.18,210711,,,D*7C
$GPRMC,213615.000,A,3748.5622,N,12217.9575,W,1.07,218.25,210711,,,D*77
$GPRMC,213616.000,A,3748.5618,N,12217.9578,W,0.96,202.17,210711,,,D*73
$GPRMC,213617.000,A,3748.5616,N,12217.9581,W,1.90,202.14,210711,,,D*7E
$GPRMC,213618.000,A,3748.5607,N,12217.9590,W,2.40,225.89,210711,,,D*7E
$GPRMC,213619.000,A,3748.5596,N,12217.9596,W,1.74,195.70,210711,,,D*78
$GPRMC,213620.000,A,3748.5588,N,12217.9603,W,0.63,191.40,210711,,,D*72
$GPRMC,213621.000,A,3748.5579,N,12217.9609,W,1.06,208.66,210711,,,D*72
$GPRMC,213622.000,A,3748.5570,N,12217.9611,W,2.35,210.15,210711,,,D*7F
$GPRMC,213623.000,A,3748.5566,N,12217.9609,W,2.54,204.79,210711,,,D*78
$GPRMC,213624.000,A,3748.5563,N,12217.9607,W,1.42,203.36,210711,,,D*7C
$GPRMC,213625.000,A,3748.5562,N,12217.9611,W,1.33,209.24,210711,,,D*74
$GPRMC,213626.000,A,3748.5562,N,12217.9618,W,0.90,237.16,210711,,,D*7A
$GPRMC,213627.000,A,3748.5560,N,12217.9621,W,0.67,229.85,210711,,,D*7E
$GPRMC,213628.000,A,3748.5557,N,12217.9622,W,0.51,242.81,210711,,,A*7F
$GPRMC,213629.000,A,3748.5556,N,12217.9622,W,0.23,319.04,210711,,,A*78
$GPRMC,213630.000,A,3748.5552,N,12217.9624,W,0.15,151.74,210711,,,A*7E
$GPRMC,213631.000,A,3748.5542,N,12217.9630,W,1.28,177.06,210711,,,A*75
$GPRMC,213632.000,A,3748.5531,N,12217.9637,W,2.13,200.40,210711,,,A*7F
$GPRMC,213633.000,A,3748.5515,N,12217.9647,W,2.46,204.32,210711,,,A*7E
$GPRMC,213634.000,A,3748.5500,N,12217.9658,W,2.55,203.42,210711,,,A*71
$GPRMC,213635.000,A,3748.5485,N,12217.9673,W,2.21,202.77,210711,,,A*71
$GPRMC,213636.000,A,3748.5473,N,12217.9685,W,2.87,208.31,210711,,,A*76
$GPRMC,213637.000,A,3748.5469,N,12217.9688,W,1.95,199.16,210711,,,A*7F
$GPRMC,213638.000,A,3748.5464,N,12217.9692,W,1.99,199.22,210711,,,A*7D
$GPRMC,213639.000,A,3748.5452,N,12217.9702,W,2.39,208.29,210711,,,A*78
$GPRMC,213640.000,A,3748.5444,N,12217.9708,W,2.39,213.04,210711,,,A*7E
$GPRMC,213641.000,A,3748.5436,N,12217.9718,W,1.82,206.19,210711,,,A*70
$GPRMC,213642.000,A,3748.5430,N,12217.9725,W,2.01,206.41,210711,,,A*7E
$GPRMC,213643.000,A,3748.5427,N,12217.9732,W,2.30,206.68,210711,,,A*76
$GPRMC,213644.000,A,3748.5418,N,12217.9741,W,2.70,208.53,210711,,,A*7B
$GPRMC,213645.000,A,3748.5401,N,12217.9753,W,3.83,217.37,210711,,,A*70
$GPRMC,213646.000,A,3748.5388,N,12217.9765,W,4.00,218.65,210711,,,A*74
$GPRMC,213647.000,A,3748.5376,N,12217.9777,W,3.51,214.35,210711,,,A*7D
$GPRMC,213648.000,A,3748.5368,N,12217.9788,W,3.05,211.86,210711,,,A*71
$GPRMC,213649.000,A,3748.5361,N,12217.9797,W,2.23,202.21,210711,,,A*7D
$GPRMC,213650.000,A,3748.5344,N,12217.9813,W,2.66,204.60,210711,,,A*73
$GPRMC,213651.000,A,3748.5331,N,12217.9826,W,2.60,203.22,210711,,,A*71
$GPRMC,213652.000,A,3748.5322,N,12217.9836,W,2.74,200.51,210711,,,A*73
$GPRMC,213653.000,A,3748.5314,N,12217.9842,W,2.65,197.64,210711,,,A*7F
$GPRMC,213654.000,A,3748.5306,N,12217.9846,W,2.55,189.09,210711,,,A*78
$GPRMC,213655.000,A,3748.5297,N,12217.9849,W,2.69,192.11,210711,,,A*73
$GPRMC,213656.000,A,3748.5291,N,12217.9850,W,2.26,186.05,210711,,,A*75
$GPRMC,213657.000,A,3748.5287,N,12217.9849,W,1.78,171.07,210711,,,A*79
$GPRMC,213658.000,A,3748.5284,N,12217.9849,W,1.62,174.82,210711,,,A*76
$GPRMC,213659.000,A,3748.5281,N,12217.9846,W,1.53,179.46,210711,,,A*7A
$GPRMC,213700.000,A,3748.5281,N,12217.9847,W,0.97,226.56,210711,,,A*77
$GPRMC,213701.000,A,3748.5279,N,12217.9852,W,1.05,257.68,210711,,,A*74
$GPRMC,213702.000,A,3748.5282,N,12217.9852,W,1.16,249.52,210711,,,A*77
$GPRMC,213703.000,A,3748.5284,N,12217.9854,W,0.67,247.98,210711,,,A*79
$GPRMC,213704.000,A,3748.5283,N,12217.9845,W,0.60,204.44,210711,,,A*78
$GPRMC,213705.000,A,3748.5278,N,12217.9843,W,1.35,210.81,210711,,,A*76
$GPRMC,213706.000,A,3748.5278,N,12217.9845,W,0.88,266.54,210711,,,A*7D
$GPRMC,213707.000,A,3748.5271,N,12217.9855,W,1.18,256.96,210711,,,A*71
$GPRMC,213708.000,A,3748.5271,N,12217.9859,W,0.93,260.63,210711,,,A*7F
$GPRMC,213709.000,A,3748.5263,N,12217.9862,W,0.92,254.05,210711,,,A*73
$GPRMC,213710.000,A,3748.5250,N,12217.9863,W,2.04,205.47,210711,,,A*75
$GPRMC,213711.000,A,3748.5246,N,12217.9863,W,1.57,207.54,210711,,,A*76
$GPRMC,213712.000,A,3748.5243,N,12217.9863,W,1.23,222.85,210711,,,A*78
$GPRMC,213713.000,A,3748.5238,N,12217.9867,W,1.08,195.19,210711,,,A*72
$GPRMC,213714.000,A,3748.5234,N,12217.9871,W,0.66,218.99,210711,,,A*79
$GPRMC,213715.000,A,3748.5230,N,12217.9871,W,0.69,250.17,210711,,,A*79
$GPRMC,213716.000,A,3748.5223,N,12217.9874,W,0.30,149.21,210711,,,A*7F
$GPRMC,213717.000,A,3748.5221,N,12217.9882,W,0.89,251.17,210711,,,A*78
$GPRMC,213718.000,A,3748.5222,N,12217.9884,W,0.79,194.28,210711,,,A*7B
$GPRMC,213719.000,A,3748.5225,N,12217.9882,W,0.80,152.50,210711,,,A*78
$GPRMC,213720.000,A,3748.5224,N,12217.9885,W,0.54,132.63,210711,,,A*7B
$GPRMC,213721.000,A,3748.5219,N,12217.9887,W,1.10,188.32,210711,,,A*72
$GPRMC,213722.000,A,3748.5206,N,12217.9897,W,2.34,213.88,210711,,,A*7B
$GPRMC,213723.000,A,3748.5191,N,12217.9912,W,2.19,208.44,210711,,,A*7E
$GPRMC,213724.000,A,3748.5182,N,12217.9920,W,2.08,202.80,210711,,,A*78
$GPRMC,213725.000,A,3748.5171,N,12217.9930,W,2.22,198.86,210711,,,A*7A
$GPRMC,213726.000,A,3748.5163,N,12217.9938,W,1.84,199.09,210711,,,A*7B
$GPRMC,213727.000,A,3748.5153,N,12217.9945,W,1.65,199.91,210711,,,A*7D
$GPRMC,213728.000,A,3748.5139,N,12217.9955,W,1.74,198.05,210711,,,A*73
$GPRMC,213729.000,A,3748.5135,N,12217.9958,W,0.69,217.47,210711,,,A*7C
$GPRMC,213730.000,A,3748.5129,N,12217.9966,W,0.83,208.05,210711,,,A*78
$GPRMC,213731.000,A,3748.5127,N,12217.9969,W,0.84,242.81,210711,,,A*7D
$GPRMC,213732.000,A,3748.5124,N,12217.9969,W,0.55,221.02,210711,,,A*7F
$GPRMC,213733.000,A,3748.5122,N,12217.9971,W,0.90,203.06,210711,,,A*7C
$GPRMC,213734.000,A,3748.5118,N,12217.9974,W,1.14,187.79,210711,,,A*7D
$GPRMC,213735.000,A,3748.5116,N,12217.9978,W,0.69,205.20,210711,,,A*70
$GPRMC,213736.000,A,3748.5102,N,12217.9989,W,0.91,197.89,210711,,,A*74
$GPRMC,213737.000,A,3748.5098,N,12217.9995,W,0.68,187.71,210711,,,A*7A
$GPRMC,213738.000,A,3748.5091,N,12218.0001,W,0.47,230.24,210711,,,A*7C
$GPRMC,213739.000,A,3748.5081,N,12218.0010,W,1.01,227.65,210711,,,A*7C
$GPRMC,213740.000,A,3748.5075,N,12218.0016,W,0.66,222.75,210711,,,A*7B
$GPRMC,213741.000,A,3748.5066,N,12218.0018,W,1.50,191.61,210711,,,A*7C
$GPRMC,213742.000,A,3748.5066,N,12218.0018,W,0.69,207.52,210711,,,A*78
$GPRMC,213743.000,A,3748.5065,N,12218.0019,W,1.47,200.40,210711,,,A*72
$GPRMC,213744.000,A,3748.5069,N,12218.0019,W,0.95,239.04,210711,,,A*7D
$GPRMC,213745.000,A,3748.5064,N,12218.0022,W,0.89,206.55,210711,,,A*7C
$GPRMC,213746.000,A,3748.5065,N,12218.0018,W,1.50,191.09,210711,,,A*76
$GPRMC,213747.000,A,3748.5075,N,12218.0015,W,0.94,217.54,210711,,,A*77
$GPRMC,213748.000,A,3748.5066,N,12218.0016,W,1.18,210.75,210711,,,A*78
$GPRMC,213749.000,A,3748.5055,N,12218.0018,W,2.08,178.10,210711,,,A*7B
$GPRMC,213750.000,A,3748.5050,N,12218.0020,W,1.48,170.77,210711,,,A*73
$GPRMC,213751.000,A,3748.5041,N,12218.0024,W,0.98,186.98,210711,,,A*72
$GPRMC,213752.000,A,3748.5043,N,12218.0027,W,0.47,203.81,210711,,,A*74
$GPRMC,213753.000,A,3748.5040,N,12218.0034,W,0.67,193.21,210711,,,A*76
$GPRMC,213754.000,A,3748.5030,N,12218.0041,W,0.59,221.60,210711,,,A*76
$GPRMC,213755.000,A,3748.5025,N,12218.0046,W,1.65,204.76,210711,,,A*7A
$GPRMC,213756.000,A,3748.5020,N,12218.0052,W,1.23,215.36,210711,,,A*7F
$GPRMC,213757.000,A,3748.5011,N,12218.0060,W,1.49,210.99,210711,,,A*71
$GPRMC,213758.000,A,3748.5003,N,12218.0067,W,1.47,205.05,210711,,,A*75
$GPRMC,213759.000,A,3748.4998,N,12218.0074,W,1.26,231.32,210711,,,A*78
$GPRMC,213800.000,A,3748.4995,N,12218.0083,W,1.38,202.04,210711,,,A*74
$GPRMC,213801.000,A,3748.4985,N,12218.0091,W,1.21,183.24,210711,,,A*77
$GPRMC,213802.000,A,3748.4969,N,12218.0103,W,2.21,201.06,210711,,,A*76
$GPRMC,213803.000,A,3748.4963,N,12218.0109,W,1.93,206.56,210711,,,A*7F
$GPRMC,213804.000,A,3748.4952,N,12218.0116,W,1.85,209.20,210711,,,A*7D
$GPRMC,213805.000,A,3748.4941,N,12218.0125,W,1.62,198.65,210711,,,A*7D
$GPRMC,213806.000,A,3748.4933,N,12218.0129,W,1.33,185.17,210711,,,A*7A
$GPRMC,213807.000,A,3748.4926,N,12218.0131,W,1.78,200.34,210711,,,A*76
$GPRMC,213808.000,A,3748.4920,N,12218.0135,W,1.71,190.95,210711,,,A*73
$GPRMC,213809.000,A,3748.4918,N,12218.0138,W,1.33,197.59,210711,,,A*75
$GPRMC,213810.000,A,3748.4912,N,12218.0145,W,1.31,185.89,210711,,,A*71
$GPRMC,213811.000,A,3748.4905,N,12218.0153,W,2.24,213.67,210711,,,A*7A
$GPRMC,213812.000,A,3748.4896,N,12218.0160,W,2.11,203.73,210711,,,A*70
$GPRMC,213813.000,A,3748.4889,N,12218.0167,W,2.06,200.44,210711,,,A*79
$GPRMC,213814.000,A,3748.4878,N,12218.0170,W,2.04,199.92,210711,,,A*7C
$GPRMC,213815.000,A,3748.4865,N,12218.0180,W,1.93,228.82,210711,,,A*7B
$GPRMC,213816.000,A,3748.4858,N,12218.0188,W,1.63,240.83,210711,,,A*7E
$GPRMC,213817.000,A,3748.4850,N,12218.0196,W,1.39,249.13,210711,,,A*77
$GPRMC,213818.000,A,3748.4841,N,12218.0201,W,1.45,206.69,210711,,,A*78
$GPRMC,213819.000,A,3748.4835,N,12218.0203,W,1.99,199.74,210711,,,A*70
$GPRMC,213820.000,A,3748.4831,N,12218.0203,W,1.70,195.50,210711,,,A*73
$GPRMC,213821.000,A,3748.4821,N,12218.0210,W,1.57,195.54,210711,,,A*70
$GPRMC,213822.000,A,3748.4818,N,12218.0214,W,2.25,210.67,210711,,,A*75
$GPRMC,213823.000,A,3748.4822,N,12218.0219,W,2.16,216.71,210711,,,A*71
$GPRMC,213824.000,A,3748.4821,N,12218.0226,W,2.34,222.52,210711,,,A*7F
$GPRMC,213825.000,A,3748.4816,N,12218.0234,W,1.81,204.10,210711,,,A*76
$GPRMC,213826.000,A,3748.4814,N,12218.0242,W,1.79,218.79,210711,,,A*73
$GPRMC,213827.000,A,3748.4814,N,12218.0247,W,1.59,221.11,210711,,,A*71
$GPRMC,213828.000,A,3748.4812,N,12218.0252,W,1.78,209.30,210711,,,A*76
$GPRMC,213829.000,A,3748.4807,N,12218.0259,W,1.27,213.07,210711,,,A*7D
$GPRMC,213830.000,A,3748.4807,N,12218.0261,W,0.95,208.73,210711,,,A*7F
$GPRMC,213831.000,A,3748.4803,N,12218.0265,W,1.23,217.91,210711,,,A*70
$GPRMC,213832.000,A,3748.4796,N,12218.0273,W,1.28,207.01,210711,,,A*74
$GPRMC,213833.000,A,3748.4791,N,12218.0279,W,0.95,205.46,210711,,,A*7E
$GPRMC,213834.000,A,3748.4787,N,12218.0285,W,1.07,204.36,210711,,,A*71
$GPRMC,213835.000,A,3748.4783,N,12218.0288,W,1.05,187.42,210711,,,A*70
$GPRMC,213836.000,A,3748.4778,N,12218.0292,W,1.45,211.08,210711,,,A*7A
$GPRMC,213837.000,A,3748.4766,N,12218.0299,W,1.43,200.08,210711,,,A*79
$GPRMC,213838.000,A,3748.4754,N,12218.0305,W,1.27,188.01,210711,,,A*7B
$GPRMC,213839.000,A,3748.4738,N,12218.0315,W,1.27,188.03,210711,,,A*73
$GPRMC,213840.000,A,3748.4728,N,12218.0320,W,1.15,177.35,210711,,,A*7E
$GPRMC,213841.000,A,3748.4714,N,12218.0324,W,1.40,170.35,210711,,,A*73
$GPRMC,213842.000,A,3748.4703,N,12218.0329,W,1.83,179.88,210711,,,A*7B
$GPRMC,213843.000,A,3748.4689,N,12218.0334,W,2.66,188.32,210711,,,A*72
$GPRMC,213844.000,A,3748.4679,N,12218.0335,W,3.01,182.33,210711,,,A*70
$GPRMC,213845.000,A,3748.4664,N,12218.0340,W,2.81,186.75,210711,,,A*70
$GPRMC,213846.000,A,3748.4653,N,12218.0345,W,2.55,191.21,210711,,,A*7C
$GPRMC,213847.000,A,3748.4641,N,12218.0350,W,2.38,193.85,210711,,,A*7D
$GPRMC,213848.000,A,3748.4623,N,12218.0361,W,3.09,199.10,210711,,,A*71
$GPRMC,213849.000,A,3748.4604,N,12218.0373,W,3.30,205.23,210711,,,A*7A
$GPRMC,213850.000,A,3748.4589,N,12218.0386,W,3.70,212.74,210711,,,A*7E
$GPRMC,213851.000,A,3748.4575,N,12218.0397,W,3.41,209.76,210711,,,A*76
$GPRMC,213852.000,A,3748.4566,N,12218.0404,W,3.03,208.58,210711,,,A*71
$GPRMC,213853.000,A,3748.4561,N,12218.0407,W,2.86,205.62,210711,,,A*7C
$GPRMC,213854.000,A,3748.4553,N,12218.0413,W,2.76,203.51,210711,,,A*76
$GPRMC,213855.000,A,3748.4543,N,12218.0421,W,2.56,202.42,210711,,,A*76
$GPRMC,213856.000,A,3748.4540,N,12218.0421,W,2.35,202.85,210711,,,A*78
$GPRMC,213857.000,A,3748.4529,N,12218.0430,W,2.88,205.34,210711,,,A*7D
$GPRMC,213858.000,A,3748.4522,N,12218.0434,W,2.89,198.87,210711,,,A*73
$GPRMC,213859.000,A,3748.4512,N,12218.0440,W,3.00,195.07,210711,,,A*77
$GPRMC,213900.000,A,3748.4509,N,12218.0438,W,2.02,199.05,210711,,,A*72
$GPRMC,213901.000,A,3748.4509,N,12218.0433,W,2.36,189.41,210711,,,A*7E
$GPRMC,213902.000,A,3748.4504,N,12218.0432,W,2.48,193.67,210711,,,A*77
$GPRMC,213903.000,A,3748.4502,N,12218.0427,W,2.00,185.33,210711,,,A*7E
$GPRMC,213904.000,A,3748.4498,N,12218.0430,W,1.04,223.73,210711,,,A*71
$GPRMC,213905.000,A,3748.4489,N,12218.0435,W,1.39,198.99,210711,,,A*7C
$GPRMC,213906.000,A,3748.4487,N,12218.0438,W,1.46,217.93,210711,,,A*7A
$GPRMC,213907.000,A,3748.4482,N,12218.0443,W,0.84,242.72,210711,,,A*72
$GPRMC,213908.000,A,3748.4477,N,12218.0449,W,1.60,228.18,210711,,,A*76
$GPRMC,213909.000,A,3748.4474,N,12218.0452,W,2.00,221.71,210711,,,A*7D
$GPRMC,213910.000,A,3748.4467,N,12218.0456,W,1.24,205.82,210711,,,A*7C
$GPRMC,213911.000,A,3748.4456,N,12218.0463,W,1.36,198.57,210711,,,A*75
$GPRMC,213912.000,A,3748.4445,N,12218.0463,W,1.34,185.92,210711,,,A*73
$GPRMC,213913.000,A,3748.4435,N,12218.0465,W,1.61,184.29,210711,,,A*72
$GPRMC,213914.000,A,3748.4430,N,12218.0461,W,2.00,171.97,210711,,,A*7F
$GPRMC,213915.000,A,3748.4420,N,12218.0460,W,2.08,168.41,210711,,,A*75
$GPRMC,213916.000,A,3748.4419,N,12218.0452,W,1.73,152.24,210711,,,A*78
$GPRMC,213917.000,A,3748.4412,N,12218.0454,W,1.52,158.21,210711,,,A*78
$GPRMC,213918.000,A,3748.4401,N,12218.0459,W,1.44,160.88,210711,,,A*77
$GPRMC,213919.000,A,3748.4388,N,12218.0466,W,2.41,188.82,210711,,,A*76
$GPRMC,213920.000,A,3748.4377,N,12218.0470,W,2.60,190.39,210711,,,A*71
$GPRMC,213921.000,A,3748.4371,N,12218.0470,W,2.00,189.31,210711,,,A*70
$GPRMC,213922.000,A,3748.4360,N,12218.0476,W,1.87,187.96,210711,,,A*7A
$GPRMC,213923.000,A,3748.4358,N,12218.0474,W,1.54,162.02,210711,,,A*7A
$GPRMC,213924.000,A,3748.4352,N,12218.0477,W,1.88,174.49,210711,,,A*7D
$GPRMC,213925.000,A,3748.4345,N,12218.0476,W,1.59,176.78,210711,,,A*77
$GPRMC,213926.000,A,3748.4342,N,12218.0477,W,1.61,174.89,210711,,,A*75
$GPRMC,213927.000,A,3748.4338,N,12218.0477,W,1.50,176.04,210711,,,A*7C
$GPRMC,213928.000,A,3748.4332,N,12218.0477,W,1.36,167.95,210711,,,A*71
$GPRMC,213929.000,A,3748.4329,N,12218.0475,W,1.23,161.42,210711,,,A*70
$GPRMC,213930.000,A,3748.4325,N,12218.0478,W,0.88,164.61,210711,,,A*7D
$GPRMC,213931.000,A,3748.4322,N,12218.0477,W,1.41,166.36,210711,,,A*70
$GPRMC,213932.000,A,3748.4318,N,12218.0478,W,1.31,181.17,210711,,,A*78
$GPRMC,213933.000,A,3748.4314,N,12218.0482,W,0.62,194.29,210711,,,A*7E
$GPRMC,213934.000,A,3748.4302,N,12218.0490,W,2.08,184.35,210711,,,A*7F
