$ADVER,3080,2.3
$GPRMC,212434.450,A,3748.7975,N,12217.8583,W,0.02,225.96,210711,,,A*76
$GPGGA,212435.450,3748.7975,N,12217.8582,W,1,04,2.3,12.3,M,-25.1,M,,0000*56
$GPGSA,A,3,07,28,26,11,,,,,,,,,4.7,2.3,4.1*3C
$GPRMC,212435.450,A,3748.7975,N,12217.8582,W,0.09,295.08,210711,,,A*71
$GPVTG,295.08,T,,M,0.09,N,0.2,K,A*00
$GPGGA,212436.454,3748.7975,N,12217.8582,W,1,04,2.3,12.1,M,-25.1,M,,0000*53
$GPGSA,A,3,07,28,26,11,,,,,,,,,4.7,2.3,4.1*3C
$GPGSV,3,1,10,28,68,006,35,26,54,272,35,07,27,115,30,11,20,065,31*7D
$GPGSV,3,2,10,08,53,097,20,17,52,187,32,01,51,281,,24,16,081,22*73
$GPGSV,3,3,10,27,09,308,27,48,44,197,26*7D
$GPRMC,212436.454,A,3748.7975,N,12217.8582,W,0.09,282.51,210711,,,A*7C
$GPVTG,282.51,T,,M,0.09,N,0.2,K,A*0A
$GPGGA,212437.000,3748.7975,N,12217.8582,W,1,04,2.3,12.1,M,-25.1,M,,0000*57
$GPGSA,A,3,07,28,26,11,,,,,,,,,4.7,2.3,4.1*3C
$GPRMC,212437.000,A,3748.7975,N,12217.8582,W,0.06,184.00,210711,,,A*76
$GPVTG,184.00,T,,M,0.06,N,0.1,K,A*07
$GPGGA,212438.000,3748.7974,N,12217.8581,W,1,04,2.3,12.1,M,-25.1,M,,0000*5A
$GPGSA,A,3,07,28,26,11,,,,,,,,,4.7,2.3,4.1*3C
$GPRMC,212438.000,A,3748.7974,N,12217.8581,W,0.11,219.41,210711,,,A*7F
$GPVTG,219.41,T,,M,0.11,N,0.2,K,A*00
$GPGGA,212439.000,3748.7974,N,12217.8580,W,1,04,2.3,12.2,M,-25.1,M,,0000*59
$GPGSA,A,3,07,28,26,11,,,,,,,,,4.7,2.3,4.1*3C
$GPRMC,212439.000,A,3748.7974,N,12217.8580,W,0.05,170.71,210711,,,A*75
$GPVTG,170.71,T,,M,0.05,N,0.1,K,A*09
$GPGGA,212440.000,3748.7974,N,12217.8580,W,1,04,2.3,12.1,M,-25.1,M,,0000*54
$GPGSA,A,3,07,28,26,11,,,,,,,,,4.7,2.3,4.1*3C
$GPRMC,212440.000,A,3748.7974,N,12217.8580,W,0.17,259.73,210711,,,A*72
$GPVTG,259.73,T,,M,0.17,N,0.3,K,A*02
$GPGGA,212441.000,3748.7974,N,12217.8580,W,1,04,2.3,12.1,M,-25.1,M,,0000*55
$GPGSA,A,3,07,28,26,11,,,,,,,,,4.7,2.3,4.1*3C
$GPGSV,3,1,10,28,68,006,34,26,54,272,35,07,27,115,30,11,20,065,30*7D
$GPGSV,3,2,10,08,53,097,20,17,52,187,32,01,51,281,,24,16,081,15*77
$GPGSV,3,3,10,27,09,308,25,48,44,197,25*7C
$GPRMC,212441.000,A,3748.7974,N,12217.8580,W,0.09,238.69,210711,,,A*70
$GPVTG,238.69,T,,M,0.09,N,0.2,K,A*00
$GPGGA,212442.000,3748.7974,N,12217.8580,W,1,04,2.3,11.9,M,-25.1,M,,0000*5D
$GPGSA,A,3,07,28,26,11,,,,,,,,,4.7,2.3,4.1*3C
$GPRMC,212442.000,A,3748.7974,N,12217.8580,W,0.08,261.52,210711,,,A*76
$GPVTG,261.52,T,,M,0.08,N,0.2,K,A*05
$GPGGA,212443.000,3748.7974,N,12217.8580,W,1,04,2.3,11.7,M,-25.1,M,,0000*52
$GPGSA,A,3,07,28,26,11,,,,,,,,,4.7,2.3,4.1*3C
$GPRMC,212443.000,A,3748.7974,N,12217.8580,W,0.08,263.60,210711,,,A*74
$GPVTG,263.60,T,,M,0.08,N,0.2,K,A*06
$GPGGA,212444.000,3748.7975,N,12217.8580,W,1,04,2.3,11.5,M,-25.1,M,,0000*56
$GPGSA,A,3,07,28,26,11,,,,,,,,,4.7,2.3,4.1*3C
$GPRMC,212444.000,A,3748.7975,N,12217.8580,W,0.07,266.60,210711,,,A*78
$GPVTG,266.60,T,,M,0.07,N,0.1,K,A*0F
$GPGGA,212445.000,3748.7976,N,12217.8580,W,1,04,2.3,11.3,M,-25.1,M,,0000*52
$GPGSA,A,3,07,28,26,11,,,,,,,,,4.7,2.3,4.1*3C
$GPRMC,212445.000,A,3748.7976,N,12217.8580,W,0.05,9.54,210711,,,A*74
$GPVTG,9.54,T,,M,0.05,N,0.1,K,A*01
$GPGGA,212446.000,3748.7976,N,12217.8580,W,1,04,2.3,11.1,M,-25.1,M,,0000*53
$GPGSA,A,3,07,28,26,11,,,,,,,,,4.7,2.3,4.1*3C
$GPGSV,3,1,09,28,68,006,34,26,54,272,35,07,27,115,31,11,20,065,31*75
$GPGSV,3,2,09,08,53,097,15,17,52,187,24,01,51,281,,24,16,081,15*7E
$GPGSV,3,3,09,27,09,308,26*43
$GPRMC,212446.000,A,3748.7976,N,12217.8580,W,0.07,277.58,210711,,,A*72
$GPGGA,212447.000,3748.7977,N,12217.8580,W,1,04,2.3,10.9,M,-25.1,M,,0000*5A
$GPGSA,A,3,07,28,26,11,,,,,,,,,4.7,2.3,4.1*3C
$GPRMC,212447.000,A,3748.7977,N,12217.8580,W,0.05,301.59,210711,,,A*71
$GPVTG,301.59,T,,M,0.05,N,0.1,K,A*07
$GPGGA,212448.000,3748.7978,N,12217.8581,W,1,04,2.3,10.6,M,-25.1,M,,0000*54
$GPGSA,A,3,07,28,26,11,,,,,,,,,4.7,2.3,4.1*3C
$GPRMC,212448.000,A,3748.7978,N,12217.8581,W,0.09,260.54,210711,,,A*77
$GPVTG,260.54,T,,M,0.09,N,0.2,K,A*03
$GPGGA,212449.000,3748.7978,N,12217.8581,W,1,04,2.3,10.3,M,-25.1,M,,0000*50
$GPGSA,A,3,07,28,26,11,,,,,,,,,4.7,2.3,4.1*3C
$GPRMC,212449.000,A,3748.7978,N,12217.8581,W,0.08,259.20,210711,,,A*7E
$GPVTG,259.20,T,,M,0.08,N,0.1,K,A*08
$GPGGA,212450.000,3748.7979,N,12217.8581,W,1,04,2.3,10.0,M,-25.1,M,,0000*5A
$GPGSA,A,3,07,28,26,11,,,,,,,,,4.7,2.3,4.1*3C
$GPRMC,212450.000,A,3748.7979,N,12217.8581,W,0.07,327.33,210711,,,A*72
$GPVTG,327.33,T,,M,0.07,N,0.1,K,A*0D
$GPGGA,212451.000,3748.7980,N,12217.8581,W,1,04,2.3,9.8,M,-25.1,M,,0000*6D
$GPGSA,A,3,07,28,26,11,,,,,,,,,4.7,2.3,4.1*3C
$GPGSV,3,1,11,28,68,006,38,26,54,272,42,08,53,097,37,17,52,187,37*79
$GPGSV,3,2,11,01,51,282,,07,27,115,32,15,25,309,31,11,20,065,30*7A
$GPGSV,3,3,11,24,16,081,23,27,09,308,24,48,44,197,36*47
$GPRMC,212451.000,A,3748.7980,N,12217.8581,W,0.09,308.51,210711,,,A*72
$GPVTG,308.51,T,,M,0.09,N,0.2,K,A*09
$GPGGA,212452.000,3748.7978,N,12217.8581,W,1,04,2.3,10.3,M,-25.1,M,,0000*5A
$GPGSA,A,3,07,28,26,11,,,,,,,,,4.7,2.3,4.1*3C
$GPRMC,212452.000,A,3748.7978,N,12217.8581,W,0.13,239.64,210711,,,A*78
$GPVTG,239.64,T,,M,0.13,N,0.2,K,A*07
$GPGGA,212453.000,3748.7978,N,12217.8582,W,1,04,2.3,10.3,M,-25.1,M,,0000*58
$GPGSA,A,3,07,28,26,11,,,,,,,,,4.7,2.3,4.1*3C
$GPRMC,212453.000,A,3748.7978,N,12217.8582,W,0.34,302.83,210711,,,A*7F
$GPVTG,302.83,T,,M,0.34,N,0.6,K,A*06
$GPGGA,212454.000,3748.7976,N,12217.8580,W,1,04,2.3,10.2,M,-25.1,M,,0000*52
$GPGSA,A,3,07,28,26,11,,,,,,,,,4.7,2.3,4.1*3C
$GPRMC,212454.000,A,3748.7976,N,12217.8580,W,0.24,152.39,210711,,,A*73
$GPVTG,152.39,T,,M,0.24,N,0.4,K,A*03
$GPGGA,212455.000,3748.7977,N,12217.8578,W,1,04,2.3,10.3,M,-25.1,M,,0000*54
$GPGSA,A,3,07,28,26,11,,,,,,,,,4.7,2.3,4.1*3C
$GPRMC,212455.000,A,3748.7977,N,12217.8578,W,0.22,151.49,210711,,,A*76
$GPVTG,151.49,T,,M,0.22,N,0.4,K,A*01
$GPGGA,212456.000,3748.7979,N,12217.8575,W,1,04,2.3,10.2,M,-25.1,M,,0000*55
$GPGSA,A,3,07,28,26,11,,,,,,,,,4.7,2.3,4.1*3C
$GPGSV,3,1,11,28,68,006,29,26,54,272,23,08,53,097,26,17,52,187,27*7F
$GPGSV,3,2,11,01,51,282,,07,27,115,33,15,25,309,27,11,20,065,30*7C
$GPGSV,3,3,11,24,16,081,21,27,09,308,21,48,44,197,25*42
$GPRMC,212456.000,A,3748.7979,N,12217.8575,W,0.52,145.29,210711,,,A*72
$GPVTG,145.29,T,,M,0.52,N,1.0,K,A*00
$GPGGA,212457.000,3748.7980,N,12217.8577,W,1,04,2.3,9.1,M,-25.1,M,,0000*6B
$GPGSA,A,3,07,28,26,11,,,,,,,,,4.7,2.3,4.1*3C
$GPRMC,212457.000,A,3748.7980,N,12217.8577,W,0.26,232.66,210711,,,A*7C
$GPVTG,232.66,T,,M,0.26,N,0.5,K,A*0F
$GPGGA,212458.000,3748.7982,N,12217.8579,W,1,04,2.3,8.1,M,-25.1,M,,0000*69
$GPGSA,A,3,07,28,26,11,,,,,,,,,4.7,2.3,4.1*3C
$GPRMC,212458.000,A,3748.7982,N,12217.8579,W,0.14,319.11,210711,,,A*76
$GPVTG,319.11,T,,M,0.14,N,0.3,K,A*00
$GPGGA,212459.000,3748.7983,N,12217.8581,W,1,04,2.3,7.0,M,-25.1,M,,0000*60
$GPGSA,A,3,07,28,26,11,,,,,,,,,4.7,2.3,4.1*3C
$GPRMC,212459.000,A,3748.7983,N,12217.8581,W,0.28,268.98,210711,,,A*78
$GPVTG,268.98,T,,M,0.28,N,0.5,K,A*0F
$GPGGA,212500.000,3748.7984,N,12217.8586,W,1,04,2.3,5.5,M,-25.1,M,,0000*6A
$GPGSA,A,3,07,28,26,11,,,,,,,,,4.7,2.3,4.1*3C
$GPRMC,212500.000,A,3748.7984,N,12217.8586,W,0.18,274.09,210711,,,A*73
$GPVTG,274.09,T,,M,0.18,N,0.3,K,A*0F
$GPGGA,212501.000,3748.7985,N,12217.8589,W,1,04,2.3,4.5,M,-25.1,M,,0000*64
$GPGSA,A,3,07,28,26,11,,,,,,,,,4.7,2.3,4.1*3C
$GPGSV,3,1,10,28,68,006,37,26,54,272,38,08,53,097,38,17,52,187,35*77
$GPGSV,3,2,10,01,51,282,,07,27,115,31,15,25,309,26,11,20,065,38*76
$GPGSV,3,3,10,24,16,081,26,27,09,308,21*70
$GPRMC,212501.000,A,3748.7985,N,12217.8589,W,0.24,278.92,210711,,,A*7D
$GPGGA,212502.000,3748.7986,N,12217.8591,W,1,04,2.3,3.8,M,-25.1,M,,0000*67
$GPGSA,A,3,07,28,26,11,,,,,,,,,4.7,2.3,4.1*3C
$GPRMC,212502.000,A,3748.7986,N,12217.8591,W,0.20,275.40,210711,,,A*72
$GPVTG,275.40,T,,M,0.20,N,0.4,K,A*0F
$GPGGA,212503.000,3748.7988,N,12217.8591,W,1,04,2.3,3.4,M,-25.1,M,,0000*64
$GPGSA,A,3,07,28,26,11,,,,,,,,,4.7,2.3,4.1*3C
$GPRMC,212503.000,A,3748.7988,N,12217.8591,W,0.26,310.97,210711,,,A*73
$GPVTG,310.97,T,,M,0.26,N,0.5,K,A*00
$GPGGA,212504.000,3748.7990,N,12217.8590,W,1,04,2.3,3.7,M,-25.1,M,,0000*68
$GPGSA,A,3,07,28,26,11,,,,,,,,,4.7,2.3,4.1*3C
$GPRMC,212504.000,A,3748.7990,N,12217.8590,W,0.19,285.84,210711,,,A*7F
$GPVTG,285.84,T,,M,0.19,N,0.4,K,A*02
$GPGGA,212505.000,3748.7989,N,12217.8588,W,1,04,2.3,4.3,M,-25.1,M,,0000*6B
$GPGSA,A,3,07,28,26,11,,,,,,,,,4.7,2.3,4.1*3C
$GPRMC,212505.000,A,3748.7989,N,12217.8588,W,0.10,235.01,210711,,,A*70
$GPVTG,235.01,T,,M,0.10,N,0.2,K,A*0B
$GPGGA,212506.000,3748.7991,N,12217.8588,W,1,04,2.3,4.3,M,-25.1,M,,0000*61
$GPGSA,A,3,07,28,26,11,,,,,,,,,4.7,2.3,4.1*3C
$GPGSV,3,1,11,28,68,006,38,26,54,272,39,08,53,097,35,17,52,187,34*74
$GPGSV,3,2,11,01,51,282,,07,27,115,33,15,25,309,35,11,20,065,32*7D
$GPGSV,3,3,11,24,16,081,22,27,09,308,27,48,44,197,24*46
$GPRMC,212506.000,A,3748.7991,N,12217.8588,W,0.08,284.93,210711,,,A*72
$GPVTG,284.93,T,,M,0.08,N,0.1,K,A*00
$GPGGA,212507.000,3748.7991,N,12217.8588,W,1,04,2.3,4.4,M,-25.1,M,,0000*67
$GPGSA,A,3,07,28,26,11,,,,,,,,,4.7,2.3,4.1*3C
$GPRMC,212507.000,A,3748.7991,N,12217.8588,W,0.08,293.29,210711,,,A*74
$GPVTG,293.29,T,,M,0.08,N,0.2,K,A*04
$GPGGA,212508.000,3748.7990,N,12217.8587,W,1,04,2.3,4.5,M,-25.1,M,,0000*67
$GPGSA,A,3,07,28,26,11,,,,,,,,,4.7,2.3,4.1*3C
$GPRMC,212508.000,A,3748.7990,N,12217.8587,W,0.09,270.20,210711,,,A*70
$GPVTG,270.20,T,,M,0.09,N,0.2,K,A*01
$GPGGA,212509.000,3748.7989,N,12217.8587,W,1,04,2.3,4.6,M,-25.1,M,,0000*6D
$GPGSA,A,3,07,28,26,11,,,,,,,,,4.7,2.3,4.1*3C
$GPRMC,212509.000,A,3748.7989,N,12217.8587,W,0.10,246.52,210711,,,A*71
$GPVTG,246.52,T,,M,0.10,N,0.2,K,A*09
$GPGGA,212510.000,3748.7988,N,12217.8586,W,1,04,2.3,4.7,M,-25.1,M,,0000*64
$GPGSA,A,3,07,28,26,11,,,,,,,,,4.7,2.3,4.1*3C
$GPRMC,212510.000,A,3748.7988,N,12217.8586,W,0.07,211.43,210711,,,A*7D
$GPVTG,211.43,T,,M,0.07,N,0.1,K,A*0E
$GPGGA,212511.000,3748.7990,N,12217.8587,W,1,04,2.3,4.6,M,-25.1,M,,0000*6C
$GPGSA,A,3,07,28,26,11,,,,,,,,,4.7,2.3,4.1*3C
$GPGSV,3,1,11,28,68,006,39,26,54,272,40,08,53,097,36,17,52,187,37*7B
$GPGSV,3,2,11,01,51,282,,07,27,115,36,15,25,309,35,11,20,065,33*79
$GPGSV,3,3,11,24,16,081,26,27,09,308,23,48,44,197,32*41
$GPVTG,341.74,T,,M,0.08,N,0.1,K,A*01
$GPGGA,212512.000,3748.7990,N,12217.8588,W,1,04,2.3,4.4,M,-25.1,M,,0000*62
$GPGSA,A,3,07,28,26,11,,,,,,,,,4.7,2.3,4.1*3C
$GPRMC,212512.000,A,3748.7990,N,12217.8588,W,0.09,236.49,210711,,,A*79
$GPVTG,236.49,T,,M,0.09,N,0.2,K,A*0C
$GPGGA,212513.000,3748.7990,N,12217.8588,W,1,04,2.3,4.4,M,-25.1,M,,0000*63
$GPGSA,A,3,07,28,26,11,,,,,,,,,4.7,2.3,4.1*3C
$GPRMC,212513.000,A,3748.7990,N,12217.8588,W,0.17,310.76,210711,,,A*7E
$GPVTG,310.76,T,,M,0.17,N,0.3,K,A*0B
$GPGGA,212514.000,3748.7989,N,12217.8586,W,1,04,2.3,4.8,M,-25.1,M,,0000*6E
$GPGSA,A,3,07,28,26,11,,,,,,,,,4.7,2.3,4.1*3C
$GPRMC,212514.000,A,3748.7989,N,12217.8586,W,0.34,127.20,210711,,,A*7B
$GPVTG,127.20,T,,M,0.34,N,0.6,K,A*0A
$GPGGA,212515.000,3748.7992,N,12217.8585,W,1,04,2.3,4.7,M,-25.1,M,,0000*69
$GPGSA,A,3,07,28,26,11,,,,,,,,,4.7,2.3,4.1*3C
$GPRMC,212515.000,A,3748.7992,N,12217.8585,W,0.39,30.51,210711,,,A*4F
$GPVTG,30.51,T,,M,0.39,N,0.7,K,A*37
$GPGGA,212516.000,3748.7995,N,12217.8587,W,1,04,2.3,4.3,M,-25.1,M,,0000*6B
$GPGSA,A,3,07,28,26,11,,,,,,,,,4.7,2.3,4.1*3C
$GPGSV,3,1,11,28,68,006,38,26,54,272,40,08,53,097,39,17,52,187,37*75
$GPGSV,3,2,11,01,51,282,,07,27,115,29,15,25,309,22,11,20,065,32*70
$GPGSV,3,3,11,24,16,081,25,27,09,308,17,48,44,197,28*4E
$GPRMC,212516.000,A,3748.7995,N,12217.8587,W,0.14,320.29,210711,,,A*7B
$GPVTG,320.29,T,,M,0.14,N,0.3,K,A*01
$GPGGA,212517.000,3748.7997,N,12217.8588,W,1,04,2.3,3.8,M,-25.1,M,,0000*6B
$GPGSA,A,3,07,28,26,11,,,,,,,,,4.7,2.3,4.1*3C
$GPRMC,212517.000,A,3748.7997,N,12217.8588,W,0.09,294.96,210711,,,A*71
$GPVTG,294.96,T,,M,0.09,N,0.2,K,A*06
$GPGGA,212518.000,3748.7999,N,12217.8590,W,1,04,2.3,3.3,M,-25.1,M,,0000*68
$GPGSA,A,3,07,28,26,11,,,,,,,,,4.7,2.3,4.1*3C
$GPRMC,212518.000,A,3748.7999,N,12217.8590,W,0.12,285.63,210711,,,A*79
$GPVTG,285.63,T,,M,0.12,N,0.2,K,A*06
$GPGGA,212519.000,3748.8002,N,12217.8591,W,1,04,2.3,2.0,M,-25.1,M,,0000*6E
$GPGSA,A,3,07,28,26,11,,,,,,,,,4.7,2.3,4.1*3C
$GPRMC,212519.000,A,3748.8002,N,12217.8591,W,0.16,344.48,210711,,,A*7C
$GPVTG,344.48,T,,M,0.16,N,0.3,K,A*06
$GPGGA,212520.000,3748.8006,N,12217.8593,W,1,04,2.3,0.7,M,-25.1,M,,0000*67
$GPGSA,A,3,07,28,26,11,,,,,,,,,4.7,2.3,4.1*3C
$GPRMC,212520.000,A,3748.8006,N,12217.8593,W,0.25,314.84,210711,,,A*75
$GPVTG,314.84,T,,M,0.25,N,0.5,K,A*05
$GPGGA,212521.000,3748.7995,N,12217.8590,W,1,04,2.3,2.4,M,-25.1,M,,0000*68
$GPGSA,A,3,07,28,26,11,,,,,,,,,4.7,2.3,4.1*3C
$GPGSV,3,1,10,28,67,006,30,26,54,272,31,08,53,098,32,17,52,187,26*71
$GPGSV,3,2,10,01,51,282,,07,27,115,26,15,25,309,24,11,20,065,22*79
$GPGSV,3,3,10,24,16,081,13,27,09,308,18*7C
$GPRMC,212521.000,A,3748.7995,N,12217.8590,W,0.95,212.22,210711,,,A*7B
$GPVTG,212.22,T,,M,0.95,N,1.8,K,A*09
$GPGGA,212522.000,3748.7987,N,12217.8593,W,1,04,2.3,2.3,M,-25.1,M,,0000*6C
$GPGSA,A,3,07,28,26,11,,,,,,,,,4.7,2.3,4.1*3C
$GPRMC,212522.000,A,3748.7987,N,12217.8593,W,0.99,184.10,210711,,,A*79
$GPVTG,184.10,T,,M,0.99,N,1.8,K,A*08
$GPGGA,212523.000,3748.7989,N,12217.8597,W,1,04,2.3,2.0,M,-25.1,M,,0000*64
$GPGSA,A,3,07,28,26,11,,,,,,,,,4.7,2.3,4.1*3C
$GPRMC,212523.000,A,3748.7989,N,12217.8597,W,0.48,211.55,210711,,,A*70
$GPVTG,211.55,T,,M,0.48,N,0.9,K,A*0A
$GPGGA,212524.000,3748.7991,N,12217.8599,W,1,04,2.3,1.7,M,-25.1,M,,0000*60
$GPGSA,A,3,07,28,26,11,,,,,,,,,4.7,2.3,4.1*3C
$GPRMC,212524.000,A,3748.7991,N,12217.8599,W,0.37,245.06,210711,,,A*7F
$GPVTG,245.06,T,,M,0.37,N,0.7,K,A*0B
$GPGGA,212525.000,3748.7992,N,12217.8604,W,1,04,2.3,0.8,M,-25.1,M,,0000*6B
$GPGSA,A,3,07,28,26,11,,,,,,,,,4.7,2.3,4.1*3C
$GPRMC,212525.000,A,3748.7992,N,12217.8604,W,1.20,261.21,210711,,,A*7E
$GPVTG,261.21,T,,M,1.20,N,2.2,K,A*08
$GPGGA,212526.000,3748.7995,N,12217.8605,W,1,04,2.3,0.6,M,-25.1,M,,0000*60
$GPGSA,A,3,07,28,26,11,,,,,,,,,4.7,2.3,4.1*3C
$GPGSV,3,1,11,28,67,006,28,26,54,272,31,08,53,098,32,17,52,187,26*79
$GPGSV,3,2,11,01,51,282,,07,27,115,24,15,25,309,30,11,20,065,30*7C
$GPGSV,3,3,11,24,16,081,27,27,09,308,35,48,44,197,31*44
$GPRMC,212526.000,A,3748.7995,N,12217.8605,W,0.24,324.40,210711,,,A*79
$GPGGA,212527.000,3748.7994,N,12217.8603,W,1,04,2.3,1.0,M,-25.1,M,,0000*61
$GPGSA,A,3,07,28,26,11,,,,,,,,,4.7,2.3,4.1*3C
$GPRMC,212527.000,A,3748.7994,N,12217.8603,W,0.23,181.92,210711,,,A*7A
$GPVTG,181.92,T,,M,0.23,N,0.4,K,A*0B
$GPGGA,212528.000,3748.7993,N,12217.8604,W,1,04,2.3,0.4,M,-25.1,M,,0000*6B
$GPGSA,A,3,07,28,26,11,,,,,,,,,4.7,2.3,4.0*3D
$GPRMC,212528.000,A,3748.7993,N,12217.8604,W,0.16,177.07,210711,,,A*76
$GPVTG,177.07,T,,M,0.16,N,0.3,K,A*0F
$GPGGA,212529.000,3748.7991,N,12217.8609,W,1,04,2.3,-1.7,M,-25.1,M,,0000*4A
$GPGSA,A,3,07,28,26,11,,,,,,,,,4.7,2.3,4.0*3D
$GPRMC,212529.000,A,3748.7991,N,12217.8609,W,0.59,235.96,210711,,,A*7E
$GPVTG,235.96,T,,M,0.59,N,1.1,K,A*0A
$GPGGA,212530.000,3748.7991,N,12217.8611,W,1,04,2.3,-1.7,M,-25.1,M,,0000*4B
$GPGSA,A,3,07,28,26,11,,,,,,,,,4.7,2.3,4.0*3D
$GPRMC,212530.000,A,3748.7991,N,12217.8611,W,0.36,212.03,210711,,,A*7F
$GPVTG,212.03,T,,M,0.36,N,0.7,K,A*0D
$GPGGA,212531.000,3748.7990,N,12217.8611,W,1,04,2.3,-1.5,M,-25.1,M,,0000*49
$GPGSA,A,3,07,28,26,11,,,,,,,,,4.7,2.3,4.0*3D
$GPGSV,3,1,10,28,67,006,21,26,54,272,31,08,53,098,31,17,52,187,23*77
$GPGSV,3,2,10,01,51,282,,07,27,115,34,15,25,309,23,11,20,065,33*7D
$GPGSV,3,3,10,24,16,081,30,27,09,308,32*75
$GPRMC,212531.000,A,3748.7990,N,12217.8611,W,0.35,217.30,210711,,,A*79
$GPVTG,217.30,T,,M,0.35,N,0.7,K,A*0B
$GPGGA,212532.000,3748.7991,N,12217.8614,W,1,04,2.3,-3.7,M,-25.1,M,,0000*4E
$GPGSA,A,3,07,28,26,11,,,,,,,,,4.7,2.3,4.0*3D
$GPRMC,212532.000,A,3748.7991,N,12217.8614,W,0.31,222.12,210711,,,A*7C
$GPVTG,222.12,T,,M,0.31,N,0.6,K,A*08
$GPGGA,212533.000,3748.7990,N,12217.8616,W,1,04,2.3,-5.6,M,-25.1,M,,0000*4B
$GPGSA,A,3,07,28,26,11,,,,,,,,,4.7,2.3,4.0*3D
$GPRMC,212533.000,A,3748.7990,N,12217.8616,W,0.26,232.43,210711,,,A*7D
$GPVTG,232.43,T,,M,0.26,N,0.5,K,A*08
$GPGGA,212534.000,3748.7993,N,12217.8616,W,1,04,2.3,-5.3,M,-25.1,M,,0000*4A
$GPGSA,A,3,07,28,26,11,,,,,,,,,4.7,2.3,4.0*3D
$GPRMC,212534.000,A,3748.7993,N,12217.8616,W,0.82,306.06,210711,,,A*70
$GPVTG,306.06,T,,M,0.82,N,1.5,K,A*00
$GPGGA,212535.000,3748.7997,N,12217.8616,W,1,04,2.3,-5.4,M,-25.1,M,,0000*48
$GPGSA,A,3,07,28,26,11,,,,,,,,,4.7,2.3,4.0*3D
$GPRMC,212535.000,A,3748.7997,N,12217.8616,W,0.24,220.45,210711,,,A*7B
$GPVTG,220.45,T,,M,0.24,N,0.4,K,A*0E
$GPGGA,212536.000,3748.8000,N,12217.8610,W,1,04,2.3,-4.2,M,-25.1,M,,0000*42
$GPGSA,A,3,07,28,26,11,,,,,,,,,4.7,2.3,4.0*3D
$GPGSV,3,1,11,28,67,006,26,26,54,272,28,08,53,098,30,17,52,187,22*79
$GPGSV,3,2,11,01,51,282,,07,27,115,33,15,25,309,29,11,20,065,31*73
$GPGSV,3,3,11,24,16,081,24,27,09,308,32,51,43,156,29*4B
$GPRMC,212536.000,A,3748.8000,N,12217.8610,W,0.13,259.98,210711,,,A*7C
$GPVTG,259.98,T,,M,0.13,N,0.2,K,A*02
$GPGGA,212537.000,3748.8000,N,12217.8611,W,1,04,2.3,-5.0,M,-25.1,M,,0000*41
$GPGSA,A,3,07,28,26,11,,,,,,,,,4.7,2.3,4.0*3D
$GPRMC,212537.000,A,3748.8000,N,12217.8611,W,0.21,23.39,210711,,,A*49
$GPVTG,23.39,T,,M,0.21,N,0.4,K,A*31
$GPGGA,212538.000,3748.7999,N,12217.8604,W,1,04,2.3,-5.1,M,-25.1,M,,0000*4D
$GPGSA,A,3,07,28,26,11,,,,,,,,,4.7,2.3,4.0*3D
$GPRMC,212538.000,A,3748.7999,N,12217.8604,W,0.30,49.17,210711,,,A*44
$GPVTG,49.17,T,,M,0.30,N,0.6,K,A*33
$GPGGA,212539.000,3748.7999,N,12217.8598,W,1,04,2.3,-4.1,M,-25.1,M,,0000*4B
$GPGSA,A,3,07,28,26,11,,,,,,,,,4.7,2.3,4.0*3D
$GPRMC,212539.000,A,3748.7999,N,12217.8598,W,0.29,74.07,210711,,,A*44
$GPVTG,74.07,T,,M,0.29,N,0.5,K,A*37
$GPGGA,212540.000,3748.8000,N,12217.8595,W,1,04,2.3,-3.6,M,-25.1,M,,0000*4E
$GPGSA,A,3,07,28,26,11,,,,,,,,,4.7,2.3,4.0*3D
$GPRMC,212540.000,A,3748.8000,N,12217.8595,W,0.21,135.28,210711,,,A*70
$GPVTG,135.28,T,,M,0.21,N,0.4,K,A*07
$GPGGA,212541.000,3748.8000,N,12217.8595,W,1,04,2.3,-3.5,M,-25.1,M,,0000*4C
$GPGSA,A,3,07,28,26,11,,,,,,,,,4.7,2.3,4.0*3D
$GPGSV,3,1,11,28,67,006,22,26,54,272,29,08,53,098,32,17,52,187,27*7B
$GPGSV,3,2,11,01,51,282,,07,27,115,35,15,25,309,26,11,20,065,37*7C
$GPGSV,3,3,11,24,16,081,26,27,09,308,23,51,43,156,28*48
$GPRMC,212541.000,A,3748.8000,N,12217.8595,W,0.25,125.28,210711,,,A*74
$GPVTG,125.28,T,,M,0.25,N,0.5,K,A*03
$GPGGA,212542.000,3748.8001,N,12217.8593,W,1,04,2.3,-3.1,M,-25.1,M,,0000*4C
$GPGSA,A,3,07,28,26,11,,,,,,,,,4.7,2.3,4.0*3D
$GPRMC,212542.000,A,3748.8001,N,12217.8593,W,0.56,20.29,210711,,,A*41
$GPVTG,20.29,T,,M,0.56,N,1.0,K,A*36
$GPGGA,212543.000,3748.8000,N,12217.8596,W,1,04,2.3,-3.7,M,-25.1,M,,0000*4F
$GPGSA,A,3,07,28,26,11,,,,,,,,,4.7,2.3,4.0*3D
$GPRMC,212543.000,A,3748.8000,N,12217.8596,W,0.82,219.83,210711,,,A*75
$GPVTG,219.83,T,,M,0.82,N,1.5,K,A*02
$GPGGA,212544.000,3748.8000,N,12217.8600,W,1,04,2.3,-4.5,M,-25.1,M,,0000*41
$GPGSA,A,3,07,28,26,11,,,,,,,,,4.7,2.3,4.0*3D
$GPRMC,212544.000,A,3748.8000,N,12217.8600,W,0.19,205.40,210711,,,A*7E
$GPVTG,205.40,T,,M,0.19,N,0.3,K,A*05
$GPGGA,212545.000,3748.8001,N,12217.8597,W,1,04,2.3,-4.1,M,-25.1,M,,0000*48
$GPGSA,A,3,07,28,26,11,,,,,,,,,4.7,2.3,4.0*3D
$GPRMC,212545.000,A,3748.8001,N,12217.8597,W,0.14,196.84,210711,,,A*7F
$GPVTG,196.84,T,,M,0.14,N,0.3,K,A*09
$GPGGA,212546.000,3748.8004,N,12217.8592,W,1,04,2.3,-3.6,M,-25.1,M,,0000*4B
$GPGSA,A,3,07,28,26,11,,,,,,,,,4.7,2.3,4.0*3D
$GPGSV,3,1,11,28,67,006,28,26,54,272,27,08,53,098,32,17,52,187,21*79
$GPGSV,3,2,11,01,51,282,,07,27,115,35,15,25,309,34,11,20,065,26*7F
$GPGSV,3,3,11,24,16,081,25,27,09,308,22,51,43,156,34*47
$GPRMC,212546.000,A,3748.8004,N,12217.8592,W,0.06,48.41,210711,,,A*44
$GPVTG,48.41,T,,M,0.06,N,0.1,K,A*33
$GPGGA,212547.000,3748.8007,N,12217.8586,W,1,04,2.3,-2.8,M,-25.1,M,,0000*43
$GPGSA,A,3,07,28,26,11,,,,,,,,,4.7,2.3,4.0*3D
$GPRMC,212547.000,A,3748.8007,N,12217.8586,W,0.16,46.18,210711,,,A*40
$GPVTG,46.18,T,,M,0.16,N,0.3,K,A*32
$GPGGA,212548.000,3748.8010,N,12217.8579,W,1,04,2.3,-1.7,M,-25.1,M,,0000*46
$GPGSA,A,3,07,28,26,11,,,,,,,,,4.7,2.3,4.0*3D
$GPRMC,212548.000,A,3748.8010,N,12217.8579,W,0.21,54.37,210711,,,A*43
$GPVTG,54.37,T,,M,0.21,N,0.4,K,A*3F
$GPGGA,212549.000,3748.8012,N,12217.8574,W,1,04,2.3,-0.8,M,-25.1,M,,0000*46
$GPGSA,A,3,07,28,26,11,,,,,,,,,4.7,2.3,4.0*3D
$GPRMC,212549.000,A,3748.8012,N,12217.8574,W,0.24,55.94,210711,,,A*40
$GPVTG,55.94,T,,M,0.24,N,0.4,K,A*32
$GPGGA,212550.000,3748.8013,N,12217.8570,W,1,04,2.3,-0.6,M,-25.1,M,,0000*45
$GPGSA,A,3,07,28,26,11,,,,,,,,,4.7,2.3,4.0*3D
$GPRMC,212550.000,A,3748.8013,N,12217.8570,W,0.21,45.88,210711,,,A*44
$GPVTG,45.88,T,,M,0.21,N,0.4,K,A*3B
$GPGGA,212551.000,3748.8016,N,12217.8564,W,1,04,2.3,0.3,M,-25.1,M,,0000*6C
$GPGSA,A,3,07,28,26,11,,,,,,,,,4.7,2.3,4.0*3D
$GPGSV,3,1,11,28,67,006,24,26,54,272,27,08,53,098,31,17,52,187,20*77
$GPGSV,3,2,11,01,51,282,,07,27,115,35,15,25,309,34,11,20,065,28*71
$GPGSV,3,3,11,24,16,081,28,27,09,308,24,51,43,156,31*49
$GPVTG,74.14,T,,M,0.45,N,0.8,K,A*32
$GPGGA,212552.000,3748.8017,N,12217.8569,W,1,05,2.0,-2.2,M,-25.1,M,,0000*4F
$GPGSA,A,3,07,28,26,08,11,,,,,,,,3.5,2.0,2.9*3C
$GPRMC,212552.000,A,3748.8017,N,12217.8569,W,0.15,120.19,210711,,,A*77
$GPVTG,120.19,T,,M,0.15,N,0.3,K,A*01
$GPGGA,212553.000,3748.8019,N,12217.8576,W,1,05,2.0,-4.7,M,-25.1,M,,0000*4D
$GPGSA,A,3,07,28,26,08,11,,,,,,,,3.5,2.0,2.9*3C
$GPRMC,212553.000,A,3748.8019,N,12217.8576,W,0.26,347.53,210711,,,A*7B
$GPVTG,347.53,T,,M,0.26,N,0.5,K,A*0A
$GPGGA,212554.000,3748.8020,N,12217.8582,W,1,05,2.0,-6.6,M,-25.1,M,,0000*48
$GPGSA,A,3,07,28,26,08,11,,,,,,,,3.5,2.0,2.9*3C
$GPRMC,212554.000,A,3748.8020,N,12217.8582,W,0.18,280.10,210711,,,A*7D
$GPVTG,280.10,T,,M,0.18,N,0.3,K,A*0C
$GPGGA,212555.000,3748.8019,N,12217.8586,W,1,05,2.0,-7.8,M,-25.1,M,,0000*48
$GPGSA,A,3,07,28,26,08,11,,,,,,,,3.5,2.0,2.9*3C
$GPRMC,212555.000,A,3748.8019,N,12217.8586,W,0.30,181.70,210711,,,A*7C
$GPVTG,181.70,T,,M,0.30,N,0.6,K,A*07
$GPGGA,212556.000,3748.8019,N,12217.8589,W,1,05,2.0,-9.0,M,-25.1,M,,0000*42
$GPGSA,A,3,07,28,26,08,11,,,,,,,,3.5,2.0,2.9*3C
$GPGSV,3,1,11,28,67,007,29,26,54,271,35,08,53,098,33,17,52,187,28*71
$GPGSV,3,2,11,01,51,282,,07,27,116,29,15,26,309,25,11,20,064,35*71
$GPGSV,3,3,11,24,16,081,21,27,09,308,23,51,43,156,29*4E
$GPRMC,212556.000,A,3748.8019,N,12217.8589,W,0.71,203.63,210711,,,A*7E
$GPVTG,203.63,T,,M,0.71,N,1.3,K,A*0D
$GPGGA,212557.000,3748.8022,N,12217.8592,W,1,05,2.0,-9.1,M,-25.1,M,,0000*40
$GPGSA,A,3,07,28,26,08,11,,,,,,,,3.5,2.0,2.9*3C
$GPRMC,212557.000,A,3748.8022,N,12217.8592,W,0.41,282.99,210711,,,A*72
$GPVTG,282.99,T,,M,0.41,N,0.8,K,A*08
$GPGGA,212558.000,3748.8023,N,12217.8595,W,1,05,2.0,-9.4,M,-25.1,M,,0000*4C
$GPGSA,A,3,07,28,26,08,11,,,,,,,,3.5,2.0,2.9*3C
$GPRMC,212558.000,A,3748.8023,N,12217.8595,W,0.57,291.69,210711,,,A*71
$GPVTG,291.69,T,,M,0.57,N,1.1,K,A*0A
$GPGGA,212559.000,3748.8024,N,12217.8599,W,1,05,2.0,-9.7,M,-25.1,M,,0000*45
$GPGSA,A,3,07,28,26,08,11,,,,,,,,3.5,2.0,2.9*3C
$GPRMC,212559.000,A,3748.8024,N,12217.8599,W,0.50,229.40,210711,,,A*74
$GPVTG,229.40,T,,M,0.50,N,0.9,K,A*0C
$GPGGA,212600.000,3748.8024,N,12217.8601,W,1,05,2.0,-9.7,M,-25.1,M,,0000*48
$GPGSA,A,3,07,28,26,08,11,,,,,,,,3.5,2.0,2.9*3C
$GPRMC,212600.000,A,3748.8024,N,12217.8601,W,0.23,161.09,210711,,,A*7F
$GPVTG,161.09,T,,M,0.23,N,0.4,K,A*07
$GPGGA,212601.000,3748.8020,N,12217.8602,W,1,05,2.0,-9.7,M,-25.1,M,,0000*4E
$GPGSA,A,3,07,28,26,08,11,,,,,,,,3.5,2.0,2.9*3C
$GPGSV,3,1,11,28,67,007,26,26,54,271,39,08,53,098,30,17,52,187,41*7E
$GPGSV,3,2,11,01,51,282,,07,27,116,27,15,26,309,36,11,20,064,23*7A
$GPGSV,3,3,11,24,16,081,18,27,09,308,34,51,43,156,33*49
$GPRMC,212601.000,A,3748.8020,N,12217.8602,W,0.95,179.51,210711,,,A*70
$GPVTG,179.51,T,,M,0.95,N,1.8,K,A*03
$GPGGA,212602.000,3748.8019,N,12217.8603,W,1,05,2.0,-8.4,M,-25.1,M,,0000*44
$GPGSA,A,3,07,28,26,08,11,,,,,,,,3.5,2.0,2.9*3C
$GPRMC,212602.000,A,3748.8019,N,12217.8603,W,0.70,277.03,210711,,,A*79
$GPVTG,277.03,T,,M,0.70,N,1.3,K,A*09
$GPGGA,212603.000,3748.8015,N,12217.8600,W,1,05,2.0,-6.1,M,-25.1,M,,0000*41
$GPGSA,A,3,07,28,26,08,11,,,,,,,,3.5,2.0,2.9*3C
$GPRMC,212603.000,A,3748.8015,N,12217.8600,W,0.86,213.52,210711,,,A*78
$GPVTG,213.52,T,,M,0.86,N,1.6,K,A*03
$GPGGA,212604.000,3748.8011,N,12217.8601,W,1,05,2.0,-5.9,M,-25.1,M,,0000*48
$GPGSA,A,3,07,28,26,08,11,,,,,,,,3.5,2.0,2.9*3C
$GPRMC,212604.000,A,3748.8011,N,12217.8601,W,0.34,158.12,210711,,,A*7B
$GPVTG,158.12,T,,M,0.34,N,0.6,K,A*03
$GPGGA,212605.000,3748.8002,N,12217.8602,W,1,05,2.0,-6.4,M,-25.1,M,,0000*46
$GPGSA,A,3,07,28,26,08,11,,,,,,,,3.5,2.0,2.9*3C
$GPRMC,212605.000,A,3748.8002,N,12217.8602,W,1.01,173.62,210711,,,A*72
$GPVTG,173.62,T,,M,1.01,N,1.9,K,A*04
$GPGGA,212606.000,3748.7998,N,12217.8603,W,1,05,2.0,-7.3,M,-25.1,M,,0000*47
$GPGSA,A,3,07,28,26,08,11,,,,,,,,3.5,2.0,2.9*3C
$GPGSV,3,1,11,28,67,007,28,26,54,271,38,08,53,098,24,17,52,187,26*75
$GPGSV,3,2,11,01,51,282,,07,27,116,23,15,26,309,35,11,20,064,17*7A
$GPGSV,3,3,11,24,16,081,19,27,09,308,34,51,43,156,25*4F
$GPVTG,154.69,T,,M,1.00,N,1.9,K,A*0B
$GPGGA,212607.000,3748.7999,N,12217.8605,W,1,05,2.0,-7.4,M,-25.1,M,,0000*46
$GPGSA,A,3,07,28,26,08,11,,,,,,,,3.5,2.0,2.9*3C
$GPRMC,212607.000,A,3748.7999,N,12217.8605,W,0.25,90.85,210711,,,A*41
$GPVTG,90.85,T,,M,0.25,N,0.5,K,A*3B
$GPGGA,212608.000,3748.8006,N,12217.8606,W,1,05,2.0,-8.3,M,-25.1,M,,0000*42
$GPGSA,A,3,07,28,26,08,11,,,,,,,,3.5,2.0,2.9*3C
$GPRMC,212608.000,A,3748.8006,N,12217.8606,W,0.43,321.81,210711,,,A*70
$GPVTG,321.81,T,,M,0.43,N,0.8,K,A*0B
$GPGGA,212609.000,3748.8003,N,12217.8603,W,1,04,2.3,-8.7,M,-25.1,M,,0000*45
$GPGSA,A,3,07,28,26,11,,,,,,,,,4.6,2.3,4.0*3C
$GPRMC,212609.000,A,3748.8003,N,12217.8603,W,0.49,176.91,210711,,,A*7A
$GPVTG,176.91,T,,M,0.49,N,0.9,K,A*01
$GPGGA,212609.000,3748.8018,N,12217.8609,W,1,05,2.0,-10.8,M,-25.1,M,,0000*71
$GPGSA,A,3,07,28,26,08,11,,,,,,,,3.5,2.0,2.9*3C
$GPRMC,212609.000,A,3748.8018,N,12217.8609,W,0.87,326.39,210711,,,A*7D
$GPVTG,326.39,T,,M,0.87,N,1.6,K,A*08
$GPGGA,212610.000,3748.8032,N,12217.8616,W,1,05,2.0,-13.2,M,-25.1,M,,0000*76
$GPGSA,A,3,07,28,26,08,11,,,,,,,,3.5,2.0,2.9*3C
$GPGSV,3,1,10,28,67,007,28,26,54,271,32,08,53,098,16,17,52,187,27*7E
$GPGSV,3,2,10,01,51,282,,07,27,116,24,15,26,309,32,11,20,064,19*75
$GPGSV,3,3,10,24,16,081,23,27,09,308,36*73
$GPRMC,212610.000,A,3748.8032,N,12217.8616,W,1.03,339.30,210711,,,A*79
$GPVTG,339.30,T,,M,1.03,N,1.9,K,A*0D
$GPGGA,212611.000,3748.8025,N,12217.8615,W,1,05,2.0,-13.2,M,-25.1,M,,0000*72
$GPGSA,A,3,07,28,26,08,11,,,,,,,,3.5,2.0,2.9*3C
$GPRMC,212611.000,A,3748.8025,N,12217.8615,W,0.39,288.00,210711,,,A*7D
$GPVTG,288.00,T,,M,0.39,N,0.7,K,A*02
$GPGGA,212612.000,3748.8017,N,12217.8613,W,1,05,2.0,-12.6,M,-25.1,M,,0000*73
$GPGSA,A,3,07,28,26,08,11,,,,,,,,3.5,2.0,2.9*3C
$GPRMC,212612.000,A,3748.8017,N,12217.8613,W,0.57,288.88,210711,,,A*71
$GPVTG,288.88,T,,M,0.57,N,1.1,K,A*0D
$GPGGA,212613.000,3748.8012,N,12217.8618,W,1,04,2.3,-13.3,M,-25.1,M,,0000*7A
$GPGSA,A,3,07,28,26,11,,,,,,,,,4.6,2.3,4.0*3C
$GPRMC,212613.000,A,3748.8012,N,12217.8618,W,0.76,288.14,210711,,,A*78
$GPVTG,288.14,T,,M,0.76,N,1.4,K,A*0E
$GPGGA,212614.000,3748.8006,N,12217.8617,W,1,05,2.0,-10.9,M,-25.1,M,,0000*7C
$GPGSA,A,3,07,28,26,08,11,,,,,,,,3.5,2.0,2.9*3C
$GPRMC,212614.000,A,3748.8006,N,12217.8617,W,0.76,209.23,210711,,,A*78
$GPVTG,209.23,T,,M,0.76,N,1.4,K,A*03
$GPGGA,212615.000,3748.8000,N,12217.8620,W,1,05,2.0,-10.6,M,-25.1,M,,0000*70
$GPGSA,A,3,07,28,26,08,11,,,,,,,,3.5,2.0,2.9*3C
$GPGSV,3,1,10,28,67,007,22,26,54,271,34,08,53,098,22,17,52,187,28*7A
$GPGSV,3,2,10,01,51,282,,07,27,116,23,15,26,309,39,11,20,064,28*7B
$GPGSV,3,3,10,24,16,081,24,27,09,308,35*77
$GPRMC,212615.000,A,3748.8000,N,12217.8620,W,0.38,221.43,210711,,,A*7D
$GPVTG,221.43,T,,M,0.38,N,0.7,K,A*07
$GPGGA,212616.000,3748.8002,N,12217.8622,W,1,05,2.0,-11.1,M,-25.1,M,,0000*75
$GPGSA,A,3,07,28,26,08,11,,,,,,,,3.5,2.0,2.9*3C
$GPRMC,212616.000,A,3748.8002,N,12217.8622,W,0.16,267.63,210711,,,A*72
$GPVTG,267.63,T,,M,0.16,N,0.3,K,A*0F
$GPGGA,212617.000,3748.8007,N,12217.8624,W,1,05,2.0,-10.8,M,-25.1,M,,0000*7F
$GPGSA,A,3,07,28,26,08,11,,,,,,,,3.5,2.0,2.9*3C
$GPRMC,212617.000,A,3748.8007,N,12217.8624,W,0.67,29.15,210711,,,A*4F
$GPVTG,29.15,T,,M,0.67,N,1.2,K,A*30
$GPGGA,212618.000,3748.8008,N,12217.8621,W,1,05,2.0,-9.2,M,-25.1,M,,0000*48
$GPGSA,A,3,07,28,26,08,11,,,,,,,,3.5,2.0,2.9*3C
$GPRMC,212618.000,A,3748.8008,N,12217.8621,W,0.98,14.22,210711,,,A*40
$GPVTG,14.22,T,,M,0.98,N,1.8,K,A*30
$GPGGA,212619.000,3748.8016,N,12217.8618,W,1,03,3.2,-8.6,M,-25.1,M,,0000*4C
$GPGSA,A,2,28,26,08,,,,,,,,,,3.4,3.2,1.0*32
$GPRMC,212619.000,A,3748.8016,N,12217.8618,W,0.43,358.87,210711,,,A*76
$GPVTG,358.87,T,,M,0.43,N,0.8,K,A*03
$GPGGA,212620.000,3748.8015,N,12217.8618,W,1,05,2.0,-7.8,M,-25.1,M,,0000*41
$GPGSA,A,3,07,28,26,08,11,,,,,,,,3.5,2.0,2.9*3C
$GPGSV,3,1,11,28,67,007,24,26,54,271,34,08,53,098,25,17,52,187,34*77
$GPGSV,3,2,11,01,51,282,,07,27,116,18,15,26,309,30,11,20,064,19*79
$GPGSV,3,3,11,24,16,081,18,27,09,308,28,51,43,156,29*4F
$GPRMC,212620.000,A,3748.8015,N,12217.8618,W,0.30,7.80,210711,,,A*75
$GPVTG,7.80,T,,M,0.30,N,0.6,K,A*07
$GPGGA,212621.000,3748.8014,N,12217.8619,W,1,05,2.0,-8.1,M,-25.1,M,,0000*46
$GPGSA,A,3,07,28,26,08,11,,,,,,,,3.5,2.0,2.9*3C
$GPRMC,212621.000,A,3748.8014,N,12217.8619,W,0.43,50.46,210711,,,A*48
$GPVTG,50.46,T,,M,0.43,N,0.8,K,A*35
$GPGGA,212622.000,3748.8004,N,12217.8619,W,1,05,2.0,-7.7,M,-25.1,M,,0000*4D
$GPGSA,A,3,07,28,26,08,11,,,,,,,,3.5,2.0,2.9*3C
$GPRMC,212622.000,A,3748.8004,N,12217.8619,W,0.87,156.86,210711,,,A*79
$GPVTG,156.86,T,,M,0.87,N,1.6,K,A*09
$GPGGA,212623.000,3748.8001,N,12217.8619,W,1,05,2.0,-6.7,M,-25.1,M,,0000*48
$GPGSA,A,3,07,28,26,08,11,,,,,,,,3.5,2.0,2.9*3C
$GPRMC,212623.000,A,3748.8001,N,12217.8619,W,0.90,167.92,210711,,,A*7C
$GPVTG,167.92,T,,M,0.90,N,1.7,K,A*09
$GPGGA,212624.000,3748.8006,N,12217.8615,W,1,05,2.0,-4.8,M,-25.1,M,,0000*49
$GPGSA,A,3,07,28,26,08,11,,,,,,,,3.5,2.0,2.9*3C
$GPRMC,212624.000,A,3748.8006,N,12217.8615,W,0.19,91.83,210711,,,A*49
$GPVTG,91.83,T,,M,0.19,N,0.4,K,A*32
$GPGGA,212625.000,3748.8006,N,12217.8614,W,1,05,2.0,-2.9,M,-25.1,M,,0000*4E
$GPGSA,A,3,07,28,26,08,11,,,,,,,,3.5,2.0,2.9*3C
$GPGSV,3,1,10,28,67,007,26,26,54,271,35,08,53,098,23,17,52,187,33*74
$GPGSV,3,2,10,01,51,282,,07,27,116,19,15,26,309,27,11,20,064,26*73
$GPGSV,3,3,10,24,16,081,22,27,09,308,29*7C
$GPRMC,212625.000,A,3748.8006,N,12217.8614,W,0.39,335.06,210711,,,A*7B
$GPVTG,335.06,T,,M,0.39,N,0.7,K,A*03
$GPGGA,212626.000,3748.8007,N,12217.8613,W,1,05,2.0,0.5,M,-25.1,M,,0000*68
$GPGSA,A,3,07,28,26,08,11,,,,,,,,3.5,2.0,2.9*3C
$GPRMC,212626.000,A,3748.8007,N,12217.8613,W,0.28,4.93,210711,,,A*73
$GPVTG,4.93,T,,M,0.28,N,0.5,K,A*0C
$GPGGA,212627.000,3748.8003,N,12217.8611,W,1,05,2.0,3.9,M,-25.1,M,,0000*60
$GPGSA,A,3,07,28,26,08,11,,,,,,,,3.5,2.0,2.9*3C
$GPRMC,212627.000,A,3748.8003,N,12217.8611,W,0.59,353.08,210711,,,A*71
$GPVTG,353.08,T,,M,0.59,N,1.1,K,A*0C
$GPGGA,212628.000,3748.8001,N,12217.8608,W,1,05,1.9,5.6,M,-25.1,M,,0000*66
$GPGSA,A,3,07,28,26,08,11,,,,,,,,3.5,1.9,2.9*36
$GPRMC,212628.000,A,3748.8001,N,12217.8608,W,0.96,13.40,210711,,,A*4C
$GPVTG,13.40,T,,M,0.96,N,1.8,K,A*3D
$GPGGA,212629.000,3748.7993,N,12217.8604,W,1,05,1.9,6.1,M,-25.1,M,,0000*62
$GPGSA,A,3,07,28,26,08,11,,,,,,,,3.5,1.9,2.9*36
$GPRMC,212629.000,A,3748.7993,N,12217.8604,W,0.56,37.11,210711,,,A*42
$GPVTG,37.11,T,,M,0.56,N,1.0,K,A*3B
$GPGGA,212630.000,3748.7990,N,12217.8600,W,1,05,1.9,7.3,M,-25.1,M,,0000*6E
$GPGSA,A,3,07,28,26,08,11,,,,,,,,3.5,1.9,2.9*36
$GPGSV,3,1,11,28,67,007,27,26,54,271,36,08,53,098,27,17,52,187,33*73
$GPGSV,3,2,11,01,51,282,,07,27,116,21,15,26,309,33,11,20,064,19*70
$GPGSV,3,3,11,24,16,081,19,27,09,308,28,51,43,156,30*46
$GPRMC,212630.000,A,3748.7990,N,12217.8600,W,0.47,121.67,210711,,,A*7A
$GPVTG,121.67,T,,M,0.47,N,0.9,K,A*04
$GPGGA,212631.000,3748.7983,N,12217.8600,W,1,05,1.9,8.5,M,-25.1,M,,0000*64
$GPGSA,A,3,07,28,26,08,11,,,,,,,,3.5,1.9,2.9*36
$GPRMC,212631.000,A,3748.7983,N,12217.8600,W,0.34,53.44,210711,,,A*48
$GPVTG,53.44,T,,M,0.34,N,0.6,K,A*3A
$GPGGA,212632.000,3748.7970,N,12217.8602,W,1,05,1.9,9.5,M,-25.1,M,,0000*68
$GPGSA,A,3,07,28,26,08,11,,,,,,,,3.5,1.9,2.9*36
$GPRMC,212632.000,A,3748.7970,N,12217.8602,W,1.21,145.63,210711,,,A*73
$GPVTG,145.63,T,,M,1.21,N,2.2,K,A*0A
$GPGGA,212633.000,3748.7962,N,12217.8601,W,1,05,1.9,9.4,M,-25.1,M,,0000*68
$GPGSA,A,3,07,28,26,08,11,,,,,,,,3.5,1.9,2.9*36
$GPRMC,212633.000,A,3748.7962,N,12217.8601,W,1.03,149.90,210711,,,A*72
$GPVTG,149.90,T,,M,1.03,N,1.9,K,A*02
$GPGGA,212634.000,3748.7955,N,12217.8598,W,1,05,1.9,10.1,M,-25.1,M,,0000*55
$GPGSA,A,3,07,28,26,08,11,,,,,,,,3.5,1.9,2.9*36
$GPRMC,212634.000,A,3748.7955,N,12217.8598,W,1.38,155.13,210711,,,A*7C
$GPVTG,155.13,T,,M,1.38,N,2.6,K,A*00
$GPGGA,212635.000,3748.7954,N,12217.8598,W,1,05,1.9,12.6,M,-25.1,M,,0000*50
$GPGSA,A,3,07,28,26,08,11,,,,,,,,3.5,1.9,2.9*36
$GPGSV,3,1,11,28,67,007,27,26,54,271,36,08,53,098,23,17,52,187,29*7C
$GPGSV,3,2,11,01,51,282,,07,27,116,20,15,26,309,33,11,20,064,16*7E
$GPGSV,3,3,11,24,16,081,19,27,09,308,31,51,43,156,27*48
$GPRMC,212635.000,A,3748.7954,N,12217.8598,W,0.92,176.18,210711,,,A*77
$GPVTG,176.18,T,,M,0.92,N,1.7,K,A*09
$GPGGA,212636.000,3748.7958,N,12217.8603,W,1,05,1.9,10.4,M,-25.1,M,,0000*5E
$GPGSA,A,3,07,28,26,08,11,,,,,,,,3.5,1.9,2.9*36
$GPRMC,212636.000,A,3748.7958,N,12217.8603,W,0.59,188.73,210711,,,A*72
$GPVTG,188.73,T,,M,0.59,N,1.1,K,A*04
$GPGGA,212637.000,3748.7963,N,12217.8597,W,1,05,1.9,12.7,M,-25.1,M,,0000*58
$GPGSA,A,3,07,28,26,08,11,,,,,,,,3.5,1.9,2.9*36
$GPRMC,212637.000,A,3748.7963,N,12217.8597,W,0.73,111.78,210711,,,A*76
$GPVTG,111.78,T,,M,0.73,N,1.3,K,A*05
$GPGGA,212638.000,3748.7959,N,12217.8596,W,1,05,1.9,14.6,M,-25.1,M,,0000*58
$GPGSA,A,3,07,28,26,08,11,,,,,,,,3.5,1.9,2.9*36
$GPRMC,212638.000,A,3748.7959,N,12217.8596,W,0.51,189.47,210711,,,A*7C
$GPVTG,189.47,T,,M,0.51,N,0.9,K,A*03
$GPGGA,212639.000,3748.7954,N,12217.8599,W,1,05,1.9,15.5,M,-25.1,M,,0000*59
$GPGSA,A,3,07,28,26,08,11,,,,,,,,3.5,1.9,2.9*36
$GPRMC,212639.000,A,3748.7954,N,12217.8599,W,0.68,172.57,210711,,,A*70
$GPVTG,172.57,T,,M,0.68,N,1.3,K,A*07
$GPGGA,212640.000,3748.7952,N,12217.8597,W,1,05,1.9,16.8,M,-25.1,M,,0000*51
$GPGSA,A,3,07,28,26,08,11,,,,,,,,3.5,1.9,2.9*36
$GPGSV,3,1,11,28,67,007,23,26,54,271,17,08,53,098,27,17,52,187,32*75
$GPGSV,3,2,11,01,51,282,,07,27,116,31,15,26,309,24,11,20,064,23*7E
$GPGSV,3,3,11,24,16,081,19,27,09,308,26,51,43,156,35*4D
$GPRMC,212640.000,A,3748.7952,N,12217.8597,W,1.08,132.01,210711,,,A*76
$GPVTG,132.01,T,,M,1.08,N,2.0,K,A*07
$GPGGA,212641.000,3748.7953,N,12217.8598,W,1,05,1.9,17.8,M,-25.1,M,,0000*5F
$GPGSA,A,3,07,28,26,08,11,,,,,,,,3.5,1.9,2.9*36
$GPRMC,212641.000,A,3748.7953,N,12217.8598,W,0.46,109.30,210711,,,A*78
$GPVTG,109.30,T,,M,0.46,N,0.8,K,A*0C
$GPGGA,212642.000,3748.7957,N,12217.8595,W,1,05,1.9,19.2,M,-25.1,M,,0000*51
$GPGSA,A,3,07,28,26,08,11,,,,,,,,3.5,1.9,2.9*36
$GPRMC,212642.000,A,3748.7957,N,12217.8595,W,0.30,188.11,210711,,,A*79
$GPVTG,188.11,T,,M,0.30,N,0.6,K,A*09
$GPGGA,212643.000,3748.7960,N,12217.8593,W,1,05,1.9,19.0,M,-25.1,M,,0000*50
$GPGSA,A,3,07,28,26,08,11,,,,,,,,3.5,1.9,2.9*36
$GPRMC,212643.000,A,3748.7960,N,12217.8593,W,0.15,187.57,210711,,,A*70
$GPVTG,187.57,T,,M,0.15,N,0.3,K,A*06
$GPGGA,212644.000,3748.7966,N,12217.8594,W,1,05,1.9,17.6,M,-25.1,M,,0000*5E
$GPGSA,A,3,07,28,26,08,11,,,,,,,,3.5,1.9,2.9*36
$GPRMC,212644.000,A,3748.7966,N,12217.8594,W,0.29,48.88,210711,,,A*49
$GPVTG,48.88,T,,M,0.29,N,0.5,K,A*3F
$GPGGA,212645.000,3748.7972,N,12217.8598,W,1,05,1.9,16.5,M,-25.1,M,,0000*54
$GPGSA,A,3,07,28,26,08,11,,,,,,,,3.5,1.9,2.9*36
$GPGSV,3,1,11,28,67,007,23,26,54,271,17,08,53,098,28,17,52,187,33*7B
$GPGSV,3,2,11,01,51,282,,07,27,116,32,15,26,309,18,11,20,064,23*72
$GPGSV,3,3,11,24,16,081,20,27,09,308,,51,43,156,36*40
$GPRMC,212645.000,A,3748.7972,N,12217.8598,W,0.46,337.17,210711,,,A*75
$GPVTG,337.17,T,,M,0.46,N,0.8,K,A*06
$GPGGA,212646.000,3748.7976,N,12217.8607,W,1,05,1.9,15.7,M,-25.1,M,,0000*57
$GPGSA,A,3,07,28,26,08,11,,,,,,,,3.5,1.9,2.9*36
$GPRMC,212646.000,A,3748.7976,N,12217.8607,W,0.89,247.52,210711,,,A*73
$GPVTG,247.52,T,,M,0.89,N,1.7,K,A*0C
$GPGGA,212647.000,3748.7976,N,12217.8611,W,1,05,1.9,15.6,M,-25.1,M,,0000*50
$GPGSA,A,3,07,28,26,08,11,,,,,,,,3.5,1.9,2.9*36
$GPRMC,212647.000,A,3748.7976,N,12217.8611,W,0.21,243.70,210711,,,A*73
$GPVTG,243.70,T,,M,0.21,N,0.4,K,A*08
$GPGGA,212648.000,3748.7969,N,12217.8621,W,1,05,1.9,14.9,M,-25.1,M,,0000*5C
$GPGSA,A,3,07,28,26,08,11,,,,,,,,3.5,1.9,2.9*36
$GPRMC,212648.000,A,3748.7969,N,12217.8621,W,0.38,141.24,210711,,,A*79
$GPVTG,141.24,T,,M,0.38,N,0.7,K,A*03
$GPGGA,212649.000,3748.7973,N,12217.8612,W,1,05,1.9,15.8,M,-25.1,M,,0000*56
$GPGSA,A,3,07,28,26,08,11,,,,,,,,3.5,1.9,2.9*36
$GPRMC,212649.000,A,3748.7973,N,12217.8612,W,0.73,172.10,210711,,,A*7B
$GPVTG,172.10,T,,M,0.73,N,1.4,K,A*09
$GPGGA,212650.000,3748.7974,N,12217.8607,W,1,04,4.8,16.1,M,-25.1,M,,0000*52
$GPGSA,A,3,07,28,26,08,,,,,,,,,9.0,4.8,7.6*37
$GPGSV,3,1,11,28,67,008,23,26,54,270,28,17,53,187,34,08,52,099,29*7E
$GPGSV,3,2,11,01,52,283,,07,27,116,32,15,26,308,22,11,20,064,21*7A
$GPGSV,3,3,11,24,16,080,19,27,09,309,23,51,43,156,36*4B
$GPRMC,212650.000,A,3748.7974,N,12217.8607,W,0.75,166.07,210711,,,A*75
$GPGGA,212651.000,3748.7961,N,12217.8609,W,1,05,1.9,15.1,M,-25.1,M,,0000*5F
$GPGSA,A,3,07,28,26,08,11,,,,,,,,3.5,1.9,2.9*36
$GPRMC,212651.000,A,3748.7961,N,12217.8609,W,0.61,185.19,210711,,,A*79
$GPVTG,185.19,T,,M,0.61,N,1.1,K,A*0E
$GPGGA,212652.000,3748.7959,N,12217.8608,W,1,04,4.8,14.6,M,-25.1,M,,0000*55
$GPGSA,A,3,07,28,26,08,,,,,,,,,9.0,4.8,7.6*37
$GPRMC,212652.000,A,3748.7959,N,12217.8608,W,0.57,170.58,210711,,,A*7A
$GPVTG,170.58,T,,M,0.57,N,1.0,K,A*05
$GPGGA,212653.000,3748.7958,N,12217.8604,W,1,04,4.8,14.2,M,-25.1,M,,0000*5D
$GPGSA,A,3,07,28,26,08,,,,,,,,,9.0,4.8,7.6*37
$GPRMC,212653.000,A,3748.7958,N,12217.8604,W,0.51,136.46,210711,,,A*7D
$GPVTG,136.46,T,,M,0.51,N,0.9,K,A*06
$GPGGA,212654.000,3748.7962,N,12217.8601,W,1,04,4.8,13.9,M,-25.1,M,,0000*5A
$GPGSA,A,3,07,28,26,08,,,,,,,,,9.0,4.8,7.6*37
$GPRMC,212654.000,A,3748.7962,N,12217.8601,W,0.52,32.50,210711,,,A*47
$GPVTG,32.50,T,,M,0.52,N,1.0,K,A*3F
$GPGGA,212655.000,3748.7961,N,12217.8598,W,1,04,4.8,13.3,M,-25.1,M,,0000*51
$GPGSA,A,3,07,28,26,08,,,,,,,,,9.0,4.8,7.6*37
$GPGSV,3,1,11,28,67,008,24,26,54,270,20,17,53,187,34,08,52,099,29*71
$GPGSV,3,2,11,01,52,283,,07,27,116,33,15,26,308,13,11,20,064,17*7C
$GPGSV,3,3,11,24,16,080,20,27,09,309,20,51,43,156,37*43
$GPRMC,212655.000,A,3748.7961,N,12217.8598,W,0.75,12.44,210711,,,A*44
$GPVTG,12.44,T,,M,0.75,N,1.4,K,A*39
$GPGGA,212656.000,3748.7959,N,12217.8591,W,1,05,1.9,15.0,M,-25.1,M,,0000*50
$GPGSA,A,3,07,28,26,08,11,,,,,,,,3.5,1.9,2.9*36
$GPRMC,212656.000,A,3748.7959,N,12217.8591,W,1.19,25.11,210711,,,A*4A
$GPVTG,25.11,T,,M,1.19,N,2.2,K,A*33
$GPGGA,212657.000,3748.7962,N,12217.8589,W,1,06,1.6,14.9,M,-25.1,M,,0000*54
$GPGSA,A,3,07,28,26,08,17,11,,,,,,,3.3,1.6,2.9*39
$GPRMC,212657.000,A,3748.7962,N,12217.8589,W,0.22,28.11,210711,,,A*4E
$GPVTG,28.11,T,,M,0.22,N,0.4,K,A*33
$GPGGA,212658.000,3748.7964,N,12217.8586,W,1,06,1.6,14.9,M,-25.1,M,,0000*52
$GPGSA,A,3,07,28,26,08,17,11,,,,,,,3.3,1.6,2.9*39
$GPRMC,212658.000,A,3748.7964,N,12217.8586,W,0.11,148.33,210711,,,A*7F
$GPVTG,148.33,T,,M,0.11,N,0.2,K,A*02
$GPGGA,212659.000,3748.7964,N,12217.8585,W,1,06,1.6,14.2,M,-25.1,M,,0000*5B
$GPGSA,A,3,07,28,26,08,17,11,,,,,,,3.3,1.6,2.9*39
$GPRMC,212659.000,A,3748.7964,N,12217.8585,W,0.39,186.86,210711,,,A*7B
$GPVTG,186.86,T,,M,0.39,N,0.7,K,A*01
$GPGGA,212700.000,3748.7964,N,12217.8583,W,1,06,1.6,13.6,M,-25.1,M,,0000*53
$GPGSA,A,3,07,28,26,08,17,11,,,,,,,3.3,1.6,2.9*39
$GPGSV,3,1,11,28,67,008,26,26,54,270,31,17,53,187,36,08,52,099,27*7F
$GPGSV,3,2,11,01,52,283,,07,27,116,38,15,26,308,25,11,20,064,17*72
$GPGSV,3,3,11,24,16,080,,27,09,309,23,51,43,156,37*42
$GPRMC,212700.000,A,3748.7964,N,12217.8583,W,0.06,99.30,210711,,,A*4E
$GPVTG,99.30,T,,M,0.06,N,0.1,K,A*39
$GPGGA,212701.000,3748.7964,N,12217.8580,W,1,06,1.6,13.2,M,-25.1,M,,0000*55
$GPGSA,A,3,07,28,26,08,17,11,,,,,,,3.3,1.6,2.9*39
$GPRMC,212701.000,A,3748.7964,N,12217.8580,W,0.08,156.94,210711,,,A*7E
$GPVTG,156.94,T,,M,0.08,N,0.2,K,A*08
$GPGGA,212702.000,3748.7963,N,12217.8578,W,1,06,1.6,12.7,M,-25.1,M,,0000*52
$GPGSA,A,3,07,28,26,08,17,11,,,,,,,3.3,1.6,2.9*39
$GPRMC,212702.000,A,3748.7963,N,12217.8578,W,0.06,159.94,210711,,,A*7C
$GPVTG,159.94,T,,M,0.06,N,0.1,K,A*0A
$GPGGA,212703.000,3748.7963,N,12217.8576,W,1,06,1.6,11.9,M,-25.1,M,,0000*50
$GPGSA,A,3,07,28,26,08,17,11,,,,,,,3.3,1.6,2.9*39
$GPRMC,212703.000,A,3748.7963,N,12217.8576,W,0.26,30.18,210711,,,A*4B
$GPVTG,30.18,T,,M,0.26,N,0.5,K,A*36
$GPGGA,212704.000,3748.7963,N,12217.8574,W,1,06,1.6,11.2,M,-25.1,M,,0000*5E
$GPGSA,A,3,07,28,26,08,17,11,,,,,,,3.3,1.6,2.9*39
$GPRMC,212704.000,A,3748.7963,N,12217.8574,W,0.05,19.65,210711,,,A*4E
$GPVTG,19.65,T,,M,0.05,N,0.1,K,A*32
$GPGGA,212705.000,3748.7963,N,12217.8571,W,1,06,1.6,11.0,M,-25.1,M,,0000*58
$GPGSA,A,3,07,28,26,08,17,11,,,,,,,3.3,1.6,2.9*39
$GPGSV,3,1,10,28,67,008,27,26,54,270,27,17,53,187,36,08,52,099,27*78
$GPGSV,3,2,10,01,52,283,,07,27,116,38,15,26,308,25,11,20,064,25*72
$GPGSV,3,3,10,24,16,080,20,27,09,309,19*7D
$GPRMC,212705.000,A,3748.7963,N,12217.8571,W,0.14,40.51,210711,,,A*41
$GPVTG,40.51,T,,M,0.14,N,0.3,K,A*3B
$GPGGA,212706.000,3748.7962,N,12217.8568,W,1,06,1.6,11.1,M,-25.1,M,,0000*53
$GPGSA,A,3,07,28,26,08,17,11,,,,,,,3.3,1.6,2.9*39
$GPRMC,212706.000,A,3748.7962,N,12217.8568,W,0.08,67.72,210711,,,A*42
$GPVTG,67.72,T,,M,0.08,N,0.1,K,A*30
$GPGGA,212707.000,3748.7962,N,12217.8563,W,1,06,1.6,11.4,M,-25.1,M,,0000*5C
$GPGSA,A,3,07,28,26,08,17,11,,,,,,,3.3,1.6,2.9*39
$GPRMC,212707.000,A,3748.7962,N,12217.8563,W,0.08,76.01,210711,,,A*4C
$GPVTG,76.01,T,,M,0.08,N,0.2,K,A*37
$GPGGA,212708.000,3748.7962,N,12217.8559,W,1,06,1.6,11.8,M,-25.1,M,,0000*56
$GPGSA,A,3,07,28,26,08,17,11,,,,,,,3.3,1.6,2.9*39
$GPRMC,212708.000,A,3748.7962,N,12217.8559,W,0.08,89.73,210711,,,A*4F
$GPVTG,89.73,T,,M,0.08,N,0.2,K,A*32
$GPGGA,212709.000,3748.7968,N,12217.8560,W,1,06,1.6,8.5,M,-25.1,M,,0000*62
$GPGSA,A,3,07,28,26,08,17,11,,,,,,,3.3,1.6,2.9*39
$GPRMC,212709.000,A,3748.7968,N,12217.8560,W,0.17,8.44,210711,,,A*7D
$GPVTG,8.44,T,,M,0.17,N,0.3,K,A*00
$GPGGA,212710.000,3748.7967,N,12217.8559,W,1,05,2.5,9.0,M,-25.1,M,,0000*68
$GPGSA,A,3,07,28,08,17,11,,,,,,,,4.4,2.5,3.7*32
$GPGSV,3,1,11,28,67,008,27,26,54,270,18,17,53,187,37,08,52,099,27*74
$GPGSV,3,2,11,01,52,283,,07,27,116,38,15,26,308,25,11,20,064,27*71
$GPGSV,3,3,11,24,16,080,27,27,09,309,17,51,43,156,39*4E
$GPRMC,212710.000,A,3748.7967,N,12217.8559,W,0.10,316.08,210711,,,A*73
$GPVTG,316.08,T,,M,0.10,N,0.2,K,A*02
$GPGGA,212711.000,3748.7967,N,12217.8558,W,1,06,1.6,8.9,M,-25.1,M,,0000*63
$GPGSA,A,3,07,28,26,08,17,11,,,,,,,3.3,1.6,2.9*39
$GPRMC,212711.000,A,3748.7967,N,12217.8558,W,0.10,342.43,210711,,,A*7D
$GPVTG,342.43,T,,M,0.10,N,0.2,K,A*0C
$GPGGA,212712.000,3748.7966,N,12217.8559,W,1,06,1.6,8.6,M,-25.1,M,,0000*6F
$GPGSA,A,3,07,28,26,08,17,11,,,,,,,3.3,1.6,2.9*39
$GPRMC,212712.000,A,3748.7966,N,12217.8559,W,0.14,263.47,210711,,,A*7C
$GPVTG,263.47,T,,M,0.14,N,0.3,K,A*0F
$GPGGA,212713.000,3748.7966,N,12217.8560,W,1,06,1.6,8.0,M,-25.1,M,,0000*62
$GPGSA,A,3,07,28,26,08,17,11,,,,,,,3.3,1.6,2.9*39
$GPRMC,212713.000,A,3748.7966,N,12217.8560,W,0.08,289.82,210711,,,A*77
$GPVTG,289.82,T,,M,0.08,N,0.1,K,A*0D
$GPGGA,212714.000,3748.7966,N,12217.8561,W,1,06,1.6,7.3,M,-25.1,M,,0000*68
$GPGSA,A,3,07,28,26,08,17,11,,,,,,,3.3,1.6,2.9*39
$GPRMC,212714.000,A,3748.7966,N,12217.8561,W,0.09,332.92,210711,,,A*70
$GPVTG,332.92,T,,M,0.09,N,0.2,K,A*0F
$GPGGA,212715.000,3748.7967,N,12217.8569,W,1,06,1.6,4.9,M,-25.1,M,,0000*69
$GPGSA,A,3,07,28,26,08,17,11,,,,,,,3.3,1.6,2.9*39
$GPGSV,3,1,11,28,67,008,27,26,54,270,20,17,53,187,37,08,52,099,24*7C
$GPGSV,3,2,11,01,52,283,,07,27,116,36,15,26,308,30,11,20,064,19*76
$GPGSV,3,3,11,24,16,080,20,27,09,309,28,51,43,156,37*4B
$GPRMC,212715.000,A,3748.7967,N,12217.8569,W,0.14,235.04,210711,,,A*7D
$GPVTG,235.04,T,,M,0.14,N,0.3,K,A*0B
$GPGGA,212716.000,3748.7969,N,12217.8564,W,1,06,1.6,3.7,M,-25.1,M,,0000*60
$GPGSA,A,3,07,28,26,08,17,11,,,,,,,3.3,1.6,2.9*39
$GPRMC,212716.000,A,3748.7969,N,12217.8564,W,0.19,134.11,210711,,,A*76
$GPVTG,134.11,T,,M,0.19,N,0.3,K,A*00
$GPGGA,212717.000,3748.7973,N,12217.8572,W,1,05,2.5,-1.2,M,-25.1,M,,0000*44
$GPGSA,A,3,07,28,08,17,11,,,,,,,,4.4,2.5,3.7*32
$GPRMC,212717.000,A,3748.7973,N,12217.8572,W,0.20,98.72,210711,,,A*43
$GPVTG,98.72,T,,M,0.20,N,0.4,K,A*3F
$GPGGA,212718.000,3748.7976,N,12217.8576,W,1,06,1.6,-4.1,M,-25.1,M,,0000*4F
$GPGSA,A,3,07,28,26,08,17,11,,,,,,,3.3,1.6,2.9*39
$GPRMC,212718.000,A,3748.7976,N,12217.8576,W,0.08,270.14,210711,,,A*73
$GPVTG,270.14,T,,M,0.08,N,0.1,K,A*04
$GPGGA,212719.000,3748.7976,N,12217.8581,W,1,06,1.6,-6.8,M,-25.1,M,,0000*4D
$GPGSA,A,3,07,28,26,08,17,11,,,,,,,3.3,1.6,2.9*39
$GPRMC,212719.000,A,3748.7976,N,12217.8581,W,0.28,255.57,210711,,,A*78
$GPVTG,255.57,T,,M,0.28,N,0.5,K,A*02
$GPGGA,212720.000,3748.7979,N,12217.8594,W,2,06,1.6,-9.8,M,-25.1,M,,0000*40
$GPGSA,A,3,07,28,26,08,17,11,,,,,,,3.3,1.6,2.9*39
$GPGSV,3,1,11,28,67,008,26,26,54,270,25,17,53,187,37,08,52,099,30*7D
$GPGSV,3,2,11,01,52,283,,07,26,116,36,15,26,308,23,11,20,064,25*7A
$GPGSV,3,3,11,24,16,080,27,27,10,309,22,51,43,156,38*41
$GPRMC,212720.000,A,3748.7979,N,12217.8594,W,0.50,277.06,210711,,,D*77
$GPGGA,212721.000,3748.7979,N,12217.8596,W,2,06,1.6,-10.7,M,-25.1,M,,0000*74
$GPGSA,A,3,07,28,26,08,17,11,,,,,,,3.3,1.6,2.9*39
$GPRMC,212721.000,A,3748.7979,N,12217.8596,W,0.22,269.85,210711,,,D*75
$GPVTG,269.85,T,,M,0.22,N,0.4,K,D*0C
$GPGGA,212722.000,3748.7981,N,12217.8603,W,2,06,1.6,-12.7,M,-25.1,M,,0000*7D
$GPGSA,A,3,07,28,26,08,17,11,,,,,,,3.3,1.6,2.9*39
$GPRMC,212722.000,A,3748.7981,N,12217.8603,W,0.52,253.57,210711,,,D*7F
$GPVTG,253.57,T,,M,0.52,N,1.0,K,D*08
$GPGGA,212723.000,3748.7982,N,12217.8601,W,2,06,1.6,-12.1,M,-25.1,M,,0000*7B
$GPGSA,A,3,07,28,26,08,17,11,,,,,,,3.3,1.6,2.9*39
$GPRMC,212723.000,A,3748.7982,N,12217.8601,W,0.37,308.67,210711,,,D*70
$GPVTG,308.67,T,,M,0.37,N,0.7,K,D*01
$GPGGA,212724.000,3748.7982,N,12217.8599,W,2,06,1.6,-11.7,M,-25.1,M,,0000*7B
$GPGSA,A,3,07,28,26,08,17,11,,,,,,,3.3,1.6,2.9*39
$GPRMC,212724.000,A,3748.7982,N,12217.8599,W,0.67,288.51,210711,,,D*7C
$GPVTG,288.51,T,,M,0.67,N,1.2,K,D*0C
$GPGGA,212725.000,3748.7979,N,12217.8595,W,2,06,1.6,-11.3,M,-25.1,M,,0000*76
$GPGSA,A,3,07,28,26,08,17,11,,,,,,,3.3,1.6,2.9*39
$GPGSV,3,1,11,28,67,008,26,26,54,270,21,17,53,187,32,08,52,099,31*7D
$GPGSV,3,2,11,01,52,283,,07,26,116,36,15,26,308,08,11,20,064,33*74
$GPGSV,3,3,11,24,16,080,30,27,10,309,08,51,43,156,36*41
$GPRMC,212725.000,A,3748.7979,N,12217.8595,W,0.63,269.15,210711,,,D*7E
$GPVTG,269.15,T,,M,0.63,N,1.2,K,D*07
$GPGGA,212726.000,3748.7977,N,12217.8600,W,2,06,1.6,-13.3,M,-25.1,M,,0000*76
$GPGSA,A,3,07,28,26,08,17,11,,,,,,,3.3,1.6,2.9*39
$GPRMC,212726.000,A,3748.7977,N,12217.8600,W,0.92,272.12,210711,,,D*7F
$GPVTG,272.12,T,,M,0.92,N,1.7,K,D*01
$GPGGA,212727.000,3748.7974,N,12217.8601,W,2,06,1.6,-14.2,M,-25.1,M,,0000*73
$GPGSA,A,3,07,28,26,08,17,11,,,,,,,3.3,1.6,2.9*39
$GPRMC,212727.000,A,3748.7974,N,12217.8601,W,0.37,263.34,210711,,,D*77
$GPVTG,263.34,T,,M,0.37,N,0.7,K,D*0B
$GPGGA,212728.000,3748.7977,N,12217.8600,W,2,06,1.6,-13.7,M,-25.1,M,,0000*7C
$GPGSA,A,3,07,28,26,08,17,11,,,,,,,3.3,1.6,2.9*39
$GPRMC,212728.000,A,3748.7977,N,12217.8600,W,0.47,280.80,210711,,,D*7F
$GPVTG,280.80,T,,M,0.47,N,0.9,K,D*00
$GPGGA,212729.000,3748.7979,N,12217.8600,W,2,06,1.6,-13.0,M,-25.1,M,2.8,0000*50
$GPGSA,A,3,07,28,26,08,17,11,,,,,,,3.3,1.6,2.9*39
$GPRMC,212729.000,A,3748.7979,N,12217.8600,W,0.67,287.37,210711,,,D*79
$GPVTG,287.37,T,,M,0.67,N,1.2,K,D*03
$GPGGA,212730.000,3748.7984,N,12217.8604,W,2,06,1.6,-12.8,M,-25.1,M,3.8,0000*56
$GPGSA,A,3,07,28,26,08,17,11,,,,,,,3.3,1.6,2.9*39
$GPGSV,3,1,11,28,67,008,25,26,54,270,24,17,53,187,35,08,52,099,33*7E
$GPGSV,3,2,11,01,52,283,,07,26,116,36,15,26,308,21,11,20,064,33*7F
$GPGSV,3,3,11,24,16,080,29,27,10,309,11,51,43,156,39*4E
$GPRMC,212730.000,A,3748.7984,N,12217.8604,W,0.56,295.73,210711,,,D*76
$GPVTG,295.73,T,,M,0.56,N,1.0,K,D*00
$GPGGA,212731.000,3748.7987,N,12217.8608,W,2,06,1.6,-13.3,M,-25.1,M,,0000*77
$GPGSA,A,3,07,28,26,08,17,11,,,,,,,3.3,1.6,2.9*39
$GPRMC,212731.000,A,3748.7987,N,12217.8608,W,0.31,312.02,210711,,,D*71
$GPVTG,312.02,T,,M,0.31,N,0.6,K,D*0E
$GPGGA,212732.000,3748.7990,N,12217.8607,W,2,06,1.6,-12.6,M,-25.1,M,,0000*79
$GPGSA,A,3,07,28,26,08,17,11,,,,,,,3.3,1.6,2.9*39
$GPRMC,212732.000,A,3748.7990,N,12217.8607,W,0.33,286.49,210711,,,D*7A
$GPVTG,286.49,T,,M,0.33,N,0.6,K,D*0F
$GPGGA,212733.000,3748.7992,N,12217.8614,W,2,05,1.9,-13.6,M,-25.1,M,,0000*75
$GPGSA,A,3,07,26,08,17,11,,,,,,,,4.2,1.9,3.7*35
$GPRMC,212733.000,A,3748.7992,N,12217.8614,W,0.78,294.63,210711,,,D*7F
$GPVTG,294.63,T,,M,0.78,N,1.4,K,D*08
$GPGGA,212734.000,3748.7990,N,12217.8616,W,2,05,2.5,-13.7,M,-25.1,M,,0000*7C
$GPGSA,A,3,07,28,08,17,11,,,,,,,,4.4,2.5,3.7*32
$GPRMC,212734.000,A,3748.7990,N,12217.8616,W,0.10,332.52,210711,,,D*79
$GPVTG,332.52,T,,M,0.10,N,0.2,K,D*0E
$GPGGA,212735.000,3748.7990,N,12217.8615,W,2,05,2.5,-12.6,M,-25.1,M,2.8,0000*5A
$GPGSA,A,3,07,28,08,17,11,,,,,,,,4.4,2.5,3.7*32
$GPGSV,3,1,11,28,67,008,24,26,54,270,11,17,53,187,37,08,52,099,28*71
$GPGSV,3,2,11,01,52,283,,07,26,116,36,15,26,308,28,11,20,064,17*70
$GPGSV,3,3,11,24,16,080,20,27,10,309,29,51,43,156,40*42
$GPRMC,212735.000,A,3748.7990,N,12217.8615,W,0.25,291.69,210711,,,D*7D
$GPGGA,212736.000,3748.7992,N,12217.8614,W,2,05,2.5,-13.1,M,-25.1,M,3.8,0000*5D
$GPGSA,A,3,07,28,08,17,11,,,,,,,,4.4,2.5,3.7*32
$GPRMC,212736.000,A,3748.7992,N,12217.8614,W,0.41,342.99,210711,,,D*7F
$GPVTG,342.99,T,,M,0.41,N,0.8,K,D*00
$GPGGA,212737.000,3748.7988,N,12217.8606,W,2,06,1.6,-12.0,M,-25.1,M,,0000*72
$GPGSA,A,3,07,28,26,08,17,11,,,,,,,3.3,1.6,2.9*39
$GPRMC,212737.000,A,3748.7988,N,12217.8606,W,0.08,329.30,210711,,,D*75
$GPVTG,329.30,T,,M,0.08,N,0.2,K,D*09
$GPGGA,212738.000,3748.7990,N,12217.8604,W,2,05,2.5,-11.5,M,-25.1,M,,0000*73
$GPGSA,A,3,07,28,08,17,11,,,,,,,,4.4,2.5,3.7*32
$GPRMC,212738.000,A,3748.7990,N,12217.8604,W,0.50,322.22,210711,,,D*74
$GPVTG,322.22,T,,M,0.50,N,0.9,K,D*07
$GPGGA,212739.000,3748.7991,N,12217.8603,W,2,05,2.5,-11.6,M,-25.1,M,,0000*77
$GPGSA,A,3,07,28,08,17,11,,,,,,,,4.4,2.5,3.7*32
$GPRMC,212739.000,A,3748.7991,N,12217.8603,W,0.49,296.67,210711,,,D*74
$GPVTG,296.67,T,,M,0.49,N,0.9,K,D*00
$GPGGA,212740.000,3748.7990,N,12217.8601,W,2,05,2.5,-11.9,M,-25.1,M,,0000*75
$GPGSA,A,3,07,28,08,17,11,,,,,,,,4.4,2.5,3.7*32
$GPGSV,3,1,11,28,67,008,25,26,54,270,14,17,53,187,38,08,52,099,32*71
$GPGSV,3,2,11,01,52,283,,07,26,116,38,15,26,308,27,11,20,064,18*7E
$GPGSV,3,3,11,24,16,080,20,27,10,309,29,51,43,156,39*4C
$GPRMC,212740.000,A,3748.7990,N,12217.8601,W,0.36,296.44,210711,,,D*70
$GPVTG,296.44,T,,M,0.36,N,0.7,K,D*07
$GPGGA,212741.000,3748.7985,N,12217.8593,W,2,06,1.6,-10.4,M,-25.1,M,2.8,0000*53
$GPGSA,A,3,07,28,26,08,17,11,,,,,,,3.3,1.6,2.9*39
$GPRMC,212741.000,A,3748.7985,N,12217.8593,W,0.29,174.02,210711,,,D*7E
$GPVTG,174.02,T,,M,0.29,N,0.5,K,D*06
$GPGGA,212742.000,3748.7983,N,12217.8583,W,2,06,1.6,-8.7,M,-25.1,M,,0000*49
$GPGSA,A,3,07,28,26,08,17,11,,,,,,,3.3,1.6,2.9*39
$GPRMC,212742.000,A,3748.7983,N,12217.8583,W,0.35,75.50,210711,,,D*40
$GPVTG,75.50,T,,M,0.35,N,0.7,K,D*3E
$GPGGA,212743.000,3748.7981,N,12217.8579,W,2,06,1.6,-7.6,M,-25.1,M,2.8,0000*65
$GPGSA,A,3,07,28,26,08,17,11,,,,,,,3.3,1.6,2.9*39
$GPRMC,212743.000,A,3748.7981,N,12217.8579,W,0.24,51.20,210711,,,D*47
$GPVTG,51.20,T,,M,0.24,N,0.4,K,D*3C
$GPGGA,212744.000,3748.7979,N,12217.8576,W,2,06,1.6,-5.9,M,-25.1,M,3.8,0000*66
$GPGSA,A,3,07,28,26,08,17,11,,,,,,,3.3,1.6,2.9*39
$GPRMC,212744.000,A,3748.7979,N,12217.8576,W,0.40,16.50,210711,,,D*4E
$GPVTG,16.50,T,,M,0.40,N,0.7,K,D*39
$GPGGA,212745.000,3748.7974,N,12217.8572,W,2,05,1.9,-3.6,M,-25.1,M,,0000*4E
$GPGSA,A,3,07,26,08,17,11,,,,,,,,4.2,1.9,3.7*35
$GPGSV,3,1,11,28,67,008,20,26,54,270,20,17,53,187,36,08,52,099,31*7E
$GPGSV,3,2,11,01,52,283,,07,26,116,35,15,26,308,23,11,20,064,21*7D
$GPGSV,3,3,11,24,16,080,20,27,10,309,23,51,43,156,40*48
$GPRMC,212745.000,A,3748.7974,N,12217.8572,W,0.22,98.94,210711,,,D*4C
$GPVTG,98.94,T,,M,0.22,N,0.4,K,D*30
$GPGGA,212746.000,3748.7971,N,12217.8569,W,2,06,1.6,-1.8,M,-25.1,M,,0000*42
$GPGSA,A,3,07,28,26,08,17,11,,,,,,,3.3,1.6,2.9*39
$GPRMC,212746.000,A,3748.7971,N,12217.8569,W,0.30,104.05,210711,,,D*7F
$GPVTG,104.05,T,,M,0.30,N,0.6,K,D*0D
$GPGGA,212747.000,3748.7974,N,12217.8570,W,2,06,1.6,-1.1,M,-25.1,M,2.8,0000*63
$GPGSA,A,3,07,28,26,08,17,11,,,,,,,3.3,1.6,2.9*39
$GPRMC,212747.000,A,3748.7974,N,12217.8570,W,0.39,55.87,210711,,,D*45
$GPVTG,55.87,T,,M,0.39,N,0.7,K,D*3A
$GPGGA,212748.000,3748.7974,N,12217.8568,W,2,06,1.6,0.7,M,-25.1,M,,0000*6B
$GPGSA,A,3,07,28,26,08,17,11,,,,,,,3.3,1.6,2.9*39
$GPRMC,212748.000,A,3748.7974,N,12217.8568,W,0.52,98.49,210711,,,D*4D
$GPVTG,98.49,T,,M,0.52,N,1.0,K,D*32
$GPGGA,212749.000,3748.7973,N,12217.8565,W,2,06,1.6,2.5,M,-25.1,M,2.8,0000*44
$GPGSA,A,3,07,28,26,08,17,11,,,,,,,3.3,1.6,2.9*39
$GPRMC,212749.000,A,3748.7973,N,12217.8565,W,0.83,104.02,210711,,,D*71
$GPVTG,104.02,T,,M,0.83,N,1.5,K,D*00
$GPGGA,212750.000,3748.7976,N,12217.8566,W,2,05,2.5,3.9,M,-25.1,M,,0000*60
$GPGSA,A,3,07,28,08,17,11,,,,,,,,4.4,2.5,3.7*32
$GPGSV,3,1,11,28,67,008,26,26,54,270,15,17,53,187,37,08,52,099,29*76
$GPGSV,3,2,11,01,52,283,,07,26,116,37,15,26,308,23,11,20,064,32*7D
$GPGSV,3,3,11,24,16,080,28,27,10,309,15,51,43,156,40*45
$GPVTG,87.71,T,,M,0.65,N,1.2,K,D*31
$GPGGA,212751.000,3748.7979,N,12217.8567,W,2,05,2.5,4.6,M,-25.1,M,,0000*67
$GPGSA,A,3,07,28,08,17,11,,,,,,,,4.4,2.5,3.7*32
$GPRMC,212751.000,A,3748.7979,N,12217.8567,W,0.57,81.43,210711,,,D*40
$GPVTG,81.43,T,,M,0.57,N,1.0,K,D*35
$GPGGA,212752.000,3748.7981,N,12217.8567,W,2,06,1.6,5.7,M,-25.1,M,,0000*60
$GPGSA,A,3,07,28,26,08,17,11,,,,,,,3.3,1.6,2.9*39
$GPRMC,212752.000,A,3748.7981,N,12217.8567,W,0.48,54.64,210711,,,D*47
$GPVTG,54.64,T,,M,0.48,N,0.9,K,D*3E
$GPGGA,212753.000,3748.7985,N,12217.8572,W,2,06,1.6,5.8,M,-25.1,M,,0000*6E
$GPGSA,A,3,07,28,26,08,17,11,,,,,,,3.3,1.6,2.9*39
$GPRMC,212753.000,A,3748.7985,N,12217.8572,W,0.43,347.16,210711,,,D*79
$GPVTG,347.16,T,,M,0.43,N,0.8,K,D*00
$GPGGA,212754.000,3748.7988,N,12217.8575,W,2,05,2.5,5.9,M,-25.1,M,2.8,0000*45
$GPGSA,A,3,07,28,08,17,11,,,,,,,,4.4,2.5,3.7*32
$GPRMC,212754.000,A,3748.7988,N,12217.8575,W,0.39,359.21,210711,,,D*72
$GPVTG,359.21,T,,M,0.39,N,0.7,K,D*09
$GPGGA,212755.000,3748.7988,N,12217.8576,W,2,05,2.5,5.3,M,-25.1,M,3.8,0000*4C
$GPGSA,A,3,07,28,08,17,11,,,,,,,,4.4,2.5,3.7*32
$GPGSV,3,1,11,28,67,008,25,26,54,270,16,17,53,187,37,08,52,099,37*79
$GPGSV,3,2,11,01,52,283,,07,26,116,37,15,26,308,16,11,20,064,29*71
$GPGSV,3,3,11,24,16,080,25,27,10,309,14,51,43,156,41*48
$GPRMC,212755.000,A,3748.7988,N,12217.8576,W,0.39,85.38,210711,,,D*4A
$GPVTG,85.38,T,,M,0.39,N,0.7,K,D*33
$GPGGA,212756.000,3748.7987,N,12217.8577,W,2,05,2.5,4.7,M,-25.1,M,,0000*61
$GPGSA,A,3,07,28,08,17,11,,,,,,,,4.4,2.5,3.7*32
$GPRMC,212756.000,A,3748.7987,N,12217.8577,W,0.45,100.18,210711,,,D*72
$GPVTG,100.18,T,,M,0.45,N,0.8,K,D*09
$GPGGA,212757.000,3748.7985,N,12217.8578,W,2,05,2.5,4.1,M,-25.1,M,,0000*6B
$GPGSA,A,3,07,28,08,17,11,,,,,,,,4.4,2.5,3.7*32
$GPRMC,212757.000,A,3748.7985,N,12217.8578,W,0.42,117.25,210711,,,D*71
$GPVTG,117.25,T,,M,0.42,N,0.8,K,D*06
$GPGGA,212758.000,3748.7984,N,12217.8579,W,2,05,2.5,3.5,M,-25.1,M,,0000*67
$GPGSA,A,3,07,28,08,17,11,,,,,,,,4.4,2.5,3.7*32
$GPRMC,212758.000,A,3748.7984,N,12217.8579,W,0.27,103.65,210711,,,D*7C
$GPVTG,103.65,T,,M,0.27,N,0.5,K,D*09
$GPGGA,212759.000,3748.7982,N,12217.8580,W,2,05,2.5,3.1,M,-25.1,M,2.8,0000*46
$GPGSA,A,3,07,28,08,17,11,,,,,,,,4.4,2.5,3.7*32
$GPRMC,212759.000,A,3748.7982,N,12217.8580,W,0.13,104.27,210711,,,D*7B
$GPVTG,104.27,T,,M,0.13,N,0.2,K,D*08
$GPGGA,212800.000,3748.7980,N,12217.8580,W,2,05,2.5,2.8,M,-25.1,M,3.8,0000*4E
$GPGSA,A,3,07,28,08,17,11,,,,,,,,4.4,2.5,3.7*32
$GPGSV,3,1,11,28,67,008,26,26,54,270,,17,53,187,37,08,52,099,35*7F
$GPGSV,3,2,11,01,52,283,,07,26,116,37,15,26,308,19,11,20,064,31*77
$GPGSV,3,3,11,24,16,080,26,27,10,309,23,51,43,156,39*40
$GPRMC,212800.000,A,3748.7980,N,12217.8580,W,0.20,113.47,210711,,,D*7A
$GPVTG,113.47,T,,M,0.20,N,0.4,K,D*0E
$GPGGA,212801.000,3748.7978,N,12217.8580,W,2,05,2.5,2.5,M,-25.1,M,4.8,0000*42
$GPGSA,A,3,07,28,08,17,11,,,,,,,,4.4,2.5,3.7*32
$GPRMC,212801.000,A,3748.7978,N,12217.8580,W,0.13,101.20,210711,,,D*7E
$GPVTG,101.20,T,,M,0.13,N,0.2,K,D*0A
$GPGGA,212802.000,3748.7977,N,12217.8580,W,2,05,2.5,2.4,M,-25.1,M,,0000*6D
$GPGSA,A,3,07,28,08,17,11,,,,,,,,4.4,2.5,3.7*32
$GPRMC,212802.000,A,3748.7977,N,12217.8580,W,0.15,119.51,210711,,,D*7B
$GPVTG,119.51,T,,M,0.15,N,0.3,K,D*02
$GPGGA,212803.000,3748.7975,N,12217.8579,W,2,05,2.5,2.5,M,-25.1,M,,0000*69
$GPGSA,A,3,07,28,08,17,11,,,,,,,,4.4,2.5,3.7*32
$GPRMC,212803.000,A,3748.7975,N,12217.8579,W,0.16,108.08,210711,,,D*71
$GPVTG,108.08,T,,M,0.16,N,0.3,K,D*0D
$GPGGA,212804.000,3748.7973,N,12217.8578,W,2,05,2.5,2.5,M,-25.1,M,,0000*69
$GPGSA,A,3,07,28,08,17,11,,,,,,,,4.4,2.5,3.7*32
$GPRMC,212804.000,A,3748.7973,N,12217.8578,W,0.21,99.45,210711,,,D*45
$GPVTG,99.45,T,,M,0.21,N,0.4,K,D*3E
$GPGGA,212805.000,3748.7971,N,12217.8576,W,2,05,2.5,2.5,M,-25.1,M,2.8,0000*40
$GPGSA,A,3,07,28,08,17,11,,,,,,,,4.4,2.5,3.7*32
$GPGSV,3,1,11,28,67,008,26,26,54,270,,17,53,187,37,08,52,099,34*7E
$GPGSV,3,2,11,01,52,283,,07,26,116,37,15,26,308,19,11,20,064,32*74
$GPGSV,3,3,11,24,16,080,27,27,10,309,22,51,43,156,39*40
$GPRMC,212805.000,A,3748.7971,N,12217.8576,W,0.27,106.95,210711,,,D*74
$GPGGA,212806.000,3748.7968,N,12217.8575,W,2,05,2.5,2.5,M,-25.1,M,3.8,0000*49
$GPGSA,A,3,07,28,08,17,11,,,,,,,,4.4,2.5,3.7*32
$GPRMC,212806.000,A,3748.7968,N,12217.8575,W,0.19,106.87,210711,,,D*72
$GPVTG,106.87,T,,M,0.19,N,0.3,K,D*0B
$GPGGA,212807.000,3748.7966,N,12217.8573,W,2,05,2.5,2.5,M,-25.1,M,4.8,0000*47
$GPGSA,A,3,07,28,08,17,11,,,,,,,,4.4,2.5,3.7*32
$GPRMC,212807.000,A,3748.7966,N,12217.8573,W,0.27,104.14,210711,,,D*7E
$GPVTG,104.14,T,,M,0.27,N,0.5,K,D*08
$GPGGA,212808.000,3748.7964,N,12217.8572,W,2,05,2.5,2.4,M,-25.1,M,,0000*68
$GPGSA,A,3,07,28,08,17,11,,,,,,,,4.4,2.5,3.7*32
$GPRMC,212808.000,A,3748.7964,N,12217.8572,W,0.23,93.78,210711,,,D*43
$GPVTG,93.78,T,,M,0.23,N,0.4,K,D*38
$GPGGA,212809.000,3748.7963,N,12217.8576,W,2,06,1.6,1.3,M,-25.1,M,,0000*6D
$GPGSA,A,3,07,28,26,08,17,11,,,,,,,3.3,1.6,2.9*39
$GPRMC,212809.000,A,3748.7963,N,12217.8576,W,0.39,130.83,210711,,,D*76
$GPVTG,130.83,T,,M,0.39,N,0.7,K,D*0C
$GPGGA,212810.000,3748.7961,N,12217.8574,W,2,06,1.6,1.3,M,-25.1,M,,0000*65
$GPGSA,A,3,07,28,26,08,17,11,,,,,,,3.3,1.6,2.9*39
$GPGSV,3,1,11,28,67,008,26,26,54,270,18,17,53,187,37,08,52,099,34*77
$GPGSV,3,2,11,01,52,283,,07,26,116,37,15,26,308,20,11,20,064,32*7E
$GPGSV,3,3,11,24,16,080,27,27,10,309,19,51,43,156,39*48
$GPRMC,212810.000,A,3748.7961,N,12217.8574,W,0.46,130.81,210711,,,D*74
$GPVTG,130.81,T,,M,0.46,N,0.8,K,D*09
$GPGGA,212811.000,3748.7965,N,12217.8580,W,2,06,1.6,1.1,M,-25.1,M,,0000*69
$GPGSA,A,3,07,28,26,08,17,11,,,,,,,3.3,1.6,2.9*39
$GPRMC,212811.000,A,3748.7965,N,12217.8580,W,0.17,98.61,210711,,,D*43
$GPVTG,98.61,T,,M,0.17,N,0.3,K,D*3B
$GPGGA,212812.000,3748.7966,N,12217.8580,W,2,06,1.6,0.3,M,-25.1,M,1.8,0000*4D
$GPGSA,A,3,07,28,26,08,17,11,,,,,,,3.3,1.6,2.9*39
$GPRMC,212812.000,A,3748.7966,N,12217.8580,W,0.58,116.01,210711,,,D*79
$GPVTG,116.01,T,,M,0.58,N,1.1,K,D*02
$GPGGA,212813.000,3748.7965,N,12217.8580,W,2,06,1.6,-0.0,M,-25.1,M,2.8,0000*62
$GPGSA,A,3,07,28,26,08,17,11,,,,,,,3.3,1.6,2.9*39
$GPRMC,212813.000,A,3748.7965,N,12217.8580,W,1.57,112.91,210711,,,D*78
$GPVTG,112.91,T,,M,1.57,N,2.9,K,D*0A
$GPGGA,212814.000,3748.7963,N,12217.8577,W,2,06,1.6,-0.1,M,-25.1,M,1.8,0000*69
$GPGSA,A,3,07,28,26,08,17,11,,,,,,,3.3,1.6,2.9*39
$GPRMC,212814.000,A,3748.7963,N,12217.8577,W,1.70,116.11,210711,,,D*78
$GPVTG,116.11,T,,M,1.70,N,3.1,K,D*0A
$GPGGA,212815.000,3748.7959,N,12217.8568,W,2,06,1.6,0.8,M,-25.1,M,1.8,0000*4B
$GPGSA,A,3,07,28,26,08,17,11,,,,,,,3.3,1.6,2.9*39
$GPGSV,3,1,11,28,67,008,23,26,54,270,31,17,53,187,37,08,52,099,33*7E
$GPGSV,3,2,11,01,52,283,,07,26,116,31,15,26,308,28,11,20,064,25*76
$GPGSV,3,3,11,24,16,080,24,27,10,309,22,51,43,156,38*42
$GPRMC,212815.000,A,3748.7959,N,12217.8568,W,1.95,106.58,210711,,,D*79
$GPVTG,106.58,T,,M,1.95,N,3.6,K,D*0A
$GPGGA,212816.000,3748.7957,N,12217.8565,W,2,06,1.6,-0.4,M,-25.1,M,1.8,0000*6A
$GPGSA,A,3,07,28,26,08,17,11,,,,,,,3.3,1.6,2.9*39
$GPRMC,212816.000,A,3748.7957,N,12217.8565,W,1.97,115.95,210711,,,D*78
$GPVTG,115.95,T,,M,1.97,N,3.6,K,D*0B
$GPGGA,212817.000,3748.7956,N,12217.8561,W,2,06,1.6,-1.0,M,-25.1,M,2.8,0000*68
$GPGSA,A,3,07,28,26,08,17,11,,,,,,,3.3,1.6,2.9*39
$GPRMC,212817.000,A,3748.7956,N,12217.8561,W,1.92,120.60,210711,,,D*75
$GPVTG,120.60,T,,M,1.92,N,3.5,K,D*01
$GPGGA,212818.000,3748.7950,N,12217.8557,W,2,06,1.6,-2.1,M,-25.1,M,3.8,0000*67
$GPGSA,A,3,07,28,26,08,17,11,,,,,,,3.3,1.6,2.9*39
