$ADVER,3080,2.3
$GPRMC,201822.588,A,3748.8040,N,12217.8759,W,0.21,301.10,110711,,,A*75
$GPRMC,201823.588,A,3748.8040,N,12217.8759,W,0.30,285.79,110711,,,A*76
$GPRMC,201824.588,A,3748.7967,N,12217.8537,W,0.32,276.25,110711,,,A*7F
$GPRMC,201825.588,A,3748.8010,N,12217.8666,W,1.20,320.93,110711,,,A*72
$GPRMC,201826.588,A,3748.7992,N,12217.8615,W,0.72,293.76,110711,,,A*7D
$GPRMC,201827.000,A,3748.7992,N,12217.8615,W,0.18,265.49,110711,,,A*70
$GPRMC,201828.000,A,3748.7982,N,12217.8587,W,0.28,240.36,110711,,,A*7A
$GPRMC,201829.000,A,3748.7982,N,12217.8586,W,0.27,193.52,110711,,,A*7A
$GPRMC,201830.000,A,3748.7984,N,12217.8594,W,0.10,200.02,110711,,,A*7F
$GPRMC,201831.000,A,3748.7985,N,12217.8599,W,0.32,312.26,110711,,,A*76
$GPRMC,201832.000,A,3748.7986,N,12217.8600,W,0.17,280.04,110711,,,A*78
$GPRMC,201833.000,A,3748.7989,N,12217.8608,W,0.07,278.80,110711,,,A*74
$GPRMC,201834.000,A,3748.7990,N,12217.8603,W,0.11,108.36,110711,,,A*7E
$GPRMC,201835.000,A,3748.7992,N,12217.8603,W,0.21,319.91,110711,,,A*71
$GPRMC,201836.000,A,3748.7992,N,12217.8602,W,0.06,12.05,110711,,,A*43
$GPRMC,201837.000,A,3748.7992,N,12217.8600,W,0.37,127.19,110711,,,A*78
$GPRMC,201838.000,A,3748.7991,N,12217.8599,W,0.70,142.87,110711,,,A*70
$GPRMC,201839.000,A,3748.7989,N,12217.8587,W,0.88,125.65,110711,,,A*7D
$GPRMC,201839.000,A,3748.7988,N,12217.8587,W,1.03,116.06,110711,,,A*7B
$GPRMC,201840.000,A,3748.7994,N,12217.8592,W,0.35,337.05,110711,,,A*7A
$GPRMC,201841.000,A,3748.8001,N,12217.8600,W,0.87,355.75,110711,,,A*73
$GPRMC,201842.000,A,3748.8007,N,12217.8604,W,0.77,337.89,110711,,,A*7A
$GPRMC,201843.000,A,3748.8007,N,12217.8605,W,0.61,251.04,110711,,,A*79
$GPRMC,201844.000,A,3748.8011,N,12217.8617,W,0.53,238.85,110711,,,A*7D
$GPRMC,201845.000,A,3748.8004,N,12217.8624,W,0.51,154.65,110711,,,A*7D
$GPRMC,201846.000,A,3748.8004,N,12217.8615,W,0.06,141.30,110711,,,A*7A
$GPRMC,201847.000,A,3748.7997,N,12217.8618,W,0.24,136.46,110711,,,A*7B
$GPRMC,201848.000,A,3748.8002,N,12217.8615,W,0.30,110.93,110711,,,A*7A
$GPRMC,201849.000,A,3748.7996,N,12217.8612,W,0.45,49.56,110711,,,A*41
$GPRMC,201850.000,A,3748.7990,N,12217.8611,W,0.58,281.27,110711,,,A*70
$GPRMC,201851.000,A,3748.7986,N,12217.8609,W,0.41,138.47,110711,,,A*70
$GPRMC,201852.000,A,3748.7986,N,12217.8607,W,0.07,258.50,110711,,,A*7C
$GPRMC,201853.000,A,3748.7985,N,12217.8605,W,0.31,150.74,110711,,,A*74
$GPRMC,201854.000,A,3748.7984,N,12217.8604,W,0.44,273.41,110711,,,A*75
$GPRMC,201855.000,A,3748.7986,N,12217.8605,W,1.11,321.90,110711,,,A*7C
$GPRMC,201856.000,A,3748.7995,N,12217.8608,W,1.22,316.17,110711,,,A*7B
$GPRMC,201857.000,A,3748.8003,N,12217.8602,W,0.81,3.93,110711,,,A*7A
$GPRMC,201858.000,A,3748.8000,N,12217.8601,W,0.42,106.81,110711,,,A*7D
$GPRMC,201859.000,A,3748.7996,N,12217.8604,W,0.50,76.60,110711,,,A*4A
$GPRMC,201900.000,A,3748.7988,N,12217.8607,W,0.42,97.99,110711,,,A*41
$GPRMC,201901.000,A,3748.7984,N,12217.8609,W,0.27,216.00,110711,,,A*7A
$GPRMC,201902.000,A,3748.7981,N,12217.8601,W,0.17,157.28,110711,,,A*7B
$GPRMC,201903.000,A,3748.7983,N,12217.8600,W,0.71,314.52,110711,,,A*71
$GPRMC,201904.000,A,3748.7992,N,12217.8600,W,1.82,316.38,110711,,,A*75
$GPRMC,201905.000,A,3748.7993,N,12217.8609,W,1.21,277.77,110711,,,A*78
$GPRMC,201906.000,A,3748.7999,N,12217.8616,W,0.86,301.27,110711,,,A*76
$GPRMC,201907.000,A,3748.8003,N,12217.8615,W,0.42,39.14,110711,,,A*41
$GPRMC,201908.000,A,3748.8007,N,12217.8617,W,0.57,51.11,110711,,,A*47
$GPRMC,201909.000,A,3748.8014,N,12217.8620,W,0.31,28.41,110711,,,A*4B
$GPRMC,201910.000,A,3748.8018,N,12217.8619,W,0.32,359.78,110711,,,A*79
$GPRMC,201911.000,A,3748.8021,N,12217.8624,W,0.49,318.58,110711,,,A*77
$GPRMC,201912.000,A,3748.8015,N,12217.8616,W,0.28,346.65,110711,,,A*70
$GPRMC,201913.000,A,3748.8010,N,12217.8610,W,0.30,224.63,110711,,,A*78
$GPRMC,201914.000,A,3748.8006,N,12217.8605,W,0.28,188.66,110711,,,A*75
$GPRMC,201915.000,A,3748.8000,N,12217.8602,W,0.31,236.42,110711,,,A*7D
$GPRMC,201916.000,A,3748.7995,N,12217.8598,W,0.23,230.41,110711,,,A*72
$GPRMC,201917.000,A,3748.7995,N,12217.8611,W,1.41,278.96,110711,,,A*72
$GPRMC,201918.000,A,3748.7995,N,12217.8608,W,0.70,290.99,110711,,,A*7F
$GPRMC,201919.000,A,3748.7996,N,12217.8605,W,0.15,102.27,110711,,,A*7E
$GPRMC,201920.000,A,3748.7993,N,12217.8606,W,1.08,128.43,110711,,,A*75
$GPRMC,201921.000,A,3748.7994,N,12217.8605,W,0.23,63.85,110711,,,A*4C
$GPRMC,201922.000,A,3748.7999,N,12217.8608,W,0.74,359.33,110711,,,A*7A
$GPRMC,201923.000,A,3748.8002,N,12217.8604,W,0.45,93.77,110711,,,A*44
$GPRMC,201924.000,A,3748.8004,N,12217.8615,W,0.56,67.79,110711,,,A*42
$GPRMC,201925.000,A,3748.8001,N,12217.8613,W,0.35,37.00,110711,,,A*4E
$GPRMC,201926.000,A,3748.7995,N,12217.8603,W,0.88,139.86,110711,,,A*70
$GPRMC,201927.000,A,3748.7993,N,12217.8603,W,1.12,140.87,110711,,,A*7A
$GPRMC,201928.000,A,3748.7984,N,12217.8592,W,0.43,149.75,110711,,,A*79
$GPRMC,201929.000,A,3748.7986,N,12217.8594,W,0.33,318.69,110711,,,A*70
$GPRMC,201930.000,A,3748.7995,N,12217.8593,W,0.30,76.71,110711,,,A*4C
$GPRMC,201931.000,A,3748.7997,N,12217.8598,W,0.35,350.04,110711,,,A*74
$GPRMC,201932.000,A,3748.8002,N,12217.8602,W,0.47,97.19,110711,,,A*4C
$GPRMC,201933.000,A,3748.8001,N,12217.8616,W,0.69,271.43,110711,,,A*72
$GPRMC,201934.000,A,3748.8003,N,12217.8622,W,1.19,303.34,110711,,,A*72
$GPRMC,201935.000,A,3748.8004,N,12217.8631,W,1.27,290.88,110711,,,A*77
$GPRMC,201936.000,A,3748.8002,N,12217.8650,W,1.24,272.96,110711,,,A*75
$GPRMC,201937.000,A,3748.8002,N,12217.8651,W,0.84,283.15,110711,,,A*7B
$GPRMC,201938.000,A,3748.8006,N,12217.8649,W,1.13,356.13,110711,,,A*79
$GPRMC,201939.000,A,3748.8009,N,12217.8644,W,0.89,349.65,110711,,,A*77
$GPRMC,201940.000,A,3748.8013,N,12217.8642,W,0.88,22.45,110711,,,A*49
$GPRMC,201941.000,A,3748.8014,N,12217.8648,W,0.41,120.23,110711,,,A*73
$GPRMC,201942.000,A,3748.8015,N,12217.8653,W,0.65,2.80,110711,,,A*75
$GPRMC,201943.000,A,3748.8018,N,12217.8659,W,1.02,315.70,110711,,,A*79
$GPRMC,201944.000,A,3748.8019,N,12217.8667,W,0.83,283.92,110711,,,A*78
$GPRMC,201945.000,A,3748.8010,N,12217.8656,W,1.38,132.76,110711,,,A*70
$GPRMC,201946.000,A,3748.8004,N,12217.8653,W,0.80,154.43,110711,,,A*77
$GPRMC,201947.000,A,3748.7999,N,12217.8643,W,1.24,141.48,110711,,,A*75
$GPRMC,201948.000,A,3748.7997,N,12217.8636,W,0.86,144.71,110711,,,A*70
$GPRMC,201949.000,A,3748.7997,N,12217.8642,W,0.09,283.79,110711,,,A*75
$GPRMC,201950.000,A,3748.7994,N,12217.8640,W,0.93,115.26,110711,,,A*79
$GPRMC,201951.000,A,3748.7992,N,12217.8637,W,0.91,116.41,110711,,,A*7E
$GPRMC,201952.000,A,3748.7986,N,12217.8630,W,0.49,129.83,110711,,,A*78
$GPRMC,201953.000,A,3748.7989,N,12217.8632,W,0.40,324.25,110711,,,A*7E
$GPRMC,201954.000,A,3748.7996,N,12217.8636,W,0.62,318.59,110711,,,A*77
$GPRMC,201955.000,A,3748.7995,N,12217.8634,W,0.88,125.81,110711,,,A*7A
$GPRMC,201956.000,A,3748.7999,N,12217.8647,W,0.67,272.69,110711,,,A*77
$GPRMC,201957.000,A,3748.8005,N,12217.8662,W,1.96,286.57,110711,,,A*7B
$GPRMC,201958.000,A,3748.8008,N,12217.8664,W,0.94,291.80,110711,,,A*70
$GPRMC,201959.000,A,3748.8008,N,12217.8662,W,0.20,1.89,110711,,,A*7A
$GPRMC,202000.000,A,3748.8003,N,12217.8661,W,0.08,299.16,110711,,,A*7B
$GPRMC,202001.000,A,3748.8006,N,12217.8670,W,1.17,275.46,110711,,,A*77
$GPRMC,202002.000,A,3748.8002,N,12217.8668,W,1.12,253.43,110711,,,A*7D
$GPRMC,202003.000,A,3748.8006,N,12217.8667,W,0.42,290.59,110711,,,A*77
$GPRMC,202004.000,A,3748.8013,N,12217.8665,W,0.95,328.91,110711,,,A*7A
$GPRMC,202005.000,A,3748.8018,N,12217.8677,W,0.76,345.60,110711,,,A*7B
$GPRMC,202006.000,A,3748.8024,N,12217.8687,W,0.70,347.02,110711,,,A*78
$GPRMC,202007.000,A,3748.8023,N,12217.8681,W,0.55,77.18,110711,,,A*44
$GPRMC,202008.000,A,3748.8021,N,12217.8676,W,0.96,34.80,110711,,,A*48
$GPRMC,202009.000,A,3748.8015,N,12217.8665,W,0.35,121.82,110711,,,A*72
$GPRMC,202010.000,A,3748.8017,N,12217.8661,W,0.51,298.15,110711,,,A*71
$GPRMC,202011.000,A,3748.8012,N,12217.8659,W,1.00,223.30,110711,,,A*7C
$GPRMC,202012.000,A,3748.8005,N,12217.8659,W,1.77,224.38,110711,,,A*76
$GPRMC,202013.000,A,3748.8003,N,12217.8662,W,1.41,238.17,110711,,,A*7C
$GPRMC,202014.000,A,3748.7997,N,12217.8660,W,2.05,221.82,110711,,,A*75
$GPRMC,202015.000,A,3748.7989,N,12217.8657,W,2.03,200.78,110711,,,A*7F
$GPRMC,202016.000,A,3748.7982,N,12217.8655,W,2.14,191.54,110711,,,A*76
$GPRMC,202017.000,A,3748.7982,N,12217.8667,W,1.65,237.34,110711,,,A*7A
$GPRMC,202018.000,A,3748.7985,N,12217.8679,W,2.85,256.13,110711,,,A*72
$GPRMC,202019.000,A,3748.7979,N,12217.8684,W,2.20,255.35,110711,,,A*7A
$GPRMC,202020.000,A,3748.7976,N,12217.8680,W,1.57,212.22,110711,,,A*7D
$GPRMC,202021.000,A,3748.7974,N,12217.8673,W,1.35,184.20,110711,,,A*78
$GPRMC,202022.000,A,3748.7974,N,12217.8660,W,1.48,174.03,110711,,,A*7D
$GPRMC,202023.000,A,3748.7965,N,12217.8654,W,1.87,178.68,110711,,,A*79
$GPRMC,202024.000,A,3748.7961,N,12217.8650,W,1.75,190.52,110711,,,A*7C
$GPRMC,202025.000,A,3748.7955,N,12217.8644,W,1.64,187.84,110711,,,A*72
$GPRMC,202026.000,A,3748.7953,N,12217.8650,W,1.50,181.86,110711,,,A*71
$GPRMC,202027.000,A,3748.7948,N,12217.8655,W,1.62,187.69,110711,,,A*79
$GPRMC,202028.000,A,3748.7941,N,12217.8662,W,1.27,221.76,110711,,,A*7B
$GPRMC,202029.000,A,3748.7937,N,12217.8655,W,0.52,199.29,110711,,,A*76
$GPRMC,202030.000,A,3748.7934,N,12217.8662,W,1.31,201.34,110711,,,A*73
$GPRMC,202031.000,A,3748.7928,N,12217.8663,W,1.24,191.95,110711,,,A*7B
$GPRMC,202032.000,A,3748.7925,N,12217.8668,W,1.07,177.74,110711,,,A*78
$GPRMC,202033.000,A,3748.7919,N,12217.8667,W,1.00,194.25,110711,,,A*77
$GPRMC,202034.000,A,3748.7921,N,12217.8673,W,0.61,182.35,110711,,,A*7E
$GPRMC,202035.000,A,3748.7923,N,12217.8682,W,0.11,52.75,110711,,,A*4C
$GPRMC,202036.000,A,3748.7925,N,12217.8685,W,0.39,345.01,110711,,,A*72
$GPRMC,202037.000,A,3748.7926,N,12217.8685,W,0.53,338.92,110711,,,A*7C
$GPRMC,202038.000,A,3748.7928,N,12217.8690,W,0.45,344.29,110711,,,A*75
$GPRMC,202039.000,A,3748.7926,N,12217.8690,W,0.10,58.97,110711,,,A*41
$GPRMC,202040.000,A,3748.7924,N,12217.8689,W,0.25,93.39,110711,,,A*40
$GPRMC,202041.000,A,3748.7924,N,12217.8689,W,0.76,133.62,110711,,,A*72
$GPRMC,202042.000,A,3748.7924,N,12217.8689,W,0.49,145.60,110711,,,A*7E
$GPRMC,202043.000,A,3748.7925,N,12217.8690,W,0.13,169.65,110711,,,A*72
$GPRMC,202044.000,A,3748.7923,N,12217.8690,W,0.18,177.93,110711,,,A*7E
$GPRMC,202045.000,A,3748.7922,N,12217.8690,W,0.21,89.59,110711,,,A*42
$GPRMC,202046.000,A,3748.7918,N,12217.8696,W,0.40,186.13,110711,,,A*79
$GPRMC,202047.000,A,3748.7917,N,12217.8701,W,0.85,133.71,110711,,,A*7B
$GPRMC,202048.000,A,3748.7918,N,12217.8699,W,0.24,92.73,110711,,,A*48
$GPRMC,202049.000,A,3748.7918,N,12217.8693,W,0.37,94.68,110711,,,A*4D
$GPRMC,202050.000,A,3748.7918,N,12217.8690,W,0.38,107.02,110711,,,A*7E
$GPRMC,202051.000,A,3748.7916,N,12217.8688,W,0.35,89.43,110711,,,A*47
$GPRMC,202052.000,A,3748.7915,N,12217.8683,W,0.50,92.29,110711,,,A*49
$GPRMC,202053.000,A,3748.7916,N,12217.8676,W,0.61,89.34,110711,,,A*45
$GPRMC,202054.000,A,3748.7916,N,12217.8669,W,0.67,89.97,110711,,,A*43
$GPRMC,202055.000,A,3748.7916,N,12217.8665,W,0.52,81.60,110711,,,A*48
$GPRMC,202056.000,A,3748.7916,N,12217.8662,W,0.47,82.51,110711,,,A*49
$GPRMC,202057.000,A,3748.7917,N,12217.8661,W,0.42,80.02,110711,,,A*4B
$GPRMC,202058.000,A,3748.7917,N,12217.8657,W,0.64,91.73,110711,,,A*43
$GPRMC,202059.000,A,3748.7917,N,12217.8653,W,0.42,99.87,110711,,,A*41
$GPRMC,202100.000,A,3748.7917,N,12217.8647,W,0.67,93.57,110711,,,A*49
$GPRMC,202101.000,A,3748.7917,N,12217.8644,W,0.36,104.80,110711,,,A*7A
$GPRMC,202102.000,A,3748.7917,N,12217.8643,W,0.62,81.15,110711,,,A*4F
$GPRMC,202103.000,A,3748.7918,N,12217.8632,W,0.67,96.94,110711,,,A*4D
$GPRMC,202104.000,A,3748.7919,N,12217.8634,W,0.39,66.37,110711,,,A*40
$GPRMC,202105.000,A,3748.7921,N,12217.8637,W,0.61,315.97,110711,,,A*79
$GPRMC,202106.000,A,3748.7920,N,12217.8639,W,0.31,293.36,110711,,,A*74
$GPRMC,202107.000,A,3748.7919,N,12217.8644,W,0.39,112.23,110711,,,A*73
$GPRMC,202108.000,A,3748.7916,N,12217.8646,W,1.10,107.94,110711,,,A*73
$GPRMC,202109.000,A,3748.7914,N,12217.8655,W,0.57,116.01,110711,,,A*7C
$GPRMC,202110.000,A,3748.7912,N,12217.8665,W,0.41,227.76,110711,,,A*77
$GPRMC,202111.000,A,3748.7912,N,12217.8674,W,0.65,257.98,110711,,,A*77
$GPRMC,202112.000,A,3748.7911,N,12217.8676,W,0.42,268.60,110711,,,A*7B
$GPRMC,202113.000,A,3748.7910,N,12217.8680,W,0.27,151.23,110711,,,A*7F
$GPRMC,202114.000,A,3748.7911,N,12217.8676,W,0.92,99.86,110711,,,A*44
$GPRMC,202115.000,A,3748.7911,N,12217.8688,W,0.57,249.91,110711,,,A*74
$GPRMC,202116.000,A,3748.7915,N,12217.8699,W,0.88,279.11,110711,,,A*7A
$GPRMC,202117.000,A,3748.7917,N,12217.8698,W,0.57,350.18,110711,,,A*79
$GPRMC,202118.000,A,3748.7918,N,12217.8688,W,0.50,54.57,110711,,,A*43
$GPRMC,202119.000,A,3748.7919,N,12217.8682,W,0.37,121.79,110711,,,A*77
$GPRMC,202120.000,A,3748.7917,N,12217.8681,W,0.53,197.17,110711,,,A*77
$GPRMC,202121.000,A,3748.7913,N,12217.8673,W,0.44,194.53,110711,,,A*7A
$GPRMC,202122.000,A,3748.7911,N,12217.8673,W,0.52,215.96,110711,,,A*7F
$GPRMC,202123.000,A,3748.7912,N,12217.8681,W,0.17,198.72,110711,,,A*7D
$GPRMC,202124.000,A,3748.7911,N,12217.8680,W,1.09,80.38,110711,,,A*40
$GPRMC,202125.000,A,3748.7908,N,12217.8676,W,0.51,71.04,110711,,,A*4D
$GPRMC,202126.000,A,3748.7906,N,12217.8674,W,0.12,57.26,110711,,,A*41
$GPRMC,202127.000,A,3748.7900,N,12217.8668,W,0.50,158.57,110711,,,A*75
$GPRMC,202128.000,A,3748.7895,N,12217.8662,W,0.53,212.75,110711,,,A*73
$GPRMC,202129.000,A,3748.7894,N,12217.8656,W,0.34,101.66,110711,,,A*76
$GPRMC,202130.000,A,3748.7891,N,12217.8649,W,0.42,229.24,110711,,,A*7B
$GPRMC,202131.000,A,3748.7892,N,12217.8653,W,0.25,231.62,110711,,,A*78
$GPRMC,202132.000,A,3748.7891,N,12217.8653,W,0.18,135.45,110711,,,A*74
$GPRMC,202133.000,A,3748.7894,N,12217.8653,W,0.49,102.20,110711,,,A*73
$GPRMC,202134.000,A,3748.7895,N,12217.8642,W,1.20,85.19,110711,,,A*4F
$GPRMC,202135.000,A,3748.7895,N,12217.8628,W,1.15,94.94,110711,,,A*41
$GPRMC,202136.000,A,3748.7891,N,12217.8624,W,0.53,112.10,110711,,,A*7A
$GPRMC,202137.000,A,3748.7888,N,12217.8629,W,0.83,104.73,110711,,,A*71
$GPRMC,202138.000,A,3748.7886,N,12217.8623,W,0.90,116.57,110711,,,A*7D
$GPRMC,202139.000,A,3748.7883,N,12217.8621,W,0.55,93.25,110711,,,A*4B
$GPRMC,202140.000,A,3748.7884,N,12217.8623,W,0.71,123.21,110711,,,A*78
$GPRMC,202141.000,A,3748.7884,N,12217.8626,W,0.78,154.24,110711,,,A*70
$GPRMC,202142.000,A,3748.7884,N,12217.8630,W,0.73,170.97,110711,,,A*71
$GPRMC,202143.000,A,3748.7883,N,12217.8632,W,0.78,172.71,110711,,,A*74
$GPRMC,202144.000,A,3748.7884,N,12217.8635,W,0.39,118.30,110711,,,A*7F
$GPRMC,202145.000,A,3748.7888,N,12217.8640,W,0.48,50.05,110711,,,A*4D
$GPRMC,202146.000,A,3748.7896,N,12217.8654,W,0.45,329.21,110711,,,A*72
$GPRMC,202147.000,A,3748.7896,N,12217.8658,W,0.49,281.14,110711,,,A*76
$GPRMC,202148.000,A,3748.7896,N,12217.8665,W,0.33,276.91,110711,,,A*7F
$GPRMC,202149.000,A,3748.7895,N,12217.8672,W,0.31,215.80,110711,,,A*7C
$GPRMC,202150.000,A,3748.7895,N,12217.8671,W,0.22,71.64,110711,,,A*4F
$GPRMC,202151.000,A,3748.7897,N,12217.8662,W,1.64,70.19,110711,,,A*46
$GPRMC,202152.000,A,3748.7902,N,12217.8651,W,1.78,71.42,110711,,,A*4A
$GPRMC,202153.000,A,3748.7904,N,12217.8648,W,1.36,75.32,110711,,,A*4C
$GPRMC,202154.000,A,3748.7905,N,12217.8653,W,0.48,72.17,110711,,,A*48
$GPRMC,202155.000,A,3748.7905,N,12217.8658,W,0.71,52.19,110711,,,A*44
$GPRMC,202156.000,A,3748.7903,N,12217.8660,W,0.58,62.49,110711,,,A*47
$GPRMC,202157.000,A,3748.7904,N,12217.8668,W,0.31,7.22,110711,,,A*78
$GPRMC,202158.000,A,3748.7909,N,12217.8676,W,0.43,325.10,110711,,,A*72
$GPRMC,202159.000,A,3748.7912,N,12217.8683,W,0.98,259.93,110711,,,A*74
$GPRMC,202200.000,A,3748.7913,N,12217.8687,W,1.49,266.37,110711,,,A*71
$GPRMC,202201.000,A,3748.7913,N,12217.8693,W,1.49,266.37,110711,,,E*71
$GPRMC,202202.000,A,3748.7912,N,12217.8698,W,1.49,266.37,110711,,,E*78
$GPRMC,202203.000,A,3748.7914,N,12217.8700,W,0.80,245.31,110711,,,A*78
$GPRMC,202204.000,A,3748.7913,N,12217.8702,W,0.80,245.31,110711,,,E*7E
$GPRMC,202205.000,A,3748.7910,N,12217.8697,W,0.85,270.06,110711,,,A*72
$GPRMC,202206.000,A,3748.7894,N,12217.8693,W,0.40,263.81,110711,,,A*7C
$GPRMC,202207.000,A,3748.7887,N,12217.8694,W,0.24,269.84,110711,,,A*75
$GPRMC,202208.000,A,3748.7886,N,12217.8696,W,0.08,293.18,110711,,,A*77
$GPRMC,202209.000,A,3748.7888,N,12217.8696,W,0.41,88.06,110711,,,A*42
$GPRMC,202210.000,A,3748.7888,N,12217.8693,W,0.57,102.11,110711,,,A*7D
$GPRMC,202211.000,A,3748.7888,N,12217.8659,W,2.36,91.11,110711,,,A*44
$GPRMC,202212.000,A,3748.7887,N,12217.8666,W,0.98,95.83,110711,,,A*4D
$GPRMC,202213.000,A,3748.7887,N,12217.8651,W,0.57,74.07,110711,,,A*48
$GPRMC,202214.000,A,3748.7889,N,12217.8623,W,0.87,319.50,110711,,,A*73
$GPRMC,202215.000,A,3748.7891,N,12217.8640,W,1.31,302.41,110711,,,A*78
$GPRMC,202216.000,A,3748.7887,N,12217.8643,W,1.45,331.43,110711,,,A*7E
$GPRMC,202217.000,A,3748.7891,N,12217.8651,W,0.85,2.67,110711,,,A*73
$GPRMC,202218.000,A,3748.7896,N,12217.8666,W,1.26,328.60,110711,,,A*7B
$GPRMC,202219.000,A,3748.7896,N,12217.8676,W,1.66,325.02,110711,,,A*76
$GPRMC,202220.000,A,3748.7901,N,12217.8681,W,1.88,340.61,110711,,,A*7D
$GPRMC,202221.000,A,3748.7905,N,12217.8680,W,1.49,350.41,110711,,,A*77
$GPRMC,202222.000,A,3748.7910,N,12217.8679,W,0.74,319.83,110711,,,A*7A
$GPRMC,202223.000,A,3748.7912,N,12217.8671,W,0.19,190.32,110711,,,A*73
$GPRMC,202224.000,A,3748.7915,N,12217.8674,W,0.86,233.00,110711,,,A*7B
$GPRMC,202225.000,A,3748.7911,N,12217.8676,W,1.01,198.10,110711,,,A*71
$GPRMC,202226.000,A,3748.7902,N,12217.8686,W,1.42,212.07,110711,,,A*7F
$GPRMC,202227.000,A,3748.7889,N,12217.8696,W,1.38,198.31,110711,,,A*74
$GPRMC,202228.000,A,3748.7883,N,12217.8705,W,1.10,237.12,110711,,,A*77
$GPRMC,202229.000,A,3748.7884,N,12217.8717,W,1.45,262.92,110711,,,A*7A
$GPRMC,202230.000,A,3748.7885,N,12217.8716,W,1.06,278.93,110711,,,A*7F
$GPRMC,202231.000,A,3748.7891,N,12217.8723,W,1.45,286.11,110711,,,A*71
$GPRMC,202232.000,A,3748.7895,N,12217.8737,W,1.62,264.36,110711,,,A*7F
$GPRMC,202233.000,A,3748.7894,N,12217.8750,W,1.71,252.73,110711,,,A*78
$GPRMC,202234.000,A,3748.7893,N,12217.8751,W,1.15,219.14,110711,,,A*75
$GPRMC,202235.000,A,3748.7890,N,12217.8748,W,1.16,181.06,110711,,,A*7D
$GPRMC,202236.000,A,3748.7886,N,12217.8745,W,1.77,174.55,110711,,,A*7F
$GPRMC,202237.000,A,3748.7881,N,12217.8736,W,1.31,166.32,110711,,,A*7D
$GPRMC,202238.000,A,3748.7870,N,12217.8734,W,2.41,166.57,110711,,,A*79
$GPRMC,202239.000,A,3748.7868,N,12217.8738,W,1.72,186.71,110711,,,A*74
$GPRMC,202240.000,A,3748.7863,N,12217.8737,W,1.46,208.80,110711,,,A*72
$GPRMC,202241.000,A,3748.7854,N,12217.8730,W,2.15,194.40,110711,,,A*7F
$GPRMC,202242.000,A,3748.7847,N,12217.8717,W,1.70,159.40,110711,,,A*7A
$GPRMC,202243.000,A,3748.7844,N,12217.8705,W,1.25,133.82,110711,,,A*79
$GPRMC,202244.000,A,3748.7840,N,12217.8711,W,1.30,181.90,110711,,,A*71
$GPRMC,202245.000,A,3748.7839,N,12217.8719,W,1.69,175.71,110711,,,A*7E
$GPRMC,202246.000,A,3748.7835,N,12217.8717,W,1.71,165.09,110711,,,A*78
$GPRMC,202247.000,A,3748.7835,N,12217.8717,W,0.10,324.56,110711,,,A*72
$GPRMC,202248.000,A,3748.7841,N,12217.8722,W,0.81,228.60,110711,,,A*78
$GPRMC,202249.000,A,3748.7840,N,12217.8731,W,1.40,241.57,110711,,,A*7D
$GPRMC,202250.000,A,3748.7837,N,12217.8737,W,1.39,227.03,110711,,,A*7C
$GPRMC,202251.000,A,3748.7834,N,12217.8742,W,1.55,229.40,110711,,,A*7F
$GPRMC,202252.000,A,3748.7832,N,12217.8753,W,0.94,264.80,110711,,,A*73
$GPRMC,202253.000,A,3748.7830,N,12217.8761,W,1.01,242.54,110711,,,A*71
$GPRMC,202254.000,A,3748.7830,N,12217.8774,W,1.62,259.81,110711,,,A*75
$GPRMC,202255.000,A,3748.7822,N,12217.8779,W,1.76,202.10,110711,,,A*79
$GPRMC,202256.000,A,3748.7814,N,12217.8782,W,1.85,182.90,110711,,,A*74
$GPRMC,202257.000,A,3748.7806,N,12217.8782,W,1.77,189.90,110711,,,A*70
$GPRMC,202258.000,A,3748.7802,N,12217.8778,W,1.34,196.61,110711,,,A*79
$GPRMC,202259.000,A,3748.7803,N,12217.8780,W,1.44,230.08,110711,,,A*79
$GPRMC,202300.000,A,3748.7804,N,12217.8794,W,1.48,272.82,110711,,,A*7E
$GPRMC,202301.000,A,3748.7797,N,12217.8795,W,1.84,235.31,110711,,,A*70
$GPRMC,202302.000,A,3748.7786,N,12217.8800,W,1.62,224.50,110711,,,A*7F
$GPRMC,202303.000,A,3748.7777,N,12217.8816,W,2.87,232.98,110711,,,A*7C
$GPRMC,202304.000,A,3748.7768,N,12217.8819,W,2.70,242.22,110711,,,A*74
$GPRMC,202305.000,A,3748.7758,N,12217.8824,W,2.63,222.26,110711,,,A*78
$GPRMC,202306.000,A,3748.7751,N,12217.8831,W,2.25,221.45,110711,,,A*72
$GPRMC,202307.000,A,3748.7741,N,12217.8830,W,2.13,210.46,110711,,,A*77
$GPRMC,202308.000,A,3748.7731,N,12217.8823,W,1.95,224.65,110711,,,A*76
$GPRMC,202309.000,A,3748.7722,N,12217.8828,W,2.72,225.36,110711,,,A*73
$GPRMC,202310.000,A,3748.7712,N,12217.8846,W,2.21,226.72,110711,,,A*75
$GPRMC,202311.000,A,3748.7707,N,12217.8863,W,1.96,241.16,110711,,,A*7B
$GPRMC,202312.000,A,3748.7702,N,12217.8873,W,2.33,219.39,110711,,,A*70
$GPRMC,202313.000,A,3748.7696,N,12217.8886,W,2.67,229.88,110711,,,A*7F
$GPRMC,202314.000,A,3748.7691,N,12217.8902,W,3.00,235.49,110711,,,A*72
$GPRMC,202315.000,A,3748.7692,N,12217.8910,W,2.07,242.36,110711,,,A*7D
$GPRMC,202316.000,A,3748.7694,N,12217.8914,W,0.94,215.72,110711,,,A*76
$GPRMC,202317.000,A,3748.7691,N,12217.8904,W,1.18,210.59,110711,,,A*7A
$GPRMC,202318.000,A,3748.7695,N,12217.8907,W,1.22,216.63,110711,,,A*74
$GPRMC,202319.000,A,3748.7689,N,12217.8908,W,1.93,190.11,110711,,,A*75
$GPRMC,202320.000,A,3748.7677,N,12217.8915,W,1.61,186.20,110711,,,A*7A
$GPRMC,202321.000,A,3748.7666,N,12217.8913,W,2.15,180.83,110711,,,A*72
$GPRMC,202322.000,A,3748.7663,N,12217.8922,W,2.73,217.50,110711,,,A*75
$GPRMC,202323.000,A,3748.7658,N,12217.8922,W,3.55,222.88,110711,,,A*7A
$GPRMC,202324.000,A,3748.7652,N,12217.8929,W,3.52,224.02,110711,,,A*7F
$GPRMC,202325.000,A,3748.7642,N,12217.8929,W,2.59,221.21,110711,,,A*71
$GPRMC,202326.000,A,3748.7636,N,12217.8925,W,2.11,205.25,110711,,,A*73
$GPRMC,202327.000,A,3748.7638,N,12217.8922,W,1.89,180.58,110711,,,A*7D
$GPRMC,202328.000,A,3748.7631,N,12217.8921,W,2.46,187.38,110711,,,A*79
$GPRMC,202329.000,A,3748.7623,N,12217.8916,W,2.56,186.50,110711,,,A*71
$GPRMC,202330.000,A,3748.7610,N,12217.8916,W,2.68,193.52,110711,,,A*72
$GPRMC,202331.000,A,3748.7612,N,12217.8929,W,2.21,222.71,110711,,,A*78
$GPRMC,202332.000,A,3748.7611,N,12217.8946,W,1.70,223.20,110711,,,A*73
$GPRMC,202333.000,A,3748.7609,N,12217.8954,W,1.23,231.98,110711,,,A*7E
$GPRMC,202334.000,A,3748.7605,N,12217.8952,W,0.73,227.06,110711,,,A*77
$GPRMC,202335.000,A,3748.7601,N,12217.8957,W,0.42,274.52,110711,,,A*72
$GPRMC,202336.000,A,3748.7596,N,12217.8963,W,1.42,205.01,110711,,,A*7A
$GPRMC,202337.000,A,3748.7592,N,12217.8973,W,0.99,207.85,110711,,,A*77
$GPRMC,202338.000,A,3748.7589,N,12217.8981,W,1.28,211.94,110711,,,A*73
$GPRMC,202339.000,A,3748.7589,N,12217.8984,W,0.96,187.55,110711,,,A*72
$GPRMC,202340.000,A,3748.7587,N,12217.8990,W,0.81,222.09,110711,,,A*74
$GPRMC,202341.000,A,3748.7583,N,12217.8986,W,1.57,198.67,110711,,,A*76
$GPRMC,202342.000,A,3748.7579,N,12217.8988,W,1.29,223.94,110711,,,A*78
$GPRMC,202343.000,A,3748.7578,N,12217.8992,W,1.51,216.73,110711,,,A*73
$GPRMC,202344.000,A,3748.7578,N,12217.8993,W,0.61,210.02,110711,,,A*77
$GPRMC,202345.000,A,3748.7580,N,12217.8987,W,0.53,31.14,110711,,,A*43
$GPRMC,202346.000,A,3748.7579,N,12217.8986,W,0.35,222.85,110711,,,A*7F
$GPRMC,202347.000,A,3748.7580,N,12217.8985,W,0.59,241.36,110711,,,A*7C
$GPRMC,202348.000,A,3748.7586,N,12217.8990,W,0.16,10.30,110711,,,A*4A
$GPRMC,202349.000,A,3748.7596,N,12217.8990,W,0.61,351.39,110711,,,A*75
$GPRMC,202350.000,A,3748.7603,N,12217.8986,W,0.72,334.22,110711,,,A*7E
$GPRMC,202351.000,A,3748.7610,N,12217.8999,W,2.36,334.68,110711,,,A*7F
$GPRMC,202352.000,A,3748.7617,N,12217.8999,W,2.35,340.07,110711,,,A*72
$GPRMC,202353.000,A,3748.7622,N,12217.9008,W,3.01,306.07,110711,,,A*71
$GPRMC,202354.000,A,3748.7620,N,12217.9018,W,2.34,278.67,110711,,,A*7C
$GPRMC,202355.000,A,3748.7613,N,12217.9022,W,2.20,239.99,110711,,,A*75
$GPRMC,202356.000,A,3748.7597,N,12217.9032,W,2.52,210.00,110711,,,A*76
$GPRMC,202357.000,A,3748.7583,N,12217.9026,W,2.54,178.03,110711,,,A*7F
$GPRMC,202358.000,A,3748.7575,N,12217.9019,W,1.99,196.58,110711,,,A*79
$GPRMC,202359.000,A,3748.7576,N,12217.9031,W,2.43,229.31,110711,,,A*7D
$GPRMC,202400.000,A,3748.7568,N,12217.9037,W,2.75,210.29,110711,,,A*79
$GPRMC,202401.000,A,3748.7570,N,12217.9056,W,2.57,237.10,110711,,,A*79
$GPRMC,202402.000,A,3748.7571,N,12217.9060,W,2.08,224.64,110711,,,A*75
$GPRMC,202403.000,A,3748.7562,N,12217.9045,W,1.33,219.78,110711,,,A*79
$GPRMC,202404.000,A,3748.7553,N,12217.9040,W,1.51,196.50,110711,,,A*73
$GPRMC,202405.000,A,3748.7547,N,12217.9045,W,2.29,211.31,110711,,,A*75
$GPRMC,202406.000,A,3748.7534,N,12217.9040,W,1.90,184.23,110711,,,A*7A
$GPRMC,202407.000,A,3748.7522,N,12217.9037,W,2.58,191.66,110711,,,A*7E
$GPRMC,202408.000,A,3748.7517,N,12217.9030,W,2.61,196.71,110711,,,A*7B
$GPRMC,202409.000,A,3748.7513,N,12217.9022,W,1.90,210.46,110711,,,A*79
$GPRMC,202410.000,A,3748.7514,N,12217.9018,W,1.11,193.84,110711,,,A*70
$GPRMC,202411.000,A,3748.7518,N,12217.9011,W,1.13,151.57,110711,,,A*76
$GPRMC,202412.000,A,3748.7522,N,12217.8996,W,1.01,169.26,110711,,,A*75
$GPRMC,202413.000,A,3748.7524,N,12217.8992,W,0.70,174.98,110711,,,A*78
$GPRMC,202414.000,A,3748.7532,N,12217.8987,W,0.34,17.56,110711,,,A*4A
$GPRMC,202415.000,A,3748.7528,N,12217.8989,W,0.92,260.97,110711,,,A*7D
$GPRMC,202416.000,A,3748.7526,N,12217.9010,W,2.65,302.41,110711,,,A*7C
$GPRMC,202417.000,A,3748.7522,N,12217.9020,W,3.53,304.71,110711,,,A*7B
$GPRMC,202418.000,A,3748.7530,N,12217.9029,W,2.90,311.97,110711,,,A*7C
$GPRMC,202419.000,A,3748.7527,N,12217.9040,W,2.58,277.75,110711,,,A*7D
$GPRMC,202420.000,A,3748.7535,N,12217.9049,W,2.76,280.01,110711,,,A*7A
$GPRMC,202421.000,A,3748.7532,N,12217.9050,W,1.74,297.75,110711,,,A*70
$GPRMC,202422.000,A,3748.7532,N,12217.9060,W,2.11,261.92,110711,,,A*70
$GPRMC,202423.000,A,3748.7523,N,12217.9075,W,2.09,256.62,110711,,,A*77
$GPRMC,202424.000,A,3748.7530,N,12217.9096,W,3.12,299.49,110711,,,A*7E
$GPRMC,202425.000,A,3748.7522,N,12217.9115,W,2.97,279.07,110711,,,A*7E
$GPRMC,202426.000,A,3748.7502,N,12217.9122,W,3.60,236.04,110711,,,A*7A
$GPRMC,202427.000,A,3748.7500,N,12217.9142,W,3.15,220.90,110711,,,A*77
$GPRMC,202428.000,A,3748.7481,N,12217.9137,W,4.17,194.63,110711,,,A*77
$GPRMC,202429.000,A,3748.7469,N,12217.9133,W,3.87,177.93,110711,,,A*78
$GPRMC,202430.000,A,3748.7450,N,12217.9126,W,4.07,171.32,110711,,,A*7C
$GPRMC,202431.000,A,3748.7447,N,12217.9123,W,3.53,175.50,110711,,,A*78
$GPRMC,202432.000,A,3748.7430,N,12217.9123,W,2.84,176.45,110711,,,A*77
$GPRMC,202433.000,A,3748.7416,N,12217.9124,W,2.88,174.88,110711,,,A*7A
$GPRMC,202434.000,A,3748.7415,N,12217.9127,W,1.95,185.74,110711,,,A*7F
$GPRMC,202435.000,A,3748.7409,N,12217.9137,W,1.80,213.50,110711,,,A*7C
$GPRMC,202436.000,A,3748.7387,N,12217.9138,W,2.67,199.19,110711,,,A*77
$GPRMC,202437.000,A,3748.7384,N,12217.9140,W,2.04,196.00,110711,,,A*78
$GPRMC,202438.000,A,3748.7378,N,12217.9145,W,2.15,211.31,110711,,,A*7F
$GPRMC,202439.000,A,3748.7354,N,12217.9135,W,3.21,177.54,110711,,,A*71
$GPRMC,202440.000,A,3748.7336,N,12217.9132,W,3.36,183.64,110711,,,A*72
$GPRMC,202441.000,A,3748.7335,N,12217.9132,W,2.95,173.13,110711,,,A*77
$GPRMC,202442.000,A,3748.7317,N,12217.9110,W,2.24,170.75,110711,,,A*7D
$GPRMC,202443.000,A,3748.7308,N,12217.9119,W,1.64,222.05,110711,,,A*7F
$GPRMC,202444.000,A,3748.7295,N,12217.9119,W,1.55,202.93,110711,,,A*72
$GPRMC,202445.000,A,3748.7295,N,12217.9129,W,1.88,230.39,110711,,,A*71
$GPRMC,202446.000,A,3748.7282,N,12217.9139,W,3.84,233.21,110711,,,A*71
$GPRMC,202447.000,A,3748.7267,N,12217.9168,W,5.75,232.52,110711,,,A*72
$GPRMC,202448.000,A,3748.7266,N,12217.9198,W,5.08,239.15,110711,,,A*71
$GPRMC,202449.000,A,3748.7268,N,12217.9228,W,5.16,248.43,110711,,,A*7C
$GPRMC,202450.000,A,3748.7264,N,12217.9240,W,4.21,249.96,110711,,,A*7A
$GPRMC,202451.000,A,3748.7253,N,12217.9233,W,3.01,238.77,110711,,,A*77
$GPRMC,202452.000,A,3748.7248,N,12217.9240,W,1.97,241.47,110711,,,A*7A
$GPRMC,202453.000,A,3748.7253,N,12217.9241,W,1.76,203.98,110711,,,A*7B
$GPRMC,202454.000,A,3748.7248,N,12217.9234,W,2.27,189.04,110711,,,A*77
$GPRMC,202455.000,A,3748.7249,N,12217.9224,W,1.28,189.12,110711,,,A*7D
$GPRMC,202456.000,A,3748.7243,N,12217.9217,W,1.51,198.52,110711,,,A*7E
$GPRMC,202457.000,A,3748.7240,N,12217.9222,W,1.65,239.89,110711,,,A*73
$GPRMC,202458.000,A,3748.7234,N,12217.9212,W,2.05,246.34,110711,,,A*77
$GPRMC,202459.000,A,3748.7229,N,12217.9207,W,1.74,229.67,110711,,,A*74
$GPRMC,202500.000,A,3748.7229,N,12217.9198,W,1.06,214.91,110711,,,A*7E
$GPRMC,202501.000,A,3748.7220,N,12217.9192,W,2.46,202.56,110711,,,A*77
$GPRMC,202502.000,A,3748.7215,N,12217.9196,W,2.02,213.09,110711,,,A*7C
$GPRMC,202503.000,A,3748.7212,N,12217.9196,W,1.34,223.32,110711,,,A*77
$GPRMC,202504.000,A,3748.7214,N,12217.9194,W,1.39,287.66,110711,,,A*76
$GPRMC,202505.000,A,3748.7220,N,12217.9197,W,2.21,284.60,110711,,,A*7C
$GPRMC,202506.000,A,3748.7212,N,12217.9192,W,0.96,240.76,110711,,,A*7A
$GPRMC,202507.000,A,3748.7209,N,12217.9192,W,1.80,231.59,110711,,,A*7C
$GPRMC,202508.000,A,3748.7200,N,12217.9200,W,1.58,218.86,110711,,,A*7E
$GPRMC,202509.000,A,3748.7197,N,12217.9208,W,1.17,237.42,110711,,,A*74
$GPRMC,202510.000,A,3748.7194,N,12217.9222,W,1.80,217.18,110711,,,A*74
$GPRMC,202511.000,A,3748.7190,N,12217.9234,W,1.53,218.22,110711,,,A*7E
$GPRMC,202512.000,A,3748.7185,N,12217.9252,W,1.77,241.15,110711,,,A*77
$GPRMC,202513.000,A,3748.7181,N,12217.9268,W,2.14,245.08,110711,,,A*75
$GPRMC,202514.000,A,3748.7171,N,12217.9282,W,2.51,219.80,110711,,,A*71
$GPRMC,202515.000,A,3748.7163,N,12217.9286,W,3.01,212.87,110711,,,A*7F
$GPRMC,202516.000,A,3748.7159,N,12217.9287,W,2.85,198.32,110711,,,A*76
$GPRMC,202517.000,A,3748.7149,N,12217.9292,W,2.33,209.78,110711,,,A*7A
$GPRMC,202518.000,A,3748.7146,N,12217.9299,W,1.72,219.34,110711,,,A*7E
$GPRMC,202519.000,A,3748.7147,N,12217.9304,W,1.12,260.66,110711,,,A*74
$GPRMC,202520.000,A,3748.7150,N,12217.9314,W,2.09,282.88,110711,,,A*7C
$GPRMC,202521.000,A,3748.7146,N,12217.9319,W,1.73,227.74,110711,,,A*75
$GPRMC,202522.000,A,3748.7141,N,12217.9324,W,2.31,213.51,110711,,,A*7A
$GPRMC,202523.000,A,3748.7135,N,12217.9332,W,2.35,204.32,110711,,,A*78
$GPRMC,202524.000,A,3748.7132,N,12217.9339,W,2.29,213.28,110711,,,A*73
$GPRMC,202525.000,A,3748.7129,N,12217.9336,W,2.34,206.04,110711,,,A*71
$GPRMC,202526.000,A,3748.7122,N,12217.9335,W,2.03,184.87,110711,,,A*7C
$GPRMC,202527.000,A,3748.7119,N,12217.9324,W,2.14,190.96,110711,,,A*76
$GPRMC,202528.000,A,3748.7123,N,12217.9327,W,2.51,201.29,110711,,,A*7D
$GPRMC,202529.000,A,3748.7132,N,12217.9329,W,1.48,221.86,110711,,,A*7E
$GPRMC,202530.000,A,3748.7122,N,12217.9335,W,1.95,191.63,110711,,,A*79
$GPRMC,202531.000,A,3748.7116,N,12217.9338,W,1.83,207.05,110711,,,A*79
$GPRMC,202532.000,A,3748.7108,N,12217.9344,W,1.70,204.88,110711,,,A*74
$GPRMC,202533.000,A,3748.7107,N,12217.9344,W,1.21,232.90,110711,,,A*72
$GPRMC,202534.000,A,3748.7111,N,12217.9343,W,0.90,228.73,110711,,,A*78
$GPRMC,202535.000,A,3748.7109,N,12217.9339,W,1.32,189.45,110711,,,A*79
$GPRMC,202536.000,A,3748.7105,N,12217.9342,W,1.44,179.26,110711,,,A*71
$GPRMC,202537.000,A,3748.7099,N,12217.9346,W,1.69,186.01,110711,,,A*7A
$GPRMC,202538.000,A,3748.7095,N,12217.9338,W,1.83,190.57,110711,,,A*70
$GPRMC,202539.000,A,3748.7090,N,12217.9339,W,2.11,195.60,110711,,,A*7C
$GPRMC,202540.000,A,3748.7082,N,12217.9344,W,1.79,216.33,110711,,,A*78
$GPRMC,202541.000,A,3748.7078,N,12217.9352,W,2.14,226.22,110711,,,A*70
$GPRMC,202542.000,A,3748.7072,N,12217.9367,W,1.95,245.11,110711,,,A*70
$GPRMC,202543.000,A,3748.7069,N,12217.9378,W,1.80,227.60,110711,,,A*73
$GPRMC,202544.000,A,3748.7065,N,12217.9379,W,1.82,229.71,110711,,,A*75
$GPRMC,202545.000,A,3748.7060,N,12217.9381,W,2.30,212.45,110711,,,A*73
$GPRMC,202546.000,A,3748.7053,N,12217.9382,W,1.66,222.43,110711,,,A*76
$GPRMC,202547.000,A,3748.7049,N,12217.9384,W,1.87,206.63,110711,,,A*71
$GPRMC,202548.000,A,3748.7046,N,12217.9388,W,1.64,230.43,110711,,,A*77
$GPRMC,202549.000,A,3748.7042,N,12217.9392,W,1.93,230.29,110711,,,A*7D
$GPRMC,202550.000,A,3748.7038,N,12217.9401,W,2.43,216.57,110711,,,A*76
$GPRMC,202551.000,A,3748.7030,N,12217.9402,W,2.06,216.14,110711,,,A*7A
$GPRMC,202552.000,A,3748.7029,N,12217.9407,W,1.51,235.06,110711,,,A*77
$GPRMC,202553.000,A,3748.7022,N,12217.9410,W,2.03,217.24,110711,,,A*7F
$GPRMC,202554.000,A,3748.7019,N,12217.9419,W,2.10,232.79,110711,,,A*74
$GPRMC,202555.000,A,3748.7014,N,12217.9426,W,2.10,232.82,110711,,,A*70
$GPRMC,202556.000,A,3748.7010,N,12217.9425,W,1.68,205.39,110711,,,A*7C
$GPRMC,202557.000,A,3748.7004,N,12217.9421,W,2.45,179.65,110711,,,A*71
$GPRMC,202558.000,A,3748.6998,N,12217.9415,W,2.01,191.14,110711,,,A*74
$GPRMC,202559.000,A,3748.6994,N,12217.9410,W,1.54,207.72,110711,,,A*73
$GPRMC,202600.000,A,3748.6987,N,12217.9429,W,2.25,231.45,110711,,,A*70
$GPRMC,202601.000,A,3748.6980,N,12217.9426,W,1.11,215.27,110711,,,A*7F
$GPRMC,202602.000,A,3748.6971,N,12217.9415,W,1.83,210.32,110711,,,A*78
$GPRMC,202603.000,A,3748.6970,N,12217.9414,W,1.01,236.38,110711,,,A*7D
$GPRMC,202604.000,A,3748.6970,N,12217.9415,W,0.88,269.50,110711,,,A*7F
$GPRMC,202605.000,A,3748.6973,N,12217.9418,W,1.40,292.18,110711,,,A*7D
$GPRMC,202606.000,A,3748.6970,N,12217.9426,W,2.10,273.18,110711,,,A*79
$GPRMC,202607.000,A,3748.6962,N,12217.9432,W,2.23,241.44,110711,,,A*76
$GPRMC,202608.000,A,3748.6964,N,12217.9440,W,3.10,256.83,110711,,,A*76
$GPRMC,202609.000,A,3748.6962,N,12217.9444,W,2.29,257.45,110711,,,A*75
$GPRMC,202610.000,A,3748.6960,N,12217.9453,W,2.65,275.89,110711,,,A*71
$GPRMC,202611.000,A,3748.6967,N,12217.9469,W,2.73,285.66,110711,,,A*77
$GPRMC,202612.000,A,3748.6971,N,12217.9480,W,2.21,287.55,110711,,,A*71
$GPRMC,202613.000,A,3748.6974,N,12217.9486,W,1.38,285.48,110711,,,A*76
$GPRMC,202614.000,A,3748.6983,N,12217.9486,W,1.81,328.47,110711,,,A*72
$GPRMC,202615.000,A,3748.6998,N,12217.9490,W,2.94,341.14,110711,,,A*70
$GPRMC,202616.000,A,3748.7009,N,12217.9497,W,2.87,341.81,110711,,,A*7A
$GPRMC,202617.000,A,3748.7015,N,12217.9493,W,2.51,5.13,110711,,,A*71
$GPRMC,202618.000,A,3748.7017,N,12217.9487,W,2.12,28.25,110711,,,A*44
$GPRMC,202619.000,A,3748.7015,N,12217.9478,W,2.12,46.83,110711,,,A*43
$GPRMC,202620.000,A,3748.7019,N,12217.9473,W,2.12,46.83,110711,,,E*4A
$GPRMC,202621.000,A,3748.7023,N,12217.9467,W,2.12,46.83,110711,,,E*47
$GPRMC,202622.000,A,3748.7027,N,12217.9462,W,2.12,46.83,110711,,,E*45
$GPRMC,202623.000,A,3748.7031,N,12217.9456,W,2.12,46.83,110711,,,E*44
$GPRMC,202624.000,A,3748.7035,N,12217.9451,W,2.12,46.83,110711,,,E*40
$GPRMC,202625.000,A,3748.7039,N,12217.9445,W,2.12,46.83,110711,,,E*48
$GPRMC,202626.000,A,3748.7043,N,12217.9440,W,2.12,46.83,110711,,,E*43
$GPRMC,202627.000,A,3748.7010,N,12217.9459,W,0.40,264.44,110711,,,A*74
$GPRMC,202628.000,A,3748.6978,N,12217.9483,W,1.14,301.00,110711,,,A*78
$GPRMC,202629.000,A,3748.6974,N,12217.9494,W,0.49,329.50,110711,,,A*75
$GPRMC,202630.000,A,3748.6962,N,12217.9500,W,0.14,242.79,110711,,,A*79
$GPRMC,202631.000,A,3748.6963,N,12217.9510,W,1.00,234.37,110711,,,A*77
$GPRMC,202632.000,A,3748.6967,N,12217.9528,W,1.34,237.90,110711,,,A*72
$GPRMC,202633.000,A,3748.6967,N,12217.9533,W,1.70,224.98,110711,,,A*73
$GPRMC,202634.000,A,3748.6962,N,12217.9532,W,2.66,218.13,110711,,,A*78
$GPRMC,202635.000,A,3748.6966,N,12217.9529,W,2.56,215.90,110711,,,A*72
$GPRMC,202636.000,A,3748.6955,N,12217.9539,W,2.64,221.01,110711,,,A*7E
$GPRMC,202637.000,A,3748.6948,N,12217.9550,W,2.85,222.05,110711,,,A*74
$GPRMC,202638.000,A,3748.6948,N,12217.9577,W,3.30,217.48,110711,,,A*7E
$GPRMC,202639.000,A,3748.6939,N,12217.9595,W,2.39,217.45,110711,,,A*70
$GPRMC,202640.000,A,3748.6932,N,12217.9599,W,2.34,215.89,110711,,,A*76
$GPRMC,202641.000,A,3748.6929,N,12217.9616,W,2.35,216.46,110711,,,A*78
$GPRMC,202642.000,A,3748.6928,N,12217.9621,W,2.14,257.43,110711,,,A*7D
$GPRMC,202643.000,A,3748.6922,N,12217.9625,W,1.88,215.21,110711,,,A*76
$GPRMC,202644.000,A,3748.6915,N,12217.9628,W,2.22,197.40,110711,,,A*75
$GPRMC,202645.000,A,3748.6908,N,12217.9623,W,2.19,207.49,110711,,,A*78
$GPRMC,202646.000,A,3748.6900,N,12217.9620,W,1.90,206.02,110711,,,A*7C
$GPRMC,202647.000,A,3748.6893,N,12217.9623,W,2.26,204.13,110711,,,A*79
$GPRMC,202648.000,A,3748.6888,N,12217.9625,W,1.68,201.59,110711,,,A*78
$GPRMC,202649.000,A,3748.6881,N,12217.9630,W,2.25,214.83,110711,,,A*7D
$GPRMC,202650.000,A,3748.6877,N,12217.9626,W,2.08,184.21,110711,,,A*76
$GPRMC,202651.000,A,3748.6869,N,12217.9616,W,2.21,198.07,110711,,,A*79
$GPRMC,202652.000,A,3748.6865,N,12217.9599,W,1.86,180.13,110711,,,A*70
$GPRMC,202653.000,A,3748.6857,N,12217.9584,W,2.06,172.58,110711,,,A*75
$GPRMC,202654.000,A,3748.6851,N,12217.9579,W,1.44,166.52,110711,,,A*7C
$GPRMC,202655.000,A,3748.6846,N,12217.9574,W,1.10,170.68,110711,,,A*79
$GPRMC,202656.000,A,3748.6841,N,12217.9569,W,0.78,207.44,110711,,,A*73
$GPRMC,202657.000,A,3748.6840,N,12217.9565,W,0.87,160.75,110711,,,A*7F
$GPRMC,202658.000,A,3748.6839,N,12217.9561,W,0.63,218.08,110711,,,A*76
$GPRMC,202659.000,A,3748.6839,N,12217.9550,W,0.68,176.71,110711,,,A*7B
$GPRMC,202700.000,A,3748.6836,N,12217.9540,W,1.23,179.57,110711,,,A*7D
$GPRMC,202701.000,A,3748.6836,N,12217.9544,W,0.74,258.53,110711,,,A*7F
$GPRMC,202702.000,A,3748.6831,N,12217.9552,W,0.83,229.78,110711,,,A*7B
$GPRMC,202703.000,A,3748.6822,N,12217.9557,W,1.55,205.58,110711,,,A*7B
$GPRMC,202704.000,A,3748.6814,N,12217.9566,W,2.10,192.13,110711,,,A*7B
$GPRMC,202705.000,A,3748.6813,N,12217.9579,W,1.42,188.19,110711,,,A*76
$GPRMC,202706.000,A,3748.6814,N,12217.9582,W,1.90,185.27,110711,,,A*79
$GPRMC,202707.000,A,3748.6802,N,12217.9584,W,2.19,189.72,110711,,,A*77
$GPRMC,202708.000,A,3748.6794,N,12217.9588,W,2.21,215.66,110711,,,A*7C
$GPRMC,202709.000,A,3748.6786,N,12217.9601,W,1.99,221.26,110711,,,A*7F
$GPRMC,202710.000,A,3748.6782,N,12217.9608,W,1.27,273.49,110711,,,A*71
$GPRMC,202711.000,A,3748.6780,N,12217.9615,W,0.62,238.17,110711,,,A*7A
$GPRMC,202712.000,A,3748.6778,N,12217.9631,W,2.18,216.72,110711,,,A*78
$GPRMC,202713.000,A,3748.6773,N,12217.9636,W,2.86,205.84,110711,,,A*79
$GPRMC,202714.000,A,3748.6765,N,12217.9645,W,2.14,231.36,110711,,,A*78
$GPRMC,202715.000,A,3748.6758,N,12217.9648,W,2.40,210.80,110711,,,A*75
$GPRMC,202716.000,A,3748.6749,N,12217.9653,W,1.57,203.55,110711,,,A*73
$GPRMC,202717.000,A,3748.6748,N,12217.9669,W,2.30,249.22,110711,,,A*76
$GPRMC,202718.000,A,3748.6745,N,12217.9693,W,3.36,252.94,110711,,,A*71
$GPRMC,202719.000,A,3748.6746,N,12217.9712,W,3.18,253.54,110711,,,A*7A
$GPRMC,202720.000,A,3748.6745,N,12217.9728,W,2.66,246.08,110711,,,A*7F
$GPRMC,202721.000,A,3748.6734,N,12217.9741,W,3.11,230.18,110711,,,A*76
$GPRMC,202722.000,A,3748.6724,N,12217.9754,W,3.63,242.01,110711,,,A*78
$GPRMC,202723.000,A,3748.6718,N,12217.9778,W,3.76,252.25,110711,,,A*7B
$GPRMC,202724.000,A,3748.6715,N,12217.9786,W,3.37,253.61,110711,,,A*74
$GPRMC,202725.000,A,3748.6710,N,12217.9786,W,3.38,241.16,110711,,,A*7C
$GPRMC,202726.000,A,3748.6708,N,12217.9774,W,2.93,214.52,110711,,,A*7B
$GPRMC,202727.000,A,3748.6702,N,12217.9758,W,2.50,195.19,110711,,,A*74
$GPRMC,202728.000,A,3748.6693,N,12217.9771,W,2.71,227.15,110711,,,A*7C
$GPRMC,202729.000,A,3748.6690,N,12217.9781,W,3.10,234.58,110711,,,A*7C
$GPRMC,202730.000,A,3748.6686,N,12217.9794,W,2.87,243.12,110711,,,A*76
$GPRMC,202731.000,A,3748.6675,N,12217.9815,W,2.56,252.95,110711,,,A*7E
$GPRMC,202732.000,A,3748.6666,N,12217.9825,W,2.90,239.94,110711,,,A*7A
$GPRMC,202733.000,A,3748.6652,N,12217.9835,W,3.43,205.48,110711,,,A*7C
$GPRMC,202734.000,A,3748.6642,N,12217.9831,W,3.35,197.19,110711,,,A*73
$GPRMC,202735.000,A,3748.6637,N,12217.9831,W,3.13,206.17,110711,,,A*71
$GPRMC,202736.000,A,3748.6634,N,12217.9834,W,2.57,220.35,110711,,,A*71
$GPRMC,202737.000,A,3748.6629,N,12217.9835,W,2.38,224.38,110711,,,A*7D
$GPRMC,202738.000,A,3748.6621,N,12217.9840,W,2.76,224.91,110711,,,A*71
$GPRMC,202739.000,A,3748.6611,N,12217.9841,W,2.60,220.82,110711,,,A*73
$GPRMC,202740.000,A,3748.6607,N,12217.9838,W,1.88,220.84,110711,,,A*77
$GPRMC,202741.000,A,3748.6605,N,12217.9840,W,2.13,195.23,110711,,,A*7A
$GPRMC,202742.000,A,3748.6599,N,12217.9851,W,2.91,221.32,110711,,,A*79
$GPRMC,202743.000,A,3748.6590,N,12217.9868,W,3.49,231.66,110711,,,A*7F
$GPRMC,202744.000,A,3748.6587,N,12217.9890,W,3.44,242.01,110711,,,A*71
$GPRMC,202745.000,A,3748.6580,N,12217.9907,W,3.86,235.38,110711,,,A*7C
$GPRMC,202746.000,A,3748.6579,N,12217.9912,W,2.79,250.23,110711,,,A*75
$GPRMC,202747.000,A,3748.6570,N,12217.9920,W,1.98,234.45,110711,,,A*72
$GPRMC,202748.000,A,3748.6567,N,12217.9923,W,2.23,227.25,110711,,,A*7F
$GPRMC,202749.000,A,3748.6563,N,12217.9929,W,2.23,227.25,110711,,,E*74
$GPRMC,202750.000,A,3748.6559,N,12217.9934,W,2.23,227.25,110711,,,E*79
$GPRMC,202751.000,A,3748.6567,N,12217.9947,W,0.96,248.08,110711,,,A*7F
$GPRMC,202752.000,A,3748.6564,N,12217.9941,W,1.18,204.66,110711,,,A*7E
$GPRMC,202753.000,A,3748.6570,N,12217.9955,W,2.15,247.79,110711,,,A*78
$GPRMC,202754.000,A,3748.6584,N,12217.9952,W,1.41,262.02,110711,,,A*7A
$GPRMC,202755.000,A,3748.6578,N,12217.9965,W,1.64,213.05,110711,,,A*7A
$GPRMC,202756.000,A,3748.6566,N,12217.9965,W,1.68,217.34,110711,,,A*7C
$GPRMC,202757.000,A,3748.6563,N,12217.9982,W,2.27,250.72,110711,,,A*78
$GPRMC,202758.000,A,3748.6561,N,12217.9976,W,2.16,245.77,110711,,,A*7D
$GPRMC,202759.000,A,3748.6559,N,12217.9953,W,1.49,229.00,110711,,,A*73
$GPRMC,202800.000,A,3748.6556,N,12217.9970,W,1.58,234.11,110711,,,A*72
$GPRMC,202801.000,A,3748.6545,N,12217.9960,W,1.34,197.79,110711,,,A*7E
$GPRMC,202802.000,A,3748.6537,N,12217.9932,W,1.57,201.19,110711,,,A*70
$GPRMC,202803.000,A,3748.6530,N,12217.9907,W,1.51,186.00,110711,,,A*72
$GPRMC,202804.000,A,3748.6526,N,12217.9892,W,1.57,182.51,110711,,,A*79
$GPRMC,202805.000,A,3748.6519,N,12217.9874,W,1.75,183.69,110711,,,A*76
$GPRMC,202806.000,A,3748.6513,N,12217.9857,W,1.83,163.54,110711,,,A*77
$GPRMC,202807.000,A,3748.6505,N,12217.9842,W,1.74,180.10,110711,,,A*70
$GPRMC,202808.000,A,3748.6498,N,12217.9837,W,1.89,190.83,110711,,,A*71
$GPRMC,202809.000,A,3748.6492,N,12217.9839,W,1.71,182.18,110711,,,A*72
$GPRMC,202810.000,A,3748.6486,N,12217.9840,W,1.73,197.36,110711,,,A*7B
$GPRMC,202811.000,A,3748.6482,N,12217.9841,W,1.52,198.86,110711,,,A*78
$GPRMC,202812.000,A,3748.6477,N,12217.9843,W,1.41,201.64,110711,,,A*7E
$GPRMC,202813.000,A,3748.6474,N,12217.9844,W,1.22,192.78,110711,,,A*7A
$GPRMC,202814.000,A,3748.6471,N,12217.9850,W,1.44,206.28,110711,,,A*76
$GPRMC,202815.000,A,3748.6470,N,12217.9856,W,1.18,225.41,110711,,,A*77
$GPRMC,202816.000,A,3748.6464,N,12217.9861,W,1.41,229.55,110711,,,A*70
$GPRMC,202817.000,A,3748.6461,N,12217.9859,W,0.60,204.82,110711,,,A*78
$GPRMC,202818.000,A,3748.6458,N,12217.9861,W,1.18,176.54,110711,,,A*75
$GPRMC,202819.000,A,3748.6454,N,12217.9862,W,1.35,186.51,110711,,,A*7E
$GPRMC,202820.000,A,3748.6453,N,12217.9864,W,0.36,89.87,110711,,,A*42
$GPRMC,202821.000,A,3748.6452,N,12217.9867,W,0.33,239.45,110711,,,A*73
$GPRMC,202822.000,A,3748.6452,N,12217.9871,W,0.70,288.79,110711,,,A*75
$GPRMC,202823.000,A,3748.6449,N,12217.9874,W,0.62,214.44,110711,,,A*73
$GPRMC,202824.000,A,3748.6447,N,12217.9883,W,0.89,251.60,110711,,,A*70
$GPRMC,202825.000,A,3748.6446,N,12217.9890,W,1.44,239.03,110711,,,A*79
$GPRMC,202826.000,A,3748.6438,N,12217.9899,W,2.62,227.45,110711,,,A*70
$GPRMC,202827.000,A,3748.6434,N,12217.9906,W,2.51,218.67,110711,,,A*76
$GPRMC,202828.000,A,3748.6427,N,12217.9914,W,2.36,224.64,110711,,,A*75
$GPRMC,202829.000,A,3748.6423,N,12217.9920,W,2.15,234.94,110711,,,A*78
$GPRMC,202830.000,A,3748.6418,N,12217.9925,W,2.46,218.00,110711,,,A*78
$GPRMC,202831.000,A,3748.6413,N,12217.9931,W,2.15,209.49,110711,,,A*7C
$GPRMC,202832.000,A,3748.6407,N,12217.9937,W,1.66,216.55,110711,,,A*78
$GPRMC,202833.000,A,3748.6403,N,12217.9944,W,2.19,215.00,110711,,,A*71
$GPRMC,202834.000,A,3748.6398,N,12217.9947,W,2.50,212.35,110711,,,A*7C
$GPRMC,202835.000,A,3748.6389,N,12217.9955,W,2.32,220.91,110711,,,A*75
$GPRMC,202836.000,A,3748.6382,N,12217.9956,W,2.17,217.59,110711,,,A*79
$GPRMC,202837.000,A,3748.6379,N,12217.9965,W,1.52,224.39,110711,,,A*78
$GPRMC,202838.000,A,3748.6379,N,12217.9972,W,1.92,250.70,110711,,,A*73
$GPRMC,202839.000,A,3748.6381,N,12217.9973,W,2.13,245.03,110711,,,A*7E
$GPRMC,202840.000,A,3748.6382,N,12217.9976,W,1.69,273.10,110711,,,A*7F
$GPRMC,202841.000,A,3748.6381,N,12217.9984,W,1.92,242.65,110711,,,A*74
$GPRMC,202842.000,A,3748.6379,N,12218.0005,W,3.36,243.16,110711,,,A*7F
$GPRMC,202843.000,A,3748.6381,N,12218.0021,W,3.66,258.46,110711,,,A*75
$GPRMC,202844.000,A,3748.6380,N,12218.0025,W,3.09,261.22,110711,,,A*76
$GPRMC,202845.000,A,3748.6383,N,12218.0044,W,3.46,286.69,110711,,,A*7E
$GPRMC,202846.000,A,3748.6383,N,12218.0046,W,2.48,285.60,110711,,,A*7A
$GPRMC,202847.000,A,3748.6387,N,12218.0033,W,2.02,292.12,110711,,,A*70
$GPRMC,202848.000,A,3748.6389,N,12218.0040,W,2.02,292.12,110711,,,E*71
$GPRMC,202849.000,A,3748.6386,N,12218.0036,W,1.31,293.67,110711,,,A*7A
$GPRMC,202850.000,A,3748.6380,N,12218.0056,W,2.88,256.85,110711,,,A*76
$GPRMC,202851.000,A,3748.6373,N,12218.0066,W,2.85,239.78,110711,,,A*7E
$GPRMC,202852.000,A,3748.6368,N,12218.0058,W,2.29,245.48,110711,,,A*74
$GPRMC,202853.000,A,3748.6368,N,12218.0077,W,3.98,260.69,110711,,,A*77
$GPRMC,202854.000,A,3748.6372,N,12218.0103,W,4.93,279.24,110711,,,A*74
$GPRMC,202855.000,A,3748.6359,N,12218.0129,W,5.54,273.82,110711,,,A*78
$GPRMC,202856.000,A,3748.6342,N,12218.0134,W,4.06,269.86,110711,,,A*74
$GPRMC,202857.000,A,3748.6337,N,12218.0119,W,2.83,256.57,110711,,,A*73
$GPRMC,202858.000,A,3748.6334,N,12218.0117,W,2.02,257.62,110711,,,A*7F
$GPRMC,202859.000,A,3748.6333,N,12218.0096,W,1.56,222.92,110711,,,A*7E
$GPRMC,202900.000,A,3748.6315,N,12218.0091,W,2.74,218.15,110711,,,A*75
$GPRMC,202901.000,A,3748.6294,N,12218.0088,W,2.59,224.43,110711,,,A*77
$GPRMC,202902.000,A,3748.6282,N,12218.0068,W,1.72,246.85,110711,,,A*79
$GPRMC,202903.000,A,3748.6275,N,12218.0068,W,1.95,235.18,110711,,,A*79
$GPRMC,202904.000,A,3748.6268,N,12218.0077,W,1.71,213.15,110711,,,A*7F
$GPRMC,202905.000,A,3748.6266,N,12218.0065,W,1.68,220.83,110711,,,A*74
$GPRMC,202906.000,A,3748.6263,N,12218.0071,W,1.07,225.13,110711,,,A*72
$GPRMC,202907.000,A,3748.6258,N,12218.0079,W,1.89,222.53,110711,,,A*76
$GPRMC,202908.000,A,3748.6256,N,12218.0082,W,2.97,223.84,110711,,,A*74
$GPRMC,202909.000,A,3748.6255,N,12218.0086,W,2.80,193.67,110711,,,A*71
$GPRMC,202910.000,A,3748.6252,N,12218.0087,W,2.41,178.43,110711,,,A*71
$GPRMC,202911.000,A,3748.6252,N,12218.0085,W,1.32,171.33,110711,,,A*7B
$GPRMC,202912.000,A,3748.6245,N,12218.0079,W,2.84,180.54,110711,,,A*7C
$GPRMC,202913.000,A,3748.6241,N,12218.0073,W,1.91,181.96,110711,,,A*7B
$GPRMC,202914.000,A,3748.6237,N,12218.0069,W,1.67,160.75,110711,,,A*7D
$GPRMC,202915.000,A,3748.6231,N,12218.0062,W,2.29,180.70,110711,,,A*73
$GPRMC,202916.000,A,3748.6221,N,12218.0060,W,2.36,178.30,110711,,,A*7E
$GPRMC,202917.000,A,3748.6214,N,12218.0060,W,2.17,198.77,110711,,,A*77
$GPRMC,202918.000,A,3748.6211,N,12218.0070,W,1.01,218.14,110711,,,A*76
$GPRMC,202919.000,A,3748.6206,N,12218.0090,W,1.95,260.66,110711,,,A*78
$GPRMC,202920.000,A,3748.6212,N,12218.0096,W,1.89,307.98,110711,,,A*7D
$GPRMC,202921.000,A,3748.6219,N,12218.0117,W,2.70,322.88,110711,,,A*7C
$GPRMC,202922.000,A,3748.6223,N,12218.0114,W,1.59,315.43,110711,,,A*7E
$GPRMC,202923.000,A,3748.6222,N,12218.0129,W,2.12,290.87,110711,,,A*78
$GPRMC,202924.000,A,3748.6218,N,12218.0129,W,1.48,273.85,110711,,,A*75
$GPRMC,202925.000,A,3748.6210,N,12218.0130,W,2.16,242.15,110711,,,A*77
$GPRMC,202926.000,A,3748.6187,N,12218.0126,W,2.20,194.80,110711,,,A*7F
$GPRMC,202927.000,A,3748.6172,N,12218.0122,W,2.65,205.09,110711,,,A*7B
$GPRMC,202928.000,A,3748.6165,N,12218.0126,W,2.65,205.09,110711,,,E*72
$GPRMC,202929.000,A,3748.6165,N,12218.0125,W,2.25,220.07,110711,,,A*79
$GPRMC,202930.000,A,3748.6161,N,12218.0121,W,1.74,173.04,110711,,,A*70
$GPRMC,202931.000,A,3748.6150,N,12218.0122,W,2.04,196.45,110711,,,A*7A
$GPRMC,202932.000,A,3748.6150,N,12218.0135,W,1.76,227.43,110711,,,A*76
$GPRMC,202933.000,A,3748.6137,N,12218.0129,W,1.61,212.44,110711,,,A*7C
$GPRMC,202934.000,A,3748.6129,N,12218.0117,W,1.34,199.32,110711,,,A*78
$GPRMC,202935.000,A,3748.6115,N,12218.0100,W,2.89,177.17,110711,,,A*72
$GPRMC,202936.000,A,3748.6107,N,12218.0099,W,2.89,177.17,110711,,,E*77
$GPRMC,202937.000,A,3748.6089,N,12218.0108,W,4.27,177.54,110711,,,A*79
$GPRMC,202938.000,A,3748.6068,N,12218.0087,W,4.80,167.39,110711,,,A*78
$GPRMC,202939.000,A,3748.6054,N,12218.0096,W,4.72,170.72,110711,,,A*72
$GPRMC,202940.000,A,3748.6043,N,12218.0107,W,4.76,182.73,110711,,,A*7B
$GPRMC,202941.000,A,3748.6034,N,12218.0123,W,3.26,186.01,110711,,,A*7F
$GPRMC,202942.000,A,3748.6034,N,12218.0142,W,2.60,205.30,110711,,,A*72
$GPRMC,202943.000,A,3748.6025,N,12218.0155,W,2.14,200.78,110711,,,A*7F
$GPRMC,202944.000,A,3748.6010,N,12218.0167,W,2.78,193.87,110711,,,A*7C
$GPRMC,202945.000,A,3748.5999,N,12218.0171,W,3.75,196.18,110711,,,A*7E
$GPRMC,202946.000,A,3748.5998,N,12218.0177,W,3.16,199.35,110711,,,A*7F
$GPRMC,202947.000,A,3748.6005,N,12218.0182,W,2.34,208.49,110711,,,A*7B
$GPRMC,202948.000,A,3748.6000,N,12218.0175,W,1.76,197.39,110711,,,A*7E
$GPRMC,202949.000,A,3748.5991,N,12218.0179,W,3.35,180.13,110711,,,A*7A
$GPRMC,202950.000,A,3748.5984,N,12218.0191,W,2.99,190.90,110711,,,A*7D
$GPRMC,202951.000,A,3748.5981,N,12218.0189,W,2.02,186.03,110711,,,A*7F
$GPRMC,202952.000,A,3748.5979,N,12218.0195,W,2.27,204.92,110711,,,A*70
$GPRMC,202953.000,A,3748.5971,N,12218.0199,W,2.49,209.98,110711,,,A*7A
$GPRMC,202954.000,A,3748.5956,N,12218.0208,W,3.58,194.97,110711,,,A*7A
$GPRMC,202955.000,A,3748.5943,N,12218.0203,W,2.97,175.42,110711,,,A*71
$GPRMC,202956.000,A,3748.5935,N,12218.0202,W,2.97,175.42,110711,,,E*76
$GPRMC,202957.000,A,3748.5927,N,12218.0202,W,2.97,175.42,110711,,,E*74
$GPRMC,202958.000,A,3748.5919,N,12218.0201,W,2.97,175.42,110711,,,E*75
$GPRMC,202959.000,A,3748.5898,N,12218.0214,W,4.82,193.10,110711,,,A*71
$GPRMC,203000.000,A,3748.5883,N,12218.0212,W,4.09,193.29,110711,,,A*70
$GPRMC,203001.000,A,3748.5872,N,12218.0215,W,4.09,193.29,110711,,,E*7C
$GPRMC,203002.000,A,3748.5861,N,12218.0219,W,4.09,193.29,110711,,,E*71
$GPRMC,203003.000,A,3748.5850,N,12218.0222,W,4.09,193.29,110711,,,E*7A
$GPRMC,203004.000,A,3748.5886,N,12218.0261,W,2.58,234.50,110711,,,A*77
$GPRMC,203005.000,A,3748.5882,N,12218.0268,W,2.58,234.50,110711,,,E*7F
$GPRMC,203006.000,A,3748.5878,N,12218.0276,W,2.58,234.50,110711,,,E*76
$GPRMC,203007.000,A,3748.5873,N,12218.0283,W,2.58,234.50,110711,,,E*76
$GPRMC,203008.000,A,3748.5869,N,12218.0290,W,2.58,234.50,110711,,,E*70
$GPRMC,203009.000,A,3748.5865,N,12218.0298,W,2.58,234.50,110711,,,E*75
$GPRMC,203010.000,A,3748.5861,N,12218.0305,W,2.58,234.50,110711,,,E*7C
$GPRMC,203011.000,A,3748.5857,N,12218.0313,W,2.58,234.50,110711,,,E*7F
$GPRMC,203012.000,A,3748.5782,N,12218.0253,W,4.88,182.75,110711,,,A*78
$GPRMC,203013.000,A,3748.5815,N,12218.0254,W,3.25,193.32,110711,,,A*7C
$GPRMC,203014.000,A,3748.5873,N,12218.0286,W,2.82,207.34,110711,,,A*70
$GPRMC,203015.000,A,3748.5875,N,12218.0320,W,2.65,210.39,110711,,,A*78
$GPRMC,203016.000,A,3748.5873,N,12218.0349,W,2.41,211.23,110711,,,A*7E
$GPRMC,203017.000,A,3748.5869,N,12218.0354,W,2.08,216.87,110711,,,A*7C
$GPRMC,203018.000,A,3748.5873,N,12218.0375,W,2.05,217.12,110711,,,A*7B
$GPRMC,203019.000,A,3748.5873,N,12218.0361,W,2.21,202.57,110711,,,A*7C
$GPRMC,203020.000,A,3748.5878,N,12218.0348,W,2.18,202.80,110711,,,A*76
$GPRMC,203021.000,A,3748.5873,N,12218.0345,W,1.99,205.85,110711,,,A*79
$GPRMC,203022.000,A,3748.5871,N,12218.0348,W,2.04,209.44,110711,,,A*73
$GPRMC,203023.000,A,3748.5864,N,12218.0355,W,2.24,213.44,110711,,,A*73
$GPRMC,203024.000,A,3748.5856,N,12218.0362,W,2.20,222.38,110711,,,A*7C
$GPRMC,203025.000,A,3748.5856,N,12218.0372,W,2.19,219.71,110711,,,A*73
$GPRMC,203026.000,A,3748.5853,N,12218.0380,W,2.49,214.06,110711,,,A*70
$GPRMC,203027.000,A,3748.5851,N,12218.0384,W,1.76,202.06,110711,,,A*7F
$GPRMC,203028.000,A,3748.5848,N,12218.0385,W,2.02,179.43,110711,,,A*77
$GPRMC,203029.000,A,3748.5845,N,12218.0389,W,2.07,204.08,110711,,,A*74
$GPRMC,203030.000,A,3748.5843,N,12218.0402,W,2.27,209.78,110711,,,A*76
$GPRMC,203031.000,A,3748.5848,N,12218.0433,W,1.97,215.32,110711,,,A*75
$GPRMC,203032.000,A,3748.5853,N,12218.0468,W,1.87,223.72,110711,,,A*72
$GPRMC,203033.000,A,3748.5853,N,12218.0471,W,0.84,194.34,110711,,,A*74
$GPRMC,203034.000,A,3748.5844,N,12218.0465,W,1.22,184.48,110711,,,A*77
$GPRMC,203035.000,A,3748.5826,N,12218.0450,W,1.26,195.49,110711,,,A*71
$GPRMC,203036.000,A,3748.5815,N,12218.0442,W,1.80,202.64,110711,,,A*7F
$GPRMC,203037.000,A,3748.5807,N,12218.0442,W,2.41,200.11,110711,,,A*73
$GPRMC,203038.000,A,3748.5804,N,12218.0454,W,2.44,210.97,110711,,,A*72
$GPRMC,203039.000,A,3748.5795,N,12218.0455,W,2.52,220.80,110711,,,A*77
$GPRMC,203040.000,A,3748.5787,N,12218.0459,W,2.38,233.82,110711,,,A*7A
$GPRMC,203041.000,A,3748.5783,N,12218.0469,W,2.33,244.83,110711,,,A*76
$GPRMC,203042.000,A,3748.5782,N,12218.0472,W,1.30,234.73,110711,,,A*76
$GPRMC,203043.000,A,3748.5782,N,12218.0479,W,1.23,259.31,110711,,,A*73
$GPRMC,203044.000,A,3748.5784,N,12218.0484,W,1.56,273.75,110711,,,A*7A
$GPRMC,203045.000,A,3748.5781,N,12218.0482,W,1.58,241.68,110711,,,A*7B
$GPRMC,203046.000,A,3748.5785,N,12218.0487,W,1.37,261.68,110711,,,A*72
$GPRMC,203047.000,A,3748.5785,N,12218.0488,W,2.17,266.21,110711,,,A*77
$GPRMC,203048.000,A,3748.5775,N,12218.0494,W,2.32,207.55,110711,,,A*79
$GPRMC,203049.000,A,3748.5765,N,12218.0498,W,2.14,208.69,110711,,,A*71
$GPRMC,203050.000,A,3748.5758,N,12218.0501,W,2.45,206.66,110711,,,A*73
$GPRMC,203051.000,A,3748.5740,N,12218.0498,W,2.35,205.32,110711,,,A*7F
$GPRMC,203052.000,A,3748.5737,N,12218.0504,W,2.70,223.58,110711,,,A*71
$GPRMC,203053.000,A,3748.5733,N,12218.0491,W,2.29,199.72,110711,,,A*7F
$GPRMC,203054.000,A,3748.5725,N,12218.0469,W,2.17,178.92,110711,,,A*74
$GPRMC,203055.000,A,3748.5722,N,12218.0461,W,2.35,179.15,110711,,,A*74
$GPRMC,203056.000,A,3748.5715,N,12218.0468,W,2.83,189.74,110711,,,A*7F
$GPRMC,203057.000,A,3748.5708,N,12218.0471,W,2.10,188.44,110711,,,A*72
$GPRMC,203058.000,A,3748.5703,N,12218.0475,W,2.26,195.92,110711,,,A*70
$GPRMC,203059.000,A,3748.5691,N,12218.0469,W,2.36,195.49,110711,,,A*71
$GPRMC,203100.000,A,3748.5684,N,12218.0472,W,2.68,189.42,110711,,,A*7F
$GPRMC,203101.000,A,3748.5674,N,12218.0474,W,1.96,176.93,110711,,,A*79
$GPRMC,203102.000,A,3748.5666,N,12218.0474,W,2.60,174.76,110711,,,A*7A
$GPRMC,203103.000,A,3748.5661,N,12218.0475,W,1.56,179.94,110711,,,A*7A
$GPRMC,203104.000,A,3748.5650,N,12218.0481,W,2.36,198.28,110711,,,A*79
$GPRMC,203105.000,A,3748.5641,N,12218.0485,W,2.11,191.74,110711,,,A*79
$GPRMC,203106.000,A,3748.5636,N,12218.0491,W,1.83,199.30,110711,,,A*7F
$GPRMC,203107.000,A,3748.5634,N,12218.0496,W,1.62,195.29,110711,,,A*70
$GPRMC,203108.000,A,3748.5633,N,12218.0487,W,1.60,130.61,110711,,,A*79
$GPRMC,203109.000,A,3748.5635,N,12218.0474,W,1.48,118.18,110711,,,A*7C
$GPRMC,203110.000,A,3748.5637,N,12218.0472,W,0.97,104.45,110711,,,A*76
$GPRMC,203111.000,A,3748.5638,N,12218.0479,W,0.61,104.30,110711,,,A*78
$GPRMC,203112.000,A,3748.5631,N,12218.0502,W,1.06,233.55,110711,,,A*7B
$GPRMC,203113.000,A,3748.5627,N,12218.0502,W,1.04,214.54,110711,,,A*7B
$GPRMC,203114.000,A,3748.5631,N,12218.0514,W,0.10,226.03,110711,,,A*7B
$GPRMC,203115.000,A,3748.5634,N,12218.0513,W,0.16,298.32,110711,,,A*79
$GPRMC,203116.000,A,3748.5631,N,12218.0514,W,0.74,109.03,110711,,,A*75
$GPRMC,203117.000,A,3748.5623,N,12218.0514,W,0.78,152.12,110711,,,A*75
$GPRMC,203118.000,A,3748.5613,N,12218.0509,W,0.50,145.18,110711,,,A*73
$GPRMC,203119.000,A,3748.5607,N,12218.0509,W,1.13,138.47,110711,,,A*71
$GPRMC,203120.000,A,3748.5599,N,12218.0512,W,1.37,182.39,110711,,,A*7B
$GPRMC,203121.000,A,3748.5593,N,12218.0514,W,1.28,199.09,110711,,,A*71
$GPRMC,203122.000,A,3748.5586,N,12218.0511,W,1.48,156.11,110711,,,A*7F
$GPRMC,203123.000,A,3748.5584,N,12218.0518,W,0.99,201.59,110711,,,A*75
$GPRMC,203124.000,A,3748.5581,N,12218.0524,W,1.32,236.61,110711,,,A*77
$GPRMC,203125.000,A,3748.5572,N,12218.0530,W,2.54,221.50,110711,,,A*78
$GPRMC,203126.000,A,3748.5554,N,12218.0531,W,3.15,211.58,110711,,,A*71
$GPRMC,203127.000,A,3748.5549,N,12218.0544,W,1.64,187.19,110711,,,A*73
$GPRMC,203128.000,A,3748.5544,N,12218.0544,W,1.58,235.00,110711,,,A*7C
$GPRMC,203129.000,A,3748.5540,N,12218.0548,W,2.05,220.33,110711,,,A*7A
$GPRMC,203130.000,A,3748.5539,N,12218.0561,W,1.40,224.65,110711,,,A*72
$GPRMC,203131.000,A,3748.5536,N,12218.0578,W,1.29,198.66,110711,,,A*7C
$GPRMC,203132.000,A,3748.5532,N,12218.0575,W,1.81,180.62,110711,,,A*79
$GPRMC,203133.000,A,3748.5527,N,12218.0574,W,2.26,198.04,110711,,,A*7A
$GPRMC,203134.000,A,3748.5524,N,12218.0584,W,2.54,211.25,110711,,,A*75
$GPRMC,203135.000,A,3748.5525,N,12218.0596,W,2.07,220.46,110711,,,A*77
$GPRMC,203136.000,A,3748.5525,N,12218.0608,W,2.00,232.47,110711,,,A*75
$GPRMC,203137.000,A,3748.5523,N,12218.0613,W,1.84,215.40,110711,,,A*75
$GPRMC,203138.000,A,3748.5520,N,12218.0617,W,2.03,203.24,110711,,,A*74
$GPRMC,203139.000,A,3748.5516,N,12218.0616,W,2.15,194.93,110711,,,A*77
$GPRMC,203140.000,A,3748.5510,N,12218.0622,W,2.36,198.87,110711,,,A*70
$GPRMC,203141.000,A,3748.5504,N,12218.0619,W,2.80,197.64,110711,,,A*73
$GPRMC,203142.000,A,3748.5496,N,12218.0609,W,1.86,191.63,110711,,,A*7F
$GPRMC,203143.000,A,3748.5485,N,12218.0595,W,2.27,201.83,110711,,,A*76
$GPRMC,203144.000,A,3748.5476,N,12218.0596,W,2.98,203.04,110711,,,A*77
$GPRMC,203145.000,A,3748.5464,N,12218.0603,W,2.89,203.71,110711,,,A*78
$GPRMC,203146.000,A,3748.5459,N,12218.0602,W,2.39,197.63,110711,,,A*72
$GPRMC,203147.000,A,3748.5451,N,12218.0601,W,2.12,202.97,110711,,,A*75
$GPRMC,203148.000,A,3748.5440,N,12218.0616,W,2.98,211.36,110711,,,A*77
$GPRMC,203149.000,A,3748.5435,N,12218.0635,W,3.06,193.50,110711,,,A*7A
$GPRMC,203150.000,A,3748.5443,N,12218.0690,W,3.15,205.85,110711,,,A*7A
$GPRMC,203151.000,A,3748.5437,N,12218.0692,W,2.28,202.19,110711,,,A*77
$GPRMC,203152.000,A,3748.5435,N,12218.0703,W,1.98,221.64,110711,,,A*7C
$GPRMC,203153.000,A,3748.5437,N,12218.0704,W,1.30,224.76,110711,,,A*7C
$GPRMC,203154.000,A,3748.5435,N,12218.0706,W,1.09,226.32,110711,,,A*73
$GPRMC,203155.000,A,3748.5438,N,12218.0708,W,2.00,250.61,110711,,,A*7C
$GPRMC,203156.000,A,3748.5439,N,12218.0715,W,2.07,238.62,110711,,,A*78
$GPRMC,203157.000,A,3748.5437,N,12218.0720,W,2.31,232.59,110711,,,A*76
$GPRMC,203158.000,A,3748.5433,N,12218.0724,W,2.37,220.32,110711,,,A*71
$GPRMC,203159.000,A,3748.5431,N,12218.0735,W,2.49,223.02,110711,,,A*7B
$GPRMC,203200.000,A,3748.5426,N,12218.0740,W,2.50,218.37,110711,,,A*76
$GPRMC,203201.000,A,3748.5419,N,12218.0746,W,2.41,214.79,110711,,,A*7B
$GPRMC,203202.000,A,3748.5418,N,12218.0757,W,2.45,216.52,110711,,,A*76
$GPRMC,203203.000,A,3748.5412,N,12218.0761,W,2.02,211.29,110711,,,A*70
$GPRMC,203204.000,A,3748.5408,N,12218.0763,W,2.08,209.39,110711,,,A*7C
$GPRMC,203205.000,A,3748.5406,N,12218.0767,W,2.31,198.60,110711,,,A*7A
$GPRMC,203206.000,A,3748.5405,N,12218.0758,W,2.34,177.18,110711,,,A*7D
$GPRMC,203207.000,A,3748.5400,N,12218.0745,W,2.50,149.46,110711,,,A*71
$GPRMC,203208.000,A,3748.5392,N,12218.0735,W,3.19,144.14,110711,,,A*73
$GPRMC,203209.000,A,3748.5391,N,12218.0740,W,2.52,170.82,110711,,,A*75
$GPRMC,203210.000,A,3748.5375,N,12218.0728,W,2.60,165.50,110711,,,A*73
$GPRMC,203211.000,A,3748.5362,N,12218.0731,W,2.46,175.91,110711,,,A*74
$GPRMC,203212.000,A,3748.5357,N,12218.0730,W,1.19,180.95,110711,,,A*77
$GPRMC,203213.000,A,3748.5358,N,12218.0735,W,0.28,346.77,110711,,,A*7B
$GPRMC,203214.000,A,3748.5356,N,12218.0739,W,1.20,38.84,110711,,,A*41
$GPRMC,203215.000,A,3748.5351,N,12218.0746,W,0.71,76.46,110711,,,A*4E
$GPRMC,203216.000,A,3748.5347,N,12218.0751,W,0.36,168.55,110711,,,A*73
$GPRMC,203217.000,A,3748.5340,N,12218.0748,W,0.82,174.63,110711,,,A*7A
$GPRMC,203218.000,A,3748.5335,N,12218.0752,W,0.43,154.26,110711,,,A*72
$GPRMC,203219.000,A,3748.5329,N,12218.0763,W,1.01,183.95,110711,,,A*79
$GPRMC,203220.000,A,3748.5323,N,12218.0778,W,1.74,209.73,110711,,,A*78
$GPRMC,203221.000,A,3748.5315,N,12218.0784,W,1.24,211.39,110711,,,A*7D
$GPRMC,203222.000,A,3748.5308,N,12218.0791,W,2.44,208.00,110711,,,A*71
$GPRMC,203223.000,A,3748.5293,N,12218.0774,W,2.20,200.42,110711,,,A*74
$GPRMC,203224.000,A,3748.5286,N,12218.0788,W,1.70,206.79,110711,,,A*7C
$GPRMC,203225.000,A,3748.5266,N,12218.0751,W,2.52,185.99,110711,,,A*72
$GPRMC,203226.000,A,3748.5260,N,12218.0739,W,2.36,172.91,110711,,,A*7B
