$ADVER,3080,2.3
$GPRMC,201741.418,A,3748.7970,N,12217.8816,W,0.16,26.12,110711,,,A*46
$GPGGA,201742.418,3748.7970,N,12217.8815,W,1,03,5.1,25.1,M,-25.1,M,,0000*59
$GPGSA,A,2,28,10,05,,,,,,,,,,5.2,5.1,1.0*3F
$GPGSV,3,1,12,28,55,242,32,05,22,278,38,10,19,225,40,08,63,343,28*7F
$GPGSV,3,2,12,07,60,053,25,13,30,147,20,19,29,058,24,01,20,236,*76
$GPGSV,3,3,12,26,20,317,32,11,08,111,20,03,07,038,22,17,03,189,*79
$GPRMC,201742.418,A,3748.7970,N,12217.8815,W,0.14,76.55,110711,,,A*42
$GPVTG,76.55,T,,M,0.14,N,0.3,K,N*35
$GPGGA,201743.418,3748.7969,N,12217.8812,W,1,03,5.1,25.1,M,-25.1,M,,0000*57
$GPGSA,A,2,28,10,05,,,,,,,,,,5.2,5.1,1.0*3F
$GPRMC,201743.418,A,3748.7969,N,12217.8812,W,0.72,101.90,110711,,,A*74
$GPVTG,101.90,T,,M,0.72,N,1.3,K,N*0C
$GPGGA,201744.418,3748.7969,N,12217.8811,W,1,03,5.1,25.1,M,-25.1,M,,0000*53
$GPGSA,A,2,28,10,05,,,,,,,,,,5.2,5.1,1.0*3F
$GPRMC,201744.418,A,3748.7969,N,12217.8811,W,0.50,250.52,110711,,,A*79
$GPVTG,250.52,T,,M,0.50,N,0.9,K,N*0E
$GPGGA,201745.418,3748.7970,N,12217.8808,W,1,03,5.1,25.1,M,-25.1,M,,0000*52
$GPGSA,A,2,28,10,05,,,,,,,,,,5.2,5.1,1.0*3F
$GPRMC,201745.418,A,3748.7970,N,12217.8808,W,0.39,254.36,110711,,,A*71
$GPVTG,254.36,T,,M,0.39,N,0.7,K,N*09
$GPGGA,201746.418,3748.7970,N,12217.8808,W,1,03,5.1,25.1,M,-25.1,M,,0000*51
$GPGSA,A,2,28,10,05,,,,,,,,,,5.2,5.1,1.0*3F
$GPRMC,201746.418,A,3748.7970,N,12217.8808,W,0.13,329.67,110711,,,A*75
$GPVTG,329.67,T,,M,0.13,N,0.2,K,N*0B
$GPGGA,201747.418,3748.7970,N,12217.8810,W,1,03,5.1,25.1,M,-25.1,M,,0000*59
$GPGSA,A,2,28,10,05,,,,,,,,,,5.2,5.1,1.0*3F
$GPGSV,3,1,12,28,55,242,33,05,22,278,38,10,19,225,40,08,63,343,29*7F
$GPGSV,3,2,12,07,60,054,30,13,30,147,34,19,29,058,24,01,20,236,*70
$GPGSV,3,3,12,26,20,317,29,11,08,111,20,03,07,038,26,17,03,189,*77
$GPRMC,201747.418,A,3748.7970,N,12217.8810,W,0.28,251.85,110711,,,A*77
$GPGGA,201748.418,3748.7969,N,12217.8813,W,1,03,5.1,25.1,M,-25.1,M,,0000*5D
$GPGSA,A,2,28,10,05,,,,,,,,,,5.2,5.1,1.0*3F
$GPRMC,201748.418,A,3748.7969,N,12217.8813,W,0.24,264.21,110711,,,A*77
$GPVTG,264.21,T,,M,0.24,N,0.4,K,N*03
$GPGGA,201749.418,3748.7968,N,12217.8815,W,1,03,5.1,25.1,M,-25.1,M,,0000*5B
$GPGSA,A,2,28,10,05,,,,,,,,,,5.2,5.1,1.0*3F
$GPRMC,201749.418,A,3748.7968,N,12217.8815,W,0.08,300.97,110711,,,A*71
$GPVTG,300.97,T,,M,0.08,N,0.1,K,N*06
$GPGGA,201750.418,3748.7968,N,12217.8817,W,1,03,5.1,25.1,M,-25.1,M,,0000*51
$GPGSA,A,2,28,10,05,,,,,,,,,,5.2,5.1,1.0*3F
$GPRMC,201750.418,A,3748.7968,N,12217.8817,W,0.34,245.04,110711,,,A*7E
$GPVTG,245.04,T,,M,0.34,N,0.6,K,N*04
$GPGGA,201751.418,3748.7968,N,12217.8819,W,1,03,5.1,25.1,M,-25.1,M,,0000*5E
$GPGSA,A,2,28,10,05,,,,,,,,,,5.2,5.1,1.0*3F
$GPRMC,201751.418,A,3748.7968,N,12217.8819,W,0.26,233.57,110711,,,A*75
$GPVTG,233.57,T,,M,0.26,N,0.5,K,N*03
$GPGGA,201752.418,3748.7967,N,12217.8820,W,1,03,5.1,25.1,M,-25.1,M,,0000*58
$GPGSA,A,2,28,10,05,,,,,,,,,,5.2,5.1,1.0*3F
$GPGSV,3,1,12,28,55,242,35,05,22,278,39,10,19,225,39,08,63,343,24*7B
$GPGSV,3,2,12,07,60,054,31,13,30,147,29,19,29,058,18,01,20,236,*72
$GPGSV,3,3,12,26,20,317,29,11,08,111,18,03,07,038,25,17,03,189,*7F
$GPRMC,201752.418,A,3748.7967,N,12217.8820,W,0.46,256.83,110711,,,A*7F
$GPVTG,256.83,T,,M,0.46,N,0.8,K,N*02
$GPGGA,201753.418,3748.7967,N,12217.8820,W,1,03,5.1,25.1,M,-25.1,M,,0000*59
$GPGSA,A,2,28,10,05,,,,,,,,,,5.2,5.1,1.0*3F
$GPRMC,201753.418,A,3748.7967,N,12217.8820,W,0.23,267.57,110711,,,A*76
$GPVTG,267.57,T,,M,0.23,N,0.4,K,N*06
$GPGGA,201754.418,3748.7967,N,12217.8820,W,1,03,5.1,25.1,M,-25.1,M,,0000*5E
$GPGSA,A,2,28,10,05,,,,,,,,,,5.2,5.1,1.0*3F
$GPRMC,201754.418,A,3748.7967,N,12217.8820,W,0.31,259.31,110711,,,A*7F
$GPVTG,259.31,T,,M,0.31,N,0.6,K,N*0A
$GPGGA,201755.418,3748.7967,N,12217.8820,W,1,03,5.1,25.1,M,-25.1,M,,0000*5F
$GPGSA,A,2,28,10,05,,,,,,,,,,5.2,5.1,1.0*3F
$GPRMC,201755.418,A,3748.7967,N,12217.8820,W,0.27,266.48,110711,,,A*7B
$GPVTG,266.48,T,,M,0.27,N,0.5,K,N*0C
$GPGGA,201756.418,3748.7967,N,12217.8819,W,1,03,5.1,25.1,M,-25.1,M,,0000*56
$GPGSA,A,2,28,10,05,,,,,,,,,,5.2,5.1,1.0*3F
$GPRMC,201756.418,A,3748.7967,N,12217.8819,W,0.03,282.99,110711,,,A*72
$GPVTG,282.99,T,,M,0.03,N,0.1,K,N*08
$GPGGA,201757.418,3748.7967,N,12217.8819,W,1,03,5.1,25.1,M,-25.1,M,,0000*57
$GPGSA,A,2,28,10,05,,,,,,,,,,5.2,5.1,1.0*3F
$GPGSV,3,1,12,28,55,242,37,05,22,278,39,10,19,225,39,08,63,343,17*79
$GPGSV,3,2,12,07,60,054,30,13,30,147,29,19,29,058,17,01,20,236,*7C
$GPGSV,3,3,12,26,20,317,30,11,08,111,19,03,07,038,26,17,03,189,*75
$GPRMC,201757.418,A,3748.7967,N,12217.8819,W,0.60,254.53,110711,,,A*7B
$GPVTG,254.53,T,,M,0.60,N,1.1,K,N*01
$GPGGA,201758.418,3748.7967,N,12217.8819,W,1,03,5.1,25.1,M,-25.1,M,,0000*58
$GPGSA,A,2,28,10,05,,,,,,,,,,5.2,5.1,1.0*3F
$GPRMC,201758.418,A,3748.7967,N,12217.8819,W,0.20,271.90,110711,,,A*78
$GPVTG,271.90,T,,M,0.20,N,0.4,K,N*09
$GPGGA,201759.418,3748.7967,N,12217.8819,W,1,03,5.1,25.1,M,-25.1,M,,0000*59
$GPGSA,A,2,28,10,05,,,,,,,,,,5.2,5.1,1.0*3F
$GPRMC,201759.418,A,3748.7967,N,12217.8819,W,0.35,255.52,110711,,,A*75
$GPVTG,255.52,T,,M,0.35,N,0.7,K,N*06
$GPGGA,201800.418,3748.7967,N,12217.8819,W,1,03,5.1,25.1,M,-25.1,M,,0000*5A
$GPGSA,A,2,28,10,05,,,,,,,,,,5.2,5.1,1.0*3F
$GPRMC,201800.418,A,3748.7967,N,12217.8819,W,0.32,329.67,110711,,,A*7D
$GPVTG,329.67,T,,M,0.32,N,0.6,K,N*0C
$GPGGA,201801.418,3748.7967,N,12217.8820,W,1,03,5.1,25.1,M,-25.1,M,,0000*51
$GPGSA,A,2,28,10,05,,,,,,,,,,5.2,5.1,1.0*3F
$GPRMC,201801.418,A,3748.7967,N,12217.8820,W,0.26,295.34,110711,,,A*73
$GPVTG,295.34,T,,M,0.26,N,0.5,K,N*0A
$GPGGA,201802.418,3748.7967,N,12217.8820,W,1,03,5.1,25.1,M,-25.1,M,,0000*52
$GPGSA,A,2,28,10,05,,,,,,,,,,5.2,5.1,1.0*3F
$GPGSV,3,1,12,28,55,242,37,05,22,278,39,10,19,225,39,08,63,343,30*7C
$GPGSV,3,2,12,07,60,054,23,13,30,147,29,19,29,058,22,01,20,236,*78
$GPGSV,3,3,12,26,20,317,30,11,08,111,19,03,07,038,23,17,03,189,*70
$GPRMC,201802.418,A,3748.7967,N,12217.8820,W,0.36,216.40,110711,,,A*79
$GPGGA,201803.418,3748.7967,N,12217.8820,W,1,03,5.1,25.1,M,-25.1,M,,0000*53
$GPGSA,A,2,28,10,05,,,,,,,,,,5.2,5.1,1.0*3F
$GPRMC,201803.418,A,3748.7967,N,12217.8820,W,0.17,343.76,110711,,,A*7F
$GPVTG,343.76,T,,M,0.17,N,0.3,K,N*02
$GPGGA,201804.418,3748.7966,N,12217.8821,W,1,03,5.1,25.1,M,-25.1,M,,0000*54
$GPGSA,A,2,28,10,05,,,,,,,,,,5.2,5.1,1.0*3F
$GPRMC,201804.418,A,3748.7966,N,12217.8821,W,0.04,243.04,110711,,,A*7E
$GPVTG,243.04,T,,M,0.04,N,0.1,K,N*06
$GPGGA,201805.418,3748.7966,N,12217.8821,W,1,03,5.1,25.1,M,-25.1,M,,0000*55
$GPGSA,A,2,28,10,05,,,,,,,,,,5.2,5.1,1.0*3F
$GPRMC,201805.418,A,3748.7966,N,12217.8821,W,0.25,253.13,110711,,,A*7B
$GPVTG,253.13,T,,M,0.25,N,0.5,K,N*06
$GPGGA,201806.418,3748.7966,N,12217.8821,W,1,03,5.1,25.1,M,-25.1,M,,0000*56
$GPGSA,A,2,28,10,05,,,,,,,,,,5.2,5.1,1.0*3F
$GPRMC,201806.418,A,3748.7966,N,12217.8821,W,0.10,94.56,110711,,,A*46
$GPVTG,94.56,T,,M,0.10,N,0.2,K,N*3F
$GPGGA,201807.418,3748.7966,N,12217.8820,W,1,03,5.1,25.1,M,-25.1,M,,0000*56
$GPGSA,A,2,28,10,05,,,,,,,,,,5.2,5.1,1.0*3F
$GPGSV,3,1,12,28,55,242,37,05,22,278,40,10,19,225,38,08,63,343,29*7B
$GPGSV,3,2,12,07,60,054,28,13,30,147,21,19,29,058,25,01,20,236,*7C
$GPGSV,3,3,12,26,20,317,24,11,08,111,19,03,07,038,27,17,03,189,*71
$GPRMC,201807.418,A,3748.7966,N,12217.8820,W,0.16,14.07,110711,,,A*4C
$GPVTG,14.07,T,,M,0.16,N,0.3,K,N*34
$GPGGA,201808.418,3748.7966,N,12217.8820,W,1,03,5.1,25.1,M,-25.1,M,,0000*59
$GPGSA,A,2,28,10,05,,,,,,,,,,5.2,5.1,1.0*3F
$GPRMC,201808.418,A,3748.7966,N,12217.8820,W,0.17,269.72,110711,,,A*78
$GPVTG,269.72,T,,M,0.17,N,0.3,K,N*0F
$GPGGA,201809.418,3748.7966,N,12217.8820,W,1,03,5.1,25.1,M,-25.1,M,,0000*58
$GPGSA,A,2,28,10,05,,,,,,,,,,5.2,5.1,1.0*3F
$GPRMC,201809.418,A,3748.7966,N,12217.8820,W,0.20,278.71,110711,,,A*7E
$GPVTG,278.71,T,,M,0.20,N,0.4,K,N*0F
$GPGGA,201810.418,3748.7966,N,12217.8820,W,1,03,5.1,25.1,M,-25.1,M,,0000*50
$GPGSA,A,2,28,10,05,,,,,,,,,,5.2,5.1,1.0*3F
$GPRMC,201810.418,A,3748.7966,N,12217.8820,W,0.15,327.36,110711,,,A*78
$GPVTG,327.36,T,,M,0.15,N,0.3,K,N*06
$GPGGA,201811.418,3748.7966,N,12217.8820,W,1,03,5.1,25.1,M,-25.1,M,,0000*51
$GPGSA,A,2,28,10,05,,,,,,,,,,5.2,5.1,1.0*3F
$GPRMC,201811.418,A,3748.7966,N,12217.8820,W,0.36,251.81,110711,,,A*74
$GPVTG,251.81,T,,M,0.36,N,0.7,K,N*0F
$GPGGA,201812.418,3748.7966,N,12217.8820,W,1,03,5.1,25.1,M,-25.1,M,,0000*52
$GPGSA,A,2,28,10,05,,,,,,,,,,5.2,5.1,1.0*3F
$GPGSV,3,1,12,28,55,242,37,05,22,278,41,10,19,225,38,08,63,343,22*71
$GPGSV,3,2,12,07,60,054,21,13,30,147,22,19,29,058,23,01,20,236,*70
$GPGSV,3,3,12,26,20,317,24,11,08,111,18,03,07,038,32,17,03,189,*74
$GPRMC,201812.418,A,3748.7966,N,12217.8820,W,0.14,238.79,110711,,,A*7F
$GPVTG,238.79,T,,M,0.14,N,0.3,K,N*03
$GPGGA,201813.418,3748.7966,N,12217.8820,W,1,03,5.1,25.1,M,-25.1,M,,0000*53
$GPGSA,A,2,28,10,05,,,,,,,,,,5.2,5.1,1.0*3F
$GPRMC,201813.418,A,3748.7966,N,12217.8820,W,0.19,252.75,110711,,,A*73
$GPVTG,252.75,T,,M,0.19,N,0.4,K,N*09
$GPGGA,201814.418,3748.7967,N,12217.8819,W,1,03,5.1,25.1,M,-25.1,M,,0000*5F
$GPGSA,A,2,28,10,05,,,,,,,,,,5.2,5.1,1.0*3F
$GPRMC,201814.418,A,3748.7967,N,12217.8819,W,0.23,259.80,110711,,,A*77
$GPVTG,259.80,T,,M,0.23,N,0.4,K,N*01
$GPGGA,201815.418,3748.7967,N,12217.8819,W,1,03,5.1,25.1,M,-25.1,M,,0000*5E
$GPGSA,A,2,28,10,05,,,,,,,,,,5.2,5.1,1.0*3F
$GPRMC,201815.418,A,3748.7967,N,12217.8819,W,0.66,265.03,110711,,,A*73
$GPVTG,265.03,T,,M,0.66,N,1.2,K,N*03
$GPGGA,201816.418,3748.7968,N,12217.8819,W,1,03,5.1,25.1,M,-25.1,M,,0000*52
$GPGSA,A,2,28,10,05,,,,,,,,,,5.2,5.1,1.0*3F
$GPRMC,201816.418,A,3748.7968,N,12217.8819,W,0.32,358.04,110711,,,A*76
$GPVTG,358.04,T,,M,0.32,N,0.6,K,N*0F
$GPGGA,201827.418,3748.7931,N,12217.8875,W,2,03,5.1,25.1,M,-25.1,M,2.3,0000*7A
$GPGSA,A,2,28,10,05,,,,,,,,,,5.2,5.1,1.0*3F
$GPGSV,3,1,12,28,55,242,33,05,21,278,38,10,19,224,40,08,63,344,24*77
$GPGSV,3,2,12,07,60,054,27,13,30,147,31,19,29,058,19,01,20,237,*7C
$GPGSV,3,3,12,26,20,317,27,11,08,111,20,03,06,038,26,17,04,189,*7F
$GPRMC,201827.418,A,3748.7931,N,12217.8875,W,0.29,269.82,110711,,,D*70
$GPVTG,269.82,T,,M,0.29,N,0.5,K,N*0B
$GPGGA,201951.418,3748.7891,N,12217.8911,W,2,03,5.0,25.1,M,-25.1,M,3.3,0000*72
$GPGSA,A,2,28,10,05,,,,,,,,,,5.1,5.0,1.0*3D
$GPGSV,3,1,12,28,56,243,35,05,21,277,39,10,19,224,37,08,63,345,24*7C
$GPGSV,3,2,12,07,60,055,28,13,30,147,21,19,28,057,17,01,20,237,*73
$GPGSV,3,3,12,26,20,317,31,11,08,111,21,03,06,038,27,17,04,188,*79
$GPRMC,201951.418,A,3748.7891,N,12217.8911,W,0.50,302.86,110711,,,D*7E
$GPVTG,302.86,T,,M,0.50,N,0.9,K,N*01
$GPGGA,202057.418,3748.7760,N,12217.8112,W,2,04,2.0,-11.1,M,-25.1,M,11.3,0000*6D
$GPGSA,A,3,28,11,10,05,,,,,,,,,3.0,2.0,2.3*3C
$GPRMC,202057.418,A,3748.7760,N,12217.8112,W,1.91,53.29,110711,,,D*46
$GPVTG,53.29,T,,M,1.91,N,3.5,K,D*3A
$GPGGA,202058.418,3748.7829,N,12217.8128,W,2,04,2.0,-25.4,M,-25.1,M,12.3,0000*68
$GPGSA,A,3,28,11,10,05,,,,,,,,,3.0,2.0,2.3*3C
$GPRMC,202058.418,A,3748.7829,N,12217.8128,W,1.66,90.58,110711,,,D*43
$GPVTG,90.58,T,,M,1.66,N,3.1,K,D*3F
$GPGGA,202059.418,3748.7800,N,12217.8116,W,2,04,2.0,-13.2,M,-25.1,M,13.3,0000*6D
$GPGSA,A,3,28,11,10,05,,,,,,,,,3.0,2.0,2.3*3C
$GPRMC,202059.418,A,3748.7800,N,12217.8116,W,1.70,120.30,110711,,,D*77
$GPVTG,120.30,T,,M,1.70,N,3.1,K,D*0C
$GPGGA,202100.000,3748.7793,N,12217.8111,W,2,04,2.0,-10.9,M,-25.1,M,13.8,0000*6C
$GPGSA,A,3,28,11,10,05,,,,,,,,,3.0,2.0,2.3*3C
$GPRMC,202100.000,A,3748.7793,N,12217.8111,W,1.36,132.30,110711,,,D*74
$GPVTG,132.30,T,,M,1.36,N,2.5,K,D*08
$GPGGA,202101.000,3748.7790,N,12217.8107,W,2,04,2.0,-12.1,M,-25.1,M,1.8,0000*50
$GPGSA,A,3,28,11,10,05,,,,,,,,,3.0,2.0,2.3*3C
$GPGSV,3,1,12,28,56,244,23,05,21,277,26,10,18,224,27,11,09,110,40*76
$GPGSV,3,2,12,08,63,346,23,07,60,056,30,13,29,148,37,19,28,057,25*70
$GPGSV,3,3,12,26,21,317,23,01,21,237,,03,06,037,,17,05,188,*7E
$GPRMC,202101.000,A,3748.7790,N,12217.8107,W,1.86,111.69,110711,,,D*77
$GPVTG,111.69,T,,M,1.86,N,3.4,K,D*0E
$GPGGA,202102.000,3748.7784,N,12217.8106,W,2,04,2.0,-15.0,M,-25.1,M,2.8,0000*52
$GPGSA,A,3,28,11,10,05,,,,,,,,,3.0,2.0,2.3*3C
$GPRMC,202102.000,A,3748.7784,N,12217.8106,W,2.06,111.67,110711,,,D*75
$GPVTG,111.67,T,,M,2.06,N,3.8,K,D*07
$GPGGA,202103.000,3748.7765,N,12217.8080,W,2,05,1.8,-16.9,M,-25.1,M,3.8,0000*52
$GPGSA,A,3,28,11,10,05,13,,,,,,,,2.8,1.8,2.1*3E
$GPRMC,202103.000,A,3748.7765,N,12217.8080,W,1.66,118.86,110711,,,D*77
$GPVTG,118.86,T,,M,1.66,N,3.1,K,D*0D
$GPGGA,202104.000,3748.7762,N,12217.8064,W,2,05,1.8,-16.1,M,-25.1,M,4.8,0000*57
$GPGSA,A,3,28,11,10,05,13,,,,,,,,2.8,1.8,2.1*3E
$GPRMC,202104.000,A,3748.7762,N,12217.8064,W,1.74,117.32,110711,,,D*7E
$GPVTG,117.32,T,,M,1.74,N,3.2,K,D*0D
$GPGGA,202105.000,3748.7753,N,12217.8054,W,2,05,1.8,-15.4,M,-25.1,M,5.8,0000*50
$GPGSA,A,3,28,11,10,05,13,,,,,,,,2.8,1.8,2.1*3E
$GPRMC,202105.000,A,3748.7753,N,12217.8054,W,1.43,110.52,110711,,,D*7B
$GPVTG,110.52,T,,M,1.43,N,2.6,K,D*0D
$GPGGA,202106.000,3748.7751,N,12217.8044,W,2,05,1.8,-12.9,M,-25.1,M,6.8,0000*59
$GPGSA,A,3,28,11,10,05,13,,,,,,,,2.8,1.8,2.1*3E
$GPGSV,3,1,12,08,63,347,23,07,60,056,30,28,56,244,23,13,29,148,36*7E
$GPGSV,3,2,12,19,28,057,34,26,21,317,23,05,21,277,26,01,21,237,*7B
$GPGSV,3,3,12,10,18,224,26,11,09,110,30,03,06,037,21,17,05,188,*78
$GPRMC,202106.000,A,3748.7751,N,12217.8044,W,1.86,108.82,110711,,,D*76
$GPVTG,108.82,T,,M,1.86,N,3.4,K,D*03
$GPGGA,202107.000,3748.7747,N,12217.8039,W,2,05,1.8,-13.7,M,-25.1,M,7.8,0000*5B
$GPGSA,A,3,28,11,10,05,13,,,,,,,,2.8,1.8,2.1*3E
$GPRMC,202107.000,A,3748.7747,N,12217.8039,W,1.60,100.72,110711,,,D*75
$GPVTG,100.72,T,,M,1.60,N,3.0,K,D*08
$GPGGA,202108.000,3748.7741,N,12217.8035,W,2,05,1.8,-14.4,M,-25.1,M,8.8,0000*55
$GPGSA,A,3,28,11,10,05,13,,,,,,,,2.8,1.8,2.1*3E
$GPRMC,202108.000,A,3748.7741,N,12217.8035,W,1.29,97.36,110711,,,D*42
$GPVTG,97.36,T,,M,1.29,N,2.4,K,D*3F
$GPGGA,202109.000,3748.7733,N,12217.8033,W,2,05,1.8,-14.2,M,-25.1,M,9.8,0000*50
$GPGSA,A,3,28,11,10,05,13,,,,,,,,2.8,1.8,2.1*3E
$GPRMC,202109.000,A,3748.7733,N,12217.8033,W,1.35,109.31,110711,,,D*7C
$GPVTG,109.31,T,,M,1.35,N,2.5,K,D*02
$GPGGA,202110.000,3748.7723,N,12217.8028,W,2,05,1.8,-13.3,M,-25.1,M,10.8,0000*6D
$GPGSA,A,3,28,11,10,05,13,,,,,,,,2.8,1.8,2.1*3E
$GPRMC,202110.000,A,3748.7723,N,12217.8028,W,1.47,97.61,110711,,,D*49
$GPVTG,97.61,T,,M,1.47,N,2.7,K,D*36
$GPGGA,202111.000,3748.7722,N,12217.8021,W,2,05,1.8,-12.6,M,-25.1,M,11.8,0000*61
$GPGSA,A,3,28,11,10,05,13,,,,,,,,2.8,1.8,2.1*3E
$GPGSV,3,1,12,08,63,347,24,07,60,056,30,28,56,244,24,13,29,148,37*7F
$GPGSV,3,2,12,19,28,057,29,26,21,317,23,05,21,277,27,01,21,237,*76
$GPGSV,3,3,12,10,18,224,27,11,09,110,30,03,06,037,19,17,05,188,*72
$GPRMC,202111.000,A,3748.7722,N,12217.8021,W,1.06,109.86,110711,,,D*7A
$GPGGA,202112.000,3748.7720,N,12217.8016,W,2,05,1.8,-12.8,M,-25.1,M,12.8,0000*69
$GPGSA,A,3,28,11,10,05,13,,,,,,,,2.8,1.8,2.1*3E
$GPRMC,202112.000,A,3748.7720,N,12217.8016,W,1.10,129.62,110711,,,D*70
$GPVTG,129.62,T,,M,1.10,N,2.0,K,D*04
$GPGGA,202113.000,3748.7717,N,12217.8013,W,2,05,1.8,-13.6,M,-25.1,M,13.8,0000*67
$GPGSA,A,3,28,11,10,05,13,,,,,,,,2.8,1.8,2.1*3E
$GPRMC,202113.000,A,3748.7717,N,12217.8013,W,1.60,131.52,110711,,,D*7D
$GPVTG,131.52,T,,M,1.60,N,3.0,K,D*08
$GPGGA,202114.000,3748.7710,N,12217.8009,W,2,05,1.8,-13.0,M,-25.1,M,14.8,0000*6D
$GPGSA,A,3,28,11,10,05,13,,,,,,,,2.8,1.8,2.1*3E
$GPRMC,202114.000,A,3748.7710,N,12217.8009,W,1.62,120.51,110711,,,D*77
$GPVTG,120.51,T,,M,1.62,N,3.0,K,D*09
$GPGGA,202115.000,3748.7698,N,12217.8003,W,2,05,1.8,-12.8,M,-25.1,M,15.8,0000*6F
$GPGSA,A,3,28,11,10,05,13,,,,,,,,2.8,1.8,2.1*3E
$GPRMC,202115.000,A,3748.7698,N,12217.8003,W,1.74,121.84,110711,,,D*73
$GPVTG,121.84,T,,M,1.74,N,3.2,K,D*05
$GPGGA,202116.000,3748.7693,N,12217.7996,W,2,05,1.8,-13.2,M,-25.1,M,16.8,0000*65
$GPGSA,A,3,28,11,10,05,13,,,,,,,,2.8,1.8,2.1*3E
$GPGSV,3,1,12,08,63,347,24,07,60,057,31,28,56,244,24,13,29,148,37*7F
$GPGSV,3,2,12,19,28,056,28,26,21,317,23,01,21,238,,05,21,276,26*79
$GPGSV,3,3,12,10,18,224,28,11,09,110,19,03,05,037,18,17,05,188,*74
$GPRMC,202116.000,A,3748.7693,N,12217.7996,W,1.92,113.91,110711,,,D*7C
$GPVTG,113.91,T,,M,1.92,N,3.6,K,D*0C
$GPGGA,202117.000,3748.7681,N,12217.7991,W,2,05,1.8,-15.5,M,-25.1,M,17.8,0000*60
$GPGSA,A,3,28,11,10,05,13,,,,,,,,2.8,1.8,2.1*3E
$GPRMC,202117.000,A,3748.7681,N,12217.7991,W,2.05,137.91,110711,,,D*72
$GPVTG,137.91,T,,M,2.05,N,3.8,K,D*09
$GPGGA,202118.000,3748.7679,N,12217.7985,W,2,05,1.8,-16.6,M,-25.1,M,18.8,0000*62
$GPGSA,A,3,28,11,10,05,13,,,,,,,,2.8,1.8,2.1*3E
$GPRMC,202118.000,A,3748.7679,N,12217.7985,W,2.03,140.18,110711,,,D*78
$GPVTG,140.18,T,,M,2.03,N,3.8,K,D*0E
$GPGGA,202119.000,3748.7678,N,12217.7979,W,2,05,1.8,-16.8,M,-25.1,M,12.8,0000*65
$GPGSA,A,3,28,11,10,05,13,,,,,,,,2.8,1.8,2.1*3E
$GPRMC,202119.000,A,3748.7678,N,12217.7979,W,1.71,125.50,110711,,,D*72
$GPVTG,125.50,T,,M,1.71,N,3.2,K,D*0D
$GPGGA,202120.000,3748.7674,N,12217.7973,W,2,05,1.8,-16.2,M,-25.1,M,13.8,0000*62
$GPGSA,A,3,28,11,10,05,13,,,,,,,,2.8,1.8,2.1*3E
$GPRMC,202120.000,A,3748.7674,N,12217.7973,W,1.51,120.17,110711,,,D*7A
$GPVTG,120.17,T,,M,1.51,N,2.8,K,D*02
$GPGGA,202121.000,3748.7675,N,12217.7969,W,2,05,1.8,-16.9,M,-25.1,M,14.8,0000*65
$GPGSA,A,3,28,11,10,05,13,,,,,,,,2.8,1.8,2.1*3E
$GPGSV,3,1,12,08,63,347,24,07,60,057,31,28,56,244,24,13,29,148,37*7F
$GPGSV,3,2,12,19,28,056,35,26,21,317,23,01,21,238,,05,21,276,26*75
$GPGSV,3,3,12,10,18,224,27,11,09,110,24,03,05,037,18,17,05,188,*75
$GPRMC,202121.000,A,3748.7675,N,12217.7969,W,1.43,100.96,110711,,,D*79
$GPVTG,100.96,T,,M,1.43,N,2.6,K,D*04
$GPGGA,202122.000,3748.7675,N,12217.7964,W,2,05,1.8,-16.9,M,-25.1,M,15.8,0000*6A
$GPGSA,A,3,28,11,10,05,13,,,,,,,,2.8,1.8,2.1*3E
$GPRMC,202122.000,A,3748.7675,N,12217.7964,W,1.51,118.76,110711,,,D*73
$GPVTG,118.76,T,,M,1.51,N,2.8,K,D*0E
$GPGGA,202123.000,3748.7676,N,12217.7957,W,2,05,1.8,-15.4,M,-25.1,M,16.8,0000*65
$GPGSA,A,3,28,11,10,05,13,,,,,,,,2.8,1.8,2.1*3E
$GPRMC,202123.000,A,3748.7676,N,12217.7957,W,1.69,99.38,110711,,,D*48
$GPVTG,99.38,T,,M,1.69,N,3.1,K,D*3F
$GPGGA,202124.000,3748.7672,N,12217.7950,W,2,05,1.8,-14.3,M,-25.1,M,17.8,0000*66
$GPGSA,A,3,28,11,10,05,13,,,,,,,,2.8,1.8,2.1*3E
$GPRMC,202124.000,A,3748.7672,N,12217.7950,W,1.59,121.07,110711,,,D*71
$GPVTG,121.07,T,,M,1.59,N,2.9,K,D*0B
$GPGGA,202125.000,3748.7669,N,12217.7942,W,1,05,1.8,-12.5,M,-25.1,M,,0000*7D
$GPGSA,A,3,28,11,10,05,13,,,,,,,,2.8,1.8,2.1*3E
$GPRMC,202125.000,A,3748.7669,N,12217.7942,W,1.83,136.31,110711,,,A*78
$GPVTG,136.31,T,,M,1.83,N,3.4,K,A*06
$GPGGA,202126.000,3748.7664,N,12217.7937,W,1,05,1.8,-12.7,M,-25.1,M,,0000*73
$GPGSA,A,3,28,11,10,05,13,,,,,,,,2.8,1.8,2.1*3E
$GPGSV,3,1,12,08,63,347,24,07,60,057,31,28,56,244,23,13,29,148,37*78
$GPGSV,3,2,12,19,28,056,25,26,21,317,25,01,21,238,,05,21,276,25*71
$GPGSV,3,3,12,10,18,224,23,11,09,110,19,03,05,037,19,17,05,188,*7E
$GPVTG,134.01,T,,M,1.98,N,3.7,K,A*0E
$GPGGA,202127.000,3748.7666,N,12217.7926,W,1,06,1.4,-11.3,M,-25.1,M,,0000*78
$GPGSA,A,3,28,11,07,10,05,13,,,,,,,2.2,1.4,1.7*3A
$GPRMC,202127.000,A,3748.7666,N,12217.7926,W,2.04,138.72,110711,,,A*72
$GPVTG,138.72,T,,M,2.04,N,3.8,K,A*0F
$GPGGA,202128.000,3748.7666,N,12217.7915,W,1,06,1.4,-9.9,M,-25.1,M,,0000*44
$GPGSA,A,3,28,11,07,10,05,13,,,,,,,2.2,1.4,1.7*3A
$GPRMC,202128.000,A,3748.7666,N,12217.7915,W,2.35,126.48,110711,,,A*79
$GPVTG,126.48,T,,M,2.35,N,4.3,K,A*07
$GPGGA,202129.000,3748.7664,N,12217.7899,W,1,06,1.4,-9.7,M,-25.1,M,,0000*4C
$GPGSA,A,3,28,11,07,10,05,13,,,,,,,2.2,1.4,1.7*3A
$GPRMC,202129.000,A,3748.7664,N,12217.7899,W,2.25,126.16,110711,,,A*75
$GPVTG,126.16,T,,M,2.25,N,4.2,K,A*0C
$GPGGA,202130.000,3748.7661,N,12217.7890,W,2,06,1.4,-8.5,M,-25.1,M,1.8,0000*6F
$GPGSA,A,3,28,11,07,10,05,13,,,,,,,2.2,1.4,1.7*3A
$GPRMC,202130.000,A,3748.7661,N,12217.7890,W,2.01,113.82,110711,,,D*79
$GPVTG,113.82,T,,M,2.01,N,3.7,K,D*06
$GPGGA,202131.000,3748.7659,N,12217.7879,W,2,06,1.4,-8.9,M,-25.1,M,2.8,0000*6D
$GPGSA,A,3,28,11,07,10,05,13,,,,,,,2.2,1.4,1.7*3A
$GPGSV,3,1,12,08,63,347,22,07,60,057,30,28,56,244,23,13,29,148,37*7F
$GPGSV,3,2,12,19,28,056,36,26,21,317,21,01,21,238,,05,21,276,21*73
$GPGSV,3,3,12,10,18,224,31,11,09,110,24,03,05,037,30,17,05,188,*78
$GPRMC,202131.000,A,3748.7659,N,12217.7879,W,2.00,123.05,110711,,,D*79
$GPVTG,123.05,T,,M,2.00,N,3.7,K,D*0B
$GPGGA,202132.000,3748.7660,N,12217.7865,W,2,06,1.4,-9.2,M,-25.1,M,3.8,0000*62
$GPGSA,A,3,28,11,07,10,05,13,,,,,,,2.2,1.4,1.7*3A
$GPRMC,202132.000,A,3748.7660,N,12217.7865,W,2.01,122.80,110711,,,D*70
$GPVTG,122.80,T,,M,2.01,N,3.7,K,D*06
$GPGGA,202133.000,3748.7657,N,12217.7857,W,2,06,1.4,-8.1,M,-25.1,M,1.8,0000*66
$GPGSA,A,3,28,11,07,10,05,13,,,,,,,2.2,1.4,1.7*3A
$GPRMC,202133.000,A,3748.7657,N,12217.7857,W,2.29,131.88,110711,,,D*74
$GPVTG,131.88,T,,M,2.29,N,4.2,K,D*04
$GPGGA,202134.000,3748.7653,N,12217.7848,W,2,06,1.4,-7.5,M,-25.1,M,1.8,0000*60
$GPGSA,A,3,28,11,07,10,05,13,,,,,,,2.2,1.4,1.7*3A
$GPRMC,202134.000,A,3748.7653,N,12217.7848,W,2.36,124.64,110711,,,D*71
$GPVTG,124.64,T,,M,2.36,N,4.4,K,D*0A
$GPGGA,202135.000,3748.7645,N,12217.7839,W,2,06,1.4,-6.8,M,-25.1,M,2.8,0000*6F
$GPGSA,A,3,28,11,07,10,05,13,,,,,,,2.2,1.4,1.7*3A
$GPRMC,202135.000,A,3748.7645,N,12217.7839,W,2.25,130.97,110711,,,D*7A
$GPVTG,130.97,T,,M,2.25,N,4.2,K,D*07
$GPGGA,202136.000,3748.7642,N,12217.7833,W,2,06,1.4,-8.4,M,-25.1,M,1.8,0000*60
$GPGSA,A,3,28,11,07,10,05,13,,,,,,,2.2,1.4,1.7*3A
$GPGSV,3,1,12,08,63,347,21,07,60,057,30,28,56,244,23,13,29,148,36*7D
$GPGSV,3,2,12,19,28,056,35,26,21,317,22,01,21,238,,05,21,276,22*70
$GPGSV,3,3,12,10,18,224,28,11,09,110,24,03,05,037,25,17,05,188,*74
$GPRMC,202136.000,A,3748.7642,N,12217.7833,W,2.41,121.25,110711,,,D*7F
$GPVTG,121.25,T,,M,2.41,N,4.5,K,D*0B
$GPGGA,202137.000,3748.7638,N,12217.7830,W,2,06,1.4,-8.8,M,-25.1,M,2.8,0000*60
$GPGSA,A,3,28,11,07,10,05,13,,,,,,,2.2,1.4,1.7*3A
$GPRMC,202137.000,A,3748.7638,N,12217.7830,W,1.94,131.32,110711,,,D*7C
$GPVTG,131.32,T,,M,1.94,N,3.6,K,D*03
$GPGGA,202138.000,3748.7634,N,12217.7825,W,2,06,1.4,-8.4,M,-25.1,M,1.8,0000*68
$GPGSA,A,3,28,11,07,10,05,13,,,,,,,2.2,1.4,1.7*3A
$GPRMC,202138.000,A,3748.7634,N,12217.7825,W,1.95,131.43,110711,,,D*7C
$GPVTG,131.43,T,,M,1.95,N,3.6,K,D*04
$GPGGA,202139.000,3748.7627,N,12217.7821,W,2,06,1.4,-7.7,M,-25.1,M,1.8,0000*63
$GPGSA,A,3,28,11,07,10,05,13,,,,,,,2.2,1.4,1.7*3A
$GPRMC,202139.000,A,3748.7627,N,12217.7821,W,1.90,133.03,110711,,,D*78
$GPVTG,133.03,T,,M,1.90,N,3.5,K,D*04
$GPGGA,202140.000,3748.7620,N,12217.7820,W,2,06,1.4,-7.4,M,-25.1,M,2.8,0000*6B
$GPGSA,A,3,28,11,07,10,05,13,,,,,,,2.2,1.4,1.7*3A
$GPRMC,202140.000,A,3748.7620,N,12217.7820,W,1.80,140.47,110711,,,D*75
$GPVTG,140.47,T,,M,1.80,N,3.3,K,D*07
$GPGGA,202141.000,3748.7617,N,12217.7815,W,2,06,1.4,-7.5,M,-25.1,M,3.8,0000*68
$GPGSA,A,3,28,11,07,10,05,13,,,,,,,2.2,1.4,1.7*3A
$GPGSV,3,1,12,08,63,347,21,07,60,057,28,28,56,244,21,13,29,148,37*77
$GPGSV,3,2,12,19,28,056,24,26,21,317,22,01,21,238,,05,21,276,27*75
$GPGSV,3,3,12,10,18,224,29,11,09,110,21,03,05,037,18,17,05,188,*7E
$GPRMC,202141.000,A,3748.7617,N,12217.7815,W,1.55,130.75,110711,,,D*78
$GPVTG,130.75,T,,M,1.55,N,2.9,K,D*02
$GPGGA,202142.000,3748.7612,N,12217.7810,W,2,06,1.4,-6.6,M,-25.1,M,1.8,0000*6B
$GPGSA,A,3,28,11,07,10,05,13,,,,,,,2.2,1.4,1.7*3A
$GPRMC,202142.000,A,3748.7612,N,12217.7810,W,1.37,134.08,110711,,,D*71
$GPVTG,134.08,T,,M,1.37,N,2.5,K,D*04
$GPGGA,202143.000,3748.7607,N,12217.7810,W,2,06,1.4,-6.7,M,-25.1,M,2.8,0000*6C
$GPGSA,A,3,28,11,07,10,05,13,,,,,,,2.2,1.4,1.7*3A
$GPRMC,202143.000,A,3748.7607,N,12217.7810,W,0.73,118.86,110711,,,D*7D
$GPVTG,118.86,T,,M,0.73,N,1.4,K,D*0F
$GPGGA,202144.000,3748.7606,N,12217.7810,W,2,06,1.4,-7.4,M,-25.1,M,3.8,0000*69
$GPGSA,A,3,28,11,07,10,05,13,,,,,,,2.2,1.4,1.7*3A
$GPRMC,202144.000,A,3748.7606,N,12217.7810,W,0.39,75.49,110711,,,D*4C
$GPVTG,75.49,T,,M,0.39,N,0.7,K,D*3A
$GPGGA,202145.000,3748.7609,N,12217.7809,W,2,06,1.4,-8.0,M,-25.1,M,4.8,0000*63
$GPGSA,A,3,28,11,07,10,05,13,,,,,,,2.2,1.4,1.7*3A
$GPRMC,202145.000,A,3748.7609,N,12217.7809,W,0.72,356.57,110711,,,D*78
$GPVTG,356.57,T,,M,0.72,N,1.3,K,D*0D
$GPGGA,202146.000,3748.7610,N,12217.7817,W,2,06,1.4,-7.1,M,-25.1,M,5.8,0000*68
$GPGSA,A,3,28,11,07,10,05,13,,,,,,,2.2,1.4,1.7*3A
$GPGSV,3,1,12,08,63,347,29,07,60,057,23,28,56,244,31,13,29,148,23*70
$GPGSV,3,2,12,19,28,056,17,26,21,317,36,01,21,238,,05,21,276,37*71
$GPGSV,3,3,12,10,18,224,29,11,09,110,16,03,05,037,16,17,05,188,*74
$GPRMC,202146.000,A,3748.7610,N,12217.7817,W,1.42,286.95,110711,,,D*7C
$GPGGA,202147.000,3748.7612,N,12217.7826,W,2,06,1.4,-6.0,M,-25.1,M,6.8,0000*6A
$GPGSA,A,3,28,11,07,10,05,13,,,,,,,2.2,1.4,1.7*3A
$GPRMC,202147.000,A,3748.7612,N,12217.7826,W,0.69,262.13,110711,,,D*71
$GPVTG,262.13,T,,M,0.69,N,1.3,K,D*01
$GPGGA,202148.000,3748.7615,N,12217.7834,W,2,06,1.4,-5.3,M,-25.1,M,7.8,0000*60
$GPGSA,A,3,28,11,07,10,05,13,,,,,,,2.2,1.4,1.7*3A
$GPRMC,202148.000,A,3748.7615,N,12217.7834,W,0.41,287.96,110711,,,D*76
$GPVTG,287.96,T,,M,0.41,N,0.8,K,D*07
$GPGGA,202149.000,3748.7616,N,12217.7839,W,2,05,1.7,-4.7,M,-25.1,M,8.8,0000*65
$GPGSA,A,3,28,07,10,05,13,,,,,,,,3.2,1.7,2.7*3B
$GPRMC,202149.000,A,3748.7616,N,12217.7839,W,0.42,8.04,110711,,,D*74
$GPVTG,8.04,T,,M,0.42,N,0.8,K,D*0A
$GPGGA,202150.000,3748.7618,N,12217.7841,W,2,06,1.4,-4.3,M,-25.1,M,9.8,0000*69
$GPGSA,A,3,28,11,07,10,05,13,,,,,,,2.2,1.4,1.7*3A
$GPRMC,202150.000,A,3748.7618,N,12217.7841,W,0.74,25.89,110711,,,D*42
$GPVTG,25.89,T,,M,0.74,N,1.4,K,D*38
$GPGGA,202151.000,3748.7620,N,12217.7840,W,2,03,4.8,-4.0,M,-25.1,M,10.8,0000*55
$GPGSA,A,2,28,10,05,,,,,,,,,,4.9,4.8,1.0*3D
$GPGSV,3,1,12,08,63,347,29,07,60,057,18,28,56,244,33,13,29,148,16*7C
$GPGSV,3,2,12,19,28,056,19,26,21,317,42,01,21,238,,05,21,276,38*73
$GPGSV,3,3,12,10,18,224,32,11,09,110,17,03,05,037,16,17,05,188,*7F
$GPRMC,202151.000,A,3748.7620,N,12217.7840,W,0.84,9.97,110711,,,D*77
$GPVTG,9.97,T,,M,0.84,N,1.6,K,D*04
$GPGGA,202152.000,3748.7625,N,12217.7839,W,2,06,1.4,-3.6,M,-25.1,M,11.8,0000*51
$GPGSA,A,3,28,11,07,10,05,13,,,,,,,2.2,1.4,1.7*3A
$GPRMC,202152.000,A,3748.7625,N,12217.7839,W,0.72,15.84,110711,,,D*49
$GPVTG,15.84,T,,M,0.72,N,1.3,K,D*37
$GPGGA,202153.000,3748.7627,N,12217.7840,W,2,05,1.7,-3.2,M,-25.1,M,12.8,0000*5B
$GPGSA,A,3,28,07,10,05,13,,,,,,,,3.2,1.7,2.7*3B
$GPRMC,202153.000,A,3748.7627,N,12217.7840,W,0.33,87.11,110711,,,D*46
$GPVTG,87.11,T,,M,0.33,N,0.6,K,D*31
$GPGGA,202154.000,3748.7629,N,12217.7845,W,2,06,1.4,-2.5,M,-25.1,M,13.8,0000*50
$GPGSA,A,3,28,11,07,10,05,13,,,,,,,2.2,1.4,1.7*3A
$GPRMC,202154.000,A,3748.7629,N,12217.7845,W,0.21,31.28,110711,,,D*4E
$GPVTG,31.28,T,,M,0.21,N,0.4,K,D*37
$GPGGA,202155.000,3748.7627,N,12217.7848,W,2,05,1.7,-2.4,M,-25.1,M,14.8,0000*54
$GPGSA,A,3,28,07,10,05,13,,,,,,,,3.2,1.7,2.7*3B
$GPRMC,202155.000,A,3748.7627,N,12217.7848,W,0.26,164.62,110711,,,D*74
$GPVTG,164.62,T,,M,0.26,N,0.5,K,D*0E
$GPGGA,202156.000,3748.7623,N,12217.7847,W,2,05,1.7,-2.6,M,-25.1,M,15.8,0000*5F
$GPGSA,A,3,28,07,10,05,13,,,,,,,,3.2,1.7,2.7*3B
$GPGSV,3,1,12,08,63,347,23,07,60,057,20,28,56,244,33,13,29,148,32*7B
$GPGSV,3,2,12,19,28,056,18,26,21,317,30,01,21,238,,05,21,276,38*77
$GPGSV,3,3,12,10,18,224,37,11,09,110,17,03,05,037,16,17,05,188,*7A
$GPRMC,202156.000,A,3748.7623,N,12217.7847,W,0.74,142.78,110711,,,D*74
$GPVTG,142.78,T,,M,0.74,N,1.4,K,D*06
$GPGGA,202157.000,3748.7615,N,12217.7847,W,2,05,1.7,-3.1,M,-25.1,M,16.8,0000*5E
$GPGSA,A,3,28,07,10,05,13,,,,,,,,3.2,1.7,2.7*3B
$GPRMC,202157.000,A,3748.7615,N,12217.7847,W,1.15,179.49,110711,,,D*7C
$GPVTG,179.49,T,,M,1.15,N,2.1,K,D*0C
$GPGGA,202158.000,3748.7607,N,12217.7846,W,2,05,1.7,-2.8,M,-25.1,M,17.8,0000*5A
$GPGSA,A,3,28,07,10,05,13,,,,,,,,3.2,1.7,2.7*3B
$GPRMC,202158.000,A,3748.7607,N,12217.7846,W,1.21,168.27,110711,,,D*7E
$GPVTG,168.27,T,,M,1.21,N,2.2,K,D*00
$GPGGA,202159.000,3748.7601,N,12217.7849,W,1,06,1.4,-1.4,M,-25.1,M,,0000*4E
$GPGSA,A,3,28,11,07,10,05,13,,,,,,,2.2,1.4,1.7*3A
$GPRMC,202159.000,A,3748.7601,N,12217.7849,W,0.52,248.60,110711,,,A*74
$GPVTG,248.60,T,,M,0.52,N,1.0,K,A*03
$GPGGA,202200.000,3748.7600,N,12217.7857,W,1,06,1.4,0.1,M,-25.1,M,,0000*66
$GPGSA,A,3,28,11,07,10,05,13,,,,,,,2.2,1.4,1.7*3A
$GPRMC,202200.000,A,3748.7600,N,12217.7857,W,0.55,258.17,110711,,,A*73
$GPVTG,258.17,T,,M,0.55,N,1.0,K,A*05
$GPGGA,202201.000,3748.7593,N,12217.7866,W,1,06,1.4,1.3,M,-25.1,M,,0000*6F
$GPGSA,A,3,28,11,07,10,05,13,,,,,,,2.2,1.4,1.7*3A
$GPGSV,3,1,12,08,63,347,24,07,60,057,20,28,56,244,32,13,29,148,24*7A
$GPGSV,3,2,12,19,28,056,19,26,21,317,38,01,21,238,,05,21,276,40*71
$GPGSV,3,3,12,10,18,224,36,11,09,110,17,03,05,037,16,17,05,188,*7B
$GPVTG,276.72,T,,M,0.10,N,0.2,K,A*08
$GPGGA,202202.000,3748.7591,N,12217.7870,W,1,06,1.4,1.8,M,-25.1,M,,0000*62
$GPGSA,A,3,28,11,07,10,05,13,,,,,,,2.2,1.4,1.7*3A
$GPRMC,202202.000,A,3748.7591,N,12217.7870,W,0.17,244.03,110711,,,A*71
$GPVTG,244.03,T,,M,0.17,N,0.3,K,A*09
$GPGGA,202203.000,3748.7590,N,12217.7875,W,1,07,1.0,1.5,M,-25.1,M,,0000*6F
$GPGSA,A,3,26,28,11,07,10,05,13,,,,,,1.9,1.0,1.6*33
$GPRMC,202203.000,A,3748.7590,N,12217.7875,W,0.53,246.67,110711,,,A*74
$GPVTG,246.67,T,,M,0.53,N,1.0,K,A*0B
$GPGGA,202204.000,3748.7593,N,12217.7874,W,1,07,1.0,1.8,M,-25.1,M,,0000*67
$GPGSA,A,3,26,28,11,07,10,05,13,,,,,,1.9,1.0,1.6*33
$GPRMC,202204.000,A,3748.7593,N,12217.7874,W,0.47,261.83,110711,,,A*7B
$GPVTG,261.83,T,,M,0.47,N,0.9,K,A*09
$GPGGA,202205.000,3748.7595,N,12217.7877,W,1,07,1.0,1.9,M,-25.1,M,,0000*62
$GPGSA,A,3,26,28,11,07,10,05,13,,,,,,1.9,1.0,1.6*33
$GPRMC,202205.000,A,3748.7595,N,12217.7877,W,0.27,243.76,110711,,,A*73
$GPVTG,243.76,T,,M,0.27,N,0.5,K,A*09
$GPGGA,202206.000,3748.7598,N,12217.7880,W,1,07,1.0,2.3,M,-25.1,M,,0000*6D
$GPGSA,A,3,26,28,11,07,10,05,13,,,,,,1.9,1.0,1.6*33
$GPGSV,3,1,12,08,64,348,19,07,59,057,23,28,57,244,32,13,28,148,24*75
$GPGSV,3,2,12,19,28,056,19,26,22,317,39,01,22,238,,05,21,276,39*7E
$GPGSV,3,3,12,10,18,223,35,11,09,110,18,03,05,037,16,17,05,188,*70
$GPRMC,202206.000,A,3748.7598,N,12217.7880,W,0.18,258.41,110711,,,A*77
$GPVTG,258.41,T,,M,0.18,N,0.3,K,A*0D
$GPGGA,202207.000,3748.7599,N,12217.7882,W,1,07,1.0,2.8,M,-25.1,M,,0000*64
$GPGSA,A,3,26,28,11,07,10,05,13,,,,,,1.9,1.0,1.6*33
$GPRMC,202207.000,A,3748.7599,N,12217.7882,W,0.28,248.71,110711,,,A*74
$GPVTG,248.71,T,,M,0.28,N,0.5,K,A*0A
$GPGGA,202208.000,3748.7602,N,12217.7888,W,1,07,1.0,3.4,M,-25.1,M,,0000*6D
$GPGSA,A,3,26,28,11,07,10,05,13,,,,,,1.9,1.0,1.6*33
$GPRMC,202208.000,A,3748.7602,N,12217.7888,W,0.34,254.68,110711,,,A*78
$GPVTG,254.68,T,,M,0.34,N,0.6,K,A*01
$GPGGA,202209.000,3748.7604,N,12217.7890,W,1,07,1.0,3.6,M,-25.1,M,,0000*61
$GPGSA,A,3,26,28,11,07,10,05,13,,,,,,1.9,1.0,1.6*33
$GPRMC,202209.000,A,3748.7604,N,12217.7890,W,0.13,264.09,110711,,,A*77
$GPVTG,264.09,T,,M,0.13,N,0.2,K,A*04
$GPGGA,202210.000,3748.7604,N,12217.7890,W,1,07,1.0,3.6,M,-25.1,M,,0000*69
$GPGSA,A,3,26,28,11,07,10,05,13,,,,,,1.9,1.0,1.6*33
$GPRMC,202210.000,A,3748.7604,N,12217.7890,W,0.16,93.04,110711,,,A*4D
$GPVTG,93.04,T,,M,0.16,N,0.3,K,A*37
$GPGGA,202211.000,3748.7603,N,12217.7892,W,1,07,1.0,3.3,M,-25.1,M,,0000*68
$GPGSA,A,3,26,28,11,07,10,05,13,,,,,,1.9,1.0,1.6*33
$GPGSV,3,1,12,08,64,348,34,07,59,057,31,28,57,244,33,13,28,148,25*79
$GPGSV,3,2,12,19,28,056,20,26,22,317,40,01,22,238,,05,21,276,39*7A
$GPGSV,3,3,12,10,18,223,36,11,09,110,18,03,05,037,17,17,05,188,*72
$GPRMC,202211.000,A,3748.7603,N,12217.7892,W,0.25,249.94,110711,,,A*75
$GPVTG,249.94,T,,M,0.25,N,0.5,K,A*0D
$GPGGA,202212.000,3748.7602,N,12217.7894,W,1,07,1.0,3.2,M,-25.1,M,,0000*6D
$GPGSA,A,3,26,28,11,07,10,05,13,,,,,,1.9,1.0,1.6*33
$GPRMC,202212.000,A,3748.7602,N,12217.7894,W,0.28,249.46,110711,,,A*73
$GPVTG,249.46,T,,M,0.28,N,0.5,K,A*0F
$GPGGA,202213.000,3748.7601,N,12217.7897,W,1,07,1.0,3.1,M,-25.1,M,,0000*6F
$GPGSA,A,3,26,28,11,07,10,05,13,,,,,,1.9,1.0,1.6*33
$GPRMC,202213.000,A,3748.7601,N,12217.7897,W,0.27,243.55,110711,,,A*75
$GPVTG,243.55,T,,M,0.27,N,0.5,K,A*08
$GPGGA,202214.000,3748.7601,N,12217.7899,W,1,07,1.0,3.0,M,-25.1,M,,0000*67
$GPGSA,A,3,26,28,11,07,10,05,13,,,,,,1.9,1.0,1.6*33
$GPRMC,202214.000,A,3748.7601,N,12217.7899,W,0.29,250.03,110711,,,A*73
$GPVTG,250.03,T,,M,0.29,N,0.5,K,A*07
$GPGGA,202215.000,3748.7601,N,12217.7901,W,1,07,1.0,3.0,M,-25.1,M,,0000*66
$GPGSA,A,3,26,28,11,07,10,05,13,,,,,,1.9,1.0,1.6*33
$GPRMC,202215.000,A,3748.7601,N,12217.7901,W,0.30,245.02,110711,,,A*7F
$GPVTG,245.02,T,,M,0.30,N,0.6,K,A*09
$GPGGA,202216.000,3748.7600,N,12217.7902,W,1,07,1.0,3.1,M,-25.1,M,,0000*66
$GPGSA,A,3,26,28,11,07,10,05,13,,,,,,1.9,1.0,1.6*33
$GPGSV,3,1,12,08,64,348,33,07,59,057,31,28,57,244,33,13,28,148,28*73
$GPGSV,3,2,12,19,28,056,23,26,22,317,40,01,22,238,,05,21,276,38*78
$GPGSV,3,3,12,10,18,223,31,11,09,110,17,03,05,037,17,17,05,188,*7A
$GPVTG,251.06,T,,M,0.22,N,0.4,K,A*09
$GPGGA,202217.000,3748.7601,N,12217.7903,W,1,07,1.0,3.2,M,-25.1,M,,0000*64
$GPGSA,A,3,26,28,11,07,10,05,13,,,,,,1.9,1.0,1.6*33
$GPRMC,202217.000,A,3748.7601,N,12217.7903,W,0.27,250.00,110711,,,A*7F
$GPVTG,250.00,T,,M,0.27,N,0.5,K,A*0A
$GPGGA,202218.000,3748.7601,N,12217.7902,W,1,07,1.0,3.0,M,-25.1,M,,0000*68
$GPGSA,A,3,26,28,11,07,10,05,13,,,,,,1.9,1.0,1.6*33
$GPRMC,202218.000,A,3748.7601,N,12217.7902,W,0.10,168.76,110711,,,A*7C
$GPVTG,168.76,T,,M,0.10,N,0.2,K,A*00
$GPGGA,202219.000,3748.7600,N,12217.7898,W,1,07,1.0,2.1,M,-25.1,M,,0000*6A
$GPGSA,A,3,26,28,11,07,10,05,13,,,,,,1.9,1.0,1.6*33
$GPRMC,202219.000,A,3748.7600,N,12217.7898,W,0.15,134.67,110711,,,A*72
$GPVTG,134.67,T,,M,0.15,N,0.3,K,A*0D
$GPGGA,202220.000,3748.7599,N,12217.7894,W,1,07,1.0,1.5,M,-25.1,M,,0000*68
$GPGSA,A,3,26,28,11,07,10,05,13,,,,,,1.9,1.0,1.6*33
$GPRMC,202220.000,A,3748.7599,N,12217.7894,W,0.51,88.14,110711,,,A*45
$GPVTG,88.14,T,,M,0.51,N,0.9,K,A*35
$GPGGA,202221.000,3748.7599,N,12217.7891,W,1,07,1.0,1.2,M,-25.1,M,,0000*6B
$GPGSA,A,3,26,28,11,07,10,05,13,,,,,,1.9,1.0,1.6*33
$GPGSV,3,1,12,08,64,348,29,07,59,057,21,28,57,244,33,13,28,148,29*78
$GPGSV,3,2,12,19,28,056,19,26,22,317,40,01,22,238,,05,21,276,38*71
$GPGSV,3,3,12,10,18,223,31,11,09,110,17,03,05,037,18,17,05,188,*75
$GPRMC,202221.000,A,3748.7599,N,12217.7891,W,0.41,82.10,110711,,,A*4E
$GPVTG,82.10,T,,M,0.41,N,0.8,K,A*3B
$GPGGA,202222.000,3748.7599,N,12217.7888,W,1,07,1.0,0.9,M,-25.1,M,,0000*6A
$GPGSA,A,3,26,28,11,07,10,05,13,,,,,,1.9,1.0,1.6*33
$GPRMC,202222.000,A,3748.7599,N,12217.7888,W,0.08,154.32,110711,,,A*72
$GPVTG,154.32,T,,M,0.08,N,0.1,K,A*05
$GPGGA,202223.000,3748.7599,N,12217.7887,W,1,07,1.0,0.6,M,-25.1,M,,0000*6B
$GPGSA,A,3,26,28,11,07,10,05,13,,,,,,1.9,1.0,1.6*33
$GPRMC,202223.000,A,3748.7599,N,12217.7887,W,0.29,239.70,110711,,,A*71
$GPVTG,239.70,T,,M,0.29,N,0.5,K,A*0C
$GPGGA,202224.000,3748.7599,N,12217.7887,W,1,07,1.0,0.3,M,-25.1,M,,0000*69
$GPGSA,A,3,26,28,11,07,10,05,13,,,,,,1.9,1.0,1.6*33
$GPRMC,202224.000,A,3748.7599,N,12217.7887,W,0.38,242.78,110711,,,A*72
$GPVTG,242.78,T,,M,0.38,N,0.7,K,A*0A
$GPGGA,202225.000,3748.7599,N,12217.7887,W,1,07,1.0,0.2,M,-25.1,M,,0000*69
$GPGSA,A,3,26,28,11,07,10,05,13,,,,,,1.9,1.0,1.6*33
$GPRMC,202225.000,A,3748.7599,N,12217.7887,W,0.17,208.18,110711,,,A*76
$GPVTG,208.18,T,,M,0.17,N,0.3,K,A*0B
$GPGGA,202226.000,3748.7600,N,12217.7892,W,1,07,1.0,0.9,M,-25.1,M,,0000*66
$GPGSA,A,3,26,28,11,07,10,05,13,,,,,,1.9,1.0,1.6*33
$GPGSV,3,1,12,08,64,348,29,07,59,057,23,28,57,244,33,13,28,148,26*75
$GPGSV,3,2,12,19,28,056,15,26,22,317,41,01,22,238,,05,21,276,38*7C
$GPGSV,3,3,12,10,18,223,32,11,09,110,18,03,05,037,18,17,05,188,*79
$GPRMC,202226.000,A,3748.7600,N,12217.7892,W,0.24,227.58,110711,,,A*7B
$GPVTG,227.58,T,,M,0.24,N,0.4,K,A*05
$GPGGA,202227.000,3748.7600,N,12217.7893,W,1,07,1.0,1.1,M,-25.1,M,,0000*6F
$GPGSA,A,3,26,28,11,07,10,05,13,,,,,,1.9,1.0,1.6*33
$GPRMC,202227.000,A,3748.7600,N,12217.7893,W,0.27,135.77,110711,,,A*75
$GPVTG,135.77,T,,M,0.27,N,0.5,K,A*0A
$GPGGA,202228.000,3748.7601,N,12217.7895,W,1,07,1.0,1.4,M,-25.1,M,,0000*62
$GPGSA,A,3,26,28,11,07,10,05,13,,,,,,1.9,1.0,1.6*33
$GPRMC,202228.000,A,3748.7601,N,12217.7895,W,0.36,103.67,110711,,,A*79
$GPVTG,103.67,T,,M,0.36,N,0.7,K,A*0C
$GPGGA,202229.000,3748.7601,N,12217.7895,W,1,07,1.0,1.4,M,-25.1,M,,0000*63
$GPGSA,A,3,26,28,11,07,10,05,13,,,,,,1.9,1.0,1.6*33
$GPRMC,202229.000,A,3748.7601,N,12217.7895,W,0.26,117.33,110711,,,A*7D
$GPVTG,117.33,T,,M,0.26,N,0.5,K,A*0B
$GPGGA,202230.000,3748.7601,N,12217.7894,W,1,07,1.0,1.2,M,-25.1,M,,0000*6C
$GPGSA,A,3,26,28,11,07,10,05,13,,,,,,1.9,1.0,1.6*33
$GPRMC,202230.000,A,3748.7601,N,12217.7894,W,0.17,128.44,110711,,,A*7A
$GPVTG,128.44,T,,M,0.17,N,0.3,K,A*03
$GPGGA,202231.000,3748.7601,N,12217.7892,W,1,07,1.0,0.7,M,-25.1,M,,0000*6F
$GPGSA,A,3,26,28,11,07,10,05,13,,,,,,1.9,1.0,1.6*33
$GPGSV,3,1,12,08,64,348,21,07,59,057,22,28,57,244,34,13,28,148,25*78
$GPGSV,3,2,12,19,28,056,19,26,22,317,40,01,22,238,,05,21,276,38*71
$GPGSV,3,3,12,10,18,223,38,11,09,110,16,03,05,037,,17,05,188,*74
$GPRMC,202231.000,A,3748.7601,N,12217.7892,W,0.28,231.34,110711,,,A*7D
$GPVTG,231.34,T,,M,0.28,N,0.5,K,A*05
$GPGGA,202232.000,3748.7601,N,12217.7891,W,1,07,1.0,0.5,M,-25.1,M,,0000*6D
$GPGSA,A,3,26,28,11,07,10,05,13,,,,,,1.9,1.0,1.6*33
$GPRMC,202232.000,A,3748.7601,N,12217.7891,W,0.20,239.52,110711,,,A*7D
$GPVTG,239.52,T,,M,0.20,N,0.4,K,A*04
$GPGGA,202233.000,3748.7600,N,12217.7889,W,1,07,1.0,0.2,M,-25.1,M,,0000*63
$GPGSA,A,3,26,28,11,07,10,05,13,,,,,,1.9,1.0,1.6*33
$GPRMC,202233.000,A,3748.7600,N,12217.7889,W,0.08,159.74,110711,,,A*7F
$GPVTG,159.74,T,,M,0.08,N,0.2,K,A*09
$GPGGA,202234.000,3748.7600,N,12217.7885,W,1,07,1.0,-0.3,M,-25.1,M,,0000*44
$GPGSA,A,3,26,28,11,07,10,05,13,,,,,,1.9,1.0,1.6*33
$GPRMC,202234.000,A,3748.7600,N,12217.7885,W,0.16,224.63,110711,,,A*74
$GPVTG,224.63,T,,M,0.16,N,0.3,K,A*08
$GPGGA,202235.000,3748.7599,N,12217.7879,W,1,06,1.3,-1.0,M,-25.1,M,,0000*45
$GPGSA,A,3,26,28,07,10,05,13,,,,,,,2.5,1.3,2.2*38
$GPRMC,202235.000,A,3748.7599,N,12217.7879,W,0.46,106.33,110711,,,A*76
$GPVTG,106.33,T,,M,0.46,N,0.9,K,A*01
$GPGGA,202236.000,3748.7600,N,12217.7874,W,1,06,1.3,-1.1,M,-25.1,M,,0000*49
$GPGSA,A,3,26,28,07,10,05,13,,,,,,,2.5,1.3,2.2*38
$GPGSV,3,1,12,08,64,348,21,07,59,057,21,28,57,244,35,13,28,148,20*7F
$GPGSV,3,2,12,19,28,056,21,26,22,317,40,01,22,238,,05,21,276,30*72
$GPGSV,3,3,12,10,18,223,38,11,09,110,,03,05,037,,17,05,188,*73
$GPRMC,202236.000,A,3748.7600,N,12217.7874,W,0.25,118.33,110711,,,A*71
$GPGGA,202237.000,3748.7602,N,12217.7871,W,1,06,1.3,-0.7,M,-25.1,M,,0000*48
$GPGSA,A,3,26,28,07,10,05,13,,,,,,,2.5,1.3,2.2*38
$GPRMC,202237.000,A,3748.7602,N,12217.7871,W,0.40,263.03,110711,,,A*78
$GPVTG,263.03,T,,M,0.40,N,0.7,K,A*0A
$GPGGA,202238.000,3748.7601,N,12217.7875,W,1,06,1.3,-0.9,M,-25.1,M,,0000*4E
$GPGSA,A,3,26,28,07,10,05,13,,,,,,,2.5,1.3,2.2*38
$GPRMC,202238.000,A,3748.7601,N,12217.7875,W,0.48,265.48,110711,,,A*71
$GPVTG,265.48,T,,M,0.48,N,0.9,K,A*05
$GPGGA,202239.000,3748.7600,N,12217.7875,W,1,06,1.3,-1.4,M,-25.1,M,,0000*42
$GPGSA,A,3,26,28,07,10,05,13,,,,,,,2.5,1.3,2.2*38
$GPRMC,202239.000,A,3748.7600,N,12217.7875,W,0.27,107.85,110711,,,A*7E
$GPVTG,107.85,T,,M,0.27,N,0.5,K,A*06
$GPGGA,202240.000,3748.7601,N,12217.7879,W,1,06,1.3,-0.8,M,-25.1,M,,0000*4C
$GPGSA,A,3,26,28,07,10,05,13,,,,,,,2.5,1.3,2.2*38
$GPRMC,202240.000,A,3748.7601,N,12217.7879,W,0.12,174.14,110711,,,A*77
$GPVTG,174.14,T,,M,0.12,N,0.2,K,A*0B
$GPGGA,202241.000,3748.7599,N,12217.7886,W,1,06,1.3,-1.3,M,-25.1,M,,0000*45
$GPGSA,A,3,26,28,07,10,05,13,,,,,,,2.5,1.3,2.2*38
$GPGSV,3,1,12,08,64,348,20,07,59,057,25,28,57,244,35,13,28,148,23*79
$GPGSV,3,2,12,19,28,056,20,26,22,317,40,01,22,238,,05,21,276,32*71
$GPGSV,3,3,12,10,18,223,39,11,09,110,,03,05,037,,17,05,188,*72
$GPRMC,202241.000,A,3748.7599,N,12217.7886,W,0.51,245.61,110711,,,A*70
$GPVTG,245.61,T,,M,0.51,N,0.9,K,A*04
$GPGGA,202242.000,3748.7597,N,12217.7888,W,1,06,1.3,-1.2,M,-25.1,M,,0000*47
$GPGSA,A,3,26,28,07,10,05,13,,,,,,,2.5,1.3,2.2*38
$GPRMC,202242.000,A,3748.7597,N,12217.7888,W,1.21,220.38,110711,,,A*7A
$GPVTG,220.38,T,,M,1.21,N,2.2,K,A*04
$GPGGA,202243.000,3748.7593,N,12217.7890,W,1,06,1.3,-1.9,M,-25.1,M,,0000*40
$GPGSA,A,3,26,28,07,10,05,13,,,,,,,2.5,1.3,2.2*38
$GPRMC,202243.000,A,3748.7593,N,12217.7890,W,2.59,214.76,110711,,,A*77
$GPVTG,214.76,T,,M,2.59,N,4.8,K,A*09
$GPGGA,202244.000,3748.7587,N,12217.7893,W,1,07,1.0,-1.9,M,-25.1,M,,0000*43
$GPGSA,A,3,26,28,11,07,10,05,13,,,,,,1.9,1.0,1.6*33
$GPRMC,202244.000,A,3748.7587,N,12217.7893,W,2.70,208.65,110711,,,A*72
$GPVTG,208.65,T,,M,2.70,N,5.0,K,A*04
$GPGGA,202245.000,3748.7580,N,12217.7895,W,1,07,1.0,-2.2,M,-25.1,M,,0000*4B
$GPGSA,A,3,26,28,11,07,10,05,13,,,,,,1.9,1.0,1.6*33
$GPRMC,202245.000,A,3748.7580,N,12217.7895,W,2.97,208.32,110711,,,A*79
$GPVTG,208.32,T,,M,2.97,N,5.5,K,A*0A
$GPGGA,202246.000,3748.7573,N,12217.7897,W,1,07,1.0,-2.9,M,-25.1,M,,0000*4D
$GPGSA,A,3,26,28,11,07,10,05,13,,,,,,1.9,1.0,1.6*33
$GPGSV,3,1,12,08,64,348,21,07,59,057,20,28,57,244,30,13,28,148,32*78
$GPGSV,3,2,12,19,28,056,20,26,22,317,31,01,22,238,,05,21,276,35*70
$GPGSV,3,3,12,10,18,223,34,11,09,110,26,03,05,037,,17,05,188,*7B
$GPRMC,202246.000,A,3748.7573,N,12217.7897,W,3.07,208.76,110711,,,A*7C
$GPVTG,208.76,T,,M,3.07,N,5.7,K,A*00
$GPGGA,202247.000,3748.7566,N,12217.7900,W,1,07,1.0,-3.5,M,-25.1,M,,0000*4A
$GPGSA,A,3,26,28,11,07,10,05,13,,,,,,1.9,1.0,1.6*33
$GPRMC,202247.000,A,3748.7566,N,12217.7900,W,3.04,208.44,110711,,,A*74
$GPVTG,208.44,T,,M,3.04,N,5.6,K,A*03
$GPGGA,202248.000,3748.7560,N,12217.7902,W,1,07,1.0,-4.0,M,-25.1,M,,0000*43
$GPGSA,A,3,26,28,11,07,10,05,13,,,,,,1.9,1.0,1.6*33
$GPRMC,202248.000,A,3748.7560,N,12217.7902,W,2.49,209.89,110711,,,A*77
$GPVTG,209.89,T,,M,2.49,N,4.6,K,A*0A
$GPGGA,202249.000,3748.7555,N,12217.7905,W,1,07,1.0,-4.7,M,-25.1,M,,0000*44
$GPGSA,A,3,26,28,11,07,10,05,13,,,,,,1.9,1.0,1.6*33
$GPRMC,202249.000,A,3748.7555,N,12217.7905,W,2.63,212.29,110711,,,A*7F
$GPVTG,212.29,T,,M,2.63,N,4.9,K,A*0D
$GPGGA,202250.000,3748.7550,N,12217.7910,W,1,07,1.0,-5.2,M,-25.1,M,,0000*49
$GPGSA,A,3,26,28,11,07,10,05,13,,,,,,1.9,1.0,1.6*33
$GPRMC,202250.000,A,3748.7550,N,12217.7910,W,2.61,219.43,110711,,,A*73
$GPVTG,219.43,T,,M,2.61,N,4.8,K,A*09
$GPGGA,202251.000,3748.7546,N,12217.7915,W,1,07,1.0,-5.4,M,-25.1,M,,0000*4C
$GPGSA,A,3,26,28,11,07,10,05,13,,,,,,1.9,1.0,1.6*33
$GPGSV,3,1,12,08,64,348,24,07,59,057,20,28,57,244,30,13,28,148,25*7B
$GPGSV,3,2,12,19,28,056,21,26,22,317,30,01,22,238,,05,21,276,35*70
$GPGSV,3,3,12,10,18,223,39,11,09,110,23,03,05,037,15,17,05,188,*77
$GPVTG,223.05,T,,M,2.46,N,4.6,K,A*09
$GPGGA,202252.000,3748.7541,N,12217.7920,W,1,07,1.0,-5.8,M,-25.1,M,,0000*42
$GPGSA,A,3,26,28,11,07,10,05,13,,,,,,1.9,1.0,1.6*33
$GPRMC,202252.000,A,3748.7541,N,12217.7920,W,2.19,221.46,110711,,,A*73
$GPVTG,221.46,T,,M,2.19,N,4.1,K,A*01
$GPGGA,202253.000,3748.7536,N,12217.7924,W,1,07,1.0,-5.6,M,-25.1,M,,0000*49
$GPGSA,A,3,26,28,11,07,10,05,13,,,,,,1.9,1.0,1.6*33
$GPRMC,202253.000,A,3748.7536,N,12217.7924,W,2.63,206.12,110711,,,A*7F
$GPVTG,206.12,T,,M,2.63,N,4.9,K,A*00
$GPGGA,202254.000,3748.7529,N,12217.7926,W,1,07,1.0,-5.7,M,-25.1,M,,0000*43
$GPGSA,A,3,26,28,11,07,10,05,13,,,,,,1.9,1.0,1.6*33
$GPRMC,202254.000,A,3748.7529,N,12217.7926,W,2.51,197.56,110711,,,A*7E
$GPVTG,197.56,T,,M,2.51,N,4.6,K,A*05
$GPGGA,202255.000,3748.7522,N,12217.7927,W,1,07,1.0,-6.2,M,-25.1,M,,0000*4E
$GPGSA,A,3,26,28,11,07,10,05,13,,,,,,1.9,1.0,1.6*33
$GPRMC,202255.000,A,3748.7522,N,12217.7927,W,2.25,203.41,110711,,,A*7E
$GPVTG,203.41,T,,M,2.25,N,4.2,K,A*0A
$GPGGA,202256.000,3748.7516,N,12217.7931,W,1,07,1.0,-6.3,M,-25.1,M,,0000*4C
$GPGSA,A,3,26,28,11,07,10,05,13,,,,,,1.9,1.0,1.6*33
$GPGSV,3,1,12,08,64,348,22,07,59,057,20,28,57,244,30,13,28,148,37*7E
$GPGSV,3,2,12,19,28,056,21,26,22,317,28,01,22,238,,05,21,276,35*79
$GPGSV,3,3,12,10,18,223,34,11,09,110,25,03,05,037,16,17,05,188,*7F
$GPRMC,202256.000,A,3748.7516,N,12217.7931,W,1.65,235.49,110711,,,A*77
$GPVTG,235.49,T,,M,1.65,N,3.1,K,A*04
$GPGGA,202257.000,3748.7512,N,12217.7936,W,1,07,1.0,-6.5,M,-25.1,M,,0000*48
$GPGSA,A,3,26,28,11,07,10,05,13,,,,,,1.9,1.0,1.6*33
$GPRMC,202257.000,A,3748.7512,N,12217.7936,W,2.44,228.76,110711,,,A*75
$GPVTG,228.76,T,,M,2.44,N,4.5,K,A*07
$GPGGA,202258.000,3748.7507,N,12217.7939,W,1,07,1.0,-6.5,M,-25.1,M,,0000*4C
$GPGSA,A,3,26,28,11,07,10,05,13,,,,,,1.9,1.0,1.6*33
$GPRMC,202258.000,A,3748.7507,N,12217.7939,W,2.16,212.17,110711,,,A*78
$GPVTG,212.17,T,,M,2.16,N,4.0,K,A*0B
$GPGGA,202259.000,3748.7501,N,12217.7942,W,1,07,1.0,-6.2,M,-25.1,M,,0000*40
$GPGSA,A,3,26,28,11,07,10,05,13,,,,,,1.9,1.0,1.6*33
$GPRMC,202259.000,A,3748.7501,N,12217.7942,W,2.20,215.41,110711,,,A*72
$GPVTG,215.41,T,,M,2.20,N,4.1,K,A*0B
$GPGGA,202300.000,3748.7496,N,12217.7946,W,1,07,1.0,-6.1,M,-25.1,M,,0000*45
$GPGSA,A,3,26,28,11,07,10,05,13,,,,,,1.9,1.0,1.6*33
$GPRMC,202300.000,A,3748.7496,N,12217.7946,W,1.82,212.13,110711,,,A*7F
$GPVTG,212.13,T,,M,1.82,N,3.4,K,A*02
$GPGGA,202301.000,3748.7491,N,12217.7949,W,1,07,1.0,-6.6,M,-25.1,M,,0000*4B
$GPGSA,A,3,26,28,11,07,10,05,13,,,,,,1.9,1.0,1.6*33
$GPGSV,3,1,12,08,64,348,21,07,59,057,20,28,57,244,28,13,28,148,36*75
$GPGSV,3,2,12,19,28,056,20,26,22,317,29,01,22,238,,05,21,276,34*78
$GPGSV,3,3,12,10,18,223,31,11,09,110,27,03,05,037,15,17,05,188,*7B
$GPRMC,202301.000,A,3748.7491,N,12217.7949,W,2.25,205.24,110711,,,A*7A
$GPVTG,205.24,T,,M,2.25,N,4.2,K,A*0F
$GPGGA,202302.000,3748.7485,N,12217.7952,W,1,07,1.0,-7.2,M,-25.1,M,,0000*42
$GPGSA,A,3,26,28,11,07,10,05,13,,,,,,1.9,1.0,1.6*33
$GPRMC,202302.000,A,3748.7485,N,12217.7952,W,2.58,207.48,110711,,,A*74
$GPVTG,207.48,T,,M,2.58,N,4.8,K,A*07
$GPGGA,202303.000,3748.7480,N,12217.7956,W,1,07,1.0,-7.5,M,-25.1,M,,0000*45
$GPGSA,A,3,26,28,11,07,10,05,13,,,,,,1.9,1.0,1.6*33
$GPRMC,202303.000,A,3748.7480,N,12217.7956,W,2.34,208.05,110711,,,A*78
$GPVTG,208.05,T,,M,2.34,N,4.3,K,A*00
$GPGGA,202304.000,3748.7474,N,12217.7960,W,1,07,1.0,-7.7,M,-25.1,M,,0000*4E
$GPGSA,A,3,26,28,11,07,10,05,13,,,,,,1.9,1.0,1.6*33
$GPRMC,202304.000,A,3748.7474,N,12217.7960,W,2.45,210.73,110711,,,A*7F
$GPVTG,210.73,T,,M,2.45,N,4.5,K,A*08
$GPGGA,202305.000,3748.7468,N,12217.7964,W,1,07,1.0,-7.7,M,-25.1,M,,0000*46
$GPGSA,A,3,26,28,11,07,10,05,13,,,,,,1.9,1.0,1.6*33
$GPRMC,202305.000,A,3748.7468,N,12217.7964,W,2.53,209.02,110711,,,A*7E
$GPVTG,209.02,T,,M,2.53,N,4.7,K,A*03
$GPGGA,202306.000,3748.7462,N,12217.7968,W,1,07,1.0,-7.7,M,-25.1,M,,0000*43
$GPGSA,A,3,26,28,11,07,10,05,13,,,,,,1.9,1.0,1.6*33
$GPGSV,3,1,12,08,64,348,22,07,59,057,20,28,57,244,30,13,28,148,36*7F
$GPGSV,3,2,12,19,28,056,20,26,22,317,32,01,22,238,,05,21,276,32*74
$GPGSV,3,3,12,10,18,223,33,11,09,110,27,03,05,037,16,17,05,188,*7A
$GPVTG,207.70,T,,M,2.44,N,4.5,K,A*0C
$GPGGA,202307.000,3748.7456,N,12217.7971,W,1,07,1.0,-8.2,M,-25.1,M,,0000*47
$GPGSA,A,3,26,28,11,07,10,05,13,,,,,,1.9,1.0,1.6*33
$GPRMC,202307.000,A,3748.7456,N,12217.7971,W,2.29,203.97,110711,,,A*7E
$GPVTG,203.97,T,,M,2.29,N,4.2,K,A*0D
$GPGGA,202308.000,3748.7450,N,12217.7975,W,1,07,1.0,-7.9,M,-25.1,M,,0000*4E
$GPGSA,A,3,26,28,11,07,10,05,13,,,,,,1.9,1.0,1.6*33
$GPRMC,202308.000,A,3748.7450,N,12217.7975,W,2.23,209.18,110711,,,A*74
$GPVTG,209.18,T,,M,2.23,N,4.1,K,A*09
$GPGGA,202309.000,3748.7445,N,12217.7979,W,1,07,1.0,-7.5,M,-25.1,M,,0000*4B
$GPGSA,A,3,26,28,11,07,10,05,13,,,,,,1.9,1.0,1.6*33
$GPRMC,202309.000,A,3748.7445,N,12217.7979,W,2.43,207.20,110711,,,A*7E
$GPVTG,207.20,T,,M,2.43,N,4.5,K,A*0E
$GPGGA,202310.000,3748.7439,N,12217.7985,W,1,07,1.0,-7.1,M,-25.1,M,,0000*4F
$GPGSA,A,3,26,28,11,07,10,05,13,,,,,,1.9,1.0,1.6*33
$GPRMC,202310.000,A,3748.7439,N,12217.7985,W,2.01,205.56,110711,,,A*7B
$GPVTG,205.56,T,,M,2.01,N,3.7,K,A*0E
$GPGGA,202311.000,3748.7434,N,12217.7990,W,1,07,1.0,-6.4,M,-25.1,M,,0000*43
$GPGSA,A,3,26,28,11,07,10,05,13,,,,,,1.9,1.0,1.6*33
$GPGSV,3,1,12,08,64,348,22,07,59,057,20,28,57,244,24,13,28,148,30*7C
$GPGSV,3,2,12,19,28,056,20,26,22,317,30,01,22,238,,05,21,276,34*70
$GPGSV,3,3,12,10,18,223,31,11,09,110,26,03,05,037,16,17,05,188,*79
$GPRMC,202311.000,A,3748.7434,N,12217.7990,W,2.16,217.59,110711,,,A*79
$GPVTG,217.59,T,,M,2.16,N,4.0,K,A*04
$GPGGA,202312.000,3748.7428,N,12217.7997,W,1,07,1.0,-5.7,M,-25.1,M,,0000*4A
$GPGSA,A,3,26,28,11,07,10,05,13,,,,,,1.9,1.0,1.6*33
$GPRMC,202312.000,A,3748.7428,N,12217.7997,W,2.01,209.07,110711,,,A*72
$GPVTG,209.07,T,,M,2.01,N,3.7,K,A*06
$GPGGA,202313.000,3748.7421,N,12217.8003,W,1,07,1.0,-4.4,M,-25.1,M,,0000*4B
$GPGSA,A,3,26,28,11,07,10,05,13,,,,,,1.9,1.0,1.6*33
$GPRMC,202313.000,A,3748.7421,N,12217.8003,W,2.51,211.46,110711,,,A*78
$GPVTG,211.46,T,,M,2.51,N,4.7,K,A*08
$GPGGA,202314.000,3748.7415,N,12217.8008,W,1,07,1.0,-3.8,M,-25.1,M,,0000*4B
$GPGSA,A,3,26,28,11,07,10,05,13,,,,,,1.9,1.0,1.6*33
$GPRMC,202314.000,A,3748.7415,N,12217.8008,W,2.17,212.42,110711,,,A*76
$GPVTG,212.42,T,,M,2.17,N,4.0,K,A*0A
$GPGGA,202315.000,3748.7411,N,12217.8012,W,1,07,1.0,-3.7,M,-25.1,M,,0000*4A
$GPGSA,A,3,26,28,11,07,10,05,13,,,,,,1.9,1.0,1.6*33
$GPRMC,202315.000,A,3748.7411,N,12217.8012,W,1.95,209.02,110711,,,A*7F
$GPVTG,209.02,T,,M,1.95,N,3.6,K,A*0C
$GPGGA,202316.000,3748.7405,N,12217.8016,W,1,07,1.0,-3.5,M,-25.1,M,,0000*4A
$GPGSA,A,3,26,28,11,07,10,05,13,,,,,,1.9,1.0,1.6*33
$GPGSV,3,1,12,08,64,348,21,07,59,057,16,28,57,244,31,13,28,148,37*79
$GPGSV,3,2,12,19,28,056,19,26,22,317,25,01,22,238,,05,21,276,34*7E
$GPGSV,3,3,12,10,18,223,34,11,09,110,23,03,05,037,16,17,05,188,*79
$GPRMC,202316.000,A,3748.7405,N,12217.8016,W,2.62,213.69,110711,,,A*70
$GPVTG,213.69,T,,M,2.62,N,4.9,K,A*09
$GPGGA,202317.000,3748.7399,N,12217.8022,W,1,07,1.0,-3.2,M,-25.1,M,,0000*49
$GPGSA,A,3,26,28,11,07,10,05,13,,,,,,1.9,1.0,1.6*33
$GPRMC,202317.000,A,3748.7399,N,12217.8022,W,2.50,216.10,110711,,,A*7E
$GPVTG,216.10,T,,M,2.50,N,4.6,K,A*0C
$GPGGA,202318.000,3748.7392,N,12217.8026,W,1,07,1.0,-3.1,M,-25.1,M,,0000*4A
$GPGSA,A,3,26,28,11,07,10,05,13,,,,,,1.9,1.0,1.6*33
$GPRMC,202318.000,A,3748.7392,N,12217.8026,W,2.60,209.63,110711,,,A*77
$GPVTG,209.63,T,,M,2.60,N,4.8,K,A*0B
$GPGGA,202319.000,3748.7384,N,12217.8031,W,1,07,1.0,-2.9,M,-25.1,M,,0000*43
$GPGSA,A,3,26,28,11,07,10,05,13,,,,,,1.9,1.0,1.6*33
$GPRMC,202319.000,A,3748.7384,N,12217.8031,W,2.34,212.86,110711,,,A*77
$GPVTG,212.86,T,,M,2.34,N,4.3,K,A*00
$GPGGA,202320.000,3748.7379,N,12217.8036,W,1,07,1.0,-2.7,M,-25.1,M,,0000*42
$GPGSA,A,3,26,28,11,07,10,05,13,,,,,,1.9,1.0,1.6*33
$GPRMC,202320.000,A,3748.7379,N,12217.8036,W,2.30,220.34,110711,,,A*74
$GPVTG,220.34,T,,M,2.30,N,4.3,K,A*0C
$GPGGA,202321.000,3748.7372,N,12217.8041,W,1,07,1.0,-2.6,M,-25.1,M,,0000*49
$GPGSA,A,3,26,28,11,07,10,05,13,,,,,,1.9,1.0,1.6*33
$GPGSV,3,1,12,08,64,348,22,07,59,057,17,28,57,244,31,13,28,148,32*7E
$GPGSV,3,2,12,19,28,056,18,26,22,317,24,01,22,238,,05,21,276,34*7E
$GPGSV,3,3,12,10,18,223,38,11,09,110,22,03,05,037,16,17,05,188,*74
$GPRMC,202321.000,A,3748.7372,N,12217.8041,W,2.75,209.66,110711,,,A*73
$GPVTG,209.66,T,,M,2.75,N,5.1,K,A*02
$GPGGA,202322.000,3748.7366,N,12217.8045,W,1,07,1.0,-2.9,M,-25.1,M,,0000*44
$GPGSA,A,3,26,28,11,07,10,05,13,,,,,,1.9,1.0,1.6*33
$GPRMC,202322.000,A,3748.7366,N,12217.8045,W,2.98,206.79,110711,,,A*73
$GPVTG,206.79,T,,M,2.98,N,5.5,K,A*04
$GPGGA,202323.000,3748.7358,N,12217.8049,W,1,07,1.0,-2.8,M,-25.1,M,,0000*45
$GPGSA,A,3,26,28,11,07,10,05,13,,,,,,1.9,1.0,1.6*33
$GPRMC,202323.000,A,3748.7358,N,12217.8049,W,2.69,202.59,110711,,,A*7B
$GPVTG,202.59,T,,M,2.69,N,5.0,K,A*09
$GPGGA,202324.000,3748.7348,N,12217.8053,W,1,07,1.0,-3.0,M,-25.1,M,,0000*41
$GPGSA,A,3,26,28,11,07,10,05,13,,,,,,1.9,1.0,1.6*33
$GPRMC,202324.000,A,3748.7348,N,12217.8053,W,2.72,212.16,110711,,,A*76
$GPVTG,212.16,T,,M,2.72,N,5.0,K,A*09
$GPGGA,202325.000,3748.7339,N,12217.8059,W,1,07,1.0,-2.9,M,-25.1,M,,0000*44
$GPGSA,A,3,26,28,11,07,10,05,13,,,,,,1.9,1.0,1.6*33
$GPRMC,202325.000,A,3748.7339,N,12217.8059,W,2.46,212.14,110711,,,A*7E
$GPVTG,212.14,T,,M,2.46,N,4.6,K,A*0B
$GPGGA,202326.000,3748.7333,N,12217.8064,W,1,07,1.0,-2.8,M,-25.1,M,,0000*42
$GPGSA,A,3,26,28,11,07,10,05,13,,,,,,1.9,1.0,1.6*33
$GPGSV,3,1,12,08,64,348,21,07,59,057,19,28,57,244,31,13,28,148,33*72
$GPGSV,3,2,12,19,28,056,20,26,22,317,24,01,22,238,,05,21,276,34*75
$GPGSV,3,3,12,10,18,223,34,11,09,110,23,03,05,037,15,17,05,188,*7A
$GPRMC,202326.000,A,3748.7333,N,12217.8064,W,2.50,214.91,110711,,,A*75
$GPGGA,202327.000,3748.7325,N,12217.8070,W,1,07,1.0,-2.8,M,-25.1,M,,0000*41
$GPGSA,A,3,26,28,11,07,10,05,13,,,,,,1.9,1.0,1.6*33
$GPRMC,202327.000,A,3748.7325,N,12217.8070,W,2.78,218.65,110711,,,A*7B
$GPVTG,218.65,T,,M,2.78,N,5.1,K,A*0C
$GPGGA,202328.000,3748.7315,N,12217.8077,W,1,07,1.0,-2.2,M,-25.1,M,,0000*40
$GPGSA,A,3,26,28,11,07,10,05,13,,,,,,1.9,1.0,1.6*33
$GPRMC,202328.000,A,3748.7315,N,12217.8077,W,2.95,212.81,110711,,,A*73
$GPVTG,212.81,T,,M,2.95,N,5.5,K,A*0B
$GPGGA,202329.000,3748.7302,N,12217.8084,W,1,07,1.0,-1.7,M,-25.1,M,,0000*4D
$GPGSA,A,3,26,28,11,07,10,05,13,,,,,,1.9,1.0,1.6*33
$GPRMC,202329.000,A,3748.7302,N,12217.8084,W,3.25,213.18,110711,,,A*73
$GPVTG,213.18,T,,M,3.25,N,6.0,K,A*06
$GPGGA,202330.000,3748.7292,N,12217.8091,W,1,07,1.0,-1.2,M,-25.1,M,,0000*4C
$GPGSA,A,3,26,28,11,07,10,05,13,,,,,,1.9,1.0,1.6*33
$GPRMC,202330.000,A,3748.7292,N,12217.8091,W,2.98,213.51,110711,,,A*7D
$GPVTG,213.51,T,,M,2.98,N,5.5,K,A*0A
$GPGGA,202331.000,3748.7284,N,12217.8097,W,1,07,1.0,-1.0,M,-25.1,M,,0000*4E
$GPGSA,A,3,26,28,11,07,10,05,13,,,,,,1.9,1.0,1.6*33
$GPGSV,3,1,12,08,64,348,21,07,59,057,20,28,57,244,28,13,28,148,38*7B
$GPGSV,3,2,12,19,28,056,20,26,22,317,24,01,22,238,,05,21,276,33*72
$GPGSV,3,3,12,10,18,223,34,11,09,110,20,03,05,037,15,17,05,188,*79
$GPRMC,202331.000,A,3748.7284,N,12217.8097,W,2.97,210.20,110711,,,A*77
$GPVTG,210.20,T,,M,2.97,N,5.5,K,A*00
$GPGGA,202332.000,3748.7277,N,12217.8102,W,1,07,1.0,-1.1,M,-25.1,M,,0000*4D
$GPGSA,A,3,26,28,11,07,10,05,13,,,,,,1.9,1.0,1.6*33
$GPRMC,202332.000,A,3748.7277,N,12217.8102,W,2.18,217.49,110711,,,A*7A
$GPVTG,217.49,T,,M,2.18,N,4.0,K,A*0B
$GPGGA,202333.000,3748.7272,N,12217.8107,W,1,07,1.0,-1.2,M,-25.1,M,,0000*4F
$GPGSA,A,3,26,28,11,07,10,05,13,,,,,,1.9,1.0,1.6*33
$GPRMC,202333.000,A,3748.7272,N,12217.8107,W,1.94,218.15,110711,,,A*7A
$GPVTG,218.15,T,,M,1.94,N,3.6,K,A*0B
$GPGGA,202334.000,3748.7267,N,12217.8110,W,1,07,1.0,-1.7,M,-25.1,M,,0000*4F
$GPGSA,A,3,26,28,11,07,10,05,13,,,,,,1.9,1.0,1.6*33
$GPRMC,202334.000,A,3748.7267,N,12217.8110,W,2.48,207.43,110711,,,A*70
$GPVTG,207.43,T,,M,2.48,N,4.6,K,A*03
$GPGGA,202335.000,3748.7263,N,12217.8116,W,1,07,1.0,-1.7,M,-25.1,M,,0000*4C
$GPGSA,A,3,26,28,11,07,10,05,13,,,,,,1.9,1.0,1.6*33
$GPRMC,202335.000,A,3748.7263,N,12217.8116,W,2.38,209.26,110711,,,A*79
$GPVTG,209.26,T,,M,2.38,N,4.4,K,A*0B
$GPGGA,202336.000,3748.7258,N,12217.8122,W,1,07,1.0,-1.7,M,-25.1,M,,0000*40
$GPGSA,A,3,26,28,11,07,10,05,13,,,,,,1.9,1.0,1.6*33
$GPGSV,3,1,12,08,64,348,21,07,59,057,21,28,57,244,31,13,28,148,28*73
$GPGSV,3,2,12,19,28,056,21,26,22,317,30,01,22,238,,05,21,276,31*74
$GPGSV,3,3,12,10,18,223,35,11,09,110,27,03,05,037,15,17,05,188,*7F
$GPRMC,202336.000,A,3748.7258,N,12217.8122,W,2.33,207.41,110711,,,A*71
$GPVTG,207.41,T,,M,2.33,N,4.3,K,A*08
$GPGGA,202337.000,3748.7252,N,12217.8128,W,1,07,1.0,-1.5,M,-25.1,M,,0000*43
$GPGSA,A,3,26,28,11,07,10,05,13,,,,,,1.9,1.0,1.6*33
$GPRMC,202337.000,A,3748.7252,N,12217.8128,W,2.27,215.13,110711,,,A*71
$GPVTG,215.13,T,,M,2.27,N,4.2,K,A*08
$GPGGA,202338.000,3748.7248,N,12217.8136,W,1,07,1.0,-1.5,M,-25.1,M,,0000*48
$GPGSA,A,3,26,28,11,07,10,05,13,,,,,,1.9,1.0,1.6*33
$GPRMC,202338.000,A,3748.7248,N,12217.8136,W,2.02,220.21,110711,,,A*7A
$GPVTG,220.21,T,,M,2.02,N,3.7,K,A*0A
$GPGGA,202339.000,3748.7244,N,12217.8142,W,1,07,1.0,-1.6,M,-25.1,M,,0000*45
$GPGSA,A,3,26,28,11,07,10,05,13,,,,,,1.9,1.0,1.6*33
$GPRMC,202339.000,A,3748.7244,N,12217.8142,W,1.83,204.13,110711,,,A*79
$GPVTG,204.13,T,,M,1.83,N,3.4,K,A*04
$GPGGA,202340.000,3748.7239,N,12217.8144,W,1,07,1.0,-1.7,M,-25.1,M,,0000*46
$GPGSA,A,3,26,28,11,07,10,05,13,,,,,,1.9,1.0,1.6*33
$GPRMC,202340.000,A,3748.7239,N,12217.8144,W,2.41,186.57,110711,,,A*7F
$GPVTG,186.57,T,,M,2.41,N,4.5,K,A*06
$GPGGA,202341.000,3748.7233,N,12217.8148,W,1,07,1.0,-1.3,M,-25.1,M,,0000*45
$GPGSA,A,3,26,28,11,07,10,05,13,,,,,,1.9,1.0,1.6*33
$GPGSV,3,1,11,08,64,349,21,07,59,059,21,28,57,245,31,13,28,148,22*74
$GPGSV,3,2,11,19,28,055,21,26,22,317,23,05,21,275,31,10,17,223,38*72
$GPRMC,202341.000,A,3748.7233,N,12217.8148,W,1.99,196.45,110711,,,A*7C
$GPVTG,196.45,T,,M,1.99,N,3.7,K,A*07
$GPGGA,202342.000,3748.7227,N,12217.8152,W,1,07,1.0,-1.1,M,-25.1,M,,0000*4A
$GPGSA,A,3,26,28,11,07,10,05,13,,,,,,1.9,1.0,1.6*33
$GPRMC,202342.000,A,3748.7227,N,12217.8152,W,2.35,205.61,110711,,,A*7B
$GPVTG,205.61,T,,M,2.35,N,4.4,K,A*09
$GPGGA,202343.000,3748.7221,N,12217.8156,W,1,07,1.0,-0.8,M,-25.1,M,,0000*41
$GPGSA,A,3,26,28,11,07,10,05,13,,,,,,1.9,1.0,1.6*33
$GPRMC,202343.000,A,3748.7221,N,12217.8156,W,2.35,197.49,110711,,,A*7A
$GPVTG,197.49,T,,M,2.35,N,4.3,K,A*0C
$GPGGA,202344.000,3748.7213,N,12217.8159,W,1,07,1.0,-0.5,M,-25.1,M,,0000*45
$GPGSA,A,3,26,28,11,07,10,05,13,,,,,,1.9,1.0,1.6*33
$GPRMC,202344.000,A,3748.7213,N,12217.8159,W,2.52,196.98,110711,,,A*7F
$GPVTG,196.98,T,,M,2.52,N,4.7,K,A*04
$GPGGA,202345.000,3748.7204,N,12217.8162,W,1,07,1.0,-0.1,M,-25.1,M,,0000*4E
$GPGSA,A,3,26,28,11,07,10,05,13,,,,,,1.9,1.0,1.6*33
$GPRMC,202345.000,A,3748.7204,N,12217.8162,W,2.68,199.44,110711,,,A*77
$GPVTG,199.44,T,,M,2.68,N,5.0,K,A*05
$GPGGA,202346.000,3748.7198,N,12217.8166,W,1,07,1.0,0.0,M,-25.1,M,,0000*63
$GPGSA,A,3,26,28,11,07,10,05,13,,,,,,1.9,1.0,1.6*33
$GPGSV,3,1,11,08,64,349,21,07,59,059,21,28,57,245,31,13,28,148,33*74
$GPGSV,3,2,11,19,28,055,21,26,22,317,26,05,21,275,37,10,17,223,37*7E
$GPGSV,3,3,11,11,09,109,19,17,06,188,21,03,05,037,20*42
$GPRMC,202346.000,A,3748.7198,N,12217.8166,W,2.23,209.04,110711,,,A*77
$GPVTG,209.04,T,,M,2.23,N,4.1,K,A*04
$GPGGA,202347.000,3748.7194,N,12217.8170,W,1,07,1.0,0.2,M,-25.1,M,,0000*6B
$GPGSA,A,3,26,28,11,07,10,05,13,,,,,,1.9,1.0,1.6*33
$GPRMC,202347.000,A,3748.7194,N,12217.8170,W,2.34,214.62,110711,,,A*77
$GPVTG,214.62,T,,M,2.34,N,4.3,K,A*0C
$GPGGA,202348.000,3748.7188,N,12217.8174,W,1,07,1.0,0.4,M,-25.1,M,,0000*6B
$GPGSA,A,3,26,28,11,07,10,05,13,,,,,,1.9,1.0,1.6*33
$GPRMC,202348.000,A,3748.7188,N,12217.8174,W,1.83,210.73,110711,,,A*7A
$GPVTG,210.73,T,,M,1.83,N,3.4,K,A*07
$GPGGA,202349.000,3748.7181,N,12217.8178,W,1,07,1.0,0.6,M,-25.1,M,,0000*6D
$GPGSA,A,3,26,28,11,07,10,05,13,,,,,,1.9,1.0,1.6*33
$GPRMC,202349.000,A,3748.7181,N,12217.8178,W,1.99,205.02,110711,,,A*77
$GPVTG,205.02,T,,M,1.99,N,3.7,K,A*0D
$GPGGA,202350.000,3748.7174,N,12217.8181,W,1,07,1.0,0.8,M,-25.1,M,,0000*67
$GPGSA,A,3,26,28,11,07,10,05,13,,,,,,1.9,1.0,1.6*33
$GPRMC,202350.000,A,3748.7174,N,12217.8181,W,2.26,198.71,110711,,,A*77
$GPVTG,198.71,T,,M,2.26,N,4.2,K,A*0B
$GPGGA,202351.000,3748.7167,N,12217.8182,W,1,07,1.0,0.2,M,-25.1,M,,0000*6D
$GPGSA,A,3,26,28,11,07,10,05,13,,,,,,1.9,1.0,1.6*33
$GPGSV,3,1,11,08,64,349,21,07,59,059,21,28,57,245,30,13,28,148,35*73
$GPGSV,3,2,11,19,28,055,26,26,22,317,26,05,21,275,32,10,17,223,37*7C
$GPGSV,3,3,11,11,09,109,23,17,06,188,19,03,05,037,18*4B
$GPRMC,202351.000,A,3748.7167,N,12217.8182,W,2.05,201.90,110711,,,A*7A
$GPVTG,201.90,T,,M,2.05,N,3.8,K,A*0B
$GPGGA,202352.000,3748.7161,N,12217.8186,W,1,07,1.0,0.4,M,-25.1,M,,0000*6A
$GPGSA,A,3,26,28,11,07,10,05,13,,,,,,1.9,1.0,1.6*33
$GPRMC,202352.000,A,3748.7161,N,12217.8186,W,2.30,209.39,110711,,,A*76
$GPVTG,209.39,T,,M,2.30,N,4.3,K,A*0A
$GPGGA,202353.000,3748.7156,N,12217.8189,W,1,07,1.0,-0.8,M,-25.1,M,,0000*41
$GPGSA,A,3,26,28,11,07,10,05,13,,,,,,1.9,1.0,1.6*33
$GPRMC,202353.000,A,3748.7156,N,12217.8189,W,2.54,205.07,110711,,,A*7F
$GPVTG,205.07,T,,M,2.54,N,4.7,K,A*0D
$GPGGA,202354.000,3748.7151,N,12217.8193,W,1,07,1.0,-1.6,M,-25.1,M,,0000*45
$GPGSA,A,3,26,28,11,07,10,05,13,,,,,,1.9,1.0,1.6*33
$GPRMC,202354.000,A,3748.7151,N,12217.8193,W,2.37,209.94,110711,,,A*77
$GPVTG,209.94,T,,M,2.37,N,4.4,K,A*0D
$GPGGA,202355.000,3748.7145,N,12217.8201,W,1,07,1.0,-3.1,M,-25.1,M,,0000*4C
$GPGSA,A,3,26,28,11,07,10,05,13,,,,,,1.9,1.0,1.6*33
$GPRMC,202355.000,A,3748.7145,N,12217.8201,W,1.85,216.10,110711,,,A*73
$GPVTG,216.10,T,,M,1.85,N,3.4,K,A*02
$GPGGA,202356.000,3748.7141,N,12217.8205,W,1,07,1.0,-3.3,M,-25.1,M,,0000*4D
$GPGSA,A,3,26,28,11,07,10,05,13,,,,,,1.9,1.0,1.6*33
$GPGSV,3,1,11,08,64,349,22,07,59,059,17,28,57,245,35,13,28,148,18*7F
$GPGSV,3,2,11,19,28,055,27,26,22,317,31,05,21,275,35,10,17,223,33*78
$GPGSV,3,3,11,11,09,109,24,17,06,188,19,03,05,037,19*4D
$GPRMC,202356.000,A,3748.7141,N,12217.8205,W,1.79,218.29,110711,,,A*77
$GPVTG,218.29,T,,M,1.79,N,3.3,K,A*02
$GPGGA,202357.000,3748.7137,N,12217.8209,W,1,07,1.0,-3.5,M,-25.1,M,,0000*47
$GPGSA,A,3,26,28,11,07,10,05,13,,,,,,1.9,1.0,1.6*33
$GPRMC,202357.000,A,3748.7137,N,12217.8209,W,1.59,204.61,110711,,,A*78
$GPVTG,204.61,T,,M,1.59,N,2.9,K,A*0A
$GPGGA,202358.000,3748.7129,N,12217.8215,W,1,07,1.0,-4.2,M,-25.1,M,,0000*4A
$GPGSA,A,3,26,28,11,07,10,05,13,,,,,,1.9,1.0,1.6*33
$GPRMC,202358.000,A,3748.7129,N,12217.8215,W,2.09,191.33,110711,,,A*7B
$GPVTG,191.33,T,,M,2.09,N,3.9,K,A*05
$GPGGA,202359.000,3748.7123,N,12217.8217,W,1,07,1.0,-4.3,M,-25.1,M,,0000*42
$GPGSA,A,3,26,28,11,07,10,05,13,,,,,,1.9,1.0,1.6*33
