$ADVER,3080,2.3
$GPWPL,3748.7922,N,12217.8606,W,00001*61
$ADPMB,5,0
$GPRMC,201858.752,A,3748.7922,N,12217.8606,W,0.13,219.87,110711,,,A*73
$GPGGA,201859.752,3748.7920,N,12217.8610,W,1,03,3.7,25.1,M,-25.1,M,,0000*5F
$GPGSA,A,2,10,28,13,,,,,,,,,,3.8,3.7,1.0*34
$GPRMC,201859.752,A,3748.7920,N,12217.8610,W,0.14,142.08,110711,,,A*7A
$GPVTG,142.08,T,,M,0.14,N,0.3,K,N*0B
$GPGGA,201904.752,3748.7973,N,12217.8649,W,1,04,2.5,25.2,M,-25.1,M,,0000*5B
$GPGSA,A,3,05,10,28,13,,,,,,,,,3.8,2.5,2.8*38
$GPRMC,201904.752,A,3748.7973,N,12217.8649,W,0.71,24.18,110711,,,A*4A
$GPVTG,24.18,T,,M,0.71,N,1.3,K,A*36
$GPGGA,201905.752,3748.8011,N,12217.8653,W,1,04,2.5,16.5,M,-25.1,M,,0000*54
$GPGSA,A,3,05,10,28,13,,,,,,,,,3.8,2.5,2.8*38
$GPGSV,3,1,12,28,55,243,27,13,30,147,30,05,21,277,19,10,19,224,33*73
$GPGSV,3,2,12,08,63,345,31,07,60,055,22,19,28,057,29,01,20,237,*79
$GPGSV,3,3,12,26,20,317,33,11,08,111,,03,06,038,16,17,04,188,*7A
$GPRMC,201905.752,A,3748.8011,N,12217.8653,W,0.18,66.75,110711,,,A*40
$GPVTG,66.75,T,,M,0.18,N,0.3,K,A*35
$GPGGA,201906.752,3748.8024,N,12217.8642,W,1,04,2.5,12.9,M,-25.1,M,,0000*59
$GPGSA,A,3,05,10,28,13,,,,,,,,,3.8,2.5,2.8*38
$GPRMC,201906.752,A,3748.8024,N,12217.8642,W,0.32,27.28,110711,,,A*40
$GPVTG,27.28,T,,M,0.32,N,0.6,K,A*35
$GPGGA,201907.000,3748.8029,N,12217.8639,W,1,04,2.5,11.7,M,-25.1,M,,0000*54
$GPGSA,A,3,05,10,28,13,,,,,,,,,3.8,2.5,2.8*38
$GPRMC,201907.000,A,3748.8029,N,12217.8639,W,0.22,43.10,110711,,,A*48
$GPVTG,43.10,T,,M,0.22,N,0.4,K,A*3F
$GPGGA,201908.000,3748.8022,N,12217.8635,W,1,04,2.5,11.8,M,-25.1,M,,0000*53
$GPGSA,A,3,05,10,28,13,,,,,,,,,3.8,2.5,2.8*38
$GPRMC,201908.000,A,3748.8022,N,12217.8635,W,0.37,46.75,110711,,,A*42
$GPVTG,46.75,T,,M,0.37,N,0.7,K,A*3E
$GPGGA,201909.000,3748.8031,N,12217.8629,W,1,04,2.5,9.0,M,-25.1,M,,0000*6C
$GPGSA,A,3,05,10,28,13,,,,,,,,,3.8,2.5,2.8*38
$GPRMC,201909.000,A,3748.8031,N,12217.8629,W,0.25,52.63,110711,,,A*4D
$GPVTG,52.63,T,,M,0.25,N,0.5,K,A*3D
$GPGGA,201910.000,3748.8027,N,12217.8626,W,1,04,2.5,8.5,M,-25.1,M,,0000*68
$GPGSA,A,3,05,10,28,13,,,,,,,,,3.8,2.5,2.8*38
$GPGSV,3,1,12,28,55,243,31,13,30,147,28,05,21,277,30,10,19,224,34*71
$GPGSV,3,2,12,08,63,345,32,07,60,055,22,19,28,057,35,01,20,237,*77
$GPGSV,3,3,12,26,20,317,33,11,08,111,24,03,06,038,26,17,04,188,*7F
$GPRMC,201910.000,A,3748.8027,N,12217.8626,W,0.30,66.93,110711,,,A*41
$GPGGA,201911.000,3748.8027,N,12217.8624,W,1,04,2.5,7.7,M,-25.1,M,,0000*66
$GPGSA,A,3,05,10,28,13,,,,,,,,,3.8,2.5,2.8*38
$GPRMC,201911.000,A,3748.8027,N,12217.8624,W,0.25,37.95,110711,,,A*44
$GPVTG,37.95,T,,M,0.25,N,0.5,K,A*37
$GPGGA,201912.000,3748.8027,N,12217.8621,W,1,04,2.5,6.8,M,-25.1,M,,0000*6E
$GPGSA,A,3,05,10,28,13,,,,,,,,,3.8,2.5,2.8*38
$GPRMC,201912.000,A,3748.8027,N,12217.8621,W,0.31,50.03,110711,,,A*49
$GPVTG,50.03,T,,M,0.31,N,0.6,K,A*3F
$GPGGA,201913.000,3748.8027,N,12217.8618,W,1,04,2.5,6.0,M,-25.1,M,,0000*6D
$GPGSA,A,3,05,10,28,13,,,,,,,,,3.8,2.5,2.8*38
$GPRMC,201913.000,A,3748.8027,N,12217.8618,W,0.33,49.33,110711,,,A*4B
$GPVTG,49.33,T,,M,0.33,N,0.6,K,A*36
$GPGGA,201914.000,3748.8031,N,12217.8613,W,1,04,2.5,5.5,M,-25.1,M,,0000*60
$GPGSA,A,3,05,10,28,13,,,,,,,,,3.8,2.5,2.8*38
$GPRMC,201914.000,A,3748.8031,N,12217.8613,W,0.40,40.89,110711,,,A*4C
$GPVTG,40.89,T,,M,0.40,N,0.7,K,A*3B
$GPGGA,201915.000,3748.8032,N,12217.8607,W,1,04,2.5,4.6,M,-25.1,M,,0000*65
$GPGSA,A,3,05,10,28,13,,,,,,,,,3.8,2.5,2.8*38
$GPGSV,3,1,12,28,55,243,31,13,30,147,23,05,21,277,32,10,19,224,22*7F
$GPGSV,3,2,12,08,63,345,29,07,60,055,16,19,28,057,31,01,20,237,*7E
$GPGSV,3,3,12,26,20,317,34,11,08,111,24,03,06,038,27,17,04,188,*79
$GPRMC,201915.000,A,3748.8032,N,12217.8607,W,0.85,52.20,110711,,,A*42
$GPVTG,52.20,T,,M,0.85,N,1.6,K,A*32
$GPGGA,201916.000,3748.8028,N,12217.8604,W,1,04,2.5,3.4,M,-25.1,M,,0000*6B
$GPGSA,A,3,05,10,28,13,,,,,,,,,3.8,2.5,2.8*38
$GPRMC,201916.000,A,3748.8028,N,12217.8604,W,1.24,61.91,110711,,,A*49
$GPVTG,61.91,T,,M,1.24,N,2.3,K,A*34
$GPGGA,201917.000,3748.8029,N,12217.8594,W,1,04,2.5,2.2,M,-25.1,M,,0000*66
$GPGSA,A,3,05,10,28,13,,,,,,,,,3.8,2.5,2.8*38
$GPRMC,201917.000,A,3748.8029,N,12217.8594,W,0.93,59.55,110711,,,A*4D
$GPVTG,59.55,T,,M,0.93,N,1.7,K,A*3D
$GPGGA,201918.000,3748.8031,N,12217.8586,W,1,04,2.5,1.2,M,-25.1,M,,0000*60
$GPGSA,A,3,05,10,28,13,,,,,,,,,3.8,2.5,2.8*38
$GPRMC,201918.000,A,3748.8031,N,12217.8586,W,0.85,55.83,110711,,,A*48
$GPVTG,55.83,T,,M,0.85,N,1.6,K,A*3C
$GPGGA,201919.000,3748.8031,N,12217.8583,W,1,04,2.5,0.5,M,-25.1,M,,0000*62
$GPGSA,A,3,05,10,28,13,,,,,,,,,3.8,2.5,2.8*38
$GPRMC,201919.000,A,3748.8031,N,12217.8583,W,0.59,33.53,110711,,,A*40
$GPVTG,33.53,T,,M,0.59,N,1.1,K,A*37
$GPGGA,201920.000,3748.8041,N,12217.8575,W,1,04,2.5,0.6,M,-25.1,M,,0000*65
$GPGSA,A,3,05,10,28,13,,,,,,,,,3.8,2.5,2.8*38
$GPGSV,3,1,12,08,63,345,31,07,60,055,24,28,56,243,29,13,30,147,31*74
$GPGSV,3,2,12,19,28,057,32,05,21,277,32,01,20,237,,26,20,317,32*78
$GPGSV,3,3,12,10,19,224,25,11,08,111,14,03,06,038,29,17,04,188,*7A
$GPRMC,201920.000,A,3748.8041,N,12217.8575,W,1.16,33.41,110711,,,A*4D
$GPVTG,33.41,T,,M,1.16,N,2.1,K,A*3D
$GPGGA,201921.000,3748.8047,N,12217.8569,W,1,04,2.5,0.4,M,-25.1,M,,0000*6D
$GPGSA,A,3,05,10,28,13,,,,,,,,,3.8,2.5,2.8*38
$GPRMC,201921.000,A,3748.8047,N,12217.8569,W,0.77,37.33,110711,,,A*40
$GPVTG,37.33,T,,M,0.77,N,1.4,K,A*3C
$GPGGA,201922.000,3748.8049,N,12217.8568,W,1,04,2.5,1.0,M,-25.1,M,,0000*64
$GPGSA,A,3,05,10,28,13,,,,,,,,,3.8,2.5,2.8*38
$GPRMC,201922.000,A,3748.8049,N,12217.8568,W,0.43,31.18,110711,,,A*44
$GPVTG,31.18,T,,M,0.43,N,0.8,K,A*39
$GPGGA,201923.000,3748.8050,N,12217.8565,W,1,04,2.5,-1.3,M,-25.1,M,,0000*4E
$GPGSA,A,3,05,10,28,13,,,,,,,,,3.8,2.5,2.8*38
$GPRMC,201923.000,A,3748.8050,N,12217.8565,W,0.47,43.71,110711,,,A*4E
$GPVTG,43.71,T,,M,0.47,N,0.9,K,A*36
$GPGGA,201924.000,3748.8046,N,12217.8567,W,1,04,2.5,-1.9,M,-25.1,M,,0000*46
$GPGSA,A,3,05,10,28,13,,,,,,,,,3.8,2.5,2.8*38
$GPRMC,201924.000,A,3748.8046,N,12217.8567,W,0.30,46.95,110711,,,A*43
$GPVTG,46.95,T,,M,0.30,N,0.6,K,A*36
$GPGGA,201925.000,3748.8050,N,12217.8556,W,1,04,2.5,-2.8,M,-25.1,M,,0000*40
$GPGSA,A,3,05,10,28,13,,,,,,,,,3.8,2.5,2.8*38
$GPGSV,3,1,12,08,63,345,27,07,60,055,20,28,56,243,25,13,30,147,27*7C
$GPGSV,3,2,12,19,28,057,30,05,21,277,33,01,20,237,,26,20,317,30*79
$GPGSV,3,3,12,10,19,224,29,11,08,111,,03,06,038,27,17,04,188,*7D
$GPRMC,201925.000,A,3748.8050,N,12217.8556,W,0.96,62.43,110711,,,A*46
$GPGGA,201926.000,3748.8051,N,12217.8546,W,1,04,2.5,-5.0,M,-25.1,M,,0000*4C
$GPGSA,A,3,05,10,28,13,,,,,,,,,3.8,2.5,2.8*38
$GPRMC,201926.000,A,3748.8051,N,12217.8546,W,1.39,75.29,110711,,,A*4B
$GPVTG,75.29,T,,M,1.39,N,2.6,K,A*3B
$GPGGA,201927.000,3748.8053,N,12217.8546,W,1,04,2.5,-3.0,M,-25.1,M,,0000*49
$GPGSA,A,3,05,10,28,13,,,,,,,,,3.8,2.5,2.8*38
$GPRMC,201927.000,A,3748.8053,N,12217.8546,W,0.81,52.82,110711,,,A*4E
$GPVTG,52.82,T,,M,0.81,N,1.5,K,A*3D
$GPGGA,201928.000,3748.8055,N,12217.8545,W,1,03,2.4,-3.2,M,-25.1,M,,0000*47
$GPGSA,A,2,05,10,13,,,,,,,,,,2.6,2.4,1.0*36
$GPRMC,201928.000,A,3748.8055,N,12217.8545,W,0.64,34.35,110711,,,A*43
$GPVTG,34.35,T,,M,0.64,N,1.2,K,N*32
$GPGGA,201929.000,3748.8059,N,12217.8541,W,1,04,2.5,-4.6,M,-25.1,M,,0000*4B
$GPGSA,A,3,05,10,28,13,,,,,,,,,3.8,2.5,2.8*38
$GPRMC,201929.000,A,3748.8059,N,12217.8541,W,1.40,39.69,110711,,,A*49
$GPVTG,39.69,T,,M,1.40,N,2.6,K,A*39
$GPGGA,201930.000,3748.8060,N,12217.8540,W,1,04,2.5,-5.0,M,-25.1,M,,0000*4F
$GPGSA,A,3,05,10,28,13,,,,,,,,,3.8,2.5,2.8*38
$GPGSV,3,1,12,08,63,345,18,07,60,055,24,28,56,243,18,13,30,147,30*7C
$GPGSV,3,2,12,19,28,057,33,05,21,277,25,01,20,237,,26,20,317,31*7C
$GPGSV,3,3,12,10,19,224,28,11,08,111,15,03,06,038,26,17,04,188,*79
$GPRMC,201930.000,A,3748.8060,N,12217.8540,W,0.82,35.88,110711,,,A*46
$GPVTG,35.88,T,,M,0.82,N,1.5,K,A*35
$GPGGA,201931.000,3748.8062,N,12217.8537,W,1,04,2.5,-7.0,M,-25.1,M,,0000*4E
$GPGSA,A,3,05,10,28,13,,,,,,,,,3.8,2.5,2.8*38
$GPRMC,201931.000,A,3748.8062,N,12217.8537,W,0.53,43.69,110711,,,A*47
$GPVTG,43.69,T,,M,0.53,N,1.0,K,A*32
$GPGGA,201932.000,3748.8063,N,12217.8535,W,1,04,2.5,-8.0,M,-25.1,M,,0000*41
$GPGSA,A,3,05,10,28,13,,,,,,,,,3.8,2.5,2.8*38
$GPRMC,201932.000,A,3748.8063,N,12217.8535,W,0.46,45.02,110711,,,A*48
$GPVTG,45.02,T,,M,0.46,N,0.9,K,A*35
$GPGGA,201933.000,3748.8064,N,12217.8533,W,1,04,2.5,-9.6,M,-25.1,M,,0000*46
$GPGSA,A,3,05,10,28,13,,,,,,,,,3.8,2.5,2.8*38
$GPRMC,201933.000,A,3748.8064,N,12217.8533,W,0.36,52.44,110711,,,A*4B
$GPVTG,52.44,T,,M,0.36,N,0.7,K,A*38
$GPGGA,201934.000,3748.8047,N,12217.8541,W,1,05,1.5,-9.2,M,-25.1,M,,0000*43
$GPGSA,A,3,05,10,28,26,13,,,,,,,,2.9,1.5,2.5*32
$GPRMC,201934.000,A,3748.8047,N,12217.8541,W,0.16,124.85,110711,,,A*77
$GPVTG,124.85,T,,M,0.16,N,0.3,K,A*03
$GPGGA,201935.000,3748.8037,N,12217.8545,W,1,05,1.5,-9.3,M,-25.1,M,,0000*40
$GPGSA,A,3,05,10,28,26,13,,,,,,,,2.9,1.5,2.5*32
$GPGSV,3,1,12,08,63,345,23,07,60,055,28,28,56,243,20,13,30,147,29*7B
$GPGSV,3,2,12,19,28,057,33,05,21,277,32,01,21,237,,26,21,317,37*7C
$GPGSV,3,3,12,10,18,224,34,11,08,111,,03,06,038,35,17,04,188,*73
$GPRMC,201935.000,A,3748.8037,N,12217.8545,W,0.28,125.22,110711,,,A*74
$GPVTG,125.22,T,,M,0.28,N,0.5,K,A*04
$GPGGA,201936.000,3748.8032,N,12217.8544,W,1,05,1.5,-11.0,M,-25.1,M,,0000*7D
$GPGSA,A,3,05,10,28,26,13,,,,,,,,2.9,1.5,2.5*32
$GPRMC,201936.000,A,3748.8032,N,12217.8544,W,0.17,162.33,110711,,,A*7C
$GPVTG,162.33,T,,M,0.17,N,0.3,K,A*0D
$GPGGA,201937.000,3748.8027,N,12217.8547,W,1,05,1.5,-11.5,M,-25.1,M,,0000*7E
$GPGSA,A,3,05,10,28,26,13,,,,,,,,2.9,1.5,2.5*32
$GPRMC,201937.000,A,3748.8027,N,12217.8547,W,0.22,124.80,110711,,,A*76
$GPVTG,124.80,T,,M,0.22,N,0.4,K,A*06
$GPGGA,201938.000,3748.8023,N,12217.8550,W,1,05,1.5,-10.1,M,-25.1,M,,0000*76
$GPGSA,A,3,05,10,28,26,13,,,,,,,,2.9,1.5,2.5*32
$GPRMC,201938.000,A,3748.8023,N,12217.8550,W,0.30,135.20,110711,,,A*72
$GPVTG,135.20,T,,M,0.30,N,0.6,K,A*0D
$GPGGA,201939.000,3748.8021,N,12217.8548,W,1,05,1.5,-9.2,M,-25.1,M,,0000*47
$GPGSA,A,3,05,10,28,26,13,,,,,,,,2.9,1.5,2.5*32
$GPRMC,201939.000,A,3748.8021,N,12217.8548,W,0.37,122.31,110711,,,A*79
$GPVTG,122.31,T,,M,0.37,N,0.7,K,A*0D
$GPGGA,201940.000,3748.8020,N,12217.8547,W,1,05,1.5,-8.5,M,-25.1,M,,0000*41
$GPGSA,A,3,05,10,28,26,13,,,,,,,,2.9,1.5,2.5*32
$GPGSV,3,1,12,08,63,345,27,07,60,055,24,28,56,243,22,13,30,147,29*71
$GPGSV,3,2,12,19,28,057,32,05,21,277,27,01,21,237,,26,21,317,37*79
$GPGSV,3,3,12,10,18,224,28,11,08,111,23,03,06,038,37,17,04,188,*7D
$GPRMC,201940.000,A,3748.8020,N,12217.8547,W,0.25,95.81,110711,,,A*4C
$GPGGA,201941.000,3748.8017,N,12217.8546,W,1,05,1.5,-6.3,M,-25.1,M,,0000*4D
$GPGSA,A,3,05,10,28,26,13,,,,,,,,2.9,1.5,2.5*32
$GPRMC,201941.000,A,3748.8017,N,12217.8546,W,0.49,106.82,110711,,,A*7A
$GPVTG,106.82,T,,M,0.49,N,0.9,K,A*04
$GPGGA,201942.000,3748.8015,N,12217.8548,W,1,05,1.5,-4.4,M,-25.1,M,,0000*47
$GPGSA,A,3,05,10,28,26,13,,,,,,,,2.9,1.5,2.5*32
$GPRMC,201942.000,A,3748.8015,N,12217.8548,W,0.13,270.16,110711,,,A*75
$GPVTG,270.16,T,,M,0.13,N,0.2,K,A*0F
$GPGGA,201943.000,3748.8014,N,12217.8549,W,1,05,1.5,-3.6,M,-25.1,M,,0000*43
$GPGSA,A,3,05,10,28,26,13,,,,,,,,2.9,1.5,2.5*32
$GPRMC,201943.000,A,3748.8014,N,12217.8549,W,0.11,236.27,110711,,,A*76
$GPVTG,236.27,T,,M,0.11,N,0.2,K,A*0D
$GPGGA,201944.000,3748.8013,N,12217.8550,W,1,05,1.5,-2.7,M,-25.1,M,,0000*4B
$GPGSA,A,3,05,10,28,26,13,,,,,,,,2.9,1.5,2.5*32
$GPRMC,201944.000,A,3748.8013,N,12217.8550,W,0.04,172.81,110711,,,A*75
$GPVTG,172.81,T,,M,0.04,N,0.1,K,A*05
$GPGGA,201945.000,3748.8012,N,12217.8549,W,1,05,1.5,-2.5,M,-25.1,M,,0000*41
$GPGSA,A,3,05,10,28,26,13,,,,,,,,2.9,1.5,2.5*32
$GPGSV,3,1,12,08,63,345,27,07,60,055,24,28,56,243,30,13,30,147,32*78
$GPGSV,3,2,12,19,28,057,25,05,21,277,28,01,21,237,,26,21,317,27*71
$GPGSV,3,3,12,10,18,224,35,11,08,111,23,03,06,038,32,17,04,188,*74
$GPRMC,201945.000,A,3748.8012,N,12217.8549,W,0.46,78.43,110711,,,A*4E
$GPVTG,78.43,T,,M,0.46,N,0.9,K,A*3E
$GPGGA,201946.000,3748.8012,N,12217.8547,W,1,05,1.5,-1.3,M,-25.1,M,,0000*49
$GPGSA,A,3,05,10,28,26,13,,,,,,,,2.9,1.5,2.5*32
$GPRMC,201946.000,A,3748.8012,N,12217.8547,W,0.27,16.73,110711,,,A*4F
$GPVTG,16.73,T,,M,0.27,N,0.5,K,A*3E
$GPGGA,201947.000,3748.8012,N,12217.8546,W,1,05,1.5,-0.7,M,-25.1,M,,0000*4C
$GPGSA,A,3,05,10,28,26,13,,,,,,,,2.9,1.5,2.5*32
$GPRMC,201947.000,A,3748.8012,N,12217.8546,W,0.13,114.70,110711,,,A*78
$GPVTG,114.70,T,,M,0.13,N,0.2,K,A*0E
$GPGGA,201948.000,3748.8013,N,12217.8552,W,1,05,1.5,-0.3,M,-25.1,M,,0000*43
$GPGSA,A,3,05,10,28,26,13,,,,,,,,2.9,1.5,2.5*32
$GPRMC,201948.000,A,3748.8013,N,12217.8552,W,0.28,229.74,110711,,,A*72
$GPVTG,229.74,T,,M,0.28,N,0.5,K,A*08
$GPGGA,201949.000,3748.8013,N,12217.8555,W,1,05,1.5,-0.1,M,-25.1,M,,0000*47
$GPGSA,A,3,05,10,28,26,13,,,,,,,,2.9,1.5,2.5*32
$GPRMC,201949.000,A,3748.8013,N,12217.8555,W,0.12,181.19,110711,,,A*77
$GPVTG,181.19,T,,M,0.12,N,0.2,K,A*0C
$GPGGA,201950.000,3748.8013,N,12217.8557,W,1,05,1.5,0.2,M,-25.1,M,,0000*63
$GPGSA,A,3,05,10,28,26,13,,,,,,,,2.9,1.5,2.5*32
$GPGSV,3,1,12,08,63,345,26,07,60,055,24,28,56,243,37,13,30,147,31*7D
$GPGSV,3,2,12,19,28,057,23,05,21,277,34,01,21,237,,26,21,317,34*78
$GPGSV,3,3,12,10,18,224,40,11,08,111,24,03,06,038,27,17,04,188,*75
$GPRMC,201950.000,A,3748.8013,N,12217.8557,W,0.15,227.89,110711,,,A*7C
$GPVTG,227.89,T,,M,0.15,N,0.3,K,A*0C
$GPGGA,201951.000,3748.8013,N,12217.8558,W,1,05,1.5,0.4,M,-25.1,M,,0000*6B
$GPGSA,A,3,05,10,28,26,13,,,,,,,,2.9,1.5,2.5*32
$GPRMC,201951.000,A,3748.8013,N,12217.8558,W,0.09,107.60,110711,,,A*79
$GPVTG,107.60,T,,M,0.09,N,0.2,K,A*06
$GPGGA,201952.000,3748.8015,N,12217.8558,W,1,05,1.5,0.3,M,-25.1,M,,0000*69
$GPGSA,A,3,05,10,28,26,13,,,,,,,,2.9,1.5,2.5*32
$GPRMC,201952.000,A,3748.8015,N,12217.8558,W,0.14,219.96,110711,,,A*75
$GPVTG,219.96,T,,M,0.14,N,0.3,K,A*0E
$GPGGA,201953.000,3748.8013,N,12217.8559,W,1,05,1.5,0.6,M,-25.1,M,,0000*6A
$GPGSA,A,3,05,10,28,26,13,,,,,,,,2.9,1.5,2.5*32
$GPRMC,201953.000,A,3748.8013,N,12217.8559,W,0.17,202.54,110711,,,A*74
$GPVTG,202.54,T,,M,0.17,N,0.3,K,A*09
$GPGGA,201954.000,3748.8011,N,12217.8564,W,1,05,1.5,1.8,M,-25.1,M,,0000*6E
$GPGSA,A,3,05,10,28,26,13,,,,,,,,2.9,1.5,2.5*32
$GPRMC,201954.000,A,3748.8011,N,12217.8564,W,0.50,199.65,110711,,,A*7F
$GPVTG,199.65,T,,M,0.50,N,0.9,K,A*03
$GPGGA,201955.000,3748.8011,N,12217.8557,W,1,05,1.5,0.4,M,-25.1,M,,0000*62
$GPGSA,A,3,05,10,28,26,13,,,,,,,,2.9,1.5,2.5*32
$GPGSV,3,1,12,08,63,345,23,07,60,055,21,28,56,243,23,13,30,147,25*7D
$GPGSV,3,2,12,19,28,057,23,05,21,277,27,01,21,237,,26,21,317,24*7B
$GPGSV,3,3,12,10,18,224,35,11,08,111,20,03,06,038,23,17,04,188,*77
$GPRMC,201955.000,A,3748.8011,N,12217.8557,W,0.35,106.31,110711,,,A*7A
$GPGGA,201956.000,3748.8013,N,12217.8552,W,1,05,1.5,0.5,M,-25.1,M,,0000*67
$GPGSA,A,3,05,10,28,26,13,,,,,,,,2.9,1.5,2.5*32
$GPRMC,201956.000,A,3748.8013,N,12217.8552,W,0.49,102.41,110711,,,A*76
$GPVTG,102.41,T,,M,0.49,N,0.9,K,A*0F
$GPGGA,201957.000,3748.8013,N,12217.8545,W,1,05,1.5,-0.4,M,-25.1,M,,0000*4C
$GPGSA,A,3,05,10,28,26,13,,,,,,,,2.9,1.5,2.5*32
$GPRMC,201957.000,A,3748.8013,N,12217.8545,W,0.38,141.21,110711,,,A*76
$GPVTG,141.21,T,,M,0.38,N,0.7,K,A*06
$GPGGA,201958.000,3748.8010,N,12217.8553,W,1,05,1.5,0.1,M,-25.1,M,,0000*6F
$GPGSA,A,3,05,10,28,26,13,,,,,,,,2.9,1.5,2.5*32
$GPRMC,201958.000,A,3748.8010,N,12217.8553,W,0.41,253.41,110711,,,A*75
$GPVTG,253.41,T,,M,0.41,N,0.8,K,A*01
$GPGGA,201959.000,3748.8007,N,12217.8561,W,1,05,1.5,0.3,M,-25.1,M,,0000*6B
$GPGSA,A,3,05,10,28,26,13,,,,,,,,2.9,1.5,2.5*32
$GPRMC,201959.000,A,3748.8007,N,12217.8561,W,0.45,247.33,110711,,,A*77
$GPVTG,247.33,T,,M,0.45,N,0.8,K,A*05
$GPGGA,202000.000,3748.8006,N,12217.8571,W,1,05,1.5,0.5,M,-25.1,M,,0000*6B
$GPGSA,A,3,05,10,28,26,13,,,,,,,,2.9,1.5,2.5*32
$GPGSV,3,1,12,08,63,345,30,07,60,055,24,28,56,243,36,13,30,147,24*7F
$GPGSV,3,2,12,19,28,057,24,05,21,277,37,01,21,237,,26,21,317,27*7E
$GPGSV,3,3,12,10,18,224,40,11,08,111,,03,06,038,31,17,04,188,*74
$GPRMC,202000.000,A,3748.8006,N,12217.8571,W,0.71,257.33,110711,,,A*77
$GPVTG,257.33,T,,M,0.71,N,1.3,K,A*09
$GPGGA,202001.000,3748.8006,N,12217.8571,W,1,05,1.5,-0.1,M,-25.1,M,,0000*43
$GPGSA,A,3,05,10,28,26,13,,,,,,,,2.9,1.5,2.5*32
$GPRMC,202001.000,A,3748.8006,N,12217.8571,W,0.06,179.69,110711,,,A*76
$GPVTG,179.69,T,,M,0.06,N,0.1,K,A*0A
$GPGGA,202002.000,3748.8006,N,12217.8572,W,1,05,1.5,-0.5,M,-25.1,M,,0000*47
$GPGSA,A,3,05,10,28,26,13,,,,,,,,2.9,1.5,2.5*32
$GPRMC,202002.000,A,3748.8006,N,12217.8572,W,0.03,297.91,110711,,,A*77
$GPVTG,297.91,T,,M,0.03,N,0.1,K,A*0B
$GPGGA,202003.000,3748.8007,N,12217.8573,W,1,05,1.5,-0.5,M,-25.1,M,,0000*46
$GPGSA,A,3,05,10,28,26,13,,,,,,,,2.9,1.5,2.5*32
$GPRMC,202003.000,A,3748.8007,N,12217.8573,W,0.08,160.78,110711,,,A*71
$GPVTG,160.78,T,,M,0.08,N,0.1,K,A*0C
$GPGGA,202004.000,3748.8008,N,12217.8573,W,1,05,1.5,-0.5,M,-25.1,M,,0000*4E
$GPGSA,A,3,05,10,28,26,13,,,,,,,,2.9,1.5,2.5*32
$GPRMC,202004.000,A,3748.8008,N,12217.8573,W,0.10,200.71,110711,,,A*7C
$GPVTG,200.71,T,,M,0.10,N,0.2,K,A*0A
$GPGGA,202005.000,3748.8009,N,12217.8574,W,1,05,1.5,-0.7,M,-25.1,M,,0000*4B
$GPGSA,A,3,05,10,28,26,13,,,,,,,,2.9,1.5,2.5*32
$GPGSV,3,1,12,08,63,345,32,07,60,055,25,28,56,243,33,13,30,147,32*7E
$GPGSV,3,2,12,19,28,057,23,05,21,277,32,01,21,237,,26,21,317,33*79
$GPGSV,3,3,12,10,18,224,34,11,08,111,23,03,06,038,29,17,04,188,*7F
$GPRMC,202005.000,A,3748.8009,N,12217.8574,W,0.11,226.10,110711,,,A*79
$GPVTG,226.10,T,,M,0.11,N,0.2,K,A*08
$GPGGA,202006.000,3748.8010,N,12217.8574,W,1,05,1.5,-0.7,M,-25.1,M,,0000*40
$GPGSA,A,3,05,10,28,26,13,,,,,,,,2.9,1.5,2.5*32
$GPRMC,202006.000,A,3748.8010,N,12217.8574,W,0.10,230.64,110711,,,A*77
$GPVTG,230.64,T,,M,0.10,N,0.2,K,A*0D
$GPGGA,202007.000,3748.8010,N,12217.8574,W,1,05,1.5,-0.8,M,-25.1,M,,0000*4E
$GPGSA,A,3,05,10,28,26,13,,,,,,,,2.9,1.5,2.5*32
$GPRMC,202007.000,A,3748.8010,N,12217.8574,W,0.12,96.07,110711,,,A*4F
$GPVTG,96.07,T,,M,0.12,N,0.2,K,A*34
$GPGGA,202008.000,3748.8010,N,12217.8576,W,1,05,1.5,-0.7,M,-25.1,M,,0000*4C
$GPGSA,A,3,05,10,28,26,13,,,,,,,,2.9,1.5,2.5*32
$GPRMC,202008.000,A,3748.8010,N,12217.8576,W,0.50,232.65,110711,,,A*7C
$GPVTG,232.65,T,,M,0.50,N,0.9,K,A*01
$GPGGA,202009.000,3748.8013,N,12217.8573,W,1,05,1.5,-1.2,M,-25.1,M,,0000*4F
$GPGSA,A,3,05,10,28,26,13,,,,,,,,2.9,1.5,2.5*32
$GPRMC,202009.000,A,3748.8013,N,12217.8573,W,0.14,3.96,110711,,,A*77
$GPVTG,3.96,T,,M,0.14,N,0.3,K,A*07
$GPGGA,202010.000,3748.8015,N,12217.8570,W,1,05,1.5,-1.6,M,-25.1,M,,0000*46
$GPGSA,A,3,05,10,28,26,13,,,,,,,,2.9,1.5,2.5*32
$GPGSV,3,1,12,08,63,345,29,07,60,055,25,28,56,243,34,13,30,147,31*70
$GPGSV,3,2,12,19,28,057,24,05,21,277,38,01,21,237,,26,21,317,27*71
$GPGSV,3,3,12,10,18,224,35,11,08,111,30,03,06,038,30,17,04,188,*74
$GPRMC,202010.000,A,3748.8015,N,12217.8570,W,0.06,93.77,110711,,,A*4F
$GPGGA,202011.000,3748.8015,N,12217.8567,W,1,05,1.5,-1.8,M,-25.1,M,,0000*4F
$GPGSA,A,3,05,10,28,26,13,,,,,,,,2.9,1.5,2.5*32
$GPRMC,202011.000,A,3748.8015,N,12217.8567,W,0.35,128.31,110711,,,A*7B
$GPVTG,128.31,T,,M,0.35,N,0.6,K,A*04
$GPGGA,202012.000,3748.8013,N,12217.8566,W,1,05,1.5,-1.8,M,-25.1,M,,0000*4B
$GPGSA,A,3,05,10,28,26,13,,,,,,,,2.9,1.5,2.5*32
$GPRMC,202012.000,A,3748.8013,N,12217.8566,W,0.42,179.43,110711,,,A*7E
$GPVTG,179.43,T,,M,0.42,N,0.8,K,A*0B
$GPGGA,202013.000,3748.8011,N,12217.8566,W,1,05,1.5,-1.6,M,-25.1,M,,0000*46
$GPGSA,A,3,05,10,28,26,13,,,,,,,,2.9,1.5,2.5*32
$GPRMC,202013.000,A,3748.8011,N,12217.8566,W,0.42,210.81,110711,,,A*7F
$GPVTG,210.81,T,,M,0.42,N,0.8,K,A*09
$GPGGA,202014.000,3748.8008,N,12217.8567,W,1,05,1.5,-1.4,M,-25.1,M,,0000*4A
$GPGSA,A,3,05,10,28,26,13,,,,,,,,2.9,1.5,2.5*32
$GPRMC,202014.000,A,3748.8008,N,12217.8567,W,0.24,221.35,110711,,,A*7C
$GPVTG,221.35,T,,M,0.24,N,0.5,K,A*09
$GPGGA,202015.000,3748.8006,N,12217.8568,W,1,05,1.5,-1.1,M,-25.1,M,,0000*4F
$GPGSA,A,3,05,10,28,26,13,,,,,,,,2.9,1.5,2.5*32
$GPGSV,3,1,12,08,63,345,29,07,60,055,25,28,56,243,34,13,30,147,36*77
$GPGSV,3,2,12,19,28,057,19,05,21,277,39,01,21,237,,26,21,317,31*79
$GPGSV,3,3,12,10,18,224,38,11,08,111,25,03,06,038,23,17,04,188,*7F
$GPRMC,202015.000,A,3748.8006,N,12217.8568,W,0.09,236.82,110711,,,A*79
$GPVTG,236.82,T,,M,0.09,N,0.2,K,A*0B
$GPGGA,202016.000,3748.8005,N,12217.8569,W,1,05,1.5,-0.8,M,-25.1,M,,0000*46
$GPGSA,A,3,05,10,28,26,13,,,,,,,,2.9,1.5,2.5*32
$GPRMC,202016.000,A,3748.8005,N,12217.8569,W,0.02,187.43,110711,,,A*77
$GPVTG,187.43,T,,M,0.02,N,0.0,K,A*06
$GPGGA,202017.000,3748.8003,N,12217.8571,W,1,05,1.5,-0.4,M,-25.1,M,,0000*44
$GPGSA,A,3,05,10,28,26,13,,,,,,,,2.9,1.5,2.5*32
$GPRMC,202017.000,A,3748.8003,N,12217.8571,W,0.13,222.87,110711,,,A*7D
$GPVTG,222.87,T,,M,0.13,N,0.2,K,A*00
$GPGGA,202018.000,3748.8002,N,12217.8573,W,1,05,1.5,-0.0,M,-25.1,M,,0000*4C
$GPGSA,A,3,05,10,28,26,13,,,,,,,,2.9,1.5,2.5*32
$GPRMC,202018.000,A,3748.8002,N,12217.8573,W,0.07,265.55,110711,,,A*78
$GPVTG,265.55,T,,M,0.07,N,0.1,K,A*0A
$GPGGA,202019.000,3748.8001,N,12217.8576,W,1,05,1.5,0.4,M,-25.1,M,,0000*62
$GPGSA,A,3,05,10,28,26,13,,,,,,,,2.9,1.5,2.5*32
$GPRMC,202019.000,A,3748.8001,N,12217.8576,W,0.12,235.79,110711,,,A*70
$GPVTG,235.79,T,,M,0.12,N,0.2,K,A*06
$GPGGA,202020.000,3748.8000,N,12217.8578,W,1,05,1.5,0.8,M,-25.1,M,,0000*6B
$GPGSA,A,3,05,10,28,26,13,,,,,,,,2.9,1.5,2.5*32
$GPGSV,3,1,12,08,63,346,29,07,60,056,29,28,56,243,34,13,29,148,35*7F
$GPGSV,3,2,12,19,28,057,26,05,21,277,39,26,21,317,31,01,21,237,*75
$GPGSV,3,3,12,10,18,224,40,11,09,110,24,03,06,037,32,17,04,188,*7E
$GPRMC,202020.000,A,3748.8000,N,12217.8578,W,0.10,208.64,110711,,,A*75
$GPVTG,208.64,T,,M,0.10,N,0.2,K,A*06
$GPGGA,202021.000,3748.7999,N,12217.8580,W,1,05,1.5,1.1,M,-25.1,M,,0000*63
$GPGSA,A,3,05,10,28,26,13,,,,,,,,2.9,1.5,2.5*32
$GPRMC,202021.000,A,3748.7999,N,12217.8580,W,0.07,246.64,110711,,,A*79
$GPVTG,246.64,T,,M,0.07,N,0.1,K,A*09
$GPGGA,202022.000,3748.7998,N,12217.8586,W,1,05,1.5,1.9,M,-25.1,M,,0000*6F
$GPGSA,A,3,05,10,28,26,13,,,,,,,,2.9,1.5,2.5*32
$GPRMC,202022.000,A,3748.7998,N,12217.8586,W,0.20,235.36,110711,,,A*7B
$GPVTG,235.36,T,,M,0.20,N,0.4,K,A*0A
$GPGGA,202023.000,3748.7997,N,12217.8591,W,1,05,1.5,2.6,M,-25.1,M,,0000*6B
$GPGSA,A,3,05,10,28,26,13,,,,,,,,2.9,1.5,2.5*32
$GPRMC,202023.000,A,3748.7997,N,12217.8591,W,0.03,354.48,110711,,,A*7D
$GPVTG,354.48,T,,M,0.03,N,0.1,K,A*01
$GPGGA,202024.000,3748.7996,N,12217.8597,W,1,05,1.5,3.3,M,-25.1,M,,0000*6F
$GPGSA,A,3,05,10,28,26,13,,,,,,,,2.9,1.5,2.5*32
$GPRMC,202024.000,A,3748.7996,N,12217.8597,W,0.17,324.67,110711,,,A*72
$GPVTG,324.67,T,,M,0.17,N,0.3,K,A*0C
$GPGGA,202025.000,3748.7996,N,12217.8602,W,1,05,1.5,3.9,M,-25.1,M,,0000*6B
$GPGSA,A,3,05,10,28,26,13,,,,,,,,2.9,1.5,2.5*32
$GPGSV,3,1,12,08,63,346,23,07,60,056,27,28,56,243,35,13,29,148,30*7F
$GPGSV,3,2,12,19,28,057,25,05,21,277,40,26,21,317,23,01,21,237,*7B
$GPGSV,3,3,12,10,18,224,39,11,09,110,13,03,06,037,31,17,04,188,*77
$GPRMC,202025.000,A,3748.7996,N,12217.8602,W,0.16,334.08,110711,,,A*75
$GPGGA,202026.000,3748.7997,N,12217.8605,W,1,05,1.5,4.4,M,-25.1,M,,0000*64
$GPGSA,A,3,05,10,28,26,13,,,,,,,,2.9,1.5,2.5*32
$GPRMC,202026.000,A,3748.7997,N,12217.8605,W,0.12,249.94,110711,,,A*7A
$GPVTG,249.94,T,,M,0.12,N,0.2,K,A*0E
$GPGGA,202027.000,3748.7996,N,12217.8610,W,1,05,1.5,5.0,M,-25.1,M,,0000*65
$GPGSA,A,3,05,10,28,26,13,,,,,,,,2.9,1.5,2.5*32
$GPRMC,202027.000,A,3748.7996,N,12217.8610,W,0.16,262.09,110711,,,A*77
$GPVTG,262.09,T,,M,0.16,N,0.3,K,A*06
$GPGGA,202028.000,3748.7996,N,12217.8613,W,1,05,1.5,5.4,M,-25.1,M,,0000*6D
$GPGSA,A,3,05,10,28,26,13,,,,,,,,2.9,1.5,2.5*32
$GPRMC,202028.000,A,3748.7996,N,12217.8613,W,0.21,246.79,110711,,,A*7E
$GPVTG,246.79,T,,M,0.21,N,0.4,K,A*04
$GPGGA,202029.000,3748.7996,N,12217.8617,W,1,05,1.5,6.0,M,-25.1,M,,0000*6F
$GPGSA,A,3,05,10,28,26,13,,,,,,,,2.9,1.5,2.5*32
$GPRMC,202029.000,A,3748.7996,N,12217.8617,W,0.26,239.39,110711,,,A*70
$GPVTG,239.39,T,,M,0.26,N,0.5,K,A*0E
$GPGGA,202030.000,3748.7996,N,12217.8620,W,1,05,1.5,6.4,M,-25.1,M,,0000*67
$GPGSA,A,3,05,10,28,26,13,,,,,,,,2.9,1.5,2.5*32
$GPGSV,3,1,12,08,63,346,25,07,60,056,27,28,56,243,34,13,29,148,31*79
$GPGSV,3,2,12,19,28,057,25,05,21,277,41,26,21,317,26,01,21,237,*7F
$GPGSV,3,3,12,10,18,224,39,11,09,110,,03,06,037,32,17,04,188,*76
$GPRMC,202030.000,A,3748.7996,N,12217.8620,W,0.30,255.46,110711,,,A*79
$GPVTG,255.46,T,,M,0.30,N,0.6,K,A*08
$GPGGA,202031.000,3748.7996,N,12217.8623,W,1,05,1.5,6.7,M,-25.1,M,,0000*66
$GPGSA,A,3,05,10,28,26,13,,,,,,,,2.9,1.5,2.5*32
$GPRMC,202031.000,A,3748.7996,N,12217.8623,W,0.26,262.42,110711,,,A*7C
$GPVTG,262.42,T,,M,0.26,N,0.5,K,A*0C
$GPGGA,202032.000,3748.7997,N,12217.8625,W,1,05,1.5,6.8,M,-25.1,M,,0000*6D
$GPGSA,A,3,05,10,28,26,13,,,,,,,,2.9,1.5,2.5*32
$GPRMC,202032.000,A,3748.7997,N,12217.8625,W,0.29,293.77,110711,,,A*7F
$GPVTG,293.77,T,,M,0.29,N,0.5,K,A*0B
$GPGGA,202033.000,3748.7997,N,12217.8627,W,1,05,1.5,7.1,M,-25.1,M,,0000*66
$GPGSA,A,3,05,10,28,26,13,,,,,,,,2.9,1.5,2.5*32
$GPRMC,202033.000,A,3748.7997,N,12217.8627,W,0.27,220.71,110711,,,A*7C
$GPVTG,220.71,T,,M,0.27,N,0.5,K,A*0B
$GPGGA,202034.000,3748.7997,N,12217.8626,W,1,05,1.5,7.0,M,-25.1,M,,0000*61
$GPGSA,A,3,05,10,28,26,13,,,,,,,,2.9,1.5,2.5*32
$GPRMC,202034.000,A,3748.7997,N,12217.8626,W,0.12,271.83,110711,,,A*75
$GPVTG,271.83,T,,M,0.12,N,0.2,K,A*03
$GPGGA,202035.000,3748.7997,N,12217.8624,W,1,05,1.5,6.9,M,-25.1,M,,0000*6A
$GPGSA,A,3,05,10,28,26,13,,,,,,,,2.9,1.5,2.5*32
$GPGSV,3,1,12,08,63,346,33,07,60,056,21,28,56,243,33,13,29,148,25*7A
$GPGSV,3,2,12,19,28,057,24,05,21,277,41,26,21,317,37,01,21,237,*7E
$GPGSV,3,3,12,10,18,224,39,11,09,110,23,03,06,037,32,17,04,188,*77
$GPRMC,202035.000,A,3748.7997,N,12217.8624,W,0.10,218.02,110711,,,A*72
$GPVTG,218.02,T,,M,0.10,N,0.2,K,A*07
$GPGGA,202036.000,3748.7997,N,12217.8624,W,1,05,1.5,6.8,M,-25.1,M,,0000*68
$GPGSA,A,3,05,10,28,26,13,,,,,,,,2.9,1.5,2.5*32
$GPRMC,202036.000,A,3748.7997,N,12217.8624,W,0.28,314.47,110711,,,A*76
$GPVTG,314.47,T,,M,0.28,N,0.5,K,A*07
$GPGGA,202037.000,3748.7998,N,12217.8625,W,1,05,1.5,6.6,M,-25.1,M,,0000*69
$GPGSA,A,3,05,10,28,26,13,,,,,,,,2.9,1.5,2.5*32
$GPRMC,202037.000,A,3748.7998,N,12217.8625,W,0.08,331.99,110711,,,A*7F
$GPVTG,331.99,T,,M,0.08,N,0.1,K,A*05
$GPGGA,202038.000,3748.7997,N,12217.8627,W,1,05,1.5,7.5,M,-25.1,M,,0000*69
$GPGSA,A,3,05,10,28,26,13,,,,,,,,2.9,1.5,2.5*32
$GPRMC,202038.000,A,3748.7997,N,12217.8627,W,0.20,274.08,110711,,,A*7F
$GPVTG,274.08,T,,M,0.20,N,0.4,K,A*02
$GPGGA,202039.000,3748.7996,N,12217.8628,W,1,05,1.5,8.2,M,-25.1,M,,0000*6E
$GPGSA,A,3,05,10,28,26,13,,,,,,,,2.9,1.5,2.5*32
$GPRMC,202039.000,A,3748.7996,N,12217.8628,W,0.66,201.26,110711,,,A*7C
$GPVTG,201.26,T,,M,0.66,N,1.2,K,A*09
$GPGGA,202040.000,3748.7995,N,12217.8623,W,1,05,1.5,7.0,M,-25.1,M,,0000*65
$GPGSA,A,3,05,10,28,26,13,,,,,,,,2.9,1.5,2.5*32
$GPGSV,3,1,12,08,63,346,25,07,60,056,19,28,56,243,28,13,29,148,25*7C
$GPGSV,3,2,12,19,28,057,31,05,21,277,32,26,21,317,30,01,21,237,*79
$GPGSV,3,3,12,10,18,224,30,11,09,110,24,03,06,037,29,17,04,188,*73
$GPRMC,202040.000,A,3748.7995,N,12217.8623,W,0.13,175.20,110711,,,A*7E
$GPGGA,202041.000,3748.7996,N,12217.8616,W,1,05,1.5,6.4,M,-25.1,M,,0000*64
$GPGSA,A,3,05,10,28,26,13,,,,,,,,2.9,1.5,2.5*32
$GPRMC,202041.000,A,3748.7996,N,12217.8616,W,0.19,248.90,110711,,,A*76
$GPVTG,248.90,T,,M,0.19,N,0.4,K,A*06
$GPGGA,202042.000,3748.7998,N,12217.8610,W,1,05,1.5,5.3,M,-25.1,M,,0000*6B
$GPGSA,A,3,05,10,28,26,13,,,,,,,,2.9,1.5,2.5*32
$GPRMC,202042.000,A,3748.7998,N,12217.8610,W,0.55,98.87,110711,,,A*4C
$GPVTG,98.87,T,,M,0.55,N,1.0,K,A*32
$GPGGA,202043.000,3748.7997,N,12217.8605,W,1,05,1.5,4.3,M,-25.1,M,,0000*60
$GPGSA,A,3,05,10,28,26,13,,,,,,,,2.9,1.5,2.5*32
$GPRMC,202043.000,A,3748.7997,N,12217.8605,W,0.23,173.76,110711,,,A*7D
$GPVTG,173.76,T,,M,0.23,N,0.4,K,A*0C
$GPGGA,202044.000,3748.7996,N,12217.8603,W,1,05,1.5,3.0,M,-25.1,M,,0000*64
$GPGSA,A,3,05,10,28,26,13,,,,,,,,2.9,1.5,2.5*32
$GPRMC,202044.000,A,3748.7996,N,12217.8603,W,0.15,140.58,110711,,,A*74
$GPVTG,140.58,T,,M,0.15,N,0.3,K,A*02
$GPGGA,202045.000,3748.7998,N,12217.8598,W,1,05,1.5,1.3,M,-25.1,M,,0000*6B
$GPGSA,A,3,05,10,28,26,13,,,,,,,,2.9,1.5,2.5*32
$GPGSV,3,1,12,08,63,346,25,07,60,056,27,28,56,243,28,13,29,148,22*76
$GPGSV,3,2,12,19,28,057,27,05,21,277,33,26,21,317,20,01,21,237,*7E
$GPGSV,3,3,12,10,18,224,29,11,09,110,26,03,06,037,31,17,04,188,*70
$GPRMC,202045.000,A,3748.7998,N,12217.8598,W,0.67,65.24,110711,,,A*42
$GPVTG,65.24,T,,M,0.67,N,1.2,K,A*3A
$GPGGA,202046.000,3748.8003,N,12217.8587,W,1,05,1.5,-0.7,M,-25.1,M,,0000*4A
$GPGSA,A,3,05,10,28,26,13,,,,,,,,2.9,1.5,2.5*32
$GPRMC,202046.000,A,3748.8003,N,12217.8587,W,1.05,45.05,110711,,,A*4F
$GPVTG,45.05,T,,M,1.05,N,1.9,K,A*35
$GPGGA,202047.000,3748.8002,N,12217.8590,W,1,05,1.5,-0.6,M,-25.1,M,,0000*4D
$GPGSA,A,3,05,10,28,26,13,,,,,,,,2.9,1.5,2.5*32
$GPRMC,202047.000,A,3748.8002,N,12217.8590,W,0.21,1.99,110711,,,A*7B
$GPVTG,1.99,T,,M,0.21,N,0.4,K,A*0B
$GPGGA,202048.000,3748.7999,N,12217.8594,W,1,05,1.5,-0.3,M,-25.1,M,,0000*47
$GPGSA,A,3,05,10,28,26,13,,,,,,,,2.9,1.5,2.5*32
$GPRMC,202048.000,A,3748.7999,N,12217.8594,W,0.36,205.50,110711,,,A*71
$GPVTG,205.50,T,,M,0.36,N,0.7,K,A*0D
$GPGGA,202049.000,3748.7999,N,12217.8592,W,1,05,1.5,-0.5,M,-25.1,M,,0000*46
$GPGSA,A,3,05,10,28,26,13,,,,,,,,2.9,1.5,2.5*32
$GPRMC,202049.000,A,3748.7999,N,12217.8592,W,0.25,134.31,110711,,,A*72
$GPVTG,134.31,T,,M,0.25,N,0.5,K,A*0B
$GPGGA,202050.000,3748.7997,N,12217.8591,W,1,05,1.5,-0.8,M,-25.1,M,,0000*4E
$GPGSA,A,3,05,10,28,26,13,,,,,,,,2.9,1.5,2.5*32
$GPGSV,3,1,12,08,63,346,26,07,60,056,26,28,56,244,28,13,29,148,29*78
$GPGSV,3,2,12,19,28,057,32,05,21,277,34,26,21,317,24,01,21,237,*79
$GPGSV,3,3,12,10,18,224,34,11,09,110,23,03,06,037,39,17,05,188,*70
$GPRMC,202050.000,A,3748.7997,N,12217.8591,W,0.47,201.35,110711,,,A*72
$GPVTG,201.35,T,,M,0.47,N,0.9,K,A*02
$GPGGA,202051.000,3748.7994,N,12217.8589,W,1,05,1.5,-2.3,M,-25.1,M,,0000*4C
$GPGSA,A,3,05,10,28,26,13,,,,,,,,2.9,1.5,2.5*32
$GPRMC,202051.000,A,3748.7994,N,12217.8589,W,0.43,188.57,110711,,,A*7B
$GPVTG,188.57,T,,M,0.43,N,0.8,K,A*01
$GPGGA,202052.000,3748.7993,N,12217.8585,W,1,05,1.5,-3.7,M,-25.1,M,,0000*41
$GPGSA,A,3,05,10,28,26,13,,,,,,,,2.9,1.5,2.5*32
$GPRMC,202052.000,A,3748.7993,N,12217.8585,W,0.15,84.63,110711,,,A*4A
$GPVTG,84.63,T,,M,0.15,N,0.3,K,A*33
$GPGGA,202053.000,3748.7993,N,12217.8582,W,1,05,1.5,-5.0,M,-25.1,M,,0000*46
$GPGSA,A,3,05,10,28,26,13,,,,,,,,2.9,1.5,2.5*32
$GPRMC,202053.000,A,3748.7993,N,12217.8582,W,0.16,90.96,110711,,,A*40
$GPVTG,90.96,T,,M,0.16,N,0.3,K,A*3F
$GPGGA,202054.000,3748.7994,N,12217.8578,W,1,05,1.5,-6.9,M,-25.1,M,,0000*49
$GPGSA,A,3,05,10,28,26,13,,,,,,,,2.9,1.5,2.5*32
$GPRMC,202054.000,A,3748.7994,N,12217.8578,W,0.21,108.41,110711,,,A*7B
$GPVTG,108.41,T,,M,0.21,N,0.4,K,A*06
$GPGGA,202055.000,3748.7992,N,12217.8577,W,1,05,1.5,-7.4,M,-25.1,M,,0000*4D
$GPGSA,A,3,05,10,28,26,13,,,,,,,,2.9,1.5,2.5*32
$GPGSV,3,1,12,08,63,346,21,07,60,056,26,28,56,244,28,13,29,148,35*72
$GPGSV,3,2,12,19,28,057,23,05,21,277,31,26,21,317,30,01,21,237,*79
$GPGSV,3,3,12,10,18,224,34,11,09,110,23,03,06,037,38,17,05,188,*71
$GPRMC,202055.000,A,3748.7992,N,12217.8577,W,0.06,67.54,110711,,,A*4A
$GPGGA,202056.000,3748.7992,N,12217.8576,W,1,05,1.5,-8.1,M,-25.1,M,,0000*45
$GPGSA,A,3,05,10,28,26,13,,,,,,,,2.9,1.5,2.5*32
$GPRMC,202056.000,A,3748.7992,N,12217.8576,W,0.10,120.34,110711,,,A*7B
$GPVTG,120.34,T,,M,0.10,N,0.2,K,A*0A
$GPGGA,202057.000,3748.7993,N,12217.8577,W,1,05,1.5,-8.1,M,-25.1,M,,0000*44
$GPGSA,A,3,05,10,28,26,13,,,,,,,,2.9,1.5,2.5*32
$GPRMC,202057.000,A,3748.7993,N,12217.8577,W,0.15,193.91,110711,,,A*78
$GPVTG,193.91,T,,M,0.15,N,0.3,K,A*09
$GPGGA,202058.000,3748.7993,N,12217.8576,W,1,05,1.5,-8.2,M,-25.1,M,,0000*49
$GPGSA,A,3,05,10,28,26,13,,,,,,,,2.9,1.5,2.5*32
$GPRMC,202058.000,A,3748.7993,N,12217.8576,W,0.05,187.84,110711,,,A*76
$GPVTG,187.84,T,,M,0.05,N,0.1,K,A*0B
$GPGGA,202059.000,3748.7994,N,12217.8580,W,1,05,1.5,-7.7,M,-25.1,M,,0000*4C
$GPGSA,A,3,05,10,28,26,13,,,,,,,,2.9,1.5,2.5*32
$GPRMC,202059.000,A,3748.7994,N,12217.8580,W,0.24,263.21,110711,,,A*7C
$GPVTG,263.21,T,,M,0.24,N,0.4,K,A*0B
$GPGGA,202100.000,3748.7995,N,12217.8588,W,1,05,1.5,-6.9,M,-25.1,M,,0000*47
$GPGSA,A,3,05,10,28,26,13,,,,,,,,2.9,1.5,2.5*32
$GPGSV,3,1,12,08,63,346,28,07,60,056,24,28,56,244,33,13,29,148,28*7F
$GPGSV,3,2,12,19,28,057,28,05,21,277,40,26,21,317,31,01,21,237,*75
$GPGSV,3,3,12,10,18,224,38,11,09,110,23,03,06,037,32,17,05,188,*77
$GPRMC,202100.000,A,3748.7995,N,12217.8588,W,0.38,239.22,110711,,,A*79
$GPVTG,239.22,T,,M,0.38,N,0.7,K,A*09
$GPGGA,202101.000,3748.7995,N,12217.8592,W,1,05,1.5,-6.4,M,-25.1,M,,0000*40
$GPGSA,A,3,05,10,28,26,13,,,,,,,,2.9,1.5,2.5*32
$GPRMC,202101.000,A,3748.7995,N,12217.8592,W,0.18,228.05,110711,,,A*74
$GPVTG,228.05,T,,M,0.18,N,0.3,K,A*0A
$GPGGA,202102.000,3748.7996,N,12217.8593,W,1,05,1.5,-6.1,M,-25.1,M,,0000*44
$GPGSA,A,3,05,10,28,26,13,,,,,,,,2.9,1.5,2.5*32
$GPRMC,202102.000,A,3748.7996,N,12217.8593,W,0.03,215.84,110711,,,A*78
$GPVTG,215.84,T,,M,0.03,N,0.1,K,A*05
$GPGGA,202103.000,3748.7997,N,12217.8594,W,1,05,1.5,-5.8,M,-25.1,M,,0000*49
$GPGSA,A,3,05,10,28,26,13,,,,,,,,2.9,1.5,2.5*32
$GPRMC,202103.000,A,3748.7997,N,12217.8594,W,0.04,234.25,110711,,,A*70
$GPVTG,234.25,T,,M,0.04,N,0.1,K,A*0A
$GPGGA,202104.000,3748.7997,N,12217.8595,W,1,05,1.5,-5.6,M,-25.1,M,,0000*41
$GPGSA,A,3,05,10,28,26,13,,,,,,,,2.9,1.5,2.5*32
$GPRMC,202104.000,A,3748.7997,N,12217.8595,W,0.08,173.52,110711,,,A*7A
$GPVTG,173.52,T,,M,0.08,N,0.2,K,A*05
$GPGGA,202105.000,3748.7998,N,12217.8596,W,1,05,1.5,-5.4,M,-25.1,M,,0000*4E
$GPGSA,A,3,05,10,28,26,13,,,,,,,,2.9,1.5,2.5*32
$GPGSV,3,1,12,08,63,346,33,07,60,056,24,28,56,244,32,13,29,148,26*7A
$GPGSV,3,2,12,19,28,057,28,05,21,277,35,26,21,317,38,01,21,237,*7E
$GPGSV,3,3,12,10,18,224,38,11,09,110,23,03,06,037,33,17,05,188,*76
$GPRMC,202105.000,A,3748.7998,N,12217.8596,W,0.09,282.04,110711,,,A*78
$GPVTG,282.04,T,,M,0.09,N,0.2,K,A*0A
$GPGGA,202106.000,3748.7998,N,12217.8604,W,1,05,1.5,-3.4,M,-25.1,M,,0000*43
$GPGSA,A,3,05,10,28,26,13,,,,,,,,2.9,1.5,2.5*32
$GPRMC,202106.000,A,3748.7998,N,12217.8604,W,0.59,262.38,110711,,,A*77
$GPVTG,262.38,T,,M,0.59,N,1.1,K,A*0C
$GPGGA,202107.000,3748.7999,N,12217.8616,W,1,05,1.5,-0.7,M,-25.1,M,,0000*40
$GPGSA,A,3,05,10,28,26,13,,,,,,,,2.9,1.5,2.5*32
$GPRMC,202107.000,A,3748.7999,N,12217.8616,W,0.63,255.14,110711,,,A*77
$GPVTG,255.14,T,,M,0.63,N,1.2,K,A*0C
$GPGGA,202108.000,3748.7999,N,12217.8619,W,1,05,1.5,-0.3,M,-25.1,M,,0000*44
$GPGSA,A,3,05,10,28,26,13,,,,,,,,2.9,1.5,2.5*32
$GPRMC,202108.000,A,3748.7999,N,12217.8619,W,0.35,252.74,110711,,,A*75
$GPVTG,252.74,T,,M,0.35,N,0.7,K,A*0A
$GPGGA,202109.000,3748.8000,N,12217.8618,W,1,05,1.5,-1.4,M,-25.1,M,,0000*44
$GPGSA,A,3,05,10,28,26,13,,,,,,,,2.9,1.5,2.5*32
$GPRMC,202109.000,A,3748.8000,N,12217.8618,W,0.17,212.99,110711,,,A*74
$GPVTG,212.99,T,,M,0.17,N,0.3,K,A*09
$GPGGA,202110.000,3748.8000,N,12217.8618,W,1,05,1.5,-1.3,M,-25.1,M,,0000*4B
$GPGSA,A,3,05,10,28,26,13,,,,,,,,2.9,1.5,2.5*32
$GPGSV,3,1,12,08,63,346,30,07,60,056,23,28,56,244,32,13,29,148,28*70
$GPGSV,3,2,12,19,28,057,29,05,21,277,37,26,21,317,38,01,21,237,*7D
$GPGSV,3,3,12,10,18,224,39,11,09,110,24,03,06,037,33,17,05,188,*70
$GPVTG,239.22,T,,M,0.09,N,0.2,K,A*0E
$GPGGA,202111.000,3748.8000,N,12217.8617,W,1,05,1.5,-1.1,M,-25.1,M,,0000*47
$GPGSA,A,3,05,10,28,26,13,,,,,,,,2.9,1.5,2.5*32
$GPRMC,202111.000,A,3748.8000,N,12217.8617,W,0.11,241.67,110711,,,A*73
$GPVTG,241.67,T,,M,0.11,N,0.2,K,A*09
$GPGGA,202112.000,3748.8000,N,12217.8613,W,1,05,1.5,-1.2,M,-25.1,M,,0000*43
$GPGSA,A,3,05,10,28,26,13,,,,,,,,2.9,1.5,2.5*32
$GPRMC,202112.000,A,3748.8000,N,12217.8613,W,0.15,237.95,110711,,,A*7C
$GPVTG,237.95,T,,M,0.15,N,0.3,K,A*00
$GPGGA,202113.000,3748.8001,N,12217.8613,W,1,05,1.5,-0.9,M,-25.1,M,,0000*49
$GPGSA,A,3,05,10,28,26,13,,,,,,,,2.9,1.5,2.5*32
$GPRMC,202113.000,A,3748.8001,N,12217.8613,W,0.48,269.99,110711,,,A*73
$GPVTG,269.99,T,,M,0.48,N,0.9,K,A*05
$GPGGA,202114.000,3748.8001,N,12217.8609,W,1,05,1.5,-1.2,M,-25.1,M,,0000*4F
$GPGSA,A,3,05,10,28,26,13,,,,,,,,2.9,1.5,2.5*32
$GPRMC,202114.000,A,3748.8001,N,12217.8609,W,0.44,253.48,110711,,,A*76
$GPVTG,253.48,T,,M,0.44,N,0.8,K,A*0D
$GPGGA,202115.000,3748.8001,N,12217.8605,W,1,05,1.5,-1.4,M,-25.1,M,,0000*44
$GPGSA,A,3,05,10,28,26,13,,,,,,,,2.9,1.5,2.5*32
$GPGSV,3,1,12,08,63,346,31,07,60,056,24,28,56,244,36,13,29,148,29*73
$GPGSV,3,2,12,19,28,057,29,05,21,277,41,26,21,317,39,01,21,237,*7D
$GPGSV,3,3,12,10,18,224,38,11,09,110,24,03,06,037,28,17,05,188,*7B
$GPRMC,202115.000,A,3748.8001,N,12217.8605,W,0.18,205.56,110711,,,A*7E
$GPVTG,205.56,T,,M,0.18,N,0.3,K,A*03
$GPGGA,202116.000,3748.8001,N,12217.8604,W,1,05,1.5,-1.4,M,-25.1,M,,0000*46
$GPGSA,A,3,05,10,28,26,13,,,,,,,,2.9,1.5,2.5*32
$GPRMC,202116.000,A,3748.8001,N,12217.8604,W,0.14,238.68,110711,,,A*73
$GPVTG,238.68,T,,M,0.14,N,0.3,K,A*0C
$GPGGA,202117.000,3748.8001,N,12217.8603,W,1,05,1.5,-1.5,M,-25.1,M,,0000*41
$GPGSA,A,3,05,10,28,26,13,,,,,,,,2.9,1.5,2.5*32
$GPRMC,202117.000,A,3748.8001,N,12217.8603,W,0.12,313.01,110711,,,A*74
$GPVTG,313.01,T,,M,0.12,N,0.2,K,A*0C
$GPGGA,202118.000,3748.8001,N,12217.8602,W,1,05,1.5,-1.4,M,-25.1,M,,0000*4E
$GPGSA,A,3,05,10,28,26,13,,,,,,,,2.9,1.5,2.5*32
$GPRMC,202118.000,A,3748.8001,N,12217.8602,W,0.16,243.61,110711,,,A*7C
$GPVTG,243.61,T,,M,0.16,N,0.3,K,A*0B
$GPGGA,202119.000,3748.8001,N,12217.8602,W,2,05,1.5,-1.5,M,-25.1,M,1.8,0000*6A
$GPGSA,A,3,05,10,28,26,13,,,,,,,,2.9,1.5,2.5*32
$GPRMC,202119.000,A,3748.8001,N,12217.8602,W,0.20,226.56,110711,,,D*7A
$GPVTG,226.56,T,,M,0.20,N,0.4,K,D*0B
$GPGGA,202120.000,3748.8001,N,12217.8602,W,2,05,1.5,-1.5,M,-25.1,M,1.8,0000*60
$GPGSA,A,3,05,10,28,26,13,,,,,,,,2.9,1.5,2.5*32
$GPGSV,3,1,12,08,63,347,31,07,60,057,24,28,56,244,28,13,29,148,31*75
$GPGSV,3,2,12,19,28,056,26,26,21,317,39,01,21,238,,05,21,276,40*7C
$GPGSV,3,3,12,10,18,224,39,11,09,110,25,03,05,037,32,17,05,188,*73
$GPRMC,202120.000,A,3748.8001,N,12217.8602,W,0.18,218.98,110711,,,D*74
$GPVTG,218.98,T,,M,0.18,N,0.3,K,D*08
$GPGGA,202121.000,3748.8000,N,12217.8602,W,2,05,1.5,-1.6,M,-25.1,M,1.8,0000*63
$GPGSA,A,3,05,10,28,26,13,,,,,,,,2.9,1.5,2.5*32
$GPRMC,202121.000,A,3748.8000,N,12217.8602,W,0.27,203.04,110711,,,D*77
$GPVTG,203.04,T,,M,0.27,N,0.5,K,D*0D
$GPGGA,202122.000,3748.8000,N,12217.8602,W,2,05,1.5,-1.7,M,-25.1,M,2.8,0000*62
$GPGSA,A,3,05,10,28,26,13,,,,,,,,2.9,1.5,2.5*32
$GPRMC,202122.000,A,3748.8000,N,12217.8602,W,0.37,259.32,110711,,,D*7F
$GPVTG,259.32,T,,M,0.37,N,0.7,K,D*04
$GPGGA,202123.000,3748.7999,N,12217.8604,W,2,05,1.5,-1.7,M,-25.1,M,3.8,0000*62
$GPGSA,A,3,05,10,28,26,13,,,,,,,,2.9,1.5,2.5*32
$GPRMC,202123.000,A,3748.7999,N,12217.8604,W,0.30,245.40,110711,,,D*71
$GPVTG,245.40,T,,M,0.30,N,0.6,K,D*0A
$GPGGA,202124.000,3748.7999,N,12217.8605,W,2,05,1.5,-1.7,M,-25.1,M,4.8,0000*63
$GPGSA,A,3,05,10,28,26,13,,,,,,,,2.9,1.5,2.5*32
$GPRMC,202124.000,A,3748.7999,N,12217.8605,W,0.15,241.11,110711,,,D*70
$GPVTG,241.11,T,,M,0.15,N,0.3,K,D*08
$GPGGA,202125.000,3748.7999,N,12217.8606,W,2,05,1.5,-1.6,M,-25.1,M,1.8,0000*65
$GPGSA,A,3,05,10,28,26,13,,,,,,,,2.9,1.5,2.5*32
$GPGSV,3,1,12,08,63,347,33,07,60,057,27,28,56,244,31,13,29,148,30*7D
$GPGSV,3,2,12,19,28,056,25,26,21,317,40,01,21,238,,05,21,276,40*71
$GPGSV,3,3,12,10,18,224,39,11,09,110,28,03,05,037,31,17,05,188,*7D
$GPVTG,191.80,T,,M,0.07,N,0.1,K,D*0F
$GPGGA,202126.000,3748.7999,N,12217.8606,W,2,05,1.5,-1.4,M,-25.1,M,1.8,0000*64
$GPGSA,A,3,05,10,28,26,13,,,,,,,,2.9,1.5,2.5*32
$GPRMC,202126.000,A,3748.7999,N,12217.8606,W,0.09,150.81,110711,,,D*76
$GPVTG,150.81,T,,M,0.09,N,0.2,K,D*0E
$GPGGA,202127.000,3748.7999,N,12217.8607,W,2,05,1.5,-1.1,M,-25.1,M,1.8,0000*61
$GPGSA,A,3,05,10,28,26,13,,,,,,,,2.9,1.5,2.5*32
$GPRMC,202127.000,A,3748.7999,N,12217.8607,W,0.10,261.71,110711,,,D*70
$GPVTG,261.71,T,,M,0.10,N,0.2,K,D*08
$GPGGA,202128.000,3748.8000,N,12217.8607,W,2,06,1.4,-0.5,M,-25.1,M,2.8,0000*6C
$GPGSA,A,3,05,10,28,26,13,08,,,,,,,2.4,1.4,2.0*33
$GPRMC,202128.000,A,3748.8000,N,12217.8607,W,0.06,260.74,110711,,,D*7A
$GPVTG,260.74,T,,M,0.06,N,0.1,K,D*08
$GPGGA,202129.000,3748.8001,N,12217.8606,W,2,06,1.4,-0.2,M,-25.1,M,3.8,0000*6B
$GPGSA,A,3,05,10,28,26,13,08,,,,,,,2.4,1.4,2.0*33
$GPRMC,202129.000,A,3748.8001,N,12217.8606,W,0.04,226.42,110711,,,D*7E
$GPVTG,226.42,T,,M,0.04,N,0.1,K,D*0D
$GPGGA,202130.000,3748.8000,N,12217.8604,W,2,06,1.4,-0.4,M,-25.1,M,1.8,0000*64
$GPGSA,A,3,05,10,28,26,13,08,,,,,,,2.4,1.4,2.0*33
$GPGSV,3,1,12,08,63,347,34,07,60,057,19,28,56,244,30,13,29,148,25*72
$GPGSV,3,2,12,19,28,056,27,26,21,317,40,01,21,238,,05,21,276,41*72
$GPGSV,3,3,12,10,18,224,40,11,09,110,28,03,05,037,28,17,05,188,*7B
$GPRMC,202130.000,A,3748.8000,N,12217.8604,W,0.04,193.28,110711,,,D*74
$GPVTG,193.28,T,,M,0.04,N,0.1,K,D*0C
$GPGGA,202131.000,3748.7999,N,12217.8602,W,2,06,1.4,-0.6,M,-25.1,M,1.8,0000*67
$GPGSA,A,3,05,10,28,26,13,08,,,,,,,2.4,1.4,2.0*33
$GPRMC,202131.000,A,3748.7999,N,12217.8602,W,0.14,152.01,110711,,,D*72
$GPVTG,152.01,T,,M,0.14,N,0.3,K,D*09
$GPGGA,202132.000,3748.7998,N,12217.8600,W,2,06,1.4,-0.9,M,-25.1,M,1.8,0000*68
$GPGSA,A,3,05,10,28,26,13,08,,,,,,,2.4,1.4,2.0*33
$GPRMC,202132.000,A,3748.7998,N,12217.8600,W,0.11,202.22,110711,,,D*70
$GPVTG,202.22,T,,M,0.11,N,0.2,K,D*0A
$GPGGA,202133.000,3748.7996,N,12217.8608,W,2,06,1.4,1.0,M,-25.1,M,1.8,0000*4A
$GPGSA,A,3,05,10,28,26,13,08,,,,,,,2.4,1.4,2.0*33
$GPRMC,202133.000,A,3748.7996,N,12217.8608,W,0.35,253.32,110711,,,D*74
$GPVTG,253.32,T,,M,0.35,N,0.7,K,D*0C
$GPGGA,202134.000,3748.7991,N,12217.8617,W,2,07,1.0,3.4,M,-25.1,M,1.8,0000*47
$GPGSA,A,3,05,10,28,26,13,08,03,,,,,,1.8,1.0,1.5*3D
$GPRMC,202134.000,A,3748.7991,N,12217.8617,W,0.16,233.56,110711,,,D*7F
$GPVTG,233.56,T,,M,0.16,N,0.3,K,D*0D
$GPGGA,202135.000,3748.7987,N,12217.8625,W,2,07,1.0,5.4,M,-25.1,M,1.8,0000*46
$GPGSA,A,3,05,10,28,26,13,08,03,,,,,,1.8,1.0,1.5*3D
$GPGSV,3,1,12,08,64,347,34,07,60,057,26,28,56,244,30,13,29,148,21*7D
$GPGSV,3,2,12,19,28,056,25,26,21,317,39,01,21,238,,05,21,276,41*7E
$GPGSV,3,3,12,10,18,223,41,11,09,110,28,03,05,037,35,17,05,188,*71
$GPRMC,202135.000,A,3748.7987,N,12217.8625,W,0.09,189.72,110711,,,D*72
$GPVTG,189.72,T,,M,0.09,N,0.2,K,D*06
$GPGGA,202136.000,3748.7984,N,12217.8631,W,2,07,1.0,7.1,M,-25.1,M,2.8,0000*47
$GPGSA,A,3,05,10,28,26,13,08,03,,,,,,1.8,1.0,1.5*3D
$GPRMC,202136.000,A,3748.7984,N,12217.8631,W,0.18,250.61,110711,,,D*72
$GPVTG,250.61,T,,M,0.18,N,0.3,K,D*02
$GPGGA,202137.000,3748.7981,N,12217.8637,W,2,07,1.0,8.7,M,-25.1,M,3.8,0000*4D
$GPGSA,A,3,05,10,28,26,13,08,03,,,,,,1.8,1.0,1.5*3D
$GPRMC,202137.000,A,3748.7981,N,12217.8637,W,0.11,208.04,110711,,,D*77
$GPVTG,208.04,T,,M,0.11,N,0.2,K,D*04
$GPGGA,202138.000,3748.7979,N,12217.8643,W,2,07,1.0,10.0,M,-25.1,M,1.8,0000*7A
$GPGSA,A,3,05,10,28,26,13,08,03,,,,,,1.8,1.0,1.5*3D
$GPRMC,202138.000,A,3748.7979,N,12217.8643,W,0.08,194.15,110711,,,D*72
$GPVTG,194.15,T,,M,0.08,N,0.1,K,D*09
$GPGGA,202139.000,3748.7976,N,12217.8648,W,2,07,1.0,11.1,M,-25.1,M,1.8,0000*7F
$GPGSA,A,3,05,10,28,26,13,08,03,,,,,,1.8,1.0,1.5*3D
$GPRMC,202139.000,A,3748.7976,N,12217.8648,W,0.09,190.61,110711,,,D*71
$GPVTG,190.61,T,,M,0.09,N,0.2,K,D*0C
$GPGGA,202140.000,3748.7974,N,12217.8653,W,2,07,1.0,12.1,M,-25.1,M,1.8,0000*7A
$GPGSA,A,3,05,10,28,26,13,08,03,,,,,,1.8,1.0,1.5*3D
$GPGSV,3,1,12,08,64,347,34,07,60,057,24,28,56,244,29,13,29,148,21*77
$GPGSV,3,2,12,19,28,056,25,26,21,317,39,01,21,238,,05,21,276,41*7E
$GPGSV,3,3,12,10,18,223,41,11,09,110,27,03,05,037,35,17,05,188,*7E
$GPRMC,202140.000,A,3748.7974,N,12217.8653,W,0.17,254.44,110711,,,D*74
$GPVTG,254.44,T,,M,0.17,N,0.3,K,D*0E
$GPGGA,202141.000,3748.7973,N,12217.8658,W,2,07,1.0,12.9,M,-25.1,M,2.8,0000*7C
$GPGSA,A,3,05,10,28,26,13,08,03,,,,,,1.8,1.0,1.5*3D
$GPRMC,202141.000,A,3748.7973,N,12217.8658,W,0.16,265.34,110711,,,D*7D
$GPVTG,265.34,T,,M,0.16,N,0.3,K,D*0A
$GPGGA,202142.000,3748.7971,N,12217.8663,W,2,07,1.0,13.6,M,-25.1,M,3.8,0000*7A
$GPGSA,A,3,05,10,28,26,13,08,03,,,,,,1.8,1.0,1.5*3D
$GPRMC,202142.000,A,3748.7971,N,12217.8663,W,0.15,256.85,110711,,,D*7D
$GPVTG,256.85,T,,M,0.15,N,0.3,K,D*03
$GPGGA,202143.000,3748.7970,N,12217.8667,W,2,07,1.0,14.3,M,-25.1,M,1.8,0000*7E
$GPGSA,A,3,05,10,28,26,13,08,03,,,,,,1.8,1.0,1.5*3D
$GPRMC,202143.000,A,3748.7970,N,12217.8667,W,0.11,265.34,110711,,,D*77
$GPVTG,265.34,T,,M,0.11,N,0.2,K,D*0C
$GPGGA,202144.000,3748.7969,N,12217.8671,W,2,07,1.0,14.8,M,-25.1,M,1.8,0000*7D
$GPGSA,A,3,05,10,28,26,13,08,03,,,,,,1.8,1.0,1.5*3D
$GPRMC,202144.000,A,3748.7969,N,12217.8671,W,0.18,256.71,110711,,,D*77
$GPVTG,256.71,T,,M,0.18,N,0.3,K,D*05
$GPGGA,202145.000,3748.7968,N,12217.8675,W,2,07,1.0,15.3,M,-25.1,M,1.8,0000*73
$GPGSA,A,3,05,10,28,26,13,08,03,,,,,,1.8,1.0,1.5*3D
$GPGSV,3,1,12,08,64,347,34,07,60,057,21,28,56,244,30,13,29,148,21*7A
$GPGSV,3,2,12,19,28,056,26,26,21,317,39,01,21,238,,05,21,276,41*7D
$GPGSV,3,3,12,10,18,223,41,11,09,110,26,03,05,037,35,17,05,188,*7F
$GPRMC,202145.000,A,3748.7968,N,12217.8675,W,0.07,203.16,110711,,,D*7C
$GPGGA,202146.000,3748.7967,N,12217.8679,W,2,07,1.0,15.8,M,-25.1,M,2.8,0000*7B
$GPGSA,A,3,05,10,28,26,13,08,03,,,,,,1.8,1.0,1.5*3D
$GPRMC,202146.000,A,3748.7967,N,12217.8679,W,0.07,197.96,110711,,,D*7A
$GPVTG,197.96,T,,M,0.07,N,0.1,K,D*0E
$GPGGA,202147.000,3748.7967,N,12217.8682,W,2,07,1.0,16.2,M,-25.1,M,1.8,0000*74
$GPGSA,A,3,05,10,28,26,13,08,03,,,,,,1.8,1.0,1.5*3D
$GPRMC,202147.000,A,3748.7967,N,12217.8682,W,0.09,231.35,110711,,,D*77
$GPVTG,231.35,T,,M,0.09,N,0.2,K,D*05
$GPGGA,202148.000,3748.7966,N,12217.8686,W,2,07,1.0,16.5,M,-25.1,M,2.8,0000*7A
$GPGSA,A,3,05,10,28,26,13,08,03,,,,,,1.8,1.0,1.5*3D
$GPRMC,202148.000,A,3748.7966,N,12217.8686,W,0.09,248.81,110711,,,D*7C
$GPVTG,248.81,T,,M,0.09,N,0.2,K,D*04
$GPGGA,202149.000,3748.7965,N,12217.8689,W,2,07,1.0,16.9,M,-25.1,M,1.8,0000*78
$GPGSA,A,3,05,10,28,26,13,08,03,,,,,,1.8,1.0,1.5*3D
$GPRMC,202149.000,A,3748.7965,N,12217.8689,W,0.06,166.81,110711,,,D*71
$GPVTG,166.81,T,,M,0.06,N,0.1,K,D*07
$GPGGA,202150.000,3748.7965,N,12217.8691,W,2,07,1.0,17.1,M,-25.1,M,1.8,0000*70
$GPGSA,A,3,05,10,28,26,13,08,03,,,,,,1.8,1.0,1.5*3D
$GPGSV,3,1,12,08,64,347,34,07,60,057,21,28,56,244,31,13,29,148,26*7C
$GPGSV,3,2,12,19,28,056,19,26,22,317,39,01,21,238,,05,21,276,40*73
$GPGSV,3,3,12,10,18,223,41,11,09,110,26,03,05,037,35,17,05,188,*7F
$GPRMC,202150.000,A,3748.7965,N,12217.8691,W,0.05,176.30,110711,,,D*78
$GPVTG,176.30,T,,M,0.05,N,0.1,K,D*0F
$GPGGA,202151.000,3748.7965,N,12217.8694,W,2,07,1.0,17.4,M,-25.1,M,1.8,0000*71
$GPGSA,A,3,05,10,28,26,13,08,03,,,,,,1.8,1.0,1.5*3D
$GPRMC,202151.000,A,3748.7965,N,12217.8694,W,0.02,270.00,110711,,,D*7D
$GPVTG,270.00,T,,M,0.02,N,0.0,K,D*0F
$GPGGA,202152.000,3748.7965,N,12217.8696,W,2,07,1.0,17.6,M,-25.1,M,2.8,0000*71
$GPGSA,A,3,05,10,28,26,13,08,03,,,,,,1.8,1.0,1.5*3D
$GPRMC,202152.000,A,3748.7965,N,12217.8696,W,0.10,127.45,110711,,,D*7F
$GPVTG,127.45,T,,M,0.10,N,0.2,K,D*0E
$GPGGA,202153.000,3748.7964,N,12217.8698,W,2,07,1.0,17.8,M,-25.1,M,3.8,0000*70
$GPGSA,A,3,05,10,28,26,13,08,03,,,,,,1.8,1.0,1.5*3D
$GPRMC,202153.000,A,3748.7964,N,12217.8698,W,0.13,119.36,110711,,,D*7B
$GPVTG,119.36,T,,M,0.13,N,0.2,K,D*04
$GPGGA,202154.000,3748.7964,N,12217.8700,W,2,07,1.0,18.0,M,-25.1,M,4.8,0000*77
$GPGSA,A,3,05,10,28,26,13,08,03,,,,,,1.8,1.0,1.5*3D
$GPRMC,202154.000,A,3748.7964,N,12217.8700,W,0.03,136.16,110711,,,D*72
$GPVTG,136.16,T,,M,0.03,N,0.1,K,D*09
$GPGGA,202155.000,3748.7965,N,12217.8702,W,2,07,1.0,18.1,M,-25.1,M,1.8,0000*71
$GPGSA,A,3,05,10,28,26,13,08,03,,,,,,1.8,1.0,1.5*3D
$GPGSV,3,1,12,08,64,347,33,07,60,057,16,28,56,244,31,13,29,148,24*7D
$GPGSV,3,2,12,19,28,056,20,26,22,317,38,01,21,238,,05,21,276,40*78
$GPGSV,3,3,12,10,18,223,42,11,09,110,21,03,05,037,36,17,05,188,*78
$GPRMC,202155.000,A,3748.7965,N,12217.8702,W,0.11,297.51,110711,,,D*78
$GPVTG,297.51,T,,M,0.11,N,0.2,K,D*02
$GPGGA,202156.000,3748.7965,N,12217.8704,W,2,07,1.0,18.2,M,-25.1,M,1.8,0000*77
$GPGSA,A,3,05,10,28,26,13,08,03,,,,,,1.8,1.0,1.5*3D
$GPRMC,202156.000,A,3748.7965,N,12217.8704,W,0.06,207.87,110711,,,D*79
$GPVTG,207.87,T,,M,0.06,N,0.1,K,D*05
$GPGGA,202157.000,3748.7966,N,12217.8706,W,2,07,1.0,18.3,M,-25.1,M,1.8,0000*76
$GPGSA,A,3,05,10,28,26,13,08,03,,,,,,1.8,1.0,1.5*3D
$GPRMC,202157.000,A,3748.7966,N,12217.8706,W,0.30,312.42,110711,,,D*70
$GPVTG,312.42,T,,M,0.30,N,0.5,K,D*08
$GPGGA,202158.000,3748.7967,N,12217.8707,W,2,07,1.0,17.9,M,-25.1,M,2.8,0000*7F
$GPGSA,A,3,05,10,28,26,13,08,03,,,,,,1.8,1.0,1.5*3D
$GPRMC,202158.000,A,3748.7967,N,12217.8707,W,0.27,255.76,110711,,,D*7C
$GPVTG,255.76,T,,M,0.27,N,0.5,K,D*0B
$GPGGA,202159.000,3748.7968,N,12217.8707,W,2,07,1.0,17.4,M,-25.1,M,3.8,0000*7D
$GPGSA,A,3,05,10,28,26,13,08,03,,,,,,1.8,1.0,1.5*3D
$GPRMC,202159.000,A,3748.7968,N,12217.8707,W,0.30,312.81,110711,,,D*7E
$GPVTG,312.81,T,,M,0.30,N,0.6,K,D*04
$GPGGA,202200.000,3748.7970,N,12217.8707,W,2,07,1.0,17.0,M,-25.1,M,4.8,0000*78
$GPGSA,A,3,05,10,28,26,13,08,03,,,,,,1.8,1.0,1.5*3D
$GPGSV,3,1,12,08,64,347,33,07,60,057,32,28,56,244,29,13,29,148,25*73
$GPGSV,3,2,12,19,28,056,31,26,22,317,39,01,21,238,,05,21,276,40*79
$GPGSV,3,3,12,10,18,223,31,11,09,110,28,03,05,037,33,17,05,188,*70
$GPRMC,202200.000,A,3748.7970,N,12217.8707,W,0.76,306.61,110711,,,D*71
$GPVTG,306.61,T,,M,0.76,N,1.4,K,D*0E
$GPGGA,202201.000,3748.7973,N,12217.8708,W,2,07,1.0,16.5,M,-25.1,M,1.8,0000*74
$GPGSA,A,3,05,10,28,26,13,08,03,,,,,,1.8,1.0,1.5*3D
$GPRMC,202201.000,A,3748.7973,N,12217.8708,W,0.63,317.09,110711,,,D*76
$GPVTG,317.09,T,,M,0.63,N,1.2,K,D*02
$GPGGA,202202.000,3748.7975,N,12217.8708,W,2,07,1.0,15.6,M,-25.1,M,2.8,0000*72
$GPGSA,A,3,05,10,28,26,13,08,03,,,,,,1.8,1.0,1.5*3D
$GPRMC,202202.000,A,3748.7975,N,12217.8708,W,0.95,286.27,110711,,,D*7F
$GPVTG,286.27,T,,M,0.95,N,1.8,K,D*04
$GPGGA,202203.000,3748.7977,N,12217.8710,W,2,07,1.0,14.8,M,-25.1,M,3.8,0000*76
$GPGSA,A,3,05,10,28,26,13,08,03,,,,,,1.8,1.0,1.5*3D
$GPRMC,202203.000,A,3748.7977,N,12217.8710,W,0.79,272.89,110711,,,D*78
$GPVTG,272.89,T,,M,0.79,N,1.5,K,D*04
$GPGGA,202204.000,3748.7977,N,12217.8710,W,2,07,1.0,13.9,M,-25.1,M,4.8,0000*70
$GPGSA,A,3,05,10,28,26,13,08,03,,,,,,1.8,1.0,1.5*3D
$GPRMC,202204.000,A,3748.7977,N,12217.8710,W,0.81,215.95,110711,,,D*74
$GPVTG,215.95,T,,M,0.81,N,1.5,K,D*0F
$GPGGA,202205.000,3748.7977,N,12217.8710,W,2,07,1.0,13.0,M,-25.1,M,5.8,0000*79
$GPGSA,A,3,05,10,28,26,13,08,03,,,,,,1.8,1.0,1.5*3D
$GPGSV,3,1,12,08,64,347,26,07,60,057,24,28,56,244,31,13,29,148,22*7E
$GPGSV,3,2,12,19,28,056,27,26,22,317,39,01,21,238,,05,21,276,40*7E
$GPGSV,3,3,12,10,18,223,40,11,09,110,25,03,05,037,32,17,05,188,*7A
$GPRMC,202205.000,A,3748.7977,N,12217.8710,W,0.47,188.07,110711,,,D*73
$GPGGA,202206.000,3748.7975,N,12217.8709,W,2,07,1.0,11.9,M,-25.1,M,6.8,0000*78
$GPGSA,A,3,05,10,28,26,13,08,03,,,,,,1.8,1.0,1.5*3D
$GPRMC,202206.000,A,3748.7975,N,12217.8709,W,0.64,167.02,110711,,,D*7F
$GPVTG,167.02,T,,M,0.64,N,1.2,K,D*0B
$GPGGA,202207.000,3748.7973,N,12217.8703,W,2,07,1.0,10.7,M,-25.1,M,7.8,0000*7B
$GPGSA,A,3,05,10,28,26,13,08,03,,,,,,1.8,1.0,1.5*3D
$GPRMC,202207.000,A,3748.7973,N,12217.8703,W,0.34,209.39,110711,,,D*74
$GPVTG,209.39,T,,M,0.34,N,0.6,K,D*08
$GPGGA,202208.000,3748.7971,N,12217.8699,W,2,07,1.0,9.9,M,-25.1,M,8.8,0000*4D
$GPGSA,A,3,05,10,28,26,13,08,03,,,,,,1.8,1.0,1.5*3D
$GPRMC,202208.000,A,3748.7971,N,12217.8699,W,0.20,177.82,110711,,,D*74
$GPVTG,177.82,T,,M,0.20,N,0.4,K,D*05
$GPGGA,202209.000,3748.7970,N,12217.8694,W,2,07,1.0,9.0,M,-25.1,M,9.8,0000*48
$GPGSA,A,3,05,10,28,26,13,08,03,,,,,,1.8,1.0,1.5*3D
$GPRMC,202209.000,A,3748.7970,N,12217.8694,W,0.22,49.79,110711,,,D*43
$GPVTG,49.79,T,,M,0.22,N,0.4,K,D*3F
$GPGGA,202210.000,3748.7970,N,12217.8689,W,2,07,1.0,8.1,M,-25.1,M,10.8,0000*74
$GPGSA,A,3,05,10,28,26,13,08,03,,,,,,1.8,1.0,1.5*3D
$GPGSV,3,1,12,08,64,347,28,07,60,057,21,28,56,244,34,13,29,148,32*71
$GPGSV,3,2,12,19,28,056,24,26,22,317,39,01,21,238,,05,21,276,41*7C
$GPGSV,3,3,12,10,18,223,40,11,09,110,25,03,05,037,27,17,05,188,*7E
$GPRMC,202210.000,A,3748.7970,N,12217.8689,W,0.25,72.11,110711,,,D*46
$GPVTG,72.11,T,,M,0.25,N,0.5,K,D*3F
$GPGGA,202211.000,3748.7969,N,12217.8686,W,2,07,1.0,8.0,M,-25.1,M,11.8,0000*72
$GPGSA,A,3,05,10,28,26,13,08,03,,,,,,1.8,1.0,1.5*3D
$GPRMC,202211.000,A,3748.7969,N,12217.8686,W,0.06,114.37,110711,,,D*74
$GPVTG,114.37,T,,M,0.06,N,0.1,K,D*0F
$GPGGA,202212.000,3748.7968,N,12217.8685,W,2,07,1.0,8.1,M,-25.1,M,12.8,0000*71
$GPGSA,A,3,05,10,28,26,13,08,03,,,,,,1.8,1.0,1.5*3D
$GPRMC,202212.000,A,3748.7968,N,12217.8685,W,0.03,344.83,110711,,,D*78
$GPVTG,344.83,T,,M,0.03,N,0.1,K,D*02
$GPGGA,202213.000,3748.7968,N,12217.8683,W,2,07,1.0,8.3,M,-25.1,M,13.8,0000*75
$GPGSA,A,3,05,10,28,26,13,08,03,,,,,,1.7,1.0,1.5*32
$GPRMC,202213.000,A,3748.7968,N,12217.8683,W,0.11,124.40,110711,,,D*77
$GPVTG,124.40,T,,M,0.11,N,0.2,K,D*09
$GPGGA,202214.000,3748.7967,N,12217.8682,W,2,07,1.0,8.5,M,-25.1,M,14.8,0000*7D
$GPGSA,A,3,05,10,28,26,13,08,03,,,,,,1.7,1.0,1.5*32
$GPRMC,202214.000,A,3748.7967,N,12217.8682,W,0.07,107.14,110711,,,D*79
$GPVTG,107.14,T,,M,0.07,N,0.1,K,D*0D
$GPGGA,202215.000,3748.7966,N,12217.8681,W,2,07,1.0,8.9,M,-25.1,M,15.8,0000*73
$GPGSA,A,3,05,10,28,26,13,08,03,,,,,,1.7,1.0,1.5*32
$GPGSV,3,1,12,08,64,347,28,07,60,057,22,28,56,244,29,13,29,148,33*7F
$GPGSV,3,2,12,19,28,056,15,26,22,317,38,01,21,238,,05,21,276,39*70
$GPGSV,3,3,12,10,18,223,41,11,09,110,25,03,05,037,33,17,05,188,*7A
$GPRMC,202215.000,A,3748.7966,N,12217.8681,W,0.03,94.77,110711,,,D*40
$GPVTG,94.77,T,,M,0.03,N,0.0,K,D*36
$GPGGA,202216.000,3748.7967,N,12217.8680,W,2,07,1.0,8.9,M,-25.1,M,16.8,0000*73
$GPGSA,A,3,05,10,28,26,13,08,03,,,,,,1.7,1.0,1.5*32
$GPRMC,202216.000,A,3748.7967,N,12217.8680,W,0.20,345.78,110711,,,D*72
$GPVTG,345.78,T,,M,0.20,N,0.4,K,D*03
$GPGGA,202217.000,3748.7967,N,12217.8679,W,2,07,1.0,8.7,M,-25.1,M,1.8,0000*4C
$GPGSA,A,3,05,10,28,26,13,08,03,,,,,,1.7,1.0,1.5*32
$GPRMC,202217.000,A,3748.7967,N,12217.8679,W,0.32,322.58,110711,,,D*75
$GPVTG,322.58,T,,M,0.32,N,0.6,K,D*01
$GPGGA,202218.000,3748.7968,N,12217.8678,W,2,07,1.0,8.5,M,-25.1,M,2.8,0000*4C
$GPGSA,A,3,05,10,28,26,13,08,03,,,,,,1.7,1.0,1.5*32
$GPRMC,202218.000,A,3748.7968,N,12217.8678,W,0.06,47.42,110711,,,D*48
$GPVTG,47.42,T,,M,0.06,N,0.1,K,D*3A
$GPGGA,202219.000,3748.7967,N,12217.8677,W,2,07,1.0,8.8,M,-25.1,M,1.8,0000*43
$GPGSA,A,3,05,10,28,26,13,08,03,,,,,,1.7,1.0,1.5*32
$GPRMC,202219.000,A,3748.7967,N,12217.8677,W,0.30,115.66,110711,,,D*7C
$GPVTG,115.66,T,,M,0.30,N,0.6,K,D*08
$GPGGA,202220.000,3748.7967,N,12217.8676,W,2,07,1.0,9.0,M,-25.1,M,1.8,0000*41
$GPGSA,A,3,05,10,28,26,13,08,03,,,,,,1.7,1.0,1.5*32
$GPGSV,3,1,12,08,64,347,24,07,60,057,22,28,56,244,35,13,29,148,34*79
$GPGSV,3,2,12,19,28,056,24,26,22,317,26,01,21,238,,05,21,276,39*7D
$GPGSV,3,3,12,10,18,223,41,11,09,110,32,03,05,037,29,17,05,188,*77
$GPRMC,202220.000,A,3748.7967,N,12217.8676,W,0.07,81.25,110711,,,D*48
$GPVTG,81.25,T,,M,0.07,N,0.1,K,D*30
$GPGGA,202221.000,3748.7966,N,12217.8675,W,2,07,1.0,8.8,M,-25.1,M,1.8,0000*4B
$GPGSA,A,3,05,10,28,26,13,08,03,,,,,,1.7,1.0,1.5*32
$GPRMC,202221.000,A,3748.7966,N,12217.8675,W,0.26,162.02,110711,,,D*71
$GPVTG,162.02,T,,M,0.26,N,0.5,K,D*0E
$GPGGA,202222.000,3748.7965,N,12217.8674,W,2,07,1.0,8.9,M,-25.1,M,1.8,0000*4B
$GPGSA,A,3,05,10,28,26,13,08,03,,,,,,1.7,1.0,1.5*32
$GPRMC,202222.000,A,3748.7965,N,12217.8674,W,0.37,68.74,110711,,,D*4A
$GPVTG,68.74,T,,M,0.37,N,0.7,K,D*36
$GPGGA,202223.000,3748.7964,N,12217.8673,W,2,07,1.0,9.0,M,-25.1,M,2.8,0000*47
$GPGSA,A,3,05,10,28,26,13,08,03,,,,,,1.7,1.0,1.5*32
$GPRMC,202223.000,A,3748.7964,N,12217.8673,W,0.22,226.73,110711,,,D*76
$GPVTG,226.73,T,,M,0.22,N,0.4,K,D*0E
$GPGGA,202224.000,3748.7963,N,12217.8673,W,2,07,1.0,9.1,M,-25.1,M,3.8,0000*47
$GPGSA,A,3,05,10,28,26,13,08,03,,,,,,1.7,1.0,1.5*32
$GPRMC,202224.000,A,3748.7963,N,12217.8673,W,0.09,199.15,110711,,,D*78
$GPVTG,199.15,T,,M,0.09,N,0.2,K,D*06
$GPGGA,202225.000,3748.7962,N,12217.8673,W,2,07,1.0,9.1,M,-25.1,M,1.8,0000*45
$GPGSA,A,3,05,10,28,26,13,08,03,,,,,,1.7,1.0,1.5*32
$GPGSV,3,1,12,08,64,347,25,07,60,057,29,28,56,244,34,13,29,148,38*7E
$GPGSV,3,2,12,19,28,056,31,26,22,317,28,01,21,238,,05,21,276,31*7F
$GPGSV,3,3,12,10,18,223,43,11,09,110,40,03,05,037,29,17,05,188,*70
$GPRMC,202225.000,A,3748.7962,N,12217.8673,W,0.13,66.83,110711,,,D*4D
$GPGGA,202226.000,3748.7961,N,12217.8671,W,2,07,1.0,9.1,M,-25.1,M,1.8,0000*47
$GPGSA,A,3,05,10,28,26,13,08,03,,,,,,1.7,1.0,1.5*32
$GPRMC,202226.000,A,3748.7961,N,12217.8671,W,0.26,89.35,110711,,,D*45
$GPVTG,89.35,T,,M,0.26,N,0.5,K,D*3E
$GPGGA,202227.000,3748.7960,N,12217.8669,W,2,07,1.0,9.4,M,-25.1,M,1.8,0000*4B
$GPGSA,A,3,05,10,28,26,13,08,03,,,,,,1.7,1.0,1.5*32
$GPRMC,202227.000,A,3748.7960,N,12217.8669,W,0.62,96.57,110711,,,D*46
$GPVTG,96.57,T,,M,0.62,N,1.2,K,D*32
$GPGGA,202228.000,3748.7958,N,12217.8664,W,2,07,1.0,9.6,M,-25.1,M,2.8,0000*43
$GPGSA,A,3,05,10,28,26,13,08,03,,,,,,1.7,1.0,1.5*32
$GPRMC,202228.000,A,3748.7958,N,12217.8664,W,1.15,90.28,110711,,,D*40
$GPVTG,90.28,T,,M,1.15,N,2.1,K,D*3D
$GPGGA,202229.000,3748.7956,N,12217.8659,W,2,07,1.0,9.6,M,-25.1,M,3.8,0000*43
$GPGSA,A,3,05,10,28,26,13,08,03,,,,,,1.7,1.0,1.5*32
$GPRMC,202229.000,A,3748.7956,N,12217.8659,W,1.02,114.94,110711,,,D*7D
$GPVTG,114.94,T,,M,1.02,N,1.9,K,D*0A
$GPGGA,202230.000,3748.7954,N,12217.8655,W,2,07,1.0,9.7,M,-25.1,M,4.8,0000*43
$GPGSA,A,3,05,10,28,26,13,08,03,,,,,,1.7,1.0,1.5*32
$GPGSV,3,1,12,08,64,347,25,07,60,057,28,28,56,244,29,13,29,148,38*73
$GPGSV,3,2,12,19,28,056,32,26,22,317,24,01,21,238,,05,21,276,28*78
$GPGSV,3,3,12,10,18,223,32,11,09,110,35,03,05,037,36,17,05,188,*7A
$GPRMC,202230.000,A,3748.7954,N,12217.8655,W,1.02,128.50,110711,,,D*7C
$GPVTG,128.50,T,,M,1.02,N,1.9,K,D*0D
$GPGGA,202231.000,3748.7951,N,12217.8651,W,2,07,1.0,9.8,M,-25.1,M,1.8,0000*49
$GPGSA,A,3,05,10,28,26,13,08,03,,,,,,1.7,1.0,1.5*32
$GPRMC,202231.000,A,3748.7951,N,12217.8651,W,0.93,117.55,110711,,,D*7C
$GPVTG,117.55,T,,M,0.93,N,1.7,K,D*03
$GPGGA,202232.000,3748.7948,N,12217.8646,W,2,07,1.0,10.0,M,-25.1,M,1.8,0000*74
$GPGSA,A,3,05,10,28,26,13,08,03,,,,,,1.7,1.0,1.5*32
$GPRMC,202232.000,A,3748.7948,N,12217.8646,W,1.33,114.91,110711,,,D*71
$GPVTG,114.91,T,,M,1.33,N,2.5,K,D*02
$GPGGA,202233.000,3748.7945,N,12217.8641,W,2,07,1.0,10.3,M,-25.1,M,1.8,0000*7C
$GPGSA,A,3,05,10,28,26,13,08,03,,,,,,1.7,1.0,1.5*32
$GPRMC,202233.000,A,3748.7945,N,12217.8641,W,1.44,120.96,110711,,,D*7A
$GPVTG,120.96,T,,M,1.44,N,2.7,K,D*00
$GPGGA,202234.000,3748.7941,N,12217.8636,W,2,08,0.9,10.4,M,-25.1,M,2.8,0000*7C
$GPGSA,A,3,05,10,28,26,13,08,03,11,,,,,1.6,0.9,1.4*3A
$GPRMC,202234.000,A,3748.7941,N,12217.8636,W,1.52,127.61,110711,,,D*71
$GPVTG,127.61,T,,M,1.52,N,2.8,K,D*07
$GPGGA,202235.000,3748.7935,N,12217.8629,W,2,07,1.1,9.5,M,-25.1,M,3.8,0000*4E
$GPGSA,A,3,05,10,28,26,13,08,11,,,,,,1.9,1.1,1.5*3E
$GPGSV,3,1,12,08,64,348,23,07,59,058,27,28,57,245,30,13,28,148,39*78
$GPGSV,3,2,12,19,28,056,30,26,22,317,23,01,22,238,,05,21,276,27*71
$GPGSV,3,3,12,10,17,223,38,11,09,110,37,17,05,188,,03,05,037,*78
$GPRMC,202235.000,A,3748.7935,N,12217.8629,W,1.13,120.62,110711,,,D*7C
$GPVTG,120.62,T,,M,1.13,N,2.1,K,D*0F
$GPGGA,202236.000,3748.7933,N,12217.8623,W,2,07,1.1,9.6,M,-25.1,M,1.8,0000*40
$GPGSA,A,3,05,10,28,26,13,08,11,,,,,,1.9,1.1,1.5*3E
$GPRMC,202236.000,A,3748.7933,N,12217.8623,W,0.96,120.06,110711,,,D*7D
$GPVTG,120.06,T,,M,0.96,N,1.8,K,D*0B
$GPGGA,202237.000,3748.7931,N,12217.8617,W,2,07,1.1,9.8,M,-25.1,M,1.8,0000*4A
$GPGSA,A,3,05,10,28,26,13,08,11,,,,,,1.9,1.1,1.5*3E
$GPRMC,202237.000,A,3748.7931,N,12217.8617,W,1.01,113.60,110711,,,D*76
$GPVTG,113.60,T,,M,1.01,N,1.9,K,D*05
$GPGGA,202238.000,3748.7927,N,12217.8609,W,2,07,1.1,10.8,M,-25.1,M,1.8,0000*75
$GPGSA,A,3,05,10,28,26,13,08,11,,,,,,1.9,1.1,1.5*3E
$GPRMC,202238.000,A,3748.7927,N,12217.8609,W,1.00,104.68,110711,,,D*7E
$GPVTG,104.68,T,,M,1.00,N,1.9,K,D*0A
$GPGGA,202239.000,3748.7925,N,12217.8603,W,2,07,1.1,11.2,M,-25.1,M,1.8,0000*77
$GPGSA,A,3,05,10,28,26,13,08,11,,,,,,1.9,1.1,1.5*3E
$GPRMC,202239.000,A,3748.7925,N,12217.8603,W,1.19,89.79,110711,,,D*4B
$GPVTG,89.79,T,,M,1.19,N,2.2,K,D*3E
$GPGGA,202240.000,3748.7925,N,12217.8598,W,2,07,1.1,11.1,M,-25.1,M,2.8,0000*78
$GPGSA,A,3,05,10,28,26,13,08,11,,,,,,1.9,1.1,1.5*3E
$GPGSV,3,1,12,08,64,348,22,07,59,058,27,28,57,245,30,13,28,148,39*79
$GPGSV,3,2,12,19,28,056,30,26,22,317,23,01,22,238,,05,21,276,22*74
$GPGSV,3,3,12,10,17,223,32,11,09,110,36,17,05,188,39,03,05,037,*79
$GPRMC,202240.000,A,3748.7925,N,12217.8598,W,1.03,101.16,110711,,,D*77
$GPVTG,101.16,T,,M,1.03,N,1.9,K,D*05
$GPGGA,202241.000,3748.7922,N,12217.8592,W,2,07,1.1,11.3,M,-25.1,M,3.8,0000*77
$GPGSA,A,3,05,10,28,26,13,08,11,,,,,,1.9,1.1,1.5*3E
$GPRMC,202241.000,A,3748.7922,N,12217.8592,W,0.46,122.21,110711,,,D*7E
$GPVTG,122.21,T,,M,0.46,N,0.9,K,D*01
$GPGGA,202242.000,3748.7923,N,12217.8589,W,2,07,1.1,10.9,M,-25.1,M,4.8,0000*73
$GPGSA,A,3,05,10,28,26,13,08,11,,,,,,1.9,1.1,1.5*3E
$GPRMC,202242.000,A,3748.7923,N,12217.8589,W,0.61,122.98,110711,,,D*71
$GPVTG,122.98,T,,M,0.61,N,1.1,K,D*0F
$GPGGA,202243.000,3748.7922,N,12217.8587,W,2,07,1.1,10.6,M,-25.1,M,1.8,0000*77
$GPGSA,A,3,05,10,28,26,13,08,11,,,,,,1.9,1.1,1.5*3E
