$ADVER,3080,2.3
$GPRMC,175704.492,A,3748.7998,N,12217.8602,W,0.02,308.72,020811,,,A*79
$GPGGA,175705.492,3748.7999,N,12217.8610,W,1,05,1.5,3.4,M,-25.1,M,,0000*63
$GPGSA,A,3,07,10,19,03,23,,,,,,,,3.4,1.5,3.0*3E
$GPRMC,175705.492,A,3748.7999,N,12217.8610,W,0.04,328.46,020811,,,A*79
$GPVTG,328.46,T,,M,0.04,N,0.1,K,A*03
$GPGGA,175706.000,3748.7998,N,12217.8605,W,1,05,1.5,3.8,M,-25.1,M,,0000*66
$GPGSA,A,3,07,10,19,03,23,,,,,,,,3.4,1.5,3.0*3E
$GPRMC,175706.000,A,3748.7998,N,12217.8605,W,0.05,216.71,020811,,,A*79
$GPVTG,216.71,T,,M,0.05,N,0.1,K,A*0A
$GPGGA,175707.000,3748.8006,N,12217.8608,W,1,05,1.5,0.3,M,-25.1,M,,0000*63
$GPGSA,A,3,07,10,19,03,23,,,,,,,,3.4,1.5,3.0*3E
$GPRMC,175707.000,A,3748.8006,N,12217.8608,W,0.09,245.87,020811,,,A*77
$GPVTG,245.87,T,,M,0.09,N,0.2,K,A*0A
$GPGGA,175708.000,3748.7993,N,12217.8588,W,1,05,1.5,7.8,M,-25.1,M,,0000*61
$GPGSA,A,3,07,10,19,03,23,,,,,,,,3.4,1.5,3.0*3E
$GPRMC,175708.000,A,3748.7993,N,12217.8588,W,0.66,191.65,020811,,,A*76
$GPVTG,191.65,T,,M,0.66,N,1.2,K,A*04
$GPGGA,175709.000,3748.7990,N,12217.8581,W,1,05,1.5,8.7,M,-25.1,M,,0000*6A
$GPGSA,A,3,07,10,19,03,23,,,,,,,,3.4,1.5,3.0*3E
$GPGSV,3,1,12,07,66,000,28,10,35,243,37,19,31,085,27,23,23,137,26*70
$GPGSV,3,2,12,03,21,052,28,08,52,305,29,13,52,131,36,28,34,222,32*79
$GPGSV,3,3,12,05,21,302,25,06,11,042,,16,03,044,,48,00,000,27*77
$GPRMC,175709.000,A,3748.7990,N,12217.8581,W,0.06,53.36,020811,,,A*42
$GPVTG,53.36,T,,M,0.06,N,0.1,K,A*39
$GPGGA,175710.000,3748.7991,N,12217.8576,W,1,05,1.5,8.8,M,-25.1,M,,0000*64
$GPGSA,A,3,07,10,19,03,23,,,,,,,,3.4,1.5,3.0*3E
$GPRMC,175710.000,A,3748.7991,N,12217.8576,W,0.13,30.02,020811,,,A*45
$GPVTG,30.02,T,,M,0.13,N,0.2,K,A*3C
$GPGGA,175711.000,3748.7993,N,12217.8573,W,1,05,1.5,8.8,M,-25.1,M,,0000*62
$GPGSA,A,3,07,10,19,03,23,,,,,,,,3.4,1.5,3.0*3E
$GPRMC,175711.000,A,3748.7993,N,12217.8573,W,0.04,73.41,020811,,,A*45
$GPVTG,73.41,T,,M,0.04,N,0.1,K,A*39
$GPGGA,175712.000,3748.7994,N,12217.8571,W,1,05,1.5,9.5,M,-25.1,M,,0000*68
$GPGSA,A,3,07,10,19,03,23,,,,,,,,3.4,1.5,3.0*3E
$GPRMC,175712.000,A,3748.7994,N,12217.8571,W,0.07,244.30,020811,,,A*70
$GPVTG,244.30,T,,M,0.07,N,0.1,K,A*0A
$GPGGA,175713.000,3748.7994,N,12217.8570,W,1,05,1.5,10.2,M,-25.1,M,,0000*57
$GPGSA,A,3,07,10,19,03,23,,,,,,,,3.4,1.5,3.0*3E
$GPRMC,175713.000,A,3748.7994,N,12217.8570,W,0.11,264.19,020811,,,A*7E
$GPVTG,264.19,T,,M,0.11,N,0.2,K,A*07
$GPGGA,175714.000,3748.7993,N,12217.8569,W,1,05,1.5,10.8,M,-25.1,M,,0000*55
$GPGSA,A,3,07,10,19,03,23,,,,,,,,3.4,1.5,3.0*3E
$GPGSV,3,1,12,07,66,000,31,10,35,243,37,19,31,085,26,23,23,137,31*7F
$GPGSV,3,2,12,03,21,052,28,08,52,305,28,13,52,131,32,28,34,222,32*7C
$GPGSV,3,3,12,05,21,302,24,06,11,042,21,16,03,044,,48,00,000,28*7A
$GPRMC,175714.000,A,3748.7993,N,12217.8569,W,0.14,242.10,020811,,,A*7E
$GPVTG,242.10,T,,M,0.14,N,0.3,K,A*0E
$GPGGA,175715.000,3748.7992,N,12217.8570,W,1,05,1.5,11.3,M,-25.1,M,,0000*57
$GPGSA,A,3,07,10,19,03,23,,,,,,,,3.4,1.5,3.0*3E
$GPRMC,175715.000,A,3748.7992,N,12217.8570,W,0.76,223.02,020811,,,A*76
$GPVTG,223.02,T,,M,0.76,N,1.4,K,A*08
$GPGGA,175716.000,3748.7997,N,12217.8577,W,1,05,1.5,11.0,M,-25.1,M,,0000*55
$GPGSA,A,3,07,10,19,03,23,,,,,,,,3.4,1.5,3.0*3E
$GPRMC,175716.000,A,3748.7997,N,12217.8577,W,0.30,201.34,020811,,,A*70
$GPVTG,201.34,T,,M,0.30,N,0.6,K,A*0C
$GPGGA,175717.000,3748.8001,N,12217.8582,W,1,05,1.5,10.6,M,-25.1,M,,0000*50
$GPGSA,A,3,07,10,19,03,23,,,,,,,,3.4,1.5,3.0*3E
$GPRMC,175717.000,A,3748.8001,N,12217.8582,W,0.43,319.43,020811,,,A*7E
$GPVTG,319.43,T,,M,0.43,N,0.8,K,A*0E
$GPGGA,175718.000,3748.8006,N,12217.8587,W,1,05,1.5,10.1,M,-25.1,M,,0000*5A
$GPGSA,A,3,07,10,19,03,23,,,,,,,,3.4,1.5,3.0*3E
$GPRMC,175718.000,A,3748.8006,N,12217.8587,W,0.44,310.85,020811,,,A*77
$GPVTG,310.85,T,,M,0.44,N,0.8,K,A*0A
$GPGGA,175719.000,3748.8010,N,12217.8591,W,1,05,1.5,9.7,M,-25.1,M,,0000*65
$GPGSA,A,3,07,10,19,03,23,,,,,,,,3.4,1.5,3.0*3E
$GPGSV,3,1,12,07,66,001,38,08,52,306,32,13,52,131,35,10,35,243,18*75
$GPGSV,3,2,12,28,34,222,27,19,31,085,34,23,23,137,22,05,21,302,26*77
$GPGSV,3,3,12,03,21,052,35,06,11,042,21,16,03,044,29,48,44,197,36*71
$GPRMC,175719.000,A,3748.8010,N,12217.8591,W,0.64,229.99,020811,,,A*72
$GPVTG,229.99,T,,M,0.64,N,1.2,K,A*05
$GPGGA,175720.000,3748.8009,N,12217.8592,W,1,05,1.5,9.7,M,-25.1,M,,0000*64
$GPGSA,A,3,07,10,19,03,23,,,,,,,,3.4,1.5,3.0*3E
$GPRMC,175720.000,A,3748.8009,N,12217.8592,W,0.63,182.83,020811,,,A*7D
$GPVTG,182.83,T,,M,0.63,N,1.2,K,A*0B
$GPGGA,175721.000,3748.8010,N,12217.8594,W,1,05,1.5,9.4,M,-25.1,M,,0000*68
$GPGSA,A,3,07,10,19,03,23,,,,,,,,3.4,1.5,3.0*3E
$GPRMC,175721.000,A,3748.8010,N,12217.8594,W,0.29,345.80,020811,,,A*76
$GPVTG,345.80,T,,M,0.29,N,0.5,K,A*09
$GPGGA,175722.000,3748.8011,N,12217.8596,W,1,05,1.5,9.0,M,-25.1,M,,0000*6C
$GPGSA,A,3,07,10,19,03,23,,,,,,,,3.4,1.5,3.0*3E
$GPRMC,175722.000,A,3748.8011,N,12217.8596,W,0.50,28.01,020811,,,A*49
$GPVTG,28.01,T,,M,0.50,N,0.9,K,A*3A
$GPGGA,175723.000,3748.8013,N,12217.8598,W,1,05,1.5,8.7,M,-25.1,M,,0000*67
$GPGSA,A,3,07,10,19,03,23,,,,,,,,3.4,1.5,3.0*3E
$GPRMC,175723.000,A,3748.8013,N,12217.8598,W,0.15,302.13,020811,,,A*7D
$GPVTG,302.13,T,,M,0.15,N,0.3,K,A*09
$GPGGA,175724.000,3748.8013,N,12217.8600,W,1,05,1.5,8.3,M,-25.1,M,,0000*66
$GPGSA,A,3,07,10,19,03,23,,,,,,,,3.4,1.5,3.0*3E
$GPGSV,3,1,12,07,66,001,38,08,52,306,24,13,52,131,33,10,35,243,33*7D
$GPGSV,3,2,12,28,34,222,33,19,31,085,35,23,23,137,29,05,21,302,17*7A
$GPGSV,3,3,12,03,21,052,37,06,11,042,20,16,03,044,31,48,44,197,35*78
$GPRMC,175724.000,A,3748.8013,N,12217.8600,W,0.11,291.22,020811,,,A*75
$GPVTG,291.22,T,,M,0.11,N,0.2,K,A*05
$GPGGA,175725.000,3748.8013,N,12217.8602,W,1,05,1.5,8.0,M,-25.1,M,,0000*66
$GPGSA,A,3,07,10,19,03,23,,,,,,,,3.4,1.5,3.0*3E
$GPRMC,175725.000,A,3748.8013,N,12217.8602,W,0.08,292.46,020811,,,A*7F
$GPVTG,292.46,T,,M,0.08,N,0.1,K,A*0F
$GPGGA,175726.000,3748.8014,N,12217.8603,W,1,05,1.5,7.6,M,-25.1,M,,0000*6A
$GPGSA,A,3,07,10,19,03,23,,,,,,,,3.4,1.5,3.0*3E
$GPRMC,175726.000,A,3748.8014,N,12217.8603,W,0.14,292.97,020811,,,A*7B
$GPVTG,292.97,T,,M,0.14,N,0.3,K,A*0C
$GPGGA,175727.000,3748.8014,N,12217.8605,W,1,05,1.5,7.2,M,-25.1,M,,0000*69
$GPGSA,A,3,07,10,19,03,23,,,,,,,,3.4,1.5,3.0*3E
$GPRMC,175727.000,A,3748.8014,N,12217.8605,W,0.14,297.96,020811,,,A*78
$GPVTG,297.96,T,,M,0.14,N,0.3,K,A*08
$GPGGA,175728.000,3748.8014,N,12217.8607,W,1,06,1.4,6.8,M,-25.1,M,,0000*6D
$GPGSA,A,3,07,10,19,03,23,28,,,,,,,3.3,1.4,3.0*32
$GPRMC,175728.000,A,3748.8014,N,12217.8607,W,0.13,317.34,020811,,,A*73
$GPVTG,317.34,T,,M,0.13,N,0.2,K,A*0F
$GPGGA,175729.000,3748.8015,N,12217.8609,W,1,06,1.4,6.4,M,-25.1,M,,0000*6F
$GPGSA,A,3,07,10,19,03,23,28,,,,,,,3.3,1.4,3.0*32
$GPGSV,3,1,12,07,66,001,37,08,52,306,26,13,52,131,33,10,35,243,34*77
$GPGSV,3,2,12,28,34,222,33,19,31,084,35,23,23,137,30,05,21,302,26*71
$GPGSV,3,3,12,03,21,052,37,06,11,042,28,16,03,044,32,26,00,314,*74
$GPRMC,175729.000,A,3748.8015,N,12217.8609,W,0.13,322.52,020811,,,A*7B
$GPGGA,175730.000,3748.8015,N,12217.8610,W,1,06,1.4,6.0,M,-25.1,M,,0000*6B
$GPGSA,A,3,07,10,19,03,23,28,,,,,,,3.3,1.4,3.0*32
$GPRMC,175730.000,A,3748.8015,N,12217.8610,W,0.15,325.90,020811,,,A*74
$GPVTG,325.90,T,,M,0.15,N,0.3,K,A*07
$GPGGA,175731.000,3748.8015,N,12217.8611,W,1,06,1.4,5.6,M,-25.1,M,,0000*6E
$GPGSA,A,3,07,10,19,03,23,28,,,,,,,3.3,1.4,3.0*32
$GPRMC,175731.000,A,3748.8015,N,12217.8611,W,0.09,328.35,020811,,,A*7B
$GPVTG,328.35,T,,M,0.09,N,0.2,K,A*09
$GPGGA,175732.000,3748.8015,N,12217.8612,W,1,06,1.4,5.3,M,-25.1,M,,0000*6B
$GPGSA,A,3,07,10,19,03,23,28,,,,,,,3.3,1.4,3.0*32
$GPRMC,175732.000,A,3748.8015,N,12217.8612,W,0.09,315.79,020811,,,A*7D
$GPVTG,315.79,T,,M,0.09,N,0.2,K,A*0F
$GPGGA,175733.000,3748.8016,N,12217.8613,W,1,06,1.4,4.9,M,-25.1,M,,0000*63
$GPGSA,A,3,07,10,19,03,23,28,,,,,,,3.3,1.4,3.0*32
$GPRMC,175733.000,A,3748.8016,N,12217.8613,W,0.16,319.73,020811,,,A*76
$GPVTG,319.73,T,,M,0.16,N,0.3,K,A*06
$GPGGA,175734.000,3748.8016,N,12217.8614,W,1,07,1.2,4.6,M,-25.1,M,,0000*6B
$GPGSA,A,3,07,10,19,03,23,28,13,,,,,,2.5,1.2,2.2*32
$GPGSV,3,1,12,07,66,001,36,08,52,306,27,13,52,131,33,10,35,243,34*77
$GPGSV,3,2,12,28,34,222,33,19,31,084,35,23,23,137,30,05,21,302,25*72
$GPGSV,3,3,12,03,21,052,37,06,11,042,27,16,03,044,33,26,00,314,*7A
$GPRMC,175734.000,A,3748.8016,N,12217.8614,W,0.07,322.64,020811,,,A*78
$GPVTG,322.64,T,,M,0.07,N,0.1,K,A*0A
$GPGGA,175735.000,3748.8015,N,12217.8613,W,1,07,1.2,4.5,M,-25.1,M,,0000*6D
$GPGSA,A,3,07,10,19,03,23,28,13,,,,,,2.5,1.2,2.2*32
$GPRMC,175735.000,A,3748.8015,N,12217.8613,W,0.23,90.20,020811,,,A*41
$GPVTG,90.20,T,,M,0.23,N,0.4,K,A*33
$GPGGA,175736.000,3748.8014,N,12217.8612,W,1,07,1.2,4.4,M,-25.1,M,,0000*6F
$GPGSA,A,3,07,10,19,03,23,28,13,,,,,,2.5,1.2,2.2*32
$GPRMC,175736.000,A,3748.8014,N,12217.8612,W,0.29,160.90,020811,,,A*7D
$GPVTG,160.90,T,,M,0.29,N,0.5,K,A*0D
$GPGGA,175737.000,3748.8014,N,12217.8612,W,1,07,1.2,4.2,M,-25.1,M,,0000*68
$GPGSA,A,3,07,10,19,03,23,28,13,,,,,,2.5,1.2,2.2*32
$GPRMC,175737.000,A,3748.8014,N,12217.8612,W,0.14,73.10,020811,,,A*49
$GPVTG,73.10,T,,M,0.14,N,0.3,K,A*3E
$GPGGA,175738.000,3748.8014,N,12217.8612,W,1,07,1.2,4.0,M,-25.1,M,,0000*65
$GPGSA,A,3,07,10,19,03,23,28,13,,,,,,2.5,1.2,2.2*32
$GPRMC,175738.000,A,3748.8014,N,12217.8612,W,0.07,53.75,020811,,,A*45
$GPVTG,53.75,T,,M,0.07,N,0.1,K,A*3F
$GPGGA,175739.000,3748.8014,N,12217.8612,W,1,07,1.2,3.8,M,-25.1,M,,0000*6B
$GPGSA,A,3,07,10,19,03,23,28,13,,,,,,2.5,1.2,2.2*32
$GPGSV,3,1,12,07,66,001,30,08,52,306,21,13,52,131,24,10,35,243,34*71
$GPGSV,3,2,12,28,34,222,28,19,31,084,27,23,23,137,18,05,21,302,25*71
$GPGSV,3,3,12,03,21,052,30,06,11,042,27,16,03,044,29,26,00,314,*76
$GPRMC,175739.000,A,3748.8014,N,12217.8612,W,0.42,112.33,020811,,,A*73
$GPVTG,112.33,T,,M,0.42,N,0.8,K,A*01
$GPGGA,175740.000,3748.8015,N,12217.8615,W,1,07,1.2,3.3,M,-25.1,M,,0000*68
$GPGSA,A,3,07,10,19,03,23,28,13,,,,,,2.5,1.2,2.2*32
$GPRMC,175740.000,A,3748.8015,N,12217.8615,W,0.26,135.03,020811,,,A*7F
$GPVTG,135.03,T,,M,0.26,N,0.5,K,A*08
$GPGGA,175741.000,3748.8012,N,12217.8616,W,1,07,1.2,0.9,M,-25.1,M,,0000*64
$GPGSA,A,3,07,10,19,03,23,28,13,,,,,,2.5,1.2,2.2*32
$GPRMC,175741.000,A,3748.8012,N,12217.8616,W,0.66,166.69,020811,,,A*74
$GPVTG,166.69,T,,M,0.66,N,1.2,K,A*00
$GPGGA,175742.000,3748.8013,N,12217.8614,W,1,07,1.2,-0.1,M,-25.1,M,,0000*41
$GPGSA,A,3,07,10,19,03,23,28,13,,,,,,2.5,1.2,2.2*32
$GPRMC,175742.000,A,3748.8013,N,12217.8614,W,0.07,336.79,020811,,,A*75
$GPVTG,336.79,T,,M,0.07,N,0.1,K,A*03
$GPGGA,175743.000,3748.8015,N,12217.8613,W,1,07,1.2,-0.9,M,-25.1,M,,0000*49
$GPGSA,A,3,07,10,19,03,23,28,13,,,,,,2.5,1.2,2.2*32
$GPRMC,175743.000,A,3748.8015,N,12217.8613,W,0.24,327.34,020811,,,A*7D
$GPVTG,327.34,T,,M,0.24,N,0.5,K,A*0F
$GPGGA,175744.000,3748.8016,N,12217.8612,W,1,07,1.2,-1.7,M,-25.1,M,,0000*43
$GPGSA,A,3,07,10,19,03,23,28,13,,,,,,2.5,1.2,2.2*32
$GPGSV,3,1,12,07,66,001,21,08,52,306,20,13,52,131,16,10,35,243,30*75
$GPGSV,3,2,12,28,34,222,26,19,31,084,27,23,23,137,31,05,21,302,25*74
$GPGSV,3,3,12,03,21,052,28,06,11,042,25,16,03,044,30,26,00,314,*75
$GPVTG,322.28,T,,M,0.37,N,0.7,K,A*07
$GPGGA,175745.000,3748.8018,N,12217.8612,W,1,07,1.2,-2.5,M,-25.1,M,,0000*4D
$GPGSA,A,3,07,10,19,03,23,28,13,,,,,,2.5,1.2,2.2*32
$GPRMC,175745.000,A,3748.8018,N,12217.8612,W,0.32,323.42,020811,,,A*75
$GPVTG,323.42,T,,M,0.32,N,0.6,K,A*0E
$GPGGA,175746.000,3748.8019,N,12217.8609,W,1,07,1.2,-2.8,M,-25.1,M,,0000*48
$GPGSA,A,3,07,10,19,03,23,28,13,,,,,,2.5,1.2,2.2*32
$GPRMC,175746.000,A,3748.8019,N,12217.8609,W,0.20,313.89,020811,,,A*7A
$GPVTG,313.89,T,,M,0.20,N,0.4,K,A*0B
$GPGGA,175747.000,3748.8020,N,12217.8611,W,1,07,1.2,-3.0,M,-25.1,M,,0000*43
$GPGSA,A,3,07,10,19,03,23,28,13,,,,,,2.5,1.2,2.2*32
$GPRMC,175747.000,A,3748.8020,N,12217.8611,W,0.42,308.72,020811,,,A*72
$GPVTG,308.72,T,,M,0.42,N,0.8,K,A*0D
$GPGGA,175748.000,3748.8020,N,12217.8613,W,1,07,1.2,-3.1,M,-25.1,M,,0000*4F
$GPGSA,A,3,07,10,19,03,23,28,13,,,,,,2.5,1.2,2.2*32
$GPRMC,175748.000,A,3748.8020,N,12217.8613,W,0.58,256.78,020811,,,A*74
$GPVTG,256.78,T,,M,0.58,N,1.1,K,A*0E
$GPGGA,175749.000,3748.8020,N,12217.8615,W,1,07,1.2,-3.5,M,-25.1,M,,0000*4C
$GPGSA,A,3,07,10,19,03,23,28,13,,,,,,2.5,1.2,2.2*32
$GPGSV,3,1,12,07,66,001,29,08,52,306,26,13,52,132,18,10,35,243,20*77
$GPGSV,3,2,12,28,34,222,28,19,31,084,29,23,23,137,22,05,21,302,23*70
$GPGSV,3,3,12,03,21,052,30,06,11,042,20,16,03,044,28,26,00,314,*70
$GPRMC,175749.000,A,3748.8020,N,12217.8615,W,0.56,288.95,020811,,,A*7D
$GPVTG,288.95,T,,M,0.56,N,1.0,K,A*01
$GPGGA,175750.000,3748.8020,N,12217.8613,W,1,07,1.2,-3.6,M,-25.1,M,,0000*41
$GPGSA,A,3,07,10,19,03,23,28,13,,,,,,2.5,1.2,2.2*32
$GPRMC,175750.000,A,3748.8020,N,12217.8613,W,0.33,315.68,020811,,,A*77
$GPVTG,315.68,T,,M,0.33,N,0.6,K,A*02
$GPGGA,175751.000,3748.8022,N,12217.8613,W,1,07,1.2,-3.6,M,-25.1,M,,0000*42
$GPGSA,A,3,07,10,19,03,23,28,13,,,,,,2.5,1.2,2.2*32
$GPRMC,175751.000,A,3748.8022,N,12217.8613,W,0.12,334.01,020811,,,A*7B
$GPVTG,334.01,T,,M,0.12,N,0.2,K,A*09
$GPGGA,175752.000,3748.8023,N,12217.8611,W,1,07,1.2,-3.3,M,-25.1,M,,0000*47
$GPGSA,A,3,07,10,19,03,23,28,13,,,,,,2.5,1.2,2.2*32
$GPRMC,175752.000,A,3748.8023,N,12217.8611,W,0.26,51.21,020811,,,A*4E
$GPVTG,51.21,T,,M,0.26,N,0.5,K,A*3B
$GPGGA,175753.000,3748.8022,N,12217.8609,W,1,07,1.2,-3.3,M,-25.1,M,,0000*4E
$GPGSA,A,3,07,10,19,03,23,28,13,,,,,,2.5,1.2,2.2*32
$GPRMC,175753.000,A,3748.8022,N,12217.8609,W,0.36,123.72,020811,,,A*74
$GPVTG,123.72,T,,M,0.36,N,0.7,K,A*0A
$GPGGA,175754.000,3748.8018,N,12217.8610,W,1,07,1.2,-3.4,M,-25.1,M,,0000*4F
$GPGSA,A,3,07,10,19,03,23,28,13,,,,,,2.5,1.2,2.2*32
$GPGSV,3,1,12,07,66,001,27,08,52,306,28,13,52,132,19,10,35,243,31*76
$GPGSV,3,2,12,28,34,222,26,19,31,084,30,23,23,137,19,05,21,302,18*76
$GPGSV,3,3,12,03,21,052,30,06,11,042,24,16,03,044,37,26,00,314,*7A
$GPRMC,175754.000,A,3748.8018,N,12217.8610,W,0.47,160.47,020811,,,A*75
$GPVTG,160.47,T,,M,0.47,N,0.9,K,A*03
$GPGGA,175755.000,3748.8018,N,12217.8610,W,1,07,1.2,-3.5,M,-25.1,M,,0000*4F
$GPGSA,A,3,07,10,19,03,23,28,13,,,,,,2.5,1.2,2.2*32
$GPRMC,175755.000,A,3748.8018,N,12217.8610,W,0.24,347.67,020811,,,A*74
$GPVTG,347.67,T,,M,0.24,N,0.4,K,A*0E
$GPGGA,175756.000,3748.8021,N,12217.8613,W,1,07,1.2,-3.6,M,-25.1,M,,0000*46
$GPGSA,A,3,07,10,19,03,23,28,13,,,,,,2.5,1.2,2.2*32
$GPRMC,175756.000,A,3748.8021,N,12217.8613,W,0.12,212.87,020811,,,A*74
$GPVTG,212.87,T,,M,0.12,N,0.2,K,A*02
$GPGGA,175757.000,3748.8023,N,12217.8616,W,1,07,1.2,-3.9,M,-25.1,M,,0000*4F
$GPGSA,A,3,07,10,19,03,23,28,13,,,,,,2.5,1.2,2.2*32
$GPRMC,175757.000,A,3748.8023,N,12217.8616,W,0.66,328.39,020811,,,A*7C
$GPVTG,328.39,T,,M,0.66,N,1.2,K,A*0D
$GPGGA,175758.000,3748.8029,N,12217.8622,W,1,07,1.2,-4.3,M,-25.1,M,,0000*40
$GPGSA,A,3,07,10,19,03,23,28,13,,,,,,2.5,1.2,2.2*32
$GPRMC,175758.000,A,3748.8029,N,12217.8622,W,1.09,333.27,020811,,,A*73
$GPVTG,333.27,T,,M,1.09,N,2.0,K,A*01
$GPGGA,175759.000,3748.8030,N,12217.8625,W,1,07,1.2,-4.7,M,-25.1,M,,0000*4A
$GPGSA,A,3,07,10,19,03,23,28,13,,,,,,2.5,1.2,2.2*32
$GPGSV,3,1,12,07,66,001,33,08,52,306,33,13,52,132,20,10,35,243,26*75
$GPGSV,3,2,12,28,34,222,18,19,31,084,24,23,23,137,20,05,21,302,18*74
$GPGSV,3,3,12,03,21,052,31,06,11,042,12,16,03,044,28,26,00,314,*70
$GPRMC,175759.000,A,3748.8030,N,12217.8625,W,0.31,316.23,020811,,,A*74
$GPVTG,316.23,T,,M,0.31,N,0.6,K,A*0C
$GPGGA,175800.000,3748.8030,N,12217.8627,W,1,07,1.2,-4.9,M,-25.1,M,,0000*45
$GPGSA,A,3,07,10,19,03,23,28,13,,,,,,2.5,1.2,2.2*32
$GPRMC,175800.000,A,3748.8030,N,12217.8627,W,0.32,347.60,020811,,,A*75
$GPVTG,347.60,T,,M,0.32,N,0.6,K,A*0C
$GPGGA,175801.000,3748.8030,N,12217.8625,W,1,07,1.2,-4.5,M,-25.1,M,,0000*4A
$GPGSA,A,3,07,10,19,03,23,28,13,,,,,,2.5,1.2,2.2*32
$GPRMC,175801.000,A,3748.8030,N,12217.8625,W,0.22,211.38,020811,,,A*78
$GPVTG,211.38,T,,M,0.22,N,0.4,K,A*00
$GPGGA,175802.000,3748.8028,N,12217.8627,W,1,07,1.2,-4.6,M,-25.1,M,,0000*41
$GPGSA,A,3,07,10,19,03,23,28,13,,,,,,2.5,1.2,2.2*32
$GPRMC,175802.000,A,3748.8028,N,12217.8627,W,0.22,190.42,020811,,,A*77
$GPVTG,190.42,T,,M,0.22,N,0.4,K,A*07
$GPGGA,175803.000,3748.8025,N,12217.8627,W,1,07,1.2,-4.6,M,-25.1,M,,0000*4D
$GPGSA,A,3,07,10,19,03,23,28,13,,,,,,2.5,1.2,2.2*32
$GPRMC,175803.000,A,3748.8025,N,12217.8627,W,0.22,319.10,020811,,,A*7F
$GPVTG,319.10,T,,M,0.22,N,0.4,K,A*03
$GPGGA,175804.000,3748.8022,N,12217.8627,W,1,07,1.2,-4.5,M,-25.1,M,,0000*4E
$GPGSA,A,3,07,10,19,03,23,28,13,,,,,,2.5,1.2,2.2*32
$GPGSV,3,1,12,07,66,001,25,08,52,306,25,13,52,132,18,10,35,243,31*78
$GPGSV,3,2,12,28,34,222,29,19,31,084,36,23,23,137,20,05,21,302,22*7C
$GPGSV,3,3,12,03,21,052,36,06,11,042,23,16,03,044,31,26,00,314,*7D
$GPRMC,175804.000,A,3748.8022,N,12217.8627,W,0.37,152.93,020811,,,A*7D
$GPGGA,175805.000,3748.8020,N,12217.8627,W,1,07,1.2,-4.3,M,-25.1,M,,0000*4B
$GPGSA,A,3,07,10,19,03,23,28,13,,,,,,2.5,1.2,2.2*32
$GPRMC,175805.000,A,3748.8020,N,12217.8627,W,0.05,178.19,020811,,,A*75
$GPVTG,178.19,T,,M,0.05,N,0.1,K,A*0F
$GPGGA,175806.000,3748.8019,N,12217.8627,W,1,07,1.2,-3.9,M,-25.1,M,,0000*4F
$GPGSA,A,3,07,10,19,03,23,28,13,,,,,,2.5,1.2,2.2*32
$GPRMC,175806.000,A,3748.8019,N,12217.8627,W,0.13,339.21,020811,,,A*77
$GPVTG,339.21,T,,M,0.13,N,0.2,K,A*07
$GPGGA,175807.000,3748.8017,N,12217.8626,W,1,07,1.2,-3.6,M,-25.1,M,,0000*4E
$GPGSA,A,3,07,10,19,03,23,28,13,,,,,,2.5,1.2,2.2*32
$GPRMC,175807.000,A,3748.8017,N,12217.8626,W,0.10,152.70,020811,,,A*71
$GPVTG,152.70,T,,M,0.10,N,0.2,K,A*0F
$GPGGA,175808.000,3748.8015,N,12217.8625,W,1,07,1.2,-3.2,M,-25.1,M,,0000*44
$GPGSA,A,3,07,10,19,03,23,28,13,,,,,,2.5,1.2,2.2*32
$GPRMC,175808.000,A,3748.8015,N,12217.8625,W,0.41,151.57,020811,,,A*7D
$GPVTG,151.57,T,,M,0.41,N,0.8,K,A*07
$GPGGA,175809.000,3748.8013,N,12217.8625,W,1,07,1.2,-3.0,M,-25.1,M,,0000*41
$GPGSA,A,3,07,10,19,03,23,28,13,,,,,,2.5,1.2,2.2*32
$GPGSV,3,1,12,07,66,001,26,08,52,306,25,13,52,132,18,10,35,243,27*7C
$GPGSV,3,2,12,28,34,222,27,19,31,084,36,23,23,137,20,05,21,302,22*72
$GPGSV,3,3,12,03,21,052,35,06,11,042,17,16,03,044,30,26,00,314,*78
$GPRMC,175809.000,A,3748.8013,N,12217.8625,W,0.06,149.31,020811,,,A*70
$GPVTG,149.31,T,,M,0.06,N,0.1,K,A*04
$GPGGA,175810.000,3748.8011,N,12217.8624,W,1,07,1.2,-2.7,M,-25.1,M,,0000*4C
$GPGSA,A,3,07,10,19,03,23,28,13,,,,,,2.5,1.2,2.2*32
$GPRMC,175810.000,A,3748.8011,N,12217.8624,W,0.14,109.48,020811,,,A*72
$GPVTG,109.48,T,,M,0.14,N,0.3,K,A*0F
$GPGGA,175811.000,3748.8010,N,12217.8623,W,1,07,1.2,-2.6,M,-25.1,M,,0000*4A
$GPGSA,A,3,07,10,19,03,23,28,13,,,,,,2.5,1.2,2.2*32
$GPRMC,175811.000,A,3748.8010,N,12217.8623,W,0.15,105.52,020811,,,A*73
$GPVTG,105.52,T,,M,0.15,N,0.3,K,A*09
$GPGGA,175812.000,3748.8005,N,12217.8619,W,1,07,1.2,-0.9,M,-25.1,M,,0000*49
$GPGSA,A,3,07,10,19,03,23,28,13,,,,,,2.5,1.2,2.2*32
$GPRMC,175812.000,A,3748.8005,N,12217.8619,W,0.10,272.75,020811,,,A*7E
$GPVTG,272.75,T,,M,0.10,N,0.2,K,A*0B
$GPGGA,175813.000,3748.8006,N,12217.8621,W,1,07,1.2,-1.4,M,-25.1,M,,0000*4C
$GPGSA,A,3,07,10,19,03,23,28,13,,,,,,2.5,1.2,2.2*32
$GPRMC,175813.000,A,3748.8006,N,12217.8621,W,0.25,341.91,020811,,,A*7A
$GPVTG,341.91,T,,M,0.25,N,0.5,K,A*01
$GPGGA,175814.000,3748.8010,N,12217.8622,W,1,07,1.2,-1.0,M,-25.1,M,,0000*4B
$GPGSA,A,3,07,10,19,03,23,28,13,,,,,,2.5,1.2,2.2*32
$GPGSV,3,1,12,07,66,001,33,08,52,306,29,13,52,132,28,10,35,243,14*77
$GPGSV,3,2,12,28,34,222,21,19,31,084,26,23,23,137,20,05,21,302,23*74
$GPGSV,3,3,12,03,21,052,31,06,11,042,19,16,03,044,29,26,00,314,*7A
$GPRMC,175814.000,A,3748.8010,N,12217.8622,W,0.52,21.87,020811,,,A*4B
$GPVTG,21.87,T,,M,0.52,N,1.0,K,A*37
$GPGGA,175815.000,3748.8013,N,12217.8625,W,1,07,1.2,-1.5,M,-25.1,M,,0000*4B
$GPGSA,A,3,07,10,19,03,23,28,13,,,,,,2.5,1.2,2.2*32
$GPRMC,175815.000,A,3748.8013,N,12217.8625,W,0.11,225.07,020811,,,A*77
$GPVTG,225.07,T,,M,0.11,N,0.2,K,A*0D
$GPGGA,175816.000,3748.8016,N,12217.8626,W,1,07,1.2,-1.3,M,-25.1,M,,0000*48
$GPGSA,A,3,07,10,19,03,23,28,13,,,,,,2.5,1.2,2.2*32
$GPRMC,175816.000,A,3748.8016,N,12217.8626,W,0.16,157.00,020811,,,A*74
$GPVTG,157.00,T,,M,0.16,N,0.3,K,A*0A
$GPGGA,175817.000,3748.8018,N,12217.8626,W,1,07,1.2,-1.2,M,-25.1,M,,0000*46
$GPGSA,A,3,07,10,19,03,23,28,13,,,,,,2.5,1.2,2.2*32
$GPRMC,175817.000,A,3748.8018,N,12217.8626,W,0.14,89.20,020811,,,A*49
$GPVTG,89.20,T,,M,0.14,N,0.3,K,A*38
$GPGGA,175818.000,3748.8020,N,12217.8626,W,1,07,1.2,-1.0,M,-25.1,M,,0000*40
$GPGSA,A,3,07,10,19,03,23,28,13,,,,,,2.5,1.2,2.2*32
$GPRMC,175818.000,A,3748.8020,N,12217.8626,W,0.22,228.44,020811,,,A*73
$GPVTG,228.44,T,,M,0.22,N,0.4,K,A*01
$GPGGA,175819.000,3748.8021,N,12217.8628,W,1,07,1.2,-1.2,M,-25.1,M,,0000*4C
$GPGSA,A,3,07,10,19,03,23,28,13,,,,,,2.5,1.2,2.2*32
$GPGSV,3,1,12,07,66,002,33,08,52,306,29,13,52,132,29,10,35,242,26*75
$GPGSV,3,2,12,28,34,222,35,19,31,084,26,23,23,137,20,05,22,301,23*71
$GPGSV,3,3,12,03,21,051,29,06,11,041,19,16,03,044,29,26,00,314,*73
$GPVTG,211.53,T,,M,0.41,N,0.8,K,A*04
$GPGGA,175820.000,3748.8021,N,12217.8630,W,1,07,1.2,-1.4,M,-25.1,M,,0000*49
$GPGSA,A,3,07,10,19,03,23,28,13,,,,,,2.5,1.2,2.2*32
$GPRMC,175820.000,A,3748.8021,N,12217.8630,W,0.68,199.49,020811,,,A*74
$GPVTG,199.49,T,,M,0.68,N,1.3,K,A*0D
$GPGGA,175821.000,3748.8020,N,12217.8631,W,1,07,1.2,-1.4,M,-25.1,M,,0000*48
$GPGSA,A,3,07,10,19,03,23,28,13,,,,,,2.5,1.2,2.2*32
$GPRMC,175821.000,A,3748.8020,N,12217.8631,W,0.38,136.16,020811,,,A*7F
$GPVTG,136.16,T,,M,0.38,N,0.7,K,A*02
$GPGGA,175822.000,3748.8020,N,12217.8631,W,1,07,1.2,-1.5,M,-25.1,M,,0000*4A
$GPGSA,A,3,07,10,19,03,23,28,13,,,,,,2.5,1.2,2.2*32
$GPRMC,175822.000,A,3748.8020,N,12217.8631,W,0.32,135.45,020811,,,A*73
$GPVTG,135.45,T,,M,0.32,N,0.6,K,A*0C
$GPGGA,175823.000,3748.8020,N,12217.8632,W,2,07,1.2,-1.5,M,-25.1,M,,0000*4B
$GPGSA,A,3,07,10,19,03,23,28,13,,,,,,2.5,1.2,2.2*32
$GPRMC,175823.000,A,3748.8020,N,12217.8632,W,0.12,316.91,020811,,,D*7C
$GPVTG,316.91,T,,M,0.12,N,0.2,K,D*05
$GPGGA,175824.000,3748.8020,N,12217.8632,W,2,07,1.2,-1.5,M,-25.1,M,,0000*4C
$GPGSA,A,3,07,10,19,03,23,28,13,,,,,,2.5,1.2,2.2*32
$GPGSV,3,1,12,07,66,002,39,08,52,306,25,13,52,132,30,10,35,242,25*78
$GPGSV,3,2,12,28,34,222,30,19,31,084,29,23,23,137,20,05,22,301,29*71
$GPGSV,3,3,12,03,21,051,30,06,11,041,16,16,03,044,20,26,00,314,*7D
$GPRMC,175824.000,A,3748.8020,N,12217.8632,W,0.24,33.45,020811,,,D*43
$GPVTG,33.45,T,,M,0.24,N,0.4,K,D*3B
$GPGGA,175825.000,3748.8020,N,12217.8631,W,2,07,1.2,-1.5,M,-25.1,M,2.8,0000*6A
$GPGSA,A,3,07,10,19,03,23,28,13,,,,,,2.5,1.2,2.2*32
$GPRMC,175825.000,A,3748.8020,N,12217.8631,W,0.23,130.03,020811,,,D*76
$GPVTG,130.03,T,,M,0.23,N,0.4,K,D*0C
$GPGGA,175826.000,3748.8019,N,12217.8630,W,2,07,1.2,-1.4,M,-25.1,M,3.8,0000*62
$GPGSA,A,3,07,10,19,03,23,28,13,,,,,,2.5,1.2,2.2*32
$GPRMC,175826.000,A,3748.8019,N,12217.8630,W,0.27,150.33,020811,,,D*7F
$GPVTG,150.33,T,,M,0.27,N,0.5,K,D*0C
$GPGGA,175827.000,3748.8018,N,12217.8630,W,2,07,1.2,-1.3,M,-25.1,M,4.8,0000*62
$GPGSA,A,3,07,10,19,03,23,28,13,,,,,,2.5,1.2,2.2*32
$GPRMC,175827.000,A,3748.8018,N,12217.8630,W,0.20,168.91,020811,,,D*7B
$GPVTG,168.91,T,,M,0.20,N,0.4,K,D*09
$GPGGA,175828.000,3748.8017,N,12217.8629,W,2,07,1.2,-1.2,M,-25.1,M,,0000*49
$GPGSA,A,3,07,10,19,03,23,28,13,,,,,,2.5,1.2,2.2*32
$GPRMC,175828.000,A,3748.8017,N,12217.8629,W,0.35,114.70,020811,,,D*73
$GPVTG,114.70,T,,M,0.35,N,0.7,K,D*0A
$GPGGA,175829.000,3748.8017,N,12217.8626,W,2,07,1.2,-0.9,M,-25.1,M,,0000*4D
$GPGSA,A,3,07,10,19,03,23,28,13,,,,,,2.5,1.2,2.2*32
$GPGSV,3,1,12,07,66,002,30,08,52,306,31,13,52,132,27,10,35,242,20*77
$GPGSV,3,2,12,28,34,222,29,19,31,084,23,23,23,137,19,05,22,301,29*79
$GPGSV,3,3,12,03,21,051,30,06,11,041,17,16,03,044,20,26,00,314,*7C
$GPRMC,175829.000,A,3748.8017,N,12217.8626,W,0.56,107.51,020811,,,D*79
$GPVTG,107.51,T,,M,0.56,N,1.0,K,D*08
$GPGGA,175830.000,3748.8014,N,12217.8623,W,2,07,1.2,-0.8,M,-25.1,M,,0000*42
$GPGSA,A,3,07,10,19,03,23,28,13,,,,,,2.5,1.2,2.2*32
$GPRMC,175830.000,A,3748.8014,N,12217.8623,W,0.76,157.23,020811,,,D*75
$GPVTG,157.23,T,,M,0.76,N,1.4,K,D*0E
$GPGGA,175831.000,3748.8014,N,12217.8622,W,2,07,1.2,-0.2,M,-25.1,M,,0000*48
$GPGSA,A,3,07,10,19,03,23,28,13,,,,,,2.5,1.2,2.2*32
$GPRMC,175831.000,A,3748.8014,N,12217.8622,W,0.20,100.54,020811,,,D*74
$GPVTG,100.54,T,,M,0.20,N,0.4,K,D*0E
$GPGGA,175832.000,3748.8014,N,12217.8622,W,2,07,1.2,-0.1,M,-25.1,M,2.8,0000*6C
$GPGSA,A,3,07,10,19,03,23,28,13,,,,,,2.5,1.2,2.2*32
$GPRMC,175832.000,A,3748.8014,N,12217.8622,W,0.36,81.99,020811,,,D*49
$GPVTG,81.99,T,,M,0.36,N,0.7,K,D*33
$GPGGA,175833.000,3748.8014,N,12217.8623,W,2,07,1.2,-0.3,M,-25.1,M,,0000*4A
$GPGSA,A,3,07,10,19,03,23,28,13,,,,,,2.5,1.2,2.2*32
$GPRMC,175833.000,A,3748.8014,N,12217.8623,W,0.09,179.71,020811,,,D*75
$GPVTG,179.71,T,,M,0.09,N,0.2,K,D*0A
$GPGGA,175834.000,3748.8014,N,12217.8628,W,2,07,1.2,-1.6,M,-25.1,M,,0000*42
$GPGSA,A,3,07,10,19,03,23,28,13,,,,,,2.5,1.2,2.2*32
$GPGSV,3,1,12,07,66,002,36,08,52,306,25,13,52,132,34,10,35,242,27*71
$GPGSV,3,2,12,28,34,222,31,19,31,084,23,23,23,137,29,05,22,301,21*7B
$GPGSV,3,3,12,03,21,051,23,06,11,041,22,16,03,044,20,26,00,314,*78
$GPRMC,175834.000,A,3748.8014,N,12217.8628,W,0.20,249.93,020811,,,D*7E
$GPVTG,249.93,T,,M,0.20,N,0.4,K,D*0B
$GPGGA,175835.000,3748.8012,N,12217.8629,W,2,07,1.2,-2.0,M,-25.1,M,2.8,0000*65
$GPGSA,A,3,07,10,19,03,23,28,13,,,,,,2.5,1.2,2.2*32
$GPRMC,175835.000,A,3748.8012,N,12217.8629,W,0.19,272.34,020811,,,D*77
$GPVTG,272.34,T,,M,0.19,N,0.3,K,D*03
$GPGGA,175836.000,3748.8011,N,12217.8628,W,2,07,1.2,-2.2,M,-25.1,M,,0000*42
$GPGSA,A,3,07,10,19,03,23,28,13,,,,,,2.5,1.2,2.2*32
$GPRMC,175836.000,A,3748.8011,N,12217.8628,W,0.10,84.67,020811,,,D*42
$GPVTG,84.67,T,,M,0.10,N,0.2,K,D*36
$GPGGA,175837.000,3748.8010,N,12217.8627,W,2,07,1.2,-2.5,M,-25.1,M,,0000*4A
$GPGSA,A,3,07,10,19,03,23,28,13,,,,,,2.5,1.2,2.2*32
$GPRMC,175837.000,A,3748.8010,N,12217.8627,W,0.08,246.84,020811,,,D*75
$GPVTG,246.84,T,,M,0.08,N,0.1,K,D*0D
$GPGGA,175838.000,3748.8009,N,12217.8628,W,2,07,1.2,-2.3,M,-25.1,M,2.8,0000*60
$GPGSA,A,3,07,10,19,03,23,28,13,,,,,,2.5,1.2,2.2*32
$GPRMC,175838.000,A,3748.8009,N,12217.8628,W,0.40,256.63,020811,,,D*79
$GPVTG,256.63,T,,M,0.40,N,0.7,K,D*0F
$GPGGA,175839.000,3748.8008,N,12217.8627,W,2,07,1.2,-1.5,M,-25.1,M,3.8,0000*6B
$GPGSA,A,3,07,10,19,03,23,28,13,,,,,,2.5,1.2,2.2*32
$GPGSV,3,1,12,07,66,002,41,08,52,306,40,13,52,132,33,10,35,242,23*71
$GPGSV,3,2,12,28,34,222,22,19,31,084,24,23,23,137,27,05,22,301,32*72
$GPGSV,3,3,12,03,21,051,37,06,11,041,30,16,03,044,28,26,00,314,*76
$GPVTG,30.10,T,,M,0.20,N,0.4,K,D*3C
$GPGGA,175840.000,3748.8008,N,12217.8623,W,2,07,1.2,-0.7,M,-25.1,M,4.8,0000*65
$GPGSA,A,3,07,10,19,03,23,28,13,,,,,,2.5,1.2,2.2*32
$GPRMC,175840.000,A,3748.8008,N,12217.8623,W,0.44,65.64,020811,,,D*4D
$GPVTG,65.64,T,,M,0.44,N,0.8,K,D*31
$GPGGA,175841.000,3748.8008,N,12217.8617,W,2,07,1.2,-0.7,M,-25.1,M,5.8,0000*62
$GPGSA,A,3,07,10,19,03,23,28,13,,,,,,2.5,1.2,2.2*32
$GPRMC,175841.000,A,3748.8008,N,12217.8617,W,0.62,66.66,020811,,,D*4E
$GPVTG,66.66,T,,M,0.62,N,1.2,K,D*3F
$GPGGA,175842.000,3748.8009,N,12217.8616,W,2,07,1.2,-0.7,M,-25.1,M,6.8,0000*62
$GPGSA,A,3,07,10,19,03,23,28,13,,,,,,2.5,1.2,2.2*32
$GPRMC,175842.000,A,3748.8009,N,12217.8616,W,0.22,72.65,020811,,,D*4F
$GPVTG,72.65,T,,M,0.22,N,0.4,K,D*3A
$GPGGA,175843.000,3748.8008,N,12217.8618,W,2,07,1.2,-0.1,M,-25.1,M,7.8,0000*6B
$GPGSA,A,3,07,10,19,03,23,28,13,,,,,,2.5,1.2,2.2*32
$GPRMC,175843.000,A,3748.8008,N,12217.8618,W,0.44,2.70,020811,,,D*72
$GPVTG,2.70,T,,M,0.44,N,0.8,K,D*05
$GPGGA,175844.000,3748.8008,N,12217.8617,W,2,07,1.2,0.4,M,-25.1,M,8.8,0000*44
$GPGSA,A,3,07,10,19,03,23,28,13,,,,,,2.5,1.2,2.2*32
$GPGSV,3,1,12,07,66,002,32,08,52,306,29,13,52,132,27,10,35,242,23*7F
$GPGSV,3,2,12,28,34,222,25,19,31,084,33,23,23,137,30,05,22,301,32*75
$GPGSV,3,3,12,03,21,051,34,06,11,041,21,16,03,044,28,26,00,314,*75
$GPRMC,175844.000,A,3748.8008,N,12217.8617,W,0.58,107.62,020811,,,D*70
$GPVTG,107.62,T,,M,0.58,N,1.1,K,D*07
$GPGGA,175845.000,3748.8009,N,12217.8617,W,2,07,1.2,-0.1,M,-25.1,M,9.8,0000*6D
$GPGSA,A,3,07,10,19,03,23,28,13,,,,,,2.5,1.2,2.2*32
$GPRMC,175845.000,A,3748.8009,N,12217.8617,W,0.24,90.29,020811,,,D*4B
$GPVTG,90.29,T,,M,0.24,N,0.4,K,D*38
$GPGGA,175846.000,3748.8011,N,12217.8620,W,2,07,1.2,-0.4,M,-25.1,M,10.8,0000*5E
$GPGSA,A,3,07,10,19,03,23,28,13,,,,,,2.5,1.2,2.2*32
$GPRMC,175846.000,A,3748.8011,N,12217.8620,W,0.18,66.66,020811,,,D*48
$GPVTG,66.66,T,,M,0.18,N,0.3,K,D*32
$GPGGA,175847.000,3748.8015,N,12217.8622,W,2,07,1.2,-0.7,M,-25.1,M,,0000*4D
$GPGSA,A,3,07,10,19,03,23,28,13,,,,,,2.5,1.2,2.2*32
$GPRMC,175847.000,A,3748.8015,N,12217.8622,W,0.22,341.86,020811,,,D*7E
$GPVTG,341.86,T,,M,0.22,N,0.4,K,D*04
$GPGGA,175848.000,3748.8019,N,12217.8627,W,2,07,1.2,-0.7,M,-25.1,M,,0000*4B
$GPGSA,A,3,07,10,19,03,23,28,13,,,,,,2.5,1.2,2.2*32
$GPRMC,175848.000,A,3748.8019,N,12217.8627,W,0.25,314.80,020811,,,D*79
$GPVTG,314.80,T,,M,0.25,N,0.5,K,D*04
$GPGGA,175849.000,3748.8021,N,12217.8627,W,2,07,1.2,0.3,M,-25.1,M,,0000*68
$GPGSA,A,3,07,10,19,03,23,28,13,,,,,,2.5,1.2,2.2*32
$GPGSV,3,1,12,07,66,002,26,08,52,306,36,13,52,132,22,10,35,242,23*71
$GPGSV,3,2,12,28,34,222,25,19,31,084,36,23,23,137,27,05,22,301,39*7D
$GPGSV,3,3,12,03,21,051,24,06,11,041,22,16,03,044,24,26,00,314,*7B
$GPRMC,175849.000,A,3748.8021,N,12217.8627,W,0.20,101.40,020811,,,D*7C
$GPVTG,101.40,T,,M,0.20,N,0.4,K,D*0A
$GPGGA,175850.000,3748.8021,N,12217.8625,W,2,07,1.2,1.4,M,-25.1,M,2.8,0000*40
$GPGSA,A,3,07,10,19,03,23,28,13,,,,,,2.5,1.2,2.2*32
$GPRMC,175850.000,A,3748.8021,N,12217.8625,W,0.26,166.45,020811,,,D*74
$GPVTG,166.45,T,,M,0.26,N,0.5,K,D*09
$GPGGA,175851.000,3748.8019,N,12217.8620,W,2,07,1.2,2.3,M,-25.1,M,3.8,0000*4A
$GPGSA,A,3,07,10,19,03,23,28,13,,,,,,2.5,1.2,2.2*32
$GPRMC,175851.000,A,3748.8019,N,12217.8620,W,0.45,123.79,020811,,,D*70
$GPVTG,123.79,T,,M,0.45,N,0.8,K,D*0F
$GPGGA,175852.000,3748.8019,N,12217.8613,W,2,07,1.2,2.3,M,-25.1,M,4.8,0000*4E
$GPGSA,A,3,07,10,19,03,23,28,13,,,,,,2.5,1.2,2.2*32
$GPRMC,175852.000,A,3748.8019,N,12217.8613,W,0.36,106.76,020811,,,D*7F
$GPVTG,106.76,T,,M,0.36,N,0.7,K,D*0C
$GPGGA,175853.000,3748.8016,N,12217.8606,W,2,07,1.2,2.6,M,-25.1,M,5.8,0000*40
$GPGSA,A,3,07,10,19,03,23,28,13,,,,,,2.5,1.2,2.2*32
$GPRMC,175853.000,A,3748.8016,N,12217.8606,W,0.69,86.37,020811,,,D*43
$GPVTG,86.37,T,,M,0.69,N,1.3,K,D*3F
$GPGGA,175854.000,3748.8018,N,12217.8602,W,2,07,1.2,1.8,M,-25.1,M,6.8,0000*43
$GPGSA,A,3,07,10,19,03,23,28,13,,,,,,2.5,1.2,2.2*32
$GPGSV,3,1,12,07,66,002,31,08,52,306,35,13,52,132,24,10,35,242,18*7A
$GPGSV,3,2,12,28,34,222,20,19,31,084,36,23,23,137,27,05,22,301,36*77
$GPRMC,175854.000,A,3748.8018,N,12217.8602,W,0.73,85.47,020811,,,D*41
$GPVTG,85.47,T,,M,0.73,N,1.3,K,D*30
$GPGGA,175855.000,3748.8017,N,12217.8601,W,2,07,1.2,1.4,M,-25.1,M,7.8,0000*43
$GPGSA,A,3,07,10,19,03,23,28,13,,,,,,2.5,1.2,2.2*32
$GPRMC,175855.000,A,3748.8017,N,12217.8601,W,0.61,81.05,020811,,,D*4D
$GPVTG,81.05,T,,M,0.61,N,1.1,K,D*33
$GPGGA,175856.000,3748.8021,N,12217.8601,W,2,07,1.2,0.0,M,-25.1,M,8.8,0000*4F
$GPGSA,A,3,07,10,19,03,23,28,13,,,,,,2.5,1.2,2.2*32
$GPRMC,175856.000,A,3748.8021,N,12217.8601,W,0.22,110.10,020811,,,D*71
$GPVTG,110.10,T,,M,0.22,N,0.4,K,D*0D
$GPGGA,175857.000,3748.8026,N,12217.8606,W,2,07,1.2,-2.2,M,-25.1,M,9.8,0000*62
$GPGSA,A,3,07,10,19,03,23,28,13,,,,,,2.5,1.2,2.2*32
$GPRMC,175857.000,A,3748.8026,N,12217.8606,W,0.29,4.28,020811,,,D*74
$GPVTG,4.28,T,,M,0.29,N,0.5,K,D*08
$GPGGA,175858.000,3748.8027,N,12217.8608,W,2,07,1.2,-2.7,M,-25.1,M,10.8,0000*5F
$GPGSA,A,3,07,10,19,03,23,28,13,,,,,,2.5,1.2,2.2*32
$GPRMC,175858.000,A,3748.8027,N,12217.8608,W,0.22,309.75,020811,,,D*79
$GPVTG,309.75,T,,M,0.22,N,0.4,K,D*04
$GPGGA,175859.000,3748.8025,N,12217.8613,W,2,07,1.2,-3.1,M,-25.1,M,11.8,0000*50
$GPGSA,A,3,07,10,19,03,23,28,13,,,,,,2.5,1.2,2.2*32
$GPGSV,3,1,12,07,66,002,31,08,52,306,31,13,52,132,23,10,35,242,22*70
$GPGSV,3,2,12,28,34,222,23,19,31,084,33,23,23,137,27,05,22,301,36*71
$GPGSV,3,3,12,03,21,051,21,06,11,041,15,16,03,044,25,26,00,314,*7B
$GPRMC,175859.000,A,3748.8025,N,12217.8613,W,0.27,251.37,020811,,,D*7F
$GPVTG,251.37,T,,M,0.27,N,0.5,K,D*0A
$GPGGA,175900.000,3748.8020,N,12217.8607,W,2,07,1.2,-0.7,M,-25.1,M,12.8,0000*5B
$GPGSA,A,3,07,10,19,03,23,28,13,,,,,,2.5,1.2,2.2*32
$GPRMC,175900.000,A,3748.8020,N,12217.8607,W,0.17,181.12,020811,,,D*78
$GPVTG,181.12,T,,M,0.17,N,0.3,K,D*06
$GPGGA,175901.000,3748.8018,N,12217.8601,W,2,07,1.2,1.3,M,-25.1,M,13.8,0000*7E
$GPGSA,A,3,07,10,19,03,23,28,13,,,,,,2.5,1.2,2.2*32
$GPRMC,175901.000,A,3748.8018,N,12217.8601,W,0.10,142.01,020811,,,D*7E
$GPVTG,142.01,T,,M,0.10,N,0.2,K,D*0D
$GPGGA,175902.000,3748.8013,N,12217.8591,W,2,07,1.2,4.7,M,-25.1,M,14.8,0000*7A
$GPGSA,A,3,07,10,19,03,23,28,13,,,,,,2.5,1.2,2.2*32
$GPRMC,175902.000,A,3748.8013,N,12217.8591,W,0.32,109.45,020811,,,D*73
$GPVTG,109.45,T,,M,0.32,N,0.6,K,D*06
$GPGGA,175903.000,3748.8012,N,12217.8586,W,2,07,1.2,6.1,M,-25.1,M,15.8,0000*79
$GPGSA,A,3,07,10,19,03,23,28,13,,,,,,2.5,1.2,2.2*32
$GPRMC,175903.000,A,3748.8012,N,12217.8586,W,0.35,116.72,020811,,,D*78
$GPVTG,116.72,T,,M,0.35,N,0.7,K,D*0A
$GPGGA,175904.000,3748.8011,N,12217.8588,W,2,08,0.9,6.5,M,-25.1,M,16.8,0000*71
$GPGSA,A,3,07,10,19,03,23,28,13,05,,,,,2.1,0.9,1.9*31
$GPGSV,3,1,12,07,66,002,30,08,52,306,31,13,52,132,27,10,35,242,18*7C
$GPGSV,3,2,12,28,34,222,23,19,31,084,33,23,23,137,28,05,22,301,36*7E
$GPGSV,3,3,12,03,21,051,27,06,11,041,19,16,03,044,25,26,00,314,*71
$GPRMC,175904.000,A,3748.8011,N,12217.8588,W,0.15,13.33,020811,,,D*41
$GPVTG,13.33,T,,M,0.15,N,0.3,K,D*3D
$GPGGA,175905.000,3748.8013,N,12217.8590,W,2,08,0.9,5.4,M,-25.1,M,17.8,0000*78
$GPGSA,A,3,07,10,19,03,23,28,13,05,,,,,2.1,0.9,1.9*31
$GPRMC,175905.000,A,3748.8013,N,12217.8590,W,0.39,359.62,020811,,,D*7C
$GPVTG,359.62,T,,M,0.39,N,0.7,K,D*0E
$GPGGA,175906.000,3748.8013,N,12217.8592,W,1,08,0.9,5.9,M,-25.1,M,,0000*67
$GPGSA,A,3,07,10,19,03,23,28,13,05,,,,,2.1,0.9,1.9*31
$GPRMC,175906.000,A,3748.8013,N,12217.8592,W,0.24,358.14,020811,,,A*74
$GPVTG,358.14,T,,M,0.24,N,0.4,K,A*04
$GPGGA,175907.000,3748.8015,N,12217.8594,W,1,08,0.9,6.7,M,-25.1,M,,0000*6B
$GPGSA,A,3,07,10,19,03,23,28,13,05,,,,,2.1,0.9,1.9*31
$GPRMC,175907.000,A,3748.8015,N,12217.8594,W,0.11,151.87,020811,,,A*72
$GPVTG,151.87,T,,M,0.11,N,0.2,K,A*05
$GPGGA,175908.000,3748.8014,N,12217.8596,W,1,08,0.9,7.0,M,-25.1,M,,0000*61
$GPGSA,A,3,07,10,19,03,23,28,13,05,,,,,2.1,0.9,1.9*31
$GPRMC,175908.000,A,3748.8014,N,12217.8596,W,0.23,159.34,020811,,,A*7F
$GPVTG,159.34,T,,M,0.23,N,0.4,K,A*02
$GPGGA,175909.000,3748.8015,N,12217.8595,W,1,08,0.9,7.4,M,-25.1,M,,0000*66
$GPGSA,A,3,07,10,19,03,23,28,13,05,,,,,2.1,0.9,1.9*31
$GPGSV,3,1,12,07,66,003,31,08,53,307,25,13,51,132,28,28,35,222,30*72
$GPGSV,3,2,12,10,34,242,27,19,31,084,40,23,22,137,28,05,22,301,39*7D
$GPGSV,3,3,12,03,21,051,32,06,11,041,24,16,02,044,23,26,00,315,*7D
$GPRMC,175909.000,A,3748.8015,N,12217.8595,W,0.18,68.47,020811,,,A*43
$GPVTG,68.47,T,,M,0.18,N,0.3,K,A*3A
$GPGGA,175910.000,3748.8015,N,12217.8596,W,1,08,0.9,7.7,M,-25.1,M,,0000*6E
$GPGSA,A,3,07,10,19,03,23,28,13,05,,,,,2.1,0.9,1.9*31
$GPRMC,175910.000,A,3748.8015,N,12217.8596,W,0.13,185.14,020811,,,A*77
$GPVTG,185.14,T,,M,0.13,N,0.2,K,A*04
$GPGGA,175911.000,3748.8013,N,12217.8598,W,1,08,0.9,8.0,M,-25.1,M,,0000*6F
$GPGSA,A,3,07,10,19,03,23,28,13,05,,,,,2.1,0.9,1.9*31
$GPRMC,175911.000,A,3748.8013,N,12217.8598,W,0.21,7.07,020811,,,A*76
$GPVTG,7.07,T,,M,0.21,N,0.4,K,A*0A
$GPGGA,175912.000,3748.8012,N,12217.8599,W,1,08,0.9,8.0,M,-25.1,M,,0000*6C
$GPGSA,A,3,07,10,19,03,23,28,13,05,,,,,2.1,0.9,1.9*31
$GPRMC,175912.000,A,3748.8012,N,12217.8599,W,0.21,266.91,020811,,,A*7F
$GPVTG,266.91,T,,M,0.21,N,0.4,K,A*00
$GPGGA,175913.000,3748.8013,N,12217.8600,W,1,08,0.9,8.2,M,-25.1,M,,0000*6D
$GPGSA,A,3,07,10,19,03,23,28,13,05,,,,,2.1,0.9,1.9*31
$GPRMC,175913.000,A,3748.8013,N,12217.8600,W,0.10,294.53,020811,,,A*7D
$GPVTG,294.53,T,,M,0.10,N,0.2,K,A*07
$GPGGA,175914.000,3748.8014,N,12217.8601,W,1,08,0.9,8.2,M,-25.1,M,,0000*6C
$GPGSA,A,3,07,10,19,03,23,28,13,05,,,,,2.1,0.9,1.9*31
$GPGSV,3,1,12,07,66,003,32,08,53,307,34,13,51,132,25,28,35,222,29*74
$GPGSV,3,2,12,10,34,242,27,19,31,084,36,23,22,137,28,05,22,301,39*7C
$GPGSV,3,3,12,03,21,051,33,06,11,041,30,16,02,044,28,26,00,315,*72
$GPVTG,93.03,T,,M,0.19,N,0.4,K,A*38
$GPGGA,175915.000,3748.8015,N,12217.8601,W,1,08,0.9,8.2,M,-25.1,M,,0000*6C
$GPGSA,A,3,07,10,19,03,23,28,13,05,,,,,2.1,0.9,1.9*31
$GPRMC,175915.000,A,3748.8015,N,12217.8601,W,0.28,195.01,020811,,,A*72
$GPVTG,195.01,T,,M,0.28,N,0.5,K,A*0E
$GPGGA,175916.000,3748.8013,N,12217.8604,W,1,07,1.0,8.1,M,-25.1,M,,0000*68
$GPGSA,A,3,07,10,19,03,23,13,05,,,,,,2.2,1.0,1.9*30
$GPRMC,175916.000,A,3748.8013,N,12217.8604,W,0.44,191.34,020811,,,A*7A
$GPVTG,191.34,T,,M,0.44,N,0.8,K,A*0B
$GPGGA,175917.000,3748.8014,N,12217.8605,W,1,08,0.9,8.3,M,-25.1,M,,0000*6A
$GPGSA,A,3,07,10,19,03,23,28,13,05,,,,,2.1,0.9,1.9*31
$GPRMC,175917.000,A,3748.8014,N,12217.8605,W,0.19,2.73,020811,,,A*7D
$GPVTG,2.73,T,,M,0.19,N,0.4,K,A*07
$GPGGA,175918.000,3748.8013,N,12217.8607,W,1,08,0.9,8.3,M,-25.1,M,,0000*60
$GPGSA,A,3,07,10,19,03,23,28,13,05,,,,,2.1,0.9,1.9*31
$GPRMC,175918.000,A,3748.8013,N,12217.8607,W,0.51,210.52,020811,,,A*79
$GPVTG,210.52,T,,M,0.51,N,1.0,K,A*0C
$GPGGA,175919.000,3748.8011,N,12217.8610,W,1,08,0.9,8.2,M,-25.1,M,,0000*64
$GPGSA,A,3,07,10,19,03,23,28,13,05,,,,,2.1,0.9,1.9*31
$GPGSV,3,1,12,07,66,003,32,08,53,307,36,13,51,132,25,28,35,222,27*78
$GPGSV,3,2,12,10,34,242,31,19,31,083,37,23,22,137,23,05,22,301,41*79
$GPGSV,3,3,12,03,21,051,34,06,11,041,29,16,02,044,28,26,00,315,*7D
$GPRMC,175919.000,A,3748.8011,N,12217.8610,W,0.33,213.21,020811,,,A*7F
$GPVTG,213.21,T,,M,0.33,N,0.6,K,A*08
$GPGGA,175920.000,3748.8011,N,12217.8611,W,1,08,0.9,8.6,M,-25.1,M,,0000*6B
$GPGSA,A,3,07,10,19,03,23,28,13,05,,,,,2.1,0.9,1.9*31
$GPRMC,175920.000,A,3748.8011,N,12217.8611,W,0.20,181.86,020811,,,A*73
$GPVTG,181.86,T,,M,0.20,N,0.4,K,A*0D
$GPGGA,175921.000,3748.8011,N,12217.8611,W,1,08,0.9,9.2,M,-25.1,M,,0000*6F
$GPGSA,A,3,07,10,19,03,23,28,13,05,,,,,2.1,0.9,1.9*31
$GPRMC,175921.000,A,3748.8011,N,12217.8611,W,0.07,100.27,020811,,,A*75
$GPVTG,100.27,T,,M,0.07,N,0.1,K,A*0F
$GPGGA,175922.000,3748.8013,N,12217.8611,W,1,08,0.9,9.7,M,-25.1,M,,0000*6B
$GPGSA,A,3,07,10,19,03,23,28,13,05,,,,,2.1,0.9,1.9*31
$GPRMC,175922.000,A,3748.8013,N,12217.8611,W,0.07,22.94,020811,,,A*4D
$GPVTG,22.94,T,,M,0.07,N,0.1,K,A*36
$GPGGA,175923.000,3748.8014,N,12217.8611,W,1,08,0.9,10.3,M,-25.1,M,,0000*51
$GPGSA,A,3,07,10,19,03,23,28,13,05,,,,,2.1,0.9,1.9*31
$GPRMC,175923.000,A,3748.8014,N,12217.8611,W,0.38,1.74,020811,,,A*78
$GPVTG,1.74,T,,M,0.38,N,0.7,K,A*03
$GPGGA,175924.000,3748.8016,N,12217.8612,W,1,08,0.9,10.8,M,-25.1,M,,0000*5C
$GPGSA,A,3,07,10,19,03,23,28,13,05,,,,,2.1,0.9,1.9*31
$GPGSV,3,1,12,07,66,003,26,08,53,307,36,13,51,132,18,28,35,222,17*70
$GPGSV,3,2,12,10,34,242,32,19,31,083,36,23,22,137,22,05,22,301,42*79
$GPGSV,3,3,12,03,21,051,33,06,11,041,27,16,02,044,28,26,00,315,*74
$GPRMC,175924.000,A,3748.8016,N,12217.8612,W,0.53,0.85,020811,,,A*7C
$GPVTG,0.85,T,,M,0.53,N,1.0,K,A*07
$GPGGA,175925.000,3748.8018,N,12217.8612,W,1,08,0.9,11.4,M,-25.1,M,,0000*5E
$GPGSA,A,3,07,10,19,03,23,28,13,05,,,,,2.1,0.9,1.9*31
$GPRMC,175925.000,A,3748.8018,N,12217.8612,W,0.58,0.74,020811,,,A*76
$GPVTG,0.74,T,,M,0.58,N,1.1,K,A*03
$GPGGA,175926.000,3748.8018,N,12217.8612,W,1,08,0.9,10.5,M,-25.1,M,,0000*5D
$GPGSA,A,3,07,10,19,03,23,28,13,05,,,,,2.1,0.9,1.9*31
$GPRMC,175926.000,A,3748.8018,N,12217.8612,W,0.15,32.06,020811,,,A*48
$GPVTG,32.06,T,,M,0.15,N,0.3,K,A*3D
$GPGGA,175927.000,3748.8017,N,12217.8611,W,1,08,0.9,9.0,M,-25.1,M,,0000*6D
$GPGSA,A,3,07,10,19,03,23,28,13,05,,,,,2.1,0.9,1.9*31
$GPRMC,175927.000,A,3748.8017,N,12217.8611,W,0.03,160.75,020811,,,A*70
$GPVTG,160.75,T,,M,0.03,N,0.1,K,A*0A
$GPGGA,175928.000,3748.8017,N,12217.8611,W,1,08,0.9,8.6,M,-25.1,M,,0000*65
$GPGSA,A,3,07,10,19,03,23,28,08,05,,,,,2.2,0.9,2.0*32
$GPRMC,175928.000,A,3748.8017,N,12217.8611,W,0.07,341.26,020811,,,A*7C
$GPVTG,341.26,T,,M,0.07,N,0.1,K,A*09
$GPGGA,175929.000,3748.8016,N,12217.8611,W,1,08,0.9,8.3,M,-25.1,M,,0000*60
$GPGSA,A,3,07,10,19,03,23,28,08,05,,,,,2.2,0.9,2.0*32
$GPGSV,3,1,12,07,66,003,26,08,53,307,37,13,51,132,,28,35,222,28*74
$GPGSV,3,2,12,10,34,242,32,19,31,083,35,23,22,137,22,05,22,301,42*7A
$GPGSV,3,3,12,03,21,051,32,06,11,041,24,16,02,044,24,26,00,315,*7A
$GPRMC,175929.000,A,3748.8016,N,12217.8611,W,0.15,349.76,020811,,,A*72
$GPVTG,349.76,T,,M,0.15,N,0.3,K,A*05
$GPGGA,175930.000,3748.8016,N,12217.8611,W,1,08,0.9,7.9,M,-25.1,M,,0000*6D
$GPGSA,A,3,07,10,19,03,23,28,08,05,,,,,2.2,0.9,2.0*32
$GPRMC,175930.000,A,3748.8016,N,12217.8611,W,0.15,349.09,020811,,,A*72
$GPVTG,349.09,T,,M,0.15,N,0.3,K,A*0D
$GPGGA,175931.000,3748.8018,N,12217.8610,W,1,08,0.9,7.6,M,-25.1,M,,0000*6C
$GPGSA,A,3,07,10,19,03,23,28,08,05,,,,,2.2,0.9,2.0*32
$GPRMC,175931.000,A,3748.8018,N,12217.8610,W,0.13,357.18,020811,,,A*75
$GPVTG,357.18,T,,M,0.13,N,0.2,K,A*05
$GPGGA,175932.000,3748.8015,N,12217.8611,W,1,08,0.9,5.7,M,-25.1,M,,0000*60
$GPGSA,A,3,07,10,19,03,23,28,08,05,,,,,2.2,0.9,2.0*32
$GPRMC,175932.000,A,3748.8015,N,12217.8611,W,0.16,315.65,020811,,,A*73
$GPVTG,315.65,T,,M,0.16,N,0.3,K,A*0D
$GPGGA,175933.000,3748.8012,N,12217.8612,W,1,09,0.9,3.9,M,-25.1,M,,0000*6C
$GPGSA,A,3,07,10,19,03,23,28,13,08,05,,,,2.0,0.9,1.8*39
$GPRMC,175933.000,A,3748.8012,N,12217.8612,W,0.60,193.43,020811,,,A*7F
$GPVTG,193.43,T,,M,0.60,N,1.1,K,A*07
$GPGGA,175934.000,3748.8011,N,12217.8612,W,1,09,0.9,3.2,M,-25.1,M,,0000*63
$GPGSA,A,3,07,10,19,03,23,28,13,08,05,,,,2.0,0.9,1.8*39
$GPGSV,3,1,12,07,66,003,32,08,53,307,21,13,51,132,25,28,35,222,28*71
$GPGSV,3,2,12,10,34,242,25,19,31,083,25,23,22,137,27,05,22,301,29*75
$GPGSV,3,3,12,03,21,051,32,06,11,041,21,16,02,044,26,26,00,315,*7D
$GPRMC,175934.000,A,3748.8011,N,12217.8612,W,0.26,75.56,020811,,,A*44
$GPGGA,175935.000,3748.8010,N,12217.8612,W,1,09,0.9,2.1,M,-25.1,M,,0000*61
$GPGSA,A,3,07,10,19,03,23,28,13,08,05,,,,2.0,0.9,1.8*39
$GPRMC,175935.000,A,3748.8010,N,12217.8612,W,0.20,241.40,020811,,,A*70
$GPVTG,241.40,T,,M,0.20,N,0.4,K,A*08
$GPGGA,175936.000,3748.8009,N,12217.8612,W,1,09,0.9,1.1,M,-25.1,M,,0000*69
$GPGSA,A,3,07,10,19,03,23,28,13,08,05,,,,2.0,0.9,1.8*39
$GPRMC,175936.000,A,3748.8009,N,12217.8612,W,0.45,327.51,020811,,,A*79
$GPVTG,327.51,T,,M,0.45,N,0.8,K,A*06
$GPGGA,175937.000,3748.8011,N,12217.8613,W,1,09,0.9,0.8,M,-25.1,M,,0000*68
$GPGSA,A,3,07,10,19,03,23,28,13,08,05,,,,2.0,0.9,1.8*39
$GPRMC,175937.000,A,3748.8011,N,12217.8613,W,0.25,261.80,020811,,,A*79
$GPVTG,261.80,T,,M,0.25,N,0.5,K,A*02
$GPGGA,175938.000,3748.8012,N,12217.8613,W,1,08,1.0,0.8,M,-25.1,M,,0000*6D
$GPGSA,A,3,07,10,19,03,23,13,08,05,,,,,2.0,1.0,1.8*3B
$GPRMC,175938.000,A,3748.8012,N,12217.8613,W,0.08,78.14,020811,,,A*4D
$GPVTG,78.14,T,,M,0.08,N,0.1,K,A*3E
$GPGGA,175939.000,3748.8013,N,12217.8614,W,1,09,0.9,0.9,M,-25.1,M,,0000*62
$GPGSA,A,3,07,10,19,03,23,28,13,08,05,,,,2.0,0.9,1.8*39
$GPGSV,3,1,12,07,66,003,29,08,53,307,28,13,51,132,22,28,35,222,15*7B
$GPGSV,3,2,12,10,34,242,28,19,31,083,17,23,22,137,26,05,22,301,37*77
$GPGSV,3,3,12,03,21,051,29,06,11,041,21,16,02,044,27,26,00,315,*76
$GPRMC,175939.000,A,3748.8013,N,12217.8614,W,0.20,63.09,020811,,,A*46
$GPVTG,63.09,T,,M,0.20,N,0.4,K,A*37
$GPGGA,175940.000,3748.8011,N,12217.8615,W,1,09,0.9,1.1,M,-25.1,M,,0000*66
$GPGSA,A,3,07,10,19,03,23,28,13,08,05,,,,2.0,0.9,1.8*39
$GPRMC,175940.000,A,3748.8011,N,12217.8615,W,0.14,93.50,020811,,,A*4F
$GPVTG,93.50,T,,M,0.14,N,0.3,K,A*34
$GPGGA,175941.000,3748.8010,N,12217.8617,W,1,09,0.9,1.3,M,-25.1,M,,0000*66
$GPGSA,A,3,07,10,19,03,23,28,13,08,05,,,,2.0,0.9,1.8*39
$GPRMC,175941.000,A,3748.8010,N,12217.8617,W,0.09,98.64,020811,,,A*4D
$GPVTG,98.64,T,,M,0.09,N,0.2,K,A*35
$GPGGA,175942.000,3748.8011,N,12217.8617,W,1,09,0.9,1.6,M,-25.1,M,,0000*61
$GPGSA,A,3,07,10,19,03,23,28,13,08,05,,,,2.0,0.9,1.8*39
$GPRMC,175942.000,A,3748.8011,N,12217.8617,W,0.07,349.31,020811,,,A*7E
$GPVTG,349.31,T,,M,0.07,N,0.1,K,A*07
$GPGGA,175943.000,3748.8011,N,12217.8616,W,1,09,0.9,2.2,M,-25.1,M,,0000*66
$GPGSA,A,3,07,10,19,03,23,28,13,08,05,,,,2.0,0.9,1.8*39
$GPRMC,175943.000,A,3748.8011,N,12217.8616,W,0.30,153.63,020811,,,A*74
$GPVTG,153.63,T,,M,0.30,N,0.6,K,A*0A
$GPGGA,175944.000,3748.8011,N,12217.8615,W,1,09,0.9,2.4,M,-25.1,M,,0000*64
$GPGSA,A,3,07,10,19,03,23,28,13,08,05,,,,2.0,0.9,1.8*39
$GPGSV,3,1,12,07,66,003,30,08,53,307,34,13,51,132,33,28,35,222,35*7C
$GPGSV,3,2,12,10,34,242,34,19,31,083,30,23,22,137,32,05,22,301,32*7F
$GPGSV,3,3,12,03,21,051,31,06,11,041,29,16,02,044,27,26,00,315,*77
$GPRMC,175944.000,A,3748.8011,N,12217.8615,W,0.21,295.20,020811,,,A*7E
$GPVTG,295.20,T,,M,0.21,N,0.4,K,A*06
$GPGGA,175945.000,3748.8011,N,12217.8616,W,1,09,0.9,2.4,M,-25.1,M,,0000*66
$GPGSA,A,3,07,10,19,03,23,28,13,08,05,,,,2.0,0.9,1.8*39
$GPRMC,175945.000,A,3748.8011,N,12217.8616,W,0.24,37.69,020811,,,A*4E
$GPVTG,37.69,T,,M,0.24,N,0.4,K,A*34
$GPGGA,175946.000,3748.8009,N,12217.8616,W,1,09,0.9,2.5,M,-25.1,M,,0000*6D
$GPGSA,A,3,07,10,19,03,23,28,13,08,05,,,,2.0,0.9,1.8*39
$GPRMC,175946.000,A,3748.8009,N,12217.8616,W,0.24,77.54,020811,,,A*4E
$GPVTG,77.54,T,,M,0.24,N,0.4,K,A*3E
$GPGGA,175947.000,3748.8008,N,12217.8616,W,1,09,0.9,2.6,M,-25.1,M,,0000*6E
$GPGSA,A,3,07,10,19,03,23,28,13,08,05,,,,2.0,0.9,1.8*39
$GPRMC,175947.000,A,3748.8008,N,12217.8616,W,0.21,94.97,020811,,,A*49
$GPVTG,94.97,T,,M,0.21,N,0.4,K,A*39
$GPGGA,175948.000,3748.8007,N,12217.8616,W,1,09,0.9,2.6,M,-25.1,M,,0000*6E
$GPGSA,A,3,07,10,19,03,23,28,13,08,05,,,,2.0,0.9,1.8*39
$GPRMC,175948.000,A,3748.8007,N,12217.8616,W,0.33,326.78,020811,,,A*71
$GPVTG,326.78,T,,M,0.33,N,0.6,K,A*03
$GPGGA,175949.000,3748.8007,N,12217.8617,W,1,09,0.9,2.7,M,-25.1,M,,0000*6F
$GPGSA,A,3,07,10,19,03,23,28,13,08,05,,,,2.0,0.9,1.8*39
$GPGSV,3,1,12,07,66,003,32,08,53,307,34,13,51,132,28,28,35,222,24*74
$GPGSV,3,2,12,10,34,242,23,19,31,083,37,23,22,137,26,05,22,301,32*7B
$GPGSV,3,3,12,03,21,051,36,06,11,041,28,16,02,044,29,26,00,315,*7F
$GPRMC,175949.000,A,3748.8007,N,12217.8617,W,0.23,268.15,020811,,,A*70
$GPVTG,268.15,T,,M,0.23,N,0.4,K,A*00
$GPGGA,175950.000,3748.8007,N,12217.8616,W,1,09,0.9,2.4,M,-25.1,M,,0000*65
$GPGSA,A,3,07,10,19,03,23,28,13,08,05,,,,2.0,0.9,1.8*39
$GPRMC,175950.000,A,3748.8007,N,12217.8616,W,0.50,173.14,020811,,,A*75
$GPVTG,173.14,T,,M,0.50,N,0.9,K,A*01
$GPGGA,175951.000,3748.8006,N,12217.8616,W,1,09,0.9,2.0,M,-25.1,M,,0000*61
$GPGSA,A,3,07,10,19,03,23,28,13,08,05,,,,2.0,0.9,1.8*39
$GPRMC,175951.000,A,3748.8006,N,12217.8616,W,0.40,316.44,020811,,,A*70
$GPVTG,316.44,T,,M,0.40,N,0.7,K,A*0A
$GPGGA,175952.000,3748.8005,N,12217.8616,W,1,09,0.9,1.5,M,-25.1,M,,0000*67
$GPGSA,A,3,07,10,19,03,23,28,13,08,05,,,,2.0,0.9,1.8*39
$GPRMC,175952.000,A,3748.8005,N,12217.8616,W,0.10,101.68,020811,,,A*7F
$GPVTG,101.68,T,,M,0.10,N,0.2,K,A*00
$GPGGA,175953.000,3748.8006,N,12217.8615,W,1,09,0.9,1.4,M,-25.1,M,,0000*67
$GPGSA,A,3,07,10,19,03,23,28,13,08,05,,,,2.0,0.9,1.8*39
$GPRMC,175953.000,A,3748.8006,N,12217.8615,W,0.40,134.01,020811,,,A*72
$GPVTG,134.01,T,,M,0.40,N,0.7,K,A*09
$GPGGA,175954.000,3748.8004,N,12217.8613,W,1,09,0.9,1.3,M,-25.1,M,,0000*63
$GPGSA,A,3,07,10,19,03,23,28,13,08,05,,,,2.0,0.9,1.8*39
$GPGSV,3,1,12,07,66,003,30,08,53,307,28,13,51,132,32,28,35,222,27*73
$GPGSV,3,2,12,10,34,242,31,19,31,083,33,23,22,137,30,05,22,301,26*7E
$GPGSV,3,3,12,03,21,051,31,06,11,041,25,16,02,044,19,26,00,315,*76
$GPRMC,175954.000,A,3748.8004,N,12217.8613,W,0.49,85.79,020811,,,A*4C
$GPGGA,175955.000,3748.8004,N,12217.8612,W,1,09,0.9,1.2,M,-25.1,M,,0000*62
$GPGSA,A,3,07,10,19,03,23,28,13,08,05,,,,2.0,0.9,1.8*39
$GPRMC,175955.000,A,3748.8004,N,12217.8612,W,0.04,321.64,020811,,,A*74
$GPVTG,321.64,T,,M,0.04,N,0.1,K,A*0A
$GPGGA,175956.000,3748.8004,N,12217.8612,W,1,09,0.9,1.1,M,-25.1,M,,0000*62
$GPGSA,A,3,07,10,19,03,23,28,13,08,05,,,,2.0,0.9,1.8*39
$GPRMC,175956.000,A,3748.8004,N,12217.8612,W,0.26,174.21,020811,,,A*74
$GPVTG,174.21,T,,M,0.26,N,0.5,K,A*0D
$GPGGA,175957.000,3748.8003,N,12217.8612,W,1,09,0.9,1.4,M,-25.1,M,,0000*61
$GPGSA,A,3,07,10,19,03,23,28,13,08,05,,,,2.0,0.9,1.8*39
$GPRMC,175957.000,A,3748.8003,N,12217.8612,W,0.26,188.89,020811,,,A*73
$GPVTG,188.89,T,,M,0.26,N,0.5,K,A*0C
$GPGGA,175958.000,3748.8003,N,12217.8611,W,1,09,0.9,1.5,M,-25.1,M,,0000*6C
$GPGSA,A,3,07,10,19,03,23,28,13,08,05,,,,2.0,0.9,1.8*39
$GPRMC,175958.000,A,3748.8003,N,12217.8611,W,0.28,128.67,020811,,,A*7B
$GPVTG,128.67,T,,M,0.28,N,0.5,K,A*08
$GPGGA,175959.000,3748.8003,N,12217.8611,W,1,09,0.9,1.7,M,-25.1,M,,0000*6F
$GPGSA,A,3,07,10,19,03,23,28,13,08,05,,,,2.0,0.9,1.8*39
$GPGSV,3,1,12,07,66,003,29,08,53,307,28,13,51,132,30,28,35,222,27*79
$GPGSV,3,2,12,10,34,242,29,19,31,083,32,23,22,137,29,05,22,301,27*7F
$GPGSV,3,3,12,03,21,051,37,06,11,041,27,16,02,044,17,26,00,315,*7C
$GPRMC,175959.000,A,3748.8003,N,12217.8611,W,0.22,10.52,020811,,,A*4C
$GPVTG,10.52,T,,M,0.22,N,0.4,K,A*3F
$GPGGA,180000.000,3748.8004,N,12217.8610,W,1,09,0.9,2.0,M,-25.1,M,,0000*62
$GPGSA,A,3,07,10,19,03,23,28,13,08,05,,,,2.0,0.9,1.8*39
$GPRMC,180000.000,A,3748.8004,N,12217.8610,W,0.27,60.48,020811,,,A*4C
$GPVTG,60.48,T,,M,0.27,N,0.5,K,A*37
$GPGGA,180001.000,3748.8004,N,12217.8610,W,1,09,0.9,2.2,M,-25.1,M,,0000*61
$GPGSA,A,3,07,10,19,03,23,28,13,08,05,,,,2.0,0.9,1.8*39
$GPRMC,180001.000,A,3748.8004,N,12217.8610,W,0.17,145.81,020811,,,A*7D
$GPVTG,145.81,T,,M,0.17,N,0.3,K,A*01
$GPGGA,180002.000,3748.8004,N,12217.8609,W,1,09,0.9,2.4,M,-25.1,M,,0000*6C
$GPGSA,A,3,07,10,19,03,23,28,13,08,05,,,,2.0,0.9,1.8*39
$GPRMC,180002.000,A,3748.8004,N,12217.8609,W,0.24,135.14,020811,,,A*7D
$GPVTG,135.14,T,,M,0.24,N,0.4,K,A*0D
$GPGGA,180003.000,3748.8003,N,12217.8608,W,1,09,0.9,2.1,M,-25.1,M,,0000*6E
$GPGSA,A,3,07,10,19,03,23,28,13,08,05,,,,2.0,0.9,1.8*39
$GPRMC,180003.000,A,3748.8003,N,12217.8608,W,0.18,46.16,020811,,,A*42
$GPVTG,46.16,T,,M,0.18,N,0.3,K,A*32
$GPGGA,180004.000,3748.8003,N,12217.8607,W,1,09,0.9,1.8,M,-25.1,M,,0000*6C
$GPGSA,A,3,07,10,19,03,23,28,13,08,05,,,,2.0,0.9,1.8*39
$GPGSV,3,1,12,07,66,003,25,08,53,307,34,13,51,132,34,28,35,222,29*72
$GPGSV,3,2,12,10,34,242,31,19,31,083,24,23,22,137,34,05,22,301,34*7F
$GPGSV,3,3,12,03,21,051,24,06,11,041,20,16,02,044,17,26,00,315,*79
$GPRMC,180004.000,A,3748.8003,N,12217.8607,W,0.49,49.93,020811,,,A*4C
$GPVTG,49.93,T,,M,0.49,N,0.9,K,A*3E
$GPGGA,180005.000,3748.8004,N,12217.8606,W,1,09,0.9,1.6,M,-25.1,M,,0000*65
$GPGSA,A,3,07,10,19,03,23,28,13,08,05,,,,2.0,0.9,1.8*39
$GPRMC,180005.000,A,3748.8004,N,12217.8606,W,0.18,89.31,020811,,,A*4B
$GPVTG,89.31,T,,M,0.18,N,0.3,K,A*34
$GPGGA,180006.000,3748.8005,N,12217.8605,W,1,09,0.9,1.5,M,-25.1,M,,0000*67
$GPGSA,A,3,07,10,19,03,23,28,13,08,05,,,,2.0,0.9,1.8*39
$GPRMC,180006.000,A,3748.8005,N,12217.8605,W,0.33,46.77,020811,,,A*42
$GPVTG,46.77,T,,M,0.33,N,0.6,K,A*39
$GPGGA,180007.000,3748.8005,N,12217.8605,W,1,09,0.9,1.2,M,-25.1,M,,0000*61
$GPGSA,A,3,07,10,19,03,23,28,13,08,05,,,,2.0,0.9,1.8*39
$GPRMC,180007.000,A,3748.8005,N,12217.8605,W,0.23,129.38,020811,,,A*71
$GPVTG,129.38,T,,M,0.23,N,0.4,K,A*09
$GPGGA,180008.000,3748.8005,N,12217.8605,W,1,09,0.9,1.0,M,-25.1,M,,0000*6C
$GPGSA,A,3,07,10,19,03,23,28,13,08,05,,,,2.0,0.9,1.8*39
$GPRMC,180008.000,A,3748.8005,N,12217.8605,W,0.32,5.48,020811,,,A*76
$GPVTG,5.48,T,,M,0.32,N,0.6,K,A*03
$GPGGA,180009.000,3748.8006,N,12217.8605,W,1,09,0.9,0.9,M,-25.1,M,,0000*66
$GPGSA,A,3,07,10,19,03,23,28,13,08,05,,,,2.0,0.9,1.8*39
$GPGSV,3,1,12,07,66,003,34,08,53,307,35,13,51,132,25,28,35,222,28*72
$GPGSV,3,2,12,10,34,242,32,19,31,083,20,23,22,137,29,05,22,301,38*78
$GPGSV,3,3,12,03,21,051,24,06,11,041,19,16,02,044,17,26,00,315,*73
$GPRMC,180009.000,A,3748.8006,N,12217.8605,W,0.19,255.88,020811,,,A*76
$GPVTG,255.88,T,,M,0.19,N,0.3,K,A*04
$GPGGA,180010.000,3748.8006,N,12217.8605,W,1,09,0.9,0.4,M,-25.1,M,,0000*63
$GPGSA,A,3,07,10,19,03,23,28,13,08,05,,,,2.0,0.9,1.8*39
$GPRMC,180010.000,A,3748.8006,N,12217.8605,W,0.24,128.61,020811,,,A*7E
$GPVTG,128.61,T,,M,0.24,N,0.4,K,A*03
$GPGGA,180011.000,3748.8006,N,12217.8604,W,1,09,0.9,0.3,M,-25.1,M,,0000*64
$GPGSA,A,3,07,10,19,03,23,28,13,08,05,,,,2.0,0.9,1.8*39
$GPRMC,180011.000,A,3748.8006,N,12217.8604,W,0.37,121.37,020811,,,A*76
$GPVTG,121.37,T,,M,0.37,N,0.7,K,A*08
$GPGGA,180012.000,3748.8006,N,12217.8605,W,1,09,0.9,-0.3,M,-25.1,M,,0000*4B
$GPGSA,A,3,07,10,19,03,23,28,13,08,05,,,,2.0,0.9,1.8*39
$GPRMC,180012.000,A,3748.8006,N,12217.8605,W,0.22,105.76,020811,,,A*73
$GPVTG,105.76,T,,M,0.22,N,0.4,K,A*0C
$GPGGA,180013.000,3748.8007,N,12217.8606,W,1,09,0.9,-0.8,M,-25.1,M,,0000*43
$GPGSA,A,3,07,10,19,03,23,28,13,08,05,,,,2.0,0.9,1.8*39
$GPRMC,180013.000,A,3748.8007,N,12217.8606,W,0.41,316.76,020811,,,A*75
$GPVTG,316.76,T,,M,0.41,N,0.8,K,A*05
$GPGGA,180014.000,3748.8008,N,12217.8609,W,1,09,0.9,-1.0,M,-25.1,M,,0000*4D
$GPGSA,A,3,07,10,19,03,23,28,13,08,05,,,,2.0,0.9,1.8*39
$GPGSV,3,1,12,07,66,003,26,08,53,307,34,13,51,132,34,28,35,222,40*7E
$GPGSV,3,2,12,10,34,242,37,19,31,083,24,23,22,137,35,05,22,301,37*7B
$GPGSV,3,3,12,03,21,051,23,06,11,041,25,16,02,044,18,26,00,315,*74
$GPRMC,180014.000,A,3748.8008,N,12217.8609,W,1.10,270.89,020811,,,A*76
$GPGGA,180015.000,3748.8006,N,12217.8614,W,1,09,0.9,-0.7,M,-25.1,M,,0000*48
$GPGSA,A,3,07,10,19,03,23,28,13,08,05,,,,2.0,0.9,1.8*39
$GPRMC,180015.000,A,3748.8006,N,12217.8614,W,0.38,102.29,020811,,,A*72
$GPVTG,102.29,T,,M,0.38,N,0.7,K,A*09
$GPGGA,180016.000,3748.8005,N,12217.8613,W,1,09,0.9,-0.6,M,-25.1,M,,0000*4E
$GPGSA,A,3,07,10,19,03,23,28,13,08,05,,,,2.0,0.9,1.8*39
$GPRMC,180016.000,A,3748.8005,N,12217.8613,W,0.71,178.34,020811,,,A*79
$GPVTG,178.34,T,,M,0.71,N,1.3,K,A*00
$GPGGA,180017.000,3748.8004,N,12217.8613,W,1,09,0.9,-0.3,M,-25.1,M,,0000*4B
$GPGSA,A,3,07,10,19,03,23,28,13,08,05,,,,2.0,0.9,1.8*39
$GPRMC,180017.000,A,3748.8004,N,12217.8613,W,0.26,104.11,020811,,,A*77
$GPVTG,104.11,T,,M,0.26,N,0.5,K,A*09
$GPGGA,180018.000,3748.8004,N,12217.8611,W,2,08,0.9,-0.2,M,-25.1,M,1.8,0000*62
$GPGSA,A,3,07,10,03,23,28,13,08,05,,,,,2.0,0.9,1.8*31
$GPRMC,180018.000,A,3748.8004,N,12217.8611,W,0.40,82.68,020811,,,D*4E
$GPVTG,82.68,T,,M,0.40,N,0.7,K,D*3F
$GPGGA,180019.000,3748.8003,N,12217.8610,W,2,09,0.9,0.3,M,-25.1,M,2.8,0000*4B
$GPGSA,A,3,07,10,19,03,23,28,13,08,05,,,,2.0,0.9,1.8*39
$GPGSV,3,1,12,07,66,004,26,08,53,308,31,13,51,133,32,28,35,223,37*75
$GPGSV,3,2,12,10,34,242,37,19,31,083,21,23,22,138,35,05,22,301,27*70
$GPGSV,3,3,12,03,20,051,24,06,11,041,25,16,02,044,18,26,01,315,*73
$GPRMC,180019.000,A,3748.8003,N,12217.8610,W,0.23,132.67,020811,,,D*79
$GPVTG,132.67,T,,M,0.23,N,0.4,K,D*0C
$GPGGA,180020.000,3748.8002,N,12217.8609,W,2,09,0.9,0.7,M,-25.1,M,3.8,0000*4D
$GPGSA,A,3,07,10,19,03,23,28,13,08,05,,,,2.0,0.9,1.8*39
$GPRMC,180020.000,A,3748.8002,N,12217.8609,W,0.06,224.80,020811,,,D*70
$GPVTG,224.80,T,,M,0.06,N,0.1,K,D*03
$GPGGA,180021.000,3748.8001,N,12217.8609,W,2,09,0.9,0.8,M,-25.1,M,1.8,0000*42
$GPGSA,A,3,07,10,19,03,23,28,13,08,05,,,,2.0,0.9,1.8*39
$GPRMC,180021.000,A,3748.8001,N,12217.8609,W,0.38,129.06,020811,,,D*7F
$GPVTG,129.06,T,,M,0.38,N,0.7,K,D*08
$GPGGA,180022.000,3748.7999,N,12217.8610,W,2,09,0.9,1.5,M,-25.1,M,2.8,0000*41
$GPGSA,A,3,07,10,19,03,23,28,13,08,05,,,,2.0,0.9,1.8*39
$GPRMC,180022.000,A,3748.7999,N,12217.8610,W,0.27,164.21,020811,,,D*71
$GPVTG,164.21,T,,M,0.27,N,0.5,K,D*08
$GPGGA,180023.000,3748.7997,N,12217.8611,W,2,09,0.9,1.9,M,-25.1,M,3.8,0000*42
$GPGSA,A,3,07,10,19,03,23,28,13,08,05,,,,2.0,0.9,1.8*39
$GPRMC,180023.000,A,3748.7997,N,12217.8611,W,0.30,287.68,020811,,,D*7A
$GPVTG,287.68,T,,M,0.30,N,0.6,K,D*0E
$GPGGA,180024.000,3748.7996,N,12217.8611,W,2,09,0.9,2.5,M,-25.1,M,4.8,0000*4C
$GPGSA,A,3,07,10,19,03,23,28,13,08,05,,,,2.0,0.9,1.8*39
$GPGSV,3,1,12,07,66,004,28,08,53,308,21,13,51,133,35,28,35,223,30*7A
$GPGSV,3,2,12,10,34,242,23,19,31,083,36,23,22,138,34,05,22,301,17*71
$GPGSV,3,3,12,03,20,051,33,06,11,041,28,16,02,044,,26,01,315,*71
$GPRMC,180024.000,A,3748.7996,N,12217.8611,W,0.18,133.96,020811,,,D*7B
$GPVTG,133.96,T,,M,0.18,N,0.3,K,D*0C
$GPGGA,180025.000,3748.7996,N,12217.8611,W,2,09,0.9,3.0,M,-25.1,M,1.8,0000*4C
$GPGSA,A,3,07,10,19,03,23,28,13,08,05,,,,2.0,0.9,1.8*39
$GPRMC,180025.000,A,3748.7996,N,12217.8611,W,0.17,341.82,020811,,,D*77
$GPVTG,341.82,T,,M,0.17,N,0.3,K,D*01
$GPGGA,180026.000,3748.7996,N,12217.8610,W,2,09,0.9,3.7,M,-25.1,M,1.8,0000*49
$GPGSA,A,3,07,10,19,03,23,28,13,08,05,,,,2.0,0.9,1.8*39
$GPRMC,180026.000,A,3748.7996,N,12217.8610,W,0.11,89.25,020811,,,D*49
$GPVTG,89.25,T,,M,0.11,N,0.2,K,D*3C
$GPGGA,180027.000,3748.7996,N,12217.8609,W,2,09,0.9,4.3,M,-25.1,M,2.8,0000*40
$GPGSA,A,3,07,10,19,03,23,28,13,08,05,,,,2.0,0.9,1.8*39
$GPRMC,180027.000,A,3748.7996,N,12217.8609,W,0.24,117.59,020811,,,D*7B
$GPVTG,117.59,T,,M,0.24,N,0.4,K,D*01
$GPGGA,180028.000,3748.7995,N,12217.8607,W,2,09,0.9,4.9,M,-25.1,M,3.8,0000*49
$GPGSA,A,3,07,10,19,03,23,28,13,08,05,,,,2.0,0.9,1.8*39
$GPRMC,180028.000,A,3748.7995,N,12217.8607,W,0.39,106.86,020811,,,D*77
$GPVTG,106.86,T,,M,0.39,N,0.7,K,D*0C
$GPGGA,180029.000,3748.7994,N,12217.8605,W,2,09,0.9,4.5,M,-25.1,M,1.8,0000*45
$GPGSA,A,3,07,10,19,03,23,28,13,08,05,,,,2.0,0.9,1.8*39
$GPGSV,3,1,12,07,66,004,31,08,53,308,29,13,51,133,39,28,35,223,30*76
$GPGSV,3,2,12,10,34,242,18,19,31,083,40,23,22,138,37,05,22,301,23*7C
$GPGSV,3,3,12,03,20,051,38,06,11,041,30,16,02,044,,26,01,315,*73
$GPRMC,180029.000,A,3748.7994,N,12217.8605,W,0.41,81.96,020811,,,D*45
$GPVTG,81.96,T,,M,0.41,N,0.8,K,D*33
$GPGGA,180030.000,3748.7992,N,12217.8603,W,2,09,0.9,4.3,M,-25.1,M,1.8,0000*4B
$GPGSA,A,3,07,10,19,03,23,28,13,08,05,,,,2.0,0.9,1.8*39
$GPRMC,180030.000,A,3748.7992,N,12217.8603,W,0.49,106.81,020811,,,D*7D
$GPVTG,106.81,T,,M,0.49,N,0.9,K,D*02
$GPGGA,180031.000,3748.7992,N,12217.8602,W,2,09,0.9,4.6,M,-25.1,M,1.8,0000*4E
$GPGSA,A,3,07,10,19,03,23,28,13,08,05,,,,2.0,0.9,1.8*39
$GPRMC,180031.000,A,3748.7992,N,12217.8602,W,0.37,114.88,020811,,,D*7E
$GPVTG,114.88,T,,M,0.37,N,0.7,K,D*0F
$GPGGA,180032.000,3748.7992,N,12217.8602,W,2,09,0.9,4.7,M,-25.1,M,2.8,0000*4F
$GPGSA,A,3,07,10,19,03,23,28,13,08,05,,,,2.0,0.9,1.8*39
$GPRMC,180032.000,A,3748.7992,N,12217.8602,W,0.15,77.66,020811,,,D*49
$GPVTG,77.66,T,,M,0.15,N,0.3,K,D*3F
$GPGGA,180033.000,3748.7992,N,12217.8603,W,2,09,0.9,4.8,M,-25.1,M,3.8,0000*41
$GPGSA,A,3,07,10,19,03,23,28,13,08,05,,,,2.0,0.9,1.8*39
$GPRMC,180033.000,A,3748.7992,N,12217.8603,W,0.15,47.66,020811,,,D*4A
$GPVTG,47.66,T,,M,0.15,N,0.3,K,D*3C
$GPGGA,180034.000,3748.7992,N,12217.8603,W,2,09,0.9,4.9,M,-25.1,M,4.8,0000*40
$GPGSA,A,3,07,10,19,03,23,28,13,08,05,,,,2.0,0.9,1.8*39
$GPGSV,3,1,12,07,66,004,25,08,53,308,28,13,51,133,38,28,35,223,29*7B
$GPGSV,3,2,12,10,34,242,25,19,31,083,37,23,22,138,38,05,22,301,19*74
$GPGSV,3,3,12,03,20,051,34,06,11,041,27,16,02,044,,26,01,315,*79
$GPVTG,46.28,T,,M,0.09,N,0.2,K,D*3B
$GPGGA,180035.000,3748.7990,N,12217.8601,W,2,09,0.9,4.8,M,-25.1,M,1.8,0000*45
$GPGSA,A,3,07,10,19,03,23,28,13,08,05,,,,2.0,0.9,1.8*39
$GPRMC,180035.000,A,3748.7990,N,12217.8601,W,0.13,124.55,020811,,,D*7E
$GPVTG,124.55,T,,M,0.13,N,0.2,K,D*0F
$GPGGA,180036.000,3748.7991,N,12217.8603,W,2,08,1.0,5.5,M,-25.1,M,1.8,0000*40
$GPGSA,A,3,07,19,03,23,28,13,08,05,,,,,2.0,1.0,1.8*30
$GPRMC,180036.000,A,3748.7991,N,12217.8603,W,0.45,239.07,020811,,,D*75
$GPVTG,239.07,T,,M,0.45,N,0.8,K,D*0E
$GPGGA,180037.000,3748.7991,N,12217.8606,W,2,09,0.9,6.4,M,-25.1,M,2.8,0000*4C
$GPGSA,A,3,07,10,19,03,23,28,13,08,05,,,,2.0,0.9,1.8*39
$GPRMC,180037.000,A,3748.7991,N,12217.8606,W,1.16,204.21,020811,,,D*7C
$GPVTG,204.21,T,,M,1.16,N,2.2,K,D*0B
$GPGGA,180038.000,3748.7990,N,12217.8604,W,2,09,0.9,7.1,M,-25.1,M,3.8,0000*45
$GPGSA,A,3,07,10,19,03,23,28,13,08,05,,,,2.0,0.9,1.8*39
$GPRMC,180038.000,A,3748.7990,N,12217.8604,W,0.36,145.26,020811,,,D*72
$GPVTG,145.26,T,,M,0.36,N,0.7,K,D*0E
$GPGGA,180039.000,3748.7989,N,12217.8604,W,2,09,0.9,7.2,M,-25.1,M,4.8,0000*48
$GPGSA,A,3,07,10,19,03,23,28,13,08,05,,,,2.0,0.9,1.8*39
$GPGSV,3,1,12,07,66,004,26,08,53,308,24,13,51,133,34,28,35,223,32*72
$GPGSV,3,2,12,10,34,242,29,19,31,083,34,23,22,138,38,05,22,301,20*71
$GPGSV,3,3,12,03,20,051,35,06,11,041,23,16,02,044,,26,01,315,*7C
$GPRMC,180039.000,A,3748.7989,N,12217.8604,W,0.24,218.74,020811,,,D*74
$GPVTG,218.74,T,,M,0.24,N,0.4,K,D*02
$GPGGA,180040.000,3748.7989,N,12217.8604,W,2,09,0.9,7.3,M,-25.1,M,5.8,0000*46
$GPGSA,A,3,07,10,19,03,23,28,13,08,05,,,,2.0,0.9,1.8*39
$GPRMC,180040.000,A,3748.7989,N,12217.8604,W,0.08,124.33,020811,,,D*7B
$GPVTG,124.33,T,,M,0.08,N,0.1,K,D*06
$GPGGA,180041.000,3748.7989,N,12217.8605,W,2,09,0.9,7.3,M,-25.1,M,6.8,0000*45
$GPGSA,A,3,07,10,19,03,23,28,13,08,05,,,,2.0,0.9,1.8*39
$GPRMC,180041.000,A,3748.7989,N,12217.8605,W,0.11,101.00,020811,,,D*74
$GPVTG,101.00,T,,M,0.11,N,0.2,K,D*0A
$GPGGA,180042.000,3748.7989,N,12217.8605,W,2,09,0.9,7.3,M,-25.1,M,7.8,0000*47
$GPGSA,A,3,07,10,19,03,23,28,13,08,05,,,,2.0,0.9,1.8*39
$GPRMC,180042.000,A,3748.7989,N,12217.8605,W,0.06,125.08,020811,,,D*7F
$GPVTG,125.08,T,,M,0.06,N,0.1,K,D*01
$GPGGA,180043.000,3748.7988,N,12217.8605,W,2,09,0.9,7.3,M,-25.1,M,1.8,0000*41
