$ADVER,3080,2.3
$GPRMC,175628.595,A,3748.7974,N,12217.8654,W,0.28,159.64,020811,,,A*78
$GPRMC,175629.595,A,3748.7974,N,12217.8654,W,0.33,169.06,020811,,,A*74
$GPRMC,175630.595,A,3748.7975,N,12217.8654,W,0.24,105.90,020811,,,A*7E
$GPRMC,175631.595,A,3748.7976,N,12217.8654,W,0.24,105.90,020811,,,A*7C
$GPRMC,175632.595,A,3748.7976,N,12217.8655,W,0.40,188.18,020811,,,A*79
$GPRMC,175633.595,A,3748.7976,N,12217.8655,W,0.33,162.58,020811,,,A*7C
$GPRMC,175634.595,A,3748.7976,N,12217.8656,W,0.40,145.76,020811,,,A*75
$GPRMC,175635.595,A,3748.7977,N,12217.8656,W,0.19,155.08,020811,,,A*71
$GPRMC,175636.595,A,3748.7977,N,12217.8656,W,0.17,157.78,020811,,,A*79
$GPRMC,175637.595,A,3748.7976,N,12217.8656,W,0.26,151.69,020811,,,A*7D
$GPRMC,175638.595,A,3748.7977,N,12217.8656,W,0.31,147.43,020811,,,A*7A
$GPRMC,175639.595,A,3748.7977,N,12217.8656,W,0.14,181.10,020811,,,A*70
$GPRMC,175640.595,A,3748.7977,N,12217.8655,W,0.30,157.78,020811,,,A*7E
$GPRMC,175641.595,A,3748.7977,N,12217.8656,W,0.30,154.31,020811,,,A*72
$GPRMC,175642.595,A,3748.7977,N,12217.8656,W,0.30,152.56,020811,,,A*76
$GPRMC,175643.595,A,3748.7977,N,12217.8656,W,0.15,161.22,020811,,,A*73
$GPRMC,175644.595,A,3748.7978,N,12217.8657,W,0.09,221.14,020811,,,A*75
$GPRMC,175645.595,A,3748.7978,N,12217.8658,W,0.32,263.52,020811,,,A*77
$GPRMC,175646.595,A,3748.7985,N,12217.8684,W,0.40,280.41,020811,,,A*7D
$GPRMC,175647.595,A,3748.7970,N,12217.8625,W,0.36,265.31,020811,,,A*70
$GPRMC,175648.595,A,3748.7963,N,12217.8600,W,1.10,121.36,020811,,,A*7B
$GPRMC,175649.595,A,3748.7910,N,12217.8518,W,2.03,307.79,020811,,,A*78
$GPRMC,175650.595,A,3748.7923,N,12217.8550,W,0.64,136.94,020811,,,A*7C
$GPRMC,175651.595,A,3748.8032,N,12217.8693,W,2.91,133.04,020811,,,A*73
$GPRMC,175652.595,A,3748.7943,N,12217.8587,W,1.11,116.68,020811,,,A*70
$GPRMC,175653.595,A,3748.7897,N,12217.8559,W,1.09,270.85,020811,,,A*73
$GPRMC,175654.595,A,3748.7932,N,12217.8614,W,1.58,125.48,020811,,,A*76
$GPRMC,175655.595,A,3748.7920,N,12217.8695,W,0.48,46.72,020811,,,A*40
$GPRMC,175656.595,A,3748.7988,N,12217.8717,W,2.43,313.30,020811,,,A*76
$GPRMC,175657.595,A,3748.7942,N,12217.8603,W,5.24,303.00,020811,,,A*71
$GPRMC,175658.595,A,3748.8063,N,12217.8847,W,2.70,328.22,020811,,,A*7A
$GPRMC,175659.595,A,3748.7979,N,12217.8678,W,1.27,316.20,020811,,,A*7A
$GPRMC,175700.595,A,3748.8017,N,12217.8677,W,1.09,101.31,020811,,,A*7E
$GPRMC,175701.595,A,3748.8039,N,12217.8649,W,1.77,131.97,020811,,,A*78
$GPRMC,175702.595,A,3748.7969,N,12217.8673,W,4.53,106.90,020811,,,A*71
$GPRMC,175703.595,A,3748.7940,N,12217.8657,W,2.07,121.77,020811,,,A*76
$GPRMC,175704.595,A,3748.7991,N,12217.8641,W,2.35,197.54,020811,,,A*77
$GPRMC,175705.595,A,3748.7931,N,12217.8613,W,0.92,201.70,020811,,,A*7E
$GPRMC,175706.595,A,3748.7981,N,12217.8677,W,1.32,145.36,020811,,,A*7E
$GPRMC,175707.595,A,3748.7977,N,12217.8671,W,0.32,71.83,020811,,,A*49
$GPRMC,175708.595,A,3748.7987,N,12217.8703,W,5.45,149.28,020811,,,A*73
$GPRMC,175709.595,A,3748.7992,N,12217.8745,W,0.54,83.95,020811,,,A*40
$GPRMC,175710.595,A,3748.8013,N,12217.8676,W,0.47,193.16,020811,,,A*7F
$GPRMC,175711.595,A,3748.7939,N,12217.8614,W,4.18,136.43,020811,,,A*75
$GPRMC,175712.595,A,3748.7932,N,12217.8615,W,13.45,137.21,020811,,,A*47
$GPRMC,175713.595,A,3748.8005,N,12217.8639,W,2.78,136.95,020811,,,A*7A
$GPRMC,175714.595,A,3748.7922,N,12217.8578,W,0.93,342.87,020811,,,A*7D
$GPRMC,175715.595,A,3748.7935,N,12217.8573,W,1.53,295.76,020811,,,A*79
$GPRMC,175720.595,A,3748.7956,N,12217.8654,W,0.41,5.64,020811,,,A*76
$GPRMC,175721.595,A,3748.8000,N,12217.8763,W,1.23,301.21,020811,,,A*74
$GPRMC,175722.595,A,3748.7828,N,12217.8523,W,0.31,96.78,020811,,,A*4F
$GPRMC,175723.595,A,3748.7897,N,12217.8531,W,1.41,179.55,020811,,,A*70
$GPRMC,175724.595,A,3748.7907,N,12217.8543,W,2.84,348.18,020811,,,A*79
$GPRMC,175725.595,A,3748.7993,N,12217.8574,W,2.63,354.98,020811,,,A*7D
$GPRMC,175726.595,A,3748.7944,N,12217.8555,W,1.61,356.03,020811,,,A*76
$GPRMC,175727.595,A,3748.7534,N,12217.8050,W,0.37,237.85,020811,,,A*76
$GPRMC,175728.595,A,3748.7390,N,12217.7900,W,4.95,154.17,020811,,,A*73
$GPRMC,175729.595,A,3748.7567,N,12217.8140,W,5.26,149.36,020811,,,A*79
$GPRMC,175730.595,A,3748.7698,N,12217.8132,W,2.50,160.93,020811,,,A*75
$GPRMC,175731.595,A,3748.7942,N,12217.8462,W,2.95,139.30,020811,,,A*70
$GPRMC,175732.595,A,3748.7996,N,12217.8541,W,2.62,118.10,020811,,,A*73
$GPRMC,175733.595,A,3748.7925,N,12217.8557,W,2.21,339.67,020811,,,A*7B
$GPRMC,175734.595,A,3748.7564,N,12217.8202,W,1.25,294.13,020811,,,A*70
$GPRMC,175735.595,A,3748.7904,N,12217.8476,W,2.20,151.58,020811,,,A*7D
$GPRMC,175736.595,A,3748.7997,N,12217.8559,W,0.17,128.87,020811,,,A*72
$GPRMC,175737.595,A,3748.8002,N,12217.8497,W,0.13,203.90,020811,,,A*72
$GPRMC,175738.595,A,3748.8001,N,12217.8474,W,0.38,141.00,020811,,,A*76
$GPRMC,175739.595,A,3748.8020,N,12217.8493,W,0.19,160.46,020811,,,A*7F
$GPRMC,175740.595,A,3748.8040,N,12217.8527,W,0.26,163.90,020811,,,A*7D
$GPRMC,175741.595,A,3748.7930,N,12217.8550,W,0.16,137.54,020811,,,A*77
$GPRMC,175742.595,A,3748.8013,N,12217.8568,W,0.42,7.72,020811,,,A*7F
$GPRMC,175743.595,A,3748.7962,N,12217.8567,W,2.89,355.86,020811,,,A*7B
$GPRMC,175744.595,A,3748.7993,N,12217.8656,W,0.60,8.18,020811,,,A*7A
$GPRMC,175745.595,A,3748.8113,N,12217.8637,W,0.24,105.90,020811,,,A*7F
$GPRMC,175746.595,A,3748.8062,N,12217.8622,W,1.25,0.11,020811,,,A*72
$GPRMC,175747.595,A,3748.8100,N,12217.8621,W,0.79,169.77,020811,,,A*73
$GPRMC,175748.595,A,3748.8047,N,12217.8609,W,0.16,52.71,020811,,,A*42
$GPRMC,175749.595,A,3748.7996,N,12217.8598,W,1.25,170.04,020811,,,A*70
$GPRMC,175750.595,A,3748.7967,N,12217.8590,W,1.28,174.03,020811,,,A*70
$GPRMC,175751.595,A,3748.7988,N,12217.8587,W,1.32,357.59,020811,,,A*71
$GPRMC,175752.595,A,3748.7962,N,12217.8578,W,0.73,18.23,020811,,,A*47
$GPRMC,175753.595,A,3748.7973,N,12217.8577,W,0.43,141.54,020811,,,A*77
$GPRMC,175754.595,A,3748.7938,N,12217.8577,W,1.13,175.73,020811,,,A*79
$GPRMC,175755.595,A,3748.7951,N,12217.8589,W,1.29,176.39,020811,,,A*72
$GPRMC,175756.595,A,3748.7981,N,12217.8596,W,0.83,114.53,020811,,,A*7B
$GPRMC,175757.595,A,3748.7920,N,12217.8609,W,0.32,194.29,020811,,,A*7B
$GPRMC,175758.595,A,3748.8036,N,12217.8601,W,0.57,164.70,020811,,,A*7D
$GPRMC,175759.595,A,3748.8108,N,12217.8614,W,0.83,349.87,020811,,,A*78
$GPRMC,175800.595,A,3748.8155,N,12217.8624,W,0.94,343.48,020811,,,A*7F
$GPRMC,175801.000,A,3748.8154,N,12217.8625,W,0.35,297.52,020811,,,A*7F
$GPRMC,175802.000,A,3748.8136,N,12217.8621,W,0.09,50.82,020811,,,A*47
$GPRMC,175803.000,A,3748.8102,N,12217.8612,W,0.76,161.87,020811,,,A*7F
$GPRMC,175804.000,A,3748.8068,N,12217.8597,W,1.80,165.27,020811,,,A*7D
$GPRMC,175805.000,A,3748.8047,N,12217.8586,W,1.53,158.67,020811,,,A*75
$GPRMC,175806.000,A,3748.8047,N,12217.8587,W,1.13,158.70,020811,,,A*75
$GPRMC,175807.000,A,3748.8052,N,12217.8590,W,1.01,163.58,020811,,,A*77
$GPRMC,175808.000,A,3748.8058,N,12217.8594,W,0.46,152.87,020811,,,A*74
$GPRMC,175809.000,A,3748.8059,N,12217.8595,W,0.21,99.98,020811,,,A*4C
$GPRMC,175810.000,A,3748.8062,N,12217.8593,W,0.38,147.40,020811,,,A*75
$GPRMC,175811.000,A,3748.8059,N,12217.8592,W,1.04,178.90,020811,,,A*72
$GPRMC,175812.000,A,3748.8057,N,12217.8592,W,0.81,166.51,020811,,,A*71
$GPRMC,175813.000,A,3748.8053,N,12217.8592,W,0.60,154.70,020811,,,A*79
$GPRMC,175814.000,A,3748.8044,N,12217.8591,W,1.44,166.29,020811,,,A*71
$GPRMC,175815.000,A,3748.8042,N,12217.8591,W,1.00,160.71,020811,,,A*7D
$GPRMC,175816.000,A,3748.8040,N,12217.8591,W,1.05,164.54,020811,,,A*7A
$GPRMC,175817.000,A,3748.8035,N,12217.8592,W,1.43,169.01,020811,,,A*75
$GPRMC,175818.000,A,3748.8034,N,12217.8593,W,0.61,165.31,020811,,,A*74
$GPRMC,175819.000,A,3748.8030,N,12217.8595,W,0.06,343.66,020811,,,A*72
$GPRMC,175820.000,A,3748.8027,N,12217.8597,W,0.12,127.49,020811,,,A*74
$GPRMC,175821.000,A,3748.8022,N,12217.8598,W,0.31,185.83,020811,,,A*70
$GPRMC,175822.000,A,3748.8038,N,12217.8617,W,0.26,160.58,020811,,,A*77
$GPRMC,175823.000,A,3748.8020,N,12217.8601,W,0.18,161.44,020811,,,A*79
$GPRMC,175824.000,A,3748.8026,N,12217.8602,W,0.67,16.87,020811,,,A*4D
$GPRMC,175825.000,A,3748.8034,N,12217.8609,W,0.16,327.77,020811,,,A*7C
$GPRMC,175826.000,A,3748.8043,N,12217.8618,W,0.37,222.97,020811,,,A*76
$GPRMC,175827.000,A,3748.8051,N,12217.8624,W,0.28,232.30,020811,,,A*79
$GPRMC,175828.000,A,3748.8057,N,12217.8627,W,0.11,338.65,020811,,,A*72
$GPRMC,175829.000,A,3748.8069,N,12217.8625,W,0.10,19.14,020811,,,A*4B
$GPRMC,175830.000,A,3748.8066,N,12217.8618,W,0.49,121.70,020811,,,A*76
$GPRMC,175831.000,A,3748.8066,N,12217.8617,W,0.11,107.25,020811,,,A*71
$GPRMC,175832.000,A,3748.8066,N,12217.8619,W,0.14,194.43,020811,,,A*73
$GPRMC,175833.000,A,3748.8067,N,12217.8623,W,0.24,266.15,020811,,,A*74
$GPRMC,175834.000,A,3748.8068,N,12217.8627,W,0.20,299.69,020811,,,A*77
$GPRMC,175835.000,A,3748.8066,N,12217.8627,W,0.08,181.60,020811,,,A*71
$GPRMC,175836.000,A,3748.8054,N,12217.8615,W,0.81,145.80,020811,,,A*75
$GPRMC,175837.000,A,3748.8048,N,12217.8610,W,0.45,144.14,020811,,,A*78
$GPRMC,175838.000,A,3748.8049,N,12217.8613,W,0.58,118.04,020811,,,A*71
$GPRMC,175839.000,A,3748.8048,N,12217.8619,W,0.15,16.29,020811,,,A*42
$GPRMC,175839.000,A,3748.8048,N,12217.8621,W,0.39,173.06,020811,,,A*78
$GPRMC,175840.000,A,3748.8045,N,12217.8618,W,0.17,78.10,020811,,,A*40
$GPRMC,175841.000,A,3748.8050,N,12217.8620,W,0.27,11.65,020811,,,A*40
$GPRMC,175842.000,A,3748.8047,N,12217.8617,W,0.13,191.70,020811,,,A*7B
$GPRMC,175843.000,A,3748.8047,N,12217.8616,W,0.05,157.12,020811,,,A*72
$GPRMC,175844.000,A,3748.8049,N,12217.8617,W,0.05,339.63,020811,,,A*76
$GPRMC,175845.000,A,3748.8047,N,12217.8616,W,0.01,12.35,020811,,,A*45
$GPRMC,175846.000,A,3748.8048,N,12217.8617,W,0.02,292.39,020811,,,A*7D
$GPRMC,175847.000,A,3748.8047,N,12217.8617,W,0.26,180.18,020811,,,A*76
$GPRMC,175848.000,A,3748.8046,N,12217.8617,W,0.18,172.36,020811,,,A*74
$GPRMC,175849.000,A,3748.8045,N,12217.8617,W,0.20,175.64,020811,,,A*7D
$GPRMC,175850.000,A,3748.8045,N,12217.8617,W,0.20,160.19,020811,,,A*7B
$GPRMC,175851.000,A,3748.8044,N,12217.8616,W,0.18,168.71,020811,,,A*77
$GPRMC,175852.000,A,3748.8048,N,12217.8614,W,0.11,131.67,020811,,,A*78
$GPRMC,175853.000,A,3748.8051,N,12217.8612,W,0.06,88.98,020811,,,A*42
$GPRMC,175854.000,A,3748.8053,N,12217.8609,W,0.18,120.21,020811,,,A*73
$GPRMC,175855.000,A,3748.8058,N,12217.8608,W,0.19,33.58,020811,,,A*44
$GPRMC,175856.000,A,3748.8062,N,12217.8607,W,0.12,76.34,020811,,,A*41
$GPRMC,175857.000,A,3748.8063,N,12217.8605,W,0.19,140.80,020811,,,A*73
$GPRMC,175858.000,A,3748.8065,N,12217.8603,W,0.19,118.62,020811,,,A*7D
$GPRMC,175859.000,A,3748.8063,N,12217.8601,W,0.23,117.89,020811,,,A*7B
$GPRMC,175900.000,A,3748.8057,N,12217.8596,W,0.24,121.06,020811,,,A*79
$GPRMC,175901.000,A,3748.8047,N,12217.8590,W,0.29,109.01,020811,,,A*7F
$GPRMC,175902.000,A,3748.8040,N,12217.8591,W,0.44,81.70,020811,,,A*46
$GPRMC,175903.000,A,3748.8037,N,12217.8588,W,0.15,166.55,020811,,,A*74
$GPRMC,175904.000,A,3748.8029,N,12217.8591,W,0.77,222.76,020811,,,A*72
$GPRMC,175905.000,A,3748.8024,N,12217.8594,W,0.48,127.57,020811,,,A*72
$GPRMC,175906.000,A,3748.8017,N,12217.8597,W,0.13,247.06,020811,,,A*7D
$GPRMC,175907.000,A,3748.8010,N,12217.8600,W,0.33,200.84,020811,,,A*7D
$GPRMC,175908.000,A,3748.8006,N,12217.8601,W,0.23,188.17,020811,,,A*7C
$GPRMC,175909.000,A,3748.8005,N,12217.8602,W,0.60,104.79,020811,,,A*76
$GPRMC,175910.000,A,3748.8002,N,12217.8603,W,0.25,286.95,020811,,,A*72
$GPRMC,175911.000,A,3748.8009,N,12217.8607,W,0.70,277.16,020811,,,A*79
$GPRMC,175912.000,A,3748.8008,N,12217.8613,W,0.47,231.28,020811,,,A*75
$GPRMC,175913.000,A,3748.8002,N,12217.8615,W,0.59,207.56,020811,,,A*7B
$GPRMC,175914.000,A,3748.7999,N,12217.8621,W,1.04,207.12,020811,,,A*76
$GPRMC,175915.000,A,3748.7999,N,12217.8625,W,1.13,206.50,020811,,,A*72
$GPRMC,175916.000,A,3748.7999,N,12217.8629,W,0.96,199.29,020811,,,A*7A
$GPRMC,175917.000,A,3748.8002,N,12217.8630,W,0.53,204.15,020811,,,A*76
$GPRMC,175918.000,A,3748.8006,N,12217.8631,W,0.39,224.16,020811,,,A*71
$GPRMC,175919.000,A,3748.8010,N,12217.8630,W,0.08,109.66,020811,,,A*7F
$GPRMC,175920.000,A,3748.8016,N,12217.8628,W,0.24,358.81,020811,,,A*7B
$GPRMC,175921.000,A,3748.8020,N,12217.8627,W,0.41,21.96,020811,,,A*48
$GPRMC,175922.000,A,3748.8021,N,12217.8628,W,0.53,22.02,020811,,,A*48
$GPRMC,175923.000,A,3748.8021,N,12217.8629,W,0.55,15.27,020811,,,A*4D
$GPRMC,175924.000,A,3748.8023,N,12217.8629,W,0.23,6.88,020811,,,A*7E
$GPRMC,175925.000,A,3748.8024,N,12217.8629,W,0.21,207.44,020811,,,A*79
$GPRMC,175926.000,A,3748.8028,N,12217.8627,W,0.22,191.55,020811,,,A*77
$GPRMC,175927.000,A,3748.8030,N,12217.8625,W,0.34,43.72,020811,,,A*41
$GPRMC,175928.000,A,3748.8035,N,12217.8623,W,0.54,37.33,020811,,,A*4D
$GPRMC,175929.000,A,3748.8036,N,12217.8623,W,0.26,32.89,020811,,,A*4E
$GPRMC,175930.000,A,3748.8035,N,12217.8624,W,0.16,104.47,020811,,,A*77
$GPRMC,175931.000,A,3748.8033,N,12217.8626,W,0.20,178.17,020811,,,A*79
$GPRMC,175932.000,A,3748.8034,N,12217.8627,W,0.26,284.94,020811,,,A*71
$GPRMC,175933.000,A,3748.8031,N,12217.8624,W,0.25,62.24,020811,,,A*44
$GPRMC,175934.000,A,3748.8028,N,12217.8616,W,0.71,52.70,020811,,,A*49
$GPRMC,175935.000,A,3748.8031,N,12217.8612,W,1.74,354.22,020811,,,A*72
$GPRMC,175936.000,A,3748.8029,N,12217.8612,W,0.90,337.05,020811,,,A*73
$GPRMC,175937.000,A,3748.8019,N,12217.8607,W,0.26,120.95,020811,,,A*75
$GPRMC,175938.000,A,3748.8014,N,12217.8604,W,0.80,129.33,020811,,,A*7D
$GPRMC,175939.000,A,3748.8014,N,12217.8606,W,0.74,136.12,020811,,,A*78
$GPRMC,175940.000,A,3748.8007,N,12217.8604,W,0.70,138.36,020811,,,A*7A
$GPRMC,175941.000,A,3748.8005,N,12217.8606,W,0.59,177.25,020811,,,A*79
$GPRMC,175942.000,A,3748.8000,N,12217.8602,W,0.56,137.56,020811,,,A*74
$GPRMC,175943.000,A,3748.7997,N,12217.8600,W,0.83,150.93,020811,,,A*7F
$GPRMC,175944.000,A,3748.7990,N,12217.8594,W,1.72,145.21,020811,,,A*73
$GPRMC,175945.000,A,3748.7987,N,12217.8590,W,1.32,134.82,020811,,,A*7B
$GPRMC,175946.000,A,3748.7985,N,12217.8588,W,0.19,143.40,020811,,,A*75
$GPRMC,175947.000,A,3748.7984,N,12217.8588,W,0.25,129.49,020811,,,A*7F
$GPRMC,175948.000,A,3748.7984,N,12217.8586,W,0.27,144.21,020811,,,A*79
$GPRMC,175949.000,A,3748.7981,N,12217.8582,W,0.14,276.37,020811,,,A*7C
$GPRMC,175950.000,A,3748.7980,N,12217.8582,W,0.27,135.07,020811,,,A*72
$GPRMC,175951.000,A,3748.7987,N,12217.8591,W,0.48,324.58,020811,,,A*77
$GPRMC,175952.000,A,3748.7989,N,12217.8593,W,0.15,87.44,020811,,,A*47
$GPRMC,175953.000,A,3748.7993,N,12217.8596,W,0.08,77.95,020811,,,A*47
$GPRMC,175954.000,A,3748.8000,N,12217.8602,W,0.06,302.93,020811,,,A*7B
$GPRMC,175955.000,A,3748.8005,N,12217.8608,W,0.11,346.12,020811,,,A*7A
$GPRMC,175956.000,A,3748.8015,N,12217.8616,W,0.16,340.29,020811,,,A*7E
$GPRMC,175957.000,A,3748.8017,N,12217.8619,W,0.19,313.94,020811,,,A*7D
$GPRMC,175958.000,A,3748.8012,N,12217.8616,W,0.11,109.88,020811,,,A*74
$GPRMC,175959.000,A,3748.8008,N,12217.8612,W,0.24,134.49,020811,,,A*7F
$GPRMC,180000.000,A,3748.8003,N,12217.8610,W,0.39,181.68,020811,,,A*78
$GPRMC,180001.000,A,3748.8002,N,12217.8611,W,0.31,293.87,020811,,,A*70
$GPRMC,180002.000,A,3748.8002,N,12217.8612,W,0.08,34.04,020811,,,A*4E
$GPRMC,180003.000,A,3748.8002,N,12217.8614,W,0.63,325.45,020811,,,A*72
$GPRMC,180004.000,A,3748.7995,N,12217.8622,W,0.38,233.17,020811,,,A*77
$GPRMC,180005.000,A,3748.7981,N,12217.8618,W,0.67,178.99,020811,,,A*7A
$GPRMC,180006.000,A,3748.7978,N,12217.8621,W,0.52,175.71,020811,,,A*78
$GPRMC,180007.000,A,3748.7979,N,12217.8620,W,0.40,132.32,020811,,,A*7E
$GPRMC,180008.000,A,3748.7980,N,12217.8619,W,0.26,116.16,020811,,,A*7D
$GPRMC,180009.000,A,3748.7976,N,12217.8621,W,0.88,124.81,020811,,,A*75
$GPRMC,180010.000,A,3748.7971,N,12217.8625,W,0.99,139.92,020811,,,A*70
$GPRMC,180011.000,A,3748.7964,N,12217.8623,W,0.46,145.63,020811,,,A*74
$GPRMC,180012.000,A,3748.7960,N,12217.8621,W,0.02,246.18,020811,,,A*7D
$GPRMC,180013.000,A,3748.7954,N,12217.8617,W,0.38,181.06,020811,,,A*70
$GPRMC,180014.000,A,3748.7952,N,12217.8619,W,0.48,178.46,020811,,,A*7A
$GPRMC,180015.000,A,3748.7958,N,12217.8625,W,0.94,154.92,020811,,,A*78
$GPRMC,180016.000,A,3748.7949,N,12217.8625,W,1.03,155.85,020811,,,A*73
$GPRMC,180017.000,A,3748.7941,N,12217.8623,W,0.78,149.06,020811,,,A*77
$GPRMC,180018.000,A,3748.7942,N,12217.8622,W,0.77,147.76,020811,,,A*7C
$GPRMC,180019.000,A,3748.7942,N,12217.8622,W,0.43,78.09,020811,,,A*4F
$GPRMC,180020.000,A,3748.7940,N,12217.8622,W,0.38,112.02,020811,,,A*7D
$GPRMC,180021.000,A,3748.7935,N,12217.8617,W,0.32,100.42,020811,,,A*75
$GPRMC,180022.000,A,3748.7933,N,12217.8617,W,0.32,131.67,020811,,,A*75
$GPRMC,180023.000,A,3748.7933,N,12217.8619,W,0.35,129.05,020811,,,A*70
$GPRMC,180024.000,A,3748.7936,N,12217.8619,W,0.59,37.24,020811,,,A*45
$GPRMC,180025.000,A,3748.7941,N,12217.8620,W,0.74,23.67,020811,,,A*43
$GPRMC,180026.000,A,3748.7946,N,12217.8620,W,0.55,18.15,020811,,,A*49
$GPRMC,180027.000,A,3748.7945,N,12217.8620,W,0.16,179.27,020811,,,A*7B
$GPRMC,180028.000,A,3748.7947,N,12217.8617,W,0.16,142.99,020811,,,A*7F
$GPRMC,180029.000,A,3748.7950,N,12217.8614,W,0.10,8.37,020811,,,A*76
$GPRMC,180030.000,A,3748.7953,N,12217.8611,W,0.30,148.16,020811,,,A*7C
$GPRMC,180031.000,A,3748.7950,N,12217.8607,W,0.19,141.42,020811,,,A*7A
$GPRMC,180032.000,A,3748.7945,N,12217.8603,W,0.36,144.85,020811,,,A*7A
$GPRMC,180033.000,A,3748.7950,N,12217.8603,W,0.06,102.70,020811,,,A*74
$GPRMC,180034.000,A,3748.7956,N,12217.8609,W,0.08,302.49,020811,,,A*79
$GPRMC,180035.000,A,3748.7953,N,12217.8609,W,0.04,1.89,020811,,,A*7D
$GPRMC,180036.000,A,3748.7952,N,12217.8610,W,0.09,284.55,020811,,,A*74
$GPRMC,180037.000,A,3748.7948,N,12217.8610,W,0.10,257.40,020811,,,A*7C
$GPRMC,180038.000,A,3748.7948,N,12217.8611,W,0.11,256.91,020811,,,A*7E
$GPRMC,180039.000,A,3748.7941,N,12217.8608,W,0.08,5.90,020811,,,A*73
$GPRMC,180040.000,A,3748.7933,N,12217.8602,W,0.12,176.87,020811,,,A*7A
$GPRMC,180041.000,A,3748.7929,N,12217.8600,W,0.19,176.94,020811,,,A*7B
$GPRMC,180042.000,A,3748.7924,N,12217.8599,W,0.07,146.60,020811,,,A*71
$GPRMC,180043.000,A,3748.7928,N,12217.8598,W,0.26,110.97,020811,,,A*75
$GPRMC,180044.000,A,3748.7925,N,12217.8594,W,0.29,165.03,020811,,,A*73
$GPRMC,180045.000,A,3748.7922,N,12217.8592,W,0.58,121.55,020811,,,A*76
$GPRMC,180046.000,A,3748.7920,N,12217.8590,W,0.34,102.39,020811,,,A*74
$GPRMC,180047.000,A,3748.7922,N,12217.8586,W,0.20,38.08,020811,,,A*4F
$GPRMC,180048.000,A,3748.7924,N,12217.8587,W,0.31,80.57,020811,,,A*4E
$GPRMC,180049.000,A,3748.7926,N,12217.8584,W,0.22,24.65,020811,,,A*43
$GPRMC,180050.000,A,3748.7928,N,12217.8581,W,0.11,71.74,020811,,,A*40
$GPRMC,180051.000,A,3748.7934,N,12217.8585,W,0.17,203.48,020811,,,A*76
$GPRMC,180052.000,A,3748.7938,N,12217.8587,W,0.15,123.32,020811,,,A*75
$GPRMC,180053.000,A,3748.7942,N,12217.8588,W,0.18,80.41,020811,,,A*47
$GPRMC,180054.000,A,3748.7946,N,12217.8590,W,0.15,329.30,020811,,,A*76
$GPRMC,180055.000,A,3748.7949,N,12217.8592,W,0.21,298.71,020811,,,A*73
$GPRMC,180056.000,A,3748.7950,N,12217.8592,W,0.04,40.11,020811,,,A*4E
$GPRMC,180057.000,A,3748.7953,N,12217.8593,W,0.06,102.51,020811,,,A*7C
$GPRMC,180058.000,A,3748.7954,N,12217.8593,W,0.33,146.57,020811,,,A*74
$GPRMC,180059.000,A,3748.7957,N,12217.8594,W,0.21,14.45,020811,,,A*47
$GPRMC,180100.000,A,3748.7960,N,12217.8596,W,0.39,337.47,020811,,,A*75
$GPRMC,180101.000,A,3748.7964,N,12217.8592,W,0.30,11.76,020811,,,A*48
$GPRMC,180102.000,A,3748.7968,N,12217.8585,W,0.71,34.58,020811,,,A*4F
$GPRMC,180103.000,A,3748.7970,N,12217.8584,W,0.10,132.21,020811,,,A*78
$GPRMC,180104.000,A,3748.7969,N,12217.8583,W,0.14,153.02,020811,,,A*72
$GPRMC,180105.000,A,3748.7970,N,12217.8583,W,0.07,299.17,020811,,,A*78
$GPRMC,180106.000,A,3748.7970,N,12217.8584,W,0.44,259.72,020811,,,A*74
$GPRMC,180107.000,A,3748.7970,N,12217.8586,W,0.36,347.77,020811,,,A*79
$GPRMC,180108.000,A,3748.7975,N,12217.8589,W,0.26,47.76,020811,,,A*4F
$GPRMC,180109.000,A,3748.7976,N,12217.8590,W,0.25,12.88,020811,,,A*47
$GPRMC,180110.000,A,3748.7976,N,12217.8590,W,0.26,8.34,020811,,,A*70
$GPRMC,180111.000,A,3748.7978,N,12217.8589,W,0.46,120.88,020811,,,A*7D
$GPRMC,180112.000,A,3748.7980,N,12217.8589,W,0.39,59.37,020811,,,A*4A
$GPRMC,180113.000,A,3748.7981,N,12217.8590,W,0.19,282.66,020811,,,A*70
$GPRMC,180114.000,A,3748.7988,N,12217.8594,W,0.33,227.90,020811,,,A*74
$GPRMC,180115.000,A,3748.7995,N,12217.8607,W,0.27,29.70,020811,,,A*47
$GPRMC,180116.000,A,3748.8001,N,12217.8611,W,0.33,347.69,020811,,,A*7E
$GPRMC,180117.000,A,3748.8004,N,12217.8616,W,0.06,231.10,020811,,,A*75
$GPRMC,180118.000,A,3748.8006,N,12217.8619,W,0.10,230.67,020811,,,A*71
$GPRMC,180119.000,A,3748.8008,N,12217.8621,W,0.18,342.15,020811,,,A*7C
$GPRMC,180120.000,A,3748.8009,N,12217.8623,W,0.20,77.08,020811,,,A*47
$GPRMC,180121.000,A,3748.8009,N,12217.8621,W,0.20,137.52,020811,,,A*7E
$GPRMC,180122.000,A,3748.8008,N,12217.8621,W,0.01,295.26,020811,,,A*77
$GPRMC,180123.000,A,3748.8009,N,12217.8622,W,0.10,313.12,020811,,,A*7C
$GPRMC,180124.000,A,3748.8007,N,12217.8621,W,0.07,35.80,020811,,,A*4C
$GPRMC,180125.000,A,3748.8008,N,12217.8621,W,0.06,53.33,020811,,,A*4B
$GPRMC,180126.000,A,3748.8007,N,12217.8621,W,0.02,350.95,020811,,,A*7F
$GPRMC,180127.000,A,3748.8002,N,12217.8615,W,0.16,81.93,020811,,,A*40
$GPRMC,180128.000,A,3748.7996,N,12217.8610,W,0.15,145.25,020811,,,A*76
$GPRMC,180129.000,A,3748.7993,N,12217.8605,W,0.12,115.29,020811,,,A*78
$GPRMC,180130.000,A,3748.7990,N,12217.8602,W,0.13,127.95,020811,,,A*73
$GPRMC,180131.000,A,3748.7990,N,12217.8600,W,0.10,111.30,020811,,,A*79
$GPRMC,180132.000,A,3748.7988,N,12217.8599,W,0.10,124.33,020811,,,A*75
$GPRMC,180133.000,A,3748.7987,N,12217.8597,W,0.12,160.31,020811,,,A*75
$GPRMC,180134.000,A,3748.7987,N,12217.8595,W,0.21,138.58,020811,,,A*72
$GPRMC,180135.000,A,3748.7987,N,12217.8595,W,0.09,162.94,020811,,,A*76
$GPRMC,180136.000,A,3748.7985,N,12217.8592,W,0.21,165.74,020811,,,A*73
$GPRMC,180137.000,A,3748.7984,N,12217.8590,W,0.14,107.65,020811,,,A*73
$GPRMC,180138.000,A,3748.7982,N,12217.8587,W,0.14,113.09,020811,,,A*73
$GPRMC,180139.000,A,3748.7979,N,12217.8584,W,0.22,160.97,020811,,,A*73
$GPRMC,180140.000,A,3748.7979,N,12217.8583,W,0.13,119.70,020811,,,A*7F
$GPRMC,180141.000,A,3748.7978,N,12217.8584,W,0.13,112.31,020811,,,A*76
$GPRMC,180142.000,A,3748.7978,N,12217.8584,W,0.13,91.07,020811,,,A*4A
$GPRMC,180143.000,A,3748.7978,N,12217.8584,W,0.11,81.05,020811,,,A*4A
$GPRMC,180144.000,A,3748.7978,N,12217.8584,W,0.13,65.62,020811,,,A*44
$GPRMC,180145.000,A,3748.7978,N,12217.8584,W,0.11,76.49,020811,,,A*4C
$GPRMC,180146.000,A,3748.7978,N,12217.8584,W,0.09,69.44,020811,,,A*45
$GPRMC,180147.000,A,3748.7978,N,12217.8585,W,0.06,185.36,020811,,,A*7C
$GPRMC,180148.000,A,3748.7977,N,12217.8585,W,0.04,83.39,020811,,,A*46
$GPRMC,180149.000,A,3748.7976,N,12217.8587,W,0.02,248.76,020811,,,A*7C
$GPRMC,180150.000,A,3748.7973,N,12217.8590,W,0.05,274.62,020811,,,A*7A
$GPRMC,180151.000,A,3748.7973,N,12217.8589,W,0.06,253.15,020811,,,A*75
$GPRMC,180152.000,A,3748.7965,N,12217.8589,W,0.18,146.24,020811,,,A*7B
$GPRMC,180153.000,A,3748.7959,N,12217.8588,W,0.17,161.27,020811,,,A*7D
$GPRMC,180154.000,A,3748.7954,N,12217.8585,W,0.17,137.38,020811,,,A*77
$GPRMC,180155.000,A,3748.7953,N,12217.8582,W,0.17,129.38,020811,,,A*79
$GPRMC,180156.000,A,3748.7952,N,12217.8580,W,0.18,133.04,020811,,,A*72
$GPRMC,180157.000,A,3748.7951,N,12217.8579,W,0.20,154.65,020811,,,A*7B
$GPRMC,180158.000,A,3748.7951,N,12217.8580,W,0.15,142.14,020811,,,A*75
$GPRMC,180159.000,A,3748.7950,N,12217.8578,W,0.11,121.42,020811,,,A*70
$GPRMC,180200.000,A,3748.7951,N,12217.8579,W,0.11,140.27,020811,,,A*7B
$GPRMC,180201.000,A,3748.7951,N,12217.8580,W,0.07,138.16,020811,,,A*76
$GPRMC,180202.000,A,3748.7950,N,12217.8581,W,0.31,243.87,020811,,,A*77
$GPRMC,180203.000,A,3748.7946,N,12217.8586,W,1.35,216.29,020811,,,A*77
$GPRMC,180204.000,A,3748.7944,N,12217.8593,W,2.14,217.13,020811,,,A*7E
$GPRMC,180205.000,A,3748.7940,N,12217.8601,W,2.44,210.61,020811,,,A*74
$GPRMC,180206.000,A,3748.7935,N,12217.8608,W,2.18,207.44,020811,,,A*74
$GPRMC,180207.000,A,3748.7931,N,12217.8614,W,2.07,216.60,020811,,,A*74
$GPRMC,180208.000,A,3748.7927,N,12217.8621,W,1.95,221.36,020811,,,A*75
$GPRMC,180209.000,A,3748.7927,N,12217.8630,W,1.94,213.28,020811,,,A*7B
$GPRMC,180210.000,A,3748.7925,N,12217.8636,W,1.94,219.71,020811,,,A*71
$GPRMC,180211.000,A,3748.7921,N,12217.8644,W,2.24,214.23,020811,,,A*73
$GPRMC,180212.000,A,3748.7913,N,12217.8652,W,2.06,208.11,020811,,,A*7A
$GPRMC,180213.000,A,3748.7906,N,12217.8658,W,1.38,210.41,020811,,,A*77
$GPRMC,180214.000,A,3748.7902,N,12217.8663,W,0.63,203.96,020811,,,A*7B
$GPRMC,180215.000,A,3748.7900,N,12217.8670,W,0.88,194.99,020811,,,A*7D
$GPRMC,180216.000,A,3748.7898,N,12217.8675,W,1.01,214.59,020811,,,A*7C
$GPRMC,180217.000,A,3748.7895,N,12217.8681,W,1.39,168.32,020811,,,A*75
$GPRMC,180218.000,A,3748.7894,N,12217.8682,W,1.39,157.14,020811,,,A*70
$GPRMC,180219.000,A,3748.7894,N,12217.8684,W,1.38,191.48,020811,,,A*75
$GPRMC,180220.000,A,3748.7895,N,12217.8691,W,1.02,196.57,020811,,,A*7A
$GPRMC,180221.000,A,3748.7889,N,12217.8698,W,1.38,224.86,020811,,,A*70
$GPRMC,180222.000,A,3748.7885,N,12217.8702,W,1.51,202.48,020811,,,A*74
$GPRMC,180223.000,A,3748.7876,N,12217.8706,W,1.58,197.66,020811,,,A*77
$GPRMC,180224.000,A,3748.7869,N,12217.8710,W,1.48,223.56,020811,,,A*77
$GPRMC,180225.000,A,3748.7863,N,12217.8715,W,1.78,214.31,020811,,,A*7F
$GPRMC,180226.000,A,3748.7859,N,12217.8725,W,1.52,230.41,020811,,,A*7F
$GPRMC,180227.000,A,3748.7860,N,12217.8738,W,1.73,238.66,020811,,,A*76
$GPRMC,180228.000,A,3748.7858,N,12217.8745,W,1.37,222.29,020811,,,A*78
$GPRMC,180229.000,A,3748.7861,N,12217.8753,W,1.10,211.42,020811,,,A*7C
$GPRMC,180230.000,A,3748.7855,N,12217.8757,W,1.34,178.87,020811,,,A*74
$GPRMC,180231.000,A,3748.7856,N,12217.8761,W,1.63,173.72,020811,,,A*70
$GPRMC,180232.000,A,3748.7857,N,12217.8772,W,1.31,206.69,020811,,,A*7C
$GPRMC,180233.000,A,3748.7855,N,12217.8778,W,1.19,209.89,020811,,,A*7E
$GPRMC,180234.000,A,3748.7850,N,12217.8782,W,1.52,193.27,020811,,,A*72
$GPRMC,180235.000,A,3748.7848,N,12217.8788,W,1.25,204.47,020811,,,A*7B
$GPRMC,180236.000,A,3748.7843,N,12217.8791,W,1.36,202.03,020811,,,A*7F
$GPRMC,180237.000,A,3748.7845,N,12217.8802,W,1.21,208.81,020811,,,A*7B
$GPRMC,180238.000,A,3748.7842,N,12217.8805,W,1.00,215.72,020811,,,A*77
$GPRMC,180239.000,A,3748.7841,N,12217.8809,W,1.05,210.08,020811,,,A*74
$GPRMC,180240.000,A,3748.7839,N,12217.8813,W,1.16,231.17,020811,,,A*71
$GPRMC,180241.000,A,3748.7839,N,12217.8820,W,1.20,225.84,020811,,,A*7A
$GPRMC,180242.000,A,3748.7840,N,12217.8826,W,1.32,213.79,020811,,,A*75
$GPRMC,180243.000,A,3748.7843,N,12217.8835,W,1.30,222.71,020811,,,A*7D
$GPRMC,180244.000,A,3748.7843,N,12217.8841,W,1.42,211.35,020811,,,A*7C
$GPRMC,180245.000,A,3748.7844,N,12217.8850,W,1.55,214.30,020811,,,A*7C
$GPRMC,180246.000,A,3748.7843,N,12217.8857,W,1.41,210.10,020811,,,A*7C
$GPRMC,180247.000,A,3748.7839,N,12217.8861,W,1.78,201.65,020811,,,A*7D
$GPRMC,180248.000,A,3748.7836,N,12217.8866,W,1.80,208.02,020811,,,A*75
$GPRMC,180249.000,A,3748.7834,N,12217.8870,W,1.61,207.80,020811,,,A*7B
$GPRMC,180250.000,A,3748.7833,N,12217.8875,W,1.58,206.70,020811,,,A*75
$GPRMC,180251.000,A,3748.7831,N,12217.8893,W,1.57,217.49,020811,,,A*7B
$GPRMC,180252.000,A,3748.7828,N,12217.8905,W,1.64,232.35,020811,,,A*72
$GPRMC,180253.000,A,3748.7823,N,12217.8916,W,1.33,207.91,020811,,,A*70
$GPRMC,180254.000,A,3748.7821,N,12217.8920,W,1.30,231.81,020811,,,A*77
$GPRMC,180255.000,A,3748.7818,N,12217.8933,W,1.32,225.36,020811,,,A*75
$GPRMC,180256.000,A,3748.7818,N,12217.8950,W,1.26,230.67,020811,,,A*76
$GPRMC,180257.000,A,3748.7819,N,12217.8965,W,1.68,238.06,020811,,,A*75
$GPRMC,180258.000,A,3748.7820,N,12217.8976,W,1.39,247.18,020811,,,A*71
$GPRMC,180259.000,A,3748.7825,N,12217.8990,W,1.72,257.16,020811,,,A*7D
$GPRMC,180300.000,A,3748.7827,N,12217.9003,W,1.36,260.15,020811,,,A*77
$GPRMC,180301.000,A,3748.7822,N,12217.9011,W,1.50,246.05,020811,,,A*75
$GPRMC,180302.000,A,3748.7825,N,12217.9020,W,1.25,244.51,020811,,,A*72
$GPRMC,180303.000,A,3748.7823,N,12217.9025,W,1.33,229.34,020811,,,A*7F
$GPRMC,180304.000,A,3748.7820,N,12217.9029,W,1.29,219.73,020811,,,A*7C
$GPRMC,180305.000,A,3748.7815,N,12217.9032,W,1.26,220.81,020811,,,A*79
$GPRMC,180306.000,A,3748.7811,N,12217.9036,W,1.35,222.93,020811,,,A*79
$GPRMC,180307.000,A,3748.7805,N,12217.9037,W,1.63,214.46,020811,,,A*72
$GPRMC,180308.000,A,3748.7798,N,12217.9040,W,1.59,173.26,020811,,,A*7B
$GPRMC,180309.000,A,3748.7789,N,12217.9038,W,1.71,175.58,020811,,,A*70
$GPRMC,180310.000,A,3748.7785,N,12217.9038,W,1.42,190.09,020811,,,A*7B
$GPRMC,180311.000,A,3748.7781,N,12217.9041,W,1.43,195.70,020811,,,A*7A
$GPRMC,180312.000,A,3748.7774,N,12217.9038,W,1.51,189.25,020811,,,A*73
$GPRMC,180313.000,A,3748.7770,N,12217.9040,W,1.42,202.32,020811,,,A*7D
$GPRMC,180314.000,A,3748.7763,N,12217.9038,W,1.36,206.85,020811,,,A*7C
$GPRMC,180315.000,A,3748.7757,N,12217.9037,W,1.28,198.74,020811,,,A*70
$GPRMC,180316.000,A,3748.7742,N,12217.9030,W,1.38,224.11,020811,,,A*76
$GPRMC,180317.000,A,3748.7731,N,12217.9026,W,1.50,235.30,020811,,,A*79
$GPRMC,180318.000,A,3748.7723,N,12217.9025,W,1.42,234.28,020811,,,A*7D
$GPRMC,180319.000,A,3748.7719,N,12217.9028,W,1.66,231.12,020811,,,A*72
$GPRMC,180320.000,A,3748.7708,N,12217.9031,W,1.41,219.78,020811,,,A*73
$GPRMC,180321.000,A,3748.7699,N,12217.9039,W,1.62,209.45,020811,,,A*7D
$GPRMC,180322.000,A,3748.7693,N,12217.9047,W,1.03,181.22,020811,,,A*78
$GPRMC,180323.000,A,3748.7687,N,12217.9056,W,0.94,192.93,020811,,,A*7B
$GPRMC,180324.000,A,3748.7672,N,12217.9051,W,1.22,184.90,020811,,,A*79
$GPRMC,180325.000,A,3748.7662,N,12217.9049,W,1.21,188.62,020811,,,A*72
$GPRMC,180326.000,A,3748.7652,N,12217.9049,W,1.45,197.94,020811,,,A*77
$GPRMC,180327.000,A,3748.7648,N,12217.9052,W,1.02,202.27,020811,,,A*73
$GPRMC,180328.000,A,3748.7642,N,12217.9059,W,1.34,233.60,020811,,,A*79
$GPRMC,180329.000,A,3748.7637,N,12217.9067,W,1.48,235.64,020811,,,A*7E
$GPRMC,180330.000,A,3748.7632,N,12217.9074,W,1.17,228.99,020811,,,A*75
$GPRMC,180331.000,A,3748.7629,N,12217.9080,W,1.27,247.71,020811,,,A*79
$GPRMC,180332.000,A,3748.7620,N,12217.9085,W,1.87,216.49,020811,,,A*73
$GPRMC,180333.000,A,3748.7607,N,12217.9090,W,1.67,213.77,020811,,,A*75
$GPRMC,180334.000,A,3748.7599,N,12217.9099,W,1.68,214.55,020811,,,A*77
$GPRMC,180335.000,A,3748.7591,N,12217.9108,W,1.75,215.75,020811,,,A*78
$GPRMC,180336.000,A,3748.7581,N,12217.9114,W,1.77,218.84,020811,,,A*76
$GPRMC,180337.000,A,3748.7574,N,12217.9123,W,1.81,216.30,020811,,,A*71
$GPRMC,180338.000,A,3748.7565,N,12217.9126,W,1.70,211.42,020811,,,A*77
$GPRMC,180339.000,A,3748.7557,N,12217.9136,W,1.39,229.40,020811,,,A*72
$GPRMC,180340.000,A,3748.7547,N,12217.9140,W,1.13,216.16,020811,,,A*7B
$GPRMC,180341.000,A,3748.7537,N,12217.9142,W,2.11,209.98,020811,,,A*76
$GPRMC,180342.000,A,3748.7527,N,12217.9145,W,2.05,209.94,020811,,,A*7A
$GPRMC,180343.000,A,3748.7515,N,12217.9149,W,2.44,213.06,020811,,,A*73
$GPRMC,180344.000,A,3748.7504,N,12217.9153,W,2.21,207.46,020811,,,A*7D
$GPRMC,180345.000,A,3748.7495,N,12217.9156,W,2.13,202.31,020811,,,A*74
$GPRMC,180346.000,A,3748.7485,N,12217.9162,W,2.14,202.34,020811,,,A*73
$GPRMC,180347.000,A,3748.7475,N,12217.9164,W,2.12,206.29,020811,,,A*75
$GPRMC,180348.000,A,3748.7464,N,12217.9166,W,2.15,198.31,020811,,,A*72
$GPRMC,180349.000,A,3748.7454,N,12217.9168,W,2.23,184.36,020811,,,A*71
$GPRMC,180350.000,A,3748.7443,N,12217.9172,W,1.91,191.04,020811,,,A*7B
$GPRMC,180351.000,A,3748.7431,N,12217.9173,W,1.95,194.53,020811,,,A*7D
$GPRMC,180352.000,A,3748.7411,N,12217.9180,W,1.78,212.19,020811,,,A*70
$GPRMC,180353.000,A,3748.7407,N,12217.9190,W,1.91,211.42,020811,,,A*7D
$GPRMC,180354.000,A,3748.7401,N,12217.9194,W,1.98,203.35,020811,,,A*72
$GPRMC,180355.000,A,3748.7395,N,12217.9201,W,2.01,209.79,020811,,,A*77
$GPRMC,180356.000,A,3748.7388,N,12217.9207,W,2.39,210.32,020811,,,A*72
$GPRMC,180357.000,A,3748.7379,N,12217.9214,W,2.28,207.13,020811,,,A*7A
$GPRMC,180358.000,A,3748.7371,N,12217.9221,W,2.26,204.49,020811,,,A*79
$GPRMC,180359.000,A,3748.7362,N,12217.9227,W,2.14,204.73,020811,,,A*74
$GPRMC,180400.000,A,3748.7357,N,12217.9237,W,2.40,209.74,020811,,,A*73
$GPRMC,180401.000,A,3748.7350,N,12217.9246,W,2.33,199.67,020811,,,A*7F
$GPRMC,180402.000,A,3748.7343,N,12217.9253,W,2.51,200.77,020811,,,A*7C
$GPRMC,180403.000,A,3748.7334,N,12217.9260,W,2.08,207.67,020811,,,A*77
$GPRMC,180404.000,A,3748.7328,N,12217.9267,W,2.14,205.85,020811,,,D*7C
$GPRMC,180405.000,A,3748.7324,N,12217.9274,W,2.16,194.78,020811,,,D*78
$GPRMC,180406.000,A,3748.7320,N,12217.9280,W,1.78,192.95,020811,,,D*7A
$GPRMC,180407.000,A,3748.7314,N,12217.9286,W,1.50,206.10,020811,,,D*73
$GPRMC,180408.000,A,3748.7309,N,12217.9289,W,1.39,205.31,020811,,,D*70
$GPRMC,180409.000,A,3748.7304,N,12217.9296,W,1.27,243.77,020811,,,D*7D
$GPRMC,180410.000,A,3748.7299,N,12217.9299,W,1.63,223.15,020811,,,D*7D
$GPRMC,180411.000,A,3748.7296,N,12217.9304,W,1.41,220.92,020811,,,D*7A
$GPRMC,180412.000,A,3748.7294,N,12217.9307,W,1.31,212.43,020811,,,D*72
$GPRMC,180413.000,A,3748.7290,N,12217.9310,W,1.87,204.36,020811,,,D*79
$GPRMC,180414.000,A,3748.7283,N,12217.9315,W,2.26,214.82,020811,,,D*7F
$GPRMC,180415.000,A,3748.7273,N,12217.9326,W,2.18,219.06,020811,,,D*7D
$GPRMC,180416.000,A,3748.7262,N,12217.9332,W,2.60,207.96,020811,,,D*72
$GPRMC,180417.000,A,3748.7256,N,12217.9340,W,2.10,210.11,020811,,,D*7F
$GPRMC,180418.000,A,3748.7251,N,12217.9348,W,2.00,211.98,020811,,,D*7E
$GPRMC,180419.000,A,3748.7247,N,12217.9358,W,1.97,214.07,020811,,,D*77
$GPRMC,180420.000,A,3748.7243,N,12217.9361,W,1.99,197.07,020811,,,D*75
$GPRMC,180421.000,A,3748.7241,N,12217.9364,W,1.76,189.74,020811,,,D*79
$GPRMC,180422.000,A,3748.7241,N,12217.9368,W,2.03,188.47,020811,,,D*76
$GPRMC,180423.000,A,3748.7238,N,12217.9384,W,2.14,198.02,020811,,,D*7D
$GPRMC,180424.000,A,3748.7238,N,12217.9392,W,2.03,198.17,020811,,,D*7F
$GPRMC,180425.000,A,3748.7234,N,12217.9404,W,1.75,194.05,020811,,,D*77
$GPRMC,180426.000,A,3748.7227,N,12217.9413,W,2.48,206.97,020811,,,D*7E
$GPRMC,180427.000,A,3748.7222,N,12217.9418,W,1.91,208.07,020811,,,D*71
$GPRMC,180428.000,A,3748.7219,N,12217.9421,W,1.90,207.18,020811,,,D*7C
$GPRMC,180429.000,A,3748.7212,N,12217.9430,W,1.71,203.99,020811,,,D*74
$GPRMC,180430.000,A,3748.7202,N,12217.9429,W,1.90,191.21,020811,,,D*71
$GPRMC,180431.000,A,3748.7191,N,12217.9427,W,2.37,187.28,020811,,,D*77
$GPRMC,180432.000,A,3748.7180,N,12217.9431,W,2.32,197.74,020811,,,D*7E
$GPRMC,180433.000,A,3748.7171,N,12217.9437,W,2.09,205.25,020811,,,D*73
$GPRMC,180434.000,A,3748.7163,N,12217.9443,W,1.87,207.12,020811,,,D*77
$GPRMC,180435.000,A,3748.7155,N,12217.9449,W,2.24,203.24,020811,,,D*72
$GPRMC,180436.000,A,3748.7148,N,12217.9455,W,2.31,194.95,020811,,,D*73
$GPRMC,180437.000,A,3748.7140,N,12217.9460,W,2.07,193.32,020811,,,D*73
$GPRMC,180438.000,A,3748.7136,N,12217.9463,W,1.97,205.30,020811,,,D*7A
$GPRMC,180439.000,A,3748.7133,N,12217.9466,W,1.85,199.99,020811,,,D*7D
$GPRMC,180440.000,A,3748.7129,N,12217.9470,W,1.74,207.99,020811,,,D*75
$GPRMC,180441.000,A,3748.7121,N,12217.9480,W,2.15,222.80,020811,,,D*78
$GPRMC,180442.000,A,3748.7115,N,12217.9490,W,1.99,212.39,020811,,,D*7B
$GPRMC,180443.000,A,3748.7105,N,12217.9491,W,2.03,197.48,020811,,,D*72
$GPRMC,180444.000,A,3748.7101,N,12217.9495,W,2.06,217.64,020811,,,D*75
$GPRMC,180445.000,A,3748.7096,N,12217.9501,W,2.36,203.41,020811,,,D*76
$GPRMC,180446.000,A,3748.7091,N,12217.9504,W,2.18,203.04,020811,,,D*7A
$GPRMC,180447.000,A,3748.7085,N,12217.9508,W,1.98,202.51,020811,,,D*78
$GPRMC,180448.000,A,3748.7072,N,12217.9509,W,1.95,201.31,020811,,,D*76
$GPRMC,180449.000,A,3748.7062,N,12217.9512,W,2.01,195.16,020811,,,D*79
$GPRMC,180450.000,A,3748.7051,N,12217.9510,W,2.10,196.17,020811,,,D*71
$GPRMC,180451.000,A,3748.7041,N,12217.9508,W,1.96,192.18,020811,,,D*7E
$GPRMC,180452.000,A,3748.7033,N,12217.9512,W,1.75,196.35,020811,,,D*75
$GPRMC,180453.000,A,3748.7023,N,12217.9513,W,1.79,192.05,020811,,,D*7F
$GPRMC,180454.000,A,3748.7017,N,12217.9516,W,1.66,193.20,020811,,,D*72
$GPRMC,180455.000,A,3748.7009,N,12217.9519,W,2.23,191.70,020811,,,D*76
$GPRMC,180456.000,A,3748.7002,N,12217.9523,W,2.18,206.60,020811,,,D*73
$GPRMC,180457.000,A,3748.6998,N,12217.9536,W,2.38,219.11,020811,,,D*77
$GPRMC,180458.000,A,3748.6994,N,12217.9546,W,2.00,217.90,020811,,,D*7F
$GPRMC,180459.000,A,3748.6985,N,12217.9553,W,2.03,201.90,020811,,,D*7E
$GPRMC,180500.000,A,3748.6978,N,12217.9558,W,1.99,200.98,020811,,,D*73
$GPRMC,180501.000,A,3748.6971,N,12217.9563,W,2.08,200.79,020811,,,D*77
$GPRMC,180502.000,A,3748.6963,N,12217.9569,W,2.33,209.25,020811,,,D*75
$GPRMC,180503.000,A,3748.6956,N,12217.9574,W,2.03,207.63,020811,,,D*71
$GPRMC,180504.000,A,3748.6948,N,12217.9579,W,2.00,211.80,020811,,,D*7D
$GPRMC,180505.000,A,3748.6940,N,12217.9583,W,1.97,221.03,020811,,,D*74
$GPRMC,180506.000,A,3748.6932,N,12217.9585,W,2.19,189.64,020811,,,D*71
$GPRMC,180507.000,A,3748.6926,N,12217.9586,W,1.95,199.60,020811,,,D*74
$GPRMC,180508.000,A,3748.6921,N,12217.9586,W,1.98,206.85,020811,,,D*7F
$GPRMC,180509.000,A,3748.6912,N,12217.9588,W,1.93,202.91,020811,,,D*7A
$GPRMC,180510.000,A,3748.6904,N,12217.9593,W,1.90,200.44,020811,,,D*76
$GPRMC,180511.000,A,3748.6902,N,12217.9598,W,2.22,208.90,020811,,,D*71
$GPRMC,180512.000,A,3748.6897,N,12217.9604,W,1.86,208.08,020811,,,D*75
$GPRMC,180513.000,A,3748.6893,N,12217.9608,W,2.03,205.17,020811,,,D*71
$GPRMC,180514.000,A,3748.6883,N,12217.9616,W,1.96,200.35,020811,,,D*72
$GPRMC,180515.000,A,3748.6870,N,12217.9623,W,2.24,189.05,020811,,,D*72
$GPRMC,180516.000,A,3748.6857,N,12217.9625,W,2.15,187.81,020811,,,D*72
$GPRMC,180517.000,A,3748.6850,N,12217.9629,W,2.16,188.66,020811,,,D*7D
$GPRMC,180518.000,A,3748.6843,N,12217.9631,W,2.24,217.25,020811,,,D*7A
$GPRMC,180519.000,A,3748.6835,N,12217.9634,W,2.10,219.88,020811,,,D*71
$GPRMC,180520.000,A,3748.6828,N,12217.9636,W,1.95,211.98,020811,,,D*72
$GPRMC,180521.000,A,3748.6821,N,12217.9638,W,2.17,209.60,020811,,,D*73
$GPRMC,180522.000,A,3748.6815,N,12217.9641,W,2.02,215.75,020811,,,D*74
$GPRMC,180523.000,A,3748.6808,N,12217.9643,W,1.91,215.13,020811,,,D*72
$GPRMC,180524.000,A,3748.6803,N,12217.9646,W,1.74,215.99,020811,,,D*72
$GPRMC,180525.000,A,3748.6796,N,12217.9648,W,1.72,207.32,020811,,,D*7A
$GPRMC,180526.000,A,3748.6788,N,12217.9650,W,1.78,204.38,020811,,,D*7C
$GPRMC,180527.000,A,3748.6784,N,12217.9653,W,1.61,190.57,020811,,,D*7D
$GPRMC,180528.000,A,3748.6774,N,12217.9657,W,1.81,181.95,020811,,,D*79
$GPRMC,180529.000,A,3748.6765,N,12217.9663,W,1.95,201.53,020811,,,D*7B
$GPRMC,180530.000,A,3748.6759,N,12217.9668,W,1.79,198.66,020811,,,D*70
$GPRMC,180531.000,A,3748.6750,N,12217.9674,W,2.17,203.34,020811,,,D*78
$GPRMC,180532.000,A,3748.6746,N,12217.9679,W,2.14,197.30,020811,,,D*78
$GPRMC,180533.000,A,3748.6741,N,12217.9683,W,1.96,201.09,020811,,,D*74
$GPRMC,180534.000,A,3748.6738,N,12217.9687,W,2.12,190.82,020811,,,D*7E
$GPRMC,180535.000,A,3748.6735,N,12217.9700,W,1.42,192.46,020811,,,D*70
$GPRMC,180536.000,A,3748.6733,N,12217.9710,W,1.72,191.67,020811,,,D*77
$GPRMC,180537.000,A,3748.6728,N,12217.9709,W,1.56,194.83,020811,,,D*7D
$GPRMC,180538.000,A,3748.6724,N,12217.9711,W,1.85,212.93,020811,,,D*75
$GPRMC,180539.000,A,3748.6722,N,12217.9710,W,1.37,209.62,020811,,,D*7E
$GPRMC,180540.000,A,3748.6721,N,12217.9715,W,1.46,202.25,020811,,,D*78
$GPRMC,180541.000,A,3748.6718,N,12217.9723,W,1.59,207.24,020811,,,A*79
$GPRMC,180542.000,A,3748.6717,N,12217.9730,W,1.50,207.22,020811,,,A*78
$GPRMC,180543.000,A,3748.6717,N,12217.9733,W,0.97,199.65,020811,,,A*77
$GPRMC,180544.000,A,3748.6714,N,12217.9735,W,0.95,206.05,020811,,,A*74
$GPRMC,180545.000,A,3748.6712,N,12217.9736,W,0.73,213.71,020811,,,A*7F
$GPRMC,180546.000,A,3748.6709,N,12217.9738,W,0.81,259.26,020811,,,A*79
$GPRMC,180547.000,A,3748.6709,N,12217.9743,W,0.52,251.56,020811,,,A*75
$GPRMC,180548.000,A,3748.6710,N,12217.9747,W,0.66,255.88,020811,,,A*76
$GPRMC,180549.000,A,3748.6710,N,12217.9753,W,0.96,223.82,020811,,,A*76
$GPRMC,180550.000,A,3748.6709,N,12217.9757,W,0.68,267.55,020811,,,A*79
$GPRMC,180551.000,A,3748.6710,N,12217.9762,W,0.87,250.08,020811,,,A*7B
$GPRMC,180552.000,A,3748.6704,N,12217.9773,W,1.16,248.48,020811,,,A*79
$GPRMC,180553.000,A,3748.6700,N,12217.9783,W,1.27,225.39,020811,,,A*7C
$GPRMC,180554.000,A,3748.6692,N,12217.9792,W,1.71,224.57,020811,,,A*7B
$GPRMC,180555.000,A,3748.6692,N,12217.9797,W,1.06,220.15,020811,,,A*7D
$GPRMC,180556.000,A,3748.6691,N,12217.9800,W,1.30,196.64,020811,,,A*71
$GPRMC,180557.000,A,3748.6687,N,12217.9803,W,1.56,206.22,020811,,,A*7C
$GPRMC,180558.000,A,3748.6684,N,12217.9806,W,1.50,204.60,020811,,,A*77
$GPRMC,180559.000,A,3748.6682,N,12217.9809,W,1.33,199.51,020811,,,A*7F
$GPRMC,180600.000,A,3748.6681,N,12217.9811,W,1.12,194.81,020811,,,A*79
$GPRMC,180601.000,A,3748.6676,N,12217.9815,W,1.01,184.42,020811,,,A*78
$GPRMC,180602.000,A,3748.6678,N,12217.9817,W,0.87,185.07,020811,,,A*78
$GPRMC,180603.000,A,3748.6673,N,12217.9824,W,1.13,209.51,020811,,,A*7A
$GPRMC,180604.000,A,3748.6670,N,12217.9824,W,1.18,219.55,020811,,,A*70
$GPRMC,180605.000,A,3748.6659,N,12217.9821,W,1.80,190.15,020811,,,A*78
$GPRMC,180606.000,A,3748.6653,N,12217.9820,W,1.91,184.28,020811,,,A*7B
$GPRMC,180607.000,A,3748.6651,N,12217.9821,W,1.23,196.74,020811,,,A*7A
$GPRMC,180608.000,A,3748.6645,N,12217.9820,W,1.31,202.82,020811,,,A*75
$GPRMC,180609.000,A,3748.6634,N,12217.9823,W,1.70,211.31,020811,,,A*7E
$GPRMC,180610.000,A,3748.6627,N,12217.9822,W,1.70,179.57,020811,,,A*78
$GPRMC,180611.000,A,3748.6622,N,12217.9822,W,1.18,198.51,020811,,,A*7B
$GPRMC,180612.000,A,3748.6617,N,12217.9823,W,1.60,188.41,020811,,,A*70
$GPRMC,180613.000,A,3748.6609,N,12217.9828,W,1.66,200.33,020811,,,A*75
$GPRMC,180614.000,A,3748.6603,N,12217.9830,W,1.77,210.54,020811,,,A*71
$GPRMC,180615.000,A,3748.6599,N,12217.9834,W,1.53,208.88,020811,,,A*7A
$GPRMC,180616.000,A,3748.6594,N,12217.9836,W,1.95,200.05,020811,,,A*71
$GPRMC,180617.000,A,3748.6592,N,12217.9841,W,1.38,212.01,020811,,,A*76
$GPRMC,180618.000,A,3748.6588,N,12217.9848,W,1.31,206.88,020811,,,A*76
$GPRMC,180619.000,A,3748.6584,N,12217.9850,W,1.38,197.65,020811,,,A*73
$GPRMC,180620.000,A,3748.6583,N,12217.9856,W,1.79,224.84,020811,,,A*79
$GPRMC,180621.000,A,3748.6579,N,12217.9861,W,1.95,202.04,020811,,,A*77
$GPRMC,180622.000,A,3748.6577,N,12217.9865,W,1.71,194.08,020811,,,A*74
$GPRMC,180623.000,A,3748.6572,N,12217.9867,W,2.18,197.25,020811,,,A*72
$GPRMC,180624.000,A,3748.6567,N,12217.9869,W,2.01,187.14,020811,,,A*74
$GPRMC,180625.000,A,3748.6558,N,12217.9875,W,1.99,181.97,020811,,,A*7B
$GPRMC,180626.000,A,3748.6553,N,12217.9879,W,2.33,190.44,020811,,,A*72
$GPRMC,180627.000,A,3748.6550,N,12217.9882,W,2.19,184.10,020811,,,A*78
$GPRMC,180628.000,A,3748.6546,N,12217.9885,W,2.40,188.49,020811,,,A*7B
$GPRMC,180629.000,A,3748.6539,N,12217.9886,W,2.30,190.41,020811,,,A*77
$GPRMC,180630.000,A,3748.6532,N,12217.9888,W,2.27,194.18,020811,,,A*74
$GPRMC,180631.000,A,3748.6523,N,12217.9889,W,2.46,203.26,020811,,,A*73
$GPRMC,180632.000,A,3748.6515,N,12217.9901,W,2.51,207.62,020811,,,A*76
$GPRMC,180633.000,A,3748.6499,N,12217.9918,W,2.43,205.42,020811,,,A*79
$GPRMC,180634.000,A,3748.6492,N,12217.9926,W,2.34,209.34,020811,,,A*75
$GPRMC,180635.000,A,3748.6486,N,12217.9934,W,2.43,209.42,020811,,,A*73
$GPRMC,180636.000,A,3748.6468,N,12217.9942,W,2.57,211.12,020811,,,A*78
$GPRMC,180637.000,A,3748.6457,N,12217.9943,W,2.39,201.37,020811,,,A*7A
$GPRMC,180638.000,A,3748.6449,N,12217.9946,W,2.20,204.82,020811,,,A*7C
$GPRMC,180639.000,A,3748.6437,N,12217.9947,W,2.37,199.88,020811,,,A*7E
$GPRMC,180640.000,A,3748.6429,N,12217.9948,W,2.24,201.69,020811,,,A*7F
$GPRMC,180641.000,A,3748.6419,N,12217.9952,W,2.09,210.16,020811,,,A*71
$GPRMC,180642.000,A,3748.6393,N,12217.9953,W,2.36,201.72,020811,,,A*78
$GPRMC,180643.000,A,3748.6381,N,12217.9962,W,2.24,205.49,020811,,,A*77
$GPRMC,180644.000,A,3748.6372,N,12217.9973,W,2.20,218.09,020811,,,A*70
$GPRMC,180645.000,A,3748.6360,N,12217.9982,W,2.15,206.61,020811,,,A*7B
$GPRMC,180646.000,A,3748.6350,N,12217.9991,W,2.28,191.68,020811,,,A*73
$GPRMC,180647.000,A,3748.6342,N,12218.0000,W,2.37,203.27,020811,,,A*7B
$GPRMC,180648.000,A,3748.6329,N,12218.0010,W,2.26,195.81,020811,,,A*78
$GPRMC,180649.000,A,3748.6323,N,12218.0016,W,2.43,201.00,020811,,,A*71
$GPRMC,180650.000,A,3748.6322,N,12218.0023,W,2.00,191.04,020811,,,A*77
$GPRMC,180651.000,A,3748.6320,N,12218.0026,W,1.85,186.88,020811,,,A*7D
$GPRMC,180652.000,A,3748.6311,N,12218.0032,W,1.17,190.85,020811,,,A*78
$GPRMC,180653.000,A,3748.6305,N,12218.0029,W,1.38,160.01,020811,,,A*78
$GPRMC,180654.000,A,3748.6300,N,12218.0022,W,1.78,125.00,020811,,,A*75
$GPRMC,180655.000,A,3748.6294,N,12218.0015,W,1.97,106.33,020811,,,A*7C
$GPRMC,180656.000,A,3748.6286,N,12218.0008,W,2.12,106.28,020811,,,A*74
$GPRMC,180657.000,A,3748.6280,N,12217.9999,W,2.47,111.15,020811,,,A*7C
$GPRMC,180658.000,A,3748.6275,N,12217.9990,W,2.40,110.38,020811,,,A*79
$GPRMC,180659.000,A,3748.6271,N,12217.9983,W,2.30,108.36,020811,,,A*7E
$GPRMC,180700.000,A,3748.6269,N,12217.9974,W,2.65,110.37,020811,,,A*7A
$GPRMC,180701.000,A,3748.6256,N,12217.9971,W,2.54,114.28,020811,,,A*7A
$GPRMC,180702.000,A,3748.6247,N,12217.9967,W,2.70,114.22,020811,,,A*72
$GPRMC,180703.000,A,3748.6237,N,12217.9965,W,2.71,118.77,020811,,,A*7B
$GPRMC,180704.000,A,3748.6232,N,12217.9958,W,2.50,108.45,020811,,,A*74
$GPRMC,180705.000,A,3748.6225,N,12217.9948,W,2.57,112.26,020811,,,A*7B
$GPRMC,180706.000,A,3748.6217,N,12217.9941,W,2.58,109.99,020811,,,A*71
$GPRMC,180707.000,A,3748.6210,N,12217.9933,W,2.54,122.03,020811,,,A*74
$GPRMC,180708.000,A,3748.6204,N,12217.9926,W,2.52,116.23,020811,,,A*79
$GPRMC,180709.000,A,3748.6199,N,12217.9919,W,2.54,114.11,020811,,,A*76
$GPRMC,180710.000,A,3748.6193,N,12217.9911,W,2.59,113.26,020811,,,A*72
$GPRMC,180711.000,A,3748.6190,N,12217.9902,W,2.42,113.84,020811,,,A*70
$GPRMC,180712.000,A,3748.6187,N,12217.9893,W,2.43,109.46,020811,,,A*78
$GPRMC,180713.000,A,3748.6185,N,12217.9885,W,2.51,110.44,020811,,,A*75
$GPRMC,180714.000,A,3748.6182,N,12217.9876,W,2.42,116.53,020811,,,A*7B
$GPRMC,180715.000,A,3748.6179,N,12217.9867,W,2.75,114.85,020811,,,A*73
$GPRMC,180716.000,A,3748.6175,N,12217.9859,W,2.48,122.27,020811,,,A*72
$GPRMC,180717.000,A,3748.6171,N,12217.9851,W,2.58,120.90,020811,,,A*70
$GPRMC,180718.000,A,3748.6168,N,12217.9843,W,2.44,115.55,020811,,,A*76
$GPRMC,180719.000,A,3748.6165,N,12217.9835,W,2.49,118.62,020811,,,A*7F
$GPRMC,180720.000,A,3748.6161,N,12217.9826,W,2.42,116.05,020811,,,A*77
$GPRMC,180721.000,A,3748.6158,N,12217.9819,W,2.28,119.60,020811,,,A*70
$GPRMC,180722.000,A,3748.6155,N,12217.9811,W,2.35,116.28,020811,,,A*79
$GPRMC,180723.000,A,3748.6152,N,12217.9803,W,2.40,114.26,020811,,,A*72
$GPRMC,180724.000,A,3748.6147,N,12217.9797,W,2.53,117.70,020811,,,A*71
$GPRMC,180725.000,A,3748.6143,N,12217.9788,W,2.59,121.67,020811,,,A*73
$GPRMC,180726.000,A,3748.6139,N,12217.9780,W,2.61,123.35,020811,,,A*7B
$GPRMC,180727.000,A,3748.6134,N,12217.9773,W,2.48,115.38,020811,,,A*78
$GPRMC,180728.000,A,3748.6129,N,12217.9766,W,2.58,116.71,020811,,,A*70
$GPRMC,180729.000,A,3748.6125,N,12217.9758,W,2.53,117.04,020811,,,A*78
$GPRMC,180730.000,A,3748.6121,N,12217.9749,W,2.61,116.20,020811,,,A*72
$GPRMC,180731.000,A,3748.6118,N,12217.9740,W,2.69,122.91,020811,,,A*75
$GPRMC,180732.000,A,3748.6113,N,12217.9732,W,2.63,125.86,020811,,,A*73
$GPRMC,180733.000,A,3748.6109,N,12217.9724,W,2.72,124.22,020811,,,A*71
$GPRMC,180734.000,A,3748.6104,N,12217.9715,W,2.76,121.77,020811,,,A*78
$GPRMC,180735.000,A,3748.6101,N,12217.9707,W,2.69,119.15,020811,,,A*7E
$GPRMC,180736.000,A,3748.6098,N,12217.9699,W,2.59,115.40,020811,,,A*75
$GPRMC,180737.000,A,3748.6095,N,12217.9691,W,2.46,109.17,020811,,,A*70
$GPRMC,180738.000,A,3748.6092,N,12217.9683,W,2.61,116.89,020811,,,A*77
$GPRMC,180739.000,A,3748.6089,N,12217.9675,W,2.48,113.59,020811,,,A*76
$GPRMC,180740.000,A,3748.6086,N,12217.9667,W,2.63,116.66,020811,,,A*74
$GPRMC,180741.000,A,3748.6082,N,12217.9659,W,2.48,106.69,020811,,,A*7B
$GPRMC,180742.000,A,3748.6078,N,12217.9651,W,2.34,117.21,020811,,,A*72
$GPRMC,180743.000,A,3748.6073,N,12217.9643,W,2.36,124.71,020811,,,A*7C
$GPRMC,180744.000,A,3748.6069,N,12217.9637,W,2.29,122.12,020811,,,A*7E
$GPRMC,180745.000,A,3748.6065,N,12217.9630,W,2.46,123.32,020811,,,A*7E
$GPRMC,180746.000,A,3748.6059,N,12217.9623,W,2.37,128.00,020811,,,A*7C
$GPRMC,180747.000,A,3748.6054,N,12217.9616,W,2.52,129.56,020811,,,A*77
$GPRMC,180748.000,A,3748.6049,N,12217.9608,W,2.49,126.17,020811,,,A*7B
$GPRMC,180749.000,A,3748.6045,N,12217.9600,W,2.43,118.22,020811,,,A*7F
$GPRMC,180750.000,A,3748.6042,N,12217.9592,W,2.37,114.28,020811,,,A*7D
$GPRMC,180751.000,A,3748.6039,N,12217.9585,W,2.38,110.99,020811,,,A*77
$GPRMC,180752.000,A,3748.6034,N,12217.9578,W,2.35,116.98,020811,,,A*71
$GPRMC,180753.000,A,3748.6029,N,12217.9571,W,2.49,124.05,020811,,,A*7B
$GPRMC,180754.000,A,3748.6019,N,12217.9564,W,2.60,128.81,020811,,,A*70
$GPRMC,180755.000,A,3748.6008,N,12217.9553,W,2.57,107.13,020811,,,A*77
$GPRMC,180756.000,A,3748.5997,N,12217.9542,W,2.54,116.28,020811,,,A*73
$GPRMC,180757.000,A,3748.5990,N,12217.9535,W,2.25,116.22,020811,,,A*79
$GPRMC,180758.000,A,3748.5982,N,12217.9524,W,2.46,112.93,020811,,,A*7E
$GPRMC,180759.000,A,3748.5977,N,12217.9515,W,2.40,107.72,020811,,,A*7A
$GPRMC,180800.000,A,3748.5972,N,12217.9505,W,2.45,112.01,020811,,,A*78
$GPRMC,180801.000,A,3748.5969,N,12217.9496,W,2.49,112.29,020811,,,A*7E
$GPRMC,180802.000,A,3748.5966,N,12217.9487,W,2.42,114.69,020811,,,A*7B
$GPRMC,180803.000,A,3748.5960,N,12217.9480,W,2.38,114.53,020811,,,A*7F
$GPRMC,180804.000,A,3748.5955,N,12217.9472,W,2.57,115.58,020811,,,A*70
$GPRMC,180805.000,A,3748.5951,N,12217.9464,W,2.55,115.45,020811,,,A*7C
$GPRMC,180806.000,A,3748.5947,N,12217.9456,W,2.43,112.22,020811,,,A*78
$GPRMC,180807.000,A,3748.5942,N,12217.9448,W,2.24,111.40,020811,,,A*75
$GPRMC,180808.000,A,3748.5939,N,12217.9440,W,2.31,112.56,020811,,,A*7E
$GPRMC,180809.000,A,3748.5933,N,12217.9431,W,2.35,117.27,020811,,,A*74
$GPRMC,180810.000,A,3748.5929,N,12217.9424,W,2.06,114.33,020811,,,A*75
$GPRMC,180811.000,A,3748.5925,N,12217.9417,W,1.89,105.07,020811,,,A*7B
$GPRMC,180812.000,A,3748.5927,N,12217.9413,W,1.44,84.65,020811,,,A*43
$GPRMC,180813.000,A,3748.5920,N,12217.9404,W,2.45,110.77,020811,,,A*7E
$GPRMC,180814.000,A,3748.5919,N,12217.9400,W,2.48,111.28,020811,,,A*71
$GPRMC,180815.000,A,3748.5913,N,12217.9393,W,2.02,121.30,020811,,,A*73
$GPRMC,180816.000,A,3748.5905,N,12217.9386,W,1.95,124.98,020811,,,A*79
$GPRMC,180817.000,A,3748.5898,N,12217.9387,W,1.47,128.38,020811,,,A*75
$GPRMC,180818.000,A,3748.5894,N,12217.9385,W,1.13,163.64,020811,,,A*73
$GPRMC,180819.000,A,3748.5890,N,12217.9384,W,1.58,196.60,020811,,,A*76
$GPRMC,180820.000,A,3748.5885,N,12217.9385,W,1.53,205.91,020811,,,A*75
$GPRMC,180821.000,A,3748.5879,N,12217.9390,W,1.79,211.89,020811,,,A*77
$GPRMC,180822.000,A,3748.5875,N,12217.9394,W,2.21,212.54,020811,,,A*71
$GPRMC,180823.000,A,3748.5870,N,12217.9396,W,2.17,192.70,020811,,,A*7F
$GPRMC,180824.000,A,3748.5867,N,12217.9399,W,1.99,197.41,020811,,,A*73
$GPRMC,180825.000,A,3748.5861,N,12217.9400,W,2.33,195.15,020811,,,A*73
$GPRMC,180826.000,A,3748.5851,N,12217.9401,W,2.24,193.24,020811,,,A*70
$GPRMC,180827.000,A,3748.5845,N,12217.9405,W,2.25,199.26,020811,,,A*79
$GPRMC,180828.000,A,3748.5839,N,12217.9409,W,2.21,197.25,020811,,,A*78
$GPRMC,180829.000,A,3748.5831,N,12217.9410,W,1.91,192.51,020811,,,A*77
$GPRMC,180830.000,A,3748.5825,N,12217.9416,W,2.20,207.71,020811,,,A*78
$GPRMC,180831.000,A,3748.5820,N,12217.9419,W,1.41,211.40,020811,,,A*72
$GPRMC,180832.000,A,3748.5817,N,12217.9422,W,1.19,203.58,020811,,,A*7A
$GPRMC,180833.000,A,3748.5814,N,12217.9425,W,1.19,207.12,020811,,,A*75
$GPRMC,180834.000,A,3748.5809,N,12217.9432,W,1.70,203.02,020811,,,A*72
$GPRMC,180835.000,A,3748.5808,N,12217.9441,W,1.83,198.91,020811,,,A*71
$GPRMC,180836.000,A,3748.5807,N,12217.9451,W,2.13,214.49,020811,,,A*74
$GPRMC,180837.000,A,3748.5803,N,12217.9457,W,2.08,209.82,020811,,,A*76
$GPRMC,180838.000,A,3748.5798,N,12217.9460,W,1.55,214.30,020811,,,A*7E
$GPRMC,180839.000,A,3748.5793,N,12217.9466,W,1.40,234.82,020811,,,A*7D
$GPRMC,180840.000,A,3748.5789,N,12217.9469,W,1.58,210.97,020811,,,A*7C
$GPRMC,180841.000,A,3748.5785,N,12217.9476,W,2.16,224.05,020811,,,A*7A
$GPRMC,180842.000,A,3748.5779,N,12217.9481,W,2.00,214.27,020811,,,A*76
$GPRMC,180843.000,A,3748.5774,N,12217.9486,W,1.69,204.23,020811,,,A*74
$GPRMC,180844.000,A,3748.5760,N,12217.9487,W,2.25,211.64,020811,,,A*7B
$GPRMC,180845.000,A,3748.5751,N,12217.9488,W,2.17,196.64,020811,,,A*7A
$GPRMC,180846.000,A,3748.5746,N,12217.9491,W,2.04,198.61,020811,,,A*7E
$GPRMC,180847.000,A,3748.5740,N,12217.9493,W,1.93,199.43,020811,,,A*77
$GPRMC,180848.000,A,3748.5735,N,12217.9496,W,2.21,202.12,020811,,,A*70
$GPRMC,180849.000,A,3748.5731,N,12217.9502,W,2.18,209.05,020811,,,A*7E
$GPRMC,180850.000,A,3748.5725,N,12217.9505,W,2.21,206.61,020811,,,A*73
$GPRMC,180851.000,A,3748.5717,N,12217.9508,W,1.99,209.17,020811,,,A*70
$GPRMC,180852.000,A,3748.5711,N,12217.9509,W,1.93,203.91,020811,,,A*7A
$GPRMC,180853.000,A,3748.5706,N,12217.9512,W,2.11,197.92,020811,,,A*73
$GPRMC,180854.000,A,3748.5693,N,12217.9519,W,2.31,195.02,020811,,,A*7B
$GPRMC,180855.000,A,3748.5679,N,12217.9525,W,2.31,194.47,020811,,,A*71
$GPRMC,180856.000,A,3748.5667,N,12217.9534,W,2.33,199.72,020811,,,A*74
$GPRMC,180857.000,A,3748.5660,N,12217.9540,W,2.20,201.54,020811,,,A*75
$GPRMC,180858.000,A,3748.5651,N,12217.9544,W,2.11,196.12,020811,,,A*71
$GPRMC,180859.000,A,3748.5646,N,12217.9548,W,1.64,194.99,020811,,,A*7A
$GPRMC,180900.000,A,3748.5640,N,12217.9553,W,1.70,201.02,020811,,,A*73
$GPRMC,180901.000,A,3748.5637,N,12217.9556,W,2.04,202.10,020811,,,A*77
$GPRMC,180902.000,A,3748.5629,N,12217.9561,W,2.37,203.38,020811,,,A*74
$GPRMC,180903.000,A,3748.5620,N,12217.9564,W,2.39,203.27,020811,,,A*79
$GPRMC,180904.000,A,3748.5613,N,12217.9567,W,2.11,197.80,020811,,,A*74
$GPRMC,180905.000,A,3748.5603,N,12217.9565,W,2.60,208.08,020811,,,A*75
$GPRMC,180906.000,A,3748.5595,N,12217.9566,W,2.44,207.01,020811,,,A*79
$GPRMC,180907.000,A,3748.5587,N,12217.9569,W,2.43,207.12,020811,,,A*71
$GPRMC,180908.000,A,3748.5580,N,12217.9573,W,2.54,203.78,020811,,,A*7C
$GPRMC,180909.000,A,3748.5573,N,12217.9576,W,2.80,210.84,020811,,,A*7C
$GPRMC,180910.000,A,3748.5560,N,12217.9583,W,2.48,212.33,020811,,,A*76
$GPRMC,180911.000,A,3748.5554,N,12217.9587,W,2.28,207.73,020811,,,A*72
$GPRMC,180912.000,A,3748.5549,N,12217.9591,W,1.96,216.06,020811,,,A*7E
$GPRMC,180913.000,A,3748.5547,N,12217.9596,W,2.05,218.70,020811,,,A*70
$GPRMC,180914.000,A,3748.5544,N,12217.9602,W,2.06,210.91,020811,,,A*7E
$GPRMC,180915.000,A,3748.5540,N,12217.9609,W,2.41,209.40,020811,,,A*77
$GPRMC,180916.000,A,3748.5536,N,12217.9615,W,2.33,209.84,020811,,,A*75
$GPRMC,180917.000,A,3748.5531,N,12217.9621,W,2.39,206.57,020811,,,A*7F
$GPRMC,180918.000,A,3748.5525,N,12217.9626,W,2.43,209.14,020811,,,A*77
$GPRMC,180919.000,A,3748.5519,N,12217.9630,W,2.24,198.61,020811,,,A*76
$GPRMC,180920.000,A,3748.5511,N,12217.9637,W,2.31,198.90,020811,,,A*79
$GPRMC,180921.000,A,3748.5502,N,12217.9644,W,2.60,208.09,020811,,,A*70
$GPRMC,180922.000,A,3748.5498,N,12217.9650,W,2.24,206.75,020811,,,A*71
$GPRMC,180923.000,A,3748.5494,N,12217.9655,W,2.35,200.07,020811,,,A*7A
$GPRMC,180924.000,A,3748.5488,N,12217.9660,W,2.38,199.33,020811,,,A*7F
$GPRMC,180925.000,A,3748.5483,N,12217.9664,W,2.10,197.32,020811,,,A*74
$GPRMC,180926.000,A,3748.5478,N,12217.9669,W,2.45,205.63,020811,,,A*72
$GPRMC,180927.000,A,3748.5472,N,12217.9674,W,2.30,208.54,020811,,,A*7E
$GPRMC,180928.000,A,3748.5466,N,12217.9678,W,2.34,207.64,020811,,,A*70
$GPRMC,180929.000,A,3748.5458,N,12217.9687,W,2.51,209.49,020811,,,A*7E
$GPRMC,180930.000,A,3748.5448,N,12217.9696,W,2.55,208.84,020811,,,A*73
$GPRMC,180931.000,A,3748.5442,N,12217.9702,W,2.38,208.75,020811,,,A*71
$GPRMC,180932.000,A,3748.5436,N,12217.9708,W,2.43,209.72,020811,,,A*71
$GPRMC,180933.000,A,3748.5430,N,12217.9714,W,2.26,206.71,020811,,,A*74
$GPRMC,180934.000,A,3748.5424,N,12217.9720,W,2.62,209.04,020811,,,A*7C
$GPRMC,180935.000,A,3748.5415,N,12217.9730,W,2.26,199.12,020811,,,A*73
$GPRMC,180936.000,A,3748.5408,N,12217.9738,W,2.18,196.50,020811,,,A*70
$GPRMC,180937.000,A,3748.5400,N,12217.9746,W,2.14,188.99,020811,,,A*76
$GPRMC,180938.000,A,3748.5391,N,12217.9754,W,2.06,184.94,020811,,,A*77
$GPRMC,180939.000,A,3748.5380,N,12217.9763,W,1.80,193.27,020811,,,A*71
$GPRMC,180940.000,A,3748.5374,N,12217.9768,W,2.16,212.15,020811,,,A*78
$GPRMC,180941.000,A,3748.5368,N,12217.9774,W,2.04,211.11,020811,,,A*7D
$GPRMC,180942.000,A,3748.5362,N,12217.9779,W,2.06,211.94,020811,,,D*73
$GPRMC,180943.000,A,3748.5357,N,12217.9788,W,1.91,218.25,020811,,,D*74
$GPRMC,180944.000,A,3748.5344,N,12217.9804,W,2.33,226.88,020811,,,D*7B
$GPRMC,180945.000,A,3748.5332,N,12217.9818,W,2.18,213.25,020811,,,D*7E
$GPRMC,180946.000,A,3748.5327,N,12217.9826,W,2.26,214.14,020811,,,D*7C
$GPRMC,180947.000,A,3748.5321,N,12217.9833,W,2.28,213.27,020811,,,D*76
$GPRMC,180948.000,A,3748.5316,N,12217.9839,W,1.86,223.23,020811,,,D*77
$GPRMC,180949.000,A,3748.5312,N,12217.9844,W,1.93,212.50,020811,,,D*7A
$GPRMC,180950.000,A,3748.5305,N,12217.9848,W,2.28,208.82,020811,,,D*7F
$GPRMC,180951.000,A,3748.5299,N,12217.9851,W,2.09,208.63,020811,,,D*7E
$GPRMC,180952.000,A,3748.5293,N,12217.9855,W,2.11,197.52,020811,,,D*7D
$GPRMC,180953.000,A,3748.5289,N,12217.9860,W,2.02,211.19,020811,,,D*71
$GPRMC,180954.000,A,3748.5283,N,12217.9866,W,2.01,209.10,020811,,,D*79
$GPRMC,180955.000,A,3748.5277,N,12217.9872,W,1.91,211.71,020811,,,D*72
$GPRMC,180956.000,A,3748.5270,N,12217.9877,W,1.98,213.70,020811,,,D*79
$GPRMC,180957.000,A,3748.5258,N,12217.9881,W,1.98,201.47,020811,,,D*7C
$GPRMC,180958.000,A,3748.5251,N,12217.9882,W,2.19,197.60,020811,,,D*7A
$GPRMC,180959.000,A,3748.5241,N,12217.9883,W,2.45,191.19,020811,,,D*7A
$GPRMC,181000.000,A,3748.5233,N,12217.9885,W,2.18,192.86,020811,,,D*70
$GPRMC,181001.000,A,3748.5226,N,12217.9889,W,2.43,207.92,020811,,,D*7D
$GPRMC,181002.000,A,3748.5218,N,12217.9894,W,2.42,207.83,020811,,,D*7E
$GPRMC,181003.000,A,3748.5212,N,12217.9900,W,2.62,213.44,020811,,,D*75
$GPRMC,181004.000,A,3748.5206,N,12217.9908,W,2.52,209.12,020811,,,D*74
$GPRMC,181005.000,A,3748.5199,N,12217.9914,W,2.46,202.36,020811,,,D*75
$GPRMC,181006.000,A,3748.5193,N,12217.9917,W,2.19,198.19,020811,,,D*78
$GPRMC,181007.000,A,3748.5188,N,12217.9922,W,2.13,203.07,020811,,,D*71
$GPRMC,181008.000,A,3748.5183,N,12217.9928,W,2.22,211.71,020811,,,D*7F
$GPRMC,181009.000,A,3748.5176,N,12217.9931,W,2.29,208.77,020811,,,D*79
$GPRMC,181010.000,A,3748.5171,N,12217.9936,W,2.32,206.48,020811,,,D*79
$GPRMC,181011.000,A,3748.5168,N,12217.9941,W,1.92,214.56,020811,,,D*75
$GPRMC,181012.000,A,3748.5164,N,12217.9946,W,2.03,216.80,020811,,,D*7F
$GPRMC,181013.000,A,3748.5161,N,12217.9951,W,2.26,207.27,020811,,,D*77
$GPRMC,181014.000,A,3748.5157,N,12217.9956,W,2.00,215.64,020811,,,D*72
$GPRMC,181015.000,A,3748.5151,N,12217.9960,W,2.46,212.55,020811,,,D*77
$GPRMC,181016.000,A,3748.5145,N,12217.9964,W,2.24,210.50,020811,,,D*76
$GPRMC,181017.000,A,3748.5140,N,12217.9969,W,2.48,199.35,020811,,,D*74
$GPRMC,181018.000,A,3748.5133,N,12217.9975,W,2.37,201.66,020811,,,D*7E
$GPRMC,181019.000,A,3748.5128,N,12217.9978,W,2.19,204.19,020811,,,D*79
$GPRMC,181020.000,A,3748.5122,N,12217.9981,W,2.34,211.33,020811,,,D*7C
$GPRMC,181021.000,A,3748.5117,N,12217.9985,W,2.10,210.57,020811,,,D*7A
$GPRMC,181022.000,A,3748.5111,N,12217.9992,W,2.00,206.22,020811,,,D*7D
$GPRMC,181023.000,A,3748.5105,N,12217.9994,W,2.23,208.55,020811,,,D*70
$GPRMC,181024.000,A,3748.5099,N,12218.0002,W,1.98,215.01,020811,,,D*7D
$GPRMC,181025.000,A,3748.5087,N,12218.0014,W,2.31,214.49,020811,,,D*79
$GPRMC,181026.000,A,3748.5083,N,12218.0021,W,2.14,208.30,020811,,,D*7C
$GPRMC,181027.000,A,3748.5079,N,12218.0026,W,2.20,201.20,020811,,,D*70
$GPRMC,181028.000,A,3748.5068,N,12218.0030,W,2.65,192.75,020811,,,D*70
$GPRMC,181029.000,A,3748.5058,N,12218.0035,W,2.50,203.79,020811,,,D*76
$GPRMC,181030.000,A,3748.5046,N,12218.0046,W,2.31,205.59,020811,,,D*76
$GPRMC,181031.000,A,3748.5033,N,12218.0048,W,2.75,205.13,020811,,,D*75
$GPRMC,181032.000,A,3748.5028,N,12218.0058,W,2.51,210.72,020811,,,D*78
$GPRMC,181033.000,A,3748.5022,N,12218.0062,W,2.21,213.49,020811,,,D*76
$GPRMC,181034.000,A,3748.5017,N,12218.0066,W,2.19,213.22,020811,,,D*75
$GPRMC,181035.000,A,3748.5010,N,12218.0069,W,2.17,212.34,020811,,,D*74
