$ADVER,3080,2.3
$GPRMC,233204.569,A,3748.7981,N,12217.8614,W,0.04,288.70,021012,,,A*70
$GPGGA,233205.569,3748.7989,N,12217.8601,W,1,06,1.2,-3.2,M,-25.1,M,,0000*4C
$GPGSA,A,3,29,15,25,30,18,16,,,,,,,2.0,1.2,1.6*31
$GPRMC,233205.569,A,3748.7989,N,12217.8601,W,0.09,11.81,021012,,,A*4C
$GPVTG,11.81,T,,M,0.09,N,0.2,K,A*3F
$GPGGA,233206.000,3748.8000,N,12217.8587,W,1,06,1.2,-3.3,M,-25.1,M,,0000*4E
$GPGSA,A,3,29,15,25,30,18,16,,,,,,,2.0,1.2,1.6*31
$GPRMC,233206.000,A,3748.8000,N,12217.8587,W,0.20,225.42,021012,,,A*7E
$GPVTG,225.42,T,,M,0.20,N,0.4,K,A*08
$GPGGA,233207.000,3748.7996,N,12217.8592,W,1,06,1.2,-3.3,M,-25.1,M,,0000*42
$GPGSA,A,3,29,15,25,30,18,16,,,,,,,2.0,1.2,1.6*31
$GPGSV,3,1,12,29,76,072,37,25,34,195,30,18,30,205,26,30,26,306,36*73
$GPGSV,3,2,12,15,19,129,33,16,06,326,36,21,52,283,29,05,31,047,35*7A
$GPGSV,3,3,12,26,18,093,25,12,07,170,,02,03,072,,31,00,261,*7B
$GPRMC,233207.000,A,3748.7996,N,12217.8592,W,0.11,253.20,021012,,,A*75
$GPVTG,253.20,T,,M,0.11,N,0.2,K,A*09
$GPGGA,233208.000,3748.7994,N,12217.8595,W,1,06,1.2,-3.2,M,-25.1,M,,0000*49
$GPGSA,A,3,29,15,25,30,18,16,,,,,,,2.0,1.2,1.6*31
$GPRMC,233208.000,A,3748.7994,N,12217.8595,W,0.08,269.55,021012,,,A*7C
$GPVTG,269.55,T,,M,0.08,N,0.1,K,A*09
$GPGGA,233209.000,3748.7993,N,12217.8596,W,1,06,1.2,-3.1,M,-25.1,M,,0000*4F
$GPGSA,A,3,29,15,25,30,18,16,,,,,,,2.0,1.2,1.6*31
$GPRMC,233209.000,A,3748.7993,N,12217.8596,W,0.06,271.85,021012,,,A*73
$GPVTG,271.85,T,,M,0.06,N,0.1,K,A*03
$GPGGA,233210.000,3748.7992,N,12217.8597,W,1,06,1.2,-3.0,M,-25.1,M,,0000*46
$GPGSA,A,3,29,15,25,30,18,16,,,,,,,2.0,1.2,1.6*31
$GPRMC,233210.000,A,3748.7992,N,12217.8597,W,0.05,290.59,021012,,,A*76
$GPVTG,290.59,T,,M,0.05,N,0.1,K,A*0E
$GPGGA,233211.000,3748.7998,N,12217.8590,W,1,06,1.2,-3.1,M,-25.1,M,,0000*4B
$GPGSA,A,3,29,15,25,30,18,16,,,,,,,2.0,1.2,1.6*31
$GPRMC,233211.000,A,3748.7998,N,12217.8590,W,0.30,238.46,021012,,,A*70
$GPVTG,238.46,T,,M,0.30,N,0.6,K,A*03
$GPGGA,233212.000,3748.7998,N,12217.8587,W,1,06,1.2,-2.4,M,-25.1,M,,0000*4A
$GPGSA,A,3,29,15,25,30,18,16,,,,,,,2.0,1.2,1.6*31
$GPGSV,3,1,12,29,76,073,24,21,52,283,19,25,34,195,20,05,31,047,35*78
$GPGSV,3,2,12,18,30,205,21,30,26,306,26,15,19,129,29,26,18,093,25*7E
$GPGSV,3,3,12,12,07,170,22,16,06,326,35,02,03,072,,31,00,261,*7B
$GPRMC,233212.000,A,3748.7998,N,12217.8587,W,0.12,9.20,021012,,,A*75
$GPGGA,233213.000,3748.7996,N,12217.8596,W,1,06,1.2,-2.9,M,-25.1,M,,0000*48
$GPGSA,A,3,29,15,25,30,18,16,,,,,,,2.0,1.2,1.6*31
$GPRMC,233213.000,A,3748.7996,N,12217.8596,W,0.83,257.92,021012,,,A*72
$GPVTG,257.92,T,,M,0.83,N,1.5,K,A*09
$GPGGA,233214.000,3748.7992,N,12217.8599,W,1,06,1.2,-2.8,M,-25.1,M,,0000*45
$GPGSA,A,3,29,15,25,30,18,16,,,,,,,2.0,1.2,1.6*31
$GPRMC,233214.000,A,3748.7992,N,12217.8599,W,1.16,238.76,021012,,,A*70
$GPVTG,238.76,T,,M,1.16,N,2.2,K,A*03
$GPGGA,233215.000,3748.7993,N,12217.8596,W,1,06,1.2,-3.1,M,-25.1,M,,0000*42
$GPGSA,A,3,29,15,25,30,18,16,,,,,,,2.0,1.2,1.6*31
$GPRMC,233215.000,A,3748.7993,N,12217.8596,W,0.65,213.50,021012,,,A*77
$GPVTG,213.50,T,,M,0.65,N,1.2,K,A*08
$GPGGA,233216.000,3748.7994,N,12217.8592,W,1,06,1.2,-3.5,M,-25.1,M,,0000*46
$GPGSA,A,3,29,15,25,30,18,16,,,,,,,2.0,1.2,1.6*31
$GPRMC,233216.000,A,3748.7994,N,12217.8592,W,0.06,260.58,021012,,,A*7E
$GPVTG,260.58,T,,M,0.06,N,0.1,K,A*03
$GPGGA,233217.000,3748.7995,N,12217.8590,W,1,05,1.3,-3.9,M,-25.1,M,,0000*4A
$GPGSA,A,3,29,15,25,30,18,,,,,,,,2.5,1.3,2.1*36
$GPGSV,3,1,12,29,76,073,36,21,52,283,26,25,34,195,26,05,31,047,30*74
$GPGSV,3,2,12,18,30,205,33,30,26,306,29,15,19,129,29,26,18,093,20*77
$GPGSV,3,3,12,12,07,170,20,16,06,326,22,02,03,072,,31,00,261,*7F
$GPRMC,233217.000,A,3748.7995,N,12217.8590,W,0.05,297.12,021012,,,A*79
$GPVTG,297.12,T,,M,0.05,N,0.1,K,A*06
$GPGGA,233218.000,3748.7996,N,12217.8588,W,1,05,1.3,-4.1,M,-25.1,M,,0000*40
$GPGSA,A,3,29,15,25,30,18,,,,,,,,2.5,1.3,2.1*36
$GPRMC,233218.000,A,3748.7996,N,12217.8588,W,0.05,312.74,021012,,,A*70
$GPVTG,312.74,T,,M,0.05,N,0.1,K,A*0A
$GPGGA,233219.000,3748.7997,N,12217.8586,W,1,05,1.3,-4.4,M,-25.1,M,,0000*4B
$GPGSA,A,3,29,15,25,30,18,,,,,,,,2.5,1.3,2.1*36
$GPRMC,233219.000,A,3748.7997,N,12217.8586,W,0.05,333.52,021012,,,A*79
$GPVTG,333.52,T,,M,0.05,N,0.1,K,A*0D
$GPGGA,233220.000,3748.7998,N,12217.8585,W,1,05,1.3,-4.7,M,-25.1,M,,0000*4E
$GPGSA,A,3,29,15,25,30,18,,,,,,,,2.5,1.3,2.1*36
$GPRMC,233220.000,A,3748.7998,N,12217.8585,W,0.07,326.55,021012,,,A*7E
$GPVTG,326.55,T,,M,0.07,N,0.1,K,A*0C
$GPGGA,233221.000,3748.7999,N,12217.8584,W,1,05,1.3,-4.8,M,-25.1,M,,0000*40
$GPGSA,A,3,29,15,25,30,18,,,,,,,,2.5,1.3,2.1*36
$GPRMC,233221.000,A,3748.7999,N,12217.8584,W,0.07,338.24,021012,,,A*76
$GPVTG,338.24,T,,M,0.07,N,0.1,K,A*05
$GPGGA,233222.000,3748.8000,N,12217.8583,W,1,06,1.1,-5.0,M,-25.1,M,,0000*4A
$GPGSA,A,3,05,29,15,25,30,18,,,,,,,2.3,1.1,2.1*37
$GPGSV,3,1,12,29,76,073,36,21,52,283,26,25,34,195,27,05,31,047,30*75
$GPGSV,3,2,12,18,30,205,33,30,26,306,29,15,19,129,35,26,18,093,20*7A
$GPGSV,3,3,12,12,07,170,19,16,06,326,,02,03,072,,31,00,261,*75
$GPRMC,233222.000,A,3748.8000,N,12217.8583,W,0.08,351.57,021012,,,A*70
$GPVTG,351.57,T,,M,0.08,N,0.1,K,A*01
$GPGGA,233223.000,3748.8001,N,12217.8583,W,1,06,1.1,-5.1,M,-25.1,M,,0000*4B
$GPGSA,A,3,05,29,15,25,30,18,,,,,,,2.3,1.1,2.1*37
$GPRMC,233223.000,A,3748.8001,N,12217.8583,W,0.09,358.14,021012,,,A*7F
$GPVTG,358.14,T,,M,0.09,N,0.2,K,A*0D
$GPGGA,233224.000,3748.8001,N,12217.8583,W,1,06,1.1,-5.2,M,-25.1,M,,0000*4F
$GPGSA,A,3,05,29,15,25,30,18,,,,,,,2.3,1.1,2.1*37
$GPRMC,233224.000,A,3748.8001,N,12217.8583,W,0.07,351.04,021012,,,A*7E
$GPVTG,351.04,T,,M,0.07,N,0.1,K,A*08
$GPGGA,233225.000,3748.8002,N,12217.8583,W,1,06,1.1,-5.3,M,-25.1,M,,0000*4C
$GPGSA,A,3,05,29,15,25,30,18,,,,,,,2.3,1.1,2.1*37
$GPRMC,233225.000,A,3748.8002,N,12217.8583,W,0.07,348.20,021012,,,A*72
$GPVTG,348.20,T,,M,0.07,N,0.1,K,A*06
$GPGGA,233226.000,3748.8002,N,12217.8583,W,1,06,1.1,-5.3,M,-25.1,M,,0000*4F
$GPGSA,A,3,05,29,15,25,30,18,,,,,,,2.3,1.1,2.1*37
$GPRMC,233226.000,A,3748.8002,N,12217.8583,W,0.07,356.13,021012,,,A*7E
$GPVTG,356.13,T,,M,0.07,N,0.1,K,A*09
$GPGGA,233227.000,3748.8002,N,12217.8583,W,1,06,1.1,-5.3,M,-25.1,M,,0000*4E
$GPGSA,A,3,05,29,15,25,30,18,,,,,,,2.3,1.1,2.1*37
$GPGSV,3,1,12,29,76,073,36,21,52,283,26,25,34,195,28,05,31,047,31*7B
$GPGSV,3,2,12,18,30,205,33,30,26,306,29,15,19,129,35,26,18,093,20*7A
$GPGSV,3,3,12,12,07,170,18,16,06,326,13,02,03,072,,31,00,261,*76
$GPVTG,10.76,T,,M,0.06,N,0.1,K,A*3A
$GPGGA,233228.000,3748.8002,N,12217.8583,W,1,06,1.1,-5.3,M,-25.1,M,,0000*41
$GPGSA,A,3,05,29,15,25,30,18,,,,,,,2.3,1.1,2.1*37
$GPRMC,233228.000,A,3748.8002,N,12217.8583,W,0.08,348.88,021012,,,A*72
$GPVTG,348.88,T,,M,0.08,N,0.1,K,A*0B
$GPGGA,233229.000,3748.8002,N,12217.8583,W,1,06,1.1,-5.4,M,-25.1,M,,0000*47
$GPGSA,A,3,05,29,15,25,30,18,,,,,,,2.3,1.1,2.1*37
$GPRMC,233229.000,A,3748.8002,N,12217.8583,W,0.08,345.72,021012,,,A*7B
$GPVTG,345.72,T,,M,0.08,N,0.2,K,A*00
$GPGGA,233230.000,3748.8002,N,12217.8583,W,1,06,1.1,-5.4,M,-25.1,M,,0000*4F
$GPGSA,A,3,05,29,15,25,30,18,,,,,,,2.3,1.1,2.1*37
$GPRMC,233230.000,A,3748.8002,N,12217.8583,W,0.08,341.34,021012,,,A*75
$GPVTG,341.34,T,,M,0.08,N,0.1,K,A*05
$GPGGA,233231.000,3748.8002,N,12217.8582,W,1,07,1.0,-5.3,M,-25.1,M,,0000*48
$GPGSA,A,3,05,29,15,25,30,18,16,,,,,,1.9,1.0,1.6*3C
$GPRMC,233231.000,A,3748.8002,N,12217.8582,W,0.28,358.16,021012,,,A*7F
$GPVTG,358.16,T,,M,0.28,N,0.5,K,A*0B
$GPGGA,233232.000,3748.8001,N,12217.8580,W,1,07,1.0,-5.2,M,-25.1,M,,0000*4B
$GPGSA,A,3,05,29,15,25,30,18,16,,,,,,1.9,1.0,1.6*3C
$GPGSV,3,1,12,29,76,073,29,21,52,283,25,25,34,195,27,05,31,047,31*79
$GPGSV,3,2,12,18,30,205,20,30,26,306,24,15,19,129,34,26,18,093,20*74
$GPGSV,3,3,12,12,07,170,19,16,06,326,23,02,03,072,,31,00,261,*74
$GPRMC,233232.000,A,3748.8001,N,12217.8580,W,0.34,312.73,021012,,,A*7D
$GPVTG,312.73,T,,M,0.34,N,0.6,K,A*08
$GPGGA,233233.000,3748.8002,N,12217.8582,W,1,07,1.0,-5.3,M,-25.1,M,,0000*4A
$GPGSA,A,3,05,29,15,25,30,18,16,,,,,,1.9,1.0,1.6*3C
$GPRMC,233233.000,A,3748.8002,N,12217.8582,W,0.12,294.62,021012,,,A*76
$GPVTG,294.62,T,,M,0.12,N,0.2,K,A*07
$GPGGA,233234.000,3748.8005,N,12217.8585,W,1,07,1.0,-6.0,M,-25.1,M,,0000*4D
$GPGSA,A,3,05,29,15,25,30,18,16,,,,,,1.9,1.0,1.6*3C
$GPRMC,233234.000,A,3748.8005,N,12217.8585,W,0.52,9.81,021012,,,A*7E
$GPVTG,9.81,T,,M,0.52,N,1.0,K,A*0B
$GPGGA,233235.000,3748.8005,N,12217.8585,W,1,07,1.0,-6.0,M,-25.1,M,,0000*4C
$GPGSA,A,3,05,29,15,25,30,18,16,,,,,,1.9,1.0,1.6*3C
$GPRMC,233235.000,A,3748.8005,N,12217.8585,W,0.42,16.50,021012,,,A*4C
$GPVTG,16.50,T,,M,0.42,N,0.8,K,A*31
$GPGGA,233236.000,3748.8004,N,12217.8585,W,1,07,1.0,-5.9,M,-25.1,M,,0000*44
$GPGSA,A,3,05,29,15,25,30,18,16,,,,,,1.9,1.0,1.6*3C
$GPRMC,233236.000,A,3748.8004,N,12217.8585,W,0.47,91.41,021012,,,A*44
$GPVTG,91.41,T,,M,0.47,N,0.9,K,A*3A
$GPGGA,233237.000,3748.8003,N,12217.8583,W,1,07,1.0,-6.2,M,-25.1,M,,0000*4C
$GPGSA,A,3,05,29,15,25,30,18,16,,,,,,1.9,1.0,1.6*3C
$GPGSV,3,1,12,29,76,073,26,21,52,283,25,25,34,195,26,05,31,047,28*7F
$GPGSV,3,2,12,18,30,205,25,30,26,306,24,15,19,129,40,26,18,093,28*7A
$GPGSV,3,3,12,12,07,170,23,16,06,326,24,02,03,072,,31,00,261,*7A
$GPRMC,233237.000,A,3748.8003,N,12217.8583,W,0.17,127.47,021012,,,A*7B
$GPVTG,127.47,T,,M,0.17,N,0.3,K,A*0F
$GPGGA,233238.000,3748.8001,N,12217.8584,W,1,07,1.0,-5.8,M,-25.1,M,,0000*4F
$GPGSA,A,3,05,29,15,25,30,18,16,,,,,,1.9,1.0,1.6*3C
$GPRMC,233238.000,A,3748.8001,N,12217.8584,W,0.49,359.17,021012,,,A*74
$GPVTG,359.17,T,,M,0.49,N,0.9,K,A*00
$GPGGA,233239.000,3748.8001,N,12217.8585,W,1,07,1.0,-5.9,M,-25.1,M,,0000*4E
$GPGSA,A,3,05,29,15,25,30,18,16,,,,,,1.9,1.0,1.6*3C
$GPRMC,233239.000,A,3748.8001,N,12217.8585,W,0.05,162.07,021012,,,A*77
$GPVTG,162.07,T,,M,0.05,N,0.1,K,A*0B
$GPGGA,233240.000,3748.8001,N,12217.8587,W,1,07,1.0,-6.2,M,-25.1,M,,0000*4A
$GPGSA,A,3,05,29,15,25,30,18,16,,,,,,1.9,1.0,1.6*3C
$GPRMC,233240.000,A,3748.8001,N,12217.8587,W,0.10,79.35,021012,,,A*45
$GPVTG,79.35,T,,M,0.10,N,0.2,K,A*36
$GPGGA,233241.000,3748.8000,N,12217.8589,W,1,07,1.0,-6.4,M,-25.1,M,,0000*42
$GPGSA,A,3,05,29,15,25,30,18,16,,,,,,1.9,1.0,1.6*3C
$GPRMC,233241.000,A,3748.8000,N,12217.8589,W,0.49,33.27,021012,,,A*4A
$GPVTG,33.27,T,,M,0.49,N,0.9,K,A*3C
$GPGGA,233242.000,3748.8000,N,12217.8590,W,1,06,1.0,-6.8,M,-25.1,M,,0000*44
$GPGSA,A,3,05,15,25,30,18,16,,,,,,,3.1,1.0,3.0*39
$GPGSV,3,1,12,29,76,073,19,21,52,283,26,25,34,195,20,05,31,047,31*7E
$GPGSV,3,2,12,18,30,205,24,30,26,306,35,15,19,129,30,26,18,093,23*77
$GPGSV,3,3,12,12,07,170,25,16,06,326,34,02,03,072,19,31,00,261,*75
$GPVTG,44.88,T,,M,0.14,N,0.3,K,A*3B
$GPGGA,233243.000,3748.8001,N,12217.8590,W,1,05,2.2,-7.1,M,-25.1,M,,0000*4E
$GPGSA,A,3,15,25,30,18,16,,,,,,,,6.0,2.2,5.6*39
$GPRMC,233243.000,A,3748.8001,N,12217.8590,W,0.34,181.53,021012,,,A*70
$GPVTG,181.53,T,,M,0.34,N,0.6,K,A*02
$GPGGA,233244.000,3748.8000,N,12217.8591,W,1,06,1.0,-7.0,M,-25.1,M,,0000*4A
$GPGSA,A,3,05,15,25,30,18,16,,,,,,,3.1,1.0,3.0*39
$GPRMC,233244.000,A,3748.8000,N,12217.8591,W,0.08,142.98,021012,,,A*70
$GPVTG,142.98,T,,M,0.08,N,0.2,K,A*01
$GPGGA,233245.000,3748.7995,N,12217.8599,W,1,06,1.0,-7.6,M,-25.1,M,,0000*4F
$GPGSA,A,3,05,15,25,30,18,16,,,,,,,3.1,1.0,3.0*39
$GPRMC,233245.000,A,3748.7995,N,12217.8599,W,0.52,227.64,021012,,,A*7F
$GPVTG,227.64,T,,M,0.52,N,1.0,K,A*0E
$GPGGA,233246.000,3748.7991,N,12217.8606,W,1,06,1.0,-8.4,M,-25.1,M,,0000*40
$GPGSA,A,3,05,15,25,30,18,16,,,,,,,3.1,1.0,3.0*39
$GPRMC,233246.000,A,3748.7991,N,12217.8606,W,0.41,236.22,021012,,,A*7D
$GPVTG,236.22,T,,M,0.41,N,0.8,K,A*07
$GPGGA,233247.000,3748.7988,N,12217.8610,W,1,07,1.0,-9.4,M,-25.1,M,,0000*4E
$GPGSA,A,3,05,29,15,25,30,18,16,,,,,,1.9,1.0,1.6*3C
$GPGSV,3,1,12,29,76,073,21,21,52,283,21,25,34,195,29,05,31,047,28*73
$GPGSV,3,2,12,18,30,205,27,30,26,306,31,15,19,129,29,26,18,093,22*79
$GPGSV,3,3,12,12,07,170,23,16,06,326,28,02,03,072,,31,00,261,*76
$GPRMC,233247.000,A,3748.7988,N,12217.8610,W,0.36,176.39,021012,,,A*7E
$GPVTG,176.39,T,,M,0.36,N,0.7,K,A*05
$GPGGA,233248.000,3748.7982,N,12217.8615,W,1,07,1.0,-10.5,M,-25.1,M,,0000*77
$GPGSA,A,3,05,29,15,25,30,18,16,,,,,,1.9,1.0,1.6*3C
$GPRMC,233248.000,A,3748.7982,N,12217.8615,W,0.30,166.83,021012,,,A*78
$GPVTG,166.83,T,,M,0.30,N,0.6,K,A*02
$GPGGA,233249.000,3748.7981,N,12217.8614,W,1,07,1.0,-11.2,M,-25.1,M,,0000*72
$GPGSA,A,3,05,29,15,25,30,18,16,,,,,,1.9,1.0,1.6*3C
$GPRMC,233249.000,A,3748.7981,N,12217.8614,W,0.27,17.93,021012,,,A*4B
$GPVTG,17.93,T,,M,0.27,N,0.5,K,A*31
$GPGGA,233250.000,3748.7981,N,12217.8612,W,1,07,1.0,-10.6,M,-25.1,M,,0000*79
$GPGSA,A,3,05,29,15,25,30,18,16,,,,,,1.9,1.0,1.6*3C
$GPRMC,233250.000,A,3748.7981,N,12217.8612,W,0.20,217.39,021012,,,A*70
$GPVTG,217.39,T,,M,0.20,N,0.4,K,A*05
$GPGGA,233251.000,3748.7981,N,12217.8610,W,1,07,1.0,-11.1,M,-25.1,M,,0000*7C
$GPGSA,A,3,05,29,15,25,30,18,16,,,,,,1.9,1.0,1.6*3C
$GPRMC,233251.000,A,3748.7981,N,12217.8610,W,0.13,244.52,021012,,,A*78
$GPVTG,244.52,T,,M,0.13,N,0.2,K,A*08
$GPGGA,233252.000,3748.7981,N,12217.8611,W,1,07,1.0,-11.5,M,-25.1,M,,0000*7A
$GPGSA,A,3,05,29,15,25,30,18,16,,,,,,1.9,1.0,1.6*3C
$GPGSV,3,1,12,29,76,073,30,21,52,283,29,25,34,195,24,05,31,047,34*7B
$GPGSV,3,2,12,18,30,205,23,30,26,306,31,15,19,129,26,26,18,093,18*7B
$GPGSV,3,3,12,12,07,170,19,16,06,326,32,02,03,072,17,31,00,261,*72
$GPRMC,233252.000,A,3748.7981,N,12217.8611,W,0.08,341.21,021012,,,A*70
$GPVTG,341.21,T,,M,0.08,N,0.2,K,A*02
$GPGGA,233253.000,3748.7981,N,12217.8612,W,1,07,1.0,-11.4,M,-25.1,M,,0000*79
$GPGSA,A,3,05,29,15,25,30,18,16,,,,,,1.9,1.0,1.6*3C
$GPRMC,233253.000,A,3748.7981,N,12217.8612,W,0.63,82.56,021012,,,A*43
$GPVTG,82.56,T,,M,0.63,N,1.2,K,A*32
$GPGGA,233254.000,3748.7983,N,12217.8613,W,1,07,1.0,-10.9,M,-25.1,M,,0000*71
$GPGSA,A,3,05,29,15,25,30,18,16,,,,,,1.9,1.0,1.6*3C
$GPRMC,233254.000,A,3748.7983,N,12217.8613,W,0.35,84.56,021012,,,A*42
$GPVTG,84.56,T,,M,0.35,N,0.6,K,A*32
$GPGGA,233255.000,3748.7983,N,12217.8612,W,1,07,1.0,-10.5,M,-25.1,M,,0000*7D
$GPGSA,A,3,05,29,15,25,30,18,16,,,,,,1.9,1.0,1.6*3C
$GPRMC,233255.000,A,3748.7983,N,12217.8612,W,0.64,93.32,021012,,,A*42
$GPVTG,93.32,T,,M,0.64,N,1.2,K,A*37
$GPGGA,233256.000,3748.7984,N,12217.8610,W,1,07,1.0,-9.1,M,-25.1,M,,0000*47
$GPGSA,A,3,05,29,15,25,30,18,16,,,,,,1.9,1.0,1.6*3C
$GPRMC,233256.000,A,3748.7984,N,12217.8610,W,0.18,92.71,021012,,,A*49
$GPVTG,92.71,T,,M,0.18,N,0.3,K,A*3A
$GPGGA,233257.000,3748.7985,N,12217.8610,W,1,07,1.0,-8.1,M,-25.1,M,,0000*46
$GPGSA,A,3,05,29,15,25,30,18,16,,,,,,1.9,1.0,1.6*3C
$GPGSV,3,1,12,29,76,073,35,21,52,283,35,25,34,195,24,05,31,047,35*72
$GPGSV,3,2,12,18,30,205,22,30,26,306,32,15,19,129,31,26,18,093,25*71
$GPGSV,3,3,12,12,07,170,20,16,06,326,32,02,03,072,16,31,00,261,*79
$GPRMC,233257.000,A,3748.7985,N,12217.8610,W,0.33,350.98,021012,,,A*7A
$GPVTG,350.98,T,,M,0.33,N,0.6,K,A*0C
$GPGGA,233258.000,3748.7987,N,12217.8609,W,1,07,1.0,-7.0,M,-25.1,M,,0000*4D
$GPGSA,A,3,05,29,15,25,30,18,16,,,,,,1.9,1.0,1.6*3C
$GPRMC,233258.000,A,3748.7987,N,12217.8609,W,0.34,31.38,021012,,,A*46
$GPVTG,31.38,T,,M,0.34,N,0.6,K,A*35
$GPGGA,233259.000,3748.7988,N,12217.8607,W,1,06,1.0,-6.8,M,-25.1,M,,0000*45
$GPGSA,A,3,05,15,25,30,18,16,,,,,,,3.1,1.0,3.0*39
$GPRMC,233259.000,A,3748.7988,N,12217.8607,W,0.15,213.63,021012,,,A*79
$GPVTG,213.63,T,,M,0.15,N,0.3,K,A*0F
$GPGGA,233300.000,3748.7989,N,12217.8607,W,1,07,1.0,-6.5,M,-25.1,M,,0000*45
$GPGSA,A,3,05,29,15,25,30,18,16,,,,,,1.9,1.0,1.6*3C
$GPRMC,233300.000,A,3748.7989,N,12217.8607,W,0.60,270.31,021012,,,A*75
$GPVTG,270.31,T,,M,0.60,N,1.1,K,A*0C
$GPGGA,233301.000,3748.7990,N,12217.8607,W,1,07,1.0,-6.5,M,-25.1,M,,0000*4C
$GPGSA,A,3,05,29,15,25,30,18,16,,,,,,1.9,1.0,1.6*3C
$GPRMC,233301.000,A,3748.7990,N,12217.8607,W,0.31,179.12,021012,,,A*73
$GPVTG,179.12,T,,M,0.31,N,0.6,K,A*05
$GPGGA,233302.000,3748.7989,N,12217.8606,W,1,07,1.0,-6.7,M,-25.1,M,,0000*44
$GPGSA,A,3,05,29,15,25,30,18,16,,,,,,1.9,1.0,1.6*3C
$GPGSV,3,1,12,29,76,073,30,21,52,283,32,25,34,195,20,05,31,047,34*75
$GPGSV,3,2,12,18,30,205,23,30,26,306,38,15,19,129,29,26,18,093,22*74
$GPGSV,3,3,12,12,07,170,22,16,06,326,39,02,03,072,15,31,00,261,*73
$GPRMC,233302.000,A,3748.7989,N,12217.8606,W,0.32,175.45,021012,,,A*74
$GPGGA,233303.000,3748.7990,N,12217.8605,W,1,07,1.0,-6.7,M,-25.1,M,,0000*4E
$GPGSA,A,3,05,29,15,25,30,18,16,,,,,,1.9,1.0,1.6*3C
$GPRMC,233303.000,A,3748.7990,N,12217.8605,W,0.15,70.36,021012,,,A*4B
$GPVTG,70.36,T,,M,0.15,N,0.3,K,A*38
$GPGGA,233304.000,3748.7991,N,12217.8603,W,1,07,1.0,-6.5,M,-25.1,M,,0000*4C
$GPGSA,A,3,05,29,15,25,30,18,16,,,,,,1.9,1.0,1.6*3C
$GPRMC,233304.000,A,3748.7991,N,12217.8603,W,0.35,122.93,021012,,,A*70
$GPVTG,122.93,T,,M,0.35,N,0.6,K,A*06
$GPGGA,233305.000,3748.7990,N,12217.8603,W,1,07,1.0,-6.5,M,-25.1,M,,0000*4C
$GPGSA,A,3,05,29,15,25,30,18,16,,,,,,1.9,1.0,1.6*3C
$GPRMC,233305.000,A,3748.7990,N,12217.8603,W,0.25,292.03,021012,,,A*70
$GPVTG,292.03,T,,M,0.25,N,0.5,K,A*05
$GPGGA,233306.000,3748.7989,N,12217.8605,W,1,07,1.0,-6.6,M,-25.1,M,,0000*42
$GPGSA,A,3,05,29,15,25,30,18,16,,,,,,1.9,1.0,1.6*3C
$GPRMC,233306.000,A,3748.7989,N,12217.8605,W,0.07,299.39,021012,,,A*7F
$GPVTG,299.39,T,,M,0.07,N,0.1,K,A*03
$GPGGA,233307.000,3748.7989,N,12217.8607,W,1,07,1.0,-6.5,M,-25.1,M,,0000*42
$GPGSA,A,3,05,29,15,25,30,18,16,,,,,,1.9,1.0,1.6*3C
$GPGSV,3,1,12,29,76,073,26,21,52,283,22,25,34,195,32,05,31,047,26*73
$GPGSV,3,2,12,18,30,205,32,30,26,306,26,15,19,129,38,26,18,093,23*7A
$GPGSV,3,3,12,12,07,170,27,16,06,326,21,02,03,072,15,31,00,261,*7F
$GPRMC,233307.000,A,3748.7989,N,12217.8607,W,0.12,40.43,021012,,,A*43
$GPVTG,40.43,T,,M,0.12,N,0.2,K,A*3F
$GPGGA,233308.000,3748.7991,N,12217.8610,W,1,07,1.0,-6.9,M,-25.1,M,,0000*4E
$GPGSA,A,3,05,29,15,25,30,18,16,,,,,,1.9,1.0,1.6*3C
$GPRMC,233308.000,A,3748.7991,N,12217.8610,W,0.36,255.36,021012,,,A*71
$GPVTG,255.36,T,,M,0.36,N,0.7,K,A*08
$GPGGA,233309.000,3748.7990,N,12217.8613,W,1,06,1.0,-6.9,M,-25.1,M,,0000*4C
$GPGSA,A,3,05,15,25,30,18,16,,,,,,,3.2,1.0,3.0*3A
$GPRMC,233309.000,A,3748.7990,N,12217.8613,W,0.35,281.65,021012,,,A*7E
$GPVTG,281.65,T,,M,0.35,N,0.7,K,A*04
$GPGGA,233310.000,3748.7988,N,12217.8615,W,1,06,1.0,-7.1,M,-25.1,M,,0000*42
$GPGSA,A,3,05,15,25,30,18,16,,,,,,,3.2,1.0,3.0*3A
$GPRMC,233310.000,A,3748.7988,N,12217.8615,W,0.17,321.16,021012,,,A*76
$GPVTG,321.16,T,,M,0.17,N,0.3,K,A*0F
$GPGGA,233311.000,3748.7988,N,12217.8619,W,1,06,1.0,-6.9,M,-25.1,M,,0000*46
$GPGSA,A,3,05,15,25,30,18,16,,,,,,,3.2,1.0,3.0*3A
$GPRMC,233311.000,A,3748.7988,N,12217.8619,W,0.32,275.73,021012,,,A*7F
$GPVTG,275.73,T,,M,0.32,N,0.6,K,A*0E
$GPGGA,233312.000,3748.7988,N,12217.8622,W,1,06,1.0,-6.9,M,-25.1,M,,0000*4D
$GPGSA,A,3,05,15,25,30,18,16,,,,,,,3.2,1.0,3.0*3A
$GPGSV,3,1,12,29,76,073,,21,52,283,26,25,34,195,25,05,31,047,27*74
$GPGSV,3,2,12,18,30,205,32,30,26,306,33,15,19,129,23,26,18,093,15*71
$GPGSV,3,3,12,12,07,170,28,16,06,326,26,02,03,072,16,31,00,261,*74
$GPRMC,233312.000,A,3748.7988,N,12217.8622,W,0.12,272.20,021012,,,A*77
$GPVTG,272.20,T,,M,0.12,N,0.2,K,A*09
$GPGGA,233313.000,3748.7987,N,12217.8623,W,1,06,1.0,-7.1,M,-25.1,M,,0000*4B
$GPGSA,A,3,05,15,25,30,18,16,,,,,,,3.2,1.0,3.0*3A
$GPRMC,233313.000,A,3748.7987,N,12217.8623,W,0.25,332.64,021012,,,A*79
$GPVTG,332.64,T,,M,0.25,N,0.5,K,A*0F
$GPGGA,233314.000,3748.7986,N,12217.8625,W,1,06,1.0,-7.9,M,-25.1,M,,0000*43
$GPGSA,A,3,05,15,25,30,18,16,,,,,,,3.2,1.0,3.0*3A
$GPRMC,233314.000,A,3748.7986,N,12217.8625,W,0.10,359.53,021012,,,A*76
$GPVTG,359.53,T,,M,0.10,N,0.2,K,A*07
$GPGGA,233315.000,3748.7985,N,12217.8624,W,1,06,1.0,-8.3,M,-25.1,M,,0000*45
$GPGSA,A,3,05,15,25,30,18,16,,,,,,,3.2,1.0,3.0*3A
$GPRMC,233315.000,A,3748.7985,N,12217.8624,W,0.18,4.03,021012,,,A*73
$GPVTG,4.03,T,,M,0.18,N,0.3,K,A*00
$GPGGA,233316.000,3748.7982,N,12217.8625,W,1,06,1.0,-8.7,M,-25.1,M,,0000*44
$GPGSA,A,3,05,15,25,30,18,16,,,,,,,3.2,1.0,3.0*3A
$GPRMC,233316.000,A,3748.7982,N,12217.8625,W,0.13,139.81,021012,,,A*78
$GPVTG,139.81,T,,M,0.13,N,0.2,K,A*0F
$GPGGA,233317.000,3748.7981,N,12217.8625,W,1,06,1.0,-9.5,M,-25.1,M,,0000*45
$GPGSA,A,3,05,15,25,30,18,16,,,,,,,3.2,1.0,3.0*3A
$GPGSV,3,1,12,29,76,075,,21,53,283,21,25,34,195,33,05,31,047,22*76
$GPGSV,3,2,12,18,30,205,37,30,26,305,28,15,19,129,37,26,18,092,16*7A
$GPGSV,3,3,12,12,07,170,21,16,06,326,22,02,03,072,16,51,43,156,28*75
$GPVTG,96.30,T,,M,0.08,N,0.2,K,A*3B
$GPGGA,233318.000,3748.7982,N,12217.8622,W,1,06,1.0,-9.5,M,-25.1,M,,0000*4E
$GPGSA,A,3,05,15,25,30,18,16,,,,,,,3.2,1.0,3.0*3A
$GPRMC,233318.000,A,3748.7982,N,12217.8622,W,0.39,16.43,021012,,,A*4B
$GPVTG,16.43,T,,M,0.39,N,0.7,K,A*30
$GPGGA,233319.000,3748.7983,N,12217.8622,W,1,05,2.2,-10.5,M,-25.1,M,,0000*74
$GPGSA,A,3,15,25,30,18,16,,,,,,,,6.1,2.2,5.7*39
$GPRMC,233319.000,A,3748.7983,N,12217.8622,W,0.24,12.94,021012,,,A*49
$GPVTG,12.94,T,,M,0.24,N,0.4,K,A*31
$GPGGA,233320.000,3748.7986,N,12217.8622,W,1,07,1.0,-9.6,M,-25.1,M,,0000*43
$GPGSA,A,3,05,29,15,25,30,18,16,,,,,,1.9,1.0,1.6*3C
$GPRMC,233320.000,A,3748.7986,N,12217.8622,W,0.14,268.10,021012,,,A*76
$GPVTG,268.10,T,,M,0.14,N,0.3,K,A*06
$GPGGA,233321.000,3748.7988,N,12217.8621,W,1,07,1.0,-6.6,M,-25.1,M,,0000*40
$GPGSA,A,3,05,29,15,25,30,18,16,,,,,,1.9,1.0,1.6*3C
$GPRMC,233321.000,A,3748.7988,N,12217.8621,W,0.32,258.03,021012,,,A*7F
$GPVTG,258.03,T,,M,0.32,N,0.6,K,A*06
$GPGGA,233322.000,3748.7989,N,12217.8620,W,1,07,1.0,-6.6,M,-25.1,M,,0000*43
$GPGSA,A,3,05,29,15,25,30,18,16,,,,,,1.9,1.0,1.6*3C
$GPGSV,3,1,11,29,76,075,18,21,53,283,18,25,34,195,30,05,31,047,20*77
$GPGSV,3,2,11,18,30,205,31,30,26,305,24,15,19,129,24,26,18,092,15*72
$GPGSV,3,3,11,12,07,170,15,16,06,326,21,02,03,072,*4E
$GPRMC,233322.000,A,3748.7989,N,12217.8620,W,0.44,138.38,021012,,,A*70
$GPVTG,138.38,T,,M,0.44,N,0.8,K,A*04
$GPGGA,233323.000,3748.7990,N,12217.8620,W,1,07,1.0,-6.7,M,-25.1,M,,0000*4B
$GPGSA,A,3,05,29,15,25,30,18,16,,,,,,1.9,1.0,1.6*3C
$GPRMC,233323.000,A,3748.7990,N,12217.8620,W,0.21,307.14,021012,,,A*7A
$GPVTG,307.14,T,,M,0.21,N,0.4,K,A*0B
$GPGGA,233324.000,3748.7993,N,12217.8618,W,1,07,1.0,-6.4,M,-25.1,M,,0000*47
$GPGSA,A,3,05,29,15,25,30,18,16,,,,,,1.9,1.0,1.6*3C
$GPRMC,233324.000,A,3748.7993,N,12217.8618,W,1.39,24.68,021012,,,A*44
$GPVTG,24.68,T,,M,1.39,N,2.6,K,A*3A
$GPGGA,233325.000,3748.7992,N,12217.8618,W,1,07,1.0,-7.1,M,-25.1,M,,0000*43
$GPGSA,A,3,05,29,15,25,30,18,16,,,,,,1.9,1.0,1.6*3C
$GPRMC,233325.000,A,3748.7992,N,12217.8618,W,0.19,131.20,021012,,,A*7E
$GPVTG,131.20,T,,M,0.19,N,0.4,K,A*00
$GPGGA,233326.000,3748.7989,N,12217.8619,W,1,07,1.0,-13.3,M,-25.1,M,,0000*7C
$GPGSA,A,3,05,29,15,25,30,18,16,,,,,,1.9,1.0,1.6*3C
$GPRMC,233326.000,A,3748.7989,N,12217.8619,W,0.22,284.38,021012,,,A*7A
$GPVTG,284.38,T,,M,0.22,N,0.4,K,A*0C
$GPGGA,233327.000,3748.7986,N,12217.8619,W,1,07,1.0,-13.8,M,-25.1,M,,0000*79
$GPGSA,A,3,05,29,15,25,30,18,16,,,,,,1.9,1.0,1.6*3C
$GPGSV,3,1,12,29,76,075,24,21,53,283,31,25,34,195,26,05,31,047,24*73
$GPGSV,3,2,12,18,30,205,29,30,26,305,35,15,19,129,25,26,18,092,22*7D
$GPGSV,3,3,12,12,07,170,19,16,06,326,33,02,03,072,,51,43,156,28*79
$GPRMC,233327.000,A,3748.7986,N,12217.8619,W,0.39,124.66,021012,,,A*7C
$GPVTG,124.66,T,,M,0.39,N,0.7,K,A*07
$GPGGA,233328.000,3748.7982,N,12217.8621,W,1,07,1.0,-14.5,M,-25.1,M,,0000*73
$GPGSA,A,3,05,29,15,25,30,18,16,,,,,,1.9,1.0,1.6*3C
$GPRMC,233328.000,A,3748.7982,N,12217.8621,W,0.21,162.60,021012,,,A*71
$GPVTG,162.60,T,,M,0.21,N,0.4,K,A*09
$GPGGA,233329.000,3748.7981,N,12217.8622,W,1,07,1.0,-14.7,M,-25.1,M,,0000*70
$GPGSA,A,3,05,29,15,25,30,18,16,,,,,,1.9,1.0,1.7*3D
$GPRMC,233329.000,A,3748.7981,N,12217.8622,W,0.34,181.03,021012,,,A*7C
$GPVTG,181.03,T,,M,0.34,N,0.6,K,A*07
$GPGGA,233330.000,3748.7980,N,12217.8623,W,1,07,1.0,-15.3,M,-25.1,M,,0000*7D
$GPGSA,A,3,05,29,15,25,30,18,16,,,,,,1.9,1.0,1.7*3D
$GPRMC,233330.000,A,3748.7980,N,12217.8623,W,0.38,74.88,021012,,,A*40
$GPVTG,74.88,T,,M,0.38,N,0.7,K,A*32
$GPGGA,233331.000,3748.7977,N,12217.8625,W,1,07,1.0,-15.8,M,-25.1,M,,0000*79
$GPGSA,A,3,05,29,15,25,30,18,16,,,,,,1.9,1.0,1.7*3D
$GPRMC,233331.000,A,3748.7977,N,12217.8625,W,0.91,50.69,021012,,,A*45
$GPVTG,50.69,T,,M,0.91,N,1.7,K,A*39
$GPGGA,233332.000,3748.7976,N,12217.8625,W,1,06,1.0,-16.0,M,-25.1,M,,0000*71
$GPGSA,A,3,05,15,25,30,18,16,,,,,,,3.2,1.0,3.0*3A
$GPGSV,3,1,11,29,76,075,,21,53,283,25,25,34,195,27,05,31,047,26*70
$GPGSV,3,2,11,18,30,205,29,30,26,305,30,15,19,129,28,26,18,092,22*76
$GPGSV,3,3,11,12,07,170,19,16,06,326,24,02,03,072,21*44
$GPVTG,245.04,T,,M,0.24,N,0.4,K,A*08
$GPGGA,233333.000,3748.7976,N,12217.8622,W,1,07,1.0,-14.9,M,-25.1,M,,0000*7D
$GPGSA,A,3,05,29,15,25,30,18,16,,,,,,1.9,1.0,1.7*3D
$GPRMC,233333.000,A,3748.7976,N,12217.8622,W,0.42,32.01,021012,,,A*45
$GPVTG,32.01,T,,M,0.42,N,0.8,K,A*33
$GPGGA,233334.000,3748.7977,N,12217.8619,W,1,07,1.0,-14.0,M,-25.1,M,,0000*7A
$GPGSA,A,3,05,29,15,25,30,18,16,,,,,,1.9,1.0,1.7*3D
$GPRMC,233334.000,A,3748.7977,N,12217.8619,W,0.09,289.34,021012,,,A*70
$GPVTG,289.34,T,,M,0.09,N,0.2,K,A*02
$GPGGA,233335.000,3748.7978,N,12217.8615,W,1,07,1.0,-13.0,M,-25.1,M,,0000*7F
$GPGSA,A,3,05,29,15,25,30,18,16,,,,,,1.9,1.0,1.7*3D
$GPRMC,233335.000,A,3748.7978,N,12217.8615,W,0.16,286.60,021012,,,A*72
$GPVTG,286.60,T,,M,0.16,N,0.3,K,A*03
$GPGGA,233336.000,3748.7977,N,12217.8614,W,1,07,1.0,-12.1,M,-25.1,M,,0000*72
$GPGSA,A,3,05,29,15,25,30,18,16,,,,,,1.9,1.0,1.7*3D
$GPRMC,233336.000,A,3748.7977,N,12217.8614,W,0.17,350.78,021012,,,A*7D
$GPVTG,350.78,T,,M,0.17,N,0.3,K,A*01
$GPGGA,233337.000,3748.7981,N,12217.8611,W,1,07,1.0,-6.4,M,-25.1,M,,0000*4F
$GPGSA,A,3,05,29,15,25,30,18,16,,,,,,1.9,1.0,1.7*3D
$GPGSV,3,1,12,29,76,075,31,21,53,283,14,25,34,195,33,05,31,047,33*72
$GPGSV,3,2,12,18,30,205,31,30,26,305,18,15,19,129,37,26,18,092,32*79
$GPGSV,3,3,12,12,07,170,25,16,06,326,30,02,03,072,,51,43,156,37*7B
$GPRMC,233337.000,A,3748.7981,N,12217.8611,W,0.12,333.82,021012,,,A*75
$GPVTG,333.82,T,,M,0.12,N,0.2,K,A*05
$GPGGA,233338.000,3748.7980,N,12217.8610,W,1,07,1.0,-4.3,M,-25.1,M,,0000*45
$GPGSA,A,3,05,29,15,25,30,18,16,,,,,,1.9,1.0,1.7*3D
$GPRMC,233338.000,A,3748.7980,N,12217.8610,W,0.07,136.31,021012,,,A*71
$GPVTG,136.31,T,,M,0.07,N,0.1,K,A*0D
$GPGGA,233339.000,3748.7979,N,12217.8609,W,1,07,1.0,-3.1,M,-25.1,M,,0000*4F
$GPGSA,A,3,05,29,15,25,30,18,16,,,,,,1.9,1.0,1.7*3D
$GPRMC,233339.000,A,3748.7979,N,12217.8609,W,0.45,135.03,021012,,,A*7A
$GPVTG,135.03,T,,M,0.45,N,0.8,K,A*00
$GPGGA,233340.000,3748.7980,N,12217.8609,W,1,07,1.0,-3.4,M,-25.1,M,,0000*42
$GPGSA,A,3,05,29,15,25,30,18,16,,,,,,1.9,1.0,1.7*3D
$GPRMC,233340.000,A,3748.7980,N,12217.8609,W,0.15,108.13,021012,,,A*78
$GPVTG,108.13,T,,M,0.15,N,0.3,K,A*01
$GPGGA,233341.000,3748.7979,N,12217.8609,W,1,07,1.0,-2.5,M,-25.1,M,,0000*45
$GPGSA,A,3,05,29,15,25,30,18,16,,,,,,1.9,1.0,1.7*3D
$GPRMC,233341.000,A,3748.7979,N,12217.8609,W,0.17,325.91,021012,,,A*7A
$GPVTG,325.91,T,,M,0.17,N,0.3,K,A*04
$GPGGA,233342.000,3748.7979,N,12217.8608,W,1,07,1.0,-2.3,M,-25.1,M,,0000*41
$GPGSA,A,3,05,29,15,25,30,18,16,,,,,,1.9,1.0,1.7*3D
$GPGSV,3,1,12,29,76,075,30,21,53,283,13,25,34,195,28,05,31,047,32*7F
$GPGSV,3,2,12,18,30,205,32,30,26,305,16,15,19,129,37,26,18,092,32*74
$GPGSV,3,3,12,12,07,170,26,16,06,326,23,02,03,072,,51,43,156,36*7B
$GPRMC,233342.000,A,3748.7979,N,12217.8608,W,0.45,310.34,021012,,,A*76
$GPVTG,310.34,T,,M,0.45,N,0.8,K,A*01
$GPGGA,233343.000,3748.7979,N,12217.8609,W,1,07,1.0,-1.5,M,-25.1,M,,0000*44
$GPGSA,A,3,05,29,15,25,30,18,16,,,,,,1.9,1.0,1.7*3D
$GPRMC,233343.000,A,3748.7979,N,12217.8609,W,0.26,311.57,021012,,,A*77
$GPVTG,311.57,T,,M,0.26,N,0.5,K,A*0D
$GPGGA,233344.000,3748.7978,N,12217.8607,W,1,07,1.0,-0.7,M,-25.1,M,,0000*4F
$GPGSA,A,3,05,29,15,25,30,18,16,,,,,,1.9,1.0,1.7*3D
$GPRMC,233344.000,A,3748.7978,N,12217.8607,W,0.03,337.55,021012,,,A*7E
$GPVTG,337.55,T,,M,0.03,N,0.1,K,A*08
$GPGGA,233345.000,3748.7979,N,12217.8604,W,1,07,1.0,0.4,M,-25.1,M,,0000*62
$GPGSA,A,3,05,29,15,25,30,18,16,,,,,,1.9,1.0,1.7*3D
$GPRMC,233345.000,A,3748.7979,N,12217.8604,W,0.62,40.52,021012,,,A*4E
$GPVTG,40.52,T,,M,0.62,N,1.1,K,A*3A
$GPGGA,233346.000,3748.7980,N,12217.8602,W,1,07,1.0,2.7,M,-25.1,M,,0000*60
$GPGSA,A,3,05,29,15,25,30,18,16,,,,,,1.9,1.0,1.7*3D
$GPRMC,233346.000,A,3748.7980,N,12217.8602,W,0.73,65.59,021012,,,A*41
$GPVTG,65.59,T,,M,0.73,N,1.4,K,A*33
$GPGGA,233347.000,3748.7980,N,12217.8598,W,1,07,1.0,3.7,M,-25.1,M,,0000*60
$GPGSA,A,3,05,29,15,25,30,18,16,,,,,,1.9,1.0,1.7*3D
$GPGSV,3,1,12,29,76,075,26,21,53,283,14,25,34,195,26,05,31,047,24*76
$GPGSV,3,2,12,18,30,205,26,30,26,305,16,15,19,129,31,26,18,092,23*77
$GPGSV,3,3,12,12,07,170,23,16,06,326,24,02,03,072,,51,43,156,38*77
$GPRMC,233347.000,A,3748.7980,N,12217.8598,W,1.14,89.46,021012,,,A*4C
$GPVTG,89.46,T,,M,1.14,N,2.1,K,A*39
$GPGGA,233348.000,3748.7978,N,12217.8593,W,1,07,1.0,4.6,M,-25.1,M,,0000*65
$GPGSA,A,3,05,29,15,25,30,18,16,,,,,,1.9,1.0,1.7*3D
$GPRMC,233348.000,A,3748.7978,N,12217.8593,W,1.25,95.33,021012,,,A*42
$GPVTG,95.33,T,,M,1.25,N,2.3,K,A*36
$GPGGA,233349.000,3748.7974,N,12217.8593,W,1,07,1.0,6.4,M,-25.1,M,,0000*68
$GPGSA,A,3,05,29,15,25,30,18,16,,,,,,1.9,1.0,1.7*3D
$GPRMC,233349.000,A,3748.7974,N,12217.8593,W,1.40,112.66,021012,,,A*72
$GPVTG,112.66,T,,M,1.40,N,2.6,K,A*0E
$GPGGA,233350.000,3748.7969,N,12217.8591,W,1,07,1.0,7.4,M,-25.1,M,,0000*6F
$GPGSA,A,3,05,29,15,25,30,18,16,,,,,,1.9,1.0,1.7*3D
$GPRMC,233350.000,A,3748.7969,N,12217.8591,W,1.60,118.86,021012,,,A*72
$GPVTG,118.86,T,,M,1.60,N,3.0,K,A*0F
$GPGGA,233351.000,3748.7964,N,12217.8583,W,1,07,1.0,7.8,M,-25.1,M,,0000*6C
$GPGSA,A,3,05,29,15,25,30,18,16,,,,,,1.9,1.0,1.7*3D
$GPRMC,233351.000,A,3748.7964,N,12217.8583,W,2.24,111.64,021012,,,A*7B
$GPVTG,111.64,T,,M,2.24,N,4.2,K,A*0C
$GPGGA,233352.000,3748.7961,N,12217.8574,W,1,07,1.0,7.7,M,-25.1,M,,0000*6D
$GPGSA,A,3,05,29,15,25,30,18,16,,,,,,1.9,1.0,1.7*3D
$GPGSV,3,1,12,29,76,075,28,21,53,283,23,25,34,195,35,05,31,047,23*79
$GPGSV,3,2,12,18,30,205,35,30,26,305,16,15,19,129,34,26,18,092,20*73
$GPGSV,3,3,12,12,07,170,26,16,06,326,21,02,03,072,,51,43,156,36*79
$GPRMC,233352.000,A,3748.7961,N,12217.8574,W,2.66,111.94,021012,,,A*7C
$GPGGA,233353.000,3748.7958,N,12217.8563,W,1,07,1.0,8.1,M,-25.1,M,,0000*69
$GPGSA,A,3,05,29,15,25,30,18,16,,,,,,1.9,1.0,1.7*3D
$GPRMC,233353.000,A,3748.7958,N,12217.8563,W,2.59,114.07,021012,,,A*72
$GPVTG,114.07,T,,M,2.59,N,4.8,K,A*0C
$GPGGA,233354.000,3748.7952,N,12217.8557,W,1,07,1.0,8.5,M,-25.1,M,,0000*67
$GPGSA,A,3,05,29,15,25,30,18,16,,,,,,1.9,1.0,1.7*3D
$GPRMC,233354.000,A,3748.7952,N,12217.8557,W,2.02,125.83,021012,,,A*78
$GPVTG,125.83,T,,M,2.02,N,3.7,K,A*04
$GPGGA,233355.000,3748.7947,N,12217.8546,W,1,07,1.0,8.0,M,-25.1,M,,0000*67
$GPGSA,A,3,05,29,15,25,30,18,16,,,,,,1.9,1.0,1.7*3D
$GPRMC,233355.000,A,3748.7947,N,12217.8546,W,2.02,112.34,021012,,,A*75
$GPVTG,112.34,T,,M,2.02,N,3.7,K,A*0C
$GPGGA,233356.000,3748.7943,N,12217.8535,W,1,07,1.0,6.8,M,-25.1,M,,0000*62
$GPGSA,A,3,05,29,15,25,30,18,16,,,,,,1.9,1.0,1.7*3D
$GPRMC,233356.000,A,3748.7943,N,12217.8535,W,1.88,97.97,021012,,,A*42
$GPVTG,97.97,T,,M,1.88,N,3.5,K,A*3A
$GPGGA,233357.000,3748.7942,N,12217.8524,W,1,07,1.0,5.5,M,-25.1,M,,0000*6C
$GPGSA,A,3,05,29,15,25,30,18,16,,,,,,1.9,1.0,1.7*3D
$GPGSV,3,1,12,29,76,075,28,21,53,283,23,25,34,195,35,05,31,047,23*79
$GPGSV,3,2,12,18,30,205,35,30,26,305,17,15,19,129,31,26,18,092,28*7F
$GPGSV,3,3,12,12,07,170,25,16,06,326,21,02,03,072,,51,43,156,35*79
$GPRMC,233357.000,A,3748.7942,N,12217.8524,W,2.20,109.24,021012,,,A*7D
$GPVTG,109.24,T,,M,2.20,N,4.1,K,A*06
$GPGGA,233358.000,3748.7942,N,12217.8511,W,1,07,1.0,3.7,M,-25.1,M,,0000*61
$GPGSA,A,3,05,29,15,25,30,18,16,,,,,,1.9,1.0,1.7*3D
$GPRMC,233358.000,A,3748.7942,N,12217.8511,W,2.08,106.85,021012,,,A*7A
$GPVTG,106.85,T,,M,2.08,N,3.9,K,A*07
$GPGGA,233359.000,3748.7940,N,12217.8500,W,1,07,1.0,3.5,M,-25.1,M,,0000*60
$GPGSA,A,3,05,29,15,25,30,18,16,,,,,,1.9,1.0,1.7*3D
$GPRMC,233359.000,A,3748.7940,N,12217.8500,W,2.24,108.31,021012,,,A*76
$GPVTG,108.31,T,,M,2.24,N,4.1,K,A*07
$GPGGA,233400.000,3748.7938,N,12217.8490,W,1,07,1.0,3.2,M,-25.1,M,,0000*6B
$GPGSA,A,3,05,29,15,25,30,18,16,,,,,,1.9,1.0,1.7*3D
$GPRMC,233400.000,A,3748.7938,N,12217.8490,W,1.88,109.35,021012,,,A*7A
$GPVTG,109.35,T,,M,1.88,N,3.5,K,A*04
$GPGGA,233401.000,3748.7936,N,12217.8483,W,1,07,1.0,3.2,M,-25.1,M,,0000*66
$GPGSA,A,3,05,29,15,25,30,18,16,,,,,,1.9,1.0,1.7*3D
$GPRMC,233401.000,A,3748.7936,N,12217.8483,W,1.76,103.17,021012,,,A*7C
$GPVTG,103.17,T,,M,1.76,N,3.3,K,A*09
$GPGGA,233402.000,3748.7932,N,12217.8476,W,1,07,1.0,2.3,M,-25.1,M,,0000*6B
$GPGSA,A,3,05,29,15,25,30,18,16,,,,,,1.9,1.0,1.7*3D
$GPGSV,3,1,12,29,76,075,29,21,53,283,23,25,34,195,35,05,31,047,22*79
$GPGSV,3,2,12,18,30,205,35,30,26,305,18,15,19,129,33,26,18,092,27*7D
$GPGSV,3,3,12,12,07,170,22,16,06,326,20,02,03,072,,51,43,156,35*7F
$GPRMC,233402.000,A,3748.7932,N,12217.8476,W,1.69,115.72,021012,,,A*7B
$GPVTG,115.72,T,,M,1.69,N,3.1,K,A*01
$GPGGA,233403.000,3748.7930,N,12217.8471,W,1,07,1.0,2.0,M,-25.1,M,,0000*6C
$GPGSA,A,3,05,29,15,25,30,18,16,,,,,,1.9,1.0,1.7*3D
$GPRMC,233403.000,A,3748.7930,N,12217.8471,W,1.56,108.42,021012,,,A*7C
$GPVTG,108.42,T,,M,1.56,N,2.9,K,A*0B
$GPGGA,233404.000,3748.7928,N,12217.8463,W,1,07,1.0,2.0,M,-25.1,M,,0000*61
$GPGSA,A,3,05,29,15,25,30,18,16,,,,,,1.9,1.0,1.7*3D
$GPRMC,233404.000,A,3748.7928,N,12217.8463,W,1.90,101.74,021012,,,A*77
$GPVTG,101.74,T,,M,1.90,N,3.5,K,A*00
$GPGGA,233405.000,3748.7924,N,12217.8462,W,1,07,1.0,2.4,M,-25.1,M,,0000*69
$GPGSA,A,3,05,29,15,25,30,18,16,,,,,,1.9,1.0,1.7*3D
$GPRMC,233405.000,A,3748.7924,N,12217.8462,W,1.70,111.89,021012,,,A*76
$GPVTG,111.89,T,,M,1.70,N,3.1,K,A*09
$GPGGA,233406.000,3748.7922,N,12217.8459,W,1,07,1.0,2.3,M,-25.1,M,,0000*63
$GPGSA,A,3,05,29,15,25,30,18,16,,,,,,1.9,1.0,1.7*3D
$GPRMC,233406.000,A,3748.7922,N,12217.8459,W,1.47,102.20,021012,,,A*7E
$GPVTG,102.20,T,,M,1.47,N,2.7,K,A*0B
$GPGGA,233407.000,3748.7921,N,12217.8453,W,1,07,1.0,2.3,M,-25.1,M,,0000*6B
$GPGSA,A,3,05,29,15,25,30,18,16,,,,,,1.9,1.0,1.7*3D
$GPGSV,3,1,12,29,76,075,26,21,53,283,21,25,34,195,35,05,31,047,21*77
$GPGSV,3,2,12,18,30,205,35,30,26,305,19,15,19,129,32,26,18,092,28*72
$GPGSV,3,3,12,12,07,170,25,16,06,326,20,02,03,072,,51,43,156,34*79
$GPVTG,95.02,T,,M,1.41,N,2.6,K,A*33
$GPGGA,233408.000,3748.7920,N,12217.8447,W,1,07,1.0,3.3,M,-25.1,M,,0000*61
$GPGSA,A,3,05,29,15,25,30,18,16,,,,,,1.9,1.0,1.7*3D
$GPRMC,233408.000,A,3748.7920,N,12217.8447,W,1.16,92.69,021012,,,A*4C
$GPVTG,92.69,T,,M,1.16,N,2.2,K,A*3F
$GPGGA,233409.000,3748.7920,N,12217.8438,W,1,07,1.0,2.2,M,-25.1,M,,0000*68
$GPGSA,A,3,05,29,15,25,30,18,16,,,,,,1.9,1.0,1.7*3D
$GPRMC,233409.000,A,3748.7920,N,12217.8438,W,1.19,89.89,021012,,,A*4E
$GPVTG,89.89,T,,M,1.19,N,2.2,K,A*34
$GPGGA,233410.000,3748.7920,N,12217.8429,W,1,07,1.0,0.8,M,-25.1,M,,0000*68
$GPGSA,A,3,05,29,15,25,30,18,16,,,,,,1.9,1.0,1.7*3D
$GPRMC,233410.000,A,3748.7920,N,12217.8429,W,1.37,87.01,021012,,,A*44
$GPVTG,87.01,T,,M,1.37,N,2.5,K,A*31
$GPGGA,233411.000,3748.7920,N,12217.8418,W,1,07,1.0,-0.2,M,-25.1,M,,0000*4C
$GPGSA,A,3,05,29,15,25,30,18,16,,,,,,1.9,1.0,1.7*3D
$GPRMC,233411.000,A,3748.7920,N,12217.8418,W,1.81,107.30,021012,,,A*71
$GPVTG,107.30,T,,M,1.81,N,3.4,K,A*07
$GPGGA,233412.000,3748.7914,N,12217.8411,W,1,07,1.0,-0.6,M,-25.1,M,,0000*45
$GPGSA,A,3,05,29,15,25,30,18,16,,,,,,1.9,1.0,1.7*3D
$GPGSV,3,1,12,29,76,075,27,21,53,283,22,25,34,195,35,05,31,047,24*70
$GPGSV,3,2,12,18,30,205,35,30,26,305,19,15,19,129,29,26,18,092,24*74
$GPGSV,3,3,12,12,07,170,24,16,06,326,19,02,03,072,,51,43,156,31*77
$GPRMC,233412.000,A,3748.7914,N,12217.8411,W,1.52,106.57,021012,,,A*72
$GPVTG,106.57,T,,M,1.52,N,2.8,K,A*04
$GPGGA,233413.000,3748.7909,N,12217.8413,W,1,07,1.0,-1.6,M,-25.1,M,,0000*4B
$GPGSA,A,3,05,29,15,25,30,18,16,,,,,,1.9,1.0,1.7*3D
$GPRMC,233413.000,A,3748.7909,N,12217.8413,W,0.88,105.00,021012,,,A*7A
$GPVTG,105.00,T,,M,0.88,N,1.6,K,A*0E
$GPGGA,233414.000,3748.7901,N,12217.8411,W,1,07,1.0,-1.3,M,-25.1,M,,0000*43
$GPGSA,A,3,05,29,15,25,30,18,16,,,,,,1.9,1.0,1.7*3D
$GPRMC,233414.000,A,3748.7901,N,12217.8411,W,1.56,126.51,021012,,,A*70
$GPVTG,126.51,T,,M,1.56,N,2.9,K,A*05
$GPGGA,233415.000,3748.7898,N,12217.8402,W,1,06,1.0,-1.7,M,-25.1,M,,0000*44
$GPGSA,A,3,05,29,15,25,30,18,,,,,,,2.3,1.0,2.1*36
$GPRMC,233415.000,A,3748.7898,N,12217.8402,W,1.68,111.54,021012,,,A*7E
$GPVTG,111.54,T,,M,1.68,N,3.1,K,A*00
$GPGGA,233416.000,3748.7895,N,12217.8390,W,1,06,1.0,-2.2,M,-25.1,M,,0000*40
$GPGSA,A,3,05,29,15,25,30,18,,,,,,,2.3,1.0,2.1*36
$GPRMC,233416.000,A,3748.7895,N,12217.8390,W,1.76,105.05,021012,,,A*72
$GPVTG,105.05,T,,M,1.76,N,3.3,K,A*0C
$GPGGA,233417.000,3748.7893,N,12217.8377,W,1,06,1.0,-2.7,M,-25.1,M,,0000*4B
$GPGSA,A,3,05,29,15,25,30,18,,,,,,,2.3,1.0,2.1*36
$GPGSV,3,1,12,29,75,077,28,21,53,284,22,25,33,195,35,18,31,205,34*77
$GPGSV,3,2,12,05,31,047,24,30,26,305,19,15,19,129,31,26,18,092,25*75
$GPGSV,3,3,12,16,06,325,,12,06,170,25,02,02,073,,51,43,156,35*78
$GPRMC,233417.000,A,3748.7893,N,12217.8377,W,1.77,105.42,021012,,,A*7E
$GPVTG,105.42,T,,M,1.77,N,3.3,K,A*0E
$GPGGA,233418.000,3748.7892,N,12217.8370,W,1,06,1.0,-3.1,M,-25.1,M,,0000*45
$GPGSA,A,3,05,29,15,25,30,18,,,,,,,2.3,1.0,2.1*36
$GPRMC,233418.000,A,3748.7892,N,12217.8370,W,1.40,110.93,021012,,,A*7B
$GPVTG,110.93,T,,M,1.40,N,2.6,K,A*06
$GPGGA,233419.000,3748.7888,N,12217.8361,W,1,06,1.0,-3.6,M,-25.1,M,,0000*48
$GPGSA,A,3,05,29,15,25,30,18,,,,,,,2.3,1.0,2.1*36
$GPRMC,233419.000,A,3748.7888,N,12217.8361,W,2.34,118.37,021012,,,A*77
$GPVTG,118.37,T,,M,2.34,N,4.3,K,A*03
$GPGGA,233420.000,3748.7879,N,12217.8349,W,1,06,1.0,-4.5,M,-25.1,M,,0000*42
$GPGSA,A,3,05,29,15,25,30,18,,,,,,,2.3,1.0,2.1*36
$GPRMC,233420.000,A,3748.7879,N,12217.8349,W,2.95,121.31,021012,,,A*7E
$GPVTG,121.31,T,,M,2.95,N,5.5,K,A*03
$GPGGA,233421.000,3748.7872,N,12217.8337,W,1,06,1.0,-5.6,M,-25.1,M,,0000*43
$GPGSA,A,3,05,29,15,25,30,18,,,,,,,2.3,1.0,2.1*36
$GPRMC,233421.000,A,3748.7872,N,12217.8337,W,2.58,121.34,021012,,,A*79
$GPVTG,121.34,T,,M,2.58,N,4.8,K,A*0B
$GPGGA,233422.000,3748.7862,N,12217.8325,W,1,06,1.0,-6.2,M,-25.1,M,,0000*45
$GPGSA,A,3,05,29,15,25,30,18,,,,,,,2.3,1.0,2.1*36
$GPGSV,3,1,12,29,75,077,28,21,53,284,21,25,33,195,34,18,31,205,34*75
$GPGSV,3,2,12,05,31,047,24,30,26,305,19,15,19,129,25,26,18,092,28*7D
$GPGSV,3,3,12,16,06,325,,12,06,170,33,02,02,073,,51,43,156,31*7B
$GPVTG,118.89,T,,M,2.44,N,4.5,K,A*07
$GPGGA,233423.000,3748.7851,N,12217.8315,W,1,06,1.0,-5.6,M,-25.1,M,,0000*40
$GPGSA,A,3,05,29,15,25,30,18,,,,,,,2.3,1.0,2.1*36
$GPRMC,233423.000,A,3748.7851,N,12217.8315,W,1.89,111.87,021012,,,A*7E
$GPVTG,111.87,T,,M,1.89,N,3.5,K,A*05
$GPGGA,233424.000,3748.7843,N,12217.8305,W,1,06,1.0,-3.3,M,-25.1,M,,0000*46
$GPGSA,A,3,05,29,15,25,30,18,,,,,,,2.3,1.0,2.1*36
$GPRMC,233424.000,A,3748.7843,N,12217.8305,W,2.34,110.68,021012,,,A*7E
$GPVTG,110.68,T,,M,2.34,N,4.3,K,A*01
$GPGGA,233425.000,3748.7833,N,12217.8297,W,1,06,1.0,-2.8,M,-25.1,M,,0000*40
$GPGSA,A,3,05,29,15,25,30,18,,,,,,,2.3,1.0,2.1*36
$GPRMC,233425.000,A,3748.7833,N,12217.8297,W,2.08,114.50,021012,,,A*72
$GPVTG,114.50,T,,M,2.08,N,3.9,K,A*0C
$GPGGA,233426.000,3748.7824,N,12217.8288,W,1,06,1.0,-1.5,M,-25.1,M,,0000*45
$GPGSA,A,3,05,29,15,25,30,18,,,,,,,2.3,1.0,2.1*36
$GPRMC,233426.000,A,3748.7824,N,12217.8288,W,1.92,129.27,021012,,,A*77
$GPVTG,129.27,T,,M,1.92,N,3.6,K,A*0D
$GPGGA,233427.000,3748.7821,N,12217.8279,W,1,06,1.0,-2.4,M,-25.1,M,,0000*4D
$GPGSA,A,3,05,29,15,25,30,18,,,,,,,2.3,1.0,2.1*36
$GPGSV,3,1,12,29,75,077,28,21,53,284,20,25,33,195,37,18,31,205,34*77
$GPGSV,3,2,12,05,31,047,23,30,26,305,19,15,19,129,32,26,18,092,23*77
$GPGSV,3,3,12,16,06,325,,12,06,170,31,02,02,073,,51,43,156,35*7D
$GPRMC,233427.000,A,3748.7821,N,12217.8279,W,2.21,129.29,021012,,,A*78
$GPVTG,129.29,T,,M,2.21,N,4.1,K,A*08
$GPGGA,233428.000,3748.7814,N,12217.8266,W,1,06,1.0,-1.8,M,-25.1,M,,0000*45
$GPGSA,A,3,05,29,15,25,30,18,,,,,,,2.3,1.0,2.1*36
$GPRMC,233428.000,A,3748.7814,N,12217.8266,W,2.51,130.54,021012,,,A*7A
$GPVTG,130.54,T,,M,2.51,N,4.7,K,A*0B
$GPGGA,233429.000,3748.7809,N,12217.8257,W,1,06,1.0,-1.7,M,-25.1,M,,0000*45
$GPGSA,A,3,05,29,15,25,30,18,,,,,,,2.3,1.0,2.1*36
$GPRMC,233429.000,A,3748.7809,N,12217.8257,W,2.52,111.94,021012,,,A*79
$GPVTG,111.94,T,,M,2.52,N,4.7,K,A*07
$GPGGA,233430.000,3748.7804,N,12217.8243,W,1,06,1.0,-1.5,M,-25.1,M,,0000*47
$GPGSA,A,3,05,29,15,25,30,18,,,,,,,2.3,1.0,2.1*36
$GPRMC,233430.000,A,3748.7804,N,12217.8243,W,2.49,118.89,021012,,,A*76
$GPVTG,118.89,T,,M,2.49,N,4.6,K,A*09
$GPGGA,233431.000,3748.7797,N,12217.8231,W,1,06,1.0,-0.8,M,-25.1,M,,0000*4A
$GPGSA,A,3,05,29,15,25,30,18,,,,,,,2.3,1.0,2.1*36
$GPRMC,233431.000,A,3748.7797,N,12217.8231,W,2.53,121.42,021012,,,A*71
$GPVTG,121.42,T,,M,2.53,N,4.7,K,A*0E
$GPGGA,233432.000,3748.7790,N,12217.8218,W,1,06,1.0,-0.3,M,-25.1,M,,0000*4E
$GPGSA,A,3,05,29,15,25,30,18,,,,,,,2.3,1.0,2.1*36
$GPGSV,3,1,12,29,75,077,29,21,53,284,20,25,33,195,36,18,31,205,34*77
$GPGSV,3,2,12,05,31,047,23,30,26,305,19,15,19,129,30,26,18,092,26*70
$GPGSV,3,3,12,16,06,325,,12,06,170,28,02,02,073,,51,43,156,29*78
$GPRMC,233432.000,A,3748.7790,N,12217.8218,W,2.50,116.51,021012,,,A*7B
$GPVTG,116.51,T,,M,2.50,N,4.6,K,A*0A
$GPGGA,233433.000,3748.7786,N,12217.8210,W,1,06,1.0,-0.1,M,-25.1,M,,0000*42
$GPGSA,A,3,05,29,15,25,30,18,,,,,,,2.3,1.0,2.1*36
$GPRMC,233433.000,A,3748.7786,N,12217.8210,W,2.22,107.77,021012,,,A*74
$GPVTG,107.77,T,,M,2.22,N,4.1,K,A*0C
$GPGGA,233434.000,3748.7782,N,12217.8198,W,1,06,1.0,0.0,M,-25.1,M,,0000*6E
$GPGSA,A,3,05,29,15,25,30,18,,,,,,,2.3,1.0,2.1*36
$GPRMC,233434.000,A,3748.7782,N,12217.8198,W,2.63,110.02,021012,,,A*75
$GPVTG,110.02,T,,M,2.63,N,4.9,K,A*05
$GPGGA,233435.000,3748.7778,N,12217.8190,W,1,06,1.0,0.1,M,-25.1,M,,0000*63
$GPGSA,A,3,05,29,15,25,30,18,,,,,,,2.3,1.0,2.1*36
$GPRMC,233435.000,A,3748.7778,N,12217.8190,W,2.35,110.57,021012,,,A*7A
$GPVTG,110.57,T,,M,2.35,N,4.3,K,A*0C
$GPGGA,233436.000,3748.7777,N,12217.8190,W,1,06,1.0,-0.1,M,-25.1,M,,0000*42
$GPGSA,A,3,05,29,15,25,30,18,,,,,,,2.3,1.0,2.1*36
$GPRMC,233436.000,A,3748.7777,N,12217.8190,W,2.50,115.17,021012,,,A*74
$GPVTG,115.17,T,,M,2.50,N,4.6,K,A*0B
$GPGGA,233437.000,3748.7773,N,12217.8183,W,1,06,1.0,-0.4,M,-25.1,M,,0000*40
$GPGSA,A,3,05,29,15,25,30,18,,,,,,,2.3,1.0,2.1*36
$GPGSV,3,1,12,29,75,077,29,21,53,284,19,25,33,195,36,18,31,205,35*7C
$GPGSV,3,2,12,05,31,047,20,30,26,305,19,15,19,129,34,26,18,092,27*76
$GPGSV,3,3,12,16,06,325,,12,06,170,29,02,02,073,,51,43,156,36*77
$GPRMC,233437.000,A,3748.7773,N,12217.8183,W,2.46,119.71,021012,,,A*78
$GPVTG,119.71,T,,M,2.46,N,4.5,K,A*03
$GPGGA,233438.000,3748.7765,N,12217.8175,W,1,06,1.0,-0.7,M,-25.1,M,,0000*42
$GPGSA,A,3,05,29,15,25,30,18,,,,,,,2.3,1.0,2.1*36
$GPRMC,233438.000,A,3748.7765,N,12217.8175,W,2.56,124.82,021012,,,A*7A
$GPVTG,124.82,T,,M,2.56,N,4.7,K,A*02
$GPGGA,233439.000,3748.7761,N,12217.8165,W,1,06,1.0,-0.8,M,-25.1,M,,0000*49
$GPGSA,A,3,05,29,15,25,30,18,,,,,,,2.3,1.0,2.1*36
$GPRMC,233439.000,A,3748.7761,N,12217.8165,W,2.46,118.87,021012,,,A*75
$GPVTG,118.87,T,,M,2.46,N,4.6,K,A*08
$GPGGA,233440.000,3748.7759,N,12217.8159,W,1,06,1.0,-1.8,M,-25.1,M,,0000*42
$GPGSA,A,3,05,29,15,25,30,18,,,,,,,2.3,1.0,2.1*36
$GPRMC,233440.000,A,3748.7759,N,12217.8159,W,2.13,111.47,021012,,,A*7A
$GPVTG,111.47,T,,M,2.13,N,4.0,K,A*0B
$GPGGA,233441.000,3748.7757,N,12217.8153,W,1,06,1.0,-1.7,M,-25.1,M,,0000*48
$GPGSA,A,3,05,29,15,25,30,18,,,,,,,2.3,1.0,2.1*36
$GPRMC,233441.000,A,3748.7757,N,12217.8153,W,2.29,115.69,021012,,,A*7E
$GPVTG,115.69,T,,M,2.29,N,4.2,K,A*08
$GPGGA,233442.000,3748.7752,N,12217.8142,W,1,06,1.0,-1.9,M,-25.1,M,,0000*40
$GPGSA,A,3,05,29,15,25,30,18,,,,,,,2.3,1.0,2.1*36
$GPGSV,3,1,12,29,75,077,29,21,53,284,19,25,33,195,36,18,31,205,35*7C
$GPGSV,3,2,12,05,31,047,21,30,26,305,19,15,19,129,29,26,18,092,32*7F
$GPGSV,3,3,12,16,06,325,,12,06,170,29,02,02,073,,51,43,156,36*77
$GPRMC,233442.000,A,3748.7752,N,12217.8142,W,2.20,108.29,021012,,,A*79
$GPGGA,233443.000,3748.7747,N,12217.8132,W,1,06,1.0,-1.8,M,-25.1,M,,0000*43
$GPGSA,A,3,05,29,15,25,30,18,,,,,,,2.3,1.0,2.1*36
$GPRMC,233443.000,A,3748.7747,N,12217.8132,W,2.59,122.84,021012,,,A*7A
$GPVTG,122.84,T,,M,2.59,N,4.8,K,A*02
$GPGGA,233444.000,3748.7742,N,12217.8118,W,1,06,1.0,-1.5,M,-25.1,M,,0000*44
$GPGSA,A,3,05,29,15,25,30,18,,,,,,,2.3,1.0,2.1*36
$GPRMC,233444.000,A,3748.7742,N,12217.8118,W,2.84,117.30,021012,,,A*79
$GPVTG,117.30,T,,M,2.84,N,5.3,K,A*01
$GPGGA,233445.000,3748.7737,N,12217.8106,W,2,06,1.0,-1.3,M,-25.1,M,2.8,0000*69
$GPGSA,A,3,05,29,15,25,30,18,,,,,,,2.3,1.0,2.1*36
$GPRMC,233445.000,A,3748.7737,N,12217.8106,W,2.64,118.63,021012,,,D*77
$GPVTG,118.63,T,,M,2.64,N,4.9,K,D*08
$GPGGA,233446.000,3748.7733,N,12217.8093,W,2,06,1.0,-1.2,M,-25.1,M,2.8,0000*62
$GPGSA,A,3,05,29,15,25,30,18,,,,,,,2.3,1.0,2.1*36
$GPRMC,233446.000,A,3748.7733,N,12217.8093,W,2.53,113.64,021012,,,D*75
$GPVTG,113.64,T,,M,2.53,N,4.7,K,D*0E
$GPGGA,233447.000,3748.7729,N,12217.8081,W,2,06,1.0,-1.1,M,-25.1,M,2.8,0000*68
$GPGSA,A,3,05,29,15,25,30,18,,,,,,,2.3,1.0,2.1*36
$GPGSV,3,1,12,29,75,078,30,21,53,284,19,25,33,195,36,18,31,205,36*78
$GPGSV,3,2,12,05,30,047,22,30,26,305,19,15,20,128,35,26,18,092,26*7E
$GPGSV,3,3,12,16,06,325,,12,06,170,26,02,02,073,,51,43,156,35*7B
$GPRMC,233447.000,A,3748.7729,N,12217.8081,W,2.52,117.07,021012,,,D*7C
$GPVTG,117.07,T,,M,2.52,N,4.7,K,D*0E
$GPGGA,233448.000,3748.7726,N,12217.8070,W,2,06,1.0,-1.0,M,-25.1,M,3.8,0000*66
$GPGSA,A,3,05,29,15,25,30,18,,,,,,,2.3,1.0,2.1*36
$GPRMC,233448.000,A,3748.7726,N,12217.8070,W,2.39,119.92,021012,,,D*7D
$GPVTG,119.92,T,,M,2.39,N,4.4,K,D*02
$GPGGA,233449.000,3748.7725,N,12217.8064,W,2,06,1.0,-1.6,M,-25.1,M,4.8,0000*60
$GPGSA,A,3,05,29,15,25,30,18,,,,,,,2.3,1.0,2.1*36
$GPRMC,233449.000,A,3748.7725,N,12217.8064,W,2.22,114.67,021012,,,D*77
$GPVTG,114.67,T,,M,2.22,N,4.1,K,D*0A
$GPGGA,233450.000,3748.7723,N,12217.8056,W,2,06,1.0,-1.9,M,-25.1,M,5.8,0000*61
$GPGSA,A,3,05,29,15,25,30,18,,,,,,,2.3,1.0,2.1*36
$GPRMC,233450.000,A,3748.7723,N,12217.8056,W,2.35,112.33,021012,,,D*79
$GPVTG,112.33,T,,M,2.35,N,4.4,K,D*0E
$GPGGA,233451.000,3748.7720,N,12217.8048,W,2,06,1.0,-2.4,M,-25.1,M,2.8,0000*65
$GPGSA,A,3,05,29,15,25,30,18,,,,,,,2.3,1.0,2.1*36
$GPRMC,233451.000,A,3748.7720,N,12217.8048,W,2.36,107.61,021012,,,D*74
$GPVTG,107.61,T,,M,2.36,N,4.4,K,D*0E
$GPGGA,233452.000,3748.7718,N,12217.8038,W,2,06,1.0,-2.6,M,-25.1,M,2.8,0000*68
$GPGSA,A,3,05,29,15,25,30,18,,,,,,,2.3,1.0,2.1*36
$GPGSV,3,1,12,29,75,078,30,21,53,284,20,25,33,195,36,18,31,205,36*72
$GPGSV,3,2,12,05,30,047,23,30,26,305,19,15,20,128,34,26,18,092,33*7A
$GPGSV,3,3,12,16,06,325,,12,06,170,31,02,02,073,,51,43,156,33*7B
$GPRMC,233452.000,A,3748.7718,N,12217.8038,W,2.15,112.19,021012,,,D*71
$GPVTG,112.19,T,,M,2.15,N,4.0,K,D*00
$GPGGA,233453.000,3748.7711,N,12217.8029,W,2,06,1.0,-2.3,M,-25.1,M,2.8,0000*65
$GPGSA,A,3,05,29,15,25,30,18,,,,,,,2.3,1.0,2.1*36
$GPRMC,233453.000,A,3748.7711,N,12217.8029,W,2.20,120.68,021012,,,D*78
$GPVTG,120.68,T,,M,2.20,N,4.1,K,D*00
$GPGGA,233454.000,3748.7701,N,12217.8024,W,2,06,1.0,-1.4,M,-25.1,M,2.8,0000*6A
$GPGSA,A,3,05,29,15,25,30,18,,,,,,,2.3,1.0,2.1*36
$GPRMC,233454.000,A,3748.7701,N,12217.8024,W,2.43,126.11,021012,,,D*7E
$GPVTG,126.11,T,,M,2.43,N,4.5,K,D*09
$GPGGA,233455.000,3748.7692,N,12217.8013,W,2,06,1.0,-1.5,M,-25.1,M,3.8,0000*64
$GPGSA,A,3,05,29,15,25,30,18,,,,,,,2.3,1.0,2.1*36
$GPRMC,233455.000,A,3748.7692,N,12217.8013,W,2.62,125.48,021012,,,D*7C
$GPVTG,125.48,T,,M,2.62,N,4.9,K,D*09
$GPGGA,233456.000,3748.7687,N,12217.8003,W,2,06,1.0,-1.4,M,-25.1,M,4.8,0000*64
$GPGSA,A,3,05,29,15,25,30,18,,,,,,,2.3,1.0,2.1*36
$GPRMC,233456.000,A,3748.7687,N,12217.8003,W,2.86,119.68,021012,,,D*7D
$GPVTG,119.68,T,,M,2.86,N,5.3,K,D*05
$GPGGA,233457.000,3748.7683,N,12217.7993,W,2,06,1.0,-0.5,M,-25.1,M,2.8,0000*68
$GPGSA,A,3,05,29,15,25,30,18,,,,,,,2.3,1.0,2.1*36
$GPGSV,3,1,12,29,75,078,30,21,53,284,21,25,33,195,29,18,31,205,31*7A
$GPGSV,3,2,12,05,30,047,30,30,26,305,19,15,20,128,25,26,18,092,26*7C
$GPGSV,3,3,12,16,06,325,,12,06,170,24,02,02,073,,51,43,156,30*7C
$GPVTG,122.86,T,,M,2.39,N,4.4,K,D*0F
$GPGGA,233458.000,3748.7679,N,12217.7979,W,2,06,1.0,-2.3,M,-25.1,M,2.8,0000*62
$GPGSA,A,3,05,29,15,25,30,18,,,,,,,2.3,1.0,2.1*36
$GPRMC,233458.000,A,3748.7679,N,12217.7979,W,2.80,106.24,021012,,,D*79
$GPVTG,106.24,T,,M,2.80,N,5.2,K,D*04
$GPGGA,233459.000,3748.7675,N,12217.7969,W,2,06,1.0,-2.3,M,-25.1,M,2.8,0000*6E
$GPGSA,A,3,05,29,15,25,30,18,,,,,,,2.3,1.0,2.1*36
$GPRMC,233459.000,A,3748.7675,N,12217.7969,W,2.55,109.95,021012,,,D*78
$GPVTG,109.95,T,,M,2.55,N,4.7,K,D*0D
$GPGGA,233500.000,3748.7673,N,12217.7960,W,2,06,1.0,-2.8,M,-25.1,M,2.8,0000*67
$GPGSA,A,3,05,29,15,25,30,18,,,,,,,2.3,1.0,2.1*36
$GPRMC,233500.000,A,3748.7673,N,12217.7960,W,2.25,106.38,021012,,,D*75
$GPVTG,106.38,T,,M,2.25,N,4.2,K,D*07
$GPGGA,233501.000,3748.7669,N,12217.7947,W,2,06,1.0,-2.7,M,-25.1,M,3.8,0000*66
$GPGSA,A,3,05,29,15,25,30,18,,,,,,,2.3,1.0,2.1*36
$GPRMC,233501.000,A,3748.7669,N,12217.7947,W,2.50,109.78,021012,,,D*73
$GPVTG,109.78,T,,M,2.50,N,4.6,K,D*0A
$GPGGA,233502.000,3748.7667,N,12217.7937,W,2,06,1.0,-2.9,M,-25.1,M,4.8,0000*65
$GPGSA,A,3,05,29,15,25,30,18,,,,,,,2.3,1.0,2.1*36
$GPGSV,3,1,12,29,75,078,30,21,53,284,21,25,33,195,36,18,31,205,36*73
$GPGSV,3,2,12,05,30,047,21,30,26,305,19,15,20                                                                                                                                                                                                                                                                                                                                                                                                                                                                                                                                                                                                                                                                                                                                                                                                                                                                                                                                                                                                                                                                ,128,36,26,18,092,35*7C
$GPGSV,3,3,12,16,06,325,,12,06,170,34,02,02,073,,51,43,156,36*7B
$GPRMC,233502.000,A,3748.7667,N,12217.7937,W,2.69,111.64,021012,,,D*77
$GPVTG,111.64,T,,M,2.69,N,5.0,K,D*03
$GPGGA,233503.000,3748.7657,N,12217.7924,W,2,06,1.0,-0.8,M,-25.1,M,2.8,0000*60
$GPGSA,A,3,05,29,15,25,30,18,,,,,,,2.3,1.0,2.1*36
$GPRMC,233503.000,A,3748.7657,N,12217.7924,W,2.75,112.09,021012,,,D*72
$GPVTG,112.09,T,,M,2.75,N,5.1,K,D*07
$GPGGA,233504.000,3748.7652,N,12217.7916,W,2,06,1.1,-1.6,M,-25.1,M,,0000*49
$GPGSA,A,3,05,29,15,25,18,16,,,,,,,2.0,1.1,1.7*35
$GPRMC,233504.000,A,3748.7652,N,12217.7916,W,2.43,110.08,021012,,,D*77
$GPVTG,110.08,T,,M,2.43,N,4.5,K,D*04
$GPGGA,233505.000,3748.7647,N,12217.7909,W,2,07,1.0,-1.9,M,-25.1,M,,0000*4D
$GPGSA,A,3,05,29,15,25,30,18,16,,,,,,1.9,1.0,1.7*3D
$GPRMC,233505.000,A,3748.7647,N,12217.7909,W,2.55,110.00,021012,,,D*73
$GPVTG,110.00,T,,M,2.55,N,4.7,K,D*09
$GPGGA,233506.000,3748.7644,N,12217.7900,W,2,07,1.0,-1.0,M,-25.1,M,3.8,0000*68
$GPGSA,A,3,05,29,15,25,30,18,16,,,,,,1.9,1.0,1.7*3D
$GPRMC,233506.000,A,3748.7644,N,12217.7900,W,2.31,106.45,021012,,,D*7E
$GPVTG,106.45,T,,M,2.31,N,4.3,K,D*09
$GPGGA,233507.000,3748.7642,N,12217.7891,W,2,07,1.0,-2.3,M,-25.1,M,4.8,0000*61
$GPGSA,A,3,05,29,15,25,30,18,16,,,,,,1.9,1.0,1.7*3D
$GPGSV,3,1,12,29,75,078,29,21,53,284,21,25,33,195,36,18,31,205,36*7B
$GPGSV,3,2,12,05,30,047,23,30,26,305,18,15,20,128,37,26,18,092,24*7E
$GPGSV,3,3,12,16,06,325,20,12,06,170,26,02,02,073,,51,43,156,33*7F
$GPRMC,233507.000,A,3748.7642,N,12217.7891,W,1.88,105.81,021012,,,D*7A
$GPVTG,105.81,T,,M,1.88,N,3.5,K,D*02
$GPGGA,233508.000,3748.7637,N,12217.7881,W,2,07,1.0,-2.9,M,-25.1,M,5.8,0000*66
$GPGSA,A,3,05,29,15,25,30,18,16,,,,,,1.9,1.0,1.7*3D
$GPRMC,233508.000,A,3748.7637,N,12217.7881,W,2.54,129.43,021012,,,D*74
$GPVTG,129.43,T,,M,2.54,N,4.7,K,D*05
$GPGGA,233509.000,3748.7629,N,12217.7874,W,2,06,1.1,-1.3,M,-25.1,M,,0000*48
$GPGSA,A,3,05,29,15,25,18,16,,,,,,,2.0,1.1,1.7*35
$GPRMC,233509.000,A,3748.7629,N,12217.7874,W,2.45,126.59,021012,,,D*74
$GPVTG,126.59,T,,M,2.45,N,4.5,K,D*03
$GPGGA,233510.000,3748.7623,N,12217.7866,W,2,07,1.0,-0.9,M,-25.1,M,,0000*42
$GPGSA,A,3,05,29,15,25,30,18,16,,,,,,1.9,1.0,1.7*3D
$GPRMC,233510.000,A,3748.7623,N,12217.7866,W,2.17,115.49,021012,,,D*73
$GPVTG,115.49,T,,M,2.17,N,4.0,K,D*00
$GPGGA,233511.000,3748.7617,N,12217.7857,W,2,07,1.0,-0.0,M,-25.1,M,,0000*4F
$GPGSA,A,3,05,29,15,25,30,18,16,,,,,,1.9,1.0,1.7*3D
$GPRMC,233511.000,A,3748.7617,N,12217.7857,W,2.31,113.71,021012,,,D*7E
$GPVTG,113.71,T,,M,2.31,N,4.3,K,D*0A
$GPGGA,233512.000,3748.7610,N,12217.7850,W,2,07,1.0,1.1,M,-25.1,M,3.8,0000*44
$GPGSA,A,3,05,29,15,25,30,18,16,,,,,,1.9,1.0,1.7*3D
$GPGSV,3,1,12,29,75,078,28,21,53,284,21,25,33,195,36,18,31,205,36*7A
$GPGSV,3,2,12,05,30,047,24,30,26,305,19,15,20,128,37,26,18,092,20*7C
$GPGSV,3,3,12,16,06,325,19,12,06,170,26,02,02,073,,51,43,156,37*71
$GPRMC,233512.000,A,3748.7610,N,12217.7850,W,2.13,118.81,021012,,,D*79
$GPVTG,118.81,T,,M,2.13,N,4.0,K,D*0D
$GPGGA,233513.000,3748.7605,N,12217.7838,W,2,07,1.0,1.4,M,-25.1,M,4.8,0000*4D
$GPGSA,A,3,05,29,15,25,30,18,16,,,,,,1.9,1.0,1.7*3D
$GPRMC,233513.000,A,3748.7605,N,12217.7838,W,2.07,100.43,021012,,,D*70
$GPVTG,100.43,T,,M,2.07,N,3.8,K,D*00
$GPGGA,233514.000,3748.7602,N,12217.7831,W,2,07,1.0,1.5,M,-25.1,M,5.8,0000*44
$GPGSA,A,3,05,29,15,25,30,18,16,,,,,,1.9,1.0,1.7*3D
$GPRMC,233514.000,A,3748.7602,N,12217.7831,W,2.18,97.85,021012,,,D*42
$GPVTG,97.85,T,,M,2.18,N,4.0,K,D*34
$GPGGA,233515.000,3748.7600,N,12217.7821,W,2,07,1.0,1.9,M,-25.1,M,,0000*69
$GPGSA,A,3,05,29,15,25,30,18,16,,,,,,1.9,1.0,1.7*3D
$GPRMC,233515.000,A,3748.7600,N,12217.7821,W,2.13,101.69,021012,,,D*77
$GPVTG,101.69,T,,M,2.13,N,3.9,K,D*0D
$GPGGA,233516.000,3748.7594,N,12217.7812,W,2,07,1.0,1.8,M,-25.1,M,,0000*65
$GPGSA,A,3,05,29,15,25,30,18,16,,,,,,1.9,1.0,1.7*3D
$GPRMC,233516.000,A,3748.7594,N,12217.7812,W,1.97,116.17,021012,,,D*7A
$GPVTG,116.17,T,,M,1.97,N,3.6,K,D*02
$GPGGA,233517.000,3748.7589,N,12217.7801,W,2,07,1.0,1.7,M,-25.1,M,,0000*65
$GPGSA,A,3,05,29,15,25,30,18,16,,,,,,1.9,1.0,1.7*3D
$GPGSV,3,1,12,29,75,078,29,21,53,285,21,25,33,194,29,18,31,205,27*75
$GPGSV,3,2,12,05,30,047,17,30,26,304,20,15,20,128,36,26,18,092,21*77
$GPGSV,3,3,12,16,07,325,18,12,06,169,26,02,02,073,,51,43,156,34*7A
$GPRMC,233517.000,A,3748.7589,N,12217.7801,W,2.38,122.50,021012,,,D*77
$GPGGA,233518.000,3748.7582,N,12217.7789,W,2,07,1.0,1.8,M,-25.1,M,3.8,0000*44
$GPGSA,A,3,05,29,15,25,30,18,16,,,,,,1.9,1.0,1.7*3D
$GPRMC,233518.000,A,3748.7582,N,12217.7789,W,2.34,128.90,021012,,,D*76
$GPVTG,128.90,T,,M,2.34,N,4.3,K,D*08
$GPGGA,233519.000,3748.7576,N,12217.7781,W,2,05,1.4,1.3,M,-25.1,M,4.8,0000*4C
$GPGSA,A,3,29,15,25,30,18,,,,,,,,2.6,1.4,2.2*31
$GPRMC,233519.000,A,3748.7576,N,12217.7781,W,2.23,127.20,021012,,,D*76
$GPVTG,127.20,T,,M,2.23,N,4.1,K,D*08
$GPGGA,233520.000,3748.7570,N,12217.7775,W,2,05,1.4,0.3,M,-25.1,M,5.8,0000*4B
$GPGSA,A,3,29,15,25,30,18,,,,,,,,2.6,1.4,2.2*31
$GPRMC,233520.000,A,3748.7570,N,12217.7775,W,2.19,128.39,021012,,,D*7F
$GPVTG,128.39,T,,M,2.19,N,4.1,K,D*06
$GPGGA,233521.000,3748.7563,N,12217.7764,W,2,05,1.4,0.7,M,-25.1,M,,0000*6F
$GPGSA,A,3,29,15,25,30,18,,,,,,,,2.6,1.4,2.2*31
$GPRMC,233521.000,A,3748.7563,N,12217.7764,W,2.51,129.14,021012,,,D*7E
$GPVTG,129.14,T,,M,2.51,N,4.6,K,D*03
$GPGGA,233522.000,3748.7558,N,12217.7758,W,2,07,1.0,-0.3,M,-25.1,M,2.8,0000*60
$GPGSA,A,3,05,29,15,25,30,18,16,,,,,,1.9,1.0,1.7*3D
$GPGSV,3,1,12,29,75,078,29,21,53,285,21,25,33,194,36,18,31,205,29*75
$GPGSV,3,2,12,05,30,047,18,30,26,304,20,15,20,128,36,26,18,092,20*79
$GPGSV,3,3,12,16,07,325,17,12,06,169,28,02,02,073,,51,43,156,33*7C
$GPRMC,233522.000,A,3748.7558,N,12217.7758,W,2.46,121.60,021012,,,D*77
$GPVTG,121.60,T,,M,2.46,N,4.6,K,D*0E
$GPGGA,233523.000,3748.7551,N,12217.7748,W,2,07,1.0,-0.4,M,-25.1,M,,0000*4A
$GPGSA,A,3,05,29,15,25,30,18,16,,,,,,1.9,1.0,1.7*3D
$GPRMC,233523.000,A,3748.7551,N,12217.7748,W,2.18,117.34,021012,,,D*71
$GPVTG,117.34,T,,M,2.18,N,4.0,K,D*07
$GPGGA,233524.000,3748.7546,N,12217.7739,W,2,07,1.0,-0.2,M,-25.1,M,,0000*4B
$GPGSA,A,3,05,29,15,25,30,18,16,,,,,,1.9,1.0,1.7*3D
$GPRMC,233524.000,A,3748.7546,N,12217.7739,W,2.15,115.35,021012,,,D*78
$GPVTG,115.35,T,,M,2.15,N,4.0,K,D*09
$GPGGA,233525.000,3748.7541,N,12217.7730,W,2,05,1.4,-0.7,M,-25.1,M,,0000*47
$GPGSA,A,3,29,15,25,30,18,,,,,,,,2.6,1.4,2.2*31
$GPRMC,233525.000,A,3748.7541,N,12217.7730,W,2.21,107.07,021012,,,D*72
$GPVTG,107.07,T,,M,2.21,N,4.1,K,D*0D
$GPGGA,233526.000,3748.7538,N,12217.7721,W,2,05,1.4,-0.7,M,-25.1,M,3.8,0000*6F
$GPGSA,A,3,29,15,25,30,18,,,,,,,,2.6,1.4,2.2*31
$GPRMC,233526.000,A,3748.7538,N,12217.7721,W,2.34,106.44,021012,,,D*7D
$GPVTG,106.44,T,,M,2.34,N,4.3,K,D*0D
$GPGGA,233527.000,3748.7533,N,12217.7711,W,2,05,1.4,-0.8,M,-25.1,M,4.8,0000*6E
$GPGSA,A,3,29,15,25,30,18,,,,,,,,2.6,1.4,2.2*31
$GPGSV,3,1,12,29,75,078,30,21,53,285,21,25,33,194,37,18,31,205,35*71
$GPGSV,3,2,12,05,30,047,18,30,26,304,19,15,20,128,33,26,18,092,20*76
$GPGSV,3,3,12,16,07,325,17,12,06,169,29,02,02,073,,51,43,156,39*77
$GPRMC,233527.000,A,3748.7533,N,12217.7711,W,1.95,109.36,021012,,,D*76
$GPVTG,109.36,T,,M,1.95,N,3.6,K,D*0D
$GPGGA,233528.000,3748.7528,N,12217.7702,W,2,07,1.0,-0.6,M,-25.1,M,,0000*43
$GPGSA,A,3,05,29,15,25,30,18,16,,,,,,1.9,1.0,1.7*3D
$GPRMC,233528.000,A,3748.7528,N,12217.7702,W,1.82,109.67,021012,,,D*73
$GPVTG,109.67,T,,M,1.82,N,3.4,K,D*0D
$GPGGA,233529.000,3748.7525,N,12217.7692,W,2,07,1.0,0.5,M,-25.1,M,,0000*69
$GPGSA,A,3,05,29,15,25,30,18,16,,,,,,1.9,1.0,1.7*3D
$GPRMC,233529.000,A,3748.7525,N,12217.7692,W,1.94,102.19,021012,,,D*72
$GPVTG,102.19,T,,M,1.94,N,3.6,K,D*0A
$GPGGA,233530.000,3748.7523,N,12217.7683,W,2,07,1.0,0.3,M,-25.1,M,3.8,0000*44
$GPGSA,A,3,05,29,15,25,30,18,16,,,,,,1.9,1.0,1.7*3D
$GPRMC,233530.000,A,3748.7523,N,12217.7683,W,2.38,104.00,021012,,,D*77
$GPVTG,104.00,T,,M,2.38,N,4.4,K,D*04
$GPGGA,233531.000,3748.7522,N,12217.7678,W,2,07,1.0,-1.3,M,-25.1,M,,0000*49
$GPGSA,A,3,05,29,15,25,30,18,16,,,,,,1.9,1.0,1.7*3D
$GPRMC,233531.000,A,3748.7522,N,12217.7678,W,2.06,103.06,021012,,,D*7F
$GPVTG,103.06,T,,M,2.06,N,3.8,K,D*03
$GPGGA,233532.000,3748.7521,N,12217.7670,W,2,07,1.0,-2.0,M,-25.1,M,,0000*41
$GPGSA,A,3,05,29,15,25,30,18,16,,,,,,1.9,1.0,1.7*3D
$GPGSV,3,1,12,29,75,078,29,21,53,285,21,25,33,194,37,18,31,205,35*79
$GPGSV,3,2,12,05,30,047,18,30,26,304,19,15,20,128,31,26,18,092,20*74
$GPGSV,3,3,12,16,07,325,16,12,06,169,25,02,02,073,,51,43,156,37*74
$GPVTG,109.04,T,,M,2.32,N,4.3,K,D*00
$GPGGA,233533.000,3748.7517,N,12217.7659,W,2,07,1.0,-2.2,M,-25.1,M,,0000*4C
$GPGSA,A,3,05,29,15,25,30,18,16,,,,,,1.9,1.0,1.7*3D
$GPRMC,233533.000,A,3748.7517,N,12217.7659,W,1.97,102.95,021012,,,D*78
$GPVTG,102.95,T,,M,1.97,N,3.7,K,D*0C
$GPGGA,233534.000,3748.7513,N,12217.7650,W,2,06,1.0,-2.1,M,-25.1,M,3.8,0000*61
$GPGSA,A,3,05,29,15,25,30,18,,,,,,,2.3,1.0,2.1*36
$GPRMC,233534.000,A,3748.7513,N,12217.7650,W,2.35,115.58,021012,,,D*7E
$GPVTG,115.58,T,,M,2.35,N,4.3,K,D*03
$GPGGA,233535.000,3748.7505,N,12217.7638,W,2,05,1.4,-1.4,M,-25.1,M,2.8,0000*69
$GPGSA,A,3,29,15,25,30,18,,,,,,,,2.6,1.4,2.2*31
$GPRMC,233535.000,A,3748.7505,N,12217.7638,W,2.92,119.51,021012,,,D*7E
$GPVTG,119.51,T,,M,2.92,N,5.4,K,D*0D
$GPGGA,233536.000,3748.7498,N,12217.7627,W,2,06,1.0,-1.0,M,-25.1,M,3.8,0000*63
$GPGSA,A,3,05,29,15,25,30,18,,,,,,,2.3,1.0,2.1*36
$GPRMC,233536.000,A,3748.7498,N,12217.7627,W,2.65,119.27,021012,,,D*7F
$GPVTG,119.27,T,,M,2.65,N,4.9,K,D*08
$GPGGA,233537.000,3748.7497,N,12217.7621,W,2,06,1.0,-2.2,M,-25.1,M,4.8,0000*6D
$GPGSA,A,3,05,29,15,25,30,18,,,,,,,2.4,1.0,2.1*31
$GPGSV,3,1,12,29,75,078,30,21,53,285,22,25,33,194,33,18,31,205,34*77
$GPGSV,3,2,12,05,30,047,18,30,26,304,19,15,20,128,31,26,18,092,20*74
