$ADVER,3080,2.3
$GPRMC,202552.163,A,3748.8027,N,12217.8606,W,0.09,51.71,021012,,,A*4B
$GPRMC,202553.163,A,3748.8027,N,12217.8605,W,0.09,87.31,021012,,,A*46
$GPRMC,202554.000,A,3748.8027,N,12217.8605,W,0.10,60.79,021012,,,A*48
$GPRMC,202555.000,A,3748.8027,N,12217.8605,W,0.09,82.20,021012,,,A*41
$GPRMC,202556.000,A,3748.8027,N,12217.8605,W,0.10,66.20,021012,,,A*40
$GPRMC,202557.000,A,3748.8027,N,12217.8605,W,0.10,72.07,021012,,,A*41
$GPRMC,202558.000,A,3748.8026,N,12217.8604,W,0.08,98.78,021012,,,A*4B
$GPRMC,202559.000,A,3748.8026,N,12217.8604,W,0.08,86.11,021012,,,A*4A
$GPRMC,202600.000,A,3748.8026,N,12217.8604,W,0.08,83.31,021012,,,A*42
$GPRMC,202601.000,A,3748.8025,N,12217.8604,W,0.09,102.21,021012,,,A*78
$GPRMC,202602.000,A,3748.8025,N,12217.8604,W,0.09,78.50,021012,,,A*41
$GPRMC,202603.000,A,3748.8025,N,12217.8604,W,0.08,83.32,021012,,,A*41
$GPRMC,202604.000,A,3748.8024,N,12217.8604,W,0.08,97.31,021012,,,A*41
$GPRMC,202605.000,A,3748.8024,N,12217.8603,W,0.08,84.73,021012,,,A*43
$GPRMC,202606.000,A,3748.8023,N,12217.8603,W,0.09,106.03,021012,,,A*7A
$GPRMC,202607.000,A,3748.8023,N,12217.8603,W,0.08,99.36,021012,,,A*4B
$GPRMC,202608.000,A,3748.8023,N,12217.8603,W,0.19,40.02,021012,,,A*47
$GPRMC,202609.000,A,3748.8023,N,12217.8603,W,0.24,34.29,021012,,,A*42
$GPRMC,202610.000,A,3748.8022,N,12217.8603,W,0.16,49.82,021012,,,A*41
$GPRMC,202611.000,A,3748.8022,N,12217.8603,W,0.24,33.93,021012,,,A*4C
$GPRMC,202612.000,A,3748.8022,N,12217.8603,W,0.11,134.87,021012,,,A*7A
$GPRMC,202613.000,A,3748.8020,N,12217.8603,W,0.23,165.38,021012,,,A*78
$GPRMC,202614.000,A,3748.8020,N,12217.8603,W,0.13,52.55,021012,,,A*42
$GPRMC,202615.000,A,3748.8019,N,12217.8602,W,0.14,117.88,021012,,,D*7A
$GPRMC,202616.000,A,3748.8018,N,12217.8602,W,0.20,31.89,021012,,,D*4B
$GPRMC,202617.000,A,3748.8017,N,12217.8602,W,0.12,45.64,021012,,,D*44
$GPRMC,202618.000,A,3748.8017,N,12217.8602,W,0.20,24.89,021012,,,D*4E
$GPRMC,202619.000,A,3748.8016,N,12217.8602,W,0.12,44.88,021012,,,D*48
$GPRMC,202620.000,A,3748.8015,N,12217.8602,W,0.10,43.60,021012,,,D*42
$GPRMC,202621.000,A,3748.8014,N,12217.8602,W,0.11,40.71,021012,,,D*40
$GPRMC,202622.000,A,3748.8013,N,12217.8601,W,0.11,104.82,021012,,,D*7A
$GPRMC,202623.000,A,3748.8012,N,12217.8601,W,0.11,100.64,021012,,,D*76
$GPRMC,202624.000,A,3748.8011,N,12217.8601,W,0.12,93.17,021012,,,D*4E
$GPRMC,202625.000,A,3748.8011,N,12217.8601,W,0.10,89.48,021012,,,D*4C
$GPRMC,202626.000,A,3748.8010,N,12217.8601,W,0.11,83.13,021012,,,D*4B
$GPRMC,202627.000,A,3748.8009,N,12217.8600,W,0.13,73.50,021012,,,D*49
$GPRMC,202628.000,A,3748.8009,N,12217.8600,W,0.08,59.60,021012,,,D*47
$GPRMC,202629.000,A,3748.8009,N,12217.8600,W,0.05,77.38,021012,,,D*4A
$GPRMC,202630.000,A,3748.8009,N,12217.8601,W,0.22,345.71,021012,,,D*79
$GPRMC,202631.000,A,3748.8009,N,12217.8602,W,0.14,229.04,021012,,,D*77
$GPRMC,202632.000,A,3748.8009,N,12217.8602,W,0.16,94.89,021012,,,D*47
$GPRMC,202633.000,A,3748.8010,N,12217.8602,W,0.15,140.07,021012,,,D*73
$GPRMC,202634.000,A,3748.8010,N,12217.8602,W,0.23,126.29,021012,,,D*7D
$GPRMC,202635.000,A,3748.8011,N,12217.8602,W,0.28,12.13,021012,,,D*49
$GPRMC,202636.000,A,3748.8011,N,12217.8603,W,0.62,3.14,021012,,,D*72
$GPRMC,202637.000,A,3748.8012,N,12217.8603,W,0.15,28.68,021012,,,D*42
$GPRMC,202638.000,A,3748.8010,N,12217.8604,W,0.43,142.55,021012,,,D*78
$GPRMC,202639.000,A,3748.8011,N,12217.8605,W,0.26,86.56,021012,,,D*40
$GPRMC,202640.000,A,3748.8011,N,12217.8606,W,0.34,241.63,021012,,,D*71
$GPRMC,202641.000,A,3748.8004,N,12217.8611,W,0.12,244.17,021012,,,D*70
$GPRMC,202642.000,A,3748.7999,N,12217.8615,W,0.09,199.68,021012,,,D*74
$GPRMC,202643.000,A,3748.7993,N,12217.8619,W,0.11,198.01,021012,,,D*74
$GPRMC,202644.000,A,3748.7990,N,12217.8622,W,0.10,116.82,021012,,,D*74
$GPRMC,202645.000,A,3748.7991,N,12217.8621,W,0.14,296.09,021012,,,D*7B
$GPRMC,202646.000,A,3748.7989,N,12217.8624,W,0.07,148.91,021012,,,D*77
$GPRMC,202647.000,A,3748.7990,N,12217.8624,W,0.14,65.07,021012,,,D*4D
$GPRMC,202648.000,A,3748.7985,N,12217.8629,W,0.28,272.18,021012,,,D*7E
$GPRMC,202649.000,A,3748.7981,N,12217.8634,W,0.15,89.34,021012,,,D*41
$GPRMC,202650.000,A,3748.7978,N,12217.8636,W,0.48,112.02,021012,,,D*73
$GPRMC,202651.000,A,3748.7982,N,12217.8634,W,0.22,36.90,021012,,,D*45
$GPRMC,202652.000,A,3748.7983,N,12217.8633,W,0.45,36.99,021012,,,D*48
$GPRMC,202653.000,A,3748.7984,N,12217.8631,W,0.23,251.67,021012,,,D*7E
$GPRMC,202654.000,A,3748.7988,N,12217.8627,W,1.27,102.70,021012,,,D*74
$GPRMC,202655.000,A,3748.7991,N,12217.8620,W,1.15,89.16,021012,,,D*49
$GPRMC,202656.000,A,3748.7993,N,12217.8616,W,0.81,82.37,021012,,,D*49
$GPRMC,202657.000,A,3748.7989,N,12217.8614,W,1.46,132.38,021012,,,D*7E
$GPRMC,202658.000,A,3748.7986,N,12217.8610,W,1.67,119.95,021012,,,D*77
$GPRMC,202659.000,A,3748.7980,N,12217.8607,W,1.86,126.85,021012,,,D*74
$GPRMC,202700.000,A,3748.7976,N,12217.8598,W,2.27,121.45,021012,,,D*76
$GPRMC,202701.000,A,3748.7974,N,12217.8590,W,1.90,120.90,021012,,,D*7B
$GPRMC,202702.000,A,3748.7972,N,12217.8581,W,1.89,104.90,021012,,,A*75
$GPRMC,202703.000,A,3748.7970,N,12217.8574,W,1.71,124.31,021012,,,A*72
$GPRMC,202704.000,A,3748.7968,N,12217.8566,W,1.90,102.75,021012,,,A*74
$GPRMC,202705.000,A,3748.7965,N,12217.8558,W,2.09,120.51,021012,,,A*70
$GPRMC,202706.000,A,3748.7963,N,12217.8550,W,1.81,130.96,021012,,,A*74
$GPRMC,202707.000,A,3748.7962,N,12217.8540,W,1.46,140.01,021012,,,A*77
$GPRMC,202708.000,A,3748.7961,N,12217.8531,W,1.25,137.77,021012,,,A*79
$GPRMC,202709.000,A,3748.7959,N,12217.8526,W,1.25,126.63,021012,,,A*70
$GPRMC,202710.000,A,3748.7958,N,12217.8516,W,1.40,116.38,021012,,,A*74
$GPRMC,202711.000,A,3748.7956,N,12217.8508,W,1.13,130.59,021012,,,D*74
$GPRMC,202712.000,A,3748.7953,N,12217.8502,W,1.64,117.24,021012,,,D*77
$GPRMC,202713.000,A,3748.7951,N,12217.8494,W,2.07,111.88,021012,,,D*7C
$GPRMC,202714.000,A,3748.7948,N,12217.8487,W,1.84,116.85,021012,,,D*73
$GPRMC,202715.000,A,3748.7944,N,12217.8480,W,1.94,115.61,021012,,,D*71
$GPRMC,202716.000,A,3748.7941,N,12217.8473,W,2.21,118.62,021012,,,D*78
$GPRMC,202717.000,A,3748.7937,N,12217.8464,W,2.19,114.40,021012,,,D*79
$GPRMC,202718.000,A,3748.7934,N,12217.8455,W,2.00,117.46,021012,,,D*7A
$GPRMC,202719.000,A,3748.7932,N,12217.8451,W,1.50,115.95,021012,,,D*73
$GPRMC,202720.000,A,3748.7929,N,12217.8447,W,2.12,108.63,021012,,,D*74
$GPRMC,202721.000,A,3748.7925,N,12217.8442,W,1.68,111.80,021012,,,D*77
$GPRMC,202722.000,A,3748.7918,N,12217.8436,W,1.93,132.88,021012,,,D*74
$GPRMC,202723.000,A,3748.7912,N,12217.8434,W,1.98,127.32,021012,,,D*73
$GPRMC,202724.000,A,3748.7908,N,12217.8430,W,1.56,124.64,021012,,,D*79
$GPRMC,202725.000,A,3748.7904,N,12217.8425,W,1.70,136.69,021012,,,D*7A
$GPRMC,202726.000,A,3748.7901,N,12217.8418,W,2.27,113.61,021012,,,D*7C
$GPRMC,202727.000,A,3748.7898,N,12217.8410,W,2.14,112.22,021012,,,D*72
$GPRMC,202728.000,A,3748.7893,N,12217.8401,W,2.40,117.68,021012,,,D*7C
$GPRMC,202729.000,A,3748.7890,N,12217.8395,W,2.00,118.22,021012,,,D*71
$GPRMC,202730.000,A,3748.7884,N,12217.8391,W,1.74,130.09,021012,,,D*7B
$GPRMC,202731.000,A,3748.7879,N,12217.8387,W,1.98,125.84,021012,,,D*7C
$GPRMC,202732.000,A,3748.7877,N,12217.8380,W,1.95,120.36,021012,,,D*77
$GPRMC,202733.000,A,3748.7875,N,12217.8372,W,1.69,107.56,021012,,,D*79
$GPRMC,202734.000,A,3748.7872,N,12217.8366,W,2.07,124.97,021012,,,D*7B
$GPRMC,202735.000,A,3748.7867,N,12217.8359,W,1.58,120.16,021012,,,D*76
$GPRMC,202736.000,A,3748.7867,N,12217.8352,W,1.78,105.17,021012,,,D*7A
$GPRMC,202737.000,A,3748.7863,N,12217.8345,W,2.29,108.48,021012,,,D*79
$GPRMC,202738.000,A,3748.7860,N,12217.8336,W,2.28,113.17,021012,,,D*70
$GPRMC,202739.000,A,3748.7860,N,12217.8327,W,1.94,86.79,021012,,,D*40
$GPRMC,202740.000,A,3748.7863,N,12217.8321,W,1.14,102.64,021012,,,D*72
$GPRMC,202741.000,A,3748.7859,N,12217.8317,W,1.16,109.39,021012,,,D*7E
$GPRMC,202742.000,A,3748.7854,N,12217.8312,W,1.49,92.43,021012,,,D*41
$GPRMC,202743.000,A,3748.7850,N,12217.8303,W,1.22,95.47,021012,,,D*4A
$GPRMC,202744.000,A,3748.7847,N,12217.8296,W,1.78,102.36,021012,,,D*70
$GPRMC,202745.000,A,3748.7844,N,12217.8288,W,2.58,111.38,021012,,,D*70
$GPRMC,202746.000,A,3748.7839,N,12217.8280,W,1.81,131.81,021012,,,D*76
$GPRMC,202747.000,A,3748.7837,N,12217.8275,W,1.58,117.62,021012,,,D*7E
$GPRMC,202748.000,A,3748.7831,N,12217.8272,W,1.86,116.80,021012,,,D*7E
$GPRMC,202749.000,A,3748.7822,N,12217.8261,W,2.32,117.56,021012,,,D*79
$GPRMC,202750.000,A,3748.7815,N,12217.8253,W,2.17,133.90,021012,,,D*7F
$GPRMC,202751.000,A,3748.7810,N,12217.8248,W,2.26,135.39,021012,,,D*76
$GPRMC,202752.000,A,3748.7806,N,12217.8243,W,2.59,134.53,021012,,,D*7C
$GPRMC,202753.000,A,3748.7798,N,12217.8235,W,2.76,127.54,021012,,,D*7C
$GPRMC,202754.000,A,3748.7794,N,12217.8227,W,2.41,126.66,021012,,,D*70
$GPRMC,202755.000,A,3748.7790,N,12217.8221,W,2.23,120.48,021012,,,D*7D
$GPRMC,202756.000,A,3748.7789,N,12217.8209,W,2.43,113.41,021012,,,D*73
$GPRMC,202757.000,A,3748.7788,N,12217.8198,W,2.44,118.98,021012,,,D*70
$GPRMC,202758.000,A,3748.7785,N,12217.8187,W,2.23,121.47,021012,,,D*75
$GPRMC,202759.000,A,3748.7783,N,12217.8179,W,1.99,113.47,021012,,,D*70
$GPRMC,202800.000,A,3748.7782,N,12217.8171,W,2.39,105.00,021012,,,D*77
$GPRMC,202801.000,A,3748.7778,N,12217.8164,W,2.36,109.24,021012,,,D*72
$GPRMC,202802.000,A,3748.7776,N,12217.8156,W,2.17,112.19,021012,,,D*79
$GPRMC,202803.000,A,3748.7769,N,12217.8149,W,2.04,106.63,021012,,,D*72
$GPRMC,202804.000,A,3748.7766,N,12217.8141,W,2.57,119.20,021012,,,D*7D
$GPRMC,202805.000,A,3748.7763,N,12217.8134,W,1.97,114.26,021012,,,D*7F
$GPRMC,202806.000,A,3748.7762,N,12217.8129,W,1.76,112.07,021012,,,D*7B
$GPRMC,202807.000,A,3748.7760,N,12217.8121,W,2.33,119.09,021012,,,D*77
$GPRMC,202808.000,A,3748.7758,N,12217.8112,W,2.26,109.57,021012,,,D*7D
$GPRMC,202809.000,A,3748.7757,N,12217.8104,W,1.69,104.31,021012,,,D*71
$GPRMC,202810.000,A,3748.7756,N,12217.8096,W,1.75,111.14,021012,,,D*7C
$GPRMC,202811.000,A,3748.7754,N,12217.8088,W,2.26,106.67,021012,,,D*77
$GPRMC,202812.000,A,3748.7752,N,12217.8078,W,2.19,106.63,021012,,,D*75
$GPRMC,202813.000,A,3748.7745,N,12217.8073,W,1.89,121.44,021012,,,D*73
$GPRMC,202814.000,A,3748.7739,N,12217.8069,W,2.16,127.50,021012,,,D*72
$GPRMC,202815.000,A,3748.7728,N,12217.8066,W,2.31,121.79,021012,,,D*74
$GPRMC,202816.000,A,3748.7719,N,12217.8061,W,2.14,120.44,021012,,,D*7A
$GPRMC,202817.000,A,3748.7715,N,12217.8054,W,1.91,122.96,021012,,,D*72
$GPRMC,202818.000,A,3748.7711,N,12217.8045,W,2.11,121.60,021012,,,D*78
$GPRMC,202819.000,A,3748.7709,N,12217.8036,W,2.32,119.50,021012,,,D*7D
$GPRMC,202820.000,A,3748.7705,N,12217.8030,W,2.43,124.17,021012,,,D*76
$GPRMC,202821.000,A,3748.7700,N,12217.8022,W,2.58,124.19,021012,,,D*75
$GPRMC,202822.000,A,3748.7697,N,12217.8013,W,2.48,125.92,021012,,,D*78
$GPRMC,202823.000,A,3748.7693,N,12217.8005,W,2.39,124.80,021012,,,D*7E
$GPRMC,202824.000,A,3748.7689,N,12217.7999,W,2.38,125.32,021012,,,D*78
$GPRMC,202825.000,A,3748.7686,N,12217.7992,W,2.18,123.46,021012,,,D*7A
$GPRMC,202826.000,A,3748.7683,N,12217.7984,W,2.39,113.06,021012,,,D*7F
$GPRMC,202827.000,A,3748.7680,N,12217.7976,W,2.54,117.34,021012,,,D*7E
$GPRMC,202828.000,A,3748.7676,N,12217.7968,W,1.91,116.84,021012,,,D*77
$GPRMC,202829.000,A,3748.7672,N,12217.7960,W,2.18,109.97,021012,,,D*74
$GPRMC,202830.000,A,3748.7670,N,12217.7952,W,2.32,111.53,021012,,,D*76
$GPRMC,202831.000,A,3748.7666,N,12217.7943,W,2.89,114.01,021012,,,D*72
$GPRMC,202832.000,A,3748.7663,N,12217.7934,W,2.27,112.25,021012,,,D*70
$GPRMC,202833.000,A,3748.7660,N,12217.7925,W,2.57,116.36,021012,,,D*73
$GPRMC,202834.000,A,3748.7657,N,12217.7916,W,2.35,116.86,021012,,,D*7F
$GPRMC,202835.000,A,3748.7655,N,12217.7907,W,2.45,109.23,021012,,,D*7A
$GPRMC,202836.000,A,3748.7653,N,12217.7898,W,2.22,111.83,021012,,,D*7A
$GPRMC,202837.000,A,3748.7650,N,12217.7891,W,2.13,123.23,021012,,,D*78
$GPRMC,202838.000,A,3748.7647,N,12217.7885,W,2.55,129.59,021012,,,D*71
$GPRMC,202839.000,A,3748.7640,N,12217.7879,W,2.50,120.83,021012,,,D*7F
$GPRMC,202838.000,A,3748.7630,N,12217.7876,W,2.39,125.10,021012,,,D*76
$GPRMC,202839.000,A,3748.7621,N,12217.7873,W,2.78,128.46,021012,,,D*79
$GPRMC,202840.000,A,3748.7617,N,12217.7865,W,2.50,121.68,021012,,,D*7A
$GPRMC,202841.000,A,3748.7614,N,12217.7859,W,2.07,125.58,021012,,,D*72
$GPRMC,202842.000,A,3748.7611,N,12217.7853,W,2.02,120.59,021012,,,D*7F
$GPRMC,202843.000,A,3748.7608,N,12217.7845,W,2.24,114.50,021012,,,D*7B
$GPRMC,202844.000,A,3748.7607,N,12217.7838,W,2.01,114.93,021012,,,D*71
$GPRMC,202845.000,A,3748.7604,N,12217.7831,W,2.03,122.92,021012,,,D*7C
$GPRMC,202846.000,A,3748.7601,N,12217.7823,W,2.34,117.15,021012,,,D*74
$GPRMC,202847.000,A,3748.7596,N,12217.7813,W,2.68,118.87,021012,,,D*76
$GPRMC,202848.000,A,3748.7591,N,12217.7804,W,2.39,129.46,021012,,,D*73
$GPRMC,202849.000,A,3748.7586,N,12217.7795,W,2.18,129.64,021012,,,D*70
$GPRMC,202850.000,A,3748.7583,N,12217.7788,W,2.24,127.37,021012,,,D*76
$GPRMC,202851.000,A,3748.7579,N,12217.7779,W,2.39,122.99,021012,,,D*71
$GPRMC,202852.000,A,3748.7575,N,12217.7774,W,1.76,137.71,021012,,,D*79
$GPRMC,202853.000,A,3748.7571,N,12217.7768,W,2.22,127.51,021012,,,D*70
$GPRMC,202854.000,A,3748.7567,N,12217.7759,W,2.54,122.15,021012,,,D*76
$GPRMC,202855.000,A,3748.7564,N,12217.7750,W,2.89,120.41,021012,,,D*7E
$GPRMC,202856.000,A,3748.7560,N,12217.7741,W,2.38,121.41,021012,,,D*72
$GPRMC,202857.000,A,3748.7557,N,12217.7733,W,2.39,119.93,021012,,,D*77
$GPRMC,202858.000,A,3748.7555,N,12217.7726,W,2.44,126.20,021012,,,D*70
$GPRMC,202859.000,A,3748.7549,N,12217.7719,W,1.26,151.62,021012,,,D*71
$GPRMC,202900.000,A,3748.7544,N,12217.7713,W,2.04,131.82,021012,,,D*70
$GPRMC,202901.000,A,3748.7540,N,12217.7704,W,2.41,113.11,021012,,,D*78
$GPRMC,202902.000,A,3748.7539,N,12217.7696,W,2.40,114.26,021012,,,D*7D
$GPRMC,202903.000,A,3748.7538,N,12217.7687,W,1.88,116.53,021012,,,D*7A
$GPRMC,202904.000,A,3748.7533,N,12217.7679,W,2.44,126.19,021012,,,D*79
$GPRMC,202905.000,A,3748.7529,N,12217.7669,W,2.78,120.36,021012,,,D*76
$GPRMC,202906.000,A,3748.7525,N,12217.7658,W,2.73,115.54,021012,,,D*72
$GPRMC,202907.000,A,3748.7524,N,12217.7648,W,2.74,117.08,021012,,,D*7F
$GPRMC,202908.000,A,3748.7518,N,12217.7637,W,2.51,125.62,021012,,,D*7D
$GPRMC,202909.000,A,3748.7509,N,12217.7629,W,2.61,134.83,021012,,,D*7F
$GPRMC,202910.000,A,3748.7501,N,12217.7620,W,3.02,133.33,021012,,,D*7E
$GPRMC,202911.000,A,3748.7493,N,12217.7618,W,2.03,132.37,021012,,,D*7B
$GPRMC,202912.000,A,3748.7483,N,12217.7613,W,2.42,131.48,021012,,,D*7C
$GPRMC,202913.000,A,3748.7479,N,12217.7605,W,2.28,120.90,021012,,,D*76
$GPRMC,202914.000,A,3748.7475,N,12217.7597,W,2.43,118.81,021012,,,D*73
$GPRMC,202915.000,A,3748.7471,N,12217.7590,W,2.34,131.53,021012,,,D*75
$GPRMC,202916.000,A,3748.7465,N,12217.7587,W,2.36,127.92,021012,,,D*7D
$GPRMC,202917.000,A,3748.7462,N,12217.7579,W,2.34,129.31,021012,,,D*7F
$GPRMC,202918.000,A,3748.7456,N,12217.7576,W,2.10,122.21,021012,,,D*74
$GPRMC,202919.000,A,3748.7451,N,12217.7566,W,2.17,118.21,021012,,,D*7D
$GPRMC,202920.000,A,3748.7450,N,12217.7558,W,2.05,124.07,021012,,,D*73
$GPRMC,202921.000,A,3748.7452,N,12217.7545,W,2.06,126.47,021012,,,D*79
$GPRMC,202922.000,A,3748.7452,N,12217.7540,W,1.12,114.20,021012,,,D*79
$GPRMC,202923.000,A,3748.7452,N,12217.7542,W,0.35,75.36,021012,,,D*4F
$GPRMC,202924.000,A,3748.7453,N,12217.7549,W,0.13,333.95,021012,,,D*7E
$GPRMC,202925.000,A,3748.7456,N,12217.7555,W,0.23,16.57,021012,,,D*4E
$GPRMC,202926.000,A,3748.7458,N,12217.7564,W,0.23,321.76,021012,,,D*75
$GPRMC,202927.000,A,3748.7459,N,12217.7571,W,0.20,346.22,021012,,,D*72
$GPRMC,202928.000,A,3748.7461,N,12217.7574,W,0.11,94.60,021012,,,D*4B
$GPRMC,202929.000,A,3748.7463,N,12217.7581,W,0.08,55.26,021012,,,D*45
$GPRMC,202930.000,A,3748.7468,N,12217.7580,W,0.54,62.59,021012,,,D*42
$GPRMC,202931.000,A,3748.7470,N,12217.7580,W,0.44,78.20,021012,,,D*4E
$GPRMC,202932.000,A,3748.7475,N,12217.7579,W,0.28,85.24,021012,,,D*42
$GPRMC,202933.000,A,3748.7478,N,12217.7582,W,0.02,66.63,021012,,,D*4C
$GPRMC,202934.000,A,3748.7480,N,12217.7586,W,0.03,208.78,021012,,,D*79
$GPRMC,202935.000,A,3748.7480,N,12217.7590,W,0.10,289.55,021012,,,D*7B
$GPRMC,202936.000,A,3748.7481,N,12217.7588,W,0.20,285.68,021012,,,D*71
$GPRMC,202937.000,A,3748.7483,N,12217.7583,W,0.31,208.12,021012,,,D*71
$GPRMC,202938.000,A,3748.7485,N,12217.7580,W,0.39,95.65,021012,,,D*45
$GPRMC,202939.000,A,3748.7487,N,12217.7576,W,0.58,47.44,021012,,,D*44
$GPRMC,202940.000,A,3748.7488,N,12217.7578,W,0.14,355.10,021012,,,D*72
$GPRMC,202941.000,A,3748.7490,N,12217.7576,W,0.03,27.32,021012,,,D*44
$GPRMC,202942.000,A,3748.7492,N,12217.7571,W,0.32,104.17,021012,,,D*77
$GPRMC,202943.000,A,3748.7491,N,12217.7570,W,0.57,119.70,021012,,,D*7A
$GPRMC,202944.000,A,3748.7490,N,12217.7565,W,0.89,127.45,021012,,,D*70
$GPRMC,202945.000,A,3748.7481,N,12217.7568,W,0.55,145.47,021012,,,D*7B
$GPRMC,202946.000,A,3748.7476,N,12217.7572,W,0.06,0.83,021012,,,D*75
$GPRMC,202947.000,A,3748.7471,N,12217.7574,W,0.32,191.25,021012,,,D*77
$GPRMC,202948.000,A,3748.7468,N,12217.7575,W,0.38,221.63,021012,,,D*71
$GPRMC,202949.000,A,3748.7466,N,12217.7577,W,0.09,200.26,021012,,,D*7C
$GPRMC,202950.000,A,3748.7464,N,12217.7578,W,0.12,253.47,021012,,,D*72
$GPRMC,202951.000,A,3748.7462,N,12217.7579,W,0.40,163.21,021012,,,D*73
$GPRMC,202952.000,A,3748.7459,N,12217.7580,W,0.33,184.86,021012,,,D*7E
$GPRMC,202953.000,A,3748.7457,N,12217.7580,W,0.65,151.93,021012,,,D*7E
$GPRMC,202954.000,A,3748.7456,N,12217.7576,W,0.87,167.43,021012,,,D*75
$GPRMC,202955.000,A,3748.7453,N,12217.7572,W,1.42,143.94,021012,,,D*71
$GPRMC,202956.000,A,3748.7450,N,12217.7565,W,1.54,110.85,021012,,,D*76
$GPRMC,202957.000,A,3748.7449,N,12217.7556,W,1.73,107.13,021012,,,D*73
$GPRMC,202958.000,A,3748.7448,N,12217.7548,W,2.04,107.04,021012,,,D*77
$GPRMC,202959.000,A,3748.7446,N,12217.7538,W,2.67,111.24,021012,,,D*7F
$GPRMC,203000.000,A,3748.7437,N,12217.7529,W,2.31,111.98,021012,,,D*79
$GPRMC,203001.000,A,3748.7431,N,12217.7516,W,1.92,107.18,021012,,,D*77
$GPRMC,203002.000,A,3748.7427,N,12217.7508,W,1.83,113.91,021012,,,D*78
$GPRMC,203003.000,A,3748.7423,N,12217.7499,W,2.16,108.82,021012,,,D*73
$GPRMC,203004.000,A,3748.7418,N,12217.7490,W,2.56,126.55,021012,,,D*77
$GPRMC,203005.000,A,3748.7415,N,12217.7482,W,2.40,116.99,021012,,,D*7C
$GPRMC,203006.000,A,3748.7416,N,12217.7467,W,2.12,114.35,021012,,,D*74
$GPRMC,203007.000,A,3748.7417,N,12217.7457,W,1.99,117.83,021012,,,D*79
$GPRMC,203008.000,A,3748.7414,N,12217.7451,W,2.16,131.59,021012,,,D*74
$GPRMC,203009.000,A,3748.7409,N,12217.7448,W,1.80,151.51,021012,,,D*73
$GPRMC,203010.000,A,3748.7404,N,12217.7438,W,1.47,118.96,021012,,,D*7C
$GPRMC,203011.000,A,3748.7403,N,12217.7430,W,1.62,105.69,021012,,,D*79
$GPRMC,203012.000,A,3748.7400,N,12217.7426,W,1.32,102.69,021012,,,D*7C
$GPRMC,203013.000,A,3748.7397,N,12217.7423,W,1.03,93.16,021012,,,D*42
$GPRMC,203014.000,A,3748.7395,N,12217.7418,W,0.85,89.90,021012,,,D*45
$GPRMC,203015.000,A,3748.7394,N,12217.7415,W,0.77,93.14,021012,,,D*42
$GPRMC,203016.000,A,3748.7392,N,12217.7411,W,1.13,89.85,021012,,,D*43
$GPRMC,203017.000,A,3748.7388,N,12217.7410,W,0.99,32.59,021012,,,D*4A
$GPRMC,203018.000,A,3748.7384,N,12217.7408,W,0.75,68.68,021012,,,D*4F
$GPRMC,203019.000,A,3748.7382,N,12217.7404,W,0.73,137.92,021012,,,D*7C
$GPRMC,203020.000,A,3748.7375,N,12217.7400,W,0.95,115.44,021012,,,D*79
$GPRMC,203021.000,A,3748.7367,N,12217.7384,W,1.11,118.02,021012,,,D*72
$GPRMC,203022.000,A,3748.7360,N,12217.7371,W,1.54,127.56,021012,,,D*70
$GPRMC,203023.000,A,3748.7355,N,12217.7359,W,1.31,100.99,021012,,,D*78
$GPRMC,203024.000,A,3748.7352,N,12217.7348,W,1.48,112.12,021012,,,A*73
$GPRMC,203025.000,A,3748.7349,N,12217.7344,W,1.46,122.68,021012,,,A*74
$GPRMC,203026.000,A,3748.7343,N,12217.7340,W,1.97,126.73,021012,,,A*7B
$GPRMC,203027.000,A,3748.7338,N,12217.7334,W,2.13,131.32,021012,,,A*79
$GPRMC,203028.000,A,3748.7337,N,12217.7329,W,1.47,119.86,021012,,,A*72
$GPRMC,203029.000,A,3748.7330,N,12217.7323,W,2.03,127.13,021012,,,A*7C
$GPRMC,203030.000,A,3748.7323,N,12217.7314,W,1.71,128.85,021012,,,A*74
$GPRMC,203031.000,A,3748.7318,N,12217.7308,W,1.29,117.51,021012,,,A*78
$GPRMC,203032.000,A,3748.7311,N,12217.7296,W,1.82,118.92,021012,,,A*75
$GPRMC,203033.000,A,3748.7307,N,12217.7288,W,2.14,116.71,021012,,,A*73
$GPRMC,203034.000,A,3748.7303,N,12217.7278,W,2.45,123.06,021012,,,A*7D
$GPRMC,203035.000,A,3748.7301,N,12217.7271,W,2.54,121.66,021012,,,A*73
$GPRMC,203036.000,A,3748.7297,N,12217.7261,W,2.65,112.35,021012,,,A*7B
$GPRMC,203037.000,A,3748.7295,N,12217.7250,W,2.11,122.78,021012,,,A*73
$GPRMC,203038.000,A,3748.7291,N,12217.7242,W,2.07,123.75,021012,,,A*70
$GPRMC,203039.000,A,3748.7286,N,12217.7234,W,2.47,127.69,021012,,,A*7B
$GPRMC,203040.000,A,3748.7281,N,12217.7225,W,2.33,127.81,021012,,,A*77
$GPRMC,203041.000,A,3748.7278,N,12217.7215,W,2.33,128.17,021012,,,A*73
$GPRMC,203042.000,A,3748.7274,N,12217.7206,W,2.54,123.04,021012,,,A*76
$GPRMC,203043.000,A,3748.7272,N,12217.7195,W,1.94,100.03,021012,,,A*71
$GPRMC,203044.000,A,3748.7274,N,12217.7185,W,2.22,74.09,021012,,,A*47
$GPRMC,203045.000,A,3748.7281,N,12217.7176,W,2.36,44.28,021012,,,A*45
$GPRMC,203046.000,A,3748.7288,N,12217.7170,W,2.48,33.14,021012,,,A*4F
$GPRMC,203047.000,A,3748.7296,N,12217.7164,W,2.48,24.03,021012,,,A*44
$GPRMC,203048.000,A,3748.7303,N,12217.7160,W,2.10,15.11,021012,,,A*4E
$GPRMC,203049.000,A,3748.7310,N,12217.7156,W,2.19,19.57,021012,,,A*4F
$GPRMC,203050.000,A,3748.7317,N,12217.7152,W,2.25,18.56,021012,,,A*4B
$GPRMC,203051.000,A,3748.7324,N,12217.7148,W,2.38,22.79,021012,,,A*49
$GPRMC,203052.000,A,3748.7330,N,12217.7145,W,2.27,21.72,021012,,,A*44
$GPRMC,203053.000,A,3748.7338,N,12217.7141,W,2.69,15.02,021012,,,A*43
$GPRMC,203054.000,A,3748.7345,N,12217.7136,W,2.38,26.49,021012,,,A*45
$GPRMC,203055.000,A,3748.7351,N,12217.7132,W,2.23,19.23,021012,,,A*4F
$GPRMC,203056.000,A,3748.7357,N,12217.7129,W,2.04,14.54,021012,,,A*48
$GPRMC,203057.000,A,3748.7363,N,12217.7126,W,2.00,15.25,021012,,,A*42
$GPRMC,203058.000,A,3748.7365,N,12217.7117,W,1.89,22.70,021012,,,A*4F
$GPRMC,203059.000,A,3748.7368,N,12217.7110,W,1.99,27.35,021012,,,A*41
$GPRMC,203100.000,A,3748.7371,N,12217.7103,W,2.07,33.98,021012,,,A*40
$GPRMC,203101.000,A,3748.7378,N,12217.7096,W,2.47,24.32,021012,,,A*47
$GPRMC,203102.000,A,3748.7386,N,12217.7091,W,2.37,25.77,021012,,,A*45
$GPRMC,203103.000,A,3748.7393,N,12217.7086,W,2.47,24.49,021012,,,A*4D
$GPRMC,203104.000,A,3748.7399,N,12217.7082,W,2.56,30.19,021012,,,A*44
$GPRMC,203105.000,A,3748.7406,N,12217.7077,W,2.40,14.82,021012,,,A*4D
$GPRMC,203106.000,A,3748.7413,N,12217.7073,W,2.45,26.67,021012,,,A*41
$GPRMC,203107.000,A,3748.7419,N,12217.7068,W,2.46,22.70,021012,,,A*41
$GPRMC,203108.000,A,3748.7426,N,12217.7063,W,2.28,18.90,021012,,,A*46
$GPRMC,203109.000,A,3748.7433,N,12217.7060,W,2.41,21.14,021012,,,A*49
$GPRMC,203110.000,A,3748.7438,N,12217.7056,W,2.12,26.31,021012,,,A*49
$GPRMC,203111.000,A,3748.7445,N,12217.7052,W,2.31,27.93,021012,,,A*4E
$GPRMC,203112.000,A,3748.7452,N,12217.7047,W,2.33,17.34,021012,,,A*43
$GPRMC,203113.000,A,3748.7458,N,12217.7043,W,2.54,9.61,021012,,,A*72
$GPRMC,203114.000,A,3748.7466,N,12217.7039,W,2.35,5.63,021012,,,A*7C
$GPRMC,203115.000,A,3748.7471,N,12217.7036,W,2.54,21.39,021012,,,A*4A
$GPRMC,203116.000,A,3748.7478,N,12217.7031,W,2.60,12.05,021012,,,A*4F
$GPRMC,203117.000,A,3748.7486,N,12217.7029,W,2.28,24.08,021012,,,A*42
$GPRMC,203118.000,A,3748.7492,N,12217.7024,W,2.21,23.78,021012,,,A*4C
$GPRMC,203119.000,A,3748.7497,N,12217.7020,W,2.05,19.22,021012,,,A*4C
$GPRMC,203120.000,A,3748.7503,N,12217.7016,W,2.03,20.29,021012,,,A*48
$GPRMC,203121.000,A,3748.7505,N,12217.7004,W,2.45,36.67,021012,,,A*43
$GPRMC,203122.000,A,3748.7511,N,12217.6996,W,2.38,31.10,021012,,,A*4B
$GPRMC,203123.000,A,3748.7517,N,12217.6991,W,2.60,31.49,021012,,,A*4A
$GPRMC,203124.000,A,3748.7523,N,12217.6988,W,2.27,15.91,021012,,,A*42
$GPRMC,203125.000,A,3748.7530,N,12217.6982,W,2.03,15.98,021012,,,A*44
$GPRMC,203126.000,A,3748.7536,N,12217.6979,W,2.09,17.22,021012,,,A*4C
$GPRMC,203127.000,A,3748.7538,N,12217.6971,W,2.13,19.65,021012,,,A*4D
$GPRMC,203128.000,A,3748.7542,N,12217.6962,W,2.44,23.81,021012,,,A*4C
$GPRMC,203129.000,A,3748.7546,N,12217.6952,W,2.56,37.64,021012,,,A*47
$GPRMC,203130.000,A,3748.7549,N,12217.6944,W,2.03,30.64,021012,,,A*40
$GPRMC,203131.000,A,3748.7555,N,12217.6942,W,1.87,22.42,021012,,,A*42
$GPRMC,203132.000,A,3748.7561,N,12217.6938,W,2.19,22.66,021012,,,A*49
$GPRMC,203133.000,A,3748.7567,N,12217.6932,W,2.24,19.65,021012,,,A*41
$GPRMC,203134.000,A,3748.7572,N,12217.6924,W,2.45,18.91,021012,,,A*48
$GPRMC,203135.000,A,3748.7578,N,12217.6919,W,2.08,15.29,021012,,,A*4A
$GPRMC,203136.000,A,3748.7582,N,12217.6910,W,2.05,23.62,021012,,,A*42
$GPRMC,203137.000,A,3748.7587,N,12217.6902,W,2.46,26.28,021012,,,A*49
$GPRMC,203138.000,A,3748.7591,N,12217.6894,W,2.10,20.35,021012,,,A*46
$GPRMC,203139.000,A,3748.7594,N,12217.6884,W,1.80,25.71,021012,,,A*4C
$GPRMC,203140.000,A,3748.7601,N,12217.6878,W,2.27,35.16,021012,,,A*40
$GPRMC,203141.000,A,3748.7607,N,12217.6872,W,2.14,34.81,021012,,,A*42
$GPRMC,203142.000,A,3748.7614,N,12217.6868,W,2.38,25.67,021012,,,A*4E
$GPRMC,203143.000,A,3748.7622,N,12217.6864,W,2.43,14.37,021012,,,A*4D
$GPRMC,203144.000,A,3748.7630,N,12217.6861,W,2.67,23.84,021012,,,A*46
$GPRMC,203145.000,A,3748.7638,N,12217.6857,W,2.88,19.56,021012,,,A*4D
$GPRMC,203146.000,A,3748.7646,N,12217.6854,W,2.80,20.20,021012,,,A*47
$GPRMC,203147.000,A,3748.7653,N,12217.6849,W,2.44,23.66,021012,,,A*47
$GPRMC,203148.000,A,3748.7662,N,12217.6842,W,2.39,15.94,021012,,,A*43
$GPRMC,203149.000,A,3748.7669,N,12217.6836,W,2.23,17.98,021012,,,A*4F
$GPRMC,203150.000,A,3748.7677,N,12217.6830,W,2.38,25.14,021012,,,A*41
$GPRMC,203151.000,A,3748.7684,N,12217.6824,W,2.51,28.89,021012,,,A*4F
$GPRMC,203152.000,A,3748.7692,N,12217.6818,W,2.44,25.00,021012,,,A*4C
$GPRMC,203153.000,A,3748.7698,N,12217.6815,W,2.39,24.99,021012,,,A*41
$GPRMC,203154.000,A,3748.7706,N,12217.6813,W,2.70,14.35,021012,,,A*4E
$GPRMC,203155.000,A,3748.7713,N,12217.6810,W,2.43,16.22,021012,,,A*4C
$GPRMC,203156.000,A,3748.7720,N,12217.6806,W,2.32,22.92,021012,,,A*42
$GPRMC,203157.000,A,3748.7726,N,12217.6804,W,2.34,18.38,021012,,,A*48
$GPRMC,203158.000,A,3748.7733,N,12217.6800,W,2.29,21.65,021012,,,A*49
$GPRMC,203159.000,A,3748.7740,N,12217.6795,W,2.38,16.69,021012,,,A*47
$GPRMC,203200.000,A,3748.7748,N,12217.6791,W,2.41,15.36,021012,,,A*43
$GPRMC,203201.000,A,3748.7755,N,12217.6784,W,2.22,20.15,021012,,,A*48
$GPRMC,203202.000,A,3748.7761,N,12217.6778,W,1.77,35.79,021012,,,A*42
$GPRMC,203203.000,A,3748.7766,N,12217.6774,W,2.31,25.43,021012,,,D*44
$GPRMC,203204.000,A,3748.7774,N,12217.6770,W,2.66,16.42,021012,,,D*47
$GPRMC,203205.000,A,3748.7781,N,12217.6765,W,2.35,18.31,021012,,,D*44
$GPRMC,203206.000,A,3748.7788,N,12217.6761,W,2.39,22.24,021012,,,D*4B
$GPRMC,203207.000,A,3748.7795,N,12217.6756,W,2.48,6.14,021012,,,D*71
$GPRMC,203208.000,A,3748.7799,N,12217.6747,W,2.59,8.24,021012,,,D*7F
$GPRMC,203209.000,A,3748.7802,N,12217.6739,W,2.19,19.03,021012,,,D*4B
$GPRMC,203210.000,A,3748.7805,N,12217.6730,W,2.08,29.84,021012,,,D*41
$GPRMC,203211.000,A,3748.7810,N,12217.6725,W,2.20,27.02,021012,,,D*4A
$GPRMC,203212.000,A,3748.7816,N,12217.6720,W,1.54,14.97,021012,,,D*46
$GPRMC,203213.000,A,3748.7823,N,12217.6724,W,1.00,37.89,021012,,,D*4A
$GPRMC,203214.000,A,3748.7826,N,12217.6721,W,0.79,41.75,021012,,,D*40
$GPRMC,203215.000,A,3748.7830,N,12217.6716,W,2.14,27.98,021012,,,D*48
$GPRMC,203216.000,A,3748.7837,N,12217.6713,W,2.21,23.49,021012,,,D*47
$GPRMC,203217.000,A,3748.7844,N,12217.6711,W,2.36,23.36,021012,,,D*4E
$GPRMC,203218.000,A,3748.7850,N,12217.6707,W,2.13,27.83,021012,,,D*4E
$GPRMC,203219.000,A,3748.7857,N,12217.6703,W,2.35,10.30,021012,,,D*44
$GPRMC,203220.000,A,3748.7865,N,12217.6699,W,2.26,9.85,021012,,,D*79
$GPRMC,203221.000,A,3748.7873,N,12217.6695,W,2.08,8.67,021012,,,D*72
$GPRMC,203222.000,A,3748.7879,N,12217.6691,W,2.44,16.73,021012,,,D*4D
$GPRMC,203223.000,A,3748.7886,N,12217.6687,W,2.38,22.77,021012,,,D*43
$GPRMC,203224.000,A,3748.7893,N,12217.6683,W,2.38,11.48,021012,,,D*48
$GPRMC,203225.000,A,3748.7900,N,12217.6678,W,2.26,19.42,021012,,,D*4B
$GPRMC,203226.000,A,3748.7903,N,12217.6668,W,2.20,26.65,021012,,,A*40
$GPRMC,203227.000,A,3748.7907,N,12217.6660,W,2.33,35.19,021012,,,A*46
$GPRMC,203228.000,A,3748.7913,N,12217.6655,W,2.37,25.00,021012,,,A*47
$GPRMC,203229.000,A,3748.7919,N,12217.6650,W,2.26,18.95,021012,,,A*4B
$GPRMC,203230.000,A,3748.7925,N,12217.6646,W,2.44,19.23,021012,,,A*43
$GPRMC,203231.000,A,3748.7933,N,12217.6641,W,2.08,37.81,021012,,,A*4E
$GPRMC,203232.000,A,3748.7939,N,12217.6636,W,2.23,25.78,021012,,,A*4B
$GPRMC,203233.000,A,3748.7945,N,12217.6630,W,2.57,23.26,021012,,,A*49
$GPRMC,203234.000,A,3748.7952,N,12217.6626,W,2.13,22.24,021012,,,A*4C
$GPRMC,203235.000,A,3748.7958,N,12217.6621,W,1.87,27.83,021012,,,A*46
$GPRMC,203236.000,A,3748.7965,N,12217.6617,W,2.13,27.73,021012,,,A*4F
$GPRMC,203237.000,A,3748.7972,N,12217.6613,W,2.16,19.99,021012,,,A*40
$GPRMC,203238.000,A,3748.7979,N,12217.6609,W,2.08,29.75,021012,,,D*44
$GPRMC,203239.000,A,3748.7985,N,12217.6604,W,2.19,30.47,021012,,,D*42
$GPRMC,203240.000,A,3748.7990,N,12217.6600,W,2.24,27.76,021012,,,D*46
$GPRMC,203241.000,A,3748.7997,N,12217.6597,W,2.35,26.21,021012,,,D*4E
$GPRMC,203242.000,A,3748.8003,N,12217.6593,W,2.29,32.29,021012,,,D*42
$GPRMC,203243.000,A,3748.8009,N,12217.6587,W,2.55,31.04,021012,,,D*4B
$GPRMC,203244.000,A,3748.8017,N,12217.6581,W,2.85,24.34,021012,,,D*4F
$GPRMC,203245.000,A,3748.8024,N,12217.6576,W,2.64,19.44,021012,,,D*40
$GPRMC,203246.000,A,3748.8031,N,12217.6571,W,2.76,25.46,021012,,,D*4E
$GPRMC,203247.000,A,3748.8038,N,12217.6566,W,2.34,24.99,021012,,,D*45
$GPRMC,203248.000,A,3748.8044,N,12217.6562,W,1.98,28.37,021012,,,D*48
$GPRMC,203249.000,A,3748.8049,N,12217.6559,W,2.19,25.45,021012,,,D*4E
$GPRMC,203250.000,A,3748.8055,N,12217.6552,W,2.66,40.90,021012,,,D*43
$GPRMC,203251.000,A,3748.8061,N,12217.6547,W,2.40,25.91,021012,,,D*47
$GPRMC,203252.000,A,3748.8068,N,12217.6542,W,2.97,20.65,021012,,,D*4C
$GPRMC,203253.000,A,3748.8074,N,12217.6536,W,2.78,30.19,021012,,,D*48
$GPRMC,203254.000,A,3748.8080,N,12217.6531,W,2.26,23.13,021012,,,D*40
$GPRMC,203255.000,A,3748.8086,N,12217.6527,W,2.46,22.48,021012,,,D*49
$GPRMC,203256.000,A,3748.8092,N,12217.6522,W,2.76,34.79,021012,,,D*4C
$GPRMC,203257.000,A,3748.8099,N,12217.6515,W,2.58,24.09,021012,,,D*48
$GPRMC,203258.000,A,3748.8106,N,12217.6511,W,2.72,18.03,021012,,,D*49
$GPRMC,203259.000,A,3748.8113,N,12217.6504,W,2.48,21.29,021012,,,D*43
$GPRMC,203300.000,A,3748.8115,N,12217.6487,W,2.45,26.28,021012,,,D*49
$GPRMC,203301.000,A,3748.8121,N,12217.6481,W,2.56,33.33,021012,,,D*45
$GPRMC,203302.000,A,3748.8124,N,12217.6471,W,2.31,32.08,021012,,,D*44
$GPRMC,203303.000,A,3748.8126,N,12217.6456,W,2.62,33.26,021012,,,D*49
$GPRMC,203304.000,A,3748.8127,N,12217.6445,W,2.26,39.44,021012,,,D*43
$GPRMC,203305.000,A,3748.8133,N,12217.6443,W,2.72,20.43,021012,,,D*4F
$GPRMC,203306.000,A,3748.8135,N,12217.6432,W,2.47,39.37,021012,,,D*41
$GPRMC,203307.000,A,3748.8139,N,12217.6427,W,2.31,48.31,021012,,,D*49
$GPRMC,203308.000,A,3748.8140,N,12217.6409,W,2.24,43.05,021012,,,D*4C
$GPRMC,203309.000,A,3748.8141,N,12217.6397,W,2.62,25.80,021012,,,D*43
$GPRMC,203310.000,A,3748.8144,N,12217.6387,W,2.42,37.34,021012,,,D*41
$GPRMC,203311.000,A,3748.8149,N,12217.6379,W,2.62,38.33,021012,,,D*46
$GPRMC,203312.000,A,3748.8154,N,12217.6369,W,2.59,46.24,021012,,,D*4F
$GPRMC,203313.000,A,3748.8156,N,12217.6360,W,2.58,46.62,021012,,,D*46
$GPRMC,203314.000,A,3748.8160,N,12217.6349,W,2.73,25.33,021012,,,D*47
$GPRMC,203315.000,A,3748.8163,N,12217.6337,W,2.50,33.04,021012,,,D*4E
$GPRMC,203316.000,A,3748.8167,N,12217.6330,W,2.31,25.55,021012,,,D*4A
$GPRMC,203317.000,A,3748.8172,N,12217.6324,W,2.41,25.06,021012,,,D*4B
$GPRMC,203318.000,A,3748.8175,N,12217.6316,W,2.48,31.43,021012,,,D*4F
$GPRMC,203319.000,A,3748.8176,N,12217.6305,W,2.41,49.30,021012,,,D*4D
$GPRMC,203320.000,A,3748.8177,N,12217.6294,W,2.23,49.04,021012,,,D*4C
$GPRMC,203321.000,A,3748.8176,N,12217.6283,W,1.69,57.82,021012,,,D*46
$GPRMC,203322.000,A,3748.8179,N,12217.6274,W,2.29,40.24,021012,,,D*4F
$GPRMC,203323.000,A,3748.8186,N,12217.6268,W,2.63,49.07,021012,,,D*45
$GPRMC,203324.000,A,3748.8194,N,12217.6263,W,2.89,36.40,021012,,,D*45
$GPRMC,203325.000,A,3748.8201,N,12217.6259,W,2.67,34.40,021012,,,D*40
$GPRMC,203326.000,A,3748.8209,N,12217.6257,W,2.51,33.18,021012,,,D*4A
$GPRMC,203327.000,A,3748.8216,N,12217.6254,W,2.17,26.61,021012,,,D*4E
$GPRMC,203328.000,A,3748.8223,N,12217.6252,W,2.59,13.82,021012,,,D*40
$GPRMC,203329.000,A,3748.8231,N,12217.6248,W,2.69,36.89,021012,,,D*46
$GPRMC,203330.000,A,3748.8241,N,12217.6249,W,2.63,36.34,021012,,,D*44
$GPRMC,203331.000,A,3748.8248,N,12217.6244,W,2.42,44.50,021012,,,D*45
$GPRMC,203332.000,A,3748.8252,N,12217.6235,W,2.15,41.12,021012,,,D*4A
$GPRMC,203333.000,A,3748.8255,N,12217.6225,W,2.20,39.75,021012,,,D*45
$GPRMC,203334.000,A,3748.8261,N,12217.6220,W,2.14,39.44,021012,,,D*45
$GPRMC,203335.000,A,3748.8268,N,12217.6216,W,2.36,33.17,021012,,,D*44
$GPRMC,203336.000,A,3748.8272,N,12217.6208,W,2.10,49.98,021012,,,D*4D
$GPRMC,203337.000,A,3748.8274,N,12217.6199,W,2.22,49.31,021012,,,D*43
$GPRMC,203338.000,A,3748.8281,N,12217.6193,W,2.04,47.06,021012,,,D*42
$GPRMC,203339.000,A,3748.8287,N,12217.6190,W,1.76,41.74,021012,,,D*43
$GPRMC,203340.000,A,3748.8293,N,12217.6186,W,2.58,33.27,021012,,,D*43
$GPRMC,203341.000,A,3748.8298,N,12217.6179,W,2.59,28.88,021012,,,D*47
$GPRMC,203342.000,A,3748.8304,N,12217.6173,W,2.37,24.53,021012,,,D*48
$GPRMC,203343.000,A,3748.8308,N,12217.6166,W,2.23,33.58,021012,,,D*49
$GPRMC,203344.000,A,3748.8312,N,12217.6158,W,2.29,39.24,021012,,,D*43
$GPRMC,203345.000,A,3748.8318,N,12217.6154,W,2.07,32.30,021012,,,D*46
$GPRMC,203346.000,A,3748.8326,N,12217.6151,W,1.98,29.01,021012,,,D*40
$GPRMC,203347.000,A,3748.8330,N,12217.6145,W,1.62,39.15,021012,,,D*42
$GPRMC,203348.000,A,3748.8332,N,12217.6145,W,0.55,38.88,021012,,,D*4F
$GPRMC,203349.000,A,3748.8335,N,12217.6145,W,1.75,95.67,021012,,,D*4C
$GPRMC,203350.000,A,3748.8336,N,12217.6148,W,1.48,128.48,021012,,,D*7E
$GPRMC,203351.000,A,3748.8336,N,12217.6148,W,1.65,116.57,021012,,,D*73
$GPRMC,203352.000,A,3748.8336,N,12217.6143,W,2.23,121.58,021012,,,D*71
$GPRMC,203353.000,A,3748.8338,N,12217.6144,W,2.07,117.93,021012,,,D*7D
$GPRMC,203354.000,A,3748.8337,N,12217.6148,W,2.29,113.34,021012,,,D*7C
$GPRMC,203355.000,A,3748.8338,N,12217.6148,W,1.75,134.68,021012,,,D*74
$GPRMC,203356.000,A,3748.8338,N,12217.6142,W,2.56,119.46,021012,,,D*7C
$GPRMC,203357.000,A,3748.8339,N,12217.6140,W,2.27,110.53,021012,,,D*75
$GPRMC,203358.000,A,3748.8340,N,12217.6138,W,1.59,107.42,021012,,,D*77
$GPRMC,203359.000,A,3748.8340,N,12217.6136,W,2.26,131.60,021012,,,D*76
$GPRMC,203400.000,A,3748.8340,N,12217.6133,W,2.24,126.13,021012,,,D*78
$GPRMC,203401.000,A,3748.8340,N,12217.6127,W,2.29,124.51,021012,,,D*75
$GPRMC,203402.000,A,3748.8340,N,12217.6119,W,2.65,118.28,021012,,,D*72
$GPRMC,203403.000,A,3748.8336,N,12217.6116,W,2.37,122.11,021012,,,D*79
$GPRMC,203404.000,A,3748.8336,N,12217.6110,W,1.91,129.63,021012,,,D*79
$GPRMC,203405.000,A,3748.8334,N,12217.6108,W,2.04,138.96,021012,,,D*76
$GPRMC,203406.000,A,3748.8333,N,12217.6107,W,0.91,119.78,021012,,,A*75
$GPRMC,203407.000,A,3748.8331,N,12217.6105,W,1.18,117.61,021012,,,A*72
$GPRMC,203408.000,A,3748.8329,N,12217.6094,W,1.03,118.48,021012,,,A*73
$GPRMC,203409.000,A,3748.8325,N,12217.6081,W,1.80,100.53,021012,,,A*72
$GPRMC,203410.000,A,3748.8324,N,12217.6072,W,1.47,99.95,021012,,,A*47
$GPRMC,203411.000,A,3748.8321,N,12217.6066,W,1.61,101.35,021012,,,A*78
$GPRMC,203412.000,A,3748.8318,N,12217.6060,W,1.37,126.21,021012,,,A*74
$GPRMC,203413.000,A,3748.8315,N,12217.6054,W,1.13,132.96,021012,,,A*70
$GPRMC,203414.000,A,3748.8310,N,12217.6049,W,1.81,131.26,021012,,,A*7D
$GPRMC,203415.000,A,3748.8308,N,12217.6043,W,1.77,120.63,021012,,,A*77
$GPRMC,203416.000,A,3748.8306,N,12217.6036,W,1.98,116.24,021012,,,A*7F
$GPRMC,203417.000,A,3748.8304,N,12217.6029,W,1.34,96.64,021012,,,A*49
$GPRMC,203418.000,A,3748.8299,N,12217.6022,W,2.22,111.28,021012,,,A*7A
$GPRMC,203419.000,A,3748.8296,N,12217.6016,W,1.63,118.12,021012,,,D*70
$GPRMC,203420.000,A,3748.8294,N,12217.6014,W,1.25,115.09,021012,,,D*7F
$GPRMC,203421.000,A,3748.8291,N,12217.6011,W,1.23,114.66,021012,,,D*70
$GPRMC,203422.000,A,3748.8287,N,12217.6004,W,2.23,117.54,021012,,,D*71
$GPRMC,203423.000,A,3748.8283,N,12217.5998,W,1.83,113.11,021012,,,D*77
$GPRMC,203424.000,A,3748.8280,N,12217.5992,W,1.17,123.50,021012,,,D*72
$GPRMC,203425.000,A,3748.8277,N,12217.5987,W,0.98,111.83,021012,,,D*76
$GPRMC,203426.000,A,3748.8273,N,12217.5982,W,1.44,121.19,021012,,,D*74
$GPRMC,203427.000,A,3748.8268,N,12217.5973,W,2.00,121.21,021012,,,D*79
$GPRMC,203428.000,A,3748.8263,N,12217.5964,W,1.81,121.11,021012,,,D*72
$GPRMC,203429.000,A,3748.8258,N,12217.5955,W,2.02,120.58,021012,,,D*7D
$GPRMC,203430.000,A,3748.8253,N,12217.5948,W,1.52,117.04,021012,,,D*79
$GPRMC,203431.000,A,3748.8249,N,12217.5942,W,1.41,121.25,021012,,,D*7D
$GPRMC,203432.000,A,3748.8245,N,12217.5930,W,2.00,118.62,021012,,,D*78
$GPRMC,203433.000,A,3748.8239,N,12217.5923,W,1.72,119.61,021012,,,D*74
$GPRMC,203434.000,A,3748.8234,N,12217.5915,W,1.21,122.63,021012,,,D*77
$GPRMC,203435.000,A,3748.8229,N,12217.5906,W,1.68,111.93,021012,,,D*7A
$GPRMC,203436.000,A,3748.8225,N,12217.5898,W,1.67,113.79,021012,,,D*7A
$GPRMC,203437.000,A,3748.8214,N,12217.5875,W,1.89,122.41,021012,,,D*73
$GPRMC,203438.000,A,3748.8211,N,12217.5867,W,2.71,121.85,021012,,,D*75
$GPRMC,203439.000,A,3748.8208,N,12217.5859,W,2.19,117.61,021012,,,D*70
$GPRMC,203440.000,A,3748.8201,N,12217.5847,W,1.91,121.79,021012,,,D*77
$GPRMC,203441.000,A,3748.8196,N,12217.5840,W,1.70,115.88,021012,,,D*7A
$GPRMC,203442.000,A,3748.8190,N,12217.5826,W,1.82,113.25,021012,,,D*73
$GPRMC,203443.000,A,3748.8188,N,12217.5821,W,1.33,122.94,021012,,,D*7E
$GPRMC,203444.000,A,3748.8186,N,12217.5815,W,1.48,118.13,021012,,,D*7A
$GPRMC,203445.000,A,3748.8185,N,12217.5809,W,1.21,113.76,021012,,,D*72
$GPRMC,203446.000,A,3748.8183,N,12217.5806,W,0.52,117.91,021012,,,D*70
$GPRMC,203447.000,A,3748.8181,N,12217.5803,W,1.46,111.44,021012,,,D*7C
$GPRMC,203448.000,A,3748.8179,N,12217.5798,W,1.90,111.02,021012,,,D*70
$GPRMC,203449.000,A,3748.8173,N,12217.5784,W,1.82,116.80,021012,,,D*78
$GPRMC,203450.000,A,3748.8168,N,12217.5773,W,1.81,115.87,021012,,,D*75
$GPRMC,203451.000,A,3748.8164,N,12217.5762,W,1.95,118.54,021012,,,D*7E
$GPRMC,203452.000,A,3748.8160,N,12217.5755,W,1.84,114.38,021012,,,D*7B
$GPRMC,203453.000,A,3748.8158,N,12217.5747,W,1.32,116.08,021012,,,D*7E
$GPRMC,203454.000,A,3748.8154,N,12217.5742,W,2.14,119.35,021012,,,D*76
$GPRMC,203455.000,A,3748.8151,N,12217.5736,W,1.57,118.16,021012,,,D*75
$GPRMC,203456.000,A,3748.8142,N,12217.5718,W,1.61,117.45,021012,,,D*74
$GPRMC,203457.000,A,3748.8137,N,12217.5704,W,1.28,119.34,021012,,,D*7F
$GPRMC,203458.000,A,3748.8131,N,12217.5692,W,1.55,107.79,021012,,,D*74
$GPRMC,203459.000,A,3748.8130,N,12217.5687,W,1.02,66.05,021012,,,D*4F
$GPRMC,203500.000,A,3748.8129,N,12217.5681,W,1.41,108.70,021012,,,D*70
$GPRMC,203501.000,A,3748.8129,N,12217.5674,W,1.58,96.70,021012,,,D*45
$GPRMC,203502.000,A,3748.8128,N,12217.5667,W,2.27,86.20,021012,,,D*4A
$GPRMC,203503.000,A,3748.8129,N,12217.5660,W,2.42,110.43,021012,,,D*75
$GPRMC,203504.000,A,3748.8124,N,12217.5649,W,1.89,105.13,021012,,,D*71
$GPRMC,203505.000,A,3748.8123,N,12217.5640,W,1.73,83.95,021012,,,D*4A
$GPRMC,203506.000,A,3748.8124,N,12217.5633,W,1.85,123.16,021012,,,D*73
$GPRMC,203507.000,A,3748.8116,N,12217.5624,W,1.43,150.69,021012,,,D*73
$GPRMC,203508.000,A,3748.8114,N,12217.5613,W,1.69,133.24,021012,,,D*7E
$GPRMC,203509.000,A,3748.8111,N,12217.5607,W,1.80,123.37,021012,,,D*7B
$GPRMC,203510.000,A,3748.8105,N,12217.5602,W,1.21,123.59,021012,,,D*70
$GPRMC,203511.000,A,3748.8099,N,12217.5594,W,0.92,130.21,021012,,,D*7D
$GPRMC,203512.000,A,3748.8097,N,12217.5588,W,1.11,131.21,021012,,,D*76
$GPRMC,203513.000,A,3748.8094,N,12217.5577,W,1.77,112.96,021012,,,D*79
$GPRMC,203514.000,A,3748.8091,N,12217.5570,W,1.26,118.82,021012,,,A*72
$GPRMC,203515.000,A,3748.8087,N,12217.5566,W,0.97,146.56,021012,,,A*7A
$GPRMC,203516.000,A,3748.8083,N,12217.5558,W,1.05,151.15,021012,,,A*7B
$GPRMC,203517.000,A,3748.8077,N,12217.5551,W,2.16,130.38,021012,,,A*71
$GPRMC,203518.000,A,3748.8074,N,12217.5544,W,2.22,136.70,021012,,,A*74
$GPRMC,203519.000,A,3748.8066,N,12217.5536,W,2.27,124.84,021012,,,A*7E
$GPRMC,203520.000,A,3748.8061,N,12217.5524,W,1.74,122.63,021012,,,A*7A
$GPRMC,203521.000,A,3748.8055,N,12217.5516,W,1.55,126.11,021012,,,A*7F
$GPRMC,203522.000,A,3748.8052,N,12217.5511,W,1.84,125.71,021012,,,A*75
$GPRMC,203523.000,A,3748.8047,N,12217.5510,W,1.83,158.00,021012,,,A*7A
$GPRMC,203524.000,A,3748.8041,N,12217.5512,W,1.90,218.50,021012,,,A*79
$GPRMC,203525.000,A,3748.8035,N,12217.5518,W,1.83,216.24,021012,,,A*7E
$GPRMC,203526.000,A,3748.8030,N,12217.5524,W,1.86,220.89,021012,,,A*70
$GPRMC,203527.000,A,3748.8025,N,12217.5530,W,1.43,228.32,021012,,,A*71
$GPRMC,203528.000,A,3748.8022,N,12217.5533,W,1.21,223.57,021012,,,A*76
$GPRMC,203529.000,A,3748.8013,N,12217.5539,W,2.59,212.31,021012,,,A*71
$GPRMC,203530.000,A,3748.8006,N,12217.5544,W,1.95,212.01,021012,,,A*77
$GPRMC,203531.000,A,3748.7994,N,12217.5539,W,2.10,175.50,021012,,,A*79
$GPRMC,203532.000,A,3748.7988,N,12217.5540,W,2.00,165.23,021012,,,A*7D
$GPRMC,203533.000,A,3748.7983,N,12217.5543,W,1.46,183.41,021012,,,A*79
$GPRMC,203534.000,A,3748.7977,N,12217.5546,W,1.58,180.49,021012,,,A*74
$GPRMC,203535.000,A,3748.7967,N,12217.5549,W,1.83,202.88,021012,,,A*79
$GPRMC,203536.000,A,3748.7960,N,12217.5553,W,2.11,207.26,021012,,,A*7F
$GPRMC,203537.000,A,3748.7957,N,12217.5563,W,2.40,206.89,021012,,,A*79
$GPRMC,203538.000,A,3748.7952,N,12217.5570,W,1.87,196.30,021012,,,A*71
$GPRMC,203539.000,A,3748.7950,N,12217.5578,W,1.54,202.18,021012,,,A*70
$GPRMC,203540.000,A,3748.7946,N,12217.5580,W,1.77,209.02,021012,,,A*7F
$GPRMC,203541.000,A,3748.7941,N,12217.5583,W,1.83,217.85,021012,,,A*71
$GPRMC,203542.000,A,3748.7936,N,12217.5587,W,1.76,223.61,021012,,,A*71
$GPRMC,203543.000,A,3748.7931,N,12217.5592,W,1.83,193.16,021012,,,A*71
$GPRMC,203544.000,A,3748.7922,N,12217.5593,W,1.82,175.21,021012,,,A*78
$GPRMC,203545.000,A,3748.7913,N,12217.5599,W,1.65,204.82,021012,,,A*74
$GPRMC,203546.000,A,3748.7906,N,12217.5612,W,1.88,211.94,021012,,,A*73
$GPRMC,203547.000,A,3748.7899,N,12217.5618,W,1.99,207.50,021012,,,A*70
$GPRMC,203548.000,A,3748.7892,N,12217.5618,W,1.78,198.62,021012,,,A*7F
$GPRMC,203549.000,A,3748.7885,N,12217.5626,W,1.73,217.55,021012,,,A*7E
$GPRMC,203550.000,A,3748.7881,N,12217.5634,W,1.03,227.49,021012,,,A*78
$GPRMC,203551.000,A,3748.7874,N,12217.5638,W,1.40,189.17,021012,,,A*74
$GPRMC,203552.000,A,3748.7866,N,12217.5641,W,1.71,192.80,021012,,,A*7C
$GPRMC,203553.000,A,3748.7859,N,12217.5645,W,2.10,215.47,021012,,,A*76
$GPRMC,203554.000,A,3748.7855,N,12217.5651,W,2.09,224.13,021012,,,A*73
$GPRMC,203555.000,A,3748.7848,N,12217.5658,W,1.97,205.74,021012,,,A*71
$GPRMC,203556.000,A,3748.7843,N,12217.5661,W,1.97,210.69,021012,,,A*7B
$GPRMC,203557.000,A,3748.7837,N,12217.5667,W,2.43,228.19,021012,,,A*79
$GPRMC,203558.000,A,3748.7833,N,12217.5672,W,1.98,226.61,021012,,,A*72
$GPRMC,203559.000,A,3748.7830,N,12217.5681,W,2.23,234.21,021012,,,A*78
$GPRMC,203600.000,A,3748.7827,N,12217.5686,W,1.77,215.94,021012,,,A*79
$GPRMC,203601.000,A,3748.7819,N,12217.5692,W,1.76,215.87,021012,,,A*73
$GPRMC,203602.000,A,3748.7811,N,12217.5699,W,1.93,220.79,021012,,,A*7F
$GPRMC,203603.000,A,3748.7804,N,12217.5706,W,2.17,222.84,021012,,,A*72
$GPRMC,203604.000,A,3748.7798,N,12217.5713,W,1.82,214.91,021012,,,A*75
$GPRMC,203605.000,A,3748.7792,N,12217.5718,W,2.11,208.90,021012,,,A*70
$GPRMC,203606.000,A,3748.7787,N,12217.5724,W,2.14,216.34,021012,,,A*7C
$GPRMC,203607.000,A,3748.7779,N,12217.5734,W,2.28,224.81,021012,,,A*7D
$GPRMC,203608.000,A,3748.7771,N,12217.5739,W,2.11,215.38,021012,,,A*7D
$GPRMC,203609.000,A,3748.7767,N,12217.5744,W,1.78,203.78,021012,,,A*7E
$GPRMC,203610.000,A,3748.7763,N,12217.5747,W,1.88,207.59,021012,,,A*79
$GPRMC,203611.000,A,3748.7760,N,12217.5750,W,1.88,219.61,021012,,,A*79
$GPRMC,203612.000,A,3748.7756,N,12217.5755,W,2.24,223.92,021012,,,A*7A
$GPRMC,203613.000,A,3748.7751,N,12217.5763,W,2.35,230.52,021012,,,A*77
$GPRMC,203614.000,A,3748.7745,N,12217.5769,W,2.35,225.17,021012,,,A*7A
$GPRMC,203615.000,A,3748.7738,N,12217.5775,W,2.18,214.95,021012,,,A*7B
$GPRMC,203616.000,A,3748.7729,N,12217.5778,W,2.34,205.82,021012,,,A*7D
$GPRMC,203617.000,A,3748.7722,N,12217.5781,W,2.36,201.58,021012,,,A*70
$GPRMC,203618.000,A,3748.7715,N,12217.5784,W,2.21,207.05,021012,,,A*76
$GPRMC,203619.000,A,3748.7707,N,12217.5789,W,2.18,213.62,021012,,,A*77
$GPRMC,203620.000,A,3748.7702,N,12217.5796,W,2.30,212.88,021012,,,A*79
$GPRMC,203621.000,A,3748.7697,N,12217.5801,W,2.18,207.74,021012,,,A*79
$GPRMC,203622.000,A,3748.7692,N,12217.5803,W,1.74,206.71,021012,,,A*70
$GPRMC,203623.000,A,3748.7687,N,12217.5805,W,1.70,199.44,021012,,,A*74
$GPRMC,203624.000,A,3748.7682,N,12217.5808,W,2.00,197.27,021012,,,A*74
$GPRMC,203625.000,A,3748.7676,N,12217.5807,W,1.69,186.03,021012,,,A*7B
$GPRMC,203626.000,A,3748.7671,N,12217.5810,W,1.95,186.25,021012,,,A*7E
$GPRMC,203627.000,A,3748.7666,N,12217.5811,W,1.77,190.95,021012,,,A*78
$GPRMC,203628.000,A,3748.7660,N,12217.5812,W,1.86,178.84,021012,,,A*7A
$GPRMC,203629.000,A,3748.7654,N,12217.5813,W,1.95,196.49,021012,,,A*7E
$GPRMC,203630.000,A,3748.7647,N,12217.5815,W,2.03,196.00,021012,,,A*73
$GPRMC,203631.000,A,3748.7642,N,12217.5815,W,1.97,185.82,021012,,,A*71
$GPRMC,203632.000,A,3748.7635,N,12217.5816,W,1.50,187.83,021012,,,A*79
$GPRMC,203633.000,A,3748.7630,N,12217.5817,W,1.39,173.96,021012,,,A*7C
$GPRMC,203634.000,A,3748.7622,N,12217.5818,W,1.59,186.93,021012,,,A*7E
$GPRMC,203635.000,A,3748.7614,N,12217.5821,W,1.77,202.75,021012,,,A*7B
$GPRMC,203636.000,A,3748.7605,N,12217.5825,W,1.93,207.30,021012,,,A*72
$GPRMC,203637.000,A,3748.7601,N,12217.5831,W,1.74,210.30,021012,,,A*7D
$GPRMC,203638.000,A,3748.7594,N,12217.5837,W,1.88,200.06,021012,,,A*7C
$GPRMC,203639.000,A,3748.7587,N,12217.5845,W,2.13,217.11,021012,,,A*7B
$GPRMC,203640.000,A,3748.7579,N,12217.5854,W,2.09,229.16,021012,,,A*75
$GPRMC,203641.000,A,3748.7572,N,12217.5863,W,2.19,222.02,021012,,,A*74
$GPRMC,203642.000,A,3748.7566,N,12217.5873,W,1.92,220.42,021012,,,A*75
$GPRMC,203643.000,A,3748.7559,N,12217.5882,W,1.86,220.00,021012,,,A*75
$GPRMC,203644.000,A,3748.7551,N,12217.5891,W,1.98,217.96,021012,,,A*7C
$GPRMC,203645.000,A,3748.7542,N,12217.5901,W,1.78,227.01,021012,,,A*74
$GPRMC,203646.000,A,3748.7535,N,12217.5904,W,1.59,222.55,021012,,,A*75
$GPRMC,203647.000,A,3748.7526,N,12217.5902,W,2.05,188.28,021012,,,A*73
$GPRMC,203648.000,A,3748.7522,N,12217.5905,W,1.92,176.29,021012,,,A*72
$GPRMC,203649.000,A,3748.7517,N,12217.5906,W,1.80,171.83,021012,,,A*72
$GPRMC,203650.000,A,3748.7509,N,12217.5912,W,1.76,190.22,021012,,,A*7D
$GPRMC,203651.000,A,3748.7501,N,12217.5920,W,1.77,214.60,021012,,,A*7D
$GPRMC,203652.000,A,3748.7491,N,12217.5924,W,2.10,214.49,021012,,,A*7B
$GPRMC,203653.000,A,3748.7485,N,12217.5931,W,1.85,203.54,021012,,,A*7E
$GPRMC,203654.000,A,3748.7480,N,12217.5934,W,1.68,200.82,021012,,,A*72
$GPRMC,203655.000,A,3748.7476,N,12217.5940,W,1.50,214.63,021012,,,A*78
$GPRMC,203656.000,A,3748.7473,N,12217.5946,W,2.07,212.40,021012,,,A*7E
$GPRMC,203657.000,A,3748.7466,N,12217.5949,W,1.93,191.47,021012,,,A*75
$GPRMC,203658.000,A,3748.7458,N,12217.5957,W,1.90,213.26,021012,,,A*75
$GPRMC,203659.000,A,3748.7452,N,12217.5963,W,2.05,201.75,021012,,,A*73
$GPRMC,203700.000,A,3748.7443,N,12217.5967,W,2.36,200.47,021012,,,A*7A
$GPRMC,203701.000,A,3748.7434,N,12217.5972,W,1.84,194.84,021012,,,A*74
$GPRMC,203702.000,A,3748.7425,N,12217.5976,W,0.99,195.81,021012,,,A*7A
$GPRMC,203703.000,A,3748.7421,N,12217.5978,W,0.29,215.48,021012,,,A*74
$GPRMC,203704.000,A,3748.7418,N,12217.5980,W,1.00,224.75,021012,,,A*78
$GPRMC,203705.000,A,3748.7416,N,12217.5985,W,1.83,225.15,021012,,,A*7E
$GPRMC,203706.000,A,3748.7411,N,12217.5991,W,1.92,214.77,021012,,,A*79
$GPRMC,203707.000,A,3748.7406,N,12217.5995,W,2.14,218.09,021012,,,A*72
$GPRMC,203708.000,A,3748.7399,N,12217.6000,W,1.89,204.87,021012,,,A*76
$GPRMC,203709.000,A,3748.7393,N,12217.6008,W,1.64,200.22,021012,,,A*7D
$GPRMC,203710.000,A,3748.7384,N,12217.6013,W,1.69,186.81,021012,,,A*70
$GPRMC,203711.000,A,3748.7380,N,12217.6019,W,1.82,206.73,021012,,,A*7C
$GPRMC,203712.000,A,3748.7375,N,12217.6023,W,2.15,205.56,021012,,,A*75
$GPRMC,203713.000,A,3748.7371,N,12217.6028,W,1.89,202.38,021012,,,A*72
$GPRMC,203714.000,A,3748.7366,N,12217.6030,W,1.93,191.82,021012,,,A*79
$GPRMC,203715.000,A,3748.7362,N,12217.6034,W,1.62,182.78,021012,,,A*71
$GPRMC,203716.000,A,3748.7357,N,12217.6034,W,1.59,182.83,021012,,,A*78
$GPRMC,203717.000,A,3748.7352,N,12217.6033,W,1.66,186.05,021012,,,A*7D
$GPRMC,203718.000,A,3748.7347,N,12217.6036,W,1.79,195.31,021012,,,A*78
$GPRMC,203719.000,A,3748.7343,N,12217.6043,W,2.19,214.00,021012,,,A*72
$GPRMC,203720.000,A,3748.7339,N,12217.6050,W,2.10,195.98,021012,,,A*75
$GPRMC,203721.000,A,3748.7333,N,12217.6055,W,1.92,197.11,021012,,,A*71
$GPRMC,203722.000,A,3748.7328,N,12217.6056,W,1.90,204.57,021012,,,A*72
$GPRMC,203723.000,A,3748.7322,N,12217.6058,W,2.08,210.24,021012,,,A*74
$GPRMC,203724.000,A,3748.7317,N,12217.6062,W,1.75,199.28,021012,,,A*7B
$GPRMC,203725.000,A,3748.7314,N,12217.6067,W,1.50,203.76,021012,,,A*70
$GPRMC,203726.000,A,3748.7310,N,12217.6072,W,1.94,202.44,021012,,,A*7B
$GPRMC,203727.000,A,3748.7305,N,12217.6077,W,1.70,203.99,021012,,,A*70
$GPRMC,203728.000,A,3748.7300,N,12217.6079,W,1.57,181.82,021012,,,A*72
$GPRMC,203729.000,A,3748.7293,N,12217.6082,W,1.37,176.22,021012,,,A*78
$GPRMC,203730.000,A,3748.7287,N,12217.6085,W,1.51,176.31,021012,,,A*70
$GPRMC,203731.000,A,3748.7282,N,12217.6092,W,1.69,190.34,021012,,,A*74
$GPRMC,203732.000,A,3748.7276,N,12217.6098,W,1.73,185.86,021012,,,A*70
$GPRMC,203733.000,A,3748.7270,N,12217.6104,W,1.82,189.22,021012,,,A*7F
$GPRMC,203734.000,A,3748.7264,N,12217.6108,W,1.62,182.97,021012,,,A*7A
$GPRMC,203735.000,A,3748.7258,N,12217.6110,W,1.63,187.28,021012,,,A*7D
$GPRMC,203736.000,A,3748.7252,N,12217.6113,W,1.69,200.89,021012,,,A*7A
$GPRMC,203737.000,A,3748.7242,N,12217.6121,W,1.97,207.26,021012,,,A*78
$GPRMC,203738.000,A,3748.7231,N,12217.6132,W,1.90,216.03,021012,,,A*71
$GPRMC,203739.000,A,3748.7222,N,12217.6139,W,1.42,193.17,021012,,,A*7D
$GPRMC,203740.000,A,3748.7214,N,12217.6145,W,1.55,183.19,021012,,,A*74
$GPRMC,203741.000,A,3748.7206,N,12217.6152,W,1.74,182.55,021012,,,A*7A
$GPRMC,203742.000,A,3748.7200,N,12217.6160,W,1.85,207.74,021012,,,A*7D
$GPRMC,203743.000,A,3748.7192,N,12217.6169,W,2.02,203.92,021012,,,A*7D
$GPRMC,203744.000,A,3748.7185,N,12217.6174,W,1.94,200.58,021012,,,A*79
$GPRMC,203745.000,A,3748.7177,N,12217.6180,W,2.22,199.43,021012,,,A*79
$GPRMC,203746.000,A,3748.7168,N,12217.6185,W,2.40,195.02,021012,,,A*7C
$GPRMC,203747.000,A,3748.7163,N,12217.6190,W,1.86,187.10,021012,,,A*7B
$GPRMC,203748.000,A,3748.7156,N,12217.6192,W,1.43,185.21,021012,,,A*79
$GPRMC,203749.000,A,3748.7150,N,12217.6197,W,0.98,200.71,021012,,,A*77
$GPRMC,203750.000,A,3748.7146,N,12217.6201,W,0.85,198.82,021012,,,A*76
$GPRMC,203751.000,A,3748.7142,N,12217.6203,W,1.25,193.07,021012,,,A*7C
$GPRMC,203752.000,A,3748.7137,N,12217.6207,W,2.06,205.60,021012,,,A*76
$GPRMC,203753.000,A,3748.7132,N,12217.6213,W,2.22,219.74,021012,,,A*79
$GPRMC,203754.000,A,3748.7126,N,12217.6219,W,2.10,215.16,021012,,,A*78
$GPRMC,203755.000,A,3748.7121,N,12217.6222,W,2.01,204.13,021012,,,A*73
$GPRMC,203756.000,A,3748.7115,N,12217.6227,W,1.82,206.09,021012,,,A*73
$GPRMC,203757.000,A,3748.7110,N,12217.6233,W,1.85,206.41,021012,,,A*79
$GPRMC,203758.000,A,3748.7106,N,12217.6239,W,1.62,198.16,021012,,,A*74
$GPRMC,203759.000,A,3748.7100,N,12217.6244,W,1.80,196.07,021012,,,A*7B
$GPRMC,203800.000,A,3748.7094,N,12217.6249,W,1.84,198.03,021012,,,A*77
$GPRMC,203801.000,A,3748.7088,N,12217.6254,W,1.92,206.36,021012,,,A*72
$GPRMC,203802.000,A,3748.7083,N,12217.6257,W,1.46,197.60,021012,,,A*78
$GPRMC,203803.000,A,3748.7076,N,12217.6265,W,1.75,210.45,021012,,,A*79
$GPRMC,203804.000,A,3748.7071,N,12217.6269,W,1.75,182.37,021012,,,A*78
$GPRMC,203805.000,A,3748.7056,N,12217.6280,W,2.31,207.29,021012,,,A*79
$GPRMC,203806.000,A,3748.7045,N,12217.6286,W,1.83,207.04,021012,,,A*7B
$GPRMC,203807.000,A,3748.7036,N,12217.6291,W,1.46,199.85,021012,,,D*79
$GPRMC,203808.000,A,3748.7023,N,12217.6301,W,1.26,206.63,021012,,,D*71
$GPRMC,203809.000,A,3748.7011,N,12217.6314,W,1.60,227.18,021012,,,D*78
$GPRMC,203810.000,A,3748.7001,N,12217.6327,W,1.68,199.32,021012,,,D*77
$GPRMC,203811.000,A,3748.6997,N,12217.6333,W,2.35,196.59,021012,,,D*7D
$GPRMC,203812.000,A,3748.6993,N,12217.6340,W,2.51,207.97,021012,,,D*75
$GPRMC,203813.000,A,3748.6989,N,12217.6349,W,2.41,208.34,021012,,,D*71
$GPRMC,203814.000,A,3748.6979,N,12217.6356,W,2.22,197.65,021012,,,D*73
$GPRMC,203815.000,A,3748.6973,N,12217.6366,W,2.12,201.90,021012,,,D*7E
$GPRMC,203816.000,A,3748.6969,N,12217.6370,W,1.87,198.87,021012,,,D*7B
$GPRMC,203817.000,A,3748.6964,N,12217.6371,W,2.12,201.14,021012,,,D*70
$GPRMC,203818.000,A,3748.6959,N,12217.6374,W,1.78,194.32,021012,,,D*70
$GPRMC,203819.000,A,3748.6954,N,12217.6375,W,1.76,198.80,021012,,,D*76
$GPRMC,203820.000,A,3748.6948,N,12217.6378,W,1.96,196.58,021012,,,D*79
$GPRMC,203821.000,A,3748.6941,N,12217.6379,W,2.27,193.37,021012,,,D*75
$GPRMC,203822.000,A,3748.6934,N,12217.6380,W,2.12,184.12,021012,,,D*75
$GPRMC,203823.000,A,3748.6927,N,12217.6380,W,2.19,174.12,021012,,,D*72
$GPRMC,203824.000,A,3748.6921,N,12217.6382,W,1.97,182.44,021012,,,D*7E
$GPRMC,203825.000,A,3748.6916,N,12217.6386,W,1.56,196.27,021012,,,D*72
$GPRMC,203826.000,A,3748.6911,N,12217.6394,W,1.84,214.17,021012,,,D*70
$GPRMC,203827.000,A,3748.6900,N,12217.6408,W,1.71,220.81,021012,,,D*71
$GPRMC,203828.000,A,3748.6896,N,12217.6414,W,1.74,216.90,021012,,,D*7D
$GPRMC,203829.000,A,3748.6890,N,12217.6420,W,2.00,216.75,021012,,,D*76
$GPRMC,203830.000,A,3748.6885,N,12217.6424,W,2.08,216.79,021012,,,D*7A
$GPRMC,203831.000,A,3748.6881,N,12217.6431,W,1.79,219.18,021012,,,D*76
$GPRMC,203832.000,A,3748.6876,N,12217.6436,W,1.52,207.83,021012,,,D*7E
$GPRMC,203833.000,A,3748.6871,N,12217.6438,W,1.62,208.55,021012,,,D*71
$GPRMC,203834.000,A,3748.6860,N,12217.6448,W,1.61,199.66,021012,,,D*79
$GPRMC,203835.000,A,3748.6851,N,12217.6455,W,1.91,196.74,021012,,,D*75
$GPRMC,203836.000,A,3748.6846,N,12217.6458,W,1.78,190.73,021012,,,D*7B
$GPRMC,203837.000,A,3748.6841,N,12217.6460,W,1.78,189.66,021012,,,D*7A
$GPRMC,203838.000,A,3748.6831,N,12217.6468,W,1.92,194.64,021012,,,D*70
$GPRMC,203839.000,A,3748.6823,N,12217.6474,W,2.34,208.93,021012,,,D*7E
$GPRMC,203840.000,A,3748.6815,N,12217.6477,W,2.29,189.76,021012,,,D*7B
$GPRMC,203841.000,A,3748.6807,N,12217.6481,W,1.86,201.34,021012,,,D*73
$GPRMC,203842.000,A,3748.6802,N,12217.6486,W,1.88,212.42,021012,,,D*7F
$GPRMC,203843.000,A,3748.6795,N,12217.6492,W,1.66,215.35,021012,,,D*7D
$GPRMC,203844.000,A,3748.6784,N,12217.6501,W,2.05,217.20,021012,,,D*71
$GPRMC,203845.000,A,3748.6779,N,12217.6508,W,1.83,234.94,021012,,,D*78
$GPRMC,203846.000,A,3748.6774,N,12217.6513,W,1.93,204.67,021012,,,D*72
$GPRMC,203847.000,A,3748.6771,N,12217.6522,W,1.73,218.61,021012,,,D*71
$GPRMC,203848.000,A,3748.6766,N,12217.6528,W,2.04,228.21,021012,,,D*76
$GPRMC,203849.000,A,3748.6760,N,12217.6533,W,1.79,204.93,021012,,,D*75
$GPRMC,203850.000,A,3748.6748,N,12217.6540,W,1.60,197.42,021012,,,D*7E
$GPRMC,203851.000,A,3748.6743,N,12217.6543,W,1.47,202.22,021012,,,D*7B
$GPRMC,203852.000,A,3748.6739,N,12217.6545,W,1.46,189.30,021012,,,D*71
$GPRMC,203853.000,A,3748.6734,N,12217.6547,W,1.44,194.53,021012,,,D*74
$GPRMC,203854.000,A,3748.6727,N,12217.6554,W,1.38,213.91,021012,,,D*7A
$GPRMC,203855.000,A,3748.6721,N,12217.6564,W,1.65,231.89,021012,,,D*7F
$GPRMC,203856.000,A,3748.6714,N,12217.6573,W,1.82,233.40,021012,,,D*72
$GPRMC,203857.000,A,3748.6712,N,12217.6580,W,1.84,247.95,021012,,,D*74
$GPRMC,203858.000,A,3748.6708,N,12217.6588,W,1.59,238.72,021012,,,D*79
$GPRMC,203859.000,A,3748.6704,N,12217.6594,W,1.31,235.64,021012,,,D*7D
$GPRMC,203900.000,A,3748.6695,N,12217.6594,W,0.95,206.94,021012,,,D*79
$GPRMC,203901.000,A,3748.6685,N,12217.6597,W,1.81,202.78,021012,,,D*78
$GPRMC,203902.000,A,3748.6678,N,12217.6599,W,1.99,199.66,021012,,,D*70
$GPRMC,203903.000,A,3748.6671,N,12217.6600,W,2.02,204.10,021012,,,D*7C
$GPRMC,203904.000,A,3748.6665,N,12217.6602,W,1.66,199.39,021012,,,D*71
$GPRMC,203905.000,A,3748.6658,N,12217.6607,W,1.46,188.55,021012,,,D*73
$GPRMC,203906.000,A,3748.6653,N,12217.6611,W,0.89,205.22,021012,,,D*78
$GPRMC,203907.000,A,3748.6647,N,12217.6612,W,1.12,201.53,021012,,,D*7E
$GPRMC,203908.000,A,3748.6638,N,12217.6619,W,1.56,198.80,021012,,,D*7F
$GPRMC,203909.000,A,3748.6630,N,12217.6628,W,2.36,210.88,021012,,,D*7A
$GPRMC,203910.000,A,3748.6625,N,12217.6633,W,1.82,204.14,021012,,,D*70
$GPRMC,203911.000,A,3748.6617,N,12217.6640,W,2.00,199.50,021012,,,D*7A
$GPRMC,203912.000,A,3748.6608,N,12217.6648,W,1.78,191.17,021012,,,D*78
$GPRMC,203913.000,A,3748.6598,N,12217.6656,W,2.19,195.94,021012,,,D*77
$GPRMC,203914.000,A,3748.6591,N,12217.6660,W,2.05,197.31,021012,,,D*7C
$GPRMC,203915.000,A,3748.6585,N,12217.6667,W,2.55,213.37,021012,,,D*73
$GPRMC,203916.000,A,3748.6577,N,12217.6675,W,2.36,212.07,021012,,,D*79
$GPRMC,203917.000,A,3748.6572,N,12217.6680,W,2.25,204.74,021012,,,D*76
$GPRMC,203918.000,A,3748.6568,N,12217.6684,W,1.90,195.48,021012,,,D*7F
$GPRMC,203919.000,A,3748.6565,N,12217.6687,W,1.62,201.15,021012,,,D*7B
$GPRMC,203920.000,A,3748.6561,N,12217.6689,W,1.73,197.73,021012,,,D*77
$GPRMC,203921.000,A,3748.6556,N,12217.6693,W,1.75,202.68,021012,,,D*7A
$GPRMC,203922.000,A,3748.6551,N,12217.6696,W,2.02,207.74,021012,,,D*70
$GPRMC,203923.000,A,3748.6546,N,12217.6700,W,1.71,204.92,021012,,,D*75
$GPRMC,203924.000,A,3748.6541,N,12217.6703,W,1.89,208.73,021012,,,D*72
$GPRMC,203925.000,A,3748.6537,N,12217.6710,W,1.79,222.29,021012,,,D*78
$GPRMC,203926.000,A,3748.6528,N,12217.6720,W,2.25,218.21,021012,,,D*7D
$GPRMC,203927.000,A,3748.6515,N,12217.6733,W,2.31,206.82,021012,,,D*73
$GPRMC,203928.000,A,3748.6510,N,12217.6739,W,2.15,206.07,021012,,,D*78
$GPRMC,203929.000,A,3748.6505,N,12217.6747,W,2.24,212.34,021012,,,D*73
$GPRMC,203930.000,A,3748.6499,N,12217.6753,W,2.25,219.57,021012,,,D*75
$GPRMC,203931.000,A,3748.6493,N,12217.6761,W,1.66,212.28,021012,,,D*78
$GPRMC,203932.000,A,3748.6489,N,12217.6765,W,1.28,214.28,021012,,,D*78
$GPRMC,203933.000,A,3748.6485,N,12217.6769,W,1.00,219.73,021012,,,D*70
$GPRMC,203934.000,A,3748.6474,N,12217.6780,W,1.39,203.15,021012,,,D*7F
$GPRMC,203935.000,A,3748.6467,N,12217.6787,W,1.77,191.84,021012,,,D*71
$GPRMC,203936.000,A,3748.6459,N,12217.6788,W,1.90,174.38,021012,,,D*75
$GPRMC,203937.000,A,3748.6452,N,12217.6788,W,2.08,150.59,021012,,,D*7C
$GPRMC,203938.000,A,3748.6444,N,12217.6788,W,1.80,155.36,021012,,,D*7B
$GPRMC,203939.000,A,3748.6437,N,12217.6789,W,1.55,189.60,021012,,,D*75
$GPRMC,203940.000,A,3748.6430,N,12217.6793,W,1.42,218.95,021012,,,D*70
$GPRMC,203941.000,A,3748.6423,N,12217.6798,W,1.06,227.45,021012,,,D*79
$GPRMC,203942.000,A,3748.6418,N,12217.6805,W,1.08,234.86,021012,,,D*7A
$GPRMC,203943.000,A,3748.6413,N,12217.6812,W,1.50,232.59,021012,,,D*7F
$GPRMC,203944.000,A,3748.6407,N,12217.6817,W,1.40,228.99,021012,,,D*7E
$GPRMC,203945.000,A,3748.6400,N,12217.6819,W,1.21,206.44,021012,,,D*7D
$GPRMC,203946.000,A,3748.6390,N,12217.6822,W,1.71,195.07,021012,,,D*73
$GPRMC,203947.000,A,3748.6384,N,12217.6827,W,1.22,206.78,021012,,,D*75
$GPRMC,203948.000,A,3748.6379,N,12217.6831,W,0.98,217.51,021012,,,D*74
$GPRMC,203949.000,A,3748.6375,N,12217.6837,W,1.95,234.14,021012,,,D*73
$GPRMC,203950.000,A,3748.6370,N,12217.6842,W,1.82,221.04,021012,,,A*7A
$GPRMC,203951.000,A,3748.6363,N,12217.6844,W,1.75,219.18,021012,,,A*71
$GPRMC,203952.000,A,3748.6357,N,12217.6845,W,2.15,224.73,021012,,,A*72
$GPRMC,203953.000,A,3748.6352,N,12217.6849,W,2.20,226.36,021012,,,A*7F
$GPRMC,203954.000,A,3748.6345,N,12217.6849,W,1.88,210.78,021012,,,A*70
$GPRMC,203955.000,A,3748.6342,N,12217.6856,W,2.70,236.94,021012,,,A*7A
$GPRMC,203956.000,A,3748.6337,N,12217.6865,W,2.17,222.12,021012,,,A*71
$GPRMC,203957.000,A,3748.6332,N,12217.6871,W,1.54,203.57,021012,,,A*76
