$ADVER,3080,2.3
$GPRMC,181356.995,A,3748.8043,N,12217.8849,W,0.25,18.25,070711,,,A*45
$GPGGA,181357.995,3748.7886,N,12217.8823,W,1,04,3.3,39.4,M,-25.1,M,,0000*5C
$GPGSA,A,3,07,13,08,23,,,,,,,,,3.4,3.3,1.0*38
$GPRMC,181357.995,A,3748.7886,N,12217.8823,W,1.09,342.17,070711,,,A*74
$GPVTG,342.17,T,,M,1.09,N,2.0,K,A*04
$GPGGA,181358.995,3748.7818,N,12217.8817,W,1,04,3.3,48.2,M,-25.1,M,,0000*53
$GPGSA,A,3,07,13,08,23,,,,,,,,,3.4,3.3,1.0*38
$GPGSV,3,1,12,13,73,014,30,23,58,100,21,07,50,279,30,08,26,260,30*70
$GPGSV,3,2,12,10,39,297,28,16,35,048,,03,23,095,27,20,21,176,25*76
$GPGSV,3,3,12,06,18,079,23,19,10,124,,30,10,040,28,04,02,258,*71
$GPRMC,181358.995,A,3748.7818,N,12217.8817,W,0.44,129.94,070711,,,A*77
$GPVTG,129.94,T,,M,0.44,N,0.8,K,A*02
$GPGGA,181400.000,3748.7796,N,12217.8816,W,1,04,3.3,51.1,M,-25.1,M,,0000*5F
$GPGSA,A,3,07,13,08,23,,,,,,,,,3.4,3.3,1.0*38
$GPRMC,181400.000,A,3748.7796,N,12217.8816,W,1.08,149.13,070711,,,A*70
$GPVTG,149.13,T,,M,1.08,N,2.0,K,A*08
$GPGGA,181401.000,3748.7799,N,12217.8817,W,1,04,3.3,50.8,M,-25.1,M,,0000*58
$GPGSA,A,3,07,13,08,23,,,,,,,,,3.4,3.3,1.0*38
$GPRMC,181401.000,A,3748.7799,N,12217.8817,W,1.10,149.77,070711,,,A*74
$GPVTG,149.77,T,,M,1.10,N,2.0,K,A*03
$GPGGA,181402.000,3748.7786,N,12217.8816,W,1,04,3.3,52.6,M,-25.1,M,,0000*58
$GPGSA,A,3,07,13,08,23,,,,,,,,,3.4,3.3,1.0*38
$GPRMC,181402.000,A,3748.7786,N,12217.8816,W,1.03,156.53,070711,,,A*72
$GPVTG,156.53,T,,M,1.03,N,1.9,K,A*03
$GPGGA,181403.000,3748.7778,N,12217.8815,W,1,04,3.3,53.9,M,-25.1,M,,0000*55
$GPGSA,A,3,07,13,08,23,,,,,,,,,3.4,3.3,1.0*38
$GPRMC,181403.000,A,3748.7778,N,12217.8815,W,0.49,162.73,070711,,,A*7B
$GPVTG,162.73,T,,M,0.49,N,0.9,K,A*08
$GPGGA,181404.000,3748.7774,N,12217.8816,W,1,04,3.3,54.7,M,-25.1,M,,0000*54
$GPGSA,A,3,07,13,08,23,,,,,,,,,3.4,3.3,1.0*38
$GPGSV,3,1,12,13,73,014,30,23,58,100,22,07,50,279,30,08,26,260,30*73
$GPGSV,3,2,12,10,39,297,27,16,35,048,,03,23,095,27,20,21,176,25*79
$GPGSV,3,3,12,06,18,079,24,19,10,124,,30,10,040,27,04,02,258,*79
$GPRMC,181404.000,A,3748.7774,N,12217.8816,W,0.27,314.09,070711,,,A*75
$GPVTG,314.09,T,,M,0.27,N,0.5,K,A*02
$GPGGA,181405.000,3748.7754,N,12217.8814,W,1,04,3.3,57.2,M,-25.1,M,,0000*53
$GPGSA,A,3,07,13,08,23,,,,,,,,,3.4,3.3,1.0*38
$GPRMC,181405.000,A,3748.7754,N,12217.8814,W,1.02,149.79,070711,,,A*7F
$GPVTG,149.79,T,,M,1.02,N,1.9,K,A*04
$GPGGA,181406.000,3748.7755,N,12217.8815,W,1,04,3.3,57.4,M,-25.1,M,,0000*56
$GPGSA,A,3,07,13,08,23,,,,,,,,,3.4,3.3,1.0*38
$GPRMC,181406.000,A,3748.7755,N,12217.8815,W,0.60,153.61,070711,,,A*7B
$GPVTG,153.61,T,,M,0.60,N,1.1,K,A*0B
$GPGGA,181407.000,3748.7739,N,12217.8812,W,1,04,3.3,59.2,M,-25.1,M,,0000*52
$GPGSA,A,3,07,13,08,23,,,,,,,,,3.4,3.3,1.0*38
$GPRMC,181407.000,A,3748.7739,N,12217.8812,W,1.26,153.32,070711,,,A*72
$GPVTG,153.32,T,,M,1.26,N,2.3,K,A*0F
$GPGGA,181408.000,3748.7724,N,12217.8810,W,1,04,3.3,61.0,M,-25.1,M,,0000*5A
$GPGSA,A,3,07,13,08,23,,,,,,,,,3.4,3.3,1.0*38
$GPRMC,181408.000,A,3748.7724,N,12217.8810,W,1.05,160.22,070711,,,A*73
$GPVTG,160.22,T,,M,1.05,N,1.9,K,A*06
$GPGGA,181409.000,3748.7714,N,12217.8809,W,1,04,3.3,62.4,M,-25.1,M,,0000*57
$GPGSA,A,3,07,13,08,23,,,,,,,,,3.4,3.3,1.0*38
$GPGSV,3,1,12,13,73,014,29,23,58,100,23,07,50,279,29,08,26,260,30*72
$GPGSV,3,2,12,10,39,297,28,16,35,048,,03,23,095,26,20,21,176,25*77
$GPRMC,181409.000,A,3748.7714,N,12217.8809,W,0.65,166.18,070711,,,A*71
$GPVTG,166.18,T,,M,0.65,N,1.2,K,A*05
$GPGGA,181410.000,3748.7682,N,12217.8809,W,1,04,3.3,66.0,M,-25.1,M,,0000*51
$GPGSA,A,3,07,13,08,23,,,,,,,,,3.4,3.3,1.0*38
$GPRMC,181410.000,A,3748.7682,N,12217.8809,W,2.32,170.76,070711,,,A*78
$GPVTG,170.76,T,,M,2.32,N,4.3,K,A*0E
$GPGGA,181411.000,3748.7669,N,12217.8807,W,1,04,3.3,67.3,M,-25.1,M,,0000*59
$GPGSA,A,3,07,13,08,23,,,,,,,,,3.4,3.3,1.0*38
$GPRMC,181411.000,A,3748.7669,N,12217.8807,W,1.77,180.32,070711,,,A*7F
$GPVTG,180.32,T,,M,1.77,N,3.3,K,A*04
$GPGGA,181412.000,3748.7656,N,12217.8801,W,1,04,3.3,67.5,M,-25.1,M,,0000*56
$GPGSA,A,3,07,13,08,23,,,,,,,,,3.4,3.3,1.0*38
$GPRMC,181412.000,A,3748.7656,N,12217.8801,W,1.92,181.96,070711,,,A*72
$GPVTG,181.96,T,,M,1.92,N,3.6,K,A*05
$GPGGA,181413.000,3748.7678,N,12217.8791,W,1,04,3.3,62.1,M,-25.1,M,,0000*5C
$GPGSA,A,3,07,13,08,23,,,,,,,,,3.4,3.3,1.0*38
$GPRMC,181413.000,A,3748.7678,N,12217.8791,W,1.52,184.44,070711,,,A*7F
$GPVTG,184.44,T,,M,1.52,N,2.8,K,A*0C
$GPGGA,181414.000,3748.7686,N,12217.8776,W,1,04,3.3,58.8,M,-25.1,M,,0000*53
$GPGSA,A,3,07,13,08,23,,,,,,,,,3.4,3.3,1.0*38
$GPGSV,3,1,12,13,73,015,22,23,58,100,22,07,50,279,24,10,39,297,21*7B
$GPGSV,3,2,12,16,35,048,,08,27,260,17,03,23,095,17,20,21,176,10*71
$GPGSV,3,3,12,06,18,079,16,19,10,123,,30,09,040,22,04,02,258,*72
$GPRMC,181414.000,A,3748.7686,N,12217.8776,W,1.17,120.40,070711,,,A*7B
$GPVTG,120.40,T,,M,1.17,N,2.2,K,A*0D
$GPGGA,181415.000,3748.7699,N,12217.8772,W,1,04,3.3,55.1,M,-25.1,M,,0000*5C
$GPGSA,A,3,07,13,08,23,,,,,,,,,3.4,3.3,1.0*38
$GPRMC,181415.000,A,3748.7699,N,12217.8772,W,0.45,197.44,070711,,,A*7E
$GPVTG,197.44,T,,M,0.45,N,0.8,K,A*0B
$GPGGA,181416.000,3748.7726,N,12217.8770,W,1,04,3.3,52.5,M,-25.1,M,,0000*5B
$GPGSA,A,3,07,13,08,23,,,,,,,,,3.4,3.3,1.0*38
$GPRMC,181416.000,A,3748.7726,N,12217.8770,W,1.78,337.06,070711,,,A*7B
$GPVTG,337.06,T,,M,1.78,N,3.3,K,A*02
$GPGGA,181417.000,3748.7733,N,12217.8769,W,1,03,5.6,53.2,M,-25.1,M,,0000*54
$GPGSA,A,2,07,08,23,,,,,,,,,,5.7,5.6,1.0*3D
$GPRMC,181417.000,A,3748.7733,N,12217.8769,W,1.82,357.35,070711,,,A*75
$GPVTG,357.35,T,,M,1.82,N,3.4,K,A*06
$GPGGA,181418.000,3748.7740,N,12217.8766,W,1,03,5.6,51.3,M,-25.1,M,,0000*53
$GPGSA,A,2,07,08,23,,,,,,,,,,5.7,5.6,1.0*3D
$GPRMC,181418.000,A,3748.7740,N,12217.8766,W,1.04,17.97,070711,,,A*40
$GPVTG,17.97,T,,M,1.04,N,1.9,K,A*38
$GPGGA,181419.000,3748.7744,N,12217.8765,W,1,03,3.5,50.0,M,-25.1,M,,0000*52
$GPGSA,A,2,13,08,23,,,,,,,,,,3.6,3.5,1.0*3A
$GPGSV,3,1,12,13,73,015,18,23,58,100,22,07,50,279,16,10,39,297,17*76
$GPGSV,3,2,12,16,35,048,,08,27,260,15,03,23,095,26,20,21,176,*70
$GPGSV,3,3,12,06,18,079,25,19,10,123,,30,09,040,26,04,02,258,*76
$GPRMC,181419.000,A,3748.7744,N,12217.8765,W,0.96,70.69,070711,,,A*4C
$GPVTG,70.69,T,,M,0.96,N,1.8,K,A*33
$GPGGA,181420.000,3748.7750,N,12217.8752,W,1,04,3.3,49.5,M,-25.1,M,,0000*55
$GPGSA,A,3,07,13,08,23,,,,,,,,,3.4,3.3,1.0*38
$GPRMC,181420.000,A,3748.7750,N,12217.8752,W,1.18,87.31,070711,,,A*45
$GPVTG,87.31,T,,M,1.18,N,2.2,K,A*38
$GPGGA,181421.000,3748.7768,N,12217.8743,W,1,04,3.3,49.7,M,-25.1,M,,0000*5D
$GPGSA,A,3,07,13,08,23,,,,,,,,,3.4,3.3,1.0*38
$GPRMC,181421.000,A,3748.7768,N,12217.8743,W,2.31,32.48,070711,,,A*47
$GPVTG,32.48,T,,M,2.31,N,4.3,K,A*37
$GPGGA,181422.000,3748.7781,N,12217.8733,W,1,04,3.3,50.7,M,-25.1,M,,0000*56
$GPGSA,A,3,07,13,08,23,,,,,,,,,3.4,3.3,1.0*38
$GPRMC,181422.000,A,3748.7781,N,12217.8733,W,3.20,35.75,070711,,,A*4C
$GPVTG,35.75,T,,M,3.20,N,5.9,K,A*34
$GPGGA,181423.000,3748.7787,N,12217.8726,W,1,04,3.3,47.0,M,-25.1,M,,0000*54
$GPGSA,A,3,07,13,08,23,,,,,,,,,3.4,3.3,1.0*38
$GPRMC,181423.000,A,3748.7787,N,12217.8726,W,1.48,2.53,070711,,,A*73
$GPVTG,2.53,T,,M,1.48,N,2.7,K,A*01
$GPGGA,181424.000,3748.7795,N,12217.8723,W,1,04,3.3,44.0,M,-25.1,M,,0000*56
$GPGSA,A,3,07,13,08,23,,,,,,,,,3.4,3.3,1.0*38
$GPGSV,3,1,12,13,73,015,35,23,58,100,38,07,50,279,36,10,39,297,31*74
$GPGSV,3,2,12,16,35,048,36,08,27,260,33,03,23,095,37,20,21,176,*71
$GPGSV,3,3,12,06,18,079,35,19,10,123,30,30,09,040,28,04,02,258,*7A
$GPVTG,7.67,T,,M,1.93,N,3.6,K,A*05
$GPGGA,181425.000,3748.7805,N,12217.8714,W,1,04,3.3,41.1,M,-25.1,M,,0000*51
$GPGSA,A,3,07,13,08,23,,,,,,,,,3.4,3.3,1.0*38
$GPRMC,181425.000,A,3748.7805,N,12217.8714,W,2.48,37.02,070711,,,A*40
$GPVTG,37.02,T,,M,2.48,N,4.6,K,A*37
$GPGGA,181426.000,3748.7810,N,12217.8706,W,1,04,3.3,39.2,M,-25.1,M,,0000*59
$GPGSA,A,3,07,13,08,23,,,,,,,,,3.4,3.3,1.0*38
$GPRMC,181426.000,A,3748.7810,N,12217.8706,W,2.23,35.87,070711,,,A*46
$GPVTG,35.87,T,,M,2.23,N,4.1,K,A*32
$GPGGA,181427.000,3748.7819,N,12217.8698,W,1,04,3.3,37.0,M,-25.1,M,,0000*5B
$GPGSA,A,3,07,13,08,23,,,,,,,,,3.4,3.3,1.0*38
$GPRMC,181427.000,A,3748.7819,N,12217.8698,W,2.23,47.51,070711,,,A*46
$GPVTG,47.51,T,,M,2.23,N,4.1,K,A*3C
$GPGGA,181428.000,3748.7834,N,12217.8691,W,1,04,3.3,34.6,M,-25.1,M,,0000*57
$GPGSA,A,3,07,13,08,23,,,,,,,,,3.4,3.3,1.0*38
$GPRMC,181428.000,A,3748.7834,N,12217.8691,W,2.16,35.12,070711,,,A*4B
$GPVTG,35.12,T,,M,2.16,N,4.0,K,A*39
$GPGGA,181429.000,3748.7845,N,12217.8684,W,1,04,3.3,32.7,M,-25.1,M,,0000*53
$GPGSA,A,3,07,13,08,23,,,,,,,,,3.4,3.3,1.0*38
$GPGSV,3,1,12,13,73,015,29,23,58,100,26,07,50,279,36,10,39,297,35*72
$GPGSV,3,2,12,16,35,048,26,08,27,260,34,03,23,095,26,20,21,176,*77
$GPGSV,3,3,12,06,18,079,27,19,10,123,24,30,09,040,27,04,02,258,*73
$GPRMC,181429.000,A,3748.7845,N,12217.8684,W,2.12,33.12,070711,,,A*4A
$GPVTG,33.12,T,,M,2.12,N,3.9,K,A*35
$GPGGA,181430.000,3748.7847,N,12217.8676,W,1,04,3.3,31.4,M,-25.1,M,,0000*54
$GPGSA,A,3,07,13,08,23,,,,,,,,,3.4,3.3,1.0*38
$GPRMC,181430.000,A,3748.7847,N,12217.8676,W,1.99,34.89,070711,,,A*48
$GPVTG,34.89,T,,M,1.99,N,3.7,K,A*3E
$GPGGA,181431.000,3748.7856,N,12217.8671,W,1,04,3.3,30.0,M,-25.1,M,,0000*57
$GPGSA,A,3,07,13,08,23,,,,,,,,,3.4,3.3,1.0*38
$GPRMC,181431.000,A,3748.7856,N,12217.8671,W,2.02,28.69,070711,,,A*4C
$GPVTG,28.69,T,,M,2.02,N,3.7,K,A*3C
$GPGGA,181432.000,3748.7864,N,12217.8666,W,1,04,3.3,28.7,M,-25.1,M,,0000*5D
$GPGSA,A,3,07,13,08,23,,,,,,,,,3.4,3.3,1.0*38
$GPRMC,181432.000,A,3748.7864,N,12217.8666,W,2.13,26.42,070711,,,A*4F
$GPVTG,26.42,T,,M,2.13,N,3.9,K,A*35
$GPGGA,181433.000,3748.7872,N,12217.8661,W,1,04,3.3,27.5,M,-25.1,M,,0000*51
$GPGSA,A,3,07,13,08,23,,,,,,,,,3.4,3.3,1.0*38
$GPRMC,181433.000,A,3748.7872,N,12217.8661,W,2.12,28.62,070711,,,A*43
$GPVTG,28.62,T,,M,2.12,N,3.9,K,A*38
$GPGGA,181434.000,3748.7881,N,12217.8656,W,1,04,3.3,26.3,M,-25.1,M,,0000*59
$GPGSA,A,3,07,13,08,23,,,,,,,,,3.4,3.3,1.0*38
$GPGSV,3,1,12,13,73,015,30,23,58,100,27,07,50,279,35,10,39,297,36*7B
$GPGSV,3,2,12,16,35,048,26,08,27,260,34,03,23,095,26,20,21,176,*77
$GPGSV,3,3,12,06,18,079,26,19,10,123,23,30,09,040,27,04,02,258,*75
$GPRMC,181434.000,A,3748.7881,N,12217.8656,W,2.29,29.38,070711,,,A*4A
$GPVTG,29.38,T,,M,2.29,N,4.2,K,A*32
$GPGGA,181435.000,3748.7890,N,12217.8652,W,1,04,3.3,25.2,M,-25.1,M,,0000*5E
$GPGSA,A,3,07,13,08,23,,,,,,,,,3.4,3.3,1.0*38
$GPRMC,181435.000,A,3748.7890,N,12217.8652,W,2.13,26.07,070711,,,A*45
$GPVTG,26.07,T,,M,2.13,N,4.0,K,A*3A
$GPGGA,181436.000,3748.7899,N,12217.8648,W,1,04,3.3,24.1,M,-25.1,M,,0000*5D
$GPGSA,A,3,07,13,08,23,,,,,,,,,3.4,3.3,1.0*38
$GPRMC,181436.000,A,3748.7899,N,12217.8648,W,2.24,22.90,070711,,,A*4A
$GPVTG,22.90,T,,M,2.24,N,4.2,K,A*36
$GPGGA,181437.000,3748.7895,N,12217.8640,W,1,04,3.3,23.8,M,-25.1,M,,0000*56
$GPGSA,A,3,07,13,08,23,,,,,,,,,3.4,3.3,1.0*38
$GPRMC,181437.000,A,3748.7895,N,12217.8640,W,1.50,47.61,070711,,,A*42
$GPVTG,47.61,T,,M,1.50,N,2.8,K,A*37
$GPGGA,181438.000,3748.7896,N,12217.8636,W,1,04,3.3,23.2,M,-25.1,M,,0000*51
$GPGSA,A,3,07,13,08,23,,,,,,,,,3.4,3.3,1.0*38
$GPRMC,181438.000,A,3748.7896,N,12217.8636,W,1.06,24.33,070711,,,A*4E
$GPVTG,24.33,T,,M,1.06,N,2.0,K,A*3E
$GPGGA,181439.000,3748.7900,N,12217.8635,W,1,04,3.3,22.5,M,-25.1,M,,0000*5B
$GPGSA,A,3,07,13,08,23,,,,,,,,,3.4,3.3,1.0*38
$GPGSV,3,1,12,13,73,015,30,23,58,100,27,07,50,279,35,10,39,297,36*7B
$GPGSV,3,2,12,16,35,048,24,08,27,260,34,03,23,095,25,20,21,176,*76
$GPGSV,3,3,12,06,18,079,21,19,10,123,23,30,09,040,24,04,02,258,*71
$GPRMC,181439.000,A,3748.7900,N,12217.8635,W,0.91,6.96,070711,,,A*72
$GPGGA,181440.000,3748.7904,N,12217.8633,W,1,04,3.3,21.6,M,-25.1,M,,0000*57
$GPGSA,A,3,07,13,08,23,,,,,,,,,3.4,3.3,1.0*38
$GPRMC,181440.000,A,3748.7904,N,12217.8633,W,1.20,6.57,070711,,,A*78
$GPVTG,6.57,T,,M,1.20,N,2.2,K,A*0A
$GPGGA,181441.000,3748.7908,N,12217.8631,W,1,04,3.3,21.5,M,-25.1,M,,0000*5B
$GPGSA,A,3,07,13,08,23,,,,,,,,,3.4,3.3,1.0*38
$GPRMC,181441.000,A,3748.7908,N,12217.8631,W,1.36,25.10,070711,,,A*42
$GPVTG,25.10,T,,M,1.36,N,2.5,K,A*38
$GPGGA,181442.000,3748.7910,N,12217.8634,W,1,04,3.3,24.5,M,-25.1,M,,0000*51
$GPGSA,A,3,07,13,08,23,,,,,,,,,3.4,3.3,1.0*38
$GPRMC,181442.000,A,3748.7910,N,12217.8634,W,1.64,13.89,070711,,,A*4F
$GPVTG,13.89,T,,M,1.64,N,3.0,K,A*3E
$GPGGA,181443.000,3748.7911,N,12217.8636,W,1,04,3.3,26.8,M,-25.1,M,,0000*5C
$GPGSA,A,3,07,13,08,23,,,,,,,,,3.4,3.3,1.0*38
$GPRMC,181443.000,A,3748.7911,N,12217.8636,W,1.15,0.81,070711,,,A*71
$GPVTG,0.81,T,,M,1.15,N,2.1,K,A*02
$GPGGA,181444.000,3748.7910,N,12217.8636,W,1,04,3.3,28.2,M,-25.1,M,,0000*5E
$GPGSA,A,3,07,13,08,23,,,,,,,,,3.4,3.3,1.0*38
$GPGSV,3,1,12,13,73,016,31,23,58,100,27,07,51,280,18,10,39,296,28*7F
$GPGSV,3,2,12,16,35,048,25,08,27,260,22,03,23,095,24,20,20,176,*70
$GPGSV,3,3,12,06,18,079,27,19,10,123,16,30,09,040,24,32,04,161,*7B
$GPRMC,181444.000,A,3748.7910,N,12217.8636,W,1.26,32.94,070711,,,A*42
$GPVTG,32.94,T,,M,1.26,N,2.3,K,A*35
$GPGGA,181445.000,3748.7913,N,12217.8634,W,6,00,50.0,28.2,M,-25.1,M,,0000*68
$GPGSA,A,2,,,,,,,,,,,,,50.0,50.0,50.0*06
$GPRMC,181445.000,A,3748.7913,N,12217.8634,W,1.26,32.94,070711,,,E*46
$GPVTG,32.94,T,,M,1.26,N,2.3,K,N*3A
$GPGGA,181446.000,3748.7916,N,12217.8631,W,6,00,50.0,28.2,M,-25.1,M,,0000*6B
$GPGSA,A,2,,,,,,,,,,,,,50.0,50.0,50.0*06
$GPRMC,181446.000,A,3748.7916,N,12217.8631,W,1.26,32.94,070711,,,E*45
$GPVTG,32.94,T,,M,1.26,N,2.3,K,N*3A
$GPGGA,181447.000,3748.7919,N,12217.8629,W,6,00,50.0,28.2,M,-25.1,M,,0000*6C
$GPGSA,A,2,,,,,,,,,,,,,50.0,50.0,50.0*06
$GPRMC,181447.000,A,3748.7919,N,12217.8629,W,1.26,32.94,070711,,,E*42
$GPVTG,32.94,T,,M,1.26,N,2.3,K,N*3A
$GPGGA,181448.000,3748.7913,N,12217.8663,W,1,03,4.5,30.1,M,-25.1,M,,0000*5D
$GPGSA,A,2,07,13,23,,,,,,,,,,4.6,4.5,1.0*35
$GPRMC,181448.000,A,3748.7913,N,12217.8663,W,1.09,279.40,070711,,,A*74
$GPVTG,279.40,T,,M,1.09,N,2.0,K,A*0F
$GPGGA,181449.000,3748.7895,N,12217.8674,W,1,03,4.5,31.5,M,-25.1,M,,0000*50
$GPGSA,A,2,07,13,23,,,,,,,,,,4.6,4.5,1.0*35
$GPGSV,3,1,12,13,73,016,32,23,57,100,26,07,51,280,18,10,39,296,29*73
$GPGSV,3,2,12,16,35,048,24,08,27,260,17,03,23,095,29,20,20,176,*7A
$GPGSV,3,3,12,06,18,079,27,19,10,123,15,30,09,040,23,32,04,161,*7F
$GPVTG,231.14,T,,M,0.57,N,1.0,K,A*0B
$GPGGA,181450.000,3748.7878,N,12217.8688,W,1,03,4.5,33.1,M,-25.1,M,,0000*5E
$GPGSA,A,2,07,13,23,,,,,,,,,,4.6,4.5,1.0*35
$GPRMC,181450.000,A,3748.7878,N,12217.8688,W,0.78,140.29,070711,,,A*75
$GPVTG,140.29,T,,M,0.78,N,1.4,K,A*09
$GPGGA,181451.000,3748.7876,N,12217.8686,W,6,00,50.0,33.2,M,-25.1,M,,0000*6C
$GPGSA,A,2,,,,,,,,,,,,,50.0,50.0,50.0*06
$GPRMC,181451.000,A,3748.7876,N,12217.8686,W,0.78,140.29,070711,,,E*70
$GPVTG,140.29,T,,M,0.78,N,1.4,K,N*06
$GPGGA,181452.000,3748.7858,N,12217.8700,W,1,04,4.4,36.7,M,-25.1,M,,0000*5A
$GPGSA,A,3,07,13,10,23,,,,,,,,,7.8,4.4,6.4*3A
$GPRMC,181452.000,A,3748.7858,N,12217.8700,W,0.44,35.36,070711,,,A*46
$GPVTG,35.36,T,,M,0.44,N,0.8,K,A*36
$GPGGA,181453.000,3748.7856,N,12217.8704,W,1,04,4.4,37.5,M,-25.1,M,,0000*52
$GPGSA,A,3,07,13,10,23,,,,,,,,,7.8,4.4,6.4*3A
$GPRMC,181453.000,A,3748.7856,N,12217.8704,W,1.42,24.56,070711,,,A*4C
$GPVTG,24.56,T,,M,1.42,N,2.6,K,A*3B
$GPGGA,181454.000,3748.7849,N,12217.8711,W,1,04,4.4,39.6,M,-25.1,M,,0000*52
$GPGSA,A,3,07,13,10,23,,,,,,,,,7.8,4.4,6.4*3A
$GPGSV,3,1,12,13,73,016,33,23,57,100,26,07,51,280,18,10,39,296,30*7A
$GPGSV,3,2,12,16,35,048,24,08,27,261,17,03,23,094,29,20,20,176,*7A
$GPGSV,3,3,12,06,18,078,26,19,11,123,17,30,09,040,23,32,04,161,*7C
$GPRMC,181454.000,A,3748.7849,N,12217.8711,W,1.72,16.66,070711,,,A*40
$GPVTG,16.66,T,,M,1.72,N,3.2,K,A*3F
$GPGGA,181455.000,3748.7854,N,12217.8710,W,1,04,4.4,39.0,M,-25.1,M,,0000*58
$GPGSA,A,3,07,13,10,23,,,,,,,,,7.8,4.4,6.4*3A
$GPRMC,181455.000,A,3748.7854,N,12217.8710,W,0.85,7.07,070711,,,A*72
$GPVTG,7.07,T,,M,0.85,N,1.6,K,A*07
$GPGGA,181456.000,3748.7864,N,12217.8703,W,1,05,3.7,37.5,M,-25.1,M,,0000*54
$GPGSA,A,3,07,13,08,10,23,,,,,,,,7.0,3.7,5.9*30
$GPRMC,181456.000,A,3748.7864,N,12217.8703,W,1.14,20.58,070711,,,A*46
$GPVTG,20.58,T,,M,1.14,N,2.1,K,A*35
$GPGGA,181457.000,3748.7872,N,12217.8697,W,1,05,3.7,35.2,M,-25.1,M,,0000*5B
$GPGSA,A,3,07,13,08,10,23,,,,,,,,7.0,3.7,5.9*30
$GPRMC,181457.000,A,3748.7872,N,12217.8697,W,1.22,23.30,070711,,,A*44
$GPVTG,23.30,T,,M,1.22,N,2.3,K,A*3F
$GPGGA,181458.000,3748.7876,N,12217.8696,W,1,05,3.8,35.1,M,-25.1,M,,0000*5D
$GPGSA,A,3,07,13,08,10,23,,,,,,,,7.0,3.8,5.9*3F
$GPRMC,181458.000,A,3748.7876,N,12217.8696,W,0.58,17.79,070711,,,A*48
$GPVTG,17.79,T,,M,0.58,N,1.1,K,A*38
$GPGGA,181459.000,3748.7885,N,12217.8692,W,1,05,3.8,35.2,M,-25.1,M,,0000*57
$GPGSA,A,3,07,13,08,10,23,,,,,,,,7.0,3.8,5.9*3F
$GPGSV,3,1,12,13,73,016,34,23,57,100,37,07,51,280,26,10,39,296,35*75
$GPGSV,3,2,12,16,35,048,26,08,27,261,24,03,23,094,33,20,20,176,*73
$GPGSV,3,3,12,06,18,078,27,19,11,123,23,30,09,040,30,32,04,161,*78
$GPRMC,181459.000,A,3748.7885,N,12217.8692,W,0.35,13.54,070711,,,A*41
$GPVTG,13.54,T,,M,0.35,N,0.6,K,A*3E
$GPGGA,181500.000,3748.7897,N,12217.8687,W,1,05,3.8,35.0,M,-25.1,M,,0000*5F
$GPGSA,A,3,07,13,08,10,23,,,,,,,,7.0,3.8,5.9*3F
$GPRMC,181500.000,A,3748.7897,N,12217.8687,W,0.79,24.99,070711,,,A*46
$GPVTG,24.99,T,,M,0.79,N,1.5,K,A*31
$GPGGA,181501.000,3748.7899,N,12217.8684,W,1,05,3.8,33.8,M,-25.1,M,,0000*5D
$GPGSA,A,3,07,13,08,10,23,,,,,,,,7.0,3.8,5.9*3F
$GPRMC,181501.000,A,3748.7899,N,12217.8684,W,0.42,25.56,070711,,,A*40
$GPVTG,25.56,T,,M,0.42,N,0.8,K,A*37
$GPGGA,181502.000,3748.7904,N,12217.8680,W,1,05,3.8,31.8,M,-25.1,M,,0000*5D
$GPGSA,A,3,07,13,08,10,23,,,,,,,,7.0,3.8,5.9*3F
$GPRMC,181502.000,A,3748.7904,N,12217.8680,W,0.37,32.20,070711,,,A*47
$GPVTG,32.20,T,,M,0.37,N,0.7,K,A*3D
$GPGGA,181503.000,3748.7910,N,12217.8672,W,1,05,3.8,27.8,M,-25.1,M,,0000*53
$GPGSA,A,3,07,13,08,10,23,,,,,,,,7.0,3.8,5.9*3F
$GPRMC,181503.000,A,3748.7910,N,12217.8672,W,0.56,46.78,070711,,,A*47
$GPVTG,46.78,T,,M,0.56,N,1.0,K,A*32
$GPGGA,181504.000,3748.7911,N,12217.8669,W,1,05,3.8,25.8,M,-25.1,M,,0000*5D
$GPGSA,A,3,07,13,08,10,23,,,,,,,,7.0,3.8,5.9*3F
$GPGSV,3,1,12,13,73,016,34,23,57,100,37,07,51,280,15,10,39,296,35*75
$GPGSV,3,2,12,16,35,048,30,08,27,261,25,03,23,094,26,20,20,176,33*71
$GPGSV,3,3,12,06,18,078,21,19,11,123,23,30,09,040,23,32,04,161,*7C
$GPVTG,44.63,T,,M,0.52,N,1.0,K,A*3E
$GPGGA,181505.000,3748.7918,N,12217.8662,W,1,05,3.8,22.8,M,-25.1,M,,0000*59
$GPGSA,A,3,07,13,08,10,23,,,,,,,,7.0,3.8,5.9*3F
$GPRMC,181505.000,A,3748.7918,N,12217.8662,W,0.61,40.88,070711,,,A*45
$GPVTG,40.88,T,,M,0.61,N,1.1,K,A*3E
$GPGGA,181506.000,3748.7923,N,12217.8660,W,1,05,3.8,22.7,M,-25.1,M,,0000*5F
$GPGSA,A,3,07,13,08,10,23,,,,,,,,7.0,3.8,5.9*3F
$GPRMC,181506.000,A,3748.7923,N,12217.8660,W,0.67,38.99,070711,,,A*45
$GPVTG,38.99,T,,M,0.67,N,1.2,K,A*34
$GPGGA,181507.000,3748.7927,N,12217.8659,W,1,05,3.8,22.4,M,-25.1,M,,0000*53
$GPGSA,A,3,07,13,08,10,23,,,,,,,,7.0,3.8,5.9*3F
$GPRMC,181507.000,A,3748.7927,N,12217.8659,W,1.03,36.41,070711,,,A*42
$GPVTG,36.41,T,,M,1.03,N,1.9,K,A*37
$GPGGA,181508.000,3748.7928,N,12217.8659,W,1,05,3.8,22.5,M,-25.1,M,,0000*52
$GPGSA,A,3,07,13,08,10,23,,,,,,,,7.0,3.8,5.9*3F
$GPRMC,181508.000,A,3748.7928,N,12217.8659,W,0.72,32.30,070711,,,A*47
$GPVTG,32.30,T,,M,0.72,N,1.3,K,A*38
$GPGGA,181509.000,3748.7924,N,12217.8661,W,1,05,3.8,22.1,M,-25.1,M,,0000*50
$GPGSA,A,3,07,13,08,10,23,,,,,,,,7.0,3.8,5.9*3F
$GPGSV,3,1,12,13,73,016,34,23,57,100,38,07,51,280,29,10,39,296,35*75
$GPGSV,3,2,12,16,35,048,30,08,27,261,25,03,23,094,33,20,20,176,30*76
$GPGSV,3,3,12,06,18,078,21,19,11,123,30,30,09,040,29,32,04,161,*74
$GPRMC,181509.000,A,3748.7924,N,12217.8661,W,0.33,42.53,070711,,,A*46
$GPVTG,42.53,T,,M,0.33,N,0.6,K,A*3B
$GPGGA,181510.000,3748.7919,N,12217.8664,W,1,05,3.8,22.1,M,-25.1,M,,0000*53
$GPGSA,A,3,07,13,08,10,23,,,,,,,,7.0,3.8,5.9*3F
$GPRMC,181510.000,A,3748.7919,N,12217.8664,W,0.26,51.73,070711,,,A*41
$GPVTG,51.73,T,,M,0.26,N,0.5,K,A*3C
$GPGGA,181511.000,3748.7917,N,12217.8665,W,1,05,3.8,22.3,M,-25.1,M,,0000*5F
$GPGSA,A,3,07,13,08,10,23,,,,,,,,7.0,3.8,5.9*3F
$GPRMC,181511.000,A,3748.7917,N,12217.8665,W,0.16,92.63,070711,,,A*42
$GPVTG,92.63,T,,M,0.16,N,0.3,K,A*37
$GPGGA,181512.000,3748.7919,N,12217.8665,W,1,05,3.8,22.7,M,-25.1,M,,0000*56
$GPGSA,A,3,07,13,08,10,23,,,,,,,,7.0,3.8,5.9*3F
$GPRMC,181512.000,A,3748.7919,N,12217.8665,W,0.47,27.30,070711,,,A*43
$GPVTG,27.30,T,,M,0.47,N,0.9,K,A*31
$GPGGA,181513.000,3748.7928,N,12217.8662,W,1,05,3.8,22.6,M,-25.1,M,,0000*53
$GPGSA,A,3,07,13,08,10,23,,,,,,,,7.0,3.8,5.9*3F
$GPRMC,181513.000,A,3748.7928,N,12217.8662,W,0.62,30.60,070711,,,A*43
$GPVTG,30.60,T,,M,0.62,N,1.1,K,A*3C
$GPGGA,181514.000,3748.7942,N,12217.8653,W,1,05,3.8,18.7,M,-25.1,M,,0000*52
$GPGSA,A,3,07,13,08,10,23,,,,,,,,7.0,3.8,5.9*3F
$GPGSV,3,1,12,13,73,016,34,23,57,100,34,07,51,280,18,10,39,296,16*7A
$GPGSV,3,2,12,16,35,048,24,08,27,261,25,03,23,094,18,20,20,176,24*7F
$GPGSV,3,3,12,06,18,078,24,19,11,123,,30,09,040,29,32,04,161,*72
$GPRMC,181514.000,A,3748.7942,N,12217.8653,W,0.51,7.79,070711,,,A*76
$GPVTG,7.79,T,,M,0.51,N,1.0,K,A*01
$GPGGA,181515.000,3748.7954,N,12217.8648,W,1,05,3.8,15.6,M,-25.1,M,,0000*52
$GPGSA,A,3,07,13,08,10,23,,,,,,,,7.0,3.8,5.9*3F
$GPRMC,181515.000,A,3748.7954,N,12217.8648,W,0.93,25.27,070711,,,A*4F
$GPVTG,25.27,T,,M,0.93,N,1.7,K,A*33
$GPGGA,181516.000,3748.7965,N,12217.8643,W,1,05,3.8,12.8,M,-25.1,M,,0000*51
$GPGSA,A,3,07,13,08,10,23,,,,,,,,7.0,3.8,5.9*3F
$GPRMC,181516.000,A,3748.7965,N,12217.8643,W,1.68,14.67,070711,,,A*46
$GPVTG,14.67,T,,M,1.68,N,3.1,K,A*34
$GPGGA,181517.000,3748.7977,N,12217.8631,W,1,05,3.8,7.9,M,-25.1,M,,0000*63
$GPGSA,A,3,07,13,08,10,23,,,,,,,,7.0,3.8,5.9*3F
$GPRMC,181517.000,A,3748.7977,N,12217.8631,W,2.03,19.59,070711,,,A*4F
$GPVTG,19.59,T,,M,2.03,N,3.8,K,A*33
$GPGGA,181518.000,3748.7977,N,12217.8623,W,1,05,3.8,4.9,M,-25.1,M,,0000*6C
$GPGSA,A,3,07,13,08,10,23,,,,,,,,7.0,3.8,5.9*3F
$GPRMC,181518.000,A,3748.7977,N,12217.8623,W,1.32,43.12,070711,,,A*42
$GPVTG,43.12,T,,M,1.32,N,2.5,K,A*3E
$GPGGA,181519.000,3748.7993,N,12217.8608,W,1,05,3.8,0.1,M,-25.1,M,,0000*62
$GPGSA,A,3,07,13,08,10,23,,,,,,,,7.0,3.8,5.9*3F
$GPGSV,3,1,12,13,73,016,34,23,57,101,32,07,51,280,23,10,39,296,18*7B
$GPGSV,3,2,12,16,35,048,26,08,27,261,24,03,23,094,20,20,20,176,13*73
$GPGSV,3,3,12,06,18,078,29,19,11,123,,30,09,040,28,32,04,161,*7E
$GPRMC,181519.000,A,3748.7993,N,12217.8608,W,2.10,40.98,070711,,,A*42
$GPGGA,181520.000,3748.8013,N,12217.8589,W,1,05,3.8,-6.0,M,-25.1,M,,0000*46
$GPGSA,A,3,07,13,08,10,23,,,,,,,,7.0,3.8,5.9*3F
$GPRMC,181520.000,A,3748.8013,N,12217.8589,W,2.24,35.41,070711,,,A*4D
$GPVTG,35.41,T,,M,2.24,N,4.1,K,A*3F
$GPGGA,181521.000,3748.8024,N,12217.8581,W,1,05,3.8,-9.7,M,-25.1,M,,0000*43
$GPGSA,A,3,07,13,08,10,23,,,,,,,,7.0,3.8,5.9*3F
$GPRMC,181521.000,A,3748.8024,N,12217.8581,W,1.81,36.72,070711,,,A*4F
$GPVTG,36.72,T,,M,1.81,N,3.4,K,A*32
$GPGGA,181522.000,3748.8051,N,12217.8573,W,1,05,3.8,-15.2,M,-25.1,M,,0000*77
$GPGSA,A,3,07,13,08,10,23,,,,,,,,7.0,3.8,5.9*3F
$GPRMC,181522.000,A,3748.8051,N,12217.8573,W,2.83,19.10,070711,,,A*4B
$GPVTG,19.10,T,,M,2.83,N,5.2,K,A*3A
$GPGGA,181523.000,3748.8069,N,12217.8568,W,1,05,3.8,-18.8,M,-25.1,M,,0000*70
$GPGSA,A,3,07,13,08,10,23,,,,,,,,7.0,3.8,5.9*3F
$GPRMC,181523.000,A,3748.8069,N,12217.8568,W,2.99,20.39,070711,,,A*41
$GPVTG,20.39,T,,M,2.99,N,5.5,K,A*37
$GPGGA,181524.000,3748.8092,N,12217.8562,W,1,05,3.8,-23.4,M,-25.1,M,,0000*7D
$GPGSA,A,3,07,13,08,10,23,,,,,,,,7.0,3.8,5.9*3F
$GPGSV,3,1,12,13,73,016,35,23,57,101,39,07,51,280,31,10,39,296,24*7D
$GPGSV,3,2,12,16,35,048,32,08,27,261,28,03,23,094,32,20,20,176,37*7F
$GPGSV,3,3,12,06,18,078,23,19,11,123,,30,09,040,28,32,04,161,*74
$GPRMC,181524.000,A,3748.8092,N,12217.8562,W,3.17,20.74,070711,,,A*46
$GPVTG,20.74,T,,M,3.17,N,5.9,K,A*35
$GPGGA,181525.000,3748.8103,N,12217.8558,W,1,05,3.8,-25.8,M,-25.1,M,,0000*76
$GPGSA,A,3,07,13,08,10,23,,,,,,,,7.0,3.8,5.9*3F
$GPRMC,181525.000,A,3748.8103,N,12217.8558,W,3.43,16.67,070711,,,A*41
$GPVTG,16.67,T,,M,3.43,N,6.4,K,A*3D
$GPGGA,181526.000,3748.8121,N,12217.8553,W,1,05,3.8,-29.5,M,-25.1,M,,0000*7F
$GPGSA,A,3,07,13,08,10,23,,,,,,,,7.1,3.8,5.9*3E
$GPRMC,181526.000,A,3748.8121,N,12217.8553,W,3.55,17.08,070711,,,A*46
$GPVTG,17.08,T,,M,3.55,N,6.6,K,A*30
$GPGGA,181527.000,3748.8136,N,12217.8548,W,1,05,3.8,-33.1,M,-25.1,M,,0000*7D
$GPGSA,A,3,07,13,08,10,23,,,,,,,,7.1,3.8,5.9*3E
$GPRMC,181527.000,A,3748.8136,N,12217.8548,W,3.27,20.21,070711,,,A*41
$GPVTG,20.21,T,,M,3.27,N,6.0,K,A*3C
$GPGGA,181528.000,3748.8133,N,12217.8546,W,1,05,3.8,-33.6,M,-25.1,M,,0000*7E
$GPGSA,A,3,07,13,08,10,23,,,,,,,,7.1,3.8,5.9*3E
$GPRMC,181528.000,A,3748.8133,N,12217.8546,W,2.55,33.66,070711,,,A*40
$GPVTG,33.66,T,,M,2.55,N,4.7,K,A*3C
$GPGGA,181529.000,3748.8126,N,12217.8546,W,2,05,3.8,-33.8,M,-25.1,M,1.8,0000*51
$GPGSA,A,3,07,13,08,10,23,,,,,,,,7.1,3.8,5.9*3E
$GPGSV,3,1,12,13,73,016,36,23,57,101,39,07,51,280,28,10,39,296,33*70
$GPGSV,3,2,12,16,35,048,32,08,27,261,28,03,23,094,33,20,20,176,27*7F
$GPGSV,3,3,12,06,18,078,30,19,11,123,,30,09,040,27,32,04,161,*79
$GPRMC,181529.000,A,3748.8126,N,12217.8546,W,2.08,36.96,070711,,,D*42
$GPVTG,36.96,T,,M,2.08,N,3.8,K,D*33
$GPGGA,181530.000,3748.8122,N,12217.8545,W,2,05,3.8,-33.1,M,-25.1,M,1.8,0000*57
$GPGSA,A,3,07,13,08,10,23,,,,,,,,7.1,3.8,5.9*3E
$GPRMC,181530.000,A,3748.8122,N,12217.8545,W,2.45,34.69,070711,,,D*46
$GPVTG,34.69,T,,M,2.45,N,4.5,K,D*32
$GPGGA,181531.000,3748.8111,N,12217.8550,W,2,05,3.8,-30.2,M,-25.1,M,1.8,0000*52
$GPGSA,A,3,07,13,08,10,23,,,,,,,,7.1,3.8,5.9*3E
$GPRMC,181531.000,A,3748.8111,N,12217.8550,W,1.71,32.99,070711,,,D*4E
$GPVTG,32.99,T,,M,1.71,N,3.2,K,D*3F
$GPGGA,181532.000,3748.8099,N,12217.8556,W,2,05,3.8,-27.2,M,-25.1,M,2.8,0000*53
$GPGSA,A,3,07,13,08,10,23,,,,,,,,7.1,3.8,5.9*3E
$GPRMC,181532.000,A,3748.8099,N,12217.8556,W,1.31,33.17,070711,,,D*49
$GPVTG,33.17,T,,M,1.31,N,2.4,K,D*3B
$GPGGA,181533.000,3748.8085,N,12217.8564,W,2,05,3.8,-23.4,M,-25.1,M,1.8,0000*5F
$GPGSA,A,3,07,13,08,10,23,,,,,,,,7.1,3.8,5.9*3E
$GPRMC,181533.000,A,3748.8085,N,12217.8564,W,0.96,38.91,070711,,,D*4D
$GPVTG,38.91,T,,M,0.96,N,1.8,K,D*3D
$GPGGA,181534.000,3748.8072,N,12217.8570,W,2,05,3.8,-20.3,M,-25.1,M,2.8,0000*52
$GPGSA,A,3,07,13,08,10,23,,,,,,,,7.1,3.8,6.0*34
$GPGSV,3,1,12,13,73,016,30,23,57,101,27,07,51,280,31,10,39,296,32*70
$GPGSV,3,2,12,16,35,048,34,08,27,261,32,03,23,094,25,20,20,176,25*77
$GPGSV,3,3,12,06,18,078,25,19,11,123,,30,09,040,30,32,04,161,*7B
$GPRMC,181534.000,A,3748.8072,N,12217.8570,W,0.58,77.27,070711,,,D*43
$GPGGA,181535.000,3748.8068,N,12217.8579,W,2,05,3.8,-16.7,M,-25.1,M,3.8,0000*51
$GPGSA,A,3,07,13,08,10,23,,,,,,,,7.1,3.8,6.0*34
$GPRMC,181535.000,A,3748.8068,N,12217.8579,W,0.15,344.99,070711,,,D*7F
$GPVTG,344.99,T,,M,0.15,N,0.3,K,D*0C
$GPGGA,181536.000,3748.8065,N,12217.8592,W,2,05,3.8,-13.7,M,-25.1,M,4.8,0000*58
$GPGSA,A,3,07,13,08,10,23,,,,,,,,7.1,3.8,6.0*34
$GPRMC,181536.000,A,3748.8065,N,12217.8592,W,0.88,314.94,070711,,,D*78
$GPVTG,314.94,T,,M,0.88,N,1.6,K,D*04
$GPGGA,181537.000,3748.8061,N,12217.8595,W,2,05,3.8,-12.1,M,-25.1,M,5.8,0000*5C
$GPGSA,A,3,07,13,08,10,23,,,,,,,,7.1,3.8,6.0*34
$GPRMC,181537.000,A,3748.8061,N,12217.8595,W,0.48,13.26,070711,,,D*4B
$GPVTG,13.26,T,,M,0.48,N,0.9,K,D*3B
$GPGGA,181538.000,3748.8056,N,12217.8593,W,2,05,3.8,-11.7,M,-25.1,M,6.8,0000*57
$GPGSA,A,3,07,13,08,10,23,,,,,,,,7.1,3.8,6.0*34
$GPRMC,181538.000,A,3748.8056,N,12217.8593,W,0.57,87.76,070711,,,D*40
$GPVTG,87.76,T,,M,0.57,N,1.1,K,D*34
$GPGGA,181539.000,3748.8051,N,12217.8593,W,2,05,3.8,-11.7,M,-25.1,M,7.8,0000*50
$GPGSA,A,3,07,13,08,10,23,,,,,,,,7.1,3.8,6.0*34
$GPGSV,3,1,12,13,73,016,24,23,57,101,21,07,51,280,41,10,39,296,31*77
$GPGSV,3,2,12,16,35,048,28,08,27,261,34,03,23,094,23,20,20,176,29*76
$GPGSV,3,3,12,06,18,078,21,19,11,123,,30,09,040,25,32,04,161,*7B
$GPRMC,181539.000,A,3748.8051,N,12217.8593,W,0.59,69.69,070711,,,D*46
$GPVTG,69.69,T,,M,0.59,N,1.1,K,D*34
$GPGGA,181540.000,3748.8044,N,12217.8590,W,2,05,3.8,-12.4,M,-25.1,M,8.8,0000*56
$GPGSA,A,3,07,13,08,10,23,,,,,,,,7.1,3.8,6.0*34
$GPRMC,181540.000,A,3748.8044,N,12217.8590,W,0.43,60.49,070711,,,D*4F
$GPVTG,60.49,T,,M,0.43,N,0.8,K,D*3C
$GPGGA,181541.000,3748.8036,N,12217.8585,W,2,04,3.9,-12.7,M,-25.1,M,9.8,0000*54
$GPGSA,A,3,07,08,10,23,,,,,,,,,7.6,3.9,6.5*35
$GPRMC,181541.000,A,3748.8036,N,12217.8585,W,0.22,94.72,070711,,,D*4B
$GPVTG,94.72,T,,M,0.22,N,0.4,K,D*34
$GPGGA,181542.000,3748.8030,N,12217.8582,W,2,04,3.9,-13.0,M,-25.1,M,10.8,0000*68
$GPGSA,A,3,07,08,10,23,,,,,,,,,7.6,3.9,6.5*35
$GPRMC,181542.000,A,3748.8030,N,12217.8582,W,0.12,92.10,070711,,,D*48
$GPVTG,92.10,T,,M,0.12,N,0.2,K,D*33
$GPGGA,181543.000,3748.8024,N,12217.8581,W,2,05,3.8,-13.4,M,-25.1,M,11.8,0000*6A
$GPGSA,A,3,07,13,08,10,23,,,,,,,,7.1,3.8,6.0*34
$GPRMC,181543.000,A,3748.8024,N,12217.8581,W,0.43,258.28,070711,,,D*74
$GPVTG,258.28,T,,M,0.43,N,0.8,K,D*02
$GPGGA,181544.000,3748.8018,N,12217.8579,W,2,05,3.8,-13.4,M,-25.1,M,12.8,0000*66
$GPGSA,A,3,07,13,08,10,23,,,,,,,,7.1,3.8,6.0*34
$GPGSV,3,1,12,13,73,016,31,23,57,101,20,07,51,280,41,10,39,296,33*70
$GPGSV,3,2,12,16,35,048,27,08,27,261,34,03,23,094,20,20,20,176,30*72
$GPGSV,3,3,12,06,18,078,20,19,11,123,,30,09,040,,32,04,161,*7D
$GPRMC,181544.000,A,3748.8018,N,12217.8579,W,0.32,272.30,070711,,,D*7C
$GPVTG,272.30,T,,M,0.32,N,0.6,K,D*0B
$GPGGA,181545.000,3748.8013,N,12217.8578,W,2,05,3.8,-13.5,M,-25.1,M,13.8,0000*6D
$GPGSA,A,3,07,13,08,10,23,,,,,,,,7.1,3.8,6.0*34
$GPRMC,181545.000,A,3748.8013,N,12217.8578,W,0.46,325.89,070711,,,D*75
$GPVTG,325.89,T,,M,0.46,N,0.9,K,D*06
$GPGGA,181546.000,3748.8014,N,12217.8582,W,2,05,3.8,-13.0,M,-25.1,M,14.8,0000*6E
$GPGSA,A,3,07,13,08,10,23,,,,,,,,7.1,3.8,6.0*34
$GPRMC,181546.000,A,3748.8014,N,12217.8582,W,0.36,0.22,070711,,,D*76
$GPVTG,0.22,T,,M,0.36,N,0.7,K,D*0A
$GPGGA,181547.000,3748.8016,N,12217.8588,W,2,05,3.9,-12.0,M,-25.1,M,15.8,0000*66
$GPGSA,A,3,07,13,08,10,23,,,,,,,,7.1,3.9,6.0*35
$GPRMC,181547.000,A,3748.8016,N,12217.8588,W,0.87,330.99,070711,,,D*75
$GPVTG,330.99,T,,M,0.87,N,1.6,K,D*00
$GPGGA,181548.000,3748.8015,N,12217.8590,W,2,05,3.9,-11.7,M,-25.1,M,16.8,0000*64
$GPGSA,A,3,07,13,08,10,23,,,,,,,,7.1,3.9,6.0*35
$GPRMC,181548.000,A,3748.8015,N,12217.8590,W,0.65,339.91,070711,,,D*7D
$GPVTG,339.91,T,,M,0.65,N,1.2,K,D*09
$GPGGA,181549.000,3748.8014,N,12217.8591,W,2,05,3.9,-11.3,M,-25.1,M,17.8,0000*60
$GPGSA,A,3,07,13,08,10,23,,,,,,,,7.1,3.9,6.0*35
$GPGSV,3,1,12,13,74,017,32,23,57,101,20,07,51,280,40,10,40,296,38*71
$GPGSV,3,2,12,16,34,047,27,08,27,261,34,03,23,094,24,20,20,176,30*78
$GPGSV,3,3,12,06,18,078,20,19,11,123,,30,09,040,,32,03,161,*7A
$GPVTG,35.43,T,,M,0.24,N,0.5,K,D*3A
$GPGGA,181550.000,3748.8011,N,12217.8592,W,1,05,3.9,-10.7,M,-25.1,M,,0000*78
$GPGSA,A,3,07,13,08,10,23,,,,,,,,7.1,3.9,6.0*35
$GPRMC,181550.000,A,3748.8011,N,12217.8592,W,0.27,46.30,070711,,,A*41
$GPVTG,46.30,T,,M,0.27,N,0.5,K,A*3C
$GPGGA,181551.000,3748.8009,N,12217.8588,W,1,05,3.9,-10.8,M,-25.1,M,,0000*74
$GPGSA,A,3,07,13,08,10,23,,,,,,,,7.1,3.9,6.0*35
$GPRMC,181551.000,A,3748.8009,N,12217.8588,W,0.63,30.92,070711,,,A*4B
$GPVTG,30.92,T,,M,0.63,N,1.2,K,A*33
$GPGGA,181552.000,3748.8007,N,12217.8598,W,1,05,3.9,-7.0,M,-25.1,M,,0000*46
$GPGSA,A,3,07,13,08,10,23,,,,,,,,7.1,3.9,6.0*35
$GPRMC,181552.000,A,3748.8007,N,12217.8598,W,0.46,297.71,070711,,,A*72
$GPVTG,297.71,T,,M,0.46,N,0.9,K,A*0C
$GPGGA,181553.000,3748.8007,N,12217.8602,W,1,05,3.9,-5.4,M,-25.1,M,,0000*41
$GPGSA,A,3,07,13,08,10,23,,,,,,,,7.1,3.9,6.0*35
$GPRMC,181553.000,A,3748.8007,N,12217.8602,W,0.50,103.88,070711,,,A*7C
$GPVTG,103.88,T,,M,0.50,N,0.9,K,A*03
$GPGGA,181554.000,3748.8007,N,12217.8608,W,1,05,3.9,-4.0,M,-25.1,M,,0000*49
$GPGSA,A,3,07,13,08,10,23,,,,,,,,7.1,3.9,6.0*35
$GPGSV,3,1,12,13,74,017,26,23,57,101,23,07,51,280,32,10,40,296,32*78
$GPGSV,3,2,12,16,34,047,26,08,27,261,35,03,23,094,28,20,20,176,32*76
$GPGSV,3,3,12,06,18,078,26,19,11,123,,30,09,040,28,32,03,161,*76
$GPRMC,181554.000,A,3748.8007,N,12217.8608,W,0.03,213.19,070711,,,A*7D
$GPVTG,213.19,T,,M,0.03,N,0.1,K,A*07
$GPGGA,181555.000,3748.8014,N,12217.8615,W,2,05,3.9,-2.5,M,-25.1,M,1.8,0000*61
$GPGSA,A,3,07,13,08,10,23,,,,,,,,7.1,3.9,6.0*35
$GPRMC,181555.000,A,3748.8014,N,12217.8615,W,1.39,323.67,070711,,,D*74
$GPVTG,323.67,T,,M,1.39,N,2.6,K,D*04
$GPGGA,181556.000,3748.8028,N,12217.8628,W,2,05,3.9,-1.5,M,-25.1,M,2.8,0000*63
$GPGSA,A,3,07,13,08,10,23,,,,,,,,7.1,3.9,6.0*35
$GPRMC,181556.000,A,3748.8028,N,12217.8628,W,1.66,326.18,070711,,,D*71
$GPVTG,326.18,T,,M,1.66,N,3.1,K,D*05
$GPGGA,181557.000,3748.8032,N,12217.8628,W,2,05,3.9,-1.1,M,-25.1,M,3.8,0000*6C
$GPGSA,A,3,07,13,08,10,23,,,,,,,,7.1,3.9,6.0*35
$GPRMC,181557.000,A,3748.8032,N,12217.8628,W,0.59,344.37,070711,,,D*7F
$GPVTG,344.37,T,,M,0.59,N,1.1,K,D*03
$GPGGA,181558.000,3748.8036,N,12217.8638,W,2,05,3.9,1.4,M,-25.1,M,4.8,0000*49
$GPGSA,A,3,07,13,08,10,23,,,,,,,,7.1,3.9,6.0*35
$GPRMC,181558.000,A,3748.8036,N,12217.8638,W,1.88,314.93,070711,,,D*73
$GPVTG,314.93,T,,M,1.88,N,3.5,K,D*03
$GPGGA,181559.000,3748.8036,N,12217.8644,W,2,05,3.9,3.4,M,-25.1,M,5.8,0000*40
$GPGSA,A,3,07,13,08,10,23,,,,,,,,7.1,3.9,6.0*35
$GPGSV,3,1,12,13,74,017,32,23,57,101,25,07,51,280,36,10,40,296,32*7F
$GPGSV,3,2,12,16,34,047,26,08,27,261,35,03,23,094,34,20,20,176,38*71
$GPGSV,3,3,12,06,18,078,24,19,11,123,,30,09,040,29,32,03,161,*75
$GPRMC,181559.000,A,3748.8036,N,12217.8644,W,1.20,295.35,070711,,,D*7F
$GPVTG,295.35,T,,M,1.20,N,2.2,K,D*03
$GPGGA,181600.000,3748.8035,N,12217.8648,W,2,05,3.9,5.1,M,-25.1,M,1.8,0000*47
$GPGSA,A,3,07,13,08,10,23,,,,,,,,7.1,3.9,6.0*35
$GPRMC,181600.000,A,3748.8035,N,12217.8648,W,0.29,233.00,070711,,,D*7D
$GPVTG,233.00,T,,M,0.29,N,0.5,K,D*04
$GPGGA,181601.000,3748.8034,N,12217.8650,W,2,05,3.9,6.6,M,-25.1,M,1.8,0000*4A
$GPGSA,A,3,07,13,08,10,23,,,,,,,,7.2,3.9,6.0*36
$GPRMC,181601.000,A,3748.8034,N,12217.8650,W,0.43,198.27,070711,,,D*7F
$GPVTG,198.27,T,,M,0.43,N,0.8,K,D*02
$GPGGA,181602.000,3748.8032,N,12217.8650,W,2,05,3.9,7.6,M,-25.1,M,2.8,0000*4D
$GPGSA,A,3,07,13,08,10,23,,,,,,,,7.2,3.9,6.0*36
$GPRMC,181602.000,A,3748.8032,N,12217.8650,W,0.68,170.09,070711,,,D*79
$GPVTG,170.09,T,,M,0.68,N,1.3,K,D*0B
$GPGGA,181603.000,3748.8027,N,12217.8653,W,2,05,3.9,7.9,M,-25.1,M,3.8,0000*45
$GPGSA,A,3,07,13,08,10,23,,,,,,,,7.2,3.9,6.0*36
$GPRMC,181603.000,A,3748.8027,N,12217.8653,W,0.79,216.25,070711,,,D*72
$GPVTG,216.25,T,,M,0.79,N,1.5,K,D*00
$GPGGA,181604.000,3748.8020,N,12217.8655,W,2,05,3.9,8.1,M,-25.1,M,4.8,0000*43
$GPGSA,A,3,07,13,08,10,23,,,,,,,,7.2,3.9,6.0*36
$GPGSV,3,1,12,13,74,017,31,23,57,101,29,07,51,280,32,10,40,296,30*76
$GPGSV,3,2,12,16,34,047,21,08,27,261,17,03,23,094,22,20,20,176,31*78
$GPGSV,3,3,12,06,18,078,26,19,11,123,,30,09,040,14,32,03,161,*79
$GPVTG,211.40,T,,M,1.06,N,2.0,K,D*0B
$GPGGA,181605.000,3748.8005,N,12217.8654,W,2,05,3.9,8.3,M,-25.1,M,5.8,0000*47
$GPGSA,A,3,07,13,08,10,23,,,,,,,,7.2,3.9,6.0*36
$GPRMC,181605.000,A,3748.8005,N,12217.8654,W,1.49,190.88,070711,,,D*7B
$GPVTG,190.88,T,,M,1.49,N,2.8,K,D*06
$GPGGA,181606.000,3748.8004,N,12217.8652,W,2,04,4.6,7.8,M,-25.1,M,6.8,0000*4D
$GPGSA,A,3,07,13,10,23,,,,,,,,,8.0,4.6,6.5*3E
$GPRMC,181606.000,A,3748.8004,N,12217.8652,W,1.18,179.68,070711,,,D*72
$GPVTG,179.68,T,,M,1.18,N,2.2,K,D*01
$GPGGA,181607.000,3748.7998,N,12217.8653,W,2,05,3.9,9.4,M,-25.1,M,1.8,0000*42
$GPGSA,A,3,07,13,08,10,23,,,,,,,,7.2,3.9,6.0*36
$GPRMC,181607.000,A,3748.7998,N,12217.8653,W,0.84,183.62,070711,,,D*7A
$GPVTG,183.62,T,,M,0.84,N,1.6,K,D*0D
$GPGGA,181608.000,3748.7989,N,12217.8651,W,2,05,3.9,11.0,M,-25.1,M,2.8,0000*71
$GPGSA,A,3,07,13,08,10,23,,,,,,,,7.2,3.9,6.0*36
$GPRMC,181608.000,A,3748.7989,N,12217.8651,W,1.54,195.72,070711,,,D*7D
$GPVTG,195.72,T,,M,1.54,N,2.8,K,D*0A
$GPGGA,181609.000,3748.7992,N,12217.8639,W,2,05,3.9,10.5,M,-25.1,M,3.8,0000*71
$GPGSA,A,3,07,13,08,10,23,,,,,,,,7.2,3.9,6.0*36
$GPGSV,3,1,12,13,74,017,30,23,57,101,26,07,51,280,27,10,40,296,27*7A
$GPGSV,3,2,12,16,34,047,26,08,27,261,24,03,23,094,24,20,20,176,29*70
$GPGSV,3,3,12,06,18,078,29,19,11,123,,30,09,040,28,32,03,161,*79
$GPRMC,181609.000,A,3748.7992,N,12217.8639,W,0.69,155.86,070711,,,D*70
$GPVTG,155.86,T,,M,0.69,N,1.3,K,D*0A
$GPGGA,181610.000,3748.7997,N,12217.8639,W,2,05,3.9,11.9,M,-25.1,M,1.8,0000*73
$GPGSA,A,3,07,13,08,10,23,,,,,,,,7.2,3.9,6.0*36
$GPRMC,181610.000,A,3748.7997,N,12217.8639,W,0.44,240.11,070711,,,D*7B
$GPVTG,240.11,T,,M,0.44,N,0.8,K,D*06
$GPGGA,181611.000,3748.7994,N,12217.8633,W,2,05,3.9,12.3,M,-25.1,M,1.8,0000*72
$GPGSA,A,3,07,13,08,10,23,,,,,,,,7.2,3.9,6.0*36
$GPRMC,181611.000,A,3748.7994,N,12217.8633,W,0.58,183.94,070711,,,D*7F
$GPVTG,183.94,T,,M,0.58,N,1.1,K,D*02
$GPGGA,181612.000,3748.7990,N,12217.8633,W,2,05,3.9,12.7,M,-25.1,M,0.8,0000*70
$GPGSA,A,3,07,13,08,10,23,,,,,,,,7.2,3.9,6.0*36
$GPRMC,181612.000,A,3748.7990,N,12217.8633,W,0.83,171.18,070711,,,D*77
$GPVTG,171.18,T,,M,0.83,N,1.5,K,D*09
$GPGGA,181613.000,3748.7980,N,12217.8643,W,2,05,3.9,17.3,M,-25.1,M,1.8,0000*77
$GPGSA,A,3,07,13,08,10,23,,,,,,,,7.2,3.9,6.0*36
$GPRMC,181613.000,A,3748.7980,N,12217.8643,W,0.74,204.95,070711,,,D*7C
$GPVTG,204.95,T,,M,0.74,N,1.4,K,D*04
$GPGGA,181614.000,3748.7983,N,12217.8642,W,2,05,3.9,19.1,M,-25.1,M,2.8,0000*7D
$GPGSA,A,3,07,13,08,10,23,,,,,,,,7.2,3.9,6.0*36
$GPGSV,3,1,12,13,74,017,24,23,57,101,26,07,51,280,25,10,40,296,20*7A
$GPGSV,3,2,12,16,34,047,29,08,27,261,25,03,23,094,32,20,20,176,30*71
$GPGSV,3,3,12,06,18,078,27,19,11,123,,30,09,040,29,32,03,161,*76
$GPRMC,181614.000,A,3748.7983,N,12217.8642,W,0.32,164.27,070711,,,D*77
$GPVTG,164.27,T,,M,0.32,N,0.6,K,D*09
$GPGGA,181615.000,3748.7984,N,12217.8641,W,2,04,2.6,15.8,M,-25.1,M,3.8,0000*73
$GPGSA,A,3,13,08,10,23,,,,,,,,,2.8,2.6,1.0*37
$GPRMC,181615.000,A,3748.7984,N,12217.8641,W,0.61,223.61,070711,,,D*76
$GPVTG,223.61,T,,M,0.61,N,1.1,K,D*0B
$GPGGA,181616.000,3748.7993,N,12217.8639,W,2,04,2.6,13.3,M,-25.1,M,4.8,0000*73
$GPGSA,A,3,13,08,10,23,,,,,,,,,2.8,2.6,1.0*37
$GPRMC,181616.000,A,3748.7993,N,12217.8639,W,1.08,220.87,070711,,,D*79
$GPVTG,220.87,T,,M,1.08,N,2.0,K,D*0C
$GPGGA,181617.000,3748.7992,N,12217.8631,W,2,04,3.3,11.7,M,-25.1,M,5.8,0000*78
$GPGSA,A,3,07,13,08,23,,,,,,,,,3.4,3.3,1.0*38
$GPRMC,181617.000,A,3748.7992,N,12217.8631,W,1.55,192.64,070711,,,D*7E
$GPVTG,192.64,T,,M,1.55,N,2.9,K,D*0A
$GPGGA,181618.000,3748.7986,N,12217.8626,W,2,04,3.3,10.6,M,-25.1,M,6.8,0000*77
$GPGSA,A,3,07,13,08,23,,,,,,,,,3.4,3.3,1.0*38
$GPRMC,181618.000,A,3748.7986,N,12217.8626,W,1.74,170.01,070711,,,D*7E
$GPVTG,170.01,T,,M,1.74,N,3.2,K,D*0C
$GPGGA,181619.000,3748.7989,N,12217.8619,W,2,03,3.5,10.9,M,-25.1,M,7.8,0000*7A
$GPGSA,A,2,13,08,23,,,,,,,,,,3.7,3.5,1.0*3B
$GPGSV,3,1,12,13,74,017,22,23,57,101,18,07,51,280,13,10,40,296,18*7F
$GPGSV,3,2,12,16,34,047,21,08,27,261,20,03,23,094,26,20,20,176,22*7A
$GPGSV,3,3,12,06,18,078,27,19,11,123,,30,09,040,21,32,03,161,*7E
$GPRMC,181619.000,A,3748.7989,N,12217.8619,W,1.74,115.64,070711,,,D*7C
$GPVTG,115.64,T,,M,1.74,N,3.2,K,D*0C
$GPGGA,181620.000,3748.7988,N,12217.8618,W,2,03,5.5,9.9,M,-25.1,M,8.8,0000*41
$GPGSA,A,2,07,08,23,,,,,,,,,,5.6,5.5,1.0*3F
$GPRMC,181620.000,A,3748.7988,N,12217.8618,W,0.65,101.48,070711,,,D*7C
$GPVTG,101.48,T,,M,0.65,N,1.2,K,D*04
$GPGGA,181621.000,3748.7992,N,12217.8615,W,2,04,4.0,8.2,M,-25.1,M,9.8,0000*4E
$GPGSA,A,3,07,08,10,23,,,,,,,,,7.7,4.0,6.6*39
$GPRMC,181621.000,A,3748.7992,N,12217.8615,W,0.78,11.80,070711,,,D*43
$GPVTG,11.80,T,,M,0.78,N,1.4,K,D*3A
$GPGGA,181622.000,3748.8009,N,12217.8612,W,2,04,4.0,6.1,M,-25.1,M,10.8,0000*7B
$GPGSA,A,3,07,08,10,23,,,,,,,,,7.7,4.0,6.6*39
$GPRMC,181622.000,A,3748.8009,N,12217.8612,W,2.47,6.32,070711,,,D*72
$GPVTG,6.32,T,,M,2.47,N,4.6,K,D*0C
$GPGGA,181623.000,3748.8025,N,12217.8612,W,2,04,2.6,4.2,M,-25.1,M,11.8,0000*74
$GPGSA,A,3,13,08,10,23,,,,,,,,,2.8,2.6,1.0*37
$GPRMC,181623.000,A,3748.8025,N,12217.8612,W,3.55,6.10,070711,,,D*7F
$GPVTG,6.10,T,,M,3.55,N,6.6,K,D*0C
$GPGGA,181624.000,3748.8034,N,12217.8611,W,6,00,50.0,4.0,M,-25.1,M,,0000*55
$GPGSA,A,2,,,,,,,,,,,,,50.0,50.0,50.0*06
$GPGSV,3,1,12,13,74,017,13,23,57,101,24,07,51,280,11,10,40,296,*79
$GPGSV,3,2,12,16,34,047,20,08,27,261,16,03,23,094,24,20,20,176,25*7B
$GPGSV,3,3,12,06,18,078,21,19,11,123,,30,09,040,18,32,03,161,*72
$GPRMC,181624.000,A,3748.8034,N,12217.8611,W,3.55,6.10,070711,,,E*7A
$GPVTG,6.10,T,,M,3.55,N,6.6,K,N*06
$GPGGA,181625.000,3748.8021,N,12217.8627,W,2,03,3.5,3.6,M,-25.1,M,13.8,0000*74
$GPGSA,A,2,13,08,23,,,,,,,,,,3.7,3.5,1.0*3B
$GPRMC,181625.000,A,3748.8021,N,12217.8627,W,2.82,302.47,070711,,,D*75
$GPVTG,302.47,T,,M,2.82,N,5.2,K,N*0F
$GPGGA,181626.000,3748.8006,N,12217.8647,W,2,03,3.5,3.3,M,-25.1,M,14.8,0000*76
$GPGSA,A,2,13,08,23,,,,,,,,,,3.7,3.5,1.0*3B
$GPRMC,181626.000,A,3748.8006,N,12217.8647,W,2.53,275.66,070711,,,D*7B
$GPVTG,275.66,T,,M,2.53,N,4.7,K,N*05
$GPGGA,181627.000,3748.7999,N,12217.8651,W,2,03,3.5,3.0,M,-25.1,M,15.8,0000*72
$GPGSA,A,2,13,08,23,,,,,,,,,,3.7,3.5,1.0*3B
$GPRMC,181627.000,A,3748.7999,N,12217.8651,W,1.68,288.26,070711,,,D*70
$GPVTG,288.26,T,,M,1.68,N,3.1,K,N*09
$GPGGA,181628.000,3748.8001,N,12217.8657,W,6,00,50.0,2.8,M,-25.1,M,,0000*53
$GPGSA,A,2,,,,,,,,,,,,,50.0,50.0,50.0*06
$GPRMC,181628.000,A,3748.8001,N,12217.8657,W,1.68,288.26,070711,,,E*7F
$GPVTG,288.26,T,,M,1.68,N,3.1,K,N*09
$GPGGA,181629.000,3748.7959,N,12217.8651,W,2,04,2.6,3.3,M,-25.1,M,17.8,0000*74
$GPGSA,A,3,10,13,08,23,,,,,,,,,2.8,2.6,1.0*37
$GPGSV,3,1,12,13,74,017,23,23,57,101,26,07,51,280,,10,40,296,20*7A
$GPGSV,3,2,12,16,34,047,09,08,27,261,27,03,23,094,24,20,20,176,25*72
$GPGSV,3,3,12,06,18,078,21,19,11,123,,30,09,040,18,32,03,161,*72
$GPRMC,181629.000,A,3748.7959,N,12217.8651,W,2.29,182.67,070711,,,D*78
$GPVTG,182.67,T,,M,2.29,N,4.2,K,N*07
$GPGGA,181630.000,3748.7927,N,12217.8654,W,1,04,2.6,3.3,M,-25.1,M,,0000*63
$GPGSA,A,3,10,13,08,23,,,,,,,,,2.8,2.6,1.0*37
$GPRMC,181630.000,A,3748.7927,N,12217.8654,W,3.07,186.99,070711,,,A*71
$GPVTG,186.99,T,,M,3.07,N,5.7,K,A*04
$GPGGA,181631.000,3748.7907,N,12217.8663,W,1,04,2.6,3.3,M,-25.1,M,,0000*64
$GPGSA,A,3,10,13,08,23,,,,,,,,,2.8,2.6,1.0*37
$GPRMC,181631.000,A,3748.7907,N,12217.8663,W,2.53,190.64,070711,,,A*73
$GPVTG,190.64,T,,M,2.53,N,4.7,K,A*00
$GPGGA,181632.000,3748.7890,N,12217.8674,W,1,04,2.6,3.3,M,-25.1,M,,0000*6E
$GPGSA,A,3,10,13,08,23,,,,,,,,,2.8,2.6,1.0*37
$GPRMC,181632.000,A,3748.7890,N,12217.8674,W,1.65,187.60,070711,,,A*7D
$GPVTG,187.60,T,,M,1.65,N,3.0,K,A*04
$GPGGA,181633.000,3748.7892,N,12217.8672,W,1,04,2.6,2.4,M,-25.1,M,,0000*6D
$GPGSA,A,3,10,13,08,23,,,,,,,,,2.8,2.6,1.0*37
$GPRMC,181633.000,A,3748.7892,N,12217.8672,W,1.27,178.16,070711,,,A*7F
$GPVTG,178.16,T,,M,1.27,N,2.3,K,A*01
$GPGGA,181634.000,3748.7871,N,12217.8666,W,1,04,2.6,1.3,M,-25.1,M,,0000*66
$GPGSA,A,3,10,13,08,23,,,,,,,,,2.8,2.6,1.0*37
$GPGSV,3,1,12,13,74,017,22,23,57,101,27,07,51,280,26,10,40,296,22*7C
$GPGSV,3,2,12,16,34,047,,08,27,261,21,03,23,094,32,20,20,176,33*7D
$GPGSV,3,3,12,06,18,078,22,19,11,123,,30,09,040,32,32,03,161,*79
$GPRMC,181634.000,A,3748.7871,N,12217.8666,W,0.71,171.47,070711,,,A*7F
$GPVTG,171.47,T,,M,0.71,N,1.3,K,A*0D
$GPGGA,181635.000,3748.7844,N,12217.8661,W,1,05,4.0,2.5,M,-25.1,M,,0000*62
$GPGSA,A,3,10,13,08,07,23,,,,,,,,7.3,4.0,6.1*38
$GPRMC,181635.000,A,3748.7844,N,12217.8661,W,1.61,186.89,070711,,,A*75
$GPVTG,186.89,T,,M,1.61,N,3.0,K,A*06
$GPGGA,181636.000,3748.7824,N,12217.8652,W,1,05,4.0,3.3,M,-25.1,M,,0000*60
$GPGSA,A,3,10,13,08,07,23,,,,,,,,7.3,4.0,6.1*38
$GPRMC,181636.000,A,3748.7824,N,12217.8652,W,0.98,174.48,070711,,,A*77
$GPVTG,174.48,T,,M,0.98,N,1.8,K,A*0B
$GPGGA,181637.000,3748.7829,N,12217.8650,W,1,05,4.0,5.7,M,-25.1,M,,0000*6C
$GPGSA,A,3,10,13,08,07,23,,,,,,,,7.3,4.0,6.1*38
$GPRMC,181637.000,A,3748.7829,N,12217.8650,W,0.42,68.88,070711,,,A*4E
$GPVTG,68.88,T,,M,0.42,N,0.8,K,A*3D
$GPGGA,181638.000,3748.7840,N,12217.8644,W,1,05,4.0,6.4,M,-25.1,M,,0000*69
$GPGSA,A,3,10,13,08,07,23,,,,,,,,7.3,4.0,6.1*38
$GPRMC,181638.000,A,3748.7840,N,12217.8644,W,1.09,18.28,070711,,,A*48
$GPVTG,18.28,T,,M,1.09,N,2.0,K,A*34
$GPGGA,181639.000,3748.7864,N,12217.8640,W,1,05,4.0,8.6,M,-25.1,M,,0000*66
$GPGSA,A,3,10,13,08,07,23,,,,,,,,7.3,4.0,6.1*38
$GPGSV,3,1,12,13,74,017,24,23,57,101,20,07,51,280,32,10,40,296,27*7D
$GPGSV,3,2,12,16,34,047,18,08,27,261,32,03,23,094,28,20,20,176,29*76
$GPGSV,3,3,12,06,18,078,16,19,11,123,23,30,09,040,24,32,03,161,*78
$GPRMC,181639.000,A,3748.7864,N,12217.8640,W,1.24,351.55,070711,,,A*70
$GPGGA,181640.000,3748.7878,N,12217.8634,W,1,05,4.0,5.3,M,-25.1,M,,0000*6E
$GPGSA,A,3,10,13,08,07,23,,,,,,,,7.3,4.0,6.1*38
$GPRMC,181640.000,A,3748.7878,N,12217.8634,W,0.52,7.88,070711,,,A*70
$GPVTG,7.88,T,,M,0.52,N,1.0,K,A*0C
$GPGGA,181641.000,3748.7884,N,12217.8629,W,1,05,4.0,3.8,M,-25.1,M,,0000*6D
$GPGSA,A,3,10,13,08,07,23,,,,,,,,7.3,4.0,6.1*38
$GPRMC,181641.000,A,3748.7884,N,12217.8629,W,0.40,59.77,070711,,,A*46
$GPVTG,59.77,T,,M,0.40,N,0.7,K,A*32
$GPGGA,181642.000,3748.7893,N,12217.8632,W,1,05,4.0,4.0,M,-25.1,M,,0000*6D
$GPGSA,A,3,10,13,08,07,23,,,,,,,,7.3,4.0,6.1*38
$GPRMC,181642.000,A,3748.7893,N,12217.8632,W,0.29,34.46,070711,,,A*4F
$GPVTG,34.46,T,,M,0.29,N,0.5,K,A*36
$GPGGA,181643.000,3748.7904,N,12217.8634,W,1,05,4.0,3.9,M,-25.1,M,,0000*6B
$GPGSA,A,3,10,13,08,07,23,,,,,,,,7.3,4.0,6.1*38
$GPRMC,181643.000,A,3748.7904,N,12217.8634,W,0.34,37.83,070711,,,A*41
$GPVTG,37.83,T,,M,0.34,N,0.6,K,A*33
$GPGGA,181644.000,3748.7912,N,12217.8630,W,1,05,4.0,2.6,M,-25.1,M,,0000*61
$GPGSA,A,3,10,13,08,07,23,,,,,,,,7.3,4.0,6.1*38
$GPGSV,3,1,12,13,74,017,29,23,57,101,28,07,51,280,40,10,40,296,35*7E
$GPGSV,3,2,12,16,34,047,24,08,27,261,38,03,23,094,34,20,20,176,25*72
$GPGSV,3,3,12,06,18,078,29,19,11,123,24,30,09,040,31,32,03,161,*77
$GPRMC,181644.000,A,3748.7912,N,12217.8630,W,0.16,42.48,070711,,,A*40
$GPVTG,42.48,T,,M,0.16,N,0.3,K,A*33
$GPGGA,181645.000,3748.7915,N,12217.8627,W,1,05,4.0,1.5,M,-25.1,M,,0000*61
$GPGSA,A,3,10,13,08,07,23,,,,,,,,7.3,4.0,6.1*38
$GPRMC,181645.000,A,3748.7915,N,12217.8627,W,0.72,266.18,070711,,,A*73
$GPVTG,266.18,T,,M,0.72,N,1.3,K,A*01
$GPGGA,181646.000,3748.7921,N,12217.8629,W,1,05,4.0,1.0,M,-25.1,M,,0000*6E
$GPGSA,A,3,10,13,08,07,23,,,,,,,,7.3,4.0,6.1*38
$GPRMC,181646.000,A,3748.7921,N,12217.8629,W,1.15,310.22,070711,,,A*70
$GPVTG,310.22,T,,M,1.15,N,2.1,K,A*09
$GPGGA,181647.000,3748.7932,N,12217.8637,W,1,05,4.0,1.3,M,-25.1,M,,0000*61
$GPGSA,A,3,10,13,08,07,23,,,,,,,,7.3,4.0,6.1*38
$GPRMC,181647.000,A,3748.7932,N,12217.8637,W,1.88,331.58,070711,,,A*76
$GPVTG,331.58,T,,M,1.88,N,3.5,K,A*06
$GPGGA,181648.000,3748.7938,N,12217.8637,W,1,05,4.0,1.0,M,-25.1,M,,0000*67
$GPGSA,A,3,10,13,08,07,23,,,,,,,,7.3,4.0,6.1*38
$GPRMC,181648.000,A,3748.7938,N,12217.8637,W,1.21,345.94,070711,,,A*73
$GPVTG,345.94,T,,M,1.21,N,2.2,K,A*00
$GPGGA,181649.000,3748.7944,N,12217.8637,W,1,05,4.0,0.8,M,-25.1,M,,0000*64
$GPGSA,A,3,10,13,08,07,23,,,,,,,,7.3,4.0,6.1*38
$GPGSV,3,1,12,13,74,019,29,23,57,102,21,07,51,281,39,10,40,295,36*75
$GPGSV,3,2,12,16,34,047,27,08,27,261,38,03,23,094,,20,19,176,28*71
$GPGSV,3,3,12,06,18,078,20,19,11,123,23,30,08,040,27,32,03,161,*7F
$GPRMC,181649.000,A,3748.7944,N,12217.8637,W,0.87,10.83,070711,,,A*41
$GPVTG,10.83,T,,M,0.87,N,1.6,K,A*3F
$GPGGA,181650.000,3748.7950,N,12217.8639,W,1,05,4.0,1.1,M,-25.1,M,,0000*6F
$GPGSA,A,3,10,13,08,07,23,,,,,,,,7.3,4.0,6.1*38
$GPRMC,181650.000,A,3748.7950,N,12217.8639,W,0.11,315.19,070711,,,A*78
$GPVTG,315.19,T,,M,0.11,N,0.2,K,A*00
$GPGGA,181651.000,3748.7955,N,12217.8638,W,1,05,4.0,1.0,M,-25.1,M,,0000*6B
$GPGSA,A,3,10,13,08,07,23,,,,,,,,7.3,4.0,6.1*38
$GPRMC,181651.000,A,3748.7955,N,12217.8638,W,0.69,355.58,070711,,,A*73
$GPVTG,355.58,T,,M,0.69,N,1.3,K,A*0E
$GPGGA,181652.000,3748.7958,N,12217.8636,W,1,05,4.0,0.9,M,-25.1,M,,0000*63
$GPGSA,A,3,10,13,08,07,23,,,,,,,,7.3,4.0,6.1*38
$GPRMC,181652.000,A,3748.7958,N,12217.8636,W,0.68,6.99,070711,,,A*7A
$GPVTG,6.99,T,,M,0.68,N,1.3,K,A*07
$GPGGA,181653.000,3748.7961,N,12217.8638,W,1,05,4.0,1.2,M,-25.1,M,,0000*6C
$GPGSA,A,3,10,13,08,07,23,,,,,,,,7.3,4.0,6.1*38
$GPRMC,181653.000,A,3748.7961,N,12217.8638,W,0.58,345.26,070711,,,A*7C
$GPVTG,345.26,T,,M,0.58,N,1.1,K,A*06
$GPGGA,181654.000,3748.7966,N,12217.8643,W,1,05,4.0,2.1,M,-25.1,M,,0000*60
$GPGSA,A,3,10,13,08,07,23,,,,,,,,7.3,4.0,6.1*38
$GPGSV,3,1,12,13,74,019,28,23,57,102,21,07,51,281,35,10,40,295,37*79
$GPGSV,3,2,12,16,34,047,27,08,27,261,39,03,23,094,31,20,19,176,20*7A
$GPGSV,3,3,12,06,18,078,29,19,11,123,11,30,08,040,,32,03,161,*72
$GPRMC,181654.000,A,3748.7966,N,12217.8643,W,0.48,357.66,070711,,,A*76
$GPGGA,181655.000,3748.7970,N,12217.8644,W,1,05,4.0,2.6,M,-25.1,M,,0000*66
$GPGSA,A,3,10,13,08,07,23,,,,,,,,7.3,4.0,6.1*38
$GPRMC,181655.000,A,3748.7970,N,12217.8644,W,0.69,331.07,070711,,,A*73
$GPVTG,331.07,T,,M,0.69,N,1.3,K,A*06
$GPGGA,181656.000,3748.7972,N,12217.8643,W,1,05,4.0,3.4,M,-25.1,M,,0000*63
$GPGSA,A,3,10,13,08,07,23,,,,,,,,7.3,4.0,6.1*38
$GPRMC,181656.000,A,3748.7972,N,12217.8643,W,0.26,353.85,070711,,,A*70
$GPVTG,353.85,T,,M,0.26,N,0.5,K,A*04
$GPGGA,181657.000,3748.7976,N,12217.8644,W,1,05,4.0,4.7,M,-25.1,M,,0000*65
$GPGSA,A,3,10,13,08,07,23,,,,,,,,7.3,4.0,6.1*38
$GPRMC,181657.000,A,3748.7976,N,12217.8644,W,0.57,350.81,070711,,,A*73
$GPVTG,350.81,T,,M,0.57,N,1.1,K,A*00
$GPGGA,181658.000,3748.7979,N,12217.8644,W,1,05,4.0,5.8,M,-25.1,M,,0000*6B
$GPGSA,A,3,10,13,08,07,23,,,,,,,,7.3,4.0,6.1*38
$GPRMC,181658.000,A,3748.7979,N,12217.8644,W,0.21,27.03,070711,,,A*4B
$GPVTG,27.03,T,,M,0.21,N,0.4,K,A*3C
$GPGGA,181659.000,3748.7981,N,12217.8644,W,1,05,4.0,6.7,M,-25.1,M,,0000*61
$GPGSA,A,3,10,13,08,07,23,,,,,,,,7.3,4.0,6.1*38
$GPGSV,3,1,12,13,74,019,28,23,57,102,21,07,51,281,35,10,40,295,37*79
$GPGSV,3,2,12,16,34,047,34,08,27,261,38,03,23,094,19,20,19,176,21*72
$GPGSV,3,3,12,06,18,078,25,19,11,123,23,30,08,040,,32,03,161,*7F
$GPRMC,181659.000,A,3748.7981,N,12217.8644,W,0.32,41.98,070711,,,A*4D
$GPVTG,41.98,T,,M,0.32,N,0.6,K,A*3E
$GPGGA,181700.000,3748.7984,N,12217.8645,W,1,05,4.0,7.6,M,-25.1,M,,0000*68
$GPGSA,A,3,10,13,08,07,23,,,,,,,,7.3,4.0,6.1*38
$GPRMC,181700.000,A,3748.7984,N,12217.8645,W,0.25,84.29,070711,,,A*41
$GPVTG,84.29,T,,M,0.25,N,0.5,K,A*38
$GPGGA,181701.000,3748.7986,N,12217.8650,W,1,05,4.0,8.8,M,-25.1,M,,0000*6E
$GPGSA,A,3,10,13,08,07,23,,,,,,,,7.3,4.0,6.1*38
$GPRMC,181701.000,A,3748.7986,N,12217.8650,W,0.36,168.33,070711,,,A*7C
$GPVTG,168.33,T,,M,0.36,N,0.7,K,A*00
$GPGGA,181702.000,3748.7986,N,12217.8652,W,1,05,4.0,9.3,M,-25.1,M,,0000*65
$GPGSA,A,3,10,13,08,07,23,,,,,,,,7.3,4.0,6.1*38
$GPRMC,181702.000,A,3748.7986,N,12217.8652,W,0.37,97.25,070711,,,A*4A
$GPVTG,97.25,T,,M,0.37,N,0.7,K,A*37
$GPGGA,181703.000,3748.7980,N,12217.8647,W,1,05,4.0,7.5,M,-25.1,M,,0000*6E
$GPGSA,A,3,10,13,08,07,23,,,,,,,,7.3,4.0,6.1*38
$GPRMC,181703.000,A,3748.7980,N,12217.8647,W,0.59,180.06,070711,,,A*77
$GPVTG,180.06,T,,M,0.59,N,1.1,K,A*0E
$GPGGA,181704.000,3748.7973,N,12217.8645,W,1,05,4.0,6.5,M,-25.1,M,,0000*66
$GPGSA,A,3,10,13,08,07,23,,,,,,,,7.3,4.0,6.2*3B
$GPGSV,3,1,12,13,74,019,23,23,57,102,25,07,51,281,31,10,40,295,30*75
$GPGSV,3,2,12,16,34,047,29,08,27,261,26,03,23,094,21,20,19,176,21*7A
$GPGSV,3,3,12,06,18,078,26,19,11,123,24,30,08,040,,32,03,161,*7B
$GPRMC,181704.000,A,3748.7973,N,12217.8645,W,1.36,194.52,070711,,,A*72
$GPVTG,194.52,T,,M,1.36,N,2.5,K,A*05
$GPGGA,181705.000,3748.7973,N,12217.8644,W,1,05,4.0,6.7,M,-25.1,M,,0000*64
$GPGSA,A,3,10,13,08,07,23,,,,,,,,7.4,4.0,6.2*3C
$GPRMC,181705.000,A,3748.7973,N,12217.8644,W,0.27,153.89,070711,,,A*7E
$GPVTG,153.89,T,,M,0.27,N,0.5,K,A*0B
$GPGGA,181706.000,3748.7975,N,12217.8643,W,1,05,4.0,7.3,M,-25.1,M,,0000*63
$GPGSA,A,3,10,13,08,07,23,,,,,,,,7.4,4.0,6.2*3C
$GPRMC,181706.000,A,3748.7975,N,12217.8643,W,0.29,317.23,070711,,,A*70
$GPVTG,317.23,T,,M,0.29,N,0.5,K,A*07
$GPGGA,181707.000,3748.7982,N,12217.8649,W,1,05,4.0,8.8,M,-25.1,M,,0000*64
$GPGSA,A,3,10,13,08,07,23,,,,,,,,7.4,4.0,6.2*3C
$GPRMC,181707.000,A,3748.7982,N,12217.8649,W,1.21,296.28,070711,,,A*79
$GPVTG,296.28,T,,M,1.21,N,2.2,K,A*08
$GPGGA,181708.000,3748.7990,N,12217.8654,W,1,05,4.0,11.5,M,-25.1,M,,0000*51
$GPGSA,A,3,10,13,08,07,23,,,,,,,,7.4,4.0,6.2*3C
$GPRMC,181708.000,A,3748.7990,N,12217.8654,W,1.20,316.34,070711,,,A*7C
$GPVTG,316.34,T,,M,1.20,N,2.2,K,A*0D
$GPGGA,181709.000,3748.7992,N,12217.8653,W,1,05,4.0,12.3,M,-25.1,M,,0000*50
$GPGSA,A,3,10,13,08,07,23,,,,,,,,7.4,4.0,6.2*3C
$GPGSV,3,1,12,13,74,019,23,23,57,102,22,07,51,281,37,10,40,295,33*77
$GPGSV,3,2,12,16,34,047,25,08,27,261,34,03,23,094,,20,19,176,34*72
$GPGSV,3,3,12,06,18,078,11,19,11,123,16,30,08,040,35,32,03,161,*78
$GPRMC,181709.000,A,3748.7992,N,12217.8653,W,0.57,341.77,070711,,,A*7C
$GPGGA,181710.000,3748.7986,N,12217.8647,W,1,05,4.0,11.0,M,-25.1,M,,0000*58
$GPGSA,A,3,10,13,08,07,23,,,,,,,,7.4,4.0,6.2*3C
$GPRMC,181710.000,A,3748.7986,N,12217.8647,W,0.28,151.18,070711,,,A*76
$GPVTG,151.18,T,,M,0.28,N,0.5,K,A*0E
$GPGGA,181711.000,3748.7984,N,12217.8647,W,1,05,4.0,10.6,M,-25.1,M,,0000*5C
$GPGSA,A,3,10,13,08,07,23,,,,,,,,7.4,4.0,6.2*3C
$GPRMC,181711.000,A,3748.7984,N,12217.8647,W,0.25,191.47,070711,,,A*7E
$GPVTG,191.47,T,,M,0.25,N,0.5,K,A*05
$GPGGA,181712.000,3748.7985,N,12217.8640,W,1,05,4.0,10.9,M,-25.1,M,,0000*56
$GPGSA,A,3,10,13,08,07,23,,,,,,,,7.4,4.0,6.2*3C
$GPRMC,181712.000,A,3748.7985,N,12217.8640,W,0.34,9.46,070711,,,A*7A
$GPVTG,9.46,T,,M,0.34,N,0.6,K,A*07
$GPGGA,181713.000,3748.7984,N,12217.8639,W,1,05,4.0,12.2,M,-25.1,M,,0000*51
$GPGSA,A,3,10,13,08,07,23,,,,,,,,7.4,4.0,6.2*3C
$GPRMC,181713.000,A,3748.7984,N,12217.8639,W,0.41,296.19,070711,,,A*78
$GPVTG,296.19,T,,M,0.41,N,0.8,K,A*05
$GPGGA,181714.000,3748.7988,N,12217.8637,W,1,05,4.0,13.3,M,-25.1,M,,0000*54
$GPGSA,A,3,10,13,08,07,23,,,,,,,,7.4,4.0,6.2*3C
$GPGSV,3,1,12,13,74,019,23,23,57,102,23,07,51,281,36,10,40,295,25*70
$GPGSV,3,2,12,16,34,047,,08,27,261,34,03,23,094,,20,19,176,33*72
$GPGSV,3,3,12,06,18,078,14,19,11,123,22,30,08,040,26,32,03,161,*78
$GPRMC,181714.000,A,3748.7988,N,12217.8637,W,0.47,291.47,070711,,,A*77
$GPVTG,291.47,T,,M,0.47,N,0.9,K,A*0E
$GPGGA,181715.000,3748.7995,N,12217.8642,W,1,05,4.0,15.0,M,-25.1,M,,0000*5E
$GPGSA,A,3,10,13,08,07,23,,,,,,,,7.4,4.0,6.2*3C
$GPRMC,181715.000,A,3748.7995,N,12217.8642,W,0.74,293.66,070711,,,A*79
$GPVTG,293.66,T,,M,0.74,N,1.4,K,A*03
$GPGGA,181716.000,3748.7995,N,12217.8645,W,1,05,4.1,15.2,M,-25.1,M,,0000*59
$GPGSA,A,3,10,13,08,07,23,,,,,,,,7.4,4.1,6.2*3D
$GPRMC,181716.000,A,3748.7995,N,12217.8645,W,1.04,311.79,070711,,,A*7E
$GPVTG,311.79,T,,M,1.04,N,1.9,K,A*0D
$GPGGA,181717.000,3748.7998,N,12217.8651,W,1,05,4.1,16.1,M,-25.1,M,,0000*50
$GPGSA,A,3,10,13,08,07,23,,,,,,,,7.4,4.1,6.2*3D
$GPRMC,181717.000,A,3748.7998,N,12217.8651,W,0.78,317.84,070711,,,A*79
$GPVTG,317.84,T,,M,0.78,N,1.4,K,A*0E
$GPGGA,181718.000,3748.7994,N,12217.8653,W,1,05,4.1,14.9,M,-25.1,M,,0000*5B
$GPGSA,A,3,10,13,08,07,23,,,,,,,,7.4,4.1,6.2*3D
$GPRMC,181718.000,A,3748.7994,N,12217.8653,W,0.77,269.81,070711,,,A*7A
$GPVTG,269.81,T,,M,0.77,N,1.4,K,A*0C
$GPGGA,181719.000,3748.7998,N,12217.8658,W,1,05,4.1,16.6,M,-25.1,M,,0000*50
$GPGSA,A,3,10,13,08,07,23,,,,,,,,7.4,4.1,6.2*3D
$GPGSV,3,1,12,13,74,020,20,23,57,102,22,07,51,281,35,10,40,295,35*7A
$GPGSV,3,2,12,16,34,047,,08,27,261,35,03,24,093,,20,19,176,28*79
$GPGSV,3,3,12,06,18,077,21,19,11,122,23,30,08,040,29,32,03,161,*7E
$GPRMC,181719.000,A,3748.7998,N,12217.8658,W,0.41,346.47,070711,,,A*7F
$GPVTG,346.47,T,,M,0.41,N,0.8,K,A*02
$GPGGA,181720.000,3748.8002,N,12217.8662,W,1,05,4.1,17.9,M,-25.1,M,,0000*58
$GPGSA,A,3,10,13,08,07,23,,,,,,,,7.4,4.1,6.2*3D
$GPRMC,181720.000,A,3748.8002,N,12217.8662,W,0.47,345.72,070711,,,A*7A
$GPVTG,345.72,T,,M,0.47,N,0.9,K,A*00
$GPGGA,181721.000,3748.7998,N,12217.8659,W,1,05,4.1,16.8,M,-25.1,M,,0000*54
$GPGSA,A,3,10,13,08,07,23,,,,,,,,7.4,4.1,6.2*3D
$GPRMC,181721.000,A,3748.7998,N,12217.8659,W,0.46,166.80,070711,,,A*79
$GPVTG,166.80,T,,M,0.46,N,0.9,K,A*0F
$GPGGA,181722.000,3748.7997,N,12217.8658,W,1,05,4.1,16.3,M,-25.1,M,,0000*52
$GPGSA,A,3,10,13,08,07,23,,,,,,,,7.4,4.1,6.2*3D
$GPRMC,181722.000,A,3748.7997,N,12217.8658,W,0.37,236.12,070711,,,A*7F
$GPVTG,236.12,T,,M,0.37,N,0.7,K,A*0A
$GPGGA,181723.000,3748.7997,N,12217.8658,W,1,05,4.1,16.5,M,-25.1,M,,0000*55
$GPGSA,A,3,10,13,08,07,23,,,,,,,,7.4,4.1,6.2*3D
$GPRMC,181723.000,A,3748.7997,N,12217.8658,W,0.17,200.41,070711,,,A*7F
$GPVTG,200.41,T,,M,0.17,N,0.3,K,A*0F
$GPGGA,181724.000,3748.7992,N,12217.8661,W,1,05,4.1,17.5,M,-25.1,M,,0000*5C
$GPGSA,A,3,10,13,08,07,23,,,,,,,,7.4,4.1,6.2*3D
$GPGSV,3,1,12,13,74,020,26,23,57,102,28,07,51,281,28,10,40,295,35*7A
$GPGSV,3,2,12,16,34,047,37,08,27,261,29,03,24,093,,20,19,176,19*72
$GPGSV,3,3,12,06,18,077,32,19,11,122,22,30,08,040,38,32,03,161,*7D
$GPRMC,181724.000,A,3748.7992,N,12217.8661,W,0.20,253.89,070711,,,A*71
$GPGGA,181725.000,3748.7990,N,12217.8662,W,1,05,4.1,18.0,M,-25.1,M,,0000*56
$GPGSA,A,3,10,13,08,07,23,,,,,,,,7.4,4.1,6.2*3D
$GPRMC,181725.000,A,3748.7990,N,12217.8662,W,0.21,232.18,070711,,,A*7F
$GPVTG,232.18,T,,M,0.21,N,0.4,K,A*00
$GPGGA,181726.000,3748.7993,N,12217.8670,W,1,05,4.1,19.3,M,-25.1,M,,0000*57
$GPGSA,A,3,10,13,08,07,23,,,,,,,,7.4,4.1,6.2*3D
$GPRMC,181726.000,A,3748.7993,N,12217.8670,W,1.04,297.70,070711,,,A*7B
$GPVTG,297.70,T,,M,1.04,N,1.9,K,A*0B
$GPGGA,181727.000,3748.7992,N,12217.8671,W,1,05,4.1,19.4,M,-25.1,M,,0000*51
$GPGSA,A,3,10,13,08,07,23,,,,,,,,7.4,4.1,6.2*3D
$GPRMC,181727.000,A,3748.7992,N,12217.8671,W,0.32,286.20,070711,,,A*7B
$GPVTG,286.20,T,,M,0.32,N,0.6,K,A*04
$GPGGA,181728.000,3748.7992,N,12217.8672,W,1,05,4.1,19.5,M,-25.1,M,,0000*5C
$GPGSA,A,3,10,13,08,07,23,,,,,,,,7.4,4.1,6.2*3D
$GPRMC,181728.000,A,3748.7992,N,12217.8672,W,0.62,304.34,070711,,,A*7C
$GPVTG,304.34,T,,M,0.62,N,1.1,K,A*09
$GPGGA,181729.000,3748.7991,N,12217.8672,W,1,05,4.1,19.8,M,-25.1,M,,0000*53
$GPGSA,A,3,10,13,08,07,23,,,,,,,,7.4,4.1,6.2*3D
$GPGSV,3,1,12,13,74,020,27,23,57,102,30,07,51,281,29,10,40,295,30*76
$GPGSV,3,2,12,16,34,047,34,08,27,261,27,03,24,093,,20,19,176,24*71
$GPGSV,3,3,12,06,18,077,31,19,11,122,21,30,08,040,29,32,03,161,*7D
$GPRMC,181729.000,A,3748.7991,N,12217.8672,W,0.43,333.78,070711,,,A*71
$GPVTG,333.78,T,,M,0.43,N,0.8,K,A*0E
$GPGGA,181730.000,3748.7989,N,12217.8672,W,1,05,4.1,20.7,M,-25.1,M,,0000*57
$GPGSA,A,3,10,13,08,07,23,,,,,,,,7.4,4.1,6.2*3D
$GPRMC,181730.000,A,3748.7989,N,12217.8672,W,0.66,84.71,070711,,,A*41
$GPVTG,84.71,T,,M,0.66,N,1.2,K,A*34
$GPGGA,181731.000,3748.7993,N,12217.8665,W,1,05,4.1,18.6,M,-25.1,M,,0000*51
$GPGSA,A,3,10,13,08,07,23,,,,,,,,7.4,4.1,6.2*3D
$GPRMC,181731.000,A,3748.7993,N,12217.8665,W,0.91,38.96,070711,,,A*4B
$GPVTG,38.96,T,,M,0.91,N,1.7,K,A*37
$GPGGA,181732.000,3748.8008,N,12217.8656,W,1,05,4.1,14.8,M,-25.1,M,,0000*54
$GPGSA,A,3,10,13,08,07,23,,,,,,,,7.4,4.1,6.2*3D
$GPRMC,181732.000,A,3748.8008,N,12217.8656,W,1.01,359.71,070711,,,A*79
$GPVTG,359.71,T,,M,1.01,N,1.9,K,A*0C
$GPGGA,181733.000,3748.8015,N,12217.8647,W,1,05,4.1,13.3,M,-25.1,M,,0000*55
$GPGSA,A,3,10,13,08,07,23,,,,,,,,7.4,4.1,6.2*3D
$GPRMC,181733.000,A,3748.8015,N,12217.8647,W,1.64,9.52,070711,,,A*70
$GPVTG,9.52,T,,M,1.64,N,3.0,K,A*03
$GPGGA,181734.000,3748.8008,N,12217.8644,W,1,05,4.1,12.3,M,-25.1,M,,0000*5C
$GPGSA,A,3,10,13,08,07,23,,,,,,,,7.4,4.1,6.2*3D
$GPGSV,3,1,12,13,74,020,38,23,57,102,40,07,51,281,35,10,40,295,30*72
$GPGSV,3,2,12,16,34,047,37,08,27,261,25,03,24,093,30,20,19,176,26*71
$GPGSV,3,3,12,06,18,077,32,19,11,122,18,30,08,040,28,32,03,161,*75
$GPRMC,181734.000,A,3748.8008,N,12217.8644,W,0.66,37.37,070711,,,A*45
$GPVTG,37.37,T,,M,0.66,N,1.2,K,A*3E
$GPGGA,181735.000,3748.8005,N,12217.8639,W,1,05,4.1,10.7,M,-25.1,M,,0000*5C
$GPGSA,A,3,10,13,08,07,23,,,,,,,,7.5,4.1,6.2*3C
$GPRMC,181735.000,A,3748.8005,N,12217.8639,W,0.51,30.60,070711,,,A*42
$GPVTG,30.60,T,,M,0.51,N,0.9,K,A*35
$GPGGA,181736.000,3748.8012,N,12217.8637,W,1,05,4.1,10.1,M,-25.1,M,,0000*51
$GPGSA,A,3,10,13,08,07,23,,,,,,,,7.5,4.1,6.2*3C
$GPRMC,181736.000,A,3748.8012,N,12217.8637,W,1.12,345.13,070711,,,A*7A
$GPVTG,345.13,T,,M,1.12,N,2.1,K,A*0C
$GPGGA,181737.000,3748.8015,N,12217.8634,W,1,05,4.1,9.9,M,-25.1,M,,0000*64
$GPGSA,A,3,10,13,08,07,23,,,,,,,,7.5,4.1,6.2*3C
$GPRMC,181737.000,A,3748.8015,N,12217.8634,W,0.96,20.62,070711,,,A*44
$GPVTG,20.62,T,,M,0.96,N,1.8,K,A*3D
$GPGGA,181738.000,3748.8019,N,12217.8627,W,1,05,4.1,8.0,M,-25.1,M,,0000*6D
$GPGSA,A,3,10,13,08,07,23,,,,,,,,7.5,4.1,6.2*3C
$GPRMC,181738.000,A,3748.8019,N,12217.8627,W,1.28,27.96,070711,,,A*4D
$GPVTG,27.96,T,,M,1.28,N,2.4,K,A*3A
$GPGGA,181739.000,3748.8001,N,12217.8628,W,1,05,4.1,8.6,M,-25.1,M,,0000*6C
$GPGSA,A,3,10,13,08,07,23,,,,,,,,7.5,4.1,6.2*3C
$GPGSV,3,1,12,13,74,020,32,23,57,102,33,07,51,281,29,10,40,295,28*78
$GPGSV,3,2,12,16,34,047,32,08,27,261,25,03,24,093,30,20,19,176,18*79
$GPGSV,3,3,12,06,18,077,28,19,11,122,19,30,08,040,31,32,03,161,*77
$GPRMC,181739.000,A,3748.8001,N,12217.8628,W,0.30,90.87,070711,,,A*4E
$GPGGA,181740.000,3748.7998,N,12217.8626,W,1,05,4.1,7.8,M,-25.1,M,,0000*6B
$GPGSA,A,3,10,13,08,07,23,,,,,,,,7.5,4.1,6.2*3C
$GPRMC,181740.000,A,3748.7998,N,12217.8626,W,0.32,17.25,070711,,,A*4D
$GPVTG,17.25,T,,M,0.32,N,0.6,K,A*3B
$GPGGA,181741.000,3748.8001,N,12217.8624,W,1,05,4.1,7.1,M,-25.1,M,,0000*67
