$ADVER,3080,2.3
$GPRMC,181133.980,A,3748.8032,N,12217.8763,W,0.72,105.32,300611,,,A*7D
$GPGGA,181134.980,3748.8004,N,12217.8669,W,1,03,4.7,-1.5,M,-25.1,M,,0000*41
$GPGSA,A,2,20,23,32,,,,,,,,,,4.8,4.7,1.0*3F
$GPRMC,181134.980,A,3748.8004,N,12217.8669,W,0.81,114.53,300611,,,A*7F
$GPVTG,114.53,T,,M,0.81,N,1.5,K,N*0D
$GPGGA,181135.980,3748.8000,N,12217.8654,W,1,03,4.7,-1.5,M,-25.1,M,,0000*4A
$GPGSA,A,2,20,23,32,,,,,,,,,,4.8,4.7,1.0*3F
$GPRMC,181135.980,A,3748.8000,N,12217.8654,W,1.34,107.82,300611,,,A*75
$GPVTG,107.82,T,,M,1.34,N,2.5,K,N*0F
$GPGGA,181144.981,3748.8029,N,12217.8748,W,1,03,4.7,-1.5,M,-25.1,M,,0000*4A
$GPGSA,A,2,20,23,32,,,,,,,,,,4.8,4.7,1.0*3F
$GPRMC,181144.981,A,3748.8029,N,12217.8748,W,1.99,275.51,300611,,,A*7A
$GPVTG,275.51,T,,M,1.99,N,3.7,K,N*03
$GPGGA,181145.981,3748.8033,N,12217.8769,W,1,03,4.7,-1.5,M,-25.1,M,,0000*43
$GPGSA,A,2,20,23,32,,,,,,,,,,4.8,4.7,1.0*3F
$GPRMC,181145.981,A,3748.8033,N,12217.8769,W,0.71,272.09,300611,,,A*7E
$GPVTG,272.09,T,,M,0.71,N,1.3,K,N*08
$GPGGA,181146.981,3748.8023,N,12217.8723,W,1,03,4.7,-1.5,M,-25.1,M,,0000*4F
$GPGSA,A,2,20,23,32,,,,,,,,,,4.8,4.7,1.0*3F
$GPRMC,181146.981,A,3748.8023,N,12217.8723,W,0.17,257.61,300611,,,A*7B
$GPVTG,257.61,T,,M,0.17,N,0.3,K,N*00
$GPGGA,181147.981,3748.8020,N,12217.8712,W,1,03,4.7,-1.5,M,-25.1,M,,0000*4F
$GPGSA,A,2,20,23,32,,,,,,,,,,4.8,4.7,1.0*3F
$GPRMC,181147.981,A,3748.8020,N,12217.8712,W,0.09,293.00,300611,,,A*7B
$GPVTG,293.00,T,,M,0.09,N,0.2,K,N*01
$GPGGA,181148.981,3748.8019,N,12217.8707,W,1,03,4.7,-1.5,M,-25.1,M,,0000*4E
$GPGSA,A,2,20,23,32,,,,,,,,,,4.8,4.7,1.0*3F
$GPGSV,3,1,12,23,67,072,39,20,35,178,39,32,17,160,35,13,64,340,37*72
$GPGSV,3,2,12,16,45,060,38,07,41,262,40,10,30,309,38,08,17,249,35*74
$GPGSV,3,3,12,03,16,108,33,06,13,092,17,04,09,270,22,02,02,310,*74
$GPVTG,138.53,T,,M,0.23,N,0.4,K,N*0B
$GPGGA,181149.981,3748.8017,N,12217.8700,W,1,03,4.7,-1.5,M,-25.1,M,,0000*46
$GPGSA,A,2,20,23,32,,,,,,,,,,4.8,4.7,1.0*3F
$GPRMC,181149.981,A,3748.8017,N,12217.8700,W,0.14,304.21,300611,,,A*72
$GPVTG,304.21,T,,M,0.14,N,0.3,K,N*00
$GPGGA,181150.981,3748.8016,N,12217.8703,W,1,03,4.7,-1.5,M,-25.1,M,,0000*4C
$GPGSA,A,2,20,23,32,,,,,,,,,,4.8,4.7,1.0*3F
$GPRMC,181150.981,A,3748.8016,N,12217.8703,W,0.09,285.71,300611,,,A*79
$GPVTG,285.71,T,,M,0.09,N,0.2,K,N*00
$GPGGA,181151.981,3748.7982,N,12217.8662,W,1,06,1.6,12.6,M,-25.1,M,,0000*5D
$GPGSA,A,3,20,23,32,13,16,08,,,,,,,3.2,1.6,2.8*31
$GPRMC,181151.981,A,3748.7982,N,12217.8662,W,0.12,125.88,300611,,,A*70
$GPVTG,125.88,T,,M,0.12,N,0.2,K,A*0A
$GPGGA,181152.981,3748.7986,N,12217.8669,W,1,06,1.6,12.3,M,-25.1,M,,0000*54
$GPGSA,A,3,20,23,32,13,16,08,,,,,,,3.2,1.6,2.8*31
$GPRMC,181152.981,A,3748.7986,N,12217.8669,W,0.15,122.46,300611,,,A*7E
$GPVTG,122.46,T,,M,0.15,N,0.3,K,A*09
$GPGGA,181154.000,3748.7984,N,12217.8665,W,1,06,1.6,11.5,M,-25.1,M,,0000*59
$GPGSA,A,3,20,23,32,13,16,08,,,,,,,3.2,1.6,2.8*31
$GPGSV,3,1,12,23,66,073,39,13,64,340,31,16,45,059,38,20,35,178,39*73
$GPGSV,3,2,12,32,17,160,36,08,17,249,36,07,41,262,40,10,30,309,32*73
$GPGSV,3,3,12,03,16,108,28,06,13,092,17,04,09,270,19,02,02,310,*76
$GPRMC,181154.000,A,3748.7984,N,12217.8665,W,0.17,130.21,300611,,,A*76
$GPVTG,130.21,T,,M,0.17,N,0.3,K,A*09
$GPGGA,181155.000,3748.7984,N,12217.8663,W,1,06,1.6,10.9,M,-25.1,M,,0000*53
$GPGSA,A,3,20,23,32,13,16,08,,,,,,,3.2,1.6,2.8*31
$GPRMC,181155.000,A,3748.7984,N,12217.8663,W,0.07,129.72,300611,,,A*7E
$GPVTG,129.72,T,,M,0.07,N,0.1,K,A*04
$GPGGA,181156.000,3748.7983,N,12217.8661,W,1,06,1.6,10.3,M,-25.1,M,,0000*5F
$GPGSA,A,3,20,23,32,13,16,08,,,,,,,3.2,1.6,2.8*31
$GPRMC,181156.000,A,3748.7983,N,12217.8661,W,0.14,116.38,300611,,,A*78
$GPVTG,116.38,T,,M,0.14,N,0.3,K,A*06
$GPGGA,181157.000,3748.7982,N,12217.8657,W,1,07,1.5,9.8,M,-25.1,M,,0000*6B
$GPGSA,A,3,20,23,32,13,16,07,08,,,,,,3.1,1.5,2.7*39
$GPRMC,181157.000,A,3748.7982,N,12217.8657,W,0.11,73.48,300611,,,A*4D
$GPVTG,73.48,T,,M,0.11,N,0.2,K,A*37
$GPGGA,181158.000,3748.7981,N,12217.8655,W,1,07,1.5,9.4,M,-25.1,M,,0000*69
$GPGSA,A,3,20,23,32,13,16,07,08,,,,,,3.1,1.5,2.7*39
$GPRMC,181158.000,A,3748.7981,N,12217.8655,W,0.20,139.03,300611,,,A*71
$GPVTG,139.03,T,,M,0.20,N,0.4,K,A*03
$GPGGA,181159.000,3748.7980,N,12217.8653,W,1,07,1.5,9.3,M,-25.1,M,,0000*68
$GPGSA,A,3,20,23,32,13,16,07,08,,,,,,3.1,1.5,2.7*39
$GPGSV,3,1,12,23,66,073,23,13,64,340,22,16,45,059,28,07,41,262,34*78
$GPGSV,3,2,12,20,35,178,38,10,30,309,31,32,17,160,35,08,17,249,30*74
$GPGSV,3,3,12,03,16,108,23,06,13,092,17,04,09,270,,02,02,310,*75
$GPRMC,181159.000,A,3748.7980,N,12217.8653,W,0.11,79.82,300611,,,A*49
$GPVTG,79.82,T,,M,0.11,N,0.2,K,A*3B
$GPGGA,181200.000,3748.7986,N,12217.8645,W,1,07,1.5,6.8,M,-25.1,M,,0000*62
$GPGSA,A,3,20,23,32,13,16,07,08,,,,,,3.1,1.5,2.7*39
$GPRMC,181200.000,A,3748.7986,N,12217.8645,W,0.35,187.98,300611,,,A*7A
$GPVTG,187.98,T,,M,0.35,N,0.7,K,A*03
$GPGGA,181201.000,3748.7986,N,12217.8643,W,1,07,1.5,9.1,M,-25.1,M,,0000*63
$GPGSA,A,3,20,23,32,13,16,07,08,,,,,,3.1,1.5,2.7*39
$GPRMC,181201.000,A,3748.7986,N,12217.8643,W,0.13,166.69,300611,,,A*78
$GPVTG,166.69,T,,M,0.13,N,0.2,K,A*03
$GPGGA,181202.000,3748.7992,N,12217.8635,W,1,06,1.5,7.0,M,-25.1,M,,0000*6A
$GPGSA,A,3,20,23,32,16,07,08,,,,,,,3.2,1.5,2.8*37
$GPRMC,181202.000,A,3748.7992,N,12217.8635,W,0.22,65.02,300611,,,A*42
$GPVTG,65.02,T,,M,0.22,N,0.4,K,A*38
$GPGGA,181203.000,3748.7996,N,12217.8632,W,1,06,1.5,5.3,M,-25.1,M,,0000*69
$GPGSA,A,3,20,23,32,16,07,08,,,,,,,3.2,1.5,2.8*37
$GPRMC,181203.000,A,3748.7996,N,12217.8632,W,0.18,76.22,300611,,,A*49
$GPVTG,76.22,T,,M,0.18,N,0.3,K,A*36
$GPGGA,181204.000,3748.8001,N,12217.8630,W,1,06,1.5,3.6,M,-25.1,M,,0000*67
$GPGSA,A,3,20,23,32,16,07,08,,,,,,,3.2,1.5,2.8*37
$GPGSV,3,1,12,23,66,073,24,13,64,340,,16,45,059,24,07,41,262,31*76
$GPGSV,3,2,12,20,35,178,33,10,30,309,31,32,17,160,31,08,17,249,25*7F
$GPGSV,3,3,12,03,16,108,30,06,13,092,18,04,09,270,,02,02,310,*78
$GPVTG,41.12,T,,M,0.69,N,1.3,K,A*36
$GPGGA,181205.000,3748.8002,N,12217.8629,W,1,07,1.5,2.0,M,-25.1,M,,0000*6B
$GPGSA,A,3,20,23,32,16,07,08,13,,,,,,3.1,1.5,2.7*39
$GPRMC,181205.000,A,3748.8002,N,12217.8629,W,0.35,218.21,300611,,,A*78
$GPVTG,218.21,T,,M,0.35,N,0.7,K,A*04
$GPGGA,181206.000,3748.8004,N,12217.8628,W,1,07,1.5,1.4,M,-25.1,M,,0000*68
$GPGSA,A,3,20,23,32,16,07,08,13,,,,,,3.1,1.5,2.7*39
$GPRMC,181206.000,A,3748.8004,N,12217.8628,W,0.33,127.44,300611,,,A*76
$GPVTG,127.44,T,,M,0.33,N,0.6,K,A*0F
$GPGGA,181207.000,3748.8006,N,12217.8628,W,1,07,1.5,1.2,M,-25.1,M,,0000*6D
$GPGSA,A,3,20,23,32,16,07,08,13,,,,,,3.1,1.5,2.7*39
$GPRMC,181207.000,A,3748.8006,N,12217.8628,W,0.27,316.51,300611,,,A*74
$GPVTG,316.51,T,,M,0.27,N,0.5,K,A*0D
$GPGGA,181208.000,3748.8002,N,12217.8628,W,1,07,1.5,1.8,M,-25.1,M,,0000*6C
$GPGSA,A,3,20,23,32,16,07,08,13,,,,,,3.1,1.5,2.7*39
$GPRMC,181208.000,A,3748.8002,N,12217.8628,W,0.66,145.38,300611,,,A*71
$GPVTG,145.38,T,,M,0.66,N,1.2,K,A*05
$GPGGA,181209.000,3748.7996,N,12217.8627,W,1,05,1.8,0.9,M,-25.1,M,,0000*66
$GPGSA,A,3,20,23,16,08,13,,,,,,,,3.7,1.8,3.3*31
$GPGSV,3,1,12,23,66,073,26,13,64,340,28,16,45,059,25,07,41,262,*7D
$GPGSV,3,2,12,20,35,178,19,10,30,309,17,32,17,160,16,08,17,249,17*77
$GPGSV,3,3,12,03,16,108,21,06,13,092,21,04,09,270,,02,02,310,*72
$GPRMC,181209.000,A,3748.7996,N,12217.8627,W,1.22,214.87,300611,,,A*76
$GPVTG,214.87,T,,M,1.22,N,2.3,K,A*05
$GPGGA,181210.000,3748.7997,N,12217.8620,W,1,05,1.8,-0.3,M,-25.1,M,,0000*4F
$GPGSA,A,3,20,23,16,08,13,,,,,,,,3.7,1.8,3.3*31
$GPRMC,181210.000,A,3748.7997,N,12217.8620,W,1.24,106.34,300611,,,A*76
$GPVTG,106.34,T,,M,1.24,N,2.3,K,A*0B
$GPGGA,181211.000,3748.8001,N,12217.8618,W,1,06,1.6,-0.6,M,-25.1,M,,0000*44
$GPGSA,A,3,20,23,32,16,08,13,,,,,,,3.2,1.6,2.8*31
$GPRMC,181211.000,A,3748.8001,N,12217.8618,W,1.29,62.06,300611,,,A*4A
$GPVTG,62.06,T,,M,1.29,N,2.4,K,A*33
$GPGGA,181212.000,3748.8012,N,12217.8619,W,1,06,1.6,-1.4,M,-25.1,M,,0000*47
$GPGSA,A,3,20,23,32,16,08,13,,,,,,,3.2,1.6,2.8*31
$GPRMC,181212.000,A,3748.8012,N,12217.8619,W,1.19,15.95,300611,,,A*43
$GPVTG,15.95,T,,M,1.19,N,2.2,K,A*3C
$GPGGA,181213.000,3748.8017,N,12217.8615,W,1,05,2.2,0.7,M,-25.1,M,,0000*64
$GPGSA,A,3,23,32,16,08,13,,,,,,,,4.3,2.2,3.7*3C
$GPRMC,181213.000,A,3748.8017,N,12217.8615,W,0.81,39.13,300611,,,A*4B
$GPVTG,39.13,T,,M,0.81,N,1.5,K,A*38
$GPGGA,181214.000,3748.8019,N,12217.8608,W,1,05,2.2,1.6,M,-25.1,M,,0000*61
$GPGSA,A,3,23,32,16,08,13,,,,,,,,4.3,2.2,3.7*3C
$GPGSV,3,1,12,23,66,073,25,13,64,340,15,16,45,059,19,07,41,262,*7F
$GPGSV,3,2,12,20,35,178,12,10,30,309,15,32,17,160,15,08,17,249,18*72
$GPGSV,3,3,12,03,16,108,15,06,13,092,,04,09,270,,02,02,310,*76
$GPRMC,181214.000,A,3748.8019,N,12217.8608,W,0.60,90.43,300611,,,A*47
$GPVTG,90.43,T,,M,0.60,N,1.1,K,A*35
$GPGGA,181215.000,3748.8021,N,12217.8600,W,1,04,2.3,1.2,M,-25.1,M,,0000*67
$GPGSA,A,3,20,23,16,08,,,,,,,,,5.2,2.3,4.7*3B
$GPRMC,181215.000,A,3748.8021,N,12217.8600,W,1.11,129.29,300611,,,A*7D
$GPVTG,129.29,T,,M,1.11,N,2.1,K,A*0E
$GPGGA,181216.000,3748.8014,N,12217.8596,W,1,05,2.6,1.8,M,-25.1,M,,0000*60
$GPGSA,A,3,20,23,32,08,13,,,,,,,,4.9,2.6,4.2*35
$GPRMC,181216.000,A,3748.8014,N,12217.8596,W,1.40,151.88,300611,,,A*74
$GPVTG,151.88,T,,M,1.40,N,2.6,K,A*09
$GPGGA,181217.000,3748.8013,N,12217.8591,W,1,06,1.6,0.9,M,-25.1,M,,0000*61
$GPGSA,A,3,20,23,32,16,08,13,,,,,,,3.2,1.6,2.8*31
$GPRMC,181217.000,A,3748.8013,N,12217.8591,W,1.43,129.69,300611,,,A*76
$GPVTG,129.69,T,,M,1.43,N,2.7,K,A*0B
$GPGGA,181218.000,3748.8008,N,12217.8587,W,1,06,1.6,1.1,M,-25.1,M,,0000*6A
$GPGSA,A,3,20,23,32,16,08,13,,,,,,,3.2,1.6,2.8*31
$GPRMC,181218.000,A,3748.8008,N,12217.8587,W,1.12,110.86,300611,,,A*7B
$GPVTG,110.86,T,,M,1.12,N,2.1,K,A*02
$GPGGA,181219.000,3748.8013,N,12217.8582,W,1,06,1.6,-0.4,M,-25.1,M,,0000*4D
$GPGSA,A,3,20,23,32,16,08,13,,,,,,,3.2,1.6,2.8*31
$GPGSV,3,1,12,23,66,073,23,13,64,340,25,16,45,059,20,07,41,262,*70
$GPGSV,3,2,12,20,35,178,15,10,30,309,,32,17,160,14,08,17,249,18*70
$GPGSV,3,3,12,03,16,108,17,06,13,092,,04,09,270,,02,02,310,*74
$GPVTG,113.22,T,,M,1.20,N,2.2,K,A*0D
$GPGGA,181220.000,3748.8018,N,12217.8580,W,1,06,1.6,-0.9,M,-25.1,M,,0000*43
$GPGSA,A,3,20,23,32,16,08,13,,,,,,,3.2,1.6,2.8*31
$GPRMC,181220.000,A,3748.8018,N,12217.8580,W,0.40,55.89,300611,,,A*4F
$GPVTG,55.89,T,,M,0.40,N,0.7,K,A*3F
$GPGGA,181221.000,3748.8023,N,12217.8587,W,1,06,1.6,-0.7,M,-25.1,M,,0000*43
$GPGSA,A,3,20,23,32,16,08,13,,,,,,,3.2,1.6,2.8*31
$GPRMC,181221.000,A,3748.8023,N,12217.8587,W,1.19,315.42,300611,,,A*7C
$GPVTG,315.42,T,,M,1.19,N,2.2,K,A*05
$GPGGA,181222.000,3748.8025,N,12217.8592,W,1,06,1.6,-0.8,M,-25.1,M,,0000*4D
$GPGSA,A,3,20,23,32,16,08,13,,,,,,,3.2,1.6,2.8*31
$GPRMC,181222.000,A,3748.8025,N,12217.8592,W,0.97,311.54,300611,,,A*79
$GPVTG,311.54,T,,M,0.97,N,1.8,K,A*08
$GPGGA,181223.000,3748.8026,N,12217.8594,W,1,06,1.6,-0.1,M,-25.1,M,,0000*40
$GPGSA,A,3,20,23,32,16,08,13,,,,,,,3.2,1.6,2.8*31
$GPRMC,181223.000,A,3748.8026,N,12217.8594,W,0.35,235.06,300611,,,A*75
$GPVTG,235.06,T,,M,0.35,N,0.7,K,A*0E
$GPGGA,181224.000,3748.8025,N,12217.8600,W,1,05,1.8,-0.4,M,-25.1,M,,0000*42
$GPGSA,A,3,20,23,16,08,13,,,,,,,,3.7,1.8,3.3*31
$GPGSV,3,1,12,23,66,073,12,13,64,340,28,16,45,059,22,07,41,262,*7D
$GPGSV,3,2,12,20,35,178,14,10,30,309,,32,17,160,,08,17,249,18*74
$GPGSV,3,3,12,03,16,108,18,06,13,092,,04,09,270,,02,02,310,*7B
$GPRMC,181224.000,A,3748.8025,N,12217.8600,W,0.54,232.54,300611,,,A*78
$GPVTG,232.54,T,,M,0.54,N,1.0,K,A*0F
$GPGGA,181225.000,3748.8025,N,12217.8605,W,1,04,1.8,-0.4,M,-25.1,M,,0000*47
$GPGSA,A,3,20,16,08,13,,,,,,,,,4.1,1.8,3.6*34
$GPRMC,181225.000,A,3748.8025,N,12217.8605,W,0.88,262.47,300611,,,A*7A
$GPVTG,262.47,T,,M,0.88,N,1.6,K,A*0F
$GPGGA,181226.000,3748.8027,N,12217.8601,W,1,04,1.8,-1.7,M,-25.1,M,,0000*40
$GPGSA,A,3,20,16,08,13,,,,,,,,,4.1,1.8,3.6*34
$GPRMC,181226.000,A,3748.8027,N,12217.8601,W,0.47,235.34,300611,,,A*7A
$GPVTG,235.34,T,,M,0.47,N,0.9,K,A*04
$GPGGA,181227.000,3748.8027,N,12217.8607,W,1,05,1.8,-2.3,M,-25.1,M,,0000*41
$GPGSA,A,3,20,23,16,08,13,,,,,,,,3.7,1.8,3.3*31
$GPRMC,181227.000,A,3748.8027,N,12217.8607,W,0.52,219.59,300611,,,A*7C
$GPVTG,219.59,T,,M,0.52,N,1.0,K,A*0D
$GPGGA,181228.000,3748.8028,N,12217.8607,W,1,05,2.9,-2.3,M,-25.1,M,,0000*43
$GPGSA,A,3,20,07,23,08,13,,,,,,,,6.4,2.9,5.6*36
$GPRMC,181228.000,A,3748.8028,N,12217.8607,W,0.28,114.51,300611,,,A*77
$GPVTG,114.51,T,,M,0.28,N,0.5,K,A*02
$GPGGA,181229.000,3748.8031,N,12217.8595,W,1,04,3.6,-4.5,M,-25.1,M,,0000*4D
$GPGSA,A,3,23,16,08,13,,,,,,,,,5.1,3.6,3.7*3B
$GPGSV,3,1,12,23,66,073,26,13,64,340,20,16,45,059,16,07,41,262,*75
$GPGSV,3,2,12,20,35,178,14,10,30,309,15,32,17,160,,08,17,249,20*7B
$GPGSV,3,3,12,03,16,108,18,06,13,092,,04,09,270,,02,02,310,*7B
$GPRMC,181229.000,A,3748.8031,N,12217.8595,W,1.02,82.48,300611,,,A*49
$GPVTG,82.48,T,,M,1.02,N,1.9,K,A*30
$GPGGA,181230.000,3748.8029,N,12217.8590,W,1,04,3.6,-5.1,M,-25.1,M,,0000*4C
$GPGSA,A,3,23,16,08,13,,,,,,,,,5.1,3.6,3.7*3B
$GPRMC,181230.000,A,3748.8029,N,12217.8590,W,0.68,101.55,300611,,,A*76
$GPVTG,101.55,T,,M,0.68,N,1.3,K,A*01
$GPGGA,181231.000,3748.8016,N,12217.8594,W,1,04,2.6,-2.7,M,-25.1,M,,0000*45
$GPGSA,A,3,20,23,16,13,,,,,,,,,6.4,2.6,5.8*3F
$GPRMC,181231.000,A,3748.8016,N,12217.8594,W,0.76,215.88,300611,,,A*76
$GPVTG,215.88,T,,M,0.76,N,1.4,K,A*0F
$GPGGA,181232.000,3748.8004,N,12217.8595,W,1,04,2.6,-1.3,M,-25.1,M,,0000*43
$GPGSA,A,3,20,23,16,13,,,,,,,,,6.4,2.6,5.8*3F
$GPRMC,181232.000,A,3748.8004,N,12217.8595,W,0.48,214.80,300611,,,A*73
$GPVTG,214.80,T,,M,0.48,N,0.9,K,A*07
$GPGGA,181233.000,3748.8000,N,12217.8594,W,1,03,2.2,-1.3,M,-25.1,M,,0000*44
$GPGSA,A,2,20,16,13,,,,,,,,,,2.4,2.2,1.0*33
$GPRMC,181233.000,A,3748.8000,N,12217.8594,W,0.36,299.29,300611,,,A*78
$GPVTG,299.29,T,,M,0.36,N,0.7,K,N*09
$GPGGA,181234.000,3748.8006,N,12217.8591,W,1,03,2.9,-1.3,M,-25.1,M,,0000*4B
$GPGSA,A,2,20,23,13,,,,,,,,,,3.1,2.9,1.0*3A
$GPGSV,3,1,12,23,66,073,17,13,64,340,29,16,45,059,20,07,41,262,*7B
$GPGSV,3,2,12,20,35,178,18,10,30,309,22,32,17,160,,08,17,249,10*70
$GPGSV,3,3,12,03,16,108,17,06,13,092,,04,09,270,,02,02,310,*74
$GPRMC,181234.000,A,3748.8006,N,12217.8591,W,0.54,46.92,300611,,,A*48
$GPGGA,181235.000,3748.8004,N,12217.8583,W,1,03,2.9,-0.9,M,-25.1,M,,0000*40
$GPGSA,A,2,20,23,13,,,,,,,,,,3.1,2.9,1.0*3A
$GPRMC,181235.000,A,3748.8004,N,12217.8583,W,1.51,92.47,300611,,,A*4D
$GPVTG,92.47,T,,M,1.51,N,2.8,K,N*35
$GPGGA,181236.000,3748.7997,N,12217.8594,W,1,05,1.8,-2.3,M,-25.1,M,,0000*45
$GPGSA,A,3,20,16,23,08,13,,,,,,,,3.7,1.8,3.3*31
$GPRMC,181236.000,A,3748.7997,N,12217.8594,W,0.30,139.31,300611,,,A*73
$GPVTG,139.31,T,,M,0.30,N,0.6,K,A*01
$GPGGA,181237.000,3748.7993,N,12217.8615,W,1,06,1.6,-0.7,M,-25.1,M,,0000*41
$GPGSA,A,3,20,16,23,07,08,13,,,,,,,3.4,1.6,3.0*38
$GPRMC,181237.000,A,3748.7993,N,12217.8615,W,0.89,292.25,300611,,,A*79
$GPVTG,292.25,T,,M,0.89,N,1.6,K,A*05
$GPGGA,181238.000,3748.7995,N,12217.8627,W,1,06,1.6,1.7,M,-25.1,M,,0000*65
$GPGSA,A,3,20,16,23,07,08,13,,,,,,,3.4,1.6,3.0*38
$GPRMC,181238.000,A,3748.7995,N,12217.8627,W,0.65,247.47,300611,,,A*7F
$GPVTG,247.47,T,,M,0.65,N,1.2,K,A*0F
$GPGGA,181239.000,3748.7997,N,12217.8629,W,1,05,1.8,2.4,M,-25.1,M,,0000*65
$GPGSA,A,3,20,16,23,08,13,,,,,,,,3.7,1.8,3.3*31
$GPGSV,3,1,12,23,66,073,24,13,64,340,22,16,45,059,20,07,41,262,*70
$GPGSV,3,2,12,20,35,178,22,10,30,309,20,32,17,160,,08,17,249,28*70
$GPGSV,3,3,12,03,16,108,,06,13,092,,04,09,270,,02,02,310,*72
$GPRMC,181239.000,A,3748.7997,N,12217.8629,W,0.54,201.09,300611,,,A*78
$GPVTG,201.09,T,,M,0.54,N,1.0,K,A*07
$GPGGA,181240.000,3748.7994,N,12217.8627,W,1,06,1.6,1.2,M,-25.1,M,,0000*6E
$GPGSA,A,3,20,16,23,07,08,13,,,,,,,3.4,1.6,3.0*38
$GPRMC,181240.000,A,3748.7994,N,12217.8627,W,0.74,195.51,300611,,,A*7A
$GPVTG,195.51,T,,M,0.74,N,1.4,K,A*02
$GPGGA,181241.000,3748.7995,N,12217.8623,W,1,05,1.8,0.2,M,-25.1,M,,0000*66
$GPGSA,A,3,20,16,23,08,13,,,,,,,,3.7,1.8,3.3*31
$GPRMC,181241.000,A,3748.7995,N,12217.8623,W,0.26,73.51,300611,,,A*40
$GPVTG,73.51,T,,M,0.26,N,0.5,K,A*3C
$GPGGA,181242.000,3748.7993,N,12217.8626,W,1,05,1.8,1.2,M,-25.1,M,,0000*67
$GPGSA,A,3,20,16,23,08,13,,,,,,,,3.7,1.8,3.3*31
$GPRMC,181242.000,A,3748.7993,N,12217.8626,W,0.63,327.82,300611,,,A*7D
$GPVTG,327.82,T,,M,0.63,N,1.2,K,A*07
$GPGGA,181243.000,3748.8000,N,12217.8622,W,1,04,1.8,0.7,M,-25.1,M,,0000*6B
$GPGSA,A,3,20,16,08,13,,,,,,,,,4.1,1.8,3.6*34
$GPRMC,181243.000,A,3748.8000,N,12217.8622,W,0.46,358.67,300611,,,A*70
$GPVTG,358.67,T,,M,0.46,N,0.8,K,A*08
$GPGGA,181244.000,3748.7998,N,12217.8618,W,1,05,1.8,1.1,M,-25.1,M,,0000*64
$GPGSA,A,3,20,16,23,08,13,,,,,,,,3.7,1.8,3.3*31
$GPGSV,3,1,12,23,66,073,14,13,64,340,18,16,45,059,19,07,41,262,*70
$GPGSV,3,2,12,20,35,178,15,10,30,309,23,32,17,160,,08,17,249,16*7A
$GPGSV,3,3,12,03,16,108,,06,13,092,,04,09,270,,02,02,310,*72
$GPRMC,181244.000,A,3748.7998,N,12217.8618,W,0.61,225.72,300611,,,A*73
$GPVTG,225.72,T,,M,0.61,N,1.1,K,A*0A
$GPGGA,181245.000,3748.7995,N,12217.8616,W,1,06,1.6,0.9,M,-25.1,M,,0000*62
$GPGSA,A,3,20,16,23,07,08,13,,,,,,,3.4,1.6,3.0*38
$GPRMC,181245.000,A,3748.7995,N,12217.8616,W,0.58,189.95,300611,,,A*77
$GPVTG,189.95,T,,M,0.58,N,1.1,K,A*0C
$GPGGA,181246.000,3748.8000,N,12217.8610,W,1,07,1.5,-2.0,M,-25.1,M,,0000*49
$GPGSA,A,3,20,16,23,32,07,08,13,,,,,,3.1,1.5,2.7*39
$GPRMC,181246.000,A,3748.8000,N,12217.8610,W,0.12,183.65,300611,,,A*73
$GPVTG,183.65,T,,M,0.12,N,0.2,K,A*05
$GPGGA,181247.000,3748.8000,N,12217.8607,W,1,07,1.5,-1.9,M,-25.1,M,,0000*44
$GPGSA,A,3,20,16,23,32,07,08,13,,,,,,3.1,1.5,2.7*39
$GPRMC,181247.000,A,3748.8000,N,12217.8607,W,0.28,123.02,300611,,,A*76
$GPVTG,123.02,T,,M,0.28,N,0.5,K,A*00
$GPGGA,181248.000,3748.8000,N,12217.8604,W,1,07,1.5,-1.4,M,-25.1,M,,0000*45
$GPGSA,A,3,20,16,23,32,07,08,13,,,,,,3.1,1.5,2.7*39
$GPRMC,181248.000,A,3748.8000,N,12217.8604,W,0.43,78.66,300611,,,A*4A
$GPVTG,78.66,T,,M,0.43,N,0.8,K,A*3D
$GPGGA,181249.000,3748.8003,N,12217.8604,W,1,06,1.6,-1.6,M,-25.1,M,,0000*47
$GPGSA,A,3,20,16,23,07,08,13,,,,,,,3.4,1.6,3.0*38
$GPGSV,3,1,12,23,66,073,33,13,64,340,28,16,45,059,30,07,41,262,29*76
$GPGSV,3,2,12,20,35,178,16,10,30,309,28,32,17,160,,08,17,249,25*72
$GPGSV,3,3,12,03,16,108,,06,13,092,22,04,09,270,,02,02,310,*72
$GPRMC,181249.000,A,3748.8003,N,12217.8604,W,0.28,147.94,300611,,,A*75
$GPGGA,181250.000,3748.7999,N,12217.8604,W,1,07,1.5,-1.0,M,-25.1,M,,0000*4E
$GPGSA,A,3,20,16,23,32,07,08,13,,,,,,3.1,1.5,2.7*39
$GPRMC,181250.000,A,3748.7999,N,12217.8604,W,0.09,52.73,300611,,,A*47
$GPVTG,52.73,T,,M,0.09,N,0.2,K,A*35
$GPGGA,181251.000,3748.8000,N,12217.8605,W,1,07,1.5,-0.9,M,-25.1,M,,0000*40
$GPGSA,A,3,20,16,23,32,07,08,13,,,,,,3.1,1.5,2.7*39
$GPRMC,181251.000,A,3748.8000,N,12217.8605,W,0.37,354.21,300611,,,A*7E
$GPVTG,354.21,T,,M,0.37,N,0.7,K,A*0F
$GPGGA,181252.000,3748.7996,N,12217.8604,W,1,07,1.5,-0.4,M,-25.1,M,,0000*46
$GPGSA,A,3,20,16,23,32,07,08,13,,,,,,3.1,1.5,2.7*39
$GPRMC,181252.000,A,3748.7996,N,12217.8604,W,0.03,288.18,300611,,,A*78
$GPVTG,288.18,T,,M,0.03,N,0.1,K,A*04
$GPGGA,181253.000,3748.7999,N,12217.8605,W,1,07,1.5,-0.3,M,-25.1,M,,0000*4E
$GPGSA,A,3,20,16,23,32,07,08,13,,,,,,3.1,1.5,2.7*39
$GPRMC,181253.000,A,3748.7999,N,12217.8605,W,0.09,358.06,300611,,,A*7E
$GPVTG,358.06,T,,M,0.09,N,0.2,K,A*0E
$GPGGA,181254.000,3748.8000,N,12217.8603,W,1,07,1.5,-0.4,M,-25.1,M,,0000*4E
$GPGSA,A,3,20,16,23,32,07,08,13,,,,,,3.1,1.5,2.7*39
$GPGSV,3,1,12,23,66,073,24,13,64,340,28,16,45,059,29,07,41,262,32*72
$GPGSV,3,2,12,20,35,178,30,10,30,309,27,32,17,160,28,08,17,249,21*77
$GPGSV,3,3,12,03,16,108,24,06,13,092,19,04,09,270,12,02,02,310,*7F
$GPRMC,181254.000,A,3748.8000,N,12217.8603,W,0.40,87.83,300611,,,A*48
$GPVTG,87.83,T,,M,0.40,N,0.7,K,A*3A
$GPGGA,181255.000,3748.7998,N,12217.8601,W,1,06,1.5,-0.1,M,-25.1,M,,0000*4E
$GPGSA,A,3,20,16,32,07,08,13,,,,,,,3.4,1.5,3.0*3B
$GPRMC,181255.000,A,3748.7998,N,12217.8601,W,0.41,116.07,300611,,,A*78
$GPVTG,116.07,T,,M,0.41,N,0.8,K,A*01
$GPGGA,181256.000,3748.8001,N,12217.8598,W,1,07,1.5,-0.3,M,-25.1,M,,0000*4B
$GPGSA,A,3,20,16,23,32,07,08,13,,,,,,3.1,1.5,2.7*39
$GPRMC,181256.000,A,3748.8001,N,12217.8598,W,0.77,68.93,300611,,,A*4E
$GPVTG,68.93,T,,M,0.77,N,1.4,K,A*3C
$GPGGA,181257.000,3748.8005,N,12217.8597,W,1,07,1.5,-0.9,M,-25.1,M,,0000*4B
$GPGSA,A,3,20,16,23,32,07,08,13,,,,,,3.1,1.5,2.7*39
$GPRMC,181257.000,A,3748.8005,N,12217.8597,W,0.45,31.64,300611,,,A*41
$GPVTG,31.64,T,,M,0.45,N,0.8,K,A*34
$GPGGA,181258.000,3748.8007,N,12217.8598,W,1,07,1.5,-1.7,M,-25.1,M,,0000*46
$GPGSA,A,3,20,16,23,32,07,08,13,,,,,,3.1,1.5,2.7*39
$GPRMC,181258.000,A,3748.8007,N,12217.8598,W,0.18,157.31,300611,,,A*7A
$GPVTG,157.31,T,,M,0.18,N,0.3,K,A*06
$GPGGA,181259.000,3748.8005,N,12217.8600,W,1,07,1.5,-1.4,M,-25.1,M,,0000*44
$GPGSA,A,3,20,16,23,32,07,08,13,,,,,,3.1,1.5,2.7*39
$GPGSV,3,1,12,23,66,073,36,13,64,340,37,16,45,059,38,07,41,262,31*7C
$GPGSV,3,2,12,20,35,178,17,10,30,309,34,32,17,160,22,08,17,249,33*79
$GPGSV,3,3,12,03,16,108,25,06,13,092,19,04,09,270,15,02,02,310,*79
$GPRMC,181259.000,A,3748.8005,N,12217.8600,W,0.04,189.66,300611,,,A*77
$GPVTG,189.66,T,,M,0.04,N,0.1,K,A*08
$GPGGA,181300.000,3748.8005,N,12217.8602,W,1,07,1.5,-0.6,M,-25.1,M,,0000*48
$GPGSA,A,3,20,16,23,32,07,08,13,,,,,,3.1,1.5,2.7*39
$GPRMC,181300.000,A,3748.8005,N,12217.8602,W,0.59,155.23,300611,,,A*70
$GPVTG,155.23,T,,M,0.59,N,1.1,K,A*01
$GPGGA,181301.000,3748.8003,N,12217.8602,W,1,06,1.6,-0.5,M,-25.1,M,,0000*4E
$GPGSA,A,3,20,16,23,07,08,13,,,,,,,3.4,1.6,3.0*38
$GPRMC,181301.000,A,3748.8003,N,12217.8602,W,0.57,165.66,300611,,,A*7B
$GPVTG,165.66,T,,M,0.57,N,1.0,K,A*0C
$GPGGA,181302.000,3748.7999,N,12217.8602,W,1,07,1.5,-0.1,M,-25.1,M,,0000*4E
$GPGSA,A,3,20,16,23,32,07,08,13,,,,,,3.1,1.5,2.7*39
$GPRMC,181302.000,A,3748.7999,N,12217.8602,W,0.91,153.34,300611,,,A*75
$GPVTG,153.34,T,,M,0.91,N,1.7,K,A*03
$GPGGA,181303.000,3748.8001,N,12217.8602,W,1,07,1.5,-0.7,M,-25.1,M,,0000*4E
$GPGSA,A,3,20,16,23,32,07,08,13,,,,,,3.1,1.5,2.7*39
$GPRMC,181303.000,A,3748.8001,N,12217.8602,W,0.59,134.97,300611,,,A*7F
$GPVTG,134.97,T,,M,0.59,N,1.1,K,A*09
$GPGGA,181304.000,3748.7999,N,12217.8602,W,1,07,1.5,-0.6,M,-25.1,M,,0000*4F
$GPGSA,A,3,20,16,23,32,07,08,13,,,,,,3.1,1.5,2.7*39
$GPGSV,3,1,12,23,66,073,24,13,64,340,29,16,45,059,27,07,41,262,25*7B
$GPGSV,3,2,12,20,35,178,14,10,30,309,26,32,17,160,15,08,17,249,23*7C
$GPGSV,3,3,12,03,16,108,16,06,13,092,19,04,09,270,22,02,02,310,*7D
$GPVTG,141.56,T,,M,0.34,N,0.6,K,A*0B
$GPGGA,181305.000,3748.8003,N,12217.8606,W,1,06,2.0,-1.9,M,-25.1,M,,0000*46
$GPGSA,A,3,16,23,32,07,08,13,,,,,,,3.8,2.0,3.3*31
$GPRMC,181305.000,A,3748.8003,N,12217.8606,W,0.15,353.49,300611,,,A*77
$GPVTG,353.49,T,,M,0.15,N,0.3,K,A*02
$GPGGA,181306.000,3748.8009,N,12217.8608,W,1,05,2.1,-3.0,M,-25.1,M,,0000*48
$GPGSA,A,3,16,23,32,08,13,,,,,,,,4.2,2.1,3.6*3F
$GPRMC,181306.000,A,3748.8009,N,12217.8608,W,0.84,7.36,300611,,,A*72
$GPVTG,7.36,T,,M,0.84,N,1.6,K,A*04
$GPGGA,181307.000,3748.8014,N,12217.8612,W,1,07,1.5,-3.6,M,-25.1,M,,0000*4D
$GPGSA,A,3,20,16,23,32,07,08,13,,,,,,3.1,1.5,2.7*39
$GPRMC,181307.000,A,3748.8014,N,12217.8612,W,0.36,272.59,300611,,,A*74
$GPVTG,272.59,T,,M,0.36,N,0.7,K,A*04
$GPGGA,181308.000,3748.8022,N,12217.8616,W,1,07,1.5,-6.6,M,-25.1,M,,0000*46
$GPGSA,A,3,20,16,23,32,07,08,13,,,,,,3.1,1.5,2.7*39
$GPRMC,181308.000,A,3748.8022,N,12217.8616,W,0.45,180.12,300611,,,A*7F
$GPVTG,180.12,T,,M,0.45,N,0.8,K,A*0E
$GPGGA,181309.000,3748.8027,N,12217.8617,W,1,07,1.5,-8.3,M,-25.1,M,,0000*48
$GPGSA,A,3,20,16,23,32,07,08,13,,,,,,3.1,1.5,2.7*39
$GPGSV,3,1,12,23,66,073,25,13,64,340,22,16,45,059,24,07,41,262,27*70
$GPGSV,3,2,12,20,35,178,16,10,30,309,34,32,17,160,19,08,17,249,29*7B
$GPGSV,3,3,12,03,16,108,16,06,13,092,18,04,09,270,23,02,02,310,*7D
$GPRMC,181309.000,A,3748.8027,N,12217.8617,W,0.48,163.64,300611,,,A*7B
$GPVTG,163.64,T,,M,0.48,N,0.9,K,A*0E
$GPGGA,181310.000,3748.8017,N,12217.8617,W,1,07,1.5,-8.5,M,-25.1,M,,0000*45
$GPGSA,A,3,20,16,23,32,07,08,13,,,,,,3.1,1.5,2.7*39
$GPRMC,181310.000,A,3748.8017,N,12217.8617,W,0.30,155.48,300611,,,A*74
$GPVTG,155.48,T,,M,0.30,N,0.6,K,A*05
$GPGGA,181311.000,3748.8020,N,12217.8621,W,1,07,1.5,-10.2,M,-25.1,M,,0000*7B
$GPGSA,A,3,20,16,23,32,07,08,13,,,,,,3.1,1.5,2.7*39
$GPRMC,181311.000,A,3748.8020,N,12217.8621,W,0.13,34.84,300611,,,A*43
$GPVTG,34.84,T,,M,0.13,N,0.2,K,A*36
$GPGGA,181312.000,3748.8015,N,12217.8623,W,1,07,1.5,-11.7,M,-25.1,M,,0000*78
$GPGSA,A,3,20,16,23,32,07,08,13,,,,,,3.1,1.5,2.7*39
$GPRMC,181312.000,A,3748.8015,N,12217.8623,W,0.20,118.73,300611,,,A*73
$GPVTG,118.73,T,,M,0.20,N,0.4,K,A*07
$GPGGA,181313.000,3748.8012,N,12217.8624,W,1,06,1.6,-11.8,M,-25.1,M,,0000*74
$GPGSA,A,3,20,16,23,32,08,13,,,,,,,3.2,1.6,2.8*31
$GPRMC,181313.000,A,3748.8012,N,12217.8624,W,0.40,191.85,300611,,,A*7C
$GPVTG,191.85,T,,M,0.40,N,0.7,K,A*0A
$GPGGA,181314.000,3748.8011,N,12217.8625,W,1,07,1.5,-11.8,M,-25.1,M,,0000*73
$GPGSA,A,3,20,16,23,32,07,08,13,,,,,,3.1,1.5,2.7*39
$GPGSV,3,1,12,23,66,073,25,13,64,340,27,16,45,059,25,07,41,262,28*7B
$GPGSV,3,2,12,20,35,178,16,10,30,309,37,32,17,160,21,08,17,249,28*72
$GPGSV,3,3,12,03,16,108,23,06,13,092,18,04,09,270,24,02,02,310,*7C
$GPRMC,181314.000,A,3748.8011,N,12217.8625,W,0.25,75.12,300611,,,A*4F
$GPVTG,75.12,T,,M,0.25,N,0.5,K,A*3E
$GPGGA,181315.000,3748.8019,N,12217.8624,W,1,07,1.5,-12.9,M,-25.1,M,,0000*79
$GPGSA,A,3,20,16,23,32,07,08,13,,,,,,3.1,1.5,2.7*39
$GPRMC,181315.000,A,3748.8019,N,12217.8624,W,0.86,1.50,300611,,,A*7B
$GPVTG,1.50,T,,M,0.86,N,1.6,K,A*00
$GPGGA,181316.000,3748.8026,N,12217.8621,W,1,07,1.5,-15.1,M,-25.1,M,,0000*7C
$GPGSA,A,3,20,16,23,32,07,08,13,,,,,,3.1,1.5,2.7*39
$GPRMC,181316.000,A,3748.8026,N,12217.8621,W,1.00,13.73,300611,,,A*4C
$GPVTG,13.73,T,,M,1.00,N,1.9,K,A*32
$GPGGA,181317.000,3748.8034,N,12217.8622,W,1,07,1.5,-15.9,M,-25.1,M,,0000*75
$GPGSA,A,3,20,16,23,32,07,08,13,,,,,,3.1,1.5,2.7*39
$GPRMC,181317.000,A,3748.8034,N,12217.8622,W,1.01,15.04,300611,,,A*4A
$GPVTG,15.04,T,,M,1.01,N,1.9,K,A*35
$GPGGA,181318.000,3748.8041,N,12217.8621,W,1,07,1.5,-16.4,M,-25.1,M,,0000*75
$GPGSA,A,3,20,16,23,32,07,08,13,,,,,,3.1,1.5,2.7*39
$GPRMC,181318.000,A,3748.8041,N,12217.8621,W,0.93,359.74,300611,,,A*72
$GPVTG,359.74,T,,M,0.93,N,1.7,K,A*0D
$GPGGA,181319.000,3748.8047,N,12217.8619,W,1,07,1.5,-16.1,M,-25.1,M,,0000*7C
$GPGSA,A,3,20,16,23,32,07,08,13,,,,,,3.1,1.5,2.7*39
$GPGSV,3,1,12,23,66,074,24,13,64,341,25,16,44,059,25,07,42,263,23*76
$GPGSV,3,2,12,20,34,178,18,10,31,309,34,08,17,249,28,03,17,108,18*79
$GPRMC,181319.000,A,3748.8047,N,12217.8619,W,1.20,20.65,300611,,,A*4A
$GPVTG,20.65,T,,M,1.20,N,2.2,K,A*3F
$GPGGA,181320.000,3748.8045,N,12217.8617,W,1,07,1.5,-15.5,M,-25.1,M,,0000*7D
$GPGSA,A,3,20,16,23,32,07,08,13,,,,,,3.1,1.5,2.7*39
$GPRMC,181320.000,A,3748.8045,N,12217.8617,W,1.04,17.42,300611,,,A*4B
$GPVTG,17.42,T,,M,1.04,N,1.9,K,A*30
$GPGGA,181321.000,3748.8042,N,12217.8613,W,1,07,1.5,-15.5,M,-25.1,M,,0000*7F
$GPGSA,A,3,20,16,23,32,07,08,13,,,,,,3.1,1.5,2.7*39
$GPRMC,181321.000,A,3748.8042,N,12217.8613,W,0.37,359.92,300611,,,A*7C
$GPVTG,359.92,T,,M,0.37,N,0.7,K,A*0A
$GPGGA,181322.000,3748.8040,N,12217.8611,W,1,07,1.5,-15.1,M,-25.1,M,,0000*78
$GPGSA,A,3,20,16,23,32,07,08,13,,,,,,3.1,1.5,2.7*39
$GPRMC,181322.000,A,3748.8040,N,12217.8611,W,0.57,66.20,300611,,,A*4F
$GPVTG,66.20,T,,M,0.57,N,1.1,K,A*3D
$GPGGA,181323.000,3748.8034,N,12217.8609,W,1,07,1.5,-13.4,M,-25.1,M,,0000*70
$GPGSA,A,3,20,16,23,32,07,08,13,,,,,,3.1,1.5,2.7*39
$GPRMC,181323.000,A,3748.8034,N,12217.8609,W,0.18,69.51,300611,,,A*46
$GPVTG,69.51,T,,M,0.18,N,0.3,K,A*3C
$GPGGA,181324.000,3748.8031,N,12217.8612,W,1,07,1.5,-12.8,M,-25.1,M,,0000*75
$GPGSA,A,3,20,16,23,32,07,08,13,,,,,,3.1,1.5,2.7*39
$GPGSV,3,1,12,23,66,074,34,13,64,341,28,16,44,059,34,07,42,263,23*7A
$GPGSV,3,2,12,20,34,178,32,10,31,309,22,08,17,249,23,03,17,108,30*77
$GPGSV,3,3,12,32,16,160,20,06,14,092,17,04,08,269,,19,02,133,*7D
$GPRMC,181324.000,A,3748.8031,N,12217.8612,W,0.17,130.02,300611,,,A*7A
$GPVTG,130.02,T,,M,0.17,N,0.3,K,A*08
$GPGGA,181325.000,3748.8028,N,12217.8612,W,1,07,1.5,-12.2,M,-25.1,M,,0000*76
$GPGSA,A,3,20,16,23,32,07,08,13,,,,,,3.1,1.5,2.7*39
$GPRMC,181325.000,A,3748.8028,N,12217.8612,W,0.24,114.95,300611,,,A*7B
$GPVTG,114.95,T,,M,0.24,N,0.4,K,A*07
$GPGGA,181326.000,3748.8025,N,12217.8615,W,1,07,1.5,-11.6,M,-25.1,M,,0000*78
$GPGSA,A,3,20,16,23,32,07,08,13,,,,,,3.1,1.5,2.7*39
$GPRMC,181326.000,A,3748.8025,N,12217.8615,W,0.13,225.60,300611,,,A*7D
$GPVTG,225.60,T,,M,0.13,N,0.2,K,A*0E
$GPGGA,181327.000,3748.8022,N,12217.8611,W,1,07,1.5,-10.4,M,-25.1,M,,0000*79
$GPGSA,A,3,20,16,23,32,07,08,13,,,,,,3.1,1.5,2.7*39
$GPRMC,181327.000,A,3748.8022,N,12217.8611,W,0.74,97.06,300611,,,A*45
$GPVTG,97.06,T,,M,0.74,N,1.4,K,A*33
$GPGGA,181328.000,3748.8017,N,12217.8607,W,1,07,1.5,-8.9,M,-25.1,M,,0000*43
$GPGSA,A,3,20,16,23,32,07,08,13,,,,,,3.1,1.5,2.7*39
$GPRMC,181328.000,A,3748.8017,N,12217.8607,W,1.08,128.29,300611,,,A*79
$GPVTG,128.29,T,,M,1.08,N,2.0,K,A*06
$GPGGA,181329.000,3748.8010,N,12217.8603,W,1,07,1.5,-6.6,M,-25.1,M,,0000*40
$GPGSA,A,3,20,16,23,32,07,08,13,,,,,,3.1,1.5,2.7*39
$GPGSV,3,1,12,23,66,074,33,13,64,341,22,16,44,059,28,07,42,263,31*79
$GPGSV,3,2,12,20,34,178,40,10,31,309,22,08,17,249,33,03,17,108,38*7B
$GPGSV,3,3,12,32,16,160,32,06,14,092,24,04,08,269,,19,02,133,*7E
$GPRMC,181329.000,A,3748.8010,N,12217.8603,W,1.52,129.19,300611,,,A*76
$GPVTG,129.19,T,,M,1.52,N,2.8,K,A*03
$GPGGA,181330.000,3748.8005,N,12217.8597,W,1,07,1.5,-5.4,M,-25.1,M,,0000*43
$GPGSA,A,3,20,16,23,32,07,08,13,,,,,,3.1,1.5,2.7*39
$GPRMC,181330.000,A,3748.8005,N,12217.8597,W,2.30,123.81,300611,,,A*78
$GPVTG,123.81,T,,M,2.30,N,4.3,K,A*02
$GPGGA,181331.000,3748.7999,N,12217.8590,W,1,07,1.5,-4.8,M,-25.1,M,,0000*4B
$GPGSA,A,3,20,16,23,32,07,08,13,,,,,,3.1,1.5,2.7*39
$GPRMC,181331.000,A,3748.7999,N,12217.8590,W,2.45,123.30,300611,,,A*75
$GPVTG,123.30,T,,M,2.45,N,4.5,K,A*0C
$GPGGA,181332.000,3748.7994,N,12217.8582,W,1,07,1.5,-4.2,M,-25.1,M,,0000*4C
$GPGSA,A,3,20,16,23,32,07,08,13,,,,,,3.1,1.5,2.7*39
$GPRMC,181332.000,A,3748.7994,N,12217.8582,W,2.55,124.23,300611,,,A*7C
$GPVTG,124.23,T,,M,2.55,N,4.7,K,A*0A
$GPGGA,181333.000,3748.7989,N,12217.8575,W,1,07,1.5,-4.0,M,-25.1,M,,0000*4B
$GPGSA,A,3,20,16,23,32,07,08,13,,,,,,3.1,1.5,2.7*39
$GPRMC,181333.000,A,3748.7989,N,12217.8575,W,2.60,120.41,300611,,,A*7F
$GPVTG,120.41,T,,M,2.60,N,4.8,K,A*03
$GPGGA,181334.000,3748.7981,N,12217.8572,W,1,07,1.5,-2.0,M,-25.1,M,,0000*45
$GPGSA,A,3,20,16,23,32,07,08,13,,,,,,3.1,1.5,2.7*39
$GPGSV,3,1,12,23,66,074,32,13,64,341,26,16,44,059,26,07,42,263,34*77
$GPGSV,3,2,12,20,34,178,39,10,31,309,22,08,17,249,31,03,17,108,32*7D
$GPGSV,3,3,12,32,16,160,37,06,14,092,22,04,08,269,21,19,02,133,*7E
$GPRMC,181334.000,A,3748.7981,N,12217.8572,W,2.44,129.07,300611,,,A*7A
$GPVTG,129.07,T,,M,2.44,N,4.5,K,A*03
$GPGGA,181335.000,3748.7974,N,12217.8568,W,1,07,1.5,-0.7,M,-25.1,M,,0000*40
$GPGSA,A,3,20,16,23,32,07,08,13,,,,,,3.1,1.5,2.7*39
$GPRMC,181335.000,A,3748.7974,N,12217.8568,W,2.47,128.25,300611,,,A*78
$GPVTG,128.25,T,,M,2.47,N,4.6,K,A*02
$GPGGA,181336.000,3748.7970,N,12217.8562,W,1,07,1.5,-0.2,M,-25.1,M,,0000*48
$GPGSA,A,3,20,16,23,32,07,08,13,,,,,,3.1,1.5,2.7*39
$GPRMC,181336.000,A,3748.7970,N,12217.8562,W,2.56,128.05,300611,,,A*77
$GPVTG,128.05,T,,M,2.56,N,4.7,K,A*01
$GPGGA,181337.000,3748.7966,N,12217.8555,W,1,07,1.5,0.3,M,-25.1,M,,0000*66
$GPGSA,A,3,20,16,23,32,07,08,13,,,,,,3.1,1.5,2.7*39
$GPRMC,181337.000,A,3748.7966,N,12217.8555,W,2.65,127.51,300611,,,A*7B
$GPVTG,127.51,T,,M,2.65,N,4.9,K,A*01
$GPGGA,181338.000,3748.7962,N,12217.8549,W,1,07,1.5,1.1,M,-25.1,M,,0000*63
$GPGSA,A,3,20,16,23,32,07,08,13,,,,,,3.1,1.5,2.7*39
$GPRMC,181338.000,A,3748.7962,N,12217.8549,W,2.44,128.27,300611,,,A*70
$GPVTG,128.27,T,,M,2.44,N,4.5,K,A*00
$GPGGA,181339.000,3748.7958,N,12217.8543,W,1,07,1.5,1.6,M,-25.1,M,,0000*66
$GPGSA,A,3,20,16,23,32,07,08,13,,,,,,3.1,1.5,2.7*39
$GPGSV,3,1,12,23,66,074,32,13,64,341,26,16,44,059,25,07,42,263,34*74
$GPGSV,3,2,12,20,34,178,39,10,31,309,22,08,17,249,33,03,17,108,32*7F
$GPGSV,3,3,12,32,16,160,37,06,14,092,22,04,08,269,20,19,02,133,*7F
$GPVTG,126.15,T,,M,2.44,N,4.5,K,A*0F
$GPGGA,181340.000,3748.7953,N,12217.8536,W,1,07,1.5,2.2,M,-25.1,M,,0000*66
$GPGSA,A,3,20,16,23,32,07,08,13,,,,,,3.1,1.5,2.7*39
$GPRMC,181340.000,A,3748.7953,N,12217.8536,W,2.58,119.99,300611,,,A*7F
$GPVTG,119.99,T,,M,2.58,N,4.8,K,A*07
$GPGGA,181341.000,3748.7948,N,12217.8530,W,1,07,1.5,2.8,M,-25.1,M,,0000*61
$GPGSA,A,3,20,16,23,32,07,08,13,,,,,,3.1,1.5,2.7*39
$GPRMC,181341.000,A,3748.7948,N,12217.8530,W,2.38,128.30,300611,,,A*75
$GPVTG,128.30,T,,M,2.38,N,4.4,K,A*0C
$GPGGA,181342.000,3748.7943,N,12217.8524,W,1,07,1.5,3.0,M,-25.1,M,,0000*65
$GPGSA,A,3,20,16,23,32,07,08,13,,,,,,3.1,1.5,2.7*39
$GPRMC,181342.000,A,3748.7943,N,12217.8524,W,2.29,124.22,300611,,,A*77
$GPVTG,124.22,T,,M,2.29,N,4.2,K,A*05
$GPGGA,181343.000,3748.7939,N,12217.8517,W,1,07,1.5,3.4,M,-25.1,M,,0000*6D
$GPGSA,A,3,20,16,23,32,07,08,13,,,,,,3.1,1.5,2.7*39
$GPRMC,181343.000,A,3748.7939,N,12217.8517,W,2.48,123.96,300611,,,A*74
$GPVTG,123.96,T,,M,2.48,N,4.6,K,A*0E
$GPGGA,181344.000,3748.7935,N,12217.8510,W,1,07,1.5,3.8,M,-25.1,M,,0000*6D
$GPGSA,A,3,20,16,23,32,07,08,13,,,,,,3.1,1.5,2.7*39
$GPGSV,3,1,12,23,66,075,32,13,64,341,27,16,44,059,26,07,42,263,34*77
$GPGSV,3,2,12,20,34,178,39,10,31,309,23,08,17,249,33,03,17,108,35*79
$GPGSV,3,3,12,32,16,160,37,06,14,091,27,04,08,269,20,19,02,133,*79
$GPRMC,181344.000,A,3748.7935,N,12217.8510,W,2.27,120.47,300611,,,A*7E
$GPVTG,120.47,T,,M,2.27,N,4.2,K,A*0C
$GPGGA,181345.000,3748.7932,N,12217.8502,W,1,07,1.5,3.8,M,-25.1,M,,0000*68
$GPGSA,A,3,20,16,23,32,07,08,13,,,,,,3.1,1.5,2.7*39
$GPRMC,181345.000,A,3748.7932,N,12217.8502,W,2.19,122.31,300611,,,A*75
$GPVTG,122.31,T,,M,2.19,N,4.1,K,A*01
$GPGGA,181346.000,3748.7927,N,12217.8499,W,1,07,1.5,4.8,M,-25.1,M,,0000*6B
$GPGSA,A,3,20,16,23,32,07,08,13,,,,,,3.1,1.5,2.7*39
$GPRMC,181346.000,A,3748.7927,N,12217.8499,W,1.63,126.18,300611,,,A*70
$GPVTG,126.18,T,,M,1.63,N,3.0,K,A*06
$GPGGA,181347.000,3748.7922,N,12217.8495,W,1,07,1.5,5.6,M,-25.1,M,,0000*6C
$GPGSA,A,3,20,16,23,32,07,08,13,,,,,,3.1,1.5,2.7*39
$GPRMC,181347.000,A,3748.7922,N,12217.8495,W,2.31,125.79,300611,,,A*78
$GPVTG,125.79,T,,M,2.31,N,4.3,K,A*02
$GPGGA,181348.000,3748.7918,N,12217.8488,W,1,07,1.5,5.9,M,-25.1,M,,0000*69
$GPGSA,A,3,20,16,23,32,07,08,13,,,,,,3.1,1.5,2.7*39
$GPRMC,181348.000,A,3748.7918,N,12217.8488,W,2.05,123.67,300611,,,A*7C
$GPVTG,123.67,T,,M,2.05,N,3.8,K,A*00
$GPGGA,181349.000,3748.7915,N,12217.8482,W,1,07,1.5,6.4,M,-25.1,M,,0000*61
$GPGSA,A,3,20,16,23,32,07,08,13,,,,,,3.1,1.5,2.7*39
$GPGSV,3,1,12,23,66,075,32,13,65,341,27,16,44,059,24,07,42,263,33*73
$GPGSV,3,2,12,20,34,178,37,10,31,309,23,08,17,249,28,03,17,107,31*76
$GPGSV,3,3,12,32,16,160,35,06,14,091,24,04,08,269,20,19,02,133,*78
$GPRMC,181349.000,A,3748.7915,N,12217.8482,W,2.36,125.80,300611,,,A*75
$GPVTG,125.80,T,,M,2.36,N,4.4,K,A*04
$GPGGA,181350.000,3748.7910,N,12217.8474,W,1,07,1.5,6.9,M,-25.1,M,,0000*68
$GPGSA,A,3,20,16,23,32,07,08,13,,,,,,3.1,1.5,2.7*39
$GPRMC,181350.000,A,3748.7910,N,12217.8474,W,2.60,122.74,300611,,,A*7E
$GPVTG,122.74,T,,M,2.60,N,4.8,K,A*07
$GPGGA,181351.000,3748.7905,N,12217.8467,W,1,07,1.5,7.5,M,-25.1,M,,0000*62
$GPGSA,A,3,20,16,23,32,07,08,13,,,,,,3.0,1.5,2.7*38
$GPRMC,181351.000,A,3748.7905,N,12217.8467,W,1.97,131.62,300611,,,A*77
$GPVTG,131.62,T,,M,1.97,N,3.6,K,A*00
$GPGGA,181352.000,3748.7903,N,12217.8459,W,1,07,1.5,6.8,M,-25.1,M,,0000*66
$GPGSA,A,3,20,16,23,32,07,08,13,,,,,,3.0,1.5,2.7*38
$GPRMC,181352.000,A,3748.7903,N,12217.8459,W,2.17,118.80,300611,,,A*73
$GPVTG,118.80,T,,M,2.17,N,4.0,K,A*0D
$GPGGA,181353.000,3748.7899,N,12217.8452,W,1,07,1.5,6.8,M,-25.1,M,,0000*6E
$GPGSA,A,3,20,16,23,32,07,08,13,,,,,,3.0,1.5,2.7*38
$GPRMC,181353.000,A,3748.7899,N,12217.8452,W,2.25,125.78,300611,,,A*73
$GPVTG,125.78,T,,M,2.25,N,4.2,K,A*07
$GPGGA,181354.000,3748.7894,N,12217.8445,W,1,07,1.5,6.8,M,-25.1,M,,0000*62
$GPGSA,A,3,20,16,23,32,07,08,13,,,,,,3.0,1.5,2.7*38
$GPGSV,3,1,12,23,66,075,30,13,65,341,26,16,44,059,25,07,42,263,32*70
$GPGSV,3,2,12,20,34,178,37,10,31,309,23,08,17,249,29,03,17,107,33*75
$GPGSV,3,3,12,32,16,160,35,06,14,091,24,04,08,269,23,19,02,133,*7B
$GPVTG,133.36,T,,M,2.63,N,4.9,K,A*03
$GPGGA,181355.000,3748.7891,N,12217.8437,W,1,07,1.5,7.1,M,-25.1,M,,0000*6B
$GPGSA,A,3,20,16,23,32,07,08,13,,,,,,3.0,1.5,2.7*38
$GPRMC,181355.000,A,3748.7891,N,12217.8437,W,2.52,119.69,300611,,,A*71
$GPVTG,119.69,T,,M,2.52,N,4.7,K,A*0D
$GPGGA,181356.000,3748.7887,N,12217.8429,W,1,07,1.5,7.0,M,-25.1,M,,0000*61
$GPGSA,A,3,20,16,23,32,07,08,13,,,,,,3.0,1.5,2.7*38
$GPRMC,181356.000,A,3748.7887,N,12217.8429,W,2.59,117.37,300611,,,A*74
$GPVTG,117.37,T,,M,2.59,N,4.8,K,A*0C
$GPGGA,181357.000,3748.7884,N,12217.8420,W,1,08,1.3,6.5,M,-25.1,M,,0000*67
$GPGSA,A,3,20,16,23,32,07,03,08,13,,,,,2.4,1.3,2.1*3E
$GPRMC,181357.000,A,3748.7884,N,12217.8420,W,2.42,120.97,300611,,,A*7B
$GPVTG,120.97,T,,M,2.42,N,4.5,K,A*05
$GPGGA,181358.000,3748.7882,N,12217.8411,W,1,08,1.3,6.1,M,-25.1,M,,0000*68
$GPGSA,A,3,20,16,23,32,07,03,08,13,,,,,2.4,1.3,2.1*3E
$GPRMC,181358.000,A,3748.7882,N,12217.8411,W,2.60,117.65,300611,,,A*79
$GPVTG,117.65,T,,M,2.60,N,4.8,K,A*01
$GPGGA,181359.000,3748.7879,N,12217.8402,W,1,08,1.3,5.8,M,-25.1,M,,0000*65
$GPGSA,A,3,20,16,23,32,07,03,08,13,,,,,2.4,1.3,2.1*3E
$GPGSV,3,1,12,23,66,075,30,13,65,341,27,16,44,058,26,07,42,263,34*75
$GPGSV,3,2,12,20,34,178,39,10,31,309,23,08,17,249,30,03,17,107,32*72
$GPGSV,3,3,12,32,16,160,35,06,14,091,20,04,08,269,30,19,02,133,*7D
$GPRMC,181359.000,A,3748.7879,N,12217.8402,W,2.38,117.33,300611,,,A*70
$GPVTG,117.33,T,,M,2.38,N,4.4,K,A*03
$GPGGA,181400.000,3748.7876,N,12217.8394,W,1,08,1.3,5.8,M,-25.1,M,,0000*69
$GPGSA,A,3,20,16,23,32,07,03,08,13,,,,,2.4,1.3,2.1*3E
$GPRMC,181400.000,A,3748.7876,N,12217.8394,W,2.49,120.74,300611,,,A*7D
$GPVTG,120.74,T,,M,2.49,N,4.6,K,A*00
$GPGGA,181401.000,3748.7873,N,12217.8387,W,1,08,1.3,5.3,M,-25.1,M,,0000*64
$GPGSA,A,3,20,16,23,32,07,03,08,13,,,,,2.4,1.3,2.1*3E
$GPRMC,181401.000,A,3748.7873,N,12217.8387,W,2.15,127.95,300611,,,A*7A
$GPVTG,127.95,T,,M,2.15,N,4.0,K,A*07
$GPGGA,181402.000,3748.7870,N,12217.8381,W,1,08,1.3,4.8,M,-25.1,M,,0000*68
$GPGSA,A,3,20,16,23,32,07,03,08,13,,,,,2.4,1.3,2.1*3E
$GPRMC,181402.000,A,3748.7870,N,12217.8381,W,2.23,136.45,300611,,,A*74
$GPVTG,136.45,T,,M,2.23,N,4.1,K,A*0E
$GPGGA,181403.000,3748.7866,N,12217.8374,W,1,08,1.3,4.6,M,-25.1,M,,0000*6A
$GPGSA,A,3,20,16,23,32,07,03,08,13,,,,,2.4,1.3,2.1*3E
$GPRMC,181403.000,A,3748.7866,N,12217.8374,W,2.57,124.65,300611,,,A*7A
$GPVTG,124.65,T,,M,2.57,N,4.8,K,A*05
$GPGGA,181404.000,3748.7862,N,12217.8366,W,1,08,1.3,4.4,M,-25.1,M,,0000*68
$GPGSA,A,3,20,16,23,32,07,03,08,13,,,,,2.4,1.3,2.1*3E
$GPGSV,3,1,12,23,66,075,31,13,65,341,27,16,44,058,27,07,42,263,34*75
$GPGSV,3,2,12,20,34,178,38,10,31,309,23,08,17,249,30,03,17,107,35*74
$GPGSV,3,3,12,32,16,160,36,06,14,091,20,04,08,269,26,19,02,133,*79
$GPRMC,181404.000,A,3748.7862,N,12217.8366,W,2.55,123.07,300611,,,A*7B
$GPVTG,123.07,T,,M,2.55,N,4.7,K,A*0B
$GPGGA,181405.000,3748.7859,N,12217.8358,W,1,08,1.3,4.2,M,-25.1,M,,0000*6A
$GPGSA,A,3,20,16,23,32,07,03,08,13,,,,,2.4,1.3,2.1*3E
$GPRMC,181405.000,A,3748.7859,N,12217.8358,W,2.27,122.54,300611,,,A*7D
$GPVTG,122.54,T,,M,2.27,N,4.2,K,A*0C
$GPGGA,181406.000,3748.7856,N,12217.8351,W,1,08,1.3,4.0,M,-25.1,M,,0000*6D
$GPGSA,A,3,20,16,23,32,07,03,08,13,,,,,2.4,1.3,2.1*3E
$GPRMC,181406.000,A,3748.7856,N,12217.8351,W,2.29,123.62,300611,,,A*72
$GPVTG,123.62,T,,M,2.29,N,4.2,K,A*06
$GPGGA,181407.000,3748.7852,N,12217.8344,W,1,08,1.3,4.0,M,-25.1,M,,0000*6C
$GPGSA,A,3,20,16,23,32,07,03,08,13,,,,,2.4,1.3,2.1*3E
$GPRMC,181407.000,A,3748.7852,N,12217.8344,W,2.38,120.21,300611,,,A*77
$GPVTG,120.21,T,,M,2.38,N,4.4,K,A*04
$GPGGA,181408.000,3748.7849,N,12217.8337,W,1,08,1.3,3.9,M,-25.1,M,,0000*63
$GPGSA,A,3,20,16,23,32,07,03,08,13,,,,,2.4,1.3,2.1*3E
$GPRMC,181408.000,A,3748.7849,N,12217.8337,W,2.31,120.17,300611,,,A*7A
$GPVTG,120.17,T,,M,2.31,N,4.3,K,A*0F
$GPGGA,181409.000,3748.7845,N,12217.8331,W,1,08,1.3,4.3,M,-25.1,M,,0000*65
$GPGSA,A,3,20,16,23,32,07,03,08,13,,,,,2.4,1.3,2.1*3E
$GPGSV,3,1,12,23,66,075,31,13,65,341,27,16,44,058,29,07,42,263,34*7B
$GPGSV,3,2,12,20,34,178,39,10,31,309,24,08,17,249,32,03,17,107,29*7D
$GPGSV,3,3,12,32,16,160,33,06,14,091,20,04,08,269,30,19,02,133,*7B
$GPRMC,181409.000,A,3748.7845,N,12217.8331,W,2.28,116.07,300611,,,A*7D
$GPVTG,116.07,T,,M,2.28,N,4.2,K,A*02
$GPGGA,181410.000,3748.7842,N,12217.8322,W,1,08,1.3,4.1,M,-25.1,M,,0000*6A
$GPGSA,A,3,20,16,23,32,07,03,08,13,,,,,2.4,1.3,2.1*3E
$GPRMC,181410.000,A,3748.7842,N,12217.8322,W,2.55,117.27,300611,,,A*79
$GPVTG,117.27,T,,M,2.55,N,4.7,K,A*0E
$GPGGA,181411.000,3748.7838,N,12217.8314,W,1,08,1.3,3.9,M,-25.1,M,,0000*6C
$GPGSA,A,3,20,16,23,32,07,03,08,13,,,,,2.4,1.3,2.1*3E
$GPRMC,181411.000,A,3748.7838,N,12217.8314,W,2.73,121.24,300611,,,A*72
$GPVTG,121.24,T,,M,2.73,N,5.1,K,A*0B
$GPGGA,181412.000,3748.7835,N,12217.8305,W,1,08,1.3,3.8,M,-25.1,M,,0000*63
$GPGSA,A,3,20,16,23,32,07,03,08,13,,,,,2.4,1.3,2.1*3E
$GPRMC,181412.000,A,3748.7835,N,12217.8305,W,2.70,116.38,300611,,,A*76
$GPVTG,116.38,T,,M,2.70,N,5.0,K,A*00
$GPGGA,181413.000,3748.7831,N,12217.8296,W,1,08,1.3,3.4,M,-25.1,M,,0000*61
$GPGSA,A,3,20,16,23,32,07,03,08,13,,,,,2.4,1.3,2.1*3E
$GPRMC,181413.000,A,3748.7831,N,12217.8296,W,2.79,119.33,300611,,,A*75
$GPVTG,119.33,T,,M,2.79,N,5.2,K,A*0F
$GPGGA,181414.000,3748.7828,N,12217.8287,W,1,08,1.3,3.3,M,-25.1,M,,0000*69
$GPGSA,A,3,20,16,23,32,07,03,08,13,,,,,2.4,1.3,2.1*3E
$GPGSV,3,1,12,23,66,075,26,13,65,341,27,16,44,058,28,07,42,263,31*79
$GPGSV,3,2,12,20,34,178,32,10,31,309,24,08,17,249,32,03,17,107,31*7F
$GPGSV,3,3,12,32,16,160,34,06,14,091,20,04,08,269,30,19,02,133,*7C
$GPRMC,181414.000,A,3748.7828,N,12217.8287,W,2.49,113.07,300611,,,A*74
$GPGGA,181415.000,3748.7823,N,12217.8282,W,1,08,1.3,3.5,M,-25.1,M,,0000*60
$GPGSA,A,3,20,16,23,32,07,03,08,13,,,,,2.4,1.3,2.1*3E
$GPRMC,181415.000,A,3748.7823,N,12217.8282,W,2.12,118.80,300611,,,A*71
$GPVTG,118.80,T,,M,2.12,N,3.9,K,A*06
$GPGGA,181416.000,3748.7818,N,12217.8277,W,1,08,1.3,4.1,M,-25.1,M,,0000*62
$GPGSA,A,3,20,16,23,32,07,03,08,13,,,,,2.4,1.3,2.1*3E
$GPRMC,181416.000,A,3748.7818,N,12217.8277,W,1.93,120.48,300611,,,A*75
$GPVTG,120.48,T,,M,1.93,N,3.6,K,A*0C
$GPGGA,181417.000,3748.7815,N,12217.8271,W,1,08,1.3,3.9,M,-25.1,M,,0000*67
$GPGSA,A,3,20,16,23,32,07,03,08,13,,,,,2.4,1.3,2.1*3E
$GPRMC,181417.000,A,3748.7815,N,12217.8271,W,2.14,124.35,300611,,,A*7D
$GPVTG,124.35,T,,M,2.14,N,4.0,K,A*0F
$GPGGA,181418.000,3748.7812,N,12217.8264,W,1,08,1.3,3.9,M,-25.1,M,,0000*6B
$GPGSA,A,3,20,16,23,32,07,03,08,13,,,,,2.4,1.3,2.1*3E
$GPRMC,181418.000,A,3748.7812,N,12217.8264,W,2.43,125.17,300611,,,A*72
$GPVTG,125.17,T,,M,2.43,N,4.5,K,A*09
$GPGGA,181419.000,3748.7808,N,12217.8256,W,1,08,1.3,3.7,M,-25.1,M,,0000*6E
$GPGSA,A,3,20,16,23,32,07,03,08,13,,,,,2.4,1.3,2.1*3E
$GPGSV,3,1,12,23,66,075,30,13,65,342,27,16,44,058,27,07,42,264,36*72
$GPGSV,3,2,12,20,33,178,38,10,31,309,23,08,18,250,29,03,17,107,32*7B
$GPGSV,3,3,12,32,16,160,40,06,14,091,,04,08,269,24,19,02,133,*78
$GPRMC,181419.000,A,3748.7808,N,12217.8256,W,2.56,125.85,300611,,,A*76
$GPVTG,125.85,T,,M,2.56,N,4.8,K,A*0B
$GPGGA,181420.000,3748.7804,N,12217.8248,W,1,08,1.3,3.8,M,-25.1,M,,0000*68
$GPGSA,A,3,20,16,23,32,07,03,08,13,,,,,2.4,1.3,2.1*3E
$GPRMC,181420.000,A,3748.7804,N,12217.8248,W,2.41,123.97,300611,,,A*7C
$GPVTG,123.97,T,,M,2.41,N,4.5,K,A*05
$GPGGA,181421.000,3748.7801,N,12217.8240,W,1,08,1.3,3.5,M,-25.1,M,,0000*69
$GPGSA,A,3,20,16,23,32,07,03,08,13,,,,,2.4,1.3,2.1*3E
$GPRMC,181421.000,A,3748.7801,N,12217.8240,W,2.44,120.52,300611,,,A*7F
$GPVTG,120.52,T,,M,2.44,N,4.5,K,A*0A
$GPGGA,181422.000,3748.7798,N,12217.8233,W,1,08,1.3,3.4,M,-25.1,M,,0000*60
$GPGSA,A,3,20,16,23,32,07,03,08,13,,,,,2.4,1.3,2.1*3E
$GPRMC,181422.000,A,3748.7798,N,12217.8233,W,2.37,118.56,300611,,,A*7C
$GPVTG,118.56,T,,M,2.37,N,4.4,K,A*00
$GPGGA,181423.000,3748.7794,N,12217.8225,W,1,08,1.3,3.2,M,-25.1,M,,0000*6C
$GPGSA,A,3,20,16,23,32,07,03,08,13,,,,,2.4,1.3,2.1*3E
$GPRMC,181423.000,A,3748.7794,N,12217.8225,W,2.37,124.64,300611,,,A*78
$GPVTG,124.64,T,,M,2.37,N,4.4,K,A*0E
$GPGGA,181424.000,3748.7791,N,12217.8218,W,1,08,1.3,3.0,M,-25.1,M,,0000*62
$GPGSA,A,3,20,16,23,32,07,03,08,13,,,,,2.4,1.3,2.1*3E
$GPGSV,3,1,12,23,66,075,31,13,65,342,27,16,44,058,24,07,42,264,36*70
$GPGSV,3,2,12,20,33,178,37,10,31,309,23,08,18,250,30,03,17,107,32*7C
$GPGSV,3,3,12,32,16,160,40,06,14,091,20,04,08,269,30,19,02,133,*7F
$GPRMC,181424.000,A,3748.7791,N,12217.8218,W,2.18,122.33,300611,,,A*7D
$GPVTG,122.33,T,,M,2.18,N,4.0,K,A*03
$GPGGA,181425.000,3748.7788,N,12217.8212,W,2,08,1.3,2.7,M,-25.1,M,,0000*64
$GPGSA,A,3,20,16,23,32,07,03,08,13,,,,,2.4,1.3,2.1*3E
$GPRMC,181425.000,A,3748.7788,N,12217.8212,W,2.05,122.63,300611,,,D*72
$GPVTG,122.63,T,,M,2.05,N,3.8,K,D*00
$GPGGA,181426.000,3748.7785,N,12217.8205,W,2,08,1.3,2.6,M,-25.1,M,,0000*6D
$GPGSA,A,3,20,16,23,32,07,03,08,13,,,,,2.4,1.3,2.1*3E
$GPRMC,181426.000,A,3748.7785,N,12217.8205,W,2.12,124.77,300611,,,D*7F
$GPVTG,124.77,T,,M,2.12,N,3.9,K,D*04
$GPGGA,181427.000,3748.7782,N,12217.8198,W,2,08,1.3,2.5,M,-25.1,M,,0000*6F
$GPGSA,A,3,20,16,23,32,07,03,08,13,,,,,2.4,1.3,2.1*3E
$GPRMC,181427.000,A,3748.7782,N,12217.8198,W,2.22,117.93,300611,,,D*77
$GPVTG,117.93,T,,M,2.22,N,4.1,K,D*02
$GPGGA,181428.000,3748.7779,N,12217.8191,W,2,08,1.3,2.4,M,-25.1,M,2.8,0000*48
$GPGSA,A,3,20,16,23,32,07,03,08,13,,,,,2.4,1.3,2.1*3E
$GPRMC,181428.000,A,3748.7779,N,12217.8191,W,2.31,121.11,300611,,,D*78
$GPVTG,121.11,T,,M,2.31,N,4.3,K,D*0D
$GPGGA,181429.000,3748.7776,N,12217.8183,W,2,08,1.3,2.4,M,-25.1,M,3.8,0000*44
$GPGSA,A,3,20,16,23,32,07,03,08,13,,,,,2.4,1.3,2.1*3E
$GPGSV,3,1,12,23,66,075,31,13,65,342,27,16,44,058,29,07,42,264,36*7D
$GPGSV,3,2,12,20,33,178,39,10,31,309,24,08,18,250,30,03,17,107,32*75
$GPGSV,3,3,12,32,16,160,39,06,14,091,22,04,08,269,30,19,02,133,*73
$GPRMC,181429.000,A,3748.7776,N,12217.8183,W,2.46,118.01,300611,,,D*7E
$GPVTG,118.01,T,,M,2.46,N,4.5,K,D*00
$GPGGA,181430.000,3748.7770,N,12217.8177,W,2,08,1.3,2.8,M,-25.1,M,4.8,0000*4A
$GPGSA,A,3,20,16,23,32,07,03,08,13,,,,,2.4,1.3,2.1*3E
$GPRMC,181430.000,A,3748.7770,N,12217.8177,W,2.32,122.70,300611,,,D*77
$GPVTG,122.70,T,,M,2.32,N,4.3,K,D*0A
$GPGGA,181431.000,3748.7768,N,12217.8169,W,2,08,1.3,2.5,M,-25.1,M,,0000*62
$GPGSA,A,3,20,16,23,32,07,03,08,13,,,,,2.4,1.3,2.1*3E
$GPRMC,181431.000,A,3748.7768,N,12217.8169,W,2.32,120.29,300611,,,D*7E
$GPVTG,120.29,T,,M,2.32,N,4.3,K,D*04
$GPGGA,181432.000,3748.7764,N,12217.8162,W,2,08,1.3,2.6,M,-25.1,M,,0000*65
$GPGSA,A,3,20,16,23,32,07,03,08,13,,,,,2.4,1.3,2.1*3E
$GPRMC,181432.000,A,3748.7764,N,12217.8162,W,2.43,119.77,300611,,,D*7D
$GPVTG,119.77,T,,M,2.43,N,4.5,K,D*05
$GPGGA,181433.000,3748.7762,N,12217.8156,W,2,08,1.3,2.1,M,-25.1,M,,0000*62
$GPGSA,A,3,20,16,23,32,07,03,08,13,,,,,2.4,1.3,2.1*3E
$GPRMC,181433.000,A,3748.7762,N,12217.8156,W,2.21,117.56,300611,,,D*74
$GPVTG,117.56,T,,M,2.21,N,4.1,K,D*08
$GPGGA,181434.000,3748.7758,N,12217.8149,W,2,08,1.3,2.1,M,-25.1,M,2.8,0000*46
$GPGSA,A,3,20,16,23,32,07,03,08,13,,,,,2.4,1.3,2.1*3E
$GPGSV,3,1,12,23,66,075,31,13,65,342,28,16,44,058,26,07,42,264,36*7D
$GPGSV,3,2,12,20,33,178,40,10,31,309,25,08,18,250,34,03,17,107,33*7F
$GPGSV,3,3,12,32,16,160,39,06,14,091,22,04,08,269,30,19,02,133,*73
$GPRMC,181434.000,A,3748.7758,N,12217.8149,W,2.29,127.90,300611,,,D*75
$GPGGA,181435.000,3748.7755,N,12217.8142,W,2,08,1.3,2.1,M,-25.1,M,3.8,0000*40
$GPGSA,A,3,20,16,23,32,07,03,08,13,,,,,2.4,1.3,2.1*3E
$GPRMC,181435.000,A,3748.7755,N,12217.8142,W,2.30,124.51,300611,,,D*74
$GPVTG,124.51,T,,M,2.30,N,4.3,K,D*0D
$GPGGA,181436.000,3748.7751,N,12217.8135,W,2,08,1.3,2.1,M,-25.1,M,4.8,0000*40
$GPGSA,A,3,20,16,23,32,07,03,08,13,,,,,2.4,1.3,2.1*3E
$GPRMC,181436.000,A,3748.7751,N,12217.8135,W,2.28,121.75,300611,,,D*79
$GPVTG,121.75,T,,M,2.28,N,4.2,K,D*06
$GPGGA,181437.000,3748.7748,N,12217.8129,W,2,08,1.3,2.2,M,-25.1,M,,0000*65
$GPGSA,A,3,20,16,23,32,07,03,08,13,,,,,2.4,1.3,2.1*3E
$GPRMC,181437.000,A,3748.7748,N,12217.8129,W,2.19,124.42,300611,,,D*7E
$GPVTG,124.42,T,,M,2.19,N,4.1,K,D*06
$GPGGA,181438.000,3748.7746,N,12217.8123,W,2,08,1.3,1.9,M,-25.1,M,,0000*66
$GPGSA,A,3,20,16,23,32,07,03,08,13,,,,,2.4,1.3,2.1*3E
$GPRMC,181438.000,A,3748.7746,N,12217.8123,W,1.38,116.41,300611,,,D*77
$GPVTG,116.41,T,,M,1.38,N,2.6,K,D*05
$GPGGA,181439.000,3748.7745,N,12217.8119,W,2,08,1.3,1.8,M,-25.1,M,,0000*6C
$GPGSA,A,3,20,16,23,32,07,03,08,13,,,,,2.4,1.3,2.1*3E
$GPGSV,3,1,12,23,66,075,33,13,65,342,28,16,44,058,29,07,42,264,27*70
$GPGSV,3,2,12,20,33,178,40,10,31,309,20,08,18,250,33,03,17,107,36*78
$GPGSV,3,3,12,32,16,160,38,06,14,091,22,04,08,269,26,19,02,133,*75
$GPRMC,181439.000,A,3748.7745,N,12217.8119,W,1.47,118.40,300611,,,D*7B
$GPVTG,118.40,T,,M,1.47,N,2.7,K,D*03
$GPGGA,181440.000,3748.7743,N,12217.8114,W,2,08,1.3,1.6,M,-25.1,M,2.8,0000*43
$GPGSA,A,3,20,16,23,32,07,03,08,13,,,,,2.4,1.3,2.1*3E
$GPRMC,181440.000,A,3748.7743,N,12217.8114,W,1.56,116.15,300611,,,D*70
$GPVTG,116.15,T,,M,1.56,N,2.9,K,D*03
$GPGGA,181441.000,3748.7741,N,12217.8109,W,2,08,1.3,1.4,M,-25.1,M,3.8,0000*4F
$GPGSA,A,3,20,16,23,32,07,03,08,13,,,,,2.4,1.3,2.1*3E
$GPRMC,181441.000,A,3748.7741,N,12217.8109,W,1.72,122.98,300611,,,D*7B
$GPVTG,122.98,T,,M,1.72,N,3.2,K,D*0D
$GPGGA,181442.000,3748.7738,N,12217.8104,W,2,08,1.3,1.3,M,-25.1,M,,0000*6D
$GPGSA,A,3,20,16,23,32,07,03,08,13,,,,,2.4,1.3,2.1*3E
$GPRMC,181442.000,A,3748.7738,N,12217.8104,W,1.85,129.44,300611,,,D*79
$GPVTG,129.44,T,,M,1.85,N,3.4,K,D*09
$GPGGA,181443.000,3748.7735,N,12217.8099,W,2,08,1.3,1.3,M,-25.1,M,,0000*64
$GPGSA,A,3,20,16,23,32,07,03,08,13,,,,,2.4,1.3,2.1*3E
$GPRMC,181443.000,A,3748.7735,N,12217.8099,W,2.16,126.90,300611,,,D*7F
$GPVTG,126.90,T,,M,2.16,N,4.0,K,D*05
$GPGGA,181444.000,3748.7732,N,12217.8092,W,2,08,1.3,1.3,M,-25.1,M,,0000*6F
$GPGSA,A,3,20,16,23,32,07,03,08,13,,,,,2.4,1.3,2.1*3E
$GPGSV,3,1,12,23,66,076,32,13,65,342,28,16,44,058,27,07,42,264,37*7D
$GPGSV,3,2,12,20,33,178,39,10,31,308,26,08,18,250,33,03,17,107,35*72
$GPGSV,3,3,12,32,16,160,38,06,14,091,21,04,08,269,31,19,02,133,*70
$GPRMC,181444.000,A,3748.7732,N,12217.8092,W,2.07,122.16,300611,,,D*7E
$GPVTG,122.16,T,,M,2.07,N,3.8,K,D*00
$GPGGA,181445.000,3748.7729,N,12217.8086,W,2,08,1.3,1.3,M,-25.1,M,,0000*61
$GPGSA,A,3,20,16,23,32,07,03,08,13,,,,,2.4,1.3,2.1*3E
$GPRMC,181445.000,A,3748.7729,N,12217.8086,W,1.94,122.92,300611,,,D*75
$GPVTG,122.92,T,,M,1.94,N,3.6,K,D*0B
$GPGGA,181446.000,3748.7726,N,12217.8081,W,2,08,1.3,1.4,M,-25.1,M,2.8,0000*49
$GPGSA,A,3,20,16,23,32,07,03,08,13,,,,,2.4,1.3,2.1*3E
$GPRMC,181446.000,A,3748.7726,N,12217.8081,W,1.85,120.13,300611,,,D*75
$GPVTG,120.13,T,,M,1.85,N,3.4,K,D*02
$GPGGA,181447.000,3748.7723,N,12217.8075,W,2,08,1.3,1.5,M,-25.1,M,3.8,0000*46
$GPGSA,A,3,20,16,23,32,07,03,08,13,,,,,2.4,1.3,2.1*3E
$GPRMC,181447.000,A,3748.7723,N,12217.8075,W,1.91,125.32,300611,,,D*79
$GPVTG,125.32,T,,M,1.91,N,3.5,K,D*00
$GPGGA,181448.000,3748.7720,N,12217.8069,W,2,08,1.3,1.6,M,-25.1,M,4.8,0000*43
$GPGSA,A,3,20,16,23,32,07,03,08,13,,,,,2.4,1.3,2.1*3E
$GPRMC,181448.000,A,3748.7720,N,12217.8069,W,2.07,127.84,300611,,,D*7B
$GPVTG,127.84,T,,M,2.07,N,3.8,K,D*0E
$GPGGA,181449.000,3748.7717,N,12217.8063,W,2,08,1.3,1.7,M,-25.1,M,,0000*6F
$GPGSA,A,3,20,16,23,32,07,03,08,13,,,,,2.4,1.3,2.1*3E
$GPGSV,3,1,12,23,66,076,32,13,65,342,27,16,44,058,28,07,42,264,36*7C
$GPGSV,3,2,12,20,33,178,39,10,31,308,22,08,18,250,33,03,17,107,34*77
$GPGSV,3,3,12,32,16,160,38,06,14,091,30,04,08,269,30,19,02,133,*71
$GPRMC,181449.000,A,3748.7717,N,12217.8063,W,2.07,120.83,300611,,,D*74
$GPVTG,120.83,T,,M,2.07,N,3.8,K,D*0E
$GPGGA,181450.000,3748.7714,N,12217.8058,W,2,08,1.3,1.8,M,-25.1,M,,0000*63
$GPGSA,A,3,20,16,23,32,07,03,08,13,,,,,2.4,1.3,2.1*3E
$GPRMC,181450.000,A,3748.7714,N,12217.8058,W,1.66,121.06,300611,,,D*7F
$GPVTG,121.06,T,,M,1.66,N,3.1,K,D*0F
$GPGGA,181451.000,3748.7713,N,12217.8054,W,2,08,1.3,1.7,M,-25.1,M,1.8,0000*41
$GPGSA,A,3,20,16,23,32,07,03,08,13,,,,,2.4,1.3,2.1*3E
$GPRMC,181451.000,A,3748.7713,N,12217.8054,W,1.19,116.47,300611,,,D*7C
$GPVTG,116.47,T,,M,1.19,N,2.2,K,D*04
$GPGGA,181452.000,3748.7712,N,12217.8050,W,2,08,1.3,1.6,M,-25.1,M,,0000*61
$GPGSA,A,3,20,16,23,32,07,03,08,13,,,,,2.4,1.3,2.1*3E
$GPRMC,181452.000,A,3748.7712,N,12217.8050,W,1.09,123.14,300611,,,D*7B
$GPVTG,123.14,T,,M,1.09,N,2.0,K,D*07
$GPGGA,181453.000,3748.7710,N,12217.8045,W,2,08,1.3,1.5,M,-25.1,M,,0000*65
$GPGSA,A,3,20,16,23,32,07,03,08,13,,,,,2.4,1.3,2.1*3E
$GPRMC,181453.000,A,3748.7710,N,12217.8045,W,1.39,127.39,300611,,,D*74
$GPVTG,127.39,T,,M,1.39,N,2.6,K,D*09
$GPGGA,181454.000,3748.7707,N,12217.8040,W,2,08,1.3,1.5,M,-25.1,M,,0000*61
$GPGSA,A,3,20,16,23,32,07,03,08,13,,,,,2.4,1.3,2.1*3E
$GPGSV,3,1,12,23,66,076,33,13,65,342,27,16,44,058,24,07,42,264,35*72
$GPGSV,3,2,12,20,33,178,37,10,31,308,22,08,18,250,32,03,17,107,37*7B
$GPGSV,3,3,12,32,16,160,35,06,14,091,27,04,08,269,27,19,02,133,*7C
$GPRMC,181454.000,A,3748.7707,N,12217.8040,W,2.04,130.27,300611,,,D*74
$GPGGA,181455.000,3748.7703,N,12217.8034,W,2,08,1.3,1.6,M,-25.1,M,,0000*64
$GPGSA,A,3,20,16,23,32,07,03,08,13,,,,,2.4,1.3,2.1*3E
$GPRMC,181455.000,A,3748.7703,N,12217.8034,W,2.05,128.53,300611,,,D*79
$GPVTG,128.53,T,,M,2.05,N,3.8,K,D*09
$GPGGA,181456.000,3748.7699,N,12217.8027,W,2,08,1.3,1.7,M,-25.1,M,,0000*66
$GPGSA,A,3,20,16,23,32,07,03,08,13,,,,,2.4,1.3,2.1*3E
$GPRMC,181456.000,A,3748.7699,N,12217.8027,W,2.19,122.50,300611,,,D*7E
$GPVTG,122.50,T,,M,2.19,N,4.1,K,D*03
$GPGGA,181457.000,3748.7695,N,12217.8020,W,2,08,1.3,1.7,M,-25.1,M,,0000*6C
$GPGSA,A,3,20,16,23,32,07,03,08,13,,,,,2.4,1.3,2.1*3E
$GPRMC,181457.000,A,3748.7695,N,12217.8020,W,2.41,121.23,300611,,,D*7E
$GPVTG,121.23,T,,M,2.41,N,4.5,K,D*0D
$GPGGA,181458.000,3748.7692,N,12217.8012,W,2,08,1.3,1.8,M,-25.1,M,,0000*6A
$GPGSA,A,3,20,16,23,32,07,03,08,13,,,,,2.4,1.3,2.1*3E
$GPRMC,181458.000,A,3748.7692,N,12217.8012,W,2.17,120.55,300611,,,D*74
$GPVTG,120.55,T,,M,2.17,N,4.0,K,D*0B
$GPGGA,181459.000,3748.7689,N,12217.8005,W,2,08,1.3,1.9,M,-25.1,M,1.8,0000*41
$GPGSA,A,3,20,16,23,32,07,03,08,13,,,,,2.4,1.3,2.1*3E
$GPGSV,3,1,12,23,66,076,33,13,65,342,27,16,44,058,31,07,42,264,35*76
$GPGSV,3,2,12,20,33,178,38,10,31,308,23,08,18,250,31,03,17,107,37*76
$GPGSV,3,3,12,32,16,160,39,06,14,091,28,04,08,269,28,19,02,133,*70
$GPRMC,181459.000,A,3748.7689,N,12217.8005,W,2.12,117.58,300611,,,D*75
$GPVTG,117.58,T,,M,2.12,N,3.9,K,D*09
$GPGGA,181500.000,3748.7685,N,12217.8000,W,2,08,1.3,2.1,M,-25.1,M,1.8,0000*4E
$GPGSA,A,3,20,16,23,32,07,03,08,13,,,,,2.4,1.3,2.1*3E
$GPRMC,181500.000,A,3748.7685,N,12217.8000,W,2.19,114.83,300611,,,D*7F
$GPVTG,114.83,T,,M,2.19,N,4.1,K,D*08
$GPGGA,181501.000,3748.7681,N,12217.7994,W,2,08,1.3,2.2,M,-25.1,M,1.8,0000*43
$GPGSA,A,3,20,16,23,32,07,03,08,13,,,,,2.4,1.3,2.1*3E
$GPRMC,181501.000,A,3748.7681,N,12217.7994,W,1.97,125.93,300611,,,D*77
$GPVTG,125.93,T,,M,1.97,N,3.7,K,D*0F
$GPGGA,181502.000,3748.7677,N,12217.7989,W,2,08,1.3,2.4,M,-25.1,M,1.8,0000*43
$GPGSA,A,3,20,16,23,32,07,03,08,13,,,,,2.4,1.3,2.1*3E
$GPRMC,181502.000,A,3748.7677,N,12217.7989,W,2.03,125.16,300611,,,D*72
$GPVTG,125.16,T,,M,2.03,N,3.8,K,D*03
$GPGGA,181503.000,3748.7673,N,12217.7984,W,2,08,1.3,2.7,M,-25.1,M,1.8,0000*48
$GPGSA,A,3,20,16,23,32,07,03,08,13,,,,,2.4,1.3,2.1*3E
$GPRMC,181503.000,A,3748.7673,N,12217.7984,W,1.70,121.85,300611,,,D*73
$GPVTG,121.85,T,,M,1.70,N,3.2,K,D*00
$GPGGA,181504.000,3748.7671,N,12217.7979,W,2,08,1.3,2.7,M,-25.1,M,2.8,0000*4C
$GPGSA,A,3,20,16,23,32,07,03,08,13,,,,,2.4,1.3,2.1*3E
$GPGSV,3,1,12,23,66,076,33,13,65,342,27,16,44,058,26,07,42,264,32*77
$GPGSV,3,2,12,20,33,178,38,10,31,308,22,08,18,250,31,03,17,107,36*76
$GPGSV,3,3,12,32,16,160,38,06,14,091,25,04,08,269,28,19,02,133,*7C
$GPRMC,181504.000,A,3748.7671,N,12217.7979,W,1.58,125.61,300611,,,D*70
$GPVTG,125.61,T,,M,1.58,N,2.9,K,D*0E
$GPGGA,181505.000,3748.7668,N,12217.7974,W,2,08,1.3,2.8,M,-25.1,M,3.8,0000*46
$GPGSA,A,3,20,16,23,32,07,03,08,13,,,,,2.5,1.3,2.1*3F
$GPRMC,181505.000,A,3748.7668,N,12217.7974,W,1.70,131.18,300611,,,D*75
$GPVTG,131.18,T,,M,1.70,N,3.1,K,D*06
$GPGGA,181506.000,3748.7665,N,12217.7969,W,2,08,1.3,2.8,M,-25.1,M,4.8,0000*43
$GPGSA,A,3,20,16,23,32,07,03,08,13,,,,,2.5,1.3,2.1*3F
$GPRMC,181506.000,A,3748.7665,N,12217.7969,W,1.85,130.80,300611,,,D*7D
$GPVTG,130.80,T,,M,1.85,N,3.4,K,D*09
$GPGGA,181507.000,3748.7662,N,12217.7964,W,2,08,1.3,2.8,M,-25.1,M,1.8,0000*4D
$GPGSA,A,3,20,16,23,32,07,03,08,13,,,,,2.5,1.3,2.1*3F
$GPRMC,181507.000,A,3748.7662,N,12217.7964,W,2.11,137.61,300611,,,D*70
$GPVTG,137.61,T,,M,2.11,N,3.9,K,D*02
$GPGGA,181508.000,3748.7658,N,12217.7958,W,2,08,1.3,2.9,M,-25.1,M,1.8,0000*45
$GPGSA,A,3,20,16,23,32,07,03,08,13,,,,,2.5,1.3,2.1*3F
$GPRMC,181508.000,A,3748.7658,N,12217.7958,W,2.21,123.79,300611,,,D*76
$GPVTG,123.79,T,,M,2.21,N,4.1,K,D*02
$GPGGA,181509.000,3748.7655,N,12217.7952,W,2,08,1.3,2.8,M,-25.1,M,1.8,0000*42
$GPGSA,A,3,20,16,23,32,07,03,08,13,,,,,2.5,1.3,2.1*3F
$GPGSV,3,1,12,23,66,076,32,13,65,342,27,16,44,058,26,07,42,264,36*72
$GPGSV,3,2,12,20,33,178,38,10,31,308,26,08,18,250,32,03,17,107,31*76
$GPGSV,3,3,12,32,16,160,31,06,14,091,23,04,08,269,33,19,02,133,*79
$GPRMC,181509.000,A,3748.7655,N,12217.7952,W,2.36,120.46,300611,,,D*79
$GPVTG,120.46,T,,M,2.36,N,4.4,K,D*0E
$GPGGA,181510.000,3748.7652,N,12217.7944,W,2,08,1.3,2.7,M,-25.1,M,2.8,0000*46
$GPGSA,A,3,20,16,23,32,07,03,08,13,,,,,2.5,1.3,2.1*3F
$GPRMC,181510.000,A,3748.7652,N,12217.7944,W,2.42,111.55,300611,,,D*72
$GPVTG,111.55,T,,M,2.42,N,4.5,K,D*0C
$GPGGA,181511.000,3748.7650,N,12217.7937,W,2,08,1.3,2.6,M,-25.1,M,3.8,0000*41
$GPGSA,A,3,20,16,23,32,07,03,08,13,,,,,2.5,1.3,2.1*3F
$GPRMC,181511.000,A,3748.7650,N,12217.7937,W,2.30,120.11,300611,,,D*72
$GPVTG,120.11,T,,M,2.30,N,4.3,K,D*0D
$GPGGA,181512.000,3748.7647,N,12217.7930,W,2,08,1.3,2.7,M,-25.1,M,4.8,0000*45
$GPGSA,A,3,20,16,23,32,07,03,08,13,,,,,2.5,1.3,2.1*3F
$GPRMC,181512.000,A,3748.7647,N,12217.7930,W,2.49,123.01,300611,,,D*7C
$GPVTG,123.01,T,,M,2.49,N,4.6,K,D*04
$GPGGA,181513.000,3748.7643,N,12217.7922,W,2,08,1.3,2.5,M,-25.1,M,1.8,0000*44
$GPGSA,A,3,20,16,23,32,07,03,08,13,,,,,2.5,1.3,2.1*3F
$GPRMC,181513.000,A,3748.7643,N,12217.7922,W,2.45,115.78,300611,,,D*7D
$GPVTG,115.78,T,,M,2.45,N,4.5,K,D*00
$GPGGA,181514.000,3748.7641,N,12217.7915,W,2,08,1.3,2.4,M,-25.1,M,1.8,0000*44
$GPGSA,A,3,20,16,23,32,07,03,08,13,,,,,2.5,1.3,2.1*3F
$GPGSV,3,1,12,23,66,076,32,13,65,342,27,16,44,058,26,07,42,264,32*76
$GPGSV,3,2,12,20,33,178,39,10,31,308,23,08,18,250,32,03,17,107,30*73
$GPGSV,3,3,12,32,16,160,28,06,14,091,23,04,08,269,26,19,02,133,*75
$GPVTG,115.31,T,,M,2.08,N,3.9,K,D*0F
$GPGGA,181515.000,3748.7638,N,12217.7909,W,2,08,1.3,2.3,M,-25.1,M,1.8,0000*41
$GPGSA,A,3,20,16,23,32,07,03,08,13,,,,,2.5,1.3,2.1*3F
$GPRMC,181515.000,A,3748.7638,N,12217.7909,W,2.27,116.39,300611,,,D*7C
$GPVTG,116.39,T,,M,2.27,N,4.2,K,D*05
$GPGGA,181516.000,3748.7637,N,12217.7901,W,2,08,1.3,2.0,M,-25.1,M,2.8,0000*45
$GPGSA,A,3,20,16,23,32,07,03,08,13,,,,,2.5,1.3,2.1*3F
$GPRMC,181516.000,A,3748.7637,N,12217.7901,W,1.91,112.96,300611,,,D*77
$GPVTG,112.96,T,,M,1.91,N,3.5,K,D*0A
$GPGGA,181517.000,3748.7635,N,12217.7894,W,2,08,1.3,2.0,M,-25.1,M,3.8,0000*4A
$GPGSA,A,3,20,16,23,32,07,03,08,13,,,,,2.5,1.3,2.1*3F
$GPRMC,181517.000,A,3748.7635,N,12217.7894,W,1.73,113.70,300611,,,D*7C
$GPVTG,113.70,T,,M,1.73,N,3.2,K,D*08
$GPGGA,181518.000,3748.7633,N,12217.7888,W,2,08,1.3,1.7,M,-25.1,M,4.8,0000*4D
$GPGSA,A,3,20,16,23,32,07,03,08,13,,,,,2.5,1.3,2.1*3F
$GPRMC,181518.000,A,3748.7633,N,12217.7888,W,1.71,111.57,300611,,,D*7D
$GPVTG,111.57,T,,M,1.71,N,3.2,K,D*0D
$GPGGA,181519.000,3748.7632,N,12217.7882,W,2,08,1.3,1.4,M,-25.1,M,1.8,0000*41
$GPGSA,A,3,20,16,23,32,07,03,08,13,,,,,2.5,1.3,2.1*3F
$GPGSV,3,1,12,23,66,076,33,13,65,342,28,16,44,058,33,07,42,264,27*78
$GPGSV,3,2,12,20,33,178,36,10,31,308,21,08,18,250,32,03,17,107,26*79
$GPGSV,3,3,12,32,16,160,25,06,14,091,27,04,08,268,22,19,02,132,*78
$GPRMC,181519.000,A,3748.7632,N,12217.7882,W,1.54,120.52,300611,,,D*77
$GPVTG,120.52,T,,M,1.54,N,2.8,K,D*06
$GPGGA,181520.000,3748.7630,N,12217.7877,W,2,08,1.3,1.1,M,-25.1,M,1.8,0000*46
$GPGSA,A,3,20,16,23,32,07,03,08,13,,,,,2.5,1.3,2.1*3F
$GPRMC,181520.000,A,3748.7630,N,12217.7877,W,1.84,131.05,300611,,,D*7A
$GPVTG,131.05,T,,M,1.84,N,3.4,K,D*04
$GPGGA,181521.000,3748.7627,N,12217.7872,W,2,08,1.3,1.1,M,-25.1,M,1.8,0000*44
$GPGSA,A,3,20,16,23,32,07,03,08,13,,,,,2.5,1.3,2.1*3F
$GPRMC,181521.000,A,3748.7627,N,12217.7872,W,1.74,126.84,300611,,,D*78
$GPVTG,126.84,T,,M,1.74,N,3.2,K,D*02
$GPGGA,181522.000,3748.7623,N,12217.7868,W,2,08,1.3,1.7,M,-25.1,M,2.8,0000*4D
$GPGSA,A,3,20,16,23,32,07,03,08,13,,,,,2.5,1.3,2.1*3F
$GPRMC,181522.000,A,3748.7623,N,12217.7868,W,2.13,130.99,300611,,,D*7D
$GPVTG,130.99,T,,M,2.13,N,3.9,K,D*00
$GPGGA,181523.000,3748.7620,N,12217.7862,W,2,08,1.3,1.9,M,-25.1,M,3.8,0000*4A
$GPGSA,A,3,20,16,23,32,07,03,08,13,,,,,2.5,1.3,2.1*3F
