$ADVER,3080,2.3
$GPRMC,215927.713,A,3750.6435,N,12216.2294,W,40.50,169.25,070711,,,A*45
$GPGGA,215928.715,3750.6273,N,12216.2243,W,1,04,3.5,51.1,M,-25.0,M,,0000*55
$GPGSA,A,3,07,11,26,08,,,,,,,,,4.9,3.5,3.5*34
$GPRMC,215928.715,A,3750.6273,N,12216.2243,W,40.82,168.45,070711,,,A*4A
$GPVTG,168.45,T,,M,40.82,N,75.6,K,A*09
$GPGGA,215929.715,3750.6277,N,12216.2212,W,1,04,3.5,52.4,M,-25.0,M,,0000*52
$GPGSA,A,3,07,11,26,08,,,,,,,,,4.9,3.5,3.5*34
$GPRMC,215929.715,A,3750.6277,N,12216.2212,W,41.73,169.23,070711,,,A*45
$GPVTG,169.23,T,,M,41.73,N,77.3,K,A*00
$GPGGA,215930.000,3750.6228,N,12216.2213,W,1,04,3.5,49.0,M,-25.0,M,,0000*5C
$GPGSA,A,3,07,11,26,08,,,,,,,,,4.9,3.5,3.5*34
$GPRMC,215930.000,A,3750.6228,N,12216.2213,W,42.00,168.99,070711,,,A*42
$GPVTG,168.99,T,,M,42.00,N,77.8,K,A*0C
$GPGGA,215931.000,3750.6065,N,12216.2207,W,1,04,3.5,45.6,M,-25.0,M,,0000*59
$GPGSA,A,3,07,11,26,08,,,,,,,,,4.9,3.5,3.5*34
$GPGSV,3,1,11,28,71,339,,08,60,079,27,26,52,291,25,17,41,186,*79
$GPGSV,3,2,11,07,35,106,32,11,21,075,28,19,04,036,,05,03,244,33*79
$GPGSV,3,3,11,15,18,316,,24,12,091,30,27,01,304,*4D
$GPRMC,215931.000,A,3750.6065,N,12216.2207,W,41.48,168.74,070711,,,A*41
$GPVTG,168.74,T,,M,41.48,N,76.8,K,A*01
$GPGGA,215932.000,3750.5905,N,12216.2197,W,1,05,1.6,43.2,M,-25.0,M,,0000*5E
$GPGSA,A,3,07,11,26,08,17,,,,,,,,3.5,1.6,3.1*3C
$GPRMC,215932.000,A,3750.5905,N,12216.2197,W,41.94,169.28,070711,,,A*4D
$GPVTG,169.28,T,,M,41.94,N,77.7,K,A*06
$GPGGA,215933.000,3750.5777,N,12216.2182,W,1,04,3.5,38.6,M,-25.0,M,,0000*58
$GPGSA,A,3,07,11,26,08,,,,,,,,,4.9,3.5,3.5*34
$GPRMC,215933.000,A,3750.5777,N,12216.2182,W,42.34,169.73,070711,,,A*44
$GPVTG,169.73,T,,M,42.34,N,78.4,K,A*0D
$GPGGA,215934.000,3750.5684,N,12216.2144,W,1,03,5.6,41.0,M,-25.0,M,,0000*52
$GPGSA,A,2,07,11,17,,,,,,,,,,5.7,5.6,1.0*32
$GPRMC,215934.000,A,3750.5684,N,12216.2144,W,41.95,169.50,070711,,,A*4D
$GPVTG,169.50,T,,M,41.95,N,77.7,K,N*07
$GPGGA,215935.000,3750.5557,N,12216.2110,W,1,05,1.6,43.3,M,-25.0,M,,0000*5C
$GPGSA,A,3,07,11,26,08,17,,,,,,,,3.5,1.6,3.1*3C
$GPRMC,215935.000,A,3750.5557,N,12216.2110,W,42.90,169.80,070711,,,A*4B
$GPVTG,169.80,T,,M,42.90,N,79.4,K,A*0E
$GPGGA,215936.000,3750.5433,N,12216.2088,W,1,04,2.2,44.1,M,-25.0,M,,0000*5F
$GPGSA,A,3,07,11,26,17,,,,,,,,,7.6,2.2,7.3*32
$GPGSV,3,1,11,28,71,339,,08,60,079,19,26,52,291,19,17,41,186,20*79
$GPGSV,3,2,11,07,35,106,24,11,21,075,18,19,04,036,,05,03,244,28*77
$GPGSV,3,3,11,15,18,316,,24,12,091,21,27,01,304,*4D
$GPRMC,215936.000,A,3750.5433,N,12216.2088,W,43.62,169.93,070711,,,A*45
$GPVTG,169.93,T,,M,43.62,N,80.8,K,A*0A
$GPGGA,215937.000,3750.5314,N,12216.2058,W,1,05,1.6,47.1,M,-25.0,M,,0000*54
$GPGSA,A,3,07,11,26,08,17,,,,,,,,3.5,1.6,3.1*3C
$GPRMC,215937.000,A,3750.5314,N,12216.2058,W,43.01,168.96,070711,,,A*4A
$GPVTG,168.96,T,,M,43.01,N,79.7,K,A*02
$GPGGA,215938.000,3750.5183,N,12216.2044,W,1,05,1.6,42.9,M,-25.0,M,,0000*57
$GPGSA,A,3,07,11,26,08,17,,,,,,,,3.5,1.6,3.1*3C
$GPRMC,215938.000,A,3750.5183,N,12216.2044,W,43.77,170.49,070711,,,A*4E
$GPVTG,170.49,T,,M,43.77,N,81.1,K,A*09
$GPGGA,215939.000,3750.5065,N,12216.2024,W,1,05,1.6,40.7,M,-25.0,M,,0000*55
$GPGSA,A,3,07,11,26,08,17,,,,,,,,3.5,1.6,3.1*3C
$GPRMC,215939.000,A,3750.5065,N,12216.2024,W,44.11,171.36,070711,,,A*4E
$GPVTG,171.36,T,,M,44.11,N,81.7,K,A*01
$GPGGA,215940.000,3750.4956,N,12216.2008,W,1,05,1.6,41.3,M,-25.0,M,,0000*58
$GPGSA,A,3,07,11,26,08,17,,,,,,,,3.5,1.6,3.1*3C
$GPRMC,215940.000,A,3750.4956,N,12216.2008,W,42.62,172.50,070711,,,A*47
$GPVTG,172.50,T,,M,42.62,N,78.9,K,A*08
$GPGGA,215941.000,3750.4848,N,12216.1988,W,1,05,1.6,42.4,M,-25.0,M,,0000*51
$GPGSA,A,3,07,11,26,08,17,,,,,,,,3.5,1.6,3.1*3C
$GPGSV,3,1,11,28,71,339,,08,60,079,20,26,52,291,19,17,41,186,19*79
$GPGSV,3,2,11,07,35,106,23,11,21,075,19,19,04,036,,05,03,244,25*7C
$GPGSV,3,3,11,15,18,316,,24,12,091,22,27,01,304,*4E
$GPVTG,172.20,T,,M,41.70,N,77.2,K,A*0B
$GPGGA,215942.000,3750.4728,N,12216.1970,W,1,05,1.6,44.8,M,-25.0,M,,0000*56
$GPGSA,A,3,07,11,26,08,17,,,,,,,,3.5,1.6,3.1*3C
$GPRMC,215942.000,A,3750.4728,N,12216.1970,W,42.41,171.83,070711,,,A*4B
$GPVTG,171.83,T,,M,42.41,N,78.5,K,A*08
$GPGGA,215943.000,3750.4607,N,12216.1950,W,1,05,1.6,43.7,M,-25.0,M,,0000*51
$GPGSA,A,3,07,11,26,08,17,,,,,,,,3.5,1.6,3.1*3C
$GPRMC,215943.000,A,3750.4607,N,12216.1950,W,42.35,171.23,070711,,,A*4D
$GPVTG,171.23,T,,M,42.35,N,78.4,K,A*00
$GPGGA,215944.000,3750.4497,N,12216.1932,W,1,05,1.6,41.4,M,-25.0,M,,0000*58
$GPGSA,A,3,07,11,26,08,17,,,,,,,,3.5,1.6,3.1*3C
$GPRMC,215944.000,A,3750.4497,N,12216.1932,W,41.66,170.29,070711,,,A*4B
$GPVTG,170.29,T,,M,41.66,N,77.2,K,A*07
$GPGGA,215945.000,3750.4393,N,12216.1905,W,1,05,1.6,41.7,M,-25.0,M,,0000*5D
$GPGSA,A,3,07,11,26,08,17,,,,,,,,3.5,1.6,3.1*3C
$GPRMC,215945.000,A,3750.4393,N,12216.1905,W,40.72,170.33,070711,,,A*42
$GPVTG,170.33,T,,M,40.72,N,75.4,K,A*0C
$GPGGA,215946.000,3750.4288,N,12216.1892,W,1,05,1.6,39.4,M,-25.0,M,,0000*56
$GPGSA,A,3,07,11,26,08,17,,,,,,,,3.5,1.6,3.1*3C
$GPGSV,3,1,11,28,71,339,,08,60,079,20,26,52,291,20,17,41,186,19*73
$GPGSV,3,2,11,07,35,106,23,11,21,075,19,19,04,036,,05,03,244,26*7F
$GPGSV,3,3,11,15,18,316,,24,12,091,14,27,01,304,*4B
$GPRMC,215946.000,A,3750.4288,N,12216.1892,W,40.25,170.86,070711,,,A*49
$GPVTG,170.86,T,,M,40.25,N,74.5,K,A*00
$GPGGA,215947.000,3750.4180,N,12216.1867,W,1,05,1.6,38.1,M,-25.0,M,,0000*52
$GPGSA,A,3,07,11,26,08,17,,,,,,,,3.5,1.6,3.1*3C
$GPRMC,215947.000,A,3750.4180,N,12216.1867,W,40.57,170.42,070711,,,A*44
$GPVTG,170.42,T,,M,40.57,N,75.1,K,A*08
$GPGGA,215948.000,3750.4059,N,12216.1838,W,1,05,1.6,39.4,M,-25.0,M,,0000*56
$GPGSA,A,3,07,11,26,08,17,,,,,,,,3.5,1.6,3.1*3C
$GPRMC,215948.000,A,3750.4059,N,12216.1838,W,41.46,170.01,070711,,,A*42
$GPVTG,170.01,T,,M,41.46,N,76.8,K,A*04
$GPGGA,215949.000,3750.3949,N,12216.1813,W,1,05,1.6,37.0,M,-25.0,M,,0000*5B
$GPGSA,A,3,07,11,26,08,17,,,,,,,,3.5,1.6,3.1*3C
$GPRMC,215949.000,A,3750.3949,N,12216.1813,W,40.52,170.93,070711,,,A*4A
$GPVTG,170.93,T,,M,40.52,N,75.0,K,A*00
$GPGGA,215950.000,3750.3838,N,12216.1784,W,1,05,1.6,38.6,M,-25.0,M,,0000*5C
$GPGSA,A,3,07,11,26,08,17,,,,,,,,3.5,1.6,3.1*3C
$GPRMC,215950.000,A,3750.3838,N,12216.1784,W,40.21,169.52,070711,,,A*45
$GPVTG,169.52,T,,M,40.21,N,74.5,K,A*05
$GPGGA,215951.000,3750.3714,N,12216.1763,W,1,05,1.6,36.9,M,-25.0,M,,0000*54
$GPGSA,A,3,07,11,26,08,17,,,,,,,,3.5,1.6,3.1*3C
$GPGSV,3,1,11,28,71,339,,08,60,079,19,26,52,291,22,17,41,186,19*7B
$GPGSV,3,2,11,07,35,106,22,11,21,075,21,19,04,036,,05,03,244,24*77
$GPGSV,3,3,11,15,18,316,,24,12,091,22,27,01,304,*4E
$GPRMC,215951.000,A,3750.3714,N,12216.1763,W,40.90,169.64,070711,,,A*43
$GPVTG,169.64,T,,M,40.90,N,75.7,K,A*09
$GPGGA,215952.000,3750.3598,N,12216.1740,W,1,05,1.6,37.3,M,-25.0,M,,0000*5B
$GPGSA,A,3,07,11,26,08,17,,,,,,,,3.5,1.6,3.1*3C
$GPRMC,215952.000,A,3750.3598,N,12216.1740,W,41.91,169.00,070711,,,A*45
$GPVTG,169.00,T,,M,41.91,N,77.6,K,A*08
$GPGGA,215953.000,3750.3477,N,12216.1712,W,1,05,1.6,36.1,M,-25.0,M,,0000*5E
$GPGSA,A,3,07,11,26,08,17,,,,,,,,3.5,1.6,3.1*3C
$GPRMC,215953.000,A,3750.3477,N,12216.1712,W,42.20,168.14,070711,,,A*4E
$GPVTG,168.14,T,,M,42.20,N,78.1,K,A*0D
$GPGGA,215954.000,3750.3355,N,12216.1671,W,1,05,1.6,36.1,M,-25.0,M,,0000*5A
$GPGSA,A,3,07,11,26,08,17,,,,,,,,3.5,1.6,3.1*3C
$GPRMC,215954.000,A,3750.3355,N,12216.1671,W,43.88,166.73,070711,,,A*46
$GPVTG,166.73,T,,M,43.88,N,81.3,K,A*05
$GPGGA,215955.000,3750.3228,N,12216.1630,W,1,04,2.3,35.5,M,-25.0,M,,0000*55
$GPGSA,A,3,07,11,26,17,,,,,,,,,7.7,2.3,7.4*35
$GPRMC,215955.000,A,3750.3228,N,12216.1630,W,44.66,165.53,070711,,,A*4F
$GPVTG,165.53,T,,M,44.66,N,82.7,K,A*04
$GPGGA,215956.000,3750.3103,N,12216.1597,W,1,05,1.7,32.8,M,-25.0,M,,0000*5E
$GPGSA,A,3,07,11,26,17,28,,,,,,,,4.2,1.7,3.8*36
$GPGSV,3,1,11,28,71,339,14,08,60,079,18,26,52,291,19,17,41,186,18*76
$GPGSV,3,2,11,07,35,106,22,11,21,075,23,19,04,036,,05,03,244,22*73
$GPGSV,3,3,11,15,18,316,25,24,12,091,18,27,01,304,*40
$GPVTG,165.99,T,,M,44.69,N,82.8,K,A*02
$GPGGA,215957.000,3750.2986,N,12216.1554,W,1,05,1.7,31.3,M,-25.0,M,,0000*5C
$GPGSA,A,3,07,11,26,17,28,,,,,,,,4.2,1.7,3.8*36
$GPRMC,215957.000,A,3750.2986,N,12216.1554,W,43.49,164.19,070711,,,A*47
$GPVTG,164.19,T,,M,43.49,N,80.5,K,A*01
$GPGGA,215958.000,3750.2875,N,12216.1521,W,1,05,3.1,26.5,M,-25.0,M,,0000*58
$GPGSA,A,3,07,11,26,08,28,,,,,,,,4.3,3.1,2.9*3D
$GPRMC,215958.000,A,3750.2875,N,12216.1521,W,42.62,162.69,070711,,,A*4E
$GPVTG,162.69,T,,M,42.62,N,78.9,K,A*03
$GPGGA,215959.000,3750.2782,N,12216.1472,W,1,06,1.5,23.6,M,-25.0,M,,0000*5A
$GPGSA,A,3,07,11,26,08,17,28,,,,,,,3.2,1.5,2.8*3A
$GPRMC,215959.000,A,3750.2782,N,12216.1472,W,41.43,159.72,070711,,,A*4D
$GPVTG,159.72,T,,M,41.43,N,76.7,K,A*01
$GPGGA,220000.000,3750.2687,N,12216.1422,W,1,05,2.0,24.3,M,-25.0,M,,0000*5F
$GPGSA,A,3,07,26,08,17,28,,,,,,,,5.7,2.0,5.3*33
$GPRMC,220000.000,A,3750.2687,N,12216.1422,W,41.09,158.82,070711,,,A*4F
$GPVTG,158.82,T,,M,41.09,N,76.1,K,A*07
$GPGGA,220001.000,3750.2592,N,12216.1370,W,1,05,2.0,23.8,M,-25.0,M,,0000*55
$GPGSA,A,3,07,26,08,17,28,,,,,,,,5.7,2.0,5.3*33
$GPGSV,3,1,11,28,71,339,14,08,60,079,18,26,52,291,20,17,41,186,20*77
$GPGSV,3,2,11,07,35,106,24,11,21,075,15,19,04,036,,05,03,244,22*70
$GPGSV,3,3,11,15,18,316,20,24,12,091,15,27,01,304,*48
$GPRMC,220001.000,A,3750.2592,N,12216.1370,W,41.96,158.42,070711,,,A*43
$GPVTG,158.42,T,,M,41.96,N,77.7,K,A*0A
$GPGGA,220002.000,3750.2497,N,12216.1312,W,1,06,1.5,19.8,M,-25.0,M,,0000*5A
$GPGSA,A,3,07,11,26,08,17,28,,,,,,,3.2,1.5,2.8*3A
$GPRMC,220002.000,A,3750.2497,N,12216.1312,W,41.29,157.27,070711,,,A*48
$GPVTG,157.27,T,,M,41.29,N,76.5,K,A*01
$GPGGA,220003.000,3750.2403,N,12216.1256,W,1,06,1.5,11.2,M,-25.0,M,,0000*55
$GPGSA,A,3,07,11,26,08,17,28,,,,,,,3.2,1.5,2.8*3A
$GPRMC,220003.000,A,3750.2403,N,12216.1256,W,40.62,153.85,070711,,,A*47
$GPVTG,153.85,T,,M,40.62,N,75.2,K,A*07
$GPGGA,220004.000,3750.2314,N,12216.1193,W,1,05,2.0,6.6,M,-25.0,M,,0000*6E
$GPGSA,A,3,07,26,08,17,28,,,,,,,,5.7,2.0,5.3*33
$GPRMC,220004.000,A,3750.2314,N,12216.1193,W,39.38,150.80,070711,,,A*4C
$GPVTG,150.80,T,,M,39.38,N,72.9,K,A*0C
$GPGGA,220005.000,3750.2227,N,12216.1111,W,1,05,1.6,4.2,M,-25.0,M,,0000*67
$GPGSA,A,3,07,11,26,08,17,,,,,,,,3.5,1.6,3.1*3C
$GPRMC,220005.000,A,3750.2227,N,12216.1111,W,39.35,147.11,070711,,,A*45
$GPVTG,147.11,T,,M,39.35,N,72.9,K,A*0F
$GPGGA,220006.000,3750.2132,N,12216.1026,W,1,06,1.5,2.6,M,-25.0,M,,0000*64
$GPGSA,A,3,07,11,26,08,17,28,,,,,,,3.2,1.5,2.8*3A
$GPGSV,3,1,11,28,71,339,14,08,60,079,16,26,52,291,20,17,41,186,27*7E
$GPGSV,3,2,11,07,35,106,21,11,21,075,15,19,04,036,,05,03,244,12*76
$GPGSV,3,3,11,15,18,316,21,24,12,091,20,27,01,304,*4F
$GPRMC,220006.000,A,3750.2132,N,12216.1026,W,40.09,145.38,070711,,,A*4C
$GPVTG,145.38,T,,M,40.09,N,74.3,K,A*0B
$GPGGA,220007.000,3750.2029,N,12216.0955,W,1,05,2.3,1.6,M,-25.0,M,,0000*67
$GPGSA,A,3,07,11,08,17,28,,,,,,,,4.2,2.3,3.5*30
$GPRMC,220007.000,A,3750.2029,N,12216.0955,W,39.57,146.38,070711,,,A*4C
$GPVTG,146.38,T,,M,39.57,N,73.3,K,A*0A
$GPGGA,220008.000,3750.1936,N,12216.0875,W,1,05,2.3,3.5,M,-25.0,M,,0000*6E
$GPGSA,A,3,07,11,08,17,28,,,,,,,,4.2,2.3,3.5*30
$GPRMC,220008.000,A,3750.1936,N,12216.0875,W,39.50,145.54,070711,,,A*4A
$GPVTG,145.54,T,,M,39.50,N,73.2,K,A*05
$GPGGA,220009.000,3750.1840,N,12216.0793,W,1,05,2.3,5.7,M,-25.0,M,,0000*6C
$GPGSA,A,3,07,11,08,17,28,,,,,,,,4.2,2.3,3.5*30
$GPRMC,220009.000,A,3750.1840,N,12216.0793,W,39.82,145.45,070711,,,A*43
$GPVTG,145.45,T,,M,39.82,N,73.7,K,A*0F
$GPGGA,220010.000,3750.1744,N,12216.0711,W,1,06,1.5,7.1,M,-25.0,M,,0000*67
$GPGSA,A,3,07,11,26,08,17,28,,,,,,,3.2,1.5,2.8*3A
$GPRMC,220010.000,A,3750.1744,N,12216.0711,W,40.30,144.92,070711,,,A*46
$GPVTG,144.92,T,,M,40.30,N,74.6,K,A*05
$GPGGA,220011.000,3750.1651,N,12216.0627,W,1,06,1.5,8.5,M,-25.0,M,,0000*6C
$GPGSA,A,3,07,11,26,08,17,28,,,,,,,3.2,1.5,2.8*3A
$GPGSV,3,1,11,28,71,339,14,08,60,079,23,26,52,291,20,17,41,186,25*7A
$GPGSV,3,2,11,07,35,106,21,11,21,075,23,19,04,036,,05,03,244,17*76
$GPGSV,3,3,11,15,18,316,20,24,12,091,17,27,01,304,*4A
$GPVTG,144.27,T,,M,40.61,N,75.2,K,A*0A
$GPGGA,220012.000,3750.1561,N,12216.0535,W,1,06,1.5,9.9,M,-25.0,M,,0000*62
$GPGSA,A,3,07,11,26,08,17,28,,,,,,,3.2,1.5,2.8*3A
$GPRMC,220012.000,A,3750.1561,N,12216.0535,W,39.61,143.68,070711,,,A*4D
$GPVTG,143.68,T,,M,39.61,N,73.4,K,A*08
$GPGGA,220013.000,3750.1471,N,12216.0439,W,1,05,1.6,12.8,M,-25.0,M,,0000*55
$GPGSA,A,3,07,11,26,08,17,,,,,,,,3.5,1.6,3.1*3C
$GPRMC,220013.000,A,3750.1471,N,12216.0439,W,40.17,143.68,070711,,,A*4E
$GPVTG,143.68,T,,M,40.17,N,74.4,K,A*00
$GPGGA,220014.000,3750.1378,N,12216.0350,W,1,05,1.6,14.7,M,-25.0,M,,0000*5D
$GPGSA,A,3,07,11,26,08,17,,,,,,,,3.5,1.6,3.1*3C
$GPRMC,220014.000,A,3750.1378,N,12216.0350,W,39.49,144.88,070711,,,A*43
$GPVTG,144.88,T,,M,39.49,N,73.1,K,A*0E
$GPGGA,220015.000,3750.1282,N,12216.0264,W,1,05,1.6,13.9,M,-25.0,M,,0000*57
$GPGSA,A,3,07,11,26,08,17,,,,,,,,3.5,1.6,3.1*3C
$GPRMC,220015.000,A,3750.1282,N,12216.0264,W,40.43,146.66,070711,,,A*46
$GPVTG,146.66,T,,M,40.43,N,74.9,K,A*07
$GPGGA,220016.000,3750.1174,N,12216.0170,W,1,05,1.6,14.4,M,-25.0,M,,0000*52
$GPGSA,A,3,07,11,26,08,17,,,,,,,,3.5,1.6,3.1*3C
$GPGSV,3,1,11,28,71,339,,08,60,079,20,26,52,291,19,17,41,186,24*77
$GPGSV,3,2,11,07,35,106,28,11,21,075,23,19,04,036,,05,03,244,29*72
$GPGSV,3,3,11,15,18,316,20,24,12,091,21,27,01,304,*4F
$GPRMC,220016.000,A,3750.1174,N,12216.0170,W,41.58,148.81,070711,,,A*45
$GPVTG,148.81,T,,M,41.58,N,77.0,K,A*01
$GPGGA,220017.000,3750.1065,N,12216.0086,W,1,05,1.6,15.9,M,-25.0,M,,0000*56
$GPGSA,A,3,07,11,26,08,17,,,,,,,,3.5,1.6,3.1*3C
$GPRMC,220017.000,A,3750.1065,N,12216.0086,W,41.78,151.33,070711,,,A*4E
$GPVTG,151.33,T,,M,41.78,N,77.4,K,A*06
$GPGGA,220018.000,3750.0962,N,12216.0012,W,1,05,1.6,16.0,M,-25.0,M,,0000*51
$GPGSA,A,3,07,11,26,08,17,,,,,,,,3.5,1.6,3.2*3F
$GPRMC,220018.000,A,3750.0962,N,12216.0012,W,41.59,153.44,070711,,,A*42
$GPVTG,153.44,T,,M,41.59,N,77.0,K,A*03
$GPGGA,220019.000,3750.0866,N,12215.9956,W,1,04,3.4,18.9,M,-25.0,M,,0000*50
$GPGSA,A,3,07,11,26,08,,,,,,,,,4.9,3.4,3.5*35
$GPRMC,220019.000,A,3750.0866,N,12215.9956,W,39.50,155.59,070711,,,A*49
$GPVTG,155.59,T,,M,39.50,N,73.2,K,A*09
$GPGGA,220020.000,3750.0771,N,12215.9921,W,1,03,6.2,17.1,M,-25.0,M,,0000*50
$GPGSA,A,2,07,26,08,,,,,,,,,,6.3,6.2,1.0*38
$GPRMC,220020.000,A,3750.0771,N,12215.9921,W,38.42,158.91,070711,,,A*41
$GPVTG,158.91,T,,M,38.42,N,71.1,K,A*03
$GPGGA,220021.000,3750.0672,N,12215.9873,W,6,00,50.0,17.0,M,-25.0,M,,0000*61
$GPGSA,A,2,,,,,,,,,,,,,50.0,50.0,50.0*06
$GPGSV,3,1,11,28,71,339,,08,60,079,16,26,52,291,20,17,41,186,*7E
$GPGSV,3,2,11,07,35,106,18,11,21,075,16,19,04,036,,05,03,244,22*7C
$GPGSV,3,3,11,15,18,316,20,24,12,091,,27,01,304,*4C
$GPRMC,220021.000,A,3750.0672,N,12215.9873,W,38.42,158.91,070711,,,E*40
$GPVTG,158.91,T,,M,38.42,N,71.1,K,N*0C
$GPGGA,220022.000,3750.0572,N,12215.9824,W,6,00,50.0,16.9,M,-25.0,M,,0000*6B
$GPGSA,A,2,,,,,,,,,,,,,50.0,50.0,50.0*06
$GPRMC,220022.000,A,3750.0572,N,12215.9824,W,38.42,158.91,070711,,,E*42
$GPVTG,158.91,T,,M,38.42,N,71.1,K,N*0C
$GPGGA,220023.000,3750.0472,N,12215.9776,W,6,00,50.0,16.9,M,-25.0,M,,0000*63
$GPGSA,A,2,,,,,,,,,,,,,50.0,50.0,50.0*06
$GPRMC,220023.000,A,3750.0472,N,12215.9776,W,38.42,158.91,070711,,,E*4A
$GPVTG,158.91,T,,M,38.42,N,71.1,K,N*0C
$GPGGA,220024.000,3750.0373,N,12215.9727,W,6,00,50.0,16.8,M,-25.0,M,,0000*67
$GPGSA,A,2,,,,,,,,,,,,,50.0,50.0,50.0*06
$GPRMC,220024.000,A,3750.0373,N,12215.9727,W,38.42,158.91,070711,,,E*4F
$GPVTG,158.91,T,,M,38.42,N,71.1,K,N*0C
$GPGGA,220025.000,3750.0273,N,12215.9679,W,6,00,50.0,16.7,M,-25.0,M,,0000*62
$GPGSA,A,2,,,,,,,,,,,,,50.0,50.0,50.0*06
$GPRMC,220025.000,A,3750.0273,N,12215.9679,W,38.42,158.91,070711,,,E*45
$GPVTG,158.91,T,,M,38.42,N,71.1,K,N*0C
$GPGGA,220026.000,3750.0173,N,12215.9630,W,6,00,50.0,16.6,M,-25.0,M,,0000*6E
$GPGSA,A,2,,,,,,,,,,,,,50.0,50.0,50.0*06
$GPGSV,3,1,11,28,71,339,,08,60,079,,26,52,291,,17,41,186,*7B
$GPGSV,3,2,11,07,35,106,,11,21,075,,19,04,036,,05,03,244,*72
$GPGSV,3,3,11,15,18,316,,24,12,091,,27,01,304,*4E
$GPRMC,220026.000,A,3750.0173,N,12215.9630,W,38.42,158.91,070711,,,E*48
$GPGGA,220027.000,3750.0074,N,12215.9582,W,6,00,50.0,16.5,M,-25.0,M,,0000*60
$GPGSA,A,2,,,,,,,,,,,,,50.0,50.0,50.0*06
$GPRMC,220027.000,A,3750.0074,N,12215.9582,W,38.42,158.91,070711,,,E*45
$GPVTG,158.91,T,,M,38.42,N,71.1,K,N*0C
$GPGGA,220028.000,3749.9974,N,12215.9533,W,6,00,50.0,16.4,M,-25.0,M,,0000*6C
$GPGSA,A,2,,,,,,,,,,,,,50.0,50.0,50.0*06
$GPRMC,220028.000,A,3749.9974,N,12215.9533,W,38.42,158.91,070711,,,E*48
$GPVTG,158.91,T,,M,38.42,N,71.1,K,N*0C
$GPGGA,220029.000,3749.9874,N,12215.9485,W,6,00,50.0,16.4,M,-25.0,M,,0000*60
$GPGSA,A,2,,,,,,,,,,,,,50.0,50.0,50.0*06
$GPRMC,220029.000,A,3749.9874,N,12215.9485,W,38.42,158.91,070711,,,E*44
$GPVTG,158.91,T,,M,38.42,N,71.1,K,N*0C
$GPGGA,220030.000,3749.9775,N,12215.9436,W,6,00,50.0,16.3,M,-25.0,M,,0000*69
$GPGSA,A,2,,,,,,,,,,,,,50.0,50.0,50.0*06
$GPRMC,220030.000,A,3749.9775,N,12215.9436,W,38.42,158.91,070711,,,E*4A
$GPVTG,158.91,T,,M,38.42,N,71.1,K,N*0C
$GPGGA,220031.000,3749.9675,N,12215.9388,W,6,00,50.0,16.2,M,-25.0,M,,0000*6A
$GPGSA,A,2,,,,,,,,,,,,,50.0,50.0,50.0*06
$GPGSV,3,1,11,28,71,339,,08,60,079,,26,52,291,,17,41,186,*7B
$GPGSV,3,2,11,07,35,106,,11,21,075,,19,04,036,,05,03,244,*72
$GPGSV,3,3,11,15,18,316,,24,12,091,,27,01,304,*4E
$GPRMC,220031.000,A,3749.9675,N,12215.9388,W,38.42,158.91,070711,,,E*48
$GPVTG,158.91,T,,M,38.42,N,71.1,K,N*0C
$GPGGA,220032.000,3749.9575,N,12215.9339,W,6,00,50.0,16.1,M,-25.0,M,,0000*63
$GPGSA,A,2,,,,,,,,,,,,,50.0,50.0,50.0*06
$GPRMC,220032.000,A,3749.9575,N,12215.9339,W,38.42,158.91,070711,,,E*42
$GPVTG,158.91,T,,M,38.42,N,71.1,K,N*0C
$GPGGA,220033.000,3749.9476,N,12215.9291,W,6,00,50.0,16.0,M,-25.0,M,,0000*62
$GPGSA,A,2,,,,,,,,,,,,,50.0,50.0,50.0*06
$GPRMC,220033.000,A,3749.9476,N,12215.9291,W,38.42,158.91,070711,,,E*42
$GPVTG,158.91,T,,M,38.42,N,71.1,K,N*0C
$GPGGA,220034.000,3749.9376,N,12215.9243,W,6,00,50.0,15.9,M,-25.0,M,,0000*67
$GPGSA,A,2,,,,,,,,,,,,,50.0,50.0,50.0*06
$GPRMC,220034.000,A,3749.9376,N,12215.9243,W,38.42,158.91,070711,,,E*4D
$GPVTG,158.91,T,,M,38.42,N,71.1,K,N*0C
$GPGGA,220037.000,3749.9151,N,12215.9948,W,1,03,6.2,14.9,M,-25.0,M,,0000*57
$GPGSA,A,2,07,26,08,,,,,,,,,,6.3,6.2,1.0*38
$GPRMC,220037.000,A,3749.9151,N,12215.9948,W,33.78,195.69,070711,,,A*49
$GPVTG,195.69,T,,M,33.78,N,62.6,K,N*0D
$GPGGA,220038.000,3749.8803,N,12216.0012,W,1,03,6.2,13.4,M,-25.0,M,,0000*51
$GPGSA,A,2,07,26,08,,,,,,,,,,6.3,6.2,1.0*38
$GPRMC,220038.000,A,3749.8803,N,12216.0012,W,41.94,192.71,070711,,,A*4C
$GPVTG,192.71,T,,M,41.94,N,77.7,K,N*01
$GPGGA,220039.000,3749.8760,N,12216.0016,W,1,03,6.2,13.6,M,-25.0,M,,0000*5C
$GPGSA,A,2,07,26,08,,,,,,,,,,6.3,6.2,1.0*38
$GPRMC,220039.000,A,3749.8760,N,12216.0016,W,38.10,192.06,070711,,,A*41
$GPVTG,192.06,T,,M,38.10,N,70.6,K,N*05
$GPGGA,220040.000,3749.8657,N,12216.0044,W,6,00,50.0,13.5,M,-25.0,M,,0000*66
$GPGSA,A,2,,,,,,,,,,,,,50.0,50.0,50.0*06
$GPRMC,220040.000,A,3749.8657,N,12216.0044,W,38.10,192.06,070711,,,E*49
$GPVTG,192.06,T,,M,38.10,N,70.6,K,N*05
$GPGGA,220041.000,3749.8588,N,12216.0073,W,1,03,6.2,14.1,M,-25.0,M,,0000*54
$GPGSA,A,2,07,26,08,,,,,,,,,,6.3,6.2,1.0*38
$GPGSV,3,1,11,28,71,339,,08,60,079,20,26,52,291,28,17,41,186,*73
$GPGSV,3,2,11,07,35,106,23,11,21,075,,19,04,036,,05,03,244,*73
$GPGSV,3,3,11,15,18,316,21,24,12,091,,27,01,304,*4D
$GPRMC,220041.000,A,3749.8588,N,12216.0073,W,36.27,193.40,070711,,,A*40
$GPVTG,193.40,T,,M,36.27,N,67.2,K,N*0E
$GPGGA,220042.000,3749.8647,N,12216.0045,W,1,04,3.4,8.1,M,-25.0,M,,0000*6B
$GPGSA,A,3,07,26,08,11,,,,,,,,,4.9,3.4,3.5*35
$GPRMC,220042.000,A,3749.8647,N,12216.0045,W,29.32,191.57,070711,,,A*48
$GPVTG,191.57,T,,M,29.32,N,54.3,K,A*0E
$GPGGA,220043.000,3749.8613,N,12216.0049,W,1,04,3.4,2.8,M,-25.0,M,,0000*64
$GPGSA,A,3,07,26,08,11,,,,,,,,,4.9,3.4,3.5*35
$GPRMC,220043.000,A,3749.8613,N,12216.0049,W,28.70,192.56,070711,,,A*41
$GPVTG,192.56,T,,M,28.70,N,53.1,K,A*0E
$GPGGA,220044.000,3749.8482,N,12216.0085,W,1,05,1.6,11.1,M,-25.0,M,,0000*53
$GPGSA,A,3,07,26,08,11,17,,,,,,,,3.5,1.6,3.2*3F
$GPRMC,220044.000,A,3749.8482,N,12216.0085,W,29.10,192.85,070711,,,A*45
$GPVTG,192.85,T,,M,29.10,N,53.9,K,A*0F
$GPGGA,220045.000,3749.8406,N,12216.0102,W,1,04,3.4,16.7,M,-25.0,M,,0000*50
$GPGSA,A,3,07,26,08,11,,,,,,,,,4.9,3.4,3.5*35
$GPRMC,220045.000,A,3749.8406,N,12216.0102,W,29.25,192.87,070711,,,A*42
$GPVTG,192.87,T,,M,29.25,N,54.2,K,A*07
$GPGGA,220046.000,3749.8327,N,12216.0125,W,6,00,50.0,16.8,M,-25.0,M,,0000*6C
$GPGSA,A,2,,,,,,,,,,,,,50.0,50.0,50.0*06
$GPGSV,3,1,11,28,71,339,,08,60,079,,26,52,291,25,17,41,186,18*75
$GPGSV,3,2,11,07,35,106,25,11,21,075,18,19,04,036,,05,03,244,23*7D
$GPGSV,3,3,11,15,18,316,22,24,12,091,19,27,01,304,*46
$GPRMC,220046.000,A,3749.8327,N,12216.0125,W,29.25,192.87,070711,,,E*44
$GPVTG,192.87,T,,M,29.25,N,54.2,K,N*08
$GPGGA,220047.000,3749.8200,N,12216.0148,W,1,04,2.3,17.4,M,-25.0,M,,0000*58
$GPGSA,A,3,07,26,11,17,,,,,,,,,8.0,2.3,7.7*3E
$GPRMC,220047.000,A,3749.8200,N,12216.0148,W,31.51,189.64,070711,,,A*43
$GPVTG,189.64,T,,M,31.51,N,58.4,K,N*0F
$GPGGA,220048.000,3749.8104,N,12216.0155,W,1,03,1.9,17.4,M,-25.0,M,,0000*52
$GPGSA,A,2,07,26,17,,,,,,,,,,2.2,1.9,1.0*3F
$GPRMC,220048.000,A,3749.8104,N,12216.0155,W,29.94,189.36,070711,,,A*40
$GPVTG,189.36,T,,M,29.94,N,55.4,K,A*0A
$GPGGA,220049.000,3749.8018,N,12216.0161,W,1,03,1.9,17.6,M,-25.0,M,,0000*5A
$GPGSA,A,2,07,26,17,,,,,,,,,,2.2,1.9,1.0*3F
$GPRMC,220049.000,A,3749.8018,N,12216.0161,W,28.84,189.43,070711,,,A*48
$GPVTG,189.43,T,,M,28.84,N,53.4,K,A*0E
$GPGGA,220050.000,3749.7917,N,12216.0182,W,1,04,2.3,19.9,M,-25.0,M,,0000*59
$GPGSA,A,3,07,26,11,17,,,,,,,,,8.1,2.3,7.7*3F
$GPRMC,220050.000,A,3749.7917,N,12216.0182,W,28.74,190.28,070711,,,A*4E
$GPVTG,190.28,T,,M,28.74,N,53.2,K,A*02
$GPGGA,220051.000,3749.7829,N,12216.0204,W,1,04,2.1,17.1,M,-25.0,M,,0000*5D
$GPGSA,A,3,07,26,17,08,,,,,,,,,6.5,2.1,6.2*3B
$GPGSV,3,1,11,28,71,339,15,08,60,079,18,26,52,291,16,17,41,186,16*76
$GPGSV,3,2,11,07,35,106,19,11,21,075,18,19,04,036,,05,03,244,28*79
$GPGSV,3,3,11,15,18,316,23,24,12,091,19,27,01,304,*47
$GPRMC,220051.000,A,3749.7829,N,12216.0204,W,28.45,189.42,070711,,,A*48
$GPVTG,189.42,T,,M,28.45,N,52.7,K,A*00
$GPGGA,220052.000,3749.7753,N,12216.0215,W,1,06,1.5,17.0,M,-25.0,M,,0000*58
$GPGSA,A,3,07,26,28,11,17,08,,,,,,,3.2,1.5,2.8*3A
$GPRMC,220052.000,A,3749.7753,N,12216.0215,W,27.36,188.84,070711,,,A*49
$GPVTG,188.84,T,,M,27.36,N,50.7,K,A*02
$GPGGA,220053.000,3749.7679,N,12216.0230,W,1,05,1.6,14.3,M,-25.0,M,,0000*57
$GPGSA,A,3,07,26,11,17,08,,,,,,,,3.5,1.6,3.2*3F
$GPRMC,220053.000,A,3749.7679,N,12216.0230,W,26.27,188.25,070711,,,A*4C
$GPVTG,188.25,T,,M,26.27,N,48.6,K,A*00
$GPGGA,220054.000,3749.7583,N,12216.0248,W,1,06,1.5,10.3,M,-25.0,M,,0000*5D
$GPGSA,A,3,07,26,28,11,17,08,,,,,,,3.2,1.5,2.8*3A
$GPRMC,220054.000,A,3749.7583,N,12216.0248,W,27.59,187.23,070711,,,A*43
$GPVTG,187.23,T,,M,27.59,N,51.1,K,A*0E
$GPGGA,220055.000,3749.7514,N,12216.0264,W,1,06,1.5,9.6,M,-25.0,M,,0000*61
$GPGSA,A,3,07,26,28,11,17,08,,,,,,,3.2,1.5,2.8*3A
$GPRMC,220055.000,A,3749.7514,N,12216.0264,W,26.15,187.36,070711,,,A*4F
$GPVTG,187.36,T,,M,26.15,N,48.4,K,A*0E
$GPGGA,220056.000,3749.7460,N,12216.0289,W,1,04,3.4,6.1,M,-25.0,M,,0000*6A
$GPGSA,A,3,07,26,11,08,,,,,,,,,4.9,3.4,3.5*35
$GPGSV,3,1,11,28,71,339,14,08,60,079,18,26,52,291,16,17,41,186,16*77
$GPGSV,3,2,11,07,35,106,15,11,21,075,21,19,04,036,,05,03,244,27*70
$GPGSV,3,3,11,15,18,316,20,24,12,091,19,27,01,304,*44
$GPRMC,220056.000,A,3749.7460,N,12216.0289,W,23.71,190.31,070711,,,A*4B
$GPVTG,190.31,T,,M,23.71,N,43.9,K,A*0E
$GPGGA,220057.000,3749.7406,N,12216.0301,W,1,04,7.6,8.7,M,-25.0,M,,0000*64
$GPGSA,A,3,26,28,11,08,,,,,,,,,8.2,7.6,3.2*3E
$GPRMC,220057.000,A,3749.7406,N,12216.0301,W,21.70,191.53,070711,,,A*4D
$GPVTG,191.53,T,,M,21.70,N,40.2,K,A*00
$GPGGA,220058.000,3749.7357,N,12216.0298,W,1,03,9.2,10.9,M,-25.0,M,,0000*53
$GPGSA,A,2,26,28,08,,,,,,,,,,9.3,9.2,1.0*35
$GPRMC,220058.000,A,3749.7357,N,12216.0298,W,19.90,186.02,070711,,,A*47
$GPVTG,186.02,T,,M,19.90,N,36.9,K,A*0D
$GPGGA,220059.000,3749.7326,N,12216.0293,W,1,03,9.2,12.1,M,-25.0,M,,0000*55
$GPGSA,A,2,26,28,08,,,,,,,,,,9.3,9.2,1.0*35
$GPRMC,220059.000,A,3749.7326,N,12216.0293,W,16.51,182.79,070711,,,A*41
$GPVTG,182.79,T,,M,16.51,N,30.6,K,A*0E
$GPGGA,220100.000,3749.7299,N,12216.0285,W,1,03,9.2,12.7,M,-25.0,M,,0000*5C
$GPGSA,A,2,26,28,08,,,,,,,,,,9.3,9.2,1.0*35
$GPRMC,220100.000,A,3749.7299,N,12216.0285,W,14.16,179.08,070711,,,A*4D
$GPVTG,179.08,T,,M,14.16,N,26.2,K,A*0E
$GPGGA,220101.000,3749.7263,N,12216.0263,W,1,03,9.2,12.3,M,-25.0,M,,0000*54
$GPGSA,A,2,26,28,08,,,,,,,,,,9.3,9.2,1.0*35
$GPGSV,3,1,11,28,71,339,14,08,60,079,17,26,52,291,18,17,41,186,16*76
$GPGSV,3,2,11,07,35,106,15,11,21,075,,19,04,036,,05,03,244,20*74
$GPGSV,3,3,11,15,18,316,21,24,12,091,18,27,01,304,*44
$GPRMC,220101.000,A,3749.7263,N,12216.0263,W,12.71,170.67,070711,,,A*46
$GPVTG,170.67,T,,M,12.71,N,23.5,K,A*0B
$GPGGA,220102.000,3749.7301,N,12216.0262,W,1,03,3.3,11.7,M,-25.0,M,,0000*5F
$GPGSA,A,2,26,28,17,,,,,,,,,,3.4,3.3,1.0*3D
$GPRMC,220102.000,A,3749.7301,N,12216.0262,W,7.27,175.43,070711,,,A*75
$GPVTG,175.43,T,,M,7.27,N,13.5,K,A*3C
$GPGGA,220103.000,3749.7281,N,12216.0260,W,6,00,50.0,11.7,M,-25.0,M,,0000*64
$GPGSA,A,2,,,,,,,,,,,,,50.0,50.0,50.0*06
$GPRMC,220103.000,A,3749.7281,N,12216.0260,W,7.27,175.43,070711,,,E*7B
$GPVTG,175.43,T,,M,7.27,N,13.5,K,N*33
$GPGGA,220104.000,3749.7261,N,12216.0258,W,6,00,50.0,11.7,M,-25.0,M,,0000*66
$GPGSA,A,2,,,,,,,,,,,,,50.0,50.0,50.0*06
$GPRMC,220104.000,A,3749.7261,N,12216.0258,W,7.27,175.43,070711,,,E*79
$GPVTG,175.43,T,,M,7.27,N,13.5,K,N*33
$GPGGA,220105.000,3749.7260,N,12216.0349,W,1,03,3.2,10.7,M,-25.0,M,,0000*56
$GPGSA,A,2,26,28,17,,,,,,,,,,3.4,3.2,1.0*3C
$GPRMC,220105.000,A,3749.7260,N,12216.0349,W,8.88,236.15,070711,,,A*71
$GPVTG,236.15,T,,M,8.88,N,16.4,K,N*3A
$GPGGA,220106.000,3749.7246,N,12216.0375,W,6,00,50.0,10.7,M,-25.0,M,,0000*6E
$GPGSA,A,2,,,,,,,,,,,,,50.0,50.0,50.0*06
$GPGSV,3,1,11,28,71,339,15,08,60,079,,26,52,291,21,17,41,186,16*7B
$GPGSV,3,2,11,07,35,106,15,11,21,075,,19,04,036,,05,03,244,19*7E
$GPGSV,3,3,11,15,18,316,21,24,12,091,17,27,01,304,*4B
$GPRMC,220106.000,A,3749.7246,N,12216.0375,W,8.88,236.15,070711,,,E*7D
$GPVTG,236.15,T,,M,8.88,N,16.4,K,N*3A
$GPGGA,220107.000,3749.7192,N,12216.0528,W,1,03,1.9,13.8,M,-25.0,M,,0000*5E
$GPGSA,A,2,07,26,17,,,,,,,,,,2.2,1.9,1.0*3F
$GPRMC,220107.000,A,3749.7192,N,12216.0528,W,17.95,243.20,070711,,,A*4A
$GPVTG,243.20,T,,M,17.95,N,33.2,K,N*0D
$GPGGA,220108.000,3749.7185,N,12216.0475,W,1,04,2.1,14.0,M,-25.0,M,,0000*5D
$GPGSA,A,3,07,26,08,17,,,,,,,,,6.5,2.1,6.2*3B
$GPRMC,220108.000,A,3749.7185,N,12216.0475,W,9.34,215.54,070711,,,A*7E
$GPVTG,215.54,T,,M,9.34,N,17.3,K,A*31
$GPGGA,220109.000,3749.7192,N,12216.0427,W,1,06,1.5,16.3,M,-25.0,M,,0000*59
$GPGSA,A,3,07,26,28,08,17,11,,,,,,,3.2,1.5,2.8*3A
$GPRMC,220109.000,A,3749.7192,N,12216.0427,W,6.37,185.53,070711,,,A*7F
$GPVTG,185.53,T,,M,6.37,N,11.8,K,A*3D
$GPGGA,220110.000,3749.7186,N,12216.0415,W,1,05,1.8,16.4,M,-25.0,M,,0000*5C
$GPGSA,A,3,07,26,28,17,11,,,,,,,,4.2,1.8,3.8*39
$GPRMC,220110.000,A,3749.7186,N,12216.0415,W,5.10,182.70,070711,,,A*73
$GPVTG,182.70,T,,M,5.10,N,9.4,K,A*08
$GPGGA,220111.000,3749.7180,N,12216.0410,W,1,04,2.9,18.9,M,-25.0,M,,0000*5E
$GPGSA,A,3,07,28,17,11,,,,,,,,,6.0,2.9,5.3*32
$GPGSV,3,1,11,28,71,339,14,08,60,079,,26,52,291,19,17,41,186,15*72
$GPGSV,3,2,11,07,35,106,30,11,21,075,25,19,04,036,,05,03,244,23*77
$GPGSV,3,3,11,15,18,316,20,24,12,091,24,27,01,304,*4A
$GPRMC,220111.000,A,3749.7180,N,12216.0410,W,4.06,169.60,070711,,,A*73
$GPVTG,169.60,T,,M,4.06,N,7.5,K,A*05
$GPGGA,220112.000,3749.7171,N,12216.0400,W,1,06,1.5,20.7,M,-25.0,M,,0000*5A
$GPGSA,A,3,07,26,28,08,17,11,,,,,,,3.2,1.5,2.8*3A
$GPRMC,220112.000,A,3749.7171,N,12216.0400,W,3.26,150.00,070711,,,A*76
$GPVTG,150.00,T,,M,3.26,N,6.0,K,A*08
$GPGGA,220113.000,3749.7167,N,12216.0397,W,1,05,1.6,18.8,M,-25.0,M,,0000*51
$GPGSA,A,3,07,26,08,17,11,,,,,,,,3.6,1.6,3.2*3C
$GPRMC,220113.000,A,3749.7167,N,12216.0397,W,1.82,125.30,070711,,,A*74
$GPVTG,125.30,T,,M,1.82,N,3.4,K,A*04
$GPGGA,220114.000,3749.7168,N,12216.0388,W,1,05,1.6,16.3,M,-25.0,M,,0000*52
$GPGSA,A,3,07,26,08,17,11,,,,,,,,3.6,1.6,3.2*3C
$GPRMC,220114.000,A,3749.7168,N,12216.0388,W,1.38,87.59,070711,,,A*45
$GPVTG,87.59,T,,M,1.38,N,2.6,K,A*30
$GPGGA,220115.000,3749.7167,N,12216.0385,W,1,05,1.6,12.4,M,-25.0,M,,0000*52
$GPGSA,A,3,07,26,08,17,11,,,,,,,,3.6,1.6,3.2*3C
$GPRMC,220115.000,A,3749.7167,N,12216.0385,W,1.58,51.31,070711,,,A*45
$GPVTG,51.31,T,,M,1.58,N,2.9,K,A*3C
$GPGGA,220116.000,3749.7169,N,12216.0379,W,1,05,1.6,12.0,M,-25.0,M,,0000*58
$GPGSA,A,3,07,26,08,17,11,,,,,,,,3.6,1.6,3.2*3C
$GPGSV,3,1,11,28,71,339,,08,60,079,23,26,52,291,17,17,41,186,16*7B
$GPGSV,3,2,11,07,35,106,29,11,21,075,20,19,04,036,,05,03,244,23*7A
$GPGSV,3,3,11,15,18,316,21,24,12,091,23,27,01,304,*4C
$GPRMC,220116.000,A,3749.7169,N,12216.0379,W,1.20,27.98,070711,,,A*46
$GPVTG,27.98,T,,M,1.20,N,2.2,K,A*3A
$GPGGA,220117.000,3749.7155,N,12216.0381,W,1,05,1.6,10.4,M,-25.0,M,,0000*57
$GPGSA,A,3,07,26,08,17,11,,,,,,,,3.6,1.6,3.2*3C
$GPRMC,220117.000,A,3749.7155,N,12216.0381,W,0.50,206.87,070711,,,A*76
$GPVTG,206.87,T,,M,0.50,N,0.9,K,A*0A
$GPGGA,220118.000,3749.7143,N,12216.0384,W,1,05,1.6,7.8,M,-25.0,M,,0000*60
$GPGSA,A,3,07,26,08,17,11,,,,,,,,3.6,1.6,3.2*3C
$GPRMC,220118.000,A,3749.7143,N,12216.0384,W,1.42,211.35,070711,,,A*76
$GPVTG,211.35,T,,M,1.42,N,2.6,K,A*0A
$GPGGA,220119.000,3749.7142,N,12216.0385,W,1,05,1.6,3.8,M,-25.0,M,,0000*65
$GPGSA,A,3,07,26,08,17,11,,,,,,,,3.6,1.6,3.2*3C
$GPRMC,220119.000,A,3749.7142,N,12216.0385,W,0.94,257.33,070711,,,A*79
$GPVTG,257.33,T,,M,0.94,N,1.7,K,A*06
$GPGGA,220120.000,3749.7148,N,12216.0382,W,1,04,4.0,1.3,M,-25.0,M,,0000*69
$GPGSA,A,3,07,08,17,11,,,,,,,,,5.3,4.0,3.5*3F
$GPRMC,220120.000,A,3749.7148,N,12216.0382,W,0.33,340.25,070711,,,A*73
$GPVTG,340.25,T,,M,0.33,N,0.6,K,A*0B
$GPGGA,220121.000,3749.7153,N,12216.0377,W,1,04,4.0,0.5,M,-25.0,M,,0000*6F
$GPGSA,A,3,07,08,17,11,,,,,,,,,5.3,4.0,3.5*3F
$GPGSV,3,1,11,28,71,339,,08,60,079,23,26,52,291,,17,41,186,16*7D
$GPGSV,3,2,11,07,35,106,28,11,21,075,22,19,04,036,,05,03,244,23*79
$GPGSV,3,3,11,15,18,316,20,24,12,091,24,27,01,304,*4A
$GPRMC,220121.000,A,3749.7153,N,12216.0377,W,0.84,37.22,070711,,,A*4A
$GPVTG,37.22,T,,M,0.84,N,1.6,K,A*32
$GPGGA,220122.000,3749.7150,N,12216.0371,W,1,03,4.6,0.6,M,-25.0,M,,0000*6B
$GPGSA,A,2,07,08,11,,,,,,,,,,4.7,4.6,1.0*3C
$GPRMC,220122.000,A,3749.7150,N,12216.0371,W,0.88,64.33,070711,,,A*46
$GPVTG,64.33,T,,M,0.88,N,1.6,K,A*38
$GPGGA,220123.000,3749.7148,N,12216.0366,W,1,03,4.6,-0.7,M,-25.0,M,,0000*49
$GPGSA,A,2,07,08,11,,,,,,,,,,4.7,4.6,1.0*3C
$GPRMC,220123.000,A,3749.7148,N,12216.0366,W,1.00,84.45,070711,,,A*46
$GPVTG,84.45,T,,M,1.00,N,1.8,K,A*38
$GPGGA,220124.000,3749.7144,N,12216.0363,W,1,04,4.0,-0.8,M,-25.0,M,,0000*49
$GPGSA,A,3,07,08,17,11,,,,,,,,,5.3,4.0,3.5*3F
$GPRMC,220124.000,A,3749.7144,N,12216.0363,W,0.83,138.21,070711,,,A*76
$GPVTG,138.21,T,,M,0.83,N,1.5,K,A*0B
$GPGGA,220125.000,3749.7137,N,12216.0357,W,1,04,4.0,-0.1,M,-25.0,M,,0000*42
$GPGSA,A,3,07,08,17,11,,,,,,,,,5.3,4.0,3.5*3F
$GPRMC,220125.000,A,3749.7137,N,12216.0357,W,2.09,166.59,070711,,,A*70
$GPVTG,166.59,T,,M,2.09,N,3.9,K,A*01
$GPGGA,220126.000,3749.7131,N,12216.0356,W,1,03,5.1,-0.2,M,-25.0,M,,0000*42
$GPGSA,A,2,07,17,11,,,,,,,,,,5.2,5.1,1.0*30
$GPGSV,3,1,11,28,71,339,,08,60,079,,26,52,291,,17,41,186,16*7C
$GPGSV,3,2,11,07,35,106,29,11,21,075,22,19,04,036,,05,03,244,19*71
$GPGSV,3,3,11,15,18,316,15,24,12,091,25,27,01,304,*4D
$GPRMC,220126.000,A,3749.7131,N,12216.0356,W,1.75,156.95,070711,,,A*7F
$GPVTG,156.95,T,,M,1.75,N,3.2,K,N*0E
$GPGGA,220127.000,3749.7131,N,12216.0351,W,1,03,5.1,-0.7,M,-25.0,M,,0000*41
$GPGSA,A,2,07,17,11,,,,,,,,,,5.2,5.1,1.0*30
$GPRMC,220127.000,A,3749.7131,N,12216.0351,W,1.09,144.57,070711,,,A*7F
$GPVTG,144.57,T,,M,1.09,N,2.0,K,N*0B
$GPGGA,220128.000,3749.7134,N,12216.0357,W,1,03,4.6,0.5,M,-25.0,M,,0000*64
$GPGSA,A,2,07,08,11,,,,,,,,,,4.7,4.6,1.0*3C
$GPRMC,220128.000,A,3749.7134,N,12216.0357,W,0.62,215.84,070711,,,A*76
$GPVTG,215.84,T,,M,0.62,N,1.2,K,A*00
$GPGGA,220129.000,3749.7136,N,12216.0362,W,1,03,4.6,0.9,M,-25.0,M,,0000*6D
$GPGSA,A,2,07,08,11,,,,,,,,,,4.7,4.6,1.0*3C
$GPRMC,220129.000,A,3749.7136,N,12216.0362,W,1.18,217.30,070711,,,A*72
$GPVTG,217.30,T,,M,1.18,N,2.2,K,A*02
$GPGGA,220130.000,3749.7146,N,12216.0379,W,1,03,4.6,1.7,M,-25.0,M,,0000*67
$GPGSA,A,2,07,08,11,,,,,,,,,,4.7,4.6,1.0*3C
$GPRMC,220130.000,A,3749.7146,N,12216.0379,W,1.68,254.68,070711,,,A*7A
$GPVTG,254.68,T,,M,1.68,N,3.1,K,A*0D
$GPGGA,220131.000,3749.7153,N,12216.0395,W,1,03,4.6,1.2,M,-25.0,M,,0000*65
$GPGSA,A,2,07,08,11,,,,,,,,,,4.7,4.6,1.0*3C
$GPGSV,3,1,11,28,71,339,,08,60,079,19,26,52,291,,17,41,186,16*74
$GPGSV,3,2,11,07,35,106,29,11,21,075,23,19,04,036,,05,03,244,20*7A
$GPGSV,3,3,11,15,18,316,25,24,12,091,,27,01,304,*49
$GPVTG,256.97,T,,M,2.15,N,4.0,K,A*00
$GPGGA,220132.000,3749.7164,N,12216.0422,W,1,05,1.6,-0.9,M,-25.0,M,,0000*4D
$GPGSA,A,3,07,08,26,17,11,,,,,,,,3.6,1.6,3.2*3C
$GPRMC,220132.000,A,3749.7164,N,12216.0422,W,1.44,255.46,070711,,,A*72
$GPVTG,255.46,T,,M,1.44,N,2.7,K,A*09
$GPGGA,220133.000,3749.7183,N,12216.0450,W,1,05,1.6,-3.2,M,-25.0,M,,0000*48
$GPGSA,A,3,07,08,26,17,11,,,,,,,,3.6,1.6,3.2*3C
$GPRMC,220133.000,A,3749.7183,N,12216.0450,W,1.01,263.00,070711,,,A*79
$GPVTG,263.00,T,,M,1.01,N,1.9,K,A*02
$GPGGA,220134.000,3749.7180,N,12216.0449,W,1,04,2.4,-2.4,M,-25.0,M,,0000*43
$GPGSA,A,3,07,26,17,11,,,,,,,,,8.3,2.4,8.0*32
$GPRMC,220134.000,A,3749.7180,N,12216.0449,W,0.31,335.51,070711,,,A*71
$GPVTG,335.51,T,,M,0.31,N,0.6,K,A*08
$GPGGA,220135.000,3749.7185,N,12216.0449,W,1,05,1.6,-2.0,M,-25.0,M,,0000*43
$GPGSA,A,3,07,08,26,17,11,,,,,,,,3.6,1.6,3.2*3C
$GPRMC,220135.000,A,3749.7185,N,12216.0449,W,0.66,342.48,070711,,,A*7F
$GPVTG,342.48,T,,M,0.66,N,1.2,K,A*07
$GPGGA,220136.000,3749.7179,N,12216.0448,W,1,06,1.5,-0.3,M,-25.0,M,,0000*43
$GPGSA,A,3,07,28,08,26,17,11,,,,,,,3.2,1.5,2.8*3A
$GPGSV,3,1,11,28,71,339,14,08,60,079,18,26,52,291,24,17,41,186,15*75
$GPGSV,3,2,11,07,35,106,28,11,21,075,22,19,04,036,,05,03,244,21*7B
$GPGSV,3,3,11,15,18,316,25,24,12,091,28,27,01,304,*43
$GPRMC,220136.000,A,3749.7179,N,12216.0448,W,0.62,29.69,070711,,,A*47
$GPVTG,29.69,T,,M,0.62,N,1.1,K,A*3D
$GPGGA,220137.000,3749.7174,N,12216.0443,W,1,04,2.4,0.6,M,-25.0,M,,0000*6C
$GPGSA,A,3,07,26,17,11,,,,,,,,,8.4,2.4,8.0*35
$GPRMC,220137.000,A,3749.7174,N,12216.0443,W,0.77,20.98,070711,,,A*43
$GPVTG,20.98,T,,M,0.77,N,1.4,K,A*3B
$GPGGA,220138.000,3749.7172,N,12216.0441,W,1,03,3.0,0.9,M,-25.0,M,,0000*6A
$GPGSA,A,2,07,26,11,,,,,,,,,,3.2,3.0,1.0*33
$GPRMC,220138.000,A,3749.7172,N,12216.0441,W,0.22,181.61,070711,,,A*74
$GPVTG,181.61,T,,M,0.22,N,0.4,K,A*06
$GPGGA,220139.000,3749.7170,N,12216.0439,W,1,03,3.0,1.0,M,-25.0,M,,0000*6E
$GPGSA,A,2,07,26,11,,,,,,,,,,3.2,3.0,1.0*33
$GPRMC,220139.000,A,3749.7170,N,12216.0439,W,0.33,138.71,070711,,,A*7B
$GPVTG,138.71,T,,M,0.33,N,0.6,K,A*07
$GPGGA,220140.000,3749.7168,N,12216.0439,W,1,04,2.4,1.6,M,-25.0,M,,0000*6D
$GPGSA,A,3,07,26,17,11,,,,,,,,,8.4,2.4,8.0*35
$GPRMC,220140.000,A,3749.7168,N,12216.0439,W,1.25,205.21,070711,,,A*72
$GPVTG,205.21,T,,M,1.25,N,2.3,K,A*0E
$GPGGA,220141.000,3749.7169,N,12216.0445,W,1,04,2.4,1.5,M,-25.0,M,,0000*65
$GPGSA,A,3,07,26,17,11,,,,,,,,,8.4,2.4,8.0*35
$GPGSV,3,1,11,28,71,339,14,08,60,079,,26,52,291,24,17,41,186,21*7B
$GPGSV,3,2,11,07,35,106,23,11,21,075,22,19,04,036,,05,03,244,21*70
$GPGSV,3,3,11,15,18,316,24,24,12,091,22,27,01,304,*48
$GPRMC,220141.000,A,3749.7169,N,12216.0445,W,1.06,250.87,070711,,,A*74
$GPVTG,250.87,T,,M,1.06,N,2.0,K,A*00
$GPGGA,220142.000,3749.7170,N,12216.0445,W,1,04,2.4,1.4,M,-25.0,M,,0000*6F
$GPGSA,A,3,07,26,17,11,,,,,,,,,8.4,2.4,8.0*35
$GPRMC,220142.000,A,3749.7170,N,12216.0445,W,0.35,287.99,070711,,,A*7B
$GPVTG,287.99,T,,M,0.35,N,0.7,K,A*01
$GPGGA,220143.000,3749.7165,N,12216.0438,W,1,03,3.0,2.3,M,-25.0,M,,0000*66
$GPGSA,A,2,07,26,11,,,,,,,,,,3.2,3.0,1.0*33
$GPRMC,220143.000,A,3749.7165,N,12216.0438,W,1.23,106.47,070711,,,A*7B
$GPVTG,106.47,T,,M,1.23,N,2.3,K,A*08
$GPGGA,220144.000,3749.7156,N,12216.0425,W,1,03,3.0,3.0,M,-25.0,M,,0000*6F
$GPGSA,A,2,07,26,11,,,,,,,,,,3.2,3.0,1.0*33
$GPRMC,220144.000,A,3749.7156,N,12216.0425,W,2.42,127.15,070711,,,A*70
$GPVTG,127.15,T,,M,2.42,N,4.5,K,A*08
$GPGGA,220145.000,3749.7149,N,12216.0412,W,1,04,3.1,5.7,M,-25.0,M,,0000*63
$GPGSA,A,3,07,28,26,11,,,,,,,,,5.1,3.1,4.0*39
$GPRMC,220145.000,A,3749.7149,N,12216.0412,W,3.10,119.51,070711,,,A*70
$GPVTG,119.51,T,,M,3.10,N,5.7,K,A*00
$GPGGA,220146.000,3749.7138,N,12216.0405,W,1,03,3.0,7.1,M,-25.0,M,,0000*62
$GPGSA,A,2,07,26,11,,,,,,,,,,3.2,3.0,1.0*33
$GPGSV,3,1,11,28,71,339,,08,60,079,,26,52,291,18,17,41,186,17*74
$GPGSV,3,2,11,07,35,106,25,11,21,075,19,19,04,036,,05,03,244,17*7B
$GPGSV,3,3,11,15,18,316,14,24,12,091,17,27,01,304,*4D
$GPRMC,220146.000,A,3749.7138,N,12216.0405,W,2.48,145.74,070711,,,A*71
$GPGGA,220147.000,3749.7143,N,12216.0393,W,1,04,2.4,9.3,M,-25.0,M,,0000*69
$GPGSA,A,3,07,26,17,11,,,,,,,,,8.4,2.4,8.1*34
$GPRMC,220147.000,A,3749.7143,N,12216.0393,W,2.01,123.21,070711,,,A*79
$GPVTG,123.21,T,,M,2.01,N,3.7,K,A*09
$GPGGA,220148.000,3749.7155,N,12216.0385,W,1,04,2.4,11.0,M,-25.0,M,,0000*5C
$GPGSA,A,3,07,26,17,11,,,,,,,,,8.4,2.4,8.1*34
$GPRMC,220148.000,A,3749.7155,N,12216.0385,W,1.68,74.78,070711,,,A*45
$GPVTG,74.78,T,,M,1.68,N,3.1,K,A*3C
$GPGGA,220149.000,3749.7168,N,12216.0375,W,1,04,2.4,12.1,M,-25.0,M,,0000*5E
$GPGSA,A,3,07,26,17,11,,,,,,,,,8.4,2.4,8.1*34
$GPRMC,220149.000,A,3749.7168,N,12216.0375,W,3.25,36.70,070711,,,A*40
$GPVTG,36.70,T,,M,3.25,N,6.0,K,A*3D
$GPGGA,220150.000,3749.7179,N,12216.0362,W,1,03,5.0,14.7,M,-25.0,M,,0000*54
$GPGSA,A,2,07,17,11,,,,,,,,,,5.1,5.0,1.0*32
$GPRMC,220150.000,A,3749.7179,N,12216.0362,W,4.06,28.64,070711,,,A*42
$GPVTG,28.64,T,,M,4.06,N,7.5,K,A*35
$GPGGA,220151.000,3749.7192,N,12216.0354,W,1,03,5.0,15.6,M,-25.0,M,,0000*55
$GPGSA,A,2,07,17,11,,,,,,,,,,5.1,5.0,1.0*32
$GPGSV,3,1,11,28,71,339,,08,60,079,,26,52,291,18,17,41,186,16*75
$GPGSV,3,2,11,07,35,106,24,11,21,075,18,19,04,036,,05,03,244,15*79
$GPGSV,3,3,11,15,18,316,12,24,12,091,15,27,01,304,*49
$GPRMC,220151.000,A,3749.7192,N,12216.0354,W,3.73,20.96,070711,,,A*43
$GPVTG,20.96,T,,M,3.73,N,6.9,K,A*38
$GPGGA,220152.000,3749.7202,N,12216.0349,W,6,00,50.0,16.1,M,-25.0,M,,0000*60
$GPGSA,A,2,,,,,,,,,,,,,50.0,50.0,50.0*06
$GPRMC,220152.000,A,3749.7202,N,12216.0349,W,3.73,20.96,070711,,,E*42
$GPVTG,20.96,T,,M,3.73,N,6.9,K,N*37
$GPGGA,220153.000,3749.7213,N,12216.0331,W,1,03,5.0,18.0,M,-25.0,M,,0000*55
$GPGSA,A,2,07,17,11,,,,,,,,,,5.1,5.0,1.0*32
$GPRMC,220153.000,A,3749.7213,N,12216.0331,W,4.59,34.49,070711,,,A*40
$GPVTG,34.49,T,,M,4.59,N,8.5,K,N*3D
$GPGGA,220154.000,3749.7220,N,12216.0301,W,1,03,5.0,19.3,M,-25.0,M,,0000*53
$GPGSA,A,2,07,17,11,,,,,,,,,,5.1,5.0,1.0*32
$GPRMC,220154.000,A,3749.7220,N,12216.0301,W,4.98,63.16,070711,,,A*41
$GPVTG,63.16,T,,M,4.98,N,9.2,K,N*3E
$GPGGA,220155.000,3749.7226,N,12216.0269,W,1,03,5.0,19.9,M,-25.0,M,,0000*51
$GPGSA,A,2,07,17,11,,,,,,,,,,5.1,5.0,1.0*32
$GPRMC,220155.000,A,3749.7226,N,12216.0269,W,6.34,78.35,070711,,,A*46
$GPVTG,78.35,T,,M,6.34,N,11.7,K,N*0D
$GPGGA,220156.000,3749.7223,N,12216.0244,W,1,03,5.0,19.9,M,-25.0,M,,0000*58
$GPGSA,A,2,07,17,11,,,,,,,,,,5.1,5.0,1.0*32
$GPGSV,3,1,11,28,71,339,,08,60,079,,26,52,291,,17,41,186,15*7F
$GPGSV,3,2,11,07,35,106,25,11,21,075,17,19,04,036,,05,03,244,13*71
$GPGSV,3,3,11,15,18,316,,24,12,091,15,27,01,304,*4A
$GPVTG,94.02,T,,M,6.94,N,12.9,K,N*0C
$GPGGA,220157.000,3749.7208,N,12216.0257,W,1,03,5.0,19.0,M,-25.0,M,,0000*5B
$GPGSA,A,2,07,17,11,,,,,,,,,,5.1,5.0,1.0*32
$GPRMC,220157.000,A,3749.7208,N,12216.0257,W,5.77,128.21,070711,,,A*70
$GPVTG,128.21,T,,M,5.77,N,10.7,K,N*39
$GPGGA,220158.000,3749.7199,N,12216.0242,W,6,00,50.0,19.4,M,-25.0,M,,0000*6B
$GPGSA,A,2,,,,,,,,,,,,,50.0,50.0,50.0*06
$GPRMC,220158.000,A,3749.7199,N,12216.0242,W,5.77,128.21,070711,,,E*74
$GPVTG,128.21,T,,M,5.77,N,10.7,K,N*39
$GPGGA,220159.000,3749.7189,N,12216.0226,W,6,00,50.0,19.7,M,-25.0,M,,0000*6A
$GPGSA,A,2,,,,,,,,,,,,,50.0,50.0,50.0*06
$GPRMC,220159.000,A,3749.7189,N,12216.0226,W,5.77,128.21,070711,,,E*76
$GPVTG,128.21,T,,M,5.77,N,10.7,K,N*39
$GPGGA,220200.000,3749.7179,N,12216.0210,W,6,00,50.0,20.0,M,-25.0,M,,0000*62
$GPGSA,A,2,,,,,,,,,,,,,50.0,50.0,50.0*06
$GPRMC,220200.000,A,3749.7179,N,12216.0210,W,5.77,128.21,070711,,,E*73
$GPVTG,128.21,T,,M,5.77,N,10.7,K,N*39
$GPGGA,220201.000,3749.7169,N,12216.0194,W,6,00,50.0,20.4,M,-25.0,M,,0000*69
$GPGSA,A,2,,,,,,,,,,,,,50.0,50.0,50.0*06
$GPGSV,3,1,11,28,71,339,,08,60,079,,26,52,291,,17,41,186,15*7F
$GPGSV,3,2,11,07,35,106,26,11,21,075,,19,04,036,,05,03,244,*76
$GPGSV,3,3,11,15,18,316,,24,12,091,15,27,01,304,*4A
$GPRMC,220201.000,A,3749.7169,N,12216.0194,W,5.77,128.21,070711,,,E*7C
$GPVTG,128.21,T,,M,5.77,N,10.7,K,N*39
$GPGGA,220202.000,3749.7159,N,12216.0178,W,6,00,50.0,20.7,M,-25.0,M,,0000*68
$GPGSA,A,2,,,,,,,,,,,,,50.0,50.0,50.0*06
$GPRMC,220202.000,A,3749.7159,N,12216.0178,W,5.77,128.21,070711,,,E*7E
$GPVTG,128.21,T,,M,5.77,N,10.7,K,N*39
$GPGGA,220203.000,3749.7149,N,12216.0162,W,6,00,50.0,21.1,M,-25.0,M,,0000*64
$GPGSA,A,2,,,,,,,,,,,,,50.0,50.0,50.0*06
$GPRMC,220203.000,A,3749.7149,N,12216.0162,W,5.77,128.21,070711,,,E*75
$GPVTG,128.21,T,,M,5.77,N,10.7,K,N*39
$GPGGA,220204.000,3749.7139,N,12216.0146,W,6,00,50.0,21.4,M,-25.0,M,,0000*67
$GPGSA,A,2,,,,,,,,,,,,,50.0,50.0,50.0*06
$GPRMC,220204.000,A,3749.7139,N,12216.0146,W,5.77,128.21,070711,,,E*73
$GPVTG,128.21,T,,M,5.77,N,10.7,K,N*39
$GPGGA,220205.000,3749.7129,N,12216.0130,W,6,00,50.0,21.8,M,-25.0,M,,0000*6A
$GPGSA,A,2,,,,,,,,,,,,,50.0,50.0,50.0*06
$GPRMC,220205.000,A,3749.7129,N,12216.0130,W,5.77,128.21,070711,,,E*72
$GPVTG,128.21,T,,M,5.77,N,10.7,K,N*39
$GPGGA,220206.000,3749.7119,N,12216.0114,W,6,00,50.0,22.1,M,-25.0,M,,0000*66
$GPGSA,A,2,,,,,,,,,,,,,50.0,50.0,50.0*06
$GPGSV,3,1,11,28,71,339,,08,60,079,,26,52,291,,17,41,186,17*7D
$GPGSV,3,2,11,07,35,106,26,11,21,075,,19,04,036,,05,03,244,*76
$GPGSV,3,3,11,15,18,316,,24,12,091,17,27,01,304,*48
$GPRMC,220206.000,A,3749.7119,N,12216.0114,W,5.77,128.21,070711,,,E*74
$GPVTG,128.21,T,,M,5.77,N,10.7,K,N*39
$GPGGA,220207.000,3749.7109,N,12216.0098,W,6,00,50.0,22.5,M,-25.0,M,,0000*67
$GPGSA,A,2,,,,,,,,,,,,,50.0,50.0,50.0*06
$GPRMC,220207.000,A,3749.7109,N,12216.0098,W,5.77,128.21,070711,,,E*71
$GPVTG,128.21,T,,M,5.77,N,10.7,K,N*39
$GPGGA,220208.000,3749.7099,N,12216.0082,W,6,00,50.0,22.8,M,-25.0,M,,0000*66
$GPGSA,A,2,,,,,,,,,,,,,50.0,50.0,50.0*06
$GPRMC,220208.000,A,3749.7099,N,12216.0082,W,5.77,128.21,070711,,,E*7D
$GPVTG,128.21,T,,M,5.77,N,10.7,K,N*39
$GPGGA,220209.000,3749.7089,N,12216.0067,W,6,00,50.0,23.2,M,-25.0,M,,0000*66
$GPGSA,A,2,,,,,,,,,,,,,50.0,50.0,50.0*06
$GPRMC,220209.000,A,3749.7089,N,12216.0067,W,5.77,128.21,070711,,,E*76
$GPVTG,128.21,T,,M,5.77,N,10.7,K,N*39
$GPGGA,220210.000,3749.7079,N,12216.0051,W,6,00,50.0,23.5,M,-25.0,M,,0000*63
$GPGSA,A,2,,,,,,,,,,,,,50.0,50.0,50.0*06
$GPRMC,220210.000,A,3749.7079,N,12216.0051,W,5.77,128.21,070711,,,E*74
$GPVTG,128.21,T,,M,5.77,N,10.7,K,N*39
$GPGGA,220211.000,3749.7069,N,12216.0035,W,6,00,50.0,23.9,M,-25.0,M,,0000*6D
$GPGSA,A,2,,,,,,,,,,,,,50.0,50.0,50.0*06
$GPGSV,3,1,11,28,71,339,,08,60,079,,26,52,291,,17,41,186,18*72
$GPGSV,3,2,11,07,35,106,26,11,21,075,,19,04,036,,05,03,244,*76
$GPGSV,3,3,11,15,18,316,18,24,12,091,18,27,01,304,*4E
$GPRMC,220211.000,A,3749.7069,N,12216.0035,W,5.77,128.21,070711,,,E*76
$GPVTG,128.21,T,,M,5.77,N,10.7,K,N*39
$GPGGA,220214.000,3749.6334,N,12216.0279,W,1,03,3.6,20.2,M,-25.0,M,,0000*54
$GPGSA,A,2,07,08,17,,,,,,,,,,3.7,3.6,1.0*3A
$GPRMC,220214.000,A,3749.6334,N,12216.0279,W,25.68,193.16,070711,,,A*4F
$GPVTG,193.16,T,,M,25.68,N,47.6,K,A*0D
$GPGGA,220215.000,3749.6323,N,12216.0352,W,1,03,3.6,21.0,M,-25.0,M,,0000*58
$GPGSA,A,2,07,08,17,,,,,,,,,,3.7,3.6,1.0*3A
$GPRMC,220215.000,A,3749.6323,N,12216.0352,W,22.67,195.57,070711,,,A*4B
$GPVTG,195.57,T,,M,22.67,N,42.0,K,A*05
$GPGGA,220216.000,3749.6303,N,12216.0413,W,1,03,3.6,21.6,M,-25.0,M,,0000*5D
$GPGSA,A,2,07,08,17,,,,,,,,,,3.7,3.6,1.0*3A
$GPGSV,3,1,11,28,71,339,15,08,60,079,24,26,52,291,,17,41,186,18*70
$GPGSV,3,2,11,07,35,106,25,11,21,075,,19,04,036,,05,03,244,*75
$GPGSV,3,3,11,15,18,316,16,24,12,091,16,27,01,304,*4E
$GPRMC,220216.000,A,3749.6303,N,12216.0413,W,22.03,195.83,070711,,,A*43
$GPVTG,195.83,T,,M,22.03,N,40.8,K,A*04
$GPGGA,220217.000,3749.6244,N,12216.0434,W,6,00,50.0,21.7,M,-25.0,M,,0000*6E
$GPGSA,A,2,,,,,,,,,,,,,50.0,50.0,50.0*06
$GPRMC,220217.000,A,3749.6244,N,12216.0434,W,22.03,195.83,070711,,,E*41
$GPVTG,195.83,T,,M,22.03,N,40.8,K,N*0B
$GPGGA,220218.000,3749.6185,N,12216.0455,W,6,00,50.0,21.9,M,-25.0,M,,0000*66
$GPGSA,A,2,,,,,,,,,,,,,50.0,50.0,50.0*06
$GPRMC,220218.000,A,3749.6185,N,12216.0455,W,22.03,195.83,070711,,,E*47
$GPVTG,195.83,T,,M,22.03,N,40.8,K,N*0B
$GPGGA,220219.000,3749.6127,N,12216.0476,W,6,00,50.0,22.1,M,-25.0,M,,0000*65
$GPGSA,A,2,,,,,,,,,,,,,50.0,50.0,50.0*06
$GPRMC,220219.000,A,3749.6127,N,12216.0476,W,22.03,195.83,070711,,,E*4F
$GPVTG,195.83,T,,M,22.03,N,40.8,K,N*0B
$GPGGA,220220.000,3749.6068,N,12216.0497,W,6,00,50.0,22.2,M,-25.0,M,,0000*69
$GPGSA,A,2,,,,,,,,,,,,,50.0,50.0,50.0*06
$GPRMC,220220.000,A,3749.6068,N,12216.0497,W,22.03,195.83,070711,,,E*40
$GPVTG,195.83,T,,M,22.03,N,40.8,K,N*0B
$GPGGA,220221.000,3749.6009,N,12216.0518,W,6,00,50.0,22.4,M,-25.0,M,,0000*6F
$GPGSA,A,2,,,,,,,,,,,,,50.0,50.0,50.0*06
$GPGSV,3,1,11,28,71,339,,08,60,079,23,26,52,291,,17,41,186,*7A
$GPGSV,3,2,11,07,35,106,21,11,21,075,,19,04,036,,05,03,244,22*71
$GPGSV,3,3,11,15,18,316,,24,12,091,15,27,01,304,*4A
$GPRMC,220221.000,A,3749.6009,N,12216.0518,W,22.03,195.83,070711,,,E*40
$GPVTG,195.83,T,,M,22.03,N,40.8,K,N*0B
$GPGGA,220222.000,3749.5950,N,12216.0539,W,6,00,50.0,22.6,M,-25.0,M,,0000*6B
$GPGSA,A,2,,,,,,,,,,,,,50.0,50.0,50.0*06
$GPRMC,220222.000,A,3749.5950,N,12216.0539,W,22.03,195.83,070711,,,E*46
$GPVTG,195.83,T,,M,22.03,N,40.8,K,N*0B
$GPGGA,220223.000,3749.5891,N,12216.0560,W,6,00,50.0,22.7,M,-25.0,M,,0000*6B
$GPGSA,A,2,,,,,,,,,,,,,50.0,50.0,50.0*06
$GPRMC,220223.000,A,3749.5891,N,12216.0560,W,22.03,195.83,070711,,,E*47
$GPVTG,195.83,T,,M,22.03,N,40.8,K,N*0B
$GPGGA,220224.000,3749.5832,N,12216.0581,W,6,00,50.0,22.9,M,-25.0,M,,0000*64
$GPGSA,A,2,,,,,,,,,,,,,50.0,50.0,50.0*06
$GPRMC,220224.000,A,3749.5832,N,12216.0581,W,22.03,195.83,070711,,,E*46
$GPVTG,195.83,T,,M,22.03,N,40.8,K,N*0B
$GPGGA,220225.000,3749.5773,N,12216.0602,W,6,00,50.0,23.1,M,-25.0,M,,0000*6E
$GPGSA,A,2,,,,,,,,,,,,,50.0,50.0,50.0*06
$GPRMC,220225.000,A,3749.5773,N,12216.0602,W,22.03,195.83,070711,,,E*45
$GPVTG,195.83,T,,M,22.03,N,40.8,K,N*0B
$GPGGA,220226.000,3749.5714,N,12216.0623,W,6,00,50.0,23.2,M,-25.0,M,,0000*6C
$GPGSA,A,2,,,,,,,,,,,,,50.0,50.0,50.0*06
$GPGSV,3,1,11,28,71,343,,08,60,082,21,26,52,288,,17,43,186,*7B
$GPGSV,3,2,11,07,34,108,21,11,21,074,,15,19,315,,24,12,090,*75
$GPGSV,3,3,11,05,03,243,,19,03,035,,27,02,304,*47
$GPRMC,220226.000,A,3749.5714,N,12216.0623,W,22.03,195.83,070711,,,E*44
$GPVTG,195.83,T,,M,22.03,N,40.8,K,N*0B
$GPGGA,220227.000,3749.5655,N,12216.0644,W,6,00,50.0,23.4,M,-25.0,M,,0000*6E
$GPGSA,A,2,,,,,,,,,,,,,50.0,50.0,50.0*06
$GPRMC,220227.000,A,3749.5655,N,12216.0644,W,22.03,195.83,070711,,,E*40
$GPVTG,195.83,T,,M,22.03,N,40.8,K,N*0B
$GPGGA,220228.000,3749.5596,N,12216.0665,W,6,00,50.0,23.6,M,-25.0,M,,0000*6C
$GPGSA,A,2,,,,,,,,,,,,,50.0,50.0,50.0*06
$GPRMC,220228.000,A,3749.5596,N,12216.0665,W,22.03,195.83,070711,,,E*40
$GPVTG,195.83,T,,M,22.03,N,40.8,K,N*0B
$GPGGA,220229.000,3749.5537,N,12216.0687,W,6,00,50.0,23.7,M,-25.0,M,,0000*6B
$GPGSA,A,2,,,,,,,,,,,,,50.0,50.0,50.0*06
$GPRMC,220229.000,A,3749.5537,N,12216.0687,W,22.03,195.83,070711,,,E*46
$GPVTG,195.83,T,,M,22.03,N,40.8,K,N*0B
$GPGGA,220230.000,3749.5478,N,12216.0708,W,6,00,50.0,23.9,M,-25.0,M,,0000*61
$GPGSA,A,2,,,,,,,,,,,,,50.0,50.0,50.0*06
$GPRMC,220230.000,A,3749.5478,N,12216.0708,W,22.03,195.83,070711,,,E*42
$GPVTG,195.83,T,,M,22.03,N,40.8,K,N*0B
$GPGGA,220231.000,3749.5160,N,12216.0894,W,1,03,6.1,17.0,M,-25.0,M,,0000*5E
$GPGSA,A,2,07,26,08,,,,,,,,,,6.2,6.1,1.0*3A
$GPGSV,3,1,11,28,71,343,,08,60,082,23,26,52,288,12,17,43,186,*7A
$GPGSV,3,2,11,07,34,108,20,11,21,074,,15,19,315,,24,12,090,*74
$GPGSV,3,3,11,05,03,243,,19,03,035,,27,02,304,*47
$GPRMC,220231.000,A,3749.5160,N,12216.0894,W,34.18,198.51,070711,,,A*4E
$GPVTG,198.51,T,,M,34.18,N,63.3,K,N*0E
$GPGGA,220232.000,3749.5070,N,12216.0932,W,6,00,50.0,16.9,M,-25.0,M,,0000*6E
$GPGSA,A,2,,,,,,,,,,,,,50.0,50.0,50.0*06
$GPRMC,220232.000,A,3749.5070,N,12216.0932,W,34.18,198.51,070711,,,E*44
$GPVTG,198.51,T,,M,34.18,N,63.3,K,N*0E
$GPGGA,220233.000,3749.4980,N,12216.0970,W,6,00,50.0,16.8,M,-25.0,M,,0000*6F
$GPGSA,A,2,,,,,,,,,,,,,50.0,50.0,50.0*06
$GPRMC,220233.000,A,3749.4980,N,12216.0970,W,34.18,198.51,070711,,,E*44
$GPVTG,198.51,T,,M,34.18,N,63.3,K,N*0E
$GPGGA,220234.000,3749.4890,N,12216.1008,W,6,00,50.0,16.7,M,-25.0,M,,0000*60
$GPGSA,A,2,,,,,,,,,,,,,50.0,50.0,50.0*06
$GPRMC,220234.000,A,3749.4890,N,12216.1008,W,34.18,198.51,070711,,,E*44
$GPVTG,198.51,T,,M,34.18,N,63.3,K,N*0E
$GPGGA,220235.000,3749.4800,N,12216.1046,W,6,00,50.0,16.6,M,-25.0,M,,0000*63
$GPGSA,A,2,,,,,,,,,,,,,50.0,50.0,50.0*06
$GPRMC,220235.000,A,3749.4800,N,12216.1046,W,34.18,198.51,070711,,,E*46
$GPVTG,198.51,T,,M,34.18,N,63.3,K,N*0E
$GPGGA,220236.000,3749.4710,N,12216.1084,W,6,00,50.0,16.5,M,-25.0,M,,0000*63
$GPGSA,A,2,,,,,,,,,,,,,50.0,50.0,50.0*06
$GPGSV,3,1,11,28,71,343,,08,60,082,11,26,52,288,,17,43,186,*78
$GPGSV,3,2,11,07,34,108,12,11,21,074,,15,19,315,,24,12,090,*75
$GPGSV,3,3,11,05,03,243,,19,03,035,,27,02,304,*47
$GPRMC,220236.000,A,3749.4710,N,12216.1084,W,34.18,198.51,070711,,,E*45
$GPGGA,220237.000,3749.4620,N,12216.1122,W,6,00,50.0,16.4,M,-25.0,M,,0000*6C
$GPGSA,A,2,,,,,,,,,,,,,50.0,50.0,50.0*06
$GPRMC,220237.000,A,3749.4620,N,12216.1122,W,34.18,198.51,070711,,,E*4B
$GPVTG,198.51,T,,M,34.18,N,63.3,K,N*0E
$GPGGA,220238.000,3749.4529,N,12216.1160,W,6,00,50.0,16.3,M,-25.0,M,,0000*68
$GPGSA,A,2,,,,,,,,,,,,,50.0,50.0,50.0*06
$GPRMC,220238.000,A,3749.4529,N,12216.1160,W,34.18,198.51,070711,,,E*48
$GPVTG,198.51,T,,M,34.18,N,63.3,K,N*0E
$GPGGA,220239.000,3749.4439,N,12216.1198,W,6,00,50.0,16.2,M,-25.0,M,,0000*6F
$GPGSA,A,2,,,,,,,,,,,,,50.0,50.0,50.0*06
$GPRMC,220239.000,A,3749.4439,N,12216.1198,W,34.18,198.51,070711,,,E*4E
$GPVTG,198.51,T,,M,34.18,N,63.3,K,N*0E
$GPGGA,220240.000,3749.4349,N,12216.1236,W,6,00,50.0,16.1,M,-25.0,M,,0000*65
$GPGSA,A,2,,,,,,,,,,,,,50.0,50.0,50.0*06
$GPRMC,220240.000,A,3749.4349,N,12216.1236,W,34.18,198.51,070711,,,E*47
$GPVTG,198.51,T,,M,34.18,N,63.3,K,N*0E
$GPGGA,220241.000,3749.4259,N,12216.1274,W,6,00,50.0,16.0,M,-25.0,M,,0000*63
$GPGSA,A,2,,,,,,,,,,,,,50.0,50.0,50.0*06
$GPGSV,3,1,11,28,71,343,,08,60,082,,26,52,288,,17,43,186,*78
$GPGSV,3,2,11,07,34,108,,11,21,074,,15,19,315,,24,12,090,*76
$GPGSV,3,3,11,05,03,243,,19,03,035,,27,02,304,*47
$GPRMC,220241.000,A,3749.4259,N,12216.1274,W,34.18,198.51,070711,,,E*40
$GPVTG,198.51,T,,M,34.18,N,63.3,K,N*0E
$GPGGA,220242.000,3749.4169,N,12216.1312,W,6,00,50.0,16.0,M,-25.0,M,,0000*61
$GPGSA,A,2,,,,,,,,,,,,,50.0,50.0,50.0*06
$GPRMC,220242.000,A,3749.4169,N,12216.1312,W,34.18,198.51,070711,,,E*42
$GPVTG,198.51,T,,M,34.18,N,63.3,K,N*0E
$GPGGA,220243.000,3749.4079,N,12216.1350,W,6,00,50.0,15.9,M,-25.0,M,,0000*6C
$GPGSA,A,2,,,,,,,,,,,,,50.0,50.0,50.0*06
$GPRMC,220243.000,A,3749.4079,N,12216.1350,W,34.18,198.51,070711,,,E*45
$GPVTG,198.51,T,,M,34.18,N,63.3,K,N*0E
$GPGGA,220244.000,3749.3989,N,12216.1388,W,6,00,50.0,15.8,M,-25.0,M,,0000*6E
$GPGSA,A,2,,,,,,,,,,,,,50.0,50.0,50.0*06
$GPRMC,220244.000,A,3749.3989,N,12216.1388,W,34.18,198.51,070711,,,E*46
$GPVTG,198.51,T,,M,34.18,N,63.3,K,N*0E
$GPGGA,220245.000,3749.3898,N,12216.1426,W,6,00,50.0,15.7,M,-25.0,M,,0000*62
$GPGSA,A,2,,,,,,,,,,,,,50.0,50.0,50.0*06
$GPRMC,220245.000,A,3749.3898,N,12216.1426,W,34.18,198.51,070711,,,E*45
$GPVTG,198.51,T,,M,34.18,N,63.3,K,N*0E
$GPGGA,220302.000,3749.2271,N,12216.1816,W,1,03,3.6,11.0,M,-25.0,M,,0000*54
$GPGSA,A,2,08,07,17,,,,,,,,,,3.7,3.6,1.0*3A
$GPRMC,220302.000,A,3749.2271,N,12216.1816,W,34.31,190.87,070711,,,A*48
$GPVTG,190.87,T,,M,34.31,N,63.5,K,N*00
$GPGGA,220303.000,3749.2185,N,12216.1835,W,1,03,3.6,11.7,M,-25.0,M,,0000*5B
$GPGSA,A,2,08,07,17,,,,,,,,,,3.7,3.6,1.0*3A
$GPRMC,220303.000,A,3749.2185,N,12216.1835,W,33.27,189.38,070711,,,A*4C
$GPVTG,189.38,T,,M,33.27,N,61.6,K,N*0D
$GPGGA,220304.000,3749.2086,N,12216.1843,W,1,03,3.6,11.5,M,-25.0,M,,0000*5D
$GPGSA,A,2,08,07,17,,,,,,,,,,3.7,3.6,1.0*3A
$GPRMC,220304.000,A,3749.2086,N,12216.1843,W,33.29,189.35,070711,,,A*4B
$GPVTG,189.35,T,,M,33.29,N,61.6,K,N*0E
$GPGGA,220305.000,3749.1972,N,12216.1828,W,1,03,3.6,11.5,M,-25.0,M,,0000*50
$GPGSA,A,2,08,07,17,,,,,,,,,,3.7,3.6,1.0*3A
$GPRMC,220305.000,A,3749.1972,N,12216.1828,W,35.09,187.17,070711,,,A*4C
$GPVTG,187.17,T,,M,35.09,N,65.0,K,N*06
$GPGGA,220306.000,3749.1857,N,12216.1830,W,1,03,3.6,11.1,M,-25.0,M,,0000*58
$GPGSA,A,2,08,07,17,,,,,,,,,,3.7,3.6,1.0*3A
$GPGSV,3,1,11,28,71,343,,08,60,082,21,26,52,288,,17,43,186,16*7C
$GPGSV,3,2,11,07,34,108,22,11,21,074,,15,19,315,,24,12,090,*76
$GPGSV,3,3,11,05,03,243,,19,03,035,,27,02,304,*47
$GPVTG,187.17,T,,M,36.07,N,66.8,K,N*00
$GPGGA,220307.000,3749.1757,N,12216.1846,W,6,00,50.0,11.0,M,-25.0,M,,0000*62
$GPGSA,A,2,,,,,,,,,,,,,50.0,50.0,50.0*06
$GPRMC,220307.000,A,3749.1757,N,12216.1846,W,36.07,187.17,070711,,,E*46
$GPVTG,187.17,T,,M,36.07,N,66.8,K,N*00
$GPGGA,220308.000,3749.1658,N,12216.1862,W,6,00,50.0,10.9,M,-25.0,M,,0000*6D
$GPGSA,A,2,,,,,,,,,,,,,50.0,50.0,50.0*06
$GPRMC,220308.000,A,3749.1658,N,12216.1862,W,36.07,187.17,070711,,,E*41
$GPVTG,187.17,T,,M,36.07,N,66.8,K,N*00
$GPGGA,220309.000,3749.1558,N,12216.1878,W,6,00,50.0,10.8,M,-25.0,M,,0000*65
$GPGSA,A,2,,,,,,,,,,,,,50.0,50.0,50.0*06
$GPRMC,220309.000,A,3749.1558,N,12216.1878,W,36.07,187.17,070711,,,E*48
$GPVTG,187.17,T,,M,36.07,N,66.8,K,N*00
$GPGGA,220310.000,3749.1458,N,12216.1893,W,6,00,50.0,10.7,M,-25.0,M,,0000*66
$GPGSA,A,2,,,,,,,,,,,,,50.0,50.0,50.0*06
$GPRMC,220310.000,A,3749.1458,N,12216.1893,W,36.07,187.17,070711,,,E*44
$GPVTG,187.17,T,,M,36.07,N,66.8,K,N*00
$GPGGA,220311.000,3749.1359,N,12216.1909,W,6,00,50.0,10.6,M,-25.0,M,,0000*62
$GPGSA,A,2,,,,,,,,,,,,,50.0,50.0,50.0*06
$GPGSV,3,1,11,28,71,343,,08,60,082,21,26,52,288,,17,43,186,*7B
$GPGSV,3,2,11,07,34,108,13,11,21,074,,15,19,315,,24,12,090,*74
$GPGSV,3,3,11,05,03,243,,19,03,035,,27,02,304,*47
$GPRMC,220311.000,A,3749.1359,N,12216.1909,W,36.07,187.17,070711,,,E*41
$GPVTG,187.17,T,,M,36.07,N,66.8,K,N*00
$GPGGA,220312.000,3749.1259,N,12216.1925,W,6,00,50.0,10.5,M,-25.0,M,,0000*6D
$GPGSA,A,2,,,,,,,,,,,,,50.0,50.0,50.0*06
$GPRMC,220312.000,A,3749.1259,N,12216.1925,W,36.07,187.17,070711,,,E*4D
$GPVTG,187.17,T,,M,36.07,N,66.8,K,N*00
$GPGGA,220313.000,3749.1160,N,12216.1941,W,6,00,50.0,10.4,M,-25.0,M,,0000*66
$GPGSA,A,2,,,,,,,,,,,,,50.0,50.0,50.0*06
$GPRMC,220313.000,A,3749.1160,N,12216.1941,W,36.07,187.17,070711,,,E*47
$GPVTG,187.17,T,,M,36.07,N,66.8,K,N*00
$GPGGA,220314.000,3749.1060,N,12216.1957,W,6,00,50.0,10.3,M,-25.0,M,,0000*60
$GPGSA,A,2,,,,,,,,,,,,,50.0,50.0,50.0*06
$GPRMC,220314.000,A,3749.1060,N,12216.1957,W,36.07,187.17,070711,,,E*46
$GPVTG,187.17,T,,M,36.07,N,66.8,K,N*00
$GPGGA,220315.000,3749.0961,N,12216.1972,W,6,00,50.0,10.1,M,-25.0,M,,0000*6D
$GPGSA,A,2,,,,,,,,,,,,,50.0,50.0,50.0*06
$GPRMC,220315.000,A,3749.0961,N,12216.1972,W,36.07,187.17,070711,,,E*49
$GPVTG,187.17,T,,M,36.07,N,66.8,K,N*00
$GPGGA,220316.000,3749.0861,N,12216.1988,W,6,00,50.0,10.0,M,-25.0,M,,0000*6B
$GPGSA,A,2,,,,,,,,,,,,,50.0,50.0,50.0*06
$GPGSV,3,1,11,28,71,343,,08,60,082,22,26,52,288,,17,43,186,17*7E
$GPGSV,3,2,11,07,34,108,13,11,21,074,,15,19,315,,24,12,090,*74
$GPGSV,3,3,11,05,03,243,,19,03,035,,27,02,304,*47
$GPRMC,220316.000,A,3749.0861,N,12216.1988,W,36.07,187.17,070711,,,E*4E
$GPVTG,187.17,T,,M,36.07,N,66.8,K,N*00
$GPGGA,220317.000,3749.0629,N,12216.1877,W,1,03,4.6,16.1,M,-25.0,M,,0000*5D
$GPGSA,A,2,08,07,11,,,,,,,,,,4.7,4.6,1.0*3C
$GPRMC,220317.000,A,3749.0629,N,12216.1877,W,39.18,180.84,070711,,,A*44
$GPVTG,180.84,T,,M,39.18,N,72.6,K,A*08
$GPGGA,220318.000,3749.0414,N,12216.1785,W,1,03,4.6,24.4,M,-25.0,M,,0000*58
$GPGSA,A,2,08,07,11,,,,,,,,,,4.7,4.6,1.0*3C
$GPRMC,220318.000,A,3749.0414,N,12216.1785,W,41.21,176.69,070711,,,A*4A
$GPVTG,176.69,T,,M,41.21,N,76.3,K,A*06
$GPGGA,220319.000,3749.0300,N,12216.1776,W,6,00,50.0,24.5,M,-25.0,M,,0000*65
$GPGSA,A,2,,,,,,,,,,,,,50.0,50.0,50.0*06
$GPRMC,220319.000,A,3749.0300,N,12216.1776,W,41.21,176.69,070711,,,E*41
$GPVTG,176.69,T,,M,41.21,N,76.3,K,N*09
$GPGGA,220320.000,3749.0119,N,12216.1882,W,1,03,8.6,18.0,M,-25.0,M,,0000*54
$GPGSA,A,2,08,17,11,,,,,,,,,,8.6,8.6,1.0*3C
$GPRMC,220320.000,A,3749.0119,N,12216.1882,W,42.91,177.52,070711,,,A*40
$GPVTG,177.52,T,,M,42.91,N,79.5,K,N*01
$GPGGA,220321.000,3749.0013,N,12216.1898,W,1,03,8.6,24.2,M,-25.0,M,,0000*58
$GPGSA,A,2,08,17,11,,,,,,,,,,8.6,8.6,1.0*3C
$GPGSV,3,1,11,28,71,343,,08,60,082,23,26,52,288,,17,43,186,15*7D
$GPGSV,3,2,11,07,34,108,18,11,21,074,19,15,19,315,,24,12,090,*77
$GPGSV,3,3,11,05,03,243,,19,03,035,,27,02,304,*47
$GPRMC,220321.000,A,3749.0013,N,12216.1898,W,40.41,178.75,070711,,,A*44
$GPVTG,178.75,T,,M,40.41,N,74.8,K,A*0B
$GPGGA,220322.000,3749.0030,N,12216.2093,W,1,04,3.9,13.0,M,-25.0,M,,0000*5F
$GPGSA,A,3,08,17,07,11,,,,,,,,,5.2,3.9,3.5*30
$GPRMC,220322.000,A,3749.0030,N,12216.2093,W,34.47,186.10,070711,,,A*41
$GPVTG,186.10,T,,M,34.47,N,63.8,K,A*0A
$GPGGA,220323.000,3748.9942,N,12216.2142,W,1,04,3.9,13.0,M,-25.0,M,,0000*57
$GPGSA,A,3,08,17,07,11,,,,,,,,,5.2,3.9,3.5*30
$GPRMC,220323.000,A,3748.9942,N,12216.2142,W,35.75,188.35,070711,,,A*40
$GPVTG,188.35,T,,M,35.75,N,66.2,K,A*0C
$GPGGA,220324.000,3748.9861,N,12216.2149,W,1,03,8.6,14.2,M,-25.0,M,,0000*5D
$GPGSA,A,2,08,17,11,,,,,,,,,,8.7,8.6,1.0*3D
$GPRMC,220324.000,A,3748.9861,N,12216.2149,W,34.00,186.78,070711,,,A*48
$GPVTG,186.78,T,,M,34.00,N,63.0,K,A*0F
$GPGGA,220325.000,3748.9796,N,12216.2201,W,1,03,4.6,13.0,M,-25.0,M,,0000*5D
$GPGSA,A,2,08,07,11,,,,,,,,,,4.7,4.6,1.0*3C
$GPRMC,220325.000,A,3748.9796,N,12216.2201,W,34.41,188.33,070711,,,A*45
$GPVTG,188.33,T,,M,34.41,N,63.7,K,A*0C
$GPGGA,220326.000,3748.9718,N,12216.2199,W,1,03,8.7,13.7,M,-25.0,M,,0000*50
$GPGSA,A,2,08,17,11,,,,,,,,,,8.7,8.7,1.0*3C
$GPGSV,3,1,11,28,71,343,,08,60,082,23,26,52,288,,17,43,186,14*7C
$GPGSV,3,2,11,07,34,108,16,11,21,074,19,15,19,315,,24,12,090,*79
$GPGSV,3,3,11,05,03,243,,19,03,035,,27,02,304,*47
$GPRMC,220326.000,A,3748.9718,N,12216.2199,W,34.07,185.71,070711,,,A*4B
$GPVTG,185.71,T,,M,34.07,N,63.1,K,A*03
$GPGGA,220327.000,3748.9623,N,12216.2211,W,6,00,50.0,13.9,M,-25.0,M,,0000*6B
$GPGSA,A,2,,,,,,,,,,,,,50.0,50.0,50.0*06
$GPRMC,220327.000,A,3748.9623,N,12216.2211,W,34.07,185.71,070711,,,E*44
$GPVTG,185.71,T,,M,34.07,N,63.1,K,N*0C
$GPGGA,220328.000,3748.9529,N,12216.2222,W,6,00,50.0,14.0,M,-25.0,M,,0000*63
$GPGSA,A,2,,,,,,,,,,,,,50.0,50.0,50.0*06
$GPRMC,220328.000,A,3748.9529,N,12216.2222,W,34.07,185.71,070711,,,E*42
$GPVTG,185.71,T,,M,34.07,N,63.1,K,N*0C
$GPGGA,220329.000,3748.9435,N,12216.2234,W,6,00,50.0,14.2,M,-25.0,M,,0000*6B
$GPGSA,A,2,,,,,,,,,,,,,50.0,50.0,50.0*06
$GPRMC,220329.000,A,3748.9435,N,12216.2234,W,34.07,185.71,070711,,,E*48
$GPVTG,185.71,T,,M,34.07,N,63.1,K,N*0C
$GPGGA,220330.000,3748.9340,N,12216.2246,W,6,00,50.0,14.4,M,-25.0,M,,0000*65
$GPGSA,A,2,,,,,,,,,,,,,50.0,50.0,50.0*06
$GPRMC,220330.000,A,3748.9340,N,12216.2246,W,34.07,185.71,070711,,,E*40
$GPVTG,185.71,T,,M,34.07,N,63.1,K,N*0C
$GPGGA,220331.000,3748.9246,N,12216.2258,W,6,00,50.0,14.6,M,-25.0,M,,0000*6E
$GPGSA,A,2,,,,,,,,,,,,,50.0,50.0,50.0*06
$GPGSV,3,1,11,28,71,343,,08,60,082,23,26,52,288,,17,43,186,*79
$GPGSV,3,2,11,07,34,108,17,11,21,074,20,15,19,315,,24,12,090,*72
$GPGSV,3,3,11,05,03,243,,19,03,035,,27,02,304,*47
$GPVTG,185.71,T,,M,34.07,N,63.1,K,N*0C
$GPGGA,220332.000,3748.9247,N,12216.2373,W,1,03,4.6,13.9,M,-25.0,M,,0000*5F
$GPGSA,A,2,08,07,11,,,,,,,,,,4.7,4.6,1.0*3C
$GPRMC,220332.000,A,3748.9247,N,12216.2373,W,29.20,194.58,070711,,,A*45
$GPVTG,194.58,T,,M,29.20,N,54.1,K,N*0A
$GPGGA,220333.000,3748.9229,N,12216.2433,W,1,03,4.6,11.6,M,-25.0,M,,0000*58
$GPGSA,A,2,08,07,11,,,,,,,,,,4.7,4.6,1.0*3C
$GPRMC,220333.000,A,3748.9229,N,12216.2433,W,28.02,194.66,070711,,,A*43
$GPVTG,194.66,T,,M,28.02,N,51.9,K,N*0B
$GPGGA,220334.000,3748.9140,N,12216.2426,W,1,03,4.6,11.2,M,-25.0,M,,0000*53
$GPGSA,A,2,08,07,11,,,,,,,,,,4.7,4.6,1.0*3C
$GPRMC,220334.000,A,3748.9140,N,12216.2426,W,28.55,190.37,070711,,,A*4E
$GPVTG,190.37,T,,M,28.55,N,52.9,K,N*0A
$GPGGA,220335.000,3748.9066,N,12216.2431,W,1,03,4.6,10.2,M,-25.0,M,,0000*50
