$ADVER,3080,2.3
$GPRMC,193452.336,A,3748.8041,N,12217.8683,W,0.47,159.98,050711,,,A*78
$GPRMC,193453.336,A,3748.8038,N,12217.8682,W,0.20,185.52,050711,,,A*70
$GPRMC,193454.336,A,3748.8032,N,12217.8679,W,0.30,161.22,050711,,,A*75
$GPRMC,193455.336,A,3748.8026,N,12217.8673,W,0.49,142.60,050711,,,A*72
$GPRMC,193456.336,A,3748.8026,N,12217.8673,W,0.35,148.70,050711,,,A*71
$GPRMC,193457.336,A,3748.8023,N,12217.8673,W,0.34,157.78,050711,,,A*72
$GPRMC,193458.336,A,3748.8020,N,12217.8670,W,0.18,175.66,050711,,,A*7C
$GPRMC,193459.336,A,3748.8019,N,12217.8671,W,0.31,144.07,050711,,,A*78
$GPRMC,193500.336,A,3748.8019,N,12217.8673,W,0.30,187.30,050711,,,A*7D
$GPRMC,193501.336,A,3748.8018,N,12217.8672,W,0.43,150.49,050711,,,A*7C
$GPRMC,193502.336,A,3748.8019,N,12217.8672,W,0.34,157.78,050711,,,A*7B
$GPRMC,193503.336,A,3748.8018,N,12217.8672,W,0.43,165.11,050711,,,A*75
$GPRMC,193504.336,A,3748.8031,N,12217.8592,W,0.11,176.35,050711,,,A*77
$GPRMC,193505.336,A,3748.7988,N,12217.8616,W,0.44,210.04,050711,,,A*7C
$GPRMC,193506.336,A,3748.7998,N,12217.8609,W,0.52,48.67,050711,,,A*4D
$GPRMC,193507.000,A,3748.7990,N,12217.8612,W,0.89,43.88,050711,,,A*44
$GPRMC,193508.000,A,3748.7984,N,12217.8615,W,0.52,44.58,050711,,,A*45
$GPRMC,193509.000,A,3748.7987,N,12217.8613,W,0.03,179.20,050711,,,A*75
$GPRMC,193510.000,A,3748.8019,N,12217.8605,W,0.08,241.24,050711,,,A*7C
$GPRMC,193511.000,A,3748.8030,N,12217.8598,W,0.25,31.65,050711,,,A*4E
$GPRMC,193512.000,A,3748.8036,N,12217.8595,W,0.31,28.55,050711,,,A*48
$GPRMC,193513.000,A,3748.8030,N,12217.8596,W,0.12,94.33,050711,,,A*4A
$GPRMC,193514.000,A,3748.8032,N,12217.8592,W,0.11,109.58,050711,,,A*70
$GPRMC,193515.000,A,3748.8031,N,12217.8590,W,0.13,131.78,050711,,,A*7B
$GPRMC,193516.000,A,3748.8028,N,12217.8589,W,0.18,189.54,050711,,,A*7E
$GPRMC,193517.000,A,3748.8026,N,12217.8589,W,0.07,220.77,050711,,,A*7E
$GPRMC,193518.000,A,3748.8023,N,12217.8589,W,0.20,182.10,050711,,,A*7B
$GPRMC,193519.000,A,3748.8020,N,12217.8588,W,0.17,156.79,050711,,,A*7A
$GPRMC,193520.000,A,3748.8017,N,12217.8589,W,0.18,180.17,050711,,,A*79
$GPRMC,193521.000,A,3748.8014,N,12217.8589,W,0.03,84.77,050711,,,A*42
$GPRMC,193522.000,A,3748.8011,N,12217.8589,W,0.17,134.90,050711,,,A*72
$GPRMC,193523.000,A,3748.8008,N,12217.8584,W,0.95,133.88,050711,,,A*72
$GPRMC,193524.000,A,3748.8006,N,12217.8583,W,0.30,114.55,050711,,,A*76
$GPRMC,193525.000,A,3748.8004,N,12217.8583,W,0.26,181.08,050711,,,A*76
$GPRMC,193526.000,A,3748.8001,N,12217.8584,W,0.22,199.98,050711,,,A*73
$GPRMC,193527.000,A,3748.7998,N,12217.8585,W,0.15,173.75,050711,,,A*76
$GPRMC,193528.000,A,3748.7996,N,12217.8586,W,0.12,153.74,050711,,,A*70
$GPRMC,193529.000,A,3748.7994,N,12217.8586,W,0.09,147.78,050711,,,A*70
$GPRMC,193530.000,A,3748.7992,N,12217.8587,W,0.15,181.53,050711,,,A*71
$GPRMC,193531.000,A,3748.7991,N,12217.8587,W,0.12,184.62,050711,,,A*73
$GPRMC,193532.000,A,3748.7989,N,12217.8587,W,0.12,160.17,050711,,,A*71
$GPRMC,193533.000,A,3748.7985,N,12217.8589,W,0.12,158.05,050711,,,D*7F
$GPRMC,193534.000,A,3748.7985,N,12217.8591,W,0.17,154.99,050711,,,D*7D
$GPRMC,193535.000,A,3748.7981,N,12217.8596,W,0.29,196.36,050711,,,D*79
$GPRMC,193536.000,A,3748.7978,N,12217.8600,W,0.23,205.06,050711,,,D*70
$GPRMC,193537.000,A,3748.7975,N,12217.8603,W,0.25,202.53,050711,,,D*7E
$GPRMC,193538.000,A,3748.7972,N,12217.8607,W,0.24,197.04,050711,,,D*7E
$GPRMC,193539.000,A,3748.7968,N,12217.8609,W,0.23,197.34,050711,,,D*7E
$GPRMC,193540.000,A,3748.7966,N,12217.8610,W,0.13,159.04,050711,,,D*74
$GPRMC,193541.000,A,3748.7964,N,12217.8610,W,0.14,188.60,050711,,,D*7E
$GPRMC,193542.000,A,3748.7969,N,12217.8613,W,0.16,200.05,050711,,,D*71
$GPRMC,193543.000,A,3748.7973,N,12217.8615,W,0.12,182.62,050711,,,D*71
$GPRMC,193544.000,A,3748.7975,N,12217.8617,W,0.10,158.43,050711,,,D*74
$GPRMC,193545.000,A,3748.7978,N,12217.8617,W,0.10,165.93,050711,,,D*7B
$GPRMC,193546.000,A,3748.7980,N,12217.8618,W,0.03,136.89,050711,,,D*7F
$GPRMC,193547.000,A,3748.7982,N,12217.8618,W,0.05,100.03,050711,,,D*7D
$GPRMC,193548.000,A,3748.7983,N,12217.8618,W,0.10,92.56,050711,,,D*4D
$GPRMC,193549.000,A,3748.7985,N,12217.8618,W,0.02,9.25,050711,,,D*7F
$GPRMC,193550.000,A,3748.7986,N,12217.8619,W,0.11,33.80,050711,,,D*41
$GPRMC,193551.000,A,3748.7987,N,12217.8619,W,0.06,273.05,050711,,,D*7C
$GPRMC,193552.000,A,3748.7988,N,12217.8619,W,0.07,20.73,050711,,,D*44
$GPRMC,193553.000,A,3748.7990,N,12217.8620,W,0.23,42.79,050711,,,D*4E
$GPRMC,193554.000,A,3748.7990,N,12217.8618,W,0.64,150.30,050711,,,D*7E
$GPRMC,193555.000,A,3748.7991,N,12217.8617,W,0.27,23.38,050711,,,D*4B
$GPRMC,193556.000,A,3748.7992,N,12217.8617,W,0.06,347.46,050711,,,D*70
$GPRMC,193557.000,A,3748.7997,N,12217.8614,W,0.36,93.36,050711,,,D*49
$GPRMC,193558.000,A,3748.8000,N,12217.8612,W,0.59,51.75,050711,,,D*48
$GPRMC,193559.000,A,3748.7999,N,12217.8611,W,0.87,97.05,050711,,,D*42
$GPRMC,193600.000,A,3748.8001,N,12217.8613,W,0.44,37.12,050711,,,D*4B
$GPRMC,193601.000,A,3748.8003,N,12217.8611,W,0.68,65.45,050711,,,D*41
$GPRMC,193602.000,A,3748.8005,N,12217.8615,W,0.21,73.54,050711,,,D*4A
$GPRMC,193603.000,A,3748.8007,N,12217.8613,W,0.24,266.91,050711,,,D*75
$GPRMC,193604.000,A,3748.8010,N,12217.8616,W,1.23,271.46,050711,,,D*7B
$GPRMC,193605.000,A,3748.8014,N,12217.8624,W,1.60,280.57,050711,,,D*76
$GPRMC,193606.000,A,3748.8009,N,12217.8631,W,1.70,276.91,050711,,,D*7F
$GPRMC,193607.000,A,3748.8010,N,12217.8630,W,0.35,307.20,050711,,,D*7A
$GPRMC,193608.000,A,3748.8008,N,12217.8628,W,0.32,137.25,050711,,,D*76
$GPRMC,193609.000,A,3748.8008,N,12217.8624,W,0.25,222.54,050711,,,D*7C
$GPRMC,193610.000,A,3748.8003,N,12217.8614,W,0.45,129.90,050711,,,D*7A
$GPRMC,193611.000,A,3748.8005,N,12217.8611,W,0.17,259.00,050711,,,A*77
$GPRMC,193612.000,A,3748.8006,N,12217.8610,W,0.14,245.12,050711,,,A*7B
$GPRMC,193613.000,A,3748.8003,N,12217.8618,W,0.35,185.74,050711,,,A*7B
$GPRMC,193614.000,A,3748.7996,N,12217.8637,W,0.32,247.47,050711,,,A*71
$GPRMC,193615.000,A,3748.7997,N,12217.8636,W,0.30,210.66,050711,,,A*73
$GPRMC,193616.000,A,3748.7994,N,12217.8637,W,0.34,185.09,050711,,,A*70
$GPRMC,193617.000,A,3748.7995,N,12217.8631,W,0.72,145.10,050711,,,A*70
$GPRMC,193618.000,A,3748.8000,N,12217.8630,W,0.29,167.53,050711,,,A*7D
$GPRMC,193619.000,A,3748.8004,N,12217.8634,W,0.33,233.43,050711,,,A*74
$GPRMC,193620.000,A,3748.8006,N,12217.8637,W,0.42,230.40,050711,,,A*79
$GPRMC,193621.000,A,3748.8013,N,12217.8629,W,0.16,212.82,050711,,,A*7C
$GPRMC,193622.000,A,3748.8020,N,12217.8620,W,0.37,136.35,050711,,,A*7C
$GPRMC,193623.000,A,3748.8024,N,12217.8609,W,0.25,106.21,050711,,,A*77
$GPRMC,193624.000,A,3748.8030,N,12217.8602,W,0.18,25.79,050711,,,A*4D
$GPRMC,193625.000,A,3748.8036,N,12217.8597,W,0.27,33.65,050711,,,A*43
$GPRMC,193626.000,A,3748.8039,N,12217.8596,W,0.46,78.88,050711,,,A*45
$GPRMC,193627.000,A,3748.8038,N,12217.8596,W,0.62,82.64,050711,,,A*44
$GPRMC,193628.000,A,3748.8040,N,12217.8594,W,0.54,60.88,050711,,,A*4D
$GPRMC,193629.000,A,3748.8037,N,12217.8587,W,0.52,74.50,050711,,,A*48
$GPRMC,193630.000,A,3748.8037,N,12217.8580,W,0.28,33.45,050711,,,A*4D
$GPRMC,193631.000,A,3748.8035,N,12217.8574,W,0.35,357.10,050711,,,A*78
$GPRMC,193632.000,A,3748.8031,N,12217.8574,W,0.25,312.75,050711,,,A*7C
$GPRMC,193633.000,A,3748.8029,N,12217.8577,W,0.04,70.94,050711,,,A*4C
$GPRMC,193634.000,A,3748.8026,N,12217.8583,W,0.05,280.02,050711,,,A*7C
$GPRMC,193635.000,A,3748.8028,N,12217.8582,W,0.27,126.59,050711,,,A*73
$GPRMC,193636.000,A,3748.8030,N,12217.8580,W,0.55,112.19,050711,,,A*7D
$GPRMC,193637.000,A,3748.8032,N,12217.8579,W,0.32,119.11,050711,,,A*7A
$GPRMC,193638.000,A,3748.8034,N,12217.8583,W,0.05,123.77,050711,,,A*7B
$GPRMC,193639.000,A,3748.8035,N,12217.8592,W,0.15,264.11,050711,,,A*7A
$GPRMC,193640.000,A,3748.8036,N,12217.8597,W,0.16,116.78,050711,,,A*78
$GPRMC,193641.000,A,3748.8035,N,12217.8601,W,0.24,135.95,050711,,,A*75
$GPRMC,193642.000,A,3748.8036,N,12217.8604,W,0.28,273.14,050711,,,A*74
$GPRMC,193643.000,A,3748.8038,N,12217.8608,W,0.37,270.54,050711,,,A*7E
$GPRMC,193644.000,A,3748.8038,N,12217.8610,W,0.39,273.52,050711,,,A*7B
$GPRMC,193645.000,A,3748.8036,N,12217.8610,W,0.24,152.92,050711,,,A*74
$GPRMC,193646.000,A,3748.8034,N,12217.8609,W,0.33,141.33,050711,,,A*72
$GPRMC,193647.000,A,3748.8030,N,12217.8606,W,0.50,136.68,050711,,,A*73
$GPRMC,193648.000,A,3748.8021,N,12217.8609,W,0.55,150.68,050711,,,A*76
$GPRMC,193649.000,A,3748.8021,N,12217.8599,W,0.31,170.08,050711,,,A*7B
$GPRMC,193650.000,A,3748.8018,N,12217.8597,W,0.31,169.09,050711,,,A*7E
$GPRMC,193651.000,A,3748.8018,N,12217.8596,W,0.24,201.94,050711,,,A*73
$GPRMC,193652.000,A,3748.8019,N,12217.8596,W,0.22,224.28,050711,,,A*77
$GPRMC,193653.000,A,3748.8021,N,12217.8593,W,0.11,133.93,050711,,,A*7D
$GPRMC,193654.000,A,3748.8022,N,12217.8594,W,0.19,189.90,050711,,,A*74
$GPRMC,193655.000,A,3748.8022,N,12217.8594,W,0.06,180.98,050711,,,A*7A
$GPRMC,193656.000,A,3748.8022,N,12217.8595,W,0.01,113.12,050711,,,A*77
$GPRMC,193657.000,A,3748.8024,N,12217.8598,W,0.13,182.40,050711,,,A*71
$GPRMC,193658.000,A,3748.8022,N,12217.8596,W,0.44,269.93,050711,,,A*7C
$GPRMC,193659.000,A,3748.8020,N,12217.8604,W,0.71,275.63,050711,,,A*73
$GPRMC,193700.000,A,3748.8019,N,12217.8605,W,0.37,135.03,050711,,,A*76
$GPRMC,193701.000,A,3748.8024,N,12217.8607,W,0.10,180.83,050711,,,A*78
$GPRMC,193702.000,A,3748.8026,N,12217.8608,W,0.31,112.49,050711,,,A*78
$GPRMC,193703.000,A,3748.8029,N,12217.8609,W,0.21,112.28,050711,,,A*71
$GPRMC,193704.000,A,3748.8035,N,12217.8610,W,0.20,89.36,050711,,,A*4E
$GPRMC,193705.000,A,3748.8039,N,12217.8613,W,0.11,57.49,050711,,,A*49
$GPRMC,193706.000,A,3748.8039,N,12217.8612,W,0.24,85.55,050711,,,A*4F
$GPRMC,193707.000,A,3748.8040,N,12217.8612,W,0.28,84.52,050711,,,A*4A
$GPRMC,193708.000,A,3748.8041,N,12217.8613,W,0.25,101.20,050711,,,A*71
$GPRMC,193709.000,A,3748.8039,N,12217.8627,W,0.19,332.99,050711,,,A*77
$GPRMC,193710.000,A,3748.8039,N,12217.8627,W,0.08,51.40,050711,,,A*4D
$GPRMC,193711.000,A,3748.8039,N,12217.8627,W,0.04,86.60,050711,,,A*48
$GPRMC,193712.000,A,3748.8040,N,12217.8628,W,0.15,57.92,050711,,,A*4B
$GPRMC,193713.000,A,3748.8040,N,12217.8629,W,0.22,331.35,050711,,,A*71
$GPRMC,193714.000,A,3748.8040,N,12217.8625,W,0.20,89.74,050711,,,A*4D
$GPRMC,193715.000,A,3748.8039,N,12217.8623,W,0.37,113.84,050711,,,A*7F
$GPRMC,193716.000,A,3748.8037,N,12217.8618,W,0.50,102.56,050711,,,A*74
$GPRMC,193717.000,A,3748.8036,N,12217.8617,W,0.55,56.92,050711,,,A*46
$GPRMC,193718.000,A,3748.8037,N,12217.8610,W,0.55,84.83,050711,,,A*40
$GPRMC,193719.000,A,3748.8038,N,12217.8601,W,1.31,96.20,050711,,,A*47
$GPRMC,193720.000,A,3748.8038,N,12217.8590,W,1.38,91.58,050711,,,A*47
$GPRMC,193721.000,A,3748.8035,N,12217.8578,W,2.01,108.26,050711,,,A*7C
$GPRMC,193722.000,A,3748.8028,N,12217.8567,W,2.24,118.24,050711,,,A*79
$GPRMC,193723.000,A,3748.8024,N,12217.8558,W,2.02,112.00,050711,,,A*70
$GPRMC,193724.000,A,3748.8019,N,12217.8551,W,2.02,118.14,050711,,,D*7A
$GPRMC,193725.000,A,3748.8010,N,12217.8543,W,2.21,115.91,050711,,,D*70
$GPRMC,193726.000,A,3748.8002,N,12217.8534,W,2.31,121.41,050711,,,D*7B
$GPRMC,193727.000,A,3748.7996,N,12217.8527,W,2.39,128.36,050711,,,D*72
$GPRMC,193728.000,A,3748.7987,N,12217.8520,W,2.33,121.84,050711,,,D*70
$GPRMC,193729.000,A,3748.7978,N,12217.8513,W,2.45,124.27,050711,,,D*7C
$GPRMC,193730.000,A,3748.7972,N,12217.8505,W,2.17,112.77,050711,,,D*7E
$GPRMC,193731.000,A,3748.7965,N,12217.8499,W,2.00,111.96,050711,,,D*77
$GPRMC,193732.000,A,3748.7958,N,12217.8494,W,2.14,118.13,050711,,,D*76
$GPRMC,193733.000,A,3748.7955,N,12217.8487,W,1.82,118.23,050711,,,D*77
$GPRMC,193734.000,A,3748.7953,N,12217.8481,W,1.83,100.89,050711,,,D*78
$GPRMC,193735.000,A,3748.7950,N,12217.8474,W,2.12,108.67,050711,,,D*73
$GPRMC,193736.000,A,3748.7949,N,12217.8468,W,1.92,88.15,050711,,,D*42
$GPRMC,193737.000,A,3748.7944,N,12217.8460,W,2.06,107.33,050711,,,D*7A
$GPRMC,193738.000,A,3748.7943,N,12217.8454,W,2.00,99.47,050711,,,D*46
$GPRMC,193739.000,A,3748.7942,N,12217.8447,W,1.90,110.65,050711,,,D*7E
$GPRMC,193740.000,A,3748.7941,N,12217.8440,W,1.81,109.00,050711,,,D*7F
$GPRMC,193741.000,A,3748.7938,N,12217.8434,W,1.57,109.99,050711,,,D*78
$GPRMC,193742.000,A,3748.7933,N,12217.8428,W,1.96,99.99,050711,,,D*48
$GPRMC,193743.000,A,3748.7931,N,12217.8421,W,1.45,92.35,050711,,,D*41
$GPRMC,193744.000,A,3748.7931,N,12217.8415,W,1.75,83.46,050711,,,D*46
$GPRMC,193745.000,A,3748.7928,N,12217.8409,W,1.83,85.74,050711,,,D*4C
$GPRMC,193746.000,A,3748.7927,N,12217.8403,W,1.93,87.99,050711,,,D*4A
$GPRMC,193747.000,A,3748.7923,N,12217.8397,W,1.97,89.18,050711,,,D*46
$GPRMC,193748.000,A,3748.7921,N,12217.8391,W,1.83,90.21,050711,,,D*4A
$GPRMC,193749.000,A,3748.7920,N,12217.8385,W,1.79,97.22,050711,,,D*4E
$GPRMC,193750.000,A,3748.7919,N,12217.8380,W,1.80,98.12,050711,,,D*43
$GPRMC,193751.000,A,3748.7916,N,12217.8374,W,2.06,107.96,050711,,,D*70
$GPRMC,193752.000,A,3748.7910,N,12217.8368,W,1.80,104.50,050711,,,D*7C
$GPRMC,193753.000,A,3748.7910,N,12217.8359,W,1.75,94.17,050711,,,D*4E
$GPRMC,193754.000,A,3748.7910,N,12217.8353,W,1.79,94.14,050711,,,D*4C
$GPRMC,193755.000,A,3748.7906,N,12217.8346,W,2.04,99.67,050711,,,D*4E
$GPRMC,193756.000,A,3748.7895,N,12217.8340,W,1.95,99.21,050711,,,D*49
$GPRMC,193757.000,A,3748.7893,N,12217.8334,W,2.15,100.72,050711,,,D*71
$GPRMC,193758.000,A,3748.7892,N,12217.8327,W,1.91,100.15,050711,,,D*73
$GPRMC,193759.000,A,3748.7890,N,12217.8322,W,2.00,112.47,050711,,,D*7A
$GPRMC,193800.000,A,3748.7886,N,12217.8317,W,2.02,112.12,050711,,,D*7A
$GPRMC,193801.000,A,3748.7885,N,12217.8312,W,1.95,109.26,050711,,,D*7D
$GPRMC,193802.000,A,3748.7886,N,12217.8305,W,2.06,99.86,050711,,,D*40
$GPRMC,193803.000,A,3748.7883,N,12217.8299,W,1.63,98.76,050711,,,D*4E
$GPRMC,193804.000,A,3748.7880,N,12217.8295,W,1.78,116.30,050711,,,D*79
$GPRMC,193805.000,A,3748.7876,N,12217.8289,W,2.15,114.58,050711,,,D*78
$GPRMC,193806.000,A,3748.7871,N,12217.8282,W,2.28,102.66,050711,,,D*73
$GPRMC,193807.000,A,3748.7866,N,12217.8275,W,2.23,99.31,050711,,,D*46
$GPRMC,193808.000,A,3748.7862,N,12217.8267,W,2.34,95.86,050711,,,D*48
$GPRMC,193809.000,A,3748.7853,N,12217.8260,W,2.05,108.59,050711,,,D*79
$GPRMC,193810.000,A,3748.7841,N,12217.8254,W,2.02,123.97,050711,,,D*79
$GPRMC,193811.000,A,3748.7831,N,12217.8249,W,1.99,118.02,050711,,,D*76
$GPRMC,193812.000,A,3748.7828,N,12217.8240,W,2.12,108.15,050711,,,D*73
$GPRMC,193813.000,A,3748.7826,N,12217.8233,W,1.96,93.39,050711,,,D*4A
$GPRMC,193814.000,A,3748.7822,N,12217.8227,W,1.93,107.61,050711,,,D*78
$GPRMC,193815.000,A,3748.7820,N,12217.8221,W,1.94,110.10,050711,,,D*7A
$GPRMC,193816.000,A,3748.7818,N,12217.8214,W,2.03,110.64,050711,,,D*7A
$GPRMC,193817.000,A,3748.7815,N,12217.8208,W,1.78,107.99,050711,,,D*70
$GPRMC,193818.000,A,3748.7811,N,12217.8201,W,1.82,103.96,050711,,,D*7C
$GPRMC,193819.000,A,3748.7808,N,12217.8195,W,1.91,101.63,050711,,,D*71
$GPRMC,193820.000,A,3748.7804,N,12217.8189,W,2.13,106.09,050711,,,D*78
$GPRMC,193821.000,A,3748.7801,N,12217.8183,W,2.22,123.95,050711,,,D*76
$GPRMC,193822.000,A,3748.7797,N,12217.8176,W,2.12,125.09,050711,,,D*7F
$GPRMC,193823.000,A,3748.7793,N,12217.8170,W,1.97,112.11,050711,,,D*7F
$GPRMC,193824.000,A,3748.7791,N,12217.8162,W,1.85,111.10,050711,,,D*78
$GPRMC,193825.000,A,3748.7786,N,12217.8154,W,1.84,106.32,050711,,,D*7D
$GPRMC,193826.000,A,3748.7782,N,12217.8148,W,1.75,118.45,050711,,,D*76
$GPRMC,193827.000,A,3748.7781,N,12217.8142,W,1.67,105.96,050711,,,D*7F
$GPRMC,193828.000,A,3748.7776,N,12217.8135,W,1.73,97.95,050711,,,D*44
$GPRMC,193829.000,A,3748.7773,N,12217.8129,W,1.89,102.65,050711,,,D*7A
$GPRMC,193830.000,A,3748.7767,N,12217.8122,W,1.92,108.49,050711,,,D*72
$GPRMC,193831.000,A,3748.7763,N,12217.8116,W,1.84,112.73,050711,,,D*75
$GPRMC,193832.000,A,3748.7761,N,12217.8111,W,1.80,115.73,050711,,,D*70
$GPRMC,193833.000,A,3748.7760,N,12217.8106,W,2.06,111.45,050711,,,D*7A
$GPRMC,193834.000,A,3748.7757,N,12217.8101,W,1.78,114.38,050711,,,D*7B
$GPRMC,193835.000,A,3748.7754,N,12217.8097,W,1.59,117.10,050711,,,D*7D
$GPRMC,193836.000,A,3748.7752,N,12217.8094,W,1.71,111.61,050711,,,D*71
$GPRMC,193837.000,A,3748.7748,N,12217.8088,W,1.95,125.49,050711,,,D*71
$GPRMC,193838.000,A,3748.7744,N,12217.8083,W,1.88,124.79,050711,,,D*77
$GPRMC,193839.000,A,3748.7740,N,12217.8077,W,1.89,120.70,050711,,,D*75
$GPRMC,193839.000,A,3748.7738,N,12217.8071,W,1.93,103.96,050711,,,D*7E
$GPRMC,193840.000,A,3748.7736,N,12217.8065,W,1.66,103.13,050711,,,D*7C
$GPRMC,193841.000,A,3748.7734,N,12217.8059,W,1.74,109.48,050711,,,D*77
$GPRMC,193842.000,A,3748.7731,N,12217.8053,W,2.00,114.75,050711,,,D*79
$GPRMC,193843.000,A,3748.7728,N,12217.8047,W,1.97,118.70,050711,,,D*71
$GPRMC,193844.000,A,3748.7724,N,12217.8041,W,1.96,123.19,050711,,,D*7A
$GPRMC,193845.000,A,3748.7722,N,12217.8035,W,1.75,109.01,050711,,,D*72
$GPRMC,193846.000,A,3748.7719,N,12217.8030,W,1.62,105.40,050711,,,D*73
$GPRMC,193847.000,A,3748.7718,N,12217.8024,W,1.54,105.17,050711,,,D*71
$GPRMC,193848.000,A,3748.7716,N,12217.8019,W,1.76,111.96,050711,,,D*72
$GPRMC,193849.000,A,3748.7713,N,12217.8013,W,1.91,116.31,050711,,,D*7F
$GPRMC,193850.000,A,3748.7710,N,12217.8007,W,2.17,119.37,050711,,,D*75
$GPRMC,193851.000,A,3748.7706,N,12217.8000,W,2.03,114.67,050711,,,D*79
$GPRMC,193852.000,A,3748.7703,N,12217.7993,W,2.03,117.19,050711,,,D*79
$GPRMC,193853.000,A,3748.7701,N,12217.7987,W,1.80,112.83,050711,,,D*71
$GPRMC,193854.000,A,3748.7698,N,12217.7981,W,2.07,117.60,050711,,,D*75
$GPRMC,193855.000,A,3748.7694,N,12217.7975,W,2.15,121.39,050711,,,D*79
$GPRMC,193856.000,A,3748.7691,N,12217.7969,W,1.88,115.00,050711,,,D*78
$GPRMC,193857.000,A,3748.7688,N,12217.7963,W,1.99,120.54,050711,,,D*7C
$GPRMC,193858.000,A,3748.7684,N,12217.7958,W,1.86,109.42,050711,,,D*75
$GPRMC,193859.000,A,3748.7679,N,12217.7953,W,1.90,116.17,050711,,,D*74
$GPRMC,193900.000,A,3748.7675,N,12217.7948,W,1.85,119.87,050711,,,D*7D
$GPRMC,193901.000,A,3748.7670,N,12217.7942,W,2.05,117.60,050711,,,D*7F
$GPRMC,193902.000,A,3748.7667,N,12217.7936,W,1.70,112.12,050711,,,D*78
$GPRMC,193903.000,A,3748.7665,N,12217.7929,W,2.09,102.08,050711,,,D*72
$GPRMC,193904.000,A,3748.7663,N,12217.7922,W,2.10,104.94,050711,,,D*73
$GPRMC,193905.000,A,3748.7660,N,12217.7914,W,2.29,107.61,050711,,,D*77
$GPRMC,193906.000,A,3748.7656,N,12217.7906,W,2.33,112.81,050711,,,D*73
$GPRMC,193907.000,A,3748.7653,N,12217.7898,W,2.28,111.58,050711,,,D*7C
$GPRMC,193908.000,A,3748.7649,N,12217.7891,W,2.24,117.04,050711,,,D*72
$GPRMC,193909.000,A,3748.7646,N,12217.7884,W,2.05,109.93,050711,,,D*7A
$GPRMC,193910.000,A,3748.7642,N,12217.7877,W,1.93,109.88,050711,,,D*7C
$GPRMC,193911.000,A,3748.7636,N,12217.7871,W,2.09,115.79,050711,,,D*7B
$GPRMC,193912.000,A,3748.7630,N,12217.7866,W,2.15,109.36,050711,,,D*73
$GPRMC,193913.000,A,3748.7628,N,12217.7859,W,2.21,110.34,050711,,,D*7A
$GPRMC,193914.000,A,3748.7627,N,12217.7853,W,2.00,104.83,050711,,,D*72
$GPRMC,193915.000,A,3748.7628,N,12217.7845,W,1.85,102.83,050711,,,D*73
$GPRMC,193916.000,A,3748.7625,N,12217.7838,W,2.06,107.63,050711,,,D*74
$GPRMC,193917.000,A,3748.7625,N,12217.7828,W,1.99,103.05,050711,,,D*75
$GPRMC,193918.000,A,3748.7625,N,12217.7820,W,1.83,103.24,050711,,,D*7A
$GPRMC,193919.000,A,3748.7623,N,12217.7814,W,1.82,104.07,050711,,,D*7D
$GPRMC,193920.000,A,3748.7619,N,12217.7807,W,1.80,98.40,050711,,,D*49
$GPRMC,193921.000,A,3748.7614,N,12217.7803,W,1.73,113.43,050711,,,D*7C
$GPRMC,193922.000,A,3748.7610,N,12217.7797,W,1.75,120.50,050711,,,D*7D
$GPRMC,193923.000,A,3748.7605,N,12217.7791,W,2.20,119.54,050711,,,D*73
$GPRMC,193924.000,A,3748.7597,N,12217.7783,W,1.97,115.67,050711,,,D*7C
$GPRMC,193925.000,A,3748.7593,N,12217.7774,W,1.94,108.46,050711,,,D*7D
$GPRMC,193926.000,A,3748.7590,N,12217.7766,W,1.98,91.16,050711,,,D*46
$GPRMC,193927.000,A,3748.7587,N,12217.7758,W,1.64,103.89,050711,,,D*73
$GPRMC,193928.000,A,3748.7579,N,12217.7753,W,1.71,116.20,050711,,,D*75
$GPRMC,193929.000,A,3748.7572,N,12217.7747,W,1.98,131.78,050711,,,D*75
$GPRMC,193930.000,A,3748.7567,N,12217.7741,W,1.76,110.32,050711,,,D*72
$GPRMC,193931.000,A,3748.7564,N,12217.7735,W,1.93,112.77,050711,,,D*7B
$GPRMC,193932.000,A,3748.7561,N,12217.7729,W,2.01,107.12,050711,,,D*7F
$GPRMC,193933.000,A,3748.7558,N,12217.7722,W,1.93,106.45,050711,,,D*74
$GPRMC,193934.000,A,3748.7554,N,12217.7716,W,1.84,100.09,050711,,,D*70
$GPRMC,193935.000,A,3748.7551,N,12217.7710,W,2.10,116.92,050711,,,D*79
$GPRMC,193936.000,A,3748.7548,N,12217.7704,W,1.97,122.71,050711,,,D*71
$GPRMC,193937.000,A,3748.7547,N,12217.7699,W,1.74,102.17,050711,,,D*75
$GPRMC,193938.000,A,3748.7543,N,12217.7693,W,1.64,98.54,050711,,,D*40
$GPRMC,193939.000,A,3748.7537,N,12217.7687,W,1.80,100.25,050711,,,D*7B
$GPRMC,193940.000,A,3748.7535,N,12217.7681,W,1.75,94.83,050711,,,D*4B
$GPRMC,193941.000,A,3748.7533,N,12217.7675,W,1.80,83.66,050711,,,D*40
$GPRMC,193942.000,A,3748.7529,N,12217.7670,W,1.88,118.96,050711,,,D*79
$GPRMC,193943.000,A,3748.7527,N,12217.7664,W,1.77,121.87,050711,,,D*79
$GPRMC,193944.000,A,3748.7525,N,12217.7659,W,1.79,114.52,050711,,,D*72
$GPRMC,193945.000,A,3748.7522,N,12217.7653,W,1.87,101.42,050711,,,D*7A
$GPRMC,193946.000,A,3748.7518,N,12217.7646,W,1.79,93.99,050711,,,D*49
$GPRMC,193947.000,A,3748.7515,N,12217.7638,W,1.99,89.33,050711,,,D*49
$GPRMC,193948.000,A,3748.7515,N,12217.7631,W,1.77,92.96,050711,,,D*4A
$GPRMC,193949.000,A,3748.7514,N,12217.7624,W,1.72,100.87,050711,,,D*71
$GPRMC,193950.000,A,3748.7513,N,12217.7618,W,1.85,88.33,050711,,,D*47
$GPRMC,193951.000,A,3748.7511,N,12217.7611,W,1.86,88.87,050711,,,D*41
$GPRMC,193952.000,A,3748.7504,N,12217.7604,W,1.85,108.36,050711,,,D*72
$GPRMC,193953.000,A,3748.7500,N,12217.7598,W,1.98,108.02,050711,,,D*7A
$GPRMC,193954.000,A,3748.7495,N,12217.7592,W,1.87,106.85,050711,,,D*75
$GPRMC,193955.000,A,3748.7493,N,12217.7586,W,1.84,112.32,050711,,,D*7D
$GPRMC,193956.000,A,3748.7490,N,12217.7580,W,1.86,113.26,050711,,,D*7D
$GPRMC,193957.000,A,3748.7485,N,12217.7576,W,2.03,121.27,050711,,,D*7F
$GPRMC,193958.000,A,3748.7481,N,12217.7570,W,1.95,115.67,050711,,,D*7D
$GPRMC,193959.000,A,3748.7478,N,12217.7563,W,2.10,109.77,050711,,,D*7A
$GPRMC,194000.000,A,3748.7475,N,12217.7556,W,1.98,113.17,050711,,,D*7D
$GPRMC,194001.000,A,3748.7473,N,12217.7549,W,1.85,103.36,050711,,,D*7A
$GPRMC,194002.000,A,3748.7470,N,12217.7541,W,1.93,104.42,050711,,,D*71
$GPRMC,194003.000,A,3748.7468,N,12217.7534,W,1.88,104.99,050711,,,D*77
$GPRMC,194004.000,A,3748.7466,N,12217.7528,W,1.87,109.46,050711,,,D*73
$GPRMC,194005.000,A,3748.7462,N,12217.7522,W,1.48,97.32,050711,,,D*4A
$GPRMC,194006.000,A,3748.7457,N,12217.7517,W,1.96,104.77,050711,,,D*70
$GPRMC,194007.000,A,3748.7450,N,12217.7510,W,1.82,103.02,050711,,,D*71
$GPRMC,194008.000,A,3748.7445,N,12217.7502,W,2.11,101.66,050711,,,D*70
$GPRMC,194009.000,A,3748.7443,N,12217.7495,W,1.95,91.41,050711,,,D*4A
$GPRMC,194010.000,A,3748.7443,N,12217.7487,W,2.01,92.97,050711,,,D*47
$GPRMC,194011.000,A,3748.7443,N,12217.7480,W,1.59,106.29,050711,,,D*76
$GPRMC,194012.000,A,3748.7441,N,12217.7475,W,1.59,124.00,050711,,,D*76
$GPRMC,194013.000,A,3748.7442,N,12217.7467,W,1.92,106.20,050711,,,D*72
$GPRMC,194014.000,A,3748.7442,N,12217.7463,W,1.32,126.16,050711,,,D*7C
$GPRMC,194015.000,A,3748.7440,N,12217.7457,W,1.34,120.42,050711,,,D*79
$GPRMC,194016.000,A,3748.7437,N,12217.7453,W,1.50,119.25,050711,,,D*77
$GPRMC,194017.000,A,3748.7435,N,12217.7445,W,1.45,107.48,050711,,,D*73
$GPRMC,194018.000,A,3748.7436,N,12217.7440,W,1.06,51.73,050711,,,D*47
$GPRMC,194019.000,A,3748.7435,N,12217.7432,W,0.93,95.93,050711,,,D*4B
$GPRMC,194020.000,A,3748.7431,N,12217.7424,W,1.45,105.96,050711,,,D*75
$GPRMC,194021.000,A,3748.7428,N,12217.7415,W,1.69,97.94,050711,,,D*48
$GPRMC,194022.000,A,3748.7425,N,12217.7407,W,1.83,97.29,050711,,,D*47
$GPRMC,194023.000,A,3748.7424,N,12217.7398,W,1.48,78.64,050711,,,A*4C
$GPRMC,194024.000,A,3748.7425,N,12217.7394,W,1.09,74.61,050711,,,A*4A
$GPRMC,194025.000,A,3748.7422,N,12217.7387,W,1.61,104.22,050711,,,A*71
$GPRMC,194026.000,A,3748.7415,N,12217.7380,W,2.16,118.60,050711,,,A*79
$GPRMC,194027.000,A,3748.7410,N,12217.7374,W,1.69,111.11,050711,,,A*72
$GPRMC,194028.000,A,3748.7409,N,12217.7367,W,1.28,111.21,050711,,,A*71
$GPRMC,194029.000,A,3748.7411,N,12217.7360,W,1.58,98.84,050711,,,A*46
$GPRMC,194030.000,A,3748.7413,N,12217.7356,W,1.06,81.23,050711,,,A*47
$GPRMC,194031.000,A,3748.7410,N,12217.7346,W,1.78,102.58,050711,,,A*7B
$GPRMC,194032.000,A,3748.7408,N,12217.7338,W,1.95,99.64,050711,,,A*47
$GPRMC,194033.000,A,3748.7407,N,12217.7331,W,1.74,88.14,050711,,,A*48
$GPRMC,194034.000,A,3748.7406,N,12217.7324,W,1.65,82.07,050711,,,A*42
$GPRMC,194035.000,A,3748.7403,N,12217.7314,W,1.95,102.64,050711,,,A*76
$GPRMC,194036.000,A,3748.7398,N,12217.7306,W,2.32,124.07,050711,,,A*7C
$GPRMC,194037.000,A,3748.7392,N,12217.7297,W,2.24,127.46,050711,,,A*7F
$GPRMC,194038.000,A,3748.7387,N,12217.7290,W,2.16,124.40,050711,,,A*77
$GPRMC,194039.000,A,3748.7383,N,12217.7283,W,1.86,109.07,050711,,,A*76
$GPRMC,194040.000,A,3748.7379,N,12217.7277,W,1.82,104.96,050711,,,A*77
$GPRMC,194041.000,A,3748.7374,N,12217.7270,W,1.96,111.79,050711,,,A*7C
$GPRMC,194042.000,A,3748.7369,N,12217.7262,W,1.94,109.10,050711,,,A*74
$GPRMC,194043.000,A,3748.7367,N,12217.7253,W,1.90,104.53,050711,,,A*77
$GPRMC,194044.000,A,3748.7362,N,12217.7243,W,2.25,107.37,050711,,,A*78
$GPRMC,194045.000,A,3748.7356,N,12217.7235,W,2.15,109.32,050711,,,A*77
$GPRMC,194046.000,A,3748.7351,N,12217.7228,W,2.08,108.49,050711,,,A*7E
$GPRMC,194047.000,A,3748.7346,N,12217.7220,W,2.04,108.69,050711,,,A*7F
$GPRMC,194048.000,A,3748.7342,N,12217.7213,W,1.95,109.76,050711,,,D*75
$GPRMC,194049.000,A,3748.7336,N,12217.7205,W,2.33,122.64,050711,,,D*75
$GPRMC,194050.000,A,3748.7331,N,12217.7197,W,2.19,119.93,050711,,,D*7A
$GPRMC,194051.000,A,3748.7326,N,12217.7190,W,2.27,115.16,050711,,,D*76
$GPRMC,194052.000,A,3748.7322,N,12217.7182,W,2.17,113.39,050711,,,D*7A
$GPRMC,194053.000,A,3748.7317,N,12217.7174,W,2.34,117.06,050711,,,D*7D
$GPRMC,194054.000,A,3748.7313,N,12217.7166,W,2.02,107.24,050711,,,D*79
$GPRMC,194055.000,A,3748.7311,N,12217.7159,W,1.91,98.90,050711,,,D*47
$GPRMC,194056.000,A,3748.7309,N,12217.7152,W,1.74,60.95,050711,,,D*4F
$GPRMC,194057.000,A,3748.7310,N,12217.7146,W,1.70,41.40,050711,,,D*4C
$GPRMC,194058.000,A,3748.7312,N,12217.7142,W,2.11,30.47,050711,,,D*40
$GPRMC,194059.000,A,3748.7316,N,12217.7139,W,1.81,25.75,050711,,,D*46
$GPRMC,194100.000,A,3748.7319,N,12217.7136,W,2.03,19.43,050711,,,D*48
$GPRMC,194101.000,A,3748.7324,N,12217.7131,W,1.86,29.48,050711,,,D*46
$GPRMC,194102.000,A,3748.7330,N,12217.7124,W,2.16,31.50,050711,,,D*4E
$GPRMC,194103.000,A,3748.7335,N,12217.7118,W,2.40,29.02,050711,,,D*48
$GPRMC,194104.000,A,3748.7340,N,12217.7110,W,2.52,26.95,050711,,,D*47
$GPRMC,194105.000,A,3748.7345,N,12217.7104,W,2.40,22.30,050711,,,D*4E
$GPRMC,194106.000,A,3748.7351,N,12217.7096,W,2.02,30.47,050711,,,D*47
$GPRMC,194107.000,A,3748.7357,N,12217.7090,W,2.23,36.27,050711,,,D*45
$GPRMC,194108.000,A,3748.7358,N,12217.7083,W,2.29,31.62,050711,,,D*4B
$GPRMC,194109.000,A,3748.7362,N,12217.7079,W,1.64,31.36,050711,,,D*4D
$GPRMC,194110.000,A,3748.7362,N,12217.7074,W,1.50,32.50,050711,,,D*4C
$GPRMC,194111.000,A,3748.7365,N,12217.7069,W,1.93,24.54,050711,,,D*4A
$GPRMC,194112.000,A,3748.7370,N,12217.7065,W,2.03,27.99,050711,,,D*49
$GPRMC,194113.000,A,3748.7375,N,12217.7062,W,1.81,28.73,050711,,,D*48
$GPRMC,194114.000,A,3748.7379,N,12217.7058,W,1.93,29.40,050711,,,D*48
$GPRMC,194115.000,A,3748.7383,N,12217.7051,W,2.17,26.44,050711,,,D*41
$GPRMC,194116.000,A,3748.7382,N,12217.7051,W,1.62,24.29,050711,,,D*4B
$GPRMC,194117.000,A,3748.7386,N,12217.7051,W,1.80,17.18,050711,,,D*40
$GPRMC,194118.000,A,3748.7391,N,12217.7048,W,1.79,25.96,050711,,,D*40
$GPRMC,194119.000,A,3748.7396,N,12217.7046,W,2.34,28.92,050711,,,D*4B
$GPRMC,194120.000,A,3748.7400,N,12217.7045,W,2.27,26.53,050711,,,D*4B
$GPRMC,194121.000,A,3748.7404,N,12217.7040,W,1.88,22.46,050711,,,D*4D
$GPRMC,194122.000,A,3748.7410,N,12217.7036,W,1.67,19.73,050711,,,D*45
$GPRMC,194123.000,A,3748.7416,N,12217.7032,W,2.35,26.15,050711,,,D*4E
$GPRMC,194124.000,A,3748.7427,N,12217.7025,W,2.84,31.69,050711,,,D*4A
$GPRMC,194125.000,A,3748.7434,N,12217.7018,W,2.85,39.38,050711,,,D*4A
$GPRMC,194126.000,A,3748.7442,N,12217.7011,W,2.40,33.40,050711,,,D*4D
$GPRMC,194127.000,A,3748.7447,N,12217.7004,W,1.91,33.32,050711,,,D*47
$GPRMC,194128.000,A,3748.7453,N,12217.6999,W,2.17,28.46,050711,,,D*45
$GPRMC,194129.000,A,3748.7458,N,12217.6993,W,1.85,26.38,050711,,,D*4A
$GPRMC,194130.000,A,3748.7465,N,12217.6989,W,2.27,23.28,050711,,,D*48
$GPRMC,194131.000,A,3748.7472,N,12217.6986,W,1.84,24.98,050711,,,D*46
$GPRMC,194132.000,A,3748.7480,N,12217.6982,W,1.88,25.20,050711,,,D*42
$GPRMC,194133.000,A,3748.7487,N,12217.6980,W,2.01,16.82,050711,,,A*49
$GPRMC,194134.000,A,3748.7490,N,12217.6978,W,1.89,15.93,050711,,,A*4F
$GPRMC,194135.000,A,3748.7493,N,12217.6974,W,1.63,21.54,050711,,,D*4C
$GPRMC,194136.000,A,3748.7496,N,12217.6969,W,1.97,18.69,050711,,,D*49
$GPRMC,194137.000,A,3748.7501,N,12217.6966,W,1.92,20.50,050711,,,D*4C
$GPRMC,194138.000,A,3748.7503,N,12217.6961,W,1.10,25.03,050711,,,D*4F
$GPRMC,194139.000,A,3748.7506,N,12217.6956,W,1.32,31.24,050711,,,D*4F
$GPRMC,194140.000,A,3748.7510,N,12217.6951,W,1.37,35.63,050711,,,D*43
$GPRMC,194141.000,A,3748.7516,N,12217.6947,W,1.65,27.84,050711,,,D*4E
$GPRMC,194142.000,A,3748.7525,N,12217.6940,W,1.97,33.05,050711,,,D*4B
$GPRMC,194143.000,A,3748.7530,N,12217.6935,W,2.14,23.54,050711,,,D*41
$GPRMC,194144.000,A,3748.7543,N,12217.6924,W,2.43,32.37,050711,,,D*45
$GPRMC,194145.000,A,3748.7549,N,12217.6919,W,1.85,32.41,050711,,,D*48
$GPRMC,194146.000,A,3748.7554,N,12217.6918,W,1.61,31.15,050711,,,D*4E
$GPRMC,194147.000,A,3748.7561,N,12217.6915,W,1.95,33.71,050711,,,D*4F
$GPRMC,194148.000,A,3748.7568,N,12217.6910,W,2.13,34.82,050711,,,D*4A
$GPRMC,194149.000,A,3748.7577,N,12217.6909,W,2.16,23.72,050711,,,D*41
$GPRMC,194150.000,A,3748.7583,N,12217.6906,W,2.18,18.03,050711,,,D*4D
$GPRMC,194151.000,A,3748.7588,N,12217.6903,W,1.99,21.91,050711,,,D*49
$GPRMC,194152.000,A,3748.7591,N,12217.6896,W,2.33,37.33,050711,,,D*43
$GPRMC,194153.000,A,3748.7597,N,12217.6889,W,2.59,33.81,050711,,,D*4B
$GPRMC,194154.000,A,3748.7605,N,12217.6884,W,2.21,29.39,050711,,,D*4E
$GPRMC,194155.000,A,3748.7612,N,12217.6882,W,1.89,31.68,050711,,,D*43
$GPRMC,194156.000,A,3748.7617,N,12217.6879,W,1.73,35.92,050711,,,D*45
$GPRMC,194157.000,A,3748.7622,N,12217.6875,W,2.04,38.20,050711,,,D*49
$GPRMC,194158.000,A,3748.7628,N,12217.6872,W,1.67,29.69,050711,,,D*40
$GPRMC,194159.000,A,3748.7633,N,12217.6867,W,1.77,25.11,050711,,,D*4D
$GPRMC,194200.000,A,3748.7640,N,12217.6865,W,2.35,20.18,050711,,,D*4D
$GPRMC,194201.000,A,3748.7647,N,12217.6863,W,2.37,12.66,050711,,,D*47
$GPRMC,194202.000,A,3748.7653,N,12217.6861,W,1.91,359.86,050711,,,D*7E
$GPRMC,194203.000,A,3748.7656,N,12217.6859,W,1.30,33.68,050711,,,D*45
$GPRMC,194204.000,A,3748.7663,N,12217.6854,W,2.04,20.76,050711,,,D*40
$GPRMC,194205.000,A,3748.7669,N,12217.6849,W,2.12,19.17,050711,,,D*4D
$GPRMC,194206.000,A,3748.7675,N,12217.6845,W,2.28,23.53,050711,,,D*4F
$GPRMC,194207.000,A,3748.7682,N,12217.6842,W,2.41,25.04,050711,,,D*4A
$GPRMC,194208.000,A,3748.7688,N,12217.6836,W,2.42,27.17,050711,,,D*4F
$GPRMC,194209.000,A,3748.7694,N,12217.6830,W,2.03,30.26,050711,,,D*44
$GPRMC,194210.000,A,3748.7698,N,12217.6822,W,1.95,29.89,050711,,,D*42
$GPRMC,194211.000,A,3748.7703,N,12217.6815,W,2.22,25.97,050711,,,D*48
$GPRMC,194212.000,A,3748.7711,N,12217.6811,W,2.31,21.40,050711,,,D*40
$GPRMC,194213.000,A,3748.7717,N,12217.6810,W,2.03,19.36,050711,,,D*4D
$GPRMC,194214.000,A,3748.7723,N,12217.6806,W,1.88,26.27,050711,,,D*46
$GPRMC,194215.000,A,3748.7727,N,12217.6799,W,2.13,25.07,050711,,,D*4A
$GPRMC,194216.000,A,3748.7731,N,12217.6792,W,2.06,23.54,050711,,,D*41
$GPRMC,194217.000,A,3748.7736,N,12217.6786,W,2.05,19.51,050711,,,D*4D
$GPRMC,194218.000,A,3748.7742,N,12217.6782,W,2.37,33.71,050711,,,D*4E
$GPRMC,194219.000,A,3748.7748,N,12217.6779,W,2.20,27.46,050711,,,D*46
$GPRMC,194220.000,A,3748.7753,N,12217.6774,W,2.14,17.04,050711,,,D*49
$GPRMC,194221.000,A,3748.7764,N,12217.6765,W,2.49,8.06,050711,,,D*78
$GPRMC,194222.000,A,3748.7772,N,12217.6759,W,2.22,25.94,050711,,,D*4A
$GPRMC,194223.000,A,3748.7781,N,12217.6749,W,2.63,39.78,050711,,,D*4C
$GPRMC,194224.000,A,3748.7789,N,12217.6739,W,2.32,30.94,050711,,,D*4B
$GPRMC,194225.000,A,3748.7793,N,12217.6736,W,2.28,24.73,050711,,,D*49
$GPRMC,194226.000,A,3748.7796,N,12217.6735,W,1.84,27.48,050711,,,D*42
$GPRMC,194227.000,A,3748.7802,N,12217.6735,W,1.85,27.77,050711,,,D*4C
$GPRMC,194228.000,A,3748.7805,N,12217.6731,W,1.83,38.21,050711,,,D*4B
$GPRMC,194229.000,A,3748.7808,N,12217.6727,W,1.86,28.02,050711,,,D*45
$GPRMC,194230.000,A,3748.7813,N,12217.6724,W,1.76,21.65,050711,,,D*43
$GPRMC,194231.000,A,3748.7817,N,12217.6722,W,1.88,16.96,050711,,,D*49
$GPRMC,194232.000,A,3748.7823,N,12217.6720,W,1.94,26.78,050711,,,D*41
$GPRMC,194233.000,A,3748.7829,N,12217.6714,W,1.86,19.56,050711,,,D*4E
$GPRMC,194234.000,A,3748.7833,N,12217.6711,W,1.84,15.98,050711,,,D*4B
$GPRMC,194235.000,A,3748.7839,N,12217.6709,W,1.81,22.13,050711,,,D*4B
$GPRMC,194236.000,A,3748.7843,N,12217.6704,W,2.02,29.44,050711,,,D*49
$GPRMC,194237.000,A,3748.7848,N,12217.6699,W,2.12,28.80,050711,,,D*4E
$GPRMC,194238.000,A,3748.7854,N,12217.6695,W,2.42,20.70,050711,,,D*42
$GPRMC,194239.000,A,3748.7861,N,12217.6692,W,2.26,18.29,050711,,,D*47
$GPRMC,194240.000,A,3748.7866,N,12217.6688,W,2.26,21.40,050711,,,D*40
$GPRMC,194241.000,A,3748.7872,N,12217.6684,W,2.32,21.78,050711,,,D*46
$GPRMC,194242.000,A,3748.7878,N,12217.6678,W,2.23,29.96,050711,,,D*44
$GPRMC,194243.000,A,3748.7883,N,12217.6673,W,2.03,29.48,050711,,,D*4B
$GPRMC,194244.000,A,3748.7888,N,12217.6669,W,1.95,20.39,050711,,,D*4F
$GPRMC,194245.000,A,3748.7894,N,12217.6665,W,2.10,18.63,050711,,,D*45
$GPRMC,194246.000,A,3748.7899,N,12217.6661,W,1.89,21.19,050711,,,D*4B
$GPRMC,194247.000,A,3748.7903,N,12217.6656,W,2.14,31.91,050711,,,D*4A
$GPRMC,194248.000,A,3748.7907,N,12217.6650,W,1.93,20.56,050711,,,D*40
$GPRMC,194249.000,A,3748.7913,N,12217.6645,W,2.04,19.55,050711,,,D*44
$GPRMC,194250.000,A,3748.7918,N,12217.6642,W,2.22,23.72,050711,,,D*48
$GPRMC,194251.000,A,3748.7923,N,12217.6638,W,2.13,21.08,050711,,,D*41
$GPRMC,194252.000,A,3748.7928,N,12217.6635,W,1.92,25.56,050711,,,D*41
$GPRMC,194253.000,A,3748.7933,N,12217.6632,W,2.04,26.03,050711,,,D*42
$GPRMC,194254.000,A,3748.7937,N,12217.6629,W,1.77,35.88,050711,,,D*4D
$GPRMC,194255.000,A,3748.7942,N,12217.6625,W,1.86,33.60,050711,,,D*4C
$GPRMC,194256.000,A,3748.7945,N,12217.6621,W,1.86,35.50,050711,,,D*49
$GPRMC,194257.000,A,3748.7950,N,12217.6616,W,2.22,25.86,050711,,,D*4F
$GPRMC,194258.000,A,3748.7957,N,12217.6607,W,2.17,30.08,050711,,,D*43
$GPRMC,194259.000,A,3748.7965,N,12217.6604,W,2.35,22.32,050711,,,D*4A
$GPRMC,194300.000,A,3748.7971,N,12217.6601,W,2.11,18.01,050711,,,D*48
$GPRMC,194301.000,A,3748.7977,N,12217.6598,W,2.17,27.69,050711,,,D*48
$GPRMC,194302.000,A,3748.7982,N,12217.6594,W,2.24,27.70,050711,,,D*45
$GPRMC,194303.000,A,3748.7988,N,12217.6591,W,2.13,27.18,050711,,,D*41
$GPRMC,194304.000,A,3748.7993,N,12217.6587,W,2.16,28.76,050711,,,D*49
$GPRMC,194305.000,A,3748.8000,N,12217.6583,W,2.52,32.84,050711,,,D*46
$GPRMC,194306.000,A,3748.8006,N,12217.6580,W,2.06,24.47,050711,,,D*49
$GPRMC,194307.000,A,3748.8010,N,12217.6577,W,1.82,20.70,050711,,,D*48
$GPRMC,194308.000,A,3748.8015,N,12217.6574,W,1.99,24.51,050711,,,D*4C
$GPRMC,194309.000,A,3748.8021,N,12217.6570,W,2.19,28.17,050711,,,D*4B
$GPRMC,194310.000,A,3748.8026,N,12217.6566,W,2.26,26.43,050711,,,D*40
$GPRMC,194311.000,A,3748.8033,N,12217.6560,W,2.41,26.22,050711,,,D*45
$GPRMC,194312.000,A,3748.8039,N,12217.6554,W,2.32,31.53,050711,,,D*4F
$GPRMC,194313.000,A,3748.8045,N,12217.6548,W,2.15,27.22,050711,,,D*4C
$GPRMC,194314.000,A,3748.8050,N,12217.6543,W,2.14,32.19,050711,,,D*49
$GPRMC,194315.000,A,3748.8055,N,12217.6540,W,1.84,21.39,050711,,,D*44
$GPRMC,194316.000,A,3748.8059,N,12217.6536,W,1.64,10.89,050711,,,D*4D
$GPRMC,194317.000,A,3748.8065,N,12217.6533,W,2.11,15.42,050711,,,D*45
$GPRMC,194318.000,A,3748.8070,N,12217.6527,W,1.94,21.98,050711,,,D*45
$GPRMC,194319.000,A,3748.8075,N,12217.6524,W,2.00,23.02,050711,,,D*4D
$GPRMC,194320.000,A,3748.8081,N,12217.6521,W,2.18,18.31,050711,,,D*48
$GPRMC,194321.000,A,3748.8088,N,12217.6515,W,2.24,15.69,050711,,,D*48
$GPRMC,194322.000,A,3748.8098,N,12217.6514,W,2.45,11.90,050711,,,D*4E
$GPRMC,194323.000,A,3748.8104,N,12217.6509,W,1.90,29.30,050711,,,D*4D
$GPRMC,194324.000,A,3748.8109,N,12217.6504,W,1.74,37.29,050711,,,D*47
$GPRMC,194325.000,A,3748.8114,N,12217.6497,W,1.58,32.35,050711,,,D*47
$GPRMC,194326.000,A,3748.8121,N,12217.6491,W,1.90,27.96,050711,,,D*4D
$GPRMC,194327.000,A,3748.8130,N,12217.6486,W,2.26,32.36,050711,,,D*4A
$GPRMC,194328.000,A,3748.8136,N,12217.6481,W,1.70,35.59,050711,,,D*4A
$GPRMC,194329.000,A,3748.8142,N,12217.6476,W,2.05,26.95,050711,,,D*43
$GPRMC,194330.000,A,3748.8147,N,12217.6474,W,1.95,35.01,050711,,,D*49
$GPRMC,194331.000,A,3748.8150,N,12217.6466,W,2.04,37.93,050711,,,D*4F
$GPRMC,194332.000,A,3748.8151,N,12217.6456,W,2.14,36.37,050711,,,D*40
$GPRMC,194333.000,A,3748.8154,N,12217.6445,W,2.39,27.75,050711,,,D*4F
$GPRMC,194334.000,A,3748.8159,N,12217.6437,W,2.59,38.08,050711,,,D*42
$GPRMC,194335.000,A,3748.8164,N,12217.6426,W,2.30,34.38,050711,,,D*4D
$GPRMC,194336.000,A,3748.8167,N,12217.6417,W,2.16,31.71,050711,,,D*43
$GPRMC,194337.000,A,3748.8170,N,12217.6405,W,2.40,28.79,050711,,,D*44
$GPRMC,194338.000,A,3748.8174,N,12217.6398,W,2.40,27.39,050711,,,D*47
$GPRMC,194339.000,A,3748.8181,N,12217.6393,W,2.22,24.59,050711,,,D*46
$GPRMC,194340.000,A,3748.8188,N,12217.6390,W,2.31,21.74,050711,,,D*4A
$GPRMC,194341.000,A,3748.8199,N,12217.6387,W,2.33,28.26,050711,,,D*41
$GPRMC,194342.000,A,3748.8205,N,12217.6382,W,2.27,31.89,050711,,,D*49
$GPRMC,194343.000,A,3748.8209,N,12217.6378,W,2.25,40.42,050711,,,D*42
$GPRMC,194344.000,A,3748.8214,N,12217.6373,W,1.97,44.89,050711,,,D*4B
$GPRMC,194345.000,A,3748.8221,N,12217.6366,W,2.42,52.48,050711,,,D*49
$GPRMC,194346.000,A,3748.8229,N,12217.6359,W,2.24,37.89,050711,,,D*40
$GPRMC,194347.000,A,3748.8239,N,12217.6351,W,2.53,43.36,050711,,,D*4F
$GPRMC,194348.000,A,3748.8247,N,12217.6348,W,2.01,30.49,050711,,,D*4A
$GPRMC,194349.000,A,3748.8251,N,12217.6347,W,1.73,17.40,050711,,,D*49
$GPRMC,194350.000,A,3748.8255,N,12217.6339,W,2.04,26.44,050711,,,D*49
$GPRMC,194351.000,A,3748.8259,N,12217.6332,W,2.13,23.45,050711,,,D*4D
$GPRMC,194352.000,A,3748.8263,N,12217.6319,W,2.23,31.82,050711,,,D*45
$GPRMC,194353.000,A,3748.8265,N,12217.6308,W,2.20,26.17,050711,,,D*4B
$GPRMC,194354.000,A,3748.8270,N,12217.6300,W,2.29,31.32,050711,,,D*48
$GPRMC,194355.000,A,3748.8275,N,12217.6295,W,2.33,33.44,050711,,,D*49
$GPRMC,194356.000,A,3748.8279,N,12217.6289,W,2.37,38.66,050711,,,D*44
$GPRMC,194357.000,A,3748.8288,N,12217.6288,W,2.22,31.43,050711,,,D*40
$GPRMC,194358.000,A,3748.8295,N,12217.6284,W,2.22,27.16,050711,,,D*48
$GPRMC,194359.000,A,3748.8303,N,12217.6280,W,2.47,41.29,050711,,,D*4C
$GPRMC,194400.000,A,3748.8309,N,12217.6276,W,2.19,25.82,050711,,,D*4C
$GPRMC,194401.000,A,3748.8316,N,12217.6276,W,1.82,14.33,050711,,,D*4A
$GPRMC,194402.000,A,3748.8322,N,12217.6274,W,2.01,9.43,050711,,,D*7F
$GPRMC,194403.000,A,3748.8329,N,12217.6274,W,2.02,14.56,050711,,,D*4E
$GPRMC,194404.000,A,3748.8333,N,12217.6272,W,2.10,26.38,050711,,,D*4E
$GPRMC,194405.000,A,3748.8337,N,12217.6269,W,2.12,35.66,050711,,,D*4A
$GPRMC,194406.000,A,3748.8338,N,12217.6266,W,1.90,38.44,050711,,,D*4D
$GPRMC,194407.000,A,3748.8343,N,12217.6261,W,1.89,42.59,050711,,,D*4E
$GPRMC,194408.000,A,3748.8349,N,12217.6254,W,1.80,46.27,050711,,,D*49
$GPRMC,194409.000,A,3748.8355,N,12217.6250,W,2.04,35.67,050711,,,D*4E
$GPRMC,194410.000,A,3748.8359,N,12217.6245,W,2.08,47.93,050711,,,D*4C
$GPRMC,194411.000,A,3748.8362,N,12217.6239,W,2.29,52.56,050711,,,D*40
$GPRMC,194412.000,A,3748.8366,N,12217.6233,W,2.21,50.05,050711,,,D*41
$GPRMC,194413.000,A,3748.8372,N,12217.6227,W,1.74,46.89,050711,,,D*40
$GPRMC,194414.000,A,3748.8375,N,12217.6221,W,1.70,54.56,050711,,,D*43
$GPRMC,194415.000,A,3748.8378,N,12217.6215,W,1.74,93.08,050711,,,D*4C
$GPRMC,194416.000,A,3748.8378,N,12217.6208,W,1.72,110.84,050711,,,D*7B
$GPRMC,194417.000,A,3748.8375,N,12217.6202,W,2.29,125.53,050711,,,D*7C
$GPRMC,194418.000,A,3748.8373,N,12217.6196,W,1.74,123.22,050711,,,D*70
$GPRMC,194419.000,A,3748.8370,N,12217.6190,W,2.04,122.04,050711,,,D*75
$GPRMC,194420.000,A,3748.8369,N,12217.6183,W,1.97,105.21,050711,,,D*7E
$GPRMC,194421.000,A,3748.8368,N,12217.6178,W,1.01,126.02,050711,,,D*75
$GPRMC,194422.000,A,3748.8365,N,12217.6175,W,1.68,134.54,050711,,,D*79
$GPRMC,194423.000,A,3748.8363,N,12217.6170,W,1.82,123.80,050711,,,D*70
$GPRMC,194424.000,A,3748.8360,N,12217.6164,W,1.87,121.97,050711,,,D*70
$GPRMC,194425.000,A,3748.8357,N,12217.6158,W,2.08,111.64,050711,,,D*71
$GPRMC,194426.000,A,3748.8355,N,12217.6152,W,2.08,113.55,050711,,,D*7A
$GPRMC,194427.000,A,3748.8352,N,12217.6146,W,1.93,124.44,050711,,,D*7C
$GPRMC,194428.000,A,3748.8349,N,12217.6141,W,1.90,128.18,050711,,,D*78
$GPRMC,194429.000,A,3748.8347,N,12217.6135,W,1.75,115.09,050711,,,D*71
$GPRMC,194430.000,A,3748.8345,N,12217.6129,W,1.85,111.65,050711,,,D*77
$GPRMC,194431.000,A,3748.8343,N,12217.6124,W,2.15,114.89,050711,,,D*70
$GPRMC,194432.000,A,3748.8341,N,12217.6117,W,2.24,118.45,050711,,,D*7F
$GPRMC,194433.000,A,3748.8338,N,12217.6111,W,2.16,117.98,050711,,,D*78
$GPRMC,194434.000,A,3748.8335,N,12217.6105,W,2.26,114.31,050711,,,A*71
$GPRMC,194435.000,A,3748.8334,N,12217.6100,W,1.96,126.39,050711,,,A*75
$GPRMC,194436.000,A,3748.8331,N,12217.6094,W,1.91,122.02,050711,,,A*74
$GPRMC,194437.000,A,3748.8329,N,12217.6088,W,1.89,111.59,050711,,,A*76
$GPRMC,194438.000,A,3748.8325,N,12217.6081,W,1.79,120.04,050711,,,A*79
$GPRMC,194439.000,A,3748.8322,N,12217.6074,W,1.89,113.77,050711,,,A*7E
$GPRMC,194440.000,A,3748.8319,N,12217.6067,W,1.99,118.31,050711,,,A*72
$GPRMC,194441.000,A,3748.8316,N,12217.6061,W,1.80,131.94,050711,,,A*76
$GPRMC,194442.000,A,3748.8313,N,12217.6058,W,1.63,147.14,050711,,,A*7E
$GPRMC,194443.000,A,3748.8309,N,12217.6053,W,1.63,153.62,050711,,,A*7B
$GPRMC,194444.000,A,3748.8305,N,12217.6052,W,1.46,162.55,050711,,,A*70
$GPRMC,194445.000,A,3748.8301,N,12217.6050,W,1.43,154.32,050711,,,A*76
$GPRMC,194446.000,A,3748.8298,N,12217.6048,W,1.46,164.07,050711,,,A*7D
$GPRMC,194447.000,A,3748.8293,N,12217.6045,W,2.05,149.56,050711,,,A*75
$GPRMC,194448.000,A,3748.8287,N,12217.6039,W,1.70,129.91,050711,,,A*78
$GPRMC,194449.000,A,3748.8288,N,12217.6032,W,1.36,133.17,050711,,,A*7A
$GPRMC,194450.000,A,3748.8289,N,12217.6025,W,1.71,114.46,050711,,,A*77
$GPRMC,194451.000,A,3748.8287,N,12217.6019,W,1.69,117.03,050711,,,A*7C
$GPRMC,194452.000,A,3748.8285,N,12217.6015,W,1.38,120.52,050711,,,A*75
$GPRMC,194453.000,A,3748.8278,N,12217.6008,W,1.69,132.43,050711,,,A*7D
$GPRMC,194454.000,A,3748.8272,N,12217.6003,W,2.05,123.14,050711,,,A*70
$GPRMC,194455.000,A,3748.8269,N,12217.5997,W,1.42,123.63,050711,,,A*7C
$GPRMC,194456.000,A,3748.8268,N,12217.5985,W,0.52,93.55,050711,,,A*42
$GPRMC,194457.000,A,3748.8269,N,12217.5987,W,0.39,271.52,050711,,,A*74
$GPRMC,194458.000,A,3748.8270,N,12217.5982,W,0.74,165.16,050711,,,A*79
$GPRMC,194459.000,A,3748.8268,N,12217.5973,W,0.98,129.55,050711,,,A*72
$GPRMC,194500.000,A,3748.8266,N,12217.5966,W,1.81,127.87,050711,,,A*7D
$GPRMC,194501.000,A,3748.8260,N,12217.5959,W,1.60,122.46,050711,,,A*71
$GPRMC,194502.000,A,3748.8256,N,12217.5954,W,1.36,117.24,050711,,,A*7B
$GPRMC,194503.000,A,3748.8254,N,12217.5948,W,1.43,109.80,050711,,,A*76
$GPRMC,194504.000,A,3748.8252,N,12217.5943,W,1.43,108.99,050711,,,D*70
$GPRMC,194505.000,A,3748.8250,N,12217.5938,W,1.52,111.72,050711,,,D*72
$GPRMC,194506.000,A,3748.8246,N,12217.5930,W,2.07,120.10,050711,,,D*7B
$GPRMC,194507.000,A,3748.8241,N,12217.5924,W,1.71,118.68,050711,,,D*7E
$GPRMC,194508.000,A,3748.8237,N,12217.5918,W,2.11,126.50,050711,,,D*7C
$GPRMC,194509.000,A,3748.8234,N,12217.5911,W,1.92,111.17,050711,,,D*78
$GPRMC,194510.000,A,3748.8233,N,12217.5905,W,1.73,101.98,050711,,,D*7B
$GPRMC,194511.000,A,3748.8231,N,12217.5899,W,1.49,100.38,050711,,,D*7E
$GPRMC,194512.000,A,3748.8228,N,12217.5892,W,2.02,110.81,050711,,,D*71
$GPRMC,194513.000,A,3748.8227,N,12217.5885,W,2.02,112.25,050711,,,D*75
$GPRMC,194514.000,A,3748.8225,N,12217.5879,W,1.93,112.32,050711,,,D*7E
$GPRMC,194515.000,A,3748.8223,N,12217.5873,W,1.59,113.13,050711,,,D*77
$GPRMC,194516.000,A,3748.8221,N,12217.5868,W,1.64,110.48,050711,,,D*7F
$GPRMC,194517.000,A,3748.8218,N,12217.5859,W,2.13,119.81,050711,,,D*79
$GPRMC,194518.000,A,3748.8216,N,12217.5854,W,1.60,116.04,050711,,,D*70
$GPRMC,194519.000,A,3748.8211,N,12217.5847,W,1.71,120.49,050711,,,D*78
$GPRMC,194520.000,A,3748.8205,N,12217.5842,W,2.05,124.61,050711,,,D*7C
$GPRMC,194521.000,A,3748.8200,N,12217.5836,W,1.86,120.83,050711,,,D*7B
$GPRMC,194522.000,A,3748.8198,N,12217.5831,W,1.78,112.52,050711,,,D*71
$GPRMC,194523.000,A,3748.8196,N,12217.5826,W,1.56,116.89,050711,,,D*76
$GPRMC,194524.000,A,3748.8193,N,12217.5821,W,1.51,121.45,050711,,,D*70
$GPRMC,194525.000,A,3748.8191,N,12217.5816,W,1.71,115.10,050711,,,D*72
$GPRMC,194526.000,A,3748.8186,N,12217.5808,W,1.60,116.86,050711,,,D*74
$GPRMC,194527.000,A,3748.8183,N,12217.5802,W,1.46,105.09,050711,,,D*7B
$GPRMC,194528.000,A,3748.8181,N,12217.5797,W,1.53,113.10,050711,,,A*7B
$GPRMC,194529.000,A,3748.8176,N,12217.5788,W,2.08,118.64,050711,,,D*7C
$GPRMC,194530.000,A,3748.8173,N,12217.5781,W,1.88,97.74,050711,,,D*44
$GPRMC,194531.000,A,3748.8167,N,12217.5768,W,1.77,101.61,050711,,,D*7D
$GPRMC,194532.000,A,3748.8165,N,12217.5761,W,1.58,90.43,050711,,,D*41
$GPRMC,194533.000,A,3748.8163,N,12217.5754,W,1.26,111.84,050711,,,D*7A
$GPRMC,194534.000,A,3748.8162,N,12217.5748,W,1.30,122.19,050711,,,D*72
$GPRMC,194535.000,A,3748.8158,N,12217.5745,W,0.98,136.68,050711,,,D*77
$GPRMC,194536.000,A,3748.8163,N,12217.5738,W,0.99,127.16,050711,,,D*7E
$GPRMC,194537.000,A,3748.8162,N,12217.5734,W,1.31,106.03,050711,,,D*76
$GPRMC,194538.000,A,3748.8161,N,12217.5730,W,1.16,100.05,050711,,,D*7B
$GPRMC,194539.000,A,3748.8160,N,12217.5726,W,1.60,104.62,050711,,,D*78
$GPRMC,194540.000,A,3748.8157,N,12217.5721,W,1.75,109.69,050711,,,D*77
$GPRMC,194541.000,A,3748.8153,N,12217.5716,W,1.78,111.80,050711,,,D*75
$GPRMC,194542.000,A,3748.8152,N,12217.5711,W,1.69,100.45,050711,,,D*79
$GPRMC,194543.000,A,3748.8151,N,12217.5705,W,1.57,105.61,050711,,,D*70
$GPRMC,194544.000,A,3748.8146,N,12217.5701,W,1.75,116.58,050711,,,D*7D
$GPRMC,194545.000,A,3748.8143,N,12217.5696,W,1.47,119.67,050711,,,D*74
$GPRMC,194546.000,A,3748.8139,N,12217.5686,W,1.33,121.93,050711,,,D*78
$GPRMC,194547.000,A,3748.8136,N,12217.5679,W,1.96,127.88,050711,,,D*75
$GPRMC,194548.000,A,3748.8132,N,12217.5671,W,2.03,124.12,050711,,,D*79
$GPRMC,194549.000,A,3748.8129,N,12217.5666,W,1.97,122.89,050711,,,D*7E
$GPRMC,194550.000,A,3748.8124,N,12217.5659,W,2.03,133.55,050711,,,D*78
$GPRMC,194551.000,A,3748.8119,N,12217.5651,W,1.87,140.10,050711,,,D*75
$GPRMC,194552.000,A,3748.8114,N,12217.5640,W,1.76,135.18,050711,,,D*7F
$GPRMC,194553.000,A,3748.8110,N,12217.5635,W,1.87,140.31,050711,,,D*7F
$GPRMC,194554.000,A,3748.8105,N,12217.5629,W,2.21,136.39,050711,,,D*77
$GPRMC,194555.000,A,3748.8100,N,12217.5622,W,2.01,135.85,050711,,,D*7E
$GPRMC,194556.000,A,3748.8095,N,12217.5617,W,1.57,134.38,050711,,,D*71
$GPRMC,194557.000,A,3748.8092,N,12217.5610,W,1.70,117.67,050711,,,D*7E
$GPRMC,194558.000,A,3748.8085,N,12217.5601,W,1.71,122.33,050711,,,A*74
$GPRMC,194559.000,A,3748.8079,N,12217.5596,W,1.88,128.53,050711,,,A*71
$GPRMC,194600.000,A,3748.8074,N,12217.5589,W,1.72,117.45,050711,,,A*73
$GPRMC,194601.000,A,3748.8067,N,12217.5577,W,2.01,119.94,050711,,,A*74
$GPRMC,194602.000,A,3748.8064,N,12217.5570,W,1.83,120.19,050711,,,A*75
$GPRMC,194603.000,A,3748.8058,N,12217.5563,W,1.94,139.44,050711,,,A*7F
$GPRMC,194604.000,A,3748.8053,N,12217.5557,W,1.80,132.62,050711,,,A*7E
$GPRMC,194605.000,A,3748.8049,N,12217.5551,W,1.80,127.07,050711,,,A*75
$GPRMC,194606.000,A,3748.8046,N,12217.5545,W,1.84,140.51,050711,,,A*7A
$GPRMC,194607.000,A,3748.8041,N,12217.5541,W,1.84,144.71,050711,,,A*7E
$GPRMC,194608.000,A,3748.8036,N,12217.5537,W,1.17,152.42,050711,,,A*7D
$GPRMC,194609.000,A,3748.8034,N,12217.5533,W,1.12,123.25,050711,,,A*78
$GPRMC,194610.000,A,3748.8032,N,12217.5528,W,0.98,145.97,050711,,,A*76
$GPRMC,194611.000,A,3748.8030,N,12217.5529,W,0.74,209.65,050711,,,A*70
$GPRMC,194612.000,A,3748.8033,N,12217.5525,W,0.59,111.34,050711,,,A*7D
$GPRMC,194613.000,A,3748.8034,N,12217.5522,W,0.78,84.73,050711,,,A*41
$GPRMC,194614.000,A,3748.8032,N,12217.5519,W,0.75,105.74,050711,,,A*7A
$GPRMC,194615.000,A,3748.8032,N,12217.5518,W,0.37,128.11,050711,,,A*70
$GPRMC,194616.000,A,3748.8031,N,12217.5515,W,0.19,136.13,050711,,,A*7C
$GPRMC,194617.000,A,3748.8031,N,12217.5510,W,0.33,61.58,050711,,,D*49
$GPRMC,194618.000,A,3748.8030,N,12217.5507,W,0.30,68.51,050711,,,D*42
$GPRMC,194619.000,A,3748.8030,N,12217.5505,W,0.35,25.36,050711,,,D*4C
$GPRMC,194620.000,A,3748.8030,N,12217.5503,W,0.17,196.78,050711,,,D*73
$GPRMC,194621.000,A,3748.8029,N,12217.5500,W,0.27,202.87,050711,,,D*74
$GPRMC,194622.000,A,3748.8028,N,12217.5500,W,0.54,216.13,050711,,,D*7A
$GPRMC,194623.000,A,3748.8027,N,12217.5499,W,0.68,212.97,050711,,,D*72
$GPRMC,194624.000,A,3748.8024,N,12217.5499,W,0.45,212.46,050711,,,D*75
$GPRMC,194625.000,A,3748.8023,N,12217.5498,W,0.18,210.12,050711,,,D*79
$GPRMC,194626.000,A,3748.8023,N,12217.5497,W,0.18,122.37,050711,,,D*70
$GPRMC,194627.000,A,3748.8023,N,12217.5495,W,0.29,71.22,050711,,,D*42
$GPRMC,194628.000,A,3748.8023,N,12217.5494,W,0.09,183.18,050711,,,D*7B
$GPRMC,194629.000,A,3748.8022,N,12217.5492,W,0.63,111.28,050711,,,D*79
$GPRMC,194630.000,A,3748.8021,N,12217.5490,W,1.09,140.43,050711,,,D*74
$GPRMC,194631.000,A,3748.8020,N,12217.5486,W,1.20,166.33,050711,,,D*7B
$GPRMC,194632.000,A,3748.8018,N,12217.5484,W,1.26,149.23,050711,,,D*7B
$GPRMC,194633.000,A,3748.8016,N,12217.5481,W,0.76,176.01,050711,,,D*79
$GPRMC,194634.000,A,3748.8012,N,12217.5482,W,0.83,252.58,050711,,,D*7A
$GPRMC,194635.000,A,3748.8009,N,12217.5485,W,1.19,196.24,050711,,,D*74
$GPRMC,194636.000,A,3748.8008,N,12217.5486,W,1.00,201.82,050711,,,D*7C
$GPRMC,194637.000,A,3748.8006,N,12217.5488,W,1.28,203.09,050711,,,D*76
$GPRMC,194638.000,A,3748.8001,N,12217.5495,W,1.60,226.08,050711,,,D*78
$GPRMC,194639.000,A,3748.8000,N,12217.5502,W,1.20,206.09,050711,,,D*70
$GPRMC,194640.000,A,3748.7998,N,12217.5508,W,1.46,204.03,050711,,,D*7B
$GPRMC,194641.000,A,3748.7991,N,12217.5515,W,1.67,214.89,050711,,,D*7F
$GPRMC,194642.000,A,3748.7981,N,12217.5521,W,1.85,219.37,050711,,,D*7E
$GPRMC,194643.000,A,3748.7975,N,12217.5526,W,1.78,214.37,050711,,,D*7C
$GPRMC,194644.000,A,3748.7972,N,12217.5533,W,1.84,217.86,050711,,,D*72
$GPRMC,194645.000,A,3748.7968,N,12217.5536,W,1.61,203.58,050711,,,D*70
$GPRMC,194646.000,A,3748.7959,N,12217.5540,W,2.05,206.47,050711,,,A*7F
$GPRMC,194647.000,A,3748.7954,N,12217.5545,W,1.94,206.46,050711,,,A*7C
$GPRMC,194648.000,A,3748.7949,N,12217.5549,W,2.06,197.58,050711,,,A*7F
$GPRMC,194649.000,A,3748.7945,N,12217.5553,W,1.52,202.13,050711,,,A*7B
$GPRMC,194650.000,A,3748.7939,N,12217.5555,W,1.69,196.50,050711,,,A*7F
$GPRMC,194651.000,A,3748.7938,N,12217.5558,W,1.71,208.93,050711,,,A*70
$GPRMC,194652.000,A,3748.7936,N,12217.5563,W,1.64,211.39,050711,,,A*79
$GPRMC,194653.000,A,3748.7933,N,12217.5567,W,0.91,199.19,050711,,,A*73
$GPRMC,194654.000,A,3748.7930,N,12217.5568,W,1.15,198.42,050711,,,A*7A
$GPRMC,194655.000,A,3748.7927,N,12217.5568,W,1.33,213.78,050711,,,A*70
$GPRMC,194656.000,A,3748.7923,N,12217.5576,W,1.36,227.27,050711,,,A*70
$GPRMC,194657.000,A,3748.7920,N,12217.5578,W,1.66,190.79,050711,,,A*7D
$GPRMC,194658.000,A,3748.7914,N,12217.5577,W,1.54,194.06,050711,,,A*77
$GPRMC,194659.000,A,3748.7908,N,12217.5578,W,1.59,203.54,050711,,,A*73
$GPRMC,194700.000,A,3748.7902,N,12217.5579,W,1.20,219.48,050711,,,A*7D
$GPRMC,194701.000,A,3748.7898,N,12217.5581,W,1.11,222.23,050711,,,A*7E
$GPRMC,194702.000,A,3748.7894,N,12217.5583,W,1.33,211.21,050711,,,A*71
$GPRMC,194703.000,A,3748.7891,N,12217.5586,W,1.57,223.06,050711,,,A*76
$GPRMC,194704.000,A,3748.7885,N,12217.5597,W,2.06,227.37,050711,,,A*75
$GPRMC,194705.000,A,3748.7879,N,12217.5606,W,2.13,222.24,050711,,,A*7F
$GPRMC,194706.000,A,3748.7873,N,12217.5616,W,2.34,218.98,050711,,,A*7C
$GPRMC,194707.000,A,3748.7863,N,12217.5623,W,2.16,207.66,050711,,,A*75
$GPRMC,194708.000,A,3748.7857,N,12217.5626,W,1.59,202.07,050711,,,A*72
$GPRMC,194709.000,A,3748.7850,N,12217.5630,W,1.26,220.70,050711,,,A*7B
$GPRMC,194710.000,A,3748.7842,N,12217.5637,W,1.15,238.46,050711,,,A*7B
$GPRMC,194711.000,A,3748.7837,N,12217.5642,W,1.34,212.31,050711,,,A*71
$GPRMC,194712.000,A,3748.7831,N,12217.5647,W,1.48,215.42,050711,,,A*79
$GPRMC,194713.000,A,3748.7826,N,12217.5651,W,1.81,205.64,050711,,,A*79
$GPRMC,194714.000,A,3748.7821,N,12217.5655,W,1.79,214.31,050711,,,A*7A
$GPRMC,194715.000,A,3748.7818,N,12217.5660,W,1.59,228.63,050711,,,A*7D
$GPRMC,194716.000,A,3748.7813,N,12217.5663,W,1.49,225.35,050711,,,A*79
$GPRMC,194717.000,A,3748.7809,N,12217.5667,W,1.43,225.93,050711,,,A*71
$GPRMC,194718.000,A,3748.7803,N,12217.5670,W,1.56,207.69,050711,,,A*73
$GPRMC,194719.000,A,3748.7799,N,12217.5673,W,1.45,201.92,050711,,,A*7D
$GPRMC,194720.000,A,3748.7793,N,12217.5675,W,1.68,202.63,050711,,,A*79
$GPRMC,194721.000,A,3748.7787,N,12217.5681,W,2.10,214.81,050711,,,A*71
$GPRMC,194722.000,A,3748.7786,N,12217.5688,W,2.07,213.40,050711,,,A*76
$GPRMC,194723.000,A,3748.7778,N,12217.5693,W,2.33,210.72,050711,,,A*79
$GPRMC,194724.000,A,3748.7769,N,12217.5697,W,2.12,214.11,050711,,,A*78
$GPRMC,194725.000,A,3748.7766,N,12217.5700,W,1.34,212.68,050711,,,A*76
$GPRMC,194726.000,A,3748.7763,N,12217.5703,W,1.54,211.86,050711,,,A*76
$GPRMC,194727.000,A,3748.7759,N,12217.5705,W,1.44,203.82,050711,,,A*7E
$GPRMC,194728.000,A,3748.7755,N,12217.5710,W,1.18,223.22,050711,,,A*78
$GPRMC,194729.000,A,3748.7747,N,12217.5720,W,1.79,214.19,050711,,,A*72
$GPRMC,194730.000,A,3748.7744,N,12217.5721,W,1.03,201.95,050711,,,A*75
$GPRMC,194731.000,A,3748.7739,N,12217.5727,W,0.66,313.43,050711,,,A*73
$GPRMC,194732.000,A,3748.7737,N,12217.5727,W,0.78,209.81,050711,,,A*75
$GPRMC,194733.000,A,3748.7735,N,12217.5730,W,1.55,185.62,050711,,,A*74
$GPRMC,194734.000,A,3748.7730,N,12217.5733,W,1.27,209.01,050711,,,A*72
$GPRMC,194735.000,A,3748.7727,N,12217.5737,W,1.73,220.26,050711,,,A*7E
$GPRMC,194736.000,A,3748.7720,N,12217.5738,W,1.97,206.93,050711,,,A*75
$GPRMC,194737.000,A,3748.7715,N,12217.5742,W,1.90,206.71,050711,,,A*74
$GPRMC,194738.000,A,3748.7714,N,12217.5748,W,1.12,215.56,050711,,,A*7D
$GPRMC,194739.000,A,3748.7713,N,12217.5750,W,0.05,106.69,050711,,,A*78
$GPRMC,194740.000,A,3748.7712,N,12217.5754,W,0.57,340.82,050711,,,A*71
$GPRMC,194741.000,A,3748.7714,N,12217.5750,W,0.97,333.58,050711,,,A*7D
$GPRMC,194742.000,A,3748.7717,N,12217.5752,W,1.01,302.00,050711,,,A*7E
$GPRMC,194743.000,A,3748.7721,N,12217.5754,W,0.51,321.00,050711,,,A*79
$GPRMC,194744.000,A,3748.7721,N,12217.5752,W,0.27,99.29,050711,,,A*42
$GPRMC,194745.000,A,3748.7722,N,12217.5753,W,0.49,142.77,050711,,,A*75
$GPRMC,194746.000,A,3748.7722,N,12217.5752,W,0.16,106.07,050711,,,A*7A
$GPRMC,194747.000,A,3748.7725,N,12217.5755,W,0.06,115.86,050711,,,A*71
$GPRMC,194748.000,A,3748.7727,N,12217.5760,W,0.35,229.87,050711,,,A*77
$GPRMC,194749.000,A,3748.7725,N,12217.5759,W,0.13,83.00,050711,,,A*47
$GPRMC,194750.000,A,3748.7721,N,12217.5755,W,0.96,163.88,050711,,,A*75
$GPRMC,194751.000,A,3748.7710,N,12217.5752,W,1.96,186.27,050711,,,A*7E
$GPRMC,194752.000,A,3748.7704,N,12217.5752,W,2.04,196.42,050711,,,A*72
$GPRMC,194753.000,A,3748.7699,N,12217.5755,W,2.11,203.58,050711,,,A*71
$GPRMC,194754.000,A,3748.7695,N,12217.5758,W,1.68,197.61,050711,,,A*7E
$GPRMC,194755.000,A,3748.7691,N,12217.5761,W,1.73,211.54,050711,,,A*70
$GPRMC,194756.000,A,3748.7687,N,12217.5765,W,1.89,207.50,050711,,,A*76
$GPRMC,194757.000,A,3748.7683,N,12217.5768,W,1.95,218.07,050711,,,A*7F
$GPRMC,194758.000,A,3748.7678,N,12217.5773,W,1.99,213.56,050711,,,A*7D
$GPRMC,194759.000,A,3748.7674,N,12217.5776,W,1.71,205.26,050711,,,A*73
$GPRMC,194800.000,A,3748.7670,N,12217.5779,W,1.66,198.64,050711,,,A*7C
$GPRMC,194801.000,A,3748.7665,N,12217.5782,W,1.97,205.66,050711,,,A*76
$GPRMC,194802.000,A,3748.7660,N,12217.5786,W,2.02,211.66,050711,,,A*7E
$GPRMC,194803.000,A,3748.7655,N,12217.5789,W,1.97,205.49,050711,,,A*71
$GPRMC,194804.000,A,3748.7650,N,12217.5791,W,1.74,188.58,050711,,,A*71
$GPRMC,194805.000,A,3748.7646,N,12217.5792,W,1.71,194.86,050711,,,A*7F
$GPRMC,194806.000,A,3748.7641,N,12217.5794,W,1.69,205.32,050711,,,A*70
$GPRMC,194807.000,A,3748.7637,N,12217.5796,W,1.55,202.98,050711,,,A*7A
$GPRMC,194808.000,A,3748.7634,N,12217.5799,W,1.69,204.49,050711,,,A*7C
$GPRMC,194809.000,A,3748.7630,N,12217.5802,W,1.72,213.56,050711,,,A*76
$GPRMC,194810.000,A,3748.7624,N,12217.5808,W,1.86,200.26,050711,,,A*7F
$GPRMC,194811.000,A,3748.7620,N,12217.5812,W,1.40,212.16,050711,,,D*7E
$GPRMC,194812.000,A,3748.7618,N,12217.5815,W,1.28,222.48,050711,,,D*77
$GPRMC,194813.000,A,3748.7618,N,12217.5819,W,0.99,218.44,050711,,,D*74
$GPRMC,194814.000,A,3748.7615,N,12217.5822,W,1.08,198.24,050711,,,D*72
$GPRMC,194815.000,A,3748.7610,N,12217.5825,W,1.40,200.44,050711,,,D*79
$GPRMC,194816.000,A,3748.7605,N,12217.5829,W,1.63,203.83,050711,,,D*7B
$GPRMC,194817.000,A,3748.7601,N,12217.5831,W,1.38,211.25,050711,,,D*76
$GPRMC,194818.000,A,3748.7596,N,12217.5836,W,1.27,228.95,050711,,,D*7C
$GPRMC,194819.000,A,3748.7587,N,12217.5844,W,1.38,229.18,050711,,,D*72
$GPRMC,194820.000,A,3748.7582,N,12217.5847,W,1.23,214.46,050711,,,D*71
$GPRMC,194821.000,A,3748.7580,N,12217.5851,W,1.32,228.16,050711,,,D*7F
$GPRMC,194822.000,A,3748.7573,N,12217.5855,W,1.79,223.48,050711,,,D*7B
$GPRMC,194823.000,A,3748.7564,N,12217.5862,W,1.86,231.53,050711,,,D*71
$GPRMC,194824.000,A,3748.7555,N,12217.5867,W,1.26,231.66,050711,,,D*7D
$GPRMC,194825.000,A,3748.7554,N,12217.5875,W,1.22,247.86,050711,,,D*75
$GPRMC,194826.000,A,3748.7549,N,12217.5882,W,1.31,231.62,050711,,,D*7B
$GPRMC,194827.000,A,3748.7540,N,12217.5888,W,1.46,223.22,050711,,,D*7E
$GPRMC,194828.000,A,3748.7537,N,12217.5892,W,1.20,214.85,050711,,,D*73
$GPRMC,194829.000,A,3748.7529,N,12217.5898,W,0.91,244.29,050711,,,D*7F
$GPRMC,194830.000,A,3748.7530,N,12217.5902,W,0.86,254.15,050711,,,D*75
$GPRMC,194831.000,A,3748.7527,N,12217.5908,W,0.90,233.51,050711,,,D*7E
$GPRMC,194832.000,A,3748.7524,N,12217.5915,W,1.23,273.68,050711,,,D*75
$GPRMC,194833.000,A,3748.7521,N,12217.5924,W,1.33,251.29,050711,,,D*77
$GPRMC,194834.000,A,3748.7516,N,12217.5926,W,1.05,234.87,050711,,,D*74
$GPRMC,194835.000,A,3748.7514,N,12217.5931,W,1.06,221.25,050711,,,D*7E
$GPRMC,194836.000,A,3748.7512,N,12217.5936,W,1.30,231.03,050711,,,D*7C
$GPRMC,194837.000,A,3748.7510,N,12217.5942,W,1.37,234.14,050711,,,D*78
$GPRMC,194838.000,A,3748.7501,N,12217.5947,W,1.50,231.36,050711,,,D*76
$GPRMC,194839.000,A,3748.7496,N,12217.5948,W,1.61,205.31,050711,,,D*75
$GPRMC,194840.000,A,3748.7487,N,12217.5950,W,1.55,213.45,050711,,,D*71
$GPRMC,194841.000,A,3748.7477,N,12217.5951,W,1.94,205.72,050711,,,D*70
$GPRMC,194842.000,A,3748.7471,N,12217.5954,W,1.42,202.14,050711,,,D*7C
$GPRMC,194843.000,A,3748.7464,N,12217.5959,W,1.41,206.63,050711,,,D*73
$GPRMC,194844.000,A,3748.7458,N,12217.5963,W,0.88,218.94,050711,,,D*71
$GPRMC,194845.000,A,3748.7452,N,12217.5966,W,0.73,212.12,050711,,,A*7A
$GPRMC,194846.000,A,3748.7446,N,12217.5968,W,0.50,225.54,050711,,,A*75
$GPRMC,194847.000,A,3748.7439,N,12217.5973,W,0.82,231.38,050711,,,A*76
$GPRMC,194848.000,A,3748.7437,N,12217.5976,W,1.21,249.39,050711,,,A*74
$GPRMC,194849.000,A,3748.7434,N,12217.5980,W,0.94,247.52,050711,,,A*73
$GPRMC,194850.000,A,3748.7431,N,12217.5983,W,0.87,212.17,050711,,,A*7E
$GPRMC,194851.000,A,3748.7434,N,12217.5988,W,0.61,279.80,050711,,,A*7A
$GPRMC,194852.000,A,3748.7434,N,12217.5991,W,0.23,271.65,050711,,,A*74
$GPRMC,194853.000,A,3748.7430,N,12217.5991,W,0.99,211.07,050711,,,A*72
$GPRMC,194854.000,A,3748.7426,N,12217.5992,W,0.80,215.16,050711,,,A*7D
$GPRMC,194855.000,A,3748.7422,N,12217.5996,W,1.42,214.89,050711,,,A*74
$GPRMC,194856.000,A,3748.7417,N,12217.5999,W,1.71,214.62,050711,,,A*7B
$GPRMC,194857.000,A,3748.7412,N,12217.6002,W,1.28,219.34,050711,,,A*75
$GPRMC,194858.000,A,3748.7407,N,12217.6005,W,1.61,209.02,050711,,,A*70
$GPRMC,194859.000,A,3748.7401,N,12217.6009,W,1.57,216.62,050711,,,A*76
