$ADVER,3080,2.3
$GPRMC,212928.179,A,3748.7953,N,12217.8667,W,0.27,102.99,261010,,,A*7B
$GPGGA,212929.179,3748.7949,N,12217.8670,W,1,04,8.4,3.0,M,-25.1,M,,0000*67
$GPGSA,A,3,29,05,25,12,,,,,,,,,9.0,8.4,3.3*3D
$GPGSV,3,1,11,12,75,165,36,25,61,303,38,05,39,134,30,29,34,292,35*7F
$GPGSV,3,2,11,30,56,304,37,02,48,047,23,10,34,073,25,04,15,049,*7F
$GPGSV,3,3,11,31,11,317,28,09,11,200,,21,04,230,*49
$GPRMC,212929.179,A,3748.7949,N,12217.8670,W,0.12,205.05,261010,,,A*70
$GPVTG,205.05,T,,M,0.12,N,0.2,K,A*0E
$GPGGA,212930.179,3748.7948,N,12217.8671,W,1,04,8.4,3.0,M,-25.1,M,,0000*6F
$GPGSA,A,3,29,05,25,12,,,,,,,,,9.0,8.4,3.3*3D
$GPRMC,212930.179,A,3748.7948,N,12217.8671,W,0.12,200.36,261010,,,A*7D
$GPVTG,200.36,T,,M,0.12,N,0.2,K,A*0B
$GPGGA,212931.000,3748.7947,N,12217.8672,W,1,04,8.4,3.0,M,-25.1,M,,0000*6D
$GPGSA,A,3,29,05,25,12,,,,,,,,,9.0,8.4,3.3*3D
$GPRMC,212931.000,A,3748.7947,N,12217.8672,W,0.15,203.12,261010,,,A*7D
$GPVTG,203.12,T,,M,0.15,N,0.3,K,A*08
$GPGGA,212932.000,3748.7945,N,12217.8673,W,1,04,8.4,3.0,M,-25.1,M,,0000*6D
$GPGSA,A,3,29,05,25,12,,,,,,,,,9.0,8.4,3.3*3D
$GPRMC,212932.000,A,3748.7945,N,12217.8673,W,0.17,211.12,261010,,,A*7C
$GPVTG,211.12,T,,M,0.17,N,0.3,K,A*09
$GPGGA,212933.000,3748.7943,N,12217.8674,W,1,04,8.4,3.0,M,-25.1,M,,0000*6D
$GPGSA,A,3,29,05,25,12,,,,,,,,,9.0,8.4,3.3*3D
$GPRMC,212933.000,A,3748.7943,N,12217.8674,W,0.18,208.28,261010,,,A*72
$GPVTG,208.28,T,,M,0.18,N,0.3,K,A*07
$GPGGA,212934.000,3748.7960,N,12217.8660,W,1,05,4.8,2.0,M,-25.1,M,,0000*6E
$GPGSA,A,3,29,05,25,12,30,,,,,,,,5.6,4.8,2.9*3F
$GPGSV,3,1,12,12,75,165,36,25,61,303,38,05,39,134,30,29,34,292,35*7C
$GPGSV,3,2,12,30,56,304,36,02,48,047,25,10,34,073,24,04,15,049,22*7A
$GPGSV,3,3,12,31,11,317,27,09,11,200,27,21,04,230,,48,00,000,38*77
$GPRMC,212934.000,A,3748.7960,N,12217.8660,W,0.03,68.47,261010,,,A*46
$GPGGA,212935.000,3748.7965,N,12217.8655,W,1,05,4.8,1.7,M,-25.1,M,,0000*68
$GPGSA,A,3,29,05,25,12,30,,,,,,,,5.6,4.8,2.9*3F
$GPRMC,212935.000,A,3748.7965,N,12217.8655,W,0.02,145.73,261010,,,A*7C
$GPVTG,145.73,T,,M,0.02,N,0.0,K,A*0B
$GPGGA,212936.000,3748.7968,N,12217.8652,W,1,05,4.8,1.4,M,-25.1,M,,0000*62
$GPGSA,A,3,29,05,25,12,30,,,,,,,,5.6,4.8,2.9*3F
$GPRMC,212936.000,A,3748.7968,N,12217.8652,W,0.06,44.60,261010,,,A*43
$GPVTG,44.60,T,,M,0.06,N,0.1,K,A*3C
$GPGGA,212937.000,3748.7969,N,12217.8651,W,1,05,4.8,1.3,M,-25.1,M,,0000*66
$GPGSA,A,3,29,05,25,12,30,,,,,,,,5.6,4.8,2.9*3F
$GPRMC,212937.000,A,3748.7969,N,12217.8651,W,0.02,266.24,261010,,,A*76
$GPVTG,266.24,T,,M,0.02,N,0.0,K,A*0B
$GPGGA,212938.000,3748.7971,N,12217.8650,W,1,05,4.8,1.2,M,-25.1,M,,0000*60
$GPGSA,A,3,29,05,25,12,30,,,,,,,,5.6,4.8,2.9*3F
$GPRMC,212938.000,A,3748.7971,N,12217.8650,W,0.17,292.78,261010,,,A*77
$GPVTG,292.78,T,,M,0.17,N,0.3,K,A*0E
$GPGGA,212939.000,3748.7972,N,12217.8650,W,1,05,4.8,1.1,M,-25.1,M,,0000*61
$GPGSA,A,3,29,05,25,12,30,,,,,,,,5.6,4.8,2.9*3F
$GPGSV,3,1,12,12,74,165,36,25,61,303,38,02,48,047,24,05,39,134,30*75
$GPGSV,3,2,12,30,38,312,30,10,34,073,24,29,34,293,35,04,15,049,28*71
$GPGSV,3,3,12,31,11,317,23,09,10,200,23,21,04,230,,48,44,197,38*79
$GPRMC,212939.000,A,3748.7972,N,12217.8650,W,0.13,289.29,261010,,,A*7F
$GPVTG,289.29,T,,M,0.13,N,0.2,K,A*05
$GPGGA,212940.000,3748.7971,N,12217.8648,W,1,05,4.8,1.0,M,-25.1,M,,0000*64
$GPGSA,A,3,29,05,25,12,30,,,,,,,,5.6,4.8,2.9*3F
$GPRMC,212940.000,A,3748.7971,N,12217.8648,W,0.86,143.35,261010,,,A*7F
$GPVTG,143.35,T,,M,0.86,N,1.6,K,A*04
$GPGGA,212941.000,3748.7970,N,12217.8647,W,1,05,4.8,1.0,M,-25.1,M,,0000*6B
$GPGSA,A,3,29,05,25,12,30,,,,,,,,5.6,4.8,2.9*3F
$GPRMC,212941.000,A,3748.7970,N,12217.8647,W,0.44,52.69,261010,,,A*46
$GPVTG,52.69,T,,M,0.44,N,0.8,K,A*3D
$GPGGA,212942.000,3748.7969,N,12217.8647,W,1,05,4.8,1.0,M,-25.1,M,,0000*60
$GPGSA,A,3,29,05,25,12,30,,,,,,,,5.6,4.8,2.9*3F
$GPRMC,212942.000,A,3748.7969,N,12217.8647,W,0.51,71.87,261010,,,A*48
$GPVTG,71.87,T,,M,0.51,N,0.9,K,A*39
$GPGGA,212943.000,3748.7960,N,12217.8654,W,1,05,4.8,0.9,M,-25.1,M,,0000*62
$GPGSA,A,3,29,05,25,12,30,,,,,,,,5.6,4.8,2.9*3F
$GPRMC,212943.000,A,3748.7960,N,12217.8654,W,0.32,213.44,261010,,,A*7E
$GPVTG,213.44,T,,M,0.32,N,0.6,K,A*0A
$GPGGA,212944.000,3748.7966,N,12217.8648,W,1,05,4.8,0.3,M,-25.1,M,,0000*64
$GPGSA,A,3,29,05,25,12,30,,,,,,,,5.6,4.8,2.9*3F
$GPGSV,3,1,12,12,74,165,27,25,61,303,26,02,48,047,20,05,39,134,37*79
$GPGSV,3,2,12,30,38,312,28,10,34,073,26,29,34,293,34,04,15,049,21*72
$GPGSV,3,3,12,31,11,317,28,09,10,200,,21,04,230,,48,44,197,35*7E
$GPRMC,212944.000,A,3748.7966,N,12217.8648,W,0.10,47.08,261010,,,A*49
$GPVTG,47.08,T,,M,0.10,N,0.2,K,A*35
$GPGGA,212945.000,3748.7962,N,12217.8653,W,1,05,4.8,1.1,M,-25.1,M,,0000*68
$GPGSA,A,3,29,05,25,12,30,,,,,,,,5.6,4.8,2.9*3F
$GPRMC,212945.000,A,3748.7962,N,12217.8653,W,0.43,219.83,261010,,,A*7A
$GPVTG,219.83,T,,M,0.43,N,0.8,K,A*03
$GPGGA,212946.000,3748.7959,N,12217.8655,W,1,05,4.8,1.6,M,-25.1,M,,0000*62
$GPGSA,A,3,29,05,25,12,30,,,,,,,,5.6,4.8,2.9*3F
$GPRMC,212946.000,A,3748.7959,N,12217.8655,W,0.28,211.71,261010,,,A*7F
$GPVTG,211.71,T,,M,0.28,N,0.5,K,A*06
$GPGGA,212947.000,3748.7957,N,12217.8656,W,1,05,4.8,1.8,M,-25.1,M,,0000*60
$GPGSA,A,3,29,05,25,12,30,,,,,,,,5.6,4.8,2.9*3F
$GPRMC,212947.000,A,3748.7957,N,12217.8656,W,0.19,210.51,261010,,,A*72
$GPVTG,210.51,T,,M,0.19,N,0.4,K,A*06
$GPGGA,212948.000,3748.7956,N,12217.8657,W,1,05,4.8,1.9,M,-25.1,M,,0000*6E
$GPGSA,A,3,29,05,25,12,30,,,,,,,,5.6,4.8,2.9*3F
$GPRMC,212948.000,A,3748.7956,N,12217.8657,W,0.04,174.11,261010,,,A*74
$GPVTG,174.11,T,,M,0.04,N,0.1,K,A*0A
$GPGGA,212949.000,3748.7956,N,12217.8657,W,1,05,4.8,2.0,M,-25.1,M,,0000*65
$GPGSA,A,3,29,05,25,12,30,,,,,,,,5.6,4.8,2.9*3F
$GPGSV,3,1,12,12,74,165,35,25,61,303,39,02,48,047,27,05,39,134,36*72
$GPGSV,3,2,12,30,38,312,39,10,34,073,,29,34,293,40,04,15,049,23*77
$GPGSV,3,3,12,31,11,317,27,09,10,200,18,21,04,230,,48,44,197,38*75
$GPRMC,212949.000,A,3748.7956,N,12217.8657,W,0.25,63.60,261010,,,A*47
$GPGGA,212950.000,3748.7955,N,12217.8657,W,1,05,4.8,2.4,M,-25.1,M,,0000*6A
$GPGSA,A,3,29,05,25,12,30,,,,,,,,5.6,4.8,2.9*3F
$GPRMC,212950.000,A,3748.7955,N,12217.8657,W,0.13,42.43,261010,,,A*4B
$GPVTG,42.43,T,,M,0.13,N,0.2,K,A*3C
$GPGGA,212951.000,3748.7953,N,12217.8658,W,1,05,4.8,5.0,M,-25.1,M,,0000*61
$GPGSA,A,3,29,05,25,12,30,,,,,,,,5.6,4.8,2.9*3F
$GPRMC,212951.000,A,3748.7953,N,12217.8658,W,0.41,230.05,261010,,,A*71
$GPVTG,230.05,T,,M,0.41,N,0.8,K,A*04
$GPGGA,212952.000,3748.7951,N,12217.8661,W,1,05,4.8,7.7,M,-25.1,M,,0000*6F
$GPGSA,A,3,29,05,25,12,30,,,,,,,,5.6,4.8,2.9*3F
$GPRMC,212952.000,A,3748.7951,N,12217.8661,W,0.53,219.45,261010,,,A*76
$GPVTG,219.45,T,,M,0.53,N,1.0,K,A*01
$GPGGA,212953.000,3748.7952,N,12217.8658,W,1,05,4.8,9.2,M,-25.1,M,,0000*6C
$GPGSA,A,3,29,05,25,12,30,,,,,,,,5.6,4.8,2.9*3F
$GPRMC,212953.000,A,3748.7952,N,12217.8658,W,0.12,255.50,261010,,,A*77
$GPVTG,255.50,T,,M,0.12,N,0.2,K,A*0B
$GPGGA,212954.000,3748.7958,N,12217.8649,W,1,05,4.8,10.7,M,-25.1,M,,0000*5C
$GPGSA,A,3,29,05,25,12,30,,,,,,,,5.6,4.8,2.9*3F
$GPGSV,3,1,12,12,74,165,30,25,61,303,20,02,48,047,23,05,39,134,40*7A
$GPGSV,3,2,12,30,38,312,28,10,34,073,26,29,34,293,25,04,15,049,30*72
$GPGSV,3,3,12,31,11,317,28,09,10,200,28,21,04,230,17,48,44,197,38*7F
$GPRMC,212954.000,A,3748.7958,N,12217.8649,W,0.61,39.24,261010,,,A*45
$GPVTG,39.24,T,,M,0.61,N,1.1,K,A*36
$GPGGA,212955.000,3748.7952,N,12217.8654,W,1,05,4.8,11.4,M,-25.1,M,,0000*59
$GPGSA,A,3,29,05,25,12,30,,,,,,,,5.6,4.8,2.9*3F
$GPRMC,212955.000,A,3748.7952,N,12217.8654,W,0.66,39.47,261010,,,A*40
$GPVTG,39.47,T,,M,0.66,N,1.2,K,A*37
$GPGGA,212956.000,3748.7939,N,12217.8669,W,1,05,4.8,12.2,M,-25.1,M,,0000*5C
$GPGSA,A,3,29,05,25,12,30,,,,,,,,5.6,4.8,2.9*3F
$GPRMC,212956.000,A,3748.7939,N,12217.8669,W,0.39,215.27,261010,,,A*70
$GPVTG,215.27,T,,M,0.39,N,0.7,K,A*03
$GPGGA,212957.000,3748.7920,N,12217.8691,W,2,05,4.8,12.2,M,-25.1,M,1.8,0000*76
$GPGSA,A,3,29,05,25,12,30,,,,,,,,5.6,4.8,2.9*3F
$GPRMC,212957.000,A,3748.7920,N,12217.8691,W,0.79,205.80,261010,,,D*73
$GPVTG,205.80,T,,M,0.79,N,1.5,K,D*0D
$GPGGA,212958.000,3748.7912,N,12217.8699,W,2,05,4.9,13.0,M,-25.1,M,1.8,0000*72
$GPGSA,A,3,29,05,25,12,30,,,,,,,,5.6,4.9,2.9*3E
$GPRMC,212958.000,A,3748.7912,N,12217.8699,W,1.24,215.53,261010,,,D*73
$GPVTG,215.53,T,,M,1.24,N,2.3,K,D*0E
$GPGGA,212959.000,3748.7904,N,12217.8707,W,2,05,4.9,14.2,M,-25.1,M,1.8,0000*77
$GPGSA,A,3,29,05,25,12,30,,,,,,,,5.6,4.9,2.9*3E
$GPGSV,3,1,12,12,74,165,28,25,61,303,31,02,48,047,20,05,39,134,33*74
$GPGSV,3,2,12,30,38,312,32,10,34,073,16,29,34,293,37,04,15,049,27*7F
$GPGSV,3,3,12,31,11,317,27,09,10,200,28,21,04,230,19,48,44,197,35*73
$GPRMC,212959.000,A,3748.7904,N,12217.8707,W,2.02,208.37,261010,,,D*7A
$GPVTG,208.37,T,,M,2.02,N,3.7,K,D*02
$GPGGA,213000.000,3748.7894,N,12217.8715,W,2,05,4.9,15.1,M,-25.1,M,2.8,0000*79
$GPGSA,A,3,29,05,25,12,30,,,,,,,,5.6,4.9,2.9*3E
$GPRMC,213000.000,A,3748.7894,N,12217.8715,W,2.74,205.98,261010,,,D*7C
$GPVTG,205.98,T,,M,2.74,N,5.1,K,D*0B
$GPGGA,213001.000,3748.7884,N,12217.8724,W,2,05,4.9,15.9,M,-25.1,M,3.8,0000*72
$GPGSA,A,3,29,05,25,12,30,,,,,,,,5.6,4.9,2.9*3E
$GPRMC,213001.000,A,3748.7884,N,12217.8724,W,2.84,208.57,261010,,,D*7F
$GPVTG,208.57,T,,M,2.84,N,5.3,K,D*08
$GPGGA,213002.000,3748.7877,N,12217.8730,W,2,05,4.9,16.2,M,-25.1,M,1.8,0000*72
$GPGSA,A,3,29,05,25,12,30,,,,,,,,5.6,4.9,2.9*3E
$GPRMC,213002.000,A,3748.7877,N,12217.8730,W,2.76,207.38,261010,,,D*7E
$GPVTG,207.38,T,,M,2.76,N,5.1,K,D*01
$GPGGA,213003.000,3748.7872,N,12217.8736,W,2,05,4.9,16.3,M,-25.1,M,1.8,0000*71
$GPGSA,A,3,29,05,25,12,30,,,,,,,,5.6,4.9,2.9*3E
$GPRMC,213003.000,A,3748.7872,N,12217.8736,W,2.55,216.56,261010,,,D*75
$GPVTG,216.56,T,,M,2.55,N,4.7,K,D*0F
$GPGGA,213004.000,3748.7868,N,12217.8741,W,2,05,4.9,15.8,M,-25.1,M,1.8,0000*75
$GPGSA,A,3,29,05,25,12,30,,,,,,,,5.7,4.9,2.9*3F
$GPGSV,3,1,12,12,74,165,27,25,61,303,32,02,48,047,21,05,39,134,34*7E
$GPGSV,3,2,12,30,38,312,32,10,34,073,19,29,34,293,36,04,15,049,27*71
$GPGSV,3,3,12,31,11,317,33,09,10,200,28,21,04,230,25,48,44,197,36*7A
$GPVTG,214.15,T,,M,2.60,N,4.8,K,D*03
$GPGGA,213005.000,3748.7864,N,12217.8745,W,2,05,4.9,15.4,M,-25.1,M,1.8,0000*70
$GPGSA,A,3,29,05,25,12,30,,,,,,,,5.7,4.9,2.9*3F
$GPRMC,213005.000,A,3748.7864,N,12217.8745,W,2.50,210.57,261010,,,D*72
$GPVTG,210.57,T,,M,2.50,N,4.6,K,D*0C
$GPGGA,213006.000,3748.7862,N,12217.8747,W,2,05,4.9,14.6,M,-25.1,M,1.8,0000*74
$GPGSA,A,3,29,05,25,12,30,,,,,,,,5.7,4.9,2.9*3F
$GPRMC,213006.000,A,3748.7862,N,12217.8747,W,2.52,210.14,261010,,,D*70
$GPVTG,210.14,T,,M,2.52,N,4.7,K,D*08
$GPGGA,213007.000,3748.7859,N,12217.8750,W,2,05,4.9,13.9,M,-25.1,M,1.8,0000*73
$GPGSA,A,3,29,05,25,12,30,,,,,,,,5.7,4.9,2.9*3F
$GPRMC,213007.000,A,3748.7859,N,12217.8750,W,2.50,204.05,261010,,,D*78
$GPVTG,204.05,T,,M,2.50,N,4.6,K,D*0E
$GPGGA,213008.000,3748.7853,N,12217.8754,W,2,05,4.9,13.8,M,-25.1,M,2.8,0000*70
$GPGSA,A,3,29,05,25,12,30,,,,,,,,5.7,4.9,2.9*3F
$GPRMC,213008.000,A,3748.7853,N,12217.8754,W,2.40,208.13,261010,,,D*73
$GPVTG,208.13,T,,M,2.40,N,4.4,K,D*06
$GPGGA,213009.000,3748.7846,N,12217.8761,W,2,05,4.9,13.9,M,-25.1,M,1.8,0000*71
$GPGSA,A,3,29,05,25,12,30,,,,,,,,5.7,4.9,2.9*3F
$GPGSV,3,1,12,12,74,165,26,25,61,303,32,02,48,047,23,05,39,134,34*7D
$GPGSV,3,2,12,30,38,312,32,10,34,073,24,29,34,293,36,04,15,049,33*7A
$GPGSV,3,3,12,31,11,317,30,09,10,200,23,21,04,230,23,48,44,197,35*77
$GPRMC,213009.000,A,3748.7846,N,12217.8761,W,2.63,211.69,261010,,,D*74
$GPVTG,211.69,T,,M,2.63,N,4.9,K,D*0F
$GPGGA,213010.000,3748.7844,N,12217.8763,W,2,05,4.9,12.7,M,-25.1,M,1.8,0000*76
$GPGSA,A,3,29,05,25,12,30,,,,,,,,5.7,4.9,2.9*3F
$GPRMC,213010.000,A,3748.7844,N,12217.8763,W,2.64,206.96,261010,,,D*7D
$GPVTG,206.96,T,,M,2.64,N,4.9,K,D*0E
$GPGGA,213011.000,3748.7835,N,12217.8768,W,2,05,4.9,13.1,M,-25.1,M,2.8,0000*7E
$GPGSA,A,3,29,05,25,12,30,,,,,,,,5.7,4.9,2.9*3F
$GPRMC,213011.000,A,3748.7835,N,12217.8768,W,2.83,193.58,261010,,,D*75
$GPVTG,193.58,T,,M,2.83,N,5.2,K,D*00
$GPGGA,213012.000,3748.7828,N,12217.8769,W,2,05,4.9,13.0,M,-25.1,M,3.8,0000*70
$GPGSA,A,3,29,05,25,12,30,,,,,,,,5.7,4.9,2.9*3F
$GPRMC,213012.000,A,3748.7828,N,12217.8769,W,2.87,180.14,261010,,,D*75
$GPVTG,180.14,T,,M,2.87,N,5.3,K,D*0F
$GPGGA,213013.000,3748.7835,N,12217.8757,W,2,04,5.1,12.0,M,-25.1,M,4.8,0000*7E
$GPGSA,A,3,29,25,12,30,,,,,,,,,5.2,5.1,1.0*3C
$GPRMC,213013.000,A,3748.7835,N,12217.8757,W,1.20,140.35,261010,,,D*74
$GPVTG,140.35,T,,M,1.20,N,2.2,K,D*08
$GPGGA,213014.000,3748.7853,N,12217.8732,W,2,05,4.9,11.9,M,-25.1,M,5.8,0000*79
$GPGSA,A,3,29,05,25,12,30,,,,,,,,5.7,4.9,2.9*3F
$GPGSV,3,1,12,12,74,165,20,25,61,303,26,02,48,047,27,05,39,134,18*74
$GPGSV,3,2,12,30,38,312,30,10,34,073,30,29,34,293,20,04,15,049,26*7E
$GPGSV,3,3,12,31,11,317,29,09,10,200,16,21,04,230,10,48,44,197,23*7E
$GPRMC,213014.000,A,3748.7853,N,12217.8732,W,1.87,80.51,261010,,,D*42
$GPVTG,80.51,T,,M,1.87,N,3.5,K,D*3C
$GPGGA,213015.000,3748.7836,N,12217.8744,W,2,05,4.9,11.3,M,-25.1,M,6.8,0000*73
$GPGSA,A,3,29,05,25,12,30,,,,,,,,5.7,4.9,2.9*3F
$GPRMC,213015.000,A,3748.7836,N,12217.8744,W,0.74,160.01,261010,,,D*76
$GPVTG,160.01,T,,M,0.74,N,1.4,K,D*08
$GPGGA,213016.000,3748.7836,N,12217.8741,W,2,05,4.9,10.0,M,-25.1,M,7.8,0000*76
$GPGSA,A,3,29,05,25,12,30,,,,,,,,5.7,4.9,2.9*3F
$GPRMC,213016.000,A,3748.7836,N,12217.8741,W,1.03,31.12,261010,,,D*46
$GPVTG,31.12,T,,M,1.03,N,1.9,K,D*33
$GPGGA,213017.000,3748.7844,N,12217.8731,W,2,05,4.9,7.8,M,-25.1,M,8.8,0000*44
$GPGSA,A,3,29,05,25,12,30,,,,,,,,5.7,4.9,2.9*3F
$GPRMC,213017.000,A,3748.7844,N,12217.8731,W,1.68,3.67,261010,,,D*7B
$GPVTG,3.67,T,,M,1.68,N,3.1,K,D*07
$GPGGA,213018.000,3748.7861,N,12217.8716,W,2,05,4.9,6.1,M,-25.1,M,9.8,0000*40
$GPGSA,A,3,29,05,25,12,30,,,,,,,,5.7,4.9,2.9*3F
$GPRMC,213018.000,A,3748.7861,N,12217.8716,W,1.98,21.01,261010,,,D*49
$GPVTG,21.01,T,,M,1.98,N,3.7,K,D*3E
$GPGGA,213019.000,3748.7856,N,12217.8724,W,2,05,4.9,4.5,M,-25.1,M,10.8,0000*7A
$GPGSA,A,3,29,05,25,12,30,,,,,,,,5.7,4.9,2.9*3F
$GPGSV,3,1,12,12,74,165,21,25,61,303,29,02,48,047,23,05,39,134,23*76
$GPGSV,3,2,12,30,38,312,20,10,34,073,16,29,34,293,24,04,15,049,20*79
$GPRMC,213019.000,A,3748.7856,N,12217.8724,W,0.36,289.09,261010,,,D*70
$GPVTG,289.09,T,,M,0.36,N,0.7,K,D*00
$GPGGA,213020.000,3748.7871,N,12217.8706,W,2,05,4.9,2.4,M,-25.1,M,11.8,0000*73
$GPGSA,A,3,29,05,25,12,30,,,,,,,,5.7,4.9,2.9*3F
$GPRMC,213020.000,A,3748.7871,N,12217.8706,W,1.11,63.10,261010,,,D*45
$GPVTG,63.10,T,,M,1.11,N,2.1,K,D*3E
$GPGGA,213021.000,3748.7885,N,12217.8690,W,2,05,4.9,2.6,M,-25.1,M,12.8,0000*76
$GPGSA,A,3,29,05,25,12,30,,,,,,,,5.7,4.9,2.9*3F
$GPRMC,213021.000,A,3748.7885,N,12217.8690,W,2.51,39.44,261010,,,D*48
$GPVTG,39.44,T,,M,2.51,N,4.7,K,D*37
$GPGGA,213022.000,3748.7908,N,12217.8666,W,2,04,8.4,4.0,M,-25.1,M,13.8,0000*79
$GPGSA,A,3,29,05,25,12,,,,,,,,,9.1,8.4,3.3*3C
$GPRMC,213022.000,A,3748.7908,N,12217.8666,W,3.24,39.41,261010,,,D*40
$GPVTG,39.41,T,,M,3.24,N,6.0,K,D*34
$GPGGA,213023.000,3748.7895,N,12217.8676,W,2,05,4.9,6.0,M,-25.1,M,14.8,0000*79
$GPGSA,A,3,29,05,25,12,30,,,,,,,,5.7,4.9,2.9*3F
$GPRMC,213023.000,A,3748.7895,N,12217.8676,W,1.73,65.78,261010,,,D*46
$GPVTG,65.78,T,,M,1.73,N,3.2,K,D*30
$GPGGA,213024.000,3748.7884,N,12217.8678,W,2,05,4.9,3.9,M,-25.1,M,15.8,0000*7D
$GPGSA,A,3,29,05,25,12,30,,,,,,,,5.7,4.9,2.9*3F
$GPGSV,3,1,11,12,74,165,32,25,61,303,34,02,48,047,19,05,39,134,16*74
$GPGSV,3,2,11,30,38,312,23,10,34,073,27,29,34,293,19,04,15,049,27*72
$GPGSV,3,3,11,31,11,317,20,09,10,200,,21,04,230,*40
$GPRMC,213024.000,A,3748.7884,N,12217.8678,W,2.19,70.47,261010,,,D*48
$GPVTG,70.47,T,,M,2.19,N,4.1,K,D*33
$GPGGA,213025.000,3748.7883,N,12217.8674,W,2,05,4.9,1.2,M,-25.1,M,16.8,0000*7D
$GPGSA,A,3,29,05,25,12,30,,,,,,,,5.7,4.9,2.9*3F
$GPRMC,213025.000,A,3748.7883,N,12217.8674,W,1.89,61.21,261010,,,D*48
$GPVTG,61.21,T,,M,1.89,N,3.5,K,D*3A
$GPGGA,213026.000,3748.7866,N,12217.8694,W,2,04,5.2,-1.7,M,-25.1,M,17.8,0000*59
$GPGSA,A,3,29,25,12,30,,,,,,,,,5.2,5.2,1.0*3F
$GPRMC,213026.000,A,3748.7866,N,12217.8694,W,0.52,190.28,261010,,,D*7F
$GPVTG,190.28,T,,M,0.52,N,1.0,K,D*0C
$GPGGA,213027.000,3748.7840,N,12217.8723,W,1,04,5.2,-3.3,M,-25.1,M,,0000*44
$GPGSA,A,3,29,25,12,30,,,,,,,,,5.2,5.2,1.0*3F
$GPRMC,213027.000,A,3748.7840,N,12217.8723,W,1.73,206.38,261010,,,A*7D
$GPVTG,206.38,T,,M,1.73,N,3.2,K,A*06
$GPGGA,213028.000,3748.7822,N,12217.8741,W,1,04,5.2,-4.2,M,-25.1,M,,0000*4D
$GPGSA,A,3,29,25,12,30,,,,,,,,,5.3,5.2,1.0*3E
$GPRMC,213028.000,A,3748.7822,N,12217.8741,W,1.87,207.01,261010,,,A*72
$GPVTG,207.01,T,,M,1.87,N,3.5,K,A*01
$GPGGA,213029.000,3748.7808,N,12217.8757,W,1,04,5.2,-5.0,M,-25.1,M,,0000*40
$GPGSA,A,3,29,25,12,30,,,,,,,,,5.3,5.2,1.0*3E
$GPGSV,3,1,11,12,74,165,33,25,61,303,33,02,48,047,18,05,39,134,13*76
$GPGSV,3,2,11,30,38,312,25,10,34,073,24,29,34,293,27,04,15,049,23*7E
$GPGSV,3,3,11,31,11,317,20,09,10,200,,21,04,230,*40
$GPRMC,213029.000,A,3748.7808,N,12217.8757,W,1.84,206.77,261010,,,A*7F
$GPVTG,206.77,T,,M,1.84,N,3.4,K,A*03
$GPGGA,213030.000,3748.7797,N,12217.8768,W,1,04,5.2,-5.7,M,-25.1,M,,0000*4A
$GPGSA,A,3,29,25,12,30,,,,,,,,,5.3,5.2,1.0*3E
$GPRMC,213030.000,A,3748.7797,N,12217.8768,W,1.64,205.19,261010,,,A*77
$GPVTG,205.19,T,,M,1.64,N,3.0,K,A*02
$GPGGA,213031.000,3748.7791,N,12217.8775,W,1,04,5.2,-6.2,M,-25.1,M,,0000*47
$GPGSA,A,3,29,25,12,30,,,,,,,,,5.3,5.2,1.0*3E
$GPRMC,213031.000,A,3748.7791,N,12217.8775,W,1.30,204.01,261010,,,A*75
$GPVTG,204.01,T,,M,1.30,N,2.4,K,A*0E
$GPGGA,213032.000,3748.7788,N,12217.8777,W,1,04,5.2,-6.6,M,-25.1,M,,0000*4A
$GPGSA,A,3,29,25,12,30,,,,,,,,,5.3,5.2,1.0*3E
$GPRMC,213032.000,A,3748.7788,N,12217.8777,W,0.85,197.52,261010,,,A*7C
$GPVTG,197.52,T,,M,0.85,N,1.6,K,A*0F
$GPGGA,213033.000,3748.7784,N,12217.8781,W,1,04,5.2,-6.9,M,-25.1,M,,0000*41
$GPGSA,A,3,29,25,12,30,,,,,,,,,5.3,5.2,1.0*3E
$GPRMC,213033.000,A,3748.7784,N,12217.8781,W,0.72,193.13,261010,,,A*71
$GPVTG,193.13,T,,M,0.72,N,1.3,K,A*03
$GPGGA,213034.000,3748.7779,N,12217.8796,W,1,05,4.9,-5.5,M,-25.1,M,,0000*46
$GPGSA,A,3,05,29,25,12,30,,,,,,,,5.7,4.9,2.9*3F
$GPGSV,3,1,11,12,74,165,33,25,61,303,33,02,48,047,19,05,39,134,18*7C
$GPGSV,3,2,11,30,38,312,26,10,34,073,24,29,34,293,27,04,15,049,24*7A
$GPGSV,3,3,11,31,11,317,21,09,10,200,,21,04,230,*41
$GPVTG,195.49,T,,M,0.70,N,1.3,K,A*08
$GPGGA,213035.000,3748.7773,N,12217.8816,W,1,05,4.9,-3.1,M,-25.1,M,,0000*48
$GPGSA,A,3,05,29,25,12,30,,,,,,,,5.7,4.9,2.9*3F
$GPRMC,213035.000,A,3748.7773,N,12217.8816,W,0.87,227.92,261010,,,A*71
$GPVTG,227.92,T,,M,0.87,N,1.6,K,A*09
$GPGGA,213036.000,3748.7771,N,12217.8819,W,1,05,4.9,-2.9,M,-25.1,M,,0000*4F
$GPGSA,A,3,05,29,25,12,30,,,,,,,,5.7,4.9,2.9*3F
$GPRMC,213036.000,A,3748.7771,N,12217.8819,W,0.78,236.37,261010,,,A*70
$GPVTG,236.37,T,,M,0.78,N,1.4,K,A*04
$GPGGA,213037.000,3748.7770,N,12217.8826,W,1,05,4.9,-1.7,M,-25.1,M,,0000*4E
$GPGSA,A,3,05,29,25,12,30,,,,,,,,5.7,4.9,2.9*3F
$GPRMC,213037.000,A,3748.7770,N,12217.8826,W,0.85,250.32,261010,,,A*7B
$GPVTG,250.32,T,,M,0.85,N,1.6,K,A*01
$GPGGA,213038.000,3748.7771,N,12217.8829,W,1,05,4.9,-0.8,M,-25.1,M,,0000*41
$GPGSA,A,3,05,29,25,12,30,,,,,,,,5.7,4.9,2.9*3F
$GPRMC,213038.000,A,3748.7771,N,12217.8829,W,0.93,254.09,261010,,,A*71
$GPVTG,254.09,T,,M,0.93,N,1.7,K,A*0B
$GPGGA,213039.000,3748.7772,N,12217.8832,W,1,05,4.9,0.2,M,-25.1,M,,0000*6E
$GPGSA,A,3,05,29,25,12,30,,,,,,,,5.7,4.9,2.9*3F
$GPGSV,3,1,11,12,74,165,33,25,61,303,34,02,48,047,19,05,39,134,20*70
$GPGSV,3,2,11,30,38,312,25,10,34,073,24,29,34,293,27,04,15,049,25*78
$GPGSV,3,3,11,31,11,317,22,09,10,200,,21,04,230,*42
$GPRMC,213039.000,A,3748.7772,N,12217.8832,W,0.42,219.66,261010,,,A*75
$GPVTG,219.66,T,,M,0.42,N,0.8,K,A*09
$GPGGA,213040.000,3748.7767,N,12217.8836,W,1,05,4.9,0.8,M,-25.1,M,,0000*6A
$GPGSA,A,3,05,29,25,12,30,,,,,,,,5.7,4.9,2.9*3F
$GPRMC,213040.000,A,3748.7767,N,12217.8836,W,0.67,241.72,261010,,,A*74
$GPVTG,241.72,T,,M,0.67,N,1.2,K,A*0D
$GPGGA,213041.000,3748.7770,N,12217.8831,W,1,05,4.9,0.8,M,-25.1,M,,0000*6A
$GPGSA,A,3,05,29,25,12,30,,,,,,,,5.7,4.9,2.9*3F
$GPRMC,213041.000,A,3748.7770,N,12217.8831,W,0.41,306.27,261010,,,A*72
$GPVTG,306.27,T,,M,0.41,N,0.8,K,A*00
$GPGGA,213042.000,3748.7776,N,12217.8817,W,1,05,4.9,-0.3,M,-25.1,M,,0000*4D
$GPGSA,A,3,05,29,25,12,30,,,,,,,,5.7,4.9,2.9*3F
$GPRMC,213042.000,A,3748.7776,N,12217.8817,W,0.96,36.38,261010,,,A*47
$GPVTG,36.38,T,,M,0.96,N,1.8,K,A*35
$GPGGA,213043.000,3748.7778,N,12217.8805,W,1,05,4.9,-1.5,M,-25.1,M,,0000*46
$GPGSA,A,3,05,29,25,12,30,,,,,,,,5.7,4.9,2.9*3F
$GPRMC,213043.000,A,3748.7778,N,12217.8805,W,0.91,67.53,261010,,,A*45
$GPVTG,67.53,T,,M,0.91,N,1.7,K,A*34
$GPGGA,213044.000,3748.7784,N,12217.8793,W,1,05,4.9,-2.4,M,-25.1,M,,0000*40
$GPGSA,A,3,05,29,25,12,30,,,,,,,,5.7,4.9,2.9*3F
$GPGSV,3,1,11,12,74,165,33,25,61,303,34,02,48,047,20,05,39,134,20*7A
$GPGSV,3,2,11,30,38,312,25,10,34,073,24,29,34,293,27,04,15,049,26*7B
$GPGSV,3,3,11,31,11,317,22,09,10,200,,21,04,230,*42
$GPRMC,213044.000,A,3748.7784,N,12217.8793,W,1.02,51.68,261010,,,A*47
$GPVTG,51.68,T,,M,1.02,N,1.9,K,A*3C
$GPGGA,213045.000,3748.7802,N,12217.8773,W,1,05,4.9,-3.5,M,-25.1,M,,0000*4E
$GPGSA,A,3,05,29,25,12,30,,,,,,,,5.7,4.9,2.9*3F
$GPRMC,213045.000,A,3748.7802,N,12217.8773,W,1.33,39.15,261010,,,A*4F
$GPVTG,39.15,T,,M,1.33,N,2.5,K,A*35
$GPGGA,213046.000,3748.7817,N,12217.8758,W,1,05,4.9,-4.0,M,-25.1,M,,0000*42
$GPGSA,A,3,05,29,25,12,30,,,,,,,,5.7,4.9,2.9*3F
$GPRMC,213046.000,A,3748.7817,N,12217.8758,W,1.24,32.95,261010,,,A*44
$GPVTG,32.95,T,,M,1.24,N,2.3,K,A*36
$GPGGA,213047.000,3748.7833,N,12217.8744,W,1,05,4.9,-4.3,M,-25.1,M,,0000*4B
$GPGSA,A,3,05,29,25,12,30,,,,,,,,5.7,4.9,2.9*3F
$GPRMC,213047.000,A,3748.7833,N,12217.8744,W,1.46,27.27,261010,,,A*47
$GPVTG,27.27,T,,M,1.46,N,2.7,K,A*3B
$GPGGA,213048.000,3748.7846,N,12217.8731,W,1,05,4.9,-4.9,M,-25.1,M,,0000*4E
$GPGSA,A,3,05,29,25,12,30,,,,,,,,5.7,4.9,2.9*3F
$GPRMC,213048.000,A,3748.7846,N,12217.8731,W,1.43,28.31,261010,,,A*45
$GPVTG,28.31,T,,M,1.43,N,2.6,K,A*37
$GPGGA,213049.000,3748.7863,N,12217.8708,W,1,05,4.9,-6.8,M,-25.1,M,,0000*41
$GPGSA,A,3,05,29,25,12,30,,,,,,,,5.7,4.9,2.9*3F
$GPGSV,3,1,11,12,74,165,33,25,62,303,34,02,47,047,22,05,40,134,20*7A
$GPGSV,3,2,11,30,38,311,24,29,34,293,28,10,34,072,23,04,14,049,27*70
$GPGSV,3,3,11,31,11,317,22,09,10,200,,21,05,230,*43
$GPRMC,213049.000,A,3748.7863,N,12217.8708,W,1.92,44.17,261010,,,A*4B
$GPGGA,213050.000,3748.7864,N,12217.8705,W,1,05,4.9,-7.1,M,-25.1,M,,0000*4B
$GPGSA,A,3,05,29,25,12,30,,,,,,,,5.7,4.9,2.9*3F
$GPRMC,213050.000,A,3748.7864,N,12217.8705,W,1.06,42.87,261010,,,A*4B
$GPVTG,42.87,T,,M,1.06,N,2.0,K,A*31
$GPGGA,213051.000,3748.7857,N,12217.8711,W,1,05,4.9,-6.8,M,-25.1,M,,0000*47
$GPGSA,A,3,05,29,25,12,30,,,,,,,,5.7,4.9,2.9*3F
$GPRMC,213051.000,A,3748.7857,N,12217.8711,W,0.45,115.66,261010,,,A*75
$GPVTG,115.66,T,,M,0.45,N,0.8,K,A*01
$GPGGA,213052.000,3748.7863,N,12217.8695,W,1,05,4.9,-8.7,M,-25.1,M,,0000*4F
$GPGSA,A,3,05,29,25,12,30,,,,,,,,5.7,4.9,2.9*3F
$GPRMC,213052.000,A,3748.7863,N,12217.8695,W,1.18,70.75,261010,,,A*45
$GPVTG,70.75,T,,M,1.18,N,2.2,K,A*30
$GPGGA,213053.000,3748.7858,N,12217.8701,W,1,05,4.9,-8.2,M,-25.1,M,,0000*4F
$GPGSA,A,3,05,29,25,12,30,,,,,,,,5.7,4.9,2.9*3F
$GPRMC,213053.000,A,3748.7858,N,12217.8701,W,0.61,47.12,261010,,,A*4A
$GPVTG,47.12,T,,M,0.61,N,1.1,K,A*3A
$GPGGA,213054.000,3748.7852,N,12217.8704,W,1,05,4.9,-8.2,M,-25.1,M,,0000*47
$GPGSA,A,3,05,29,25,12,30,,,,,,,,5.7,4.9,2.9*3F
$GPGSV,3,1,11,12,74,165,33,25,62,303,34,02,47,047,23,05,40,134,19*71
$GPGSV,3,2,11,30,38,311,24,29,34,293,28,10,34,072,24,04,14,049,27*77
$GPGSV,3,3,11,31,11,317,22,09,10,200,,21,05,230,*43
$GPRMC,213054.000,A,3748.7852,N,12217.8704,W,0.81,54.66,261010,,,A*4D
$GPVTG,54.66,T,,M,0.81,N,1.5,K,A*31
$GPGGA,213055.000,3748.7856,N,12217.8701,W,1,05,4.9,-8.2,M,-25.1,M,,0000*47
$GPGSA,A,3,05,29,25,12,30,,,,,,,,5.7,4.9,2.9*3F
$GPRMC,213055.000,A,3748.7856,N,12217.8701,W,1.06,33.01,261010,,,A*43
$GPVTG,33.01,T,,M,1.06,N,2.0,K,A*39
$GPGGA,213056.000,3748.7860,N,12217.8698,W,1,05,4.9,-8.3,M,-25.1,M,,0000*41
$GPGSA,A,3,05,29,25,12,30,,,,,,,,5.7,4.9,2.9*3F
$GPRMC,213056.000,A,3748.7860,N,12217.8698,W,0.85,25.59,261010,,,A*44
$GPVTG,25.59,T,,M,0.85,N,1.6,K,A*3C
$GPGGA,213057.000,3748.7858,N,12217.8701,W,1,05,4.9,-8.1,M,-25.1,M,,0000*48
$GPGSA,A,3,05,29,25,12,30,,,,,,,,5.7,4.9,2.9*3F
$GPRMC,213057.000,A,3748.7858,N,12217.8701,W,0.53,9.10,261010,,,A*77
$GPVTG,9.10,T,,M,0.53,N,1.0,K,A*02
$GPGGA,213058.000,3748.7861,N,12217.8699,W,1,05,4.9,-8.0,M,-25.1,M,,0000*4C
$GPGSA,A,3,05,29,25,12,30,,,,,,,,5.7,4.9,2.9*3F
$GPRMC,213058.000,A,3748.7861,N,12217.8699,W,0.57,54.09,261010,,,A*46
$GPVTG,54.09,T,,M,0.57,N,1.1,K,A*37
$GPGGA,213059.000,3748.7870,N,12217.8689,W,1,05,5.0,-8.5,M,-25.1,M,,0000*41
$GPGSA,A,3,05,29,25,12,30,,,,,,,,5.8,5.0,2.9*38
$GPGSV,3,1,11,12,74,165,33,25,62,303,34,02,47,047,23,05,40,134,19*71
$GPGSV,3,2,11,30,38,311,23,29,34,293,28,10,34,072,24,04,14,049,27*70
$GPGSV,3,3,11,31,11,317,22,09,10,200,,21,05,230,*43
$GPRMC,213059.000,A,3748.7870,N,12217.8689,W,1.36,52.20,261010,,,A*4D
$GPVTG,52.20,T,,M,1.36,N,2.5,K,A*3B
$GPGGA,213100.000,3748.7862,N,12217.8692,W,1,05,5.0,-8.9,M,-25.1,M,,0000*49
$GPGSA,A,3,05,29,25,12,30,,,,,,,,5.8,5.0,2.9*38
$GPRMC,213100.000,A,3748.7862,N,12217.8692,W,0.37,75.18,261010,,,A*47
$GPVTG,75.18,T,,M,0.37,N,0.7,K,A*35
$GPGGA,213101.000,3748.7858,N,12217.8695,W,1,05,5.0,-9.0,M,-25.1,M,,0000*4E
$GPGSA,A,3,05,29,25,12,30,,,,,,,,5.8,5.0,2.9*38
$GPRMC,213101.000,A,3748.7858,N,12217.8695,W,0.38,24.60,261010,,,A*4C
$GPVTG,24.60,T,,M,0.38,N,0.7,K,A*31
$GPGGA,213102.000,3748.7858,N,12217.8691,W,1,05,5.0,-9.6,M,-25.1,M,,0000*4F
$GPGSA,A,3,05,29,25,12,30,,,,,,,,5.8,5.0,2.9*38
$GPRMC,213102.000,A,3748.7858,N,12217.8691,W,0.80,71.57,261010,,,A*4C
$GPVTG,71.57,T,,M,0.80,N,1.5,K,A*35
$GPGGA,213103.000,3748.7860,N,12217.8693,W,1,05,5.0,-8.9,M,-25.1,M,,0000*49
$GPGSA,A,3,05,29,25,12,30,,,,,,,,5.8,5.0,2.9*38
$GPRMC,213103.000,A,3748.7860,N,12217.8693,W,0.75,96.86,261010,,,A*4B
$GPVTG,96.86,T,,M,0.75,N,1.4,K,A*3B
$GPGGA,213104.000,3748.7870,N,12217.8682,W,1,04,5.3,-9.6,M,-25.1,M,,0000*43
$GPGSA,A,3,29,25,12,30,,,,,,,,,5.3,5.3,1.0*3F
$GPGSV,3,1,11,12,74,165,33,25,62,303,34,02,47,047,24,05,40,134,18*77
$GPGSV,3,2,11,30,38,311,23,29,34,293,28,10,34,072,24,04,14,049,28*7F
$GPGSV,3,3,11,31,11,317,21,09,10,200,,21,05,230,*40
$GPRMC,213104.000,A,3748.7870,N,12217.8682,W,0.98,62.47,261010,,,A*48
$GPVTG,62.47,T,,M,0.98,N,1.8,K,A*32
$GPGGA,213105.000,3748.7862,N,12217.8693,W,1,05,5.0,-8.5,M,-25.1,M,,0000*41
$GPGSA,A,3,05,29,25,12,30,,,,,,,,5.8,5.0,2.9*38
$GPRMC,213105.000,A,3748.7862,N,12217.8693,W,0.28,170.23,261010,,,A*71
$GPVTG,170.23,T,,M,0.28,N,0.5,K,A*05
$GPGGA,213106.000,3748.7866,N,12217.8692,W,1,05,5.0,-8.1,M,-25.1,M,,0000*43
$GPGSA,A,3,05,29,25,12,30,,,,,,,,5.8,5.0,2.9*38
$GPRMC,213106.000,A,3748.7866,N,12217.8692,W,0.32,110.64,261010,,,A*79
$GPVTG,110.64,T,,M,0.32,N,0.6,K,A*08
$GPGGA,213107.000,3748.7873,N,12217.8682,W,1,05,5.0,-8.8,M,-25.1,M,,0000*4E
$GPGSA,A,3,05,29,25,12,30,,,,,,,,5.8,5.0,2.9*38
$GPRMC,213107.000,A,3748.7873,N,12217.8682,W,1.07,64.61,261010,,,A*4D
$GPVTG,64.61,T,,M,1.07,N,2.0,K,A*3C
$GPGGA,213108.000,3748.7868,N,12217.8689,W,1,05,5.0,-8.0,M,-25.1,M,,0000*48
$GPGSA,A,3,05,29,25,12,30,,,,,,,,5.8,5.0,2.9*38
$GPRMC,213108.000,A,3748.7868,N,12217.8689,W,0.56,25.98,261010,,,A*45
$GPVTG,25.98,T,,M,0.56,N,1.0,K,A*39
$GPGGA,213109.000,3748.7855,N,12217.8705,W,1,05,5.0,-6.7,M,-25.1,M,,0000*4B
$GPGSA,A,3,05,29,25,12,30,,,,,,,,5.8,5.0,2.9*38
$GPGSV,3,1,11,12,74,165,33,25,62,303,34,02,47,047,24,05,40,134,19*76
$GPGSV,3,2,11,30,38,311,23,29,34,293,28,10,34,072,24,04,14,049,27*70
$GPGSV,3,3,11,31,11,317,20,09,10,200,,21,05,230,*41
$GPRMC,213109.000,A,3748.7855,N,12217.8705,W,0.40,263.60,261010,,,A*7F
$GPVTG,263.60,T,,M,0.40,N,0.7,K,A*0F
$GPGGA,213109.000,3748.7850,N,12217.8711,W,1,05,5.0,-6.1,M,-25.1,M,,0000*4D
$GPGSA,A,3,05,29,25,12,30,,,,,,,,5.8,5.0,2.9*38
$GPRMC,213109.000,A,3748.7850,N,12217.8711,W,0.38,242.13,261010,,,A*77
$GPVTG,242.13,T,,M,0.38,N,0.7,K,A*07
$GPGGA,213110.000,3748.7845,N,12217.8715,W,1,05,5.0,-5.9,M,-25.1,M,,0000*4E
$GPGSA,A,3,05,29,25,12,30,,,,,,,,5.8,5.0,2.9*38
$GPRMC,213110.000,A,3748.7845,N,12217.8715,W,0.20,142.83,261010,,,A*7C
$GPVTG,142.83,T,,M,0.20,N,0.4,K,A*07
$GPGGA,213111.000,3748.7839,N,12217.8723,W,1,05,5.0,-4.8,M,-25.1,M,,0000*41
$GPGSA,A,3,05,29,25,12,30,,,,,,,,5.8,5.0,2.9*38
$GPRMC,213111.000,A,3748.7839,N,12217.8723,W,0.58,230.87,261010,,,A*7E
$GPVTG,230.87,T,,M,0.58,N,1.1,K,A*0E
$GPGGA,213112.000,3748.7836,N,12217.8731,W,1,05,5.0,-3.5,M,-25.1,M,,0000*44
$GPGSA,A,3,05,29,25,12,30,,,,,,,,5.8,5.0,2.9*38
$GPRMC,213112.000,A,3748.7836,N,12217.8731,W,0.81,217.36,261010,,,A*7A
$GPVTG,217.36,T,,M,0.81,N,1.5,K,A*01
$GPGGA,213113.000,3748.7844,N,12217.8730,W,1,05,5.0,-2.3,M,-25.1,M,,0000*46
$GPGSA,A,3,05,29,25,12,30,,,,,,,,5.8,5.0,2.9*38
$GPGSV,3,1,11,12,74,165,33,25,62,303,34,02,47,047,25,05,40,134,20*7D
$GPGSV,3,2,11,30,38,311,24,29,34,293,28,10,34,072,24,04,14,049,23*73
$GPGSV,3,3,11,31,11,317,20,09,10,200,,21,05,230,*41
$GPRMC,213113.000,A,3748.7844,N,12217.8730,W,0.39,317.20,261010,,,A*7A
$GPVTG,317.20,T,,M,0.39,N,0.7,K,A*07
$GPGGA,213114.000,3748.7852,N,12217.8727,W,1,05,5.0,-1.5,M,-25.1,M,,0000*45
$GPGSA,A,3,05,29,25,12,30,,,,,,,,5.8,5.0,2.9*38
$GPRMC,213114.000,A,3748.7852,N,12217.8727,W,0.37,40.11,261010,,,A*41
$GPVTG,40.11,T,,M,0.37,N,0.7,K,A*3A
$GPGGA,213115.000,3748.7865,N,12217.8718,W,1,05,5.0,-1.0,M,-25.1,M,,0000*49
$GPGSA,A,3,05,29,25,12,30,,,,,,,,5.8,5.0,2.9*38
$GPRMC,213115.000,A,3748.7865,N,12217.8718,W,1.14,35.98,261010,,,A*4B
$GPVTG,35.98,T,,M,1.14,N,2.1,K,A*3D
$GPGGA,213116.000,3748.7852,N,12217.8730,W,1,05,5.0,-0.1,M,-25.1,M,,0000*44
$GPGSA,A,3,05,29,25,12,30,,,,,,,,5.8,5.0,2.9*38
$GPRMC,213116.000,A,3748.7852,N,12217.8730,W,0.33,192.78,261010,,,A*70
$GPVTG,192.78,T,,M,0.33,N,0.6,K,A*0E
$GPGGA,213117.000,3748.7831,N,12217.8751,W,1,05,5.0,1.1,M,-25.1,M,,0000*6B
$GPGSA,A,3,05,29,25,12,30,,,,,,,,5.8,5.0,2.9*38
$GPRMC,213117.000,A,3748.7831,N,12217.8751,W,1.32,232.07,261010,,,A*72
$GPVTG,232.07,T,,M,1.32,N,2.5,K,A*0E
$GPGGA,213118.000,3748.7820,N,12217.8766,W,1,05,5.0,2.6,M,-25.1,M,,0000*64
$GPGSA,A,3,05,29,25,12,30,,,,,,,,5.8,5.0,2.9*38
$GPGSV,3,1,11,12,74,165,33,25,62,302,34,02,47,047,26,05,40,134,21*7E
$GPGSV,3,2,11,30,38,311,24,29,34,293,28,10,34,072,24,04,14,049,23*73
$GPGSV,3,3,11,31,11,317,19,09,10,200,,21,05,230,*4B
$GPRMC,213118.000,A,3748.7820,N,12217.8766,W,1.65,234.55,261010,,,A*7A
$GPVTG,234.55,T,,M,1.65,N,3.1,K,A*08
$GPGGA,213119.000,3748.7811,N,12217.8773,W,1,05,5.0,2.9,M,-25.1,M,,0000*6C
$GPGSA,A,3,05,29,25,12,30,,,,,,,,5.8,5.0,2.9*38
$GPRMC,213119.000,A,3748.7811,N,12217.8773,W,1.41,218.69,261010,,,A*7A
$GPVTG,218.69,T,,M,1.41,N,2.6,K,A*09
$GPGGA,213120.000,3748.7802,N,12217.8781,W,1,05,5.0,3.3,M,-25.1,M,,0000*62
$GPGSA,A,3,05,29,25,12,30,,,,,,,,5.8,5.0,2.9*38
$GPRMC,213120.000,A,3748.7802,N,12217.8781,W,1.26,210.51,261010,,,A*7D
$GPVTG,210.51,T,,M,1.26,N,2.3,K,A*0E
$GPGGA,213121.000,3748.7794,N,12217.8782,W,1,05,5.0,2.7,M,-25.1,M,,0000*65
$GPGSA,A,3,05,29,25,12,30,,,,,,,,5.8,5.0,2.9*38
$GPRMC,213121.000,A,3748.7794,N,12217.8782,W,1.05,208.60,261010,,,A*75
$GPVTG,208.60,T,,M,1.05,N,1.9,K,A*0D
$GPGGA,213122.000,3748.7788,N,12217.8786,W,1,05,5.0,2.7,M,-25.1,M,,0000*6F
$GPGSA,A,3,05,29,25,12,30,,,,,,,,5.8,5.0,2.9*38
$GPRMC,213122.000,A,3748.7788,N,12217.8786,W,0.84,195.58,261010,,,A*7B
$GPVTG,195.58,T,,M,0.84,N,1.5,K,A*05
$GPGGA,213123.000,3748.7784,N,12217.8786,W,1,05,5.0,2.5,M,-25.1,M,,0000*60
$GPGSA,A,3,05,29,25,12,30,,,,,,,,5.8,5.0,2.9*38
$GPGSV,3,1,11,12,74,165,33,25,62,302,33,02,47,047,27,05,40,134,20*79
$GPGSV,3,2,11,30,38,311,24,29,34,293,29,10,34,072,24,04,14,049,23*72
$GPGSV,3,3,11,31,11,317,19,09,10,200,,21,05,230,*4B
$GPRMC,213123.000,A,3748.7784,N,12217.8786,W,0.59,177.39,261010,,,A*7D
$GPVTG,177.39,T,,M,0.59,N,1.1,K,A*0A
$GPGGA,213124.000,3748.7782,N,12217.8784,W,1,05,5.0,2.0,M,-25.1,M,,0000*66
$GPGSA,A,3,05,29,25,12,30,,,,,,,,5.8,5.0,2.9*38
$GPRMC,213124.000,A,3748.7782,N,12217.8784,W,0.31,164.02,261010,,,A*7A
$GPVTG,164.02,T,,M,0.31,N,0.6,K,A*08
$GPGGA,213125.000,3748.7781,N,12217.8783,W,1,05,5.0,1.7,M,-25.1,M,,0000*67
$GPGSA,A,3,05,29,25,12,30,,,,,,,,5.8,5.0,2.9*38
$GPRMC,213125.000,A,3748.7781,N,12217.8783,W,0.16,200.42,261010,,,A*7F
$GPVTG,200.42,T,,M,0.16,N,0.3,K,A*0D
$GPGGA,213126.000,3748.7795,N,12217.8766,W,1,05,5.0,0.2,M,-25.1,M,,0000*6E
$GPGSA,A,3,05,29,25,12,30,,,,,,,,5.8,5.0,3.0*30
$GPRMC,213126.000,A,3748.7795,N,12217.8766,W,0.74,33.22,261010,,,A*42
$GPVTG,33.22,T,,M,0.74,N,1.4,K,A*3B
$GPGGA,213127.000,3748.7807,N,12217.8755,W,1,05,5.0,-0.4,M,-25.1,M,,0000*40
$GPGSA,A,3,05,29,25,12,30,,,,,,,,5.8,5.0,3.0*30
$GPRMC,213127.000,A,3748.7807,N,12217.8755,W,1.64,40.89,261010,,,A*42
$GPVTG,40.89,T,,M,1.64,N,3.0,K,A*38
$GPGGA,213128.000,3748.7820,N,12217.8747,W,1,05,5.0,-0.3,M,-25.1,M,,0000*4E
$GPGSA,A,3,05,29,25,12,30,,,,,,,,5.8,5.0,3.0*30
$GPGSV,3,1,11,12,74,165,34,25,62,302,33,02,47,047,27,05,40,134,19*74
$GPGSV,3,2,11,30,38,311,24,29,34,293,29,10,34,072,24,04,14,049,24*75
$GPGSV,3,3,11,31,11,317,15,09,10,200,,21,05,230,*47
$GPRMC,213128.000,A,3748.7820,N,12217.8747,W,1.85,45.15,261010,,,A*44
$GPVTG,45.15,T,,M,1.85,N,3.4,K,A*33
$GPGGA,213129.000,3748.7831,N,12217.8732,W,1,05,5.0,-1.9,M,-25.1,M,,0000*46
$GPGSA,A,3,05,29,25,12,30,,,,,,,,5.8,5.0,3.0*30
$GPRMC,213129.000,A,3748.7831,N,12217.8732,W,2.47,36.09,261010,,,A*43
$GPVTG,36.09,T,,M,2.47,N,4.6,K,A*32
$GPGGA,213130.000,3748.7834,N,12217.8723,W,1,05,5.0,-3.4,M,-25.1,M,,0000*44
$GPGSA,A,3,05,29,25,12,30,,,,,,,,5.8,5.0,3.0*30
$GPRMC,213130.000,A,3748.7834,N,12217.8723,W,1.76,40.77,261010,,,A*47
$GPVTG,40.77,T,,M,1.76,N,3.3,K,A*39
$GPGGA,213131.000,3748.7836,N,12217.8719,W,1,05,5.0,-4.3,M,-25.1,M,,0000*4E
$GPGSA,A,3,05,29,25,12,30,,,,,,,,5.8,5.0,3.0*30
$GPRMC,213131.000,A,3748.7836,N,12217.8719,W,1.34,50.92,261010,,,A*41
$GPVTG,50.92,T,,M,1.34,N,2.5,K,A*32
$GPGGA,213132.000,3748.7837,N,12217.8720,W,1,05,5.0,-4.1,M,-25.1,M,,0000*44
$GPGSA,A,3,05,29,25,12,30,,,,,,,,5.8,5.0,3.0*30
$GPRMC,213132.000,A,3748.7837,N,12217.8720,W,0.83,40.43,261010,,,A*49
$GPVTG,40.43,T,,M,0.83,N,1.5,K,A*31
$GPGGA,213133.000,3748.7838,N,12217.8722,W,1,05,5.0,-3.6,M,-25.1,M,,0000*48
$GPGSA,A,3,05,29,25,12,30,,,,,,,,5.8,5.0,3.0*30
$GPGSV,3,1,11,12,74,165,34,25,62,302,34,02,47,047,28,05,40,134,19*7C
$GPGSV,3,2,11,30,38,311,25,29,34,293,29,10,34,072,23,04,14,049,24*73
$GPGSV,3,3,11,31,11,317,15,09,10,200,,21,05,230,*47
$GPRMC,213133.000,A,3748.7838,N,12217.8722,W,0.54,32.36,261010,,,A*48
$GPVTG,32.36,T,,M,0.54,N,1.0,K,A*39
$GPGGA,213134.000,3748.7848,N,12217.8719,W,1,05,5.0,-3.1,M,-25.1,M,,0000*47
$GPGSA,A,3,05,29,25,12,30,,,,,,,,5.8,5.0,3.0*30
$GPRMC,213134.000,A,3748.7848,N,12217.8719,W,0.81,50.73,261010,,,A*4D
$GPVTG,50.73,T,,M,0.81,N,1.5,K,A*31
$GPGGA,213135.000,3748.7845,N,12217.8725,W,1,05,5.0,-2.2,M,-25.1,M,,0000*46
$GPGSA,A,3,05,29,25,12,30,,,,,,,,5.8,5.0,3.0*30
$GPRMC,213135.000,A,3748.7845,N,12217.8725,W,0.60,71.53,261010,,,A*40
$GPVTG,71.53,T,,M,0.60,N,1.1,K,A*3B
$GPGGA,213136.000,3748.7846,N,12217.8726,W,1,05,5.0,-1.9,M,-25.1,M,,0000*4D
$GPGSA,A,3,05,29,25,12,30,,,,,,,,5.8,5.0,3.0*30
$GPRMC,213136.000,A,3748.7846,N,12217.8726,W,0.53,56.64,261010,,,A*42
$GPVTG,56.64,T,,M,0.53,N,1.0,K,A*3B
$GPGGA,213137.000,3748.7841,N,12217.8732,W,1,05,5.0,-1.3,M,-25.1,M,,0000*44
$GPGSA,A,3,05,29,25,12,30,,,,,,,,5.8,5.0,3.0*30
$GPRMC,213137.000,A,3748.7841,N,12217.8732,W,0.43,92.16,261010,,,A*4D
$GPVTG,92.16,T,,M,0.43,N,0.8,K,A*3E
$GPGGA,213138.000,3748.7835,N,12217.8740,W,1,05,5.0,-0.3,M,-25.1,M,,0000*4C
$GPGSA,A,3,05,29,25,12,30,,,,,,,,5.8,5.0,3.0*30
$GPGSV,3,1,11,12,74,165,34,25,62,302,34,02,47,047,28,05,40,134,20*76
$GPGSV,3,2,11,30,38,311,25,29,34,293,29,10,34,072,23,04,14,049,24*73
$GPGSV,3,3,11,31,11,317,15,09,10,200,,21,05,230,*47
$GPRMC,213138.000,A,3748.7835,N,12217.8740,W,0.17,108.31,261010,,,A*72
$GPVTG,108.31,T,,M,0.17,N,0.3,K,A*03
$GPGGA,213139.000,3748.7832,N,12217.8746,W,1,05,5.0,0.5,M,-25.1,M,,0000*67
$GPGSA,A,3,05,29,25,12,30,,,,,,,,5.8,5.0,3.0*30
$GPRMC,213139.000,A,3748.7832,N,12217.8746,W,0.30,253.23,261010,,,A*79
$GPVTG,253.23,T,,M,0.30,N,0.6,K,A*0D
$GPGGA,213140.000,3748.7827,N,12217.8754,W,1,05,5.0,1.4,M,-25.1,M,,0000*6E
$GPGSA,A,3,05,29,25,12,30,,,,,,,,5.8,5.0,3.0*30
$GPRMC,213140.000,A,3748.7827,N,12217.8754,W,0.28,200.43,261010,,,A*79
$GPVTG,200.43,T,,M,0.28,N,0.5,K,A*07
$GPGGA,213141.000,3748.7822,N,12217.8763,W,1,05,5.0,2.6,M,-25.1,M,,0000*6F
$GPGSA,A,3,05,29,25,12,30,,,,,,,,5.8,5.0,3.0*30
$GPRMC,213141.000,A,3748.7822,N,12217.8763,W,0.70,247.56,261010,,,A*73
$GPVTG,247.56,T,,M,0.70,N,1.3,K,A*0A
$GPGGA,213142.000,3748.7819,N,12217.8769,W,1,05,5.0,3.4,M,-25.1,M,,0000*6D
$GPGSA,A,3,05,29,25,12,30,,,,,,,,5.8,5.0,3.0*30
$GPRMC,213142.000,A,3748.7819,N,12217.8769,W,0.64,232.57,261010,,,A*74
$GPVTG,232.57,T,,M,0.64,N,1.2,K,A*0D
$GPGGA,213143.000,3748.7818,N,12217.8773,W,1,05,5.0,4.3,M,-25.1,M,,0000*66
$GPGSA,A,3,05,29,25,12,30,,,,,,,,5.8,5.0,3.0*30
$GPGSV,3,1,11,12,74,165,34,25,62,302,34,02,47,047,28,05,40,134,21*77
$GPGSV,3,2,11,30,38,311,25,29,34,293,29,10,34,072,22,04,14,049,25*73
$GPGSV,3,3,11,31,11,317,15,09,10,200,,21,05,230,*47
$GPRMC,213143.000,A,3748.7818,N,12217.8773,W,0.38,211.79,261010,,,A*7B
$GPVTG,211.79,T,,M,0.38,N,0.7,K,A*0D
$GPGGA,213144.000,3748.7807,N,12217.8792,W,1,05,5.0,6.6,M,-25.1,M,,0000*67
$GPGSA,A,3,05,29,25,12,30,,,,,,,,5.8,5.0,3.0*30
$GPRMC,213144.000,A,3748.7807,N,12217.8792,W,0.83,259.35,261010,,,A*79
$GPVTG,259.35,T,,M,0.83,N,1.5,K,A*0A
$GPGGA,213145.000,3748.7810,N,12217.8797,W,1,05,5.0,8.2,M,-25.1,M,,0000*6F
$GPGSA,A,3,05,29,25,12,30,,,,,,,,5.8,5.0,3.0*30
$GPRMC,213145.000,A,3748.7810,N,12217.8797,W,1.07,287.31,261010,,,A*71
$GPVTG,287.31,T,,M,1.07,N,2.0,K,A*06
$GPGGA,213146.000,3748.7804,N,12217.8810,W,1,05,5.0,9.9,M,-25.1,M,,0000*63
$GPGSA,A,3,05,29,25,12,30,,,,,,,,5.8,5.0,3.0*30
$GPRMC,213146.000,A,3748.7804,N,12217.8810,W,1.33,266.33,261010,,,A*7D
$GPVTG,266.33,T,,M,1.33,N,2.5,K,A*09
$GPGGA,213147.000,3748.7795,N,12217.8825,W,1,05,5.0,11.6,M,-25.1,M,,0000*55
$GPGSA,A,3,05,29,25,12,30,,,,,,,,5.8,5.0,3.0*30
$GPRMC,213147.000,A,3748.7795,N,12217.8825,W,1.94,251.71,261010,,,A*72
$GPVTG,251.71,T,,M,1.94,N,3.6,K,A*04
$GPGGA,213148.000,3748.7785,N,12217.8832,W,1,05,5.0,11.8,M,-25.1,M,,0000*53
$GPGSA,A,3,05,29,25,12,30,,,,,,,,5.8,5.0,3.0*30
$GPGSV,3,1,11,12,73,165,31,25,62,302,30,02,47,047,19,05,40,133,14*72
$GPGSV,3,2,11,30,38,311,24,29,34,293,26,10,34,072,22,04,14,049,24*7C
$GPGSV,3,3,11,31,11,317,15,09,10,200,,21,05,230,*47
$GPRMC,213148.000,A,3748.7785,N,12217.8832,W,2.19,244.25,261010,,,A*79
$GPVTG,244.25,T,,M,2.19,N,4.1,K,A*07
$GPGGA,213149.000,3748.7781,N,12217.8840,W,1,05,5.0,12.8,M,-25.1,M,,0000*50
$GPGSA,A,3,05,29,25,12,30,,,,,,,,5.8,5.0,3.0*30
$GPRMC,213149.000,A,3748.7781,N,12217.8840,W,2.26,245.67,261010,,,A*72
$GPVTG,245.67,T,,M,2.26,N,4.2,K,A*0F
$GPGGA,213150.000,3748.7771,N,12217.8853,W,1,05,5.0,14.1,M,-25.1,M,,0000*5A
$GPGSA,A,3,05,29,25,12,30,,,,,,,,5.8,5.0,3.0*30
$GPRMC,213150.000,A,3748.7771,N,12217.8853,W,2.43,245.76,261010,,,A*74
$GPVTG,245.76,T,,M,2.43,N,4.5,K,A*0B
$GPGGA,213151.000,3748.7763,N,12217.8863,W,1,04,5.4,14.7,M,-25.1,M,,0000*58
$GPGSA,A,3,29,25,12,30,,,,,,,,,5.5,5.4,1.0*3E
$GPRMC,213151.000,A,3748.7763,N,12217.8863,W,2.16,236.07,261010,,,A*77
$GPVTG,236.07,T,,M,2.16,N,4.0,K,A*0C
$GPGGA,213152.000,3748.7767,N,12217.8860,W,1,04,5.4,14.7,M,-25.1,M,,0000*5C
$GPGSA,A,3,29,25,12,30,,,,,,,,,5.5,5.4,1.0*3E
$GPRMC,213152.000,A,3748.7767,N,12217.8860,W,1.63,233.90,261010,,,A*79
$GPVTG,233.90,T,,M,1.63,N,3.0,K,A*01
$GPGGA,213153.000,3748.7782,N,12217.8840,W,1,04,5.4,15.3,M,-25.1,M,,0000*51
$GPGSA,A,3,29,25,12,30,,,,,,,,,5.5,5.4,1.0*3E
$GPGSV,3,1,11,12,73,165,31,25,62,302,25,02,47,047,24,05,40,133,11*7D
$GPGSV,3,2,11,30,38,311,24,29,34,293,21,10,34,072,22,04,14,049,24*7B
$GPGSV,3,3,11,31,11,317,15,09,10,200,,21,05,230,*47
$GPRMC,213153.000,A,3748.7782,N,12217.8840,W,0.05,138.28,261010,,,A*7B
$GPVTG,138.28,T,,M,0.05,N,0.1,K,A*09
$GPGGA,213154.000,3748.7793,N,12217.8827,W,1,04,5.4,15.6,M,-25.1,M,,0000*52
$GPGSA,A,3,29,25,12,30,,,,,,,,,5.5,5.4,1.0*3E
$GPRMC,213154.000,A,3748.7793,N,12217.8827,W,0.45,29.00,261010,,,A*42
$GPVTG,29.00,T,,M,0.45,N,0.8,K,A*3F
$GPGGA,213155.000,3748.7778,N,12217.8839,W,1,04,5.4,16.0,M,-25.1,M,,0000*5C
$GPGSA,A,3,29,25,12,30,,,,,,,,,5.5,5.4,1.0*3E
$GPRMC,213155.000,A,3748.7778,N,12217.8839,W,0.52,143.34,261010,,,A*75
$GPVTG,143.34,T,,M,0.52,N,1.0,K,A*0A
$GPGGA,213156.000,3748.7792,N,12217.8823,W,1,04,5.4,16.0,M,-25.1,M,,0000*50
$GPGSA,A,3,29,25,12,30,,,,,,,,,5.5,5.4,1.0*3E
$GPRMC,213156.000,A,3748.7792,N,12217.8823,W,0.94,21.41,261010,,,A*44
$GPVTG,21.41,T,,M,0.94,N,1.7,K,A*30
$GPGGA,213157.000,3748.7788,N,12217.8829,W,1,04,5.4,16.1,M,-25.1,M,,0000*51
$GPGSA,A,3,29,25,12,30,,,,,,,,,5.5,5.4,1.0*3E
$GPRMC,213157.000,A,3748.7788,N,12217.8829,W,1.00,337.43,261010,,,A*7E
$GPVTG,337.43,T,,M,1.00,N,1.9,K,A*04
$GPGGA,213158.000,3748.7774,N,12217.8849,W,1,04,5.4,15.8,M,-25.1,M,,0000*51
$GPGSA,A,3,29,25,12,30,,,,,,,,,5.5,5.4,1.0*3E
$GPGSV,3,1,11,12,73,165,27,25,62,302,27,02,47,047,23,05,40,133,12*7C
$GPGSV,3,2,11,30,38,311,22,29,34,293,22,10,34,072,22,04,14,049,23*79
$GPGSV,3,3,11,31,11,317,14,09,10,200,,21,05,230,*46
$GPRMC,213158.000,A,3748.7774,N,12217.8849,W,1.45,259.54,261010,,,A*7A
$GPVTG,259.54,T,,M,1.45,N,2.7,K,A*07
$GPGGA,213159.000,3748.7772,N,12217.8858,W,1,04,5.4,14.9,M,-25.1,M,,0000*56
$GPGSA,A,3,29,25,12,30,,,,,,,,,5.5,5.4,1.0*3E
$GPRMC,213159.000,A,3748.7772,N,12217.8858,W,1.62,259.05,261010,,,A*7C
$GPVTG,259.05,T,,M,1.62,N,3.0,K,A*00
$GPGGA,213200.000,3748.7759,N,12217.8891,W,1,05,5.1,17.8,M,-25.1,M,,0000*53
$GPGSA,A,3,05,29,25,12,30,,,,,,,,5.9,5.1,3.0*30
$GPRMC,213200.000,A,3748.7759,N,12217.8891,W,2.89,242.39,261010,,,A*7C
$GPVTG,242.39,T,,M,2.89,N,5.4,K,A*01
$GPGGA,213201.000,3748.7733,N,12217.8928,W,1,05,5.1,20.6,M,-25.1,M,,0000*57
$GPGSA,A,3,05,29,25,12,30,,,,,,,,5.9,5.1,3.0*30
$GPRMC,213201.000,A,3748.7733,N,12217.8928,W,4.05,235.54,261010,,,A*7B
$GPVTG,235.54,T,,M,4.05,N,7.5,K,A*0B
$GPGGA,213202.000,3748.7693,N,12217.8984,W,1,05,5.1,21.9,M,-25.1,M,,0000*57
$GPGSA,A,3,05,29,25,12,30,,,,,,,,5.9,5.1,3.0*30
$GPRMC,213202.000,A,3748.7693,N,12217.8984,W,6.09,227.64,261010,,,A*7B
$GPVTG,227.64,T,,M,6.09,N,11.3,K,A*34
$GPGGA,213203.000,3748.7664,N,12217.9015,W,1,04,5.4,22.4,M,-25.1,M,,0000*54
$GPGSA,A,3,29,25,12,30,,,,,,,,,5.5,5.4,1.0*3E
$GPGSV,3,1,11,12,73,165,26,25,62,302,27,02,47,047,18,05,40,133,*76
$GPGSV,3,2,11,30,38,311,17,29,34,293,21,10,34,072,22,04,14,049,22*7D
$GPGSV,3,3,11,31,11,317,,09,10,200,,21,05,230,*43
$GPRMC,213203.000,A,3748.7664,N,12217.9015,W,6.07,225.71,261010,,,A*7A
$GPVTG,225.71,T,,M,6.07,N,11.2,K,A*3D
$GPGGA,213204.000,3748.7658,N,12217.9025,W,1,04,5.4,22.1,M,-25.1,M,,0000*5A
$GPGSA,A,3,29,25,12,30,,,,,,,,,5.5,5.4,1.0*3E
$GPRMC,213204.000,A,3748.7658,N,12217.9025,W,4.84,229.11,261010,,,A*72
$GPVTG,229.11,T,,M,4.84,N,9.0,K,A*05
$GPGGA,213205.000,3748.7642,N,12217.9043,W,1,03,8.5,21.4,M,-25.1,M,,0000*5D
$GPGSA,A,2,29,25,12,,,,,,,,,,8.6,8.5,1.0*3E
$GPRMC,213205.000,A,3748.7642,N,12217.9043,W,4.31,228.55,261010,,,A*77
$GPVTG,228.55,T,,M,4.31,N,8.0,K,A*0B
$GPGGA,213206.000,3748.7620,N,12217.9072,W,1,03,8.5,20.3,M,-25.1,M,,0000*5E
$GPGSA,A,2,29,25,12,,,,,,,,,,8.6,8.5,1.0*3E
$GPRMC,213206.000,A,3748.7620,N,12217.9072,W,4.58,228.11,261010,,,A*7D
$GPVTG,228.11,T,,M,4.58,N,8.5,K,A*01
$GPGGA,213207.000,3748.7612,N,12217.9078,W,1,03,8.5,20.4,M,-25.1,M,,0000*53
$GPGSA,A,2,29,25,12,,,,,,,,,,8.6,8.5,1.0*3E
$GPRMC,213207.000,A,3748.7612,N,12217.9078,W,3.87,223.32,261010,,,A*78
$GPVTG,223.32,T,,M,3.87,N,7.2,K,A*06
$GPGGA,213208.000,3748.7626,N,12217.9063,W,1,04,5.4,19.2,M,-25.1,M,,0000*56
$GPGSA,A,3,29,25,12,30,,,,,,,,,5.5,5.4,1.0*3E
$GPGSV,3,1,11,12,73,165,26,25,62,302,27,02,47,047,20,05,40,133,*7D
$GPGSV,3,2,11,30,38,311,17,29,34,293,20,10,34,072,22,04,14,049,23*7D
$GPGSV,3,3,11,31,11,317,,09,10,200,,21,05,230,*43
$GPRMC,213208.000,A,3748.7626,N,12217.9063,W,2.39,226.48,261010,,,A*76
$GPVTG,226.48,T,,M,2.39,N,4.4,K,A*0F
$GPGGA,213209.000,3748.7621,N,12217.9068,W,1,04,5.4,18.5,M,-25.1,M,,0000*5D
$GPGSA,A,3,29,25,12,30,,,,,,,,,5.5,5.4,1.0*3E
$GPRMC,213209.000,A,3748.7621,N,12217.9068,W,1.73,235.01,261010,,,A*79
$GPVTG,235.01,T,,M,1.73,N,3.2,K,A*0C
$GPGGA,213210.000,3748.7610,N,12217.9077,W,1,04,5.4,18.7,M,-25.1,M,,0000*5B
$GPGSA,A,3,29,25,12,30,,,,,,,,,5.5,5.4,1.0*3E
$GPRMC,213210.000,A,3748.7610,N,12217.9077,W,1.93,237.51,261010,,,A*74
$GPVTG,237.51,T,,M,1.93,N,3.6,K,A*01
$GPGGA,213211.000,3748.7614,N,12217.9065,W,1,04,5.4,19.5,M,-25.1,M,,0000*5E
$GPGSA,A,3,29,25,12,30,,,,,,,,,5.5,5.4,1.0*3E
$GPRMC,213211.000,A,3748.7614,N,12217.9065,W,0.63,247.31,261010,,,A*7D
$GPVTG,247.31,T,,M,0.63,N,1.2,K,A*08
$GPGGA,213212.000,3748.7641,N,12217.9033,W,1,04,5.4,18.7,M,-25.1,M,,0000*5D
$GPGSA,A,3,29,25,12,30,,,,,,,,,5.5,5.4,1.0*3E
$GPRMC,213212.000,A,3748.7641,N,12217.9033,W,0.77,28.36,261010,,,A*44
$GPVTG,28.36,T,,M,0.77,N,1.4,K,A*37
$GPGGA,213213.000,3748.7655,N,12217.9017,W,1,03,50.0,17.7,M,-25.1,M,,0000*63
$GPGSA,A,2,25,12,30,,,,,,,,,,50.0,50.0,1.0*35
$GPGSV,3,1,11,12,73,165,27,25,62,302,27,02,47,047,26,05,40,133,*7A
$GPGSV,3,2,11,30,38,311,23,29,34,293,,10,34,072,22,04,14,049,23*78
$GPGSV,3,3,11,31,11,317,,09,10,200,,21,05,230,*43
$GPRMC,213213.000,A,3748.7655,N,12217.9017,W,1.14,53.18,261010,,,A*42
$GPVTG,53.18,T,,M,1.14,N,2.1,K,N*3A
$GPGGA,213214.000,3748.7672,N,12217.8999,W,1,03,50.0,16.5,M,-25.1,M,,0000*6C
$GPGSA,A,2,25,12,30,,,,,,,,,,50.0,50.0,1.0*35
$GPRMC,213214.000,A,3748.7672,N,12217.8999,W,1.74,41.96,261010,,,A*4D
$GPVTG,41.96,T,,M,1.74,N,3.2,K,N*3B
$GPGGA,213215.000,3748.7683,N,12217.8982,W,1,04,5.5,16.1,M,-25.1,M,,0000*5F
$GPGSA,A,3,29,25,12,30,,,,,,,,,5.5,5.5,1.0*3F
$GPRMC,213215.000,A,3748.7683,N,12217.8982,W,2.53,48.09,261010,,,A*41
$GPVTG,48.09,T,,M,2.53,N,4.7,K,A*3F
$GPGGA,213216.000,3748.7714,N,12217.8940,W,1,04,5.5,14.2,M,-25.1,M,,0000*5C
$GPGSA,A,3,29,25,12,30,,,,,,,,,5.5,5.5,1.0*3F
$GPRMC,213216.000,A,3748.7714,N,12217.8940,W,4.47,41.44,261010,,,A*40
$GPVTG,41.44,T,,M,4.47,N,8.3,K,A*34
$GPGGA,213217.000,3748.7747,N,12217.8897,W,1,04,5.5,14.2,M,-25.1,M,,0000*50
$GPGSA,A,3,29,25,12,30,,,,,,,,,5.5,5.5,1.0*3F
$GPRMC,213217.000,A,3748.7747,N,12217.8897,W,5.71,45.40,261010,,,A*48
$GPVTG,45.40,T,,M,5.71,N,10.6,K,A*0C
$GPGGA,213218.000,3748.7776,N,12217.8868,W,1,04,5.5,14.4,M,-25.1,M,,0000*5B
$GPGSA,A,3,29,25,12,30,,,,,,,,,5.5,5.5,1.0*3F
$GPGSV,3,1,11,12,73,165,31,25,62,302,21,02,47,047,26,05,40,133,*7B
$GPGSV,3,2,11,30,38,311,23,29,34,293,24,10,34,072,22,04,14,049,23*7E
$GPGSV,3,3,11,31,11,317,,09,10,200,,21,05,230,*43
$GPRMC,213218.000,A,3748.7776,N,12217.8868,W,6.18,44.38,261010,,,A*47
$GPVTG,44.38,T,,M,6.18,N,11.5,K,A*0C
$GPGGA,213219.000,3748.7803,N,12217.8834,W,1,04,5.5,13.2,M,-25.1,M,,0000*5F
$GPGSA,A,3,29,25,12,30,,,,,,,,,5.6,5.5,1.0*3C
$GPRMC,213219.000,A,3748.7803,N,12217.8834,W,6.47,47.87,261010,,,A*4F
$GPVTG,47.87,T,,M,6.47,N,12.0,K,A*07
$GPGGA,213220.000,3748.7844,N,12217.8772,W,1,04,5.5,12.5,M,-25.1,M,,0000*5D
$GPGSA,A,3,29,25,12,30,,,,,,,,,5.6,5.5,1.0*3C
$GPRMC,213220.000,A,3748.7844,N,12217.8772,W,7.40,49.88,261010,,,A*4C
$GPVTG,49.88,T,,M,7.40,N,13.7,K,A*06
$GPGGA,213221.000,3748.7895,N,12217.8709,W,1,04,5.5,12.2,M,-25.1,M,,0000*5B
$GPGSA,A,3,29,25,12,30,,,,,,,,,5.6,5.5,1.0*3C
$GPRMC,213221.000,A,3748.7895,N,12217.8709,W,8.88,45.47,261010,,,A*49
$GPVTG,45.47,T,,M,8.88,N,16.4,K,A*04
$GPGGA,213222.000,3748.7896,N,12217.8704,W,1,04,5.5,11.9,M,-25.1,M,,0000*5E
$GPGSA,A,3,29,25,12,30,,,,,,,,,5.6,5.5,1.0*3C
$GPRMC,213222.000,A,3748.7896,N,12217.8704,W,6.72,48.26,261010,,,A*45
$GPVTG,48.26,T,,M,6.72,N,12.4,K,A*01
$GPGGA,213223.000,3748.7875,N,12217.8718,W,1,05,5.1,8.7,M,-25.1,M,,0000*6C
$GPGSA,A,3,29,05,25,12,30,,,,,,,,5.9,5.1,3.0*30
$GPGSV,3,1,11,12,73,165,31,25,62,302,23,02,47,047,,05,40,133,16*7A
$GPGSV,3,2,11,30,38,311,14,29,34,293,24,10,34,072,22,04,14,049,23*7A
$GPGSV,3,3,11,31,11,317,,09,10,200,,21,05,230,*43
$GPRMC,213223.000,A,3748.7875,N,12217.8718,W,4.22,53.66,261010,,,A*4D
$GPVTG,53.66,T,,M,4.22,N,7.8,K,A*30
$GPGGA,213224.000,3748.7888,N,12217.8685,W,1,04,8.5,4.4,M,-25.1,M,,0000*6B
$GPGSA,A,3,29,05,25,12,,,,,,,,,9.1,8.5,3.2*3C
$GPRMC,213224.000,A,3748.7888,N,12217.8685,W,4.53,54.47,261010,,,A*4F
$GPVTG,54.47,T,,M,4.53,N,8.4,K,A*31
$GPGGA,213225.000,3748.7894,N,12217.8681,W,1,05,5.1,1.6,M,-25.1,M,,0000*6C
$GPGSA,A,3,29,05,25,12,30,,,,,,,,5.9,5.1,3.0*30
$GPRMC,213225.000,A,3748.7894,N,12217.8681,W,3.70,46.79,261010,,,A*4F
$GPVTG,46.79,T,,M,3.70,N,6.9,K,A*3A
$GPGGA,213226.000,3748.7883,N,12217.8695,W,1,04,8.5,-0.8,M,-25.1,M,,0000*46
$GPGSA,A,3,29,05,25,12,,,,,,,,,9.1,8.5,3.2*3C
$GPRMC,213226.000,A,3748.7883,N,12217.8695,W,2.52,47.89,261010,,,A*40
$GPVTG,47.89,T,,M,2.52,N,4.7,K,A*39
$GPGGA,213227.000,3748.7884,N,12217.8699,W,1,05,5.1,-2.2,M,-25.1,M,,0000*4C
$GPGSA,A,3,29,05,25,12,30,,,,,,,,5.9,5.1,3.0*30
$GPRMC,213227.000,A,3748.7884,N,12217.8699,W,2.31,46.40,261010,,,A*4B
$GPVTG,46.40,T,,M,2.31,N,4.3,K,A*3C
$GPGGA,213228.000,3748.7878,N,12217.8707,W,1,05,5.1,-4.5,M,-25.1,M,,0000*47
$GPGSA,A,3,29,05,25,12,30,,,,,,,,5.9,5.1,3.0*30
$GPGSV,3,1,11,12,73,165,30,25,62,302,25,02,47,047,,05,40,133,15*7E
$GPGSV,3,2,11,30,38,311,15,29,34,293,24,10,34,072,23,04,14,049,23*7A
$GPGSV,3,3,11,31,11,317,,09,10,200,,21,05,230,*43
$GPVTG,46.92,T,,M,2.28,N,4.2,K,A*3A
$GPGGA,213229.000,3748.7887,N,12217.8697,W,1,05,5.1,-4.7,M,-25.1,M,,0000*4C
$GPGSA,A,3,29,05,25,12,30,,,,,,,,5.9,5.1,3.0*30
$GPRMC,213229.000,A,3748.7887,N,12217.8697,W,3.14,41.28,261010,,,A*47
$GPVTG,41.28,T,,M,3.14,N,5.8,K,A*39
$GPGGA,213230.000,3748.7878,N,12217.8712,W,1,05,5.1,-4.2,M,-25.1,M,,0000*4D
$GPGSA,A,3,29,05,25,12,30,,,,,,,,5.9,5.1,3.0*30
$GPRMC,213230.000,A,3748.7878,N,12217.8712,W,1.91,25.32,261010,,,A*45
$GPVTG,25.32,T,,M,1.91,N,3.5,K,A*34
$GPGGA,213231.000,3748.7853,N,12217.8747,W,1,05,5.1,-4.3,M,-25.1,M,,0000*44
$GPGSA,A,3,29,05,25,12,30,,,,,,,,5.9,5.1,3.0*30
$GPRMC,213231.000,A,3748.7853,N,12217.8747,W,0.78,262.95,261010,,,A*77
$GPVTG,262.95,T,,M,0.78,N,1.5,K,A*0C
$GPGGA,213232.000,3748.7841,N,12217.8763,W,1,05,5.1,-6.7,M,-25.1,M,,0000*44
$GPGSA,A,3,29,05,25,12,30,,,,,,,,5.9,5.1,3.0*30
$GPRMC,213232.000,A,3748.7841,N,12217.8763,W,2.08,230.96,261010,,,A*70
$GPVTG,230.96,T,,M,2.08,N,3.8,K,A*02
$GPGGA,213233.000,3748.7838,N,12217.8771,W,1,05,5.1,-8.9,M,-25.1,M,,0000*48
$GPGSA,A,3,29,05,25,12,30,,,,,,,,5.9,5.1,3.0*30
$GPGSV,3,1,11,12,73,165,30,25,62,302,26,02,47,047,,05,40,133,14*7C
$GPGSV,3,2,11,30,38,311,16,29,34,293,23,10,34,072,23,04,14,049,23*7E
$GPGSV,3,3,11,31,11,317,,09,10,200,,21,05,230,*43
$GPRMC,213233.000,A,3748.7838,N,12217.8771,W,2.70,226.23,261010,,,A*7A
$GPVTG,226.23,T,,M,2.70,N,5.0,K,A*0A
$GPGGA,213234.000,3748.7852,N,12217.8754,W,1,05,5.1,-10.9,M,-25.1,M,,0000*7D
$GPGSA,A,3,29,05,25,12,30,,,,,,,,5.9,5.1,3.0*30
$GPRMC,213234.000,A,3748.7852,N,12217.8754,W,1.78,214.53,261010,,,A*7B
$GPVTG,214.53,T,,M,1.78,N,3.3,K,A*02
$GPGGA,213235.000,3748.7850,N,12217.8752,W,1,05,5.1,-10.9,M,-25.1,M,,0000*78
$GPGSA,A,3,29,05,25,12,30,,,,,,,,5.9,5.1,3.0*30
$GPRMC,213235.000,A,3748.7850,N,12217.8752,W,2.35,213.23,261010,,,A*74
$GPVTG,213.23,T,,M,2.35,N,4.4,K,A*08
$GPGGA,213236.000,3748.7848,N,12217.8748,W,1,05,5.1,-9.4,M,-25.1,M,,0000*4C
$GPGSA,A,3,29,05,25,12,30,,,,,,,,5.9,5.1,3.0*30
$GPRMC,213236.000,A,3748.7848,N,12217.8748,W,1.29,211.20,261010,,,A*7A
$GPVTG,211.20,T,,M,1.29,N,2.4,K,A*01
$GPGGA,213237.000,3748.7848,N,12217.8739,W,1,05,5.1,-9.5,M,-25.1,M,,0000*4A
$GPGSA,A,3,29,05,25,12,30,,,,,,,,5.9,5.1,3.0*30
$GPRMC,213237.000,A,3748.7848,N,12217.8739,W,0.53,182.56,261010,,,A*79
$GPVTG,182.56,T,,M,0.53,N,1.0,K,A*02
$GPGGA,213238.000,3748.7839,N,12217.8739,W,1,05,5.1,-11.4,M,-25.1,M,,0000*7B
$GPGSA,A,3,29,05,25,12,30,,,,,,,,5.9,5.1,3.0*30
$GPGSV,3,1,11,12,73,165,30,25,62,302,27,02,47,047,,05,40,133,14*7D
$GPGSV,3,2,11,30,38,311,16,29,34,293,22,10,34,072,23,04,14,049,22*7E
$GPGSV,3,3,11,31,11,317,,09,10,200,,21,05,230,*43
$GPRMC,213238.000,A,3748.7839,N,12217.8739,W,1.24,156.64,261010,,,A*79
$GPVTG,156.64,T,,M,1.24,N,2.3,K,A*0B
$GPGGA,213239.000,3748.7828,N,12217.8745,W,1,05,5.1,-10.6,M,-25.1,M,,0000*72
$GPGSA,A,3,29,05,25,12,30,,,,,,,,5.9,5.1,3.0*30
$GPRMC,213239.000,A,3748.7828,N,12217.8745,W,1.37,187.58,261010,,,A*72
$GPVTG,187.58,T,,M,1.37,N,2.5,K,A*0C
$GPGGA,213240.000,3748.7814,N,12217.8756,W,1,05,5.1,-10.9,M,-25.1,M,,0000*7E
$GPGSA,A,3,29,05,25,12,30,,,,,,,,5.9,5.1,3.0*30
$GPRMC,213240.000,A,3748.7814,N,12217.8756,W,1.54,215.90,261010,,,A*78
$GPVTG,215.90,T,,M,1.54,N,2.9,K,A*09
$GPGGA,213241.000,3748.7798,N,12217.8772,W,1,05,5.1,-10.2,M,-25.1,M,,0000*79
$GPGSA,A,3,29,05,25,12,30,,,,,,,,5.9,5.1,3.0*30
$GPRMC,213241.000,A,3748.7798,N,12217.8772,W,2.07,226.00,261010,,,A*78
$GPVTG,226.00,T,,M,2.07,N,3.8,K,A*05
$GPGGA,213242.000,3748.7786,N,12217.8785,W,1,03,8.7,-10.5,M,-25.1,M,,0000*77
$GPGSA,A,2,29,25,12,,,,,,,,,,8.8,8.7,1.0*32
$GPRMC,213242.000,A,3748.7786,N,12217.8785,W,2.36,211.64,261010,,,A*78
$GPVTG,211.64,T,,M,2.36,N,4.4,K,A*0A
$GPGGA,213243.000,3748.7775,N,12217.8805,W,1,04,8.5,-9.1,M,-25.1,M,,0000*44
$GPGSA,A,3,29,05,25,12,,,,,,,,,9.1,8.5,3.2*3C
$GPGSV,3,1,11,12,73,165,30,25,62,302,27,02,47,047,,05,40,133,15*7C
$GPGSV,3,2,11,30,38,311,17,29,34,293,22,10,34,072,23,04,14,049,22*7F
$GPGSV,3,3,11,31,11,317,,09,10,200,,21,05,230,*43
$GPRMC,213243.000,A,3748.7775,N,12217.8805,W,2.34,222.27,261010,,,A*77
$GPGGA,213244.000,3748.7748,N,12217.8838,W,1,05,5.1,-7.5,M,-25.1,M,,0000*41
$GPGSA,A,3,29,05,25,12,30,,,,,,,,6.0,5.1,3.0*3A
$GPRMC,213244.000,A,3748.7748,N,12217.8838,W,3.31,228.80,261010,,,A*73
$GPVTG,228.80,T,,M,3.31,N,6.1,K,A*0B
$GPGGA,213245.000,3748.7739,N,12217.8850,W,1,04,5.5,-6.7,M,-25.1,M,,0000*4E
$GPGSA,A,3,29,25,12,30,,,,,,,,,5.6,5.5,1.0*3C
$GPRMC,213245.000,A,3748.7739,N,12217.8850,W,2.99,233.25,261010,,,A*7C
$GPVTG,233.25,T,,M,2.99,N,5.5,K,A*0A
$GPGGA,213246.000,3748.7734,N,12217.8857,W,1,04,5.5,-5.5,M,-25.1,M,,0000*46
$GPGSA,A,3,29,25,12,30,,,,,,,,,5.6,5.5,1.0*3C
$GPRMC,213246.000,A,3748.7734,N,12217.8857,W,2.60,239.78,261010,,,A*71
$GPVTG,239.78,T,,M,2.60,N,4.8,K,A*02
$GPGGA,213247.000,3748.7740,N,12217.8855,W,1,04,5.5,-4.8,M,-25.1,M,,0000*4A
$GPGSA,A,3,29,25,12,30,,,,,,,,,5.6,5.5,1.0*3C
$GPRMC,213247.000,A,3748.7740,N,12217.8855,W,1.95,244.63,261010,,,A*78
$GPVTG,244.63,T,,M,1.95,N,3.6,K,A*02
$GPGGA,213248.000,3748.7724,N,12217.8883,W,1,05,5.1,-4.3,M,-25.1,M,,0000*42
$GPGSA,A,3,29,05,25,12,30,,,,,,,,6.0,5.1,3.0*3A
$GPGSV,3,1,11,12,73,165,29,25,62,301,27,02,46,047,,05,40,133,16*75
$GPGSV,3,2,11,30,39,311,16,29,35,294,22,10,34,071,23,04,14,049,23*7B
$GPGSV,3,3,11,31,11,316,,09,09,200,,21,05,230,*4A
$GPRMC,213248.000,A,3748.7724,N,12217.8883,W,3.08,227.01,261010,,,A*79
$GPVTG,227.01,T,,M,3.08,N,5.7,K,A*02
$GPGGA,213249.000,3748.7709,N,12217.8904,W,1,05,5.1,-4.3,M,-25.1,M,,0000*42
$GPGSA,A,3,29,05,25,12,30,,,,,,,,6.0,5.1,3.0*3A
$GPRMC,213249.000,A,3748.7709,N,12217.8904,W,3.33,215.75,261010,,,A*73
$GPVTG,215.75,T,,M,3.33,N,6.2,K,A*0E
$GPGGA,213250.000,3748.7674,N,12217.8947,W,1,05,5.1,-3.2,M,-25.1,M,,0000*40
$GPGSA,A,3,29,05,25,12,30,,,,,,,,6.0,5.1,3.0*3A
$GPRMC,213250.000,A,3748.7674,N,12217.8947,W,4.29,220.97,261010,,,A*71
$GPVTG,220.97,T,,M,4.29,N,8.0,K,A*04
$GPGGA,213251.000,3748.7687,N,12217.8937,W,1,05,5.1,-2.1,M,-25.1,M,,0000*48
$GPGSA,A,3,29,05,25,12,30,,,,,,,,6.0,5.1,3.0*3A
$GPRMC,213251.000,A,3748.7687,N,12217.8937,W,2.28,224.48,261010,,,A*7A
$GPVTG,224.48,T,,M,2.28,N,4.2,K,A*0B
$GPGGA,213252.000,3748.7701,N,12217.8919,W,1,04,5.4,-2.2,M,-25.1,M,,0000*4F
$GPGSA,A,3,29,05,12,30,,,,,,,,,6.6,5.4,3.8*36
$GPRMC,213252.000,A,3748.7701,N,12217.8919,W,0.47,218.47,261010,,,A*71
$GPVTG,218.47,T,,M,0.47,N,0.9,K,A*0F
$GPGGA,213253.000,3748.7697,N,12217.8923,W,1,05,5.1,-1.7,M,-25.1,M,,0000*4B
$GPGSA,A,3,29,05,25,12,30,,,,,,,,6.0,5.1,3.0*3A
$GPGSV,3,1,11,12,73,165,29,25,62,301,12,02,46,047,,05,40,133,19*7C
$GPGSV,3,2,11,30,39,311,16,29,35,294,23,10,34,071,22,04,14,049,23*7B
$GPGSV,3,3,11,31,11,316,,09,09,200,,21,05,230,*4A
$GPRMC,213253.000,A,3748.7697,N,12217.8923,W,1.16,213.56,261010,,,A*79
$GPVTG,213.56,T,,M,1.16,N,2.1,K,A*0B
$GPGGA,213254.000,3748.7683,N,12217.8936,W,1,05,5.1,-0.6,M,-25.1,M,,0000*4D
$GPGSA,A,3,29,05,25,12,30,,,,,,,,6.0,5.1,3.0*3A
$GPRMC,213254.000,A,3748.7683,N,12217.8936,W,1.33,218.82,261010,,,A*7A
$GPVTG,218.82,T,,M,1.33,N,2.5,K,A*0A
$GPGGA,213255.000,3748.7674,N,12217.8941,W,1,05,5.1,1.1,M,-25.1,M,,0000*6F
$GPGSA,A,3,29,05,25,12,30,,,,,,,,6.0,5.1,3.0*3A
$GPRMC,213255.000,A,3748.7674,N,12217.8941,W,1.69,232.40,261010,,,A*7A
$GPVTG,232.40,T,,M,1.69,N,3.1,K,A*06
$GPGGA,213256.000,3748.7696,N,12217.8914,W,1,05,5.1,0.9,M,-25.1,M,,0000*69
$GPGSA,A,3,29,05,25,12,30,,,,,,,,6.0,5.1,3.0*3A
$GPRMC,213256.000,A,3748.7696,N,12217.8914,W,0.36,189.40,261010,,,A*7D
$GPVTG,189.40,T,,M,0.36,N,0.7,K,A*0B
$GPGGA,213257.000,3748.7697,N,12217.8904,W,1,04,8.5,-0.3,M,-25.1,M,,0000*47
$GPGSA,A,3,29,05,25,12,,,,,,,,,9.1,8.5,3.2*3C
$GPRMC,213257.000,A,3748.7697,N,12217.8904,W,0.54,203.94,261010,,,A*70
$GPVTG,203.94,T,,M,0.54,N,1.0,K,A*01
$GPGGA,213258.000,3748.7690,N,12217.8903,W,1,04,8.5,-1.3,M,-25.1,M,,0000*49
$GPGSA,A,3,29,05,25,12,,,,,,,,,9.1,8.5,3.2*3C
$GPGSV,3,1,11,12,73,165,25,25,62,301,26,02,46,047,,05,40,133,20*7D
$GPGSV,3,2,11,30,39,311,18,29,35,294,25,10,34,071,23,04,14,049,23*72
$GPGSV,3,3,11,31,11,316,,09,09,200,,21,05,230,*4A
$GPRMC,213258.000,A,3748.7690,N,12217.8903,W,1.22,205.56,261010,,,A*77
$GPVTG,205.56,T,,M,1.22,N,2.3,K,A*09
$GPGGA,213259.000,3748.7707,N,12217.8879,W,1,04,5.4,-1.5,M,-25.1,M,,0000*41
$GPGSA,A,3,29,05,12,30,,,,,,,,,6.7,5.4,3.8*37
$GPRMC,213259.000,A,3748.7707,N,12217.8879,W,1.16,102.33,261010,,,A*75
$GPVTG,102.33,T,,M,1.16,N,2.2,K,A*08
$GPGGA,213300.000,3748.7706,N,12217.8875,W,6,00,50.0,-1.4,M,-25.1,M,,0000*77
$GPGSA,A,2,,,,,,,,,,,,,50.0,50.0,50.0*06
$GPRMC,213300.000,A,3748.7706,N,12217.8875,W,1.16,102.33,261010,,,E*71
$GPVTG,102.33,T,,M,1.16,N,2.2,K,N*07
$GPGGA,213301.000,3748.7706,N,12217.8871,W,6,00,50.0,-1.4,M,-25.1,M,,0000*72
$GPGSA,A,2,,,,,,,,,,,,,50.0,50.0,50.0*06
$GPRMC,213301.000,A,3748.7706,N,12217.8871,W,1.16,102.33,261010,,,E*74
$GPVTG,102.33,T,,M,1.16,N,2.2,K,N*07
$GPGGA,213302.000,3748.7705,N,12217.8867,W,6,00,50.0,-1.3,M,-25.1,M,,0000*72
$GPGSA,A,2,,,,,,,,,,,,,50.0,50.0,50.0*06
$GPRMC,213302.000,A,3748.7705,N,12217.8867,W,1.16,102.33,261010,,,E*73
$GPVTG,102.33,T,,M,1.16,N,2.2,K,N*07
$GPGGA,213303.000,3748.7704,N,12217.8863,W,6,00,50.0,-1.2,M,-25.1,M,,0000*77
$GPGSA,A,2,,,,,,,,,,,,,50.0,50.0,50.0*06
$GPGSV,3,1,11,12,73,165,16,25,62,301,,02,46,047,,05,40,133,*7B
$GPGSV,3,2,11,30,39,311,,29,35,294,12,10,34,071,,04,14,049,*7F
$GPGSV,3,3,11,31,11,316,,09,09,200,,21,05,230,*4A
$GPRMC,213303.000,A,3748.7704,N,12217.8863,W,1.16,102.33,261010,,,E*77
$GPVTG,102.33,T,,M,1.16,N,2.2,K,N*07
$GPGGA,213304.000,3748.7703,N,12217.8859,W,6,00,50.0,-1.1,M,-25.1,M,,0000*7D
$GPGSA,A,2,,,,,,,,,,,,,50.0,50.0,50.0*06
$GPRMC,213304.000,A,3748.7703,N,12217.8859,W,1.16,102.33,261010,,,E*7E
$GPVTG,102.33,T,,M,1.16,N,2.2,K,N*07
$GPGGA,213305.000,3748.7703,N,12217.8855,W,6,00,50.0,-1.1,M,-25.1,M,,0000*70
$GPGSA,A,2,,,,,,,,,,,,,50.0,50.0,50.0*06
$GPRMC,213305.000,A,3748.7703,N,12217.8855,W,1.16,102.33,261010,,,E*73
$GPVTG,102.33,T,,M,1.16,N,2.2,K,N*07
$GPGGA,213306.000,3748.7726,N,12217.8792,W,1,03,25.0,-3.0,M,-25.1,M,,0000*75
$GPGSA,A,2,29,05,12,,,,,,,,,,25.0,25.0,1.0*3F
$GPRMC,213306.000,A,3748.7726,N,12217.8792,W,3.59,62.90,261010,,,A*40
$GPVTG,62.90,T,,M,3.59,N,6.6,K,N*30
$GPGGA,213307.000,3748.7820,N,12217.8673,W,1,04,8.5,-4.6,M,-25.1,M,,0000*4F
$GPGSA,A,3,25,29,05,12,,,,,,,,,9.1,8.5,3.2*3C
$GPRMC,213307.000,A,3748.7820,N,12217.8673,W,10.41,42.02,261010,,,A*74
$GPVTG,42.02,T,,M,10.41,N,19.3,K,A*36
$GPGGA,213308.000,3748.7937,N,12217.8574,W,1,04,5.6,-3.6,M,-25.1,M,,0000*4A
$GPGSA,A,3,25,29,30,12,,,,,,,,,5.7,5.6,1.0*3E
$GPGSV,3,1,11,12,73,165,28,25,62,301,21,02,46,047,,05,40,133,*75
$GPGSV,3,2,11,30,39,311,21,29,35,294,26,10,34,071,,04,14,049,*7B
$GPGSV,3,3,11,31,11,316,,09,09,200,,21,05,230,*4A
$GPVTG,38.25,T,,M,14.02,N,26.0,K,A*32
$GPGGA,213309.000,3748.7995,N,12217.8523,W,1,05,5.2,-6.2,M,-25.1,M,,0000*45
$GPGSA,A,3,25,29,05,30,12,,,,,,,,6.0,5.2,3.0*39
$GPRMC,213309.000,A,3748.7995,N,12217.8523,W,13.86,38.07,261010,,,A*73
$GPVTG,38.07,T,,M,13.86,N,25.7,K,A*3D
$GPGGA,213310.000,3748.7974,N,12217.8569,W,1,04,5.5,-1.8,M,-25.1,M,,0000*47
$GPGSA,A,3,29,05,30,12,,,,,,,,,6.7,5.5,3.9*37
$GPRMC,213310.000,A,3748.7974,N,12217.8569,W,9.55,38.48,261010,,,A*44
$GPVTG,38.48,T,,M,9.55,N,17.7,K,A*02
$GPGGA,213311.000,3748.7996,N,12217.8552,W,1,04,5.5,-2.9,M,-25.1,M,,0000*40
$GPGSA,A,3,29,05,30,12,,,,,,,,,6.7,5.5,3.9*37
$GPRMC,213311.000,A,3748.7996,N,12217.8552,W,8.16,41.87,261010,,,A*4A
$GPVTG,41.87,T,,M,8.16,N,15.1,K,A*0D
$GPGGA,213312.000,3748.7987,N,12217.8557,W,1,05,5.2,-6.3,M,-25.1,M,,0000*4E
