$ADVER,3080,2.3
$GPRMC,213058.694,A,3748.7990,N,12217.8602,W,0.00,,261010,,,A*64
$GPGGA,213059.694,3748.7989,N,12217.8603,W,1,04,2.4,2.6,M,-25.1,M,,0000*69
$GPGSA,A,3,02,25,12,05,,,,,,,,,6.4,2.4,5.9*39
$GPRMC,213059.694,A,3748.7989,N,12217.8603,W,0.11,83.66,261010,,,A*49
$GPVTG,83.66,T,,M,0.11,N,0.2,K,A*34
$GPGGA,213100.694,3748.7990,N,12217.8603,W,1,04,2.4,2.6,M,-25.1,M,,0000*6C
$GPGSA,A,3,02,25,12,05,,,,,,,,,6.4,2.4,5.9*39
$GPRMC,213100.694,A,3748.7990,N,12217.8603,W,0.10,67.42,261010,,,A*41
$GPVTG,67.42,T,,M,0.10,N,0.2,K,A*39
$GPGGA,213101.000,3748.7990,N,12217.8603,W,1,04,2.4,2.6,M,-25.1,M,,0000*66
$GPGSA,A,3,02,25,12,05,,,,,,,,,6.4,2.4,5.9*39
$GPRMC,213101.000,A,3748.7990,N,12217.8603,W,0.13,84.04,261010,,,A*47
$GPVTG,84.04,T,,M,0.13,N,0.2,K,A*35
$GPGGA,213102.000,3748.7990,N,12217.8604,W,1,04,2.4,2.7,M,-25.1,M,,0000*63
$GPGSA,A,3,02,25,12,05,,,,,,,,,6.4,2.4,5.9*39
$GPRMC,213102.000,A,3748.7990,N,12217.8604,W,0.11,59.75,261010,,,A*47
$GPVTG,59.75,T,,M,0.11,N,0.2,K,A*31
$GPGGA,213103.000,3748.7990,N,12217.8604,W,1,04,2.4,2.9,M,-25.1,M,,0000*6C
$GPGSA,A,3,02,25,12,05,,,,,,,,,6.4,2.4,5.9*39
$GPGSV,3,1,12,12,74,165,43,25,62,302,42,02,51,047,41,05,40,134,41*7B
$GPGSV,3,2,12,30,38,311,42,10,35,074,36,29,34,293,40,04,14,049,38*70
$GPGSV,3,3,12,31,09,321,32,09,07,196,,21,05,230,,48,00,000,42*7D
$GPVTG,65.15,T,,M,0.09,N,0.2,K,A*31
$GPGGA,213104.000,3748.7989,N,12217.8601,W,1,05,1.8,4.5,M,-25.1,M,,0000*62
$GPGSA,A,3,02,25,12,05,30,,,,,,,,3.8,1.8,3.4*37
$GPRMC,213104.000,A,3748.7989,N,12217.8601,W,0.08,49.74,261010,,,A*44
$GPVTG,49.74,T,,M,0.08,N,0.1,K,A*3A
$GPGGA,213105.000,3748.7989,N,12217.8600,W,1,05,1.8,5.0,M,-25.1,M,,0000*66
$GPGSA,A,3,02,25,12,05,30,,,,,,,,3.8,1.8,3.4*37
$GPRMC,213105.000,A,3748.7989,N,12217.8600,W,0.29,50.14,261010,,,A*49
$GPVTG,50.14,T,,M,0.29,N,0.5,K,A*33
$GPGGA,213106.000,3748.7989,N,12217.8599,W,1,05,1.8,5.3,M,-25.1,M,,0000*65
$GPGSA,A,3,02,25,12,05,30,,,,,,,,3.8,1.8,3.4*37
$GPRMC,213106.000,A,3748.7989,N,12217.8599,W,0.14,87.32,261010,,,A*49
$GPVTG,87.32,T,,M,0.14,N,0.3,K,A*35
$GPGGA,213107.000,3748.7989,N,12217.8599,W,1,05,1.8,5.5,M,-25.1,M,,0000*62
$GPGSA,A,3,02,25,12,05,30,,,,,,,,3.8,1.8,3.4*37
$GPRMC,213107.000,A,3748.7989,N,12217.8599,W,0.09,356.45,261010,,,A*7B
$GPVTG,356.45,T,,M,0.09,N,0.2,K,A*07
$GPGGA,213108.000,3748.7990,N,12217.8599,W,1,05,1.8,5.6,M,-25.1,M,,0000*66
$GPGSA,A,3,02,25,12,05,30,,,,,,,,3.8,1.8,3.4*37
$GPGSV,3,1,12,12,74,165,27,25,62,302,36,02,51,047,34,05,40,134,30*7E
$GPGSV,3,2,12,30,38,311,34,10,35,074,32,29,34,293,33,04,14,049,22*7A
$GPGSV,3,3,12,31,09,320,24,09,07,196,,21,05,230,,48,44,197,31*70
$GPRMC,213108.000,A,3748.7990,N,12217.8599,W,0.07,38.67,261010,,,A*49
$GPVTG,38.67,T,,M,0.07,N,0.1,K,A*31
$GPGGA,213109.000,3748.7990,N,12217.8599,W,1,05,1.8,5.8,M,-25.1,M,,0000*69
$GPGSA,A,3,02,25,12,05,30,,,,,,,,3.8,1.8,3.4*37
$GPRMC,213109.000,A,3748.7990,N,12217.8599,W,0.42,22.34,261010,,,A*44
$GPVTG,22.34,T,,M,0.42,N,0.8,K,A*34
$GPGGA,213109.000,3748.7984,N,12217.8600,W,1,05,1.8,5.6,M,-25.1,M,,0000*61
$GPGSA,A,3,02,25,12,05,30,,,,,,,,3.8,1.8,3.4*37
$GPRMC,213109.000,A,3748.7984,N,12217.8600,W,0.48,61.76,261010,,,A*49
$GPVTG,61.76,T,,M,0.48,N,0.9,K,A*3E
$GPGGA,213110.000,3748.7984,N,12217.8599,W,1,05,1.8,4.9,M,-25.1,M,,0000*64
$GPGSA,A,3,02,25,12,05,30,,,,,,,,3.8,1.8,3.4*37
$GPRMC,213110.000,A,3748.7984,N,12217.8599,W,0.34,205.44,261010,,,A*78
$GPVTG,205.44,T,,M,0.34,N,0.6,K,A*0B
$GPGGA,213111.000,3748.7983,N,12217.8599,W,1,05,1.8,4.7,M,-25.1,M,,0000*6C
$GPGSA,A,3,02,25,12,05,30,,,,,,,,3.8,1.8,3.4*37
$GPRMC,213111.000,A,3748.7983,N,12217.8599,W,0.04,83.27,261010,,,A*44
$GPVTG,83.27,T,,M,0.04,N,0.1,K,A*36
$GPGGA,213112.000,3748.7986,N,12217.8592,W,1,05,1.8,5.2,M,-25.1,M,,0000*65
$GPGSA,A,3,02,25,12,05,30,,,,,,,,3.8,1.8,3.4*37
$GPGSV,3,1,12,12,74,165,30,25,62,302,28,02,51,047,24,05,40,134,29*7E
$GPGSV,3,2,12,30,38,311,27,10,35,074,31,29,34,293,23,04,14,049,23*7B
$GPGSV,3,3,12,31,09,320,20,09,07,196,,21,05,230,,48,44,197,30*75
$GPRMC,213112.000,A,3748.7986,N,12217.8592,W,1.10,42.73,261010,,,A*41
$GPVTG,42.73,T,,M,1.10,N,2.0,K,A*3D
$GPGGA,213113.000,3748.7987,N,12217.8588,W,1,05,1.8,4.8,M,-25.1,M,,0000*65
$GPGSA,A,3,02,25,12,05,30,,,,,,,,3.8,1.8,3.4*37
$GPRMC,213113.000,A,3748.7987,N,12217.8588,W,0.71,48.39,261010,,,A*48
$GPVTG,48.39,T,,M,0.71,N,1.3,K,A*3F
$GPGGA,213114.000,3748.7987,N,12217.8587,W,1,05,1.8,4.2,M,-25.1,M,,0000*67
$GPGSA,A,3,02,25,12,05,30,,,,,,,,3.8,1.8,3.4*37
$GPRMC,213114.000,A,3748.7987,N,12217.8587,W,0.21,37.64,261010,,,A*45
$GPVTG,37.64,T,,M,0.21,N,0.4,K,A*3C
$GPGGA,213115.000,3748.7992,N,12217.8582,W,1,05,1.8,3.5,M,-25.1,M,,0000*67
$GPGSA,A,3,02,25,12,05,30,,,,,,,,3.8,1.8,3.4*37
$GPRMC,213115.000,A,3748.7992,N,12217.8582,W,0.40,20.23,261010,,,A*47
$GPVTG,20.23,T,,M,0.40,N,0.7,K,A*3D
$GPGGA,213116.000,3748.7986,N,12217.8588,W,1,05,1.8,2.5,M,-25.1,M,,0000*6A
$GPGSA,A,3,02,25,12,05,30,,,,,,,,3.8,1.8,3.4*37
$GPRMC,213116.000,A,3748.7986,N,12217.8588,W,0.83,225.70,261010,,,A*75
$GPVTG,225.70,T,,M,0.83,N,1.5,K,A*00
$GPGGA,213117.000,3748.7982,N,12217.8596,W,1,05,1.8,0.8,M,-25.1,M,,0000*6F
$GPGSA,A,3,02,25,12,05,30,,,,,,,,3.9,1.8,3.4*36
$GPGSV,3,1,12,12,74,165,30,25,62,302,29,02,51,047,23,05,40,134,30*70
$GPGSV,3,2,12,30,38,311,28,10,35,074,23,29,34,293,27,04,14,049,22*72
$GPGSV,3,3,12,31,09,320,22,09,07,196,,21,05,230,,48,44,197,31*76
$GPVTG,220.49,T,,M,1.75,N,3.2,K,A*02
$GPGGA,213118.000,3748.7976,N,12217.8602,W,1,05,1.8,-0.3,M,-25.1,M,,0000*43
$GPGSA,A,3,02,25,12,05,30,,,,,,,,3.9,1.8,3.4*36
$GPRMC,213118.000,A,3748.7976,N,12217.8602,W,1.42,201.28,261010,,,A*72
$GPVTG,201.28,T,,M,1.42,N,2.6,K,A*07
$GPGGA,213119.000,3748.7978,N,12217.8602,W,1,05,1.8,-0.6,M,-25.1,M,,0000*49
$GPGSA,A,3,02,25,12,05,30,,,,,,,,3.9,1.8,3.4*36
$GPRMC,213119.000,A,3748.7978,N,12217.8602,W,0.19,163.79,261010,,,A*71
$GPVTG,163.79,T,,M,0.19,N,0.4,K,A*0B
$GPGGA,213120.000,3748.7968,N,12217.8617,W,1,05,1.8,-1.4,M,-25.1,M,,0000*45
$GPGSA,A,3,02,25,12,05,30,,,,,,,,3.9,1.8,3.4*36
$GPRMC,213120.000,A,3748.7968,N,12217.8617,W,1.28,220.04,261010,,,A*73
$GPVTG,220.04,T,,M,1.28,N,2.4,K,A*04
$GPGGA,213121.000,3748.7957,N,12217.8631,W,1,05,1.8,-1.8,M,-25.1,M,,0000*40
$GPGSA,A,3,02,25,12,05,30,,,,,,,,3.9,1.8,3.4*36
$GPRMC,213121.000,A,3748.7957,N,12217.8631,W,2.12,216.23,261010,,,A*70
$GPVTG,216.23,T,,M,2.12,N,3.9,K,A*02
$GPGGA,213122.000,3748.7957,N,12217.8633,W,1,05,1.8,-2.4,M,-25.1,M,,0000*4E
$GPGSA,A,3,02,25,12,05,30,,,,,,,,3.9,1.8,3.4*36
$GPGSV,3,1,11,12,74,165,28,25,62,302,30,02,51,047,22,05,40,134,24*76
$GPGSV,3,2,11,30,38,311,30,10,35,074,13,29,34,293,30,04,14,049,27*78
$GPGSV,3,3,11,31,09,320,22,09,07,196,,21,05,230,*44
$GPRMC,213122.000,A,3748.7957,N,12217.8633,W,2.68,212.36,261010,,,A*7C
$GPVTG,212.36,T,,M,2.68,N,5.0,K,A*00
$GPGGA,213123.000,3748.7949,N,12217.8638,W,1,05,1.8,-3.1,M,-25.1,M,,0000*4F
$GPGSA,A,3,02,25,12,05,30,,,,,,,,3.9,1.8,3.4*36
$GPRMC,213123.000,A,3748.7949,N,12217.8638,W,2.67,198.07,261010,,,A*75
$GPVTG,198.07,T,,M,2.67,N,4.9,K,A*04
$GPGGA,213124.000,3748.7944,N,12217.8635,W,1,05,1.8,-4.9,M,-25.1,M,,0000*47
$GPGSA,A,3,02,25,12,05,30,,,,,,,,3.9,1.8,3.4*36
$GPRMC,213124.000,A,3748.7944,N,12217.8635,W,2.21,176.51,261010,,,A*73
$GPVTG,176.51,T,,M,2.21,N,4.1,K,A*0D
$GPGGA,213125.000,3748.7940,N,12217.8634,W,1,04,3.7,-5.6,M,-25.1,M,,0000*41
$GPGSA,A,3,02,25,12,30,,,,,,,,,9.2,3.7,8.4*34
$GPRMC,213125.000,A,3748.7940,N,12217.8634,W,2.01,177.97,261010,,,A*7E
$GPVTG,177.97,T,,M,2.01,N,3.7,K,A*05
$GPGGA,213126.000,3748.7935,N,12217.8632,W,1,05,1.8,-6.7,M,-25.1,M,,0000*48
$GPGSA,A,3,02,25,12,05,30,,,,,,,,3.9,1.8,3.4*36
$GPRMC,213126.000,A,3748.7935,N,12217.8632,W,1.59,158.87,261010,,,A*7B
$GPVTG,158.87,T,,M,1.59,N,2.9,K,A*08
$GPGGA,213127.000,3748.7932,N,12217.8626,W,1,05,1.8,-7.5,M,-25.1,M,,0000*48
$GPGSA,A,3,02,25,12,05,30,,,,,,,,3.9,1.8,3.4*36
$GPGSV,3,1,11,12,74,165,27,25,62,302,29,02,51,047,21,05,40,134,19*7C
$GPGSV,3,2,11,30,38,311,29,10,35,074,18,29,34,293,29,04,14,049,34*71
$GPGSV,3,3,11,31,09,320,21,09,07,196,,21,05,230,*47
$GPRMC,213127.000,A,3748.7932,N,12217.8626,W,1.47,131.14,261010,,,A*72
$GPVTG,131.14,T,,M,1.47,N,2.7,K,A*0C
$GPGGA,213128.000,3748.7930,N,12217.8622,W,1,05,1.8,-7.5,M,-25.1,M,,0000*41
$GPGSA,A,3,02,25,12,05,30,,,,,,,,3.9,1.8,3.4*36
$GPRMC,213128.000,A,3748.7930,N,12217.8622,W,1.73,111.94,261010,,,A*76
$GPVTG,111.94,T,,M,1.73,N,3.2,K,A*05
$GPGGA,213129.000,3748.7926,N,12217.8622,W,1,05,1.8,-6.9,M,-25.1,M,,0000*4A
$GPGSA,A,3,02,25,12,05,30,,,,,,,,3.9,1.8,3.4*36
$GPRMC,213129.000,A,3748.7926,N,12217.8622,W,1.56,107.56,261010,,,A*7E
$GPVTG,107.56,T,,M,1.56,N,2.9,K,A*01
$GPGGA,213130.000,3748.7928,N,12217.8621,W,1,05,1.8,-6.2,M,-25.1,M,,0000*44
$GPGSA,A,3,02,25,12,05,30,,,,,,,,3.9,1.8,3.4*36
$GPRMC,213130.000,A,3748.7928,N,12217.8621,W,1.28,72.48,261010,,,A*4E
$GPVTG,72.48,T,,M,1.28,N,2.4,K,A*39
$GPGGA,213131.000,3748.7924,N,12217.8625,W,1,05,1.8,-4.3,M,-25.1,M,,0000*4E
$GPGSA,A,3,02,25,12,05,30,,,,,,,,3.9,1.8,3.4*36
$GPRMC,213131.000,A,3748.7924,N,12217.8625,W,0.99,86.63,261010,,,A*4E
$GPVTG,86.63,T,,M,0.99,N,1.8,K,A*3F
$GPGGA,213132.000,3748.7921,N,12217.8625,W,1,05,1.8,-3.1,M,-25.1,M,,0000*4D
$GPGSA,A,3,02,25,12,05,30,,,,,,,,3.9,1.8,3.4*36
$GPGSV,3,1,11,12,74,165,23,25,62,302,29,02,51,047,26,05,40,134,20*75
$GPGSV,3,2,11,30,38,311,25,10,35,074,25,29,34,293,25,04,14,049,19*70
$GPGSV,3,3,11,31,09,320,21,09,07,196,,21,05,230,*47
$GPRMC,213132.000,A,3748.7921,N,12217.8625,W,1.05,100.75,261010,,,A*74
$GPGGA,213133.000,3748.7916,N,12217.8628,W,1,03,5.5,-3.1,M,-25.1,M,,0000*4A
$GPGSA,A,2,02,25,30,,,,,,,,,,5.6,5.5,1.0*37
$GPRMC,213133.000,A,3748.7916,N,12217.8628,W,0.95,141.10,261010,,,A*72
$GPVTG,141.10,T,,M,0.95,N,1.8,K,N*02
$GPGGA,213134.000,3748.7908,N,12217.8634,W,1,03,5.5,-3.3,M,-25.1,M,,0000*4D
$GPGSA,A,2,02,25,30,,,,,,,,,,5.6,5.5,1.0*37
$GPRMC,213134.000,A,3748.7908,N,12217.8634,W,0.90,158.71,261010,,,A*7D
$GPVTG,158.71,T,,M,0.90,N,1.7,K,N*07
$GPGGA,213135.000,3748.7901,N,12217.8642,W,1,03,5.5,-3.7,M,-25.1,M,,0000*40
$GPGSA,A,2,02,25,30,,,,,,,,,,5.6,5.5,1.0*37
$GPRMC,213135.000,A,3748.7901,N,12217.8642,W,1.26,198.19,261010,,,A*7A
$GPVTG,198.19,T,,M,1.26,N,2.3,K,N*0E
$GPGGA,213136.000,3748.7898,N,12217.8645,W,1,03,5.5,-3.8,M,-25.1,M,,0000*4A
$GPGSA,A,2,02,25,30,,,,,,,,,,5.6,5.5,1.0*37
$GPRMC,213136.000,A,3748.7898,N,12217.8645,W,0.79,177.66,261010,,,A*7D
$GPVTG,177.66,T,,M,0.79,N,1.5,K,N*09
$GPGGA,213137.000,3748.7882,N,12217.8662,W,1,03,5.5,-3.6,M,-25.1,M,,0000*4B
$GPGSA,A,2,02,25,30,,,,,,,,,,5.6,5.5,1.0*37
$GPGSV,3,1,11,12,74,165,13,25,62,302,25,02,51,047,24,05,40,134,*7A
$GPGSV,3,2,11,30,38,311,27,10,35,074,18,29,34,293,12,04,14,049,15*74
$GPGSV,3,3,11,31,09,320,16,09,07,196,,21,05,230,*43
$GPRMC,213137.000,A,3748.7882,N,12217.8662,W,2.25,212.13,261010,,,A*7B
$GPVTG,212.13,T,,M,2.25,N,4.2,K,N*02
$GPGGA,213138.000,3748.7877,N,12217.8667,W,6,00,50.0,-3.6,M,-25.1,M,,0000*7A
$GPGSA,A,2,,,,,,,,,,,,,50.0,50.0,50.0*06
$GPRMC,213138.000,A,3748.7877,N,12217.8667,W,2.25,212.13,261010,,,E*7F
$GPVTG,212.13,T,,M,2.25,N,4.2,K,N*02
$GPGGA,213139.000,3748.7871,N,12217.8671,W,6,00,50.0,-3.6,M,-25.1,M,,0000*7A
$GPGSA,A,2,,,,,,,,,,,,,50.0,50.0,50.0*06
$GPRMC,213139.000,A,3748.7871,N,12217.8671,W,2.25,212.13,261010,,,E*7F
$GPVTG,212.13,T,,M,2.25,N,4.2,K,N*02
$GPGGA,213140.000,3748.7866,N,12217.8675,W,6,00,50.0,-3.6,M,-25.1,M,,0000*76
$GPGSA,A,2,,,,,,,,,,,,,50.0,50.0,50.0*06
$GPRMC,213140.000,A,3748.7866,N,12217.8675,W,2.25,212.13,261010,,,E*73
$GPVTG,212.13,T,,M,2.25,N,4.2,K,N*02
$GPGGA,213141.000,3748.7861,N,12217.8679,W,6,00,50.0,-3.6,M,-25.1,M,,0000*7C
$GPGSA,A,2,,,,,,,,,,,,,50.0,50.0,50.0*06
$GPRMC,213141.000,A,3748.7861,N,12217.8679,W,2.25,212.13,261010,,,E*79
$GPVTG,212.13,T,,M,2.25,N,4.2,K,N*02
$GPGGA,213142.000,3748.7856,N,12217.8683,W,6,00,50.0,-3.6,M,-25.1,M,,0000*7E
$GPGSA,A,2,,,,,,,,,,,,,50.0,50.0,50.0*06
$GPGSV,3,1,11,12,74,165,14,25,62,302,25,02,51,047,19,05,40,134,*73
$GPGSV,3,2,11,30,38,311,13,10,35,074,16,29,34,293,,04,14,049,07*7D
$GPGSV,3,3,11,31,09,320,11,09,07,196,,21,05,230,*44
$GPVTG,212.13,T,,M,2.25,N,4.2,K,N*02
$GPGGA,213143.000,3748.7850,N,12217.8688,W,6,00,50.0,-3.6,M,-25.1,M,,0000*72
$GPGSA,A,2,,,,,,,,,,,,,50.0,50.0,50.0*06
$GPRMC,213143.000,A,3748.7850,N,12217.8688,W,2.25,212.13,261010,,,E*77
$GPVTG,212.13,T,,M,2.25,N,4.2,K,N*02
$GPGGA,213144.000,3748.7798,N,12217.8663,W,1,03,5.5,-2.6,M,-25.1,M,,0000*4B
$GPGSA,A,2,02,25,30,,,,,,,,,,5.5,5.5,1.0*34
$GPRMC,213144.000,A,3748.7798,N,12217.8663,W,5.61,177.35,261010,,,A*79
$GPVTG,177.35,T,,M,5.61,N,10.4,K,N*32
$GPGGA,213145.000,3748.7782,N,12217.8662,W,6,00,50.0,-2.6,M,-25.1,M,,0000*71
$GPGSA,A,2,,,,,,,,,,,,,50.0,50.0,50.0*06
$GPRMC,213145.000,A,3748.7782,N,12217.8662,W,5.61,177.35,261010,,,E*76
$GPVTG,177.35,T,,M,5.61,N,10.4,K,N*32
$GPGGA,213146.000,3748.7829,N,12217.8654,W,1,04,3.7,-1.1,M,-25.1,M,,0000*4F
$GPGSA,A,3,02,25,12,30,,,,,,,,,9.2,3.7,8.4*34
$GPRMC,213146.000,A,3748.7829,N,12217.8654,W,3.73,162.19,261010,,,A*75
$GPVTG,162.19,T,,M,3.73,N,6.9,K,N*07
$GPGGA,213147.000,3748.7900,N,12217.8652,W,1,04,3.7,0.7,M,-25.1,M,,0000*68
$GPGSA,A,3,02,25,12,30,,,,,,,,,9.2,3.7,8.4*34
$GPGSV,3,1,11,12,74,165,26,25,62,302,28,02,51,047,21,05,40,134,*74
$GPGSV,3,2,11,30,38,311,20,10,35,074,22,29,34,293,,04,14,049,*7D
$GPGSV,3,3,11,31,09,320,,09,07,196,,21,05,230,*44
$GPRMC,213147.000,A,3748.7900,N,12217.8652,W,1.66,10.14,261010,,,A*47
$GPVTG,10.14,T,,M,1.66,N,3.1,K,A*3A
$GPGGA,213148.000,3748.7858,N,12217.8674,W,1,05,1.8,-0.3,M,-25.1,M,,0000*4A
$GPGSA,A,3,02,25,12,30,05,,,,,,,,3.9,1.8,3.4*36
$GPRMC,213148.000,A,3748.7858,N,12217.8674,W,2.60,212.40,261010,,,A*74
$GPVTG,212.40,T,,M,2.60,N,4.8,K,A*00
$GPGGA,213149.000,3748.7832,N,12217.8692,W,1,05,1.8,0.2,M,-25.1,M,,0000*63
$GPGSA,A,3,02,25,12,30,05,,,,,,,,3.9,1.8,3.4*36
$GPRMC,213149.000,A,3748.7832,N,12217.8692,W,3.67,230.68,261010,,,A*7D
$GPVTG,230.68,T,,M,3.67,N,6.8,K,A*0E
$GPGGA,213150.000,3748.7835,N,12217.8715,W,1,05,1.8,0.1,M,-25.1,M,,0000*61
$GPGSA,A,3,02,25,12,30,05,,,,,,,,3.9,1.8,3.4*36
$GPRMC,213150.000,A,3748.7835,N,12217.8715,W,2.79,235.45,261010,,,A*78
$GPVTG,235.45,T,,M,2.79,N,5.2,K,A*03
$GPGGA,213151.000,3748.7827,N,12217.8729,W,1,05,1.8,1.4,M,-25.1,M,,0000*68
$GPGSA,A,3,02,25,12,30,05,,,,,,,,3.9,1.8,3.4*36
$GPRMC,213151.000,A,3748.7827,N,12217.8729,W,2.50,215.70,261010,,,A*7A
$GPVTG,215.70,T,,M,2.50,N,4.6,K,A*09
$GPGGA,213152.000,3748.7833,N,12217.8726,W,1,05,1.8,0.9,M,-25.1,M,,0000*6D
$GPGSA,A,3,02,25,12,30,05,,,,,,,,3.9,1.8,3.4*36
$GPGSV,3,1,11,12,74,165,25,25,62,302,28,02,51,047,22,05,40,134,21*77
$GPGSV,3,2,11,30,38,311,23,10,35,074,27,29,34,293,,04,14,049,19*73
$GPGSV,3,3,11,31,09,320,,09,07,196,,21,05,230,*44
$GPRMC,213152.000,A,3748.7833,N,12217.8726,W,0.79,177.99,261010,,,A*7A
$GPVTG,177.99,T,,M,0.79,N,1.5,K,A*06
$GPGGA,213153.000,3748.7827,N,12217.8729,W,1,05,1.8,-0.0,M,-25.1,M,,0000*42
$GPGSA,A,3,02,25,12,30,05,,,,,,,,3.9,1.8,3.4*36
$GPRMC,213153.000,A,3748.7827,N,12217.8729,W,1.53,209.15,261010,,,A*76
$GPVTG,209.15,T,,M,1.53,N,2.8,K,A*0F
$GPGGA,213154.000,3748.7826,N,12217.8723,W,1,05,1.8,2.7,M,-25.1,M,,0000*66
$GPGSA,A,3,02,25,12,30,05,,,,,,,,3.9,1.8,3.4*36
$GPRMC,213154.000,A,3748.7826,N,12217.8723,W,0.54,161.21,261010,,,A*76
$GPVTG,161.21,T,,M,0.54,N,1.0,K,A*08
$GPGGA,213155.000,3748.7844,N,12217.8709,W,1,05,1.8,6.5,M,-25.1,M,,0000*6D
$GPGSA,A,3,02,25,12,30,05,,,,,,,,3.9,1.8,3.4*36
$GPRMC,213155.000,A,3748.7844,N,12217.8709,W,0.79,4.35,261010,,,A*73
$GPVTG,4.35,T,,M,0.79,N,1.5,K,A*05
$GPGGA,213156.000,3748.7856,N,12217.8702,W,1,05,1.8,7.2,M,-25.1,M,,0000*60
$GPGSA,A,3,02,25,12,30,05,,,,,,,,3.9,1.8,3.4*36
$GPRMC,213156.000,A,3748.7856,N,12217.8702,W,0.44,27.65,261010,,,A*42
$GPVTG,27.65,T,,M,0.44,N,0.8,K,A*33
$GPGGA,213157.000,3748.7863,N,12217.8696,W,1,06,1.6,7.8,M,-25.1,M,,0000*6C
$GPGSA,A,3,10,02,25,12,30,05,,,,,,,3.6,1.6,3.2*30
$GPGSV,3,1,11,12,74,165,26,25,62,302,24,02,51,047,30,05,40,134,27*7D
$GPGSV,3,2,11,30,38,311,19,10,35,074,19,29,34,293,,04,14,049,20*7D
$GPGSV,3,3,11,31,09,320,,09,07,196,,21,05,230,*44
$GPRMC,213157.000,A,3748.7863,N,12217.8696,W,0.29,137.28,261010,,,A*7B
$GPGGA,213158.000,3748.7865,N,12217.8690,W,1,06,1.6,9.1,M,-25.1,M,,0000*64
$GPGSA,A,3,10,02,25,12,30,05,,,,,,,3.6,1.6,3.2*30
$GPRMC,213158.000,A,3748.7865,N,12217.8690,W,0.69,150.91,261010,,,A*73
$GPVTG,150.91,T,,M,0.69,N,1.3,K,A*0C
$GPGGA,213159.000,3748.7873,N,12217.8681,W,1,06,1.6,9.8,M,-25.1,M,,0000*6B
$GPGSA,A,3,10,02,25,12,30,05,,,,,,,3.6,1.6,3.2*30
$GPRMC,213159.000,A,3748.7873,N,12217.8681,W,0.66,73.55,261010,,,A*42
$GPVTG,73.55,T,,M,0.66,N,1.2,K,A*3A
$GPGGA,213200.000,3748.7886,N,12217.8677,W,1,06,1.6,10.8,M,-25.1,M,,0000*5F
$GPGSA,A,3,10,02,25,12,30,05,,,,,,,3.6,1.6,3.2*30
$GPRMC,213200.000,A,3748.7886,N,12217.8677,W,0.41,24.17,261010,,,A*4F
$GPVTG,24.17,T,,M,0.41,N,0.8,K,A*30
$GPGGA,213201.000,3748.7895,N,12217.8668,W,1,06,1.6,11.4,M,-25.1,M,,0000*5F
$GPGSA,A,3,10,02,25,12,30,05,,,,,,,3.6,1.6,3.2*30
$GPRMC,213201.000,A,3748.7895,N,12217.8668,W,0.67,57.90,261010,,,A*4D
$GPVTG,57.90,T,,M,0.67,N,1.2,K,A*34
$GPGGA,213202.000,3748.7896,N,12217.8665,W,1,06,1.6,11.3,M,-25.1,M,,0000*55
$GPGSA,A,3,10,02,25,12,30,05,,,,,,,3.6,1.6,3.2*30
$GPGSV,3,1,11,12,73,165,26,25,62,302,28,02,50,047,28,05,40,133,26*78
$GPGSV,3,2,11,30,39,311,18,10,35,073,28,29,34,293,21,04,14,049,*79
$GPGSV,3,3,11,31,09,320,,09,07,196,,21,05,230,*44
$GPRMC,213202.000,A,3748.7896,N,12217.8665,W,0.55,89.82,261010,,,A*41
$GPVTG,89.82,T,,M,0.55,N,1.0,K,A*37
$GPGGA,213203.000,3748.7897,N,12217.8661,W,1,06,1.6,11.4,M,-25.1,M,,0000*56
$GPGSA,A,3,10,02,25,12,30,05,,,,,,,3.6,1.6,3.2*30
$GPRMC,213203.000,A,3748.7897,N,12217.8661,W,0.72,94.98,261010,,,A*47
$GPVTG,94.98,T,,M,0.72,N,1.3,K,A*36
$GPGGA,213204.000,3748.7897,N,12217.8657,W,1,06,1.6,11.8,M,-25.1,M,,0000*58
$GPGSA,A,3,10,02,25,12,30,05,,,,,,,3.6,1.6,3.2*30
$GPRMC,213204.000,A,3748.7897,N,12217.8657,W,1.01,110.64,261010,,,A*7E
$GPVTG,110.64,T,,M,1.01,N,1.9,K,A*07
$GPGGA,213205.000,3748.7900,N,12217.8658,W,1,06,1.6,13.4,M,-25.1,M,,0000*57
$GPGSA,A,3,10,02,25,12,30,05,,,,,,,3.6,1.6,3.3*31
$GPRMC,213205.000,A,3748.7900,N,12217.8658,W,0.70,75.32,261010,,,A*49
$GPVTG,75.32,T,,M,0.70,N,1.3,K,A*3B
$GPGGA,213206.000,3748.7898,N,12217.8655,W,1,06,1.6,15.6,M,-25.1,M,,0000*5D
$GPGSA,A,3,10,02,25,12,30,05,,,,,,,3.6,1.6,3.3*31
$GPRMC,213206.000,A,3748.7898,N,12217.8655,W,0.66,116.00,261010,,,A*75
$GPVTG,116.00,T,,M,0.66,N,1.2,K,A*08
$GPGGA,213207.000,3748.7896,N,12217.8656,W,1,06,1.6,14.4,M,-25.1,M,,0000*52
$GPGSA,A,3,10,02,25,12,30,05,,,,,,,3.6,1.6,3.3*31
$GPGSV,3,1,12,12,73,165,24,25,62,302,20,02,50,047,24,05,40,133,27*7C
$GPGSV,3,2,12,30,39,311,21,10,35,073,25,29,34,293,21,04,14,049,21*7E
$GPGSV,3,3,12,31,09,320,17,09,07,196,,21,05,230,,48,44,197,28*78
$GPRMC,213207.000,A,3748.7896,N,12217.8656,W,0.78,155.52,261010,,,A*76
$GPVTG,155.52,T,,M,0.78,N,1.4,K,A*01
$GPGGA,213208.000,3748.7899,N,12217.8648,W,1,06,1.6,13.8,M,-25.1,M,,0000*56
$GPGSA,A,3,10,02,25,12,30,05,,,,,,,3.6,1.6,3.3*31
$GPRMC,213208.000,A,3748.7899,N,12217.8648,W,0.44,97.07,261010,,,A*49
$GPVTG,97.07,T,,M,0.44,N,0.8,K,A*3C
$GPGGA,213209.000,3748.7896,N,12217.8654,W,1,06,1.6,9.4,M,-25.1,M,,0000*62
$GPGSA,A,3,10,02,25,12,30,05,,,,,,,3.6,1.6,3.3*31
$GPRMC,213209.000,A,3748.7896,N,12217.8654,W,0.52,72.72,261010,,,A*44
$GPVTG,72.72,T,,M,0.52,N,1.0,K,A*3B
$GPGGA,213210.000,3748.7895,N,12217.8660,W,1,06,1.6,7.0,M,-25.1,M,,0000*64
$GPGSA,A,3,10,02,25,12,30,05,,,,,,,3.6,1.6,3.3*31
$GPRMC,213210.000,A,3748.7895,N,12217.8660,W,0.84,78.77,261010,,,A*4C
$GPVTG,78.77,T,,M,0.84,N,1.5,K,A*3A
$GPGGA,213211.000,3748.7892,N,12217.8655,W,1,06,1.6,5.1,M,-25.1,M,,0000*67
$GPGSA,A,3,10,02,25,12,30,05,,,,,,,3.6,1.6,3.3*31
$GPRMC,213211.000,A,3748.7892,N,12217.8655,W,0.89,124.61,261010,,,A*7E
$GPVTG,124.61,T,,M,0.89,N,1.6,K,A*0B
$GPGGA,213212.000,3748.7885,N,12217.8658,W,1,05,1.8,3.3,M,-25.1,M,,0000*66
$GPGSA,A,3,02,25,12,30,05,,,,,,,,3.9,1.8,3.5*37
$GPGSV,3,1,11,12,73,165,20,25,62,302,22,02,50,047,21,05,40,133,21*7A
$GPGSV,3,2,11,30,39,311,20,10,35,073,14,29,34,293,18,04,14,049,17*71
$GPGSV,3,3,11,31,09,320,17,09,07,196,,21,05,230,*42
$GPRMC,213212.000,A,3748.7885,N,12217.8658,W,1.31,209.63,261010,,,A*7A
$GPGGA,213213.000,3748.7882,N,12217.8665,W,1,05,1.8,2.4,M,-25.1,M,,0000*68
$GPGSA,A,3,02,25,12,30,05,,,,,,,,3.9,1.8,3.5*37
$GPRMC,213213.000,A,3748.7882,N,12217.8665,W,2.88,232.02,261010,,,A*7C
$GPVTG,232.02,T,,M,2.88,N,5.3,K,A*08
$GPGGA,213214.000,3748.7872,N,12217.8679,W,1,04,3.6,1.7,M,-25.1,M,,0000*60
$GPGSA,A,3,02,25,12,30,,,,,,,,,9.2,3.6,8.5*34
$GPRMC,213214.000,A,3748.7872,N,12217.8679,W,4.49,227.18,261010,,,A*7D
$GPVTG,227.18,T,,M,4.49,N,8.3,K,A*01
$GPGGA,213215.000,3748.7864,N,12217.8690,W,1,03,50.0,1.1,M,-25.1,M,,0000*50
$GPGSA,A,2,25,12,30,,,,,,,,,,50.0,50.0,1.0*35
$GPRMC,213215.000,A,3748.7864,N,12217.8690,W,4.30,223.53,261010,,,A*79
$GPVTG,223.53,T,,M,4.30,N,8.0,K,A*07
$GPGGA,213216.000,3748.7854,N,12217.8701,W,1,03,12.3,1.2,M,-25.1,M,,0000*5F
$GPGSA,A,2,25,12,05,,,,,,,,,,12.4,12.3,1.0*34
$GPRMC,213216.000,A,3748.7854,N,12217.8701,W,4.69,218.09,261010,,,A*7B
$GPVTG,218.09,T,,M,4.69,N,8.7,K,N*04
$GPGGA,213217.000,3748.7849,N,12217.8698,W,1,03,12.3,-1.5,M,-25.1,M,,0000*79
$GPGSA,A,2,25,12,05,,,,,,,,,,12.3,12.3,1.0*33
$GPGSV,3,1,11,12,73,165,17,25,62,302,23,02,50,047,13,05,40,133,19*75
$GPGSV,3,2,11,30,39,311,11,10,35,073,,29,34,293,17,04,14,049,16*78
$GPGSV,3,3,11,31,09,320,13,09,07,196,,21,05,230,*46
$GPRMC,213217.000,A,3748.7849,N,12217.8698,W,3.13,207.38,261010,,,A*71
$GPVTG,207.38,T,,M,3.13,N,5.8,K,N*00
$GPGGA,213218.000,3748.7878,N,12217.8679,W,1,05,1.8,-2.2,M,-25.1,M,,0000*40
$GPGSA,A,3,02,25,12,30,05,,,,,,,,3.9,1.8,3.5*37
$GPRMC,213218.000,A,3748.7878,N,12217.8679,W,1.69,12.00,261010,,,A*41
$GPVTG,12.00,T,,M,1.69,N,3.1,K,A*32
$GPGGA,213219.000,3748.7890,N,12217.8683,W,1,06,1.6,-1.5,M,-25.1,M,,0000*4B
$GPGSA,A,3,10,02,25,12,30,05,,,,,,,3.6,1.6,3.3*31
$GPRMC,213219.000,A,3748.7890,N,12217.8683,W,2.72,357.46,261010,,,A*7A
$GPVTG,357.46,T,,M,2.72,N,5.0,K,A*0C
$GPGGA,213220.000,3748.7910,N,12217.8673,W,1,06,1.6,-0.4,M,-25.1,M,,0000*47
$GPGSA,A,3,10,02,25,12,30,05,,,,,,,3.6,1.6,3.3*31
$GPRMC,213220.000,A,3748.7910,N,12217.8673,W,2.56,353.95,261010,,,A*7A
$GPVTG,353.95,T,,M,2.56,N,4.7,K,A*06
$GPGGA,213221.000,3748.7916,N,12217.8667,W,1,06,1.6,0.8,M,-25.1,M,,0000*64
$GPGSA,A,3,10,02,25,12,30,05,,,,,,,3.6,1.6,3.3*31
$GPRMC,213221.000,A,3748.7916,N,12217.8667,W,1.88,322.73,261010,,,A*76
$GPVTG,322.73,T,,M,1.88,N,3.5,K,A*0D
$GPGGA,213222.000,3748.7911,N,12217.8669,W,1,05,2.2,0.8,M,-25.1,M,,0000*6A
$GPGSA,A,3,10,25,12,30,05,,,,,,,,4.4,2.2,3.8*3A
$GPGSV,3,1,11,12,73,165,26,25,62,302,22,02,50,047,19,05,40,133,20*76
$GPGSV,3,2,11,30,39,311,19,10,35,073,26,29,34,293,17,04,14,049,16*74
$GPGSV,3,3,11,31,09,320,13,09,07,196,,21,05,230,*46
$GPRMC,213222.000,A,3748.7911,N,12217.8669,W,1.27,325.90,261010,,,A*73
$GPVTG,325.90,T,,M,1.27,N,2.4,K,A*02
$GPGGA,213223.000,3748.7907,N,12217.8661,W,1,05,2.2,1.3,M,-25.1,M,,0000*6E
$GPGSA,A,3,10,25,12,30,05,,,,,,,,4.4,2.2,3.8*3A
$GPRMC,213223.000,A,3748.7907,N,12217.8661,W,0.31,35.53,261010,,,A*46
$GPVTG,35.53,T,,M,0.31,N,0.6,K,A*39
$GPGGA,213224.000,3748.7903,N,12217.8667,W,1,06,1.6,1.2,M,-25.1,M,,0000*6E
$GPGSA,A,3,10,02,25,12,30,05,,,,,,,3.6,1.6,3.3*31
$GPRMC,213224.000,A,3748.7903,N,12217.8667,W,0.39,34.24,261010,,,A*4A
$GPVTG,34.24,T,,M,0.39,N,0.7,K,A*31
$GPGGA,213225.000,3748.7898,N,12217.8669,W,1,05,1.7,-0.2,M,-25.1,M,,0000*4C
$GPGSA,A,3,10,02,25,30,05,,,,,,,,4.6,1.7,4.3*33
$GPRMC,213225.000,A,3748.7898,N,12217.8669,W,0.63,90.73,261010,,,A*45
$GPVTG,90.73,T,,M,0.63,N,1.2,K,A*36
$GPGGA,213226.000,3748.7894,N,12217.8673,W,1,05,1.7,-0.5,M,-25.1,M,,0000*4F
$GPGSA,A,3,10,02,25,30,05,,,,,,,,4.6,1.7,4.3*33
$GPRMC,213226.000,A,3748.7894,N,12217.8673,W,0.60,211.56,261010,,,A*7E
$GPVTG,211.56,T,,M,0.60,N,1.1,K,A*0A
$GPGGA,213227.000,3748.7899,N,12217.8680,W,1,06,1.6,-2.7,M,-25.1,M,,0000*4D
$GPGSA,A,3,10,02,25,12,30,05,,,,,,,3.6,1.6,3.3*31
$GPGSV,3,1,11,12,73,165,18,25,62,302,27,02,50,047,20,05,40,133,23*77
$GPGSV,3,2,11,30,39,311,16,10,35,073,24,29,34,293,23,04,14,049,24*7F
$GPGSV,3,3,11,31,09,320,,09,07,196,,21,05,230,*44
$GPRMC,213227.000,A,3748.7899,N,12217.8680,W,1.28,330.41,261010,,,A*77
$GPVTG,330.41,T,,M,1.28,N,2.4,K,A*05
$GPGGA,213228.000,3748.7910,N,12217.8679,W,1,06,1.6,-2.0,M,-25.1,M,,0000*43
$GPGSA,A,3,10,02,25,12,30,05,,,,,,,3.6,1.6,3.3*31
$GPRMC,213228.000,A,3748.7910,N,12217.8679,W,1.78,349.98,261010,,,A*71
$GPVTG,349.98,T,,M,1.78,N,3.3,K,A*0C
$GPGGA,213229.000,3748.7915,N,12217.8679,W,1,06,1.6,1.2,M,-25.1,M,,0000*6B
$GPGSA,A,3,10,02,25,12,30,05,,,,,,,3.6,1.6,3.3*31
$GPRMC,213229.000,A,3748.7915,N,12217.8679,W,0.67,16.73,261010,,,A*46
$GPVTG,16.73,T,,M,0.67,N,1.2,K,A*3C
$GPGGA,213230.000,3748.7915,N,12217.8680,W,1,06,1.6,4.5,M,-25.1,M,,0000*67
$GPGSA,A,3,10,02,25,12,30,05,,,,,,,3.7,1.6,3.3*30
$GPRMC,213230.000,A,3748.7915,N,12217.8680,W,0.17,3.25,261010,,,A*78
$GPVTG,3.25,T,,M,0.17,N,0.3,K,A*0C
$GPGGA,213231.000,3748.7920,N,12217.8678,W,1,06,1.6,6.0,M,-25.1,M,,0000*60
$GPGSA,A,3,10,02,25,12,30,05,,,,,,,3.7,1.6,3.3*30
$GPRMC,213231.000,A,3748.7920,N,12217.8678,W,0.48,17.32,261010,,,A*41
$GPVTG,17.32,T,,M,0.48,N,0.9,K,A*3F
$GPGGA,213232.000,3748.7917,N,12217.8679,W,1,06,1.6,5.2,M,-25.1,M,,0000*67
$GPGSA,A,3,10,02,25,12,30,05,,,,,,,3.7,1.6,3.3*30
$GPGSV,3,1,11,12,73,165,28,25,62,302,32,02,50,047,27,05,40,133,22*76
$GPGSV,3,2,11,30,39,311,18,10,35,073,27,29,34,293,25,04,14,049,19*7A
$GPGSV,3,3,11,31,09,320,,09,07,196,,21,05,230,*44
$GPRMC,213232.000,A,3748.7917,N,12217.8679,W,0.56,331.18,261010,,,A*77
$GPVTG,331.18,T,,M,0.56,N,1.0,K,A*07
$GPGGA,213233.000,3748.7920,N,12217.8678,W,1,03,4.1,4.0,M,-25.1,M,,0000*67
$GPGSA,A,2,10,02,12,,,,,,,,,,4.2,4.1,1.0*31
$GPRMC,213233.000,A,3748.7920,N,12217.8678,W,0.90,5.02,261010,,,A*76
$GPVTG,5.02,T,,M,0.90,N,1.7,K,N*0A
$GPGGA,213234.000,3748.7920,N,12217.8673,W,1,04,3.4,4.3,M,-25.1,M,,0000*6D
$GPGSA,A,3,10,02,25,12,,,,,,,,,8.5,3.4,7.8*30
$GPRMC,213234.000,A,3748.7920,N,12217.8673,W,1.73,45.06,261010,,,A*46
$GPVTG,45.06,T,,M,1.73,N,3.2,K,A*3E
$GPGGA,213235.000,3748.7907,N,12217.8668,W,1,06,1.6,3.5,M,-25.1,M,,0000*60
$GPGSA,A,3,10,02,25,12,30,05,,,,,,,3.7,1.6,3.3*30
$GPRMC,213235.000,A,3748.7907,N,12217.8668,W,0.66,102.17,261010,,,A*7F
$GPVTG,102.17,T,,M,0.66,N,1.2,K,A*0B
$GPGGA,213236.000,3748.7904,N,12217.8656,W,1,06,1.6,4.9,M,-25.1,M,,0000*66
$GPGSA,A,3,10,02,25,12,30,05,,,,,,,3.7,1.6,3.3*30
$GPRMC,213236.000,A,3748.7904,N,12217.8656,W,0.17,91.20,261010,,,A*4B
$GPVTG,91.20,T,,M,0.17,N,0.3,K,A*32
$GPGGA,213237.000,3748.7898,N,12217.8649,W,1,05,1.7,5.9,M,-25.1,M,,0000*6E
$GPGSA,A,3,10,02,25,30,05,,,,,,,,4.6,1.7,4.3*33
$GPGSV,3,1,11,12,73,165,13,25,62,302,33,02,50,047,31,05,40,133,24*7E
$GPGSV,3,2,11,30,39,311,14,10,35,073,27,29,34,293,23,04,14,049,20*7A
$GPGSV,3,3,11,31,09,320,,09,07,196,,21,05,230,*44
$GPRMC,213237.000,A,3748.7898,N,12217.8649,W,0.63,343.07,261010,,,A*7A
$GPVTG,343.07,T,,M,0.63,N,1.2,K,A*08
$GPGGA,213238.000,3748.7903,N,12217.8642,W,1,05,1.7,8.9,M,-25.1,M,,0000*64
$GPGSA,A,3,10,02,25,30,05,,,,,,,,4.6,1.7,4.3*33
$GPRMC,213238.000,A,3748.7903,N,12217.8642,W,0.96,297.30,261010,,,A*7B
$GPVTG,297.30,T,,M,0.96,N,1.8,K,A*04
$GPGGA,213239.000,3748.7917,N,12217.8638,W,1,06,1.6,9.7,M,-25.1,M,,0000*60
$GPGSA,A,3,10,02,25,12,30,05,,,,,,,3.7,1.6,3.3*30
$GPRMC,213239.000,A,3748.7917,N,12217.8638,W,1.13,326.51,261010,,,A*72
$GPVTG,326.51,T,,M,1.13,N,2.1,K,A*0E
$GPGGA,213240.000,3748.7928,N,12217.8639,W,1,06,1.6,12.2,M,-25.1,M,,0000*5C
$GPGSA,A,3,10,02,25,12,30,05,,,,,,,3.7,1.6,3.3*30
$GPRMC,213240.000,A,3748.7928,N,12217.8639,W,0.68,311.49,261010,,,A*71
$GPVTG,311.49,T,,M,0.68,N,1.3,K,A*0F
$GPGGA,213241.000,3748.7926,N,12217.8641,W,1,06,1.6,12.6,M,-25.1,M,,0000*58
$GPGSA,A,3,10,02,25,12,30,05,,,,,,,3.7,1.6,3.3*30
$GPRMC,213241.000,A,3748.7926,N,12217.8641,W,0.58,332.64,261010,,,A*7C
$GPVTG,332.64,T,,M,0.58,N,1.1,K,A*00
$GPGGA,213242.000,3748.7922,N,12217.8636,W,1,06,1.6,15.1,M,-25.1,M,,0000*5F
$GPGSA,A,3,10,02,25,12,30,05,,,,,,,3.7,1.6,3.3*30
$GPGSV,3,1,11,12,73,165,29,25,62,302,23,02,50,047,33,05,40,133,30*71
$GPGSV,3,2,11,30,39,311,23,10,35,073,22,29,34,293,26,04,14,049,*7C
$GPGSV,3,3,11,31,09,320,,09,07,196,,21,05,230,*44
$GPRMC,213242.000,A,3748.7922,N,12217.8636,W,0.10,91.35,261010,,,A*49
$GPVTG,91.35,T,,M,0.10,N,0.2,K,A*30
$GPGGA,213243.000,3748.7915,N,12217.8633,W,1,06,1.6,17.3,M,-25.1,M,,0000*5F
$GPGSA,A,3,10,02,25,12,30,05,,,,,,,3.7,1.6,3.3*30
$GPRMC,213243.000,A,3748.7915,N,12217.8633,W,0.22,166.74,261010,,,A*74
$GPVTG,166.74,T,,M,0.22,N,0.4,K,A*0B
$GPGGA,213244.000,3748.7909,N,12217.8637,W,1,06,1.6,17.8,M,-25.1,M,,0000*5A
$GPGSA,A,3,10,02,25,12,30,05,,,,,,,3.7,1.6,3.3*30
$GPRMC,213244.000,A,3748.7909,N,12217.8637,W,0.25,192.88,261010,,,A*75
$GPVTG,192.88,T,,M,0.25,N,0.5,K,A*05
$GPGGA,213245.000,3748.7905,N,12217.8640,W,1,06,1.6,18.4,M,-25.1,M,,0000*54
$GPGSA,A,3,10,02,25,12,30,05,,,,,,,3.7,1.6,3.3*30
$GPRMC,213245.000,A,3748.7905,N,12217.8640,W,0.24,134.81,261010,,,A*7C
$GPVTG,134.81,T,,M,0.24,N,0.5,K,A*01
$GPGGA,213246.000,3748.7907,N,12217.8650,W,1,06,1.6,17.0,M,-25.1,M,,0000*5F
$GPGSA,A,3,10,02,25,12,30,05,,,,,,,3.7,1.6,3.3*30
$GPRMC,213246.000,A,3748.7907,N,12217.8650,W,0.29,0.30,261010,,,A*7D
$GPVTG,0.30,T,,M,0.29,N,0.5,K,A*00
$GPGGA,213247.000,3748.7904,N,12217.8657,W,1,06,1.6,14.9,M,-25.1,M,,0000*50
$GPGSA,A,3,10,02,25,12,30,05,,,,,,,3.7,1.6,3.3*30
$GPGSV,3,1,12,12,73,165,36,25,62,302,24,02,50,047,31,05,40,133,25*7D
$GPGSV,3,2,12,30,39,311,29,10,35,073,31,29,34,293,19,04,14,049,19*73
$GPGSV,3,3,12,31,09,320,,09,07,196,,21,05,230,,51,43,156,31*74
$GPRMC,213247.000,A,3748.7904,N,12217.8657,W,0.17,347.81,261010,,,A*7F
$GPVTG,347.81,T,,M,0.17,N,0.3,K,A*01
$GPGGA,213248.000,3748.7904,N,12217.8662,W,1,06,1.6,13.2,M,-25.1,M,,0000*55
$GPGSA,A,3,10,02,25,12,30,05,,,,,,,3.7,1.6,3.3*30
$GPRMC,213248.000,A,3748.7904,N,12217.8662,W,0.18,76.16,261010,,,A*46
$GPVTG,76.16,T,,M,0.18,N,0.3,K,A*31
$GPGGA,213249.000,3748.7903,N,12217.8663,W,1,06,1.6,13.0,M,-25.1,M,,0000*50
$GPGSA,A,3,10,02,25,12,30,05,,,,,,,3.7,1.6,3.3*30
$GPRMC,213249.000,A,3748.7903,N,12217.8663,W,0.26,91.43,261010,,,A*45
$GPVTG,91.43,T,,M,0.26,N,0.5,K,A*33
$GPGGA,213250.000,3748.7901,N,12217.8661,W,1,06,1.6,12.2,M,-25.1,M,,0000*5B
$GPGSA,A,3,10,02,25,12,30,05,,,,,,,3.7,1.6,3.3*30
$GPRMC,213250.000,A,3748.7901,N,12217.8661,W,0.41,310.68,261010,,,A*7F
$GPVTG,310.68,T,,M,0.41,N,0.8,K,A*0C
$GPGGA,213251.000,3748.7900,N,12217.8659,W,1,06,1.6,11.2,M,-25.1,M,,0000*53
$GPGSA,A,3,10,02,25,12,30,05,,,,,,,3.7,1.6,3.3*30
$GPRMC,213251.000,A,3748.7900,N,12217.8659,W,0.27,39.03,261010,,,A*41
$GPVTG,39.03,T,,M,0.27,N,0.5,K,A*34
$GPGGA,213252.000,3748.7902,N,12217.8658,W,1,06,1.6,9.7,M,-25.1,M,,0000*6F
$GPGSA,A,3,10,02,25,12,30,05,,,,,,,3.7,1.6,3.3*30
$GPGSV,3,1,12,12,73,165,22,25,62,302,18,02,50,047,25,05,40,133,25*72
$GPGSV,3,2,12,30,39,311,20,10,35,073,18,29,34,293,23,04,14,049,12*73
$GPGSV,3,3,12,31,09,320,,09,07,196,,21,05,230,,51,43,156,22*76
$GPRMC,213252.000,A,3748.7902,N,12217.8658,W,0.58,130.59,261010,,,A*7E
$GPVTG,130.59,T,,M,0.58,N,1.1,K,A*0E
$GPGGA,213253.000,3748.7901,N,12217.8663,W,1,06,1.6,7.1,M,-25.1,M,,0000*6D
$GPGSA,A,3,10,02,25,12,30,05,,,,,,,3.7,1.6,3.3*30
$GPRMC,213253.000,A,3748.7901,N,12217.8663,W,0.55,109.86,261010,,,A*71
$GPVTG,109.86,T,,M,0.55,N,1.0,K,A*0A
$GPGGA,213254.000,3748.7892,N,12217.8668,W,1,06,1.6,4.2,M,-25.1,M,,0000*6A
$GPGSA,A,3,10,02,25,12,30,05,,,,,,,3.7,1.6,3.3*30
$GPRMC,213254.000,A,3748.7892,N,12217.8668,W,0.69,208.62,261010,,,A*71
$GPVTG,208.62,T,,M,0.69,N,1.3,K,A*0E
$GPGGA,213255.000,3748.7892,N,12217.8675,W,1,06,1.6,3.9,M,-25.1,M,,0000*6B
$GPGSA,A,3,10,02,25,12,30,05,,,,,,,3.7,1.6,3.3*30
$GPRMC,213255.000,A,3748.7892,N,12217.8675,W,1.26,250.74,261010,,,A*7C
$GPVTG,250.74,T,,M,1.26,N,2.3,K,A*0D
$GPGGA,213256.000,3748.7888,N,12217.8679,W,1,06,1.6,1.6,M,-25.1,M,,0000*62
$GPGSA,A,3,10,02,25,12,30,05,,,,,,,3.7,1.6,3.3*30
$GPRMC,213256.000,A,3748.7888,N,12217.8679,W,0.55,141.82,261010,,,A*77
$GPVTG,141.82,T,,M,0.55,N,1.0,K,A*02
$GPGGA,213257.000,3748.7889,N,12217.8683,W,1,06,1.6,2.6,M,-25.1,M,,0000*64
$GPGSA,A,3,10,02,25,12,30,05,,,,,,,3.7,1.6,3.3*30
$GPGSV,3,1,11,12,73,165,21,25,62,302,22,02,50,047,18,05,40,133,18*7B
$GPGSV,3,2,11,30,39,311,16,10,35,073,20,29,34,293,25,04,14,049,*7B
$GPGSV,3,3,11,31,09,320,,09,07,196,,21,05,230,*44
$GPRMC,213257.000,A,3748.7889,N,12217.8683,W,0.45,114.23,261010,,,A*78
$GPGGA,213258.000,3748.7881,N,12217.8681,W,1,03,2.2,1.4,M,-25.1,M,,0000*62
$GPGSA,A,2,02,25,05,,,,,,,,,,2.4,2.2,1.0*34
$GPRMC,213258.000,A,3748.7881,N,12217.8681,W,1.75,164.50,261010,,,A*7C
$GPVTG,164.50,T,,M,1.75,N,3.2,K,A*09
$GPGGA,213259.000,3748.7874,N,12217.8681,W,1,04,5.0,2.6,M,-25.1,M,,0000*6A
$GPGSA,A,3,10,02,25,30,,,,,,,,,6.9,5.0,4.7*3C
$GPRMC,213259.000,A,3748.7874,N,12217.8681,W,2.27,182.44,261010,,,A*7E
$GPVTG,182.44,T,,M,2.27,N,4.2,K,A*07
$GPGGA,213300.000,3748.7866,N,12217.8686,W,1,05,1.7,2.8,M,-25.1,M,,0000*6F
$GPGSA,A,3,10,02,25,30,05,,,,,,,,4.7,1.7,4.3*32
$GPRMC,213300.000,A,3748.7866,N,12217.8686,W,1.73,187.91,261010,,,A*78
$GPVTG,187.91,T,,M,1.73,N,3.2,K,A*0F
$GPGGA,213301.000,3748.7856,N,12217.8689,W,1,05,1.7,5.1,M,-25.1,M,,0000*6C
$GPGSA,A,3,10,02,25,30,05,,,,,,,,4.7,1.7,4.3*32
$GPRMC,213301.000,A,3748.7856,N,12217.8689,W,1.70,179.16,261010,,,A*78
$GPVTG,179.16,T,,M,1.70,N,3.1,K,A*01
$GPGGA,213302.000,3748.7842,N,12217.8694,W,1,05,1.7,8.2,M,-25.1,M,,0000*68
$GPGSA,A,3,10,02,25,30,05,,,,,,,,4.7,1.7,4.3*32
$GPGSV,3,1,11,12,73,165,13,25,62,302,23,02,50,047,18,05,40,133,17*74
$GPGSV,3,2,11,30,39,311,18,10,35,073,18,29,34,293,26,04,14,049,*7D
$GPGSV,3,3,11,31,09,320,,09,07,196,,21,05,230,*44
$GPRMC,213302.000,A,3748.7842,N,12217.8694,W,1.64,177.27,261010,,,A*7B
$GPVTG,177.27,T,,M,1.64,N,3.0,K,A*09
$GPGGA,213303.000,3748.7841,N,12217.8692,W,1,04,1.8,8.6,M,-25.1,M,,0000*66
$GPGSA,A,3,10,02,25,05,,,,,,,,,2.1,1.8,1.0*38
$GPRMC,213303.000,A,3748.7841,N,12217.8692,W,1.40,143.64,261010,,,A*79
$GPVTG,143.64,T,,M,1.40,N,2.6,K,A*08
$GPGGA,213304.000,3748.7840,N,12217.8683,W,1,05,1.7,11.5,M,-25.1,M,,0000*55
$GPGSA,A,3,10,02,25,30,05,,,,,,,,4.7,1.7,4.3*32
$GPRMC,213304.000,A,3748.7840,N,12217.8683,W,1.55,155.22,261010,,,A*7E
$GPVTG,155.22,T,,M,1.55,N,2.9,K,A*06
$GPGGA,213305.000,3748.7844,N,12217.8674,W,1,04,1.8,11.8,M,-25.1,M,,0000*5B
$GPGSA,A,3,10,02,25,05,,,,,,,,,2.1,1.8,1.0*38
$GPRMC,213305.000,A,3748.7844,N,12217.8674,W,0.80,111.03,261010,,,A*79
$GPVTG,111.03,T,,M,0.80,N,1.5,K,A*03
$GPGGA,213306.000,3748.7836,N,12217.8679,W,1,05,1.7,11.8,M,-25.1,M,,0000*5E
$GPGSA,A,3,10,02,25,30,05,,,,,,,,4.7,1.7,4.3*32
$GPRMC,213306.000,A,3748.7836,N,12217.8679,W,1.59,181.05,261010,,,A*78
$GPVTG,181.05,T,,M,1.59,N,2.9,K,A*06
$GPGGA,213307.000,3748.7831,N,12217.8679,W,1,05,1.7,11.8,M,-25.1,M,,0000*58
$GPGSA,A,3,10,02,25,30,05,,,,,,,,4.7,1.7,4.3*32
$GPGSV,3,1,11,12,73,165,15,25,62,302,23,02,50,047,18,05,40,133,17*72
$GPGSV,3,2,11,30,39,311,18,10,35,073,26,29,34,293,27,04,14,049,*71
$GPGSV,3,3,11,31,09,320,,09,07,196,,21,05,230,*44
$GPRMC,213307.000,A,3748.7831,N,12217.8679,W,0.96,180.33,261010,,,A*78
$GPVTG,180.33,T,,M,0.96,N,1.8,K,A*02
$GPGGA,213308.000,3748.7819,N,12217.8686,W,1,05,1.7,9.4,M,-25.1,M,,0000*68
$GPGSA,A,3,10,02,25,30,05,,,,,,,,4.7,1.7,4.3*32
$GPRMC,213308.000,A,3748.7819,N,12217.8686,W,1.63,179.71,261010,,,A*76
$GPVTG,179.71,T,,M,1.63,N,3.0,K,A*03
$GPGGA,213309.000,3748.7810,N,12217.8692,W,1,05,1.7,7.4,M,-25.1,M,,0000*6B
$GPGSA,A,3,10,02,25,30,05,,,,,,,,4.7,1.7,4.4*35
$GPRMC,213309.000,A,3748.7810,N,12217.8692,W,2.02,173.61,261010,,,A*74
$GPVTG,173.61,T,,M,2.02,N,3.7,K,A*0B
$GPGGA,213310.000,3748.7802,N,12217.8692,W,1,04,1.8,7.3,M,-25.1,M,,0000*69
$GPGSA,A,3,10,02,25,05,,,,,,,,,2.1,1.8,1.0*38
$GPRMC,213310.000,A,3748.7802,N,12217.8692,W,2.17,176.90,261010,,,A*70
$GPVTG,176.90,T,,M,2.17,N,4.0,K,A*04
$GPGGA,213311.000,3748.7795,N,12217.8697,W,1,04,2.2,6.8,M,-25.1,M,,0000*6F
$GPGSA,A,3,10,25,30,05,,,,,,,,,5.8,2.2,5.3*39
$GPRMC,213311.000,A,3748.7795,N,12217.8697,W,2.86,164.59,261010,,,A*7B
$GPVTG,164.59,T,,M,2.86,N,5.3,K,A*08
$GPGGA,213312.000,3748.7782,N,12217.8697,W,1,04,2.2,7.1,M,-25.1,M,,0000*62
$GPGSA,A,3,10,25,30,05,,,,,,,,,5.8,2.2,5.3*39
$GPGSV,3,1,11,12,73,165,14,25,62,302,24,02,50,047,18,05,40,133,15*76
$GPGSV,3,2,11,30,39,311,18,10,35,073,21,29,34,293,27,04,14,049,*76
$GPGSV,3,3,11,31,09,320,,09,07,196,,21,05,230,*44
$GPRMC,213312.000,A,3748.7782,N,12217.8697,W,4.37,169.28,261010,,,A*79
$GPVTG,169.28,T,,M,4.37,N,8.1,K,A*00
$GPGGA,213313.000,3748.7771,N,12217.8702,W,1,04,2.2,7.6,M,-25.1,M,,0000*65
$GPGSA,A,3,10,25,30,05,,,,,,,,,5.8,2.2,5.3*39
$GPRMC,213313.000,A,3748.7771,N,12217.8702,W,4.06,178.54,261010,,,A*70
$GPVTG,178.54,T,,M,4.06,N,7.5,K,A*02
$GPGGA,213314.000,3748.7764,N,12217.8708,W,1,04,2.2,7.4,M,-25.1,M,,0000*6E
$GPGSA,A,3,10,25,30,05,,,,,,,,,5.8,2.2,5.3*39
$GPRMC,213314.000,A,3748.7764,N,12217.8708,W,4.19,182.85,261010,,,A*7E
$GPVTG,182.85,T,,M,4.19,N,7.8,K,A*08
$GPGGA,213315.000,3748.7753,N,12217.8720,W,1,03,6.0,6.1,M,-25.1,M,,0000*64
$GPGSA,A,2,10,25,30,,,,,,,,,,6.1,6.0,1.0*36
$GPRMC,213315.000,A,3748.7753,N,12217.8720,W,3.42,192.31,261010,,,A*76
$GPVTG,192.31,T,,M,3.42,N,6.3,K,A*05
$GPGGA,213316.000,3748.7746,N,12217.8731,W,1,03,6.0,5.6,M,-25.1,M,,0000*67
$GPGSA,A,2,10,25,30,,,,,,,,,,6.1,6.0,1.0*36
$GPRMC,213316.000,A,3748.7746,N,12217.8731,W,2.29,200.77,261010,,,A*77
$GPVTG,200.77,T,,M,2.29,N,4.2,K,A*00
$GPGGA,213317.000,3748.7740,N,12217.8733,W,6,00,50.0,5.4,M,-25.1,M,,0000*57
$GPGSA,A,2,,,,,,,,,,,,,50.0,50.0,50.0*06
$GPGSV,3,1,11,12,73,165,15,25,62,302,24,02,50,047,18,05,40,133,*73
$GPGSV,3,2,11,30,39,311,17,10,35,073,21,29,34,293,28,04,14,049,*76
$GPGSV,3,3,11,31,09,320,,09,07,196,,21,05,230,*44
$GPRMC,213317.000,A,3748.7740,N,12217.8733,W,2.29,200.77,261010,,,E*76
$GPVTG,200.77,T,,M,2.29,N,4.2,K,N*0F
$GPGGA,213318.000,3748.7770,N,12217.8733,W,1,03,2.7,4.1,M,-25.1,M,,0000*6B
$GPGSA,A,2,10,25,12,,,,,,,,,,2.9,2.7,1.0*39
$GPRMC,213318.000,A,3748.7770,N,12217.8733,W,2.25,339.94,261010,,,A*74
$GPVTG,339.94,T,,M,2.25,N,4.2,K,N*05
$GPGGA,213319.000,3748.7784,N,12217.8750,W,1,03,2.7,4.3,M,-25.1,M,,0000*66
$GPGSA,A,2,10,25,12,,,,,,,,,,2.9,2.7,1.0*39
$GPRMC,213319.000,A,3748.7784,N,12217.8750,W,2.32,319.39,261010,,,A*78
$GPVTG,319.39,T,,M,2.32,N,4.3,K,A*08
$GPGGA,213320.000,3748.7817,N,12217.8747,W,1,04,3.4,4.1,M,-25.1,M,,0000*68
$GPGSA,A,3,10,02,25,12,,,,,,,,,8.7,3.4,8.0*35
$GPRMC,213320.000,A,3748.7817,N,12217.8747,W,1.83,344.87,261010,,,A*75
$GPVTG,344.87,T,,M,1.83,N,3.4,K,A*0C
$GPGGA,213321.000,3748.7824,N,12217.8748,W,1,04,3.4,4.3,M,-25.1,M,,0000*64
$GPGSA,A,3,10,02,25,12,,,,,,,,,8.7,3.4,8.0*35
$GPRMC,213321.000,A,3748.7824,N,12217.8748,W,0.68,355.68,261010,,,A*7E
$GPVTG,355.68,T,,M,0.68,N,1.3,K,A*0C
$GPGGA,213322.000,3748.7841,N,12217.8744,W,1,04,3.4,5.9,M,-25.1,M,,0000*63
$GPGSA,A,3,10,02,25,12,,,,,,,,,8.7,3.4,8.0*35
$GPGSV,3,1,11,12,73,165,21,25,62,302,25,02,50,047,19,05,40,133,*74
$GPGSV,3,2,11,30,39,311,,10,35,073,21,29,34,293,27,04,14,049,*7F
$GPGSV,3,3,11,31,09,320,,09,07,196,,21,05,230,*44
$GPVTG,343.14,T,,M,1.14,N,2.1,K,A*0B
$GPGGA,213323.000,3748.7846,N,12217.8745,W,1,05,2.7,6.1,M,-25.1,M,,0000*6C
$GPGSA,A,3,10,02,25,12,30,,,,,,,,5.5,2.7,4.8*3F
$GPRMC,213323.000,A,3748.7846,N,12217.8745,W,1.35,43.90,261010,,,A*4F
$GPVTG,43.90,T,,M,1.35,N,2.5,K,A*33
$GPGGA,213324.000,3748.7846,N,12217.8732,W,1,05,2.7,10.6,M,-25.1,M,,0000*5B
$GPGSA,A,3,10,02,25,12,30,,,,,,,,5.5,2.7,4.8*3F
$GPRMC,213324.000,A,3748.7846,N,12217.8732,W,1.15,48.33,261010,,,A*48
$GPVTG,48.33,T,,M,1.15,N,2.1,K,A*37
$GPGGA,213325.000,3748.7850,N,12217.8722,W,1,05,2.7,13.5,M,-25.1,M,,0000*5C
$GPGSA,A,3,10,02,25,12,30,,,,,,,,5.5,2.7,4.8*3F
$GPRMC,213325.000,A,3748.7850,N,12217.8722,W,1.00,90.64,261010,,,A*4C
$GPVTG,90.64,T,,M,1.00,N,1.8,K,A*3E
$GPGGA,213326.000,3748.7844,N,12217.8721,W,1,04,3.4,16.1,M,-25.1,M,,0000*5B
$GPGSA,A,3,10,02,25,12,,,,,,,,,8.7,3.4,8.0*35
$GPRMC,213326.000,A,3748.7844,N,12217.8721,W,0.61,142.98,261010,,,A*72
$GPVTG,142.98,T,,M,0.61,N,1.1,K,A*0C
$GPGGA,213327.000,3748.7853,N,12217.8725,W,1,03,2.6,15.8,M,-25.1,M,,0000*56
$GPGSA,A,2,02,25,12,,,,,,,,,,2.8,2.6,1.0*3A
$GPGSV,3,1,11,12,73,165,22,25,62,302,15,02,50,047,23,05,40,133,*7D
$GPGSV,3,2,11,30,39,311,,10,35,073,12,29,34,293,19,04,14,049,*72
$GPGSV,3,3,11,31,09,320,,09,07,196,,21,05,230,*44
$GPRMC,213327.000,A,3748.7853,N,12217.8725,W,0.53,36.90,261010,,,A*4A
$GPVTG,36.90,T,,M,0.53,N,1.0,K,A*36
$GPGGA,213328.000,3748.7857,N,12217.8731,W,1,03,2.6,15.0,M,-25.1,M,,0000*50
$GPGSA,A,2,02,25,12,,,,,,,,,,2.8,2.6,1.0*3A
$GPRMC,213328.000,A,3748.7857,N,12217.8731,W,0.16,12.66,261010,,,A*4A
$GPVTG,12.66,T,,M,0.16,N,0.3,K,A*3A
$GPGGA,213329.000,3748.7852,N,12217.8727,W,1,04,3.4,11.5,M,-25.1,M,,0000*56
$GPGSA,A,3,10,02,25,12,,,,,,,,,8.7,3.4,8.0*35
$GPRMC,213329.000,A,3748.7852,N,12217.8727,W,1.24,33.35,261010,,,A*4C
$GPVTG,33.35,T,,M,1.24,N,2.3,K,A*3D
$GPGGA,213330.000,3748.7839,N,12217.8721,W,1,04,3.4,8.8,M,-25.1,M,,0000*60
$GPGSA,A,3,10,02,25,12,,,,,,,,,8.7,3.4,8.0*35
$GPRMC,213330.000,A,3748.7839,N,12217.8721,W,0.76,45.29,261010,,,A*45
$GPVTG,45.29,T,,M,0.76,N,1.4,K,A*33
$GPGGA,213331.000,3748.7830,N,12217.8713,W,1,04,3.4,9.0,M,-25.1,M,,0000*60
$GPGSA,A,3,10,02,25,12,,,,,,,,,8.7,3.4,8.0*35
$GPRMC,213331.000,A,3748.7830,N,12217.8713,W,0.72,105.13,261010,,,A*74
$GPVTG,105.13,T,,M,0.72,N,1.3,K,A*0C
$GPGGA,213332.000,3748.7820,N,12217.8703,W,1,04,3.4,9.9,M,-25.1,M,,0000*6A
$GPGSA,A,3,10,02,25,12,,,,,,,,,8.7,3.4,8.0*35
$GPGSV,3,1,11,12,73,165,21,25,62,302,23,02,50,047,18,05,40,133,*73
$GPGSV,3,2,11,30,39,311,,10,35,073,16,29,34,293,19,04,14,049,*76
$GPGSV,3,3,11,31,09,320,,09,07,196,,21,05,230,*44
$GPRMC,213332.000,A,3748.7820,N,12217.8703,W,1.93,151.35,261010,,,A*7C
$GPVTG,151.35,T,,M,1.93,N,3.6,K,A*00
$GPGGA,213333.000,3748.7814,N,12217.8695,W,1,04,3.4,9.6,M,-25.1,M,,0000*6D
$GPGSA,A,3,10,02,25,12,,,,,,,,,8.7,3.4,8.0*35
$GPRMC,213333.000,A,3748.7814,N,12217.8695,W,2.28,155.70,261010,,,A*72
$GPVTG,155.70,T,,M,2.28,N,4.2,K,A*05
$GPGGA,213334.000,3748.7819,N,12217.8691,W,1,03,4.2,8.9,M,-25.1,M,,0000*6B
$GPGSA,A,2,10,02,12,,,,,,,,,,4.3,4.2,1.0*33
$GPRMC,213334.000,A,3748.7819,N,12217.8691,W,2.02,134.07,261010,,,A*73
$GPVTG,134.07,T,,M,2.02,N,3.7,K,N*07
$GPGGA,213335.000,3748.7815,N,12217.8686,W,6,00,50.0,8.8,M,-25.1,M,,0000*56
$GPGSA,A,2,,,,,,,,,,,,,50.0,50.0,50.0*06
$GPRMC,213335.000,A,3748.7815,N,12217.8686,W,2.02,134.07,261010,,,E*7C
$GPVTG,134.07,T,,M,2.02,N,3.7,K,N*07
$GPGGA,213336.000,3748.7807,N,12217.8660,W,1,03,2.7,8.3,M,-25.1,M,,0000*61
$GPGSA,A,2,10,25,12,,,,,,,,,,2.9,2.7,1.0*39
$GPRMC,213336.000,A,3748.7807,N,12217.8660,W,4.46,113.98,261010,,,A*75
$GPVTG,113.98,T,,M,4.46,N,8.3,K,N*0D
$GPGGA,213337.000,3748.7780,N,12217.8636,W,1,03,2.7,8.3,M,-25.1,M,,0000*63
$GPGSA,A,2,10,25,12,,,,,,,,,,2.9,2.7,1.0*39
$GPGSV,3,1,11,12,73,165,18,25,62,302,22,02,50,047,07,05,40,133,*76
$GPGSV,3,2,11,30,39,311,,10,35,073,18,29,34,293,18,04,14,049,*79
$GPGSV,3,3,11,31,09,320,,09,07,196,,21,05,230,*44
$GPRMC,213337.000,A,3748.7780,N,12217.8636,W,5.83,141.00,261010,,,A*79
$GPVTG,141.00,T,,M,5.83,N,10.8,K,N*31
$GPGGA,213338.000,3748.7790,N,12217.8638,W,1,03,2.7,7.6,M,-25.1,M,,0000*69
$GPGSA,A,2,10,25,12,,,,,,,,,,2.9,2.7,1.0*39
$GPRMC,213338.000,A,3748.7790,N,12217.8638,W,3.10,152.67,261010,,,A*76
$GPVTG,152.67,T,,M,3.10,N,5.7,K,N*05
$GPGGA,213339.000,3748.7775,N,12217.8638,W,1,03,2.7,8.0,M,-25.1,M,,0000*6A
$GPGSA,A,2,10,25,12,,,,,,,,,,2.9,2.7,1.0*39
$GPRMC,213339.000,A,3748.7775,N,12217.8638,W,2.99,170.18,261010,,,A*74
$GPVTG,170.18,T,,M,2.99,N,5.5,K,N*0F
$GPGGA,213340.000,3748.7767,N,12217.8637,W,6,00,50.0,8.0,M,-25.1,M,,0000*5C
$GPGSA,A,2,,,,,,,,,,,,,50.0,50.0,50.0*06
$GPRMC,213340.000,A,3748.7767,N,12217.8637,W,2.99,170.18,261010,,,E*72
$GPVTG,170.18,T,,M,2.99,N,5.5,K,N*0F
$GPGGA,213341.000,3748.7759,N,12217.8635,W,6,00,50.0,7.9,M,-25.1,M,,0000*54
$GPGSA,A,2,,,,,,,,,,,,,50.0,50.0,50.0*06
$GPRMC,213341.000,A,3748.7759,N,12217.8635,W,2.99,170.18,261010,,,E*7C
$GPVTG,170.18,T,,M,2.99,N,5.5,K,N*0F
$GPGGA,213342.000,3748.7750,N,12217.8633,W,6,00,50.0,7.9,M,-25.1,M,,0000*58
$GPGSA,A,2,,,,,,,,,,,,,50.0,50.0,50.0*06
$GPGSV,3,1,11,12,73,165,18,25,62,302,,02,50,047,,05,40,133,*71
$GPGSV,3,2,11,30,39,311,,10,35,073,21,29,34,293,17,04,14,049,*7C
$GPGSV,3,3,11,31,09,320,,09,07,196,,21,05,230,*44
$GPRMC,213342.000,A,3748.7750,N,12217.8633,W,2.99,170.18,261010,,,E*70
$GPVTG,170.18,T,,M,2.99,N,5.5,K,N*0F
$GPGGA,213343.000,3748.7842,N,12217.8641,W,1,04,3.4,9.6,M,-25.1,M,,0000*60
$GPGSA,A,3,10,25,12,02,,,,,,,,,8.8,3.4,8.1*3B
$GPRMC,213343.000,A,3748.7842,N,12217.8641,W,4.59,359.85,261010,,,A*7B
$GPVTG,359.85,T,,M,4.59,N,8.5,K,A*0A
$GPGGA,213344.000,3748.7872,N,12217.8620,W,1,04,5.0,10.1,M,-25.1,M,,0000*5E
$GPGSA,A,3,10,25,30,02,,,,,,,,,6.9,5.0,4.8*33
$GPRMC,213344.000,A,3748.7872,N,12217.8620,W,5.71,0.12,261010,,,A*72
$GPVTG,0.12,T,,M,5.71,N,10.6,K,A*3A
$GPGGA,213345.000,3748.7921,N,12217.8624,W,1,05,2.7,10.6,M,-25.1,M,,0000*5A
$GPGSA,A,3,10,25,30,12,02,,,,,,,,5.5,2.7,4.8*3F
$GPRMC,213345.000,A,3748.7921,N,12217.8624,W,5.73,0.78,261010,,,A*7E
$GPVTG,0.78,T,,M,5.73,N,10.6,K,A*34
$GPGGA,213346.000,3748.7928,N,12217.8631,W,1,05,2.7,12.2,M,-25.1,M,,0000*52
$GPGSA,A,3,10,25,30,12,02,,,,,,,,5.5,2.7,4.8*3F
$GPRMC,213346.000,A,3748.7928,N,12217.8631,W,3.53,1.54,261010,,,A*7B
$GPVTG,1.54,T,,M,3.53,N,6.5,K,A*0B
$GPGGA,213347.000,3748.7916,N,12217.8637,W,1,05,2.7,11.0,M,-25.1,M,,0000*59
$GPGSA,A,3,10,25,30,12,02,,,,,,,,5.5,2.7,4.8*3F
$GPGSV,3,1,11,12,73,165,18,25,62,302,19,02,50,047,24,05,40,133,*7F
$GPGSV,3,2,11,30,39,311,17,10,35,073,24,29,34,293,16,04,14,049,20*7C
$GPGSV,3,3,11,31,09,320,,09,07,196,,21,05,230,*44
$GPVTG,14.08,T,,M,1.70,N,3.1,K,A*34
$GPGGA,213348.000,3748.7910,N,12217.8640,W,1,04,3.4,9.2,M,-25.1,M,,0000*68
$GPGSA,A,3,10,25,12,02,,,,,,,,,8.8,3.4,8.1*3B
$GPRMC,213348.000,A,3748.7910,N,12217.8640,W,1.01,44.01,261010,,,A*4C
$GPVTG,44.01,T,,M,1.01,N,1.9,K,A*34
$GPGGA,213349.000,3748.7909,N,12217.8645,W,1,04,3.4,6.5,M,-25.1,M,,0000*6C
$GPGSA,A,3,10,25,12,02,,,,,,,,,8.8,3.4,8.1*3B
$GPRMC,213349.000,A,3748.7909,N,12217.8645,W,0.25,302.47,261010,,,A*74
$GPVTG,302.47,T,,M,0.25,N,0.5,K,A*0D
$GPGGA,213350.000,3748.7904,N,12217.8665,W,1,06,1.6,2.4,M,-25.1,M,,0000*6C
$GPGSA,A,3,10,25,30,12,02,05,,,,,,,3.8,1.6,3.4*38
$GPRMC,213350.000,A,3748.7904,N,12217.8665,W,0.40,265.56,261010,,,A*70
$GPVTG,265.56,T,,M,0.40,N,0.7,K,A*0C
$GPGGA,213351.000,3748.7886,N,12217.8656,W,1,06,1.6,2.8,M,-25.1,M,,0000*6A
$GPGSA,A,3,10,25,30,12,02,05,,,,,,,3.8,1.6,3.4*38
$GPRMC,213351.000,A,3748.7886,N,12217.8656,W,0.77,170.44,261010,,,A*7A
$GPVTG,170.44,T,,M,0.77,N,1.4,K,A*0E
$GPGGA,213352.000,3748.7875,N,12217.8656,W,1,06,1.6,1.4,M,-25.1,M,,0000*6A
$GPGSA,A,3,10,25,30,12,02,05,,,,,,,3.8,1.6,3.4*38
$GPGSV,3,1,11,12,73,165,28,25,62,302,29,02,50,047,31,05,40,133,19*73
$GPGSV,3,2,11,30,39,311,26,10,35,073,28,29,34,293,23,04,14,049,16*71
$GPGSV,3,3,11,31,09,320,,09,07,196,,21,05,230,*44
$GPRMC,213352.000,A,3748.7875,N,12217.8656,W,1.05,183.55,261010,,,A*7D
$GPVTG,183.55,T,,M,1.05,N,2.0,K,A*01
$GPGGA,213353.000,3748.7881,N,12217.8650,W,1,06,1.6,7.2,M,-25.1,M,,0000*66
$GPGSA,A,3,10,25,30,12,02,05,,,,,,,3.8,1.6,3.4*38
$GPRMC,213353.000,A,3748.7881,N,12217.8650,W,0.76,158.89,261010,,,A*73
$GPVTG,158.89,T,,M,0.76,N,1.4,K,A*04
$GPGGA,213354.000,3748.7879,N,12217.8649,W,1,06,1.6,10.0,M,-25.1,M,,0000*5A
$GPGSA,A,3,10,25,30,12,02,05,,,,,,,3.8,1.6,3.4*38
$GPRMC,213354.000,A,3748.7879,N,12217.8649,W,0.43,171.57,261010,,,A*75
$GPVTG,171.57,T,,M,0.43,N,0.8,K,A*07
$GPGGA,213355.000,3748.7879,N,12217.8648,W,1,04,2.2,12.0,M,-25.1,M,,0000*5D
$GPGSA,A,3,10,25,30,05,,,,,,,,,5.8,2.2,5.4*3E
$GPRMC,213355.000,A,3748.7879,N,12217.8648,W,0.07,154.24,261010,,,A*76
$GPVTG,154.24,T,,M,0.07,N,0.1,K,A*0D
$GPGGA,213356.000,3748.7877,N,12217.8648,W,1,04,2.2,12.2,M,-25.1,M,,0000*52
$GPGSA,A,3,10,25,30,05,,,,,,,,,5.8,2.2,5.4*3E
$GPRMC,213356.000,A,3748.7877,N,12217.8648,W,0.19,88.52,261010,,,A*45
$GPVTG,88.52,T,,M,0.19,N,0.3,K,A*31
$GPGGA,213357.000,3748.7873,N,12217.8648,W,1,05,2.2,11.6,M,-25.1,M,,0000*51
$GPGSA,A,3,10,25,30,12,05,,,,,,,,4.6,2.2,4.0*37
$GPGSV,3,1,11,12,73,165,16,25,62,302,24,02,50,047,12,05,40,133,27*7F
$GPGSV,3,2,11,30,39,311,24,10,35,073,26,29,34,293,24,04,14,049,14*78
$GPGSV,3,3,11,31,09,320,,09,07,196,,21,05,230,*44
$GPRMC,213357.000,A,3748.7873,N,12217.8648,W,0.51,54.33,261010,,,A*4A
$GPVTG,54.33,T,,M,0.51,N,0.9,K,A*31
$GPGGA,213358.000,3748.7869,N,12217.8647,W,1,05,2.2,10.5,M,-25.1,M,,0000*58
$GPGSA,A,3,10,25,30,12,05,,,,,,,,4.6,2.2,4.0*37
$GPRMC,213358.000,A,3748.7869,N,12217.8647,W,0.65,40.98,261010,,,A*42
$GPVTG,40.98,T,,M,0.65,N,1.2,K,A*38
$GPGGA,213359.000,3748.7870,N,12217.8645,W,1,05,2.2,9.9,M,-25.1,M,,0000*67
$GPGSA,A,3,10,25,30,12,05,,,,,,,,4.6,2.2,4.0*37
$GPRMC,213359.000,A,3748.7870,N,12217.8645,W,0.31,35.56,261010,,,A*48
$GPVTG,35.56,T,,M,0.31,N,0.6,K,A*3C
$GPGGA,213400.000,3748.7875,N,12217.8643,W,1,06,1.6,11.8,M,-25.1,M,,0000*53
$GPGSA,A,3,10,25,30,12,02,05,,,,,,,3.8,1.6,3.4*38
$GPRMC,213400.000,A,3748.7875,N,12217.8643,W,0.75,24.11,261010,,,A*43
$GPVTG,24.11,T,,M,0.75,N,1.4,K,A*3C
$GPGGA,213401.000,3748.7870,N,12217.8646,W,1,06,1.6,11.7,M,-25.1,M,,0000*5D
$GPGSA,A,3,10,25,30,12,02,05,,,,,,,3.8,1.6,3.4*38
$GPRMC,213401.000,A,3748.7870,N,12217.8646,W,0.32,315.92,261010,,,A*7B
$GPVTG,315.92,T,,M,0.32,N,0.6,K,A*06
$GPGGA,213402.000,3748.7863,N,12217.8651,W,1,06,1.6,9.6,M,-25.1,M,,0000*62
$GPGSA,A,3,10,25,30,12,02,05,,,,,,,3.8,1.6,3.4*38
$GPGSV,3,1,11,12,73,165,29,25,62,302,18,02,50,047,28,05,40,133,19*78
$GPGSV,3,2,11,30,39,311,24,10,35,073,15,29,34,293,24,04,14,049,20*7F
$GPGSV,3,3,11,31,09,320,,09,07,196,,21,05,230,*44
$GPRMC,213402.000,A,3748.7863,N,12217.8651,W,0.36,252.59,261010,,,A*7D
$GPGGA,213403.000,3748.7868,N,12217.8648,W,1,04,3.4,9.4,M,-25.1,M,,0000*60
$GPGSA,A,3,10,25,12,02,,,,,,,,,8.9,3.4,8.2*39
$GPRMC,213403.000,A,3748.7868,N,12217.8648,W,0.59,338.50,261010,,,A*72
$GPVTG,338.50,T,,M,0.59,N,1.1,K,A*0C
$GPGGA,213404.000,3748.7871,N,12217.8645,W,1,04,3.4,9.5,M,-25.1,M,,0000*63
$GPGSA,A,3,10,25,12,02,,,,,,,,,8.9,3.4,8.2*39
$GPRMC,213404.000,A,3748.7871,N,12217.8645,W,1.24,23.38,261010,,,A*4C
$GPVTG,23.38,T,,M,1.24,N,2.3,K,A*31
$GPGGA,213405.000,3748.7881,N,12217.8642,W,1,05,2.7,10.2,M,-25.1,M,,0000*56
$GPGSA,A,3,10,25,30,12,02,,,,,,,,5.5,2.7,4.8*3F
$GPRMC,213405.000,A,3748.7881,N,12217.8642,W,2.89,0.83,261010,,,A*70
$GPVTG,0.83,T,,M,2.89,N,5.3,K,A*03
$GPGGA,213406.000,3748.7893,N,12217.8642,W,1,03,2.6,10.1,M,-25.1,M,,0000*52
$GPGSA,A,2,25,12,02,,,,,,,,,,2.8,2.6,1.0*3A
$GPRMC,213406.000,A,3748.7893,N,12217.8642,W,3.51,1.66,261010,,,A*7E
$GPVTG,1.66,T,,M,3.51,N,6.5,K,N*07
$GPGGA,213407.000,3748.7902,N,12217.8641,W,6,00,50.0,10.2,M,-25.1,M,,0000*6F
$GPGSA,A,2,,,,,,,,,,,,,50.0,50.0,50.0*06
$GPGSV,3,1,11,12,73,165,17,25,62,302,20,02,50,047,18,05,40,133,*75
$GPGSV,3,2,11,30,39,311,12,10,35,073,11,29,34,293,,04,14,049,*7A
$GPGSV,3,3,11,31,09,320,,09,07,196,,21,05,230,*44
$GPRMC,213407.000,A,3748.7902,N,12217.8641,W,3.51,1.66,261010,,,E*71
$GPVTG,1.66,T,,M,3.51,N,6.5,K,N*07
$GPGGA,213408.000,3748.7899,N,12217.8647,W,1,03,2.6,9.9,M,-25.1,M,,0000*63
$GPGSA,A,2,25,12,02,,,,,,,,,,2.8,2.6,1.0*3A
$GPRMC,213408.000,A,3748.7899,N,12217.8647,W,1.76,336.96,261010,,,A*70
$GPVTG,336.96,T,,M,1.76,N,3.3,K,N*0B
$GPGGA,213409.000,3748.7897,N,12217.8650,W,1,04,3.5,10.6,M,-25.1,M,,0000*58
$GPGSA,A,3,25,30,12,02,,,,,,,,,9.2,3.5,8.5*37
$GPRMC,213409.000,A,3748.7897,N,12217.8650,W,1.52,344.32,261010,,,A*74
$GPVTG,344.32,T,,M,1.52,N,2.8,K,A*03
$GPGGA,213410.000,3748.7905,N,12217.8657,W,1,04,3.5,12.0,M,-25.1,M,,0000*59
$GPGSA,A,3,25,30,12,02,,,,,,,,,9.2,3.5,8.5*37
$GPRMC,213410.000,A,3748.7905,N,12217.8657,W,1.82,309.53,261010,,,A*72
$GPVTG,309.53,T,,M,1.82,N,3.4,K,A*0D
$GPGGA,213411.000,3748.7897,N,12217.8668,W,1,04,3.5,12.4,M,-25.1,M,,0000*5A
$GPGSA,A,3,25,30,12,02,,,,,,,,,9.2,3.5,8.5*37
$GPRMC,213411.000,A,3748.7897,N,12217.8668,W,1.54,286.53,261010,,,A*78
$GPVTG,286.53,T,,M,1.54,N,2.9,K,A*0C
$GPGGA,213412.000,3748.7887,N,12217.8678,W,1,04,3.5,12.9,M,-25.1,M,,0000*54
$GPGSA,A,3,25,30,12,02,,,,,,,,,9.2,3.5,8.5*37
$GPGSV,3,1,11,12,73,165,17,25,62,302,23,02,50,047,21,05,40,133,*7C
$GPGSV,3,2,11,30,39,311,13,10,35,073,,29,34,293,,04,14,049,*7B
$GPGSV,3,3,11,31,09,320,,09,07,196,,21,05,230,*44
$GPRMC,213412.000,A,3748.7887,N,12217.8678,W,1.78,267.76,261010,,,A*7D
$GPVTG,267.76,T,,M,1.78,N,3.3,K,A*01
$GPGGA,213413.000,3748.7884,N,12217.8689,W,1,04,3.5,11.2,M,-25.1,M,,0000*50
$GPGSA,A,3,25,30,12,02,,,,,,,,,9.2,3.5,8.5*37
$GPRMC,213413.000,A,3748.7884,N,12217.8689,W,1.87,281.81,261010,,,A*71
$GPVTG,281.81,T,,M,1.87,N,3.5,K,A*07
$GPGGA,213414.000,3748.7894,N,12217.8692,W,1,04,3.5,11.1,M,-25.1,M,,0000*5F
$GPGSA,A,3,25,30,12,02,,,,,,,,,9.2,3.5,8.5*37
$GPRMC,213414.000,A,3748.7894,N,12217.8692,W,1.56,319.71,261010,,,A*7E
$GPVTG,319.71,T,,M,1.56,N,2.9,K,A*09
$GPGGA,213415.000,3748.7904,N,12217.8676,W,1,04,3.5,14.0,M,-25.1,M,,0000*58
$GPGSA,A,3,25,30,12,02,,,,,,,,,9.2,3.5,8.5*37
$GPRMC,213415.000,A,3748.7904,N,12217.8676,W,1.79,26.71,261010,,,A*4F
$GPVTG,26.71,T,,M,1.79,N,3.3,K,A*30
$GPGGA,213416.000,3748.7911,N,12217.8670,W,1,04,3.5,14.6,M,-25.1,M,,0000*5F
$GPGSA,A,3,25,30,12,02,,,,,,,,,9.2,3.5,8.5*37
$GPRMC,213416.000,A,3748.7911,N,12217.8670,W,0.99,36.93,261010,,,A*4C
$GPVTG,36.93,T,,M,0.99,N,1.8,K,A*3B
$GPGGA,213417.000,3748.7913,N,12217.8674,W,1,04,3.5,15.2,M,-25.1,M,,0000*5D
$GPGSA,A,3,25,30,12,02,,,,,,,,,9.2,3.5,8.5*37
$GPGSV,3,1,11,12,73,165,19,25,62,302,23,02,50,047,21,05,40,133,*72
$GPGSV,3,2,11,30,39,311,15,10,35,073,,29,34,293,,04,14,049,16*7A
$GPGSV,3,3,11,31,09,320,,09,07,196,,21,05,230,*44
$GPRMC,213417.000,A,3748.7913,N,12217.8674,W,0.63,344.13,261010,,,A*70
$GPVTG,344.13,T,,M,0.63,N,1.2,K,A*0A
$GPGGA,213418.000,3748.7918,N,12217.8675,W,1,03,50.0,16.4,M,-25.1,M,,0000*69
$GPGSA,A,2,25,30,12,,,,,,,,,,50.0,50.0,1.0*35
$GPRMC,213418.000,A,3748.7918,N,12217.8675,W,1.07,344.99,261010,,,A*74
$GPVTG,344.99,T,,M,1.07,N,2.0,K,N*05
$GPGGA,213419.000,3748.7921,N,12217.8676,W,6,00,50.0,16.6,M,-25.1,M,,0000*67
$GPGSA,A,2,,,,,,,,,,,,,50.0,50.0,50.0*06
$GPRMC,213419.000,A,3748.7921,N,12217.8676,W,1.07,344.99,261010,,,E*78
$GPVTG,344.99,T,,M,1.07,N,2.0,K,N*05
$GPGGA,213420.000,3748.7930,N,12217.8680,W,1,03,50.0,20.2,M,-25.1,M,,0000*61
$GPGSA,A,2,25,30,12,,,,,,,,,,50.0,50.0,1.0*35
$GPRMC,213420.000,A,3748.7930,N,12217.8680,W,1.39,333.18,261010,,,A*7B
$GPVTG,333.18,T,,M,1.39,N,2.6,K,N*07
$GPGGA,213421.000,3748.7927,N,12217.8679,W,1,03,50.0,20.2,M,-25.1,M,,0000*60
$GPGSA,A,2,25,30,12,,,,,,,,,,50.0,50.0,1.0*35
$GPRMC,213421.000,A,3748.7927,N,12217.8679,W,1.32,328.33,261010,,,A*72
$GPVTG,328.33,T,,M,1.32,N,2.4,K,N*0D
$GPGGA,213422.000,3748.7933,N,12217.8688,W,1,03,50.0,21.8,M,-25.1,M,,0000*63
$GPGSA,A,2,25,30,12,,,,,,,,,,50.0,50.0,1.0*35
$GPGSV,3,1,11,12,73,165,17,25,62,302,24,02,50,047,,05,40,133,*78
$GPGSV,3,2,11,30,39,311,16,10,35,073,,29,34,293,,04,14,049,*7E
$GPGSV,3,3,11,31,09,320,,09,07,196,,21,05,230,*44
$GPRMC,213422.000,A,3748.7933,N,12217.8688,W,1.94,316.02,261010,,,A*79
$GPVTG,316.02,T,,M,1.94,N,3.6,K,N*0D
$GPGGA,213423.000,3748.7922,N,12217.8683,W,1,03,50.0,20.9,M,-25.1,M,,0000*69
$GPGSA,A,2,25,30,12,,,,,,,,,,50.0,50.0,1.0*35
$GPRMC,213423.000,A,3748.7922,N,12217.8683,W,0.72,274.06,261010,,,A*7B
$GPVTG,274.06,T,,M,0.72,N,1.3,K,N*02
$GPGGA,213424.000,3748.7903,N,12217.8691,W,1,04,2.2,18.7,M,-25.1,M,,0000*59
$GPGSA,A,3,25,30,12,10,,,,,,,,,2.4,2.2,1.0*33
$GPRMC,213424.000,A,3748.7903,N,12217.8691,W,1.31,208.57,261010,,,A*75
$GPVTG,208.57,T,,M,1.31,N,2.4,K,A*00
$GPGGA,213425.000,3748.7907,N,12217.8673,W,1,05,2.7,16.3,M,-25.1,M,,0000*5E
$GPGSA,A,3,25,30,12,10,02,,,,,,,,5.6,2.7,4.9*3D
$GPRMC,213425.000,A,3748.7907,N,12217.8673,W,0.65,205.63,261010,,,A*76
$GPVTG,205.63,T,,M,0.65,N,1.2,K,A*0F
$GPGGA,213426.000,3748.7908,N,12217.8673,W,1,05,2.7,19.3,M,-25.1,M,,0000*5D
$GPGSA,A,3,25,30,12,10,02,,,,,,,,5.6,2.7,4.9*3D
$GPRMC,213426.000,A,3748.7908,N,12217.8673,W,0.63,158.54,261010,,,A*73
$GPVTG,158.54,T,,M,0.63,N,1.2,K,A*06
$GPGGA,213427.000,3748.7906,N,12217.8666,W,1,05,2.7,21.0,M,-25.1,M,,0000*5E
$GPGSA,A,3,25,30,12,10,02,,,,,,,,5.6,2.7,4.9*3D
$GPGSV,3,1,11,12,73,165,23,25,62,302,25,02,50,047,27,05,40,133,*7B
$GPGSV,3,2,11,30,39,311,22,10,35,073,23,29,34,293,,04,14,049,14*7D
$GPGSV,3,3,11,31,09,320,,09,07,196,,21,05,230,*44
$GPVTG,135.45,T,,M,0.61,N,1.1,K,A*0C
$GPGGA,213428.000,3748.7906,N,12217.8655,W,1,05,2.7,22.9,M,-25.1,M,,0000*5B
$GPGSA,A,3,25,30,12,10,02,,,,,,,,5.6,2.7,4.9*3D
$GPRMC,213428.000,A,3748.7906,N,12217.8655,W,0.29,128.32,261010,,,A*7E
$GPVTG,128.32,T,,M,0.29,N,0.5,K,A*09
$GPGGA,213429.000,3748.7907,N,12217.8649,W,1,05,2.7,24.3,M,-25.1,M,,0000*5A
$GPGSA,A,3,25,30,12,10,02,,,,,,,,5.6,2.7,4.9*3D
$GPRMC,213429.000,A,3748.7907,N,12217.8649,W,0.54,88.83,261010,,,A*48
$GPVTG,88.83,T,,M,0.54,N,1.0,K,A*36
$GPGGA,213430.000,3748.7918,N,12217.8649,W,1,05,2.7,25.8,M,-25.1,M,,0000*56
$GPGSA,A,3,25,30,12,10,02,,,,,,,,5.6,2.7,4.9*3D
$GPRMC,213430.000,A,3748.7918,N,12217.8649,W,0.21,277.38,261010,,,A*7E
$GPVTG,277.38,T,,M,0.21,N,0.4,K,A*03
$GPGGA,213431.000,3748.7924,N,12217.8645,W,1,05,1.7,29.7,M,-25.1,M,,0000*54
$GPGSA,A,3,05,25,30,10,02,,,,,,,,4.8,1.7,4.4*3A
$GPRMC,213431.000,A,3748.7924,N,12217.8645,W,0.14,134.78,261010,,,A*7A
$GPVTG,134.78,T,,M,0.14,N,0.3,K,A*02
$GPGGA,213432.000,3748.7934,N,12217.8635,W,1,05,1.7,32.3,M,-25.1,M,,0000*5F
$GPGSA,A,3,05,25,30,10,02,,,,,,,,4.8,1.7,4.4*3A
$GPGSV,3,1,11,12,73,165,12,25,62,302,18,02,50,047,25,05,40,133,22*75
$GPGSV,3,2,11,30,39,311,22,10,35,073,24,29,34,293,,04,14,049,15*7B
$GPGSV,3,3,11,31,09,320,,09,07,196,,21,05,230,*44
$GPRMC,213432.000,A,3748.7934,N,12217.8635,W,0.79,90.36,261010,,,A*41
$GPVTG,90.36,T,,M,0.79,N,1.5,K,A*3B
$GPGGA,213433.000,3748.7926,N,12217.8636,W,1,06,1.6,29.8,M,-25.1,M,,0000*5D
$GPGSA,A,3,05,25,30,12,10,02,,,,,,,3.8,1.6,3.5*39
$GPRMC,213433.000,A,3748.7926,N,12217.8636,W,0.55,102.52,261010,,,A*76
$GPVTG,102.52,T,,M,0.55,N,1.0,K,A*08
$GPGGA,213434.000,3748.7921,N,12217.8634,W,1,06,1.6,29.3,M,-25.1,M,,0000*54
$GPGSA,A,3,05,25,30,12,10,02,,,,,,,3.8,1.6,3.5*39
$GPRMC,213434.000,A,3748.7921,N,12217.8634,W,0.94,81.09,261010,,,A*4D
$GPVTG,81.09,T,,M,0.94,N,1.7,K,A*36
$GPGGA,213435.000,3748.7917,N,12217.8634,W,1,06,1.6,28.5,M,-25.1,M,,0000*57
$GPGSA,A,3,05,25,30,12,10,02,,,,,,,3.8,1.6,3.5*39
$GPRMC,213435.000,A,3748.7917,N,12217.8634,W,0.35,117.04,261010,,,A*71
$GPVTG,117.04,T,,M,0.35,N,0.7,K,A*0F
$GPGGA,213436.000,3748.7904,N,12217.8638,W,1,06,1.6,26.5,M,-25.1,M,,0000*54
$GPGSA,A,3,05,25,30,12,10,02,,,,,,,3.8,1.6,3.5*39
$GPRMC,213436.000,A,3748.7904,N,12217.8638,W,1.09,164.90,261010,,,A*7B
$GPVTG,164.90,T,,M,1.09,N,2.0,K,A*0D
$GPGGA,213437.000,3748.7897,N,12217.8634,W,1,06,1.6,25.5,M,-25.1,M,,0000*51
$GPGSA,A,3,05,25,30,12,10,02,,,,,,,3.8,1.6,3.5*39
$GPGSV,3,1,11,12,73,165,22,25,62,302,25,02,50,047,21,05,40,133,21*7F
$GPGSV,3,2,11,30,39,311,21,10,35,073,16,29,34,293,,04,14,049,15*79
$GPGSV,3,3,11,31,09,320,,09,07,196,,21,05,230,*44
$GPRMC,213437.000,A,3748.7897,N,12217.8634,W,1.08,116.00,261010,,,A*70
$GPVTG,116.00,T,,M,1.08,N,2.0,K,A*00
$GPGGA,213438.000,3748.7894,N,12217.8629,W,1,06,1.6,27.3,M,-25.1,M,,0000*55
$GPGSA,A,3,05,25,30,12,10,02,,,,,,,3.8,1.6,3.5*39
$GPRMC,213438.000,A,3748.7894,N,12217.8629,W,1.02,124.78,261010,,,A*74
$GPVTG,124.78,T,,M,1.02,N,1.9,K,A*0E
$GPGGA,213439.000,3748.7899,N,12217.8627,W,1,06,1.6,30.3,M,-25.1,M,,0000*51
$GPGSA,A,3,05,25,30,12,10,02,,,,,,,3.8,1.6,3.5*39
$GPRMC,213439.000,A,3748.7899,N,12217.8627,W,1.23,93.41,261010,,,A*42
$GPVTG,93.41,T,,M,1.23,N,2.3,K,A*33
$GPGGA,213440.000,3748.7894,N,12217.8634,W,1,06,1.6,29.5,M,-25.1,M,,0000*5E
$GPGSA,A,3,05,25,30,12,10,02,,,,,,,3.8,1.6,3.5*39
$GPRMC,213440.000,A,3748.7894,N,12217.8634,W,0.27,238.75,261010,,,A*72
$GPVTG,238.75,T,,M,0.27,N,0.5,K,A*06
$GPGGA,213441.000,3748.7897,N,12217.8643,W,1,06,1.6,29.0,M,-25.1,M,,0000*59
$GPGSA,A,3,05,25,30,12,10,02,,,,,,,3.8,1.6,3.5*39
$GPRMC,213441.000,A,3748.7897,N,12217.8643,W,0.64,346.20,261010,,,A*7F
$GPVTG,346.20,T,,M,0.64,N,1.2,K,A*0F
$GPGGA,213442.000,3748.7901,N,12217.8650,W,1,06,1.6,28.7,M,-25.1,M,,0000*50
$GPGSA,A,3,05,25,30,12,10,02,,,,,,,3.8,1.6,3.5*39
$GPGSV,3,1,11,12,73,165,26,25,62,302,29,02,50,047,22,05,40,133,23*76
$GPGSV,3,2,11,30,39,311,24,10,35,073,22,29,34,293,,04,14,049,16*78
$GPGSV,3,3,11,31,09,320,,09,07,196,,21,05,230,*44
$GPRMC,213442.000,A,3748.7901,N,12217.8650,W,0.28,16.68,261010,,,A*42
$GPGGA,213443.000,3748.7903,N,12217.8655,W,1,06,1.6,28.2,M,-25.1,M,,0000*53
$GPGSA,A,3,05,25,30,12,10,02,,,,,,,3.8,1.6,3.5*39
$GPRMC,213443.000,A,3748.7903,N,12217.8655,W,0.61,348.36,261010,,,A*7A
$GPVTG,348.36,T,,M,0.61,N,1.1,K,A*00
