$ADVER,3080,2.3
$GPRMC,235436.942,A,3748.7972,N,12217.8742,W,1.39,22.91,261010,,,A*4C
$GPGGA,235438.000,3748.7936,N,12217.8684,W,1,05,1.8,-34.8,M,-25.1,M,,0000*76
$GPGSA,A,3,05,30,21,29,25,,,,,,,,3.7,1.8,3.2*37
$GPRMC,235438.000,A,3748.7936,N,12217.8684,W,0.74,342.55,261010,,,A*73
$GPVTG,342.55,T,,M,0.74,N,1.4,K,A*0E
$GPGGA,235439.000,3748.7924,N,12217.8661,W,1,05,1.8,-28.2,M,-25.1,M,,0000*78
$GPGSA,A,3,05,30,21,29,25,,,,,,,,3.7,1.8,3.2*37
$GPRMC,235439.000,A,3748.7924,N,12217.8661,W,0.55,313.08,261010,,,A*75
$GPVTG,313.08,T,,M,0.55,N,1.0,K,A*05
$GPGGA,235440.000,3748.7923,N,12217.8657,W,1,05,1.8,-22.5,M,-25.1,M,,0000*79
$GPGSA,A,3,05,30,21,29,25,,,,,,,,3.7,1.8,3.2*37
$GPRMC,235440.000,A,3748.7923,N,12217.8657,W,0.26,110.12,261010,,,A*77
$GPVTG,110.12,T,,M,0.26,N,0.5,K,A*0F
$GPGGA,235441.000,3748.7922,N,12217.8661,W,1,05,1.8,-20.3,M,-25.1,M,,0000*78
$GPGSA,A,3,05,30,21,29,25,,,,,,,,3.7,1.8,3.2*37
$GPGSV,3,1,10,29,79,056,23,21,51,282,23,30,43,216,23,05,34,048,32*7C
$GPGSV,3,2,10,25,31,192,19,12,05,169,,18,30,204,,26,19,096,17*7F
$GPGSV,3,3,10,15,18,129,14,16,15,319,*72
$GPRMC,235441.000,A,3748.7922,N,12217.8661,W,0.46,294.08,261010,,,A*70
$GPVTG,294.08,T,,M,0.46,N,0.9,K,A*01
$GPGGA,235442.000,3748.7918,N,12217.8665,W,1,05,1.8,-18.1,M,-25.1,M,,0000*7F
$GPGSA,A,3,05,30,21,29,25,,,,,,,,3.7,1.8,3.2*37
$GPRMC,235442.000,A,3748.7918,N,12217.8665,W,1.30,311.08,261010,,,A*72
$GPVTG,311.08,T,,M,1.30,N,2.4,K,A*02
$GPGGA,235443.000,3748.7913,N,12217.8661,W,1,05,1.8,-14.4,M,-25.1,M,,0000*78
$GPGSA,A,3,05,30,21,29,25,,,,,,,,3.7,1.8,3.2*37
$GPRMC,235443.000,A,3748.7913,N,12217.8661,W,1.94,311.78,261010,,,A*75
$GPVTG,311.78,T,,M,1.94,N,3.6,K,A*08
$GPGGA,235444.000,3748.7915,N,12217.8666,W,1,05,1.8,-12.8,M,-25.1,M,,0000*74
$GPGSA,A,3,05,30,21,29,25,,,,,,,,3.7,1.8,3.2*37
$GPRMC,235444.000,A,3748.7915,N,12217.8666,W,1.47,319.37,261010,,,A*7E
$GPVTG,319.37,T,,M,1.47,N,2.7,K,A*05
$GPGGA,235445.000,3748.7908,N,12217.8657,W,1,05,1.8,-8.0,M,-25.1,M,,0000*48
$GPGSA,A,3,05,30,21,29,25,,,,,,,,3.7,1.8,3.2*37
$GPRMC,235445.000,A,3748.7908,N,12217.8657,W,0.23,131.06,261010,,,A*78
$GPVTG,131.06,T,,M,0.23,N,0.4,K,A*0D
$GPGGA,235446.000,3748.7911,N,12217.8656,W,1,05,1.8,-7.1,M,-25.1,M,,0000*4C
$GPGSA,A,3,05,30,21,29,25,,,,,,,,3.7,1.8,3.2*37
$GPGSV,3,1,10,29,79,056,23,21,51,282,24,30,43,216,24,05,34,048,27*78
$GPGSV,3,2,10,25,31,192,20,12,05,169,,18,30,204,,26,19,096,*73
$GPGSV,3,3,10,15,18,129,,16,15,319,*77
$GPRMC,235446.000,A,3748.7911,N,12217.8656,W,0.51,353.32,261010,,,A*76
$GPVTG,353.32,T,,M,0.51,N,0.9,K,A*04
$GPGGA,235447.000,3748.7912,N,12217.8655,W,1,05,1.8,-4.3,M,-25.1,M,,0000*4C
$GPGSA,A,3,05,30,21,29,25,,,,,,,,3.7,1.8,3.2*37
$GPRMC,235447.000,A,3748.7912,N,12217.8655,W,0.73,330.19,261010,,,A*7B
$GPVTG,330.19,T,,M,0.73,N,1.4,K,A*04
$GPGGA,235448.000,3748.7911,N,12217.8657,W,1,04,2.3,-3.2,M,-25.1,M,,0000*4D
$GPGSA,A,3,05,30,21,29,,,,,,,,,4.1,2.3,3.4*3F
$GPRMC,235448.000,A,3748.7911,N,12217.8657,W,0.13,151.82,261010,,,A*74
$GPVTG,151.82,T,,M,0.13,N,0.2,K,A*02
$GPGGA,235449.000,3748.7917,N,12217.8666,W,1,04,2.3,-5.2,M,-25.1,M,,0000*4E
$GPGSA,A,3,05,30,21,29,,,,,,,,,4.1,2.3,3.4*3F
$GPRMC,235449.000,A,3748.7917,N,12217.8666,W,1.06,351.27,261010,,,A*79
$GPVTG,351.27,T,,M,1.06,N,2.0,K,A*0A
$GPGGA,235450.000,3748.7925,N,12217.8671,W,1,04,2.3,-4.9,M,-25.1,M,,0000*4B
$GPGSA,A,3,05,30,21,29,,,,,,,,,4.1,2.3,3.4*3F
$GPRMC,235450.000,A,3748.7925,N,12217.8671,W,2.46,347.49,261010,,,A*7E
$GPVTG,347.49,T,,M,2.46,N,4.6,K,A*02
$GPGGA,235451.000,3748.7923,N,12217.8669,W,1,04,2.3,-3.2,M,-25.1,M,,0000*49
$GPGSA,A,3,05,30,21,29,,,,,,,,,4.1,2.3,3.4*3F
$GPGSV,3,1,11,29,79,056,16,21,51,282,25,30,43,216,16,05,34,048,27*7F
$GPGSV,3,2,11,25,31,192,,12,05,169,,18,30,204,,26,19,096,25*77
$GPGSV,3,3,11,15,18,129,,16,15,319,,48,00,000,28*40
$GPRMC,235451.000,A,3748.7923,N,12217.8669,W,1.61,346.88,261010,,,A*7A
$GPGGA,235452.000,3748.7929,N,12217.8670,W,1,04,2.3,-0.7,M,-25.1,M,,0000*4E
$GPGSA,A,3,05,30,21,29,,,,,,,,,4.1,2.3,3.4*3F
$GPRMC,235452.000,A,3748.7929,N,12217.8670,W,1.01,345.92,261010,,,A*75
$GPVTG,345.92,T,,M,1.01,N,1.9,K,A*0C
$GPGGA,235453.000,3748.7924,N,12217.8662,W,1,04,2.3,-4.1,M,-25.1,M,,0000*43
$GPGSA,A,3,05,30,21,29,,,,,,,,,4.1,2.3,3.4*3F
$GPRMC,235453.000,A,3748.7924,N,12217.8662,W,0.83,60.29,261010,,,A*45
$GPVTG,60.29,T,,M,0.83,N,1.5,K,A*3F
$GPGGA,235454.000,3748.7920,N,12217.8659,W,1,04,2.3,-4.9,M,-25.1,M,,0000*40
$GPGSA,A,3,05,30,21,29,,,,,,,,,4.1,2.3,3.4*3F
$GPRMC,235454.000,A,3748.7920,N,12217.8659,W,0.42,109.34,261010,,,A*71
$GPVTG,109.34,T,,M,0.42,N,0.8,K,A*0C
$GPGGA,235455.000,3748.7914,N,12217.8657,W,1,05,1.8,-5.9,M,-25.1,M,,0000*40
$GPGSA,A,3,05,30,21,29,25,,,,,,,,3.7,1.8,3.2*37
$GPRMC,235455.000,A,3748.7914,N,12217.8657,W,0.60,148.91,261010,,,A*73
$GPVTG,148.91,T,,M,0.60,N,1.1,K,A*0E
$GPGGA,235456.000,3748.7910,N,12217.8657,W,1,05,1.8,-6.4,M,-25.1,M,,0000*49
$GPGSA,A,3,05,30,21,29,25,,,,,,,,3.7,1.8,3.2*37
$GPGSV,3,1,10,29,79,056,26,21,51,282,32,30,43,216,27,05,34,048,26*78
$GPGSV,3,2,10,25,31,192,24,12,05,169,,18,30,204,,26,19,096,24*71
$GPGSV,3,3,10,15,18,129,,16,15,319,*77
$GPRMC,235456.000,A,3748.7910,N,12217.8657,W,0.56,149.16,261010,,,A*7F
$GPVTG,149.16,T,,M,0.56,N,1.0,K,A*04
$GPGGA,235457.000,3748.7906,N,12217.8659,W,1,05,1.8,-7.2,M,-25.1,M,,0000*46
$GPGSA,A,3,05,30,21,29,25,,,,,,,,3.6,1.8,3.2*36
$GPRMC,235457.000,A,3748.7906,N,12217.8659,W,0.56,158.57,261010,,,A*72
$GPVTG,158.57,T,,M,0.56,N,1.0,K,A*01
$GPGGA,235458.000,3748.7905,N,12217.8661,W,1,05,1.8,-8.3,M,-25.1,M,,0000*4F
$GPGSA,A,3,05,30,21,29,25,,,,,,,,3.6,1.8,3.2*36
$GPRMC,235458.000,A,3748.7905,N,12217.8661,W,0.33,154.83,261010,,,A*73
$GPVTG,154.83,T,,M,0.33,N,0.6,K,A*00
$GPGGA,235459.000,3748.7904,N,12217.8661,W,1,05,1.8,-8.1,M,-25.1,M,,0000*4D
$GPGSA,A,3,05,30,21,29,25,,,,,,,,3.6,1.8,3.2*36
$GPRMC,235459.000,A,3748.7904,N,12217.8661,W,0.29,137.48,261010,,,A*7A
$GPVTG,137.48,T,,M,0.29,N,0.5,K,A*0A
$GPGGA,235500.000,3748.7897,N,12217.8660,W,1,05,1.8,-8.7,M,-25.1,M,,0000*4C
$GPGSA,A,3,05,30,21,29,25,,,,,,,,3.6,1.8,3.2*36
$GPRMC,235500.000,A,3748.7897,N,12217.8660,W,0.50,210.06,261010,,,A*7F
$GPVTG,210.06,T,,M,0.50,N,0.9,K,A*04
$GPGGA,235501.000,3748.7896,N,12217.8663,W,1,04,2.2,-10.4,M,-25.1,M,,0000*7D
$GPGSA,A,3,30,21,29,25,,,,,,,,,2.4,2.2,1.0*39
$GPGSV,3,1,10,29,79,056,26,21,51,282,31,30,43,216,27,05,34,048,09*76
$GPGSV,3,2,10,25,31,192,26,12,05,169,,18,30,204,,26,19,096,24*73
$GPGSV,3,3,10,15,18,129,,16,15,319,*77
$GPRMC,235501.000,A,3748.7896,N,12217.8663,W,0.32,225.99,261010,,,A*78
$GPVTG,225.99,T,,M,0.32,N,0.6,K,A*0F
$GPGGA,235502.000,3748.7896,N,12217.8664,W,1,04,2.2,-11.0,M,-25.1,M,,0000*7C
$GPGSA,A,3,30,21,29,25,,,,,,,,,2.4,2.2,1.0*39
$GPRMC,235502.000,A,3748.7896,N,12217.8664,W,0.10,148.08,261010,,,A*7C
$GPVTG,148.08,T,,M,0.10,N,0.2,K,A*0B
$GPGGA,235503.000,3748.7896,N,12217.8668,W,1,05,1.8,-12.1,M,-25.1,M,,0000*7B
$GPGSA,A,3,05,30,21,29,25,,,,,,,,3.6,1.8,3.2*36
$GPRMC,235503.000,A,3748.7896,N,12217.8668,W,0.90,244.32,261010,,,A*7F
$GPVTG,244.32,T,,M,0.90,N,1.7,K,A*01
$GPGGA,235504.000,3748.7897,N,12217.8676,W,1,05,1.8,-13.6,M,-25.1,M,,0000*74
$GPGSA,A,3,05,30,21,29,25,,,,,,,,3.6,1.8,3.2*36
$GPRMC,235504.000,A,3748.7897,N,12217.8676,W,0.29,113.43,261010,,,A*73
$GPVTG,113.43,T,,M,0.29,N,0.5,K,A*07
$GPGGA,235505.000,3748.7902,N,12217.8679,W,1,05,1.8,-14.9,M,-25.1,M,,0000*7F
$GPGSA,A,3,05,30,21,29,25,,,,,,,,3.6,1.8,3.2*36
$GPRMC,235505.000,A,3748.7902,N,12217.8679,W,0.58,20.73,261010,,,A*44
$GPVTG,20.73,T,,M,0.58,N,1.1,K,A*36
$GPGGA,235506.000,3748.7894,N,12217.8667,W,1,05,1.8,-13.2,M,-25.1,M,,0000*71
$GPGSA,A,3,05,30,21,29,25,,,,,,,,3.6,1.8,3.2*36
$GPGSV,3,1,10,29,79,056,25,21,51,282,29,30,43,216,19,05,34,048,26*7C
$GPGSV,3,2,10,25,31,192,16,12,05,169,,18,30,204,,26,19,096,24*70
$GPGSV,3,3,10,15,18,129,,16,15,319,*77
$GPRMC,235506.000,A,3748.7894,N,12217.8667,W,0.96,120.76,261010,,,A*70
$GPVTG,120.76,T,,M,0.96,N,1.8,K,A*09
$GPGGA,235507.000,3748.7889,N,12217.8663,W,1,05,1.8,-11.1,M,-25.1,M,,0000*79
$GPGSA,A,3,05,30,21,29,25,,,,,,,,3.6,1.8,3.2*36
$GPRMC,235507.000,A,3748.7889,N,12217.8663,W,0.74,156.02,261010,,,A*77
$GPVTG,156.02,T,,M,0.74,N,1.4,K,A*0B
$GPGGA,235508.000,3748.7881,N,12217.8661,W,1,05,1.8,-11.0,M,-25.1,M,,0000*7D
$GPGSA,A,3,05,30,21,29,25,,,,,,,,3.6,1.8,3.2*36
$GPRMC,235508.000,A,3748.7881,N,12217.8661,W,0.88,158.92,261010,,,A*76
$GPVTG,158.92,T,,M,0.88,N,1.6,K,A*0D
$GPGGA,235509.000,3748.7891,N,12217.8661,W,1,04,1.9,-8.5,M,-25.1,M,,0000*40
$GPGSA,A,3,05,21,29,25,,,,,,,,,3.7,1.9,3.1*36
$GPRMC,235509.000,A,3748.7891,N,12217.8661,W,0.98,48.16,261010,,,A*4B
$GPVTG,48.16,T,,M,0.98,N,1.8,K,A*3E
$GPGGA,235510.000,3748.7910,N,12217.8675,W,1,05,1.8,-6.7,M,-25.1,M,,0000*49
$GPGSA,A,3,05,30,21,29,25,,,,,,,,3.6,1.8,3.1*35
$GPRMC,235510.000,A,3748.7910,N,12217.8675,W,2.20,345.84,261010,,,A*7A
$GPVTG,345.84,T,,M,2.20,N,4.1,K,A*06
$GPGGA,235511.000,3748.7907,N,12217.8684,W,1,05,1.8,-5.5,M,-25.1,M,,0000*41
$GPGSA,A,3,05,30,21,29,25,,,,,,,,3.6,1.8,3.1*35
$GPGSV,3,1,10,29,79,056,25,21,51,282,24,30,43,216,18,05,34,048,26*70
$GPGSV,3,2,10,25,31,192,23,12,05,169,,18,30,204,,26,19,096,24*76
$GPGSV,3,3,10,15,18,129,,16,15,319,*77
$GPRMC,235511.000,A,3748.7907,N,12217.8684,W,0.53,291.54,261010,,,A*70
$GPVTG,291.54,T,,M,0.53,N,1.0,K,A*01
$GPGGA,235512.000,3748.7905,N,12217.8682,W,1,05,1.8,-5.0,M,-25.1,M,,0000*43
$GPGSA,A,3,05,30,21,29,25,,,,,,,,3.6,1.8,3.1*35
$GPRMC,235512.000,A,3748.7905,N,12217.8682,W,0.46,102.60,261010,,,A*7D
$GPVTG,102.60,T,,M,0.46,N,0.8,K,A*02
$GPGGA,235513.000,3748.7898,N,12217.8679,W,1,04,2.2,-6.2,M,-25.1,M,,0000*4A
$GPGSA,A,3,30,21,29,25,,,,,,,,,2.4,2.2,1.0*39
$GPRMC,235513.000,A,3748.7898,N,12217.8679,W,0.72,159.55,261010,,,A*72
$GPVTG,159.55,T,,M,0.72,N,1.3,K,A*07
$GPGGA,235514.000,3748.7904,N,12217.8689,W,1,05,1.8,-9.8,M,-25.1,M,,0000*4B
$GPGSA,A,3,05,30,21,29,25,,,,,,,,3.6,1.8,3.1*35
$GPRMC,235514.000,A,3748.7904,N,12217.8689,W,0.21,218.12,261010,,,A*7D
$GPVTG,218.12,T,,M,0.21,N,0.4,K,A*02
$GPGGA,235515.000,3748.7907,N,12217.8700,W,1,05,1.8,-11.7,M,-25.1,M,,0000*7F
$GPGSA,A,3,05,30,21,29,25,,,,,,,,3.6,1.8,3.1*35
$GPRMC,235515.000,A,3748.7907,N,12217.8700,W,0.31,323.01,261010,,,A*75
$GPVTG,323.01,T,,M,0.31,N,0.6,K,A*0A
$GPGGA,235516.000,3748.7907,N,12217.8700,W,1,05,1.8,-13.6,M,-25.1,M,,0000*7F
$GPGSA,A,3,05,30,21,29,25,,,,,,,,3.6,1.8,3.1*35
$GPGSV,3,1,11,29,79,056,24,21,51,282,24,30,43,216,23,05,34,048,26*78
$GPGSV,3,2,11,25,31,192,20,12,05,169,,18,30,204,,26,19,096,*72
$GPGSV,3,3,11,15,18,129,,16,15,319,,48,00,000,28*40
$GPRMC,235516.000,A,3748.7907,N,12217.8700,W,0.27,298.21,261010,,,A*72
$GPVTG,298.21,T,,M,0.27,N,0.5,K,A*0D
$GPGGA,235517.000,3748.7916,N,12217.8701,W,1,05,1.8,-15.7,M,-25.1,M,,0000*78
$GPGSA,A,3,05,30,21,29,25,,,,,,,,3.6,1.8,3.1*35
$GPRMC,235517.000,A,3748.7916,N,12217.8701,W,0.11,111.53,261010,,,A*70
$GPVTG,111.53,T,,M,0.11,N,0.2,K,A*08
$GPGGA,235518.000,3748.7923,N,12217.8707,W,1,05,1.8,-21.2,M,-25.1,M,,0000*75
$GPGSA,A,3,05,30,21,29,25,,,,,,,,3.6,1.8,3.1*35
$GPRMC,235518.000,A,3748.7923,N,12217.8707,W,0.63,342.39,261010,,,A*72
$GPVTG,342.39,T,,M,0.63,N,1.2,K,A*04
$GPGGA,235519.000,3748.7918,N,12217.8701,W,1,05,1.8,-21.7,M,-25.1,M,,0000*7F
$GPGSA,A,3,05,30,21,29,25,,,,,,,,3.6,1.8,3.1*35
$GPRMC,235519.000,A,3748.7918,N,12217.8701,W,0.22,82.60,261010,,,A*4B
$GPVTG,82.60,T,,M,0.22,N,0.4,K,A*35
$GPGGA,235520.000,3748.7916,N,12217.8696,W,1,04,2.2,-21.8,M,-25.1,M,,0000*73
$GPGSA,A,3,30,21,29,25,,,,,,,,,2.4,2.2,1.0*39
$GPRMC,235520.000,A,3748.7916,N,12217.8696,W,0.90,57.63,261010,,,A*42
$GPVTG,57.63,T,,M,0.90,N,1.7,K,A*35
$GPGGA,235521.000,3748.7913,N,12217.8698,W,1,05,1.8,-20.7,M,-25.1,M,,0000*7F
$GPGSA,A,3,05,30,21,29,25,,,,,,,,3.6,1.8,3.1*35
$GPGSV,3,1,11,29,79,056,23,21,51,282,25,30,43,216,28,05,34,048,17*77
$GPGSV,3,2,11,25,31,192,22,12,05,169,,18,30,204,,26,19,096,22*70
$GPGSV,3,3,11,15,18,129,,16,15,319,,48,00,000,24*4C
$GPRMC,235521.000,A,3748.7913,N,12217.8698,W,0.23,55.47,261010,,,A*44
$GPVTG,55.47,T,,M,0.23,N,0.4,K,A*3B
$GPGGA,235522.000,3748.7908,N,12217.8698,W,1,05,1.8,-20.3,M,-25.1,M,,0000*72
$GPGSA,A,3,05,30,21,29,25,,,,,,,,3.6,1.8,3.1*35
$GPRMC,235522.000,A,3748.7908,N,12217.8698,W,0.12,316.04,261010,,,A*7C
$GPVTG,316.04,T,,M,0.12,N,0.2,K,A*0C
$GPGGA,235523.000,3748.7910,N,12217.8700,W,1,05,1.8,-19.6,M,-25.1,M,,0000*75
$GPGSA,A,3,05,30,21,29,25,,,,,,,,3.6,1.8,3.1*35
$GPRMC,235523.000,A,3748.7910,N,12217.8700,W,0.65,351.21,261010,,,A*70
$GPVTG,351.21,T,,M,0.65,N,1.2,K,A*09
$GPGGA,235524.000,3748.7908,N,12217.8692,W,1,05,1.8,-19.3,M,-25.1,M,,0000*74
$GPGSA,A,3,05,30,21,29,25,,,,,,,,3.6,1.8,3.1*35
$GPRMC,235524.000,A,3748.7908,N,12217.8692,W,0.59,94.33,261010,,,A*42
$GPVTG,94.33,T,,M,0.59,N,1.1,K,A*3C
$GPGGA,235525.000,3748.7907,N,12217.8685,W,1,05,1.8,-20.5,M,-25.1,M,,0000*70
$GPGSA,A,3,05,30,21,29,25,,,,,,,,3.6,1.8,3.1*35
$GPRMC,235525.000,A,3748.7907,N,12217.8685,W,1.18,120.98,261010,,,A*71
$GPVTG,120.98,T,,M,1.18,N,2.2,K,A*07
$GPGGA,235526.000,3748.7904,N,12217.8679,W,1,05,1.8,-20.0,M,-25.1,M,,0000*76
$GPGSA,A,3,05,30,21,29,25,,,,,,,,3.6,1.8,3.1*35
$GPGSV,3,1,10,29,79,056,23,21,51,282,26,30,43,216,27,05,34,048,26*78
$GPGSV,3,2,10,25,31,192,21,12,05,169,,18,30,204,18,26,19,096,22*7B
$GPGSV,3,3,10,15,18,129,,16,15,319,*77
$GPRMC,235526.000,A,3748.7904,N,12217.8679,W,0.87,102.44,261010,,,A*74
$GPVTG,102.44,T,,M,0.87,N,1.6,K,A*06
$GPGGA,235527.000,3748.7902,N,12217.8677,W,1,05,1.8,-19.5,M,-25.1,M,,0000*70
$GPGSA,A,3,05,30,21,29,25,,,,,,,,3.6,1.8,3.1*35
$GPRMC,235527.000,A,3748.7902,N,12217.8677,W,0.45,149.33,261010,,,A*7C
$GPVTG,149.33,T,,M,0.45,N,0.8,K,A*08
$GPGGA,235528.000,3748.7897,N,12217.8675,W,1,05,1.8,-17.5,M,-25.1,M,,0000*7E
$GPGSA,A,3,05,30,21,29,25,,,,,,,,3.6,1.8,3.1*35
$GPRMC,235528.000,A,3748.7897,N,12217.8675,W,0.27,163.74,261010,,,A*73
$GPVTG,163.74,T,,M,0.27,N,0.5,K,A*0A
$GPGGA,235529.000,3748.7894,N,12217.8677,W,1,05,1.8,-17.1,M,-25.1,M,,0000*7A
$GPGSA,A,3,05,30,21,29,25,,,,,,,,3.6,1.8,3.1*35
$GPRMC,235529.000,A,3748.7894,N,12217.8677,W,1.41,172.01,261010,,,A*70
$GPVTG,172.01,T,,M,1.41,N,2.6,K,A*08
$GPGGA,235530.000,3748.7886,N,12217.8678,W,1,05,1.8,-15.9,M,-25.1,M,,0000*74
$GPGSA,A,3,05,30,21,29,25,,,,,,,,3.6,1.8,3.1*35
$GPRMC,235530.000,A,3748.7886,N,12217.8678,W,1.90,171.03,261010,,,A*79
$GPVTG,171.03,T,,M,1.90,N,3.5,K,A*07
$GPGGA,235531.000,3748.7873,N,12217.8662,W,1,05,1.8,-16.8,M,-25.1,M,,0000*76
$GPGSA,A,3,05,30,21,29,25,,,,,,,,3.6,1.8,3.1*35
$GPGSV,3,1,10,29,79,056,23,21,51,282,27,30,43,216,22,05,34,048,26*7C
$GPGSV,3,2,10,25,31,192,15,12,05,169,,18,30,204,18,26,19,096,22*7C
$GPGSV,3,3,10,15,18,129,,16,15,319,*77
$GPRMC,235531.000,A,3748.7873,N,12217.8662,W,3.98,153.85,261010,,,A*7D
$GPVTG,153.85,T,,M,3.98,N,7.4,K,A*06
$GPGGA,235532.000,3748.7871,N,12217.8659,W,1,05,1.8,-16.1,M,-25.1,M,,0000*76
$GPGSA,A,3,05,30,21,29,25,,,,,,,,3.6,1.8,3.1*35
$GPRMC,235532.000,A,3748.7871,N,12217.8659,W,2.23,156.25,261010,,,A*7A
$GPVTG,156.25,T,,M,2.23,N,4.1,K,A*0E
$GPGGA,235533.000,3748.7873,N,12217.8660,W,1,05,1.8,-16.2,M,-25.1,M,,0000*7C
$GPGSA,A,3,05,30,21,29,25,,,,,,,,3.6,1.8,3.1*35
$GPRMC,235533.000,A,3748.7873,N,12217.8660,W,0.68,129.82,261010,,,A*7B
$GPVTG,129.82,T,,M,0.68,N,1.3,K,A*01
$GPGGA,235534.000,3748.7871,N,12217.8659,W,1,05,1.8,-14.8,M,-25.1,M,,0000*7B
$GPGSA,A,3,05,30,21,29,25,,,,,,,,3.6,1.8,3.1*35
$GPRMC,235534.000,A,3748.7871,N,12217.8659,W,0.79,11.26,261010,,,A*40
$GPVTG,11.26,T,,M,0.79,N,1.5,K,A*33
$GPGGA,235535.000,3748.7872,N,12217.8663,W,1,05,1.8,-14.2,M,-25.1,M,,0000*7A
$GPGSA,A,3,05,30,21,29,25,,,,,,,,3.6,1.8,3.1*35
$GPRMC,235535.000,A,3748.7872,N,12217.8663,W,0.09,358.70,261010,,,A*71
$GPVTG,358.70,T,,M,0.09,N,0.2,K,A*0F
$GPGGA,235536.000,3748.7873,N,12217.8668,W,1,05,1.8,-11.6,M,-25.1,M,,0000*72
$GPGSA,A,3,05,30,21,29,25,,,,,,,,3.6,1.8,3.1*35
$GPGSV,3,1,10,29,79,056,23,21,51,282,27,30,43,216,27,05,34,048,26*79
$GPGSV,3,2,10,25,31,192,18,12,05,169,,18,30,204,17,26,19,096,22*7E
$GPGSV,3,3,10,15,18,129,,16,15,319,*77
$GPRMC,235536.000,A,3748.7873,N,12217.8668,W,0.66,224.77,261010,,,A*7C
$GPVTG,224.77,T,,M,0.66,N,1.2,K,A*0A
$GPGGA,235537.000,3748.7876,N,12217.8665,W,1,05,1.8,-9.9,M,-25.1,M,,0000*4D
$GPGSA,A,3,05,30,21,29,25,,,,,,,,3.6,1.8,3.1*35
$GPRMC,235537.000,A,3748.7876,N,12217.8665,W,0.57,186.73,261010,,,A*78
$GPVTG,186.73,T,,M,0.57,N,1.0,K,A*05
                        