$ADVER,3080,2.3
$GPRMC,191604.697,A,3748.7999,N,12217.8622,W,0.05,44.70,231211,,,A*40
$GPRMC,191605.697,A,3748.8000,N,12217.8614,W,0.07,36.60,231211,,,A*44
$GPRMC,191606.000,A,3748.8000,N,12217.8614,W,0.08,12.50,231211,,,A*45
$GPRMC,191607.000,A,3748.8000,N,12217.8614,W,0.09,32.44,231211,,,A*42
$GPRMC,191608.000,A,3748.8001,N,12217.8613,W,0.10,37.49,231211,,,A*4B
$GPRMC,191609.000,A,3748.8001,N,12217.8612,W,0.08,31.68,231211,,,A*47
$GPRMC,191610.000,A,3748.8001,N,12217.8612,W,0.09,27.00,231211,,,A*47
$GPRMC,191611.000,A,3748.8001,N,12217.8612,W,0.08,49.20,231211,,,A*4D
$GPRMC,191612.000,A,3748.8001,N,12217.8611,W,0.14,24.77,231211,,,A*49
$GPRMC,191613.000,A,3748.8008,N,12217.8609,W,0.23,22.13,231211,,,A*48
$GPRMC,191614.000,A,3748.8011,N,12217.8608,W,0.12,19.17,231211,,,A*48
$GPRMC,191615.000,A,3748.8013,N,12217.8608,W,0.12,27.39,231211,,,A*4A
$GPRMC,191616.000,A,3748.8014,N,12217.8607,W,0.11,42.89,231211,,,A*4A
$GPRMC,191617.000,A,3748.8014,N,12217.8607,W,0.10,35.86,231211,,,A*45
$GPRMC,191618.000,A,3748.8014,N,12217.8606,W,0.07,44.64,231211,,,A*47
$GPRMC,191619.000,A,3748.8014,N,12217.8606,W,0.09,35.24,231211,,,A*4A
$GPRMC,191620.000,A,3748.8014,N,12217.8606,W,0.11,40.28,231211,,,A*47
$GPRMC,191621.000,A,3748.8014,N,12217.8606,W,0.08,39.39,231211,,,A*40
$GPRMC,191622.000,A,3748.8013,N,12217.8606,W,0.05,75.57,231211,,,A*49
$GPRMC,191623.000,A,3748.8012,N,12217.8606,W,0.08,64.79,231211,,,A*48
$GPRMC,191624.000,A,3748.8011,N,12217.8606,W,0.04,103.73,231211,,,A*7A
$GPRMC,191625.000,A,3748.8010,N,12217.8606,W,0.06,99.16,231211,,,A*49
$GPRMC,191626.000,A,3748.8010,N,12217.8606,W,0.04,88.97,231211,,,A*41
$GPRMC,191627.000,A,3748.8009,N,12217.8606,W,0.05,87.31,231211,,,A*4A
$GPRMC,191628.000,A,3748.8009,N,12217.8605,W,0.04,38.01,231211,,,A*40
$GPRMC,191629.000,A,3748.8009,N,12217.8605,W,0.03,20.93,231211,,,A*44
$GPRMC,191630.000,A,3748.8010,N,12217.8605,W,0.05,19.45,231211,,,A*43
$GPRMC,191631.000,A,3748.8010,N,12217.8605,W,0.04,30.23,231211,,,A*48
$GPRMC,191632.000,A,3748.8010,N,12217.8605,W,0.06,36.83,231211,,,A*45
$GPRMC,191633.000,A,3748.8010,N,12217.8604,W,0.03,32.01,231211,,,A*4E
$GPRMC,191634.000,A,3748.8010,N,12217.8604,W,0.03,38.04,231211,,,A*46
$GPRMC,191635.000,A,3748.8011,N,12217.8604,W,0.06,37.37,231211,,,A*4C
$GPRMC,191636.000,A,3748.8011,N,12217.8604,W,0.04,52.88,231211,,,A*4A
$GPRMC,191637.000,A,3748.8011,N,12217.8604,W,0.06,16.36,231211,,,D*49
$GPRMC,191638.000,A,3748.8011,N,12217.8604,W,0.07,17.13,231211,,,D*41
$GPRMC,191639.000,A,3748.8011,N,12217.8604,W,0.09,29.52,231211,,,D*46
$GPRMC,191640.000,A,3748.8010,N,12217.8604,W,0.04,265.44,231211,,,D*79
$GPRMC,191641.000,A,3748.8010,N,12217.8605,W,0.08,234.51,231211,,,D*75
$GPRMC,191642.000,A,3748.8009,N,12217.8605,W,0.07,219.22,231211,,,D*7A
$GPRMC,191643.000,A,3748.8009,N,12217.8605,W,0.06,229.38,231211,,,D*72
$GPRMC,191644.000,A,3748.8008,N,12217.8606,W,0.10,205.20,231211,,,D*77
$GPRMC,191645.000,A,3748.8008,N,12217.8606,W,0.08,192.04,231211,,,D*74
$GPRMC,191646.000,A,3748.8008,N,12217.8605,W,0.08,182.15,231211,,,D*75
$GPRMC,191647.000,A,3748.8008,N,12217.8605,W,0.08,173.78,231211,,,D*71
$GPRMC,191648.000,A,3748.8007,N,12217.8605,W,0.07,176.77,231211,,,D*74
$GPRMC,191649.000,A,3748.8007,N,12217.8606,W,0.01,61.87,231211,,,D*48
$GPRMC,191650.000,A,3748.8008,N,12217.8606,W,0.03,329.67,231211,,,D*7C
$GPRMC,191651.000,A,3748.8008,N,12217.8606,W,0.03,29.18,231211,,,D*46
$GPRMC,191652.000,A,3748.8008,N,12217.8606,W,0.02,307.74,231211,,,D*71
$GPRMC,191653.000,A,3748.8008,N,12217.8606,W,0.03,11.02,231211,,,D*44
$GPRMC,191654.000,A,3748.8008,N,12217.8607,W,0.02,359.64,231211,,,D*7C
$GPRMC,191655.000,A,3748.8008,N,12217.8607,W,0.04,197.65,231211,,,D*7A
$GPRMC,191656.000,A,3748.8007,N,12217.8607,W,0.05,153.40,231211,,,D*78
$GPRMC,191657.000,A,3748.8007,N,12217.8607,W,0.04,139.21,231211,,,D*73
$GPRMC,191658.000,A,3748.8007,N,12217.8607,W,0.06,132.74,231211,,,D*75
$GPRMC,191659.000,A,3748.8007,N,12217.8607,W,0.06,141.58,231211,,,D*7E
$GPRMC,191700.000,A,3748.8006,N,12217.8607,W,0.05,132.37,231211,,,D*7C
$GPRMC,191701.000,A,3748.8006,N,12217.8607,W,0.05,49.81,231211,,,D*4D
$GPRMC,191702.000,A,3748.8006,N,12217.8607,W,0.05,16.94,231211,,,D*40
$GPRMC,191703.000,A,3748.8006,N,12217.8607,W,0.03,340.48,231211,,,D*76
$GPRMC,191704.000,A,3748.8006,N,12217.8607,W,0.03,345.18,231211,,,D*71
$GPRMC,191705.000,A,3748.8006,N,12217.8608,W,0.03,342.29,231211,,,D*7A
$GPRMC,191706.000,A,3748.8007,N,12217.8608,W,0.04,355.17,231211,,,D*74
$GPRMC,191707.000,A,3748.8006,N,12217.8608,W,0.03,197.34,231211,,,D*7E
$GPRMC,191708.000,A,3748.8006,N,12217.8608,W,0.05,156.69,231211,,,D*72
$GPRMC,191709.000,A,3748.8006,N,12217.8608,W,0.05,129.22,231211,,,D*74
$GPRMC,191710.000,A,3748.8006,N,12217.8608,W,0.05,149.28,231211,,,D*70
$GPRMC,191711.000,A,3748.8006,N,12217.8608,W,0.04,141.57,231211,,,D*70
$GPRMC,191712.000,A,3748.8006,N,12217.8608,W,0.03,161.22,231211,,,D*74
$GPRMC,191713.000,A,3748.8006,N,12217.8608,W,0.20,330.81,231211,,,D*7B
$GPRMC,191714.000,A,3748.8006,N,12217.8609,W,0.23,218.55,231211,,,D*7C
$GPRMC,191715.000,A,3748.8005,N,12217.8611,W,0.26,195.30,231211,,,D*77
$GPRMC,191716.000,A,3748.8002,N,12217.8612,W,0.34,171.78,231211,,,D*75
$GPRMC,191717.000,A,3748.8001,N,12217.8613,W,0.10,134.25,231211,,,D*79
$GPRMC,191718.000,A,3748.8001,N,12217.8614,W,0.62,335.06,231211,,,D*76
$GPRMC,191719.000,A,3748.8001,N,12217.8616,W,0.07,291.35,231211,,,D*79
$GPRMC,191720.000,A,3748.7999,N,12217.8617,W,0.20,121.02,231211,,,D*7C
$GPRMC,191721.000,A,3748.7999,N,12217.8619,W,0.13,335.56,231211,,,D*75
$GPRMC,191722.000,A,3748.7999,N,12217.8619,W,0.12,81.86,231211,,,D*46
$GPRMC,191723.000,A,3748.7998,N,12217.8619,W,0.14,250.93,231211,,,D*7A
$GPRMC,191724.000,A,3748.7997,N,12217.8617,W,0.89,74.25,231211,,,D*41
$GPRMC,191725.000,A,3748.8000,N,12217.8617,W,0.65,354.32,231211,,,D*7D
$GPRMC,191726.000,A,3748.8000,N,12217.8615,W,0.59,110.01,231211,,,D*71
$GPRMC,191727.000,A,3748.8000,N,12217.8616,W,1.20,260.93,231211,,,D*73
$GPRMC,191728.000,A,3748.8000,N,12217.8617,W,1.52,159.22,231211,,,D*7B
$GPRMC,191729.000,A,3748.7997,N,12217.8616,W,0.72,175.72,231211,,,D*7B
$GPRMC,191730.000,A,3748.7994,N,12217.8614,W,1.07,123.37,231211,,,D*73
$GPRMC,191731.000,A,3748.7992,N,12217.8612,W,0.14,78.78,231211,,,D*45
$GPRMC,191732.000,A,3748.7991,N,12217.8612,W,0.29,158.13,231211,,,D*75
$GPRMC,191733.000,A,3748.7990,N,12217.8612,W,0.23,280.15,231211,,,D*7F
$GPRMC,191734.000,A,3748.7989,N,12217.8613,W,0.18,264.99,231211,,,D*77
$GPRMC,191735.000,A,3748.7988,N,12217.8614,W,0.21,305.14,231211,,,D*79
$GPRMC,191736.000,A,3748.7986,N,12217.8614,W,0.08,307.31,231211,,,D*7A
$GPRMC,191737.000,A,3748.7985,N,12217.8611,W,0.04,84.47,231211,,,D*48
$GPRMC,191738.000,A,3748.7984,N,12217.8611,W,0.16,57.19,231211,,,D*40
$GPRMC,191739.000,A,3748.7983,N,12217.8610,W,0.42,123.01,231211,,,D*7D
$GPRMC,191740.000,A,3748.7980,N,12217.8610,W,0.35,143.20,231211,,,D*75
$GPRMC,191741.000,A,3748.7975,N,12217.8610,W,0.19,131.72,231211,,,D*72
$GPRMC,191742.000,A,3748.7972,N,12217.8608,W,0.08,205.47,231211,,,D*7D
$GPRMC,191743.000,A,3748.7970,N,12217.8607,W,0.18,322.07,231211,,,D*70
$GPRMC,191744.000,A,3748.7968,N,12217.8604,W,0.07,121.89,231211,,,D*74
$GPRMC,191745.000,A,3748.7967,N,12217.8602,W,0.02,234.74,231211,,,D*7C
$GPRMC,191746.000,A,3748.7967,N,12217.8601,W,0.09,294.72,231211,,,D*7B
$GPRMC,191747.000,A,3748.7967,N,12217.8600,W,0.18,303.69,231211,,,D*7E
$GPRMC,191748.000,A,3748.7967,N,12217.8599,W,0.09,306.30,231211,,,D*7B
$GPRMC,191749.000,A,3748.7965,N,12217.8598,W,0.11,172.51,231211,,,D*76
$GPRMC,191750.000,A,3748.7964,N,12217.8594,W,0.07,37.89,231211,,,D*41
$GPRMC,191751.000,A,3748.7964,N,12217.8591,W,0.15,314.43,231211,,,D*72
$GPRMC,191752.000,A,3748.7961,N,12217.8590,W,0.06,118.32,231211,,,D*7F
$GPRMC,191753.000,A,3748.7962,N,12217.8591,W,0.12,154.78,231211,,,D*7F
$GPRMC,191754.000,A,3748.7962,N,12217.8591,W,0.34,182.04,231211,,,D*7C
$GPRMC,191755.000,A,3748.7961,N,12217.8591,W,0.39,174.94,231211,,,D*73
$GPRMC,191756.000,A,3748.7963,N,12217.8596,W,0.38,205.06,231211,,,D*7A
$GPRMC,191757.000,A,3748.7961,N,12217.8595,W,1.56,131.23,231211,,,D*70
$GPRMC,191758.000,A,3748.7959,N,12217.8591,W,1.66,129.36,231211,,,D*7E
$GPRMC,191759.000,A,3748.7956,N,12217.8586,W,1.72,123.50,231211,,,D*79
$GPRMC,191800.000,A,3748.7952,N,12217.8582,W,1.61,119.31,231211,,,D*76
$GPRMC,191801.000,A,3748.7952,N,12217.8576,W,1.40,97.78,231211,,,D*45
$GPRMC,191802.000,A,3748.7949,N,12217.8568,W,1.73,110.16,231211,,,D*75
$GPRMC,191803.000,A,3748.7948,N,12217.8560,W,1.77,114.95,231211,,,D*76
$GPRMC,191804.000,A,3748.7949,N,12217.8552,W,1.68,109.23,231211,,,D*7E
$GPRMC,191805.000,A,3748.7953,N,12217.8546,W,1.56,81.47,231211,,,D*4F
$GPRMC,191806.000,A,3748.7956,N,12217.8541,W,1.01,66.32,231211,,,D*47
$GPRMC,191807.000,A,3748.7956,N,12217.8538,W,1.12,104.73,231211,,,D*7A
$GPRMC,191808.000,A,3748.7955,N,12217.8533,W,1.71,119.47,231211,,,D*73
$GPRMC,191809.000,A,3748.7950,N,12217.8524,W,1.84,121.36,231211,,,D*76
$GPRMC,191810.000,A,3748.7947,N,12217.8518,W,1.41,117.81,231211,,,D*77
$GPRMC,191811.000,A,3748.7945,N,12217.8512,W,1.20,116.77,231211,,,D*71
$GPRMC,191812.000,A,3748.7945,N,12217.8513,W,1.44,123.17,231211,,,D*71
$GPRMC,191813.000,A,3748.7943,N,12217.8515,W,1.69,125.85,231211,,,D*72
$GPRMC,191814.000,A,3748.7940,N,12217.8512,W,1.48,117.67,231211,,,D*7F
$GPRMC,191815.000,A,3748.7936,N,12217.8505,W,1.69,105.85,231211,,,D*75
$GPRMC,191816.000,A,3748.7937,N,12217.8503,W,1.23,91.94,231211,,,D*43
$GPRMC,191817.000,A,3748.7936,N,12217.8497,W,1.63,98.86,231211,,,D*41
$GPRMC,191818.000,A,3748.7932,N,12217.8487,W,1.90,105.57,231211,,,D*7E
$GPRMC,191819.000,A,3748.7928,N,12217.8478,W,1.50,118.11,231211,,,D*76
$GPRMC,191820.000,A,3748.7923,N,12217.8471,W,1.37,132.94,231211,,,D*7A
$GPRMC,191821.000,A,3748.7920,N,12217.8465,W,1.02,120.19,231211,,,D*7D
$GPRMC,191822.000,A,3748.7913,N,12217.8463,W,0.79,114.30,231211,,,D*79
$GPRMC,191823.000,A,3748.7910,N,12217.8460,W,1.10,92.45,231211,,,D*4B
$GPRMC,191824.000,A,3748.7907,N,12217.8458,W,1.16,116.47,231211,,,D*78
$GPRMC,191825.000,A,3748.7902,N,12217.8454,W,1.13,113.18,231211,,,D*7A
$GPRMC,191826.000,A,3748.7899,N,12217.8450,W,0.82,84.63,231211,,,D*44
$GPRMC,191827.000,A,3748.7898,N,12217.8445,W,1.15,87.51,231211,,,D*4D
$GPRMC,191828.000,A,3748.7897,N,12217.8439,W,1.23,97.76,231211,,,D*47
$GPRMC,191829.000,A,3748.7897,N,12217.8433,W,1.05,97.30,231211,,,D*4A
$GPRMC,191830.000,A,3748.7893,N,12217.8429,W,0.83,116.79,231211,,,D*77
$GPRMC,191831.000,A,3748.7889,N,12217.8421,W,1.36,103.68,231211,,,D*7E
$GPRMC,191832.000,A,3748.7885,N,12217.8411,W,1.93,116.72,231211,,,D*72
$GPRMC,191833.000,A,3748.7878,N,12217.8406,W,1.49,118.04,231211,,,D*7F
$GPRMC,191834.000,A,3748.7872,N,12217.8398,W,2.04,117.53,231211,,,D*75
$GPRMC,191835.000,A,3748.7865,N,12217.8392,W,1.35,110.75,231211,,,D*7A
$GPRMC,191836.000,A,3748.7858,N,12217.8385,W,1.03,115.74,231211,,,D*70
$GPRMC,191837.000,A,3748.7854,N,12217.8379,W,1.41,97.87,231211,,,D*4F
$GPRMC,191838.000,A,3748.7851,N,12217.8373,W,1.13,96.88,231211,,,D*46
$GPRMC,191839.000,A,3748.7849,N,12217.8368,W,1.06,99.13,231211,,,D*4D
$GPRMC,191839.000,A,3748.7851,N,12217.8362,W,0.91,84.21,231211,,,D*4C
$GPRMC,191840.000,A,3748.7851,N,12217.8361,W,0.81,87.46,231211,,,D*42
$GPRMC,191841.000,A,3748.7848,N,12217.8354,W,1.38,110.42,231211,,,D*75
$GPRMC,191842.000,A,3748.7844,N,12217.8344,W,1.68,124.71,231211,,,D*79
$GPRMC,191843.000,A,3748.7842,N,12217.8335,W,1.58,106.92,231211,,,D*76
$GPRMC,191844.000,A,3748.7839,N,12217.8324,W,1.74,108.77,231211,,,D*76
$GPRMC,191845.000,A,3748.7836,N,12217.8313,W,1.91,103.07,231211,,,D*7B
$GPRMC,191846.000,A,3748.7832,N,12217.8305,W,1.61,114.55,231211,,,D*75
$GPRMC,191847.000,A,3748.7833,N,12217.8301,W,1.42,112.97,231211,,,D*78
$GPRMC,191848.000,A,3748.7828,N,12217.8296,W,1.43,108.57,231211,,,D*74
$GPRMC,191849.000,A,3748.7820,N,12217.8288,W,1.07,114.29,231211,,,D*76
$GPRMC,191850.000,A,3748.7816,N,12217.8285,W,1.87,112.93,231211,,,D*79
$GPRMC,191851.000,A,3748.7811,N,12217.8279,W,1.75,115.53,231211,,,D*7A
$GPRMC,191852.000,A,3748.7809,N,12217.8272,W,2.11,122.43,231211,,,D*7F
$GPRMC,191853.000,A,3748.7808,N,12217.8264,W,2.00,119.61,231211,,,D*70
$GPRMC,191854.000,A,3748.7806,N,12217.8256,W,2.06,115.60,231211,,,D*73
$GPRMC,191855.000,A,3748.7803,N,12217.8248,W,1.85,115.34,231211,,,D*71
$GPRMC,191856.000,A,3748.7799,N,12217.8237,W,1.77,112.48,231211,,,D*77
$GPRMC,191857.000,A,3748.7796,N,12217.8230,W,0.87,109.74,231211,,,D*75
$GPRMC,191858.000,A,3748.7794,N,12217.8225,W,0.16,80.58,231211,,,D*4A
$GPRMC,191859.000,A,3748.7793,N,12217.8222,W,0.13,88.33,231211,,,D*4B
$GPRMC,191900.000,A,3748.7790,N,12217.8219,W,0.83,177.63,231211,,,D*70
$GPRMC,191901.000,A,3748.7788,N,12217.8220,W,0.92,179.28,231211,,,D*73
$GPRMC,191902.000,A,3748.7786,N,12217.8218,W,0.21,138.68,231211,,,D*7C
$GPRMC,191903.000,A,3748.7781,N,12217.8213,W,0.47,74.90,231211,,,D*4F
$GPRMC,191904.000,A,3748.7778,N,12217.8206,W,1.10,94.42,231211,,,D*48
$GPRMC,191905.000,A,3748.7777,N,12217.8200,W,1.51,105.70,231211,,,D*7D
$GPRMC,191906.000,A,3748.7776,N,12217.8194,W,1.33,109.95,231211,,,D*72
$GPRMC,191907.000,A,3748.7773,N,12217.8189,W,1.72,128.94,231211,,,D*7D
$GPRMC,191908.000,A,3748.7771,N,12217.8184,W,2.20,111.08,231211,,,D*76
$GPRMC,191909.000,A,3748.7766,N,12217.8178,W,1.73,124.23,231211,,,D*78
$GPRMC,191910.000,A,3748.7763,N,12217.8175,W,1.77,133.15,231211,,,D*7F
$GPRMC,191911.000,A,3748.7759,N,12217.8169,W,1.38,126.39,231211,,,D*7B
$GPRMC,191912.000,A,3748.7753,N,12217.8168,W,1.78,108.08,231211,,,D*79
$GPRMC,191913.000,A,3748.7750,N,12217.8157,W,1.95,117.79,231211,,,D*7C
$GPRMC,191914.000,A,3748.7745,N,12217.8152,W,1.90,126.76,231211,,,D*72
$GPRMC,191915.000,A,3748.7745,N,12217.8145,W,1.83,110.80,231211,,,D*7B
$GPRMC,191916.000,A,3748.7743,N,12217.8138,W,1.67,96.19,231211,,,D*41
$GPRMC,191917.000,A,3748.7742,N,12217.8133,W,1.66,107.39,231211,,,D*70
$GPRMC,191918.000,A,3748.7741,N,12217.8126,W,1.64,115.70,231211,,,D*74
$GPRMC,191919.000,A,3748.7740,N,12217.8119,W,1.60,106.47,231211,,,D*7A
$GPRMC,191920.000,A,3748.7738,N,12217.8112,W,1.76,111.87,231211,,,D*79
$GPRMC,191921.000,A,3748.7734,N,12217.8104,W,1.81,120.59,231211,,,D*7A
$GPRMC,191922.000,A,3748.7730,N,12217.8098,W,1.51,128.79,231211,,,D*7E
$GPRMC,191923.000,A,3748.7725,N,12217.8094,W,1.68,137.62,231211,,,D*79
$GPRMC,191924.000,A,3748.7721,N,12217.8089,W,1.88,135.26,231211,,,D*7A
$GPRMC,191925.000,A,3748.7717,N,12217.8082,W,1.65,133.36,231211,,,D*71
$GPRMC,191926.000,A,3748.7715,N,12217.8079,W,1.02,109.52,231211,,,D*7E
$GPRMC,191927.000,A,3748.7713,N,12217.8073,W,1.09,71.56,231211,,,D*42
$GPRMC,191928.000,A,3748.7712,N,12217.8066,W,1.10,80.34,231211,,,D*4A
$GPRMC,191929.000,A,3748.7710,N,12217.8057,W,1.20,73.44,231211,,,D*43
$GPRMC,191930.000,A,3748.7707,N,12217.8055,W,0.38,23.80,231211,,,D*4A
$GPRMC,191931.000,A,3748.7708,N,12217.8055,W,0.33,310.95,231211,,,D*78
$GPRMC,191932.000,A,3748.7707,N,12217.8053,W,0.43,322.95,231211,,,D*74
$GPRMC,191933.000,A,3748.7706,N,12217.8052,W,0.19,9.69,231211,,,D*73
$GPRMC,191934.000,A,3748.7706,N,12217.8049,W,0.41,75.14,231211,,,D*42
$GPRMC,191935.000,A,3748.7705,N,12217.8045,W,1.21,108.10,231211,,,D*74
$GPRMC,191936.000,A,3748.7702,N,12217.8039,W,1.43,115.19,231211,,,D*7A
$GPRMC,191937.000,A,3748.7701,N,12217.8032,W,1.38,96.79,231211,,,D*43
$GPRMC,191938.000,A,3748.7696,N,12217.8028,W,1.89,108.00,231211,,,D*7A
$GPRMC,191939.000,A,3748.7692,N,12217.8017,W,1.88,118.35,231211,,,D*75
$GPRMC,191940.000,A,3748.7684,N,12217.8012,W,2.24,119.92,231211,,,D*70
$GPRMC,191941.000,A,3748.7678,N,12217.8006,W,2.31,128.88,231211,,,D*7A
$GPRMC,191942.000,A,3748.7672,N,12217.8000,W,2.04,128.90,231211,,,D*7A
$GPRMC,191943.000,A,3748.7664,N,12217.7996,W,2.07,135.60,231211,,,D*75
$GPRMC,191944.000,A,3748.7658,N,12217.7987,W,1.98,132.31,231211,,,D*7B
$GPRMC,191945.000,A,3748.7653,N,12217.7977,W,2.01,117.14,231211,,,D*7D
$GPRMC,191946.000,A,3748.7650,N,12217.7968,W,1.66,108.61,231211,,,D*7D
$GPRMC,191947.000,A,3748.7647,N,12217.7960,W,1.90,117.10,231211,,,D*73
$GPRMC,191948.000,A,3748.7643,N,12217.7951,W,2.19,119.38,231211,,,D*7C
$GPRMC,191949.000,A,3748.7641,N,12217.7941,W,2.58,112.84,231211,,,D*77
$GPRMC,191950.000,A,3748.7638,N,12217.7928,W,2.14,94.75,231211,,,D*47
$GPRMC,191951.000,A,3748.7637,N,12217.7920,W,1.53,93.20,231211,,,D*46
$GPRMC,191952.000,A,3748.7636,N,12217.7912,W,1.53,102.37,231211,,,D*7A
$GPRMC,191953.000,A,3748.7633,N,12217.7904,W,2.03,107.77,231211,,,D*7E
$GPRMC,191954.000,A,3748.7630,N,12217.7896,W,2.33,111.02,231211,,,D*76
$GPRMC,191955.000,A,3748.7629,N,12217.7889,W,1.94,114.77,231211,,,D*78
$GPRMC,191956.000,A,3748.7624,N,12217.7880,W,2.08,115.71,231211,,,D*7E
$GPRMC,191957.000,A,3748.7620,N,12217.7873,W,2.00,108.68,231211,,,D*7B
$GPRMC,191958.000,A,3748.7618,N,12217.7865,W,1.94,98.75,231211,,,D*42
$GPRMC,191959.000,A,3748.7615,N,12217.7857,W,2.10,109.76,231211,,,D*7A
$GPRMC,192000.000,A,3748.7613,N,12217.7850,W,1.47,106.60,231211,,,D*74
$GPRMC,192001.000,A,3748.7611,N,12217.7845,W,1.64,110.14,231211,,,D*76
$GPRMC,192002.000,A,3748.7611,N,12217.7840,W,1.75,111.78,231211,,,D*7B
$GPRMC,192003.000,A,3748.7609,N,12217.7834,W,1.76,119.80,231211,,,D*7C
$GPRMC,192004.000,A,3748.7606,N,12217.7825,W,1.80,119.23,231211,,,D*74
$GPRMC,192005.000,A,3748.7601,N,12217.7818,W,2.12,127.74,231211,,,D*7B
$GPRMC,192006.000,A,3748.7597,N,12217.7812,W,2.21,126.89,231211,,,D*7D
$GPRMC,192007.000,A,3748.7592,N,12217.7805,W,1.98,127.07,231211,,,D*79
$GPRMC,192008.000,A,3748.7590,N,12217.7801,W,1.81,119.71,231211,,,D*74
$GPRMC,192009.000,A,3748.7589,N,12217.7797,W,1.93,111.81,231211,,,D*79
$GPRMC,192010.000,A,3748.7587,N,12217.7789,W,2.28,110.50,231211,,,D*7E
$GPRMC,192011.000,A,3748.7585,N,12217.7782,W,2.16,110.49,231211,,,D*73
$GPRMC,192012.000,A,3748.7582,N,12217.7776,W,1.71,115.49,231211,,,D*7B
$GPRMC,192013.000,A,3748.7579,N,12217.7770,W,1.92,111.87,231211,,,D*73
$GPRMC,192014.000,A,3748.7576,N,12217.7763,W,2.47,110.59,231211,,,D*70
$GPRMC,192015.000,A,3748.7571,N,12217.7752,W,2.53,108.73,231211,,,D*70
$GPRMC,192016.000,A,3748.7569,N,12217.7742,W,2.38,103.17,231211,,,D*7F
$GPRMC,192017.000,A,3748.7567,N,12217.7735,W,1.72,109.27,231211,,,D*74
$GPRMC,192018.000,A,3748.7562,N,12217.7730,W,1.90,119.90,231211,,,D*7A
$GPRMC,192019.000,A,3748.7558,N,12217.7721,W,1.89,119.76,231211,,,D*72
$GPRMC,192020.000,A,3748.7554,N,12217.7715,W,1.92,120.22,231211,,,D*72
$GPRMC,192021.000,A,3748.7550,N,12217.7707,W,2.05,119.11,231211,,,D*73
$GPRMC,192022.000,A,3748.7545,N,12217.7697,W,2.13,113.86,231211,,,D*7F
$GPRMC,192023.000,A,3748.7539,N,12217.7685,W,2.01,114.93,231211,,,D*76
$GPRMC,192024.000,A,3748.7536,N,12217.7676,W,1.82,107.86,231211,,,D*7C
$GPRMC,192025.000,A,3748.7534,N,12217.7669,W,1.98,114.10,231211,,,D*77
$GPRMC,192026.000,A,3748.7531,N,12217.7662,W,2.10,121.26,231211,,,D*7A
$GPRMC,192027.000,A,3748.7529,N,12217.7657,W,1.83,114.49,231211,,,D*72
$GPRMC,192028.000,A,3748.7528,N,12217.7652,W,1.78,111.23,231211,,,D*74
$GPRMC,192029.000,A,3748.7527,N,12217.7647,W,1.73,105.85,231211,,,D*7C
$GPRMC,192030.000,A,3748.7526,N,12217.7642,W,1.77,113.31,231211,,,D*7C
$GPRMC,192031.000,A,3748.7524,N,12217.7635,W,1.84,114.78,231211,,,D*79
$GPRMC,192032.000,A,3748.7521,N,12217.7624,W,2.56,122.10,231211,,,D*78
$GPRMC,192033.000,A,3748.7516,N,12217.7615,W,1.88,123.11,231211,,,D*7F
$GPRMC,192034.000,A,3748.7512,N,12217.7607,W,2.00,117.22,231211,,,D*7B
$GPRMC,192035.000,A,3748.7509,N,12217.7599,W,1.54,102.06,231211,,,D*74
$GPRMC,192036.000,A,3748.7510,N,12217.7596,W,1.20,104.67,231211,,,D*72
$GPRMC,192037.000,A,3748.7508,N,12217.7590,W,2.10,119.22,231211,,,D*71
$GPRMC,192038.000,A,3748.7504,N,12217.7584,W,2.27,122.38,231211,,,D*70
$GPRMC,192039.000,A,3748.7497,N,12217.7574,W,2.16,110.15,231211,,,D*79
$GPRMC,192040.000,A,3748.7492,N,12217.7565,W,2.10,114.82,231211,,,D*7E
$GPRMC,192041.000,A,3748.7487,N,12217.7556,W,1.95,113.47,231211,,,D*7B
$GPRMC,192042.000,A,3748.7483,N,12217.7549,W,1.84,120.07,231211,,,D*76
$GPRMC,192043.000,A,3748.7476,N,12217.7540,W,2.03,117.48,231211,,,D*77
$GPRMC,192044.000,A,3748.7469,N,12217.7537,W,1.52,110.20,231211,,,D*70
$GPRMC,192045.000,A,3748.7465,N,12217.7533,W,1.48,97.81,231211,,,D*47
$GPRMC,192046.000,A,3748.7464,N,12217.7528,W,1.27,97.66,231211,,,D*4F
$GPRMC,192047.000,A,3748.7463,N,12217.7526,W,0.70,70.25,231211,,,D*4A
$GPRMC,192048.000,A,3748.7465,N,12217.7524,W,0.38,348.93,231211,,,D*78
$GPRMC,192049.000,A,3748.7469,N,12217.7529,W,0.64,318.75,231211,,,D*7C
$GPRMC,192050.000,A,3748.7472,N,12217.7530,W,0.73,0.55,231211,,,D*78
$GPRMC,192051.000,A,3748.7473,N,12217.7527,W,0.77,22.35,231211,,,D*4C
$GPRMC,192052.000,A,3748.7476,N,12217.7527,W,0.28,335.06,231211,,,D*75
$GPRMC,192053.000,A,3748.7479,N,12217.7527,W,0.28,152.72,231211,,,D*7B
$GPRMC,192054.000,A,3748.7478,N,12217.7525,W,0.54,169.28,231211,,,D*73
$GPRMC,192055.000,A,3748.7480,N,12217.7524,W,0.26,86.70,231211,,,D*4C
$GPRMC,192056.000,A,3748.7477,N,12217.7520,W,0.53,90.84,231211,,,D*4D
$GPRMC,192057.000,A,3748.7474,N,12217.7516,W,0.42,75.24,231211,,,D*4B
$GPRMC,192058.000,A,3748.7472,N,12217.7509,W,0.46,126.76,231211,,,D*78
$GPRMC,192059.000,A,3748.7468,N,12217.7506,W,0.40,140.20,231211,,,D*78
$GPRMC,192100.000,A,3748.7467,N,12217.7503,W,0.42,144.80,231211,,,D*73
$GPRMC,192101.000,A,3748.7464,N,12217.7497,W,0.34,130.49,231211,,,A*7F
$GPRMC,192102.000,A,3748.7463,N,12217.7494,W,0.47,127.08,231211,,,A*7F
$GPRMC,192103.000,A,3748.7463,N,12217.7492,W,0.15,39.11,231211,,,A*49
$GPRMC,192104.000,A,3748.7465,N,12217.7489,W,0.41,353.98,231211,,,A*7D
$GPRMC,192105.000,A,3748.7469,N,12217.7486,W,0.52,359.70,231211,,,A*71
$GPRMC,192106.000,A,3748.7476,N,12217.7486,W,0.49,43.71,231211,,,A*4F
$GPRMC,192107.000,A,3748.7482,N,12217.7484,W,0.62,44.86,231211,,,A*41
$GPRMC,192108.000,A,3748.7488,N,12217.7479,W,0.60,30.69,231211,,,A*46
$GPRMC,192109.000,A,3748.7493,N,12217.7474,W,0.51,17.30,231211,,,A*4B
$GPRMC,192110.000,A,3748.7497,N,12217.7471,W,0.37,58.44,231211,,,A*4A
$GPRMC,192111.000,A,3748.7499,N,12217.7471,W,0.12,350.57,231211,,,A*7B
$GPRMC,192112.000,A,3748.7501,N,12217.7471,W,0.21,272.66,231211,,,A*7B
$GPRMC,192113.000,A,3748.7503,N,12217.7474,W,0.34,147.37,231211,,,A*78
$GPRMC,192114.000,A,3748.7500,N,12217.7472,W,0.31,155.48,231211,,,A*74
$GPRMC,192115.000,A,3748.7498,N,12217.7477,W,0.63,240.83,231211,,,A*77
$GPRMC,192116.000,A,3748.7494,N,12217.7485,W,0.31,282.67,231211,,,A*76
$GPRMC,192117.000,A,3748.7494,N,12217.7487,W,0.22,64.00,231211,,,A*4C
$GPRMC,192118.000,A,3748.7495,N,12217.7488,W,0.35,156.25,231211,,,A*7C
$GPRMC,192119.000,A,3748.7499,N,12217.7488,W,0.15,65.38,231211,,,A*4E
$GPRMC,192120.000,A,3748.7506,N,12217.7488,W,0.46,15.68,231211,,,A*47
$GPRMC,192121.000,A,3748.7506,N,12217.7488,W,0.17,25.63,231211,,,A*4A
$GPRMC,192122.000,A,3748.7509,N,12217.7489,W,0.10,339.49,231211,,,A*76
$GPRMC,192123.000,A,3748.7509,N,12217.7490,W,0.13,335.72,231211,,,A*78
$GPRMC,192124.000,A,3748.7509,N,12217.7491,W,0.28,320.07,231211,,,A*70
$GPRMC,192125.000,A,3748.7510,N,12217.7493,W,0.35,312.63,231211,,,A*74
$GPRMC,192126.000,A,3748.7510,N,12217.7495,W,0.42,311.78,231211,,,A*78
$GPRMC,192127.000,A,3748.7511,N,12217.7495,W,0.07,287.39,231211,,,A*72
$GPRMC,192128.000,A,3748.7511,N,12217.7495,W,0.13,234.81,231211,,,A*73
$GPRMC,192129.000,A,3748.7510,N,12217.7495,W,0.10,274.94,231211,,,A*70
$GPRMC,192130.000,A,3748.7510,N,12217.7495,W,0.06,204.01,231211,,,A*74
$GPRMC,192131.000,A,3748.7509,N,12217.7495,W,0.05,183.35,231211,,,A*75
$GPRMC,192132.000,A,3748.7509,N,12217.7495,W,0.10,110.61,231211,,,A*79
$GPRMC,192133.000,A,3748.7509,N,12217.7494,W,0.12,114.24,231211,,,A*7E
$GPRMC,192134.000,A,3748.7509,N,12217.7493,W,0.12,120.20,231211,,,A*7D
$GPRMC,192135.000,A,3748.7509,N,12217.7493,W,0.15,151.42,231211,,,A*79
$GPRMC,192136.000,A,3748.7508,N,12217.7492,W,0.19,135.84,231211,,,A*7E
$GPRMC,192137.000,A,3748.7507,N,12217.7492,W,0.45,131.59,231211,,,A*7D
$GPRMC,192138.000,A,3748.7506,N,12217.7492,W,0.20,97.20,231211,,,A*43
$GPRMC,192139.000,A,3748.7505,N,12217.7491,W,0.43,120.11,231211,,,A*78
$GPRMC,192140.000,A,3748.7508,N,12217.7486,W,0.31,168.59,231211,,,A*78
$GPRMC,192141.000,A,3748.7509,N,12217.7485,W,0.27,109.49,231211,,,A*7A
$GPRMC,192142.000,A,3748.7508,N,12217.7486,W,0.34,168.16,231211,,,A*74
$GPRMC,192143.000,A,3748.7508,N,12217.7489,W,0.09,267.55,231211,,,A*7F
$GPRMC,192144.000,A,3748.7508,N,12217.7492,W,0.21,303.56,231211,,,A*78
$GPRMC,192145.000,A,3748.7509,N,12217.7500,W,0.33,315.61,231211,,,A*72
$GPRMC,192146.000,A,3748.7507,N,12217.7504,W,0.21,204.62,231211,,,A*7A
$GPRMC,192147.000,A,3748.7503,N,12217.7507,W,0.36,202.29,231211,,,A*73
$GPRMC,192148.000,A,3748.7500,N,12217.7506,W,0.26,170.59,231211,,,A*7E
$GPRMC,192149.000,A,3748.7498,N,12217.7504,W,0.34,134.01,231211,,,A*73
$GPRMC,192150.000,A,3748.7496,N,12217.7502,W,0.22,91.52,231211,,,A*4C
$GPRMC,192151.000,A,3748.7496,N,12217.7501,W,0.15,72.86,231211,,,A*4E
$GPRMC,192152.000,A,3748.7494,N,12217.7498,W,0.35,94.85,231211,,,A*47
$GPRMC,192153.000,A,3748.7493,N,12217.7495,W,0.19,136.37,231211,,,A*72
$GPRMC,192154.000,A,3748.7489,N,12217.7494,W,0.19,266.40,231211,,,A*79
$GPRMC,192155.000,A,3748.7484,N,12217.7493,W,0.17,138.78,231211,,,A*7F
$GPRMC,192156.000,A,3748.7482,N,12217.7492,W,0.30,103.57,231211,,,A*7B
$GPRMC,192157.000,A,3748.7482,N,12217.7494,W,0.12,174.57,231211,,,A*7C
$GPRMC,192158.000,A,3748.7481,N,12217.7495,W,0.06,232.09,231211,,,A*7E
$GPRMC,192159.000,A,3748.7480,N,12217.7494,W,0.06,163.72,231211,,,A*74
$GPRMC,192200.000,A,3748.7479,N,12217.7493,W,0.02,1.16,231211,,,A*79
$GPRMC,192201.000,A,3748.7479,N,12217.7493,W,0.39,36.59,231211,,,A*4F
$GPRMC,192202.000,A,3748.7480,N,12217.7493,W,0.41,5.48,231211,,,A*75
$GPRMC,192203.000,A,3748.7481,N,12217.7496,W,0.43,348.94,231211,,,A*79
$GPRMC,192204.000,A,3748.7483,N,12217.7500,W,0.09,316.30,231211,,,A*79
$GPRMC,192205.000,A,3748.7483,N,12217.7502,W,0.23,294.23,231211,,,A*7B
$GPRMC,192206.000,A,3748.7481,N,12217.7501,W,0.16,224.95,231211,,,A*79
$GPRMC,192207.000,A,3748.7481,N,12217.7504,W,0.14,143.25,231211,,,A*76
$GPRMC,192208.000,A,3748.7482,N,12217.7507,W,0.37,162.75,231211,,,A*7E
$GPRMC,192209.000,A,3748.7482,N,12217.7509,W,0.50,206.05,231211,,,A*76
$GPRMC,192210.000,A,3748.7478,N,12217.7512,W,0.67,201.49,231211,,,A*7A
$GPRMC,192211.000,A,3748.7474,N,12217.7515,W,0.45,219.19,231211,,,A*7C
$GPRMC,192212.000,A,3748.7472,N,12217.7516,W,0.08,249.08,231211,,,A*76
$GPRMC,192213.000,A,3748.7472,N,12217.7517,W,0.26,352.30,231211,,,A*7A
$GPRMC,192214.000,A,3748.7471,N,12217.7518,W,0.09,182.48,231211,,,A*7C
$GPRMC,192215.000,A,3748.7471,N,12217.7518,W,0.12,17.03,231211,,,A*45
$GPRMC,192216.000,A,3748.7471,N,12217.7519,W,0.29,335.96,231211,,,A*70
$GPRMC,192217.000,A,3748.7472,N,12217.7520,W,0.21,286.87,231211,,,A*79
$GPRMC,192218.000,A,3748.7472,N,12217.7520,W,0.08,340.33,231211,,,A*79
$GPRMC,192219.000,A,3748.7472,N,12217.7520,W,0.15,339.70,231211,,,A*7D
$GPRMC,192220.000,A,3748.7472,N,12217.7521,W,0.19,312.21,231211,,,A*77
$GPRMC,192221.000,A,3748.7473,N,12217.7521,W,0.16,277.41,231211,,,A*7C
$GPRMC,192222.000,A,3748.7473,N,12217.7522,W,0.37,307.60,231211,,,A*7A
$GPRMC,192223.000,A,3748.7474,N,12217.7523,W,0.27,317.46,231211,,,A*79
$GPRMC,192224.000,A,3748.7474,N,12217.7523,W,0.09,241.22,231211,,,A*72
$GPRMC,192225.000,A,3748.7474,N,12217.7524,W,0.10,275.82,231211,,,A*71
$GPRMC,192226.000,A,3748.7474,N,12217.7525,W,0.10,311.55,231211,,,A*7A
$GPRMC,192227.000,A,3748.7472,N,12217.7525,W,0.60,161.61,231211,,,A*78
$GPRMC,192228.000,A,3748.7471,N,12217.7524,W,0.89,144.16,231211,,,A*75
$GPRMC,192229.000,A,3748.7465,N,12217.7521,W,1.45,122.46,231211,,,A*70
$GPRMC,192230.000,A,3748.7458,N,12217.7520,W,2.00,133.46,231211,,,A*75
$GPRMC,192231.000,A,3748.7454,N,12217.7512,W,2.01,130.24,231211,,,A*7F
$GPRMC,192232.000,A,3748.7449,N,12217.7504,W,2.10,128.32,231211,,,A*79
$GPRMC,192233.000,A,3748.7445,N,12217.7497,W,1.47,104.85,231211,,,A*7C
$GPRMC,192234.000,A,3748.7443,N,12217.7491,W,0.88,96.58,231211,,,A*43
$GPRMC,192235.000,A,3748.7441,N,12217.7486,W,0.31,66.01,231211,,,A*47
$GPRMC,192236.000,A,3748.7440,N,12217.7486,W,0.44,343.75,231211,,,A*70
$GPRMC,192237.000,A,3748.7439,N,12217.7483,W,0.92,112.53,231211,,,A*73
$GPRMC,192238.000,A,3748.7436,N,12217.7480,W,0.68,80.91,231211,,,A*41
$GPRMC,192239.000,A,3748.7432,N,12217.7472,W,0.44,91.71,231211,,,A*49
$GPRMC,192240.000,A,3748.7429,N,12217.7465,W,0.59,83.84,231211,,,A*4E
$GPRMC,192241.000,A,3748.7428,N,12217.7453,W,1.03,84.73,231211,,,A*4A
$GPRMC,192242.000,A,3748.7427,N,12217.7445,W,1.01,81.59,231211,,,A*4E
$GPRMC,192243.000,A,3748.7428,N,12217.7438,W,0.90,98.49,231211,,,A*4A
$GPRMC,192244.000,A,3748.7427,N,12217.7433,W,1.01,100.77,231211,,,A*7D
$GPRMC,192245.000,A,3748.7425,N,12217.7429,W,0.72,115.41,231211,,,A*71
$GPRMC,192246.000,A,3748.7423,N,12217.7429,W,0.78,118.18,231211,,,A*7F
$GPRMC,192247.000,A,3748.7419,N,12217.7430,W,1.15,127.75,231211,,,A*72
$GPRMC,192248.000,A,3748.7413,N,12217.7427,W,1.40,121.84,231211,,,A*79
$GPRMC,192249.000,A,3748.7407,N,12217.7425,W,1.53,127.82,231211,,,A*7D
$GPRMC,192250.000,A,3748.7401,N,12217.7420,W,1.48,131.92,231211,,,A*7A
$GPRMC,192251.000,A,3748.7395,N,12217.7416,W,2.02,113.73,231211,,,A*76
$GPRMC,192252.000,A,3748.7391,N,12217.7410,W,1.97,126.62,231211,,,A*7E
$GPRMC,192253.000,A,3748.7388,N,12217.7405,W,1.68,122.08,231211,,,A*7B
$GPRMC,192254.000,A,3748.7385,N,12217.7401,W,1.43,122.13,231211,,,A*76
$GPRMC,192255.000,A,3748.7382,N,12217.7393,W,1.13,102.91,231211,,,A*71
$GPRMC,192256.000,A,3748.7379,N,12217.7388,W,1.20,92.78,231211,,,A*43
$GPRMC,192257.000,A,3748.7378,N,12217.7381,W,1.40,93.99,231211,,,A*42
$GPRMC,192258.000,A,3748.7373,N,12217.7374,W,0.99,102.13,231211,,,A*72
$GPRMC,192259.000,A,3748.7368,N,12217.7368,W,1.32,111.47,231211,,,A*77
$GPRMC,192300.000,A,3748.7363,N,12217.7360,W,1.40,105.91,231211,,,A*72
$GPRMC,192301.000,A,3748.7357,N,12217.7352,W,1.93,123.61,231211,,,A*70
$GPRMC,192302.000,A,3748.7350,N,12217.7337,W,2.00,108.45,231211,,,D*74
$GPRMC,192303.000,A,3748.7345,N,12217.7323,W,1.92,107.97,231211,,,D*7C
$GPRMC,192304.000,A,3748.7340,N,12217.7311,W,1.37,119.66,231211,,,D*71
$GPRMC,192305.000,A,3748.7334,N,12217.7298,W,1.47,114.37,231211,,,D*7D
$GPRMC,192306.000,A,3748.7328,N,12217.7286,W,1.43,116.42,231211,,,D*78
$GPRMC,192307.000,A,3748.7320,N,12217.7270,W,1.67,107.70,231211,,,D*7F
$GPRMC,192308.000,A,3748.7317,N,12217.7263,W,1.66,118.94,231211,,,D*73
$GPRMC,192309.000,A,3748.7315,N,12217.7257,W,1.87,122.76,231211,,,D*7D
$GPRMC,192310.000,A,3748.7311,N,12217.7246,W,1.87,120.25,231211,,,D*75
$GPRMC,192311.000,A,3748.7305,N,12217.7235,W,1.71,117.12,231211,,,D*7C
$GPRMC,192312.000,A,3748.7304,N,12217.7230,W,1.55,104.69,231211,,,D*73
$GPRMC,192313.000,A,3748.7303,N,12217.7223,W,1.62,93.47,231211,,,D*40
$GPRMC,192314.000,A,3748.7300,N,12217.7213,W,1.20,102.45,231211,,,D*7A
$GPRMC,192315.000,A,3748.7297,N,12217.7204,W,1.46,95.51,231211,,,D*48
$GPRMC,192316.000,A,3748.7294,N,12217.7197,W,1.84,89.83,231211,,,D*4D
$GPRMC,192317.000,A,3748.7293,N,12217.7187,W,2.22,76.99,231211,,,D*4E
$GPRMC,192318.000,A,3748.7294,N,12217.7178,W,2.36,59.96,231211,,,D*41
$GPRMC,192319.000,A,3748.7296,N,12217.7172,W,1.95,35.48,231211,,,D*4B
$GPRMC,192320.000,A,3748.7301,N,12217.7166,W,2.18,35.83,231211,,,D*4A
$GPRMC,192321.000,A,3748.7305,N,12217.7160,W,2.03,36.84,231211,,,D*47
$GPRMC,192322.000,A,3748.7311,N,12217.7151,W,2.55,35.85,231211,,,D*42
$GPRMC,192323.000,A,3748.7317,N,12217.7147,W,2.09,16.28,231211,,,D*4D
$GPRMC,192324.000,A,3748.7324,N,12217.7141,W,2.08,15.22,231211,,,D*44
$GPRMC,192325.000,A,3748.7330,N,12217.7136,W,2.39,20.71,231211,,,D*42
$GPRMC,192326.000,A,3748.7336,N,12217.7130,W,2.37,22.21,231211,,,D*48
$GPRMC,192327.000,A,3748.7340,N,12217.7124,W,2.45,25.29,231211,,,D*47
$GPRMC,192328.000,A,3748.7345,N,12217.7118,W,2.30,22.86,231211,,,D*42
$GPRMC,192329.000,A,3748.7350,N,12217.7114,W,2.04,26.47,231211,,,D*45
$GPRMC,192330.000,A,3748.7356,N,12217.7110,W,2.56,22.61,231211,,,D*48
$GPRMC,192331.000,A,3748.7363,N,12217.7105,W,2.53,21.22,231211,,,D*4A
$GPRMC,192332.000,A,3748.7370,N,12217.7101,W,2.42,22.20,231211,,,D*4E
$GPRMC,192333.000,A,3748.7376,N,12217.7096,W,2.47,25.88,231211,,,D*46
$GPRMC,192334.000,A,3748.7383,N,12217.7091,W,2.63,22.49,231211,,,D*40
$GPRMC,192335.000,A,3748.7389,N,12217.7086,W,2.25,29.38,231211,,,D*42
$GPRMC,192336.000,A,3748.7396,N,12217.7080,W,2.40,25.63,231211,,,D*48
$GPRMC,192337.000,A,3748.7402,N,12217.7075,W,2.51,27.02,231211,,,D*4C
$GPRMC,192338.000,A,3748.7409,N,12217.7067,W,2.34,32.65,231211,,,D*4D
$GPRMC,192339.000,A,3748.7415,N,12217.7059,W,2.22,39.08,231211,,,D*4B
$GPRMC,192340.000,A,3748.7422,N,12217.7053,W,2.25,37.20,231211,,,D*48
$GPRMC,192341.000,A,3748.7428,N,12217.7046,W,2.29,30.94,231211,,,D*43
$GPRMC,192342.000,A,3748.7433,N,12217.7043,W,2.05,25.49,231211,,,D*45
$GPRMC,192343.000,A,3748.7438,N,12217.7039,W,1.98,22.88,231211,,,D*4F
$GPRMC,192344.000,A,3748.7444,N,12217.7034,W,2.14,26.09,231211,,,D*44
$GPRMC,192345.000,A,3748.7451,N,12217.7028,W,1.84,28.36,231211,,,D*44
$GPRMC,192346.000,A,3748.7458,N,12217.7021,W,2.40,23.65,231211,,,D*41
$GPRMC,192347.000,A,3748.7464,N,12217.7018,W,2.41,21.59,231211,,,D*49
$GPRMC,192348.000,A,3748.7472,N,12217.7013,W,2.48,16.43,231211,,,D*4C
$GPRMC,192349.000,A,3748.7478,N,12217.7009,W,2.35,18.50,231211,,,D*4A
$GPRMC,192350.000,A,3748.7483,N,12217.7008,W,2.16,18.28,231211,,,D*49
$GPRMC,192351.000,A,3748.7488,N,12217.7004,W,2.30,33.78,231211,,,D*47
$GPRMC,192352.000,A,3748.7494,N,12217.6997,W,2.12,39.67,231211,,,D*4F
$GPRMC,192353.000,A,3748.7499,N,12217.6990,W,2.11,34.90,231211,,,D*42
$GPRMC,192354.000,A,3748.7502,N,12217.6982,W,2.41,30.16,231211,,,D*4A
$GPRMC,192355.000,A,3748.7507,N,12217.6974,W,2.21,22.49,231211,,,D*48
$GPRMC,192356.000,A,3748.7513,N,12217.6971,W,2.45,13.14,231211,,,D*43
$GPRMC,192357.000,A,3748.7521,N,12217.6967,W,2.17,13.54,231211,,,D*47
$GPRMC,192358.000,A,3748.7526,N,12217.6961,W,2.06,22.53,231211,,,D*4C
$GPRMC,192359.000,A,3748.7533,N,12217.6955,W,2.55,18.12,231211,,,D*44
$GPRMC,192400.000,A,3748.7539,N,12217.6951,W,2.47,28.96,231211,,,D*4D
$GPRMC,192401.000,A,3748.7543,N,12217.6946,W,2.17,36.42,231211,,,D*44
$GPRMC,192402.000,A,3748.7547,N,12217.6942,W,2.15,20.87,231211,,,D*4B
$GPRMC,192403.000,A,3748.7552,N,12217.6938,W,2.50,18.90,231211,,,D*4F
$GPRMC,192404.000,A,3748.7558,N,12217.6933,W,2.40,30.43,231211,,,D*4C
$GPRMC,192405.000,A,3748.7563,N,12217.6929,W,2.36,29.88,231211,,,D*40
$GPRMC,192406.000,A,3748.7568,N,12217.6926,W,2.16,23.08,231211,,,D*47
$GPRMC,192407.000,A,3748.7574,N,12217.6920,W,2.27,25.78,231211,,,D*4E
$GPRMC,192408.000,A,3748.7579,N,12217.6914,W,2.05,36.02,231211,,,D*44
$GPRMC,192409.000,A,3748.7584,N,12217.6909,W,2.06,25.31,231211,,,D*4A
$GPRMC,192410.000,A,3748.7588,N,12217.6903,W,2.08,24.02,231211,,,D*4B
$GPRMC,192411.000,A,3748.7593,N,12217.6900,W,2.59,26.90,231211,,,D*4E
$GPRMC,192412.000,A,3748.7600,N,12217.6893,W,2.35,31.25,231211,,,D*4D
$GPRMC,192413.000,A,3748.7605,N,12217.6889,W,2.20,29.72,231211,,,D*4D
$GPRMC,192414.000,A,3748.7610,N,12217.6883,W,2.20,43.79,231211,,,D*43
$GPRMC,192415.000,A,3748.7615,N,12217.6878,W,2.48,34.09,231211,,,D*4A
$GPRMC,192416.000,A,3748.7621,N,12217.6873,W,2.32,27.80,231211,,,D*4B
$GPRMC,192417.000,A,3748.7626,N,12217.6870,W,2.16,26.50,231211,,,D*44
$GPRMC,192418.000,A,3748.7632,N,12217.6866,W,2.24,29.68,231211,,,D*4C
$GPRMC,192419.000,A,3748.7638,N,12217.6862,W,2.16,22.44,231211,,,D*47
$GPRMC,192420.000,A,3748.7645,N,12217.6859,W,2.43,10.18,231211,,,D*47
$GPRMC,192421.000,A,3748.7650,N,12217.6857,W,2.01,16.08,231211,,,D*4D
$GPRMC,192422.000,A,3748.7656,N,12217.6854,W,2.14,15.60,231211,,,D*42
$GPRMC,192423.000,A,3748.7662,N,12217.6849,W,2.19,33.35,231211,,,A*44
$GPRMC,192424.000,A,3748.7668,N,12217.6844,W,2.08,28.23,231211,,,A*49
$GPRMC,192425.000,A,3748.7675,N,12217.6839,W,2.02,21.16,231211,,,A*4B
$GPRMC,192426.000,A,3748.7680,N,12217.6836,W,1.86,29.17,231211,,,A*4B
$GPRMC,192427.000,A,3748.7686,N,12217.6831,W,1.93,28.11,231211,,,A*48
$GPRMC,192428.000,A,3748.7693,N,12217.6826,W,2.22,21.88,231211,,,A*45
$GPRMC,192429.000,A,3748.7700,N,12217.6820,W,2.43,26.03,231211,,,A*4A
$GPRMC,192430.000,A,3748.7706,N,12217.6815,W,2.39,18.68,231211,,,A*4F
$GPRMC,192431.000,A,3748.7712,N,12217.6811,W,2.35,22.29,231211,,,A*4F
$GPRMC,192432.000,A,3748.7717,N,12217.6807,W,2.26,35.10,231211,,,A*40
$GPRMC,192433.000,A,3748.7723,N,12217.6804,W,2.34,26.07,231211,,,A*42
$GPRMC,192434.000,A,3748.7729,N,12217.6800,W,2.27,35.53,231211,,,A*4A
$GPRMC,192435.000,A,3748.7734,N,12217.6796,W,2.17,33.39,231211,,,A*4E
$GPRMC,192436.000,A,3748.7740,N,12217.6792,W,2.32,31.07,231211,,,A*42
$GPRMC,192437.000,A,3748.7745,N,12217.6787,W,1.96,34.58,231211,,,A*40
$GPRMC,192438.000,A,3748.7750,N,12217.6783,W,1.89,26.40,231211,,,A*4B
$GPRMC,192439.000,A,3748.7755,N,12217.6780,W,2.17,25.82,231211,,,A*45
$GPRMC,192440.000,A,3748.7762,N,12217.6776,W,2.10,18.21,231211,,,A*46
$GPRMC,192441.000,A,3748.7767,N,12217.6774,W,1.94,13.34,231211,,,A*40
$GPRMC,192442.000,A,3748.7773,N,12217.6771,W,2.19,16.56,231211,,,A*44
$GPRMC,192443.000,A,3748.7780,N,12217.6766,W,2.03,17.66,231211,,,A*46
$GPRMC,192444.000,A,3748.7787,N,12217.6761,W,2.06,15.32,231211,,,A*47
$GPRMC,192445.000,A,3748.7793,N,12217.6756,W,2.21,30.85,231211,,,A*49
$GPRMC,192446.000,A,3748.7799,N,12217.6751,W,2.18,28.65,231211,,,A*4A
$GPRMC,192447.000,A,3748.7806,N,12217.6746,W,2.17,14.83,231211,,,A*4C
$GPRMC,192448.000,A,3748.7812,N,12217.6739,W,2.28,21.36,231211,,,A*4A
$GPRMC,192449.000,A,3748.7819,N,12217.6733,W,2.00,17.40,231211,,,A*44
$GPRMC,192450.000,A,3748.7823,N,12217.6728,W,1.40,16.90,231211,,,A*44
$GPRMC,192451.000,A,3748.7829,N,12217.6721,W,1.97,27.31,231211,,,A*45
$GPRMC,192452.000,A,3748.7836,N,12217.6714,W,2.44,27.90,231211,,,A*48
$GPRMC,192453.000,A,3748.7842,N,12217.6708,W,2.13,26.08,231211,,,A*45
$GPRMC,192454.000,A,3748.7847,N,12217.6705,W,2.24,22.51,231211,,,A*46
$GPRMC,192455.000,A,3748.7853,N,12217.6701,W,1.81,21.86,231211,,,A*43
$GPRMC,192456.000,A,3748.7858,N,12217.6695,W,2.00,19.48,231211,,,A*44
$GPRMC,192457.000,A,3748.7865,N,12217.6690,W,2.29,21.05,231211,,,A*47
$GPRMC,192458.000,A,3748.7869,N,12217.6682,W,2.24,28.27,231211,,,A*43
$GPRMC,192459.000,A,3748.7873,N,12217.6677,W,2.23,19.26,231211,,,A*47
$GPRMC,192500.000,A,3748.7878,N,12217.6668,W,2.17,19.70,231211,,,A*4B
$GPRMC,192501.000,A,3748.7883,N,12217.6664,W,2.12,25.02,231211,,,D*48
$GPRMC,192502.000,A,3748.7888,N,12217.6658,W,2.09,26.31,231211,,,D*46
$GPRMC,192503.000,A,3748.7894,N,12217.6652,W,1.74,27.71,231211,,,D*4C
$GPRMC,192504.000,A,3748.7899,N,12217.6648,W,2.38,24.83,231211,,,D*48
$GPRMC,192505.000,A,3748.7905,N,12217.6643,W,1.56,21.49,231211,,,D*4E
$GPRMC,192506.000,A,3748.7911,N,12217.6640,W,1.69,3.86,231211,,,D*74
$GPRMC,192507.000,A,3748.7917,N,12217.6638,W,1.64,3.66,231211,,,D*7F
$GPRMC,192508.000,A,3748.7918,N,12217.6630,W,1.57,8.44,231211,,,D*7C
$GPRMC,192509.000,A,3748.7922,N,12217.6625,W,1.83,16.03,231211,,,D*45
$GPRMC,192510.000,A,3748.7927,N,12217.6619,W,1.59,23.41,231211,,,D*40
$GPRMC,192511.000,A,3748.7931,N,12217.6616,W,1.34,33.45,231211,,,D*47
$GPRMC,192512.000,A,3748.7932,N,12217.6609,W,1.72,39.46,231211,,,D*42
$GPRMC,192513.000,A,3748.7934,N,12217.6599,W,1.86,33.89,231211,,,D*4D
$GPRMC,192514.000,A,3748.7942,N,12217.6592,W,1.97,24.76,231211,,,D*46
$GPRMC,192515.000,A,3748.7950,N,12217.6586,W,1.70,30.20,231211,,,D*4E
$GPRMC,192516.000,A,3748.7954,N,12217.6580,W,2.12,25.39,231211,,,D*44
$GPRMC,192517.000,A,3748.7961,N,12217.6577,W,2.08,17.37,231211,,,D*4F
$GPRMC,192518.000,A,3748.7966,N,12217.6576,W,1.87,13.68,231211,,,D*4C
$GPRMC,192519.000,A,3748.7972,N,12217.6575,W,1.81,18.26,231211,,,D*4C
$GPRMC,192520.000,A,3748.7977,N,12217.6574,W,2.21,18.36,231211,,,D*4A
$GPRMC,192521.000,A,3748.7984,N,12217.6569,W,2.47,36.07,231211,,,D*45
$GPRMC,192522.000,A,3748.7990,N,12217.6563,W,2.45,32.74,231211,,,D*4B
$GPRMC,192523.000,A,3748.7997,N,12217.6556,W,2.65,33.51,231211,,,D*4F
$GPRMC,192524.000,A,3748.8004,N,12217.6548,W,2.30,33.47,231211,,,D*4C
$GPRMC,192525.000,A,3748.8009,N,12217.6543,W,2.22,27.55,231211,,,D*4E
$GPRMC,192526.000,A,3748.8015,N,12217.6538,W,2.31,30.44,231211,,,D*48
$GPRMC,192527.000,A,3748.8021,N,12217.6534,W,2.44,24.89,231211,,,D*44
$GPRMC,192528.000,A,3748.8027,N,12217.6530,W,2.32,31.72,231211,,,D*48
$GPRMC,192529.000,A,3748.8032,N,12217.6526,W,2.21,25.32,231211,,,D*49
$GPRMC,192530.000,A,3748.8037,N,12217.6524,W,2.34,24.63,231211,,,D*47
$GPRMC,192531.000,A,3748.8044,N,12217.6519,W,2.56,23.87,231211,,,D*45
$GPRMC,192532.000,A,3748.8050,N,12217.6516,W,2.28,22.42,231211,,,D*4D
$GPRMC,192533.000,A,3748.8057,N,12217.6509,W,2.54,24.57,231211,,,D*4C
$GPRMC,192534.000,A,3748.8063,N,12217.6504,W,2.14,27.15,231211,,,D*40
$GPRMC,192535.000,A,3748.8067,N,12217.6503,W,2.31,24.52,231211,,,D*45
$GPRMC,192536.000,A,3748.8073,N,12217.6499,W,2.51,26.12,231211,,,D*41
$GPRMC,192537.000,A,3748.8079,N,12217.6494,W,2.35,34.42,231211,,,D*43
$GPRMC,192538.000,A,3748.8083,N,12217.6487,W,2.44,41.16,231211,,,D*4E
$GPRMC,192539.000,A,3748.8088,N,12217.6479,W,2.19,37.83,231211,,,D*40
$GPRMC,192540.000,A,3748.8094,N,12217.6472,W,2.27,37.78,231211,,,D*41
$GPRMC,192541.000,A,3748.8095,N,12217.6461,W,1.91,33.44,231211,,,D*46
$GPRMC,192542.000,A,3748.8098,N,12217.6451,W,1.95,39.86,231211,,,D*4B
$GPRMC,192543.000,A,3748.8102,N,12217.6447,W,1.55,40.00,231211,,,D*43
$GPRMC,192544.000,A,3748.8107,N,12217.6444,W,1.54,37.44,231211,,,D*43
$GPRMC,192545.000,A,3748.8109,N,12217.6438,W,2.12,46.82,231211,,,D*4A
$GPRMC,192546.000,A,3748.8113,N,12217.6432,W,2.24,48.56,231211,,,D*4A
$GPRMC,192547.000,A,3748.8117,N,12217.6424,W,2.13,44.31,231211,,,D*41
$GPRMC,192548.000,A,3748.8120,N,12217.6416,W,2.32,18.42,231211,,,D*45
$GPRMC,192549.000,A,3748.8126,N,12217.6410,W,2.09,28.68,231211,,,D*47
$GPRMC,192550.000,A,3748.8130,N,12217.6400,W,2.42,32.57,231211,,,D*41
$GPRMC,192551.000,A,3748.8134,N,12217.6395,W,2.37,28.53,231211,,,D*42
$GPRMC,192552.000,A,3748.8141,N,12217.6391,W,2.58,11.08,231211,,,D*4A
$GPRMC,192553.000,A,3748.8154,N,12217.6362,W,3.03,29.24,231211,,,D*49
$GPRMC,192554.000,A,3748.8149,N,12217.6338,W,2.59,64.32,231211,,,D*4D
$GPRMC,192555.000,A,3748.8148,N,12217.6317,W,2.16,40.68,231211,,,D*42
$GPRMC,192556.000,A,3748.8143,N,12217.6309,W,1.70,51.24,231211,,,D*4E
$GPRMC,192557.000,A,3748.8141,N,12217.6305,W,1.58,43.22,231211,,,D*4E
$GPRMC,192558.000,A,3748.8147,N,12217.6305,W,1.73,16.46,231211,,,D*4C
$GPRMC,192559.000,A,3748.8156,N,12217.6307,W,2.06,20.96,231211,,,D*46
$GPRMC,192600.000,A,3748.8169,N,12217.6311,W,2.18,24.15,231211,,,D*42
$GPRMC,192601.000,A,3748.8181,N,12217.6314,W,2.25,23.62,231211,,,D*49
$GPRMC,192602.000,A,3748.8184,N,12217.6311,W,2.09,22.96,231211,,,D*4E
$GPRMC,192603.000,A,3748.8186,N,12217.6309,W,1.79,42.43,231211,,,D*4E
$GPRMC,192604.000,A,3748.8191,N,12217.6309,W,1.90,47.88,231211,,,D*4A
$GPRMC,192605.000,A,3748.8194,N,12217.6304,W,1.87,51.80,231211,,,D*4A
$GPRMC,192606.000,A,3748.8198,N,12217.6297,W,2.33,46.42,231211,,,D*4A
$GPRMC,192607.000,A,3748.8207,N,12217.6294,W,2.28,36.03,231211,,,D*45
$GPRMC,192608.000,A,3748.8215,N,12217.6289,W,2.09,27.57,231211,,,A*42
$GPRMC,192609.000,A,3748.8224,N,12217.6286,W,2.23,40.84,231211,,,A*49
$GPRMC,192610.000,A,3748.8231,N,12217.6286,W,2.02,27.39,231211,,,A*41
$GPRMC,192611.000,A,3748.8239,N,12217.6283,W,2.20,35.77,231211,,,A*44
$GPRMC,192612.000,A,3748.8248,N,12217.6279,W,2.32,31.05,231211,,,A*46
$GPRMC,192613.000,A,3748.8254,N,12217.6275,W,2.22,31.55,231211,,,A*42
$GPRMC,192614.000,A,3748.8260,N,12217.6272,W,2.10,20.93,231211,,,D*4B
$GPRMC,192615.000,A,3748.8269,N,12217.6270,W,2.12,29.31,231211,,,D*42
$GPRMC,192616.000,A,3748.8278,N,12217.6266,W,2.12,22.98,231211,,,D*4E
$GPRMC,192617.000,A,3748.8286,N,12217.6261,W,2.31,28.36,231211,,,D*46
$GPRMC,192618.000,A,3748.8288,N,12217.6247,W,2.27,39.81,231211,,,D*48
$GPRMC,192619.000,A,3748.8288,N,12217.6238,W,2.06,31.60,231211,,,D*45
$GPRMC,192620.000,A,3748.8292,N,12217.6234,W,2.00,33.98,231211,,,D*4B
$GPRMC,192621.000,A,3748.8298,N,12217.6228,W,1.89,19.66,231211,,,D*46
$GPRMC,192622.000,A,3748.8305,N,12217.6220,W,2.24,34.86,231211,,,D*4D
$GPRMC,192623.000,A,3748.8312,N,12217.6208,W,2.37,37.25,231211,,,D*48
$GPRMC,192624.000,A,3748.8322,N,12217.6205,W,1.99,24.75,231211,,,D*41
$GPRMC,192625.000,A,3748.8331,N,12217.6202,W,1.81,31.33,231211,,,D*4A
$GPRMC,192626.000,A,3748.8337,N,12217.6199,W,1.48,24.80,231211,,,D*47
$GPRMC,192627.000,A,3748.8347,N,12217.6197,W,1.97,25.89,231211,,,D*45
$GPRMC,192628.000,A,3748.8355,N,12217.6194,W,2.19,30.26,231211,,,D*4E
$GPRMC,192629.000,A,3748.8361,N,12217.6190,W,2.67,41.55,231211,,,D*47
$GPRMC,192630.000,A,3748.8367,N,12217.6187,W,2.06,39.67,231211,,,D*46
$GPRMC,192631.000,A,3748.8372,N,12217.6184,W,1.95,56.70,231211,,,D*46
$GPRMC,192632.000,A,3748.8374,N,12217.6180,W,1.78,64.77,231211,,,D*42
$GPRMC,192633.000,A,3748.8375,N,12217.6175,W,1.79,101.53,231211,,,D*7D
$GPRMC,192634.000,A,3748.8374,N,12217.6170,W,2.00,105.70,231211,,,D*76
$GPRMC,192635.000,A,3748.8375,N,12217.6166,W,1.98,101.73,231211,,,D*74
$GPRMC,192636.000,A,3748.8376,N,12217.6164,W,1.84,104.13,231211,,,D*78
$GPRMC,192637.000,A,3748.8376,N,12217.6162,W,1.65,115.18,231211,,,D*7B
$GPRMC,192638.000,A,3748.8377,N,12217.6162,W,1.70,108.48,231211,,,D*78
$GPRMC,192639.000,A,3748.8376,N,12217.6158,W,1.70,109.15,231211,,,D*78
$GPRMC,192640.000,A,3748.8374,N,12217.6153,W,1.96,114.25,231211,,,D*78
$GPRMC,192641.000,A,3748.8371,N,12217.6148,W,2.24,124.79,231211,,,D*76
$GPRMC,192642.000,A,3748.8368,N,12217.6145,W,2.05,115.15,231211,,,D*7B
$GPRMC,192643.000,A,3748.8367,N,12217.6140,W,2.10,114.02,231211,,,D*73
$GPRMC,192644.000,A,3748.8364,N,12217.6134,W,2.34,101.20,231211,,,D*76
$GPRMC,192645.000,A,3748.8361,N,12217.6127,W,2.10,116.62,231211,,,D*76
$GPRMC,192646.000,A,3748.8356,N,12217.6117,W,1.99,128.22,231211,,,D*79
$GPRMC,192647.000,A,3748.8351,N,12217.6108,W,2.13,126.55,231211,,,D*7E
$GPRMC,192648.000,A,3748.8349,N,12217.6104,W,1.93,123.17,231211,,,D*7C
$GPRMC,192649.000,A,3748.8346,N,12217.6101,W,2.33,124.06,231211,,,A*7C
$GPRMC,192650.000,A,3748.8343,N,12217.6098,W,2.01,115.55,231211,,,A*75
$GPRMC,192651.000,A,3748.8339,N,12217.6092,W,2.09,121.83,231211,,,A*77
$GPRMC,192652.000,A,3748.8335,N,12217.6091,W,2.18,137.18,231211,,,A*7E
$GPRMC,192653.000,A,3748.8328,N,12217.6089,W,1.94,142.86,231211,,,A*78
$GPRMC,192654.000,A,3748.8323,N,12217.6086,W,2.03,142.02,231211,,,A*7A
$GPRMC,192655.000,A,3748.8317,N,12217.6084,W,1.92,131.20,231211,,,A*71
$GPRMC,192656.000,A,3748.8313,N,12217.6078,W,1.94,124.01,231211,,,A*74
$GPRMC,192657.000,A,3748.8307,N,12217.6067,W,2.94,131.59,231211,,,A*74
$GPRMC,192658.000,A,3748.8304,N,12217.6059,W,2.00,128.53,231211,,,A*7A
$GPRMC,192659.000,A,3748.8301,N,12217.6052,W,2.34,128.48,231211,,,A*78
$GPRMC,192700.000,A,3748.8301,N,12217.6043,W,2.20,120.72,231211,,,D*74
$GPRMC,192701.000,A,3748.8298,N,12217.6035,W,2.17,117.69,231211,,,D*7F
$GPRMC,192702.000,A,3748.8295,N,12217.6026,W,2.57,122.55,231211,,,D*7E
$GPRMC,192703.000,A,3748.8294,N,12217.6018,W,1.92,95.80,231211,,,D*4C
$GPRMC,192704.000,A,3748.8291,N,12217.6013,W,1.24,107.78,231211,,,D*75
$GPRMC,192705.000,A,3748.8287,N,12217.6005,W,1.49,106.70,231211,,,D*76
$GPRMC,192706.000,A,3748.8286,N,12217.5999,W,1.58,120.71,231211,,,D*7E
$GPRMC,192707.000,A,3748.8281,N,12217.5994,W,1.81,124.55,231211,,,D*73
$GPRMC,192708.000,A,3748.8276,N,12217.5989,W,1.73,122.77,231211,,,D*73
$GPRMC,192709.000,A,3748.8272,N,12217.5984,W,1.67,115.81,231211,,,D*73
$GPRMC,192710.000,A,3748.8268,N,12217.5979,W,1.43,108.41,231211,,,D*74
$GPRMC,192711.000,A,3748.8265,N,12217.5974,W,1.17,119.70,231211,,,D*76
$GPRMC,192712.000,A,3748.8260,N,12217.5968,W,2.25,123.34,231211,,,D*76
$GPRMC,192713.000,A,3748.8256,N,12217.5959,W,1.59,117.56,231211,,,D*7B
$GPRMC,192714.000,A,3748.8252,N,12217.5951,W,1.20,110.89,231211,,,D*7B
$GPRMC,192715.000,A,3748.8249,N,12217.5945,W,1.53,113.23,231211,,,D*72
$GPRMC,192716.000,A,3748.8248,N,12217.5937,W,1.85,114.02,231211,,,D*7A
$GPRMC,192717.000,A,3748.8246,N,12217.5930,W,1.44,113.81,231211,,,D*73
$GPRMC,192718.000,A,3748.8242,N,12217.5917,W,1.70,98.10,231211,,,D*40
$GPRMC,192719.000,A,3748.8240,N,12217.5909,W,1.65,105.74,231211,,,D*7F
$GPRMC,192720.000,A,3748.8234,N,12217.5895,W,1.88,115.36,231211,,,D*76
$GPRMC,192721.000,A,3748.8233,N,12217.5889,W,1.72,108.23,231211,,,D*70
$GPRMC,192722.000,A,3748.8231,N,12217.5883,W,1.69,106.39,231211,,,D*74
$GPRMC,192723.000,A,3748.8230,N,12217.5876,W,1.80,101.03,231211,,,A*72
$GPRMC,192724.000,A,3748.8228,N,12217.5870,W,1.20,96.51,231211,,,A*48
$GPRMC,192725.000,A,3748.8225,N,12217.5866,W,0.95,109.48,231211,,,A*73
$GPRMC,192726.000,A,3748.8221,N,12217.5861,W,1.71,125.86,231211,,,A*74
$GPRMC,192727.000,A,3748.8217,N,12217.5855,W,1.79,124.94,231211,,,A*7D
$GPRMC,192728.000,A,3748.8213,N,12217.5849,W,1.74,119.09,231211,,,A*7C
$GPRMC,192729.000,A,3748.8208,N,12217.5843,W,1.45,113.42,231211,,,A*7A
$GPRMC,192730.000,A,3748.8206,N,12217.5837,W,1.30,108.32,231211,,,A*70
$GPRMC,192731.000,A,3748.8202,N,12217.5831,W,1.05,104.18,231211,,,A*71
$GPRMC,192732.000,A,3748.8199,N,12217.5825,W,1.31,108.35,231211,,,D*77
$GPRMC,192733.000,A,3748.8196,N,12217.5818,W,1.34,111.72,231211,,,D*79
$GPRMC,192734.000,A,3748.8192,N,12217.5810,W,1.31,114.91,231211,,,D*7F
$GPRMC,192735.000,A,3748.8187,N,12217.5803,W,1.57,113.93,231211,,,D*7D
$GPRMC,192736.000,A,3748.8183,N,12217.5795,W,1.74,113.67,231211,,,D*70
$GPRMC,192737.000,A,3748.8176,N,12217.5778,W,1.71,107.99,231211,,,D*79
$GPRMC,192738.000,A,3748.8172,N,12217.5766,W,1.56,106.92,231211,,,D*72
$GPRMC,192739.000,A,3748.8166,N,12217.5754,W,1.51,112.15,231211,,,D*7A
$GPRMC,192740.000,A,3748.8161,N,12217.5742,W,1.93,124.90,231211,,,D*72
$GPRMC,192741.000,A,3748.8155,N,12217.5730,W,1.69,116.69,231211,,,D*73
$GPRMC,192742.000,A,3748.8151,N,12217.5725,W,1.72,117.02,231211,,,D*76
$GPRMC,192743.000,A,3748.8149,N,12217.5719,W,1.61,112.64,231211,,,D*76
$GPRMC,192744.000,A,3748.8146,N,12217.5714,W,1.58,108.08,231211,,,D*78
$GPRMC,192745.000,A,3748.8143,N,12217.5707,W,1.59,111.31,231211,,,D*7D
$GPRMC,192746.000,A,3748.8138,N,12217.5702,W,1.79,117.22,231211,,,D*71
$GPRMC,192747.000,A,3748.8132,N,12217.5689,W,1.91,115.00,231211,,,D*7C
$GPRMC,192748.000,A,3748.8126,N,12217.5678,W,2.00,109.17,231211,,,D*78
$GPRMC,192749.000,A,3748.8123,N,12217.5670,W,1.57,115.08,231211,,,D*76
$GPRMC,192750.000,A,3748.8118,N,12217.5661,W,1.34,102.61,231211,,,D*7A
$GPRMC,192751.000,A,3748.8115,N,12217.5657,W,1.29,91.91,231211,,,D*4B
$GPRMC,192752.000,A,3748.8114,N,12217.5652,W,1.17,83.60,231211,,,D*4C
$GPRMC,192753.000,A,3748.8109,N,12217.5641,W,1.30,95.14,231211,,,D*42
$GPRMC,192754.000,A,3748.8107,N,12217.5631,W,1.06,82.82,231211,,,D*40
$GPRMC,192755.000,A,3748.8102,N,12217.5618,W,1.50,119.62,231211,,,D*71
$GPRMC,192756.000,A,3748.8095,N,12217.5607,W,1.40,121.15,231211,,,D*79
$GPRMC,192757.000,A,3748.8091,N,12217.5601,W,1.43,102.17,231211,,,D*7A
$GPRMC,192758.000,A,3748.8087,N,12217.5595,W,1.57,109.24,231211,,,A*77
$GPRMC,192759.000,A,3748.8081,N,12217.5588,W,1.42,106.81,231211,,,A*78
$GPRMC,192800.000,A,3748.8079,N,12217.5582,W,1.38,110.21,231211,,,A*76
$GPRMC,192801.000,A,3748.8075,N,12217.5577,W,1.08,112.14,231211,,,A*76
$GPRMC,192802.000,A,3748.8069,N,12217.5576,W,0.74,141.49,231211,,,A*7D
$GPRMC,192803.000,A,3748.8065,N,12217.5576,W,1.12,144.77,231211,,,A*79
$GPRMC,192804.000,A,3748.8062,N,12217.5573,W,1.14,184.27,231211,,,A*73
$GPRMC,192805.000,A,3748.8062,N,12217.5568,W,0.60,176.96,231211,,,A*7D
$GPRMC,192806.000,A,3748.8061,N,12217.5565,W,0.40,149.84,231211,,,A*7D
$GPRMC,192807.000,A,3748.8058,N,12217.5561,W,1.03,116.18,231211,,,A*7B
$GPRMC,192808.000,A,3748.8053,N,12217.5555,W,1.33,136.95,231211,,,A*7C
$GPRMC,192809.000,A,3748.8049,N,12217.5551,W,0.79,124.25,231211,,,A*75
$GPRMC,192810.000,A,3748.8048,N,12217.5548,W,1.40,108.99,231211,,,A*76
$GPRMC,192811.000,A,3748.8044,N,12217.5545,W,0.93,138.51,231211,,,A*7E
$GPRMC,192812.000,A,3748.8039,N,12217.5543,W,0.81,152.63,231211,,,A*7F
$GPRMC,192813.000,A,3748.8037,N,12217.5542,W,0.24,201.12,231211,,,A*7D
$GPRMC,192814.000,A,3748.8033,N,12217.5539,W,1.08,187.89,231211,,,A*72
$GPRMC,192815.000,A,3748.8027,N,12217.5539,W,1.60,194.50,231211,,,A*7E
$GPRMC,192816.000,A,3748.8019,N,12217.5545,W,1.79,202.16,231211,,,A*7D
$GPRMC,192817.000,A,3748.8011,N,12217.5548,W,1.44,206.69,231211,,,A*7B
$GPRMC,192818.000,A,3748.8007,N,12217.5549,W,1.08,205.66,231211,,,A*76
$GPRMC,192819.000,A,3748.8004,N,12217.5551,W,0.78,220.07,231211,,,A*7B
$GPRMC,192820.000,A,3748.8002,N,12217.5554,W,0.39,215.94,231211,,,A*7B
$GPRMC,192821.000,A,3748.7998,N,12217.5555,W,1.05,229.69,231211,,,A*7D
$GPRMC,192822.000,A,3748.7994,N,12217.5559,W,1.63,213.86,231211,,,A*76
$GPRMC,192823.000,A,3748.7988,N,12217.5563,W,1.75,204.07,231211,,,A*7B
$GPRMC,192824.000,A,3748.7983,N,12217.5569,W,1.41,221.14,231211,,,A*7F
$GPRMC,192825.000,A,3748.7980,N,12217.5575,W,1.75,206.27,231211,,,A*72
$GPRMC,192826.000,A,3748.7974,N,12217.5578,W,1.69,183.86,231211,,,A*7F
$GPRMC,192827.000,A,3748.7966,N,12217.5577,W,1.98,206.59,231211,,,A*70
$GPRMC,192828.000,A,3748.7962,N,12217.5581,W,1.81,212.12,231211,,,A*70
$GPRMC,192829.000,A,3748.7956,N,12217.5585,W,1.73,213.19,231211,,,A*75
$GPRMC,192830.000,A,3748.7951,N,12217.5590,W,1.73,219.17,231211,,,A*7A
$GPRMC,192831.000,A,3748.7945,N,12217.5594,W,1.32,221.10,231211,,,A*73
$GPRMC,192832.000,A,3748.7939,N,12217.5596,W,1.21,206.45,231211,,,A*7E
$GPRMC,192833.000,A,3748.7931,N,12217.5600,W,1.65,219.70,231211,,,A*73
$GPRMC,192834.000,A,3748.7927,N,12217.5604,W,1.43,205.64,231211,,,A*7B
$GPRMC,192835.000,A,3748.7920,N,12217.5608,W,1.85,208.28,231211,,,A*7E
$GPRMC,192836.000,A,3748.7916,N,12217.5614,W,2.23,210.88,231211,,,A*79
$GPRMC,192837.000,A,3748.7911,N,12217.5620,W,2.46,218.24,231211,,,A*75
$GPRMC,192838.000,A,3748.7903,N,12217.5627,W,2.16,201.66,231211,,,A*75
$GPRMC,192839.000,A,3748.7898,N,12217.5630,W,1.56,207.66,231211,,,A*70
$GPRMC,192840.000,A,3748.7892,N,12217.5634,W,2.16,226.19,231211,,,A*7C
$GPRMC,192841.000,A,3748.7886,N,12217.5635,W,1.92,218.60,231211,,,A*75
$GPRMC,192842.000,A,3748.7880,N,12217.5639,W,1.75,205.27,231211,,,A*7A
$GPRMC,192843.000,A,3748.7876,N,12217.5647,W,2.00,211.44,231211,,,A*7A
$GPRMC,192844.000,A,3748.7871,N,12217.5653,W,1.88,212.27,231211,,,A*7A
$GPRMC,192845.000,A,3748.7867,N,12217.5658,W,1.98,205.83,231211,,,A*7E
$GPRMC,192846.000,A,3748.7862,N,12217.5662,W,2.25,195.64,231211,,,A*77
$GPRMC,192847.000,A,3748.7857,N,12217.5666,W,2.06,202.55,231211,,,A*7A
$GPRMC,192848.000,A,3748.7854,N,12217.5671,W,2.10,204.37,231211,,,A*75
$GPRMC,192849.000,A,3748.7852,N,12217.5677,W,1.96,212.99,231211,,,A*7A
$GPRMC,192850.000,A,3748.7849,N,12217.5683,W,1.79,218.27,231211,,,A*7D
$GPRMC,192851.000,A,3748.7846,N,12217.5690,W,2.28,215.93,231211,,,A*74
$GPRMC,192852.000,A,3748.7840,N,12217.5699,W,2.57,215.07,231211,,,A*7D
$GPRMC,192853.000,A,3748.7836,N,12217.5706,W,2.12,230.36,231211,,,A*7E
$GPRMC,192854.000,A,3748.7833,N,12217.5712,W,2.06,229.63,231211,,,A*74
$GPRMC,192855.000,A,3748.7828,N,12217.5717,W,2.02,220.94,231211,,,A*7F
$GPRMC,192856.000,A,3748.7822,N,12217.5723,W,2.06,222.27,231211,,,A*7F
$GPRMC,192857.000,A,3748.7815,N,12217.5730,W,1.59,222.75,231211,,,A*76
$GPRMC,192858.000,A,3748.7808,N,12217.5735,W,2.15,198.33,231211,,,A*7B
$GPRMC,192859.000,A,3748.7800,N,12217.5738,W,2.38,201.38,231211,,,A*78
$GPRMC,192900.000,A,3748.7794,N,12217.5745,W,2.51,213.98,231211,,,A*7B
$GPRMC,192901.000,A,3748.7788,N,12217.5750,W,2.05,217.15,231211,,,A*73
$GPRMC,192902.000,A,3748.7782,N,12217.5754,W,2.29,218.96,231211,,,A*74
$GPRMC,192903.000,A,3748.7777,N,12217.5760,W,2.01,217.44,231211,,,A*72
$GPRMC,192904.000,A,3748.7771,N,12217.5765,W,1.73,211.92,231211,,,A*7D
$GPRMC,192905.000,A,3748.7767,N,12217.5770,W,2.07,214.42,231211,,,A*77
$GPRMC,192906.000,A,3748.7759,N,12217.5778,W,2.23,210.93,231211,,,A*7F
$GPRMC,192907.000,A,3748.7751,N,12217.5784,W,2.26,203.24,231211,,,A*7E
$GPRMC,192908.000,A,3748.7743,N,12217.5789,W,1.92,212.07,231211,,,A*72
$GPRMC,192909.000,A,3748.7733,N,12217.5789,W,2.14,213.21,231211,,,A*7C
$GPRMC,192910.000,A,3748.7723,N,12217.5792,W,2.29,208.30,231211,,,A*7B
$GPRMC,192911.000,A,3748.7715,N,12217.5795,W,2.48,213.80,231211,,,A*7E
$GPRMC,192912.000,A,3748.7708,N,12217.5801,W,2.45,209.44,231211,,,A*7D
$GPRMC,192913.000,A,3748.7699,N,12217.5803,W,2.38,215.98,231211,,,A*71
$GPRMC,192914.000,A,3748.7691,N,12217.5806,W,2.32,212.34,231211,,,A*70
$GPRMC,192915.000,A,3748.7684,N,12217.5808,W,1.92,214.60,231211,,,A*75
$GPRMC,192916.000,A,3748.7677,N,12217.5813,W,2.12,208.80,231211,,,A*78
$GPRMC,192917.000,A,3748.7670,N,12217.5818,W,1.92,194.22,231211,,,A*70
$GPRMC,192918.000,A,3748.7663,N,12217.5821,W,1.92,193.28,231211,,,A*7A
$GPRMC,192919.000,A,3748.7658,N,12217.5825,W,2.02,204.76,231211,,,A*7B
$GPRMC,192920.000,A,3748.7650,N,12217.5831,W,2.32,195.48,231211,,,A*79
$GPRMC,192921.000,A,3748.7644,N,12217.5833,W,2.05,201.20,231211,,,A*7B
$GPRMC,192922.000,A,3748.7637,N,12217.5835,W,1.75,191.93,231211,,,A*7C
$GPRMC,192923.000,A,3748.7631,N,12217.5840,W,2.24,198.42,231211,,,A*7B
$GPRMC,192924.000,A,3748.7625,N,12217.5838,W,1.93,202.62,231211,,,A*7B
$GPRMC,192925.000,A,3748.7620,N,12217.5837,W,1.49,191.92,231211,,,A*71
$GPRMC,192926.000,A,3748.7616,N,12217.5834,W,1.24,186.33,231211,,,A*72
$GPRMC,192927.000,A,3748.7611,N,12217.5834,W,1.67,200.75,231211,,,A*7C
$GPRMC,192928.000,A,3748.7606,N,12217.5838,W,2.19,210.00,231211,,,A*70
$GPRMC,192929.000,A,3748.7601,N,12217.5844,W,1.72,202.06,231211,,,A*76
$GPRMC,192930.000,A,3748.7595,N,12217.5850,W,1.83,202.52,231211,,,A*7A
$GPRMC,192931.000,A,3748.7592,N,12217.5858,W,1.70,210.10,231211,,,A*7D
$GPRMC,192932.000,A,3748.7590,N,12217.5865,W,1.30,222.44,231211,,,A*76
$GPRMC,192933.000,A,3748.7586,N,12217.5871,W,1.83,222.28,231211,,,A*77
$GPRMC,192934.000,A,3748.7579,N,12217.5879,W,1.65,236.21,231211,,,A*7C
$GPRMC,192935.000,A,3748.7574,N,12217.5886,W,1.85,242.19,231211,,,A*76
$GPRMC,192936.000,A,3748.7567,N,12217.5897,W,1.97,248.82,231211,,,A*7C
$GPRMC,192937.000,A,3748.7562,N,12217.5906,W,1.48,261.05,231211,,,A*77
$GPRMC,192938.000,A,3748.7559,N,12217.5908,W,1.49,256.67,231211,,,A*7F
$GPRMC,192939.000,A,3748.7554,N,12217.5914,W,1.25,232.48,231211,,,A*7B
$GPRMC,192940.000,A,3748.7548,N,12217.5917,W,1.59,208.45,231211,,,A*74
$GPRMC,192941.000,A,3748.7538,N,12217.5922,W,1.56,198.74,231211,,,A*73
$GPRMC,192942.000,A,3748.7532,N,12217.5925,W,1.34,221.84,231211,,,A*77
$GPRMC,192943.000,A,3748.7527,N,12217.5929,W,1.59,228.69,231211,,,A*7F
$GPRMC,192944.000,A,3748.7521,N,12217.5935,W,1.65,202.75,231211,,,A*79
$GPRMC,192945.000,A,3748.7516,N,12217.5939,W,1.58,185.10,231211,,,A*71
$GPRMC,192946.000,A,3748.7506,N,12217.5933,W,1.67,182.33,231211,,,A*73
$GPRMC,192947.000,A,3748.7498,N,12217.5932,W,1.71,190.16,231211,,,A*76
$GPRMC,192948.000,A,3748.7491,N,12217.5936,W,1.91,190.75,231211,,,A*7F
$GPRMC,192949.000,A,3748.7485,N,12217.5941,W,1.66,198.48,231211,,,A*75
$GPRMC,192950.000,A,3748.7479,N,12217.5943,W,2.04,207.30,231211,,,A*71
$GPRMC,192951.000,A,3748.7471,N,12217.5948,W,1.82,207.03,231211,,,A*7E
$GPRMC,192952.000,A,3748.7466,N,12217.5958,W,1.93,206.42,231211,,,A*7E
$GPRMC,192953.000,A,3748.7459,N,12217.5962,W,1.95,199.64,231211,,,A*7D
$GPRMC,192954.000,A,3748.7451,N,12217.5964,W,2.12,185.71,231211,,,A*71
$GPRMC,192955.000,A,3748.7443,N,12217.5963,W,1.99,180.71,231211,,,A*71
$GPRMC,192956.000,A,3748.7434,N,12217.5967,W,1.93,194.15,231211,,,A*7B
$GPRMC,192957.000,A,3748.7427,N,12217.5975,W,1.51,204.32,231211,,,A*7A
$GPRMC,192958.000,A,3748.7421,N,12217.5975,W,1.55,214.25,231211,,,A*70
$GPRMC,192959.000,A,3748.7418,N,12217.5981,W,1.61,209.68,231211,,,A*72
$GPRMC,193000.000,A,3748.7414,N,12217.5989,W,2.17,220.73,231211,,,A*71
$GPRMC,193001.000,A,3748.7408,N,12217.5996,W,1.72,214.96,231211,,,A*7F
$GPRMC,193002.000,A,3748.7403,N,12217.6000,W,1.60,202.92,231211,,,A*72
$GPRMC,193003.000,A,3748.7398,N,12217.6003,W,1.67,209.55,231211,,,A*72
$GPRMC,193004.000,A,3748.7395,N,12217.6011,W,1.86,220.51,231211,,,A*7B
$GPRMC,193005.000,A,3748.7391,N,12217.6014,W,2.19,213.88,231211,,,A*7A
$GPRMC,193006.000,A,3748.7385,N,12217.6017,W,2.07,205.91,231211,,,A*7F
$GPRMC,193007.000,A,3748.7380,N,12217.6019,W,2.09,208.55,231211,,,A*7E
$GPRMC,193008.000,A,3748.7374,N,12217.6027,W,1.88,193.32,231211,,,A*7D
$GPRMC,193009.000,A,3748.7368,N,12217.6029,W,1.84,175.67,231211,,,A*7B
$GPRMC,193010.000,A,3748.7361,N,12217.6027,W,1.90,182.56,231211,,,A*7B
$GPRMC,193011.000,A,3748.7355,N,12217.6032,W,1.74,196.89,231211,,,A*74
