$ADVER,3080,2.3
$GPRMC,222558.608,A,3748.7990,N,12217.8635,W,0.09,217.10,140710,,,A*77
$GPGGA,222559.608,3748.8009,N,12217.8618,W,1,06,1.4,-10.9,M,-25.1,M,,0000*7F
$GPGSA,A,3,07,28,11,26,17,08,,,,,,,2.8,1.4,2.3*3B
$GPGSV,3,1,10,28,72,346,37,08,66,067,35,17,44,183,35,26,38,307,38*75
$GPGSV,3,2,10,07,34,106,30,11,24,094,28,25,72,079,,19,08,037,*74
$GPGSV,3,3,10,05,05,248,,10,00,217,*73
$GPRMC,222559.608,A,3748.8009,N,12217.8618,W,0.06,55.26,140710,,,A*41
$GPVTG,55.26,T,,M,0.06,N,0.1,K,A*3E
$GPGGA,222600.000,3748.8007,N,12217.8621,W,1,06,1.4,-9.5,M,-25.1,M,,0000*4E
$GPGSA,A,3,07,28,11,26,17,08,,,,,,,2.8,1.4,2.3*3B
$GPRMC,222600.000,A,3748.8007,N,12217.8621,W,0.06,42.66,140710,,,A*46
$GPVTG,42.66,T,,M,0.06,N,0.1,K,A*3C
$GPGGA,222601.000,3748.8009,N,12217.8616,W,1,06,1.4,-10.6,M,-25.1,M,,0000*7E
$GPGSA,A,3,07,28,11,26,17,08,,,,,,,2.8,1.4,2.3*3B
$GPRMC,222601.000,A,3748.8009,N,12217.8616,W,0.14,85.45,140710,,,A*44
$GPVTG,85.45,T,,M,0.14,N,0.3,K,A*37
$GPGGA,222602.000,3748.8009,N,12217.8619,W,1,06,1.4,-9.2,M,-25.1,M,,0000*4E
$GPGSA,A,3,07,28,11,26,17,08,,,,,,,2.8,1.4,2.3*3B
$GPRMC,222602.000,A,3748.8009,N,12217.8619,W,0.23,49.17,140710,,,A*4B
$GPVTG,49.17,T,,M,0.23,N,0.4,K,A*33
$GPGGA,222603.000,3748.8008,N,12217.8621,W,1,06,1.4,-8.9,M,-25.1,M,,0000*4F
$GPGSA,A,3,07,28,11,26,17,08,,,,,,,2.8,1.4,2.3*3B
$GPRMC,222603.000,A,3748.8008,N,12217.8621,W,0.13,29.43,140710,,,A*44
$GPVTG,29.43,T,,M,0.13,N,0.2,K,A*31
$GPGGA,222604.000,3748.8008,N,12217.8622,W,1,06,1.4,-8.3,M,-25.1,M,,0000*41
$GPGSA,A,3,07,28,11,26,17,08,,,,,,,2.8,1.4,2.3*3B
$GPGSV,3,1,11,28,72,346,33,08,66,067,30,17,44,183,35,26,38,307,32*7F
$GPGSV,3,2,11,07,34,106,30,11,24,094,25,25,72,079,,19,08,037,*78
$GPGSV,3,3,11,05,05,248,,10,00,217,,48,00,000,34*49
$GPRMC,222604.000,A,3748.8008,N,12217.8622,W,0.14,136.20,140710,,,A*7D
$GPGGA,222605.000,3748.8009,N,12217.8624,W,1,06,1.4,-9.2,M,-25.1,M,,0000*47
$GPGSA,A,3,07,28,11,26,17,08,,,,,,,2.8,1.4,2.3*3B
$GPRMC,222605.000,A,3748.8009,N,12217.8624,W,0.61,132.43,140710,,,A*78
$GPVTG,132.43,T,,M,0.61,N,1.1,K,A*0D
$GPGGA,222606.000,3748.8008,N,12217.8624,W,1,06,1.4,-8.9,M,-25.1,M,,0000*4F
$GPGSA,A,3,07,28,11,26,17,08,,,,,,,2.8,1.4,2.3*3B
$GPRMC,222606.000,A,3748.8008,N,12217.8624,W,0.37,114.52,140710,,,A*7D
$GPVTG,114.52,T,,M,0.37,N,0.7,K,A*0D
$GPGGA,222607.000,3748.8009,N,12217.8622,W,1,06,1.4,-8.7,M,-25.1,M,,0000*47
$GPGSA,A,3,07,28,11,26,17,08,,,,,,,2.8,1.4,2.3*3B
$GPRMC,222607.000,A,3748.8009,N,12217.8622,W,0.08,116.91,140710,,,A*7A
$GPVTG,116.91,T,,M,0.08,N,0.2,K,A*09
$GPGGA,222608.000,3748.8008,N,12217.8612,W,1,06,1.4,-7.6,M,-25.1,M,,0000*44
$GPGSA,A,3,07,28,11,26,17,08,,,,,,,2.8,1.4,2.3*3B
$GPRMC,222608.000,A,3748.8008,N,12217.8612,W,0.52,53.17,140710,,,A*46
$GPVTG,53.17,T,,M,0.52,N,1.0,K,A*3B
$GPGGA,222609.000,3748.8008,N,12217.8609,W,1,06,1.4,-9.6,M,-25.1,M,,0000*41
$GPGSA,A,3,07,28,11,26,17,08,,,,,,,2.8,1.4,2.3*3B
$GPGSV,3,1,10,28,72,346,14,08,66,067,26,17,44,183,31,26,38,307,25*7E
$GPGSV,3,2,10,07,34,106,22,11,24,094,23,25,72,079,,19,08,037,19*74
$GPGSV,3,3,10,05,05,248,,10,00,217,*73
$GPRMC,222609.000,A,3748.8008,N,12217.8609,W,0.12,16.90,140710,,,A*47
$GPVTG,16.90,T,,M,0.12,N,0.2,K,A*32
$GPGGA,222610.000,3748.8010,N,12217.8607,W,1,05,3.2,-11.5,M,-25.1,M,,0000*73
$GPGSA,A,3,07,28,11,17,08,,,,,,,,6.4,3.2,5.5*32
$GPRMC,222610.000,A,3748.8010,N,12217.8607,W,0.63,24.65,140710,,,A*45
$GPVTG,24.65,T,,M,0.63,N,1.2,K,A*3E
$GPGGA,222611.000,3748.8010,N,12217.8607,W,1,06,1.4,-12.2,M,-25.1,M,,0000*71
$GPGSA,A,3,07,28,11,26,17,08,,,,,,,2.8,1.4,2.3*3B
$GPRMC,222611.000,A,3748.8010,N,12217.8607,W,0.59,332.50,140710,,,A*7F
$GPVTG,332.50,T,,M,0.59,N,1.1,K,A*06
$GPGGA,222612.000,3748.8006,N,12217.8598,W,1,06,1.4,-11.2,M,-25.1,M,,0000*73
$GPGSA,A,3,07,28,11,26,17,08,,,,,,,2.8,1.4,2.3*3B
$GPRMC,222612.000,A,3748.8006,N,12217.8598,W,0.17,44.72,140710,,,A*46
$GPVTG,44.72,T,,M,0.17,N,0.3,K,A*3D
$GPGGA,222613.000,3748.8011,N,12217.8599,W,1,06,1.4,-11.5,M,-25.1,M,,0000*72
$GPGSA,A,3,07,28,11,26,17,08,,,,,,,2.8,1.4,2.3*3B
$GPRMC,222613.000,A,3748.8011,N,12217.8599,W,0.50,337.72,140710,,,A*74
$GPVTG,337.72,T,,M,0.50,N,0.9,K,A*03
$GPGGA,222614.000,3748.8015,N,12217.8598,W,1,06,1.4,-11.3,M,-25.1,M,,0000*76
$GPGSA,A,3,07,28,11,26,17,08,,,,,,,2.8,1.4,2.3*3B
$GPGSV,3,1,11,28,72,346,17,08,66,067,27,17,44,183,29,26,38,307,28*79
$GPGSV,3,2,11,07,34,106,35,11,24,094,25,25,72,079,,19,08,037,22*7D
$GPGSV,3,3,11,05,05,248,,10,00,217,,48,00,000,28*44
$GPRMC,222614.000,A,3748.8015,N,12217.8598,W,0.30,10.31,140710,,,A*41
$GPVTG,10.31,T,,M,0.30,N,0.6,K,A*3B
$GPGGA,222615.000,3748.8017,N,12217.8595,W,1,06,1.4,-11.0,M,-25.1,M,,0000*7B
$GPGSA,A,3,07,28,11,26,17,08,,,,,,,2.8,1.4,2.3*3B
$GPRMC,222615.000,A,3748.8017,N,12217.8595,W,0.17,75.83,140710,,,A*40
$GPVTG,75.83,T,,M,0.17,N,0.3,K,A*31
$GPGGA,222616.000,3748.8018,N,12217.8593,W,1,06,1.4,-10.3,M,-25.1,M,,0000*73
$GPGSA,A,3,07,28,11,26,17,08,,,,,,,2.8,1.4,2.3*3B
$GPRMC,222616.000,A,3748.8018,N,12217.8593,W,0.05,262.68,140710,,,A*78
$GPVTG,262.68,T,,M,0.05,N,0.1,K,A*01
$GPGGA,222617.000,3748.8019,N,12217.8590,W,1,06,1.4,-9.8,M,-25.1,M,,0000*43
$GPGSA,A,3,07,28,11,26,17,08,,,,,,,2.8,1.4,2.4*3C
$GPRMC,222617.000,A,3748.8019,N,12217.8590,W,0.32,31.02,140710,,,A*47
$GPVTG,31.02,T,,M,0.32,N,0.6,K,A*3A
$GPGGA,222618.000,3748.8017,N,12217.8588,W,1,05,3.2,-9.2,M,-25.1,M,,0000*46
$GPGSA,A,3,07,28,11,17,08,,,,,,,,6.3,3.2,5.5*35
$GPRMC,222618.000,A,3748.8017,N,12217.8588,W,0.70,116.90,140710,,,A*76
$GPVTG,116.90,T,,M,0.70,N,1.3,K,A*07
$GPGGA,222619.000,3748.8017,N,12217.8585,W,1,04,2.0,-9.1,M,-25.1,M,,0000*4B
$GPGSA,A,3,07,28,17,08,,,,,,,,,2.2,2.0,1.0*32
$GPGSV,3,1,11,25,72,079,,28,72,346,18,08,66,068,27,17,45,183,32*7F
$GPGSV,3,2,11,26,38,307,07,07,34,106,28,11,24,094,17,19,08,037,29*7B
$GPGSV,3,3,11,05,05,248,,10,00,217,,48,44,197,24*47
$GPRMC,222619.000,A,3748.8017,N,12217.8585,W,0.64,119.75,140710,,,A*7B
$GPGGA,222620.000,3748.8021,N,12217.8580,W,1,05,1.6,-7.9,M,-25.1,M,,0000*43
$GPGSA,A,3,07,28,26,17,08,,,,,,,,3.4,1.6,3.0*36
$GPRMC,222620.000,A,3748.8021,N,12217.8580,W,0.13,35.26,140710,,,A*48
$GPVTG,35.26,T,,M,0.13,N,0.2,K,A*3F
$GPGGA,222621.000,3748.8022,N,12217.8577,W,1,05,1.6,-9.1,M,-25.1,M,,0000*4F
$GPGSA,A,3,07,28,26,17,08,,,,,,,,3.4,1.6,3.0*36
$GPRMC,222621.000,A,3748.8022,N,12217.8577,W,0.10,177.87,140710,,,A*7D
$GPVTG,177.87,T,,M,0.10,N,0.2,K,A*00
$GPGGA,222622.000,3748.8023,N,12217.8579,W,1,04,1.5,-9.3,M,-25.1,M,,0000*43
$GPGSA,A,3,07,11,26,17,,,,,,,,,1.8,1.5,1.0*3B
$GPRMC,222622.000,A,3748.8023,N,12217.8579,W,0.38,236.77,140710,,,A*72
$GPVTG,236.77,T,,M,0.38,N,0.7,K,A*06
$GPGGA,222623.000,3748.8022,N,12217.8583,W,1,06,1.4,-10.7,M,-25.1,M,,0000*79
$GPGSA,A,3,07,28,11,26,17,08,,,,,,,2.8,1.4,2.4*3C
$GPRMC,222623.000,A,3748.8022,N,12217.8583,W,0.20,210.87,140710,,,A*75
$GPVTG,210.87,T,,M,0.20,N,0.4,K,A*07
$GPGGA,222624.000,3748.8021,N,12217.8584,W,1,06,1.4,-12.3,M,-25.1,M,,0000*7C
$GPGSA,A,3,07,28,11,26,17,08,,,,,,,2.8,1.4,2.4*3C
$GPGSV,3,1,11,25,72,079,,28,72,346,12,08,66,068,19,17,45,183,32*78
$GPGSV,3,2,11,26,38,307,27,07,34,106,26,11,24,094,30,19,08,037,29*72
$GPGSV,3,3,11,05,05,248,,10,00,217,,48,44,197,27*44
$GPRMC,222624.000,A,3748.8021,N,12217.8584,W,0.11,136.92,140710,,,A*77
$GPVTG,136.92,T,,M,0.11,N,0.2,K,A*00
$GPGGA,222625.000,3748.8020,N,12217.8580,W,1,05,1.5,-13.4,M,-25.1,M,,0000*7C
$GPGSA,A,3,07,11,26,17,08,,,,,,,,3.2,1.5,2.8*30
$GPRMC,222625.000,A,3748.8020,N,12217.8580,W,0.11,133.66,140710,,,A*7D
$GPVTG,133.66,T,,M,0.11,N,0.2,K,A*0E
$GPGGA,222626.000,3748.8020,N,12217.8577,W,1,05,1.5,-14.0,M,-25.1,M,,0000*74
$GPGSA,A,3,07,11,26,17,08,,,,,,,,3.2,1.5,2.8*30
$GPRMC,222626.000,A,3748.8020,N,12217.8577,W,0.15,30.33,140710,,,A*40
$GPVTG,30.33,T,,M,0.15,N,0.3,K,A*39
$GPGGA,222627.000,3748.8022,N,12217.8577,W,1,05,1.5,-14.6,M,-25.1,M,,0000*71
$GPGSA,A,3,07,11,26,17,08,,,,,,,,3.2,1.5,2.8*30
$GPRMC,222627.000,A,3748.8022,N,12217.8577,W,0.30,337.36,140710,,,A*75
$GPVTG,337.36,T,,M,0.30,N,0.5,K,A*09
$GPGGA,222628.000,3748.8024,N,12217.8577,W,1,05,1.5,-13.0,M,-25.1,M,,0000*79
$GPGSA,A,3,07,11,26,17,08,,,,,,,,3.2,1.5,2.8*30
$GPRMC,222628.000,A,3748.8024,N,12217.8577,W,0.09,105.00,140710,,,A*70
$GPVTG,105.00,T,,M,0.09,N,0.2,K,A*02
$GPGGA,222629.000,3748.8026,N,12217.8572,W,1,05,1.5,-10.9,M,-25.1,M,,0000*75
$GPGSA,A,3,07,11,26,17,08,,,,,,,,3.2,1.5,2.8*30
$GPGSV,3,1,11,25,72,079,,28,72,346,,08,66,068,21,17,45,183,32*70
$GPGSV,3,2,11,26,38,307,20,07,34,106,24,11,24,094,31,19,08,037,30*7E
$GPGSV,3,3,11,05,05,248,,10,00,217,,48,44,197,28*4B
$GPRMC,222629.000,A,3748.8026,N,12217.8572,W,0.95,130.25,140710,,,A*72
$GPVTG,130.25,T,,M,0.95,N,1.8,K,A*0D
$GPGGA,222630.000,3748.8028,N,12217.8569,W,1,05,1.5,-10.2,M,-25.1,M,,0000*72
$GPGSA,A,3,07,11,26,17,08,,,,,,,,3.2,1.5,2.8*30
$GPRMC,222630.000,A,3748.8028,N,12217.8569,W,0.48,108.67,140710,,,A*73
$GPVTG,108.67,T,,M,0.48,N,0.9,K,A*00
$GPGGA,222631.000,3748.8035,N,12217.8571,W,1,05,1.5,-9.7,M,-25.1,M,,0000*4B
$GPGSA,A,3,07,11,26,17,08,,,,,,,,3.2,1.5,2.8*30
$GPRMC,222631.000,A,3748.8035,N,12217.8571,W,0.37,349.35,140710,,,A*7F
$GPVTG,349.35,T,,M,0.37,N,0.7,K,A*06
$GPGGA,222632.000,3748.8037,N,12217.8571,W,1,06,1.4,-11.9,M,-25.1,M,,0000*7F
$GPGSA,A,3,07,28,11,26,17,08,,,,,,,2.8,1.4,2.4*3C
$GPRMC,222632.000,A,3748.8037,N,12217.8571,W,0.36,61.11,140710,,,A*40
$GPVTG,61.11,T,,M,0.36,N,0.7,K,A*38
$GPGGA,222633.000,3748.8035,N,12217.8563,W,1,06,1.4,-10.8,M,-25.1,M,,0000*7F
$GPGSA,A,3,07,28,11,26,17,08,,,,,,,2.8,1.4,2.4*3C
$GPRMC,222633.000,A,3748.8035,N,12217.8563,W,0.23,89.51,140710,,,A*46
$GPVTG,89.51,T,,M,0.23,N,0.4,K,A*3D
$GPGGA,222634.000,3748.8035,N,12217.8555,W,1,06,1.4,-8.2,M,-25.1,M,,0000*4E
$GPGSA,A,3,07,28,11,26,17,08,,,,,,,2.8,1.4,2.4*3C
$GPGSV,3,1,10,25,72,079,,28,72,346,18,08,66,068,23,17,45,183,30*78
$GPGSV,3,2,10,26,38,307,18,07,34,106,28,11,24,094,33,19,08,037,19*71
$GPGSV,3,3,10,05,05,248,,10,00,217,*73
$GPRMC,222634.000,A,3748.8035,N,12217.8555,W,0.87,91.07,140710,,,A*40
$GPVTG,91.07,T,,M,0.87,N,1.6,K,A*3A
$GPGGA,222635.000,3748.8032,N,12217.8556,W,1,06,1.4,-7.4,M,-25.1,M,,0000*42
$GPGSA,A,3,07,28,11,26,17,08,,,,,,,2.8,1.4,2.4*3C
$GPRMC,222635.000,A,3748.8032,N,12217.8556,W,0.38,300.11,140710,,,A*7D
$GPVTG,300.11,T,,M,0.38,N,0.7,K,A*02
$GPGGA,222636.000,3748.8027,N,12217.8561,W,1,06,1.5,-8.0,M,-25.1,M,,0000*4B
$GPGSA,A,3,07,28,11,26,17,08,,,,,,,2.8,1.5,2.4*3D
$GPRMC,222636.000,A,3748.8027,N,12217.8561,W,0.52,38.74,140710,,,A*49
$GPVTG,38.74,T,,M,0.52,N,1.0,K,A*33
$GPGGA,222637.000,3748.8020,N,12217.8565,W,1,06,1.5,-7.8,M,-25.1,M,,0000*4E
$GPGSA,A,3,07,28,11,26,17,08,,,,,,,2.8,1.5,2.4*3D
$GPRMC,222637.000,A,3748.8020,N,12217.8565,W,0.20,116.82,140710,,,A*7A
$GPVTG,116.82,T,,M,0.20,N,0.4,K,A*07
$GPGGA,222638.000,3748.8017,N,12217.8573,W,1,06,1.5,-7.0,M,-25.1,M,,0000*4A
$GPGSA,A,3,07,28,11,26,17,08,,,,,,,2.8,1.5,2.4*3D
$GPRMC,222638.000,A,3748.8017,N,12217.8573,W,0.13,303.53,140710,,,A*7C
$GPVTG,303.53,T,,M,0.13,N,0.2,K,A*0B
$GPGGA,222639.000,3748.8011,N,12217.8584,W,1,06,1.5,-6.9,M,-25.1,M,,0000*4D
$GPGSA,A,3,07,28,11,26,17,08,,,,,,,2.8,1.5,2.4*3D
$GPGSV,3,1,10,25,72,079,,28,72,346,23,08,66,068,18,17,45,183,16*7C
$GPGSV,3,2,10,26,38,307,34,07,34,106,25,11,24,094,24,19,08,037,21*7F
$GPGSV,3,3,10,05,05,248,,10,00,217,*73
$GPRMC,222639.000,A,3748.8011,N,12217.8584,W,0.18,63.53,140710,,,A*4D
$GPVTG,63.53,T,,M,0.18,N,0.3,K,A*34
$GPGGA,222640.000,3748.8017,N,12217.8584,W,1,06,1.5,-5.2,M,-25.1,M,,0000*4D
$GPGSA,A,3,07,28,11,26,17,08,,,,,,,2.8,1.5,2.4*3D
$GPRMC,222640.000,A,3748.8017,N,12217.8584,W,0.56,21.21,140710,,,A*4C
$GPVTG,21.21,T,,M,0.56,N,1.0,K,A*3F
$GPGGA,222641.000,3748.8021,N,12217.8584,W,1,06,1.5,-4.2,M,-25.1,M,,0000*48
$GPGSA,A,3,07,28,11,26,17,08,,,,,,,2.8,1.5,2.4*3D
$GPRMC,222641.000,A,3748.8021,N,12217.8584,W,0.21,66.61,140710,,,A*4F
$GPVTG,66.61,T,,M,0.21,N,0.4,K,A*3D
$GPGGA,222642.000,3748.8023,N,12217.8583,W,1,05,6.4,-1.5,M,-25.1,M,,0000*49
$GPGSA,A,3,07,28,11,26,08,,,,,,,,6.9,6.4,2.4*38
$GPRMC,222642.000,A,3748.8023,N,12217.8583,W,0.21,92.07,140710,,,A*42
$GPVTG,92.07,T,,M,0.21,N,0.4,K,A*36
$GPGGA,222643.000,3748.8026,N,12217.8585,W,1,05,6.4,0.3,M,-25.1,M,,0000*61
$GPGSA,A,3,07,28,11,26,08,,,,,,,,6.9,6.4,2.4*38
$GPRMC,222643.000,A,3748.8026,N,12217.8585,W,0.54,14.92,140710,,,A*40
$GPVTG,14.92,T,,M,0.54,N,1.0,K,A*33
$GPGGA,222644.000,3748.8026,N,12217.8586,W,1,05,1.6,1.8,M,-25.1,M,,0000*6A
$GPGSA,A,3,07,28,11,26,17,,,,,,,,3.4,1.6,3.0*3E
$GPGSV,3,1,10,25,72,079,,28,72,346,19,08,66,068,18,17,45,183,26*76
$GPGSV,3,2,10,26,38,307,31,07,34,106,22,11,24,094,33,19,08,037,28*72
$GPGSV,3,3,10,05,05,248,,10,00,217,*73
$GPRMC,222644.000,A,3748.8026,N,12217.8586,W,0.51,8.14,140710,,,A*72
$GPVTG,8.14,T,,M,0.51,N,0.9,K,A*0D
$GPGGA,222645.000,3748.8028,N,12217.8587,W,1,06,1.5,3.5,M,-25.1,M,,0000*6B
$GPGSA,A,3,07,28,11,26,08,17,,,,,,,2.8,1.5,2.4*3D
$GPRMC,222645.000,A,3748.8028,N,12217.8587,W,1.09,15.60,140710,,,A*4F
$GPVTG,15.60,T,,M,1.09,N,2.0,K,A*35
$GPGGA,222646.000,3748.8032,N,12217.8589,W,1,05,6.4,3.3,M,-25.1,M,,0000*6E
$GPGSA,A,3,07,28,11,26,08,,,,,,,,6.8,6.4,2.4*39
$GPRMC,222646.000,A,3748.8032,N,12217.8589,W,0.81,26.36,140710,,,A*4B
$GPVTG,26.36,T,,M,0.81,N,1.5,K,A*31
$GPGGA,222647.000,3748.8031,N,12217.8592,W,1,06,1.5,3.8,M,-25.1,M,,0000*68
$GPGSA,A,3,07,28,11,26,08,17,,,,,,,2.8,1.5,2.4*3D
$GPRMC,222647.000,A,3748.8031,N,12217.8592,W,0.51,175.63,140710,,,A*79
$GPVTG,175.63,T,,M,0.51,N,0.9,K,A*06
$GPGGA,222648.000,3748.8020,N,12217.8597,W,1,06,1.5,3.5,M,-25.1,M,,0000*6F
$GPGSA,A,3,07,28,11,26,08,17,,,,,,,2.8,1.5,2.4*3D
$GPRMC,222648.000,A,3748.8020,N,12217.8597,W,0.41,153.23,140710,,,A*72
$GPVTG,153.23,T,,M,0.41,N,0.8,K,A*06
$GPGGA,222649.000,3748.8013,N,12217.8606,W,1,06,1.5,1.8,M,-25.1,M,,0000*6A
$GPGSA,A,3,07,28,11,26,08,17,,,,,,,2.8,1.5,2.4*3D
$GPGSV,3,1,10,25,71,080,,28,71,347,25,08,66,068,28,17,45,183,26*7D
$GPGSV,3,2,10,26,38,307,31,07,34,107,22,11,24,094,31,19,07,037,28*7E
$GPGSV,3,3,10,05,05,248,,48,44,197,28*7F
$GPRMC,222649.000,A,3748.8013,N,12217.8606,W,0.36,131.61,140710,,,A*7A
$GPVTG,131.61,T,,M,0.36,N,0.7,K,A*0B
$GPGGA,222650.000,3748.8005,N,12217.8613,W,1,06,1.5,0.3,M,-25.1,M,,0000*6B
$GPGSA,A,3,07,28,11,26,08,17,,,,,,,2.8,1.5,2.4*3D
$GPRMC,222650.000,A,3748.8005,N,12217.8613,W,0.67,182.76,140710,,,A*7B
$GPVTG,182.76,T,,M,0.67,N,1.2,K,A*05
$GPGGA,222651.000,3748.8000,N,12217.8616,W,1,06,1.5,-0.1,M,-25.1,M,,0000*45
$GPGSA,A,3,07,28,11,26,08,17,,,,,,,2.8,1.5,2.4*3D
$GPRMC,222651.000,A,3748.8000,N,12217.8616,W,0.24,163.98,140710,,,A*72
$GPVTG,163.98,T,,M,0.24,N,0.4,K,A*0A
$GPGGA,222652.000,3748.7995,N,12217.8617,W,1,05,1.6,1.2,M,-25.1,M,,0000*62
$GPGSA,A,3,07,28,26,08,17,,,,,,,,3.5,1.6,3.1*36
$GPRMC,222652.000,A,3748.7995,N,12217.8617,W,0.62,150.88,140710,,,A*79
$GPVTG,150.88,T,,M,0.62,N,1.1,K,A*0D
$GPGGA,222653.000,3748.7984,N,12217.8626,W,1,05,1.6,1.2,M,-25.1,M,,0000*61
$GPGSA,A,3,07,28,26,08,17,,,,,,,,3.5,1.6,3.1*36
$GPRMC,222653.000,A,3748.7984,N,12217.8626,W,0.65,204.46,140710,,,A*7D
$GPVTG,204.46,T,,M,0.65,N,1.2,K,A*09
$GPGGA,222654.000,3748.7981,N,12217.8626,W,1,05,1.6,2.0,M,-25.1,M,,0000*62
$GPGSA,A,3,07,28,26,08,17,,,,,,,,3.5,1.6,3.1*36
$GPGSV,3,1,09,25,71,080,,28,71,347,25,08,66,068,25,17,45,183,23*7D
$GPGSV,3,2,09,26,38,307,25,07,34,107,21,11,24,094,,19,07,037,11*78
$GPGSV,3,3,09,05,05,248,*4E
$GPRMC,222654.000,A,3748.7981,N,12217.8626,W,0.99,183.60,140710,,,A*74
$GPVTG,183.60,T,,M,0.99,N,1.8,K,A*08
$GPGGA,222655.000,3748.7984,N,12217.8628,W,1,05,1.6,1.1,M,-25.1,M,,0000*6A
$GPGSA,A,3,07,28,26,08,17,,,,,,,,3.5,1.6,3.1*36
$GPRMC,222655.000,A,3748.7984,N,12217.8628,W,0.27,173.76,140710,,,A*73
$GPVTG,173.76,T,,M,0.27,N,0.5,K,A*09
$GPGGA,222656.000,3748.7986,N,12217.8627,W,1,06,1.5,0.5,M,-25.1,M,,0000*61
$GPGSA,A,3,07,28,26,11,08,17,,,,,,,2.8,1.5,2.4*3D
$GPRMC,222656.000,A,3748.7986,N,12217.8627,W,0.28,191.06,140710,,,A*79
$GPVTG,191.06,T,,M,0.28,N,0.5,K,A*0D
$GPGGA,222657.000,3748.7994,N,12217.8621,W,1,06,1.5,-1.7,M,-25.1,M,,0000*4B
$GPGSA,A,3,07,28,26,11,08,17,,,,,,,2.8,1.5,2.4*3D
$GPRMC,222657.000,A,3748.7994,N,12217.8621,W,0.98,25.93,140710,,,A*44
$GPVTG,25.93,T,,M,0.98,N,1.8,K,A*38
$GPGGA,222658.000,3748.8004,N,12217.8619,W,1,06,1.5,-2.9,M,-25.1,M,,0000*4D
$GPGSA,A,3,07,28,26,11,08,17,,,,,,,2.8,1.5,2.4*3D
$GPRMC,222658.000,A,3748.8004,N,12217.8619,W,1.48,14.93,140710,,,A*41
$GPVTG,14.93,T,,M,1.48,N,2.7,K,A*3A
$GPGGA,222659.000,3748.8018,N,12217.8610,W,1,06,1.5,-5.2,M,-25.1,M,,0000*44
$GPGSA,A,3,07,28,26,11,08,17,,,,,,,2.8,1.5,2.4*3D
$GPGSV,3,1,09,25,71,080,,28,71,347,23,08,66,068,29,17,45,183,20*74
$GPGSV,3,2,09,26,38,307,26,07,34,107,27,11,24,094,24,19,07,037,*7B
$GPRMC,222659.000,A,3748.8018,N,12217.8610,W,1.21,19.71,140710,,,A*4A
$GPVTG,19.71,T,,M,1.21,N,2.2,K,A*31
$GPGGA,222700.000,3748.8011,N,12217.8617,W,1,06,1.5,-6.4,M,-25.1,M,,0000*42
$GPGSA,A,3,07,28,26,11,08,17,,,,,,,2.8,1.5,2.4*3D
$GPRMC,222700.000,A,3748.8011,N,12217.8617,W,0.64,209.79,140710,,,A*72
$GPVTG,209.79,T,,M,0.64,N,1.2,K,A*09
$GPGGA,222701.000,3748.8011,N,12217.8618,W,1,05,1.5,-5.7,M,-25.1,M,,0000*4F
$GPGSA,A,3,07,26,11,08,17,,,,,,,,3.2,1.5,2.8*30
$GPRMC,222701.000,A,3748.8011,N,12217.8618,W,1.18,200.01,140710,,,A*70
$GPVTG,200.01,T,,M,1.18,N,2.2,K,A*06
$GPGGA,222702.000,3748.8014,N,12217.8613,W,1,05,1.5,-4.4,M,-25.1,M,,0000*40
$GPGSA,A,3,07,26,11,08,17,,,,,,,,3.2,1.5,2.8*30
$GPRMC,222702.000,A,3748.8014,N,12217.8613,W,0.08,9.62,140710,,,A*73
$GPVTG,9.62,T,,M,0.08,N,0.2,K,A*0A
$GPGGA,222703.000,3748.8014,N,12217.8613,W,1,06,1.5,-4.7,M,-25.1,M,,0000*41
$GPGSA,A,3,07,28,26,11,08,17,,,,,,,2.8,1.5,2.4*3D
$GPRMC,222703.000,A,3748.8014,N,12217.8613,W,0.38,0.20,140710,,,A*7E
$GPVTG,0.20,T,,M,0.38,N,0.7,K,A*03
$GPGGA,222704.000,3748.8014,N,12217.8613,W,1,06,1.5,-5.4,M,-25.1,M,,0000*44
$GPGSA,A,3,07,28,26,11,08,17,,,,,,,2.8,1.5,2.4*3D
$GPGSV,3,1,10,25,71,080,,28,71,347,29,08,66,068,31,17,45,183,27*78
$GPGSV,3,2,10,26,38,307,39,07,34,107,23,11,24,094,30,19,07,037,*7C
$GPGSV,3,3,10,05,05,248,,51,43,156,32*76
$GPRMC,222704.000,A,3748.8014,N,12217.8613,W,0.28,23.46,140710,,,A*49
$GPVTG,23.46,T,,M,0.28,N,0.5,K,A*31
$GPGGA,222705.000,3748.8015,N,12217.8613,W,1,06,1.5,-6.6,M,-25.1,M,,0000*45
$GPGSA,A,3,07,28,26,11,08,17,,,,,,,2.8,1.5,2.4*3D
$GPRMC,222705.000,A,3748.8015,N,12217.8613,W,0.08,315.52,140710,,,A*78
$GPVTG,315.52,T,,M,0.08,N,0.2,K,A*07
$GPGGA,222706.000,3748.8018,N,12217.8610,W,1,05,1.6,-6.7,M,-25.1,M,,0000*49
$GPGSA,A,3,07,28,26,08,17,,,,,,,,3.5,1.6,3.1*36
$GPRMC,222706.000,A,3748.8018,N,12217.8610,W,0.18,58.31,140710,,,A*4B
$GPVTG,58.31,T,,M,0.18,N,0.3,K,A*38
$GPGGA,222707.000,3748.8022,N,12217.8608,W,1,04,3.4,-6.7,M,-25.1,M,,0000*49
$GPGSA,A,3,28,26,08,17,,,,,,,,,8.1,3.4,7.4*3F
$GPRMC,222707.000,A,3748.8022,N,12217.8608,W,0.13,273.23,140710,,,A*79
$GPVTG,273.23,T,,M,0.13,N,0.2,K,A*0A
$GPGGA,222708.000,3748.8027,N,12217.8606,W,1,06,1.5,-6.9,M,-25.1,M,,0000*42
$GPGSA,A,3,07,28,26,08,17,11,,,,,,,2.8,1.5,2.4*3D
$GPRMC,222708.000,A,3748.8027,N,12217.8606,W,0.84,346.57,140710,,,A*77
$GPVTG,346.57,T,,M,0.84,N,1.6,K,A*05
$GPGGA,222709.000,3748.8035,N,12217.8600,W,1,05,1.6,-6.1,M,-25.1,M,,0000*4E
$GPGSA,A,3,07,28,26,08,17,,,,,,,,3.5,1.6,3.1*36
$GPGSV,3,1,09,25,71,080,,28,71,347,25,08,66,068,33,17,45,183,22*7B
$GPGSV,3,2,09,26,38,307,25,07,34,107,27,11,24,094,,19,07,037,23*7F
$GPGSV,3,3,09,05,05,248,*4E
$GPRMC,222709.000,A,3748.8035,N,12217.8600,W,0.53,25.66,140710,,,A*4D
$GPVTG,25.66,T,,M,0.53,N,1.0,K,A*3D
$GPGGA,222710.000,3748.8041,N,12217.8592,W,1,05,1.6,-6.9,M,-25.1,M,,0000*45
$GPGSA,A,3,07,28,26,08,17,,,,,,,,3.5,1.6,3.1*36
$GPRMC,222710.000,A,3748.8041,N,12217.8592,W,0.38,24.72,140710,,,A*47
$GPVTG,24.72,T,,M,0.38,N,0.7,K,A*32
$GPGGA,222711.000,3748.8034,N,12217.8596,W,1,05,1.6,-7.7,M,-25.1,M,,0000*4D
$GPGSA,A,3,07,28,26,08,17,,,,,,,,3.5,1.6,3.1*36
$GPRMC,222711.000,A,3748.8034,N,12217.8596,W,1.00,186.82,140710,,,A*7C
$GPVTG,186.82,T,,M,1.00,N,1.8,K,A*00
$GPGGA,222712.000,3748.8029,N,12217.8595,W,1,05,1.6,-6.8,M,-25.1,M,,0000*4F
$GPGSA,A,3,07,28,26,08,17,,,,,,,,3.5,1.6,3.1*36
$GPRMC,222712.000,A,3748.8029,N,12217.8595,W,0.30,141.42,140710,,,A*75
$GPVTG,141.42,T,,M,0.30,N,0.6,K,A*0A
$GPGGA,222713.000,3748.8024,N,12217.8597,W,1,05,1.6,-6.7,M,-25.1,M,,0000*4E
$GPGSA,A,3,07,28,26,08,17,,,,,,,,3.5,1.6,3.1*36
$GPRMC,222713.000,A,3748.8024,N,12217.8597,W,0.33,43.28,140710,,,A*47
$GPVTG,43.28,T,,M,0.33,N,0.6,K,A*36
$GPGGA,222714.000,3748.8022,N,12217.8599,W,1,05,1.6,-5.9,M,-25.1,M,,0000*4C
$GPGSA,A,3,07,28,26,08,17,,,,,,,,3.5,1.6,3.1*36
$GPGSV,3,1,10,25,71,080,,28,71,347,22,08,66,068,20,17,45,183,24*70
$GPGSV,3,2,10,26,38,307,25,07,34,107,21,11,24,094,,19,07,037,32*71
$GPGSV,3,3,10,05,05,248,,51,43,156,22*77
$GPRMC,222714.000,A,3748.8022,N,12217.8599,W,0.30,15.29,140710,,,A*49
$GPGGA,222715.000,3748.8017,N,12217.8603,W,1,03,2.1,-5.9,M,-25.1,M,,0000*49
$GPGSA,A,2,07,28,17,,,,,,,,,,2.3,2.1,1.0*3B
$GPRMC,222715.000,A,3748.8017,N,12217.8603,W,0.72,58.09,140710,,,A*43
$GPVTG,58.09,T,,M,0.72,N,1.3,K,N*31
$GPGGA,222716.000,3748.8018,N,12217.8601,W,6,00,50.0,-5.9,M,-25.1,M,,0000*75
$GPGSA,A,2,,,,,,,,,,,,,50.0,50.0,50.0*06
$GPRMC,222716.000,A,3748.8018,N,12217.8601,W,0.72,58.09,140710,,,E*49
$GPVTG,58.09,T,,M,0.72,N,1.3,K,N*31
$GPGGA,222717.000,3748.8019,N,12217.8599,W,6,00,50.0,-5.9,M,-25.1,M,,0000*77
$GPGSA,A,2,,,,,,,,,,,,,50.0,50.0,50.0*06
$GPRMC,222717.000,A,3748.8019,N,12217.8599,W,0.72,58.09,140710,,,E*4B
$GPVTG,58.09,T,,M,0.72,N,1.3,K,N*31
$GPGGA,222718.000,3748.8020,N,12217.8596,W,6,00,50.0,-5.9,M,-25.1,M,,0000*7D
$GPGSA,A,2,,,,,,,,,,,,,50.0,50.0,50.0*06
$GPRMC,222718.000,A,3748.8020,N,12217.8596,W,0.72,58.09,140710,,,E*41
$GPVTG,58.09,T,,M,0.72,N,1.3,K,N*31
$GPGGA,222719.000,3748.8021,N,12217.8594,W,6,00,50.0,-5.9,M,-25.1,M,,0000*7F
$GPGSA,A,2,,,,,,,,,,,,,50.0,50.0,50.0*06
$GPGSV,3,1,09,25,71,080,,28,71,347,,08,66,068,,17,45,183,*7C
$GPGSV,3,2,09,26,38,307,,07,34,107,,11,24,094,,19,07,037,*7C
$GPGSV,3,3,09,05,05,248,*4E
$GPRMC,222719.000,A,3748.8021,N,12217.8594,W,0.72,58.09,140710,,,E*43
$GPVTG,58.09,T,,M,0.72,N,1.3,K,N*31
$GPGGA,222720.000,3748.8023,N,12217.8592,W,6,00,50.0,-5.9,M,-25.1,M,,0000*71
$GPGSA,A,2,,,,,,,,,,,,,50.0,50.0,50.0*06
$GPRMC,222720.000,A,3748.8023,N,12217.8592,W,0.72,58.09,140710,,,E*4D
$GPVTG,58.09,T,,M,0.72,N,1.3,K,N*31
$GPGGA,222721.000,3748.8024,N,12217.8590,W,6,00,50.0,-5.8,M,-25.1,M,,0000*74
$GPGSA,A,2,,,,,,,,,,,,,50.0,50.0,50.0*06
$GPRMC,222721.000,A,3748.8024,N,12217.8590,W,0.72,58.09,140710,,,E*49
$GPVTG,58.09,T,,M,0.72,N,1.3,K,N*31
$GPGGA,222722.000,3748.8011,N,12217.8603,W,1,06,1.5,-4.1,M,-25.1,M,,0000*40
$GPGSA,A,3,07,08,17,28,11,26,,,,,,,2.8,1.5,2.4*3D
$GPRMC,222722.000,A,3748.8011,N,12217.8603,W,0.30,105.50,140710,,,A*72
$GPVTG,105.50,T,,M,0.30,N,0.5,K,A*0A
$GPGGA,222723.000,3748.8010,N,12217.8593,W,1,06,1.5,-3.4,M,-25.1,M,,0000*48
$GPGSA,A,3,07,08,17,28,11,26,,,,,,,2.8,1.5,2.4*3D
$GPRMC,222723.000,A,3748.8010,N,12217.8593,W,0.75,123.07,140710,,,A*7F
$GPVTG,123.07,T,,M,0.75,N,1.4,K,A*0D
$GPGGA,222724.000,3748.7982,N,12217.8593,W,1,05,1.5,-4.2,M,-25.1,M,,0000*40
$GPGSA,A,3,07,08,17,11,26,,,,,,,,3.2,1.5,2.8*30
$GPGSV,3,1,09,25,71,080,,28,71,347,,08,66,068,28,17,45,183,26*72
$GPGSV,3,2,09,26,38,307,19,07,34,107,24,11,24,094,32,19,07,037,35*75
$GPGSV,3,3,09,05,05,248,*4E
$GPRMC,222724.000,A,3748.7982,N,12217.8593,W,0.32,160.65,140710,,,A*75
$GPGGA,222725.000,3748.7970,N,12217.8582,W,1,05,1.5,-3.0,M,-25.1,M,,0000*49
$GPGSA,A,3,07,08,17,11,26,,,,,,,,3.2,1.5,2.8*30
$GPRMC,222725.000,A,3748.7970,N,12217.8582,W,0.31,132.77,140710,,,A*7E
$GPVTG,132.77,T,,M,0.31,N,0.6,K,A*09
$GPGGA,222726.000,3748.7961,N,12217.8589,W,1,05,1.5,-3.3,M,-25.1,M,,0000*42
$GPGSA,A,3,07,08,17,11,26,,,,,,,,3.2,1.5,2.8*30
$GPRMC,222726.000,A,3748.7961,N,12217.8589,W,0.88,143.37,140710,,,A*76
$GPVTG,143.37,T,,M,0.88,N,1.6,K,A*08
$GPGGA,222727.000,3748.7956,N,12217.8578,W,1,05,1.5,-1.1,M,-25.1,M,,0000*49
$GPGSA,A,3,07,08,17,11,26,,,,,,,,3.2,1.5,2.9*31
$GPRMC,222727.000,A,3748.7956,N,12217.8578,W,0.63,130.22,140710,,,A*78
$GPVTG,130.22,T,,M,0.63,N,1.2,K,A*09
$GPGGA,222728.000,3748.7945,N,12217.8578,W,1,05,1.5,-0.3,M,-25.1,M,,0000*47
$GPGSA,A,3,07,08,17,11,26,,,,,,,,3.2,1.5,2.9*31
$GPRMC,222728.000,A,3748.7945,N,12217.8578,W,0.49,141.01,140710,,,A*7A
$GPVTG,141.01,T,,M,0.49,N,0.9,K,A*0C
$GPGGA,222729.000,3748.7941,N,12217.8571,W,1,05,1.5,0.2,M,-25.1,M,,0000*67
$GPGSA,A,3,07,08,17,11,26,,,,,,,,3.2,1.5,2.9*31
$GPGSV,3,1,09,25,71,080,,28,71,347,,08,66,068,27,17,45,183,25*7E
$GPGSV,3,2,09,26,38,307,18,07,34,107,25,11,24,094,31,19,07,037,34*77
$GPGSV,3,3,09,05,05,248,25*49
$GPRMC,222729.000,A,3748.7941,N,12217.8571,W,1.27,132.12,140710,,,A*79
$GPVTG,132.12,T,,M,1.27,N,2.4,K,A*0C
$GPGGA,222730.000,3748.7938,N,12217.8572,W,1,05,1.5,0.2,M,-25.1,M,,0000*62
$GPGSA,A,3,07,08,17,11,26,,,,,,,,3.2,1.5,2.9*31
$GPRMC,222730.000,A,3748.7938,N,12217.8572,W,0.65,137.06,140710,,,A*7B
$GPVTG,137.06,T,,M,0.65,N,1.2,K,A*0E
$GPGGA,222731.000,3748.7935,N,12217.8572,W,1,05,1.5,0.6,M,-25.1,M,,0000*6A
$GPGSA,A,3,07,08,17,11,26,,,,,,,,3.2,1.5,2.9*31
$GPRMC,222731.000,A,3748.7935,N,12217.8572,W,0.92,134.06,140710,,,A*7C
$GPVTG,134.06,T,,M,0.92,N,1.7,K,A*00
$GPGGA,222732.000,3748.7939,N,12217.8565,W,1,04,2.7,1.0,M,-25.1,M,,0000*64
$GPGSA,A,3,07,08,17,11,,,,,,,,,2.8,2.7,1.0*35
$GPRMC,222732.000,A,3748.7939,N,12217.8565,W,0.87,122.82,140710,,,A*7A
$GPVTG,122.82,T,,M,0.87,N,1.6,K,A*0E
$GPGGA,222733.000,3748.7932,N,12217.8565,W,1,04,2.7,0.6,M,-25.1,M,,0000*69
$GPGSA,A,3,07,08,17,11,,,,,,,,,2.8,2.7,1.0*35
$GPRMC,222733.000,A,3748.7932,N,12217.8565,W,1.45,168.73,140710,,,A*7F
$GPVTG,168.73,T,,M,1.45,N,2.7,K,A*03
$GPGGA,222734.000,3748.7927,N,12217.8563,W,1,04,2.7,0.3,M,-25.1,M,,0000*69
$GPGSA,A,3,07,08,17,11,,,,,,,,,2.8,2.7,1.0*35
$GPGSV,3,1,09,25,71,080,,28,71,347,,08,66,068,26,17,45,183,23*79
$GPGSV,3,2,09,26,38,307,10,07,34,107,25,11,24,094,30,19,07,037,34*7E
$GPGSV,3,3,09,05,05,248,24*48
$GPRMC,222734.000,A,3748.7927,N,12217.8563,W,0.99,147.70,140710,,,A*74
$GPVTG,147.70,T,,M,0.99,N,1.8,K,A*01
$GPGGA,222735.000,3748.7922,N,12217.8561,W,1,04,2.7,0.2,M,-25.1,M,,0000*6E
$GPGSA,A,3,07,08,17,11,,,,,,,,,2.8,2.7,1.0*35
$GPRMC,222735.000,A,3748.7922,N,12217.8561,W,0.85,124.89,140710,,,A*7C
$GPVTG,124.89,T,,M,0.85,N,1.6,K,A*01
$GPGGA,222736.000,3748.7919,N,12217.8563,W,1,04,2.7,0.1,M,-25.1,M,,0000*64
$GPGSA,A,3,07,08,17,11,,,,,,,,,2.8,2.7,1.0*35
$GPRMC,222736.000,A,3748.7919,N,12217.8563,W,0.44,184.91,140710,,,A*7B
$GPVTG,184.91,T,,M,0.44,N,0.8,K,A*00
$GPGGA,222737.000,3748.7923,N,12217.8564,W,1,05,3.2,0.2,M,-25.1,M,,0000*6D
$GPGSA,A,3,07,08,17,28,11,,,,,,,,6.3,3.2,5.5*35
$GPRMC,222737.000,A,3748.7923,N,12217.8564,W,0.25,337.32,140710,,,A*70
$GPVTG,337.32,T,,M,0.25,N,0.5,K,A*09
$GPGGA,222738.000,3748.7941,N,12217.8572,W,1,06,1.5,-2.2,M,-25.1,M,,0000*48
$GPGSA,A,3,07,08,17,28,11,26,,,,,,,2.8,1.5,2.4*3D
$GPRMC,222738.000,A,3748.7941,N,12217.8572,W,0.39,94.74,140710,,,A*49
$GPVTG,94.74,T,,M,0.39,N,0.7,K,A*3E
$GPGGA,222739.000,3748.7944,N,12217.8568,W,1,06,1.5,-2.0,M,-25.1,M,,0000*45
$GPGSA,A,3,07,08,17,28,11,26,,,,,,,2.8,1.5,2.4*3D
$GPGSV,3,1,09,25,71,080,,28,71,347,19,08,66,068,33,17,45,183,30*77
$GPGSV,3,2,09,26,38,307,21,07,34,107,33,11,24,094,31,19,07,037,35*7B
$GPGSV,3,3,09,05,05,248,19*46
$GPRMC,222739.000,A,3748.7944,N,12217.8568,W,0.71,123.86,140710,,,A*7A
$GPVTG,123.86,T,,M,0.71,N,1.3,K,A*07
$GPGGA,222740.000,3748.7957,N,12217.8580,W,1,06,1.5,-4.0,M,-25.1,M,,0000*49
$GPGSA,A,3,07,08,17,28,11,26,,,,,,,2.8,1.5,2.4*3D
$GPRMC,222740.000,A,3748.7957,N,12217.8580,W,0.22,122.78,140710,,,A*76
$GPVTG,122.78,T,,M,0.22,N,0.4,K,A*07
$GPGGA,222741.000,3748.7963,N,12217.8584,W,1,06,1.5,-4.7,M,-25.1,M,,0000*4C
$GPGSA,A,3,07,08,17,28,11,26,,,,,,,2.8,1.5,2.4*3D
$GPRMC,222741.000,A,3748.7963,N,12217.8584,W,0.17,152.30,140710,,,A*79
$GPVTG,152.30,T,,M,0.17,N,0.3,K,A*0D
$GPGGA,222742.000,3748.7966,N,12217.8590,W,1,06,1.5,-6.1,M,-25.1,M,,0000*4B
$GPGSA,A,3,07,08,17,28,11,26,,,,,,,2.8,1.5,2.4*3D
$GPRMC,222742.000,A,3748.7966,N,12217.8590,W,0.22,338.28,140710,,,A*7B
$GPVTG,338.28,T,,M,0.22,N,0.4,K,A*0B
$GPGGA,222743.000,3748.7963,N,12217.8586,W,1,06,1.5,-5.1,M,-25.1,M,,0000*4B
$GPGSA,A,3,07,08,17,28,11,26,,,,,,,2.8,1.5,2.4*3D
$GPRMC,222743.000,A,3748.7963,N,12217.8586,W,0.50,322.38,140710,,,A*77
$GPVTG,322.38,T,,M,0.50,N,0.9,K,A*09
$GPGGA,222744.000,3748.7967,N,12217.8589,W,1,06,1.5,-5.8,M,-25.1,M,,0000*4E
$GPGSA,A,3,07,08,17,28,11,26,,,,,,,2.8,1.5,2.4*3D
$GPGSV,3,1,10,25,71,080,,28,71,347,18,08,66,068,32,17,45,183,32*7D
$GPGSV,3,2,10,26,38,307,20,07,34,107,32,11,24,094,37,19,07,037,29*78
$GPGSV,3,3,10,05,05,248,20,51,43,156,31*77
$GPRMC,222744.000,A,3748.7967,N,12217.8589,W,0.71,318.95,140710,,,A*76
$GPVTG,318.95,T,,M,0.71,N,1.3,K,A*0F
$GPGGA,222745.000,3748.7972,N,12217.8592,W,1,06,1.5,-6.3,M,-25.1,M,,0000*49
$GPGSA,A,3,07,08,17,28,11,26,,,,,,,2.8,1.5,2.4*3D
$GPRMC,222745.000,A,3748.7972,N,12217.8592,W,0.67,323.89,140710,,,A*7B
$GPVTG,323.89,T,,M,0.67,N,1.2,K,A*0C
$GPGGA,222746.000,3748.7972,N,12217.8588,W,1,06,1.5,-5.2,M,-25.1,M,,0000*43
$GPGSA,A,3,07,08,17,28,11,26,,,,,,,2.8,1.5,2.4*3D
$GPRMC,222746.000,A,3748.7972,N,12217.8588,W,0.94,323.48,140710,,,A*72
$GPVTG,323.48,T,,M,0.94,N,1.7,K,A*08
$GPGGA,222747.000,3748.7970,N,12217.8581,W,1,06,1.5,-3.8,M,-25.1,M,,0000*45
$GPGSA,A,3,07,08,17,28,11,26,,,,,,,2.8,1.5,2.4*3D
$GPRMC,222747.000,A,3748.7970,N,12217.8581,W,0.15,356.55,140710,,,A*7F
$GPVTG,356.55,T,,M,0.15,N,0.3,K,A*0A
$GPGGA,222748.000,3748.7968,N,12217.8575,W,1,05,1.5,-2.5,M,-25.1,M,,0000*47
$GPGSA,A,3,07,08,17,11,26,,,,,,,,3.2,1.5,2.9*31
$GPRMC,222748.000,A,3748.7968,N,12217.8575,W,0.62,131.49,140710,,,A*7C
$GPVTG,131.49,T,,M,0.62,N,1.2,K,A*04
$GPGGA,222749.000,3748.7966,N,12217.8569,W,1,05,1.5,-1.2,M,-25.1,M,,0000*41
$GPGSA,A,3,07,08,17,11,26,,,,,,,,3.2,1.5,2.9*31
$GPGSV,3,1,11,28,71,348,18,25,71,081,,08,66,069,31,17,45,183,35*77
$GPGSV,3,2,11,26,38,306,20,07,34,107,32,11,24,093,36,19,07,037,28*7F
$GPGSV,3,3,11,05,04,248,19,27,00,303,,51,43,156,32*4B
$GPRMC,222749.000,A,3748.7966,N,12217.8569,W,0.28,111.42,140710,,,A*79
$GPVTG,111.42,T,,M,0.28,N,0.5,K,A*05
$GPGGA,222750.000,3748.7963,N,12217.8562,W,1,05,1.5,0.5,M,-25.1,M,,0000*6C
$GPGSA,A,3,07,08,17,11,26,,,,,,,,3.2,1.5,2.9*31
$GPRMC,222750.000,A,3748.7963,N,12217.8562,W,0.19,80.59,140710,,,A*4E
$GPVTG,80.59,T,,M,0.19,N,0.3,K,A*32
$GPGGA,222751.000,3748.7965,N,12217.8562,W,1,06,1.5,0.6,M,-25.1,M,,0000*6B
$GPGSA,A,3,07,08,17,28,11,26,,,,,,,2.8,1.5,2.4*3D
$GPRMC,222751.000,A,3748.7965,N,12217.8562,W,0.31,87.75,140710,,,A*4A
$GPVTG,87.75,T,,M,0.31,N,0.6,K,A*34
$GPGGA,222752.000,3748.7968,N,12217.8563,W,1,06,1.5,0.4,M,-25.1,M,,0000*66
$GPGSA,A,3,07,08,17,28,11,26,,,,,,,2.8,1.5,2.4*3D
$GPRMC,222752.000,A,3748.7968,N,12217.8563,W,0.23,88.44,140710,,,A*4B
$GPVTG,88.44,T,,M,0.23,N,0.4,K,A*38
$GPGGA,222753.000,3748.7969,N,12217.8563,W,1,06,1.5,0.3,M,-25.1,M,,0000*61
$GPGSA,A,3,07,08,17,28,11,26,,,,,,,2.8,1.5,2.4*3D
$GPRMC,222753.000,A,3748.7969,N,12217.8563,W,0.50,127.57,140710,,,A*79
$GPVTG,127.57,T,,M,0.50,N,0.9,K,A*07
$GPGGA,222754.000,3748.7971,N,12217.8563,W,1,06,1.5,0.2,M,-25.1,M,,0000*6E
$GPGSA,A,3,07,08,17,28,11,26,,,,,,,2.8,1.5,2.4*3D
$GPGSV,3,1,11,28,71,348,17,25,71,081,,08,66,069,26,17,45,183,30*7B
$GPGSV,3,2,11,26,38,306,21,07,34,107,32,11,24,093,36,19,07,037,28*7E
$GPGSV,3,3,11,05,04,248,,27,00,303,,51,43,156,32*43
$GPRMC,222754.000,A,3748.7971,N,12217.8563,W,0.07,62.06,140710,,,A*41
$GPVTG,62.06,T,,M,0.07,N,0.1,K,A*39
$GPGGA,222755.000,3748.7974,N,12217.8565,W,1,05,1.5,-0.2,M,-25.1,M,,0000*42
$GPGSA,A,3,07,08,17,11,26,,,,,,,,3.2,1.5,2.9*31
$GPRMC,222755.000,A,3748.7974,N,12217.8565,W,0.11,123.85,140710,,,A*7B
$GPVTG,123.85,T,,M,0.11,N,0.2,K,A*02
$GPGGA,222756.000,3748.7977,N,12217.8567,W,1,06,1.5,-0.5,M,-25.1,M,,0000*44
$GPGSA,A,3,07,08,17,28,11,26,,,,,,,2.8,1.5,2.4*3D
$GPRMC,222756.000,A,3748.7977,N,12217.8567,W,0.31,338.23,140710,,,A*7F
$GPVTG,338.23,T,,M,0.31,N,0.6,K,A*00
$GPGGA,222757.000,3748.7980,N,12217.8569,W,1,04,1.6,-1.0,M,-25.1,M,,0000*46
$GPGSA,A,3,07,17,11,26,,,,,,,,,1.8,1.6,1.0*38
$GPRMC,222757.000,A,3748.7980,N,12217.8569,W,0.18,327.80,140710,,,A*74
$GPVTG,327.80,T,,M,0.18,N,0.3,K,A*09
$GPGGA,222758.000,3748.7978,N,12217.8573,W,1,06,1.4,-2.4,M,-25.1,M,,0000*42
$GPGSA,A,3,07,08,17,11,26,19,,,,,,,2.6,1.4,2.2*36
$GPRMC,222758.000,A,3748.7978,N,12217.8573,W,0.27,270.00,140710,,,A*70
$GPVTG,270.00,T,,M,0.27,N,0.5,K,A*08
$GPGGA,222759.000,3748.7978,N,12217.8575,W,1,06,1.4,-3.0,M,-25.1,M,,0000*40
$GPGSA,A,3,07,08,17,11,26,19,,,,,,,2.6,1.4,2.2*36
$GPGSV,3,1,11,28,71,349,08,25,71,082,,08,66,070,21,17,45,183,25*7C
$GPGSV,3,2,11,26,38,306,21,07,34,107,31,11,24,093,32,19,07,037,22*73
$GPGSV,3,3,11,05,04,248,,27,00,303,,51,43,156,35*44
$GPRMC,222759.000,A,3748.7978,N,12217.8575,W,0.21,28.81,140710,,,A*47
$GPVTG,28.81,T,,M,0.21,N,0.4,K,A*39
$GPGGA,222800.000,3748.7977,N,12217.8579,W,1,06,1.4,-5.5,M,-25.1,M,,0000*43
$GPGSA,A,3,07,08,17,11,26,19,,,,,,,2.6,1.4,2.2*36
$GPRMC,222800.000,A,3748.7977,N,12217.8579,W,0.12,226.20,140710,,,A*70
$GPVTG,226.20,T,,M,0.12,N,0.2,K,A*08
$GPGGA,222801.000,3748.7977,N,12217.8579,W,1,06,1.4,-5.6,M,-25.1,M,,0000*41
$GPGSA,A,3,07,08,17,11,26,19,,,,,,,2.6,1.4,2.2*36
$GPRMC,222801.000,A,3748.7977,N,12217.8579,W,0.10,124.91,140710,,,A*78
$GPVTG,124.91,T,,M,0.10,N,0.2,K,A*01
$GPGGA,222802.000,3748.7979,N,12217.8576,W,1,07,1.3,-3.3,M,-25.1,M,,0000*46
$GPGSA,A,3,07,08,17,28,11,26,19,,,,,,2.2,1.3,1.8*36
$GPRMC,222802.000,A,3748.7979,N,12217.8576,W,0.23,273.11,140710,,,A*73
$GPVTG,273.11,T,,M,0.23,N,0.4,K,A*0E
$GPGGA,222803.000,3748.7985,N,12217.8580,W,1,07,1.3,-1.8,M,-25.1,M,,0000*44
$GPGSA,A,3,07,08,17,28,11,26,19,,,,,,2.2,1.3,1.8*36
$GPRMC,222803.000,A,3748.7985,N,12217.8580,W,0.39,302.58,140710,,,A*79
$GPVTG,302.58,T,,M,0.39,N,0.7,K,A*0C
$GPGGA,222804.000,3748.7986,N,12217.8584,W,1,07,1.3,0.1,M,-25.1,M,,0000*61
$GPGSA,A,3,07,08,17,28,11,26,19,,,,,,2.2,1.3,1.8*36
$GPGSV,3,1,11,28,71,349,13,25,71,082,,08,66,070,24,17,45,183,26*70
$GPGSV,3,2,11,26,38,306,21,07,34,107,37,11,24,093,35,19,07,037,22*72
$GPGSV,3,3,11,05,04,248,,27,00,303,,51,43,156,37*46
$GPRMC,222804.000,A,3748.7986,N,12217.8584,W,0.34,222.71,140710,,,A*7C
$GPVTG,222.71,T,,M,0.34,N,0.6,K,A*08
$GPGGA,222805.000,3748.7980,N,12217.8590,W,1,05,1.4,-0.9,M,-25.1,M,,0000*43
$GPGSA,A,3,07,08,17,26,19,,,,,,,,2.7,1.4,2.3*36
$GPRMC,222805.000,A,3748.7980,N,12217.8590,W,0.89,236.70,140710,,,A*7C
$GPVTG,236.70,T,,M,0.89,N,1.6,K,A*0B
$GPGGA,222806.000,3748.7973,N,12217.8594,W,1,06,1.4,-0.6,M,-25.1,M,,0000*44
$GPGSA,A,3,07,08,17,11,26,19,,,,,,,2.6,1.4,2.2*36
$GPRMC,222806.000,A,3748.7973,N,12217.8594,W,0.99,214.95,140710,,,A*7D
$GPVTG,214.95,T,,M,0.99,N,1.8,K,A*0F
$GPGGA,222807.000,3748.7970,N,12217.8604,W,1,06,1.4,1.4,M,-25.1,M,,0000*62
$GPGSA,A,3,07,08,17,11,26,19,,,,,,,2.6,1.4,2.2*36
$GPRMC,222807.000,A,3748.7970,N,12217.8604,W,1.12,215.96,140710,,,A*75
$GPVTG,215.96,T,,M,1.12,N,2.1,K,A*05
$GPGGA,222808.000,3748.7966,N,12217.8606,W,1,06,1.4,3.5,M,-25.1,M,,0000*6B
$GPGSA,A,3,07,08,17,11,26,19,,,,,,,2.6,1.4,2.2*36
$GPRMC,222808.000,A,3748.7966,N,12217.8606,W,0.39,215.73,140710,,,A*7C
$GPVTG,215.73,T,,M,0.39,N,0.7,K,A*02
$GPGGA,222809.000,3748.7964,N,12217.8605,W,1,06,1.4,3.5,M,-25.1,M,,0000*6B
$GPGSA,A,3,07,08,17,11,26,19,,,,,,,2.6,1.4,2.2*36
$GPGSV,3,1,11,28,71,349,,25,71,082,,08,66,070,24,17,45,183,24*70
$GPGSV,3,2,11,26,38,306,21,07,34,107,36,11,24,093,32,19,07,037,26*70
$GPGSV,3,3,11,05,04,248,,27,00,303,,51,43,156,39*48
$GPRMC,222809.000,A,3748.7964,N,12217.8605,W,0.36,325.23,140710,,,A*74
$GPGGA,222810.000,3748.7963,N,12217.8601,W,1,05,2.0,3.0,M,-25.1,M,,0000*61
$GPGSA,A,3,07,08,17,11,19,,,,,,,,3.0,2.0,2.3*33
$GPRMC,222810.000,A,3748.7963,N,12217.8601,W,0.31,63.16,140710,,,A*4F
$GPVTG,63.16,T,,M,0.31,N,0.6,K,A*3B
$GPGGA,222811.000,3748.7956,N,12217.8598,W,1,06,1.7,0.1,M,-25.1,M,,0000*60
$GPGSA,A,3,07,08,17,28,11,19,,,,,,,2.7,1.7,2.0*38
$GPRMC,222811.000,A,3748.7956,N,12217.8598,W,0.67,125.60,140710,,,A*7A
$GPVTG,125.60,T,,M,0.67,N,1.2,K,A*0F
$GPGGA,222812.000,3748.7955,N,12217.8593,W,1,06,1.7,-0.3,M,-25.1,M,,0000*44
$GPGSA,A,3,07,08,17,28,11,19,,,,,,,2.7,1.7,2.0*38
$GPRMC,222812.000,A,3748.7955,N,12217.8593,W,0.57,120.24,140710,,,A*77
$GPVTG,120.24,T,,M,0.57,N,1.1,K,A*0A
$GPGGA,222813.000,3748.7955,N,12217.8585,W,1,07,1.3,1.0,M,-25.1,M,,0000*68
$GPGSA,A,3,07,08,17,28,11,26,19,,,,,,2.2,1.3,1.8*36
$GPRMC,222813.000,A,3748.7955,N,12217.8585,W,0.71,113.18,140710,,,A*7A
$GPVTG,113.18,T,,M,0.71,N,1.3,K,A*03
$GPGGA,222814.000,3748.7959,N,12217.8585,W,1,07,1.3,0.7,M,-25.1,M,,0000*65
$GPGSA,A,3,07,08,17,28,11,26,19,,,,,,2.2,1.3,1.8*36
$GPGSV,3,1,11,28,71,349,15,25,71,082,,08,66,070,26,17,45,183,30*73
$GPGSV,3,2,11,26,38,306,27,07,34,107,30,11,24,093,33,19,07,037,26*71
$GPGSV,3,3,11,05,04,248,,27,00,303,,51,43,156,38*49
$GPRMC,222814.000,A,3748.7959,N,12217.8585,W,0.46,95.87,140710,,,A*4C
$GPVTG,95.87,T,,M,0.46,N,0.8,K,A*34
$GPGGA,222815.000,3748.7964,N,12217.8584,W,1,07,1.3,1.1,M,-25.1,M,,0000*6C
$GPGSA,A,3,07,08,17,28,11,26,19,,,,,,2.2,1.3,1.8*36
$GPRMC,222815.000,A,3748.7964,N,12217.8584,W,0.30,96.40,140710,,,A*4B
$GPVTG,96.40,T,,M,0.30,N,0.6,K,A*33
$GPGGA,222816.000,3748.7964,N,12217.8588,W,1,07,1.3,-0.2,M,-25.1,M,,0000*4C
$GPGSA,A,3,07,08,17,28,11,26,19,,,,,,2.2,1.3,1.8*36
$GPRMC,222816.000,A,3748.7964,N,12217.8588,W,0.11,228.43,140710,,,A*73
$GPVTG,228.43,T,,M,0.11,N,0.2,K,A*00
$GPGGA,222817.000,3748.7970,N,12217.8593,W,1,07,1.3,-0.0,M,-25.1,M,,0000*40
$GPGSA,A,3,07,08,17,28,11,26,19,,,,,,2.2,1.3,1.8*36
$GPRMC,222817.000,A,3748.7970,N,12217.8593,W,0.45,305.87,140710,,,A*7A
$GPVTG,305.87,T,,M,0.45,N,0.8,K,A*0D
$GPGGA,222818.000,3748.7977,N,12217.8592,W,1,07,1.3,1.2,M,-25.1,M,,0000*67
$GPGSA,A,3,07,08,17,28,11,26,19,,,,,,2.2,1.3,1.8*36
$GPRMC,222818.000,A,3748.7977,N,12217.8592,W,0.95,324.31,140710,,,A*70
$GPVTG,324.31,T,,M,0.95,N,1.8,K,A*0F
$GPGGA,222819.000,3748.7982,N,12217.8591,W,1,05,2.0,2.5,M,-25.1,M,,0000*69
$GPGSA,A,3,07,08,17,11,19,,,,,,,,3.0,2.0,2.3*33
$GPGSV,3,1,11,28,71,349,16,25,71,082,,08,66,070,22,17,45,183,24*71
$GPGSV,3,2,11,26,38,306,19,07,34,107,32,11,24,093,34,19,07,037,23*7C
$GPGSV,3,3,11,05,04,248,,27,00,303,,51,43,156,39*48
$GPRMC,222819.000,A,3748.7982,N,12217.8591,W,1.05,344.14,140710,,,A*71
$GPVTG,344.14,T,,M,1.05,N,1.9,K,A*07
$GPGGA,222820.000,3748.7983,N,12217.8590,W,1,05,2.0,2.1,M,-25.1,M,,0000*67
$GPGSA,A,3,07,08,17,11,19,,,,,,,,3.0,2.0,2.3*33
$GPRMC,222820.000,A,3748.7983,N,12217.8590,W,0.38,304.29,140710,,,A*7E
$GPVTG,304.29,T,,M,0.38,N,0.7,K,A*0D
$GPGGA,222821.000,3748.7987,N,12217.8587,W,1,05,2.0,4.2,M,-25.1,M,,0000*61
$GPGSA,A,3,07,08,17,11,19,,,,,,,,3.0,2.0,2.3*33
$GPRMC,222821.000,A,3748.7987,N,12217.8587,W,0.49,329.39,140710,,,A*75
$GPVTG,329.39,T,,M,0.49,N,0.9,K,A*0B
$GPGGA,222822.000,3748.7989,N,12217.8589,W,1,07,1.3,3.8,M,-25.1,M,,0000*6D
$GPGSA,A,3,07,08,17,28,11,26,19,,,,,,2.2,1.3,1.8*36
$GPRMC,222822.000,A,3748.7989,N,12217.8589,W,0.21,140.75,140710,,,A*7D
$GPVTG,140.75,T,,M,0.21,N,0.4,K,A*0D
$GPGGA,222823.000,3748.7991,N,12217.8593,W,1,06,1.4,4.2,M,-25.1,M,,0000*65
$GPGSA,A,3,07,08,17,11,26,19,,,,,,,2.6,1.4,2.2*36
$GPRMC,222823.000,A,3748.7991,N,12217.8593,W,0.85,187.91,140710,,,A*71
$GPVTG,187.91,T,,M,0.85,N,1.6,K,A*01
$GPGGA,222824.000,3748.7994,N,12217.8594,W,1,06,1.4,4.3,M,-25.1,M,,0000*61
$GPGSA,A,3,07,08,17,11,26,19,,,,,,,2.6,1.4,2.2*36
$GPGSV,3,1,11,28,71,349,17,25,71,082,,08,66,070,23,17,45,183,27*72
$GPGSV,3,2,11,26,38,306,20,07,34,107,32,11,24,093,32,19,07,037,20*73
$GPGSV,3,3,11,05,04,248,,27,00,303,,51,43,156,39*48
$GPRMC,222824.000,A,3748.7994,N,12217.8594,W,0.37,110.98,140710,,,A*7A
$GPGGA,222825.000,3748.7994,N,12217.8592,W,1,07,1.3,3.9,M,-25.1,M,,0000*6D
$GPGSA,A,3,07,08,17,28,11,26,19,,,,,,2.2,1.3,1.8*36
$GPRMC,222825.000,A,3748.7994,N,12217.8592,W,0.64,7.43,140710,,,A*7A
$GPVTG,7.43,T,,M,0.64,N,1.2,K,A*0C
$GPGGA,222826.000,3748.7997,N,12217.8597,W,1,07,1.3,1.6,M,-25.1,M,,0000*65
$GPGSA,A,3,07,08,17,28,11,26,19,,,,,,2.2,1.3,1.8*36
$GPRMC,222826.000,A,3748.7997,N,12217.8597,W,0.68,334.05,140710,,,A*72
$GPVTG,334.05,T,,M,0.68,N,1.3,K,A*00
$GPGGA,222827.000,3748.8001,N,12217.8601,W,1,07,1.3,0.7,M,-25.1,M,,0000*61
$GPGSA,A,3,07,08,17,28,11,26,19,,,,,,2.2,1.3,1.8*36
$GPRMC,222827.000,A,3748.8001,N,12217.8601,W,0.28,214.02,140710,,,A*76
$GPVTG,214.02,T,,M,0.28,N,0.5,K,A*07
$GPGGA,222828.000,3748.7999,N,12217.8600,W,1,07,1.3,-0.9,M,-25.1,M,,0000*4B
$GPGSA,A,3,07,08,17,28,11,26,19,,,,,,2.2,1.3,1.8*36
$GPRMC,222828.000,A,3748.7999,N,12217.8600,W,0.57,200.65,140710,,,A*73
$GPVTG,200.65,T,,M,0.57,N,1.1,K,A*0E
$GPGGA,222829.000,3748.7998,N,12217.8603,W,1,07,1.3,-0.4,M,-25.1,M,,0000*45
$GPGSA,A,3,07,08,17,28,11,26,19,,,,,,2.2,1.3,1.8*36
$GPGSV,3,1,11,28,71,349,16,25,71,082,,08,66,070,23,17,45,183,30*75
$GPGSV,3,2,11,26,38,306,20,07,34,107,37,11,24,093,26,19,07,037,21*72
$GPGSV,3,3,11,05,04,248,,27,00,303,,51,43,156,38*49
$GPRMC,222829.000,A,3748.7998,N,12217.8603,W,0.35,200.65,140710,,,A*74
$GPVTG,200.65,T,,M,0.35,N,0.6,K,A*0C
$GPGGA,222830.000,3748.7998,N,12217.8607,W,1,06,1.3,-1.8,M,-25.1,M,,0000*45
$GPGSA,A,3,07,08,17,28,26,19,,,,,,,2.3,1.3,1.8*37
$GPRMC,222830.000,A,3748.7998,N,12217.8607,W,0.52,173.59,140710,,,A*71
$GPVTG,173.59,T,,M,0.52,N,1.0,K,A*02
$GPGGA,222831.000,3748.7995,N,12217.8616,W,2,06,1.4,-2.7,M,-25.1,M,1.8,0000*66
$GPGSA,A,3,07,08,17,11,26,19,,,,,,,2.6,1.4,2.2*36
$GPRMC,222831.000,A,3748.7995,N,12217.8616,W,0.73,274.95,140710,,,D*7F
$GPVTG,274.95,T,,M,0.73,N,1.4,K,D*04
$GPGGA,222832.000,3748.7995,N,12217.8618,W,2,06,1.4,-2.5,M,-25.1,M,1.8,0000*69
$GPGSA,A,3,07,08,17,11,26,19,,,,,,,2.6,1.4,2.2*36
$GPRMC,222832.000,A,3748.7995,N,12217.8618,W,0.16,182.40,140710,,,D*73
$GPVTG,182.40,T,,M,0.16,N,0.3,K,D*03
$GPGGA,222833.000,3748.8001,N,12217.8615,W,2,06,1.4,-3.1,M,-25.1,M,1.8,0000*6B
$GPGSA,A,3,07,08,17,11,26,19,,,,,,,2.6,1.4,2.2*36
$GPRMC,222833.000,A,3748.8001,N,12217.8615,W,0.37,100.06,140710,,,D*7F
$GPVTG,100.06,T,,M,0.37,N,0.7,K,D*0C
$GPGGA,222834.000,3748.8003,N,12217.8612,W,2,06,1.4,-2.7,M,-25.1,M,2.8,0000*6D
$GPGSA,A,3,07,08,17,11,26,19,,,,,,,2.6,1.4,2.2*36
$GPGSV,3,1,11,28,71,349,,25,71,082,,08,66,070,29,17,45,183,25*7C
$GPGSV,3,2,11,26,38,306,20,07,34,107,37,11,24,093,35,19,07,037,24*75
$GPGSV,3,3,11,05,04,248,,27,00,303,,51,43,156,34*45
$GPRMC,222834.000,A,3748.8003,N,12217.8612,W,1.09,58.74,140710,,,D*48
$GPVTG,58.74,T,,M,1.09,N,2.0,K,D*3C
$GPGGA,222835.000,3748.8003,N,12217.8600,W,2,06,1.4,-1.3,M,-25.1,M,3.8,0000*69
$GPGSA,A,3,07,08,17,11,26,19,,,,,,,2.6,1.4,2.2*36
$GPRMC,222835.000,A,3748.8003,N,12217.8600,W,0.85,74.56,140710,,,D*41
$GPVTG,74.56,T,,M,0.85,N,1.6,K,D*32
$GPGGA,222836.000,3748.7997,N,12217.8597,W,2,06,1.4,-1.1,M,-25.1,M,1.8,0000*6C
$GPGSA,A,3,07,08,17,11,26,19,,,,,,,2.6,1.4,2.2*36
$GPRMC,222836.000,A,3748.7997,N,12217.8597,W,0.63,186.36,140710,,,D*76
$GPVTG,186.36,T,,M,0.63,N,1.2,K,D*04
$GPGGA,222837.000,3748.7993,N,12217.8602,W,2,06,1.4,-1.1,M,-25.1,M,1.8,0000*66
$GPGSA,A,3,07,08,17,11,26,19,,,,,,,2.6,1.4,2.2*36
$GPRMC,222837.000,A,3748.7993,N,12217.8602,W,0.34,203.98,140710,,,D*74
$GPVTG,203.98,T,,M,0.34,N,0.6,K,D*09
$GPGGA,222838.000,3748.7987,N,12217.8607,W,2,06,1.4,-1.9,M,-25.1,M,1.8,0000*61
$GPGSA,A,3,07,08,17,11,26,19,,,,,,,2.6,1.4,2.2*36
$GPRMC,222838.000,A,3748.7987,N,12217.8607,W,0.64,200.35,140710,,,D*7A
$GPVTG,200.35,T,,M,0.64,N,1.2,K,D*0D
$GPGGA,222839.000,3748.7980,N,12217.8608,W,2,06,1.4,-2.1,M,-25.1,M,1.8,0000*63
$GPGSA,A,3,07,08,17,11,26,19,,,,,,,2.6,1.4,2.2*36
$GPGSV,3,1,11,28,71,349,,25,71,082,,08,66,070,30,17,45,183,33*73
$GPGSV,3,2,11,26,38,306,25,07,34,107,37,11,24,093,35,19,07,037,29*7D
$GPGSV,3,3,11,05,04,248,,27,00,303,,51,43,156,35*44
$GPRMC,222839.000,A,3748.7980,N,12217.8608,W,0.27,140.91,140710,,,D*7D
$GPGGA,222840.000,3748.7974,N,12217.8604,W,2,06,1.4,-2.2,M,-25.1,M,1.8,0000*69
$GPGSA,A,3,07,08,17,11,26,19,,,,,,,2.6,1.4,2.3*37
$GPRMC,222840.000,A,3748.7974,N,12217.8604,W,0.53,126.28,140710,,,D*75
$GPVTG,126.28,T,,M,0.53,N,1.0,K,D*00
$GPGGA,222841.000,3748.7972,N,12217.8606,W,2,06,1.4,-2.7,M,-25.1,M,2.8,0000*6A
$GPGSA,A,3,07,08,17,11,26,19,,,,,,,2.6,1.4,2.3*37
$GPRMC,222841.000,A,3748.7972,N,12217.8606,W,0.22,132.70,140710,,,D*7E
$GPVTG,132.70,T,,M,0.22,N,0.4,K,D*0B
$GPGGA,222842.000,3748.7972,N,12217.8608,W,2,06,1.4,-3.0,M,-25.1,M,1.8,0000*62
$GPGSA,A,3,07,08,17,11,26,19,,,,,,,2.6,1.4,2.3*37
$GPRMC,222842.000,A,3748.7972,N,12217.8608,W,0.16,153.51,140710,,,D*70
$GPVTG,153.51,T,,M,0.16,N,0.3,K,D*0F
$GPGGA,222843.000,3748.7971,N,12217.8610,W,2,06,1.4,-3.3,M,-25.1,M,1.8,0000*6A
$GPGSA,A,3,07,08,17,11,26,19,,,,,,,2.6,1.4,2.3*37
$GPRMC,222843.000,A,3748.7971,N,12217.8610,W,0.22,131.66,140710,,,D*7C
$GPVTG,131.66,T,,M,0.22,N,0.4,K,D*0F
$GPGGA,222844.000,3748.7972,N,12217.8612,W,2,06,1.4,-3.7,M,-25.1,M,1.8,0000*68
$GPGSA,A,3,07,08,17,11,26,19,,,,,,,2.6,1.4,2.3*37
$GPGSV,3,1,11,28,71,349,,25,71,082,,08,66,070,31,17,45,183,35*74
$GPGSV,3,2,11,26,38,306,21,07,34,107,39,11,24,093,38,19,07,037,28*7B
$GPGSV,3,3,11,05,04,248,,27,00,303,,51,43,156,40*46
$GPRMC,222844.000,A,3748.7972,N,12217.8612,W,0.13,115.28,140710,,,D*74
$GPVTG,115.28,T,,M,0.13,N,0.2,K,D*07
$GPGGA,222845.000,3748.7972,N,12217.8613,W,2,06,1.4,-3.9,M,-25.1,M,1.8,0000*66
$GPGSA,A,3,07,08,17,11,26,19,,,,,,,2.6,1.4,2.3*37
$GPRMC,222845.000,A,3748.7972,N,12217.8613,W,0.22,129.01,140710,,,D*72
$GPVTG,129.01,T,,M,0.22,N,0.4,K,D*07
$GPGGA,222846.000,3748.7974,N,12217.8616,W,2,06,1.4,-4.3,M,-25.1,M,1.8,0000*6B
$GPGSA,A,3,07,08,17,11,26,19,,,,,,,2.6,1.4,2.3*37
$GPRMC,222846.000,A,3748.7974,N,12217.8616,W,0.31,293.32,140710,,,D*72
$GPVTG,293.32,T,,M,0.31,N,0.6,K,D*05
$GPGGA,222847.000,3748.7975,N,12217.8619,W,2,06,1.4,-4.5,M,-25.1,M,2.8,0000*61
$GPGSA,A,3,07,08,17,11,26,19,,,,,,,2.6,1.4,2.3*37
$GPRMC,222847.000,A,3748.7975,N,12217.8619,W,0.37,294.05,140710,,,D*78
$GPVTG,294.05,T,,M,0.37,N,0.7,K,D*01
$GPGGA,222848.000,3748.7977,N,12217.8622,W,2,06,1.4,-4.7,M,-25.1,M,3.8,0000*67
$GPGSA,A,3,07,08,17,11,26,19,,,,,,,2.6,1.4,2.3*37
$GPRMC,222848.000,A,3748.7977,N,12217.8622,W,0.45,282.19,140710,,,D*72
$GPVTG,282.19,T,,M,0.45,N,0.8,K,D*01
$GPGGA,222849.000,3748.7979,N,12217.8623,W,2,05,1.4,-4.6,M,-25.1,M,1.8,0000*69
$GPGSA,A,3,07,08,17,26,19,,,,,,,,2.7,1.4,2.3*36
$GPGSV,3,1,11,28,71,350,,25,71,083,,08,65,071,24,17,46,183,28*74
$GPGSV,3,2,11,26,39,306,21,07,34,107,27,11,24,093,,19,07,037,21*77
$GPGSV,3,3,11,05,04,247,,27,00,304,,51,43,156,37*4E
$GPRMC,222849.000,A,3748.7979,N,12217.8623,W,0.29,211.11,140710,,,D*74
$GPVTG,211.11,T,,M,0.29,N,0.5,K,D*04
$GPGGA,222850.000,3748.7979,N,12217.8621,W,2,07,1.3,-4.2,M,-25.1,M,1.8,0000*62
$GPGSA,A,3,07,08,17,28,11,26,19,,,,,,2.2,1.3,1.8*36
$GPRMC,222850.000,A,3748.7979,N,12217.8621,W,0.62,222.33,140710,,,D*71
$GPVTG,222.33,T,,M,0.62,N,1.1,K,D*0E
$GPGGA,222851.000,3748.7978,N,12217.8624,W,2,06,1.4,-4.9,M,-25.1,M,1.8,0000*6A
$GPGSA,A,3,07,08,17,28,26,19,,,,,,,2.3,1.4,1.8*30
$GPRMC,222851.000,A,3748.7978,N,12217.8624,W,0.29,263.99,140710,,,D*7E
$GPVTG,263.99,T,,M,0.29,N,0.5,K,D*01
$GPGGA,222852.000,3748.7979,N,12217.8621,W,2,07,1.3,-4.2,M,-25.1,M,1.8,0000*60
$GPGSA,A,3,07,08,17,28,11,26,19,,,,,,2.2,1.3,1.8*36
$GPRMC,222852.000,A,3748.7979,N,12217.8621,W,0.20,0.07,140710,,,D*70
$GPVTG,0.07,T,,M,0.20,N,0.4,K,D*09
$GPGGA,222853.000,3748.7977,N,12217.8617,W,2,07,1.3,-4.2,M,-25.1,M,2.8,0000*69
$GPGSA,A,3,07,08,17,28,11,26,19,,,,,,2.2,1.3,1.8*36
$GPRMC,222853.000,A,3748.7977,N,12217.8617,W,0.53,123.32,140710,,,D*78
$GPVTG,123.32,T,,M,0.53,N,1.0,K,D*0E
$GPGGA,222854.000,3748.7977,N,12217.8616,W,2,06,1.4,-4.4,M,-25.1,M,3.8,0000*6E
$GPGSA,A,3,07,08,17,28,26,19,,,,,,,2.3,1.4,1.8*30
$GPGSV,3,1,11,28,71,350,17,25,71,083,,08,65,071,28,17,46,183,27*71
$GPGSV,3,2,11,26,39,306,20,07,34,107,34,11,24,093,,19,07,037,18*7E
$GPGSV,3,3,11,05,04,247,,27,00,304,,51,43,156,37*4E
$GPVTG,74.90,T,,M,0.52,N,1.0,K,D*34
$GPGGA,222855.000,3748.7975,N,12217.8610,W,2,06,1.4,-3.4,M,-25.1,M,1.8,0000*6E
$GPGSA,A,3,07,08,17,28,26,19,,,,,,,2.3,1.4,1.8*30
$GPRMC,222855.000,A,3748.7975,N,12217.8610,W,0.46,26.84,140710,,,D*46
$GPVTG,26.84,T,,M,0.46,N,0.9,K,D*3B
$GPGGA,222856.000,3748.7979,N,12217.8607,W,2,06,1.4,-3.7,M,-25.1,M,1.8,0000*64
$GPGSA,A,3,07,08,17,28,26,19,,,,,,,2.3,1.4,1.8*30
$GPRMC,222856.000,A,3748.7979,N,12217.8607,W,0.76,350.55,140710,,,D*72
$GPVTG,350.55,T,,M,0.76,N,1.4,K,D*0A
$GPGGA,222857.000,3748.7977,N,12217.8613,W,2,07,1.3,-5.2,M,-25.1,M,1.8,0000*6B
$GPGSA,A,3,07,08,17,28,11,26,19,,,,,,2.2,1.3,1.8*36
$GPRMC,222857.000,A,3748.7977,N,12217.8613,W,0.42,35.64,140710,,,D*4D
$GPVTG,35.64,T,,M,0.42,N,0.8,K,D*32
$GPGGA,222858.000,3748.7978,N,12217.8618,W,2,06,1.4,-5.2,M,-25.1,M,1.8,0000*66
$GPGSA,A,3,07,08,17,28,26,19,,,,,,,2.3,1.4,1.8*30
$GPRMC,222858.000,A,3748.7978,N,12217.8618,W,0.27,262.62,140710,,,D*73
$GPVTG,262.62,T,,M,0.27,N,0.5,K,D*0A
$GPGGA,222859.000,3748.7975,N,12217.8617,W,2,03,2.9,-6.6,M,-25.1,M,2.8,0000*6A
$GPGSA,A,2,07,08,17,,,,,,,,,,3.1,2.9,1.0*32
$GPGSV,3,1,11,28,71,350,15,25,71,083,,08,65,071,22,17,46,183,26*78
$GPGSV,3,2,11,26,39,306,17,07,34,107,32,11,24,093,,19,07,037,15*71
$GPGSV,3,3,11,05,04,247,,27,00,304,,51,43,156,31*48
$GPRMC,222859.000,A,3748.7975,N,12217.8617,W,0.79,89.26,140710,,,D*4C
$GPVTG,89.26,T,,M,0.79,N,1.5,K,D*37
$GPGGA,222900.000,3748.7976,N,12217.8621,W,2,04,1.6,-7.3,M,-25.1,M,3.8,0000*6F
$GPGSA,A,3,07,08,17,26,,,,,,,,,4.2,1.6,3.8*35
$GPRMC,222900.000,A,3748.7976,N,12217.8621,W,0.39,151.62,140710,,,D*77
$GPVTG,151.62,T,,M,0.39,N,0.7,K,D*04
$GPGGA,222901.000,3748.7977,N,12217.8619,W,2,05,1.4,-6.7,M,-25.1,M,1.8,0000*60
$GPGSA,A,3,07,08,17,26,19,,,,,,,,2.7,1.4,2.3*36
$GPRMC,222901.000,A,3748.7977,N,12217.8619,W,0.12,85.33,140710,,,D*49
$GPVTG,85.33,T,,M,0.12,N,0.2,K,D*34
$GPGGA,222902.000,3748.7978,N,12217.8611,W,2,06,1.4,-7.3,M,-25.1,M,1.8,0000*62
$GPGSA,A,3,07,08,17,11,26,19,,,,,,,2.6,1.4,2.3*37
$GPRMC,222902.000,A,3748.7978,N,12217.8611,W,0.44,325.37,140710,,,D*73
$GPVTG,325.37,T,,M,0.44,N,0.8,K,D*00
$GPGGA,222903.000,3748.7983,N,12217.8611,W,2,06,1.4,-7.1,M,-25.1,M,1.8,0000*65
$GPGSA,A,3,07,08,17,11,26,19,,,,,,,2.6,1.4,2.3*37
$GPRMC,222903.000,A,3748.7983,N,12217.8611,W,0.51,310.14,140710,,,D*75
$GPVTG,310.14,T,,M,0.51,N,0.9,K,D*02
$GPGGA,222904.000,3748.7987,N,12217.8612,W,2,06,1.4,-7.9,M,-25.1,M,2.8,0000*6E
$GPGSA,A,3,07,08,17,11,26,19,,,,,,,2.6,1.4,2.3*37
$GPGSV,3,1,11,28,71,350,,25,71,083,,08,65,071,26,17,46,183,23*7D
$GPGSV,3,2,11,26,39,306,19,07,34,107,35,11,24,093,30,19,07,037,24*79
$GPGSV,3,3,11,05,04,247,,27,00,304,,51,43,156,34*4D
$GPRMC,222904.000,A,3748.7987,N,12217.8612,W,0.18,208.34,140710,,,D*72
$GPVTG,208.34,T,,M,0.18,N,0.3,K,D*0F
$GPGGA,222905.000,3748.7989,N,12217.8609,W,2,06,1.4,-4.1,M,-25.1,M,3.8,0000*61
$GPGSA,A,3,07,08,17,11,26,19,,,,,,,2.6,1.4,2.3*37
$GPRMC,222905.000,A,3748.7989,N,12217.8609,W,0.47,167.17,140710,,,D*76
$GPVTG,167.17,T,,M,0.47,N,0.9,K,D*04
$GPGGA,222906.000,3748.7995,N,12217.8611,W,2,06,1.4,-2.6,M,-25.1,M,4.8,0000*60
$GPGSA,A,3,07,08,17,11,26,19,,,,,,,2.6,1.4,2.3*37
$GPRMC,222906.000,A,3748.7995,N,12217.8611,W,1.03,213.46,140710,,,D*74
$GPVTG,213.46,T,,M,1.03,N,1.9,K,D*00
$GPGGA,222907.000,3748.7995,N,12217.8614,W,2,05,1.4,-1.9,M,-25.1,M,5.8,0000*6A
$GPGSA,A,3,07,08,17,26,19,,,,,,,,2.7,1.4,2.3*36
$GPRMC,222907.000,A,3748.7995,N,12217.8614,W,0.63,285.33,140710,,,D*7A
$GPVTG,285.33,T,,M,0.63,N,1.2,K,D*01
$GPGGA,222908.000,3748.7997,N,12217.8617,W,2,06,1.4,-1.2,M,-25.1,M,6.8,0000*6F
$GPGSA,A,3,07,08,17,11,26,19,,,,,,,2.7,1.4,2.3*36
$GPRMC,222908.000,A,3748.7997,N,12217.8617,W,0.34,144.46,140710,,,D*7A
$GPVTG,144.46,T,,M,0.34,N,0.6,K,D*0A
$GPGGA,222909.000,3748.8001,N,12217.8609,W,2,06,1.4,0.5,M,-25.1,M,7.8,0000*42
$GPGSA,A,3,07,08,17,11,26,19,,,,,,,2.7,1.4,2.3*36
$GPGSV,3,1,11,28,71,350,,25,71,083,,08,65,071,26,17,46,183,25*7B
$GPGSV,3,2,11,26,39,306,23,07,34,107,35,11,24,093,32,19,07,037,22*74
$GPGSV,3,3,11,05,04,247,,27,00,304,,51,43,156,36*4F
$GPVTG,358.04,T,,M,0.31,N,0.6,K,D*06
$GPGGA,222910.000,3748.8005,N,12217.8600,W,2,06,1.4,0.9,M,-25.1,M,8.8,0000*44
$GPGSA,A,3,07,08,17,11,26,19,,,,,,,2.7,1.4,2.3*36
$GPRMC,222910.000,A,3748.8005,N,12217.8600,W,0.74,57.10,140710,,,D*4C
$GPVTG,57.10,T,,M,0.74,N,1.4,K,D*3D
$GPGGA,222911.000,3748.8003,N,12217.8598,W,2,05,1.4,0.1,M,-25.1,M,9.8,0000*4B
$GPGSA,A,3,07,08,17,26,19,,,,,,,,2.7,1.4,2.3*36
$GPRMC,222911.000,A,3748.8003,N,12217.8598,W,0.59,15.67,140710,,,D*40
$GPVTG,15.67,T,,M,0.59,N,1.1,K,D*31
$GPGGA,222912.000,3748.8002,N,12217.8596,W,2,06,1.4,-0.2,M,-25.1,M,10.8,0000*52
$GPGSA,A,3,07,08,17,11,26,19,,,,,,,2.7,1.4,2.3*36
$GPRMC,222912.000,A,3748.8002,N,12217.8596,W,0.59,327.23,140710,,,D*7E
$GPVTG,327.23,T,,M,0.59,N,1.1,K,D*03
$GPGGA,222913.000,3748.8000,N,12217.8595,W,2,06,1.4,-0.2,M,-25.1,M,1.8,0000*62
$GPGSA,A,3,07,08,17,11,26,19,,,,,,,2.7,1.4,2.3*36
$GPRMC,222913.000,A,3748.8000,N,12217.8595,W,0.24,245.93,140710,,,D*7A
$GPVTG,245.93,T,,M,0.24,N,0.4,K,D*03
$GPGGA,222914.000,3748.7997,N,12217.8584,W,2,05,1.4,2.3,M,-25.1,M,2.8,0000*43
$GPGSA,A,3,07,08,17,26,19,,,,,,,,2.7,1.4,2.3*36
$GPGSV,3,1,10,28,71,350,,25,71,083,,08,65,071,26,17,46,183,23*7C
$GPGSV,3,2,10,26,39,306,23,07,34,107,35,11,24,093,,19,07,037,31*76
$GPGSV,3,3,10,05,04,247,,27,00,304,*7A
$GPRMC,222914.000,A,3748.7997,N,12217.8584,W,0.30,60.57,140710,,,D*4D
$GPVTG,60.57,T,,M,0.30,N,0.6,K,D*39
$GPGGA,222915.000,3748.7995,N,12217.8581,W,2,06,1.4,2.8,M,-25.1,M,3.8,0000*4C
$GPGSA,A,3,07,08,17,11,26,19,,,,,,,2.7,1.4,2.3*36
$GPRMC,222915.000,A,3748.7995,N,12217.8581,W,0.95,89.00,140710,,,D*41
$GPVTG,89.00,T,,M,0.95,N,1.8,K,D*3C
$GPGGA,222916.000,3748.7996,N,12217.8578,W,2,06,1.4,3.3,M,-25.1,M,4.8,0000*47
$GPGSA,A,3,07,08,17,11,26,19,,,,,,,2.7,1.4,2.3*36
$GPRMC,222916.000,A,3748.7996,N,12217.8578,W,0.65,62.13,140710,,,D*4F
$GPVTG,62.13,T,,M,0.65,N,1.2,K,D*3E
$GPGGA,222917.000,3748.7995,N,12217.8590,W,2,06,1.4,4.4,M,-25.1,M,5.8,0000*42
$GPGSA,A,3,07,08,17,11,26,19,,,,,,,2.7,1.4,2.3*36
$GPRMC,222917.000,A,3748.7995,N,12217.8590,W,0.33,290.62,140710,,,D*71
$GPVTG,290.62,T,,M,0.33,N,0.6,K,D*01
$GPGGA,222918.000,3748.7994,N,12217.8594,W,2,06,1.4,4.3,M,-25.1,M,6.8,0000*4C
$GPGSA,A,3,07,08,17,11,26,19,,,,,,,2.7,1.4,2.3*36
$GPRMC,222918.000,A,3748.7994,N,12217.8594,W,0.31,289.80,140710,,,D*7D
$GPVTG,289.80,T,,M,0.31,N,0.6,K,D*07
$GPGGA,222919.000,3748.7994,N,12217.8601,W,2,04,2.9,4.7,M,-25.1,M,7.8,0000*4B
$GPGSA,A,3,07,17,26,19,,,,,,,,,7.6,2.9,7.0*32
$GPGSV,3,1,11,28,71,350,,25,71,083,,08,65,071,17,17,46,183,25*79
$GPGSV,3,2,11,26,39,306,21,07,34,107,34,11,24,093,,19,07,037,21*75
$GPGSV,3,3,11,05,04,247,16,27,00,304,,51,43,156,32*4C
$GPRMC,222919.000,A,3748.7994,N,12217.8601,W,0.34,355.92,140710,,,D*75
$GPVTG,355.92,T,,M,0.34,N,0.6,K,D*01
$GPGGA,222920.000,3748.7991,N,12217.8609,W,2,06,1.4,3.4,M,-25.1,M,8.8,0000*4B
$GPGSA,A,3,07,08,17,11,26,19,,,,,,,2.7,1.4,2.3*36
$GPRMC,222920.000,A,3748.7991,N,12217.8609,W,0.40,286.56,140710,,,D*76
$GPVTG,286.56,T,,M,0.40,N,0.7,K,D*04
$GPGGA,222921.000,3748.8001,N,12217.8609,W,2,06,1.4,3.8,M,-25.1,M,9.8,0000*48
$GPGSA,A,3,07,08,17,11,26,19,,,,,,,2.7,1.4,2.3*36
$GPRMC,222921.000,A,3748.8001,N,12217.8609,W,0.54,353.37,140710,,,D*73
$GPVTG,353.37,T,,M,0.54,N,1.0,K,D*09
$GPGGA,222922.000,3748.8006,N,12217.8611,W,2,05,1.4,4.0,M,-25.1,M,10.8,0000*71
$GPGSA,A,3,07,08,17,26,19,,,,,,,,2.7,1.4,2.3*36
$GPRMC,222922.000,A,3748.8006,N,12217.8611,W,0.70,300.26,140710,,,D*7E
$GPVTG,300.26,T,,M,0.70,N,1.3,K,D*0A
$GPGGA,222923.000,3748.8007,N,12217.8617,W,2,05,1.4,3.6,M,-25.1,M,11.8,0000*77
$GPGSA,A,3,07,08,17,26,19,,,,,,,,2.7,1.4,2.3*36
$GPRMC,222923.000,A,3748.8007,N,12217.8617,W,0.94,286.85,140710,,,D*74
$GPVTG,286.85,T,,M,0.94,N,1.7,K,D*02
$GPGGA,222924.000,3748.8008,N,12217.8618,W,2,05,1.5,3.7,M,-25.1,M,12.8,0000*73
$GPGSA,A,3,07,08,17,26,19,,,,,,,,2.7,1.5,2.3*37
$GPGSV,3,1,10,28,71,350,,25,71,083,,08,65,071,30,17,46,183,25*7D
$GPGSV,3,2,10,26,39,306,19,07,34,107,30,11,24,093,,19,07,037,33*78
$GPGSV,3,3,10,05,04,247,19,27,00,304,*72
$GPRMC,222924.000,A,3748.8008,N,12217.8618,W,0.84,289.42,140710,,,D*76
$GPGGA,222925.000,3748.8011,N,12217.8615,W,2,07,1.3,3.6,M,-25.1,M,13.8,0000*73
$GPGSA,A,3,07,08,17,28,11,26,19,,,,,,2.2,1.3,1.8*36
$GPRMC,222925.000,A,3748.8011,N,12217.8615,W,0.68,255.46,140710,,,D*75
$GPVTG,255.46,T,,M,0.68,N,1.3,K,D*04
$GPGGA,222926.000,3748.8012,N,12217.8616,W,2,05,1.5,3.8,M,-25.1,M,14.8,0000*7D
$GPGSA,A,3,07,08,17,26,19,,,,,,,,2.7,1.5,2.3*37
$GPRMC,222926.000,A,3748.8012,N,12217.8616,W,0.41,326.47,140710,,,D*79
$GPVTG,326.47,T,,M,0.41,N,0.8,K,D*01
$GPGGA,222927.000,3748.8013,N,12217.8609,W,2,05,1.5,3.8,M,-25.1,M,15.8,0000*72
$GPGSA,A,3,07,08,17,26,19,,,,,,,,2.7,1.5,2.3*37
$GPRMC,222927.000,A,3748.8013,N,12217.8609,W,0.64,59.25,140710,,,D*4F
$GPVTG,59.25,T,,M,0.64,N,1.2,K,D*32
$GPGGA,222928.000,3748.8010,N,12217.8603,W,2,05,1.5,3.7,M,-25.1,M,16.8,0000*78
$GPGSA,A,3,07,08,17,26,19,,,,,,,,2.7,1.5,2.3*37
$GPRMC,222928.000,A,3748.8010,N,12217.8603,W,0.56,86.07,140710,,,D*4A
$GPVTG,86.07,T,,M,0.56,N,1.0,K,D*33
$GPGGA,222929.000,3748.8014,N,12217.8595,W,2,05,1.5,5.2,M,-25.1,M,17.8,0000*73
$GPGSA,A,3,07,08,17,26,19,,,,,,,,2.7,1.5,2.3*37
$GPGSV,3,1,11,28,71,350,,25,71,083,,08,65,071,19,17,46,183,23*71
$GPGSV,3,2,11,26,39,306,20,07,34,107,32,11,24,093,,19,07,037,18*78
$GPGSV,3,3,11,05,04,247,,27,00,304,,51,43,156,30*49
$GPRMC,222929.000,A,3748.8014,N,12217.8595,W,0.24,164.09,140710,,,D*75
$GPVTG,164.09,T,,M,0.24,N,0.4,K,D*00
$GPGGA,222930.000,3748.8010,N,12217.8591,W,1,05,1.5,4.7,M,-25.1,M,,0000*6C
$GPGSA,A,3,07,08,17,26,19,,,,,,,,2.7,1.5,2.3*37
$GPRMC,222930.000,A,3748.8010,N,12217.8591,W,0.19,86.05,140710,,,A*47
$GPVTG,86.05,T,,M,0.19,N,0.3,K,A*3D
$GPGGA,222931.000,3748.8006,N,12217.8593,W,1,04,2.4,4.3,M,-25.1,M,,0000*6F
$GPGSA,A,3,07,08,17,19,,,,,,,,,3.3,2.4,2.3*34
$GPRMC,222931.000,A,3748.8006,N,12217.8593,W,0.79,179.36,140710,,,A*74
$GPVTG,179.36,T,,M,0.79,N,1.5,K,A*0D
$GPGGA,222932.000,3748.7997,N,12217.8597,W,1,03,3.0,2.1,M,-25.1,M,,0000*60
$GPGSA,A,2,07,08,17,,,,,,,,,,3.1,3.0,1.0*3A
$GPRMC,222932.000,A,3748.7997,N,12217.8597,W,0.38,197.87,140710,,,A*72
$GPVTG,197.87,T,,M,0.38,N,0.7,K,A*01
$GPGGA,222933.000,3748.7992,N,12217.8604,W,1,03,3.0,1.2,M,-25.1,M,,0000*6D
$GPGSA,A,2,07,08,17,,,,,,,,,,3.1,3.0,1.0*3A
$GPRMC,222933.000,A,3748.7992,N,12217.8604,W,1.10,240.36,140710,,,A*77
$GPVTG,240.36,T,,M,1.10,N,2.0,K,A*0C
$GPGGA,222934.000,3748.7985,N,12217.8607,W,1,04,1.7,0.6,M,-25.1,M,,0000*68
$GPGSA,A,3,07,08,17,26,,,,,,,,,4.1,1.7,3.8*37
$GPGSV,3,1,11,28,71,350,,25,71,083,,08,65,071,23,17,46,183,24*7F
$GPGSV,3,2,11,26,39,306,17,07,34,107,29,11,24,093,,19,07,037,*7F
$GPGSV,3,3,11,05,04,247,,27,00,304,,51,43,156,25*4D
$GPRMC,222934.000,A,3748.7985,N,12217.8607,W,0.81,242.12,140710,,,A*78
$GPVTG,242.12,T,,M,0.81,N,1.5,K,A*07
$GPGGA,222935.000,3748.7983,N,12217.8612,W,1,03,1.9,0.6,M,-25.1,M,,0000*62
$GPGSA,A,2,07,17,26,,,,,,,,,,2.1,1.9,1.0*3C
$GPRMC,222935.000,A,3748.7983,N,12217.8612,W,0.08,299.90,140710,,,A*76
$GPVTG,299.90,T,,M,0.08,N,0.1,K,N*00
$GPGGA,222936.000,3748.7980,N,12217.8619,W,1,04,1.7,1.3,M,-25.1,M,,0000*64
$GPGSA,A,3,07,08,17,26,,,,,,,,,4.1,1.7,3.8*37
$GPRMC,222936.000,A,3748.7980,N,12217.8619,W,0.26,230.00,140710,,,A*7B
$GPVTG,230.00,T,,M,0.26,N,0.5,K,A*0D
$GPGGA,222937.000,3748.7971,N,12217.8617,W,1,05,1.5,2.4,M,-25.1,M,,0000*62
$GPGSA,A,3,07,08,17,11,26,,,,,,,,3.3,1.5,2.9*30
$GPRMC,222937.000,A,3748.7971,N,12217.8617,W,1.26,190.04,140710,,,A*76
$GPVTG,190.04,T,,M,1.26,N,2.3,K,A*05
$GPGGA,222938.000,3748.7961,N,12217.8614,W,1,05,1.5,3.9,M,-25.1,M,,0000*63
$GPGSA,A,3,07,08,17,11,26,,,,,,,,3.3,1.5,2.9*30
$GPRMC,222938.000,A,3748.7961,N,12217.8614,W,1.12,214.36,140710,,,A*72
$GPVTG,214.36,T,,M,1.12,N,2.1,K,A*0E
$GPGGA,222939.000,3748.7964,N,12217.8609,W,1,05,1.5,4.7,M,-25.1,M,,0000*62
$GPGSA,A,3,07,08,17,11,26,,,,,,,,3.3,1.5,2.9*30
$GPGSV,3,1,11,28,71,350,,25,71,083,,08,65,071,19,17,46,183,23*71
$GPGSV,3,2,11,26,39,306,30,07,34,107,36,11,24,093,35,19,07,037,*72
$GPGSV,3,3,11,05,04,247,,27,00,304,,51,43,156,36*4F
$GPRMC,222939.000,A,3748.7964,N,12217.8609,W,0.16,157.52,140710,,,A*79
$GPVTG,157.52,T,,M,0.16,N,0.3,K,A*0D
$GPGGA,222940.000,3748.7973,N,12217.8597,W,1,06,1.5,5.4,M,-25.1,M,,0000*6F
$GPGSA,A,3,07,08,17,11,26,28,,,,,,,2.8,1.5,2.4*3D
$GPRMC,222940.000,A,3748.7973,N,12217.8597,W,0.79,39.19,140710,,,A*4A
$GPVTG,39.19,T,,M,0.79,N,1.5,K,A*35
$GPGGA,222941.000,3748.7979,N,12217.8589,W,1,06,1.5,6.6,M,-25.1,M,,0000*6A
$GPGSA,A,3,07,08,17,11,26,28,,,,,,,2.8,1.5,2.4*3D
$GPRMC,222941.000,A,3748.7979,N,12217.8589,W,0.52,36.36,140710,,,A*45
$GPVTG,36.36,T,,M,0.52,N,1.0,K,A*3B
$GPGGA,222942.000,3748.7980,N,12217.8581,W,1,07,1.3,8.9,M,-25.1,M,,0000*61
$GPGSA,A,3,07,08,17,11,26,28,19,,,,,,2.2,1.3,1.8*36
$GPRMC,222942.000,A,3748.7980,N,12217.8581,W,0.39,37.48,140710,,,A*4D
$GPVTG,37.48,T,,M,0.39,N,0.7,K,A*38
$GPGGA,222943.000,3748.7978,N,12217.8581,W,1,07,1.3,7.9,M,-25.1,M,,0000*68
$GPGSA,A,3,07,08,17,11,26,28,19,,,,,,2.2,1.3,1.8*36
