$ADVER,3080,2.3
$GPRMC,220804.301,A,3748.8007,N,12217.8612,W,0.06,180.52,281211,,,A*7E
$GPRMC,220805.301,A,3748.8006,N,12217.8611,W,0.08,165.18,281211,,,A*76
$GPRMC,220806.301,A,3748.8006,N,12217.8611,W,0.07,182.01,281211,,,A*7B
$GPRMC,220807.000,A,3748.8006,N,12217.8611,W,0.04,163.96,281211,,,A*7A
$GPRMC,220808.000,A,3748.8006,N,12217.8611,W,0.06,179.72,281211,,,A*76
$GPRMC,220809.000,A,3748.8006,N,12217.8611,W,0.08,181.90,281211,,,A*72
$GPRMC,220810.000,A,3748.8005,N,12217.8611,W,0.07,164.68,281211,,,A*7A
$GPRMC,220811.000,A,3748.8005,N,12217.8610,W,0.06,182.78,281211,,,A*72
$GPRMC,220812.000,A,3748.8005,N,12217.8610,W,0.08,174.88,281211,,,A*79
$GPRMC,220813.000,A,3748.8005,N,12217.8610,W,0.09,176.09,281211,,,A*72
$GPRMC,220814.000,A,3748.8005,N,12217.8610,W,0.04,190.66,281211,,,A*79
$GPRMC,220815.000,A,3748.8005,N,12217.8610,W,0.06,168.59,281211,,,A*71
$GPRMC,220816.000,A,3748.8004,N,12217.8610,W,0.07,186.02,281211,,,A*7C
$GPRMC,220817.000,A,3748.8004,N,12217.8609,W,0.07,174.39,281211,,,A*70
$GPRMC,220818.000,A,3748.8004,N,12217.8609,W,0.06,178.14,281211,,,A*7D
$GPRMC,220819.000,A,3748.8004,N,12217.8609,W,0.08,170.62,281211,,,A*7B
$GPRMC,220820.000,A,3748.8004,N,12217.8609,W,0.07,182.74,281211,,,A*74
$GPRMC,220821.000,A,3748.8003,N,12217.8609,W,0.07,181.37,281211,,,A*76
$GPRMC,220822.000,A,3748.7987,N,12217.8600,W,0.07,152.34,281211,,,A*7B
$GPRMC,220823.000,A,3748.7987,N,12217.8600,W,0.02,134.11,281211,,,A*78
$GPRMC,220824.000,A,3748.7987,N,12217.8600,W,0.05,137.67,281211,,,A*7A
$GPRMC,220825.000,A,3748.7986,N,12217.8600,W,0.05,130.15,281211,,,A*78
$GPRMC,220826.000,A,3748.7986,N,12217.8599,W,0.04,165.96,281211,,,A*72
$GPRMC,220827.000,A,3748.7986,N,12217.8599,W,0.05,148.41,281211,,,A*77
$GPRMC,220828.000,A,3748.7986,N,12217.8599,W,0.03,183.92,281211,,,A*77
$GPRMC,220829.000,A,3748.7986,N,12217.8599,W,0.07,167.61,281211,,,A*74
$GPRMC,220830.000,A,3748.7986,N,12217.8599,W,0.07,215.86,281211,,,A*73
$GPRMC,220831.000,A,3748.7986,N,12217.8599,W,0.02,216.45,281211,,,A*7B
$GPRMC,220832.000,A,3748.7986,N,12217.8599,W,0.12,142.89,281211,,,A*7B
$GPRMC,220833.000,A,3748.7986,N,12217.8598,W,0.04,173.75,281211,,,A*7D
$GPRMC,220834.000,A,3748.7986,N,12217.8598,W,0.06,165.18,281211,,,A*74
$GPRMC,220835.000,A,3748.7986,N,12217.8598,W,0.06,166.60,281211,,,A*79
$GPRMC,220836.000,A,3748.7986,N,12217.8598,W,0.05,162.90,281211,,,A*72
$GPRMC,220837.000,A,3748.7986,N,12217.8598,W,0.06,167.55,281211,,,A*7C
$GPRMC,220838.000,A,3748.7989,N,12217.8597,W,0.47,72.87,281211,,,A*4C
$GPRMC,220839.000,A,3748.7991,N,12217.8596,W,0.17,204.52,281211,,,A*7B
$GPRMC,220840.000,A,3748.7993,N,12217.8596,W,0.18,298.69,281211,,,A*75
$GPRMC,220841.000,A,3748.7996,N,12217.8597,W,0.36,15.74,281211,,,A*47
$GPRMC,220842.000,A,3748.7999,N,12217.8596,W,0.46,14.22,281211,,,A*4F
$GPRMC,220843.000,A,3748.7993,N,12217.8599,W,1.23,247.14,281211,,,A*78
$GPRMC,220844.000,A,3748.7996,N,12217.8600,W,0.32,305.20,281211,,,A*78
$GPRMC,220845.000,A,3748.7993,N,12217.8597,W,0.12,51.53,281211,,,A*45
$GPRMC,220846.000,A,3748.7993,N,12217.8595,W,0.39,40.95,281211,,,A*47
$GPRMC,220847.000,A,3748.7994,N,12217.8594,W,0.56,349.58,281211,,,A*72
$GPRMC,220848.000,A,3748.7990,N,12217.8589,W,0.96,122.91,281211,,,A*73
$GPRMC,220849.000,A,3748.7981,N,12217.8579,W,2.94,134.53,281211,,,A*74
$GPRMC,220850.000,A,3748.7984,N,12217.8578,W,1.14,128.10,281211,,,A*79
$GPRMC,220851.000,A,3748.7988,N,12217.8573,W,1.68,136.85,281211,,,A*77
$GPRMC,220852.000,A,3748.7989,N,12217.8565,W,1.27,88.48,281211,,,A*4C
$GPRMC,220853.000,A,3748.7991,N,12217.8560,W,0.91,56.71,281211,,,A*44
$GPRMC,220854.000,A,3748.7991,N,12217.8561,W,0.15,94.68,281211,,,A*48
$GPRMC,220855.000,A,3748.7991,N,12217.8565,W,0.64,283.34,281211,,,A*76
$GPRMC,220856.000,A,3748.7992,N,12217.8569,W,0.18,2.67,281211,,,A*7C
$GPRMC,220857.000,A,3748.7991,N,12217.8572,W,0.21,124.98,281211,,,A*7B
$GPRMC,220858.000,A,3748.7990,N,12217.8575,W,0.15,159.06,281211,,,A*78
$GPRMC,220859.000,A,3748.7990,N,12217.8579,W,0.28,353.74,281211,,,A*76
$GPRMC,220900.000,A,3748.7990,N,12217.8582,W,0.21,264.36,281211,,,A*75
$GPRMC,220901.000,A,3748.7990,N,12217.8586,W,0.18,44.73,281211,,,A*4B
$GPRMC,220902.000,A,3748.7987,N,12217.8587,W,0.12,171.77,281211,,,A*76
$GPRMC,220903.000,A,3748.7983,N,12217.8588,W,0.33,210.28,281211,,,A*71
$GPRMC,220904.000,A,3748.7982,N,12217.8591,W,0.15,329.59,281211,,,A*76
$GPRMC,220905.000,A,3748.7983,N,12217.8594,W,0.51,338.54,281211,,,A*7E
$GPRMC,220906.000,A,3748.7983,N,12217.8596,W,0.03,185.62,281211,,,A*79
$GPRMC,220907.000,A,3748.7984,N,12217.8598,W,0.21,293.70,281211,,,A*76
$GPRMC,220908.000,A,3748.7985,N,12217.8599,W,0.04,120.16,281211,,,A*75
$GPRMC,220909.000,A,3748.7986,N,12217.8600,W,0.19,303.21,281211,,,A*7F
$GPRMC,220910.000,A,3748.7987,N,12217.8602,W,0.23,299.52,281211,,,A*7B
$GPRMC,220911.000,A,3748.7987,N,12217.8603,W,0.05,297.26,281211,,,A*72
$GPRMC,220912.000,A,3748.7988,N,12217.8604,W,0.04,278.24,281211,,,A*7B
$GPRMC,220913.000,A,3748.7987,N,12217.8605,W,0.21,144.44,281211,,,A*79
$GPRMC,220914.000,A,3748.7986,N,12217.8603,W,1.13,121.01,281211,,,A*7B
$GPRMC,220915.000,A,3748.7982,N,12217.8598,W,1.48,117.20,281211,,,A*77
$GPRMC,220916.000,A,3748.7979,N,12217.8596,W,1.24,132.12,281211,,,A*72
$GPRMC,220917.000,A,3748.7974,N,12217.8592,W,1.17,127.99,281211,,,A*7D
$GPRMC,220918.000,A,3748.7970,N,12217.8590,W,0.76,122.84,281211,,,A*7B
$GPRMC,220919.000,A,3748.7966,N,12217.8588,W,0.62,109.03,281211,,,A*77
$GPRMC,220920.000,A,3748.7966,N,12217.8584,W,0.93,93.22,281211,,,A*4E
$GPRMC,220921.000,A,3748.7964,N,12217.8586,W,1.36,114.22,281211,,,A*7F
$GPRMC,220922.000,A,3748.7963,N,12217.8583,W,1.21,99.85,281211,,,A*41
$GPRMC,220923.000,A,3748.7958,N,12217.8572,W,1.82,101.79,281211,,,A*7C
$GPRMC,220924.000,A,3748.7957,N,12217.8566,W,1.70,119.51,281211,,,A*7F
$GPRMC,220925.000,A,3748.7951,N,12217.8564,W,1.50,123.34,281211,,,A*72
$GPRMC,220926.000,A,3748.7943,N,12217.8559,W,1.61,125.25,281211,,,A*78
$GPRMC,220927.000,A,3748.7938,N,12217.8551,W,1.94,109.05,281211,,,A*7B
$GPRMC,220928.000,A,3748.7935,N,12217.8542,W,2.17,114.16,281211,,,A*7D
$GPRMC,220929.000,A,3748.7934,N,12217.8534,W,2.04,120.20,281211,,,A*7C
$GPRMC,220930.000,A,3748.7933,N,12217.8524,W,2.31,107.76,281211,,,A*72
$GPRMC,220931.000,A,3748.7931,N,12217.8517,W,2.15,109.31,281211,,,A*7A
$GPRMC,220932.000,A,3748.7929,N,12217.8510,W,2.09,109.85,281211,,,A*75
$GPRMC,220933.000,A,3748.7925,N,12217.8500,W,2.21,112.37,281211,,,A*70
$GPRMC,220934.000,A,3748.7919,N,12217.8492,W,2.44,122.88,281211,,,A*76
$GPRMC,220935.000,A,3748.7914,N,12217.8483,W,2.31,117.72,281211,,,A*7B
$GPRMC,220936.000,A,3748.7909,N,12217.8476,W,2.31,131.84,281211,,,A*73
$GPRMC,220937.000,A,3748.7907,N,12217.8471,W,2.08,129.83,281211,,,A*7F
$GPRMC,220938.000,A,3748.7904,N,12217.8465,W,2.24,128.62,281211,,,A*76
$GPRMC,220939.000,A,3748.7902,N,12217.8459,W,2.11,116.81,281211,,,A*78
$GPRMC,220940.000,A,3748.7900,N,12217.8453,W,1.79,112.69,281211,,,A*71
$GPRMC,220941.000,A,3748.7899,N,12217.8450,W,1.80,115.13,281211,,,A*7E
$GPRMC,220942.000,A,3748.7898,N,12217.8447,W,1.54,107.86,281211,,,A*7C
$GPRMC,220943.000,A,3748.7897,N,12217.8444,W,1.31,114.44,281211,,,A*7E
$GPRMC,220944.000,A,3748.7897,N,12217.8442,W,1.08,112.01,281211,,,A*72
$GPRMC,220945.000,A,3748.7895,N,12217.8438,W,1.40,99.69,281211,,,A*4C
$GPRMC,220946.000,A,3748.7894,N,12217.8433,W,1.87,112.85,281211,,,A*7E
$GPRMC,220947.000,A,3748.7889,N,12217.8425,W,2.21,121.10,281211,,,A*77
$GPRMC,220948.000,A,3748.7884,N,12217.8416,W,2.55,120.99,281211,,,A*76
$GPRMC,220949.000,A,3748.7880,N,12217.8407,W,2.55,114.37,281211,,,A*70
$GPRMC,220950.000,A,3748.7875,N,12217.8397,W,2.77,112.90,281211,,,A*77
$GPRMC,220951.000,A,3748.7871,N,12217.8387,W,2.08,117.81,281211,,,A*7E
$GPRMC,220952.000,A,3748.7867,N,12217.8378,W,2.64,123.78,281211,,,A*71
$GPRMC,220953.000,A,3748.7862,N,12217.8370,W,2.64,125.89,281211,,,A*75
$GPRMC,220954.000,A,3748.7857,N,12217.8361,W,2.45,119.79,281211,,,A*77
$GPRMC,220955.000,A,3748.7852,N,12217.8351,W,2.58,120.84,281211,,,A*74
$GPRMC,220956.000,A,3748.7849,N,12217.8342,W,2.53,119.04,281211,,,A*76
$GPRMC,220957.000,A,3748.7845,N,12217.8333,W,2.52,116.73,281211,,,A*73
$GPRMC,220958.000,A,3748.7840,N,12217.8327,W,2.47,117.84,281211,,,A*71
$GPRMC,220959.000,A,3748.7835,N,12217.8317,W,2.70,128.53,281211,,,A*73
$GPRMC,221000.000,A,3748.7830,N,12217.8308,W,2.33,121.37,281211,,,A*70
$GPRMC,221001.000,A,3748.7821,N,12217.8302,W,2.39,114.27,281211,,,A*76
$GPRMC,221002.000,A,3748.7813,N,12217.8292,W,2.71,116.46,281211,,,A*75
$GPRMC,221003.000,A,3748.7807,N,12217.8279,W,2.68,112.01,281211,,,A*7B
$GPRMC,221004.000,A,3748.7801,N,12217.8272,W,2.51,118.19,281211,,,A*78
$GPRMC,221005.000,A,3748.7795,N,12217.8264,W,2.53,126.09,281211,,,A*72
$GPRMC,221006.000,A,3748.7788,N,12217.8254,W,2.59,124.79,281211,,,A*71
$GPRMC,221007.000,A,3748.7781,N,12217.8247,W,2.45,119.79,281211,,,A*78
$GPRMC,221008.000,A,3748.7775,N,12217.8238,W,2.57,115.53,281211,,,A*73
$GPRMC,221009.000,A,3748.7772,N,12217.8229,W,2.75,112.27,281211,,,A*71
$GPRMC,221010.000,A,3748.7768,N,12217.8219,W,2.82,120.53,281211,,,A*7B
$GPRMC,221011.000,A,3748.7764,N,12217.8210,W,2.93,115.59,281211,,,A*73
$GPRMC,221012.000,A,3748.7762,N,12217.8200,W,2.56,113.56,281211,,,A*77
$GPRMC,221013.000,A,3748.7758,N,12217.8190,W,2.93,127.65,281211,,,A*7B
$GPRMC,221014.000,A,3748.7753,N,12217.8180,W,2.82,125.98,281211,,,A*76
$GPRMC,221015.000,A,3748.7749,N,12217.8172,W,2.47,111.62,281211,,,A*7A
$GPRMC,221016.000,A,3748.7744,N,12217.8162,W,2.57,111.57,281211,,,D*77
$GPRMC,221017.000,A,3748.7739,N,12217.8153,W,2.65,128.48,281211,,,D*7B
$GPRMC,221018.000,A,3748.7736,N,12217.8145,W,2.40,105.72,281211,,,D*7D
$GPRMC,221019.000,A,3748.7733,N,12217.8135,W,2.51,115.16,281211,,,D*7D
$GPRMC,221020.000,A,3748.7730,N,12217.8128,W,2.29,116.28,281211,,,D*79
$GPRMC,221021.000,A,3748.7727,N,12217.8120,W,2.54,112.16,281211,,,D*75
$GPRMC,221022.000,A,3748.7724,N,12217.8112,W,2.50,117.88,281211,,,D*72
$GPRMC,221023.000,A,3748.7721,N,12217.8103,W,2.81,118.53,281211,,,D*73
$GPRMC,221024.000,A,3748.7719,N,12217.8096,W,2.81,112.28,281211,,,D*74
$GPRMC,221025.000,A,3748.7711,N,12217.8084,W,2.82,122.30,281211,,,D*77
$GPRMC,221026.000,A,3748.7702,N,12217.8075,W,3.08,122.83,281211,,,D*73
$GPRMC,221027.000,A,3748.7697,N,12217.8067,W,3.02,112.15,281211,,,D*7A
$GPRMC,221028.000,A,3748.7692,N,12217.8058,W,2.85,115.55,281211,,,D*71
$GPRMC,221029.000,A,3748.7688,N,12217.8050,W,2.56,116.00,281211,,,D*7E
$GPRMC,221030.000,A,3748.7683,N,12217.8043,W,2.35,112.40,281211,,,D*7A
$GPRMC,221031.000,A,3748.7679,N,12217.8037,W,2.78,113.95,281211,,,D*7D
$GPRMC,221032.000,A,3748.7676,N,12217.8028,W,2.71,114.89,281211,,,D*7C
$GPRMC,221033.000,A,3748.7674,N,12217.8020,W,2.44,107.68,281211,,,D*7C
$GPRMC,221034.000,A,3748.7673,N,12217.8013,W,2.51,113.16,281211,,,D*74
$GPRMC,221035.000,A,3748.7670,N,12217.8005,W,2.45,113.44,281211,,,D*73
$GPRMC,221036.000,A,3748.7668,N,12217.7996,W,2.51,111.87,281211,,,D*7D
$GPRMC,221037.000,A,3748.7665,N,12217.7987,W,2.77,117.32,281211,,,D*7D
$GPRMC,221038.000,A,3748.7662,N,12217.7978,W,2.66,111.90,281211,,,D*7B
$GPRMC,221039.000,A,3748.7657,N,12217.7968,W,2.41,114.68,281211,,,D*7A
$GPRMC,221040.000,A,3748.7651,N,12217.7964,W,2.33,124.77,281211,,,D*76
$GPRMC,221041.000,A,3748.7647,N,12217.7955,W,2.71,124.07,281211,,,D*73
$GPRMC,221042.000,A,3748.7643,N,12217.7948,W,2.60,128.29,281211,,,D*78
$GPRMC,221043.000,A,3748.7639,N,12217.7940,W,2.71,127.25,281211,,,D*7F
$GPRMC,221044.000,A,3748.7634,N,12217.7932,W,2.82,124.20,281211,,,D*7A
$GPRMC,221045.000,A,3748.7631,N,12217.7925,W,2.46,119.30,281211,,,D*7F
$GPRMC,221046.000,A,3748.7627,N,12217.7916,W,2.70,117.10,281211,,,D*72
$GPRMC,221047.000,A,3748.7623,N,12217.7906,W,2.67,111.94,281211,,,D*7A
$GPRMC,221048.000,A,3748.7620,N,12217.7897,W,2.52,111.29,281211,,,D*7F
$GPRMC,221049.000,A,3748.7617,N,12217.7890,W,2.42,113.71,281211,,,D*73
$GPRMC,221050.000,A,3748.7614,N,12217.7882,W,2.83,120.21,281211,,,D*73
$GPRMC,221051.000,A,3748.7611,N,12217.7874,W,2.74,123.74,281211,,,D*75
$GPRMC,221052.000,A,3748.7608,N,12217.7868,W,2.69,114.45,281211,,,D*79
$GPRMC,221053.000,A,3748.7605,N,12217.7860,W,2.38,112.50,281211,,,D*7B
$GPRMC,221054.000,A,3748.7600,N,12217.7856,W,2.27,113.57,281211,,,D*74
$GPRMC,221055.000,A,3748.7594,N,12217.7847,W,2.50,123.82,281211,,,D*70
$GPRMC,221056.000,A,3748.7590,N,12217.7839,W,2.81,122.71,281211,,,D*7F
$GPRMC,221057.000,A,3748.7585,N,12217.7831,W,2.85,120.16,281211,,,D*75
$GPRMC,221058.000,A,3748.7580,N,12217.7821,W,2.75,118.60,281211,,,D*7B
$GPRMC,221059.000,A,3748.7575,N,12217.7811,W,2.73,116.84,281211,,,D*71
$GPRMC,221100.000,A,3748.7569,N,12217.7803,W,2.90,124.68,281211,,,D*7C
$GPRMC,221101.000,A,3748.7562,N,12217.7795,W,2.95,123.70,281211,,,D*7D
$GPRMC,221102.000,A,3748.7556,N,12217.7785,W,2.98,120.75,281211,,,D*73
$GPRMC,221103.000,A,3748.7549,N,12217.7777,W,2.93,120.85,281211,,,D*75
$GPRMC,221104.000,A,3748.7544,N,12217.7768,W,2.87,113.07,281211,,,D*7E
$GPRMC,221105.000,A,3748.7539,N,12217.7759,W,2.68,109.51,281211,,,D*7E
$GPRMC,221106.000,A,3748.7535,N,12217.7750,W,2.71,108.19,281211,,,D*7D
$GPRMC,221107.000,A,3748.7530,N,12217.7742,W,2.71,116.88,281211,,,D*7D
$GPRMC,221108.000,A,3748.7523,N,12217.7734,W,2.72,121.66,281211,,,D*76
$GPRMC,221109.000,A,3748.7516,N,12217.7726,W,2.73,117.62,281211,,,D*72
$GPRMC,221110.000,A,3748.7511,N,12217.7717,W,2.77,114.92,281211,,,D*77
$GPRMC,221111.000,A,3748.7506,N,12217.7709,W,2.77,118.95,281211,,,D*74
$GPRMC,221112.000,A,3748.7501,N,12217.7699,W,2.93,114.44,281211,,,D*72
$GPRMC,221113.000,A,3748.7497,N,12217.7691,W,2.94,126.54,281211,,,D*72
$GPRMC,221114.000,A,3748.7492,N,12217.7682,W,2.85,121.13,281211,,,D*76
$GPRMC,221115.000,A,3748.7486,N,12217.7673,W,3.00,119.16,281211,,,D*7E
$GPRMC,221116.000,A,3748.7480,N,12217.7663,W,3.01,115.80,281211,,,D*78
$GPRMC,221117.000,A,3748.7477,N,12217.7654,W,2.96,109.97,281211,,,D*71
$GPRMC,221118.000,A,3748.7473,N,12217.7644,W,2.81,113.65,281211,,,D*7B
$GPRMC,221119.000,A,3748.7467,N,12217.7635,W,2.37,115.54,281211,,,D*70
$GPRMC,221120.000,A,3748.7462,N,12217.7626,W,2.53,117.41,281211,,,D*79
$GPRMC,221121.000,A,3748.7456,N,12217.7618,W,2.77,116.17,281211,,,D*76
$GPRMC,221122.000,A,3748.7452,N,12217.7608,W,2.33,111.89,281211,,,D*70
$GPRMC,221123.000,A,3748.7448,N,12217.7600,W,2.57,115.76,281211,,,D*74
$GPRMC,221124.000,A,3748.7447,N,12217.7589,W,2.91,110.44,281211,,,D*70
$GPRMC,221125.000,A,3748.7445,N,12217.7580,W,2.04,110.63,281211,,,D*73
$GPRMC,221126.000,A,3748.7443,N,12217.7570,W,2.48,111.77,281211,,,D*75
$GPRMC,221127.000,A,3748.7441,N,12217.7557,W,2.77,117.85,281211,,,D*74
$GPRMC,221128.000,A,3748.7436,N,12217.7549,W,2.09,109.54,281211,,,D*7E
$GPRMC,221129.000,A,3748.7433,N,12217.7543,W,2.49,108.29,281211,,,D*7F
$GPRMC,221130.000,A,3748.7430,N,12217.7534,W,2.63,109.27,281211,,,D*73
$GPRMC,221131.000,A,3748.7427,N,12217.7526,W,2.43,112.37,281211,,,D*7E
$GPRMC,221132.000,A,3748.7424,N,12217.7516,W,2.57,114.69,281211,,,D*75
$GPRMC,221133.000,A,3748.7421,N,12217.7507,W,2.22,112.46,281211,,,D*78
$GPRMC,221134.000,A,3748.7418,N,12217.7494,W,2.84,112.07,281211,,,D*77
$GPRMC,221135.000,A,3748.7414,N,12217.7485,W,2.32,121.22,281211,,,D*70
$GPRMC,221136.000,A,3748.7411,N,12217.7476,W,2.40,122.07,281211,,,D*7B
$GPRMC,221137.000,A,3748.7406,N,12217.7471,W,2.47,127.18,281211,,,D*77
$GPRMC,221138.000,A,3748.7400,N,12217.7465,W,2.60,130.10,281211,,,D*70
$GPRMC,221139.000,A,3748.7396,N,12217.7457,W,1.85,117.39,281211,,,D*7E
$GPRMC,221140.000,A,3748.7392,N,12217.7447,W,2.07,111.44,281211,,,D*70
$GPRMC,221141.000,A,3748.7386,N,12217.7435,W,2.39,127.42,281211,,,D*7F
$GPRMC,221142.000,A,3748.7382,N,12217.7426,W,2.60,117.30,281211,,,D*70
$GPRMC,221143.000,A,3748.7379,N,12217.7417,W,1.97,111.59,281211,,,D*75
$GPRMC,221144.000,A,3748.7376,N,12217.7407,W,2.29,104.51,281211,,,D*76
$GPRMC,221145.000,A,3748.7372,N,12217.7397,W,1.88,112.42,281211,,,D*70
$GPRMC,221146.000,A,3748.7368,N,12217.7390,W,1.88,107.87,281211,,,D*72
$GPRMC,221147.000,A,3748.7360,N,12217.7382,W,2.58,110.22,281211,,,D*7F
$GPRMC,221148.000,A,3748.7354,N,12217.7376,W,2.27,116.55,281211,,,D*72
$GPRMC,221149.000,A,3748.7350,N,12217.7373,W,1.69,116.85,281211,,,D*76
$GPRMC,221150.000,A,3748.7345,N,12217.7367,W,1.98,119.91,281211,,,D*7B
$GPRMC,221151.000,A,3748.7339,N,12217.7358,W,1.31,119.72,281211,,,D*73
$GPRMC,221152.000,A,3748.7336,N,12217.7348,W,1.54,110.65,281211,,,D*72
$GPRMC,221153.000,A,3748.7334,N,12217.7338,W,1.67,104.98,281211,,,D*71
$GPRMC,221154.000,A,3748.7331,N,12217.7329,W,2.47,119.91,281211,,,D*77
$GPRMC,221155.000,A,3748.7327,N,12217.7319,W,2.92,109.80,281211,,,D*7B
$GPRMC,221156.000,A,3748.7323,N,12217.7310,W,2.30,110.73,281211,,,D*79
$GPRMC,221157.000,A,3748.7318,N,12217.7299,W,2.85,113.02,281211,,,D*7B
$GPRMC,221158.000,A,3748.7314,N,12217.7289,W,2.70,117.38,281211,,,D*7E
$GPRMC,221159.000,A,3748.7311,N,12217.7280,W,2.52,116.24,281211,,,D*7F
$GPRMC,221200.000,A,3748.7305,N,12217.7269,W,3.01,121.40,281211,,,D*73
$GPRMC,221201.000,A,3748.7300,N,12217.7259,W,3.11,118.88,281211,,,D*7B
$GPRMC,221202.000,A,3748.7294,N,12217.7250,W,3.02,122.57,281211,,,D*74
$GPRMC,221203.000,A,3748.7288,N,12217.7239,W,2.85,119.59,281211,,,D*7F
$GPRMC,221204.000,A,3748.7283,N,12217.7230,W,2.75,122.63,281211,,,D*74
$GPRMC,221205.000,A,3748.7279,N,12217.7222,W,2.80,115.66,281211,,,D*78
$GPRMC,221206.000,A,3748.7276,N,12217.7213,W,2.53,118.40,281211,,,D*71
$GPRMC,221207.000,A,3748.7272,N,12217.7205,W,2.72,121.64,281211,,,D*7C
$GPRMC,221208.000,A,3748.7269,N,12217.7196,W,2.73,121.36,281211,,,D*76
$GPRMC,221209.000,A,3748.7266,N,12217.7188,W,2.61,115.45,281211,,,D*77
$GPRMC,221210.000,A,3748.7263,N,12217.7178,W,2.70,107.61,281211,,,D*70
$GPRMC,221211.000,A,3748.7262,N,12217.7171,W,2.59,83.56,281211,,,D*4B
$GPRMC,221212.000,A,3748.7265,N,12217.7164,W,2.43,55.33,281211,,,D*48
$GPRMC,221213.000,A,3748.7271,N,12217.7158,W,2.62,41.17,281211,,,D*43
$GPRMC,221214.000,A,3748.7278,N,12217.7153,W,2.50,32.58,281211,,,D*48
$GPRMC,221215.000,A,3748.7285,N,12217.7149,W,2.56,25.71,281211,,,D*4B
$GPRMC,221216.000,A,3748.7292,N,12217.7146,W,2.18,18.06,281211,,,D*45
$GPRMC,221217.000,A,3748.7296,N,12217.7144,W,2.27,22.35,281211,,,D*47
$GPRMC,221218.000,A,3748.7301,N,12217.7141,W,2.20,18.99,281211,,,D*4A
$GPRMC,221219.000,A,3748.7308,N,12217.7136,W,2.55,30.20,281211,,,D*48
$GPRMC,221220.000,A,3748.7315,N,12217.7130,W,2.46,23.75,281211,,,D*48
$GPRMC,221221.000,A,3748.7324,N,12217.7124,W,2.39,17.89,281211,,,D*42
$GPRMC,221222.000,A,3748.7333,N,12217.7118,W,2.62,23.58,281211,,,D*4D
$GPRMC,221223.000,A,3748.7341,N,12217.7113,W,2.53,22.68,281211,,,D*42
$GPRMC,221224.000,A,3748.7350,N,12217.7106,W,2.36,26.53,281211,,,D*4E
$GPRMC,221225.000,A,3748.7356,N,12217.7098,W,2.77,28.09,281211,,,D*4B
$GPRMC,221226.000,A,3748.7363,N,12217.7092,W,2.38,25.39,281211,,,D*41
$GPRMC,221227.000,A,3748.7371,N,12217.7087,W,2.45,24.20,281211,,,D*44
$GPRMC,221228.000,A,3748.7378,N,12217.7082,W,2.72,30.31,281211,,,D*46
$GPRMC,221229.000,A,3748.7384,N,12217.7076,W,2.25,33.14,281211,,,D*49
$GPRMC,221230.000,A,3748.7392,N,12217.7069,W,2.76,32.56,281211,,,A*4C
$GPRMC,221231.000,A,3748.7400,N,12217.7063,W,2.84,30.27,281211,,,A*42
$GPRMC,221232.000,A,3748.7408,N,12217.7057,W,2.55,27.71,281211,,,A*47
$GPRMC,221233.000,A,3748.7415,N,12217.7052,W,2.59,26.98,281211,,,A*45
$GPRMC,221234.000,A,3748.7421,N,12217.7046,W,2.13,22.45,281211,,,A*4A
$GPRMC,221235.000,A,3748.7426,N,12217.7042,W,2.51,23.53,281211,,,A*48
$GPRMC,221236.000,A,3748.7432,N,12217.7037,W,2.00,20.20,281211,,,A*4F
$GPRMC,221237.000,A,3748.7437,N,12217.7033,W,2.26,21.51,281211,,,A*4C
$GPRMC,221238.000,A,3748.7447,N,12217.7026,W,3.05,18.84,281211,,,A*42
$GPRMC,221239.000,A,3748.7456,N,12217.7015,W,2.64,18.54,281211,,,A*48
$GPRMC,221240.000,A,3748.7464,N,12217.7010,W,1.87,28.85,281211,,,A*43
$GPRMC,221241.000,A,3748.7470,N,12217.7003,W,1.94,21.37,281211,,,A*47
$GPRMC,221242.000,A,3748.7475,N,12217.7000,W,1.83,18.28,281211,,,A*40
$GPRMC,221243.000,A,3748.7481,N,12217.6995,W,1.80,14.12,281211,,,A*48
$GPRMC,221244.000,A,3748.7487,N,12217.6991,W,1.72,13.55,281211,,,A*44
$GPRMC,221245.000,A,3748.7492,N,12217.6987,W,1.85,28.43,281211,,,A*41
$GPRMC,221246.000,A,3748.7496,N,12217.6977,W,1.95,55.92,281211,,,A*4E
$GPRMC,221247.000,A,3748.7501,N,12217.6968,W,2.11,46.18,281211,,,A*41
$GPRMC,221248.000,A,3748.7508,N,12217.6962,W,2.50,35.63,281211,,,A*40
$GPRMC,221249.000,A,3748.7515,N,12217.6956,W,2.41,26.99,281211,,,A*4D
$GPRMC,221250.000,A,3748.7524,N,12217.6950,W,2.41,28.93,281211,,,A*45
$GPRMC,221251.000,A,3748.7533,N,12217.6945,W,2.18,23.99,281211,,,A*4B
$GPRMC,221252.000,A,3748.7541,N,12217.6939,W,2.52,21.14,281211,,,A*4F
$GPRMC,221253.000,A,3748.7550,N,12217.6934,W,2.64,22.66,281211,,,A*40
$GPRMC,221254.000,A,3748.7555,N,12217.6928,W,2.56,36.50,281211,,,A*4E
$GPRMC,221255.000,A,3748.7563,N,12217.6920,W,2.71,38.75,281211,,,A*4E
$GPRMC,221256.000,A,3748.7568,N,12217.6912,W,2.56,40.89,281211,,,A*4E
$GPRMC,221257.000,A,3748.7577,N,12217.6904,W,2.86,39.86,281211,,,A*4A
$GPRMC,221258.000,A,3748.7584,N,12217.6896,W,2.85,29.01,281211,,,A*4E
$GPRMC,221259.000,A,3748.7590,N,12217.6892,W,2.49,28.39,281211,,,A*44
$GPRMC,221300.000,A,3748.7596,N,12217.6887,W,2.39,29.64,281211,,,A*45
$GPRMC,221301.000,A,3748.7601,N,12217.6883,W,2.39,29.37,281211,,,A*4B
$GPRMC,221302.000,A,3748.7607,N,12217.6878,W,2.49,27.50,281211,,,A*42
$GPRMC,221303.000,A,3748.7614,N,12217.6873,W,2.50,25.63,281211,,,A*40
$GPRMC,221304.000,A,3748.7622,N,12217.6867,W,2.65,19.81,281211,,,A*42
$GPRMC,221305.000,A,3748.7629,N,12217.6864,W,2.73,11.73,281211,,,A*49
$GPRMC,221306.000,A,3748.7637,N,12217.6860,W,2.54,10.33,281211,,,A*41
$GPRMC,221307.000,A,3748.7644,N,12217.6857,W,2.45,10.97,281211,,,A*4E
$GPRMC,221308.000,A,3748.7651,N,12217.6854,W,2.17,11.70,281211,,,A*49
$GPRMC,221309.000,A,3748.7660,N,12217.6850,W,2.21,21.73,281211,,,A*4B
$GPRMC,221310.000,A,3748.7668,N,12217.6845,W,2.14,21.14,281211,,,A*48
$GPRMC,221311.000,A,3748.7677,N,12217.6838,W,2.66,29.99,281211,,,A*45
$GPRMC,221312.000,A,3748.7684,N,12217.6832,W,2.51,27.06,281211,,,A*4C
$GPRMC,221313.000,A,3748.7690,N,12217.6823,W,2.54,27.02,281211,,,A*49
$GPRMC,221314.000,A,3748.7695,N,12217.6819,W,2.14,27.08,281211,,,A*4C
$GPRMC,221315.000,A,3748.7702,N,12217.6814,W,2.53,22.19,281211,,,A*49
$GPRMC,221316.000,A,3748.7709,N,12217.6809,W,2.80,22.25,281211,,,A*4C
$GPRMC,221317.000,A,3748.7719,N,12217.6802,W,2.78,25.49,281211,,,A*4D
$GPRMC,221318.000,A,3748.7728,N,12217.6795,W,2.76,23.86,281211,,,A*4A
$GPRMC,221319.000,A,3748.7737,N,12217.6788,W,2.87,26.58,281211,,,A*41
$GPRMC,221320.000,A,3748.7747,N,12217.6782,W,2.72,18.88,281211,,,A*4C
$GPRMC,221321.000,A,3748.7756,N,12217.6778,W,2.70,14.45,281211,,,A*47
$GPRMC,221322.000,A,3748.7765,N,12217.6772,W,2.57,20.22,281211,,,A*4D
$GPRMC,221323.000,A,3748.7773,N,12217.6768,W,2.77,26.49,281211,,,A*49
$GPRMC,221324.000,A,3748.7779,N,12217.6763,W,2.84,18.40,281211,,,A*47
$GPRMC,221325.000,A,3748.7785,N,12217.6759,W,2.63,20.47,281211,,,A*49
$GPRMC,221326.000,A,3748.7791,N,12217.6754,W,2.51,20.09,281211,,,A*49
$GPRMC,221327.000,A,3748.7798,N,12217.6747,W,2.71,28.07,281211,,,A*47
$GPRMC,221328.000,A,3748.7804,N,12217.6740,W,2.53,27.03,281211,,,A*4E
$GPRMC,221329.000,A,3748.7810,N,12217.6733,W,2.56,25.03,281211,,,A*49
$GPRMC,221330.000,A,3748.7816,N,12217.6726,W,2.38,30.86,281211,,,A*42
$GPRMC,221331.000,A,3748.7823,N,12217.6719,W,2.71,24.54,281211,,,A*4E
$GPRMC,221332.000,A,3748.7828,N,12217.6714,W,2.13,25.04,281211,,,A*4B
$GPRMC,221333.000,A,3748.7834,N,12217.6709,W,2.32,17.57,281211,,,A*4F
$GPRMC,221334.000,A,3748.7841,N,12217.6704,W,2.68,20.11,281211,,,A*4E
$GPRMC,221335.000,A,3748.7845,N,12217.6701,W,2.06,21.20,281211,,,A*45
$GPRMC,221336.000,A,3748.7851,N,12217.6696,W,2.39,23.90,281211,,,A*49
$GPRMC,221337.000,A,3748.7857,N,12217.6690,W,2.17,24.18,281211,,,A*43
$GPRMC,221338.000,A,3748.7864,N,12217.6685,W,2.12,21.86,281211,,,A*4F
$GPRMC,221339.000,A,3748.7872,N,12217.6679,W,2.04,19.03,281211,,,A*4B
$GPRMC,221340.000,A,3748.7875,N,12217.6673,W,1.64,24.62,281211,,,A*44
$GPRMC,221341.000,A,3748.7880,N,12217.6668,W,2.01,15.44,281211,,,A*43
$GPRMC,221342.000,A,3748.7887,N,12217.6662,W,2.38,14.22,281211,,,A*46
$GPRMC,221343.000,A,3748.7894,N,12217.6657,W,2.19,17.35,281211,,,A*45
$GPRMC,221344.000,A,3748.7900,N,12217.6653,W,2.09,13.04,281211,,,A*4D
$GPRMC,221345.000,A,3748.7907,N,12217.6649,W,2.16,17.64,281211,,,A*4C
$GPRMC,221346.000,A,3748.7915,N,12217.6644,W,2.44,12.98,281211,,,A*40
$GPRMC,221347.000,A,3748.7922,N,12217.6639,W,2.50,22.77,281211,,,A*48
$GPRMC,221348.000,A,3748.7926,N,12217.6634,W,1.93,35.85,281211,,,A*49
$GPRMC,221349.000,A,3748.7932,N,12217.6628,W,2.39,28.38,281211,,,A*49
$GPRMC,221350.000,A,3748.7939,N,12217.6622,W,2.39,28.10,281211,,,A*4A
$GPRMC,221351.000,A,3748.7945,N,12217.6615,W,2.68,22.61,281211,,,A*4C
$GPRMC,221352.000,A,3748.7952,N,12217.6612,W,2.53,24.30,281211,,,A*44
$GPRMC,221353.000,A,3748.7959,N,12217.6607,W,2.45,16.65,281211,,,A*4C
$GPRMC,221354.000,A,3748.7963,N,12217.6599,W,2.82,30.21,281211,,,A*49
$GPRMC,221355.000,A,3748.7973,N,12217.6596,W,2.45,16.33,281211,,,A*4A
$GPRMC,221356.000,A,3748.7982,N,12217.6591,W,2.33,5.62,281211,,,A*77
$GPRMC,221357.000,A,3748.7989,N,12217.6585,W,2.80,24.44,281211,,,A*47
$GPRMC,221358.000,A,3748.7995,N,12217.6580,W,2.45,26.05,281211,,,A*4E
$GPRMC,221359.000,A,3748.8003,N,12217.6574,W,2.99,18.34,281211,,,A*43
$GPRMC,221400.000,A,3748.8010,N,12217.6568,W,2.86,22.91,281211,,,A*4F
$GPRMC,221401.000,A,3748.8017,N,12217.6561,W,2.70,22.45,281211,,,A*40
$GPRMC,221402.000,A,3748.8024,N,12217.6555,W,2.72,26.07,281211,,,A*44
$GPRMC,221403.000,A,3748.8031,N,12217.6549,W,2.71,28.30,281211,,,A*45
$GPRMC,221404.000,A,3748.8037,N,12217.6543,W,2.47,38.11,281211,,,A*49
$GPRMC,221405.000,A,3748.8043,N,12217.6536,W,2.69,35.62,281211,,,A*4C
$GPRMC,221406.000,A,3748.8050,N,12217.6529,W,2.58,32.99,281211,,,A*42
$GPRMC,221407.000,A,3748.8057,N,12217.6521,W,2.56,34.74,281211,,,A*47
$GPRMC,221408.000,A,3748.8063,N,12217.6515,W,2.04,38.92,281211,,,A*4B
$GPRMC,221409.000,A,3748.8070,N,12217.6508,W,2.72,27.92,281211,,,A*4B
$GPRMC,221410.000,A,3748.8078,N,12217.6502,W,2.85,24.07,281211,,,A*46
$GPRMC,221411.000,A,3748.8085,N,12217.6497,W,2.82,23.91,281211,,,A*47
$GPRMC,221412.000,A,3748.8093,N,12217.6488,W,2.97,20.79,281211,,,D*49
$GPRMC,221413.000,A,3748.8099,N,12217.6484,W,2.30,21.68,281211,,,D*42
$GPRMC,221414.000,A,3748.8103,N,12217.6481,W,2.16,21.45,281211,,,D*49
$GPRMC,221415.000,A,3748.8110,N,12217.6475,W,2.19,21.89,281211,,,D*4E
$GPRMC,221416.000,A,3748.8118,N,12217.6472,W,2.62,19.73,281211,,,D*40
$GPRMC,221417.000,A,3748.8124,N,12217.6465,W,2.53,21.33,281211,,,D*45
$GPRMC,221418.000,A,3748.8134,N,12217.6459,W,2.69,29.28,281211,,,D*4F
$GPRMC,221419.000,A,3748.8144,N,12217.6454,W,2.19,28.51,281211,,,D*4C
$GPRMC,221420.000,A,3748.8152,N,12217.6447,W,2.19,17.53,281211,,,D*4D
$GPRMC,221421.000,A,3748.8159,N,12217.6445,W,2.33,13.82,281211,,,D*45
$GPRMC,221422.000,A,3748.8166,N,12217.6439,W,2.34,19.24,281211,,,D*40
$GPRMC,221423.000,A,3748.8172,N,12217.6435,W,2.01,27.18,281211,,,D*4C
$GPRMC,221424.000,A,3748.8177,N,12217.6430,W,2.02,41.78,281211,,,D*4E
$GPRMC,221425.000,A,3748.8182,N,12217.6426,W,2.19,41.49,281211,,,D*4A
$GPRMC,221426.000,A,3748.8191,N,12217.6424,W,2.42,43.10,281211,,,D*49
$GPRMC,221427.000,A,3748.8201,N,12217.6421,W,2.74,26.81,281211,,,D*49
$GPRMC,221428.000,A,3748.8208,N,12217.6417,W,2.55,35.46,281211,,,D*40
$GPRMC,221429.000,A,3748.8214,N,12217.6412,W,2.50,27.65,281211,,,A*4B
$GPRMC,221430.000,A,3748.8220,N,12217.6407,W,2.59,30.36,281211,,,A*49
$GPRMC,221431.000,A,3748.8227,N,12217.6401,W,2.69,27.43,281211,,,A*4E
$GPRMC,221432.000,A,3748.8235,N,12217.6395,W,2.93,31.84,281211,,,A*4D
$GPRMC,221433.000,A,3748.8243,N,12217.6388,W,3.12,29.63,281211,,,A*49
$GPRMC,221434.000,A,3748.8250,N,12217.6381,W,2.85,35.68,281211,,,A*4C
$GPRMC,221435.000,A,3748.8257,N,12217.6375,W,2.83,29.89,281211,,,A*45
$GPRMC,221436.000,A,3748.8264,N,12217.6368,W,3.01,35.78,281211,,,A*42
$GPRMC,221437.000,A,3748.8272,N,12217.6362,W,2.62,27.67,281211,,,A*47
$GPRMC,221438.000,A,3748.8279,N,12217.6356,W,2.78,34.86,281211,,,A*42
$GPRMC,221439.000,A,3748.8287,N,12217.6351,W,2.38,27.58,281211,,,A*40
$GPRMC,221440.000,A,3748.8293,N,12217.6346,W,2.33,28.36,281211,,,A*41
$GPRMC,221441.000,A,3748.8299,N,12217.6342,W,2.66,23.26,281211,,,A*44
$GPRMC,221442.000,A,3748.8305,N,12217.6337,W,2.51,25.95,281211,,,A*4B
$GPRMC,221443.000,A,3748.8311,N,12217.6332,W,2.75,24.83,281211,,,A*4A
$GPRMC,221444.000,A,3748.8318,N,12217.6327,W,2.77,20.90,281211,,,A*44
$GPRMC,221445.000,A,3748.8325,N,12217.6323,W,2.50,21.59,281211,,,A*4E
$GPRMC,221446.000,A,3748.8330,N,12217.6318,W,2.52,29.56,281211,,,A*44
$GPRMC,221447.000,A,3748.8336,N,12217.6311,W,2.52,27.59,281211,,,A*4B
$GPRMC,221448.000,A,3748.8342,N,12217.6306,W,2.71,28.45,281211,,,A*42
$GPRMC,221449.000,A,3748.8349,N,12217.6300,W,2.65,26.26,281211,,,A*40
$GPRMC,221450.000,A,3748.8356,N,12217.6294,W,2.99,33.58,281211,,,A*44
$GPRMC,221451.000,A,3748.8363,N,12217.6288,W,2.74,28.26,281211,,,A*4E
$GPRMC,221452.000,A,3748.8370,N,12217.6284,W,2.51,25.89,281211,,,A*4C
$GPRMC,221453.000,A,3748.8376,N,12217.6279,W,2.56,25.72,281211,,,A*4A
$GPRMC,221454.000,A,3748.8382,N,12217.6274,W,2.47,34.97,281211,,,A*40
$GPRMC,221455.000,A,3748.8389,N,12217.6266,W,2.04,51.53,281211,,,A*45
$GPRMC,221456.000,A,3748.8392,N,12217.6258,W,2.20,98.26,281211,,,A*40
$GPRMC,221457.000,A,3748.8390,N,12217.6246,W,2.30,120.74,281211,,,A*78
$GPRMC,221458.000,A,3748.8386,N,12217.6238,W,2.68,127.08,281211,,,A*78
$GPRMC,221459.000,A,3748.8381,N,12217.6228,W,2.70,123.44,281211,,,A*7A
$GPRMC,221500.000,A,3748.8377,N,12217.6219,W,2.68,122.23,281211,,,A*75
$GPRMC,221501.000,A,3748.8374,N,12217.6211,W,2.64,121.45,281211,,,A*70
$GPRMC,221502.000,A,3748.8369,N,12217.6201,W,2.72,111.06,281211,,,A*7D
$GPRMC,221503.000,A,3748.8366,N,12217.6191,W,2.86,109.11,281211,,,A*7D
$GPRMC,221504.000,A,3748.8364,N,12217.6181,W,2.78,106.35,281211,,,A*71
$GPRMC,221505.000,A,3748.8362,N,12217.6171,W,2.93,120.45,281211,,,A*7F
$GPRMC,221506.000,A,3748.8357,N,12217.6163,W,2.96,124.15,281211,,,A*7D
$GPRMC,221507.000,A,3748.8352,N,12217.6155,W,3.15,131.19,281211,,,A*7E
$GPRMC,221508.000,A,3748.8347,N,12217.6146,W,2.96,122.01,281211,,,A*76
$GPRMC,221509.000,A,3748.8343,N,12217.6137,W,2.72,115.94,281211,,,A*77
$GPRMC,221510.000,A,3748.8338,N,12217.6129,W,2.51,115.54,281211,,,A*71
$GPRMC,221511.000,A,3748.8333,N,12217.6121,W,2.74,123.10,281211,,,A*71
$GPRMC,221512.000,A,3748.8329,N,12217.6113,W,2.40,118.25,281211,,,A*71
$GPRMC,221513.000,A,3748.8326,N,12217.6106,W,2.11,123.36,281211,,,A*75
$GPRMC,221514.000,A,3748.8323,N,12217.6098,W,2.50,130.43,281211,,,A*74
$GPRMC,221515.000,A,3748.8315,N,12217.6091,W,2.54,134.22,281211,,,A*7E
$GPRMC,221516.000,A,3748.8308,N,12217.6082,W,2.67,121.17,281211,,,A*71
$GPRMC,221517.000,A,3748.8300,N,12217.6074,W,2.43,128.37,281211,,,A*7C
$GPRMC,221518.000,A,3748.8295,N,12217.6067,W,2.50,118.15,281211,,,A*7D
$GPRMC,221519.000,A,3748.8293,N,12217.6061,W,2.28,123.40,281211,,,A*7B
$GPRMC,221520.000,A,3748.8288,N,12217.6054,W,1.94,119.01,281211,,,A*75
$GPRMC,221521.000,A,3748.8283,N,12217.6046,W,2.35,120.42,281211,,,A*79
$GPRMC,221522.000,A,3748.8279,N,12217.6040,W,2.10,120.41,281211,,,A*7D
$GPRMC,221523.000,A,3748.8278,N,12217.6033,W,1.88,112.40,281211,,,A*7B
$GPRMC,221524.000,A,3748.8275,N,12217.6026,W,2.13,117.30,281211,,,A*76
$GPRMC,221525.000,A,3748.8273,N,12217.6018,W,2.40,112.18,281211,,,A*75
$GPRMC,221526.000,A,3748.8270,N,12217.6009,W,2.24,112.27,281211,,,A*7B
$GPRMC,221527.000,A,3748.8266,N,12217.6000,W,2.67,117.75,281211,,,A*71
$GPRMC,221528.000,A,3748.8262,N,12217.5993,W,1.95,113.41,281211,,,A*77
$GPRMC,221529.000,A,3748.8256,N,12217.5980,W,2.23,121.63,281211,,,A*7C
$GPRMC,221530.000,A,3748.8252,N,12217.5970,W,2.32,116.63,281211,,,A*7B
$GPRMC,221531.000,A,3748.8247,N,12217.5958,W,3.00,121.62,281211,,,A*71
$GPRMC,221532.000,A,3748.8243,N,12217.5948,W,2.61,114.98,281211,,,A*72
$GPRMC,221533.000,A,3748.8239,N,12217.5937,W,2.83,118.62,281211,,,A*73
$GPRMC,221534.000,A,3748.8235,N,12217.5928,W,2.65,105.74,281211,,,A*75
$GPRMC,221535.000,A,3748.8233,N,12217.5918,W,2.71,112.10,281211,,,A*70
$GPRMC,221536.000,A,3748.8229,N,12217.5913,W,2.40,114.68,281211,,,A*78
$GPRMC,221537.000,A,3748.8226,N,12217.5905,W,2.48,110.15,281211,,,A*77
$GPRMC,221538.000,A,3748.8222,N,12217.5897,W,2.65,121.94,281211,,,A*72
$GPRMC,221539.000,A,3748.8217,N,12217.5889,W,2.40,112.17,281211,,,A*76
$GPRMC,221540.000,A,3748.8214,N,12217.5882,W,2.34,117.46,281211,,,A*72
$GPRMC,221541.000,A,3748.8210,N,12217.5874,W,2.70,120.46,281211,,,A*7A
$GPRMC,221542.000,A,3748.8205,N,12217.5865,W,2.32,119.52,281211,,,A*74
$GPRMC,221543.000,A,3748.8201,N,12217.5855,W,2.63,116.70,281211,,,A*79
$GPRMC,221544.000,A,3748.8196,N,12217.5844,W,2.53,114.16,281211,,,A*72
$GPRMC,221545.000,A,3748.8190,N,12217.5833,W,2.53,119.60,281211,,,A*79
$GPRMC,221546.000,A,3748.8184,N,12217.5821,W,2.77,118.45,281211,,,A*7C
$GPRMC,221547.000,A,3748.8179,N,12217.5809,W,2.98,119.21,281211,,,A*77
$GPRMC,221548.000,A,3748.8174,N,12217.5798,W,2.42,111.29,281211,,,A*75
$GPRMC,221549.000,A,3748.8171,N,12217.5789,W,2.79,108.78,281211,,,A*75
$GPRMC,221550.000,A,3748.8167,N,12217.5780,W,2.72,111.18,281211,,,A*76
$GPRMC,221551.000,A,3748.8163,N,12217.5770,W,2.80,117.30,281211,,,A*7D
$GPRMC,221552.000,A,3748.8161,N,12217.5763,W,2.47,117.23,281211,,,A*77
$GPRMC,221553.000,A,3748.8157,N,12217.5760,W,1.91,112.68,281211,,,A*72
$GPRMC,221554.000,A,3748.8154,N,12217.5753,W,2.53,111.57,281211,,,A*74
$GPRMC,221555.000,A,3748.8153,N,12217.5744,W,2.70,117.83,281211,,,A*7A
$GPRMC,221556.000,A,3748.8148,N,12217.5734,W,2.58,125.26,281211,,,A*70
$GPRMC,221557.000,A,3748.8144,N,12217.5727,W,2.16,118.88,281211,,,A*7F
$GPRMC,221558.000,A,3748.8142,N,12217.5718,W,2.46,117.39,281211,,,A*7A
$GPRMC,221559.000,A,3748.8138,N,12217.5709,W,2.04,115.52,281211,,,A*7F
$GPRMC,221600.000,A,3748.8136,N,12217.5703,W,2.42,112.22,281211,,,A*76
$GPRMC,221601.000,A,3748.8133,N,12217.5694,W,2.51,118.77,281211,,,A*75
$GPRMC,221602.000,A,3748.8130,N,12217.5685,W,2.48,111.63,281211,,,A*71
$GPRMC,221603.000,A,3748.8125,N,12217.5678,W,2.08,113.74,281211,,,A*76
$GPRMC,221604.000,A,3748.8121,N,12217.5670,W,2.60,115.56,281211,,,A*75
$GPRMC,221605.000,A,3748.8117,N,12217.5661,W,2.89,127.68,281211,,,A*7A
$GPRMC,221606.000,A,3748.8111,N,12217.5653,W,2.24,123.07,281211,,,A*74
$GPRMC,221607.000,A,3748.8105,N,12217.5647,W,2.02,119.04,281211,,,A*7B
$GPRMC,221608.000,A,3748.8099,N,12217.5639,W,2.04,132.92,281211,,,A*79
$GPRMC,221609.000,A,3748.8092,N,12217.5633,W,1.71,140.98,281211,,,A*77
$GPRMC,221610.000,A,3748.8086,N,12217.5628,W,1.51,144.03,281211,,,A*74
$GPRMC,221611.000,A,3748.8079,N,12217.5615,W,1.98,134.80,281211,,,A*72
$GPRMC,221612.000,A,3748.8079,N,12217.5609,W,1.41,134.76,281211,,,A*71
$GPRMC,221613.000,A,3748.8080,N,12217.5606,W,1.44,131.73,281211,,,A*7C
$GPRMC,221614.000,A,3748.8076,N,12217.5601,W,1.28,113.41,281211,,,A*7E
$GPRMC,221615.000,A,3748.8073,N,12217.5589,W,1.61,121.62,281211,,,A*74
$GPRMC,221616.000,A,3748.8065,N,12217.5580,W,1.79,123.75,281211,,,A*74
$GPRMC,221617.000,A,3748.8062,N,12217.5571,W,1.79,130.10,281211,,,A*7D
$GPRMC,221618.000,A,3748.8056,N,12217.5565,W,2.09,138.02,281211,,,A*7F
$GPRMC,221619.000,A,3748.8048,N,12217.5556,W,2.43,139.91,281211,,,A*74
$GPRMC,221620.000,A,3748.8041,N,12217.5550,W,2.17,148.11,281211,,,A*7E
$GPRMC,221621.000,A,3748.8033,N,12217.5536,W,2.67,159.67,281211,,,A*7C
$GPRMC,221622.000,A,3748.8027,N,12217.5532,W,1.93,172.20,281211,,,A*7C
$GPRMC,221623.000,A,3748.8019,N,12217.5526,W,1.99,173.70,281211,,,A*7B
$GPRMC,221624.000,A,3748.8015,N,12217.5527,W,2.06,185.91,281211,,,A*72
$GPRMC,221625.000,A,3748.8010,N,12217.5533,W,1.95,203.74,281211,,,A*7C
$GPRMC,221626.000,A,3748.8004,N,12217.5532,W,2.19,194.41,281211,,,A*77
$GPRMC,221627.000,A,3748.7996,N,12217.5526,W,2.11,205.99,281211,,,A*78
$GPRMC,221628.000,A,3748.7988,N,12217.5526,W,2.13,213.05,281211,,,A*78
$GPRMC,221629.000,A,3748.7981,N,12217.5532,W,2.54,201.36,281211,,,A*75
$GPRMC,221630.000,A,3748.7974,N,12217.5536,W,2.22,205.75,281211,,,A*71
$GPRMC,221631.000,A,3748.7970,N,12217.5540,W,1.64,209.96,281211,,,A*75
$GPRMC,221632.000,A,3748.7965,N,12217.5544,W,1.50,225.92,281211,,,A*7B
$GPRMC,221633.000,A,3748.7955,N,12217.5552,W,1.25,216.34,281211,,,A*70
$GPRMC,221634.000,A,3748.7954,N,12217.5559,W,1.77,221.27,281211,,,A*7C
$GPRMC,221635.000,A,3748.7948,N,12217.5562,W,2.44,217.57,281211,,,A*79
$GPRMC,221636.000,A,3748.7941,N,12217.5563,W,1.96,204.84,281211,,,D*77
$GPRMC,221637.000,A,3748.7934,N,12217.5570,W,1.67,200.97,281211,,,D*7E
$GPRMC,221638.000,A,3748.7924,N,12217.5577,W,1.91,201.57,281211,,,D*73
$GPRMC,221639.000,A,3748.7917,N,12217.5585,W,1.82,216.30,281211,,,D*7A
$GPRMC,221640.000,A,3748.7911,N,12217.5587,W,1.76,198.46,281211,,,D*7F
$GPRMC,221641.000,A,3748.7905,N,12217.5587,W,1.74,207.58,281211,,,D*73
$GPRMC,221642.000,A,3748.7901,N,12217.5591,W,1.43,205.51,281211,,,D*7C
$GPRMC,221643.000,A,3748.7896,N,12217.5602,W,1.95,244.29,281211,,,D*7A
$GPRMC,221644.000,A,3748.7892,N,12217.5610,W,1.66,235.73,281211,,,D*7F
$GPRMC,221645.000,A,3748.7883,N,12217.5612,W,1.71,204.15,281211,,,D*78
$GPRMC,221646.000,A,3748.7877,N,12217.5616,W,1.90,206.61,281211,,,D*7A
$GPRMC,221647.000,A,3748.7870,N,12217.5616,W,1.78,221.85,281211,,,D*75
$GPRMC,221648.000,A,3748.7862,N,12217.5614,W,1.22,236.46,281211,,,D*7D
$GPRMC,221649.000,A,3748.7856,N,12217.5617,W,1.91,210.24,281211,,,D*70
$GPRMC,221650.000,A,3748.7850,N,12217.5623,W,2.02,208.29,281211,,,D*74
$GPRMC,221651.000,A,3748.7841,N,12217.5628,W,1.93,202.76,281211,,,D*75
$GPRMC,221652.000,A,3748.7835,N,12217.5630,W,1.40,202.91,281211,,,D*7B
$GPRMC,221653.000,A,3748.7834,N,12217.5638,W,1.74,224.38,281211,,,D*73
$GPRMC,221654.000,A,3748.7825,N,12217.5642,W,2.51,213.42,281211,,,D*74
$GPRMC,221655.000,A,3748.7816,N,12217.5646,W,1.97,210.59,281211,,,D*71
$GPRMC,221656.000,A,3748.7805,N,12217.5651,W,1.76,214.36,281211,,,D*74
$GPRMC,221657.000,A,3748.7797,N,12217.5655,W,1.43,232.33,281211,,,D*72
$GPRMC,221658.000,A,3748.7791,N,12217.5668,W,1.50,222.32,281211,,,D*77
$GPRMC,221659.000,A,3748.7784,N,12217.5669,W,2.17,215.29,281211,,,D*7D
$GPRMC,221700.000,A,3748.7776,N,12217.5672,W,2.01,234.05,281211,,,D*7D
$GPRMC,221701.000,A,3748.7770,N,12217.5685,W,2.35,233.02,281211,,,D*75
$GPRMC,221702.000,A,3748.7768,N,12217.5692,W,2.24,224.14,281211,,,D*78
$GPRMC,221703.000,A,3748.7763,N,12217.5703,W,2.14,223.13,281211,,,D*78
$GPRMC,221704.000,A,3748.7759,N,12217.5711,W,1.59,229.01,281211,,,D*76
$GPRMC,221705.000,A,3748.7754,N,12217.5716,W,1.63,220.39,281211,,,D*76
$GPRMC,221706.000,A,3748.7750,N,12217.5721,W,1.87,209.15,281211,,,D*7A
$GPRMC,221707.000,A,3748.7743,N,12217.5725,W,2.09,202.73,281211,,,D*73
$GPRMC,221708.000,A,3748.7737,N,12217.5730,W,2.08,211.85,281211,,,D*71
$GPRMC,221709.000,A,3748.7731,N,12217.5735,W,2.19,211.42,281211,,,D*78
$GPRMC,221710.000,A,3748.7724,N,12217.5740,W,2.41,200.10,281211,,,D*7C
$GPRMC,221711.000,A,3748.7716,N,12217.5745,W,2.45,202.90,281211,,,D*77
$GPRMC,221712.000,A,3748.7709,N,12217.5751,W,2.22,204.14,281211,,,D*74
$GPRMC,221713.000,A,3748.7701,N,12217.5757,W,2.01,209.11,281211,,,D*72
$GPRMC,221714.000,A,3748.7695,N,12217.5765,W,2.06,218.34,281211,,,D*78
$GPRMC,221715.000,A,3748.7686,N,12217.5769,W,1.92,206.17,281211,,,D*77
$GPRMC,221716.000,A,3748.7677,N,12217.5773,W,2.62,213.89,281211,,,D*7E
$GPRMC,221717.000,A,3748.7669,N,12217.5778,W,2.47,206.62,281211,,,D*7D
$GPRMC,221718.000,A,3748.7659,N,12217.5788,W,2.10,199.84,281211,,,D*71
$GPRMC,221719.000,A,3748.7649,N,12217.5798,W,1.72,187.15,281211,,,D*70
$GPRMC,221720.000,A,3748.7643,N,12217.5803,W,1.66,211.71,281211,,,D*76
$GPRMC,221721.000,A,3748.7637,N,12217.5812,W,1.37,223.25,281211,,,D*70
$GPRMC,221722.000,A,3748.7632,N,12217.5816,W,1.55,218.51,281211,,,D*7D
$GPRMC,221723.000,A,3748.7624,N,12217.5826,W,1.91,211.15,281211,,,D*79
$GPRMC,221724.000,A,3748.7619,N,12217.5830,W,1.85,208.26,281211,,,D*7A
$GPRMC,221725.000,A,3748.7614,N,12217.5832,W,1.75,189.15,281211,,,D*71
$GPRMC,221726.000,A,3748.7609,N,12217.5835,W,1.64,198.32,281211,,,D*7C
$GPRMC,221727.000,A,3748.7603,N,12217.5840,W,1.90,203.10,281211,,,D*7F
$GPRMC,221728.000,A,3748.7596,N,12217.5846,W,2.04,199.00,281211,,,D*76
$GPRMC,221729.000,A,3748.7591,N,12217.5848,W,1.70,196.15,281211,,,D*75
$GPRMC,221730.000,A,3748.7586,N,12217.5849,W,1.74,195.28,281211,,,D*73
$GPRMC,221731.000,A,3748.7580,N,12217.5855,W,1.37,199.99,281211,,,D*78
$GPRMC,221732.000,A,3748.7573,N,12217.5859,W,1.76,207.94,281211,,,D*77
$GPRMC,221733.000,A,3748.7564,N,12217.5867,W,2.05,208.22,281211,,,D*78
$GPRMC,221734.000,A,3748.7555,N,12217.5874,W,1.71,209.85,281211,,,D*73
$GPRMC,221735.000,A,3748.7550,N,12217.5879,W,0.64,226.15,281211,,,D*7B
$GPRMC,221736.000,A,3748.7545,N,12217.5879,W,0.63,224.93,281211,,,D*77
$GPRMC,221737.000,A,3748.7540,N,12217.5882,W,1.30,214.78,281211,,,D*76
$GPRMC,221738.000,A,3748.7535,N,12217.5886,W,1.71,203.01,281211,,,D*72
$GPRMC,221739.000,A,3748.7533,N,12217.5894,W,1.35,227.86,281211,,,D*7F
$GPRMC,221740.000,A,3748.7529,N,12217.5901,W,1.78,217.79,281211,,,D*7D
$GPRMC,221741.000,A,3748.7522,N,12217.5907,W,2.42,215.71,281211,,,D*71
$GPRMC,221742.000,A,3748.7513,N,12217.5913,W,2.23,208.12,281211,,,D*7B
$GPRMC,221743.000,A,3748.7505,N,12217.5918,W,2.07,212.45,281211,,,D*79
$GPRMC,221744.000,A,3748.7497,N,12217.5923,W,1.87,205.15,281211,,,D*74
$GPRMC,221745.000,A,3748.7489,N,12217.5926,W,1.74,207.62,281211,,,D*71
$GPRMC,221746.000,A,3748.7482,N,12217.5929,W,1.66,195.74,281211,,,D*7A
$GPRMC,221747.000,A,3748.7474,N,12217.5941,W,1.23,199.65,281211,,,D*71
$GPRMC,221748.000,A,3748.7470,N,12217.5947,W,1.09,224.14,281211,,,D*77
$GPRMC,221749.000,A,3748.7465,N,12217.5947,W,1.41,210.78,281211,,,D*73
$GPRMC,221750.000,A,3748.7459,N,12217.5946,W,1.14,214.90,281211,,,D*77
$GPRMC,221751.000,A,3748.7450,N,12217.5955,W,1.35,222.71,281211,,,D*74
$GPRMC,221752.000,A,3748.7444,N,12217.5964,W,1.78,228.53,281211,,,D*73
$GPRMC,221753.000,A,3748.7440,N,12217.5969,W,1.35,236.29,281211,,,D*70
$GPRMC,221754.000,A,3748.7437,N,12217.5973,W,1.24,217.62,281211,,,D*70
$GPRMC,221755.000,A,3748.7436,N,12217.5982,W,1.30,209.23,281211,,,D*71
$GPRMC,221756.000,A,3748.7431,N,12217.5985,W,1.38,204.62,281211,,,D*72
$GPRMC,221757.000,A,3748.7428,N,12217.5992,W,1.42,213.55,281211,,,D*72
$GPRMC,221758.000,A,3748.7425,N,12217.6002,W,2.04,213.69,281211,,,D*7D
$GPRMC,221759.000,A,3748.7418,N,12217.6007,W,1.80,202.79,281211,,,D*79
$GPRMC,221800.000,A,3748.7409,N,12217.6014,W,1.55,210.86,281211,,,D*73
$GPRMC,221801.000,A,3748.7403,N,12217.6019,W,1.43,202.33,281211,,,D*7F
$GPRMC,221802.000,A,3748.7399,N,12217.6023,W,1.39,218.33,281211,,,D*77
$GPRMC,221803.000,A,3748.7394,N,12217.6028,W,1.65,219.50,281211,,,D*7D
$GPRMC,221804.000,A,3748.7386,N,12217.6034,W,1.99,206.89,281211,,,D*7D
$GPRMC,221805.000,A,3748.7381,N,12217.6036,W,1.68,205.96,281211,,,D*7A
$GPRMC,221806.000,A,3748.7375,N,12217.6040,W,1.41,206.26,281211,,,D*70
$GPRMC,221807.000,A,3748.7372,N,12217.6042,W,1.39,203.37,281211,,,D*7E
$GPRMC,221808.000,A,3748.7365,N,12217.6047,W,1.41,210.11,281211,,,D*7B
$GPRMC,221809.000,A,3748.7361,N,12217.6050,W,1.87,220.78,281211,,,D*7E
$GPRMC,221810.000,A,3748.7352,N,12217.6060,W,2.24,217.58,281211,,,D*79
$GPRMC,221811.000,A,3748.7348,N,12217.6063,W,1.75,212.00,281211,,,D*7F
$GPRMC,221812.000,A,3748.7345,N,12217.6070,W,1.69,214.95,281211,,,D*74
$GPRMC,221813.000,A,3748.7340,N,12217.6072,W,1.47,198.66,281211,,,D*75
$GPRMC,221814.000,A,3748.7335,N,12217.6075,W,1.48,197.70,281211,,,D*70
$GPRMC,221815.000,A,3748.7330,N,12217.6077,W,1.34,208.37,281211,,,D*7B
$GPRMC,221816.000,A,3748.7324,N,12217.6083,W,1.49,214.98,281211,,,D*74
$GPRMC,221817.000,A,3748.7318,N,12217.6085,W,1.61,205.68,281211,,,D*79
$GPRMC,221818.000,A,3748.7310,N,12217.6091,W,1.89,204.18,281211,,,D*7B
$GPRMC,221819.000,A,3748.7303,N,12217.6093,W,1.87,197.61,281211,,,D*73
$GPRMC,221820.000,A,3748.7296,N,12217.6096,W,1.69,185.55,281211,,,D*75
$GPRMC,221821.000,A,3748.7290,N,12217.6096,W,1.32,182.92,281211,,,D*70
$GPRMC,221822.000,A,3748.7281,N,12217.6103,W,1.74,200.63,281211,,,D*7B
$GPRMC,221823.000,A,3748.7276,N,12217.6106,W,1.61,209.37,281211,,,D*7B
$GPRMC,221824.000,A,3748.7266,N,12217.6115,W,1.66,205.44,281211,,,D*70
$GPRMC,221825.000,A,3748.7260,N,12217.6117,W,1.49,198.99,281211,,,D*7F
$GPRMC,221826.000,A,3748.7256,N,12217.6120,W,1.52,193.39,281211,,,D*76
$GPRMC,221827.000,A,3748.7248,N,12217.6122,W,1.89,196.24,281211,,,D*75
$GPRMC,221828.000,A,3748.7241,N,12217.6126,W,2.10,201.75,281211,,,D*7D
$GPRMC,221829.000,A,3748.7234,N,12217.6129,W,1.95,200.12,281211,,,D*7F
$GPRMC,221830.000,A,3748.7228,N,12217.6133,W,1.63,205.27,281211,,,D*7B
$GPRMC,221831.000,A,3748.7218,N,12217.6135,W,1.65,193.00,281211,,,D*70
$GPRMC,221832.000,A,3748.7209,N,12217.6143,W,1.55,192.54,281211,,,D*71
$GPRMC,221833.000,A,3748.7202,N,12217.6146,W,2.05,211.38,281211,,,D*7A
$GPRMC,221834.000,A,3748.7195,N,12217.6153,W,1.75,198.19,281211,,,D*71
$GPRMC,221835.000,A,3748.7188,N,12217.6154,W,1.70,195.44,281211,,,D*7B
$GPRMC,221836.000,A,3748.7184,N,12217.6161,W,1.55,196.53,281211,,,D*70
$GPRMC,221837.000,A,3748.7179,N,12217.6163,W,1.30,207.17,281211,,,D*79
$GPRMC,221838.000,A,3748.7176,N,12217.6172,W,1.66,208.10,281211,,,D*72
$GPRMC,221839.000,A,3748.7172,N,12217.6180,W,1.49,212.91,281211,,,D*75
$GPRMC,221839.000,A,3748.7164,N,12217.6191,W,1.51,211.70,281211,,,D*77
$GPRMC,221840.000,A,3748.7155,N,12217.6199,W,1.55,217.94,281211,,,D*7B
$GPRMC,221841.000,A,3748.7153,N,12217.6210,W,1.49,215.29,281211,,,D*77
$GPRMC,221842.000,A,3748.7150,N,12217.6218,W,1.42,212.91,281211,,,D*70
$GPRMC,221843.000,A,3748.7145,N,12217.6224,W,1.80,210.28,281211,,,D*74
$GPRMC,221844.000,A,3748.7138,N,12217.6228,W,1.77,203.37,281211,,,D*71
$GPRMC,221845.000,A,3748.7131,N,12217.6231,W,2.09,202.10,281211,,,D*7F
$GPRMC,221846.000,A,3748.7122,N,12217.6234,W,1.83,203.92,281211,,,D*71
$GPRMC,221847.000,A,3748.7115,N,12217.6236,W,1.84,199.56,281211,,,D*79
$GPRMC,221848.000,A,3748.7109,N,12217.6238,W,1.42,197.82,281211,,,D*78
$GPRMC,221849.000,A,3748.7104,N,12217.6241,W,1.14,224.11,281211,,,D*78
$GPRMC,221850.000,A,3748.7098,N,12217.6245,W,1.18,208.08,281211,,,D*7A
$GPRMC,221851.000,A,3748.7094,N,12217.6248,W,1.51,203.36,281211,,,D*71
$GPRMC,221852.000,A,3748.7083,N,12217.6251,W,1.96,199.49,281211,,,D*7F
$GPRMC,221853.000,A,3748.7080,N,12217.6261,W,1.52,216.13,281211,,,D*7D
$GPRMC,221854.000,A,3748.7077,N,12217.6267,W,1.45,227.22,281211,,,D*72
$GPRMC,221855.000,A,3748.7074,N,12217.6276,W,1.18,227.90,281211,,,D*71
$GPRMC,221856.000,A,3748.7068,N,12217.6282,W,1.50,211.40,281211,,,D*70
$GPRMC,221857.000,A,3748.7061,N,12217.6284,W,1.68,200.00,281211,,,D*71
$GPRMC,221858.000,A,3748.7056,N,12217.6288,W,1.83,218.64,281211,,,D*78
$GPRMC,221859.000,A,3748.7049,N,12217.6292,W,2.22,221.28,281211,,,D*76
$GPRMC,221900.000,A,3748.7044,N,12217.6301,W,2.08,213.91,281211,,,D*76
$GPRMC,221901.000,A,3748.7039,N,12217.6311,W,1.90,208.20,281211,,,D*7E
$GPRMC,221902.000,A,3748.7033,N,12217.6318,W,1.50,200.02,281211,,,D*7A
$GPRMC,221903.000,A,3748.7028,N,12217.6321,W,1.26,207.00,281211,,,D*7F
$GPRMC,221904.000,A,3748.7018,N,12217.6328,W,2.11,213.21,281211,,,D*73
$GPRMC,221905.000,A,3748.7011,N,12217.6333,W,2.44,208.38,281211,,,D*73
$GPRMC,221906.000,A,3748.7004,N,12217.6339,W,1.90,213.41,281211,,,D*70
$GPRMC,221907.000,A,3748.6999,N,12217.6345,W,1.57,217.70,281211,,,D*7B
$GPRMC,221908.000,A,3748.6987,N,12217.6353,W,1.95,206.12,281211,,,D*76
$GPRMC,221909.000,A,3748.6980,N,12217.6356,W,1.90,210.65,281211,,,D*77
$GPRMC,221910.000,A,3748.6975,N,12217.6359,W,1.64,210.73,281211,,,D*76
$GPRMC,221911.000,A,3748.6968,N,12217.6363,W,2.05,203.94,281211,,,D*7D
$GPRMC,221912.000,A,3748.6963,N,12217.6367,W,1.68,223.29,281211,,,D*7D
$GPRMC,221913.000,A,3748.6958,N,12217.6371,W,1.58,216.64,281211,,,D*7F
$GPRMC,221914.000,A,3748.6953,N,12217.6373,W,1.49,209.72,281211,,,D*78
$GPRMC,221915.000,A,3748.6947,N,12217.6376,W,1.71,214.19,281211,,,D*73
$GPRMC,221916.000,A,3748.6942,N,12217.6379,W,1.71,213.23,281211,,,D*74
$GPRMC,221917.000,A,3748.6936,N,12217.6381,W,1.62,200.95,281211,,,D*7C
$GPRMC,221918.000,A,3748.6929,N,12217.6382,W,1.78,194.89,281211,,,D*76
$GPRMC,221919.000,A,3748.6922,N,12217.6384,W,1.70,186.44,281211,,,D*70
$GPRMC,221920.000,A,3748.6915,N,12217.6384,W,1.99,184.91,281211,,,D*73
$GPRMC,221921.000,A,3748.6908,N,12217.6385,W,1.99,190.93,281211,,,D*78
$GPRMC,221922.000,A,3748.6903,N,12217.6387,W,1.86,190.37,281211,,,D*72
$GPRMC,221923.000,A,3748.6896,N,12217.6389,W,1.79,190.43,281211,,,D*73
$GPRMC,221924.000,A,3748.6889,N,12217.6390,W,1.82,185.32,281211,,,D*74
$GPRMC,221925.000,A,3748.6884,N,12217.6392,W,1.67,194.55,281211,,,D*70
$GPRMC,221926.000,A,3748.6878,N,12217.6395,W,1.51,207.46,281211,,,D*79
$GPRMC,221927.000,A,3748.6875,N,12217.6409,W,1.83,219.47,281211,,,D*76
$GPRMC,221928.000,A,3748.6869,N,12217.6415,W,1.89,224.46,281211,,,D*7C
$GPRMC,221929.000,A,3748.6861,N,12217.6422,W,2.01,210.36,281211,,,D*72
$GPRMC,221930.000,A,3748.6855,N,12217.6435,W,2.22,223.13,281211,,,D*7D
$GPRMC,221931.000,A,3748.6848,N,12217.6442,W,1.48,213.89,281211,,,D*7F
$GPRMC,221932.000,A,3748.6843,N,12217.6446,W,1.72,212.97,281211,,,D*74
$GPRMC,221933.000,A,3748.6837,N,12217.6451,W,1.83,209.70,281211,,,D*7D
$GPRMC,221934.000,A,3748.6829,N,12217.6452,W,1.71,205.45,281211,,,D*71
$GPRMC,221935.000,A,3748.6824,N,12217.6454,W,1.43,214.27,281211,,,D*7E
$GPRMC,221936.000,A,3748.6814,N,12217.6453,W,1.70,204.41,281211,,,D*78
$GPRMC,221937.000,A,3748.6806,N,12217.6455,W,1.81,213.21,281211,,,D*72
$GPRMC,221938.000,A,3748.6802,N,12217.6461,W,2.03,217.70,281211,,,D*77
$GPRMC,221939.000,A,3748.6792,N,12217.6463,W,1.51,200.15,281211,,,D*73
$GPRMC,221940.000,A,3748.6783,N,12217.6467,W,1.13,190.03,281211,,,D*72
$GPRMC,221941.000,A,3748.6774,N,12217.6466,W,0.96,200.96,281211,,,D*70
$GPRMC,221942.000,A,3748.6763,N,12217.6472,W,1.70,226.71,281211,,,D*74
$GPRMC,221943.000,A,3748.6752,N,12217.6474,W,1.40,232.37,281211,,,D*75
$GPRMC,221944.000,A,3748.6749,N,12217.6493,W,1.47,250.23,281211,,,D*77
$GPRMC,221945.000,A,3748.6746,N,12217.6511,W,1.15,237.09,281211,,,D*7C
$GPRMC,221946.000,A,3748.6742,N,12217.6526,W,1.48,224.52,281211,,,D*7B
$GPRMC,221947.000,A,3748.6742,N,12217.6538,W,1.60,229.66,281211,,,D*75
$GPRMC,221948.000,A,3748.6739,N,12217.6541,W,1.52,215.48,281211,,,D*7A
$GPRMC,221949.000,A,3748.6735,N,12217.6543,W,1.83,204.44,281211,,,D*75
$GPRMC,221950.000,A,3748.6728,N,12217.6546,W,1.40,199.01,281211,,,D*7D
$GPRMC,221951.000,A,3748.6724,N,12217.6548,W,1.39,208.42,281211,,,D*7C
$GPRMC,221952.000,A,3748.6720,N,12217.6551,W,1.30,212.98,281211,,,D*76
$GPRMC,221953.000,A,3748.6716,N,12217.6553,W,1.30,211.46,281211,,,D*70
$GPRMC,221954.000,A,3748.6711,N,12217.6556,W,1.78,204.13,281211,,,D*7D
$GPRMC,221955.000,A,3748.6708,N,12217.6558,W,1.37,202.32,281211,,,D*74
$GPRMC,221956.000,A,3748.6703,N,12217.6561,W,1.31,195.04,281211,,,D*78
$GPRMC,221957.000,A,3748.6698,N,12217.6564,W,1.49,195.55,281211,,,D*74
$GPRMC,221958.000,A,3748.6689,N,12217.6566,W,1.83,204.88,281211,,,D*74
$GPRMC,221959.000,A,3748.6682,N,12217.6569,W,2.14,215.02,281211,,,D*7E
$GPRMC,222000.000,A,3748.6676,N,12217.6574,W,1.97,217.32,281211,,,D*76
$GPRMC,222001.000,A,3748.6670,N,12217.6578,W,2.11,212.78,281211,,,D*7B
$GPRMC,222002.000,A,3748.6664,N,12217.6583,W,2.35,211.20,281211,,,D*71
$GPRMC,222003.000,A,3748.6657,N,12217.6586,W,2.10,205.34,281211,,,D*72
$GPRMC,222004.000,A,3748.6650,N,12217.6592,W,2.28,211.72,281211,,,D*7B
$GPRMC,222005.000,A,3748.6644,N,12217.6596,W,2.23,205.97,281211,,,D*7E
$GPRMC,222006.000,A,3748.6637,N,12217.6601,W,2.12,207.38,281211,,,D*71
$GPRMC,222007.000,A,3748.6631,N,12217.6605,W,1.77,202.30,281211,,,D*7F
$GPRMC,222008.000,A,3748.6625,N,12217.6608,W,1.36,196.57,281211,,,D*72
$GPRMC,222009.000,A,3748.6620,N,12217.6611,W,1.63,205.88,281211,,,D*75
$GPRMC,222010.000,A,3748.6614,N,12217.6615,W,1.69,204.92,281211,,,D*7E
$GPRMC,222011.000,A,3748.6608,N,12217.6618,W,1.92,189.61,281211,,,D*71
$GPRMC,222012.000,A,3748.6602,N,12217.6621,W,1.61,201.03,281211,,,D*79
$GPRMC,222013.000,A,3748.6595,N,12217.6625,W,2.19,198.37,281211,,,D*79
$GPRMC,222014.000,A,3748.6588,N,12217.6630,W,1.81,214.27,281211,,,D*72
$GPRMC,222015.000,A,3748.6583,N,12217.6635,W,1.33,194.57,281211,,,D*78
$GPRMC,222016.000,A,3748.6577,N,12217.6638,W,1.34,187.21,281211,,,D*79
$GPRMC,222017.000,A,3748.6572,N,12217.6641,W,1.48,191.42,281211,,,D*7A
$GPRMC,222018.000,A,3748.6566,N,12217.6644,W,1.49,183.39,281211,,,D*7B
$GPRMC,222019.000,A,3748.6561,N,12217.6646,W,1.50,184.97,281211,,,D*74
$GPRMC,222020.000,A,3748.6553,N,12217.6647,W,1.56,176.74,281211,,,D*78
$GPRMC,222021.000,A,3748.6547,N,12217.6644,W,1.34,193.45,281211,,,D*72
$GPRMC,222022.000,A,3748.6532,N,12217.6649,W,1.07,198.35,281211,,,D*72
$GPRMC,222023.000,A,3748.6524,N,12217.6654,W,1.41,259.11,281211,,,D*72
$GPRMC,222024.000,A,3748.6520,N,12217.6659,W,1.34,265.55,281211,,,D*71
$GPRMC,222025.000,A,3748.6515,N,12217.6668,W,1.36,252.63,281211,,,D*77
$GPRMC,222026.000,A,3748.6503,N,12217.6668,W,1.72,238.15,281211,,,D*7E
$GPRMC,222027.000,A,3748.6494,N,12217.6675,W,2.39,238.02,281211,,,D*76
$GPRMC,222028.000,A,3748.6483,N,12217.6682,W,1.61,225.58,281211,,,D*7A
$GPRMC,222029.000,A,3748.6476,N,12217.6686,W,1.82,227.27,281211,,,D*72
$GPRMC,222030.000,A,3748.6464,N,12217.6692,W,1.95,206.40,281211,,,D*78
$GPRMC,222031.000,A,3748.6455,N,12217.6700,W,1.33,222.29,281211,,,D*74
$GPRMC,222032.000,A,3748.6450,N,12217.6711,W,2.36,220.90,281211,,,D*74
$GPRMC,222033.000,A,3748.6444,N,12217.6721,W,2.07,208.71,281211,,,D*74
$GPRMC,222034.000,A,3748.6438,N,12217.6728,W,1.66,202.66,281211,,,D*79
$GPRMC,222035.000,A,3748.6435,N,12217.6738,W,1.30,211.07,281211,,,D*72
$GPRMC,222036.000,A,3748.6429,N,12217.6745,W,1.36,207.92,281211,,,D*7B
$GPRMC,222037.000,A,3748.6423,N,12217.6752,W,1.63,204.19,281211,,,D*76
$GPRMC,222038.000,A,3748.6418,N,12217.6756,W,1.52,203.73,281211,,,D*7C
$GPRMC,222039.000,A,3748.6413,N,12217.6761,W,1.16,208.74,281211,,,D*7E
$GPRMC,222040.000,A,3748.6409,N,12217.6764,W,1.21,195.68,281211,,,D*70
$GPRMC,222041.000,A,3748.6404,N,12217.6768,W,1.26,187.37,281211,,,D*7E
$GPRMC,222042.000,A,3748.6399,N,12217.6770,W,1.61,186.55,281211,,,D*71
$GPRMC,222043.000,A,3748.6393,N,12217.6775,W,1.58,189.39,281211,,,D*70
$GPRMC,222044.000,A,3748.6389,N,12217.6777,W,1.45,194.89,281211,,,D*75
$GPRMC,222045.000,A,3748.6382,N,12217.6782,W,1.89,190.62,281211,,,D*74
$GPRMC,222046.000,A,3748.6376,N,12217.6785,W,1.46,187.47,281211,,,D*79
$GPRMC,222047.000,A,3748.6370,N,12217.6787,W,1.42,211.29,281211,,,D*7C
$GPRMC,222048.000,A,3748.6366,N,12217.6792,W,1.52,207.05,281211,,,D*78
$GPRMC,222049.000,A,3748.6363,N,12217.6798,W,1.17,212.95,281211,,,D*7A
$GPRMC,222050.000,A,3748.6359,N,12217.6800,W,0.90,196.30,281211,,,D*7B
$GPRMC,222051.000,A,3748.6355,N,12217.6805,W,0.78,206.27,281211,,,D*79
$GPRMC,222052.000,A,3748.6350,N,12217.6808,W,1.42,208.24,281211,,,D*77
$GPRMC,222053.000,A,3748.6344,N,12217.6815,W,1.85,215.44,281211,,,D*7E
$GPRMC,222054.000,A,3748.6337,N,12217.6817,W,1.95,201.01,281211,,,D*7A
$GPRMC,222055.000,A,3748.6332,N,12217.6823,W,1.40,213.58,281211,,,D*7E
$GPRMC,222056.000,A,3748.6327,N,12217.6828,W,1.42,202.05,281211,,,D*78
$GPRMC,222057.000,A,3748.6320,N,12217.6831,W,1.40,204.30,281211,,,D*74
$GPRMC,222058.000,A,3748.6315,N,12217.6836,W,1.55,225.32,281211,,,D*7F
$GPRMC,222059.000,A,3748.6308,N,12217.6839,W,1.70,197.58,281211,,,D*7C
$GPRMC,222100.000,A,3748.6302,N,12217.6843,W,1.25,199.69,281211,,,D*7A
$GPRMC,222101.000,A,3748.6300,N,12217.6846,W,1.37,208.23,281211,,,D*7A
$GPRMC,222102.000,A,3748.6298,N,12217.6850,W,1.62,205.29,281211,,,D*79
$GPRMC,222103.000,A,3748.6292,N,12217.6850,W,1.99,214.18,281211,,,D*74
$GPRMC,222104.000,A,3748.6284,N,12217.6856,W,2.21,231.81,281211,,,D*75
$GPRMC,222105.000,A,3748.6277,N,12217.6864,W,2.16,233.33,281211,,,D*76
$GPRMC,222106.000,A,3748.6270,N,12217.6873,W,2.24,219.27,281211,,,D*78
$GPRMC,222107.000,A,3748.6261,N,12217.6881,W,1.96,213.28,281211,,,D*7B
$GPRMC,222108.000,A,3748.6252,N,12217.6885,W,2.19,215.04,281211,,,D*7C
$GPRMC,222109.000,A,3748.6241,N,12217.6891,W,2.07,207.51,281211,,,D*76
$GPRMC,222110.000,A,3748.6233,N,12217.6895,W,1.85,175.18,281211,,,D*7D
$GPRMC,222111.000,A,3748.6225,N,12217.6896,W,2.07,157.69,281211,,,D*77
$GPRMC,222112.000,A,3748.6214,N,12217.6896,W,2.85,142.87,281211,,,D*78
$GPRMC,222113.000,A,3748.6207,N,12217.6892,W,2.95,140.33,281211,,,D*73
$GPRMC,222114.000,A,3748.6199,N,12217.6886,W,2.90,131.27,281211,,,D*73
$GPRMC,222115.000,A,3748.6191,N,12217.6882,W,2.32,120.73,281211,,,D*77
$GPRMC,222116.000,A,3748.6180,N,12217.6882,W,2.50,116.12,281211,,,D*72
$GPRMC,222117.000,A,3748.6170,N,12217.6875,W,2.31,111.95,281211,,,D*7B
$GPRMC,222118.000,A,3748.6135,N,12217.6886,W,2.59,112.94,281211,,,D*75
$GPRMC,222119.000,A,3748.6123,N,12217.6888,W,1.74,108.14,281211,,,D*72
$GPRMC,222120.000,A,3748.6118,N,12217.6900,W,2.48,116.38,281211,,,D*7C
$GPRMC,222121.000,A,3748.6110,N,12217.6902,W,2.50,115.31,281211,,,D*74
$GPRMC,222122.000,A,3748.6103,N,12217.6905,W,2.35,118.09,281211,,,D*77
$GPRMC,222123.000,A,3748.6095,N,12217.6904,W,2.52,121.49,281211,,,D*76
$GPRMC,222124.000,A,3748.6090,N,12217.6902,W,2.10,114.23,281211,,,D*7E
$GPRMC,222125.000,A,3748.6085,N,12217.6897,W,2.01,100.27,281211,,,D*77
$GPRMC,222126.000,A,3748.6080,N,12217.6894,W,2.16,115.74,281211,,,D*76
$GPRMC,222127.000,A,3748.6075,N,12217.6891,W,2.27,121.10,281211,,,D*7F
$GPRMC,222128.000,A,3748.6067,N,12217.6889,W,1.98,129.08,281211,,,D*7C
$GPRMC,222129.000,A,3748.6063,N,12217.6886,W,1.64,114.88,281211,,,D*73
$GPRMC,222130.000,A,3748.6062,N,12217.6883,W,0.77,82.90,281211,,,D*4B
$GPRMC,222131.000,A,3748.6060,N,12217.6881,W,0.62,108.94,281211,,,D*79
$GPRMC,222132.000,A,3748.6062,N,12217.6883,W,0.13,44.85,281211,,,D*45
$GPRMC,222133.000,A,3748.6064,N,12217.6885,W,0.23,295.82,281211,,,D*7E
$GPRMC,222134.000,A,3748.6065,N,12217.6885,W,0.10,269.57,281211,,,D*73
$GPRMC,222135.000,A,3748.6067,N,12217.6887,W,0.20,273.66,281211,,,D*78
$GPRMC,222136.000,A,3748.6065,N,12217.6882,W,0.17,213.43,281211,,,D*79
$GPRMC,222137.000,A,3748.6062,N,12217.6879,W,0.35,197.25,281211,,,D*74
$GPRMC,222138.000,A,3748.6059,N,12217.6875,W,0.34,190.82,281211,,,D*74
$GPRMC,222139.000,A,3748.6056,N,12217.6872,W,0.36,206.90,281211,,,D*70
$GPRMC,222140.000,A,3748.6054,N,12217.6870,W,0.07,265.58,281211,,,D*7D
$GPRMC,222141.000,A,3748.6052,N,12217.6868,W,0.07,31.18,281211,,,D*44
$GPRMC,222142.000,A,3748.6049,N,12217.6864,W,0.10,78.83,281211,,,D*48
$GPRMC,222143.000,A,3748.6047,N,12217.6860,W,0.12,60.84,281211,,,D*4F
$GPRMC,222144.000,A,3748.6045,N,12217.6856,W,0.12,69.98,281211,,,D*4B
$GPRMC,222145.000,A,3748.6047,N,12217.6853,W,0.23,79.53,281211,,,D*49
$GPRMC,222146.000,A,3748.6046,N,12217.6853,W,0.44,95.41,281211,,,D*4B
$GPRMC,222147.000,A,3748.6048,N,12217.6856,W,0.12,6.91,281211,,,D*75
$GPRMC,222148.000,A,3748.6050,N,12217.6860,W,0.09,293.44,281211,,,D*7A
$GPRMC,222149.000,A,3748.6051,N,12217.6863,W,0.14,232.86,281211,,,D*70
$GPRMC,222150.000,A,3748.6049,N,12217.6859,W,0.04,33.97,281211,,,D*4A
$GPRMC,222151.000,A,3748.6049,N,12217.6859,W,0.25,4.60,281211,,,D*74
$GPRMC,222152.000,A,3748.6050,N,12217.6860,W,0.33,21.51,281211,,,D*47
$GPRMC,222153.000,A,3748.6051,N,12217.6861,W,0.39,22.21,281211,,,D*48
$GPRMC,222154.000,A,3748.6050,N,12217.6859,W,0.19,27.13,281211,,,D*43
$GPRMC,222155.000,A,3748.6048,N,12217.6857,W,0.20,32.60,281211,,,D*4F
$GPRMC,222156.000,A,3748.6047,N,12217.6855,W,0.07,48.30,281211,,,D*4C
$GPRMC,222157.000,A,3748.6045,N,12217.6853,W,0.11,127.23,281211,,,D*74
$GPRMC,222158.000,A,3748.6043,N,12217.6851,W,0.13,54.99,281211,,,D*49
$GPRMC,222159.000,A,3748.6041,N,12217.6850,W,0.20,98.73,281211,,,D*4F
$GPRMC,222200.000,A,3748.6039,N,12217.6848,W,0.13,75.86,281211,,,D*4F
$GPRMC,222201.000,A,3748.6037,N,12217.6847,W,0.26,49.30,281211,,,D*4B
$GPRMC,222202.000,A,3748.6035,N,12217.6846,W,0.22,61.03,281211,,,D*45
$GPRMC,222203.000,A,3748.6034,N,12217.6845,W,0.24,37.40,281211,,,D*44
$GPRMC,222204.000,A,3748.6032,N,12217.6843,W,0.30,81.70,281211,,,D*48
$GPRMC,222205.000,A,3748.6030,N,12217.6840,W,1.54,96.94,281211,,,D*47
$GPRMC,222206.000,A,3748.6029,N,12217.6833,W,2.63,102.03,281211,,,D*7D
$GPRMC,222207.000,A,3748.6025,N,12217.6826,W,2.40,103.32,281211,,,D*76
$GPRMC,222208.000,A,3748.6021,N,12217.6819,W,2.66,99.58,281211,,,D*4B
$GPRMC,222209.000,A,3748.6018,N,12217.6811,W,2.49,97.35,281211,,,D*40
