$ADVER,3080,2.3
$GPRMC,212258.863,A,3748.2000,N,12217.6799,W,0.24,344.30,190515,,,A*7C
$GPRMC,212259.863,A,3748.2000,N,12217.6799,W,0.05,314.12,190515,,,A*7B
$GPRMC,212300.867,A,3748.2000,N,12217.6798,W,0.33,326.53,190515,,,A*72
$GPRMC,212301.863,A,3748.1998,N,12217.6796,W,0.17,325.64,190515,,,A*73
$GPRMC,212302.863,A,3748.1995,N,12217.6793,W,0.22,349.75,190515,,,A*74
$GPRMC,212303.863,A,3748.1991,N,12217.6789,W,0.31,123.69,190515,,,A*7B
$GPRMC,212304.863,A,3748.1960,N,12217.6816,W,0.34,134.40,190515,,,A*73
$GPRMC,212305.863,A,3748.1953,N,12217.6805,W,0.18,66.78,190515,,,A*43
$GPRMC,212307.000,A,3748.1952,N,12217.6802,W,0.06,113.09,190515,,,A*70
$GPRMC,212308.000,A,3748.1950,N,12217.6799,W,0.13,72.64,190515,,,A*49
$GPRMC,212309.000,A,3748.1949,N,12217.6796,W,0.09,40.86,190515,,,A*49
$GPRMC,212310.000,A,3748.1949,N,12217.6794,W,0.27,358.14,190515,,,A*7E
$GPRMC,212311.000,A,3748.1948,N,12217.6792,W,0.16,339.13,190515,,,A*7A
$GPRMC,212312.000,A,3748.1947,N,12217.6791,W,0.14,11.90,190515,,,A*45
$GPRMC,212313.000,A,3748.1947,N,12217.6790,W,0.14,26.61,190515,,,A*4F
$GPRMC,212314.000,A,3748.1944,N,12217.6798,W,0.03,153.46,190515,,,A*73
$GPRMC,212315.000,A,3748.1942,N,12217.6802,W,0.08,94.63,190515,,,A*4E
$GPRMC,212316.000,A,3748.1942,N,12217.6803,W,0.36,29.93,190515,,,A*48
$GPRMC,212317.000,A,3748.1942,N,12217.6804,W,0.14,28.42,190515,,,A*43
$GPRMC,212318.000,A,3748.1943,N,12217.6803,W,0.12,38.92,190515,,,A*40
$GPRMC,212319.000,A,3748.1945,N,12217.6795,W,0.20,140.88,190515,,,A*73
$GPRMC,212320.000,A,3748.1947,N,12217.6788,W,0.20,59.93,190515,,,A*44
$GPRMC,212321.000,A,3748.1949,N,12217.6781,W,0.21,16.08,190515,,,A*4A
$GPRMC,212322.000,A,3748.1950,N,12217.6772,W,0.24,62.10,190515,,,A*42
$GPRMC,212323.000,A,3748.1953,N,12217.6768,W,0.35,8.56,190515,,,A*75
$GPRMC,212324.000,A,3748.1953,N,12217.6761,W,0.27,75.66,190515,,,A*41
$GPRMC,212325.000,A,3748.1953,N,12217.6755,W,0.22,45.33,190515,,,A*41
$GPRMC,212326.000,A,3748.1952,N,12217.6749,W,0.43,99.88,190515,,,A*48
$GPRMC,212327.000,A,3748.1950,N,12217.6742,W,0.33,76.44,190515,,,A*46
$GPRMC,212328.000,A,3748.1949,N,12217.6737,W,0.23,42.55,190515,,,A*45
$GPRMC,212329.000,A,3748.1949,N,12217.6734,W,0.36,13.57,190515,,,A*45
$GPRMC,212330.000,A,3748.1948,N,12217.6730,W,0.29,68.87,190515,,,A*47
$GPRMC,212331.000,A,3748.1947,N,12217.6726,W,0.64,109.05,190515,,,A*7B
$GPRMC,212332.000,A,3748.1945,N,12217.6723,W,0.53,109.18,190515,,,A*77
$GPRMC,212333.000,A,3748.1944,N,12217.6720,W,0.31,93.28,190515,,,A*41
$GPRMC,212334.000,A,3748.1943,N,12217.6718,W,0.33,91.84,190515,,,A*4C
$GPRMC,212335.000,A,3748.1941,N,12217.6715,W,0.60,113.60,190515,,,A*75
$GPRMC,212336.000,A,3748.1940,N,12217.6713,W,0.25,79.00,190515,,,A*4B
$GPRMC,212337.000,A,3748.1939,N,12217.6713,W,0.24,11.21,190515,,,A*48
$GPRMC,212338.000,A,3748.1938,N,12217.6712,W,0.20,97.60,190515,,,A*48
$GPRMC,212339.000,A,3748.1937,N,12217.6711,W,0.17,33.68,190515,,,A*47
$GPRMC,212340.000,A,3748.1931,N,12217.6708,W,0.58,87.37,190515,,,D*4C
$GPRMC,212341.000,A,3748.1927,N,12217.6704,W,0.76,94.78,190515,,,D*43
$GPRMC,212342.000,A,3748.1923,N,12217.6700,W,0.59,109.95,190515,,,D*7B
$GPRMC,212343.000,A,3748.1920,N,12217.6698,W,0.56,94.03,190515,,,D*4C
$GPRMC,212344.000,A,3748.1917,N,12217.6695,W,0.59,100.51,190515,,,D*76
$GPRMC,212345.000,A,3748.1913,N,12217.6693,W,0.60,94.29,190515,,,D*4C
$GPRMC,212346.000,A,3748.1911,N,12217.6690,W,0.92,63.39,190515,,,D*4A
$GPRMC,212347.000,A,3748.1909,N,12217.6688,W,0.52,69.31,190515,,,D*45
$GPRMC,212348.000,A,3748.1905,N,12217.6686,W,0.99,136.38,190515,,,D*7D
$GPRMC,212349.000,A,3748.1900,N,12217.6684,W,1.04,98.55,190515,,,D*40
$GPRMC,212350.000,A,3748.1896,N,12217.6682,W,1.17,122.89,190515,,,D*73
$GPRMC,212351.000,A,3748.1891,N,12217.6679,W,1.62,129.32,190515,,,D*78
$GPRMC,212352.000,A,3748.1886,N,12217.6673,W,1.77,121.18,190515,,,D*73
$GPRMC,212353.000,A,3748.1882,N,12217.6667,W,1.77,112.85,190515,,,D*77
$GPRMC,212354.000,A,3748.1883,N,12217.6667,W,1.59,114.57,190515,,,D*74
$GPRMC,212355.000,A,3748.1883,N,12217.6665,W,1.51,102.08,190515,,,D*72
$GPRMC,212356.000,A,3748.1884,N,12217.6663,W,1.37,92.75,190515,,,D*42
$GPRMC,212357.000,A,3748.1884,N,12217.6659,W,1.54,101.12,190515,,,D*75
$GPRMC,212358.000,A,3748.1882,N,12217.6654,W,1.57,109.69,190515,,,D*76
$GPRMC,212359.000,A,3748.1878,N,12217.6648,W,1.84,128.20,190515,,,D*7F
$GPRMC,212400.000,A,3748.1870,N,12217.6635,W,2.02,119.50,190515,,,D*7E
$GPRMC,212401.000,A,3748.1864,N,12217.6625,W,2.01,118.79,190515,,,D*72
$GPRMC,212402.000,A,3748.1857,N,12217.6617,W,2.63,140.51,190515,,,D*73
$GPRMC,212403.000,A,3748.1857,N,12217.6623,W,1.43,177.61,190515,,,D*73
$GPRMC,212404.000,A,3748.1849,N,12217.6622,W,2.04,176.96,190515,,,D*73
$GPRMC,212405.000,A,3748.1841,N,12217.6623,W,1.67,197.55,190515,,,D*7D
$GPRMC,212406.000,A,3748.1825,N,12217.6610,W,2.08,185.02,190515,,,D*77
$GPRMC,212407.000,A,3748.1816,N,12217.6609,W,1.69,175.50,190515,,,D*72
$GPRMC,212408.000,A,3748.1809,N,12217.6612,W,1.76,176.28,190515,,,D*7B
$GPRMC,212409.000,A,3748.1803,N,12217.6613,W,1.86,192.60,190515,,,D*78
$GPRMC,212410.000,A,3748.1796,N,12217.6616,W,2.11,191.44,190515,,,D*7E
$GPRMC,212411.000,A,3748.1787,N,12217.6616,W,2.02,177.78,190515,,,D*7A
$GPRMC,212412.000,A,3748.1777,N,12217.6616,W,2.01,187.87,190515,,,D*7A
$GPRMC,212413.000,A,3748.1766,N,12217.6621,W,1.91,196.57,190515,,,D*78
$GPRMC,212414.000,A,3748.1758,N,12217.6625,W,1.42,235.37,190515,,,D*74
$GPRMC,212415.000,A,3748.1754,N,12217.6635,W,1.37,248.75,190515,,,D*76
$GPRMC,212416.000,A,3748.1752,N,12217.6643,W,1.55,249.47,190515,,,D*76
$GPRMC,212417.000,A,3748.1750,N,12217.6652,W,1.83,230.03,190515,,,D*70
$GPRMC,212418.000,A,3748.1744,N,12217.6656,W,1.84,217.58,190515,,,D*72
$GPRMC,212419.000,A,3748.1736,N,12217.6658,W,2.02,197.90,190515,,,D*7A
$GPRMC,212420.000,A,3748.1724,N,12217.6658,W,2.49,176.51,190515,,,D*7E
$GPRMC,212421.000,A,3748.1719,N,12217.6665,W,2.11,172.85,190515,,,D*7F
$GPRMC,212422.000,A,3748.1715,N,12217.6671,W,1.76,164.41,190515,,,D*78
$GPRMC,212423.000,A,3748.1710,N,12217.6678,W,2.13,182.89,190515,,,D*79
$GPRMC,212424.000,A,3748.1704,N,12217.6686,W,2.50,196.89,190515,,,D*78
$GPRMC,212425.000,A,3748.1699,N,12217.6692,W,1.87,225.35,190515,,,D*7C
$GPRMC,212426.000,A,3748.1698,N,12217.6701,W,1.67,245.87,190515,,,D*74
$GPRMC,212427.000,A,3748.1692,N,12217.6708,W,1.53,256.85,190515,,,D*71
$GPRMC,212428.000,A,3748.1688,N,12217.6716,W,1.25,236.85,190515,,,D*7D
$GPRMC,212429.000,A,3748.1682,N,12217.6714,W,1.03,211.70,190515,,,D*7F
$GPRMC,212430.000,A,3748.1674,N,12217.6714,W,1.15,191.20,190515,,,D*77
$GPRMC,212431.000,A,3748.1664,N,12217.6711,W,1.33,200.35,190515,,,D*79
$GPRMC,212432.000,A,3748.1655,N,12217.6711,W,1.68,195.28,190515,,,D*75
$GPRMC,212433.000,A,3748.1646,N,12217.6710,W,1.51,194.10,190515,,,D*77
$GPRMC,212434.000,A,3748.1635,N,12217.6707,W,2.09,186.79,190515,,,D*70
$GPRMC,212435.000,A,3748.1626,N,12217.6704,W,1.78,192.60,190515,,,D*78
$GPRMC,212436.000,A,3748.1617,N,12217.6703,W,1.62,211.03,190515,,,D*78
$GPRMC,212437.000,A,3748.1609,N,12217.6700,W,1.77,186.32,190515,,,D*7E
$GPRMC,212438.000,A,3748.1602,N,12217.6698,W,1.53,185.68,190515,,,D*70
$GPRMC,212439.000,A,3748.1595,N,12217.6694,W,1.85,168.26,190515,,,D*72
$GPRMC,212440.000,A,3748.1587,N,12217.6691,W,1.72,177.99,190515,,,D*78
$GPRMC,212441.000,A,3748.1580,N,12217.6690,W,1.39,199.55,190515,,,D*70
$GPRMC,212442.000,A,3748.1570,N,12217.6687,W,1.97,183.66,190515,,,D*75
$GPRMC,212443.000,A,3748.1560,N,12217.6689,W,1.77,208.73,190515,,,D*71
$GPRMC,212444.000,A,3748.1550,N,12217.6688,W,1.72,209.54,190515,,,D*75
$GPRMC,212445.000,A,3748.1545,N,12217.6688,W,0.51,225.98,190515,,,D*7E
$GPRMC,212446.000,A,3748.1553,N,12217.6709,W,0.45,226.48,190515,,,D*79
$GPRMC,212447.000,A,3748.1561,N,12217.6728,W,0.35,162.73,190515,,,D*76
$GPRMC,212448.000,A,3748.1557,N,12217.6733,W,0.59,147.62,190515,,,D*7B
$GPRMC,212449.000,A,3748.1554,N,12217.6741,W,1.16,237.85,190515,,,D*7B
$GPRMC,212450.000,A,3748.1562,N,12217.6763,W,1.80,264.83,190515,,,D*79
$GPRMC,212451.000,A,3748.1560,N,12217.6775,W,1.79,246.67,190515,,,D*71
$GPRMC,212452.000,A,3748.1556,N,12217.6784,W,1.97,241.74,190515,,,D*7C
$GPRMC,212453.000,A,3748.1551,N,12217.6784,W,0.87,191.78,190515,,,D*78
$GPRMC,212454.000,A,3748.1549,N,12217.6786,W,1.12,198.34,190515,,,D*78
$GPRMC,212455.000,A,3748.1539,N,12217.6788,W,0.87,234.34,190515,,,D*78
$GPRMC,212456.000,A,3748.1530,N,12217.6793,W,1.31,223.28,190515,,,D*7F
$GPRMC,212457.000,A,3748.1524,N,12217.6797,W,2.01,193.37,190515,,,D*79
$GPRMC,212458.000,A,3748.1515,N,12217.6796,W,1.47,188.49,190515,,,D*77
$GPRMC,212459.000,A,3748.1514,N,12217.6803,W,0.26,200.70,190515,,,D*7B
$GPRMC,212500.000,A,3748.1511,N,12217.6811,W,1.21,197.89,190515,,,D*7D
$GPRMC,212501.000,A,3748.1507,N,12217.6821,W,1.93,222.80,190515,,,D*75
$GPRMC,212502.000,A,3748.1494,N,12217.6828,W,2.12,214.58,190515,,,D*7E
$GPRMC,212503.000,A,3748.1481,N,12217.6834,W,3.55,210.18,190515,,,D*74
$GPRMC,212504.000,A,3748.1477,N,12217.6831,W,2.65,223.70,190515,,,D*73
$GPRMC,212505.000,A,3748.1476,N,12217.6840,W,2.16,247.06,190515,,,D*72
$GPRMC,212506.000,A,3748.1469,N,12217.6847,W,2.35,241.27,190515,,,D*7C
$GPRMC,212507.000,A,3748.1463,N,12217.6860,W,3.40,229.48,190515,,,D*76
$GPRMC,212508.000,A,3748.1455,N,12217.6866,W,2.91,222.12,190515,,,D*73
$GPRMC,212509.000,A,3748.1453,N,12217.6865,W,1.28,227.07,190515,,,A*72
$GPRMC,212510.000,A,3748.1456,N,12217.6858,W,0.88,23.47,190515,,,A*48
$GPRMC,212511.000,A,3748.1456,N,12217.6845,W,1.36,98.88,190515,,,A*42
$GPRMC,212512.000,A,3748.1441,N,12217.6827,W,0.94,109.73,190515,,,A*77
$GPRMC,212513.000,A,3748.1468,N,12217.6872,W,1.37,331.14,190515,,,A*7D
$GPRMC,212514.000,A,3748.1483,N,12217.6887,W,1.24,342.81,190515,,,A*7F
$GPRMC,212515.000,A,3748.1498,N,12217.6900,W,0.49,332.59,190515,,,A*72
$GPRMC,212516.000,A,3748.1504,N,12217.6917,W,0.96,307.49,190515,,,A*76
$GPRMC,212517.000,A,3748.1517,N,12217.6940,W,1.30,292.65,190515,,,A*79
$GPRMC,212518.000,A,3748.1528,N,12217.6948,W,0.37,262.27,190515,,,A*7D
$GPRMC,212519.000,A,3748.1528,N,12217.6950,W,0.99,210.35,190515,,,A*77
$GPRMC,212520.000,A,3748.1535,N,12217.6954,W,0.36,200.71,190515,,,A*71
$GPRMC,212521.000,A,3748.1543,N,12217.6954,W,0.23,321.12,190515,,,A*72
$GPRMC,212522.000,A,3748.1549,N,12217.6959,W,0.28,133.68,190515,,,A*71
$GPRMC,212523.000,A,3748.1558,N,12217.6960,W,1.23,147.36,190515,,,A*78
$GPRMC,212524.000,A,3748.1568,N,12217.6956,W,0.94,143.77,190515,,,A*75
$GPRMC,212525.000,A,3748.1574,N,12217.6953,W,1.12,158.82,190515,,,A*73
$GPRMC,212526.000,A,3748.1577,N,12217.6956,W,1.00,271.62,190515,,,A*73
$GPRMC,212527.000,A,3748.1581,N,12217.6952,W,1.25,289.31,190515,,,A*79
$GPRMC,212528.000,A,3748.1583,N,12217.6964,W,1.43,292.43,190515,,,A*7E
$GPRMC,212529.000,A,3748.1576,N,12217.6981,W,2.19,263.94,190515,,,A*76
$GPRMC,212530.000,A,3748.1569,N,12217.6995,W,1.27,282.15,190515,,,A*7D
$GPRMC,212531.000,A,3748.1563,N,12217.7003,W,1.05,19.46,190515,,,A*47
$GPRMC,212532.000,A,3748.1552,N,12217.7011,W,0.81,346.01,190515,,,A*72
$GPRMC,212533.000,A,3748.1548,N,12217.7038,W,0.82,289.13,190515,,,A*71
$GPRMC,212534.000,A,3748.1553,N,12217.7060,W,0.55,297.83,190515,,,A*7D
$GPRMC,212535.000,A,3748.1558,N,12217.7070,W,1.19,323.24,190515,,,A*7C
$GPRMC,212536.000,A,3748.1560,N,12217.7074,W,1.15,343.06,190515,,,A*7A
$GPRMC,212537.000,A,3748.1566,N,12217.7089,W,1.29,335.36,190515,,,A*72
$GPRMC,212538.000,A,3748.1566,N,12217.7089,W,0.62,338.69,190515,,,A*74
$GPRMC,212539.000,A,3748.1569,N,12217.7093,W,1.01,341.20,190515,,,A*76
$GPRMC,212540.000,A,3748.1572,N,12217.7098,W,1.25,333.33,190515,,,A*78
$GPRMC,212541.000,A,3748.1576,N,12217.7113,W,1.37,278.67,190515,,,A*73
$GPRMC,212542.000,A,3748.1572,N,12217.7125,W,1.49,281.13,190515,,,A*7D
$GPRMC,212543.000,A,3748.1569,N,12217.7135,W,1.75,290.01,190515,,,A*7B
$GPRMC,212544.000,A,3748.1573,N,12217.7143,W,2.23,325.68,190515,,,A*76
$GPRMC,212545.000,A,3748.1573,N,12217.7138,W,2.02,328.92,190515,,,A*70
$GPRMC,212546.000,A,3748.1573,N,12217.7134,W,1.74,311.38,190515,,,A*77
$GPRMC,212547.000,A,3748.1572,N,12217.7137,W,2.14,306.81,190515,,,A*75
$GPRMC,212548.000,A,3748.1573,N,12217.7155,W,2.68,302.32,190515,,,A*78
$GPRMC,212549.000,A,3748.1573,N,12217.7174,W,1.60,310.21,190515,,,A*70
$GPRMC,212550.000,A,3748.1573,N,12217.7190,W,1.77,306.26,190515,,,A*74
$GPRMC,212551.000,A,3748.1576,N,12217.7204,W,0.96,304.78,190515,,,A*79
$GPRMC,212552.000,A,3748.1577,N,12217.7205,W,1.18,301.41,190515,,,A*72
$GPRMC,212553.000,A,3748.1580,N,12217.7210,W,1.41,259.04,190515,,,A*7E
$GPRMC,212554.000,A,3748.1582,N,12217.7217,W,1.42,287.55,190515,,,A*78
$GPRMC,212555.000,A,3748.1577,N,12217.7216,W,1.34,241.15,190515,,,A*7D
$GPRMC,212556.000,A,3748.1585,N,12217.7216,W,1.09,297.79,190515,,,A*7C
$GPRMC,212557.000,A,3748.1592,N,12217.7223,W,1.78,307.52,190515,,,A*7A
$GPRMC,212558.000,A,3748.1598,N,12217.7231,W,1.80,315.90,190515,,,A*76
$GPRMC,212559.000,A,3748.1605,N,12217.7244,W,1.64,302.86,190515,,,A*79
$GPRMC,212600.000,A,3748.1601,N,12217.7254,W,1.57,306.35,190515,,,A*7F
$GPRMC,212601.000,A,3748.1602,N,12217.7268,W,1.62,323.01,190515,,,A*74
$GPRMC,212602.000,A,3748.1605,N,12217.7281,W,1.23,319.29,190515,,,A*71
$GPRMC,212603.000,A,3748.1613,N,12217.7299,W,0.18,4.91,190515,,,A*7B
$GPRMC,212604.000,A,3748.1608,N,12217.7297,W,0.35,347.03,190515,,,A*78
$GPRMC,212605.000,A,3748.1602,N,12217.7308,W,0.55,189.79,190515,,,A*7F
$GPRMC,212606.000,A,3748.1600,N,12217.7324,W,1.41,281.13,190515,,,A*73
$GPRMC,212607.000,A,3748.1599,N,12217.7332,W,1.43,312.97,190515,,,A*73
$GPRMC,212608.000,A,3748.1601,N,12217.7342,W,1.32,309.50,190515,,,A*7E
$GPRMC,212609.000,A,3748.1600,N,12217.7344,W,0.95,255.83,190515,,,A*72
$GPRMC,212610.000,A,3748.1600,N,12217.7345,W,0.45,270.79,190515,,,A*74
$GPRMC,212611.000,A,3748.1602,N,12217.7357,W,1.23,328.13,190515,,,A*75
$GPRMC,212612.000,A,3748.1606,N,12217.7369,W,1.52,312.96,190515,,,A*7D
$GPRMC,212613.000,A,3748.1606,N,12217.7380,W,1.49,304.65,190515,,,A*7A
$GPRMC,212614.000,A,3748.1614,N,12217.7398,W,2.41,306.55,190515,,,A*7D
$GPRMC,212615.000,A,3748.1614,N,12217.7407,W,1.78,308.64,190515,,,A*78
$GPRMC,212616.000,A,3748.1614,N,12217.7420,W,2.25,306.28,190515,,,A*73
$GPRMC,212617.000,A,3748.1623,N,12217.7450,W,2.34,306.38,190515,,,A*70
$GPRMC,212618.000,A,3748.1629,N,12217.7479,W,3.64,289.87,190515,,,A*78
$GPRMC,212619.000,A,3748.1638,N,12217.7509,W,2.97,299.37,190515,,,A*78
$GPRMC,212620.000,A,3748.1638,N,12217.7529,W,3.20,292.46,190515,,,A*70
$GPRMC,212621.000,A,3748.1639,N,12217.7545,W,3.15,288.09,190515,,,A*7C
$GPRMC,212622.000,A,3748.1643,N,12217.7562,W,2.86,314.68,190515,,,A*7F
$GPRMC,212623.000,A,3748.1649,N,12217.7579,W,3.50,306.62,190515,,,A*7D
$GPRMC,212624.000,A,3748.1646,N,12217.7587,W,2.99,284.54,190515,,,A*7E
$GPRMC,212625.000,A,3748.1634,N,12217.7583,W,1.80,272.71,190515,,,A*7B
$GPRMC,212626.000,A,3748.1633,N,12217.7605,W,2.18,274.26,190515,,,A*74
$GPRMC,212627.000,A,3748.1629,N,12217.7619,W,1.34,267.92,190515,,,A*73
$GPRMC,212628.000,A,3748.1625,N,12217.7626,W,1.72,277.90,190515,,,A*7D
$GPRMC,212629.000,A,3748.1625,N,12217.7638,W,3.13,277.37,190515,,,A*7B
$GPRMC,212630.000,A,3748.1621,N,12217.7643,W,2.50,274.82,190515,,,A*70
$GPRMC,212631.000,A,3748.1611,N,12217.7642,W,1.16,242.19,190515,,,A*75
$GPRMC,212632.000,A,3748.1605,N,12217.7645,W,1.21,221.15,190515,,,A*79
$GPRMC,212633.000,A,3748.1597,N,12217.7640,W,0.81,224.04,190515,,,A*7B
$GPRMC,212634.000,A,3748.1589,N,12217.7641,W,0.77,241.46,190515,,,A*7E
$GPRMC,212635.000,A,3748.1585,N,12217.7639,W,0.43,206.18,190515,,,A*73
$GPRMC,212636.000,A,3748.1584,N,12217.7648,W,0.47,235.94,190515,,,A*77
$GPRMC,212637.000,A,3748.1581,N,12217.7651,W,0.96,220.61,190515,,,A*79
$GPRMC,212638.000,A,3748.1574,N,12217.7644,W,1.12,202.35,190515,,,A*74
$GPRMC,212639.000,A,3748.1564,N,12217.7631,W,1.78,172.62,190515,,,D*79
$GPRMC,212640.000,A,3748.1558,N,12217.7623,W,1.08,179.04,190515,,,D*77
$GPRMC,212641.000,A,3748.1551,N,12217.7612,W,0.49,140.57,190515,,,D*75
$GPRMC,212642.000,A,3748.1551,N,12217.7607,W,0.45,110.96,190515,,,D*76
$GPRMC,212643.000,A,3748.1551,N,12217.7605,W,1.06,139.88,190515,,,D*77
$GPRMC,212644.000,A,3748.1545,N,12217.7594,W,0.61,110.73,190515,,,D*71
$GPRMC,212645.000,A,3748.1539,N,12217.7586,W,0.74,115.02,190515,,,D*7F
$GPRMC,212646.000,A,3748.1536,N,12217.7578,W,1.72,116.20,190515,,,D*76
$GPRMC,212647.000,A,3748.1534,N,12217.7565,W,2.42,123.30,190515,,,D*7E
$GPRMC,212648.000,A,3748.1533,N,12217.7560,W,1.67,114.72,190515,,,D*75
$GPRMC,212649.000,A,3748.1522,N,12217.7544,W,1.53,112.48,190515,,,D*7A
$GPRMC,212650.000,A,3748.1524,N,12217.7538,W,1.20,97.47,190515,,,D*48
$GPRMC,212651.000,A,3748.1528,N,12217.7544,W,0.22,29.89,190515,,,D*4A
$GPRMC,212652.000,A,3748.1533,N,12217.7540,W,1.09,352.69,190515,,,D*7E
$GPRMC,212653.000,A,3748.1532,N,12217.7537,W,0.24,3.15,190515,,,D*7C
$GPRMC,212654.000,A,3748.1534,N,12217.7531,W,0.39,140.58,190515,,,D*78
$GPRMC,212655.000,A,3748.1533,N,12217.7527,W,0.85,121.58,190515,,,D*79
$GPRMC,212656.000,A,3748.1537,N,12217.7526,W,0.58,77.16,190515,,,D*47
$GPRMC,212657.000,A,3748.1541,N,12217.7524,W,0.45,104.26,190515,,,D*7F
$GPRMC,212658.000,A,3748.1543,N,12217.7524,W,0.65,100.02,190515,,,D*72
$GPRMC,212659.000,A,3748.1545,N,12217.7525,W,1.00,72.25,190515,,,D*47
$GPRMC,212700.000,A,3748.1545,N,12217.7525,W,0.75,92.42,190515,,,D*46
$GPRMC,212701.000,A,3748.1539,N,12217.7515,W,0.57,85.89,190515,,,A*4B
$GPRMC,212702.000,A,3748.1539,N,12217.7513,W,0.68,118.34,190515,,,A*71
$GPRMC,212703.000,A,3748.1538,N,12217.7513,W,0.63,148.39,190515,,,A*72
$GPRMC,212704.000,A,3748.1536,N,12217.7510,W,0.27,122.24,190515,,,A*78
$GPRMC,212705.000,A,3748.1535,N,12217.7506,W,0.55,51.65,190515,,,A*48
$GPRMC,212706.000,A,3748.1536,N,12217.7501,W,0.84,50.03,190515,,,A*42
$GPRMC,212707.000,A,3748.1534,N,12217.7495,W,0.44,80.84,190515,,,A*43
$GPRMC,212708.000,A,3748.1531,N,12217.7499,W,0.41,137.56,190515,,,D*77
$GPRMC,212709.000,A,3748.1529,N,12217.7504,W,0.49,198.31,190515,,,D*76
$GPRMC,212710.000,A,3748.1519,N,12217.7503,W,0.54,181.96,190515,,,D*73
$GPRMC,212711.000,A,3748.1513,N,12217.7512,W,0.87,236.45,190515,,,D*77
$GPRMC,212712.000,A,3748.1509,N,12217.7520,W,1.21,234.22,190515,,,D*70
$GPRMC,212713.000,A,3748.1501,N,12217.7519,W,1.04,197.74,190515,,,D*7D
$GPRMC,212714.000,A,3748.1499,N,12217.7527,W,0.70,243.59,190515,,,D*70
$GPRMC,212715.000,A,3748.1490,N,12217.7528,W,0.60,151.47,190515,,,D*79
$GPRMC,212716.000,A,3748.1483,N,12217.7524,W,0.64,119.05,190515,,,D*7A
$GPRMC,212717.000,A,3748.1479,N,12217.7528,W,0.26,154.66,190515,,,D*78
$GPRMC,212718.000,A,3748.1478,N,12217.7538,W,0.38,182.56,190515,,,D*70
$GPRMC,212719.000,A,3748.1471,N,12217.7536,W,0.48,155.38,190515,,,D*73
$GPRMC,212720.000,A,3748.1473,N,12217.7537,W,0.83,7.09,190515,,,D*79
$GPRMC,212721.000,A,3748.1479,N,12217.7543,W,1.95,318.74,190515,,,D*70
$GPRMC,212722.000,A,3748.1489,N,12217.7560,W,2.46,290.37,190515,,,D*76
$GPRMC,212723.000,A,3748.1495,N,12217.7584,W,2.39,267.29,190515,,,D*7F
$GPRMC,212724.000,A,3748.1493,N,12217.7600,W,2.63,235.22,190515,,,D*72
$GPRMC,212725.000,A,3748.1494,N,12217.7618,W,2.55,229.88,190515,,,D*75
$GPRMC,212726.000,A,3748.1500,N,12217.7639,W,2.05,238.49,190515,,,D*71
$GPRMC,212727.000,A,3748.1504,N,12217.7646,W,2.13,288.87,190515,,,D*72
$GPRMC,212728.000,A,3748.1520,N,12217.7651,W,2.30,308.87,190515,,,D*75
$GPRMC,212729.000,A,3748.1528,N,12217.7652,W,1.84,300.13,190515,,,D*76
$GPRMC,212730.000,A,3748.1535,N,12217.7662,W,2.21,294.82,190515,,,D*79
$GPRMC,212731.000,A,3748.1546,N,12217.7675,W,2.25,296.46,190515,,,A*71
$GPRMC,212732.000,A,3748.1552,N,12217.7700,W,3.08,288.08,190515,,,A*7F
$GPRMC,212733.000,A,3748.1552,N,12217.7715,W,2.57,276.26,190515,,,A*7C
$GPRMC,212734.000,A,3748.1544,N,12217.7718,W,1.77,262.86,190515,,,A*7F
$GPRMC,212735.000,A,3748.1540,N,12217.7721,W,2.23,265.69,190515,,,A*74
$GPRMC,212736.000,A,3748.1536,N,12217.7730,W,2.49,242.85,190515,,,A*7D
$GPRMC,212737.000,A,3748.1534,N,12217.7740,W,2.21,246.89,190515,,,A*7F
$GPRMC,212738.000,A,3748.1538,N,12217.7753,W,1.94,244.51,190515,,,A*74
$GPRMC,212739.000,A,3748.1544,N,12217.7765,W,1.83,272.49,190515,,,A*71
$GPRMC,212740.000,A,3748.1553,N,12217.7778,W,2.02,300.68,190515,,,A*78
$GPRMC,212741.000,A,3748.1569,N,12217.7782,W,2.31,319.47,190515,,,A*70
$GPRMC,212742.000,A,3748.1568,N,12217.7790,W,1.88,276.07,190515,,,A*7C
$GPRMC,212743.000,A,3748.1570,N,12217.7796,W,1.88,285.16,190515,,,A*7E
$GPRMC,212744.000,A,3748.1575,N,12217.7802,W,2.12,304.78,190515,,,A*7E
$GPRMC,212745.000,A,3748.1580,N,12217.7806,W,1.92,327.25,190515,,,A*73
$GPRMC,212746.000,A,3748.1587,N,12217.7814,W,1.55,304.05,190515,,,A*7C
$GPRMC,212747.000,A,3748.1590,N,12217.7823,W,1.65,288.18,190515,,,A*75
$GPRMC,212748.000,A,3748.1589,N,12217.7835,W,2.03,281.98,190515,,,A*77
$GPRMC,212749.000,A,3748.1595,N,12217.7842,W,2.46,296.68,190515,,,A*73
$GPRMC,212750.000,A,3748.1594,N,12217.7854,W,2.39,293.00,190515,,,A*7E
$GPRMC,212751.000,A,3748.1599,N,12217.7863,W,2.58,282.48,190515,,,A*7D
$GPRMC,212752.000,A,3748.1603,N,12217.7871,W,2.43,273.96,190515,,,A*7A
$GPRMC,212753.000,A,3748.1603,N,12217.7878,W,2.22,280.30,190515,,,A*75
$GPRMC,212754.000,A,3748.1611,N,12217.7883,W,2.43,288.65,190515,,,A*7A
$GPRMC,212755.000,A,3748.1619,N,12217.7887,W,2.20,282.39,190515,,,A*71
$GPRMC,212756.000,A,3748.1624,N,12217.7894,W,2.18,270.98,190515,,,A*73
$GPRMC,212757.000,A,3748.1618,N,12217.7906,W,2.41,271.01,190515,,,A*7A
$GPRMC,212758.000,A,3748.1610,N,12217.7916,W,1.91,276.39,190515,,,A*7E
$GPRMC,212759.000,A,3748.1597,N,12217.7935,W,2.14,265.19,190515,,,A*7C
$GPRMC,212800.000,A,3748.1590,N,12217.7940,W,2.00,271.20,190515,,,A*70
$GPRMC,212801.000,A,3748.1581,N,12217.7953,W,2.15,267.25,190515,,,A*75
$GPRMC,212802.000,A,3748.1575,N,12217.7958,W,1.73,271.10,190515,,,A*74
$GPRMC,212803.000,A,3748.1569,N,12217.7967,W,2.71,260.17,190515,,,A*72
$GPRMC,212804.000,A,3748.1562,N,12217.7978,W,2.67,251.16,190515,,,A*74
$GPRMC,212805.000,A,3748.1556,N,12217.7986,W,1.89,256.14,190515,,,A*75
$GPRMC,212806.000,A,3748.1553,N,12217.7992,W,1.86,266.05,190515,,,A*7A
$GPRMC,212807.000,A,3748.1549,N,12217.8000,W,2.09,270.30,190515,,,A*78
$GPRMC,212808.000,A,3748.1543,N,12217.8011,W,2.08,255.02,190515,,,A*7A
$GPRMC,212809.000,A,3748.1540,N,12217.8016,W,1.55,259.43,190515,,,A*7D
$GPRMC,212810.000,A,3748.1535,N,12217.8027,W,1.58,262.86,190515,,,A*79
$GPRMC,212811.000,A,3748.1533,N,12217.8035,W,2.09,268.71,190515,,,A*78
$GPRMC,212812.000,A,3748.1532,N,12217.8042,W,1.95,268.54,190515,,,A*7B
$GPRMC,212813.000,A,3748.1529,N,12217.8050,W,1.86,257.09,190515,,,A*75
$GPRMC,212814.000,A,3748.1528,N,12217.8053,W,1.47,253.12,190515,,,A*73
$GPRMC,212815.000,A,3748.1525,N,12217.8057,W,1.39,257.07,190515,,,A*72
$GPRMC,212816.000,A,3748.1522,N,12217.8066,W,1.95,269.84,190515,,,A*74
$GPRMC,212817.000,A,3748.1519,N,12217.8073,W,1.57,264.61,190515,,,A*71
$GPRMC,212818.000,A,3748.1517,N,12217.8082,W,1.45,272.34,190515,,,A*7A
$GPRMC,212819.000,A,3748.1515,N,12217.8091,W,2.01,271.96,190515,,,A*73
$GPRMC,212820.000,A,3748.1513,N,12217.8099,W,1.99,263.88,190515,,,A*79
$GPRMC,212821.000,A,3748.1509,N,12217.8107,W,1.92,265.63,190515,,,A*7D
$GPRMC,212822.000,A,3748.1506,N,12217.8117,W,2.09,269.30,190515,,,A*7B
$GPRMC,212823.000,A,3748.1505,N,12217.8125,W,2.09,290.00,190515,,,A*7D
$GPRMC,212824.000,A,3748.1509,N,12217.8134,W,2.26,303.24,190515,,,A*76
$GPRMC,212825.000,A,3748.1513,N,12217.8147,W,2.28,284.07,190515,,,A*79
$GPRMC,212826.000,A,3748.1520,N,12217.8156,W,2.03,288.67,190515,,,A*79
$GPRMC,212827.000,A,3748.1528,N,12217.8165,W,2.26,314.09,190515,,,A*7B
$GPRMC,212828.000,A,3748.1530,N,12217.8175,W,2.08,304.18,190515,,,A*71
$GPRMC,212829.000,A,3748.1536,N,12217.8188,W,2.04,285.20,190515,,,A*7B
$GPRMC,212830.000,A,3748.1538,N,12217.8198,W,1.72,275.85,190515,,,A*7E
$GPRMC,212831.000,A,3748.1542,N,12217.8213,W,1.99,274.40,190515,,,A*7F
$GPRMC,212832.000,A,3748.1542,N,12217.8226,W,2.25,278.80,190515,,,A*7E
$GPRMC,212833.000,A,3748.1548,N,12217.8239,W,2.12,293.19,190515,,,A*7A
$GPRMC,212834.000,A,3748.1552,N,12217.8249,W,2.10,297.01,190515,,,A*7E
$GPRMC,212835.000,A,3748.1553,N,12217.8254,W,1.89,288.19,190515,,,A*76
$GPRMC,212836.000,A,3748.1553,N,12217.8260,W,1.68,276.63,190515,,,A*71
$GPRMC,212837.000,A,3748.1555,N,12217.8262,W,1.90,311.56,190515,,,A*75
$GPRMC,212838.000,A,3748.1558,N,12217.8268,W,1.80,311.24,190515,,,A*79
$GPRMC,212839.000,A,3748.1562,N,12217.8270,W,1.75,331.20,190515,,,A*74
$GPRMC,212840.000,A,3748.1566,N,12217.8267,W,1.78,345.60,190515,,,A*72
$GPRMC,212841.000,A,3748.1571,N,12217.8264,W,2.20,353.51,190515,,,A*7D
$GPRMC,212842.000,A,3748.1577,N,12217.8261,W,1.94,359.07,190515,,,A*78
$GPRMC,212843.000,A,3748.1582,N,12217.8260,W,1.89,5.29,190515,,,A*78
$GPRMC,212844.000,A,3748.1586,N,12217.8258,W,1.66,18.16,190515,,,A*41
$GPRMC,212845.000,A,3748.1591,N,12217.8257,W,1.65,14.33,190515,,,A*41
$GPRMC,212846.000,A,3748.1596,N,12217.8255,W,1.46,9.54,190515,,,A*7B
$GPRMC,212847.000,A,3748.1601,N,12217.8254,W,1.57,5.70,190515,,,A*7C
$GPRMC,212848.000,A,3748.1604,N,12217.8253,W,1.25,24.55,190515,,,A*40
$GPRMC,212849.000,A,3748.1608,N,12217.8246,W,1.19,29.87,190515,,,A*44
$GPRMC,212850.000,A,3748.1614,N,12217.8244,W,2.09,3.64,190515,,,A*74
$GPRMC,212851.000,A,3748.1619,N,12217.8245,W,1.79,0.78,190515,,,A*73
$GPRMC,212852.000,A,3748.1642,N,12217.8233,W,1.99,8.98,190515,,,A*77
$GPRMC,212853.000,A,3748.1656,N,12217.8226,W,1.79,12.10,190515,,,A*42
$GPRMC,212854.000,A,3748.1665,N,12217.8221,W,1.78,7.01,190515,,,A*77
$GPRMC,212855.000,A,3748.1671,N,12217.8219,W,1.38,11.77,190515,,,A*4A
$GPRMC,212856.000,A,3748.1679,N,12217.8214,W,1.66,10.90,190515,,,A*4F
$GPRMC,212857.000,A,3748.1684,N,12217.8208,W,1.68,42.20,190515,,,A*43
$GPRMC,212858.000,A,3748.1691,N,12217.8200,W,1.85,47.29,190515,,,A*4F
$GPRMC,212859.000,A,3748.1697,N,12217.8194,W,1.87,28.49,190515,,,A*4B
$GPRMC,212900.000,A,3748.1702,N,12217.8190,W,1.60,36.47,190515,,,A*47
$GPRMC,212901.000,A,3748.1705,N,12217.8185,W,1.27,65.06,190515,,,A*45
$GPRMC,212902.000,A,3748.1707,N,12217.8181,W,1.39,53.90,190515,,,A*45
$GPRMC,212903.000,A,3748.1713,N,12217.8179,W,1.14,36.98,190515,,,A*42
$GPRMC,212904.000,A,3748.1717,N,12217.8178,W,0.94,42.48,190515,,,A*47
$GPRMC,212905.000,A,3748.1717,N,12217.8172,W,1.04,22.11,190515,,,A*4E
$GPRMC,212906.000,A,3748.1716,N,12217.8163,W,1.13,35.09,190515,,,A*45
$GPRMC,212907.000,A,3748.1718,N,12217.8161,W,0.84,32.38,190515,,,A*42
$GPRMC,212908.000,A,3748.1719,N,12217.8159,W,1.10,38.75,190515,,,A*48
$GPRMC,212909.000,A,3748.1721,N,12217.8154,W,2.15,55.24,190515,,,A*46
$GPRMC,212910.000,A,3748.1727,N,12217.8146,W,1.80,39.32,190515,,,A*49
$GPRMC,212911.000,A,3748.1734,N,12217.8139,W,1.90,41.33,190515,,,A*4D
$GPRMC,212912.000,A,3748.1738,N,12217.8133,W,1.85,51.09,190515,,,A*44
$GPRMC,212913.000,A,3748.1740,N,12217.8126,W,1.99,54.52,190515,,,A*48
$GPRMC,212914.000,A,3748.1745,N,12217.8121,W,1.95,59.53,190515,,,A*4D
$GPRMC,212915.000,A,3748.1748,N,12217.8116,W,1.78,56.51,190515,,,A*4B
$GPRMC,212916.000,A,3748.1751,N,12217.8112,W,1.51,65.94,190515,,,A*46
$GPRMC,212917.000,A,3748.1750,N,12217.8106,W,1.58,70.92,190515,,,A*48
$GPRMC,212918.000,A,3748.1749,N,12217.8100,W,1.47,58.15,190515,,,A*42
$GPRMC,212919.000,A,3748.1746,N,12217.8094,W,1.88,91.58,190515,,,A*4F
$GPRMC,212920.000,A,3748.1741,N,12217.8086,W,1.72,99.85,190515,,,A*4C
$GPRMC,212921.000,A,3748.1738,N,12217.8081,W,1.15,85.40,190515,,,A*41
$GPRMC,212922.000,A,3748.1735,N,12217.8074,W,1.27,65.83,190515,,,A*45
$GPRMC,212923.000,A,3748.1735,N,12217.8072,W,1.16,50.79,190515,,,A*43
$GPRMC,212924.000,A,3748.1731,N,12217.8062,W,1.24,73.37,190515,,,A*4B
$GPRMC,212925.000,A,3748.1729,N,12217.8052,W,1.25,104.55,190515,,,A*74
$GPRMC,212926.000,A,3748.1732,N,12217.8049,W,1.54,63.80,190515,,,A*49
$GPRMC,212927.000,A,3748.1728,N,12217.8042,W,1.57,95.38,190515,,,A*41
$GPRMC,212928.000,A,3748.1724,N,12217.8033,W,1.43,110.75,190515,,,A*74
$GPRMC,212929.000,A,3748.1723,N,12217.8023,W,1.27,92.69,190515,,,A*47
$GPRMC,212930.000,A,3748.1724,N,12217.8018,W,1.13,110.29,190515,,,A*78
$GPRMC,212931.000,A,3748.1725,N,12217.8013,W,1.37,101.09,190515,,,A*77
$GPRMC,212932.000,A,3748.1724,N,12217.8006,W,1.85,98.15,190515,,,A*44
$GPRMC,212933.000,A,3748.1723,N,12217.8000,W,1.87,94.59,190515,,,A*42
$GPRMC,212934.000,A,3748.1724,N,12217.7992,W,1.69,82.28,190515,,,A*4E
$GPRMC,212935.000,A,3748.1722,N,12217.7984,W,1.38,79.11,190515,,,A*44
$GPRMC,212936.000,A,3748.1717,N,12217.7975,W,1.63,95.49,190515,,,A*4E
$GPRMC,212937.000,A,3748.1718,N,12217.7970,W,1.26,89.41,190515,,,A*41
$GPRMC,212938.000,A,3748.1718,N,12217.7964,W,1.81,104.65,190515,,,A*74
$GPRMC,212939.000,A,3748.1720,N,12217.7956,W,1.41,93.04,190515,,,A*4B
$GPRMC,212940.000,A,3748.1721,N,12217.7952,W,1.14,83.64,190515,,,A*47
$GPRMC,212941.000,A,3748.1721,N,12217.7948,W,0.36,63.68,190515,,,A*4E
$GPRMC,212942.000,A,3748.1725,N,12217.7949,W,0.44,25.23,190515,,,A*40
$GPRMC,212943.000,A,3748.1727,N,12217.7948,W,0.20,141.91,190515,,,A*7A
$GPRMC,212944.000,A,3748.1727,N,12217.7947,W,0.40,91.82,190515,,,A*4A
$GPRMC,212945.000,A,3748.1728,N,12217.7945,W,0.41,91.93,190515,,,A*47
$GPRMC,212946.000,A,3748.1729,N,12217.7945,W,0.18,51.86,190515,,,A*41
$GPRMC,212947.000,A,3748.1729,N,12217.7945,W,0.51,107.68,190515,,,A*7F
$GPRMC,212948.000,A,3748.1730,N,12217.7944,W,0.34,91.22,190515,,,A*4A
$GPRMC,212949.000,A,3748.1730,N,12217.7944,W,0.32,110.87,190515,,,A*7A
$GPRMC,212950.000,A,3748.1729,N,12217.7944,W,0.36,115.62,190515,,,A*70
$GPRMC,212951.000,A,3748.1730,N,12217.7944,W,0.83,86.62,190515,,,A*4C
$GPRMC,212952.000,A,3748.1729,N,12217.7942,W,1.42,98.25,190515,,,A*41
$GPRMC,212953.000,A,3748.1726,N,12217.7937,W,1.50,103.89,190515,,,A*7B
$GPRMC,212954.000,A,3748.1727,N,12217.7938,W,1.32,115.37,190515,,,A*74
$GPRMC,212955.000,A,3748.1726,N,12217.7935,W,1.60,104.25,190515,,,A*7D
$GPRMC,212956.000,A,3748.1726,N,12217.7933,W,1.32,99.77,190515,,,A*4D
$GPRMC,212957.000,A,3748.1723,N,12217.7926,W,1.62,93.18,190515,,,A*4B
$GPRMC,212958.000,A,3748.1720,N,12217.7916,W,1.40,91.48,190515,,,A*43
$GPRMC,212959.000,A,3748.1716,N,12217.7908,W,1.32,100.13,190515,,,A*7A
$GPRMC,213000.000,A,3748.1713,N,12217.7904,W,1.51,111.56,190515,,,A*73
$GPRMC,213001.000,A,3748.1711,N,12217.7899,W,1.11,90.14,190515,,,A*4F
$GPRMC,213002.000,A,3748.1709,N,12217.7894,W,1.25,100.86,190515,,,A*7C
$GPRMC,213003.000,A,3748.1703,N,12217.7881,W,1.71,108.72,190515,,,A*71
$GPRMC,213004.000,A,3748.1697,N,12217.7869,W,1.30,99.17,190515,,,A*43
$GPRMC,213005.000,A,3748.1695,N,12217.7865,W,0.90,94.02,190515,,,A*4E
$GPRMC,213006.000,A,3748.1693,N,12217.7863,W,0.56,84.00,190515,,,A*44
$GPRMC,213007.000,A,3748.1693,N,12217.7862,W,0.74,108.62,190515,,,A*75
$GPRMC,213008.000,A,3748.1693,N,12217.7863,W,0.90,112.22,190515,,,A*7E
$GPRMC,213009.000,A,3748.1689,N,12217.7860,W,1.36,112.37,190515,,,A*7E
$GPRMC,213010.000,A,3748.1683,N,12217.7856,W,1.76,114.07,190515,,,A*78
$GPRMC,213011.000,A,3748.1677,N,12217.7847,W,1.40,96.78,190515,,,A*44
$GPRMC,213012.000,A,3748.1675,N,12217.7837,W,1.37,91.21,190515,,,A*49
$GPRMC,213013.000,A,3748.1675,N,12217.7832,W,0.58,138.54,190515,,,A*75
$GPRMC,213014.000,A,3748.1675,N,12217.7832,W,0.06,147.56,190515,,,A*73
$GPRMC,213015.000,A,3748.1678,N,12217.7827,W,1.16,82.33,190515,,,A*40
$GPRMC,213016.000,A,3748.1678,N,12217.7817,W,1.28,117.28,190515,,,A*7A
$GPRMC,213017.000,A,3748.1673,N,12217.7814,W,1.31,105.99,190515,,,A*72
$GPRMC,213018.000,A,3748.1671,N,12217.7809,W,1.68,76.30,190515,,,A*49
$GPRMC,213019.000,A,3748.1673,N,12217.7808,W,0.98,56.16,190515,,,A*43
$GPRMC,213020.000,A,3748.1670,N,12217.7804,W,1.01,13.72,190515,,,A*44
$GPRMC,213021.000,A,3748.1667,N,12217.7802,W,1.09,76.05,190515,,,A*4E
$GPRMC,213022.000,A,3748.1667,N,12217.7800,W,1.46,62.72,190515,,,A*41
$GPRMC,213023.000,A,3748.1659,N,12217.7788,W,1.56,71.64,190515,,,A*46
$GPRMC,213024.000,A,3748.1654,N,12217.7779,W,1.79,105.25,190515,,,A*78
$GPRMC,213025.000,A,3748.1649,N,12217.7776,W,1.47,94.60,190515,,,A*4F
$GPRMC,213026.000,A,3748.1644,N,12217.7771,W,1.40,113.53,190515,,,A*7F
$GPRMC,213027.000,A,3748.1643,N,12217.7765,W,1.52,98.96,190515,,,A*44
$GPRMC,213028.000,A,3748.1639,N,12217.7759,W,1.90,99.20,190515,,,A*4B
$GPRMC,213029.000,A,3748.1637,N,12217.7752,W,1.76,98.82,190515,,,A*4E
$GPRMC,213030.000,A,3748.1634,N,12217.7747,W,2.03,120.20,190515,,,A*7A
$GPRMC,213031.000,A,3748.1629,N,12217.7740,W,2.36,114.39,190515,,,A*79
$GPRMC,213032.000,A,3748.1624,N,12217.7729,W,2.15,105.54,190515,,,A*72
$GPRMC,213033.000,A,3748.1623,N,12217.7720,W,1.74,98.85,190515,,,A*40
$GPRMC,213034.000,A,3748.1621,N,12217.7712,W,2.02,101.70,190515,,,A*7D
$GPRMC,213035.000,A,3748.1621,N,12217.7707,W,1.17,95.45,190515,,,A*45
$GPRMC,213036.000,A,3748.1617,N,12217.7692,W,0.79,61.34,190515,,,A*4A
$GPRMC,213037.000,A,3748.1617,N,12217.7687,W,0.34,55.49,190515,,,A*4B
$GPRMC,213038.000,A,3748.1618,N,12217.7684,W,0.55,82.76,190515,,,A*49
$GPRMC,213039.000,A,3748.1621,N,12217.7683,W,0.68,109.72,190515,,,A*7D
$GPRMC,213040.000,A,3748.1621,N,12217.7681,W,0.67,106.11,190515,,,A*74
$GPRMC,213041.000,A,3748.1622,N,12217.7679,W,0.90,83.74,190515,,,A*46
$GPRMC,213042.000,A,3748.1623,N,12217.7677,W,1.13,91.63,190515,,,A*45
$GPRMC,213043.000,A,3748.1623,N,12217.7671,W,1.53,80.42,190515,,,A*45
$GPRMC,213044.000,A,3748.1625,N,12217.7672,W,1.30,62.78,190515,,,A*47
$GPRMC,213045.000,A,3748.1628,N,12217.7673,W,1.36,77.48,190515,,,A*4B
$GPRMC,213046.000,A,3748.1633,N,12217.7677,W,1.17,81.52,190515,,,A*47
$GPRMC,213047.000,A,3748.1629,N,12217.7667,W,0.89,115.21,190515,,,A*72
$GPRMC,213048.000,A,3748.1626,N,12217.7662,W,1.10,85.09,190515,,,A*44
$GPRMC,213049.000,A,3748.1623,N,12217.7649,W,1.53,87.95,190515,,,A*49
$GPRMC,213050.000,A,3748.1621,N,12217.7640,W,1.47,91.03,190515,,,A*47
$GPRMC,213051.000,A,3748.1620,N,12217.7633,W,1.44,101.47,190515,,,A*78
$GPRMC,213052.000,A,3748.1615,N,12217.7624,W,1.75,97.68,190515,,,A*4A
$GPRMC,213053.000,A,3748.1613,N,12217.7616,W,1.25,94.87,190515,,,A*4B
$GPRMC,213054.000,A,3748.1611,N,12217.7610,W,1.23,91.42,190515,,,A*42
$GPRMC,213055.000,A,3748.1612,N,12217.7605,W,1.47,98.21,190515,,,A*4A
$GPRMC,213056.000,A,3748.1612,N,12217.7601,W,1.30,75.27,190515,,,A*48
$GPRMC,213057.000,A,3748.1614,N,12217.7598,W,0.81,53.53,190515,,,A*40
$GPRMC,213058.000,A,3748.1617,N,12217.7597,W,1.20,37.30,190515,,,A*4E
$GPRMC,213059.000,A,3748.1617,N,12217.7593,W,1.16,79.55,190515,,,A*47
$GPRMC,213100.000,A,3748.1618,N,12217.7590,W,0.77,67.53,190515,,,A*49
$GPRMC,213101.000,A,3748.1613,N,12217.7579,W,0.69,75.28,190515,,,A*44
$GPRMC,213102.000,A,3748.1610,N,12217.7571,W,0.77,63.05,190515,,,A*4B
$GPRMC,213103.000,A,3748.1612,N,12217.7568,W,1.05,71.18,190515,,,A*4B
$GPRMC,213104.000,A,3748.1614,N,12217.7563,W,1.55,68.09,190515,,,A*4C
$GPRMC,213105.000,A,3748.1617,N,12217.7559,W,1.56,48.51,190515,,,A*4B
$GPRMC,213106.000,A,3748.1621,N,12217.7556,W,1.10,38.76,190515,,,A*42
$GPRMC,213107.000,A,3748.1624,N,12217.7553,W,1.56,27.77,190515,,,A*4E
$GPRMC,213108.000,A,3748.1628,N,12217.7552,W,1.10,8.27,190515,,,A*76
$GPRMC,213109.000,A,3748.1632,N,12217.7554,W,1.56,338.34,190515,,,A*7A
$GPRMC,213110.000,A,3748.1635,N,12217.7553,W,1.58,347.40,190515,,,A*77
$GPRMC,213111.000,A,3748.1641,N,12217.7556,W,1.43,348.47,190515,,,A*72
$GPRMC,213112.000,A,3748.1644,N,12217.7558,W,0.55,307.51,190515,,,A*70
$GPRMC,213113.000,A,3748.1648,N,12217.7561,W,1.35,356.42,190515,,,A*76
$GPRMC,213114.000,A,3748.1651,N,12217.7561,W,0.68,342.30,190515,,,A*70
$GPRMC,213115.000,A,3748.1654,N,12217.7559,W,0.78,11.44,190515,,,A*48
$GPRMC,213116.000,A,3748.1656,N,12217.7558,W,0.69,342.96,190515,,,A*72
$GPRMC,213117.000,A,3748.1657,N,12217.7559,W,0.30,302.95,190515,,,A*78
$GPRMC,213118.000,A,3748.1658,N,12217.7563,W,0.08,294.17,190515,,,A*7E
$GPRMC,213119.000,A,3748.1661,N,12217.7561,W,0.68,356.00,190515,,,A*78
$GPRMC,213120.000,A,3748.1664,N,12217.7560,W,0.67,22.62,190515,,,A*4D
$GPRMC,213121.000,A,3748.1667,N,12217.7558,W,0.58,52.02,190515,,,A*49
$GPRMC,213122.000,A,3748.1675,N,12217.7558,W,2.01,17.15,190515,,,A*40
$GPRMC,213123.000,A,3748.1680,N,12217.7556,W,1.60,39.70,190515,,,A*4E
$GPRMC,213124.000,A,3748.1683,N,12217.7552,W,1.49,35.68,190515,,,A*40
$GPRMC,213125.000,A,3748.1687,N,12217.7551,W,1.14,359.53,190515,,,A*7F
$GPRMC,213126.000,A,3748.1692,N,12217.7550,W,1.59,12.99,190515,,,A*4A
$GPRMC,213127.000,A,3748.1698,N,12217.7550,W,1.62,13.08,190515,,,A*40
$GPRMC,213128.000,A,3748.1704,N,12217.7551,W,1.67,7.97,190515,,,A*7C
$GPRMC,213129.000,A,3748.1713,N,12217.7547,W,2.14,10.67,190515,,,A*42
$GPRMC,213130.000,A,3748.1721,N,12217.7543,W,1.67,11.05,190515,,,A*4D
$GPRMC,213131.000,A,3748.1732,N,12217.7540,W,2.75,5.99,190515,,,A*7D
$GPRMC,213132.000,A,3748.1740,N,12217.7539,W,2.08,5.86,190515,,,A*71
$GPRMC,213133.000,A,3748.1745,N,12217.7540,W,1.74,359.89,190515,,,A*76
$GPRMC,213134.000,A,3748.1753,N,12217.7535,W,1.91,11.95,190515,,,A*4D
$GPRMC,213135.000,A,3748.1759,N,12217.7532,W,1.49,8.80,190515,,,A*78
$GPRMC,213136.000,A,3748.1764,N,12217.7531,W,1.33,359.83,190515,,,A*7F
$GPRMC,213137.000,A,3748.1768,N,12217.7529,W,1.41,5.22,190515,,,A*7F
$GPRMC,213138.000,A,3748.1773,N,12217.7528,W,1.40,12.15,190515,,,A*48
$GPRMC,213139.000,A,3748.1776,N,12217.7527,W,1.35,11.53,190515,,,A*40
$GPRMC,213140.000,A,3748.1780,N,12217.7525,W,1.42,17.36,190515,,,A*40
$GPRMC,213141.000,A,3748.1783,N,12217.7523,W,1.25,8.78,190515,,,A*71
$GPRMC,213142.000,A,3748.1788,N,12217.7521,W,1.80,15.89,190515,,,A*46
$GPRMC,213143.000,A,3748.1794,N,12217.7520,W,2.24,12.20,190515,,,A*42
$GPRMC,213144.000,A,3748.1799,N,12217.7518,W,1.66,14.31,190515,,,A*40
$GPRMC,213145.000,A,3748.1803,N,12217.7516,W,1.92,9.67,190515,,,A*77
$GPRMC,213146.000,A,3748.1808,N,12217.7508,W,1.79,14.90,190515,,,A*41
$GPRMC,213147.000,A,3748.1813,N,12217.7505,W,2.22,11.72,190515,,,A*43
$GPRMC,213148.000,A,3748.1819,N,12217.7504,W,2.22,7.69,190515,,,A*7A
$GPRMC,213149.000,A,3748.1826,N,12217.7506,W,1.52,357.85,190515,,,A*75
$GPRMC,213150.000,A,3748.1829,N,12217.7506,W,1.27,0.47,190515,,,A*7F
$GPRMC,213151.000,A,3748.1833,N,12217.7506,W,1.59,2.17,190515,,,A*7B
$GPRMC,213152.000,A,3748.1838,N,12217.7507,W,1.50,0.40,190515,,,A*7B
$GPRMC,213153.000,A,3748.1846,N,12217.7501,W,2.12,6.64,190515,,,A*70
$GPRMC,213154.000,A,3748.1853,N,12217.7496,W,1.62,15.15,190515,,,A*4C
$GPRMC,213155.000,A,3748.1859,N,12217.7493,W,1.47,354.14,190515,,,A*72
$GPRMC,213156.000,A,3748.1862,N,12217.7489,W,1.06,3.66,190515,,,A*73
$GPRMC,213157.000,A,3748.1872,N,12217.7476,W,1.18,13.68,190515,,,A*43
$GPRMC,213158.000,A,3748.1880,N,12217.7473,W,1.87,3.12,190515,,,A*7E
$GPRMC,213159.000,A,3748.1885,N,12217.7476,W,1.87,356.50,190515,,,A*7A
$GPRMC,213200.000,A,3748.1892,N,12217.7478,W,2.03,3.40,190515,,,A*70
$GPRMC,213201.000,A,3748.1899,N,12217.7481,W,1.70,353.23,190515,,,A*78
$GPRMC,213202.000,A,3748.1907,N,12217.7481,W,2.30,8.72,190515,,,A*73
$GPRMC,213203.000,A,3748.1909,N,12217.7474,W,1.13,30.24,190515,,,A*4C
$GPRMC,213204.000,A,3748.1913,N,12217.7474,W,0.90,10.03,190515,,,A*4D
$GPRMC,213205.000,A,3748.1918,N,12217.7474,W,0.57,34.68,190515,,,A*47
$GPRMC,213206.000,A,3748.1928,N,12217.7482,W,1.08,358.93,190515,,,A*78
$GPRMC,213207.000,A,3748.1939,N,12217.7480,W,1.54,12.07,190515,,,A*42
$GPRMC,213208.000,A,3748.1942,N,12217.7474,W,1.29,21.31,190515,,,A*45
$GPRMC,213209.000,A,3748.1944,N,12217.7471,W,1.32,13.32,190515,,,A*4F
$GPRMC,213210.000,A,3748.1947,N,12217.7470,W,1.00,33.11,190515,,,A*47
$GPRMC,213211.000,A,3748.1951,N,12217.7469,W,1.29,6.74,190515,,,A*77
$GPRMC,213212.000,A,3748.1956,N,12217.7469,W,1.80,12.08,190515,,,A*4E
$GPRMC,213213.000,A,3748.1961,N,12217.7471,W,1.67,347.43,190515,,,A*77
$GPRMC,213214.000,A,3748.1966,N,12217.7472,W,1.87,0.63,190515,,,A*78
$GPRMC,213215.000,A,3748.1970,N,12217.7470,W,1.96,10.56,190515,,,A*4B
$GPRMC,213216.000,A,3748.1973,N,12217.7470,W,1.58,351.48,190515,,,A*70
$GPRMC,213217.000,A,3748.1976,N,12217.7470,W,1.38,348.01,190515,,,A*77
$GPRMC,213218.000,A,3748.1980,N,12217.7471,W,1.55,347.85,190515,,,A*78
$GPRMC,213219.000,A,3748.1984,N,12217.7471,W,1.47,344.89,190515,,,A*71
$GPRMC,213220.000,A,3748.1991,N,12217.7472,W,1.90,351.67,190515,,,A*72
$GPRMC,213221.000,A,3748.1996,N,12217.7475,W,1.16,335.47,190515,,,A*7D
$GPRMC,213222.000,A,3748.1999,N,12217.7467,W,0.65,337.74,190515,,,A*75
$GPRMC,213223.000,A,3748.2001,N,12217.7463,W,0.82,345.43,190515,,,A*73
$GPRMC,213224.000,A,3748.2006,N,12217.7451,W,1.14,350.97,190515,,,A*71
$GPRMC,213225.000,A,3748.2009,N,12217.7442,W,1.11,0.76,190515,,,A*71
$GPRMC,213226.000,A,3748.2012,N,12217.7434,W,1.52,39.67,190515,,,A*44
$GPRMC,213227.000,A,3748.2027,N,12217.7425,W,1.68,25.08,190515,,,A*4E
$GPRMC,213228.000,A,3748.2031,N,12217.7421,W,1.34,12.99,190515,,,A*47
$GPRMC,213229.000,A,3748.2035,N,12217.7416,W,1.47,354.69,190515,,,A*7C
$GPRMC,213230.000,A,3748.2041,N,12217.7412,W,2.05,8.24,190515,,,A*75
$GPRMC,213231.000,A,3748.2047,N,12217.7409,W,1.86,17.77,190515,,,A*48
$GPRMC,213232.000,A,3748.2053,N,12217.7405,W,1.74,15.65,190515,,,A*4E
$GPRMC,213233.000,A,3748.2059,N,12217.7398,W,2.36,7.66,190515,,,A*73
$GPRMC,213234.000,A,3748.2065,N,12217.7398,W,2.89,359.80,190515,,,A*7F
$GPRMC,213235.000,A,3748.2072,N,12217.7396,W,1.78,17.78,190515,,,A*45
$GPRMC,213236.000,A,3748.2073,N,12217.7394,W,1.82,2.83,190515,,,A*70
$GPRMC,213237.000,A,3748.2078,N,12217.7394,W,2.08,349.07,190515,,,A*7B
$GPRMC,213238.000,A,3748.2086,N,12217.7395,W,1.24,358.32,190515,,,A*7F
$GPRMC,213239.000,A,3748.2092,N,12217.7394,W,1.43,11.61,190515,,,A*43
$GPRMC,213240.000,A,3748.2097,N,12217.7393,W,1.56,4.16,190515,,,A*7F
$GPRMC,213241.000,A,3748.2102,N,12217.7393,W,1.25,18.10,190515,,,A*4C
$GPRMC,213242.000,A,3748.2106,N,12217.7390,W,1.42,39.12,190515,,,A*48
$GPRMC,213243.000,A,3748.2109,N,12217.7387,W,1.97,24.65,190515,,,A*44
$GPRMC,213244.000,A,3748.2115,N,12217.7386,W,1.88,359.70,190515,,,A*7C
$GPRMC,213245.000,A,3748.2122,N,12217.7386,W,2.11,356.71,190515,,,A*74
$GPRMC,213246.000,A,3748.2128,N,12217.7388,W,1.96,349.81,190515,,,A*7E
$GPRMC,213247.000,A,3748.2146,N,12217.7380,W,1.81,4.97,190515,,,A*74
$GPRMC,213248.000,A,3748.2159,N,12217.7376,W,0.78,341.67,190515,,,A*76
$GPRMC,213249.000,A,3748.2166,N,12217.7372,W,0.88,31.13,190515,,,A*47
$GPRMC,213250.000,A,3748.2167,N,12217.7363,W,1.36,34.85,190515,,,A*40
$GPRMC,213251.000,A,3748.2168,N,12217.7354,W,0.98,8.57,190515,,,A*7F
$GPRMC,213252.000,A,3748.2172,N,12217.7353,W,1.71,4.23,190515,,,A*79
$GPRMC,213253.000,A,3748.2181,N,12217.7352,W,2.43,10.76,190515,,,A*42
$GPRMC,213254.000,A,3748.2186,N,12217.7351,W,2.04,9.90,190515,,,A*72
$GPRMC,213255.000,A,3748.2193,N,12217.7351,W,2.52,6.38,190515,,,A*79
$GPRMC,213256.000,A,3748.2198,N,12217.7350,W,1.85,14.67,190515,,,A*40
$GPRMC,213257.000,A,3748.2202,N,12217.7351,W,1.77,15.12,190515,,,A*4E
$GPRMC,213258.000,A,3748.2207,N,12217.7346,W,1.94,353.90,190515,,,A*74
$GPRMC,213259.000,A,3748.2212,N,12217.7343,W,1.99,5.53,190515,,,A*76
$GPRMC,213300.000,A,3748.2218,N,12217.7341,W,1.39,20.96,190515,,,A*47
$GPRMC,213301.000,A,3748.2224,N,12217.7337,W,1.62,351.93,190515,,,A*76
$GPRMC,213302.000,A,3748.2232,N,12217.7327,W,2.23,10.41,190515,,,A*4C
$GPRMC,213303.000,A,3748.2235,N,12217.7326,W,1.72,17.84,190515,,,A*42
$GPRMC,213304.000,A,3748.2240,N,12217.7325,W,2.16,18.35,190515,,,A*40
$GPRMC,213305.000,A,3748.2249,N,12217.7325,W,1.75,16.54,190515,,,A*47
$GPRMC,213306.000,A,3748.2257,N,12217.7325,W,2.36,12.47,190515,,,A*49
$GPRMC,213307.000,A,3748.2264,N,12217.7323,W,2.41,13.60,190515,,,A*4A
$GPRMC,213308.000,A,3748.2272,N,12217.7322,W,2.49,5.09,190515,,,A*73
$GPRMC,213309.000,A,3748.2281,N,12217.7321,W,2.19,13.54,190515,,,A*47
$GPRMC,213310.000,A,3748.2287,N,12217.7317,W,1.85,16.67,190515,,,A*4F
$GPRMC,213311.000,A,3748.2293,N,12217.7315,W,2.31,0.10,190515,,,A*72
$GPRMC,213312.000,A,3748.2297,N,12217.7315,W,1.61,6.65,190515,,,A*77
$GPRMC,213313.000,A,3748.2302,N,12217.7314,W,1.73,14.97,190515,,,A*47
$GPRMC,213314.000,A,3748.2307,N,12217.7313,W,1.99,6.85,190515,,,A*76
$GPRMC,213315.000,A,3748.2311,N,12217.7313,W,1.93,347.86,190515,,,A*7F
$GPRMC,213316.000,A,3748.2313,N,12217.7315,W,1.20,351.18,190515,,,A*70
$GPRMC,213317.000,A,3748.2322,N,12217.7318,W,2.13,352.53,190515,,,A*71
$GPRMC,213318.000,A,3748.2330,N,12217.7321,W,2.02,354.84,190515,,,A*7B
$GPRMC,213319.000,A,3748.2334,N,12217.7320,W,1.18,10.40,190515,,,A*4C
$GPRMC,213320.000,A,3748.2340,N,12217.7319,W,1.61,358.24,190515,,,A*7C
$GPRMC,213321.000,A,3748.2343,N,12217.7319,W,1.32,355.90,190515,,,A*7A
$GPRMC,213322.000,A,3748.2347,N,12217.7318,W,1.60,5.34,190515,,,A*73
$GPRMC,213323.000,A,3748.2352,N,12217.7316,W,2.09,6.75,190515,,,A*72
$GPRMC,213324.000,A,3748.2357,N,12217.7316,W,1.84,7.61,190515,,,A*72
$GPRMC,213325.000,A,3748.2362,N,12217.7314,W,1.21,21.24,190515,,,A*4D
$GPRMC,213326.000,A,3748.2366,N,12217.7306,W,1.05,20.55,190515,,,A*48
$GPRMC,213327.000,A,3748.2370,N,12217.7299,W,1.31,8.38,190515,,,A*7F
$GPRMC,213328.000,A,3748.2376,N,12217.7300,W,1.51,355.39,190515,,,A*7B
$GPRMC,213329.000,A,3748.2381,N,12217.7299,W,1.73,1.61,190515,,,A*7C
$GPRMC,213330.000,A,3748.2386,N,12217.7300,W,1.32,354.62,190515,,,A*77
$GPRMC,213331.000,A,3748.2389,N,12217.7299,W,1.01,355.22,190515,,,A*7D
$GPRMC,213332.000,A,3748.2390,N,12217.7295,W,1.33,16.16,190515,,,A*48
$GPRMC,213333.000,A,3748.2393,N,12217.7291,W,1.22,38.00,190515,,,A*45
$GPRMC,213334.000,A,3748.2393,N,12217.7287,W,1.09,3.03,190515,,,A*77
$GPRMC,213335.000,A,3748.2399,N,12217.7289,W,1.30,353.35,190515,,,A*7B
$GPRMC,213336.000,A,3748.2403,N,12217.7290,W,1.08,346.00,190515,,,A*7D
$GPRMC,213337.000,A,3748.2405,N,12217.7289,W,0.87,5.20,190515,,,A*72
$GPRMC,213338.000,A,3748.2407,N,12217.7289,W,0.77,341.29,190515,,,A*7A
$GPRMC,213339.000,A,3748.2412,N,12217.7270,W,0.84,16.62,190515,,,A*4B
$GPRMC,213340.000,A,3748.2420,N,12217.7262,W,0.51,340.60,190515,,,A*7D
$GPRMC,213341.000,A,3748.2426,N,12217.7257,W,0.57,16.21,190515,,,A*4F
$GPRMC,213342.000,A,3748.2429,N,12217.7254,W,0.80,24.90,190515,,,A*41
$GPRMC,213343.000,A,3748.2429,N,12217.7256,W,0.38,339.33,190515,,,A*77
$GPRMC,213344.000,A,3748.2427,N,12217.7261,W,0.11,344.46,190515,,,A*79
$GPRMC,213345.000,A,3748.2425,N,12217.7266,W,0.80,313.43,190515,,,A*72
$GPRMC,213346.000,A,3748.2425,N,12217.7269,W,0.22,325.99,190515,,,A*74
$GPRMC,213347.000,A,3748.2425,N,12217.7271,W,0.50,316.55,190515,,,A*79
$GPRMC,213348.000,A,3748.2426,N,12217.7271,W,0.52,1.01,190515,,,A*73
$GPRMC,213349.000,A,3748.2426,N,12217.7272,W,0.18,41.76,190515,,,A*4B
$GPRMC,213350.000,A,3748.2426,N,12217.7274,W,0.25,355.45,190515,,,A*7D
$GPRMC,213351.000,A,3748.2426,N,12217.7273,W,0.73,43.53,190515,,,A*4B
$GPRMC,213352.000,A,3748.2428,N,12217.7273,W,1.26,8.85,190515,,,A*73
$GPRMC,213353.000,A,3748.2431,N,12217.7272,W,1.10,28.70,190515,,,A*46
$GPRMC,213354.000,A,3748.2433,N,12217.7272,W,0.77,7.47,190515,,,A*7A
$GPRMC,213355.000,A,3748.2435,N,12217.7273,W,0.81,5.42,190515,,,A*72
$GPRMC,213356.000,A,3748.2438,N,12217.7273,W,1.27,3.81,190515,,,A*78
$GPRMC,213357.000,A,3748.2438,N,12217.7261,W,1.49,351.81,190515,,,A*76
$GPRMC,213358.000,A,3748.2441,N,12217.7266,W,1.36,310.83,190515,,,A*7F
$GPRMC,213359.000,A,3748.2452,N,12217.7281,W,1.70,295.14,190515,,,A*75
$GPRMC,213400.000,A,3748.2458,N,12217.7292,W,1.18,302.97,190515,,,A*7C
$GPRMC,213401.000,A,3748.2465,N,12217.7299,W,0.52,278.93,190515,,,A*7F
$GPRMC,213402.000,A,3748.2470,N,12217.7306,W,0.30,295.30,190515,,,A*71
$GPRMC,213403.000,A,3748.2472,N,12217.7312,W,0.43,353.13,190515,,,A*79
$GPRMC,213404.000,A,3748.2475,N,12217.7312,W,0.24,274.57,190515,,,A*7C
$GPRMC,213405.000,A,3748.2474,N,12217.7319,W,1.35,220.24,190515,,,A*73
$GPRMC,213406.000,A,3748.2470,N,12217.7322,W,1.49,226.98,190515,,,A*76
$GPRMC,213407.000,A,3748.2466,N,12217.7327,W,0.94,236.93,190515,,,A*7E
$GPRMC,213408.000,A,3748.2466,N,12217.7332,W,0.65,291.98,190515,,,A*7D
$GPRMC,213409.000,A,3748.2468,N,12217.7336,W,1.53,294.79,190515,,,A*78
$GPRMC,213410.000,A,3748.2472,N,12217.7341,W,1.73,264.61,190515,,,A*7F
$GPRMC,213411.000,A,3748.2480,N,12217.7348,W,1.98,296.17,190515,,,A*73
$GPRMC,213412.000,A,3748.2493,N,12217.7354,W,1.42,283.55,190515,,,A*7A
$GPRMC,213413.000,A,3748.2493,N,12217.7362,W,1.26,283.51,190515,,,A*78
$GPRMC,213414.000,A,3748.2493,N,12217.7359,W,0.91,285.71,190515,,,A*7E
$GPRMC,213415.000,A,3748.2498,N,12217.7366,W,2.26,275.93,190515,,,A*75
$GPRMC,213416.000,A,3748.2497,N,12217.7375,W,2.01,254.36,190515,,,A*72
$GPRMC,213417.000,A,3748.2498,N,12217.7384,W,1.09,264.01,190515,,,A*7E
$GPRMC,213418.000,A,3748.2498,N,12217.7392,W,1.62,235.65,190515,,,A*7D
$GPRMC,213419.000,A,3748.2495,N,12217.7399,W,2.55,223.12,190515,,,A*7A
$GPRMC,213420.000,A,3748.2490,N,12217.7408,W,2.51,239.24,190515,,,A*70
$GPRMC,213421.000,A,3748.2487,N,12217.7415,W,1.73,252.81,190515,,,A*7A
$GPRMC,213422.000,A,3748.2485,N,12217.7425,W,2.08,248.70,190515,,,A*72
$GPRMC,213423.000,A,3748.2487,N,12217.7433,W,1.72,246.99,190515,,,A*71
$GPRMC,213424.000,A,3748.2488,N,12217.7442,W,1.82,272.36,190515,,,A*72
$GPRMC,213425.000,A,3748.2489,N,12217.7452,W,1.91,292.37,190515,,,A*7E
$GPRMC,213426.000,A,3748.2492,N,12217.7462,W,2.38,276.43,190515,,,A*7D
$GPRMC,213427.000,A,3748.2493,N,12217.7472,W,1.86,243.22,190515,,,A*7B
$GPRMC,213428.000,A,3748.2494,N,12217.7478,W,1.13,244.33,190515,,,A*72
$GPRMC,213429.000,A,3748.2495,N,12217.7484,W,1.56,248.36,190515,,,A*79
$GPRMC,213430.000,A,3748.2499,N,12217.7491,W,1.45,282.45,190515,,,A*79
$GPRMC,213431.000,A,3748.2502,N,12217.7497,W,1.52,304.08,190515,,,A*7D
$GPRMC,213432.000,A,3748.2506,N,12217.7504,W,1.37,304.87,190515,,,A*75
$GPRMC,213433.000,A,3748.2504,N,12217.7510,W,1.38,297.03,190515,,,A*7B
$GPRMC,213434.000,A,3748.2499,N,12217.7519,W,1.41,306.04,190515,,,A*70
$GPRMC,213435.000,A,3748.2508,N,12217.7523,W,1.14,281.63,190515,,,A*7E
$GPRMC,213436.000,A,3748.2515,N,12217.7526,W,1.41,254.51,190515,,,A*7D
$GPRMC,213437.000,A,3748.2516,N,12217.7531,W,1.22,269.60,190515,,,A*70
$GPRMC,213438.000,A,3748.2514,N,12217.7535,W,1.30,284.20,190515,,,A*7D
$GPRMC,213439.000,A,3748.2514,N,12217.7547,W,2.33,275.60,190515,,,A*73
$GPRMC,213440.000,A,3748.2511,N,12217.7563,W,2.33,275.32,190515,,,A*79
$GPRMC,213441.000,A,3748.2514,N,12217.7573,W,1.29,293.58,190515,,,A*70
$GPRMC,213442.000,A,3748.2516,N,12217.7581,W,1.44,322.11,190515,,,A*71
$GPRMC,213443.000,A,3748.2527,N,12217.7592,W,0.98,293.46,190515,,,A*79
$GPRMC,213444.000,A,3748.2540,N,12217.7605,W,1.48,313.72,190515,,,A*70
$GPRMC,213445.000,A,3748.2546,N,12217.7612,W,1.22,277.43,190515,,,A*7C
$GPRMC,213446.000,A,3748.2548,N,12217.7617,W,1.03,275.45,190515,,,A*73
$GPRMC,213447.000,A,3748.2548,N,12217.7623,W,0.85,270.93,190515,,,A*74
$GPRMC,213448.000,A,3748.2547,N,12217.7625,W,2.08,234.07,190515,,,A*78
$GPRMC,213449.000,A,3748.2547,N,12217.7629,W,1.70,240.56,190515,,,A*7E
$GPRMC,213450.000,A,3748.2549,N,12217.7635,W,1.06,254.65,190515,,,A*71
$GPRMC,213451.000,A,3748.2551,N,12217.7644,W,1.13,286.78,190515,,,A*78
$GPRMC,213452.000,A,3748.2553,N,12217.7657,W,1.69,257.71,190515,,,A*73
$GPRMC,213453.000,A,3748.2554,N,12217.7668,W,1.93,265.75,190515,,,A*79
$GPRMC,213454.000,A,3748.2553,N,12217.7678,W,1.48,266.39,190515,,,A*75
$GPRMC,213455.000,A,3748.2554,N,12217.7686,W,1.04,294.19,190515,,,A*75
$GPRMC,213456.000,A,3748.2555,N,12217.7694,W,1.50,268.61,190515,,,A*79
$GPRMC,213457.000,A,3748.2557,N,12217.7696,W,1.18,270.26,190515,,,A*7E
$GPRMC,213458.000,A,3748.2559,N,12217.7700,W,1.10,283.14,190515,,,A*74
$GPRMC,213459.000,A,3748.2561,N,12217.7699,W,1.31,317.78,190515,,,A*7A
$GPRMC,213500.000,A,3748.2564,N,12217.7705,W,1.40,322.40,190515,,,A*7D
$GPRMC,213501.000,A,3748.2575,N,12217.7709,W,1.39,314.45,190515,,,A*7E
$GPRMC,213502.000,A,3748.2576,N,12217.7716,W,1.98,269.97,190515,,,A*7F
$GPRMC,213503.000,A,3748.2574,N,12217.7726,W,1.72,257.91,190515,,,A*70
$GPRMC,213504.000,A,3748.2571,N,12217.7738,W,1.81,254.78,190515,,,A*75
$GPRMC,213505.000,A,3748.2578,N,12217.7745,W,1.15,260.73,190515,,,A*76
$GPRMC,213506.000,A,3748.2588,N,12217.7749,W,0.99,296.11,190515,,,A*7E
$GPRMC,213507.000,A,3748.2596,N,12217.7753,W,1.18,358.18,190515,,,A*79
$GPRMC,213508.000,A,3748.2596,N,12217.7759,W,0.70,338.51,190515,,,A*78
$GPRMC,213509.000,A,3748.2595,N,12217.7768,W,1.36,268.83,190515,,,A*70
$GPRMC,213510.000,A,3748.2593,N,12217.7778,W,1.38,263.06,190515,,,A*77
$GPRMC,213511.000,A,3748.2588,N,12217.7788,W,1.00,271.76,190515,,,A*7C
$GPRMC,213512.000,A,3748.2586,N,12217.7795,W,1.78,280.75,190515,,,A*7F
$GPRMC,213513.000,A,3748.2585,N,12217.7803,W,1.55,261.74,190515,,,A*7C
$GPRMC,213514.000,A,3748.2581,N,12217.7810,W,1.49,277.29,190515,,,A*7F
$GPRMC,213515.000,A,3748.2583,N,12217.7817,W,1.92,289.42,190515,,,A*71
$GPRMC,213516.000,A,3748.2587,N,12217.7825,W,2.08,290.01,190515,,,A*78
$GPRMC,213517.000,A,3748.2590,N,12217.7834,W,1.71,282.34,190515,,,A*77
$GPRMC,213518.000,A,3748.2590,N,12217.7840,W,1.48,281.89,190515,,,A*74
$GPRMC,213519.000,A,3748.2589,N,12217.7847,W,1.69,280.12,190515,,,A*7A
$GPRMC,213520.000,A,3748.2596,N,12217.7852,W,1.85,292.15,190515,,,A*7C
$GPRMC,213521.000,A,3748.2595,N,12217.7860,W,1.55,289.88,190515,,,A*7C
$GPRMC,213522.000,A,3748.2604,N,12217.7864,W,1.65,289.59,190515,,,A*7F
$GPRMC,213523.000,A,3748.2608,N,12217.7870,W,2.25,297.99,190515,,,A*73
$GPRMC,213524.000,A,3748.2609,N,12217.7879,W,1.22,282.77,190515,,,A*7C
$GPRMC,213525.000,A,3748.2602,N,12217.7885,W,0.89,152.07,190515,,,A*7C
$GPRMC,213526.000,A,3748.2597,N,12217.7887,W,0.10,174.05,190515,,,A*74
$GPRMC,213527.000,A,3748.2599,N,12217.7888,W,0.74,322.64,190515,,,A*70
$GPRMC,213528.000,A,3748.2599,N,12217.7891,W,1.94,299.79,190515,,,A*75
$GPRMC,213529.000,A,3748.2601,N,12217.7898,W,2.48,278.47,190515,,,A*7F
$GPRMC,213530.000,A,3748.2606,N,12217.7906,W,2.39,294.20,190515,,,A*73
$GPRMC,213531.000,A,3748.2608,N,12217.7916,W,2.25,287.55,190515,,,A*70
$GPRMC,213532.000,A,3748.2609,N,12217.7925,W,2.25,284.25,190515,,,A*76
$GPRMC,213533.000,A,3748.2611,N,12217.7931,W,1.97,300.51,190515,,,A*7F
$GPRMC,213534.000,A,3748.2612,N,12217.7938,W,2.22,288.46,190515,,,A*78
$GPRMC,213535.000,A,3748.2615,N,12217.7944,W,1.95,286.74,190515,,,A*75
$GPRMC,213536.000,A,3748.2618,N,12217.7952,W,1.98,285.87,190515,,,A*7E
$GPRMC,213537.000,A,3748.2621,N,12217.7959,W,1.80,286.44,190515,,,A*7B
$GPRMC,213538.000,A,3748.2621,N,12217.7966,W,1.95,273.14,190515,,,A*73
$GPRMC,213539.000,A,3748.2627,N,12217.7972,W,1.99,285.29,190515,,,A*7A
$GPRMC,213540.000,A,3748.2633,N,12217.7979,W,2.05,297.50,190515,,,A*71
$GPRMC,213541.000,A,3748.2636,N,12217.7989,W,1.72,298.88,190515,,,A*73
$GPRMC,213542.000,A,3748.2643,N,12217.7996,W,1.55,272.44,190515,,,A*7D
$GPRMC,213543.000,A,3748.2642,N,12217.8002,W,1.33,278.69,190515,,,A*73
$GPRMC,213544.000,A,3748.2642,N,12217.8008,W,1.38,271.13,190515,,,A*71
$GPRMC,213545.000,A,3748.2647,N,12217.8014,W,1.19,289.40,190515,,,A*7A
$GPRMC,213546.000,A,3748.2654,N,12217.8017,W,1.21,269.74,190515,,,A*7A
$GPRMC,213547.000,A,3748.2654,N,12217.8021,W,1.10,268.58,190515,,,A*73
$GPRMC,213548.000,A,3748.2654,N,12217.8026,W,0.80,303.97,190515,,,A*7C
$GPRMC,213549.000,A,3748.2655,N,12217.8030,W,0.50,242.55,190515,,,A*7C
$GPRMC,213550.000,A,3748.2655,N,12217.8035,W,0.92,290.75,190515,,,A*72
$GPRMC,213551.000,A,3748.2654,N,12217.8040,W,1.47,281.92,190515,,,A*70
$GPRMC,213552.000,A,3748.2657,N,12217.8047,W,1.48,263.86,190515,,,A*71
$GPRMC,213553.000,A,3748.2658,N,12217.8052,W,1.53,280.22,190515,,,A*72
$GPRMC,213554.000,A,3748.2660,N,12217.8060,W,1.86,284.94,190515,,,A*7E
$GPRMC,213555.000,A,3748.2664,N,12217.8066,W,1.63,274.69,190515,,,A*7B
$GPRMC,213556.000,A,3748.2670,N,12217.8073,W,1.94,275.04,190515,,,A*7B
$GPRMC,213557.000,A,3748.2683,N,12217.8077,W,2.11,271.70,190515,,,A*7B
$GPRMC,213558.000,A,3748.2686,N,12217.8085,W,1.62,282.45,190515,,,A*71
$GPRMC,213559.000,A,3748.2690,N,12217.8093,W,1.71,278.34,190515,,,A*71
$GPRMC,213600.000,A,3748.2684,N,12217.8104,W,1.19,274.06,190515,,,A*77
$GPRMC,213601.000,A,3748.2686,N,12217.8109,W,1.23,298.76,190515,,,A*75
$GPRMC,213602.000,A,3748.2688,N,12217.8118,W,1.38,282.51,190515,,,A*7C
$GPRMC,213603.000,A,3748.2688,N,12217.8125,W,1.14,263.41,190515,,,A*73
$GPRMC,213604.000,A,3748.2691,N,12217.8130,W,0.74,279.97,190515,,,A*7F
$GPRMC,213605.000,A,3748.2690,N,12217.8136,W,0.39,264.52,190515,,,A*75
$GPRMC,213606.000,A,3748.2689,N,12217.8142,W,0.98,271.26,190515,,,A*71
$GPRMC,213607.000,A,3748.2689,N,12217.8148,W,1.48,263.13,190515,,,A*73
$GPRMC,213608.000,A,3748.2688,N,12217.8157,W,1.86,259.28,190515,,,A*70
$GPRMC,213609.000,A,3748.2686,N,12217.8165,W,1.26,302.58,190515,,,A*7C
$GPRMC,213610.000,A,3748.2682,N,12217.8172,W,1.34,311.90,190515,,,A*73
$GPRMC,213611.000,A,3748.2681,N,12217.8180,W,1.16,310.26,190515,,,A*70
$GPRMC,213612.000,A,3748.2682,N,12217.8184,W,1.36,242.33,190515,,,A*74
$GPRMC,213613.000,A,3748.2687,N,12217.8190,W,1.44,258.89,190515,,,A*7A
$GPRMC,213614.000,A,3748.2688,N,12217.8198,W,0.90,284.68,190515,,,A*7C
$GPRMC,213615.000,A,3748.2690,N,12217.8203,W,0.77,288.41,190515,,,A*7B
$GPRMC,213616.000,A,3748.2694,N,12217.8207,W,1.12,340.40,190515,,,A*7E
$GPRMC,213617.000,A,3748.2696,N,12217.8218,W,1.92,282.93,190515,,,A*7A
$GPRMC,213618.000,A,3748.2695,N,12217.8227,W,1.90,288.14,190515,,,A*7D
$GPRMC,213619.000,A,3748.2697,N,12217.8233,W,1.10,302.57,190515,,,A*77
$GPRMC,213620.000,A,3748.2696,N,12217.8239,W,0.99,304.06,190515,,,A*74
$GPRMC,213621.000,A,3748.2699,N,12217.8245,W,0.87,268.51,190515,,,A*77
$GPRMC,213622.000,A,3748.2700,N,12217.8252,W,1.44,273.38,190515,,,A*78
$GPRMC,213623.000,A,3748.2699,N,12217.8259,W,1.26,280.04,190515,,,A*74
$GPRMC,213624.000,A,3748.2701,N,12217.8268,W,1.28,264.71,190515,,,A*77
$GPRMC,213625.000,A,3748.2701,N,12217.8275,W,1.15,250.54,190515,,,A*74
$GPRMC,213626.000,A,3748.2697,N,12217.8281,W,1.15,248.51,190515,,,A*7E
$GPRMC,213627.000,A,3748.2697,N,12217.8286,W,1.10,276.52,190515,,,A*73
$GPRMC,213628.000,A,3748.2702,N,12217.8290,W,0.87,291.94,190515,,,A*7A
$GPRMC,213629.000,A,3748.2709,N,12217.8292,W,1.30,312.45,190515,,,A*79
$GPRMC,213630.000,A,3748.2721,N,12217.8296,W,1.53,304.96,190515,,,A*73
$GPRMC,213631.000,A,3748.2728,N,12217.8302,W,1.99,313.53,190515,,,A*7E
$GPRMC,213632.000,A,3748.2726,N,12217.8310,W,1.33,318.02,190515,,,A*7F
$GPRMC,213633.000,A,3748.2737,N,12217.8314,W,1.68,299.20,190515,,,A*7C
$GPRMC,213634.000,A,3748.2747,N,12217.8318,W,1.73,304.91,190515,,,A*75
$GPRMC,213635.000,A,3748.2747,N,12217.8327,W,2.22,284.04,190515,,,A*7A
$GPRMC,213636.000,A,3748.2748,N,12217.8337,W,2.01,268.59,190515,,,A*7C
$GPRMC,213637.000,A,3748.2746,N,12217.8346,W,2.06,259.10,190515,,,A*7D
$GPRMC,213638.000,A,3748.2742,N,12217.8356,W,2.51,256.40,190515,,,A*7F
$GPRMC,213639.000,A,3748.2742,N,12217.8366,W,2.37,277.95,190515,,,A*76
$GPRMC,213640.000,A,3748.2749,N,12217.8375,W,1.48,306.22,190515,,,A*71
$GPRMC,213641.000,A,3748.2765,N,12217.8377,W,1.53,316.57,190515,,,A*75
$GPRMC,213642.000,A,3748.2778,N,12217.8381,W,1.82,303.85,190515,,,A*74
$GPRMC,213643.000,A,3748.2790,N,12217.8386,W,2.54,324.29,190515,,,A*7F
$GPRMC,213644.000,A,3748.2793,N,12217.8395,W,2.34,322.75,190515,,,A*70
$GPRMC,213645.000,A,3748.2796,N,12217.8403,W,1.70,314.10,190515,,,A*79
$GPRMC,213646.000,A,3748.2793,N,12217.8417,W,1.65,275.32,190515,,,A*78
$GPRMC,213647.000,A,3748.2800,N,12217.8424,W,1.15,265.31,190515,,,A*79
$GPRMC,213648.000,A,3748.2799,N,12217.8431,W,1.01,283.82,190515,,,A*78
$GPRMC,213649.000,A,3748.2800,N,12217.8435,W,1.26,322.40,190515,,,A*73
$GPRMC,213650.000,A,3748.2801,N,12217.8440,W,0.90,332.15,190515,,,A*75
$GPRMC,213651.000,A,3748.2798,N,12217.8444,W,0.35,245.43,190515,,,A*72
$GPRMC,213652.000,A,3748.2776,N,12217.8456,W,1.83,198.22,190515,,,A*7A
$GPRMC,213653.000,A,3748.2753,N,12217.8465,W,2.87,177.92,190515,,,A*71
$GPRMC,213654.000,A,3748.2738,N,12217.8469,W,2.34,184.72,190515,,,A*7D
$GPRMC,213655.000,A,3748.2725,N,12217.8474,W,2.59,184.45,190515,,,A*73
$GPRMC,213656.000,A,3748.2712,N,12217.8479,W,2.13,182.42,190515,,,A*76
$GPRMC,213657.000,A,3748.2699,N,12217.8487,W,1.78,185.49,190515,,,A*76
$GPRMC,213658.000,A,3748.2689,N,12217.8492,W,2.10,160.94,190515,,,A*7A
$GPRMC,213659.000,A,3748.2681,N,12217.8493,W,1.39,157.55,190515,,,A*73
$GPRMC,213700.000,A,3748.2671,N,12217.8499,W,1.79,172.10,190515,,,A*79
$GPRMC,213701.000,A,3748.2664,N,12217.8500,W,1.62,183.81,190515,,,A*71
$GPRMC,213702.000,A,3748.2655,N,12217.8504,W,1.78,184.81,190515,,,A*78
$GPRMC,213703.000,A,3748.2650,N,12217.8507,W,1.98,186.88,190515,,,A*7A
$GPRMC,213704.000,A,3748.2641,N,12217.8511,W,1.73,193.82,190515,,,A*71
$GPRMC,213705.000,A,3748.2634,N,12217.8513,W,1.73,181.65,190515,,,A*7A
$GPRMC,213706.000,A,3748.2627,N,12217.8516,W,1.63,180.42,190515,,,A*7B
$GPRMC,213707.000,A,3748.2622,N,12217.8517,W,1.33,202.90,190515,,,A*7D
