$ADVER,3080,2.3
$GPRMC,000728.438,A,3748.8000,N,12217.8630,W,0.41,168.53,131010,,,A*7A
$GPRMC,000729.438,A,3748.8000,N,12217.8629,W,0.32,196.13,131010,,,A*72
$GPRMC,000730.000,A,3748.8000,N,12217.8629,W,0.24,184.98,131010,,,A*72
$GPRMC,000731.000,A,3748.8009,N,12217.8610,W,0.22,76.82,131010,,,A*41
$GPRMC,000732.000,A,3748.8019,N,12217.8623,W,0.37,223.11,131010,,,A*7F
$GPRMC,000733.000,A,3748.8021,N,12217.8611,W,0.14,116.55,131010,,,A*70
$GPRMC,000734.000,A,3748.8018,N,12217.8612,W,0.75,135.12,131010,,,A*7B
$GPRMC,000735.000,A,3748.8021,N,12217.8612,W,0.32,190.36,131010,,,A*7A
$GPRMC,000736.000,A,3748.8021,N,12217.8610,W,0.03,81.64,131010,,,A*4F
$GPRMC,000737.000,A,3748.8020,N,12217.8608,W,0.28,158.64,131010,,,A*7A
$GPRMC,000738.000,A,3748.8019,N,12217.8607,W,0.33,164.76,131010,,,A*76
$GPRMC,000739.000,A,3748.8017,N,12217.8607,W,0.19,194.74,131010,,,A*7C
$GPRMC,000740.000,A,3748.8016,N,12217.8607,W,0.19,175.56,131010,,,A*7C
$GPRMC,000741.000,A,3748.8016,N,12217.8607,W,0.18,183.40,131010,,,A*72
$GPRMC,000742.000,A,3748.8015,N,12217.8607,W,0.18,162.70,131010,,,A*7E
$GPRMC,000743.000,A,3748.8015,N,12217.8607,W,0.18,170.92,131010,,,A*70
$GPRMC,000744.000,A,3748.8014,N,12217.8607,W,0.18,161.30,131010,,,A*7E
$GPRMC,000745.000,A,3748.8014,N,12217.8607,W,0.19,159.14,131010,,,A*73
$GPRMC,000746.000,A,3748.8013,N,12217.8608,W,0.16,189.04,131010,,,A*7B
$GPRMC,000747.000,A,3748.8013,N,12217.8608,W,0.19,169.20,131010,,,A*7D
$GPRMC,000748.000,A,3748.8012,N,12217.8608,W,0.19,173.04,131010,,,A*7E
$GPRMC,000749.000,A,3748.8012,N,12217.8608,W,0.17,163.09,131010,,,A*7D
$GPRMC,000750.000,A,3748.8012,N,12217.8608,W,0.19,169.90,131010,,,A*71
$GPRMC,000751.000,A,3748.8011,N,12217.8608,W,0.20,173.93,131010,,,A*71
$GPRMC,000752.000,A,3748.8011,N,12217.8608,W,0.18,171.37,131010,,,A*75
$GPRMC,000753.000,A,3748.8010,N,12217.8608,W,0.20,167.04,131010,,,A*79
$GPRMC,000754.000,A,3748.8009,N,12217.8608,W,0.36,158.32,131010,,,A*78
$GPRMC,000755.000,A,3748.8008,N,12217.8608,W,0.23,177.28,131010,,,A*7A
$GPRMC,000756.000,A,3748.8008,N,12217.8608,W,0.20,213.49,131010,,,A*7C
$GPRMC,000757.000,A,3748.8007,N,12217.8608,W,0.23,179.12,131010,,,A*70
$GPRMC,000758.000,A,3748.8007,N,12217.8608,W,0.24,178.22,131010,,,A*7A
$GPRMC,000759.000,A,3748.8006,N,12217.8608,W,0.18,159.37,131010,,,A*72
$GPRMC,000800.000,A,3748.8006,N,12217.8608,W,0.19,172.11,131010,,,A*7D
$GPRMC,000801.000,A,3748.8005,N,12217.8608,W,0.18,164.56,131010,,,A*7A
$GPRMC,000802.000,A,3748.8005,N,12217.8608,W,0.17,170.49,131010,,,D*78
$GPRMC,000803.000,A,3748.8005,N,12217.8608,W,0.18,180.59,131010,,,D*78
$GPRMC,000804.000,A,3748.8004,N,12217.8608,W,0.19,189.96,131010,,,D*75
$GPRMC,000805.000,A,3748.8004,N,12217.8608,W,0.16,177.84,131010,,,D*79
$GPRMC,000806.000,A,3748.8004,N,12217.8608,W,0.17,195.96,131010,,,D*74
$GPRMC,000807.000,A,3748.8003,N,12217.8608,W,0.16,191.23,131010,,,D*79
$GPRMC,000808.000,A,3748.8003,N,12217.8608,W,0.17,156.08,131010,,,D*75
$GPRMC,000809.000,A,3748.8003,N,12217.8608,W,0.20,165.88,131010,,,D*78
$GPRMC,000810.000,A,3748.8002,N,12217.8608,W,0.21,151.85,131010,,,D*7A
$GPRMC,000811.000,A,3748.8002,N,12217.8607,W,0.22,161.66,131010,,,D*79
$GPRMC,000812.000,A,3748.8002,N,12217.8607,W,0.22,151.79,131010,,,D*77
$GPRMC,000813.000,A,3748.8001,N,12217.8607,W,0.26,165.29,131010,,,D*73
$GPRMC,000814.000,A,3748.8001,N,12217.8606,W,0.41,105.39,131010,,,D*73
$GPRMC,000815.000,A,3748.8001,N,12217.8605,W,0.19,128.79,131010,,,D*77
$GPRMC,000816.000,A,3748.8000,N,12217.8605,W,0.17,162.05,131010,,,D*7E
$GPRMC,000817.000,A,3748.8000,N,12217.8605,W,0.19,192.05,131010,,,D*7E
$GPRMC,000818.000,A,3748.8000,N,12217.8605,W,0.17,189.97,131010,,,D*7E
$GPRMC,000819.000,A,3748.7999,N,12217.8605,W,0.17,189.17,131010,,,D*71
$GPRMC,000820.000,A,3748.7999,N,12217.8605,W,0.20,169.77,131010,,,D*77
$GPRMC,000821.000,A,3748.7998,N,12217.8605,W,0.22,168.33,131010,,,D*74
$GPRMC,000822.000,A,3748.7998,N,12217.8605,W,0.17,192.11,131010,,,D*74
$GPRMC,000823.000,A,3748.7998,N,12217.8605,W,0.16,175.97,131010,,,D*73
$GPRMC,000824.000,A,3748.7998,N,12217.8605,W,0.17,172.43,131010,,,D*7B
$GPRMC,000825.000,A,3748.7997,N,12217.8604,W,0.20,145.55,131010,,,D*73
$GPRMC,000826.000,A,3748.7997,N,12217.8604,W,0.13,184.49,131010,,,D*70
$GPRMC,000827.000,A,3748.7998,N,12217.8604,W,0.24,223.77,131010,,,D*79
$GPRMC,000828.000,A,3748.7998,N,12217.8604,W,0.24,237.81,131010,,,D*7A
$GPRMC,000829.000,A,3748.7998,N,12217.8605,W,0.16,211.75,131010,,,D*74
$GPRMC,000830.000,A,3748.7998,N,12217.8604,W,0.17,211.95,131010,,,D*72
$GPRMC,000831.000,A,3748.7998,N,12217.8604,W,0.17,241.88,131010,,,D*7A
$GPRMC,000832.000,A,3748.7999,N,12217.8604,W,0.10,106.03,131010,,,D*7C
$GPRMC,000833.000,A,3748.7999,N,12217.8602,W,0.34,80.93,131010,,,D*4B
$GPRMC,000834.000,A,3748.7999,N,12217.8602,W,0.10,113.72,131010,,,D*7E
$GPRMC,000835.000,A,3748.7999,N,12217.8601,W,0.12,123.08,131010,,,D*70
$GPRMC,000836.000,A,3748.7999,N,12217.8603,W,0.14,150.12,131010,,,D*78
$GPRMC,000837.000,A,3748.7999,N,12217.8604,W,0.18,138.23,131010,,,D*7E
$GPRMC,000838.000,A,3748.8001,N,12217.8601,W,0.06,127.91,131010,,,D*7B
$GPRMC,000839.000,A,3748.8002,N,12217.8601,W,0.03,138.66,131010,,,D*7A
$GPRMC,000840.000,A,3748.8002,N,12217.8600,W,0.05,179.78,131010,,,D*79
$GPRMC,000841.000,A,3748.8003,N,12217.8600,W,0.02,111.86,131010,,,D*71
$GPRMC,000842.000,A,3748.8004,N,12217.8600,W,0.08,134.84,131010,,,D*7A
$GPRMC,000843.000,A,3748.8004,N,12217.8600,W,0.28,225.75,131010,,,D*74
$GPRMC,000844.000,A,3748.8004,N,12217.8601,W,0.30,206.16,131010,,,D*7F
$GPRMC,000845.000,A,3748.8004,N,12217.8600,W,0.41,54.69,131010,,,D*44
$GPRMC,000846.000,A,3748.8004,N,12217.8600,W,0.15,192.29,131010,,,D*79
$GPRMC,000847.000,A,3748.8004,N,12217.8601,W,0.18,201.84,131010,,,D*7A
$GPRMC,000848.000,A,3748.8004,N,12217.8601,W,0.13,114.01,131010,,,D*74
$GPRMC,000849.000,A,3748.8004,N,12217.8601,W,0.23,143.64,131010,,,D*77
$GPRMC,000850.000,A,3748.8004,N,12217.8600,W,0.33,74.33,131010,,,D*48
$GPRMC,000851.000,A,3748.8004,N,12217.8600,W,0.22,99.31,131010,,,D*48
$GPRMC,000852.000,A,3748.8004,N,12217.8601,W,0.80,233.99,131010,,,D*72
$GPRMC,000853.000,A,3748.8002,N,12217.8604,W,0.93,210.15,131010,,,D*77
$GPRMC,000854.000,A,3748.7999,N,12217.8606,W,1.08,200.45,131010,,,D*71
$GPRMC,000855.000,A,3748.7996,N,12217.8607,W,1.45,198.30,131010,,,D*77
$GPRMC,000856.000,A,3748.7992,N,12217.8609,W,1.63,201.37,131010,,,D*7E
$GPRMC,000857.000,A,3748.7988,N,12217.8612,W,1.46,204.06,131010,,,D*7E
$GPRMC,000858.000,A,3748.7983,N,12217.8614,W,1.96,191.41,131010,,,D*7D
$GPRMC,000859.000,A,3748.7976,N,12217.8615,W,2.40,187.38,131010,,,D*76
$GPRMC,000900.000,A,3748.7969,N,12217.8616,W,2.44,179.51,131010,,,D*7C
$GPRMC,000901.000,A,3748.7962,N,12217.8616,W,2.46,181.01,131010,,,D*76
$GPRMC,000902.000,A,3748.7955,N,12217.8617,W,2.31,177.25,131010,,,D*7F
$GPRMC,000903.000,A,3748.7948,N,12217.8618,W,2.41,175.69,131010,,,D*70
$GPRMC,000904.000,A,3748.7940,N,12217.8619,W,2.42,172.23,131010,,,D*74
$GPRMC,000905.000,A,3748.7934,N,12217.8619,W,2.27,167.23,131010,,,D*71
$GPRMC,000906.000,A,3748.7927,N,12217.8617,W,2.36,161.53,131010,,,D*7F
$GPRMC,000907.000,A,3748.7921,N,12217.8615,W,2.31,152.05,131010,,,D*7E
$GPRMC,000908.000,A,3748.7915,N,12217.8613,W,2.21,151.99,131010,,,D*77
$GPRMC,000909.000,A,3748.7910,N,12217.8610,W,2.26,152.84,131010,,,D*78
$GPRMC,000910.000,A,3748.7904,N,12217.8606,W,2.41,143.53,131010,,,D*79
$GPRMC,000911.000,A,3748.7899,N,12217.8602,W,2.29,142.43,131010,,,D*77
$GPRMC,000912.000,A,3748.7893,N,12217.8598,W,2.38,152.03,131010,,,D*7B
$GPRMC,000913.000,A,3748.7887,N,12217.8595,W,2.52,157.03,131010,,,D*7B
$GPRMC,000914.000,A,3748.7880,N,12217.8593,W,2.19,169.42,131010,,,D*7A
$GPRMC,000915.000,A,3748.7875,N,12217.8592,W,2.02,163.17,131010,,,D*70
$GPRMC,000916.000,A,3748.7870,N,12217.8590,W,1.59,149.74,131010,,,D*74
$GPRMC,000917.000,A,3748.7867,N,12217.8588,W,1.36,132.45,131010,,,D*7D
$GPRMC,000918.000,A,3748.7866,N,12217.8584,W,1.37,116.27,131010,,,D*7C
$GPRMC,000919.000,A,3748.7864,N,12217.8580,W,0.97,117.93,131010,,,D*7E
$GPRMC,000920.000,A,3748.7862,N,12217.8577,W,1.37,114.18,131010,,,D*71
$GPRMC,000921.000,A,3748.7861,N,12217.8573,W,1.50,114.75,131010,,,D*7D
$GPRMC,000922.000,A,3748.7860,N,12217.8568,W,1.68,113.19,131010,,,D*73
$GPRMC,000923.000,A,3748.7859,N,12217.8563,W,1.82,106.05,131010,,,D*7E
$GPRMC,000924.000,A,3748.7858,N,12217.8557,W,1.82,115.12,131010,,,D*7B
$GPRMC,000925.000,A,3748.7855,N,12217.8551,W,2.14,119.41,131010,,,D*77
$GPRMC,000926.000,A,3748.7852,N,12217.8544,W,2.26,125.65,131010,,,D*7F
$GPRMC,000927.000,A,3748.7849,N,12217.8537,W,2.32,125.74,131010,,,D*75
$GPRMC,000928.000,A,3748.7846,N,12217.8530,W,2.40,128.93,131010,,,D*73
$GPRMC,000929.000,A,3748.7842,N,12217.8523,W,2.21,123.13,131010,,,D*70
$GPRMC,000930.000,A,3748.7840,N,12217.8517,W,2.14,118.62,131010,,,D*75
$GPRMC,000931.000,A,3748.7837,N,12217.8510,W,2.05,118.33,131010,,,D*77
$GPRMC,000932.000,A,3748.7834,N,12217.8503,W,2.30,127.69,131010,,,D*70
$GPRMC,000933.000,A,3748.7831,N,12217.8496,W,2.21,120.39,131010,,,D*7B
$GPRMC,000934.000,A,3748.7827,N,12217.8488,W,2.40,118.77,131010,,,D*72
$GPRMC,000935.000,A,3748.7824,N,12217.8480,W,2.56,117.58,131010,,,D*7D
$GPRMC,000936.000,A,3748.7820,N,12217.8472,W,2.57,121.79,131010,,,D*70
$GPRMC,000937.000,A,3748.7817,N,12217.8465,W,2.50,127.74,131010,,,D*7F
$GPRMC,000938.000,A,3748.7814,N,12217.8458,W,2.33,123.15,131010,,,D*7B
$GPRMC,000939.000,A,3748.7812,N,12217.8451,W,2.09,115.71,131010,,,D*7B
$GPRMC,000940.000,A,3748.7809,N,12217.8444,W,1.86,120.90,131010,,,D*76
$GPRMC,000941.000,A,3748.7805,N,12217.8437,W,2.18,122.92,131010,,,D*7B
$GPRMC,000942.000,A,3748.7802,N,12217.8430,W,2.07,123.41,131010,,,D*79
$GPRMC,000943.000,A,3748.7798,N,12217.8424,W,2.02,122.53,131010,,,D*76
$GPRMC,000944.000,A,3748.7795,N,12217.8417,W,2.24,126.65,131010,,,D*79
$GPRMC,000945.000,A,3748.7791,N,12217.8411,W,2.18,129.39,131010,,,D*73
$GPRMC,000946.000,A,3748.7788,N,12217.8404,W,2.00,118.97,131010,,,D*73
$GPRMC,000947.000,A,3748.7785,N,12217.8398,W,2.01,121.03,131010,,,D*7B
$GPRMC,000948.000,A,3748.7782,N,12217.8391,W,2.10,118.76,131010,,,D*72
$GPRMC,000949.000,A,3748.7780,N,12217.8386,W,1.88,121.77,131010,,,D*7E
$GPRMC,000950.000,A,3748.7777,N,12217.8380,W,1.85,121.09,131010,,,D*7C
$GPRMC,000951.000,A,3748.7774,N,12217.8375,W,2.08,125.30,131010,,,D*7C
$GPRMC,000952.000,A,3748.7771,N,12217.8369,W,2.03,123.58,131010,,,D*74
$GPRMC,000953.000,A,3748.7768,N,12217.8363,W,1.78,124.04,131010,,,D*76
$GPRMC,000954.000,A,3748.7765,N,12217.8358,W,1.65,120.21,131010,,,D*7B
$GPRMC,000955.000,A,3748.7764,N,12217.8353,W,1.70,122.75,131010,,,D*77
$GPRMC,000956.000,A,3748.7759,N,12217.8347,W,2.28,126.48,131010,,,D*7B
$GPRMC,000957.000,A,3748.7754,N,12217.8338,W,2.79,129.78,131010,,,D*77
$GPRMC,000958.000,A,3748.7748,N,12217.8331,W,3.18,135.55,131010,,,D*78
$GPRMC,000959.000,A,3748.7745,N,12217.8318,W,3.65,131.18,131010,,,D*78
$GPRMC,001000.000,A,3748.7741,N,12217.8310,W,3.32,127.27,131010,,,D*79
$GPRMC,001001.000,A,3748.7739,N,12217.8302,W,3.29,125.59,131010,,,D*75
$GPRMC,001002.000,A,3748.7738,N,12217.8291,W,3.12,125.48,131010,,,D*74
$GPRMC,001003.000,A,3748.7738,N,12217.8280,W,2.93,118.88,131010,,,D*7F
$GPRMC,001004.000,A,3748.7741,N,12217.8271,W,2.50,123.36,131010,,,D*7A
$GPRMC,001005.000,A,3748.7744,N,12217.8262,W,2.26,120.98,131010,,,D*7A
$GPRMC,001006.000,A,3748.7744,N,12217.8253,W,2.48,125.97,131010,,,D*79
$GPRMC,001007.000,A,3748.7740,N,12217.8247,W,2.19,120.60,131010,,,D*70
$GPRMC,001008.000,A,3748.7738,N,12217.8244,W,1.63,117.24,131010,,,D*79
$GPRMC,001009.000,A,3748.7734,N,12217.8238,W,1.81,131.18,131010,,,D*78
$GPRMC,001010.000,A,3748.7725,N,12217.8230,W,2.76,136.45,131010,,,D*7C
$GPRMC,001011.000,A,3748.7715,N,12217.8224,W,2.83,123.76,131010,,,D*75
$GPRMC,001012.000,A,3748.7702,N,12217.8208,W,3.36,120.57,131010,,,D*71
$GPRMC,001013.000,A,3748.7693,N,12217.8192,W,3.06,123.00,131010,,,A*7E
$GPRMC,001014.000,A,3748.7696,N,12217.8191,W,1.94,119.59,131010,,,A*73
$GPRMC,001015.000,A,3748.7693,N,12217.8181,W,1.89,116.03,131010,,,A*7A
$GPRMC,001016.000,A,3748.7691,N,12217.8180,W,1.45,119.04,131010,,,A*72
$GPRMC,001017.000,A,3748.7686,N,12217.8172,W,1.30,120.88,131010,,,A*74
$GPRMC,001018.000,A,3748.7678,N,12217.8162,W,1.06,120.69,131010,,,A*71
$GPRMC,001019.000,A,3748.7669,N,12217.8152,W,2.39,119.91,131010,,,A*71
$GPRMC,001020.000,A,3748.7662,N,12217.8146,W,2.27,125.62,131010,,,A*79
$GPRMC,001021.000,A,3748.7659,N,12217.8141,W,2.06,128.11,131010,,,A*7D
$GPRMC,001022.000,A,3748.7652,N,12217.8130,W,2.17,125.82,131010,,,A*74
$GPRMC,001023.000,A,3748.7644,N,12217.8119,W,2.18,130.46,131010,,,A*7A
$GPRMC,001024.000,A,3748.7639,N,12217.8111,W,1.48,123.92,131010,,,A*72
$GPRMC,001025.000,A,3748.7630,N,12217.8101,W,1.47,122.04,131010,,,A*7A
$GPRMC,001026.000,A,3748.7628,N,12217.8098,W,0.71,121.82,131010,,,A*78
$GPRMC,001027.000,A,3748.7628,N,12217.8093,W,0.56,129.33,131010,,,A*75
$GPRMC,001028.000,A,3748.7628,N,12217.8084,W,1.08,125.79,131010,,,A*74
$GPRMC,001029.000,A,3748.7631,N,12217.8083,W,0.83,113.24,131010,,,A*75
$GPRMC,001030.000,A,3748.7632,N,12217.8081,W,0.96,119.83,131010,,,A*7F
$GPRMC,001031.000,A,3748.7629,N,12217.8077,W,0.76,128.05,131010,,,A*7F
$GPRMC,001032.000,A,3748.7623,N,12217.8066,W,1.18,96.92,131010,,,A*45
$GPRMC,001033.000,A,3748.7615,N,12217.8061,W,1.43,110.58,131010,,,A*71
$GPRMC,001034.000,A,3748.7608,N,12217.8046,W,1.70,115.76,131010,,,A*76
$GPRMC,001035.000,A,3748.7606,N,12217.8036,W,1.16,110.54,131010,,,A*7B
$GPRMC,001036.000,A,3748.7603,N,12217.8029,W,1.41,116.38,131010,,,A*7D
$GPRMC,001037.000,A,3748.7600,N,12217.8027,W,1.00,107.51,131010,,,A*7B
$GPRMC,001038.000,A,3748.7600,N,12217.8032,W,1.51,111.90,131010,,,A*7E
$GPRMC,001039.000,A,3748.7599,N,12217.8028,W,2.09,117.27,131010,,,A*73
$GPRMC,001040.000,A,3748.7593,N,12217.8019,W,2.29,120.93,131010,,,A*7C
$GPRMC,001041.000,A,3748.7588,N,12217.8010,W,2.22,117.69,131010,,,A*74
$GPRMC,001042.000,A,3748.7585,N,12217.8004,W,2.13,112.86,131010,,,A*79
$GPRMC,001043.000,A,3748.7581,N,12217.7995,W,2.31,115.91,131010,,,A*73
$GPRMC,001044.000,A,3748.7577,N,12217.7987,W,2.41,115.72,131010,,,D*71
$GPRMC,001045.000,A,3748.7572,N,12217.7980,W,2.34,122.13,131010,,,D*73
$GPRMC,001046.000,A,3748.7568,N,12217.7973,W,2.14,124.36,131010,,,D*74
$GPRMC,001047.000,A,3748.7563,N,12217.7967,W,2.24,123.51,131010,,,D*7E
$GPRMC,001048.000,A,3748.7559,N,12217.7960,W,2.06,120.66,131010,,,D*78
$GPRMC,001049.000,A,3748.7555,N,12217.7954,W,2.24,117.61,131010,,,D*71
$GPRMC,001050.000,A,3748.7552,N,12217.7946,W,2.17,109.58,131010,,,D*78
$GPRMC,001051.000,A,3748.7549,N,12217.7939,W,2.21,114.60,131010,,,D*79
$GPRMC,001052.000,A,3748.7546,N,12217.7933,W,2.03,117.25,131010,,,D*7D
$GPRMC,001053.000,A,3748.7543,N,12217.7927,W,2.28,123.89,131010,,,D*74
$GPRMC,001054.000,A,3748.7539,N,12217.7920,W,2.09,123.11,131010,,,D*7B
$GPRMC,001055.000,A,3748.7535,N,12217.7915,W,2.57,111.06,131010,,,D*7C
$GPRMC,001056.000,A,3748.7533,N,12217.7907,W,2.27,105.15,131010,,,D*7A
$GPRMC,001057.000,A,3748.7531,N,12217.7900,W,2.33,114.33,131010,,,D*7F
$GPRMC,001058.000,A,3748.7528,N,12217.7890,W,2.74,118.44,131010,,,D*7F
$GPRMC,001059.000,A,3748.7523,N,12217.7884,W,2.47,122.86,131010,,,D*77
$GPRMC,001100.000,A,3748.7518,N,12217.7877,W,2.33,124.51,131010,,,D*71
$GPRMC,001101.000,A,3748.7514,N,12217.7871,W,2.24,119.98,131010,,,D*77
$GPRMC,001102.000,A,3748.7511,N,12217.7864,W,2.19,112.03,131010,,,D*72
$GPRMC,001103.000,A,3748.7509,N,12217.7857,W,2.22,106.46,131010,,,D*76
$GPRMC,001104.000,A,3748.7507,N,12217.7849,W,2.30,105.23,131010,,,D*73
$GPRMC,001105.000,A,3748.7504,N,12217.7842,W,1.96,108.25,131010,,,D*7E
$GPRMC,001106.000,A,3748.7502,N,12217.7838,W,0.76,113.74,131010,,,D*77
$GPRMC,001107.000,A,3748.7501,N,12217.7837,W,0.23,153.47,131010,,,D*7E
$GPRMC,001108.000,A,3748.7500,N,12217.7837,W,0.14,192.94,131010,,,D*77
$GPRMC,001109.000,A,3748.7500,N,12217.7837,W,0.05,345.71,131010,,,D*75
$GPRMC,001110.000,A,3748.7500,N,12217.7837,W,0.08,135.62,131010,,,D*77
$GPRMC,001111.000,A,3748.7499,N,12217.7837,W,0.11,110.94,131010,,,D*71
$GPRMC,001112.000,A,3748.7499,N,12217.7837,W,0.11,140.33,131010,,,D*7A
$GPRMC,001113.000,A,3748.7498,N,12217.7837,W,0.12,129.77,131010,,,D*76
$GPRMC,001114.000,A,3748.7498,N,12217.7837,W,0.13,137.08,131010,,,D*77
$GPRMC,001115.000,A,3748.7497,N,12217.7837,W,0.17,132.84,131010,,,D*7C
$GPRMC,001116.000,A,3748.7497,N,12217.7836,W,0.09,97.17,131010,,,D*45
$GPRMC,001117.000,A,3748.7497,N,12217.7836,W,0.09,96.57,131010,,,D*41
$GPRMC,001118.000,A,3748.7497,N,12217.7836,W,0.09,101.00,131010,,,D*73
$GPRMC,001119.000,A,3748.7497,N,12217.7836,W,0.08,83.75,131010,,,D*4A
$GPRMC,001120.000,A,3748.7497,N,12217.7836,W,0.08,95.87,131010,,,D*4A
$GPRMC,001121.000,A,3748.7497,N,12217.7836,W,0.05,66.73,131010,,,D*41
$GPRMC,001122.000,A,3748.7497,N,12217.7836,W,0.15,129.64,131010,,,D*7F
$GPRMC,001123.000,A,3748.7496,N,12217.7835,W,0.14,135.40,131010,,,D*76
$GPRMC,001124.000,A,3748.7496,N,12217.7836,W,0.14,137.37,131010,,,D*70
$GPRMC,001125.000,A,3748.7495,N,12217.7836,W,0.15,136.93,131010,,,D*7C
$GPRMC,001126.000,A,3748.7495,N,12217.7836,W,0.22,132.39,131010,,,D*7F
$GPRMC,001127.000,A,3748.7495,N,12217.7836,W,0.09,136.26,131010,,,D*7D
$GPRMC,001128.000,A,3748.7495,N,12217.7836,W,0.08,50.67,131010,,,D*47
$GPRMC,001129.000,A,3748.7495,N,12217.7836,W,0.16,24.08,131010,,,D*43
$GPRMC,001130.000,A,3748.7493,N,12217.7834,W,0.96,126.42,131010,,,D*7A
$GPRMC,001131.000,A,3748.7488,N,12217.7833,W,2.05,133.96,131010,,,D*73
$GPRMC,001132.000,A,3748.7486,N,12217.7825,W,2.39,118.15,131010,,,D*74
$GPRMC,001133.000,A,3748.7483,N,12217.7817,W,2.41,121.34,131010,,,D*77
$GPRMC,001134.000,A,3748.7480,N,12217.7809,W,2.38,114.93,131010,,,D*79
$GPRMC,001135.000,A,3748.7477,N,12217.7802,W,2.10,121.66,131010,,,D*7D
$GPRMC,001136.000,A,3748.7474,N,12217.7795,W,2.07,116.92,131010,,,D*75
$GPRMC,001137.000,A,3748.7472,N,12217.7789,W,1.85,123.69,131010,,,D*74
$GPRMC,001138.000,A,3748.7469,N,12217.7785,W,1.33,123.60,131010,,,D*79
$GPRMC,001139.000,A,3748.7467,N,12217.7781,W,1.11,120.43,131010,,,D*70
$GPRMC,001140.000,A,3748.7465,N,12217.7778,W,1.36,123.49,131010,,,D*76
$GPRMC,001141.000,A,3748.7462,N,12217.7774,W,1.40,127.07,131010,,,D*73
$GPRMC,001142.000,A,3748.7461,N,12217.7769,W,1.36,112.66,131010,,,D*7F
$GPRMC,001143.000,A,3748.7460,N,12217.7766,W,1.03,105.75,131010,,,D*72
$GPRMC,001144.000,A,3748.7458,N,12217.7763,W,0.97,124.25,131010,,,D*71
$GPRMC,001145.000,A,3748.7456,N,12217.7760,W,0.67,150.19,131010,,,D*7E
$GPRMC,001146.000,A,3748.7454,N,12217.7759,W,0.41,77.80,131010,,,D*45
$GPRMC,001147.000,A,3748.7452,N,12217.7758,W,0.13,211.18,131010,,,D*77
$GPRMC,001148.000,A,3748.7450,N,12217.7756,W,0.48,107.76,131010,,,D*76
$GPRMC,001149.000,A,3748.7449,N,12217.7756,W,0.22,111.07,131010,,,D*72
$GPRMC,001150.000,A,3748.7449,N,12217.7756,W,0.22,106.00,131010,,,D*7B
$GPRMC,001151.000,A,3748.7448,N,12217.7754,W,0.54,117.77,131010,,,D*78
$GPRMC,001152.000,A,3748.7447,N,12217.7754,W,0.56,135.50,131010,,,D*73
$GPRMC,001153.000,A,3748.7446,N,12217.7752,W,1.23,107.17,131010,,,D*74
$GPRMC,001154.000,A,3748.7444,N,12217.7749,W,1.18,99.58,131010,,,D*4E
$GPRMC,001155.000,A,3748.7443,N,12217.7744,W,1.41,111.32,131010,,,D*74
$GPRMC,001156.000,A,3748.7442,N,12217.7740,W,1.47,111.16,131010,,,D*72
$GPRMC,001157.000,A,3748.7440,N,12217.7734,W,1.65,114.31,131010,,,D*72
$GPRMC,001158.000,A,3748.7438,N,12217.7729,W,1.83,114.16,131010,,,D*73
$GPRMC,001159.000,A,3748.7436,N,12217.7723,W,1.97,122.72,131010,,,D*74
$GPRMC,001200.000,A,3748.7433,N,12217.7717,W,2.13,124.64,131010,,,D*77
$GPRMC,001201.000,A,3748.7430,N,12217.7711,W,1.95,119.04,131010,,,D*76
$GPRMC,001202.000,A,3748.7427,N,12217.7705,W,2.06,126.23,131010,,,D*76
$GPRMC,001203.000,A,3748.7424,N,12217.7700,W,2.13,133.00,131010,,,D*70
$GPRMC,001204.000,A,3748.7420,N,12217.7695,W,1.88,135.03,131010,,,D*7A
$GPRMC,001205.000,A,3748.7416,N,12217.7690,W,2.02,136.07,131010,,,D*7D
$GPRMC,001206.000,A,3748.7414,N,12217.7688,W,1.91,128.69,131010,,,D*7B
$GPRMC,001207.000,A,3748.7409,N,12217.7679,W,2.22,115.80,131010,,,D*7A
$GPRMC,001208.000,A,3748.7405,N,12217.7674,W,1.96,124.01,131010,,,D*73
$GPRMC,001209.000,A,3748.7402,N,12217.7669,W,2.41,121.82,131010,,,D*7E
$GPRMC,001210.000,A,3748.7400,N,12217.7663,W,2.21,117.02,131010,,,D*75
$GPRMC,001211.000,A,3748.7397,N,12217.7655,W,2.42,117.59,131010,,,D*73
$GPRMC,001212.000,A,3748.7394,N,12217.7648,W,2.23,116.92,131010,,,D*7E
$GPRMC,001213.000,A,3748.7392,N,12217.7640,W,2.28,113.35,131010,,,D*72
$GPRMC,001214.000,A,3748.7388,N,12217.7632,W,2.43,115.03,131010,,,D*75
$GPRMC,001215.000,A,3748.7385,N,12217.7623,W,2.54,118.87,131010,,,D*7E
$GPRMC,001216.000,A,3748.7382,N,12217.7617,W,2.00,117.18,131010,,,D*75
$GPRMC,001217.000,A,3748.7378,N,12217.7608,W,2.38,112.01,131010,,,D*79
$GPRMC,001218.000,A,3748.7375,N,12217.7600,W,2.26,115.31,131010,,,D*78
$GPRMC,001219.000,A,3748.7372,N,12217.7591,W,2.21,116.32,131010,,,D*72
$GPRMC,001220.000,A,3748.7369,N,12217.7584,W,2.01,114.74,131010,,,D*74
$GPRMC,001221.000,A,3748.7366,N,12217.7577,W,1.73,113.62,131010,,,D*70
$GPRMC,001222.000,A,3748.7364,N,12217.7571,W,1.20,108.71,131010,,,D*79
$GPRMC,001223.000,A,3748.7363,N,12217.7569,W,0.53,146.62,131010,,,D*7B
$GPRMC,001224.000,A,3748.7362,N,12217.7568,W,0.02,15.73,131010,,,D*4F
$GPRMC,001225.000,A,3748.7362,N,12217.7567,W,0.42,67.38,131010,,,D*4F
$GPRMC,001226.000,A,3748.7363,N,12217.7563,W,1.35,82.62,131010,,,D*4C
$GPRMC,001227.000,A,3748.7363,N,12217.7558,W,1.82,92.45,131010,,,D*4D
$GPRMC,001228.000,A,3748.7362,N,12217.7552,W,1.95,110.11,131010,,,D*75
$GPRMC,001229.000,A,3748.7359,N,12217.7545,W,1.81,121.28,131010,,,D*77
$GPRMC,001230.000,A,3748.7356,N,12217.7539,W,1.96,118.55,131010,,,D*7D
$GPRMC,001231.000,A,3748.7353,N,12217.7533,W,1.89,123.66,131010,,,D*75
$GPRMC,001232.000,A,3748.7350,N,12217.7526,W,2.05,120.20,131010,,,D*77
$GPRMC,001233.000,A,3748.7346,N,12217.7521,W,1.86,130.53,131010,,,D*7B
$GPRMC,001234.000,A,3748.7342,N,12217.7516,W,2.01,130.64,131010,,,D*74
$GPRMC,001235.000,A,3748.7339,N,12217.7511,W,2.00,128.56,131010,,,D*77
$GPRMC,001236.000,A,3748.7336,N,12217.7505,W,2.14,125.49,131010,,,D*78
$GPRMC,001237.000,A,3748.7333,N,12217.7499,W,2.09,114.86,131010,,,D*75
$GPRMC,001238.000,A,3748.7329,N,12217.7492,W,2.16,121.97,131010,,,D*72
$GPRMC,001239.000,A,3748.7324,N,12217.7486,W,2.08,128.14,131010,,,D*76
$GPRMC,001240.000,A,3748.7319,N,12217.7479,W,2.14,123.25,131010,,,D*72
$GPRMC,001241.000,A,3748.7315,N,12217.7473,W,1.93,123.37,131010,,,D*7A
$GPRMC,001242.000,A,3748.7311,N,12217.7465,W,2.27,122.88,131010,,,D*73
$GPRMC,001243.000,A,3748.7306,N,12217.7457,W,2.45,127.59,131010,,,D*78
$GPRMC,001244.000,A,3748.7302,N,12217.7450,W,2.26,126.32,131010,,,D*75
$GPRMC,001245.000,A,3748.7297,N,12217.7443,W,2.34,125.85,131010,,,D*77
$GPRMC,001246.000,A,3748.7293,N,12217.7436,W,2.39,126.16,131010,,,D*76
$GPRMC,001247.000,A,3748.7290,N,12217.7429,W,2.22,119.70,131010,,,D*7C
$GPRMC,001248.000,A,3748.7287,N,12217.7422,W,1.93,117.58,131010,,,D*73
$GPRMC,001249.000,A,3748.7283,N,12217.7415,W,2.10,119.82,131010,,,D*73
$GPRMC,001250.000,A,3748.7280,N,12217.7409,W,2.10,124.18,131010,,,D*78
$GPRMC,001251.000,A,3748.7275,N,12217.7401,W,2.42,129.45,131010,,,D*79
$GPRMC,001252.000,A,3748.7270,N,12217.7394,W,2.59,127.96,131010,,,D*7E
$GPRMC,001253.000,A,3748.7265,N,12217.7386,W,2.63,123.92,131010,,,D*71
$GPRMC,001254.000,A,3748.7261,N,12217.7377,W,2.45,116.46,131010,,,D*77
$GPRMC,001255.000,A,3748.7257,N,12217.7370,W,2.25,115.93,131010,,,D*79
$GPRMC,001256.000,A,3748.7255,N,12217.7362,W,2.49,122.58,131010,,,D*72
$GPRMC,001257.000,A,3748.7250,N,12217.7355,W,2.73,129.85,131010,,,D*70
$GPRMC,001258.000,A,3748.7244,N,12217.7347,W,3.14,126.57,131010,,,D*79
$GPRMC,001259.000,A,3748.7238,N,12217.7339,W,2.75,126.86,131010,,,D*70
$GPRMC,001300.000,A,3748.7234,N,12217.7329,W,2.58,122.73,131010,,,D*71
$GPRMC,001301.000,A,3748.7231,N,12217.7323,W,1.90,125.47,131010,,,D*78
$GPRMC,001302.000,A,3748.7227,N,12217.7316,W,2.42,126.96,131010,,,D*79
$GPRMC,001303.000,A,3748.7223,N,12217.7310,W,2.32,120.29,131010,,,D*7F
$GPRMC,001304.000,A,3748.7220,N,12217.7303,W,2.15,113.72,131010,,,D*72
$GPRMC,001305.000,A,3748.7218,N,12217.7295,W,1.80,111.16,131010,,,D*79
$GPRMC,001306.000,A,3748.7214,N,12217.7287,W,1.35,101.86,131010,,,D*73
$GPRMC,001307.000,A,3748.7211,N,12217.7282,W,1.66,110.11,131010,,,D*7A
$GPRMC,001308.000,A,3748.7210,N,12217.7276,W,1.67,95.40,131010,,,D*46
$GPRMC,001309.000,A,3748.7208,N,12217.7270,W,1.61,109.24,131010,,,D*78
$GPRMC,001310.000,A,3748.7204,N,12217.7264,W,1.87,106.72,131010,,,D*7D
$GPRMC,001311.000,A,3748.7202,N,12217.7255,W,1.78,109.25,131010,,,D*75
$GPRMC,001312.000,A,3748.7196,N,12217.7246,W,2.46,120.55,131010,,,D*78
$GPRMC,001313.000,A,3748.7193,N,12217.7239,W,2.51,127.81,131010,,,D*7C
$GPRMC,001314.000,A,3748.7186,N,12217.7233,W,2.19,145.54,131010,,,D*75
$GPRMC,001315.000,A,3748.7181,N,12217.7229,W,1.16,160.36,131010,,,D*77
$GPRMC,001316.000,A,3748.7173,N,12217.7221,W,1.08,141.22,131010,,,D*78
$GPRMC,001317.000,A,3748.7170,N,12217.7220,W,0.97,164.78,131010,,,D*74
$GPRMC,001318.000,A,3748.7167,N,12217.7221,W,0.80,144.55,131010,,,D*77
$GPRMC,001319.000,A,3748.7166,N,12217.7219,W,0.57,143.96,131010,,,D*7E
$GPRMC,001320.000,A,3748.7166,N,12217.7218,W,0.29,167.83,131010,,,D*7E
$GPRMC,001321.000,A,3748.7167,N,12217.7216,W,0.20,177.20,131010,,,A*74
$GPRMC,001322.000,A,3748.7167,N,12217.7213,W,0.63,126.39,131010,,,A*79
$GPRMC,001323.000,A,3748.7167,N,12217.7210,W,0.80,124.85,131010,,,A*73
$GPRMC,001324.000,A,3748.7167,N,12217.7208,W,0.36,138.69,131010,,,A*7F
$GPRMC,001325.000,A,3748.7168,N,12217.7208,W,0.16,221.93,131010,,,A*7D
$GPRMC,001326.000,A,3748.7169,N,12217.7208,W,0.14,234.20,131010,,,D*74
$GPRMC,001327.000,A,3748.7170,N,12217.7209,W,0.17,263.43,131010,,,D*78
$GPRMC,001328.000,A,3748.7171,N,12217.7212,W,0.30,285.54,131010,,,D*77
$GPRMC,001329.000,A,3748.7172,N,12217.7213,W,0.17,136.42,131010,,,D*7D
$GPRMC,001330.000,A,3748.7172,N,12217.7212,W,0.60,117.64,131010,,,D*73
$GPRMC,001331.000,A,3748.7171,N,12217.7210,W,0.61,130.03,131010,,,D*76
$GPRMC,001332.000,A,3748.7172,N,12217.7208,W,0.26,118.69,131010,,,D*7A
$GPRMC,001333.000,A,3748.7173,N,12217.7208,W,0.07,333.79,131010,,,D*73
$GPRMC,001334.000,A,3748.7174,N,12217.7207,W,0.11,138.64,131010,,,D*7E
$GPRMC,001335.000,A,3748.7174,N,12217.7207,W,0.21,127.31,131010,,,D*72
$GPRMC,001336.000,A,3748.7174,N,12217.7206,W,0.50,124.57,131010,,,D*75
$GPRMC,001337.000,A,3748.7174,N,12217.7204,W,0.31,121.91,131010,,,D*7E
$GPRMC,001338.000,A,3748.7173,N,12217.7208,W,0.26,165.38,131010,,,D*7F
$GPRMC,001339.000,A,3748.7171,N,12217.7211,W,0.20,184.70,131010,,,D*71
$GPRMC,001339.000,A,3748.7170,N,12217.7215,W,0.10,194.45,131010,,,D*70
$GPRMC,001340.000,A,3748.7170,N,12217.7217,W,0.18,229.29,131010,,,D*7B
$GPRMC,001341.000,A,3748.7171,N,12217.7218,W,0.10,157.21,131010,,,D*7E
$GPRMC,001342.000,A,3748.7171,N,12217.7219,W,0.13,169.96,131010,,,D*7E
$GPRMC,001343.000,A,3748.7171,N,12217.7225,W,0.57,237.83,131010,,,D*7C
$GPRMC,001344.000,A,3748.7170,N,12217.7231,W,0.20,201.61,131010,,,D*76
$GPRMC,001345.000,A,3748.7171,N,12217.7235,W,0.24,225.15,131010,,,D*73
$GPRMC,001346.000,A,3748.7171,N,12217.7240,W,0.11,186.67,131010,,,D*7B
$GPRMC,001347.000,A,3748.7171,N,12217.7246,W,0.39,277.06,131010,,,D*7C
$GPRMC,001348.000,A,3748.7172,N,12217.7250,W,0.70,277.32,131010,,,D*7D
$GPRMC,001349.000,A,3748.7171,N,12217.7251,W,0.20,312.75,131010,,,D*7A
$GPRMC,001350.000,A,3748.7172,N,12217.7252,W,0.39,269.28,131010,,,D*7F
$GPRMC,001351.000,A,3748.7172,N,12217.7251,W,0.30,147.34,131010,,,D*76
$GPRMC,001352.000,A,3748.7170,N,12217.7249,W,0.51,162.26,131010,,,D*7D
$GPRMC,001353.000,A,3748.7170,N,12217.7247,W,0.32,125.54,131010,,,D*71
$GPRMC,001354.000,A,3748.7167,N,12217.7245,W,0.68,187.75,131010,,,D*76
$GPRMC,001355.000,A,3748.7166,N,12217.7244,W,0.59,178.84,131010,,,D*7B
$GPRMC,001356.000,A,3748.7158,N,12217.7232,W,0.73,184.21,131010,,,D*70
$GPRMC,001357.000,A,3748.7150,N,12217.7229,W,0.80,187.26,131010,,,D*7B
$GPRMC,001358.000,A,3748.7147,N,12217.7238,W,1.12,212.79,131010,,,D*7D
$GPRMC,001359.000,A,3748.7140,N,12217.7233,W,1.45,193.70,131010,,,D*71
$GPRMC,001400.000,A,3748.7134,N,12217.7233,W,1.55,183.57,131010,,,D*7C
$GPRMC,001401.000,A,3748.7124,N,12217.7225,W,1.49,179.06,131010,,,D*77
$GPRMC,001402.000,A,3748.7117,N,12217.7221,W,1.22,198.32,131010,,,D*75
$GPRMC,001403.000,A,3748.7114,N,12217.7223,W,0.74,219.59,131010,,,D*70
$GPRMC,001404.000,A,3748.7113,N,12217.7225,W,0.58,169.12,131010,,,D*73
$GPRMC,001405.000,A,3748.7111,N,12217.7223,W,0.27,223.31,131010,,,D*72
$GPRMC,001406.000,A,3748.7112,N,12217.7224,W,0.44,319.55,131010,,,D*7A
$GPRMC,001407.000,A,3748.7112,N,12217.7224,W,0.43,308.21,131010,,,D*7F
$GPRMC,001408.000,A,3748.7110,N,12217.7224,W,0.17,286.60,131010,,,D*71
$GPRMC,001409.000,A,3748.7106,N,12217.7220,W,0.10,196.86,131010,,,D*7E
$GPRMC,001410.000,A,3748.7108,N,12217.7224,W,0.10,233.19,131010,,,D*76
$GPRMC,001411.000,A,3748.7111,N,12217.7229,W,0.22,306.84,131010,,,D*70
$GPRMC,001412.000,A,3748.7115,N,12217.7236,W,0.35,310.70,131010,,,D*73
$GPRMC,001413.000,A,3748.7118,N,12217.7241,W,0.16,340.77,131010,,,D*7C
$GPRMC,001414.000,A,3748.7121,N,12217.7246,W,0.16,318.18,131010,,,D*72
$GPRMC,001415.000,A,3748.7122,N,12217.7248,W,0.12,347.77,131010,,,D*79
$GPRMC,001416.000,A,3748.7121,N,12217.7247,W,0.30,268.27,131010,,,D*7F
$GPRMC,001417.000,A,3748.7115,N,12217.7241,W,0.41,182.57,131010,,,D*79
$GPRMC,001418.000,A,3748.7116,N,12217.7245,W,0.40,251.27,131010,,,D*7A
$GPRMC,001419.000,A,3748.7118,N,12217.7247,W,0.13,56.89,131010,,,D*40
$GPRMC,001420.000,A,3748.7121,N,12217.7251,W,1.13,303.57,131010,,,D*76
$GPRMC,001421.000,A,3748.7127,N,12217.7258,W,0.57,346.71,131010,,,D*7C
$GPRMC,001422.000,A,3748.7128,N,12217.7259,W,0.21,299.15,131010,,,D*71
$GPRMC,001423.000,A,3748.7127,N,12217.7258,W,0.07,274.40,131010,,,D*79
$GPRMC,001424.000,A,3748.7127,N,12217.7258,W,0.02,258.15,131010,,,D*75
$GPRMC,001425.000,A,3748.7127,N,12217.7258,W,0.02,272.79,131010,,,D*76
$GPRMC,001426.000,A,3748.7127,N,12217.7258,W,0.07,285.74,131010,,,D*75
$GPRMC,001427.000,A,3748.7127,N,12217.7259,W,0.04,294.04,131010,,,D*71
$GPRMC,001428.000,A,3748.7127,N,12217.7259,W,0.05,284.57,131010,,,D*78
$GPRMC,001429.000,A,3748.7127,N,12217.7259,W,0.05,252.10,131010,,,D*71
$GPRMC,001430.000,A,3748.7126,N,12217.7258,W,0.30,123.45,131010,,,D*7A
$GPRMC,001431.000,A,3748.7127,N,12217.7258,W,0.01,73.67,131010,,,D*4C
$GPRMC,001432.000,A,3748.7126,N,12217.7258,W,0.53,244.37,131010,,,A*7F
$GPRMC,001433.000,A,3748.7125,N,12217.7262,W,1.16,201.74,131010,,,A*72
$GPRMC,001434.000,A,3748.7121,N,12217.7263,W,1.54,190.29,131010,,,A*75
$GPRMC,001435.000,A,3748.7118,N,12217.7265,W,1.46,213.93,131010,,,A*72
$GPRMC,001436.000,A,3748.7115,N,12217.7270,W,1.59,220.41,131010,,,A*79
$GPRMC,001437.000,A,3748.7099,N,12217.7254,W,1.70,218.40,131010,,,D*7F
$GPRMC,001438.000,A,3748.7090,N,12217.7255,W,1.82,223.23,131010,,,D*78
$GPRMC,001439.000,A,3748.7085,N,12217.7258,W,1.50,210.49,131010,,,D*73
$GPRMC,001440.000,A,3748.7084,N,12217.7266,W,1.63,200.01,131010,,,D*7C
$GPRMC,001441.000,A,3748.7082,N,12217.7270,W,1.55,198.38,131010,,,D*71
$GPRMC,001442.000,A,3748.7075,N,12217.7274,W,1.38,206.85,131010,,,D*77
$GPRMC,001443.000,A,3748.7072,N,12217.7278,W,1.30,213.49,131010,,,D*71
$GPRMC,001444.000,A,3748.7072,N,12217.7282,W,0.63,228.45,131010,,,D*70
$GPRMC,001445.000,A,3748.7072,N,12217.7283,W,0.10,240.53,131010,,,D*7D
$GPRMC,001446.000,A,3748.7074,N,12217.7288,W,0.04,179.14,131010,,,D*7C
$GPRMC,001447.000,A,3748.7077,N,12217.7293,W,0.06,96.66,131010,,,D*43
$GPRMC,001448.000,A,3748.7077,N,12217.7294,W,0.38,166.63,131010,,,D*7D
$GPRMC,001449.000,A,3748.7077,N,12217.7295,W,0.45,213.34,131010,,,D*74
$GPRMC,001450.000,A,3748.7077,N,12217.7296,W,0.19,261.59,131010,,,D*78
$GPRMC,001451.000,A,3748.7079,N,12217.7297,W,0.29,294.42,131010,,,D*75
$GPRMC,001452.000,A,3748.7079,N,12217.7299,W,1.08,234.82,131010,,,D*7C
$GPRMC,001453.000,A,3748.7078,N,12217.7304,W,0.96,196.45,131010,,,D*7F
$GPRMC,001454.000,A,3748.7080,N,12217.7311,W,0.62,222.93,131010,,,D*77
$GPRMC,001455.000,A,3748.7078,N,12217.7312,W,0.97,196.95,131010,,,D*72
$GPRMC,001456.000,A,3748.7077,N,12217.7314,W,0.65,220.01,131010,,,D*76
$GPRMC,001457.000,A,3748.7076,N,12217.7315,W,0.17,217.20,131010,,,D*75
$GPRMC,001458.000,A,3748.7076,N,12217.7316,W,0.47,330.43,131010,,,D*7D
$GPRMC,001459.000,A,3748.7076,N,12217.7317,W,0.24,202.92,131010,,,D*74
$GPRMC,001500.000,A,3748.7076,N,12217.7317,W,0.15,296.26,131010,,,D*79
$GPRMC,001501.000,A,3748.7076,N,12217.7317,W,0.13,290.06,131010,,,A*7F
$GPRMC,001502.000,A,3748.7075,N,12217.7316,W,0.10,298.50,131010,,,A*76
$GPRMC,001503.000,A,3748.7075,N,12217.7316,W,0.03,300.03,131010,,,A*73
$GPRMC,001504.000,A,3748.7075,N,12217.7315,W,0.04,80.88,131010,,,A*48
$GPRMC,001505.000,A,3748.7075,N,12217.7314,W,0.04,141.76,131010,,,A*75
$GPRMC,001506.000,A,3748.7075,N,12217.7313,W,0.05,106.28,131010,,,A*78
$GPRMC,001507.000,A,3748.7074,N,12217.7312,W,0.09,150.57,131010,,,A*7E
$GPRMC,001508.000,A,3748.7074,N,12217.7311,W,0.13,126.44,131010,,,A*7A
$GPRMC,001509.000,A,3748.7073,N,12217.7310,W,0.15,142.26,131010,,,A*7D
$GPRMC,001510.000,A,3748.7073,N,12217.7311,W,0.48,258.63,131010,,,A*75
$GPRMC,001511.000,A,3748.7071,N,12217.7309,W,0.10,181.19,131010,,,A*78
$GPRMC,001512.000,A,3748.7074,N,12217.7319,W,0.58,197.25,131010,,,A*7B
$GPRMC,001513.000,A,3748.7074,N,12217.7325,W,0.91,234.33,131010,,,A*7D
$GPRMC,001514.000,A,3748.7070,N,12217.7326,W,1.02,199.80,131010,,,A*7A
$GPRMC,001515.000,A,3748.7067,N,12217.7328,W,1.30,192.89,131010,,,A*70
$GPRMC,001516.000,A,3748.7059,N,12217.7323,W,1.47,198.74,131010,,,A*7D
$GPRMC,001517.000,A,3748.7055,N,12217.7324,W,1.18,195.61,131010,,,A*74
$GPRMC,001518.000,A,3748.7053,N,12217.7327,W,1.09,190.56,131010,,,A*7F
$GPRMC,001519.000,A,3748.7049,N,12217.7326,W,1.29,195.80,131010,,,A*78
$GPRMC,001520.000,A,3748.7046,N,12217.7329,W,1.45,181.50,131010,,,A*70
$GPRMC,001521.000,A,3748.7042,N,12217.7331,W,1.53,191.15,131010,,,A*7B
$GPRMC,001522.000,A,3748.7039,N,12217.7333,W,1.35,178.40,131010,,,A*71
$GPRMC,001523.000,A,3748.7035,N,12217.7336,W,1.49,194.28,131010,,,A*7E
$GPRMC,001524.000,A,3748.7032,N,12217.7339,W,1.28,191.53,131010,,,A*7F
$GPRMC,001525.000,A,3748.7029,N,12217.7343,W,1.44,186.31,131010,,,A*71
$GPRMC,001526.000,A,3748.7025,N,12217.7345,W,1.21,181.64,131010,,,D*79
$GPRMC,001527.000,A,3748.7022,N,12217.7348,W,1.48,197.33,131010,,,D*78
$GPRMC,001528.000,A,3748.7018,N,12217.7349,W,1.28,166.72,131010,,,D*72
$GPRMC,001529.000,A,3748.7015,N,12217.7351,W,1.04,178.35,131010,,,D*75
$GPRMC,001530.000,A,3748.7013,N,12217.7354,W,0.97,207.34,131010,,,D*7F
$GPRMC,001531.000,A,3748.7010,N,12217.7358,W,1.20,222.81,131010,,,D*75
$GPRMC,001532.000,A,3748.7007,N,12217.7363,W,1.61,217.59,131010,,,D*7E
$GPRMC,001533.000,A,3748.7002,N,12217.7367,W,1.97,204.45,131010,,,D*78
$GPRMC,001534.000,A,3748.6996,N,12217.7371,W,2.09,195.24,131010,,,D*75
$GPRMC,001535.000,A,3748.6990,N,12217.7375,W,2.01,197.11,131010,,,D*7A
$GPRMC,001536.000,A,3748.6985,N,12217.7379,W,2.02,209.18,131010,,,D*7F
$GPRMC,001537.000,A,3748.6979,N,12217.7385,W,2.26,207.19,131010,,,D*77
$GPRMC,001538.000,A,3748.6972,N,12217.7388,W,2.19,206.01,131010,,,D*7A
$GPRMC,001539.000,A,3748.6966,N,12217.7392,W,2.05,200.52,131010,,,D*78
$GPRMC,001540.000,A,3748.6961,N,12217.7396,W,1.99,206.32,131010,,,D*73
$GPRMC,001541.000,A,3748.6956,N,12217.7401,W,2.13,213.41,131010,,,D*7E
$GPRMC,001542.000,A,3748.6950,N,12217.7406,W,1.92,210.07,131010,,,D*77
$GPRMC,001543.000,A,3748.6945,N,12217.7411,W,2.22,213.77,131010,,,D*78
$GPRMC,001544.000,A,3748.6940,N,12217.7416,W,1.87,207.48,131010,,,D*78
$GPRMC,001545.000,A,3748.6935,N,12217.7420,W,1.75,198.42,131010,,,D*7C
$GPRMC,001546.000,A,3748.6930,N,12217.7424,W,1.76,200.27,131010,,,D*7C
$GPRMC,001547.000,A,3748.6925,N,12217.7428,W,1.73,210.81,131010,,,D*7D
$GPRMC,001548.000,A,3748.6920,N,12217.7432,W,1.66,204.98,131010,,,D*75
$GPRMC,001549.000,A,3748.6915,N,12217.7436,W,1.91,197.87,131010,,,D*79
$GPRMC,001550.000,A,3748.6909,N,12217.7440,W,2.21,203.32,131010,,,D*75
$GPRMC,001551.000,A,3748.6903,N,12217.7444,W,1.98,205.11,131010,,,D*7C
$GPRMC,001552.000,A,3748.6898,N,12217.7448,W,1.90,205.43,131010,,,D*7F
$GPRMC,001553.000,A,3748.6893,N,12217.7451,W,1.74,203.84,131010,,,D*7A
$GPRMC,001554.000,A,3748.6887,N,12217.7455,W,1.92,202.28,131010,,,D*73
$GPRMC,001555.000,A,3748.6882,N,12217.7459,W,1.76,202.88,131010,,,D*7B
$GPRMC,001556.000,A,3748.6877,N,12217.7462,W,2.06,187.03,131010,,,D*73
$GPRMC,001557.000,A,3748.6870,N,12217.7465,W,2.13,204.37,131010,,,D*79
$GPRMC,001558.000,A,3748.6864,N,12217.7470,W,2.11,209.53,131010,,,D*7A
$GPRMC,001559.000,A,3748.6859,N,12217.7474,W,1.81,200.41,131010,,,D*71
$GPRMC,001600.000,A,3748.6855,N,12217.7477,W,1.57,193.25,131010,,,D*71
$GPRMC,001601.000,A,3748.6850,N,12217.7480,W,1.51,197.72,131010,,,D*7D
$GPRMC,001602.000,A,3748.6845,N,12217.7484,W,1.79,202.34,131010,,,D*79
$GPRMC,001603.000,A,3748.6840,N,12217.7488,W,1.74,208.65,131010,,,D*72
$GPRMC,001604.000,A,3748.6836,N,12217.7491,W,1.45,198.80,131010,,,D*7F
$GPRMC,001605.000,A,3748.6831,N,12217.7495,W,1.51,194.36,131010,,,D*79
$GPRMC,001606.000,A,3748.6826,N,12217.7498,W,1.67,205.67,131010,,,D*7B
$GPRMC,001607.000,A,3748.6820,N,12217.7501,W,1.63,201.04,131010,,,D*78
$GPRMC,001608.000,A,3748.6814,N,12217.7505,W,2.12,204.06,131010,,,D*76
$GPRMC,001609.000,A,3748.6810,N,12217.7510,W,1.80,207.74,131010,,,D*79
$GPRMC,001610.000,A,3748.6801,N,12217.7515,W,1.91,206.25,131010,,,D*71
$GPRMC,001611.000,A,3748.6794,N,12217.7520,W,1.95,201.30,131010,,,D*72
$GPRMC,001612.000,A,3748.6790,N,12217.7526,W,2.03,212.12,131010,,,D*7D
$GPRMC,001613.000,A,3748.6785,N,12217.7532,W,1.83,205.16,131010,,,D*74
$GPRMC,001614.000,A,3748.6780,N,12217.7536,W,1.86,204.42,131010,,,D*77
$GPRMC,001615.000,A,3748.6775,N,12217.7541,W,1.99,204.27,131010,,,D*71
$GPRMC,001616.000,A,3748.6769,N,12217.7546,W,2.06,201.03,131010,,,D*7E
$GPRMC,001617.000,A,3748.6764,N,12217.7551,W,2.19,210.00,131010,,,D*79
$GPRMC,001618.000,A,3748.6758,N,12217.7555,W,1.91,197.07,131010,,,D*75
$GPRMC,001619.000,A,3748.6753,N,12217.7559,W,1.74,197.54,131010,,,D*7E
$GPRMC,001620.000,A,3748.6749,N,12217.7563,W,1.77,205.53,131010,,,D*7A
$GPRMC,001621.000,A,3748.6743,N,12217.7567,W,2.01,202.97,131010,,,D*78
$GPRMC,001622.000,A,3748.6737,N,12217.7572,W,1.93,201.12,131010,,,D*7A
$GPRMC,001623.000,A,3748.6733,N,12217.7576,W,1.83,208.51,131010,,,D*74
$GPRMC,001624.000,A,3748.6728,N,12217.7582,W,1.67,199.72,131010,,,D*72
$GPRMC,001625.000,A,3748.6721,N,12217.7587,W,1.58,194.32,131010,,,D*7A
$GPRMC,001626.000,A,3748.6714,N,12217.7592,W,2.23,202.39,131010,,,D*73
$GPRMC,001627.000,A,3748.6709,N,12217.7598,W,2.26,208.13,131010,,,D*73
$GPRMC,001628.000,A,3748.6704,N,12217.7605,W,1.79,203.27,131010,,,D*73
$GPRMC,001629.000,A,3748.6700,N,12217.7609,W,1.72,196.02,131010,,,D*79
$GPRMC,001630.000,A,3748.6690,N,12217.7621,W,2.09,207.12,131010,,,D*76
$GPRMC,001631.000,A,3748.6684,N,12217.7626,W,1.74,206.99,131010,,,D*7E
$GPRMC,001632.000,A,3748.6679,N,12217.7631,W,1.87,203.25,131010,,,D*77
$GPRMC,001633.000,A,3748.6673,N,12217.7635,W,2.35,202.14,131010,,,D*71
$GPRMC,001634.000,A,3748.6667,N,12217.7639,W,2.06,196.86,131010,,,D*7A
$GPRMC,001635.000,A,3748.6661,N,12217.7643,W,2.09,200.40,131010,,,D*79
$GPRMC,001636.000,A,3748.6655,N,12217.7646,W,1.99,198.98,131010,,,D*75
$GPRMC,001637.000,A,3748.6650,N,12217.7650,W,1.84,205.90,131010,,,D*75
$GPRMC,001638.000,A,3748.6645,N,12217.7655,W,1.80,208.36,131010,,,D*7E
$GPRMC,001639.000,A,3748.6639,N,12217.7659,W,2.17,210.29,131010,,,D*72
$GPRMC,001640.000,A,3748.6633,N,12217.7663,W,1.87,195.87,131010,,,D*7F
$GPRMC,001641.000,A,3748.6629,N,12217.7665,W,1.65,184.95,131010,,,D*7C
$GPRMC,001642.000,A,3748.6624,N,12217.7667,W,1.70,186.17,131010,,,D*7C
$GPRMC,001643.000,A,3748.6620,N,12217.7669,W,1.39,190.36,131010,,,D*7E
$GPRMC,001644.000,A,3748.6616,N,12217.7672,W,1.72,203.39,131010,,,D*7F
$GPRMC,001645.000,A,3748.6611,N,12217.7676,W,1.64,198.16,131010,,,D*76
$GPRMC,001646.000,A,3748.6607,N,12217.7680,W,1.68,202.95,131010,,,D*7C
$GPRMC,001647.000,A,3748.6601,N,12217.7684,W,1.89,203.07,131010,,,D*7A
$GPRMC,001648.000,A,3748.6595,N,12217.7688,W,1.81,206.86,131010,,,D*73
$GPRMC,001649.000,A,3748.6591,N,12217.7691,W,1.70,190.73,131010,,,D*76
$GPRMC,001650.000,A,3748.6584,N,12217.7691,W,1.64,180.17,131010,,,D*7C
$GPRMC,001651.000,A,3748.6579,N,12217.7693,W,1.78,203.66,131010,,,D*7E
$GPRMC,001652.000,A,3748.6568,N,12217.7694,W,2.41,199.76,131010,,,D*72
$GPRMC,001653.000,A,3748.6559,N,12217.7700,W,1.97,204.26,131010,,,D*77
$GPRMC,001654.000,A,3748.6550,N,12217.7710,W,1.76,220.81,131010,,,D*7C
$GPRMC,001655.000,A,3748.6541,N,12217.7722,W,2.41,216.17,131010,,,D*71
$GPRMC,001656.000,A,3748.6532,N,12217.7733,W,2.48,212.00,131010,,,D*7D
$GPRMC,001657.000,A,3748.6523,N,12217.7742,W,1.91,208.86,131010,,,D*78
$GPRMC,001658.000,A,3748.6514,N,12217.7753,W,1.84,216.36,131010,,,D*73
$GPRMC,001659.000,A,3748.6509,N,12217.7757,W,1.83,211.49,131010,,,D*72
$GPRMC,001700.000,A,3748.6503,N,12217.7761,W,1.82,205.32,131010,,,D*78
$GPRMC,001701.000,A,3748.6496,N,12217.7762,W,1.83,179.26,131010,,,D*7B
$GPRMC,001702.000,A,3748.6488,N,12217.7763,W,2.01,186.72,131010,,,D*7E
$GPRMC,001703.000,A,3748.6481,N,12217.7763,W,2.05,188.60,131010,,,D*7F
$GPRMC,001704.000,A,3748.6474,N,12217.7763,W,2.05,191.38,131010,,,D*77
$GPRMC,001705.000,A,3748.6468,N,12217.7766,W,2.04,202.52,131010,,,D*7A
$GPRMC,001706.000,A,3748.6462,N,12217.7768,W,1.96,192.96,131010,,,D*77
$GPRMC,001707.000,A,3748.6457,N,12217.7772,W,1.92,196.06,131010,,,D*72
$GPRMC,001708.000,A,3748.6452,N,12217.7778,W,1.58,194.37,131010,,,D*74
$GPRMC,001709.000,A,3748.6448,N,12217.7784,W,1.73,201.25,131010,,,D*78
$GPRMC,001710.000,A,3748.6444,N,12217.7788,W,1.98,214.66,131010,,,D*76
$GPRMC,001711.000,A,3748.6439,N,12217.7792,W,1.78,201.69,131010,,,D*73
$GPRMC,001712.000,A,3748.6436,N,12217.7797,W,1.44,204.01,131010,,,D*7E
$GPRMC,001713.000,A,3748.6432,N,12217.7802,W,1.98,201.62,131010,,,D*79
$GPRMC,001714.000,A,3748.6429,N,12217.7806,W,1.51,195.94,131010,,,D*72
$GPRMC,001715.000,A,3748.6425,N,12217.7809,W,1.62,208.37,131010,,,D*7E
$GPRMC,001716.000,A,3748.6421,N,12217.7812,W,1.73,200.83,131010,,,D*74
$GPRMC,001717.000,A,3748.6416,N,12217.7814,W,1.92,199.41,131010,,,D*75
$GPRMC,001718.000,A,3748.6411,N,12217.7816,W,1.68,198.78,131010,,,D*71
$GPRMC,001719.000,A,3748.6406,N,12217.7819,W,1.76,195.68,131010,,,D*7A
$GPRMC,001720.000,A,3748.6401,N,12217.7821,W,1.77,198.10,131010,,,D*7F
$GPRMC,001721.000,A,3748.6396,N,12217.7823,W,1.96,206.78,131010,,,D*70
$GPRMC,001722.000,A,3748.6391,N,12217.7827,W,1.93,210.78,131010,,,D*72
$GPRMC,001723.000,A,3748.6386,N,12217.7831,W,1.85,209.90,131010,,,D*7B
$GPRMC,001724.000,A,3748.6381,N,12217.7834,W,1.58,204.77,131010,,,D*7A
$GPRMC,001725.000,A,3748.6377,N,12217.7836,W,1.16,195.94,131010,,,D*7C
$GPRMC,001726.000,A,3748.6373,N,12217.7838,W,1.51,200.64,131010,,,D*76
$GPRMC,001727.000,A,3748.6367,N,12217.7841,W,1.98,205.93,131010,,,D*74
$GPRMC,001728.000,A,3748.6361,N,12217.7845,W,2.24,209.84,131010,,,D*77
$GPRMC,001729.000,A,3748.6355,N,12217.7849,W,1.81,208.86,131010,,,D*72
$GPRMC,001730.000,A,3748.6349,N,12217.7852,W,1.69,210.00,131010,,,D*7C
$GPRMC,001731.000,A,3748.6344,N,12217.7856,W,1.82,211.83,131010,,,D*7B
$GPRMC,001732.000,A,3748.6340,N,12217.7860,W,1.63,206.92,131010,,,D*70
$GPRMC,001733.000,A,3748.6335,N,12217.7862,W,1.59,203.72,131010,,,D*73
$GPRMC,001734.000,A,3748.6330,N,12217.7866,W,2.14,209.42,131010,,,D*76
$GPRMC,001735.000,A,3748.6326,N,12217.7875,W,2.23,207.49,131010,,,D*73
$GPRMC,001736.000,A,3748.6320,N,12217.7879,W,1.80,196.94,131010,,,D*7B
$GPRMC,001737.000,A,3748.6314,N,12217.7881,W,1.70,197.31,131010,,,D*7B
$GPRMC,001738.000,A,3748.6309,N,12217.7889,W,2.18,203.62,131010,,,D*75
$GPRMC,001739.000,A,3748.6305,N,12217.7896,W,1.74,202.55,131010,,,D*7A
$GPRMC,001740.000,A,3748.6300,N,12217.7902,W,1.65,199.26,131010,,,D*78
$GPRMC,001741.000,A,3748.6296,N,12217.7906,W,1.61,195.57,131010,,,D*7D
$GPRMC,001742.000,A,3748.6291,N,12217.7911,W,1.68,199.43,131010,,,D*7F
$GPRMC,001743.000,A,3748.6287,N,12217.7917,W,2.09,206.66,131010,,,D*79
$GPRMC,001744.000,A,3748.6281,N,12217.7923,W,1.77,206.07,131010,,,D*72
$GPRMC,001745.000,A,3748.6276,N,12217.7928,W,1.79,211.15,131010,,,D*7B
$GPRMC,001746.000,A,3748.6271,N,12217.7934,W,2.02,208.62,131010,,,D*75
$GPRMC,001747.000,A,3748.6266,N,12217.7938,W,1.72,189.36,131010,,,D*71
$GPRMC,001748.000,A,3748.6261,N,12217.7941,W,1.86,186.19,131010,,,D*7E
$GPRMC,001749.000,A,3748.6256,N,12217.7945,W,1.74,202.94,131010,,,D*78
$GPRMC,001750.000,A,3748.6251,N,12217.7951,W,1.47,227.55,131010,,,D*78
$GPRMC,001751.000,A,3748.6247,N,12217.7958,W,1.91,224.05,131010,,,D*7A
$GPRMC,001752.000,A,3748.6243,N,12217.7965,W,1.97,213.38,131010,,,D*7F
$GPRMC,001753.000,A,3748.6238,N,12217.7970,W,1.71,201.33,131010,,,D*76
$GPRMC,001754.000,A,3748.6231,N,12217.7976,W,1.45,197.99,131010,,,D*75
$GPRMC,001755.000,A,3748.6226,N,12217.7981,W,2.14,212.13,131010,,,D*71
$GPRMC,001756.000,A,3748.6220,N,12217.7986,W,2.08,208.13,131010,,,D*75
$GPRMC,001757.000,A,3748.6214,N,12217.7991,W,1.88,201.07,131010,,,D*72
$GPRMC,001758.000,A,3748.6210,N,12217.7995,W,1.82,197.40,131010,,,D*78
$GPRMC,001759.000,A,3748.6207,N,12217.7999,W,1.47,208.97,131010,,,D*75
$GPRMC,001800.000,A,3748.6203,N,12217.8002,W,1.17,202.07,131010,,,D*70
$GPRMC,001801.000,A,3748.6200,N,12217.8004,W,1.38,189.70,131010,,,D*79
$GPRMC,001802.000,A,3748.6195,N,12217.8007,W,1.97,207.52,131010,,,D*76
$GPRMC,001803.000,A,3748.6190,N,12217.8011,W,2.08,206.87,131010,,,D*79
$GPRMC,001804.000,A,3748.6184,N,12217.8014,W,1.97,202.89,131010,,,D*71
$GPRMC,001805.000,A,3748.6179,N,12217.8017,W,1.86,202.84,131010,,,D*7C
$GPRMC,001806.000,A,3748.6175,N,12217.8019,W,1.61,196.13,131010,,,D*74
$GPRMC,001807.000,A,3748.6171,N,12217.8021,W,1.29,192.82,131010,,,D*7A
$GPRMC,001808.000,A,3748.6168,N,12217.8022,W,1.12,194.10,131010,,,D*7B
$GPRMC,001809.000,A,3748.6164,N,12217.8023,W,1.36,194.32,131010,,,D*71
$GPRMC,001810.000,A,3748.6160,N,12217.8025,W,1.48,192.70,131010,,,D*72
$GPRMC,001811.000,A,3748.6156,N,12217.8026,W,1.46,194.50,131010,,,D*7F
$GPRMC,001812.000,A,3748.6152,N,12217.8028,W,1.41,198.38,131010,,,D*73
$GPRMC,001813.000,A,3748.6147,N,12217.8031,W,1.37,185.07,131010,,,D*7F
$GPRMC,001814.000,A,3748.6143,N,12217.8035,W,1.29,179.83,131010,,,D*78
$GPRMC,001815.000,A,3748.6141,N,12217.8037,W,0.61,189.24,131010,,,D*76
$GPRMC,001816.000,A,3748.6138,N,12217.8038,W,0.53,141.49,131010,,,D*7A
$GPRMC,001817.000,A,3748.6134,N,12217.8039,W,0.23,102.74,131010,,,D*78
$GPRMC,001818.000,A,3748.6129,N,12217.8043,W,0.22,168.96,131010,,,D*77
$GPRMC,001819.000,A,3748.6124,N,12217.8047,W,0.28,183.83,131010,,,D*74
$GPRMC,001820.000,A,3748.6121,N,12217.8050,W,0.07,208.21,131010,,,D*78
$GPRMC,001821.000,A,3748.6119,N,12217.8052,W,0.05,75.68,131010,,,D*47
$GPRMC,001822.000,A,3748.6116,N,12217.8053,W,0.48,155.31,131010,,,D*7C
$GPRMC,001823.000,A,3748.6114,N,12217.8054,W,0.08,150.47,131010,,,D*78
$GPRMC,001824.000,A,3748.6113,N,12217.8056,W,0.36,358.73,131010,,,D*7A
$GPRMC,001825.000,A,3748.6113,N,12217.8056,W,0.01,203.83,131010,,,D*7F
$GPRMC,001826.000,A,3748.6112,N,12217.8057,W,0.42,185.70,131010,,,D*7A
$GPRMC,001827.000,A,3748.6111,N,12217.8057,W,0.07,37.03,131010,,,D*45
$GPRMC,001828.000,A,3748.6110,N,12217.8057,W,0.21,351.77,131010,,,D*7F
$GPRMC,001829.000,A,3748.6110,N,12217.8057,W,0.08,123.90,131010,,,D*7B
$GPRMC,001830.000,A,3748.6109,N,12217.8057,W,0.04,145.98,131010,,,D*7F
$GPRMC,001831.000,A,3748.6108,N,12217.8057,W,0.20,95.06,131010,,,D*42
$GPRMC,001832.000,A,3748.6108,N,12217.8056,W,0.11,65.88,131010,,,D*4B
$GPRMC,001833.000,A,3748.6107,N,12217.8056,W,0.41,140.19,131010,,,D*7E
$GPRMC,001834.000,A,3748.6105,N,12217.8059,W,0.60,225.40,131010,,,D*7B
$GPRMC,001835.000,A,3748.6103,N,12217.8060,W,1.04,195.00,131010,,,D*79
$GPRMC,001836.000,A,3748.6101,N,12217.8062,W,1.09,195.58,131010,,,D*7A
$GPRMC,001837.000,A,3748.6098,N,12217.8063,W,1.15,189.63,131010,,,D*73
$GPRMC,001838.000,A,3748.6095,N,12217.8064,W,0.95,186.94,131010,,,D*78
$GPRMC,001839.000,A,3748.6093,N,12217.8065,W,0.92,198.53,131010,,,D*7D
$GPRMC,001840.000,A,3748.6089,N,12217.8067,W,1.28,202.24,131010,,,D*7A
$GPRMC,001841.000,A,3748.6086,N,12217.8069,W,1.28,207.70,131010,,,D*7E
$GPRMC,001842.000,A,3748.6083,N,12217.8071,W,1.34,206.20,131010,,,D*78
$GPRMC,001843.000,A,3748.6080,N,12217.8074,W,1.28,207.96,131010,,,D*7E
$GPRMC,001844.000,A,3748.6076,N,12217.8076,W,1.39,199.21,131010,,,D*7A
$GPRMC,001845.000,A,3748.6073,N,12217.8078,W,1.22,195.44,131010,,,D*75
$GPRMC,001846.000,A,3748.6069,N,12217.8080,W,1.27,194.88,131010,,,D*7E
$GPRMC,001847.000,A,3748.6066,N,12217.8081,W,1.19,188.59,131010,,,D*7D
$GPRMC,001848.000,A,3748.6063,N,12217.8083,W,1.23,192.13,131010,,,D*79
$GPRMC,001849.000,A,3748.6059,N,12217.8084,W,1.16,192.04,131010,,,D*76
$GPRMC,001850.000,A,3748.6056,N,12217.8086,W,1.20,189.00,131010,,,D*78
$GPRMC,001851.000,A,3748.6053,N,12217.8087,W,1.08,192.73,131010,,,D*79
$GPRMC,001852.000,A,3748.6050,N,12217.8089,W,0.95,196.95,131010,,,D*7E
$GPRMC,001853.000,A,3748.6047,N,12217.8090,W,1.19,187.23,131010,,,D*79
$GPRMC,001854.000,A,3748.6043,N,12217.8091,W,1.60,202.30,131010,,,D*79
$GPRMC,001855.000,A,3748.6039,N,12217.8092,W,1.52,195.72,131010,,,D*7C
$GPRMC,001856.000,A,3748.6036,N,12217.8094,W,1.17,191.54,131010,,,D*77
$GPRMC,001857.000,A,3748.6031,N,12217.8095,W,1.21,202.25,131010,,,D*7A
$GPRMC,001858.000,A,3748.6026,N,12217.8097,W,0.99,194.28,131010,,,D*72
$GPRMC,001859.000,A,3748.6024,N,12217.8098,W,0.96,192.72,131010,,,D*78
$GPRMC,001900.000,A,3748.6021,N,12217.8102,W,1.63,220.07,131010,,,D*71
$GPRMC,001901.000,A,3748.6021,N,12217.8117,W,1.80,225.04,131010,,,D*7F
$GPRMC,001902.000,A,3748.6019,N,12217.8127,W,1.69,209.32,131010,,,D*78
$GPRMC,001903.000,A,3748.6017,N,12217.8136,W,1.40,216.04,131010,,,D*77
$GPRMC,001904.000,A,3748.6016,N,12217.8145,W,1.16,224.71,131010,,,D*75
$GPRMC,001905.000,A,3748.6016,N,12217.8153,W,0.98,225.23,131010,,,D*72
$GPRMC,001906.000,A,3748.6013,N,12217.8156,W,1.02,231.85,131010,,,D*7A
$GPRMC,001907.000,A,3748.6010,N,12217.8158,W,0.83,235.16,131010,,,D*70
$GPRMC,001908.000,A,3748.6007,N,12217.8162,W,1.08,235.28,131010,,,D*7F
$GPRMC,001909.000,A,3748.6005,N,12217.8165,W,0.96,223.97,131010,,,D*7E
$GPRMC,001910.000,A,3748.6002,N,12217.8169,W,0.83,218.59,131010,,,D*73
$GPRMC,001911.000,A,3748.5999,N,12217.8171,W,0.68,217.33,131010,,,D*75
$GPRMC,001912.000,A,3748.5998,N,12217.8173,W,0.71,215.83,131010,,,D*74
$GPRMC,001913.000,A,3748.5996,N,12217.8174,W,0.77,188.77,131010,,,D*76
$GPRMC,001914.000,A,3748.5993,N,12217.8174,W,1.22,179.90,131010,,,D*72
$GPRMC,001915.000,A,3748.5989,N,12217.8174,W,1.40,175.15,131010,,,D*7D
$GPRMC,001916.000,A,3748.5985,N,12217.8174,W,1.48,175.33,131010,,,D*7E
$GPRMC,001917.000,A,3748.5981,N,12217.8174,W,1.26,182.11,131010,,,D*7B
$GPRMC,001918.000,A,3748.5976,N,12217.8174,W,1.82,191.76,131010,,,D*71
$GPRMC,001919.000,A,3748.5970,N,12217.8177,W,2.00,198.73,131010,,,D*70
$GPRMC,001920.000,A,3748.5965,N,12217.8179,W,1.90,197.26,131010,,,D*75
$GPRMC,001921.000,A,3748.5960,N,12217.8182,W,1.97,201.87,131010,,,D*75
$GPRMC,001922.000,A,3748.5955,N,12217.8185,W,1.72,200.85,131010,,,D*7F
$GPRMC,001923.000,A,3748.5951,N,12217.8188,W,1.63,201.02,131010,,,D*79
$GPRMC,001924.000,A,3748.5946,N,12217.8190,W,1.65,204.74,131010,,,D*73
$GPRMC,001925.000,A,3748.5942,N,12217.8193,W,1.63,200.07,131010,,,D*73
$GPRMC,001926.000,A,3748.5938,N,12217.8195,W,1.40,196.91,131010,,,D*79
$GPRMC,001927.000,A,3748.5934,N,12217.8197,W,1.22,194.73,131010,,,D*7C
$GPRMC,001928.000,A,3748.5931,N,12217.8198,W,1.30,209.61,131010,,,D*7E
$GPRMC,001929.000,A,3748.5927,N,12217.8202,W,1.68,221.21,131010,,,D*7B
$GPRMC,001930.000,A,3748.5921,N,12217.8207,W,1.53,215.16,131010,,,D*7B
$GPRMC,001931.000,A,3748.5916,N,12217.8212,W,1.48,228.69,131010,,,D*76
$GPRMC,001932.000,A,3748.5912,N,12217.8218,W,1.21,221.98,131010,,,D*73
$GPRMC,001933.000,A,3748.5908,N,12217.8221,W,1.57,214.24,131010,,,D*73
$GPRMC,001934.000,A,3748.5907,N,12217.8231,W,1.45,208.63,131010,,,D*77
$GPRMC,001935.000,A,3748.5902,N,12217.8234,W,1.57,201.57,131010,,,D*7B
$GPRMC,001936.000,A,3748.5899,N,12217.8240,W,1.21,191.07,131010,,,D*76
$GPRMC,001937.000,A,3748.5896,N,12217.8243,W,1.15,192.98,131010,,,D*79
$GPRMC,001938.000,A,3748.5892,N,12217.8247,W,1.49,188.39,131010,,,D*7F
$GPRMC,001939.000,A,3748.5885,N,12217.8247,W,1.59,202.47,131010,,,D*71
$GPRMC,001940.000,A,3748.5877,N,12217.8247,W,1.67,193.02,131010,,,D*75
$GPRMC,001941.000,A,3748.5871,N,12217.8249,W,1.64,199.43,131010,,,D*70
$GPRMC,001942.000,A,3748.5866,N,12217.8253,W,1.51,192.40,131010,,,D*70
$GPRMC,001943.000,A,3748.5862,N,12217.8257,W,1.48,203.30,131010,,,D*75
$GPRMC,001944.000,A,3748.5857,N,12217.8262,W,1.61,199.79,131010,,,D*74
$GPRMC,001945.000,A,3748.5852,N,12217.8267,W,1.68,205.91,131010,,,D*7C
$GPRMC,001946.000,A,3748.5846,N,12217.8273,W,1.36,218.93,131010,,,D*7A
$GPRMC,001947.000,A,3748.5842,N,12217.8280,W,1.77,202.39,131010,,,D*7D
$GPRMC,001948.000,A,3748.5838,N,12217.8285,W,1.62,192.26,131010,,,D*7A
$GPRMC,001949.000,A,3748.5833,N,12217.8289,W,1.72,212.13,131010,,,D*70
$GPRMC,001950.000,A,3748.5828,N,12217.8294,W,1.86,214.31,131010,,,D*73
$GPRMC,001951.000,A,3748.5824,N,12217.8299,W,1.95,208.38,131010,,,D*75
$GPRMC,001952.000,A,3748.5821,N,12217.8307,W,1.78,201.83,131010,,,D*7F
$GPRMC,001953.000,A,3748.5818,N,12217.8314,W,1.80,201.91,131010,,,D*72
$GPRMC,001954.000,A,3748.5812,N,12217.8319,W,1.68,205.54,131010,,,D*79
$GPRMC,001955.000,A,3748.5807,N,12217.8323,W,1.65,190.63,131010,,,D*73
$GPRMC,001956.000,A,3748.5804,N,12217.8328,W,1.68,201.44,131010,,,D*7B
$GPRMC,001957.000,A,3748.5800,N,12217.8331,W,1.61,206.28,131010,,,D*72
$GPRMC,001958.000,A,3748.5793,N,12217.8333,W,1.52,215.97,131010,,,D*7C
$GPRMC,001959.000,A,3748.5787,N,12217.8335,W,1.55,211.24,131010,,,D*75
$GPRMC,002000.000,A,3748.5776,N,12217.8332,W,1.59,199.00,131010,,,D*73
$GPRMC,002001.000,A,3748.5769,N,12217.8335,W,1.69,202.85,131010,,,D*74
$GPRMC,002002.000,A,3748.5767,N,12217.8340,W,1.70,198.43,131010,,,D*79
$GPRMC,002003.000,A,3748.5763,N,12217.8350,W,1.52,199.54,131010,,,D*7A
$GPRMC,002004.000,A,3748.5759,N,12217.8356,W,1.08,191.78,131010,,,D*7B
$GPRMC,002005.000,A,3748.5756,N,12217.8362,W,1.78,201.81,131010,,,D*79
$GPRMC,002006.000,A,3748.5748,N,12217.8368,W,2.18,208.30,131010,,,D*79
$GPRMC,002007.000,A,3748.5742,N,12217.8375,W,2.26,214.57,131010,,,D*7F
$GPRMC,002008.000,A,3748.5735,N,12217.8381,W,2.05,214.94,131010,,,D*75
$GPRMC,002009.000,A,3748.5730,N,12217.8386,W,1.75,201.89,131010,,,D*7A
$GPRMC,002010.000,A,3748.5724,N,12217.8390,W,1.82,187.82,131010,,,D*7E
$GPRMC,002011.000,A,3748.5718,N,12217.8393,W,1.58,191.99,131010,,,D*79
$GPRMC,002012.000,A,3748.5714,N,12217.8396,W,1.38,196.84,131010,,,D*7E
$GPRMC,002013.000,A,3748.5708,N,12217.8396,W,1.38,209.66,131010,,,D*7B
$GPRMC,002014.000,A,3748.5704,N,12217.8401,W,1.26,215.23,131010,,,D*7A
$GPRMC,002015.000,A,3748.5701,N,12217.8406,W,1.81,210.58,131010,,,D*7D
$GPRMC,002016.000,A,3748.5697,N,12217.8410,W,1.68,208.31,131010,,,D*76
$GPRMC,002017.000,A,3748.5691,N,12217.8415,W,1.73,208.87,131010,,,D*73
$GPRMC,002018.000,A,3748.5686,N,12217.8421,W,1.73,220.59,131010,,,D*74
$GPRMC,002019.000,A,3748.5680,N,12217.8428,W,2.04,219.39,131010,,,D*75
$GPRMC,002020.000,A,3748.5674,N,12217.8434,W,2.16,213.62,131010,,,D*7E
$GPRMC,002021.000,A,3748.5673,N,12217.8434,W,1.13,205.68,131010,,,D*73
$GPRMC,002022.000,A,3748.5671,N,12217.8435,W,1.07,218.74,131010,,,D*77
$GPRMC,002023.000,A,3748.5663,N,12217.8443,W,2.44,212.35,131010,,,D*7F
$GPRMC,002024.000,A,3748.5655,N,12217.8449,W,2.57,207.17,131010,,,D*71
$GPRMC,002025.000,A,3748.5647,N,12217.8453,W,2.33,200.80,131010,,,D*73
$GPRMC,002026.000,A,3748.5642,N,12217.8458,W,2.22,209.06,131010,,,D*79
$GPRMC,002027.000,A,3748.5636,N,12217.8463,W,1.86,212.81,131010,,,D*7B
$GPRMC,002028.000,A,3748.5630,N,12217.8468,W,2.18,214.31,131010,,,D*70
$GPRMC,002029.000,A,3748.5622,N,12217.8475,W,2.61,207.20,131010,,,D*72
$GPRMC,002030.000,A,3748.5613,N,12217.8480,W,2.59,202.69,131010,,,D*71
$GPRMC,002031.000,A,3748.5605,N,12217.8484,W,2.26,200.57,131010,,,D*74
$GPRMC,002032.000,A,3748.5598,N,12217.8487,W,2.10,200.72,131010,,,A*74
$GPRMC,002033.000,A,3748.5591,N,12217.8491,W,2.23,203.94,131010,,,A*70
$GPRMC,002034.000,A,3748.5585,N,12217.8494,W,1.98,203.25,131010,,,A*7E
$GPRMC,002035.000,A,3748.5578,N,12217.8498,W,2.13,200.62,131010,,,A*71
$GPRMC,002036.000,A,3748.5572,N,12217.8501,W,2.16,202.40,131010,,,A*7E
$GPRMC,002037.000,A,3748.5567,N,12217.8506,W,1.76,202.25,131010,,,D*7F
$GPRMC,002038.000,A,3748.5563,N,12217.8510,W,1.42,202.83,131010,,,D*78
$GPRMC,002039.000,A,3748.5559,N,12217.8516,W,1.75,207.10,131010,,,D*7D
$GPRMC,002040.000,A,3748.5555,N,12217.8519,W,1.66,200.79,131010,,,D*7A
$GPRMC,002041.000,A,3748.5550,N,12217.8521,W,1.71,194.31,131010,,,D*71
$GPRMC,002042.000,A,3748.5546,N,12217.8523,W,1.52,194.73,131010,,,D*70
$GPRMC,002043.000,A,3748.5540,N,12217.8525,W,1.39,197.73,131010,,,D*7F
$GPRMC,002044.000,A,3748.5535,N,12217.8527,W,1.35,195.33,131010,,,D*72
$GPRMC,002045.000,A,3748.5529,N,12217.8529,W,1.53,182.54,131010,,,D*77
$GPRMC,002046.000,A,3748.5524,N,12217.8530,W,1.19,185.86,131010,,,D*77
$GPRMC,002047.000,A,3748.5519,N,12217.8532,W,1.31,200.18,131010,,,D*79
$GPRMC,002048.000,A,3748.5515,N,12217.8534,W,1.24,193.30,131010,,,D*7B
$GPRMC,002049.000,A,3748.5509,N,12217.8537,W,1.86,197.46,131010,,,D*79
$GPRMC,002050.000,A,3748.5502,N,12217.8541,W,1.52,205.47,131010,,,D*7B
$GPRMC,002051.000,A,3748.5497,N,12217.8545,W,1.43,212.08,131010,,,D*7E
$GPRMC,002052.000,A,3748.5491,N,12217.8549,W,1.68,220.77,131010,,,D*77
$GPRMC,002053.000,A,3748.5485,N,12217.8554,W,1.92,222.33,131010,,,D*78
$GPRMC,002054.000,A,3748.5480,N,12217.8560,W,1.65,215.09,131010,,,D*78
$GPRMC,002055.000,A,3748.5475,N,12217.8565,W,1.63,207.61,131010,,,D*7D
$GPRMC,002056.000,A,3748.5473,N,12217.8571,W,1.24,216.90,131010,,,D*70
$GPRMC,002057.000,A,3748.5470,N,12217.8579,W,1.35,215.23,131010,,,D*71
$GPRMC,002058.000,A,3748.5466,N,12217.8585,W,1.27,203.76,131010,,,D*7E
$GPRMC,002059.000,A,3748.5462,N,12217.8589,W,1.40,191.12,131010,,,D*7C
$GPRMC,002100.000,A,3748.5459,N,12217.8592,W,0.27,185.18,131010,,,D*7C
$GPRMC,002101.000,A,3748.5456,N,12217.8598,W,0.10,275.12,131010,,,D*7A
$GPRMC,002102.000,A,3748.5455,N,12217.8604,W,0.12,290.06,131010,,,D*70
$GPRMC,002103.000,A,3748.5452,N,12217.8606,W,0.12,210.06,131010,,,D*7C
$GPRMC,002104.000,A,3748.5450,N,12217.8608,W,0.24,319.00,131010,,,D*7C
$GPRMC,002105.000,A,3748.5450,N,12217.8611,W,0.03,348.34,131010,,,D*73
$GPRMC,002106.000,A,3748.5449,N,12217.8612,W,0.47,160.52,131010,,,D*73
$GPRMC,002107.000,A,3748.5447,N,12217.8612,W,1.06,167.52,131010,,,D*7F
$GPRMC,002108.000,A,3748.5444,N,12217.8613,W,0.71,174.15,131010,,,D*72
$GPRMC,002109.000,A,3748.5441,N,12217.8612,W,0.61,136.56,131010,,,D*77
$GPRMC,002110.000,A,3748.5439,N,12217.8615,W,0.29,332.30,131010,,,D*7D
$GPRMC,002111.000,A,3748.5437,N,12217.8617,W,0.34,155.73,131010,,,D*78
$GPRMC,002112.000,A,3748.5436,N,12217.8618,W,0.19,136.31,131010,,,D*79
$GPRMC,002113.000,A,3748.5435,N,12217.8620,W,0.17,147.30,131010,,,D*79
$GPRMC,002114.000,A,3748.5434,N,12217.8621,W,0.30,243.79,131010,,,D*71
$GPRMC,002115.000,A,3748.5432,N,12217.8623,W,0.70,194.27,131010,,,D*72
$GPRMC,002116.000,A,3748.5429,N,12217.8625,W,1.04,182.00,131010,,,D*7D
$GPRMC,002117.000,A,3748.5425,N,12217.8625,W,1.40,188.10,131010,,,D*7B
$GPRMC,002118.000,A,3748.5421,N,12217.8626,W,1.49,189.69,131010,,,D*75
$GPRMC,002119.000,A,3748.5417,N,12217.8627,W,1.23,189.45,131010,,,D*72
$GPRMC,002120.000,A,3748.5413,N,12217.8628,W,1.33,187.91,131010,,,D*75
$GPRMC,002121.000,A,3748.5409,N,12217.8630,W,1.67,203.83,131010,,,D*7B
$GPRMC,002122.000,A,3748.5405,N,12217.8632,W,1.37,197.34,131010,,,D*71
$GPRMC,002123.000,A,3748.5402,N,12217.8635,W,1.08,206.92,131010,,,D*7B
$GPRMC,002124.000,A,3748.5399,N,12217.8638,W,1.17,203.50,131010,,,D*71
$GPRMC,002125.000,A,3748.5396,N,12217.8641,W,1.45,203.05,131010,,,D*76
$GPRMC,002126.000,A,3748.5392,N,12217.8644,W,1.58,198.11,131010,,,D*7C
$GPRMC,002127.000,A,3748.5388,N,12217.8647,W,1.39,200.80,131010,,,D*78
$GPRMC,002128.000,A,3748.5384,N,12217.8649,W,1.22,194.02,131010,,,D*7B
$GPRMC,002129.000,A,3748.5379,N,12217.8654,W,1.52,214.85,131010,,,D*77
$GPRMC,002130.000,A,3748.5375,N,12217.8661,W,2.05,229.59,131010,,,D*7B
$GPRMC,002131.000,A,3748.5371,N,12217.8666,W,1.52,217.96,131010,,,D*76
