$ADVER,3080,2.3
$GPRMC,000834.586,A,3748.7967,N,12217.8415,W,0.53,228.13,131010,,,A*7E
$GPGGA,000835.586,3748.8005,N,12217.8561,W,1,05,2.3,-6.2,M,-25.1,M,,0000*45
$GPGSA,A,3,21,25,30,12,29,,,,,,,,4.2,2.3,3.6*3F
$GPRMC,000835.586,A,3748.8005,N,12217.8561,W,1.14,265.08,131010,,,A*7E
$GPVTG,265.08,T,,M,1.14,N,2.1,K,A*03
$GPGGA,000836.000,3748.8004,N,12217.8558,W,1,05,2.3,-5.8,M,-25.1,M,,0000*4F
$GPGSA,A,3,21,25,30,12,29,,,,,,,,4.2,2.3,3.6*3F
$GPRMC,000836.000,A,3748.8004,N,12217.8558,W,0.51,243.00,131010,,,A*71
$GPVTG,243.00,T,,M,0.51,N,0.9,K,A*05
$GPGGA,000837.000,3748.8002,N,12217.8548,W,1,05,2.3,-6.3,M,-25.1,M,,0000*41
$GPGSA,A,3,21,25,30,12,29,,,,,,,,4.2,2.3,3.6*3F
$GPGSV,3,1,12,29,68,341,32,30,55,219,31,25,51,201,34,21,38,261,27*7E
$GPGSV,3,2,12,12,24,170,29,05,50,065,,18,12,200,,02,12,062,*7D
$GPGSV,3,3,12,10,10,039,30,31,08,279,22,26,07,114,,16,01,326,*73
$GPRMC,000837.000,A,3748.8002,N,12217.8548,W,0.38,144.89,131010,,,A*7D
$GPVTG,144.89,T,,M,0.38,N,0.7,K,A*01
$GPGGA,000838.000,3748.8003,N,12217.8554,W,1,05,2.3,-5.5,M,-25.1,M,,0000*47
$GPGSA,A,3,21,25,30,12,29,,,,,,,,4.2,2.3,3.6*3F
$GPRMC,000838.000,A,3748.8003,N,12217.8554,W,0.15,168.87,131010,,,A*71
$GPVTG,168.87,T,,M,0.15,N,0.3,K,A*0A
$GPGGA,000839.000,3748.8004,N,12217.8561,W,1,05,2.3,-5.3,M,-25.1,M,,0000*41
$GPGSA,A,3,21,25,30,12,29,,,,,,,,4.2,2.3,3.6*3F
$GPRMC,000839.000,A,3748.8004,N,12217.8561,W,0.18,178.07,131010,,,A*75
$GPVTG,178.07,T,,M,0.18,N,0.3,K,A*0E
$GPGGA,000840.000,3748.8004,N,12217.8566,W,1,05,2.3,-5.2,M,-25.1,M,,0000*49
$GPGSA,A,3,21,25,30,12,29,,,,,,,,4.2,2.3,3.6*3F
$GPRMC,000840.000,A,3748.8004,N,12217.8566,W,0.10,63.61,131010,,,A*4F
$GPVTG,63.61,T,,M,0.10,N,0.2,K,A*3C
$GPGGA,000841.000,3748.8001,N,12217.8573,W,1,05,2.3,-5.2,M,-25.1,M,,0000*49
$GPGSA,A,3,21,25,30,12,29,,,,,,,,4.2,2.3,3.6*3F
$GPRMC,000841.000,A,3748.8001,N,12217.8573,W,0.09,309.79,131010,,,A*71
$GPVTG,309.79,T,,M,0.09,N,0.2,K,A*02
$GPGGA,000842.000,3748.8001,N,12217.8580,W,1,05,2.3,-5.8,M,-25.1,M,,0000*4C
$GPGSA,A,3,21,25,30,12,29,,,,,,,,4.2,2.3,3.6*3F
$GPGSV,3,1,12,29,68,341,31,30,55,219,33,25,51,201,35,05,50,064,32*75
$GPGSV,3,2,12,21,38,261,27,12,24,170,33,18,12,200,,02,12,062,28*77
$GPGSV,3,3,12,10,10,039,24,31,08,279,25,26,07,113,28,16,01,326,*7C
$GPRMC,000842.000,A,3748.8001,N,12217.8580,W,0.22,213.86,131010,,,A*7D
$GPGGA,000843.000,3748.7997,N,12217.8584,W,1,04,3.1,-3.6,M,-25.1,M,,0000*4A
$GPGSA,A,3,25,30,12,29,,,,,,,,,3.3,3.1,1.0*3D
$GPRMC,000843.000,A,3748.7997,N,12217.8584,W,0.95,119.72,131010,,,A*7F
$GPVTG,119.72,T,,M,0.95,N,1.8,K,A*04
$GPGGA,000844.000,3748.7994,N,12217.8591,W,1,05,2.3,-3.1,M,-25.1,M,,0000*4F
$GPGSA,A,3,21,25,30,12,29,,,,,,,,4.2,2.3,3.6*3F
$GPRMC,000844.000,A,3748.7994,N,12217.8591,W,0.47,113.28,131010,,,A*75
$GPVTG,113.28,T,,M,0.47,N,0.9,K,A*0E
$GPGGA,000845.000,3748.7993,N,12217.8598,W,1,05,2.3,-2.7,M,-25.1,M,,0000*47
$GPGSA,A,3,21,25,30,12,29,,,,,,,,4.2,2.3,3.6*3F
$GPRMC,000845.000,A,3748.7993,N,12217.8598,W,0.31,175.13,131010,,,A*73
$GPVTG,175.13,T,,M,0.31,N,0.6,K,A*08
$GPGGA,000846.000,3748.7991,N,12217.8603,W,1,05,2.3,-2.1,M,-25.1,M,,0000*41
$GPGSA,A,3,21,25,30,12,29,,,,,,,,4.2,2.3,3.6*3F
$GPRMC,000846.000,A,3748.7991,N,12217.8603,W,0.27,190.55,131010,,,A*7D
$GPVTG,190.55,T,,M,0.27,N,0.5,K,A*05
$GPGGA,000847.000,3748.7990,N,12217.8606,W,1,05,2.3,-1.6,M,-25.1,M,,0000*40
$GPGSA,A,3,21,25,30,12,29,,,,,,,,4.2,2.3,3.6*3F
$GPGSV,3,1,12,29,69,342,32,30,55,219,33,25,51,201,34,05,50,064,35*72
$GPGSV,3,2,12,21,38,261,36,12,24,170,40,18,12,200,,02,12,062,28*73
$GPGSV,3,3,12,10,10,039,22,31,08,279,13,26,07,113,33,16,01,326,*75
$GPRMC,000847.000,A,3748.7990,N,12217.8606,W,0.24,191.93,131010,,,A*70
$GPVTG,191.93,T,,M,0.24,N,0.4,K,A*0C
$GPGGA,000848.000,3748.7990,N,12217.8608,W,1,05,2.3,-1.1,M,-25.1,M,,0000*46
$GPGSA,A,3,21,25,30,12,29,,,,,,,,4.2,2.3,3.6*3F
$GPRMC,000848.000,A,3748.7990,N,12217.8608,W,0.22,179.30,131010,,,A*78
$GPVTG,179.30,T,,M,0.22,N,0.4,K,A*05
$GPGGA,000849.000,3748.7990,N,12217.8608,W,1,05,2.3,-0.9,M,-25.1,M,,0000*4E
$GPGSA,A,3,21,25,30,12,29,,,,,,,,4.2,2.3,3.6*3F
$GPRMC,000849.000,A,3748.7990,N,12217.8608,W,0.23,163.51,131010,,,A*74
$GPVTG,163.51,T,,M,0.23,N,0.4,K,A*08
$GPGGA,000850.000,3748.7990,N,12217.8608,W,1,05,2.3,-0.6,M,-25.1,M,,0000*49
$GPGSA,A,3,21,25,30,12,29,,,,,,,,4.2,2.3,3.6*3F
$GPRMC,000850.000,A,3748.7990,N,12217.8608,W,0.22,170.07,131010,,,A*7C
$GPVTG,170.07,T,,M,0.22,N,0.4,K,A*08
$GPGGA,000851.000,3748.7990,N,12217.8607,W,1,05,2.3,-0.2,M,-25.1,M,,0000*43
$GPGSA,A,3,21,25,30,12,29,,,,,,,,4.2,2.3,3.6*3F
$GPRMC,000851.000,A,3748.7990,N,12217.8607,W,0.20,149.23,131010,,,A*7C
$GPVTG,149.23,T,,M,0.20,N,0.4,K,A*06
$GPGGA,000852.000,3748.7990,N,12217.8606,W,1,05,2.3,0.1,M,-25.1,M,,0000*6F
$GPGSA,A,3,21,25,30,12,29,,,,,,,,4.2,2.3,3.6*3F
$GPGSV,3,1,12,29,69,342,31,30,55,219,34,25,51,201,34,05,50,064,36*75
$GPGSV,3,2,12,21,38,261,30,12,24,170,41,18,12,200,,02,12,062,29*75
$GPGSV,3,3,12,10,10,039,30,31,08,279,22,26,07,113,34,16,01,326,*73
$GPRMC,000852.000,A,3748.7990,N,12217.8606,W,0.20,155.33,131010,,,A*72
$GPVTG,155.33,T,,M,0.20,N,0.4,K,A*0A
$GPGGA,000853.000,3748.7990,N,12217.8605,W,1,05,2.3,0.4,M,-25.1,M,,0000*68
$GPGSA,A,3,21,25,30,12,29,,,,,,,,4.2,2.3,3.6*3F
$GPRMC,000853.000,A,3748.7990,N,12217.8605,W,0.24,157.62,131010,,,A*72
$GPVTG,157.62,T,,M,0.24,N,0.4,K,A*08
$GPGGA,000854.000,3748.7990,N,12217.8605,W,1,05,2.3,0.6,M,-25.1,M,,0000*6D
$GPGSA,A,3,21,25,30,12,29,,,,,,,,4.2,2.3,3.6*3F
$GPRMC,000854.000,A,3748.7990,N,12217.8605,W,0.30,162.98,131010,,,A*73
$GPVTG,162.98,T,,M,0.30,N,0.6,K,A*0C
$GPGGA,000855.000,3748.7989,N,12217.8605,W,1,05,2.3,0.8,M,-25.1,M,,0000*6A
$GPGSA,A,3,21,25,30,12,29,,,,,,,,4.2,2.3,3.6*3F
$GPRMC,000855.000,A,3748.7989,N,12217.8605,W,0.80,204.62,131010,,,A*77
$GPVTG,204.62,T,,M,0.80,N,1.5,K,A*03
$GPGGA,000856.000,3748.7986,N,12217.8607,W,1,05,2.3,1.0,M,-25.1,M,,0000*6D
$GPGSA,A,3,21,25,30,12,29,,,,,,,,4.2,2.3,3.6*3F
$GPRMC,000856.000,A,3748.7986,N,12217.8607,W,1.44,205.31,131010,,,A*77
$GPVTG,205.31,T,,M,1.44,N,2.7,K,A*0C
$GPGGA,000857.000,3748.7982,N,12217.8610,W,1,05,2.3,0.9,M,-25.1,M,,0000*66
$GPGSA,A,3,21,25,30,12,29,,,,,,,,4.2,2.3,3.6*3F
$GPGSV,3,1,12,29,69,342,32,30,55,219,37,25,51,201,40,05,50,064,28*79
$GPGSV,3,2,12,21,38,261,32,12,24,170,40,18,12,200,,02,12,062,27*78
$GPGSV,3,3,12,10,10,039,27,31,08,279,22,26,07,113,33,16,01,326,*72
$GPRMC,000857.000,A,3748.7982,N,12217.8610,W,1.97,202.11,131010,,,A*7F
$GPGGA,000858.000,3748.7977,N,12217.8612,W,1,05,2.3,1.0,M,-25.1,M,,0000*69
$GPGSA,A,3,21,25,30,12,29,,,,,,,,4.2,2.3,3.6*3F
$GPRMC,000858.000,A,3748.7977,N,12217.8612,W,2.29,193.21,131010,,,A*76
$GPVTG,193.21,T,,M,2.29,N,4.2,K,A*0A
$GPGGA,000859.000,3748.7971,N,12217.8615,W,1,05,2.3,1.1,M,-25.1,M,,0000*68
$GPGSA,A,3,21,25,30,12,29,,,,,,,,4.2,2.3,3.6*3F
$GPRMC,000859.000,A,3748.7971,N,12217.8615,W,2.59,194.07,131010,,,A*72
$GPVTG,194.07,T,,M,2.59,N,4.8,K,A*04
$GPGGA,000900.000,3748.7964,N,12217.8616,W,1,05,2.3,1.2,M,-25.1,M,,0000*61
$GPGSA,A,3,21,25,30,12,29,,,,,,,,4.2,2.3,3.6*3F
$GPRMC,000900.000,A,3748.7964,N,12217.8616,W,2.63,190.60,131010,,,A*74
$GPVTG,190.60,T,,M,2.63,N,4.9,K,A*09
$GPGGA,000901.000,3748.7957,N,12217.8617,W,1,05,2.3,1.2,M,-25.1,M,,0000*61
$GPGSA,A,3,21,25,30,12,29,,,,,,,,4.2,2.3,3.6*3F
$GPRMC,000901.000,A,3748.7957,N,12217.8617,W,2.64,180.51,131010,,,A*70
$GPVTG,180.51,T,,M,2.64,N,4.9,K,A*0D
$GPGGA,000902.000,3748.7950,N,12217.8617,W,1,05,2.3,1.3,M,-25.1,M,,0000*64
$GPGSA,A,3,21,25,30,12,29,,,,,,,,4.2,2.3,3.6*3F
$GPGSV,3,1,12,29,69,342,32,30,55,219,36,25,51,201,40,05,50,064,39*78
$GPGSV,3,2,12,21,38,261,32,12,24,170,40,18,12,200,,02,12,062,36*78
$GPGSV,3,3,12,10,10,039,26,31,08,279,10,26,07,113,33,16,01,326,*72
$GPRMC,000902.000,A,3748.7950,N,12217.8617,W,2.70,179.82,131010,,,A*79
$GPVTG,179.82,T,,M,2.70,N,5.0,K,A*08
$GPGGA,000903.000,3748.7943,N,12217.8617,W,1,05,2.3,1.3,M,-25.1,M,,0000*67
$GPGSA,A,3,21,25,30,12,29,,,,,,,,4.2,2.3,3.6*3F
$GPRMC,000903.000,A,3748.7943,N,12217.8617,W,2.84,179.35,131010,,,A*7D
$GPVTG,179.35,T,,M,2.84,N,5.3,K,A*0C
$GPGGA,000904.000,3748.7936,N,12217.8617,W,1,05,2.3,1.3,M,-25.1,M,,0000*62
$GPGSA,A,3,21,25,30,12,29,,,,,,,,4.2,2.3,3.6*3F
$GPRMC,000904.000,A,3748.7936,N,12217.8617,W,2.78,174.94,131010,,,A*7D
$GPVTG,174.94,T,,M,2.78,N,5.2,K,A*08
$GPGGA,000905.000,3748.7928,N,12217.8615,W,1,05,2.3,1.3,M,-25.1,M,,0000*6E
$GPGSA,A,3,21,25,30,12,29,,,,,,,,4.2,2.3,3.6*3F
$GPRMC,000905.000,A,3748.7928,N,12217.8615,W,2.85,170.17,131010,,,A*7C
$GPVTG,170.17,T,,M,2.85,N,5.3,K,A*04
$GPGGA,000906.000,3748.7921,N,12217.8613,W,1,05,2.3,1.4,M,-25.1,M,,0000*65
$GPGSA,A,3,21,25,30,12,29,,,,,,,,4.2,2.3,3.6*3F
$GPRMC,000906.000,A,3748.7921,N,12217.8613,W,2.78,164.58,131010,,,A*7C
$GPVTG,164.58,T,,M,2.78,N,5.1,K,A*0A
$GPGGA,000907.000,3748.7914,N,12217.8610,W,1,05,2.3,1.4,M,-25.1,M,,0000*61
$GPGSA,A,3,21,25,30,12,29,,,,,,,,4.2,2.3,3.6*3F
$GPGSV,3,1,12,29,69,342,31,30,55,219,36,25,51,201,39,05,50,064,37*7B
$GPGSV,3,2,12,21,38,261,33,12,24,170,41,18,12,200,,02,12,062,25*7A
$GPGSV,3,3,12,10,10,039,28,31,08,279,,26,07,113,33,16,01,326,*7D
$GPRMC,000907.000,A,3748.7914,N,12217.8610,W,2.80,163.24,131010,,,A*73
$GPVTG,163.24,T,,M,2.80,N,5.2,K,A*02
$GPGGA,000908.000,3748.7907,N,12217.8607,W,1,05,2.3,1.4,M,-25.1,M,,0000*6A
$GPGSA,A,3,21,25,30,12,29,,,,,,,,4.2,2.3,3.6*3F
$GPRMC,000908.000,A,3748.7907,N,12217.8607,W,2.80,161.48,131010,,,A*70
$GPVTG,161.48,T,,M,2.80,N,5.2,K,A*0A
$GPGGA,000909.000,3748.7900,N,12217.8603,W,1,05,2.3,1.4,M,-25.1,M,,0000*68
$GPGSA,A,3,21,25,30,12,29,,,,,,,,4.2,2.3,3.6*3F
$GPRMC,000909.000,A,3748.7900,N,12217.8603,W,2.91,160.67,131010,,,A*7E
$GPVTG,160.67,T,,M,2.91,N,5.4,K,A*00
$GPGGA,000910.000,3748.7893,N,12217.8600,W,1,05,2.3,1.3,M,-25.1,M,,0000*6F
$GPGSA,A,3,21,25,30,12,29,,,,,,,,4.2,2.3,3.6*3F
$GPRMC,000910.000,A,3748.7893,N,12217.8600,W,3.00,158.20,131010,,,A*7F
$GPVTG,158.20,T,,M,3.00,N,5.6,K,A*03
$GPGGA,000911.000,3748.7886,N,12217.8596,W,1,05,2.3,1.2,M,-25.1,M,,0000*67
$GPGSA,A,3,21,25,30,12,29,,,,,,,,4.2,2.3,3.6*3F
$GPRMC,000911.000,A,3748.7886,N,12217.8596,W,2.76,162.92,131010,,,A*76
$GPVTG,162.92,T,,M,2.76,N,5.1,K,A*04
$GPGGA,000912.000,3748.7877,N,12217.8594,W,1,05,2.3,1.7,M,-25.1,M,,0000*6D
$GPGSA,A,3,21,25,30,12,29,,,,,,,,4.2,2.3,3.6*3F
$GPGSV,3,1,12,29,69,342,31,30,55,219,34,25,51,201,39,05,50,064,37*79
$GPGSV,3,2,12,21,38,261,32,12,24,170,41,18,12,200,,02,12,062,27*79
$GPGSV,3,3,12,10,10,039,33,31,08,279,,26,07,113,34,16,01,326,*70
$GPRMC,000912.000,A,3748.7877,N,12217.8594,W,2.78,178.79,131010,,,A*79
$GPGGA,000913.000,3748.7869,N,12217.8600,W,1,05,2.3,0.9,M,-25.1,M,,0000*62
$GPGSA,A,3,21,25,30,12,29,,,,,,,,4.2,2.3,3.6*3F
$GPRMC,000913.000,A,3748.7869,N,12217.8600,W,2.12,187.76,131010,,,A*7A
$GPVTG,187.76,T,,M,2.12,N,3.9,K,A*09
$GPGGA,000914.000,3748.7862,N,12217.8600,W,1,05,2.3,1.1,M,-25.1,M,,0000*67
$GPGSA,A,3,21,25,30,12,29,,,,,,,,4.2,2.3,3.6*3F
$GPRMC,000914.000,A,3748.7862,N,12217.8600,W,1.87,162.90,131010,,,A*7A
$GPVTG,162.90,T,,M,1.87,N,3.5,K,A*09
$GPGGA,000915.000,3748.7855,N,12217.8594,W,1,05,2.3,2.3,M,-25.1,M,,0000*6D
$GPGSA,A,3,21,25,30,12,29,,,,,,,,4.2,2.3,3.6*3F
$GPRMC,000915.000,A,3748.7855,N,12217.8594,W,1.80,149.36,131010,,,A*73
$GPVTG,149.36,T,,M,1.80,N,3.3,K,A*0D
$GPGGA,000916.000,3748.7850,N,12217.8592,W,1,05,2.3,2.8,M,-25.1,M,,0000*66
$GPGSA,A,3,21,25,30,12,29,,,,,,,,4.2,2.3,3.6*3F
$GPRMC,000916.000,A,3748.7850,N,12217.8592,W,1.22,173.35,131010,,,A*71
$GPVTG,173.35,T,,M,1.22,N,2.3,K,A*0E
$GPGGA,000917.000,3748.7846,N,12217.8589,W,1,05,2.3,3.5,M,-25.1,M,,0000*66
$GPGSA,A,3,21,25,30,12,29,,,,,,,,4.2,2.3,3.6*3F
$GPGSV,3,1,12,29,69,342,31,30,55,219,37,25,51,201,40,05,50,064,36*75
$GPGSV,3,2,12,21,38,261,22,12,24,170,41,18,12,200,37,02,12,062,28*73
$GPGSV,3,3,12,10,10,039,19,31,08,279,18,26,08,113,24,16,01,326,*7F
$GPRMC,000917.000,A,3748.7846,N,12217.8589,W,0.69,200.74,131010,,,A*71
$GPVTG,200.74,T,,M,0.69,N,1.3,K,A*01
$GPGGA,000918.000,3748.7844,N,12217.8587,W,1,05,2.3,4.4,M,-25.1,M,,0000*63
$GPGSA,A,3,21,25,30,12,29,,,,,,,,4.2,2.3,3.6*3F
$GPRMC,000918.000,A,3748.7844,N,12217.8587,W,0.32,211.29,131010,,,A*74
$GPVTG,211.29,T,,M,0.32,N,0.6,K,A*03
$GPGGA,000919.000,3748.7842,N,12217.8584,W,1,05,2.3,4.9,M,-25.1,M,,0000*6A
$GPGSA,A,3,21,25,30,12,29,,,,,,,,4.2,2.3,3.6*3F
$GPRMC,000919.000,A,3748.7842,N,12217.8584,W,0.46,155.12,131010,,,A*78
$GPVTG,155.12,T,,M,0.46,N,0.8,K,A*05
$GPGGA,000920.000,3748.7841,N,12217.8582,W,1,04,3.1,5.1,M,-25.1,M,,0000*6E
$GPGSA,A,3,25,30,12,29,,,,,,,,,3.3,3.1,1.0*3D
$GPRMC,000920.000,A,3748.7841,N,12217.8582,W,1.18,116.43,131010,,,A*7E
$GPVTG,116.43,T,,M,1.18,N,2.2,K,A*04
$GPGGA,000921.000,3748.7839,N,12217.8577,W,1,04,3.1,5.2,M,-25.1,M,,0000*69
$GPGSA,A,3,25,30,12,29,,,,,,,,,3.3,3.1,1.0*3D
$GPRMC,000921.000,A,3748.7839,N,12217.8577,W,1.88,124.55,131010,,,A*75
$GPVTG,124.55,T,,M,1.88,N,3.5,K,A*0D
$GPGGA,000922.000,3748.7834,N,12217.8568,W,1,05,2.3,5.9,M,-25.1,M,,0000*60
$GPGSA,A,3,21,25,30,12,29,,,,,,,,4.2,2.3,3.6*3F
$GPGSV,3,1,12,29,69,342,31,30,55,219,29,25,51,201,32,05,50,064,37*7E
$GPGSV,3,2,12,21,38,261,19,12,24,170,37,18,12,200,24,02,12,062,34*75
$GPGSV,3,3,12,10,10,039,34,31,08,279,,26,08,113,39,16,01,326,*75
$GPRMC,000922.000,A,3748.7834,N,12217.8568,W,2.55,129.24,131010,,,A*7D
$GPVTG,129.24,T,,M,2.55,N,4.7,K,A*00
$GPGGA,000923.000,3748.7829,N,12217.8557,W,1,05,2.3,6.6,M,-25.1,M,,0000*6D
$GPGSA,A,3,21,25,30,12,29,,,,,,,,4.2,2.3,3.6*3F
$GPRMC,000923.000,A,3748.7829,N,12217.8557,W,2.50,132.85,131010,,,A*78
$GPVTG,132.85,T,,M,2.50,N,4.6,K,A*05
$GPGGA,000924.000,3748.7824,N,12217.8544,W,1,05,2.3,7.8,M,-25.1,M,,0000*6A
$GPGSA,A,3,21,25,30,12,29,,,,,,,,4.2,2.3,3.6*3F
$GPRMC,000924.000,A,3748.7824,N,12217.8544,W,2.80,124.85,131010,,,A*7A
$GPVTG,124.85,T,,M,2.80,N,5.2,K,A*0A
$GPGGA,000925.000,3748.7822,N,12217.8546,W,1,05,2.3,6.9,M,-25.1,M,,0000*6F
$GPGSA,A,3,21,25,30,12,29,,,,,,,,4.2,2.3,3.6*3F
$GPRMC,000925.000,A,3748.7822,N,12217.8546,W,2.72,128.08,131010,,,A*7B
$GPVTG,128.08,T,,M,2.72,N,5.0,K,A*0C
$GPGGA,000926.000,3748.7819,N,12217.8542,W,1,05,2.3,6.1,M,-25.1,M,,0000*68
$GPGSA,A,3,21,25,30,12,29,,,,,,,,4.2,2.3,3.6*3F
$GPRMC,000926.000,A,3748.7819,N,12217.8542,W,2.86,125.83,131010,,,A*71
$GPVTG,125.83,T,,M,2.86,N,5.3,K,A*0A
$GPGGA,000927.000,3748.7815,N,12217.8536,W,1,05,2.3,5.5,M,-25.1,M,,0000*61
$GPGSA,A,3,21,25,30,12,29,,,,,,,,4.2,2.3,3.6*3F
$GPGSV,3,1,12,29,69,342,32,30,55,219,30,25,51,201,33,05,50,064,38*7B
$GPGSV,3,2,12,21,38,261,28,12,24,170,28,18,12,200,24,02,12,062,34*79
$GPGSV,3,3,12,10,10,039,24,31,08,279,,26,08,113,33,16,01,326,*7E
$GPRMC,000927.000,A,3748.7815,N,12217.8536,W,3.14,126.43,131010,,,A*7A
$GPGGA,000928.000,3748.7811,N,12217.8529,W,1,05,2.3,5.6,M,-25.1,M,,0000*67
$GPGSA,A,3,21,25,30,12,29,,,,,,,,4.2,2.3,3.6*3F
$GPRMC,000928.000,A,3748.7811,N,12217.8529,W,2.62,128.55,131010,,,A*76
$GPVTG,128.55,T,,M,2.62,N,4.8,K,A*0C
$GPGGA,000929.000,3748.7808,N,12217.8526,W,1,05,2.3,5.0,M,-25.1,M,,0000*67
$GPGSA,A,3,21,25,30,12,29,,,,,,,,4.2,2.3,3.6*3F
$GPRMC,000929.000,A,3748.7808,N,12217.8526,W,2.33,130.62,131010,,,A*79
$GPVTG,130.62,T,,M,2.33,N,4.3,K,A*0E
$GPGGA,000930.000,3748.7805,N,12217.8524,W,1,05,2.3,4.4,M,-25.1,M,,0000*65
$GPGSA,A,3,21,25,30,12,29,,,,,,,,4.2,2.3,3.6*3F
$GPRMC,000930.000,A,3748.7805,N,12217.8524,W,2.21,134.68,131010,,,A*73
$GPVTG,134.68,T,,M,2.21,N,4.1,K,A*01
$GPGGA,000931.000,3748.7803,N,12217.8520,W,1,05,2.3,4.1,M,-25.1,M,,0000*63
$GPGSA,A,3,21,25,30,12,29,,,,,,,,4.2,2.3,3.6*3F
$GPRMC,000931.000,A,3748.7803,N,12217.8520,W,2.42,125.56,131010,,,A*78
$GPVTG,125.56,T,,M,2.42,N,4.5,K,A*0D
$GPGGA,000932.000,3748.7801,N,12217.8515,W,2,05,2.3,3.8,M,-25.1,M,,0000*69
$GPGSA,A,3,21,25,30,12,29,,,,,,,,4.2,2.3,3.6*3F
$GPGSV,3,1,12,29,69,342,32,30,55,219,31,25,51,201,34,05,50,064,38*7D
$GPGSV,3,2,12,21,38,261,28,12,24,170,34,18,12,200,,02,12,062,31*77
$GPGSV,3,3,12,10,10,039,31,31,08,279,,26,08,113,31,16,01,326,*78
$GPRMC,000932.000,A,3748.7801,N,12217.8515,W,2.11,120.21,131010,,,D*79
$GPVTG,120.21,T,,M,2.11,N,3.9,K,D*00
$GPGGA,000933.000,3748.7798,N,12217.8510,W,2,05,2.3,3.6,M,-25.1,M,,0000*6C
$GPGSA,A,3,21,25,30,12,29,,,,,,,,4.2,2.3,3.6*3F
$GPRMC,000933.000,A,3748.7798,N,12217.8510,W,2.31,122.48,131010,,,D*7D
$GPVTG,122.48,T,,M,2.31,N,4.3,K,D*02
$GPGGA,000934.000,3748.7799,N,12217.8495,W,2,06,1.6,2.6,M,-25.1,M,,0000*62
$GPGSA,A,3,21,25,30,12,29,05,,,,,,,3.8,1.6,3.4*33
$GPRMC,000934.000,A,3748.7799,N,12217.8495,W,2.61,122.64,131010,,,D*7C
$GPVTG,122.64,T,,M,2.61,N,4.8,K,D*02
$GPGGA,000935.000,3748.7798,N,12217.8484,W,2,06,1.6,1.9,M,-25.1,M,2.8,0000*4A
$GPGSA,A,3,21,25,30,12,29,05,,,,,,,3.8,1.6,3.4*33
$GPRMC,000935.000,A,3748.7798,N,12217.8484,W,2.35,120.71,131010,,,D*7B
$GPVTG,120.71,T,,M,2.35,N,4.3,K,D*0E
$GPGGA,000936.000,3748.7795,N,12217.8469,W,2,06,1.6,2.4,M,-25.1,M,,0000*6D
$GPGSA,A,3,21,25,30,12,29,05,,,,,,,3.8,1.6,3.4*33
$GPRMC,000936.000,A,3748.7795,N,12217.8469,W,2.28,116.90,131010,,,D*70
$GPVTG,116.90,T,,M,2.28,N,4.2,K,D*09
$GPGGA,000937.000,3748.7792,N,12217.8457,W,2,06,1.6,2.6,M,-25.1,M,2.8,0000*40
$GPGSA,A,3,21,25,30,12,29,05,,,,,,,3.8,1.6,3.4*33
$GPGSV,3,1,12,29,69,342,33,30,55,219,31,25,51,200,34,05,50,064,38*7D
$GPGSV,3,2,12,21,38,261,28,12,24,170,25,18,12,200,,02,12,062,35*73
$GPGSV,3,3,12,10,10,039,31,31,08,279,,26,08,113,26,16,01,326,*7E
$GPRMC,000937.000,A,3748.7792,N,12217.8457,W,2.51,123.37,131010,,,D*7E
$GPVTG,123.37,T,,M,2.51,N,4.7,K,D*09
$GPGGA,000938.000,3748.7789,N,12217.8446,W,2,06,1.6,3.1,M,-25.1,M,,0000*67
$GPGSA,A,3,21,25,30,12,29,05,,,,,,,3.8,1.6,3.4*33
$GPRMC,000938.000,A,3748.7789,N,12217.8446,W,2.45,117.52,131010,,,D*7A
$GPVTG,117.52,T,,M,2.45,N,4.5,K,D*0A
$GPGGA,000939.000,3748.7785,N,12217.8435,W,2,06,1.6,3.2,M,-25.1,M,,0000*6D
$GPGSA,A,3,21,25,30,12,29,05,,,,,,,3.8,1.6,3.4*33
$GPRMC,000939.000,A,3748.7785,N,12217.8435,W,2.71,120.40,131010,,,D*73
$GPVTG,120.40,T,,M,2.71,N,5.0,K,D*0E
$GPGGA,000940.000,3748.7782,N,12217.8426,W,2,06,1.6,3.3,M,-25.1,M,,0000*67
$GPGSA,A,3,21,25,30,12,29,05,,,,,,,3.8,1.6,3.4*33
$GPRMC,000940.000,A,3748.7782,N,12217.8426,W,2.39,116.54,131010,,,D*74
$GPVTG,116.54,T,,M,2.39,N,4.4,K,D*07
$GPGGA,000941.000,3748.7779,N,12217.8418,W,2,06,1.6,3.7,M,-25.1,M,2.8,0000*4F
$GPGSA,A,3,21,25,30,12,29,05,,,,,,,3.8,1.6,3.4*33
$GPRMC,000941.000,A,3748.7779,N,12217.8418,W,2.51,122.29,131010,,,D*7F
$GPVTG,122.29,T,,M,2.51,N,4.7,K,D*07
$GPGGA,000942.000,3748.7777,N,12217.8411,W,2,06,1.6,3.8,M,-25.1,M,3.8,0000*45
$GPGSA,A,3,21,25,30,12,29,05,,,,,,,3.8,1.6,3.4*33
$GPGSV,3,1,12,29,69,342,33,30,55,219,31,25,51,200,31,05,50,064,39*79
$GPGSV,3,2,12,21,39,261,29,12,24,170,36,18,13,200,,02,12,062,29*7D
$GPGSV,3,3,12,10,10,039,33,31,08,279,19,26,08,113,32,16,01,326,*71
$GPVTG,120.33,T,,M,2.23,N,4.1,K,D*0D
$GPGGA,000943.000,3748.7775,N,12217.8404,W,2,06,1.6,3.6,M,-25.1,M,4.8,0000*4B
$GPGSA,A,3,21,25,30,12,29,05,,,,,,,3.8,1.6,3.4*33
$GPRMC,000943.000,A,3748.7775,N,12217.8404,W,2.41,121.59,131010,,,D*79
$GPVTG,121.59,T,,M,2.41,N,4.5,K,D*00
$GPGGA,000944.000,3748.7773,N,12217.8396,W,2,06,1.6,2.8,M,-25.1,M,,0000*6B
$GPGSA,A,3,21,25,30,12,29,05,,,,,,,3.8,1.6,3.4*33
$GPRMC,000944.000,A,3748.7773,N,12217.8396,W,2.62,126.64,131010,,,D*7C
$GPVTG,126.64,T,,M,2.62,N,4.8,K,D*05
$GPGGA,000945.000,3748.7769,N,12217.8389,W,2,06,1.6,2.6,M,-25.1,M,,0000*61
$GPGSA,A,3,21,25,30,12,29,05,,,,,,,3.8,1.6,3.4*33
$GPRMC,000945.000,A,3748.7769,N,12217.8389,W,2.48,125.56,131010,,,D*72
$GPVTG,125.56,T,,M,2.48,N,4.6,K,D*01
$GPGGA,000946.000,3748.7766,N,12217.8383,W,2,06,1.6,2.2,M,-25.1,M,,0000*63
$GPGSA,A,3,21,25,30,12,29,05,,,,,,,3.8,1.6,3.4*33
$GPRMC,000946.000,A,3748.7766,N,12217.8383,W,1.91,129.31,131010,,,D*7E
$GPVTG,129.31,T,,M,1.91,N,3.5,K,D*0F
$GPGGA,000947.000,3748.7764,N,12217.8378,W,2,06,1.6,2.3,M,-25.1,M,,0000*65
$GPGSA,A,3,21,25,30,12,29,05,,,,,,,3.8,1.6,3.4*33
$GPGSV,3,1,12,29,69,342,33,30,55,219,31,25,51,200,34,05,50,064,38*7D
$GPGSV,3,2,12,21,39,261,24,12,24,170,25,18,13,200,,02,12,062,37*7D
$GPGSV,3,3,12,10,10,039,34,31,08,279,18,26,08,113,33,16,01,326,*76
$GPRMC,000947.000,A,3748.7764,N,12217.8378,W,1.82,124.22,131010,,,D*74
$GPVTG,124.22,T,,M,1.82,N,3.4,K,D*03
$GPGGA,000948.000,3748.7763,N,12217.8374,W,2,06,1.6,1.5,M,-25.1,M,2.8,0000*40
$GPGSA,A,3,21,25,30,12,29,05,,,,,,,3.8,1.6,3.4*33
$GPRMC,000948.000,A,3748.7763,N,12217.8374,W,1.78,124.98,131010,,,D*74
$GPVTG,124.98,T,,M,1.78,N,3.3,K,D*00
$GPGGA,000949.000,3748.7761,N,12217.8370,W,2,06,1.6,1.0,M,-25.1,M,,0000*66
$GPGSA,A,3,21,25,30,12,29,05,,,,,,,3.8,1.6,3.4*33
$GPRMC,000949.000,A,3748.7761,N,12217.8370,W,1.81,125.12,131010,,,D*76
$GPVTG,125.12,T,,M,1.81,N,3.3,K,D*05
$GPGGA,000950.000,3748.7760,N,12217.8366,W,2,06,1.6,0.5,M,-25.1,M,,0000*6C
$GPGSA,A,3,21,25,30,12,29,05,,,,,,,3.8,1.6,3.4*33
$GPRMC,000950.000,A,3748.7760,N,12217.8366,W,2.03,125.22,131010,,,D*72
$GPVTG,125.22,T,,M,2.03,N,3.8,K,D*04
$GPGGA,000951.000,3748.7758,N,12217.8361,W,2,06,1.6,-0.2,M,-25.1,M,,0000*4B
$GPGSA,A,3,21,25,30,12,29,05,,,,,,,3.8,1.6,3.4*33
$GPRMC,000951.000,A,3748.7758,N,12217.8361,W,2.16,116.33,131010,,,D*7B
$GPVTG,116.33,T,,M,2.16,N,4.0,K,D*0F
$GPGGA,000952.000,3748.7755,N,12217.8352,W,2,06,1.6,-0.2,M,-25.1,M,,0000*45
$GPGSA,A,3,21,25,30,12,29,05,,,,,,,3.8,1.6,3.4*33
$GPGSV,3,1,12,29,69,342,33,30,55,219,31,25,51,200,32,05,50,064,39*7A
$GPGSV,3,2,12,21,39,261,30,12,24,170,30,18,13,200,,02,12,062,37*7C
$GPGSV,3,3,12,10,10,039,25,31,08,279,17,26,08,113,39,16,01,326,*73
$GPRMC,000952.000,A,3748.7755,N,12217.8352,W,2.30,120.36,131010,,,D*71
$GPVTG,120.36,T,,M,2.30,N,4.3,K,D*08
$GPGGA,000953.000,3748.7751,N,12217.8344,W,2,06,1.6,-0.2,M,-25.1,M,2.8,0000*63
$GPGSA,A,3,21,25,30,12,29,05,,,,,,,3.8,1.6,3.4*33
$GPRMC,000953.000,A,3748.7751,N,12217.8344,W,2.45,121.91,131010,,,D*7D
$GPVTG,121.91,T,,M,2.45,N,4.5,K,D*00
$GPGGA,000954.000,3748.7746,N,12217.8336,W,2,06,1.6,-0.2,M,-25.1,M,3.8,0000*66
$GPGSA,A,3,21,25,30,12,29,05,,,,,,,3.8,1.6,3.4*33
$GPRMC,000954.000,A,3748.7746,N,12217.8336,W,2.49,126.81,131010,,,D*73
$GPVTG,126.81,T,,M,2.49,N,4.6,K,D*09
$GPGGA,000955.000,3748.7743,N,12217.8328,W,2,06,1.6,-0.7,M,-25.1,M,4.8,0000*6F
$GPGSA,A,3,21,25,30,12,29,05,,,,,,,3.8,1.6,3.4*33
$GPRMC,000955.000,A,3748.7743,N,12217.8328,W,2.44,124.76,131010,,,D*7F
$GPVTG,124.76,T,,M,2.44,N,4.5,K,D*0D
$GPGGA,000956.000,3748.7743,N,12217.8321,W,2,06,1.6,-0.6,M,-25.1,M,5.8,0000*65
$GPGSA,A,3,21,25,30,12,29,05,,,,,,,3.8,1.6,3.4*33
$GPRMC,000956.000,A,3748.7743,N,12217.8321,W,2.36,117.22,131010,,,D*71
$GPVTG,117.22,T,,M,2.36,N,4.4,K,D*08
$GPGGA,000957.000,3748.7743,N,12217.8314,W,2,06,1.6,-1.3,M,-25.1,M,6.8,0000*65
$GPGSA,A,3,21,25,30,12,29,05,,,,,,,3.8,1.6,3.4*33
$GPGSV,3,1,12,29,69,342,33,30,55,219,23,25,51,200,23,05,50,064,39*79
$GPGSV,3,2,12,21,39,261,22,12,24,170,23,18,13,200,,02,12,062,29*72
$GPGSV,3,3,12,10,10,039,29,31,08,279,16,26,08,113,39,16,01,326,*7E
$GPVTG,126.12,T,,M,2.30,N,4.3,K,D*08
$GPGGA,000958.000,3748.7745,N,12217.8309,W,2,06,1.6,-2.1,M,-25.1,M,7.8,0000*60
$GPGSA,A,3,21,25,30,12,29,05,,,,,,,3.8,1.6,3.4*33
$GPRMC,000958.000,A,3748.7745,N,12217.8309,W,2.09,115.51,131010,,,D*79
$GPVTG,115.51,T,,M,2.09,N,3.9,K,D*08
$GPGGA,000959.000,3748.7743,N,12217.8306,W,2,06,1.6,-2.4,M,-25.1,M,8.8,0000*62
$GPGSA,A,3,21,25,30,12,29,05,,,,,,,3.8,1.6,3.4*33
$GPRMC,000959.000,A,3748.7743,N,12217.8306,W,1.50,118.87,131010,,,D*78
$GPVTG,118.87,T,,M,1.50,N,2.8,K,D*01
$GPGGA,001000.000,3748.7743,N,12217.8302,W,2,06,1.6,-3.1,M,-25.1,M,9.8,0000*67
$GPGSA,A,3,21,25,30,12,29,05,,,,,,,3.8,1.6,3.4*33
$GPRMC,001000.000,A,3748.7743,N,12217.8302,W,1.94,127.65,131010,,,D*70
$GPVTG,127.65,T,,M,1.94,N,3.6,K,D*06
$GPGGA,001001.000,3748.7746,N,12217.8303,W,2,06,1.6,-4.2,M,-25.1,M,10.8,0000*5E
$GPGSA,A,3,21,25,30,12,29,05,,,,,,,3.8,1.6,3.4*33
$GPRMC,001001.000,A,3748.7746,N,12217.8303,W,1.99,135.16,131010,,,D*7F
$GPVTG,135.16,T,,M,1.99,N,3.7,K,D*0D
$GPGGA,001002.000,3748.7747,N,12217.8299,W,2,06,1.6,-5.2,M,-25.1,M,11.8,0000*5E
$GPGSA,A,3,21,25,30,12,29,05,,,,,,,3.8,1.6,3.4*33
$GPGSV,3,1,12,29,69,342,33,30,55,219,20,25,51,200,20,05,50,064,39*79
$GPGSV,3,2,12,21,39,261,21,12,24,170,22,18,13,200,,02,12,062,34*7C
$GPGSV,3,3,12,10,10,039,26,31,08,279,16,26,08,113,38,16,01,326,*70
$GPRMC,001002.000,A,3748.7747,N,12217.8299,W,1.90,128.29,131010,,,D*76
$GPVTG,128.29,T,,M,1.90,N,3.5,K,D*06
$GPGGA,001003.000,3748.7747,N,12217.8292,W,2,06,1.6,-6.2,M,-25.1,M,12.8,0000*54
$GPGSA,A,3,21,25,30,12,29,05,,,,,,,3.8,1.6,3.4*33
$GPRMC,001003.000,A,3748.7747,N,12217.8292,W,1.98,128.02,131010,,,D*7D
$GPVTG,128.02,T,,M,1.98,N,3.7,K,D*05
$GPGGA,001004.000,3748.7746,N,12217.8287,W,2,07,1.4,-6.5,M,-25.1,M,13.8,0000*53
$GPGSA,A,3,21,25,30,12,29,02,05,,,,,,2.4,1.4,2.0*3B
$GPRMC,001004.000,A,3748.7746,N,12217.8287,W,1.73,138.49,131010,,,D*74
$GPVTG,138.49,T,,M,1.73,N,3.2,K,D*0B
$GPGGA,001005.000,3748.7748,N,12217.8287,W,2,07,1.4,-7.7,M,-25.1,M,14.8,0000*58
$GPGSA,A,3,21,25,30,12,29,02,05,,,,,,2.4,1.4,2.0*3B
$GPRMC,001005.000,A,3748.7748,N,12217.8287,W,1.51,153.88,131010,,,D*7B
$GPVTG,153.88,T,,M,1.51,N,2.8,K,D*00
$GPGGA,001006.000,3748.7748,N,12217.8282,W,2,07,1.4,-8.2,M,-25.1,M,15.8,0000*55
$GPGSA,A,3,21,25,30,12,29,02,05,,,,,,2.4,1.4,2.0*3B
$GPRMC,001006.000,A,3748.7748,N,12217.8282,W,2.21,136.38,131010,,,D*71
$GPVTG,136.38,T,,M,2.21,N,4.1,K,D*03
$GPGGA,001007.000,3748.7742,N,12217.8275,W,2,07,1.4,-6.8,M,-25.1,M,16.8,0000*51
$GPGSA,A,3,21,25,30,12,29,02,05,,,,,,2.4,1.4,2.0*3B
$GPGSV,3,1,12,29,69,343,33,30,55,219,20,25,50,200,21,05,50,064,40*76
$GPGSV,3,2,12,21,39,261,19,12,24,170,22,18,13,200,,02,12,062,34*77
$GPGSV,3,3,12,10,10,039,26,31,08,279,15,26,08,113,33,16,01,326,*78
$GPRMC,001007.000,A,3748.7742,N,12217.8275,W,2.35,129.74,131010,,,D*71
$GPVTG,129.74,T,,M,2.35,N,4.4,K,D*05
$GPGGA,001008.000,3748.7733,N,12217.8264,W,2,07,1.4,-4.4,M,-25.1,M,17.8,0000*57
$GPGSA,A,3,21,25,30,12,29,02,05,,,,,,2.4,1.4,2.0*3B
$GPRMC,001008.000,A,3748.7733,N,12217.8264,W,2.15,132.41,131010,,,D*76
$GPVTG,132.41,T,,M,2.15,N,4.0,K,D*0F
$GPGGA,001009.000,3748.7734,N,12217.8257,W,1,07,1.4,-4.0,M,-25.1,M,,0000*46
$GPGSA,A,3,21,25,30,12,29,02,05,,,,,,2.4,1.4,2.0*3B
$GPRMC,001009.000,A,3748.7734,N,12217.8257,W,1.80,119.51,131010,,,A*72
$GPVTG,119.51,T,,M,1.80,N,3.3,K,A*09
$GPGGA,001010.000,3748.7724,N,12217.8236,W,1,07,1.4,-1.0,M,-25.1,M,,0000*4D
$GPGSA,A,3,21,25,30,12,29,02,05,,,,,,2.4,1.4,2.0*3B
$GPRMC,001010.000,A,3748.7724,N,12217.8236,W,2.45,122.99,131010,,,A*7A
$GPVTG,122.99,T,,M,2.45,N,4.5,K,A*0E
$GPGGA,001011.000,3748.7718,N,12217.8225,W,1,07,1.4,0.0,M,-25.1,M,,0000*6D
$GPGSA,A,3,21,25,30,12,29,02,05,,,,,,2.4,1.4,2.0*3B
$GPRMC,001011.000,A,3748.7718,N,12217.8225,W,2.37,123.21,131010,,,A*71
$GPVTG,123.21,T,,M,2.37,N,4.4,K,A*08
$GPGGA,001012.000,3748.7715,N,12217.8217,W,1,07,1.4,0.7,M,-25.1,M,,0000*65
$GPGSA,A,3,21,25,30,12,29,02,05,,,,,,2.4,1.4,2.0*3B
$GPGSV,3,1,12,29,69,343,33,30,55,219,31,25,50,200,31,05,50,064,40*77
$GPGSV,3,2,12,21,39,261,24,12,24,170,22,18,13,200,,02,12,062,35*78
$GPGSV,3,3,12,10,10,039,30,31,08,279,15,26,08,113,31,16,01,326,*7D
$GPRMC,001012.000,A,3748.7715,N,12217.8217,W,2.49,124.71,131010,,,A*75
$GPVTG,124.71,T,,M,2.49,N,4.6,K,A*01
$GPGGA,001013.000,3748.7707,N,12217.8205,W,1,07,1.4,2.0,M,-25.1,M,,0000*61
$GPGSA,A,3,21,25,30,12,29,02,05,,,,,,2.4,1.4,2.0*3B
$GPRMC,001013.000,A,3748.7707,N,12217.8205,W,2.52,128.16,131010,,,A*73
$GPVTG,128.16,T,,M,2.52,N,4.7,K,A*07
$GPGGA,001014.000,3748.7703,N,12217.8199,W,1,07,1.4,1.7,M,-25.1,M,,0000*60
$GPGSA,A,3,21,25,30,12,29,02,05,,,,,,2.4,1.4,2.0*3B
$GPRMC,001014.000,A,3748.7703,N,12217.8199,W,2.33,119.49,131010,,,A*79
$GPVTG,119.49,T,,M,2.33,N,4.3,K,A*0C
$GPGGA,001015.000,3748.7700,N,12217.8194,W,2,07,1.4,1.1,M,-25.1,M,1.8,0000*4D
$GPGSA,A,3,21,25,30,12,29,02,05,,,,,,2.4,1.4,2.0*3B
$GPRMC,001015.000,A,3748.7700,N,12217.8194,W,2.73,118.90,131010,,,D*72
$GPVTG,118.90,T,,M,2.73,N,5.1,K,D*0B
$GPGGA,001016.000,3748.7694,N,12217.8184,W,2,07,1.4,1.8,M,-25.1,M,,0000*6D
$GPGSA,A,3,21,25,30,12,29,02,05,,,,,,2.4,1.4,2.0*3B
$GPRMC,001016.000,A,3748.7694,N,12217.8184,W,2.24,120.53,131010,,,D*7A
$GPVTG,120.53,T,,M,2.24,N,4.2,K,D*0F
$GPGGA,001017.000,3748.7690,N,12217.8178,W,2,07,1.4,1.8,M,-25.1,M,2.8,0000*4F
$GPGSA,A,3,21,25,30,12,29,02,05,,,,,,2.4,1.4,2.0*3B
$GPGSV,3,1,12,29,69,343,33,30,55,218,31,25,50,200,31,05,50,064,40*76
$GPGSV,3,2,12,21,39,261,24,12,24,170,22,18,13,200,,02,11,062,36*78
$GPGSV,3,3,12,10,10,039,23,26,08,113,31,31,08,279,15,16,01,326,*7F
$GPVTG,118.73,T,,M,2.10,N,3.9,K,D*0D
$GPGGA,001018.000,3748.7684,N,12217.8168,W,2,07,1.4,2.7,M,-25.1,M,3.8,0000*49
$GPGSA,A,3,21,25,30,12,29,02,05,,,,,,2.4,1.4,2.0*3B
$GPRMC,001018.000,A,3748.7684,N,12217.8168,W,2.16,117.14,131010,,,D*71
$GPVTG,117.14,T,,M,2.16,N,4.0,K,D*0B
$GPGGA,001019.000,3748.7681,N,12217.8163,W,2,07,1.4,2.3,M,-25.1,M,4.8,0000*45
$GPGSA,A,3,21,25,30,12,29,02,05,,,,,,2.4,1.4,2.0*3B
$GPRMC,001019.000,A,3748.7681,N,12217.8163,W,2.61,121.20,131010,,,D*7C
$GPVTG,121.20,T,,M,2.61,N,4.8,K,D*01
$GPGGA,001020.000,3748.7676,N,12217.8155,W,2,07,1.4,2.3,M,-25.1,M,5.8,0000*43
$GPGSA,A,3,21,25,30,12,29,02,05,,,,,,2.4,1.4,2.0*3B
$GPRMC,001020.000,A,3748.7676,N,12217.8155,W,2.44,121.30,131010,,,D*7D
$GPVTG,121.30,T,,M,2.44,N,4.5,K,D*0A
$GPGGA,001021.000,3748.7670,N,12217.8145,W,2,07,1.4,2.9,M,-25.1,M,,0000*6C
$GPGSA,A,3,21,25,30,12,29,02,05,,,,,,2.4,1.4,2.0*3B
$GPRMC,001021.000,A,3748.7670,N,12217.8145,W,2.70,131.79,131010,,,D*70
$GPVTG,131.79,T,,M,2.70,N,5.0,K,D*05
$GPGGA,001022.000,3748.7666,N,12217.8140,W,2,07,1.4,2.4,M,-25.1,M,2.8,0000*44
$GPGSA,A,3,21,25,30,12,29,02,05,,,,,,2.4,1.4,2.0*3B
$GPGSV,3,1,12,29,69,343,33,30,55,218,30,25,50,200,30,05,50,064,39*78
$GPGSV,3,2,12,21,39,261,24,12,24,170,22,18,13,200,,02,11,062,35*7B
$GPGSV,3,3,12,10,10,039,32,26,08,113,28,31,08,279,15,16,01,326,*77
$GPRMC,001022.000,A,3748.7666,N,12217.8140,W,2.12,123.48,131010,,,D*74
$GPVTG,123.48,T,,M,2.12,N,3.9,K,D*0F
$GPGGA,001023.000,3748.7659,N,12217.8128,W,2,07,1.4,3.5,M,-25.1,M,3.8,0000*46
$GPGSA,A,3,21,25,30,12,29,02,05,,,,,,2.4,1.4,2.0*3B
$GPRMC,001023.000,A,3748.7659,N,12217.8128,W,2.55,120.34,131010,,,D*7C
$GPVTG,120.34,T,,M,2.55,N,4.7,K,D*0D
$GPGGA,001024.000,3748.7655,N,12217.8122,W,2,07,1.4,3.0,M,-25.1,M,4.8,0000*45
$GPGSA,A,3,21,25,30,12,29,02,05,,,,,,2.4,1.4,2.0*3B
$GPRMC,001024.000,A,3748.7655,N,12217.8122,W,2.15,124.70,131010,,,D*7D
$GPVTG,124.70,T,,M,2.15,N,4.0,K,D*0A
$GPGGA,001025.000,3748.7648,N,12217.8111,W,2,07,1.4,3.8,M,-25.1,M,5.8,0000*41
$GPGSA,A,3,21,25,30,12,29,02,05,,,,,,2.4,1.4,2.0*3B
$GPRMC,001025.000,A,3748.7648,N,12217.8111,W,2.57,129.18,131010,,,D*75
$GPVTG,129.18,T,,M,2.57,N,4.8,K,D*07
$GPGGA,001026.000,3748.7642,N,12217.8100,W,2,07,1.4,4.4,M,-25.1,M,6.8,0000*40
$GPGSA,A,3,21,25,30,12,29,02,05,,,,,,2.4,1.4,2.0*3B
$GPRMC,001026.000,A,3748.7642,N,12217.8100,W,2.26,121.56,131010,,,D*78
$GPVTG,121.56,T,,M,2.26,N,4.2,K,D*09
$GPGGA,001027.000,3748.7635,N,12217.8088,W,2,07,1.4,5.4,M,-25.1,M,,0000*61
$GPGSA,A,3,21,25,30,12,29,02,05,,,,,,2.4,1.4,2.0*3B
$GPGSV,3,1,12,29,69,343,33,30,55,218,29,25,50,200,27,05,50,064,39*76
$GPGSV,3,2,12,21,39,261,24,12,24,170,22,18,13,200,,02,11,062,36*78
$GPGSV,3,3,12,10,10,039,23,26,08,113,28,31,08,279,15,16,01,326,*77
$GPRMC,001027.000,A,3748.7635,N,12217.8088,W,2.51,121.11,131010,,,D*7B
$GPVTG,121.11,T,,M,2.51,N,4.6,K,D*0E
$GPGGA,001028.000,3748.7626,N,12217.8074,W,2,07,1.4,6.5,M,-25.1,M,2.8,0000*49
$GPGSA,A,3,21,25,30,12,29,02,05,,,,,,2.4,1.4,2.0*3B
$GPRMC,001028.000,A,3748.7626,N,12217.8074,W,2.84,125.04,131010,,,D*7D
$GPVTG,125.04,T,,M,2.84,N,5.3,K,D*02
$GPGGA,001029.000,3748.7619,N,12217.8061,W,2,07,1.4,7.5,M,-25.1,M,3.8,0000*40
$GPGSA,A,3,21,25,30,12,29,02,05,,,,,,2.4,1.4,2.0*3B
$GPRMC,001029.000,A,3748.7619,N,12217.8061,W,2.88,124.80,131010,,,D*75
$GPVTG,124.80,T,,M,2.88,N,5.3,K,D*03
$GPGGA,001030.000,3748.7613,N,12217.8051,W,2,07,1.4,8.0,M,-25.1,M,4.8,0000*4C
$GPGSA,A,3,21,25,30,12,29,02,05,,,,,,2.4,1.4,2.0*3B
$GPRMC,001030.000,A,3748.7613,N,12217.8051,W,2.60,124.72,131010,,,D*7F
$GPVTG,124.72,T,,M,2.60,N,4.8,K,D*02
$GPGGA,001031.000,3748.7609,N,12217.8048,W,2,07,1.4,7.5,M,-25.1,M,5.8,0000*45
$GPGSA,A,3,21,25,30,12,29,02,05,,,,,,2.4,1.4,2.0*3B
$GPRMC,001031.000,A,3748.7609,N,12217.8048,W,2.44,131.36,131010,,,D*7F
$GPVTG,131.36,T,,M,2.44,N,4.5,K,D*0D
$GPGGA,001032.000,3748.7604,N,12217.8040,W,2,07,1.4,7.7,M,-25.1,M,,0000*62
$GPGSA,A,3,21,25,30,12,29,02,05,,,,,,2.4,1.4,2.0*3B
$GPGSV,3,1,12,29,69,343,31,30,55,218,29,25,50,200,28,05,50,064,31*73
$GPGSV,3,2,12,21,39,261,25,12,24,170,23,18,13,200,,02,11,062,36*78
$GPGSV,3,3,12,10,10,039,33,26,08,113,28,31,08,279,18,16,01,326,*7B
$GPRMC,001032.000,A,3748.7604,N,12217.8040,W,2.19,119.21,131010,,,D*7D
$GPVTG,119.21,T,,M,2.19,N,4.0,K,D*0C
$GPGGA,001033.000,3748.7599,N,12217.8033,W,2,07,1.4,8.0,M,-25.1,M,2.8,0000*4C
$GPGSA,A,3,21,25,30,12,29,02,05,,,,,,2.4,1.4,2.0*3B
$GPRMC,001033.000,A,3748.7599,N,12217.8033,W,2.28,126.38,131010,,,D*79
$GPVTG,126.38,T,,M,2.28,N,4.2,K,D*08
$GPGGA,001034.000,3748.7594,N,12217.8027,W,2,08,1.3,7.8,M,-25.1,M,3.8,0000*4D
$GPGSA,A,3,21,25,30,12,29,02,05,26,,,,,2.3,1.3,1.9*35
$GPRMC,001034.000,A,3748.7594,N,12217.8027,W,2.28,131.93,131010,,,D*71
$GPVTG,131.93,T,,M,2.28,N,4.2,K,D*0F
$GPGGA,001035.000,3748.7590,N,12217.8018,W,2,08,1.3,7.7,M,-25.1,M,4.8,0000*4C
$GPGSA,A,3,21,25,30,12,29,02,05,26,,,,,2.3,1.3,1.9*35
$GPRMC,001035.000,A,3748.7590,N,12217.8018,W,2.59,120.13,131010,,,D*76
$GPVTG,120.13,T,,M,2.59,N,4.8,K,D*0B
$GPGGA,001036.000,3748.7586,N,12217.8010,W,2,08,1.3,7.8,M,-25.1,M,5.8,0000*4E
$GPGSA,A,3,21,25,30,12,29,02,05,26,,,,,2.3,1.3,1.9*35
$GPRMC,001036.000,A,3748.7586,N,12217.8010,W,2.77,119.52,131010,,,D*79
$GPVTG,119.52,T,,M,2.77,N,5.1,K,D*00
$GPGGA,001037.000,3748.7584,N,12217.8003,W,2,08,1.3,7.7,M,-25.1,M,6.8,0000*43
$GPGSA,A,3,21,25,30,12,29,02,05,26,,,,,2.3,1.3,1.9*35
$GPGSV,3,1,12,29,69,343,28,30,55,218,29,25,50,200,28,05,50,063,37*7A
$GPGSV,3,2,12,21,39,262,25,12,24,170,25,18,13,200,,02,11,063,33*79
$GPGSV,3,3,12,10,10,039,27,26,08,113,34,31,08,278,18,16,01,326,*72
$GPRMC,001037.000,A,3748.7584,N,12217.8003,W,2.34,118.46,131010,,,D*7B
$GPGGA,001038.000,3748.7582,N,12217.7996,W,2,08,1.3,7.3,M,-25.1,M,1.8,0000*43
$GPGSA,A,3,21,25,30,12,29,02,05,26,,,,,2.3,1.3,1.9*35
$GPRMC,001038.000,A,3748.7582,N,12217.7996,W,2.21,119.96,131010,,,D*70
$GPVTG,119.96,T,,M,2.21,N,4.1,K,D*0A
$GPGGA,001039.000,3748.7579,N,12217.7989,W,2,08,1.3,7.2,M,-25.1,M,1.8,0000*49
$GPGSA,A,3,21,25,30,12,29,02,05,26,,,,,2.3,1.3,1.9*35
$GPRMC,001039.000,A,3748.7579,N,12217.7989,W,2.34,117.63,131010,,,D*7B
$GPVTG,117.63,T,,M,2.34,N,4.3,K,D*08
$GPGGA,001040.000,3748.7575,N,12217.7982,W,2,08,1.3,7.1,M,-25.1,M,0.8,0000*42
$GPGSA,A,3,21,25,30,12,29,02,05,26,,,,,2.3,1.3,1.9*35
$GPRMC,001040.000,A,3748.7575,N,12217.7982,W,2.39,117.24,131010,,,D*7C
$GPVTG,117.24,T,,M,2.39,N,4.4,K,D*01
$GPGGA,001041.000,3748.7570,N,12217.7974,W,2,08,1.3,7.2,M,-25.1,M,1.8,0000*4D
$GPGSA,A,3,21,25,30,12,29,02,05,26,,,,,2.3,1.3,1.9*35
$GPRMC,001041.000,A,3748.7570,N,12217.7974,W,2.60,119.23,131010,,,D*74
$GPVTG,119.23,T,,M,2.60,N,4.8,K,D*08
$GPGGA,001042.000,3748.7568,N,12217.7966,W,2,08,1.3,7.2,M,-25.1,M,2.8,0000*47
$GPGSA,A,3,21,25,30,12,29,02,05,26,,,,,2.3,1.3,1.9*35
$GPGSV,3,1,12,29,69,343,33,30,55,218,29,25,50,200,33,05,50,063,39*74
$GPGSV,3,2,12,21,39,262,30,12,24,170,35,18,13,200,,02,11,063,33*7C
$GPGSV,3,3,12,10,10,039,36,26,08,113,35,31,08,278,18,16,01,326,*73
$GPRMC,001042.000,A,3748.7568,N,12217.7966,W,2.14,110.07,131010,,,D*71
$GPVTG,110.07,T,,M,2.14,N,4.0,K,D*0C
$GPGGA,001043.000,3748.7565,N,12217.7959,W,2,08,1.3,7.3,M,-25.1,M,3.8,0000*47
$GPGSA,A,3,21,25,30,12,29,02,05,26,,,,,2.3,1.3,1.9*35
$GPRMC,001043.000,A,3748.7565,N,12217.7959,W,2.31,113.38,131010,,,D*79
$GPVTG,113.38,T,,M,2.31,N,4.3,K,D*07
$GPGGA,001044.000,3748.7562,N,12217.7951,W,2,08,1.3,7.4,M,-25.1,M,4.8,0000*4F
$GPGSA,A,3,21,25,30,12,29,02,05,26,,,,,2.3,1.3,1.9*35
$GPRMC,001044.000,A,3748.7562,N,12217.7951,W,2.39,115.26,131010,,,D*70
$GPVTG,115.26,T,,M,2.39,N,4.4,K,D*01
$GPGGA,001045.000,3748.7559,N,12217.7944,W,2,08,1.3,7.4,M,-25.1,M,5.8,0000*43
$GPGSA,A,3,21,25,30,12,29,02,05,26,,,,,2.3,1.3,1.9*35
$GPRMC,001045.000,A,3748.7559,N,12217.7944,W,2.40,121.59,131010,,,D*7C
$GPVTG,121.59,T,,M,2.40,N,4.4,K,D*00
$GPGGA,001046.000,3748.7555,N,12217.7937,W,2,08,1.3,7.5,M,-25.1,M,1.8,0000*4D
$GPGSA,A,3,21,25,30,12,29,02,05,26,,,,,2.3,1.3,1.9*35
$GPRMC,001046.000,A,3748.7555,N,12217.7937,W,2.32,124.75,131010,,,D*79
$GPVTG,124.75,T,,M,2.32,N,4.3,K,D*09
$GPGGA,001047.000,3748.7554,N,12217.7935,W,2,08,1.3,6.5,M,-25.1,M,2.8,0000*4D
$GPGSA,A,3,21,25,30,12,29,02,05,26,,,,,2.3,1.3,1.9*35
$GPGSV,3,1,12,29,69,343,33,30,54,218,30,25,50,200,33,05,49,063,40*7B
$GPGSV,3,2,12,21,39,262,31,12,23,170,34,18,13,200,,02,11,063,31*79
$GPGSV,3,3,12,10,10,039,36,26,08,113,35,31,08,278,19,16,01,326,*72
$GPRMC,001047.000,A,3748.7554,N,12217.7935,W,2.39,121.15,131010,,,D*73
$GPVTG,121.15,T,,M,2.39,N,4.4,K,D*06
$GPGGA,001048.000,3748.7550,N,12217.7929,W,2,08,1.3,6.4,M,-25.1,M,3.8,0000*4B
$GPGSA,A,3,21,25,30,12,29,02,05,26,,,,,2.3,1.3,1.9*35
$GPRMC,001048.000,A,3748.7550,N,12217.7929,W,2.35,125.58,131010,,,D*74
$GPVTG,125.58,T,,M,2.35,N,4.4,K,D*07
$GPGGA,001049.000,3748.7547,N,12217.7923,W,2,08,1.3,6.1,M,-25.1,M,4.8,0000*44
$GPGSA,A,3,21,25,30,12,29,02,05,26,,,,,2.3,1.3,1.9*35
$GPRMC,001049.000,A,3748.7547,N,12217.7923,W,2.13,120.59,131010,,,D*79
$GPVTG,120.59,T,,M,2.13,N,3.9,K,D*0D
$GPGGA,001050.000,3748.7544,N,12217.7917,W,2,08,1.3,5.9,M,-25.1,M,1.8,0000*46
$GPGSA,A,3,21,25,30,12,29,02,05,26,,,,,2.3,1.3,1.9*35
$GPRMC,001050.000,A,3748.7544,N,12217.7917,W,2.15,126.45,131010,,,D*78
$GPVTG,126.45,T,,M,2.15,N,4.0,K,D*0E
$GPGGA,001051.000,3748.7541,N,12217.7912,W,2,08,1.3,5.4,M,-25.1,M,2.8,0000*49
$GPGSA,A,3,21,25,30,12,29,02,05,26,,,,,2.3,1.3,1.9*35
$GPRMC,001051.000,A,3748.7541,N,12217.7912,W,2.59,126.96,131010,,,D*7F
$GPVTG,126.96,T,,M,2.59,N,4.8,K,D*00
$GPGGA,001052.000,3748.7536,N,12217.7905,W,2,08,1.3,5.3,M,-25.1,M,3.8,0000*4A
$GPGSA,A,3,21,25,30,12,29,02,05,26,,,,,2.3,1.3,1.9*35
$GPGSV,3,1,12,29,69,343,33,30,54,218,30,25,50,200,33,05,49,063,40*7B
$GPGSV,3,2,12,21,39,262,30,12,23,170,35,18,13,200,,02,11,063,31*79
$GPGSV,3,3,12,10,10,039,26,26,08,113,32,31,08,278,20,16,01,326,*7E
$GPRMC,001052.000,A,3748.7536,N,12217.7905,W,2.40,131.78,131010,,,D*74
$GPVTG,131.78,T,,M,2.40,N,4.4,K,D*02
$GPGGA,001053.000,3748.7531,N,12217.7898,W,2,08,1.3,5.4,M,-25.1,M,4.8,0000*49
$GPGSA,A,3,21,25,30,12,29,02,05,26,,,,,2.3,1.3,1.9*35
$GPRMC,001053.000,A,3748.7531,N,12217.7898,W,2.45,125.86,131010,,,D*76
$GPVTG,125.86,T,,M,2.45,N,4.5,K,D*02
$GPGGA,001054.000,3748.7527,N,12217.7890,W,2,08,1.3,5.3,M,-25.1,M,1.8,0000*43
$GPGSA,A,3,21,25,30,12,29,02,05,26,,,,,2.3,1.3,1.9*35
$GPRMC,001054.000,A,3748.7527,N,12217.7890,W,2.34,118.47,131010,,,D*7B
$GPVTG,118.47,T,,M,2.34,N,4.3,K,D*01
$GPGGA,001055.000,3748.7523,N,12217.7883,W,2,08,1.3,5.3,M,-25.1,M,2.8,0000*47
$GPGSA,A,3,21,25,30,12,29,02,05,26,,,,,2.3,1.3,1.9*35
$GPRMC,001055.000,A,3748.7523,N,12217.7883,W,2.54,126.00,131010,,,D*74
$GPVTG,126.00,T,,M,2.54,N,4.7,K,D*0D
$GPGGA,001056.000,3748.7519,N,12217.7876,W,2,08,1.3,5.2,M,-25.1,M,3.8,0000*47
$GPGSA,A,3,21,25,30,12,29,02,05,26,,,,,2.3,1.3,1.9*35
$GPRMC,001056.000,A,3748.7519,N,12217.7876,W,2.44,127.96,131010,,,D*7B
$GPVTG,127.96,T,,M,2.44,N,4.5,K,D*00
$GPGGA,001057.000,3748.7514,N,12217.7869,W,2,08,1.3,5.2,M,-25.1,M,1.8,0000*47
$GPGSA,A,3,21,25,30,12,29,02,05,26,,,,,2.3,1.3,1.9*35
$GPGSV,3,1,12,29,69,343,32,30,54,218,30,25,50,200,33,05,49,063,32*7F
$GPGSV,3,2,12,21,39,262,28,12,23,170,36,18,13,200,,02,11,063,31*73
$GPGSV,3,3,12,10,10,039,26,26,08,113,31,31,08,278,26,16,01,326,*7B
$GPVTG,127.35,T,,M,2.59,N,4.8,K,D*08
$GPGGA,001058.000,3748.7510,N,12217.7862,W,2,08,1.3,5.1,M,-25.1,M,1.8,0000*44
$GPGSA,A,3,21,25,30,12,29,02,05,26,,,,,2.3,1.3,1.9*35
$GPRMC,001058.000,A,3748.7510,N,12217.7862,W,2.16,129.45,131010,,,D*7E
$GPVTG,129.45,T,,M,2.16,N,4.0,K,D*02
$GPGGA,001059.000,3748.7506,N,12217.7856,W,2,08,1.3,5.0,M,-25.1,M,2.8,0000*47
$GPGSA,A,3,21,25,30,12,29,02,05,26,,,,,2.3,1.3,1.9*35
$GPRMC,001059.000,A,3748.7506,N,12217.7856,W,2.07,122.64,131010,,,D*77
$GPVTG,122.64,T,,M,2.07,N,3.8,K,D*05
$GPGGA,001100.000,3748.7503,N,12217.7848,W,2,08,1.3,5.1,M,-25.1,M,3.8,0000*40
$GPGSA,A,3,21,25,30,12,29,02,05,26,,,,,2.3,1.3,1.9*35
$GPRMC,001100.000,A,3748.7503,N,12217.7848,W,2.27,117.70,131010,,,D*71
$GPVTG,117.70,T,,M,2.27,N,4.2,K,D*09
$GPGGA,001101.000,3748.7501,N,12217.7843,W,2,08,1.3,4.9,M,-25.1,M,4.8,0000*46
$GPGSA,A,3,21,25,30,12,29,02,05,26,,,,,2.3,1.3,1.9*35
$GPRMC,001101.000,A,3748.7501,N,12217.7843,W,2.00,114.43,131010,,,D*7F
$GPVTG,114.43,T,,M,2.00,N,3.7,K,D*0D
$GPGGA,001102.000,3748.7500,N,12217.7840,W,2,08,1.3,3.9,M,-25.1,M,1.8,0000*45
$GPGSA,A,3,21,25,30,12,29,02,05,26,,,,,2.3,1.3,1.9*35
$GPGSV,3,1,12,29,69,343,25,30,54,218,31,25,50,200,33,05,49,063,29*72
$GPGSV,3,2,12,21,39,262,30,12,23,170,36,18,13,200,,02,11,063,31*7A
$GPGSV,3,3,12,10,10,039,23,26,08,113,38,31,08,278,24,16,01,326,*75
$GPRMC,001102.000,A,3748.7500,N,12217.7840,W,2.38,123.73,131010,,,D*72
$GPVTG,123.73,T,,M,2.38,N,4.4,K,D*05
$GPGGA,001103.000,3748.7495,N,12217.7834,W,2,08,1.3,3.7,M,-25.1,M,2.8,0000*47
$GPGSA,A,3,21,25,30,12,29,02,05,26,,,,,2.3,1.3,1.9*35
$GPRMC,001103.000,A,3748.7495,N,12217.7834,W,2.45,128.33,131010,,,D*78
$GPVTG,128.33,T,,M,2.45,N,4.5,K,D*01
$GPGGA,001104.000,3748.7492,N,12217.7825,W,2,08,1.3,3.9,M,-25.1,M,1.8,0000*4A
$GPGSA,A,3,21,25,30,12,29,02,05,26,,,,,2.3,1.3,1.9*35
$GPRMC,001104.000,A,3748.7492,N,12217.7825,W,2.50,116.25,131010,,,D*76
$GPVTG,116.25,T,,M,2.50,N,4.6,K,D*0C
$GPGGA,001105.000,3748.7489,N,12217.7816,W,2,08,1.3,4.2,M,-25.1,M,2.8,0000*4E
$GPGSA,A,3,21,25,30,12,29,02,05,26,,,,,2.3,1.3,1.9*35
$GPRMC,001105.000,A,3748.7489,N,12217.7816,W,2.53,109.97,131010,,,D*79
$GPVTG,109.97,T,,M,2.53,N,4.7,K,D*09
$GPGGA,001106.000,3748.7486,N,12217.7807,W,2,08,1.3,4.3,M,-25.1,M,3.8,0000*42
$GPGSA,A,3,21,25,30,12,29,02,05,26,,,,,2.3,1.3,1.9*35
$GPRMC,001106.000,A,3748.7486,N,12217.7807,W,2.59,117.01,131010,,,D*7F
$GPVTG,117.01,T,,M,2.59,N,4.8,K,D*0C
$GPGGA,001107.000,3748.7482,N,12217.7798,W,2,08,1.3,4.5,M,-25.1,M,4.8,0000*4F
$GPGSA,A,3,21,25,30,12,29,02,05,26,,,,,2.3,1.3,1.9*35
$GPGSV,3,1,12,29,69,343,26,30,54,218,31,25,50,200,33,05,49,063,40*7E
$GPGSV,3,2,12,21,39,262,29,12,23,170,36,18,13,200,28,02,11,063,32*7B
$GPGSV,3,3,12,10,10,039,24,26,08,113,38,31,08,278,23,16,01,326,*75
$GPRMC,001107.000,A,3748.7482,N,12217.7798,W,2.61,120.52,131010,,,D*7A
$GPVTG,120.52,T,,M,2.61,N,4.8,K,D*05
$GPGGA,001108.000,3748.7478,N,12217.7790,W,2,08,1.3,4.4,M,-25.1,M,1.8,0000*49
$GPGSA,A,3,21,25,30,12,29,02,05,26,,,,,2.3,1.3,1.9*35
$GPRMC,001108.000,A,3748.7478,N,12217.7790,W,2.41,123.74,131010,,,D*7D
$GPVTG,123.74,T,,M,2.41,N,4.5,K,D*0D
$GPGGA,001109.000,3748.7474,N,12217.7783,W,2,08,1.3,4.4,M,-25.1,M,1.8,0000*46
$GPGSA,A,3,21,25,30,12,29,02,05,26,,,,,2.3,1.3,1.9*35
$GPRMC,001109.000,A,3748.7474,N,12217.7783,W,2.27,119.16,131010,,,D*7F
$GPVTG,119.16,T,,M,2.27,N,4.2,K,D*07
$GPGGA,001110.000,3748.7471,N,12217.7775,W,2,08,1.3,4.2,M,-25.1,M,1.8,0000*44
$GPGSA,A,3,21,25,30,12,29,02,05,26,,,,,2.3,1.3,1.9*35
$GPRMC,001110.000,A,3748.7471,N,12217.7775,W,2.14,123.54,131010,,,D*74
$GPVTG,123.54,T,,M,2.14,N,4.0,K,D*0A
$GPGGA,001111.000,3748.7466,N,12217.7767,W,2,08,1.3,4.5,M,-25.1,M,2.8,0000*44
$GPGSA,A,3,21,25,30,12,29,02,05,26,,,,,2.3,1.3,1.9*35
$GPRMC,001111.000,A,3748.7466,N,12217.7767,W,2.70,125.36,131010,,,D*70
$GPVTG,125.36,T,,M,2.70,N,5.0,K,D*0B
$GPGGA,001112.000,3748.7461,N,12217.7759,W,2,08,1.3,4.7,M,-25.1,M,3.8,0000*4E
$GPGSA,A,3,21,25,30,12,29,02,05,26,,,,,2.3,1.3,1.9*35
$GPGSV,3,1,12,29,69,343,33,30,54,218,31,25,50,200,33,05,49,063,40*7A
$GPGSV,3,2,12,21,39,262,29,12,23,170,32,18,13,200,27,02,11,063,31*73
$GPGSV,3,3,12,10,10,039,28,26,08,113,35,31,08,278,24,16,01,326,*73
$GPRMC,001112.000,A,3748.7461,N,12217.7759,W,2.54,131.06,131010,,,D*79
$GPVTG,131.06,T,,M,2.54,N,4.7,K,D*0D
$GPGGA,001113.000,3748.7456,N,12217.7753,W,2,08,1.3,4.7,M,-25.1,M,4.8,0000*46
$GPGSA,A,3,21,25,30,12,29,02,05,26,,,,,2.3,1.3,1.9*35
$GPRMC,001113.000,A,3748.7456,N,12217.7753,W,1.91,132.28,131010,,,D*73
$GPVTG,132.28,T,,M,1.91,N,3.5,K,D*0D
$GPGGA,001114.000,3748.7453,N,12217.7747,W,2,08,1.3,4.9,M,-25.1,M,1.8,0000*4A
$GPGSA,A,3,21,25,30,12,29,02,05,26,,,,,2.3,1.3,1.9*35
$GPRMC,001114.000,A,3748.7453,N,12217.7747,W,1.73,128.73,131010,,,D*7D
$GPVTG,128.73,T,,M,1.73,N,3.2,K,D*03
$GPGGA,001115.000,3748.7450,N,12217.7742,W,2,08,1.3,5.1,M,-25.1,M,1.8,0000*44
$GPGSA,A,3,21,25,30,12,29,02,05,26,,,,,2.3,1.3,1.9*35
$GPRMC,001115.000,A,3748.7450,N,12217.7742,W,1.32,126.86,131010,,,D*7B
$GPVTG,126.86,T,,M,1.32,N,2.4,K,D*05
$GPGGA,001116.000,3748.7450,N,12217.7744,W,2,08,1.3,4.4,M,-25.1,M,1.8,0000*45
$GPGSA,A,3,21,25,30,12,29,02,05,26,,,,,2.3,1.3,1.9*35
$GPRMC,001116.000,A,3748.7450,N,12217.7744,W,0.10,247.22,131010,,,D*75
$GPVTG,247.22,T,,M,0.10,N,0.2,K,D*0A
$GPGGA,001117.000,3748.7453,N,12217.7750,W,2,08,1.3,3.7,M,-25.1,M,2.8,0000*45
$GPGSA,A,3,21,25,30,12,29,02,05,26,,,,,2.3,1.3,1.9*35
$GPGSV,3,1,12,29,69,344,32,30,54,218,39,25,50,200,41,05,49,063,34*72
$GPGSV,3,2,12,21,39,262,40,12,23,170,28,18,13,200,28,02,11,063,27*7F
$GPGSV,3,3,12,10,09,039,28,26,08,113,22,31,08,278,37,16,02,326,*7C
$GPVTG,297.58,T,,M,1.37,N,2.5,K,D*0B
$GPGGA,001118.000,3748.7456,N,12217.7756,W,2,07,1.4,2.9,M,-25.1,M,3.8,0000*4F
$GPGSA,A,3,21,25,30,12,29,02,05,,,,,,2.4,1.4,2.0*3B
$GPRMC,001118.000,A,3748.7456,N,12217.7756,W,1.50,296.59,131010,,,D*7B
$GPVTG,296.59,T,,M,1.50,N,2.8,K,D*07
$GPGGA,001119.000,3748.7459,N,12217.7763,W,2,07,1.4,2.1,M,-25.1,M,4.8,0000*48
$GPGSA,A,3,21,25,30,12,29,02,05,,,,,,2.4,1.4,2.0*3B
$GPRMC,001119.000,A,3748.7459,N,12217.7763,W,1.45,302.13,131010,,,D*75
$GPVTG,302.13,T,,M,1.45,N,2.7,K,D*0E
$GPGGA,001120.000,3748.7461,N,12217.7768,W,2,08,1.3,1.7,M,-25.1,M,1.8,0000*4A
$GPGSA,A,3,21,25,30,12,29,02,05,26,,,,,2.3,1.3,1.9*35
$GPRMC,001120.000,A,3748.7461,N,12217.7768,W,1.15,301.78,131010,,,D*74
$GPVTG,301.78,T,,M,1.15,N,2.1,K,D*03
$GPGGA,001121.000,3748.7462,N,12217.7772,W,2,08,1.3,1.7,M,-25.1,M,1.8,0000*43
$GPGSA,A,3,21,25,30,12,29,02,05,26,,,,,2.3,1.3,1.9*35
$GPRMC,001121.000,A,3748.7462,N,12217.7772,W,0.86,289.64,131010,,,D*7A
$GPVTG,289.64,T,,M,0.86,N,1.6,K,D*00
$GPGGA,001122.000,3748.7462,N,12217.7775,W,2,08,1.3,1.7,M,-25.1,M,1.8,0000*47
$GPGSA,A,3,21,25,30,12,29,02,05,26,,,,,2.3,1.3,1.9*35
$GPGSV,3,1,12,29,69,344,32,30,54,218,40,25,50,200,41,05,49,063,33*7B
$GPGSV,3,2,12,21,39,262,34,12,23,170,35,18,13,200,32,02,11,063,34*79
$GPGSV,3,3,12,10,09,039,36,26,08,113,34,31,08,278,22,16,02,326,*70
$GPRMC,001122.000,A,3748.7462,N,12217.7775,W,0.19,278.40,131010,,,D*70
$GPVTG,278.40,T,,M,0.19,N,0.3,K,D*0A
$GPGGA,001123.000,3748.7461,N,12217.7776,W,2,08,1.3,1.7,M,-25.1,M,2.8,0000*45
$GPGSA,A,3,21,25,30,12,29,02,05,26,,,,,2.3,1.3,1.9*35
$GPRMC,001123.000,A,3748.7461,N,12217.7776,W,0.07,221.27,131010,,,D*73
$GPVTG,221.27,T,,M,0.07,N,0.1,K,D*0A
$GPGGA,001124.000,3748.7460,N,12217.7776,W,2,08,1.3,1.7,M,-25.1,M,1.8,0000*40
$GPGSA,A,3,21,25,30,12,29,02,05,26,,,,,2.3,1.3,1.9*35
$GPRMC,001124.000,A,3748.7460,N,12217.7776,W,0.11,218.33,131010,,,D*7D
$GPVTG,218.33,T,,M,0.11,N,0.2,K,D*01
$GPGGA,001125.000,3748.7459,N,12217.7777,W,2,08,1.3,1.8,M,-25.1,M,2.8,0000*46
$GPGSA,A,3,21,25,30,12,29,02,05,26,,,,,2.3,1.3,1.9*35
$GPRMC,001125.000,A,3748.7459,N,12217.7777,W,0.11,215.32,131010,,,D*7B
$GPVTG,215.32,T,,M,0.11,N,0.2,K,D*0D
$GPGGA,001126.000,3748.7459,N,12217.7777,W,2,08,1.3,1.5,M,-25.1,M,1.8,0000*4B
$GPGSA,A,3,21,25,30,12,29,02,05,26,,,,,2.3,1.3,1.9*35
$GPRMC,001126.000,A,3748.7459,N,12217.7777,W,0.19,187.50,131010,,,D*7C
$GPVTG,187.50,T,,M,0.19,N,0.4,K,D*0F
$GPGGA,001127.000,3748.7458,N,12217.7777,W,2,08,1.3,1.3,M,-25.1,M,1.8,0000*4D
$GPGSA,A,3,21,25,30,12,29,02,05,26,,,,,2.3,1.3,1.9*35
$GPGSV,3,1,12,29,69,344,33,30,54,218,40,25,50,200,42,05,49,063,33*79
$GPGSV,3,2,12,21,39,262,35,12,23,170,35,18,13,200,31,02,11,063,32*7D
$GPGSV,3,3,12,10,09,039,35,26,08,113,29,31,08,278,22,16,02,326,*7F
$GPRMC,001127.000,A,3748.7458,N,12217.7777,W,0.11,197.73,131010,,,D*74
$GPVTG,197.73,T,,M,0.11,N,0.2,K,D*01
$GPGGA,001128.000,3748.7458,N,12217.7777,W,2,08,1.3,1.3,M,-25.1,M,1.8,0000*42
$GPGSA,A,3,21,25,30,12,29,02,05,26,,,,,2.3,1.3,1.9*35
$GPRMC,001128.000,A,3748.7458,N,12217.7777,W,0.30,230.03,131010,,,D*71
$GPVTG,230.03,T,,M,0.30,N,0.6,K,D*0F
$GPGGA,001129.000,3748.7457,N,12217.7778,W,2,08,1.3,1.2,M,-25.1,M,2.8,0000*41
$GPGSA,A,3,21,25,30,12,29,02,05,26,,,,,2.3,1.3,1.9*35
$GPRMC,001129.000,A,3748.7457,N,12217.7778,W,0.57,186.33,131010,,,D*7C
$GPVTG,186.33,T,,M,0.57,N,1.0,K,D*04
$GPGGA,001130.000,3748.7457,N,12217.7778,W,2,08,1.3,1.3,M,-25.1,M,3.8,0000*49
$GPGSA,A,3,21,25,30,12,29,02,05,26,,,,,2.3,1.3,1.9*35
$GPRMC,001130.000,A,3748.7457,N,12217.7778,W,0.38,319.17,131010,,,D*7F
$GPVTG,319.17,T,,M,0.38,N,0.7,K,D*09
$GPGGA,001131.000,3748.7457,N,12217.7780,W,2,08,1.3,1.2,M,-25.1,M,4.8,0000*49
$GPGSA,A,3,21,25,30,12,29,02,05,26,,,,,2.3,1.3,1.9*35
$GPRMC,001131.000,A,3748.7457,N,12217.7780,W,0.32,132.25,131010,,,D*79
$GPVTG,132.25,T,,M,0.32,N,0.6,K,D*08
$GPGGA,001132.000,3748.7456,N,12217.7780,W,2,08,1.3,1.6,M,-25.1,M,1.8,0000*4A
$GPGSA,A,3,21,25,30,12,29,02,05,26,,,,,2.3,1.3,1.9*35
$GPGSV,3,1,12,29,69,344,22,30,54,218,39,25,50,200,39,05,49,063,29*70
$GPGSV,3,2,12,21,39,262,36,12,23,170,29,18,13,200,32,02,11,063,30*72
$GPGSV,3,3,12,10,09,039,30,26,08,113,31,31,08,278,21,16,02,326,*70
$GPRMC,001132.000,A,3748.7456,N,12217.7780,W,0.44,144.64,131010,,,D*7E
$GPVTG,144.64,T,,M,0.44,N,0.8,K,D*03
$GPGGA,001133.000,3748.7455,N,12217.7781,W,2,08,1.3,1.8,M,-25.1,M,1.8,0000*47
$GPGSA,A,3,21,25,30,12,29,02,05,26,,,,,2.3,1.3,1.9*35
$GPRMC,001133.000,A,3748.7455,N,12217.7781,W,0.39,144.73,131010,,,D*71
$GPVTG,144.73,T,,M,0.39,N,0.7,K,D*00
$GPGGA,001134.000,3748.7454,N,12217.7782,W,2,08,1.3,2.2,M,-25.1,M,2.8,0000*48
$GPGSA,A,3,21,25,30,12,29,02,05,26,,,,,2.3,1.3,1.9*35
$GPRMC,001134.000,A,3748.7454,N,12217.7782,W,0.31,275.07,131010,,,D*7E
$GPVTG,275.07,T,,M,0.31,N,0.6,K,D*0B
$GPGGA,001135.000,3748.7455,N,12217.7783,W,2,08,1.3,2.3,M,-25.1,M,3.8,0000*49
$GPGSA,A,3,21,25,30,12,29,02,05,26,,,,,2.3,1.3,1.9*35
$GPRMC,001135.000,A,3748.7455,N,12217.7783,W,0.20,326.00,131010,,,D*7F
$GPVTG,326.00,T,,M,0.20,N,0.4,K,D*09
$GPGGA,001136.000,3748.7456,N,12217.7784,W,2,08,1.3,2.3,M,-25.1,M,4.8,0000*49
$GPGSA,A,3,21,25,30,12,29,02,05,26,,,,,2.3,1.3,1.9*35
$GPRMC,001136.000,A,3748.7456,N,12217.7784,W,0.22,159.17,131010,,,D*76
$GPVTG,159.17,T,,M,0.22,N,0.4,K,D*07
$GPGGA,001137.000,3748.7456,N,12217.7784,W,2,08,1.3,2.5,M,-25.1,M,5.8,0000*4F
$GPGSA,A,3,21,25,30,12,29,02,05,26,,,,,2.3,1.3,1.9*35
$GPGSV,3,1,12,29,69,344,33,30,54,218,37,25,50,200,37,05,49,063,28*71
$GPGSV,3,2,12,21,39,262,37,12,23,170,30,18,13,200,26,02,11,063,24*7B
$GPGSV,3,3,12,10,09,039,29,26,08,113,24,31,08,278,36,16,02,326,*7A
$GPVTG,221.02,T,,M,0.25,N,0.5,K,D*09
$GPGGA,001138.000,3748.7456,N,12217.7784,W,2,08,1.3,2.8,M,-25.1,M,6.8,0000*4E
$GPGSA,A,3,21,25,30,12,29,02,05,26,,,,,2.3,1.3,1.9*35
$GPRMC,001138.000,A,3748.7456,N,12217.7784,W,0.27,128.58,131010,,,D*70
$GPVTG,128.58,T,,M,0.27,N,0.5,K,D*0E
$GPGGA,001139.000,3748.7456,N,12217.7781,W,2,08,1.3,3.0,M,-25.1,M,7.8,0000*42
$GPGSA,A,3,21,25,30,12,29,02,05,26,,,,,2.3,1.3,1.9*35
$GPRMC,001139.000,A,3748.7456,N,12217.7781,W,1.17,116.66,131010,,,D*76
$GPVTG,116.66,T,,M,1.17,N,2.2,K,D*09
$GPGGA,001140.000,3748.7454,N,12217.7777,W,2,08,1.3,3.2,M,-25.1,M,8.8,0000*4A
$GPGSA,A,3,21,25,30,12,29,02,05,26,,,,,2.3,1.3,1.9*35
$GPRMC,001140.000,A,3748.7454,N,12217.7777,W,1.20,135.80,131010,,,D*7E
$GPVTG,135.80,T,,M,1.20,N,2.2,K,D*04
$GPGGA,001141.000,3748.7452,N,12217.7779,W,2,08,1.3,2.9,M,-25.1,M,1.8,0000*40
$GPGSA,A,3,21,25,30,12,29,02,05,26,,,,,2.3,1.3,1.9*35
$GPRMC,001141.000,A,3748.7452,N,12217.7779,W,0.40,224.77,131010,,,D*7B
$GPVTG,224.77,T,,M,0.40,N,0.7,K,D*0F
$GPGGA,001142.000,3748.7452,N,12217.7782,W,2,08,1.3,2.6,M,-25.1,M,2.8,0000*4B
$GPGSA,A,3,21,25,30,12,29,02,05,26,,,,,2.3,1.3,1.9*35
$GPGSV,3,1,12,29,69,344,33,30,54,218,37,25,50,200,38,05,49,063,30*77
$GPGSV,3,2,12,21,39,262,41,12,23,170,30,18,13,200,29,02,11,063,27*76
$GPGSV,3,3,12,10,09,039,22,26,08,113,18,31,08,278,36,16,02,326,*7E
$GPRMC,001142.000,A,3748.7452,N,12217.7782,W,0.80,272.32,131010,,,D*72
$GPVTG,272.32,T,,M,0.80,N,1.5,K,D*02
$GPGGA,001143.000,3748.7453,N,12217.7784,W,2,08,1.3,2.4,M,-25.1,M,3.8,0000*4E
$GPGSA,A,3,21,25,30,12,29,02,05,26,,,,,2.3,1.3,1.9*35
$GPRMC,001143.000,A,3748.7453,N,12217.7784,W,0.43,311.40,131010,,,D*7A
$GPVTG,311.40,T,,M,0.43,N,0.8,K,D*00
$GPGGA,001144.000,3748.7454,N,12217.7784,W,2,08,1.3,2.2,M,-25.1,M,1.8,0000*4A
$GPGSA,A,3,21,25,30,12,29,02,05,26,,,,,2.3,1.3,1.9*35
$GPRMC,001144.000,A,3748.7454,N,12217.7784,W,0.02,295.37,131010,,,D*72
$GPVTG,295.37,T,,M,0.02,N,0.0,K,D*00
$GPGGA,001145.000,3748.7454,N,12217.7784,W,2,08,1.3,2.6,M,-25.1,M,1.8,0000*4F
$GPGSA,A,3,21,25,30,12,29,02,05,26,,,,,2.3,1.3,1.9*35
$GPRMC,001145.000,A,3748.7454,N,12217.7784,W,0.35,84.45,131010,,,D*40
$GPVTG,84.45,T,,M,0.35,N,0.6,K,D*35
$GPGGA,001146.000,3748.7453,N,12217.7781,W,2,08,1.3,3.3,M,-25.1,M,2.8,0000*49
$GPGSA,A,3,21,25,30,12,29,02,05,26,,,,,2.3,1.3,1.9*35
$GPRMC,001146.000,A,3748.7453,N,12217.7781,W,0.41,96.25,131010,,,D*47
$GPVTG,96.25,T,,M,0.41,N,0.8,K,D*3D
$GPGGA,001147.000,3748.7452,N,12217.7779,W,2,08,1.3,3.9,M,-25.1,M,3.8,0000*45
$GPGSA,A,3,21,25,30,12,29,02,05,26,,,,,2.3,1.3,1.9*35
$GPGSV,3,1,12,29,69,344,36,30,54,218,32,25,50,200,33,05,49,063,37*7B
$GPGSV,3,2,12,21,39,262,26,12,23,170,25,18,13,200,23,02,11,063,36*79
$GPGSV,3,3,12,10,09,039,28,26,08,113,22,31,08,278,21,16,02,326,*7B
$GPRMC,001147.000,A,3748.7452,N,12217.7779,W,0.38,230.94,131010,,,D*7A
$GPVTG,230.94,T,,M,0.38,N,0.7,K,D*08
$GPGGA,001148.000,3748.7452,N,12217.7782,W,2,08,1.3,3.8,M,-25.1,M,4.8,0000*48
$GPGSA,A,3,21,25,30,12,29,02,05,26,,,,,2.3,1.3,1.9*35
$GPRMC,001148.000,A,3748.7452,N,12217.7782,W,0.24,292.75,131010,,,D*7B
$GPVTG,292.75,T,,M,0.24,N,0.5,K,D*00
$GPGGA,001149.000,3748.7453,N,12217.7784,W,2,07,1.5,3.6,M,-25.1,M,5.8,0000*48
$GPGSA,A,3,21,25,30,29,02,05,26,,,,,,2.4,1.5,1.9*37
$GPRMC,001149.000,A,3748.7453,N,12217.7784,W,0.41,339.95,131010,,,D*70
$GPVTG,339.95,T,,M,0.41,N,0.8,K,D*00
$GPGGA,001150.000,3748.7455,N,12217.7784,W,2,08,1.3,3.5,M,-25.1,M,6.8,0000*4F
$GPGSA,A,3,21,25,30,12,29,02,05,26,,,,,2.3,1.3,1.9*35
$GPRMC,001150.000,A,3748.7455,N,12217.7784,W,0.45,76.47,131010,,,D*4D
$GPVTG,76.47,T,,M,0.45,N,0.8,K,D*33
$GPGGA,001151.000,3748.7456,N,12217.7781,W,2,08,1.3,3.5,M,-25.1,M,7.8,0000*49
$GPGSA,A,3,21,25,30,12,29,02,05,26,,,,,2.3,1.3,1.9*35
$GPRMC,001151.000,A,3748.7456,N,12217.7781,W,0.99,95.69,131010,,,D*4A
$GPVTG,95.69,T,,M,0.99,N,1.8,K,D*32
$GPGGA,001152.000,3748.7457,N,12217.7779,W,2,08,1.3,3.1,M,-25.1,M,8.8,0000*47
$GPGSA,A,3,21,25,30,12,29,02,05,26,,,,,2.3,1.3,1.9*35
$GPGSV,3,1,12,29,69,344,34,30,54,218,32,25,50,200,30,05,49,063,40*7A
$GPGSV,3,2,12,21,39,262,29,12,23,170,21,18,13,200,23,02,11,063,35*71
$GPGSV,3,3,12,10,09,039,27,26,08,113,25,31,08,278,24,16,02,326,*76
$GPRMC,001152.000,A,3748.7457,N,12217.7779,W,0.95,102.90,131010,,,D*7A
$GPVTG,102.90,T,,M,0.95,N,1.8,K,D*07
$GPGGA,001153.000,3748.7457,N,12217.7775,W,2,08,1.3,2.8,M,-25.1,M,9.8,0000*43
$GPGSA,A,3,21,25,30,12,29,02,05,26,,,,,2.3,1.3,1.9*35
$GPRMC,001153.000,A,3748.7457,N,12217.7775,W,1.48,88.85,131010,,,D*41
$GPVTG,88.85,T,,M,1.48,N,2.7,K,D*3D
$GPGGA,001154.000,3748.7458,N,12217.7769,W,2,08,1.3,2.6,M,-25.1,M,10.8,0000*70
$GPGSA,A,3,21,25,30,12,29,02,05,26,,,,,2.3,1.3,1.9*35
$GPRMC,001154.000,A,3748.7458,N,12217.7769,W,2.09,83.79,131010,,,D*4A
$GPVTG,83.79,T,,M,2.09,N,3.9,K,D*3C
$GPGGA,001155.000,3748.7458,N,12217.7760,W,2,08,1.3,2.7,M,-25.1,M,11.8,0000*78
$GPGSA,A,3,21,25,30,12,29,02,05,26,,,,,2.3,1.3,1.9*35
$GPRMC,001155.000,A,3748.7458,N,12217.7760,W,2.36,97.67,131010,,,D*44
$GPVTG,97.67,T,,M,2.36,N,4.4,K,D*30
$GPGGA,001156.000,3748.7456,N,12217.7752,W,2,08,1.3,2.7,M,-25.1,M,12.8,0000*77
$GPGSA,A,3,21,25,30,12,29,02,05,26,,,,,2.3,1.3,1.9*35
$GPRMC,001156.000,A,3748.7456,N,12217.7752,W,2.17,112.21,131010,,,D*75
$GPVTG,112.21,T,,M,2.17,N,4.0,K,D*09
$GPGGA,001157.000,3748.7453,N,12217.7744,W,2,08,1.3,2.8,M,-25.1,M,13.8,0000*7A
$GPGSA,A,3,21,25,30,12,29,02,05,26,,,,,2.3,1.3,1.9*35
$GPGSV,3,1,12,29,69,344,35,30,54,218,32,25,50,200,31,05,49,063,40*7A
$GPGSV,3,2,12,21,39,262,29,12,23,170,26,18,13,200,23,02,11,063,31*72
$GPGSV,3,3,12,10,09,039,24,26,08,113,32,31,08,278,24,16,02,326,*73
$GPVTG,123.04,T,,M,2.31,N,4.3,K,D*0B
$GPGGA,001158.000,3748.7449,N,12217.7737,W,2,08,1.3,2.9,M,-25.1,M,14.8,0000*7C
$GPGSA,A,3,21,25,30,12,29,02,05,26,,,,,2.3,1.3,1.9*35
$GPRMC,001158.000,A,3748.7449,N,12217.7737,W,2.14,119.19,131010,,,D*75
$GPVTG,119.19,T,,M,2.14,N,4.0,K,D*0A
$GPGGA,001159.000,3748.7446,N,12217.7729,W,2,08,1.3,3.0,M,-25.1,M,15.8,0000*74
$GPGSA,A,3,21,25,30,12,29,02,05,26,,,,,2.3,1.3,1.9*35
$GPRMC,001159.000,A,3748.7446,N,12217.7729,W,2.55,123.06,131010,,,D*76
$GPVTG,123.06,T,,M,2.55,N,4.7,K,D*0F
$GPGGA,001200.000,3748.7442,N,12217.7721,W,2,08,1.3,3.1,M,-25.1,M,16.8,0000*75
$GPGSA,A,3,21,25,30,12,29,02,05,26,,,,,2.3,1.3,1.9*35
$GPRMC,001200.000,A,3748.7442,N,12217.7721,W,2.51,122.58,131010,,,D*7B
$GPVTG,122.58,T,,M,2.51,N,4.6,K,D*00
$GPGGA,001201.000,3748.7438,N,12217.7713,W,2,08,1.3,3.3,M,-25.1,M,17.8,0000*7B
$GPGSA,A,3,21,25,30,12,29,02,05,26,,,,,2.3,1.3,1.9*35
$GPRMC,001201.000,A,3748.7438,N,12217.7713,W,2.55,125.73,131010,,,D*7C
$GPVTG,125.73,T,,M,2.55,N,4.7,K,D*0B
$GPGGA,001202.000,3748.7433,N,12217.7705,W,1,08,1.3,3.3,M,-25.1,M,,0000*67
$GPGSA,A,3,21,25,30,12,29,02,05,26,,,,,2.3,1.3,1.9*35
$GPGSV,3,1,12,29,69,344,34,30,54,218,31,25,50,200,32,05,49,063,40*7B
$GPGSV,3,2,12,21,39,262,29,12,23,170,26,18,13,200,26,02,11,063,33*75
$GPGSV,3,3,12,10,09,039,24,26,08,113,33,31,08,278,25,16,02,326,*73
$GPRMC,001202.000,A,3748.7433,N,12217.7705,W,2.47,129.29,131010,,,A*76
$GPVTG,129.29,T,,M,2.47,N,4.6,K,A*0F
$GPGGA,001203.000,3748.7429,N,12217.7698,W,1,08,1.3,3.4,M,-25.1,M,,0000*6F
$GPGSA,A,3,21,25,30,12,29,02,05,26,,,,,2.3,1.3,1.9*35
$GPRMC,001203.000,A,3748.7429,N,12217.7698,W,2.36,123.05,131010,,,A*7B
$GPVTG,123.05,T,,M,2.36,N,4.4,K,A*0F
$GPGGA,001204.000,3748.7426,N,12217.7690,W,1,08,1.3,3.5,M,-25.1,M,,0000*6E
$GPGSA,A,3,21,25,30,12,29,02,05,26,,,,,2.3,1.3,1.9*35
$GPRMC,001204.000,A,3748.7426,N,12217.7690,W,2.52,118.79,131010,,,A*7A
$GPVTG,118.79,T,,M,2.52,N,4.7,K,A*0D
$GPGGA,001205.000,3748.7421,N,12217.7682,W,1,08,1.3,3.6,M,-25.1,M,,0000*68
$GPGSA,A,3,21,25,30,12,29,02,05,26,,,,,2.3,1.3,1.9*35
$GPRMC,001205.000,A,3748.7421,N,12217.7682,W,2.73,125.33,131010,,,A*7C
$GPVTG,125.33,T,,M,2.73,N,5.0,K,A*08
$GPGGA,001206.000,3748.7416,N,12217.7673,W,1,08,1.3,3.9,M,-25.1,M,,0000*6E
$GPGSA,A,3,21,25,30,12,29,02,05,26,,,,,2.3,1.3,1.9*35
$GPRMC,001206.000,A,3748.7416,N,12217.7673,W,2.66,122.66,131010,,,A*76
$GPVTG,122.66,T,,M,2.66,N,4.9,K,A*03
$GPGGA,001207.000,3748.7414,N,12217.7667,W,1,08,1.3,3.5,M,-25.1,M,,0000*64
$GPGSA,A,3,21,25,30,12,29,02,05,26,,,,,2.3,1.3,1.9*35
$GPGSV,3,1,12,29,69,344,30,30,54,218,28,25,50,200,32,05,49,063,39*79
$GPGSV,3,2,12,21,39,262,30,12,23,170,20,18,13,200,20,02,11,063,35*7B
$GPGSV,3,3,12,10,09,039,24,26,08,113,38,31,08,278,23,16,02,326,*7E
$GPRMC,001207.000,A,3748.7414,N,12217.7667,W,2.37,117.06,131010,,,A*74
$GPVTG,117.06,T,,M,2.37,N,4.4,K,A*0A
$GPGGA,001208.000,3748.7411,N,12217.7660,W,1,08,1.3,3.6,M,-25.1,M,,0000*6A
$GPGSA,A,3,21,25,30,12,29,02,05,26,,,,,2.3,1.3,1.9*35
$GPRMC,001208.000,A,3748.7411,N,12217.7660,W,2.43,118.65,131010,,,A*70
$GPVTG,118.65,T,,M,2.43,N,4.5,K,A*02
$GPGGA,001209.000,3748.7408,N,12217.7651,W,1,08,1.3,3.8,M,-25.1,M,,0000*6F
$GPGSA,A,3,21,25,30,12,29,02,05,26,,,,,2.3,1.3,1.9*35
$GPRMC,001209.000,A,3748.7408,N,12217.7651,W,2.60,119.52,131010,,,A*7F
$GPVTG,119.52,T,,M,2.60,N,4.8,K,A*0B
$GPGGA,001210.000,3748.7404,N,12217.7643,W,1,08,1.3,4.1,M,-25.1,M,,0000*66
$GPGSA,A,3,21,25,30,12,29,02,05,26,,,,,2.3,1.3,1.9*35
$GPRMC,001210.000,A,3748.7404,N,12217.7643,W,2.45,120.35,131010,,,A*74
$GPVTG,120.35,T,,M,2.45,N,4.5,K,A*0A
$GPGGA,001211.000,3748.7401,N,12217.7635,W,1,08,1.3,4.1,M,-25.1,M,,0000*63
$GPGSA,A,3,21,25,30,12,29,02,05,26,,,,,2.3,1.3,1.9*35
$GPRMC,001211.000,A,3748.7401,N,12217.7635,W,2.15,111.06,131010,,,A*76
$GPVTG,111.06,T,,M,2.15,N,4.0,K,A*08
$GPGGA,001212.000,3748.7401,N,12217.7629,W,1,08,1.3,3.5,M,-25.1,M,,0000*6E
$GPGSA,A,3,21,25,30,12,29,02,05,26,,,,,2.3,1.3,1.9*35
$GPGSV,3,1,12,29,69,344,30,30,54,218,29,25,50,200,29,05,49,063,40*7C
$GPGSV,3,2,12,21,39,262,30,12,23,170,21,18,13,200,20,02,11,063,29*77
$GPGSV,3,3,12,10,09,039,34,26,08,113,39,31,08,278,23,16,02,326,*7E
$GPRMC,001212.000,A,3748.7401,N,12217.7629,W,2.26,115.14,131010,,,A*7F
$GPVTG,115.14,T,,M,2.26,N,4.2,K,A*0D
$GPGGA,001213.000,3748.7401,N,12217.7625,W,1,08,1.3,2.4,M,-25.1,M,,0000*63
