$ADVER,3080,2.3
$GPRMC,185133.627,A,3748.8042,N,12217.8574,W,0.05,244.62,050412,,,A*7C
$GPGGA,185134.627,3748.8005,N,12217.8573,W,1,06,1.7,0.4,M,-25.1,M,,0000*63
$GPGSA,A,3,14,25,31,01,11,32,,,,,,,3.0,1.7,2.4*31
$GPRMC,185134.627,A,3748.8005,N,12217.8573,W,0.14,174.64,050412,,,A*79
$GPVTG,174.64,T,,M,0.14,N,0.3,K,A*0B
$GPGGA,185135.000,3748.8017,N,12217.8574,W,1,06,1.7,13.8,M,-25.1,M,,0000*5B
$GPGSA,A,3,14,25,31,01,11,32,,,,,,,3.0,1.7,2.4*31
$GPRMC,185135.000,A,3748.8017,N,12217.8574,W,0.13,204.47,050412,,,A*7D
$GPVTG,204.47,T,,M,0.13,N,0.2,K,A*08
$GPGGA,185136.000,3748.8011,N,12217.8574,W,1,06,1.7,6.9,M,-25.1,M,,0000*6B
$GPGSA,A,3,14,25,31,01,11,32,,,,,,,3.0,1.7,2.4*31
$GPGSV,3,1,12,31,61,119,36,01,52,290,40,32,51,314,38,11,48,251,40*7E
$GPGSV,3,2,12,14,37,047,36,25,08,067,30,22,25,103,28,20,23,302,33*7C
$GPGSV,3,3,12,23,09,248,,19,08,221,34,30,02,151,,17,01,323,*7B
$GPRMC,185136.000,A,3748.8011,N,12217.8574,W,0.11,190.72,050412,,,A*72
$GPVTG,190.72,T,,M,0.11,N,0.2,K,A*02
$GPGGA,185137.000,3748.8007,N,12217.8574,W,1,06,1.7,3.3,M,-25.1,M,,0000*62
$GPGSA,A,3,14,25,31,01,11,32,,,,,,,3.0,1.7,2.4*31
$GPRMC,185137.000,A,3748.8007,N,12217.8574,W,0.13,178.26,050412,,,A*71
$GPVTG,178.26,T,,M,0.13,N,0.2,K,A*07
$GPGGA,185138.000,3748.8005,N,12217.8574,W,1,06,1.8,1.0,M,-25.1,M,,0000*61
$GPGSA,A,3,14,25,31,01,11,32,,,,,,,3.0,1.8,2.4*3E
$GPRMC,185138.000,A,3748.8005,N,12217.8574,W,0.14,187.41,050412,,,A*7A
$GPVTG,187.41,T,,M,0.14,N,0.3,K,A*00
$GPGGA,185139.000,3748.8003,N,12217.8575,W,1,06,1.8,-0.4,M,-25.1,M,,0000*4F
$GPGSA,A,3,14,25,31,01,11,32,,,,,,,3.0,1.8,2.4*3E
$GPRMC,185139.000,A,3748.8003,N,12217.8575,W,0.12,178.70,050412,,,A*78
$GPVTG,178.70,T,,M,0.12,N,0.2,K,A*05
$GPGGA,185140.000,3748.8002,N,12217.8575,W,1,06,1.8,-1.5,M,-25.1,M,,0000*40
$GPGSA,A,3,14,25,31,01,11,32,,,,,,,3.0,1.8,2.4*3E
$GPRMC,185140.000,A,3748.8002,N,12217.8575,W,0.11,189.18,050412,,,A*74
$GPVTG,189.18,T,,M,0.11,N,0.2,K,A*06
$GPGGA,185141.000,3748.8001,N,12217.8575,W,1,06,1.8,-2.3,M,-25.1,M,,0000*47
$GPGSA,A,3,14,25,31,01,11,32,,,,,,,3.0,1.8,2.4*3E
$GPGSV,3,1,12,31,62,119,36,01,52,290,40,32,51,314,38,11,48,251,40*7D
$GPGSV,3,2,12,14,37,047,36,22,25,103,27,20,23,302,33,23,09,248,*78
$GPGSV,3,3,12,19,08,221,34,25,08,067,29,30,02,151,,17,01,323,*78
$GPRMC,185141.000,A,3748.8001,N,12217.8575,W,0.14,182.05,050412,,,A*74
$GPGGA,185142.000,3748.8000,N,12217.8576,W,1,06,1.8,-2.9,M,-25.1,M,,0000*4C
$GPGSA,A,3,14,25,31,01,11,32,,,,,,,3.0,1.8,2.4*3E
$GPRMC,185142.000,A,3748.8000,N,12217.8576,W,0.12,184.19,050412,,,A*78
$GPVTG,184.19,T,,M,0.12,N,0.2,K,A*09
$GPGGA,185143.000,3748.8000,N,12217.8576,W,1,06,1.8,-3.3,M,-25.1,M,,0000*46
$GPGSA,A,3,14,25,31,01,11,32,,,,,,,3.0,1.8,2.4*3E
$GPRMC,185143.000,A,3748.8000,N,12217.8576,W,0.13,184.40,050412,,,A*74
$GPVTG,184.40,T,,M,0.13,N,0.2,K,A*04
$GPGGA,185144.000,3748.7999,N,12217.8576,W,1,06,1.8,-3.8,M,-25.1,M,,0000*4C
$GPGSA,A,3,14,25,31,01,11,32,,,,,,,3.0,1.8,2.4*3E
$GPRMC,185144.000,A,3748.7999,N,12217.8576,W,0.06,153.28,050412,,,A*75
$GPVTG,153.28,T,,M,0.06,N,0.1,K,A*07
$GPGGA,185145.000,3748.8000,N,12217.8576,W,1,06,1.8,-3.5,M,-25.1,M,,0000*46
$GPGSA,A,3,14,25,31,01,11,32,,,,,,,3.0,1.8,2.4*3E
$GPRMC,185145.000,A,3748.8000,N,12217.8576,W,0.21,145.93,050412,,,A*70
$GPVTG,145.93,T,,M,0.21,N,0.4,K,A*00
$GPGGA,185146.000,3748.7998,N,12217.8577,W,1,06,1.8,-4.6,M,-25.1,M,,0000*47
$GPGSA,A,3,14,25,31,01,11,32,,,,,,,3.0,1.8,2.4*3E
$GPGSV,3,1,12,31,62,119,27,01,52,290,28,32,51,314,28,11,47,251,26*7D
$GPGSV,3,2,12,14,37,048,27,22,25,103,27,20,23,302,22,23,09,248,18*7E
$GPGSV,3,3,12,19,08,220,26,25,08,067,20,30,02,150,,17,01,323,*72
$GPRMC,185146.000,A,3748.7998,N,12217.8577,W,0.42,122.47,050412,,,A*78
$GPVTG,122.47,T,,M,0.42,N,0.8,K,A*01
$GPGGA,185147.000,3748.7993,N,12217.8584,W,1,06,1.8,-5.5,M,-25.1,M,,0000*43
$GPGSA,A,3,14,25,31,01,11,32,,,,,,,3.0,1.8,2.4*3E
$GPRMC,185147.000,A,3748.7993,N,12217.8584,W,0.54,273.56,050412,,,A*7E
$GPVTG,273.56,T,,M,0.54,N,1.0,K,A*08
$GPGGA,185148.000,3748.7989,N,12217.8586,W,1,06,1.8,-3.9,M,-25.1,M,,0000*4F
$GPGSA,A,3,14,25,31,01,11,32,,,,,,,3.0,1.8,2.4*3E
$GPRMC,185148.000,A,3748.7989,N,12217.8586,W,0.28,177.48,050412,,,A*7B
$GPVTG,177.48,T,,M,0.28,N,0.5,K,A*0F
$GPGGA,185149.000,3748.7990,N,12217.8581,W,1,05,2.1,-2.8,M,-25.1,M,,0000*48
$GPGSA,A,3,14,31,01,11,32,,,,,,,,7.3,2.1,7.0*35
$GPRMC,185149.000,A,3748.7990,N,12217.8581,W,0.84,142.26,050412,,,A*7D
$GPVTG,142.26,T,,M,0.84,N,1.6,K,A*05
$GPGGA,185150.000,3748.7995,N,12217.8583,W,1,04,2.0,-2.6,M,-25.1,M,,0000*49
$GPGSA,A,3,14,31,01,32,,,,,,,,,2.2,2.0,1.0*36
$GPRMC,185150.000,A,3748.7995,N,12217.8583,W,0.30,332.57,050412,,,A*7E
$GPVTG,332.57,T,,M,0.30,N,0.6,K,A*08
$GPGGA,185151.000,3748.7998,N,12217.8586,W,1,07,1.3,-1.2,M,-25.1,M,,0000*44
$GPGSA,A,3,14,31,01,11,32,22,19,,,,,,2.4,1.3,2.0*3B
$GPGSV,3,1,12,31,62,119,17,01,52,290,28,32,51,314,29,11,47,251,28*71
$GPGSV,3,2,12,14,37,048,20,22,25,103,28,20,23,302,28,23,09,248,16*72
$GPGSV,3,3,12,19,08,220,18,25,08,067,09,30,02,150,,17,01,323,*74
$GPRMC,185151.000,A,3748.7998,N,12217.8586,W,1.00,36.45,050412,,,A*41
$GPVTG,36.45,T,,M,1.00,N,1.8,K,A*31
$GPGGA,185152.000,3748.8000,N,12217.8583,W,1,08,1.2,-0.4,M,-25.1,M,,0000*4C
$GPGSA,A,3,14,25,31,01,11,32,22,19,,,,,1.9,1.2,1.5*35
$GPRMC,185152.000,A,3748.8000,N,12217.8583,W,1.43,13.51,050412,,,A*45
$GPVTG,13.51,T,,M,1.43,N,2.6,K,A*39
$GPGGA,185153.000,3748.8007,N,12217.8584,W,1,08,1.2,1.6,M,-25.1,M,,0000*63
$GPGSA,A,3,14,25,31,01,11,32,22,19,,,,,1.9,1.2,1.5*35
$GPRMC,185153.000,A,3748.8007,N,12217.8584,W,0.69,351.77,050412,,,A*7C
$GPVTG,351.77,T,,M,0.69,N,1.3,K,A*07
$GPGGA,185154.000,3748.8009,N,12217.8584,W,1,08,1.2,2.3,M,-25.1,M,,0000*6C
$GPGSA,A,3,14,25,31,01,11,32,22,19,,,,,1.9,1.2,1.5*35
$GPRMC,185154.000,A,3748.8009,N,12217.8584,W,0.76,3.99,050412,,,A*7F
$GPVTG,3.99,T,,M,0.76,N,1.4,K,A*0A
$GPGGA,185155.000,3748.8004,N,12217.8583,W,1,08,1.2,2.5,M,-25.1,M,,0000*61
$GPGSA,A,3,14,25,31,01,11,32,22,19,,,,,1.9,1.2,1.5*35
$GPRMC,185155.000,A,3748.8004,N,12217.8583,W,0.19,128.65,050412,,,A*76
$GPVTG,128.65,T,,M,0.19,N,0.4,K,A*09
$GPGGA,185156.000,3748.7997,N,12217.8583,W,1,08,1.2,3.0,M,-25.1,M,,0000*6A
$GPGSA,A,3,14,25,31,01,11,32,22,19,,,,,1.9,1.2,1.5*35
$GPGSV,3,1,12,31,62,119,20,01,52,290,28,32,51,314,29,11,47,251,25*78
$GPGSV,3,2,12,14,37,048,25,22,25,103,26,20,23,302,31,23,09,248,*76
$GPGSV,3,3,12,19,08,220,27,25,08,067,25,30,02,150,,17,01,323,*76
$GPVTG,190.44,T,,M,0.48,N,0.9,K,A*00
$GPGGA,185157.000,3748.7992,N,12217.8586,W,1,08,1.2,5.1,M,-25.1,M,,0000*6C
$GPGSA,A,3,14,25,31,01,11,32,22,19,,,,,1.9,1.2,1.5*35
$GPRMC,185157.000,A,3748.7992,N,12217.8586,W,0.86,145.67,050412,,,A*77
$GPVTG,145.67,T,,M,0.86,N,1.6,K,A*05
$GPGGA,185158.000,3748.7994,N,12217.8586,W,1,08,1.2,5.1,M,-25.1,M,,0000*65
$GPGSA,A,3,14,25,31,01,11,32,22,19,,,,,1.9,1.2,1.5*35
$GPRMC,185158.000,A,3748.7994,N,12217.8586,W,0.93,66.16,050412,,,A*4C
$GPVTG,66.16,T,,M,0.93,N,1.7,K,A*36
$GPGGA,185159.000,3748.7994,N,12217.8590,W,1,08,1.2,4.6,M,-25.1,M,,0000*65
$GPGSA,A,3,14,25,31,01,11,32,22,19,,,,,1.9,1.2,1.5*35
$GPRMC,185159.000,A,3748.7994,N,12217.8590,W,0.68,300.34,050412,,,A*7D
$GPVTG,300.34,T,,M,0.68,N,1.3,K,A*05
$GPGGA,185200.000,3748.8001,N,12217.8594,W,1,08,1.2,3.1,M,-25.1,M,,0000*64
$GPGSA,A,3,14,25,31,01,11,32,22,19,,,,,1.9,1.2,1.5*35
$GPRMC,185200.000,A,3748.8001,N,12217.8594,W,0.19,60.99,050412,,,A*48
$GPVTG,60.99,T,,M,0.19,N,0.3,K,A*30
$GPGGA,185201.000,3748.7999,N,12217.8595,W,1,08,1.2,2.5,M,-25.1,M,,0000*66
$GPGSA,A,3,14,25,31,01,11,32,22,19,,,,,1.9,1.2,1.5*35
$GPGSV,3,1,12,31,62,119,31,01,52,290,26,32,51,314,22,11,47,251,26*7E
$GPGSV,3,2,12,14,37,048,33,22,25,103,35,20,23,302,21,23,09,248,20*70
$GPGSV,3,3,12,19,08,220,34,25,08,067,30,30,02,150,,17,01,323,*70
$GPRMC,185201.000,A,3748.7999,N,12217.8595,W,0.30,196.57,050412,,,A*7E
$GPVTG,196.57,T,,M,0.30,N,0.5,K,A*07
$GPGGA,185202.000,3748.7995,N,12217.8592,W,1,08,1.2,2.2,M,-25.1,M,,0000*69
$GPGSA,A,3,14,25,31,01,11,32,22,19,,,,,1.9,1.2,1.5*35
$GPRMC,185202.000,A,3748.7995,N,12217.8592,W,0.45,345.30,050412,,,A*79
$GPVTG,345.30,T,,M,0.45,N,0.8,K,A*05
$GPGGA,185203.000,3748.7998,N,12217.8591,W,1,08,1.2,1.1,M,-25.1,M,,0000*66
$GPGSA,A,3,14,25,31,01,11,32,22,19,,,,,1.9,1.2,1.5*35
$GPRMC,185203.000,A,3748.7998,N,12217.8591,W,0.51,40.45,050412,,,A*47
$GPVTG,40.45,T,,M,0.51,N,0.9,K,A*35
$GPGGA,185204.000,3748.7991,N,12217.8585,W,1,08,1.2,1.1,M,-25.1,M,,0000*6D
$GPGSA,A,3,14,25,31,01,11,32,22,19,,,,,1.9,1.2,1.5*35
$GPRMC,185204.000,A,3748.7991,N,12217.8585,W,0.54,67.63,050412,,,A*48
$GPVTG,67.63,T,,M,0.54,N,1.0,K,A*39
$GPGGA,185205.000,3748.7983,N,12217.8574,W,1,08,1.2,1.6,M,-25.1,M,,0000*66
$GPGSA,A,3,14,25,31,01,11,32,22,19,,,,,1.9,1.2,1.5*35
$GPRMC,185205.000,A,3748.7983,N,12217.8574,W,1.49,103.86,050412,,,A*71
$GPVTG,103.86,T,,M,1.49,N,2.8,K,A*07
$GPGGA,185206.000,3748.7979,N,12217.8569,W,1,08,1.2,1.6,M,-25.1,M,,0000*6C
$GPGSA,A,3,14,25,31,01,11,32,22,19,,,,,1.9,1.2,1.5*35
$GPGSV,3,1,12,31,62,119,27,01,52,290,23,32,51,314,21,11,47,251,22*7B
$GPGSV,3,2,12,14,37,048,21,22,25,103,34,20,23,302,21,23,09,248,19*78
$GPGSV,3,3,12,19,08,220,22,25,08,067,22,30,02,150,,17,01,323,*74
$GPRMC,185206.000,A,3748.7979,N,12217.8569,W,1.33,79.94,050412,,,A*49
$GPVTG,79.94,T,,M,1.33,N,2.5,K,A*38
$GPGGA,185207.000,3748.7974,N,12217.8560,W,1,08,1.2,2.3,M,-25.1,M,,0000*6F
$GPGSA,A,3,14,25,31,01,11,32,22,19,,,,,1.9,1.2,1.5*35
$GPRMC,185207.000,A,3748.7974,N,12217.8560,W,1.55,79.10,050412,,,A*40
$GPVTG,79.10,T,,M,1.55,N,2.9,K,A*38
$GPGGA,185208.000,3748.7969,N,12217.8551,W,1,08,1.2,2.6,M,-25.1,M,,0000*6B
$GPGSA,A,3,14,25,31,01,11,32,22,19,,,,,1.9,1.2,1.5*35
$GPRMC,185208.000,A,3748.7969,N,12217.8551,W,1.82,97.04,050412,,,A*4E
$GPVTG,97.04,T,,M,1.82,N,3.4,K,A*3B
$GPGGA,185209.000,3748.7968,N,12217.8545,W,1,08,1.2,2.6,M,-25.1,M,,0000*6E
$GPGSA,A,3,14,25,31,01,11,32,22,19,,,,,1.9,1.2,1.5*35
$GPRMC,185209.000,A,3748.7968,N,12217.8545,W,2.00,75.85,050412,,,A*47
$GPVTG,75.85,T,,M,2.00,N,3.7,K,A*34
$GPGGA,185210.000,3748.7961,N,12217.8537,W,1,08,1.2,2.9,M,-25.1,M,,0000*65
$GPGSA,A,3,14,25,31,01,11,32,22,19,,,,,1.9,1.2,1.5*35
$GPRMC,185210.000,A,3748.7961,N,12217.8537,W,2.83,95.78,050412,,,A*44
$GPVTG,95.78,T,,M,2.83,N,5.2,K,A*30
$GPGGA,185211.000,3748.7959,N,12217.8528,W,1,08,1.2,3.1,M,-25.1,M,,0000*68
$GPGSA,A,3,14,25,31,01,11,32,22,19,,,,,1.9,1.2,1.5*35
$GPGSV,3,1,12,31,62,119,28,01,52,290,24,32,51,314,16,11,47,250,32*77
$GPGSV,3,2,12,14,37,048,21,22,25,103,34,20,23,302,20,23,09,248,19*79
$GPGSV,3,3,12,25,08,067,21,19,08,220,18,30,02,150,,17,01,323,*7E
$GPRMC,185211.000,A,3748.7959,N,12217.8528,W,2.49,95.26,050412,,,A*4D
$GPVTG,95.26,T,,M,2.49,N,4.6,K,A*38
$GPGGA,185212.000,3748.7960,N,12217.8519,W,1,08,1.2,3.1,M,-25.1,M,,0000*63
$GPGSA,A,3,14,25,31,01,11,32,22,19,,,,,1.9,1.2,1.5*35
$GPRMC,185212.000,A,3748.7960,N,12217.8519,W,2.47,105.36,050412,,,A*71
$GPVTG,105.36,T,,M,2.47,N,4.6,K,A*0F
$GPGGA,185213.000,3748.7956,N,12217.8512,W,1,08,1.2,3.2,M,-25.1,M,,0000*6F
$GPGSA,A,3,14,25,31,01,11,32,22,19,,,,,1.9,1.2,1.5*35
$GPRMC,185213.000,A,3748.7956,N,12217.8512,W,2.64,125.41,050412,,,A*7D
$GPVTG,125.41,T,,M,2.64,N,4.9,K,A*03
$GPGGA,185214.000,3748.7953,N,12217.8505,W,1,08,1.2,3.8,M,-25.1,M,,0000*61
$GPGSA,A,3,14,25,31,01,11,32,22,19,,,,,1.9,1.2,1.5*35
$GPRMC,185214.000,A,3748.7953,N,12217.8505,W,2.99,134.98,050412,,,A*7F
$GPVTG,134.98,T,,M,2.99,N,5.5,K,A*08
$GPGGA,185215.000,3748.7951,N,12217.8499,W,1,08,1.2,3.9,M,-25.1,M,,0000*67
$GPGSA,A,3,14,25,31,01,11,32,22,19,,,,,1.9,1.2,1.5*35
$GPRMC,185215.000,A,3748.7951,N,12217.8499,W,2.83,130.91,050412,,,A*7E
$GPVTG,130.91,T,,M,2.83,N,5.2,K,A*09
$GPGGA,185216.000,3748.7945,N,12217.8491,W,1,08,1.2,4.2,M,-25.1,M,,0000*65
$GPGSA,A,3,14,25,31,01,11,32,22,19,,,,,1.9,1.2,1.5*35
$GPGSV,3,1,12,31,62,119,29,01,52,290,25,32,51,314,23,11,47,250,31*72
$GPGSV,3,2,12,14,37,048,23,22,25,103,28,20,23,302,21,23,09,248,27*7A
$GPGSV,3,3,12,25,08,067,21,19,08,220,29,30,02,150,,17,01,323,*7C
$GPRMC,185216.000,A,3748.7945,N,12217.8491,W,2.59,124.25,050412,,,A*7D
$GPGGA,185217.000,3748.7933,N,12217.8486,W,1,08,1.2,5.1,M,-25.1,M,,0000*61
$GPGSA,A,3,14,25,31,01,11,32,22,19,,,,,1.9,1.2,1.5*35
$GPRMC,185217.000,A,3748.7933,N,12217.8486,W,2.33,121.72,050412,,,A*70
$GPVTG,121.72,T,,M,2.33,N,4.3,K,A*0F
$GPGGA,185218.000,3748.7929,N,12217.8480,W,1,08,1.2,5.4,M,-25.1,M,,0000*66
$GPGSA,A,3,14,25,31,01,11,32,22,19,,,,,1.9,1.2,1.5*35
$GPRMC,185218.000,A,3748.7929,N,12217.8480,W,2.14,124.58,050412,,,A*7A
$GPVTG,124.58,T,,M,2.14,N,4.0,K,A*04
$GPGGA,185219.000,3748.7920,N,12217.8471,W,1,08,1.2,6.1,M,-25.1,M,,0000*66
$GPGSA,A,3,14,25,31,01,11,32,22,19,,,,,1.9,1.2,1.5*35
$GPRMC,185219.000,A,3748.7920,N,12217.8471,W,3.29,138.17,050412,,,A*75
$GPVTG,138.17,T,,M,3.29,N,6.1,K,A*0E
$GPGGA,185220.000,3748.7912,N,12217.8464,W,1,08,1.2,6.4,M,-25.1,M,,0000*6C
$GPGSA,A,3,14,25,31,01,11,32,22,19,,,,,1.9,1.2,1.5*35
$GPRMC,185220.000,A,3748.7912,N,12217.8464,W,3.25,139.57,050412,,,A*73
$GPVTG,139.57,T,,M,3.25,N,6.0,K,A*06
$GPGGA,185221.000,3748.7899,N,12217.8455,W,1,08,1.2,7.4,M,-25.1,M,,0000*6C
$GPGSA,A,3,14,25,31,01,11,32,22,19,,,,,1.9,1.2,1.5*35
$GPGSV,3,1,12,31,62,119,33,01,52,290,24,32,51,314,21,11,47,250,28*72
$GPGSV,3,2,12,14,37,048,15,22,25,103,28,20,23,302,21,23,09,248,18*73
$GPGSV,3,3,12,25,08,067,21,19,08,220,28,30,02,150,,17,01,323,*7D
$GPRMC,185221.000,A,3748.7899,N,12217.8455,W,3.47,136.43,050412,,,A*7C
$GPVTG,136.43,T,,M,3.47,N,6.4,K,A*0C
$GPGGA,185222.000,3748.7888,N,12217.8445,W,1,08,1.2,8.0,M,-25.1,M,,0000*65
$GPGSA,A,3,14,25,31,01,11,32,22,19,,,,,1.9,1.2,1.5*35
$GPRMC,185222.000,A,3748.7888,N,12217.8445,W,3.08,122.42,050412,,,A*71
$GPVTG,122.42,T,,M,3.08,N,5.7,K,A*03
$GPGGA,185223.000,3748.7884,N,12217.8436,W,1,08,1.2,7.4,M,-25.1,M,,0000*67
$GPGSA,A,3,14,25,31,01,11,32,22,19,,,,,1.9,1.2,1.5*35
$GPRMC,185223.000,A,3748.7884,N,12217.8436,W,2.42,113.20,050412,,,A*71
$GPVTG,113.20,T,,M,2.42,N,4.5,K,A*09
$GPGGA,185224.000,3748.7879,N,12217.8426,W,1,08,1.2,7.3,M,-25.1,M,,0000*64
$GPGSA,A,3,14,25,31,01,11,32,22,19,,,,,1.9,1.2,1.5*35
$GPRMC,185224.000,A,3748.7879,N,12217.8426,W,2.62,119.98,050412,,,A*7E
$GPVTG,119.98,T,,M,2.62,N,4.8,K,A*0F
$GPGGA,185225.000,3748.7872,N,12217.8418,W,1,08,1.2,7.4,M,-25.1,M,,0000*64
$GPGSA,A,3,14,25,31,01,11,32,22,19,,,,,1.9,1.2,1.5*35
$GPRMC,185225.000,A,3748.7872,N,12217.8418,W,2.41,122.16,050412,,,A*76
$GPVTG,122.16,T,,M,2.41,N,4.5,K,A*0D
$GPGGA,185226.000,3748.7866,N,12217.8407,W,1,08,1.2,6.8,M,-25.1,M,,0000*61
$GPGSA,A,3,14,25,31,01,11,32,22,19,,,,,1.9,1.2,1.5*35
$GPGSV,3,1,12,31,62,119,29,01,52,290,23,32,51,314,21,11,47,250,28*7E
$GPGSV,3,2,12,14,37,048,18,22,25,103,28,20,23,302,21,23,09,248,29*7C
$GPGSV,3,3,12,25,08,067,23,19,08,220,29,30,02,150,,17,01,323,*7E
$GPRMC,185226.000,A,3748.7866,N,12217.8407,W,2.49,117.39,050412,,,A*7D
$GPVTG,117.39,T,,M,2.49,N,4.6,K,A*0D
$GPGGA,185227.000,3748.7859,N,12217.8397,W,1,08,1.2,6.7,M,-25.1,M,,0000*6D
$GPGSA,A,3,14,25,31,01,11,32,22,19,,,,,1.9,1.2,1.5*35
$GPRMC,185227.000,A,3748.7859,N,12217.8397,W,2.78,121.15,050412,,,A*77
$GPVTG,121.15,T,,M,2.78,N,5.2,K,A*01
$GPGGA,185228.000,3748.7854,N,12217.8389,W,1,08,1.2,6.8,M,-25.1,M,,0000*6F
$GPGSA,A,3,14,25,31,01,11,32,22,19,,,,,1.9,1.2,1.5*35
$GPRMC,185228.000,A,3748.7854,N,12217.8389,W,2.85,121.43,050412,,,A*7B
$GPVTG,121.43,T,,M,2.85,N,5.3,K,A*01
$GPGGA,185229.000,3748.7845,N,12217.8377,W,1,08,1.2,7.2,M,-25.1,M,,0000*64
$GPGSA,A,3,14,25,31,01,11,32,22,19,,,,,1.9,1.2,1.5*35
$GPRMC,185229.000,A,3748.7845,N,12217.8377,W,2.84,105.28,050412,,,A*71
$GPVTG,105.28,T,,M,2.84,N,5.3,K,A*0B
$GPGGA,185230.000,3748.7844,N,12217.8370,W,1,08,1.2,8.0,M,-25.1,M,,0000*67
$GPGSA,A,3,14,25,31,01,11,32,22,19,,,,,1.9,1.2,1.5*35
$GPRMC,185230.000,A,3748.7844,N,12217.8370,W,1.89,105.08,050412,,,A*73
$GPVTG,105.08,T,,M,1.89,N,3.5,K,A*07
$GPGGA,185231.000,3748.7839,N,12217.8363,W,1,08,1.2,8.4,M,-25.1,M,,0000*6A
$GPGSA,A,3,14,25,31,01,11,32,22,19,,,,,1.9,1.2,1.5*35
$GPGSV,3,1,12,31,62,119,29,01,52,290,23,32,51,314,20,11,47,250,29*7E
$GPGSV,3,2,12,14,37,048,19,22,25,103,27,20,23,302,21,23,09,248,29*72
$GPGSV,3,3,12,25,08,067,22,19,08,220,25,30,02,150,,17,01,323,*73
$GPVTG,113.98,T,,M,1.83,N,3.4,K,A*02
$GPGGA,185232.000,3748.7840,N,12217.8355,W,1,08,1.2,8.1,M,-25.1,M,,0000*67
$GPGSA,A,3,14,25,31,01,11,32,22,19,,,,,1.9,1.2,1.5*35
$GPRMC,185232.000,A,3748.7840,N,12217.8355,W,3.13,123.70,050412,,,A*78
$GPVTG,123.70,T,,M,3.13,N,5.8,K,A*06
$GPGGA,185233.000,3748.7834,N,12217.8347,W,1,08,1.2,8.5,M,-25.1,M,,0000*62
$GPGSA,A,3,14,25,31,01,11,32,22,19,,,,,1.9,1.2,1.5*35
$GPRMC,185233.000,A,3748.7834,N,12217.8347,W,2.62,118.10,050412,,,A*70
$GPVTG,118.10,T,,M,2.62,N,4.9,K,A*0F
$GPGGA,185234.000,3748.7827,N,12217.8337,W,1,08,1.2,8.0,M,-25.1,M,,0000*65
$GPGSA,A,3,14,25,31,01,11,32,22,19,,,,,1.9,1.2,1.5*35
$GPRMC,185234.000,A,3748.7827,N,12217.8337,W,3.01,124.96,050412,,,A*77
$GPVTG,124.96,T,,M,3.01,N,5.6,K,A*04
$GPGGA,185235.000,3748.7816,N,12217.8328,W,1,08,1.2,8.6,M,-25.1,M,,0000*6E
$GPGSA,A,3,14,25,31,01,11,32,22,19,,,,,1.9,1.2,1.5*35
$GPRMC,185235.000,A,3748.7816,N,12217.8328,W,2.92,126.51,050412,,,A*78
$GPVTG,126.51,T,,M,2.92,N,5.4,K,A*04
$GPGGA,185236.000,3748.7810,N,12217.8321,W,1,08,1.2,9.4,M,-25.1,M,,0000*61
$GPGSA,A,3,14,25,31,01,11,32,22,19,,,,,1.9,1.2,1.5*35
$GPGSV,3,1,12,31,62,119,29,01,52,290,24,32,51,314,21,11,47,250,30*70
$GPGSV,3,2,12,14,37,048,19,22,25,103,27,20,23,302,20,23,09,248,29*73
$GPGSV,3,3,12,25,08,067,23,19,08,220,15,30,02,150,,17,01,323,*71
$GPRMC,185236.000,A,3748.7810,N,12217.8321,W,2.37,112.20,050412,,,A*7A
$GPVTG,112.20,T,,M,2.37,N,4.4,K,A*0B
$GPGGA,185237.000,3748.7803,N,12217.8313,W,1,08,1.2,9.8,M,-25.1,M,,0000*6F
$GPGSA,A,3,14,25,31,01,11,32,22,19,,,,,1.9,1.2,1.5*35
$GPRMC,185237.000,A,3748.7803,N,12217.8313,W,2.84,120.57,050412,,,A*71
$GPVTG,120.57,T,,M,2.84,N,5.3,K,A*04
$GPGGA,185238.000,3748.7798,N,12217.8304,W,1,08,1.2,9.8,M,-25.1,M,,0000*6B
$GPGSA,A,3,14,25,31,01,11,32,22,19,,,,,1.9,1.2,1.5*35
$GPRMC,185238.000,A,3748.7798,N,12217.8304,W,3.06,116.10,050412,,,A*78
$GPVTG,116.10,T,,M,3.06,N,5.7,K,A*0D
$GPGGA,185239.000,3748.7788,N,12217.8294,W,1,08,1.2,10.0,M,-25.1,M,,0000*53
$GPGSA,A,3,14,25,31,01,11,32,22,19,,,,,1.9,1.2,1.5*35
$GPRMC,185239.000,A,3748.7788,N,12217.8294,W,3.24,124.09,050412,,,A*79
$GPVTG,124.09,T,,M,3.24,N,6.0,K,A*00
$GPGGA,185240.000,3748.7779,N,12217.8287,W,1,08,1.2,10.9,M,-25.1,M,,0000*58
$GPGSA,A,3,14,25,31,01,11,32,22,19,,,,,1.9,1.2,1.5*35
$GPRMC,185240.000,A,3748.7779,N,12217.8287,W,2.80,134.23,050412,,,A*7D
$GPVTG,134.23,T,,M,2.80,N,5.2,K,A*07
$GPGGA,185241.000,3748.7768,N,12217.8282,W,1,08,1.2,11.9,M,-25.1,M,,0000*5D
$GPGSA,A,3,14,25,31,01,11,32,22,19,,,,,1.9,1.2,1.5*35
$GPGSV,3,1,12,31,62,119,30,01,52,290,24,32,51,314,21,11,47,250,30*78
$GPGSV,3,2,12,14,37,048,20,22,25,103,20,20,23,302,21,23,09,248,23*75
$GPGSV,3,3,12,25,08,067,24,19,08,220,19,30,02,150,,17,01,323,*7A
$GPRMC,185241.000,A,3748.7768,N,12217.8282,W,2.48,130.90,050412,,,A*71
$GPVTG,130.90,T,,M,2.48,N,4.6,K,A*0A
$GPGGA,185242.000,3748.7767,N,12217.8275,W,1,08,1.2,12.6,M,-25.1,M,,0000*55
$GPGSA,A,3,14,25,31,01,11,32,22,19,,,,,1.9,1.2,1.5*35
$GPRMC,185242.000,A,3748.7767,N,12217.8275,W,3.00,132.79,050412,,,A*7D
$GPVTG,132.79,T,,M,3.00,N,5.6,K,A*03
$GPGGA,185243.000,3748.7761,N,12217.8265,W,1,08,1.2,12.6,M,-25.1,M,,0000*53
$GPGSA,A,3,14,25,31,01,11,32,22,19,,,,,1.9,1.2,1.5*35
$GPRMC,185243.000,A,3748.7761,N,12217.8265,W,2.56,124.50,050412,,,A*75
$GPVTG,124.50,T,,M,2.56,N,4.7,K,A*0D
$GPGGA,185244.000,3748.7759,N,12217.8256,W,1,08,1.2,13.3,M,-25.1,M,,0000*5B
$GPGSA,A,3,14,25,31,01,11,32,22,19,,,,,1.9,1.2,1.5*35
$GPRMC,185244.000,A,3748.7759,N,12217.8256,W,2.65,114.61,050412,,,A*78
$GPVTG,114.61,T,,M,2.65,N,4.9,K,A*02
$GPGGA,185245.000,3748.7759,N,12217.8246,W,1,08,1.2,13.5,M,-25.1,M,,0000*5D
$GPGSA,A,3,14,25,31,01,11,32,22,19,,,,,1.9,1.2,1.5*35
$GPRMC,185245.000,A,3748.7759,N,12217.8246,W,2.50,92.29,050412,,,A*4D
$GPVTG,92.29,T,,M,2.50,N,4.6,K,A*38
$GPGGA,185246.000,3748.7759,N,12217.8235,W,1,08,1.2,13.0,M,-25.1,M,,0000*5F
$GPGSA,A,3,14,25,31,01,11,32,22,19,,,,,1.9,1.2,1.5*35
$GPGSV,3,1,12,31,62,119,29,01,52,290,21,32,51,314,21,11,47,250,28*7C
$GPGSV,3,2,12,14,37,048,20,22,25,103,30,20,23,302,20,23,09,248,24*72
$GPGSV,3,3,12,25,08,067,19,19,08,220,28,30,02,150,,17,01,323,*76
$GPRMC,185246.000,A,3748.7759,N,12217.8235,W,2.70,87.11,050412,,,A*47
$GPVTG,87.11,T,,M,2.70,N,5.0,K,A*32
$GPGGA,185247.000,3748.7754,N,12217.8223,W,1,08,1.2,13.5,M,-25.1,M,,0000*51
$GPGSA,A,3,14,25,31,01,11,32,22,19,,,,,1.9,1.2,1.5*35
$GPRMC,185247.000,A,3748.7754,N,12217.8223,W,2.96,110.89,050412,,,A*7A
$GPVTG,110.89,T,,M,2.96,N,5.5,K,A*01
$GPGGA,185248.000,3748.7750,N,12217.8213,W,1,08,1.2,14.3,M,-25.1,M,,0000*58
$GPGSA,A,3,14,25,31,01,11,32,22,19,,,,,1.9,1.2,1.5*35
$GPRMC,185248.000,A,3748.7750,N,12217.8213,W,3.19,123.68,050412,,,A*7B
$GPVTG,123.68,T,,M,3.19,N,5.9,K,A*04
$GPGGA,185249.000,3748.7745,N,12217.8202,W,1,08,1.2,14.0,M,-25.1,M,,0000*5E
$GPGSA,A,3,14,25,31,01,11,32,22,19,,,,,1.9,1.2,1.5*35
$GPRMC,185249.000,A,3748.7745,N,12217.8202,W,3.21,121.51,050412,,,A*7D
$GPVTG,121.51,T,,M,3.21,N,5.9,K,A*07
$GPGGA,185250.000,3748.7740,N,12217.8191,W,1,08,1.2,14.5,M,-25.1,M,,0000*5F
$GPGSA,A,3,14,25,31,01,11,32,22,19,,,,,1.9,1.2,1.5*35
$GPRMC,185250.000,A,3748.7740,N,12217.8191,W,2.64,94.05,050412,,,A*47
$GPVTG,94.05,T,,M,2.64,N,4.9,K,A*38
$GPGGA,185251.000,3748.7737,N,12217.8182,W,1,08,1.2,15.9,M,-25.1,M,,0000*51
$GPGSA,A,3,14,25,31,01,11,32,22,19,,,,,1.9,1.2,1.5*35
$GPGSV,3,1,12,31,62,119,30,01,52,290,23,32,51,314,20,11,47,250,30*7E
$GPGSV,3,2,12,14,37,048,20,22,25,103,28,20,23,302,20,23,09,248,23*7C
$GPGSV,3,3,12,25,08,067,22,19,08,220,21,30,02,150,,17,01,323,*77
$GPVTG,102.79,T,,M,2.65,N,4.9,K,A*0C
$GPGGA,185252.000,3748.7728,N,12217.8172,W,1,08,1.2,17.7,M,-25.1,M,,0000*5F
$GPGSA,A,3,14,25,31,01,11,32,22,19,,,,,1.9,1.2,1.5*35
$GPRMC,185252.000,A,3748.7728,N,12217.8172,W,2.38,105.91,050412,,,A*7B
$GPVTG,105.91,T,,M,2.38,N,4.4,K,A*08
$GPGGA,185253.000,3748.7718,N,12217.8162,W,1,08,1.2,18.9,M,-25.1,M,,0000*5D
$GPGSA,A,3,14,25,31,01,11,32,22,19,,,,,1.9,1.2,1.5*35
$GPRMC,185253.000,A,3748.7718,N,12217.8162,W,2.47,112.56,050412,,,A*7D
$GPVTG,112.56,T,,M,2.47,N,4.6,K,A*0F
$GPGGA,185254.000,3748.7707,N,12217.8153,W,1,08,1.2,19.5,M,-25.1,M,,0000*5B
$GPGSA,A,3,14,25,31,01,11,32,22,19,,,,,1.9,1.2,1.5*35
$GPRMC,185254.000,A,3748.7707,N,12217.8153,W,2.89,119.70,050412,,,A*7B
$GPVTG,119.70,T,,M,2.89,N,5.4,K,A*01
$GPGGA,185255.000,3748.7697,N,12217.8143,W,1,08,1.2,19.6,M,-25.1,M,,0000*50
$GPGSA,A,3,14,25,31,01,11,32,22,19,,,,,1.9,1.2,1.5*35
$GPRMC,185255.000,A,3748.7697,N,12217.8143,W,2.81,121.74,050412,,,A*74
$GPVTG,121.74,T,,M,2.81,N,5.2,K,A*00
$GPGGA,185256.000,3748.7689,N,12217.8134,W,1,08,1.2,20.0,M,-25.1,M,,0000*50
$GPGSA,A,3,14,25,31,01,11,32,22,19,,,,,1.9,1.2,1.5*35
$GPGSV,3,1,12,31,62,119,30,01,52,290,22,32,51,314,20,11,47,250,30*7F
$GPGSV,3,2,12,14,37,048,20,22,25,103,29,20,23,302,20,23,09,248,23*7D
$GPGSV,3,3,12,25,08,067,27,19,08,220,30,30,02,150,,17,01,323,*72
$GPRMC,185256.000,A,3748.7689,N,12217.8134,W,2.78,121.54,050412,,,A*7C
$GPVTG,121.54,T,,M,2.78,N,5.1,K,A*07
$GPGGA,185257.000,3748.7686,N,12217.8127,W,1,08,1.2,20.2,M,-25.1,M,,0000*5E
$GPGSA,A,3,14,25,31,01,11,32,22,19,,,,,1.9,1.2,1.5*35
$GPRMC,185257.000,A,3748.7686,N,12217.8127,W,2.46,110.76,050412,,,A*7F
$GPVTG,110.76,T,,M,2.46,N,4.6,K,A*0E
$GPGGA,185258.000,3748.7676,N,12217.8116,W,1,08,1.2,20.6,M,-25.1,M,,0000*58
$GPGSA,A,3,14,25,31,01,11,32,22,19,,,,,1.9,1.2,1.5*35
$GPRMC,185258.000,A,3748.7676,N,12217.8116,W,2.69,118.85,050412,,,A*74
$GPVTG,118.85,T,,M,2.69,N,5.0,K,A*00
$GPGGA,185259.000,3748.7669,N,12217.8107,W,1,08,1.2,20.8,M,-25.1,M,,0000*59
$GPGSA,A,3,14,25,31,01,11,32,22,19,,,,,1.9,1.2,1.5*35
$GPRMC,185259.000,A,3748.7669,N,12217.8107,W,2.49,112.87,050412,,,A*71
$GPVTG,112.87,T,,M,2.49,N,4.6,K,A*0D
$GPGGA,185300.000,3748.7667,N,12217.8099,W,1,08,1.2,20.9,M,-25.1,M,,0000*5D
$GPGSA,A,3,14,25,31,01,11,32,22,19,,,,,1.9,1.2,1.5*35
$GPRMC,185300.000,A,3748.7667,N,12217.8099,W,2.20,105.73,050412,,,A*76
$GPVTG,105.73,T,,M,2.20,N,4.1,K,A*08
$GPGGA,185301.000,3748.7666,N,12217.8091,W,1,08,1.2,21.0,M,-25.1,M,,0000*5D
$GPGSA,A,3,14,25,31,01,11,32,22,19,,,,,1.9,1.2,1.5*35
$GPGSV,3,1,12,31,62,119,30,01,52,290,22,32,51,314,20,11,47,250,30*7F
$GPGSV,3,2,12,14,37,048,20,22,25,103,29,20,23,302,19,23,09,248,23*77
$GPGSV,3,3,12,25,08,067,26,19,08,220,31,30,02,150,,17,01,323,*72
$GPRMC,185301.000,A,3748.7666,N,12217.8091,W,2.35,111.72,050412,,,A*7E
$GPVTG,111.72,T,,M,2.35,N,4.4,K,A*0D
$GPGGA,185302.000,3748.7671,N,12217.8085,W,1,08,1.2,20.6,M,-25.1,M,,0000*5A
$GPGSA,A,3,14,25,31,01,11,32,22,19,,,,,1.9,1.2,1.5*35
$GPRMC,185302.000,A,3748.7671,N,12217.8085,W,2.12,102.63,050412,,,A*79
$GPVTG,102.63,T,,M,2.12,N,3.9,K,A*00
$GPGGA,185303.000,3748.7666,N,12217.8076,W,1,08,1.2,19.9,M,-25.1,M,,0000*54
$GPGSA,A,3,14,25,31,01,11,32,22,19,,,,,1.9,1.2,1.5*35
$GPRMC,185303.000,A,3748.7666,N,12217.8076,W,2.77,117.85,050412,,,A*7D
$GPVTG,117.85,T,,M,2.77,N,5.1,K,A*01
$GPGGA,185304.000,3748.7670,N,12217.8068,W,1,08,1.2,19.0,M,-25.1,M,,0000*52
$GPGSA,A,3,14,25,31,01,11,32,22,19,,,,,1.9,1.2,1.5*35
$GPRMC,185304.000,A,3748.7670,N,12217.8068,W,2.43,107.50,050412,,,A*7C
$GPVTG,107.50,T,,M,2.43,N,4.5,K,A*0A
$GPGGA,185305.000,3748.7673,N,12217.8058,W,1,08,1.2,18.1,M,-25.1,M,,0000*53
$GPGSA,A,3,14,25,31,01,11,32,22,19,,,,,1.9,1.2,1.5*35
$GPRMC,185305.000,A,3748.7673,N,12217.8058,W,2.65,116.03,050412,,,A*7F
$GPVTG,116.03,T,,M,2.65,N,4.9,K,A*04
$GPGGA,185306.000,3748.7673,N,12217.8048,W,1,08,1.2,17.4,M,-25.1,M,,0000*5B
$GPGSA,A,3,14,25,31,01,11,32,22,19,,,,,1.9,1.2,1.5*35
$GPGSV,3,1,12,31,62,119,30,01,52,290,22,32,51,314,20,11,47,250,30*7F
$GPGSV,3,2,12,14,37,048,21,22,25,103,30,20,23,302,19,23,09,248,22*7F
$GPGSV,3,3,12,25,08,067,17,19,08,220,25,30,02,150,,17,01,323,*75
$GPRMC,185306.000,A,3748.7673,N,12217.8048,W,2.73,117.05,050412,,,A*7D
$GPVTG,117.05,T,,M,2.73,N,5.1,K,A*0D
$GPGGA,185307.000,3748.7672,N,12217.8038,W,1,08,1.2,16.6,M,-25.1,M,,0000*5F
$GPGSA,A,3,14,25,31,01,11,32,22,19,,,,,1.9,1.2,1.5*35
$GPRMC,185307.000,A,3748.7672,N,12217.8038,W,2.76,109.83,050412,,,A*7E
$GPVTG,109.83,T,,M,2.76,N,5.1,K,A*09
$GPGGA,185308.000,3748.7667,N,12217.8029,W,1,08,1.2,16.3,M,-25.1,M,,0000*51
$GPGSA,A,3,14,25,31,01,11,32,22,19,,,,,1.9,1.2,1.5*35
$GPRMC,185308.000,A,3748.7667,N,12217.8029,W,2.37,107.43,050412,,,A*72
$GPVTG,107.43,T,,M,2.37,N,4.4,K,A*0A
$GPGGA,185309.000,3748.7664,N,12217.8021,W,1,08,1.2,15.9,M,-25.1,M,,0000*52
$GPGSA,A,3,14,25,31,01,11,32,22,19,,,,,1.9,1.2,1.5*35
$GPRMC,185309.000,A,3748.7664,N,12217.8021,W,2.15,101.89,050412,,,A*78
$GPVTG,101.89,T,,M,2.15,N,4.0,K,A*0E
$GPGGA,185310.000,3748.7660,N,12217.8010,W,1,08,1.2,15.1,M,-25.1,M,,0000*54
$GPGSA,A,3,14,25,31,01,11,32,22,19,,,,,1.9,1.2,1.5*35
$GPRMC,185310.000,A,3748.7660,N,12217.8010,W,2.77,115.03,050412,,,A*75
$GPVTG,115.03,T,,M,2.77,N,5.1,K,A*0D
$GPGGA,185311.000,3748.7657,N,12217.7999,W,1,08,1.2,14.1,M,-25.1,M,,0000*57
$GPGSA,A,3,14,25,31,01,11,32,22,19,,,,,1.9,1.2,1.5*35
$GPGSV,3,1,12,31,62,119,30,01,52,290,22,32,51,314,20,11,47,250,30*7F
$GPGSV,3,2,12,14,37,048,21,22,25,103,30,20,23,302,19,23,09,248,26*7B
$GPGSV,3,3,12,25,08,067,22,19,08,220,24,30,02,150,18,17,01,323,*7B
$GPRMC,185311.000,A,3748.7657,N,12217.7999,W,3.20,115.37,050412,,,A*73
$GPGGA,185312.000,3748.7657,N,12217.7987,W,1,08,1.2,13.3,M,-25.1,M,,0000*5E
$GPGSA,A,3,14,25,31,01,11,32,22,19,,,,,1.9,1.2,1.5*35
$GPRMC,185312.000,A,3748.7657,N,12217.7987,W,2.90,116.55,050412,,,A*72
$GPVTG,116.55,T,,M,2.90,N,5.4,K,A*01
$GPGGA,185313.000,3748.7655,N,12217.7979,W,1,08,1.2,12.6,M,-25.1,M,,0000*58
$GPGSA,A,3,14,25,31,01,11,32,22,19,,,,,1.9,1.2,1.5*35
$GPRMC,185313.000,A,3748.7655,N,12217.7979,W,2.25,98.88,050412,,,A*49
$GPVTG,98.88,T,,M,2.25,N,4.2,K,A*3F
$GPGGA,185314.000,3748.7655,N,12217.7969,W,1,08,1.2,11.7,M,-25.1,M,,0000*5C
$GPGSA,A,3,14,25,31,01,11,32,22,19,,,,,1.9,1.2,1.5*35
$GPRMC,185314.000,A,3748.7655,N,12217.7969,W,2.56,115.49,050412,,,A*72
$GPVTG,115.49,T,,M,2.56,N,4.7,K,A*07
$GPGGA,185315.000,3748.7652,N,12217.7961,W,1,08,1.2,10.8,M,-25.1,M,,0000*5C
$GPGSA,A,3,14,25,31,01,11,32,22,19,,,,,1.9,1.2,1.5*35
$GPRMC,185315.000,A,3748.7652,N,12217.7961,W,2.57,112.33,050412,,,A*77
$GPVTG,112.33,T,,M,2.57,N,4.8,K,A*03
$GPGGA,185316.000,3748.7657,N,12217.7953,W,1,08,1.2,9.8,M,-25.1,M,,0000*63
$GPGSA,A,3,14,25,31,01,11,32,22,19,,,,,1.9,1.2,1.5*35
$GPGSV,3,1,12,31,62,119,30,01,52,290,21,32,51,314,20,11,47,250,30*7C
$GPGSV,3,2,12,14,37,048,24,22,25,103,30,20,23,302,19,23,09,248,28*70
$GPGSV,3,3,12,25,08,067,20,19,08,220,16,30,02,150,,17,01,323,*71
$GPRMC,185316.000,A,3748.7657,N,12217.7953,W,2.17,112.27,050412,,,A*71
$GPVTG,112.27,T,,M,2.17,N,4.0,K,A*0A
$GPGGA,185317.000,3748.7655,N,12217.7946,W,1,08,1.2,9.4,M,-25.1,M,,0000*68
$GPGSA,A,3,14,25,31,01,11,32,22,19,,,,,1.9,1.2,1.5*35
$GPRMC,185317.000,A,3748.7655,N,12217.7946,W,1.94,113.98,050412,,,A*7B
$GPVTG,113.98,T,,M,1.94,N,3.6,K,A*06
$GPGGA,185318.000,3748.7654,N,12217.7938,W,1,08,1.2,9.0,M,-25.1,M,,0000*6B
$GPGSA,A,3,14,25,31,01,11,32,22,19,,,,,1.9,1.2,1.5*35
$GPRMC,185318.000,A,3748.7654,N,12217.7938,W,2.50,115.35,050412,,,A*76
$GPVTG,115.35,T,,M,2.50,N,4.6,K,A*0B
$GPGGA,185319.000,3748.7645,N,12217.7932,W,1,08,1.2,8.3,M,-25.1,M,,0000*62
$GPGSA,A,3,14,25,31,01,11,32,22,19,,,,,1.9,1.2,1.5*35
$GPRMC,185319.000,A,3748.7645,N,12217.7932,W,2.36,112.87,050412,,,A*73
$GPVTG,112.87,T,,M,2.36,N,4.4,K,A*07
$GPGGA,185320.000,3748.7644,N,12217.7921,W,1,08,1.2,8.1,M,-25.1,M,,0000*69
$GPGSA,A,3,14,25,31,01,11,32,22,19,,,,,1.9,1.2,1.5*35
$GPRMC,185320.000,A,3748.7644,N,12217.7921,W,2.08,92.60,050412,,,A*47
$GPVTG,92.60,T,,M,2.08,N,3.9,K,A*30
$GPGGA,185321.000,3748.7648,N,12217.7912,W,1,08,1.2,7.8,M,-25.1,M,,0000*62
$GPGSA,A,3,14,25,31,01,11,32,22,19,,,,,1.9,1.2,1.5*35
$GPGSV,3,1,12,31,62,119,30,01,52,290,21,32,51,314,20,11,47,250,29*74
$GPGSV,3,2,12,14,37,048,22,22,25,103,30,20,23,302,20,23,09,248,23*77
$GPGSV,3,3,12,25,08,067,18,19,08,220,20,30,02,150,,17,01,323,*7F
$GPRMC,185321.000,A,3748.7648,N,12217.7912,W,2.22,91.23,050412,,,A*46
$GPVTG,91.23,T,,M,2.22,N,4.1,K,A*33
$GPGGA,185322.000,3748.7640,N,12217.7902,W,1,08,1.2,7.9,M,-25.1,M,,0000*69
$GPGSA,A,3,14,25,31,01,11,32,22,19,,,,,1.9,1.2,1.5*35
$GPRMC,185322.000,A,3748.7640,N,12217.7902,W,2.22,107.63,050412,,,A*76
$GPVTG,107.63,T,,M,2.22,N,4.1,K,A*09
$GPGGA,185323.000,3748.7633,N,12217.7894,W,1,08,1.2,9.1,M,-25.1,M,,0000*64
$GPGSA,A,3,14,25,31,01,11,32,22,19,,,,,1.9,1.2,1.5*35
$GPRMC,185323.000,A,3748.7633,N,12217.7894,W,2.84,132.46,050412,,,A*70
$GPVTG,132.46,T,,M,2.84,N,5.3,K,A*07
$GPGGA,185324.000,3748.7624,N,12217.7886,W,1,08,1.2,10.0,M,-25.1,M,,0000*5F
$GPGSA,A,3,14,25,31,01,11,32,22,19,,,,,1.9,1.2,1.5*35
$GPRMC,185324.000,A,3748.7624,N,12217.7886,W,2.99,134.05,050412,,,A*7F
$GPVTG,134.05,T,,M,2.99,N,5.5,K,A*0C
$GPGGA,185325.000,3748.7619,N,12217.7881,W,1,08,1.2,9.3,M,-25.1,M,,0000*6C
$GPGSA,A,3,14,25,31,01,11,32,22,19,,,,,1.9,1.2,1.5*35
$GPRMC,185325.000,A,3748.7619,N,12217.7881,W,2.47,126.79,050412,,,A*7C
$GPVTG,126.79,T,,M,2.47,N,4.6,K,A*05
$GPGGA,185326.000,3748.7612,N,12217.7874,W,1,08,1.2,10.3,M,-25.1,M,,0000*56
$GPGSA,A,3,14,25,31,01,11,32,22,19,,,,,1.9,1.2,1.5*35
$GPGSV,3,1,12,31,62,119,25,01,52,290,23,32,51,314,20,11,47,250,30*7A
$GPGSV,3,2,12,14,37,048,19,22,25,103,20,20,23,302,22,23,09,248,23*7C
$GPRMC,185326.000,A,3748.7612,N,12217.7874,W,2.46,114.27,050412,,,A*75
$GPVTG,114.27,T,,M,2.46,N,4.5,K,A*0D
$GPGGA,185327.000,3748.7607,N,12217.7867,W,2,08,1.2,9.8,M,-25.1,M,1.8,0000*46
$GPGSA,A,3,14,25,31,01,11,32,22,19,,,,,1.9,1.2,1.5*35
$GPRMC,185327.000,A,3748.7607,N,12217.7867,W,2.44,111.66,050412,,,D*75
$GPVTG,111.66,T,,M,2.44,N,4.5,K,D*0A
$GPGGA,185328.000,3748.7604,N,12217.7863,W,2,08,1.2,10.1,M,-25.1,M,1.8,0000*7F
$GPGSA,A,3,14,25,31,01,11,32,22,19,,,,,1.9,1.2,1.5*35
$GPRMC,185328.000,A,3748.7604,N,12217.7863,W,2.55,114.51,050412,,,D*7C
$GPVTG,114.51,T,,M,2.55,N,4.7,K,D*09
$GPGGA,185329.000,3748.7599,N,12217.7857,W,2,08,1.2,10.3,M,-25.1,M,1.8,0000*7C
$GPGSA,A,3,14,25,31,01,11,32,22,19,,,,,1.9,1.2,1.5*35
$GPRMC,185329.000,A,3748.7599,N,12217.7857,W,2.88,119.74,050412,,,D*77
$GPVTG,119.74,T,,M,2.88,N,5.3,K,D*06
$GPGGA,185330.000,3748.7589,N,12217.7850,W,2,08,1.2,10.8,M,-25.1,M,2.8,0000*7A
$GPGSA,A,3,14,25,31,01,11,32,22,19,,,,,1.9,1.2,1.5*35
$GPRMC,185330.000,A,3748.7589,N,12217.7850,W,2.52,110.36,050412,,,D*71
$GPVTG,110.36,T,,M,2.52,N,4.7,K,D*0B
$GPGGA,185331.000,3748.7578,N,12217.7842,W,2,08,1.2,12.2,M,-25.1,M,3.8,0000*7F
$GPGSA,A,3,14,25,31,01,11,32,22,19,,,,,1.9,1.2,1.5*35
$GPGSV,3,1,12,31,62,119,30,01,52,290,23,32,51,314,19,11,47,250,30*74
$GPGSV,3,2,12,14,37,048,19,22,25,103,19,20,23,302,22,23,09,248,30*74
$GPGSV,3,3,12,25,08,067,19,19,08,220,28,30,02,150,,17,01,323,*76
$GPRMC,185331.000,A,3748.7578,N,12217.7842,W,3.39,138.43,050412,,,D*79
$GPVTG,138.43,T,,M,3.39,N,6.3,K,D*09
$GPGGA,185332.000,3748.7567,N,12217.7835,W,2,08,1.2,14.2,M,-25.1,M,4.8,0000*73
$GPGSA,A,3,14,25,31,01,11,32,22,19,,,,,1.9,1.2,1.5*35
$GPRMC,185332.000,A,3748.7567,N,12217.7835,W,2.70,131.40,050412,,,D*72
$GPVTG,131.40,T,,M,2.70,N,5.0,K,D*0F
$GPGGA,185333.000,3748.7558,N,12217.7827,W,2,08,1.2,15.5,M,-25.1,M,1.8,0000*7E
$GPGSA,A,3,14,25,31,01,11,32,22,19,,,,,1.9,1.2,1.5*35
$GPRMC,185333.000,A,3748.7558,N,12217.7827,W,3.02,124.29,050412,,,D*73
$GPVTG,124.29,T,,M,3.02,N,5.6,K,D*06
$GPGGA,185334.000,3748.7549,N,12217.7815,W,2,08,1.2,16.9,M,-25.1,M,1.8,0000*77
$GPGSA,A,3,14,25,31,01,11,32,22,19,,,,,1.9,1.2,1.5*35
$GPRMC,185334.000,A,3748.7549,N,12217.7815,W,3.26,117.18,050412,,,D*71
$GPVTG,117.18,T,,M,3.26,N,6.0,K,D*07
$GPGGA,185335.000,3748.7542,N,12217.7805,W,2,08,1.2,18.5,M,-25.1,M,2.8,0000*7D
$GPGSA,A,3,14,25,31,01,11,32,22,19,,,,,1.9,1.2,1.5*35
$GPRMC,185335.000,A,3748.7542,N,12217.7805,W,3.06,118.97,050412,,,D*70
$GPVTG,118.97,T,,M,3.06,N,5.7,K,D*09
$GPGGA,185336.000,3748.7536,N,12217.7795,W,2,08,1.2,20.2,M,-25.1,M,3.8,0000*76
$GPGSA,A,3,14,25,31,01,11,32,22,19,,,,,1.9,1.2,1.5*35
$GPGSV,3,1,12,31,62,119,30,01,52,290,23,32,51,314,19,11,47,250,30*74
$GPGSV,3,2,12,14,37,048,18,22,25,103,19,20,23,302,21,23,09,248,30*76
$GPGSV,3,3,12,25,08,067,26,19,08,220,25,30,02,150,17,17,01,323,*71
$GPRMC,185336.000,A,3748.7536,N,12217.7795,W,3.21,121.70,050412,,,D*70
$GPVTG,121.70,T,,M,3.21,N,5.9,K,D*01
$GPGGA,185337.000,3748.7529,N,12217.7786,W,2,08,1.2,21.2,M,-25.1,M,4.8,0000*7D
$GPGSA,A,3,14,25,31,01,11,32,22,19,,,,,1.9,1.2,1.5*35
$GPRMC,185337.000,A,3748.7529,N,12217.7786,W,3.23,125.95,050412,,,D*70
$GPVTG,125.95,T,,M,3.23,N,6.0,K,D*06
$GPGGA,185338.000,3748.7523,N,12217.7778,W,2,08,1.2,22.1,M,-25.1,M,1.8,0000*7C
$GPGSA,A,3,14,25,31,01,11,32,22,19,,,,,1.9,1.2,1.5*35
$GPRMC,185338.000,A,3748.7523,N,12217.7778,W,3.51,128.89,050412,,,D*71
$GPVTG,128.89,T,,M,3.51,N,6.5,K,D*06
$GPGGA,185339.000,3748.7514,N,12217.7769,W,2,08,1.2,22.8,M,-25.1,M,1.8,0000*70
$GPGSA,A,3,14,25,31,01,11,32,22,19,,,,,1.9,1.2,1.5*35
$GPRMC,185339.000,A,3748.7514,N,12217.7769,W,3.28,127.41,050412,,,D*71
$GPVTG,127.41,T,,M,3.28,N,6.1,K,D*07
$GPGGA,185340.000,3748.7509,N,12217.7762,W,2,08,1.2,23.0,M,-25.1,M,1.8,0000*70
$GPGSA,A,3,14,25,31,01,11,32,22,19,,,,,1.9,1.2,1.5*35
$GPRMC,185340.000,A,3748.7509,N,12217.7762,W,2.80,125.34,050412,,,D*7B
$GPVTG,125.34,T,,M,2.80,N,5.2,K,D*04
$GPGGA,185341.000,3748.7505,N,12217.7756,W,2,08,1.2,23.5,M,-25.1,M,2.8,0000*7C
$GPGSA,A,3,14,25,31,01,11,32,22,19,,,,,1.9,1.2,1.5*35
$GPGSV,3,1,12,31,62,119,29,01,52,290,23,32,51,314,19,11,47,250,30*7C
$GPGSV,3,2,12,14,37,048,17,22,25,103,19,20,23,302,21,23,09,248,24*7C
$GPGSV,3,3,12,25,08,067,26,19,08,220,25,30,02,150,17,17,01,323,*71
$GPRMC,185341.000,A,3748.7505,N,12217.7756,W,2.68,124.06,050412,,,D*77
$GPVTG,124.06,T,,M,2.68,N,5.0,K,D*00
$GPGGA,185342.000,3748.7504,N,12217.7750,W,2,08,1.2,24.3,M,-25.1,M,3.8,0000*78
$GPGSA,A,3,14,25,31,01,11,32,22,19,,,,,1.9,1.2,1.5*35
$GPRMC,185342.000,A,3748.7504,N,12217.7750,W,2.52,108.54,050412,,,D*73
$GPVTG,108.54,T,,M,2.52,N,4.7,K,D*06
$GPGGA,185343.000,3748.7498,N,12217.7741,W,2,08,1.2,25.1,M,-25.1,M,4.8,0000*79
$GPGSA,A,3,14,25,31,01,11,32,22,19,,,,,1.9,1.2,1.5*35
$GPRMC,185343.000,A,3748.7498,N,12217.7741,W,2.65,104.62,050412,,,D*7B
$GPVTG,104.62,T,,M,2.65,N,4.9,K,D*05
$GPGGA,185344.000,3748.7493,N,12217.7733,W,2,08,1.2,25.9,M,-25.1,M,1.8,0000*7D
$GPGSA,A,3,14,25,31,01,11,32,22,19,,,,,1.9,1.2,1.5*35
$GPRMC,185344.000,A,3748.7493,N,12217.7733,W,3.02,112.97,050412,,,D*7F
$GPVTG,112.97,T,,M,3.02,N,5.6,K,D*06
$GPGGA,185345.000,3748.7490,N,12217.7726,W,2,06,1.5,26.8,M,-25.1,M,1.8,0000*70
$GPGSA,A,3,25,31,01,11,22,19,,,,,,,2.1,1.5,1.5*3D
$GPRMC,185345.000,A,3748.7490,N,12217.7726,W,3.17,119.43,050412,,,D*7F
$GPVTG,119.43,T,,M,3.17,N,5.9,K,D*0F
$GPGGA,185346.000,3748.7488,N,12217.7719,W,2,08,1.2,26.9,M,-25.1,M,1.8,0000*7E
$GPGSA,A,3,14,25,31,01,11,32,22,19,,,,,1.9,1.2,1.5*35
$GPGSV,3,1,12,31,62,119,30,01,52,290,23,32,51,314,18,11,47,250,30*75
$GPGSV,3,2,12,14,37,048,16,22,25,103,20,20,23,302,20,23,09,248,26*74
$GPGSV,3,3,12,25,08,067,20,19,08,220,32,30,02,150,17,17,01,323,*71
$GPRMC,185346.000,A,3748.7488,N,12217.7719,W,2.95,117.39,050412,,,D*71
$GPVTG,117.39,T,,M,2.95,N,5.5,K,D*0B
$GPGGA,185347.000,3748.7485,N,12217.7710,W,2,08,1.2,26.7,M,-25.1,M,2.8,0000*76
$GPGSA,A,3,14,25,31,01,11,32,22,19,,,,,1.9,1.2,1.5*35
$GPRMC,185347.000,A,3748.7485,N,12217.7710,W,2.86,126.99,050412,,,D*7E
$GPVTG,126.99,T,,M,2.86,N,5.3,K,D*07
$GPGGA,185348.000,3748.7480,N,12217.7700,W,2,08,1.2,26.1,M,-25.1,M,3.8,0000*7A
$GPGSA,A,3,14,25,31,01,11,32,22,19,,,,,1.9,1.2,1.5*35
$GPRMC,185348.000,A,3748.7480,N,12217.7700,W,3.58,130.53,050412,,,D*76
$GPVTG,130.53,T,,M,3.58,N,6.6,K,D*02
$GPGGA,185349.000,3748.7470,N,12217.7687,W,2,08,1.2,25.2,M,-25.1,M,1.8,0000*78
$GPGSA,A,3,14,25,31,01,11,32,22,19,,,,,1.9,1.2,1.5*35
$GPRMC,185349.000,A,3748.7470,N,12217.7687,W,3.45,130.09,050412,,,D*75
$GPVTG,130.09,T,,M,3.45,N,6.4,K,D*03
$GPGGA,185350.000,3748.7458,N,12217.7674,W,2,08,1.2,25.5,M,-25.1,M,1.8,0000*71
$GPGSA,A,3,14,25,31,01,11,32,22,19,,,,,1.9,1.2,1.5*35
$GPRMC,185350.000,A,3748.7458,N,12217.7674,W,3.09,126.04,050412,,,D*79
$GPVTG,126.04,T,,M,3.09,N,5.7,K,D*01
$GPGGA,185351.000,3748.7452,N,12217.7666,W,2,08,1.2,25.6,M,-25.1,M,1.8,0000*7A
$GPGSA,A,3,14,25,31,01,11,32,22,19,,,,,1.9,1.2,1.5*35
$GPGSV,3,1,12,31,62,119,30,01,52,290,23,32,51,314,18,11,47,250,31*74
$GPGSV,3,2,12,14,37,048,16,22,25,103,19,20,23,302,20,23,09,248,28*70
$GPGSV,3,3,12,25,08,067,19,19,08,220,31,30,02,150,17,17,01,323,*78
$GPRMC,185351.000,A,3748.7452,N,12217.7666,W,2.49,122.00,050412,,,D*74
$GPGGA,185352.000,3748.7441,N,12217.7654,W,2,08,1.2,25.8,M,-25.1,M,1.8,0000*74
$GPGSA,A,3,14,25,31,01,11,32,22,19,,,,,1.9,1.2,1.5*35
$GPRMC,185352.000,A,3748.7441,N,12217.7654,W,3.09,122.28,050412,,,D*7B
$GPVTG,122.28,T,,M,3.09,N,5.7,K,D*0B
$GPGGA,185353.000,3748.7434,N,12217.7644,W,2,08,1.2,26.2,M,-25.1,M,2.8,0000*7C
$GPGSA,A,3,14,25,31,01,11,32,22,19,,,,,1.9,1.2,1.5*35
$GPRMC,185353.000,A,3748.7434,N,12217.7644,W,2.53,117.79,050412,,,D*75
$GPVTG,117.79,T,,M,2.53,N,4.7,K,D*06
$GPGGA,185354.000,3748.7427,N,12217.7631,W,2,08,1.2,25.6,M,-25.1,M,3.8,0000*7D
$GPGSA,A,3,14,25,31,01,11,32,22,19,,,,,1.9,1.2,1.5*35
$GPRMC,185354.000,A,3748.7427,N,12217.7631,W,3.16,110.83,050412,,,D*70
$GPVTG,110.83,T,,M,3.16,N,5.9,K,D*0B
$GPGGA,185355.000,3748.7424,N,12217.7618,W,2,08,1.2,24.6,M,-25.1,M,1.8,0000*77
$GPGSA,A,3,14,25,31,01,11,32,22,19,,,,,1.9,1.2,1.5*35
$GPRMC,185355.000,A,3748.7424,N,12217.7618,W,3.07,105.22,050412,,,D*76
$GPVTG,105.22,T,,M,3.07,N,5.7,K,D*0A
$GPGGA,185356.000,3748.7418,N,12217.7608,W,2,08,1.2,24.2,M,-25.1,M,1.8,0000*7E
$GPGSA,A,3,14,25,31,01,11,32,22,19,,,,,1.9,1.2,1.5*35
$GPGSV,3,1,12,31,62,119,29,01,52,290,23,32,51,314,17,11,47,250,31*73
$GPGSV,3,2,12,14,37,048,17,22,25,103,27,20,23,302,21,23,09,248,29*7C
$GPGSV,3,3,12,25,08,067,18,19,08,220,31,30,02,150,17,17,01,323,*79
$GPRMC,185356.000,A,3748.7418,N,12217.7608,W,2.56,104.99,050412,,,D*7F
$GPVTG,104.99,T,,M,2.56,N,4.7,K,D*0F
$GPGGA,185357.000,3748.7409,N,12217.7591,W,2,08,1.2,22.6,M,-25.1,M,1.8,0000*7E
$GPGSA,A,3,14,25,31,01,11,32,22,19,,,,,1.9,1.2,1.5*35
$GPRMC,185357.000,A,3748.7409,N,12217.7591,W,2.59,106.31,050412,,,D*72
$GPVTG,106.31,T,,M,2.59,N,4.8,K,D*0F
$GPGGA,185358.000,3748.7406,N,12217.7579,W,2,08,1.2,21.7,M,-25.1,M,1.8,0000*7A
$GPGSA,A,3,14,25,31,01,11,32,22,19,,,,,1.9,1.2,1.5*35
$GPRMC,185358.000,A,3748.7406,N,12217.7579,W,2.67,97.55,050412,,,D*42
$GPVTG,97.55,T,,M,2.67,N,5.0,K,D*30
$GPGGA,185359.000,3748.7403,N,12217.7569,W,2,08,1.2,21.3,M,-25.1,M,2.8,0000*78
$GPGSA,A,3,14,25,31,01,11,32,22,19,,,,,1.9,1.2,1.5*35
$GPRMC,185359.000,A,3748.7403,N,12217.7569,W,2.28,93.82,050412,,,D*42
$GPVTG,93.82,T,,M,2.28,N,4.2,K,D*36
$GPGGA,185400.000,3748.7400,N,12217.7562,W,2,08,1.2,21.2,M,-25.1,M,3.8,0000*7B
$GPGSA,A,3,14,25,31,01,11,32,22,19,,,,,1.9,1.2,1.5*35
$GPRMC,185400.000,A,3748.7400,N,12217.7562,W,1.77,98.32,050412,,,D*48
$GPVTG,98.32,T,,M,1.77,N,3.3,K,D*39
$GPGGA,185401.000,3748.7397,N,12217.7553,W,2,08,1.2,20.7,M,-25.1,M,4.8,0000*72
$GPGSA,A,3,14,25,31,01,11,32,22,19,,,,,1.9,1.2,1.5*35
$GPGSV,3,1,12,31,62,119,29,01,52,290,22,32,51,314,18,11,47,250,30*7C
$GPGSV,3,2,12,14,37,048,23,22,25,103,19,20,23,302,21,23,09,248,29*76
$GPGSV,3,3,12,25,08,067,18,19,08,220,27,30,02,150,16,17,01,323,*7F
$GPRMC,185401.000,A,3748.7397,N,12217.7553,W,2.36,117.41,050412,,,D*76
$GPVTG,117.41,T,,M,2.36,N,4.4,K,D*0D
$GPGGA,185402.000,3748.7398,N,12217.7542,W,2,08,1.2,20.0,M,-25.1,M,1.8,0000*7C
$GPGSA,A,3,14,25,31,01,11,32,22,19,,,,,1.9,1.2,1.5*35
$GPRMC,185402.000,A,3748.7398,N,12217.7542,W,2.39,105.11,050412,,,D*73
$GPVTG,105.11,T,,M,2.39,N,4.4,K,D*04
$GPGGA,185403.000,3748.7399,N,12217.7532,W,2,08,1.2,18.5,M,-25.1,M,2.8,0000*76
$GPGSA,A,3,14,25,31,01,11,32,22,19,,,,,1.9,1.2,1.5*35
$GPRMC,185403.000,A,3748.7399,N,12217.7532,W,2.14,99.19,050412,,,D*47
$GPVTG,99.19,T,,M,2.14,N,4.0,K,D*33
$GPGGA,185404.000,3748.7391,N,12217.7524,W,2,08,1.2,18.3,M,-25.1,M,1.8,0000*7B
$GPGSA,A,3,14,25,31,01,11,32,22,19,,,,,1.9,1.2,1.5*35
$GPRMC,185404.000,A,3748.7391,N,12217.7524,W,2.52,116.37,050412,,,D*77
$GPVTG,116.37,T,,M,2.52,N,4.7,K,D*0C
$GPGGA,185405.000,3748.7390,N,12217.7515,W,2,08,1.2,18.3,M,-25.1,M,2.8,0000*7A
$GPGSA,A,3,14,25,31,01,11,32,22,19,,,,,1.9,1.2,1.5*35
$GPRMC,185405.000,A,3748.7390,N,12217.7515,W,2.44,105.92,050412,,,D*7F
$GPVTG,105.92,T,,M,2.44,N,4.5,K,D*04
$GPGGA,185406.000,3748.7389,N,12217.7504,W,2,08,1.2,17.5,M,-25.1,M,3.8,0000*79
$GPGSA,A,3,14,25,31,01,11,32,22,19,,,,,1.9,1.2,1.5*35
$GPGSV,3,1,12,31,62,119,29,01,52,290,23,32,51,314,18,11,47,250,30*7D
$GPGSV,3,2,12,14,37,048,22,22,25,103,24,20,23,302,21,23,09,248,27*77
$GPGSV,3,3,12,25,08,067,18,19,08,220,26,30,02,150,15,17,01,323,*7D
$GPRMC,185406.000,A,3748.7389,N,12217.7504,W,2.02,99.49,050412,,,D*44
$GPVTG,99.49,T,,M,2.02,N,3.7,K,D*31
$GPGGA,185407.000,3748.7378,N,12217.7492,W,2,08,1.2,18.0,M,-25.1,M,4.8,0000*75
$GPGSA,A,3,14,25,31,01,11,32,22,19,,,,,1.9,1.2,1.5*35
$GPRMC,185407.000,A,3748.7378,N,12217.7492,W,2.81,117.08,050412,,,D*7C
$GPVTG,117.08,T,,M,2.81,N,5.2,K,D*0B
$GPGGA,185408.000,3748.7373,N,12217.7485,W,2,08,1.2,17.3,M,-25.1,M,5.8,0000*7A
$GPGSA,A,3,14,25,31,01,11,32,22,19,,,,,1.9,1.2,1.5*35
$GPRMC,185408.000,A,3748.7373,N,12217.7485,W,2.99,113.52,050412,,,D*7C
$GPVTG,113.52,T,,M,2.99,N,5.5,K,D*0E
$GPGGA,185409.000,3748.7371,N,12217.7476,W,2,08,1.2,16.4,M,-25.1,M,6.8,0000*70
$GPGSA,A,3,14,25,31,01,11,32,22,19,,,,,1.9,1.2,1.5*35
$GPRMC,185409.000,A,3748.7371,N,12217.7476,W,2.11,110.61,050412,,,D*70
$GPVTG,110.61,T,,M,2.11,N,3.9,K,D*07
$GPGGA,185410.000,3748.7362,N,12217.7468,W,2,07,1.3,16.5,M,-25.1,M,7.8,0000*7B
$GPGSA,A,3,14,31,01,11,32,22,19,,,,,,2.3,1.3,1.9*36
$GPRMC,185410.000,A,3748.7362,N,12217.7468,W,2.41,122.82,050412,,,D*7C
$GPVTG,122.82,T,,M,2.41,N,4.5,K,D*05
$GPGGA,185411.000,3748.7353,N,12217.7456,W,2,08,1.2,16.8,M,-25.1,M,8.8,0000*79
$GPGSA,A,3,14,25,31,01,11,32,22,19,,,,,1.9,1.2,1.5*35
$GPGSV,3,1,12,31,62,119,26,01,52,290,23,32,51,314,19,11,47,250,24*76
$GPGSV,3,2,12,14,37,048,18,22,25,103,28,20,23,302,22,23,09,248,31*76
$GPGSV,3,3,12,25,08,067,19,19,08,220,21,30,02,150,16,17,01,323,*78
$GPVTG,121.59,T,,M,2.27,N,4.2,K,D*07
$GPGGA,185412.000,3748.7349,N,12217.7444,W,2,08,1.2,16.1,M,-25.1,M,9.8,0000*7A
$GPGSA,A,3,14,25,31,01,11,32,22,19,,,,,1.9,1.2,1.5*35
$GPRMC,185412.000,A,3748.7349,N,12217.7444,W,2.05,114.71,050412,,,D*70
$GPVTG,114.71,T,,M,2.05,N,3.8,K,D*06
$GPGGA,185413.000,3748.7349,N,12217.7433,W,2,08,1.2,15.6,M,-25.1,M,10.8,0000*47
$GPGSA,A,3,14,25,31,01,11,32,22,19,,,,,1.9,1.2,1.5*35
$GPRMC,185413.000,A,3748.7349,N,12217.7433,W,2.16,98.79,050412,,,D*4E
$GPVTG,98.79,T,,M,2.16,N,4.0,K,D*36
$GPGGA,185414.000,3748.7352,N,12217.7421,W,2,08,1.2,14.8,M,-25.1,M,11.8,0000*47
$GPGSA,A,3,14,25,31,01,11,32,22,19,,,,,1.9,1.2,1.5*35
$GPRMC,185414.000,A,3748.7352,N,12217.7421,W,2.36,98.14,050412,,,D*49
$GPVTG,98.14,T,,M,2.36,N,4.4,K,D*3B
$GPGGA,185415.000,3748.7353,N,12217.7410,W,2,08,1.2,14.6,M,-25.1,M,12.8,0000*48
$GPGSA,A,3,14,25,31,01,11,32,22,19,,,,,1.9,1.2,1.5*35
$GPRMC,185415.000,A,3748.7353,N,12217.7410,W,2.42,100.09,050412,,,D*74
$GPVTG,100.09,T,,M,2.42,N,4.5,K,D*05
$GPGGA,185416.000,3748.7347,N,12217.7402,W,2,08,1.2,14.5,M,-25.1,M,13.8,0000*4F
$GPGSA,A,3,14,25,31,01,11,32,22,19,,,,,1.9,1.2,1.5*35
$GPGSV,3,1,12,31,62,119,26,01,52,290,22,32,51,314,19,11,47,250,24*77
$GPGSV,3,2,12,14,37,048,19,22,25,103,29,20,23,302,20,23,09,248,25*71
$GPGSV,3,3,12,25,08,067,19,19,08,220,33,30,02,150,15,17,01,323,*78
$GPRMC,185416.000,A,3748.7347,N,12217.7402,W,2.26,106.88,050412,,,D*7C
$GPVTG,106.88,T,,M,2.26,N,4.2,K,D*0F
$GPGGA,185417.000,3748.7344,N,12217.7395,W,2,08,1.2,13.8,M,-25.1,M,14.8,0000*49
$GPGSA,A,3,14,25,31,01,11,32,22,19,,,,,1.9,1.2,1.5*35
$GPRMC,185417.000,A,3748.7344,N,12217.7395,W,2.02,95.27,050412,,,D*4F
$GPVTG,95.27,T,,M,2.02,N,3.7,K,D*35
$GPGGA,185418.000,3748.7347,N,12217.7383,W,2,08,1.2,12.7,M,-25.1,M,15.8,0000*4D
$GPGSA,A,3,14,25,31,01,11,32,22,19,,,,,1.9,1.2,1.5*35
$GPRMC,185418.000,A,3748.7347,N,12217.7383,W,2.24,77.72,050412,,,D*4C
$GPVTG,77.72,T,,M,2.24,N,4.2,K,D*3F
$GPGGA,185419.000,3748.7351,N,12217.7374,W,2,08,1.2,10.2,M,-25.1,M,16.8,0000*47
$GPGSA,A,3,14,25,31,01,11,32,22,19,,,,,1.9,1.2,1.5*35
$GPRMC,185419.000,A,3748.7351,N,12217.7374,W,2.23,81.95,050412,,,D*45
$GPVTG,81.95,T,,M,2.23,N,4.1,K,D*3B
$GPGGA,185420.000,3748.7347,N,12217.7367,W,2,08,1.2,9.7,M,-25.1,M,17.8,0000*74
$GPGSA,A,3,14,25,31,01,11,32,22,19,,,,,1.9,1.2,1.5*35
$GPRMC,185420.000,A,3748.7347,N,12217.7367,W,1.90,88.98,050412,,,D*45
$GPVTG,88.98,T,,M,1.90,N,3.5,K,D*37
$GPGGA,185421.000,3748.7348,N,12217.7360,W,2,08,1.2,7.9,M,-25.1,M,18.8,0000*72
$GPGSA,A,3,14,25,31,01,11,32,22,19,,,,,1.9,1.2,1.5*35
$GPGSV,3,1,12,31,62,119,24,01,52,290,22,32,51,314,19,11,47,250,28*79
$GPGSV,3,2,12,14,37,048,20,22,25,103,28,20,23,302,18,23,09,248,21*75
$GPGSV,3,3,12,25,08,067,19,19,08,220,26,30,02,150,16,17,01,323,*7F
$GPRMC,185421.000,A,3748.7348,N,12217.7360,W,1.74,84.47,050412,,,D*48
$GPVTG,84.47,T,,M,1.74,N,3.2,K,D*34
$GPGGA,185422.000,3748.7341,N,12217.7351,W,2,08,1.2,8.1,M,-25.1,M,7.8,0000*43
$GPGSA,A,3,14,25,31,01,11,32,22,19,,,,,1.9,1.2,1.5*35
$GPRMC,185422.000,A,3748.7341,N,12217.7351,W,1.82,77.81,050412,,,D*4F
$GPVTG,77.81,T,,M,1.82,N,3.4,K,D*3D
$GPGGA,185423.000,3748.7337,N,12217.7344,W,2,08,1.2,7.3,M,-25.1,M,8.8,0000*45
$GPGSA,A,3,14,25,31,01,11,32,22,19,,,,,1.9,1.2,1.5*35
$GPRMC,185423.000,A,3748.7337,N,12217.7344,W,1.69,87.51,050412,,,D*4C
$GPVTG,87.51,T,,M,1.69,N,3.1,K,D*3F
$GPGGA,185424.000,3748.7328,N,12217.7335,W,2,08,1.2,8.1,M,-25.1,M,9.8,0000*46
$GPGSA,A,3,14,25,31,01,11,32,22,19,,,,,1.9,1.2,1.5*35
$GPRMC,185424.000,A,3748.7328,N,12217.7335,W,1.62,119.13,050412,,,D*78
$GPVTG,119.13,T,,M,1.62,N,3.0,K,D*05
$GPGGA,185425.000,3748.7314,N,12217.7326,W,2,08,1.2,8.3,M,-25.1,M,10.8,0000*70
$GPGSA,A,3,14,25,31,01,11,32,22,19,,,,,1.9,1.2,1.5*35
$GPRMC,185425.000,A,3748.7314,N,12217.7326,W,3.15,146.62,050412,,,D*7A
$GPVTG,146.62,T,,M,3.15,N,5.8,K,D*05
$GPGGA,185426.000,3748.7303,N,12217.7322,W,2,08,1.2,7.6,M,-25.1,M,11.8,0000*7A
$GPGSA,A,3,14,25,31,01,11,32,22,19,,,,,1.9,1.2,1.5*35
$GPGSV,3,1,12,31,62,119,31,01,52,290,21,32,51,314,19,11,47,250,25*73
$GPGSV,3,2,12,14,37,048,20,22,25,103,29,20,23,302,17,23,09,248,20*7A
$GPGSV,3,3,12,25,08,067,20,19,08,220,17,30,02,150,16,17,01,323,*77
$GPRMC,185426.000,A,3748.7303,N,12217.7322,W,2.89,145.91,050412,,,D*70
$GPVTG,145.91,T,,M,2.89,N,5.4,K,D*02
$GPGGA,185427.000,3748.7300,N,12217.7314,W,2,08,1.2,6.6,M,-25.1,M,1.8,0000*4D
$GPGSA,A,3,14,25,31,01,11,32,22,19,,,,,1.9,1.2,1.5*35
$GPRMC,185427.000,A,3748.7300,N,12217.7314,W,2.18,123.52,050412,,,D*70
$GPVTG,123.52,T,,M,2.18,N,4.0,K,D*00
$GPGGA,185428.000,3748.7292,N,12217.7305,W,2,08,1.2,7.5,M,-25.1,M,1.8,0000*4A
$GPGSA,A,3,14,25,31,01,11,32,22,19,,,,,1.9,1.2,1.5*35
$GPRMC,185428.000,A,3748.7292,N,12217.7305,W,2.23,126.90,050412,,,D*76
$GPVTG,126.90,T,,M,2.23,N,4.1,K,D*02
$GPGGA,185429.000,3748.7282,N,12217.7296,W,2,08,1.2,8.1,M,-25.1,M,2.8,0000*49
$GPGSA,A,3,14,25,31,01,11,32,22,19,,,,,1.9,1.2,1.5*35
$GPRMC,185429.000,A,3748.7282,N,12217.7296,W,2.28,119.41,050412,,,D*76
$GPVTG,119.41,T,,M,2.28,N,4.2,K,D*0A
$GPGGA,185430.000,3748.7269,N,12217.7286,W,2,08,1.2,8.5,M,-25.1,M,3.8,0000*40
$GPGSA,A,3,14,25,31,01,11,32,22,19,,,,,1.9,1.2,1.5*35
$GPRMC,185430.000,A,3748.7269,N,12217.7286,W,3.26,135.09,050412,,,D*77
$GPVTG,135.09,T,,M,3.26,N,6.0,K,D*07
$GPGGA,185431.000,3748.7257,N,12217.7274,W,2,07,1.3,8.0,M,-25.1,M,4.8,0000*4D
$GPGSA,A,3,14,31,01,11,32,22,19,,,,,,2.3,1.3,1.9*36
$GPGSV,3,1,12,31,62,119,30,01,52,290,21,32,51,314,19,11,47,250,31*77
$GPGSV,3,2,12,14,37,048,21,22,25,103,29,20,23,302,17,23,09,248,20*7B
$GPGSV,3,3,12,25,08,067,14,19,08,220,18,30,02,150,15,17,01,323,*7C
$GPVTG,138.83,T,,M,3.53,N,6.5,K,D*0F
$GPGGA,185432.000,3748.7242,N,12217.7264,W,2,08,1.2,7.8,M,-25.1,M,1.8,0000*47
$GPGSA,A,3,14,25,31,01,11,32,22,19,,,,,1.9,1.2,1.5*35
$GPRMC,185432.000,A,3748.7242,N,12217.7264,W,3.18,133.65,050412,,,D*71
$GPVTG,133.65,T,,M,3.18,N,5.9,K,D*0C
$GPGGA,185433.000,3748.7233,N,12217.7254,W,2,08,1.2,7.3,M,-25.1,M,1.8,0000*48
$GPGSA,A,3,14,25,31,01,11,32,22,19,,,,,1.9,1.2,1.5*35
$GPRMC,185433.000,A,3748.7233,N,12217.7254,W,2.69,123.74,050412,,,D*73
$GPVTG,123.74,T,,M,2.69,N,5.0,K,D*03
$GPGGA,185434.000,3748.7229,N,12217.7246,W,2,08,1.2,6.2,M,-25.1,M,1.8,0000*47
$GPGSA,A,3,14,25,31,01,11,32,22,19,,,,,1.9,1.2,1.5*35
$GPRMC,185434.000,A,3748.7229,N,12217.7246,W,2.36,124.97,050412,,,D*7C
$GPVTG,124.97,T,,M,2.36,N,4.4,K,D*06
$GPGGA,185435.000,3748.7225,N,12217.7239,W,2,08,1.2,5.6,M,-25.1,M,2.8,0000*46
$GPGSA,A,3,14,25,31,01,11,32,22,19,,,,,1.9,1.2,1.5*35
$GPRMC,185435.000,A,3748.7225,N,12217.7239,W,2.22,88.48,050412,,,D*49
$GPVTG,88.48,T,,M,2.22,N,4.1,K,D*33
$GPGGA,185436.000,3748.7216,N,12217.7230,W,2,08,1.2,5.4,M,-25.1,M,3.8,0000*4F
$GPGSA,A,3,14,25,31,01,11,32,22,19,,,,,1.9,1.2,1.5*35
$GPGSV,3,1,12,31,62,119,30,01,52,290,22,32,51,314,19,11,47,250,31*74
$GPGSV,3,2,12,14,37,048,20,22,25,103,29,20,23,302,18,23,09,248,20*75
$GPGSV,3,3,12,25,08,067,22,19,08,220,19,30,02,150,15,17,01,323,*78
$GPRMC,185436.000,A,3748.7216,N,12217.7230,W,2.52,115.56,050412,,,D*7E
$GPVTG,115.56,T,,M,2.52,N,4.7,K,D*08
$GPGGA,185437.000,3748.7207,N,12217.7219,W,2,08,1.2,5.0,M,-25.1,M,1.8,0000*43
$GPGSA,A,3,14,25,31,01,11,32,22,19,,,,,1.9,1.2,1.5*35
$GPRMC,185437.000,A,3748.7207,N,12217.7219,W,3.06,129.17,050412,,,D*7E
$GPVTG,129.17,T,,M,3.06,N,5.7,K,D*03
$GPGGA,185438.000,3748.7205,N,12217.7207,W,2,08,1.2,4.5,M,-25.1,M,1.8,0000*45
$GPGSA,A,3,14,25,31,01,11,32,22,19,,,,,1.9,1.2,1.5*35
$GPRMC,185438.000,A,3748.7205,N,12217.7207,W,2.83,117.80,050412,,,D*73
$GPVTG,117.80,T,,M,2.83,N,5.2,K,D*09
$GPGGA,185439.000,3748.7199,N,12217.7194,W,2,08,1.2,4.1,M,-25.1,M,1.8,0000*4F
$GPGSA,A,3,14,25,31,01,11,32,22,19,,,,,1.9,1.2,1.5*35
$GPRMC,185439.000,A,3748.7199,N,12217.7194,W,2.78,123.47,050412,,,D*75
$GPVTG,123.47,T,,M,2.78,N,5.1,K,D*02
$GPGGA,185440.000,3748.7195,N,12217.7182,W,2,08,1.2,3.4,M,-25.1,M,1.8,0000*48
$GPGSA,A,3,14,25,31,01,11,32,22,19,,,,,1.9,1.2,1.5*35
$GPRMC,185440.000,A,3748.7195,N,12217.7182,W,2.90,121.67,050412,,,D*76
$GPVTG,121.67,T,,M,2.90,N,5.4,K,D*01
$GPGGA,185441.000,3748.7197,N,12217.7173,W,2,08,1.2,2.4,M,-25.1,M,2.8,0000*47
$GPGSA,A,3,14,25,31,01,11,32,22,19,,,,,1.9,1.2,1.5*35
$GPGSV,3,1,12,31,62,119,30,01,52,290,22,32,51,314,19,11,47,250,21*75
$GPGSV,3,2,12,14,37,048,22,22,25,103,31,20,23,302,19,23,09,248,24*7B
$GPGSV,3,3,12,25,08,067,26,19,08,220,18,30,02,150,15,17,01,323,*7D
$GPRMC,185441.000,A,3748.7197,N,12217.7173,W,2.23,97.92,050412,,,D*45
$GPVTG,97.92,T,,M,2.23,N,4.1,K,D*3B
$GPGGA,185442.000,3748.7209,N,12217.7166,W,2,08,1.2,0.6,M,-25.1,M,3.8,0000*45
$GPGSA,A,3,14,25,31,01,11,32,22,19,,,,,1.9,1.2,1.5*35
$GPRMC,185442.000,A,3748.7209,N,12217.7166,W,2.31,30.59,050412,,,D*4F
$GPVTG,30.59,T,,M,2.31,N,4.3,K,D*30
$GPGGA,185443.000,3748.7220,N,12217.7163,W,2,08,1.2,-0.5,M,-25.1,M,4.8,0000*63
$GPGSA,A,3,14,25,31,01,11,32,22,19,,,,,1.9,1.2,1.5*35
$GPRMC,185443.000,A,3748.7220,N,12217.7163,W,3.13,20.34,050412,,,D*4B
$GPVTG,20.34,T,,M,3.13,N,5.8,K,D*31
$GPGGA,185444.000,3748.7234,N,12217.7160,W,2,08,1.2,-1.5,M,-25.1,M,5.8,0000*62
$GPGSA,A,3,14,25,31,01,11,32,22,19,,,,,1.9,1.2,1.5*35
$GPRMC,185444.000,A,3748.7234,N,12217.7160,W,3.30,19.47,050412,,,D*45
$GPVTG,19.47,T,,M,3.30,N,6.1,K,D*34
$GPGGA,185445.000,3748.7246,N,12217.7153,W,2,08,1.2,-2.3,M,-25.1,M,6.8,0000*60
$GPGSA,A,3,14,25,31,01,11,32,22,19,,,,,1.9,1.2,1.5*35
$GPRMC,185445.000,A,3748.7246,N,12217.7153,W,3.15,18.80,050412,,,D*4C
$GPVTG,18.80,T,,M,3.15,N,5.8,K,D*33
$GPGGA,185446.000,3748.7259,N,12217.7147,W,2,08,1.2,-3.0,M,-25.1,M,7.8,0000*6B
$GPGSA,A,3,14,25,31,01,11,32,22,19,,,,,1.9,1.2,1.5*35
$GPGSV,3,1,12,31,62,116,31,01,52,288,21,32,52,315,19,11,47,249,19*70
$GPGSV,3,2,12,14,36,048,31,20,24,303,18,22,24,104,35,23,10,249,18*7B
$GPGSV,3,3,12,25,08,066,31,19,07,220,17,30,03,150,14,17,01,322,*7B
$GPRMC,185446.000,A,3748.7259,N,12217.7147,W,2.93,28.65,050412,,,D*43
$GPVTG,28.65,T,,M,2.93,N,5.4,K,D*38
$GPGGA,185447.000,3748.7268,N,12217.7138,W,2,08,1.2,-3.8,M,-25.1,M,8.8,0000*67
$GPGSA,A,3,14,25,31,01,11,32,22,19,,,,,1.9,1.2,1.5*35
$GPRMC,185447.000,A,3748.7268,N,12217.7138,W,2.72,37.18,050412,,,D*43
$GPVTG,37.18,T,,M,2.72,N,5.0,K,D*37
$GPGGA,185448.000,3748.7280,N,12217.7128,W,2,08,1.2,-4.2,M,-25.1,M,9.8,0000*63
$GPGSA,A,3,14,25,31,01,11,32,22,19,,,,,1.9,1.2,1.5*35
$GPRMC,185448.000,A,3748.7280,N,12217.7128,W,2.71,28.13,050412,,,D*4D
$GPVTG,28.13,T,,M,2.71,N,5.0,K,D*31
$GPGGA,185449.000,3748.7291,N,12217.7123,W,2,08,1.2,-4.2,M,-25.1,M,10.8,0000*51
$GPGSA,A,3,14,25,31,01,11,32,22,19,,,,,1.9,1.2,1.5*35
$GPRMC,185449.000,A,3748.7291,N,12217.7123,W,2.45,10.47,050412,,,D*4A
$GPVTG,10.47,T,,M,2.45,N,4.5,K,D*38
$GPGGA,185450.000,3748.7300,N,12217.7116,W,2,08,1.2,-4.0,M,-25.1,M,11.8,0000*55
$GPGSA,A,3,14,25,31,01,11,32,22,19,,,,,1.9,1.2,1.5*35
$GPRMC,185450.000,A,3748.7300,N,12217.7116,W,2.48,16.70,050412,,,D*42
$GPVTG,16.70,T,,M,2.48,N,4.6,K,D*34
$GPGGA,185451.000,3748.7306,N,12217.7107,W,2,07,1.5,-4.3,M,-25.1,M,12.8,0000*5A
$GPGSA,A,3,14,25,31,01,11,32,22,,,,,,2.8,1.5,2.3*3D
$GPGSV,3,1,12,31,62,116,31,01,52,288,20,32,52,315,19,11,47,249,19*71
$GPGSV,3,2,12,14,36,048,31,20,24,303,19,22,24,104,35,23,10,249,18*7A
$GPGSV,3,3,12,25,08,066,29,19,07,220,17,30,03,150,,17,01,322,*77
$GPVTG,19.55,T,,M,2.69,N,5.0,K,D*38
$GPGGA,185452.000,3748.7316,N,12217.7097,W,2,08,1.2,-4.5,M,-25.1,M,13.8,0000*5F
$GPGSA,A,3,14,25,31,01,11,32,22,19,,,,,1.9,1.2,1.5*35
$GPRMC,185452.000,A,3748.7316,N,12217.7097,W,2.70,29.91,050412,,,D*47
$GPVTG,29.91,T,,M,2.70,N,5.0,K,D*3B
$GPGGA,185453.000,3748.7324,N,12217.7089,W,2,08,1.2,-5.1,M,-25.1,M,14.8,0000*52
$GPGSA,A,3,14,25,31,01,11,32,22,19,,,,,1.9,1.2,1.5*35
$GPRMC,185453.000,A,3748.7324,N,12217.7089,W,2.63,20.91,050412,,,D*43
$GPVTG,20.91,T,,M,2.63,N,4.9,K,D*38
$GPGGA,185454.000,3748.7335,N,12217.7078,W,2,08,1.2,-5.4,M,-25.1,M,15.8,0000*5F
$GPGSA,A,3,14,25,31,01,11,32,22,19,,,,,1.9,1.2,1.5*35
$GPRMC,185454.000,A,3748.7335,N,12217.7078,W,2.88,26.91,050412,,,D*49
$GPVTG,26.91,T,,M,2.88,N,5.3,K,D*30
$GPGGA,185455.000,3748.7342,N,12217.7069,W,2,08,1.2,-5.7,M,-25.1,M,16.8,0000*5E
$GPGSA,A,3,14,25,31,01,11,32,22,19,,,,,1.9,1.2,1.5*35
$GPRMC,185455.000,A,3748.7342,N,12217.7069,W,3.09,34.16,050412,,,D*4C
$GPVTG,34.16,T,,M,3.09,N,5.7,K,D*30
$GPGGA,185456.000,3748.7351,N,12217.7058,W,2,08,1.2,-5.7,M,-25.1,M,17.8,0000*5C
$GPGSA,A,3,14,25,31,01,11,32,22,19,,,,,1.9,1.2,1.5*35
$GPGSV,3,1,12,31,62,116,31,01,52,288,21,32,52,315,20,11,47,249,19*7A
$GPGSV,3,2,12,14,36,048,31,20,24,303,18,22,24,104,36,23,10,249,17*77
$GPGSV,3,3,12,25,08,066,28,19,07,220,16,30,03,150,,17,01,322,*77
$GPRMC,185456.000,A,3748.7351,N,12217.7058,W,3.34,30.57,050412,,,D*40
$GPVTG,30.57,T,,M,3.34,N,6.2,K,D*39
$GPGGA,185457.000,3748.7362,N,12217.7049,W,1,08,1.2,-5.6,M,-25.1,M,,0000*4F
$GPGSA,A,3,14,25,31,01,11,32,22,19,,,,,1.9,1.2,1.5*35
$GPRMC,185457.000,A,3748.7362,N,12217.7049,W,3.91,24.91,050412,,,A*44
$GPVTG,24.91,T,,M,3.91,N,7.2,K,A*3D
$GPGGA,185458.000,3748.7371,N,12217.7038,W,1,08,1.2,-5.4,M,-25.1,M,,0000*46
$GPGSA,A,3,14,25,31,01,11,32,22,19,,,,,1.9,1.2,1.5*35
$GPRMC,185458.000,A,3748.7371,N,12217.7038,W,3.48,23.33,050412,,,A*44
$GPVTG,23.33,T,,M,3.48,N,6.4,K,A*31
$GPGGA,185459.000,3748.7379,N,12217.7029,W,1,08,1.2,-5.5,M,-25.1,M,,0000*4E
$GPGSA,A,3,14,25,31,01,11,32,22,19,,,,,1.9,1.2,1.5*35
$GPRMC,185459.000,A,3748.7379,N,12217.7029,W,2.94,29.48,050412,,,A*4B
$GPVTG,29.48,T,,M,2.94,N,5.4,K,A*34
$GPGGA,185500.000,3748.7390,N,12217.7018,W,1,08,1.2,-5.3,M,-25.1,M,,0000*40
$GPGSA,A,3,14,25,31,01,11,32,22,19,,,,,1.9,1.2,1.4*34
$GPRMC,185500.000,A,3748.7390,N,12217.7018,W,3.22,25.33,050412,,,A*4F
$GPVTG,25.33,T,,M,3.22,N,6.0,K,A*3F
$GPGGA,185501.000,3748.7400,N,12217.7008,W,1,08,1.2,-4.9,M,-25.1,M,,0000*45
$GPGSA,A,3,14,25,31,01,11,32,22,19,,,,,1.9,1.2,1.4*34
$GPGSV,3,1,12,31,62,116,31,01,52,288,20,32,52,315,20,11,47,249,19*7B
$GPGSV,3,2,12,14,36,048,21,20,24,303,18,22,24,104,36,23,10,249,17*76
$GPGSV,3,3,12,25,08,066,29,19,07,220,15,30,03,150,,17,01,322,*75
$GPRMC,185501.000,A,3748.7400,N,12217.7008,W,2.84,19.99,050412,,,A*43
$GPVTG,19.99,T,,M,2.84,N,5.3,K,A*3D
$GPGGA,185502.000,3748.7404,N,12217.6998,W,1,08,1.2,-4.8,M,-25.1,M,,0000*42
$GPGSA,A,3,14,25,31,01,11,32,22,19,,,,,1.9,1.2,1.4*34
$GPRMC,185502.000,A,3748.7404,N,12217.6998,W,2.65,26.05,050412,,,A*43
$GPVTG,26.05,T,,M,2.65,N,4.9,K,A*30
$GPGGA,185503.000,3748.7416,N,12217.6988,W,1,08,1.2,-3.5,M,-25.1,M,,0000*4B
$GPGSA,A,3,14,25,31,01,11,32,22,19,,,,,1.9,1.2,1.4*34
$GPRMC,185503.000,A,3748.7416,N,12217.6988,W,2.85,25.27,050412,,,A*4D
$GPVTG,25.27,T,,M,2.85,N,5.3,K,A*36
$GPGGA,185504.000,3748.7418,N,12217.6981,W,1,08,1.2,-4.0,M,-25.1,M,,0000*49
$GPGSA,A,3,14,25,31,01,11,32,22,19,,,,,1.9,1.2,1.4*34
$GPRMC,185504.000,A,3748.7418,N,12217.6981,W,2.46,29.11,050412,,,A*4B
$GPVTG,29.11,T,,M,2.46,N,4.6,K,A*34
$GPGGA,185505.000,3748.7427,N,12217.6976,W,2,08,1.2,-5.0,M,-25.1,M,1.8,0000*69
$GPGSA,A,3,14,25,31,01,11,32,22,19,,,,,1.9,1.2,1.4*34
$GPRMC,185505.000,A,3748.7427,N,12217.6976,W,2.11,25.28,050412,,,D*4F
$GPVTG,25.28,T,,M,2.11,N,3.9,K,D*3D
$GPGGA,185506.000,3748.7434,N,12217.6972,W,2,08,1.2,-6.1,M,-25.1,M,2.8,0000*6D
$GPGSA,A,3,14,25,31,01,11,32,22,19,,,,,1.9,1.2,1.4*34
$GPGSV,3,1,12,31,62,116,26,01,52,288,20,32,52,315,20,11,47,249,20*77
$GPGSV,3,2,12,14,36,048,29,20,24,303,18,22,24,104,33,23,10,249,17*7B
$GPGSV,3,3,12,25,08,066,34,19,07,220,16,30,03,150,,17,01,322,*7A
$GPRMC,185506.000,A,3748.7434,N,12217.6972,W,1.42,58.48,050412,,,D*43
$GPVTG,58.48,T,,M,1.42,N,2.6,K,D*3A
$GPGGA,185507.000,3748.7442,N,12217.6964,W,2,08,1.2,-7.2,M,-25.1,M,3.8,0000*69
$GPGSA,A,3,14,25,31,01,11,32,22,19,,,,,1.9,1.2,1.4*34
$GPRMC,185507.000,A,3748.7442,N,12217.6964,W,2.37,47.20,050412,,,D*45
$GPVTG,47.20,T,,M,2.37,N,4.4,K,D*3F
$GPGGA,185508.000,3748.7452,N,12217.6958,W,2,08,1.2,-7.9,M,-25.1,M,4.8,0000*64
$GPGSA,A,3,14,25,31,01,11,32,22,19,,,,,1.9,1.2,1.4*34
$GPRMC,185508.000,A,3748.7452,N,12217.6958,W,2.35,19.04,050412,,,D*4B
$GPVTG,19.04,T,,M,2.35,N,4.4,K,D*30
$GPGGA,185509.000,3748.7462,N,12217.6958,W,2,08,1.2,-8.8,M,-25.1,M,5.8,0000*69
$GPGSA,A,3,14,25,31,01,11,32,22,19,,,,,1.9,1.2,1.4*34
$GPRMC,185509.000,A,3748.7462,N,12217.6958,W,2.48,10.57,050412,,,D*4C
$GPVTG,10.57,T,,M,2.48,N,4.6,K,D*37
$GPGGA,185510.000,3748.7473,N,12217.6953,W,2,08,1.2,-9.3,M,-25.1,M,6.8,0000*63
$GPGSA,A,3,14,25,31,01,11,32,22,19,,,,,1.9,1.2,1.4*34
$GPRMC,185510.000,A,3748.7473,N,12217.6953,W,2.74,11.04,050412,,,D*47
$GPVTG,11.04,T,,M,2.74,N,5.1,K,D*39
$GPGGA,185511.000,3748.7487,N,12217.6944,W,2,08,1.2,-9.0,M,-25.1,M,7.8,0000*6D
$GPGSA,A,3,14,25,31,01,11,32,22,19,,,,,1.9,1.2,1.4*34
