$ADVER,3080,2.3
$GPRMC,175411.991,A,3748.7895,N,12217.8645,W,0.38,174.42,300811,,,A*7D
$GPGGA,175412.991,3748.7878,N,12217.8644,W,1,04,3.5,-5.0,M,-25.1,M,,0000*4B
$GPGSA,A,3,28,26,15,08,,,,,,,,,3.6,3.5,1.0*32
$GPRMC,175412.991,A,3748.7878,N,12217.8644,W,1.03,209.94,300811,,,A*77
$GPVTG,209.94,T,,M,1.03,N,1.9,K,A*01
$GPGGA,175414.000,3748.7920,N,12217.8673,W,1,04,3.5,-0.9,M,-25.1,M,,0000*48
$GPGSA,A,3,28,26,15,08,,,,,,,,,3.6,3.5,1.0*32
$GPRMC,175414.000,A,3748.7920,N,12217.8673,W,1.15,181.30,300811,,,A*72
$GPVTG,181.30,T,,M,1.15,N,2.1,K,A*00
$GPGGA,175415.000,3748.8069,N,12217.8693,W,1,04,3.5,21.0,M,-25.1,M,,0000*5B
$GPGSA,A,3,28,26,15,08,,,,,,,,,3.6,3.5,1.0*32
$GPRMC,175415.000,A,3748.8069,N,12217.8693,W,1.62,181.71,300811,,,A*73
$GPVTG,181.71,T,,M,1.62,N,3.0,K,A*05
$GPGGA,175416.000,3748.8009,N,12217.8681,W,1,04,3.5,10.7,M,-25.1,M,,0000*58
$GPGSA,A,3,28,26,15,08,,,,,,,,,3.6,3.5,1.0*32
$GPGSV,3,1,12,28,71,299,30,08,64,058,34,26,45,305,28,15,11,320,18*70
$GPGSV,3,2,12,07,43,095,27,17,29,186,38,11,19,086,20,19,12,039,17*78
$GPGSV,3,3,12,05,10,254,,01,10,103,,24,07,097,,13,02,154,*70
$GPRMC,175416.000,A,3748.8009,N,12217.8681,W,2.16,177.89,300811,,,A*7B
$GPVTG,177.89,T,,M,2.16,N,4.0,K,A*0C
$GPGGA,175417.000,3748.7990,N,12217.8681,W,1,04,3.5,7.4,M,-25.1,M,,0000*6A
$GPGSA,A,3,28,26,15,08,,,,,,,,,3.6,3.5,1.0*32
$GPRMC,175417.000,A,3748.7990,N,12217.8681,W,2.00,183.13,300811,,,A*73
$GPVTG,183.13,T,,M,2.00,N,3.7,K,A*03
$GPGGA,175418.000,3748.7990,N,12217.8672,W,1,04,3.5,7.7,M,-25.1,M,,0000*6A
$GPGSA,A,3,28,26,15,08,,,,,,,,,3.6,3.5,1.0*32
$GPRMC,175418.000,A,3748.7990,N,12217.8672,W,1.47,182.41,300811,,,A*76
$GPVTG,182.41,T,,M,1.47,N,2.7,K,A*04
$GPGGA,175419.000,3748.8011,N,12217.8668,W,1,04,3.5,13.8,M,-25.1,M,,0000*55
$GPGSA,A,3,28,26,15,08,,,,,,,,,3.6,3.5,1.0*32
$GPRMC,175419.000,A,3748.8011,N,12217.8668,W,1.00,182.86,300811,,,A*7B
$GPVTG,182.86,T,,M,1.00,N,1.9,K,A*01
$GPGGA,175420.000,3748.8003,N,12217.8665,W,1,04,3.5,14.3,M,-25.1,M,,0000*5D
$GPGSA,A,3,28,26,15,08,,,,,,,,,3.6,3.5,1.0*32
$GPRMC,175420.000,A,3748.8003,N,12217.8665,W,1.20,181.61,300811,,,A*77
$GPVTG,181.61,T,,M,1.20,N,2.2,K,A*01
$GPGGA,175421.000,3748.7967,N,12217.8661,W,1,04,3.5,10.0,M,-25.1,M,,0000*5B
$GPGSA,A,3,28,26,15,08,,,,,,,,,3.6,3.5,1.0*32
$GPGSV,3,1,12,28,71,299,31,08,64,058,35,26,45,305,30,15,11,320,29*7B
$GPGSV,3,2,12,07,43,095,38,17,29,186,38,11,19,086,33,19,12,039,25*75
$GPGSV,3,3,12,05,10,254,,01,10,103,,24,07,097,,13,02,154,*70
$GPRMC,175421.000,A,3748.7967,N,12217.8661,W,0.42,184.19,300811,,,A*79
$GPVTG,184.19,T,,M,0.42,N,0.8,K,A*06
$GPGGA,175422.000,3748.8008,N,12217.8659,W,1,04,3.5,17.5,M,-25.1,M,,0000*5E
$GPGSA,A,3,28,26,15,08,,,,,,,,,3.6,3.5,1.0*32
$GPRMC,175422.000,A,3748.8008,N,12217.8659,W,0.50,176.17,300811,,,A*7E
$GPVTG,176.17,T,,M,0.50,N,0.9,K,A*07
$GPGGA,175423.000,3748.8074,N,12217.8657,W,1,04,3.5,28.1,M,-25.1,M,,0000*52
$GPGSA,A,3,28,26,15,08,,,,,,,,,3.6,3.5,1.0*32
$GPRMC,175423.000,A,3748.8074,N,12217.8657,W,0.17,4.87,300811,,,A*74
$GPVTG,4.87,T,,M,0.17,N,0.3,K,A*03
$GPGGA,175424.000,3748.8103,N,12217.8655,W,1,04,3.5,31.3,M,-25.1,M,,0000*5C
$GPGSA,A,3,28,26,15,08,,,,,,,,,3.6,3.5,1.0*32
$GPRMC,175424.000,A,3748.8103,N,12217.8655,W,0.17,162.18,300811,,,A*77
$GPVTG,162.18,T,,M,0.17,N,0.3,K,A*04
$GPGGA,175425.000,3748.8128,N,12217.8651,W,1,04,3.5,34.2,M,-25.1,M,,0000*54
$GPGSA,A,3,28,26,15,08,,,,,,,,,3.6,3.5,1.0*32
$GPRMC,175425.000,A,3748.8128,N,12217.8651,W,0.60,27.18,300811,,,A*4B
$GPVTG,27.18,T,,M,0.60,N,1.1,K,A*37
$GPGGA,175426.000,3748.8150,N,12217.8650,W,1,04,3.5,37.1,M,-25.1,M,,0000*59
$GPGSA,A,3,28,26,15,08,,,,,,,,,3.6,3.5,1.0*32
$GPGSV,3,1,12,28,71,299,31,08,64,058,28,26,45,305,33,15,11,320,28*75
$GPGSV,3,2,12,07,43,095,40,17,29,186,30,11,19,086,33,19,12,039,23*74
$GPGSV,3,3,12,05,10,254,16,01,10,103,,24,07,097,,13,02,154,*77
$GPVTG,16.53,T,,M,0.52,N,1.0,K,A*3A
$GPGGA,175427.000,3748.8158,N,12217.8654,W,1,04,3.5,38.8,M,-25.1,M,,0000*52
$GPGSA,A,3,28,26,15,08,,,,,,,,,3.6,3.5,1.0*32
$GPRMC,175427.000,A,3748.8158,N,12217.8654,W,0.39,75.68,300811,,,A*47
$GPVTG,75.68,T,,M,0.39,N,0.7,K,A*3C
$GPGGA,175428.000,3748.8178,N,12217.8640,W,1,04,3.5,40.7,M,-25.1,M,,0000*5A
$GPGSA,A,3,28,26,15,08,,,,,,,,,3.6,3.5,1.0*32
$GPRMC,175428.000,A,3748.8178,N,12217.8640,W,2.21,67.26,300811,,,A*4D
$GPVTG,67.26,T,,M,2.21,N,4.1,K,A*3C
$GPGGA,175429.000,3748.8189,N,12217.8637,W,1,04,3.5,41.7,M,-25.1,M,,0000*54
$GPGSA,A,3,28,26,15,08,,,,,,,,,3.6,3.5,1.0*32
$GPRMC,175429.000,A,3748.8189,N,12217.8637,W,1.65,55.76,300811,,,A*45
$GPVTG,55.76,T,,M,1.65,N,3.1,K,A*3C
$GPGGA,175430.000,3748.8196,N,12217.8634,W,1,04,3.5,42.5,M,-25.1,M,,0000*50
$GPGSA,A,3,28,26,15,08,,,,,,,,,3.6,3.5,1.0*32
$GPRMC,175430.000,A,3748.8196,N,12217.8634,W,1.37,15.63,300811,,,A*47
$GPVTG,15.63,T,,M,1.37,N,2.5,K,A*3E
$GPGGA,175431.000,3748.8200,N,12217.8634,W,1,04,3.5,43.3,M,-25.1,M,,0000*5A
$GPGSA,A,3,28,26,15,08,,,,,,,,,3.6,3.5,1.0*32
$GPGSV,3,1,12,28,71,299,28,08,64,058,29,26,45,305,32,15,11,320,25*70
$GPGSV,3,2,12,07,43,095,37,17,29,186,28,11,19,086,25,19,12,039,23*7A
$GPGSV,3,3,12,05,10,254,15,01,10,103,,24,07,097,,13,02,154,*74
$GPRMC,175431.000,A,3748.8200,N,12217.8634,W,0.46,37.13,300811,,,A*4A
$GPVTG,37.13,T,,M,0.46,N,0.9,K,A*30
$GPGGA,175432.000,3748.8181,N,12217.8637,W,1,04,3.5,40.7,M,-25.1,M,,0000*57
$GPGSA,A,3,28,26,15,08,,,,,,,,,3.6,3.5,1.0*32
$GPRMC,175432.000,A,3748.8181,N,12217.8637,W,0.57,346.53,300811,,,A*71
$GPVTG,346.53,T,,M,0.57,N,1.1,K,A*08
$GPGGA,175433.000,3748.8177,N,12217.8635,W,1,04,3.5,39.2,M,-25.1,M,,0000*56
$GPGSA,A,3,28,26,15,08,,,,,,,,,3.6,3.5,1.0*32
$GPRMC,175433.000,A,3748.8177,N,12217.8635,W,0.51,17.10,300811,,,A*4D
$GPVTG,17.10,T,,M,0.51,N,1.0,K,A*3F
$GPGGA,175434.000,3748.8181,N,12217.8636,W,1,04,3.5,39.6,M,-25.1,M,,0000*5F
$GPGSA,A,3,28,26,15,08,,,,,,,,,3.6,3.5,1.0*32
$GPRMC,175434.000,A,3748.8181,N,12217.8636,W,0.56,20.25,300811,,,A*45
$GPVTG,20.25,T,,M,0.56,N,1.0,K,A*3A
$GPGGA,175435.000,3748.8167,N,12217.8636,W,1,04,3.5,37.2,M,-25.1,M,,0000*5C
$GPGSA,A,3,28,26,15,08,,,,,,,,,3.6,3.5,1.0*32
$GPRMC,175435.000,A,3748.8167,N,12217.8636,W,0.33,137.17,300811,,,A*79
$GPVTG,137.17,T,,M,0.33,N,0.6,K,A*08
$GPGGA,175436.000,3748.8143,N,12217.8640,W,1,04,3.5,34.4,M,-25.1,M,,0000*5D
$GPGSA,A,3,28,26,15,08,,,,,,,,,3.7,3.5,1.0*33
$GPGSV,3,1,12,28,71,299,23,08,64,058,26,26,45,305,32,15,11,320,33*73
$GPGSV,3,2,12,07,43,095,29,17,29,186,28,11,19,086,23,19,12,039,15*76
$GPGSV,3,3,12,05,10,254,14,01,10,103,,24,07,097,,13,02,154,*75
$GPRMC,175436.000,A,3748.8143,N,12217.8640,W,0.64,204.38,300811,,,A*71
$GPVTG,204.38,T,,M,0.64,N,1.2,K,A*01
$GPGGA,175437.000,3748.8148,N,12217.8637,W,1,04,3.5,34.0,M,-25.1,M,,0000*53
$GPGSA,A,3,28,26,15,08,,,,,,,,,3.7,3.5,1.0*33
$GPRMC,175437.000,A,3748.8148,N,12217.8637,W,0.45,176.93,300811,,,A*7F
$GPVTG,176.93,T,,M,0.45,N,0.8,K,A*0E
$GPGGA,175438.000,3748.8154,N,12217.8634,W,1,04,3.5,33.8,M,-25.1,M,,0000*5D
$GPGSA,A,3,28,26,15,08,,,,,,,,,3.7,3.5,1.0*33
$GPRMC,175438.000,A,3748.8154,N,12217.8634,W,0.41,124.28,300811,,,A*7D
$GPVTG,124.28,T,,M,0.41,N,0.8,K,A*0D
$GPGGA,175439.000,3748.8159,N,12217.8628,W,1,03,3.8,33.1,M,-25.1,M,,0000*5F
$GPGSA,A,2,28,15,08,,,,,,,,,,3.9,3.8,1.0*35
$GPRMC,175439.000,A,3748.8159,N,12217.8628,W,0.82,62.23,300811,,,A*4B
$GPVTG,62.23,T,,M,0.82,N,1.5,K,N*39
$GPGGA,175440.000,3748.8181,N,12217.8615,W,1,03,3.8,33.7,M,-25.1,M,,0000*5C
$GPGSA,A,2,28,15,08,,,,,,,,,,3.9,3.8,1.0*35
$GPRMC,175440.000,A,3748.8181,N,12217.8615,W,1.85,41.35,300811,,,A*4E
$GPVTG,41.35,T,,M,1.85,N,3.4,K,N*3A
$GPGGA,175441.000,3748.8184,N,12217.8611,W,1,04,3.5,32.7,M,-25.1,M,,0000*57
$GPGSA,A,3,28,26,15,08,,,,,,,,,3.7,3.5,1.0*33
$GPGSV,3,1,12,28,71,299,20,08,64,058,27,26,45,305,30,15,11,320,27*76
$GPGSV,3,2,12,07,43,095,31,17,29,186,27,11,19,086,21,19,12,039,25*71
$GPGSV,3,3,12,05,10,254,14,01,10,103,,24,07,097,,13,02,154,*75
$GPRMC,175441.000,A,3748.8184,N,12217.8611,W,1.87,24.95,300811,,,A*45
$GPGGA,175442.000,3748.8187,N,12217.8620,W,1,03,5.0,33.3,M,-25.1,M,,0000*54
$GPGSA,A,2,26,15,08,,,,,,,,,,5.1,5.0,1.0*3B
$GPRMC,175442.000,A,3748.8187,N,12217.8620,W,0.72,355.70,300811,,,A*72
$GPVTG,355.70,T,,M,0.72,N,1.3,K,A*0E
$GPGGA,175443.000,3748.8197,N,12217.8613,W,1,04,3.5,33.6,M,-25.1,M,,0000*55
$GPGSA,A,3,28,26,15,08,,,,,,,,,3.7,3.5,1.0*33
$GPRMC,175443.000,A,3748.8197,N,12217.8613,W,1.08,19.34,300811,,,A*45
$GPVTG,19.34,T,,M,1.08,N,2.0,K,A*39
$GPGGA,175444.000,3748.8194,N,12217.8614,W,1,04,3.5,32.9,M,-25.1,M,,0000*58
$GPGSA,A,3,28,26,15,08,,,,,,,,,3.7,3.5,1.0*33
$GPRMC,175444.000,A,3748.8194,N,12217.8614,W,1.24,15.56,300811,,,A*40
$GPVTG,15.56,T,,M,1.24,N,2.3,K,A*3C
$GPGGA,175445.000,3748.8154,N,12217.8615,W,1,04,3.5,29.4,M,-25.1,M,,0000*53
$GPGSA,A,3,28,26,15,08,,,,,,,,,3.7,3.5,1.0*33
$GPRMC,175445.000,A,3748.8154,N,12217.8615,W,0.73,187.49,300811,,,A*7B
$GPVTG,187.49,T,,M,0.73,N,1.3,K,A*08
$GPGGA,175446.000,3748.8150,N,12217.8616,W,1,04,3.5,29.6,M,-25.1,M,,0000*55
$GPGSA,A,3,28,26,15,08,,,,,,,,,3.7,3.5,1.0*33
$GPGSV,3,1,12,28,71,299,29,08,64,058,29,26,45,305,31,15,11,320,23*74
$GPGSV,3,2,12,07,43,095,32,17,29,186,31,11,19,086,27,19,12,039,24*72
$GPGSV,3,3,12,05,10,254,16,01,10,103,,24,07,097,,13,02,154,*77
$GPRMC,175446.000,A,3748.8150,N,12217.8616,W,0.49,187.47,300811,,,A*78
$GPVTG,187.47,T,,M,0.49,N,0.9,K,A*04
$GPGGA,175447.000,3748.8127,N,12217.8621,W,1,04,3.5,27.8,M,-25.1,M,,0000*50
$GPGSA,A,3,28,26,15,08,,,,,,,,,3.7,3.5,1.0*33
$GPRMC,175447.000,A,3748.8127,N,12217.8621,W,0.06,229.84,300811,,,A*7E
$GPVTG,229.84,T,,M,0.06,N,0.1,K,A*0F
$GPGGA,175448.000,3748.8118,N,12217.8621,W,1,04,3.5,27.1,M,-25.1,M,,0000*5A
$GPGSA,A,3,28,26,15,08,,,,,,,,,3.7,3.5,1.0*33
$GPRMC,175448.000,A,3748.8118,N,12217.8621,W,0.07,93.16,300811,,,A*44
$GPVTG,93.16,T,,M,0.07,N,0.1,K,A*36
$GPGGA,175449.000,3748.8122,N,12217.8623,W,1,04,3.5,27.9,M,-25.1,M,,0000*58
$GPGSA,A,3,28,26,15,08,,,,,,,,,3.7,3.5,1.0*33
$GPRMC,175449.000,A,3748.8122,N,12217.8623,W,0.16,217.69,300811,,,A*78
$GPVTG,217.69,T,,M,0.16,N,0.3,K,A*02
$GPGGA,175450.000,3748.8122,N,12217.8624,W,1,04,3.5,28.1,M,-25.1,M,,0000*50
$GPGSA,A,3,28,26,15,08,,,,,,,,,3.7,3.5,1.0*33
$GPRMC,175450.000,A,3748.8122,N,12217.8624,W,0.15,185.82,300811,,,A*79
$GPVTG,185.82,T,,M,0.15,N,0.3,K,A*0C
$GPGGA,175451.000,3748.8120,N,12217.8624,W,1,04,3.5,28.0,M,-25.1,M,,0000*52
$GPGSA,A,3,28,26,15,08,,,,,,,,,3.7,3.5,1.0*33
$GPGSV,3,1,12,28,71,299,30,08,64,058,28,26,45,305,32,15,11,320,32*7E
$GPGSV,3,2,12,07,43,095,31,17,29,186,28,11,19,086,26,19,12,039,15*7A
$GPGSV,3,3,12,05,10,254,,01,10,103,,24,07,097,,13,02,154,*70
$GPRMC,175451.000,A,3748.8120,N,12217.8624,W,0.16,189.33,300811,,,A*7F
$GPVTG,189.33,T,,M,0.16,N,0.3,K,A*09
$GPGGA,175452.000,3748.8115,N,12217.8624,W,1,04,3.5,27.0,M,-25.1,M,,0000*58
$GPGSA,A,3,28,26,15,08,,,,,,,,,3.7,3.5,1.0*33
$GPRMC,175452.000,A,3748.8115,N,12217.8624,W,0.25,197.67,300811,,,A*74
$GPVTG,197.67,T,,M,0.25,N,0.5,K,A*01
$GPGGA,175453.000,3748.8108,N,12217.8629,W,1,04,3.5,27.0,M,-25.1,M,,0000*58
$GPGSA,A,3,28,26,15,08,,,,,,,,,3.7,3.5,1.0*33
$GPRMC,175453.000,A,3748.8108,N,12217.8629,W,1.06,225.99,300811,,,A*7F
$GPVTG,225.99,T,,M,1.06,N,2.0,K,A*0D
$GPGGA,175454.000,3748.8104,N,12217.8630,W,1,04,3.5,26.6,M,-25.1,M,,0000*5C
$GPGSA,A,3,28,26,15,08,,,,,,,,,3.7,3.5,1.0*33
$GPRMC,175454.000,A,3748.8104,N,12217.8630,W,0.32,193.49,300811,,,A*79
$GPVTG,193.49,T,,M,0.32,N,0.6,K,A*0C
$GPGGA,175455.000,3748.8100,N,12217.8630,W,1,04,3.5,26.3,M,-25.1,M,,0000*5C
$GPGSA,A,3,28,26,15,08,,,,,,,,,3.7,3.5,1.0*33
$GPRMC,175455.000,A,3748.8100,N,12217.8630,W,0.23,181.46,300811,,,A*70
$GPVTG,181.46,T,,M,0.23,N,0.4,K,A*02
$GPGGA,175456.000,3748.8096,N,12217.8629,W,1,04,3.5,25.9,M,-25.1,M,,0000*50
$GPGSA,A,3,28,26,15,08,,,,,,,,,3.7,3.5,1.0*33
$GPGSV,3,1,12,28,71,299,35,08,64,058,36,26,45,305,37,15,11,320,31*72
$GPGSV,3,2,12,07,43,095,37,17,29,186,37,11,19,086,33,19,12,039,28*78
$GPGSV,3,3,12,05,10,254,,01,10,103,,24,07,097,,13,02,154,*70
$GPRMC,175456.000,A,3748.8096,N,12217.8629,W,0.25,175.09,300811,,,A*73
$GPVTG,175.09,T,,M,0.25,N,0.5,K,A*05
$GPGGA,175457.000,3748.8099,N,12217.8627,W,1,04,3.5,25.1,M,-25.1,M,,0000*58
$GPGSA,A,3,28,26,15,08,,,,,,,,,3.7,3.5,1.0*33
$GPRMC,175457.000,A,3748.8099,N,12217.8627,W,0.58,1.63,300811,,,A*77
$GPVTG,1.63,T,,M,0.58,N,1.1,K,A*04
$GPGGA,175458.000,3748.8100,N,12217.8627,W,1,04,3.5,25.1,M,-25.1,M,,0000*56
$GPGSA,A,3,28,26,15,08,,,,,,,,,3.7,3.5,1.0*33
$GPRMC,175458.000,A,3748.8100,N,12217.8627,W,0.56,10.44,300811,,,A*42
$GPVTG,10.44,T,,M,0.56,N,1.0,K,A*3E
$GPGGA,175459.000,3748.8100,N,12217.8627,W,1,04,3.5,24.9,M,-25.1,M,,0000*5E
$GPGSA,A,3,28,26,15,08,,,,,,,,,3.7,3.5,1.0*33
$GPRMC,175459.000,A,3748.8100,N,12217.8627,W,0.34,16.78,300811,,,A*4E
$GPVTG,16.78,T,,M,0.34,N,0.6,K,A*34
$GPGGA,175500.000,3748.8080,N,12217.8635,W,2,04,3.5,23.5,M,-25.1,M,,0000*51
$GPGSA,A,3,28,26,15,08,,,,,,,,,3.7,3.5,1.0*33
$GPRMC,175500.000,A,3748.8080,N,12217.8635,W,1.92,220.04,300811,,,D*7D
$GPVTG,220.04,T,,M,1.92,N,3.6,K,D*03
$GPGGA,175501.000,3748.8053,N,12217.8636,W,2,04,3.5,21.2,M,-25.1,M,2.8,0000*7C
$GPGSA,A,3,28,26,15,08,,,,,,,,,3.7,3.5,1.0*33
$GPGSV,3,1,12,28,71,299,29,08,64,058,33,26,45,305,29,15,11,320,27*72
$GPGSV,3,2,12,07,43,095,33,17,29,186,32,11,19,086,29,19,12,039,25*7F
$GPGSV,3,3,12,05,10,254,,01,10,103,,24,07,097,,13,02,154,*70
$GPRMC,175501.000,A,3748.8053,N,12217.8636,W,2.32,185.26,300811,,,D*74
$GPVTG,185.26,T,,M,2.32,N,4.3,K,D*04
$GPGGA,175502.000,3748.8056,N,12217.8634,W,2,04,3.5,20.7,M,-25.1,M,3.8,0000*7D
$GPGSA,A,3,28,26,15,08,,,,,,,,,3.7,3.5,1.0*33
$GPRMC,175502.000,A,3748.8056,N,12217.8634,W,1.28,210.54,300811,,,D*72
$GPVTG,210.54,T,,M,1.28,N,2.4,K,D*07
$GPGGA,175503.000,3748.8056,N,12217.8629,W,2,04,3.5,19.9,M,-25.1,M,4.8,0000*73
$GPGSA,A,3,28,26,15,08,,,,,,,,,3.7,3.5,1.0*33
$GPRMC,175503.000,A,3748.8056,N,12217.8629,W,0.42,259.00,300811,,,D*7E
$GPVTG,259.00,T,,M,0.42,N,0.8,K,D*08
$GPGGA,175504.000,3748.8063,N,12217.8623,W,2,04,3.5,20.2,M,-25.1,M,5.8,0000*78
$GPGSA,A,3,28,26,15,08,,,,,,,,,3.7,3.5,1.0*33
$GPRMC,175504.000,A,3748.8063,N,12217.8623,W,0.27,87.03,300811,,,D*44
$GPVTG,87.03,T,,M,0.27,N,0.5,K,D*34
$GPGGA,175505.000,3748.8063,N,12217.8622,W,2,04,3.5,20.1,M,-25.1,M,6.8,0000*78
$GPGSA,A,3,28,26,15,08,,,,,,,,,3.7,3.5,1.0*33
$GPRMC,175505.000,A,3748.8063,N,12217.8622,W,0.80,92.46,300811,,,D*4C
$GPVTG,92.46,T,,M,0.80,N,1.5,K,D*3D
$GPGGA,175506.000,3748.8062,N,12217.8620,W,2,04,3.5,19.9,M,-25.1,M,7.8,0000*7B
$GPGSA,A,3,28,26,15,08,,,,,,,,,3.7,3.5,1.0*33
$GPGSV,3,1,12,28,71,299,30,08,64,058,24,26,45,305,38,15,11,320,41*7C
$GPGSV,3,2,12,07,43,095,25,17,29,186,24,11,19,086,22,19,12,039,24*75
$GPGSV,3,3,12,05,10,254,,01,10,103,,24,07,097,,13,02,154,*70
$GPRMC,175506.000,A,3748.8062,N,12217.8620,W,0.80,134.14,300811,,,D*76
$GPVTG,134.14,T,,M,0.80,N,1.5,K,D*07
$GPGGA,175507.000,3748.8061,N,12217.8616,W,2,04,3.5,19.6,M,-25.1,M,8.8,0000*7C
$GPGSA,A,3,28,26,15,08,,,,,,,,,3.7,3.5,1.0*33
$GPRMC,175507.000,A,3748.8061,N,12217.8616,W,0.39,148.16,300811,,,D*7A
$GPVTG,148.16,T,,M,0.39,N,0.7,K,D*0F
$GPGGA,175508.000,3748.8060,N,12217.8615,W,2,04,3.5,19.4,M,-25.1,M,9.8,0000*72
$GPGSA,A,3,28,26,15,08,,,,,,,,,3.7,3.5,1.0*33
$GPRMC,175508.000,A,3748.8060,N,12217.8615,W,0.24,191.20,300811,,,D*7A
$GPVTG,191.20,T,,M,0.24,N,0.4,K,D*01
$GPGGA,175509.000,3748.8058,N,12217.8616,W,2,04,3.5,19.1,M,-25.1,M,10.8,0000*46
$GPGSA,A,3,28,26,15,08,,,,,,,,,3.7,3.5,1.0*33
$GPRMC,175509.000,A,3748.8058,N,12217.8616,W,0.27,194.17,300811,,,D*71
$GPVTG,194.17,T,,M,0.27,N,0.5,K,D*02
$GPGGA,175510.000,3748.8039,N,12217.8623,W,2,04,3.5,17.7,M,-25.1,M,11.8,0000*46
$GPGSA,A,3,28,26,15,08,,,,,,,,,3.7,3.5,1.0*33
$GPRMC,175510.000,A,3748.8039,N,12217.8623,W,0.46,181.76,300811,,,D*7C
$GPVTG,181.76,T,,M,0.46,N,0.8,K,D*0B
$GPGGA,175511.000,3748.8031,N,12217.8624,W,2,04,3.5,16.7,M,-25.1,M,12.8,0000*4A
$GPGSA,A,3,28,26,15,08,,,,,,,,,3.7,3.5,1.0*33
$GPGSV,3,1,12,28,71,299,24,08,64,058,21,26,45,305,29,15,11,320,28*73
$GPGSV,3,2,12,07,43,095,25,17,29,186,21,11,19,086,22,19,12,039,24*70
$GPGSV,3,3,12,05,10,254,,01,10,103,,24,07,097,,13,02,154,*70
$GPRMC,175511.000,A,3748.8031,N,12217.8624,W,0.51,180.52,300811,,,D*73
$GPGGA,175512.000,3748.8033,N,12217.8626,W,2,04,3.5,16.6,M,-25.1,M,13.8,0000*49
$GPGSA,A,3,28,26,15,08,,,,,,,,,3.7,3.5,1.0*33
$GPRMC,175512.000,A,3748.8033,N,12217.8626,W,0.13,27.27,300811,,,D*48
$GPVTG,27.27,T,,M,0.13,N,0.2,K,D*38
$GPGGA,175513.000,3748.8035,N,12217.8630,W,2,04,3.5,16.9,M,-25.1,M,14.8,0000*41
$GPGSA,A,3,28,26,15,08,,,,,,,,,3.7,3.5,1.0*33
$GPRMC,175513.000,A,3748.8035,N,12217.8630,W,0.28,213.07,300811,,,D*77
$GPVTG,213.07,T,,M,0.28,N,0.5,K,D*00
$GPGGA,175514.000,3748.8036,N,12217.8633,W,2,04,3.5,16.9,M,-25.1,M,15.8,0000*47
$GPGSA,A,3,28,26,15,08,,,,,,,,,3.7,3.5,1.0*33
$GPRMC,175514.000,A,3748.8036,N,12217.8633,W,0.33,190.71,300811,,,D*73
$GPVTG,190.71,T,,M,0.33,N,0.6,K,D*00
$GPGGA,175515.000,3748.8036,N,12217.8634,W,2,04,3.5,16.8,M,-25.1,M,16.8,0000*43
$GPGSA,A,3,28,26,15,08,,,,,,,,,3.7,3.5,1.0*33
$GPRMC,175515.000,A,3748.8036,N,12217.8634,W,0.24,227.62,300811,,,D*7E
$GPVTG,227.62,T,,M,0.24,N,0.4,K,D*09
$GPGGA,175516.000,3748.8041,N,12217.8638,W,2,04,3.5,16.6,M,-25.1,M,17.8,0000*43
$GPGSA,A,3,28,26,15,08,,,,,,,,,3.7,3.5,1.0*33
$GPGSV,3,1,12,28,71,299,20,08,64,058,21,26,45,305,31,15,11,320,18*7D
$GPGSV,3,2,12,07,43,095,16,17,29,186,18,11,19,086,13,19,12,039,18*77
$GPGSV,3,3,12,05,10,254,,01,10,103,,24,07,097,,13,02,154,*70
$GPRMC,175516.000,A,3748.8041,N,12217.8638,W,0.79,305.94,300811,,,D*71
$GPVTG,305.94,T,,M,0.79,N,1.5,K,D*09
$GPGGA,175517.000,3748.8038,N,12217.8646,W,1,04,3.5,16.2,M,-25.1,M,,0000*52
$GPGSA,A,3,28,26,15,08,,,,,,,,,3.7,3.5,1.0*33
$GPRMC,175517.000,A,3748.8038,N,12217.8646,W,1.59,258.54,300811,,,A*74
$GPVTG,258.54,T,,M,1.59,N,2.9,K,A*05
$GPGGA,175518.000,3748.8053,N,12217.8640,W,1,04,3.5,16.7,M,-25.1,M,,0000*53
$GPGSA,A,3,28,26,15,08,,,,,,,,,3.7,3.5,1.0*33
$GPRMC,175518.000,A,3748.8053,N,12217.8640,W,0.86,5.41,300811,,,A*7D
$GPVTG,5.41,T,,M,0.86,N,1.6,K,A*04
$GPGGA,175519.000,3748.8066,N,12217.8635,W,1,04,3.5,17.2,M,-25.1,M,,0000*52
$GPGSA,A,3,28,26,15,08,,,,,,,,,3.7,3.5,1.0*33
$GPRMC,175519.000,A,3748.8066,N,12217.8635,W,0.53,17.51,300811,,,A*42
$GPVTG,17.51,T,,M,0.53,N,1.0,K,A*38
$GPGGA,175520.000,3748.8075,N,12217.8631,W,1,04,3.5,17.6,M,-25.1,M,,0000*5A
$GPGSA,A,3,28,26,15,08,,,,,,,,,3.7,3.5,1.0*33
$GPRMC,175520.000,A,3748.8075,N,12217.8631,W,0.35,40.79,300811,,,A*46
$GPVTG,40.79,T,,M,0.35,N,0.6,K,A*37
$GPGGA,175521.000,3748.8081,N,12217.8627,W,1,04,3.5,17.8,M,-25.1,M,,0000*59
$GPGSA,A,3,28,26,15,08,,,,,,,,,3.7,3.5,1.0*33
$GPGSV,3,1,12,28,71,299,29,08,64,058,33,26,45,305,33,15,11,320,35*7A
$GPGSV,3,2,12,07,43,095,34,17,29,186,21,11,19,086,33,19,12,039,36*73
$GPGSV,3,3,12,05,10,254,,01,10,103,,24,07,097,09,13,02,154,*79
$GPRMC,175521.000,A,3748.8081,N,12217.8627,W,0.18,65.35,300811,,,A*4B
$GPVTG,65.35,T,,M,0.18,N,0.3,K,A*32
$GPGGA,175522.000,3748.8086,N,12217.8625,W,1,04,3.5,17.9,M,-25.1,M,,0000*5E
$GPGSA,A,3,28,26,15,08,,,,,,,,,3.7,3.5,1.0*33
$GPRMC,175522.000,A,3748.8086,N,12217.8625,W,0.11,55.59,300811,,,A*4D
$GPVTG,55.59,T,,M,0.11,N,0.2,K,A*33
$GPGGA,175523.000,3748.8071,N,12217.8619,W,1,04,3.5,16.0,M,-25.1,M,,0000*50
$GPGSA,A,3,28,26,15,08,,,,,,,,,3.7,3.5,1.0*33
$GPRMC,175523.000,A,3748.8071,N,12217.8619,W,0.27,145.82,300811,,,A*78
$GPVTG,145.82,T,,M,0.27,N,0.5,K,A*07
$GPGGA,175524.000,3748.8058,N,12217.8614,W,1,04,3.6,13.8,M,-25.1,M,,0000*5F
$GPGSA,A,3,28,26,15,08,,,,,,,,,3.7,3.6,1.0*30
$GPRMC,175524.000,A,3748.8058,N,12217.8614,W,0.23,94.97,300811,,,A*44
$GPVTG,94.97,T,,M,0.23,N,0.4,K,A*3B
$GPGGA,175525.000,3748.8062,N,12217.8613,W,1,04,3.6,13.7,M,-25.1,M,,0000*5F
$GPGSA,A,3,28,26,15,08,,,,,,,,,3.7,3.6,1.0*30
$GPRMC,175525.000,A,3748.8062,N,12217.8613,W,0.34,13.00,300811,,,A*4C
$GPVTG,13.00,T,,M,0.34,N,0.6,K,A*3E
$GPGGA,175526.000,3748.8064,N,12217.8610,W,1,04,3.6,13.5,M,-25.1,M,,0000*5B
$GPGSA,A,3,28,26,15,08,,,,,,,,,3.7,3.6,1.0*30
$GPGSV,3,1,12,28,71,299,28,08,64,058,33,26,45,305,36,15,11,320,38*73
$GPGSV,3,2,12,07,43,095,33,17,29,186,20,11,19,086,31,19,12,039,37*76
$GPGSV,3,3,12,05,10,254,,01,10,103,,24,07,097,18,13,02,154,*79
$GPRMC,175526.000,A,3748.8064,N,12217.8610,W,0.38,147.19,300811,,,A*7E
$GPGGA,175527.000,3748.8063,N,12217.8608,W,1,04,3.6,13.3,M,-25.1,M,,0000*52
$GPGSA,A,3,28,26,15,08,,,,,,,,,3.7,3.6,1.0*30
$GPRMC,175527.000,A,3748.8063,N,12217.8608,W,0.25,155.44,300811,,,A*76
$GPVTG,155.44,T,,M,0.25,N,0.5,K,A*0E
$GPGGA,175528.000,3748.8060,N,12217.8608,W,1,04,3.6,12.8,M,-25.1,M,,0000*54
$GPGSA,A,3,28,26,15,08,,,,,,,,,3.7,3.6,1.0*30
$GPRMC,175528.000,A,3748.8060,N,12217.8608,W,0.25,174.38,300811,,,A*72
$GPVTG,174.38,T,,M,0.25,N,0.5,K,A*06
$GPGGA,175529.000,3748.8057,N,12217.8607,W,1,04,3.6,12.3,M,-25.1,M,,0000*55
$GPGSA,A,3,28,26,15,08,,,,,,,,,3.7,3.6,1.0*30
$GPRMC,175529.000,A,3748.8057,N,12217.8607,W,0.22,170.88,300811,,,A*70
$GPVTG,170.88,T,,M,0.22,N,0.4,K,A*0F
$GPGGA,175530.000,3748.8061,N,12217.8603,W,1,04,3.6,12.3,M,-25.1,M,,0000*5C
$GPGSA,A,3,28,26,15,08,,,,,,,,,3.7,3.6,1.0*30
$GPRMC,175530.000,A,3748.8061,N,12217.8603,W,0.21,36.76,300811,,,A*48
$GPVTG,36.76,T,,M,0.21,N,0.4,K,A*3E
$GPGGA,175531.000,3748.8056,N,12217.8599,W,1,04,3.6,11.2,M,-25.1,M,,0000*5B
$GPGSA,A,3,28,26,15,08,,,,,,,,,3.7,3.6,1.0*30
$GPGSV,3,1,12,28,71,299,24,08,64,058,32,26,45,305,24,15,11,320,39*7C
$GPGSV,3,2,12,07,43,095,30,17,29,186,09,11,19,086,34,19,12,039,38*74
$GPGSV,3,3,12,05,10,254,,01,10,103,,24,07,097,19,13,02,154,*78
$GPRMC,175531.000,A,3748.8056,N,12217.8599,W,0.24,118.76,300811,,,A*75
$GPVTG,118.76,T,,M,0.24,N,0.4,K,A*06
$GPGGA,175532.000,3748.8038,N,12217.8599,W,1,04,3.6,9.5,M,-25.1,M,,0000*6E
$GPGSA,A,3,28,26,15,08,,,,,,,,,3.7,3.6,1.0*30
$GPRMC,175532.000,A,3748.8038,N,12217.8599,W,1.20,193.73,300811,,,A*7D
$GPVTG,193.73,T,,M,1.20,N,2.2,K,A*01
$GPGGA,175533.000,3748.8020,N,12217.8598,W,1,04,3.6,7.5,M,-25.1,M,,0000*69
$GPGSA,A,3,28,26,15,08,,,,,,,,,3.7,3.6,1.0*30
$GPRMC,175533.000,A,3748.8020,N,12217.8598,W,0.89,189.95,300811,,,A*75
$GPVTG,189.95,T,,M,0.89,N,1.6,K,A*07
$GPGGA,175534.000,3748.8007,N,12217.8599,W,1,04,3.6,6.1,M,-25.1,M,,0000*6F
$GPGSA,A,3,28,26,15,08,,,,,,,,,3.7,3.6,1.0*30
$GPRMC,175534.000,A,3748.8007,N,12217.8599,W,0.75,182.14,300811,,,A*77
$GPVTG,182.14,T,,M,0.75,N,1.4,K,A*04
$GPGGA,175535.000,3748.8000,N,12217.8599,W,1,04,3.6,5.4,M,-25.1,M,,0000*6F
$GPGSA,A,3,28,26,15,08,,,,,,,,,3.7,3.6,1.0*30
$GPRMC,175535.000,A,3748.8000,N,12217.8599,W,0.84,185.30,300811,,,A*7E
$GPVTG,185.30,T,,M,0.84,N,1.6,K,A*09
$GPGGA,175536.000,3748.7996,N,12217.8601,W,1,04,3.6,5.2,M,-25.1,M,,0000*61
$GPGSA,A,3,28,26,15,08,,,,,,,,,3.7,3.6,1.0*30
$GPGSV,3,1,12,28,71,299,27,08,64,058,33,26,45,305,29,15,11,320,28*73
$GPGSV,3,2,12,07,43,095,32,17,29,186,15,11,19,086,33,19,12,039,28*7D
$GPGSV,3,3,12,05,10,254,,01,10,103,,24,07,097,17,13,02,154,*76
$GPRMC,175536.000,A,3748.7996,N,12217.8601,W,0.76,194.59,300811,,,A*74
$GPVTG,194.59,T,,M,0.76,N,1.4,K,A*09
$GPGGA,175537.000,3748.7994,N,12217.8602,W,1,04,3.6,4.9,M,-25.1,M,,0000*6B
$GPGSA,A,3,28,26,15,08,,,,,,,,,3.7,3.6,1.0*30
$GPRMC,175537.000,A,3748.7994,N,12217.8602,W,0.42,200.94,300811,,,A*7C
$GPVTG,200.94,T,,M,0.42,N,0.8,K,A*0C
$GPGGA,175538.000,3748.8000,N,12217.8600,W,1,04,3.6,4.9,M,-25.1,M,,0000*6D
$GPGSA,A,3,28,26,15,08,,,,,,,,,3.7,3.6,1.0*30
$GPRMC,175538.000,A,3748.8000,N,12217.8600,W,0.08,46.99,300811,,,A*49
$GPVTG,46.99,T,,M,0.08,N,0.1,K,A*36
$GPGGA,175539.000,3748.7998,N,12217.8605,W,1,04,3.6,4.6,M,-25.1,M,,0000*61
$GPGSA,A,3,28,26,15,08,,,,,,,,,3.7,3.6,1.0*30
$GPRMC,175539.000,A,3748.7998,N,12217.8605,W,0.18,102.84,300811,,,A*76
$GPVTG,102.84,T,,M,0.18,N,0.3,K,A*08
$GPGGA,175540.000,3748.7995,N,12217.8612,W,1,04,3.6,4.5,M,-25.1,M,,0000*67
$GPGSA,A,3,28,26,15,08,,,,,,,,,3.7,3.6,1.0*30
$GPRMC,175540.000,A,3748.7995,N,12217.8612,W,0.57,207.27,300811,,,A*77
$GPVTG,207.27,T,,M,0.57,N,1.1,K,A*0F
$GPGGA,175541.000,3748.7997,N,12217.8614,W,1,04,3.6,4.6,M,-25.1,M,,0000*61
$GPGSA,A,3,28,26,15,08,,,,,,,,,3.7,3.6,1.0*30
$GPGSV,3,1,12,28,71,299,26,08,64,058,35,26,45,305,34,15,11,320,37*76
$GPGSV,3,2,12,07,43,095,32,17,29,186,20,11,19,086,30,19,12,039,30*71
$GPGSV,3,3,12,05,10,254,,01,10,103,,24,07,097,21,13,02,154,*73
$GPRMC,175541.000,A,3748.7997,N,12217.8614,W,0.47,159.33,300811,,,A*7E
$GPVTG,159.33,T,,M,0.47,N,0.9,K,A*0A
$GPGGA,175542.000,3748.7997,N,12217.8616,W,1,04,3.6,4.7,M,-25.1,M,,0000*61
$GPGSA,A,3,28,26,15,08,,,,,,,,,3.7,3.6,1.0*30
$GPRMC,175542.000,A,3748.7997,N,12217.8616,W,0.47,188.64,300811,,,A*71
$GPVTG,188.64,T,,M,0.47,N,0.9,K,A*04
$GPGGA,175543.000,3748.7997,N,12217.8620,W,1,04,3.6,4.7,M,-25.1,M,,0000*65
$GPGSA,A,3,28,26,15,08,,,,,,,,,3.7,3.6,1.0*30
$GPRMC,175543.000,A,3748.7997,N,12217.8620,W,0.44,207.66,300811,,,A*70
$GPVTG,207.66,T,,M,0.44,N,0.8,K,A*00
$GPGGA,175544.000,3748.7996,N,12217.8623,W,1,04,3.6,4.8,M,-25.1,M,,0000*6F
$GPGSA,A,3,28,26,15,08,,,,,,,,,3.7,3.6,1.0*30
$GPRMC,175544.000,A,3748.7996,N,12217.8623,W,0.51,209.15,300811,,,A*7B
$GPVTG,209.15,T,,M,0.51,N,0.9,K,A*0F
$GPGGA,175545.000,3748.7990,N,12217.8627,W,1,04,3.6,4.4,M,-25.1,M,,0000*60
$GPGSA,A,3,28,26,15,08,,,,,,,,,3.7,3.6,1.0*30
$GPRMC,175545.000,A,3748.7990,N,12217.8627,W,0.38,187.91,300811,,,A*7E
$GPVTG,187.91,T,,M,0.38,N,0.7,K,A*07
$GPGGA,175546.000,3748.7990,N,12217.8628,W,1,04,3.6,4.4,M,-25.1,M,,0000*6C
$GPGSA,A,3,28,26,15,08,,,,,,,,,3.7,3.6,1.0*30
$GPGSV,3,1,12,28,71,299,27,08,64,058,31,26,45,305,34,15,11,320,36*72
$GPGSV,3,2,12,07,43,095,29,17,29,186,21,11,19,086,22,19,12,039,21*79
$GPGSV,3,3,12,05,10,254,,01,10,103,,24,07,097,21,13,02,154,*73
$GPRMC,175546.000,A,3748.7990,N,12217.8628,W,0.24,106.56,300811,,,A*7D
$GPVTG,106.56,T,,M,0.24,N,0.4,K,A*0B
$GPGGA,175547.000,3748.7997,N,12217.8624,W,1,04,3.6,4.8,M,-25.1,M,,0000*6A
$GPGSA,A,3,28,26,15,08,,,,,,,,,3.7,3.6,1.0*30
$GPRMC,175547.000,A,3748.7997,N,12217.8624,W,0.74,100.55,300811,,,A*77
$GPVTG,100.55,T,,M,0.74,N,1.4,K,A*0A
$GPGGA,175548.000,3748.7996,N,12217.8623,W,1,04,3.6,4.6,M,-25.1,M,,0000*6D
$GPGSA,A,3,28,26,15,08,,,,,,,,,3.7,3.6,1.0*30
$GPRMC,175548.000,A,3748.7996,N,12217.8623,W,0.64,55.34,300811,,,A*49
$GPVTG,55.34,T,,M,0.64,N,1.2,K,A*3B
$GPGGA,175549.000,3748.8005,N,12217.8620,W,1,04,3.6,5.0,M,-25.1,M,,0000*64
$GPGSA,A,3,28,26,15,08,,,,,,,,,3.7,3.6,1.0*30
$GPRMC,175549.000,A,3748.8005,N,12217.8620,W,0.37,118.04,300811,,,A*7A
$GPVTG,118.04,T,,M,0.37,N,0.7,K,A*02
$GPGGA,175550.000,3748.8005,N,12217.8616,W,1,04,3.6,4.9,M,-25.1,M,,0000*61
$GPGSA,A,3,28,26,15,08,,,,,,,,,3.7,3.6,1.0*30
$GPRMC,175550.000,A,3748.8005,N,12217.8616,W,0.45,43.14,300811,,,A*4C
$GPVTG,43.14,T,,M,0.45,N,0.8,K,A*36
$GPGGA,175551.000,3748.8001,N,12217.8608,W,1,04,3.6,4.7,M,-25.1,M,,0000*65
$GPGSA,A,3,28,26,15,08,,,,,,,,,3.7,3.6,1.0*30
$GPGSV,3,1,12,28,71,302,26,08,64,060,31,26,45,304,22,07,43,096,38*79
$GPGSV,3,2,12,17,29,186,34,11,19,085,37,19,12,039,29,15,11,320,23*71
$GPGSV,3,3,12,01,10,102,,05,09,253,,24,07,097,24,13,02,154,*78
$GPRMC,175551.000,A,3748.8001,N,12217.8608,W,1.13,36.23,300811,,,A*42
$GPVTG,36.23,T,,M,1.13,N,2.1,K,A*39
$GPGGA,175552.000,3748.7993,N,12217.8600,W,1,04,3.6,3.8,M,-25.1,M,,0000*6B
$GPGSA,A,3,28,26,15,08,,,,,,,,,3.7,3.6,1.0*30
$GPRMC,175552.000,A,3748.7993,N,12217.8600,W,1.09,50.58,300811,,,A*43
$GPVTG,50.58,T,,M,1.09,N,2.0,K,A*3F
$GPGGA,175553.000,3748.7991,N,12217.8597,W,1,04,3.6,3.6,M,-25.1,M,,0000*6B
$GPGSA,A,3,28,26,15,08,,,,,,,,,3.7,3.6,1.0*30
$GPRMC,175553.000,A,3748.7991,N,12217.8597,W,1.54,21.06,300811,,,A*48
$GPVTG,21.06,T,,M,1.54,N,2.8,K,A*32
$GPGGA,175554.000,3748.7984,N,12217.8599,W,1,04,3.6,3.2,M,-25.1,M,,0000*62
$GPGSA,A,3,28,26,15,08,,,,,,,,,3.7,3.6,1.0*30
$GPRMC,175554.000,A,3748.7984,N,12217.8599,W,1.55,345.71,300811,,,A*75
$GPVTG,345.71,T,,M,1.55,N,2.9,K,A*03
$GPGGA,175555.000,3748.7958,N,12217.8600,W,1,04,3.6,2.0,M,-25.1,M,,0000*62
$GPGSA,A,3,28,26,15,08,,,,,,,,,3.7,3.6,1.0*30
$GPRMC,175555.000,A,3748.7958,N,12217.8600,W,0.67,172.30,300811,,,A*75
$GPVTG,172.30,T,,M,0.67,N,1.2,K,A*08
$GPGGA,175556.000,3748.7951,N,12217.8600,W,1,04,3.6,2.1,M,-25.1,M,,0000*69
$GPGSA,A,3,28,26,15,08,,,,,,,,,3.7,3.6,1.0*30
$GPGSV,3,1,12,28,71,302,25,08,64,060,29,26,45,304,20,07,43,096,32*7B
$GPGSV,3,2,12,17,29,186,41,11,19,085,20,19,12,039,21,15,11,320,21*7F
$GPGSV,3,3,12,01,10,102,,05,09,253,,24,07,097,22,13,02,154,*7E
$GPRMC,175556.000,A,3748.7951,N,12217.8600,W,1.40,143.31,300811,,,A*78
$GPGGA,175557.000,3748.7936,N,12217.8583,W,2,04,3.6,1.5,M,-25.1,M,,0000*65
$GPGSA,A,3,28,26,15,08,,,,,,,,,3.7,3.6,1.0*30
$GPRMC,175557.000,A,3748.7936,N,12217.8583,W,2.83,124.51,300811,,,D*7E
$GPVTG,124.51,T,,M,2.83,N,5.2,K,D*05
$GPGGA,175558.000,3748.7913,N,12217.8574,W,2,04,3.6,1.0,M,-25.1,M,2.8,0000*44
$GPGSA,A,3,28,26,15,08,,,,,,,,,3.7,3.6,1.0*30
$GPRMC,175558.000,A,3748.7913,N,12217.8574,W,2.08,132.02,300811,,,D*7C
$GPVTG,132.02,T,,M,2.08,N,3.9,K,D*0A
$GPGGA,175559.000,3748.7898,N,12217.8569,W,2,04,3.6,1.0,M,-25.1,M,3.8,0000*4A
$GPGSA,A,3,28,26,15,08,,,,,,,,,3.7,3.6,1.0*30
$GPRMC,175559.000,A,3748.7898,N,12217.8569,W,1.89,117.20,300811,,,D*7E
$GPVTG,117.20,T,,M,1.89,N,3.5,K,D*0B
$GPGGA,175600.000,3748.7881,N,12217.8565,W,2,04,3.6,1.6,M,-25.1,M,4.8,0000*40
$GPGSA,A,3,28,26,15,08,,,,,,,,,3.7,3.6,1.0*30
$GPRMC,175600.000,A,3748.7881,N,12217.8565,W,2.67,128.67,300811,,,D*79
$GPVTG,128.67,T,,M,2.67,N,4.9,K,D*0C
$GPGGA,175601.000,3748.7879,N,12217.8553,W,2,04,3.6,2.0,M,-25.1,M,,0000*64
$GPGSA,A,3,28,26,15,08,,,,,,,,,3.7,3.6,1.0*30
$GPGSV,3,1,12,28,71,302,26,08,64,060,25,26,45,304,27,07,43,096,32*73
$GPGSV,3,2,12,17,29,186,31,11,19,085,23,19,12,039,22,15,11,320,22*7B
$GPGSV,3,3,12,01,10,102,,05,09,253,,24,07,097,22,13,02,154,*7E
$GPRMC,175601.000,A,3748.7879,N,12217.8553,W,2.07,124.88,300811,,,D*71
$GPVTG,124.88,T,,M,2.07,N,3.8,K,D*01
$GPGGA,175602.000,3748.7896,N,12217.8543,W,2,04,3.6,3.4,M,-25.1,M,,0000*62
$GPGSA,A,3,28,26,15,08,,,,,,,,,3.7,3.6,1.0*30
$GPRMC,175602.000,A,3748.7896,N,12217.8543,W,1.35,83.44,300811,,,D*4C
$GPVTG,83.44,T,,M,1.35,N,2.5,K,D*33
$GPGGA,175603.000,3748.7901,N,12217.8530,W,2,04,3.6,3.6,M,-25.1,M,,0000*6A
$GPGSA,A,3,28,26,15,08,,,,,,,,,3.7,3.6,1.0*30
$GPRMC,175603.000,A,3748.7901,N,12217.8530,W,1.65,62.68,300811,,,D*42
$GPVTG,62.68,T,,M,1.65,N,3.1,K,D*32
$GPGGA,175604.000,3748.7866,N,12217.8519,W,2,05,4.7,-0.3,M,-25.1,M,,0000*4A
$GPGSA,A,3,28,26,15,07,08,,,,,,,,5.5,4.7,2.8*3E
$GPRMC,175604.000,A,3748.7866,N,12217.8519,W,1.80,97.23,300811,,,D*40
$GPVTG,97.23,T,,M,1.80,N,3.3,K,D*3E
$GPGGA,175605.000,3748.7859,N,12217.8510,W,2,05,4.7,-0.6,M,-25.1,M,3.8,0000*6E
$GPGSA,A,3,28,26,15,07,08,,,,,,,,5.5,4.7,2.8*3E
$GPRMC,175605.000,A,3748.7859,N,12217.8510,W,1.84,90.90,300811,,,D*4F
$GPVTG,90.90,T,,M,1.84,N,3.4,K,D*32
$GPGGA,175606.000,3748.7851,N,12217.8503,W,2,05,4.7,-2.1,M,-25.1,M,4.8,0000*65
$GPGSA,A,3,28,26,15,07,08,,,,,,,,5.5,4.7,2.8*3E
$GPGSV,3,1,12,28,71,302,26,08,64,060,26,26,45,304,25,07,42,096,31*70
$GPGSV,3,2,12,17,30,186,37,11,19,085,18,19,12,039,22,15,11,320,22*7D
$GPGSV,3,3,12,01,10,102,25,05,09,253,31,24,07,097,23,13,01,154,*79
$GPRMC,175606.000,A,3748.7851,N,12217.8503,W,1.97,75.14,300811,,,D*43
$GPVTG,75.14,T,,M,1.97,N,3.7,K,D*34
$GPGGA,175607.000,3748.7841,N,12217.8504,W,2,05,4.7,-2.7,M,-25.1,M,,0000*46
$GPGSA,A,3,28,26,15,07,08,,,,,,,,5.5,4.7,2.8*3E
$GPRMC,175607.000,A,3748.7841,N,12217.8504,W,1.42,76.90,300811,,,D*43
$GPVTG,76.90,T,,M,1.42,N,2.6,K,D*33
$GPGGA,175608.000,3748.7838,N,12217.8496,W,2,05,4.7,-2.0,M,-25.1,M,,0000*4A
$GPGSA,A,3,28,26,15,07,08,,,,,,,,5.5,4.7,2.8*3E
$GPRMC,175608.000,A,3748.7838,N,12217.8496,W,1.75,59.52,300811,,,D*4F
$GPVTG,59.52,T,,M,1.75,N,3.2,K,D*31
$GPGGA,175609.000,3748.7829,N,12217.8495,W,2,05,4.7,-2.8,M,-25.1,M,,0000*40
$GPGSA,A,3,28,26,15,07,08,,,,,,,,5.5,4.7,2.8*3E
$GPRMC,175609.000,A,3748.7829,N,12217.8495,W,1.73,57.95,300811,,,D*4E
$GPVTG,57.95,T,,M,1.73,N,3.2,K,D*32
$GPGGA,175610.000,3748.7815,N,12217.8499,W,2,05,4.7,-2.5,M,-25.1,M,,0000*46
$GPGSA,A,3,28,26,15,07,08,,,,,,,,5.5,4.7,2.8*3E
$GPRMC,175610.000,A,3748.7815,N,12217.8499,W,1.63,121.77,300811,,,D*78
$GPVTG,121.77,T,,M,1.63,N,3.0,K,D*0D
$GPGGA,175611.000,3748.7815,N,12217.8495,W,2,05,4.7,-2.4,M,-25.1,M,2.8,0000*6E
$GPGSA,A,3,28,26,15,07,08,,,,,,,,5.5,4.7,2.8*3E
$GPGSV,3,1,12,28,71,302,26,08,64,060,27,26,45,304,25,07,42,096,30*70
$GPGSV,3,2,12,17,30,186,38,11,19,085,26,19,12,039,21,15,11,320,22*7C
$GPGSV,3,3,12,01,10,102,23,05,09,253,25,24,07,097,24,13,01,154,*7D
$GPRMC,175611.000,A,3748.7815,N,12217.8495,W,2.07,93.93,300811,,,D*46
$GPGGA,175612.000,3748.7826,N,12217.8486,W,2,05,4.7,-1.8,M,-25.1,M,3.8,0000*61
$GPGSA,A,3,28,26,15,07,08,,,,,,,,5.5,4.7,2.8*3E
$GPRMC,175612.000,A,3748.7826,N,12217.8486,W,1.54,74.17,300811,,,D*47
$GPVTG,74.17,T,,M,1.54,N,2.9,K,D*36
$GPGGA,175613.000,3748.7839,N,12217.8479,W,2,05,4.7,-1.7,M,-25.1,M,4.8,0000*66
$GPGSA,A,3,28,26,15,07,08,,,,,,,,5.5,4.7,2.8*3E
$GPRMC,175613.000,A,3748.7839,N,12217.8479,W,1.34,87.96,300811,,,D*4B
$GPVTG,87.96,T,,M,1.34,N,2.5,K,D*39
$GPGGA,175614.000,3748.7845,N,12217.8477,W,2,05,4.7,-2.6,M,-25.1,M,,0000*44
$GPGSA,A,3,28,26,15,07,08,,,,,,,,5.5,4.7,2.8*3E
$GPRMC,175614.000,A,3748.7845,N,12217.8477,W,1.38,71.16,300811,,,D*44
$GPVTG,71.16,T,,M,1.38,N,2.6,K,D*37
$GPGGA,175615.000,3748.7851,N,12217.8470,W,2,05,4.7,-2.3,M,-25.1,M,2.8,0000*66
$GPGSA,A,3,28,26,15,07,08,,,,,,,,5.5,4.7,2.8*3E
$GPRMC,175615.000,A,3748.7851,N,12217.8470,W,1.18,90.90,300811,,,D*44
$GPVTG,90.90,T,,M,1.18,N,2.2,K,D*30
$GPGGA,175616.000,3748.7845,N,12217.8463,W,2,05,4.7,-2.0,M,-25.1,M,,0000*45
$GPGSA,A,3,28,26,15,07,08,,,,,,,,5.5,4.7,2.8*3E
$GPGSV,3,1,12,28,71,302,24,08,64,060,26,26,45,304,25,07,42,096,30*73
$GPGSV,3,2,12,17,30,186,37,11,19,085,30,19,12,039,21,15,11,320,22*74
$GPGSV,3,3,12,01,10,102,24,05,09,253,25,24,07,097,24,13,01,154,*7A
$GPRMC,175616.000,A,3748.7845,N,12217.8463,W,1.73,130.36,300811,,,D*7A
$GPVTG,130.36,T,,M,1.73,N,3.2,K,D*0B
$GPGGA,175617.000,3748.7830,N,12217.8463,W,2,05,4.7,-2.8,M,-25.1,M,2.8,0000*6A
$GPGSA,A,3,28,26,15,07,08,,,,,,,,5.5,4.7,2.8*3E
$GPRMC,175617.000,A,3748.7830,N,12217.8463,W,1.51,125.19,300811,,,D*70
$GPVTG,125.19,T,,M,1.51,N,2.8,K,D*09
$GPGGA,175618.000,3748.7798,N,12217.8471,W,2,05,4.7,-5.5,M,-25.1,M,3.8,0000*60
$GPGSA,A,3,28,26,15,07,08,,,,,,,,5.5,4.7,2.8*3E
$GPRMC,175618.000,A,3748.7798,N,12217.8471,W,2.62,157.22,300811,,,D*7F
$GPVTG,157.22,T,,M,2.62,N,4.9,K,D*00
$GPGGA,175619.000,3748.7777,N,12217.8471,W,2,05,4.7,-6.7,M,-25.1,M,,0000*44
$GPGSA,A,3,28,26,15,07,08,,,,,,,,5.5,4.7,2.8*3E
$GPRMC,175619.000,A,3748.7777,N,12217.8471,W,3.71,158.77,300811,,,D*73
$GPVTG,158.77,T,,M,3.71,N,6.9,K,D*0E
$GPGGA,175620.000,3748.7757,N,12217.8472,W,2,05,4.7,-7.9,M,-25.1,M,,0000*40
$GPGSA,A,3,28,26,15,07,08,,,,,,,,5.5,4.7,2.8*3E
$GPRMC,175620.000,A,3748.7757,N,12217.8472,W,2.85,171.37,300811,,,D*7D
$GPVTG,171.37,T,,M,2.85,N,5.3,K,D*02
$GPGGA,175621.000,3748.7750,N,12217.8469,W,2,05,4.7,-8.5,M,-25.1,M,,0000*4F
$GPGSA,A,3,28,26,15,07,08,,,,,,,,5.5,4.7,2.8*3E
$GPGSV,3,1,12,28,71,302,26,08,64,060,26,26,45,304,28,07,42,096,33*7F
$GPGSV,3,2,12,17,30,186,41,11,19,085,28,19,12,039,21,15,11,320,22*7C
$GPGSV,3,3,12,01,10,102,17,05,09,253,34,24,07,097,18,13,01,154,*75
$GPRMC,175621.000,A,3748.7750,N,12217.8469,W,2.14,150.70,300811,,,D*79
$GPVTG,150.70,T,,M,2.14,N,4.0,K,D*08
$GPGGA,175622.000,3748.7744,N,12217.8463,W,2,05,4.7,-8.1,M,-25.1,M,2.8,0000*63
$GPGSA,A,3,28,26,15,07,08,,,,,,,,5.5,4.7,2.8*3E
$GPRMC,175622.000,A,3748.7744,N,12217.8463,W,1.87,125.24,300811,,,D*7F
$GPVTG,125.24,T,,M,1.87,N,3.5,K,D*00
$GPGGA,175623.000,3748.7756,N,12217.8453,W,2,05,4.7,-7.7,M,-25.1,M,3.8,0000*6A
$GPGSA,A,3,28,26,15,07,08,,,,,,,,5.5,4.7,2.8*3E
$GPRMC,175623.000,A,3748.7756,N,12217.8453,W,1.52,87.77,300811,,,D*49
$GPVTG,87.77,T,,M,1.52,N,2.8,K,D*3B
$GPGGA,175624.000,3748.7764,N,12217.8440,W,2,05,4.7,-6.0,M,-25.1,M,4.8,0000*6F
$GPGSA,A,3,28,26,15,07,08,,,,,,,,5.5,4.7,2.8*3E
$GPRMC,175624.000,A,3748.7764,N,12217.8440,W,1.57,72.89,300811,,,D*43
$GPVTG,72.89,T,,M,1.57,N,2.9,K,D*34
$GPGGA,175625.000,3748.7757,N,12217.8436,W,2,05,4.7,-6.0,M,-25.1,M,,0000*4D
$GPGSA,A,3,28,26,15,07,08,,,,,,,,5.5,4.7,2.8*3E
$GPRMC,175625.000,A,3748.7757,N,12217.8436,W,1.23,39.08,300811,,,D*46
$GPVTG,39.08,T,,M,1.23,N,2.3,K,D*3B
$GPGGA,175626.000,3748.7754,N,12217.8430,W,2,05,4.7,-5.6,M,-25.1,M,,0000*4E
$GPGSA,A,3,28,26,15,07,08,,,,,,,,5.5,4.7,2.8*3E
$GPGSV,3,1,12,28,71,302,27,08,64,060,26,26,45,304,28,07,42,096,33*7E
$GPGSV,3,2,12,17,30,186,38,11,19,085,26,19,12,039,22,15,11,320,22*7F
$GPGSV,3,3,12,01,10,102,19,05,09,253,31,24,07,097,20,13,01,154,*75
$GPRMC,175626.000,A,3748.7754,N,12217.8430,W,1.95,78.79,300811,,,D*4E
$GPGGA,175627.000,3748.7743,N,12217.8426,W,2,05,4.7,-6.3,M,-25.1,M,,0000*48
$GPGSA,A,3,28,26,15,07,08,,,,,,,,5.5,4.7,2.8*3E
$GPRMC,175627.000,A,3748.7743,N,12217.8426,W,1.78,106.93,300811,,,D*71
$GPVTG,106.93,T,,M,1.78,N,3.3,K,D*0B
$GPGGA,175628.000,3748.7747,N,12217.8411,W,2,05,4.7,-5.4,M,-25.1,M,,0000*43
$GPGSA,A,3,28,26,15,07,08,,,,,,,,5.5,4.7,2.8*3E
$GPRMC,175628.000,A,3748.7747,N,12217.8411,W,1.81,94.69,300811,,,D*47
$GPVTG,94.69,T,,M,1.81,N,3.4,K,D*35
$GPGGA,175629.000,3748.7758,N,12217.8399,W,2,05,4.7,-3.9,M,-25.1,M,2.8,0000*64
$GPGSA,A,3,28,26,15,07,08,,,,,,,,5.5,4.7,2.8*3E
$GPRMC,175629.000,A,3748.7758,N,12217.8399,W,1.65,52.68,300811,,,D*4E
$GPVTG,52.68,T,,M,1.65,N,3.1,K,D*31
$GPGGA,175630.000,3748.7756,N,12217.8386,W,2,05,4.7,-4.3,M,-25.1,M,,0000*45
$GPGSA,A,3,28,26,15,07,08,,,,,,,,5.5,4.7,2.8*3E
$GPRMC,175630.000,A,3748.7756,N,12217.8386,W,2.61,65.86,300811,,,D*45
$GPVTG,65.86,T,,M,2.61,N,4.8,K,D*3C
$GPGGA,175631.000,3748.7752,N,12217.8379,W,2,05,4.7,-4.5,M,-25.1,M,,0000*46
$GPGSA,A,3,28,26,15,07,08,,,,,,,,5.5,4.7,2.8*3E
$GPGSV,3,1,12,28,71,302,27,08,64,060,26,26,45,304,27,07,42,096,31*73
$GPGSV,3,2,12,17,30,186,39,11,19,085,21,19,12,039,23,15,11,320,17*7E
$GPGSV,3,3,12,01,10,102,19,05,09,253,34,24,07,097,23,13,01,154,*73
$GPRMC,175631.000,A,3748.7752,N,12217.8379,W,2.19,61.16,300811,,,D*42
$GPVTG,61.16,T,,M,2.19,N,4.1,K,D*37
$GPGGA,175632.000,3748.7750,N,12217.8371,W,2,05,4.7,-5.6,M,-25.1,M,,0000*4D
$GPGSA,A,3,28,26,15,07,08,,,,,,,,5.5,4.7,2.8*3E
$GPRMC,175632.000,A,3748.7750,N,12217.8371,W,2.39,56.99,300811,,,D*4A
$GPVTG,56.99,T,,M,2.39,N,4.4,K,D*33
$GPGGA,175633.000,3748.7742,N,12217.8365,W,2,05,4.7,-7.5,M,-25.1,M,,0000*4B
$GPGSA,A,3,28,26,15,07,08,,,,,,,,5.5,4.7,2.8*3E
$GPRMC,175633.000,A,3748.7742,N,12217.8365,W,2.73,55.89,300811,,,D*41
$GPVTG,55.89,T,,M,2.73,N,5.0,K,D*3A
$GPGGA,175634.000,3748.7744,N,12217.8354,W,2,05,4.7,-7.3,M,-25.1,M,2.8,0000*6A
$GPGSA,A,3,28,26,15,07,08,,,,,,,,5.5,4.7,2.8*3E
$GPRMC,175634.000,A,3748.7744,N,12217.8354,W,2.40,60.84,300811,,,D*49
$GPVTG,60.84,T,,M,2.40,N,4.5,K,D*35
$GPGGA,175635.000,3748.7746,N,12217.8344,W,2,05,4.7,-6.6,M,-25.1,M,,0000*48
$GPGSA,A,3,28,26,15,07,08,,,,,,,,5.5,4.7,2.8*3E
$GPRMC,175635.000,A,3748.7746,N,12217.8344,W,2.90,56.26,300811,,,D*4B
$GPVTG,56.26,T,,M,2.90,N,5.4,K,D*35
$GPGGA,175636.000,3748.7750,N,12217.8326,W,2,05,4.7,-6.1,M,-25.1,M,2.8,0000*6B
$GPGSA,A,3,28,26,15,07,08,,,,,,,,5.5,4.7,2.8*3E
$GPGSV,3,1,12,28,71,302,26,08,64,060,26,26,45,304,26,07,42,096,32*70
$GPGSV,3,2,12,17,30,186,39,11,19,085,25,19,12,039,23,15,11,320,19*74
$GPGSV,3,3,12,01,10,102,21,05,09,253,28,24,07,097,22,13,01,154,*74
$GPRMC,175636.000,A,3748.7750,N,12217.8326,W,3.29,53.77,300811,,,D*49
$GPVTG,53.77,T,,M,3.29,N,6.1,K,D*31
$GPGGA,175637.000,3748.7741,N,12217.8323,W,2,05,4.7,-6.4,M,-25.1,M,,0000*4E
$GPGSA,A,3,28,26,15,07,08,,,,,,,,5.5,4.7,2.8*3E
$GPRMC,175637.000,A,3748.7741,N,12217.8323,W,2.00,55.16,300811,,,D*46
$GPVTG,55.16,T,,M,2.00,N,3.7,K,D*39
$GPGGA,175638.000,3748.7732,N,12217.8319,W,2,05,4.7,-6.2,M,-25.1,M,,0000*4A
$GPGSA,A,3,28,26,15,07,08,,,,,,,,5.5,4.7,2.8*3E
$GPRMC,175638.000,A,3748.7732,N,12217.8319,W,2.10,49.23,300811,,,D*4E
$GPVTG,49.23,T,,M,2.10,N,3.9,K,D*3D
$GPGGA,175639.000,3748.7720,N,12217.8320,W,2,05,4.7,-7.4,M,-25.1,M,,0000*45
$GPGSA,A,3,28,26,15,07,08,,,,,,,,5.5,4.7,2.8*3E
$GPRMC,175639.000,A,3748.7720,N,12217.8320,W,2.06,57.06,300811,,,D*49
$GPVTG,57.06,T,,M,2.06,N,3.8,K,D*33
$GPGGA,175640.000,3748.7712,N,12217.8319,W,2,05,4.7,-6.9,M,-25.1,M,2.8,0000*68
$GPGSA,A,3,28,26,15,07,08,,,,,,,,5.5,4.7,2.8*3E
$GPRMC,175640.000,A,3748.7712,N,12217.8319,W,1.35,90.32,300811,,,D*43
$GPVTG,90.32,T,,M,1.35,N,2.5,K,D*30
$GPGGA,175641.000,3748.7689,N,12217.8321,W,2,05,4.7,-6.2,M,-25.1,M,3.8,0000*6B
$GPGSA,A,3,28,26,15,07,08,,,,,,,,5.5,4.7,2.8*3E
$GPGSV,3,1,12,28,71,302,25,08,64,060,26,26,45,304,24,07,42,096,32*71
$GPGSV,3,2,12,17,30,186,39,11,19,085,22,19,12,039,22,15,11,320,19*72
$GPGSV,3,3,12,01,10,102,21,05,09,253,31,24,07,097,22,13,01,154,*7C
$GPRMC,175641.000,A,3748.7689,N,12217.8321,W,1.71,118.72,300811,,,D*7F
$GPGGA,175642.000,3748.7679,N,12217.8317,W,2,05,4.7,-6.7,M,-25.1,M,4.8,0000*60
$GPGSA,A,3,28,26,15,07,08,,,,,,,,5.5,4.7,2.8*3E
$GPRMC,175642.000,A,3748.7679,N,12217.8317,W,1.45,110.95,300811,,,D*70
$GPVTG,110.95,T,,M,1.45,N,2.7,K,D*01
$GPGGA,175643.000,3748.7668,N,12217.8318,W,2,05,4.7,-7.4,M,-25.1,M,,0000*4E
$GPGSA,A,3,28,26,15,07,08,,,,,,,,5.5,4.7,2.8*3E
$GPRMC,175643.000,A,3748.7668,N,12217.8318,W,1.69,131.08,300811,,,D*77
$GPVTG,131.08,T,,M,1.69,N,3.1,K,D*0F
$GPGGA,175644.000,3748.7667,N,12217.8310,W,2,05,4.7,-7.7,M,-25.1,M,,0000*4D
$GPGSA,A,3,28,26,15,07,08,,,,,,,,5.5,4.7,2.8*3E
$GPRMC,175644.000,A,3748.7667,N,12217.8310,W,1.65,95.07,300811,,,D*4B
$GPVTG,95.07,T,,M,1.65,N,3.1,K,D*33
$GPGGA,175645.000,3748.7655,N,12217.8306,W,2,05,4.7,-7.2,M,-25.1,M,,0000*4F
$GPGSA,A,3,28,26,15,07,08,,,,,,,,5.5,4.7,2.8*3E
$GPRMC,175645.000,A,3748.7655,N,12217.8306,W,1.81,129.70,300811,,,D*70
$GPVTG,129.70,T,,M,1.81,N,3.4,K,D*0A
$GPGGA,175646.000,3748.7655,N,12217.8298,W,2,05,4.7,-7.3,M,-25.1,M,2.8,0000*6F
$GPGSA,A,3,28,26,15,07,08,,,,,,,,5.5,4.7,2.8*3E
$GPGSV,3,1,12,28,71,302,25,08,64,060,27,26,45,304,24,07,42,096,32*70
$GPGSV,3,2,12,17,30,186,40,11,19,085,23,19,12,039,22,15,11,320,20*77
$GPGSV,3,3,12,01,10,102,20,05,09,253,24,24,07,097,21,13,01,154,*7A
$GPRMC,175646.000,A,3748.7655,N,12217.8298,W,1.48,109.28,300811,,,D*7F
$GPVTG,109.28,T,,M,1.48,N,2.7,K,D*02
$GPGGA,175647.000,3748.7658,N,12217.8288,W,2,05,4.7,-7.6,M,-25.1,M,3.8,0000*66
$GPGSA,A,3,28,26,15,07,08,,,,,,,,5.5,4.7,2.8*3E
$GPRMC,175647.000,A,3748.7658,N,12217.8288,W,2.00,103.22,300811,,,D*7D
$GPVTG,103.22,T,,M,2.00,N,3.7,K,D*0C
$GPGGA,175648.000,3748.7652,N,12217.8282,W,2,05,4.7,-8.6,M,-25.1,M,4.8,0000*61
$GPGSA,A,3,28,26,15,07,08,,,,,,,,5.5,4.7,2.8*3E
$GPRMC,175648.000,A,3748.7652,N,12217.8282,W,1.81,110.21,300811,,,D*79
$GPVTG,110.21,T,,M,1.81,N,3.3,K,D*03
$GPGGA,175649.000,3748.7649,N,12217.8275,W,2,05,4.7,-8.5,M,-25.1,M,,0000*43
$GPGSA,A,3,28,26,15,07,08,,,,,,,,5.5,4.7,2.8*3E
$GPRMC,175649.000,A,3748.7649,N,12217.8275,W,1.91,99.65,300811,,,D*4B
$GPVTG,99.65,T,,M,1.91,N,3.5,K,D*34
$GPGGA,175650.000,3748.7643,N,12217.8268,W,2,05,4.7,-7.9,M,-25.1,M,,0000*4E
$GPGSA,A,3,28,26,15,07,08,,,,,,,,5.5,4.7,2.8*3E
$GPRMC,175650.000,A,3748.7643,N,12217.8268,W,1.75,94.24,300811,,,D*47
$GPVTG,94.24,T,,M,1.75,N,3.2,K,D*31
$GPGGA,175651.000,3748.7660,N,12217.8247,W,2,05,4.7,-4.1,M,-25.1,M,,0000*48
$GPGSA,A,3,28,26,15,07,08,,,,,,,,5.5,4.7,2.8*3E
$GPGSV,3,1,12,28,71,303,24,08,64,061,27,26,46,304,27,07,42,096,32*71
$GPGSV,3,2,12,17,30,186,39,11,19,085,24,15,12,320,21,19,11,038,20*7C
$GPGSV,3,3,12,01,10,102,26,05,09,253,24,24,07,096,21,13,01,154,*7D
$GPRMC,175651.000,A,3748.7660,N,12217.8247,W,2.36,63.06,300811,,,D*46
$GPVTG,63.06,T,,M,2.36,N,4.4,K,D*3C
$GPGGA,175652.000,3748.7662,N,12217.8235,W,2,05,4.7,-1.5,M,-25.1,M,,0000*4D
$GPGSA,A,3,28,26,15,07,08,,,,,,,,5.5,4.7,2.8*3E
$GPRMC,175652.000,A,3748.7662,N,12217.8235,W,2.03,86.30,300811,,,D*4A
$GPVTG,86.30,T,,M,2.03,N,3.8,K,D*3F
$GPGGA,175653.000,3748.7672,N,12217.8222,W,2,04,5.0,0.1,M,-25.1,M,1.8,0000*43
$GPGSA,A,3,28,15,07,08,,,,,,,,,5.8,5.0,2.8*31
$GPRMC,175653.000,A,3748.7672,N,12217.8222,W,2.34,90.61,300811,,,D*4B
$GPVTG,90.61,T,,M,2.34,N,4.3,K,D*34
$GPGGA,175654.000,3748.7683,N,12217.8205,W,2,05,4.7,2.3,M,-25.1,M,2.8,0000*4B
$GPGSA,A,3,28,26,15,07,08,,,,,,,,5.5,4.7,2.8*3E
$GPRMC,175654.000,A,3748.7683,N,12217.8205,W,2.29,102.83,300811,,,D*7D
$GPVTG,102.83,T,,M,2.29,N,4.2,K,D*0F
$GPGGA,175655.000,3748.7704,N,12217.8185,W,2,05,4.7,3.1,M,-25.1,M,1.8,0000*4F
$GPGSA,A,3,28,26,15,07,08,,,,,,,,5.5,4.7,2.8*3E
$GPRMC,175655.000,A,3748.7704,N,12217.8185,W,1.85,83.22,300811,,,D*4F
$GPVTG,83.22,T,,M,1.85,N,3.4,K,D*38
$GPGGA,175656.000,3748.7726,N,12217.8161,W,2,05,4.7,4.4,M,-25.1,M,1.8,0000*44
$GPGSA,A,3,28,26,15,07,08,,,,,,,,5.5,4.7,2.8*3E
$GPGSV,3,1,12,28,71,303,23,08,64,061,27,26,46,304,20,07,42,096,33*70
$GPGSV,3,2,12,17,30,186,39,11,19,085,26,15,12,320,20,19,11,038,20*7F
$GPGSV,3,3,12,01,10,102,23,05,09,253,27,24,07,096,22,13,01,154,*78
$GPVTG,61.78,T,,M,2.61,N,4.8,K,D*39
$GPGGA,175657.000,3748.7730,N,12217.8148,W,2,05,4.7,6.2,M,-25.1,M,1.8,0000*4D
$GPGSA,A,3,28,26,15,07,08,,,,,,,,5.5,4.7,2.8*3E
$GPRMC,175657.000,A,3748.7730,N,12217.8148,W,2.77,60.62,300811,,,D*4C
$GPVTG,60.62,T,,M,2.77,N,5.1,K,D*3C
$GPGGA,175658.000,3748.7737,N,12217.8136,W,2,06,1.3,7.2,M,-25.1,M,1.8,0000*4F
$GPGSA,A,3,28,26,15,07,17,08,,,,,,,2.2,1.3,1.8*3A
$GPRMC,175658.000,A,3748.7737,N,12217.8136,W,1.31,110.37,300811,,,D*7A
$GPVTG,110.37,T,,M,1.31,N,2.4,K,D*09
$GPGGA,175659.000,3748.7729,N,12217.8132,W,2,06,1.3,6.2,M,-25.1,M,2.8,0000*47
$GPGSA,A,3,28,26,15,07,17,08,,,,,,,2.2,1.3,1.8*3A
$GPRMC,175659.000,A,3748.7729,N,12217.8132,W,1.32,110.62,300811,,,D*73
$GPVTG,110.62,T,,M,1.32,N,2.4,K,D*0A
$GPGGA,175700.000,3748.7726,N,12217.8125,W,2,05,1.5,5.7,M,-25.1,M,1.8,0000*43
$GPGSA,A,3,28,15,07,17,08,,,,,,,,2.4,1.5,1.9*3F
$GPRMC,175700.000,A,3748.7726,N,12217.8125,W,1.22,113.14,300811,,,D*74
$GPVTG,113.14,T,,M,1.22,N,2.3,K,D*0E
$GPGGA,175701.000,3748.7725,N,12217.8118,W,2,06,1.3,5.2,M,-25.1,M,1.8,0000*4F
$GPGSA,A,3,28,26,15,07,17,08,,,,,,,2.2,1.3,1.8*3A
$GPGSV,3,1,12,28,72,304,24,08,64,061,27,26,46,303,27,07,42,097,34*75
$GPGSV,3,2,12,17,30,186,40,11,19,085,30,15,12,320,21,19,11,038,22*75
$GPGSV,3,3,12,01,10,102,24,05,09,253,26,24,07,096,22,13,01,154,*7E
$GPRMC,175701.000,A,3748.7725,N,12217.8118,W,1.70,113.98,300811,,,D*7B
$GPVTG,113.98,T,,M,1.70,N,3.1,K,D*0E
$GPGGA,175702.000,3748.7727,N,12217.8115,W,2,06,1.3,4.6,M,-25.1,M,1.8,0000*46
$GPGSA,A,3,28,26,15,07,17,08,,,,,,,2.2,1.3,1.8*3A
$GPRMC,175702.000,A,3748.7727,N,12217.8115,W,1.27,113.35,300811,,,D*72
$GPVTG,113.35,T,,M,1.27,N,2.4,K,D*0F
$GPGGA,175703.000,3748.7726,N,12217.8109,W,2,06,1.3,3.9,M,-25.1,M,1.8,0000*43
$GPGSA,A,3,28,26,15,07,17,08,,,,,,,2.2,1.3,1.8*3A
$GPRMC,175703.000,A,3748.7726,N,12217.8109,W,1.78,118.92,300811,,,D*73
$GPVTG,118.92,T,,M,1.78,N,3.3,K,D*05
$GPGGA,175704.000,3748.7724,N,12217.8099,W,2,06,1.3,3.9,M,-25.1,M,2.8,0000*4D
$GPGSA,A,3,28,26,15,07,17,08,,,,,,,2.2,1.3,1.8*3A
$GPRMC,175704.000,A,3748.7724,N,12217.8099,W,1.80,111.36,300811,,,D*7E
$GPVTG,111.36,T,,M,1.80,N,3.3,K,D*05
$GPGGA,175705.000,3748.7722,N,12217.8090,W,2,06,1.3,3.7,M,-25.1,M,3.8,0000*4C
$GPGSA,A,3,28,26,15,07,17,08,,,,,,,2.2,1.3,1.8*3A
$GPRMC,175705.000,A,3748.7722,N,12217.8090,W,1.94,105.50,300811,,,D*70
$GPVTG,105.50,T,,M,1.94,N,3.6,K,D*00
$GPGGA,175706.000,3748.7723,N,12217.8083,W,2,06,1.3,3.8,M,-25.1,M,4.8,0000*44
$GPGSA,A,3,28,26,15,07,17,08,,,,,,,2.2,1.3,1.8*3A
$GPGSV,3,1,12,28,72,304,24,08,64,061,26,26,46,303,22,07,42,097,33*76
$GPGSV,3,2,12,17,30,186,33,11,19,085,20,15,12,320,20,19,11,038,21*72
$GPGSV,3,3,12,01,10,102,24,05,09,253,26,24,07,096,20,13,01,154,*7C
$GPRMC,175706.000,A,3748.7723,N,12217.8083,W,2.07,120.14,300811,,,D*7E
$GPVTG,120.14,T,,M,2.07,N,3.8,K,D*00
$GPGGA,175707.000,3748.7719,N,12217.8068,W,2,06,1.3,3.5,M,-25.1,M,5.8,0000*45
$GPGSA,A,3,28,26,15,07,17,08,,,,,,,2.2,1.3,1.8*3A
$GPRMC,175707.000,A,3748.7719,N,12217.8068,W,1.61,115.34,300811,,,D*74
$GPVTG,115.34,T,,M,1.61,N,3.0,K,D*0F
$GPGGA,175708.000,3748.7717,N,12217.8060,W,2,06,1.3,2.0,M,-25.1,M,1.8,0000*4C
$GPGSA,A,3,28,26,15,07,17,08,,,,,,,2.2,1.3,1.8*3A
$GPRMC,175708.000,A,3748.7717,N,12217.8060,W,1.50,114.66,300811,,,D*79
$GPVTG,114.66,T,,M,1.50,N,2.8,K,D*02
$GPGGA,175709.000,3748.7715,N,12217.8053,W,2,06,1.3,2.6,M,-25.1,M,1.8,0000*49
$GPGSA,A,3,28,26,15,07,17,08,,,,,,,2.2,1.3,1.8*3A
$GPRMC,175709.000,A,3748.7715,N,12217.8053,W,1.20,121.07,300811,,,D*7C
$GPVTG,121.07,T,,M,1.20,N,2.2,K,D*0E
$GPGGA,175710.000,3748.7710,N,12217.8045,W,2,06,1.3,3.4,M,-25.1,M,2.8,0000*43
$GPGSA,A,3,28,26,15,07,17,08,,,,,,,2.2,1.3,1.8*3A
$GPRMC,175710.000,A,3748.7710,N,12217.8045,W,1.25,112.53,300811,,,D*72
$GPVTG,112.53,T,,M,1.25,N,2.3,K,D*0B
$GPGGA,175711.000,3748.7706,N,12217.8039,W,2,06,1.3,3.5,M,-25.1,M,3.8,0000*4E
$GPGSA,A,3,28,26,15,07,17,08,,,,,,,2.2,1.3,1.8*3A
$GPGSV,3,1,12,28,72,304,25,08,64,061,26,26,46,303,22,07,42,097,32*76
$GPGSV,3,2,12,17,30,186,39,11,19,085,28,15,12,320,20,19,11,038,20*71
$GPRMC,175711.000,A,3748.7706,N,12217.8039,W,1.94,116.74,300811,,,D*74
$GPVTG,116.74,T,,M,1.94,N,3.6,K,D*04
$GPGGA,175712.000,3748.7703,N,12217.8031,W,2,06,1.3,4.0,M,-25.1,M,4.8,0000*45
$GPGSA,A,3,28,26,15,07,17,08,,,,,,,2.2,1.3,1.8*3A
$GPRMC,175712.000,A,3748.7703,N,12217.8031,W,1.51,104.64,300811,,,D*71
$GPVTG,104.64,T,,M,1.51,N,2.8,K,D*00
$GPGGA,175713.000,3748.7700,N,12217.8024,W,2,06,1.3,3.8,M,-25.1,M,1.8,0000*49
$GPGSA,A,3,28,26,15,07,17,08,,,,,,,2.2,1.3,1.8*3A
$GPRMC,175713.000,A,3748.7700,N,12217.8024,W,1.10,95.65,300811,,,D*4A
$GPVTG,95.65,T,,M,1.10,N,2.0,K,D*35
$GPGGA,175714.000,3748.7701,N,12217.8019,W,2,06,1.3,2.8,M,-25.1,M,1.8,0000*40
$GPGSA,A,3,28,26,15,07,17,08,,,,,,,2.2,1.3,1.8*3A
$GPRMC,175714.000,A,3748.7701,N,12217.8019,W,1.06,97.87,300811,,,D*4B
$GPVTG,97.87,T,,M,1.06,N,2.0,K,D*3C
$GPGGA,175715.000,3748.7699,N,12217.8010,W,2,06,1.3,2.8,M,-25.1,M,1.8,0000*48
$GPGSA,A,3,28,26,15,07,17,08,,,,,,,2.2,1.3,1.8*3A
$GPRMC,175715.000,A,3748.7699,N,12217.8010,W,1.34,95.80,300811,,,D*47
$GPVTG,95.80,T,,M,1.34,N,2.5,K,D*3D
$GPGGA,175716.000,3748.7698,N,12217.8004,W,2,06,1.3,2.4,M,-25.1,M,2.8,0000*40
$GPGSA,A,3,28,26,15,07,17,08,,,,,,,2.2,1.3,1.8*3A
$GPGSV,3,1,12,28,72,304,25,08,64,061,26,26,46,303,24,07,42,097,32*70
$GPGSV,3,2,12,17,30,186,34,11,19,085,34,15,12,320,20,19,11,038,15*77
$GPGSV,3,3,12,01,10,102,28,05,09,253,32,24,07,096,22,13,01,154,*77
$GPRMC,175716.000,A,3748.7698,N,12217.8004,W,1.70,97.14,300811,,,D*4F
$GPVTG,97.14,T,,M,1.70,N,3.1,K,D*37
$GPGGA,175717.000,3748.7697,N,12217.7997,W,2,06,1.3,2.1,M,-25.1,M,3.8,0000*46
$GPGSA,A,3,28,26,15,07,17,08,,,,,,,2.2,1.3,1.8*3A
$GPRMC,175717.000,A,3748.7697,N,12217.7997,W,1.90,114.26,300811,,,D*78
$GPVTG,114.26,T,,M,1.90,N,3.5,K,D*06
$GPGGA,175718.000,3748.7697,N,12217.7993,W,2,06,1.3,-0.1,M,-25.1,M,4.8,0000*65
$GPGSA,A,3,28,26,15,07,17,08,,,,,,,2.2,1.3,1.8*3A
$GPRMC,175718.000,A,3748.7697,N,12217.7993,W,1.40,96.09,300811,,,D*48
$GPVTG,96.09,T,,M,1.40,N,2.6,K,D*3F
$GPGGA,175719.000,3748.7695,N,12217.7987,W,2,06,1.3,-0.5,M,-25.1,M,1.8,0000*62
$GPGSA,A,3,28,26,15,07,17,08,,,,,,,2.2,1.3,1.8*3A
$GPRMC,175719.000,A,3748.7695,N,12217.7987,W,1.67,108.55,300811,,,D*74
$GPVTG,108.55,T,,M,1.67,N,3.1,K,D*03
$GPGGA,175720.000,3748.7692,N,12217.7979,W,2,06,1.3,-1.0,M,-25.1,M,1.8,0000*6A
$GPGSA,A,3,28,26,15,07,17,08,,,,,,,2.2,1.3,1.8*3A
$GPRMC,175720.000,A,3748.7692,N,12217.7979,W,1.71,110.59,300811,,,D*7A
$GPVTG,110.59,T,,M,1.71,N,3.2,K,D*02
$GPGGA,175721.000,3748.7688,N,12217.7973,W,2,06,1.3,-1.2,M,-25.1,M,1.8,0000*68
$GPGSA,A,3,28,26,15,07,17,08,,,,,,,2.2,1.3,1.8*3A
$GPGSV,3,1,12,28,72,304,25,08,64,061,26,26,46,303,24,07,42,097,32*70
$GPGSV,3,2,12,17,30,186,42,11,19,084,29,15,12,319,20,19,11,038,22*75
$GPGSV,3,3,12,01,10,102,22,05,09,253,32,24,07,096,23,13,01,155,*7D
$GPRMC,175721.000,A,3748.7688,N,12217.7973,W,1.89,114.39,300811,,,D*7F
$GPVTG,114.39,T,,M,1.89,N,3.5,K,D*00
$GPGGA,175722.000,3748.7685,N,12217.7968,W,2,06,1.3,-1.4,M,-25.1,M,2.8,0000*69
$GPGSA,A,3,28,26,15,07,17,08,,,,,,,2.2,1.3,1.8*3A
$GPRMC,175722.000,A,3748.7685,N,12217.7968,W,1.56,107.58,300811,,,D*7C
$GPVTG,107.58,T,,M,1.56,N,2.9,K,D*0A
$GPGGA,175723.000,3748.7684,N,12217.7961,W,2,06,1.3,-2.2,M,-25.1,M,3.8,0000*64
$GPGSA,A,3,28,26,15,07,17,08,,,,,,,2.2,1.3,1.8*3A
$GPRMC,175723.000,A,3748.7684,N,12217.7961,W,1.87,112.62,300811,,,D*74
$GPVTG,112.62,T,,M,1.87,N,3.5,K,D*06
$GPGGA,175724.000,3748.7681,N,12217.7956,W,2,06,1.3,-1.7,M,-25.1,M,4.8,0000*63
$GPGSA,A,3,28,26,15,07,17,08,,,,,,,2.2,1.3,1.8*3A
$GPRMC,175724.000,A,3748.7681,N,12217.7956,W,1.93,102.20,300811,,,D*70
$GPVTG,102.20,T,,M,1.93,N,3.6,K,D*07
$GPGGA,175725.000,3748.7679,N,12217.7948,W,2,06,1.3,-2.3,M,-25.1,M,1.8,0000*68
$GPGSA,A,3,28,26,15,07,17,08,,,,,,,2.2,1.3,1.8*3A
$GPRMC,175725.000,A,3748.7679,N,12217.7948,W,1.60,98.87,300811,,,D*4A
$GPVTG,98.87,T,,M,1.60,N,3.0,K,D*32
$GPGGA,175726.000,3748.7675,N,12217.7944,W,2,06,1.3,-0.6,M,-25.1,M,1.8,0000*6C
$GPGSA,A,3,28,26,15,07,17,08,,,,,,,2.2,1.3,1.8*3A
$GPGSV,3,1,12,28,72,304,26,08,64,061,26,26,46,303,24,07,42,097,32*73
$GPGSV,3,2,12,17,30,186,42,11,19,084,25,15,12,319,26,19,11,038,21*7C
$GPGSV,3,3,12,01,10,102,21,05,09,253,32,24,07,096,22,13,01,155,*7F
$GPRMC,175726.000,A,3748.7675,N,12217.7944,W,1.38,103.19,300811,,,D*70
$GPVTG,103.19,T,,M,1.38,N,2.6,K,D*0C
$GPGGA,175727.000,3748.7669,N,12217.7936,W,2,06,1.3,1.2,M,-25.1,M,1.8,0000*4D
$GPGSA,A,3,28,26,15,07,17,08,,,,,,,2.2,1.3,1.8*3A
$GPRMC,175727.000,A,3748.7669,N,12217.7936,W,1.45,95.13,300811,,,D*47
$GPVTG,95.13,T,,M,1.45,N,2.7,K,D*33
$GPGGA,175728.000,3748.7661,N,12217.7929,W,2,06,1.3,4.6,M,-25.1,M,2.8,0000*46
$GPGSA,A,3,28,26,15,07,17,08,,,,,,,2.2,1.3,1.8*3A
$GPRMC,175728.000,A,3748.7661,N,12217.7929,W,1.28,95.03,300811,,,D*44
$GPVTG,95.03,T,,M,1.28,N,2.4,K,D*3A
$GPGGA,175729.000,3748.7657,N,12217.7919,W,2,06,1.3,4.0,M,-25.1,M,3.8,0000*46
$GPGSA,A,3,28,26,15,07,17,08,,,,,,,2.2,1.3,1.8*3A
$GPRMC,175729.000,A,3748.7657,N,12217.7919,W,1.87,106.78,300811,,,D*71
$GPVTG,106.78,T,,M,1.87,N,3.5,K,D*08
$GPGGA,175730.000,3748.7648,N,12217.7909,W,2,06,1.3,6.8,M,-25.1,M,1.8,0000*49
$GPGSA,A,3,28,26,15,07,17,08,,,,,,,2.2,1.3,1.8*3A
$GPRMC,175730.000,A,3748.7648,N,12217.7909,W,1.75,103.28,300811,,,D*7B
$GPVTG,103.28,T,,M,1.75,N,3.2,K,D*02
$GPGGA,175731.000,3748.7642,N,12217.7902,W,2,06,1.3,8.4,M,-25.1,M,1.8,0000*4B
$GPGSA,A,3,28,26,15,07,17,08,,,,,,,2.2,1.3,1.8*3A
$GPGSV,3,1,12,28,72,304,25,08,64,061,26,26,46,303,24,07,42,097,32*70
$GPGSV,3,2,12,17,30,186,41,11,19,084,28,15,12,319,25,19,11,038,20*70
$GPGSV,3,3,12,01,10,102,22,05,09,253,25,24,07,096,22,13,01,155,*7A
$GPVTG,89.26,T,,M,1.52,N,2.8,K,D*31
$GPGGA,175732.000,3748.7639,N,12217.7893,W,2,06,1.3,9.4,M,-25.1,M,1.8,0000*4C
$GPGSA,A,3,28,26,15,07,17,08,,,,,,,2.2,1.3,1.8*3A
$GPRMC,175732.000,A,3748.7639,N,12217.7893,W,1.53,96.00,300811,,,D*4E
$GPVTG,96.00,T,,M,1.53,N,2.8,K,D*3A
$GPGGA,175733.000,3748.7633,N,12217.7883,W,2,06,1.3,10.1,M,-25.1,M,1.8,0000*7B
$GPGSA,A,3,28,26,15,07,17,08,,,,,,,2.2,1.3,1.8*3A
$GPRMC,175733.000,A,3748.7633,N,12217.7883,W,1.60,105.52,300811,,,D*78
$GPVTG,105.52,T,,M,1.60,N,3.0,K,D*0F
$GPGGA,175734.000,3748.7629,N,12217.7872,W,2,06,1.3,10.1,M,-25.1,M,2.8,0000*7A
$GPGSA,A,3,28,26,15,07,17,08,,,,,,,2.2,1.3,1.8*3A
$GPRMC,175734.000,A,3748.7629,N,12217.7872,W,1.62,98.70,300811,,,D*4D
$GPVTG,98.70,T,,M,1.62,N,3.0,K,D*38
$GPGGA,175735.000,3748.7626,N,12217.7864,W,2,06,1.3,9.4,M,-25.1,M,1.8,0000*4D
$GPGSA,A,3,28,26,15,07,17,08,,,,,,,2.2,1.3,1.8*3A
$GPRMC,175735.000,A,3748.7626,N,12217.7864,W,1.56,98.79,300811,,,D*4A
$GPVTG,98.79,T,,M,1.56,N,2.9,K,D*3E
$GPGGA,175736.000,3748.7624,N,12217.7857,W,2,06,1.3,9.4,M,-25.1,M,2.8,0000*4F
$GPGSA,A,3,28,26,15,07,17,08,,,,,,,2.2,1.3,1.8*3A
$GPGSV,3,1,12,28,72,304,25,08,64,061,26,26,46,303,24,07,42,097,32*70
$GPGSV,3,2,12,17,30,186,37,11,19,084,22,15,12,319,25,19,11,038,20*7B
$GPGSV,3,3,12,01,10,102,20,05,09,253,26,24,07,096,22,13,01,155,*7B
$GPRMC,175736.000,A,3748.7624,N,12217.7857,W,1.44,100.52,300811,,,D*71
$GPVTG,100.52,T,,M,1.44,N,2.7,K,D*0A
$GPGGA,175737.000,3748.7621,N,12217.7852,W,2,06,1.3,10.3,M,-25.1,M,3.8,0000*70
$GPGSA,A,3,28,26,15,07,17,08,,,,,,,2.2,1.3,1.8*3A
$GPRMC,175737.000,A,3748.7621,N,12217.7852,W,0.89,93.85,300811,,,D*41
$GPVTG,93.85,T,,M,0.89,N,1.6,K,D*39
$GPGGA,175738.000,3748.7620,N,12217.7846,W,2,06,1.3,10.7,M,-25.1,M,4.8,0000*78
$GPGSA,A,3,28,26,15,07,17,08,,,,,,,2.2,1.3,1.8*3A
$GPRMC,175738.000,A,3748.7620,N,12217.7846,W,1.44,84.81,300811,,,D*48
$GPVTG,84.81,T,,M,1.44,N,2.7,K,D*39
$GPGGA,175739.000,3748.7621,N,12217.7843,W,2,06,1.3,10.6,M,-25.1,M,1.8,0000*79
$GPGSA,A,3,28,26,15,07,17,08,,,,,,,2.2,1.3,1.8*3A
$GPRMC,175739.000,A,3748.7621,N,12217.7843,W,1.04,90.61,300811,,,D*42
$GPVTG,90.61,T,,M,1.04,N,1.9,K,D*3B
$GPGGA,175740.000,3748.7618,N,12217.7846,W,2,06,1.3,11.7,M,-25.1,M,1.8,0000*78
$GPGSA,A,3,28,26,15,07,17,08,,,,,,,2.2,1.3,1.8*3A
$GPRMC,175740.000,A,3748.7618,N,12217.7846,W,0.53,122.70,300811,,,D*78
$GPVTG,122.70,T,,M,0.53,N,1.0,K,D*09
$GPGGA,175741.000,3748.7612,N,12217.7854,W,2,06,1.3,12.7,M,-25.1,M,2.8,0000*70
$GPGSA,A,3,28,26,15,07,17,08,,,,,,,2.2,1.3,1.8*3A
$GPGSV,3,1,12,28,72,304,25,08,64,061,24,26,46,303,26,07,42,097,24*77
$GPGSV,3,2,12,17,30,186,26,11,19,084,21,15,12,319,21,19,11,038,20*7C
$GPGSV,3,3,12,01,10,102,19,05,09,253,34,24,07,096,21,13,01,155,*71
$GPRMC,175741.000,A,3748.7612,N,12217.7854,W,0.95,175.46,300811,,,D*7D
$GPVTG,175.46,T,,M,0.95,N,1.8,K,D*0C
$GPGGA,175742.000,3748.7605,N,12217.7856,W,2,06,1.3,13.6,M,-25.1,M,3.8,0000*76
$GPGSA,A,3,28,26,15,07,17,08,,,,,,,2.2,1.3,1.8*3A
$GPRMC,175742.000,A,3748.7605,N,12217.7856,W,1.22,151.24,300811,,,D*75
$GPVTG,151.24,T,,M,1.22,N,2.3,K,D*0B
$GPGGA,175743.000,3748.7600,N,12217.7857,W,2,06,1.3,13.3,M,-25.1,M,1.8,0000*74
$GPGSA,A,3,28,26,15,07,17,08,,,,,,,2.2,1.3,1.8*3A
$GPRMC,175743.000,A,3748.7600,N,12217.7857,W,0.94,134.05,300811,,,D*7C
$GPVTG,134.05,T,,M,0.94,N,1.7,K,D*00
$GPGGA,175744.000,3748.7593,N,12217.7859,W,2,06,1.3,13.8,M,-25.1,M,1.8,0000*7F
$GPGSA,A,3,28,26,15,07,17,08,,,,,,,2.2,1.3,1.8*3A
$GPRMC,175744.000,A,3748.7593,N,12217.7859,W,0.86,124.56,300811,,,D*78
$GPVTG,124.56,T,,M,0.86,N,1.6,K,D*05
$GPGGA,175745.000,3748.7585,N,12217.7850,W,2,06,1.3,14.7,M,-25.1,M,1.8,0000*78
$GPGSA,A,3,28,26,15,07,17,08,,,,,,,2.2,1.3,1.8*3A
$GPRMC,175745.000,A,3748.7585,N,12217.7850,W,1.45,135.76,300811,,,D*7B
$GPVTG,135.76,T,,M,1.45,N,2.7,K,D*0B
$GPGGA,175746.000,3748.7576,N,12217.7851,W,2,06,1.3,16.1,M,-25.1,M,1.8,0000*72
$GPGSA,A,3,28,26,15,07,17,08,,,,,,,2.2,1.3,1.8*3A
$GPGSV,3,1,12,28,72,304,26,08,64,061,20,26,46,303,25,07,42,097,23*74
$GPGSV,3,2,12,17,30,186,35,11,19,084,18,15,12,319,20,19,11,038,19*7F
$GPGSV,3,3,12,01,10,102,19,05,09,253,35,24,07,096,21,13,01,155,*70
$GPVTG,132.80,T,,M,1.89,N,3.5,K,D*06
$GPGGA,175747.000,3748.7571,N,12217.7844,W,2,06,1.3,16.4,M,-25.1,M,2.8,0000*76
$GPGSA,A,3,28,26,15,07,17,08,,,,,,,2.2,1.3,1.8*3A
$GPRMC,175747.000,A,3748.7571,N,12217.7844,W,1.68,133.77,300811,,,D*7F
$GPVTG,133.77,T,,M,1.68,N,3.1,K,D*04
$GPGGA,175748.000,3748.7566,N,12217.7842,W,2,06,1.3,16.6,M,-25.1,M,3.8,0000*7A
$GPGSA,A,3,28,26,15,07,17,08,,,,,,,2.2,1.3,1.8*3A
$GPRMC,175748.000,A,3748.7566,N,12217.7842,W,1.45,132.78,300811,,,D*71
$GPVTG,132.78,T,,M,1.45,N,2.7,K,D*02
$GPGGA,175749.000,3748.7555,N,12217.7847,W,2,06,1.3,18.6,M,-25.1,M,1.8,0000*72
$GPGSA,A,3,28,26,15,07,17,08,,,,,,,2.2,1.3,1.8*3A
$GPRMC,175749.000,A,3748.7555,N,12217.7847,W,1.51,151.60,300811,,,D*7C
$GPVTG,151.60,T,,M,1.51,N,2.8,K,D*04
$GPGGA,175750.000,3748.7549,N,12217.7845,W,2,06,1.3,18.9,M,-25.1,M,1.8,0000*7A
$GPGSA,A,3,28,26,15,07,17,08,,,,,,,2.2,1.3,1.8*3A
$GPRMC,175750.000,A,3748.7549,N,12217.7845,W,1.19,135.15,300811,,,D*77
$GPVTG,135.15,T,,M,1.19,N,2.2,K,D*02
$GPGGA,175751.000,3748.7547,N,12217.7837,W,2,06,1.3,18.3,M,-25.1,M,1.8,0000*7A
$GPGSA,A,3,28,26,15,07,17,08,,,,,,,2.2,1.3,1.8*3A
$GPGSV,3,1,12,28,72,304,27,08,64,061,21,26,46,303,24,07,42,097,23*75
$GPGSV,3,2,12,17,30,186,35,11,19,084,19,15,12,319,20,19,11,038,18*7F
$GPGSV,3,3,12,01,10,102,18,05,09,253,35,24,07,096,21,13,01,155,*71
$GPRMC,175751.000,A,3748.7547,N,12217.7837,W,0.96,142.17,300811,,,D*79
$GPVTG,142.17,T,,M,0.96,N,1.8,K,D*0F
$GPGGA,175752.000,3748.7542,N,12217.7830,W,2,06,1.3,18.2,M,-25.1,M,2.8,0000*79
$GPGSA,A,3,28,26,15,07,17,08,,,,,,,2.2,1.3,1.8*3A
$GPRMC,175752.000,A,3748.7542,N,12217.7830,W,1.89,130.08,300811,,,D*7C
$GPVTG,130.08,T,,M,1.89,N,3.5,K,D*04
$GPGGA,175753.000,3748.7539,N,12217.7823,W,2,06,1.3,17.5,M,-25.1,M,3.8,0000*7F
$GPGSA,A,3,28,26,15,07,17,08,,,,,,,2.2,1.3,1.8*3A
$GPRMC,175753.000,A,3748.7539,N,12217.7823,W,1.72,113.91,300811,,,D*76
$GPVTG,113.91,T,,M,1.72,N,3.2,K,D*06
$GPGGA,175754.000,3748.7533,N,12217.7827,W,2,06,1.3,18.0,M,-25.1,M,4.8,0000*7B
$GPGSA,A,3,28,26,15,07,17,08,,,,,,,2.2,1.3,1.8*3A
$GPRMC,175754.000,A,3748.7533,N,12217.7827,W,0.94,152.29,300811,,,D*70
$GPVTG,152.29,T,,M,0.94,N,1.7,K,D*0E
$GPGGA,175755.000,3748.7528,N,12217.7818,W,2,06,1.3,17.9,M,-25.1,M,1.8,0000*7F
$GPGSA,A,3,28,26,15,07,17,08,,,,,,,2.2,1.3,1.8*3A
