$ADVER,3080,2.3
$GPRMC,175104.144,A,3748.7982,N,12217.8474,W,0.44,215.88,300811,,,A*72
$GPRMC,175105.144,A,3748.7976,N,12217.8477,W,0.96,205.58,300811,,,A*78
$GPRMC,175110.144,A,3748.7932,N,12217.8522,W,0.11,68.82,300811,,,A*4C
$GPRMC,175122.144,A,3748.7812,N,12217.8690,W,0.16,200.19,300811,,,A*7D
$GPRMC,175123.144,A,3748.7822,N,12217.8686,W,0.06,169.16,300811,,,A*7A
$GPRMC,175124.144,A,3748.7824,N,12217.8685,W,0.09,190.25,300811,,,A*71
$GPRMC,175125.000,A,3748.7826,N,12217.8684,W,0.10,181.96,300811,,,A*72
$GPRMC,175126.000,A,3748.7828,N,12217.8684,W,0.08,185.86,300811,,,A*73
$GPRMC,175127.000,A,3748.7828,N,12217.8684,W,0.12,185.26,300811,,,A*73
$GPRMC,175128.000,A,3748.7900,N,12217.8654,W,0.11,18.70,300811,,,A*4F
$GPRMC,175129.000,A,3748.7912,N,12217.8649,W,0.11,32.69,300811,,,A*41
$GPRMC,175130.000,A,3748.7917,N,12217.8647,W,0.12,23.69,300811,,,A*41
$GPRMC,175131.000,A,3748.7920,N,12217.8646,W,0.10,20.95,300811,,,A*47
$GPRMC,175132.000,A,3748.7922,N,12217.8645,W,0.10,37.31,300811,,,A*4D
$GPRMC,175133.000,A,3748.7923,N,12217.8644,W,0.08,40.17,300811,,,A*41
$GPRMC,175134.000,A,3748.7924,N,12217.8644,W,0.08,23.26,300811,,,A*46
$GPRMC,175135.000,A,3748.7925,N,12217.8644,W,0.05,35.63,300811,,,A*4D
$GPRMC,175136.000,A,3748.7926,N,12217.8643,W,0.11,32.77,300811,,,A*4D
$GPRMC,175137.000,A,3748.7927,N,12217.8643,W,0.04,19.30,300811,,,A*43
$GPRMC,175138.000,A,3748.7927,N,12217.8643,W,0.10,27.75,300811,,,A*45
$GPRMC,175139.000,A,3748.7928,N,12217.8643,W,0.07,31.75,300811,,,A*4A
$GPRMC,175140.000,A,3748.7929,N,12217.8642,W,0.12,28.43,300811,,,A*4D
$GPRMC,175141.000,A,3748.7929,N,12217.8642,W,0.08,26.26,300811,,,A*4A
$GPRMC,175142.000,A,3748.7930,N,12217.8642,W,0.12,26.91,300811,,,A*46
$GPRMC,175143.000,A,3748.7931,N,12217.8642,W,0.09,29.43,300811,,,A*4C
$GPRMC,175144.000,A,3748.7931,N,12217.8642,W,0.11,31.02,300811,,,A*4E
$GPRMC,175145.000,A,3748.7931,N,12217.8641,W,0.11,28.27,300811,,,A*43
$GPRMC,175146.000,A,3748.7932,N,12217.8641,W,0.11,36.59,300811,,,A*45
$GPRMC,175147.000,A,3748.7932,N,12217.8641,W,0.12,29.33,300811,,,A*45
$GPRMC,175148.000,A,3748.7933,N,12217.8641,W,0.12,39.85,300811,,,A*47
$GPRMC,175149.000,A,3748.7934,N,12217.8641,W,0.14,23.87,300811,,,A*4E
$GPRMC,175150.000,A,3748.7933,N,12217.8641,W,0.15,9.77,300811,,,A*77
$GPRMC,175151.000,A,3748.7933,N,12217.8641,W,0.10,32.04,300811,,,A*4F
$GPRMC,175152.000,A,3748.7961,N,12217.8629,W,0.27,42.16,300811,,,A*45
$GPRMC,175153.000,A,3748.7970,N,12217.8625,W,0.25,45.30,300811,,,A*49
$GPRMC,175154.000,A,3748.7975,N,12217.8623,W,0.23,51.81,300811,,,A*44
$GPRMC,175155.000,A,3748.7978,N,12217.8621,W,0.24,56.14,300811,,,A*46
$GPRMC,175156.000,A,3748.7980,N,12217.8620,W,0.22,56.53,300811,,,A*46
$GPRMC,175157.000,A,3748.7982,N,12217.8619,W,0.20,48.98,300811,,,A*45
$GPRMC,175158.000,A,3748.7983,N,12217.8619,W,0.15,41.24,300811,,,A*43
$GPRMC,175159.000,A,3748.7985,N,12217.8618,W,0.23,60.27,300811,,,A*40
$GPRMC,175200.000,A,3748.7986,N,12217.8617,W,0.18,54.62,300811,,,A*4D
$GPRMC,175201.000,A,3748.7987,N,12217.8617,W,0.23,54.97,300811,,,A*4F
$GPRMC,175202.000,A,3748.7988,N,12217.8616,W,0.09,353.29,300811,,,A*7B
$GPRMC,175203.000,A,3748.7988,N,12217.8616,W,0.09,31.53,300811,,,A*40
$GPRMC,175204.000,A,3748.7989,N,12217.8616,W,0.10,41.75,300811,,,A*4D
$GPRMC,175205.000,A,3748.7990,N,12217.8616,W,0.15,43.17,300811,,,A*47
$GPRMC,175206.000,A,3748.7990,N,12217.8615,W,0.12,31.16,300811,,,A*44
$GPRMC,175207.000,A,3748.7992,N,12217.8615,W,0.14,34.69,300811,,,A*4C
$GPRMC,175208.000,A,3748.7993,N,12217.8614,W,0.10,7.55,300811,,,A*78
$GPRMC,175209.000,A,3748.7994,N,12217.8613,W,0.18,39.51,300811,,,A*48
$GPRMC,175210.000,A,3748.7995,N,12217.8612,W,0.22,46.72,300811,,,A*40
$GPRMC,175211.000,A,3748.7995,N,12217.8614,W,0.10,6.04,300811,,,A*73
$GPRMC,175212.000,A,3748.7996,N,12217.8614,W,0.24,34.47,300811,,,A*42
$GPRMC,175213.000,A,3748.7994,N,12217.8617,W,0.50,271.72,300811,,,A*74
$GPRMC,175214.000,A,3748.7991,N,12217.8617,W,0.72,158.99,300811,,,A*7B
$GPRMC,175215.000,A,3748.7994,N,12217.8610,W,0.90,66.08,300811,,,A*40
$GPRMC,175216.000,A,3748.7995,N,12217.8609,W,1.37,52.62,300811,,,A*4D
$GPRMC,175217.000,A,3748.7994,N,12217.8610,W,0.75,47.99,300811,,,A*42
$GPRMC,175218.000,A,3748.7990,N,12217.8608,W,0.73,85.01,300811,,,A*49
$GPRMC,175219.000,A,3748.7989,N,12217.8608,W,0.33,117.70,300811,,,A*78
$GPRMC,175220.000,A,3748.7987,N,12217.8611,W,0.34,93.76,300811,,,A*48
$GPRMC,175221.000,A,3748.7987,N,12217.8613,W,0.41,91.27,300811,,,A*4F
$GPRMC,175222.000,A,3748.7986,N,12217.8613,W,0.46,243.90,300811,,,A*7B
$GPRMC,175223.000,A,3748.7985,N,12217.8609,W,0.55,256.04,300811,,,A*79
$GPRMC,175224.000,A,3748.7985,N,12217.8611,W,0.12,128.01,300811,,,A*7B
$GPRMC,175225.000,A,3748.7985,N,12217.8608,W,0.26,339.82,300811,,,A*7C
$GPRMC,175226.000,A,3748.7985,N,12217.8615,W,0.26,292.49,300811,,,A*74
$GPRMC,175227.000,A,3748.7980,N,12217.8614,W,0.45,85.42,300811,,,A*4B
$GPRMC,175228.000,A,3748.7981,N,12217.8607,W,0.93,118.30,300811,,,A*7C
$GPRMC,175229.000,A,3748.7978,N,12217.8603,W,0.41,15.20,300811,,,A*4D
$GPRMC,175230.000,A,3748.7983,N,12217.8609,W,0.92,339.66,300811,,,A*7A
$GPRMC,175231.000,A,3748.7987,N,12217.8611,W,0.58,326.52,300811,,,A*79
$GPRMC,175232.000,A,3748.7993,N,12217.8613,W,0.55,5.28,300811,,,A*7F
$GPRMC,175233.000,A,3748.7998,N,12217.8615,W,0.15,71.63,300811,,,A*4B
$GPRMC,175234.000,A,3748.7999,N,12217.8619,W,0.27,192.52,300811,,,A*7E
$GPRMC,175235.000,A,3748.7999,N,12217.8625,W,0.39,221.61,300811,,,A*74
$GPRMC,175236.000,A,3748.8000,N,12217.8626,W,0.19,289.78,300811,,,A*7A
$GPRMC,175237.000,A,3748.8000,N,12217.8628,W,0.47,130.52,300811,,,A*77
$GPRMC,175238.000,A,3748.8000,N,12217.8631,W,0.33,38.55,300811,,,A*4D
$GPRMC,175239.000,A,3748.8003,N,12217.8630,W,1.38,19.79,300811,,,A*49
$GPRMC,175240.000,A,3748.8004,N,12217.8630,W,0.78,0.22,300811,,,A*73
$GPRMC,175241.000,A,3748.8005,N,12217.8630,W,0.65,101.78,300811,,,A*70
$GPRMC,175242.000,A,3748.8005,N,12217.8633,W,0.60,355.93,300811,,,A*73
$GPRMC,175243.000,A,3748.8008,N,12217.8628,W,0.69,57.11,300811,,,A*47
$GPRMC,175244.000,A,3748.8012,N,12217.8621,W,0.81,42.05,300811,,,A*45
$GPRMC,175245.000,A,3748.8016,N,12217.8613,W,0.42,50.70,300811,,,A*4F
$GPRMC,175246.000,A,3748.8017,N,12217.8609,W,0.06,143.59,300811,,,A*7E
$GPRMC,175247.000,A,3748.8016,N,12217.8613,W,0.40,247.65,300811,,,A*7F
$GPRMC,175248.000,A,3748.8017,N,12217.8613,W,0.17,220.91,300811,,,A*79
$GPRMC,175249.000,A,3748.8017,N,12217.8612,W,0.24,267.68,300811,,,A*7C
$GPRMC,175250.000,A,3748.8019,N,12217.8611,W,0.52,38.90,300811,,,A*47
$GPRMC,175251.000,A,3748.8012,N,12217.8616,W,0.87,334.57,300811,,,A*76
$GPRMC,175252.000,A,3748.8009,N,12217.8620,W,0.48,117.49,300811,,,A*75
$GPRMC,175253.000,A,3748.8005,N,12217.8621,W,0.08,134.05,300811,,,A*74
$GPRMC,175254.000,A,3748.8001,N,12217.8624,W,0.61,177.63,300811,,,A*7A
$GPRMC,175255.000,A,3748.7998,N,12217.8624,W,0.97,159.88,300811,,,A*7D
$GPRMC,175256.000,A,3748.7996,N,12217.8621,W,0.65,86.72,300811,,,A*4E
$GPRMC,175257.000,A,3748.7998,N,12217.8622,W,0.63,82.95,300811,,,A*49
$GPRMC,175258.000,A,3748.8001,N,12217.8623,W,0.56,123.30,300811,,,A*72
$GPRMC,175259.000,A,3748.8002,N,12217.8624,W,0.17,4.34,300811,,,A*72
$GPRMC,175300.000,A,3748.8005,N,12217.8620,W,0.37,42.88,300811,,,A*4B
$GPRMC,175301.000,A,3748.8003,N,12217.8623,W,0.59,283.03,300811,,,A*7B
$GPRMC,175302.000,A,3748.8001,N,12217.8623,W,0.23,269.13,300811,,,A*72
$GPRMC,175303.000,A,3748.8000,N,12217.8622,W,0.22,166.56,300811,,,A*7F
$GPRMC,175304.000,A,3748.7996,N,12217.8624,W,0.30,270.71,300811,,,A*75
$GPRMC,175305.000,A,3748.7998,N,12217.8625,W,0.50,316.05,300811,,,A*7F
$GPRMC,175306.000,A,3748.7997,N,12217.8621,W,0.26,326.62,300811,,,A*74
$GPRMC,175307.000,A,3748.7996,N,12217.8617,W,0.23,85.42,300811,,,A*4C
$GPRMC,175308.000,A,3748.7995,N,12217.8612,W,0.53,93.44,300811,,,A*43
$GPRMC,175309.000,A,3748.7994,N,12217.8610,W,0.50,322.41,300811,,,A*7E
$GPRMC,175310.000,A,3748.7998,N,12217.8608,W,0.84,3.84,300811,,,A*73
$GPRMC,175311.000,A,3748.8001,N,12217.8607,W,0.22,2.09,300811,,,A*73
$GPRMC,175312.000,A,3748.8003,N,12217.8607,W,0.22,53.55,300811,,,A*4F
$GPRMC,175313.000,A,3748.8005,N,12217.8606,W,0.20,60.16,300811,,,A*4C
$GPRMC,175314.000,A,3748.8005,N,12217.8606,W,0.33,183.18,300811,,,A*7B
$GPRMC,175315.000,A,3748.8004,N,12217.8606,W,0.20,83.24,300811,,,A*47
$GPRMC,175316.000,A,3748.8004,N,12217.8608,W,0.74,48.90,300811,,,A*43
$GPRMC,175317.000,A,3748.8006,N,12217.8608,W,0.60,5.15,300811,,,A*71
$GPRMC,175318.000,A,3748.8007,N,12217.8608,W,0.09,19.94,300811,,,A*44
$GPRMC,175319.000,A,3748.8007,N,12217.8609,W,0.05,130.47,300811,,,A*7C
$GPRMC,175320.000,A,3748.8007,N,12217.8608,W,0.20,81.53,300811,,,A*4E
$GPRMC,175321.000,A,3748.8007,N,12217.8609,W,0.02,9.86,300811,,,A*76
$GPRMC,175322.000,A,3748.8007,N,12217.8609,W,0.13,342.53,300811,,,A*71
$GPRMC,175323.000,A,3748.8007,N,12217.8609,W,0.21,332.29,300811,,,D*7E
$GPRMC,175324.000,A,3748.8009,N,12217.8613,W,0.13,333.43,300811,,,D*70
$GPRMC,175325.000,A,3748.8009,N,12217.8615,W,0.31,320.57,300811,,,D*70
$GPRMC,175326.000,A,3748.8006,N,12217.8620,W,0.22,187.07,300811,,,D*72
$GPRMC,175327.000,A,3748.7999,N,12217.8628,W,0.22,141.85,300811,,,D*7B
$GPRMC,175328.000,A,3748.7994,N,12217.8635,W,0.06,34.92,300811,,,D*46
$GPRMC,175329.000,A,3748.7992,N,12217.8638,W,0.14,75.12,300811,,,D*42
$GPRMC,175330.000,A,3748.7990,N,12217.8633,W,0.52,91.16,300811,,,D*4F
$GPRMC,175331.000,A,3748.7985,N,12217.8629,W,0.97,117.67,300811,,,D*71
$GPRMC,175332.000,A,3748.7985,N,12217.8631,W,0.64,112.28,300811,,,D*79
$GPRMC,175333.000,A,3748.7986,N,12217.8636,W,0.21,299.02,300811,,,D*75
$GPRMC,175334.000,A,3748.7990,N,12217.8640,W,0.20,308.39,300811,,,D*74
$GPRMC,175335.000,A,3748.7993,N,12217.8641,W,0.42,37.75,300811,,,D*44
$GPRMC,175336.000,A,3748.7993,N,12217.8645,W,0.56,63.64,300811,,,D*47
$GPRMC,175337.000,A,3748.7989,N,12217.8650,W,0.08,219.87,300811,,,D*70
$GPRMC,175338.000,A,3748.7989,N,12217.8663,W,0.49,304.77,300811,,,D*78
$GPRMC,175339.000,A,3748.7986,N,12217.8672,W,0.28,311.43,300811,,,D*72
$GPRMC,175340.000,A,3748.7987,N,12217.8681,W,0.46,304.78,300811,,,A*70
$GPRMC,175341.000,A,3748.7982,N,12217.8689,W,0.40,287.18,300811,,,A*76
$GPRMC,175342.000,A,3748.7982,N,12217.8686,W,0.88,62.35,300811,,,A*48
$GPRMC,175343.000,A,3748.7981,N,12217.8689,W,0.60,352.98,300811,,,A*74
$GPRMC,175344.000,A,3748.7981,N,12217.8684,W,0.22,14.72,300811,,,A*4D
$GPRMC,175345.000,A,3748.7980,N,12217.8689,W,0.25,311.01,300811,,,A*75
$GPRMC,175346.000,A,3748.7981,N,12217.8692,W,0.26,304.61,300811,,,A*7C
$GPRMC,175347.000,A,3748.7981,N,12217.8693,W,0.39,40.46,300811,,,A*44
$GPRMC,175348.000,A,3748.7982,N,12217.8688,W,0.46,359.09,300811,,,A*7A
$GPRMC,175349.000,A,3748.7981,N,12217.8683,W,0.35,9.57,300811,,,A*7A
$GPRMC,175350.000,A,3748.7983,N,12217.8678,W,0.45,319.94,300811,,,A*7E
$GPRMC,175351.000,A,3748.7984,N,12217.8673,W,0.13,322.29,300811,,,A*7E
$GPRMC,175352.000,A,3748.7984,N,12217.8669,W,0.14,329.73,300811,,,A*75
$GPRMC,175353.000,A,3748.7981,N,12217.8662,W,0.10,86.35,300811,,,A*4A
$GPRMC,175354.000,A,3748.7976,N,12217.8652,W,0.34,135.71,300811,,,A*79
$GPRMC,175355.000,A,3748.7972,N,12217.8648,W,0.21,199.80,300811,,,A*7B
$GPRMC,175356.000,A,3748.7973,N,12217.8647,W,0.09,20.04,300811,,,A*43
$GPRMC,175357.000,A,3748.7972,N,12217.8655,W,0.66,270.30,300811,,,A*79
$GPRMC,175358.000,A,3748.7973,N,12217.8657,W,0.58,247.92,300811,,,A*74
$GPRMC,175359.000,A,3748.7970,N,12217.8660,W,0.60,275.06,300811,,,A*75
$GPRMC,175400.000,A,3748.7970,N,12217.8664,W,0.79,275.51,300811,,,A*70
$GPRMC,175401.000,A,3748.7972,N,12217.8667,W,0.76,280.70,300811,,,A*76
$GPRMC,175402.000,A,3748.7972,N,12217.8668,W,0.19,319.84,300811,,,A*79
$GPRMC,175403.000,A,3748.7971,N,12217.8659,W,0.20,320.15,300811,,,A*71
$GPRMC,175404.000,A,3748.7971,N,12217.8653,W,0.33,3.05,300811,,,A*7D
$GPRMC,175405.000,A,3748.7973,N,12217.8661,W,0.18,310.59,300811,,,A*7E
$GPRMC,175406.000,A,3748.7973,N,12217.8670,W,0.28,268.49,300811,,,A*71
$GPRMC,175407.000,A,3748.7968,N,12217.8678,W,0.23,256.01,300811,,,A*78
$GPRMC,175408.000,A,3748.7966,N,12217.8679,W,0.19,237.67,300811,,,A*76
$GPRMC,175409.000,A,3748.7964,N,12217.8679,W,0.11,321.86,300811,,,A*74
$GPRMC,175410.000,A,3748.7963,N,12217.8679,W,0.09,297.32,300811,,,A*71
$GPRMC,175411.000,A,3748.7961,N,12217.8679,W,0.16,304.94,300811,,,A*7B
$GPRMC,175412.000,A,3748.7959,N,12217.8681,W,0.12,335.27,300811,,,A*7A
$GPRMC,175413.000,A,3748.7958,N,12217.8681,W,0.07,339.36,300811,,,A*72
$GPRMC,175414.000,A,3748.7958,N,12217.8681,W,0.08,13.28,300811,,,A*4E
$GPRMC,175415.000,A,3748.7963,N,12217.8680,W,0.21,31.40,300811,,,A*43
$GPRMC,175416.000,A,3748.7968,N,12217.8679,W,0.20,317.21,300811,,,A*7C
$GPRMC,175417.000,A,3748.7971,N,12217.8678,W,0.17,43.52,300811,,,A*46
$GPRMC,175418.000,A,3748.7971,N,12217.8679,W,0.18,59.99,300811,,,A*4B
$GPRMC,175419.000,A,3748.7974,N,12217.8678,W,0.15,24.61,300811,,,A*4E
$GPRMC,175420.000,A,3748.7974,N,12217.8680,W,0.19,318.30,300811,,,A*77
$GPRMC,175421.000,A,3748.7979,N,12217.8679,W,0.24,315.11,300811,,,A*7D
$GPRMC,175422.000,A,3748.7984,N,12217.8679,W,0.31,314.68,300811,,,A*77
$GPRMC,175423.000,A,3748.7985,N,12217.8681,W,0.23,295.79,300811,,,A*7B
$GPRMC,175424.000,A,3748.7986,N,12217.8684,W,0.59,279.64,300811,,,A*79
$GPRMC,175425.000,A,3748.7986,N,12217.8693,W,0.21,298.41,300811,,,A*79
$GPRMC,175426.000,A,3748.7984,N,12217.8690,W,0.19,338.74,300811,,,A*7D
$GPRMC,175427.000,A,3748.7985,N,12217.8687,W,0.68,307.67,300811,,,A*73
$GPRMC,175428.000,A,3748.7986,N,12217.8684,W,0.28,296.79,300811,,,A*7E
$GPRMC,175429.000,A,3748.7985,N,12217.8684,W,0.23,283.62,300811,,,A*79
$GPRMC,175430.000,A,3748.7985,N,12217.8681,W,0.35,69.04,300811,,,A*45
$GPRMC,175431.000,A,3748.7988,N,12217.8678,W,0.32,79.22,300811,,,A*4D
$GPRMC,175432.000,A,3748.7990,N,12217.8685,W,0.42,293.36,300811,,,A*71
$GPRMC,175433.000,A,3748.7992,N,12217.8682,W,0.02,338.68,300811,,,A*7A
$GPRMC,175434.000,A,3748.7992,N,12217.8678,W,0.11,294.85,300811,,,A*7E
$GPRMC,175435.000,A,3748.7993,N,12217.8674,W,0.31,259.84,300811,,,A*70
$GPRMC,175436.000,A,3748.7992,N,12217.8670,W,0.29,189.78,300811,,,A*72
$GPRMC,175437.000,A,3748.7991,N,12217.8667,W,0.28,276.22,300811,,,A*7B
$GPRMC,175438.000,A,3748.7989,N,12217.8668,W,0.23,115.89,300811,,,A*7E
$GPRMC,175439.000,A,3748.7988,N,12217.8669,W,0.22,95.60,300811,,,A*40
$GPRMC,175440.000,A,3748.7986,N,12217.8670,W,0.17,27.27,300811,,,A*44
$GPRMC,175441.000,A,3748.7985,N,12217.8671,W,0.19,61.86,300811,,,A*40
$GPRMC,175442.000,A,3748.7983,N,12217.8672,W,0.07,171.31,300811,,,A*75
$GPRMC,175443.000,A,3748.7982,N,12217.8667,W,0.15,72.85,300811,,,A*4F
$GPRMC,175444.000,A,3748.7979,N,12217.8670,W,0.23,279.52,300811,,,A*7C
$GPRMC,175445.000,A,3748.7977,N,12217.8672,W,0.23,216.62,300811,,,A*7B
$GPRMC,175446.000,A,3748.7974,N,12217.8671,W,0.32,265.62,300811,,,A*7C
$GPRMC,175447.000,A,3748.7973,N,12217.8670,W,0.17,264.12,300811,,,A*7A
$GPRMC,175448.000,A,3748.7970,N,12217.8669,W,0.12,237.11,300811,,,A*7E
$GPRMC,175449.000,A,3748.7968,N,12217.8667,W,0.15,108.12,300811,,,A*73
$GPRMC,175450.000,A,3748.7964,N,12217.8667,W,0.12,125.81,300811,,,A*75
$GPRMC,175451.000,A,3748.7960,N,12217.8673,W,0.07,189.55,300811,,,A*7E
$GPRMC,175452.000,A,3748.7958,N,12217.8678,W,0.21,207.56,300811,,,A*7F
$GPRMC,175453.000,A,3748.7957,N,12217.8682,W,0.11,173.57,300811,,,A*76
$GPRMC,175454.000,A,3748.7956,N,12217.8685,W,0.06,59.10,300811,,,A*4B
$GPRMC,175455.000,A,3748.7955,N,12217.8686,W,0.14,78.36,300811,,,A*4E
$GPRMC,175456.000,A,3748.7955,N,12217.8686,W,0.13,64.46,300811,,,A*40
$GPRMC,175457.000,A,3748.7955,N,12217.8685,W,0.14,69.83,300811,,,A*41
$GPRMC,175458.000,A,3748.7957,N,12217.8685,W,0.29,66.87,300811,,,A*49
$GPRMC,175459.000,A,3748.7957,N,12217.8684,W,0.40,58.19,300811,,,A*4C
$GPRMC,175500.000,A,3748.7958,N,12217.8681,W,0.37,49.34,300811,,,A*44
$GPRMC,175501.000,A,3748.7959,N,12217.8679,W,0.36,29.68,300811,,,A*4D
$GPRMC,175502.000,A,3748.7960,N,12217.8678,W,0.22,30.48,300811,,,A*4A
$GPRMC,175503.000,A,3748.7961,N,12217.8677,W,0.46,330.48,300811,,,A*74
$GPRMC,175504.000,A,3748.7963,N,12217.8670,W,0.25,66.65,300811,,,A*4C
$GPRMC,175505.000,A,3748.7964,N,12217.8674,W,0.29,123.52,300811,,,A*76
$GPRMC,175506.000,A,3748.7964,N,12217.8677,W,0.08,235.18,300811,,,A*7F
$GPRMC,175507.000,A,3748.7965,N,12217.8680,W,0.24,162.37,300811,,,A*75
$GPRMC,175508.000,A,3748.7962,N,12217.8676,W,0.24,97.13,300811,,,A*49
$GPRMC,175509.000,A,3748.7961,N,12217.8675,W,0.23,16.70,300811,,,A*43
$GPRMC,175510.000,A,3748.7959,N,12217.8675,W,0.40,175.94,300811,,,A*7B
$GPRMC,175511.000,A,3748.7957,N,12217.8671,W,0.19,143.25,300811,,,A*73
$GPRMC,175512.000,A,3748.7956,N,12217.8669,W,0.17,190.30,300811,,,A*7C
$GPRMC,175513.000,A,3748.7958,N,12217.8668,W,0.15,237.22,300811,,,A*7D
$GPRMC,175514.000,A,3748.7959,N,12217.8667,W,0.38,224.89,300811,,,A*78
$GPRMC,175515.000,A,3748.7961,N,12217.8669,W,0.11,317.35,300811,,,A*71
$GPRMC,175516.000,A,3748.7963,N,12217.8664,W,0.37,67.06,300811,,,A*4D
$GPRMC,175517.000,A,3748.7966,N,12217.8660,W,0.34,83.59,300811,,,A*4E
$GPRMC,175518.000,A,3748.7966,N,12217.8656,W,0.39,327.44,300811,,,A*78
$GPRMC,175519.000,A,3748.7968,N,12217.8655,W,0.37,2.11,300811,,,A*7E
$GPRMC,175520.000,A,3748.7973,N,12217.8652,W,0.21,42.24,300811,,,A*4C
$GPRMC,175521.000,A,3748.7978,N,12217.8650,W,0.21,50.43,300811,,,A*46
$GPRMC,175522.000,A,3748.7984,N,12217.8646,W,0.32,13.90,300811,,,A*4A
$GPRMC,175523.000,A,3748.7985,N,12217.8646,W,0.09,297.99,300811,,,A*75
$GPRMC,175524.000,A,3748.7988,N,12217.8643,W,0.30,56.20,300811,,,A*4D
$GPRMC,175525.000,A,3748.7988,N,12217.8639,W,0.27,50.78,300811,,,A*4C
$GPRMC,175526.000,A,3748.7990,N,12217.8637,W,0.30,95.62,300811,,,A*4C
$GPRMC,175527.000,A,3748.7990,N,12217.8635,W,0.11,86.97,300811,,,A*44
$GPRMC,175528.000,A,3748.7991,N,12217.8635,W,0.12,79.70,300811,,,A*40
$GPRMC,175529.000,A,3748.7992,N,12217.8632,W,0.29,82.09,300811,,,A*47
$GPRMC,175530.000,A,3748.7994,N,12217.8633,W,0.28,81.86,300811,,,A*4D
$GPRMC,175531.000,A,3748.7995,N,12217.8632,W,0.19,83.83,300811,,,A*49
$GPRMC,175532.000,A,3748.7993,N,12217.8631,W,0.07,110.09,300811,,,A*79
$GPRMC,175533.000,A,3748.7993,N,12217.8630,W,0.12,335.07,300811,,,A*76
$GPRMC,175534.000,A,3748.7992,N,12217.8628,W,0.05,12.00,300811,,,A*4E
$GPRMC,175535.000,A,3748.7990,N,12217.8628,W,0.02,201.47,300811,,,A*79
$GPRMC,175536.000,A,3748.7988,N,12217.8628,W,0.03,1.04,300811,,,A*77
$GPRMC,175537.000,A,3748.7987,N,12217.8627,W,0.06,245.21,300811,,,A*76
$GPRMC,175538.000,A,3748.7987,N,12217.8627,W,0.19,294.73,300811,,,A*7C
$GPRMC,175539.000,A,3748.7986,N,12217.8626,W,0.29,109.18,300811,,,A*74
$GPRMC,175540.000,A,3748.7986,N,12217.8625,W,0.02,326.79,300811,,,A*78
$GPRMC,175541.000,A,3748.7985,N,12217.8625,W,0.07,303.05,300811,,,A*73
$GPRMC,175542.000,A,3748.7985,N,12217.8625,W,0.09,348.46,300811,,,A*76
$GPRMC,175543.000,A,3748.7985,N,12217.8625,W,0.15,288.68,300811,,,A*7B
$GPRMC,175544.000,A,3748.7984,N,12217.8626,W,0.37,213.51,300811,,,A*76
$GPRMC,175545.000,A,3748.7984,N,12217.8626,W,0.52,320.07,300811,,,A*76
$GPRMC,175546.000,A,3748.7984,N,12217.8629,W,0.46,298.10,300811,,,A*7B
$GPRMC,175547.000,A,3748.7985,N,12217.8635,W,0.24,333.71,300811,,,A*75
$GPRMC,175548.000,A,3748.7987,N,12217.8636,W,0.63,48.59,300811,,,A*4D
$GPRMC,175549.000,A,3748.7992,N,12217.8635,W,0.79,15.84,300811,,,A*48
$GPRMC,175550.000,A,3748.7995,N,12217.8638,W,0.54,350.24,300811,,,A*7D
$GPRMC,175551.000,A,3748.7997,N,12217.8646,W,0.80,275.58,300811,,,A*73
$GPRMC,175552.000,A,3748.7996,N,12217.8654,W,1.51,237.74,300811,,,A*77
$GPRMC,175553.000,A,3748.7993,N,12217.8664,W,1.73,204.32,300811,,,A*72
$GPRMC,175554.000,A,3748.7986,N,12217.8672,W,1.83,175.80,300811,,,A*75
$GPRMC,175555.000,A,3748.7981,N,12217.8682,W,1.29,190.97,300811,,,A*71
$GPRMC,175556.000,A,3748.7974,N,12217.8693,W,1.13,206.88,300811,,,A*73
$GPRMC,175557.000,A,3748.7967,N,12217.8701,W,1.12,198.08,300811,,,A*77
$GPRMC,175558.000,A,3748.7962,N,12217.8711,W,1.05,202.56,300811,,,A*71
$GPRMC,175559.000,A,3748.7959,N,12217.8720,W,0.99,195.71,300811,,,A*76
$GPRMC,175600.000,A,3748.7954,N,12217.8725,W,1.25,201.89,300811,,,A*7E
$GPRMC,175601.000,A,3748.7950,N,12217.8727,W,1.26,172.07,300811,,,A*7B
$GPRMC,175602.000,A,3748.7946,N,12217.8730,W,1.16,182.66,300811,,,A*72
$GPRMC,175603.000,A,3748.7942,N,12217.8731,W,0.92,187.25,300811,,,A*79
$GPRMC,175604.000,A,3748.7937,N,12217.8737,W,0.85,216.91,300811,,,A*78
$GPRMC,175605.000,A,3748.7933,N,12217.8740,W,1.03,160.01,300811,,,A*79
$GPRMC,175606.000,A,3748.7931,N,12217.8740,W,0.97,150.91,300811,,,A*7E
$GPRMC,175607.000,A,3748.7932,N,12217.8739,W,0.56,148.10,300811,,,A*7F
$GPRMC,175608.000,A,3748.7927,N,12217.8741,W,0.49,183.33,300811,,,A*73
$GPRMC,175609.000,A,3748.7924,N,12217.8743,W,0.93,212.17,300811,,,A*79
$GPRMC,175610.000,A,3748.7918,N,12217.8748,W,0.79,208.97,300811,,,A*72
$GPRMC,175611.000,A,3748.7913,N,12217.8756,W,0.40,215.85,300811,,,A*72
$GPRMC,175612.000,A,3748.7907,N,12217.8758,W,1.27,162.76,300811,,,A*75
$GPRMC,175613.000,A,3748.7903,N,12217.8758,W,1.05,161.47,300811,,,A*71
$GPRMC,175614.000,A,3748.7905,N,12217.8758,W,0.98,163.97,300811,,,A*7A
$GPRMC,175615.000,A,3748.7899,N,12217.8759,W,1.45,147.89,300811,,,A*76
$GPRMC,175616.000,A,3748.7891,N,12217.8761,W,1.28,178.53,300811,,,A*76
$GPRMC,175617.000,A,3748.7886,N,12217.8763,W,1.45,180.72,300811,,,A*7C
$GPRMC,175618.000,A,3748.7879,N,12217.8764,W,1.93,174.70,300811,,,A*76
$GPRMC,175619.000,A,3748.7869,N,12217.8766,W,1.76,178.35,300811,,,A*72
$GPRMC,175620.000,A,3748.7866,N,12217.8766,W,1.11,164.68,300811,,,A*73
$GPRMC,175621.000,A,3748.7860,N,12217.8768,W,1.09,157.29,300811,,,A*76
$GPRMC,175622.000,A,3748.7859,N,12217.8770,W,0.32,127.13,300811,,,A*71
$GPRMC,175623.000,A,3748.7855,N,12217.8780,W,0.26,331.42,300811,,,A*77
$GPRMC,175624.000,A,3748.7860,N,12217.8785,W,0.10,190.71,300811,,,A*7F
$GPRMC,175625.000,A,3748.7853,N,12217.8791,W,0.97,163.82,300811,,,A*74
$GPRMC,175626.000,A,3748.7849,N,12217.8796,W,2.12,190.25,300811,,,A*75
$GPRMC,175627.000,A,3748.7840,N,12217.8803,W,1.34,162.84,300811,,,A*7F
$GPRMC,175628.000,A,3748.7842,N,12217.8806,W,0.45,223.68,300811,,,A*74
$GPRMC,175629.000,A,3748.7847,N,12217.8805,W,1.00,138.75,300811,,,A*76
$GPRMC,175630.000,A,3748.7850,N,12217.8805,W,1.19,172.55,300811,,,A*7C
$GPRMC,175631.000,A,3748.7850,N,12217.8811,W,0.61,197.63,300811,,,A*78
$GPRMC,175632.000,A,3748.7845,N,12217.8816,W,1.43,212.12,300811,,,A*71
$GPRMC,175633.000,A,3748.7840,N,12217.8821,W,1.07,175.38,300811,,,A*7B
$GPRMC,175634.000,A,3748.7831,N,12217.8829,W,1.40,189.02,300811,,,A*7B
$GPRMC,175635.000,A,3748.7820,N,12217.8836,W,2.54,206.36,300811,,,A*71
$GPRMC,175636.000,A,3748.7809,N,12217.8851,W,1.99,195.93,300811,,,A*7C
$GPRMC,175637.000,A,3748.7801,N,12217.8856,W,1.57,199.94,300811,,,A*7B
$GPRMC,175638.000,A,3748.7793,N,12217.8862,W,1.61,181.50,300811,,,A*73
$GPRMC,175639.000,A,3748.7784,N,12217.8868,W,1.66,194.99,300811,,,A*78
$GPRMC,175640.000,A,3748.7775,N,12217.8874,W,1.64,189.28,300811,,,A*71
$GPRMC,175641.000,A,3748.7768,N,12217.8880,W,1.46,189.09,300811,,,A*74
$GPRMC,175642.000,A,3748.7761,N,12217.8881,W,1.12,136.02,300811,,,A*71
$GPRMC,175643.000,A,3748.7755,N,12217.8879,W,1.32,151.51,300811,,,A*75
$GPRMC,175644.000,A,3748.7746,N,12217.8885,W,0.91,143.25,300811,,,A*7B
$GPRMC,175645.000,A,3748.7741,N,12217.8894,W,1.01,179.51,300811,,,A*7F
$GPRMC,175646.000,A,3748.7735,N,12217.8903,W,0.95,176.09,300811,,,A*7E
$GPRMC,175647.000,A,3748.7732,N,12217.8908,W,1.05,174.61,300811,,,A*77
$GPRMC,175648.000,A,3748.7731,N,12217.8909,W,0.51,134.36,300811,,,A*7C
$GPRMC,175649.000,A,3748.7724,N,12217.8916,W,0.56,148.88,300811,,,A*7E
$GPRMC,175650.000,A,3748.7715,N,12217.8923,W,0.82,160.38,300811,,,A*7A
$GPRMC,175651.000,A,3748.7706,N,12217.8926,W,1.35,172.17,300811,,,A*7F
$GPRMC,175652.000,A,3748.7696,N,12217.8934,W,1.28,174.50,300811,,,A*7E
$GPRMC,175653.000,A,3748.7691,N,12217.8936,W,0.85,169.58,300811,,,A*78
$GPRMC,175654.000,A,3748.7684,N,12217.8943,W,1.56,185.06,300811,,,A*7F
$GPRMC,175655.000,A,3748.7675,N,12217.8950,W,1.52,183.44,300811,,,A*76
$GPRMC,175656.000,A,3748.7668,N,12217.8954,W,1.51,174.11,300811,,,A*76
$GPRMC,175657.000,A,3748.7664,N,12217.8956,W,0.66,198.83,300811,,,A*75
$GPRMC,175658.000,A,3748.7660,N,12217.8959,W,0.81,170.55,300811,,,A*75
$GPRMC,175659.000,A,3748.7657,N,12217.8962,W,0.20,100.06,300811,,,A*72
$GPRMC,175700.000,A,3748.7653,N,12217.8970,W,0.40,210.57,300811,,,A*78
$GPRMC,175701.000,A,3748.7648,N,12217.8975,W,0.93,194.17,300811,,,A*73
$GPRMC,175702.000,A,3748.7638,N,12217.8979,W,1.82,175.68,300811,,,A*7D
$GPRMC,175703.000,A,3748.7629,N,12217.8987,W,1.21,186.13,300811,,,A*74
$GPRMC,175704.000,A,3748.7621,N,12217.8991,W,1.56,181.87,300811,,,A*76
$GPRMC,175705.000,A,3748.7614,N,12217.8997,W,1.19,182.92,300811,,,A*7B
$GPRMC,175706.000,A,3748.7607,N,12217.9006,W,1.37,191.04,300811,,,A*7B
$GPRMC,175707.000,A,3748.7600,N,12217.9016,W,1.66,198.73,300811,,,A*71
$GPRMC,175708.000,A,3748.7593,N,12217.9023,W,1.54,184.72,300811,,,A*7C
$GPRMC,175709.000,A,3748.7588,N,12217.9029,W,0.92,192.71,300811,,,A*72
$GPRMC,175710.000,A,3748.7583,N,12217.9037,W,0.86,202.66,300811,,,A*77
$GPRMC,175711.000,A,3748.7579,N,12217.9044,W,0.77,199.19,300811,,,A*70
$GPRMC,175712.000,A,3748.7575,N,12217.9045,W,0.95,181.17,300811,,,A*75
$GPRMC,175713.000,A,3748.7568,N,12217.9050,W,1.14,191.46,300811,,,A*71
$GPRMC,175714.000,A,3748.7563,N,12217.9056,W,1.25,180.84,300811,,,A*77
$GPRMC,175715.000,A,3748.7557,N,12217.9060,W,1.30,179.80,300811,,,A*72
$GPRMC,175716.000,A,3748.7551,N,12217.9060,W,1.33,179.89,300811,,,A*7D
$GPRMC,175717.000,A,3748.7546,N,12217.9065,W,1.21,220.69,300811,,,A*7D
$GPRMC,175718.000,A,3748.7540,N,12217.9077,W,1.98,218.11,300811,,,A*71
$GPRMC,175719.000,A,3748.7532,N,12217.9088,W,1.60,195.24,300811,,,A*72
$GPRMC,175720.000,A,3748.7525,N,12217.9093,W,1.43,186.27,300811,,,A*74
$GPRMC,175721.000,A,3748.7520,N,12217.9093,W,1.27,183.66,300811,,,A*72
$GPRMC,175722.000,A,3748.7514,N,12217.9103,W,0.76,181.08,300811,,,A*71
$GPRMC,175723.000,A,3748.7510,N,12217.9112,W,0.59,188.55,300811,,,A*78
$GPRMC,175724.000,A,3748.7506,N,12217.9120,W,0.79,183.07,300811,,,A*77
$GPRMC,175725.000,A,3748.7502,N,12217.9122,W,0.73,174.23,300811,,,A*74
$GPRMC,175726.000,A,3748.7498,N,12217.9120,W,0.96,182.02,300811,,,A*76
$GPRMC,175727.000,A,3748.7494,N,12217.9117,W,1.07,181.61,300811,,,A*70
$GPRMC,175728.000,A,3748.7489,N,12217.9113,W,1.66,199.96,300811,,,A*71
$GPRMC,175729.000,A,3748.7483,N,12217.9110,W,1.42,182.00,300811,,,A*7A
$GPRMC,175730.000,A,3748.7478,N,12217.9112,W,1.11,179.56,300811,,,A*75
$GPRMC,175731.000,A,3748.7473,N,12217.9114,W,1.15,182.29,300811,,,A*71
$GPRMC,175732.000,A,3748.7468,N,12217.9117,W,1.09,191.06,300811,,,A*79
$GPRMC,175733.000,A,3748.7463,N,12217.9120,W,1.26,192.87,300811,,,A*70
$GPRMC,175734.000,A,3748.7458,N,12217.9123,W,1.10,193.21,300811,,,A*74
$GPRMC,175735.000,A,3748.7453,N,12217.9126,W,1.31,191.15,300811,,,A*7D
$GPRMC,175736.000,A,3748.7448,N,12217.9127,W,1.29,169.45,300811,,,A*7E
$GPRMC,175737.000,A,3748.7443,N,12217.9128,W,1.44,180.42,300811,,,A*70
$GPRMC,175738.000,A,3748.7437,N,12217.9126,W,1.34,177.02,300811,,,A*79
$GPRMC,175739.000,A,3748.7430,N,12217.9129,W,1.57,194.07,300811,,,A*7D
$GPRMC,175740.000,A,3748.7424,N,12217.9132,W,1.51,188.91,300811,,,A*78
$GPRMC,175741.000,A,3748.7419,N,12217.9137,W,1.20,173.45,300811,,,A*79
$GPRMC,175742.000,A,3748.7410,N,12217.9142,W,1.21,176.90,300811,,,A*7D
$GPRMC,175743.000,A,3748.7401,N,12217.9147,W,1.40,168.75,300811,,,A*7A
$GPRMC,175744.000,A,3748.7393,N,12217.9151,W,1.36,178.75,300811,,,A*76
$GPRMC,175745.000,A,3748.7386,N,12217.9156,W,1.47,192.16,300811,,,A*73
$GPRMC,175746.000,A,3748.7379,N,12217.9159,W,1.60,198.69,300811,,,A*78
$GPRMC,175747.000,A,3748.7375,N,12217.9159,W,1.12,189.23,300811,,,A*7E
$GPRMC,175748.000,A,3748.7370,N,12217.9166,W,1.35,201.55,300811,,,A*7F
$GPRMC,175749.000,A,3748.7365,N,12217.9167,W,1.50,193.39,300811,,,A*7A
$GPRMC,175750.000,A,3748.7360,N,12217.9170,W,1.31,203.48,300811,,,A*7A
$GPRMC,175751.000,A,3748.7354,N,12217.9175,W,1.49,178.54,300811,,,A*74
$GPRMC,175752.000,A,3748.7348,N,12217.9178,W,1.39,177.92,300811,,,A*75
$GPRMC,175753.000,A,3748.7342,N,12217.9177,W,1.44,174.07,300811,,,A*74
$GPRMC,175754.000,A,3748.7336,N,12217.9180,W,1.33,179.84,300811,,,A*7E
$GPRMC,175755.000,A,3748.7329,N,12217.9181,W,1.49,175.04,300811,,,A*79
$GPRMC,175756.000,A,3748.7323,N,12217.9184,W,1.46,189.81,300811,,,A*74
$GPRMC,175757.000,A,3748.7318,N,12217.9187,W,1.57,196.45,300811,,,A*78
$GPRMC,175758.000,A,3748.7312,N,12217.9196,W,1.48,188.44,300811,,,A*7D
$GPRMC,175759.000,A,3748.7307,N,12217.9196,W,1.22,181.95,300811,,,A*71
$GPRMC,175800.000,A,3748.7301,N,12217.9204,W,1.52,195.58,300811,,,A*7F
$GPRMC,175801.000,A,3748.7295,N,12217.9216,W,1.69,203.14,300811,,,A*7D
$GPRMC,175802.000,A,3748.7289,N,12217.9223,W,1.70,200.89,300811,,,A*7A
$GPRMC,175803.000,A,3748.7283,N,12217.9233,W,1.46,182.12,300811,,,A*7E
$GPRMC,175804.000,A,3748.7277,N,12217.9239,W,1.48,191.63,300811,,,A*72
$GPRMC,175805.000,A,3748.7271,N,12217.9248,W,1.70,218.45,300811,,,A*7E
$GPRMC,175806.000,A,3748.7266,N,12217.9254,W,1.51,215.61,300811,,,A*7E
$GPRMC,175807.000,A,3748.7261,N,12217.9263,W,1.11,203.92,300811,,,A*73
$GPRMC,175808.000,A,3748.7257,N,12217.9267,W,1.11,199.05,300811,,,A*73
$GPRMC,175809.000,A,3748.7250,N,12217.9269,W,1.46,195.97,300811,,,A*7E
$GPRMC,175810.000,A,3748.7245,N,12217.9273,W,1.55,200.24,300811,,,A*7C
$GPRMC,175811.000,A,3748.7239,N,12217.9274,W,1.54,193.49,300811,,,A*72
$GPRMC,175812.000,A,3748.7232,N,12217.9277,W,1.91,197.52,300811,,,A*7E
$GPRMC,175813.000,A,3748.7224,N,12217.9280,W,2.06,199.82,300811,,,A*7E
$GPRMC,175814.000,A,3748.7217,N,12217.9283,W,2.07,205.90,300811,,,A*7E
$GPRMC,175815.000,A,3748.7211,N,12217.9284,W,1.61,191.80,300811,,,A*72
$GPRMC,175816.000,A,3748.7204,N,12217.9288,W,2.11,205.13,300811,,,A*79
$GPRMC,175817.000,A,3748.7196,N,12217.9293,W,2.49,211.74,300811,,,A*73
$GPRMC,175818.000,A,3748.7188,N,12217.9298,W,2.36,206.73,300811,,,A*71
$GPRMC,175819.000,A,3748.7180,N,12217.9303,W,2.38,200.21,300811,,,A*74
$GPRMC,175820.000,A,3748.7173,N,12217.9308,W,2.23,211.14,300811,,,A*75
$GPRMC,175821.000,A,3748.7166,N,12217.9312,W,2.00,207.53,300811,,,A*7E
$GPRMC,175822.000,A,3748.7159,N,12217.9316,W,1.82,193.08,300811,,,A*7C
$GPRMC,175823.000,A,3748.7152,N,12217.9323,W,1.92,197.38,300811,,,A*76
$GPRMC,175824.000,A,3748.7144,N,12217.9331,W,2.23,201.92,300811,,,A*70
$GPRMC,175825.000,A,3748.7137,N,12217.9335,W,2.05,195.05,300811,,,A*75
$GPRMC,175826.000,A,3748.7130,N,12217.9337,W,1.72,191.06,300811,,,A*77
$GPRMC,175827.000,A,3748.7125,N,12217.9340,W,1.41,191.97,300811,,,A*7A
$GPRMC,175828.000,A,3748.7119,N,12217.9342,W,1.49,191.84,300811,,,A*72
$GPRMC,175829.000,A,3748.7113,N,12217.9345,W,1.86,188.33,300811,,,A*79
$GPRMC,175830.000,A,3748.7106,N,12217.9348,W,1.86,185.74,300811,,,A*76
$GPRMC,175831.000,A,3748.7099,N,12217.9356,W,1.39,198.31,300811,,,A*76
$GPRMC,175832.000,A,3748.7091,N,12217.9363,W,1.49,193.07,300811,,,A*72
$GPRMC,175833.000,A,3748.7081,N,12217.9366,W,1.82,193.28,300811,,,A*7D
$GPRMC,175834.000,A,3748.7075,N,12217.9370,W,1.80,195.09,300811,,,A*71
$GPRMC,175835.000,A,3748.7069,N,12217.9373,W,2.00,200.56,300811,,,A*70
$GPRMC,175836.000,A,3748.7061,N,12217.9381,W,2.15,203.26,300811,,,A*76
$GPRMC,175837.000,A,3748.7054,N,12217.9385,W,1.76,182.97,300811,,,A*73
$GPRMC,175838.000,A,3748.7048,N,12217.9390,W,1.62,171.82,300811,,,A*78
$GPRMC,175839.000,A,3748.7042,N,12217.9397,W,2.11,201.67,300811,,,A*7C
$GPRMC,175839.000,A,3748.7034,N,12217.9405,W,2.08,197.43,300811,,,A*73
$GPRMC,175840.000,A,3748.7027,N,12217.9409,W,2.23,201.38,300811,,,A*7A
$GPRMC,175841.000,A,3748.7020,N,12217.9416,W,2.25,204.00,300811,,,A*7A
$GPRMC,175842.000,A,3748.7013,N,12217.9419,W,1.98,193.44,300811,,,A*7E
$GPRMC,175843.000,A,3748.7006,N,12217.9425,W,1.76,205.60,300811,,,A*7E
$GPRMC,175844.000,A,3748.7000,N,12217.9430,W,1.81,228.75,300811,,,A*78
$GPRMC,175845.000,A,3748.6995,N,12217.9438,W,2.38,221.98,300811,,,A*7E
$GPRMC,175846.000,A,3748.6986,N,12217.9445,W,2.04,209.32,300811,,,A*70
$GPRMC,175847.000,A,3748.6980,N,12217.9454,W,1.90,208.64,300811,,,A*7B
$GPRMC,175848.000,A,3748.6971,N,12217.9462,W,1.87,192.79,300811,,,A*75
$GPRMC,175849.000,A,3748.6964,N,12217.9472,W,1.60,186.73,300811,,,A*77
$GPRMC,175850.000,A,3748.6957,N,12217.9477,W,1.65,187.87,300811,,,A*75
$GPRMC,175851.000,A,3748.6951,N,12217.9487,W,1.55,200.75,300811,,,A*7F
$GPRMC,175852.000,A,3748.6946,N,12217.9490,W,1.44,190.60,300811,,,A*72
$GPRMC,175853.000,A,3748.6940,N,12217.9497,W,1.35,196.85,300811,,,A*79
$GPRMC,175854.000,A,3748.6935,N,12217.9503,W,1.25,196.98,300811,,,A*7D
$GPRMC,175855.000,A,3748.6930,N,12217.9507,W,1.30,181.61,300811,,,A*79
$GPRMC,175856.000,A,3748.6923,N,12217.9509,W,1.66,199.33,300811,,,A*7B
$GPRMC,175857.000,A,3748.6917,N,12217.9516,W,1.48,190.58,300811,,,A*7B
$GPRMC,175858.000,A,3748.6911,N,12217.9521,W,1.43,183.75,300811,,,A*70
$GPRMC,175859.000,A,3748.6904,N,12217.9529,W,1.92,207.89,300811,,,A*7D
$GPRMC,175900.000,A,3748.6897,N,12217.9539,W,2.00,214.39,300811,,,D*7E
$GPRMC,175901.000,A,3748.6890,N,12217.9548,W,1.64,200.19,300811,,,D*78
$GPRMC,175902.000,A,3748.6884,N,12217.9552,W,1.65,205.59,300811,,,D*75
$GPRMC,175903.000,A,3748.6879,N,12217.9554,W,1.15,204.50,300811,,,D*7F
$GPRMC,175904.000,A,3748.6873,N,12217.9558,W,1.38,207.71,300811,,,D*71
$GPRMC,175905.000,A,3748.6868,N,12217.9560,W,1.80,197.64,300811,,,D*7C
$GPRMC,175906.000,A,3748.6860,N,12217.9563,W,1.88,200.83,300811,,,D*78
$GPRMC,175907.000,A,3748.6853,N,12217.9571,W,1.86,206.80,300811,,,D*71
$GPRMC,175908.000,A,3748.6845,N,12217.9575,W,2.22,208.22,300811,,,D*76
$GPRMC,175909.000,A,3748.6838,N,12217.9580,W,1.73,197.14,300811,,,D*70
$GPRMC,175910.000,A,3748.6831,N,12217.9583,W,1.95,204.93,300811,,,D*7C
$GPRMC,175911.000,A,3748.6824,N,12217.9588,W,1.72,201.26,300811,,,D*70
$GPRMC,175912.000,A,3748.6809,N,12217.9594,W,2.32,193.80,300811,,,D*72
$GPRMC,175913.000,A,3748.6803,N,12217.9599,W,2.14,193.63,300811,,,D*7D
$GPRMC,175914.000,A,3748.6794,N,12217.9604,W,1.75,192.32,300811,,,D*7D
$GPRMC,175915.000,A,3748.6785,N,12217.9615,W,0.78,198.47,300811,,,D*78
$GPRMC,175916.000,A,3748.6779,N,12217.9620,W,1.03,186.23,300811,,,D*7E
$GPRMC,175917.000,A,3748.6776,N,12217.9628,W,1.07,161.55,300811,,,D*74
$GPRMC,175918.000,A,3748.6777,N,12217.9629,W,0.88,172.81,300811,,,D*76
$GPRMC,175919.000,A,3748.6777,N,12217.9630,W,0.88,183.07,300811,,,D*7F
$GPRMC,175920.000,A,3748.6770,N,12217.9636,W,1.63,205.04,300811,,,D*7E
$GPRMC,175921.000,A,3748.6759,N,12217.9640,W,1.93,197.42,300811,,,D*70
$GPRMC,175922.000,A,3748.6745,N,12217.9649,W,2.56,210.06,300811,,,D*71
$GPRMC,175923.000,A,3748.6732,N,12217.9653,W,2.43,202.98,300811,,,D*7B
$GPRMC,175924.000,A,3748.6721,N,12217.9660,W,2.77,211.22,300811,,,D*7A
$GPRMC,175925.000,A,3748.6711,N,12217.9663,W,2.14,191.37,300811,,,D*71
$GPRMC,175926.000,A,3748.6703,N,12217.9666,W,1.79,182.29,300811,,,D*71
$GPRMC,175927.000,A,3748.6696,N,12217.9669,W,2.22,202.73,300811,,,D*7B
$GPRMC,175928.000,A,3748.6691,N,12217.9673,W,1.29,188.61,300811,,,D*72
$GPRMC,175929.000,A,3748.6686,N,12217.9679,W,1.76,200.32,300811,,,D*70
$GPRMC,175930.000,A,3748.6682,N,12217.9685,W,1.55,201.12,300811,,,D*7D
$GPRMC,175931.000,A,3748.6675,N,12217.9697,W,1.89,214.41,300811,,,D*74
$GPRMC,175932.000,A,3748.6668,N,12217.9711,W,2.00,208.37,300811,,,D*7A
$GPRMC,175933.000,A,3748.6659,N,12217.9722,W,1.90,204.03,300811,,,D*78
$GPRMC,175934.000,A,3748.6654,N,12217.9734,W,1.71,187.62,300811,,,D*75
$GPRMC,175935.000,A,3748.6649,N,12217.9744,W,1.79,177.03,300811,,,D*7F
$GPRMC,175936.000,A,3748.6646,N,12217.9753,W,0.73,184.20,300811,,,D*73
$GPRMC,175937.000,A,3748.6642,N,12217.9756,W,0.96,187.75,300811,,,D*7B
$GPRMC,175938.000,A,3748.6638,N,12217.9764,W,1.14,206.88,300811,,,D*7B
$GPRMC,175939.000,A,3748.6635,N,12217.9770,W,0.72,182.21,300811,,,D*7F
$GPRMC,175940.000,A,3748.6628,N,12217.9777,W,0.93,186.01,300811,,,D*73
$GPRMC,175941.000,A,3748.6619,N,12217.9783,W,2.14,198.77,300811,,,D*78
$GPRMC,175942.000,A,3748.6610,N,12217.9788,W,1.76,181.38,300811,,,D*7D
$GPRMC,175943.000,A,3748.6602,N,12217.9797,W,1.70,198.14,300811,,,D*71
$GPRMC,175944.000,A,3748.6596,N,12217.9803,W,1.77,210.69,300811,,,D*74
$GPRMC,175945.000,A,3748.6587,N,12217.9807,W,1.48,182.97,300811,,,D*74
$GPRMC,175946.000,A,3748.6579,N,12217.9811,W,1.24,189.77,300811,,,D*7E
$GPRMC,175947.000,A,3748.6572,N,12217.9813,W,1.64,182.26,300811,,,D*7D
$GPRMC,175948.000,A,3748.6566,N,12217.9814,W,1.55,191.38,300811,,,D*7F
$GPRMC,175949.000,A,3748.6559,N,12217.9814,W,1.60,196.46,300811,,,D*7A
$GPRMC,175950.000,A,3748.6553,N,12217.9815,W,1.56,187.35,300811,,,D*78
$GPRMC,175951.000,A,3748.6546,N,12217.9816,W,1.36,176.54,300811,,,D*71
$GPRMC,175952.000,A,3748.6540,N,12217.9824,W,1.30,169.96,300811,,,D*73
$GPRMC,175953.000,A,3748.6534,N,12217.9823,W,1.48,170.10,300811,,,D*7F
$GPRMC,175954.000,A,3748.6528,N,12217.9824,W,1.42,174.70,300811,,,D*7A
$GPRMC,175955.000,A,3748.6522,N,12217.9824,W,1.54,191.37,300811,,,D*7E
$GPRMC,175956.000,A,3748.6518,N,12217.9827,W,1.02,227.27,300811,,,D*7B
$GPRMC,175957.000,A,3748.6513,N,12217.9829,W,1.51,203.51,300811,,,D*7E
$GPRMC,175958.000,A,3748.6508,N,12217.9831,W,1.87,191.41,300811,,,D*70
$GPRMC,175959.000,A,3748.6501,N,12217.9833,W,2.01,191.26,300811,,,D*76
$GPRMC,180000.000,A,3748.6495,N,12217.9835,W,1.96,177.31,300811,,,D*70
$GPRMC,180001.000,A,3748.6489,N,12217.9836,W,1.74,189.05,300811,,,D*75
$GPRMC,180002.000,A,3748.6483,N,12217.9838,W,1.66,189.03,300811,,,D*77
$GPRMC,180003.000,A,3748.6475,N,12217.9841,W,2.18,203.70,300811,,,D*7E
$GPRMC,180004.000,A,3748.6469,N,12217.9845,W,1.54,188.66,300811,,,D*7C
$GPRMC,180005.000,A,3748.6463,N,12217.9850,W,1.66,210.37,300811,,,D*74
$GPRMC,180006.000,A,3748.6457,N,12217.9857,W,2.08,220.31,300811,,,D*79
$GPRMC,180007.000,A,3748.6451,N,12217.9863,W,1.77,218.43,300811,,,D*7C
$GPRMC,180008.000,A,3748.6445,N,12217.9867,W,1.82,199.43,300811,,,D*72
$GPRMC,180009.000,A,3748.6439,N,12217.9871,W,2.12,199.55,300811,,,D*72
$GPRMC,180010.000,A,3748.6430,N,12217.9882,W,2.04,207.41,300811,,,D*79
$GPRMC,180011.000,A,3748.6423,N,12217.9891,W,1.50,197.56,300811,,,D*76
$GPRMC,180012.000,A,3748.6417,N,12217.9898,W,1.31,185.23,300811,,,D*7D
$GPRMC,180013.000,A,3748.6413,N,12217.9905,W,1.05,193.70,300811,,,D*7B
$GPRMC,180014.000,A,3748.6409,N,12217.9916,W,1.08,186.18,300811,,,D*72
$GPRMC,180015.000,A,3748.6404,N,12217.9923,W,1.06,191.75,300811,,,D*7B
$GPRMC,180016.000,A,3748.6393,N,12217.9937,W,1.66,195.36,300811,,,D*71
$GPRMC,180017.000,A,3748.6383,N,12217.9947,W,1.49,200.65,300811,,,D*72
$GPRMC,180018.000,A,3748.6375,N,12217.9952,W,1.58,192.82,300811,,,D*71
$GPRMC,180019.000,A,3748.6367,N,12217.9956,W,1.71,195.41,300811,,,D*74
$GPRMC,180020.000,A,3748.6359,N,12217.9963,W,1.92,205.19,300811,,,D*7F
$GPRMC,180021.000,A,3748.6351,N,12217.9969,W,2.11,209.63,300811,,,D*75
$GPRMC,180022.000,A,3748.6345,N,12217.9977,W,1.75,211.71,300811,,,D*77
$GPRMC,180023.000,A,3748.6340,N,12217.9987,W,1.72,223.41,300811,,,D*79
$GPRMC,180024.000,A,3748.6340,N,12217.9993,W,1.46,216.55,300811,,,D*7F
$GPRMC,180025.000,A,3748.6335,N,12217.9998,W,1.94,196.08,300811,,,D*7B
$GPRMC,180026.000,A,3748.6328,N,12218.0003,W,1.89,192.22,300811,,,D*79
$GPRMC,180027.000,A,3748.6321,N,12218.0010,W,1.54,201.94,300811,,,D*77
$GPRMC,180028.000,A,3748.6314,N,12218.0014,W,1.15,199.53,300811,,,D*76
$GPRMC,180029.000,A,3748.6304,N,12218.0020,W,2.18,214.90,300811,,,D*76
$GPRMC,180030.000,A,3748.6295,N,12218.0023,W,1.50,190.03,300811,,,D*7E
$GPRMC,180031.000,A,3748.6287,N,12218.0025,W,1.93,146.99,300811,,,D*7D
$GPRMC,180032.000,A,3748.6278,N,12218.0024,W,2.48,140.12,300811,,,D*7F
$GPRMC,180033.000,A,3748.6271,N,12218.0023,W,1.95,148.18,300811,,,D*71
$GPRMC,180034.000,A,3748.6264,N,12218.0025,W,2.02,125.33,300811,,,D*7B
$GPRMC,180035.000,A,3748.6252,N,12218.0029,W,2.37,117.89,300811,,,D*75
$GPRMC,180036.000,A,3748.6239,N,12218.0025,W,2.79,116.50,300811,,,D*78
$GPRMC,180037.000,A,3748.6229,N,12218.0017,W,2.67,121.72,300811,,,D*72
$GPRMC,180038.000,A,3748.6222,N,12218.0014,W,2.24,123.29,300811,,,D*7E
$GPRMC,180039.000,A,3748.6215,N,12217.9996,W,2.52,114.91,300811,,,D*78
$GPRMC,180040.000,A,3748.6207,N,12217.9980,W,2.62,113.77,300811,,,D*7E
$GPRMC,180041.000,A,3748.6201,N,12217.9966,W,2.49,112.56,300811,,,D*7A
$GPRMC,180042.000,A,3748.6193,N,12217.9951,W,2.85,118.48,300811,,,D*70
$GPRMC,180043.000,A,3748.6186,N,12217.9936,W,2.90,119.55,300811,,,D*7D
$GPRMC,180044.000,A,3748.6178,N,12217.9925,W,2.63,121.70,300811,,,D*79
$GPRMC,180045.000,A,3748.6172,N,12217.9917,W,2.52,116.95,300811,,,D*7E
$GPRMC,180046.000,A,3748.6162,N,12217.9896,W,2.81,116.29,300811,,,D*7D
$GPRMC,180047.000,A,3748.6158,N,12217.9882,W,3.23,118.82,300811,,,D*76
$GPRMC,180048.000,A,3748.6154,N,12217.9871,W,2.79,120.69,300811,,,D*79
$GPRMC,180049.000,A,3748.6145,N,12217.9853,W,2.59,120.81,300811,,,D*7C
$GPRMC,180050.000,A,3748.6140,N,12217.9839,W,2.93,117.42,300811,,,D*70
$GPRMC,180051.000,A,3748.6135,N,12217.9828,W,3.12,118.24,300811,,,D*74
$GPRMC,180052.000,A,3748.6129,N,12217.9819,W,2.88,119.54,300811,,,D*7C
$GPRMC,180053.000,A,3748.6123,N,12217.9812,W,2.13,113.35,300811,,,D*73
$GPRMC,180054.000,A,3748.6119,N,12217.9802,W,2.33,111.72,300811,,,D*7F
$GPRMC,180055.000,A,3748.6114,N,12217.9793,W,2.82,118.51,300811,,,D*76
$GPRMC,180056.000,A,3748.6106,N,12217.9785,W,3.31,124.29,300811,,,D*78
$GPRMC,180057.000,A,3748.6095,N,12217.9776,W,3.17,126.03,300811,,,D*70
$GPRMC,180058.000,A,3748.6088,N,12217.9764,W,3.28,127.17,300811,,,D*78
$GPRMC,180059.000,A,3748.6078,N,12217.9757,W,2.75,122.38,300811,,,D*77
$GPRMC,180100.000,A,3748.6072,N,12217.9747,W,3.00,118.11,300811,,,D*70
$GPRMC,180101.000,A,3748.6069,N,12217.9737,W,2.76,112.57,300811,,,D*74
$GPRMC,180102.000,A,3748.6067,N,12217.9728,W,2.50,112.95,300811,,,D*7D
$GPRMC,180103.000,A,3748.6065,N,12217.9722,W,1.63,112.17,300811,,,D*7D
$GPRMC,180104.000,A,3748.6061,N,12217.9713,W,2.96,123.70,300811,,,D*76
$GPRMC,180105.000,A,3748.6056,N,12217.9706,W,2.40,118.17,300811,,,D*75
$GPRMC,180106.000,A,3748.6049,N,12217.9699,W,2.37,118.33,300811,,,D*79
$GPRMC,180107.000,A,3748.6043,N,12217.9693,W,2.34,119.77,300811,,,D*7A
$GPRMC,180108.000,A,3748.6039,N,12217.9687,W,2.21,111.63,300811,,,D*74
$GPRMC,180109.000,A,3748.6035,N,12217.9679,W,1.89,112.38,300811,,,D*74
$GPRMC,180110.000,A,3748.6028,N,12217.9670,W,2.82,118.98,300811,,,D*71
$GPRMC,180111.000,A,3748.6020,N,12217.9661,W,2.49,118.06,300811,,,D*78
$GPRMC,180112.000,A,3748.6012,N,12217.9652,W,2.25,119.94,300811,,,D*7A
$GPRMC,180113.000,A,3748.6004,N,12217.9640,W,1.98,113.39,300811,,,D*77
$GPRMC,180114.000,A,3748.5999,N,12217.9633,W,2.31,111.95,300811,,,D*7E
$GPRMC,180115.000,A,3748.5993,N,12217.9622,W,2.50,111.15,300811,,,D*7A
$GPRMC,180116.000,A,3748.5983,N,12217.9606,W,2.79,123.34,300811,,,D*77
$GPRMC,180117.000,A,3748.5979,N,12217.9597,W,2.20,118.55,300811,,,D*7B
$GPRMC,180118.000,A,3748.5974,N,12217.9589,W,2.14,122.58,300811,,,D*75
$GPRMC,180119.000,A,3748.5972,N,12217.9585,W,2.26,128.25,300811,,,D*7F
$GPRMC,180120.000,A,3748.5968,N,12217.9576,W,2.74,118.16,300811,,,D*76
$GPRMC,180121.000,A,3748.5963,N,12217.9567,W,2.61,117.18,300811,,,D*79
$GPRMC,180122.000,A,3748.5959,N,12217.9558,W,2.45,113.02,300811,,,D*76
$GPRMC,180123.000,A,3748.5957,N,12217.9551,W,2.27,109.61,300811,,,D*7A
$GPRMC,180124.000,A,3748.5954,N,12217.9541,W,1.85,106.24,300811,,,D*7A
$GPRMC,180125.000,A,3748.5952,N,12217.9536,W,1.78,115.94,300811,,,D*76
$GPRMC,180126.000,A,3748.5947,N,12217.9528,W,2.49,121.10,300811,,,D*74
$GPRMC,180127.000,A,3748.5939,N,12217.9519,W,2.31,121.64,300811,,,D*72
$GPRMC,180128.000,A,3748.5932,N,12217.9509,W,2.33,119.37,300811,,,D*78
$GPRMC,180129.000,A,3748.5925,N,12217.9498,W,2.78,121.09,300811,,,D*7F
$GPRMC,180130.000,A,3748.5916,N,12217.9484,W,2.86,121.85,300811,,,D*7F
$GPRMC,180131.000,A,3748.5909,N,12217.9476,W,2.76,123.73,300811,,,D*79
$GPRMC,180132.000,A,3748.5906,N,12217.9470,W,2.40,114.16,300811,,,D*71
$GPRMC,180133.000,A,3748.5908,N,12217.9468,W,2.19,112.77,300811,,,D*7A
$GPRMC,180134.000,A,3748.5905,N,12217.9459,W,2.54,113.24,300811,,,D*7C
$GPRMC,180135.000,A,3748.5900,N,12217.9449,W,2.70,119.00,300811,,,D*73
$GPRMC,180136.000,A,3748.5896,N,12217.9440,W,2.73,121.15,300811,,,D*7B
$GPRMC,180137.000,A,3748.5890,N,12217.9427,W,2.88,117.99,300811,,,D*78
$GPRMC,180138.000,A,3748.5885,N,12217.9416,W,2.88,122.29,300811,,,D*7C
$GPRMC,180139.000,A,3748.5877,N,12217.9404,W,3.04,122.70,300811,,,D*7A
$GPRMC,180140.000,A,3748.5870,N,12217.9392,W,2.85,121.60,300811,,,D*71
$GPRMC,180141.000,A,3748.5863,N,12217.9380,W,2.85,124.48,300811,,,D*7E
$GPRMC,180142.000,A,3748.5855,N,12217.9370,W,2.63,126.79,300811,,,D*7F
$GPRMC,180143.000,A,3748.5852,N,12217.9365,W,1.71,132.83,300811,,,D*7D
$GPRMC,180144.000,A,3748.5852,N,12217.9371,W,0.50,166.28,300811,,,D*7D
$GPRMC,180145.000,A,3748.5847,N,12217.9374,W,0.36,146.17,300811,,,D*73
$GPRMC,180146.000,A,3748.5843,N,12217.9378,W,0.81,112.97,300811,,,D*7D
$GPRMC,180147.000,A,3748.5839,N,12217.9377,W,1.68,109.59,300811,,,D*70
$GPRMC,180148.000,A,3748.5838,N,12217.9378,W,1.45,107.51,300811,,,D*78
$GPRMC,180149.000,A,3748.5836,N,12217.9376,W,1.14,118.91,300811,,,D*7F
$GPRMC,180150.000,A,3748.5836,N,12217.9379,W,0.63,133.78,300811,,,D*77
$GPRMC,180151.000,A,3748.5836,N,12217.9383,W,0.49,182.84,300811,,,D*72
$GPRMC,180152.000,A,3748.5835,N,12217.9389,W,1.45,233.00,300811,,,D*70
$GPRMC,180153.000,A,3748.5831,N,12217.9395,W,1.46,241.05,300811,,,D*7B
$GPRMC,180154.000,A,3748.5827,N,12217.9401,W,1.23,235.28,300811,,,D*7E
$GPRMC,180155.000,A,3748.5823,N,12217.9410,W,1.76,230.25,300811,,,D*73
$GPRMC,180156.000,A,3748.5819,N,12217.9419,W,1.84,228.69,300811,,,D*7C
$GPRMC,180157.000,A,3748.5813,N,12217.9425,W,1.96,215.25,300811,,,D*7D
$GPRMC,180158.000,A,3748.5807,N,12217.9430,W,2.31,215.73,300811,,,D*7E
$GPRMC,180159.000,A,3748.5800,N,12217.9436,W,2.28,210.58,300811,,,D*7A
$GPRMC,180200.000,A,3748.5794,N,12217.9438,W,1.88,196.52,300811,,,D*77
$GPRMC,180201.000,A,3748.5789,N,12217.9441,W,1.83,194.01,300811,,,D*7B
$GPRMC,180202.000,A,3748.5783,N,12217.9446,W,1.50,196.28,300811,,,D*72
$GPRMC,180203.000,A,3748.5778,N,12217.9449,W,1.44,189.06,300811,,,D*7F
$GPRMC,180204.000,A,3748.5773,N,12217.9451,W,1.49,193.54,300811,,,D*7B
$GPRMC,180205.000,A,3748.5769,N,12217.9450,W,1.40,186.67,300811,,,D*7D
$GPRMC,180206.000,A,3748.5765,N,12217.9450,W,1.52,178.09,300811,,,D*78
$GPRMC,180207.000,A,3748.5761,N,12217.9448,W,1.47,184.86,300811,,,D*74
$GPRMC,180208.000,A,3748.5756,N,12217.9447,W,1.41,191.78,300811,,,D*73
$GPRMC,180209.000,A,3748.5750,N,12217.9446,W,1.16,173.76,300811,,,D*75
$GPRMC,180210.000,A,3748.5744,N,12217.9447,W,0.82,200.36,300811,,,D*76
$GPRMC,180211.000,A,3748.5739,N,12217.9451,W,1.22,151.80,300811,,,D*7B
$GPRMC,180212.000,A,3748.5736,N,12217.9454,W,1.19,154.09,300811,,,D*7E
$GPRMC,180213.000,A,3748.5731,N,12217.9459,W,1.39,185.78,300811,,,D*7D
$GPRMC,180214.000,A,3748.5726,N,12217.9472,W,1.64,201.72,300811,,,D*78
$GPRMC,180215.000,A,3748.5720,N,12217.9480,W,1.83,212.54,300811,,,D*7D
$GPRMC,180216.000,A,3748.5714,N,12217.9486,W,1.74,209.75,300811,,,D*7E
$GPRMC,180217.000,A,3748.5709,N,12217.9498,W,1.75,212.79,300811,,,D*7B
$GPRMC,180218.000,A,3748.5704,N,12217.9507,W,1.70,211.38,300811,,,D*7D
$GPRMC,180219.000,A,3748.5698,N,12217.9513,W,2.26,215.86,300811,,,D*7C
$GPRMC,180220.000,A,3748.5692,N,12217.9526,W,2.31,221.52,300811,,,D*72
$GPRMC,180221.000,A,3748.5686,N,12217.9533,W,2.11,215.65,300811,,,D*73
$GPRMC,180222.000,A,3748.5680,N,12217.9543,W,1.72,203.75,300811,,,D*71
$GPRMC,180223.000,A,3748.5675,N,12217.9547,W,1.61,206.37,300811,,,D*7F
$GPRMC,180224.000,A,3748.5669,N,12217.9554,W,1.98,213.77,300811,,,D*71
$GPRMC,180225.000,A,3748.5664,N,12217.9558,W,1.78,212.13,300811,,,D*7C
$GPRMC,180226.000,A,3748.5658,N,12217.9562,W,1.63,201.53,300811,,,D*75
$GPRMC,180227.000,A,3748.5654,N,12217.9564,W,1.45,208.30,300811,,,D*76
$GPRMC,180228.000,A,3748.5650,N,12217.9568,W,1.54,212.03,300811,,,D*7A
$GPRMC,180229.000,A,3748.5645,N,12217.9574,W,1.67,222.52,300811,,,D*75
$GPRMC,180230.000,A,3748.5638,N,12217.9583,W,1.95,216.04,300811,,,D*76
$GPRMC,180231.000,A,3748.5630,N,12217.9592,W,1.61,195.75,300811,,,D*7A
$GPRMC,180232.000,A,3748.5622,N,12217.9600,W,1.43,176.44,300811,,,D*7D
$GPRMC,180233.000,A,3748.5615,N,12217.9604,W,1.45,170.49,300811,,,D*71
$GPRMC,180234.000,A,3748.5608,N,12217.9605,W,1.53,175.15,300811,,,D*70
$GPRMC,180235.000,A,3748.5601,N,12217.9605,W,1.66,184.98,300811,,,D*75
$GPRMC,180236.000,A,3748.5595,N,12217.9612,W,1.33,196.56,300811,,,D*7F
$GPRMC,180237.000,A,3748.5589,N,12217.9615,W,2.08,204.11,300811,,,D*74
$GPRMC,180238.000,A,3748.5583,N,12217.9616,W,1.85,205.77,300811,,,D*75
$GPRMC,180239.000,A,3748.5577,N,12217.9618,W,2.30,209.85,300811,,,D*7D
$GPRMC,180240.000,A,3748.5570,N,12217.9624,W,2.32,208.99,300811,,,D*75
$GPRMC,180241.000,A,3748.5564,N,12217.9629,W,2.74,215.85,300811,,,D*7F
$GPRMC,180242.000,A,3748.5555,N,12217.9637,W,2.57,214.55,300811,,,D*7C
$GPRMC,180243.000,A,3748.5546,N,12217.9645,W,2.82,216.94,300811,,,D*7D
$GPRMC,180244.000,A,3748.5538,N,12217.9655,W,2.45,213.38,300811,,,D*7A
$GPRMC,180245.000,A,3748.5529,N,12217.9667,W,2.25,210.26,300811,,,D*70
$GPRMC,180246.000,A,3748.5522,N,12217.9676,W,2.11,214.06,300811,,,D*79
$GPRMC,180247.000,A,3748.5514,N,12217.9682,W,2.69,209.41,300811,,,D*76
$GPRMC,180248.000,A,3748.5508,N,12217.9685,W,2.30,204.45,300811,,,D*76
$GPRMC,180249.000,A,3748.5503,N,12217.9690,W,2.10,205.16,300811,,,D*7D
$GPRMC,180250.000,A,3748.5495,N,12217.9699,W,2.12,220.91,300811,,,D*78
$GPRMC,180251.000,A,3748.5485,N,12217.9706,W,2.58,196.35,300811,,,D*71
$GPRMC,180252.000,A,3748.5478,N,12217.9709,W,1.64,170.81,300811,,,D*74
$GPRMC,180253.000,A,3748.5471,N,12217.9714,W,1.67,161.36,300811,,,D*7F
$GPRMC,180254.000,A,3748.5464,N,12217.9721,W,1.84,197.49,300811,,,D*76
$GPRMC,180255.000,A,3748.5456,N,12217.9728,W,1.88,204.51,300811,,,D*73
$GPRMC,180256.000,A,3748.5448,N,12217.9741,W,1.98,204.29,300811,,,D*7E
$GPRMC,180257.000,A,3748.5438,N,12217.9748,W,2.06,205.38,300811,,,D*74
$GPRMC,180258.000,A,3748.5430,N,12217.9754,W,1.89,202.55,300811,,,D*76
$GPRMC,180259.000,A,3748.5423,N,12217.9761,W,1.63,202.14,300811,,,D*72
$GPRMC,180300.000,A,3748.5417,N,12217.9763,W,1.49,185.85,300811,,,D*76
$GPRMC,180301.000,A,3748.5411,N,12217.9766,W,1.51,181.47,300811,,,D*77
$GPRMC,180302.000,A,3748.5402,N,12217.9767,W,1.89,184.16,300811,,,D*73
$GPRMC,180303.000,A,3748.5395,N,12217.9770,W,2.07,187.11,300811,,,D*7C
$GPRMC,180304.000,A,3748.5386,N,12217.9772,W,1.75,157.88,300811,,,D*70
$GPRMC,180305.000,A,3748.5381,N,12217.9774,W,1.45,165.75,300811,,,D*70
$GPRMC,180306.000,A,3748.5375,N,12217.9780,W,1.54,181.16,300811,,,D*7C
$GPRMC,180307.000,A,3748.5370,N,12217.9785,W,1.37,171.85,300811,,,D*7D
$GPRMC,180308.000,A,3748.5364,N,12217.9791,W,1.34,201.85,300811,,,D*75
$GPRMC,180309.000,A,3748.5356,N,12217.9790,W,1.51,208.66,300811,,,D*73
$GPRMC,180310.000,A,3748.5349,N,12217.9795,W,1.47,207.42,300811,,,D*7E
$GPRMC,180311.000,A,3748.5344,N,12217.9802,W,1.37,196.94,300811,,,D*74
$GPRMC,180312.000,A,3748.5339,N,12217.9806,W,1.36,172.64,300811,,,D*7D
$GPRMC,180313.000,A,3748.5333,N,12217.9805,W,1.43,176.60,300811,,,D*77
$GPRMC,180314.000,A,3748.5327,N,12217.9812,W,2.11,207.82,300811,,,D*7E
$GPRMC,180315.000,A,3748.5321,N,12217.9821,W,1.74,207.32,300811,,,D*72
$GPRMC,180316.000,A,3748.5315,N,12217.9824,W,1.49,178.34,300811,,,D*70
$GPRMC,180317.000,A,3748.5310,N,12217.9826,W,1.56,180.74,300811,,,D*7B
$GPRMC,180318.000,A,3748.5306,N,12217.9831,W,1.56,192.31,300811,,,D*77
$GPRMC,180319.000,A,3748.5301,N,12217.9834,W,1.61,202.21,300811,,,D*7B
$GPRMC,180320.000,A,3748.5295,N,12217.9840,W,1.49,190.57,300811,,,D*7D
$GPRMC,180321.000,A,3748.5288,N,12217.9845,W,1.49,196.65,300811,,,D*72
$GPRMC,180322.000,A,3748.5282,N,12217.9852,W,1.58,198.96,300811,,,D*7F
$GPRMC,180323.000,A,3748.5276,N,12217.9857,W,1.42,188.76,300811,,,D*74
$GPRMC,180324.000,A,3748.5270,N,12217.9864,W,1.35,184.18,300811,,,D*71
$GPRMC,180325.000,A,3748.5264,N,12217.9869,W,1.29,183.08,300811,,,D*73
$GPRMC,180326.000,A,3748.5254,N,12217.9875,W,1.72,187.90,300811,,,D*75
$GPRMC,180327.000,A,3748.5246,N,12217.9879,W,1.78,202.92,300811,,,D*7D
$GPRMC,180328.000,A,3748.5239,N,12217.9886,W,2.31,212.50,300811,,,D*7B
$GPRMC,180329.000,A,3748.5231,N,12217.9896,W,2.08,205.63,300811,,,D*7F
$GPRMC,180330.000,A,3748.5224,N,12217.9905,W,2.17,211.61,300811,,,D*71
$GPRMC,180331.000,A,3748.5217,N,12217.9914,W,1.63,196.35,300811,,,D*7D
$GPRMC,180332.000,A,3748.5210,N,12217.9920,W,1.47,197.82,300811,,,D*75
$GPRMC,180333.000,A,3748.5204,N,12217.9928,W,2.25,216.27,300811,,,D*7B
$GPRMC,180334.000,A,3748.5197,N,12217.9935,W,1.45,207.39,300811,,,D*73
$GPRMC,180335.000,A,3748.5192,N,12217.9939,W,1.32,198.59,300811,,,D*78
$GPRMC,180336.000,A,3748.5185,N,12217.9945,W,1.34,177.85,300811,,,D*70
$GPRMC,180337.000,A,3748.5178,N,12217.9946,W,1.45,174.40,300811,,,D*7C
$GPRMC,180338.000,A,3748.5172,N,12217.9944,W,1.51,183.23,300811,,,D*73
$GPRMC,180339.000,A,3748.5164,N,12217.9950,W,1.50,189.46,300811,,,D*78
$GPRMC,180340.000,A,3748.5157,N,12217.9955,W,1.84,204.40,300811,,,D*7A
$GPRMC,180341.000,A,3748.5149,N,12217.9964,W,1.91,208.78,300811,,,D*75
$GPRMC,180342.000,A,3748.5137,N,12217.9972,W,1.69,202.25,300811,,,D*7D
$GPRMC,180343.000,A,3748.5130,N,12217.9980,W,1.59,206.00,300811,,,D*76
$GPRMC,180344.000,A,3748.5123,N,12217.9983,W,1.72,197.14,300811,,,D*77
$GPRMC,180345.000,A,3748.5116,N,12217.9989,W,1.32,208.27,300811,,,D*7B
$GPRMC,180346.000,A,3748.5111,N,12217.9991,W,1.00,214.47,300811,,,D*7C
$GPRMC,180347.000,A,3748.5108,N,12217.9996,W,0.95,210.00,300811,,,D*78
$GPRMC,180348.000,A,3748.5105,N,12218.0000,W,0.32,182.37,300811,,,D*7B
$GPRMC,180349.000,A,3748.5099,N,12218.0003,W,2.05,182.12,300811,,,D*7C
$GPRMC,180350.000,A,3748.5086,N,12218.0007,W,1.95,184.86,300811,,,D*7F
$GPRMC,180351.000,A,3748.5077,N,12218.0014,W,1.91,192.64,300811,,,D*7D
$GPRMC,180352.000,A,3748.5065,N,12218.0020,W,1.74,196.22,300811,,,D*77
$GPRMC,180353.000,A,3748.5055,N,12218.0023,W,2.14,202.77,300811,,,D*7D
$GPRMC,180354.000,A,3748.5043,N,12218.0029,W,2.27,204.93,300811,,,D*7B
$GPRMC,180355.000,A,3748.5036,N,12218.0027,W,2.08,200.56,300811,,,D*76
$GPRMC,180356.000,A,3748.5030,N,12218.0034,W,2.27,210.68,300811,,,D*70
$GPRMC,180357.000,A,3748.5022,N,12218.0041,W,2.32,211.53,300811,,,D*7D
$GPRMC,180358.000,A,3748.5015,N,12218.0048,W,2.37,208.16,300811,,,D*73
$GPRMC,180359.000,A,3748.5008,N,12218.0058,W,2.60,213.79,300811,,,D*7E
$GPRMC,180400.000,A,3748.4997,N,12218.0067,W,2.46,212.68,300811,,,D*72
$GPRMC,180401.000,A,3748.4985,N,12218.0072,W,2.95,204.61,300811,,,D*74
$GPRMC,180402.000,A,3748.4977,N,12218.0080,W,2.82,209.39,300811,,,D*71
$GPRMC,180403.000,A,3748.4970,N,12218.0084,W,2.20,202.26,300811,,,D*7E
$GPRMC,180404.000,A,3748.4962,N,12218.0087,W,2.73,213.10,300811,,,D*7A
$GPRMC,180405.000,A,3748.4951,N,12218.0096,W,2.98,212.40,300811,,,D*7A
$GPRMC,180406.000,A,3748.4941,N,12218.0105,W,2.63,199.93,300811,,,D*79
$GPRMC,180407.000,A,3748.4932,N,12218.0108,W,2.51,197.12,300811,,,D*77
$GPRMC,180408.000,A,3748.4925,N,12218.0113,W,2.34,191.84,300811,,,D*7E
$GPRMC,180409.000,A,3748.4917,N,12218.0118,W,2.28,199.15,300811,,,D*78
$GPRMC,180410.000,A,3748.4909,N,12218.0126,W,2.12,195.72,300811,,,D*76
$GPRMC,180411.000,A,3748.4901,N,12218.0131,W,2.45,199.42,300811,,,D*74
$GPRMC,180412.000,A,3748.4885,N,12218.0140,W,2.56,190.31,300811,,,D*73
$GPRMC,180413.000,A,3748.4875,N,12218.0148,W,2.85,210.74,300811,,,D*71
$GPRMC,180414.000,A,3748.4865,N,12218.0163,W,2.75,207.59,300811,,,D*78
$GPRMC,180415.000,A,3748.4855,N,12218.0171,W,2.79,207.70,300811,,,D*7E
$GPRMC,180416.000,A,3748.4849,N,12218.0180,W,2.57,208.43,300811,,,D*7D
$GPRMC,180417.000,A,3748.4840,N,12218.0185,W,2.83,204.87,300811,,,D*7D
$GPRMC,180418.000,A,3748.4830,N,12218.0192,W,2.91,206.10,300811,,,D*7C
$GPRMC,180419.000,A,3748.4820,N,12218.0199,W,3.01,211.30,300811,,,D*7B
$GPRMC,180420.000,A,3748.4810,N,12218.0208,W,2.83,207.15,300811,,,D*72
$GPRMC,180421.000,A,3748.4802,N,12218.0217,W,2.97,211.47,300811,,,D*7B
$GPRMC,180422.000,A,3748.4794,N,12218.0225,W,2.82,206.24,300811,,,D*7E
$GPRMC,180423.000,A,3748.4785,N,12218.0233,W,2.90,210.79,300811,,,D*74
$GPRMC,180424.000,A,3748.4778,N,12218.0241,W,2.63,207.96,300811,,,D*7F
$GPRMC,180425.000,A,3748.4772,N,12218.0247,W,2.40,202.72,300811,,,D*7C
$GPRMC,180426.000,A,3748.4766,N,12218.0254,W,2.77,209.49,300811,,,D*7F
$GPRMC,180427.000,A,3748.4758,N,12218.0263,W,2.47,206.11,300811,,,D*76
$GPRMC,180428.000,A,3748.4750,N,12218.0271,W,2.13,199.05,300811,,,D*73
$GPRMC,180429.000,A,3748.4741,N,12218.0281,W,2.28,203.03,300811,,,D*73
$GPRMC,180430.000,A,3748.4732,N,12218.0290,W,2.04,195.59,300811,,,D*72
$GPRMC,180431.000,A,3748.4725,N,12218.0295,W,2.12,194.25,300811,,,D*7D
$GPRMC,180432.000,A,3748.4718,N,12218.0301,W,2.23,205.31,300811,,,D*70
$GPRMC,180433.000,A,3748.4712,N,12218.0308,W,2.30,206.65,300811,,,D*72
$GPRMC,180434.000,A,3748.4705,N,12218.0313,W,2.01,198.02,300811,,,D*7E
$GPRMC,180435.000,A,3748.4700,N,12218.0317,W,1.88,195.59,300811,,,D*7F
$GPRMC,180436.000,A,3748.4694,N,12218.0322,W,1.98,200.15,300811,,,D*70
$GPRMC,180437.000,A,3748.4687,N,12218.0327,W,2.03,194.64,300811,,,D*7F
$GPRMC,180438.000,A,3748.4682,N,12218.0333,W,2.04,207.80,300811,,,D*74
$GPRMC,180439.000,A,3748.4675,N,12218.0337,W,2.40,200.87,300811,,,D*79
$GPRMC,180440.000,A,3748.4668,N,12218.0346,W,2.83,196.29,300811,,,D*7A
$GPRMC,180441.000,A,3748.4660,N,12218.0352,W,2.98,199.82,300811,,,D*72
$GPRMC,180442.000,A,3748.4651,N,12218.0359,W,2.75,208.03,300811,,,D*79
$GPRMC,180443.000,A,3748.4645,N,12218.0366,W,2.22,198.58,300811,,,D*77
$GPRMC,180444.000,A,3748.4639,N,12218.0371,W,2.20,201.36,300811,,,D*74
$GPRMC,180445.000,A,3748.4633,N,12218.0370,W,2.04,193.05,300811,,,D*70
$GPRMC,180446.000,A,3748.4628,N,12218.0371,W,1.94,198.10,300811,,,D*7D
$GPRMC,180447.000,A,3748.4622,N,12218.0372,W,2.43,204.81,300811,,,D*72
$GPRMC,180448.000,A,3748.4616,N,12218.0374,W,2.32,202.11,300811,,,D*75
$GPRMC,180449.000,A,3748.4609,N,12218.0379,W,2.81,203.25,300811,,,D*79
$GPRMC,180450.000,A,3748.4602,N,12218.0381,W,2.23,189.14,300811,,,D*76
$GPRMC,180451.000,A,3748.4595,N,12218.0382,W,2.43,195.81,300811,,,D*7E
$GPRMC,180452.000,A,3748.4588,N,12218.0381,W,2.43,191.10,300811,,,D*7E
$GPRMC,180453.000,A,3748.4581,N,12218.0380,W,2.54,188.69,300811,,,D*77
$GPRMC,180454.000,A,3748.4574,N,12218.0379,W,2.28,186.16,300811,,,D*71
$GPRMC,180455.000,A,3748.4562,N,12218.0382,W,2.30,197.79,300811,,,D*73
$GPRMC,180456.000,A,3748.4554,N,12218.0382,W,2.16,201.70,300811,,,D*74
$GPRMC,180457.000,A,3748.4545,N,12218.0378,W,2.25,182.55,300811,,,D*7F
$GPRMC,180458.000,A,3748.4539,N,12218.0378,W,1.65,200.56,300811,,,D*76
$GPRMC,180459.000,A,3748.4533,N,12218.0375,W,2.15,208.25,300811,,,D*78
$GPRMC,180500.000,A,3748.4524,N,12218.0375,W,2.23,195.57,300811,,,D*74
$GPRMC,180501.000,A,3748.4514,N,12218.0376,W,2.33,194.23,300811,,,D*76
$GPRMC,180502.000,A,3748.4504,N,12218.0380,W,2.49,199.94,300811,,,D*71
$GPRMC,180503.000,A,3748.4494,N,12218.0382,W,2.64,177.47,300811,,,D*7B
$GPRMC,180504.000,A,3748.4485,N,12218.0386,W,2.65,187.91,300811,,,D*7D
$GPRMC,180505.000,A,3748.4477,N,12218.0390,W,2.97,176.28,300811,,,D*77
$GPRMC,180506.000,A,3748.4468,N,12218.0389,W,2.46,179.08,300811,,,D*73
$GPRMC,180507.000,A,3748.4459,N,12218.0387,W,2.37,183.32,300811,,,D*74
$GPRMC,180508.000,A,3748.4453,N,12218.0392,W,2.38,175.51,300811,,,D*76
$GPRMC,180509.000,A,3748.4444,N,12218.0394,W,2.41,171.99,300811,,,D*79
$GPRMC,180510.000,A,3748.4436,N,12218.0399,W,2.33,180.50,300811,,,D*77
$GPRMC,180511.000,A,3748.4425,N,12218.0401,W,2.74,187.91,300811,,,D*7B
$GPRMC,180512.000,A,3748.4415,N,12218.0410,W,2.65,201.14,300811,,,D*7B
$GPRMC,180513.000,A,3748.4407,N,12218.0417,W,2.52,198.63,300811,,,D*79
$GPRMC,180514.000,A,3748.4399,N,12218.0423,W,2.31,196.75,300811,,,D*75
$GPRMC,180515.000,A,3748.4392,N,12218.0429,W,2.32,197.10,300811,,,D*74
$GPRMC,180516.000,A,3748.4385,N,12218.0433,W,2.43,197.79,300811,,,D*73
$GPRMC,180517.000,A,3748.4377,N,12218.0437,W,2.36,194.19,300811,,,D*7C
$GPRMC,180518.000,A,3748.4369,N,12218.0439,W,2.42,184.20,300811,,,D*7A
$GPRMC,180519.000,A,3748.4359,N,12218.0443,W,2.38,198.97,300811,,,D*79
$GPRMC,180520.000,A,3748.4350,N,12218.0447,W,2.65,189.68,300811,,,D*76
$GPRMC,180521.000,A,3748.4339,N,12218.0447,W,2.48,183.45,300811,,,D*72
$GPRMC,180522.000,A,3748.4331,N,12218.0448,W,2.29,181.63,300811,,,D*77
$GPRMC,180523.000,A,3748.4321,N,12218.0449,W,2.61,196.88,300811,,,D*79
