$ADVER,3080,2.3
$GPRMC,193834.708,A,3748.7991,N,12217.8600,W,0.06,23.90,221211,,,A*4D
$GPGGA,193835.708,3748.7998,N,12217.8605,W,1,06,1.6,3.6,M,-25.1,M,,0000*60
$GPGSA,A,3,16,21,29,26,30,18,,,,,,,2.7,1.6,2.3*30
$GPRMC,193835.708,A,3748.7998,N,12217.8605,W,0.09,77.27,221211,,,A*42
$GPVTG,77.27,T,,M,0.09,N,0.2,K,A*33
$GPGGA,193836.000,3748.7997,N,12217.8604,W,1,06,1.6,4.1,M,-25.1,M,,0000*62
$GPGSA,A,3,16,21,29,26,30,18,,,,,,,2.7,1.6,2.3*30
$GPRMC,193836.000,A,3748.7997,N,12217.8604,W,0.15,15.32,221211,,,A*4D
$GPVTG,15.32,T,,M,0.15,N,0.3,K,A*3F
$GPGGA,193837.000,3748.7997,N,12217.8604,W,1,06,1.6,3.9,M,-25.1,M,,0000*6C
$GPGSA,A,3,16,21,29,26,30,18,,,,,,,2.7,1.6,2.3*30
$GPRMC,193837.000,A,3748.7997,N,12217.8604,W,0.10,71.39,221211,,,A*40
$GPVTG,71.39,T,,M,0.10,N,0.2,K,A*32
$GPGGA,193838.000,3748.7997,N,12217.8604,W,1,06,1.6,3.8,M,-25.1,M,,0000*62
$GPGSA,A,3,16,21,29,26,30,18,,,,,,,2.7,1.6,2.3*30
$GPGSV,3,1,11,29,70,115,45,21,58,299,40,18,48,209,42,30,29,291,35*77
$GPGSV,3,2,11,26,23,076,37,16,16,317,31,05,19,044,36,25,14,185,36*7C
$GPGSV,3,3,11,22,07,218,32,06,05,311,,48,00,000,42*4E
$GPRMC,193838.000,A,3748.7997,N,12217.8604,W,0.09,62.54,221211,,,A*4E
$GPVTG,62.54,T,,M,0.09,N,0.2,K,A*33
$GPGGA,193839.000,3748.7996,N,12217.8604,W,1,06,1.6,3.8,M,-25.1,M,,0000*62
$GPGSA,A,3,16,21,29,26,30,18,,,,,,,2.7,1.6,2.3*30
$GPRMC,193839.000,A,3748.7996,N,12217.8604,W,0.09,58.73,221211,,,A*42
$GPVTG,58.73,T,,M,0.09,N,0.2,K,A*3F
$GPGGA,193840.000,3748.7996,N,12217.8604,W,1,06,1.6,3.8,M,-25.1,M,,0000*6C
$GPGSA,A,3,16,21,29,26,30,18,,,,,,,2.7,1.6,2.3*30
$GPRMC,193840.000,A,3748.7996,N,12217.8604,W,0.09,72.98,221211,,,A*41
$GPVTG,72.98,T,,M,0.09,N,0.2,K,A*32
$GPGGA,193841.000,3748.7996,N,12217.8604,W,1,06,1.6,3.7,M,-25.1,M,,0000*62
$GPGSA,A,3,16,21,29,26,30,18,,,,,,,2.7,1.6,2.3*30
$GPRMC,193841.000,A,3748.7996,N,12217.8604,W,0.09,62.83,221211,,,A*4B
$GPVTG,62.83,T,,M,0.09,N,0.2,K,A*39
$GPGGA,193842.000,3748.7996,N,12217.8604,W,1,06,1.6,3.7,M,-25.1,M,,0000*61
$GPGSA,A,3,16,21,29,26,30,18,,,,,,,2.7,1.6,2.3*30
$GPRMC,193842.000,A,3748.7996,N,12217.8604,W,0.09,65.72,221211,,,A*41
$GPVTG,65.72,T,,M,0.09,N,0.2,K,A*30
$GPGGA,193843.000,3748.7996,N,12217.8603,W,1,06,1.6,3.7,M,-25.1,M,,0000*67
$GPGSA,A,3,16,21,29,26,30,18,,,,,,,2.7,1.6,2.3*30
$GPGSV,3,1,11,29,70,115,45,21,58,299,40,18,48,209,42,30,29,291,35*77
$GPGSV,3,2,11,26,23,076,37,05,19,044,36,16,16,317,31,25,14,185,36*7C
$GPGSV,3,3,11,22,07,218,32,06,05,311,,48,44,197,41*42
$GPRMC,193843.000,A,3748.7996,N,12217.8603,W,0.09,68.91,221211,,,A*47
$GPVTG,68.91,T,,M,0.09,N,0.2,K,A*30
$GPGGA,193844.000,3748.7996,N,12217.8603,W,1,06,1.6,3.7,M,-25.1,M,,0000*60
$GPGSA,A,3,16,21,29,26,30,18,,,,,,,2.7,1.6,2.3*30
$GPRMC,193844.000,A,3748.7996,N,12217.8603,W,0.09,68.42,221211,,,A*4E
$GPVTG,68.42,T,,M,0.09,N,0.2,K,A*3E
$GPGGA,193845.000,3748.7996,N,12217.8603,W,1,06,1.6,3.7,M,-25.1,M,,0000*61
$GPGSA,A,3,16,21,29,26,30,18,,,,,,,2.7,1.6,2.3*30
$GPRMC,193845.000,A,3748.7996,N,12217.8603,W,0.09,62.82,221211,,,A*49
$GPVTG,62.82,T,,M,0.09,N,0.2,K,A*38
$GPGGA,193846.000,3748.7996,N,12217.8603,W,1,06,1.6,3.7,M,-25.1,M,,0000*62
$GPGSA,A,3,16,21,29,26,30,18,,,,,,,2.7,1.6,2.3*30
$GPRMC,193846.000,A,3748.7996,N,12217.8603,W,0.08,73.87,221211,,,A*4E
$GPVTG,73.87,T,,M,0.08,N,0.2,K,A*3C
$GPGGA,193847.000,3748.7996,N,12217.8603,W,1,06,1.6,3.7,M,-25.1,M,,0000*63
$GPGSA,A,3,16,21,29,26,30,18,,,,,,,2.7,1.6,2.3*30
$GPRMC,193847.000,A,3748.7996,N,12217.8603,W,0.09,64.81,221211,,,A*4E
$GPVTG,64.81,T,,M,0.09,N,0.2,K,A*3D
$GPGGA,193848.000,3748.7996,N,12217.8603,W,1,06,1.6,3.7,M,-25.1,M,,0000*6C
$GPGSA,A,3,16,21,29,26,30,18,,,,,,,2.7,1.6,2.3*30
$GPGSV,3,1,11,29,70,115,45,21,58,299,40,18,48,209,42,30,29,291,35*77
$GPGSV,3,2,11,26,23,076,37,05,19,044,36,16,16,317,30,25,14,185,37*7C
$GPGSV,3,3,11,22,07,218,32,06,05,311,,48,44,197,41*42
$GPVTG,60.19,T,,M,0.09,N,0.2,K,A*38
$GPGGA,193849.000,3748.7996,N,12217.8603,W,1,06,1.6,3.7,M,-25.1,M,,0000*6D
$GPGSA,A,3,16,21,29,26,30,18,,,,,,,2.7,1.6,2.3*30
$GPRMC,193849.000,A,3748.7996,N,12217.8603,W,0.09,71.16,221211,,,A*4A
$GPVTG,71.16,T,,M,0.09,N,0.2,K,A*37
$GPGGA,193850.000,3748.7996,N,12217.8603,W,1,06,1.6,3.7,M,-25.1,M,,0000*65
$GPGSA,A,3,16,21,29,26,30,18,,,,,,,2.7,1.6,2.3*30
$GPRMC,193850.000,A,3748.7996,N,12217.8603,W,0.10,60.04,221211,,,A*49
$GPVTG,60.04,T,,M,0.10,N,0.2,K,A*3C
$GPGGA,193851.000,3748.7996,N,12217.8602,W,1,06,1.6,3.7,M,-25.1,M,,0000*65
$GPGSA,A,3,16,21,29,26,30,18,,,,,,,2.7,1.6,2.3*30
$GPRMC,193851.000,A,3748.7996,N,12217.8602,W,0.09,69.85,221211,,,A*41
$GPVTG,69.85,T,,M,0.09,N,0.2,K,A*34
$GPGGA,193852.000,3748.7996,N,12217.8602,W,1,07,1.0,3.8,M,-25.1,M,,0000*6E
$GPGSA,A,3,16,21,29,26,30,18,25,,,,,,1.8,1.0,1.5*38
$GPRMC,193852.000,A,3748.7996,N,12217.8602,W,0.09,70.88,221211,,,A*47
$GPVTG,70.88,T,,M,0.09,N,0.2,K,A*31
$GPGGA,193853.000,3748.7996,N,12217.8602,W,1,07,1.0,3.9,M,-25.1,M,,0000*6E
$GPGSA,A,3,16,21,29,26,30,18,25,,,,,,1.8,1.0,1.5*38
$GPGSV,3,1,11,29,70,115,45,21,58,299,40,18,48,209,41,30,29,291,35*74
$GPGSV,3,2,11,26,23,076,37,05,19,044,35,16,16,317,30,25,14,185,37*7F
$GPGSV,3,3,11,22,07,218,32,06,05,311,,48,44,197,41*42
$GPRMC,193853.000,A,3748.7996,N,12217.8602,W,0.09,78.43,221211,,,A*49
$GPVTG,78.43,T,,M,0.09,N,0.2,K,A*3E
$GPGGA,193854.000,3748.7997,N,12217.8602,W,1,07,1.0,3.9,M,-25.1,M,,0000*68
$GPGSA,A,3,16,21,29,26,30,18,25,,,,,,1.8,1.0,1.5*38
$GPRMC,193854.000,A,3748.7997,N,12217.8602,W,0.08,65.29,221211,,,A*4E
$GPVTG,65.29,T,,M,0.08,N,0.2,K,A*3F
$GPGGA,193855.000,3748.7997,N,12217.8602,W,1,07,1.0,4.0,M,-25.1,M,,0000*67
$GPGSA,A,3,16,21,29,26,30,18,25,,,,,,1.8,1.0,1.5*38
$GPRMC,193855.000,A,3748.7997,N,12217.8602,W,0.10,86.79,221211,,,A*4E
$GPVTG,86.79,T,,M,0.10,N,0.2,K,A*3E
$GPGGA,193856.000,3748.7997,N,12217.8602,W,1,07,1.0,4.0,M,-25.1,M,,0000*64
$GPGSA,A,3,16,21,29,26,30,18,25,,,,,,1.8,1.0,1.5*38
$GPRMC,193856.000,A,3748.7997,N,12217.8602,W,0.09,71.72,221211,,,A*46
$GPVTG,71.72,T,,M,0.09,N,0.2,K,A*35
$GPGGA,193857.000,3748.7997,N,12217.8602,W,1,07,1.0,4.1,M,-25.1,M,,0000*64
$GPGSA,A,3,16,21,29,26,30,18,25,,,,,,1.8,1.0,1.5*38
$GPRMC,193857.000,A,3748.7997,N,12217.8602,W,0.08,68.44,221211,,,A*4B
$GPVTG,68.44,T,,M,0.08,N,0.2,K,A*39
$GPGGA,193858.000,3748.7997,N,12217.8602,W,1,07,1.0,4.1,M,-25.1,M,,0000*6B
$GPGSA,A,3,16,21,29,26,30,18,25,,,,,,1.8,1.0,1.5*38
$GPGSV,3,1,11,29,70,115,44,21,58,299,40,18,48,209,41,30,29,291,35*75
$GPGSV,3,2,11,26,23,076,38,05,19,044,35,16,16,317,30,25,14,185,37*70
$GPGSV,3,3,11,22,07,218,32,06,05,311,,48,44,197,42*41
$GPRMC,193858.000,A,3748.7997,N,12217.8602,W,0.08,73.63,221211,,,A*4B
$GPVTG,73.63,T,,M,0.08,N,0.2,K,A*36
$GPGGA,193859.000,3748.7997,N,12217.8601,W,2,07,1.0,4.2,M,-25.1,M,,0000*69
$GPGSA,A,3,16,21,29,26,30,18,25,,,,,,1.8,1.0,1.5*38
$GPRMC,193859.000,A,3748.7997,N,12217.8601,W,0.09,68.40,221211,,,D*46
$GPVTG,68.40,T,,M,0.09,N,0.2,K,D*39
$GPGGA,193900.000,3748.7998,N,12217.8601,W,2,07,1.0,4.2,M,-25.1,M,,0000*6B
$GPGSA,A,3,16,21,29,26,30,18,25,,,,,,1.8,1.0,1.5*38
$GPRMC,193900.000,A,3748.7998,N,12217.8601,W,0.10,59.11,221211,,,D*4A
$GPVTG,59.11,T,,M,0.10,N,0.2,K,D*37
$GPGGA,193901.000,3748.7998,N,12217.8601,W,2,07,1.0,4.2,M,-25.1,M,,0000*6A
$GPGSA,A,3,16,21,29,26,30,18,25,,,,,,1.8,1.0,1.5*38
$GPRMC,193901.000,A,3748.7998,N,12217.8601,W,0.09,87.38,221211,,,D*4B
$GPVTG,87.38,T,,M,0.09,N,0.2,K,D*37
$GPGGA,193902.000,3748.7997,N,12217.8601,W,2,07,1.0,4.2,M,-25.1,M,,0000*66
$GPGSA,A,3,16,21,29,26,30,18,25,,,,,,1.8,1.0,1.5*38
$GPRMC,193902.000,A,3748.7997,N,12217.8601,W,0.10,96.15,221211,,,D*40
$GPVTG,96.15,T,,M,0.10,N,0.2,K,D*30
$GPGGA,193903.000,3748.7997,N,12217.8601,W,2,07,1.0,4.2,M,-25.1,M,,0000*67
$GPGSA,A,3,16,21,29,26,30,18,25,,,,,,1.8,1.0,1.5*38
$GPGSV,3,1,11,29,70,115,45,21,58,299,40,18,48,209,41,30,29,291,35*74
$GPGSV,3,2,11,26,23,076,38,05,19,044,35,16,16,317,29,25,14,185,37*78
$GPGSV,3,3,11,22,07,218,32,06,05,311,23,48,44,197,41*43
$GPRMC,193903.000,A,3748.7997,N,12217.8601,W,0.11,85.32,221211,,,D*47
$GPGGA,193904.000,3748.7997,N,12217.8601,W,2,10,0.8,4.4,M,-25.1,M,,0000*69
$GPGSA,A,3,16,21,29,26,30,18,25,15,05,22,,,1.5,0.8,1.2*3A
$GPRMC,193904.000,A,3748.7997,N,12217.8601,W,0.05,39.48,221211,,,D*4F
$GPVTG,39.48,T,,M,0.05,N,0.1,K,D*3A
$GPGGA,193905.000,3748.7996,N,12217.8602,W,2,10,0.8,4.6,M,-25.1,M,2.8,0000*4C
$GPGSA,A,3,16,21,29,26,30,18,25,15,05,22,,,1.5,0.8,1.2*3A
$GPRMC,193905.000,A,3748.7996,N,12217.8602,W,0.04,62.82,221211,,,D*45
$GPVTG,62.82,T,,M,0.04,N,0.1,K,D*33
$GPGGA,193906.000,3748.7995,N,12217.8603,W,2,10,0.8,4.9,M,-25.1,M,,0000*66
$GPGSA,A,3,16,21,29,26,30,18,25,15,05,22,,,1.5,0.8,1.2*3A
$GPRMC,193906.000,A,3748.7995,N,12217.8603,W,0.06,37.20,221211,,,D*4E
$GPVTG,37.20,T,,M,0.06,N,0.1,K,D*39
$GPGGA,193907.000,3748.7995,N,12217.8603,W,2,10,0.8,5.1,M,-25.1,M,,0000*6E
$GPGSA,A,3,16,21,29,26,30,18,25,15,05,22,,,1.5,0.8,1.2*3A
$GPRMC,193907.000,A,3748.7995,N,12217.8603,W,0.04,32.52,221211,,,D*4D
$GPVTG,32.52,T,,M,0.04,N,0.1,K,D*3B
$GPGGA,193908.000,3748.7994,N,12217.8604,W,2,10,0.8,5.2,M,-25.1,M,,0000*64
$GPGSA,A,3,16,21,29,26,30,18,25,15,05,22,,,1.5,0.8,1.2*3A
$GPGSV,3,1,12,29,70,116,45,21,58,300,40,18,48,209,41,15,29,117,42*7F
$GPGSV,3,2,12,30,29,290,35,26,23,076,38,05,19,044,35,16,17,317,29*75
$GPGSV,3,3,12,25,14,185,37,22,07,218,32,06,05,311,24,48,44,197,42*7E
$GPRMC,193908.000,A,3748.7994,N,12217.8604,W,0.05,53.31,221211,,,D*47
$GPVTG,53.31,T,,M,0.05,N,0.1,K,D*38
$GPGGA,193909.000,3748.7993,N,12217.8604,W,2,10,0.8,5.4,M,-25.1,M,,0000*64
$GPGSA,A,3,16,21,29,26,30,18,25,15,05,22,,,1.5,0.8,1.2*3A
$GPRMC,193909.000,A,3748.7993,N,12217.8604,W,0.06,37.53,221211,,,D*44
$GPVTG,37.53,T,,M,0.06,N,0.1,K,D*3D
$GPGGA,193910.000,3748.7993,N,12217.8605,W,2,10,0.8,5.6,M,-25.1,M,,0000*6F
$GPGSA,A,3,16,21,29,26,30,18,25,15,05,22,,,1.5,0.8,1.2*3A
$GPRMC,193910.000,A,3748.7993,N,12217.8605,W,0.05,48.58,221211,,,D*4D
$GPVTG,48.58,T,,M,0.05,N,0.1,K,D*3D
$GPGGA,193911.000,3748.7993,N,12217.8605,W,2,10,0.8,5.7,M,-25.1,M,1.8,0000*48
$GPGSA,A,3,16,21,29,26,30,18,25,15,05,22,,,1.5,0.8,1.2*3A
$GPRMC,193911.000,A,3748.7993,N,12217.8605,W,0.04,59.24,221211,,,D*46
$GPVTG,59.24,T,,M,0.04,N,0.1,K,D*37
$GPGGA,193912.000,3748.7992,N,12217.8605,W,2,10,0.8,5.8,M,-25.1,M,2.8,0000*46
$GPGSA,A,3,16,21,29,26,30,18,25,15,05,22,,,1.5,0.8,1.2*3A
$GPRMC,193912.000,A,3748.7992,N,12217.8605,W,0.04,20.23,221211,,,D*4D
$GPVTG,20.23,T,,M,0.04,N,0.1,K,D*3E
$GPGGA,193913.000,3748.7992,N,12217.8606,W,2,10,0.8,5.9,M,-25.1,M,1.8,0000*46
$GPGSA,A,3,16,21,29,26,30,18,25,15,05,22,,,1.5,0.8,1.2*3A
$GPGSV,3,1,12,29,70,116,45,21,58,300,40,18,48,209,42,15,29,117,42*7C
$GPGSV,3,2,12,30,29,290,35,26,23,076,38,05,19,044,35,16,17,317,29*75
$GPGSV,3,3,12,25,14,185,37,22,07,218,32,06,05,311,24,48,44,197,42*7E
$GPRMC,193913.000,A,3748.7992,N,12217.8606,W,0.07,45.22,221211,,,D*4E
$GPVTG,45.22,T,,M,0.07,N,0.1,K,D*3F
$GPGGA,193914.000,3748.7992,N,12217.8606,W,2,10,0.8,6.0,M,-25.1,M,1.8,0000*4B
$GPGSA,A,3,16,21,29,26,30,18,25,15,05,22,,,1.5,0.8,1.2*3A
$GPRMC,193914.000,A,3748.7992,N,12217.8606,W,0.06,28.29,221211,,,D*48
$GPVTG,28.29,T,,M,0.06,N,0.1,K,D*3E
$GPGGA,193915.000,3748.7992,N,12217.8606,W,2,10,0.8,6.1,M,-25.1,M,1.8,0000*4B
$GPGSA,A,3,16,21,29,26,30,18,25,15,05,22,,,1.5,0.8,1.2*3A
$GPRMC,193915.000,A,3748.7992,N,12217.8606,W,0.07,35.25,221211,,,D*48
$GPVTG,35.25,T,,M,0.07,N,0.1,K,D*3F
$GPGGA,193916.000,3748.7991,N,12217.8606,W,2,10,0.8,6.2,M,-25.1,M,2.8,0000*4B
$GPGSA,A,3,16,21,29,26,30,18,25,15,05,22,,,1.5,0.8,1.2*3A
$GPRMC,193916.000,A,3748.7991,N,12217.8606,W,0.08,34.17,221211,,,D*47
$GPVTG,34.17,T,,M,0.08,N,0.1,K,D*30
$GPGGA,193917.000,3748.7991,N,12217.8606,W,2,10,0.8,6.2,M,-25.1,M,3.8,0000*4B
$GPGSA,A,3,16,21,29,26,30,18,25,15,05,22,,,1.5,0.8,1.2*3A
$GPRMC,193917.000,A,3748.7991,N,12217.8606,W,0.08,26.02,221211,,,D*41
$GPVTG,26.02,T,,M,0.08,N,0.1,K,D*37
$GPGGA,193918.000,3748.7991,N,12217.8606,W,2,10,0.8,6.3,M,-25.1,M,4.8,0000*42
$GPGSA,A,3,16,21,29,26,30,18,25,15,05,22,,,1.5,0.8,1.2*3A
$GPGSV,3,1,12,29,69,116,45,21,58,300,40,18,48,210,43,15,29,117,41*7E
$GPGSV,3,2,12,30,29,290,35,26,23,076,38,05,19,044,35,16,17,317,29*75
$GPGSV,3,3,12,25,14,185,37,22,07,218,33,06,05,311,23,48,44,197,41*7B
$GPRMC,193918.000,A,3748.7991,N,12217.8606,W,0.07,33.10,221211,,,D*46
$GPVTG,33.10,T,,M,0.07,N,0.1,K,D*3F
$GPGGA,193919.000,3748.7991,N,12217.8607,W,2,10,0.8,6.4,M,-25.1,M,1.8,0000*40
$GPGSA,A,3,16,21,29,26,30,18,25,15,05,22,,,1.5,0.8,1.2*3A
$GPRMC,193919.000,A,3748.7991,N,12217.8607,W,0.05,24.03,221211,,,D*40
$GPVTG,24.03,T,,M,0.05,N,0.1,K,D*39
$GPGGA,193920.000,3748.7991,N,12217.8607,W,2,10,0.8,6.4,M,-25.1,M,1.8,0000*4A
$GPGSA,A,3,16,21,29,26,30,18,25,15,05,22,,,1.5,0.8,1.2*3A
$GPRMC,193920.000,A,3748.7991,N,12217.8607,W,0.05,45.86,221211,,,D*40
$GPVTG,45.86,T,,M,0.05,N,0.1,K,D*33
$GPGGA,193921.000,3748.7991,N,12217.8607,W,2,10,0.8,6.5,M,-25.1,M,1.8,0000*4A
$GPGSA,A,3,16,21,29,26,30,18,25,15,05,22,,,1.5,0.8,1.2*3A
$GPRMC,193921.000,A,3748.7991,N,12217.8607,W,0.04,44.96,221211,,,D*40
$GPVTG,44.96,T,,M,0.04,N,0.1,K,D*32
$GPGGA,193922.000,3748.7990,N,12217.8607,W,2,10,0.8,6.5,M,-25.1,M,2.8,0000*4B
$GPGSA,A,3,16,21,29,26,30,18,25,15,05,22,,,1.5,0.8,1.2*3A
$GPRMC,193922.000,A,3748.7990,N,12217.8607,W,0.02,57.60,221211,,,D*4F
$GPVTG,57.60,T,,M,0.02,N,0.0,K,D*3E
$GPGGA,193923.000,3748.7990,N,12217.8607,W,2,10,0.8,6.6,M,-25.1,M,3.8,0000*48
$GPGSA,A,3,16,21,29,26,30,18,25,15,05,22,,,1.5,0.8,1.2*3A
$GPGSV,3,1,12,29,69,116,45,21,58,300,40,18,48,210,40,15,29,117,41*7D
$GPGSV,3,2,12,30,29,290,36,26,23,076,38,05,19,044,35,16,17,317,29*76
$GPGSV,3,3,12,25,14,185,37,22,07,218,28,06,05,311,,48,44,197,40*71
$GPVTG,55.79,T,,M,0.09,N,0.2,K,D*3D
$GPGGA,193924.000,3748.7990,N,12217.8607,W,2,10,0.8,6.6,M,-25.1,M,1.8,0000*4D
$GPGSA,A,3,16,21,29,26,30,18,25,15,05,22,,,1.5,0.8,1.2*3A
$GPRMC,193924.000,A,3748.7990,N,12217.8607,W,0.09,277.88,221211,,,D*74
$GPVTG,277.88,T,,M,0.09,N,0.2,K,D*01
$GPGGA,193925.000,3748.7990,N,12217.8608,W,2,10,0.8,6.5,M,-25.1,M,2.8,0000*43
$GPGSA,A,3,16,21,29,26,30,18,25,15,05,22,,,1.5,0.8,1.2*3A
$GPRMC,193925.000,A,3748.7990,N,12217.8608,W,0.13,197.17,221211,,,D*7A
$GPVTG,197.17,T,,M,0.13,N,0.2,K,D*01
$GPGGA,193926.000,3748.7990,N,12217.8608,W,2,10,0.8,6.5,M,-25.1,M,3.8,0000*41
$GPGSA,A,3,16,21,29,26,30,18,25,15,05,22,,,1.5,0.8,1.2*3A
$GPRMC,193926.000,A,3748.7990,N,12217.8608,W,0.05,9.86,221211,,,D*70
$GPVTG,9.86,T,,M,0.05,N,0.1,K,D*0B
$GPGGA,193927.000,3748.7990,N,12217.8608,W,2,10,0.8,6.5,M,-25.1,M,4.8,0000*47
$GPGSA,A,3,16,21,29,26,30,18,25,15,05,22,,,1.5,0.8,1.2*3A
$GPRMC,193927.000,A,3748.7990,N,12217.8608,W,0.16,176.01,221211,,,D*75
$GPVTG,176.01,T,,M,0.16,N,0.3,K,D*0D
$GPGGA,193928.000,3748.7989,N,12217.8608,W,2,10,0.8,6.5,M,-25.1,M,5.8,0000*41
$GPGSA,A,3,16,21,29,26,30,18,25,15,05,22,,,1.5,0.8,1.2*3A
$GPGSV,3,1,12,29,69,116,36,21,58,300,36,18,48,210,28,15,29,117,41*76
$GPGSV,3,2,12,30,29,290,37,26,23,076,37,05,19,044,32,16,17,317,22*74
$GPGSV,3,3,12,25,14,185,30,22,07,218,29,06,05,311,22,48,44,197,32*72
$GPRMC,193928.000,A,3748.7989,N,12217.8608,W,0.02,315.64,221211,,,D*73
$GPVTG,315.64,T,,M,0.02,N,0.0,K,D*0F
$GPGGA,193929.000,3748.7988,N,12217.8609,W,2,10,0.8,6.6,M,-25.1,M,6.8,0000*40
$GPGSA,A,3,16,21,29,26,30,18,25,15,05,22,,,1.5,0.8,1.2*3A
$GPRMC,193929.000,A,3748.7988,N,12217.8609,W,0.10,213.49,221211,,,D*79
$GPVTG,213.49,T,,M,0.10,N,0.2,K,D*06
$GPGGA,193930.000,3748.7988,N,12217.8609,W,2,10,0.8,6.5,M,-25.1,M,7.8,0000*4A
$GPGSA,A,3,16,21,29,26,30,18,25,15,05,22,,,1.5,0.8,1.2*3A
$GPRMC,193930.000,A,3748.7988,N,12217.8609,W,0.33,188.23,221211,,,D*7D
$GPVTG,188.23,T,,M,0.33,N,0.6,K,D*0E
$GPGGA,193931.000,3748.7987,N,12217.8609,W,2,10,0.8,6.5,M,-25.1,M,8.8,0000*4B
$GPGSA,A,3,16,21,29,26,30,18,25,15,05,22,,,1.5,0.8,1.2*3A
$GPRMC,193931.000,A,3748.7987,N,12217.8609,W,0.43,173.60,221211,,,D*77
$GPVTG,173.60,T,,M,0.43,N,0.8,K,D*04
$GPGGA,193932.000,3748.7986,N,12217.8609,W,2,10,0.8,6.6,M,-25.1,M,1.8,0000*43
$GPGSA,A,3,16,21,29,26,30,18,25,15,05,22,,,1.5,0.8,1.2*3A
$GPRMC,193932.000,A,3748.7986,N,12217.8609,W,0.10,75.42,221211,,,D*44
$GPVTG,75.42,T,,M,0.10,N,0.2,K,D*3F
$GPGGA,193933.000,3748.7986,N,12217.8608,W,2,10,0.8,6.5,M,-25.1,M,1.8,0000*40
$GPGSA,A,3,16,21,29,26,30,18,25,15,05,22,,,1.5,0.8,1.2*3A
$GPGSV,3,1,12,29,69,116,25,21,58,300,26,18,48,210,33,15,29,117,36*7F
$GPGSV,3,2,12,30,29,290,21,26,23,076,36,05,19,044,30,16,17,317,28*7A
$GPGSV,3,3,12,25,14,185,33,22,07,218,39,06,05,311,31,48,44,197,35*75
$GPRMC,193933.000,A,3748.7986,N,12217.8608,W,0.13,342.53,221211,,,D*70
$GPVTG,342.53,T,,M,0.13,N,0.2,K,D*0B
$GPGGA,193934.000,3748.7988,N,12217.8607,W,2,09,0.8,6.1,M,-25.1,M,2.8,0000*49
$GPGSA,A,3,16,21,26,30,18,25,15,05,22,,,,1.7,0.8,1.5*34
$GPRMC,193934.000,A,3748.7988,N,12217.8607,W,0.28,122.05,221211,,,D*79
$GPVTG,122.05,T,,M,0.28,N,0.5,K,D*03
$GPGGA,193935.000,3748.7989,N,12217.8606,W,2,10,0.8,5.5,M,-25.1,M,3.8,0000*46
$GPGSA,A,3,16,21,29,26,30,18,25,15,05,22,,,1.5,0.8,1.2*3A
$GPRMC,193935.000,A,3748.7989,N,12217.8606,W,0.30,43.95,221211,,,D*4E
$GPVTG,43.95,T,,M,0.30,N,0.6,K,D*36
$GPGGA,193936.000,3748.7989,N,12217.8605,W,2,10,0.8,6.2,M,-25.1,M,4.8,0000*45
$GPGSA,A,3,16,21,29,26,30,18,25,15,05,22,,,1.5,0.8,1.2*3A
$GPRMC,193936.000,A,3748.7989,N,12217.8605,W,0.40,80.46,221211,,,D*48
$GPVTG,80.46,T,,M,0.40,N,0.7,K,D*31
$GPGGA,193937.000,3748.7989,N,12217.8604,W,2,10,0.8,6.3,M,-25.1,M,5.8,0000*45
$GPGSA,A,3,16,21,29,26,30,18,25,15,05,22,,,1.5,0.8,1.2*3A
$GPRMC,193937.000,A,3748.7989,N,12217.8604,W,0.15,328.48,221211,,,D*77
$GPVTG,328.48,T,,M,0.15,N,0.3,K,D*0A
$GPGGA,193938.000,3748.7989,N,12217.8604,W,2,10,0.8,6.4,M,-25.1,M,6.8,0000*4E
$GPGSA,A,3,16,21,29,26,30,18,25,15,05,22,,,1.5,0.8,1.2*3A
$GPGSV,3,1,12,29,69,116,30,21,58,300,26,18,48,210,30,15,29,117,38*76
$GPGSV,3,2,12,30,29,290,32,26,23,076,37,05,19,044,35,16,17,317,36*73
$GPGSV,3,3,12,25,14,185,36,22,07,218,37,06,05,311,36,48,44,197,30*7C
$GPRMC,193938.000,A,3748.7989,N,12217.8604,W,0.18,97.42,221211,,,D*48
$GPVTG,97.42,T,,M,0.18,N,0.3,K,D*3A
$GPGGA,193939.000,3748.7989,N,12217.8603,W,2,10,0.8,6.5,M,-25.1,M,7.8,0000*48
$GPGSA,A,3,16,21,29,26,30,18,25,15,05,22,,,1.5,0.8,1.2*3A
$GPRMC,193939.000,A,3748.7989,N,12217.8603,W,0.25,114.48,221211,,,D*70
$GPVTG,114.48,T,,M,0.25,N,0.5,K,D*02
$GPGGA,193940.000,3748.7989,N,12217.8602,W,2,10,0.8,6.4,M,-25.1,M,8.8,0000*49
$GPGSA,A,3,16,21,29,26,30,18,25,15,05,22,,,1.5,0.8,1.2*3A
$GPRMC,193940.000,A,3748.7989,N,12217.8602,W,0.15,59.33,221211,,,D*48
$GPVTG,59.33,T,,M,0.15,N,0.3,K,D*33
$GPGGA,193941.000,3748.7990,N,12217.8602,W,2,10,0.8,6.2,M,-25.1,M,9.8,0000*47
$GPGSA,A,3,16,21,29,26,30,18,25,15,05,22,,,1.5,0.8,1.2*3A
$GPRMC,193941.000,A,3748.7990,N,12217.8602,W,0.59,307.19,221211,,,D*79
$GPVTG,307.19,T,,M,0.59,N,1.1,K,D*08
$GPGGA,193942.000,3748.7992,N,12217.8604,W,2,10,0.8,5.3,M,-25.1,M,10.8,0000*7A
$GPGSA,A,3,16,21,29,26,30,18,25,15,05,22,,,1.5,0.8,1.2*3A
$GPRMC,193942.000,A,3748.7992,N,12217.8604,W,0.24,177.20,221211,,,D*7B
$GPVTG,177.20,T,,M,0.24,N,0.4,K,D*09
$GPGGA,193943.000,3748.7994,N,12217.8604,W,2,10,0.8,4.8,M,-25.1,M,11.8,0000*76
$GPGSA,A,3,16,21,29,26,30,18,25,15,05,22,,,1.5,0.8,1.2*3A
$GPGSV,3,1,12,29,69,116,21,21,58,300,31,18,48,210,29,15,29,117,28*79
$GPGSV,3,2,12,30,29,290,38,26,23,076,35,05,19,044,35,16,17,317,39*74
$GPGSV,3,3,12,25,14,185,28,22,07,218,27,06,05,311,38,48,44,197,29*74
$GPRMC,193943.000,A,3748.7994,N,12217.8604,W,0.26,333.57,221211,,,D*7C
$GPVTG,333.57,T,,M,0.26,N,0.5,K,D*08
$GPGGA,193944.000,3748.7994,N,12217.8604,W,2,10,0.8,4.6,M,-25.1,M,12.8,0000*7C
$GPGSA,A,3,16,21,29,26,30,18,25,15,05,22,,,1.5,0.8,1.2*3A
$GPRMC,193944.000,A,3748.7994,N,12217.8604,W,0.32,124.63,221211,,,D*7D
$GPVTG,124.63,T,,M,0.32,N,0.6,K,D*0D
$GPGGA,193945.000,3748.7995,N,12217.8603,W,2,10,0.8,4.6,M,-25.1,M,13.8,0000*7A
$GPGSA,A,3,16,21,29,26,30,18,25,15,05,22,,,1.5,0.8,1.2*3A
$GPRMC,193945.000,A,3748.7995,N,12217.8603,W,0.21,111.14,221211,,,D*7E
$GPVTG,111.14,T,,M,0.21,N,0.4,K,D*0B
$GPGGA,193946.000,3748.7996,N,12217.8603,W,2,10,0.8,4.7,M,-25.1,M,14.8,0000*7C
$GPGSA,A,3,16,21,29,26,30,18,25,15,05,22,,,1.5,0.8,1.2*3A
$GPRMC,193946.000,A,3748.7996,N,12217.8603,W,0.54,112.92,221211,,,D*71
$GPVTG,112.92,T,,M,0.54,N,1.0,K,D*01
$GPGGA,193947.000,3748.7996,N,12217.8603,W,2,10,0.8,4.4,M,-25.1,M,15.8,0000*7F
$GPGSA,A,3,16,21,29,26,30,18,25,15,05,22,,,1.5,0.8,1.2*3A
$GPRMC,193947.000,A,3748.7996,N,12217.8603,W,0.54,243.22,221211,,,D*7C
$GPVTG,243.22,T,,M,0.54,N,1.0,K,D*0D
$GPGGA,193948.000,3748.7996,N,12217.8603,W,2,10,0.8,3.9,M,-25.1,M,16.8,0000*79
$GPGSA,A,3,16,21,29,26,30,18,25,15,05,22,,,1.5,0.8,1.2*3A
$GPGSV,3,1,12,29,69,116,37,21,58,300,30,18,48,210,35,15,30,117,41*75
$GPGSV,3,2,12,30,29,290,29,26,23,076,43,05,19,044,42,16,17,317,32*7E
$GPGSV,3,3,12,25,13,185,35,22,07,218,29,06,06,311,27,48,44,197,34*70
$GPVTG,100.03,T,,M,0.37,N,0.7,K,D*09
$GPGGA,193949.000,3748.7996,N,12217.8601,W,2,10,0.8,3.5,M,-25.1,M,17.8,0000*77
$GPGSA,A,3,16,21,29,26,30,18,25,15,05,22,,,1.5,0.8,1.2*3A
$GPRMC,193949.000,A,3748.7996,N,12217.8601,W,0.25,153.62,221211,,,D*70
$GPVTG,153.62,T,,M,0.25,N,0.5,K,D*09
$GPGGA,193950.000,3748.7996,N,12217.8600,W,1,10,0.8,3.0,M,-25.1,M,,0000*68
$GPGSA,A,3,16,21,29,26,30,18,25,15,05,22,,,1.5,0.8,1.2*3A
$GPRMC,193950.000,A,3748.7996,N,12217.8600,W,0.12,114.13,221211,,,A*7D
$GPVTG,114.13,T,,M,0.12,N,0.2,K,A*0A
$GPGGA,193951.000,3748.7996,N,12217.8600,W,1,10,0.8,2.6,M,-25.1,M,,0000*6E
$GPGSA,A,3,16,21,29,26,30,18,25,15,05,22,,,1.5,0.8,1.2*3A
$GPRMC,193951.000,A,3748.7996,N,12217.8600,W,0.15,174.48,221211,,,A*73
$GPVTG,174.48,T,,M,0.15,N,0.3,K,A*04
$GPGGA,193952.000,3748.7996,N,12217.8599,W,1,10,0.8,2.3,M,-25.1,M,,0000*6B
$GPGSA,A,3,16,21,29,26,30,18,25,15,05,22,,,1.5,0.8,1.2*3A
$GPRMC,193952.000,A,3748.7996,N,12217.8599,W,0.15,359.74,221211,,,A*71
$GPVTG,359.74,T,,M,0.15,N,0.3,K,A*06
$GPGGA,193953.000,3748.7996,N,12217.8599,W,1,10,0.8,2.0,M,-25.1,M,,0000*69
$GPGSA,A,3,16,21,29,26,30,18,25,15,05,22,,,1.5,0.8,1.2*3A
$GPGSV,3,1,12,29,69,116,38,21,58,300,27,18,48,210,23,15,30,117,42*78
$GPGSV,3,2,12,30,29,290,29,26,23,076,43,05,19,044,41,16,17,317,27*79
$GPGSV,3,3,12,25,13,185,35,22,07,218,31,06,06,311,24,48,44,197,29*76
$GPRMC,193953.000,A,3748.7996,N,12217.8599,W,0.09,27.71,221211,,,A*42
$GPVTG,27.71,T,,M,0.09,N,0.2,K,A*35
$GPGGA,193954.000,3748.7996,N,12217.8598,W,1,10,0.8,1.9,M,-25.1,M,,0000*65
$GPGSA,A,3,16,21,29,26,30,18,25,15,05,22,,,1.5,0.8,1.2*3A
$GPRMC,193954.000,A,3748.7996,N,12217.8598,W,0.10,11.57,221211,,,A*4D
$GPVTG,11.57,T,,M,0.10,N,0.2,K,A*3C
$GPGGA,193955.000,3748.7997,N,12217.8598,W,1,10,0.8,1.8,M,-25.1,M,,0000*64
$GPGSA,A,3,16,21,29,26,30,18,25,15,05,22,,,1.5,0.8,1.2*3A
$GPRMC,193955.000,A,3748.7997,N,12217.8598,W,0.08,11.97,221211,,,A*48
$GPVTG,11.97,T,,M,0.08,N,0.1,K,A*3A
$GPGGA,193956.000,3748.7997,N,12217.8598,W,1,09,0.8,1.8,M,-25.1,M,,0000*6F
$GPGSA,A,3,16,29,26,30,18,25,15,05,22,,,,1.6,0.8,1.4*3C
$GPRMC,193956.000,A,3748.7997,N,12217.8598,W,0.07,18.52,221211,,,A*44
$GPVTG,18.52,T,,M,0.07,N,0.1,K,A*35
$GPGGA,193957.000,3748.7998,N,12217.8597,W,1,09,0.8,1.8,M,-25.1,M,,0000*6E
$GPGSA,A,3,16,29,26,30,18,25,15,05,22,,,,1.6,0.8,1.4*3C
$GPRMC,193957.000,A,3748.7998,N,12217.8597,W,0.09,76.01,221211,,,A*45
$GPVTG,76.01,T,,M,0.09,N,0.2,K,A*36
$GPGGA,193958.000,3748.7998,N,12217.8596,W,1,10,0.8,1.9,M,-25.1,M,,0000*69
$GPGSA,A,3,16,21,29,26,30,18,25,15,05,22,,,1.5,0.8,1.2*3A
$GPGSV,3,1,11,29,69,116,33,21,58,300,27,18,48,210,30,15,30,117,43*73
$GPGSV,3,2,11,30,29,290,19,26,23,076,42,05,19,044,42,16,17,317,28*74
$GPGSV,3,3,11,25,13,185,37,22,07,218,36,06,06,311,22*4E
$GPRMC,193958.000,A,3748.7998,N,12217.8596,W,0.12,75.33,221211,,,A*43
$GPVTG,75.33,T,,M,0.12,N,0.2,K,A*3E
$GPGGA,193959.000,3748.7998,N,12217.8596,W,1,10,0.8,2.0,M,-25.1,M,,0000*62
$GPGSA,A,3,16,21,29,26,30,18,25,15,05,22,,,1.5,0.8,1.2*3A
$GPRMC,193959.000,A,3748.7998,N,12217.8596,W,0.08,4.62,221211,,,A*7B
$GPVTG,4.62,T,,M,0.08,N,0.2,K,A*07
$GPGGA,194000.000,3748.7999,N,12217.8595,W,1,10,0.8,2.0,M,-25.1,M,,0000*62
$GPGSA,A,3,16,21,29,26,30,18,25,15,05,22,,,1.5,0.8,1.2*3A
$GPRMC,194000.000,A,3748.7999,N,12217.8595,W,0.11,57.16,221211,,,A*46
$GPVTG,57.16,T,,M,0.11,N,0.2,K,A*3A
$GPGGA,194001.000,3748.7999,N,12217.8595,W,1,10,0.8,2.0,M,-25.1,M,,0000*63
$GPGSA,A,3,16,21,29,26,30,18,25,15,05,22,,,1.5,0.8,1.2*3A
$GPRMC,194001.000,A,3748.7999,N,12217.8595,W,0.05,351.33,221211,,,A*70
$GPVTG,351.33,T,,M,0.05,N,0.1,K,A*0E
$GPGGA,194002.000,3748.8000,N,12217.8594,W,1,09,0.8,2.2,M,-25.1,M,,0000*6D
$GPGSA,A,3,16,29,26,30,18,25,15,05,22,,,,1.6,0.8,1.4*3C
$GPRMC,194002.000,A,3748.8000,N,12217.8594,W,0.06,42.93,221211,,,A*4C
$GPVTG,42.93,T,,M,0.06,N,0.1,K,A*36
$GPGGA,194003.000,3748.8000,N,12217.8595,W,1,09,0.8,2.3,M,-25.1,M,,0000*6C
$GPGSA,A,3,16,29,26,30,18,25,15,05,22,,,,1.6,0.8,1.4*3C
$GPGSV,3,1,12,29,69,116,32,21,58,300,,18,48,210,31,15,30,117,41*77
$GPGSV,3,2,12,30,29,290,25,26,23,076,42,05,19,044,42,16,17,317,28*78
$GPGSV,3,3,12,25,13,185,31,22,07,218,36,06,06,311,,48,44,197,25*7F
$GPRMC,194003.000,A,3748.8000,N,12217.8595,W,0.07,16.95,221211,,,A*4A
$GPVTG,16.95,T,,M,0.07,N,0.1,K,A*30
$GPGGA,194004.000,3748.8000,N,12217.8595,W,1,10,0.8,2.4,M,-25.1,M,,0000*64
$GPGSA,A,3,16,21,29,26,30,18,25,15,05,22,,,1.5,0.8,1.2*3A
$GPRMC,194004.000,A,3748.8000,N,12217.8595,W,0.08,50.13,221211,,,A*4E
$GPVTG,50.13,T,,M,0.08,N,0.2,K,A*30
$GPGGA,194005.000,3748.8000,N,12217.8595,W,1,10,0.8,2.5,M,-25.1,M,,0000*64
$GPGSA,A,3,16,21,29,26,30,18,25,15,05,22,,,1.5,0.8,1.2*3A
$GPRMC,194005.000,A,3748.8000,N,12217.8595,W,0.04,7.85,221211,,,A*7E
$GPVTG,7.85,T,,M,0.04,N,0.1,K,A*02
$GPGGA,194006.000,3748.8000,N,12217.8595,W,1,10,0.8,2.6,M,-25.1,M,,0000*64
$GPGSA,A,3,16,21,29,26,30,18,25,15,05,22,,,1.5,0.8,1.2*3A
$GPRMC,194006.000,A,3748.8000,N,12217.8595,W,0.07,99.46,221211,,,A*46
$GPVTG,99.46,T,,M,0.07,N,0.1,K,A*39
$GPGGA,194007.000,3748.8000,N,12217.8595,W,1,10,0.8,2.7,M,-25.1,M,,0000*64
$GPGSA,A,3,16,21,29,26,30,18,25,15,05,22,,,1.5,0.8,1.2*3A
$GPRMC,194007.000,A,3748.8000,N,12217.8595,W,0.14,190.45,221211,,,A*7E
$GPVTG,190.45,T,,M,0.14,N,0.3,K,A*02
$GPGGA,194008.000,3748.8001,N,12217.8596,W,1,10,0.8,3.0,M,-25.1,M,,0000*6F
$GPGSA,A,3,16,21,29,26,30,18,25,15,05,22,,,1.5,0.8,1.2*3A
$GPGSV,3,1,12,29,69,116,32,21,58,300,34,18,48,210,43,15,30,117,36*75
$GPGSV,3,2,12,30,29,290,39,26,23,076,27,05,19,044,14,16,17,317,35*79
$GPGSV,3,3,12,25,13,185,42,22,07,218,37,06,06,311,30,48,44,197,44*7E
$GPVTG,7.83,T,,M,0.36,N,0.7,K,A*03
$GPGGA,194009.000,3748.8001,N,12217.8596,W,2,10,0.8,2.9,M,-25.1,M,1.8,0000*42
$GPGSA,A,3,16,21,29,26,30,18,25,15,05,22,,,1.5,0.8,1.2*3A
$GPRMC,194009.000,A,3748.8001,N,12217.8596,W,0.21,334.77,221211,,,D*7C
$GPVTG,334.77,T,,M,0.21,N,0.4,K,D*0B
$GPGGA,194010.000,3748.8002,N,12217.8595,W,2,10,0.8,2.9,M,-25.1,M,2.8,0000*49
$GPGSA,A,3,16,21,29,26,30,18,25,15,05,22,,,1.5,0.8,1.2*3A
$GPRMC,194010.000,A,3748.8002,N,12217.8595,W,0.60,56.40,221211,,,D*42
$GPVTG,56.40,T,,M,0.60,N,1.1,K,D*39
$GPGGA,194011.000,3748.8003,N,12217.8593,W,2,10,0.8,3.0,M,-25.1,M,3.8,0000*46
$GPGSA,A,3,16,21,29,26,30,18,25,15,05,22,,,1.5,0.8,1.2*3A
$GPRMC,194011.000,A,3748.8003,N,12217.8593,W,0.65,92.26,221211,,,D*49
$GPVTG,92.26,T,,M,0.65,N,1.2,K,D*37
$GPGGA,194012.000,3748.8003,N,12217.8592,W,2,10,0.8,3.2,M,-25.1,M,1.8,0000*44
$GPGSA,A,3,16,21,29,26,30,18,25,15,05,22,,,1.5,0.8,1.2*3A
$GPRMC,194012.000,A,3748.8003,N,12217.8592,W,0.19,80.42,221211,,,D*41
$GPVTG,80.42,T,,M,0.19,N,0.4,K,D*3A
$GPGGA,194013.000,3748.8003,N,12217.8592,W,2,09,0.9,3.3,M,-25.1,M,1.8,0000*4D
$GPGSA,A,3,16,21,29,26,30,18,25,15,22,,,,1.6,0.9,1.3*3C
$GPGSV,3,1,12,29,69,116,30,21,58,300,36,18,48,210,41,15,30,117,34*75
$GPGSV,3,2,12,30,29,290,40,26,23,076,24,05,19,044,26,16,17,317,35*75
$GPGSV,3,3,12,25,13,185,42,22,07,218,41,06,06,311,24,48,44,197,41*7F
$GPRMC,194013.000,A,3748.8003,N,12217.8592,W,0.12,120.11,221211,,,D*76
$GPVTG,120.11,T,,M,0.12,N,0.2,K,D*0A
$GPGGA,194014.000,3748.8004,N,12217.8593,W,2,10,0.8,3.6,M,-25.1,M,1.8,0000*40
$GPGSA,A,3,16,21,29,26,30,18,25,15,05,22,,,1.5,0.8,1.2*3A
$GPRMC,194014.000,A,3748.8004,N,12217.8593,W,0.12,353.24,221211,,,D*77
$GPVTG,353.24,T,,M,0.12,N,0.2,K,D*0A
$GPGGA,194015.000,3748.8004,N,12217.8593,W,2,10,0.8,3.6,M,-25.1,M,1.8,0000*41
$GPGSA,A,3,16,21,29,26,30,18,25,15,05,22,,,1.5,0.8,1.2*3A
$GPRMC,194015.000,A,3748.8004,N,12217.8593,W,0.13,9.79,221211,,,D*73
$GPVTG,9.79,T,,M,0.13,N,0.2,K,D*0F
$GPGGA,194016.000,3748.8005,N,12217.8594,W,2,10,0.8,3.6,M,-25.1,M,2.8,0000*47
$GPGSA,A,3,16,21,29,26,30,18,25,15,05,22,,,1.5,0.8,1.2*3A
$GPRMC,194016.000,A,3748.8005,N,12217.8594,W,0.39,296.91,221211,,,D*7C
$GPVTG,296.91,T,,M,0.39,N,0.7,K,D*00
$GPGGA,194017.000,3748.8004,N,12217.8598,W,2,10,0.8,4.0,M,-25.1,M,3.8,0000*4B
$GPGSA,A,3,16,21,29,26,30,18,25,15,05,22,,,1.5,0.8,1.2*3A
$GPRMC,194017.000,A,3748.8004,N,12217.8598,W,0.10,281.80,221211,,,D*7D
$GPVTG,281.80,T,,M,0.10,N,0.2,K,D*08
$GPGGA,194018.000,3748.8003,N,12217.8599,W,2,10,0.8,4.2,M,-25.1,M,4.8,0000*47
$GPGSA,A,3,16,21,29,26,30,18,25,15,05,22,,,1.5,0.8,1.2*3A
$GPGSV,3,1,12,29,69,117,30,21,58,300,29,18,48,210,41,15,30,117,29*76
$GPGSV,3,2,12,30,29,290,36,26,23,076,25,05,19,044,28,16,17,316,34*7B
$GPGSV,3,3,12,25,13,185,36,22,07,218,36,06,06,311,32,48,44,197,34*79
$GPRMC,194018.000,A,3748.8003,N,12217.8599,W,0.64,194.87,221211,,,D*77
$GPVTG,194.87,T,,M,0.64,N,1.2,K,D*0A
$GPGGA,194019.000,3748.8002,N,12217.8601,W,2,10,0.8,4.3,M,-25.1,M,5.8,0000*45
$GPGSA,A,3,16,21,29,26,30,18,25,15,05,22,,,1.5,0.8,1.2*3A
$GPRMC,194019.000,A,3748.8002,N,12217.8601,W,0.44,240.90,221211,,,D*7B
$GPVTG,240.90,T,,M,0.44,N,0.8,K,D*0F
$GPGGA,194020.000,3748.8001,N,12217.8602,W,2,10,0.8,4.4,M,-25.1,M,6.8,0000*4B
$GPGSA,A,3,16,21,29,26,30,18,25,15,05,22,,,1.5,0.8,1.2*3A
$GPRMC,194020.000,A,3748.8001,N,12217.8602,W,0.10,103.54,221211,,,D*7C
$GPVTG,103.54,T,,M,0.10,N,0.2,K,D*08
$GPGGA,194021.000,3748.8002,N,12217.8600,W,2,10,0.8,4.2,M,-25.1,M,1.8,0000*4A
$GPGSA,A,3,16,21,29,26,30,18,25,15,05,22,,,1.5,0.8,1.2*3A
$GPRMC,194021.000,A,3748.8002,N,12217.8600,W,0.31,23.22,221211,,,D*4D
$GPVTG,23.22,T,,M,0.31,N,0.6,K,D*3D
$GPGGA,194022.000,3748.8003,N,12217.8599,W,2,10,0.8,4.1,M,-25.1,M,2.8,0000*4B
$GPGSA,A,3,16,21,29,26,30,18,25,15,05,22,,,1.5,0.8,1.2*3A
$GPRMC,194022.000,A,3748.8003,N,12217.8599,W,0.10,313.46,221211,,,D*7D
$GPVTG,313.46,T,,M,0.10,N,0.2,K,D*08
$GPGGA,194023.000,3748.8002,N,12217.8599,W,2,10,0.8,3.8,M,-25.1,M,1.8,0000*46
$GPGSA,A,3,16,21,29,26,30,18,25,15,05,22,,,1.5,0.8,1.2*3A
$GPGSV,3,1,12,29,69,117,25,21,58,300,28,18,48,210,37,15,30,117,27*7C
$GPGSV,3,2,12,30,29,290,29,26,23,076,25,05,19,044,27,16,17,316,39*77
$GPGSV,3,3,12,25,13,185,38,22,07,218,41,06,06,311,29,48,44,197,35*7C
$GPRMC,194023.000,A,3748.8002,N,12217.8599,W,0.07,182.30,221211,,,D*70
$GPVTG,182.30,T,,M,0.07,N,0.1,K,D*06
$GPGGA,194024.000,3748.8002,N,12217.8599,W,2,10,0.8,3.9,M,-25.1,M,2.8,0000*43
$GPGSA,A,3,16,21,29,26,30,18,25,15,05,22,,,1.5,0.8,1.2*3A
$GPRMC,194024.000,A,3748.8002,N,12217.8599,W,0.17,67.85,221211,,,D*42
$GPVTG,67.85,T,,M,0.17,N,0.3,K,D*31
$GPGGA,194025.000,3748.8003,N,12217.8599,W,2,10,0.8,4.0,M,-25.1,M,1.8,0000*4E
$GPGSA,A,3,16,21,29,26,30,18,25,15,05,22,,,1.5,0.8,1.2*3A
$GPRMC,194025.000,A,3748.8003,N,12217.8599,W,0.15,107.88,221211,,,D*7A
$GPVTG,107.88,T,,M,0.15,N,0.3,K,D*09
$GPGGA,194026.000,3748.8002,N,12217.8599,W,2,10,0.8,4.3,M,-25.1,M,1.8,0000*4F
$GPGSA,A,3,16,21,29,26,30,18,25,15,05,22,,,1.5,0.8,1.2*3A
$GPRMC,194026.000,A,3748.8002,N,12217.8599,W,0.03,112.40,221211,,,D*7F
$GPVTG,112.40,T,,M,0.03,N,0.1,K,D*0C
$GPGGA,194027.000,3748.8003,N,12217.8599,W,2,10,0.8,4.2,M,-25.1,M,1.8,0000*4E
$GPGSA,A,3,16,21,29,26,30,18,25,15,05,22,,,1.5,0.8,1.2*3A
$GPRMC,194027.000,A,3748.8003,N,12217.8599,W,0.10,60.38,221211,,,D*46
$GPVTG,60.38,T,,M,0.10,N,0.2,K,D*36
$GPGGA,194028.000,3748.8003,N,12217.8599,W,2,10,0.8,4.2,M,-25.1,M,1.8,0000*41
$GPGSA,A,3,16,21,29,26,30,18,25,15,05,22,,,1.5,0.8,1.2*3A
$GPGSV,3,1,12,29,69,117,26,21,58,300,35,18,48,210,37,15,30,117,32*77
$GPGSV,3,2,12,30,29,290,35,26,23,076,25,05,19,044,25,16,17,316,32*73
$GPGSV,3,3,12,25,13,185,33,22,07,218,37,06,06,311,33,48,44,197,35*7D
$GPRMC,194028.000,A,3748.8003,N,12217.8599,W,0.16,154.31,221211,,,D*70
$GPVTG,154.31,T,,M,0.16,N,0.3,K,D*0E
$GPGGA,194029.000,3748.8003,N,12217.8601,W,2,10,0.8,4.3,M,-25.1,M,2.8,0000*40
$GPGSA,A,3,16,21,29,26,30,18,25,15,05,22,,,1.5,0.8,1.2*3A
$GPRMC,194029.000,A,3748.8003,N,12217.8601,W,0.33,316.55,221211,,,D*72
$GPVTG,316.55,T,,M,0.33,N,0.6,K,D*0A
$GPGGA,194030.000,3748.8003,N,12217.8600,W,2,10,0.8,4.0,M,-25.1,M,1.8,0000*49
$GPGSA,A,3,16,21,29,26,30,18,25,15,05,22,,,1.5,0.8,1.2*3A
$GPRMC,194030.000,A,3748.8003,N,12217.8600,W,0.23,205.48,221211,,,D*75
$GPVTG,205.48,T,,M,0.23,N,0.4,K,D*06
$GPGGA,194031.000,3748.8003,N,12217.8601,W,2,09,0.8,3.9,M,-25.1,M,1.8,0000*4F
$GPGSA,A,3,16,21,29,26,30,25,15,05,22,,,,1.6,0.8,1.3*31
$GPRMC,194031.000,A,3748.8003,N,12217.8601,W,0.30,305.49,221211,,,D*77
$GPVTG,305.49,T,,M,0.30,N,0.5,K,D*05
$GPGGA,194032.000,3748.8002,N,12217.8598,W,2,10,0.8,3.9,M,-25.1,M,2.8,0000*45
$GPGSA,A,3,16,21,29,26,30,18,25,15,05,22,,,1.5,0.8,1.2*3A
$GPRMC,194032.000,A,3748.8002,N,12217.8598,W,0.25,72.59,221211,,,D*40
$GPVTG,72.59,T,,M,0.25,N,0.5,K,D*33
$GPGGA,194033.000,3748.7999,N,12217.8596,W,2,10,0.8,4.3,M,-25.1,M,1.8,0000*40
$GPGSA,A,3,16,21,29,26,30,18,25,15,05,22,,,1.5,0.8,1.2*3A
$GPGSV,3,1,12,29,69,117,27,21,58,300,20,18,48,210,29,15,30,117,36*79
$GPGSV,3,2,12,30,29,290,31,26,23,076,41,05,19,044,36,16,17,316,31*74
$GPGSV,3,3,12,25,13,185,30,22,07,218,35,06,06,311,25,48,44,197,35*7B
$GPVTG,157.71,T,,M,0.34,N,0.6,K,D*0C
$GPGGA,194034.000,3748.7997,N,12217.8597,W,2,10,0.8,4.5,M,-25.1,M,2.8,0000*4D
$GPGSA,A,3,16,21,29,26,30,18,25,15,05,22,,,1.5,0.8,1.2*3A
$GPRMC,194034.000,A,3748.7997,N,12217.8597,W,0.09,343.90,221211,,,D*79
$GPVTG,343.90,T,,M,0.09,N,0.2,K,D*0E
$GPGGA,194035.000,3748.7996,N,12217.8596,W,2,10,0.8,4.4,M,-25.1,M,3.8,0000*4C
$GPGSA,A,3,16,21,29,26,30,18,25,15,05,22,,,1.5,0.8,1.2*3A
$GPRMC,194035.000,A,3748.7996,N,12217.8596,W,0.64,44.92,221211,,,D*45
$GPVTG,44.92,T,,M,0.64,N,1.2,K,D*32
$GPGGA,194036.000,3748.7998,N,12217.8594,W,2,10,0.8,4.0,M,-25.1,M,4.8,0000*40
$GPGSA,A,3,16,21,29,26,30,18,25,15,05,22,,,1.5,0.8,1.2*3A
$GPRMC,194036.000,A,3748.7998,N,12217.8594,W,0.55,339.31,221211,,,D*78
$GPVTG,339.31,T,,M,0.55,N,1.0,K,D*02
$GPGGA,194037.000,3748.7999,N,12217.8598,W,2,10,0.8,4.3,M,-25.1,M,5.8,0000*4E
$GPGSA,A,3,16,21,29,26,30,18,25,15,05,22,,,1.5,0.8,1.2*3A
$GPRMC,194037.000,A,3748.7999,N,12217.8598,W,1.16,295.74,221211,,,D*74
$GPVTG,295.74,T,,M,1.16,N,2.1,K,D*00
$GPGGA,194038.000,3748.7998,N,12217.8602,W,2,10,0.8,4.3,M,-25.1,M,6.8,0000*43
$GPGSA,A,3,16,21,29,26,30,18,25,15,05,22,,,1.5,0.8,1.2*3A
$GPGSV,3,1,12,29,69,117,31,21,58,300,35,18,48,210,37,15,30,117,29*7B
$GPGSV,3,2,12,30,29,290,37,26,23,076,29,05,19,044,36,16,17,316,37*7A
$GPGSV,3,3,12,25,13,185,32,22,07,218,33,06,06,311,35,48,44,197,38*73
$GPRMC,194038.000,A,3748.7998,N,12217.8602,W,0.88,201.16,221211,,,D*75
$GPVTG,201.16,T,,M,0.88,N,1.6,K,D*0B
$GPGGA,194039.000,3748.7996,N,12217.8604,W,2,10,0.8,4.4,M,-25.1,M,7.8,0000*4C
$GPGSA,A,3,16,21,29,26,30,18,25,15,05,22,,,1.5,0.8,1.2*3A
$GPRMC,194039.000,A,3748.7996,N,12217.8604,W,0.37,109.32,221211,,,D*75
$GPVTG,109.32,T,,M,0.37,N,0.7,K,D*02
$GPGGA,194040.000,3748.7995,N,12217.8603,W,2,10,0.8,5.0,M,-25.1,M,8.8,0000*4C
$GPGSA,A,3,16,21,29,26,30,18,25,15,05,22,,,1.5,0.8,1.2*3A
$GPRMC,194040.000,A,3748.7995,N,12217.8603,W,0.05,297.36,221211,,,D*7E
$GPVTG,297.36,T,,M,0.05,N,0.1,K,D*05
$GPGGA,194041.000,3748.7995,N,12217.8601,W,2,10,0.8,5.1,M,-25.1,M,1.8,0000*47
$GPGSA,A,3,16,21,29,26,30,18,25,15,05,22,,,1.5,0.8,1.2*3A
$GPRMC,194041.000,A,3748.7995,N,12217.8601,W,0.21,7.26,221211,,,D*71
$GPVTG,7.26,T,,M,0.21,N,0.4,K,D*0C
$GPGGA,194042.000,3748.7994,N,12217.8600,W,2,10,0.8,5.3,M,-25.1,M,2.8,0000*45
$GPGSA,A,3,16,21,29,26,30,18,25,15,05,22,,,1.5,0.8,1.2*3A
$GPRMC,194042.000,A,3748.7994,N,12217.8600,W,0.13,197.51,221211,,,D*7B
$GPVTG,197.51,T,,M,0.13,N,0.2,K,D*03
$GPGGA,194043.000,3748.7994,N,12217.8598,W,2,10,0.8,5.6,M,-25.1,M,1.8,0000*40
$GPGSA,A,3,16,21,29,26,30,18,25,15,05,22,,,1.5,0.8,1.2*3A
$GPGSV,3,1,12,29,69,117,37,21,58,300,27,18,48,210,44,15,30,117,40*75
$GPGSV,3,2,12,30,29,290,34,26,23,076,33,05,19,044,29,16,17,316,22*78
$GPGSV,3,3,12,25,13,185,43,22,07,218,45,06,06,311,26,48,44,197,43*7A
$GPRMC,194043.000,A,3748.7994,N,12217.8598,W,0.07,167.59,221211,,,D*7A
$GPVTG,167.59,T,,M,0.07,N,0.1,K,D*02
$GPGGA,194044.000,3748.7993,N,12217.8597,W,2,10,0.8,5.7,M,-25.1,M,1.8,0000*4E
$GPGSA,A,3,16,21,29,26,30,18,25,15,05,22,,,1.5,0.8,1.2*3A
$GPRMC,194044.000,A,3748.7993,N,12217.8597,W,0.10,171.98,221211,,,D*79
$GPVTG,171.98,T,,M,0.10,N,0.2,K,D*0D
$GPGGA,194045.000,3748.7993,N,12217.8595,W,2,10,0.8,5.7,M,-25.1,M,2.8,0000*4E
$GPGSA,A,3,16,21,29,26,30,18,25,15,05,22,,,1.5,0.8,1.2*3A
$GPRMC,194045.000,A,3748.7993,N,12217.8595,W,0.13,88.48,221211,,,D*43
$GPVTG,88.48,T,,M,0.13,N,0.2,K,D*34
$GPGGA,194046.000,3748.7991,N,12217.8595,W,2,09,0.8,5.7,M,-25.1,M,3.8,0000*46
$GPGSA,A,3,16,21,29,26,18,25,15,05,22,,,,1.5,0.8,1.2*39
$GPRMC,194046.000,A,3748.7991,N,12217.8595,W,0.24,117.91,221211,,,D*75
$GPVTG,117.91,T,,M,0.24,N,0.4,K,D*05
$GPGGA,194047.000,3748.7990,N,12217.8595,W,2,10,0.8,5.6,M,-25.1,M,4.8,0000*48
$GPGSA,A,3,16,21,29,26,30,18,25,15,05,22,,,1.5,0.8,1.2*3A
$GPRMC,194047.000,A,3748.7990,N,12217.8595,W,0.11,104.17,221211,,,D*7F
$GPVTG,104.17,T,,M,0.11,N,0.2,K,D*09
$GPGGA,194048.000,3748.7988,N,12217.8595,W,2,10,0.8,5.6,M,-25.1,M,5.8,0000*4F
$GPGSA,A,3,16,21,29,26,30,18,25,15,05,22,,,1.5,0.8,1.2*3A
$GPGSV,3,1,12,29,69,117,34,21,58,301,26,18,49,210,43,15,30,117,40*70
$GPGSV,3,2,12,30,29,290,27,26,24,075,26,05,18,044,30,16,17,316,24*75
$GPGSV,3,3,12,25,13,185,43,22,07,218,32,06,06,312,26,48,44,197,40*7A
$GPRMC,194048.000,A,3748.7988,N,12217.8595,W,0.05,266.55,221211,,,D*7D
$GPVTG,266.55,T,,M,0.05,N,0.1,K,D*0E
$GPGGA,194049.000,3748.7989,N,12217.8596,W,2,10,0.8,5.0,M,-25.1,M,1.8,0000*4E
$GPGSA,A,3,16,21,29,26,30,18,25,15,05,22,,,1.5,0.8,1.2*3A
$GPRMC,194049.000,A,3748.7989,N,12217.8596,W,0.08,32.45,221211,,,D*41
$GPVTG,32.45,T,,M,0.08,N,0.1,K,D*31
$GPGGA,194050.000,3748.7988,N,12217.8596,W,2,10,0.8,4.7,M,-25.1,M,1.8,0000*41
$GPGSA,A,3,16,21,29,26,30,18,25,15,05,22,,,1.5,0.8,1.2*3A
$GPRMC,194050.000,A,3748.7988,N,12217.8596,W,0.14,34.04,221211,,,D*46
$GPVTG,34.04,T,,M,0.14,N,0.3,K,D*3D
$GPGGA,194051.000,3748.7989,N,12217.8596,W,2,10,0.8,4.4,M,-25.1,M,1.8,0000*42
$GPGSA,A,3,16,21,29,26,30,18,25,15,05,22,,,1.5,0.8,1.2*3A
$GPRMC,194051.000,A,3748.7989,N,12217.8596,W,0.15,337.88,221211,,,D*73
$GPVTG,337.88,T,,M,0.15,N,0.3,K,D*08
$GPGGA,194052.000,3748.7988,N,12217.8596,W,2,10,0.8,4.3,M,-25.1,M,2.8,0000*44
$GPGSA,A,3,16,21,29,26,30,18,25,15,05,22,,,1.5,0.8,1.2*3A
$GPRMC,194052.000,A,3748.7988,N,12217.8596,W,0.17,43.11,221211,,,D*43
$GPVTG,43.11,T,,M,0.17,N,0.3,K,D*3A
$GPGGA,194053.000,3748.7988,N,12217.8595,W,2,10,0.8,4.1,M,-25.1,M,3.8,0000*45
$GPGSA,A,3,16,21,29,26,30,18,25,15,05,22,,,1.5,0.8,1.2*3A
$GPGSV,3,1,12,29,69,117,34,21,58,301,28,18,49,210,42,15,30,117,37*7F
$GPGSV,3,2,12,30,29,290,27,26,24,075,31,05,18,044,21,16,17,316,23*74
$GPGSV,3,3,12,25,13,185,43,22,07,218,37,06,06,312,26,48,44,197,37*7F
$GPRMC,194053.000,A,3748.7988,N,12217.8595,W,0.08,342.16,221211,,,D*7A
$GPVTG,342.16,T,,M,0.08,N,0.1,K,D*03
$GPGGA,194054.000,3748.7988,N,12217.8595,W,2,09,0.9,4.1,M,-25.1,M,4.8,0000*4C
$GPGSA,A,3,21,29,26,30,18,25,15,05,22,,,,1.6,0.9,1.3*3E
$GPRMC,194054.000,A,3748.7988,N,12217.8595,W,0.05,19.34,221211,,,D*4D
$GPVTG,19.34,T,,M,0.05,N,0.1,K,D*33
$GPGGA,194055.000,3748.7988,N,12217.8596,W,2,09,0.9,4.0,M,-25.1,M,1.8,0000*4A
$GPGSA,A,3,21,29,26,30,18,25,15,05,22,,,,1.6,0.9,1.3*3E
$GPRMC,194055.000,A,3748.7988,N,12217.8596,W,0.20,341.97,221211,,,D*7F
$GPVTG,341.97,T,,M,0.20,N,0.4,K,D*06
$GPGGA,194056.000,3748.7988,N,12217.8596,W,2,09,0.9,4.0,M,-25.1,M,1.8,0000*49
$GPGSA,A,3,21,29,26,30,18,25,15,05,22,,,,1.6,0.9,1.3*3E
$GPRMC,194056.000,A,3748.7988,N,12217.8596,W,0.10,305.46,221211,,,D*73
$GPVTG,305.46,T,,M,0.10,N,0.2,K,D*0F
$GPGGA,194057.000,3748.7989,N,12217.8598,W,2,09,0.9,3.7,M,-25.1,M,1.8,0000*47
$GPGSA,A,3,21,29,26,30,18,25,15,05,22,,,,1.6,0.9,1.3*3E
$GPRMC,194057.000,A,3748.7989,N,12217.8598,W,0.08,338.41,221211,,,D*7D
$GPVTG,338.41,T,,M,0.08,N,0.1,K,D*0C
$GPGGA,194058.000,3748.7988,N,12217.8598,W,2,10,0.8,3.9,M,-25.1,M,1.8,0000*4E
$GPGSA,A,3,16,21,29,26,30,18,25,15,05,22,,,1.5,0.8,1.2*3A
$GPGSV,3,1,12,29,69,117,34,21,58,301,27,18,49,210,42,15,30,117,40*70
$GPGSV,3,2,12,30,29,290,29,26,24,075,30,05,18,044,31,16,17,316,22*7B
$GPGSV,3,3,12,25,13,185,42,22,07,218,30,06,06,312,27,48,44,197,38*77
$GPVTG,189.95,T,,M,0.07,N,0.1,K,D*02
$GPGGA,194059.000,3748.7989,N,12217.8599,W,2,10,0.8,3.7,M,-25.1,M,1.8,0000*41
$GPGSA,A,3,16,21,29,26,30,18,25,15,05,22,,,1.5,0.8,1.2*3A
$GPRMC,194059.000,A,3748.7989,N,12217.8599,W,0.09,176.29,221211,,,D*75
$GPVTG,176.29,T,,M,0.09,N,0.2,K,D*08
$GPGGA,194100.000,3748.7989,N,12217.8600,W,2,09,0.9,3.6,M,-25.1,M,2.8,0000*44
$GPGSA,A,3,21,29,26,30,18,25,15,05,22,,,,1.6,0.9,1.3*3E
$GPRMC,194100.000,A,3748.7989,N,12217.8600,W,0.04,61.25,221211,,,D*4D
$GPVTG,61.25,T,,M,0.04,N,0.1,K,D*3D
$GPGGA,194101.000,3748.7990,N,12217.8600,W,2,10,0.8,3.5,M,-25.1,M,1.8,0000*44
$GPGSA,A,3,21,29,26,30,18,25,15,05,22,16,,,1.5,0.8,1.2*3A
$GPRMC,194101.000,A,3748.7990,N,12217.8600,W,0.13,75.64,221211,,,D*42
$GPVTG,75.64,T,,M,0.13,N,0.2,K,D*38
$GPGGA,194102.000,3748.7991,N,12217.8600,W,2,10,0.8,3.3,M,-25.1,M,1.8,0000*40
$GPGSA,A,3,21,29,26,30,18,25,15,05,22,16,,,1.5,0.8,1.2*3A
$GPRMC,194102.000,A,3748.7991,N,12217.8600,W,0.08,150.71,221211,,,D*78
$GPVTG,150.71,T,,M,0.08,N,0.1,K,D*03
$GPGGA,194103.000,3748.7991,N,12217.8600,W,2,10,0.8,3.2,M,-25.1,M,1.8,0000*40
$GPGSA,A,3,21,29,26,30,18,25,15,05,22,16,,,1.5,0.8,1.2*3A
$GPGSV,3,1,12,29,69,117,35,21,58,301,31,18,49,210,42,15,30,117,40*76
$GPGSV,3,2,12,30,29,290,33,26,24,075,31,05,18,044,23,16,17,316,21*71
$GPGSV,3,3,12,25,13,185,42,22,07,218,33,06,06,312,24,48,44,197,39*76
$GPRMC,194103.000,A,3748.7991,N,12217.8600,W,0.26,190.43,221211,,,D*78
$GPVTG,190.43,T,,M,0.26,N,0.5,K,D*06
$GPGGA,194104.000,3748.7991,N,12217.8601,W,2,10,0.8,3.0,M,-25.1,M,2.8,0000*47
$GPGSA,A,3,21,29,26,30,18,25,15,05,22,16,,,1.5,0.8,1.2*3A
$GPRMC,194104.000,A,3748.7991,N,12217.8601,W,0.31,202.10,221211,,,D*76
$GPVTG,202.10,T,,M,0.31,N,0.6,K,D*0D
$GPGGA,194105.000,3748.7990,N,12217.8599,W,2,10,0.8,2.7,M,-25.1,M,1.8,0000*40
$GPGSA,A,3,21,29,26,30,18,25,15,05,22,16,,,1.5,0.8,1.2*3A
$GPRMC,194105.000,A,3748.7990,N,12217.8599,W,1.27,108.09,221211,,,D*73
$GPVTG,108.09,T,,M,1.27,N,2.4,K,D*0A
$GPGGA,194106.000,3748.7989,N,12217.8595,W,2,10,0.8,2.4,M,-25.1,M,2.8,0000*47
$GPGSA,A,3,21,29,26,30,18,25,15,05,22,16,,,1.5,0.8,1.2*3A
$GPRMC,194106.000,A,3748.7989,N,12217.8595,W,1.67,121.08,221211,,,D*7A
$GPVTG,121.08,T,,M,1.67,N,3.1,K,D*00
$GPGGA,194107.000,3748.7984,N,12217.8589,W,2,10,0.8,2.6,M,-25.1,M,1.8,0000*47
$GPGSA,A,3,21,29,26,30,18,25,15,05,22,16,,,1.5,0.8,1.2*3A
$GPRMC,194107.000,A,3748.7984,N,12217.8589,W,1.96,119.72,221211,,,D*73
$GPVTG,119.72,T,,M,1.96,N,3.6,K,D*0F
$GPGGA,194108.000,3748.7979,N,12217.8584,W,2,10,0.8,2.8,M,-25.1,M,1.8,0000*49
$GPGSA,A,3,21,29,26,30,18,25,15,05,22,16,,,1.5,0.8,1.2*3A
$GPGSV,3,1,12,29,69,117,34,21,58,301,24,18,49,210,41,15,30,117,35*72
$GPGSV,3,2,12,30,29,290,24,26,24,075,30,05,18,044,29,16,17,316,21*7C
$GPGSV,3,3,12,25,13,185,42,22,07,218,26,06,06,312,25,48,44,197,40*7D
$GPRMC,194108.000,A,3748.7979,N,12217.8584,W,1.90,118.32,221211,,,D*70
$GPVTG,118.32,T,,M,1.90,N,3.5,K,D*0F
$GPGGA,194109.000,3748.7975,N,12217.8577,W,2,10,0.8,2.9,M,-25.1,M,1.8,0000*49
$GPGSA,A,3,21,29,26,30,18,25,15,05,22,16,,,1.5,0.8,1.2*3A
$GPRMC,194109.000,A,3748.7975,N,12217.8577,W,2.41,115.12,221211,,,D*71
$GPVTG,115.12,T,,M,2.41,N,4.5,K,D*08
$GPGGA,194110.000,3748.7971,N,12217.8569,W,2,10,0.8,2.9,M,-25.1,M,2.8,0000*49
$GPGSA,A,3,21,29,26,30,18,25,15,05,22,16,,,1.5,0.8,1.2*3A
$GPRMC,194110.000,A,3748.7971,N,12217.8569,W,2.14,118.36,221211,,,D*79
$GPVTG,118.36,T,,M,2.14,N,4.0,K,D*06
$GPGGA,194111.000,3748.7967,N,12217.8563,W,2,10,0.8,2.9,M,-25.1,M,3.8,0000*44
$GPGSA,A,3,21,29,26,30,18,25,15,05,22,16,,,1.5,0.8,1.2*3A
$GPRMC,194111.000,A,3748.7967,N,12217.8563,W,2.07,121.72,221211,,,D*7D
$GPVTG,121.72,T,,M,2.07,N,3.8,K,D*01
$GPGGA,194112.000,3748.7963,N,12217.8556,W,2,09,0.9,2.9,M,-25.1,M,4.8,0000*4B
$GPGSA,A,3,21,29,26,30,18,25,15,05,22,,,,1.6,0.9,1.3*3E
$GPRMC,194112.000,A,3748.7963,N,12217.8556,W,2.44,126.68,221211,,,D*77
$GPVTG,126.68,T,,M,2.44,N,4.5,K,D*00
$GPGGA,194113.000,3748.7958,N,12217.8548,W,2,09,0.9,2.8,M,-25.1,M,1.8,0000*49
$GPGSA,A,3,21,29,26,30,18,25,15,05,22,,,,1.6,0.9,1.3*3E
$GPGSV,3,1,12,29,69,117,34,21,58,301,24,18,49,210,41,15,30,117,41*71
$GPGSV,3,2,12,30,29,289,26,26,24,075,32,05,18,044,29,16,17,316,*77
$GPGSV,3,3,12,25,13,185,36,22,08,218,24,06,06,312,25,48,44,197,41*72
$GPRMC,194113.000,A,3748.7958,N,12217.8548,W,2.45,121.57,221211,,,D*7B
$GPVTG,121.57,T,,M,2.45,N,4.5,K,D*0A
$GPGGA,194114.000,3748.7954,N,12217.8541,W,2,08,0.9,2.7,M,-25.1,M,1.8,0000*45
$GPGSA,A,3,21,29,30,18,25,15,05,22,,,,,1.6,0.9,1.3*3A
$GPRMC,194114.000,A,3748.7954,N,12217.8541,W,2.31,113.17,221211,,,D*7F
$GPVTG,113.17,T,,M,2.31,N,4.3,K,D*0A
$GPGGA,194115.000,3748.7950,N,12217.8533,W,2,09,0.9,2.7,M,-25.1,M,1.8,0000*44
$GPGSA,A,3,21,29,26,30,18,25,15,05,22,,,,1.6,0.9,1.3*3E
$GPRMC,194115.000,A,3748.7950,N,12217.8533,W,2.31,116.37,221211,,,D*78
$GPVTG,116.37,T,,M,2.31,N,4.3,K,D*0D
$GPGGA,194116.000,3748.7947,N,12217.8526,W,2,09,0.9,2.6,M,-25.1,M,2.8,0000*47
$GPGSA,A,3,21,29,26,30,18,25,15,05,22,,,,1.6,0.9,1.3*3E
$GPRMC,194116.000,A,3748.7947,N,12217.8526,W,2.22,115.59,221211,,,D*70
$GPVTG,115.59,T,,M,2.22,N,4.1,K,D*06
$GPGGA,194117.000,3748.7943,N,12217.8519,W,2,09,0.9,2.6,M,-25.1,M,1.8,0000*4D
$GPGSA,A,3,21,29,26,30,18,25,15,05,22,,,,1.6,0.9,1.3*3E
$GPRMC,194117.000,A,3748.7943,N,12217.8519,W,2.01,122.39,221211,,,D*7A
$GPVTG,122.39,T,,M,2.01,N,3.7,K,D*04
$GPGGA,194118.000,3748.7938,N,12217.8512,W,2,10,0.8,2.7,M,-25.1,M,1.8,0000*4D
$GPGSA,A,3,21,29,26,30,18,25,15,05,22,16,,,1.5,0.8,1.2*3A
$GPGSV,3,1,12,29,69,117,34,21,58,301,24,18,49,210,40,15,30,116,40*70
$GPGSV,3,2,12,30,29,289,26,26,24,075,25,05,18,044,28,16,17,316,22*70
$GPRMC,194118.000,A,3748.7938,N,12217.8512,W,1.92,119.38,221211,,,D*72
$GPVTG,119.38,T,,M,1.92,N,3.6,K,D*05
$GPGGA,194119.000,3748.7935,N,12217.8505,W,2,10,0.8,2.8,M,-25.1,M,1.8,0000*48
$GPGSA,A,3,21,29,26,30,18,25,15,05,22,16,,,1.5,0.8,1.2*3A
$GPRMC,194119.000,A,3748.7935,N,12217.8505,W,2.14,112.24,221211,,,D*73
$GPVTG,112.24,T,,M,2.14,N,4.0,K,D*0F
$GPGGA,194120.000,3748.7933,N,12217.8498,W,2,10,0.8,2.5,M,-25.1,M,1.8,0000*4C
$GPGSA,A,3,21,29,26,30,18,25,15,05,22,16,,,1.5,0.8,1.2*3A
$GPRMC,194120.000,A,3748.7933,N,12217.8498,W,1.92,100.21,221211,,,D*71
$GPVTG,100.21,T,,M,1.92,N,3.6,K,D*05
$GPGGA,194121.000,3748.7931,N,12217.8492,W,2,10,0.8,2.5,M,-25.1,M,1.8,0000*45
$GPGSA,A,3,21,29,26,30,18,25,15,05,22,16,,,1.5,0.8,1.2*3A
$GPRMC,194121.000,A,3748.7931,N,12217.8492,W,1.96,107.23,221211,,,D*79
$GPVTG,107.23,T,,M,1.96,N,3.6,K,D*04
$GPGGA,194122.000,3748.7929,N,12217.8484,W,2,10,0.8,2.5,M,-25.1,M,2.8,0000*4B
$GPGSA,A,3,21,29,26,30,18,25,15,05,22,16,,,1.5,0.8,1.2*3A
$GPRMC,194122.000,A,3748.7929,N,12217.8484,W,1.99,108.44,221211,,,D*75
$GPVTG,108.44,T,,M,1.99,N,3.7,K,D*04
$GPGGA,194123.000,3748.7926,N,12217.8477,W,2,10,0.8,2.5,M,-25.1,M,1.8,0000*4A
$GPGSA,A,3,21,29,26,30,18,25,15,05,22,16,,,1.5,0.8,1.2*3A
$GPGSV,3,1,12,29,69,117,34,21,58,301,24,18,49,210,40,15,30,116,36*71
$GPGSV,3,2,12,30,29,289,27,26,24,075,26,05,18,044,22,16,17,316,23*79
$GPGSV,3,3,12,25,13,185,41,22,08,218,36,06,06,312,23,48,44,197,37*76
$GPRMC,194123.000,A,3748.7926,N,12217.8477,W,2.33,115.99,221211,,,D*78
$GPGGA,194124.000,3748.7924,N,12217.8469,W,2,10,0.8,2.4,M,-25.1,M,2.8,0000*42
$GPGSA,A,3,21,29,26,30,18,25,15,05,22,16,,,1.5,0.8,1.2*3A
$GPRMC,194124.000,A,3748.7924,N,12217.8469,W,2.25,110.75,221211,,,D*72
$GPVTG,110.75,T,,M,2.25,N,4.2,K,D*09
$GPGGA,194125.000,3748.7922,N,12217.8462,W,2,10,0.8,2.2,M,-25.1,M,1.8,0000*4B
$GPGSA,A,3,21,29,26,30,18,25,15,05,22,16,,,1.5,0.8,1.2*3A
$GPRMC,194125.000,A,3748.7922,N,12217.8462,W,2.19,103.65,221211,,,D*72
$GPVTG,103.65,T,,M,2.19,N,4.0,K,D*07
$GPGGA,194126.000,3748.7918,N,12217.8454,W,2,10,0.8,2.5,M,-25.1,M,1.8,0000*43
$GPGSA,A,3,21,29,26,30,18,25,15,05,22,16,,,1.5,0.8,1.2*3A
$GPRMC,194126.000,A,3748.7918,N,12217.8454,W,2.20,118.93,221211,,,D*74
$GPVTG,118.93,T,,M,2.20,N,4.1,K,D*0F
$GPGGA,194127.000,3748.7915,N,12217.8448,W,2,10,0.8,2.6,M,-25.1,M,1.8,0000*41
$GPGSA,A,3,21,29,26,30,18,25,15,05,22,16,,,1.5,0.8,1.2*3A
$GPRMC,194127.000,A,3748.7915,N,12217.8448,W,1.46,109.97,221211,,,D*72
$GPVTG,109.97,T,,M,1.46,N,2.7,K,D*08
$GPGGA,194128.000,3748.7913,N,12217.8442,W,2,10,0.8,2.4,M,-25.1,M,2.8,0000*43
$GPGSA,A,3,21,29,26,30,18,25,15,05,22,16,,,1.5,0.8,1.2*3A
$GPGSV,3,1,12,29,69,117,30,21,58,301,24,18,49,210,36,15,30,116,37*75
$GPGSV,3,2,12,30,29,289,23,26,24,075,32,05,18,044,22,16,17,316,21*7A
$GPGSV,3,3,12,25,13,185,37,22,08,218,30,06,06,312,23,48,44,197,39*7F
$GPRMC,194128.000,A,3748.7913,N,12217.8442,W,1.72,108.03,221211,,,D*7A
$GPVTG,108.03,T,,M,1.72,N,3.2,K,D*07
$GPGGA,194129.000,3748.7911,N,12217.8437,W,2,10,0.8,2.1,M,-25.1,M,3.8,0000*46
$GPGSA,A,3,21,29,26,30,18,25,15,05,22,16,,,1.5,0.8,1.2*3A
$GPRMC,194129.000,A,3748.7911,N,12217.8437,W,1.37,115.61,221211,,,D*72
$GPVTG,115.61,T,,M,1.37,N,2.5,K,D*08
$GPGGA,194130.000,3748.7908,N,12217.8431,W,2,10,0.8,2.0,M,-25.1,M,4.8,0000*46
$GPGSA,A,3,21,29,26,30,18,25,15,05,22,16,,,1.5,0.8,1.2*3A
$GPRMC,194130.000,A,3748.7908,N,12217.8431,W,2.14,125.37,221211,,,D*76
$GPVTG,125.37,T,,M,2.14,N,4.0,K,D*09
$GPGGA,194131.000,3748.7905,N,12217.8425,W,2,10,0.8,2.0,M,-25.1,M,1.8,0000*4A
$GPGSA,A,3,21,29,26,30,18,25,15,05,22,16,,,1.5,0.8,1.2*3A
$GPRMC,194131.000,A,3748.7905,N,12217.8425,W,2.24,110.54,221211,,,D*7F
$GPVTG,110.54,T,,M,2.24,N,4.1,K,D*08
$GPGGA,194132.000,3748.7904,N,12217.8418,W,2,10,0.8,1.8,M,-25.1,M,1.8,0000*4D
$GPGSA,A,3,21,29,26,30,18,25,15,05,22,16,,,1.5,0.8,1.2*3A
$GPRMC,194132.000,A,3748.7904,N,12217.8418,W,1.75,88.99,221211,,,D*45
$GPVTG,88.99,T,,M,1.75,N,3.2,K,D*3A
$GPGGA,194133.000,3748.7902,N,12217.8411,W,2,10,0.8,1.8,M,-25.1,M,1.8,0000*43
$GPGSA,A,3,21,29,26,30,18,25,15,05,22,16,,,1.5,0.8,1.2*3A
$GPGSV,3,1,12,29,69,117,31,21,58,301,22,18,49,210,38,15,30,116,37*7C
$GPGSV,3,2,12,30,29,289,24,26,24,075,32,05,18,044,31,16,17,316,19*74
$GPGSV,3,3,12,25,13,185,40,22,08,218,29,06,06,312,19,48,44,197,39*7E
$GPRMC,194133.000,A,3748.7902,N,12217.8411,W,2.03,104.12,221211,,,D*7F
$GPVTG,104.12,T,,M,2.03,N,3.8,K,D*04
$GPGGA,194134.000,3748.7900,N,12217.8404,W,2,10,0.8,1.8,M,-25.1,M,2.8,0000*41
$GPGSA,A,3,21,29,26,30,18,25,15,05,22,16,,,1.5,0.8,1.2*3A
$GPRMC,194134.000,A,3748.7900,N,12217.8404,W,1.97,111.23,221211,,,D*76
$GPVTG,111.23,T,,M,1.97,N,3.6,K,D*02
$GPGGA,194135.000,3748.7898,N,12217.8397,W,2,10,0.8,1.5,M,-25.1,M,3.8,0000*41
$GPGSA,A,3,21,29,26,30,18,25,15,05,22,16,,,1.5,0.8,1.2*3A
$GPRMC,194135.000,A,3748.7898,N,12217.8397,W,2.10,114.18,221211,,,D*7B
$GPVTG,114.18,T,,M,2.10,N,3.9,K,D*0C
$GPGGA,194136.000,3748.7892,N,12217.8387,W,2,10,0.8,1.9,M,-25.1,M,4.8,0000*42
$GPGSA,A,3,21,29,26,30,18,25,15,05,22,16,,,1.5,0.8,1.2*3A
$GPRMC,194136.000,A,3748.7892,N,12217.8387,W,2.19,125.62,221211,,,D*75
$GPVTG,125.62,T,,M,2.19,N,4.1,K,D*05
$GPGGA,194137.000,3748.7884,N,12217.8375,W,2,10,0.8,2.4,M,-25.1,M,5.8,0000*46
$GPGSA,A,3,21,29,26,30,18,25,15,05,22,16,,,1.5,0.8,1.2*3A
$GPRMC,194137.000,A,3748.7884,N,12217.8375,W,2.60,127.52,221211,,,D*71
$GPVTG,127.52,T,,M,2.60,N,4.8,K,D*03
$GPGGA,194138.000,3748.7880,N,12217.8368,W,2,10,0.8,2.6,M,-25.1,M,1.8,0000*47
$GPGSA,A,3,21,29,26,30,18,25,15,05,22,16,,,1.5,0.8,1.2*3A
$GPGSV,3,1,12,29,69,117,32,21,58,301,23,18,49,210,38,15,30,116,35*7C
$GPGSV,3,2,12,30,29,289,25,26,24,075,29,05,18,044,24,16,17,316,20*71
$GPGSV,3,3,12,25,13,185,42,22,08,218,26,06,06,312,20,48,44,197,38*78
$GPRMC,194138.000,A,3748.7880,N,12217.8368,W,2.33,114.81,221211,,,D*7E
$GPVTG,114.81,T,,M,2.33,N,4.3,K,D*00
$GPGGA,194139.000,3748.7877,N,12217.8361,W,2,10,0.8,2.3,M,-25.1,M,1.8,0000*42
$GPGSA,A,3,21,29,26,30,18,25,15,05,22,16,,,1.5,0.8,1.2*3A
$GPRMC,194139.000,A,3748.7877,N,12217.8361,W,1.89,119.65,221211,,,D*7B
$GPVTG,119.65,T,,M,1.89,N,3.5,K,D*04
$GPGGA,194140.000,3748.7873,N,12217.8355,W,2,10,0.8,2.3,M,-25.1,M,2.8,0000*4C
$GPGSA,A,3,21,29,26,30,18,25,15,05,22,16,,,1.5,0.8,1.2*3A
$GPRMC,194140.000,A,3748.7873,N,12217.8355,W,2.03,130.80,221211,,,D*77
$GPVTG,130.80,T,,M,2.03,N,3.8,K,D*08
$GPGGA,194141.000,3748.7867,N,12217.8346,W,2,10,0.8,2.5,M,-25.1,M,3.8,0000*4D
$GPGSA,A,3,21,29,26,30,18,25,15,05,22,16,,,1.5,0.8,1.2*3A
$GPRMC,194141.000,A,3748.7867,N,12217.8346,W,2.16,121.25,221211,,,D*7A
$GPVTG,121.25,T,,M,2.16,N,4.0,K,D*0C
$GPGGA,194142.000,3748.7862,N,12217.8337,W,2,10,0.8,2.7,M,-25.1,M,4.8,0000*48
$GPGSA,A,3,21,29,26,30,18,25,15,05,22,16,,,1.5,0.8,1.2*3A
$GPRMC,194142.000,A,3748.7862,N,12217.8337,W,2.09,118.03,221211,,,D*7A
$GPVTG,118.03,T,,M,2.09,N,3.9,K,D*02
$GPGGA,194143.000,3748.7858,N,12217.8328,W,2,10,0.8,2.6,M,-25.1,M,1.8,0000*4A
$GPGSA,A,3,21,29,26,30,18,25,15,05,22,16,,,1.5,0.8,1.2*3A
$GPGSV,3,1,12,29,68,118,32,21,58,301,23,18,49,210,38,15,30,116,39*7E
$GPGSV,3,2,12,30,29,289,30,26,24,075,28,05,18,044,25,16,17,316,21*74
$GPGSV,3,3,12,25,13,185,38,22,08,218,21,06,06,312,20,48,44,197,34*7E
$GPVTG,111.40,T,,M,2.08,N,3.9,K,D*0D
$GPGGA,194144.000,3748.7855,N,12217.8320,W,2,10,0.8,2.4,M,-25.1,M,2.8,0000*49
$GPGSA,A,3,21,29,26,30,18,25,15,05,22,16,,,1.5,0.8,1.2*3A
$GPRMC,194144.000,A,3748.7855,N,12217.8320,W,2.04,111.19,221211,,,D*71
$GPVTG,111.19,T,,M,2.04,N,3.8,K,D*0C
$GPGGA,194145.000,3748.7850,N,12217.8311,W,2,10,0.8,2.8,M,-25.1,M,1.8,0000*40
$GPGSA,A,3,21,29,26,30,18,25,15,05,22,16,,,1.5,0.8,1.2*3A
$GPRMC,194145.000,A,3748.7850,N,12217.8311,W,1.94,113.56,221211,,,D*74
$GPVTG,113.56,T,,M,1.94,N,3.6,K,D*01
$GPGGA,194146.000,3748.7845,N,12217.8306,W,2,10,0.8,3.5,M,-25.1,M,1.8,0000*4D
$GPGSA,A,3,21,29,26,30,18,25,15,05,22,16,,,1.5,0.8,1.2*3A
$GPRMC,194146.000,A,3748.7845,N,12217.8306,W,1.64,101.65,221211,,,D*79
$GPVTG,101.65,T,,M,1.64,N,3.0,K,D*0B
$GPGGA,194147.000,3748.7843,N,12217.8301,W,2,10,0.8,3.5,M,-25.1,M,2.8,0000*4E
$GPGSA,A,3,21,29,26,30,18,25,15,05,22,16,,,1.5,0.8,1.2*3A
$GPRMC,194147.000,A,3748.7843,N,12217.8301,W,1.38,101.91,221211,,,D*7B
$GPVTG,101.91,T,,M,1.38,N,2.6,K,D*0E
$GPGGA,194148.000,3748.7839,N,12217.8290,W,2,10,0.8,2.6,M,-25.1,M,3.8,0000*46
$GPGSA,A,3,21,29,26,30,18,25,15,05,22,16,,,1.5,0.8,1.2*3A
$GPGSV,3,1,12,29,68,118,32,21,58,301,24,18,49,210,34,15,30,116,35*79
$GPGSV,3,2,12,30,29,289,24,26,24,075,29,05,18,044,24,16,17,316,23*73
$GPGSV,3,3,12,25,13,185,36,22,08,218,22,06,06,312,20,48,44,197,33*74
$GPRMC,194148.000,A,3748.7839,N,12217.8290,W,1.73,92.63,221211,,,D*49
$GPVTG,92.63,T,,M,1.73,N,3.2,K,D*32
$GPGGA,194149.000,3748.7838,N,12217.8282,W,2,10,0.8,2.8,M,-25.1,M,4.8,0000*4C
$GPGSA,A,3,21,29,26,30,18,25,15,05,22,16,,,1.5,0.8,1.2*3A
$GPRMC,194149.000,A,3748.7838,N,12217.8282,W,1.76,107.12,221211,,,D*74
$GPVTG,107.12,T,,M,1.76,N,3.3,K,D*0D
$GPGGA,194150.000,3748.7836,N,12217.8276,W,2,10,0.8,2.4,M,-25.1,M,5.8,0000*4C
$GPGSA,A,3,21,29,26,30,18,25,15,05,22,16,,,1.5,0.8,1.2*3A
$GPRMC,194150.000,A,3748.7836,N,12217.8276,W,1.84,114.25,221211,,,D*72
$GPVTG,114.25,T,,M,1.84,N,3.4,K,D*01
$GPGGA,194151.000,3748.7834,N,12217.8270,W,2,10,0.8,2.5,M,-25.1,M,1.8,0000*4C
$GPGSA,A,3,21,29,26,30,18,25,15,05,22,16,,,1.5,0.8,1.2*3A
$GPRMC,194151.000,A,3748.7834,N,12217.8270,W,1.63,102.99,221211,,,D*7E
$GPVTG,102.99,T,,M,1.63,N,3.0,K,D*0C
$GPGGA,194152.000,3748.7829,N,12217.8260,W,2,10,0.8,2.8,M,-25.1,M,1.8,0000*4F
$GPGSA,A,3,21,29,26,30,18,25,15,05,22,16,,,1.5,0.8,1.2*3A
$GPRMC,194152.000,A,3748.7829,N,12217.8260,W,1.65,108.44,221211,,,D*7C
$GPVTG,108.44,T,,M,1.65,N,3.1,K,D*01
$GPGGA,194153.000,3748.7823,N,12217.8254,W,2,10,0.8,3.3,M,-25.1,M,2.8,0000*4A
$GPGSA,A,3,21,29,26,30,18,25,15,05,22,16,,,1.5,0.8,1.2*3A
$GPGSV,3,1,12,29,68,118,33,21,58,301,24,18,49,210,37,15,30,116,36*78
$GPGSV,3,2,12,30,29,289,24,26,24,075,24,05,18,044,24,16,17,316,23*7E
$GPGSV,3,3,12,25,13,185,37,22,08,218,29,06,06,312,21,48,44,197,40*7B
$GPRMC,194153.000,A,3748.7823,N,12217.8254,W,2.52,119.26,221211,,,D*73
$GPVTG,119.26,T,,M,2.52,N,4.7,K,D*03
$GPGGA,194154.000,3748.7816,N,12217.8243,W,2,10,0.8,3.7,M,-25.1,M,3.8,0000*48
$GPGSA,A,3,21,29,26,30,18,25,15,05,22,16,,,1.5,0.8,1.2*3A
$GPRMC,194154.000,A,3748.7816,N,12217.8243,W,2.33,118.38,221211,,,D*7D
$GPVTG,118.38,T,,M,2.33,N,4.3,K,D*0E
$GPGGA,194155.000,3748.7812,N,12217.8234,W,2,10,0.8,3.5,M,-25.1,M,1.8,0000*4D
$GPGSA,A,3,21,29,26,30,18,25,15,05,22,16,,,1.5,0.8,1.2*3A
$GPRMC,194155.000,A,3748.7812,N,12217.8234,W,1.68,118.59,221211,,,D*72
$GPVTG,118.59,T,,M,1.68,N,3.1,K,D*01
$GPGGA,194156.000,3748.7807,N,12217.8226,W,2,10,0.8,3.6,M,-25.1,M,1.8,0000*4A
$GPGSA,A,3,21,29,26,30,18,25,15,05,22,16,,,1.5,0.8,1.2*3A
$GPRMC,194156.000,A,3748.7807,N,12217.8226,W,1.78,110.67,221211,,,D*72
$GPVTG,110.67,T,,M,1.78,N,3.3,K,D*07
$GPGGA,194157.000,3748.7805,N,12217.8219,W,2,10,0.8,3.2,M,-25.1,M,2.8,0000*42
$GPGSA,A,3,21,29,26,30,18,25,15,05,22,16,,,1.5,0.8,1.2*3A
$GPRMC,194157.000,A,3748.7805,N,12217.8219,W,2.16,113.15,221211,,,D*70
$GPVTG,113.15,T,,M,2.16,N,4.0,K,D*0E
$GPGGA,194158.000,3748.7803,N,12217.8211,W,2,10,0.8,3.1,M,-25.1,M,3.8,0000*41
$GPGSA,A,3,21,29,26,30,18,25,15,05,22,16,,,1.5,0.8,1.2*3A
$GPGSV,3,1,12,29,68,118,33,21,58,301,24,18,49,210,37,15,30,116,36*78
$GPGSV,3,2,12,30,29,289,28,26,24,075,26,05,18,044,23,16,17,316,23*77
$GPGSV,3,3,12,25,13,185,41,22,08,218,21,06,06,312,21,48,44,197,41*73
$GPRMC,194158.000,A,3748.7803,N,12217.8211,W,2.36,113.82,221211,,,D*7D
$GPVTG,113.82,T,,M,2.36,N,4.4,K,D*06
$GPGGA,194159.000,3748.7800,N,12217.8202,W,2,10,0.8,2.9,M,-25.1,M,4.8,0000*4F
$GPGSA,A,3,21,29,26,30,18,25,15,05,22,16,,,1.5,0.8,1.2*3A
$GPRMC,194159.000,A,3748.7800,N,12217.8202,W,2.17,114.35,221211,,,D*75
$GPVTG,114.35,T,,M,2.17,N,4.0,K,D*0A
$GPGGA,194200.000,3748.7796,N,12217.8194,W,2,10,0.8,2.4,M,-25.1,M,5.8,0000*40
$GPGSA,A,3,21,29,26,30,18,25,15,05,22,16,,,1.5,0.8,1.2*3A
$GPRMC,194200.000,A,3748.7796,N,12217.8194,W,2.09,117.24,221211,,,D*7A
$GPVTG,117.24,T,,M,2.09,N,3.9,K,D*08
$GPGGA,194201.000,3748.7793,N,12217.8186,W,2,10,0.8,2.3,M,-25.1,M,1.8,0000*44
$GPGSA,A,3,21,29,26,30,18,25,15,05,22,16,,,1.5,0.8,1.2*3A
$GPRMC,194201.000,A,3748.7793,N,12217.8186,W,2.30,119.58,221211,,,D*72
$GPVTG,119.58,T,,M,2.30,N,4.3,K,D*0A
$GPGGA,194202.000,3748.7789,N,12217.8179,W,2,10,0.8,2.2,M,-25.1,M,1.8,0000*4D
$GPGSA,A,3,21,29,26,30,18,25,15,05,22,16,,,1.5,0.8,1.2*3A
$GPRMC,194202.000,A,3748.7789,N,12217.8179,W,2.17,121.99,221211,,,D*79
$GPVTG,121.99,T,,M,2.17,N,4.0,K,D*0A
$GPGGA,194203.000,3748.7784,N,12217.8169,W,2,10,0.8,2.5,M,-25.1,M,1.8,0000*47
$GPGSA,A,3,21,29,26,30,18,25,15,05,22,16,,,1.5,0.8,1.2*3A
$GPGSV,3,1,12,29,68,118,33,21,58,301,24,18,49,210,38,15,30,116,37*76
$GPGSV,3,2,12,30,29,289,25,26,24,075,24,05,18,044,24,16,17,316,22*7E
$GPGSV,3,3,12,25,13,185,41,22,08,218,35,06,06,312,20,48,44,197,41*77
$GPRMC,194203.000,A,3748.7784,N,12217.8169,W,1.90,114.46,221211,,,D*7C
$GPVTG,114.46,T,,M,1.90,N,3.5,K,D*00
$GPGGA,194204.000,3748.7778,N,12217.8158,W,2,10,0.8,3.3,M,-25.1,M,1.8,0000*46
$GPGSA,A,3,21,29,26,30,18,25,15,05,22,16,,,1.5,0.8,1.2*3A
$GPRMC,194204.000,A,3748.7778,N,12217.8158,W,2.01,83.02,221211,,,D*4E
$GPVTG,83.02,T,,M,2.01,N,3.7,K,D*36
$GPGGA,194205.000,3748.7777,N,12217.8152,W,2,10,0.8,3.5,M,-25.1,M,2.8,0000*47
$GPGSA,A,3,21,29,26,30,18,25,15,05,22,16,,,1.5,0.8,1.2*3A
$GPRMC,194205.000,A,3748.7777,N,12217.8152,W,0.57,110.19,221211,,,D*7A
$GPVTG,110.19,T,,M,0.57,N,1.1,K,D*02
$GPGGA,194206.000,3748.7775,N,12217.8149,W,2,10,0.8,3.7,M,-25.1,M,3.8,0000*4F
$GPGSA,A,3,21,29,26,30,18,25,15,05,22,16,,,1.5,0.8,1.2*3A
$GPRMC,194206.000,A,3748.7775,N,12217.8149,W,1.05,125.08,221211,,,D*71
$GPVTG,125.08,T,,M,1.05,N,1.9,K,D*0A
$GPGGA,194207.000,3748.7771,N,12217.8145,W,2,10,0.8,4.2,M,-25.1,M,4.8,0000*43
$GPGSA,A,3,21,29,26,30,18,25,15,05,22,16,,,1.5,0.8,1.2*3A
$GPRMC,194207.000,A,3748.7771,N,12217.8145,W,1.70,115.44,221211,,,D*71
$GPVTG,115.44,T,,M,1.70,N,3.2,K,D*0A
$GPGGA,194208.000,3748.7767,N,12217.8141,W,2,10,0.8,4.5,M,-25.1,M,5.8,0000*49
$GPGSA,A,3,21,29,26,30,18,25,15,05,22,16,,,1.5,0.8,1.2*3A
$GPGSV,3,1,12,29,68,118,33,21,58,301,24,18,49,210,39,15,30,116,40*77
$GPGSV,3,2,12,30,29,289,24,26,24,075,27,05,18,044,23,16,17,316,21*78
$GPGSV,3,3,12,25,13,185,42,22,08,218,35,06,06,312,20,48,44,197,40*75
$GPVTG,116.87,T,,M,2.15,N,4.0,K,D*03
$GPGGA,194209.000,3748.7762,N,12217.8134,W,2,10,0.8,4.8,M,-25.1,M,6.8,0000*41
$GPGSA,A,3,21,29,26,30,18,25,15,05,22,16,,,1.5,0.8,1.2*3A
