$ADVER,3080,2.3
$GPRMC,195028.765,A,3748.8014,N,12217.8589,W,0.08,22.99,091012,,,D*47
$GPGGA,195029.765,3748.8019,N,12217.8592,W,2,06,1.6,5.1,M,-25.1,M,2.6,0000*42
$GPGSA,A,3,12,10,02,29,05,25,,,,,,,2.4,1.6,1.8*33
$GPRMC,195029.765,A,3748.8019,N,12217.8592,W,0.07,66.91,091012,,,D*46
$GPVTG,66.91,T,,M,0.07,N,0.1,K,D*36
$GPGGA,195030.000,3748.8018,N,12217.8592,W,2,06,1.6,5.4,M,-25.1,M,2.8,0000*44
$GPGSA,A,3,12,10,02,29,05,25,,,,,,,2.4,1.6,1.8*33
$GPRMC,195030.000,A,3748.8018,N,12217.8592,W,0.02,301.64,091012,,,D*76
$GPVTG,301.64,T,,M,0.02,N,0.0,K,D*0A
$GPGGA,195031.000,3748.8018,N,12217.8591,W,2,06,1.6,5.8,M,-25.1,M,,0000*6E
$GPGSA,A,3,12,10,02,29,05,25,,,,,,,2.4,1.6,1.8*33
$GPRMC,195031.000,A,3748.8018,N,12217.8591,W,0.09,44.90,091012,,,D*46
$GPVTG,44.90,T,,M,0.09,N,0.2,K,D*3A
$GPGGA,195032.000,3748.8017,N,12217.8593,W,2,06,1.6,5.6,M,-25.1,M,,0000*6E
$GPGSA,A,3,12,10,02,29,05,25,,,,,,,2.4,1.6,1.8*33
$GPGSV,3,1,10,12,77,329,35,02,77,071,34,25,37,314,39,10,29,087,33*7E
$GPGSV,3,2,10,29,22,276,32,05,22,147,40,27,20,198,35,04,31,047,34*70
$GPGSV,3,3,10,09,25,202,34,48,44,197,36*77
$GPRMC,195032.000,A,3748.8017,N,12217.8593,W,0.02,67.40,091012,,,D*4F
$GPVTG,67.40,T,,M,0.02,N,0.0,K,D*3F
$GPGGA,195033.000,3748.8016,N,12217.8594,W,2,06,1.6,5.2,M,-25.1,M,,0000*6D
$GPGSA,A,3,12,10,02,29,05,25,,,,,,,2.4,1.6,1.8*33
$GPRMC,195033.000,A,3748.8016,N,12217.8594,W,0.32,71.01,091012,,,D*49
$GPVTG,71.01,T,,M,0.32,N,0.6,K,D*38
$GPGGA,195034.000,3748.8016,N,12217.8593,W,2,07,1.2,5.4,M,-25.1,M,,0000*6E
$GPGSA,A,3,12,10,02,04,29,05,25,,,,,,2.0,1.2,1.7*38
$GPRMC,195034.000,A,3748.8016,N,12217.8593,W,0.12,44.88,091012,,,D*4C
$GPVTG,44.88,T,,M,0.12,N,0.2,K,D*39
$GPGGA,195035.000,3748.8017,N,12217.8592,W,2,07,1.2,5.4,M,-25.1,M,,0000*6F
$GPGSA,A,3,12,10,02,04,29,05,25,,,,,,2.0,1.2,1.7*38
$GPRMC,195035.000,A,3748.8017,N,12217.8592,W,0.13,3.21,091012,,,D*7C
$GPVTG,3.21,T,,M,0.13,N,0.2,K,D*08
$GPGGA,195036.000,3748.8017,N,12217.8592,W,2,07,1.2,5.4,M,-25.1,M,2.8,0000*48
$GPGSA,A,3,12,10,02,04,29,05,25,,,,,,2.0,1.2,1.7*38
$GPRMC,195036.000,A,3748.8017,N,12217.8592,W,0.13,60.31,091012,,,D*4B
$GPVTG,60.31,T,,M,0.13,N,0.2,K,D*3C
$GPGGA,195037.000,3748.8018,N,12217.8592,W,2,07,1.2,6.0,M,-25.1,M,,0000*65
$GPGSA,A,3,12,10,02,04,29,05,25,,,,,,2.0,1.2,1.7*38
$GPGSV,3,1,10,12,77,329,26,02,77,071,31,25,37,314,33,04,31,047,30*70
$GPGSV,3,2,10,10,29,087,33,09,25,202,31,29,22,276,25,05,22,147,26*7C
$GPGSV,3,3,10,27,20,198,30,48,44,197,30*7C
$GPRMC,195037.000,A,3748.8018,N,12217.8592,W,0.21,17.84,091012,,,D*4A
$GPVTG,17.84,T,,M,0.21,N,0.4,K,D*35
$GPGGA,195038.000,3748.8015,N,12217.8593,W,2,07,1.2,6.8,M,-25.1,M,2.8,0000*4A
$GPGSA,A,3,12,10,02,04,29,05,25,,,,,,2.0,1.2,1.7*38
$GPRMC,195038.000,A,3748.8015,N,12217.8593,W,0.30,91.72,091012,,,D*4E
$GPVTG,91.72,T,,M,0.30,N,0.6,K,D*30
$GPGGA,195039.000,3748.8014,N,12217.8596,W,2,07,1.2,7.4,M,-25.1,M,3.8,0000*43
$GPGSA,A,3,12,10,02,04,29,05,25,,,,,,2.0,1.2,1.7*38
$GPRMC,195039.000,A,3748.8014,N,12217.8596,W,0.20,340.17,091012,,,D*76
$GPVTG,340.17,T,,M,0.20,N,0.4,K,D*0F
$GPGGA,195040.000,3748.8010,N,12217.8600,W,2,07,1.2,7.8,M,-25.1,M,4.8,0000*4E
$GPGSA,A,3,12,10,02,04,29,05,25,,,,,,2.0,1.2,1.7*38
$GPRMC,195040.000,A,3748.8010,N,12217.8600,W,0.09,221.76,091012,,,D*7A
$GPVTG,221.76,T,,M,0.09,N,0.2,K,D*03
$GPGGA,195041.000,3748.8009,N,12217.8601,W,2,07,1.2,7.7,M,-25.1,M,5.8,0000*48
$GPGSA,A,3,12,10,02,04,29,05,25,,,,,,2.0,1.2,1.7*38
$GPRMC,195041.000,A,3748.8009,N,12217.8601,W,0.10,118.94,091012,,,D*7F
$GPVTG,118.94,T,,M,0.10,N,0.2,K,D*0E
$GPGGA,195042.000,3748.8009,N,12217.8601,W,2,07,1.2,8.1,M,-25.1,M,6.8,0000*41
$GPGSA,A,3,12,10,02,04,29,05,25,,,,,,2.0,1.2,1.7*38
$GPGSV,3,1,10,12,77,329,27,02,77,071,33,25,37,314,28,04,31,047,27*7F
$GPGSV,3,2,10,10,29,087,24,09,25,202,39,29,22,276,29,05,22,147,30*79
$GPGSV,3,3,10,27,20,198,37,48,44,197,39*72
$GPVTG,35.66,T,,M,0.18,N,0.3,K,D*34
$GPGGA,195043.000,3748.8012,N,12217.8596,W,2,07,1.2,7.3,M,-25.1,M,,0000*6A
$GPGSA,A,3,12,10,02,04,29,05,25,,,,,,2.0,1.2,1.7*38
$GPRMC,195043.000,A,3748.8012,N,12217.8596,W,0.17,35.82,091012,,,D*44
$GPVTG,35.82,T,,M,0.17,N,0.3,K,D*31
$GPGGA,195044.000,3748.8012,N,12217.8595,W,2,07,1.2,7.0,M,-25.1,M,,0000*6D
$GPGSA,A,3,12,10,02,04,29,05,25,,,,,,2.0,1.2,1.7*38
$GPRMC,195044.000,A,3748.8012,N,12217.8595,W,0.20,68.55,091012,,,D*46
$GPVTG,68.55,T,,M,0.20,N,0.4,K,D*30
$GPGGA,195045.000,3748.8010,N,12217.8595,W,2,07,1.2,6.7,M,-25.1,M,,0000*68
$GPGSA,A,3,12,10,02,04,29,05,25,,,,,,2.0,1.2,1.7*38
$GPRMC,195045.000,A,3748.8010,N,12217.8595,W,0.33,153.89,091012,,,D*7F
$GPVTG,153.89,T,,M,0.33,N,0.6,K,D*08
$GPGGA,195046.000,3748.8008,N,12217.8594,W,2,07,1.2,7.1,M,-25.1,M,2.8,0000*40
$GPGSA,A,3,12,10,02,04,29,05,25,,,,,,2.0,1.2,1.7*38
$GPRMC,195046.000,A,3748.8008,N,12217.8594,W,0.14,73.76,091012,,,D*42
$GPVTG,73.76,T,,M,0.14,N,0.3,K,D*3B
$GPGGA,195047.000,3748.8005,N,12217.8595,W,2,07,1.2,7.2,M,-25.1,M,3.8,0000*4F
$GPGSA,A,3,12,10,02,04,29,05,25,,,,,,2.0,1.2,1.7*38
$GPGSV,3,1,10,12,77,329,31,02,77,071,22,25,37,314,32,04,31,047,35*70
$GPGSV,3,2,10,10,29,087,28,09,25,202,32,29,22,276,34,05,22,147,23*70
$GPGSV,3,3,10,27,20,198,30,48,44,197,31*7D
$GPRMC,195047.000,A,3748.8005,N,12217.8595,W,0.25,29.93,091012,,,D*49
$GPVTG,29.93,T,,M,0.25,N,0.5,K,D*3B
$GPGGA,195048.000,3748.8005,N,12217.8593,W,2,07,1.2,7.4,M,-25.1,M,4.8,0000*47
$GPGSA,A,3,12,10,02,04,29,05,25,,,,,,2.0,1.2,1.7*38
$GPRMC,195048.000,A,3748.8005,N,12217.8593,W,0.66,5.53,091012,,,D*75
$GPVTG,5.53,T,,M,0.66,N,1.2,K,D*08
$GPGGA,195049.000,3748.8003,N,12217.8595,W,2,07,1.2,7.8,M,-25.1,M,5.8,0000*4B
$GPGSA,A,3,12,10,02,04,29,05,25,,,,,,2.0,1.2,1.7*38
$GPRMC,195049.000,A,3748.8003,N,12217.8595,W,0.12,344.73,091012,,,D*73
$GPVTG,344.73,T,,M,0.12,N,0.2,K,D*0E
$GPGGA,195050.000,3748.8002,N,12217.8595,W,2,07,1.2,7.5,M,-25.1,M,6.8,0000*4C
$GPGSA,A,3,12,10,02,04,29,05,25,,,,,,2.0,1.2,1.7*38
$GPRMC,195050.000,A,3748.8002,N,12217.8595,W,0.31,129.23,091012,,,D*77
$GPVTG,129.23,T,,M,0.31,N,0.6,K,D*07
$GPGGA,195051.000,3748.7991,N,12217.8598,W,2,07,1.2,8.5,M,-25.1,M,7.8,0000*42
$GPGSA,A,3,12,10,02,04,29,05,25,,,,,,2.0,1.2,1.7*38
$GPRMC,195051.000,A,3748.7991,N,12217.8598,W,0.58,159.98,091012,,,D*7F
$GPVTG,159.98,T,,M,0.58,N,1.1,K,D*09
$GPGGA,195052.000,3748.7983,N,12217.8601,W,2,07,1.2,8.9,M,-25.1,M,8.8,0000*42
$GPGSA,A,3,12,10,02,04,29,05,25,,,,,,2.0,1.2,1.7*38
$GPGSV,3,1,09,12,77,329,32,02,77,071,30,25,37,314,23,04,31,047,33*7E
$GPGSV,3,2,09,10,29,087,32,09,25,202,31,29,22,276,31,05,22,147,29*7F
$GPGSV,3,3,09,27,20,198,31*45
$GPRMC,195052.000,A,3748.7983,N,12217.8601,W,0.02,98.45,091012,,,D*4F
$GPVTG,98.45,T,,M,0.02,N,0.0,K,D*3A
$GPGGA,195053.000,3748.7979,N,12217.8604,W,2,07,1.2,8.9,M,-25.1,M,9.8,0000*42
$GPGSA,A,3,12,10,02,04,29,05,25,,,,,,2.0,1.2,1.7*38
$GPRMC,195053.000,A,3748.7979,N,12217.8604,W,0.16,308.03,091012,,,D*73
$GPVTG,308.03,T,,M,0.16,N,0.3,K,D*04
$GPGGA,195054.000,3748.7976,N,12217.8607,W,2,07,1.2,8.8,M,-25.1,M,10.8,0000*70
$GPGSA,A,3,12,10,02,04,29,05,25,,,,,,2.0,1.2,1.7*38
$GPRMC,195054.000,A,3748.7976,N,12217.8607,W,0.08,294.01,091012,,,D*71
$GPVTG,294.01,T,,M,0.08,N,0.1,K,D*0F
$GPGGA,195055.000,3748.7972,N,12217.8609,W,2,07,1.2,8.8,M,-25.1,M,11.8,0000*7A
$GPGSA,A,3,12,10,02,04,29,05,25,,,,,,2.0,1.2,1.7*38
$GPRMC,195055.000,A,3748.7972,N,12217.8609,W,0.17,147.80,091012,,,D*70
$GPVTG,147.80,T,,M,0.17,N,0.3,K,D*07
$GPGGA,195056.000,3748.7969,N,12217.8611,W,2,07,1.2,8.7,M,-25.1,M,12.8,0000*76
$GPGSA,A,3,12,10,02,04,29,05,25,,,,,,2.0,1.2,1.7*38
$GPRMC,195056.000,A,3748.7969,N,12217.8611,W,0.05,125.82,091012,,,D*75
$GPVTG,125.82,T,,M,0.05,N,0.1,K,D*00
$GPGGA,195057.000,3748.7965,N,12217.8613,W,2,07,1.2,8.6,M,-25.1,M,13.8,0000*79
$GPGSA,A,3,12,10,02,04,29,05,25,,,,,,2.0,1.2,1.7*38
$GPGSV,3,1,09,12,77,329,35,02,77,071,33,25,37,314,35,04,31,047,33*7D
$GPGSV,3,2,09,10,29,087,26,09,25,202,15,29,22,276,28,05,22,147,26*7B
$GPGSV,3,3,09,27,20,198,23*46
$GPRMC,195057.000,A,3748.7965,N,12217.8613,W,0.08,292.33,091012,,,D*72
$GPGGA,195058.000,3748.7962,N,12217.8616,W,2,07,1.2,8.5,M,-25.1,M,14.8,0000*70
$GPGSA,A,3,12,10,02,04,29,05,25,,,,,,2.0,1.2,1.7*38
$GPRMC,195058.000,A,3748.7962,N,12217.8616,W,0.04,83.65,091012,,,D*42
$GPVTG,83.65,T,,M,0.04,N,0.1,K,D*35
$GPGGA,195059.000,3748.7960,N,12217.8617,W,2,07,1.2,8.5,M,-25.1,M,15.8,0000*73
$GPGSA,A,3,12,10,02,04,29,05,25,,,,,,2.0,1.2,1.7*38
$GPRMC,195059.000,A,3748.7960,N,12217.8617,W,0.04,95.99,091012,,,D*44
$GPVTG,95.99,T,,M,0.04,N,0.1,K,D*31
$GPGGA,195100.000,3748.7958,N,12217.8618,W,2,07,1.2,8.5,M,-25.1,M,16.8,0000*79
$GPGSA,A,3,12,10,02,04,29,05,25,,,,,,2.0,1.2,1.7*38
$GPRMC,195100.000,A,3748.7958,N,12217.8618,W,0.21,19.96,091012,,,D*41
$GPVTG,19.96,T,,M,0.21,N,0.4,K,D*38
$GPGGA,195101.000,3748.7964,N,12217.8618,W,2,06,1.3,8.6,M,-25.1,M,17.8,0000*75
$GPGSA,A,3,12,02,04,29,05,25,,,,,,,2.1,1.3,1.7*39
$GPRMC,195101.000,A,3748.7964,N,12217.8618,W,0.31,5.92,091012,,,D*77
$GPVTG,5.92,T,,M,0.31,N,0.6,K,D*02
$GPGGA,195102.000,3748.7972,N,12217.8617,W,1,06,1.3,7.3,M,-25.1,M,,0000*67
$GPGSA,A,3,12,02,04,29,05,25,,,,,,,2.1,1.3,1.7*39
$GPGSV,3,1,09,12,77,329,23,02,77,071,21,25,37,314,25,04,31,047,22*78
$GPGSV,3,2,09,10,29,087,,09,25,202,16,29,22,276,23,05,22,147,16*74
$GPGSV,3,3,09,27,20,198,07*40
$GPRMC,195102.000,A,3748.7972,N,12217.8617,W,0.45,358.25,091012,,,A*7D
$GPVTG,358.25,T,,M,0.45,N,0.8,K,A*0D
$GPGGA,195103.000,3748.7978,N,12217.8611,W,1,06,1.3,6.9,M,-25.1,M,,0000*61
$GPGSA,A,3,12,02,04,29,05,25,,,,,,,2.1,1.3,1.7*39
$GPRMC,195103.000,A,3748.7978,N,12217.8611,W,0.70,113.88,091012,,,A*7C
$GPVTG,113.88,T,,M,0.70,N,1.3,K,A*0B
$GPGGA,195104.000,3748.7988,N,12217.8604,W,1,06,1.3,5.9,M,-25.1,M,,0000*6E
$GPGSA,A,3,12,02,04,29,05,25,,,,,,,2.1,1.3,1.7*39
$GPRMC,195104.000,A,3748.7988,N,12217.8604,W,0.76,93.85,091012,,,A*42
$GPVTG,93.85,T,,M,0.76,N,1.4,K,A*3E
$GPGGA,195105.000,3748.7995,N,12217.8600,W,1,06,1.3,5.6,M,-25.1,M,,0000*68
$GPGSA,A,3,12,02,04,29,05,25,,,,,,,2.1,1.3,1.7*39
$GPRMC,195105.000,A,3748.7995,N,12217.8600,W,0.61,42.59,091012,,,A*40
$GPVTG,42.59,T,,M,0.61,N,1.1,K,A*30
$GPGGA,195106.000,3748.7999,N,12217.8598,W,1,07,1.2,5.4,M,-25.1,M,,0000*67
$GPGSA,A,3,12,10,02,04,29,05,25,,,,,,2.0,1.2,1.7*38
$GPRMC,195106.000,A,3748.7999,N,12217.8598,W,0.55,36.34,091012,,,A*42
$GPVTG,36.34,T,,M,0.55,N,1.0,K,A*3E
$GPGGA,195107.000,3748.8003,N,12217.8596,W,1,06,1.3,4.6,M,-25.1,M,,0000*6E
$GPGSA,A,3,12,02,04,29,05,25,,,,,,,2.1,1.3,1.7*39
$GPGSV,3,1,09,12,77,329,30,02,77,071,29,25,37,314,33,04,31,047,26*71
$GPGSV,3,2,09,10,29,087,,09,25,202,15,29,22,276,27,05,22,147,19*7C
$GPGSV,3,3,09,27,20,198,15*43
$GPRMC,195107.000,A,3748.8003,N,12217.8596,W,0.44,34.40,091012,,,A*49
$GPVTG,34.40,T,,M,0.44,N,0.8,K,A*36
$GPGGA,195108.000,3748.8009,N,12217.8594,W,1,06,1.3,3.9,M,-25.1,M,,0000*61
$GPGSA,A,3,12,02,04,29,05,25,,,,,,,2.1,1.3,1.7*39
$GPRMC,195108.000,A,3748.8009,N,12217.8594,W,0.36,66.07,091012,,,A*4F
$GPVTG,66.07,T,,M,0.36,N,0.7,K,A*38
$GPGGA,195109.000,3748.8013,N,12217.8591,W,1,07,1.2,3.6,M,-25.1,M,,0000*61
$GPGSA,A,3,12,10,02,04,29,05,25,,,,,,2.0,1.2,1.7*38
$GPRMC,195109.000,A,3748.8013,N,12217.8591,W,0.48,66.59,091012,,,A*42
$GPVTG,66.59,T,,M,0.48,N,0.9,K,A*34
$GPGGA,195110.000,3748.8016,N,12217.8592,W,1,07,1.2,3.8,M,-25.1,M,,0000*61
$GPGSA,A,3,12,10,02,04,29,05,25,,,,,,2.0,1.2,1.7*38
$GPRMC,195110.000,A,3748.8016,N,12217.8592,W,0.64,348.62,091012,,,A*75
$GPVTG,348.62,T,,M,0.64,N,1.2,K,A*07
$GPGGA,195111.000,3748.8019,N,12217.8591,W,1,07,1.2,4.1,M,-25.1,M,,0000*62
$GPGSA,A,3,12,10,02,04,29,05,25,,,,,,2.0,1.2,1.7*38
$GPRMC,195111.000,A,3748.8019,N,12217.8591,W,0.99,330.37,091012,,,A*75
$GPVTG,330.37,T,,M,0.99,N,1.8,K,A*00
$GPGGA,195112.000,3748.8027,N,12217.8592,W,1,06,1.2,3.8,M,-25.1,M,,0000*60
$GPGSA,A,3,12,10,04,29,05,25,,,,,,,2.5,1.2,2.2*39
$GPGSV,3,1,09,12,77,329,28,02,77,071,,25,37,314,35,04,31,047,33*71
$GPGSV,3,2,09,10,29,087,33,09,25,202,28,29,22,276,30,05,22,147,31*7E
$GPGSV,3,3,09,27,20,198,26*43
$GPRMC,195112.000,A,3748.8027,N,12217.8592,W,0.82,308.95,091012,,,A*71
$GPGGA,195113.000,3748.8026,N,12217.8589,W,1,07,1.2,4.1,M,-25.1,M,,0000*65
$GPGSA,A,3,12,10,02,04,29,05,25,,,,,,2.0,1.2,1.7*38
$GPRMC,195113.000,A,3748.8026,N,12217.8589,W,0.69,139.13,091012,,,A*70
$GPVTG,139.13,T,,M,0.69,N,1.3,K,A*09
$GPGGA,195114.000,3748.8022,N,12217.8587,W,1,07,1.2,3.7,M,-25.1,M,,0000*69
$GPGSA,A,3,12,10,02,04,29,05,25,,,,,,2.0,1.2,1.7*38
$GPRMC,195114.000,A,3748.8022,N,12217.8587,W,0.49,35.48,091012,,,A*4C
$GPVTG,35.48,T,,M,0.49,N,0.9,K,A*33
$GPGGA,195115.000,3748.8018,N,12217.8591,W,1,07,1.2,3.6,M,-25.1,M,,0000*67
$GPGSA,A,3,12,10,02,04,29,05,25,,,,,,2.0,1.2,1.7*38
$GPRMC,195115.000,A,3748.8018,N,12217.8591,W,0.15,42.32,091012,,,A*47
$GPVTG,42.32,T,,M,0.15,N,0.3,K,A*3D
$GPGGA,195116.000,3748.8018,N,12217.8593,W,1,07,1.2,3.6,M,-25.1,M,,0000*66
$GPGSA,A,3,12,10,02,04,29,05,25,,,,,,2.0,1.2,1.7*38
$GPRMC,195116.000,A,3748.8018,N,12217.8593,W,0.11,14.87,091012,,,A*4F
$GPVTG,14.87,T,,M,0.11,N,0.2,K,A*35
$GPGGA,195117.000,3748.8016,N,12217.8594,W,1,06,1.2,3.6,M,-25.1,M,,0000*6F
$GPGSA,A,3,12,10,04,29,05,25,,,,,,,2.5,1.2,2.2*39
$GPGSV,3,1,10,12,77,329,19,02,77,071,,25,37,314,29,04,31,047,25*71
$GPGSV,3,2,10,10,29,087,30,09,25,202,41,29,22,276,31,05,22,147,39*73
$GPGSV,3,3,10,27,20,198,37,48,44,197,33*78
$GPRMC,195117.000,A,3748.8016,N,12217.8594,W,0.25,6.75,091012,,,A*7E
$GPVTG,6.75,T,,M,0.25,N,0.5,K,A*0B
$GPGGA,195118.000,3748.8018,N,12217.8590,W,1,07,1.2,2.8,M,-25.1,M,,0000*64
$GPGSA,A,3,12,10,02,04,29,05,25,,,,,,2.0,1.2,1.7*38
$GPRMC,195118.000,A,3748.8018,N,12217.8590,W,0.29,344.80,091012,,,A*78
$GPVTG,344.80,T,,M,0.29,N,0.5,K,A*08
$GPGGA,195119.000,3748.8014,N,12217.8592,W,1,07,1.2,3.3,M,-25.1,M,,0000*61
$GPGSA,A,3,12,10,02,04,29,05,25,,,,,,2.0,1.2,1.7*38
$GPRMC,195119.000,A,3748.8014,N,12217.8592,W,0.20,6.28,091012,,,A*79
$GPVTG,6.28,T,,M,0.20,N,0.4,K,A*07
$GPGGA,195120.000,3748.8013,N,12217.8593,W,1,07,1.2,3.0,M,-25.1,M,,0000*6E
$GPGSA,A,3,12,10,02,04,29,05,25,,,,,,2.0,1.2,1.7*38
$GPRMC,195120.000,A,3748.8013,N,12217.8593,W,0.30,22.25,091012,,,A*4F
$GPVTG,22.25,T,,M,0.30,N,0.6,K,A*3F
$GPGGA,195121.000,3748.8012,N,12217.8594,W,1,07,1.2,2.9,M,-25.1,M,,0000*61
$GPGSA,A,3,12,10,02,04,29,05,25,,,,,,2.0,1.2,1.7*38
$GPRMC,195121.000,A,3748.8012,N,12217.8594,W,0.20,312.11,091012,,,A*7E
$GPVTG,312.11,T,,M,0.20,N,0.4,K,A*0B
$GPGGA,195122.000,3748.8013,N,12217.8595,W,1,07,1.2,2.4,M,-25.1,M,,0000*6F
$GPGSA,A,3,12,10,02,04,29,05,25,,,,,,2.0,1.2,1.7*38
$GPGSV,3,1,10,12,77,329,29,02,77,071,28,25,37,314,36,04,31,047,38*7A
$GPGSV,3,2,10,10,29,087,37,09,25,202,34,29,22,276,34,05,22,147,23*78
$GPGSV,3,3,10,27,20,198,28,48,44,197,28*7C
$GPRMC,195122.000,A,3748.8013,N,12217.8595,W,0.08,347.46,091012,,,A*75
$GPVTG,347.46,T,,M,0.08,N,0.1,K,A*06
$GPGGA,195123.000,3748.8014,N,12217.8596,W,1,07,1.2,2.0,M,-25.1,M,,0000*6E
$GPGSA,A,3,12,10,02,04,29,05,25,,,,,,2.0,1.2,1.7*38
$GPRMC,195123.000,A,3748.8014,N,12217.8596,W,0.40,355.48,091012,,,A*71
$GPVTG,355.48,T,,M,0.40,N,0.7,K,A*01
$GPGGA,195124.000,3748.8016,N,12217.8597,W,1,07,1.2,1.6,M,-25.1,M,,0000*6F
$GPGSA,A,3,12,10,02,04,29,05,25,,,,,,2.0,1.2,1.7*38
$GPRMC,195124.000,A,3748.8016,N,12217.8597,W,0.43,1.78,091012,,,A*77
$GPVTG,1.78,T,,M,0.43,N,0.8,K,A*0C
$GPGGA,195125.000,3748.8017,N,12217.8597,W,1,07,1.2,1.2,M,-25.1,M,,0000*6B
$GPGSA,A,3,12,10,02,04,29,05,25,,,,,,2.0,1.2,1.7*38
$GPRMC,195125.000,A,3748.8017,N,12217.8597,W,0.09,115.53,091012,,,A*74
$GPVTG,115.53,T,,M,0.09,N,0.2,K,A*05
$GPGGA,195126.000,3748.8016,N,12217.8598,W,1,07,1.2,2.0,M,-25.1,M,,0000*67
$GPGSA,A,3,12,10,02,04,29,05,25,,,,,,2.0,1.2,1.7*38
$GPRMC,195126.000,A,3748.8016,N,12217.8598,W,0.06,7.13,091012,,,A*70
$GPVTG,7.13,T,,M,0.06,N,0.1,K,A*0F
$GPGGA,195127.000,3748.8011,N,12217.8600,W,1,07,1.2,2.8,M,-25.1,M,,0000*6B
$GPGSA,A,3,12,10,02,04,29,05,25,,,,,,2.0,1.2,1.7*38
$GPGSV,3,1,10,12,77,329,26,02,77,071,21,25,37,314,36,04,31,047,30*74
$GPGSV,3,2,10,10,29,087,24,09,25,202,29,29,22,276,38,05,22,147,24*7D
$GPGSV,3,3,10,27,20,198,27,48,44,197,34*7E
$GPRMC,195127.000,A,3748.8011,N,12217.8600,W,0.37,176.90,091012,,,A*7A
$GPVTG,176.90,T,,M,0.37,N,0.7,K,A*07
$GPGGA,195128.000,3748.8006,N,12217.8600,W,1,07,1.2,3.2,M,-25.1,M,,0000*69
$GPGSA,A,3,12,10,02,04,29,05,25,,,,,,2.0,1.2,1.7*38
$GPRMC,195128.000,A,3748.8006,N,12217.8600,W,0.19,132.01,091012,,,A*77
$GPVTG,132.01,T,,M,0.19,N,0.4,K,A*00
$GPGGA,195129.000,3748.8006,N,12217.8597,W,1,07,1.2,1.9,M,-25.1,M,,0000*6C
$GPGSA,A,3,12,10,02,04,29,05,25,,,,,,2.0,1.2,1.7*38
$GPRMC,195129.000,A,3748.8006,N,12217.8597,W,0.31,340.37,091012,,,A*73
$GPVTG,340.37,T,,M,0.31,N,0.6,K,A*0A
$GPGGA,195130.000,3748.8005,N,12217.8594,W,1,07,1.2,1.1,M,-25.1,M,,0000*6C
$GPGSA,A,3,12,10,02,04,29,05,25,,,,,,2.0,1.2,1.7*38
$GPRMC,195130.000,A,3748.8005,N,12217.8594,W,0.47,147.60,091012,,,A*7D
$GPVTG,147.60,T,,M,0.47,N,0.9,K,A*03
$GPGGA,195131.000,3748.8003,N,12217.8591,W,1,07,1.2,0.8,M,-25.1,M,,0000*66
$GPGSA,A,3,12,10,02,04,29,05,25,,,,,,2.0,1.2,1.7*38
$GPRMC,195131.000,A,3748.8003,N,12217.8591,W,0.42,133.20,091012,,,A*7D
$GPVTG,133.20,T,,M,0.42,N,0.8,K,A*00
$GPGGA,195132.000,3748.7997,N,12217.8592,W,1,07,1.2,1.8,M,-25.1,M,,0000*6C
$GPGSA,A,3,12,10,02,04,29,05,25,,,,,,2.0,1.2,1.7*38
$GPGSV,3,1,10,12,77,329,25,02,77,071,22,25,37,314,34,04,31,047,29*7E
$GPGSV,3,2,10,10,29,087,23,09,25,202,33,29,22,276,28,05,22,147,23*77
$GPGSV,3,3,10,27,20,198,29,48,44,197,33*77
$GPRMC,195132.000,A,3748.7997,N,12217.8592,W,0.21,191.79,091012,,,A*77
$GPVTG,191.79,T,,M,0.21,N,0.4,K,A*0D
$GPGGA,195133.000,3748.7997,N,12217.8592,W,2,07,1.2,2.8,M,-25.1,M,1.8,0000*4A
$GPGSA,A,3,12,10,02,04,29,05,25,,,,,,2.0,1.2,1.7*38
$GPRMC,195133.000,A,3748.7997,N,12217.8592,W,0.33,358.40,091012,,,D*7D
$GPVTG,358.40,T,,M,0.33,N,0.6,K,D*04
$GPGGA,195134.000,3748.8000,N,12217.8593,W,2,07,1.2,3.8,M,-25.1,M,2.8,0000*46
$GPGSA,A,3,12,10,02,04,29,05,25,,,,,,2.0,1.2,1.7*38
$GPRMC,195134.000,A,3748.8000,N,12217.8593,W,0.52,338.34,091012,,,D*71
$GPVTG,338.34,T,,M,0.52,N,1.0,K,D*01
$GPGGA,195135.000,3748.8002,N,12217.8598,W,2,07,1.2,6.0,M,-25.1,M,3.8,0000*42
$GPGSA,A,3,12,10,02,04,29,05,25,,,,,,2.0,1.2,1.7*38
$GPRMC,195135.000,A,3748.8002,N,12217.8598,W,0.32,301.60,091012,,,D*74
$GPVTG,301.60,T,,M,0.32,N,0.6,K,D*0B
$GPGGA,195136.000,3748.7996,N,12217.8603,W,2,07,1.2,7.8,M,-25.1,M,4.8,0000*45
$GPGSA,A,3,12,10,02,04,29,05,25,,,,,,2.0,1.2,1.7*38
$GPRMC,195136.000,A,3748.7996,N,12217.8603,W,0.37,180.74,091012,,,D*76
$GPVTG,180.74,T,,M,0.37,N,0.7,K,D*01
$GPGGA,195137.000,3748.7997,N,12217.8603,W,2,07,1.2,8.5,M,-25.1,M,5.8,0000*46
$GPGSA,A,3,12,10,02,04,29,05,25,,,,,,2.0,1.2,1.7*38
$GPGSV,3,1,10,12,77,329,27,02,77,071,29,25,37,314,32,04,31,047,34*7D
$GPGSV,3,2,10,10,29,087,32,09,25,202,32,29,22,276,31,05,22,147,29*74
$GPGSV,3,3,10,27,20,198,27,48,44,197,29*72
$GPRMC,195137.000,A,3748.7997,N,12217.8603,W,0.07,107.56,091012,,,D*7A
$GPVTG,107.56,T,,M,0.07,N,0.1,K,D*0B
$GPGGA,195138.000,3748.7998,N,12217.8602,W,2,07,1.2,8.8,M,-25.1,M,6.8,0000*49
$GPGSA,A,3,12,10,02,04,29,05,25,,,,,,2.0,1.2,1.7*38
$GPRMC,195138.000,A,3748.7998,N,12217.8602,W,0.36,70.68,091012,,,D*45
$GPVTG,70.68,T,,M,0.36,N,0.7,K,D*33
$GPGGA,195139.000,3748.8000,N,12217.8600,W,2,07,1.2,9.2,M,-25.1,M,7.8,0000*47
$GPGSA,A,3,12,10,02,04,29,05,25,,,,,,2.0,1.2,1.7*38
$GPRMC,195139.000,A,3748.8000,N,12217.8600,W,0.30,82.83,091012,,,D*4F
$GPVTG,82.83,T,,M,0.30,N,0.6,K,D*3C
$GPGGA,195140.000,3748.7992,N,12217.8606,W,2,07,1.2,11.3,M,-25.1,M,8.8,0000*75
$GPGSA,A,3,12,10,02,04,29,05,25,,,,,,2.0,1.2,1.7*38
$GPRMC,195140.000,A,3748.7992,N,12217.8606,W,0.27,250.14,091012,,,D*7F
$GPVTG,250.14,T,,M,0.27,N,0.5,K,D*0A
$GPGGA,195141.000,3748.7988,N,12217.8612,W,2,07,1.2,12.7,M,-25.1,M,9.8,0000*7C
$GPGSA,A,3,12,10,02,04,29,05,25,,,,,,2.0,1.2,1.7*38
$GPRMC,195141.000,A,3748.7988,N,12217.8612,W,0.30,241.75,091012,,,D*71
$GPVTG,241.75,T,,M,0.30,N,0.6,K,D*08
$GPGGA,195142.000,3748.7985,N,12217.8616,W,2,07,1.2,13.7,M,-25.1,M,10.8,0000*4F
$GPGSA,A,3,12,10,02,04,29,05,25,,,,,,2.0,1.2,1.7*38
$GPGSV,3,1,10,12,77,329,30,02,77,071,23,25,37,314,40,04,31,047,32*72
$GPGSV,3,2,10,10,29,087,29,09,25,202,25,29,22,276,29,05,22,147,29*71
$GPGSV,3,3,10,27,20,198,24,48,44,197,31*78
$GPRMC,195142.000,A,3748.7985,N,12217.8616,W,0.09,195.70,091012,,,D*7E
$GPGGA,195143.000,3748.7984,N,12217.8618,W,2,07,1.2,14.2,M,-25.1,M,11.8,0000*42
$GPGSA,A,3,12,10,02,04,29,05,25,,,,,,2.0,1.2,1.7*38
$GPRMC,195143.000,A,3748.7984,N,12217.8618,W,0.09,65.47,091012,,,D*4A
$GPVTG,65.47,T,,M,0.09,N,0.2,K,D*33
$GPGGA,195144.000,3748.7984,N,12217.8616,W,2,07,1.2,15.3,M,-25.1,M,12.8,0000*48
$GPGSA,A,3,12,10,02,04,29,05,25,,,,,,2.0,1.2,1.7*38
$GPRMC,195144.000,A,3748.7984,N,12217.8616,W,0.19,95.73,091012,,,D*4A
$GPVTG,95.73,T,,M,0.19,N,0.4,K,D*3C
$GPGGA,195145.000,3748.7983,N,12217.8615,W,2,07,1.2,15.9,M,-25.1,M,13.8,0000*46
$GPGSA,A,3,12,10,02,04,29,05,25,,,,,,2.0,1.2,1.7*38
$GPRMC,195145.000,A,3748.7983,N,12217.8615,W,0.13,183.08,091012,,,D*7F
$GPVTG,183.08,T,,M,0.13,N,0.2,K,D*0A
$GPGGA,195146.000,3748.7980,N,12217.8614,W,2,07,1.2,16.2,M,-25.1,M,14.8,0000*48
$GPGSA,A,3,12,10,02,04,29,05,25,,,,,,2.0,1.2,1.7*38
$GPRMC,195146.000,A,3748.7980,N,12217.8614,W,0.80,139.46,091012,,,D*7F
$GPVTG,139.46,T,,M,0.80,N,1.5,K,D*0D
$GPGGA,195147.000,3748.7977,N,12217.8610,W,2,07,1.2,16.8,M,-25.1,M,15.8,0000*4E
$GPGSA,A,3,12,10,02,04,29,05,25,,,,,,2.0,1.2,1.7*38
$GPGSV,3,1,11,12,78,329,28,02,77,069,25,25,38,314,22,04,30,047,32*70
$GPGSV,3,2,11,10,29,087,34,09,24,201,32,29,23,277,20,05,22,147,42*7C
$GPGSV,3,3,11,27,20,198,30,31,00,332,,48,44,197,31*4C
$GPRMC,195147.000,A,3748.7977,N,12217.8610,W,0.41,73.30,091012,,,D*41
$GPVTG,73.30,T,,M,0.41,N,0.8,K,D*32
$GPGGA,195148.000,3748.7976,N,12217.8607,W,2,07,1.2,16.7,M,-25.1,M,16.8,0000*4A
$GPGSA,A,3,12,10,02,04,29,05,25,,,,,,2.0,1.2,1.7*38
$GPRMC,195148.000,A,3748.7976,N,12217.8607,W,0.89,168.39,091012,,,D*7F
$GPVTG,168.39,T,,M,0.89,N,1.6,K,D*0B
$GPGGA,195149.000,3748.7974,N,12217.8603,W,2,07,1.2,16.5,M,-25.1,M,17.8,0000*4E
$GPGSA,A,3,12,10,02,04,29,05,25,,,,,,2.0,1.2,1.7*38
$GPRMC,195149.000,A,3748.7974,N,12217.8603,W,0.98,144.25,091012,,,D*7B
$GPVTG,144.25,T,,M,0.98,N,1.8,K,D*06
$GPGGA,195150.000,3748.7972,N,12217.8597,W,1,07,1.2,14.7,M,-25.1,M,,0000*5D
$GPGSA,A,3,12,10,02,04,29,05,25,,,,,,2.0,1.2,1.7*38
$GPRMC,195150.000,A,3748.7972,N,12217.8597,W,1.20,142.39,091012,,,A*77
$GPVTG,142.39,T,,M,1.20,N,2.2,K,A*03
$GPGGA,195151.000,3748.7970,N,12217.8594,W,1,07,1.2,13.7,M,-25.1,M,,0000*5A
$GPGSA,A,3,12,10,02,04,29,05,25,,,,,,2.0,1.2,1.7*38
$GPRMC,195151.000,A,3748.7970,N,12217.8594,W,1.04,149.33,091012,,,A*70
$GPVTG,149.33,T,,M,1.04,N,1.9,K,A*0C
$GPGGA,195152.000,3748.7968,N,12217.8590,W,1,07,1.2,12.6,M,-25.1,M,,0000*54
$GPGSA,A,3,12,10,02,04,29,05,25,,,,,,2.0,1.2,1.7*38
$GPGSV,3,1,11,12,78,329,22,02,77,069,26,25,38,314,24,04,30,047,35*78
$GPGSV,3,2,11,10,29,087,35,09,24,201,34,29,23,277,22,05,22,147,39*75
$GPGSV,3,3,11,27,20,198,36,31,00,332,,48,44,197,32*49
$GPRMC,195152.000,A,3748.7968,N,12217.8590,W,0.85,133.05,091012,,,A*7E
$GPVTG,133.05,T,,M,0.85,N,1.6,K,A*03
$GPGGA,195153.000,3748.7966,N,12217.8585,W,1,07,1.2,11.6,M,-25.1,M,,0000*5C
$GPGSA,A,3,12,10,02,04,29,05,25,,,,,,2.0,1.2,1.7*38
$GPRMC,195153.000,A,3748.7966,N,12217.8585,W,0.84,138.30,091012,,,A*79
$GPVTG,138.30,T,,M,0.84,N,1.6,K,A*0F
$GPGGA,195154.000,3748.7964,N,12217.8580,W,1,07,1.2,10.4,M,-25.1,M,,0000*5F
$GPGSA,A,3,12,10,02,04,29,05,25,,,,,,2.0,1.2,1.7*38
$GPRMC,195154.000,A,3748.7964,N,12217.8580,W,0.67,156.07,091012,,,A*78
$GPVTG,156.07,T,,M,0.67,N,1.2,K,A*0A
$GPGGA,195155.000,3748.7961,N,12217.8577,W,1,07,1.2,10.5,M,-25.1,M,,0000*52
$GPGSA,A,3,12,10,02,04,29,05,25,,,,,,2.0,1.2,1.7*38
$GPRMC,195155.000,A,3748.7961,N,12217.8577,W,0.54,146.57,091012,,,A*70
$GPVTG,146.57,T,,M,0.54,N,1.0,K,A*0C
$GPGGA,195156.000,3748.7963,N,12217.8571,W,1,07,1.2,10.1,M,-25.1,M,,0000*51
$GPGSA,A,3,12,10,02,04,29,05,25,,,,,,2.0,1.2,1.7*38
$GPRMC,195156.000,A,3748.7963,N,12217.8571,W,0.29,66.31,091012,,,A*4E
$GPVTG,66.31,T,,M,0.29,N,0.5,K,A*31
$GPGGA,195157.000,3748.7962,N,12217.8562,W,1,07,1.2,11.0,M,-25.1,M,,0000*53
$GPGSA,A,3,12,10,02,04,29,05,25,,,,,,2.0,1.2,1.7*38
$GPGSV,3,1,11,12,78,329,28,02,77,069,33,25,38,314,26,04,30,047,35*74
$GPGSV,3,2,11,10,29,087,32,09,24,201,28,29,23,277,22,05,22,147,39*7F
$GPGSV,3,3,11,27,20,198,26,31,00,332,,48,44,197,26*4D
$GPVTG,356.77,T,,M,0.38,N,0.7,K,A*01
$GPGGA,195158.000,3748.7964,N,12217.8563,W,1,07,1.2,10.2,M,-25.1,M,,0000*58
$GPGSA,A,3,12,10,02,04,29,05,25,,,,,,2.0,1.2,1.7*38
$GPRMC,195158.000,A,3748.7964,N,12217.8563,W,1.00,238.24,091012,,,A*73
$GPVTG,238.24,T,,M,1.00,N,1.9,K,A*0B
$GPGGA,195159.000,3748.7965,N,12217.8570,W,1,07,1.2,9.0,M,-25.1,M,,0000*60
$GPGSA,A,3,12,10,02,04,29,05,25,,,,,,2.0,1.2,1.7*38
$GPRMC,195159.000,A,3748.7965,N,12217.8570,W,0.54,167.63,091012,,,A*7B
$GPVTG,167.63,T,,M,0.54,N,1.0,K,A*08
$GPGGA,195200.000,3748.7966,N,12217.8570,W,1,07,1.2,8.9,M,-25.1,M,,0000*64
$GPGSA,A,3,12,10,02,04,29,05,25,,,,,,2.0,1.2,1.7*38
$GPRMC,195200.000,A,3748.7966,N,12217.8570,W,1.31,50.23,091012,,,A*44
$GPVTG,50.23,T,,M,1.31,N,2.4,K,A*3C
$GPGGA,195201.000,3748.7964,N,12217.8570,W,1,07,1.2,8.7,M,-25.1,M,,0000*69
$GPGSA,A,3,12,10,02,04,29,05,25,,,,,,2.0,1.2,1.7*38
$GPRMC,195201.000,A,3748.7964,N,12217.8570,W,0.67,185.17,091012,,,A*7B
$GPVTG,185.17,T,,M,0.67,N,1.2,K,A*05
$GPGGA,195202.000,3748.7964,N,12217.8570,W,1,07,1.2,9.0,M,-25.1,M,,0000*6C
$GPGSA,A,3,12,10,02,04,29,05,25,,,,,,2.0,1.2,1.7*38
$GPGSV,3,1,11,12,78,329,25,02,77,069,25,25,38,314,25,04,30,047,34*7C
$GPGSV,3,2,11,10,29,087,42,09,24,201,39,29,23,277,28,05,22,147,41*7D
$GPGSV,3,3,11,27,20,198,40,31,00,332,,48,44,197,36*4C
$GPRMC,195202.000,A,3748.7964,N,12217.8570,W,0.42,309.77,091012,,,A*7F
$GPVTG,309.77,T,,M,0.42,N,0.8,K,A*09
$GPGGA,195203.000,3748.7966,N,12217.8565,W,2,07,1.2,9.5,M,-25.1,M,,0000*6D
$GPGSA,A,3,12,10,02,04,29,05,25,,,,,,2.0,1.2,1.7*38
$GPRMC,195203.000,A,3748.7966,N,12217.8565,W,0.22,23.07,091012,,,D*47
$GPVTG,23.07,T,,M,0.22,N,0.4,K,D*3A
$GPGGA,195204.000,3748.7967,N,12217.8564,W,2,08,1.0,9.5,M,-25.1,M,,0000*67
$GPGSA,A,3,12,10,02,04,29,05,25,09,,,,,1.9,1.0,1.7*39
$GPRMC,195204.000,A,3748.7967,N,12217.8564,W,0.79,247.53,091012,,,D*7F
$GPVTG,247.53,T,,M,0.79,N,1.5,K,D*05
$GPGGA,195205.000,3748.7968,N,12217.8566,W,2,06,1.1,8.6,M,-25.1,M,3.8,0000*43
$GPGSA,A,3,10,02,04,05,25,09,,,,,,,2.6,1.1,2.3*3B
$GPRMC,195205.000,A,3748.7968,N,12217.8566,W,0.65,306.05,091012,,,D*79
$GPVTG,306.05,T,,M,0.65,N,1.2,K,D*08
$GPGGA,195206.000,3748.7970,N,12217.8566,W,2,08,1.0,7.9,M,-25.1,M,4.8,0000*41
$GPGSA,A,3,12,10,02,04,29,05,25,09,,,,,1.9,1.0,1.7*39
$GPRMC,195206.000,A,3748.7970,N,12217.8566,W,0.34,326.21,091012,,,D*73
$GPVTG,326.21,T,,M,0.34,N,0.6,K,D*0D
$GPGGA,195207.000,3748.7970,N,12217.8565,W,2,08,1.0,6.9,M,-25.1,M,5.8,0000*43
$GPGSA,A,3,12,10,02,04,29,05,25,09,,,,,1.9,1.0,1.7*39
$GPGSV,3,1,11,12,78,329,13,02,77,069,23,25,38,314,22,04,30,047,32*7E
$GPGSV,3,2,11,10,29,087,31,09,24,202,29,29,23,277,22,05,22,147,23*75
$GPGSV,3,3,11,27,20,198,31,31,00,332,,48,44,197,26*4B
$GPRMC,195207.000,A,3748.7970,N,12217.8565,W,0.10,15.16,091012,,,D*40
$GPVTG,15.16,T,,M,0.10,N,0.2,K,D*38
$GPGGA,195208.000,3748.7971,N,12217.8565,W,2,08,1.0,6.6,M,-25.1,M,6.8,0000*41
$GPGSA,A,3,12,10,02,04,29,05,25,09,,,,,1.9,1.0,1.7*39
$GPRMC,195208.000,A,3748.7971,N,12217.8565,W,0.30,125.12,091012,,,D*7A
$GPVTG,125.12,T,,M,0.30,N,0.6,K,D*08
$GPGGA,195209.000,3748.7971,N,12217.8565,W,2,08,1.0,5.7,M,-25.1,M,7.8,0000*43
$GPGSA,A,3,12,10,02,04,29,05,25,09,,,,,1.9,1.0,1.7*39
$GPRMC,195209.000,A,3748.7971,N,12217.8565,W,0.56,135.73,091012,,,D*7D
$GPVTG,135.73,T,,M,0.56,N,1.0,K,D*09
$GPGGA,195210.000,3748.7973,N,12217.8569,W,2,08,1.0,5.3,M,-25.1,M,8.8,0000*4E
$GPGSA,A,3,12,10,02,04,29,05,25,09,,,,,1.9,1.0,1.7*39
$GPRMC,195210.000,A,3748.7973,N,12217.8569,W,0.21,31.60,091012,,,D*4C
$GPVTG,31.60,T,,M,0.21,N,0.4,K,D*3B
$GPGGA,195211.000,3748.7973,N,12217.8567,W,2,08,1.0,4.9,M,-25.1,M,9.8,0000*4B
$GPGSA,A,3,12,10,02,04,29,05,25,09,,,,,1.9,1.0,1.7*39
$GPRMC,195211.000,A,3748.7973,N,12217.8567,W,0.57,18.68,091012,,,D*41
$GPVTG,18.68,T,,M,0.57,N,1.0,K,D*3C
$GPGGA,195212.000,3748.7975,N,12217.8565,W,2,08,1.0,3.5,M,-25.1,M,10.8,0000*7F
$GPGSA,A,3,12,10,02,04,29,05,25,09,,,,,1.9,1.0,1.7*39
$GPGSV,3,1,11,12,78,329,23,02,77,069,27,25,38,314,30,04,30,047,38*70
$GPGSV,3,2,11,10,29,087,36,09,24,202,29,29,23,277,23,05,22,147,30*71
$GPGSV,3,3,11,27,20,198,28,31,00,332,,48,44,197,34*40
$GPRMC,195212.000,A,3748.7975,N,12217.8565,W,0.08,313.90,091012,,,D*73
$GPVTG,313.90,T,,M,0.08,N,0.2,K,D*0A
$GPGGA,195213.000,3748.7978,N,12217.8566,W,2,08,1.0,3.1,M,-25.1,M,11.8,0000*75
$GPGSA,A,3,12,10,02,04,29,05,25,09,,,,,1.9,1.0,1.7*39
$GPRMC,195213.000,A,3748.7978,N,12217.8566,W,0.20,343.40,091012,,,D*7E
$GPVTG,343.40,T,,M,0.20,N,0.4,K,D*0E
$GPGGA,195214.000,3748.7979,N,12217.8567,W,2,08,1.0,3.1,M,-25.1,M,12.8,0000*71
$GPGSA,A,3,12,10,02,04,29,05,25,09,,,,,1.9,1.0,1.7*39
$GPRMC,195214.000,A,3748.7979,N,12217.8567,W,0.28,308.45,091012,,,D*7B
$GPVTG,308.45,T,,M,0.28,N,0.5,K,D*0D
$GPGGA,195215.000,3748.7979,N,12217.8568,W,2,08,1.0,4.8,M,-25.1,M,13.8,0000*70
$GPGSA,A,3,12,10,02,04,29,05,25,09,,,,,1.9,1.0,1.7*39
$GPRMC,195215.000,A,3748.7979,N,12217.8568,W,0.08,239.65,091012,,,D*76
$GPVTG,239.65,T,,M,0.08,N,0.1,K,D*0A
$GPGGA,195216.000,3748.7981,N,12217.8568,W,2,08,1.0,4.5,M,-25.1,M,14.8,0000*7E
$GPGSA,A,3,12,10,02,04,29,05,25,09,,,,,1.9,1.0,1.7*39
$GPRMC,195216.000,A,3748.7981,N,12217.8568,W,0.19,254.10,091012,,,D*7B
$GPVTG,254.10,T,,M,0.19,N,0.4,K,D*06
$GPGGA,195217.000,3748.7982,N,12217.8568,W,2,08,1.0,4.3,M,-25.1,M,15.8,0000*7B
$GPGSA,A,3,12,10,02,04,29,05,25,09,,,,,1.9,1.0,1.7*39
$GPGSV,3,1,11,12,78,329,24,02,77,069,23,25,38,314,30,04,30,047,32*79
$GPGSV,3,2,11,10,29,087,32,09,24,202,33,29,23,277,39,05,22,147,21*75
$GPGSV,3,3,11,27,20,198,33,31,00,332,,48,44,197,30*4E
$GPRMC,195217.000,A,3748.7982,N,12217.8568,W,0.18,193.33,091012,,,D*71
$GPGGA,195218.000,3748.7982,N,12217.8565,W,2,08,1.0,4.5,M,-25.1,M,16.8,0000*7C
$GPGSA,A,3,12,10,02,04,29,05,25,09,,,,,1.9,1.0,1.7*39
$GPRMC,195218.000,A,3748.7982,N,12217.8565,W,0.16,40.95,091012,,,D*4E
$GPVTG,40.95,T,,M,0.16,N,0.3,K,D*34
$GPGGA,195219.000,3748.7983,N,12217.8565,W,2,08,1.0,4.8,M,-25.1,M,17.8,0000*70
$GPGSA,A,3,12,10,02,04,29,05,25,09,,,,,1.9,1.0,1.7*39
$GPRMC,195219.000,A,3748.7983,N,12217.8565,W,0.19,47.58,091012,,,D*47
$GPVTG,47.58,T,,M,0.19,N,0.4,K,D*3A
$GPGGA,195220.000,3748.7986,N,12217.8564,W,1,08,1.0,4.7,M,-25.1,M,,0000*62
$GPGSA,A,3,12,10,02,04,29,05,25,09,,,,,1.9,1.0,1.7*39
$GPRMC,195220.000,A,3748.7986,N,12217.8564,W,0.16,51.03,091012,,,A*4A
$GPVTG,51.03,T,,M,0.16,N,0.3,K,A*3E
$GPGGA,195221.000,3748.7988,N,12217.8563,W,1,08,1.0,4.4,M,-25.1,M,,0000*69
$GPGSA,A,3,12,10,02,04,29,05,25,09,,,,,1.9,1.0,1.7*39
$GPRMC,195221.000,A,3748.7988,N,12217.8563,W,0.13,7.45,091012,,,A*76
$GPVTG,7.45,T,,M,0.13,N,0.2,K,A*0B
$GPGGA,195222.000,3748.7989,N,12217.8562,W,1,08,1.0,6.1,M,-25.1,M,,0000*6D
$GPGSA,A,3,12,10,02,04,29,05,25,09,,,,,1.9,1.0,1.7*39
$GPGSV,3,1,11,12,78,329,26,02,77,069,29,25,38,314,29,04,30,047,32*79
$GPGSV,3,2,11,10,29,087,36,09,24,202,30,29,23,277,27,05,22,147,31*7C
$GPGSV,3,3,11,27,20,198,33,31,00,332,,48,44,197,32*4C
$GPRMC,195222.000,A,3748.7989,N,12217.8562,W,0.54,97.12,091012,,,A*4D
$GPVTG,97.12,T,,M,0.54,N,1.0,K,A*30
$GPGGA,195223.000,3748.7991,N,12217.8561,W,1,08,1.0,6.1,M,-25.1,M,,0000*66
$GPGSA,A,3,12,10,02,04,29,05,25,09,,,,,1.9,1.0,1.7*39
$GPRMC,195223.000,A,3748.7991,N,12217.8561,W,0.94,310.10,091012,,,A*74
$GPVTG,310.10,T,,M,0.94,N,1.7,K,A*05
$GPGGA,195224.000,3748.7993,N,12217.8560,W,1,08,1.0,5.7,M,-25.1,M,,0000*67
$GPGSA,A,3,12,10,02,04,29,05,25,09,,,,,1.9,1.0,1.7*39
$GPRMC,195224.000,A,3748.7993,N,12217.8560,W,0.40,108.71,091012,,,A*75
$GPVTG,108.71,T,,M,0.40,N,0.7,K,A*01
$GPGGA,195225.000,3748.7993,N,12217.8560,W,1,08,1.0,5.4,M,-25.1,M,,0000*65
$GPGSA,A,3,12,10,02,04,29,05,25,09,,,,,1.9,1.0,1.7*39
$GPRMC,195225.000,A,3748.7993,N,12217.8560,W,0.12,142.19,091012,,,A*73
$GPVTG,142.19,T,,M,0.12,N,0.2,K,A*03
$GPGGA,195226.000,3748.7993,N,12217.8560,W,1,08,1.0,5.1,M,-25.1,M,,0000*63
$GPGSA,A,3,12,10,02,04,29,05,25,09,,,,,1.9,1.0,1.7*39
$GPRMC,195226.000,A,3748.7993,N,12217.8560,W,0.13,110.83,091012,,,A*75
$GPVTG,110.83,T,,M,0.13,N,0.2,K,A*06
$GPGGA,195227.000,3748.7994,N,12217.8560,W,1,08,1.0,5.0,M,-25.1,M,,0000*64
$GPGSA,A,3,12,10,02,04,29,05,25,09,,,,,1.9,1.0,1.7*39
$GPGSV,3,1,11,12,78,329,28,02,77,069,24,25,38,314,34,04,30,047,27*72
$GPGSV,3,2,11,10,29,087,34,09,24,202,32,29,23,277,30,05,22,147,31*7A
$GPGSV,3,3,11,27,20,198,23,31,00,332,,48,44,197,27*49
$GPRMC,195227.000,A,3748.7994,N,12217.8560,W,0.15,42.69,091012,,,A*47
$GPVTG,42.69,T,,M,0.15,N,0.3,K,A*33
$GPGGA,195228.000,3748.7994,N,12217.8559,W,1,08,1.0,4.8,M,-25.1,M,,0000*68
$GPGSA,A,3,12,10,02,04,29,05,25,09,,,,,1.9,1.0,1.7*39
$GPRMC,195228.000,A,3748.7994,N,12217.8559,W,0.06,73.22,091012,,,A*4D
$GPVTG,73.22,T,,M,0.06,N,0.1,K,A*3E
$GPGGA,195229.000,3748.7995,N,12217.8558,W,1,08,1.0,4.4,M,-25.1,M,,0000*65
$GPGSA,A,3,12,10,02,04,29,05,25,09,,,,,1.9,1.0,1.7*39
$GPRMC,195229.000,A,3748.7995,N,12217.8558,W,0.13,27.78,091012,,,A*46
$GPVTG,27.78,T,,M,0.13,N,0.2,K,A*37
$GPGGA,195230.000,3748.7994,N,12217.8559,W,1,08,1.0,4.4,M,-25.1,M,,0000*6D
$GPGSA,A,3,12,10,02,04,29,05,25,09,,,,,1.9,1.0,1.7*39
$GPRMC,195230.000,A,3748.7994,N,12217.8559,W,0.12,356.99,091012,,,A*75
$GPVTG,356.99,T,,M,0.12,N,0.2,K,A*0C
$GPGGA,195231.000,3748.7993,N,12217.8559,W,1,08,1.0,4.5,M,-25.1,M,,0000*6A
$GPGSA,A,3,12,10,02,04,29,05,25,09,,,,,1.9,1.0,1.7*39
$GPRMC,195231.000,A,3748.7993,N,12217.8559,W,0.14,138.15,091012,,,A*7B
$GPVTG,138.15,T,,M,0.14,N,0.3,K,A*05
$GPGGA,195232.000,3748.7992,N,12217.8560,W,1,08,1.0,4.6,M,-25.1,M,,0000*61
$GPGSA,A,3,12,10,02,04,29,05,25,09,,,,,1.9,1.0,1.7*39
$GPGSV,3,1,11,12,78,329,32,02,77,069,28,25,38,314,34,04,30,047,35*76
$GPGSV,3,2,11,10,29,087,24,09,24,202,32,29,23,277,29,05,22,147,24*77
$GPGSV,3,3,11,27,20,198,29,31,00,332,,48,44,197,26*42
$GPVTG,40.17,T,,M,0.09,N,0.2,K,A*34
$GPGGA,195233.000,3748.7992,N,12217.8561,W,1,08,1.0,4.8,M,-25.1,M,,0000*6F
$GPGSA,A,3,12,10,02,04,29,05,25,09,,,,,1.9,1.0,1.7*39
$GPRMC,195233.000,A,3748.7992,N,12217.8561,W,0.11,17.60,091012,,,A*48
$GPVTG,17.60,T,,M,0.11,N,0.2,K,A*3F
$GPGGA,195234.000,3748.7992,N,12217.8563,W,1,08,1.0,4.9,M,-25.1,M,,0000*6B
$GPGSA,A,3,12,10,02,04,29,05,25,09,,,,,1.9,1.0,1.7*39
$GPRMC,195234.000,A,3748.7992,N,12217.8563,W,0.18,309.39,091012,,,A*74
$GPVTG,309.39,T,,M,0.18,N,0.3,K,A*07
$GPGGA,195235.000,3748.7992,N,12217.8564,W,1,08,1.0,4.9,M,-25.1,M,,0000*6D
$GPGSA,A,3,12,10,02,04,29,05,25,09,,,,,1.9,1.0,1.7*39
$GPRMC,195235.000,A,3748.7992,N,12217.8564,W,0.17,20.54,091012,,,A*4E
$GPVTG,20.54,T,,M,0.17,N,0.3,K,A*3B
$GPGGA,195236.000,3748.7992,N,12217.8564,W,1,08,1.0,5.1,M,-25.1,M,,0000*67
$GPGSA,A,3,12,10,02,04,29,05,25,09,,,,,1.9,1.0,1.7*39
$GPRMC,195236.000,A,3748.7992,N,12217.8564,W,0.10,356.80,091012,,,A*71
$GPVTG,356.80,T,,M,0.10,N,0.2,K,A*06
$GPGGA,195237.000,3748.7991,N,12217.8564,W,1,08,1.0,4.9,M,-25.1,M,,0000*6C
$GPGSA,A,3,12,10,02,04,29,05,25,09,,,,,1.9,1.0,1.7*39
$GPGSV,3,1,11,12,78,329,26,02,77,069,24,25,38,314,28,04,30,047,36*71
$GPGSV,3,2,11,10,29,087,38,09,24,202,32,29,23,277,31,05,22,147,37*71
$GPGSV,3,3,11,27,20,198,34,31,00,332,,48,44,197,27*4F
$GPRMC,195237.000,A,3748.7991,N,12217.8564,W,0.49,99.78,091012,,,A*48
$GPVTG,99.78,T,,M,0.49,N,0.9,K,A*36
$GPGGA,195238.000,3748.7990,N,12217.8561,W,1,08,1.0,5.2,M,-25.1,M,,0000*6D
$GPGSA,A,3,12,10,02,04,29,05,25,09,,,,,1.9,1.0,1.7*39
$GPRMC,195238.000,A,3748.7990,N,12217.8561,W,0.14,122.59,091012,,,A*79
$GPVTG,122.59,T,,M,0.14,N,0.3,K,A*06
$GPGGA,195239.000,3748.7989,N,12217.8560,W,1,08,1.0,5.1,M,-25.1,M,,0000*66
$GPGSA,A,3,12,10,02,04,29,05,25,09,,,,,1.9,1.0,1.7*39
$GPRMC,195239.000,A,3748.7989,N,12217.8560,W,0.28,88.74,091012,,,A*40
$GPVTG,88.74,T,,M,0.28,N,0.5,K,A*31
$GPGGA,195240.000,3748.7990,N,12217.8559,W,1,08,1.0,4.6,M,-25.1,M,,0000*6C
$GPGSA,A,3,12,10,02,04,29,05,25,09,,,,,1.9,1.0,1.7*39
$GPRMC,195240.000,A,3748.7990,N,12217.8559,W,0.46,16.12,091012,,,A*43
$GPVTG,16.12,T,,M,0.46,N,0.9,K,A*32
$GPGGA,195241.000,3748.7992,N,12217.8558,W,1,08,1.0,3.4,M,-25.1,M,,0000*6B
$GPGSA,A,3,12,10,02,04,29,05,25,09,,,,,1.9,1.0,1.7*39
$GPRMC,195241.000,A,3748.7992,N,12217.8558,W,0.67,353.46,091012,,,A*71
$GPVTG,353.46,T,,M,0.67,N,1.2,K,A*08
$GPGGA,195242.000,3748.7992,N,12217.8557,W,1,08,1.0,3.5,M,-25.1,M,,0000*66
$GPGSA,A,3,12,10,02,04,29,05,25,09,,,,,1.9,1.0,1.7*39
$GPGSV,3,1,11,12,78,329,34,02,77,069,38,25,38,314,33,04,30,047,33*70
$GPGSV,3,2,11,10,29,087,36,09,24,202,31,29,23,277,25,05,22,147,26*79
$GPGSV,3,3,11,27,20,198,28,31,00,332,,48,44,197,26*43
$GPRMC,195242.000,A,3748.7992,N,12217.8557,W,0.08,104.99,091012,,,A*76
$GPVTG,104.99,T,,M,0.08,N,0.2,K,A*02
$GPGGA,195243.000,3748.7992,N,12217.8554,W,1,08,1.0,3.3,M,-25.1,M,,0000*62
$GPGSA,A,3,12,10,02,04,29,05,25,09,,,,,1.9,1.0,1.7*39
$GPRMC,195243.000,A,3748.7992,N,12217.8554,W,0.31,35.84,091012,,,A*41
$GPVTG,35.84,T,,M,0.31,N,0.6,K,A*33
$GPGGA,195244.000,3748.7994,N,12217.8553,W,1,08,1.0,3.4,M,-25.1,M,,0000*63
$GPGSA,A,3,12,10,02,04,29,05,25,09,,,,,1.9,1.0,1.7*39
$GPRMC,195244.000,A,3748.7994,N,12217.8553,W,0.08,354.46,091012,,,A*77
$GPVTG,354.46,T,,M,0.08,N,0.1,K,A*04
$GPGGA,195245.000,3748.7994,N,12217.8551,W,1,08,1.0,3.1,M,-25.1,M,,0000*65
$GPGSA,A,3,12,10,02,04,29,05,25,09,,,,,1.9,1.0,1.7*39
$GPRMC,195245.000,A,3748.7994,N,12217.8551,W,0.20,79.12,091012,,,A*43
$GPVTG,79.12,T,,M,0.20,N,0.4,K,A*36
$GPGGA,195246.000,3748.7996,N,12217.8549,W,1,08,1.0,2.4,M,-25.1,M,,0000*69
$GPGSA,A,3,12,10,02,04,29,05,25,09,,,,,1.9,1.0,1.7*39
$GPRMC,195246.000,A,3748.7996,N,12217.8549,W,0.57,28.55,091012,,,A*4C
$GPVTG,28.55,T,,M,0.57,N,1.0,K,A*34
$GPGGA,195247.000,3748.7998,N,12217.8546,W,1,07,1.2,2.4,M,-25.1,M,,0000*64
$GPGSA,A,3,12,10,02,04,29,05,25,,,,,,2.0,1.2,1.7*38
$GPGSV,3,1,10,12,79,329,34,02,77,068,36,25,38,314,35,04,30,047,24*7F
$GPGSV,3,2,10,10,29,086,24,09,24,201,13,29,23,277,24,05,23,147,22*7D
$GPGSV,3,3,10,27,19,197,27,31,00,331,*7C
$GPVTG,72.24,T,,M,0.44,N,0.8,K,A*36
$GPGGA,195248.000,3748.7999,N,12217.8545,W,1,07,1.2,1.6,M,-25.1,M,,0000*68
$GPGSA,A,3,12,10,02,04,29,05,25,,,,,,2.0,1.2,1.7*38
$GPRMC,195248.000,A,3748.7999,N,12217.8545,W,0.43,17.84,091012,,,A*44
$GPVTG,17.84,T,,M,0.43,N,0.8,K,A*38
$GPGGA,195249.000,3748.8002,N,12217.8543,W,1,07,1.2,1.3,M,-25.1,M,,0000*6E
$GPGSA,A,3,12,10,02,04,29,05,25,,,,,,2.0,1.2,1.7*38
$GPRMC,195249.000,A,3748.8002,N,12217.8543,W,0.33,331.96,091012,,,A*74
$GPVTG,331.96,T,,M,0.33,N,0.6,K,A*05
$GPGGA,195250.000,3748.8001,N,12217.8544,W,1,08,1.0,1.7,M,-25.1,M,,0000*6B
$GPGSA,A,3,12,10,02,04,29,05,25,09,,,,,1.9,1.0,1.7*39
$GPRMC,195250.000,A,3748.8001,N,12217.8544,W,0.16,320.92,091012,,,A*7B
$GPVTG,320.92,T,,M,0.16,N,0.3,K,A*03
$GPGGA,195251.000,3748.8000,N,12217.8547,W,1,08,1.0,2.3,M,-25.1,M,,0000*6F
$GPGSA,A,3,12,10,02,04,29,05,25,09,,,,,1.9,1.0,1.7*39
$GPRMC,195251.000,A,3748.8000,N,12217.8547,W,0.22,338.54,091012,,,A*7C
$GPVTG,338.54,T,,M,0.22,N,0.4,K,A*00
$GPGGA,195252.000,3748.8000,N,12217.8550,W,1,08,1.0,2.4,M,-25.1,M,,0000*6D
$GPGSA,A,3,12,10,02,04,29,05,25,09,,,,,1.9,1.0,1.7*39
$GPGSV,3,1,11,12,79,329,28,02,77,068,27,25,38,314,36,04,30,047,39*7C
$GPGSV,3,2,11,10,29,086,33,09,24,201,29,29,23,277,35,05,23,147,26*77
$GPGSV,3,3,11,27,19,197,29,31,00,331,,48,44,197,28*4A
$GPRMC,195252.000,A,3748.8000,N,12217.8550,W,0.34,243.40,091012,,,A*76
$GPVTG,243.40,T,,M,0.34,N,0.6,K,A*0D
$GPGGA,195253.000,3748.7999,N,12217.8552,W,1,08,1.0,2.8,M,-25.1,M,,0000*64
$GPGSA,A,3,12,10,02,04,29,05,25,09,,,,,1.9,1.0,1.7*39
$GPRMC,195253.000,A,3748.7999,N,12217.8552,W,0.98,201.94,091012,,,A*7A
$GPVTG,201.94,T,,M,0.98,N,1.8,K,A*0B
$GPGGA,195254.000,3748.7999,N,12217.8552,W,1,08,1.0,2.7,M,-25.1,M,,0000*6C
$GPGSA,A,3,12,10,02,04,29,05,25,09,,,,,1.9,1.0,1.7*39
$GPRMC,195254.000,A,3748.7999,N,12217.8552,W,0.44,74.32,091012,,,A*40
$GPVTG,74.32,T,,M,0.44,N,0.8,K,A*37
$GPGGA,195255.000,3748.7997,N,12217.8548,W,1,08,1.0,2.6,M,-25.1,M,,0000*69
$GPGSA,A,3,12,10,02,04,29,05,25,09,,,,,1.9,1.0,1.7*39
$GPRMC,195255.000,A,3748.7997,N,12217.8548,W,2.80,96.07,091012,,,A*44
$GPVTG,96.07,T,,M,2.80,N,5.2,K,A*38
$GPGGA,195256.000,3748.7992,N,12217.8541,W,1,08,1.0,2.7,M,-25.1,M,,0000*67
$GPGSA,A,3,12,10,02,04,29,05,25,09,,,,,1.9,1.0,1.7*39
$GPRMC,195256.000,A,3748.7992,N,12217.8541,W,2.23,118.78,091012,,,A*7D
$GPVTG,118.78,T,,M,2.23,N,4.1,K,A*0C
$GPGGA,195257.000,3748.7988,N,12217.8534,W,1,08,1.0,2.7,M,-25.1,M,,0000*6F
$GPGSA,A,3,12,10,02,04,29,05,25,09,,,,,1.9,1.0,1.7*39
$GPGSV,3,1,11,12,79,329,27,02,77,068,28,25,38,314,24,04,30,047,29*7E
$GPGSV,3,2,11,10,29,086,37,09,24,201,34,29,23,277,29,05,23,147,36*73
$GPGSV,3,3,11,27,19,197,35,31,00,331,,48,44,197,34*4A
$GPRMC,195257.000,A,3748.7988,N,12217.8534,W,1.59,133.30,091012,,,A*7E
$GPVTG,133.30,T,,M,1.59,N,2.9,K,A*09
$GPGGA,195258.000,3748.7983,N,12217.8531,W,1,08,1.0,2.7,M,-25.1,M,,0000*6E
$GPGSA,A,3,12,10,02,04,29,05,25,09,,,,,1.9,1.0,1.7*39
$GPRMC,195258.000,A,3748.7983,N,12217.8531,W,1.70,128.11,091012,,,A*7D
$GPVTG,128.11,T,,M,1.70,N,3.1,K,A*02
$GPGGA,195259.000,3748.7979,N,12217.8526,W,1,08,1.0,2.4,M,-25.1,M,,0000*6F
$GPGSA,A,3,12,10,02,04,29,05,25,09,,,,,1.9,1.0,1.7*39
$GPRMC,195259.000,A,3748.7979,N,12217.8526,W,1.65,115.59,091012,,,A*79
$GPVTG,115.59,T,,M,1.65,N,3.1,K,A*04
$GPGGA,195300.000,3748.7974,N,12217.8522,W,1,08,1.0,2.4,M,-25.1,M,,0000*6B
$GPGSA,A,3,12,10,02,04,29,05,25,09,,,,,1.9,1.0,1.7*39
$GPRMC,195300.000,A,3748.7974,N,12217.8522,W,1.82,127.35,091012,,,A*7F
$GPVTG,127.35,T,,M,1.82,N,3.4,K,A*03
$GPGGA,195301.000,3748.7969,N,12217.8518,W,1,08,1.0,3.7,M,-25.1,M,,0000*6D
$GPGSA,A,3,12,10,02,04,29,05,25,09,,,,,1.9,1.0,1.7*39
$GPRMC,195301.000,A,3748.7969,N,12217.8518,W,1.69,132.29,091012,,,A*77
$GPVTG,132.29,T,,M,1.69,N,3.1,K,A*0A
$GPGGA,195302.000,3748.7964,N,12217.8514,W,1,08,1.0,3.6,M,-25.1,M,,0000*6E
$GPGSA,A,3,12,10,02,04,29,05,25,09,,,,,1.9,1.0,1.7*39
$GPGSV,3,1,11,12,79,329,31,02,77,068,32,25,38,314,21,04,30,047,30*7F
$GPGSV,3,2,11,10,29,086,31,09,24,201,39,29,23,277,28,05,23,147,40*78
$GPGSV,3,3,11,27,19,197,38,31,00,331,,48,44,197,41*45
$GPVTG,134.12,T,,M,1.94,N,3.6,K,A*01
$GPGGA,195303.000,3748.7960,N,12217.8508,W,1,08,1.0,3.2,M,-25.1,M,,0000*62
$GPGSA,A,3,12,10,02,04,29,05,25,09,,,,,1.9,1.0,1.7*39
$GPRMC,195303.000,A,3748.7960,N,12217.8508,W,2.15,119.30,091012,,,A*74
$GPVTG,119.30,T,,M,2.15,N,4.0,K,A*05
$GPGGA,195304.000,3748.7956,N,12217.8502,W,1,08,1.0,3.3,M,-25.1,M,,0000*6B
$GPGSA,A,3,12,10,02,04,29,05,25,09,,,,,1.9,1.0,1.7*39
$GPRMC,195304.000,A,3748.7956,N,12217.8502,W,2.24,120.89,091012,,,A*76
$GPVTG,120.89,T,,M,2.24,N,4.1,K,A*0E
$GPGGA,195305.000,3748.7952,N,12217.8496,W,1,08,1.0,3.3,M,-25.1,M,,0000*62
$GPGSA,A,3,12,10,02,04,29,05,25,09,,,,,1.9,1.0,1.7*39
$GPRMC,195305.000,A,3748.7952,N,12217.8496,W,1.98,121.75,091012,,,A*79
$GPVTG,121.75,T,,M,1.98,N,3.7,K,A*09
$GPGGA,195306.000,3748.7948,N,12217.8488,W,1,08,1.0,3.5,M,-25.1,M,,0000*63
$GPGSA,A,3,12,10,02,04,29,05,25,09,,,,,1.9,1.0,1.7*39
$GPRMC,195306.000,A,3748.7948,N,12217.8488,W,2.00,113.83,091012,,,A*74
$GPVTG,113.83,T,,M,2.00,N,3.7,K,A*03
$GPGGA,195307.000,3748.7945,N,12217.8480,W,1,08,1.0,3.1,M,-25.1,M,,0000*63
$GPGSA,A,3,12,10,02,04,29,05,25,09,,,,,1.9,1.0,1.7*39
$GPGSV,3,1,11,12,79,329,32,02,77,068,33,25,38,314,21,04,30,047,24*78
$GPGSV,3,2,11,10,29,086,36,09,24,201,40,29,23,277,29,05,23,147,33*74
$GPGSV,3,3,11,27,19,197,40,31,00,331,,51,43,156,33*4D
$GPRMC,195307.000,A,3748.7945,N,12217.8480,W,2.08,108.92,091012,,,A*72
$GPVTG,108.92,T,,M,2.08,N,3.9,K,A*0F
$GPGGA,195308.000,3748.7943,N,12217.8471,W,1,08,1.0,3.0,M,-25.1,M,,0000*65
$GPGSA,A,3,12,10,02,04,29,05,25,09,,,,,1.9,1.0,1.7*39
$GPRMC,195308.000,A,3748.7943,N,12217.8471,W,1.91,107.31,091012,,,A*70
$GPVTG,107.31,T,,M,1.91,N,3.5,K,A*06
$GPGGA,195309.000,3748.7941,N,12217.8466,W,1,08,1.0,2.9,M,-25.1,M,,0000*68
$GPGSA,A,3,12,10,02,04,29,05,25,09,,,,,1.9,1.0,1.7*39
$GPRMC,195309.000,A,3748.7941,N,12217.8466,W,0.89,108.00,091012,,,A*70
$GPVTG,108.00,T,,M,0.89,N,1.6,K,A*02
$GPGGA,195310.000,3748.7938,N,12217.8460,W,1,08,1.0,3.1,M,-25.1,M,,0000*61
$GPGSA,A,3,12,10,02,04,29,05,25,09,,,,,1.9,1.0,1.7*39
$GPRMC,195310.000,A,3748.7938,N,12217.8460,W,1.87,109.83,091012,,,A*75
$GPVTG,109.83,T,,M,1.87,N,3.5,K,A*06
$GPGGA,195311.000,3748.7936,N,12217.8454,W,1,08,1.0,3.1,M,-25.1,M,,0000*69
$GPGSA,A,3,12,10,02,04,29,05,25,09,,,,,1.9,1.0,1.7*39
$GPRMC,195311.000,A,3748.7936,N,12217.8454,W,1.39,118.42,091012,,,A*75
$GPVTG,118.42,T,,M,1.39,N,2.6,K,A*0C
$GPGGA,195312.000,3748.7933,N,12217.8449,W,1,08,1.0,3.1,M,-25.1,M,,0000*63
$GPGSA,A,3,12,10,02,04,29,05,25,09,,,,,1.9,1.0,1.7*39
$GPGSV,3,1,11,12,79,329,25,02,77,068,28,25,38,314,22,04,30,047,23*70
$GPGSV,3,2,11,10,29,086,30,09,24,201,36,29,23,277,29,05,23,147,36*76
$GPGSV,3,3,11,27,19,197,38,31,00,331,,51,43,156,37*46
$GPRMC,195312.000,A,3748.7933,N,12217.8449,W,1.71,114.11,091012,,,A*79
$GPVTG,114.11,T,,M,1.71,N,3.2,K,A*0F
$GPGGA,195313.000,3748.7929,N,12217.8442,W,1,08,1.0,3.3,M,-25.1,M,,0000*60
$GPGSA,A,3,12,10,02,04,29,05,25,09,,,,,1.9,1.0,1.7*39
$GPRMC,195313.000,A,3748.7929,N,12217.8442,W,1.69,124.34,091012,,,A*75
$GPVTG,124.34,T,,M,1.69,N,3.1,K,A*01
$GPGGA,195314.000,3748.7925,N,12217.8435,W,1,08,1.0,3.3,M,-25.1,M,,0000*6B
$GPGSA,A,3,12,10,02,04,29,05,25,09,,,,,1.9,1.0,1.7*39
$GPRMC,195314.000,A,3748.7925,N,12217.8435,W,2.00,130.55,091012,,,A*70
$GPVTG,130.55,T,,M,2.00,N,3.7,K,A*09
$GPGGA,195315.000,3748.7920,N,12217.8428,W,1,08,1.0,3.2,M,-25.1,M,,0000*62
$GPGSA,A,3,12,10,02,04,29,05,25,09,,,,,1.9,1.0,1.7*39
$GPRMC,195315.000,A,3748.7920,N,12217.8428,W,2.28,119.88,091012,,,A*79
$GPVTG,119.88,T,,M,2.28,N,4.2,K,A*0A
$GPGGA,195316.000,3748.7916,N,12217.8419,W,1,08,1.0,3.2,M,-25.1,M,,0000*66
$GPGSA,A,3,12,10,02,04,29,05,25,09,,,,,1.9,1.0,1.7*39
$GPRMC,195316.000,A,3748.7916,N,12217.8419,W,2.28,115.71,091012,,,A*77
$GPVTG,115.71,T,,M,2.28,N,4.2,K,A*00
$GPGGA,195317.000,3748.7912,N,12217.8411,W,1,08,1.0,3.2,M,-25.1,M,,0000*6B
$GPGSA,A,3,12,10,02,04,29,05,25,09,,,,,1.9,1.0,1.7*39
$GPGSV,3,1,11,12,79,329,27,02,76,067,29,25,38,314,22,04,30,047,24*7A
$GPGSV,3,2,11,10,29,086,31,09,24,201,37,29,23,277,29,05,23,147,37*77
$GPGSV,3,3,11,27,19,197,39,31,00,331,,51,43,156,38*48
$GPRMC,195317.000,A,3748.7912,N,12217.8411,W,2.41,120.02,091012,,,A*77
$GPVTG,120.02,T,,M,2.41,N,4.5,K,A*0A
$GPGGA,195318.000,3748.7907,N,12217.8402,W,1,08,1.0,3.3,M,-25.1,M,,0000*63
$GPGSA,A,3,12,10,02,04,29,05,25,09,,,,,1.9,1.0,1.7*39
$GPRMC,195318.000,A,3748.7907,N,12217.8402,W,2.53,110.90,091012,,,A*75
$GPVTG,110.90,T,,M,2.53,N,4.7,K,A*03
$GPGGA,195319.000,3748.7903,N,12217.8393,W,1,08,1.0,3.5,M,-25.1,M,,0000*6F
$GPGSA,A,3,12,10,02,04,29,05,25,09,,,,,1.9,1.0,1.7*39
$GPRMC,195319.000,A,3748.7903,N,12217.8393,W,1.93,106.24,091012,,,A*78
$GPVTG,106.24,T,,M,1.93,N,3.6,K,A*02
$GPGGA,195320.000,3748.7900,N,12217.8385,W,1,08,1.0,3.3,M,-25.1,M,,0000*67
$GPGSA,A,3,12,10,02,04,29,05,25,09,,,,,1.9,1.0,1.7*39
$GPRMC,195320.000,A,3748.7900,N,12217.8385,W,1.70,106.41,091012,,,A*78
$GPVTG,106.41,T,,M,1.70,N,3.1,K,A*0B
$GPGGA,195321.000,3748.7897,N,12217.8378,W,1,08,1.0,3.3,M,-25.1,M,,0000*6B
$GPGSA,A,3,12,10,02,04,29,05,25,09,,,,,1.9,1.0,1.7*39
$GPRMC,195321.000,A,3748.7897,N,12217.8378,W,1.61,124.91,091012,,,A*79
$GPVTG,124.91,T,,M,1.61,N,3.0,K,A*07
$GPGGA,195322.000,3748.7893,N,12217.8371,W,1,08,1.0,3.3,M,-25.1,M,,0000*65
$GPGSA,A,3,12,10,02,04,29,05,25,09,,,,,1.9,1.0,1.7*39
$GPGSV,3,1,11,12,79,329,28,02,76,067,30,25,38,314,22,04,30,047,28*71
$GPGSV,3,2,11,10,29,086,31,09,24,201,36,29,23,277,29,05,23,147,38*79
$GPGSV,3,3,11,27,19,197,35,31,00,331,,51,43,156,37*4B
$GPRMC,195322.000,A,3748.7893,N,12217.8371,W,1.77,122.44,091012,,,A*7E
$GPGGA,195323.000,3748.7889,N,12217.8363,W,1,08,1.0,3.4,M,-25.1,M,,0000*6B
$GPGSA,A,3,12,10,02,04,29,05,25,09,,,,,1.9,1.0,1.7*39
$GPRMC,195323.000,A,3748.7889,N,12217.8363,W,1.80,119.47,091012,,,A*74
$GPVTG,119.47,T,,M,1.80,N,3.3,K,A*0E
$GPGGA,195324.000,3748.7885,N,12217.8356,W,1,08,1.0,3.6,M,-25.1,M,,0000*64
$GPGSA,A,3,12,10,02,04,29,05,25,09,,,,,1.9,1.0,1.7*39
$GPRMC,195324.000,A,3748.7885,N,12217.8356,W,2.30,116.90,091012,,,A*74
$GPVTG,116.90,T,,M,2.30,N,4.3,K,A*04
$GPGGA,195325.000,3748.7881,N,12217.8349,W,1,08,1.0,3.7,M,-25.1,M,,0000*6E
$GPGSA,A,3,12,10,02,04,29,05,25,09,,,,,1.9,1.0,1.7*39
$GPRMC,195325.000,A,3748.7881,N,12217.8349,W,2.38,115.32,091012,,,A*7C
$GPVTG,115.32,T,,M,2.38,N,4.4,K,A*00
$GPGGA,195326.000,3748.7877,N,12217.8341,W,1,08,1.0,3.9,M,-25.1,M,,0000*62
$GPGSA,A,3,12,10,02,04,29,05,25,09,,,,,1.9,1.0,1.7*39
$GPRMC,195326.000,A,3748.7877,N,12217.8341,W,2.35,119.01,091012,,,A*7F
$GPVTG,119.01,T,,M,2.35,N,4.3,K,A*06
$GPGGA,195327.000,3748.7872,N,12217.8334,W,2,08,1.0,4.3,M,-25.1,M,,0000*6A
$GPGSA,A,3,12,10,02,04,29,05,25,09,,,,,1.9,1.0,1.7*39
$GPGSV,3,1,11,12,79,329,28,02,76,067,30,25,38,314,22,04,30,047,22*7B
$GPGSV,3,2,11,10,29,086,31,09,24,201,36,29,23,277,29,05,23,147,37*76
$GPGSV,3,3,11,27,19,197,36,31,00,331,,51,43,156,36*49
$GPRMC,195327.000,A,3748.7872,N,12217.8334,W,2.38,118.23,091012,,,D*70
$GPVTG,118.23,T,,M,2.38,N,4.4,K,D*08
$GPGGA,195328.000,3748.7868,N,12217.8326,W,2,08,1.0,4.6,M,-25.1,M,2.8,0000*4C
$GPGSA,A,3,12,10,02,04,29,05,25,09,,,,,1.9,1.0,1.7*39
$GPRMC,195328.000,A,3748.7868,N,12217.8326,W,2.40,111.81,091012,,,D*79
$GPVTG,111.81,T,,M,2.40,N,4.5,K,D*07
$GPGGA,195329.000,3748.7864,N,12217.8318,W,2,08,1.0,5.1,M,-25.1,M,3.8,0000*4B
$GPGSA,A,3,12,10,02,04,29,05,25,09,,,,,1.9,1.0,1.7*39
$GPRMC,195329.000,A,3748.7864,N,12217.8318,W,2.28,120.45,091012,,,D*7D
$GPVTG,120.45,T,,M,2.28,N,4.2,K,D*04
$GPGGA,195330.000,3748.7860,N,12217.8311,W,2,08,1.0,5.4,M,-25.1,M,,0000*6E
$GPGSA,A,3,12,10,02,04,29,05,25,09,,,,,1.9,1.0,1.7*39
$GPRMC,195330.000,A,3748.7860,N,12217.8311,W,1.87,116.86,091012,,,D*74
$GPVTG,116.86,T,,M,1.87,N,3.5,K,D*08
$GPGGA,195331.000,3748.7857,N,12217.8306,W,2,08,1.0,5.9,M,-25.1,M,,0000*60
$GPGSA,A,3,12,10,02,04,29,05,25,09,,,,,1.9,1.0,1.7*39
$GPRMC,195331.000,A,3748.7857,N,12217.8306,W,1.57,112.15,091012,,,D*74
$GPVTG,112.15,T,,M,1.57,N,2.9,K,D*06
$GPGGA,195332.000,3748.7853,N,12217.8296,W,2,08,1.0,6.0,M,-25.1,M,,0000*65
$GPGSA,A,3,12,10,02,04,29,05,25,09,,,,,1.9,1.0,1.7*39
$GPGSV,3,1,11,12,79,329,28,02,76,067,30,25,38,314,22,04,30,047,25*7C
$GPGSV,3,2,11,10,29,086,34,09,24,201,37,29,23,277,25,05,23,147,33*7A
$GPGSV,3,3,11,27,19,197,36,31,00,331,,51,43,156,35*4A
$GPRMC,195332.000,A,3748.7853,N,12217.8296,W,2.06,110.64,091012,,,D*78
$GPVTG,110.64,T,,M,2.06,N,3.8,K,D*05
$GPGGA,195333.000,3748.7850,N,12217.8288,W,2,08,1.0,5.9,M,-25.1,M,2.8,0000*46
$GPGSA,A,3,12,10,02,04,29,05,25,09,,,,,1.9,1.0,1.7*39
$GPRMC,195333.000,A,3748.7850,N,12217.8288,W,2.20,111.25,091012,,,D*75
$GPVTG,111.25,T,,M,2.20,N,4.1,K,D*0B
$GPGGA,195334.000,3748.7846,N,12217.8279,W,2,08,1.0,6.1,M,-25.1,M,3.8,0000*42
$GPGSA,A,3,12,10,02,04,29,05,25,09,,,,,1.9,1.0,1.7*39
$GPRMC,195334.000,A,3748.7846,N,12217.8279,W,2.17,120.96,091012,,,D*75
$GPVTG,120.96,T,,M,2.17,N,4.0,K,D*04
$GPGGA,195335.000,3748.7841,N,12217.8270,W,2,08,1.0,6.0,M,-25.1,M,4.8,0000*4B
$GPGSA,A,3,12,10,02,04,29,05,25,09,,,,,1.9,1.0,1.7*39
$GPRMC,195335.000,A,3748.7841,N,12217.8270,W,2.16,119.05,091012,,,D*7B
$GPVTG,119.05,T,,M,2.16,N,4.0,K,D*05
$GPGGA,195336.000,3748.7836,N,12217.8261,W,2,08,1.0,6.0,M,-25.1,M,5.8,0000*49
$GPGSA,A,3,12,10,02,04,29,05,25,09,,,,,1.9,1.0,1.7*39
$GPRMC,195336.000,A,3748.7836,N,12217.8261,W,2.20,128.87,091012,,,D*75
$GPVTG,128.87,T,,M,2.20,N,4.1,K,D*09
$GPGGA,195337.000,3748.7824,N,12217.8257,W,2,08,1.0,8.0,M,-25.1,M,,0000*63
$GPGSA,A,3,12,10,02,04,29,05,25,09,,,,,1.9,1.0,1.7*39
$GPGSV,3,1,11,12,79,329,28,02,76,067,30,25,38,314,22,04,30,047,25*7C
$GPGSV,3,2,11,10,29,086,22,09,24,201,37,29,23,277,26,05,23,147,40*7A
$GPGSV,3,3,11,27,19,197,36,31,00,331,,51,43,156,37*48
$GPVTG,131.92,T,,M,2.19,N,4.1,K,D*0F
$GPGGA,195338.000,3748.7818,N,12217.8251,W,2,08,1.0,8.2,M,-25.1,M,,0000*67
$GPGSA,A,3,12,10,02,04,29,05,25,09,,,,,1.9,1.0,1.7*39
$GPRMC,195338.000,A,3748.7818,N,12217.8251,W,2.45,131.32,091012,,,D*71
$GPVTG,131.32,T,,M,2.45,N,4.5,K,D*08
$GPGGA,195339.000,3748.7811,N,12217.8246,W,2,08,1.0,8.7,M,-25.1,M,,0000*6C
$GPGSA,A,3,12,10,02,04,29,05,25,09,,,,,1.9,1.0,1.7*39
$GPRMC,195339.000,A,3748.7811,N,12217.8246,W,2.55,127.76,091012,,,D*79
$GPVTG,127.76,T,,M,2.55,N,4.7,K,D*0C
$GPGGA,195340.000,3748.7806,N,12217.8239,W,2,08,1.0,8.7,M,-25.1,M,,0000*6C
$GPGSA,A,3,12,10,02,04,29,05,25,09,,,,,1.9,1.0,1.7*39
$GPRMC,195340.000,A,3748.7806,N,12217.8239,W,2.31,129.90,091012,,,D*7D
$GPVTG,129.90,T,,M,2.31,N,4.3,K,D*0C
$GPGGA,195341.000,3748.7802,N,12217.8230,W,2,08,1.0,8.0,M,-25.1,M,,0000*67
$GPGSA,A,3,12,10,02,04,29,05,25,09,,,,,1.9,1.0,1.7*39
$GPRMC,195341.000,A,3748.7802,N,12217.8230,W,2.37,119.88,091012,,,D*7D
$GPVTG,119.88,T,,M,2.37,N,4.4,K,D*07
$GPGGA,195342.000,3748.7800,N,12217.8223,W,2,08,1.0,7.5,M,-25.1,M,2.8,0000*4A
$GPGSA,A,3,12,10,02,04,29,05,25,09,,,,,1.9,1.0,1.7*39
$GPGSV,3,1,11,12,79,329,28,02,76,067,30,25,38,314,22,04,30,047,24*7D
$GPGSV,3,2,11,10,29,086,28,09,24,201,39,29,23,277,32,05,23,147,37*7B
$GPGSV,3,3,11,27,19,197,37,31,00,331,,51,43,156,36*48
$GPRMC,195342.000,A,3748.7800,N,12217.8223,W,2.41,116.90,091012,,,D*79
$GPVTG,116.90,T,,M,2.41,N,4.5,K,D*01
$GPGGA,195343.000,3748.7796,N,12217.8215,W,2,08,1.0,7.3,M,-25.1,M,,0000*6C
$GPGSA,A,3,12,10,02,04,29,05,25,09,,,,,1.9,1.0,1.7*39
$GPRMC,195343.000,A,3748.7796,N,12217.8215,W,1.93,120.43,091012,,,D*7A
$GPVTG,120.43,T,,M,1.93,N,3.6,K,D*02
$GPGGA,195344.000,3748.7793,N,12217.8205,W,2,08,1.0,7.0,M,-25.1,M,2.8,0000*48
$GPGSA,A,3,12,10,02,04,29,05,25,09,,,,,1.9,1.0,1.7*39
$GPRMC,195344.000,A,3748.7793,N,12217.8205,W,2.22,111.43,091012,,,D*72
$GPVTG,111.43,T,,M,2.22,N,4.1,K,D*09
$GPGGA,195345.000,3748.7790,N,12217.8197,W,2,08,1.0,6.7,M,-25.1,M,,0000*60
$GPGSA,A,3,12,10,02,04,29,05,25,09,,,,,1.9,1.0,1.7*39
$GPRMC,195345.000,A,3748.7790,N,12217.8197,W,2.32,115.74,091012,,,D*79
$GPVTG,115.74,T,,M,2.32,N,4.3,K,D*0A
$GPGGA,195346.000,3748.7785,N,12217.8188,W,2,08,1.0,6.8,M,-25.1,M,2.8,0000*42
$GPGSA,A,3,12,10,02,04,29,05,25,09,,,,,1.9,1.0,1.7*39
$GPRMC,195346.000,A,3748.7785,N,12217.8188,W,2.67,118.30,091012,,,D*7D
$GPVTG,118.30,T,,M,2.67,N,4.9,K,D*0D
$GPGGA,195347.000,3748.7782,N,12217.8179,W,2,08,1.0,6.6,M,-25.1,M,3.8,0000*45
$GPGSA,A,3,12,10,02,04,29,05,25,09,,,,,1.9,1.0,1.7*39
$GPGSV,3,1,11,12,79,329,29,02,76,066,30,25,39,314,19,04,29,047,25*7D
$GPGSV,3,2,11,10,29,086,32,09,23,201,39,29,23,277,31,05,23,146,37*75
$GPGSV,3,3,11,27,19,197,37,31,00,331,,51,43,156,38*46
$GPRMC,195347.000,A,3748.7782,N,12217.8179,W,2.62,112.61,091012,,,D*7E
$GPVTG,112.61,T,,M,2.62,N,4.9,K,D*06
$GPGGA,195348.000,3748.7778,N,12217.8170,W,2,08,1.0,6.7,M,-25.1,M,4.8,0000*40
$GPGSA,A,3,12,10,02,04,29,05,25,09,,,,,1.9,1.0,1.7*39
$GPRMC,195348.000,A,3748.7778,N,12217.8170,W,2.58,114.11,091012,,,D*75
$GPVTG,114.11,T,,M,2.58,N,4.8,K,D*0F
$GPGGA,195349.000,3748.7774,N,12217.8162,W,2,08,1.0,7.0,M,-25.1,M,,0000*6A
$GPGSA,A,3,12,10,02,04,29,05,25,09,,,,,1.9,1.0,1.7*39
$GPRMC,195349.000,A,3748.7774,N,12217.8162,W,2.60,114.81,091012,,,D*79
$GPVTG,114.81,T,,M,2.60,N,4.8,K,D*0D
$GPGGA,195350.000,3748.7771,N,12217.8154,W,2,08,1.0,6.6,M,-25.1,M,,0000*65
$GPGSA,A,3,12,10,02,04,29,05,25,09,,,,,1.9,1.0,1.7*39
$GPRMC,195350.000,A,3748.7771,N,12217.8154,W,2.29,119.05,091012,,,D*7D
$GPVTG,119.05,T,,M,2.29,N,4.2,K,D*0B
$GPGGA,195351.000,3748.7768,N,12217.8146,W,2,08,1.0,6.2,M,-25.1,M,,0000*6B
$GPGSA,A,3,12,10,02,04,29,05,25,09,,,,,1.9,1.0,1.7*39
$GPRMC,195351.000,A,3748.7768,N,12217.8146,W,2.33,117.62,091012,,,D*73
$GPVTG,117.62,T,,M,2.33,N,4.3,K,D*0E
$GPGGA,195352.000,3748.7765,N,12217.8139,W,2,08,1.0,5.9,M,-25.1,M,2.8,0000*41
$GPGSA,A,3,12,10,02,04,29,05,25,09,,,,,1.9,1.0,1.7*39
$GPGSV,3,1,11,12,79,329,29,02,76,066,31,25,39,314,21,04,29,047,25*77
$GPGSV,3,2,11,10,29,086,29,09,23,201,39,29,23,277,32,05,23,146,38*73
$GPGSV,3,3,11,27,19,197,38,31,00,331,,51,43,156,37*46
$GPRMC,195352.000,A,3748.7765,N,12217.8139,W,2.40,111.97,091012,,,D*7D
$GPVTG,111.97,T,,M,2.40,N,4.4,K,D*01
$GPGGA,195353.000,3748.7762,N,12217.8131,W,2,08,1.0,6.0,M,-25.1,M,3.8,0000*44
$GPGSA,A,3,12,10,02,04,29,05,25,09,,,,,1.9,1.0,1.7*39
$GPRMC,195353.000,A,3748.7762,N,12217.8131,W,2.38,114.37,091012,,,D*73
$GPVTG,114.37,T,,M,2.38,N,4.4,K,D*01
$GPGGA,195354.000,3748.7759,N,12217.8122,W,2,08,1.0,5.5,M,-25.1,M,4.8,0000*48
$GPGSA,A,3,12,10,02,04,29,05,25,09,,,,,1.9,1.0,1.7*39
$GPRMC,195354.000,A,3748.7759,N,12217.8122,W,2.59,112.82,091012,,,D*71
$GPVTG,112.82,T,,M,2.59,N,4.8,K,D*02
$GPGGA,195355.000,3748.7756,N,12217.8114,W,2,08,1.0,5.5,M,-25.1,M,,0000*61
$GPGSA,A,3,12,10,02,04,29,05,25,09,,,,,1.9,1.0,1.7*39
$GPRMC,195355.000,A,3748.7756,N,12217.8114,W,2.43,114.40,091012,,,D*79
$GPVTG,114.40,T,,M,2.43,N,4.5,K,D*0C
$GPGGA,195356.000,3748.7752,N,12217.8105,W,2,08,1.0,5.9,M,-25.1,M,,0000*6A
$GPGSA,A,3,12,10,02,04,29,05,25,09,,,,,1.9,1.0,1.7*39
$GPRMC,195356.000,A,3748.7752,N,12217.8105,W,2.31,113.43,091012,,,D*7F
$GPVTG,113.43,T,,M,2.31,N,4.3,K,D*0B
$GPGGA,195357.000,3748.7748,N,12217.8098,W,2,08,1.0,6.2,M,-25.1,M,,0000*6D
$GPGSA,A,3,12,10,02,04,29,05,25,09,,,,,1.9,1.0,1.7*39
$GPGSV,3,1,11,12,79,329,29,02,76,066,31,25,39,314,21,04,29,047,23*71
$GPGSV,3,2,11,10,29,086,29,09,23,201,38,29,23,277,31,05,23,146,39*70
$GPGSV,3,3,11,27,19,197,39,31,00,331,,51,43,156,37*47
$GPRMC,195357.000,A,3748.7748,N,12217.8098,W,2.14,119.95,091012,,,D*76
$GPGGA,195358.000,3748.7744,N,12217.8091,W,2,08,1.0,6.2,M,-25.1,M,2.8,0000*43
$GPGSA,A,3,12,10,02,04,29,05,25,09,,,,,1.9,1.0,1.7*39
$GPRMC,195358.000,A,3748.7744,N,12217.8091,W,2.44,120.13,091012,,,D*7D
$GPVTG,120.13,T,,M,2.44,N,4.5,K,D*0A
$GPGGA,195359.000,3748.7740,N,12217.8085,W,2,08,1.0,6.1,M,-25.1,M,3.8,0000*41
$GPGSA,A,3,12,10,02,04,29,05,25,09,,,,,1.9,1.0,1.7*39
$GPRMC,195359.000,A,3748.7740,N,12217.8085,W,2.24,124.68,091012,,,D*73
$GPVTG,124.68,T,,M,2.24,N,4.2,K,D*03
$GPGGA,195400.000,3748.7729,N,12217.8082,W,2,07,1.1,8.8,M,-25.1,M,4.8,0000*4C
$GPGSA,A,3,12,02,04,29,05,25,09,,,,,,2.0,1.1,1.7*33
$GPRMC,195400.000,A,3748.7729,N,12217.8082,W,2.20,128.15,091012,,,D*72
$GPVTG,128.15,T,,M,2.20,N,4.1,K,D*02
$GPGGA,195401.000,3748.7722,N,12217.8077,W,2,08,1.0,10.2,M,-25.1,M,,0000*53
$GPGSA,A,3,12,10,02,04,29,05,25,09,,,,,1.9,1.0,1.7*39
$GPRMC,195401.000,A,3748.7722,N,12217.8077,W,2.51,126.73,091012,,,D*7A
$GPVTG,126.73,T,,M,2.51,N,4.7,K,D*0C
$GPGGA,195402.000,3748.7717,N,12217.8070,W,2,08,1.0,10.4,M,-25.1,M,,0000*57
$GPGSA,A,3,12,10,02,04,29,05,25,09,,,,,1.9,1.0,1.7*39
$GPGSV,3,1,11,12,79,329,29,02,76,066,31,25,39,314,21,04,29,047,23*71
$GPGSV,3,2,11,10,29,086,24,09,23,201,38,29,23,277,32,05,23,146,39*7E
$GPGSV,3,3,11,27,19,197,39,31,00,331,,51,43,156,35*45
$GPRMC,195402.000,A,3748.7717,N,12217.8070,W,2.58,118.10,091012,,,D*79
$GPVTG,118.10,T,,M,2.58,N,4.8,K,D*02
$GPGGA,195403.000,3748.7715,N,12217.8061,W,2,08,1.0,10.1,M,-25.1,M,,0000*51
$GPGSA,A,3,12,10,02,04,29,05,25,09,,,,,1.9,1.0,1.7*39
$GPRMC,195403.000,A,3748.7715,N,12217.8061,W,2.38,118.03,091012,,,D*7E
$GPVTG,118.03,T,,M,2.38,N,4.4,K,D*0A
$GPGGA,195404.000,3748.7712,N,12217.8051,W,2,08,1.0,10.2,M,-25.1,M,,0000*51
$GPGSA,A,3,12,10,02,04,29,05,25,09,,,,,1.9,1.0,1.7*39
$GPRMC,195404.000,A,3748.7712,N,12217.8051,W,2.14,110.12,091012,,,D*7B
$GPVTG,110.12,T,,M,2.14,N,4.0,K,D*08
$GPGGA,195405.000,3748.7710,N,12217.8044,W,2,08,1.0,10.0,M,-25.1,M,2.8,0000*70
$GPGSA,A,3,12,10,02,04,29,05,25,09,,,,,1.9,1.0,1.7*39
$GPRMC,195405.000,A,3748.7710,N,12217.8044,W,2.31,120.39,091012,,,D*71
$GPVTG,120.39,T,,M,2.31,N,4.3,K,D*06
$GPGGA,195406.000,3748.7707,N,12217.8037,W,2,08,1.0,9.6,M,-25.1,M,1.8,0000*4C
$GPGSA,A,3,12,10,02,04,29,05,25,09,,,,,1.9,1.0,1.7*39
$GPRMC,195406.000,A,3748.7707,N,12217.8037,W,1.87,128.47,091012,,,D*7F
$GPVTG,128.47,T,,M,1.87,N,3.5,K,D*08
$GPGGA,195407.000,3748.7703,N,12217.8028,W,2,08,1.0,9.5,M,-25.1,M,1.8,0000*44
$GPGSA,A,3,12,10,02,04,29,05,25,09,,,,,1.9,1.0,1.7*39
$GPGSV,3,1,11,12,79,329,29,02,76,066,31,25,39,314,21,04,29,047,22*70
$GPGSV,3,2,11,10,29,086,33,09,23,201,38,29,23,277,29,05,23,146,39*72
$GPGSV,3,3,11,27,19,197,32,31,00,331,,51,43,156,37*4C
$GPRMC,195407.000,A,3748.7703,N,12217.8028,W,2.59,121.44,091012,,,D*7E
$GPVTG,121.44,T,,M,2.59,N,4.8,K,D*08
$GPGGA,195408.000,3748.7699,N,12217.8020,W,2,08,1.0,9.4,M,-25.1,M,1.8,0000*40
$GPGSA,A,3,12,10,02,04,29,05,25,09,,,,,1.9,1.0,1.7*39
$GPRMC,195408.000,A,3748.7699,N,12217.8020,W,2.50,125.56,091012,,,D*75
$GPVTG,125.56,T,,M,2.50,N,4.6,K,D*08
$GPGGA,195409.000,3748.7696,N,12217.8012,W,2,08,1.0,9.1,M,-25.1,M,1.8,0000*4A
$GPGSA,A,3,12,10,02,04,29,05,25,09,,,,,1.9,1.0,1.7*39
$GPRMC,195409.000,A,3748.7696,N,12217.8012,W,2.47,123.23,091012,,,D*78
$GPVTG,123.23,T,,M,2.47,N,4.6,K,D*0A
$GPGGA,195410.000,3748.7694,N,12217.8006,W,2,08,1.0,8.4,M,-25.1,M,2.8,0000*42
