$ADVER,3080,2.3
$GPRMC,211133.107,A,3748.7992,N,12217.8601,W,0.29,67.72,091211,,,A*49
$GPGGA,211134.111,3748.7994,N,12217.8602,W,1,03,2.8,-5.9,M,-25.1,M,,0000*48
$GPGSA,A,2,26,15,21,,,,,,,,,,2.9,2.8,1.0*30
$GPRMC,211134.111,A,3748.7994,N,12217.8602,W,0.17,357.89,091211,,,A*75
$GPVTG,357.89,T,,M,0.17,N,0.3,K,N*07
$GPGGA,211135.111,3748.7994,N,12217.8603,W,1,03,2.8,-5.9,M,-25.1,M,,0000*48
$GPGSA,A,2,26,15,21,,,,,,,,,,2.9,2.8,1.0*30
$GPGSV,3,1,10,21,66,332,38,15,38,097,39,26,23,056,40,18,66,221,29*7A
$GPGSV,3,2,10,29,52,138,25,16,24,302,30,22,22,225,31,06,20,313,36*7C
$GPGSV,3,3,10,03,07,316,34,05,05,046,38*76
$GPRMC,211135.111,A,3748.7994,N,12217.8603,W,0.22,19.49,091211,,,A*46
$GPVTG,19.49,T,,M,0.22,N,0.4,K,N*33
$GPGGA,211136.111,3748.7994,N,12217.8603,W,1,03,2.8,-5.9,M,-25.1,M,,0000*4B
$GPGSA,A,2,26,15,21,,,,,,,,,,2.9,2.8,1.0*30
$GPRMC,211136.111,A,3748.7994,N,12217.8603,W,0.13,39.75,091211,,,A*4A
$GPVTG,39.75,T,,M,0.13,N,0.2,K,N*3A
$GPGGA,211137.107,3748.7994,N,12217.8603,W,1,03,2.8,-5.9,M,-25.1,M,,0000*4D
$GPGSA,A,2,26,15,21,,,,,,,,,,2.9,2.8,1.0*30
$GPRMC,211137.107,A,3748.7994,N,12217.8603,W,0.10,86.48,091211,,,A*45
$GPVTG,86.48,T,,M,0.10,N,0.2,K,N*33
$GPGGA,211138.111,3748.7994,N,12217.8603,W,1,03,2.8,-5.9,M,-25.1,M,,0000*45
$GPGSA,A,2,26,15,21,,,,,,,,,,2.9,2.8,1.0*30
$GPRMC,211138.111,A,3748.7994,N,12217.8603,W,0.23,58.63,091211,,,A*47
$GPVTG,58.63,T,,M,0.23,N,0.4,K,N*3F
$GPGGA,211139.111,3748.7994,N,12217.8602,W,1,03,2.8,-5.9,M,-25.1,M,,0000*45
$GPGSA,A,2,26,15,21,,,,,,,,,,2.9,2.8,1.0*30
$GPRMC,211139.111,A,3748.7994,N,12217.8602,W,0.21,60.71,091211,,,A*4D
$GPVTG,60.71,T,,M,0.21,N,0.4,K,N*35
$GPGGA,211140.111,3748.7994,N,12217.8602,W,1,03,2.8,-5.9,M,-25.1,M,,0000*4B
$GPGSA,A,2,26,15,21,,,,,,,,,,2.9,2.8,1.0*30
$GPGSV,3,1,10,21,66,332,38,15,38,097,39,26,23,056,41,18,66,221,34*77
$GPGSV,3,2,10,29,52,138,28,16,24,302,31,22,22,225,31,06,20,313,38*7E
$GPGSV,3,3,10,03,07,316,35,05,05,046,37*78
$GPRMC,211140.111,A,3748.7994,N,12217.8602,W,0.18,51.07,091211,,,A*4A
$GPVTG,51.07,T,,M,0.18,N,0.3,K,N*3B
$GPGGA,211141.107,3748.7994,N,12217.8603,W,1,03,2.8,-5.9,M,-25.1,M,,0000*4C
$GPGSA,A,2,26,15,21,,,,,,,,,,2.9,2.8,1.0*30
$GPRMC,211141.107,A,3748.7994,N,12217.8603,W,0.09,60.70,091211,,,A*4F
$GPVTG,60.70,T,,M,0.09,N,0.2,K,N*38
$GPGGA,211142.111,3748.7993,N,12217.8603,W,1,03,2.8,-5.9,M,-25.1,M,,0000*4F
$GPGSA,A,2,26,15,21,,,,,,,,,,2.9,2.8,1.0*30
$GPRMC,211142.111,A,3748.7993,N,12217.8603,W,0.18,38.49,091211,,,A*4B
$GPVTG,38.49,T,,M,0.18,N,0.3,K,N*3E
$GPGGA,211143.111,3748.7993,N,12217.8603,W,1,03,2.8,-5.9,M,-25.1,M,,0000*4E
$GPGSA,A,2,26,15,21,,,,,,,,,,2.9,2.8,1.0*30
$GPRMC,211143.111,A,3748.7993,N,12217.8603,W,0.20,64.76,091211,,,A*44
$GPVTG,64.76,T,,M,0.20,N,0.4,K,N*37
$GPGGA,211144.111,3748.7993,N,12217.8603,W,1,03,2.8,-5.9,M,-25.1,M,,0000*49
$GPGSA,A,2,26,15,21,,,,,,,,,,2.9,2.8,1.0*30
$GPRMC,211144.111,A,3748.7993,N,12217.8603,W,0.20,64.76,091211,,,A*43
$GPVTG,64.76,T,,M,0.20,N,0.4,K,N*37
$GPGGA,211145.111,3748.7993,N,12217.8603,W,1,03,2.8,-5.9,M,-25.1,M,,0000*48
$GPGSA,A,2,26,15,21,,,,,,,,,,2.9,2.8,1.0*30
$GPGSV,3,1,11,21,66,332,38,15,38,097,39,26,23,056,41,18,66,221,29*7A
$GPGSV,3,2,11,29,52,138,34,16,24,302,32,22,22,225,26,06,20,313,37*78
$GPGSV,3,3,11,03,07,316,35,05,05,046,35,46,00,000,29*42
$GPRMC,211145.111,A,3748.7993,N,12217.8603,W,0.14,40.07,091211,,,A*45
$GPGGA,211146.111,3748.7993,N,12217.8603,W,1,03,2.8,-5.9,M,-25.1,M,,0000*4B
$GPGSA,A,2,26,15,21,,,,,,,,,,2.9,2.8,1.0*30
$GPRMC,211146.111,A,3748.7993,N,12217.8603,W,0.10,73.23,091211,,,A*44
$GPVTG,73.23,T,,M,0.10,N,0.2,K,N*34
$GPGGA,211147.111,3748.7993,N,12217.8604,W,1,03,2.8,-5.9,M,-25.1,M,,0000*4D
$GPGSA,A,2,26,15,21,,,,,,,,,,2.9,2.8,1.0*30
$GPRMC,211147.111,A,3748.7993,N,12217.8604,W,0.10,57.28,091211,,,A*4F
$GPVTG,57.28,T,,M,0.10,N,0.2,K,N*39
$GPGGA,211148.111,3748.7992,N,12217.8604,W,1,03,2.8,-5.9,M,-25.1,M,,0000*43
$GPGSA,A,2,26,15,21,,,,,,,,,,2.9,2.8,1.0*30
$GPRMC,211148.111,A,3748.7992,N,12217.8604,W,0.17,42.84,091211,,,A*44
$GPVTG,42.84,T,,M,0.17,N,0.3,K,N*3D
$GPGGA,211149.107,3748.7992,N,12217.8604,W,1,03,2.8,-5.9,M,-25.1,M,,0000*45
$GPGSA,A,2,26,15,21,,,,,,,,,,2.9,2.8,1.0*30
$GPRMC,211149.107,A,3748.7992,N,12217.8604,W,0.09,62.37,091211,,,A*47
$GPVTG,62.37,T,,M,0.09,N,0.2,K,N*39
$GPGGA,211150.111,3748.7992,N,12217.8604,W,1,03,2.8,-5.9,M,-25.1,M,,0000*4A
$GPGSA,A,2,26,15,21,,,,,,,,,,2.9,2.8,1.0*30
$GPGSV,3,1,11,21,66,332,38,15,38,097,41,26,23,056,41,18,66,222,29*76
$GPGSV,3,2,11,29,52,138,35,16,24,302,33,22,22,225,27,06,20,313,36*78
$GPGSV,3,3,11,03,08,316,34,05,05,046,36,46,37,144,29*4A
$GPRMC,211150.111,A,3748.7992,N,12217.8604,W,0.26,40.37,091211,,,A*45
$GPVTG,40.37,T,,M,0.26,N,0.5,K,N*33
$GPGGA,211151.111,3748.7987,N,12217.8613,W,1,04,3.1,-8.6,M,-25.1,M,,0000*44
$GPGSA,A,3,26,15,21,06,,,,,,,,,4.1,3.1,2.8*3A
$GPRMC,211151.111,A,3748.7987,N,12217.8613,W,0.14,85.64,091211,,,A*48
$GPVTG,85.64,T,,M,0.14,N,0.3,K,A*34
$GPGGA,211152.111,3748.7987,N,12217.8614,W,1,04,3.1,-8.7,M,-25.1,M,,0000*41
$GPGSA,A,3,26,15,21,06,,,,,,,,,4.1,3.1,2.8*3A
$GPRMC,211152.111,A,3748.7987,N,12217.8614,W,0.18,55.74,091211,,,A*4C
$GPVTG,55.74,T,,M,0.18,N,0.3,K,A*34
$GPGGA,211153.107,3748.7987,N,12217.8614,W,1,04,3.1,-8.7,M,-25.1,M,,0000*47
$GPGSA,A,3,26,15,21,06,,,,,,,,,4.1,3.1,2.8*3A
$GPRMC,211153.107,A,3748.7987,N,12217.8614,W,0.07,254.95,091211,,,A*78
$GPVTG,254.95,T,,M,0.07,N,0.1,K,A*04
$GPGGA,211154.000,3748.7987,N,12217.8613,W,1,04,3.1,-8.7,M,-25.1,M,,0000*41
$GPGSA,A,3,26,15,21,06,,,,,,,,,4.1,3.1,2.8*3A
$GPRMC,211154.000,A,3748.7987,N,12217.8613,W,0.45,83.60,091211,,,A*4A
$GPVTG,83.60,T,,M,0.45,N,0.8,K,A*39
$GPGGA,211155.000,3748.7987,N,12217.8612,W,1,04,3.1,-8.7,M,-25.1,M,,0000*41
$GPGSA,A,3,26,15,21,06,,,,,,,,,4.1,3.1,2.8*3A
$GPGSV,3,1,11,21,66,332,38,15,38,097,41,26,23,056,40,06,20,313,36*77
$GPGSV,3,2,11,18,66,222,30,29,52,138,35,16,24,302,33,22,22,225,24*73
$GPGSV,3,3,11,03,08,316,34,05,05,046,36,46,37,144,26*45
$GPRMC,211155.000,A,3748.7987,N,12217.8612,W,0.34,90.20,091211,,,A*4A
$GPVTG,90.20,T,,M,0.34,N,0.6,K,A*37
$GPGGA,211156.000,3748.7987,N,12217.8612,W,1,04,3.1,-8.7,M,-25.1,M,,0000*42
$GPGSA,A,3,26,15,21,06,,,,,,,,,4.1,3.1,2.8*3A
$GPRMC,211156.000,A,3748.7987,N,12217.8612,W,0.20,53.76,091211,,,A*40
$GPVTG,53.76,T,,M,0.20,N,0.4,K,A*3C
$GPGGA,211157.000,3748.7987,N,12217.8612,W,1,04,3.1,-8.7,M,-25.1,M,,0000*43
$GPGSA,A,3,26,15,21,06,,,,,,,,,4.1,3.1,2.8*3A
$GPRMC,211157.000,A,3748.7987,N,12217.8612,W,0.16,51.69,091211,,,A*48
$GPVTG,51.69,T,,M,0.16,N,0.3,K,A*32
$GPGGA,211158.000,3748.7987,N,12217.8611,W,1,04,3.1,-8.7,M,-25.1,M,,0000*4F
$GPGSA,A,3,26,15,21,06,,,,,,,,,4.1,3.1,2.8*3A
$GPRMC,211158.000,A,3748.7987,N,12217.8611,W,0.20,46.57,091211,,,A*4A
$GPVTG,46.57,T,,M,0.20,N,0.4,K,A*3B
$GPGGA,211159.000,3748.7988,N,12217.8611,W,1,04,3.1,-8.7,M,-25.1,M,,0000*41
$GPGSA,A,3,26,15,21,06,,,,,,,,,4.1,3.1,2.8*3A
$GPRMC,211159.000,A,3748.7988,N,12217.8611,W,0.20,56.39,091211,,,A*4D
$GPVTG,56.39,T,,M,0.20,N,0.4,K,A*32
$GPGGA,211200.000,3748.7987,N,12217.8611,W,1,04,3.1,-8.7,M,-25.1,M,,0000*41
$GPGSA,A,3,26,15,21,06,,,,,,,,,4.1,3.1,2.8*3A
$GPGSV,3,1,10,21,66,332,38,15,38,097,41,26,23,056,38,06,20,313,35*7A
$GPGSV,3,2,10,18,66,222,31,29,52,138,34,16,24,302,32,22,22,225,25*72
$GPGSV,3,3,10,03,08,316,28,05,05,046,36*7A
$GPRMC,211200.000,A,3748.7987,N,12217.8611,W,0.08,101.68,091211,,,A*70
$GPVTG,101.68,T,,M,0.08,N,0.2,K,A*09
$GPGGA,211201.000,3748.7988,N,12217.8611,W,1,04,3.1,-8.7,M,-25.1,M,,0000*4F
$GPGSA,A,3,26,15,21,06,,,,,,,,,4.1,3.1,2.8*3A
$GPRMC,211201.000,A,3748.7988,N,12217.8611,W,0.19,32.23,091211,,,A*40
$GPVTG,32.23,T,,M,0.19,N,0.3,K,A*36
$GPGGA,211202.000,3748.7988,N,12217.8612,W,1,04,3.1,-8.7,M,-25.1,M,,0000*4F
$GPGSA,A,3,26,15,21,06,,,,,,,,,4.1,3.1,2.8*3A
$GPRMC,211202.000,A,3748.7988,N,12217.8612,W,0.28,294.63,091211,,,A*78
$GPVTG,294.63,T,,M,0.28,N,0.5,K,A*08
$GPGGA,211203.000,3748.7989,N,12217.8613,W,1,06,2.0,-8.7,M,-25.1,M,,0000*4C
$GPGSA,A,3,16,26,15,21,06,18,,,,,,,3.2,2.0,2.5*3D
$GPRMC,211203.000,A,3748.7989,N,12217.8613,W,0.45,280.68,091211,,,A*7C
$GPVTG,280.68,T,,M,0.45,N,0.8,K,A*00
$GPGGA,211204.000,3748.7990,N,12217.8613,W,1,06,2.0,-8.7,M,-25.1,M,,0000*43
$GPGSA,A,3,16,26,15,21,06,18,,,,,,,3.2,2.0,2.5*3D
$GPRMC,211204.000,A,3748.7990,N,12217.8613,W,0.28,92.50,091211,,,A*42
$GPVTG,92.50,T,,M,0.28,N,0.5,K,A*3C
$GPGGA,211205.000,3748.7990,N,12217.8612,W,1,06,2.0,-8.7,M,-25.1,M,,0000*43
$GPGSA,A,3,16,26,15,21,06,18,,,,,,,3.2,2.0,2.5*3D
$GPGSV,3,1,10,21,67,332,38,18,66,222,34,29,52,138,18,15,38,096,35*74
$GPGSV,3,2,10,16,24,302,35,26,23,056,39,22,22,225,37,06,20,313,35*71
$GPGSV,3,3,10,03,08,316,35,05,05,046,36*76
$GPRMC,211205.000,A,3748.7990,N,12217.8612,W,0.09,89.37,091211,,,A*4A
$GPVTG,89.37,T,,M,0.09,N,0.2,K,A*33
$GPGGA,211206.000,3748.7990,N,12217.8612,W,1,06,2.0,-8.7,M,-25.1,M,,0000*40
$GPGSA,A,3,16,26,15,21,06,18,,,,,,,3.2,2.0,2.5*3D
$GPRMC,211206.000,A,3748.7990,N,12217.8612,W,0.09,234.89,091211,,,A*78
$GPVTG,234.89,T,,M,0.09,N,0.2,K,A*02
$GPGGA,211207.000,3748.7990,N,12217.8612,W,1,06,2.0,-8.8,M,-25.1,M,,0000*4E
$GPGSA,A,3,16,26,15,21,06,18,,,,,,,3.2,2.0,2.5*3D
$GPRMC,211207.000,A,3748.7990,N,12217.8612,W,0.10,129.89,091211,,,A*7E
$GPVTG,129.89,T,,M,0.10,N,0.2,K,A*05
$GPGGA,211208.000,3748.7990,N,12217.8612,W,1,06,2.0,-8.8,M,-25.1,M,,0000*41
$GPGSA,A,3,16,26,15,21,06,18,,,,,,,3.2,2.0,2.5*3D
$GPRMC,211208.000,A,3748.7990,N,12217.8612,W,0.15,109.28,091211,,,A*7D
$GPVTG,109.28,T,,M,0.15,N,0.3,K,A*08
$GPGGA,211209.000,3748.7990,N,12217.8612,W,1,06,2.0,-8.8,M,-25.1,M,,0000*40
$GPGSA,A,3,16,26,15,21,06,18,,,,,,,3.2,2.0,2.5*3D
$GPRMC,211209.000,A,3748.7990,N,12217.8612,W,0.10,135.34,091211,,,A*7B
$GPVTG,135.34,T,,M,0.10,N,0.2,K,A*0E
$GPGGA,211210.000,3748.7990,N,12217.8611,W,1,06,2.0,-8.8,M,-25.1,M,,0000*4B
$GPGSA,A,3,16,26,15,21,06,18,,,,,,,3.2,2.0,2.5*3D
$GPGSV,3,1,10,21,67,332,38,18,66,222,39,29,52,138,25,15,38,096,26*75
$GPGSV,3,2,10,16,24,302,35,26,23,056,27,22,22,225,37,06,20,313,31*7A
$GPGSV,3,3,10,03,08,316,34,05,05,046,28*78
$GPRMC,211210.000,A,3748.7990,N,12217.8611,W,0.13,85.29,091211,,,A*45
$GPVTG,85.29,T,,M,0.13,N,0.2,K,A*3B
$GPGGA,211211.000,3748.7990,N,12217.8611,W,1,06,2.0,-8.6,M,-25.1,M,,0000*44
$GPGSA,A,3,16,26,15,21,06,18,,,,,,,3.2,2.0,2.5*3D
$GPRMC,211211.000,A,3748.7990,N,12217.8611,W,0.11,132.91,091211,,,A*78
$GPVTG,132.91,T,,M,0.11,N,0.2,K,A*07
$GPGGA,211212.000,3748.7984,N,12217.8618,W,1,06,2.0,-8.3,M,-25.1,M,,0000*4E
$GPGSA,A,3,16,26,15,21,06,18,,,,,,,3.2,2.0,2.5*3D
$GPRMC,211212.000,A,3748.7984,N,12217.8618,W,0.85,241.55,091211,,,A*75
$GPVTG,241.55,T,,M,0.85,N,1.6,K,A*00
$GPGGA,211213.000,3748.7978,N,12217.8630,W,1,06,2.0,-7.8,M,-25.1,M,,0000*42
$GPGSA,A,3,16,26,15,21,06,18,,,,,,,3.2,2.0,2.5*3D
$GPRMC,211213.000,A,3748.7978,N,12217.8630,W,1.42,284.49,091211,,,A*73
$GPVTG,284.49,T,,M,1.42,N,2.6,K,A*0D
$GPGGA,211214.000,3748.7982,N,12217.8625,W,1,06,2.0,-7.9,M,-25.1,M,,0000*45
$GPGSA,A,3,16,26,15,21,06,18,,,,,,,3.2,2.0,2.5*3D
$GPRMC,211214.000,A,3748.7982,N,12217.8625,W,1.69,46.51,091211,,,A*49
$GPVTG,46.51,T,,M,1.69,N,3.1,K,A*37
$GPGGA,211215.000,3748.7985,N,12217.8623,W,1,06,2.0,-7.8,M,-25.1,M,,0000*44
$GPGSA,A,3,16,26,15,21,06,18,,,,,,,3.2,2.0,2.5*3D
$GPGSV,3,1,10,21,67,332,37,18,66,222,38,29,52,138,36,15,38,096,28*77
$GPGSV,3,2,10,16,24,302,31,26,23,056,25,22,22,225,37,06,20,313,31*7C
$GPGSV,3,3,10,03,08,316,27,05,05,046,27*75
$GPRMC,211215.000,A,3748.7985,N,12217.8623,W,0.37,45.07,091211,,,A*43
$GPVTG,45.07,T,,M,0.37,N,0.7,K,A*38
$GPGGA,211216.000,3748.7985,N,12217.8618,W,1,06,2.0,-8.3,M,-25.1,M,,0000*4B
$GPGSA,A,3,16,26,15,21,06,18,,,,,,,3.2,2.0,2.5*3D
$GPRMC,211216.000,A,3748.7985,N,12217.8618,W,0.03,180.97,091211,,,A*7E
$GPVTG,180.97,T,,M,0.03,N,0.1,K,A*08
$GPGGA,211217.000,3748.7986,N,12217.8613,W,1,05,2.3,-8.8,M,-25.1,M,,0000*49
$GPGSA,A,3,16,15,21,06,18,,,,,,,,3.4,2.3,2.5*3C
$GPRMC,211217.000,A,3748.7986,N,12217.8613,W,0.10,118.41,091211,,,A*7F
$GPVTG,118.41,T,,M,0.10,N,0.2,K,A*03
$GPGGA,211218.000,3748.7987,N,12217.8609,W,1,05,2.3,-9.2,M,-25.1,M,,0000*47
$GPGSA,A,3,16,15,21,06,18,,,,,,,,3.4,2.3,2.5*3C
$GPRMC,211218.000,A,3748.7987,N,12217.8609,W,0.11,116.39,091211,,,A*7A
$GPVTG,116.39,T,,M,0.11,N,0.2,K,A*03
$GPGGA,211219.000,3748.7988,N,12217.8605,W,1,06,2.0,-9.4,M,-25.1,M,,0000*43
$GPGSA,A,3,16,26,15,21,06,18,,,,,,,3.2,2.0,2.5*3D
$GPRMC,211219.000,A,3748.7988,N,12217.8605,W,0.27,198.46,091211,,,A*73
$GPVTG,198.46,T,,M,0.27,N,0.5,K,A*0F
$GPGGA,211220.000,3748.7988,N,12217.8603,W,1,06,2.0,-9.5,M,-25.1,M,,0000*4E
$GPGSA,A,3,16,26,15,21,06,18,,,,,,,3.2,2.0,2.5*3D
$GPGSV,3,1,11,21,67,332,37,18,66,222,39,29,52,138,35,15,38,096,31*7C
$GPGSV,3,2,11,16,24,302,32,22,23,225,37,26,23,056,27,06,20,313,32*7E
$GPGSV,3,3,11,03,08,316,30,05,05,046,24,46,37,144,31*44
$GPRMC,211220.000,A,3748.7988,N,12217.8603,W,0.22,208.77,091211,,,A*72
$GPVTG,208.77,T,,M,0.22,N,0.4,K,A*03
$GPGGA,211221.000,3748.7989,N,12217.8601,W,1,06,2.0,-9.7,M,-25.1,M,,0000*4E
$GPGSA,A,3,16,26,15,21,06,18,,,,,,,3.2,2.0,2.5*3D
$GPRMC,211221.000,A,3748.7989,N,12217.8601,W,0.08,107.86,091211,,,A*7A
$GPVTG,107.86,T,,M,0.08,N,0.1,K,A*0C
$GPGGA,211222.000,3748.7990,N,12217.8598,W,1,06,2.0,-9.8,M,-25.1,M,,0000*49
$GPGSA,A,3,16,26,15,21,06,18,,,,,,,3.2,2.0,2.5*3D
$GPRMC,211222.000,A,3748.7990,N,12217.8598,W,0.25,101.80,091211,,,A*7D
$GPVTG,101.80,T,,M,0.25,N,0.5,K,A*07
$GPGGA,211223.000,3748.7990,N,12217.8596,W,1,06,2.0,-9.9,M,-25.1,M,,0000*47
$GPGSA,A,3,16,26,15,21,06,18,,,,,,,3.2,2.0,2.5*3D
$GPRMC,211223.000,A,3748.7990,N,12217.8596,W,0.57,140.48,091211,,,A*76
$GPVTG,140.48,T,,M,0.57,N,1.0,K,A*07
$GPGGA,211224.000,3748.7990,N,12217.8594,W,1,06,2.0,-10.0,M,-25.1,M,,0000*73
$GPGSA,A,3,16,26,15,21,06,18,,,,,,,3.2,2.0,2.5*3D
$GPRMC,211224.000,A,3748.7990,N,12217.8594,W,0.17,79.02,091211,,,A*42
$GPVTG,79.02,T,,M,0.17,N,0.3,K,A*34
$GPGGA,211225.000,3748.7991,N,12217.8592,W,1,06,2.0,-10.0,M,-25.1,M,,0000*75
$GPGSA,A,3,16,26,15,21,06,18,,,,,,,3.2,2.0,2.5*3D
$GPGSV,3,1,11,21,67,332,37,18,66,222,40,29,52,138,31,15,38,096,37*70
$GPGSV,3,2,11,16,24,302,24,22,23,225,38,26,23,056,21,06,20,313,32*70
$GPGSV,3,3,11,03,08,316,31,05,05,046,23,46,37,144,30*43
$GPRMC,211225.000,A,3748.7991,N,12217.8592,W,0.23,71.89,091211,,,A*48
$GPVTG,71.89,T,,M,0.23,N,0.4,K,A*3F
$GPGGA,211226.000,3748.7992,N,12217.8591,W,1,06,2.0,-9.9,M,-25.1,M,,0000*47
$GPGSA,A,3,16,26,15,21,06,18,,,,,,,3.2,2.0,2.5*3D
$GPRMC,211226.000,A,3748.7992,N,12217.8591,W,0.16,162.73,091211,,,A*7B
$GPVTG,162.73,T,,M,0.16,N,0.3,K,A*08
$GPGGA,211227.000,3748.7993,N,12217.8591,W,1,06,2.0,-10.0,M,-25.1,M,,0000*76
$GPGSA,A,3,16,26,15,21,06,18,,,,,,,3.2,2.0,2.5*3D
$GPRMC,211227.000,A,3748.7993,N,12217.8591,W,0.74,351.07,091211,,,A*7E
$GPVTG,351.07,T,,M,0.74,N,1.4,K,A*0B
$GPGGA,211228.000,3748.7998,N,12217.8592,W,1,06,2.0,-9.2,M,-25.1,M,,0000*4B
$GPGSA,A,3,16,26,15,21,06,18,,,,,,,3.2,2.0,2.5*3D
$GPRMC,211228.000,A,3748.7998,N,12217.8592,W,0.86,21.55,091211,,,A*47
$GPVTG,21.55,T,,M,0.86,N,1.6,K,A*37
$GPGGA,211229.000,3748.8003,N,12217.8591,W,1,06,2.0,-8.7,M,-25.1,M,,0000*49
$GPGSA,A,3,16,26,15,21,06,18,,,,,,,3.2,2.0,2.5*3D
$GPRMC,211229.000,A,3748.8003,N,12217.8591,W,1.02,20.13,091211,,,A*4F
$GPVTG,20.13,T,,M,1.02,N,1.9,K,A*36
$GPGGA,211230.000,3748.8011,N,12217.8593,W,1,06,2.0,-7.9,M,-25.1,M,,0000*41
$GPGSA,A,3,16,26,15,21,06,18,,,,,,,3.2,2.0,2.5*3D
$GPGSV,3,1,10,21,67,332,27,18,66,222,27,29,52,138,22,15,38,096,29*7C
$GPGSV,3,2,10,16,24,302,37,22,23,225,31,26,23,056,33,06,20,313,33*78
$GPGSV,3,3,10,03,08,316,36,05,05,046,33*70
$GPRMC,211230.000,A,3748.8011,N,12217.8593,W,0.69,6.32,091211,,,A*7D
$GPGGA,211231.000,3748.8014,N,12217.8592,W,1,05,2.1,-6.9,M,-25.1,M,,0000*47
$GPGSA,A,3,26,15,21,06,18,,,,,,,,3.4,2.1,2.7*3F
$GPRMC,211231.000,A,3748.8014,N,12217.8592,W,0.34,120.98,091211,,,A*75
$GPVTG,120.98,T,,M,0.34,N,0.6,K,A*0E
$GPGGA,211232.000,3748.8013,N,12217.8598,W,1,06,2.0,-5.6,M,-25.1,M,,0000*47
$GPGSA,A,3,16,26,15,21,06,18,,,,,,,3.2,2.0,2.5*3D
$GPRMC,211232.000,A,3748.8013,N,12217.8598,W,0.08,250.51,091211,,,A*75
$GPVTG,250.51,T,,M,0.08,N,0.2,K,A*04
$GPGGA,211233.000,3748.8013,N,12217.8604,W,1,06,2.0,-4.2,M,-25.1,M,,0000*45
$GPGSA,A,3,16,26,15,21,06,18,,,,,,,3.2,2.0,2.5*3D
$GPRMC,211233.000,A,3748.8013,N,12217.8604,W,0.55,307.35,091211,,,A*7B
$GPVTG,307.35,T,,M,0.55,N,1.0,K,A*0E
$GPGGA,211234.000,3748.8008,N,12217.8608,W,1,06,2.0,-5.0,M,-25.1,M,,0000*47
$GPGSA,A,3,16,26,15,21,06,18,,,,,,,3.2,2.0,2.5*3D
$GPRMC,211234.000,A,3748.8008,N,12217.8608,W,0.54,35.68,091211,,,A*41
$GPVTG,35.68,T,,M,0.54,N,1.0,K,A*35
$GPGGA,211235.000,3748.8004,N,12217.8612,W,1,06,2.0,-3.9,M,-25.1,M,,0000*4E
$GPGSA,A,3,16,26,15,21,06,18,,,,,,,3.2,2.0,2.5*3D
$GPGSV,3,1,10,21,67,332,31,18,66,222,27,29,52,138,22,15,38,096,26*74
$GPGSV,3,2,10,16,24,302,32,22,23,225,40,26,23,056,28,06,20,313,25*76
$GPGSV,3,3,10,03,08,316,24,05,05,046,27*76
$GPRMC,211235.000,A,3748.8004,N,12217.8612,W,0.25,4.05,091211,,,A*78
$GPVTG,4.05,T,,M,0.25,N,0.5,K,A*0E
$GPGGA,211236.000,3748.8002,N,12217.8618,W,1,06,2.0,-3.0,M,-25.1,M,,0000*48
$GPGSA,A,3,16,26,15,21,06,18,,,,,,,3.2,2.0,2.5*3D
$GPRMC,211236.000,A,3748.8002,N,12217.8618,W,0.47,306.00,091211,,,A*77
$GPVTG,306.00,T,,M,0.47,N,0.9,K,A*02
$GPGGA,211237.000,3748.7999,N,12217.8622,W,1,06,2.0,-1.8,M,-25.1,M,,0000*4E
$GPGSA,A,3,16,26,15,21,06,18,,,,,,,3.2,2.0,2.5*3D
$GPRMC,211237.000,A,3748.7999,N,12217.8622,W,0.24,14.13,091211,,,A*4C
$GPVTG,14.13,T,,M,0.24,N,0.4,K,A*38
$GPGGA,211238.000,3748.7998,N,12217.8623,W,1,06,2.0,-1.7,M,-25.1,M,,0000*4E
$GPGSA,A,3,16,26,15,21,06,18,,,,,,,3.2,2.0,2.5*3D
$GPRMC,211238.000,A,3748.7998,N,12217.8623,W,0.54,225.02,091211,,,A*74
$GPVTG,225.02,T,,M,0.54,N,1.0,K,A*0A
$GPGGA,211239.000,3748.7989,N,12217.8626,W,1,06,2.0,-3.0,M,-25.1,M,,0000*4F
$GPGSA,A,3,16,26,15,21,06,18,,,,,,,3.2,2.0,2.5*3D
$GPRMC,211239.000,A,3748.7989,N,12217.8626,W,1.54,222.33,091211,,,A*74
$GPVTG,222.33,T,,M,1.54,N,2.9,K,A*04
$GPGGA,211240.000,3748.7987,N,12217.8627,W,1,06,2.0,-3.0,M,-25.1,M,,0000*4E
$GPGSA,A,3,16,26,15,21,06,18,,,,,,,3.2,2.0,2.5*3D
$GPGSV,3,1,10,21,67,332,27,18,66,222,35,29,52,138,30,15,38,096,30*74
$GPGSV,3,2,10,16,24,302,29,22,23,225,37,26,23,056,32,06,20,313,30*73
$GPGSV,3,3,10,03,08,316,28,05,05,046,33*7F
$GPRMC,211240.000,A,3748.7987,N,12217.8627,W,0.46,220.08,091211,,,A*7D
$GPVTG,220.08,T,,M,0.46,N,0.8,K,A*0F
$GPGGA,211241.000,3748.7988,N,12217.8627,W,1,06,2.0,-2.9,M,-25.1,M,,0000*48
$GPGSA,A,3,16,26,15,21,06,18,,,,,,,3.2,2.0,2.5*3D
$GPRMC,211241.000,A,3748.7988,N,12217.8627,W,0.40,155.45,091211,,,A*7D
$GPVTG,155.45,T,,M,0.40,N,0.7,K,A*0E
$GPGGA,211242.000,3748.7988,N,12217.8626,W,1,06,2.0,-2.8,M,-25.1,M,,0000*4B
$GPGSA,A,3,16,26,15,21,06,18,,,,,,,3.2,2.0,2.5*3D
$GPRMC,211242.000,A,3748.7988,N,12217.8626,W,0.16,64.00,091211,,,A*4E
$GPVTG,64.00,T,,M,0.16,N,0.3,K,A*3B
$GPGGA,211243.000,3748.7990,N,12217.8623,W,1,06,2.0,-2.6,M,-25.1,M,,0000*48
$GPGSA,A,3,16,26,15,21,06,18,,,,,,,3.2,2.0,2.5*3D
$GPRMC,211243.000,A,3748.7990,N,12217.8623,W,0.30,52.07,091211,,,A*45
$GPVTG,52.07,T,,M,0.30,N,0.6,K,A*38
$GPGGA,211244.000,3748.7991,N,12217.8621,W,1,06,2.0,-2.8,M,-25.1,M,,0000*42
$GPGSA,A,3,16,26,15,21,06,18,,,,,,,3.2,2.0,2.5*3D
$GPRMC,211244.000,A,3748.7991,N,12217.8621,W,0.36,15.37,091211,,,A*47
$GPVTG,15.37,T,,M,0.36,N,0.7,K,A*3F
$GPGGA,211245.000,3748.7992,N,12217.8619,W,1,06,2.0,-2.9,M,-25.1,M,,0000*4A
$GPGSA,A,3,16,26,15,21,06,18,,,,,,,3.2,2.0,2.5*3D
$GPGSV,3,1,10,21,67,332,37,18,66,222,37,29,52,138,37,15,38,096,40*77
$GPGSV,3,2,10,16,24,302,33,22,23,225,31,26,23,056,36,06,20,313,33*79
$GPGSV,3,3,10,03,08,316,31,05,05,046,37*73
$GPRMC,211245.000,A,3748.7992,N,12217.8619,W,0.16,346.93,091211,,,A*77
$GPVTG,346.93,T,,M,0.16,N,0.3,K,A*02
$GPGGA,211246.000,3748.7993,N,12217.8617,W,1,06,2.0,-2.9,M,-25.1,M,,0000*46
$GPGSA,A,3,16,26,15,21,06,18,,,,,,,3.2,2.0,2.5*3D
$GPRMC,211246.000,A,3748.7993,N,12217.8617,W,0.13,214.28,091211,,,A*78
$GPVTG,214.28,T,,M,0.13,N,0.2,K,A*00
$GPGGA,211247.000,3748.7994,N,12217.8616,W,1,06,2.0,-3.1,M,-25.1,M,,0000*48
$GPGSA,A,3,16,26,15,21,06,18,,,,,,,3.2,2.0,2.5*3D
$GPRMC,211247.000,A,3748.7994,N,12217.8616,W,0.10,90.75,091211,,,A*4A
$GPVTG,90.75,T,,M,0.10,N,0.2,K,A*35
$GPGGA,211248.000,3748.7995,N,12217.8615,W,1,06,2.0,-3.2,M,-25.1,M,,0000*46
$GPGSA,A,3,16,26,15,21,06,18,,,,,,,3.2,2.0,2.5*3D
$GPRMC,211248.000,A,3748.7995,N,12217.8615,W,0.16,12.93,091211,,,A*43
$GPVTG,12.93,T,,M,0.16,N,0.3,K,A*30
$GPGGA,211249.000,3748.7995,N,12217.8614,W,1,06,2.0,-3.3,M,-25.1,M,,0000*47
$GPGSA,A,3,16,26,15,21,06,18,,,,,,,3.2,2.0,2.5*3D
$GPRMC,211249.000,A,3748.7995,N,12217.8614,W,0.48,227.09,091211,,,A*7F
$GPVTG,227.09,T,,M,0.48,N,0.9,K,A*06
$GPGGA,211250.000,3748.7995,N,12217.8616,W,1,06,2.0,-3.5,M,-25.1,M,,0000*4B
$GPGSA,A,3,16,26,15,21,06,18,,,,,,,3.2,2.0,2.5*3D
$GPGSV,3,1,10,21,67,332,37,18,66,222,37,29,52,138,32,15,38,096,27*73
$GPGSV,3,2,10,16,24,302,42,22,23,225,32,26,23,056,28,06,20,313,37*77
$GPGSV,3,3,10,03,08,316,34,05,05,046,30*71
$GPRMC,211250.000,A,3748.7995,N,12217.8616,W,0.28,231.39,091211,,,A*77
$GPVTG,231.39,T,,M,0.28,N,0.5,K,A*08
$GPGGA,211251.000,3748.7992,N,12217.8618,W,1,06,2.0,-3.9,M,-25.1,M,,0000*4F
$GPGSA,A,3,16,26,15,21,06,18,,,,,,,3.2,2.0,2.5*3D
$GPRMC,211251.000,A,3748.7992,N,12217.8618,W,1.11,193.96,091211,,,A*7A
$GPVTG,193.96,T,,M,1.11,N,2.1,K,A*0B
$GPGGA,211252.000,3748.7987,N,12217.8622,W,1,06,2.0,-4.9,M,-25.1,M,,0000*46
$GPGSA,A,3,16,26,15,21,06,18,,,,,,,3.2,2.0,2.5*3D
$GPRMC,211252.000,A,3748.7987,N,12217.8622,W,0.73,178.30,091211,,,A*78
$GPVTG,178.30,T,,M,0.73,N,1.3,K,A*06
$GPGGA,211253.000,3748.7983,N,12217.8625,W,1,06,2.0,-5.0,M,-25.1,M,,0000*4C
$GPGSA,A,3,16,26,15,21,06,18,,,,,,,3.2,2.0,2.5*3D
$GPRMC,211253.000,A,3748.7983,N,12217.8625,W,1.71,193.03,091211,,,A*7C
$GPVTG,193.03,T,,M,1.71,N,3.2,K,A*03
$GPGGA,211254.000,3748.7979,N,12217.8627,W,1,06,2.0,-5.3,M,-25.1,M,,0000*4F
$GPGSA,A,3,16,26,15,21,06,18,,,,,,,3.2,2.0,2.5*3D
$GPRMC,211254.000,A,3748.7979,N,12217.8627,W,1.37,197.99,091211,,,A*79
$GPVTG,197.99,T,,M,1.37,N,2.5,K,A*00
$GPGGA,211255.000,3748.7975,N,12217.8633,W,1,06,2.0,-5.3,M,-25.1,M,,0000*47
$GPGSA,A,3,16,26,15,21,06,18,,,,,,,3.2,2.0,2.5*3D
$GPGSV,3,1,11,21,67,332,30,18,66,222,37,29,52,138,32,15,38,096,27*75
$GPGSV,3,2,11,16,24,302,35,22,23,225,42,26,23,056,29,06,20,313,32*75
$GPGSV,3,3,11,03,08,316,35,05,05,046,33,46,37,144,27*40
$GPRMC,211255.000,A,3748.7975,N,12217.8633,W,1.52,193.51,091211,,,A*72
$GPVTG,193.51,T,,M,1.52,N,2.8,K,A*0E
$GPGGA,211256.000,3748.7970,N,12217.8636,W,1,06,2.0,-5.5,M,-25.1,M,,0000*42
$GPGSA,A,3,16,26,15,21,06,18,,,,,,,3.2,2.0,2.5*3D
$GPRMC,211256.000,A,3748.7970,N,12217.8636,W,1.19,191.45,091211,,,A*79
$GPVTG,191.45,T,,M,1.19,N,2.2,K,A*0C
$GPGGA,211257.000,3748.7964,N,12217.8643,W,1,06,2.0,-5.3,M,-25.1,M,,0000*42
$GPGSA,A,3,16,26,15,21,06,18,,,,,,,3.2,2.0,2.5*3D
$GPRMC,211257.000,A,3748.7964,N,12217.8643,W,1.76,191.87,091211,,,A*78
$GPVTG,191.87,T,,M,1.76,N,3.3,K,A*0B
$GPGGA,211258.000,3748.7952,N,12217.8651,W,1,06,2.0,-6.6,M,-25.1,M,,0000*4D
$GPGSA,A,3,16,26,15,21,06,18,,,,,,,3.2,2.0,2.5*3D
$GPRMC,211258.000,A,3748.7952,N,12217.8651,W,1.70,188.77,091211,,,A*70
$GPVTG,188.77,T,,M,1.70,N,3.1,K,A*08
$GPGGA,211259.000,3748.7948,N,12217.8656,W,1,06,2.0,-6.4,M,-25.1,M,,0000*42
$GPGSA,A,3,16,26,15,21,06,18,,,,,,,3.2,2.0,2.5*3D
$GPRMC,211259.000,A,3748.7948,N,12217.8656,W,1.38,120.95,091211,,,A*7F
$GPVTG,120.95,T,,M,1.38,N,2.6,K,A*0C
$GPGGA,211300.000,3748.7946,N,12217.8659,W,1,06,2.0,-6.1,M,-25.1,M,,0000*4B
$GPGSA,A,3,16,26,15,21,06,18,,,,,,,3.2,2.0,2.5*3D
$GPGSV,3,1,11,21,67,332,26,18,66,222,28,29,52,138,26,15,38,096,24*7A
$GPGSV,3,2,11,16,24,302,35,22,23,225,39,26,23,056,29,06,20,313,33*78
$GPGSV,3,3,11,03,08,316,29,05,05,046,36,46,37,144,27*48
$GPRMC,211300.000,A,3748.7946,N,12217.8659,W,1.10,115.75,091211,,,A*71
$GPGGA,211301.000,3748.7947,N,12217.8661,W,1,06,2.0,-4.7,M,-25.1,M,,0000*44
$GPGSA,A,3,16,26,15,21,06,18,,,,,,,3.2,2.0,2.5*3D
$GPRMC,211301.000,A,3748.7947,N,12217.8661,W,1.13,142.43,091211,,,A*7E
$GPVTG,142.43,T,,M,1.13,N,2.1,K,A*0D
$GPGGA,211302.000,3748.7946,N,12217.8665,W,1,06,2.0,-4.1,M,-25.1,M,,0000*44
$GPGSA,A,3,16,26,15,21,06,18,,,,,,,3.2,2.0,2.5*3D
$GPRMC,211302.000,A,3748.7946,N,12217.8665,W,1.15,100.58,091211,,,A*72
$GPVTG,100.58,T,,M,1.15,N,2.1,K,A*07
$GPGGA,211303.000,3748.7941,N,12217.8667,W,1,06,2.0,-4.6,M,-25.1,M,,0000*47
$GPGSA,A,3,16,26,15,21,06,18,,,,,,,3.2,2.0,2.5*3D
$GPRMC,211303.000,A,3748.7941,N,12217.8667,W,0.92,113.82,091211,,,A*7D
$GPVTG,113.82,T,,M,0.92,N,1.7,K,A*09
$GPGGA,211304.000,3748.7940,N,12217.8672,W,1,06,2.0,-4.1,M,-25.1,M,,0000*42
$GPGSA,A,3,16,26,15,21,06,18,,,,,,,3.2,2.0,2.5*3D
$GPRMC,211304.000,A,3748.7940,N,12217.8672,W,0.59,158.73,091211,,,A*79
$GPVTG,158.73,T,,M,0.59,N,1.1,K,A*09
$GPGGA,211305.000,3748.7936,N,12217.8674,W,1,06,2.0,-5.1,M,-25.1,M,,0000*45
$GPGSA,A,3,16,26,15,21,06,18,,,,,,,3.2,2.0,2.5*3D
$GPGSV,3,1,11,21,67,332,31,18,66,222,36,29,52,138,29,15,38,096,24*7C
$GPGSV,3,2,11,16,24,302,41,22,23,225,40,26,23,056,30,06,20,313,35*7B
$GPGSV,3,3,11,03,08,316,37,05,05,046,31,46,37,144,27*40
$GPRMC,211305.000,A,3748.7936,N,12217.8674,W,0.35,205.63,091211,,,A*7F
$GPVTG,205.63,T,,M,0.35,N,0.6,K,A*0F
$GPGGA,211306.000,3748.7931,N,12217.8674,W,1,06,2.0,-6.1,M,-25.1,M,,0000*42
$GPGSA,A,3,16,26,15,21,06,18,,,,,,,3.2,2.0,2.5*3D
$GPRMC,211306.000,A,3748.7931,N,12217.8674,W,1.36,103.67,091211,,,A*78
$GPVTG,103.67,T,,M,1.36,N,2.5,K,A*0D
$GPGGA,211307.000,3748.7926,N,12217.8672,W,1,06,2.0,-7.1,M,-25.1,M,,0000*42
$GPGSA,A,3,16,26,15,21,06,18,,,,,,,3.2,2.0,2.5*3D
$GPRMC,211307.000,A,3748.7926,N,12217.8672,W,1.39,137.61,091211,,,A*77
$GPVTG,137.61,T,,M,1.39,N,2.6,K,A*00
$GPGGA,211308.000,3748.7922,N,12217.8671,W,1,06,2.0,-7.8,M,-25.1,M,,0000*43
$GPGSA,A,3,16,26,15,21,06,18,,,,,,,3.2,2.0,2.5*3D
$GPRMC,211308.000,A,3748.7922,N,12217.8671,W,1.20,129.45,091211,,,A*7E
$GPVTG,129.45,T,,M,1.20,N,2.2,K,A*05
$GPGGA,211309.000,3748.7920,N,12217.8672,W,1,06,2.0,-8.1,M,-25.1,M,,0000*45
$GPGSA,A,3,16,26,15,21,06,18,,,,,,,3.2,2.0,2.5*3D
$GPRMC,211309.000,A,3748.7920,N,12217.8672,W,1.36,184.83,091211,,,A*74
$GPVTG,184.83,T,,M,1.36,N,2.5,K,A*08
$GPGGA,211310.000,3748.7913,N,12217.8677,W,1,06,2.0,-8.4,M,-25.1,M,,0000*4D
$GPGSA,A,3,16,26,15,21,06,18,,,,,,,3.2,2.0,2.5*3D
$GPGSV,3,1,10,21,67,332,31,18,66,222,36,29,52,138,25,15,38,096,26*73
$GPGSV,3,2,10,16,24,302,36,22,23,225,33,26,23,056,27,06,20,313,38*75
$GPGSV,3,3,10,03,08,316,32,05,05,046,27*71
$GPRMC,211310.000,A,3748.7913,N,12217.8677,W,1.78,191.65,091211,,,A*7F
$GPVTG,191.65,T,,M,1.78,N,3.3,K,A*09
$GPGGA,211311.000,3748.7907,N,12217.8680,W,1,06,2.0,-9.0,M,-25.1,M,,0000*44
$GPGSA,A,3,16,26,15,21,06,18,,,,,,,3.2,2.0,2.5*3D
$GPRMC,211311.000,A,3748.7907,N,12217.8680,W,1.45,197.53,091211,,,A*7E
$GPVTG,197.53,T,,M,1.45,N,2.7,K,A*01
$GPGGA,211312.000,3748.7901,N,12217.8683,W,1,06,2.0,-9.7,M,-25.1,M,,0000*45
$GPGSA,A,3,16,26,15,21,06,18,,,,,,,3.2,2.0,2.5*3D
$GPRMC,211312.000,A,3748.7901,N,12217.8683,W,1.55,206.27,091211,,,A*71
$GPVTG,206.27,T,,M,1.55,N,2.9,K,A*06
$GPGGA,211313.000,3748.7895,N,12217.8690,W,1,06,2.0,-9.6,M,-25.1,M,,0000*4B
$GPGSA,A,3,16,26,15,21,06,18,,,,,,,3.2,2.0,2.5*3D
$GPRMC,211313.000,A,3748.7895,N,12217.8690,W,1.06,202.68,091211,,,A*77
$GPVTG,202.68,T,,M,1.06,N,2.0,K,A*06
$GPGGA,211314.000,3748.7888,N,12217.8700,W,1,06,2.0,-9.0,M,-25.1,M,,0000*4E
$GPGSA,A,3,16,26,15,21,06,18,,,,,,,3.2,2.0,2.5*3D
$GPRMC,211314.000,A,3748.7888,N,12217.8700,W,2.06,199.21,091211,,,A*7B
$GPVTG,199.21,T,,M,2.06,N,3.8,K,A*00
$GPGGA,211315.000,3748.7884,N,12217.8704,W,1,06,2.0,-8.7,M,-25.1,M,,0000*41
$GPGSA,A,3,16,26,15,21,06,18,,,,,,,3.2,2.0,2.5*3D
$GPGSV,3,1,10,21,67,332,31,18,66,222,35,29,52,138,25,15,38,096,24*72
$GPGSV,3,2,10,16,24,302,29,22,23,225,40,26,23,056,26,06,20,313,31*77
$GPGSV,3,3,10,03,08,316,22,05,05,046,26*71
$GPRMC,211315.000,A,3748.7884,N,12217.8704,W,1.85,185.06,091211,,,A*72
$GPGGA,211316.000,3748.7880,N,12217.8707,W,1,06,2.0,-8.0,M,-25.1,M,,0000*42
$GPGSA,A,3,16,26,15,21,06,18,,,,,,,3.2,2.0,2.5*3D
$GPRMC,211316.000,A,3748.7880,N,12217.8707,W,1.47,168.20,091211,,,A*7F
$GPVTG,168.20,T,,M,1.47,N,2.7,K,A*07
$GPGGA,211317.000,3748.7877,N,12217.8710,W,1,06,2.0,-7.3,M,-25.1,M,,0000*41
$GPGSA,A,3,16,26,15,21,06,18,,,,,,,3.2,2.0,2.5*3D
$GPRMC,211317.000,A,3748.7877,N,12217.8710,W,1.75,175.13,091211,,,A*7D
$GPVTG,175.13,T,,M,1.75,N,3.2,K,A*0E
$GPGGA,211318.000,3748.7873,N,12217.8713,W,1,05,2.0,-6.9,M,-25.1,M,,0000*41
$GPGSA,A,3,16,26,15,21,18,,,,,,,,3.3,2.0,2.6*39
$GPRMC,211318.000,A,3748.7873,N,12217.8713,W,1.33,193.94,091211,,,A*70
$GPVTG,193.94,T,,M,1.33,N,2.5,K,A*0D
$GPGGA,211319.000,3748.7871,N,12217.8716,W,1,06,2.0,-6.7,M,-25.1,M,,0000*4A
$GPGSA,A,3,16,26,15,21,06,18,,,,,,,3.2,2.0,2.5*3D
$GPRMC,211319.000,A,3748.7871,N,12217.8716,W,1.12,179.50,091211,,,A*79
$GPVTG,179.50,T,,M,1.12,N,2.1,K,A*06
$GPGGA,211320.000,3748.7868,N,12217.8717,W,1,06,2.0,-7.3,M,-25.1,M,,0000*4C
$GPGSA,A,3,16,26,15,21,06,18,,,,,,,3.2,2.0,2.5*3D
$GPGSV,3,1,10,21,67,334,31,18,67,222,35,29,52,139,24,15,39,096,24*74
$GPGSV,3,2,10,16,24,301,33,22,23,226,41,26,22,056,21,06,21,313,27*7D
$GPGSV,3,3,10,03,08,316,20,05,04,047,26*73
$GPRMC,211320.000,A,3748.7868,N,12217.8717,W,1.18,144.58,091211,,,A*76
$GPVTG,144.58,T,,M,1.18,N,2.2,K,A*09
$GPGGA,211321.000,3748.7864,N,12217.8716,W,1,06,2.0,-7.7,M,-25.1,M,,0000*44
$GPGSA,A,3,16,26,15,21,06,18,,,,,,,3.2,2.0,2.5*3D
$GPRMC,211321.000,A,3748.7864,N,12217.8716,W,1.44,149.68,091211,,,A*7D
$GPVTG,149.68,T,,M,1.44,N,2.7,K,A*0B
$GPGGA,211322.000,3748.7862,N,12217.8716,W,1,06,2.0,-8.0,M,-25.1,M,,0000*49
$GPGSA,A,3,16,26,15,21,06,18,,,,,,,3.2,2.0,2.5*3D
$GPRMC,211322.000,A,3748.7862,N,12217.8716,W,1.00,135.58,091211,,,A*70
$GPVTG,135.58,T,,M,1.00,N,1.8,K,A*0F
$GPGGA,211323.000,3748.7861,N,12217.8716,W,1,06,2.0,-7.8,M,-25.1,M,,0000*4C
$GPGSA,A,3,16,26,15,21,06,18,,,,,,,3.2,2.0,2.5*3D
$GPRMC,211323.000,A,3748.7861,N,12217.8716,W,0.70,107.46,091211,,,A*7A
$GPVTG,107.46,T,,M,0.70,N,1.3,K,A*0C
$GPGGA,211324.000,3748.7860,N,12217.8718,W,1,06,2.0,-6.8,M,-25.1,M,,0000*45
$GPGSA,A,3,16,26,15,21,06,18,,,,,,,3.2,2.0,2.5*3D
$GPRMC,211324.000,A,3748.7860,N,12217.8718,W,0.41,91.70,091211,,,A*4B
$GPVTG,91.70,T,,M,0.41,N,0.8,K,A*3F
$GPGGA,211325.000,3748.7867,N,12217.8719,W,1,06,2.0,-5.8,M,-25.1,M,,0000*41
$GPGSA,A,3,16,26,15,21,06,18,,,,,,,3.2,2.0,2.5*3D
$GPGSV,3,1,10,21,67,334,30,18,67,222,25,29,52,139,24,15,39,096,24*74
$GPGSV,3,2,10,16,24,301,27,22,23,226,32,26,22,056,25,06,21,313,27*78
$GPGSV,3,3,10,03,08,316,19,05,04,047,24*7B
$GPRMC,211325.000,A,3748.7867,N,12217.8719,W,1.12,148.09,091211,,,A*70
$GPVTG,148.09,T,,M,1.12,N,2.1,K,A*08
$GPGGA,211326.000,3748.7859,N,12217.8720,W,1,06,2.0,-6.0,M,-25.1,M,,0000*4E
$GPGSA,A,3,16,26,15,21,06,18,,,,,,,3.2,2.0,2.5*3D
$GPRMC,211326.000,A,3748.7859,N,12217.8720,W,1.31,154.77,091211,,,A*71
$GPVTG,154.77,T,,M,1.31,N,2.4,K,A*08
$GPGGA,211327.000,3748.7852,N,12217.8723,W,1,06,2.0,-6.8,M,-25.1,M,,0000*4F
$GPGSA,A,3,16,26,15,21,06,18,,,,,,,3.2,2.0,2.5*3D
$GPRMC,211327.000,A,3748.7852,N,12217.8723,W,1.02,189.32,091211,,,A*79
$GPVTG,189.32,T,,M,1.02,N,1.9,K,A*07
$GPGGA,211328.000,3748.7849,N,12217.8726,W,1,06,2.0,-6.7,M,-25.1,M,,0000*40
$GPGSA,A,3,16,26,15,21,06,18,,,,,,,3.2,2.0,2.5*3D
$GPRMC,211328.000,A,3748.7849,N,12217.8726,W,0.85,185.35,091211,,,A*7C
$GPVTG,185.35,T,,M,0.85,N,1.6,K,A*0D
$GPGGA,211329.000,3748.7846,N,12217.8732,W,1,06,2.0,-5.8,M,-25.1,M,,0000*47
$GPGSA,A,3,16,26,15,21,06,18,,,,,,,3.2,2.0,2.5*3D
$GPRMC,211329.000,A,3748.7846,N,12217.8732,W,1.11,206.14,091211,,,A*70
$GPVTG,206.14,T,,M,1.11,N,2.1,K,A*0E
$GPGGA,211330.000,3748.7840,N,12217.8739,W,1,05,2.0,-5.8,M,-25.1,M,,0000*41
$GPGSA,A,3,16,26,15,21,18,,,,,,,,3.3,2.0,2.6*39
$GPGSV,3,1,11,21,67,334,28,18,67,222,34,29,52,139,25,15,39,096,22*7B
$GPGSV,3,2,11,16,24,301,33,22,23,226,42,26,22,056,23,06,21,313,*78
$GPGSV,3,3,11,03,08,316,18,05,04,047,24,48,44,197,31*4A
$GPRMC,211330.000,A,3748.7840,N,12217.8739,W,1.46,175.69,091211,,,A*7A
$GPGGA,211331.000,3748.7836,N,12217.8750,W,1,06,2.0,-4.5,M,-25.1,M,,0000*41
$GPGSA,A,3,16,26,15,21,06,18,,,,,,,3.2,2.0,2.5*3D
$GPRMC,211331.000,A,3748.7836,N,12217.8750,W,1.45,181.06,091211,,,A*74
$GPVTG,181.06,T,,M,1.45,N,2.7,K,A*06
$GPGGA,211332.000,3748.7835,N,12217.8770,W,1,06,2.0,-2.0,M,-25.1,M,,0000*40
$GPGSA,A,3,16,26,15,21,06,18,,,,,,,3.2,2.0,2.5*3D
$GPRMC,211332.000,A,3748.7835,N,12217.8770,W,1.57,181.78,091211,,,A*7C
$GPVTG,181.78,T,,M,1.57,N,2.9,K,A*02
$GPGGA,211333.000,3748.7821,N,12217.8778,W,1,07,1.1,-3.6,M,-25.1,M,,0000*48
$GPGSA,A,3,16,26,15,21,06,18,22,,,,,,2.0,1.1,1.7*3D
$GPRMC,211333.000,A,3748.7821,N,12217.8778,W,1.61,200.61,091211,,,A*77
$GPVTG,200.61,T,,M,1.61,N,3.0,K,A*0D
$GPGGA,211334.000,3748.7811,N,12217.8783,W,1,07,1.1,-4.8,M,-25.1,M,,0000*41
$GPGSA,A,3,16,26,15,21,06,18,22,,,,,,2.0,1.1,1.7*3D
$GPRMC,211334.000,A,3748.7811,N,12217.8783,W,1.65,181.92,091211,,,A*75
$GPVTG,181.92,T,,M,1.65,N,3.1,K,A*0E
$GPGGA,211335.000,3748.7802,N,12217.8788,W,1,07,1.1,-5.3,M,-25.1,M,,0000*43
$GPGSA,A,3,16,26,15,21,06,18,22,,,,,,2.0,1.1,1.7*3D
$GPGSV,3,1,11,18,67,222,34,21,67,334,29,29,52,139,25,15,39,096,23*7B
$GPGSV,3,2,11,16,24,301,33,22,23,226,42,26,22,055,22,06,21,313,28*70
$GPGSV,3,3,11,03,08,316,17,05,04,047,24,48,44,197,38*4C
$GPRMC,211335.000,A,3748.7802,N,12217.8788,W,1.66,175.92,091211,,,A*75
$GPVTG,175.92,T,,M,1.66,N,3.1,K,A*06
$GPGGA,211336.000,3748.7792,N,12217.8789,W,1,07,1.1,-5.9,M,-25.1,M,,0000*4D
$GPGSA,A,3,16,26,15,21,06,18,22,,,,,,2.0,1.1,1.7*3D
$GPRMC,211336.000,A,3748.7792,N,12217.8789,W,1.84,161.75,091211,,,A*71
$GPVTG,161.75,T,,M,1.84,N,3.4,K,A*03
$GPGGA,211337.000,3748.7784,N,12217.8790,W,1,07,1.1,-6.3,M,-25.1,M,,0000*4A
$GPGSA,A,3,16,26,15,21,06,18,22,,,,,,2.0,1.1,1.7*3D
$GPRMC,211337.000,A,3748.7784,N,12217.8790,W,1.82,175.29,091211,,,A*75
$GPVTG,175.29,T,,M,1.82,N,3.4,K,A*09
$GPGGA,211338.000,3748.7778,N,12217.8793,W,1,07,1.1,-6.6,M,-25.1,M,,0000*40
$GPGSA,A,3,16,26,15,21,06,18,22,,,,,,2.0,1.1,1.7*3D
$GPRMC,211338.000,A,3748.7778,N,12217.8793,W,1.66,195.66,091211,,,A*75
$GPVTG,195.66,T,,M,1.66,N,3.1,K,A*03
$GPGGA,211339.000,3748.7773,N,12217.8795,W,1,07,1.1,-7.3,M,-25.1,M,,0000*48
$GPGSA,A,3,16,26,15,21,06,18,22,,,,,,2.0,1.1,1.7*3D
$GPRMC,211339.000,A,3748.7773,N,12217.8795,W,1.79,173.55,091211,,,A*7F
$GPVTG,173.55,T,,M,1.79,N,3.3,K,A*07
$GPGGA,211340.000,3748.7768,N,12217.8795,W,1,07,1.1,-8.0,M,-25.1,M,,0000*40
$GPGSA,A,3,16,26,15,21,06,18,22,,,,,,2.0,1.1,1.7*3D
$GPGSV,3,1,11,18,67,222,34,21,67,334,30,29,52,139,24,15,39,096,23*72
$GPGSV,3,2,11,16,24,301,29,22,23,226,41,26,22,055,22,06,21,313,27*77
$GPGSV,3,3,11,03,08,316,17,05,04,047,25,48,44,197,38*4D
$GPRMC,211340.000,A,3748.7768,N,12217.8795,W,1.85,166.29,091211,,,A*77
$GPVTG,166.29,T,,M,1.85,N,3.4,K,A*0C
$GPGGA,211341.000,3748.7763,N,12217.8796,W,1,07,1.1,-8.5,M,-25.1,M,,0000*4C
$GPGSA,A,3,16,26,15,21,06,18,22,,,,,,2.0,1.1,1.7*3D
$GPRMC,211341.000,A,3748.7763,N,12217.8796,W,1.85,171.40,091211,,,A*77
$GPVTG,171.40,T,,M,1.85,N,3.4,K,A*05
$GPGGA,211342.000,3748.7757,N,12217.8799,W,1,07,1.1,-9.1,M,-25.1,M,,0000*42
$GPGSA,A,3,16,26,15,21,06,18,22,,,,,,2.0,1.1,1.7*3D
$GPRMC,211342.000,A,3748.7757,N,12217.8799,W,1.71,180.99,091211,,,A*7D
$GPVTG,180.99,T,,M,1.71,N,3.2,K,A*02
$GPGGA,211343.000,3748.7752,N,12217.8801,W,1,07,1.1,-9.7,M,-25.1,M,,0000*4E
$GPGSA,A,3,16,26,15,21,06,18,22,,,,,,2.0,1.1,1.7*3D
$GPRMC,211343.000,A,3748.7752,N,12217.8801,W,1.59,178.52,091211,,,A*7D
$GPVTG,178.52,T,,M,1.59,N,2.9,K,A*02
$GPGGA,211344.000,3748.7747,N,12217.8803,W,1,07,1.1,-10.4,M,-25.1,M,,0000*74
$GPGSA,A,3,16,26,15,21,06,18,22,,,,,,2.0,1.1,1.7*3D
$GPRMC,211344.000,A,3748.7747,N,12217.8803,W,1.68,167.36,091211,,,A*72
$GPVTG,167.36,T,,M,1.68,N,3.1,K,A*05
$GPGGA,211345.000,3748.7743,N,12217.8806,W,1,07,1.1,-10.8,M,-25.1,M,,0000*78
$GPGSA,A,3,16,26,15,21,06,18,22,,,,,,2.0,1.1,1.7*3D
$GPGSV,3,1,11,18,67,222,34,21,67,334,30,29,52,139,23,15,39,096,23*75
$GPGSV,3,2,11,16,24,301,38,22,23,226,40,26,22,055,22,06,21,313,27*76
$GPGSV,3,3,11,03,08,316,18,05,04,047,22,48,44,197,38*45
$GPVTG,179.39,T,,M,1.69,N,3.1,K,A*04
$GPGGA,211346.000,3748.7737,N,12217.8809,W,1,07,1.1,-11.4,M,-25.1,M,,0000*7A
$GPGSA,A,3,16,26,15,21,06,18,22,,,,,,2.0,1.1,1.7*3D
$GPRMC,211346.000,A,3748.7737,N,12217.8809,W,1.81,175.44,091211,,,A*7C
$GPVTG,175.44,T,,M,1.81,N,3.4,K,A*01
$GPGGA,211347.000,3748.7732,N,12217.8813,W,1,07,1.1,-11.7,M,-25.1,M,,0000*76
$GPGSA,A,3,16,26,15,21,06,18,22,,,,,,2.0,1.1,1.7*3D
$GPRMC,211347.000,A,3748.7732,N,12217.8813,W,1.85,178.91,091211,,,A*72
$GPVTG,178.91,T,,M,1.85,N,3.4,K,A*00
$GPGGA,211348.000,3748.7726,N,12217.8816,W,1,07,1.1,-12.1,M,-25.1,M,,0000*7C
$GPGSA,A,3,16,26,15,21,06,18,22,,,,,,2.0,1.1,1.7*3D
$GPRMC,211348.000,A,3748.7726,N,12217.8816,W,1.78,177.38,091211,,,A*73
$GPVTG,177.38,T,,M,1.78,N,3.3,K,A*09
$GPGGA,211349.000,3748.7720,N,12217.8818,W,1,07,1.1,-12.4,M,-25.1,M,,0000*70
$GPGSA,A,3,16,26,15,21,06,18,22,,,,,,2.0,1.1,1.7*3D
$GPRMC,211349.000,A,3748.7720,N,12217.8818,W,2.02,173.17,091211,,,A*7D
$GPVTG,173.17,T,,M,2.02,N,3.7,K,A*0A
$GPGGA,211350.000,3748.7714,N,12217.8818,W,1,07,1.1,-12.6,M,-25.1,M,,0000*7D
$GPGSA,A,3,16,26,15,21,06,18,22,,,,,,2.0,1.1,1.7*3D
$GPGSV,3,1,11,18,67,223,34,21,67,334,30,29,51,139,23,15,39,095,23*74
$GPGSV,3,2,11,16,24,301,32,22,23,226,40,26,22,055,22,06,21,313,34*7E
$GPGSV,3,3,11,03,08,316,17,05,04,047,25,48,44,197,32*47
$GPRMC,211350.000,A,3748.7714,N,12217.8818,W,2.16,164.74,091211,,,A*74
$GPVTG,164.74,T,,M,2.16,N,4.0,K,A*0C
$GPGGA,211351.000,3748.7707,N,12217.8817,W,1,07,1.1,-12.9,M,-25.1,M,,0000*7E
$GPGSA,A,3,16,26,15,21,06,18,22,,,,,,2.0,1.1,1.7*3D
$GPRMC,211351.000,A,3748.7707,N,12217.8817,W,2.00,163.58,091211,,,A*76
$GPVTG,163.58,T,,M,2.00,N,3.7,K,A*02
$GPGGA,211352.000,3748.7701,N,12217.8818,W,1,07,1.1,-13.0,M,-25.1,M,,0000*7C
$GPGSA,A,3,16,26,15,21,06,18,22,,,,,,2.0,1.1,1.7*3D
$GPRMC,211352.000,A,3748.7701,N,12217.8818,W,1.65,168.58,091211,,,A*77
$GPVTG,168.58,T,,M,1.65,N,3.1,K,A*0F
$GPGGA,211353.000,3748.7696,N,12217.8820,W,1,07,1.1,-12.9,M,-25.1,M,,0000*71
$GPGSA,A,3,16,26,15,21,06,18,22,,,,,,2.0,1.1,1.7*3D
$GPRMC,211353.000,A,3748.7696,N,12217.8820,W,1.92,191.57,091211,,,A*73
$GPVTG,191.57,T,,M,1.92,N,3.6,K,A*09
$GPGGA,211354.000,3748.7690,N,12217.8822,W,1,07,1.1,-13.1,M,-25.1,M,,0000*7B
$GPGSA,A,3,16,26,15,21,06,18,22,,,,,,2.0,1.1,1.7*3D
$GPRMC,211354.000,A,3748.7690,N,12217.8822,W,1.74,178.37,091211,,,A*79
$GPVTG,178.37,T,,M,1.74,N,3.2,K,A*04
$GPGGA,211355.000,3748.7685,N,12217.8824,W,1,07,1.1,-13.6,M,-25.1,M,,0000*7F
$GPGSA,A,3,16,26,15,21,06,18,22,,,,,,2.0,1.1,1.7*3D
$GPGSV,3,1,11,18,67,223,33,21,67,334,29,29,51,139,22,15,39,095,23*7A
$GPGSV,3,2,11,16,24,301,32,22,23,226,41,26,22,055,22,06,21,313,26*7C
$GPGSV,3,3,11,03,08,316,16,05,04,047,24,48,44,197,32*47
$GPRMC,211355.000,A,3748.7685,N,12217.8824,W,1.53,186.87,091211,,,A*75
$GPVTG,186.87,T,,M,1.53,N,2.8,K,A*00
$GPGGA,211356.000,3748.7681,N,12217.8826,W,1,07,1.1,-13.9,M,-25.1,M,,0000*75
$GPGSA,A,3,16,26,15,21,06,18,22,,,,,,2.0,1.1,1.7*3D
$GPRMC,211356.000,A,3748.7681,N,12217.8826,W,1.51,173.35,091211,,,A*71
$GPVTG,173.35,T,,M,1.51,N,2.8,K,A*01
$GPGGA,211357.000,3748.7675,N,12217.8830,W,1,07,1.1,-13.7,M,-25.1,M,,0000*76
$GPGSA,A,3,16,26,15,21,06,18,22,,,,,,2.0,1.1,1.7*3D
$GPRMC,211357.000,A,3748.7675,N,12217.8830,W,1.91,179.73,091211,,,A*78
$GPVTG,179.73,T,,M,1.91,N,3.5,K,A*09
$GPGGA,211358.000,3748.7669,N,12217.8833,W,1,07,1.1,-13.5,M,-25.1,M,,0000*75
$GPGSA,A,3,16,26,15,21,06,18,22,,,,,,2.0,1.1,1.7*3D
$GPRMC,211358.000,A,3748.7669,N,12217.8833,W,2.03,194.08,091211,,,A*7E
$GPVTG,194.08,T,,M,2.03,N,3.8,K,A*03
$GPGGA,211359.000,3748.7663,N,12217.8838,W,1,07,1.1,-13.4,M,-25.1,M,,0000*74
$GPGSA,A,3,16,26,15,21,06,18,22,,,,,,2.0,1.1,1.7*3D
$GPRMC,211359.000,A,3748.7663,N,12217.8838,W,2.27,199.76,091211,,,A*7C
$GPVTG,199.76,T,,M,2.27,N,4.2,K,A*0C
$GPGGA,211400.000,3748.7657,N,12217.8841,W,1,07,1.1,-13.9,M,-25.1,M,,0000*7B
$GPGSA,A,3,16,26,15,21,06,18,22,,,,,,2.0,1.1,1.7*3D
$GPGSV,3,1,11,18,67,223,34,21,67,334,30,29,51,139,22,15,39,095,23*75
$GPGSV,3,2,11,16,24,301,33,22,23,226,41,26,22,055,22,06,21,313,26*7D
$GPGSV,3,3,11,03,08,316,16,05,04,047,28,48,44,197,30*49
$GPVTG,182.87,T,,M,2.00,N,3.7,K,A*0F
$GPGGA,211401.000,3748.7651,N,12217.8843,W,1,07,1.1,-14.0,M,-25.1,M,,0000*70
$GPGSA,A,3,16,26,15,21,06,18,22,,,,,,2.0,1.1,1.7*3D
$GPRMC,211401.000,A,3748.7651,N,12217.8843,W,1.96,168.30,091211,,,A*7E
$GPVTG,168.30,T,,M,1.96,N,3.6,K,A*0A
$GPGGA,211402.000,3748.7645,N,12217.8843,W,1,07,1.1,-14.5,M,-25.1,M,,0000*73
$GPGSA,A,3,16,26,15,21,06,18,22,,,,,,2.0,1.1,1.7*3D
$GPRMC,211402.000,A,3748.7645,N,12217.8843,W,1.94,167.82,091211,,,A*7C
$GPVTG,167.82,T,,M,1.94,N,3.6,K,A*0E
$GPGGA,211403.000,3748.7640,N,12217.8846,W,1,07,1.1,-14.6,M,-25.1,M,,0000*71
$GPGSA,A,3,16,26,15,21,06,18,22,,,,,,2.0,1.1,1.7*3D
$GPRMC,211403.000,A,3748.7640,N,12217.8846,W,1.59,174.41,091211,,,A*71
$GPVTG,174.41,T,,M,1.59,N,2.9,K,A*0C
$GPGGA,211404.000,3748.7635,N,12217.8849,W,1,07,1.1,-14.7,M,-25.1,M,,0000*7A
$GPGSA,A,3,16,26,15,21,06,18,22,,,,,,2.0,1.1,1.7*3D
$GPRMC,211404.000,A,3748.7635,N,12217.8849,W,1.49,179.89,091211,,,A*73
$GPVTG,179.89,T,,M,1.49,N,2.8,K,A*05
$GPGGA,211405.000,3748.7630,N,12217.8852,W,1,07,1.1,-14.9,M,-25.1,M,,0000*7A
$GPGSA,A,3,16,26,15,21,06,18,22,,,,,,2.0,1.1,1.7*3D
$GPGSV,3,1,11,18,67,223,33,21,67,334,30,29,51,139,23,15,39,095,23*73
$GPGSV,3,2,11,16,24,301,33,22,23,226,39,26,22,055,23,06,21,313,27*72
$GPGSV,3,3,11,03,08,316,16,05,04,047,27,48,44,197,33*45
$GPRMC,211405.000,A,3748.7630,N,12217.8852,W,1.50,173.05,091211,,,A*7B
$GPVTG,173.05,T,,M,1.50,N,2.8,K,A*03
$GPGGA,211406.000,3748.7625,N,12217.8863,W,1,07,1.1,-13.7,M,-25.1,M,,0000*76
$GPGSA,A,3,16,26,15,21,06,18,22,,,,,,2.0,1.1,1.7*3D
$GPRMC,211406.000,A,3748.7625,N,12217.8863,W,1.31,188.36,091211,,,A*7D
$GPVTG,188.36,T,,M,1.31,N,2.4,K,A*0C
$GPGGA,211407.000,3748.7621,N,12217.8869,W,1,07,1.1,-13.6,M,-25.1,M,,0000*78
$GPGSA,A,3,16,26,15,21,06,18,22,,,,,,2.0,1.1,1.7*3D
$GPRMC,211407.000,A,3748.7621,N,12217.8869,W,1.63,197.32,091211,,,A*7F
$GPVTG,197.32,T,,M,1.63,N,3.0,K,A*04
$GPGGA,211408.000,3748.7616,N,12217.8874,W,1,07,1.1,-13.6,M,-25.1,M,,0000*7F
$GPGSA,A,3,16,26,15,21,06,18,22,,,,,,2.0,1.1,1.7*3D
$GPRMC,211408.000,A,3748.7616,N,12217.8874,W,1.34,174.48,091211,,,A*7A
$GPVTG,174.48,T,,M,1.34,N,2.5,K,A*02
$GPGGA,211409.000,3748.7611,N,12217.8879,W,1,07,1.1,-13.3,M,-25.1,M,,0000*71
$GPGSA,A,3,16,26,15,21,06,18,22,,,,,,2.0,1.1,1.7*3D
$GPRMC,211409.000,A,3748.7611,N,12217.8879,W,1.26,181.25,091211,,,A*73
$GPVTG,181.25,T,,M,1.26,N,2.3,K,A*06
$GPGGA,211410.000,3748.7607,N,12217.8886,W,1,06,1.2,-12.9,M,-25.1,M,,0000*77
$GPGSA,A,3,16,26,15,06,18,22,,,,,,,2.6,1.2,2.4*3B
$GPGSV,3,1,11,18,67,223,33,21,67,334,21,29,51,139,30,15,39,095,24*76
$GPGSV,3,2,11,16,24,301,33,22,23,226,39,26,22,055,23,06,21,313,27*72
$GPGSV,3,3,11,03,08,316,23,05,04,047,25,48,44,197,38*4A
$GPRMC,211410.000,A,3748.7607,N,12217.8886,W,1.54,174.65,091211,,,A*77
$GPVTG,174.65,T,,M,1.54,N,2.9,K,A*07
$GPGGA,211411.000,3748.7602,N,12217.8895,W,1,06,1.2,-12.0,M,-25.1,M,,0000*78
$GPGSA,A,3,16,26,15,06,18,22,,,,,,,2.6,1.2,2.4*3B
$GPRMC,211411.000,A,3748.7602,N,12217.8895,W,1.77,177.97,091211,,,A*7E
$GPVTG,177.97,T,,M,1.77,N,3.3,K,A*03
$GPGGA,211412.000,3748.7597,N,12217.8907,W,1,06,1.2,-10.6,M,-25.1,M,,0000*7A
$GPGSA,A,3,16,26,15,21,18,22,,,,,,,2.1,1.2,1.8*36
$GPRMC,211412.000,A,3748.7597,N,12217.8907,W,1.46,172.75,091211,,,A*73
$GPVTG,172.75,T,,M,1.46,N,2.7,K,A*0D
$GPGGA,211413.000,3748.7593,N,12217.8910,W,1,07,1.1,-10.5,M,-25.1,M,,0000*78
$GPGSA,A,3,16,26,15,21,06,18,22,,,,,,2.0,1.1,1.7*3D
$GPRMC,211413.000,A,3748.7593,N,12217.8910,W,1.46,176.28,091211,,,A*7C
$GPVTG,176.28,T,,M,1.46,N,2.7,K,A*01
$GPGGA,211414.000,3748.7586,N,12217.8917,W,1,07,1.1,-9.7,M,-25.1,M,,0000*46
$GPGSA,A,3,16,26,15,21,06,18,22,,,,,,2.0,1.1,1.7*3D
$GPRMC,211414.000,A,3748.7586,N,12217.8917,W,1.66,194.12,091211,,,A*7F
$GPVTG,194.12,T,,M,1.66,N,3.1,K,A*01
$GPGGA,211415.000,3748.7581,N,12217.8922,W,1,07,1.1,-9.3,M,-25.1,M,,0000*42
$GPGSA,A,3,16,26,15,21,06,18,22,,,,,,2.0,1.1,1.7*3D
$GPGSV,3,1,11,18,67,223,34,21,67,334,28,29,51,139,25,15,39,095,23*7B
$GPGSV,3,2,11,16,24,301,33,22,23,226,40,26,22,055,23,06,21,313,29*72
$GPGSV,3,3,11,03,08,316,30,05,04,047,24,48,44,197,37*46
$GPRMC,211415.000,A,3748.7581,N,12217.8922,W,1.89,177.23,091211,,,A*71
$GPVTG,177.23,T,,M,1.89,N,3.5,K,A*0B
$GPGGA,211416.000,3748.7574,N,12217.8925,W,1,07,1.1,-8.9,M,-25.1,M,,0000*47
$GPGSA,A,3,16,26,15,21,06,18,22,,,,,,2.0,1.1,1.7*3D
$GPRMC,211416.000,A,3748.7574,N,12217.8925,W,1.83,181.69,091211,,,A*72
$GPVTG,181.69,T,,M,1.83,N,3.4,K,A*07
$GPGGA,211417.000,3748.7568,N,12217.8930,W,1,07,1.1,-9.2,M,-25.1,M,,0000*45
$GPGSA,A,3,16,26,15,21,06,18,22,,,,,,2.0,1.1,1.7*3D
$GPRMC,211417.000,A,3748.7568,N,12217.8930,W,1.97,187.20,091211,,,A*74
$GPVTG,187.20,T,,M,1.97,N,3.6,K,A*0B
$GPGGA,211418.000,3748.7563,N,12217.8939,W,1,07,1.1,-8.8,M,-25.1,M,,0000*43
$GPGSA,A,3,16,26,15,21,06,18,22,,,,,,2.0,1.1,1.7*3D
$GPRMC,211418.000,A,3748.7563,N,12217.8939,W,1.65,189.43,091211,,,A*7F
$GPVTG,189.43,T,,M,1.65,N,3.1,K,A*0A
$GPGGA,211419.000,3748.7559,N,12217.8957,W,1,07,1.1,-7.4,M,-25.1,M,,0000*40
$GPGSA,A,3,16,26,15,21,06,18,22,,,,,,2.0,1.1,1.7*3D
$GPRMC,211419.000,A,3748.7559,N,12217.8957,W,1.96,206.45,091211,,,A*71
$GPVTG,206.45,T,,M,1.96,N,3.6,K,A*03
$GPGGA,211420.000,3748.7553,N,12217.8977,W,1,07,1.1,-5.0,M,-25.1,M,,0000*44
$GPGSA,A,3,16,26,15,21,06,18,22,,,,,,2.0,1.1,1.7*3D
$GPGSV,3,1,11,18,67,223,34,21,67,334,29,29,51,139,25,15,39,095,24*7D
$GPGSV,3,2,11,16,24,301,39,22,23,226,30,26,22,055,23,06,21,313,37*70
$GPGSV,3,3,11,03,08,316,30,05,04,047,24,48,44,197,33*42
$GPRMC,211420.000,A,3748.7553,N,12217.8977,W,2.09,202.47,091211,,,A*70
$GPGGA,211421.000,3748.7548,N,12217.9005,W,1,07,1.1,-2.3,M,-25.1,M,,0000*46
$GPGSA,A,3,16,26,15,21,06,18,22,,,,,,2.0,1.1,1.7*3D
$GPRMC,211421.000,A,3748.7548,N,12217.9005,W,2.20,196.30,091211,,,A*73
$GPVTG,196.30,T,,M,2.20,N,4.1,K,A*05
$GPGGA,211422.000,3748.7543,N,12217.9017,W,1,07,1.1,-1.4,M,-25.1,M,,0000*49
$GPGSA,A,3,16,26,15,21,06,18,22,,,,,,2.0,1.1,1.7*3D
$GPRMC,211422.000,A,3748.7543,N,12217.9017,W,2.01,186.85,091211,,,A*74
$GPVTG,186.85,T,,M,2.01,N,3.7,K,A*08
$GPGGA,211423.000,3748.7538,N,12217.9028,W,1,07,1.1,-0.7,M,-25.1,M,,0000*4A
$GPGSA,A,3,16,26,15,21,06,18,22,,,,,,2.0,1.1,1.7*3D
$GPRMC,211423.000,A,3748.7538,N,12217.9028,W,1.69,183.56,091211,,,A*73
$GPVTG,183.56,T,,M,1.69,N,3.1,K,A*08
$GPGGA,211424.000,3748.7534,N,12217.9036,W,1,07,1.1,0.0,M,-25.1,M,,0000*64
$GPGSA,A,3,16,26,15,21,06,18,22,,,,,,2.0,1.1,1.7*3D
$GPRMC,211424.000,A,3748.7534,N,12217.9036,W,1.67,185.12,091211,,,A*7F
$GPVTG,185.12,T,,M,1.67,N,3.1,K,A*00
$GPGGA,211425.000,3748.7529,N,12217.9039,W,1,07,1.1,0.4,M,-25.1,M,,0000*62
$GPGSA,A,3,16,26,15,21,06,18,22,,,,,,2.0,1.1,1.7*3D
$GPGSV,3,1,11,18,67,223,34,21,67,334,29,29,51,139,25,15,39,095,24*7D
$GPGSV,3,2,11,16,24,301,30,22,23,226,31,26,22,055,23,06,21,313,33*7C
$GPGSV,3,3,11,03,08,316,30,05,04,047,23,48,44,197,33*45
$GPRMC,211425.000,A,3748.7529,N,12217.9039,W,1.69,181.11,091211,,,A*74
$GPVTG,181.11,T,,M,1.69,N,3.1,K,A*09
$GPGGA,211426.000,3748.7524,N,12217.9052,W,1,07,1.1,2.3,M,-25.1,M,,0000*64
$GPGSA,A,3,16,26,15,21,06,18,22,,,,,,2.0,1.1,1.7*3D
$GPRMC,211426.000,A,3748.7524,N,12217.9052,W,1.84,173.66,091211,,,A*79
$GPVTG,173.66,T,,M,1.84,N,3.4,K,A*02
$GPGGA,211427.000,3748.7519,N,12217.9056,W,1,07,1.1,2.4,M,-25.1,M,,0000*68
$GPGSA,A,3,16,26,15,21,06,18,22,,,,,,2.0,1.1,1.7*3D
$GPRMC,211427.000,A,3748.7519,N,12217.9056,W,1.97,170.21,091211,,,A*70
$GPVTG,170.21,T,,M,1.97,N,3.7,K,A*03
$GPGGA,211428.000,3748.7515,N,12217.9067,W,1,07,1.1,3.3,M,-25.1,M,,0000*6F
$GPGSA,A,3,16,26,15,21,06,18,22,,,,,,2.0,1.1,1.7*3D
$GPRMC,211428.000,A,3748.7515,N,12217.9067,W,1.66,195.45,091211,,,A*76
$GPVTG,195.45,T,,M,1.66,N,3.1,K,A*02
$GPGGA,211429.000,3748.7510,N,12217.9071,W,1,07,1.1,2.7,M,-25.1,M,,0000*69
$GPGSA,A,3,16,26,15,21,06,18,22,,,,,,2.0,1.1,1.7*3D
$GPRMC,211429.000,A,3748.7510,N,12217.9071,W,1.77,194.31,091211,,,A*77
$GPVTG,194.31,T,,M,1.77,N,3.3,K,A*02
$GPGGA,211430.000,3748.7503,N,12217.9080,W,1,07,1.1,3.3,M,-25.1,M,,0000*68
$GPGSA,A,3,16,26,15,21,06,18,22,,,,,,2.0,1.1,1.7*3D
$GPGSV,3,1,11,18,67,223,29,21,67,334,22,29,51,139,33,15,39,095,22*7B
$GPGSV,3,2,11,16,24,301,30,22,23,226,39,26,22,055,23,06,21,313,27*71
$GPGSV,3,3,11,03,08,316,17,05,04,047,22,48,44,197,36*44
$GPRMC,211430.000,A,3748.7503,N,12217.9080,W,1.56,194.54,091211,,,A*73
$GPVTG,194.54,T,,M,1.56,N,2.9,K,A*09
$GPGGA,211431.000,3748.7498,N,12217.9087,W,1,07,1.1,3.2,M,-25.1,M,,0000*6C
$GPGSA,A,3,16,26,15,21,06,18,22,,,,,,2.0,1.1,1.7*3D
$GPRMC,211431.000,A,3748.7498,N,12217.9087,W,2.05,199.99,091211,,,A*7F
$GPVTG,199.99,T,,M,2.05,N,3.8,K,A*00
$GPGGA,211432.000,3748.7492,N,12217.9091,W,1,07,1.1,3.2,M,-25.1,M,,0000*62
$GPGSA,A,3,16,26,15,21,06,18,22,,,,,,2.0,1.1,1.7*3D
$GPRMC,211432.000,A,3748.7492,N,12217.9091,W,1.91,201.01,091211,,,A*7C
$GPVTG,201.01,T,,M,1.91,N,3.5,K,A*00
$GPGGA,211433.000,3748.7485,N,12217.9095,W,1,07,1.1,3.3,M,-25.1,M,,0000*60
$GPGSA,A,3,16,26,15,21,06,18,22,,,,,,2.0,1.1,1.7*3D
$GPRMC,211433.000,A,3748.7485,N,12217.9095,W,2.24,205.44,091211,,,A*77
$GPVTG,205.44,T,,M,2.24,N,4.1,K,A*0B
$GPGGA,211434.000,3748.7477,N,12217.9098,W,1,07,1.1,3.2,M,-25.1,M,,0000*66
$GPGSA,A,3,16,26,15,21,06,18,22,,,,,,2.0,1.1,1.7*3D
$GPRMC,211434.000,A,3748.7477,N,12217.9098,W,2.00,192.74,091211,,,A*78
$GPVTG,192.74,T,,M,2.00,N,3.7,K,A*02
$GPGGA,211435.000,3748.7470,N,12217.9102,W,1,07,1.1,2.8,M,-25.1,M,,0000*69
$GPGSA,A,3,16,26,15,21,06,18,22,,,,,,2.0,1.1,1.7*3D
$GPGSV,3,1,11,18,67,223,33,21,67,334,28,29,51,139,31,15,39,095,26*7C
$GPGSV,3,2,11,16,24,301,30,22,23,226,35,26,22,055,23,06,21,313,26*7C
$GPGSV,3,3,11,03,08,316,14,05,04,047,23,48,44,197,38*48
$GPRMC,211435.000,A,3748.7470,N,12217.9102,W,1.77,189.25,091211,,,A*71
$GPGGA,211436.000,3748.7465,N,12217.9104,W,1,07,1.1,2.3,M,-25.1,M,,0000*63
$GPGSA,A,3,16,26,15,21,06,18,22,,,,,,2.0,1.1,1.7*3D
$GPRMC,211436.000,A,3748.7465,N,12217.9104,W,1.65,181.09,091211,,,A*75
$GPVTG,181.09,T,,M,1.65,N,3.1,K,A*0C
$GPGGA,211437.000,3748.7460,N,12217.9105,W,1,07,1.1,1.6,M,-25.1,M,,0000*60
$GPGSA,A,3,16,26,15,21,06,18,22,,,,,,2.0,1.1,1.7*3D
$GPRMC,211437.000,A,3748.7460,N,12217.9105,W,1.65,192.18,091211,,,A*72
$GPVTG,192.18,T,,M,1.65,N,3.1,K,A*0E
$GPGGA,211438.000,3748.7455,N,12217.9109,W,1,07,1.1,1.2,M,-25.1,M,,0000*61
$GPGSA,A,3,16,26,15,21,06,18,22,,,,,,2.0,1.1,1.7*3D
$GPRMC,211438.000,A,3748.7455,N,12217.9109,W,1.50,194.70,091211,,,A*79
$GPVTG,194.70,T,,M,1.50,N,2.8,K,A*08
$GPGGA,211439.000,3748.7450,N,12217.9113,W,1,07,1.1,0.9,M,-25.1,M,,0000*64
$GPGSA,A,3,16,26,15,21,06,18,22,,,,,,2.0,1.1,1.7*3D
$GPRMC,211439.000,A,3748.7450,N,12217.9113,W,1.52,185.70,091211,,,A*74
$GPVTG,185.70,T,,M,1.52,N,2.8,K,A*0A
$GPGGA,211440.000,3748.7445,N,12217.9120,W,1,07,1.1,0.9,M,-25.1,M,,0000*6E
$GPGSA,A,3,16,26,15,21,06,18,22,,,,,,2.0,1.1,1.7*3D
$GPGSV,3,1,11,18,67,223,33,21,67,334,28,29,51,139,25,15,39,095,25*7A
$GPGSV,3,2,11,16,24,301,31,22,23,226,36,26,22,055,23,06,21,313,25*7D
$GPGSV,3,3,11,03,08,316,15,05,04,047,23,48,44,197,35*44
$GPRMC,211440.000,A,3748.7445,N,12217.9120,W,1.58,196.80,091211,,,A*79
$GPVTG,196.80,T,,M,1.58,N,2.9,K,A*0C
$GPGGA,211441.000,3748.7441,N,12217.9127,W,1,07,1.1,1.2,M,-25.1,M,,0000*66
$GPGSA,A,3,16,26,15,21,06,18,22,,,,,,2.0,1.1,1.7*3D
$GPRMC,211441.000,A,3748.7441,N,12217.9127,W,1.79,188.53,091211,,,A*79
$GPVTG,188.53,T,,M,1.79,N,3.3,K,A*05
$GPGGA,211442.000,3748.7435,N,12217.9131,W,1,07,1.1,1.0,M,-25.1,M,,0000*63
$GPGSA,A,3,16,26,15,21,06,18,22,,,,,,2.0,1.1,1.7*3D
$GPRMC,211442.000,A,3748.7435,N,12217.9131,W,2.22,175.72,091211,,,A*72
$GPVTG,175.72,T,,M,2.22,N,4.1,K,A*0C
$GPGGA,211443.000,3748.7428,N,12217.9134,W,1,07,1.1,1.0,M,-25.1,M,,0000*6B
$GPGSA,A,3,16,26,15,21,06,18,22,,,,,,2.0,1.1,1.7*3D
$GPRMC,211443.000,A,3748.7428,N,12217.9134,W,2.27,178.26,091211,,,A*73
$GPVTG,178.26,T,,M,2.27,N,4.2,K,A*06
$GPGGA,211444.000,3748.7423,N,12217.9138,W,1,07,1.1,1.5,M,-25.1,M,,0000*6E
$GPGSA,A,3,16,26,15,21,06,18,22,,,,,,2.0,1.1,1.7*3D
$GPRMC,211444.000,A,3748.7423,N,12217.9138,W,1.89,183.36,091211,,,A*71
$GPVTG,183.36,T,,M,1.89,N,3.5,K,A*04
$GPGGA,211445.000,3748.7418,N,12217.9141,W,1,07,1.1,1.4,M,-25.1,M,,0000*68
$GPGSA,A,3,16,26,15,21,06,18,22,,,,,,2.0,1.1,1.7*3D
$GPGSV,3,1,11,18,67,223,33,21,67,334,28,29,51,139,28,15,39,095,25*77
$GPGSV,3,2,11,16,24,301,31,22,23,226,37,26,22,055,24,06,21,313,26*78
$GPGSV,3,3,11,03,08,316,15,05,04,047,,48,44,197,33*43
$GPRMC,211445.000,A,3748.7418,N,12217.9141,W,1.95,181.09,091211,,,A*75
$GPVTG,181.09,T,,M,1.95,N,3.6,K,A*04
$GPGGA,211446.000,3748.7413,N,12217.9145,W,1,07,1.1,1.2,M,-25.1,M,,0000*62
$GPGSA,A,3,16,26,15,21,06,18,22,,,,,,2.0,1.1,1.7*3D
$GPRMC,211446.000,A,3748.7413,N,12217.9145,W,1.89,190.15,091211,,,A*79
$GPVTG,190.15,T,,M,1.89,N,3.5,K,A*07
$GPGGA,211447.000,3748.7407,N,12217.9150,W,1,07,1.1,1.2,M,-25.1,M,,0000*62
$GPGSA,A,3,16,26,15,21,06,18,22,,,,,,2.0,1.1,1.7*3D
$GPRMC,211447.000,A,3748.7407,N,12217.9150,W,1.86,195.45,091211,,,A*76
$GPVTG,195.45,T,,M,1.86,N,3.4,K,A*09
$GPGGA,211448.000,3748.7403,N,12217.9159,W,2,07,1.1,1.3,M,-25.1,M,1.8,0000*45
$GPGSA,A,3,16,26,15,21,06,18,22,,,,,,2.0,1.1,1.7*3D
$GPRMC,211448.000,A,3748.7403,N,12217.9159,W,1.63,199.34,091211,,,D*70
$GPVTG,199.34,T,,M,1.63,N,3.0,K,D*09
$GPGGA,211449.000,3748.7396,N,12217.9162,W,2,07,1.1,1.4,M,-25.1,M,1.8,0000*40
$GPGSA,A,3,16,26,15,21,06,18,22,,,,,,2.0,1.1,1.7*3D
$GPRMC,211449.000,A,3748.7396,N,12217.9162,W,1.83,179.11,091211,,,D*75
$GPVTG,179.11,T,,M,1.83,N,3.4,K,D*0A
$GPGGA,211450.000,3748.7389,N,12217.9164,W,2,07,1.1,1.2,M,-25.1,M,1.8,0000*46
$GPGSA,A,3,16,26,15,21,06,18,22,,,,,,2.0,1.1,1.7*3D
$GPGSV,3,1,11,18,67,223,34,21,67,334,29,29,51,139,28,15,39,095,23*77
$GPGSV,3,2,11,16,24,301,32,22,23,226,34,26,22,055,23,06,21,313,26*7F
$GPGSV,3,3,11,03,08,316,19,05,04,047,22,48,44,197,36*4A
$GPVTG,179.86,T,,M,1.87,N,3.5,K,D*01
$GPGGA,211451.000,3748.7385,N,12217.9169,W,2,07,1.1,1.4,M,-25.1,M,1.8,0000*40
$GPGSA,A,3,16,26,15,21,06,18,22,,,,,,2.0,1.1,1.7*3D
$GPRMC,211451.000,A,3748.7385,N,12217.9169,W,1.64,181.11,091211,,,D*7B
$GPVTG,181.11,T,,M,1.64,N,3.0,K,D*00
$GPGGA,211452.000,3748.7379,N,12217.9171,W,2,07,1.1,1.1,M,-25.1,M,2.8,0000*4F
$GPGSA,A,3,16,26,15,21,06,18,22,,,,,,2.0,1.1,1.7*3D
$GPRMC,211452.000,A,3748.7379,N,12217.9171,W,1.71,184.61,091211,,,D*74
$GPVTG,184.61,T,,M,1.71,N,3.2,K,D*04
$GPGGA,211453.000,3748.7373,N,12217.9173,W,2,07,1.1,0.4,M,-25.1,M,1.8,0000*41
$GPGSA,A,3,16,26,15,21,06,18,22,,,,,,2.0,1.1,1.7*3D
$GPRMC,211453.000,A,3748.7373,N,12217.9173,W,1.82,184.80,091211,,,D*7E
$GPVTG,184.80,T,,M,1.82,N,3.4,K,D*01
$GPGGA,211454.000,3748.7367,N,12217.9177,W,2,07,1.1,0.0,M,-25.1,M,1.8,0000*43
$GPGSA,A,3,16,26,15,21,06,18,22,,,,,,2.0,1.1,1.7*3D
$GPRMC,211454.000,A,3748.7367,N,12217.9177,W,1.95,186.45,091211,,,D*75
$GPVTG,186.45,T,,M,1.95,N,3.6,K,D*0E
$GPGGA,211455.000,3748.7360,N,12217.9178,W,2,07,1.1,-0.3,M,-25.1,M,1.8,0000*64
$GPGSA,A,3,16,26,15,21,06,18,22,,,,,,2.0,1.1,1.7*3D
$GPGSV,3,1,11,18,67,223,29,21,67,334,29,29,51,139,27,15,39,095,24*73
$GPGSV,3,2,11,16,24,301,32,22,23,226,35,26,22,055,24,06,21,313,27*78
$GPGSV,3,3,11,03,08,316,14,05,04,047,21,48,44,197,35*47
$GPRMC,211455.000,A,3748.7360,N,12217.9178,W,1.85,177.81,091211,,,D*7B
$GPVTG,177.81,T,,M,1.85,N,3.4,K,D*0B
$GPGGA,211456.000,3748.7353,N,12217.9181,W,2,07,1.1,-0.2,M,-25.1,M,2.8,0000*63
$GPGSA,A,3,16,26,15,21,06,18,22,,,,,,2.0,1.1,1.7*3D
$GPRMC,211456.000,A,3748.7353,N,12217.9181,W,1.67,181.40,091211,,,D*76
$GPVTG,181.40,T,,M,1.67,N,3.1,K,D*06
$GPGGA,211457.000,3748.7347,N,12217.9185,W,2,07,1.1,-0.4,M,-25.1,M,3.8,0000*64
$GPGSA,A,3,16,26,15,21,06,18,22,,,,,,2.0,1.1,1.7*3D
$GPRMC,211457.000,A,3748.7347,N,12217.9185,W,1.72,177.41,091211,,,D*7A
$GPVTG,177.41,T,,M,1.72,N,3.2,K,D*09
$GPGGA,211458.000,3748.7339,N,12217.9192,W,2,07,1.1,0.1,M,-25.1,M,1.8,0000*4E
$GPGSA,A,3,16,26,15,21,06,18,22,,,,,,2.0,1.1,1.7*3D
$GPRMC,211458.000,A,3748.7339,N,12217.9192,W,1.85,178.14,091211,,,D*7D
$GPVTG,178.14,T,,M,1.85,N,3.4,K,D*08
$GPGGA,211459.000,3748.7331,N,12217.9197,W,2,07,1.1,0.4,M,-25.1,M,1.8,0000*47
$GPGSA,A,3,16,26,15,21,06,18,22,,,,,,2.0,1.1,1.7*3D
$GPRMC,211459.000,A,3748.7331,N,12217.9197,W,2.11,170.34,091211,,,D*75
$GPVTG,170.34,T,,M,2.11,N,3.9,K,D*01
$GPGGA,211500.000,3748.7324,N,12217.9202,W,2,07,1.1,0.7,M,-25.1,M,1.8,0000*42
$GPGSA,A,3,16,26,15,21,06,18,22,,,,,,2.0,1.1,1.7*3D
$GPGSV,3,1,11,18,67,223,32,21,67,334,27,29,51,139,26,15,39,095,23*71
$GPGSV,3,2,11,16,24,301,33,22,23,226,40,26,22,055,24,06,21,313,32*7F
$GPGSV,3,3,11,03,08,316,14,05,04,047,22,48,44,197,39*48
$GPRMC,211500.000,A,3748.7324,N,12217.9202,W,1.91,178.44,091211,,,D*77
$GPVTG,178.44,T,,M,1.91,N,3.5,K,D*09
$GPGGA,211501.000,3748.7318,N,12217.9207,W,2,07,1.1,0.9,M,-25.1,M,1.8,0000*47
$GPGSA,A,3,16,26,15,21,06,18,22,,,,,,2.0,1.1,1.7*3D
$GPRMC,211501.000,A,3748.7318,N,12217.9207,W,1.55,195.49,091211,,,D*7A
$GPVTG,195.49,T,,M,1.55,N,2.9,K,D*02
$GPGGA,211502.000,3748.7312,N,12217.9213,W,2,07,1.1,0.8,M,-25.1,M,1.8,0000*4A
$GPGSA,A,3,16,26,15,21,06,18,22,,,,,,2.0,1.1,1.7*3D
$GPRMC,211502.000,A,3748.7312,N,12217.9213,W,1.77,189.31,091211,,,D*74
$GPVTG,189.31,T,,M,1.77,N,3.3,K,D*0B
$GPGGA,211503.000,3748.7307,N,12217.9217,W,2,07,1.1,0.7,M,-25.1,M,2.8,0000*47
$GPGSA,A,3,16,26,15,21,06,18,22,,,,,,2.0,1.1,1.7*3D
$GPRMC,211503.000,A,3748.7307,N,12217.9217,W,1.49,193.54,091211,,,D*70
$GPVTG,193.54,T,,M,1.49,N,2.8,K,D*04
$GPGGA,211504.000,3748.7301,N,12217.9223,W,2,07,1.1,0.9,M,-25.1,M,3.8,0000*4E
$GPGSA,A,3,16,26,15,21,06,18,22,,,,,,2.0,1.1,1.7*3D
$GPRMC,211504.000,A,3748.7301,N,12217.9223,W,2.08,194.60,091211,,,D*70
$GPVTG,194.60,T,,M,2.08,N,3.8,K,D*03
$GPGGA,211505.000,3748.7294,N,12217.9232,W,2,07,1.1,1.5,M,-25.1,M,4.8,0000*48
$GPGSA,A,3,16,26,15,21,06,18,22,,,,,,2.0,1.1,1.7*3D
$GPGSV,3,1,11,18,67,223,33,21,67,334,28,29,51,139,26,15,39,095,23*7F
$GPGSV,3,2,11,16,24,301,32,22,23,226,39,26,22,055,23,06,21,313,26*72
$GPGSV,3,3,11,03,08,316,15,05,04,047,22,48,44,197,36*46
$GPRMC,211505.000,A,3748.7294,N,12217.9232,W,2.34,204.55,091211,,,D*7F
$GPVTG,204.55,T,,M,2.34,N,4.3,K,D*0C
$GPGGA,211506.000,3748.7287,N,12217.9240,W,2,07,1.1,1.9,M,-25.1,M,1.8,0000*45
$GPGSA,A,3,16,26,15,21,06,18,22,,,,,,2.0,1.1,1.7*3D
$GPRMC,211506.000,A,3748.7287,N,12217.9240,W,1.72,203.40,091211,,,D*79
$GPVTG,203.40,T,,M,1.72,N,3.2,K,D*08
$GPGGA,211507.000,3748.7282,N,12217.9243,W,2,07,1.1,1.6,M,-25.1,M,1.8,0000*4D
$GPGSA,A,3,16,26,15,21,06,18,22,,,,,,2.0,1.1,1.7*3D
$GPRMC,211507.000,A,3748.7282,N,12217.9243,W,1.55,190.00,091211,,,D*76
$GPVTG,190.00,T,,M,1.55,N,2.9,K,D*0A
$GPGGA,211508.000,3748.7277,N,12217.9244,W,2,07,1.1,0.7,M,-25.1,M,1.8,0000*4F
$GPGSA,A,3,16,26,15,21,06,18,22,,,,,,2.0,1.1,1.7*3D
$GPRMC,211508.000,A,3748.7277,N,12217.9244,W,1.49,188.28,091211,,,D*7A
$GPVTG,188.28,T,,M,1.49,N,2.8,K,D*05
$GPGGA,211509.000,3748.7273,N,12217.9249,W,2,07,1.1,0.9,M,-25.1,M,2.8,0000*4A
$GPGSA,A,3,16,26,15,21,06,18,22,,,,,,2.0,1.1,1.7*3D
$GPRMC,211509.000,A,3748.7273,N,12217.9249,W,1.55,184.76,091211,,,D*78
$GPVTG,184.76,T,,M,1.55,N,2.9,K,D*0E
$GPGGA,211510.000,3748.7268,N,12217.9257,W,2,07,1.1,1.8,M,-25.1,M,3.8,0000*46
$GPGSA,A,3,16,26,15,21,06,18,22,,,,,,2.0,1.1,1.7*3D
$GPGSV,3,1,11,18,67,223,33,21,67,334,28,29,51,139,26,15,39,095,24*78
$GPGSV,3,2,11,16,24,301,32,22,23,226,31,26,22,055,24,06,21,313,26*7D
$GPGSV,3,3,11,03,08,316,15,05,04,047,22,48,44,197,36*46
$GPRMC,211510.000,A,3748.7268,N,12217.9257,W,1.49,187.75,091211,,,D*78
$GPGGA,211511.000,3748.7263,N,12217.9265,W,2,07,1.1,2.4,M,-25.1,M,4.8,0000*45
$GPGSA,A,3,16,26,15,21,06,18,22,,,,,,2.0,1.1,1.7*3D
$GPRMC,211511.000,A,3748.7263,N,12217.9265,W,1.73,188.50,091211,,,D*72
$GPVTG,188.50,T,,M,1.73,N,3.2,K,D*08
$GPGGA,211512.000,3748.7259,N,12217.9269,W,2,07,1.1,2.3,M,-25.1,M,1.8,0000*41
$GPGSA,A,3,16,26,15,21,06,18,22,,,,,,2.0,1.1,1.7*3D
$GPRMC,211512.000,A,3748.7259,N,12217.9269,W,1.60,196.23,091211,,,D*7D
$GPVTG,196.23,T,,M,1.60,N,3.0,K,D*03
$GPGGA,211513.000,3748.7257,N,12217.9276,W,2,07,1.1,2.4,M,-25.1,M,1.8,0000*47
$GPGSA,A,3,16,26,15,21,06,18,22,,,,,,2.0,1.1,1.7*3D
$GPRMC,211513.000,A,3748.7257,N,12217.9276,W,1.35,195.12,091211,,,D*7D
$GPVTG,195.12,T,,M,1.35,N,2.5,K,D*06
$GPGGA,211514.000,3748.7253,N,12217.9282,W,2,07,1.1,2.5,M,-25.1,M,1.8,0000*4E
$GPGSA,A,3,16,26,15,21,06,18,22,,,,,,2.0,1.1,1.7*3D
$GPRMC,211514.000,A,3748.7253,N,12217.9282,W,1.96,206.00,091211,,,D*76
$GPVTG,206.00,T,,M,1.96,N,3.6,K,D*07
$GPGGA,211515.000,3748.7248,N,12217.9287,W,2,07,1.1,2.3,M,-25.1,M,2.8,0000*45
$GPGSA,A,3,16,26,15,21,06,18,22,,,,,,2.0,1.1,1.7*3D
$GPGSV,3,1,11,18,67,223,32,21,67,334,28,29,51,139,29,15,39,095,24*76
$GPGSV,3,2,11,16,24,301,32,22,23,226,35,26,22,055,23,06,21,313,26*7E
$GPGSV,3,3,11,03,08,316,15,05,04,047,21,48,44,197,38*4B
