$ADVER,3080,2.3
$GPRMC,215334.481,A,3748.7984,N,12217.8598,W,0.07,158.74,310112,,,A*7A
$GPGGA,215335.481,3748.8001,N,12217.8585,W,1,04,2.4,5.5,M,-25.1,M,,0000*6F
$GPGSA,A,3,11,22,14,31,,,,,,,,,4.8,2.4,4.1*3A
$GPRMC,215335.481,A,3748.8001,N,12217.8585,W,0.49,236.68,310112,,,A*70
$GPVTG,236.68,T,,M,0.49,N,0.9,K,A*00
$GPGGA,215336.481,3748.7986,N,12217.8605,W,1,04,2.4,9.3,M,-25.1,M,,0000*64
$GPGSA,A,3,11,22,14,31,,,,,,,,,4.8,2.4,4.1*3A
$GPGSV,3,1,11,14,76,037,36,22,51,067,42,11,37,302,32,31,26,160,34*7F
$GPGSV,3,2,11,24,46,310,,19,33,248,32,01,21,315,,03,14,214,*7D
$GPGSV,3,3,11,18,12,087,,06,12,204,,09,04,031,*40
$GPRMC,215336.481,A,3748.7986,N,12217.8605,W,0.30,81.99,310112,,,A*4F
$GPVTG,81.99,T,,M,0.30,N,0.5,K,A*32
$GPGGA,215337.000,3748.7992,N,12217.8612,W,1,04,2.4,2.3,M,-25.1,M,,0000*60
$GPGSA,A,3,11,22,14,31,,,,,,,,,4.8,2.4,4.1*3A
$GPRMC,215337.000,A,3748.7992,N,12217.8612,W,0.04,325.10,310112,,,A*7B
$GPVTG,325.10,T,,M,0.04,N,0.1,K,A*0D
$GPGGA,215338.000,3748.7987,N,12217.8618,W,1,04,2.4,5.4,M,-25.1,M,,0000*61
$GPGSA,A,3,11,22,14,31,,,,,,,,,4.8,2.4,4.1*3A
$GPRMC,215338.000,A,3748.7987,N,12217.8618,W,0.03,290.59,310112,,,A*7F
$GPVTG,290.59,T,,M,0.03,N,0.1,K,A*08
$GPGGA,215339.000,3748.7990,N,12217.8623,W,1,04,2.4,5.7,M,-25.1,M,,0000*6D
$GPGSA,A,3,11,22,14,31,,,,,,,,,4.8,2.4,4.1*3A
$GPRMC,215339.000,A,3748.7990,N,12217.8623,W,0.03,337.40,310112,,,A*74
$GPVTG,337.40,T,,M,0.03,N,0.1,K,A*0C
$GPGGA,215340.000,3748.7995,N,12217.8627,W,1,04,2.4,2.4,M,-25.1,M,,0000*66
$GPGSA,A,3,11,22,14,31,,,,,,,,,4.8,2.4,4.2*39
$GPRMC,215340.000,A,3748.7995,N,12217.8627,W,0.06,297.65,310112,,,A*72
$GPVTG,297.65,T,,M,0.06,N,0.1,K,A*05
$GPGGA,215341.000,3748.7994,N,12217.8624,W,1,04,2.4,3.0,M,-25.1,M,,0000*60
$GPGSA,A,3,11,22,14,31,,,,,,,,,4.8,2.4,4.2*39
$GPGSV,3,1,11,14,76,037,37,22,51,067,42,11,37,302,31,31,26,160,35*7C
$GPGSV,3,2,11,24,46,310,,19,33,248,34,01,21,315,27,03,14,214,26*7A
$GPGSV,3,3,11,18,12,087,,06,12,204,,09,04,031,*40
$GPRMC,215341.000,A,3748.7994,N,12217.8624,W,0.03,58.87,310112,,,A*49
$GPVTG,58.87,T,,M,0.03,N,0.1,K,A*3D
$GPGGA,215342.000,3748.7997,N,12217.8624,W,1,04,2.4,1.7,M,-25.1,M,,0000*65
$GPGSA,A,3,11,22,14,31,,,,,,,,,4.8,2.4,4.2*39
$GPRMC,215342.000,A,3748.7997,N,12217.8624,W,0.05,342.92,310112,,,A*73
$GPVTG,342.92,T,,M,0.05,N,0.1,K,A*07
$GPGGA,215343.000,3748.7997,N,12217.8620,W,1,04,2.4,2.3,M,-25.1,M,,0000*67
$GPGSA,A,3,11,22,14,31,,,,,,,,,4.8,2.4,4.2*39
$GPRMC,215343.000,A,3748.7997,N,12217.8620,W,0.03,32.80,310112,,,A*47
$GPVTG,32.80,T,,M,0.03,N,0.1,K,A*36
$GPGGA,215344.000,3748.7996,N,12217.8619,W,1,04,2.4,2.8,M,-25.1,M,,0000*60
$GPGSA,A,3,11,22,14,31,,,,,,,,,4.8,2.4,4.2*39
$GPRMC,215344.000,A,3748.7996,N,12217.8619,W,0.03,33.16,310112,,,A*45
$GPVTG,33.16,T,,M,0.03,N,0.1,K,A*38
$GPGGA,215345.000,3748.7996,N,12217.8615,W,1,04,2.4,3.3,M,-25.1,M,,0000*67
$GPGSA,A,3,11,22,14,31,,,,,,,,,4.8,2.4,4.2*39
$GPRMC,215345.000,A,3748.7996,N,12217.8615,W,0.15,281.34,310112,,,A*74
$GPVTG,281.34,T,,M,0.15,N,0.3,K,A*06
$GPGGA,215346.000,3748.7999,N,12217.8614,W,1,04,2.4,1.8,M,-25.1,M,,0000*63
$GPGSA,A,3,11,22,14,31,,,,,,,,,4.8,2.4,4.2*39
$GPGSV,3,1,12,14,76,037,37,22,51,067,41,11,37,302,24,31,26,160,35*78
$GPGSV,3,2,12,24,46,310,,19,33,248,29,01,21,315,27,03,14,214,25*76
$GPGSV,3,3,12,18,12,087,,06,12,204,,09,04,031,,48,00,000,35*79
$GPVTG,86.83,T,,M,0.12,N,0.2,K,A*39
$GPGGA,215347.000,3748.8001,N,12217.8615,W,1,04,2.4,0.5,M,-25.1,M,,0000*68
$GPGSA,A,3,11,22,14,31,,,,,,,,,4.8,2.4,4.2*39
$GPRMC,215347.000,A,3748.8001,N,12217.8615,W,0.30,91.99,310112,,,A*4D
$GPVTG,91.99,T,,M,0.30,N,0.6,K,A*30
$GPGGA,215348.000,3748.8002,N,12217.8614,W,1,04,2.4,-0.3,M,-25.1,M,,0000*4E
$GPGSA,A,3,11,22,14,31,,,,,,,,,4.8,2.4,4.2*39
$GPRMC,215348.000,A,3748.8002,N,12217.8614,W,0.19,30.17,310112,,,A*46
$GPVTG,30.17,T,,M,0.19,N,0.4,K,A*34
$GPGGA,215349.000,3748.8004,N,12217.8614,W,1,04,2.4,-1.6,M,-25.1,M,,0000*4D
$GPGSA,A,3,11,22,14,31,,,,,,,,,4.8,2.4,4.2*39
$GPRMC,215349.000,A,3748.8004,N,12217.8614,W,0.61,268.11,310112,,,A*77
$GPVTG,268.11,T,,M,0.61,N,1.1,K,A*06
$GPGGA,215350.000,3748.8002,N,12217.8608,W,1,04,2.4,-1.2,M,-25.1,M,,0000*4A
$GPGSA,A,3,11,22,14,31,,,,,,,,,4.8,2.4,4.2*39
$GPRMC,215350.000,A,3748.8002,N,12217.8608,W,0.18,60.96,310112,,,A*4F
$GPVTG,60.96,T,,M,0.18,N,0.3,K,A*3E
$GPGGA,215351.000,3748.8000,N,12217.8600,W,1,04,2.4,-0.4,M,-25.1,M,,0000*46
$GPGSA,A,3,11,22,14,31,,,,,,,,,4.8,2.4,4.2*39
$GPGSV,3,1,11,14,76,037,23,22,51,067,33,24,46,310,,11,37,302,33*7C
$GPGSV,3,2,11,19,33,248,29,31,26,159,35,01,21,315,34,03,14,214,32*7A
$GPGSV,3,3,11,18,12,088,,06,12,203,,09,04,031,31*4A
$GPRMC,215351.000,A,3748.8000,N,12217.8600,W,0.24,76.28,310112,,,A*49
$GPVTG,76.28,T,,M,0.24,N,0.4,K,A*34
$GPGGA,215352.000,3748.7999,N,12217.8594,W,1,05,1.8,-1.8,M,-25.1,M,,0000*4E
$GPGSA,A,3,11,22,14,31,19,,,,,,,,4.3,1.8,3.9*39
$GPRMC,215352.000,A,3748.7999,N,12217.8594,W,0.09,173.46,310112,,,A*71
$GPVTG,173.46,T,,M,0.09,N,0.2,K,A*01
$GPGGA,215353.000,3748.7997,N,12217.8591,W,1,05,1.8,-2.6,M,-25.1,M,,0000*49
$GPGSA,A,3,11,22,14,31,19,,,,,,,,4.3,1.8,3.9*39
$GPRMC,215353.000,A,3748.7997,N,12217.8591,W,0.08,50.24,310112,,,A*4E
$GPVTG,50.24,T,,M,0.08,N,0.1,K,A*37
$GPGGA,215354.000,3748.7996,N,12217.8587,W,1,05,1.8,-4.4,M,-25.1,M,,0000*4C
$GPGSA,A,3,11,22,14,31,19,,,,,,,,4.3,1.8,3.9*39
$GPRMC,215354.000,A,3748.7996,N,12217.8587,W,0.06,354.82,310112,,,A*7A
$GPVTG,354.82,T,,M,0.06,N,0.1,K,A*02
$GPGGA,215355.000,3748.7995,N,12217.8585,W,1,05,1.8,-4.5,M,-25.1,M,,0000*4D
$GPGSA,A,3,11,22,14,31,19,,,,,,,,4.3,1.8,3.9*39
$GPRMC,215355.000,A,3748.7995,N,12217.8585,W,0.06,31.53,310112,,,A*46
$GPVTG,31.53,T,,M,0.06,N,0.1,K,A*3E
$GPGGA,215356.000,3748.7993,N,12217.8583,W,1,05,1.8,-4.1,M,-25.1,M,,0000*4A
$GPGSA,A,3,11,22,14,31,19,,,,,,,,4.3,1.8,3.9*39
$GPGSV,3,1,11,14,76,037,24,22,51,067,38,24,46,310,,11,37,302,33*70
$GPGSV,3,2,11,19,33,247,31,31,26,159,36,01,21,315,32,03,14,214,34*7F
$GPGSV,3,3,11,18,12,088,,06,12,203,33,09,04,031,28*42
$GPRMC,215356.000,A,3748.7993,N,12217.8583,W,0.03,260.75,310112,,,A*72
$GPVTG,260.75,T,,M,0.03,N,0.1,K,A*09
$GPGGA,215357.000,3748.7990,N,12217.8583,W,1,05,1.8,-2.4,M,-25.1,M,,0000*4B
$GPGSA,A,3,11,22,14,31,19,,,,,,,,4.3,1.8,3.9*39
$GPRMC,215357.000,A,3748.7990,N,12217.8583,W,0.03,339.76,310112,,,A*7E
$GPVTG,339.76,T,,M,0.03,N,0.1,K,A*07
$GPGGA,215358.000,3748.7990,N,12217.8583,W,1,05,1.8,-1.2,M,-25.1,M,,0000*41
$GPGSA,A,3,11,22,14,31,19,,,,,,,,4.3,1.8,3.9*39
$GPRMC,215358.000,A,3748.7990,N,12217.8583,W,0.72,332.46,310112,,,A*7F
$GPVTG,332.46,T,,M,0.72,N,1.3,K,A*0A
$GPGGA,215359.000,3748.7993,N,12217.8582,W,1,05,1.8,-2.3,M,-25.1,M,,0000*40
$GPGSA,A,3,11,22,14,31,19,,,,,,,,4.3,1.8,3.9*39
$GPRMC,215359.000,A,3748.7993,N,12217.8582,W,0.33,128.46,310112,,,A*70
$GPVTG,128.46,T,,M,0.33,N,0.6,K,A*02
$GPGGA,215400.000,3748.7995,N,12217.8581,W,1,05,1.8,-2.0,M,-25.1,M,,0000*4D
$GPGSA,A,3,11,22,14,31,19,,,,,,,,4.3,1.8,3.9*39
$GPRMC,215400.000,A,3748.7995,N,12217.8581,W,0.30,51.79,310112,,,A*4E
$GPVTG,51.79,T,,M,0.30,N,0.6,K,A*32
$GPGGA,215401.000,3748.7997,N,12217.8581,W,1,05,1.8,-3.3,M,-25.1,M,,0000*4C
$GPGSA,A,3,11,22,14,31,19,,,,,,,,4.3,1.8,3.9*39
$GPGSV,3,1,11,14,76,037,25,22,51,067,33,24,46,310,,11,37,302,20*78
$GPGSV,3,2,11,19,33,247,23,31,26,159,26,01,21,315,26,03,14,214,31*7D
$GPGSV,3,3,11,18,12,088,,06,12,203,25,09,04,031,26*4B
$GPRMC,215401.000,A,3748.7997,N,12217.8581,W,0.50,166.97,310112,,,A*7E
$GPGGA,215402.000,3748.7999,N,12217.8580,W,1,05,1.8,-4.3,M,-25.1,M,,0000*47
$GPGSA,A,3,11,22,14,31,19,,,,,,,,4.3,1.8,3.9*39
$GPRMC,215402.000,A,3748.7999,N,12217.8580,W,0.28,161.20,310112,,,A*76
$GPVTG,161.20,T,,M,0.28,N,0.5,K,A*06
$GPGGA,215403.000,3748.8001,N,12217.8579,W,1,05,1.8,-6.0,M,-25.1,M,,0000*46
$GPGSA,A,3,11,22,14,31,19,,,,,,,,4.3,1.8,3.9*39
$GPRMC,215403.000,A,3748.8001,N,12217.8579,W,0.39,40.68,310112,,,A*48
$GPVTG,40.68,T,,M,0.39,N,0.7,K,A*3A
$GPGGA,215404.000,3748.8007,N,12217.8578,W,1,05,1.8,-8.3,M,-25.1,M,,0000*4B
$GPGSA,A,3,11,22,14,31,19,,,,,,,,4.3,1.8,3.9*39
$GPRMC,215404.000,A,3748.8007,N,12217.8578,W,0.48,44.21,310112,,,A*47
$GPVTG,44.21,T,,M,0.48,N,0.9,K,A*3B
$GPGGA,215405.000,3748.8013,N,12217.8578,W,1,05,1.8,-9.5,M,-25.1,M,,0000*48
$GPGSA,A,3,11,22,14,31,19,,,,,,,,4.3,1.8,3.9*39
$GPRMC,215405.000,A,3748.8013,N,12217.8578,W,0.36,323.38,310112,,,A*70
$GPVTG,323.38,T,,M,0.36,N,0.7,K,A*06
$GPGGA,215406.000,3748.8018,N,12217.8577,W,1,05,1.8,-9.3,M,-25.1,M,,0000*49
$GPGSA,A,3,11,22,14,31,19,,,,,,,,4.3,1.8,3.9*39
$GPGSV,3,1,11,14,76,037,25,22,51,067,33,24,46,310,,11,37,302,34*7D
$GPGSV,3,2,11,19,33,247,26,31,26,159,27,01,21,315,26,03,14,214,23*7A
$GPGSV,3,3,11,18,12,088,,06,12,203,21,09,04,031,20*49
$GPRMC,215406.000,A,3748.8018,N,12217.8577,W,0.03,270.41,310112,,,A*78
$GPVTG,270.41,T,,M,0.03,N,0.1,K,A*0F
$GPGGA,215407.000,3748.8019,N,12217.8577,W,1,05,1.8,-9.6,M,-25.1,M,,0000*4C
$GPGSA,A,3,11,22,14,31,19,,,,,,,,4.3,1.8,3.9*39
$GPRMC,215407.000,A,3748.8019,N,12217.8577,W,0.28,42.75,310112,,,A*45
$GPVTG,42.75,T,,M,0.28,N,0.5,K,A*36
$GPGGA,215408.000,3748.8017,N,12217.8581,W,1,05,1.8,-7.7,M,-25.1,M,,0000*4B
$GPGSA,A,3,11,22,14,31,19,,,,,,,,4.3,1.8,3.9*39
$GPRMC,215408.000,A,3748.8017,N,12217.8581,W,0.69,324.77,310112,,,A*79
$GPVTG,324.77,T,,M,0.69,N,1.3,K,A*05
$GPGGA,215409.000,3748.8016,N,12217.8584,W,1,05,1.8,-5.1,M,-25.1,M,,0000*4A
$GPGSA,A,3,11,22,14,31,19,,,,,,,,4.3,1.8,3.9*39
$GPRMC,215409.000,A,3748.8016,N,12217.8584,W,0.69,324.83,310112,,,A*77
$GPVTG,324.83,T,,M,0.69,N,1.3,K,A*0E
$GPGGA,215410.000,3748.8016,N,12217.8585,W,1,05,1.8,-5.4,M,-25.1,M,,0000*46
$GPGSA,A,3,11,22,14,31,19,,,,,,,,4.3,1.8,3.9*39
$GPRMC,215410.000,A,3748.8016,N,12217.8585,W,0.04,291.56,310112,,,A*72
$GPVTG,291.56,T,,M,0.04,N,0.1,K,A*01
$GPGGA,215411.000,3748.8016,N,12217.8584,W,1,05,1.8,-5.6,M,-25.1,M,,0000*44
$GPGSA,A,3,11,22,14,31,19,,,,,,,,4.3,1.8,3.9*39
$GPGSV,3,1,11,14,76,037,23,22,51,067,32,24,46,310,,11,37,302,31*7F
$GPGSV,3,2,11,19,33,247,24,31,26,159,31,01,21,315,28,03,14,214,29*7B
$GPGSV,3,3,11,18,12,088,,06,12,203,,09,04,031,23*49
$GPRMC,215411.000,A,3748.8016,N,12217.8584,W,0.06,358.70,310112,,,A*70
$GPVTG,358.70,T,,M,0.06,N,0.1,K,A*03
$GPGGA,215412.000,3748.8016,N,12217.8586,W,1,05,1.8,-5.1,M,-25.1,M,,0000*42
$GPGSA,A,3,11,22,14,31,19,,,,,,,,4.3,1.8,3.9*39
$GPRMC,215412.000,A,3748.8016,N,12217.8586,W,0.53,340.43,310112,,,A*78
$GPVTG,340.43,T,,M,0.53,N,1.0,K,A*0A
$GPGGA,215413.000,3748.8022,N,12217.8585,W,1,05,1.8,-7.7,M,-25.1,M,,0000*43
$GPGSA,A,3,11,22,14,31,19,,,,,,,,4.3,1.8,3.9*39
$GPRMC,215413.000,A,3748.8022,N,12217.8585,W,0.70,329.60,310112,,,A*72
$GPVTG,329.60,T,,M,0.70,N,1.3,K,A*06
$GPGGA,215414.000,3748.8025,N,12217.8587,W,1,05,1.8,-7.8,M,-25.1,M,,0000*4E
$GPGSA,A,3,11,22,14,31,19,,,,,,,,4.3,1.8,3.9*39
$GPRMC,215414.000,A,3748.8025,N,12217.8587,W,0.32,347.61,310112,,,A*7F
$GPVTG,347.61,T,,M,0.32,N,0.6,K,A*0D
$GPGGA,215415.000,3748.8029,N,12217.8588,W,1,05,1.8,-9.3,M,-25.1,M,,0000*49
$GPGSA,A,3,11,22,14,31,19,,,,,,,,4.3,1.8,3.9*39
$GPRMC,215415.000,A,3748.8029,N,12217.8588,W,0.23,344.31,310112,,,A*7B
$GPVTG,344.31,T,,M,0.23,N,0.4,K,A*09
$GPGGA,215416.000,3748.8031,N,12217.8590,W,1,05,1.8,-9.5,M,-25.1,M,,0000*4C
$GPGSA,A,3,11,22,14,31,19,,,,,,,,4.3,1.8,3.9*39
$GPGSV,3,1,12,14,76,037,27,22,51,067,27,24,46,310,,11,37,302,37*7A
$GPGSV,3,2,12,19,33,247,35,31,26,159,27,01,21,315,39,03,14,214,39*7E
$GPGSV,3,3,12,18,12,088,,06,12,203,,09,04,031,29,48,44,197,27*76
$GPRMC,215416.000,A,3748.8031,N,12217.8590,W,0.06,35.34,310112,,,A*4F
$GPVTG,35.34,T,,M,0.06,N,0.1,K,A*3B
$GPGGA,215417.000,3748.8032,N,12217.8592,W,1,05,1.8,-9.6,M,-25.1,M,,0000*4F
$GPGSA,A,3,11,22,14,31,19,,,,,,,,4.3,1.8,3.9*39
$GPRMC,215417.000,A,3748.8032,N,12217.8592,W,0.32,352.75,310112,,,A*7F
$GPVTG,352.75,T,,M,0.32,N,0.6,K,A*0C
$GPGGA,215418.000,3748.8031,N,12217.8595,W,1,05,1.8,-7.4,M,-25.1,M,,0000*48
$GPGSA,A,3,11,22,14,31,19,,,,,,,,4.3,1.8,3.9*39
$GPRMC,215418.000,A,3748.8031,N,12217.8595,W,0.08,257.60,310112,,,A*7D
$GPVTG,257.60,T,,M,0.08,N,0.1,K,A*02
$GPGGA,215419.000,3748.8028,N,12217.8598,W,1,04,2.6,-5.2,M,-25.1,M,,0000*44
$GPGSA,A,3,11,14,31,19,,,,,,,,,5.2,2.6,4.5*3F
$GPRMC,215419.000,A,3748.8028,N,12217.8598,W,0.11,187.22,310112,,,A*79
$GPVTG,187.22,T,,M,0.11,N,0.2,K,A*01
$GPGGA,215420.000,3748.8028,N,12217.8597,W,1,05,1.8,-4.6,M,-25.1,M,,0000*48
$GPGSA,A,3,11,22,14,31,19,,,,,,,,4.3,1.8,3.9*39
$GPRMC,215420.000,A,3748.8028,N,12217.8597,W,0.16,339.73,310112,,,A*78
$GPVTG,339.73,T,,M,0.16,N,0.3,K,A*04
$GPGGA,215421.000,3748.8028,N,12217.8598,W,1,05,1.8,-2.9,M,-25.1,M,,0000*4F
$GPGSA,A,3,11,22,14,31,19,,,,,,,,4.3,1.8,3.9*39
$GPGSV,3,1,12,14,76,037,20,22,51,067,31,24,46,310,,11,37,302,26*7A
$GPGSV,3,2,12,19,33,247,24,31,26,159,30,01,21,315,17,03,14,214,25*79
$GPGSV,3,3,12,18,12,088,,06,12,203,,09,04,031,24,48,44,197,33*7E
$GPRMC,215421.000,A,3748.8028,N,12217.8598,W,0.40,288.55,310112,,,A*7A
$GPVTG,288.55,T,,M,0.40,N,0.7,K,A*0C
$GPGGA,215422.000,3748.8027,N,12217.8600,W,1,05,1.8,-1.9,M,-25.1,M,,0000*42
$GPGSA,A,3,11,22,14,31,19,,,,,,,,4.3,1.8,3.9*39
$GPRMC,215422.000,A,3748.8027,N,12217.8600,W,0.38,220.02,310112,,,A*7B
$GPVTG,220.02,T,,M,0.38,N,0.7,K,A*03
$GPGGA,215423.000,3748.8025,N,12217.8599,W,1,05,1.8,-0.7,M,-25.1,M,,0000*4D
$GPGSA,A,3,11,22,14,31,19,,,,,,,,4.3,1.8,3.9*39
$GPRMC,215423.000,A,3748.8025,N,12217.8599,W,0.24,327.61,310112,,,A*75
$GPVTG,327.61,T,,M,0.24,N,0.4,K,A*0E
$GPGGA,215424.000,3748.8026,N,12217.8602,W,1,05,1.8,-0.3,M,-25.1,M,,0000*4C
$GPGSA,A,3,11,22,14,31,19,,,,,,,,4.3,1.8,3.9*39
$GPRMC,215424.000,A,3748.8026,N,12217.8602,W,1.50,325.25,310112,,,A*70
$GPVTG,325.25,T,,M,1.50,N,2.8,K,A*00
$GPGGA,215425.000,3748.8030,N,12217.8600,W,1,05,1.8,0.3,M,-25.1,M,,0000*65
$GPGSA,A,3,11,22,14,31,19,,,,,,,,4.3,1.8,3.9*39
$GPRMC,215425.000,A,3748.8030,N,12217.8600,W,0.07,33.37,310112,,,A*40
$GPVTG,33.37,T,,M,0.07,N,0.1,K,A*3F
$GPGGA,215426.000,3748.8028,N,12217.8600,W,1,05,1.8,1.2,M,-25.1,M,,0000*6F
$GPGSA,A,3,11,22,14,31,19,,,,,,,,4.3,1.8,3.9*39
$GPGSV,3,1,11,14,76,037,33,22,51,067,37,24,46,310,,11,37,302,37*7D
$GPGSV,3,2,11,19,33,247,27,31,26,159,24,01,21,315,29,03,14,214,25*71
$GPGSV,3,3,11,18,12,088,26,06,12,203,,09,04,031,31*4E
$GPRMC,215426.000,A,3748.8028,N,12217.8600,W,0.41,181.86,310112,,,A*7A
$GPVTG,181.86,T,,M,0.41,N,0.8,K,A*06
$GPGGA,215427.000,3748.8026,N,12217.8601,W,1,05,1.8,2.2,M,-25.1,M,,0000*62
$GPGSA,A,3,11,22,14,31,19,,,,,,,,4.3,1.8,3.9*39
$GPRMC,215427.000,A,3748.8026,N,12217.8601,W,0.28,293.02,310112,,,A*77
$GPVTG,293.02,T,,M,0.28,N,0.5,K,A*08
$GPGGA,215428.000,3748.8026,N,12217.8602,W,1,05,1.8,2.8,M,-25.1,M,,0000*64
$GPGSA,A,3,11,22,14,31,19,,,,,,,,4.3,1.8,3.9*39
$GPRMC,215428.000,A,3748.8026,N,12217.8602,W,0.17,24.71,310112,,,A*4D
$GPVTG,24.71,T,,M,0.17,N,0.3,K,A*38
$GPGGA,215429.000,3748.8025,N,12217.8602,W,1,05,1.8,3.7,M,-25.1,M,,0000*68
$GPGSA,A,3,11,22,14,31,19,,,,,,,,4.3,1.8,3.9*39
$GPRMC,215429.000,A,3748.8025,N,12217.8602,W,0.27,20.17,310112,,,A*48
$GPVTG,20.17,T,,M,0.27,N,0.5,K,A*39
$GPGGA,215430.000,3748.8023,N,12217.8602,W,1,05,1.8,4.4,M,-25.1,M,,0000*62
$GPGSA,A,3,11,22,14,31,19,,,,,,,,4.3,1.8,3.9*39
$GPRMC,215430.000,A,3748.8023,N,12217.8602,W,0.37,203.54,310112,,,A*73
$GPVTG,203.54,T,,M,0.37,N,0.7,K,A*0E
$GPGGA,215431.000,3748.8021,N,12217.8603,W,1,05,1.8,4.9,M,-25.1,M,,0000*6D
$GPGSA,A,3,11,22,14,31,19,,,,,,,,4.3,1.8,3.9*39
$GPGSV,3,1,12,14,76,037,39,22,51,067,37,24,46,310,,11,37,302,40*74
$GPGSV,3,2,12,19,33,247,37,31,26,159,34,01,21,315,37,03,14,214,35*7C
$GPGSV,3,3,12,18,12,088,24,06,12,203,,09,04,031,19,48,44,197,37*72
$GPRMC,215431.000,A,3748.8021,N,12217.8603,W,0.67,255.84,310112,,,A*7A
$GPGGA,215432.000,3748.8020,N,12217.8605,W,1,05,1.8,4.9,M,-25.1,M,,0000*69
$GPGSA,A,3,11,22,14,31,19,,,,,,,,4.3,1.8,3.9*39
$GPRMC,215432.000,A,3748.8020,N,12217.8605,W,0.69,243.26,310112,,,A*7F
$GPVTG,243.26,T,,M,0.69,N,1.3,K,A*01
$GPGGA,215433.000,3748.8020,N,12217.8609,W,1,04,2.6,6.9,M,-25.1,M,,0000*6A
$GPGSA,A,3,11,14,31,19,,,,,,,,,5.2,2.6,4.5*3F
$GPRMC,215433.000,A,3748.8020,N,12217.8609,W,0.32,280.07,310112,,,A*70
$GPVTG,280.07,T,,M,0.32,N,0.6,K,A*07
$GPGGA,215434.000,3748.8018,N,12217.8610,W,1,05,1.8,7.4,M,-25.1,M,,0000*6E
$GPGSA,A,3,11,22,14,31,19,,,,,,,,4.3,1.8,3.9*39
$GPRMC,215434.000,A,3748.8018,N,12217.8610,W,0.75,257.19,310112,,,A*72
$GPVTG,257.19,T,,M,0.75,N,1.4,K,A*02
$GPGGA,215435.000,3748.8012,N,12217.8610,W,1,05,1.8,6.9,M,-25.1,M,,0000*69
$GPGSA,A,3,11,22,14,31,19,,,,,,,,4.3,1.8,3.9*39
$GPRMC,215435.000,A,3748.8012,N,12217.8610,W,0.44,199.54,310112,,,A*73
$GPVTG,199.54,T,,M,0.44,N,0.8,K,A*05
$GPGGA,215436.000,3748.8008,N,12217.8601,W,1,05,1.8,6.7,M,-25.1,M,,0000*6F
$GPGSA,A,3,11,22,14,31,19,,,,,,,,4.3,1.8,3.9*39
$GPGSV,3,1,11,14,76,037,26,22,51,067,38,24,46,310,,11,37,302,31*70
$GPGSV,3,2,11,19,33,247,30,31,26,159,41,01,21,315,25,03,14,214,39*75
$GPGSV,3,3,11,18,12,088,28,06,12,203,,09,04,031,28*48
$GPRMC,215436.000,A,3748.8008,N,12217.8601,W,1.86,75.81,310112,,,A*4F
$GPVTG,75.81,T,,M,1.86,N,3.4,K,A*3E
$GPGGA,215437.000,3748.8005,N,12217.8595,W,1,05,1.8,7.1,M,-25.1,M,,0000*6A
$GPGSA,A,3,11,22,14,31,19,,,,,,,,4.3,1.8,3.9*39
$GPRMC,215437.000,A,3748.8005,N,12217.8595,W,0.55,100.06,310112,,,A*7E
$GPVTG,100.06,T,,M,0.55,N,1.0,K,A*0B
$GPGGA,215438.000,3748.8003,N,12217.8590,W,1,05,1.8,6.9,M,-25.1,M,,0000*6F
$GPGSA,A,3,11,22,14,31,19,,,,,,,,4.3,1.8,3.9*39
$GPRMC,215438.000,A,3748.8003,N,12217.8590,W,0.92,84.54,310112,,,A*43
$GPVTG,84.54,T,,M,0.92,N,1.7,K,A*3D
$GPGGA,215439.000,3748.8000,N,12217.8586,W,1,05,1.8,6.7,M,-25.1,M,,0000*64
$GPGSA,A,3,11,22,14,31,19,,,,,,,,4.4,1.8,3.9*3E
$GPRMC,215439.000,A,3748.8000,N,12217.8586,W,1.06,140.84,310112,,,A*7E
$GPVTG,140.84,T,,M,1.06,N,2.0,K,A*01
$GPGGA,215440.000,3748.7998,N,12217.8578,W,1,05,1.8,5.7,M,-25.1,M,,0000*6F
$GPGSA,A,3,11,22,14,31,19,,,,,,,,4.4,1.8,3.9*3E
$GPRMC,215440.000,A,3748.7998,N,12217.8578,W,1.18,122.26,310112,,,A*75
$GPVTG,122.26,T,,M,1.18,N,2.2,K,A*00
$GPGGA,215441.000,3748.7991,N,12217.8570,W,1,05,1.8,6.5,M,-25.1,M,,0000*6E
$GPGSA,A,3,11,22,14,31,19,,,,,,,,4.4,1.8,4.0*30
$GPGSV,3,1,12,14,76,037,23,22,51,067,36,24,46,310,,11,37,302,24*7C
$GPGSV,3,2,12,19,33,247,32,31,26,159,43,01,21,315,25,03,14,214,31*7E
$GPGSV,3,3,12,18,12,088,,06,12,203,,09,04,031,26,51,43,156,39*74
$GPRMC,215441.000,A,3748.7991,N,12217.8570,W,1.46,132.09,310112,,,A*72
$GPVTG,132.09,T,,M,1.46,N,2.7,K,A*02
$GPGGA,215442.000,3748.7983,N,12217.8566,W,1,05,1.8,8.3,M,-25.1,M,,0000*61
$GPGSA,A,3,11,22,14,31,19,,,,,,,,4.4,1.8,4.0*30
$GPRMC,215442.000,A,3748.7983,N,12217.8566,W,2.61,131.55,310112,,,A*79
$GPVTG,131.55,T,,M,2.61,N,4.8,K,A*07
$GPGGA,215443.000,3748.7976,N,12217.8560,W,1,05,1.8,9.4,M,-25.1,M,,0000*6A
$GPGSA,A,3,11,22,14,31,19,,,,,,,,4.4,1.8,4.0*30
$GPRMC,215443.000,A,3748.7976,N,12217.8560,W,2.10,133.90,310112,,,A*79
$GPVTG,133.90,T,,M,2.10,N,3.9,K,A*0C
$GPGGA,215444.000,3748.7972,N,12217.8555,W,1,05,1.8,9.5,M,-25.1,M,,0000*6E
$GPGSA,A,3,11,22,14,31,19,,,,,,,,4.4,1.8,4.0*30
$GPRMC,215444.000,A,3748.7972,N,12217.8555,W,2.06,130.56,310112,,,A*72
$GPVTG,130.56,T,,M,2.06,N,3.8,K,A*03
$GPGGA,215445.000,3748.7971,N,12217.8550,W,1,05,1.8,8.4,M,-25.1,M,,0000*69
$GPGSA,A,3,11,22,14,31,19,,,,,,,,4.4,1.8,4.0*30
$GPRMC,215445.000,A,3748.7971,N,12217.8550,W,1.81,121.43,310112,,,A*7D
$GPVTG,121.43,T,,M,1.81,N,3.3,K,A*00
$GPGGA,215446.000,3748.7971,N,12217.8545,W,1,05,1.8,7.5,M,-25.1,M,,0000*60
$GPGSA,A,3,11,22,14,31,19,,,,,,,,4.4,1.8,4.0*30
$GPGSV,3,1,12,14,76,037,32,22,51,067,33,24,46,310,,11,37,302,29*74
$GPGSV,3,2,12,19,33,247,37,31,26,159,42,01,21,315,22,03,14,214,36*7A
$GPGSV,3,3,12,18,12,088,,06,12,203,,09,04,031,31,51,43,156,40*7C
$GPRMC,215446.000,A,3748.7971,N,12217.8545,W,1.67,119.63,310112,,,A*7B
$GPGGA,215447.000,3748.7970,N,12217.8541,W,1,05,1.8,6.5,M,-25.1,M,,0000*65
$GPGSA,A,3,11,22,14,31,19,,,,,,,,4.4,1.8,4.0*30
$GPRMC,215447.000,A,3748.7970,N,12217.8541,W,1.80,116.70,310112,,,A*7B
$GPVTG,116.70,T,,M,1.80,N,3.3,K,A*05
$GPGGA,215448.000,3748.7969,N,12217.8535,W,1,05,1.8,5.6,M,-25.1,M,,0000*61
$GPGSA,A,3,11,22,14,31,19,,,,,,,,4.4,1.8,4.0*30
$GPRMC,215448.000,A,3748.7969,N,12217.8535,W,2.04,114.86,310112,,,A*7B
$GPVTG,114.86,T,,M,2.04,N,3.8,K,A*0A
$GPGGA,215449.000,3748.7965,N,12217.8529,W,1,05,1.8,5.4,M,-25.1,M,,0000*63
$GPGSA,A,3,11,22,14,31,19,,,,,,,,4.4,1.8,4.0*30
$GPRMC,215449.000,A,3748.7965,N,12217.8529,W,1.94,123.47,310112,,,A*78
$GPVTG,123.47,T,,M,1.94,N,3.6,K,A*07
$GPGGA,215450.000,3748.7962,N,12217.8523,W,1,05,1.8,4.8,M,-25.1,M,,0000*6B
$GPGSA,A,3,11,22,14,31,19,,,,,,,,4.4,1.8,4.0*30
$GPRMC,215450.000,A,3748.7962,N,12217.8523,W,1.85,124.49,310112,,,A*74
$GPVTG,124.49,T,,M,1.85,N,3.4,K,A*0C
$GPGGA,215451.000,3748.7958,N,12217.8517,W,1,05,1.8,3.8,M,-25.1,M,,0000*63
$GPGSA,A,3,11,22,14,31,19,,,,,,,,4.4,1.8,4.0*30
$GPGSV,3,1,12,14,76,037,27,22,51,068,30,24,46,310,,11,38,301,29*70
$GPGSV,3,2,12,19,33,247,37,31,26,159,41,01,22,315,22,03,13,214,36*7D
$GPGSV,3,3,12,18,12,088,,06,12,203,38,09,03,031,26,51,43,156,38*79
$GPRMC,215451.000,A,3748.7958,N,12217.8517,W,2.30,135.53,310112,,,A*7D
$GPVTG,135.53,T,,M,2.30,N,4.3,K,A*0A
$GPGGA,215452.000,3748.7954,N,12217.8512,W,2,05,1.8,3.4,M,-25.1,M,,0000*66
$GPGSA,A,3,11,22,14,31,19,,,,,,,,4.4,1.8,4.0*30
$GPRMC,215452.000,A,3748.7954,N,12217.8512,W,2.05,127.02,310112,,,D*73
$GPVTG,127.02,T,,M,2.05,N,3.8,K,D*02
$GPGGA,215453.000,3748.7951,N,12217.8505,W,2,05,1.8,2.3,M,-25.1,M,2.8,0000*46
$GPGSA,A,3,11,22,14,31,19,,,,,,,,4.4,1.8,4.0*30
$GPRMC,215453.000,A,3748.7951,N,12217.8505,W,2.15,133.79,310112,,,D*79
$GPVTG,133.79,T,,M,2.15,N,4.0,K,D*05
$GPGGA,215454.000,3748.7946,N,12217.8499,W,2,05,1.8,2.2,M,-25.1,M,,0000*66
$GPGSA,A,3,11,22,14,31,19,,,,,,,,4.4,1.8,4.0*30
$GPRMC,215454.000,A,3748.7946,N,12217.8499,W,2.29,132.47,310112,,,D*7F
$GPVTG,132.47,T,,M,2.29,N,4.2,K,D*04
$GPGGA,215455.000,3748.7941,N,12217.8497,W,2,05,1.8,1.7,M,-25.1,M,2.8,0000*4C
$GPGSA,A,3,11,22,14,31,19,,,,,,,,4.4,1.8,4.0*30
$GPRMC,215455.000,A,3748.7941,N,12217.8497,W,2.23,121.04,310112,,,D*78
$GPVTG,121.04,T,,M,2.23,N,4.1,K,D*08
$GPGGA,215456.000,3748.7939,N,12217.8493,W,2,05,1.8,-0.1,M,-25.1,M,3.8,0000*6F
$GPGSA,A,3,11,22,14,31,19,,,,,,,,4.4,1.8,4.0*30
$GPGSV,3,1,12,14,76,037,26,22,51,068,26,24,46,310,,11,38,301,29*76
$GPGSV,3,2,12,19,33,247,37,31,26,159,41,01,22,315,24,03,13,214,36*7B
$GPGSV,3,3,12,18,12,088,,06,12,203,39,09,03,031,23,51,43,156,36*73
$GPRMC,215456.000,A,3748.7939,N,12217.8493,W,1.92,106.11,310112,,,D*78
$GPVTG,106.11,T,,M,1.92,N,3.5,K,D*03
$GPGGA,215457.000,3748.7938,N,12217.8488,W,2,05,1.8,-2.3,M,-25.1,M,4.8,0000*62
$GPGSA,A,3,11,22,14,31,19,,,,,,,,4.4,1.8,4.0*30
$GPRMC,215457.000,A,3748.7938,N,12217.8488,W,2.09,105.75,310112,,,D*72
$GPVTG,105.75,T,,M,2.09,N,3.9,K,D*0F
$GPGGA,215458.000,3748.7936,N,12217.8482,W,2,05,1.8,-3.8,M,-25.1,M,5.8,0000*62
$GPGSA,A,3,11,22,14,31,19,,,,,,,,4.4,1.8,4.0*30
$GPRMC,215458.000,A,3748.7936,N,12217.8482,W,1.97,110.70,310112,,,D*7C
$GPVTG,110.70,T,,M,1.97,N,3.7,K,D*04
$GPGGA,215459.000,3748.7937,N,12217.8471,W,2,05,1.8,-5.3,M,-25.1,M,,0000*40
$GPGSA,A,3,11,22,14,31,19,,,,,,,,4.4,1.8,4.0*30
$GPRMC,215459.000,A,3748.7937,N,12217.8471,W,2.32,99.67,310112,,,D*4A
$GPVTG,99.67,T,,M,2.32,N,4.3,K,D*3D
$GPGGA,215500.000,3748.7937,N,12217.8460,W,2,05,1.8,-6.4,M,-25.1,M,,0000*49
$GPGSA,A,3,11,22,14,31,19,,,,,,,,4.4,1.8,4.0*30
$GPRMC,215500.000,A,3748.7937,N,12217.8460,W,1.85,107.32,310112,,,D*7E
$GPVTG,107.32,T,,M,1.85,N,3.4,K,D*04
$GPGGA,215501.000,3748.7933,N,12217.8453,W,2,05,1.8,-6.2,M,-25.1,M,,0000*4A
$GPGSA,A,3,11,22,14,31,19,,,,,,,,4.4,1.8,4.0*30
$GPGSV,3,1,12,14,76,037,26,22,51,068,26,24,46,310,,11,38,301,25*7A
$GPGSV,3,2,12,19,33,247,30,31,26,159,34,01,22,315,23,03,13,214,31*7E
$GPGSV,3,3,12,18,12,088,,06,12,203,27,09,03,031,18,51,43,156,35*77
$GPRMC,215501.000,A,3748.7933,N,12217.8453,W,1.37,103.18,310112,,,D*7E
$GPGGA,215502.000,3748.7932,N,12217.8445,W,2,05,1.8,-6.3,M,-25.1,M,2.8,0000*6A
$GPGSA,A,3,11,22,14,31,19,,,,,,,,4.4,1.8,4.0*30
$GPRMC,215502.000,A,3748.7932,N,12217.8445,W,1.71,111.45,310112,,,D*72
$GPVTG,111.45,T,,M,1.71,N,3.2,K,D*0E
$GPGGA,215503.000,3748.7928,N,12217.8440,W,2,05,1.8,-5.6,M,-25.1,M,3.8,0000*62
$GPGSA,A,3,11,22,14,31,19,,,,,,,,4.4,1.8,4.0*30
$GPRMC,215503.000,A,3748.7928,N,12217.8440,W,1.32,127.59,310112,,,D*72
$GPVTG,127.59,T,,M,1.32,N,2.4,K,D*06
$GPGGA,215504.000,3748.7919,N,12217.8442,W,2,05,1.8,-3.4,M,-25.1,M,4.8,0000*66
$GPGSA,A,3,11,22,14,31,19,,,,,,,,4.4,1.8,4.0*30
$GPRMC,215504.000,A,3748.7919,N,12217.8442,W,0.79,166.18,310112,,,D*7B
$GPVTG,166.18,T,,M,0.79,N,1.5,K,D*0A
$GPGGA,215505.000,3748.7909,N,12217.8443,W,2,05,1.8,0.0,M,-25.1,M,,0000*6F
$GPGSA,A,3,11,22,14,31,19,,,,,,,,4.4,1.8,4.0*30
$GPRMC,215505.000,A,3748.7909,N,12217.8443,W,0.53,109.14,310112,,,D*77
$GPVTG,109.14,T,,M,0.53,N,1.0,K,D*02
$GPGGA,215506.000,3748.7907,N,12217.8432,W,2,05,1.8,1.9,M,-25.1,M,,0000*6C
$GPGSA,A,3,11,22,14,31,19,,,,,,,,4.4,1.8,4.0*30
$GPGSV,3,1,12,14,76,037,23,22,51,068,26,24,46,310,,11,38,301,21*7B
$GPGSV,3,2,12,19,33,247,27,31,26,159,35,01,22,315,18,03,13,214,32*72
$GPGSV,3,3,12,18,12,088,,06,12,203,34,09,03,031,18,51,43,156,36*76
$GPRMC,215506.000,A,3748.7907,N,12217.8432,W,1.55,99.61,310112,,,D*41
$GPVTG,99.61,T,,M,1.55,N,2.9,K,D*35
$GPGGA,215507.000,3748.7906,N,12217.8419,W,2,05,1.8,1.5,M,-25.1,M,,0000*69
$GPGSA,A,3,11,22,14,31,19,,,,,,,,4.4,1.8,4.0*30
$GPRMC,215507.000,A,3748.7906,N,12217.8419,W,1.95,110.41,310112,,,D*76
$GPVTG,110.41,T,,M,1.95,N,3.6,K,D*05
$GPGGA,215508.000,3748.7902,N,12217.8413,W,2,05,1.8,0.3,M,-25.1,M,,0000*6F
$GPGSA,A,3,11,22,14,31,19,,,,,,,,4.4,1.8,4.0*30
$GPRMC,215508.000,A,3748.7902,N,12217.8413,W,2.29,120.25,310112,,,D*72
$GPVTG,120.25,T,,M,2.29,N,4.2,K,D*03
$GPGGA,215509.000,3748.7896,N,12217.8406,W,2,05,1.8,0.1,M,-25.1,M,2.8,0000*40
$GPGSA,A,3,11,22,14,31,19,,,,,,,,4.4,1.8,4.0*30
$GPRMC,215509.000,A,3748.7896,N,12217.8406,W,2.28,124.54,310112,,,D*78
$GPVTG,124.54,T,,M,2.28,N,4.2,K,D*00
$GPGGA,215510.000,3748.7890,N,12217.8399,W,2,05,1.8,0.1,M,-25.1,M,3.8,0000*4E
$GPGSA,A,3,11,22,14,31,19,,,,,,,,4.4,1.8,4.0*30
$GPRMC,215510.000,A,3748.7890,N,12217.8399,W,2.26,122.45,310112,,,D*7F
$GPVTG,122.45,T,,M,2.26,N,4.2,K,D*08
$GPGGA,215511.000,3748.7882,N,12217.8393,W,2,05,1.8,2.2,M,-25.1,M,,0000*62
$GPGSA,A,3,11,22,14,31,19,,,,,,,,4.4,1.8,4.0*30
$GPGSV,3,1,12,14,76,037,24,22,51,068,26,24,46,310,,11,38,301,26*7B
$GPGSV,3,2,12,19,33,247,34,31,26,159,36,01,22,315,23,03,13,214,38*71
$GPGSV,3,3,12,18,12,088,,06,12,203,34,09,03,031,25,51,43,156,36*78
$GPRMC,215511.000,A,3748.7882,N,12217.8393,W,1.72,107.69,310112,,,D*7C
$GPVTG,107.69,T,,M,1.72,N,3.2,K,D*04
$GPGGA,215512.000,3748.7877,N,12217.8388,W,2,05,1.8,3.9,M,-25.1,M,2.8,0000*4F
$GPGSA,A,3,11,22,14,31,19,,,,,,,,4.4,1.8,4.0*30
$GPRMC,215512.000,A,3748.7877,N,12217.8388,W,1.84,114.92,310112,,,D*70
$GPVTG,114.92,T,,M,1.84,N,3.4,K,D*0D
$GPGGA,215513.000,3748.7874,N,12217.8379,W,2,05,1.8,4.1,M,-25.1,M,,0000*68
$GPGSA,A,3,11,22,14,31,19,,,,,,,,4.4,1.8,4.0*30
$GPRMC,215513.000,A,3748.7874,N,12217.8379,W,2.27,125.03,310112,,,D*7C
$GPVTG,125.03,T,,M,2.27,N,4.2,K,D*0C
$GPGGA,215514.000,3748.7874,N,12217.8371,W,2,05,1.8,0.8,M,-25.1,M,2.8,0000*4E
$GPGSA,A,3,11,22,14,31,19,,,,,,,,4.4,1.8,4.0*30
$GPRMC,215514.000,A,3748.7874,N,12217.8371,W,2.18,128.16,310112,,,D*76
$GPVTG,128.16,T,,M,2.18,N,4.0,K,D*0B
$GPGGA,215515.000,3748.7872,N,12217.8364,W,2,05,1.8,0.6,M,-25.1,M,,0000*67
$GPGSA,A,3,11,22,14,31,19,,,,,,,,4.4,1.8,4.0*30
$GPRMC,215515.000,A,3748.7872,N,12217.8364,W,2.14,118.06,310112,,,D*7B
$GPVTG,118.06,T,,M,2.14,N,4.0,K,D*05
$GPGGA,215516.000,3748.7866,N,12217.8357,W,2,05,1.8,1.6,M,-25.1,M,1.8,0000*47
$GPGSA,A,3,11,22,14,31,19,,,,,,,,4.4,1.8,4.0*30
$GPGSV,3,1,12,14,76,037,25,22,51,068,29,24,46,310,,11,38,301,26*75
$GPGSV,3,2,12,19,33,247,34,31,26,159,37,01,22,315,24,03,13,214,38*77
$GPGSV,3,3,12,18,12,088,,06,12,203,25,09,03,031,24,51,43,156,38*77
$GPVTG,120.52,T,,M,2.34,N,4.3,K,D*0E
$GPGGA,215517.000,3748.7861,N,12217.8350,W,2,05,1.8,2.7,M,-25.1,M,1.8,0000*44
$GPGSA,A,3,11,22,14,31,19,,,,,,,,4.4,1.8,4.0*30
$GPRMC,215517.000,A,3748.7861,N,12217.8350,W,2.14,119.53,310112,,,D*7D
$GPVTG,119.53,T,,M,2.14,N,4.0,K,D*04
$GPGGA,215518.000,3748.7856,N,12217.8343,W,2,05,1.8,3.4,M,-25.1,M,2.8,0000*4C
$GPGSA,A,3,11,22,14,31,19,,,,,,,,4.4,1.8,4.0*30
$GPRMC,215518.000,A,3748.7856,N,12217.8343,W,2.07,117.72,310112,,,D*7B
$GPVTG,117.72,T,,M,2.07,N,3.8,K,D*04
$GPGGA,215519.000,3748.7854,N,12217.8337,W,2,05,1.8,3.2,M,-25.1,M,1.8,0000*49
$GPGSA,A,3,11,22,14,31,19,,,,,,,,4.4,1.8,4.0*30
$GPRMC,215519.000,A,3748.7854,N,12217.8337,W,2.09,112.82,310112,,,D*7F
$GPVTG,112.82,T,,M,2.09,N,3.9,K,D*01
$GPGGA,215520.000,3748.7853,N,12217.8331,W,2,05,1.8,2.9,M,-25.1,M,2.8,0000*4B
$GPGSA,A,3,11,22,14,31,19,,,,,,,,4.4,1.8,4.0*30
$GPRMC,215520.000,A,3748.7853,N,12217.8331,W,2.41,115.59,310112,,,D*79
$GPVTG,115.59,T,,M,2.41,N,4.5,K,D*07
$GPGGA,215521.000,3748.7849,N,12217.8324,W,2,05,1.8,3.8,M,-25.1,M,3.8,0000*44
$GPGSA,A,3,11,22,14,31,19,,,,,,,,4.4,1.8,4.0*30
$GPGSV,3,1,12,14,76,037,25,22,51,068,29,24,46,310,,11,38,301,27*74
$GPGSV,3,2,12,19,33,247,34,31,26,159,38,01,22,315,24,03,13,214,31*71
$GPGSV,3,3,12,18,12,088,,06,12,203,36,09,03,031,22,51,43,156,33*78
$GPRMC,215521.000,A,3748.7849,N,12217.8324,W,2.31,120.88,310112,,,D*7A
$GPVTG,120.88,T,,M,2.31,N,4.3,K,D*0C
$GPGGA,215522.000,3748.7846,N,12217.8313,W,2,05,1.8,3.6,M,-25.1,M,4.8,0000*45
$GPGSA,A,3,11,22,14,31,19,,,,,,,,4.4,1.8,4.0*30
$GPRMC,215522.000,A,3748.7846,N,12217.8313,W,2.44,138.25,310112,,,D*7E
$GPVTG,138.25,T,,M,2.44,N,4.5,K,D*06
$GPGGA,215523.000,3748.7840,N,12217.8307,W,2,05,1.8,4.3,M,-25.1,M,1.8,0000*40
$GPGSA,A,3,11,22,14,31,19,,,,,,,,4.4,1.8,4.0*30
$GPRMC,215523.000,A,3748.7840,N,12217.8307,W,2.58,127.32,310112,,,D*79
$GPVTG,127.32,T,,M,2.58,N,4.8,K,D*0E
$GPGGA,215524.000,3748.7839,N,12217.8299,W,2,05,1.8,2.7,M,-25.1,M,1.8,0000*4D
$GPGSA,A,3,11,22,14,31,19,,,,,,,,4.4,1.8,4.0*30
$GPRMC,215524.000,A,3748.7839,N,12217.8299,W,2.44,111.83,310112,,,D*74
$GPVTG,111.83,T,,M,2.44,N,4.5,K,D*01
$GPGGA,215525.000,3748.7836,N,12217.8291,W,2,05,1.8,3.8,M,-25.1,M,1.8,0000*45
$GPGSA,A,3,11,22,14,31,19,,,,,,,,4.4,1.8,4.0*30
$GPRMC,215525.000,A,3748.7836,N,12217.8291,W,2.23,105.80,310112,,,D*75
$GPVTG,105.80,T,,M,2.23,N,4.1,K,D*02
$GPGGA,215526.000,3748.7826,N,12217.8286,W,2,05,1.8,7.4,M,-25.1,M,1.8,0000*49
$GPGSA,A,3,11,22,14,31,19,,,,,,,,4.4,1.8,4.0*30
$GPGSV,3,1,12,14,76,037,25,22,51,068,28,24,46,310,,11,38,301,26*74
$GPGSV,3,2,12,19,33,247,34,31,26,159,32,01,22,315,23,03,13,214,38*75
$GPGSV,3,3,12,18,12,088,,06,12,203,35,09,03,031,21,51,43,156,31*7A
$GPRMC,215526.000,A,3748.7826,N,12217.8286,W,2.21,114.53,310112,,,D*7D
$GPVTG,114.53,T,,M,2.21,N,4.1,K,D*0E
$GPGGA,215527.000,3748.7823,N,12217.8280,W,2,05,1.8,6.5,M,-25.1,M,2.8,0000*48
$GPGSA,A,3,11,22,14,31,19,,,,,,,,4.4,1.8,4.0*30
$GPRMC,215527.000,A,3748.7823,N,12217.8280,W,2.11,111.80,310112,,,D*77
$GPVTG,111.80,T,,M,2.11,N,3.9,K,D*09
$GPGGA,215528.000,3748.7817,N,12217.8271,W,2,05,1.8,7.6,M,-25.1,M,3.8,0000*4D
$GPGSA,A,3,11,22,14,31,19,,,,,,,,4.4,1.8,4.0*30
$GPRMC,215528.000,A,3748.7817,N,12217.8271,W,2.02,121.44,310112,,,D*78
$GPVTG,121.44,T,,M,2.02,N,3.7,K,D*0E
$GPGGA,215529.000,3748.7818,N,12217.8261,W,2,05,1.8,4.8,M,-25.1,M,1.8,0000*4D
$GPGSA,A,3,11,22,14,31,19,,,,,,,,4.4,1.8,4.0*30
$GPRMC,215529.000,A,3748.7818,N,12217.8261,W,2.30,120.88,310112,,,D*77
$GPVTG,120.88,T,,M,2.30,N,4.3,K,D*0D
$GPGGA,215530.000,3748.7815,N,12217.8250,W,2,05,1.8,4.6,M,-25.1,M,1.8,0000*44
$GPGSA,A,3,11,22,14,31,19,,,,,,,,4.4,1.8,4.0*30
$GPRMC,215530.000,A,3748.7815,N,12217.8250,W,2.13,121.94,310112,,,D*7D
$GPVTG,121.94,T,,M,2.13,N,3.9,K,D*0D
$GPGGA,215531.000,3748.7806,N,12217.8245,W,2,05,1.8,5.4,M,-25.1,M,1.8,0000*40
$GPGSA,A,3,11,22,14,31,19,,,,,,,,4.4,1.8,4.0*30
$GPGSV,3,1,12,14,76,037,25,22,51,068,27,24,46,310,,11,38,301,26*7B
$GPGSV,3,2,12,19,33,247,36,31,26,159,40,01,22,315,23,03,13,214,36*7C
$GPGSV,3,3,12,18,12,088,,06,12,203,30,09,03,031,19,51,43,156,36*73
$GPVTG,129.01,T,,M,2.29,N,4.2,K,D*0C
$GPGGA,215532.000,3748.7800,N,12217.8235,W,2,05,1.8,6.9,M,-25.1,M,2.8,0000*4F
$GPGSA,A,3,11,22,14,31,19,,,,,,,,4.4,1.8,4.0*30
$GPRMC,215532.000,A,3748.7800,N,12217.8235,W,2.68,117.89,310112,,,D*7D
$GPVTG,117.89,T,,M,2.68,N,5.0,K,D*07
$GPGGA,215533.000,3748.7795,N,12217.8225,W,2,05,1.8,7.4,M,-25.1,M,3.8,0000*41
$GPGSA,A,3,11,22,14,31,19,,,,,,,,4.4,1.8,4.0*30
$GPRMC,215533.000,A,3748.7795,N,12217.8225,W,2.36,114.87,310112,,,D*78
$GPVTG,114.87,T,,M,2.36,N,4.4,K,D*04
$GPGGA,215534.000,3748.7792,N,12217.8215,W,2,05,1.8,7.0,M,-25.1,M,4.8,0000*41
$GPGSA,A,3,11,22,14,31,19,,,,,,,,4.5,1.8,4.1*30
$GPRMC,215534.000,A,3748.7792,N,12217.8215,W,2.40,111.88,310112,,,D*70
$GPVTG,111.88,T,,M,2.40,N,4.4,K,D*0F
$GPGGA,215535.000,3748.7789,N,12217.8205,W,2,05,1.8,6.8,M,-25.1,M,1.8,0000*47
$GPGSA,A,3,11,22,14,31,19,,,,,,,,4.5,1.8,4.1*30
$GPRMC,215535.000,A,3748.7789,N,12217.8205,W,2.36,110.42,310112,,,D*7C
$GPVTG,110.42,T,,M,2.36,N,4.4,K,D*09
$GPGGA,215536.000,3748.7789,N,12217.8195,W,2,05,1.8,5.4,M,-25.1,M,2.8,0000*42
$GPGSA,A,3,11,22,14,31,19,,,,,,,,4.5,1.8,4.1*30
$GPGSV,3,1,12,14,76,037,25,22,51,068,27,24,46,310,,11,38,301,27*7A
$GPGSV,3,2,12,19,33,247,37,31,26,159,35,01,22,315,23,03,13,214,32*7B
$GPGSV,3,3,12,18,12,088,,06,12,203,36,09,03,031,18,51,43,156,31*73
$GPRMC,215536.000,A,3748.7789,N,12217.8195,W,2.06,113.39,310112,,,D*79
$GPVTG,113.39,T,,M,2.06,N,3.8,K,D*0E
$GPGGA,215537.000,3748.7791,N,12217.8187,W,2,05,1.8,2.8,M,-25.1,M,1.8,0000*41
$GPGSA,A,3,11,22,14,31,19,,,,,,,,4.5,1.8,4.1*30
$GPRMC,215537.000,A,3748.7791,N,12217.8187,W,2.33,117.25,310112,,,D*7D
$GPVTG,117.25,T,,M,2.33,N,4.3,K,D*0D
$GPGGA,215538.000,3748.7789,N,12217.8178,W,2,05,1.8,0.4,M,-25.1,M,1.8,0000*49
$GPGSA,A,3,11,22,14,31,19,,,,,,,,4.5,1.8,4.1*30
$GPRMC,215538.000,A,3748.7789,N,12217.8178,W,2.32,114.93,310112,,,D*74
$GPVTG,114.93,T,,M,2.32,N,4.3,K,D*02
$GPGGA,215539.000,3748.7786,N,12217.8170,W,2,05,1.8,-1.2,M,-25.1,M,1.8,0000*65
$GPGSA,A,3,11,22,14,31,19,,,,,,,,4.5,1.8,4.1*30
$GPRMC,215539.000,A,3748.7786,N,12217.8170,W,2.23,116.61,310112,,,D*7D
$GPVTG,116.61,T,,M,2.23,N,4.1,K,D*0F
$GPGGA,215540.000,3748.7783,N,12217.8163,W,2,05,1.8,-2.7,M,-25.1,M,2.8,0000*69
$GPGSA,A,3,11,22,14,31,19,,,,,,,,4.5,1.8,4.1*30
$GPRMC,215540.000,A,3748.7783,N,12217.8163,W,2.08,111.62,310112,,,D*79
$GPVTG,111.62,T,,M,2.08,N,3.8,K,D*0C
$GPGGA,215541.000,3748.7777,N,12217.8155,W,2,05,1.8,-1.9,M,-25.1,M,1.8,0000*68
$GPGSA,A,3,11,22,14,31,19,,,,,,,,4.5,1.8,4.1*30
$GPGSV,3,1,12,14,76,037,25,22,51,068,30,24,46,310,,11,38,301,27*7C
$GPGSV,3,2,12,19,33,247,37,31,26,159,39,01,22,315,23,03,13,214,34*71
$GPGSV,3,3,12,18,12,088,,06,12,203,36,09,03,031,17,51,43,156,38*75
$GPRMC,215541.000,A,3748.7777,N,12217.8155,W,2.23,111.55,310112,,,D*7B
$GPVTG,111.55,T,,M,2.23,N,4.1,K,D*0F
$GPGGA,215542.000,3748.7769,N,12217.8148,W,2,05,1.8,-0.0,M,-25.1,M,1.8,0000*60
$GPGSA,A,3,11,22,14,31,19,,,,,,,,4.5,1.8,4.1*30
$GPRMC,215542.000,A,3748.7769,N,12217.8148,W,2.27,118.57,310112,,,D*74
$GPVTG,118.57,T,,M,2.27,N,4.2,K,D*03
$GPGGA,215543.000,3748.7763,N,12217.8141,W,2,05,1.8,0.9,M,-25.1,M,1.8,0000*46
$GPGSA,A,3,11,22,14,31,19,,,,,,,,4.5,1.8,4.1*30
$GPRMC,215543.000,A,3748.7763,N,12217.8141,W,2.44,116.71,310112,,,D*79
$GPVTG,116.71,T,,M,2.44,N,4.5,K,D*0B
$GPGGA,215544.000,3748.7754,N,12217.8133,W,2,05,1.8,2.7,M,-25.1,M,2.8,0000*4F
$GPGSA,A,3,11,22,14,31,19,,,,,,,,4.5,1.8,4.1*30
$GPRMC,215544.000,A,3748.7754,N,12217.8133,W,2.45,121.37,310112,,,D*78
$GPVTG,121.37,T,,M,2.45,N,4.5,K,D*0C
$GPGGA,215545.000,3748.7746,N,12217.8125,W,2,05,1.8,3.5,M,-25.1,M,3.8,0000*48
$GPGSA,A,3,11,22,14,31,19,,,,,,,,4.5,1.8,4.1*30
$GPRMC,215545.000,A,3748.7746,N,12217.8125,W,2.56,121.62,310112,,,D*7F
$GPVTG,121.62,T,,M,2.56,N,4.7,K,D*0C
$GPGGA,215546.000,3748.7744,N,12217.8118,W,2,05,1.8,2.3,M,-25.1,M,4.8,0000*47
$GPGSA,A,3,11,22,14,31,19,,,,,,,,4.5,1.8,4.1*30
$GPGSV,3,1,12,14,76,037,26,22,51,068,29,24,46,310,,11,38,301,23*73
$GPGSV,3,2,12,19,33,247,36,31,26,159,39,01,22,315,23,03,13,214,37*73
$GPGSV,3,3,12,18,12,088,,06,12,203,36,09,03,031,17,51,43,156,37*7A
$GPVTG,116.00,T,,M,2.26,N,4.2,K,D*0E
$GPGGA,215547.000,3748.7742,N,12217.8110,W,2,05,1.8,0.5,M,-25.1,M,1.8,0000*49
$GPGSA,A,3,11,22,14,31,19,,,,,,,,4.5,1.8,4.1*30
$GPRMC,215547.000,A,3748.7742,N,12217.8110,W,2.33,122.48,310112,,,D*77
$GPVTG,122.48,T,,M,2.33,N,4.3,K,D*00
$GPGGA,215548.000,3748.7741,N,12217.8104,W,2,05,1.8,-1.0,M,-25.1,M,1.8,0000*69
$GPGSA,A,3,11,22,14,31,19,,,,,,,,4.5,1.8,4.1*30
$GPRMC,215548.000,A,3748.7741,N,12217.8104,W,2.15,114.18,310112,,,D*7A
$GPVTG,114.18,T,,M,2.15,N,4.0,K,D*07
$GPGGA,215549.000,3748.7734,N,12217.8097,W,2,05,1.8,0.7,M,-25.1,M,1.8,0000*4A
$GPGSA,A,3,11,22,14,31,19,,,,,,,,4.5,1.8,4.1*30
$GPRMC,215549.000,A,3748.7734,N,12217.8097,W,2.25,107.34,310112,,,D*7D
$GPVTG,107.34,T,,M,2.25,N,4.2,K,D*0A
$GPGGA,215550.000,3748.7730,N,12217.8088,W,2,05,1.8,1.9,M,-25.1,M,2.8,0000*44
$GPGSA,A,3,11,22,14,31,19,,,,,,,,4.5,1.8,4.1*30
$GPRMC,215550.000,A,3748.7730,N,12217.8088,W,2.29,113.67,310112,,,D*70
$GPVTG,113.67,T,,M,2.29,N,4.2,K,D*05
$GPGGA,215551.000,3748.7721,N,12217.8082,W,2,05,1.8,3.9,M,-25.1,M,3.8,0000*4C
$GPGSA,A,3,11,22,14,31,19,,,,,,,,4.5,1.8,4.1*30
$GPGSV,3,1,12,14,75,037,25,22,50,068,26,24,47,310,,11,38,301,24*7B
$GPGSV,3,2,12,19,33,247,37,31,27,159,39,01,22,315,23,03,13,214,36*72
$GPGSV,3,3,12,18,12,088,,06,11,203,37,09,03,031,,51,43,156,37*7E
$GPRMC,215551.000,A,3748.7721,N,12217.8082,W,2.30,123.74,310112,,,D*72
$GPVTG,123.74,T,,M,2.30,N,4.3,K,D*0D
$GPGGA,215552.000,3748.7710,N,12217.8077,W,2,05,1.9,7.4,M,-25.1,M,4.8,0000*48
$GPGSA,A,3,11,22,14,31,19,,,,,,,,4.5,1.9,4.1*31
$GPRMC,215552.000,A,3748.7710,N,12217.8077,W,2.44,128.40,310112,,,D*76
$GPVTG,128.40,T,,M,2.44,N,4.5,K,D*04
$GPGGA,215553.000,3748.7702,N,12217.8068,W,2,05,1.9,9.5,M,-25.1,M,1.8,0000*4E
$GPGSA,A,3,11,22,14,31,19,,,,,,,,4.5,1.9,4.1*31
$GPRMC,215553.000,A,3748.7702,N,12217.8068,W,2.47,125.65,310112,,,D*73
$GPVTG,125.65,T,,M,2.47,N,4.6,K,D*0E
$GPGGA,215554.000,3748.7696,N,12217.8061,W,2,05,1.9,9.9,M,-25.1,M,1.8,0000*40
$GPGSA,A,3,11,22,14,31,19,,,,,,,,4.5,1.9,4.1*31
$GPRMC,215554.000,A,3748.7696,N,12217.8061,W,2.42,128.48,310112,,,D*76
$GPVTG,128.48,T,,M,2.42,N,4.5,K,D*0A
$GPGGA,215555.000,3748.7693,N,12217.8054,W,2,05,1.9,8.5,M,-25.1,M,1.8,0000*4F
$GPGSA,A,3,11,22,14,31,19,,,,,,,,4.5,1.9,4.1*31
$GPRMC,215555.000,A,3748.7693,N,12217.8054,W,2.36,123.35,310112,,,D*76
$GPVTG,123.35,T,,M,2.36,N,4.4,K,D*09
$GPGGA,215556.000,3748.7688,N,12217.8047,W,2,05,1.9,7.9,M,-25.1,M,1.8,0000*47
$GPGSA,A,3,11,22,14,31,19,,,,,,,,4.5,1.9,4.1*31
$GPGSV,3,1,12,14,75,037,25,22,50,068,27,24,47,310,,11,38,301,25*7B
$GPGSV,3,2,12,19,33,247,37,31,27,159,39,01,22,315,23,03,13,214,35*71
$GPGSV,3,3,12,18,12,088,,06,11,203,37,09,03,031,,51,43,156,37*7E
$GPRMC,215556.000,A,3748.7688,N,12217.8047,W,2.47,119.38,310112,,,D*7F
$GPVTG,119.38,T,,M,2.47,N,4.6,K,D*09
$GPGGA,215557.000,3748.7681,N,12217.8045,W,2,05,1.9,8.9,M,-25.1,M,1.8,0000*42
$GPGSA,A,3,11,22,14,31,19,,,,,,,,4.5,1.9,4.1*31
$GPRMC,215557.000,A,3748.7681,N,12217.8045,W,2.31,115.59,310112,,,D*7F
$GPVTG,115.59,T,,M,2.31,N,4.3,K,D*06
$GPGGA,215558.000,3748.7673,N,12217.8039,W,2,05,1.9,11.5,M,-25.1,M,2.8,0000*7C
$GPGSA,A,3,11,22,14,31,19,,,,,,,,4.5,1.9,4.1*31
$GPRMC,215558.000,A,3748.7673,N,12217.8039,W,2.38,119.40,310112,,,D*7B
$GPVTG,119.40,T,,M,2.38,N,4.4,K,D*0C
$GPGGA,215559.000,3748.7668,N,12217.8032,W,2,05,1.9,12.4,M,-25.1,M,1.8,0000*7D
$GPGSA,A,3,11,22,14,31,19,,,,,,,,4.5,1.9,4.1*31
$GPRMC,215559.000,A,3748.7668,N,12217.8032,W,2.37,129.44,310112,,,D*73
$GPVTG,129.44,T,,M,2.37,N,4.4,K,D*04
$GPGGA,215600.000,3748.7668,N,12217.8024,W,2,05,1.9,12.2,M,-25.1,M,1.8,0000*73
$GPGSA,A,3,11,22,14,31,19,,,,,,,,4.5,1.9,4.1*31
$GPRMC,215600.000,A,3748.7668,N,12217.8024,W,2.36,118.31,310112,,,D*7A
$GPVTG,118.31,T,,M,2.36,N,4.4,K,D*05
$GPGGA,215601.000,3748.7664,N,12217.8015,W,2,05,1.9,12.4,M,-25.1,M,1.8,0000*7A
$GPGSA,A,3,11,22,14,31,19,,,,,,,,4.5,1.9,4.1*31
$GPGSV,3,1,12,14,75,037,25,22,50,068,27,24,47,310,,11,38,301,26*78
$GPGSV,3,2,12,19,33,247,37,31,27,159,39,01,22,315,23,03,13,214,36*72
$GPRMC,215601.000,A,3748.7664,N,12217.8015,W,2.35,120.37,310112,,,D*7B
$GPVTG,120.37,T,,M,2.35,N,4.4,K,D*0B
$GPGGA,215602.000,3748.7662,N,12217.8006,W,2,05,1.9,11.2,M,-25.1,M,2.8,0000*7B
$GPGSA,A,3,11,22,14,31,19,,,,,,,,4.5,1.9,4.1*31
$GPRMC,215602.000,A,3748.7662,N,12217.8006,W,2.35,117.25,310112,,,D*7B
$GPVTG,117.25,T,,M,2.35,N,4.4,K,D*0C
$GPGGA,215603.000,3748.7656,N,12217.7996,W,2,05,1.9,11.7,M,-25.1,M,3.8,0000*76
$GPGSA,A,3,11,22,14,31,19,,,,,,,,4.5,1.9,4.1*31
$GPRMC,215603.000,A,3748.7656,N,12217.7996,W,2.44,125.99,310112,,,D*72
$GPVTG,125.99,T,,M,2.44,N,4.5,K,D*0D
$GPGGA,215604.000,3748.7647,N,12217.7988,W,2,05,1.9,14.0,M,-25.1,M,1.8,0000*7E
$GPGSA,A,3,11,22,14,31,19,,,,,,,,4.5,1.9,4.1*31
$GPRMC,215604.000,A,3748.7647,N,12217.7988,W,2.35,117.79,310112,,,D*73
$GPVTG,117.79,T,,M,2.35,N,4.4,K,D*05
$GPGGA,215605.000,3748.7637,N,12217.7983,W,2,05,1.9,16.2,M,-25.1,M,1.8,0000*73
$GPGSA,A,3,11,22,14,31,19,,,,,,,,4.5,1.9,4.1*31
$GPRMC,215605.000,A,3748.7637,N,12217.7983,W,2.35,130.86,310112,,,D*7B
$GPVTG,130.86,T,,M,2.35,N,4.4,K,D*00
$GPGGA,215606.000,3748.7633,N,12217.7976,W,2,05,1.9,15.4,M,-25.1,M,1.8,0000*7B
$GPGSA,A,3,11,22,14,31,19,,,,,,,,4.5,1.9,4.1*31
$GPGSV,3,1,12,14,75,037,24,22,50,068,27,24,47,310,,11,38,301,26*79
$GPGSV,3,2,12,19,33,247,37,31,27,159,39,01,22,315,22,03,13,214,28*7C
$GPGSV,3,3,12,18,12,088,21,06,11,203,30,09,03,031,,51,43,156,37*7A
$GPRMC,215606.000,A,3748.7633,N,12217.7976,W,2.51,127.05,310112,,,D*79
$GPVTG,127.05,T,,M,2.51,N,4.6,K,D*0D
$GPGGA,215607.000,3748.7631,N,12217.7967,W,2,05,1.9,14.4,M,-25.1,M,1.8,0000*79
$GPGSA,A,3,11,22,14,31,19,,,,,,,,4.5,1.9,4.1*31
$GPRMC,215607.000,A,3748.7631,N,12217.7967,W,2.37,114.93,310112,,,D*75
$GPVTG,114.93,T,,M,2.37,N,4.4,K,D*00
$GPGGA,215608.000,3748.7622,N,12217.7961,W,2,05,1.9,16.1,M,-25.1,M,2.8,0000*76
$GPGSA,A,3,11,22,14,31,19,,,,,,,,4.5,1.9,4.1*31
$GPRMC,215608.000,A,3748.7622,N,12217.7961,W,2.35,123.22,310112,,,D*72
$GPVTG,123.22,T,,M,2.35,N,4.3,K,D*0B
$GPGGA,215609.000,3748.7611,N,12217.7958,W,2,05,1.9,18.5,M,-25.1,M,3.8,0000*76
$GPGSA,A,3,11,22,14,31,19,,,,,,,,4.5,1.9,4.1*31
$GPRMC,215609.000,A,3748.7611,N,12217.7958,W,2.51,131.12,310112,,,D*7B
$GPVTG,131.12,T,,M,2.51,N,4.7,K,D*0D
$GPGGA,215609.000,3748.7602,N,12217.7952,W,2,05,1.9,20.0,M,-25.1,M,1.8,0000*72
$GPGSA,A,3,11,22,14,31,19,,,,,,,,4.5,1.9,4.1*31
$GPRMC,215609.000,A,3748.7602,N,12217.7952,W,2.47,127.51,310112,,,D*74
$GPVTG,127.51,T,,M,2.47,N,4.6,K,D*0B
$GPGGA,215610.000,3748.7603,N,12217.7943,W,2,05,1.9,17.5,M,-25.1,M,1.8,0000*7A
$GPGSA,A,3,11,22,14,31,19,,,,,,,,4.5,1.9,4.1*31
$GPGSV,3,1,12,14,75,037,24,22,50,068,27,24,47,310,,11,38,301,25*7A
$GPGSV,3,2,12,19,33,247,35,31,27,159,39,01,22,315,23,03,13,214,36*70
$GPGSV,3,3,12,18,12,088,28,06,11,203,39,09,03,031,,51,43,156,37*7A
$GPRMC,215610.000,A,3748.7603,N,12217.7943,W,2.43,123.05,310112,,,D*7C
$GPVTG,123.05,T,,M,2.43,N,4.5,K,D*09
$GPGGA,215611.000,3748.7602,N,12217.7934,W,2,05,1.9,15.3,M,-25.1,M,1.8,0000*7E
$GPGSA,A,3,11,22,14,31,19,,,,,,,,4.5,1.9,4.1*31
$GPRMC,215611.000,A,3748.7602,N,12217.7934,W,2.34,115.67,310112,,,D*7D
$GPVTG,115.67,T,,M,2.34,N,4.3,K,D*0E
$GPGGA,215612.000,3748.7599,N,12217.7923,W,2,05,1.9,14.3,M,-25.1,M,1.8,0000*7B
$GPGSA,A,3,11,22,14,31,19,,,,,,,,4.5,1.9,4.1*31
$GPRMC,215612.000,A,3748.7599,N,12217.7923,W,2.69,123.25,310112,,,D*72
$GPVTG,123.25,T,,M,2.69,N,5.0,K,D*07
$GPGGA,215613.000,3748.7595,N,12217.7914,W,2,05,1.9,13.5,M,-25.1,M,2.8,0000*70
$GPGSA,A,3,11,22,14,31,19,,,,,,,,4.5,1.9,4.1*31
$GPRMC,215613.000,A,3748.7595,N,12217.7914,W,2.80,113.17,310112,,,D*7E
$GPVTG,113.17,T,,M,2.80,N,5.2,K,D*00
$GPGGA,215614.000,3748.7591,N,12217.7909,W,2,05,1.9,12.9,M,-25.1,M,3.8,0000*73
$GPGSA,A,3,11,22,14,31,19,,,,,,,,4.5,1.9,4.1*31
$GPRMC,215614.000,A,3748.7591,N,12217.7909,W,2.41,114.50,310112,,,D*78
$GPVTG,114.50,T,,M,2.41,N,4.5,K,D*0F
$GPGGA,215615.000,3748.7585,N,12217.7904,W,2,05,1.9,13.7,M,-25.1,M,4.8,0000*72
$GPGSA,A,3,11,22,14,31,19,,,,,,,,4.5,1.9,4.1*31
$GPGSV,3,1,12,14,75,037,25,22,50,068,27,24,47,310,,11,38,301,25*7B
$GPGSV,3,2,12,19,33,247,36,31,27,159,36,01,22,315,23,03,13,214,32*78
$GPGSV,3,3,12,18,12,088,21,06,11,203,38,09,03,031,,51,43,156,37*72
$GPRMC,215615.000,A,3748.7585,N,12217.7904,W,2.28,113.76,310112,,,D*7D
$GPVTG,113.76,T,,M,2.28,N,4.2,K,D*04
$GPGGA,215616.000,3748.7575,N,12217.7899,W,2,05,1.9,15.9,M,-25.1,M,1.8,0000*76
$GPGSA,A,3,11,22,14,31,19,,,,,,,,4.5,1.9,4.1*31
$GPRMC,215616.000,A,3748.7575,N,12217.7899,W,2.23,117.25,310112,,,D*7D
$GPVTG,117.25,T,,M,2.23,N,4.1,K,D*0E
$GPGGA,215617.000,3748.7570,N,12217.7892,W,2,05,1.9,15.3,M,-25.1,M,1.8,0000*73
$GPGSA,A,3,11,22,14,31,19,,,,,,,,4.5,1.9,4.1*31
$GPRMC,215617.000,A,3748.7570,N,12217.7892,W,2.14,121.83,310112,,,D*7F
$GPVTG,121.83,T,,M,2.14,N,4.0,K,D*02
$GPGGA,215618.000,3748.7564,N,12217.7889,W,2,05,1.9,14.4,M,-25.1,M,1.8,0000*75
$GPGSA,A,3,11,22,14,31,19,,,,,,,,4.5,1.9,4.1*31
$GPRMC,215618.000,A,3748.7564,N,12217.7889,W,2.14,128.81,310112,,,D*74
$GPVTG,128.81,T,,M,2.14,N,4.0,K,D*09
$GPGGA,215619.000,3748.7569,N,12217.7884,W,2,05,1.9,8.9,M,-25.1,M,2.8,0000*47
$GPGSA,A,3,11,22,14,31,19,,,,,,,,4.5,1.9,4.1*31
$GPRMC,215619.000,A,3748.7569,N,12217.7884,W,2.30,122.64,310112,,,D*72
$GPVTG,122.64,T,,M,2.30,N,4.3,K,D*0D
$GPGGA,215620.000,3748.7570,N,12217.7874,W,2,05,1.9,4.8,M,-25.1,M,3.8,0000*46
$GPGSA,A,3,11,22,14,31,19,,,,,,,,4.5,1.9,4.1*31
$GPGSV,3,1,12,14,75,037,24,22,50,068,27,24,47,310,,11,38,301,26*79
$GPGSV,3,2,12,19,33,246,35,31,27,159,37,01,22,315,23,03,13,214,39*70
$GPGSV,3,3,12,18,12,088,21,06,11,203,33,09,03,030,,51,43,156,39*76
$GPRMC,215620.000,A,3748.7570,N,12217.7874,W,2.29,118.02,310112,,,D*7E
$GPGGA,215621.000,3748.7567,N,12217.7866,W,2,06,1.9,5.4,M,-25.1,M,4.8,0000*4B
$GPGSA,A,3,11,22,14,31,19,03,,,,,,,4.2,1.9,3.7*34
$GPRMC,215621.000,A,3748.7567,N,12217.7866,W,2.30,105.36,310112,,,D*79
$GPVTG,105.36,T,,M,2.30,N,4.3,K,D*0F
$GPGGA,215622.000,3748.7561,N,12217.7861,W,2,06,1.9,7.3,M,-25.1,M,5.8,0000*4D
$GPGSA,A,3,11,22,14,31,19,03,,,,,,,4.2,1.9,3.7*34
$GPRMC,215622.000,A,3748.7561,N,12217.7861,W,2.41,112.00,310112,,,D*7E
$GPVTG,112.00,T,,M,2.41,N,4.5,K,D*0C
$GPGGA,215623.000,3748.7558,N,12217.7856,W,2,06,1.9,5.9,M,-25.1,M,1.8,0000*4E
$GPGSA,A,3,11,22,14,31,19,03,,,,,,,4.2,1.9,3.7*34
$GPRMC,215623.000,A,3748.7558,N,12217.7856,W,2.36,114.59,310112,,,D*7B
$GPVTG,114.59,T,,M,2.36,N,4.4,K,D*07
$GPGGA,215624.000,3748.7554,N,12217.7853,W,2,06,1.9,4.5,M,-25.1,M,1.8,0000*4D
$GPGSA,A,3,11,22,14,31,19,03,,,,,,,4.2,1.9,3.7*34
$GPRMC,215624.000,A,3748.7554,N,12217.7853,W,2.32,114.55,310112,,,D*7D
$GPVTG,114.55,T,,M,2.32,N,4.3,K,D*08
$GPGGA,215625.000,3748.7543,N,12217.7851,W,2,06,1.9,6.5,M,-25.1,M,2.8,0000*49
$GPGSA,A,3,11,22,14,31,19,03,,,,,,,4.2,1.9,3.7*34
$GPGSV,3,1,12,14,75,037,25,22,50,069,23,24,47,310,,11,38,301,26*7D
$GPGSV,3,2,12,19,33,246,35,31,27,159,37,01,22,315,23,03,13,214,35*7C
$GPGSV,3,3,12,18,12,088,21,06,11,203,38,09,03,030,,51,43,156,36*72
$GPRMC,215625.000,A,3748.7543,N,12217.7851,W,2.38,122.07,310112,,,D*70
$GPVTG,122.07,T,,M,2.38,N,4.4,K,D*07
$GPGGA,215626.000,3748.7538,N,12217.7844,W,2,06,1.9,6.7,M,-25.1,M,3.8,0000*41
$GPGSA,A,3,11,22,14,31,19,03,,,,,,,4.2,1.9,3.7*34
$GPRMC,215626.000,A,3748.7538,N,12217.7844,W,2.34,115.09,310112,,,D*7D
$GPVTG,115.09,T,,M,2.34,N,4.3,K,D*06
$GPGGA,215627.000,3748.7527,N,12217.7836,W,2,06,1.9,9.9,M,-25.1,M,4.8,0000*4D
$GPGSA,A,3,11,22,14,31,19,03,,,,,,,4.2,1.9,3.7*34
$GPRMC,215627.000,A,3748.7527,N,12217.7836,W,2.38,109.28,310112,,,D*75
$GPVTG,109.28,T,,M,2.38,N,4.4,K,D*03
$GPGGA,215628.000,3748.7513,N,12217.7829,W,2,06,1.9,13.7,M,-25.1,M,1.8,0000*7B
$GPGSA,A,3,11,22,14,31,19,03,,,,,,,4.2,1.9,3.7*34
$GPRMC,215628.000,A,3748.7513,N,12217.7829,W,2.40,119.28,310112,,,D*7D
$GPVTG,119.28,T,,M,2.40,N,4.5,K,D*0C
$GPGGA,215629.000,3748.7506,N,12217.7822,W,2,06,1.9,14.9,M,-25.1,M,1.8,0000*7C
$GPGSA,A,3,11,22,14,31,19,03,,,,,,,4.2,1.9,3.7*34
$GPRMC,215629.000,A,3748.7506,N,12217.7822,W,2.35,117.68,310112,,,D*7B
$GPVTG,117.68,T,,M,2.35,N,4.4,K,D*05
$GPGGA,215630.000,3748.7505,N,12217.7815,W,2,06,1.9,14.1,M,-25.1,M,1.8,0000*7B
$GPGSA,A,3,11,22,14,31,19,03,,,,,,,4.2,1.9,3.8*3B
$GPGSV,3,1,12,14,75,037,25,22,50,069,22,24,47,310,,11,38,301,26*7C
$GPGSV,3,2,12,19,33,246,34,31,27,159,39,01,22,315,22,03,13,214,26*70
$GPGSV,3,3,12,18,12,088,21,06,11,203,37,09,03,030,,51,43,156,35*7E
$GPRMC,215630.000,A,3748.7505,N,12217.7815,W,2.35,120.96,310112,,,D*71
$GPVTG,120.96,T,,M,2.35,N,4.4,K,D*00
$GPGGA,215631.000,3748.7496,N,12217.7811,W,2,06,1.9,16.4,M,-25.1,M,2.8,0000*71
$GPGSA,A,3,11,22,14,31,19,03,,,,,,,4.2,1.9,3.8*3B
$GPRMC,215631.000,A,3748.7496,N,12217.7811,W,2.31,124.05,310112,,,D*75
$GPVTG,124.05,T,,M,2.31,N,4.3,K,D*0D
$GPGGA,215632.000,3748.7491,N,12217.7804,W,2,06,1.9,18.1,M,-25.1,M,3.8,0000*7B
$GPGSA,A,3,11,22,14,31,19,03,,,,,,,4.2,1.9,3.8*3B
$GPRMC,215632.000,A,3748.7491,N,12217.7804,W,2.42,122.65,310112,,,D*71
$GPVTG,122.65,T,,M,2.42,N,4.5,K,D*0F
$GPGGA,215633.000,3748.7491,N,12217.7794,W,2,06,1.9,18.0,M,-25.1,M,4.8,0000*7A
$GPGSA,A,3,11,22,14,31,19,03,,,,,,,4.2,1.9,3.8*3B
$GPRMC,215633.000,A,3748.7491,N,12217.7794,W,2.50,112.79,310112,,,D*7B
$GPVTG,112.79,T,,M,2.50,N,4.6,K,D*01
$GPGGA,215634.000,3748.7492,N,12217.7785,W,2,06,1.9,16.8,M,-25.1,M,1.8,0000*7D
$GPGSA,A,3,11,22,14,31,19,03,,,,,,,4.2,1.9,3.8*3B
$GPRMC,215634.000,A,3748.7492,N,12217.7785,W,2.39,112.18,310112,,,D*77
$GPVTG,112.18,T,,M,2.39,N,4.4,K,D*0B
$GPGGA,215635.000,3748.7491,N,12217.7778,W,2,06,1.9,14.6,M,-25.1,M,1.8,0000*71
$GPGSA,A,3,11,22,14,31,19,03,,,,,,,4.2,1.9,3.8*3B
$GPGSV,3,1,12,14,75,037,25,22,50,069,22,24,47,310,,11,38,301,27*7D
$GPGSV,3,2,12,19,33,246,28,31,27,159,40,01,22,315,21,03,13,214,33*74
$GPGSV,3,3,12,18,12,088,19,06,11,203,39,09,03,030,,51,43,156,35*7B
$GPVTG,132.84,T,,M,2.31,N,4.3,K,D*03
$GPGGA,215636.000,3748.7484,N,12217.7775,W,2,06,1.9,15.2,M,-25.1,M,1.8,0000*7E
$GPGSA,A,3,11,22,14,31,19,03,,,,,,,4.2,1.9,3.8*3B
$GPRMC,215636.000,A,3748.7484,N,12217.7775,W,2.16,141.92,310112,,,D*74
$GPVTG,141.92,T,,M,2.16,N,4.0,K,D*06
$GPGGA,215637.000,3748.7482,N,12217.7768,W,2,06,1.9,13.2,M,-25.1,M,2.8,0000*70
$GPGSA,A,3,11,22,14,31,19,03,,,,,,,4.2,1.9,3.8*3B
$GPRMC,215637.000,A,3748.7482,N,12217.7768,W,2.21,119.27,310112,,,D*78
$GPVTG,119.27,T,,M,2.21,N,4.1,K,D*00
$GPGGA,215638.000,3748.7478,N,12217.7760,W,2,06,1.9,13.5,M,-25.1,M,3.8,0000*74
$GPGSA,A,3,11,22,14,31,19,03,,,,,,,4.2,1.9,3.8*3B
$GPRMC,215638.000,A,3748.7478,N,12217.7760,W,2.27,112.72,310112,,,D*77
$GPVTG,112.72,T,,M,2.27,N,4.2,K,D*0E
$GPGGA,215639.000,3748.7475,N,12217.7752,W,2,06,1.9,12.9,M,-25.1,M,4.8,0000*73
$GPGSA,A,3,11,22,14,31,19,03,,,,,,,4.2,1.9,3.8*3B
$GPRMC,215639.000,A,3748.7475,N,12217.7752,W,2.23,114.38,310112,,,D*76
$GPVTG,114.38,T,,M,2.23,N,4.1,K,D*01
$GPGGA,215640.000,3748.7476,N,12217.7742,W,2,06,1.9,11.2,M,-25.1,M,1.8,0000*72
$GPGSA,A,3,11,22,14,31,19,03,,,,,,,4.2,1.9,3.8*3B
$GPGSV,3,1,12,14,75,037,25,22,50,069,26,24,47,310,,11,38,301,26*78
$GPGSV,3,2,12,19,33,246,34,31,27,159,40,01,22,315,20,03,13,214,34*7F
$GPGSV,3,3,12,18,12,088,21,06,11,203,39,09,03,030,,51,43,156,37*72
$GPRMC,215640.000,A,3748.7476,N,12217.7742,W,2.15,109.44,310112,,,D*78
$GPVTG,109.44,T,,M,2.15,N,4.0,K,D*02
$GPGGA,215641.000,3748.7478,N,12217.7732,W,2,06,1.9,9.0,M,-25.1,M,1.8,0000*41
$GPGSA,A,3,11,22,14,31,19,03,,,,,,,4.2,1.9,3.8*3B
$GPRMC,215641.000,A,3748.7478,N,12217.7732,W,1.47,133.35,310112,,,D*7B
$GPVTG,133.35,T,,M,1.47,N,2.7,K,D*08
$GPGGA,215642.000,3748.7473,N,12217.7725,W,2,06,1.9,9.0,M,-25.1,M,2.8,0000*4C
$GPGSA,A,3,11,22,14,31,19,03,,,,,,,4.2,1.9,3.8*3B
$GPRMC,215642.000,A,3748.7473,N,12217.7725,W,2.36,112.69,310112,,,D*7A
$GPVTG,112.69,T,,M,2.36,N,4.4,K,D*02
$GPGGA,215643.000,3748.7468,N,12217.7717,W,2,06,1.9,9.4,M,-25.1,M,1.8,0000*41
$GPGSA,A,3,11,22,14,31,19,03,,,,,,,4.2,1.9,3.8*3B
$GPRMC,215643.000,A,3748.7468,N,12217.7717,W,2.44,111.97,310112,,,D*77
$GPVTG,111.97,T,,M,2.44,N,4.5,K,D*04
$GPGGA,215644.000,3748.7466,N,12217.7712,W,2,06,1.9,8.9,M,-25.1,M,2.8,0000*42
$GPGSA,A,3,11,22,14,31,19,03,,,,,,,4.2,1.9,3.8*3B
$GPRMC,215644.000,A,3748.7466,N,12217.7712,W,2.26,113.72,310112,,,D*76
$GPVTG,113.72,T,,M,2.26,N,4.2,K,D*0E
$GPGGA,215645.000,3748.7466,N,12217.7703,W,2,06,1.9,7.9,M,-25.1,M,1.8,0000*4F
$GPGSA,A,3,11,22,14,31,19,03,,,,,,,4.2,1.9,3.8*3B
$GPGSV,3,1,12,14,75,037,26,22,50,069,24,24,47,310,,11,38,301,27*78
$GPGSV,3,2,12,19,33,246,35,31,27,159,40,01,22,315,21,03,13,214,35*7E
$GPGSV,3,3,12,18,12,088,20,06,11,203,39,09,03,030,,51,43,156,37*73
$GPRMC,215645.000,A,3748.7466,N,12217.7703,W,2.27,110.20,310112,,,D*72
$GPVTG,110.20,T,,M,2.27,N,4.2,K,D*0B
$GPGGA,215646.000,3748.7460,N,12217.7700,W,2,06,1.9,9.0,M,-25.1,M,1.8,0000*4E
$GPGSA,A,3,11,22,14,31,19,03,,,,,,,4.2,1.9,3.8*3B
$GPRMC,215646.000,A,3748.7460,N,12217.7700,W,2.08,113.70,310112,,,D*7F
$GPVTG,113.70,T,,M,2.08,N,3.9,K,D*0C
$GPGGA,215647.000,3748.7450,N,12217.7696,W,2,06,1.9,11.3,M,-25.1,M,1.8,0000*78
$GPGSA,A,3,11,22,14,31,19,03,,,,,,,4.2,1.9,3.8*3B
$GPRMC,215647.000,A,3748.7450,N,12217.7696,W,2.24,117.39,310112,,,D*74
$GPVTG,117.39,T,,M,2.24,N,4.1,K,D*04
$GPGGA,215648.000,3748.7443,N,12217.7692,W,2,06,1.9,11.9,M,-25.1,M,1.8,0000*7B
$GPGSA,A,3,11,22,14,31,19,03,,,,,,,4.2,1.9,3.8*3B
$GPRMC,215648.000,A,3748.7443,N,12217.7692,W,2.41,122.23,310112,,,D*73
$GPVTG,122.23,T,,M,2.41,N,4.5,K,D*0E
$GPGGA,215649.000,3748.7444,N,12217.7681,W,2,06,1.9,10.1,M,-25.1,M,2.8,0000*75
$GPGSA,A,3,11,22,14,31,19,03,,,,,,,4.2,1.9,3.8*3B
$GPRMC,215649.000,A,3748.7444,N,12217.7681,W,2.24,107.38,310112,,,D*79
$GPVTG,107.38,T,,M,2.24,N,4.1,K,D*04
$GPGGA,215650.000,3748.7446,N,12217.7670,W,2,06,1.9,7.7,M,-25.1,M,3.8,0000*40
$GPGSA,A,3,11,22,14,31,19,03,,,,,,,4.2,1.9,3.8*3B
$GPGSV,3,1,12,14,75,037,26,22,50,069,24,24,47,310,,11,38,301,27*78
$GPGSV,3,2,12,19,33,246,35,31,27,159,40,01,23,315,22,03,13,213,37*79
$GPGSV,3,3,12,18,12,088,20,06,11,203,34,09,03,030,,51,43,156,35*7C
$GPRMC,215650.000,A,3748.7446,N,12217.7670,W,2.56,103.37,310112,,,D*73
$GPVTG,103.37,T,,M,2.56,N,4.7,K,D*0C
$GPGGA,215651.000,3748.7438,N,12217.7663,W,2,06,1.9,10.2,M,-25.1,M,4.8,0000*7E
$GPGSA,A,3,11,22,14,31,19,03,,,,,,,4.2,1.9,3.8*3B
$GPRMC,215651.000,A,3748.7438,N,12217.7663,W,2.47,118.31,310112,,,D*75
$GPVTG,118.31,T,,M,2.47,N,4.6,K,D*01
$GPGGA,215652.000,3748.7432,N,12217.7657,W,2,06,1.9,11.6,M,-25.1,M,1.8,0000*70
$GPGSA,A,3,11,22,14,31,19,03,,,,,,,4.2,1.9,3.8*3B
$GPRMC,215652.000,A,3748.7432,N,12217.7657,W,2.37,123.65,310112,,,D*75
$GPVTG,123.65,T,,M,2.37,N,4.4,K,D*0D
$GPGGA,215653.000,3748.7427,N,12217.7651,W,2,06,1.9,11.8,M,-25.1,M,1.8,0000*7D
$GPGSA,A,3,11,22,14,31,19,03,,,,,,,4.2,1.9,3.8*3B
$GPRMC,215653.000,A,3748.7427,N,12217.7651,W,2.21,133.29,310112,,,D*78
$GPVTG,133.29,T,,M,2.21,N,4.1,K,D*06
$GPGGA,215654.000,3748.7421,N,12217.7645,W,2,06,1.9,13.1,M,-25.1,M,1.8,0000*72
$GPGSA,A,3,11,22,14,31,19,03,,,,,,,4.2,1.9,3.8*3B
$GPRMC,215654.000,A,3748.7421,N,12217.7645,W,2.27,119.33,310112,,,D*79
$GPVTG,119.33,T,,M,2.27,N,4.2,K,D*00
$GPGGA,215655.000,3748.7414,N,12217.7640,W,2,06,1.9,14.2,M,-25.1,M,1.8,0000*74
$GPGSA,A,3,11,22,14,31,19,03,,,,,,,4.2,1.9,3.8*3B
$GPGSV,3,1,12,14,75,037,25,22,50,069,24,24,47,310,,11,38,301,27*7B
$GPGSV,3,2,12,19,33,246,35,31,27,159,40,01,23,315,22,03,13,213,32*7C
$GPGSV,3,3,12,18,12,088,19,06,11,203,28,09,03,030,,51,43,156,36*78
$GPRMC,215655.000,A,3748.7414,N,12217.7640,W,2.20,121.65,310112,,,D*74
$GPGGA,215656.000,3748.7410,N,12217.7631,W,2,06,1.9,14.7,M,-25.1,M,2.8,0000*73
$GPGSA,A,3,11,22,14,31,19,03,,,,,,,4.2,1.9,3.8*3B
$GPRMC,215656.000,A,3748.7410,N,12217.7631,W,2.21,115.66,310112,,,D*70
$GPVTG,115.66,T,,M,2.21,N,4.1,K,D*09
$GPGGA,215657.000,3748.7407,N,12217.7624,W,2,06,1.9,14.2,M,-25.1,M,1.8,0000*76
$GPGSA,A,3,11,22,14,31,19,03,,,,,,,4.2,1.9,3.8*3B
$GPRMC,215657.000,A,3748.7407,N,12217.7624,W,2.07,120.61,310112,,,D*76
$GPVTG,120.61,T,,M,2.07,N,3.8,K,D*02
$GPGGA,215658.000,3748.7403,N,12217.7615,W,2,06,1.9,14.9,M,-25.1,M,1.8,0000*74
$GPGSA,A,3,11,22,14,31,19,03,,,,,,,4.2,1.9,3.8*3B
$GPRMC,215658.000,A,3748.7403,N,12217.7615,W,2.11,113.99,310112,,,D*7F
$GPVTG,113.99,T,,M,2.11,N,3.9,K,D*03
$GPGGA,215659.000,3748.7402,N,12217.7600,W,2,06,1.9,13.0,M,-25.1,M,1.8,0000*7E
$GPGSA,A,3,11,22,14,31,19,03,,,,,,,4.2,1.9,3.8*3B
$GPRMC,215659.000,A,3748.7402,N,12217.7600,W,2.13,120.54,310112,,,D*78
$GPVTG,120.54,T,,M,2.13,N,3.9,K,D*00
$GPGGA,215700.000,3748.7400,N,12217.7589,W,2,06,1.9,12.6,M,-25.1,M,1.8,0000*74
$GPGSA,A,3,11,22,14,31,19,03,,,,,,,4.2,1.9,3.8*3B
$GPGSV,3,1,12,14,75,037,25,22,50,069,28,24,47,310,,11,38,301,27*77
$GPGSV,3,2,12,19,33,246,35,31,27,159,41,01,23,315,22,03,13,213,25*7B
$GPGSV,3,3,12,18,12,088,19,06,11,203,20,09,03,030,,51,43,156,33*75
$GPRMC,215700.000,A,3748.7400,N,12217.7589,W,2.31,107.25,310112,,,D*76
$GPVTG,107.25,T,,M,2.31,N,4.3,K,D*0E
$GPGGA,215701.000,3748.7399,N,12217.7579,W,2,06,1.9,11.6,M,-25.1,M,1.8,0000*7E
$GPGSA,A,3,11,22,14,31,19,03,,,,,,,4.2,1.9,3.8*3B
$GPRMC,215701.000,A,3748.7399,N,12217.7579,W,2.45,109.93,310112,,,D*7F
$GPVTG,109.93,T,,M,2.45,N,4.5,K,D*08
$GPGGA,215702.000,3748.7394,N,12217.7567,W,2,06,1.9,12.1,M,-25.1,M,2.8,0000*78
$GPGSA,A,3,11,22,14,31,19,03,,,,,,,4.2,1.9,3.8*3B
$GPRMC,215702.000,A,3748.7394,N,12217.7567,W,2.19,112.69,310112,,,D*78
$GPVTG,112.69,T,,M,2.19,N,4.1,K,D*0A
$GPGGA,215703.000,3748.7388,N,12217.7556,W,2,06,1.9,12.9,M,-25.1,M,3.8,0000*7F
$GPGSA,A,3,11,22,14,31,19,03,,,,,,,4.2,1.9,3.8*3B
$GPRMC,215703.000,A,3748.7388,N,12217.7556,W,2.37,112.41,310112,,,D*70
$GPVTG,112.41,T,,M,2.37,N,4.4,K,D*09
$GPGGA,215704.000,3748.7380,N,12217.7549,W,2,06,1.9,14.6,M,-25.1,M,1.8,0000*75
$GPGSA,A,3,11,22,14,31,19,03,,,,,,,4.2,1.9,3.8*3B
$GPRMC,215704.000,A,3748.7380,N,12217.7549,W,2.15,117.84,310112,,,D*7D
$GPVTG,117.84,T,,M,2.15,N,4.0,K,D*01
$GPGGA,215705.000,3748.7376,N,12217.7544,W,2,06,1.9,15.6,M,-25.1,M,1.8,0000*71
$GPGSA,A,3,11,22,14,31,19,03,,,,,,,4.2,1.9,3.8*3B
$GPGSV,3,1,12,14,75,037,25,22,50,069,27,24,47,310,,11,38,301,26*79
$GPGSV,3,2,12,19,33,246,34,31,27,159,27,01,23,315,22,03,13,213,25*7A
$GPGSV,3,3,12,18,12,088,20,06,11,203,33,09,03,030,,51,43,156,29*76
$GPRMC,215705.000,A,3748.7376,N,12217.7544,W,2.01,124.52,310112,,,D*76
$GPVTG,124.52,T,,M,2.01,N,3.7,K,D*0F
$GPGGA,215706.000,3748.7376,N,12217.7541,W,2,06,1.9,14.9,M,-25.1,M,2.8,0000*7A
$GPGSA,A,3,11,22,14,31,19,03,,,,,,,4.2,1.9,3.8*3B
$GPRMC,215706.000,A,3748.7376,N,12217.7541,W,1.95,115.48,310112,,,D*77
$GPVTG,115.48,T,,M,1.95,N,3.6,K,D*09
$GPGGA,215707.000,3748.7374,N,12217.7535,W,2,06,1.9,15.0,M,-25.1,M,3.8,0000*73
$GPGSA,A,3,11,22,14,31,19,03,,,,,,,4.2,1.9,3.8*3B
$GPRMC,215707.000,A,3748.7374,N,12217.7535,W,2.11,109.03,310112,,,D*7A
$GPVTG,109.03,T,,M,2.11,N,3.9,K,D*0B
$GPGGA,215708.000,3748.7377,N,12217.7526,W,2,06,1.9,12.4,M,-25.1,M,4.8,0000*79
$GPGSA,A,3,11,22,14,31,19,03,,,,,,,4.2,1.9,3.8*3B
$GPRMC,215708.000,A,3748.7377,N,12217.7526,W,1.68,112.98,310112,,,D*71
$GPVTG,112.98,T,,M,1.68,N,3.1,K,D*06
$GPGGA,215709.000,3748.7378,N,12217.7514,W,2,06,1.9,11.1,M,-25.1,M,5.8,0000*71
$GPGSA,A,3,11,22,14,31,19,03,,,,,,,4.2,1.9,3.8*3B
$GPRMC,215709.000,A,3748.7378,N,12217.7514,W,1.96,107.87,310112,,,D*75
$GPVTG,107.87,T,,M,1.96,N,3.6,K,D*0A
$GPGGA,215710.000,3748.7379,N,12217.7503,W,2,06,1.9,9.9,M,-25.1,M,6.8,0000*4C
$GPGSA,A,3,11,22,14,31,19,03,,,,,,,4.2,1.9,3.8*3B
$GPGSV,3,1,12,14,75,037,25,22,50,069,27,24,47,310,,11,38,301,27*78
$GPGSV,3,2,12,19,33,246,34,31,27,159,35,01,23,315,22,03,13,213,24*78
$GPGSV,3,3,12,18,12,088,21,06,11,203,36,09,03,030,,51,43,156,32*78
$GPRMC,215710.000,A,3748.7379,N,12217.7503,W,2.20,93.74,310112,,,D*44
$GPVTG,93.74,T,,M,2.20,N,4.1,K,D*34
$GPGGA,215711.000,3748.7378,N,12217.7492,W,2,06,1.9,8.3,M,-25.1,M,7.8,0000*4F
$GPGSA,A,3,11,22,14,31,19,03,,,,,,,4.2,1.9,3.8*3B
