$ADVER,3080,2.3
$GPRMC,202728.624,A,3748.8028,N,12217.8695,W,0.20,294.77,290611,,,A*7E
$GPGGA,202729.624,3748.8025,N,12217.8692,W,1,03,2.3,25.1,M,-25.1,M,,0000*58
$GPGSA,A,2,05,07,10,,,,,,,,,,2.5,2.3,1.0*37
$GPRMC,202729.624,A,3748.8025,N,12217.8692,W,0.14,172.13,290611,,,A*7B
$GPVTG,172.13,T,,M,0.14,N,0.3,K,N*02
$GPGGA,202730.624,3748.8024,N,12217.8693,W,1,03,2.3,25.1,M,-25.1,M,,0000*50
$GPGSA,A,2,05,07,10,,,,,,,,,,2.5,2.3,1.0*37
$GPRMC,202730.624,A,3748.8024,N,12217.8693,W,0.05,209.20,290611,,,A*7C
$GPVTG,209.20,T,,M,0.05,N,0.1,K,N*0F
$GPGGA,202731.624,3748.8023,N,12217.8694,W,1,03,2.3,25.1,M,-25.1,M,,0000*51
$GPGSA,A,2,05,07,10,,,,,,,,,,2.5,2.3,1.0*37
$GPRMC,202731.624,A,3748.8023,N,12217.8694,W,0.11,296.27,290611,,,A*79
$GPVTG,296.27,T,,M,0.11,N,0.2,K,N*08
$GPGGA,202732.624,3748.8022,N,12217.8693,W,1,03,2.3,25.1,M,-25.1,M,,0000*54
$GPGSA,A,2,05,07,10,,,,,,,,,,2.5,2.3,1.0*37
$GPRMC,202732.624,A,3748.8022,N,12217.8693,W,0.12,268.43,290611,,,A*7C
$GPVTG,268.43,T,,M,0.12,N,0.2,K,N*08
$GPGGA,202733.624,3748.8021,N,12217.8691,W,1,03,2.3,25.1,M,-25.1,M,,0000*54
$GPGSA,A,2,05,07,10,,,,,,,,,,2.5,2.3,1.0*37
$GPGSV,3,1,12,07,66,013,38,10,32,239,39,05,23,296,38,08,54,311,38*77
$GPGSV,3,2,12,13,49,136,32,28,39,225,41,19,32,078,32,03,19,048,30*72
$GPGSV,3,3,12,23,17,139,36,01,11,227,,06,09,039,25,26,04,316,*73
$GPVTG,214.14,T,,M,0.08,N,0.1,K,N*09
$GPGGA,202734.624,3748.8036,N,12217.8793,W,1,04,2.0,51.1,M,-25.1,M,,0000*51
$GPGSA,A,3,05,07,06,10,,,,,,,,,2.8,2.0,2.0*3D
$GPRMC,202734.624,A,3748.8036,N,12217.8793,W,0.04,220.95,290611,,,A*7E
$GPVTG,220.95,T,,M,0.04,N,0.1,K,A*04
$GPGGA,202735.624,3748.8034,N,12217.8791,W,1,04,2.0,50.7,M,-25.1,M,,0000*57
$GPGSA,A,3,05,07,06,10,,,,,,,,,2.8,2.0,2.0*3D
$GPRMC,202735.624,A,3748.8034,N,12217.8791,W,0.08,184.58,290611,,,A*7F
$GPVTG,184.58,T,,M,0.08,N,0.1,K,A*04
$GPGGA,202736.624,3748.8034,N,12217.8790,W,1,04,2.0,50.2,M,-25.1,M,,0000*50
$GPGSA,A,3,05,07,06,10,,,,,,,,,2.8,2.0,2.0*3D
$GPRMC,202736.624,A,3748.8034,N,12217.8790,W,0.19,241.38,290611,,,A*71
$GPVTG,241.38,T,,M,0.19,N,0.4,K,A*0D
$GPGGA,202737.000,3748.8034,N,12217.8794,W,1,04,2.0,51.2,M,-25.1,M,,0000*54
$GPGSA,A,3,05,07,06,10,,,,,,,,,2.8,2.0,2.0*3D
$GPRMC,202737.000,A,3748.8034,N,12217.8794,W,0.26,143.23,290611,,,A*73
$GPVTG,143.23,T,,M,0.26,N,0.5,K,A*0B
$GPGGA,202738.000,3748.8034,N,12217.8796,W,1,04,2.0,51.7,M,-25.1,M,,0000*5C
$GPGSA,A,3,05,07,06,10,,,,,,,,,2.8,2.0,2.0*3D
$GPGSV,3,1,12,07,66,013,38,10,32,239,32,05,23,296,39,06,09,039,25*7E
$GPGSV,3,2,12,08,54,311,38,13,49,136,32,28,39,225,38,19,32,078,29*73
$GPGSV,3,3,12,03,19,048,23,23,17,139,36,01,11,227,,26,04,316,*77
$GPRMC,202738.000,A,3748.8034,N,12217.8796,W,0.13,142.69,290611,,,A*77
$GPVTG,142.69,T,,M,0.13,N,0.2,K,A*05
$GPGGA,202739.000,3748.8032,N,12217.8796,W,1,03,2.3,51.9,M,-25.1,M,,0000*51
$GPGSA,A,2,05,07,10,,,,,,,,,,2.5,2.3,1.0*37
$GPRMC,202739.000,A,3748.8032,N,12217.8796,W,0.51,212.13,290611,,,A*7D
$GPVTG,212.13,T,,M,0.51,N,1.0,K,N*04
$GPGGA,202740.000,3748.8019,N,12217.8802,W,1,03,2.0,55.2,M,-25.1,M,,0000*58
$GPGSA,A,2,05,06,10,,,,,,,,,,2.2,2.0,1.0*32
$GPRMC,202740.000,A,3748.8019,N,12217.8802,W,1.19,173.92,290611,,,A*78
$GPVTG,173.92,T,,M,1.19,N,2.2,K,N*05
$GPGGA,202741.000,3748.8007,N,12217.8804,W,1,03,2.0,57.0,M,-25.1,M,,0000*50
$GPGSA,A,2,05,06,10,,,,,,,,,,2.2,2.0,1.0*32
$GPRMC,202741.000,A,3748.8007,N,12217.8804,W,1.20,189.83,290611,,,A*7F
$GPVTG,189.83,T,,M,1.20,N,2.2,K,N*0A
$GPGGA,202742.000,3748.8003,N,12217.8802,W,1,03,2.0,56.7,M,-25.1,M,,0000*57
$GPGSA,A,2,05,06,10,,,,,,,,,,2.2,2.0,1.0*32
$GPRMC,202742.000,A,3748.8003,N,12217.8802,W,0.40,213.41,290611,,,A*77
$GPVTG,213.41,T,,M,0.40,N,0.7,K,A*0B
$GPGGA,202743.000,3748.8006,N,12217.8800,W,1,04,2.0,56.1,M,-25.1,M,,0000*50
$GPGSA,A,3,05,07,06,10,,,,,,,,,2.8,2.0,1.9*37
$GPGSV,3,1,12,07,66,013,29,10,32,239,30,05,23,296,28,06,09,039,26*7F
$GPGSV,3,2,12,08,54,311,32,13,49,136,26,28,39,225,36,19,32,078,27*7C
$GPGSV,3,3,12,03,19,048,21,23,17,139,23,01,11,227,,26,04,316,*71
$GPRMC,202743.000,A,3748.8006,N,12217.8800,W,0.36,253.77,290611,,,A*71
$GPVTG,253.77,T,,M,0.36,N,0.7,K,A*0B
$GPGGA,202744.000,3748.8010,N,12217.8800,W,1,04,2.0,57.5,M,-25.1,M,,0000*55
$GPGSA,A,3,05,07,06,10,,,,,,,,,2.8,2.0,1.9*37
$GPRMC,202744.000,A,3748.8010,N,12217.8800,W,0.15,275.55,290611,,,A*74
$GPVTG,275.55,T,,M,0.15,N,0.3,K,A*0A
$GPGGA,202745.000,3748.8013,N,12217.8802,W,1,04,2.0,58.8,M,-25.1,M,,0000*57
$GPGSA,A,3,05,07,06,10,,,,,,,,,2.8,2.0,1.9*37
$GPRMC,202745.000,A,3748.8013,N,12217.8802,W,0.28,262.68,290611,,,A*72
$GPVTG,262.68,T,,M,0.28,N,0.5,K,A*0A
$GPGGA,202746.000,3748.8017,N,12217.8799,W,1,04,2.0,57.7,M,-25.1,M,,0000*5D
$GPGSA,A,3,05,07,06,10,,,,,,,,,2.8,2.0,1.9*37
$GPRMC,202746.000,A,3748.8017,N,12217.8799,W,0.01,305.73,290611,,,A*79
$GPVTG,305.73,T,,M,0.01,N,0.0,K,A*0E
$GPGGA,202747.000,3748.8019,N,12217.8791,W,1,04,2.0,55.9,M,-25.1,M,,0000*56
$GPGSA,A,3,05,07,06,10,,,,,,,,,2.8,2.0,1.9*37
$GPRMC,202747.000,A,3748.8019,N,12217.8791,W,0.59,47.31,290611,,,A*40
$GPVTG,47.31,T,,M,0.59,N,1.1,K,A*30
$GPGGA,202748.000,3748.8022,N,12217.8780,W,1,04,2.0,52.3,M,-25.1,M,,0000*5C
$GPGSA,A,3,05,07,06,10,,,,,,,,,2.8,2.0,1.9*37
$GPGSV,3,1,12,07,66,013,29,10,32,239,33,05,23,296,21,06,09,039,27*74
$GPGSV,3,2,12,08,54,311,20,13,49,136,24,28,39,225,36,19,32,078,30*7B
$GPGSV,3,3,12,03,19,048,27,23,17,139,30,01,11,227,,26,04,316,*75
$GPVTG,72.48,T,,M,0.58,N,1.1,K,A*39
$GPGGA,202749.000,3748.8024,N,12217.8779,W,1,04,2.0,48.8,M,-25.1,M,,0000*5D
$GPGSA,A,3,05,07,06,10,,,,,,,,,2.8,2.0,1.9*37
$GPRMC,202749.000,A,3748.8024,N,12217.8779,W,0.55,221.00,290611,,,A*7A
$GPVTG,221.00,T,,M,0.55,N,1.0,K,A*0D
$GPGGA,202750.000,3748.8027,N,12217.8782,W,1,03,2.0,48.7,M,-25.1,M,,0000*5A
$GPGSA,A,2,05,06,10,,,,,,,,,,2.2,2.0,1.0*32
$GPRMC,202750.000,A,3748.8027,N,12217.8782,W,0.24,297.63,290611,,,A*7B
$GPVTG,297.63,T,,M,0.24,N,0.5,K,A*07
$GPGGA,202751.000,3748.8030,N,12217.8784,W,1,04,2.0,46.6,M,-25.1,M,,0000*53
$GPGSA,A,3,05,07,06,10,,,,,,,,,2.8,2.0,1.9*37
$GPRMC,202751.000,A,3748.8030,N,12217.8784,W,0.21,282.64,290611,,,A*7C
$GPVTG,282.64,T,,M,0.21,N,0.4,K,A*00
$GPGGA,202752.000,3748.8032,N,12217.8785,W,1,04,2.0,45.0,M,-25.1,M,,0000*56
$GPGSA,A,3,05,07,06,10,,,,,,,,,2.8,2.0,1.9*37
$GPRMC,202752.000,A,3748.8032,N,12217.8785,W,0.19,258.21,290611,,,A*71
$GPVTG,258.21,T,,M,0.19,N,0.4,K,A*0D
$GPGGA,202753.000,3748.8035,N,12217.8787,W,1,04,2.0,44.1,M,-25.1,M,,0000*52
$GPGSA,A,3,05,07,06,10,,,,,,,,,2.8,2.0,1.9*37
$GPGSV,3,1,12,07,66,013,19,10,32,239,33,05,23,296,27,06,09,039,27*71
$GPGSV,3,2,12,08,54,311,16,13,49,136,27,28,39,225,26,19,32,078,26*7B
$GPGSV,3,3,12,03,19,048,28,23,17,139,33,01,11,227,,26,04,316,*79
$GPRMC,202753.000,A,3748.8035,N,12217.8787,W,0.11,271.25,290611,,,A*72
$GPVTG,271.25,T,,M,0.11,N,0.2,K,A*0C
$GPGGA,202754.000,3748.8037,N,12217.8789,W,2,04,2.0,42.9,M,-25.1,M,,0000*54
$GPGSA,A,3,05,07,06,10,,,,,,,,,2.8,2.0,1.9*37
$GPRMC,202754.000,A,3748.8037,N,12217.8789,W,0.24,256.09,290611,,,D*71
$GPVTG,256.09,T,,M,0.24,N,0.5,K,D*03
$GPGGA,202755.000,3748.8033,N,12217.8785,W,2,03,2.0,42.1,M,-25.1,M,2.8,0000*76
$GPGSA,A,2,05,06,10,,,,,,,,,,2.2,2.0,1.0*32
$GPRMC,202755.000,A,3748.8033,N,12217.8785,W,0.26,232.49,290611,,,D*7C
$GPVTG,232.49,T,,M,0.26,N,0.5,K,D*07
$GPGGA,202756.000,3748.8042,N,12217.8792,W,2,03,2.0,42.0,M,-25.1,M,,0000*50
$GPGSA,A,2,05,06,10,,,,,,,,,,2.2,2.0,1.0*32
$GPRMC,202756.000,A,3748.8042,N,12217.8792,W,0.43,303.99,290611,,,D*72
$GPVTG,303.99,T,,M,0.43,N,0.8,K,D*07
$GPGGA,202757.000,3748.8048,N,12217.8797,W,2,03,2.0,42.2,M,-25.1,M,,0000*5C
$GPGSA,A,2,05,06,10,,,,,,,,,,2.2,2.0,1.0*32
$GPRMC,202757.000,A,3748.8048,N,12217.8797,W,0.05,330.32,290611,,,D*7F
$GPVTG,330.32,T,,M,0.05,N,0.1,K,D*0D
$GPGGA,202758.000,3748.8047,N,12217.8797,W,2,03,2.0,42.3,M,-25.1,M,,0000*5D
$GPGSA,A,2,05,06,10,,,,,,,,,,2.2,2.0,1.0*32
$GPGSV,3,1,12,07,66,013,18,10,32,239,22,05,23,296,19,06,09,039,35*7E
$GPGSV,3,2,12,08,54,311,17,13,49,136,26,28,39,225,19,19,32,078,26*77
$GPGSV,3,3,12,03,19,048,28,23,17,139,32,01,11,227,,26,04,316,*78
$GPRMC,202758.000,A,3748.8047,N,12217.8797,W,0.51,76.95,290611,,,D*42
$GPVTG,76.95,T,,M,0.51,N,0.9,K,D*38
$GPGGA,202759.000,3748.8044,N,12217.8794,W,2,03,6.1,40.9,M,-25.1,M,2.8,0000*75
$GPGSA,A,2,05,07,06,,,,,,,,,,6.1,6.1,1.0*36
$GPRMC,202759.000,A,3748.8044,N,12217.8794,W,0.70,15.42,290611,,,D*4F
$GPVTG,15.42,T,,M,0.70,N,1.3,K,D*3F
$GPGGA,202800.000,3748.8034,N,12217.8790,W,2,04,2.0,39.2,M,-25.1,M,3.8,0000*73
$GPGSA,A,3,05,07,06,10,,,,,,,,,2.8,2.0,1.9*37
$GPRMC,202800.000,A,3748.8034,N,12217.8790,W,0.46,166.01,290611,,,D*78
$GPVTG,166.01,T,,M,0.46,N,0.8,K,D*02
$GPGGA,202801.000,3748.8030,N,12217.8786,W,2,04,2.0,39.0,M,-25.1,M,4.8,0000*74
$GPGSA,A,3,05,07,06,10,,,,,,,,,2.8,2.0,1.9*37
$GPRMC,202801.000,A,3748.8030,N,12217.8786,W,0.76,205.35,290611,,,D*78
$GPVTG,205.35,T,,M,0.76,N,1.4,K,D*0D
$GPGGA,202802.000,3748.8028,N,12217.8785,W,2,04,2.0,39.7,M,-25.1,M,,0000*58
$GPGSA,A,3,05,07,06,10,,,,,,,,,2.8,2.0,1.9*37
$GPRMC,202802.000,A,3748.8028,N,12217.8785,W,0.32,248.17,290611,,,D*78
$GPVTG,248.17,T,,M,0.32,N,0.6,K,D*07
$GPGGA,202803.000,3748.8025,N,12217.8784,W,2,04,2.0,39.4,M,-25.1,M,2.8,0000*72
$GPGSA,A,3,05,07,06,10,,,,,,,,,2.8,2.0,1.9*37
$GPGSV,3,1,12,07,66,013,25,10,32,239,27,05,23,296,30,06,09,039,30*7B
$GPGSV,3,2,12,08,54,311,25,13,49,136,26,28,39,225,30,19,32,078,29*72
$GPGSV,3,3,12,03,19,048,34,23,17,139,26,01,11,227,,26,04,316,*70
$GPRMC,202803.000,A,3748.8025,N,12217.8784,W,0.15,155.05,290611,,,D*7C
$GPGGA,202804.000,3748.8031,N,12217.8787,W,2,04,2.0,37.9,M,-25.1,M,3.8,0000*71
$GPGSA,A,3,05,07,06,10,,,,,,,,,2.8,2.0,1.9*37
$GPRMC,202804.000,A,3748.8031,N,12217.8787,W,0.12,302.29,290611,,,D*74
$GPVTG,302.29,T,,M,0.12,N,0.2,K,D*03
$GPGGA,202805.000,3748.8036,N,12217.8788,W,2,04,2.0,36.9,M,-25.1,M,4.8,0000*7E
$GPGSA,A,3,05,07,06,10,,,,,,,,,2.8,2.0,1.9*37
$GPRMC,202805.000,A,3748.8036,N,12217.8788,W,0.37,315.66,290611,,,D*77
$GPVTG,315.66,T,,M,0.37,N,0.7,K,D*0C
$GPGGA,202806.000,3748.8040,N,12217.8793,W,2,04,2.0,36.9,M,-25.1,M,5.8,0000*77
$GPGSA,A,3,05,07,06,10,,,,,,,,,2.8,2.0,1.9*37
$GPRMC,202806.000,A,3748.8040,N,12217.8793,W,0.51,279.90,290611,,,D*7D
$GPVTG,279.90,T,,M,0.51,N,0.9,K,D*00
$GPGGA,202807.000,3748.8033,N,12217.8791,W,2,04,2.0,36.7,M,-25.1,M,6.8,0000*7D
$GPGSA,A,3,05,07,06,10,,,,,,,,,2.8,2.0,1.9*37
$GPRMC,202807.000,A,3748.8033,N,12217.8791,W,1.00,185.91,290611,,,D*7E
$GPVTG,185.91,T,,M,1.00,N,1.8,K,D*04
$GPGGA,202808.000,3748.8030,N,12217.8788,W,2,04,2.0,36.2,M,-25.1,M,7.8,0000*7D
$GPGSA,A,3,05,07,06,10,,,,,,,,,2.8,2.0,1.9*37
$GPGSV,3,1,12,07,66,013,36,10,32,239,23,05,23,296,29,06,09,039,31*74
$GPGSV,3,2,12,08,54,311,32,13,49,136,23,28,39,225,28,19,32,078,34*74
$GPGSV,3,3,12,03,19,048,36,23,17,139,29,01,11,227,,26,04,316,*7D
$GPRMC,202808.000,A,3748.8030,N,12217.8788,W,0.39,288.27,290611,,,D*72
$GPVTG,288.27,T,,M,0.39,N,0.7,K,D*02
$GPGGA,202809.000,3748.8038,N,12217.8790,W,2,04,2.0,36.4,M,-25.1,M,8.8,0000*74
$GPGSA,A,3,05,07,06,10,,,,,,,,,2.8,2.0,1.9*37
$GPRMC,202809.000,A,3748.8038,N,12217.8790,W,0.50,338.22,290611,,,D*72
$GPVTG,338.22,T,,M,0.50,N,0.9,K,D*0C
$GPGGA,202810.000,3748.8041,N,12217.8782,W,2,04,2.0,37.4,M,-25.1,M,9.8,0000*71
$GPGSA,A,3,05,07,06,10,,,,,,,,,2.8,2.0,1.9*37
$GPRMC,202810.000,A,3748.8041,N,12217.8782,W,0.38,68.26,290611,,,D*4B
$GPVTG,68.26,T,,M,0.38,N,0.7,K,D*3E
$GPGGA,202811.000,3748.8040,N,12217.8772,W,2,04,2.0,38.3,M,-25.1,M,10.8,0000*4E
$GPGSA,A,3,05,07,06,10,,,,,,,,,2.8,2.0,1.9*37
$GPRMC,202811.000,A,3748.8040,N,12217.8772,W,0.06,100.94,290611,,,D*7F
$GPVTG,100.94,T,,M,0.06,N,0.1,K,D*03
$GPGGA,202812.000,3748.8040,N,12217.8764,W,2,04,2.0,38.7,M,-25.1,M,11.8,0000*4F
$GPGSA,A,3,05,07,06,10,,,,,,,,,2.8,2.0,1.9*37
$GPRMC,202812.000,A,3748.8040,N,12217.8764,W,0.40,67.40,290611,,,D*40
$GPVTG,67.40,T,,M,0.40,N,0.7,K,D*3E
$GPGGA,202813.000,3748.8047,N,12217.8761,W,2,04,2.0,39.3,M,-25.1,M,12.8,0000*4A
$GPGSA,A,3,05,07,06,10,,,,,,,,,2.8,2.0,1.9*37
$GPGSV,3,1,12,07,66,013,33,10,32,239,18,05,23,296,33,06,09,039,38*7B
$GPGSV,3,2,12,08,54,311,32,13,49,136,37,28,39,225,21,19,32,078,38*74
$GPGSV,3,3,12,03,19,048,40,23,17,139,33,01,11,227,,26,04,316,*77
$GPRMC,202813.000,A,3748.8047,N,12217.8761,W,0.30,13.53,290611,,,D*45
$GPVTG,13.53,T,,M,0.30,N,0.5,K,D*3A
$GPGGA,202814.000,3748.8048,N,12217.8757,W,2,04,2.0,39.4,M,-25.1,M,13.8,0000*41
$GPGSA,A,3,05,07,06,10,,,,,,,,,2.8,2.0,1.9*37
$GPRMC,202814.000,A,3748.8048,N,12217.8757,W,0.71,355.00,290611,,,D*7A
$GPVTG,355.00,T,,M,0.71,N,1.3,K,D*0F
$GPGGA,202815.000,3748.8054,N,12217.8755,W,2,04,2.0,39.7,M,-25.1,M,14.8,0000*4B
$GPGSA,A,3,05,07,06,10,,,,,,,,,2.8,2.0,1.9*37
$GPRMC,202815.000,A,3748.8054,N,12217.8755,W,1.20,353.47,290611,,,D*74
$GPVTG,353.47,T,,M,1.20,N,2.2,K,D*0D
$GPGGA,202816.000,3748.8060,N,12217.8753,W,2,04,2.0,40.1,M,-25.1,M,15.8,0000*40
$GPGSA,A,3,05,07,06,10,,,,,,,,,2.8,2.0,1.9*37
$GPRMC,202816.000,A,3748.8060,N,12217.8753,W,1.73,350.56,290611,,,D*73
$GPVTG,350.56,T,,M,1.73,N,3.2,K,D*09
$GPGGA,202817.000,3748.8066,N,12217.8752,W,2,04,2.0,40.5,M,-25.1,M,16.8,0000*41
$GPGSA,A,3,05,07,06,10,,,,,,,,,2.8,2.0,1.9*37
$GPRMC,202817.000,A,3748.8066,N,12217.8752,W,2.07,345.47,290611,,,D*71
$GPVTG,345.47,T,,M,2.07,N,3.8,K,D*07
$GPGGA,202818.000,3748.8071,N,12217.8750,W,2,04,2.0,40.9,M,-25.1,M,17.8,0000*47
$GPGSA,A,3,05,07,06,10,,,,,,,,,2.8,2.0,1.9*37
$GPGSV,3,1,12,07,66,014,26,08,54,312,29,13,48,136,31,28,40,225,19*77
$GPGSV,3,2,12,19,32,078,38,10,32,239,19,05,23,296,28,03,18,048,41*76
$GPGSV,3,3,12,23,17,139,24,01,12,227,,06,09,039,39,26,04,316,*7E
$GPVTG,348.40,T,,M,1.62,N,3.0,K,D*05
$GPGGA,202819.000,3748.8070,N,12217.8753,W,1,04,2.0,39.6,M,-25.1,M,,0000*56
$GPGSA,A,3,05,07,06,10,,,,,,,,,2.8,2.0,1.9*37
$GPRMC,202819.000,A,3748.8070,N,12217.8753,W,0.68,320.74,290611,,,A*74
$GPVTG,320.74,T,,M,0.68,N,1.3,K,A*03
$GPGGA,202820.000,3748.8065,N,12217.8750,W,1,04,2.0,39.0,M,-25.1,M,,0000*5D
$GPGSA,A,3,05,07,06,10,,,,,,,,,2.8,2.0,1.9*37
$GPRMC,202820.000,A,3748.8065,N,12217.8750,W,0.22,128.37,290611,,,A*7A
$GPVTG,128.37,T,,M,0.22,N,0.4,K,A*06
$GPGGA,202821.000,3748.8051,N,12217.8739,W,1,04,2.0,38.7,M,-25.1,M,,0000*52
$GPGSA,A,3,05,07,06,10,,,,,,,,,2.8,2.0,1.9*37
$GPRMC,202821.000,A,3748.8051,N,12217.8739,W,1.56,140.12,290611,,,A*78
$GPVTG,140.12,T,,M,1.56,N,2.9,K,A*02
$GPGGA,202822.000,3748.8045,N,12217.8733,W,1,04,2.0,38.5,M,-25.1,M,,0000*5C
$GPGSA,A,3,05,07,06,10,,,,,,,,,2.8,2.0,1.9*37
$GPRMC,202822.000,A,3748.8045,N,12217.8733,W,1.33,139.34,290611,,,A*7D
$GPVTG,139.34,T,,M,1.33,N,2.5,K,A*07
$GPGGA,202823.000,3748.8042,N,12217.8730,W,1,04,2.0,38.4,M,-25.1,M,,0000*58
$GPGSA,A,3,05,07,06,10,,,,,,,,,2.8,2.0,1.9*37
$GPGSV,3,1,12,07,66,014,31,08,54,312,24,13,48,136,38,28,40,225,39*77
$GPGSV,3,2,12,19,32,078,35,10,32,239,35,05,23,296,25,03,18,048,33*7D
$GPGSV,3,3,12,23,17,139,39,01,12,227,,06,09,039,31,26,04,316,*7A
$GPRMC,202823.000,A,3748.8042,N,12217.8730,W,0.54,150.97,290611,,,A*7E
$GPVTG,150.97,T,,M,0.54,N,1.0,K,A*07
$GPGGA,202824.000,3748.8037,N,12217.8725,W,1,04,2.0,38.4,M,-25.1,M,,0000*59
$GPGSA,A,3,05,07,06,10,,,,,,,,,2.8,2.0,1.9*37
$GPRMC,202824.000,A,3748.8037,N,12217.8725,W,0.44,135.57,290611,,,A*71
$GPVTG,135.57,T,,M,0.44,N,0.8,K,A*00
$GPGGA,202825.000,3748.8036,N,12217.8724,W,1,04,2.0,38.5,M,-25.1,M,,0000*59
$GPGSA,A,3,05,07,06,10,,,,,,,,,2.8,2.0,1.9*37
$GPRMC,202825.000,A,3748.8036,N,12217.8724,W,0.25,177.82,290611,,,A*79
$GPVTG,177.82,T,,M,0.25,N,0.5,K,A*04
$GPGGA,202826.000,3748.8036,N,12217.8724,W,1,04,2.0,38.6,M,-25.1,M,,0000*59
$GPGSA,A,3,05,07,06,10,,,,,,,,,2.8,2.0,1.9*37
$GPRMC,202826.000,A,3748.8036,N,12217.8724,W,0.09,171.05,290611,,,A*7D
$GPVTG,171.05,T,,M,0.09,N,0.2,K,A*04
$GPGGA,202827.000,3748.8035,N,12217.8723,W,2,04,2.0,38.2,M,-25.1,M,,0000*5B
$GPGSA,A,3,05,07,06,10,,,,,,,,,2.8,2.0,1.9*37
$GPRMC,202827.000,A,3748.8035,N,12217.8723,W,0.62,120.84,290611,,,D*7D
$GPVTG,120.84,T,,M,0.62,N,1.2,K,D*00
$GPGGA,202828.000,3748.8036,N,12217.8723,W,2,03,18.4,39.0,M,-25.1,M,,0000*6C
$GPGSA,A,2,07,06,10,,,,,,,,,,18.4,18.4,1.0*32
$GPGSV,3,1,12,07,66,014,21,08,54,312,33,13,48,136,32,28,40,225,40*74
$GPGSV,3,2,12,19,32,078,27,10,32,239,40,05,23,296,,03,18,048,25*7C
$GPGSV,3,3,12,23,17,139,33,01,12,227,,06,09,039,22,26,04,316,*72
$GPRMC,202828.000,A,3748.8036,N,12217.8723,W,0.80,86.53,290611,,,D*4A
$GPVTG,86.53,T,,M,0.80,N,1.5,K,N*36
$GPGGA,202829.000,3748.8036,N,12217.8724,W,2,04,2.0,40.1,M,-25.1,M,,0000*5D
$GPGSA,A,3,05,07,06,10,,,,,,,,,2.8,2.0,1.9*37
$GPRMC,202829.000,A,3748.8036,N,12217.8724,W,0.17,22.78,290611,,,D*45
$GPVTG,22.78,T,,M,0.17,N,0.3,K,D*32
$GPGGA,202830.000,3748.8032,N,12217.8723,W,2,04,2.0,40.0,M,-25.1,M,1.8,0000*70
$GPGSA,A,3,05,07,06,10,,,,,,,,,2.8,2.0,1.9*37
$GPRMC,202830.000,A,3748.8032,N,12217.8723,W,0.03,176.97,290611,,,D*7A
$GPVTG,176.97,T,,M,0.03,N,0.1,K,D*04
$GPGGA,202831.000,3748.8035,N,12217.8725,W,2,03,2.0,39.6,M,-25.1,M,2.8,0000*7C
$GPGSA,A,2,05,06,10,,,,,,,,,,2.2,2.0,1.0*32
$GPRMC,202831.000,A,3748.8035,N,12217.8725,W,0.24,55.89,290611,,,D*40
$GPVTG,55.89,T,,M,0.24,N,0.4,K,D*3B
$GPGGA,202832.000,3748.8035,N,12217.8724,W,2,04,2.0,39.9,M,-25.1,M,1.8,0000*75
$GPGSA,A,3,05,07,06,10,,,,,,,,,2.8,2.0,1.9*37
$GPRMC,202832.000,A,3748.8035,N,12217.8724,W,0.34,67.06,290611,,,D*45
$GPVTG,67.06,T,,M,0.34,N,0.6,K,D*3E
$GPGGA,202833.000,3748.8039,N,12217.8728,W,2,04,2.0,40.3,M,-25.1,M,2.8,0000*73
$GPGSA,A,3,05,07,06,10,,,,,,,,,2.8,2.0,1.9*37
$GPGSV,3,1,12,07,66,014,23,08,54,312,22,13,48,136,24,28,40,225,25*72
$GPGSV,3,2,12,19,32,078,27,10,32,239,28,05,23,296,24,03,18,048,18*7A
$GPGSV,3,3,12,23,17,139,26,01,12,227,,06,09,039,24,26,04,316,*70
$GPRMC,202833.000,A,3748.8039,N,12217.8728,W,0.46,326.41,290611,,,D*74
$GPGGA,202834.000,3748.8019,N,12217.8707,W,2,05,1.3,39.5,M,-25.1,M,3.8,0000*73
$GPGSA,A,3,05,07,13,06,10,,,,,,,,2.3,1.3,1.9*3E
$GPRMC,202834.000,A,3748.8019,N,12217.8707,W,0.57,183.27,290611,,,D*71
$GPVTG,183.27,T,,M,0.57,N,1.1,K,D*05
$GPGGA,202835.000,3748.8018,N,12217.8705,W,2,05,1.3,38.4,M,-25.1,M,4.8,0000*76
$GPGSA,A,3,05,07,13,06,10,,,,,,,,2.3,1.3,1.9*3E
$GPRMC,202835.000,A,3748.8018,N,12217.8705,W,0.57,300.91,290611,,,D*77
$GPVTG,300.91,T,,M,0.57,N,1.1,K,D*01
$GPGGA,202836.000,3748.8006,N,12217.8695,W,2,05,1.3,35.7,M,-25.1,M,5.8,0000*7D
$GPGSA,A,3,05,07,13,06,10,,,,,,,,2.3,1.3,1.9*3E
$GPRMC,202836.000,A,3748.8006,N,12217.8695,W,0.36,186.71,290611,,,D*76
$GPVTG,186.71,T,,M,0.36,N,0.7,K,D*03
$GPGGA,202837.000,3748.8001,N,12217.8688,W,2,05,1.3,34.4,M,-25.1,M,6.8,0000*76
$GPGSA,A,3,05,07,13,06,10,,,,,,,,2.3,1.3,1.9*3E
$GPRMC,202837.000,A,3748.8001,N,12217.8688,W,0.19,214.20,290611,,,D*7D
$GPVTG,214.20,T,,M,0.19,N,0.3,K,D*06
$GPGGA,202838.000,3748.8005,N,12217.8690,W,2,04,2.7,33.5,M,-25.1,M,1.8,0000*73
$GPGSA,A,3,05,13,06,10,,,,,,,,,6.9,2.7,6.3*3D
$GPGSV,3,1,12,07,66,014,18,08,54,312,25,13,48,136,30,28,40,225,33*7F
$GPGSV,3,2,12,19,32,078,33,10,32,239,33,05,23,296,23,03,18,048,20*79
$GPGSV,3,3,12,23,17,139,39,01,12,227,,06,09,039,24,26,04,316,*7E
$GPRMC,202838.000,A,3748.8005,N,12217.8690,W,0.25,301.76,290611,,,D*76
$GPVTG,301.76,T,,M,0.25,N,0.5,K,D*09
$GPGGA,202839.000,3748.8008,N,12217.8689,W,2,04,2.7,33.4,M,-25.1,M,2.8,0000*75
$GPGSA,A,3,05,13,06,10,,,,,,,,,6.9,2.7,6.3*3D
$GPRMC,202839.000,A,3748.8008,N,12217.8689,W,0.57,342.35,290611,,,D*77
$GPVTG,342.35,T,,M,0.57,N,1.1,K,D*09
$GPGGA,202840.000,3748.8009,N,12217.8687,W,2,03,1.8,34.0,M,-25.1,M,3.8,0000*7D
$GPGSA,A,2,13,06,10,,,,,,,,,,2.0,1.8,1.0*3C
$GPRMC,202840.000,A,3748.8009,N,12217.8687,W,0.35,330.41,290611,,,D*74
$GPVTG,330.41,T,,M,0.35,N,0.6,K,D*0D
$GPGGA,202841.000,3748.8008,N,12217.8685,W,2,03,1.8,34.6,M,-25.1,M,4.8,0000*7E
$GPGSA,A,2,13,06,10,,,,,,,,,,2.0,1.8,1.0*3C
$GPRMC,202841.000,A,3748.8008,N,12217.8685,W,0.54,31.86,290611,,,D*48
$GPVTG,31.86,T,,M,0.54,N,1.0,K,D*34
$GPGGA,202842.000,3748.7998,N,12217.8680,W,2,05,1.3,32.9,M,-25.1,M,1.8,0000*76
$GPGSA,A,3,05,07,13,06,10,,,,,,,,2.3,1.3,1.9*3E
$GPRMC,202842.000,A,3748.7998,N,12217.8680,W,0.43,175.08,290611,,,D*70
$GPVTG,175.08,T,,M,0.43,N,0.8,K,D*0C
$GPGGA,202843.000,3748.7991,N,12217.8675,W,2,05,1.3,30.4,M,-25.1,M,1.8,0000*7B
$GPGSA,A,3,05,07,13,06,10,,,,,,,,2.3,1.3,1.9*3E
$GPGSV,3,1,12,07,66,014,28,08,54,312,,13,48,136,29,28,40,225,34*74
$GPGSV,3,2,12,19,32,078,33,10,32,239,37,05,23,296,28,03,18,048,27*71
$GPGSV,3,3,12,23,17,139,38,01,12,227,,06,09,039,24,26,04,316,*7F
$GPRMC,202843.000,A,3748.7991,N,12217.8675,W,0.26,150.93,290611,,,D*74
$GPVTG,150.93,T,,M,0.26,N,0.5,K,D*07
$GPGGA,202844.000,3748.7989,N,12217.8673,W,2,05,1.3,28.9,M,-25.1,M,1.8,0000*77
$GPGSA,A,3,05,07,13,06,10,,,,,,,,2.3,1.3,1.9*3E
$GPRMC,202844.000,A,3748.7989,N,12217.8673,W,0.30,164.98,290611,,,D*77
$GPVTG,164.98,T,,M,0.30,N,0.6,K,D*0F
$GPGGA,202845.000,3748.7985,N,12217.8669,W,2,05,1.3,27.0,M,-25.1,M,1.8,0000*77
$GPGSA,A,3,05,07,13,06,10,,,,,,,,2.3,1.3,1.9*3E
$GPRMC,202845.000,A,3748.7985,N,12217.8669,W,0.18,163.88,290611,,,D*7D
$GPVTG,163.88,T,,M,0.18,N,0.3,K,D*06
$GPGGA,202846.000,3748.7981,N,12217.8665,W,2,05,1.3,25.6,M,-25.1,M,1.8,0000*78
$GPGSA,A,3,05,07,13,06,10,,,,,,,,2.3,1.3,1.9*3E
$GPRMC,202846.000,A,3748.7981,N,12217.8665,W,0.38,137.68,290611,,,D*7B
$GPVTG,137.68,T,,M,0.38,N,0.7,K,D*0F
$GPGGA,202847.000,3748.7978,N,12217.8661,W,2,05,1.3,24.4,M,-25.1,M,2.8,0000*7B
$GPGSA,A,3,05,07,13,06,10,,,,,,,,2.3,1.3,1.9*3E
$GPRMC,202847.000,A,3748.7978,N,12217.8661,W,1.00,131.63,290611,,,D*7F
$GPVTG,131.63,T,,M,1.00,N,1.8,K,D*06
$GPGGA,202848.000,3748.7975,N,12217.8657,W,2,05,1.3,25.4,M,-25.1,M,3.8,0000*7C
$GPGSA,A,3,05,07,13,06,10,,,,,,,,2.3,1.3,1.9*3E
$GPGSV,3,1,12,07,66,014,27,08,54,312,26,13,48,136,36,28,40,225,38*7D
$GPGSV,3,2,12,19,32,078,32,10,31,239,37,05,23,296,29,03,18,048,27*72
$GPGSV,3,3,12,23,17,139,38,01,12,227,,06,09,039,26,26,04,316,*7D
$GPVTG,122.46,T,,M,1.70,N,3.2,K,D*0C
$GPGGA,202849.000,3748.7968,N,12217.8650,W,2,05,1.3,25.7,M,-25.1,M,4.8,0000*72
$GPGSA,A,3,05,07,13,06,10,,,,,,,,2.3,1.3,1.9*3E
$GPRMC,202849.000,A,3748.7968,N,12217.8650,W,2.22,129.23,290611,,,D*7C
$GPVTG,129.23,T,,M,2.22,N,4.1,K,D*04
$GPGGA,202850.000,3748.7962,N,12217.8644,W,2,05,1.3,25.8,M,-25.1,M,1.8,0000*7F
$GPGSA,A,3,05,07,13,06,10,,,,,,,,2.3,1.3,1.9*3E
$GPRMC,202850.000,A,3748.7962,N,12217.8644,W,2.40,126.71,290611,,,D*77
$GPVTG,126.71,T,,M,2.40,N,4.5,K,D*0C
$GPGGA,202851.000,3748.7957,N,12217.8638,W,2,05,1.3,26.3,M,-25.1,M,1.8,0000*7B
$GPGSA,A,3,05,07,13,06,10,,,,,,,,2.3,1.3,1.9*3E
$GPRMC,202851.000,A,3748.7957,N,12217.8638,W,2.44,132.07,290611,,,D*7B
$GPVTG,132.07,T,,M,2.44,N,4.5,K,D*0C
$GPGGA,202852.000,3748.7952,N,12217.8631,W,2,05,1.3,27.2,M,-25.1,M,1.8,0000*74
$GPGSA,A,3,05,07,13,06,10,,,,,,,,2.3,1.3,1.9*3E
$GPRMC,202852.000,A,3748.7952,N,12217.8631,W,2.36,119.11,290611,,,D*7F
$GPVTG,119.11,T,,M,2.36,N,4.4,K,D*06
$GPGGA,202853.000,3748.7947,N,12217.8624,W,2,05,1.3,28.0,M,-25.1,M,2.8,0000*7B
$GPGSA,A,3,05,07,13,06,10,,,,,,,,2.3,1.3,1.9*3E
$GPGSV,3,1,12,07,66,014,26,08,54,312,24,13,48,136,37,28,40,225,38*7F
$GPGSV,3,2,12,19,32,078,32,10,31,239,37,05,23,296,23,03,18,048,27*78
$GPGSV,3,3,12,23,17,139,39,01,12,227,,06,09,039,26,26,04,316,*7C
$GPRMC,202853.000,A,3748.7947,N,12217.8624,W,2.46,117.42,290611,,,D*71
$GPVTG,117.42,T,,M,2.46,N,4.6,K,D*0B
$GPGGA,202854.000,3748.7939,N,12217.8615,W,2,05,1.3,27.1,M,-25.1,M,3.8,0000*78
$GPGSA,A,3,05,07,13,06,10,,,,,,,,2.3,1.3,1.9*3E
$GPRMC,202854.000,A,3748.7939,N,12217.8615,W,2.46,120.17,290611,,,D*79
$GPVTG,120.17,T,,M,2.46,N,4.6,K,D*0F
$GPGGA,202855.000,3748.7931,N,12217.8607,W,2,05,1.3,26.7,M,-25.1,M,4.8,0000*72
$GPGSA,A,3,05,07,13,06,10,,,,,,,,2.3,1.3,1.9*3E
$GPRMC,202855.000,A,3748.7931,N,12217.8607,W,2.41,121.34,290611,,,D*74
$GPVTG,121.34,T,,M,2.41,N,4.5,K,D*0B
$GPGGA,202856.000,3748.7921,N,12217.8598,W,2,05,1.3,26.2,M,-25.1,M,1.8,0000*75
$GPGSA,A,3,05,07,13,06,10,,,,,,,,2.3,1.3,1.9*3E
$GPRMC,202856.000,A,3748.7921,N,12217.8598,W,2.98,130.35,290611,,,D*76
$GPVTG,130.35,T,,M,2.98,N,5.5,K,D*0F
$GPGGA,202857.000,3748.7913,N,12217.8590,W,2,05,1.3,25.9,M,-25.1,M,1.8,0000*75
$GPGSA,A,3,05,07,13,06,10,,,,,,,,2.3,1.3,1.9*3E
$GPRMC,202857.000,A,3748.7913,N,12217.8590,W,2.70,125.24,290611,,,D*7C
$GPVTG,125.24,T,,M,2.70,N,5.0,K,D*08
$GPGGA,202858.000,3748.7907,N,12217.8581,W,2,05,1.3,26.3,M,-25.1,M,1.8,0000*76
$GPGSA,A,3,05,07,13,06,10,,,,,,,,2.3,1.3,1.9*3E
$GPGSV,3,1,12,07,66,014,26,08,54,312,22,13,48,136,37,28,40,225,38*79
$GPGSV,3,2,12,19,32,078,33,10,31,239,36,05,23,296,24,03,18,048,27*7F
$GPGSV,3,3,12,23,17,139,40,01,12,227,,06,09,039,23,26,04,316,*77
$GPRMC,202858.000,A,3748.7907,N,12217.8581,W,2.48,128.52,290611,,,D*71
$GPVTG,128.52,T,,M,2.48,N,4.6,K,D*08
$GPGGA,202859.000,3748.7903,N,12217.8575,W,2,05,1.3,25.6,M,-25.1,M,2.8,0000*7D
$GPGSA,A,3,05,07,13,06,10,,,,,,,,2.3,1.3,1.9*3E
$GPRMC,202859.000,A,3748.7903,N,12217.8575,W,2.61,116.36,290611,,,D*7B
$GPVTG,116.36,T,,M,2.61,N,4.8,K,D*02
$GPGGA,202900.000,3748.7902,N,12217.8567,W,2,05,1.3,25.7,M,-25.1,M,3.8,0000*72
$GPGSA,A,3,05,07,13,06,10,,,,,,,,2.3,1.3,1.9*3E
$GPRMC,202900.000,A,3748.7902,N,12217.8567,W,2.44,108.79,290611,,,D*77
$GPVTG,108.79,T,,M,2.44,N,4.5,K,D*0C
$GPGGA,202901.000,3748.7896,N,12217.8555,W,2,05,1.3,25.3,M,-25.1,M,1.8,0000*78
$GPGSA,A,3,05,07,13,06,10,,,,,,,,2.3,1.3,1.9*3E
$GPRMC,202901.000,A,3748.7896,N,12217.8555,W,2.76,118.81,290611,,,D*7C
$GPVTG,118.81,T,,M,2.76,N,5.1,K,D*0E
$GPGGA,202902.000,3748.7895,N,12217.8542,W,2,05,1.3,25.7,M,-25.1,M,1.8,0000*7A
$GPGSA,A,3,05,07,13,06,10,,,,,,,,2.3,1.3,1.9*3E
$GPRMC,202902.000,A,3748.7895,N,12217.8542,W,2.48,109.78,290611,,,D*71
$GPVTG,109.78,T,,M,2.48,N,4.6,K,D*03
$GPGGA,202903.000,3748.7892,N,12217.8532,W,2,05,1.3,25.9,M,-25.1,M,1.8,0000*75
$GPGSA,A,3,05,07,13,06,10,,,,,,,,2.3,1.3,1.9*3E
$GPGSV,3,1,12,07,66,014,27,08,54,312,23,13,48,136,36,28,40,225,33*73
$GPGSV,3,2,12,19,32,078,32,10,31,239,29,05,23,296,23,03,18,048,22*72
$GPGSV,3,3,12,23,17,139,41,01,12,227,,06,09,039,22,26,04,316,*77
$GPVTG,120.79,T,,M,1.91,N,3.5,K,D*0A
$GPGGA,202904.000,3748.7888,N,12217.8526,W,2,05,1.3,25.9,M,-25.1,M,1.8,0000*7C
$GPGSA,A,3,05,07,13,06,10,,,,,,,,2.3,1.3,1.9*3E
$GPRMC,202904.000,A,3748.7888,N,12217.8526,W,2.11,117.82,290611,,,D*7F
$GPVTG,117.82,T,,M,2.11,N,3.9,K,D*0D
$GPGGA,202905.000,3748.7886,N,12217.8520,W,2,05,1.3,26.6,M,-25.1,M,0.8,0000*78
$GPGSA,A,3,05,07,13,06,10,,,,,,,,2.3,1.3,1.9*3E
$GPRMC,202905.000,A,3748.7886,N,12217.8520,W,2.01,119.60,290611,,,D*75
$GPVTG,119.60,T,,M,2.01,N,3.7,K,D*00
$GPGGA,202906.000,3748.7881,N,12217.8516,W,2,05,1.3,25.8,M,-25.1,M,1.8,0000*75
$GPGSA,A,3,05,07,13,06,10,,,,,,,,2.3,1.3,1.9*3E
$GPRMC,202906.000,A,3748.7881,N,12217.8516,W,2.12,124.91,290611,,,D*76
$GPVTG,124.91,T,,M,2.12,N,3.9,K,D*0C
$GPGGA,202907.000,3748.7877,N,12217.8511,W,2,05,1.3,24.9,M,-25.1,M,2.8,0000*79
$GPGSA,A,3,05,07,13,06,10,,,,,,,,2.3,1.3,1.9*3E
$GPRMC,202907.000,A,3748.7877,N,12217.8511,W,2.00,118.15,290611,,,D*79
$GPVTG,118.15,T,,M,2.00,N,3.7,K,D*02
$GPGGA,202908.000,3748.7876,N,12217.8506,W,2,05,1.3,25.0,M,-25.1,M,3.8,0000*78
$GPGSA,A,3,05,07,13,06,10,,,,,,,,2.3,1.3,1.9*3E
$GPGSV,3,1,12,07,66,014,27,08,54,312,23,13,48,136,28,28,40,225,35*7A
$GPGSV,3,2,12,19,32,078,32,10,31,239,35,05,23,296,26,03,18,048,19*72
$GPGSV,3,3,12,23,17,139,31,01,12,227,,06,09,039,19,26,04,316,*78
$GPRMC,202908.000,A,3748.7876,N,12217.8506,W,2.19,100.78,290611,,,D*7B
$GPVTG,100.78,T,,M,2.19,N,4.1,K,D*09
$GPGGA,202909.000,3748.7874,N,12217.8499,W,2,05,1.3,25.4,M,-25.1,M,4.8,0000*7F
$GPGSA,A,3,05,07,13,06,10,,,,,,,,2.3,1.3,1.9*3E
$GPRMC,202909.000,A,3748.7874,N,12217.8499,W,2.50,111.61,290611,,,D*7A
$GPVTG,111.61,T,,M,2.50,N,4.6,K,D*0B
$GPGGA,202910.000,3748.7876,N,12217.8492,W,2,05,1.3,26.0,M,-25.1,M,5.8,0000*78
$GPGSA,A,3,05,07,13,06,10,,,,,,,,2.3,1.3,1.9*3E
$GPRMC,202910.000,A,3748.7876,N,12217.8492,W,2.24,103.05,290611,,,D*79
$GPVTG,103.05,T,,M,2.24,N,4.2,K,D*0D
$GPGGA,202911.000,3748.7877,N,12217.8483,W,2,05,1.3,26.7,M,-25.1,M,6.8,0000*7C
$GPGSA,A,3,05,07,13,06,10,,,,,,,,2.3,1.3,1.9*3E
$GPRMC,202911.000,A,3748.7877,N,12217.8483,W,2.08,98.73,290611,,,D*45
$GPVTG,98.73,T,,M,2.08,N,3.9,K,D*3D
$GPGGA,202912.000,3748.7875,N,12217.8476,W,2,05,1.3,27.2,M,-25.1,M,7.8,0000*72
$GPGSA,A,3,05,07,13,06,10,,,,,,,,2.3,1.3,1.9*3E
$GPRMC,202912.000,A,3748.7875,N,12217.8476,W,2.18,115.41,290611,,,D*7A
$GPVTG,115.41,T,,M,2.18,N,4.0,K,D*07
$GPGGA,202913.000,3748.7872,N,12217.8466,W,2,05,1.3,27.7,M,-25.1,M,8.8,0000*7F
$GPGSA,A,3,05,07,13,06,10,,,,,,,,2.3,1.3,1.9*3E
$GPGSV,3,1,12,07,66,014,25,08,54,312,23,13,48,136,37,28,40,225,35*76
$GPGSV,3,2,12,19,32,078,33,10,31,239,35,05,23,296,21,03,18,048,23*7D
$GPGSV,3,3,12,23,17,139,42,01,12,227,,06,09,039,20,26,04,316,*76
$GPRMC,202913.000,A,3748.7872,N,12217.8466,W,2.08,115.44,290611,,,D*79
$GPVTG,115.44,T,,M,2.08,N,3.9,K,D*0D
$GPGGA,202914.000,3748.7870,N,12217.8457,W,2,05,1.3,26.6,M,-25.1,M,1.8,0000*71
$GPGSA,A,3,05,07,13,06,10,,,,,,,,2.3,1.3,1.9*3E
$GPRMC,202914.000,A,3748.7870,N,12217.8457,W,1.97,114.14,290611,,,D*7F
$GPVTG,114.14,T,,M,1.97,N,3.6,K,D*03
$GPGGA,202915.000,3748.7869,N,12217.8448,W,2,05,1.3,25.4,M,-25.1,M,1.8,0000*77
$GPGSA,A,3,05,07,13,06,10,,,,,,,,2.3,1.3,1.9*3E
$GPRMC,202915.000,A,3748.7869,N,12217.8448,W,2.22,112.58,290611,,,D*7B
$GPVTG,112.58,T,,M,2.22,N,4.1,K,D*00
$GPGGA,202916.000,3748.7866,N,12217.8441,W,2,05,1.3,24.7,M,-25.1,M,1.8,0000*70
$GPGSA,A,3,05,07,13,06,10,,,,,,,,2.3,1.3,1.9*3E
$GPRMC,202916.000,A,3748.7866,N,12217.8441,W,2.40,125.40,290611,,,D*77
$GPVTG,125.40,T,,M,2.40,N,4.4,K,D*0C
$GPGGA,202917.000,3748.7859,N,12217.8432,W,2,05,1.3,23.0,M,-25.1,M,1.8,0000*79
$GPGSA,A,3,05,07,13,06,10,,,,,,,,2.3,1.3,1.9*3E
$GPRMC,202917.000,A,3748.7859,N,12217.8432,W,2.57,117.97,290611,,,D*73
$GPVTG,117.97,T,,M,2.57,N,4.8,K,D*0D
$GPGGA,202918.000,3748.7855,N,12217.8423,W,2,05,1.3,23.0,M,-25.1,M,1.8,0000*7A
$GPGSA,A,3,05,07,13,06,10,,,,,,,,2.3,1.3,1.9*3E
$GPGSV,3,1,12,07,66,015,26,08,54,312,22,13,48,137,22,28,40,226,31*77
$GPGSV,3,2,12,19,32,077,26,10,31,238,28,05,23,296,24,03,18,047,22*70
$GPGSV,3,3,12,23,16,140,34,01,12,227,,06,08,039,23,26,04,316,*7A
$GPRMC,202918.000,A,3748.7855,N,12217.8423,W,2.21,118.68,290611,,,D*7E
$GPVTG,118.68,T,,M,2.21,N,4.1,K,D*0A
$GPGGA,202919.000,3748.7852,N,12217.8412,W,2,05,1.3,22.4,M,-25.1,M,2.8,0000*78
$GPGSA,A,3,05,07,13,06,10,,,,,,,,2.3,1.3,1.9*3E
$GPRMC,202919.000,A,3748.7852,N,12217.8412,W,2.47,122.64,290611,,,D*7F
$GPVTG,122.64,T,,M,2.47,N,4.6,K,D*08
$GPGGA,202920.000,3748.7842,N,12217.8403,W,2,05,1.3,20.5,M,-25.1,M,3.8,0000*71
$GPGSA,A,3,05,07,13,06,10,,,,,,,,2.3,1.3,1.9*3E
$GPRMC,202920.000,A,3748.7842,N,12217.8403,W,2.84,137.11,290611,,,D*7D
$GPVTG,137.11,T,,M,2.84,N,5.3,K,D*05
$GPGGA,202921.000,3748.7841,N,12217.8399,W,2,05,1.3,21.0,M,-25.1,M,4.8,0000*74
$GPGSA,A,3,05,07,13,06,10,,,,,,,,2.3,1.3,1.9*3E
$GPRMC,202921.000,A,3748.7841,N,12217.8399,W,1.70,107.67,290611,,,D*71
$GPVTG,107.67,T,,M,1.70,N,3.2,K,D*08
$GPGGA,202922.000,3748.7844,N,12217.8397,W,2,06,1.2,21.3,M,-25.1,M,5.8,0000*7C
$GPGSA,A,3,05,07,13,06,10,28,,,,,,,2.3,1.2,1.9*35
$GPRMC,202922.000,A,3748.7844,N,12217.8397,W,2.13,120.23,290611,,,D*7A
$GPVTG,120.23,T,,M,2.13,N,3.9,K,D*00
$GPGGA,202923.000,3748.7841,N,12217.8384,W,2,06,1.2,21.5,M,-25.1,M,6.8,0000*7F
$GPGSA,A,3,05,07,13,06,10,28,,,,,,,2.3,1.2,1.9*35
$GPGSV,3,1,12,07,66,015,17,08,54,312,21,13,48,137,27,28,40,226,31*73
$GPGSV,3,2,12,19,32,077,30,10,31,238,27,05,23,296,21,03,18,047,26*79
$GPGSV,3,3,12,23,16,140,34,01,12,227,,06,08,039,21,26,04,316,*78
$GPRMC,202923.000,A,3748.7841,N,12217.8384,W,3.39,121.92,290611,,,D*7E
$GPGGA,202924.000,3748.7840,N,12217.8374,W,2,05,2.6,21.2,M,-25.1,M,7.8,0000*74
$GPGSA,A,3,05,13,06,10,28,,,,,,,,6.7,2.6,6.2*39
$GPRMC,202924.000,A,3748.7840,N,12217.8374,W,2.79,118.43,290611,,,D*74
$GPVTG,118.43,T,,M,2.79,N,5.2,K,D*0C
$GPGGA,202925.000,3748.7835,N,12217.8366,W,2,05,2.6,21.1,M,-25.1,M,8.8,0000*78
$GPGSA,A,3,05,13,06,10,28,,,,,,,,6.7,2.6,6.2*39
$GPRMC,202925.000,A,3748.7835,N,12217.8366,W,2.88,128.92,290611,,,D*75
$GPVTG,128.92,T,,M,2.88,N,5.3,K,D*0C
$GPGGA,202926.000,3748.7825,N,12217.8358,W,2,06,1.2,18.8,M,-25.1,M,9.8,0000*71
$GPGSA,A,3,05,07,13,06,10,28,,,,,,,2.3,1.2,1.9*35
$GPRMC,202926.000,A,3748.7825,N,12217.8358,W,2.98,130.21,290611,,,D*7A
$GPVTG,130.21,T,,M,2.98,N,5.5,K,D*0A
$GPGGA,202927.000,3748.7818,N,12217.8349,W,2,06,1.2,17.9,M,-25.1,M,1.8,0000*78
$GPGSA,A,3,05,07,13,06,10,28,,,,,,,2.3,1.2,1.9*35
$GPRMC,202927.000,A,3748.7818,N,12217.8349,W,2.40,126.03,290611,,,D*77
$GPVTG,126.03,T,,M,2.40,N,4.4,K,D*08
$GPGGA,202928.000,3748.7815,N,12217.8339,W,2,06,1.2,18.3,M,-25.1,M,2.8,0000*7B
$GPGSA,A,3,05,07,13,06,10,28,,,,,,,2.3,1.2,1.9*35
$GPGSV,3,1,12,07,66,015,26,08,54,312,22,13,48,137,36,28,40,226,35*76
$GPGSV,3,2,12,19,32,077,33,10,31,238,33,05,23,296,22,03,18,047,25*7F
$GPGSV,3,3,12,23,16,140,38,01,12,227,,06,08,039,21,26,04,316,*74
$GPRMC,202928.000,A,3748.7815,N,12217.8339,W,2.79,118.96,290611,,,D*79
$GPVTG,118.96,T,,M,2.79,N,5.2,K,D*04
$GPGGA,202929.000,3748.7812,N,12217.8330,W,2,06,1.2,18.7,M,-25.1,M,3.8,0000*71
$GPGSA,A,3,05,07,13,06,10,28,,,,,,,2.3,1.2,1.9*35
$GPRMC,202929.000,A,3748.7812,N,12217.8330,W,2.58,113.28,290611,,,D*7B
$GPVTG,113.28,T,,M,2.58,N,4.8,K,D*02
$GPGGA,202930.000,3748.7810,N,12217.8321,W,2,06,1.2,18.7,M,-25.1,M,4.8,0000*7C
$GPGSA,A,3,05,07,13,06,10,28,,,,,,,2.3,1.2,1.9*35
$GPRMC,202930.000,A,3748.7810,N,12217.8321,W,2.27,110.17,290611,,,D*76
$GPVTG,110.17,T,,M,2.27,N,4.2,K,D*0F
$GPGGA,202931.000,3748.7807,N,12217.8311,W,2,06,1.2,18.9,M,-25.1,M,5.8,0000*77
$GPGSA,A,3,05,07,13,06,10,28,,,,,,,2.3,1.2,1.9*35
$GPRMC,202931.000,A,3748.7807,N,12217.8311,W,2.48,103.62,290611,,,D*7B
$GPVTG,103.62,T,,M,2.48,N,4.6,K,D*02
$GPGGA,202932.000,3748.7803,N,12217.8301,W,2,06,1.2,18.8,M,-25.1,M,6.8,0000*73
$GPGSA,A,3,05,07,13,06,10,28,,,,,,,2.3,1.2,1.9*35
$GPRMC,202932.000,A,3748.7803,N,12217.8301,W,2.34,107.30,290611,,,D*75
$GPVTG,107.30,T,,M,2.34,N,4.3,K,D*0F
$GPGGA,202933.000,3748.7803,N,12217.8294,W,2,06,1.2,19.0,M,-25.1,M,7.8,0000*77
$GPGSA,A,3,05,07,13,06,10,28,,,,,,,2.3,1.2,1.9*35
$GPGSV,3,1,12,07,66,015,26,08,54,312,22,13,48,137,34,28,40,226,28*78
$GPGSV,3,2,12,19,32,077,34,10,31,238,32,05,23,296,22,03,18,047,19*76
$GPGSV,3,3,12,23,16,140,38,01,12,227,,06,08,039,20,26,04,316,*75
$GPRMC,202933.000,A,3748.7803,N,12217.8294,W,1.94,120.58,290611,,,D*7B
$GPVTG,120.58,T,,M,1.94,N,3.6,K,D*0F
$GPGGA,202934.000,3748.7798,N,12217.8284,W,2,07,1.0,17.8,M,-25.1,M,8.8,0000*76
$GPGSA,A,3,05,07,13,23,06,10,28,,,,,,1.9,1.0,1.6*30
$GPRMC,202934.000,A,3748.7798,N,12217.8284,W,2.28,129.43,290611,,,D*77
$GPVTG,129.43,T,,M,2.28,N,4.2,K,D*0B
$GPGGA,202935.000,3748.7796,N,12217.8276,W,2,07,1.0,17.9,M,-25.1,M,9.8,0000*74
$GPGSA,A,3,05,07,13,23,06,10,28,,,,,,1.9,1.0,1.6*30
$GPRMC,202935.000,A,3748.7796,N,12217.8276,W,2.38,126.01,290611,,,D*7D
$GPVTG,126.01,T,,M,2.38,N,4.4,K,D*05
$GPGGA,202936.000,3748.7792,N,12217.8268,W,2,07,1.0,17.4,M,-25.1,M,10.8,0000*49
$GPGSA,A,3,05,07,13,23,06,10,28,,,,,,1.9,1.0,1.6*30
$GPRMC,202936.000,A,3748.7792,N,12217.8268,W,2.65,127.26,290611,,,D*79
$GPVTG,127.26,T,,M,2.65,N,4.9,K,D*04
$GPGGA,202937.000,3748.7787,N,12217.8259,W,2,07,1.0,16.4,M,-25.1,M,11.8,0000*4E
$GPGSA,A,3,05,07,13,23,06,10,28,,,,,,1.9,1.0,1.6*30
$GPRMC,202937.000,A,3748.7787,N,12217.8259,W,2.54,124.48,290611,,,D*77
$GPVTG,124.48,T,,M,2.54,N,4.7,K,D*03
$GPGGA,202938.000,3748.7783,N,12217.8251,W,2,07,1.0,15.9,M,-25.1,M,12.8,0000*40
$GPGSA,A,3,05,07,13,23,06,10,28,,,,,,1.9,1.0,1.6*30
$GPGSV,3,1,12,07,66,015,26,08,54,312,22,13,48,137,32,28,40,226,36*71
$GPGSV,3,2,12,19,32,077,25,10,31,238,33,05,23,296,22,03,18,047,19*77
$GPRMC,202938.000,A,3748.7783,N,12217.8251,W,2.47,129.86,290611,,,D*79
$GPVTG,129.86,T,,M,2.47,N,4.6,K,D*0F
$GPGGA,202939.000,3748.7779,N,12217.8243,W,2,07,1.0,15.1,M,-25.1,M,13.8,0000*4E
$GPGSA,A,3,05,07,13,23,06,10,28,,,,,,1.9,1.0,1.6*30
$GPRMC,202939.000,A,3748.7779,N,12217.8243,W,2.13,113.70,290611,,,D*7F
$GPVTG,113.70,T,,M,2.13,N,4.0,K,D*08
$GPGGA,202940.000,3748.7779,N,12217.8235,W,2,07,1.0,14.7,M,-25.1,M,14.8,0000*41
$GPGSA,A,3,05,07,13,23,06,10,28,,,,,,1.9,1.0,1.6*30
$GPRMC,202940.000,A,3748.7779,N,12217.8235,W,2.19,105.70,290611,,,D*7D
$GPVTG,105.70,T,,M,2.19,N,4.1,K,D*04
$GPGGA,202941.000,3748.7778,N,12217.8226,W,2,07,1.0,13.8,M,-25.1,M,15.8,0000*4A
$GPGSA,A,3,05,07,13,23,06,10,28,,,,,,1.9,1.0,1.6*30
$GPRMC,202941.000,A,3748.7778,N,12217.8226,W,2.35,102.04,290611,,,D*75
$GPVTG,102.04,T,,M,2.35,N,4.3,K,D*0C
$GPGGA,202942.000,3748.7776,N,12217.8219,W,2,07,1.0,12.7,M,-25.1,M,16.8,0000*46
$GPGSA,A,3,05,07,13,23,06,10,28,,,,,,1.9,1.0,1.6*30
$GPRMC,202942.000,A,3748.7776,N,12217.8219,W,1.81,111.87,290611,,,D*71
$GPVTG,111.87,T,,M,1.81,N,3.4,K,D*09
$GPGGA,202943.000,3748.7773,N,12217.8212,W,2,07,1.0,11.4,M,-25.1,M,17.8,0000*48
$GPGSA,A,3,05,07,13,23,06,10,28,,,,,,1.9,1.0,1.6*30
$GPGSV,3,1,12,07,66,015,26,08,54,312,22,13,48,137,34,28,40,226,33*72
$GPGSV,3,2,12,19,32,077,33,10,31,238,31,05,23,296,22,03,18,047,19*72
$GPGSV,3,3,12,23,16,140,39,01,12,227,,06,08,038,19,26,05,316,*7E
$GPRMC,202943.000,A,3748.7773,N,12217.8212,W,2.25,91.04,290611,,,D*41
$GPVTG,91.04,T,,M,2.25,N,4.2,K,D*37
$GPGGA,202944.000,3748.7771,N,12217.8203,W,2,07,1.0,10.4,M,-25.1,M,1.8,0000*7B
$GPGSA,A,3,05,07,13,23,06,10,28,,,,,,1.9,1.0,1.6*30
$GPRMC,202944.000,A,3748.7771,N,12217.8203,W,2.17,101.61,290611,,,D*7E
$GPVTG,101.61,T,,M,2.17,N,4.0,K,D*0F
$GPGGA,202945.000,3748.7768,N,12217.8195,W,2,07,1.0,9.7,M,-25.1,M,1.8,0000*45
$GPGSA,A,3,05,07,13,23,06,10,28,,,,,,1.9,1.0,1.6*30
$GPRMC,202945.000,A,3748.7768,N,12217.8195,W,2.19,111.95,290611,,,D*7F
$GPVTG,111.95,T,,M,2.19,N,4.1,K,D*0A
$GPGGA,202946.000,3748.7767,N,12217.8187,W,2,07,1.0,9.2,M,-25.1,M,1.8,0000*4F
$GPGSA,A,3,05,07,13,23,06,10,28,,,,,,1.9,1.0,1.6*30
$GPRMC,202946.000,A,3748.7767,N,12217.8187,W,2.10,100.32,290611,,,D*74
$GPVTG,100.32,T,,M,2.10,N,3.9,K,D*01
$GPGGA,202947.000,3748.7766,N,12217.8179,W,2,07,1.0,8.8,M,-25.1,M,1.8,0000*45
$GPGSA,A,3,05,07,13,23,06,10,28,,,,,,1.9,1.0,1.6*30
$GPRMC,202947.000,A,3748.7766,N,12217.8179,W,2.05,107.79,290611,,,D*79
$GPVTG,107.79,T,,M,2.05,N,3.8,K,D*0C
$GPGGA,202948.000,3748.7765,N,12217.8171,W,2,07,1.0,8.6,M,-25.1,M,2.8,0000*4C
$GPGSA,A,3,05,07,13,23,06,10,28,,,,,,1.9,1.0,1.6*30
$GPGSV,3,1,12,07,66,015,26,08,54,312,22,13,48,137,35,28,40,226,34*74
$GPGSV,3,2,12,19,32,077,33,10,31,238,32,05,23,296,22,03,18,047,19*71
$GPGSV,3,3,12,23,16,140,41,01,12,227,,06,08,038,19,26,05,316,*71
$GPRMC,202948.000,A,3748.7765,N,12217.8171,W,2.26,114.28,290611,,,D*7A
$GPVTG,114.28,T,,M,2.26,N,4.2,K,D*06
$GPGGA,202949.000,3748.7760,N,12217.8163,W,2,07,1.0,8.2,M,-25.1,M,3.8,0000*4E
$GPGSA,A,3,05,07,13,23,06,10,28,,,,,,1.9,1.0,1.6*30
$GPRMC,202949.000,A,3748.7760,N,12217.8163,W,2.40,123.23,290611,,,D*72
$GPVTG,123.23,T,,M,2.40,N,4.5,K,D*0E
$GPGGA,202950.000,3748.7756,N,12217.8156,W,2,07,1.0,7.7,M,-25.1,M,1.8,0000*4D
$GPGSA,A,3,05,07,13,23,06,10,28,,,,,,1.9,1.0,1.6*30
$GPRMC,202950.000,A,3748.7756,N,12217.8156,W,2.25,111.94,290611,,,D*77
$GPVTG,111.94,T,,M,2.25,N,4.2,K,D*07
$GPGGA,202951.000,3748.7753,N,12217.8148,W,2,07,1.0,7.3,M,-25.1,M,1.8,0000*42
$GPGSA,A,3,05,07,13,23,06,10,28,,,,,,1.9,1.0,1.6*30
$GPRMC,202951.000,A,3748.7753,N,12217.8148,W,2.14,99.01,290611,,,D*43
$GPVTG,99.01,T,,M,2.14,N,4.0,K,D*3A
$GPGGA,202952.000,3748.7753,N,12217.8139,W,2,08,0.9,6.4,M,-25.1,M,1.8,0000*46
$GPGSA,A,3,05,07,13,23,19,06,10,28,,,,,1.8,0.9,1.6*31
$GPRMC,202952.000,A,3748.7753,N,12217.8139,W,2.05,117.11,290611,,,D*70
$GPVTG,117.11,T,,M,2.05,N,3.8,K,D*03
$GPGGA,202953.000,3748.7751,N,12217.8130,W,2,08,0.9,6.0,M,-25.1,M,2.8,0000*4B
$GPGSA,A,3,05,07,13,23,19,06,10,28,,,,,1.8,0.9,1.6*31
$GPGSV,3,1,12,07,66,015,26,08,54,313,22,13,48,137,35,28,40,226,35*74
$GPGSV,3,2,12,19,32,077,33,10,31,238,32,05,23,295,23,03,18,047,19*73
$GPGSV,3,3,12,23,16,140,40,01,12,227,,06,08,038,19,26,05,316,*70
$GPRMC,202953.000,A,3748.7751,N,12217.8130,W,2.43,113.03,290611,,,D*7F
$GPVTG,113.03,T,,M,2.43,N,4.5,K,D*0C
$GPGGA,202954.000,3748.7749,N,12217.8122,W,2,08,0.9,5.4,M,-25.1,M,3.8,0000*40
$GPGSA,A,3,05,07,13,23,19,06,10,28,,,,,1.8,0.9,1.6*31
$GPRMC,202954.000,A,3748.7749,N,12217.8122,W,2.22,104.25,290611,,,D*77
$GPVTG,104.25,T,,M,2.22,N,4.1,K,D*0D
$GPGGA,202955.000,3748.7748,N,12217.8114,W,2,08,0.9,4.8,M,-25.1,M,1.8,0000*4A
$GPGSA,A,3,05,07,13,23,19,06,10,28,,,,,1.8,0.9,1.6*31
$GPRMC,202955.000,A,3748.7748,N,12217.8114,W,2.20,105.82,290611,,,D*7C
$GPVTG,105.82,T,,M,2.20,N,4.1,K,D*03
$GPGGA,202956.000,3748.7747,N,12217.8106,W,2,08,0.9,4.2,M,-25.1,M,1.8,0000*4F
$GPGSA,A,3,05,07,13,23,19,06,10,28,,,,,1.8,0.9,1.6*31
$GPRMC,202956.000,A,3748.7747,N,12217.8106,W,2.22,102.16,290611,,,D*7B
$GPVTG,102.16,T,,M,2.22,N,4.1,K,D*0B
$GPGGA,202957.000,3748.7745,N,12217.8098,W,2,08,0.9,3.7,M,-25.1,M,1.8,0000*48
$GPGSA,A,3,05,07,13,23,19,06,10,28,,,,,1.8,0.9,1.6*31
$GPRMC,202957.000,A,3748.7745,N,12217.8098,W,2.20,109.91,290611,,,D*78
$GPVTG,109.91,T,,M,2.20,N,4.1,K,D*0D
$GPGGA,202958.000,3748.7742,N,12217.8090,W,2,08,0.9,3.6,M,-25.1,M,1.8,0000*49
$GPGSA,A,3,05,07,13,23,19,06,10,28,,,,,1.8,0.9,1.6*31
$GPGSV,3,1,12,07,66,015,26,08,54,313,23,13,48,137,35,28,40,226,30*70
$GPGSV,3,2,12,19,32,077,33,10,31,238,32,05,23,295,18,03,18,047,19*7B
$GPGSV,3,3,12,23,16,140,40,01,12,227,,06,08,038,19,26,05,316,*70
$GPVTG,118.62,T,,M,2.15,N,4.0,K,D*06
$GPGGA,202959.000,3748.7739,N,12217.8084,W,2,08,0.9,3.3,M,-25.1,M,2.8,0000*47
$GPGSA,A,3,05,07,13,23,19,06,10,28,,,,,1.8,0.9,1.6*31
$GPRMC,202959.000,A,3748.7739,N,12217.8084,W,2.10,123.02,290611,,,D*71
$GPVTG,123.02,T,,M,2.10,N,3.9,K,D*03
$GPGGA,203000.000,3748.7735,N,12217.8077,W,2,08,0.9,3.2,M,-25.1,M,3.8,0000*43
$GPGSA,A,3,05,07,13,23,19,06,10,28,,,,,1.8,0.9,1.6*31
$GPRMC,203000.000,A,3748.7735,N,12217.8077,W,2.11,125.92,290611,,,D*7B
$GPVTG,125.92,T,,M,2.11,N,3.9,K,D*0D
$GPGGA,203001.000,3748.7732,N,12217.8070,W,2,08,0.9,3.1,M,-25.1,M,4.8,0000*46
$GPGSA,A,3,05,07,13,23,19,06,10,28,,,,,1.8,0.9,1.6*31
$GPRMC,203001.000,A,3748.7732,N,12217.8070,W,2.33,121.75,290611,,,D*77
$GPVTG,121.75,T,,M,2.33,N,4.3,K,D*0D
$GPGGA,203002.000,3748.7728,N,12217.8062,W,2,08,0.9,3.1,M,-25.1,M,1.8,0000*48
$GPGSA,A,3,05,07,13,23,19,06,10,28,,,,,1.8,0.9,1.6*31
$GPRMC,203002.000,A,3748.7728,N,12217.8062,W,2.67,116.66,290611,,,D*7B
$GPVTG,116.66,T,,M,2.67,N,4.9,K,D*00
$GPGGA,203003.000,3748.7723,N,12217.8054,W,2,08,0.9,3.4,M,-25.1,M,1.8,0000*42
$GPGSA,A,3,05,07,13,23,19,06,10,28,,,,,1.8,0.9,1.6*31
$GPGSV,3,1,12,07,66,015,26,08,54,313,22,13,48,137,35,28,40,226,34*75
$GPGSV,3,2,12,19,32,077,28,10,31,238,27,05,23,295,23,03,18,047,19*7D
$GPGSV,3,3,12,23,16,140,39,01,12,227,,06,08,038,19,26,05,316,*7E
$GPRMC,203003.000,A,3748.7723,N,12217.8054,W,2.06,121.89,290611,,,D*76
$GPVTG,121.89,T,,M,2.06,N,3.8,K,D*04
$GPGGA,203004.000,3748.7720,N,12217.8046,W,2,07,1.1,3.3,M,-25.1,M,1.8,0000*44
$GPGSA,A,3,05,07,13,23,19,10,28,,,,,,2.3,1.1,2.0*33
$GPRMC,203004.000,A,3748.7720,N,12217.8046,W,2.09,131.42,290611,,,D*78
$GPVTG,131.42,T,,M,2.09,N,3.9,K,D*0C
$GPGGA,203005.000,3748.7715,N,12217.8039,W,2,07,1.1,3.3,M,-25.1,M,1.8,0000*4B
$GPGSA,A,3,05,07,13,23,19,10,28,,,,,,2.3,1.1,2.0*33
$GPRMC,203005.000,A,3748.7715,N,12217.8039,W,2.47,133.60,290611,,,D*7F
$GPVTG,133.60,T,,M,2.47,N,4.6,K,D*0C
$GPGGA,203006.000,3748.7711,N,12217.8031,W,2,07,1.1,3.2,M,-25.1,M,1.8,0000*45
$GPGSA,A,3,05,07,13,23,19,10,28,,,,,,2.3,1.1,2.0*33
$GPRMC,203006.000,A,3748.7711,N,12217.8031,W,2.53,121.33,290611,,,D*70
$GPVTG,121.33,T,,M,2.53,N,4.7,K,D*0D
$GPGGA,203007.000,3748.7708,N,12217.8022,W,2,07,1.1,3.3,M,-25.1,M,2.8,0000*4C
$GPGSA,A,3,05,07,13,23,19,10,28,,,,,,2.3,1.1,2.0*33
$GPRMC,203007.000,A,3748.7708,N,12217.8022,W,2.72,111.94,290611,,,D*76
$GPVTG,111.94,T,,M,2.72,N,5.0,K,D*06
$GPGGA,203008.000,3748.7705,N,12217.8012,W,2,07,1.1,3.3,M,-25.1,M,1.8,0000*4E
$GPGSA,A,3,05,07,13,23,19,10,28,,,,,,2.3,1.1,2.0*33
$GPGSV,3,1,12,07,66,015,26,08,54,313,22,13,48,137,35,28,40,226,34*75
$GPGSV,3,2,12,19,32,077,35,10,31,238,30,05,23,295,23,03,18,047,26*7B
$GPGSV,3,3,12,23,16,140,39,01,12,227,,06,08,038,,26,05,316,*76
$GPRMC,203008.000,A,3748.7705,N,12217.8012,W,2.58,115.98,290611,,,D*77
$GPVTG,115.98,T,,M,2.58,N,4.8,K,D*0F
$GPGGA,203009.000,3748.7702,N,12217.8004,W,2,07,1.1,3.1,M,-25.1,M,0.8,0000*4C
$GPGSA,A,3,05,07,13,23,19,10,28,,,,,,2.3,1.1,2.0*33
$GPRMC,203009.000,A,3748.7702,N,12217.8004,W,2.34,116.80,290611,,,D*76
$GPVTG,116.80,T,,M,2.34,N,4.3,K,D*04
$GPGGA,203010.000,3748.7699,N,12217.7996,W,2,07,1.1,3.0,M,-25.1,M,1.8,0000*4A
$GPGSA,A,3,05,07,13,23,19,10,28,,,,,,2.3,1.1,2.0*33
$GPRMC,203010.000,A,3748.7699,N,12217.7996,W,2.33,115.90,290611,,,D*75
$GPVTG,115.90,T,,M,2.33,N,4.3,K,D*01
$GPGGA,203011.000,3748.7697,N,12217.7989,W,2,07,1.1,2.8,M,-25.1,M,1.8,0000*42
$GPGSA,A,3,05,07,13,23,19,10,28,,,,,,2.3,1.1,2.0*33
$GPRMC,203011.000,A,3748.7697,N,12217.7989,W,2.17,116.65,290611,,,D*7B
$GPVTG,116.65,T,,M,2.17,N,4.0,K,D*0D
$GPGGA,203012.000,3748.7694,N,12217.7980,W,2,07,1.1,3.1,M,-25.1,M,2.8,0000*40
$GPGSA,A,3,05,07,13,23,19,10,28,,,,,,2.3,1.1,2.0*33
$GPRMC,203012.000,A,3748.7694,N,12217.7980,W,2.31,110.94,290611,,,D*7E
$GPVTG,110.94,T,,M,2.31,N,4.3,K,D*02
$GPGGA,203013.000,3748.7690,N,12217.7972,W,2,07,1.1,3.5,M,-25.1,M,3.8,0000*4D
$GPGSA,A,3,05,07,13,23,19,10,28,,,,,,2.3,1.1,2.0*33
$GPGSV,3,1,12,07,66,015,26,08,54,313,21,13,48,137,35,28,40,226,35*77
$GPGSV,3,2,12,19,32,077,28,10,31,238,32,05,23,295,25,03,18,047,23*76
$GPGSV,3,3,12,23,16,140,38,01,12,227,,06,08,038,,26,05,316,*77
$GPRMC,203013.000,A,3748.7690,N,12217.7972,W,2.32,112.97,290611,,,D*74
$GPVTG,112.97,T,,M,2.32,N,4.3,K,D*00
$GPGGA,203014.000,3748.7689,N,12217.7962,W,2,07,1.1,3.2,M,-25.1,M,1.8,0000*46
$GPGSA,A,3,05,07,13,23,19,10,28,,,,,,2.3,1.1,2.0*33
$GPRMC,203014.000,A,3748.7689,N,12217.7962,W,2.37,105.39,290611,,,D*7D
$GPVTG,105.39,T,,M,2.37,N,4.4,K,D*00
$GPGGA,203015.000,3748.7684,N,12217.7954,W,2,07,1.1,3.9,M,-25.1,M,1.8,0000*44
$GPGSA,A,3,05,07,13,23,19,10,28,,,,,,2.3,1.1,2.0*33
$GPRMC,203015.000,A,3748.7684,N,12217.7954,W,2.63,113.43,290611,,,D*7F
$GPVTG,113.43,T,,M,2.63,N,4.9,K,D*06
$GPGGA,203016.000,3748.7680,N,12217.7945,W,2,07,1.1,4.2,M,-25.1,M,1.8,0000*4F
$GPGSA,A,3,05,07,13,23,19,10,28,,,,,,2.3,1.1,2.0*33
$GPRMC,203016.000,A,3748.7680,N,12217.7945,W,2.48,111.31,290611,,,D*76
$GPVTG,111.31,T,,M,2.48,N,4.6,K,D*07
$GPGGA,203017.000,3748.7676,N,12217.7937,W,2,07,1.1,4.3,M,-25.1,M,2.8,0000*40
$GPGSA,A,3,05,07,13,23,19,10,28,,,,,,2.3,1.1,2.0*33
$GPRMC,203017.000,A,3748.7676,N,12217.7937,W,2.44,118.41,290611,,,D*79
$GPVTG,118.41,T,,M,2.44,N,4.5,K,D*06
$GPGGA,203018.000,3748.7672,N,12217.7929,W,2,07,1.1,4.2,M,-25.1,M,3.8,0000*44
$GPGSA,A,3,05,07,13,23,19,10,28,,,,,,2.3,1.1,2.0*33
$GPGSV,3,1,12,07,66,015,26,08,54,313,22,13,48,137,35,28,40,226,36*77
$GPGSV,3,2,12,19,32,077,34,10,31,238,33,05,23,295,24,03,18,047,26*7E
$GPGSV,3,3,12,23,16,140,39,01,12,227,,06,08,038,18,26,05,316,*7F
$GPVTG,118.96,T,,M,2.61,N,4.8,K,D*06
$GPGGA,203019.000,3748.7669,N,12217.7921,W,2,07,1.1,4.2,M,-25.1,M,4.8,0000*40
$GPGSA,A,3,05,07,13,23,19,10,28,,,,,,2.3,1.1,2.0*33
$GPRMC,203019.000,A,3748.7669,N,12217.7921,W,2.59,112.62,290611,,,D*79
$GPVTG,112.62,T,,M,2.59,N,4.8,K,D*0C
$GPGGA,203020.000,3748.7666,N,12217.7912,W,2,08,0.9,4.3,M,-25.1,M,1.8,0000*47
$GPGSA,A,3,05,07,13,23,19,06,10,28,,,,,1.8,0.9,1.6*31
$GPRMC,203020.000,A,3748.7666,N,12217.7912,W,2.39,101.24,290611,,,D*7A
$GPVTG,101.24,T,,M,2.39,N,4.4,K,D*06
$GPGGA,203021.000,3748.7663,N,12217.7905,W,2,08,0.9,4.4,M,-25.1,M,1.8,0000*42
$GPGSA,A,3,05,07,13,23,19,06,10,28,,,,,1.8,0.9,1.6*31
$GPRMC,203021.000,A,3748.7663,N,12217.7905,W,2.17,115.20,290611,,,D*75
$GPVTG,115.20,T,,M,2.17,N,4.0,K,D*0F
$GPGGA,203022.000,3748.7660,N,12217.7897,W,2,08,0.9,4.3,M,-25.1,M,1.8,0000*4F
$GPGSA,A,3,05,07,13,23,19,06,10,28,,,,,1.8,0.9,1.6*31
$GPRMC,203022.000,A,3748.7660,N,12217.7897,W,2.30,113.13,290611,,,D*7C
$GPVTG,113.13,T,,M,2.30,N,4.3,K,D*0F
$GPGGA,203023.000,3748.7657,N,12217.7890,W,2,08,0.9,4.4,M,-25.1,M,1.8,0000*4A
$GPGSA,A,3,05,07,13,23,19,06,10,28,,,,,1.8,0.9,1.6*31
$GPGSV,3,1,12,07,66,015,25,08,54,313,22,13,48,137,35,28,40,226,36*74
$GPGSV,3,2,12,19,32,077,34,10,31,238,34,05,23,295,24,03,18,047,20*7F
$GPGSV,3,3,12,23,16,140,41,01,12,227,,06,08,038,23,26,05,316,*78
$GPRMC,203023.000,A,3748.7657,N,12217.7890,W,2.41,116.35,290611,,,D*79
$GPVTG,116.35,T,,M,2.41,N,4.5,K,D*0E
$GPGGA,203024.000,3748.7650,N,12217.7883,W,2,07,1.0,2.9,M,-25.1,M,2.8,0000*47
$GPGSA,A,3,05,07,13,23,06,10,28,,,,,,1.9,1.0,1.6*30
$GPRMC,203024.000,A,3748.7650,N,12217.7883,W,2.23,111.91,290611,,,D*76
$GPVTG,111.91,T,,M,2.23,N,4.1,K,D*07
$GPGGA,203025.000,3748.7641,N,12217.7876,W,2,08,0.9,1.2,M,-25.1,M,3.8,0000*42
$GPGSA,A,3,05,07,13,23,19,06,10,28,,,,,1.8,0.9,1.6*31
$GPRMC,203025.000,A,3748.7641,N,12217.7876,W,2.30,116.67,290611,,,D*71
$GPVTG,116.67,T,,M,2.30,N,4.3,K,D*09
$GPGGA,203026.000,3748.7639,N,12217.7867,W,2,08,0.9,1.8,M,-25.1,M,1.8,0000*46
$GPGSA,A,3,05,07,13,23,19,06,10,28,,,,,1.8,0.9,1.6*31
$GPRMC,203026.000,A,3748.7639,N,12217.7867,W,2.71,103.31,290611,,,D*7F
$GPVTG,103.31,T,,M,2.71,N,5.0,K,D*09
$GPGGA,203027.000,3748.7638,N,12217.7857,W,2,08,0.9,1.9,M,-25.1,M,1.8,0000*44
$GPGSA,A,3,05,07,13,23,19,06,10,28,,,,,1.8,0.9,1.6*31
$GPRMC,203027.000,A,3748.7638,N,12217.7857,W,2.55,89.10,290611,,,D*4A
$GPVTG,89.10,T,,M,2.55,N,4.7,K,D*39
$GPGGA,203028.000,3748.7634,N,12217.7848,W,2,08,0.9,1.5,M,-25.1,M,1.8,0000*45
$GPGSA,A,3,05,07,13,23,19,06,10,28,,,,,1.8,0.9,1.6*31
$GPGSV,3,1,12,07,66,015,25,08,54,313,22,13,48,137,35,28,40,226,36*74
$GPGSV,3,2,12,19,32,077,24,10,31,238,34,05,23,295,23,03,18,047,21*78
$GPGSV,3,3,12,23,16,140,35,01,12,227,,06,08,038,16,26,05,316,*7D
$GPRMC,203028.000,A,3748.7634,N,12217.7848,W,2.30,117.35,290611,,,D*75
$GPVTG,117.35,T,,M,2.30,N,4.3,K,D*0F
$GPGGA,203029.000,3748.7629,N,12217.7840,W,2,08,0.9,1.3,M,-25.1,M,2.8,0000*45
$GPGSA,A,3,05,07,13,23,19,06,10,28,,,,,1.8,0.9,1.6*31
$GPRMC,203029.000,A,3748.7629,N,12217.7840,W,2.52,111.74,290611,,,D*77
$GPVTG,111.74,T,,M,2.52,N,4.7,K,D*0C
$GPGGA,203030.000,3748.7624,N,12217.7832,W,2,08,0.9,1.0,M,-25.1,M,3.8,0000*47
$GPGSA,A,3,05,07,13,23,19,06,10,28,,,,,1.8,0.9,1.6*31
$GPRMC,203030.000,A,3748.7624,N,12217.7832,W,2.40,112.86,290611,,,D*7A
$GPVTG,112.86,T,,M,2.40,N,4.4,K,D*02
$GPGGA,203031.000,3748.7616,N,12217.7825,W,2,07,1.1,0.3,M,-25.1,M,1.8,0000*47
$GPGSA,A,3,05,07,13,23,19,10,28,,,,,,2.3,1.1,2.0*33
$GPRMC,203031.000,A,3748.7616,N,12217.7825,W,2.29,120.68,290611,,,D*72
$GPVTG,120.68,T,,M,2.29,N,4.2,K,D*0A
$GPGGA,203032.000,3748.7612,N,12217.7818,W,2,07,1.1,0.4,M,-25.1,M,1.8,0000*49
$GPGSA,A,3,05,07,13,23,19,10,28,,,,,,2.3,1.1,2.0*33
$GPRMC,203032.000,A,3748.7612,N,12217.7818,W,2.42,121.00,290611,,,D*79
$GPVTG,121.00,T,,M,2.42,N,4.5,K,D*0F
$GPGGA,203033.000,3748.7608,N,12217.7810,W,2,07,1.1,0.3,M,-25.1,M,1.8,0000*4C
$GPGSA,A,3,05,07,13,23,19,10,28,,,,,,2.3,1.1,2.0*33
$GPGSV,3,1,12,07,66,015,25,08,54,313,21,13,48,137,35,28,40,226,37*76
$GPGSV,3,2,12,19,32,077,23,10,31,238,34,05,23,295,24,03,18,047,20*79
$GPGSV,3,3,12,23,16,140,41,01,12,227,,06,08,038,,26,05,316,*79
$GPRMC,203033.000,A,3748.7608,N,12217.7810,W,2.58,120.49,290611,,,D*7C
$GPVTG,120.49,T,,M,2.58,N,4.8,K,D*05
$GPGGA,203034.000,3748.7604,N,12217.7803,W,2,07,1.1,0.3,M,-25.1,M,2.8,0000*46
$GPGSA,A,3,05,07,13,23,19,10,28,,,,,,2.3,1.1,2.0*33
$GPRMC,203034.000,A,3748.7604,N,12217.7803,W,2.50,126.24,290611,,,D*70
$GPVTG,126.24,T,,M,2.50,N,4.6,K,D*0E
$GPGGA,203035.000,3748.7598,N,12217.7796,W,2,07,1.1,0.3,M,-25.1,M,3.8,0000*43
$GPGSA,A,3,05,07,13,23,19,10,28,,,,,,2.3,1.1,2.0*33
$GPRMC,203035.000,A,3748.7598,N,12217.7796,W,2.50,128.13,290611,,,D*7E
$GPVTG,128.13,T,,M,2.50,N,4.6,K,D*04
$GPGGA,203036.000,3748.7590,N,12217.7787,W,2,07,1.1,1.3,M,-25.1,M,4.8,0000*4E
$GPGSA,A,3,05,07,13,23,19,10,28,,,,,,2.3,1.1,2.0*33
$GPRMC,203036.000,A,3748.7590,N,12217.7787,W,2.65,127.48,290611,,,D*72
$GPVTG,127.48,T,,M,2.65,N,4.9,K,D*0C
$GPGGA,203037.000,3748.7585,N,12217.7779,W,2,07,1.1,1.5,M,-25.1,M,1.8,0000*49
$GPGSA,A,3,05,07,13,23,19,10,28,,,,,,2.3,1.1,2.0*33
$GPRMC,203037.000,A,3748.7585,N,12217.7779,W,2.58,123.98,290611,,,D*71
$GPVTG,123.98,T,,M,2.58,N,4.8,K,D*0A
$GPGGA,203038.000,3748.7581,N,12217.7769,W,2,07,1.1,2.5,M,-25.1,M,1.8,0000*40
$GPGSA,A,3,05,07,13,23,19,10,28,,,,,,2.3,1.1,2.0*33
$GPGSV,3,1,12,07,66,015,26,08,54,313,21,13,48,137,32,28,40,226,31*74
$GPGSV,3,2,12,19,32,077,20,10,31,238,24,05,23,295,24,03,18,047,19*71
$GPGSV,3,3,12,23,16,140,44,01,12,227,,06,08,038,,26,05,316,*7C
$GPVTG,107.75,T,,M,2.55,N,4.7,K,D*0D
$GPGGA,203039.000,3748.7579,N,12217.7758,W,2,07,1.1,3.1,M,-25.1,M,1.8,0000*41
$GPGSA,A,3,05,07,13,23,19,10,28,,,,,,2.3,1.1,2.0*33
$GPRMC,203039.000,A,3748.7579,N,12217.7758,W,2.68,115.47,290611,,,D*7B
$GPVTG,115.47,T,,M,2.68,N,5.0,K,D*07
$GPGGA,203040.000,3748.7576,N,12217.7751,W,2,07,1.1,2.8,M,-25.1,M,2.8,0000*42
$GPGSA,A,3,05,07,13,23,19,10,28,,,,,,2.3,1.1,2.0*33
$GPRMC,203040.000,A,3748.7576,N,12217.7751,W,2.48,115.59,290611,,,D*7E
$GPVTG,115.59,T,,M,2.48,N,4.6,K,D*0D
$GPGGA,203041.000,3748.7573,N,12217.7742,W,2,07,1.1,3.1,M,-25.1,M,3.8,0000*4D
$GPGSA,A,3,05,07,13,23,19,10,28,,,,,,2.3,1.1,2.0*33
$GPRMC,203041.000,A,3748.7573,N,12217.7742,W,2.27,111.58,290611,,,D*74
$GPVTG,111.58,T,,M,2.27,N,4.2,K,D*05
$GPGGA,203042.000,3748.7567,N,12217.7736,W,2,06,1.2,4.1,M,-25.1,M,4.8,0000*4A
$GPGSA,A,3,05,07,23,19,10,28,,,,,,,2.5,1.2,2.3*37
$GPRMC,203042.000,A,3748.7567,N,12217.7736,W,2.32,107.30,290611,,,D*7C
$GPVTG,107.30,T,,M,2.32,N,4.3,K,D*09
$GPGGA,203043.000,3748.7562,N,12217.7726,W,2,07,1.1,5.4,M,-25.1,M,5.8,0000*48
$GPGSA,A,3,05,07,13,23,19,10,28,,,,,,2.3,1.1,2.0*33
$GPGSV,3,1,12,07,66,016,26,08,55,313,22,13,47,137,23,28,41,226,28*73
$GPGSV,3,2,12,19,32,077,19,10,31,238,20,05,23,295,19,03,18,047,18*70
$GPGSV,3,3,12,23,16,140,39,06,08,038,,26,05,316,,11,00,124,*74
$GPRMC,203043.000,A,3748.7562,N,12217.7726,W,2.26,106.84,290611,,,D*72
$GPVTG,106.84,T,,M,2.26,N,4.2,K,D*03
$GPGGA,203044.000,3748.7557,N,12217.7720,W,2,07,1.1,5.6,M,-25.1,M,1.8,0000*49
$GPGSA,A,3,05,07,13,23,19,10,28,,,,,,2.3,1.1,2.0*33
$GPRMC,203044.000,A,3748.7557,N,12217.7720,W,2.33,122.34,290611,,,D*7C
$GPVTG,122.34,T,,M,2.33,N,4.3,K,D*0B
$GPGGA,203045.000,3748.7551,N,12217.7713,W,2,07,1.1,5.9,M,-25.1,M,1.8,0000*41
$GPGSA,A,3,05,07,13,23,19,10,28,,,,,,2.3,1.1,2.0*33
$GPRMC,203045.000,A,3748.7551,N,12217.7713,W,2.75,131.35,290611,,,D*7A
$GPVTG,131.35,T,,M,2.75,N,5.1,K,D*09
$GPGGA,203046.000,3748.7546,N,12217.7706,W,2,07,1.1,6.1,M,-25.1,M,1.8,0000*4B
$GPGSA,A,3,05,07,13,23,19,10,28,,,,,,2.3,1.1,2.0*33
$GPRMC,203046.000,A,3748.7546,N,12217.7706,W,2.58,126.09,290611,,,D*7D
$GPVTG,126.09,T,,M,2.58,N,4.8,K,D*07
$GPGGA,203047.000,3748.7539,N,12217.7699,W,2,07,1.1,6.9,M,-25.1,M,2.8,0000*4E
$GPGSA,A,3,05,07,13,23,19,10,28,,,,,,2.3,1.1,2.0*33
$GPRMC,203047.000,A,3748.7539,N,12217.7699,W,2.61,126.26,290611,,,D*74
$GPVTG,126.26,T,,M,2.61,N,4.8,K,D*00
$GPGGA,203048.000,3748.7533,N,12217.7692,W,2,07,1.1,7.4,M,-25.1,M,3.8,0000*4D
$GPGSA,A,3,05,07,13,23,19,10,28,,,,,,2.3,1.1,2.0*33
$GPGSV,3,1,12,07,66,016,26,08,55,313,21,13,47,137,36,28,41,226,37*7A
$GPGSV,3,2,12,19,32,077,19,10,31,238,33,05,23,295,26,03,18,047,18*7E
$GPGSV,3,3,12,23,16,140,44,06,08,038,,26,05,316,,11,00,124,*7E
$GPRMC,203048.000,A,3748.7533,N,12217.7692,W,2.63,129.09,290611,,,D*7A
$GPVTG,129.09,T,,M,2.63,N,4.9,K,D*01
$GPGGA,203049.000,3748.7528,N,12217.7685,W,2,07,1.1,7.4,M,-25.1,M,4.8,0000*47
$GPGSA,A,3,05,07,13,23,19,10,28,,,,,,2.3,1.1,2.0*33
$GPRMC,203049.000,A,3748.7528,N,12217.7685,W,2.46,121.05,290611,,,D*74
$GPVTG,121.05,T,,M,2.46,N,4.6,K,D*0D
$GPGGA,203050.000,3748.7524,N,12217.7678,W,2,07,1.1,7.5,M,-25.1,M,1.8,0000*45
$GPGSA,A,3,05,07,13,23,19,10,28,,,,,,2.3,1.1,2.0*33
$GPRMC,203050.000,A,3748.7524,N,12217.7678,W,2.38,115.47,290611,,,D*7A
$GPVTG,115.47,T,,M,2.38,N,4.4,K,D*07
$GPGGA,203051.000,3748.7520,N,12217.7671,W,2,07,1.1,7.4,M,-25.1,M,1.8,0000*48
$GPGSA,A,3,05,07,13,23,19,10,28,,,,,,2.3,1.1,2.0*33
$GPRMC,203051.000,A,3748.7520,N,12217.7671,W,2.49,115.91,290611,,,D*7B
$GPVTG,115.91,T,,M,2.49,N,4.6,K,D*08
$GPGGA,203052.000,3748.7517,N,12217.7664,W,2,07,1.1,7.3,M,-25.1,M,1.8,0000*4C
$GPGSA,A,3,05,07,13,23,19,10,28,,,,,,2.3,1.1,2.0*33
$GPRMC,203052.000,A,3748.7517,N,12217.7664,W,2.61,114.08,290611,,,D*73
$GPVTG,114.08,T,,M,2.61,N,4.8,K,D*0D
$GPGGA,203053.000,3748.7513,N,12217.7656,W,2,07,1.1,7.1,M,-25.1,M,1.8,0000*4A
$GPGSA,A,3,05,07,13,23,19,10,28,,,,,,2.3,1.1,2.0*33
$GPGSV,3,1,12,07,66,016,26,08,55,313,21,13,47,137,36,28,41,226,37*7A
$GPGSV,3,2,12,19,32,077,19,10,31,238,33,05,23,295,25,03,18,047,18*7D
$GPRMC,203053.000,A,3748.7513,N,12217.7656,W,2.48,112.13,290611,,,D*70
$GPVTG,112.13,T,,M,2.48,N,4.6,K,D*04
$GPGGA,203054.000,3748.7508,N,12217.7649,W,2,07,1.1,7.0,M,-25.1,M,2.8,0000*4B
$GPGSA,A,3,05,07,13,23,19,10,28,,,,,,2.3,1.1,2.0*33
$GPRMC,203054.000,A,3748.7508,N,12217.7649,W,2.69,124.16,290611,,,D*70
$GPVTG,124.16,T,,M,2.69,N,5.0,K,D*00
$GPGGA,203055.000,3748.7500,N,12217.7643,W,2,07,1.1,6.7,M,-25.1,M,3.8,0000*4F
$GPGSA,A,3,05,07,13,23,19,10,28,,,,,,2.3,1.1,2.0*33
$GPRMC,203055.000,A,3748.7500,N,12217.7643,W,2.74,125.00,290611,,,D*79
$GPVTG,125.00,T,,M,2.74,N,5.1,K,D*0B
$GPGGA,203056.000,3748.7493,N,12217.7636,W,2,07,1.1,6.3,M,-25.1,M,1.8,0000*43
$GPGSA,A,3,05,07,13,23,19,10,28,,,,,,2.3,1.1,2.0*33
$GPRMC,203056.000,A,3748.7493,N,12217.7636,W,2.54,115.82,290611,,,D*78
$GPVTG,115.82,T,,M,2.54,N,4.7,K,D*07
$GPGGA,203057.000,3748.7486,N,12217.7630,W,2,07,1.1,6.1,M,-25.1,M,1.8,0000*42
$GPGSA,A,3,05,07,13,23,19,10,28,,,,,,2.3,1.1,2.0*33
$GPRMC,203057.000,A,3748.7486,N,12217.7630,W,2.56,123.32,290611,,,D*77
$GPVTG,123.32,T,,M,2.56,N,4.7,K,D*0B
$GPGGA,203058.000,3748.7479,N,12217.7624,W,2,07,1.1,5.9,M,-25.1,M,1.8,0000*43
$GPGSA,A,3,05,07,13,23,19,10,28,,,,,,2.3,1.1,2.0*33
$GPGSV,3,1,12,07,66,016,26,08,55,313,20,13,47,137,36,28,41,226,36*7A
$GPGSV,3,2,12,19,32,077,20,10,31,238,33,05,23,295,24,03,18,047,19*77
$GPGSV,3,3,12,23,16,140,43,06,08,038,,26,05,316,,11,00,124,*79
$GPRMC,203058.000,A,3748.7479,N,12217.7624,W,2.59,125.14,290611,,,D*70
$GPVTG,125.14,T,,M,2.59,N,4.8,K,D*09
$GPGGA,203059.000,3748.7472,N,12217.7617,W,2,07,1.1,5.8,M,-25.1,M,2.8,0000*4B
$GPGSA,A,3,05,07,13,23,19,10,28,,,,,,2.3,1.1,2.0*33
$GPRMC,203059.000,A,3748.7472,N,12217.7617,W,2.59,122.77,290611,,,D*78
$GPVTG,122.77,T,,M,2.59,N,4.8,K,D*0B
$GPGGA,203100.000,3748.7467,N,12217.7610,W,2,07,1.1,5.7,M,-25.1,M,1.8,0000*49
$GPGSA,A,3,05,07,13,23,19,10,28,,,,,,2.3,1.1,2.0*33
$GPRMC,203100.000,A,3748.7467,N,12217.7610,W,2.44,115.40,290611,,,D*7A
$GPVTG,115.40,T,,M,2.44,N,4.5,K,D*0A
$GPGGA,203101.000,3748.7464,N,12217.7602,W,2,07,1.1,5.6,M,-25.1,M,2.8,0000*4A
$GPGSA,A,3,05,07,13,23,19,10,28,,,,,,2.3,1.1,2.0*33
$GPRMC,203101.000,A,3748.7464,N,12217.7602,W,2.37,117.66,290611,,,D*79
$GPVTG,117.66,T,,M,2.37,N,4.4,K,D*09
$GPGGA,203102.000,3748.7462,N,12217.7594,W,2,07,1.1,5.3,M,-25.1,M,1.8,0000*45
$GPGSA,A,3,05,07,13,23,19,10,28,,,,,,2.3,1.1,2.0*33
$GPRMC,203102.000,A,3748.7462,N,12217.7594,W,2.36,122.10,290611,,,D*76
$GPVTG,122.10,T,,M,2.36,N,4.4,K,D*0F
$GPGGA,203103.000,3748.7460,N,12217.7586,W,2,08,0.9,5.0,M,-25.1,M,1.8,0000*40
$GPGSA,A,3,05,07,13,23,19,06,10,28,,,,,1.8,0.9,1.6*31
$GPGSV,3,1,12,07,66,016,26,08,55,313,21,13,47,137,36,28,41,226,35*78
$GPGSV,3,2,12,19,32,077,30,10,31,238,33,05,23,295,23,03,18,047,19*71
$GPGSV,3,3,12,23,16,140,41,06,08,038,23,26,05,316,,11,00,124,*7A
$GPRMC,203103.000,A,3748.7460,N,12217.7586,W,2.47,124.69,290611,,,D*78
$GPVTG,124.69,T,,M,2.47,N,4.6,K,D*03
$GPGGA,203104.000,3748.7457,N,12217.7578,W,2,08,0.9,4.7,M,-25.1,M,1.8,0000*44
$GPGSA,A,3,05,07,13,23,19,06,10,28,,,,,1.8,0.9,1.6*31
$GPRMC,203104.000,A,3748.7457,N,12217.7578,W,2.58,119.08,290611,,,D*7D
$GPVTG,119.08,T,,M,2.58,N,4.8,K,D*0A
$GPGGA,203105.000,3748.7456,N,12217.7569,W,2,08,0.9,4.3,M,-25.1,M,2.8,0000*43
$GPGSA,A,3,05,07,13,23,19,06,10,28,,,,,1.8,0.9,1.6*31
$GPRMC,203105.000,A,3748.7456,N,12217.7569,W,2.50,108.29,290611,,,D*76
$GPVTG,108.29,T,,M,2.50,N,4.6,K,D*0F
$GPGGA,203106.000,3748.7455,N,12217.7559,W,2,08,0.9,4.0,M,-25.1,M,1.8,0000*40
$GPGSA,A,3,05,07,13,23,19,06,10,28,,,,,1.8,0.9,1.6*31
$GPRMC,203106.000,A,3748.7455,N,12217.7559,W,2.43,103.92,290611,,,D*7C
$GPVTG,103.92,T,,M,2.43,N,4.5,K,D*05
$GPGGA,203107.000,3748.7454,N,12217.7551,W,2,08,0.9,3.7,M,-25.1,M,2.8,0000*4B
$GPGSA,A,3,05,07,13,23,19,06,10,28,,,,,1.8,0.9,1.6*31
$GPRMC,203107.000,A,3748.7454,N,12217.7551,W,2.14,114.94,290611,,,D*76
$GPVTG,114.94,T,,M,2.14,N,4.0,K,D*02
$GPGGA,203108.000,3748.7453,N,12217.7544,W,2,08,0.9,3.3,M,-25.1,M,1.8,0000*40
$GPGSA,A,3,05,07,13,23,19,06,10,28,,,,,1.8,0.9,1.6*31
$GPGSV,3,1,12,07,66,016,27,08,55,313,22,13,47,137,35,28,41,226,35*79
$GPGSV,3,2,12,19,32,077,33,10,31,238,27,05,23,295,23,03,18,047,29*74
$GPGSV,3,3,12,23,16,140,38,06,08,038,23,26,05,316,18,11,00,124,*7D
$GPRMC,203108.000,A,3748.7453,N,12217.7544,W,2.01,110.47,290611,,,D*74
$GPVTG,110.47,T,,M,2.01,N,3.7,K,D*0C
