$ADVER,3080,2.3
$GPRMC,185034.753,A,3748.8036,N,12217.8587,W,0.10,69.48,141011,,,A*40
$GPRMC,185035.753,A,3748.8037,N,12217.8586,W,0.08,105.12,141011,,,A*7C
$GPRMC,185036.753,A,3748.8038,N,12217.8586,W,0.08,75.35,141011,,,A*43
$GPRMC,185037.000,A,3748.8038,N,12217.8586,W,0.12,61.19,141011,,,A*43
$GPRMC,185038.000,A,3748.8038,N,12217.8585,W,0.09,78.02,141011,,,A*47
$GPRMC,185039.000,A,3748.8038,N,12217.8585,W,0.08,85.84,141011,,,A*4B
$GPRMC,185040.000,A,3748.8038,N,12217.8585,W,0.09,72.65,141011,,,A*43
$GPRMC,185041.000,A,3748.8038,N,12217.8585,W,0.08,85.14,141011,,,A*4D
$GPRMC,185042.000,A,3748.8038,N,12217.8585,W,0.09,75.36,141011,,,A*40
$GPRMC,185043.000,A,3748.8038,N,12217.8585,W,0.09,78.88,141011,,,A*49
$GPRMC,185044.000,A,3748.8038,N,12217.8585,W,0.08,81.76,141011,,,A*48
$GPRMC,185045.000,A,3748.8038,N,12217.8585,W,0.08,88.73,141011,,,A*45
$GPRMC,185046.000,A,3748.8037,N,12217.8585,W,0.09,73.52,141011,,,A*4F
$GPRMC,185047.000,A,3748.8037,N,12217.8585,W,0.07,93.99,141011,,,A*49
$GPRMC,185048.000,A,3748.8037,N,12217.8585,W,0.08,80.15,141011,,,A*4F
$GPRMC,185049.000,A,3748.8037,N,12217.8585,W,0.07,93.32,141011,,,A*46
$GPRMC,185050.000,A,3748.8036,N,12217.8586,W,0.08,93.37,141011,,,A*46
$GPRMC,185051.000,A,3748.8036,N,12217.8586,W,0.07,90.72,141011,,,A*4A
$GPRMC,185052.000,A,3748.8034,N,12217.8588,W,0.07,204.55,141011,,,A*7F
$GPRMC,185053.000,A,3748.8033,N,12217.8590,W,0.05,182.59,141011,,,A*73
$GPRMC,185054.000,A,3748.8032,N,12217.8591,W,0.05,191.80,141011,,,A*72
$GPRMC,185055.000,A,3748.8031,N,12217.8592,W,0.06,200.53,141011,,,A*75
$GPRMC,185056.000,A,3748.8030,N,12217.8593,W,0.06,183.90,141011,,,A*71
$GPRMC,185057.000,A,3748.8029,N,12217.8594,W,0.05,183.76,141011,,,A*74
$GPRMC,185058.000,A,3748.8029,N,12217.8595,W,0.05,185.69,141011,,,A*72
$GPRMC,185059.000,A,3748.8028,N,12217.8595,W,0.04,185.97,141011,,,A*72
$GPRMC,185100.000,A,3748.8028,N,12217.8596,W,0.06,191.09,141011,,,A*7C
$GPRMC,185101.000,A,3748.8027,N,12217.8596,W,0.05,171.13,141011,,,A*74
$GPRMC,185102.000,A,3748.8027,N,12217.8596,W,0.05,123.01,141011,,,D*76
$GPRMC,185103.000,A,3748.8027,N,12217.8596,W,0.04,107.16,141011,,,D*76
$GPRMC,185104.000,A,3748.8024,N,12217.8596,W,0.06,32.18,141011,,,D*49
$GPRMC,185105.000,A,3748.8023,N,12217.8596,W,0.09,31.24,141011,,,D*4C
$GPRMC,185106.000,A,3748.8021,N,12217.8596,W,0.10,354.74,141011,,,D*70
$GPRMC,185107.000,A,3748.8020,N,12217.8597,W,0.10,359.66,141011,,,D*7F
$GPRMC,185108.000,A,3748.8020,N,12217.8597,W,0.10,344.86,141011,,,D*72
$GPRMC,185109.000,A,3748.8019,N,12217.8597,W,0.09,349.70,141011,,,D*75
$GPRMC,185110.000,A,3748.8019,N,12217.8597,W,0.10,333.54,141011,,,D*7E
$GPRMC,185111.000,A,3748.8018,N,12217.8597,W,0.10,320.12,141011,,,D*7E
$GPRMC,185112.000,A,3748.8018,N,12217.8597,W,0.12,47.63,141011,,,D*4B
$GPRMC,185113.000,A,3748.8018,N,12217.8597,W,0.14,54.63,141011,,,D*4E
$GPRMC,185114.000,A,3748.8017,N,12217.8597,W,0.04,74.24,141011,,,D*46
$GPRMC,185115.000,A,3748.8017,N,12217.8597,W,0.27,44.66,141011,,,D*43
$GPRMC,185116.000,A,3748.8017,N,12217.8596,W,0.08,95.97,141011,,,D*4E
$GPRMC,185117.000,A,3748.8017,N,12217.8595,W,0.08,119.85,141011,,,D*7A
$GPRMC,185118.000,A,3748.8017,N,12217.8595,W,0.09,85.45,141011,,,D*4C
$GPRMC,185119.000,A,3748.8017,N,12217.8595,W,0.06,92.01,141011,,,D*44
$GPRMC,185120.000,A,3748.8016,N,12217.8595,W,0.07,80.92,141011,,,D*47
$GPRMC,185121.000,A,3748.8016,N,12217.8594,W,0.12,93.83,141011,,,D*41
$GPRMC,185122.000,A,3748.8016,N,12217.8594,W,0.16,72.06,141011,,,D*44
$GPRMC,185123.000,A,3748.8015,N,12217.8594,W,0.20,104.54,141011,,,D*74
$GPRMC,185124.000,A,3748.8015,N,12217.8593,W,0.19,129.46,141011,,,D*72
$GPRMC,185125.000,A,3748.8015,N,12217.8593,W,0.10,81.06,141011,,,D*4D
$GPRMC,185126.000,A,3748.8016,N,12217.8593,W,0.08,117.50,141011,,,D*79
$GPRMC,185127.000,A,3748.8016,N,12217.8593,W,0.18,157.14,141011,,,D*7D
$GPRMC,185128.000,A,3748.8013,N,12217.8595,W,1.21,181.87,141011,,,D*7B
$GPRMC,185129.000,A,3748.8012,N,12217.8597,W,0.24,93.84,141011,,,D*4C
$GPRMC,185130.000,A,3748.8012,N,12217.8598,W,0.04,54.15,141011,,,D*4A
$GPRMC,185131.000,A,3748.8013,N,12217.8598,W,0.15,119.16,141011,,,D*71
$GPRMC,185132.000,A,3748.8014,N,12217.8599,W,0.09,130.63,141011,,,A*75
$GPRMC,185133.000,A,3748.8015,N,12217.8599,W,0.05,149.28,141011,,,A*78
$GPRMC,185134.000,A,3748.8013,N,12217.8603,W,0.13,200.95,141011,,,A*76
$GPRMC,185135.000,A,3748.8010,N,12217.8609,W,0.20,151.13,141011,,,A*77
$GPRMC,185136.000,A,3748.8015,N,12217.8613,W,0.10,253.26,141011,,,A*7E
$GPRMC,185137.000,A,3748.8022,N,12217.8617,W,0.15,323.73,141011,,,A*7C
$GPRMC,185138.000,A,3748.8028,N,12217.8623,W,0.39,258.48,141011,,,A*75
$GPRMC,185139.000,A,3748.8022,N,12217.8633,W,0.81,200.73,141011,,,A*79
$GPRMC,185140.000,A,3748.8020,N,12217.8632,W,0.23,78.43,141011,,,A*42
$GPRMC,185141.000,A,3748.8016,N,12217.8626,W,0.43,109.41,141011,,,A*70
$GPRMC,185142.000,A,3748.8015,N,12217.8622,W,0.29,108.82,141011,,,A*76
$GPRMC,185143.000,A,3748.8014,N,12217.8623,W,0.14,88.51,141011,,,A*4E
$GPRMC,185144.000,A,3748.8014,N,12217.8625,W,0.13,91.59,141011,,,A*48
$GPRMC,185145.000,A,3748.8014,N,12217.8627,W,0.24,122.57,141011,,,A*78
$GPRMC,185146.000,A,3748.8013,N,12217.8628,W,0.11,64.56,141011,,,A*47
$GPRMC,185147.000,A,3748.8012,N,12217.8628,W,0.12,18.03,141011,,,A*4F
$GPRMC,185148.000,A,3748.8011,N,12217.8627,W,0.44,32.54,141011,,,A*45
$GPRMC,185149.000,A,3748.8010,N,12217.8622,W,0.22,119.89,141011,,,A*78
$GPRMC,185150.000,A,3748.8012,N,12217.8618,W,0.35,22.40,141011,,,A*41
$GPRMC,185151.000,A,3748.8009,N,12217.8616,W,0.30,130.85,141011,,,A*7A
$GPRMC,185152.000,A,3748.8007,N,12217.8615,W,0.16,79.23,141011,,,A*40
$GPRMC,185153.000,A,3748.8007,N,12217.8614,W,0.20,342.43,141011,,,A*78
$GPRMC,185154.000,A,3748.8007,N,12217.8612,W,0.29,115.13,141011,,,A*75
$GPRMC,185155.000,A,3748.8008,N,12217.8611,W,0.45,43.35,141011,,,A*44
$GPRMC,185156.000,A,3748.8009,N,12217.8611,W,0.09,359.12,141011,,,A*73
$GPRMC,185157.000,A,3748.8013,N,12217.8612,W,0.34,331.02,141011,,,A*7B
$GPRMC,185158.000,A,3748.8015,N,12217.8610,W,0.42,57.38,141011,,,A*4B
$GPRMC,185159.000,A,3748.8018,N,12217.8610,W,0.53,285.72,141011,,,A*74
$GPRMC,185200.000,A,3748.8017,N,12217.8611,W,0.30,238.97,141011,,,A*7D
$GPRMC,185201.000,A,3748.8017,N,12217.8610,W,0.16,12.73,141011,,,A*49
$GPRMC,185202.000,A,3748.8018,N,12217.8608,W,0.33,29.17,141011,,,A*41
$GPRMC,185203.000,A,3748.8023,N,12217.8610,W,0.18,1.48,141011,,,A*78
$GPRMC,185204.000,A,3748.8025,N,12217.8610,W,0.35,72.40,141011,,,A*4A
$GPRMC,185205.000,A,3748.8025,N,12217.8608,W,0.11,181.14,141011,,,A*78
$GPRMC,185206.000,A,3748.8024,N,12217.8605,W,0.44,163.52,141011,,,A*79
$GPRMC,185207.000,A,3748.8021,N,12217.8602,W,0.09,243.77,141011,,,A*75
$GPRMC,185208.000,A,3748.8019,N,12217.8603,W,0.37,263.33,141011,,,A*7F
$GPRMC,185209.000,A,3748.8018,N,12217.8605,W,0.12,283.09,141011,,,A*79
$GPRMC,185210.000,A,3748.8017,N,12217.8609,W,0.23,302.85,141011,,,A*7C
$GPRMC,185211.000,A,3748.8017,N,12217.8614,W,0.54,306.92,141011,,,A*73
$GPRMC,185212.000,A,3748.8018,N,12217.8621,W,0.32,300.39,141011,,,A*7E
$GPRMC,185213.000,A,3748.8019,N,12217.8627,W,0.22,287.71,141011,,,A*7B
$GPRMC,185214.000,A,3748.8018,N,12217.8631,W,0.38,290.24,141011,,,A*77
$GPRMC,185215.000,A,3748.8015,N,12217.8628,W,0.19,186.59,141011,,,A*7E
$GPRMC,185216.000,A,3748.8013,N,12217.8626,W,0.21,51.18,141011,,,A*40
$GPRMC,185217.000,A,3748.8010,N,12217.8618,W,0.73,68.34,141011,,,A*4C
$GPRMC,185218.000,A,3748.8010,N,12217.8608,W,0.62,14.98,141011,,,A*4F
$GPRMC,185219.000,A,3748.8013,N,12217.8610,W,0.35,325.47,141011,,,A*75
$GPRMC,185220.000,A,3748.8015,N,12217.8616,W,0.13,36.37,141011,,,A*4D
$GPRMC,185221.000,A,3748.8016,N,12217.8623,W,0.28,183.72,141011,,,A*7F
$GPRMC,185222.000,A,3748.8016,N,12217.8627,W,0.62,175.59,141011,,,A*76
$GPRMC,185223.000,A,3748.8011,N,12217.8626,W,1.20,130.74,141011,,,A*78
$GPRMC,185224.000,A,3748.8004,N,12217.8622,W,1.47,118.22,141011,,,A*77
$GPRMC,185225.000,A,3748.8001,N,12217.8618,W,1.57,125.78,141011,,,A*7A
$GPRMC,185226.000,A,3748.7994,N,12217.8617,W,1.48,120.28,141011,,,A*72
$GPRMC,185227.000,A,3748.7990,N,12217.8615,W,1.54,120.03,141011,,,A*71
$GPRMC,185228.000,A,3748.7985,N,12217.8613,W,2.17,125.01,141011,,,A*7F
$GPRMC,185229.000,A,3748.7980,N,12217.8609,W,2.09,124.60,141011,,,A*79
$GPRMC,185230.000,A,3748.7975,N,12217.8604,W,2.05,121.91,141011,,,D*74
$GPRMC,185231.000,A,3748.7971,N,12217.8599,W,1.85,119.28,141011,,,D*74
$GPRMC,185232.000,A,3748.7967,N,12217.8592,W,2.14,119.35,141011,,,D*7C
$GPRMC,185233.000,A,3748.7962,N,12217.8585,W,2.04,120.46,141011,,,D*71
$GPRMC,185234.000,A,3748.7958,N,12217.8577,W,1.90,123.78,141011,,,D*72
$GPRMC,185235.000,A,3748.7952,N,12217.8572,W,2.27,130.61,141011,,,D*79
$GPRMC,185236.000,A,3748.7948,N,12217.8566,W,2.14,125.73,141011,,,D*73
$GPRMC,185237.000,A,3748.7945,N,12217.8559,W,1.94,124.40,141011,,,D*79
$GPRMC,185238.000,A,3748.7942,N,12217.8553,W,1.85,108.45,141011,,,D*70
$GPRMC,185239.000,A,3748.7940,N,12217.8544,W,1.67,110.92,141011,,,D*7A
$GPRMC,185240.000,A,3748.7938,N,12217.8534,W,2.19,112.66,141011,,,D*7F
$GPRMC,185241.000,A,3748.7935,N,12217.8526,W,1.88,103.17,141011,,,D*7D
$GPRMC,185242.000,A,3748.7931,N,12217.8516,W,1.82,105.12,141011,,,D*70
$GPRMC,185243.000,A,3748.7926,N,12217.8507,W,1.55,114.17,141011,,,D*78
$GPRMC,185244.000,A,3748.7916,N,12217.8494,W,1.31,109.71,141011,,,D*79
$GPRMC,185245.000,A,3748.7911,N,12217.8488,W,1.36,127.46,141011,,,D*7D
$GPRMC,185246.000,A,3748.7908,N,12217.8479,W,1.57,80.46,141011,,,D*43
$GPRMC,185247.000,A,3748.7906,N,12217.8468,W,2.08,109.29,141011,,,D*7C
$GPRMC,185248.000,A,3748.7902,N,12217.8453,W,2.10,112.71,141011,,,D*71
$GPRMC,185249.000,A,3748.7899,N,12217.8444,W,2.02,110.51,141011,,,D*76
$GPRMC,185250.000,A,3748.7896,N,12217.8436,W,2.15,121.74,141011,,,D*77
$GPRMC,185251.000,A,3748.7893,N,12217.8428,W,1.79,125.98,141011,,,D*73
$GPRMC,185252.000,A,3748.7890,N,12217.8418,W,2.08,121.57,141011,,,D*72
$GPRMC,185253.000,A,3748.7884,N,12217.8402,W,2.05,117.04,141011,,,D*73
$GPRMC,185254.000,A,3748.7877,N,12217.8393,W,1.72,102.59,141011,,,D*78
$GPRMC,185255.000,A,3748.7875,N,12217.8384,W,1.54,108.50,141011,,,D*7A
$GPRMC,185256.000,A,3748.7875,N,12217.8378,W,1.50,112.09,141011,,,D*79
$GPRMC,185257.000,A,3748.7871,N,12217.8374,W,1.67,126.91,141011,,,D*72
$GPRMC,185258.000,A,3748.7868,N,12217.8371,W,2.06,119.58,141011,,,D*7D
$GPRMC,185259.000,A,3748.7863,N,12217.8359,W,2.27,119.43,141011,,,D*74
$GPRMC,185300.000,A,3748.7859,N,12217.8348,W,1.96,126.38,141011,,,D*79
$GPRMC,185301.000,A,3748.7856,N,12217.8340,W,1.96,118.18,141011,,,D*70
$GPRMC,185302.000,A,3748.7853,N,12217.8329,W,1.89,111.48,141011,,,D*7B
$GPRMC,185303.000,A,3748.7851,N,12217.8322,W,1.59,114.63,141011,,,D*72
$GPRMC,185304.000,A,3748.7849,N,12217.8315,W,1.36,114.28,141011,,,D*7E
$GPRMC,185305.000,A,3748.7844,N,12217.8304,W,1.74,130.91,141011,,,D*70
$GPRMC,185306.000,A,3748.7841,N,12217.8295,W,2.07,114.12,141011,,,D*75
$GPRMC,185307.000,A,3748.7838,N,12217.8288,W,1.60,112.72,141011,,,D*74
$GPRMC,185308.000,A,3748.7836,N,12217.8284,W,1.81,119.00,141011,,,D*78
$GPRMC,185309.000,A,3748.7833,N,12217.8277,W,1.38,100.53,141011,,,D*7C
$GPRMC,185310.000,A,3748.7830,N,12217.8266,W,1.18,102.01,141011,,,D*70
$GPRMC,185311.000,A,3748.7829,N,12217.8257,W,1.48,104.60,141011,,,D*7F
$GPRMC,185312.000,A,3748.7824,N,12217.8247,W,1.20,124.47,141011,,,D*79
$GPRMC,185313.000,A,3748.7822,N,12217.8237,W,1.64,101.58,141011,,,D*70
$GPRMC,185314.000,A,3748.7818,N,12217.8228,W,1.81,114.67,141011,,,D*73
$GPRMC,185315.000,A,3748.7816,N,12217.8221,W,1.89,112.75,141011,,,D*78
$GPRMC,185316.000,A,3748.7815,N,12217.8215,W,1.51,111.66,141011,,,D*7B
$GPRMC,185317.000,A,3748.7813,N,12217.8209,W,1.11,108.28,141011,,,D*77
$GPRMC,185318.000,A,3748.7811,N,12217.8206,W,1.00,97.95,141011,,,D*44
$GPRMC,185319.000,A,3748.7803,N,12217.8200,W,1.40,123.84,141011,,,D*7A
$GPRMC,185320.000,A,3748.7798,N,12217.8194,W,1.94,127.11,141011,,,D*72
$GPRMC,185321.000,A,3748.7794,N,12217.8190,W,1.71,117.34,141011,,,D*74
$GPRMC,185322.000,A,3748.7791,N,12217.8184,W,1.58,109.70,141011,,,D*73
$GPRMC,185323.000,A,3748.7786,N,12217.8179,W,1.97,128.25,141011,,,D*76
$GPRMC,185324.000,A,3748.7777,N,12217.8167,W,2.27,133.10,141011,,,D*74
$GPRMC,185325.000,A,3748.7767,N,12217.8166,W,1.89,132.76,141011,,,D*73
$GPRMC,185326.000,A,3748.7758,N,12217.8165,W,1.53,123.85,141011,,,D*74
$GPRMC,185327.000,A,3748.7754,N,12217.8164,W,2.06,119.53,141011,,,D*79
$GPRMC,185328.000,A,3748.7751,N,12217.8159,W,1.71,118.73,141011,,,D*7D
$GPRMC,185329.000,A,3748.7750,N,12217.8156,W,1.34,113.35,141011,,,D*7A
$GPRMC,185330.000,A,3748.7746,N,12217.8153,W,1.31,104.64,141011,,,D*77
$GPRMC,185331.000,A,3748.7743,N,12217.8142,W,1.18,99.17,141011,,,D*49
$GPRMC,185332.000,A,3748.7739,N,12217.8138,W,1.39,102.86,141011,,,D*72
$GPRMC,185333.000,A,3748.7733,N,12217.8133,W,1.61,112.91,141011,,,D*78
$GPRMC,185334.000,A,3748.7730,N,12217.8125,W,1.43,114.27,141011,,,D*70
$GPRMC,185335.000,A,3748.7729,N,12217.8119,W,1.27,121.36,141011,,,D*72
$GPRMC,185336.000,A,3748.7725,N,12217.8107,W,1.45,128.49,141011,,,D*77
$GPRMC,185337.000,A,3748.7722,N,12217.8099,W,1.38,123.02,141011,,,D*79
$GPRMC,185338.000,A,3748.7720,N,12217.8090,W,1.56,117.92,141011,,,D*7B
$GPRMC,185339.000,A,3748.7717,N,12217.8083,W,1.55,125.09,141011,,,D*7C
$GPRMC,185339.000,A,3748.7715,N,12217.8073,W,1.62,110.83,141011,,,D*71
$GPRMC,185340.000,A,3748.7713,N,12217.8065,W,1.43,111.30,141011,,,D*74
$GPRMC,185341.000,A,3748.7711,N,12217.8057,W,1.90,116.03,141011,,,D*7F
$GPRMC,185342.000,A,3748.7708,N,12217.8053,W,1.80,116.71,141011,,,D*74
$GPRMC,185343.000,A,3748.7703,N,12217.8043,W,1.51,123.19,141011,,,D*7B
$GPRMC,185344.000,A,3748.7697,N,12217.8033,W,1.78,129.23,141011,,,D*7F
$GPRMC,185345.000,A,3748.7693,N,12217.8029,W,1.69,125.74,141011,,,D*7F
$GPRMC,185346.000,A,3748.7686,N,12217.8019,W,1.90,118.37,141011,,,D*74
$GPRMC,185347.000,A,3748.7681,N,12217.8012,W,2.01,123.41,141011,,,D*7B
$GPRMC,185348.000,A,3748.7679,N,12217.8001,W,1.80,118.84,141011,,,D*7A
$GPRMC,185349.000,A,3748.7677,N,12217.7990,W,1.67,114.84,141011,,,D*7E
$GPRMC,185350.000,A,3748.7675,N,12217.7980,W,1.86,113.84,141011,,,D*7D
$GPRMC,185351.000,A,3748.7674,N,12217.7971,W,1.62,115.64,141011,,,D*71
$GPRMC,185352.000,A,3748.7670,N,12217.7966,W,1.68,115.93,141011,,,D*72
$GPRMC,185353.000,A,3748.7669,N,12217.7961,W,1.67,107.55,141011,,,D*7A
$GPRMC,185354.000,A,3748.7667,N,12217.7957,W,1.46,119.47,141011,,,D*79
$GPRMC,185355.000,A,3748.7665,N,12217.7950,W,1.79,117.13,141011,,,D*7E
$GPRMC,185356.000,A,3748.7664,N,12217.7942,W,1.88,109.37,141011,,,D*78
$GPRMC,185357.000,A,3748.7662,N,12217.7934,W,1.89,119.84,141011,,,D*76
$GPRMC,185358.000,A,3748.7656,N,12217.7925,W,1.71,118.68,141011,,,D*7A
$GPRMC,185359.000,A,3748.7651,N,12217.7918,W,1.67,128.07,141011,,,D*7F
$GPRMC,185400.000,A,3748.7648,N,12217.7912,W,1.59,131.34,141011,,,D*73
$GPRMC,185401.000,A,3748.7646,N,12217.7906,W,1.62,124.86,141011,,,D*7C
$GPRMC,185402.000,A,3748.7645,N,12217.7900,W,1.54,130.26,141011,,,D*70
$GPRMC,185403.000,A,3748.7642,N,12217.7896,W,1.66,128.90,141011,,,D*7D
$GPRMC,185404.000,A,3748.7636,N,12217.7894,W,1.56,120.68,141011,,,D*77
$GPRMC,185405.000,A,3748.7633,N,12217.7889,W,1.48,118.27,141011,,,D*70
$GPRMC,185406.000,A,3748.7629,N,12217.7882,W,1.65,114.37,141011,,,D*71
$GPRMC,185407.000,A,3748.7625,N,12217.7871,W,1.61,97.59,141011,,,D*46
$GPRMC,185408.000,A,3748.7621,N,12217.7865,W,1.48,89.95,141011,,,D*4C
$GPRMC,185409.000,A,3748.7618,N,12217.7855,W,1.75,96.07,141011,,,D*4F
$GPRMC,185410.000,A,3748.7612,N,12217.7850,W,1.70,124.89,141011,,,D*73
$GPRMC,185411.000,A,3748.7602,N,12217.7834,W,2.36,127.33,141011,,,D*72
$GPRMC,185412.000,A,3748.7595,N,12217.7826,W,2.36,126.29,141011,,,D*75
$GPRMC,185413.000,A,3748.7589,N,12217.7818,W,2.45,128.46,141011,,,D*77
$GPRMC,185414.000,A,3748.7584,N,12217.7810,W,1.94,120.43,141011,,,D*77
$GPRMC,185415.000,A,3748.7580,N,12217.7804,W,2.10,116.46,141011,,,D*78
$GPRMC,185416.000,A,3748.7575,N,12217.7793,W,2.73,122.03,141011,,,D*73
$GPRMC,185417.000,A,3748.7569,N,12217.7783,W,2.50,120.67,141011,,,D*7F
$GPRMC,185418.000,A,3748.7564,N,12217.7770,W,2.59,107.69,141011,,,D*73
$GPRMC,185419.000,A,3748.7559,N,12217.7761,W,2.47,112.50,141011,,,D*7D
$GPRMC,185420.000,A,3748.7556,N,12217.7757,W,2.11,96.12,141011,,,D*45
$GPRMC,185421.000,A,3748.7554,N,12217.7745,W,2.83,109.08,141011,,,D*72
$GPRMC,185422.000,A,3748.7550,N,12217.7734,W,3.12,117.46,141011,,,D*7F
$GPRMC,185423.000,A,3748.7545,N,12217.7725,W,2.37,121.30,141011,,,D*78
$GPRMC,185424.000,A,3748.7536,N,12217.7710,W,2.91,111.24,141011,,,D*77
$GPRMC,185425.000,A,3748.7534,N,12217.7701,W,2.81,106.50,141011,,,D*70
$GPRMC,185426.000,A,3748.7528,N,12217.7691,W,3.35,119.77,141011,,,D*73
$GPRMC,185427.000,A,3748.7522,N,12217.7683,W,2.47,114.91,141011,,,D*7A
$GPRMC,185428.000,A,3748.7515,N,12217.7671,W,2.37,105.15,141011,,,D*77
$GPRMC,185429.000,A,3748.7509,N,12217.7662,W,2.28,109.96,141011,,,D*70
$GPRMC,185430.000,A,3748.7500,N,12217.7644,W,2.52,102.96,141011,,,D*73
$GPRMC,185431.000,A,3748.7496,N,12217.7635,W,1.94,99.91,141011,,,D*47
$GPRMC,185432.000,A,3748.7491,N,12217.7626,W,2.11,111.25,141011,,,D*71
$GPRMC,185433.000,A,3748.7486,N,12217.7615,W,1.77,111.63,141011,,,D*77
$GPRMC,185434.000,A,3748.7482,N,12217.7612,W,1.93,117.68,141011,,,D*74
$GPRMC,185435.000,A,3748.7476,N,12217.7606,W,1.74,134.34,141011,,,D*7A
$GPRMC,185436.000,A,3748.7472,N,12217.7598,W,2.06,118.87,141011,,,D*79
$GPRMC,185437.000,A,3748.7468,N,12217.7590,W,1.93,126.97,141011,,,D*78
$GPRMC,185438.000,A,3748.7462,N,12217.7580,W,2.32,125.52,141011,,,D*7E
$GPRMC,185439.000,A,3748.7458,N,12217.7574,W,2.05,121.41,141011,,,D*7F
$GPRMC,185440.000,A,3748.7454,N,12217.7567,W,2.14,109.78,141011,,,D*7F
$GPRMC,185441.000,A,3748.7452,N,12217.7562,W,1.54,115.43,141011,,,D*7F
$GPRMC,185442.000,A,3748.7447,N,12217.7553,W,1.91,119.88,141011,,,D*78
$GPRMC,185443.000,A,3748.7445,N,12217.7550,W,1.52,98.09,141011,,,D*46
$GPRMC,185444.000,A,3748.7450,N,12217.7544,W,1.53,93.65,141011,,,D*40
$GPRMC,185445.000,A,3748.7453,N,12217.7531,W,1.74,108.08,141011,,,D*7D
$GPRMC,185446.000,A,3748.7455,N,12217.7521,W,1.48,106.03,141011,,,D*73
$GPRMC,185447.000,A,3748.7455,N,12217.7517,W,1.54,105.54,141011,,,D*7B
$GPRMC,185448.000,A,3748.7455,N,12217.7516,W,1.54,104.50,141011,,,D*70
$GPRMC,185449.000,A,3748.7457,N,12217.7511,W,1.43,125.76,141011,,,D*75
$GPRMC,185450.000,A,3748.7456,N,12217.7504,W,1.38,121.26,141011,,,D*75
$GPRMC,185451.000,A,3748.7453,N,12217.7495,W,0.98,120.93,141011,,,D*7C
$GPRMC,185452.000,A,3748.7450,N,12217.7489,W,1.50,127.38,141011,,,D*72
$GPRMC,185453.000,A,3748.7447,N,12217.7481,W,1.12,113.59,141011,,,D*7B
$GPRMC,185454.000,A,3748.7447,N,12217.7481,W,0.83,148.31,141011,,,D*75
$GPRMC,185455.000,A,3748.7445,N,12217.7480,W,0.74,123.48,141011,,,D*7C
$GPRMC,185456.000,A,3748.7438,N,12217.7478,W,1.38,130.85,141011,,,D*78
$GPRMC,185457.000,A,3748.7434,N,12217.7472,W,1.51,111.85,141011,,,D*73
$GPRMC,185458.000,A,3748.7435,N,12217.7467,W,1.06,102.31,141011,,,D*76
$GPRMC,185459.000,A,3748.7429,N,12217.7461,W,0.97,103.37,141011,,,D*72
$GPRMC,185500.000,A,3748.7421,N,12217.7453,W,1.36,138.18,141011,,,D*79
$GPRMC,185501.000,A,3748.7413,N,12217.7446,W,1.33,133.64,141011,,,D*78
$GPRMC,185502.000,A,3748.7407,N,12217.7440,W,1.26,139.79,141011,,,D*7A
$GPRMC,185503.000,A,3748.7405,N,12217.7437,W,0.92,131.99,141011,,,D*71
$GPRMC,185504.000,A,3748.7401,N,12217.7432,W,0.87,163.28,141011,,,D*7E
$GPRMC,185505.000,A,3748.7401,N,12217.7426,W,0.90,95.73,141011,,,A*4F
$GPRMC,185506.000,A,3748.7401,N,12217.7417,W,1.01,106.64,141011,,,A*7A
$GPRMC,185507.000,A,3748.7399,N,12217.7411,W,1.23,105.83,141011,,,A*71
$GPRMC,185508.000,A,3748.7399,N,12217.7400,W,0.99,121.24,141011,,,A*75
$GPRMC,185509.000,A,3748.7395,N,12217.7397,W,1.07,149.97,141011,,,A*71
$GPRMC,185510.000,A,3748.7388,N,12217.7394,W,1.41,166.11,141011,,,A*77
$GPRMC,185511.000,A,3748.7384,N,12217.7391,W,1.21,137.37,141011,,,A*79
$GPRMC,185512.000,A,3748.7380,N,12217.7380,W,1.82,115.97,141011,,,A*7D
$GPRMC,185513.000,A,3748.7371,N,12217.7373,W,1.30,144.66,141011,,,A*7D
$GPRMC,185514.000,A,3748.7362,N,12217.7365,W,0.97,138.72,141011,,,A*7D
$GPRMC,185515.000,A,3748.7354,N,12217.7356,W,1.54,133.42,141011,,,A*7F
$GPRMC,185516.000,A,3748.7347,N,12217.7342,W,1.81,119.95,141011,,,A*71
$GPRMC,185517.000,A,3748.7340,N,12217.7332,W,2.19,129.74,141011,,,A*7E
$GPRMC,185518.000,A,3748.7336,N,12217.7323,W,2.07,124.88,141011,,,A*71
$GPRMC,185519.000,A,3748.7335,N,12217.7315,W,2.05,122.66,141011,,,A*72
$GPRMC,185520.000,A,3748.7331,N,12217.7301,W,2.39,122.26,141011,,,A*72
$GPRMC,185521.000,A,3748.7324,N,12217.7292,W,2.60,119.50,141011,,,A*79
$GPRMC,185522.000,A,3748.7318,N,12217.7275,W,2.17,109.13,141011,,,A*7A
$GPRMC,185523.000,A,3748.7315,N,12217.7265,W,2.04,101.79,141011,,,A*71
$GPRMC,185524.000,A,3748.7310,N,12217.7253,W,2.59,115.07,141011,,,A*72
$GPRMC,185525.000,A,3748.7306,N,12217.7243,W,2.45,122.67,141011,,,A*7A
$GPRMC,185526.000,A,3748.7302,N,12217.7237,W,2.35,129.33,141011,,,A*73
$GPRMC,185527.000,A,3748.7297,N,12217.7228,W,2.50,126.52,141011,,,A*7A
$GPRMC,185528.000,A,3748.7292,N,12217.7221,W,2.01,121.90,141011,,,A*74
$GPRMC,185529.000,A,3748.7288,N,12217.7213,W,1.83,120.65,141011,,,A*7D
$GPRMC,185530.000,A,3748.7283,N,12217.7205,W,2.05,98.79,141011,,,A*4B
$GPRMC,185531.000,A,3748.7282,N,12217.7198,W,1.87,89.50,141011,,,A*4E
$GPRMC,185532.000,A,3748.7276,N,12217.7193,W,1.94,105.64,141011,,,A*7D
$GPRMC,185533.000,A,3748.7273,N,12217.7187,W,2.08,120.98,141011,,,A*7E
$GPRMC,185534.000,A,3748.7271,N,12217.7182,W,1.91,119.39,141011,,,D*79
$GPRMC,185535.000,A,3748.7271,N,12217.7175,W,1.61,101.09,141011,,,D*75
$GPRMC,185536.000,A,3748.7273,N,12217.7168,W,1.82,61.68,141011,,,D*45
$GPRMC,185537.000,A,3748.7278,N,12217.7163,W,2.05,42.17,141011,,,D*41
$GPRMC,185538.000,A,3748.7283,N,12217.7158,W,2.35,38.82,141011,,,D*40
$GPRMC,185539.000,A,3748.7290,N,12217.7152,W,1.70,44.54,141011,,,D*4B
$GPRMC,185540.000,A,3748.7294,N,12217.7152,W,1.56,25.28,141011,,,D*49
$GPRMC,185541.000,A,3748.7301,N,12217.7152,W,1.22,27.49,141011,,,D*43
$GPRMC,185542.000,A,3748.7309,N,12217.7147,W,1.83,33.99,141011,,,D*4F
$GPRMC,185543.000,A,3748.7315,N,12217.7146,W,1.80,41.84,141011,,,D*48
$GPRMC,185544.000,A,3748.7318,N,12217.7139,W,1.64,41.37,141011,,,D*48
$GPRMC,185545.000,A,3748.7326,N,12217.7131,W,2.12,29.33,141011,,,D*44
$GPRMC,185546.000,A,3748.7334,N,12217.7128,W,2.00,22.97,141011,,,D*4A
$GPRMC,185547.000,A,3748.7337,N,12217.7119,W,1.76,28.60,141011,,,D*4A
$GPRMC,185548.000,A,3748.7339,N,12217.7104,W,1.93,43.50,141011,,,D*42
$GPRMC,185549.000,A,3748.7341,N,12217.7101,W,1.14,50.60,141011,,,D*47
$GPRMC,185550.000,A,3748.7347,N,12217.7097,W,1.48,43.73,141011,,,D*4E
$GPRMC,185551.000,A,3748.7354,N,12217.7093,W,1.86,33.90,141011,,,D*41
$GPRMC,185552.000,A,3748.7363,N,12217.7089,W,1.83,27.01,141011,,,D*45
$GPRMC,185553.000,A,3748.7366,N,12217.7087,W,1.33,37.32,141011,,,D*45
$GPRMC,185554.000,A,3748.7370,N,12217.7082,W,2.02,32.50,141011,,,D*40
$GPRMC,185555.000,A,3748.7375,N,12217.7076,W,1.80,51.18,141011,,,D*4F
$GPRMC,185556.000,A,3748.7381,N,12217.7069,W,2.33,44.56,141011,,,D*4C
$GPRMC,185557.000,A,3748.7388,N,12217.7058,W,2.42,48.99,141011,,,D*4F
$GPRMC,185558.000,A,3748.7396,N,12217.7052,W,2.49,38.14,141011,,,D*4C
$GPRMC,185559.000,A,3748.7405,N,12217.7044,W,2.93,48.59,141011,,,D*4E
$GPRMC,185600.000,A,3748.7410,N,12217.7039,W,2.52,60.54,141011,,,D*45
$GPRMC,185601.000,A,3748.7417,N,12217.7033,W,2.77,46.62,141011,,,D*4F
$GPRMC,185602.000,A,3748.7423,N,12217.7025,W,2.57,42.15,141011,,,D*4A
$GPRMC,185603.000,A,3748.7427,N,12217.7028,W,1.86,41.49,141011,,,D*47
$GPRMC,185604.000,A,3748.7431,N,12217.7022,W,2.07,26.61,141011,,,D*4C
$GPRMC,185605.000,A,3748.7437,N,12217.7022,W,1.75,14.29,141011,,,D*40
$GPRMC,185606.000,A,3748.7437,N,12217.7016,W,1.82,17.25,141011,,,D*43
$GPRMC,185607.000,A,3748.7444,N,12217.7011,W,2.24,4.67,141011,,,D*7A
$GPRMC,185608.000,A,3748.7454,N,12217.7009,W,2.21,9.43,141011,,,D*73
$GPRMC,185609.000,A,3748.7460,N,12217.7005,W,2.06,24.07,141011,,,D*43
$GPRMC,185610.000,A,3748.7466,N,12217.6995,W,2.59,33.83,141011,,,D*4C
$GPRMC,185611.000,A,3748.7472,N,12217.6990,W,2.50,35.42,141011,,,D*4F
$GPRMC,185612.000,A,3748.7476,N,12217.6982,W,2.26,22.60,141011,,,D*4C
$GPRMC,185613.000,A,3748.7478,N,12217.6975,W,2.00,10.31,141011,,,D*4A
$GPRMC,185614.000,A,3748.7484,N,12217.6968,W,2.34,12.70,141011,,,D*42
$GPRMC,185615.000,A,3748.7494,N,12217.6965,W,2.58,10.51,141011,,,D*44
$GPRMC,185616.000,A,3748.7504,N,12217.6961,W,2.10,23.51,141011,,,D*47
$GPRMC,185617.000,A,3748.7512,N,12217.6957,W,1.76,33.14,141011,,,D*47
$GPRMC,185618.000,A,3748.7518,N,12217.6953,W,2.03,23.57,141011,,,D*41
$GPRMC,185619.000,A,3748.7522,N,12217.6948,W,2.28,34.08,141011,,,D*46
$GPRMC,185620.000,A,3748.7526,N,12217.6940,W,2.07,33.43,141011,,,D*45
$GPRMC,185621.000,A,3748.7531,N,12217.6936,W,1.95,32.86,141011,,,D*43
$GPRMC,185622.000,A,3748.7541,N,12217.6937,W,1.87,15.47,141011,,,A*48
$GPRMC,185623.000,A,3748.7545,N,12217.6936,W,1.70,35.98,141011,,,A*44
$GPRMC,185624.000,A,3748.7550,N,12217.6930,W,2.15,29.20,141011,,,A*4F
$GPRMC,185625.000,A,3748.7555,N,12217.6927,W,2.20,35.68,141011,,,A*4A
$GPRMC,185626.000,A,3748.7560,N,12217.6927,W,1.99,37.51,141011,,,A*46
$GPRMC,185627.000,A,3748.7563,N,12217.6923,W,1.74,43.85,141011,,,A*49
$GPRMC,185628.000,A,3748.7565,N,12217.6913,W,1.73,38.11,141011,,,A*45
$GPRMC,185629.000,A,3748.7568,N,12217.6906,W,1.71,41.55,141011,,,A*41
$GPRMC,185630.000,A,3748.7576,N,12217.6903,W,2.23,27.83,141011,,,A*4C
$GPRMC,185631.000,A,3748.7585,N,12217.6899,W,2.41,31.18,141011,,,A*42
$GPRMC,185632.000,A,3748.7592,N,12217.6887,W,2.25,15.64,141011,,,A*47
$GPRMC,185633.000,A,3748.7600,N,12217.6886,W,2.36,21.74,141011,,,A*4B
$GPRMC,185634.000,A,3748.7609,N,12217.6884,W,2.18,21.93,141011,,,A*42
$GPRMC,185635.000,A,3748.7615,N,12217.6882,W,2.10,22.59,141011,,,A*45
$GPRMC,185636.000,A,3748.7621,N,12217.6879,W,2.32,23.49,141011,,,A*45
$GPRMC,185637.000,A,3748.7630,N,12217.6877,W,2.23,24.58,141011,,,A*4D
$GPRMC,185638.000,A,3748.7639,N,12217.6871,W,2.32,29.06,141011,,,A*4B
$GPRMC,185639.000,A,3748.7646,N,12217.6869,W,2.34,24.36,141011,,,A*43
$GPRMC,185640.000,A,3748.7651,N,12217.6867,W,2.65,20.74,141011,,,A*43
$GPRMC,185641.000,A,3748.7659,N,12217.6863,W,1.95,11.49,141011,,,A*4E
$GPRMC,185642.000,A,3748.7668,N,12217.6854,W,1.97,22.42,141011,,,A*42
$GPRMC,185643.000,A,3748.7671,N,12217.6852,W,1.83,18.41,141011,,,A*42
$GPRMC,185644.000,A,3748.7676,N,12217.6848,W,2.00,23.19,141011,,,A*44
$GPRMC,185645.000,A,3748.7681,N,12217.6843,W,1.85,36.09,141011,,,A*4D
$GPRMC,185646.000,A,3748.7686,N,12217.6836,W,2.11,43.59,141011,,,A*42
$GPRMC,185647.000,A,3748.7692,N,12217.6833,W,2.16,32.12,141011,,,A*4D
$GPRMC,185648.000,A,3748.7698,N,12217.6831,W,2.10,22.99,141011,,,A*4E
$GPRMC,185649.000,A,3748.7702,N,12217.6825,W,1.93,18.53,141011,,,A*4F
$GPRMC,185650.000,A,3748.7707,N,12217.6822,W,1.77,15.65,141011,,,A*47
$GPRMC,185651.000,A,3748.7713,N,12217.6821,W,2.04,22.36,141011,,,A*45
$GPRMC,185652.000,A,3748.7718,N,12217.6818,W,1.91,20.32,141011,,,A*4E
$GPRMC,185653.000,A,3748.7721,N,12217.6811,W,2.19,35.28,141011,,,A*40
$GPRMC,185654.000,A,3748.7718,N,12217.6804,W,1.70,58.45,141011,,,A*45
$GPRMC,185655.000,A,3748.7720,N,12217.6798,W,1.77,44.91,141011,,,A*46
$GPRMC,185656.000,A,3748.7725,N,12217.6792,W,2.11,39.24,141011,,,A*4D
$GPRMC,185657.000,A,3748.7728,N,12217.6782,W,2.42,43.53,141011,,,A*4B
$GPRMC,185658.000,A,3748.7734,N,12217.6778,W,2.41,29.48,141011,,,A*49
$GPRMC,185659.000,A,3748.7742,N,12217.6775,W,2.45,25.17,141011,,,A*46
$GPRMC,185700.000,A,3748.7750,N,12217.6772,W,2.62,24.10,141011,,,A*4C
$GPRMC,185701.000,A,3748.7758,N,12217.6766,W,2.51,13.73,141011,,,A*41
$GPRMC,185702.000,A,3748.7765,N,12217.6760,W,2.59,21.60,141011,,,A*41
$GPRMC,185703.000,A,3748.7773,N,12217.6760,W,2.02,31.47,141011,,,A*4D
$GPRMC,185704.000,A,3748.7778,N,12217.6753,W,2.04,32.91,141011,,,A*4F
$GPRMC,185705.000,A,3748.7786,N,12217.6747,W,2.48,29.46,141011,,,A*42
$GPRMC,185706.000,A,3748.7794,N,12217.6743,W,2.54,30.67,141011,,,A*40
$GPRMC,185707.000,A,3748.7800,N,12217.6738,W,2.15,33.05,141011,,,A*4D
$GPRMC,185708.000,A,3748.7806,N,12217.6737,W,2.15,32.25,141011,,,A*48
$GPRMC,185709.000,A,3748.7813,N,12217.6734,W,2.13,21.13,141011,,,A*4F
$GPRMC,185710.000,A,3748.7821,N,12217.6731,W,2.41,22.15,141011,,,A*41
$GPRMC,185711.000,A,3748.7829,N,12217.6727,W,2.14,27.60,141011,,,A*48
$GPRMC,185712.000,A,3748.7836,N,12217.6723,W,2.65,28.14,141011,,,A*4B
$GPRMC,185713.000,A,3748.7843,N,12217.6719,W,2.11,25.22,141011,,,A*4A
$GPRMC,185714.000,A,3748.7847,N,12217.6713,W,2.23,32.60,141011,,,A*42
$GPRMC,185715.000,A,3748.7853,N,12217.6709,W,2.00,33.57,141011,,,A*49
$GPRMC,185716.000,A,3748.7863,N,12217.6704,W,2.57,21.61,141011,,,A*40
$GPRMC,185717.000,A,3748.7872,N,12217.6700,W,2.63,22.66,141011,,,A*46
$GPRMC,185718.000,A,3748.7878,N,12217.6696,W,2.57,33.41,141011,,,A*4F
$GPRMC,185719.000,A,3748.7883,N,12217.6691,W,2.38,31.89,141011,,,A*42
$GPRMC,185720.000,A,3748.7889,N,12217.6686,W,2.44,29.31,141011,,,A*45
$GPRMC,185721.000,A,3748.7895,N,12217.6680,W,2.25,17.76,141011,,,A*46
$GPRMC,185722.000,A,3748.7902,N,12217.6673,W,3.08,20.12,141011,,,A*4E
$GPRMC,185723.000,A,3748.7911,N,12217.6666,W,2.50,32.31,141011,,,A*47
$GPRMC,185724.000,A,3748.7915,N,12217.6662,W,2.20,30.86,141011,,,A*49
$GPRMC,185725.000,A,3748.7921,N,12217.6658,W,1.99,26.68,141011,,,A*40
$GPRMC,185726.000,A,3748.7928,N,12217.6656,W,1.85,18.80,141011,,,A*42
$GPRMC,185727.000,A,3748.7933,N,12217.6654,W,1.89,18.53,141011,,,A*49
$GPRMC,185728.000,A,3748.7941,N,12217.6650,W,2.55,18.21,141011,,,A*40
$GPRMC,185729.000,A,3748.7949,N,12217.6647,W,2.53,15.97,141011,,,A*49
$GPRMC,185730.000,A,3748.7959,N,12217.6643,W,2.58,24.48,141011,,,D*4A
$GPRMC,185731.000,A,3748.7964,N,12217.6633,W,2.35,32.58,141011,,,D*4F
$GPRMC,185732.000,A,3748.7971,N,12217.6630,W,2.36,23.02,141011,,,D*47
$GPRMC,185733.000,A,3748.7979,N,12217.6626,W,2.73,27.67,141011,,,D*4F
$GPRMC,185734.000,A,3748.7987,N,12217.6623,W,2.59,17.87,141011,,,D*49
$GPRMC,185735.000,A,3748.7992,N,12217.6615,W,2.35,49.30,141011,,,D*44
$GPRMC,185736.000,A,3748.7996,N,12217.6607,W,2.81,37.94,141011,,,D*48
$GPRMC,185737.000,A,3748.8001,N,12217.6596,W,2.63,37.72,141011,,,D*4E
$GPRMC,185738.000,A,3748.8005,N,12217.6588,W,2.42,33.86,141011,,,D*46
$GPRMC,185739.000,A,3748.8010,N,12217.6581,W,2.61,23.20,141011,,,D*46
$GPRMC,185740.000,A,3748.8016,N,12217.6571,W,2.73,31.01,141011,,,D*42
$GPRMC,185741.000,A,3748.8020,N,12217.6559,W,2.78,27.06,141011,,,D*47
$GPRMC,185742.000,A,3748.8026,N,12217.6553,W,2.74,26.56,141011,,,D*40
$GPRMC,185743.000,A,3748.8029,N,12217.6544,W,2.36,35.87,141011,,,D*40
$GPRMC,185744.000,A,3748.8034,N,12217.6534,W,2.82,40.28,141011,,,D*44
$GPRMC,185745.000,A,3748.8038,N,12217.6526,W,2.63,43.19,141011,,,D*44
$GPRMC,185746.000,A,3748.8041,N,12217.6516,W,2.73,38.31,141011,,,D*4D
$GPRMC,185747.000,A,3748.8048,N,12217.6514,W,2.48,27.75,141011,,,D*41
$GPRMC,185748.000,A,3748.8054,N,12217.6509,W,2.77,24.15,141011,,,D*46
$GPRMC,185749.000,A,3748.8061,N,12217.6504,W,2.75,24.03,141011,,,D*49
$GPRMC,185750.000,A,3748.8066,N,12217.6496,W,2.41,26.18,141011,,,D*43
$GPRMC,185751.000,A,3748.8072,N,12217.6496,W,2.06,38.45,141011,,,D*43
$GPRMC,185752.000,A,3748.8077,N,12217.6494,W,1.98,30.22,141011,,,D*4A
$GPRMC,185753.000,A,3748.8078,N,12217.6489,W,1.87,47.50,141011,,,D*43
$GPRMC,185754.000,A,3748.8082,N,12217.6484,W,2.26,35.57,141011,,,D*46
$GPRMC,185755.000,A,3748.8088,N,12217.6480,W,2.31,29.15,141011,,,D*44
$GPRMC,185756.000,A,3748.8096,N,12217.6476,W,2.41,29.43,141011,,,D*45
$GPRMC,185757.000,A,3748.8101,N,12217.6473,W,2.48,29.64,141011,,,D*42
$GPRMC,185758.000,A,3748.8109,N,12217.6470,W,2.31,27.13,141011,,,D*46
$GPRMC,185759.000,A,3748.8118,N,12217.6466,W,2.42,28.91,141011,,,D*41
$GPRMC,185800.000,A,3748.8124,N,12217.6459,W,2.42,31.77,141011,,,D*41
$GPRMC,185801.000,A,3748.8130,N,12217.6452,W,2.52,38.26,141011,,,D*42
$GPRMC,185802.000,A,3748.8138,N,12217.6446,W,2.93,26.32,141011,,,D*4B
$GPRMC,185803.000,A,3748.8145,N,12217.6441,W,2.56,27.14,141011,,,D*4B
$GPRMC,185804.000,A,3748.8154,N,12217.6438,W,2.84,25.97,141011,,,D*44
$GPRMC,185805.000,A,3748.8162,N,12217.6435,W,2.74,25.88,141011,,,D*4C
$GPRMC,185806.000,A,3748.8168,N,12217.6429,W,2.65,23.86,141011,,,D*40
$GPRMC,185807.000,A,3748.8174,N,12217.6424,W,2.61,21.85,141011,,,D*44
$GPRMC,185808.000,A,3748.8179,N,12217.6422,W,2.56,11.99,141011,,,D*4A
$GPRMC,185809.000,A,3748.8186,N,12217.6421,W,2.44,25.34,141011,,,D*4B
$GPRMC,185810.000,A,3748.8197,N,12217.6417,W,2.10,33.90,141011,,,D*4E
$GPRMC,185811.000,A,3748.8206,N,12217.6413,W,2.35,25.85,141011,,,D*44
$GPRMC,185812.000,A,3748.8216,N,12217.6412,W,2.91,27.43,141011,,,D*41
$GPRMC,185813.000,A,3748.8224,N,12217.6409,W,2.99,18.18,141011,,,D*41
$GPRMC,185814.000,A,3748.8232,N,12217.6408,W,2.42,24.67,141011,,,D*41
$GPRMC,185815.000,A,3748.8239,N,12217.6405,W,2.47,37.27,141011,,,D*45
$GPRMC,185816.000,A,3748.8250,N,12217.6399,W,2.78,26.35,141011,,,D*44
$GPRMC,185817.000,A,3748.8257,N,12217.6393,W,2.72,22.08,141011,,,D*48
$GPRMC,185818.000,A,3748.8261,N,12217.6389,W,2.42,31.65,141011,,,D*43
$GPRMC,185819.000,A,3748.8267,N,12217.6383,W,2.67,34.07,141011,,,D*48
$GPRMC,185820.000,A,3748.8276,N,12217.6378,W,2.85,25.75,141011,,,D*4F
$GPRMC,185821.000,A,3748.8281,N,12217.6374,W,2.40,32.08,141011,,,D*4F
$GPRMC,185822.000,A,3748.8271,N,12217.6354,W,1.87,45.54,141011,,,D*40
$GPRMC,185823.000,A,3748.8279,N,12217.6350,W,2.00,26.56,141011,,,D*46
$GPRMC,185824.000,A,3748.8285,N,12217.6348,W,2.28,32.25,141011,,,D*40
$GPRMC,185825.000,A,3748.8288,N,12217.6344,W,2.41,27.67,141011,,,D*4D
$GPRMC,185826.000,A,3748.8295,N,12217.6341,W,2.38,30.05,141011,,,D*4B
$GPRMC,185827.000,A,3748.8303,N,12217.6336,W,2.49,36.31,141011,,,D*43
$GPRMC,185828.000,A,3748.8311,N,12217.6330,W,2.60,31.82,141011,,,D*4D
$GPRMC,185829.000,A,3748.8321,N,12217.6329,W,2.72,26.92,141011,,,D*43
$GPRMC,185830.000,A,3748.8332,N,12217.6330,W,2.72,27.25,141011,,,D*4C
$GPRMC,185831.000,A,3748.8339,N,12217.6326,W,2.85,22.39,141011,,,D*41
$GPRMC,185832.000,A,3748.8343,N,12217.6318,W,2.61,26.23,141011,,,D*47
$GPRMC,185833.000,A,3748.8348,N,12217.6312,W,2.50,31.03,141011,,,D*41
$GPRMC,185834.000,A,3748.8359,N,12217.6309,W,2.75,24.32,141011,,,D*4D
$GPRMC,185835.000,A,3748.8365,N,12217.6307,W,1.99,34.85,141011,,,D*41
$GPRMC,185836.000,A,3748.8368,N,12217.6302,W,1.88,42.12,141011,,,D*45
$GPRMC,185837.000,A,3748.8373,N,12217.6298,W,2.29,32.77,141011,,,D*40
$GPRMC,185838.000,A,3748.8378,N,12217.6290,W,2.53,33.11,141011,,,D*40
$GPRMC,185839.000,A,3748.8385,N,12217.6286,W,2.52,37.27,141011,,,D*44
$GPRMC,185840.000,A,3748.8390,N,12217.6281,W,2.55,32.03,141011,,,D*4D
$GPRMC,185841.000,A,3748.8397,N,12217.6276,W,2.57,28.92,141011,,,D*42
$GPRMC,185842.000,A,3748.8403,N,12217.6268,W,2.04,15.81,141011,,,D*4E
$GPRMC,185843.000,A,3748.8411,N,12217.6265,W,2.19,19.17,141011,,,D*4E
$GPRMC,185844.000,A,3748.8417,N,12217.6265,W,2.23,11.50,141011,,,D*4D
$GPRMC,185845.000,A,3748.8422,N,12217.6262,W,2.26,28.79,141011,,,D*49
$GPRMC,185846.000,A,3748.8428,N,12217.6260,W,2.03,44.16,141011,,,D*46
$GPRMC,185847.000,A,3748.8431,N,12217.6251,W,1.70,59.50,141011,,,D*44
$GPRMC,185848.000,A,3748.8430,N,12217.6239,W,1.20,82.00,141011,,,D*42
$GPRMC,185849.000,A,3748.8428,N,12217.6234,W,1.60,123.38,141011,,,D*72
$GPRMC,185850.000,A,3748.8424,N,12217.6228,W,2.29,129.03,141011,,,D*77
$GPRMC,185851.000,A,3748.8418,N,12217.6223,W,2.11,134.10,141011,,,D*77
$GPRMC,185852.000,A,3748.8413,N,12217.6218,W,2.24,138.70,141011,,,D*7B
$GPRMC,185853.000,A,3748.8408,N,12217.6214,W,1.92,130.03,141011,,,D*7E
$GPRMC,185854.000,A,3748.8405,N,12217.6209,W,1.93,128.65,141011,,,D*70
$GPRMC,185855.000,A,3748.8400,N,12217.6204,W,1.90,120.45,141011,,,D*70
$GPRMC,185856.000,A,3748.8397,N,12217.6198,W,2.08,119.60,141011,,,D*73
$GPRMC,185857.000,A,3748.8391,N,12217.6192,W,2.53,145.35,141011,,,D*79
$GPRMC,185858.000,A,3748.8384,N,12217.6188,W,2.56,140.50,141011,,,D*7A
$GPRMC,185859.000,A,3748.8378,N,12217.6182,W,2.26,126.92,141011,,,D*7B
$GPRMC,185900.000,A,3748.8374,N,12217.6175,W,2.09,131.19,141011,,,D*7A
$GPRMC,185901.000,A,3748.8368,N,12217.6170,W,1.85,128.04,141011,,,D*70
$GPRMC,185902.000,A,3748.8364,N,12217.6164,W,1.90,124.23,141011,,,D*77
$GPRMC,185903.000,A,3748.8361,N,12217.6157,W,1.72,106.15,141011,,,D*7A
$GPRMC,185904.000,A,3748.8358,N,12217.6151,W,1.89,123.13,141011,,,D*74
$GPRMC,185905.000,A,3748.8354,N,12217.6144,W,2.16,111.69,141011,,,D*74
$GPRMC,185906.000,A,3748.8351,N,12217.6140,W,1.76,127.29,141011,,,A*77
$GPRMC,185907.000,A,3748.8351,N,12217.6131,W,2.15,134.54,141011,,,A*7E
$GPRMC,185908.000,A,3748.8343,N,12217.6116,W,1.79,128.57,141011,,,A*70
$GPRMC,185909.000,A,3748.8334,N,12217.6102,W,1.54,120.23,141011,,,A*70
$GPRMC,185910.000,A,3748.8329,N,12217.6096,W,1.42,151.38,141011,,,A*73
$GPRMC,185911.000,A,3748.8327,N,12217.6089,W,1.99,146.05,141011,,,A*7C
$GPRMC,185912.000,A,3748.8322,N,12217.6076,W,2.40,120.26,141011,,,A*7C
$GPRMC,185913.000,A,3748.8323,N,12217.6064,W,2.35,106.74,141011,,,A*7E
$GPRMC,185914.000,A,3748.8319,N,12217.6053,W,2.48,124.12,141011,,,A*7E
$GPRMC,185915.000,A,3748.8318,N,12217.6054,W,1.56,121.55,141011,,,A*73
$GPRMC,185916.000,A,3748.8313,N,12217.6051,W,1.16,113.45,141011,,,A*7A
$GPRMC,185917.000,A,3748.8310,N,12217.6042,W,2.09,123.24,141011,,,A*73
$GPRMC,185918.000,A,3748.8307,N,12217.6035,W,2.01,130.04,141011,,,A*72
$GPRMC,185919.000,A,3748.8299,N,12217.6026,W,1.46,143.61,141011,,,A*70
$GPRMC,185920.000,A,3748.8293,N,12217.6018,W,1.44,124.20,141011,,,A*7B
$GPRMC,185921.000,A,3748.8289,N,12217.6011,W,1.47,101.08,141011,,,A*76
$GPRMC,185922.000,A,3748.8289,N,12217.6000,W,1.57,88.86,141011,,,A*42
$GPRMC,185923.000,A,3748.8288,N,12217.5997,W,1.63,102.76,141011,,,A*7D
$GPRMC,185924.000,A,3748.8285,N,12217.5993,W,1.85,119.61,141011,,,D*72
$GPRMC,185925.000,A,3748.8281,N,12217.5992,W,2.05,113.74,141011,,,D*73
$GPRMC,185926.000,A,3748.8275,N,12217.5986,W,1.71,118.27,141011,,,D*73
$GPRMC,185927.000,A,3748.8268,N,12217.5983,W,1.58,107.66,141011,,,D*7B
$GPRMC,185928.000,A,3748.8266,N,12217.5982,W,1.56,115.58,141011,,,D*7B
$GPRMC,185929.000,A,3748.8265,N,12217.5978,W,1.82,122.24,141011,,,D*7A
$GPRMC,185930.000,A,3748.8259,N,12217.5972,W,2.30,120.24,141011,,,D*7F
$GPRMC,185931.000,A,3748.8253,N,12217.5966,W,2.08,122.29,141011,,,D*75
$GPRMC,185932.000,A,3748.8249,N,12217.5958,W,2.26,123.36,141011,,,D*73
$GPRMC,185933.000,A,3748.8243,N,12217.5945,W,1.91,127.40,141011,,,D*7E
$GPRMC,185934.000,A,3748.8240,N,12217.5939,W,1.45,129.43,141011,,,D*75
$GPRMC,185935.000,A,3748.8237,N,12217.5934,W,0.88,122.75,141011,,,D*77
$GPRMC,185936.000,A,3748.8234,N,12217.5927,W,1.20,113.14,141011,,,D*73
$GPRMC,185937.000,A,3748.8231,N,12217.5921,W,1.15,115.95,141011,,,D*78
$GPRMC,185938.000,A,3748.8227,N,12217.5910,W,1.66,118.05,141011,,,D*72
$GPRMC,185939.000,A,3748.8223,N,12217.5898,W,2.21,118.19,141011,,,D*7B
$GPRMC,185940.000,A,3748.8218,N,12217.5888,W,2.26,120.02,141011,,,D*7A
$GPRMC,185941.000,A,3748.8212,N,12217.5878,W,2.16,123.42,141011,,,D*7A
$GPRMC,185942.000,A,3748.8208,N,12217.5872,W,2.25,127.84,141011,,,D*76
$GPRMC,185943.000,A,3748.8205,N,12217.5864,W,1.84,117.31,141011,,,D*78
$GPRMC,185944.000,A,3748.8204,N,12217.5859,W,1.69,111.86,141011,,,D*79
$GPRMC,185945.000,A,3748.8203,N,12217.5856,W,1.38,112.27,141011,,,D*7C
$GPRMC,185946.000,A,3748.8202,N,12217.5851,W,2.45,109.47,141011,,,D*7C
$GPRMC,185947.000,A,3748.8199,N,12217.5843,W,1.71,120.28,141011,,,D*79
$GPRMC,185948.000,A,3748.8195,N,12217.5837,W,1.38,122.51,141011,,,D*78
$GPRMC,185949.000,A,3748.8192,N,12217.5832,W,1.33,124.54,141011,,,D*73
$GPRMC,185950.000,A,3748.8188,N,12217.5826,W,1.34,125.10,141011,,,D*73
$GPRMC,185951.000,A,3748.8184,N,12217.5818,W,1.74,117.53,141011,,,D*71
$GPRMC,185952.000,A,3748.8181,N,12217.5812,W,1.53,112.82,141011,,,D*71
$GPRMC,185953.000,A,3748.8177,N,12217.5802,W,1.50,125.35,141011,,,D*73
$GPRMC,185954.000,A,3748.8174,N,12217.5793,W,2.03,123.90,141011,,,D*7C
$GPRMC,185955.000,A,3748.8172,N,12217.5783,W,1.41,132.96,141011,,,D*79
$GPRMC,185956.000,A,3748.8167,N,12217.5777,W,1.38,133.14,141011,,,D*70
$GPRMC,185957.000,A,3748.8163,N,12217.5768,W,1.47,129.20,141011,,,D*7F
$GPRMC,185958.000,A,3748.8161,N,12217.5768,W,1.18,128.58,141011,,,D*76
$GPRMC,185959.000,A,3748.8157,N,12217.5763,W,1.46,130.27,141011,,,D*73
$GPRMC,190000.000,A,3748.8153,N,12217.5755,W,1.86,127.20,141011,,,D*7E
$GPRMC,190001.000,A,3748.8150,N,12217.5751,W,1.32,125.02,141011,,,D*75
$GPRMC,190002.000,A,3748.8146,N,12217.5742,W,1.20,121.99,141011,,,D*76
$GPRMC,190003.000,A,3748.8141,N,12217.5731,W,1.63,121.28,141011,,,D*79
$GPRMC,190004.000,A,3748.8138,N,12217.5723,W,1.25,122.78,141011,,,D*77
$GPRMC,190005.000,A,3748.8135,N,12217.5717,W,1.45,128.55,141011,,,D*7F
$GPRMC,190006.000,A,3748.8131,N,12217.5713,W,1.85,117.50,141011,,,D*79
$GPRMC,190007.000,A,3748.8127,N,12217.5707,W,2.30,133.74,141011,,,D*77
$GPRMC,190008.000,A,3748.8118,N,12217.5700,W,2.74,148.81,141011,,,D*75
$GPRMC,190009.000,A,3748.8109,N,12217.5688,W,2.32,152.58,141011,,,D*78
$GPRMC,190010.000,A,3748.8105,N,12217.5679,W,1.74,142.38,141011,,,D*74
$GPRMC,190011.000,A,3748.8100,N,12217.5671,W,1.72,155.43,141011,,,D*74
$GPRMC,190012.000,A,3748.8094,N,12217.5665,W,1.51,142.67,141011,,,D*7F
$GPRMC,190013.000,A,3748.8087,N,12217.5656,W,1.98,140.89,141011,,,D*7B
$GPRMC,190014.000,A,3748.8082,N,12217.5649,W,1.47,133.93,141011,,,D*7A
$GPRMC,190015.000,A,3748.8080,N,12217.5639,W,1.58,154.96,141011,,,D*74
$GPRMC,190016.000,A,3748.8077,N,12217.5632,W,1.31,145.21,141011,,,D*77
$GPRMC,190017.000,A,3748.8078,N,12217.5625,W,1.61,133.83,141011,,,D*73
$GPRMC,190018.000,A,3748.8078,N,12217.5615,W,1.55,121.92,141011,,,D*7B
$GPRMC,190019.000,A,3748.8075,N,12217.5608,W,1.83,135.43,141011,,,D*79
$GPRMC,190020.000,A,3748.8072,N,12217.5598,W,1.41,126.62,141011,,,D*71
$GPRMC,190021.000,A,3748.8068,N,12217.5589,W,1.43,133.81,141011,,,A*75
$GPRMC,190022.000,A,3748.8070,N,12217.5580,W,1.13,134.70,141011,,,A*7A
$GPRMC,190023.000,A,3748.8068,N,12217.5571,W,0.91,138.61,141011,,,A*7B
$GPRMC,190024.000,A,3748.8064,N,12217.5567,W,1.48,139.92,141011,,,A*7F
$GPRMC,190025.000,A,3748.8055,N,12217.5556,W,1.53,136.69,141011,,,A*7F
$GPRMC,190026.000,A,3748.8046,N,12217.5550,W,0.72,161.76,141011,,,A*76
$GPRMC,190027.000,A,3748.8040,N,12217.5548,W,0.84,229.75,141011,,,A*7D
$GPRMC,190028.000,A,3748.8036,N,12217.5552,W,1.04,255.41,141011,,,A*7D
$GPRMC,190029.000,A,3748.8032,N,12217.5551,W,1.40,219.78,141011,,,A*79
$GPRMC,190030.000,A,3748.8025,N,12217.5549,W,1.50,217.36,141011,,,A*7B
$GPRMC,190031.000,A,3748.8013,N,12217.5551,W,1.49,212.42,141011,,,A*78
$GPRMC,190032.000,A,3748.8004,N,12217.5553,W,1.56,203.08,141011,,,A*7F
$GPRMC,190033.000,A,3748.8000,N,12217.5558,W,1.68,207.00,141011,,,A*70
$GPRMC,190034.000,A,3748.7993,N,12217.5562,W,1.78,203.13,141011,,,A*75
$GPRMC,190035.000,A,3748.7984,N,12217.5567,W,1.54,203.75,141011,,,A*79
$GPRMC,190036.000,A,3748.7978,N,12217.5562,W,1.13,185.86,141011,,,A*7E
$GPRMC,190037.000,A,3748.7970,N,12217.5566,W,1.24,188.02,141011,,,A*76
$GPRMC,190038.000,A,3748.7964,N,12217.5562,W,1.19,170.38,141011,,,A*78
$GPRMC,190039.000,A,3748.7959,N,12217.5561,W,0.67,173.33,141011,,,A*74
$GPRMC,190040.000,A,3748.7955,N,12217.5556,W,0.45,196.93,141011,,,A*73
$GPRMC,190041.000,A,3748.7944,N,12217.5556,W,2.44,202.25,141011,,,A*72
$GPRMC,190042.000,A,3748.7939,N,12217.5566,W,2.40,226.59,141011,,,A*71
$GPRMC,190043.000,A,3748.7932,N,12217.5574,W,1.89,222.56,141011,,,A*75
$GPRMC,190044.000,A,3748.7925,N,12217.5574,W,2.10,199.47,141011,,,A*74
$GPRMC,190045.000,A,3748.7917,N,12217.5580,W,2.18,197.33,141011,,,A*7A
$GPRMC,190046.000,A,3748.7910,N,12217.5592,W,1.92,211.12,141011,,,A*72
$GPRMC,190047.000,A,3748.7902,N,12217.5598,W,1.86,210.43,141011,,,A*7A
$GPRMC,190048.000,A,3748.7897,N,12217.5603,W,2.52,221.97,141011,,,A*78
$GPRMC,190049.000,A,3748.7891,N,12217.5607,W,2.57,223.03,141011,,,A*71
$GPRMC,190050.000,A,3748.7885,N,12217.5610,W,2.32,217.87,141011,,,A*72
$GPRMC,190051.000,A,3748.7878,N,12217.5612,W,1.80,213.70,141011,,,A*75
$GPRMC,190052.000,A,3748.7873,N,12217.5616,W,2.11,238.93,141011,,,A*76
$GPRMC,190053.000,A,3748.7867,N,12217.5622,W,1.95,232.54,141011,,,A*7B
$GPRMC,190054.000,A,3748.7860,N,12217.5629,W,2.36,226.78,141011,,,A*71
$GPRMC,190055.000,A,3748.7853,N,12217.5631,W,2.74,211.67,141011,,,A*75
$GPRMC,190056.000,A,3748.7843,N,12217.5640,W,2.26,207.72,141011,,,A*75
$GPRMC,190057.000,A,3748.7834,N,12217.5648,W,1.97,212.65,141011,,,A*77
$GPRMC,190058.000,A,3748.7825,N,12217.5656,W,2.28,223.78,141011,,,A*7E
$GPRMC,190059.000,A,3748.7813,N,12217.5668,W,2.36,217.88,141011,,,A*70
$GPRMC,190100.000,A,3748.7806,N,12217.5674,W,2.70,229.06,141011,,,A*7D
$GPRMC,190101.000,A,3748.7797,N,12217.5684,W,2.74,222.86,141011,,,A*73
$GPRMC,190102.000,A,3748.7790,N,12217.5691,W,2.64,224.76,141011,,,A*7B
$GPRMC,190103.000,A,3748.7788,N,12217.5702,W,1.95,225.27,141011,,,A*70
$GPRMC,190104.000,A,3748.7782,N,12217.5710,W,2.37,213.95,141011,,,A*79
$GPRMC,190105.000,A,3748.7775,N,12217.5718,W,2.25,214.27,141011,,,A*75
$GPRMC,190106.000,A,3748.7767,N,12217.5729,W,2.17,216.71,141011,,,A*77
$GPRMC,190107.000,A,3748.7758,N,12217.5736,W,2.33,222.40,141011,,,A*77
$GPRMC,190108.000,A,3748.7752,N,12217.5741,W,2.73,222.98,141011,,,A*73
$GPRMC,190109.000,A,3748.7745,N,12217.5747,W,2.22,213.42,141011,,,A*73
$GPRMC,190110.000,A,3748.7733,N,12217.5754,W,2.31,208.24,141011,,,A*70
$GPRMC,190111.000,A,3748.7727,N,12217.5757,W,1.69,206.12,141011,,,A*72
$GPRMC,190112.000,A,3748.7721,N,12217.5762,W,2.58,222.22,141011,,,A*75
$GPRMC,190113.000,A,3748.7713,N,12217.5772,W,2.41,237.34,141011,,,A*7F
$GPRMC,190114.000,A,3748.7708,N,12217.5775,W,1.51,209.87,141011,,,A*72
$GPRMC,190115.000,A,3748.7702,N,12217.5780,W,1.34,214.97,141011,,,A*7D
$GPRMC,190116.000,A,3748.7697,N,12217.5783,W,2.38,208.36,141011,,,A*79
$GPRMC,190117.000,A,3748.7690,N,12217.5783,W,2.88,200.71,141011,,,D*7A
$GPRMC,190118.000,A,3748.7684,N,12217.5783,W,2.66,199.44,141011,,,D*75
$GPRMC,190119.000,A,3748.7677,N,12217.5790,W,2.49,208.04,141011,,,D*78
$GPRMC,190120.000,A,3748.7673,N,12217.5792,W,1.77,206.72,141011,,,D*75
$GPRMC,190121.000,A,3748.7666,N,12217.5800,W,2.13,197.08,141011,,,D*73
$GPRMC,190122.000,A,3748.7658,N,12217.5807,W,2.32,196.52,141011,,,D*77
$GPRMC,190123.000,A,3748.7653,N,12217.5808,W,2.12,199.93,141011,,,D*72
$GPRMC,190124.000,A,3748.7650,N,12217.5808,W,1.89,196.76,141011,,,D*73
$GPRMC,190125.000,A,3748.7648,N,12217.5811,W,1.98,207.95,141011,,,D*75
$GPRMC,190126.000,A,3748.7646,N,12217.5807,W,1.66,181.74,141011,,,D*7C
$GPRMC,190127.000,A,3748.7639,N,12217.5814,W,1.53,198.78,141011,,,D*75
$GPRMC,190128.000,A,3748.7628,N,12217.5825,W,2.24,208.50,141011,,,D*7B
$GPRMC,190129.000,A,3748.7622,N,12217.5830,W,2.00,201.00,141011,,,D*7E
$GPRMC,190130.000,A,3748.7613,N,12217.5839,W,1.91,201.57,141011,,,D*74
$GPRMC,190131.000,A,3748.7608,N,12217.5842,W,1.80,202.04,141011,,,D*76
$GPRMC,190132.000,A,3748.7604,N,12217.5842,W,1.46,186.52,141011,,,D*7F
$GPRMC,190133.000,A,3748.7600,N,12217.5844,W,1.34,195.47,141011,,,D*7F
$GPRMC,190134.000,A,3748.7598,N,12217.5841,W,1.93,201.12,141011,,,D*7C
$GPRMC,190135.000,A,3748.7589,N,12217.5845,W,2.16,195.78,141011,,,D*75
$GPRMC,190136.000,A,3748.7583,N,12217.5849,W,1.89,212.02,141011,,,D*74
$GPRMC,190137.000,A,3748.7572,N,12217.5860,W,1.95,203.60,141011,,,D*79
$GPRMC,190138.000,A,3748.7570,N,12217.5861,W,1.40,197.25,141011,,,D*72
$GPRMC,190139.000,A,3748.7569,N,12217.5856,W,1.25,180.11,141011,,,D*7D
$GPRMC,190140.000,A,3748.7565,N,12217.5863,W,1.44,180.03,141011,,,D*7D
$GPRMC,190141.000,A,3748.7558,N,12217.5870,W,1.44,183.99,141011,,,D*70
$GPRMC,190142.000,A,3748.7551,N,12217.5875,W,1.86,224.52,141011,,,D*78
$GPRMC,190143.000,A,3748.7546,N,12217.5879,W,1.93,225.32,141011,,,D*70
$GPRMC,190144.000,A,3748.7536,N,12217.5886,W,2.24,200.71,141011,,,D*7F
$GPRMC,190145.000,A,3748.7524,N,12217.5890,W,2.22,216.13,141011,,,D*7F
$GPRMC,190146.000,A,3748.7514,N,12217.5895,W,1.93,221.01,141011,,,D*74
$GPRMC,190147.000,A,3748.7506,N,12217.5908,W,2.03,239.28,141011,,,D*7B
$GPRMC,190148.000,A,3748.7497,N,12217.5923,W,2.21,233.55,141011,,,D*74
$GPRMC,190149.000,A,3748.7488,N,12217.5934,W,2.50,221.47,141011,,,D*7B
$GPRMC,190150.000,A,3748.7477,N,12217.5944,W,2.27,218.56,141011,,,D*7E
$GPRMC,190151.000,A,3748.7468,N,12217.5952,W,2.05,221.53,141011,,,D*79
$GPRMC,190152.000,A,3748.7460,N,12217.5950,W,1.92,205.54,141011,,,D*7C
$GPRMC,190153.000,A,3748.7459,N,12217.5950,W,1.01,181.51,141011,,,D*77
$GPRMC,190154.000,A,3748.7460,N,12217.5954,W,0.82,272.34,141011,,,D*78
$GPRMC,190155.000,A,3748.7464,N,12217.5958,W,1.69,330.55,141011,,,D*75
$GPRMC,190156.000,A,3748.7464,N,12217.5962,W,0.51,328.91,141011,,,D*74
$GPRMC,190157.000,A,3748.7460,N,12217.5963,W,1.25,208.70,141011,,,D*7E
$GPRMC,190158.000,A,3748.7454,N,12217.5968,W,1.33,205.95,141011,,,D*7C
$GPRMC,190159.000,A,3748.7448,N,12217.5972,W,1.40,193.25,141011,,,D*78
$GPRMC,190200.000,A,3748.7445,N,12217.5969,W,1.53,196.93,141011,,,D*7A
$GPRMC,190201.000,A,3748.7441,N,12217.5968,W,1.17,225.99,141011,,,D*7F
$GPRMC,190202.000,A,3748.7436,N,12217.5970,W,1.02,221.15,141011,,,D*71
$GPRMC,190203.000,A,3748.7434,N,12217.5970,W,1.36,224.93,141011,,,D*7E
$GPRMC,190204.000,A,3748.7430,N,12217.5978,W,1.36,228.23,141011,,,D*72
$GPRMC,190205.000,A,3748.7426,N,12217.5985,W,1.49,217.02,141011,,,D*71
$GPRMC,190206.000,A,3748.7422,N,12217.5989,W,1.56,188.04,141011,,,D*77
$GPRMC,190207.000,A,3748.7418,N,12217.5997,W,1.22,220.96,141011,,,D*79
$GPRMC,190208.000,A,3748.7409,N,12217.6008,W,2.50,222.17,141011,,,D*77
$GPRMC,190209.000,A,3748.7402,N,12217.6016,W,1.92,216.55,141011,,,D*7E
$GPRMC,190210.000,A,3748.7392,N,12217.6024,W,2.03,222.97,141011,,,D*7B
$GPRMC,190211.000,A,3748.7386,N,12217.6025,W,1.81,215.24,141011,,,D*7B
$GPRMC,190212.000,A,3748.7379,N,12217.6025,W,2.32,225.76,141011,,,D*77
$GPRMC,190213.000,A,3748.7375,N,12217.6026,W,1.82,220.01,141011,,,D*74
$GPRMC,190214.000,A,3748.7370,N,12217.6030,W,1.61,209.23,141011,,,D*77
$GPRMC,190215.000,A,3748.7363,N,12217.6035,W,1.56,215.12,141011,,,D*7A
$GPRMC,190216.000,A,3748.7362,N,12217.6032,W,1.27,217.50,141011,,,D*7D
$GPRMC,190217.000,A,3748.7356,N,12217.6041,W,1.74,211.72,141011,,,D*7F
$GPRMC,190218.000,A,3748.7348,N,12217.6046,W,1.74,190.30,141011,,,D*74
$GPRMC,190219.000,A,3748.7340,N,12217.6055,W,1.42,193.64,141011,,,D*78
$GPRMC,190220.000,A,3748.7334,N,12217.6061,W,1.62,200.93,141011,,,D*75
$GPRMC,190221.000,A,3748.7328,N,12217.6064,W,2.01,194.32,141011,,,D*7F
$GPRMC,190222.000,A,3748.7323,N,12217.6061,W,1.79,185.63,141011,,,D*7A
$GPRMC,190223.000,A,3748.7315,N,12217.6070,W,1.71,208.99,141011,,,D*75
$GPRMC,190224.000,A,3748.7307,N,12217.6074,W,2.17,205.68,141011,,,D*75
$GPRMC,190225.000,A,3748.7298,N,12217.6077,W,1.80,197.82,141011,,,D*71
$GPRMC,190226.000,A,3748.7293,N,12217.6075,W,2.18,200.32,141011,,,D*7F
$GPRMC,190227.000,A,3748.7287,N,12217.6077,W,1.70,198.28,141011,,,D*7D
$GPRMC,190228.000,A,3748.7280,N,12217.6085,W,1.60,188.84,141011,,,D*7E
$GPRMC,190229.000,A,3748.7271,N,12217.6094,W,2.61,204.33,141011,,,D*78
$GPRMC,190230.000,A,3748.7263,N,12217.6102,W,2.66,201.79,141011,,,D*71
$GPRMC,190231.000,A,3748.7255,N,12217.6109,W,2.68,204.93,141011,,,D*71
$GPRMC,190232.000,A,3748.7247,N,12217.6118,W,2.15,201.37,141011,,,D*70
$GPRMC,190233.000,A,3748.7241,N,12217.6123,W,2.10,203.36,141011,,,D*79
$GPRMC,190234.000,A,3748.7233,N,12217.6131,W,2.56,206.25,141011,,,D*7D
$GPRMC,190235.000,A,3748.7225,N,12217.6139,W,2.16,195.18,141011,,,D*70
$GPRMC,190236.000,A,3748.7220,N,12217.6143,W,1.59,188.09,141011,,,D*7F
$GPRMC,190237.000,A,3748.7212,N,12217.6151,W,2.13,203.05,141011,,,D*7D
$GPRMC,190238.000,A,3748.7208,N,12217.6153,W,1.67,203.91,141011,,,D*76
$GPRMC,190239.000,A,3748.7203,N,12217.6158,W,2.19,205.60,141011,,,D*75
$GPRMC,190240.000,A,3748.7194,N,12217.6167,W,2.39,206.56,141011,,,D*7E
$GPRMC,190241.000,A,3748.7186,N,12217.6175,W,2.22,203.46,141011,,,D*71
$GPRMC,190242.000,A,3748.7181,N,12217.6179,W,1.95,201.92,141011,,,D*7D
$GPRMC,190243.000,A,3748.7173,N,12217.6187,W,2.72,210.96,141011,,,D*7E
$GPRMC,190244.000,A,3748.7165,N,12217.6193,W,2.73,210.51,141011,,,D*71
$GPRMC,190245.000,A,3748.7157,N,12217.6202,W,2.48,209.70,141011,,,D*79
$GPRMC,190246.000,A,3748.7151,N,12217.6210,W,2.14,215.51,141011,,,D*78
$GPRMC,190247.000,A,3748.7146,N,12217.6214,W,2.10,197.50,141011,,,D*77
$GPRMC,190248.000,A,3748.7140,N,12217.6217,W,2.33,185.03,141011,,,D*79
$GPRMC,190249.000,A,3748.7133,N,12217.6218,W,2.23,177.84,141011,,,D*70
$GPRMC,190250.000,A,3748.7130,N,12217.6213,W,1.92,164.93,141011,,,D*7D
$GPRMC,190251.000,A,3748.7124,N,12217.6214,W,1.41,182.01,141011,,,D*73
$GPRMC,190252.000,A,3748.7122,N,12217.6214,W,1.51,194.74,141011,,,D*72
$GPRMC,190253.000,A,3748.7117,N,12217.6217,W,1.63,205.16,141011,,,D*78
$GPRMC,190254.000,A,3748.7114,N,12217.6220,W,1.44,199.49,141011,,,D*71
$GPRMC,190255.000,A,3748.7108,N,12217.6223,W,2.05,189.27,141011,,,D*71
$GPRMC,190256.000,A,3748.7101,N,12217.6227,W,1.63,188.91,141011,,,D*70
$GPRMC,190257.000,A,3748.7095,N,12217.6231,W,1.15,186.33,141011,,,D*7D
$GPRMC,190258.000,A,3748.7093,N,12217.6233,W,1.32,181.10,141011,,,D*75
$GPRMC,190259.000,A,3748.7086,N,12217.6238,W,1.80,197.01,141011,,,D*75
$GPRMC,190300.000,A,3748.7079,N,12217.6242,W,2.46,206.12,141011,,,D*75
$GPRMC,190301.000,A,3748.7069,N,12217.6249,W,2.16,202.67,141011,,,D*7D
$GPRMC,190302.000,A,3748.7066,N,12217.6254,W,1.57,213.98,141011,,,D*7B
$GPRMC,190303.000,A,3748.7062,N,12217.6259,W,2.11,204.21,141011,,,D*76
$GPRMC,190304.000,A,3748.7057,N,12217.6261,W,2.12,193.11,141011,,,D*71
$GPRMC,190305.000,A,3748.7049,N,12217.6265,W,1.80,185.32,141011,,,D*75
$GPRMC,190306.000,A,3748.7044,N,12217.6266,W,2.05,190.36,141011,,,D*76
$GPRMC,190307.000,A,3748.7037,N,12217.6271,W,2.24,202.58,141011,,,D*76
$GPRMC,190308.000,A,3748.7029,N,12217.6277,W,1.88,208.21,141011,,,D*71
$GPRMC,190309.000,A,3748.7025,N,12217.6282,W,1.47,192.51,141011,,,D*72
$GPRMC,190310.000,A,3748.7018,N,12217.6283,W,1.53,214.71,141011,,,D*7F
$GPRMC,190311.000,A,3748.7011,N,12217.6290,W,1.44,237.07,141011,,,D*73
$GPRMC,190312.000,A,3748.7004,N,12217.6300,W,0.77,238.83,141011,,,D*7E
$GPRMC,190313.000,A,3748.6996,N,12217.6308,W,0.71,243.73,141011,,,D*71
$GPRMC,190314.000,A,3748.6987,N,12217.6317,W,1.11,186.99,141011,,,D*71
$GPRMC,190315.000,A,3748.6984,N,12217.6321,W,0.74,193.67,141011,,,D*71
$GPRMC,190316.000,A,3748.6979,N,12217.6326,W,1.60,186.47,141011,,,D*75
$GPRMC,190317.000,A,3748.6971,N,12217.6333,W,1.92,197.36,141011,,,D*73
$GPRMC,190318.000,A,3748.6963,N,12217.6340,W,2.41,196.85,141011,,,D*7F
$GPRMC,190319.000,A,3748.6952,N,12217.6351,W,2.79,201.72,141011,,,D*72
$GPRMC,190320.000,A,3748.6943,N,12217.6359,W,2.63,200.75,141011,,,D*7D
$GPRMC,190321.000,A,3748.6936,N,12217.6364,W,2.65,214.42,141011,,,D*77
$GPRMC,190322.000,A,3748.6928,N,12217.6374,W,2.64,216.63,141011,,,D*7A
$GPRMC,190323.000,A,3748.6926,N,12217.6378,W,2.80,218.31,141011,,,D*7A
$GPRMC,190324.000,A,3748.6919,N,12217.6386,W,3.01,214.06,141011,,,D*70
$GPRMC,190325.000,A,3748.6912,N,12217.6395,W,2.44,209.15,141011,,,D*76
$GPRMC,190326.000,A,3748.6906,N,12217.6400,W,2.62,210.84,141011,,,D*7F
$GPRMC,190327.000,A,3748.6895,N,12217.6410,W,2.58,194.03,141011,,,D*7D
$GPRMC,190328.000,A,3748.6889,N,12217.6412,W,2.83,201.77,141011,,,D*77
$GPRMC,190329.000,A,3748.6882,N,12217.6414,W,2.67,203.30,141011,,,D*70
$GPRMC,190330.000,A,3748.6877,N,12217.6415,W,2.25,207.94,141011,,,D*7F
$GPRMC,190331.000,A,3748.6871,N,12217.6420,W,2.27,208.54,141011,,,D*7F
$GPRMC,190332.000,A,3748.6865,N,12217.6426,W,2.38,213.10,141011,,,D*7B
$GPRMC,190333.000,A,3748.6859,N,12217.6432,W,2.07,213.91,141011,,,D*75
$GPRMC,190334.000,A,3748.6854,N,12217.6437,W,2.04,213.59,141011,,,D*7D
$GPRMC,190335.000,A,3748.6849,N,12217.6442,W,1.87,214.27,141011,,,D*74
$GPRMC,190336.000,A,3748.6843,N,12217.6449,W,1.75,206.52,141011,,,D*7A
$GPRMC,190337.000,A,3748.6839,N,12217.6450,W,1.70,200.79,141011,,,D*74
$GPRMC,190338.000,A,3748.6834,N,12217.6452,W,2.23,207.71,141011,,,D*7E
$GPRMC,190339.000,A,3748.6828,N,12217.6455,W,1.96,191.63,141011,,,D*77
$GPRMC,190340.000,A,3748.6822,N,12217.6460,W,1.86,196.23,141011,,,D*77
$GPRMC,190341.000,A,3748.6813,N,12217.6470,W,1.96,208.90,141011,,,D*78
$GPRMC,190342.000,A,3748.6807,N,12217.6477,W,2.60,223.08,141011,,,D*7B
$GPRMC,190343.000,A,3748.6800,N,12217.6486,W,1.99,211.61,141011,,,D*78
$GPRMC,190344.000,A,3748.6788,N,12217.6497,W,1.93,194.86,141011,,,D*7D
$GPRMC,190345.000,A,3748.6777,N,12217.6505,W,2.36,190.94,141011,,,D*7D
$GPRMC,190346.000,A,3748.6770,N,12217.6504,W,2.16,187.04,141011,,,D*75
$GPRMC,190347.000,A,3748.6762,N,12217.6504,W,1.74,205.10,141011,,,D*7C
$GPRMC,190348.000,A,3748.6757,N,12217.6508,W,1.70,239.18,141011,,,D*7A
$GPRMC,190349.000,A,3748.6755,N,12217.6511,W,1.28,233.18,141011,,,D*76
$GPRMC,190350.000,A,3748.6749,N,12217.6524,W,1.10,243.51,141011,,,D*74
$GPRMC,190351.000,A,3748.6746,N,12217.6527,W,1.08,230.57,141011,,,D*72
$GPRMC,190352.000,A,3748.6744,N,12217.6533,W,0.77,273.24,141011,,,D*7C
$GPRMC,190353.000,A,3748.6743,N,12217.6538,W,1.01,226.53,141011,,,D*71
$GPRMC,190354.000,A,3748.6735,N,12217.6543,W,1.00,195.32,141011,,,D*76
$GPRMC,190355.000,A,3748.6726,N,12217.6546,W,1.35,186.44,141011,,,D*75
$GPRMC,190356.000,A,3748.6720,N,12217.6550,W,1.57,210.69,141011,,,D*70
$GPRMC,190357.000,A,3748.6717,N,12217.6550,W,0.83,240.98,141011,,,D*76
$GPRMC,190358.000,A,3748.6711,N,12217.6557,W,0.77,203.50,141011,,,D*70
$GPRMC,190359.000,A,3748.6707,N,12217.6563,W,1.24,169.97,141011,,,D*72
$GPRMC,190400.000,A,3748.6704,N,12217.6563,W,0.95,163.99,141011,,,D*75
$GPRMC,190401.000,A,3748.6695,N,12217.6572,W,0.86,191.03,141011,,,D*71
$GPRMC,190402.000,A,3748.6689,N,12217.6573,W,1.14,231.82,141011,,,D*74
$GPRMC,190403.000,A,3748.6684,N,12217.6578,W,1.40,259.87,141011,,,D*79
$GPRMC,190404.000,A,3748.6679,N,12217.6583,W,1.37,244.92,141011,,,D*70
$GPRMC,190405.000,A,3748.6677,N,12217.6582,W,0.82,239.72,141011,,,D*75
$GPRMC,190406.000,A,3748.6673,N,12217.6586,W,1.23,183.39,141011,,,D*71
$GPRMC,190407.000,A,3748.6665,N,12217.6594,W,1.45,171.71,141011,,,D*75
$GPRMC,190408.000,A,3748.6658,N,12217.6599,W,1.41,174.20,141011,,,D*7C
$GPRMC,190409.000,A,3748.6647,N,12217.6595,W,1.34,188.37,141011,,,D*78
$GPRMC,190410.000,A,3748.6640,N,12217.6596,W,1.36,195.58,141011,,,D*73
$GPRMC,190411.000,A,3748.6635,N,12217.6599,W,1.52,202.32,141011,,,D*7C
$GPRMC,190412.000,A,3748.6631,N,12217.6604,W,1.37,198.91,141011,,,D*76
$GPRMC,190413.000,A,3748.6626,N,12217.6608,W,1.26,193.00,141011,,,D*7E
$GPRMC,190414.000,A,3748.6622,N,12217.6612,W,1.42,195.50,141011,,,D*77
$GPRMC,190415.000,A,3748.6617,N,12217.6618,W,1.09,204.91,141011,,,D*73
$GPRMC,190416.000,A,3748.6613,N,12217.6621,W,1.67,199.38,141011,,,D*72
$GPRMC,190417.000,A,3748.6607,N,12217.6628,W,1.51,190.24,141011,,,D*7E
$GPRMC,190418.000,A,3748.6601,N,12217.6636,W,1.42,204.59,141011,,,D*7E
$GPRMC,190419.000,A,3748.6596,N,12217.6644,W,1.73,217.22,141011,,,D*7B
$GPRMC,190420.000,A,3748.6593,N,12217.6652,W,1.07,206.59,141011,,,D*7C
$GPRMC,190421.000,A,3748.6588,N,12217.6664,W,0.90,191.15,141011,,,D*78
$GPRMC,190422.000,A,3748.6587,N,12217.6671,W,0.73,204.13,141011,,,D*74
$GPRMC,190423.000,A,3748.6588,N,12217.6677,W,0.15,199.33,141011,,,D*79
$GPRMC,190424.000,A,3748.6590,N,12217.6682,W,0.32,190.03,141011,,,D*72
$GPRMC,190425.000,A,3748.6591,N,12217.6682,W,0.41,234.14,141011,,,D*7D
$GPRMC,190426.000,A,3748.6594,N,12217.6679,W,0.32,285.89,141011,,,D*75
$GPRMC,190427.000,A,3748.6591,N,12217.6686,W,0.53,233.52,141011,,,D*7D
$GPRMC,190428.000,A,3748.6596,N,12217.6686,W,0.22,113.78,141011,,,D*7A
$GPRMC,190429.000,A,3748.6598,N,12217.6685,W,0.12,39.10,141011,,,D*42
$GPRMC,190430.000,A,3748.6600,N,12217.6683,W,0.45,115.99,141011,,,D*72
$GPRMC,190431.000,A,3748.6592,N,12217.6686,W,0.20,180.51,141011,,,D*75
$GPRMC,190432.000,A,3748.6587,N,12217.6688,W,0.53,238.09,141011,,,D*75
$GPRMC,190433.000,A,3748.6583,N,12217.6691,W,0.45,247.80,141011,,,D*76
$GPRMC,190434.000,A,3748.6579,N,12217.6694,W,0.50,260.28,141011,,,D*72
$GPRMC,190435.000,A,3748.6579,N,12217.6694,W,0.23,326.27,141011,,,A*7E
$GPRMC,190436.000,A,3748.6579,N,12217.6693,W,0.14,58.12,141011,,,A*42
$GPRMC,190437.000,A,3748.6579,N,12217.6692,W,0.14,105.11,141011,,,A*78
$GPRMC,190438.000,A,3748.6575,N,12217.6690,W,0.52,108.33,141011,,,A*76
$GPRMC,190439.000,A,3748.6576,N,12217.6686,W,0.18,70.18,141011,,,A*4A
$GPRMC,190440.000,A,3748.6578,N,12217.6683,W,0.34,77.06,141011,,,A*49
