$ADVER,3080,2.3
$GPRMC,222633.739,A,3748.7994,N,12217.8608,W,0.47,306.84,081010,,,A*7D
$GPRMC,222634.739,A,3748.7993,N,12217.8608,W,0.11,85.49,081010,,,A*47
$GPRMC,222635.000,A,3748.7993,N,12217.8608,W,0.13,97.47,081010,,,A*44
$GPRMC,222636.000,A,3748.7993,N,12217.8608,W,0.12,68.94,081010,,,A*48
$GPRMC,222637.000,A,3748.7993,N,12217.8606,W,0.61,87.71,081010,,,A*49
$GPRMC,222638.000,A,3748.7992,N,12217.8603,W,1.36,118.29,081010,,,A*7B
$GPRMC,222639.000,A,3748.7989,N,12217.8598,W,1.71,123.17,081010,,,A*77
$GPRMC,222640.000,A,3748.7986,N,12217.8592,W,2.29,120.13,081010,,,A*75
$GPRMC,222641.000,A,3748.7982,N,12217.8584,W,2.34,118.15,081010,,,A*76
$GPRMC,222642.000,A,3748.7979,N,12217.8577,W,2.28,121.82,081010,,,A*74
$GPRMC,222643.000,A,3748.7975,N,12217.8570,W,2.29,121.63,081010,,,A*70
$GPRMC,222644.000,A,3748.7972,N,12217.8564,W,2.26,122.11,081010,,,A*7C
$GPRMC,222645.000,A,3748.7968,N,12217.8557,W,2.19,124.67,081010,,,A*7D
$GPRMC,222646.000,A,3748.7965,N,12217.8550,W,2.34,118.12,081010,,,A*76
$GPRMC,222647.000,A,3748.7962,N,12217.8543,W,2.27,117.56,081010,,,A*7F
$GPRMC,222648.000,A,3748.7959,N,12217.8536,W,2.22,113.22,081010,,,A*78
$GPRMC,222649.000,A,3748.7956,N,12217.8530,W,2.14,117.45,081010,,,A*70
$GPRMC,222650.000,A,3748.7952,N,12217.8522,W,1.97,127.24,081010,,,A*73
$GPRMC,222651.000,A,3748.7949,N,12217.8515,W,2.20,122.36,081010,,,A*75
$GPRMC,222652.000,A,3748.7945,N,12217.8506,W,2.13,123.29,081010,,,A*77
$GPRMC,222653.000,A,3748.7941,N,12217.8499,W,2.00,129.20,081010,,,A*74
$GPRMC,222654.000,A,3748.7937,N,12217.8491,W,2.14,125.06,081010,,,A*77
$GPRMC,222655.000,A,3748.7933,N,12217.8484,W,2.01,117.75,081010,,,A*77
$GPRMC,222656.000,A,3748.7930,N,12217.8476,W,2.08,113.35,081010,,,A*73
$GPRMC,222657.000,A,3748.7928,N,12217.8468,W,1.90,107.90,081010,,,A*7C
$GPRMC,222658.000,A,3748.7928,N,12217.8459,W,2.04,107.70,081010,,,A*71
$GPRMC,222659.000,A,3748.7927,N,12217.8452,W,2.14,118.72,081010,,,A*79
$GPRMC,222700.000,A,3748.7925,N,12217.8445,W,2.01,124.28,081010,,,A*74
$GPRMC,222701.000,A,3748.7925,N,12217.8438,W,1.92,108.36,081010,,,A*77
$GPRMC,222702.000,A,3748.7928,N,12217.8430,W,1.89,87.48,081010,,,A*44
$GPRMC,222703.000,A,3748.7932,N,12217.8423,W,1.66,100.13,081010,,,A*7D
$GPRMC,222704.000,A,3748.7935,N,12217.8416,W,1.33,95.33,081010,,,A*44
$GPRMC,222705.000,A,3748.7940,N,12217.8411,W,1.16,93.62,081010,,,A*45
$GPRMC,222706.000,A,3748.7944,N,12217.8405,W,1.50,103.85,081010,,,A*74
$GPRMC,222707.000,A,3748.7945,N,12217.8398,W,1.85,109.53,081010,,,A*7E
$GPRMC,222708.000,A,3748.7944,N,12217.8391,W,1.61,124.46,081010,,,A*78
$GPRMC,222709.000,A,3748.7942,N,12217.8382,W,2.01,120.24,081010,,,A*78
$GPRMC,222710.000,A,3748.7940,N,12217.8373,W,1.79,118.34,081010,,,A*7A
$GPRMC,222711.000,A,3748.7938,N,12217.8366,W,1.58,116.30,081010,,,A*79
$GPRMC,222712.000,A,3748.7936,N,12217.8359,W,1.68,116.34,081010,,,A*7F
$GPRMC,222713.000,A,3748.7934,N,12217.8352,W,1.86,114.40,081010,,,A*76
$GPRMC,222714.000,A,3748.7932,N,12217.8344,W,1.84,113.00,081010,,,A*71
$GPRMC,222715.000,A,3748.7932,N,12217.8336,W,1.95,108.64,081010,,,A*7D
$GPRMC,222716.000,A,3748.7929,N,12217.8328,W,1.91,113.77,081010,,,A*77
$GPRMC,222717.000,A,3748.7923,N,12217.8321,W,1.89,114.58,081010,,,A*76
$GPRMC,222718.000,A,3748.7920,N,12217.8315,W,2.25,137.23,081010,,,A*75
$GPRMC,222719.000,A,3748.7912,N,12217.8313,W,2.41,144.12,081010,,,A*77
$GPRMC,222720.000,A,3748.7902,N,12217.8315,W,1.87,145.61,081010,,,A*76
$GPRMC,222721.000,A,3748.7894,N,12217.8319,W,1.37,148.52,081010,,,A*73
$GPRMC,222722.000,A,3748.7887,N,12217.8328,W,1.27,152.62,081010,,,A*79
$GPRMC,222723.000,A,3748.7878,N,12217.8331,W,1.60,152.37,081010,,,A*73
$GPRMC,222724.000,A,3748.7871,N,12217.8327,W,1.83,139.43,081010,,,A*79
$GPRMC,222725.000,A,3748.7865,N,12217.8321,W,1.99,132.48,081010,,,A*70
$GPRMC,222726.000,A,3748.7855,N,12217.8317,W,2.12,143.87,081010,,,A*70
$GPRMC,222727.000,A,3748.7849,N,12217.8315,W,1.56,174.86,081010,,,A*78
$GPRMC,222728.000,A,3748.7844,N,12217.8312,W,1.39,128.50,081010,,,A*76
$GPRMC,222729.000,A,3748.7841,N,12217.8307,W,1.46,130.05,081010,,,A*77
$GPRMC,222730.000,A,3748.7838,N,12217.8305,W,1.35,145.17,081010,,,A*76
$GPRMC,222731.000,A,3748.7840,N,12217.8305,W,0.45,78.55,081010,,,A*47
$GPRMC,222732.000,A,3748.7840,N,12217.8302,W,0.13,325.11,081010,,,A*7B
$GPRMC,222733.000,A,3748.7837,N,12217.8302,W,0.51,215.38,081010,,,A*75
$GPRMC,222734.000,A,3748.7833,N,12217.8293,W,1.43,113.16,081010,,,A*74
$GPRMC,222735.000,A,3748.7830,N,12217.8283,W,1.69,111.29,081010,,,A*71
$GPRMC,222736.000,A,3748.7827,N,12217.8276,W,1.41,116.07,081010,,,A*7F
$GPRMC,222737.000,A,3748.7823,N,12217.8269,W,1.11,136.83,081010,,,A*7F
$GPRMC,222738.000,A,3748.7820,N,12217.8256,W,1.88,113.62,081010,,,A*77
$GPRMC,222739.000,A,3748.7818,N,12217.8248,W,1.44,108.72,081010,,,A*79
$GPRMC,222740.000,A,3748.7811,N,12217.8243,W,1.50,109.02,081010,,,A*76
$GPRMC,222741.000,A,3748.7807,N,12217.8238,W,1.36,122.55,081010,,,A*77
$GPRMC,222742.000,A,3748.7803,N,12217.8237,W,1.56,130.60,081010,,,A*7C
$GPRMC,222743.000,A,3748.7801,N,12217.8232,W,1.41,128.73,081010,,,A*77
$GPRMC,222744.000,A,3748.7805,N,12217.8219,W,1.37,105.08,081010,,,A*7F
$GPRMC,222745.000,A,3748.7801,N,12217.8216,W,1.61,121.51,081010,,,A*7C
$GPRMC,222746.000,A,3748.7799,N,12217.8210,W,1.81,124.92,081010,,,A*73
$GPRMC,222747.000,A,3748.7797,N,12217.8209,W,1.28,121.29,081010,,,A*72
$GPRMC,222748.000,A,3748.7795,N,12217.8210,W,1.21,121.72,081010,,,A*70
$GPRMC,222749.000,A,3748.7790,N,12217.8199,W,1.94,113.31,081010,,,A*7E
$GPRMC,222750.000,A,3748.7787,N,12217.8196,W,1.62,93.85,081010,,,A*40
$GPRMC,222751.000,A,3748.7781,N,12217.8191,W,1.32,95.07,081010,,,A*49
$GPRMC,222752.000,A,3748.7777,N,12217.8185,W,1.62,104.02,081010,,,A*7F
$GPRMC,222753.000,A,3748.7772,N,12217.8180,W,1.66,123.61,081010,,,A*7A
$GPRMC,222754.000,A,3748.7766,N,12217.8171,W,1.88,136.38,081010,,,A*7E
$GPRMC,222755.000,A,3748.7761,N,12217.8167,W,1.51,132.62,081010,,,A*70
$GPRMC,222756.000,A,3748.7756,N,12217.8169,W,0.91,149.72,081010,,,A*79
$GPRMC,222757.000,A,3748.7749,N,12217.8167,W,1.21,179.01,081010,,,A*75
$GPRMC,222758.000,A,3748.7746,N,12217.8159,W,1.15,129.69,081010,,,A*74
$GPRMC,222759.000,A,3748.7738,N,12217.8156,W,1.46,131.58,081010,,,A*7E
$GPRMC,222800.000,A,3748.7728,N,12217.8155,W,2.09,150.06,081010,,,A*7B
$GPRMC,222801.000,A,3748.7719,N,12217.8148,W,1.94,138.03,081010,,,A*78
$GPRMC,222802.000,A,3748.7717,N,12217.8135,W,1.76,111.85,081010,,,A*76
$GPRMC,222803.000,A,3748.7716,N,12217.8127,W,1.70,114.00,081010,,,A*7B
$GPRMC,222804.000,A,3748.7710,N,12217.8125,W,1.13,136.00,081010,,,A*7D
$GPRMC,222805.000,A,3748.7706,N,12217.8121,W,1.43,145.51,081010,,,A*7A
$GPRMC,222806.000,A,3748.7701,N,12217.8119,W,1.69,142.95,081010,,,A*72
$GPRMC,222807.000,A,3748.7698,N,12217.8118,W,1.46,118.00,081010,,,A*7D
$GPRMC,222808.000,A,3748.7697,N,12217.8105,W,1.62,109.45,081010,,,A*76
$GPRMC,222809.000,A,3748.7697,N,12217.8099,W,1.26,113.51,081010,,,A*7D
$GPRMC,222810.000,A,3748.7700,N,12217.8089,W,1.46,120.59,081010,,,A*75
$GPRMC,222811.000,A,3748.7700,N,12217.8078,W,1.86,110.38,081010,,,A*72
$GPRMC,222812.000,A,3748.7700,N,12217.8067,W,1.65,129.89,081010,,,A*72
$GPRMC,222813.000,A,3748.7699,N,12217.8061,W,2.06,128.32,081010,,,A*73
$GPRMC,222814.000,A,3748.7696,N,12217.8048,W,2.00,104.80,081010,,,A*71
$GPRMC,222815.000,A,3748.7697,N,12217.8032,W,1.91,110.33,081010,,,A*7A
$GPRMC,222816.000,A,3748.7693,N,12217.8023,W,1.93,117.52,081010,,,A*7F
$GPRMC,222817.000,A,3748.7688,N,12217.8020,W,1.93,139.32,081010,,,A*7D
$GPRMC,222818.000,A,3748.7687,N,12217.8022,W,0.73,114.80,081010,,,A*76
$GPRMC,222819.000,A,3748.7689,N,12217.8021,W,1.30,81.97,081010,,,A*47
$GPRMC,222820.000,A,3748.7687,N,12217.8015,W,0.78,85.23,081010,,,A*42
$GPRMC,222821.000,A,3748.7686,N,12217.8011,W,1.50,125.45,081010,,,A*76
$GPRMC,222822.000,A,3748.7687,N,12217.8008,W,1.80,111.87,081010,,,A*78
$GPRMC,222823.000,A,3748.7687,N,12217.8004,W,1.82,106.75,081010,,,A*7C
$GPRMC,222824.000,A,3748.7686,N,12217.8003,W,1.81,100.66,081010,,,A*7A
$GPRMC,222825.000,A,3748.7684,N,12217.7998,W,1.78,121.83,081010,,,A*73
$GPRMC,222826.000,A,3748.7682,N,12217.7993,W,1.79,121.42,081010,,,A*71
$GPRMC,222827.000,A,3748.7678,N,12217.7987,W,1.73,118.69,081010,,,A*79
$GPRMC,222828.000,A,3748.7676,N,12217.7982,W,1.91,114.29,081010,,,A*79
$GPRMC,222829.000,A,3748.7673,N,12217.7979,W,1.79,125.51,081010,,,A*72
$GPRMC,222830.000,A,3748.7670,N,12217.7977,W,1.76,131.07,081010,,,A*7E
$GPRMC,222831.000,A,3748.7667,N,12217.7973,W,1.45,129.65,081010,,,A*70
$GPRMC,222832.000,A,3748.7666,N,12217.7971,W,0.54,102.79,081010,,,A*75
$GPRMC,222833.000,A,3748.7665,N,12217.7971,W,0.66,180.98,081010,,,A*73
$GPRMC,222834.000,A,3748.7662,N,12217.7971,W,1.35,145.32,081010,,,A*7D
$GPRMC,222835.000,A,3748.7660,N,12217.7972,W,1.62,169.26,081010,,,A*74
$GPRMC,222836.000,A,3748.7656,N,12217.7972,W,1.02,201.70,081010,,,A*7A
$GPRMC,222837.000,A,3748.7655,N,12217.7964,W,1.58,127.86,081010,,,A*7E
$GPRMC,222838.000,A,3748.7650,N,12217.7953,W,2.36,106.58,081010,,,A*7B
$GPRMC,222839.000,A,3748.7650,N,12217.7943,W,2.67,106.44,081010,,,A*72
$GPRMC,222840.000,A,3748.7643,N,12217.7939,W,1.45,121.84,081010,,,A*79
$GPRMC,222841.000,A,3748.7637,N,12217.7937,W,1.70,126.71,081010,,,A*7E
$GPRMC,222842.000,A,3748.7634,N,12217.7928,W,2.38,127.24,081010,,,A*7E
$GPRMC,222843.000,A,3748.7637,N,12217.7925,W,1.48,122.67,081010,,,A*77
$GPRMC,222844.000,A,3748.7634,N,12217.7924,W,1.48,122.26,081010,,,A*77
$GPRMC,222845.000,A,3748.7631,N,12217.7922,W,1.60,124.16,081010,,,A*7A
$GPRMC,222846.000,A,3748.7630,N,12217.7915,W,1.04,79.57,081010,,,A*42
$GPRMC,222847.000,A,3748.7632,N,12217.7910,W,1.33,79.17,081010,,,A*44
$GPRMC,222848.000,A,3748.7628,N,12217.7904,W,1.75,126.53,081010,,,A*7C
$GPRMC,222849.000,A,3748.7625,N,12217.7899,W,1.43,129.74,081010,,,A*7A
$GPRMC,222850.000,A,3748.7628,N,12217.7889,W,1.65,115.01,081010,,,A*77
$GPRMC,222851.000,A,3748.7629,N,12217.7879,W,2.31,129.80,081010,,,A*7C
$GPRMC,222852.000,A,3748.7629,N,12217.7870,W,2.07,126.99,081010,,,A*74
$GPRMC,222853.000,A,3748.7628,N,12217.7862,W,1.73,129.71,081010,,,A*7E
$GPRMC,222854.000,A,3748.7626,N,12217.7854,W,2.19,131.41,081010,,,A*77
$GPRMC,222855.000,A,3748.7619,N,12217.7850,W,1.98,124.19,081010,,,A*7D
$GPRMC,222856.000,A,3748.7614,N,12217.7847,W,2.16,106.62,081010,,,A*7C
$GPRMC,222857.000,A,3748.7609,N,12217.7839,W,2.40,96.62,081010,,,A*43
$GPRMC,222858.000,A,3748.7606,N,12217.7829,W,2.21,94.38,081010,,,A*48
$GPRMC,222859.000,A,3748.7603,N,12217.7825,W,1.23,87.75,081010,,,A*4A
$GPRMC,222900.000,A,3748.7599,N,12217.7827,W,0.91,55.13,081010,,,A*42
$GPRMC,222901.000,A,3748.7600,N,12217.7825,W,1.60,12.57,081010,,,A*4E
$GPRMC,222902.000,A,3748.7600,N,12217.7828,W,2.00,1.20,081010,,,A*77
$GPRMC,222903.000,A,3748.7605,N,12217.7828,W,2.00,1.20,081010,,,E*77
$GPRMC,222904.000,A,3748.7599,N,12217.7835,W,0.84,282.06,081010,,,A*7D
$GPRMC,222905.000,A,3748.7590,N,12217.7828,W,1.09,94.25,081010,,,A*49
$GPRMC,222906.000,A,3748.7572,N,12217.7806,W,3.01,94.25,081010,,,A*40
$GPRMC,222907.000,A,3748.7575,N,12217.7793,W,2.48,92.02,081010,,,A*4A
$GPRMC,222908.000,A,3748.7567,N,12217.7809,W,1.84,159.54,081010,,,A*7C
$GPRMC,222909.000,A,3748.7562,N,12217.7818,W,1.49,138.30,081010,,,A*7C
$GPRMC,222910.000,A,3748.7565,N,12217.7807,W,1.81,82.07,081010,,,A*4D
$GPRMC,222911.000,A,3748.7566,N,12217.7796,W,2.01,101.62,081010,,,A*7A
$GPRMC,222912.000,A,3748.7559,N,12217.7795,W,2.33,144.34,081010,,,A*75
$GPRMC,222913.000,A,3748.7547,N,12217.7794,W,3.12,166.22,081010,,,A*7F
$GPRMC,222914.000,A,3748.7533,N,12217.7801,W,2.53,154.90,081010,,,A*74
$GPRMC,222915.000,A,3748.7527,N,12217.7804,W,1.85,129.26,081010,,,A*7A
$GPRMC,222916.000,A,3748.7524,N,12217.7797,W,1.75,114.45,081010,,,A*7B
$GPRMC,222917.000,A,3748.7525,N,12217.7791,W,2.06,117.35,081010,,,A*7E
$GPRMC,222918.000,A,3748.7520,N,12217.7781,W,2.23,103.62,081010,,,A*75
$GPRMC,222919.000,A,3748.7516,N,12217.7774,W,2.64,94.76,081010,,,A*42
$GPRMC,222920.000,A,3748.7515,N,12217.7766,W,3.33,81.57,081010,,,A*4C
$GPRMC,222921.000,A,3748.7518,N,12217.7757,W,2.48,71.85,081010,,,A*4F
$GPRMC,222922.000,A,3748.7522,N,12217.7751,W,1.49,44.79,081010,,,A*44
$GPRMC,222923.000,A,3748.7525,N,12217.7753,W,0.31,57.50,081010,,,A*47
$GPRMC,222924.000,A,3748.7517,N,12217.7755,W,1.82,190.77,081010,,,A*71
$GPRMC,222925.000,A,3748.7498,N,12217.7756,W,4.17,186.33,081010,,,A*7B
$GPRMC,222926.000,A,3748.7465,N,12217.7778,W,6.15,206.31,081010,,,A*7F
$GPRMC,222927.000,A,3748.7448,N,12217.7788,W,5.99,212.34,081010,,,A*79
$GPRMC,222928.000,A,3748.7429,N,12217.7807,W,5.37,211.63,081010,,,A*7C
$GPRMC,222929.000,A,3748.7411,N,12217.7822,W,4.95,203.85,081010,,,A*73
$GPRMC,222930.000,A,3748.7401,N,12217.7824,W,3.92,194.93,081010,,,A*76
$GPRMC,222931.000,A,3748.7382,N,12217.7843,W,2.45,196.46,081010,,,A*7B
$GPRMC,222932.000,A,3748.7364,N,12217.7858,W,3.86,217.37,081010,,,A*78
$GPRMC,222933.000,A,3748.7360,N,12217.7862,W,3.70,225.14,081010,,,A*7D
$GPRMC,222934.000,A,3748.7336,N,12217.7892,W,5.76,218.80,081010,,,A*75
$GPRMC,222935.000,A,3748.7329,N,12217.7893,W,5.01,205.92,081010,,,A*74
$GPRMC,222936.000,A,3748.7335,N,12217.7876,W,2.26,178.37,081010,,,A*75
$GPRMC,222937.000,A,3748.7355,N,12217.7840,W,3.16,68.34,081010,,,A*46
$GPRMC,222938.000,A,3748.7366,N,12217.7825,W,3.74,53.60,081010,,,A*47
$GPRMC,222939.000,A,3748.7376,N,12217.7801,W,5.41,65.82,081010,,,A*48
$GPRMC,222940.000,A,3748.7380,N,12217.7780,W,5.57,66.76,081010,,,A*46
$GPRMC,222941.000,A,3748.7381,N,12217.7766,W,4.18,64.90,081010,,,A*4E
$GPRMC,222942.000,A,3748.7380,N,12217.7755,W,2.64,58.50,081010,,,A*42
$GPRMC,222943.000,A,3748.7375,N,12217.7747,W,1.70,96.14,081010,,,A*4E
$GPRMC,222944.000,A,3748.7370,N,12217.7746,W,1.25,146.61,081010,,,A*73
$GPRMC,222945.000,A,3748.7334,N,12217.7781,W,2.18,152.45,081010,,,A*77
$GPRMC,222946.000,A,3748.7327,N,12217.7772,W,2.61,133.87,081010,,,A*7D
$GPRMC,222947.000,A,3748.7332,N,12217.7750,W,2.18,117.71,081010,,,A*79
$GPRMC,222948.000,A,3748.7362,N,12217.7699,W,2.22,98.51,081010,,,A*4A
$GPRMC,222949.000,A,3748.7385,N,12217.7663,W,2.34,110.56,081010,,,A*76
$GPRMC,222950.000,A,3748.7405,N,12217.7635,W,2.43,115.55,081010,,,A*74
$GPRMC,222951.000,A,3748.7407,N,12217.7625,W,2.08,118.29,081010,,,A*7F
$GPRMC,222952.000,A,3748.7412,N,12217.7607,W,2.37,109.52,081010,,,A*78
$GPRMC,222953.000,A,3748.7416,N,12217.7595,W,2.41,125.38,081010,,,A*76
$GPRMC,222954.000,A,3748.7415,N,12217.7575,W,1.97,111.39,081010,,,A*72
$GPRMC,222955.000,A,3748.7417,N,12217.7559,W,1.58,106.89,081010,,,A*71
$GPRMC,222956.000,A,3748.7418,N,12217.7549,W,1.85,112.24,081010,,,A*7E
$GPRMC,222957.000,A,3748.7417,N,12217.7540,W,1.99,113.24,081010,,,A*75
$GPRMC,222958.000,A,3748.7417,N,12217.7529,W,1.63,126.46,081010,,,A*72
$GPRMC,222959.000,A,3748.7417,N,12217.7522,W,1.39,119.33,081010,,,A*79
$GPRMC,223000.000,A,3748.7418,N,12217.7508,W,1.80,95.66,081010,,,A*4D
$GPRMC,223001.000,A,3748.7422,N,12217.7500,W,1.52,122.41,081010,,,A*7A
$GPRMC,223002.000,A,3748.7420,N,12217.7493,W,2.10,108.22,081010,,,A*78
$GPRMC,223003.000,A,3748.7417,N,12217.7486,W,1.43,131.90,081010,,,A*7F
$GPRMC,223004.000,A,3748.7409,N,12217.7486,W,1.98,153.45,081010,,,A*7D
$GPRMC,223005.000,A,3748.7408,N,12217.7477,W,1.30,112.93,081010,,,A*7F
$GPRMC,223006.000,A,3748.7405,N,12217.7468,W,1.69,94.35,081010,,,A*40
$GPRMC,223007.000,A,3748.7405,N,12217.7461,W,1.23,125.74,081010,,,A*78
$GPRMC,223008.000,A,3748.7401,N,12217.7454,W,1.52,117.67,081010,,,A*70
$GPRMC,223009.000,A,3748.7394,N,12217.7449,W,1.38,130.74,081010,,,A*7D
$GPRMC,223010.000,A,3748.7390,N,12217.7450,W,1.83,191.58,081010,,,A*7C
$GPRMC,223011.000,A,3748.7384,N,12217.7447,W,2.78,176.44,081010,,,A*7D
$GPRMC,223012.000,A,3748.7384,N,12217.7439,W,1.94,137.37,081010,,,A*77
$GPRMC,223013.000,A,3748.7386,N,12217.7428,W,3.21,117.97,081010,,,A*70
$GPRMC,223014.000,A,3748.7380,N,12217.7423,W,2.04,118.56,081010,,,A*7E
$GPRMC,223015.000,A,3748.7373,N,12217.7421,W,1.36,136.25,081010,,,A*7B
$GPRMC,223016.000,A,3748.7371,N,12217.7416,W,1.62,151.41,081010,,,A*7C
$GPRMC,223017.000,A,3748.7371,N,12217.7408,W,1.05,127.67,081010,,,A*76
$GPRMC,223018.000,A,3748.7374,N,12217.7406,W,1.07,96.24,081010,,,A*4C
$GPRMC,223019.000,A,3748.7379,N,12217.7399,W,0.66,123.05,081010,,,A*7B
$GPRMC,223020.000,A,3748.7379,N,12217.7395,W,0.97,142.06,081010,,,A*77
$GPRMC,223021.000,A,3748.7376,N,12217.7393,W,0.70,160.84,081010,,,A*7C
$GPRMC,223022.000,A,3748.7370,N,12217.7391,W,0.83,200.48,081010,,,A*72
$GPRMC,223023.000,A,3748.7367,N,12217.7394,W,0.77,180.07,081010,,,A*7B
$GPRMC,223024.000,A,3748.7364,N,12217.7389,W,0.96,148.34,081010,,,A*78
$GPRMC,223025.000,A,3748.7364,N,12217.7383,W,0.65,77.01,081010,,,A*44
$GPRMC,223026.000,A,3748.7362,N,12217.7376,W,1.12,63.84,081010,,,A*42
$GPRMC,223027.000,A,3748.7360,N,12217.7376,W,1.56,27.16,081010,,,A*4A
$GPRMC,223028.000,A,3748.7363,N,12217.7373,W,1.42,16.89,081010,,,A*42
$GPRMC,223029.000,A,3748.7369,N,12217.7366,W,1.48,4.46,081010,,,A*77
$GPRMC,223030.000,A,3748.7377,N,12217.7360,W,1.99,8.37,081010,,,A*70
$GPRMC,223031.000,A,3748.7381,N,12217.7359,W,2.46,2.77,081010,,,A*7D
$GPRMC,223032.000,A,3748.7385,N,12217.7363,W,2.14,0.03,081010,,,A*75
$GPRMC,223033.000,A,3748.7387,N,12217.7364,W,1.43,24.36,081010,,,A*40
$GPRMC,223034.000,A,3748.7389,N,12217.7360,W,0.56,27.93,081010,,,A*44
$GPRMC,223035.000,A,3748.7386,N,12217.7361,W,0.14,93.82,081010,,,A*42
$GPRMC,223036.000,A,3748.7384,N,12217.7362,W,0.09,97.10,081010,,,A*43
$GPRMC,223037.000,A,3748.7382,N,12217.7363,W,0.13,44.74,081010,,,A*42
$GPRMC,223038.000,A,3748.7382,N,12217.7364,W,0.27,36.10,081010,,,A*4A
$GPRMC,223039.000,A,3748.7382,N,12217.7366,W,0.07,192.20,081010,,,A*77
$GPRMC,223040.000,A,3748.7392,N,12217.7360,W,0.50,58.99,081010,,,A*49
$GPRMC,223041.000,A,3748.7396,N,12217.7361,W,0.48,78.54,081010,,,A*47
$GPRMC,223042.000,A,3748.7405,N,12217.7359,W,0.22,21.64,081010,,,A*41
$GPRMC,223043.000,A,3748.7411,N,12217.7359,W,0.37,340.84,081010,,,A*7B
$GPRMC,223044.000,A,3748.7418,N,12217.7356,W,0.85,38.85,081010,,,A*4E
$GPRMC,223045.000,A,3748.7418,N,12217.7353,W,0.94,42.23,081010,,,A*4B
$GPRMC,223046.000,A,3748.7421,N,12217.7350,W,0.97,20.82,081010,,,A*4D
$GPRMC,223047.000,A,3748.7422,N,12217.7347,W,1.11,20.81,081010,,,A*45
$GPRMC,223048.000,A,3748.7416,N,12217.7344,W,0.17,74.70,081010,,,A*46
$GPRMC,223049.000,A,3748.7414,N,12217.7342,W,0.25,19.19,081010,,,A*46
$GPRMC,223050.000,A,3748.7399,N,12217.7343,W,1.13,196.89,081010,,,A*76
$GPRMC,223051.000,A,3748.7380,N,12217.7349,W,2.52,186.41,081010,,,A*76
$GPRMC,223052.000,A,3748.7372,N,12217.7350,W,1.63,170.12,081010,,,A*7E
$GPRMC,223053.000,A,3748.7376,N,12217.7348,W,0.52,107.55,081010,,,A*72
$GPRMC,223054.000,A,3748.7370,N,12217.7353,W,0.90,190.20,081010,,,A*7B
$GPRMC,223055.000,A,3748.7367,N,12217.7353,W,1.34,183.73,081010,,,A*77
$GPRMC,223056.000,A,3748.7357,N,12217.7356,W,2.33,164.35,081010,,,A*7D
$GPRMC,223057.000,A,3748.7359,N,12217.7356,W,1.55,145.08,081010,,,A*7C
$GPRMC,223058.000,A,3748.7366,N,12217.7361,W,0.67,188.07,081010,,,A*75
$GPRMC,223059.000,A,3748.7365,N,12217.7364,W,1.25,164.11,081010,,,A*70
$GPRMC,223100.000,A,3748.7365,N,12217.7367,W,0.79,203.44,081010,,,A*74
$GPRMC,223101.000,A,3748.7366,N,12217.7365,W,0.16,345.74,081010,,,A*7D
$GPRMC,223102.000,A,3748.7369,N,12217.7370,W,1.11,19.45,081010,,,A*4B
$GPRMC,223103.000,A,3748.7378,N,12217.7376,W,1.57,12.35,081010,,,A*42
$GPRMC,223104.000,A,3748.7385,N,12217.7380,W,0.61,1.15,081010,,,A*7A
$GPRMC,223105.000,A,3748.7390,N,12217.7396,W,0.76,316.96,081010,,,A*70
$GPRMC,223106.000,A,3748.7397,N,12217.7405,W,1.49,347.78,081010,,,A*70
$GPRMC,223107.000,A,3748.7402,N,12217.7405,W,1.55,23.67,081010,,,A*48
$GPRMC,223108.000,A,3748.7398,N,12217.7408,W,0.98,25.12,081010,,,A*4A
$GPRMC,223109.000,A,3748.7390,N,12217.7407,W,0.91,116.72,081010,,,A*72
$GPRMC,223110.000,A,3748.7394,N,12217.7401,W,1.11,109.71,081010,,,A*7C
$GPRMC,223111.000,A,3748.7394,N,12217.7389,W,1.17,83.95,081010,,,A*45
$GPRMC,223112.000,A,3748.7393,N,12217.7394,W,0.52,39.87,081010,,,A*4F
$GPRMC,223113.000,A,3748.7389,N,12217.7399,W,0.54,218.57,081010,,,A*72
$GPRMC,223114.000,A,3748.7393,N,12217.7402,W,0.30,323.77,081010,,,A*72
$GPRMC,223115.000,A,3748.7401,N,12217.7399,W,0.15,199.14,081010,,,A*7B
$GPRMC,223116.000,A,3748.7407,N,12217.7393,W,0.21,126.09,081010,,,A*7B
$GPRMC,223117.000,A,3748.7406,N,12217.7394,W,0.50,129.80,081010,,,A*74
$GPRMC,223118.000,A,3748.7405,N,12217.7393,W,0.52,163.37,081010,,,A*7F
$GPRMC,223119.000,A,3748.7406,N,12217.7396,W,0.46,234.27,081010,,,A*7D
$GPRMC,223120.000,A,3748.7404,N,12217.7396,W,0.58,183.13,081010,,,A*72
$GPRMC,223121.000,A,3748.7404,N,12217.7395,W,0.44,194.21,081010,,,A*7A
$GPRMC,223122.000,A,3748.7409,N,12217.7393,W,0.16,82.72,081010,,,A*45
$GPRMC,223123.000,A,3748.7413,N,12217.7391,W,0.34,54.34,081010,,,A*44
$GPRMC,223124.000,A,3748.7410,N,12217.7391,W,0.40,99.02,081010,,,A*47
$GPRMC,223125.000,A,3748.7407,N,12217.7389,W,1.26,115.36,081010,,,A*7A
$GPRMC,223126.000,A,3748.7408,N,12217.7383,W,1.11,104.96,081010,,,A*72
$GPRMC,223127.000,A,3748.7400,N,12217.7374,W,0.94,102.14,081010,,,A*73
$GPRMC,223128.000,A,3748.7389,N,12217.7373,W,1.37,123.80,081010,,,A*7B
$GPRMC,223129.000,A,3748.7377,N,12217.7368,W,1.83,128.10,081010,,,A*7C
$GPRMC,223130.000,A,3748.7367,N,12217.7366,W,1.84,141.30,081010,,,A*71
$GPRMC,223131.000,A,3748.7359,N,12217.7364,W,1.50,141.37,081010,,,A*71
$GPRMC,223132.000,A,3748.7356,N,12217.7355,W,1.39,96.94,081010,,,A*42
$GPRMC,223133.000,A,3748.7348,N,12217.7360,W,1.54,156.71,081010,,,A*77
$GPRMC,223134.000,A,3748.7341,N,12217.7363,W,1.62,172.71,081010,,,A*79
$GPRMC,223135.000,A,3748.7341,N,12217.7366,W,1.16,145.38,081010,,,A*77
$GPRMC,223136.000,A,3748.7337,N,12217.7362,W,1.29,148.15,081010,,,A*7F
$GPRMC,223137.000,A,3748.7336,N,12217.7356,W,0.93,142.89,081010,,,A*77
$GPRMC,223138.000,A,3748.7333,N,12217.7341,W,1.20,129.74,081010,,,A*7D
$GPRMC,223139.000,A,3748.7328,N,12217.7336,W,1.48,144.11,081010,,,A*70
$GPRMC,223140.000,A,3748.7319,N,12217.7328,W,1.84,159.83,081010,,,A*74
$GPRMC,223141.000,A,3748.7316,N,12217.7316,W,2.11,119.26,081010,,,A*73
$GPRMC,223142.000,A,3748.7313,N,12217.7304,W,1.88,102.06,081010,,,A*7D
$GPRMC,223143.000,A,3748.7312,N,12217.7295,W,2.07,101.33,081010,,,A*75
$GPRMC,223144.000,A,3748.7310,N,12217.7288,W,1.74,115.63,081010,,,A*7B
$GPRMC,223145.000,A,3748.7301,N,12217.7281,W,1.77,112.48,081010,,,A*7E
$GPRMC,223146.000,A,3748.7299,N,12217.7277,W,1.87,102.67,081010,,,A*77
$GPRMC,223147.000,A,3748.7297,N,12217.7267,W,2.46,124.90,081010,,,A*7B
$GPRMC,223148.000,A,3748.7292,N,12217.7265,W,2.04,129.04,081010,,,A*75
$GPRMC,223149.000,A,3748.7286,N,12217.7264,W,1.78,136.90,081010,,,A*7B
$GPRMC,223150.000,A,3748.7279,N,12217.7256,W,1.72,133.71,081010,,,A*72
$GPRMC,223151.000,A,3748.7280,N,12217.7245,W,1.52,104.22,081010,,,A*77
$GPRMC,223152.000,A,3748.7280,N,12217.7234,W,1.88,118.33,081010,,,A*78
$GPRMC,223153.000,A,3748.7278,N,12217.7230,W,1.48,115.50,081010,,,A*7E
$GPRMC,223154.000,A,3748.7276,N,12217.7227,W,1.52,109.45,081010,,,A*73
$GPRMC,223155.000,A,3748.7279,N,12217.7218,W,1.52,82.97,081010,,,A*4C
$GPRMC,223156.000,A,3748.7279,N,12217.7213,W,1.03,100.94,081010,,,A*78
$GPRMC,223157.000,A,3748.7277,N,12217.7208,W,1.59,127.29,081010,,,A*71
$GPRMC,223158.000,A,3748.7276,N,12217.7201,W,1.97,122.31,081010,,,A*78
$GPRMC,223159.000,A,3748.7274,N,12217.7190,W,2.07,106.55,081010,,,A*7E
$GPWPL,3748.7274,N,12217.7179,W,00001*69
$ADPMB,5,0
$GPRMC,223200.000,A,3748.7274,N,12217.7179,W,1.76,96.01,081010,,,A*4A
$GPRMC,223201.000,A,3748.7273,N,12217.7172,W,1.45,110.93,081010,,,A*73
$GPRMC,223202.000,A,3748.7273,N,12217.7166,W,1.71,106.36,081010,,,A*7A
$GPRMC,223203.000,A,3748.7270,N,12217.7162,W,1.19,105.85,081010,,,A*79
$GPRMC,223204.000,A,3748.7267,N,12217.7156,W,1.68,111.91,081010,,,A*79
$GPRMC,223205.000,A,3748.7262,N,12217.7155,W,1.88,148.90,081010,,,A*7D
$GPRMC,223206.000,A,3748.7267,N,12217.7148,W,1.15,129.81,081010,,,A*74
$GPRMC,223207.000,A,3748.7266,N,12217.7145,W,1.14,106.56,081010,,,A*7F
$GPRMC,223208.000,A,3748.7265,N,12217.7142,W,1.27,100.09,081010,,,A*78
$GPRMC,223209.000,A,3748.7262,N,12217.7139,W,1.76,127.08,081010,,,A*72
$GPRMC,223210.000,A,3748.7260,N,12217.7134,W,1.47,119.34,081010,,,A*75
$GPRMC,223211.000,A,3748.7259,N,12217.7126,W,2.14,120.30,081010,,,A*76
$GPRMC,223212.000,A,3748.7255,N,12217.7117,W,2.13,109.67,081010,,,A*75
$GPRMC,223213.000,A,3748.7251,N,12217.7109,W,1.98,112.11,081010,,,A*74
$GPRMC,223214.000,A,3748.7244,N,12217.7104,W,2.54,142.91,081010,,,A*74
$GPRMC,223215.000,A,3748.7242,N,12217.7097,W,1.27,111.27,081010,,,A*74
$GPRMC,223216.000,A,3748.7240,N,12217.7092,W,1.55,139.23,081010,,,A*7B
$GPRMC,223217.000,A,3748.7237,N,12217.7087,W,1.27,144.92,081010,,,A*7B
$GPRMC,223218.000,A,3748.7239,N,12217.7077,W,1.60,132.32,081010,,,A*7D
$GPRMC,223219.000,A,3748.7232,N,12217.7071,W,2.14,133.26,081010,,,A*75
$GPRMC,223220.000,A,3748.7229,N,12217.7067,W,2.08,113.95,081010,,,A*75
$GPRMC,223221.000,A,3748.7224,N,12217.7060,W,2.02,123.04,081010,,,A*7F
$GPRMC,223222.000,A,3748.7221,N,12217.7045,W,2.21,105.70,081010,,,A*78
$GPRMC,223223.000,A,3748.7220,N,12217.7037,W,1.73,133.59,081010,,,A*77
$GPRMC,223224.000,A,3748.7219,N,12217.7028,W,2.20,126.55,081010,,,A*79
$GPRMC,223225.000,A,3748.7215,N,12217.7022,W,1.32,154.70,081010,,,A*7C
$GPRMC,223226.000,A,3748.7212,N,12217.7021,W,1.60,181.37,081010,,,A*77
$GPRMC,223227.000,A,3748.7206,N,12217.7021,W,2.23,203.03,081010,,,A*79
$GPRMC,223228.000,A,3748.7204,N,12217.7025,W,1.66,190.19,081010,,,A*70
$GPRMC,223229.000,A,3748.7201,N,12217.7022,W,1.92,170.66,081010,,,A*7E
$GPRMC,223230.000,A,3748.7197,N,12217.7021,W,2.14,155.12,081010,,,A*70
$GPRMC,223231.000,A,3748.7192,N,12217.7017,W,1.77,147.35,081010,,,A*71
$GPRMC,223232.000,A,3748.7188,N,12217.7013,W,1.26,115.50,081010,,,A*7D
$GPRMC,223233.000,A,3748.7183,N,12217.7007,W,2.36,124.60,081010,,,A*71
$GPRMC,223234.000,A,3748.7178,N,12217.6998,W,1.97,116.45,081010,,,A*72
$GPRMC,223235.000,A,3748.7176,N,12217.6997,W,1.26,140.28,081010,,,A*70
$GPRMC,223236.000,A,3748.7173,N,12217.6990,W,2.24,122.35,081010,,,A*78
$GPRMC,223237.000,A,3748.7175,N,12217.6983,W,1.99,94.33,081010,,,A*42
$GPRMC,223238.000,A,3748.7175,N,12217.6975,W,1.74,103.70,081010,,,A*7F
$GPRMC,223239.000,A,3748.7172,N,12217.6965,W,2.43,101.94,081010,,,A*77
$GPRMC,223240.000,A,3748.7170,N,12217.6958,W,2.09,80.24,081010,,,A*48
$GPRMC,223241.000,A,3748.7170,N,12217.6952,W,1.78,95.15,081010,,,A*40
$GPRMC,223242.000,A,3748.7169,N,12217.6946,W,1.93,85.94,081010,,,A*43
$GPRMC,223243.000,A,3748.7167,N,12217.6939,W,2.38,116.04,081010,,,A*74
$GPRMC,223244.000,A,3748.7161,N,12217.6927,W,3.10,121.09,081010,,,A*78
$GPRMC,223245.000,A,3748.7156,N,12217.6919,W,2.45,135.06,081010,,,A*7B
$GPRMC,223246.000,A,3748.7152,N,12217.6912,W,2.20,119.98,081010,,,A*7D
$GPRMC,223247.000,A,3748.7148,N,12217.6906,W,2.18,111.85,081010,,,A*7D
$GPRMC,223248.000,A,3748.7147,N,12217.6898,W,1.90,118.65,081010,,,A*7F
$GPRMC,223249.000,A,3748.7146,N,12217.6891,W,1.60,108.44,081010,,,A*7B
$GPRMC,223250.000,A,3748.7141,N,12217.6885,W,2.10,158.72,081010,,,A*75
$GPRMC,223251.000,A,3748.7135,N,12217.6880,W,1.96,138.81,081010,,,A*75
$GPRMC,223252.000,A,3748.7134,N,12217.6871,W,2.34,118.36,081010,,,A*7C
$GPRMC,223253.000,A,3748.7124,N,12217.6868,W,2.38,151.50,081010,,,A*75
$GPRMC,223254.000,A,3748.7119,N,12217.6865,W,1.86,133.38,081010,,,A*7D
$GPRMC,223255.000,A,3748.7120,N,12217.6860,W,1.44,99.62,081010,,,A*43
$GPRMC,223256.000,A,3748.7119,N,12217.6856,W,1.64,97.26,081010,,,A*43
$GPRMC,223257.000,A,3748.7122,N,12217.6849,W,1.62,114.36,081010,,,A*79
$GPRMC,223258.000,A,3748.7124,N,12217.6841,W,1.88,98.26,081010,,,A*48
$GPRMC,223259.000,A,3748.7123,N,12217.6836,W,2.22,132.37,081010,,,A*7C
$GPRMC,223300.000,A,3748.7116,N,12217.6831,W,2.05,132.05,081010,,,A*74
$GPRMC,223301.000,A,3748.7108,N,12217.6825,W,2.49,123.66,081010,,,A*72
$GPRMC,223302.000,A,3748.7101,N,12217.6819,W,2.47,124.24,081010,,,A*78
$GPRMC,223303.000,A,3748.7097,N,12217.6813,W,2.35,122.96,081010,,,A*77
$GPRMC,223304.000,A,3748.7096,N,12217.6809,W,1.90,124.14,081010,,,A*7A
$GPRMC,223305.000,A,3748.7092,N,12217.6801,W,2.26,122.93,081010,,,A*70
$GPRMC,223306.000,A,3748.7083,N,12217.6795,W,1.87,123.52,081010,,,A*75
$GPRMC,223307.000,A,3748.7077,N,12217.6791,W,2.15,127.00,081010,,,A*70
$GPRMC,223308.000,A,3748.7070,N,12217.6783,W,2.68,125.88,081010,,,A*73
$GPRMC,223309.000,A,3748.7067,N,12217.6773,W,2.03,106.00,081010,,,A*77
$GPRMC,223310.000,A,3748.7063,N,12217.6767,W,2.20,111.62,081010,,,A*7D
$GPRMC,223311.000,A,3748.7059,N,12217.6755,W,2.30,121.98,081010,,,A*73
$GPRMC,223312.000,A,3748.7052,N,12217.6753,W,2.06,137.46,081010,,,A*7C
$GPRMC,223313.000,A,3748.7047,N,12217.6747,W,1.67,128.25,081010,,,A*73
$GPRMC,223314.000,A,3748.7046,N,12217.6740,W,1.79,99.95,081010,,,A*4D
$GPRMC,223315.000,A,3748.7044,N,12217.6734,W,1.77,131.29,081010,,,A*77
$GPRMC,223316.000,A,3748.7040,N,12217.6729,W,1.65,144.24,081010,,,A*70
$GPRMC,223317.000,A,3748.7039,N,12217.6723,W,1.88,117.05,081010,,,A*73
$GPRMC,223318.000,A,3748.7038,N,12217.6718,W,1.96,90.46,081010,,,A*43
$GPRMC,223319.000,A,3748.7035,N,12217.6714,W,2.32,109.60,081010,,,A*7B
$GPRMC,223320.000,A,3748.7032,N,12217.6709,W,2.16,124.84,081010,,,A*79
$GPRMC,223321.000,A,3748.7032,N,12217.6702,W,2.22,100.65,081010,,,A*7D
$GPRMC,223322.000,A,3748.7029,N,12217.6694,W,1.98,113.41,081010,,,A*7C
$GPRMC,223323.000,A,3748.7033,N,12217.6684,W,1.98,96.01,081010,,,A*4F
$GPRMC,223324.000,A,3748.7034,N,12217.6675,W,2.19,103.51,081010,,,A*73
$GPRMC,223325.000,A,3748.7033,N,12217.6665,W,1.96,108.87,081010,,,A*70
$GPRMC,223326.000,A,3748.7026,N,12217.6661,W,1.75,134.35,081010,,,A*78
$GPRMC,223327.000,A,3748.7018,N,12217.6660,W,2.23,152.49,081010,,,A*7E
$GPRMC,223328.000,A,3748.7016,N,12217.6654,W,1.78,150.50,081010,,,A*7F
$GPRMC,223329.000,A,3748.7015,N,12217.6649,W,2.22,103.49,081010,,,A*73
$GPRMC,223330.000,A,3748.7011,N,12217.6642,W,1.93,127.38,081010,,,A*7D
$GPRMC,223331.000,A,3748.7004,N,12217.6638,W,2.22,135.28,081010,,,A*7E
$GPRMC,223332.000,A,3748.7005,N,12217.6631,W,2.10,134.85,081010,,,A*72
$GPRMC,223333.000,A,3748.7006,N,12217.6623,W,2.40,122.53,081010,,,A*7A
$GPRMC,223334.000,A,3748.7005,N,12217.6618,W,1.64,139.82,081010,,,A*75
$GPRMC,223335.000,A,3748.6997,N,12217.6614,W,2.07,137.99,081010,,,A*79
$GPRMC,223336.000,A,3748.6994,N,12217.6606,W,2.56,127.61,081010,,,A*78
$GPRMC,223337.000,A,3748.6988,N,12217.6596,W,2.58,118.92,081010,,,A*70
$GPRMC,223338.000,A,3748.6985,N,12217.6588,W,1.95,97.10,081010,,,A*43
$GPRMC,223339.000,A,3748.6983,N,12217.6582,W,2.18,116.84,081010,,,A*7D
$GPRMC,223340.000,A,3748.6979,N,12217.6577,W,1.98,129.52,081010,,,A*70
$GPRMC,223341.000,A,3748.6974,N,12217.6572,W,2.01,137.41,081010,,,A*77
$GPRMC,223342.000,A,3748.6969,N,12217.6567,W,2.30,127.05,081010,,,A*7F
$GPRMC,223343.000,A,3748.6965,N,12217.6561,W,1.57,108.66,081010,,,A*7E
$GPRMC,223344.000,A,3748.6960,N,12217.6555,W,1.92,123.57,081010,,,A*79
$GPRMC,223345.000,A,3748.6958,N,12217.6548,W,2.23,124.37,081010,,,A*77
$GPRMC,223346.000,A,3748.6954,N,12217.6544,W,1.71,131.84,081010,,,A*7C
$GPRMC,223347.000,A,3748.6951,N,12217.6540,W,1.54,135.78,081010,,,A*7C
$GPRMC,223348.000,A,3748.6948,N,12217.6535,W,1.52,124.66,081010,,,A*70
$GPRMC,223349.000,A,3748.6948,N,12217.6527,W,2.06,145.19,081010,,,A*7F
$GPRMC,223350.000,A,3748.6944,N,12217.6521,W,2.08,138.10,081010,,,A*70
$GPRMC,223351.000,A,3748.6940,N,12217.6518,W,1.90,126.46,081010,,,A*71
$GPRMC,223352.000,A,3748.6936,N,12217.6513,W,2.24,132.31,081010,,,A*71
$GPRMC,223353.000,A,3748.6935,N,12217.6506,W,1.85,103.39,081010,,,A*75
$GPRMC,223354.000,A,3748.6933,N,12217.6497,W,1.91,107.72,081010,,,A*73
$GPRMC,223355.000,A,3748.6931,N,12217.6490,W,2.21,87.66,081010,,,A*43
$GPRMC,223356.000,A,3748.6928,N,12217.6483,W,2.40,110.82,081010,,,A*78
$GPRMC,223357.000,A,3748.6927,N,12217.6474,W,2.29,128.34,081010,,,A*77
$GPRMC,223358.000,A,3748.6919,N,12217.6469,W,2.14,102.33,081010,,,A*78
$GPRMC,223359.000,A,3748.6912,N,12217.6467,W,1.97,133.09,081010,,,A*7F
$GPRMC,223400.000,A,3748.6907,N,12217.6465,W,1.80,122.58,081010,,,A*70
$GPRMC,223401.000,A,3748.6906,N,12217.6461,W,1.74,127.28,081010,,,A*7D
$GPRMC,223402.000,A,3748.6902,N,12217.6458,W,2.07,121.22,081010,,,A*7B
$GPRMC,223403.000,A,3748.6899,N,12217.6453,W,1.83,119.00,081010,,,A*76
$GPRMC,223404.000,A,3748.6901,N,12217.6443,W,2.04,91.74,081010,,,A*4E
$GPRMC,223405.000,A,3748.6899,N,12217.6436,W,1.79,105.16,081010,,,A*7C
$GPRMC,223406.000,A,3748.6899,N,12217.6428,W,2.15,92.48,081010,,,A*4D
$GPRMC,223407.000,A,3748.6898,N,12217.6416,W,1.98,87.18,081010,,,A*47
$GPRMC,223408.000,A,3748.6900,N,12217.6409,W,2.05,59.12,081010,,,A*48
$GPRMC,223409.000,A,3748.6905,N,12217.6403,W,2.06,64.73,081010,,,A*4C
$GPRMC,223410.000,A,3748.6909,N,12217.6396,W,2.56,53.01,081010,,,A*47
$GPRMC,223411.000,A,3748.6915,N,12217.6389,W,2.55,32.24,081010,,,A*46
$GPRMC,223412.000,A,3748.6922,N,12217.6387,W,1.94,29.97,081010,,,A*43
$GPRMC,223413.000,A,3748.6926,N,12217.6381,W,1.71,47.26,081010,,,A*49
$GPRMC,223414.000,A,3748.6927,N,12217.6379,W,0.61,58.62,081010,,,A*46
$GPRMC,223415.000,A,3748.6928,N,12217.6378,W,0.82,47.81,081010,,,A*47
$GPRMC,223416.000,A,3748.6930,N,12217.6371,W,1.51,44.58,081010,,,A*4C
$GPRMC,223417.000,A,3748.6935,N,12217.6363,W,1.25,30.77,081010,,,A*46
$GPRMC,223418.000,A,3748.6938,N,12217.6358,W,1.25,14.20,081010,,,A*48
$GPRMC,223419.000,A,3748.6941,N,12217.6352,W,1.62,50.05,081010,,,A*49
$GPRMC,223420.000,A,3748.6944,N,12217.6346,W,1.69,51.38,081010,,,A*47
$GPRMC,223421.000,A,3748.6949,N,12217.6342,W,1.69,44.31,081010,,,A*42
$GPRMC,223422.000,A,3748.6950,N,12217.6339,W,1.81,38.07,081010,,,A*4D
$GPRMC,223423.000,A,3748.6953,N,12217.6339,W,1.09,357.54,081010,,,A*73
$GPRMC,223424.000,A,3748.6954,N,12217.6339,W,1.19,16.93,081010,,,A*4F
$GPRMC,223425.000,A,3748.6956,N,12217.6338,W,1.07,8.04,081010,,,A*73
$GPRMC,223426.000,A,3748.6958,N,12217.6339,W,1.01,347.98,081010,,,A*74
$GPRMC,223427.000,A,3748.6958,N,12217.6340,W,0.11,48.36,081010,,,A*43
$GPRMC,223428.000,A,3748.6957,N,12217.6341,W,0.27,243.99,081010,,,A*7B
$GPRMC,223429.000,A,3748.6958,N,12217.6345,W,1.26,240.87,081010,,,A*7D
$GPRMC,223430.000,A,3748.6957,N,12217.6348,W,1.53,216.38,081010,,,A*72
$GPRMC,223431.000,A,3748.6948,N,12217.6358,W,2.49,198.98,081010,,,A*7B
$GPRMC,223432.000,A,3748.6942,N,12217.6363,W,2.16,219.03,081010,,,A*78
$GPRMC,223433.000,A,3748.6935,N,12217.6371,W,1.92,230.46,081010,,,A*7F
$GPRMC,223434.000,A,3748.6931,N,12217.6375,W,2.36,214.68,081010,,,A*7F
$GPRMC,223435.000,A,3748.6925,N,12217.6378,W,1.93,209.85,081010,,,A*75
$GPRMC,223436.000,A,3748.6920,N,12217.6385,W,3.24,218.46,081010,,,A*70
$GPRMC,223437.000,A,3748.6913,N,12217.6395,W,2.57,240.99,081010,,,A*7A
$GPRMC,223438.000,A,3748.6909,N,12217.6406,W,2.33,224.59,081010,,,A*7F
$GPRMC,223439.000,A,3748.6905,N,12217.6413,W,2.26,232.52,081010,,,A*7E
$GPRMC,223440.000,A,3748.6902,N,12217.6417,W,2.34,219.95,081010,,,A*72
$GPRMC,223441.000,A,3748.6900,N,12217.6420,W,1.51,218.49,081010,,,A*75
$GPRMC,223442.000,A,3748.6896,N,12217.6425,W,1.76,216.53,081010,,,A*7D
$GPRMC,223443.000,A,3748.6887,N,12217.6433,W,3.25,223.05,081010,,,A*7A
$GPRMC,223444.000,A,3748.6882,N,12217.6436,W,2.98,225.65,081010,,,A*7A
$GPRMC,223445.000,A,3748.6875,N,12217.6440,W,3.33,220.60,081010,,,A*72
$GPRMC,223446.000,A,3748.6872,N,12217.6444,W,1.57,224.90,081010,,,A*79
$GPRMC,223447.000,A,3748.6870,N,12217.6445,W,0.97,214.20,081010,,,A*7E
$GPRMC,223448.000,A,3748.6870,N,12217.6445,W,0.39,220.10,081010,,,A*71
$GPRMC,223449.000,A,3748.6865,N,12217.6450,W,2.66,221.26,081010,,,A*7C
$GPRMC,223450.000,A,3748.6860,N,12217.6453,W,2.47,212.79,081010,,,A*7B
$GPRMC,223451.000,A,3748.6858,N,12217.6456,W,2.48,218.56,081010,,,A*7C
$GPRMC,223452.000,A,3748.6855,N,12217.6460,W,2.13,234.25,081010,,,A*73
$GPRMC,223453.000,A,3748.6849,N,12217.6462,W,1.60,244.31,081010,,,A*78
$GPRMC,223454.000,A,3748.6846,N,12217.6464,W,1.85,228.20,081010,,,A*77
$GPRMC,223455.000,A,3748.6842,N,12217.6467,W,1.75,220.76,081010,,,A*75
$GPRMC,223456.000,A,3748.6836,N,12217.6468,W,2.28,220.44,081010,,,A*70
$GPRMC,223457.000,A,3748.6832,N,12217.6469,W,1.26,212.02,081010,,,A*7A
$GPRMC,223458.000,A,3748.6824,N,12217.6473,W,2.48,211.96,081010,,,A*7C
$GPRMC,223459.000,A,3748.6819,N,12217.6479,W,1.87,215.50,081010,,,A*77
$GPRMC,223500.000,A,3748.6819,N,12217.6482,W,1.75,256.49,081010,,,A*7C
$GPRMC,223501.000,A,3748.6815,N,12217.6484,W,2.04,220.93,081010,,,A*74
$GPRMC,223502.000,A,3748.6814,N,12217.6486,W,1.14,247.21,081010,,,A*7E
$GPRMC,223503.000,A,3748.6815,N,12217.6488,W,1.72,228.67,081010,,,A*7B
$GPRMC,223504.000,A,3748.6810,N,12217.6491,W,2.00,223.37,081010,,,A*79
$GPRMC,223505.000,A,3748.6805,N,12217.6498,W,3.07,230.96,081010,,,A*7A
$GPRMC,223506.000,A,3748.6799,N,12217.6503,W,2.66,207.21,081010,,,A*7E
$GPRMC,223507.000,A,3748.6796,N,12217.6503,W,2.10,198.94,081010,,,A*7A
$GPRMC,223508.000,A,3748.6791,N,12217.6499,W,1.64,171.80,081010,,,A*72
$GPRMC,223509.000,A,3748.6787,N,12217.6492,W,1.56,139.51,081010,,,A*7E
$GPRMC,223510.000,A,3748.6782,N,12217.6489,W,1.32,171.72,081010,,,A*76
$GPRMC,223511.000,A,3748.6778,N,12217.6487,W,1.64,176.08,081010,,,A*75
$GPRMC,223512.000,A,3748.6773,N,12217.6485,W,1.13,152.70,081010,,,A*76
$GPRMC,223513.000,A,3748.6769,N,12217.6484,W,1.12,195.07,081010,,,A*77
$GPRMC,223514.000,A,3748.6764,N,12217.6481,W,1.31,211.18,081010,,,A*78
$GPRMC,223515.000,A,3748.6759,N,12217.6481,W,1.36,212.25,081010,,,A*7D
$GPRMC,223516.000,A,3748.6756,N,12217.6473,W,0.89,158.87,081010,,,A*7C
$GPRMC,223517.000,A,3748.6749,N,12217.6474,W,0.58,178.64,081010,,,A*77
$GPRMC,223518.000,A,3748.6746,N,12217.6472,W,0.36,201.02,081010,,,A*74
$GPRMC,223519.000,A,3748.6741,N,12217.6477,W,1.42,205.19,081010,,,A*7B
$GPRMC,223520.000,A,3748.6737,N,12217.6477,W,0.58,204.29,081010,,,A*78
$GPRMC,223521.000,A,3748.6736,N,12217.6485,W,1.32,214.34,081010,,,A*75
$GPRMC,223522.000,A,3748.6736,N,12217.6495,W,0.31,209.91,081010,,,A*76
$GPRMC,223523.000,A,3748.6738,N,12217.6497,W,0.19,186.45,081010,,,A*7C
$GPRMC,223524.000,A,3748.6742,N,12217.6498,W,0.19,212.50,081010,,,A*73
$GPRMC,223525.000,A,3748.6743,N,12217.6503,W,0.25,214.45,081010,,,A*7D
$GPRMC,223526.000,A,3748.6744,N,12217.6504,W,0.25,186.84,081010,,,A*7B
$GPRMC,223527.000,A,3748.6744,N,12217.6510,W,0.38,167.99,081010,,,A*70
$GPRMC,223528.000,A,3748.6742,N,12217.6517,W,0.11,286.71,081010,,,A*7F
$GPRMC,223529.000,A,3748.6742,N,12217.6523,W,0.20,278.02,081010,,,A*7E
$GPRMC,223530.000,A,3748.6745,N,12217.6524,W,0.28,326.21,081010,,,A*75
$GPRMC,223531.000,A,3748.6747,N,12217.6525,W,0.18,359.21,081010,,,A*7C
$GPRMC,223532.000,A,3748.6748,N,12217.6526,W,0.15,344.10,081010,,,A*70
$GPRMC,223533.000,A,3748.6748,N,12217.6530,W,0.30,291.70,081010,,,A*7E
$GPRMC,223534.000,A,3748.6749,N,12217.6533,W,0.09,281.35,081010,,,A*71
$GPRMC,223535.000,A,3748.6749,N,12217.6536,W,0.07,232.42,081010,,,A*73
$GPRMC,223536.000,A,3748.6751,N,12217.6539,W,0.32,298.42,081010,,,A*70
$GPRMC,223537.000,A,3748.6751,N,12217.6540,W,0.38,267.56,081010,,,A*70
$GPRMC,223538.000,A,3748.6753,N,12217.6544,W,0.24,207.54,081010,,,A*70
$GPRMC,223539.000,A,3748.6753,N,12217.6546,W,0.37,243.68,081010,,,A*7E
$GPRMC,223540.000,A,3748.6753,N,12217.6547,W,0.42,237.30,081010,,,A*7D
$GPRMC,223541.000,A,3748.6753,N,12217.6550,W,0.41,236.99,081010,,,A*7B
$GPRMC,223542.000,A,3748.6754,N,12217.6553,W,0.55,258.70,081010,,,A*76
$GPRMC,223543.000,A,3748.6754,N,12217.6555,W,0.34,239.49,081010,,,A*7B
$GPRMC,223544.000,A,3748.6754,N,12217.6557,W,0.42,255.75,081010,,,A*7A
$GPRMC,223545.000,A,3748.6757,N,12217.6556,W,0.46,280.31,081010,,,A*75
$GPRMC,223546.000,A,3748.6756,N,12217.6560,W,1.33,248.88,081010,,,A*77
$GPRMC,223547.000,A,3748.6754,N,12217.6559,W,0.74,196.63,081010,,,A*79
$GPRMC,223548.000,A,3748.6752,N,12217.6550,W,0.86,109.35,081010,,,A*71
$GPRMC,223549.000,A,3748.6749,N,12217.6546,W,0.47,31.58,081010,,,A*41
$GPRMC,223550.000,A,3748.6753,N,12217.6550,W,0.48,42.88,081010,,,A*43
$GPRMC,223551.000,A,3748.6755,N,12217.6542,W,0.60,87.51,081010,,,A*40
$GPRMC,223552.000,A,3748.6753,N,12217.6539,W,0.27,79.23,081010,,,A*4E
$GPRMC,223553.000,A,3748.6752,N,12217.6538,W,0.22,193.27,081010,,,A*7B
$GPRMC,223554.000,A,3748.6752,N,12217.6537,W,0.37,34.68,081010,,,A*40
$GPRMC,223555.000,A,3748.6752,N,12217.6534,W,0.76,40.56,081010,,,A*49
$GPRMC,223556.000,A,3748.6753,N,12217.6532,W,0.72,39.75,081010,,,A*46
$GPRMC,223557.000,A,3748.6754,N,12217.6530,W,1.11,33.75,081010,,,A*4C
$GPRMC,223558.000,A,3748.6756,N,12217.6531,W,1.40,25.23,081010,,,A*40
$GPRMC,223559.000,A,3748.6758,N,12217.6528,W,1.69,37.31,081010,,,A*4C
$GPRMC,223600.000,A,3748.6761,N,12217.6521,W,1.33,35.31,081010,,,A*4D
$GPRMC,223601.000,A,3748.6764,N,12217.6507,W,2.98,53.13,081010,,,A*4F
$GPRMC,223602.000,A,3748.6771,N,12217.6500,W,2.59,39.49,081010,,,A*41
$GPRMC,223603.000,A,3748.6774,N,12217.6496,W,1.62,21.51,081010,,,A*40
$GPRMC,223604.000,A,3748.6775,N,12217.6499,W,1.77,27.68,081010,,,A*41
$GPRMC,223605.000,A,3748.6775,N,12217.6494,W,1.06,22.59,081010,,,A*4C
$GPRMC,223606.000,A,3748.6775,N,12217.6494,W,1.17,20.51,081010,,,A*45
$GPRMC,223607.000,A,3748.6776,N,12217.6493,W,0.55,18.99,081010,,,A*48
$GPRMC,223608.000,A,3748.6775,N,12217.6491,W,0.34,107.61,081010,,,A*79
$GPRMC,223609.000,A,3748.6772,N,12217.6490,W,0.26,120.91,081010,,,A*77
$GPRMC,223610.000,A,3748.6772,N,12217.6486,W,0.28,64.17,081010,,,A*49
$GPRMC,223611.000,A,3748.6772,N,12217.6483,W,0.32,68.75,081010,,,A*4E
$GPRMC,223612.000,A,3748.6773,N,12217.6473,W,0.55,35.13,081010,,,A*4A
$GPRMC,223613.000,A,3748.6775,N,12217.6471,W,0.71,21.24,081010,,,A*48
$GPRMC,223614.000,A,3748.6776,N,12217.6470,W,0.72,62.25,081010,,,A*48
$GPRMC,223615.000,A,3748.6776,N,12217.6469,W,1.01,82.50,081010,,,A*48
$GPRMC,223616.000,A,3748.6778,N,12217.6462,W,1.80,70.52,081010,,,A*48
$GPRMC,223617.000,A,3748.6781,N,12217.6451,W,2.58,31.81,081010,,,A*42
$GPRMC,223618.000,A,3748.6785,N,12217.6445,W,1.81,20.45,081010,,,A*43
$GPRMC,223619.000,A,3748.6790,N,12217.6451,W,1.82,351.91,081010,,,A*7C
$GPRMC,223620.000,A,3748.6792,N,12217.6451,W,1.77,349.14,081010,,,A*7A
$GPRMC,223621.000,A,3748.6793,N,12217.6446,W,1.37,29.10,081010,,,A*49
$GPRMC,223622.000,A,3748.6790,N,12217.6436,W,2.43,75.42,081010,,,A*40
$GPRMC,223623.000,A,3748.6799,N,12217.6424,W,3.09,78.94,081010,,,A*42
$GPRMC,223624.000,A,3748.6799,N,12217.6417,W,2.88,89.34,081010,,,A*49
$GPRMC,223625.000,A,3748.6800,N,12217.6406,W,3.47,105.74,081010,,,A*74
$GPRMC,223626.000,A,3748.6797,N,12217.6391,W,3.90,94.87,081010,,,A*40
$GPRMC,223627.000,A,3748.6791,N,12217.6367,W,4.75,90.40,081010,,,A*4D
$GPRMC,223628.000,A,3748.6790,N,12217.6350,W,4.21,85.32,081010,,,A*47
$GPRMC,223629.000,A,3748.6787,N,12217.6340,W,3.32,73.69,081010,,,A*43
$GPRMC,223630.000,A,3748.6786,N,12217.6325,W,3.57,77.84,081010,,,A*4D
$GPRMC,223631.000,A,3748.6789,N,12217.6318,W,3.40,59.85,081010,,,A*46
$GPRMC,223632.000,A,3748.6788,N,12217.6308,W,3.66,64.57,081010,,,A*40
$GPRMC,223633.000,A,3748.6781,N,12217.6298,W,3.84,81.93,081010,,,A*4F
$GPRMC,223634.000,A,3748.6780,N,12217.6286,W,3.93,82.60,081010,,,A*4F
$GPRMC,223635.000,A,3748.6776,N,12217.6257,W,4.75,87.12,081010,,,A*44
$GPRMC,223636.000,A,3748.6775,N,12217.6215,W,6.18,87.55,081010,,,A*48
$GPRMC,223637.000,A,3748.6779,N,12217.6187,W,6.48,87.78,081010,,,A*47
$GPRMC,223638.000,A,3748.6780,N,12217.6164,W,6.48,87.78,081010,,,E*47
$GPRMC,223639.000,A,3748.6787,N,12217.6164,W,5.03,77.58,081010,,,A*44
$GPRMC,223640.000,A,3748.6782,N,12217.6142,W,6.18,95.15,081010,,,A*47
$GPRMC,223641.000,A,3748.6776,N,12217.6118,W,7.55,101.91,081010,,,A*7A
$GPRMC,223642.000,A,3748.6761,N,12217.6094,W,8.84,108.22,081010,,,A*78
$GPRMC,223643.000,A,3748.6743,N,12217.6074,W,9.48,116.04,081010,,,A*7D
$GPRMC,223644.000,A,3748.6731,N,12217.6044,W,9.48,116.04,081010,,,E*78
$GPRMC,223645.000,A,3748.6720,N,12217.6014,W,9.48,116.04,081010,,,E*7C
$GPRMC,223646.000,A,3748.6708,N,12217.5984,W,9.48,116.04,081010,,,E*76
$GPRMC,223647.000,A,3748.6697,N,12217.5954,W,9.48,116.04,081010,,,E*7D
$GPRMC,223648.000,A,3748.6685,N,12217.5924,W,9.48,116.04,081010,,,E*76
$GPRMC,223649.000,A,3748.6674,N,12217.5895,W,9.48,116.04,081010,,,E*72
$GPRMC,223650.000,A,3748.6662,N,12217.5865,W,9.48,116.04,081010,,,E*72
$GPRMC,223651.000,A,3748.6650,N,12217.5835,W,9.48,116.04,081010,,,E*77
$GPRMC,223652.000,A,3748.6639,N,12217.5805,W,9.48,116.04,081010,,,E*78
$GPRMC,223653.000,A,3748.6627,N,12217.5775,W,9.48,116.04,081010,,,E*7E
$GPRMC,223654.000,A,3748.6616,N,12217.5745,W,9.48,116.04,081010,,,E*78
$GPRMC,223655.000,A,3748.6604,N,12217.5715,W,9.48,116.04,081010,,,E*7F
$GPRMC,223656.000,A,3748.6593,N,12217.5686,W,9.48,116.04,081010,,,E*7A
$GPRMC,223657.000,A,3748.6581,N,12217.5656,W,9.48,116.04,081010,,,E*75
$GPRMC,223801.000,A,3748.6837,N,12217.6530,W,11.19,286.23,081010,,,A*4E
$GPRMC,223802.000,A,3748.6813,N,12217.6489,W,7.98,285.91,081010,,,A*7C
$GPRMC,223803.000,A,3748.6831,N,12217.6485,W,5.59,288.95,081010,,,A*77
$GPRMC,223804.000,A,3748.6837,N,12217.6504,W,5.59,288.95,081010,,,E*7A
$GPRMC,223805.000,A,3748.6842,N,12217.6522,W,5.59,288.95,081010,,,E*7D
$GPRMC,223806.000,A,3748.6821,N,12217.6473,W,1.04,226.24,081010,,,A*78
$GPRMC,223807.000,A,3748.6807,N,12217.6467,W,1.00,198.65,081010,,,A*7F
$GPRMC,223808.000,A,3748.6804,N,12217.6460,W,0.29,334.48,081010,,,A*75
$GPRMC,223809.000,A,3748.6803,N,12217.6441,W,0.73,66.66,081010,,,A*47
$GPRMC,223810.000,A,3748.6796,N,12217.6431,W,1.26,82.43,081010,,,A*47
$GPRMC,223811.000,A,3748.6787,N,12217.6414,W,0.88,74.72,081010,,,A*4F
$GPRMC,223812.000,A,3748.6780,N,12217.6399,W,0.04,54.43,081010,,,A*4D
$GPRMC,223813.000,A,3748.6774,N,12217.6390,W,0.75,232.34,081010,,,A*7A
$GPRMC,223814.000,A,3748.6777,N,12217.6418,W,1.83,269.33,081010,,,A*78
$GPRMC,223815.000,A,3748.6769,N,12217.6416,W,1.28,262.29,081010,,,A*79
$GPRMC,223816.000,A,3748.6761,N,12217.6419,W,1.04,302.33,081010,,,A*7F
$GPRMC,223817.000,A,3748.6760,N,12217.6439,W,1.32,272.53,081010,,,A*78
$GPRMC,223818.000,A,3748.6760,N,12217.6442,W,1.05,259.82,081010,,,A*7A
$GPRMC,223819.000,A,3748.6760,N,12217.6437,W,0.23,168.18,081010,,,A*7E
$GPRMC,223820.000,A,3748.6752,N,12217.6425,W,1.01,115.01,081010,,,A*75
$GPRMC,223821.000,A,3748.6750,N,12217.6422,W,1.01,115.01,081010,,,E*75
$GPRMC,223822.000,A,3748.6737,N,12217.6435,W,2.16,193.44,081010,,,A*7F
$GPRMC,223823.000,A,3748.6728,N,12217.6455,W,1.48,217.31,081010,,,A*73
$GPRMC,223824.000,A,3748.6726,N,12217.6478,W,1.25,264.88,081010,,,A*78
$GPRMC,223825.000,A,3748.6726,N,12217.6482,W,1.25,264.88,081010,,,E*78
$GPRMC,223826.000,A,3748.6712,N,12217.6561,W,1.85,232.82,081010,,,A*77
$GPRMC,223827.000,A,3748.6703,N,12217.6540,W,0.62,164.61,081010,,,A*70
$GPRMC,223828.000,A,3748.6694,N,12217.6466,W,3.30,118.58,081010,,,A*70
$GPRMC,223829.000,A,3748.6688,N,12217.6431,W,5.11,117.01,081010,,,A*78
$GPRMC,223830.000,A,3748.6684,N,12217.6396,W,5.98,115.61,081010,,,A*73
$GPRMC,223831.000,A,3748.6677,N,12217.6377,W,5.98,115.61,081010,,,E*75
$GPRMC,223832.000,A,3748.6670,N,12217.6358,W,5.98,115.61,081010,,,E*7C
$GPRMC,223833.000,A,3748.6663,N,12217.6339,W,5.98,115.61,081010,,,E*78
$GPRMC,223834.000,A,3748.6656,N,12217.6320,W,5.98,115.61,081010,,,E*71
$GPRMC,223835.000,A,3748.6648,N,12217.6301,W,5.98,115.61,081010,,,E*7C
$GPRMC,223836.000,A,3748.6641,N,12217.6282,W,5.98,115.61,081010,,,E*7C
$GPRMC,223837.000,A,3748.6634,N,12217.6263,W,5.98,115.61,081010,,,E*70
$GPRMC,223838.000,A,3748.6627,N,12217.6245,W,5.98,115.61,081010,,,E*79
$GPRMC,223839.000,A,3748.6699,N,12217.6213,W,5.31,107.30,081010,,,A*7E
$GPRMC,223840.000,A,3748.6724,N,12217.6205,W,4.30,111.72,081010,,,A*71
$GPRMC,223841.000,A,3748.6744,N,12217.6199,W,3.17,114.80,081010,,,A*7A
$GPRMC,223842.000,A,3748.6743,N,12217.6197,W,2.27,126.31,081010,,,A*79
$GPRMC,223843.000,A,3748.6739,N,12217.6182,W,2.55,136.75,081010,,,A*75
$GPRMC,223844.000,A,3748.6738,N,12217.6175,W,2.22,129.25,081010,,,A*70
$GPRMC,223845.000,A,3748.6741,N,12217.6177,W,1.45,117.46,081010,,,A*77
$GPRMC,223846.000,A,3748.6732,N,12217.6180,W,2.43,152.93,081010,,,A*74
$GPRMC,223847.000,A,3748.6726,N,12217.6176,W,2.43,152.93,081010,,,E*7D
$GPRMC,223848.000,A,3748.6718,N,12217.6191,W,2.43,172.96,081010,,,A*75
$GPRMC,223849.000,A,3748.6739,N,12217.6187,W,1.31,107.34,081010,,,A*7C
$GPRMC,223850.000,A,3748.6750,N,12217.6185,W,1.17,70.04,081010,,,A*4F
$GPRMC,223851.000,A,3748.6754,N,12217.6175,W,1.41,39.53,081010,,,A*49
$GPRMC,223852.000,A,3748.6767,N,12217.6167,W,2.88,24.18,081010,,,A*4C
$GPRMC,223853.000,A,3748.6764,N,12217.6164,W,2.85,13.76,081010,,,A*4C
$GPRMC,223854.000,A,3748.6758,N,12217.6163,W,1.52,346.78,081010,,,A*77
$GPRMC,223855.000,A,3748.6750,N,12217.6164,W,1.16,290.12,081010,,,A*7F
$GPRMC,223856.000,A,3748.6751,N,12217.6168,W,1.16,290.12,081010,,,E*75
$GPRMC,223857.000,A,3748.6749,N,12217.6168,W,0.67,263.38,081010,,,A*7A
$GPRMC,223858.000,A,3748.6749,N,12217.6170,W,0.67,263.38,081010,,,E*78
$GPRMC,223859.000,A,3748.6719,N,12217.6168,W,4.39,176.07,081010,,,A*75
$GPRMC,223900.000,A,3748.6721,N,12217.6165,W,2.54,161.00,081010,,,A*72
$GPRMC,223901.000,A,3748.6715,N,12217.6164,W,3.12,138.96,081010,,,A*75
$GPRMC,223902.000,A,3748.6708,N,12217.6156,W,3.12,138.96,081010,,,E*7F
$GPRMC,223903.000,A,3748.6709,N,12217.6171,W,2.37,135.81,081010,,,A*73
$GPRMC,223904.000,A,3748.6704,N,12217.6165,W,2.37,135.81,081010,,,E*78
$GPRMC,223905.000,A,3748.6699,N,12217.6159,W,2.37,135.81,081010,,,E*73
$GPRMC,223906.000,A,3748.6727,N,12217.6242,W,5.33,290.17,081010,,,A*79
$GPRMC,223907.000,A,3748.6765,N,12217.6198,W,5.35,322.39,081010,,,A*78
$GPRMC,223908.000,A,3748.6811,N,12217.6211,W,6.97,333.94,081010,,,A*75
$GPRMC,223909.000,A,3748.6828,N,12217.6222,W,6.97,333.94,081010,,,E*7A
$GPRMC,223910.000,A,3748.6895,N,12217.6269,W,11.19,339.41,081010,,,A*4D
$GPRMC,223911.000,A,3748.6938,N,12217.6262,W,11.75,342.71,081010,,,A*44
$GPRMC,223912.000,A,3748.6966,N,12217.6235,W,9.77,348.18,081010,,,A*70
$GPRMC,223913.000,A,3748.6993,N,12217.6242,W,9.77,348.18,081010,,,E*7F
$GPRMC,223914.000,A,3748.7019,N,12217.6249,W,9.77,348.18,081010,,,E*79
$GPRMC,223915.000,A,3748.7046,N,12217.6256,W,9.77,348.18,081010,,,E*7C
$GPRMC,223916.000,A,3748.7072,N,12217.6263,W,9.77,348.18,081010,,,E*7E
$GPRMC,223917.000,A,3748.7099,N,12217.6270,W,9.77,348.18,081010,,,E*78
$GPRMC,223918.000,A,3748.7126,N,12217.6277,W,9.77,348.18,081010,,,E*75
$GPRMC,223919.000,A,3748.7152,N,12217.6284,W,9.77,348.18,081010,,,E*7B
$GPRMC,223920.000,A,3748.7179,N,12217.6291,W,9.77,348.18,081010,,,E*7C
$GPRMC,223921.000,A,3748.7205,N,12217.6298,W,9.77,348.18,081010,,,E*7C
$GPRMC,223922.000,A,3748.7232,N,12217.6305,W,9.77,348.18,081010,,,E*7E
$GPRMC,223923.000,A,3748.7259,N,12217.6312,W,9.77,348.18,081010,,,E*74
$GPRMC,223924.000,A,3748.7285,N,12217.6319,W,9.77,348.18,081010,,,E*79
$GPRMC,223925.000,A,3748.7312,N,12217.6326,W,9.77,348.18,081010,,,E*7B
$GPRMC,223926.000,A,3748.7338,N,12217.6333,W,9.77,348.18,081010,,,E*74
$GPRMC,223941.000,A,3748.6885,N,12217.6748,W,7.29,217.91,081010,,,A*7A
$GPRMC,223942.000,A,3748.6869,N,12217.6764,W,7.29,217.91,081010,,,E*71
$GPRMC,223943.000,A,3748.6853,N,12217.6779,W,7.29,217.91,081010,,,E*75
$GPRMC,223944.000,A,3748.6828,N,12217.6549,W,2.83,212.91,081010,,,A*7B
$GPRMC,223945.000,A,3748.6827,N,12217.6533,W,3.29,227.12,081010,,,A*74
$GPRMC,223946.000,A,3748.6810,N,12217.6493,W,3.41,230.13,081010,,,A*71
$GPRMC,223947.000,A,3748.6811,N,12217.6477,W,2.70,247.15,081010,,,A*7E
$GPRMC,223948.000,A,3748.6825,N,12217.6506,W,2.06,289.56,081010,,,A*75
$GPRMC,223949.000,A,3748.6827,N,12217.6513,W,2.06,289.56,081010,,,E*76
$GPRMC,223950.000,A,3748.6829,N,12217.6526,W,2.44,284.76,081010,,,A*7B
$GPRMC,223951.000,A,3748.6823,N,12217.6530,W,1.32,234.20,081010,,,A*7D
$GPRMC,223952.000,A,3748.6824,N,12217.6538,W,1.25,250.01,081010,,,A*76
$GPRMC,223953.000,A,3748.6838,N,12217.6536,W,1.86,291.92,081010,,,A*7A
$GPRMC,223954.000,A,3748.6834,N,12217.6528,W,2.39,300.83,081010,,,A*70
$GPRMC,223955.000,A,3748.6821,N,12217.6517,W,0.79,297.10,081010,,,A*7A
$GPRMC,223956.000,A,3748.6833,N,12217.6521,W,2.49,324.65,081010,,,A*75
$GPRMC,223957.000,A,3748.6855,N,12217.6519,W,3.46,353.58,081010,,,A*7F
$GPRMC,223958.000,A,3748.6855,N,12217.6511,W,1.65,27.06,081010,,,A*40
$GPRMC,223959.000,A,3748.6853,N,12217.6507,W,0.53,14.35,081010,,,A*44
$GPRMC,224000.000,A,3748.6841,N,12217.6495,W,2.24,108.84,081010,,,A*7B
$GPRMC,224001.000,A,3748.6839,N,12217.6487,W,2.24,108.84,081010,,,E*72
$GPRMC,224002.000,A,3748.6837,N,12217.6480,W,2.24,108.84,081010,,,E*78
$GPRMC,224003.000,A,3748.6835,N,12217.6472,W,2.24,108.84,081010,,,E*76
$GPRMC,224004.000,A,3748.6814,N,12217.6470,W,1.92,136.43,081010,,,A*7C
$GPRMC,224005.000,A,3748.6756,N,12217.6469,W,1.06,133.47,081010,,,A*70
$GPRMC,224006.000,A,3748.6771,N,12217.6467,W,0.96,34.31,081010,,,A*47
$GPRMC,224007.000,A,3748.6791,N,12217.6454,W,2.63,26.52,081010,,,A*46
$GPRMC,224008.000,A,3748.6822,N,12217.6444,W,3.93,0.67,081010,,,A*73
$GPRMC,224009.000,A,3748.6833,N,12217.6449,W,4.53,348.58,081010,,,A*77
$GPRMC,224010.000,A,3748.6856,N,12217.6456,W,5.81,338.29,081010,,,A*7D
$GPRMC,224011.000,A,3748.6877,N,12217.6466,W,6.65,334.41,081010,,,A*77
$GPRMC,224012.000,A,3748.6885,N,12217.6486,W,5.76,323.55,081010,,,A*75
$GPRMC,224013.000,A,3748.6906,N,12217.6504,W,5.91,312.23,081010,,,A*7F
$GPRMC,224014.000,A,3748.6905,N,12217.6523,W,5.03,301.33,081010,,,A*76
$GPRMC,224015.000,A,3748.6910,N,12217.6541,W,4.65,298.90,081010,,,A*7E
$GPRMC,224016.000,A,3748.6909,N,12217.6553,W,3.69,295.12,081010,,,A*7A
$GPRMC,224017.000,A,3748.6908,N,12217.6531,W,1.48,347.80,081010,,,A*7A
$GPRMC,224018.000,A,3748.6899,N,12217.6555,W,1.34,330.48,081010,,,A*71
$GPRMC,224019.000,A,3748.6896,N,12217.6546,W,2.14,352.00,081010,,,A*74
$GPRMC,224020.000,A,3748.6893,N,12217.6553,W,1.78,2.28,081010,,,A*7A
$GPRMC,224021.000,A,3748.6890,N,12217.6552,W,1.40,30.30,081010,,,A*4A
$GPRMC,224022.000,A,3748.6894,N,12217.6547,W,1.54,27.48,081010,,,A*45
$GPRMC,224023.000,A,3748.6900,N,12217.6546,W,2.08,9.37,081010,,,A*77
$GPRMC,224024.000,A,3748.6905,N,12217.6545,W,1.98,352.84,081010,,,A*79
$GPRMC,224025.000,A,3748.6906,N,12217.6547,W,1.23,312.94,081010,,,A*7C
$GPRMC,224026.000,A,3748.6908,N,12217.6550,W,1.23,312.94,081010,,,E*73
$GPRMC,224027.000,A,3748.6910,N,12217.6553,W,1.23,312.94,081010,,,E*78
$GPRMC,224028.000,A,3748.6913,N,12217.6557,W,1.23,312.94,081010,,,E*70
$GPRMC,224029.000,A,3748.6915,N,12217.6560,W,1.23,312.94,081010,,,E*73
$GPRMC,224030.000,A,3748.6917,N,12217.6563,W,1.23,312.94,081010,,,E*7A
$GPRMC,224031.000,A,3748.6920,N,12217.6566,W,1.23,312.94,081010,,,E*7A
$GPRMC,224032.000,A,3748.6922,N,12217.6569,W,1.23,312.94,081010,,,E*74
$GPRMC,224033.000,A,3748.6825,N,12217.6573,W,2.18,172.38,081010,,,A*75
$GPRMC,224034.000,A,3748.6801,N,12217.6539,W,3.39,123.34,081010,,,A*70
$GPRMC,224035.000,A,3748.6795,N,12217.6533,W,2.10,97.31,081010,,,A*48
$GPRMC,224036.000,A,3748.6792,N,12217.6514,W,2.55,91.14,081010,,,A*49
$GPRMC,224037.000,A,3748.6783,N,12217.6491,W,1.93,85.25,081010,,,A*4A
$GPRMC,224038.000,A,3748.6783,N,12217.6485,W,1.93,85.25,081010,,,E*44
$GPRMC,224039.000,A,3748.6799,N,12217.6469,W,2.61,42.35,081010,,,A*4C
$GPRMC,224040.000,A,3748.6791,N,12217.6467,W,0.92,126.34,081010,,,A*78
$GPRMC,224041.000,A,3748.6770,N,12217.6495,W,2.93,207.47,081010,,,A*7C
$GPRMC,224042.000,A,3748.6763,N,12217.6500,W,2.93,207.47,081010,,,E*74
$GPRMC,224043.000,A,3748.6724,N,12217.6482,W,5.79,174.34,081010,,,A*79
$GPRMC,224044.000,A,3748.6708,N,12217.6480,W,5.79,174.34,081010,,,E*76
$GPRMC,224045.000,A,3748.6653,N,12217.6537,W,10.21,206.08,081010,,,A*41
$GPRMC,224046.000,A,3748.6646,N,12217.6489,W,5.59,184.45,081010,,,A*79
$GPRMC,224047.000,A,3748.6630,N,12217.6429,W,4.89,148.75,081010,,,A*7C
$GPRMC,224048.000,A,3748.6601,N,12217.6405,W,5.97,147.33,081010,,,A*7C
$GPRMC,224049.000,A,3748.6588,N,12217.6397,W,4.51,158.22,081010,,,A*76
$GPRMC,224050.000,A,3748.6577,N,12217.6391,W,4.51,158.22,081010,,,E*7C
$GPRMC,224051.000,A,3748.6565,N,12217.6385,W,4.51,158.22,081010,,,E*7B
$GPRMC,224052.000,A,3748.6553,N,12217.6379,W,4.51,158.22,081010,,,E*7E
$GPRMC,224053.000,A,3748.6594,N,12217.6478,W,3.06,279.53,081010,,,A*75
$GPRMC,224054.000,A,3748.6596,N,12217.6489,W,3.06,279.53,081010,,,E*7A
$GPRMC,224055.000,A,3748.6612,N,12217.6560,W,8.14,277.91,081010,,,A*7E
$GPRMC,224056.000,A,3748.6693,N,12217.6594,W,8.70,290.09,081010,,,A*75
$GPRMC,224057.000,A,3748.6701,N,12217.6623,W,8.70,290.09,081010,,,E*75
$GPRMC,224058.000,A,3748.6733,N,12217.6603,W,5.69,314.13,081010,,,A*7E
$GPRMC,224059.000,A,3748.6744,N,12217.6617,W,5.69,314.13,081010,,,E*7E
$GPRMC,224100.000,A,3748.6775,N,12217.6584,W,5.17,357.42,081010,,,A*76
$GPRMC,224101.000,A,3748.6776,N,12217.6576,W,3.43,12.05,081010,,,A*4F
$GPRMC,224102.000,A,3748.6785,N,12217.6573,W,3.43,12.05,081010,,,E*41
$GPRMC,224103.000,A,3748.6766,N,12217.6612,W,2.83,298.84,081010,,,A*79
$GPRMC,224104.000,A,3748.6760,N,12217.6611,W,1.20,287.83,081010,,,A*78
$GPRMC,224105.000,A,3748.6770,N,12217.6598,W,0.42,201.46,081010,,,A*78
$GPRMC,224106.000,A,3748.6754,N,12217.6588,W,0.20,213.33,081010,,,A*79
$GPRMC,224107.000,A,3748.6753,N,12217.6588,W,0.47,298.19,081010,,,A*75
$GPRMC,224108.000,A,3748.6758,N,12217.6560,W,1.13,155.20,081010,,,A*7F
$GPRMC,224109.000,A,3748.6746,N,12217.6562,W,2.13,190.24,081010,,,A*7D
$GPRMC,224110.000,A,3748.6741,N,12217.6561,W,1.46,188.48,081010,,,A*71
$GPRMC,224111.000,A,3748.6737,N,12217.6562,W,1.46,188.48,081010,,,E*76
$GPRMC,224112.000,A,3748.6733,N,12217.6563,W,1.46,188.48,081010,,,E*70
$GPRMC,224113.000,A,3748.6729,N,12217.6564,W,1.46,188.48,081010,,,E*7D
$GPRMC,224114.000,A,3748.6725,N,12217.6564,W,1.46,188.48,081010,,,E*76
$GPRMC,224115.000,A,3748.6721,N,12217.6565,W,1.46,188.48,081010,,,E*72
$GPRMC,224116.000,A,3748.6757,N,12217.6593,W,2.88,313.64,081010,,,A*72
$GPRMC,224117.000,A,3748.6756,N,12217.6593,W,2.77,315.98,081010,,,A*77
$GPRMC,224118.000,A,3748.6765,N,12217.6597,W,2.19,324.69,081010,,,A*78
$GPRMC,224119.000,A,3748.6779,N,12217.6600,W,1.94,343.38,081010,,,A*7A
$GPRMC,224120.000,A,3748.6789,N,12217.6600,W,1.57,3.08,081010,,,A*74
$GPRMC,224121.000,A,3748.6799,N,12217.6592,W,1.77,47.14,081010,,,A*43
$GPRMC,224122.000,A,3748.6806,N,12217.6582,W,2.46,74.61,081010,,,A*4B
$GPRMC,224123.000,A,3748.6808,N,12217.6574,W,2.46,74.61,081010,,,E*49
$GPRMC,224124.000,A,3748.6810,N,12217.6566,W,2.46,74.61,081010,,,E*44
$GPRMC,224125.000,A,3748.6812,N,12217.6557,W,2.46,74.61,081010,,,E*45
$GPRMC,224126.000,A,3748.6813,N,12217.6549,W,2.46,74.61,081010,,,E*48
$GPRMC,224127.000,A,3748.6815,N,12217.6541,W,2.46,74.61,081010,,,E*47
$GPRMC,224128.000,A,3748.6817,N,12217.6532,W,2.46,74.61,081010,,,E*4E
$GPRMC,224129.000,A,3748.6819,N,12217.6524,W,2.46,74.61,081010,,,E*46
$GPRMC,224130.000,A,3748.6821,N,12217.6516,W,2.46,74.61,081010,,,E*44
$GPRMC,224131.000,A,3748.6661,N,12217.6624,W,3.89,213.93,081010,,,A*75
$GPRMC,224132.000,A,3748.6702,N,12217.6615,W,2.80,224.42,081010,,,A*70
$GPRMC,224133.000,A,3748.6724,N,12217.6610,W,1.75,201.30,081010,,,A*7B
$GPRMC,224134.000,A,3748.6739,N,12217.6586,W,2.01,136.30,081010,,,A*7B
$GPRMC,224135.000,A,3748.6737,N,12217.6582,W,2.23,104.25,081010,,,A*75
$GPRMC,224136.000,A,3748.6747,N,12217.6584,W,1.82,70.99,081010,,,A*4A
$GPRMC,224137.000,A,3748.6765,N,12217.6589,W,2.77,16.48,081010,,,A*43
$GPRMC,224138.000,A,3748.6772,N,12217.6586,W,2.77,16.48,081010,,,E*41
$GPRMC,224139.000,A,3748.6780,N,12217.6583,W,2.77,16.48,081010,,,E*48
$GPRMC,224140.000,A,3748.6800,N,12217.6551,W,5.77,48.53,081010,,,A*4C
$GPRMC,224141.000,A,3748.6806,N,12217.6534,W,4.55,42.16,081010,,,A*42
$GPRMC,224142.000,A,3748.6815,N,12217.6521,W,4.43,39.96,081010,,,A*44
$GPRMC,224143.000,A,3748.6816,N,12217.6514,W,4.14,52.02,081010,,,A*42
$GPRMC,224144.000,A,3748.6822,N,12217.6503,W,4.19,58.06,081010,,,A*47
$GPRMC,224145.000,A,3748.6828,N,12217.6490,W,4.19,58.06,081010,,,E*43
$GPRMC,224146.000,A,3748.6834,N,12217.6478,W,4.19,58.06,081010,,,E*4B
$GPRMC,224147.000,A,3748.6844,N,12217.6467,W,4.21,39.93,081010,,,A*47
$GPRMC,224148.000,A,3748.6845,N,12217.6452,W,4.10,52.00,081010,,,A*4A
$GPRMC,224149.000,A,3748.6852,N,12217.6441,W,4.10,52.00,081010,,,E*4B
$GPRMC,224150.000,A,3748.6859,N,12217.6429,W,4.10,52.00,081010,,,E*46
$GPRMC,224151.000,A,3748.6866,N,12217.6418,W,4.10,52.00,081010,,,E*49
$GPRMC,224152.000,A,3748.6788,N,12217.6546,W,0.27,149.18,081010,,,A*79
$GPRMC,224153.000,A,3748.6786,N,12217.6553,W,0.87,109.19,081010,,,A*7D
$GPRMC,224154.000,A,3748.6788,N,12217.6547,W,0.94,149.00,081010,,,A*7F
$GPRMC,224155.000,A,3748.6786,N,12217.6546,W,0.94,149.00,081010,,,E*75
$GPRMC,224156.000,A,3748.6769,N,12217.6555,W,1.83,178.11,081010,,,A*74
