$ADVER,3080,2.3
$GPRMC,184004.575,A,3748.8027,N,12217.8692,W,0.16,172.13,270812,,,A*7A
$GPGGA,184005.575,3748.8028,N,12217.8692,W,1,04,2.3,44.6,M,-25.1,M,,0000*51
$GPGSA,A,3,26,15,28,11,,,,,,,,,3.4,2.3,2.5*39
$GPRMC,184005.575,A,3748.8028,N,12217.8692,W,0.12,173.09,270812,,,A*7A
$GPVTG,173.09,T,,M,0.12,N,0.2,K,A*00
$GPGGA,184006.575,3748.8027,N,12217.8692,W,1,04,2.3,44.8,M,-25.1,M,,0000*53
$GPGSA,A,3,26,15,28,11,,,,,,,,,3.4,2.3,2.5*39
$GPGSV,3,1,12,28,57,039,40,26,45,233,41,15,33,287,38,11,10,044,36*7A
$GPGSV,3,2,12,17,80,160,39,08,41,120,38,27,28,314,26,01,20,058,27*7B
$GPGSV,3,3,12,09,13,313,24,04,09,166,24,07,05,130,32,48,44,197,39*74
$GPRMC,184006.575,A,3748.8027,N,12217.8692,W,0.15,168.11,270812,,,A*72
$GPVTG,168.11,T,,M,0.15,N,0.3,K,A*05
$GPGGA,184007.000,3748.8027,N,12217.8693,W,1,04,2.3,44.8,M,-25.1,M,,0000*54
$GPGSA,A,3,26,15,28,11,,,,,,,,,3.4,2.3,2.5*39
$GPRMC,184007.000,A,3748.8027,N,12217.8693,W,0.13,170.35,270812,,,A*7C
$GPVTG,170.35,T,,M,0.13,N,0.2,K,A*0D
$GPGGA,184008.000,3748.8027,N,12217.8693,W,1,04,2.3,45.0,M,-25.1,M,,0000*52
$GPGSA,A,3,26,15,28,11,,,,,,,,,3.4,2.3,2.5*39
$GPRMC,184008.000,A,3748.8027,N,12217.8693,W,0.12,168.99,270812,,,A*7D
$GPVTG,168.99,T,,M,0.12,N,0.2,K,A*03
$GPGGA,184009.000,3748.8027,N,12217.8693,W,1,04,2.3,45.2,M,-25.1,M,,0000*51
$GPGSA,A,3,26,15,28,11,,,,,,,,,3.4,2.3,2.5*39
$GPRMC,184009.000,A,3748.8027,N,12217.8693,W,0.12,175.06,270812,,,A*76
$GPVTG,175.06,T,,M,0.12,N,0.2,K,A*09
$GPGGA,184010.000,3748.8027,N,12217.8693,W,1,04,2.3,45.4,M,-25.1,M,,0000*5F
$GPGSA,A,3,26,15,28,11,,,,,,,,,3.4,2.3,2.5*39
$GPRMC,184010.000,A,3748.8027,N,12217.8693,W,0.13,173.05,270812,,,A*7A
$GPVTG,173.05,T,,M,0.13,N,0.2,K,A*0D
$GPGGA,184011.000,3748.8027,N,12217.8694,W,1,04,2.3,45.6,M,-25.1,M,,0000*5B
$GPGSA,A,3,26,15,28,11,,,,,,,,,3.4,2.3,2.5*39
$GPGSV,3,1,12,28,57,039,39,26,45,233,41,15,33,287,38,11,10,044,37*75
$GPGSV,3,2,12,17,80,160,39,08,41,120,39,27,28,314,26,01,20,058,28*75
$GPGSV,3,3,12,09,13,313,,04,09,166,24,07,05,130,31,48,44,197,40*7F
$GPRMC,184011.000,A,3748.8027,N,12217.8694,W,0.12,169.59,270812,,,A*7F
$GPVTG,169.59,T,,M,0.12,N,0.2,K,A*0E
$GPGGA,184012.000,3748.8027,N,12217.8694,W,1,04,2.3,45.7,M,-25.1,M,,0000*59
$GPGSA,A,3,26,15,28,11,,,,,,,,,3.4,2.3,2.5*39
$GPRMC,184012.000,A,3748.8027,N,12217.8694,W,0.14,174.41,270812,,,A*7F
$GPVTG,174.41,T,,M,0.14,N,0.3,K,A*0C
$GPGGA,184013.000,3748.8027,N,12217.8694,W,1,04,2.3,45.8,M,-25.1,M,,0000*57
$GPGSA,A,3,26,15,28,11,,,,,,,,,3.4,2.3,2.5*39
$GPRMC,184013.000,A,3748.8027,N,12217.8694,W,0.12,175.67,270812,,,A*7D
$GPVTG,175.67,T,,M,0.12,N,0.2,K,A*0E
$GPGGA,184014.000,3748.8027,N,12217.8694,W,1,04,2.3,45.9,M,-25.1,M,,0000*51
$GPGSA,A,3,26,15,28,11,,,,,,,,,3.4,2.3,2.5*39
$GPRMC,184014.000,A,3748.8027,N,12217.8694,W,0.13,176.64,270812,,,A*7B
$GPVTG,176.64,T,,M,0.13,N,0.2,K,A*0F
$GPGGA,184015.000,3748.8027,N,12217.8694,W,1,04,2.3,46.1,M,-25.1,M,,0000*5B
$GPGSA,A,3,26,15,28,11,,,,,,,,,3.4,2.3,2.5*39
$GPRMC,184015.000,A,3748.8027,N,12217.8694,W,0.13,171.89,270812,,,A*7E
$GPVTG,171.89,T,,M,0.13,N,0.2,K,A*0B
$GPGGA,184016.000,3748.8027,N,12217.8695,W,1,04,2.3,46.2,M,-25.1,M,,0000*5A
$GPGSA,A,3,26,15,28,11,,,,,,,,,3.4,2.3,2.5*39
$GPGSV,3,1,12,28,57,039,35,26,45,233,41,15,33,287,38,11,10,044,37*79
$GPGSV,3,2,12,17,80,160,34,08,41,120,38,27,28,314,27,01,20,058,28*78
$GPGSV,3,3,12,09,13,313,27,04,09,166,29,07,05,130,24,48,44,197,34*70
$GPRMC,184016.000,A,3748.8027,N,12217.8695,W,0.14,192.38,270812,,,A*7C
$GPVTG,192.38,T,,M,0.14,N,0.3,K,A*0A
$GPGGA,184017.000,3748.8026,N,12217.8695,W,1,04,2.3,46.4,M,-25.1,M,,0000*5C
$GPGSA,A,3,26,15,28,11,,,,,,,,,3.4,2.3,2.5*39
$GPRMC,184017.000,A,3748.8026,N,12217.8695,W,0.26,197.44,270812,,,A*73
$GPVTG,197.44,T,,M,0.26,N,0.5,K,A*03
$GPGGA,184018.000,3748.8026,N,12217.8696,W,1,04,2.3,46.6,M,-25.1,M,,0000*52
$GPGSA,A,3,26,15,28,11,,,,,,,,,3.4,2.3,2.5*39
$GPRMC,184018.000,A,3748.8026,N,12217.8696,W,0.05,18.36,270812,,,A*4D
$GPVTG,18.36,T,,M,0.05,N,0.1,K,A*35
$GPGGA,184019.000,3748.8026,N,12217.8696,W,1,04,2.3,46.7,M,-25.1,M,,0000*52
$GPGSA,A,3,26,15,28,11,,,,,,,,,3.4,2.3,2.5*39
$GPRMC,184019.000,A,3748.8026,N,12217.8696,W,0.14,163.94,270812,,,A*79
$GPVTG,163.94,T,,M,0.14,N,0.3,K,A*02
$GPGGA,184020.000,3748.8026,N,12217.8696,W,1,04,2.3,46.9,M,-25.1,M,,0000*56
$GPGSA,A,3,26,15,28,11,,,,,,,,,3.4,2.3,2.5*39
$GPRMC,184020.000,A,3748.8026,N,12217.8696,W,0.23,118.77,270812,,,A*76
$GPVTG,118.77,T,,M,0.23,N,0.4,K,A*00
$GPGGA,184021.000,3748.8026,N,12217.8696,W,1,04,2.3,47.0,M,-25.1,M,,0000*5F
$GPGSA,A,3,26,15,28,11,,,,,,,,,3.4,2.3,2.5*39
$GPGSV,3,1,12,17,80,159,30,28,57,039,34,26,45,233,41,08,41,120,24*77
$GPGSV,3,2,12,15,33,287,41,27,28,314,36,01,20,058,24,09,13,313,34*7E
$GPGSV,3,3,12,11,10,044,35,04,09,166,19,07,05,130,25,48,44,197,30*7E
$GPRMC,184021.000,A,3748.8026,N,12217.8696,W,0.08,176.17,270812,,,A*70
$GPGGA,184022.000,3748.8028,N,12217.8697,W,1,05,2.2,46.1,M,-25.1,M,,0000*53
$GPGSA,A,3,26,15,28,17,11,,,,,,,,3.1,2.2,2.2*3C
$GPRMC,184022.000,A,3748.8028,N,12217.8697,W,0.11,162.95,270812,,,A*7B
$GPVTG,162.95,T,,M,0.11,N,0.2,K,A*06
$GPGGA,184023.000,3748.8027,N,12217.8694,W,1,05,2.2,43.7,M,-25.1,M,,0000*5D
$GPGSA,A,3,26,15,28,17,11,,,,,,,,3.1,2.2,2.2*3C
$GPRMC,184023.000,A,3748.8027,N,12217.8694,W,0.10,66.61,270812,,,A*49
$GPVTG,66.61,T,,M,0.10,N,0.2,K,A*39
$GPGGA,184024.000,3748.8028,N,12217.8693,W,1,05,2.2,41.6,M,-25.1,M,,0000*51
$GPGSA,A,3,26,15,28,17,11,,,,,,,,3.1,2.2,2.2*3C
$GPRMC,184024.000,A,3748.8028,N,12217.8693,W,0.23,112.41,270812,,,A*76
$GPVTG,112.41,T,,M,0.23,N,0.4,K,A*0F
$GPGGA,184025.000,3748.8028,N,12217.8693,W,1,05,2.2,40.2,M,-25.1,M,,0000*55
$GPGSA,A,3,26,15,28,17,11,,,,,,,,3.1,2.2,2.2*3C
$GPRMC,184025.000,A,3748.8028,N,12217.8693,W,0.42,181.32,270812,,,A*7E
$GPVTG,181.32,T,,M,0.42,N,0.8,K,A*0A
$GPGGA,184026.000,3748.8027,N,12217.8693,W,1,05,2.2,40.1,M,-25.1,M,,0000*5A
$GPGSA,A,3,26,15,28,17,11,,,,,,,,3.1,2.2,2.2*3C
$GPGSV,3,1,12,17,80,159,25,28,57,039,31,26,45,233,33,08,41,120,21*76
$GPGSV,3,2,12,15,33,287,37,27,28,314,36,01,20,058,25,09,13,313,38*72
$GPGSV,3,3,12,11,10,044,31,04,09,166,28,07,04,130,16,48,44,197,32*7B
$GPRMC,184026.000,A,3748.8027,N,12217.8693,W,0.36,180.40,270812,,,A*75
$GPVTG,180.40,T,,M,0.36,N,0.7,K,A*02
$GPGGA,184027.000,3748.8026,N,12217.8693,W,1,05,2.2,39.0,M,-25.1,M,,0000*55
$GPGSA,A,3,26,15,28,17,11,,,,,,,,3.1,2.2,2.2*3C
$GPRMC,184027.000,A,3748.8026,N,12217.8693,W,0.42,167.03,270812,,,A*78
$GPVTG,167.03,T,,M,0.42,N,0.8,K,A*00
$GPGGA,184028.000,3748.8026,N,12217.8694,W,1,05,2.2,38.5,M,-25.1,M,,0000*59
$GPGSA,A,3,26,15,28,17,11,,,,,,,,3.1,2.2,2.2*3C
$GPRMC,184028.000,A,3748.8026,N,12217.8694,W,0.62,206.92,270812,,,A*7E
$GPVTG,206.92,T,,M,0.62,N,1.2,K,A*05
$GPGGA,184029.000,3748.8027,N,12217.8696,W,1,05,2.2,38.3,M,-25.1,M,,0000*5D
$GPGSA,A,3,26,15,28,17,11,,,,,,,,3.1,2.2,2.2*3C
$GPRMC,184029.000,A,3748.8027,N,12217.8696,W,0.06,32.03,270812,,,A*43
$GPVTG,32.03,T,,M,0.06,N,0.1,K,A*38
$GPGGA,184030.000,3748.8026,N,12217.8694,W,1,05,2.2,36.8,M,-25.1,M,,0000*53
$GPGSA,A,3,26,15,28,17,11,,,,,,,,3.1,2.2,2.2*3C
$GPRMC,184030.000,A,3748.8026,N,12217.8694,W,0.31,150.76,270812,,,A*7B
$GPVTG,150.76,T,,M,0.31,N,0.6,K,A*0C
$GPGGA,184031.000,3748.8026,N,12217.8694,W,1,05,2.2,35.9,M,-25.1,M,,0000*50
$GPGSA,A,3,26,15,28,17,11,,,,,,,,3.1,2.2,2.2*3C
$GPGSV,3,1,12,17,80,159,27,28,57,039,35,26,45,233,34,08,41,120,33*74
$GPGSV,3,2,12,15,33,287,34,27,28,314,32,01,20,058,27,09,13,313,34*7B
$GPGSV,3,3,12,11,10,044,26,04,09,166,28,07,04,130,31,48,44,197,24*7F
$GPRMC,184031.000,A,3748.8026,N,12217.8694,W,0.57,176.32,270812,,,A*7E
$GPVTG,176.32,T,,M,0.57,N,1.1,K,A*0E
$GPGGA,184032.000,3748.8029,N,12217.8695,W,1,05,2.2,35.8,M,-25.1,M,,0000*5C
$GPGSA,A,3,26,15,28,17,11,,,,,,,,3.1,2.2,2.2*3C
$GPRMC,184032.000,A,3748.8029,N,12217.8695,W,0.40,224.00,270812,,,A*70
$GPVTG,224.00,T,,M,0.40,N,0.7,K,A*0A
$GPGGA,184033.000,3748.8033,N,12217.8695,W,1,05,2.2,36.7,M,-25.1,M,,0000*5A
$GPGSA,A,3,26,15,28,17,11,,,,,,,,3.1,2.2,2.2*3C
$GPRMC,184033.000,A,3748.8033,N,12217.8695,W,0.22,177.23,270812,,,A*7A
$GPVTG,177.23,T,,M,0.22,N,0.4,K,A*09
$GPGGA,184034.000,3748.8037,N,12217.8699,W,1,05,2.2,39.2,M,-25.1,M,,0000*5F
$GPGSA,A,3,26,15,28,17,11,,,,,,,,3.1,2.2,2.2*3C
$GPRMC,184034.000,A,3748.8037,N,12217.8699,W,0.49,181.69,270812,,,A*7F
$GPVTG,181.69,T,,M,0.49,N,0.9,K,A*0E
$GPGGA,184035.000,3748.8042,N,12217.8706,W,1,05,2.2,41.4,M,-25.1,M,,0000*52
$GPGSA,A,3,26,15,28,17,11,,,,,,,,3.1,2.2,2.2*3C
$GPRMC,184035.000,A,3748.8042,N,12217.8706,W,0.83,231.72,270812,,,A*7F
$GPVTG,231.72,T,,M,0.83,N,1.5,K,A*07
$GPGGA,184036.000,3748.8046,N,12217.8715,W,1,05,2.2,41.9,M,-25.1,M,,0000*5A
$GPGSA,A,3,26,15,28,17,11,,,,,,,,3.1,2.2,2.2*3C
$GPGSV,3,1,12,17,80,159,23,28,57,039,29,26,45,233,37,08,41,120,18*77
$GPGSV,3,2,12,15,33,287,37,27,28,314,34,01,20,058,29,09,13,313,34*70
$GPGSV,3,3,12,11,10,044,30,04,09,166,29,07,04,130,24,48,44,197,37*7F
$GPRMC,184036.000,A,3748.8046,N,12217.8715,W,0.41,303.47,270812,,,A*72
$GPGGA,184037.000,3748.8047,N,12217.8721,W,1,05,2.2,42.8,M,-25.1,M,,0000*5F
$GPGSA,A,3,26,15,28,17,11,,,,,,,,3.1,2.2,2.2*3C
$GPRMC,184037.000,A,3748.8047,N,12217.8721,W,0.44,250.13,270812,,,A*76
$GPVTG,250.13,T,,M,0.44,N,0.8,K,A*00
$GPGGA,184038.000,3748.8044,N,12217.8720,W,1,05,2.2,44.0,M,-25.1,M,,0000*5C
$GPGSA,A,3,26,15,28,17,11,,,,,,,,3.1,2.2,2.2*3C
$GPRMC,184038.000,A,3748.8044,N,12217.8720,W,1.26,114.50,270812,,,A*7A
$GPVTG,114.50,T,,M,1.26,N,2.3,K,A*08
$GPGGA,184039.000,3748.8039,N,12217.8717,W,1,05,2.2,44.4,M,-25.1,M,,0000*57
$GPGSA,A,3,26,15,28,17,11,,,,,,,,3.1,2.2,2.2*3C
$GPRMC,184039.000,A,3748.8039,N,12217.8717,W,1.30,147.80,270812,,,A*79
$GPVTG,147.80,T,,M,1.30,N,2.4,K,A*03
$GPGGA,184040.000,3748.8032,N,12217.8712,W,1,05,2.2,44.3,M,-25.1,M,,0000*50
$GPGSA,A,3,26,15,28,17,11,,,,,,,,3.1,2.2,2.2*3C
$GPRMC,184040.000,A,3748.8032,N,12217.8712,W,0.49,154.43,270812,,,A*7B
$GPVTG,154.43,T,,M,0.49,N,0.9,K,A*0E
$GPGGA,184041.000,3748.8035,N,12217.8712,W,1,05,2.2,43.2,M,-25.1,M,,0000*50
$GPGSA,A,3,26,15,28,17,11,,,,,,,,3.1,2.2,2.2*3C
$GPGSV,3,1,12,17,80,159,28,28,57,039,33,26,45,233,30,08,41,120,29*72
$GPGSV,3,2,12,15,33,287,33,27,28,314,34,01,20,058,37,09,13,313,35*7A
$GPGSV,3,3,12,11,10,044,35,04,09,166,28,07,04,130,28,48,44,197,29*78
$GPRMC,184041.000,A,3748.8035,N,12217.8712,W,0.45,282.07,270812,,,A*79
$GPVTG,282.07,T,,M,0.45,N,0.8,K,A*0B
$GPGGA,184042.000,3748.8035,N,12217.8710,W,1,05,2.2,41.6,M,-25.1,M,,0000*57
$GPGSA,A,3,26,15,28,17,11,,,,,,,,3.1,2.2,2.2*3C
$GPRMC,184042.000,A,3748.8035,N,12217.8710,W,0.21,134.72,270812,,,A*76
$GPVTG,134.72,T,,M,0.21,N,0.4,K,A*09
$GPGGA,184043.000,3748.8038,N,12217.8712,W,1,05,2.2,39.6,M,-25.1,M,,0000*56
$GPGSA,A,3,26,15,28,17,11,,,,,,,,3.1,2.2,2.2*3C
$GPRMC,184043.000,A,3748.8038,N,12217.8712,W,0.04,266.60,270812,,,A*78
$GPVTG,266.60,T,,M,0.04,N,0.1,K,A*0C
$GPGGA,184044.000,3748.8040,N,12217.8715,W,1,05,2.2,37.5,M,-25.1,M,,0000*54
$GPGSA,A,3,26,15,28,17,11,,,,,,,,3.1,2.2,2.2*3C
$GPRMC,184044.000,A,3748.8040,N,12217.8715,W,0.28,301.51,270812,,,A*7B
$GPVTG,301.51,T,,M,0.28,N,0.5,K,A*04
$GPGGA,184045.000,3748.8045,N,12217.8715,W,1,05,2.2,37.4,M,-25.1,M,,0000*51
$GPGSA,A,3,26,15,28,17,11,,,,,,,,3.1,2.2,2.2*3C
$GPRMC,184045.000,A,3748.8045,N,12217.8715,W,0.13,222.60,270812,,,A*75
$GPVTG,222.60,T,,M,0.13,N,0.2,K,A*09
$GPGGA,184046.000,3748.8051,N,12217.8715,W,1,05,2.2,37.3,M,-25.1,M,,0000*50
$GPGSA,A,3,26,15,28,17,11,,,,,,,,3.1,2.2,2.2*3C
$GPGSV,3,1,12,17,80,159,26,28,57,039,33,26,45,233,25,08,41,120,30*70
$GPGSV,3,2,12,15,33,287,30,27,28,314,31,01,20,058,37,09,13,313,35*7C
$GPGSV,3,3,12,11,10,044,35,04,09,166,19,07,04,130,24,48,44,197,27*78
$GPRMC,184046.000,A,3748.8051,N,12217.8715,W,0.07,345.79,270812,,,A*7E
$GPVTG,345.79,T,,M,0.07,N,0.1,K,A*07
$GPGGA,184047.000,3748.8053,N,12217.8714,W,1,05,2.2,36.7,M,-25.1,M,,0000*57
$GPGSA,A,3,26,15,28,17,11,,,,,,,,3.1,2.2,2.2*3C
$GPRMC,184047.000,A,3748.8053,N,12217.8714,W,0.28,174.82,270812,,,A*75
$GPVTG,174.82,T,,M,0.28,N,0.5,K,A*0A
$GPGGA,184048.000,3748.8051,N,12217.8712,W,1,05,2.2,35.8,M,-25.1,M,,0000*50
$GPGSA,A,3,26,15,28,17,11,,,,,,,,3.1,2.2,2.2*3C
$GPRMC,184048.000,A,3748.8051,N,12217.8712,W,0.55,185.16,270812,,,A*77
$GPVTG,185.16,T,,M,0.55,N,1.0,K,A*07
$GPGGA,184049.000,3748.8047,N,12217.8712,W,1,05,2.2,34.6,M,-25.1,M,,0000*59
$GPGSA,A,3,26,15,28,17,11,,,,,,,,3.1,2.2,2.2*3C
$GPRMC,184049.000,A,3748.8047,N,12217.8712,W,1.05,175.14,270812,,,A*78
$GPVTG,175.14,T,,M,1.05,N,1.9,K,A*07
$GPGGA,184050.000,3748.8049,N,12217.8714,W,1,05,2.2,36.1,M,-25.1,M,,0000*5C
$GPGSA,A,3,26,15,28,17,11,,,,,,,,3.1,2.2,2.2*3C
$GPRMC,184050.000,A,3748.8049,N,12217.8714,W,0.97,181.18,270812,,,A*75
$GPVTG,181.18,T,,M,0.97,N,1.8,K,A*0B
$GPGGA,184051.000,3748.8053,N,12217.8714,W,1,05,2.2,37.0,M,-25.1,M,,0000*56
$GPGSA,A,3,26,15,28,17,11,,,,,,,,3.1,2.2,2.2*3C
$GPGSV,3,1,11,17,80,159,26,28,57,039,34,26,45,233,30,08,41,120,31*71
$GPGSV,3,2,11,15,33,287,30,27,28,314,34,01,20,058,37,09,13,313,35*7A
$GPGSV,3,3,11,11,10,044,30,04,09,166,26,07,04,130,32*43
$GPRMC,184051.000,A,3748.8053,N,12217.8714,W,0.36,173.03,270812,,,A*73
$GPGGA,184052.000,3748.8056,N,12217.8714,W,1,05,2.2,37.4,M,-25.1,M,,0000*54
$GPGSA,A,3,26,15,28,17,11,,,,,,,,3.1,2.2,2.2*3C
$GPRMC,184052.000,A,3748.8056,N,12217.8714,W,0.93,251.12,270812,,,A*79
$GPVTG,251.12,T,,M,0.93,N,1.7,K,A*04
$GPGGA,184053.000,3748.8059,N,12217.8715,W,1,05,2.2,37.8,M,-25.1,M,,0000*57
$GPGSA,A,3,26,15,28,17,11,,,,,,,,3.1,2.2,2.2*3C
$GPRMC,184053.000,A,3748.8059,N,12217.8715,W,0.29,321.27,270812,,,A*77
$GPVTG,321.27,T,,M,0.29,N,0.5,K,A*06
$GPGGA,184054.000,3748.8062,N,12217.8715,W,1,05,2.2,38.0,M,-25.1,M,,0000*5F
$GPGSA,A,3,26,15,28,17,11,,,,,,,,3.1,2.2,2.2*3C
$GPRMC,184054.000,A,3748.8062,N,12217.8715,W,0.27,165.20,270812,,,A*73
$GPVTG,165.20,T,,M,0.27,N,0.5,K,A*0D
$GPGGA,184055.000,3748.8058,N,12217.8711,W,1,05,2.2,37.0,M,-25.1,M,,0000*5C
$GPGSA,A,3,26,15,28,17,11,,,,,,,,3.1,2.2,2.2*3C
$GPRMC,184055.000,A,3748.8058,N,12217.8711,W,0.35,84.49,270812,,,A*4D
$GPVTG,84.49,T,,M,0.35,N,0.7,K,A*3D
$GPGGA,184056.000,3748.8054,N,12217.8706,W,1,05,2.2,35.7,M,-25.1,M,,0000*50
$GPGSA,A,3,26,15,28,17,11,,,,,,,,3.1,2.2,2.2*3C
$GPGSV,3,1,11,17,80,159,24,28,57,039,31,26,45,233,24,08,41,120,21*72
$GPGSV,3,2,11,15,33,287,34,27,28,314,36,01,20,058,25,09,13,313,34*7E
$GPGSV,3,3,11,11,10,044,26,04,09,166,18,07,04,130,19*40
$GPRMC,184056.000,A,3748.8054,N,12217.8706,W,0.22,98.20,270812,,,A*40
$GPVTG,98.20,T,,M,0.22,N,0.4,K,A*3A
$GPGGA,184057.000,3748.8047,N,12217.8703,W,1,05,2.2,34.7,M,-25.1,M,,0000*57
$GPGSA,A,3,26,15,28,17,11,,,,,,,,3.1,2.2,2.2*3C
$GPRMC,184057.000,A,3748.8047,N,12217.8703,W,0.47,173.58,270812,,,A*7E
$GPVTG,173.58,T,,M,0.47,N,0.9,K,A*0F
$GPGGA,184058.000,3748.8042,N,12217.8703,W,1,05,2.2,35.7,M,-25.1,M,,0000*5C
$GPGSA,A,3,26,15,28,17,11,,,,,,,,3.1,2.2,2.2*3C
$GPRMC,184058.000,A,3748.8042,N,12217.8703,W,0.46,172.80,270812,,,A*71
$GPVTG,172.80,T,,M,0.46,N,0.8,K,A*0B
$GPGGA,184059.000,3748.8038,N,12217.8702,W,1,05,2.2,36.4,M,-25.1,M,,0000*51
$GPGSA,A,3,26,15,28,17,11,,,,,,,,3.1,2.2,2.2*3C
$GPRMC,184059.000,A,3748.8038,N,12217.8702,W,0.42,163.76,270812,,,A*71
$GPVTG,163.76,T,,M,0.42,N,0.8,K,A*06
$GPGGA,184100.000,3748.8045,N,12217.8706,W,1,05,2.2,38.3,M,-25.1,M,,0000*5B
$GPGSA,A,3,26,15,28,17,11,,,,,,,,3.1,2.2,2.2*3C
$GPRMC,184100.000,A,3748.8045,N,12217.8706,W,0.14,113.09,270812,,,A*7E
$GPVTG,113.09,T,,M,0.14,N,0.3,K,A*01
$GPGGA,184101.000,3748.8042,N,12217.8707,W,1,05,2.2,37.6,M,-25.1,M,,0000*56
$GPGSA,A,3,26,15,28,17,11,,,,,,,,3.1,2.2,2.2*3C
$GPGSV,3,1,12,17,80,159,23,28,57,039,30,26,45,233,34,08,41,120,26*71
$GPGSV,3,2,12,15,33,287,40,27,28,314,35,01,20,058,28,09,13,313,39*7D
$GPGSV,3,3,12,11,10,044,27,04,09,166,29,07,04,130,19,48,44,197,26*77
$GPRMC,184101.000,A,3748.8042,N,12217.8707,W,0.62,216.97,270812,,,A*79
$GPVTG,216.97,T,,M,0.62,N,1.1,K,A*02
$GPGGA,184102.000,3748.8040,N,12217.8710,W,1,05,2.2,38.5,M,-25.1,M,,0000*5D
$GPGSA,A,3,26,15,28,17,11,,,,,,,,3.1,2.2,2.2*3C
$GPRMC,184102.000,A,3748.8040,N,12217.8710,W,0.48,203.94,270812,,,A*71
$GPVTG,203.94,T,,M,0.48,N,0.9,K,A*04
$GPGGA,184103.000,3748.8032,N,12217.8712,W,1,05,2.2,37.4,M,-25.1,M,,0000*55
$GPGSA,A,3,26,15,28,17,11,,,,,,,,3.1,2.2,2.2*3C
$GPRMC,184103.000,A,3748.8032,N,12217.8712,W,0.35,242.99,270812,,,A*75
$GPVTG,242.99,T,,M,0.35,N,0.7,K,A*08
$GPGGA,184104.000,3748.8027,N,12217.8715,W,1,05,2.2,36.6,M,-25.1,M,,0000*52
$GPGSA,A,3,26,15,28,17,11,,,,,,,,3.1,2.2,2.2*3C
$GPRMC,184104.000,A,3748.8027,N,12217.8715,W,0.38,182.15,270812,,,A*77
$GPVTG,182.15,T,,M,0.38,N,0.7,K,A*0E
$GPGGA,184105.000,3748.8029,N,12217.8716,W,1,05,2.2,36.6,M,-25.1,M,,0000*5E
$GPGSA,A,3,26,15,28,17,11,,,,,,,,3.1,2.2,2.2*3C
$GPRMC,184105.000,A,3748.8029,N,12217.8716,W,0.27,331.57,270812,,,A*79
$GPVTG,331.57,T,,M,0.27,N,0.5,K,A*0E
$GPGGA,184106.000,3748.8028,N,12217.8714,W,1,05,2.2,37.2,M,-25.1,M,,0000*5B
$GPGSA,A,3,26,15,28,17,11,,,,,,,,3.1,2.2,2.2*3C
$GPGSV,3,1,12,17,80,159,25,28,57,039,25,26,45,233,30,08,41,120,27*76
$GPGSV,3,2,12,15,33,287,39,27,28,314,36,01,20,058,27,09,13,313,40*71
$GPGSV,3,3,12,11,10,044,27,04,09,166,28,07,04,130,20,48,44,197,28*72
$GPVTG,145.11,T,,M,0.58,N,1.1,K,A*00
$GPGGA,184107.000,3748.8027,N,12217.8713,W,1,05,2.2,37.3,M,-25.1,M,,0000*53
$GPGSA,A,3,26,15,28,17,11,,,,,,,,3.1,2.2,2.2*3C
$GPRMC,184107.000,A,3748.8027,N,12217.8713,W,0.54,128.93,270812,,,A*76
$GPVTG,128.93,T,,M,0.54,N,1.0,K,A*0C
$GPGGA,184108.000,3748.8032,N,12217.8714,W,1,05,2.2,38.1,M,-25.1,M,,0000*52
$GPGSA,A,3,26,15,28,17,11,,,,,,,,3.1,2.2,2.2*3C
$GPRMC,184108.000,A,3748.8032,N,12217.8714,W,0.83,78.79,270812,,,A*40
$GPVTG,78.79,T,,M,0.83,N,1.5,K,A*33
$GPGGA,184109.000,3748.8034,N,12217.8710,W,1,03,2.7,38.6,M,-25.1,M,,0000*55
$GPGSA,A,2,15,28,17,,,,,,,,,,2.9,2.7,1.0*34
$GPRMC,184109.000,A,3748.8034,N,12217.8710,W,0.68,19.65,270812,,,A*4C
$GPVTG,19.65,T,,M,0.68,N,1.3,K,A*3A
$GPGGA,184110.000,3748.8042,N,12217.8713,W,1,05,2.2,39.5,M,-25.1,M,,0000*5E
$GPGSA,A,3,26,15,28,17,11,,,,,,,,3.1,2.2,2.2*3C
$GPRMC,184110.000,A,3748.8042,N,12217.8713,W,1.38,322.45,270812,,,A*7B
$GPVTG,322.45,T,,M,1.38,N,2.6,K,A*01
$GPGGA,184111.000,3748.8042,N,12217.8710,W,1,05,2.2,40.6,M,-25.1,M,,0000*51
$GPGSA,A,3,26,15,28,17,11,,,,,,,,3.1,2.2,2.2*3C
$GPGSV,3,1,11,17,80,159,28,28,57,039,33,26,45,233,26,08,41,120,35*7B
$GPGSV,3,2,11,15,33,287,21,27,28,314,21,01,20,058,36,09,13,313,22*79
$GPGSV,3,3,11,11,10,044,34,04,09,166,30,07,04,130,33*41
$GPRMC,184111.000,A,3748.8042,N,12217.8710,W,1.38,319.22,270812,,,A*70
$GPVTG,319.22,T,,M,1.38,N,2.6,K,A*08
$GPGGA,184112.000,3748.8035,N,12217.8704,W,1,05,2.2,39.0,M,-25.1,M,,0000*5F
$GPGSA,A,3,26,15,28,17,11,,,,,,,,3.1,2.2,2.2*3C
$GPRMC,184112.000,A,3748.8035,N,12217.8704,W,0.69,186.40,270812,,,A*73
$GPVTG,186.40,T,,M,0.69,N,1.3,K,A*0B
$GPGGA,184113.000,3748.8035,N,12217.8699,W,1,05,2.2,37.9,M,-25.1,M,,0000*5C
$GPGSA,A,3,26,15,28,17,11,,,,,,,,3.1,2.2,2.2*3C
$GPRMC,184113.000,A,3748.8035,N,12217.8699,W,1.94,151.80,270812,,,A*72
$GPVTG,151.80,T,,M,1.94,N,3.6,K,A*09
$GPGGA,184114.000,3748.8043,N,12217.8699,W,1,05,2.2,38.8,M,-25.1,M,,0000*54
$GPGSA,A,3,26,15,28,17,11,,,,,,,,3.1,2.2,2.2*3C
$GPRMC,184114.000,A,3748.8043,N,12217.8699,W,1.53,113.78,270812,,,A*7E
$GPVTG,113.78,T,,M,1.53,N,2.8,K,A*0C
$GPGGA,184115.000,3748.8049,N,12217.8697,W,1,05,2.2,40.2,M,-25.1,M,,0000*54
$GPGSA,A,3,26,15,28,17,11,,,,,,,,3.1,2.2,2.2*3C
$GPRMC,184115.000,A,3748.8049,N,12217.8697,W,1.33,109.90,270812,,,A*70
$GPVTG,109.90,T,,M,1.33,N,2.5,K,A*0A
$GPGGA,184116.000,3748.8053,N,12217.8694,W,1,05,2.2,40.4,M,-25.1,M,,0000*59
$GPGSA,A,3,26,15,28,17,11,,,,,,,,3.1,2.2,2.2*3C
$GPGSV,3,1,12,17,80,159,23,28,57,039,24,26,45,233,25,08,41,120,33*70
$GPGSV,3,2,12,15,33,287,23,27,28,314,23,01,20,058,36,09,13,313,21*79
$GPGSV,3,3,12,11,10,044,34,04,09,166,31,07,04,130,31,48,44,197,31*70
$GPRMC,184116.000,A,3748.8053,N,12217.8694,W,0.61,99.30,270812,,,A*4F
$GPVTG,99.30,T,,M,0.61,N,1.1,K,A*39
$GPGGA,184117.000,3748.8040,N,12217.8683,W,1,05,2.2,39.7,M,-25.1,M,,0000*51
$GPGSA,A,3,26,15,28,17,11,,,,,,,,3.1,2.2,2.2*3C
$GPRMC,184117.000,A,3748.8040,N,12217.8683,W,1.46,108.61,270812,,,A*73
$GPVTG,108.61,T,,M,1.46,N,2.7,K,A*05
$GPGGA,184118.000,3748.8022,N,12217.8669,W,1,05,2.2,38.7,M,-25.1,M,,0000*5F
$GPGSA,A,3,26,15,28,17,11,,,,,,,,3.1,2.2,2.2*3C
$GPRMC,184118.000,A,3748.8022,N,12217.8669,W,2.96,125.23,270812,,,A*7B
$GPVTG,125.23,T,,M,2.96,N,5.5,K,A*07
$GPGGA,184119.000,3748.8012,N,12217.8657,W,1,05,2.2,38.6,M,-25.1,M,,0000*51
$GPGSA,A,3,26,15,28,17,11,,,,,,,,3.1,2.2,2.2*3C
$GPRMC,184119.000,A,3748.8012,N,12217.8657,W,2.99,129.23,270812,,,A*77
$GPVTG,129.23,T,,M,2.99,N,5.5,K,A*04
$GPGGA,184120.000,3748.8005,N,12217.8650,W,1,05,2.2,38.5,M,-25.1,M,,0000*59
$GPGSA,A,3,26,15,28,17,11,,,,,,,,3.1,2.2,2.2*3C
$GPRMC,184120.000,A,3748.8005,N,12217.8650,W,1.95,123.42,270812,,,A*7E
$GPVTG,123.42,T,,M,1.95,N,3.6,K,A*03
$GPGGA,184121.000,3748.7998,N,12217.8644,W,1,05,2.2,38.1,M,-25.1,M,,0000*5B
$GPGSA,A,3,26,15,28,17,11,,,,,,,,3.1,2.2,2.2*3C
$GPGSV,3,1,12,17,80,157,32,28,56,040,25,26,45,232,35,08,41,120,36*75
$GPGSV,3,2,12,15,33,286,29,27,28,314,22,01,20,057,28,09,13,314,22*77
$GPGSV,3,3,12,11,10,044,32,04,10,166,39,07,04,130,33,48,44,197,37*72
$GPRMC,184121.000,A,3748.7998,N,12217.8644,W,2.35,123.64,270812,,,A*75
$GPGGA,184122.000,3748.7990,N,12217.8641,W,1,05,2.2,36.9,M,-25.1,M,,0000*53
$GPGSA,A,3,26,15,28,17,11,,,,,,,,3.1,2.2,2.2*3C
$GPRMC,184122.000,A,3748.7990,N,12217.8641,W,2.12,127.29,270812,,,A*73
$GPVTG,127.29,T,,M,2.12,N,3.9,K,A*09
$GPGGA,184123.000,3748.7979,N,12217.8633,W,1,05,2.2,36.2,M,-25.1,M,,0000*5B
$GPGSA,A,3,26,15,28,17,11,,,,,,,,3.1,2.2,2.2*3C
$GPRMC,184123.000,A,3748.7979,N,12217.8633,W,2.83,128.46,270812,,,A*7E
$GPVTG,128.46,T,,M,2.83,N,5.2,K,A*0A
$GPGGA,184124.000,3748.7970,N,12217.8623,W,1,05,2.2,36.8,M,-25.1,M,,0000*5E
$GPGSA,A,3,26,15,28,17,11,,,,,,,,3.1,2.2,2.2*3C
$GPRMC,184124.000,A,3748.7970,N,12217.8623,W,2.98,127.70,270812,,,A*71
$GPVTG,127.70,T,,M,2.98,N,5.5,K,A*0D
$GPGGA,184125.000,3748.7969,N,12217.8617,W,1,05,2.2,38.4,M,-25.1,M,,0000*52
$GPGSA,A,3,26,15,28,17,11,,,,,,,,3.1,2.2,2.2*3C
$GPRMC,184125.000,A,3748.7969,N,12217.8617,W,2.54,123.66,270812,,,A*7C
$GPVTG,123.66,T,,M,2.54,N,4.7,K,A*0D
$GPGGA,184126.000,3748.7968,N,12217.8613,W,1,05,2.2,39.4,M,-25.1,M,,0000*55
$GPGSA,A,3,26,15,28,17,11,,,,,,,,3.1,2.2,2.2*3C
$GPGSV,3,1,12,17,80,157,31,28,56,040,25,26,45,232,35,08,41,120,31*71
$GPGSV,3,2,12,15,33,286,27,27,28,314,21,01,20,057,19,09,13,314,23*79
$GPGSV,3,3,12,11,10,044,22,04,10,166,32,07,04,130,27,48,44,197,37*7D
$GPRMC,184126.000,A,3748.7968,N,12217.8613,W,2.60,114.84,270812,,,A*75
$GPVTG,114.84,T,,M,2.60,N,4.8,K,A*0D
$GPGGA,184127.000,3748.7965,N,12217.8605,W,1,05,2.2,40.5,M,-25.1,M,,0000*51
$GPGSA,A,3,26,15,28,17,11,,,,,,,,3.1,2.2,2.2*3C
$GPRMC,184127.000,A,3748.7965,N,12217.8605,W,2.19,115.50,270812,,,A*78
$GPVTG,115.50,T,,M,2.19,N,4.1,K,A*02
$GPGGA,184128.000,3748.7967,N,12217.8605,W,1,05,2.2,42.2,M,-25.1,M,,0000*59
$GPGSA,A,3,26,15,28,17,11,,,,,,,,3.1,2.2,2.2*3C
$GPRMC,184128.000,A,3748.7967,N,12217.8605,W,1.23,140.07,270812,,,A*7D
$GPVTG,140.07,T,,M,1.23,N,2.3,K,A*0E
$GPGGA,184129.000,3748.7966,N,12217.8605,W,1,05,2.2,42.8,M,-25.1,M,,0000*53
$GPGSA,A,3,26,15,28,17,11,,,,,,,,3.1,2.2,2.2*3C
$GPRMC,184129.000,A,3748.7966,N,12217.8605,W,0.84,69.26,270812,,,A*48
$GPVTG,69.26,T,,M,0.84,N,1.5,K,A*3E
$GPGGA,184130.000,3748.7968,N,12217.8604,W,1,05,2.2,44.0,M,-25.1,M,,0000*5A
$GPGSA,A,3,26,15,28,17,11,,,,,,,,3.1,2.2,2.2*3C
$GPRMC,184130.000,A,3748.7968,N,12217.8604,W,1.22,96.77,270812,,,A*46
$GPVTG,96.77,T,,M,1.22,N,2.3,K,A*32
$GPGGA,184131.000,3748.7970,N,12217.8600,W,1,05,2.2,46.1,M,-25.1,M,,0000*55
$GPGSA,A,3,26,15,28,17,11,,,,,,,,3.1,2.2,2.2*3C
$GPGSV,3,1,12,17,80,157,29,28,56,040,25,26,45,232,34,08,41,120,33*7B
$GPGSV,3,2,12,15,33,286,27,27,28,314,20,01,20,057,18,09,13,314,22*78
$GPGSV,3,3,12,11,10,044,20,04,10,166,34,07,04,130,21,48,44,197,35*7D
$GPRMC,184131.000,A,3748.7970,N,12217.8600,W,0.74,110.21,270812,,,A*74
$GPVTG,110.21,T,,M,0.74,N,1.4,K,A*08
$GPGGA,184132.000,3748.7971,N,12217.8598,W,1,05,2.2,47.9,M,-25.1,M,,0000*5C
$GPGSA,A,3,26,15,28,17,11,,,,,,,,3.1,2.2,2.2*3C
$GPRMC,184132.000,A,3748.7971,N,12217.8598,W,0.83,56.45,270812,,,A*4D
$GPVTG,56.45,T,,M,0.83,N,1.5,K,A*30
$GPGGA,184133.000,3748.7973,N,12217.8595,W,1,05,2.2,48.5,M,-25.1,M,,0000*51
$GPGSA,A,3,26,15,28,17,11,,,,,,,,3.1,2.2,2.2*3C
$GPRMC,184133.000,A,3748.7973,N,12217.8595,W,1.71,71.82,270812,,,A*41
$GPVTG,71.82,T,,M,1.71,N,3.2,K,A*37
$GPGGA,184134.000,3748.7965,N,12217.8587,W,1,05,2.2,48.9,M,-25.1,M,,0000*5E
$GPGSA,A,3,26,15,28,17,11,,,,,,,,3.1,2.2,2.2*3C
$GPRMC,184134.000,A,3748.7965,N,12217.8587,W,1.03,77.45,270812,,,A*4A
$GPVTG,77.45,T,,M,1.03,N,1.9,K,A*36
$GPGGA,184135.000,3748.7963,N,12217.8586,W,1,05,2.2,50.6,M,-25.1,M,,0000*5E
$GPGSA,A,3,26,15,28,17,11,,,,,,,,3.1,2.2,2.2*3C
$GPRMC,184135.000,A,3748.7963,N,12217.8586,W,0.36,98.74,270812,,,A*48
$GPVTG,98.74,T,,M,0.36,N,0.7,K,A*3D
$GPGGA,184136.000,3748.7958,N,12217.8583,W,1,05,2.2,51.6,M,-25.1,M,,0000*51
$GPGSA,A,3,26,15,28,17,11,,,,,,,,3.1,2.2,2.2*3C
$GPGSV,3,1,12,17,80,157,26,28,56,040,24,26,45,232,33,08,41,120,23*73
$GPGSV,3,2,12,15,33,286,24,27,28,314,20,01,20,057,18,09,13,314,21*78
$GPGSV,3,3,12,11,10,044,20,04,10,166,33,07,04,130,27,48,44,197,32*7B
$GPVTG,95.98,T,,M,1.13,N,2.1,K,A*30
$GPGGA,184137.000,3748.7951,N,12217.8572,W,1,05,2.2,51.8,M,-25.1,M,,0000*59
$GPGSA,A,3,26,15,28,17,11,,,,,,,,3.1,2.2,2.2*3C
$GPRMC,184137.000,A,3748.7951,N,12217.8572,W,1.32,70.54,270812,,,A*41
$GPVTG,70.54,T,,M,1.32,N,2.4,K,A*3D
$GPGGA,184138.000,3748.7945,N,12217.8561,W,1,05,2.2,51.2,M,-25.1,M,,0000*5B
$GPGSA,A,3,26,15,28,17,11,,,,,,,,3.1,2.2,2.2*3C
$GPRMC,184138.000,A,3748.7945,N,12217.8561,W,1.94,107.31,270812,,,A*77
$GPVTG,107.31,T,,M,1.94,N,3.6,K,A*00
$GPGGA,184139.000,3748.7943,N,12217.8547,W,1,05,2.2,50.8,M,-25.1,M,,0000*53
$GPGSA,A,3,26,15,28,17,11,,,,,,,,3.1,2.2,2.2*3C
$GPRMC,184139.000,A,3748.7943,N,12217.8547,W,2.78,113.79,270812,,,A*7C
$GPVTG,113.79,T,,M,2.78,N,5.2,K,A*0A
$GPGGA,184140.000,3748.7929,N,12217.8525,W,1,05,2.2,49.0,M,-25.1,M,,0000*55
$GPGSA,A,3,26,15,28,17,11,,,,,,,,3.1,2.2,2.2*3C
$GPRMC,184140.000,A,3748.7929,N,12217.8525,W,2.89,113.35,270812,,,A*7C
$GPVTG,113.35,T,,M,2.89,N,5.4,K,A*0A
$GPGGA,184141.000,3748.7926,N,12217.8519,W,1,05,2.2,48.0,M,-25.1,M,,0000*55
$GPGSA,A,3,26,15,28,17,11,,,,,,,,3.1,2.2,2.2*3C
$GPGSV,3,1,12,17,80,157,32,28,56,040,24,26,45,232,34,08,41,120,31*72
$GPGSV,3,2,12,15,33,286,25,27,28,314,20,01,20,057,23,09,13,314,20*70
$GPGSV,3,3,12,11,10,044,22,04,10,166,40,07,04,130,21,48,44,197,37*7E
$GPRMC,184141.000,A,3748.7926,N,12217.8519,W,2.79,118.21,270812,,,A*7C
$GPVTG,118.21,T,,M,2.79,N,5.2,K,A*0D
$GPGGA,184142.000,3748.7921,N,12217.8512,W,1,05,2.2,46.8,M,-25.1,M,,0000*5C
$GPGSA,A,3,26,15,28,17,11,,,,,,,,3.1,2.2,2.2*3C
$GPRMC,184142.000,A,3748.7921,N,12217.8512,W,3.29,121.42,270812,,,A*78
$GPVTG,121.42,T,,M,3.29,N,6.1,K,A*06
$GPGGA,184143.000,3748.7914,N,12217.8503,W,1,05,2.2,45.9,M,-25.1,M,,0000*59
$GPGSA,A,3,26,15,28,17,11,,,,,,,,3.1,2.2,2.2*3C
$GPRMC,184143.000,A,3748.7914,N,12217.8503,W,2.64,111.29,270812,,,A*79
$GPVTG,111.29,T,,M,2.64,N,4.9,K,A*0A
$GPGGA,184144.000,3748.7914,N,12217.8500,W,1,05,2.2,46.4,M,-25.1,M,,0000*53
$GPGSA,A,3,26,15,28,17,11,,,,,,,,3.1,2.2,2.2*3C
$GPRMC,184144.000,A,3748.7914,N,12217.8500,W,1.78,120.12,270812,,,A*79
$GPVTG,120.12,T,,M,1.78,N,3.3,K,A*03
$GPGGA,184145.000,3748.7910,N,12217.8497,W,1,05,2.2,46.0,M,-25.1,M,,0000*5D
$GPGSA,A,3,26,15,28,17,11,,,,,,,,3.1,2.2,2.2*3C
$GPRMC,184145.000,A,3748.7910,N,12217.8497,W,1.47,101.52,270812,,,A*78
$GPVTG,101.52,T,,M,1.47,N,2.7,K,A*0D
$GPGGA,184146.000,3748.7901,N,12217.8486,W,1,05,2.2,44.8,M,-25.1,M,,0000*54
$GPGSA,A,3,26,15,28,17,11,,,,,,,,3.1,2.2,2.2*3C
$GPGSV,3,1,12,17,80,157,31,28,56,040,24,26,45,232,34,08,41,120,31*71
$GPGSV,3,2,12,15,33,286,30,27,28,314,21,01,20,057,24,09,13,314,21*73
$GPGSV,3,3,12,11,10,044,22,04,10,166,31,07,04,130,30,48,44,197,37*78
$GPRMC,184146.000,A,3748.7901,N,12217.8486,W,2.39,126.98,270812,,,A*72
$GPVTG,126.98,T,,M,2.39,N,4.4,K,A*01
$GPGGA,184147.000,3748.7899,N,12217.8473,W,1,05,2.2,44.1,M,-25.1,M,,0000*56
$GPGSA,A,3,26,15,28,17,11,,,,,,,,3.1,2.2,2.2*3C
$GPRMC,184147.000,A,3748.7899,N,12217.8473,W,3.09,112.36,270812,,,A*78
$GPVTG,112.36,T,,M,3.09,N,5.7,K,A*02
$GPGGA,184148.000,3748.7897,N,12217.8461,W,1,05,2.2,42.7,M,-25.1,M,,0000*54
$GPGSA,A,3,26,15,28,17,11,,,,,,,,3.1,2.2,2.2*3C
$GPRMC,184148.000,A,3748.7897,N,12217.8461,W,2.27,117.97,270812,,,A*79
$GPVTG,117.97,T,,M,2.27,N,4.2,K,A*05
$GPGGA,184149.000,3748.7893,N,12217.8452,W,1,05,2.2,41.5,M,-25.1,M,,0000*50
$GPGSA,A,3,26,15,28,17,11,,,,,,,,3.1,2.2,2.2*3C
$GPRMC,184149.000,A,3748.7893,N,12217.8452,W,2.06,107.96,270812,,,A*7F
$GPVTG,107.96,T,,M,2.06,N,3.8,K,A*0B
$GPGGA,184150.000,3748.7890,N,12217.8442,W,1,05,2.2,40.4,M,-25.1,M,,0000*5A
$GPGSA,A,3,26,15,28,17,11,,,,,,,,3.1,2.2,2.2*3C
$GPRMC,184150.000,A,3748.7890,N,12217.8442,W,2.79,119.89,270812,,,A*7C
$GPVTG,119.89,T,,M,2.79,N,5.2,K,A*0E
$GPGGA,184151.000,3748.7880,N,12217.8430,W,1,05,2.2,39.2,M,-25.1,M,,0000*57
$GPGSA,A,3,26,15,28,17,11,,,,,,,,3.1,2.2,2.2*3C
$GPGSV,3,1,12,17,80,157,25,28,56,040,25,26,45,232,35,08,41,120,32*77
$GPGSV,3,2,12,15,33,286,29,27,28,314,22,01,20,057,20,09,13,314,22*7F
$GPGSV,3,3,12,11,10,044,22,04,10,166,32,07,04,130,27,51,43,156,34*7C
$GPVTG,122.81,T,,M,3.45,N,6.4,K,A*05
$GPGGA,184152.000,3748.7875,N,12217.8418,W,1,05,2.2,39.4,M,-25.1,M,,0000*52
$GPGSA,A,3,26,15,28,17,11,,,,,,,,3.1,2.2,2.2*3C
$GPRMC,184152.000,A,3748.7875,N,12217.8418,W,3.14,124.98,270812,,,A*7E
$GPVTG,124.98,T,,M,3.14,N,5.8,K,A*00
$GPGGA,184153.000,3748.7873,N,12217.8407,W,1,05,2.2,40.0,M,-25.1,M,,0000*51
$GPGSA,A,3,26,15,28,17,11,,,,,,,,3.1,2.2,2.2*3C
$GPRMC,184153.000,A,3748.7873,N,12217.8407,W,1.74,98.59,270812,,,A*48
$GPVTG,98.59,T,,M,1.74,N,3.2,K,A*33
$GPGGA,184154.000,3748.7862,N,12217.8393,W,1,05,2.2,39.5,M,-25.1,M,,0000*57
$GPGSA,A,3,26,15,28,17,11,,,,,,,,3.1,2.2,2.2*3C
$GPRMC,184154.000,A,3748.7862,N,12217.8393,W,2.81,126.28,270812,,,A*7E
$GPVTG,126.28,T,,M,2.81,N,5.2,K,A*0E
$GPGGA,184155.000,3748.7850,N,12217.8378,W,1,05,2.2,39.0,M,-25.1,M,,0000*57
$GPGSA,A,3,26,15,28,17,11,,,,,,,,3.1,2.2,2.2*3C
$GPRMC,184155.000,A,3748.7850,N,12217.8378,W,3.31,131.49,270812,,,A*70
$GPVTG,131.49,T,,M,3.31,N,6.1,K,A*05
$GPGGA,184156.000,3748.7839,N,12217.8371,W,1,05,2.2,38.5,M,-25.1,M,,0000*56
$GPGSA,A,3,26,15,28,17,11,,,,,,,,3.1,2.2,2.2*3C
$GPGSV,3,1,12,17,80,157,30,28,56,040,24,26,45,232,27,08,41,120,30*73
$GPGSV,3,2,12,15,33,286,26,27,28,314,22,01,20,057,21,09,13,314,22*71
$GPGSV,3,3,12,11,10,044,21,04,10,166,37,07,04,130,33,51,43,156,30*7B
$GPRMC,184156.000,A,3748.7839,N,12217.8371,W,3.38,139.77,270812,,,A*79
$GPVTG,139.77,T,,M,3.38,N,6.3,K,A*0B
$GPGGA,184157.000,3748.7837,N,12217.8368,W,1,05,2.2,40.1,M,-25.1,M,,0000*5A
$GPGSA,A,3,26,15,28,17,11,,,,,,,,3.1,2.2,2.2*3C
$GPRMC,184157.000,A,3748.7837,N,12217.8368,W,3.03,138.73,270812,,,A*73
$GPVTG,138.73,T,,M,3.03,N,5.6,K,A*00
$GPGGA,184158.000,3748.7831,N,12217.8356,W,1,05,2.2,40.3,M,-25.1,M,,0000*5C
$GPGSA,A,3,26,15,28,17,11,,,,,,,,3.1,2.2,2.2*3C
$GPRMC,184158.000,A,3748.7831,N,12217.8356,W,2.34,126.34,270812,,,A*7E
$GPVTG,126.34,T,,M,2.34,N,4.3,K,A*0D
$GPGGA,184159.000,3748.7824,N,12217.8337,W,1,05,2.2,40.6,M,-25.1,M,,0000*5B
$GPGSA,A,3,26,15,28,17,11,,,,,,,,3.1,2.2,2.2*3C
$GPRMC,184159.000,A,3748.7824,N,12217.8337,W,2.67,111.74,270812,,,A*7A
$GPVTG,111.74,T,,M,2.67,N,4.9,K,A*01
$GPGGA,184200.000,3748.7819,N,12217.8332,W,1,05,2.2,40.2,M,-25.1,M,,0000*5B
$GPGSA,A,3,26,15,28,17,11,,,,,,,,3.1,2.2,2.2*3C
$GPRMC,184200.000,A,3748.7819,N,12217.8332,W,2.29,125.50,270812,,,A*75
$GPVTG,125.50,T,,M,2.29,N,4.2,K,A*01
$GPGGA,184201.000,3748.7818,N,12217.8332,W,1,05,2.2,40.2,M,-25.1,M,,0000*5B
$GPGSA,A,3,26,15,28,17,11,,,,,,,,3.1,2.2,2.2*3C
$GPGSV,3,1,12,17,80,157,31,28,56,040,24,26,45,232,36,08,41,120,31*73
$GPGSV,3,2,12,15,33,286,28,27,28,314,22,01,20,057,20,09,13,314,23*7F
$GPGSV,3,3,12,11,10,044,22,04,10,166,38,07,04,130,33,51,43,156,35*72
$GPRMC,184201.000,A,3748.7818,N,12217.8332,W,2.49,127.88,270812,,,A*74
$GPVTG,127.88,T,,M,2.49,N,4.6,K,A*04
$GPGGA,184202.000,3748.7813,N,12217.8328,W,1,05,2.2,40.4,M,-25.1,M,,0000*5E
$GPGSA,A,3,26,15,28,17,11,,,,,,,,3.1,2.2,2.2*3C
$GPRMC,184202.000,A,3748.7813,N,12217.8328,W,2.83,131.84,270812,,,A*7A
$GPVTG,131.84,T,,M,2.83,N,5.2,K,A*0C
$GPGGA,184203.000,3748.7812,N,12217.8324,W,1,05,2.2,40.9,M,-25.1,M,,0000*5F
$GPGSA,A,3,26,15,28,17,11,,,,,,,,3.1,2.2,2.2*3C
$GPRMC,184203.000,A,3748.7812,N,12217.8324,W,3.09,122.86,270812,,,A*75
$GPVTG,122.86,T,,M,3.09,N,5.7,K,A*0A
$GPGGA,184204.000,3748.7777,N,12217.8284,W,1,07,1.0,34.2,M,-25.1,M,,0000*54
$GPGSA,A,3,08,26,15,28,17,11,04,,,,,,1.7,1.0,1.4*30
$GPRMC,184204.000,A,3748.7777,N,12217.8284,W,2.41,119.73,270812,,,A*7A
$GPVTG,119.73,T,,M,2.41,N,4.5,K,A*06
$GPGGA,184205.000,3748.7762,N,12217.8263,W,1,07,1.0,31.3,M,-25.1,M,,0000*5C
$GPGSA,A,3,08,26,15,28,17,11,04,,,,,,1.7,1.0,1.4*30
$GPRMC,184205.000,A,3748.7762,N,12217.8263,W,2.57,107.84,270812,,,A*76
$GPVTG,107.84,T,,M,2.57,N,4.8,K,A*0B
$GPGGA,184206.000,3748.7750,N,12217.8242,W,1,07,1.0,29.4,M,-25.1,M,,0000*53
$GPGSA,A,3,08,26,15,28,17,11,04,,,,,,1.7,1.0,1.4*30
$GPGSV,3,1,12,17,81,156,28,28,56,040,24,26,45,232,35,08,41,121,31*79
$GPGSV,3,2,12,15,33,286,28,27,29,315,22,01,20,057,19,09,14,314,22*73
$GPGSV,3,3,12,04,10,166,38,11,10,044,22,07,04,130,36,51,43,156,36*74
$GPVTG,102.88,T,,M,2.34,N,4.3,K,A*0C
$GPGGA,184207.000,3748.7741,N,12217.8224,W,1,07,1.0,27.6,M,-25.1,M,,0000*5E
$GPGSA,A,3,08,26,15,28,17,11,04,,,,,,1.7,1.0,1.4*30
$GPRMC,184207.000,A,3748.7741,N,12217.8224,W,2.75,111.64,270812,,,A*7F
$GPVTG,111.64,T,,M,2.75,N,5.1,K,A*0A
$GPGGA,184208.000,3748.7735,N,12217.8210,W,1,07,1.0,26.4,M,-25.1,M,,0000*56
$GPGSA,A,3,08,26,15,28,17,11,04,,,,,,1.7,1.0,1.4*30
$GPRMC,184208.000,A,3748.7735,N,12217.8210,W,2.56,114.54,270812,,,A*73
$GPVTG,114.54,T,,M,2.56,N,4.7,K,A*0A
$GPGGA,184209.000,3748.7731,N,12217.8198,W,1,07,1.0,25.0,M,-25.1,M,,0000*57
$GPGSA,A,3,08,26,15,28,17,11,04,,,,,,1.7,1.0,1.4*30
$GPRMC,184209.000,A,3748.7731,N,12217.8198,W,2.99,108.64,270812,,,A*78
$GPVTG,108.64,T,,M,2.99,N,5.5,K,A*04
$GPGGA,184210.000,3748.7731,N,12217.8185,W,1,07,1.0,24.1,M,-25.1,M,,0000*53
$GPGSA,A,3,08,26,15,28,17,11,04,,,,,,1.7,1.0,1.4*30
$GPRMC,184210.000,A,3748.7731,N,12217.8185,W,3.00,112.11,270812,,,A*74
$GPVTG,112.11,T,,M,3.00,N,5.6,K,A*0F
$GPGGA,184211.000,3748.7730,N,12217.8176,W,1,07,1.0,22.6,M,-25.1,M,,0000*5E
$GPGSA,A,3,08,26,15,28,17,11,04,,,,,,1.7,1.0,1.4*30
$GPGSV,3,1,12,17,81,156,29,28,56,040,24,26,45,232,35,08,41,121,31*78
$GPGSV,3,2,12,15,33,286,28,27,29,315,21,01,20,057,19,09,14,314,23*71
$GPGSV,3,3,12,04,10,166,38,11,10,044,22,07,04,130,25,51,43,156,35*75
$GPRMC,184211.000,A,3748.7730,N,12217.8176,W,2.68,110.47,270812,,,A*76
$GPVTG,110.47,T,,M,2.68,N,5.0,K,A*07
$GPGGA,184212.000,3748.7729,N,12217.8168,W,1,07,1.0,21.4,M,-25.1,M,,0000*5B
$GPGSA,A,3,08,26,15,28,17,11,04,,,,,,1.7,1.0,1.4*30
$GPRMC,184212.000,A,3748.7729,N,12217.8168,W,2.69,115.55,270812,,,A*75
$GPVTG,115.55,T,,M,2.69,N,5.0,K,A*00
$GPGGA,184213.000,3748.7726,N,12217.8156,W,1,07,1.0,20.3,M,-25.1,M,,0000*5E
$GPGSA,A,3,08,26,15,28,17,11,04,,,,,,1.7,1.0,1.4*30
$GPRMC,184213.000,A,3748.7726,N,12217.8156,W,3.24,109.42,270812,,,A*75
$GPVTG,109.42,T,,M,3.24,N,6.0,K,A*00
$GPGGA,184214.000,3748.7719,N,12217.8148,W,1,07,1.0,20.0,M,-25.1,M,,0000*59
$GPGSA,A,3,08,26,15,28,17,11,04,,,,,,1.7,1.0,1.4*30
$GPRMC,184214.000,A,3748.7719,N,12217.8148,W,2.51,119.60,270812,,,A*73
$GPVTG,119.60,T,,M,2.51,N,4.7,K,A*07
$GPGGA,184215.000,3748.7717,N,12217.8134,W,1,07,1.0,20.1,M,-25.1,M,,0000*5C
$GPGSA,A,3,08,26,15,28,17,11,04,,,,,,1.7,1.0,1.4*30
$GPRMC,184215.000,A,3748.7717,N,12217.8134,W,2.24,117.21,270812,,,A*7E
$GPVTG,117.21,T,,M,2.24,N,4.1,K,A*08
$GPGGA,184216.000,3748.7719,N,12217.8122,W,1,07,1.0,19.9,M,-25.1,M,,0000*54
$GPGSA,A,3,08,26,15,28,17,11,04,,,,,,1.7,1.0,1.4*30
$GPGSV,3,1,12,17,81,156,29,28,56,040,25,26,45,232,32,08,41,121,28*76
$GPGSV,3,2,12,15,33,286,22,27,29,315,21,01,20,057,26,09,14,314,18*7F
$GPGSV,3,3,12,04,10,166,22,11,10,044,16,07,04,130,28,51,43,156,26*76
$GPRMC,184216.000,A,3748.7719,N,12217.8122,W,2.31,83.14,270812,,,A*4A
$GPVTG,83.14,T,,M,2.31,N,4.3,K,A*34
$GPGGA,184217.000,3748.7720,N,12217.8104,W,1,07,1.0,19.0,M,-25.1,M,,0000*52
$GPGSA,A,3,08,26,15,28,17,11,04,,,,,,1.7,1.0,1.4*30
$GPRMC,184217.000,A,3748.7720,N,12217.8104,W,2.39,106.95,270812,,,A*78
$GPVTG,106.95,T,,M,2.39,N,4.4,K,A*0E
$GPGGA,184218.000,3748.7718,N,12217.8093,W,1,07,1.0,18.1,M,-25.1,M,,0000*59
$GPGSA,A,3,08,26,15,28,17,11,04,,,,,,1.7,1.0,1.4*30
$GPRMC,184218.000,A,3748.7718,N,12217.8093,W,3.16,117.10,270812,,,A*72
$GPVTG,117.10,T,,M,3.16,N,5.8,K,A*02
$GPGGA,184219.000,3748.7715,N,12217.8085,W,1,07,1.0,17.3,M,-25.1,M,,0000*5F
$GPGSA,A,3,08,26,15,28,17,11,04,,,,,,1.7,1.0,1.4*30
$GPRMC,184219.000,A,3748.7715,N,12217.8085,W,2.46,115.20,270812,,,A*7C
$GPVTG,115.20,T,,M,2.46,N,4.6,K,A*08
$GPGGA,184220.000,3748.7711,N,12217.8075,W,1,07,1.0,17.2,M,-25.1,M,,0000*5F
$GPGSA,A,3,08,26,15,28,17,11,04,,,,,,1.7,1.0,1.4*30
$GPRMC,184220.000,A,3748.7711,N,12217.8075,W,2.41,117.71,270812,,,A*7C
$GPVTG,117.71,T,,M,2.41,N,4.5,K,A*0A
$GPGGA,184221.000,3748.7702,N,12217.8068,W,1,07,1.0,18.3,M,-25.1,M,,0000*5E
$GPGSA,A,3,08,26,15,28,17,11,04,,,,,,1.7,1.0,1.4*30
$GPGSV,3,1,12,17,81,156,30,28,56,040,24,26,45,232,36,08,41,121,29*7A
$GPGSV,3,2,12,15,33,286,28,27,29,315,20,01,20,057,15,09,14,314,23*7C
$GPRMC,184221.000,A,3748.7702,N,12217.8068,W,2.63,114.05,270812,,,A*73
$GPVTG,114.05,T,,M,2.63,N,4.9,K,A*06
$GPGGA,184222.000,3748.7698,N,12217.8058,W,1,07,1.0,17.8,M,-25.1,M,,0000*58
$GPGSA,A,3,08,26,15,28,17,11,04,,,,,,1.7,1.0,1.4*30
$GPRMC,184222.000,A,3748.7698,N,12217.8058,W,2.68,114.38,270812,,,A*74
$GPVTG,114.38,T,,M,2.68,N,5.0,K,A*0B
$GPGGA,184223.000,3748.7694,N,12217.8049,W,1,07,1.0,17.3,M,-25.1,M,,0000*5E
$GPGSA,A,3,08,26,15,28,17,11,04,,,,,,1.7,1.0,1.4*30
$GPRMC,184223.000,A,3748.7694,N,12217.8049,W,2.42,122.27,270812,,,A*7A
$GPVTG,122.27,T,,M,2.42,N,4.5,K,A*0C
$GPGGA,184224.000,3748.7690,N,12217.8040,W,1,07,1.0,16.8,M,-25.1,M,,0000*5E
$GPGSA,A,3,08,26,15,28,17,11,04,,,,,,1.7,1.0,1.4*30
$GPRMC,184224.000,A,3748.7690,N,12217.8040,W,2.85,124.07,270812,,,A*7F
$GPVTG,124.07,T,,M,2.85,N,5.3,K,A*04
$GPGGA,184225.000,3748.7684,N,12217.8030,W,1,07,1.0,16.6,M,-25.1,M,,0000*53
$GPGSA,A,3,08,26,15,28,17,11,04,,,,,,1.7,1.0,1.4*30
$GPRMC,184225.000,A,3748.7684,N,12217.8030,W,2.92,124.32,270812,,,A*7C
$GPVTG,124.32,T,,M,2.92,N,5.4,K,A*03
$GPGGA,184226.000,3748.7678,N,12217.8019,W,1,07,1.0,16.3,M,-25.1,M,,0000*5D
$GPGSA,A,3,08,26,15,28,17,11,04,,,,,,1.7,1.0,1.4*30
$GPGSV,3,1,12,17,81,156,30,28,56,040,24,26,45,232,36,08,41,121,30*72
$GPGSV,3,2,12,15,33,286,28,27,29,315,20,01,20,057,26,09,14,314,23*7C
$GPGSV,3,3,12,04,10,166,38,11,10,044,21,07,04,130,27,51,43,156,35*74
$GPRMC,184226.000,A,3748.7678,N,12217.8019,W,2.79,113.84,270812,,,A*7B
$GPVTG,113.84,T,,M,2.79,N,5.2,K,A*09
$GPGGA,184227.000,3748.7675,N,12217.8010,W,1,07,1.0,15.8,M,-25.1,M,,0000*50
$GPGSA,A,3,08,26,15,28,17,11,04,,,,,,1.7,1.0,1.4*30
$GPRMC,184227.000,A,3748.7675,N,12217.8010,W,2.88,112.33,270812,,,A*7D
$GPVTG,112.33,T,,M,2.88,N,5.3,K,A*0B
$GPGGA,184228.000,3748.7672,N,12217.8000,W,1,07,1.0,15.2,M,-25.1,M,,0000*53
$GPGSA,A,3,08,26,15,28,17,11,04,,,,,,1.7,1.0,1.4*30
$GPRMC,184228.000,A,3748.7672,N,12217.8000,W,2.87,114.91,270812,,,A*75
$GPVTG,114.91,T,,M,2.87,N,5.3,K,A*0A
$GPGGA,184229.000,3748.7668,N,12217.7991,W,1,07,1.0,14.9,M,-25.1,M,,0000*5D
$GPGSA,A,3,08,26,15,28,17,11,04,,,,,,1.7,1.0,1.4*30
$GPRMC,184229.000,A,3748.7668,N,12217.7991,W,2.90,120.89,270812,,,A*79
$GPVTG,120.89,T,,M,2.90,N,5.4,K,A*05
$GPGGA,184230.000,3748.7664,N,12217.7981,W,1,07,1.0,14.5,M,-25.1,M,,0000*54
$GPGSA,A,3,08,26,15,28,17,11,04,,,,,,1.7,1.0,1.4*30
$GPRMC,184230.000,A,3748.7664,N,12217.7981,W,3.01,118.50,270812,,,A*7A
$GPVTG,118.50,T,,M,3.01,N,5.6,K,A*01
$GPGGA,184231.000,3748.7661,N,12217.7970,W,2,07,1.0,14.1,M,-25.1,M,,0000*59
$GPGSA,A,3,08,26,15,28,17,11,04,,,,,,1.7,1.0,1.4*30
$GPGSV,3,1,12,17,81,155,30,28,56,041,24,26,45,232,36,08,41,121,30*70
$GPGSV,3,2,12,15,33,286,28,27,29,315,20,01,20,057,19,09,14,314,23*70
$GPGSV,3,3,12,04,10,166,38,11,10,044,21,07,04,130,28,51,43,156,35*7B
$GPRMC,184231.000,A,3748.7661,N,12217.7970,W,3.17,104.31,270812,,,D*78
$GPVTG,104.31,T,,M,3.17,N,5.9,K,D*06
$GPGGA,184232.000,3748.7659,N,12217.7958,W,2,07,1.0,13.7,M,-25.1,M,,0000*5A
$GPGSA,A,3,08,26,15,28,17,11,04,,,,,,1.7,1.0,1.4*30
$GPRMC,184232.000,A,3748.7659,N,12217.7958,W,2.98,105.27,270812,,,D*7A
$GPVTG,105.27,T,,M,2.98,N,5.5,K,D*0A
$GPGGA,184233.000,3748.7657,N,12217.7949,W,2,07,1.0,13.0,M,-25.1,M,,0000*52
$GPGSA,A,3,08,26,15,28,17,11,04,,,,,,1.7,1.0,1.4*30
$GPRMC,184233.000,A,3748.7657,N,12217.7949,W,3.06,108.09,270812,,,D*72
$GPVTG,108.09,T,,M,3.06,N,5.7,K,D*0F
$GPGGA,184234.000,3748.7651,N,12217.7936,W,2,07,1.0,13.4,M,-25.1,M,,0000*5F
$GPGSA,A,3,08,26,15,28,17,11,04,,,,,,1.7,1.0,1.4*30
$GPRMC,184234.000,A,3748.7651,N,12217.7936,W,2.57,112.50,270812,,,D*79
$GPVTG,112.50,T,,M,2.57,N,4.8,K,D*03
$GPGGA,184235.000,3748.7648,N,12217.7927,W,2,07,1.0,12.9,M,-25.1,M,2.8,0000*7E
$GPGSA,A,3,08,26,15,28,17,11,04,,,,,,1.7,1.0,1.4*30
$GPRMC,184235.000,A,3748.7648,N,12217.7927,W,2.63,121.80,270812,,,D*7A
$GPVTG,121.80,T,,M,2.63,N,4.9,K,D*08
$GPGGA,184236.000,3748.7643,N,12217.7918,W,2,07,1.0,13.0,M,-25.1,M,3.8,0000*73
$GPGSA,A,3,08,26,15,28,17,11,04,,,,,,1.7,1.0,1.4*30
$GPGSV,3,1,12,17,81,155,31,28,56,041,24,26,45,232,35,08,41,121,31*73
$GPGSV,3,2,12,15,33,286,26,27,29,315,20,01,20,057,27,09,14,314,23*73
$GPGSV,3,3,12,04,10,166,26,11,10,044,23,07,04,130,31,51,43,156,36*7D
$GPRMC,184236.000,A,3748.7643,N,12217.7918,W,2.98,123.92,270812,,,D*7B
$GPVTG,123.92,T,,M,2.98,N,5.5,K,D*00
$GPGGA,184237.000,3748.7640,N,12217.7909,W,2,07,1.0,12.6,M,-25.1,M,,0000*53
$GPGSA,A,3,08,26,15,28,17,11,04,,,,,,1.7,1.0,1.4*30
$GPRMC,184237.000,A,3748.7640,N,12217.7909,W,2.96,113.39,270812,,,D*75
$GPVTG,113.39,T,,M,2.96,N,5.5,K,D*0C
$GPGGA,184238.000,3748.7636,N,12217.7899,W,2,07,1.0,12.6,M,-25.1,M,,0000*55
$GPGSA,A,3,08,26,15,28,17,11,04,,,,,,1.7,1.0,1.4*30
$GPRMC,184238.000,A,3748.7636,N,12217.7899,W,2.67,121.05,270812,,,D*73
$GPVTG,121.05,T,,M,2.67,N,4.9,K,D*01
$GPGGA,184239.000,3748.7632,N,12217.7890,W,2,07,1.0,12.4,M,-25.1,M,,0000*5B
$GPGSA,A,3,08,26,15,28,17,11,04,,,,,,1.7,1.0,1.4*30
$GPRMC,184239.000,A,3748.7632,N,12217.7890,W,2.95,123.03,270812,,,D*76
$GPVTG,123.03,T,,M,2.95,N,5.5,K,D*05
$GPGGA,184240.000,3748.7630,N,12217.7881,W,2,07,1.0,12.0,M,-25.1,M,2.8,0000*77
$GPGSA,A,3,08,26,15,28,17,11,04,,,,,,1.7,1.0,1.4*30
$GPRMC,184240.000,A,3748.7630,N,12217.7881,W,3.13,116.22,270812,,,D*70
$GPVTG,116.22,T,,M,3.13,N,5.8,K,D*02
$GPGGA,184241.000,3748.7625,N,12217.7870,W,2,07,1.0,12.1,M,-25.1,M,3.8,0000*7C
$GPGSA,A,3,08,26,15,28,17,11,04,,,,,,1.7,1.0,1.4*30
$GPGSV,3,1,12,17,81,155,31,28,56,041,24,26,45,232,35,08,41,121,31*73
$GPGSV,3,2,12,15,33,286,27,27,29,315,20,01,20,057,17,09,14,314,23*71
$GPGSV,3,3,12,04,10,166,30,11,10,044,19,07,04,130,29,51,43,156,35*79
$GPVTG,119.11,T,,M,3.11,N,5.8,K,D*0F
$GPGGA,184242.000,3748.7617,N,12217.7862,W,2,07,1.0,12.0,M,-25.1,M,4.8,0000*7B
$GPGSA,A,3,08,26,15,28,17,11,04,,,,,,1.7,1.0,1.4*30
$GPRMC,184242.000,A,3748.7617,N,12217.7862,W,3.03,120.71,270812,,,D*78
$GPVTG,120.71,T,,M,3.03,N,5.6,K,D*0E
$GPGGA,184243.000,3748.7609,N,12217.7853,W,2,07,1.0,11.8,M,-25.1,M,,0000*5E
$GPGSA,A,3,08,26,15,28,17,11,04,,,,,,1.7,1.0,1.4*30
$GPRMC,184243.000,A,3748.7609,N,12217.7853,W,2.59,111.94,270812,,,D*73
$GPVTG,111.94,T,,M,2.59,N,4.8,K,D*06
$GPGGA,184244.000,3748.7606,N,12217.7844,W,2,07,1.0,11.5,M,-25.1,M,,0000*5D
$GPGSA,A,3,08,26,15,28,17,11,04,,,,,,1.7,1.0,1.4*30
$GPRMC,184244.000,A,3748.7606,N,12217.7844,W,2.74,109.27,270812,,,D*73
$GPVTG,109.27,T,,M,2.74,N,5.1,K,D*00
$GPGGA,184245.000,3748.7601,N,12217.7832,W,2,07,1.0,11.7,M,-25.1,M,,0000*58
$GPGSA,A,3,08,26,15,28,17,11,04,,,,,,1.7,1.0,1.4*30
$GPRMC,184245.000,A,3748.7601,N,12217.7832,W,2.96,106.11,270812,,,D*72
$GPVTG,106.11,T,,M,2.96,N,5.5,K,D*02
$GPGGA,184246.000,3748.7596,N,12217.7820,W,2,07,1.0,11.9,M,-25.1,M,2.8,0000*7F
$GPGSA,A,3,08,26,15,28,17,11,04,,,,,,1.7,1.0,1.4*30
$GPGSV,3,1,12,17,81,155,31,28,56,041,23,26,45,232,35,08,41,121,32*77
$GPGSV,3,2,12,15,33,286,27,27,29,315,21,01,20,057,17,09,14,314,22*71
$GPGSV,3,3,12,04,10,166,25,11,10,044,19,07,04,130,31,51,43,156,35*74
$GPRMC,184246.000,A,3748.7596,N,12217.7820,W,3.01,113.28,270812,,,D*7E
$GPVTG,113.28,T,,M,3.01,N,5.6,K,D*00
$GPGGA,184247.000,3748.7591,N,12217.7810,W,2,07,1.0,12.1,M,-25.1,M,3.8,0000*70
$GPGSA,A,3,08,26,15,28,17,11,04,,,,,,1.7,1.0,1.4*30
$GPRMC,184247.000,A,3748.7591,N,12217.7810,W,2.81,118.84,270812,,,D*7F
$GPVTG,118.84,T,,M,2.81,N,5.2,K,D*00
$GPGGA,184248.000,3748.7585,N,12217.7799,W,2,07,1.0,12.5,M,-25.1,M,4.8,0000*77
$GPGSA,A,3,08,26,15,28,17,11,04,,,,,,1.7,1.0,1.4*30
$GPRMC,184248.000,A,3748.7585,N,12217.7799,W,2.91,121.35,270812,,,D*7A
$GPVTG,121.35,T,,M,2.91,N,5.4,K,D*07
$GPGGA,184249.000,3748.7579,N,12217.7789,W,2,07,1.0,12.6,M,-25.1,M,,0000*55
$GPGSA,A,3,08,26,15,28,17,11,04,,,,,,1.7,1.0,1.4*30
$GPRMC,184249.000,A,3748.7579,N,12217.7789,W,3.21,120.31,270812,,,D*76
$GPVTG,120.31,T,,M,3.21,N,5.9,K,D*05
$GPGGA,184250.000,3748.7572,N,12217.7779,W,2,07,1.0,13.1,M,-25.1,M,,0000*5F
$GPGSA,A,3,08,26,15,28,17,11,04,,,,,,1.7,1.0,1.4*30
$GPRMC,184250.000,A,3748.7572,N,12217.7779,W,2.96,118.73,270812,,,D*7A
$GPVTG,118.73,T,,M,2.96,N,5.5,K,D*09
$GPGGA,184251.000,3748.7564,N,12217.7768,W,2,07,1.0,13.7,M,-25.1,M,,0000*5F
$GPGSA,A,3,08,26,15,28,17,11,04,,,,,,1.7,1.0,1.4*30
$GPGSV,3,1,12,17,81,154,31,28,56,041,19,26,44,232,34,08,40,121,32*7E
$GPGSV,3,2,12,15,33,285,27,27,29,315,20,01,20,057,18,09,14,314,21*7F
$GPGSV,3,3,12,04,10,166,28,11,10,043,18,07,04,130,26,51,43,156,36*7A
$GPRMC,184251.000,A,3748.7564,N,12217.7768,W,2.85,119.66,270812,,,D*7B
$GPVTG,119.66,T,,M,2.85,N,5.3,K,D*08
$GPGGA,184252.000,3748.7556,N,12217.7757,W,2,07,1.0,14.5,M,-25.1,M,2.8,0000*70
$GPGSA,A,3,08,26,15,28,17,11,04,,,,,,1.7,1.0,1.4*30
$GPRMC,184252.000,A,3748.7556,N,12217.7757,W,2.86,115.93,270812,,,D*70
$GPVTG,115.93,T,,M,2.86,N,5.3,K,D*0D
$GPGGA,184253.000,3748.7548,N,12217.7745,W,2,07,1.0,15.3,M,-25.1,M,3.8,0000*7B
$GPGSA,A,3,08,26,15,28,17,11,04,,,,,,1.7,1.0,1.4*30
$GPRMC,184253.000,A,3748.7548,N,12217.7745,W,3.08,121.44,270812,,,D*77
$GPVTG,121.44,T,,M,3.08,N,5.7,K,D*03
$GPGGA,184254.000,3748.7543,N,12217.7737,W,2,07,1.0,15.2,M,-25.1,M,4.8,0000*74
$GPGSA,A,3,08,26,15,28,17,11,04,,,,,,1.7,1.0,1.4*30
$GPRMC,184254.000,A,3748.7543,N,12217.7737,W,3.09,134.80,270812,,,D*73
$GPVTG,134.80,T,,M,3.09,N,5.7,K,D*0E
$GPGGA,184255.000,3748.7536,N,12217.7729,W,2,07,1.0,15.2,M,-25.1,M,,0000*5A
$GPGSA,A,3,08,26,15,28,17,11,04,,,,,,1.7,1.0,1.4*30
$GPRMC,184255.000,A,3748.7536,N,12217.7729,W,2.98,123.36,270812,,,D*7D
$GPVTG,123.36,T,,M,2.98,N,5.5,K,D*0E
$GPGGA,184256.000,3748.7531,N,12217.7720,W,2,07,1.0,14.9,M,-25.1,M,,0000*5D
$GPGSA,A,3,08,26,15,28,17,11,04,,,,,,1.7,1.0,1.4*30
$GPGSV,3,1,12,17,81,154,31,28,56,041,19,26,44,232,34,08,40,121,31*7D
$GPGSV,3,2,12,15,33,285,26,27,29,315,19,01,20,057,18,09,14,314,17*71
$GPGSV,3,3,12,04,10,166,27,11,10,043,22,07,04,130,30,51,43,156,36*7B
$GPRMC,184256.000,A,3748.7531,N,12217.7720,W,2.79,121.81,270812,,,D*71
$GPVTG,121.81,T,,M,2.79,N,5.2,K,D*08
$GPGGA,184257.000,3748.7526,N,12217.7709,W,2,07,1.0,15.3,M,-25.1,M,,0000*5A
$GPGSA,A,3,08,26,15,28,17,11,04,,,,,,1.7,1.0,1.4*30
$GPRMC,184257.000,A,3748.7526,N,12217.7709,W,2.76,103.00,270812,,,D*7B
$GPVTG,103.00,T,,M,2.76,N,5.1,K,D*0D
$GPGGA,184258.000,3748.7520,N,12217.7698,W,2,07,1.0,16.3,M,-25.1,M,2.8,0000*7D
$GPGSA,A,3,08,26,15,28,17,11,04,,,,,,1.7,1.0,1.4*30
$GPRMC,184258.000,A,3748.7520,N,12217.7698,W,2.50,105.07,270812,,,D*7E
$GPVTG,105.07,T,,M,2.50,N,4.6,K,D*0E
$GPGGA,184259.000,3748.7516,N,12217.7688,W,2,07,1.0,16.9,M,-25.1,M,,0000*56
$GPGSA,A,3,08,26,15,28,17,11,04,,,,,,1.7,1.0,1.4*30
$GPRMC,184259.000,A,3748.7516,N,12217.7688,W,2.16,110.46,270812,,,D*78
$GPVTG,110.46,T,,M,2.16,N,4.0,K,D*0B
$GPGGA,184300.000,3748.7512,N,12217.7683,W,2,07,1.0,17.2,M,-25.1,M,2.8,0000*7A
$GPGSA,A,3,08,26,15,28,17,11,04,,,,,,1.7,1.0,1.4*30
$GPRMC,184300.000,A,3748.7512,N,12217.7683,W,1.42,120.10,270812,,,D*78
$GPVTG,120.10,T,,M,1.42,N,2.6,K,D*09
$GPGGA,184301.000,3748.7511,N,12217.7682,W,2,07,1.0,18.2,M,-25.1,M,3.8,0000*77
$GPGSA,A,3,08,26,15,28,17,11,04,,,,,,1.7,1.0,1.4*30
$GPGSV,3,1,12,17,81,154,30,28,56,041,19,26,44,232,34,08,40,121,17*78
$GPGSV,3,2,12,15,33,285,26,27,29,315,,01,20,057,17,09,14,314,*70
$GPGSV,3,3,12,04,10,166,29,11,10,043,23,07,04,130,30,51,43,156,30*72
$GPRMC,184301.000,A,3748.7511,N,12217.7682,W,0.53,51.36,270812,,,D*49
$GPGGA,184302.000,3748.7516,N,12217.7683,W,2,07,1.0,18.1,M,-25.1,M,4.8,0000*76
$GPGSA,A,3,08,26,15,28,17,11,04,,,,,,1.7,1.0,1.4*30
$GPRMC,184302.000,A,3748.7516,N,12217.7683,W,0.80,35.07,270812,,,D*42
$GPVTG,35.07,T,,M,0.80,N,1.5,K,D*35
$GPGGA,184303.000,3748.7518,N,12217.7682,W,2,07,1.0,16.9,M,-25.1,M,,0000*5C
$GPGSA,A,3,08,26,15,28,17,11,04,,,,,,1.7,1.0,1.4*30
$GPRMC,184303.000,A,3748.7518,N,12217.7682,W,0.56,154.50,270812,,,D*73
$GPVTG,154.50,T,,M,0.56,N,1.0,K,D*0F
$GPGGA,184304.000,3748.7518,N,12217.7681,W,2,07,1.0,15.6,M,-25.1,M,2.8,0000*70
$GPGSA,A,3,08,26,15,28,17,11,04,,,,,,1.7,1.0,1.4*30
$GPRMC,184304.000,A,3748.7518,N,12217.7681,W,1.52,133.15,270812,,,D*72
$GPVTG,133.15,T,,M,1.52,N,2.8,K,D*01
$GPGGA,184305.000,3748.7515,N,12217.7676,W,2,07,1.0,14.5,M,-25.1,M,3.8,0000*77
$GPGSA,A,3,08,26,15,28,17,11,04,,,,,,1.7,1.0,1.4*30
$GPRMC,184305.000,A,3748.7515,N,12217.7676,W,2.42,122.49,270812,,,D*7D
$GPVTG,122.49,T,,M,2.42,N,4.5,K,D*01
$GPGGA,184306.000,3748.7511,N,12217.7670,W,2,07,1.0,14.2,M,-25.1,M,4.8,0000*76
$GPGSA,A,3,08,26,15,28,17,11,04,,,,,,1.7,1.0,1.4*30
$GPGSV,3,1,12,17,81,154,30,28,56,041,18,26,44,232,35,08,40,121,30*7D
$GPGSV,3,2,12,15,33,285,29,27,29,315,,01,20,057,21,09,14,314,*7A
$GPGSV,3,3,12,04,10,166,35,11,10,043,23,07,04,130,32,51,43,156,33*7E
$GPRMC,184306.000,A,3748.7511,N,12217.7670,W,2.13,124.32,270812,,,D*72
$GPVTG,124.32,T,,M,2.13,N,3.9,K,D*04
$GPGGA,184307.000,3748.7508,N,12217.7664,W,2,07,1.0,13.9,M,-25.1,M,5.8,0000*77
$GPGSA,A,3,08,26,15,28,17,11,04,,,,,,1.7,1.0,1.4*30
$GPRMC,184307.000,A,3748.7508,N,12217.7664,W,2.41,119.11,270812,,,D*76
$GPVTG,119.11,T,,M,2.41,N,4.5,K,D*07
$GPGGA,184308.000,3748.7507,N,12217.7657,W,2,07,1.0,13.4,M,-25.1,M,,0000*59
$GPGSA,A,3,08,26,15,28,17,11,04,,,,,,1.7,1.0,1.4*30
$GPRMC,184308.000,A,3748.7507,N,12217.7657,W,2.30,102.52,270812,,,D*7D
$GPVTG,102.52,T,,M,2.30,N,4.3,K,D*0A
$GPGGA,184309.000,3748.7500,N,12217.7646,W,2,07,1.0,14.1,M,-25.1,M,,0000*5D
$GPGSA,A,3,08,26,15,28,17,11,04,,,,,,1.7,1.0,1.4*30
$GPRMC,184309.000,A,3748.7500,N,12217.7646,W,2.16,108.69,270812,,,D*7D
$GPVTG,108.69,T,,M,2.16,N,4.0,K,D*0F
$GPGGA,184310.000,3748.7496,N,12217.7637,W,2,07,1.0,14.4,M,-25.1,M,,0000*58
$GPGSA,A,3,08,26,15,28,17,11,04,,,,,,1.7,1.0,1.4*30
$GPRMC,184310.000,A,3748.7496,N,12217.7637,W,2.32,114.09,270812,,,D*70
$GPVTG,114.09,T,,M,2.32,N,4.3,K,D*01
$GPGGA,184311.000,3748.7494,N,12217.7629,W,2,07,1.0,14.1,M,-25.1,M,2.8,0000*75
$GPGSA,A,3,08,26,15,28,17,11,04,,,,,,1.7,1.0,1.4*30
$GPGSV,3,1,12,17,81,154,30,28,56,041,17,26,44,232,35,08,40,121,31*73
$GPGSV,3,2,12,15,33,285,28,27,29,315,19,01,19,057,20,09,14,314,18*71
$GPGSV,3,3,12,04,10,165,36,11,10,043,22,07,03,130,33,51,43,156,34*7E
$GPRMC,184311.000,A,3748.7494,N,12217.7629,W,2.27,100.75,270812,,,D*76
$GPVTG,100.75,T,,M,2.27,N,4.2,K,D*0A
$GPGGA,184312.000,3748.7492,N,12217.7620,W,2,07,1.0,14.1,M,-25.1,M,3.8,0000*78
$GPGSA,A,3,08,26,15,28,17,11,04,,,,,,1.7,1.0,1.4*30
$GPRMC,184312.000,A,3748.7492,N,12217.7620,W,2.34,100.45,270812,,,D*7B
$GPVTG,100.45,T,,M,2.34,N,4.3,K,D*0A
$GPGGA,184313.000,3748.7487,N,12217.7610,W,2,07,1.0,14.4,M,-25.1,M,,0000*5E
$GPGSA,A,3,08,26,15,28,17,11,04,,,,,,1.7,1.0,1.4*30
$GPRMC,184313.000,A,3748.7487,N,12217.7610,W,2.40,97.50,270812,,,D*45
$GPVTG,97.50,T,,M,2.40,N,4.4,K,D*35
$GPGGA,184314.000,3748.7479,N,12217.7604,W,2,07,1.0,14.3,M,-25.1,M,,0000*5A
$GPGSA,A,3,08,26,15,28,17,11,04,,,,,,1.7,1.0,1.4*30
$GPRMC,184314.000,A,3748.7479,N,12217.7604,W,2.73,98.20,270812,,,D*4E
$GPVTG,98.20,T,,M,2.73,N,5.1,K,D*39
$GPGGA,184315.000,3748.7475,N,12217.7593,W,2,07,1.0,14.8,M,-25.1,M,,0000*51
$GPGSA,A,3,08,26,15,28,17,11,04,,,,,,1.7,1.0,1.4*30
$GPRMC,184315.000,A,3748.7475,N,12217.7593,W,2.41,98.06,270812,,,D*4B
$GPVTG,98.06,T,,M,2.41,N,4.5,K,D*39
$GPGGA,184316.000,3748.7466,N,12217.7580,W,2,07,1.0,16.2,M,-25.1,M,,0000*5A
$GPGSA,A,3,08,26,15,28,17,11,04,,,,,,1.7,1.0,1.4*30
$GPGSV,3,1,12,17,81,154,31,28,56,041,22,26,44,232,35,08,40,121,32*77
$GPGSV,3,2,12,15,33,285,24,27,29,315,19,01,19,057,18,09,14,314,18*76
$GPGSV,3,3,12,04,10,165,37,11,10,043,18,07,03,130,25,51,43,156,37*72
$GPRMC,184316.000,A,3748.7466,N,12217.7580,W,2.36,107.29,270812,,,D*72
$GPVTG,107.29,T,,M,2.36,N,4.4,K,D*02
$GPGGA,184317.000,3748.7462,N,12217.7570,W,2,07,1.0,16.6,M,-25.1,M,2.8,0000*70
$GPGSA,A,3,08,26,15,28,17,11,04,,,,,,1.7,1.0,1.4*30
$GPRMC,184317.000,A,3748.7462,N,12217.7570,W,2.37,99.44,270812,,,D*44
$GPVTG,99.44,T,,M,2.37,N,4.4,K,D*3E
$GPGGA,184318.000,3748.7458,N,12217.7560,W,2,07,1.0,17.1,M,-25.1,M,3.8,0000*70
$GPGSA,A,3,08,26,15,28,17,11,04,,,,,,1.7,1.0,1.4*30
$GPRMC,184318.000,A,3748.7458,N,12217.7560,W,2.55,107.48,270812,,,D*7D
$GPVTG,107.48,T,,M,2.55,N,4.7,K,D*03
$GPGGA,184319.000,3748.7455,N,12217.7552,W,2,07,1.0,16.9,M,-25.1,M,,0000*51
$GPGSA,A,3,08,26,15,28,17,11,04,,,,,,1.7,1.0,1.4*30
$GPRMC,184319.000,A,3748.7455,N,12217.7552,W,2.44,104.43,270812,,,D*78
$GPVTG,104.43,T,,M,2.44,N,4.5,K,D*09
$GPGGA,184320.000,3748.7453,N,12217.7545,W,2,07,1.0,16.5,M,-25.1,M,,0000*57
$GPGSA,A,3,08,26,15,28,17,11,04,,,,,,1.7,1.0,1.4*30
$GPRMC,184320.000,A,3748.7453,N,12217.7545,W,2.09,115.79,270812,,,D*72
$GPVTG,115.79,T,,M,2.09,N,3.9,K,D*02
$GPGGA,184321.000,3748.7450,N,12217.7538,W,2,07,1.0,16.2,M,-25.1,M,,0000*58
$GPGSA,A,3,08,26,15,28,17,11,04,,,,,,1.7,1.0,1.4*30
$GPGSV,3,1,12,17,81,153,31,28,56,041,22,26,44,231,34,08,40,121,33*73
$GPGSV,3,2,12,15,33,285,24,27,29,315,20,01,19,057,23,09,14,314,19*75
$GPGSV,3,3,12,04,10,165,38,11,10,043,19,07,03,130,22,51,43,156,35*79
$GPRMC,184321.000,A,3748.7450,N,12217.7538,W,1.99,109.32,270812,,,D*72
$GPGGA,184322.000,3748.7447,N,12217.7532,W,2,07,1.0,15.8,M,-25.1,M,2.8,0000*7A
$GPGSA,A,3,08,26,15,28,17,11,04,,,,,,1.7,1.0,1.4*30
$GPRMC,184322.000,A,3748.7447,N,12217.7532,W,1.91,107.04,270812,,,D*7E
$GPVTG,107.04,T,,M,1.91,N,3.5,K,D*05
$GPGGA,184323.000,3748.7445,N,12217.7525,W,2,07,1.0,15.5,M,-25.1,M,3.8,0000*73
$GPGSA,A,3,08,26,15,28,17,11,04,,,,,,1.7,1.0,1.4*30
$GPRMC,184323.000,A,3748.7445,N,12217.7525,W,2.06,100.53,270812,,,D*73
$GPVTG,100.53,T,,M,2.06,N,3.8,K,D*00
$GPGGA,184324.000,3748.7441,N,12217.7517,W,2,07,1.0,15.5,M,-25.1,M,4.8,0000*76
$GPGSA,A,3,08,26,15,28,17,11,04,,,,,,1.7,1.0,1.4*30
$GPRMC,184324.000,A,3748.7441,N,12217.7517,W,2.06,108.77,270812,,,D*7F
$GPVTG,108.77,T,,M,2.06,N,3.8,K,D*0E
$GPGGA,184325.000,3748.7436,N,12217.7509,W,2,07,1.0,15.7,M,-25.1,M,5.8,0000*7B
$GPGSA,A,3,08,26,15,28,17,11,04,,,,,,1.7,1.0,1.4*30
$GPRMC,184325.000,A,3748.7436,N,12217.7509,W,2.01,110.44,270812,,,D*7F
$GPVTG,110.44,T,,M,2.01,N,3.7,K,D*0F
$GPGGA,184326.000,3748.7429,N,12217.7501,W,2,07,1.0,16.1,M,-25.1,M,6.8,0000*78
$GPGSA,A,3,08,26,15,28,17,11,04,,,,,,1.7,1.0,1.4*30
$GPGSV,3,1,12,17,81,153,29,28,56,041,23,26,44,231,35,08,40,121,29*71
$GPGSV,3,2,12,15,33,285,24,27,29,315,20,01,19,057,23,09,14,314,19*75
$GPGSV,3,3,12,04,10,165,29,11,10,043,18,07,03,130,33,51,43,156,29*75
$GPRMC,184326.000,A,3748.7429,N,12217.7501,W,2.00,119.16,270812,,,D*75
$GPVTG,119.16,T,,M,2.00,N,3.7,K,D*00
$GPGGA,184327.000,3748.7429,N,12217.7493,W,2,07,1.0,14.7,M,-25.1,M,7.8,0000*76
$GPGSA,A,3,08,26,15,28,17,11,04,,,,,,1.7,1.0,1.4*30
$GPRMC,184327.000,A,3748.7429,N,12217.7493,W,1.98,108.22,270812,,,D*7B
$GPVTG,108.22,T,,M,1.98,N,3.7,K,D*05
$GPGGA,184328.000,3748.7425,N,12217.7486,W,2,07,1.0,14.5,M,-25.1,M,8.8,0000*7C
$GPGSA,A,3,08,26,15,28,17,11,04,,,,,,1.7,1.0,1.4*30
$GPRMC,184328.000,A,3748.7425,N,12217.7486,W,1.81,112.07,270812,,,D*78
$GPVTG,112.07,T,,M,1.81,N,3.4,K,D*02
$GPGGA,184329.000,3748.7423,N,12217.7481,W,2,07,1.0,14.2,M,-25.1,M,9.8,0000*7A
$GPGSA,A,3,08,26,15,28,17,11,04,,,,,,1.7,1.0,1.4*30
$GPRMC,184329.000,A,3748.7423,N,12217.7481,W,1.60,107.16,270812,,,D*73
$GPVTG,107.16,T,,M,1.60,N,3.0,K,D*0D
$GPGGA,184330.000,3748.7422,N,12217.7480,W,2,07,1.0,13.6,M,-25.1,M,10.8,0000*49
$GPGSA,A,3,08,26,15,28,17,11,04,,,,,,1.7,1.0,1.4*30
$GPRMC,184330.000,A,3748.7422,N,12217.7480,W,1.44,109.10,270812,,,D*75
$GPVTG,109.10,T,,M,1.44,N,2.7,K,D*05
$GPGGA,184331.000,3748.7420,N,12217.7474,W,2,07,1.0,13.2,M,-25.1,M,11.8,0000*44
$GPGSA,A,3,08,26,15,28,17,11,04,,,,,,1.7,1.0,1.4*30
$GPGSV,3,1,11,17,81,153,30,28,56,041,24,26,44,231,27,08,40,121,26*71
$GPGSV,3,2,11,15,33,285,24,27,29,315,20,01,19,057,19,09,14,314,20*75
$GPGSV,3,3,11,04,10,165,29,11,10,043,18,07,03,130,32*4D
$GPRMC,184331.000,A,3748.7420,N,12217.7474,W,1.41,124.47,270812,,,D*75
$GPVTG,124.47,T,,M,1.41,N,2.6,K,D*0C
$GPGGA,184332.000,3748.7416,N,12217.7467,W,2,07,1.0,13.6,M,-25.1,M,12.8,0000*47
$GPGSA,A,3,08,26,15,28,17,11,04,,,,,,1.7,1.0,1.4*30
$GPRMC,184332.000,A,3748.7416,N,12217.7467,W,1.70,140.04,270812,,,D*76
$GPVTG,140.04,T,,M,1.70,N,3.1,K,D*0D
$GPGGA,184333.000,3748.7414,N,12217.7458,W,2,07,1.0,13.5,M,-25.1,M,13.8,0000*4A
$GPGSA,A,3,08,26,15,28,17,11,04,,,,,,1.7,1.0,1.4*30
$GPRMC,184333.000,A,3748.7414,N,12217.7458,W,1.78,144.49,270812,,,D*7C
$GPVTG,144.49,T,,M,1.78,N,3.3,K,D*0A
$GPGGA,184334.000,3748.7410,N,12217.7451,W,2,07,1.0,13.3,M,-25.1,M,14.8,0000*41
$GPGSA,A,3,08,26,15,28,17,11,04,,,,,,1.7,1.0,1.4*30
$GPRMC,184334.000,A,3748.7410,N,12217.7451,W,1.96,137.57,270812,,,D*7D
$GPVTG,137.57,T,,M,1.96,N,3.6,K,D*04
$GPGGA,184335.000,3748.7401,N,12217.7445,W,2,07,1.0,14.5,M,-25.1,M,15.8,0000*45
$GPGSA,A,3,08,26,15,28,17,11,04,,,,,,1.7,1.0,1.4*30
$GPRMC,184335.000,A,3748.7401,N,12217.7445,W,1.83,140.14,270812,,,D*7A
$GPVTG,140.14,T,,M,1.83,N,3.4,K,D*05
$GPGGA,184336.000,3748.7394,N,12217.7437,W,2,07,1.0,15.3,M,-25.1,M,16.8,0000*4C
$GPGSA,A,3,08,26,15,28,17,11,04,,,,,,1.7,1.0,1.4*30
$GPGSV,3,1,11,17,81,153,26,28,56,041,21,26,44,231,26,08,40,121,26*72
$GPGSV,3,2,11,15,33,285,24,27,29,315,20,01,19,057,19,09,14,314,21*74
$GPGSV,3,3,11,04,10,165,30,11,10,043,17,07,03,130,25*4C
$GPRMC,184336.000,A,3748.7394,N,12217.7437,W,1.30,121.74,270812,,,D*7E
$GPVTG,121.74,T,,M,1.30,N,2.4,K,D*0D
$GPGGA,184337.000,3748.7386,N,12217.7427,W,2,07,1.0,15.9,M,-25.1,M,17.8,0000*44
$GPGSA,A,3,08,26,15,28,17,11,04,,,,,,1.7,1.0,1.4*30
$GPRMC,184337.000,A,3748.7386,N,12217.7427,W,1.68,102.89,270812,,,D*73
$GPVTG,102.89,T,,M,1.68,N,3.1,K,D*07
$GPGGA,184338.000,3748.7389,N,12217.7421,W,1,06,1.4,15.4,M,-25.1,M,,0000*59
$GPGSA,A,3,08,26,15,28,17,11,,,,,,,2.4,1.4,1.9*3D
$GPRMC,184338.000,A,3748.7389,N,12217.7421,W,1.26,67.47,270812,,,A*4A
$GPVTG,67.47,T,,M,1.26,N,2.3,K,A*3B
$GPGGA,184339.000,3748.7391,N,12217.7417,W,1,06,1.4,15.5,M,-25.1,M,,0000*55
$GPGSA,A,3,08,26,15,28,17,11,,,,,,,2.4,1.4,1.9*3D
$GPRMC,184339.000,A,3748.7391,N,12217.7417,W,0.75,84.33,270812,,,A*4E
$GPVTG,84.33,T,,M,0.75,N,1.4,K,A*36
$GPGGA,184340.000,3748.7390,N,12217.7415,W,1,07,1.0,14.8,M,-25.1,M,,0000*51
$GPGSA,A,3,08,26,15,28,17,11,04,,,,,,1.7,1.0,1.4*30
$GPRMC,184340.000,A,3748.7390,N,12217.7415,W,0.78,109.01,270812,,,A*7B
$GPVTG,109.01,T,,M,0.78,N,1.4,K,A*0E
$GPGGA,184341.000,3748.7383,N,12217.7410,W,1,07,1.0,14.2,M,-25.1,M,,0000*5D
$GPGSA,A,3,08,26,15,28,17,11,04,,,,,,1.7,1.0,1.4*30
$GPGSV,3,1,11,17,81,153,26,28,56,041,22,26,44,231,33,08,40,121,22*71
$GPGSV,3,2,11,15,33,285,21,27,29,315,20,01,19,057,19,09,14,314,20*70
$GPGSV,3,3,11,04,10,165,26,11,10,043,17,07,03,130,29*47
$GPRMC,184341.000,A,3748.7383,N,12217.7410,W,2.27,115.64,270812,,,A*7B
$GPGGA,184342.000,3748.7377,N,12217.7403,W,1,07,1.0,13.5,M,-25.1,M,,0000*57
$GPGSA,A,3,08,26,15,28,17,11,04,,,,,,1.7,1.0,1.4*30
$GPRMC,184342.000,A,3748.7377,N,12217.7403,W,2.80,114.60,270812,,,A*79
$GPVTG,114.60,T,,M,2.80,N,5.2,K,A*02
$GPGGA,184343.000,3748.7370,N,12217.7389,W,1,07,1.0,14.0,M,-25.1,M,,0000*56
$GPGSA,A,3,08,26,15,28,17,11,04,,,,,,1.7,1.0,1.4*30
$GPRMC,184343.000,A,3748.7370,N,12217.7389,W,2.41,120.78,270812,,,A*79
$GPVTG,120.78,T,,M,2.41,N,4.5,K,A*07
$GPGGA,184344.000,3748.7363,N,12217.7383,W,1,07,1.0,14.0,M,-25.1,M,,0000*59
$GPGSA,A,3,08,26,15,28,17,11,04,,,,,,1.7,1.0,1.4*30
$GPRMC,184344.000,A,3748.7363,N,12217.7383,W,1.77,134.22,270812,,,A*7A
$GPVTG,134.22,T,,M,1.77,N,3.3,K,A*0A
$GPGGA,184345.000,3748.7356,N,12217.7375,W,1,07,1.0,14.9,M,-25.1,M,,0000*5E
