$ADVER,3080,2.3
$GPRMC,225257.332,A,3748.6497,N,12217.9834,W,2.59,213.13,070411,,,A*71
$GPGGA,225258.332,3748.6492,N,12217.9840,W,1,03,3.0,-3.2,M,-25.1,M,,0000*42
$GPGSA,A,2,13,23,07,,,,,,,,,,3.1,3.0,1.0*37
$GPRMC,225258.332,A,3748.6492,N,12217.9840,W,2.90,234.09,070411,,,A*73
$GPVTG,234.09,T,,M,2.90,N,5.4,K,N*04
$GPGGA,225259.332,3748.6418,N,12217.9759,W,1,03,3.0,-3.2,M,-25.1,M,,0000*46
$GPGSA,A,2,13,23,07,,,,,,,,,,3.1,3.0,1.0*37
$GPRMC,225259.332,A,3748.6418,N,12217.9759,W,2.35,259.93,070411,,,A*70
$GPVTG,259.93,T,,M,2.35,N,4.4,K,N*02
$GPGGA,225300.332,3748.6458,N,12217.9830,W,1,03,3.0,-3.2,M,-25.1,M,,0000*4F
$GPGSA,A,2,13,23,07,,,,,,,,,,3.1,3.0,1.0*37
$GPRMC,225300.332,A,3748.6458,N,12217.9830,W,2.88,217.27,070411,,,A*7A
$GPVTG,217.27,T,,M,2.88,N,5.3,K,N*07
$GPGGA,225301.332,3748.6461,N,12217.9845,W,1,03,3.0,-3.2,M,-25.1,M,,0000*46
$GPGSA,A,2,13,23,07,,,,,,,,,,3.1,3.0,1.0*37
$GPRMC,225301.332,A,3748.6461,N,12217.9845,W,2.73,226.06,070411,,,A*76
$GPVTG,226.06,T,,M,2.73,N,5.1,K,N*00
$GPGGA,225302.332,3748.6474,N,12217.9876,W,1,03,3.0,-3.2,M,-25.1,M,,0000*41
$GPGSA,A,2,13,23,07,,,,,,,,,,3.1,3.0,1.0*37
$GPGSV,3,1,12,23,67,354,31,13,40,304,28,07,20,238,39,20,66,189,32*76
$GPGSV,3,2,12,16,48,095,26,32,45,152,30,30,40,066,26,04,15,297,23*73
$GPGSV,3,3,12,31,08,050,20,24,06,196,,10,05,319,,03,00,131,*76
$GPVTG,233.76,T,,M,2.70,N,5.0,K,N*01
$GPGGA,225303.332,3748.6472,N,12217.9888,W,1,03,3.0,-3.2,M,-25.1,M,,0000*47
$GPGSA,A,2,13,23,07,,,,,,,,,,3.1,3.0,1.0*37
$GPRMC,225303.332,A,3748.6472,N,12217.9888,W,2.85,211.79,070411,,,A*72
$GPVTG,211.79,T,,M,2.85,N,5.3,K,N*07
$GPGGA,225304.332,3748.6463,N,12217.9891,W,1,03,3.0,-3.2,M,-25.1,M,,0000*48
$GPGSA,A,2,13,23,07,,,,,,,,,,3.1,3.0,1.0*37
$GPRMC,225304.332,A,3748.6463,N,12217.9891,W,2.98,212.57,070411,,,A*7E
$GPVTG,212.57,T,,M,2.98,N,5.5,K,N*02
$GPGGA,225305.332,3748.6454,N,12217.9895,W,1,03,3.0,-3.2,M,-25.1,M,,0000*49
$GPGSA,A,2,13,23,07,,,,,,,,,,3.1,3.0,1.0*37
$GPRMC,225305.332,A,3748.6454,N,12217.9895,W,2.78,211.72,070411,,,A*75
$GPVTG,211.72,T,,M,2.78,N,5.1,K,N*0C
$GPGGA,225306.332,3748.6447,N,12217.9900,W,1,03,3.0,-3.2,M,-25.1,M,,0000*45
$GPGSA,A,2,13,23,07,,,,,,,,,,3.1,3.0,1.0*37
$GPRMC,225306.332,A,3748.6447,N,12217.9900,W,2.79,210.54,070411,,,A*7D
$GPVTG,210.54,T,,M,2.79,N,5.2,K,N*0B
$GPGGA,225307.332,3748.6440,N,12217.9902,W,1,03,3.0,-3.2,M,-25.1,M,,0000*41
$GPGSA,A,2,13,23,07,,,,,,,,,,3.1,3.0,1.0*37
$GPGSV,3,1,12,23,67,354,31,13,40,304,39,07,20,238,39,20,66,189,32*76
$GPGSV,3,2,12,16,48,095,25,32,45,152,26,30,40,066,26,04,15,297,30*75
$GPGSV,3,3,12,31,08,050,19,24,06,196,,10,05,319,,03,00,131,*7C
$GPRMC,225307.332,A,3748.6440,N,12217.9902,W,2.72,205.57,070411,,,A*75
$GPVTG,205.57,T,,M,2.72,N,5.0,K,N*05
$GPGGA,225308.332,3748.6432,N,12217.9898,W,1,03,3.0,-3.2,M,-25.1,M,,0000*49
$GPGSA,A,2,13,23,07,,,,,,,,,,3.1,3.0,1.0*37
$GPRMC,225308.332,A,3748.6432,N,12217.9898,W,2.75,206.08,070411,,,A*73
$GPVTG,206.08,T,,M,2.75,N,5.1,K,N*0A
$GPGGA,225309.332,3748.6425,N,12217.9905,W,1,03,3.0,-3.2,M,-25.1,M,,0000*4B
$GPGSA,A,2,13,23,07,,,,,,,,,,3.1,3.0,1.0*37
$GPRMC,225309.332,A,3748.6425,N,12217.9905,W,2.87,208.71,070411,,,A*7C
$GPVTG,208.71,T,,M,2.87,N,5.3,K,N*05
$GPGGA,225310.332,3748.6418,N,12217.9911,W,1,03,3.0,-3.2,M,-25.1,M,,0000*48
$GPGSA,A,2,13,23,07,,,,,,,,,,3.1,3.0,1.0*37
$GPRMC,225310.332,A,3748.6418,N,12217.9911,W,2.78,212.65,070411,,,A*71
$GPVTG,212.65,T,,M,2.78,N,5.2,K,N*0A
$GPGGA,225311.332,3748.6411,N,12217.9919,W,1,03,3.0,-3.2,M,-25.1,M,,0000*48
$GPGSA,A,2,13,23,07,,,,,,,,,,3.1,3.0,1.0*37
$GPRMC,225311.332,A,3748.6411,N,12217.9919,W,2.80,206.52,070411,,,A*77
$GPVTG,206.52,T,,M,2.80,N,5.2,K,N*0C
$GPGGA,225312.332,3748.6405,N,12217.9929,W,1,03,3.0,-3.2,M,-25.1,M,,0000*4D
$GPGSA,A,2,13,23,07,,,,,,,,,,3.1,3.0,1.0*37
$GPGSV,3,1,12,23,67,354,32,13,40,304,39,07,20,238,38,20,66,189,32*74
$GPGSV,3,2,12,16,48,095,25,32,45,152,24,30,40,066,25,04,15,297,29*7C
$GPGSV,3,3,12,31,08,050,19,24,06,196,,10,05,319,17,03,00,131,*7A
$GPRMC,225312.332,A,3748.6405,N,12217.9929,W,2.87,213.58,070411,,,A*7B
$GPVTG,213.58,T,,M,2.87,N,5.3,K,N*04
$GPGGA,225313.332,3748.6400,N,12217.9942,W,1,03,3.0,-3.2,M,-25.1,M,,0000*44
$GPGSA,A,2,13,23,07,,,,,,,,,,3.1,3.0,1.0*37
$GPRMC,225313.332,A,3748.6400,N,12217.9942,W,2.83,215.34,070411,,,A*7A
$GPVTG,215.34,T,,M,2.83,N,5.2,K,N*0D
$GPGGA,225314.332,3748.6393,N,12217.9949,W,1,03,3.0,-3.2,M,-25.1,M,,0000*45
$GPGSA,A,2,13,23,07,,,,,,,,,,3.1,3.0,1.0*37
$GPRMC,225314.332,A,3748.6393,N,12217.9949,W,2.92,209.29,070411,,,A*7A
$GPVTG,209.29,T,,M,2.92,N,5.4,K,N*0A
$GPGGA,225315.332,3748.6389,N,12217.9971,W,1,03,3.0,-3.2,M,-25.1,M,,0000*44
$GPGSA,A,2,13,23,07,,,,,,,,,,3.1,3.0,1.0*37
$GPRMC,225315.332,A,3748.6389,N,12217.9971,W,2.69,199.86,070411,,,A*70
$GPVTG,199.86,T,,M,2.69,N,5.0,K,N*05
$GPGGA,225316.332,3748.6377,N,12217.9936,W,1,03,3.0,-3.2,M,-25.1,M,,0000*45
$GPGSA,A,2,13,23,07,,,,,,,,,,3.1,3.0,1.0*37
$GPRMC,225316.332,A,3748.6377,N,12217.9936,W,2.68,187.18,070411,,,A*78
$GPVTG,187.18,T,,M,2.68,N,5.0,K,N*0C
$GPGGA,225317.332,3748.6371,N,12217.9949,W,1,03,3.0,-3.2,M,-25.1,M,,0000*4A
$GPGSA,A,2,13,23,07,,,,,,,,,,3.1,3.0,1.0*37
$GPGSV,3,1,12,23,67,354,31,13,40,304,39,07,20,238,39,20,65,189,32*75
$GPGSV,3,2,12,16,48,095,22,32,45,152,24,30,40,066,24,04,15,297,36*74
$GPGSV,3,3,12,31,08,050,18,24,05,196,,10,05,319,18,03,00,131,*77
$GPRMC,225317.332,A,3748.6371,N,12217.9949,W,2.75,204.57,070411,,,A*78
$GPGGA,225318.332,3748.6365,N,12217.9957,W,1,03,3.0,-3.2,M,-25.1,M,,0000*4F
$GPGSA,A,2,13,23,07,,,,,,,,,,3.1,3.0,1.0*37
$GPRMC,225318.332,A,3748.6365,N,12217.9957,W,2.77,206.02,070411,,,A*7D
$GPVTG,206.02,T,,M,2.77,N,5.1,K,N*02
$GPGGA,225319.332,3748.6357,N,12217.9954,W,1,03,3.0,-3.2,M,-25.1,M,,0000*4C
$GPGSA,A,2,13,23,07,,,,,,,,,,3.1,3.0,1.0*37
$GPRMC,225319.332,A,3748.6357,N,12217.9954,W,2.72,203.65,070411,,,A*7F
$GPVTG,203.65,T,,M,2.72,N,5.0,K,N*02
$GPGGA,225320.332,3748.6351,N,12217.9961,W,1,03,3.0,-3.2,M,-25.1,M,,0000*46
$GPGSA,A,2,13,23,07,,,,,,,,,,3.1,3.0,1.0*37
$GPRMC,225320.332,A,3748.6351,N,12217.9961,W,2.66,210.22,070411,,,A*71
$GPVTG,210.22,T,,M,2.66,N,4.9,K,N*0E
$GPGGA,225321.332,3748.6345,N,12217.9969,W,1,03,3.0,-3.2,M,-25.1,M,,0000*4A
$GPGSA,A,2,13,23,07,,,,,,,,,,3.1,3.0,1.0*37
$GPRMC,225321.332,A,3748.6345,N,12217.9969,W,2.83,217.88,070411,,,A*71
$GPVTG,217.88,T,,M,2.83,N,5.2,K,N*08
$GPGGA,225322.332,3748.6338,N,12217.9975,W,1,03,3.0,-3.2,M,-25.1,M,,0000*4E
$GPGSA,A,2,13,23,07,,,,,,,,,,3.1,3.0,1.0*37
$GPGSV,3,1,12,23,67,354,32,13,40,304,39,07,20,238,39,20,65,189,32*76
$GPGSV,3,2,12,16,48,095,23,32,45,152,30,30,40,066,23,04,15,297,34*75
$GPGSV,3,3,12,31,08,050,18,24,05,196,19,10,05,319,17,03,00,131,*70
$GPRMC,225322.332,A,3748.6338,N,12217.9975,W,2.84,213.17,070411,,,A*70
$GPVTG,213.17,T,,M,2.84,N,5.3,K,N*0C
$GPGGA,225323.332,3748.6332,N,12217.9983,W,1,03,3.0,-3.2,M,-25.1,M,,0000*4C
$GPGSA,A,2,13,23,07,,,,,,,,,,3.1,3.0,1.0*37
$GPRMC,225323.332,A,3748.6332,N,12217.9983,W,2.74,213.04,070411,,,A*7F
$GPVTG,213.04,T,,M,2.74,N,5.1,K,N*03
$GPGGA,225324.332,3748.6325,N,12217.9986,W,1,03,3.0,-3.2,M,-25.1,M,,0000*48
$GPGSA,A,2,13,23,07,,,,,,,,,,3.1,3.0,1.0*37
$GPRMC,225324.332,A,3748.6325,N,12217.9986,W,2.75,212.90,070411,,,A*76
$GPVTG,212.90,T,,M,2.75,N,5.1,K,N*0E
$GPGGA,225325.332,3748.6318,N,12217.9993,W,1,03,3.0,-3.2,M,-25.1,M,,0000*43
$GPGSA,A,2,13,23,07,,,,,,,,,,3.1,3.0,1.0*37
$GPRMC,225325.332,A,3748.6318,N,12217.9993,W,2.86,208.97,070411,,,A*7D
$GPVTG,208.97,T,,M,2.86,N,5.3,K,N*0C
$GPGGA,225326.332,3748.6311,N,12217.9996,W,1,03,3.0,-3.2,M,-25.1,M,,0000*4C
$GPGSA,A,2,13,23,07,,,,,,,,,,3.1,3.0,1.0*37
$GPRMC,225326.332,A,3748.6311,N,12217.9996,W,2.69,204.08,070411,,,A*79
$GPVTG,204.08,T,,M,2.69,N,5.0,K,N*04
$GPGGA,225327.332,3748.6305,N,12218.0002,W,1,03,3.0,-3.2,M,-25.1,M,,0000*4A
$GPGSA,A,2,13,23,07,,,,,,,,,,3.1,3.0,1.0*37
$GPGSV,3,1,12,23,67,354,32,13,40,304,39,07,20,238,39,20,65,189,32*76
$GPGSV,3,2,12,16,48,095,24,32,45,152,29,30,40,066,23,04,15,297,24*7B
$GPGSV,3,3,12,31,08,050,18,24,05,196,,10,05,319,30,03,00,131,*7D
$GPRMC,225327.332,A,3748.6305,N,12218.0002,W,2.83,212.04,070411,,,A*70
$GPVTG,212.04,T,,M,2.83,N,5.2,K,N*09
$GPGGA,225328.332,3748.6298,N,12218.0009,W,1,03,3.0,-3.2,M,-25.1,M,,0000*4B
$GPGSA,A,2,13,23,07,,,,,,,,,,3.1,3.0,1.0*37
$GPRMC,225328.332,A,3748.6298,N,12218.0009,W,2.80,209.86,070411,,,A*72
$GPVTG,209.86,T,,M,2.80,N,5.2,K,N*0A
$GPGGA,225329.332,3748.6292,N,12218.0014,W,1,03,3.0,-3.2,M,-25.1,M,,0000*4C
$GPGSA,A,2,13,23,07,,,,,,,,,,3.1,3.0,1.0*37
$GPRMC,225329.332,A,3748.6292,N,12218.0014,W,2.71,206.41,070411,,,A*7F
$GPVTG,206.41,T,,M,2.71,N,5.0,K,N*02
$GPGGA,225330.332,3748.6285,N,12218.0019,W,1,03,3.0,-3.2,M,-25.1,M,,0000*4F
$GPGSA,A,2,13,23,07,,,,,,,,,,3.1,3.0,1.0*37
$GPRMC,225330.332,A,3748.6285,N,12218.0019,W,2.72,208.79,070411,,,A*7A
$GPVTG,208.79,T,,M,2.72,N,5.0,K,N*04
$GPGGA,225331.332,3748.6278,N,12218.0025,W,1,03,3.0,-3.2,M,-25.1,M,,0000*43
$GPGSA,A,2,13,23,07,,,,,,,,,,3.1,3.0,1.0*37
$GPRMC,225331.332,A,3748.6278,N,12218.0025,W,2.78,215.31,070411,,,A*7C
$GPVTG,215.31,T,,M,2.78,N,5.2,K,N*0C
$GPGGA,225332.332,3748.6272,N,12218.0031,W,1,03,3.0,-3.2,M,-25.1,M,,0000*4F
$GPGSA,A,2,13,23,07,,,,,,,,,,3.1,3.0,1.0*37
$GPGSV,3,1,12,23,67,354,32,13,40,304,40,07,20,238,39,20,65,189,31*7B
$GPGSV,3,2,12,16,48,095,24,32,45,152,24,30,40,066,25,04,15,297,21*75
$GPGSV,3,3,12,31,08,050,17,24,05,196,,10,05,319,18,03,00,131,*78
$GPRMC,225332.332,A,3748.6272,N,12218.0031,W,2.75,206.47,070411,,,A*7E
$GPGGA,225333.332,3748.6265,N,12218.0037,W,1,03,3.0,-3.2,M,-25.1,M,,0000*4E
$GPGSA,A,2,13,23,07,,,,,,,,,,3.1,3.0,1.0*37
$GPRMC,225333.332,A,3748.6265,N,12218.0037,W,2.79,212.19,070411,,,A*7D
$GPVTG,212.19,T,,M,2.79,N,5.2,K,N*00
$GPGGA,225334.332,3748.6258,N,12218.0041,W,1,03,3.0,-3.2,M,-25.1,M,,0000*46
$GPGSA,A,2,13,23,07,,,,,,,,,,3.1,3.0,1.0*37
$GPRMC,225334.332,A,3748.6258,N,12218.0041,W,2.77,213.01,070411,,,A*73
$GPVTG,213.01,T,,M,2.77,N,5.1,K,N*05
$GPGGA,225335.332,3748.6252,N,12218.0047,W,1,03,3.0,-3.2,M,-25.1,M,,0000*4B
$GPGSA,A,2,13,23,07,,,,,,,,,,3.1,3.0,1.0*37
$GPRMC,225335.332,A,3748.6252,N,12218.0047,W,2.67,210.09,070411,,,A*74
$GPVTG,210.09,T,,M,2.67,N,5.0,K,N*0E
$GPGGA,225336.332,3748.6245,N,12218.0051,W,1,03,3.0,-3.2,M,-25.1,M,,0000*49
$GPGSA,A,2,13,23,07,,,,,,,,,,3.1,3.0,1.0*37
$GPRMC,225336.332,A,3748.6245,N,12218.0051,W,2.71,207.83,070411,,,A*75
$GPVTG,207.83,T,,M,2.71,N,5.0,K,N*0D
$GPGGA,225337.332,3748.6239,N,12218.0054,W,1,03,3.0,-3.2,M,-25.1,M,,0000*46
$GPGSA,A,2,13,23,07,,,,,,,,,,3.1,3.0,1.0*37
$GPGSV,3,1,12,23,67,354,32,13,40,304,40,07,20,238,39,20,65,189,29*72
$GPGSV,3,2,12,16,48,095,18,32,45,152,22,30,40,066,24,04,15,297,34*79
$GPGSV,3,3,12,31,08,050,24,24,05,196,,10,05,319,18,03,00,131,*78
$GPRMC,225337.332,A,3748.6239,N,12218.0054,W,2.61,210.59,070411,,,A*7A
$GPVTG,210.59,T,,M,2.61,N,4.8,K,N*04
$GPGGA,225338.332,3748.6232,N,12218.0058,W,1,03,3.0,-3.2,M,-25.1,M,,0000*4E
$GPGSA,A,2,13,23,07,,,,,,,,,,3.1,3.0,1.0*37
$GPRMC,225338.332,A,3748.6232,N,12218.0058,W,2.74,208.32,070411,,,A*72
$GPVTG,208.32,T,,M,2.74,N,5.1,K,N*0C
$GPGGA,225339.332,3748.6225,N,12218.0062,W,1,03,3.0,-3.2,M,-25.1,M,,0000*40
$GPGSA,A,2,13,23,07,,,,,,,,,,3.1,3.0,1.0*37
$GPRMC,225339.332,A,3748.6225,N,12218.0062,W,2.69,205.05,070411,,,A*79
$GPVTG,205.05,T,,M,2.69,N,5.0,K,N*08
$GPGGA,225340.332,3748.6224,N,12218.0106,W,1,03,3.0,-3.2,M,-25.1,M,,0000*4C
$GPGSA,A,2,13,23,07,,,,,,,,,,3.1,3.0,1.0*37
$GPRMC,225340.332,A,3748.6224,N,12218.0106,W,2.58,195.21,070411,,,A*7B
$GPVTG,195.21,T,,M,2.58,N,4.8,K,N*0F
$GPGGA,225341.332,3748.6220,N,12218.0123,W,1,03,3.0,-3.2,M,-25.1,M,,0000*4E
$GPGSA,A,2,13,23,07,,,,,,,,,,3.1,3.0,1.0*37
$GPRMC,225341.332,A,3748.6220,N,12218.0123,W,2.83,221.61,070411,,,A*77
$GPVTG,221.61,T,,M,2.83,N,5.2,K,N*0A
$GPGGA,225342.332,3748.6211,N,12218.0118,W,1,03,3.0,-3.2,M,-25.1,M,,0000*47
$GPGSA,A,2,13,23,07,,,,,,,,,,3.1,3.0,1.0*37
$GPGSV,3,1,12,23,67,354,32,13,40,304,39,07,20,238,39,20,65,189,32*76
$GPGSV,3,2,12,16,48,095,23,32,45,152,29,30,40,066,23,04,15,297,36*7F
$GPGSV,3,3,12,31,08,050,19,24,05,196,,10,05,319,20,03,00,131,*7D
$GPRMC,225342.332,A,3748.6211,N,12218.0118,W,2.66,203.54,070411,,,A*73
$GPVTG,203.54,T,,M,2.66,N,4.9,K,N*0D
$GPGGA,225343.332,3748.6203,N,12218.0114,W,1,03,3.0,-3.2,M,-25.1,M,,0000*49
$GPGSA,A,2,13,23,07,,,,,,,,,,3.1,3.0,1.0*37
$GPRMC,225343.332,A,3748.6203,N,12218.0114,W,2.82,192.75,070411,,,A*7F
$GPVTG,192.75,T,,M,2.82,N,5.2,K,N*05
$GPGGA,225344.332,3748.6195,N,12218.0119,W,1,03,3.0,-3.2,M,-25.1,M,,0000*4F
$GPGSA,A,2,13,23,07,,,,,,,,,,3.1,3.0,1.0*37
$GPRMC,225344.332,A,3748.6195,N,12218.0119,W,2.87,197.40,070411,,,A*7F
$GPVTG,197.40,T,,M,2.87,N,5.3,K,N*02
$GPGGA,225345.332,3748.6189,N,12218.0127,W,1,03,3.0,-3.2,M,-25.1,M,,0000*4E
$GPGSA,A,2,13,23,07,,,,,,,,,,3.1,3.0,1.0*37
$GPRMC,225345.332,A,3748.6189,N,12218.0127,W,2.80,194.06,070411,,,A*78
$GPVTG,194.06,T,,M,2.80,N,5.2,K,N*05
$GPGGA,225346.332,3748.6187,N,12218.0125,W,1,03,3.0,-3.2,M,-25.1,M,,0000*41
$GPGSA,A,2,13,23,07,,,,,,,,,,3.1,3.0,1.0*37
$GPRMC,225346.332,A,3748.6187,N,12218.0125,W,2.71,198.55,070411,,,A*73
$GPVTG,198.55,T,,M,2.71,N,5.0,K,N*03
$GPGGA,225347.332,3748.6177,N,12218.0124,W,1,03,3.0,-3.2,M,-25.1,M,,0000*4E
$GPGSA,A,2,13,23,07,,,,,,,,,,3.1,3.0,1.0*37
$GPGSV,3,1,12,23,67,354,31,13,41,304,39,07,20,238,39,20,65,188,32*75
$GPGSV,3,2,12,16,48,095,24,32,45,153,29,30,40,066,24,04,15,297,37*7F
$GPGSV,3,3,12,31,08,050,19,24,05,196,24,10,05,319,28,03,00,131,*73
$GPRMC,225347.332,A,3748.6177,N,12218.0124,W,3.12,190.64,070411,,,A*72
$GPVTG,190.64,T,,M,3.12,N,5.8,K,N*05
$GPGGA,225348.332,3748.6175,N,12218.0164,W,1,03,3.0,-3.2,M,-25.1,M,,0000*47
$GPGSA,A,2,13,23,07,,,,,,,,,,3.1,3.0,1.0*37
$GPRMC,225348.332,A,3748.6175,N,12218.0164,W,3.16,176.11,070411,,,A*75
$GPVTG,176.11,T,,M,3.16,N,5.8,K,N*0B
$GPGGA,225349.332,3748.6159,N,12218.0108,W,1,03,3.0,-3.2,M,-25.1,M,,0000*42
$GPGSA,A,2,13,23,07,,,,,,,,,,3.1,3.0,1.0*37
$GPRMC,225349.332,A,3748.6159,N,12218.0108,W,3.27,147.79,070411,,,A*7E
$GPVTG,147.79,T,,M,3.27,N,6.1,K,N*0F
$GPGGA,225350.332,3748.6134,N,12218.0094,W,1,03,3.0,-3.2,M,-25.1,M,,0000*45
$GPGSA,A,2,13,23,07,,,,,,,,,,3.1,3.0,1.0*37
$GPRMC,225350.332,A,3748.6134,N,12218.0094,W,1.26,149.00,070411,,,A*7A
$GPVTG,149.00,T,,M,1.26,N,2.3,K,N*0A
$GPGGA,225351.332,3748.6121,N,12218.0041,W,1,03,3.0,-3.2,M,-25.1,M,,0000*48
$GPGSA,A,2,13,23,07,,,,,,,,,,3.1,3.0,1.0*37
$GPRMC,225351.332,A,3748.6121,N,12218.0041,W,0.97,84.63,070411,,,A*49
$GPVTG,84.63,T,,M,0.97,N,1.8,K,N*3C
$GPGGA,225352.332,3748.6066,N,12217.9933,W,1,03,3.0,-3.2,M,-25.1,M,,0000*43
$GPGSA,A,2,13,23,07,,,,,,,,,,3.1,3.0,1.0*37
$GPGSV,3,1,12,23,67,354,30,13,41,304,23,07,20,238,26,20,65,188,20*72
$GPGSV,3,2,12,16,48,095,34,32,45,153,23,30,40,066,33,04,15,297,20*74
$GPGSV,3,3,12,31,08,050,19,24,05,196,15,10,05,319,22,03,00,131,*7B
$GPRMC,225352.332,A,3748.6066,N,12217.9933,W,1.40,86.08,070411,,,A*46
$GPVTG,86.08,T,,M,1.40,N,2.6,K,N*35
$GPGGA,225353.332,3748.6176,N,12218.0037,W,1,03,3.0,-3.2,M,-25.1,M,,0000*49
$GPGSA,A,2,13,23,07,,,,,,,,,,3.1,3.0,1.0*37
$GPRMC,225353.332,A,3748.6176,N,12218.0037,W,3.85,263.85,070411,,,A*7B
$GPVTG,263.85,T,,M,3.85,N,7.1,K,N*00
$GPGGA,225354.332,3748.6181,N,12217.9993,W,1,03,3.0,-3.2,M,-25.1,M,,0000*47
$GPGSA,A,2,13,23,07,,,,,,,,,,3.1,3.0,1.0*37
$GPRMC,225354.332,A,3748.6181,N,12217.9993,W,3.94,182.07,070411,,,A*73
$GPVTG,182.07,T,,M,3.94,N,7.3,K,N*04
$GPGGA,225355.332,3748.6172,N,12217.9977,W,1,03,3.0,-3.2,M,-25.1,M,,0000*40
$GPGSA,A,2,13,23,07,,,,,,,,,,3.1,3.0,1.0*37
$GPRMC,225355.332,A,3748.6172,N,12217.9977,W,6.23,157.60,070411,,,A*74
$GPVTG,157.60,T,,M,6.23,N,11.5,K,N*35
$GPGGA,225356.332,3748.6120,N,12218.0007,W,1,03,3.0,-3.2,M,-25.1,M,,0000*4C
$GPGSA,A,2,13,23,07,,,,,,,,,,3.1,3.0,1.0*37
$GPRMC,225356.332,A,3748.6120,N,12218.0007,W,5.81,179.69,070411,,,A*76
$GPVTG,179.69,T,,M,5.81,N,10.8,K,N*37
$GPGGA,225357.332,3748.6269,N,12218.0052,W,1,03,3.0,-3.2,M,-25.1,M,,0000*43
$GPGSA,A,2,13,23,07,,,,,,,,,,3.1,3.0,1.0*37
$GPGSV,3,1,12,23,67,354,30,13,41,304,25,07,20,238,17,20,65,188,21*77
$GPGSV,3,2,12,16,48,095,34,32,45,153,36,30,40,066,33,04,15,297,24*74
$GPGSV,3,3,12,31,08,050,24,24,05,196,12,10,05,319,22,03,00,131,*72
$GPRMC,225357.332,A,3748.6269,N,12218.0052,W,7.56,170.00,070411,,,A*77
$GPVTG,170.00,T,,M,7.56,N,14.0,K,N*35
$GPGGA,225358.332,3748.6234,N,12218.0005,W,1,03,3.0,-3.2,M,-25.1,M,,0000*46
$GPGSA,A,2,13,23,07,,,,,,,,,,3.1,3.0,1.0*37
$GPRMC,225358.332,A,3748.6234,N,12218.0005,W,3.46,230.79,070411,,,A*7E
$GPVTG,230.79,T,,M,3.46,N,6.4,K,N*0E
$GPGGA,225359.332,3748.6159,N,12217.9940,W,1,03,3.0,-3.2,M,-25.1,M,,0000*41
$GPGSA,A,2,13,23,07,,,,,,,,,,3.1,3.0,1.0*37
$GPRMC,225359.332,A,3748.6159,N,12217.9940,W,3.27,272.05,070411,,,A*73
$GPVTG,272.05,T,,M,3.27,N,6.1,K,N*01
$GPGGA,225400.332,3748.6021,N,12217.9863,W,1,03,3.0,-3.2,M,-25.1,M,,0000*44
$GPGSA,A,2,13,23,07,,,,,,,,,,3.1,3.0,1.0*37
$GPRMC,225400.332,A,3748.6021,N,12217.9863,W,1.68,173.64,070411,,,A*7A
$GPVTG,173.64,T,,M,1.68,N,3.1,K,N*08
$GPGGA,225401.332,3748.6038,N,12217.9879,W,1,03,3.0,-3.2,M,-25.1,M,,0000*46
$GPGSA,A,2,13,23,07,,,,,,,,,,3.1,3.0,1.0*37
$GPRMC,225401.332,A,3748.6038,N,12217.9879,W,1.47,209.32,070411,,,A*78
$GPVTG,209.32,T,,M,1.47,N,2.7,K,N*0F
$GPGGA,225402.332,3748.6086,N,12217.9871,W,1,03,3.0,-3.2,M,-25.1,M,,0000*48
$GPGSA,A,2,13,23,07,,,,,,,,,,3.1,3.0,1.0*37
$GPGSV,3,1,12,23,67,354,28,13,41,304,25,07,20,238,30,20,65,188,33*78
$GPGSV,3,2,12,16,48,095,34,32,45,153,36,30,40,066,33,04,15,297,24*74
$GPGSV,3,3,12,31,08,050,22,24,05,196,,10,05,319,21,03,00,131,*74
$GPRMC,225402.332,A,3748.6086,N,12217.9871,W,3.79,142.36,070411,,,A*71
$GPGGA,225403.332,3748.6191,N,12217.9926,W,1,03,3.0,-3.2,M,-25.1,M,,0000*4D
$GPGSA,A,2,13,23,07,,,,,,,,,,3.1,3.0,1.0*37
$GPRMC,225403.332,A,3748.6191,N,12217.9926,W,2.37,94.44,070411,,,A*40
$GPVTG,94.44,T,,M,2.37,N,4.4,K,N*39
$GPGGA,225404.332,3748.6171,N,12217.9913,W,1,03,3.0,-3.2,M,-25.1,M,,0000*42
$GPGSA,A,2,13,23,07,,,,,,,,,,3.1,3.0,1.0*37
$GPRMC,225404.332,A,3748.6171,N,12217.9913,W,1.54,107.06,070411,,,A*74
$GPVTG,107.06,T,,M,1.54,N,2.9,K,N*09
$GPGGA,225405.332,3748.6174,N,12218.0038,W,1,03,3.0,-3.2,M,-25.1,M,,0000*40
$GPGSA,A,2,13,23,07,,,,,,,,,,3.1,3.0,1.0*37
$GPRMC,225405.332,A,3748.6174,N,12218.0038,W,0.87,168.03,070411,,,A*75
$GPVTG,168.03,T,,M,0.87,N,1.6,K,N*06
$GPGGA,225406.332,3748.6208,N,12217.9929,W,1,03,3.0,-3.2,M,-25.1,M,,0000*44
$GPGSA,A,2,13,23,07,,,,,,,,,,3.1,3.0,1.0*37
$GPRMC,225406.332,A,3748.6208,N,12217.9929,W,5.58,142.59,070411,,,A*71
$GPVTG,142.59,T,,M,5.58,N,10.3,K,N*33
$GPGGA,225407.332,3748.6132,N,12217.9830,W,1,03,3.0,-3.2,M,-25.1,M,,0000*46
$GPGSA,A,2,13,23,07,,,,,,,,,,3.1,3.0,1.0*37
$GPGSV,3,1,12,23,67,354,28,13,41,304,26,07,20,238,21,20,65,188,34*7C
$GPGSV,3,2,12,16,48,095,34,32,45,153,36,30,40,066,32,04,15,297,22*73
$GPGSV,3,3,12,31,08,050,23,24,05,196,18,10,05,319,21,03,00,131,*7C
$GPRMC,225407.332,A,3748.6132,N,12217.9830,W,0.89,169.37,070411,,,A*7B
$GPVTG,169.37,T,,M,0.89,N,1.6,K,N*0E
$GPGGA,225408.332,3748.6189,N,12217.9883,W,1,03,3.0,-3.2,M,-25.1,M,,0000*41
$GPGSA,A,2,13,23,07,,,,,,,,,,3.1,3.0,1.0*37
$GPRMC,225408.332,A,3748.6189,N,12217.9883,W,2.58,133.58,070411,,,A*74
$GPVTG,133.58,T,,M,2.58,N,4.8,K,N*0D
$GPGGA,225409.332,3748.6147,N,12217.9794,W,1,03,3.0,-3.2,M,-25.1,M,,0000*4B
$GPGSA,A,2,13,23,07,,,,,,,,,,3.1,3.0,1.0*37
$GPRMC,225409.332,A,3748.6147,N,12217.9794,W,2.05,151.38,070411,,,A*74
$GPVTG,151.38,T,,M,2.05,N,3.8,K,N*00
$GPGGA,225410.332,3748.6198,N,12217.9881,W,1,03,3.0,-3.2,M,-25.1,M,,0000*4A
$GPGSA,A,2,13,23,07,,,,,,,,,,3.1,3.0,1.0*37
$GPRMC,225410.332,A,3748.6198,N,12217.9881,W,2.39,169.47,070411,,,A*79
$GPVTG,169.47,T,,M,2.39,N,4.4,K,N*07
$GPGGA,225411.332,3748.6200,N,12217.9897,W,1,03,3.0,-3.2,M,-25.1,M,,0000*4E
$GPGSA,A,2,13,23,07,,,,,,,,,,3.1,3.0,1.0*37
$GPRMC,225411.332,A,3748.6200,N,12217.9897,W,3.72,151.41,070411,,,A*7E
$GPVTG,151.41,T,,M,3.72,N,6.9,K,N*0B
$GPGGA,225412.332,3748.6226,N,12217.9917,W,1,03,3.0,-3.2,M,-25.1,M,,0000*40
$GPGSA,A,2,13,23,07,,,,,,,,,,3.1,3.0,1.0*37
$GPGSV,3,1,12,23,67,354,28,13,41,304,26,07,20,238,20,20,65,188,34*7D
$GPGSV,3,2,12,16,48,095,34,32,45,153,37,30,40,066,32,04,15,297,21*71
$GPGSV,3,3,12,31,08,050,23,24,05,196,19,10,05,319,20,03,00,131,*7C
$GPVTG,171.52,T,,M,3.89,N,7.2,K,N*05
$GPGGA,225413.332,3748.6259,N,12217.9827,W,1,03,3.0,-3.2,M,-25.1,M,,0000*4B
$GPGSA,A,2,13,23,07,,,,,,,,,,3.1,3.0,1.0*37
$GPRMC,225413.332,A,3748.6259,N,12217.9827,W,2.58,313.39,070411,,,A*79
$GPVTG,313.39,T,,M,2.58,N,4.8,K,N*0A
$GPGGA,225414.332,3748.6262,N,12217.9897,W,1,03,3.0,-3.2,M,-25.1,M,,0000*4F
$GPGSA,A,2,13,23,07,,,,,,,,,,3.1,3.0,1.0*37
$GPRMC,225414.332,A,3748.6262,N,12217.9897,W,2.54,302.22,070411,,,A*7B
$GPVTG,302.22,T,,M,2.54,N,4.7,K,N*03
$GPGGA,225415.332,3748.6216,N,12217.9846,W,1,03,3.0,-3.2,M,-25.1,M,,0000*41
$GPGSA,A,2,13,23,07,,,,,,,,,,3.1,3.0,1.0*37
$GPRMC,225415.332,A,3748.6216,N,12217.9846,W,2.93,298.16,070411,,,A*7B
$GPVTG,298.16,T,,M,2.93,N,5.4,K,N*0F
$GPGGA,225416.332,3748.6270,N,12217.9884,W,1,03,3.0,-3.2,M,-25.1,M,,0000*4C
$GPGSA,A,2,13,23,07,,,,,,,,,,3.1,3.0,1.0*37
$GPRMC,225416.332,A,3748.6270,N,12217.9884,W,0.90,301.74,070411,,,A*72
$GPVTG,301.74,T,,M,0.90,N,1.7,K,N*0C
$GPGGA,225417.332,3748.6172,N,12217.9819,W,1,03,3.0,-3.2,M,-25.1,M,,0000*48
$GPGSA,A,2,13,23,07,,,,,,,,,,3.1,3.0,1.0*37
$GPGSV,3,1,12,23,67,355,28,13,41,304,26,07,20,238,20,20,65,188,34*7C
$GPGSV,3,2,12,16,48,094,33,32,45,153,34,30,40,065,31,04,15,296,21*75
$GPGSV,3,3,12,31,08,051,24,10,05,319,25,24,05,195,20,03,01,131,*77
$GPRMC,225417.332,A,3748.6172,N,12217.9819,W,2.68,89.18,070411,,,A*4A
$GPVTG,89.18,T,,M,2.68,N,5.0,K,N*33
$GPGGA,225418.332,3748.6177,N,12217.9899,W,1,03,3.0,-3.2,M,-25.1,M,,0000*4A
$GPGSA,A,2,13,23,07,,,,,,,,,,3.1,3.0,1.0*37
$GPRMC,225418.332,A,3748.6177,N,12217.9899,W,0.24,37.89,070411,,,A*4F
$GPVTG,37.89,T,,M,0.24,N,0.4,K,N*35
$GPGGA,225419.332,3748.6051,N,12217.9731,W,1,03,3.0,-3.2,M,-25.1,M,,0000*43
$GPGSA,A,2,13,23,07,,,,,,,,,,3.1,3.0,1.0*37
$GPRMC,225419.332,A,3748.6051,N,12217.9731,W,0.31,140.86,070411,,,A*7C
$GPVTG,140.86,T,,M,0.31,N,0.6,K,N*0D
$GPGGA,225420.332,3748.6117,N,12217.9823,W,1,03,3.0,-3.2,M,-25.1,M,,0000*46
$GPGSA,A,2,13,23,07,,,,,,,,,,3.1,3.0,1.0*37
$GPRMC,225420.332,A,3748.6117,N,12217.9823,W,6.00,142.77,070411,,,A*71
$GPVTG,142.77,T,,M,6.00,N,11.1,K,N*32
$GPGGA,225421.332,3748.6012,N,12217.9699,W,1,03,3.0,-3.2,M,-25.1,M,,0000*4C
$GPGSA,A,2,13,23,07,,,,,,,,,,3.1,3.0,1.0*37
$GPRMC,225421.332,A,3748.6012,N,12217.9699,W,3.38,169.80,070411,,,A*74
$GPVTG,169.80,T,,M,3.38,N,6.3,K,N*09
$GPGGA,225422.332,3748.6014,N,12217.9705,W,1,03,3.0,-3.2,M,-25.1,M,,0000*4D
$GPGSA,A,2,13,23,07,,,,,,,,,,3.1,3.0,1.0*37
$GPGSV,3,1,12,23,67,355,26,13,41,304,26,07,20,238,21,20,65,188,26*70
$GPGSV,3,2,12,16,48,094,33,32,45,153,37,30,40,065,31,04,15,296,21*76
$GPGSV,3,3,12,31,08,051,20,10,05,319,18,24,05,195,18,03,01,131,*76
$GPRMC,225422.332,A,3748.6014,N,12217.9705,W,1.14,249.40,070411,,,A*74
$GPVTG,249.40,T,,M,1.14,N,2.1,K,N*0E
$GPGGA,225423.332,3748.6037,N,12217.9801,W,1,03,3.0,-3.2,M,-25.1,M,,0000*46
$GPGSA,A,2,13,23,07,,,,,,,,,,3.1,3.0,1.0*37
$GPRMC,225423.332,A,3748.6037,N,12217.9801,W,8.52,137.87,070411,,,A*75
$GPVTG,137.87,T,,M,8.52,N,15.8,K,N*3B
$GPGGA,225424.332,3748.6043,N,12217.9790,W,1,03,3.0,-3.2,M,-25.1,M,,0000*45
$GPGSA,A,2,13,23,07,,,,,,,,,,3.1,3.0,1.0*37
$GPRMC,225424.332,A,3748.6043,N,12217.9790,W,4.21,139.40,070411,,,A*7B
$GPVTG,139.40,T,,M,4.21,N,7.8,K,N*05
$GPGGA,225425.332,3748.6042,N,12217.9808,W,1,03,3.0,-3.2,M,-25.1,M,,0000*4B
$GPGSA,A,2,13,23,07,,,,,,,,,,3.1,3.0,1.0*37
$GPRMC,225425.332,A,3748.6042,N,12217.9808,W,5.23,118.03,070411,,,A*72
$GPVTG,118.03,T,,M,5.23,N,9.7,K,N*03
$GPGGA,225426.332,3748.5977,N,12217.9714,W,1,03,3.0,-3.2,M,-25.1,M,,0000*46
$GPGSA,A,2,13,23,07,,,,,,,,,,3.1,3.0,1.0*37
$GPRMC,225426.332,A,3748.5977,N,12217.9714,W,4.54,114.40,070411,,,A*75
$GPVTG,114.40,T,,M,4.54,N,8.4,K,N*0B
$GPGGA,225427.332,3748.5937,N,12217.9654,W,1,03,3.0,-3.2,M,-25.1,M,,0000*46
$GPGSA,A,2,13,23,07,,,,,,,,,,3.1,3.0,1.0*37
$GPGSV,3,1,12,23,67,355,27,13,41,304,26,07,20,238,30,20,65,188,34*72
$GPGSV,3,2,12,16,48,094,33,32,45,153,39,30,40,065,31,04,15,296,23*7A
$GPGSV,3,3,12,31,08,051,20,10,05,319,,24,05,195,18,03,01,131,*7F
$GPRMC,225427.332,A,3748.5937,N,12217.9654,W,1.78,120.14,070411,,,A*78
$GPGGA,225428.332,3748.5995,N,12217.9696,W,1,03,3.0,-3.2,M,-25.1,M,,0000*4F
$GPGSA,A,2,13,23,07,,,,,,,,,,3.1,3.0,1.0*37
$GPRMC,225428.332,A,3748.5995,N,12217.9696,W,1.16,143.87,070411,,,A*76
$GPVTG,143.87,T,,M,1.16,N,2.2,K,N*0D
$GPGGA,225429.332,3748.5948,N,12217.9780,W,1,03,3.0,-3.2,M,-25.1,M,,0000*48
$GPGSA,A,2,13,23,07,,,,,,,,,,3.1,3.0,1.0*37
$GPRMC,225429.332,A,3748.5948,N,12217.9780,W,2.02,143.33,070411,,,A*78
$GPVTG,143.33,T,,M,2.02,N,3.7,K,N*00
$GPGGA,225430.332,3748.6035,N,12217.9730,W,1,03,3.0,-3.2,M,-25.1,M,,0000*4B
$GPGSA,A,2,13,23,07,,,,,,,,,,3.1,3.0,1.0*37
$GPRMC,225430.332,A,3748.6035,N,12217.9730,W,3.79,155.14,070411,,,A*74
$GPVTG,155.14,T,,M,3.79,N,7.0,K,N*0C
$GPGGA,225431.332,3748.5958,N,12217.9653,W,1,03,3.0,-3.2,M,-25.1,M,,0000*4F
$GPGSA,A,2,13,23,07,,,,,,,,,,3.1,3.0,1.0*37
$GPRMC,225431.332,A,3748.5958,N,12217.9653,W,3.72,133.79,070411,,,A*70
$GPVTG,133.79,T,,M,3.72,N,6.9,K,N*04
$GPGGA,225432.332,3748.5991,N,12217.9683,W,1,03,3.0,-3.2,M,-25.1,M,,0000*44
$GPGSA,A,2,13,23,07,,,,,,,,,,3.1,3.0,1.0*37
$GPGSV,3,1,12,23,67,355,27,13,41,304,26,07,20,238,26,20,65,188,34*75
$GPGSV,3,2,12,16,48,094,27,32,45,153,34,30,40,065,31,04,15,296,23*72
$GPGSV,3,3,12,31,08,051,26,10,05,319,,24,05,195,25,03,01,131,*77
$GPRMC,225432.332,A,3748.5991,N,12217.9683,W,4.47,135.88,070411,,,A*72
$GPVTG,135.88,T,,M,4.47,N,8.3,K,N*09
$GPGGA,225433.332,3748.5986,N,12217.9755,W,1,03,3.0,-3.2,M,-25.1,M,,0000*49
$GPGSA,A,2,13,23,07,,,,,,,,,,3.1,3.0,1.0*37
$GPRMC,225433.332,A,3748.5986,N,12217.9755,W,5.09,140.78,070411,,,A*79
$GPVTG,140.78,T,,M,5.09,N,9.4,K,N*09
$GPGGA,225434.332,3748.5945,N,12217.9641,W,1,03,3.0,-3.2,M,-25.1,M,,0000*45
$GPGSA,A,2,13,23,07,,,,,,,,,,3.1,3.0,1.0*37
$GPRMC,225434.332,A,3748.5945,N,12217.9641,W,3.90,139.65,070411,,,A*71
$GPVTG,139.65,T,,M,3.90,N,7.2,K,N*05
$GPGGA,225435.332,3748.5929,N,12217.9734,W,1,03,3.0,-3.2,M,-25.1,M,,0000*4D
$GPGSA,A,2,13,23,07,,,,,,,,,,3.1,3.0,1.0*37
$GPRMC,225435.332,A,3748.5929,N,12217.9734,W,1.18,327.49,070411,,,A*78
$GPVTG,327.49,T,,M,1.18,N,2.2,K,N*01
$GPGGA,225436.332,3748.5888,N,12217.9727,W,1,03,3.0,-3.2,M,-25.1,M,,0000*46
$GPGSA,A,2,13,23,07,,,,,,,,,,3.1,3.0,1.0*37
$GPRMC,225436.332,A,3748.5888,N,12217.9727,W,2.72,91.03,070411,,,A*4C
$GPVTG,91.03,T,,M,2.72,N,5.0,K,N*3B
$GPGGA,225437.332,3748.5850,N,12217.9682,W,1,03,3.0,-3.2,M,-25.1,M,,0000*4C
$GPGSA,A,2,13,23,07,,,,,,,,,,3.1,3.0,1.0*37
$GPGSV,3,1,12,23,67,355,24,13,41,304,26,07,20,238,32,20,65,188,28*7E
$GPGSV,3,2,12,16,48,094,30,32,45,153,38,30,40,065,30,04,15,296,23*79
$GPGSV,3,3,12,31,08,051,26,10,05,319,18,24,05,195,18,03,01,131,*70
$GPRMC,225437.332,A,3748.5850,N,12217.9682,W,1.11,22.73,070411,,,A*4F
$GPVTG,22.73,T,,M,1.11,N,2.1,K,N*34
$GPGGA,225438.332,3748.5881,N,12217.9723,W,1,03,3.0,-3.2,M,-25.1,M,,0000*45
$GPGSA,A,2,13,23,07,,,,,,,,,,3.1,3.0,1.0*37
$GPRMC,225438.332,A,3748.5881,N,12217.9723,W,1.36,54.02,070411,,,A*44
$GPVTG,54.02,T,,M,1.36,N,2.5,K,N*32
$GPGGA,225439.332,3748.5888,N,12217.9629,W,1,03,3.0,-3.2,M,-25.1,M,,0000*46
$GPGSA,A,2,13,23,07,,,,,,,,,,3.1,3.0,1.0*37
$GPRMC,225439.332,A,3748.5888,N,12217.9629,W,1.65,90.79,070411,,,A*45
$GPVTG,90.79,T,,M,1.65,N,3.1,K,N*35
$GPGGA,225440.332,3748.5875,N,12217.9602,W,1,03,3.0,-3.2,M,-25.1,M,,0000*43
$GPGSA,A,2,13,23,07,,,,,,,,,,3.1,3.0,1.0*37
$GPRMC,225440.332,A,3748.5875,N,12217.9602,W,4.21,315.39,070411,,,A*7F
$GPVTG,315.39,T,,M,4.21,N,7.8,K,N*07
$GPGGA,225441.332,3748.5857,N,12217.9597,W,1,03,3.0,-3.2,M,-25.1,M,,0000*4D
$GPGSA,A,2,13,23,07,,,,,,,,,,3.1,3.0,1.0*37
$GPRMC,225441.332,A,3748.5857,N,12217.9597,W,1.59,331.32,070411,,,A*76
$GPVTG,331.32,T,,M,1.59,N,2.9,K,N*04
$GPGGA,225442.332,3748.5942,N,12217.9723,W,1,03,3.0,-3.2,M,-25.1,M,,0000*46
$GPGSA,A,2,13,23,07,,,,,,,,,,3.1,3.0,1.0*37
$GPGSV,3,1,12,23,67,355,26,13,41,304,27,07,20,238,22,20,65,188,33*76
$GPGSV,3,2,12,16,48,094,35,32,45,153,38,30,40,065,31,04,15,296,23*7D
$GPGSV,3,3,12,31,08,051,23,10,05,319,,24,05,195,18,03,01,131,*7C
$GPRMC,225442.332,A,3748.5942,N,12217.9723,W,4.71,133.46,070411,,,A*71
$GPGGA,225443.332,3748.5999,N,12217.9625,W,1,03,3.0,-3.2,M,-25.1,M,,0000*46
$GPGSA,A,2,13,23,07,,,,,,,,,,3.1,3.0,1.0*37
$GPRMC,225443.332,A,3748.5999,N,12217.9625,W,0.19,47.32,070411,,,A*4A
$GPVTG,47.32,T,,M,0.19,N,0.3,K,N*3B
$GPGGA,225444.332,3748.5968,N,12217.9589,W,1,03,3.0,-3.2,M,-25.1,M,,0000*4A
$GPGSA,A,2,13,23,07,,,,,,,,,,3.1,3.0,1.0*37
$GPRMC,225444.332,A,3748.5968,N,12217.9589,W,4.77,156.78,070411,,,A*75
$GPVTG,156.78,T,,M,4.77,N,8.8,K,N*0B
$GPGGA,225445.332,3748.5961,N,12217.9612,W,1,03,3.0,-3.2,M,-25.1,M,,0000*43
$GPGSA,A,2,13,23,07,,,,,,,,,,3.1,3.0,1.0*37
$GPRMC,225445.332,A,3748.5961,N,12217.9612,W,3.82,166.81,070411,,,A*74
$GPVTG,166.81,T,,M,3.82,N,7.1,K,N*05
$GPGGA,225446.332,3748.5916,N,12217.9505,W,1,03,3.0,-3.2,M,-25.1,M,,0000*45
$GPGSA,A,2,13,23,07,,,,,,,,,,3.1,3.0,1.0*37
$GPRMC,225446.332,A,3748.5916,N,12217.9505,W,3.74,141.56,070411,,,A*74
$GPVTG,141.56,T,,M,3.74,N,6.9,K,N*0A
$GPGGA,225447.332,3748.5903,N,12217.9468,W,1,03,3.0,-3.2,M,-25.1,M,,0000*4A
$GPGSA,A,2,13,23,07,,,,,,,,,,3.1,3.0,1.0*37
$GPGSV,3,1,12,23,68,356,27,13,41,304,28,07,20,239,22,20,65,188,31*77
$GPGSV,3,2,12,16,48,094,33,32,44,153,25,30,40,065,32,04,15,296,26*70
$GPGSV,3,3,12,31,08,051,22,10,05,319,,24,05,195,18,03,01,131,*7D
$GPRMC,225447.332,A,3748.5903,N,12217.9468,W,1.44,296.66,070411,,,A*70
$GPVTG,296.66,T,,M,1.44,N,2.7,K,N*0B
$GPGGA,225448.332,3748.5936,N,12217.9441,W,1,03,3.0,-3.2,M,-25.1,M,,0000*48
$GPGSA,A,2,13,23,07,,,,,,,,,,3.1,3.0,1.0*37
$GPRMC,225448.332,A,3748.5936,N,12217.9441,W,1.08,266.98,070411,,,A*74
$GPVTG,266.98,T,,M,1.08,N,2.0,K,N*0A
$GPGGA,225449.332,3748.5993,N,12217.9451,W,1,03,3.0,-3.2,M,-25.1,M,,0000*47
$GPGSA,A,2,13,23,07,,,,,,,,,,3.1,3.0,1.0*37
$GPRMC,225449.332,A,3748.5993,N,12217.9451,W,2.58,171.64,070411,,,A*7B
$GPVTG,171.64,T,,M,2.58,N,4.8,K,N*04
$GPGGA,225450.332,3748.5891,N,12217.9518,W,1,03,3.0,-3.2,M,-25.1,M,,0000*40
$GPGSA,A,2,13,23,07,,,,,,,,,,3.1,3.0,1.0*37
$GPRMC,225450.332,A,3748.5891,N,12217.9518,W,3.10,177.11,070411,,,A*75
$GPVTG,177.11,T,,M,3.10,N,5.7,K,N*03
$GPGGA,225451.332,3748.5861,N,12217.9502,W,1,03,3.0,-3.2,M,-25.1,M,,0000*45
$GPGSA,A,2,13,23,07,,,,,,,,,,3.1,3.0,1.0*37
$GPRMC,225451.332,A,3748.5861,N,12217.9502,W,0.72,269.50,070411,,,A*7E
$GPVTG,269.50,T,,M,0.72,N,1.3,K,N*0D
$GPGGA,225452.332,3748.5803,N,12217.9438,W,1,03,3.0,-3.2,M,-25.1,M,,0000*4A
$GPGSA,A,2,13,23,07,,,,,,,,,,3.1,3.0,1.0*37
$GPGSV,3,1,12,23,68,356,26,13,41,304,27,07,20,239,29,20,65,188,26*74
$GPGSV,3,2,12,16,48,094,33,32,44,153,31,30,40,065,32,04,15,296,23*70
$GPGSV,3,3,12,31,08,051,21,10,05,319,20,24,05,195,18,03,01,131,*7C
$GPRMC,225452.332,A,3748.5803,N,12217.9438,W,1.40,93.73,070411,,,A*47
$GPVTG,93.73,T,,M,1.40,N,2.6,K,N*3D
$GPGGA,225453.332,3748.5812,N,12217.9491,W,1,03,3.0,-3.2,M,-25.1,M,,0000*48
$GPGSA,A,2,13,23,07,,,,,,,,,,3.1,3.0,1.0*37
$GPRMC,225453.332,A,3748.5812,N,12217.9491,W,1.82,107.95,070411,,,A*7F
$GPVTG,107.95,T,,M,1.82,N,3.4,K,N*04
$GPGGA,225454.332,3748.5831,N,12217.9457,W,1,03,3.0,-3.2,M,-25.1,M,,0000*44
$GPGSA,A,2,13,23,07,,,,,,,,,,3.1,3.0,1.0*37
$GPRMC,225454.332,A,3748.5831,N,12217.9457,W,1.38,139.24,070411,,,A*75
$GPVTG,139.24,T,,M,1.38,N,2.6,K,N*01
$GPGGA,225455.332,3748.5881,N,12217.9583,W,1,03,3.0,-3.2,M,-25.1,M,,0000*46
$GPGSA,A,2,13,23,07,,,,,,,,,,3.1,3.0,1.0*37
$GPRMC,225455.332,A,3748.5881,N,12217.9583,W,2.54,324.64,070411,,,A*74
$GPVTG,324.64,T,,M,2.54,N,4.7,K,N*05
$GPGGA,225456.332,3748.5947,N,12217.9574,W,1,03,3.0,-3.2,M,-25.1,M,,0000*46
$GPGSA,A,2,13,23,07,,,,,,,,,,3.1,3.0,1.0*37
$GPRMC,225456.332,A,3748.5947,N,12217.9574,W,1.68,312.98,070411,,,A*7E
$GPVTG,312.98,T,,M,1.68,N,3.1,K,N*0E
$GPGGA,225457.332,3748.5902,N,12217.9465,W,1,04,3.7,-7.1,M,-25.1,M,,0000*40
$GPGSA,A,3,13,23,16,07,,,,,,,,,8.4,3.7,7.5*3B
$GPGSV,3,1,12,23,68,356,27,13,41,304,21,07,20,239,21,20,65,188,34*78
$GPGSV,3,2,12,16,48,094,33,32,44,153,33,30,40,065,32,04,15,296,23*72
$GPGSV,3,3,12,31,08,051,21,10,05,319,20,24,05,195,17,03,01,131,*73
$GPRMC,225457.332,A,3748.5902,N,12217.9465,W,2.44,122.64,070411,,,A*70
$GPVTG,122.64,T,,M,2.44,N,4.5,K,A*0D
$GPGGA,225458.332,3748.5768,N,12217.9502,W,1,04,3.7,34.7,M,-25.1,M,,0000*56
$GPGSA,A,3,13,23,16,07,,,,,,,,,8.4,3.7,7.5*3B
$GPRMC,225458.332,A,3748.5768,N,12217.9502,W,2.68,105.55,070411,,,A*74
$GPVTG,105.55,T,,M,2.68,N,5.0,K,A*00
$GPGGA,225459.332,3748.5796,N,12217.9486,W,1,04,3.7,23.7,M,-25.1,M,,0000*5D
$GPGSA,A,3,13,23,16,07,,,,,,,,,8.4,3.7,7.5*3B
$GPRMC,225459.332,A,3748.5796,N,12217.9486,W,2.33,95.89,070411,,,A*4E
$GPVTG,95.89,T,,M,2.33,N,4.3,K,A*35
$GPGGA,225500.000,3748.5796,N,12217.9481,W,1,04,3.7,23.1,M,-25.1,M,,0000*53
$GPGSA,A,3,13,23,16,07,,,,,,,,,8.4,3.7,7.5*3B
$GPRMC,225500.000,A,3748.5796,N,12217.9481,W,1.68,89.91,070411,,,A*4F
$GPVTG,89.91,T,,M,1.68,N,3.1,K,A*39
$GPGGA,225501.000,3748.5809,N,12217.9469,W,1,04,3.7,17.3,M,-25.1,M,,0000*58
$GPGSA,A,3,13,23,16,07,,,,,,,,,8.4,3.7,7.5*3B
$GPRMC,225501.000,A,3748.5809,N,12217.9469,W,1.59,99.72,070411,,,A*4F
$GPVTG,99.72,T,,M,1.59,N,2.9,K,A*3E
$GPGGA,225502.000,3748.5853,N,12217.9436,W,1,04,3.7,0.6,M,-25.1,M,,0000*6D
$GPGSA,A,3,13,23,16,07,,,,,,,,,8.4,3.7,7.5*3B
$GPGSV,3,1,12,23,68,356,28,16,48,094,32,13,41,304,22,07,20,239,20*75
$GPGSV,3,2,12,20,65,188,27,32,44,153,40,30,39,065,33,04,15,296,22*7B
$GPGSV,3,3,12,31,08,051,21,10,06,319,21,24,05,195,17,03,01,130,*70
$GPRMC,225502.000,A,3748.5853,N,12217.9436,W,1.80,94.46,070411,,,A*47
$GPVTG,94.46,T,,M,1.80,N,3.3,K,A*3B
$GPGGA,225503.000,3748.5853,N,12217.9414,W,1,04,3.7,-1.4,M,-25.1,M,,0000*42
$GPGSA,A,3,13,23,16,07,,,,,,,,,8.4,3.7,7.5*3B
$GPRMC,225503.000,A,3748.5853,N,12217.9414,W,2.17,106.88,070411,,,A*73
$GPVTG,106.88,T,,M,2.17,N,4.0,K,A*0A
$GPGGA,225504.000,3748.5876,N,12217.9392,W,1,04,3.7,-11.8,M,-25.1,M,,0000*76
$GPGSA,A,3,13,23,16,07,,,,,,,,,8.4,3.7,7.5*3B
$GPRMC,225504.000,A,3748.5876,N,12217.9392,W,2.29,111.28,070411,,,A*7B
$GPVTG,111.28,T,,M,2.29,N,4.2,K,A*09
$GPGGA,225505.000,3748.5881,N,12217.9383,W,1,04,3.7,-15.4,M,-25.1,M,,0000*77
$GPGSA,A,3,13,23,16,07,,,,,,,,,8.4,3.7,7.5*3B
$GPRMC,225505.000,A,3748.5881,N,12217.9383,W,2.49,128.65,070411,,,A*77
$GPVTG,128.65,T,,M,2.49,N,4.6,K,A*08
$GPGGA,225506.000,3748.5901,N,12217.9364,W,1,04,3.7,-23.8,M,-25.1,M,,0000*7D
$GPGSA,A,3,13,23,16,07,,,,,,,,,8.4,3.7,7.5*3B
$GPRMC,225506.000,A,3748.5901,N,12217.9364,W,2.20,85.44,070411,,,A*4E
$GPVTG,85.44,T,,M,2.20,N,4.1,K,A*35
$GPGGA,225507.000,3748.5918,N,12217.9350,W,1,04,3.7,-30.3,M,-25.1,M,,0000*7A
$GPGSA,A,3,13,23,16,07,,,,,,,,,8.4,3.7,7.5*3B
$GPGSV,3,1,12,23,68,356,28,16,48,094,32,13,41,304,25,07,20,239,21*73
$GPGSV,3,2,12,20,65,188,35,32,44,153,34,30,39,065,32,04,15,296,24*7C
$GPGSV,3,3,12,31,08,051,21,10,06,319,25,24,05,195,25,03,01,130,*75
$GPRMC,225507.000,A,3748.5918,N,12217.9350,W,2.39,64.13,070411,,,A*45
$GPVTG,64.13,T,,M,2.39,N,4.4,K,A*35
$GPGGA,225508.000,3748.5944,N,12217.9327,W,1,04,3.7,-40.2,M,-25.1,M,,0000*7A
$GPGSA,A,3,13,23,16,07,,,,,,,,,8.4,3.7,7.5*3B
$GPRMC,225508.000,A,3748.5944,N,12217.9327,W,2.52,45.07,070411,,,A*48
$GPVTG,45.07,T,,M,2.52,N,4.7,K,A*3D
$GPGGA,225509.000,3748.5960,N,12217.9318,W,1,04,3.7,-46.7,M,-25.1,M,,0000*72
$GPGSA,A,3,13,23,16,07,,,,,,,,,8.4,3.7,7.5*3B
$GPRMC,225509.000,A,3748.5960,N,12217.9318,W,1.39,52.53,070411,,,A*4A
$GPVTG,52.53,T,,M,1.39,N,2.6,K,A*33
$GPGGA,225510.000,3748.5942,N,12217.9331,W,1,04,3.7,-44.7,M,-25.1,M,,0000*73
$GPGSA,A,3,13,23,16,07,,,,,,,,,8.4,3.7,7.5*3B
$GPRMC,225510.000,A,3748.5942,N,12217.9331,W,1.17,145.47,070411,,,A*77
$GPVTG,145.47,T,,M,1.17,N,2.2,K,A*09
$GPGGA,225511.000,3748.5918,N,12217.9350,W,1,04,3.7,-38.4,M,-25.1,M,,0000*72
$GPGSA,A,3,13,23,16,07,,,,,,,,,8.4,3.7,7.5*3B
$GPRMC,225511.000,A,3748.5918,N,12217.9350,W,1.09,174.78,070411,,,A*7F
$GPVTG,174.78,T,,M,1.09,N,2.0,K,A*0A
$GPGGA,225512.000,3748.5902,N,12217.9362,W,1,04,3.7,-35.3,M,-25.1,M,,0000*71
$GPGSA,A,3,13,23,16,07,,,,,,,,,8.4,3.7,7.5*3B
$GPGSV,3,1,12,23,68,356,28,16,48,094,26,13,41,304,35,07,20,239,30*77
$GPGSV,3,2,12,20,65,188,31,32,44,153,27,30,39,065,26,04,15,296,22*79
$GPGSV,3,3,12,31,08,051,22,10,06,319,19,24,05,195,37,03,01,130,*7A
$GPRMC,225512.000,A,3748.5902,N,12217.9362,W,1.19,180.89,070411,,,A*72
$GPGGA,225513.000,3748.5896,N,12217.9362,W,1,04,3.7,-36.6,M,-25.1,M,,0000*7A
$GPGSA,A,3,13,23,16,07,,,,,,,,,8.4,3.7,7.5*3B
$GPRMC,225513.000,A,3748.5896,N,12217.9362,W,1.40,194.25,070411,,,A*70
$GPVTG,194.25,T,,M,1.40,N,2.6,K,A*07
$GPGGA,225514.000,3748.5897,N,12217.9363,W,1,04,3.7,-37.5,M,-25.1,M,,0000*7F
$GPGSA,A,3,13,23,16,07,,,,,,,,,8.4,3.7,7.5*3B
$GPRMC,225514.000,A,3748.5897,N,12217.9363,W,0.70,143.70,070411,,,A*7F
$GPVTG,143.70,T,,M,0.70,N,1.3,K,A*09
$GPGGA,225515.000,3748.5884,N,12217.9375,W,1,04,3.7,-34.9,M,-25.1,M,,0000*74
$GPGSA,A,3,13,23,16,07,,,,,,,,,8.4,3.7,7.5*3B
$GPRMC,225515.000,A,3748.5884,N,12217.9375,W,1.54,194.22,070411,,,A*71
$GPVTG,194.22,T,,M,1.54,N,2.9,K,A*0A
$GPGGA,225516.000,3748.5867,N,12217.9384,W,1,04,3.7,-32.7,M,-25.1,M,,0000*7C
$GPGSA,A,3,13,23,16,07,,,,,,,,,8.4,3.7,7.5*3B
$GPRMC,225516.000,A,3748.5867,N,12217.9384,W,2.03,191.48,070411,,,A*79
$GPVTG,191.48,T,,M,2.03,N,3.8,K,A*02
$GPGGA,225517.000,3748.5851,N,12217.9396,W,1,04,3.7,-29.7,M,-25.1,M,,0000*71
$GPGSA,A,3,13,23,16,07,,,,,,,,,8.4,3.7,7.5*3B
$GPGSV,3,1,12,23,68,356,31,20,64,188,32,16,48,094,26,32,44,153,28*7B
$GPGSV,3,2,12,13,41,304,34,30,39,065,26,07,20,239,42,04,15,296,22*74
$GPGSV,3,3,12,31,08,051,23,10,06,319,18,24,05,195,31,03,01,130,*7C
$GPRMC,225517.000,A,3748.5851,N,12217.9396,W,2.32,194.79,070411,,,A*7B
$GPVTG,194.79,T,,M,2.32,N,4.3,K,A*0B
$GPGGA,225518.000,3748.5824,N,12217.9410,W,1,04,3.7,-23.5,M,-25.1,M,,0000*7D
$GPGSA,A,3,13,23,16,07,,,,,,,,,8.4,3.7,7.5*3B
$GPRMC,225518.000,A,3748.5824,N,12217.9410,W,2.43,204.56,070411,,,A*7E
$GPVTG,204.56,T,,M,2.43,N,4.5,K,A*0C
$GPGGA,225519.000,3748.5805,N,12217.9422,W,1,04,3.7,-19.0,M,-25.1,M,,0000*72
$GPGSA,A,3,13,23,16,07,,,,,,,,,8.4,3.7,7.5*3B
$GPRMC,225519.000,A,3748.5805,N,12217.9422,W,2.36,200.01,070411,,,A*79
$GPVTG,200.01,T,,M,2.36,N,4.4,K,A*09
$GPGGA,225520.000,3748.5790,N,12217.9433,W,1,04,3.7,-15.7,M,-25.1,M,,0000*70
$GPGSA,A,3,13,23,16,07,,,,,,,,,8.4,3.7,7.5*3B
$GPRMC,225520.000,A,3748.5790,N,12217.9433,W,2.69,201.79,070411,,,A*74
$GPVTG,201.79,T,,M,2.69,N,5.0,K,A*08
$GPGGA,225521.000,3748.5778,N,12217.9446,W,1,04,3.7,-13.5,M,-25.1,M,,0000*71
$GPGSA,A,3,13,23,16,07,,,,,,,,,8.4,3.7,7.5*3B
$GPRMC,225521.000,A,3748.5778,N,12217.9446,W,2.81,202.22,070411,,,A*7A
$GPVTG,202.22,T,,M,2.81,N,5.2,K,A*01
$GPGGA,225522.000,3748.5767,N,12217.9454,W,1,04,3.7,-12.3,M,-25.1,M,,0000*78
$GPGSA,A,3,13,23,16,07,,,,,,,,,8.4,3.7,7.5*3B
$GPGSV,3,1,12,23,68,356,31,20,64,188,32,16,48,094,26,32,44,153,28*7B
$GPGSV,3,2,12,13,41,304,36,30,39,065,26,07,20,239,41,04,15,296,22*75
$GPGSV,3,3,12,31,08,051,26,10,06,319,18,24,05,195,32,03,01,130,*7A
$GPRMC,225522.000,A,3748.5767,N,12217.9454,W,2.85,200.04,070411,,,A*76
$GPVTG,200.04,T,,M,2.85,N,5.3,K,A*02
$GPGGA,225523.000,3748.5755,N,12217.9461,W,1,04,3.7,-11.4,M,-25.1,M,,0000*7A
$GPGSA,A,3,13,23,16,07,,,,,,,,,8.4,3.7,7.5*3B
$GPRMC,225523.000,A,3748.5755,N,12217.9461,W,3.11,201.61,070411,,,A*7E
$GPVTG,201.61,T,,M,3.11,N,5.8,K,A*07
$GPGGA,225524.000,3748.5744,N,12217.9468,W,1,04,3.7,-10.5,M,-25.1,M,,0000*74
$GPGSA,A,3,13,23,16,07,,,,,,,,,8.4,3.7,7.5*3B
$GPRMC,225524.000,A,3748.5744,N,12217.9468,W,3.11,205.74,070411,,,A*70
$GPVTG,205.74,T,,M,3.11,N,5.8,K,A*07
$GPGGA,225525.000,3748.5734,N,12217.9478,W,1,04,3.7,-9.2,M,-25.1,M,,0000*4C
$GPGSA,A,3,13,23,16,07,,,,,,,,,8.4,3.7,7.5*3B
$GPRMC,225525.000,A,3748.5734,N,12217.9478,W,3.11,205.40,070411,,,A*70
$GPVTG,205.40,T,,M,3.11,N,5.8,K,A*00
$GPGGA,225526.000,3748.5725,N,12217.9487,W,1,04,3.7,-8.4,M,-25.1,M,,0000*48
$GPGSA,A,3,13,23,16,07,,,,,,,,,8.4,3.7,7.5*3B
$GPRMC,225526.000,A,3748.5725,N,12217.9487,W,3.10,208.30,070411,,,A*78
$GPVTG,208.30,T,,M,3.10,N,5.7,K,A*04
$GPGGA,225527.000,3748.5717,N,12217.9489,W,1,04,3.7,-9.2,M,-25.1,M,,0000*41
$GPGSA,A,3,13,23,16,07,,,,,,,,,8.4,3.7,7.5*3B
$GPGSV,3,1,12,23,68,356,32,20,64,188,32,16,48,094,27,32,44,153,28*79
$GPGSV,3,2,12,13,41,304,37,30,39,065,25,07,20,239,41,04,15,296,21*74
$GPGSV,3,3,12,31,08,051,22,10,06,319,18,24,05,195,25,03,01,130,*78
$GPRMC,225527.000,A,3748.5717,N,12217.9489,W,3.01,201.40,070411,,,A*78
$GPGGA,225528.000,3748.5709,N,12217.9495,W,1,04,3.7,-9.0,M,-25.1,M,,0000*4E
$GPGSA,A,3,13,23,16,07,,,,,,,,,8.4,3.7,7.5*3B
$GPRMC,225528.000,A,3748.5709,N,12217.9495,W,2.93,197.97,070411,,,A*79
$GPVTG,197.97,T,,M,2.93,N,5.4,K,A*05
$GPGGA,225529.000,3748.5701,N,12217.9502,W,1,04,3.7,-8.9,M,-25.1,M,,0000*40
$GPGSA,A,3,13,23,16,07,,,,,,,,,8.4,3.7,7.5*3B
$GPRMC,225529.000,A,3748.5701,N,12217.9502,W,3.02,196.45,070411,,,A*78
$GPVTG,196.45,T,,M,3.02,N,5.6,K,A*00
$GPGGA,225530.000,3748.5692,N,12217.9510,W,1,04,3.7,-8.3,M,-25.1,M,,0000*4A
$GPGSA,A,3,13,23,16,07,,,,,,,,,8.4,3.7,7.5*3B
$GPRMC,225530.000,A,3748.5692,N,12217.9510,W,2.94,208.53,070411,,,A*75
$GPVTG,208.53,T,,M,2.94,N,5.5,K,A*0E
$GPGGA,225531.000,3748.5684,N,12217.9519,W,1,04,3.7,-7.5,M,-25.1,M,,0000*4C
$GPGSA,A,3,13,23,16,07,,,,,,,,,8.4,3.7,7.5*3B
$GPRMC,225531.000,A,3748.5684,N,12217.9519,W,3.01,202.02,070411,,,A*79
$GPVTG,202.02,T,,M,3.01,N,5.6,K,A*0E
$GPGGA,225532.000,3748.5675,N,12217.9528,W,1,04,3.7,-6.6,M,-25.1,M,,0000*41
$GPGSA,A,3,13,23,16,07,,,,,,,,,8.4,3.7,7.5*3B
$GPGSV,3,1,12,23,68,356,32,20,64,188,32,16,48,094,27,32,44,153,28*79
$GPGSV,3,2,12,13,41,304,38,30,39,065,25,07,20,239,37,04,15,296,36*7C
$GPGSV,3,3,12,31,08,051,23,10,06,319,18,24,05,195,31,03,01,130,*7C
$GPRMC,225532.000,A,3748.5675,N,12217.9528,W,3.17,199.36,070411,,,A*77
$GPVTG,199.36,T,,M,3.17,N,5.9,K,A*00
$GPGGA,225533.000,3748.5665,N,12217.9535,W,1,04,3.7,-6.3,M,-25.1,M,,0000*48
$GPGSA,A,3,13,23,16,07,,,,,,,,,8.4,3.7,7.5*3B
$GPRMC,225533.000,A,3748.5665,N,12217.9535,W,3.29,203.06,070411,,,A*75
$GPVTG,203.06,T,,M,3.29,N,6.1,K,A*05
$GPGGA,225534.000,3748.5653,N,12217.9548,W,1,04,3.7,-4.0,M,-25.1,M,,0000*41
$GPGSA,A,3,13,23,16,07,,,,,,,,,8.4,3.7,7.5*3B
$GPRMC,225534.000,A,3748.5653,N,12217.9548,W,2.74,202.45,070411,,,A*72
$GPVTG,202.45,T,,M,2.74,N,5.1,K,A*09
$GPGGA,225535.000,3748.5640,N,12217.9552,W,1,04,3.7,-2.4,M,-25.1,M,,0000*4B
$GPGSA,A,3,13,23,16,07,,,,,,,,,8.4,3.7,7.5*3B
$GPRMC,225535.000,A,3748.5640,N,12217.9552,W,2.60,192.57,070411,,,A*76
$GPVTG,192.57,T,,M,2.60,N,4.8,K,A*0D
$GPGGA,225536.000,3748.5629,N,12217.9555,W,1,04,3.7,-1.6,M,-25.1,M,,0000*41
$GPGSA,A,3,13,23,16,07,,,,,,,,,8.4,3.7,7.5*3B
$GPRMC,225536.000,A,3748.5629,N,12217.9555,W,2.87,180.01,070411,,,A*74
$GPVTG,180.01,T,,M,2.87,N,5.3,K,A*0E
$GPGGA,225537.000,3748.5621,N,12217.9554,W,1,04,3.7,-2.2,M,-25.1,M,,0000*4E
$GPGSA,A,3,13,23,16,07,,,,,,,,,8.4,3.7,7.5*3B
$GPGSV,3,1,12,23,68,356,28,20,64,188,26,16,48,094,24,32,44,153,24*78
$GPGSV,3,2,12,13,41,304,32,30,39,065,24,07,20,239,30,04,15,296,18*7C
$GPGSV,3,3,12,31,08,051,18,10,06,319,18,24,05,195,29,03,01,130,*7D
$GPRMC,225537.000,A,3748.5621,N,12217.9554,W,2.51,190.76,070411,,,A*76
$GPVTG,190.76,T,,M,2.51,N,4.6,K,A*00
$GPGGA,225538.000,3748.5615,N,12217.9561,W,1,04,3.7,-2.5,M,-25.1,M,,0000*47
$GPGSA,A,3,13,23,16,07,,,,,,,,,8.4,3.7,7.5*3B
$GPRMC,225538.000,A,3748.5615,N,12217.9561,W,3.19,198.18,070411,,,A*75
$GPVTG,198.18,T,,M,3.19,N,5.9,K,A*03
$GPGGA,225539.000,3748.5608,N,12217.9566,W,1,04,3.7,-2.8,M,-25.1,M,,0000*40
$GPGSA,A,3,13,23,16,07,,,,,,,,,8.4,3.7,7.5*3B
$GPRMC,225539.000,A,3748.5608,N,12217.9566,W,2.68,201.18,070411,,,A*7B
$GPVTG,201.18,T,,M,2.68,N,5.0,K,A*0E
$GPGGA,225540.000,3748.5597,N,12217.9576,W,1,04,3.7,0.1,M,-25.1,M,,0000*6C
$GPGSA,A,3,13,23,16,07,,,,,,,,,8.4,3.7,7.5*3B
$GPRMC,225540.000,A,3748.5597,N,12217.9576,W,3.16,202.23,070411,,,A*72
$GPVTG,202.23,T,,M,3.16,N,5.8,K,A*05
$GPGGA,225541.000,3748.5592,N,12217.9589,W,1,04,3.7,0.3,M,-25.1,M,,0000*6A
$GPGSA,A,3,13,23,16,07,,,,,,,,,8.4,3.7,7.5*3B
$GPRMC,225541.000,A,3748.5592,N,12217.9589,W,3.01,201.69,070411,,,A*7D
$GPVTG,201.69,T,,M,3.01,N,5.6,K,A*00
$GPGGA,225542.000,3748.5584,N,12217.9603,W,1,04,3.7,1.5,M,-25.1,M,,0000*68
$GPGSA,A,3,13,23,16,07,,,,,,,,,8.4,3.7,7.5*3B
$GPGSV,3,1,12,23,68,356,31,20,64,188,30,16,48,094,24,32,44,153,25*76
$GPGSV,3,2,12,13,41,304,38,30,39,065,25,07,20,239,37,04,15,296,23*78
$GPGSV,3,3,12,31,08,051,19,10,06,319,09,24,05,195,27,03,01,130,*72
$GPRMC,225542.000,A,3748.5584,N,12217.9603,W,3.32,213.12,070411,,,A*77
$GPGGA,225543.000,3748.5576,N,12217.9612,W,1,04,3.7,1.8,M,-25.1,M,,0000*69
$GPGSA,A,3,13,23,16,07,,,,,,,,,8.4,3.7,7.5*3B
$GPRMC,225543.000,A,3748.5576,N,12217.9612,W,3.19,207.48,070411,,,A*78
$GPVTG,207.48,T,,M,3.19,N,5.9,K,A*03
$GPGGA,225544.000,3748.5570,N,12217.9613,W,1,04,3.7,0.4,M,-25.1,M,,0000*64
$GPGSA,A,3,13,23,16,07,,,,,,,,,8.4,3.7,7.5*3B
$GPRMC,225544.000,A,3748.5570,N,12217.9613,W,3.16,203.36,070411,,,A*7A
$GPVTG,203.36,T,,M,3.16,N,5.8,K,A*00
$GPGGA,225545.000,3748.5563,N,12217.9616,W,1,04,3.7,-0.6,M,-25.1,M,,0000*4D
$GPGSA,A,3,13,23,16,07,,,,,,,,,8.4,3.7,7.5*3B
$GPRMC,225545.000,A,3748.5563,N,12217.9616,W,2.92,205.32,070411,,,A*73
$GPVTG,205.32,T,,M,2.92,N,5.4,K,A*03
$GPGGA,225546.000,3748.5557,N,12217.9622,W,1,04,3.7,-0.9,M,-25.1,M,,0000*41
$GPGSA,A,3,13,23,16,07,,,,,,,,,8.4,3.7,7.5*3B
$GPRMC,225546.000,A,3748.5557,N,12217.9622,W,2.99,199.49,070411,,,A*71
$GPVTG,199.49,T,,M,2.99,N,5.5,K,A*03
$GPGGA,225547.000,3748.5551,N,12217.9625,W,1,04,3.7,-2.0,M,-25.1,M,,0000*4A
$GPGSA,A,3,13,23,16,07,,,,,,,,,8.4,3.7,7.5*3B
$GPGSV,3,1,12,23,68,357,31,20,64,188,32,16,48,093,25,32,44,153,29*7F
$GPGSV,3,2,12,13,41,305,38,30,39,065,25,07,21,239,38,04,15,296,21*75
$GPGSV,3,3,12,31,07,051,19,10,06,319,14,24,05,195,37,03,01,130,*70
$GPRMC,225547.000,A,3748.5551,N,12217.9625,W,2.90,200.84,070411,,,A*7A
$GPVTG,200.84,T,,M,2.90,N,5.4,K,A*09
$GPGGA,225548.000,3748.5544,N,12217.9629,W,1,04,3.7,-2.6,M,-25.1,M,,0000*4B
$GPGSA,A,3,13,23,16,07,,,,,,,,,8.4,3.7,7.5*3B
$GPRMC,225548.000,A,3748.5544,N,12217.9629,W,2.88,207.09,070411,,,A*76
$GPVTG,207.09,T,,M,2.88,N,5.3,K,A*05
$GPGGA,225549.000,3748.5538,N,12217.9638,W,1,04,3.7,-2.6,M,-25.1,M,,0000*41
$GPGSA,A,3,13,23,16,07,,,,,,,,,8.4,3.7,7.5*3B
$GPRMC,225549.000,A,3748.5538,N,12217.9638,W,2.71,202.77,070411,,,A*76
$GPVTG,202.77,T,,M,2.71,N,5.0,K,A*0C
$GPGGA,225550.000,3748.5532,N,12217.9643,W,1,04,3.7,-3.2,M,-25.1,M,,0000*4A
$GPGSA,A,3,13,23,16,07,,,,,,,,,8.4,3.7,7.5*3B
$GPRMC,225550.000,A,3748.5532,N,12217.9643,W,2.92,210.56,070411,,,A*75
$GPVTG,210.56,T,,M,2.92,N,5.4,K,A*05
$GPGGA,225551.000,3748.5525,N,12217.9649,W,1,04,3.7,-3.5,M,-25.1,M,,0000*40
$GPGSA,A,3,13,23,16,07,,,,,,,,,8.4,3.7,7.5*3B
$GPRMC,225551.000,A,3748.5525,N,12217.9649,W,2.90,213.25,070411,,,A*7D
$GPVTG,213.25,T,,M,2.90,N,5.4,K,A*00
$GPGGA,225552.000,3748.5519,N,12217.9658,W,1,04,3.7,-3.4,M,-25.1,M,,0000*4D
$GPGSA,A,3,13,23,16,07,,,,,,,,,8.3,3.7,7.5*3C
$GPGSV,3,1,12,23,68,357,31,20,64,188,32,16,48,093,25,32,44,153,29*7F
$GPGSV,3,2,12,13,41,305,38,30,39,065,25,07,21,239,40,04,15,296,31*7B
$GPGSV,3,3,12,31,07,051,18,10,06,319,15,24,05,195,27,03,01,130,*71
$GPRMC,225552.000,A,3748.5519,N,12217.9658,W,2.65,209.45,070411,,,A*76
$GPVTG,209.45,T,,M,2.65,N,4.9,K,A*0B
$GPGGA,225553.000,3748.5513,N,12217.9664,W,1,04,3.7,-3.7,M,-25.1,M,,0000*4A
$GPGSA,A,3,13,23,16,07,,,,,,,,,8.3,3.7,7.5*3C
$GPRMC,225553.000,A,3748.5513,N,12217.9664,W,2.71,206.06,070411,,,A*7F
$GPVTG,206.06,T,,M,2.71,N,5.0,K,A*0E
$GPGGA,225554.000,3748.5507,N,12217.9669,W,1,04,3.7,-4.3,M,-25.1,M,,0000*46
$GPGSA,A,3,13,23,16,07,,,,,,,,,8.3,3.7,7.5*3C
$GPRMC,225554.000,A,3748.5507,N,12217.9669,W,2.80,214.68,070411,,,A*75
$GPVTG,214.68,T,,M,2.80,N,5.2,K,A*09
$GPGGA,225555.000,3748.5501,N,12217.9675,W,1,04,3.7,-4.6,M,-25.1,M,,0000*49
$GPGSA,A,3,13,23,16,07,,,,,,,,,8.3,3.7,7.5*3C
$GPRMC,225555.000,A,3748.5501,N,12217.9675,W,2.78,206.96,070411,,,A*7A
$GPVTG,206.96,T,,M,2.78,N,5.1,K,A*0F
$GPGGA,225556.000,3748.5494,N,12217.9686,W,1,04,3.7,-3.8,M,-25.1,M,,0000*42
$GPGSA,A,3,13,23,16,07,,,,,,,,,8.3,3.7,7.5*3C
$GPRMC,225556.000,A,3748.5494,N,12217.9686,W,2.74,206.88,070411,,,A*7B
$GPVTG,206.88,T,,M,2.74,N,5.1,K,A*0C
$GPGGA,225557.000,3748.5488,N,12217.9688,W,1,04,3.7,-4.7,M,-25.1,M,,0000*48
$GPGSA,A,3,13,23,16,07,,,,,,,,,8.3,3.7,7.5*3C
$GPGSV,3,1,12,23,68,357,31,20,64,188,32,16,48,093,25,32,44,153,29*7F
$GPGSV,3,2,12,13,41,305,39,30,39,065,24,07,21,239,40,04,15,296,31*7B
$GPGSV,3,3,12,31,07,051,18,10,06,319,24,24,05,195,30,03,01,130,*75
$GPRMC,225557.000,A,3748.5488,N,12217.9688,W,2.68,204.48,070411,,,A*7A
$GPGGA,225558.000,3748.5481,N,12217.9695,W,1,04,3.7,-4.4,M,-25.1,M,,0000*41
$GPGSA,A,3,13,23,16,07,,,,,,,,,8.3,3.7,7.5*3C
$GPRMC,225558.000,A,3748.5481,N,12217.9695,W,2.75,198.25,070411,,,A*71
$GPVTG,198.25,T,,M,2.75,N,5.1,K,A*0E
$GPGGA,225559.000,3748.5474,N,12217.9702,W,1,04,3.7,-4.3,M,-25.1,M,,0000*42
$GPGSA,A,3,13,23,16,07,,,,,,,,,8.3,3.7,7.5*3C
$GPRMC,225559.000,A,3748.5474,N,12217.9702,W,2.84,198.01,070411,,,A*7D
$GPVTG,198.01,T,,M,2.84,N,5.3,K,A*04
$GPGGA,225600.000,3748.5466,N,12217.9711,W,1,04,3.7,-3.5,M,-25.1,M,,0000*4D
$GPGSA,A,3,13,23,16,07,,,,,,,,,8.3,3.7,7.5*3C
$GPRMC,225600.000,A,3748.5466,N,12217.9711,W,2.80,202.84,070411,,,A*7A
$GPVTG,202.84,T,,M,2.80,N,5.2,K,A*0C
$GPGGA,225601.000,3748.5457,N,12217.9725,W,1,04,3.7,-1.2,M,-25.1,M,,0000*4C
$GPGSA,A,3,13,23,16,07,,,,,,,,,8.3,3.7,7.5*3C
$GPRMC,225601.000,A,3748.5457,N,12217.9725,W,2.78,202.53,070411,,,A*73
$GPVTG,202.53,T,,M,2.78,N,5.2,K,A*01
$GPGGA,225602.000,3748.5447,N,12217.9737,W,1,04,3.7,0.9,M,-25.1,M,,0000*6A
$GPGSA,A,3,13,23,16,07,,,,,,,,,8.3,3.7,7.5*3C
$GPGSV,3,1,12,23,68,357,31,20,64,188,30,16,48,093,25,32,44,153,26*72
$GPGSV,3,2,12,13,41,305,39,30,39,065,24,07,21,239,40,04,15,296,27*7C
$GPGSV,3,3,12,31,07,051,18,10,06,319,24,24,05,195,32,03,01,130,*77
$GPRMC,225602.000,A,3748.5447,N,12217.9737,W,2.86,195.27,070411,,,A*7D
$GPVTG,195.27,T,,M,2.86,N,5.3,K,A*0F
$GPGGA,225603.000,3748.5443,N,12217.9735,W,1,04,3.7,-1.2,M,-25.1,M,,0000*4A
$GPGSA,A,3,13,23,16,07,,,,,,,,,8.3,3.7,7.5*3C
$GPRMC,225603.000,A,3748.5443,N,12217.9735,W,2.88,198.34,070411,,,A*7B
$GPVTG,198.34,T,,M,2.88,N,5.3,K,A*0E
$GPGGA,225604.000,3748.5435,N,12217.9738,W,1,04,3.7,-1.5,M,-25.1,M,,0000*46
$GPGSA,A,3,13,23,16,07,,,,,,,,,8.3,3.7,7.5*3C
$GPRMC,225604.000,A,3748.5435,N,12217.9738,W,2.87,204.01,070411,,,A*7F
$GPVTG,204.01,T,,M,2.87,N,5.3,K,A*01
$GPGGA,225605.000,3748.5429,N,12217.9739,W,1,04,3.7,-2.5,M,-25.1,M,,0000*48
$GPGSA,A,3,13,23,16,07,,,,,,,,,8.3,3.7,7.5*3C
$GPRMC,225605.000,A,3748.5429,N,12217.9739,W,2.81,208.07,070411,,,A*7E
$GPVTG,208.07,T,,M,2.81,N,5.2,K,A*0C
$GPGGA,225606.000,3748.5422,N,12217.9747,W,1,04,3.7,-2.1,M,-25.1,M,,0000*4D
$GPGSA,A,3,13,23,16,07,,,,,,,,,8.3,3.7,7.5*3C
$GPRMC,225606.000,A,3748.5422,N,12217.9747,W,2.61,208.98,070411,,,A*77
$GPVTG,208.98,T,,M,2.61,N,4.8,K,A*0F
$GPGGA,225607.000,3748.5415,N,12217.9753,W,1,04,3.7,-2.0,M,-25.1,M,,0000*4C
$GPGSA,A,3,13,23,16,07,,,,,,,,,8.3,3.7,7.5*3C
$GPGSV,3,1,12,23,68,357,32,20,64,188,31,16,48,093,25,32,44,153,27*71
$GPGSV,3,2,12,13,41,305,39,30,39,065,23,07,21,239,38,04,15,296,40*75
$GPGSV,3,3,12,31,07,051,,10,06,319,23,24,05,195,26,03,01,130,*7C
$GPRMC,225607.000,A,3748.5415,N,12217.9753,W,3.09,203.63,070411,,,A*77
$GPVTG,203.63,T,,M,3.09,N,5.7,K,A*01
$GPGGA,225608.000,3748.5408,N,12217.9758,W,1,04,3.7,-2.1,M,-25.1,M,,0000*45
$GPGSA,A,3,13,23,16,07,,,,,,,,,8.3,3.7,7.5*3C
$GPRMC,225608.000,A,3748.5408,N,12217.9758,W,2.79,203.11,070411,,,A*7C
$GPVTG,203.11,T,,M,2.79,N,5.2,K,A*07
$GPGGA,225609.000,3748.5402,N,12217.9761,W,1,04,3.7,-2.7,M,-25.1,M,,0000*42
$GPGSA,A,3,13,23,16,07,,,,,,,,,8.3,3.7,7.5*3C
$GPRMC,225609.000,A,3748.5402,N,12217.9761,W,2.77,198.14,070411,,,A*77
$GPVTG,198.14,T,,M,2.77,N,5.1,K,A*0E
$GPGGA,225610.000,3748.5394,N,12217.9768,W,1,04,3.7,-2.3,M,-25.1,M,,0000*4F
$GPGSA,A,3,13,23,16,07,,,,,,,,,8.3,3.7,7.5*3C
$GPRMC,225610.000,A,3748.5394,N,12217.9768,W,2.92,206.48,070411,,,A*78
$GPVTG,206.48,T,,M,2.92,N,5.4,K,A*0D
$GPGGA,225611.000,3748.5387,N,12217.9773,W,1,04,3.7,-2.5,M,-25.1,M,,0000*40
$GPGSA,A,3,13,23,16,07,,,,,,,,,8.3,3.7,7.5*3C
$GPRMC,225611.000,A,3748.5387,N,12217.9773,W,2.80,204.87,070411,,,A*73
$GPVTG,204.87,T,,M,2.80,N,5.2,K,A*09
$GPGGA,225612.000,3748.5379,N,12217.9778,W,1,04,3.7,-2.5,M,-25.1,M,,0000*49
$GPGSA,A,3,13,23,16,07,,,,,,,,,8.3,3.7,7.5*3C
$GPGSV,3,1,12,23,68,357,31,20,64,188,32,16,48,093,25,32,44,153,28*7E
$GPGSV,3,2,12,13,41,305,38,30,39,065,23,07,21,239,33,04,15,296,40*7F
$GPGSV,3,3,12,31,07,051,,10,06,319,26,24,05,195,27,03,01,130,*78
$GPRMC,225612.000,A,3748.5379,N,12217.9778,W,2.91,196.57,070411,,,A*7F
$GPGGA,225613.000,3748.5372,N,12217.9786,W,1,04,3.7,-2.1,M,-25.1,M,,0000*46
$GPGSA,A,3,13,23,16,07,,,,,,,,,8.3,3.7,7.5*3C
$GPRMC,225613.000,A,3748.5372,N,12217.9786,W,2.98,204.37,070411,,,A*73
$GPVTG,204.37,T,,M,2.98,N,5.5,K,A*0C
$GPGGA,225614.000,3748.5367,N,12217.9787,W,1,04,3.7,-3.1,M,-25.1,M,,0000*45
$GPGSA,A,3,13,23,16,07,,,,,,,,,8.3,3.7,7.5*3C
$GPRMC,225614.000,A,3748.5367,N,12217.9787,W,2.18,197.78,070411,,,A*7B
$GPVTG,197.78,T,,M,2.18,N,4.0,K,A*02
$GPGGA,225615.000,3748.5360,N,12217.9786,W,1,04,3.7,-4.7,M,-25.1,M,,0000*43
$GPGSA,A,3,13,23,16,07,,,,,,,,,8.3,3.7,7.5*3C
$GPRMC,225615.000,A,3748.5360,N,12217.9786,W,2.92,191.02,070411,,,A*75
$GPVTG,191.02,T,,M,2.92,N,5.4,K,A*0E
$GPGGA,225616.000,3748.5355,N,12217.9791,W,1,04,3.7,-4.8,M,-25.1,M,,0000*4F
$GPGSA,A,3,13,23,16,07,,,,,,,,,8.3,3.7,7.5*3C
$GPRMC,225616.000,A,3748.5355,N,12217.9791,W,3.14,199.07,070411,,,A*74
$GPVTG,199.07,T,,M,3.14,N,5.8,K,A*00
$GPGGA,225617.000,3748.5349,N,12217.9797,W,1,04,3.7,-4.6,M,-25.1,M,,0000*4B
$GPGSA,A,3,13,23,16,07,,,,,,,,,8.3,3.7,7.5*3C
$GPGSV,3,1,12,23,68,357,31,20,64,187,32,16,48,093,25,32,44,153,28*71
$GPGSV,3,2,12,13,41,305,33,30,39,064,23,07,21,239,27,04,15,296,21*77
$GPGSV,3,3,12,31,07,051,22,10,06,319,28,24,04,195,25,03,01,130,*75
$GPRMC,225617.000,A,3748.5349,N,12217.9797,W,2.66,192.56,070411,,,A*75
$GPVTG,192.56,T,,M,2.66,N,4.9,K,A*0B
$GPGGA,225618.000,3748.5342,N,12217.9800,W,1,04,3.7,-4.5,M,-25.1,M,,0000*4D
$GPGSA,A,3,13,23,16,07,,,,,,,,,8.3,3.7,7.5*3C
$GPRMC,225618.000,A,3748.5342,N,12217.9800,W,2.69,204.38,070411,,,A*7B
$GPVTG,204.38,T,,M,2.69,N,5.0,K,A*08
$GPGGA,225619.000,3748.5336,N,12217.9804,W,1,04,3.7,-4.8,M,-25.1,M,,0000*46
$GPGSA,A,3,13,23,16,07,,,,,,,,,8.3,3.7,7.5*3C
$GPRMC,225619.000,A,3748.5336,N,12217.9804,W,2.56,211.92,070411,,,A*75
$GPVTG,211.92,T,,M,2.56,N,4.7,K,A*06
$GPGGA,225620.000,3748.5332,N,12217.9809,W,1,04,3.7,-5.4,M,-25.1,M,,0000*48
$GPGSA,A,3,13,23,16,07,,,,,,,,,8.3,3.7,7.5*3C
$GPRMC,225620.000,A,3748.5332,N,12217.9809,W,2.23,215.88,070411,,,A*7B
$GPVTG,215.88,T,,M,2.23,N,4.1,K,A*0D
$GPGGA,225621.000,3748.5325,N,12217.9812,W,1,04,3.7,-5.5,M,-25.1,M,,0000*44
$GPGSA,A,3,13,23,16,07,,,,,,,,,8.3,3.7,7.5*3C
$GPRMC,225621.000,A,3748.5325,N,12217.9812,W,2.52,208.67,070411,,,A*7D
$GPVTG,208.67,T,,M,2.52,N,4.7,K,A*00
$GPGGA,225622.000,3748.5319,N,12217.9815,W,1,04,3.7,-6.2,M,-25.1,M,,0000*4B
$GPGSA,A,3,13,23,16,07,,,,,,,,,8.3,3.7,7.5*3C
$GPGSV,3,1,12,23,68,357,32,20,64,187,32,16,48,093,30,32,44,153,28*76
$GPGSV,3,2,12,13,41,305,38,30,39,064,24,07,21,239,31,04,15,296,19*77
$GPGSV,3,3,12,31,07,051,23,10,06,319,15,24,04,195,20,03,01,130,*7F
$GPRMC,225622.000,A,3748.5319,N,12217.9815,W,2.64,203.77,070411,,,A*79
$GPVTG,203.77,T,,M,2.64,N,4.9,K,A*01
$GPGGA,225623.000,3748.5314,N,12217.9816,W,1,04,3.7,-7.1,M,-25.1,M,,0000*46
$GPGSA,A,3,13,23,16,07,,,,,,,,,8.3,3.7,7.5*3C
$GPRMC,225623.000,A,3748.5314,N,12217.9816,W,2.72,206.42,070411,,,A*72
$GPVTG,206.42,T,,M,2.72,N,5.0,K,A*0D
$GPGGA,225624.000,3748.5302,N,12217.9825,W,1,04,3.7,-5.0,M,-25.1,M,,0000*45
$GPGSA,A,3,13,23,16,07,,,,,,,,,8.3,3.7,7.5*3C
$GPRMC,225624.000,A,3748.5302,N,12217.9825,W,2.65,202.33,070411,,,A*76
$GPVTG,202.33,T,,M,2.65,N,4.9,K,A*01
$GPGGA,225625.000,3748.5296,N,12217.9829,W,1,04,3.7,-6.2,M,-25.1,M,,0000*45
$GPGSA,A,3,13,23,16,07,,,,,,,,,8.3,3.7,7.5*3C
$GPRMC,225625.000,A,3748.5296,N,12217.9829,W,2.48,192.48,070411,,,A*7E
$GPVTG,192.48,T,,M,2.48,N,4.6,K,A*07
$GPGGA,225626.000,3748.5291,N,12217.9827,W,1,04,3.7,-8.3,M,-25.1,M,,0000*40
$GPGSA,A,3,13,23,16,07,,,,,,,,,8.3,3.7,7.5*3C
$GPRMC,225626.000,A,3748.5291,N,12217.9827,W,2.60,195.12,070411,,,A*76
$GPVTG,195.12,T,,M,2.60,N,4.8,K,A*0B
$GPGGA,225627.000,3748.5285,N,12217.9829,W,1,04,3.7,-9.5,M,-25.1,M,,0000*4D
$GPGSA,A,3,13,23,16,07,,,,,,,,,8.3,3.7,7.5*3C
$GPGSV,3,1,12,23,68,357,30,20,64,187,32,16,48,093,26,32,44,153,28*73
$GPGSV,3,2,12,13,41,305,37,30,39,064,25,07,21,239,38,04,15,296,20*7A
$GPGSV,3,3,12,31,07,051,23,10,06,319,16,24,04,195,23,03,01,130,*7F
$GPRMC,225627.000,A,3748.5285,N,12217.9829,W,2.62,190.66,070411,,,A*78
$GPGGA,225628.000,3748.5278,N,12217.9831,W,1,04,3.7,-10.4,M,-25.1,M,,0000*70
$GPGSA,A,3,13,23,16,07,,,,,,,,,8.3,3.7,7.5*3C
$GPRMC,225628.000,A,3748.5278,N,12217.9831,W,2.62,194.59,070411,,,A*74
$GPVTG,194.59,T,,M,2.62,N,4.8,K,A*07
$GPGGA,225629.000,3748.5272,N,12217.9837,W,1,04,3.7,-10.7,M,-25.1,M,,0000*7E
$GPGSA,A,3,13,23,16,07,,,,,,,,,8.3,3.7,7.5*3C
$GPRMC,225629.000,A,3748.5272,N,12217.9837,W,2.73,205.17,070411,,,A*78
$GPVTG,205.17,T,,M,2.73,N,5.0,K,A*0F
$GPGGA,225630.000,3748.5267,N,12217.9842,W,1,04,3.7,-11.7,M,-25.1,M,,0000*71
$GPGSA,A,3,13,23,16,07,,,,,,,,,8.3,3.7,7.5*3C
$GPRMC,225630.000,A,3748.5267,N,12217.9842,W,2.58,209.50,070411,,,A*70
$GPVTG,209.50,T,,M,2.58,N,4.8,K,A*00
$GPGGA,225631.000,3748.5262,N,12217.9845,W,1,04,3.7,-12.6,M,-25.1,M,,0000*70
$GPGSA,A,3,13,23,16,07,,,,,,,,,8.3,3.7,7.5*3C
$GPRMC,225631.000,A,3748.5262,N,12217.9845,W,2.12,197.01,070411,,,A*7D
$GPVTG,197.01,T,,M,2.12,N,3.9,K,A*08
$GPGGA,225632.000,3748.5258,N,12217.9849,W,1,04,3.7,-13.8,M,-25.1,M,,0000*79
$GPGSA,A,3,13,23,16,07,,,,,,,,,8.3,3.7,7.5*3C
$GPGSV,3,1,12,23,68,357,31,20,64,187,32,16,48,093,27,32,44,153,28*73
$GPGSV,3,2,12,13,41,305,32,30,39,064,25,07,21,239,38,04,15,296,23*7C
$GPGSV,3,3,12,31,07,051,24,10,06,319,14,24,04,195,24,03,01,130,*7D
$GPRMC,225632.000,A,3748.5258,N,12217.9849,W,2.43,191.03,070411,,,A*7B
$GPVTG,191.03,T,,M,2.43,N,4.5,K,A*03
$GPGGA,225633.000,3748.5252,N,12217.9849,W,1,04,3.7,-15.4,M,-25.1,M,,0000*78
$GPGSA,A,3,13,23,16,07,,,,,,,,,8.3,3.7,7.5*3C
$GPRMC,225633.000,A,3748.5252,N,12217.9849,W,2.61,189.14,070411,,,A*7F
$GPVTG,189.14,T,,M,2.61,N,4.8,K,A*01
$GPGGA,225634.000,3748.5247,N,12217.9856,W,1,04,3.7,-15.5,M,-25.1,M,,0000*74
$GPGSA,A,3,13,23,16,07,,,,,,,,,8.3,3.7,7.5*3C
$GPRMC,225634.000,A,3748.5247,N,12217.9856,W,2.42,192.91,070411,,,A*74
$GPVTG,192.91,T,,M,2.42,N,4.5,K,A*0A
$GPGGA,225635.000,3748.5240,N,12217.9865,W,1,04,3.7,-14.7,M,-25.1,M,,0000*71
$GPGSA,A,3,13,23,16,07,,,,,,,,,8.3,3.7,7.5*3C
$GPRMC,225635.000,A,3748.5240,N,12217.9865,W,2.28,196.64,070411,,,A*70
$GPVTG,196.64,T,,M,2.28,N,4.2,K,A*0F
$GPGGA,225636.000,3748.5234,N,12217.9873,W,1,04,3.7,-14.4,M,-25.1,M,,0000*75
$GPGSA,A,3,13,23,16,07,,,,,,,,,8.3,3.7,7.5*3C
$GPRMC,225636.000,A,3748.5234,N,12217.9873,W,2.34,206.58,070411,,,A*7F
$GPVTG,206.58,T,,M,2.34,N,4.3,K,A*06
$GPGGA,225637.000,3748.5230,N,12217.9876,W,1,04,3.7,-16.4,M,-25.1,M,,0000*77
$GPGSA,A,3,13,23,16,07,,,,,,,,,8.3,3.7,7.5*3C
$GPGSV,3,1,12,23,68,357,26,20,64,187,32,16,48,093,26,32,44,153,28*74
$GPGSV,3,2,12,13,41,305,37,30,39,064,25,07,21,239,35,04,15,296,35*73
$GPGSV,3,3,12,31,07,051,24,10,06,319,19,24,04,195,28,03,01,130,*7C
$GPRMC,225637.000,A,3748.5230,N,12217.9876,W,2.58,199.48,070411,,,A*71
$GPVTG,199.48,T,,M,2.58,N,4.8,K,A*03
$GPGGA,225638.000,3748.5224,N,12217.9882,W,1,04,3.7,-17.0,M,-25.1,M,,0000*73
$GPGSA,A,3,13,23,16,07,,,,,,,,,8.3,3.7,7.5*3C
$GPRMC,225638.000,A,3748.5224,N,12217.9882,W,2.46,212.12,070411,,,A*70
$GPVTG,212.12,T,,M,2.46,N,4.6,K,A*0D
$GPGGA,225639.000,3748.5217,N,12217.9890,W,1,04,3.7,-17.0,M,-25.1,M,,0000*71
$GPGSA,A,3,13,23,16,07,,,,,,,,,8.3,3.7,7.5*3C
$GPRMC,225639.000,A,3748.5217,N,12217.9890,W,2.64,205.38,070411,,,A*7C
$GPVTG,205.38,T,,M,2.64,N,4.9,K,A*0C
$GPGGA,225640.000,3748.5211,N,12217.9896,W,1,04,3.7,-17.4,M,-25.1,M,,0000*7B
$GPGSA,A,3,13,23,16,07,,,,,,,,,8.3,3.7,7.5*3C
$GPRMC,225640.000,A,3748.5211,N,12217.9896,W,2.59,204.70,070411,,,A*71
$GPVTG,204.70,T,,M,2.59,N,4.8,K,A*0E
$GPGGA,225641.000,3748.5204,N,12217.9901,W,1,04,3.7,-17.9,M,-25.1,M,,0000*7C
$GPGSA,A,3,13,23,16,07,,,,,,,,,8.3,3.7,7.5*3C
$GPRMC,225641.000,A,3748.5204,N,12217.9901,W,2.52,206.32,070411,,,A*74
$GPVTG,206.32,T,,M,2.52,N,4.7,K,A*0E
$GPGGA,225642.000,3748.5198,N,12217.9910,W,1,04,3.7,-17.7,M,-25.1,M,,0000*77
$GPGSA,A,3,13,23,16,07,,,,,,,,,8.3,3.7,7.5*3C
$GPGSV,3,1,12,23,68,357,32,20,64,187,32,16,48,093,26,32,44,153,28*71
