$ADVER,3080,2.3
$GPRMC,191427.574,A,3748.8035,N,12217.8607,W,0.14,158.16,200911,,,A*7F
$GPGGA,191428.574,3748.8024,N,12217.8598,W,1,06,1.6,-12.0,M,-25.1,M,,0000*76
$GPGSA,A,3,15,17,09,28,26,08,,,,,,,3.4,1.6,3.0*3C
$GPGSV,3,1,12,17,66,039,38,27,55,305,39,09,38,313,41,28,35,077,38*77
$GPGSV,3,2,12,15,25,251,36,26,19,211,33,08,06,141,36,04,37,150,33*7E
$GPGSV,3,3,12,02,10,184,27,12,08,286,39,01,08,036,,24,01,031,*75
$GPRMC,191428.574,A,3748.8024,N,12217.8598,W,0.18,194.93,200911,,,A*74
$GPVTG,194.93,T,,M,0.18,N,0.3,K,A*01
$GPGGA,191429.000,3748.8020,N,12217.8603,W,1,06,1.6,-12.0,M,-25.1,M,,0000*74
$GPGSA,A,3,15,17,09,28,26,08,,,,,,,3.4,1.6,3.0*3C
$GPRMC,191429.000,A,3748.8020,N,12217.8603,W,0.13,170.52,200911,,,A*7A
$GPVTG,170.52,T,,M,0.13,N,0.2,K,A*0C
$GPGGA,191430.000,3748.8020,N,12217.8601,W,1,06,1.6,-12.0,M,-25.1,M,,0000*7E
$GPGSA,A,3,15,17,09,28,26,08,,,,,,,3.4,1.6,3.0*3C
$GPRMC,191430.000,A,3748.8020,N,12217.8601,W,0.10,188.49,200911,,,A*7E
$GPVTG,188.49,T,,M,0.10,N,0.2,K,A*02
$GPGGA,191431.000,3748.8016,N,12217.8604,W,1,06,1.6,-11.8,M,-25.1,M,,0000*74
$GPGSA,A,3,15,17,09,28,26,08,,,,,,,3.4,1.6,3.0*3C
$GPRMC,191431.000,A,3748.8016,N,12217.8604,W,0.12,171.90,200911,,,A*7F
$GPVTG,171.90,T,,M,0.12,N,0.2,K,A*02
$GPGGA,191432.000,3748.8012,N,12217.8605,W,1,06,1.6,-11.8,M,-25.1,M,,0000*72
$GPGSA,A,3,15,17,09,28,26,08,,,,,,,3.4,1.6,3.0*3C
$GPRMC,191432.000,A,3748.8012,N,12217.8605,W,0.14,181.35,200911,,,A*7F
$GPVTG,181.35,T,,M,0.14,N,0.3,K,A*05
$GPGGA,191433.000,3748.8012,N,12217.8604,W,1,07,1.2,-11.8,M,-25.1,M,,0000*77
$GPGSA,A,3,15,17,09,28,12,26,08,,,,,,2.2,1.2,1.9*37
$GPGSV,3,1,12,17,66,039,38,27,55,305,39,09,38,313,41,28,35,077,38*77
$GPGSV,3,2,12,15,25,251,37,26,19,211,31,08,06,141,28,04,37,150,25*75
$GPGSV,3,3,12,02,10,184,19,12,08,286,39,01,08,036,27,24,01,031,*7D
$GPVTG,181.96,T,,M,0.11,N,0.2,K,A*08
$GPGGA,191434.000,3748.8015,N,12217.8605,W,1,07,1.2,-12.4,M,-25.1,M,,0000*79
$GPGSA,A,3,15,17,09,28,12,26,08,,,,,,2.2,1.2,1.9*37
$GPRMC,191434.000,A,3748.8015,N,12217.8605,W,0.87,335.84,200911,,,A*73
$GPVTG,335.84,T,,M,0.87,N,1.6,K,A*0C
$GPGGA,191435.000,3748.8019,N,12217.8605,W,1,07,1.2,-12.0,M,-25.1,M,,0000*70
$GPGSA,A,3,15,17,09,28,12,26,08,,,,,,2.2,1.2,1.9*37
$GPRMC,191435.000,A,3748.8019,N,12217.8605,W,0.13,339.15,200911,,,A*77
$GPVTG,339.15,T,,M,0.13,N,0.2,K,A*00
$GPGGA,191436.000,3748.8020,N,12217.8596,W,1,07,1.2,-14.2,M,-25.1,M,,0000*74
$GPGSA,A,3,15,17,09,28,12,26,08,,,,,,2.2,1.2,1.9*37
$GPRMC,191436.000,A,3748.8020,N,12217.8596,W,0.78,97.87,200911,,,A*46
$GPVTG,97.87,T,,M,0.78,N,1.4,K,A*36
$GPGGA,191437.000,3748.8022,N,12217.8592,W,1,07,1.2,-13.9,M,-25.1,M,,0000*7F
$GPGSA,A,3,15,17,09,28,12,26,08,,,,,,2.2,1.2,1.9*37
$GPRMC,191437.000,A,3748.8022,N,12217.8592,W,0.90,101.72,200911,,,A*73
$GPVTG,101.72,T,,M,0.90,N,1.7,K,A*07
$GPGGA,191438.000,3748.8018,N,12217.8596,W,1,07,1.2,-12.0,M,-25.1,M,,0000*75
$GPGSA,A,3,15,17,09,28,12,26,08,,,,,,2.2,1.2,1.9*37
$GPGSV,3,1,12,17,66,039,25,27,55,305,26,09,38,313,27,04,37,150,26*72
$GPGSV,3,2,12,28,35,077,23,15,25,251,24,26,19,211,26,02,10,184,20*73
$GPGSV,3,3,12,12,08,286,23,01,08,036,30,08,06,141,25,24,01,031,*7B
$GPRMC,191438.000,A,3748.8018,N,12217.8596,W,0.33,116.92,200911,,,A*70
$GPVTG,116.92,T,,M,0.33,N,0.6,K,A*06
$GPGGA,191439.000,3748.8020,N,12217.8601,W,1,05,2.7,-11.0,M,-25.1,M,,0000*75
$GPGSA,A,3,17,09,28,12,08,,,,,,,,4.1,2.7,3.1*3E
$GPRMC,191439.000,A,3748.8020,N,12217.8601,W,0.20,62.36,200911,,,A*49
$GPVTG,62.36,T,,M,0.20,N,0.4,K,A*3A
$GPGGA,191440.000,3748.8020,N,12217.8602,W,1,05,2.0,-9.8,M,-25.1,M,,0000*4E
$GPGSA,A,3,15,17,09,28,08,,,,,,,,3.9,2.0,3.3*33
$GPRMC,191440.000,A,3748.8020,N,12217.8602,W,0.57,63.74,200911,,,A*43
$GPVTG,63.74,T,,M,0.57,N,1.0,K,A*38
$GPGGA,191441.000,3748.8023,N,12217.8600,W,1,07,1.2,-9.5,M,-25.1,M,,0000*40
$GPGSA,A,3,15,17,09,28,12,26,08,,,,,,2.2,1.2,1.9*37
$GPRMC,191441.000,A,3748.8023,N,12217.8600,W,0.57,54.50,200911,,,A*41
$GPVTG,54.50,T,,M,0.57,N,1.1,K,A*3B
$GPGGA,191442.000,3748.8018,N,12217.8601,W,1,07,1.2,-9.2,M,-25.1,M,,0000*4D
$GPGSA,A,3,15,17,09,28,12,26,08,,,,,,2.2,1.2,1.9*37
$GPRMC,191442.000,A,3748.8018,N,12217.8601,W,0.34,219.00,200911,,,A*70
$GPVTG,219.00,T,,M,0.34,N,0.6,K,A*06
$GPGGA,191443.000,3748.8021,N,12217.8604,W,1,07,1.2,-10.8,M,-25.1,M,,0000*71
$GPGSA,A,3,15,17,09,28,12,26,08,,,,,,2.2,1.2,1.9*37
$GPGSV,3,1,12,17,66,039,25,27,55,305,20,09,38,313,26,04,37,150,26*75
$GPGSV,3,2,12,28,35,077,20,15,25,251,21,26,19,211,22,02,10,184,21*70
$GPGSV,3,3,12,12,08,286,25,01,08,036,21,08,06,141,26,24,01,031,*7E
$GPRMC,191443.000,A,3748.8021,N,12217.8604,W,0.58,284.79,200911,,,A*7E
$GPVTG,284.79,T,,M,0.58,N,1.1,K,A*00
$GPGGA,191444.000,3748.8022,N,12217.8599,W,1,07,1.2,-12.8,M,-25.1,M,,0000*70
$GPGSA,A,3,15,17,09,28,12,26,08,,,,,,2.2,1.2,1.9*37
$GPRMC,191444.000,A,3748.8022,N,12217.8599,W,0.54,186.99,200911,,,A*7E
$GPVTG,186.99,T,,M,0.54,N,1.0,K,A*02
$GPGGA,191445.000,3748.8019,N,12217.8604,W,1,07,1.2,-11.5,M,-25.1,M,,0000*70
$GPGSA,A,3,15,17,09,28,12,26,08,,,,,,2.2,1.2,1.9*37
$GPRMC,191445.000,A,3748.8019,N,12217.8604,W,0.30,143.15,200911,,,A*7F
$GPVTG,143.15,T,,M,0.30,N,0.6,K,A*0A
$GPGGA,191446.000,3748.8018,N,12217.8604,W,1,07,1.2,-10.7,M,-25.1,M,,0000*71
$GPGSA,A,3,15,17,09,28,12,26,08,,,,,,2.2,1.2,1.9*37
$GPRMC,191446.000,A,3748.8018,N,12217.8604,W,0.08,79.11,200911,,,A*4A
$GPVTG,79.11,T,,M,0.08,N,0.1,K,A*3A
$GPGGA,191447.000,3748.8020,N,12217.8602,W,1,07,1.2,-12.4,M,-25.1,M,,0000*7C
$GPGSA,A,3,15,17,09,28,12,26,08,,,,,,2.2,1.2,1.9*37
$GPRMC,191447.000,A,3748.8020,N,12217.8602,W,0.54,132.92,200911,,,A*7A
$GPVTG,132.92,T,,M,0.54,N,1.0,K,A*06
$GPGGA,191448.000,3748.8021,N,12217.8604,W,1,07,1.2,-12.0,M,-25.1,M,,0000*70
$GPGSA,A,3,15,17,09,28,12,26,08,,,,,,2.2,1.2,1.9*37
$GPGSV,3,1,12,17,66,039,25,27,55,305,25,09,38,313,32,04,37,150,26*75
$GPGSV,3,2,12,28,35,077,25,15,25,251,29,26,19,211,21,02,10,184,21*7E
$GPGSV,3,3,12,12,08,286,24,01,08,036,26,08,06,141,23,24,01,031,*7D
$GPRMC,191448.000,A,3748.8021,N,12217.8604,W,0.11,65.23,200911,,,A*4A
$GPVTG,65.23,T,,M,0.11,N,0.2,K,A*3D
$GPGGA,191449.000,3748.8022,N,12217.8606,W,1,07,1.2,-12.1,M,-25.1,M,,0000*71
$GPGSA,A,3,15,17,09,28,12,26,08,,,,,,2.2,1.2,1.9*37
$GPRMC,191449.000,A,3748.8022,N,12217.8606,W,0.83,171.51,200911,,,A*70
$GPVTG,171.51,T,,M,0.83,N,1.5,K,A*01
$GPGGA,191450.000,3748.8019,N,12217.8604,W,1,07,1.2,-11.1,M,-25.1,M,,0000*70
$GPGSA,A,3,15,17,09,28,12,26,08,,,,,,2.2,1.2,1.9*37
$GPRMC,191450.000,A,3748.8019,N,12217.8604,W,0.82,127.22,200911,,,A*74
$GPVTG,127.22,T,,M,0.82,N,1.5,K,A*07
$GPGGA,191451.000,3748.8018,N,12217.8605,W,1,07,1.2,-10.4,M,-25.1,M,,0000*75
$GPGSA,A,3,15,17,09,28,12,26,08,,,,,,2.2,1.2,1.9*37
$GPRMC,191451.000,A,3748.8018,N,12217.8605,W,0.19,267.95,200911,,,A*7C
$GPVTG,267.95,T,,M,0.19,N,0.3,K,A*09
$GPGGA,191452.000,3748.8015,N,12217.8605,W,1,07,1.2,-8.7,M,-25.1,M,,0000*41
$GPGSA,A,3,15,17,09,28,12,26,08,,,,,,2.2,1.2,1.9*37
$GPRMC,191452.000,A,3748.8015,N,12217.8605,W,0.49,136.89,200911,,,A*7D
$GPVTG,136.89,T,,M,0.49,N,0.9,K,A*0C
$GPGGA,191453.000,3748.8011,N,12217.8605,W,1,06,1.5,-7.8,M,-25.1,M,,0000*42
$GPGSA,A,3,15,17,09,28,12,08,,,,,,,2.6,1.5,2.1*3B
$GPGSV,3,1,12,17,66,039,29,27,55,305,33,09,38,313,35,04,37,150,23*7C
$GPGSV,3,2,12,28,35,077,25,15,25,251,27,26,19,211,19,02,10,184,21*7B
$GPGSV,3,3,12,12,08,286,34,01,08,036,24,08,06,141,25,24,01,031,*78
$GPRMC,191453.000,A,3748.8011,N,12217.8605,W,0.87,204.24,200911,,,A*7F
$GPGGA,191454.000,3748.8006,N,12217.8612,W,1,06,1.5,-6.2,M,-25.1,M,,0000*4E
$GPGSA,A,3,15,17,09,28,12,08,,,,,,,2.6,1.5,2.1*3B
$GPRMC,191454.000,A,3748.8006,N,12217.8612,W,0.65,219.63,200911,,,A*7B
$GPVTG,219.63,T,,M,0.65,N,1.2,K,A*02
$GPGGA,191455.000,3748.8004,N,12217.8613,W,1,05,1.8,-5.8,M,-25.1,M,,0000*4B
$GPGSA,A,3,15,17,09,12,08,,,,,,,,2.9,1.8,2.2*30
$GPRMC,191455.000,A,3748.8004,N,12217.8613,W,0.41,207.43,200911,,,A*72
$GPVTG,207.43,T,,M,0.41,N,0.8,K,A*02
$GPGGA,191456.000,3748.8001,N,12217.8616,W,1,07,1.2,-5.2,M,-25.1,M,,0000*4A
$GPGSA,A,3,15,17,09,28,12,26,08,,,,,,2.2,1.2,1.9*37
$GPRMC,191456.000,A,3748.8001,N,12217.8616,W,0.35,215.68,200911,,,A*78
$GPVTG,215.68,T,,M,0.35,N,0.6,K,A*05
$GPGGA,191457.000,3748.7999,N,12217.8621,W,1,07,1.2,-4.0,M,-25.1,M,,0000*4B
$GPGSA,A,3,15,17,09,28,12,26,08,,,,,,2.2,1.2,1.9*37
$GPRMC,191457.000,A,3748.7999,N,12217.8621,W,0.67,233.44,200911,,,A*77
$GPVTG,233.44,T,,M,0.67,N,1.2,K,A*0D
$GPGGA,191458.000,3748.7996,N,12217.8626,W,1,07,1.2,-3.0,M,-25.1,M,,0000*4B
$GPGSA,A,3,15,17,09,28,12,26,08,,,,,,2.2,1.2,1.9*37
$GPGSV,3,1,12,17,66,039,36,27,55,305,37,09,38,313,39,04,37,150,28*71
$GPGSV,3,2,12,28,35,077,28,15,25,251,34,26,19,211,28,02,10,184,26*71
$GPGSV,3,3,12,12,08,286,34,01,08,036,20,08,06,141,30,24,01,031,*78
$GPRMC,191458.000,A,3748.7996,N,12217.8626,W,0.37,202.32,200911,,,A*76
$GPVTG,202.32,T,,M,0.37,N,0.7,K,A*0F
$GPGGA,191459.000,3748.7999,N,12217.8625,W,1,07,1.2,-3.3,M,-25.1,M,,0000*45
$GPGSA,A,3,15,17,09,28,12,26,08,,,,,,2.2,1.2,1.9*37
$GPRMC,191459.000,A,3748.7999,N,12217.8625,W,0.25,201.17,200911,,,A*7C
$GPVTG,201.17,T,,M,0.25,N,0.5,K,A*0A
$GPGGA,191500.000,3748.7997,N,12217.8630,W,1,07,1.2,-2.3,M,-25.1,M,,0000*43
$GPGSA,A,3,15,17,09,28,12,26,08,,,,,,2.2,1.2,1.9*37
$GPRMC,191500.000,A,3748.7997,N,12217.8630,W,0.43,216.11,200911,,,A*7B
$GPVTG,216.11,T,,M,0.43,N,0.8,K,A*07
$GPGGA,191501.000,3748.7999,N,12217.8630,W,1,07,1.2,-2.6,M,-25.1,M,,0000*49
$GPGSA,A,3,15,17,09,28,12,26,08,,,,,,2.2,1.2,1.9*37
$GPRMC,191501.000,A,3748.7999,N,12217.8630,W,0.20,198.19,200911,,,A*7C
$GPVTG,198.19,T,,M,0.20,N,0.4,K,A*03
$GPGGA,191502.000,3748.8001,N,12217.8629,W,1,07,1.2,-2.9,M,-25.1,M,,0000*4A
$GPGSA,A,3,15,17,09,28,12,26,08,,,,,,2.2,1.2,1.9*37
$GPRMC,191502.000,A,3748.8001,N,12217.8629,W,0.20,190.22,200911,,,A*70
$GPVTG,190.22,T,,M,0.20,N,0.4,K,A*03
$GPGGA,191503.000,3748.8001,N,12217.8632,W,1,07,1.2,-2.7,M,-25.1,M,,0000*4F
$GPGSA,A,3,15,17,09,28,12,26,08,,,,,,2.2,1.2,1.9*37
$GPGSV,3,1,12,17,66,039,33,27,55,305,37,09,38,313,26,04,37,150,21*73
$GPGSV,3,2,12,28,35,077,26,15,25,251,30,26,19,211,22,02,10,184,19*7D
$GPGSV,3,3,12,12,08,286,33,01,08,036,20,08,06,141,30,24,01,031,*7F
$GPRMC,191503.000,A,3748.8001,N,12217.8632,W,0.45,186.41,200911,,,A*7A
$GPVTG,186.41,T,,M,0.45,N,0.8,K,A*0E
$GPGGA,191504.000,3748.8000,N,12217.8633,W,1,07,1.2,-2.4,M,-25.1,M,,0000*4B
$GPGSA,A,3,15,17,09,28,12,26,08,,,,,,2.2,1.2,1.9*37
$GPRMC,191504.000,A,3748.8000,N,12217.8633,W,0.37,288.33,200911,,,A*70
$GPVTG,288.33,T,,M,0.37,N,0.7,K,A*0C
$GPGGA,191505.000,3748.8000,N,12217.8634,W,1,07,1.2,-2.2,M,-25.1,M,,0000*4B
$GPGSA,A,3,15,17,09,28,12,26,08,,,,,,2.2,1.2,1.9*37
$GPRMC,191505.000,A,3748.8000,N,12217.8634,W,0.25,276.57,200911,,,A*76
$GPVTG,276.57,T,,M,0.25,N,0.5,K,A*0E
$GPGGA,191506.000,3748.7999,N,12217.8634,W,1,07,1.2,-1.9,M,-25.1,M,,0000*46
$GPGSA,A,3,15,17,09,28,12,26,08,,,,,,2.2,1.2,1.9*37
$GPRMC,191506.000,A,3748.7999,N,12217.8634,W,0.20,205.08,200911,,,A*78
$GPVTG,205.08,T,,M,0.20,N,0.4,K,A*04
$GPGGA,191507.000,3748.7999,N,12217.8634,W,1,07,1.2,-1.8,M,-25.1,M,,0000*46
$GPGSA,A,3,15,17,09,28,12,26,08,,,,,,2.2,1.2,1.9*37
$GPRMC,191507.000,A,3748.7999,N,12217.8634,W,0.34,202.08,200911,,,A*7B
$GPVTG,202.08,T,,M,0.34,N,0.6,K,A*04
$GPGGA,191508.000,3748.7998,N,12217.8634,W,1,07,1.2,-1.7,M,-25.1,M,,0000*47
$GPGSA,A,3,15,17,09,28,12,26,08,,,,,,2.2,1.2,1.9*37
$GPGSV,3,1,12,17,66,039,35,27,55,305,34,09,38,313,34,04,37,150,20*74
$GPGSV,3,2,12,28,35,077,38,15,25,251,34,26,19,211,30,02,10,184,25*7A
$GPGSV,3,3,12,12,08,286,33,01,08,036,22,08,06,141,25,24,01,031,*79
$GPVTG,177.98,T,,M,0.27,N,0.5,K,A*0D
$GPGGA,191509.000,3748.7997,N,12217.8634,W,1,07,1.2,-1.7,M,-25.1,M,,0000*49
$GPGSA,A,3,15,17,09,28,12,26,08,,,,,,2.2,1.2,1.9*37
$GPRMC,191509.000,A,3748.7997,N,12217.8634,W,0.19,195.33,200911,,,A*71
$GPVTG,195.33,T,,M,0.19,N,0.4,K,A*0C
$GPGGA,191510.000,3748.7997,N,12217.8634,W,1,07,1.2,-1.7,M,-25.1,M,,0000*41
$GPGSA,A,3,15,17,09,28,12,26,08,,,,,,2.2,1.2,1.9*37
$GPRMC,191510.000,A,3748.7997,N,12217.8634,W,0.16,169.78,200911,,,A*7A
$GPVTG,169.78,T,,M,0.16,N,0.3,K,A*08
$GPGGA,191511.000,3748.7996,N,12217.8633,W,1,07,1.2,-1.8,M,-25.1,M,,0000*49
$GPGSA,A,3,15,17,09,28,12,26,08,,,,,,2.2,1.2,1.9*37
$GPRMC,191511.000,A,3748.7996,N,12217.8633,W,0.21,169.96,200911,,,A*79
$GPVTG,169.96,T,,M,0.21,N,0.4,K,A*0B
$GPGGA,191512.000,3748.7996,N,12217.8633,W,1,07,1.2,-1.7,M,-25.1,M,,0000*45
$GPGSA,A,3,15,17,09,28,12,26,08,,,,,,2.2,1.2,1.9*37
$GPRMC,191512.000,A,3748.7996,N,12217.8633,W,0.20,42.49,200911,,,A*41
$GPVTG,42.49,T,,M,0.20,N,0.4,K,A*30
$GPGGA,191513.000,3748.7995,N,12217.8631,W,1,06,1.3,-1.6,M,-25.1,M,,0000*44
$GPGSA,A,3,17,09,28,12,26,08,,,,,,,2.4,1.3,2.0*3E
$GPGSV,3,1,12,17,66,039,29,27,55,305,27,09,38,313,25,04,37,150,16*7E
$GPGSV,3,2,12,28,35,077,31,15,25,251,28,26,19,211,27,02,10,184,29*74
$GPGSV,3,3,12,12,08,286,29,01,08,036,24,08,06,141,30,24,01,031,*70
$GPRMC,191513.000,A,3748.7995,N,12217.8631,W,0.42,160.93,200911,,,A*73
$GPVTG,160.93,T,,M,0.42,N,0.8,K,A*0E
$GPGGA,191514.000,3748.7993,N,12217.8632,W,1,07,1.2,-1.2,M,-25.1,M,,0000*42
$GPGSA,A,3,15,17,09,28,12,26,08,,,,,,2.2,1.2,1.9*37
$GPRMC,191514.000,A,3748.7993,N,12217.8632,W,0.32,176.26,200911,,,A*7F
$GPVTG,176.26,T,,M,0.32,N,0.6,K,A*0E
$GPGGA,191515.000,3748.7991,N,12217.8631,W,1,07,1.2,-0.8,M,-25.1,M,,0000*49
$GPGSA,A,3,15,17,09,28,12,26,08,,,,,,2.2,1.2,1.9*37
$GPRMC,191515.000,A,3748.7991,N,12217.8631,W,0.53,117.54,200911,,,A*7A
$GPVTG,117.54,T,,M,0.53,N,1.0,K,A*0C
$GPGGA,191516.000,3748.7990,N,12217.8629,W,1,07,1.2,-0.5,M,-25.1,M,,0000*4F
$GPGSA,A,3,15,17,09,28,12,26,08,,,,,,2.2,1.2,1.9*37
$GPRMC,191516.000,A,3748.7990,N,12217.8629,W,0.24,160.07,200911,,,A*77
$GPVTG,160.07,T,,M,0.24,N,0.4,K,A*0F
$GPGGA,191517.000,3748.7991,N,12217.8627,W,1,07,1.2,-0.6,M,-25.1,M,,0000*42
$GPGSA,A,3,15,17,09,28,12,26,08,,,,,,2.2,1.2,1.9*37
$GPRMC,191517.000,A,3748.7991,N,12217.8627,W,0.12,306.27,200911,,,A*7C
$GPVTG,306.27,T,,M,0.12,N,0.2,K,A*0C
$GPGGA,191518.000,3748.7992,N,12217.8626,W,1,07,1.2,-0.9,M,-25.1,M,,0000*40
$GPGSA,A,3,15,17,09,28,12,26,08,,,,,,2.2,1.2,1.9*37
$GPGSV,3,1,12,17,66,039,34,27,55,305,29,09,38,313,33,04,37,150,28*76
$GPGSV,3,2,12,28,35,077,33,15,25,251,30,26,19,211,31,02,10,184,34*74
$GPGSV,3,3,12,12,08,286,36,01,08,036,27,08,06,141,38,24,01,031,*75
$GPRMC,191518.000,A,3748.7992,N,12217.8626,W,0.33,191.82,200911,,,A*71
$GPVTG,191.82,T,,M,0.33,N,0.6,K,A*08
$GPGGA,191519.000,3748.7993,N,12217.8626,W,1,07,1.2,-1.3,M,-25.1,M,,0000*4B
$GPGSA,A,3,15,17,09,28,12,26,08,,,,,,2.2,1.2,1.9*37
$GPRMC,191519.000,A,3748.7993,N,12217.8626,W,0.27,9.39,200911,,,A*74
$GPVTG,9.39,T,,M,0.27,N,0.5,K,A*0E
$GPGGA,191520.000,3748.7997,N,12217.8624,W,1,07,1.2,-2.1,M,-25.1,M,,0000*46
$GPGSA,A,3,15,17,09,28,12,26,08,,,,,,2.2,1.2,1.9*37
$GPRMC,191520.000,A,3748.7997,N,12217.8624,W,0.84,41.05,200911,,,A*42
$GPVTG,41.05,T,,M,0.84,N,1.6,K,A*36
$GPGGA,191521.000,3748.8000,N,12217.8621,W,1,07,1.2,-3.0,M,-25.1,M,,0000*4A
$GPGSA,A,3,15,17,09,28,12,26,08,,,,,,2.2,1.2,1.9*37
$GPRMC,191521.000,A,3748.8000,N,12217.8621,W,0.23,76.29,200911,,,A*49
$GPVTG,76.29,T,,M,0.23,N,0.4,K,A*32
$GPGGA,191522.000,3748.8002,N,12217.8617,W,1,07,1.2,-3.3,M,-25.1,M,,0000*4D
$GPGSA,A,3,15,17,09,28,12,26,08,,,,,,2.2,1.2,1.9*37
$GPRMC,191522.000,A,3748.8002,N,12217.8617,W,0.18,97.11,200911,,,A*41
$GPVTG,97.11,T,,M,0.18,N,0.3,K,A*39
$GPGGA,191523.000,3748.8002,N,12217.8615,W,1,07,1.2,-3.7,M,-25.1,M,,0000*4A
$GPGSA,A,3,15,17,09,28,12,26,08,,,,,,2.2,1.2,1.9*37
$GPGSV,3,1,12,17,66,039,33,27,55,305,31,09,38,313,34,04,37,150,26*71
$GPGSV,3,2,12,28,35,077,37,15,25,251,33,26,19,211,22,02,10,184,21*75
$GPGSV,3,3,12,12,08,286,34,01,08,036,33,08,06,141,30,24,01,031,*7A
$GPRMC,191523.000,A,3748.8002,N,12217.8615,W,0.34,179.15,200911,,,A*79
$GPVTG,179.15,T,,M,0.34,N,0.6,K,A*07
$GPGGA,191524.000,3748.8003,N,12217.8613,W,1,07,1.2,-4.6,M,-25.1,M,,0000*4C
$GPGSA,A,3,15,17,09,28,12,26,08,,,,,,2.2,1.2,1.9*37
$GPRMC,191524.000,A,3748.8003,N,12217.8613,W,0.40,140.86,200911,,,A*7A
$GPVTG,140.86,T,,M,0.40,N,0.7,K,A*05
$GPGGA,191525.000,3748.8005,N,12217.8611,W,1,06,1.2,-4.7,M,-25.1,M,,0000*49
$GPGSA,A,3,15,09,28,12,26,08,,,,,,,2.8,1.2,2.6*37
$GPRMC,191525.000,A,3748.8005,N,12217.8611,W,0.11,146.14,200911,,,A*76
$GPVTG,146.14,T,,M,0.11,N,0.2,K,A*09
$GPGGA,191526.000,3748.8007,N,12217.8609,W,1,07,1.2,-4.3,M,-25.1,M,,0000*44
$GPGSA,A,3,15,17,09,28,12,26,08,,,,,,2.2,1.2,1.9*37
$GPRMC,191526.000,A,3748.8007,N,12217.8609,W,0.24,85.49,200911,,,A*4E
$GPVTG,85.49,T,,M,0.24,N,0.4,K,A*3F
$GPGGA,191527.000,3748.8009,N,12217.8604,W,1,06,1.2,-4.8,M,-25.1,M,,0000*4C
$GPGSA,A,3,15,09,28,12,26,08,,,,,,,2.8,1.2,2.6*37
$GPRMC,191527.000,A,3748.8009,N,12217.8604,W,0.17,48.02,200911,,,A*42
$GPVTG,48.02,T,,M,0.17,N,0.3,K,A*36
$GPGGA,191528.000,3748.8009,N,12217.8601,W,1,06,1.2,-5.1,M,-25.1,M,,0000*4E
$GPGSA,A,3,15,09,28,12,26,08,,,,,,,2.8,1.2,2.6*37
$GPGSV,3,1,12,17,66,039,,27,55,305,,09,38,313,24,04,37,150,*76
$GPGSV,3,2,12,28,35,077,30,15,25,251,28,26,19,211,29,02,10,184,*70
$GPGSV,3,3,12,12,08,286,30,01,08,036,29,08,06,141,22,24,01,031,*76
$GPRMC,191528.000,A,3748.8009,N,12217.8601,W,0.07,33.17,200911,,,A*41
$GPGGA,191529.000,3748.8008,N,12217.8596,W,1,06,1.2,-5.7,M,-25.1,M,,0000*45
$GPGSA,A,3,15,09,28,12,26,08,,,,,,,2.8,1.2,2.6*37
$GPRMC,191529.000,A,3748.8008,N,12217.8596,W,0.19,147.82,200911,,,A*7D
$GPVTG,147.82,T,,M,0.19,N,0.4,K,A*09
$GPGGA,191530.000,3748.8005,N,12217.8592,W,1,06,1.2,-6.4,M,-25.1,M,,0000*44
$GPGSA,A,3,15,09,28,12,26,08,,,,,,,2.8,1.2,2.6*37
$GPRMC,191530.000,A,3748.8005,N,12217.8592,W,0.35,152.27,200911,,,A*79
$GPVTG,152.27,T,,M,0.35,N,0.7,K,A*0F
$GPGGA,191531.000,3748.8004,N,12217.8590,W,1,06,1.2,-6.5,M,-25.1,M,,0000*47
$GPGSA,A,3,15,09,28,12,26,08,,,,,,,2.8,1.2,2.6*37
$GPRMC,191531.000,A,3748.8004,N,12217.8590,W,0.08,35.28,200911,,,A*4A
$GPVTG,35.28,T,,M,0.08,N,0.2,K,A*3B
$GPGGA,191532.000,3748.8005,N,12217.8588,W,1,06,1.2,-6.9,M,-25.1,M,,0000*40
$GPGSA,A,3,15,09,28,12,26,08,,,,,,,2.8,1.2,2.6*37
$GPRMC,191532.000,A,3748.8005,N,12217.8588,W,0.14,152.56,200911,,,A*75
$GPVTG,152.56,T,,M,0.14,N,0.3,K,A*0E
$GPGGA,191533.000,3748.8005,N,12217.8585,W,1,06,1.2,-7.3,M,-25.1,M,,0000*47
$GPGSA,A,3,15,09,28,12,26,08,,,,,,,2.8,1.2,2.6*37
$GPGSV,3,1,12,17,66,039,,27,55,305,,09,38,313,23,04,37,150,*71
$GPGSV,3,2,12,28,35,077,30,15,25,251,28,26,19,211,23,02,10,184,*7A
$GPGSV,3,3,12,12,08,286,30,01,08,036,20,08,06,141,24,24,01,031,*79
$GPRMC,191533.000,A,3748.8005,N,12217.8585,W,0.14,166.66,200911,,,A*7D
$GPVTG,166.66,T,,M,0.14,N,0.3,K,A*0A
$GPGGA,191534.000,3748.8006,N,12217.8584,W,1,04,1.9,-7.7,M,-25.1,M,,0000*4F
$GPGSA,A,3,15,28,12,26,,,,,,,,,6.1,1.9,5.8*39
$GPRMC,191534.000,A,3748.8006,N,12217.8584,W,0.29,143.90,200911,,,A*78
$GPVTG,143.90,T,,M,0.29,N,0.5,K,A*0C
$GPGGA,191535.000,3748.8007,N,12217.8581,W,1,05,1.3,-8.5,M,-25.1,M,,0000*4C
$GPGSA,A,3,15,09,28,12,26,,,,,,,,3.7,1.3,3.4*33
$GPRMC,191535.000,A,3748.8007,N,12217.8581,W,0.31,149.06,200911,,,A*71
$GPVTG,149.06,T,,M,0.31,N,0.6,K,A*03
$GPGGA,191536.000,3748.8007,N,12217.8581,W,1,05,1.3,-8.4,M,-25.1,M,,0000*4E
$GPGSA,A,3,15,09,28,12,26,,,,,,,,3.7,1.3,3.4*33
$GPRMC,191536.000,A,3748.8007,N,12217.8581,W,0.37,166.02,200911,,,A*7D
$GPVTG,166.02,T,,M,0.37,N,0.7,K,A*0D
$GPGGA,191537.000,3748.8008,N,12217.8583,W,1,06,1.3,-8.8,M,-25.1,M,,0000*4D
$GPGSA,A,3,15,09,28,12,17,26,,,,,,,2.7,1.3,2.4*35
$GPRMC,191537.000,A,3748.8008,N,12217.8583,W,0.13,189.11,200911,,,A*74
$GPVTG,189.11,T,,M,0.13,N,0.2,K,A*0D
$GPGGA,191538.000,3748.8011,N,12217.8584,W,1,07,1.2,-11.1,M,-25.1,M,,0000*7C
$GPGSA,A,3,15,08,09,28,12,17,26,,,,,,2.2,1.2,1.9*37
$GPGSV,3,1,12,17,66,039,30,27,55,305,,09,38,313,28,04,37,150,28*73
$GPGSV,3,2,12,28,35,077,28,15,25,251,24,26,19,211,31,02,10,184,*7C
$GPGSV,3,3,12,12,08,286,24,01,08,036,22,08,06,141,30,24,01,031,*7B
$GPRMC,191538.000,A,3748.8011,N,12217.8584,W,0.25,291.84,200911,,,A*77
$GPVTG,291.84,T,,M,0.25,N,0.5,K,A*09
$GPGGA,191539.000,3748.8015,N,12217.8588,W,1,07,1.2,-12.6,M,-25.1,M,,0000*71
$GPGSA,A,3,15,08,09,28,12,17,26,,,,,,2.2,1.2,1.9*37
$GPRMC,191539.000,A,3748.8015,N,12217.8588,W,0.40,310.39,200911,,,A*73
$GPVTG,310.39,T,,M,0.40,N,0.7,K,A*06
$GPGGA,191540.000,3748.8016,N,12217.8589,W,1,07,1.2,-12.1,M,-25.1,M,,0000*7A
$GPGSA,A,3,15,08,09,28,12,17,26,,,,,,2.2,1.2,1.9*37
$GPRMC,191540.000,A,3748.8016,N,12217.8589,W,0.20,327.21,200911,,,A*74
$GPVTG,327.21,T,,M,0.20,N,0.4,K,A*0E
$GPGGA,191541.000,3748.8014,N,12217.8593,W,1,06,1.3,-11.9,M,-25.1,M,,0000*79
$GPGSA,A,3,08,09,28,12,17,26,,,,,,,2.4,1.3,2.0*3E
$GPRMC,191541.000,A,3748.8014,N,12217.8593,W,0.12,217.99,200911,,,A*7C
$GPVTG,217.99,T,,M,0.12,N,0.2,K,A*08
$GPGGA,191542.000,3748.8017,N,12217.8595,W,1,07,1.2,-13.4,M,-25.1,M,,0000*70
$GPGSA,A,3,15,08,09,28,12,17,26,,,,,,2.2,1.2,1.9*37
$GPRMC,191542.000,A,3748.8017,N,12217.8595,W,0.51,5.97,200911,,,A*72
$GPVTG,5.97,T,,M,0.51,N,0.9,K,A*0B
$GPGGA,191543.000,3748.8019,N,12217.8596,W,1,07,1.2,-13.2,M,-25.1,M,,0000*7A
$GPGSA,A,3,15,08,09,28,12,17,26,,,,,,2.2,1.2,1.9*37
$GPGSV,3,1,12,17,66,039,29,27,55,305,,09,38,313,35,04,37,150,14*78
$GPGSV,3,2,12,28,35,077,31,15,25,251,27,26,19,211,28,02,10,184,*7F
$GPGSV,3,3,12,12,08,286,38,01,08,036,25,08,06,141,28,24,01,031,*78
$GPRMC,191543.000,A,3748.8019,N,12217.8596,W,0.23,25.11,200911,,,A*47
$GPGGA,191544.000,3748.8019,N,12217.8597,W,1,07,1.2,-12.2,M,-25.1,M,,0000*7D
$GPGSA,A,3,15,08,09,28,12,17,26,,,,,,2.2,1.2,1.9*37
$GPRMC,191544.000,A,3748.8019,N,12217.8597,W,0.15,264.41,200911,,,A*76
$GPVTG,264.41,T,,M,0.15,N,0.3,K,A*0F
$GPGGA,191545.000,3748.8019,N,12217.8597,W,1,07,1.2,-12.2,M,-25.1,M,,0000*7C
$GPGSA,A,3,15,08,09,28,12,17,26,,,,,,2.2,1.2,1.9*37
$GPRMC,191545.000,A,3748.8019,N,12217.8597,W,0.21,141.99,200911,,,A*71
$GPVTG,141.99,T,,M,0.21,N,0.4,K,A*0E
$GPGGA,191546.000,3748.8018,N,12217.8596,W,1,07,1.2,-11.9,M,-25.1,M,,0000*77
$GPGSA,A,3,15,08,09,28,12,17,26,,,,,,2.2,1.2,1.9*37
$GPRMC,191546.000,A,3748.8018,N,12217.8596,W,0.29,137.23,200911,,,A*7A
$GPVTG,137.23,T,,M,0.29,N,0.5,K,A*07
$GPGGA,191547.000,3748.8018,N,12217.8596,W,1,07,1.2,-11.8,M,-25.1,M,,0000*77
$GPGSA,A,3,15,08,09,28,12,17,26,,,,,,2.2,1.2,1.9*37
$GPRMC,191547.000,A,3748.8018,N,12217.8596,W,0.22,144.95,200911,,,A*79
$GPVTG,144.95,T,,M,0.22,N,0.4,K,A*04
$GPGGA,191548.000,3748.8018,N,12217.8596,W,1,07,1.2,-11.5,M,-25.1,M,,0000*75
$GPGSA,A,3,15,08,09,28,12,17,26,,,,,,2.2,1.2,1.9*37
$GPGSV,3,1,12,17,66,039,30,27,55,305,30,09,38,313,35,04,37,150,17*70
$GPGSV,3,2,12,28,35,077,32,15,25,251,23,26,19,211,29,02,10,184,31*7B
$GPGSV,3,3,12,12,08,286,37,01,08,036,16,08,06,141,22,24,01,031,*7D
$GPRMC,191548.000,A,3748.8018,N,12217.8596,W,0.18,166.07,200911,,,A*74
$GPVTG,166.07,T,,M,0.18,N,0.3,K,A*01
$GPGGA,191549.000,3748.8018,N,12217.8596,W,1,07,1.2,-11.3,M,-25.1,M,,0000*72
$GPGSA,A,3,15,08,09,28,12,17,26,,,,,,2.2,1.2,1.9*37
$GPRMC,191549.000,A,3748.8018,N,12217.8596,W,0.25,108.04,200911,,,A*70
$GPVTG,108.04,T,,M,0.25,N,0.5,K,A*02
$GPGGA,191550.000,3748.8015,N,12217.8598,W,1,07,1.2,-10.5,M,-25.1,M,,0000*7E
$GPGSA,A,3,15,08,09,28,12,17,26,,,,,,2.2,1.2,1.9*37
$GPRMC,191550.000,A,3748.8015,N,12217.8598,W,0.11,114.69,200911,,,A*7A
$GPVTG,114.69,T,,M,0.11,N,0.2,K,A*04
$GPGGA,191551.000,3748.8014,N,12217.8600,W,1,07,1.2,-10.7,M,-25.1,M,,0000*7E
$GPGSA,A,3,15,08,09,28,12,17,26,,,,,,2.2,1.2,1.9*37
$GPRMC,191551.000,A,3748.8014,N,12217.8600,W,0.08,327.09,200911,,,A*74
$GPVTG,327.09,T,,M,0.08,N,0.1,K,A*0B
$GPGGA,191552.000,3748.8016,N,12217.8598,W,1,07,1.2,-10.7,M,-25.1,M,,0000*7D
$GPGSA,A,3,15,08,09,28,12,17,26,,,,,,2.2,1.2,1.9*37
$GPRMC,191552.000,A,3748.8016,N,12217.8598,W,0.54,54.32,200911,,,A*41
$GPVTG,54.32,T,,M,0.54,N,1.0,K,A*3D
$GPGGA,191553.000,3748.8020,N,12217.8594,W,1,07,1.2,-11.7,M,-25.1,M,,0000*74
$GPGSA,A,3,15,08,09,28,12,17,26,,,,,,2.2,1.2,1.9*37
$GPGSV,3,1,12,17,66,039,33,27,55,305,32,09,38,313,33,04,37,150,24*77
$GPGSV,3,2,12,28,35,077,33,15,25,251,24,26,19,211,23,02,10,184,22*75
$GPGSV,3,3,12,12,08,286,26,01,08,036,30,08,06,141,26,24,01,031,*7D
$GPRMC,191553.000,A,3748.8020,N,12217.8594,W,0.30,91.65,200911,,,A*40
$GPVTG,91.65,T,,M,0.30,N,0.6,K,A*33
$GPGGA,191554.000,3748.8019,N,12217.8595,W,1,07,1.2,-11.5,M,-25.1,M,,0000*7A
$GPGSA,A,3,15,08,09,28,12,17,26,,,,,,2.2,1.2,1.9*37
$GPRMC,191554.000,A,3748.8019,N,12217.8595,W,0.24,165.68,200911,,,A*7E
$GPVTG,165.68,T,,M,0.24,N,0.5,K,A*02
$GPGGA,191555.000,3748.8016,N,12217.8594,W,1,07,1.2,-11.2,M,-25.1,M,,0000*72
$GPGSA,A,3,15,08,09,28,12,17,26,,,,,,2.2,1.2,1.9*37
$GPRMC,191555.000,A,3748.8016,N,12217.8594,W,0.17,160.87,200911,,,A*75
$GPVTG,160.87,T,,M,0.17,N,0.3,K,A*00
$GPGGA,191556.000,3748.8011,N,12217.8594,W,1,07,1.2,-10.4,M,-25.1,M,,0000*71
$GPGSA,A,3,15,08,09,28,12,17,26,,,,,,2.3,1.2,1.9*36
$GPRMC,191556.000,A,3748.8011,N,12217.8594,W,0.12,174.70,200911,,,A*79
$GPVTG,174.70,T,,M,0.12,N,0.2,K,A*09
$GPGGA,191557.000,3748.8008,N,12217.8596,W,1,07,1.2,-9.4,M,-25.1,M,,0000*42
$GPGSA,A,3,15,08,09,28,12,17,26,,,,,,2.3,1.2,1.9*36
$GPRMC,191557.000,A,3748.8008,N,12217.8596,W,0.31,178.09,200911,,,A*71
$GPVTG,178.09,T,,M,0.31,N,0.6,K,A*0E
$GPGGA,191558.000,3748.8007,N,12217.8597,W,1,07,1.2,-8.9,M,-25.1,M,,0000*4F
$GPGSA,A,3,15,08,09,28,12,17,26,,,,,,2.3,1.2,1.9*36
$GPGSV,3,1,12,17,66,039,26,27,55,305,27,09,38,313,30,04,37,150,34*75
$GPGSV,3,2,12,28,35,077,30,15,25,251,37,26,19,211,35,02,10,184,35*75
$GPRMC,191558.000,A,3748.8007,N,12217.8597,W,0.19,199.38,200911,,,A*77
$GPVTG,199.38,T,,M,0.19,N,0.4,K,A*0B
$GPGGA,191559.000,3748.8006,N,12217.8599,W,1,07,1.2,-8.5,M,-25.1,M,,0000*4D
$GPGSA,A,3,15,08,09,28,12,17,26,,,,,,2.3,1.2,1.9*36
$GPRMC,191559.000,A,3748.8006,N,12217.8599,W,0.15,183.20,200911,,,A*77
$GPVTG,183.20,T,,M,0.15,N,0.3,K,A*02
$GPGGA,191600.000,3748.8004,N,12217.8600,W,1,07,1.2,-8.2,M,-25.1,M,,0000*44
$GPGSA,A,3,15,08,09,28,12,17,26,,,,,,2.3,1.2,1.9*36
$GPRMC,191600.000,A,3748.8004,N,12217.8600,W,0.19,198.03,200911,,,A*7E
$GPVTG,198.03,T,,M,0.19,N,0.4,K,A*02
$GPGGA,191601.000,3748.8005,N,12217.8602,W,1,07,1.2,-7.8,M,-25.1,M,,0000*43
$GPGSA,A,3,15,08,09,28,12,17,26,,,,,,2.3,1.2,1.9*36
$GPRMC,191601.000,A,3748.8005,N,12217.8602,W,0.09,229.68,200911,,,A*79
$GPVTG,229.68,T,,M,0.09,N,0.2,K,A*01
$GPGGA,191602.000,3748.8005,N,12217.8604,W,1,07,1.2,-7.4,M,-25.1,M,,0000*4A
$GPGSA,A,3,15,08,09,28,12,17,26,,,,,,2.3,1.2,1.9*36
$GPRMC,191602.000,A,3748.8005,N,12217.8604,W,0.13,174.46,200911,,,A*70
$GPVTG,174.46,T,,M,0.13,N,0.2,K,A*0D
$GPGGA,191603.000,3748.8005,N,12217.8606,W,1,07,1.2,-7.1,M,-25.1,M,,0000*4C
$GPGSA,A,3,15,08,09,28,12,17,26,,,,,,2.3,1.2,1.9*36
$GPGSV,3,1,12,17,66,039,26,27,55,305,28,09,38,313,33,04,37,150,35*78
$GPGSV,3,2,12,28,35,077,28,15,25,251,40,26,19,211,38,02,10,184,35*71
$GPGSV,3,3,12,12,08,286,33,01,08,036,24,08,06,141,36,24,01,031,*7D
$GPRMC,191603.000,A,3748.8005,N,12217.8606,W,0.18,176.81,200911,,,A*71
$GPVTG,176.81,T,,M,0.18,N,0.3,K,A*0E
$GPGGA,191604.000,3748.8004,N,12217.8607,W,1,07,1.2,-6.9,M,-25.1,M,,0000*42
$GPGSA,A,3,15,08,09,28,12,17,26,,,,,,2.3,1.2,1.9*36
$GPRMC,191604.000,A,3748.8004,N,12217.8607,W,0.22,181.83,200911,,,A*75
$GPVTG,181.83,T,,M,0.22,N,0.4,K,A*0A
$GPGGA,191605.000,3748.8004,N,12217.8608,W,1,07,1.2,-6.8,M,-25.1,M,,0000*4D
$GPGSA,A,3,15,08,09,28,12,17,26,,,,,,2.3,1.2,1.9*36
$GPRMC,191605.000,A,3748.8004,N,12217.8608,W,0.14,203.89,200911,,,A*7D
$GPVTG,203.89,T,,M,0.14,N,0.3,K,A*0B
$GPGGA,191606.000,3748.8004,N,12217.8609,W,1,07,1.2,-6.6,M,-25.1,M,,0000*41
$GPGSA,A,3,15,08,09,28,12,17,26,,,,,,2.3,1.2,1.9*36
$GPRMC,191606.000,A,3748.8004,N,12217.8609,W,0.18,28.77,200911,,,A*49
$GPVTG,28.77,T,,M,0.18,N,0.3,K,A*3D
$GPGGA,191607.000,3748.8003,N,12217.8609,W,1,07,1.2,-6.0,M,-25.1,M,,0000*41
$GPGSA,A,3,15,08,09,28,12,17,26,,,,,,2.3,1.2,1.9*36
$GPRMC,191607.000,A,3748.8003,N,12217.8609,W,0.08,216.43,200911,,,A*76
$GPVTG,216.43,T,,M,0.08,N,0.2,K,A*05
$GPGGA,191608.000,3748.8005,N,12217.8610,W,1,07,1.2,-7.3,M,-25.1,M,,0000*42
$GPGSA,A,3,15,08,09,28,12,17,26,,,,,,2.3,1.2,1.9*36
$GPGSV,3,1,12,17,66,039,26,27,55,305,29,09,38,313,33,04,37,150,34*78
$GPGSV,3,2,12,28,35,077,23,15,25,251,39,26,19,211,39,02,10,184,34*74
$GPGSV,3,3,12,12,08,286,33,01,08,036,26,08,06,141,34,24,01,031,*7D
$GPRMC,191608.000,A,3748.8005,N,12217.8610,W,0.09,183.50,200911,,,A*7B
$GPVTG,183.50,T,,M,0.09,N,0.2,K,A*09
$GPGGA,191609.000,3748.8005,N,12217.8610,W,1,07,1.2,-7.9,M,-25.1,M,,0000*49
$GPGSA,A,3,15,08,09,28,12,17,26,,,,,,2.3,1.2,1.9*36
$GPRMC,191609.000,A,3748.8005,N,12217.8610,W,0.25,208.29,200911,,,A*7A
$GPVTG,208.29,T,,M,0.25,N,0.5,K,A*0E
$GPGGA,191610.000,3748.8005,N,12217.8610,W,1,07,1.2,-8.3,M,-25.1,M,,0000*44
$GPGSA,A,3,15,08,09,28,12,17,26,,,,,,2.3,1.2,1.9*36
$GPRMC,191610.000,A,3748.8005,N,12217.8610,W,0.05,90.06,200911,,,A*4E
$GPVTG,90.06,T,,M,0.05,N,0.1,K,A*36
$GPGGA,191611.000,3748.8005,N,12217.8612,W,1,07,1.2,-8.1,M,-25.1,M,,0000*45
$GPGSA,A,3,15,08,09,28,12,17,26,,,,,,2.3,1.2,1.9*36
$GPRMC,191611.000,A,3748.8005,N,12217.8612,W,0.32,161.43,200911,,,A*77
$GPVTG,161.43,T,,M,0.32,N,0.6,K,A*0B
$GPGGA,191612.000,3748.8008,N,12217.8612,W,1,07,1.2,-9.6,M,-25.1,M,,0000*4D
$GPGSA,A,3,15,08,09,28,12,17,26,,,,,,2.3,1.2,1.9*36
$GPRMC,191612.000,A,3748.8008,N,12217.8612,W,0.05,90.92,200911,,,A*4E
$GPVTG,90.92,T,,M,0.05,N,0.1,K,A*3B
$GPGGA,191613.000,3748.8009,N,12217.8611,W,1,07,1.2,-10.0,M,-25.1,M,,0000*70
$GPGSA,A,3,15,08,09,28,12,17,26,,,,,,2.3,1.2,1.9*36
$GPGSV,3,1,12,17,66,039,27,27,55,305,27,09,38,313,28,04,37,150,39*70
$GPGSV,3,2,12,28,35,077,35,15,25,251,33,26,19,211,37,02,10,184,31*72
$GPGSV,3,3,12,12,08,286,24,01,08,036,33,08,06,141,37,24,01,031,*7C
$GPRMC,191613.000,A,3748.8009,N,12217.8611,W,0.18,127.67,200911,,,A*76
$GPVTG,127.67,T,,M,0.18,N,0.3,K,A*02
$GPGGA,191614.000,3748.8011,N,12217.8610,W,1,07,1.2,-10.5,M,-25.1,M,,0000*7A
$GPGSA,A,3,15,08,09,28,12,17,26,,,,,,2.3,1.2,1.9*36
$GPRMC,191614.000,A,3748.8011,N,12217.8610,W,0.28,353.42,200911,,,A*7C
$GPVTG,353.42,T,,M,0.28,N,0.5,K,A*01
$GPGGA,191615.000,3748.8010,N,12217.8611,W,1,07,1.2,-10.6,M,-25.1,M,,0000*78
$GPGSA,A,3,15,08,09,28,12,17,26,,,,,,2.3,1.2,1.9*36
$GPRMC,191615.000,A,3748.8010,N,12217.8611,W,0.55,274.97,200911,,,A*7B
$GPVTG,274.97,T,,M,0.55,N,1.0,K,A*03
$GPGGA,191616.000,3748.8009,N,12217.8609,W,1,07,1.2,-9.5,M,-25.1,M,,0000*41
$GPGSA,A,3,15,08,09,28,12,17,26,,,,,,2.3,1.2,1.9*36
$GPRMC,191616.000,A,3748.8009,N,12217.8609,W,0.12,359.16,200911,,,A*7D
$GPVTG,359.16,T,,M,0.12,N,0.2,K,A*04
$GPGGA,191617.000,3748.8010,N,12217.8606,W,1,07,1.2,-8.9,M,-25.1,M,,0000*4A
$GPGSA,A,3,15,08,09,28,12,17,26,,,,,,2.3,1.2,1.9*36
$GPRMC,191617.000,A,3748.8010,N,12217.8606,W,0.41,76.96,200911,,,A*4B
$GPVTG,76.96,T,,M,0.41,N,0.8,K,A*3E
$GPGGA,191618.000,3748.8010,N,12217.8605,W,1,07,1.2,-9.5,M,-25.1,M,,0000*4B
$GPGSA,A,3,15,08,09,28,12,17,26,,,,,,2.3,1.2,1.9*36
$GPGSV,3,1,12,17,66,039,28,27,55,305,20,09,38,313,26,04,37,150,24*7A
$GPGSV,3,2,12,28,35,077,33,15,25,251,24,26,19,211,29,02,10,184,25*78
$GPGSV,3,3,12,12,08,286,20,01,08,036,28,08,06,141,30,24,01,031,*75
$GPVTG,278.29,T,,M,0.26,N,0.5,K,A*0A
$GPGGA,191619.000,3748.8013,N,12217.8602,W,1,07,1.2,-11.1,M,-25.1,M,,0000*73
$GPGSA,A,3,15,08,09,28,12,17,26,,,,,,2.3,1.2,1.9*36
$GPRMC,191619.000,A,3748.8013,N,12217.8602,W,0.12,117.62,200911,,,A*79
$GPVTG,117.62,T,,M,0.12,N,0.2,K,A*0F
$GPGGA,191620.000,3748.8014,N,12217.8601,W,1,07,1.2,-11.7,M,-25.1,M,,0000*7B
$GPGSA,A,3,15,08,09,28,12,17,26,,,,,,2.3,1.2,1.9*36
$GPRMC,191620.000,A,3748.8014,N,12217.8601,W,0.10,88.17,200911,,,A*40
$GPVTG,88.17,T,,M,0.10,N,0.2,K,A*38
$GPGGA,191621.000,3748.8015,N,12217.8601,W,1,07,1.2,-12.4,M,-25.1,M,,0000*7B
$GPGSA,A,3,15,08,09,28,12,17,26,,,,,,2.3,1.2,1.9*36
$GPRMC,191621.000,A,3748.8015,N,12217.8601,W,0.04,110.22,200911,,,A*73
$GPVTG,110.22,T,,M,0.04,N,0.1,K,A*08
$GPGGA,191622.000,3748.8018,N,12217.8601,W,1,07,1.2,-13.3,M,-25.1,M,,0000*73
$GPGSA,A,3,15,08,09,28,12,17,26,,,,,,2.3,1.2,1.9*36
$GPRMC,191622.000,A,3748.8018,N,12217.8601,W,0.09,101.33,200911,,,A*70
$GPVTG,101.33,T,,M,0.09,N,0.2,K,A*06
$GPGGA,191623.000,3748.8021,N,12217.8600,W,1,07,1.2,-14.9,M,-25.1,M,,0000*74
$GPGSA,A,3,15,08,09,28,12,17,26,,,,,,2.3,1.2,1.9*36
$GPGSV,3,1,12,17,66,039,28,27,55,305,21,09,38,313,25,04,37,150,32*7F
$GPGSV,3,2,12,28,35,077,32,15,25,251,30,26,19,211,35,02,10,184,27*73
$GPGSV,3,3,12,12,08,286,21,01,08,036,18,08,06,141,34,24,01,031,*73
$GPRMC,191623.000,A,3748.8021,N,12217.8600,W,0.22,347.98,200911,,,A*72
$GPVTG,347.98,T,,M,0.22,N,0.4,K,A*08
$GPGGA,191624.000,3748.8024,N,12217.8598,W,1,07,1.2,-15.9,M,-25.1,M,,0000*75
$GPGSA,A,3,15,08,09,28,12,17,26,,,,,,2.3,1.2,1.9*36
$GPRMC,191624.000,A,3748.8024,N,12217.8598,W,0.11,40.00,200911,,,A*47
$GPVTG,40.00,T,,M,0.11,N,0.2,K,A*3B
$GPGGA,191625.000,3748.8023,N,12217.8596,W,1,07,1.2,-16.4,M,-25.1,M,,0000*73
$GPGSA,A,3,15,08,09,28,12,17,26,,,,,,2.3,1.2,1.9*36
$GPRMC,191625.000,A,3748.8023,N,12217.8596,W,0.17,354.39,200911,,,A*75
$GPVTG,354.39,T,,M,0.17,N,0.3,K,A*00
$GPGGA,191626.000,3748.8025,N,12217.8597,W,1,07,1.2,-17.2,M,-25.1,M,,0000*70
$GPGSA,A,3,15,08,09,28,12,17,26,,,,,,2.3,1.2,1.9*36
$GPRMC,191626.000,A,3748.8025,N,12217.8597,W,0.05,35.99,200911,,,A*4C
$GPVTG,35.99,T,,M,0.05,N,0.1,K,A*3F
$GPGGA,191627.000,3748.8025,N,12217.8597,W,1,07,1.2,-17.6,M,-25.1,M,,0000*75
$GPGSA,A,3,15,08,09,28,12,17,26,,,,,,2.3,1.2,1.9*36
$GPRMC,191627.000,A,3748.8025,N,12217.8597,W,0.10,93.69,200911,,,A*4A
$GPVTG,93.69,T,,M,0.10,N,0.2,K,A*3B
$GPGGA,191628.000,3748.8026,N,12217.8597,W,1,06,1.2,-17.6,M,-25.1,M,,0000*78
$GPGSA,A,3,15,08,28,12,17,26,,,,,,,2.3,1.2,1.9*3F
$GPGSV,3,1,12,17,66,039,22,27,55,305,25,09,38,313,23,04,37,150,33*76
$GPGSV,3,2,12,28,35,077,32,15,25,251,30,26,19,211,34,02,10,184,36*72
$GPGSV,3,3,12,12,08,286,18,01,08,036,30,08,06,141,35,24,01,031,*72
$GPRMC,191628.000,A,3748.8026,N,12217.8597,W,0.25,325.97,200911,,,A*7F
$GPVTG,325.97,T,,M,0.25,N,0.5,K,A*05
$GPGGA,191629.000,3748.8030,N,12217.8597,W,1,07,1.2,-19.2,M,-25.1,M,,0000*75
$GPGSA,A,3,15,08,09,28,12,17,26,,,,,,2.3,1.2,1.9*36
$GPRMC,191629.000,A,3748.8030,N,12217.8597,W,0.68,329.81,200911,,,A*7B
$GPVTG,329.81,T,,M,0.68,N,1.3,K,A*00
$GPGGA,191630.000,3748.8031,N,12217.8600,W,1,07,1.2,-18.7,M,-25.1,M,,0000*75
$GPGSA,A,3,15,08,09,28,12,17,26,,,,,,2.3,1.2,1.9*36
$GPRMC,191630.000,A,3748.8031,N,12217.8600,W,0.70,344.03,200911,,,A*77
$GPVTG,344.03,T,,M,0.70,N,1.3,K,A*08
$GPGGA,191631.000,3748.8033,N,12217.8603,W,1,07,1.2,-17.2,M,-25.1,M,,0000*7F
$GPGSA,A,3,15,08,09,28,12,17,26,,,,,,2.3,1.2,1.9*36
$GPRMC,191631.000,A,3748.8033,N,12217.8603,W,0.43,37.42,200911,,,A*45
$GPVTG,37.42,T,,M,0.43,N,0.8,K,A*30
$GPGGA,191632.000,3748.8029,N,12217.8600,W,1,07,1.2,-15.7,M,-25.1,M,,0000*73
$GPGSA,A,3,15,08,09,28,12,17,26,,,,,,2.3,1.2,1.9*36
$GPRMC,191632.000,A,3748.8029,N,12217.8600,W,0.50,42.07,200911,,,A*4F
$GPVTG,42.07,T,,M,0.50,N,0.9,K,A*30
$GPGGA,191633.000,3748.8025,N,12217.8598,W,1,07,1.2,-15.3,M,-25.1,M,,0000*78
$GPGSA,A,3,15,08,09,28,12,17,26,,,,,,2.3,1.2,1.9*36
$GPGSV,3,1,12,17,66,039,22,27,55,305,21,09,38,313,20,04,37,150,32*70
$GPGSV,3,2,12,28,35,077,24,15,25,251,24,26,19,211,31,02,10,184,31*72
$GPGSV,3,3,12,12,08,286,16,01,08,036,31,08,06,141,28,24,01,031,*71
$GPVTG,276.12,T,,M,0.03,N,0.1,K,A*0F
$GPGGA,191634.000,3748.8029,N,12217.8597,W,1,07,1.2,-16.8,M,-25.1,M,,0000*74
$GPGSA,A,3,15,08,09,28,12,17,26,,,,,,2.3,1.2,1.9*36
$GPRMC,191634.000,A,3748.8029,N,12217.8597,W,0.49,7.22,200911,,,A*7A
$GPVTG,7.22,T,,M,0.49,N,0.9,K,A*0E
$GPGGA,191635.000,3748.8032,N,12217.8599,W,1,07,1.2,-16.0,M,-25.1,M,,0000*79
$GPGSA,A,3,15,08,09,28,12,17,26,,,,,,2.3,1.2,1.9*36
$GPRMC,191635.000,A,3748.8032,N,12217.8599,W,0.24,315.70,200911,,,A*73
$GPVTG,315.70,T,,M,0.24,N,0.5,K,A*0E
$GPGGA,191636.000,3748.8036,N,12217.8598,W,1,07,1.2,-17.7,M,-25.1,M,,0000*79
$GPGSA,A,3,15,08,09,28,12,17,26,,,,,,2.3,1.2,1.9*36
$GPRMC,191636.000,A,3748.8036,N,12217.8598,W,0.23,48.28,200911,,,A*44
$GPVTG,48.28,T,,M,0.23,N,0.4,K,A*3E
$GPGGA,191637.000,3748.8039,N,12217.8601,W,1,07,1.2,-18.1,M,-25.1,M,,0000*7D
$GPGSA,A,3,15,08,09,28,12,17,26,,,,,,2.3,1.2,1.9*36
$GPRMC,191637.000,A,3748.8039,N,12217.8601,W,0.15,148.12,200911,,,A*74
$GPVTG,148.12,T,,M,0.15,N,0.3,K,A*04
$GPGGA,191638.000,3748.8040,N,12217.8600,W,1,07,1.2,-18.1,M,-25.1,M,,0000*7D
$GPGSA,A,3,15,08,09,28,12,17,26,,,,,,2.3,1.2,1.9*36
$GPGSV,3,1,12,17,66,039,24,27,55,305,29,09,38,313,29,04,37,150,33*76
$GPGSV,3,2,12,28,35,077,24,15,25,251,31,26,19,211,29,02,10,184,29*76
$GPGSV,3,3,12,12,08,286,25,01,08,036,29,08,06,141,30,24,01,031,*71
$GPRMC,191638.000,A,3748.8040,N,12217.8600,W,0.49,43.06,200911,,,A*42
$GPVTG,43.06,T,,M,0.49,N,0.9,K,A*38
$GPGGA,191639.000,3748.8039,N,12217.8602,W,1,07,1.2,-17.5,M,-25.1,M,,0000*7B
$GPGSA,A,3,15,08,09,28,12,17,26,,,,,,2.3,1.2,1.9*36
$GPRMC,191639.000,A,3748.8039,N,12217.8602,W,0.05,242.72,200911,,,A*77
$GPVTG,242.72,T,,M,0.05,N,0.1,K,A*08
$GPGGA,191640.000,3748.8037,N,12217.8603,W,1,07,1.2,-17.0,M,-25.1,M,,0000*7F
$GPGSA,A,3,15,08,09,28,12,17,26,,,,,,2.3,1.2,1.9*36
$GPRMC,191640.000,A,3748.8037,N,12217.8603,W,0.18,180.67,200911,,,A*73
$GPVTG,180.67,T,,M,0.18,N,0.3,K,A*0F
$GPGGA,191641.000,3748.8036,N,12217.8604,W,1,07,1.2,-17.2,M,-25.1,M,,0000*7A
$GPGSA,A,3,15,08,09,28,12,17,26,,,,,,2.3,1.2,1.9*36
$GPRMC,191641.000,A,3748.8036,N,12217.8604,W,0.42,227.04,200911,,,A*70
$GPVTG,227.04,T,,M,0.42,N,0.8,K,A*00
$GPGGA,191642.000,3748.8031,N,12217.8607,W,1,07,1.2,-16.6,M,-25.1,M,,0000*78
$GPGSA,A,3,15,08,09,28,12,17,26,,,,,,2.3,1.2,1.9*36
$GPRMC,191642.000,A,3748.8031,N,12217.8607,W,0.23,276.80,200911,,,A*78
$GPVTG,276.80,T,,M,0.23,N,0.4,K,A*03
$GPGGA,191643.000,3748.8029,N,12217.8609,W,1,07,1.2,-16.5,M,-25.1,M,,0000*7D
$GPGSA,A,3,15,08,09,28,12,17,26,,,,,,2.3,1.2,1.9*36
$GPGSV,3,1,12,17,66,039,21,27,55,305,19,09,38,313,24,04,37,150,32*7C
$GPGSV,3,2,12,28,35,077,29,15,25,251,33,26,19,211,32,02,10,184,31*7A
$GPGSV,3,3,12,12,08,286,22,01,08,036,26,08,06,141,30,24,01,031,*79
$GPRMC,191643.000,A,3748.8029,N,12217.8609,W,0.12,340.76,200911,,,A*71
$GPVTG,340.76,T,,M,0.12,N,0.2,K,A*0A
$GPGGA,191644.000,3748.8027,N,12217.8610,W,1,07,1.2,-15.2,M,-25.1,M,,0000*78
$GPGSA,A,3,15,08,09,28,12,17,26,,,,,,2.3,1.2,1.9*36
$GPRMC,191644.000,A,3748.8027,N,12217.8610,W,0.29,8.53,200911,,,A*70
$GPVTG,8.53,T,,M,0.29,N,0.5,K,A*0D
$GPGGA,191645.000,3748.8021,N,12217.8608,W,1,07,1.2,-15.5,M,-25.1,M,,0000*71
$GPGSA,A,3,15,08,09,28,12,17,26,,,,,,2.3,1.2,1.9*36
$GPRMC,191645.000,A,3748.8021,N,12217.8608,W,0.32,317.20,200911,,,A*7D
$GPVTG,317.20,T,,M,0.32,N,0.6,K,A*0D
$GPGGA,191646.000,3748.8016,N,12217.8607,W,1,07,1.2,-14.6,M,-25.1,M,,0000*7B
$GPGSA,A,3,15,08,09,28,12,17,26,,,,,,2.3,1.2,1.9*36
$GPRMC,191646.000,A,3748.8016,N,12217.8607,W,0.40,26.36,200911,,,A*46
$GPVTG,26.36,T,,M,0.40,N,0.7,K,A*3F
$GPGGA,191647.000,3748.8015,N,12217.8606,W,1,07,1.2,-14.3,M,-25.1,M,,0000*7D
$GPGSA,A,3,15,08,09,28,12,17,26,,,,,,2.3,1.2,1.9*36
$GPRMC,191647.000,A,3748.8015,N,12217.8606,W,0.64,41.18,200911,,,A*4E
$GPVTG,41.18,T,,M,0.64,N,1.2,K,A*30
$GPGGA,191648.000,3748.8014,N,12217.8606,W,1,07,1.2,-13.8,M,-25.1,M,,0000*7F
$GPGSA,A,3,15,08,09,28,12,17,26,,,,,,2.3,1.2,1.9*36
$GPGSV,3,1,12,17,65,039,23,27,56,304,26,09,39,313,23,04,38,149,30*70
$GPGSV,3,2,12,28,35,078,30,15,24,250,25,26,18,210,27,02,11,184,31*7F
$GPGSV,3,3,12,12,09,287,21,01,07,035,27,08,05,142,29,24,00,031,*7E
$GPRMC,191648.000,A,3748.8014,N,12217.8606,W,0.78,96.86,200911,,,A*40
$GPVTG,96.86,T,,M,0.78,N,1.4,K,A*36
$GPGGA,191649.000,3748.8009,N,12217.8601,W,1,07,1.2,-12.8,M,-25.1,M,,0000*74
$GPGSA,A,3,15,08,09,28,12,17,26,,,,,,2.3,1.2,1.9*36
$GPRMC,191649.000,A,3748.8009,N,12217.8601,W,2.08,133.85,200911,,,A*72
$GPVTG,133.85,T,,M,2.08,N,3.9,K,A*01
$GPGGA,191650.000,3748.8005,N,12217.8597,W,1,07,1.2,-12.3,M,-25.1,M,,0000*77
$GPGSA,A,3,15,08,09,28,12,17,26,,,,,,2.3,1.2,1.9*36
$GPRMC,191650.000,A,3748.8005,N,12217.8597,W,2.41,133.64,200911,,,A*78
$GPVTG,133.64,T,,M,2.41,N,4.5,K,A*08
$GPGGA,191651.000,3748.8000,N,12217.8592,W,1,07,1.2,-11.9,M,-25.1,M,,0000*7F
$GPGSA,A,3,15,08,09,28,12,17,26,,,,,,2.3,1.2,1.9*36
$GPRMC,191651.000,A,3748.8000,N,12217.8592,W,2.49,122.33,200911,,,A*73
$GPVTG,122.33,T,,M,2.49,N,4.6,K,A*01
$GPGGA,191652.000,3748.7996,N,12217.8585,W,1,07,1.2,-11.5,M,-25.1,M,,0000*7F
$GPGSA,A,3,15,08,09,28,12,17,26,,,,,,2.3,1.2,1.9*36
$GPRMC,191652.000,A,3748.7996,N,12217.8585,W,2.27,118.98,200911,,,A*7F
$GPVTG,118.98,T,,M,2.27,N,4.2,K,A*05
$GPGGA,191653.000,3748.7989,N,12217.8576,W,1,07,1.2,-11.2,M,-25.1,M,,0000*7B
$GPGSA,A,3,15,08,09,28,12,17,26,,,,,,2.3,1.2,1.9*36
$GPGSV,3,1,12,17,65,039,23,27,56,304,28,09,39,313,25,04,38,149,33*7B
$GPGSV,3,2,12,28,35,078,25,15,24,250,33,26,18,210,36,02,11,184,40*7A
$GPGSV,3,3,12,12,09,287,25,01,07,035,24,08,05,142,29,24,00,031,*79
$GPRMC,191653.000,A,3748.7989,N,12217.8576,W,2.27,123.59,200911,,,A*79
$GPGGA,191654.000,3748.7987,N,12217.8571,W,1,06,1.3,-10.2,M,-25.1,M,,0000*74
$GPGSA,A,3,15,08,09,12,17,26,,,,,,,2.4,1.3,2.0*30
$GPRMC,191654.000,A,3748.7987,N,12217.8571,W,0.92,110.86,200911,,,A*79
$GPVTG,110.86,T,,M,0.92,N,1.7,K,A*0E
$GPGGA,191655.000,3748.7985,N,12217.8570,W,1,06,1.3,-9.1,M,-25.1,M,,0000*4D
$GPGSA,A,3,15,08,09,12,17,26,,,,,,,2.4,1.3,2.0*30
$GPRMC,191655.000,A,3748.7985,N,12217.8570,W,0.33,276.39,200911,,,A*77
$GPVTG,276.39,T,,M,0.33,N,0.6,K,A*02
$GPGGA,191656.000,3748.7985,N,12217.8573,W,1,06,1.3,-8.3,M,-25.1,M,,0000*4E
$GPGSA,A,3,15,09,28,12,17,26,,,,,,,2.8,1.3,2.4*3A
$GPRMC,191656.000,A,3748.7985,N,12217.8573,W,0.67,264.14,200911,,,A*7A
$GPVTG,264.14,T,,M,0.67,N,1.2,K,A*0A
$GPGGA,191657.000,3748.7983,N,12217.8576,W,1,06,1.3,-8.1,M,-25.1,M,,0000*4E
$GPGSA,A,3,15,09,28,12,17,26,,,,,,,2.8,1.3,2.4*3A
$GPRMC,191657.000,A,3748.7983,N,12217.8576,W,1.42,224.29,200911,,,A*74
$GPVTG,224.29,T,,M,1.42,N,2.6,K,A*01
$GPGGA,191658.000,3748.7980,N,12217.8581,W,1,06,1.3,-6.5,M,-25.1,M,,0000*40
$GPGSA,A,3,15,09,28,12,17,26,,,,,,,2.8,1.3,2.4*3A
$GPGSV,3,1,12,17,65,039,24,27,56,304,34,09,39,313,34,04,38,149,19*79
$GPGSV,3,2,12,28,35,078,20,15,24,250,33,26,18,210,24,02,11,184,24*7E
$GPGSV,3,3,12,12,09,287,33,01,07,035,29,08,05,142,12,24,00,031,*7B
$GPRMC,191658.000,A,3748.7980,N,12217.8581,W,2.16,220.69,200911,,,A*72
$GPVTG,220.69,T,,M,2.16,N,4.0,K,A*03
$GPGGA,191659.000,3748.7974,N,12217.8587,W,1,06,1.3,-5.3,M,-25.1,M,,0000*49
$GPGSA,A,3,15,09,28,12,17,26,,,,,,,2.8,1.3,2.4*3A
$GPRMC,191659.000,A,3748.7974,N,12217.8587,W,2.74,232.11,200911,,,A*76
$GPVTG,232.11,T,,M,2.74,N,5.1,K,A*0B
$GPGGA,191700.000,3748.7966,N,12217.8598,W,1,06,1.3,-4.0,M,-25.1,M,,0000*4B
$GPGSA,A,3,15,09,28,12,17,26,,,,,,,2.8,1.3,2.4*3A
$GPRMC,191700.000,A,3748.7966,N,12217.8598,W,2.63,241.96,200911,,,A*7B
$GPVTG,241.96,T,,M,2.63,N,4.9,K,A*0F
$GPGGA,191701.000,3748.7963,N,12217.8612,W,1,06,1.3,-1.4,M,-25.1,M,,0000*4F
$GPGSA,A,3,15,09,28,12,17,26,,,,,,,2.8,1.3,2.4*3A
$GPRMC,191701.000,A,3748.7963,N,12217.8612,W,2.42,261.89,200911,,,A*71
$GPVTG,261.89,T,,M,2.42,N,4.5,K,A*0C
$GPGGA,191702.000,3748.7963,N,12217.8621,W,1,06,1.3,-0.9,M,-25.1,M,,0000*40
$GPGSA,A,3,15,09,28,12,17,26,,,,,,,2.8,1.3,2.4*3A
$GPRMC,191702.000,A,3748.7963,N,12217.8621,W,2.52,251.45,200911,,,A*70
$GPVTG,251.45,T,,M,2.52,N,4.7,K,A*0C
$GPGGA,191703.000,3748.7959,N,12217.8629,W,1,07,1.2,-0.7,M,-25.1,M,,0000*4E
$GPGSA,A,3,15,08,09,28,12,17,26,,,,,,2.3,1.2,1.9*36
$GPGSV,3,1,12,17,65,039,24,27,56,304,30,09,39,313,35,04,38,149,19*7C
$GPGSV,3,2,12,28,35,078,20,15,24,250,36,26,18,210,24,02,11,184,24*7B
$GPGSV,3,3,12,12,09,287,33,01,07,035,26,08,05,142,13,24,00,031,*75
$GPRMC,191703.000,A,3748.7959,N,12217.8629,W,2.38,233.70,200911,,,A*7E
$GPVTG,233.70,T,,M,2.38,N,4.4,K,A*01
$GPGGA,191704.000,3748.7954,N,12217.8638,W,1,07,1.2,0.2,M,-25.1,M,,0000*6C
$GPGSA,A,3,15,08,09,28,12,17,26,,,,,,2.3,1.2,1.9*36
$GPRMC,191704.000,A,3748.7954,N,12217.8638,W,2.05,236.11,200911,,,A*78
$GPVTG,236.11,T,,M,2.05,N,3.8,K,A*06
$GPGGA,191705.000,3748.7949,N,12217.8649,W,1,07,1.2,0.5,M,-25.1,M,,0000*60
$GPGSA,A,3,15,08,09,28,12,17,26,,,,,,2.3,1.2,1.9*36
$GPRMC,191705.000,A,3748.7949,N,12217.8649,W,2.41,222.24,200911,,,A*70
$GPVTG,222.24,T,,M,2.41,N,4.5,K,A*0F
$GPGGA,191706.000,3748.7943,N,12217.8657,W,1,07,1.2,0.4,M,-25.1,M,,0000*67
$GPGSA,A,3,15,08,09,28,12,17,26,,,,,,2.3,1.2,1.9*36
$GPRMC,191706.000,A,3748.7943,N,12217.8657,W,2.89,219.31,200911,,,A*7E
$GPVTG,219.31,T,,M,2.89,N,5.3,K,A*00
$GPGGA,191707.000,3748.7937,N,12217.8669,W,1,07,1.2,1.8,M,-25.1,M,,0000*65
$GPGSA,A,3,15,08,09,28,12,17,26,,,,,,2.3,1.2,1.9*36
$GPRMC,191707.000,A,3748.7937,N,12217.8669,W,2.52,222.68,200911,,,A*73
$GPVTG,222.68,T,,M,2.52,N,4.7,K,A*07
$GPGGA,191708.000,3748.7931,N,12217.8673,W,1,07,1.2,3.1,M,-25.1,M,,0000*6C
$GPGSA,A,3,15,08,09,28,12,17,26,,,,,,2.3,1.2,1.9*36
$GPGSV,3,1,12,17,65,039,25,27,56,304,32,09,39,313,36,04,38,149,25*73
$GPGSV,3,2,12,28,35,078,21,15,24,250,36,26,18,210,19,02,11,184,22*72
$GPGSV,3,3,12,12,09,287,23,01,07,035,31,08,05,142,16,24,00,031,*77
$GPVTG,211.57,T,,M,2.44,N,4.5,K,A*0E
$GPGGA,191709.000,3748.7925,N,12217.8678,W,1,07,1.2,3.5,M,-25.1,M,,0000*67
$GPGSA,A,3,15,08,09,28,12,17,26,,,,,,2.3,1.2,1.9*36
$GPRMC,191709.000,A,3748.7925,N,12217.8678,W,2.39,199.70,200911,,,A*79
$GPVTG,199.70,T,,M,2.39,N,4.4,K,A*03
$GPGGA,191710.000,3748.7919,N,12217.8679,W,1,06,1.7,3.4,M,-25.1,M,,0000*64
$GPGSA,A,3,15,08,09,28,17,26,,,,,,,3.6,1.7,3.2*3D
$GPRMC,191710.000,A,3748.7919,N,12217.8679,W,2.60,196.90,200911,,,A*72
$GPVTG,196.90,T,,M,2.60,N,4.8,K,A*02
$GPGGA,191711.000,3748.7912,N,12217.8679,W,1,06,1.7,4.5,M,-25.1,M,,0000*68
$GPGSA,A,3,15,08,09,28,17,26,,,,,,,3.6,1.7,3.2*3D
$GPRMC,191711.000,A,3748.7912,N,12217.8679,W,2.58,174.59,200911,,,A*7A
$GPVTG,174.59,T,,M,2.58,N,4.8,K,A*00
$GPGGA,191712.000,3748.7903,N,12217.8676,W,1,06,1.7,5.6,M,-25.1,M,,0000*66
$GPGSA,A,3,15,08,09,28,17,26,,,,,,,3.6,1.7,3.2*3D
$GPRMC,191712.000,A,3748.7903,N,12217.8676,W,2.84,168.05,200911,,,A*73
$GPVTG,168.05,T,,M,2.84,N,5.3,K,A*0F
$GPGGA,191713.000,3748.7898,N,12217.8674,W,1,06,1.7,6.1,M,-25.1,M,,0000*62
$GPGSA,A,3,15,08,09,28,17,26,,,,,,,3.6,1.7,3.2*3D
$GPGSV,3,1,12,17,65,039,24,27,56,304,25,09,39,313,23,04,38,149,26*73
$GPGSV,3,2,12,28,35,078,28,15,24,250,22,26,18,210,17,02,11,184,22*70
$GPGSV,3,3,12,12,09,287,,01,07,035,26,08,05,142,16,24,00,031,*70
$GPRMC,191713.000,A,3748.7898,N,12217.8674,W,2.41,165.31,200911,,,A*70
$GPVTG,165.31,T,,M,2.41,N,4.5,K,A*0B
$GPGGA,191714.000,3748.7891,N,12217.8674,W,1,06,1.7,7.6,M,-25.1,M,,0000*6A
$GPGSA,A,3,15,08,09,28,17,26,,,,,,,3.6,1.7,3.2*3D
$GPRMC,191714.000,A,3748.7891,N,12217.8674,W,1.93,173.28,200911,,,A*7D
$GPVTG,173.28,T,,M,1.93,N,3.6,K,A*0C
$GPGGA,191715.000,3748.7889,N,12217.8670,W,1,06,1.7,7.7,M,-25.1,M,,0000*67
$GPGSA,A,3,15,08,09,28,17,26,,,,,,,3.6,1.7,3.2*3D
$GPRMC,191715.000,A,3748.7889,N,12217.8670,W,1.72,168.45,200911,,,A*7F
$GPVTG,168.45,T,,M,1.72,N,3.2,K,A*06
$GPGGA,191716.000,3748.7881,N,12217.8672,W,1,06,1.7,9.2,M,-25.1,M,,0000*65
$GPGSA,A,3,15,08,09,28,17,26,,,,,,,3.6,1.7,3.2*3D
$GPRMC,191716.000,A,3748.7881,N,12217.8672,W,1.65,177.70,200911,,,A*78
$GPVTG,177.70,T,,M,1.65,N,3.1,K,A*0B
$GPGGA,191717.000,3748.7877,N,12217.8675,W,1,05,1.8,9.7,M,-25.1,M,,0000*63
$GPGSA,A,3,15,09,28,17,26,,,,,,,,4.4,1.8,4.0*3A
$GPRMC,191717.000,A,3748.7877,N,12217.8675,W,1.83,194.67,200911,,,A*74
$GPVTG,194.67,T,,M,1.83,N,3.4,K,A*0D
$GPGGA,191718.000,3748.7873,N,12217.8681,W,1,05,1.8,10.0,M,-25.1,M,,0000*5C
$GPGSA,A,3,15,09,28,17,26,,,,,,,,4.4,1.8,4.0*3A
$GPGSV,3,1,12,17,65,039,27,27,56,304,37,09,39,313,38,04,38,149,12*7E
$GPGSV,3,2,12,28,35,078,23,15,24,250,19,26,18,210,15,02,11,184,16*76
$GPGSV,3,3,12,12,09,287,,01,07,035,25,08,05,142,18,24,00,031,*7D
$GPRMC,191718.000,A,3748.7873,N,12217.8681,W,1.47,210.09,200911,,,A*7B
$GPVTG,210.09,T,,M,1.47,N,2.7,K,A*00
$GPGGA,191719.000,3748.7868,N,12217.8686,W,1,06,1.7,10.2,M,-25.1,M,,0000*5E
$GPGSA,A,3,15,08,09,28,17,26,,,,,,,3.6,1.7,3.2*3D
$GPRMC,191719.000,A,3748.7868,N,12217.8686,W,0.93,211.08,200911,,,A*7F
$GPVTG,211.08,T,,M,0.93,N,1.7,K,A*0B
$GPGGA,191720.000,3748.7867,N,12217.8688,W,1,06,1.7,10.1,M,-25.1,M,,0000*56
$GPGSA,A,3,15,08,09,28,17,26,,,,,,,3.6,1.7,3.2*3D
$GPRMC,191720.000,A,3748.7867,N,12217.8688,W,0.41,218.45,200911,,,A*7B
$GPVTG,218.45,T,,M,0.41,N,0.8,K,A*0A
$GPGGA,191721.000,3748.7866,N,12217.8693,W,1,06,1.7,10.8,M,-25.1,M,,0000*55
$GPGSA,A,3,15,08,09,28,17,26,,,,,,,3.6,1.7,3.2*3D
$GPRMC,191721.000,A,3748.7866,N,12217.8693,W,1.26,193.99,200911,,,A*70
$GPVTG,193.99,T,,M,1.26,N,2.3,K,A*02
$GPGGA,191722.000,3748.7868,N,12217.8694,W,1,07,1.2,11.2,M,-25.1,M,,0000*50
$GPGSA,A,3,15,08,09,28,12,17,26,,,,,,2.3,1.2,2.0*3C
$GPRMC,191722.000,A,3748.7868,N,12217.8694,W,1.17,192.03,200911,,,A*7A
$GPVTG,192.03,T,,M,1.17,N,2.2,K,A*03
$GPGGA,191723.000,3748.7869,N,12217.8692,W,1,07,1.2,10.5,M,-25.1,M,,0000*50
$GPGSA,A,3,15,08,09,28,12,17,26,,,,,,2.3,1.2,2.0*3C
$GPGSV,3,1,12,17,65,039,25,27,56,304,36,09,39,313,36,04,38,149,14*75
$GPGSV,3,2,12,28,35,078,24,15,24,250,18,26,18,210,14,02,11,184,*76
$GPRMC,191723.000,A,3748.7869,N,12217.8692,W,0.50,205.33,200911,,,A*70
$GPVTG,205.33,T,,M,0.50,N,0.9,K,A*06
$GPGGA,191724.000,3748.7870,N,12217.8690,W,1,07,1.2,9.8,M,-25.1,M,,0000*68
$GPGSA,A,3,15,08,09,28,12,17,26,,,,,,2.3,1.2,2.0*3C
$GPRMC,191724.000,A,3748.7870,N,12217.8690,W,0.07,172.26,200911,,,A*78
$GPVTG,172.26,T,,M,0.07,N,0.1,K,A*0B
$GPGGA,191725.000,3748.7871,N,12217.8688,W,1,06,1.5,7.3,M,-25.1,M,,0000*62
$GPGSA,A,3,15,08,09,28,12,17,,,,,,,2.6,1.5,2.1*3B
$GPRMC,191725.000,A,3748.7871,N,12217.8688,W,0.37,178.52,200911,,,A*7B
$GPVTG,178.52,T,,M,0.37,N,0.7,K,A*07
$GPGGA,191726.000,3748.7871,N,12217.8688,W,1,06,1.5,6.5,M,-25.1,M,,0000*66
$GPGSA,A,3,15,08,09,28,12,17,,,,,,,2.6,1.5,2.1*3B
$GPRMC,191726.000,A,3748.7871,N,12217.8688,W,0.63,103.31,200911,,,A*70
$GPVTG,103.31,T,,M,0.63,N,1.2,K,A*0B
$GPGGA,191727.000,3748.7870,N,12217.8686,W,1,05,2.2,7.6,M,-25.1,M,,0000*6D
$GPGSA,A,3,15,08,09,28,17,,,,,,,,4.2,2.2,3.6*38
$GPRMC,191727.000,A,3748.7870,N,12217.8686,W,1.29,67.11,200911,,,A*40
$GPVTG,67.11,T,,M,1.29,N,2.4,K,A*30
$GPGGA,191728.000,3748.7873,N,12217.8678,W,1,04,3.1,8.1,M,-25.1,M,,0000*6B
$GPGSA,A,3,08,09,28,17,,,,,,,,,5.1,3.1,4.1*3C
$GPGSV,3,1,12,17,65,039,23,27,56,304,36,09,39,313,36,04,38,149,14*73
$GPGSV,3,2,12,28,35,078,23,15,24,250,,26,18,210,,02,11,184,*7D
$GPGSV,3,3,12,12,09,287,,01,07,035,24,08,05,142,20,24,00,031,*77
$GPRMC,191728.000,A,3748.7873,N,12217.8678,W,2.35,56.34,200911,,,A*46
$GPVTG,56.34,T,,M,2.35,N,4.4,K,A*3D
$GPGGA,191729.000,3748.7879,N,12217.8671,W,1,04,3.1,7.3,M,-25.1,M,,0000*64
$GPGSA,A,3,08,09,28,17,,,,,,,,,5.1,3.1,4.1*3C
$GPRMC,191729.000,A,3748.7879,N,12217.8671,W,1.76,49.00,200911,,,A*49
$GPVTG,49.00,T,,M,1.76,N,3.3,K,A*30
$GPGGA,191730.000,3748.7886,N,12217.8663,W,1,05,2.2,5.3,M,-25.1,M,,0000*6E
$GPGSA,A,3,15,08,09,28,17,,,,,,,,4.2,2.2,3.6*38
$GPRMC,191730.000,A,3748.7886,N,12217.8663,W,0.60,17.06,200911,,,A*49
$GPVTG,17.06,T,,M,0.60,N,1.1,K,A*3B
$GPGGA,191731.000,3748.7888,N,12217.8663,W,1,04,3.9,5.6,M,-25.1,M,,0000*6F
$GPGSA,A,3,15,08,09,28,,,,,,,,,10.0,3.9,9.2*0D
$GPRMC,191731.000,A,3748.7888,N,12217.8663,W,0.06,148.24,200911,,,A*7D
$GPVTG,148.24,T,,M,0.06,N,0.1,K,A*01
$GPGGA,191732.000,3748.7886,N,12217.8662,W,1,05,2.2,8.3,M,-25.1,M,,0000*60
$GPGSA,A,3,15,08,09,28,17,,,,,,,,4.2,2.2,3.6*38
$GPRMC,191732.000,A,3748.7886,N,12217.8662,W,0.48,167.97,200911,,,A*7E
$GPVTG,167.97,T,,M,0.48,N,0.9,K,A*06
$GPGGA,191733.000,3748.7885,N,12217.8661,W,1,05,2.2,9.8,M,-25.1,M,,0000*6B
$GPGSA,A,3,15,08,09,28,17,,,,,,,,4.2,2.2,3.6*38
$GPGSV,3,1,12,17,65,039,20,27,56,304,27,09,39,313,37,04,38,149,13*76
$GPGSV,3,2,12,28,35,078,28,15,24,250,24,26,18,210,,02,11,184,*70
$GPGSV,3,3,12,12,09,287,,01,07,035,24,08,05,142,20,24,00,031,*77
$GPRMC,191733.000,A,3748.7885,N,12217.8661,W,0.18,167.62,200911,,,A*70
$GPVTG,167.62,T,,M,0.18,N,0.3,K,A*03
$GPGGA,191734.000,3748.7885,N,12217.8662,W,1,05,2.2,9.6,M,-25.1,M,,0000*61
$GPGSA,A,3,15,08,09,28,17,,,,,,,,4.2,2.2,3.6*38
$GPRMC,191734.000,A,3748.7885,N,12217.8662,W,0.27,155.95,200911,,,A*71
$GPVTG,155.95,T,,M,0.27,N,0.5,K,A*00
$GPGGA,191735.000,3748.7882,N,12217.8662,W,1,05,2.2,11.3,M,-25.1,M,,0000*5B
$GPGSA,A,3,15,08,09,28,17,,,,,,,,4.2,2.2,3.6*38
$GPRMC,191735.000,A,3748.7882,N,12217.8662,W,0.28,131.00,200911,,,A*76
$GPVTG,131.00,T,,M,0.28,N,0.5,K,A*01
$GPGGA,191736.000,3748.7880,N,12217.8662,W,1,05,2.2,11.9,M,-25.1,M,,0000*50
$GPGSA,A,3,15,08,09,28,17,,,,,,,,4.2,2.2,3.6*38
$GPRMC,191736.000,A,3748.7880,N,12217.8662,W,0.44,154.33,200911,,,A*7E
$GPVTG,154.33,T,,M,0.44,N,0.8,K,A*05
$GPGGA,191737.000,3748.7881,N,12217.8662,W,1,05,2.2,11.3,M,-25.1,M,,0000*5A
$GPGSA,A,3,15,08,09,28,17,,,,,,,,4.2,2.2,3.6*38
$GPRMC,191737.000,A,3748.7881,N,12217.8662,W,0.10,211.24,200911,,,A*7B
$GPVTG,211.24,T,,M,0.10,N,0.2,K,A*0A
$GPGGA,191738.000,3748.7879,N,12217.8663,W,1,05,2.2,12.3,M,-25.1,M,,0000*50
$GPGSA,A,3,15,08,09,28,17,,,,,,,,4.2,2.2,3.6*38
$GPGSV,3,1,12,17,65,039,22,27,56,304,27,09,39,313,37,04,38,149,*76
$GPGSV,3,2,12,28,35,078,28,15,24,250,24,26,18,210,,02,11,184,*70
$GPGSV,3,3,12,12,09,287,,01,07,035,25,08,05,142,20,24,00,031,*76
$GPVTG,185.20,T,,M,0.09,N,0.2,K,A*08
$GPGGA,191739.000,3748.7880,N,12217.8663,W,1,05,2.2,11.9,M,-25.1,M,,0000*5E
$GPGSA,A,3,15,08,09,28,17,,,,,,,,4.2,2.2,3.6*38
$GPRMC,191739.000,A,3748.7880,N,12217.8663,W,0.26,328.93,200911,,,A*77
$GPVTG,328.93,T,,M,0.26,N,0.5,K,A*0F
$GPGGA,191740.000,3748.7882,N,12217.8662,W,1,05,2.2,11.8,M,-25.1,M,,0000*52
$GPGSA,A,3,15,08,09,28,17,,,,,,,,4.2,2.2,3.6*38
$GPRMC,191740.000,A,3748.7882,N,12217.8662,W,0.22,330.50,200911,,,A*78
$GPVTG,330.50,T,,M,0.22,N,0.4,K,A*0C
$GPGGA,191741.000,3748.7884,N,12217.8663,W,1,05,2.2,11.5,M,-25.1,M,,0000*59
$GPGSA,A,3,15,08,09,28,17,,,,,,,,4.2,2.2,3.6*38
$GPRMC,191741.000,A,3748.7884,N,12217.8663,W,0.32,324.11,200911,,,A*7F
$GPVTG,324.11,T,,M,0.32,N,0.6,K,A*0F
$GPGGA,191742.000,3748.7887,N,12217.8665,W,1,05,2.2,9.1,M,-25.1,M,,0000*62
$GPGSA,A,3,15,08,09,28,17,,,,,,,,4.2,2.2,3.6*38
$GPRMC,191742.000,A,3748.7887,N,12217.8665,W,0.10,255.84,200911,,,A*72
$GPVTG,255.84,T,,M,0.10,N,0.2,K,A*00
$GPGGA,191743.000,3748.7886,N,12217.8668,W,1,05,2.2,8.8,M,-25.1,M,,0000*67
$GPGSA,A,3,15,08,09,28,17,,,,,,,,4.2,2.2,3.6*38
$GPGSV,3,1,12,17,65,039,24,27,56,304,26,09,39,313,37,04,38,149,*71
$GPGSV,3,2,12,28,35,078,28,15,24,250,24,26,18,210,,02,11,184,*70
$GPGSV,3,3,12,12,09,287,,01,07,035,25,08,05,142,21,24,00,031,*77
$GPRMC,191743.000,A,3748.7886,N,12217.8668,W,0.49,181.42,200911,,,A*73
$GPVTG,181.42,T,,M,0.49,N,0.9,K,A*07
$GPGGA,191744.000,3748.7886,N,12217.8670,W,1,05,2.2,7.9,M,-25.1,M,,0000*67
$GPGSA,A,3,15,08,09,28,17,,,,,,,,4.2,2.2,3.6*38
$GPRMC,191744.000,A,3748.7886,N,12217.8670,W,1.06,194.68,200911,,,A*7B
$GPVTG,194.68,T,,M,1.06,N,2.0,K,A*0A
$GPGGA,191745.000,3748.7879,N,12217.8676,W,1,05,2.2,8.7,M,-25.1,M,,0000*61
$GPGSA,A,3,15,08,09,28,17,,,,,,,,4.2,2.2,3.6*38
$GPRMC,191745.000,A,3748.7879,N,12217.8676,W,0.36,200.50,200911,,,A*7B
$GPVTG,200.50,T,,M,0.36,N,0.7,K,A*08
$GPGGA,191746.000,3748.7875,N,12217.8680,W,1,05,2.2,10.1,M,-25.1,M,,0000*58
$GPGSA,A,3,15,08,09,28,17,,,,,,,,4.2,2.2,3.6*38
$GPRMC,191746.000,A,3748.7875,N,12217.8680,W,0.18,241.48,200911,,,A*7D
$GPVTG,241.48,T,,M,0.18,N,0.3,K,A*0C
$GPGGA,191747.000,3748.7875,N,12217.8682,W,1,05,2.2,10.3,M,-25.1,M,,0000*59
$GPGSA,A,3,15,08,09,28,17,,,,,,,,4.2,2.2,3.6*38
$GPRMC,191747.000,A,3748.7875,N,12217.8682,W,0.08,349.19,200911,,,A*72
$GPVTG,349.19,T,,M,0.08,N,0.1,K,A*02
$GPGGA,191748.000,3748.7876,N,12217.8681,W,1,05,2.2,8.0,M,-25.1,M,,0000*6C
$GPGSA,A,3,15,08,09,28,17,,,,,,,,4.2,2.2,3.6*38
$GPGSV,3,1,11,17,64,039,25,27,56,304,27,09,39,313,38,04,39,149,*7D
$GPGSV,3,2,11,28,34,079,18,15,24,249,24,26,17,210,,02,12,184,*74
$GPGSV,3,3,11,12,09,287,,08,05,142,21,24,00,031,*43
$GPRMC,191748.000,A,3748.7876,N,12217.8681,W,0.50,37.21,200911,,,A*41
$GPVTG,37.21,T,,M,0.50,N,0.9,K,A*36
$GPGGA,191749.000,3748.7877,N,12217.8683,W,1,05,2.2,7.0,M,-25.1,M,,0000*61
$GPGSA,A,3,15,08,09,28,17,,,,,,,,4.2,2.2,3.6*38
$GPRMC,191749.000,A,3748.7877,N,12217.8683,W,0.29,54.27,200911,,,A*4E
$GPVTG,54.27,T,,M,0.29,N,0.5,K,A*37
$GPGGA,191750.000,3748.7883,N,12217.8681,W,1,05,2.2,5.0,M,-25.1,M,,0000*62
$GPGSA,A,3,15,08,09,28,17,,,,,,,,4.2,2.2,3.6*38
$GPRMC,191750.000,A,3748.7883,N,12217.8681,W,0.23,335.33,200911,,,A*74
$GPVTG,335.33,T,,M,0.23,N,0.4,K,A*0D
$GPGGA,191751.000,3748.7882,N,12217.8687,W,1,05,2.2,4.2,M,-25.1,M,,0000*67
$GPGSA,A,3,15,08,09,28,17,,,,,,,,4.2,2.2,3.6*38
$GPRMC,191751.000,A,3748.7882,N,12217.8687,W,0.78,268.42,200911,,,A*73
$GPVTG,268.42,T,,M,0.78,N,1.4,K,A*0D
$GPGGA,191752.000,3748.7880,N,12217.8689,W,1,05,2.2,4.6,M,-25.1,M,,0000*6C
$GPGSA,A,3,15,08,09,28,17,,,,,,,,4.2,2.2,3.6*38
$GPRMC,191752.000,A,3748.7880,N,12217.8689,W,0.12,27.85,200911,,,A*42
$GPVTG,27.85,T,,M,0.12,N,0.2,K,A*34
$GPGGA,191753.000,3748.7884,N,12217.8686,W,1,05,2.2,4.2,M,-25.1,M,,0000*62
$GPGSA,A,3,15,08,09,28,17,,,,,,,,4.2,2.2,3.6*38
$GPGSV,3,1,11,17,64,039,27,27,56,304,32,09,39,313,39,04,39,149,*7A
$GPGSV,3,2,11,28,34,079,22,15,24,249,23,26,17,210,,02,12,184,*7A
$GPGSV,3,3,11,12,09,287,,08,05,142,20,24,00,031,*42
$GPRMC,191753.000,A,3748.7884,N,12217.8686,W,0.37,36.11,200911,,,A*42
$GPGGA,191754.000,3748.7891,N,12217.8683,W,1,05,2.2,1.9,M,-25.1,M,,0000*6A
$GPGSA,A,3,15,08,09,28,17,,,,,,,,4.2,2.2,3.6*38
$GPRMC,191754.000,A,3748.7891,N,12217.8683,W,0.77,26.69,200911,,,A*4E
$GPVTG,26.69,T,,M,0.77,N,1.4,K,A*33
$GPGGA,191755.000,3748.7891,N,12217.8686,W,1,05,2.2,2.2,M,-25.1,M,,0000*66
$GPGSA,A,3,15,08,09,28,17,,,,,,,,4.2,2.2,3.6*38
$GPRMC,191755.000,A,3748.7891,N,12217.8686,W,0.60,35.83,200911,,,A*4A
$GPVTG,35.83,T,,M,0.60,N,1.1,K,A*36
$GPGGA,191756.000,3748.7892,N,12217.8686,W,1,05,2.2,2.3,M,-25.1,M,,0000*67
$GPGSA,A,3,15,08,09,28,17,,,,,,,,4.2,2.2,3.6*38
$GPRMC,191756.000,A,3748.7892,N,12217.8686,W,0.22,45.05,200911,,,A*45
$GPVTG,45.05,T,,M,0.22,N,0.4,K,A*3D
$GPGGA,191757.000,3748.7893,N,12217.8687,W,1,05,2.2,0.3,M,-25.1,M,,0000*64
$GPGSA,A,3,15,08,09,28,17,,,,,,,,4.3,2.2,3.6*39
$GPRMC,191757.000,A,3748.7893,N,12217.8687,W,0.20,78.24,200911,,,A*4B
$GPVTG,78.24,T,,M,0.20,N,0.4,K,A*32
$GPGGA,191758.000,3748.7897,N,12217.8686,W,1,05,2.2,-2.2,M,-25.1,M,,0000*40
$GPGSA,A,3,15,08,09,28,17,,,,,,,,4.3,2.2,3.6*39
$GPGSV,3,1,11,17,64,039,26,27,56,304,32,09,39,313,39,04,39,149,*7B
$GPGSV,3,2,11,28,34,079,22,15,24,249,23,26,17,210,,02,12,184,*7A
$GPGSV,3,3,11,12,09,287,,08,05,142,20,24,00,031,*42
$GPRMC,191758.000,A,3748.7897,N,12217.8686,W,0.26,124.88,200911,,,A*79
$GPVTG,124.88,T,,M,0.26,N,0.5,K,A*0B
$GPGGA,191759.000,3748.7896,N,12217.8687,W,1,05,2.2,-2.4,M,-25.1,M,,0000*47
$GPGSA,A,3,15,08,09,28,17,,,,,,,,4.3,2.2,3.6*39
$GPRMC,191759.000,A,3748.7896,N,12217.8687,W,0.63,205.25,200911,,,A*7E
$GPVTG,205.25,T,,M,0.63,N,1.2,K,A*0B
$GPGGA,191800.000,3748.7882,N,12217.8683,W,1,04,2.3,-1.1,M,-25.1,M,,0000*43
$GPGSA,A,3,15,09,28,17,,,,,,,,,4.7,2.3,4.1*34
$GPRMC,191800.000,A,3748.7882,N,12217.8683,W,1.38,209.49,200911,,,A*75
$GPVTG,209.49,T,,M,1.38,N,2.6,K,A*05
$GPGGA,191801.000,3748.7879,N,12217.8683,W,1,04,2.3,0.5,M,-25.1,M,,0000*6E
$GPGSA,A,3,15,09,28,17,,,,,,,,,4.7,2.3,4.1*34
$GPRMC,191801.000,A,3748.7879,N,12217.8683,W,0.79,308.93,200911,,,A*73
$GPVTG,308.93,T,,M,0.79,N,1.5,K,A*06
$GPGGA,191802.000,3748.7881,N,12217.8681,W,1,04,2.3,0.1,M,-25.1,M,,0000*6C
$GPGSA,A,3,15,09,28,17,,,,,,,,,4.7,2.3,4.1*34
$GPRMC,191802.000,A,3748.7881,N,12217.8681,W,0.08,19.06,200911,,,A*4C
$GPVTG,19.06,T,,M,0.08,N,0.2,K,A*39
$GPGGA,191803.000,3748.7883,N,12217.8683,W,1,04,2.3,0.6,M,-25.1,M,,0000*6A
$GPGSA,A,3,15,09,28,17,,,,,,,,,4.7,2.3,4.1*34
$GPGSV,3,1,11,17,64,039,24,27,56,304,26,09,39,313,35,04,39,149,*70
$GPGSV,3,2,11,28,34,079,22,15,24,249,18,26,17,210,,02,12,184,*72
$GPGSV,3,3,11,12,09,287,,08,05,142,,24,00,031,*40
$GPRMC,191803.000,A,3748.7883,N,12217.8683,W,0.51,35.25,200911,,,A*4E
$GPVTG,35.25,T,,M,0.51,N,0.9,K,A*31
$GPGGA,191804.000,3748.7886,N,12217.8681,W,1,04,2.3,1.5,M,-25.1,M,,0000*68
$GPGSA,A,3,15,09,28,17,,,,,,,,,4.7,2.3,4.1*34
$GPRMC,191804.000,A,3748.7886,N,12217.8681,W,1.08,32.92,200911,,,A*48
$GPVTG,32.92,T,,M,1.08,N,2.0,K,A*3C
$GPGGA,191805.000,3748.7886,N,12217.8679,W,1,04,2.3,1.9,M,-25.1,M,,0000*62
$GPGSA,A,3,15,09,28,17,,,,,,,,,4.7,2.3,4.1*34
$GPRMC,191805.000,A,3748.7886,N,12217.8679,W,0.43,29.23,200911,,,A*40
$GPVTG,29.23,T,,M,0.43,N,0.8,K,A*38
$GPGGA,191806.000,3748.7887,N,12217.8679,W,1,04,2.3,1.7,M,-25.1,M,,0000*6E
$GPGSA,A,3,15,09,28,17,,,,,,,,,4.7,2.3,4.1*34
$GPRMC,191806.000,A,3748.7887,N,12217.8679,W,0.07,210.61,200911,,,A*7C
$GPVTG,210.61,T,,M,0.07,N,0.1,K,A*0F
$GPGGA,191807.000,3748.7873,N,12217.8682,W,1,04,2.3,1.5,M,-25.1,M,,0000*62
$GPGSA,A,3,15,09,28,17,,,,,,,,,4.7,2.3,4.1*34
$GPRMC,191807.000,A,3748.7873,N,12217.8682,W,0.95,197.65,200911,,,A*71
$GPVTG,197.65,T,,M,0.95,N,1.8,K,A*04
$GPGGA,191808.000,3748.7866,N,12217.8684,W,1,03,4.4,0.4,M,-25.1,M,,0000*69
$GPGSA,A,2,15,28,17,,,,,,,,,,4.5,4.4,1.0*3B
$GPGSV,3,1,11,17,64,039,20,27,56,304,17,09,39,313,10,04,39,149,*71
