$ADVER,3080,2.3
$GPRMC,191422.467,A,3748.7909,N,12217.8731,W,0.14,62.43,200911,,,A*4C
$GPRMC,191423.467,A,3748.7911,N,12217.8730,W,0.09,77.14,200911,,,A*4F
$GPRMC,191424.467,A,3748.7911,N,12217.8731,W,0.21,61.09,200911,,,A*48
$GPRMC,191425.467,A,3748.7915,N,12217.8728,W,0.13,70.28,200911,,,A*47
$GPRMC,191426.467,A,3748.7920,N,12217.8724,W,0.11,67.17,200911,,,A*46
$GPRMC,191427.467,A,3748.7922,N,12217.8723,W,0.17,59.52,200911,,,A*48
$GPRMC,191428.467,A,3748.8269,N,12217.8405,W,0.17,60.26,200911,,,A*42
$GPRMC,191429.467,A,3748.8214,N,12217.8466,W,0.10,68.24,200911,,,A*41
$GPRMC,191430.467,A,3748.8185,N,12217.8491,W,0.14,59.06,200911,,,A*4C
$GPRMC,191431.000,A,3748.8156,N,12217.8516,W,0.14,68.88,200911,,,A*4C
$GPRMC,191432.000,A,3748.8144,N,12217.8526,W,0.22,56.73,200911,,,A*43
$GPRMC,191433.000,A,3748.8128,N,12217.8535,W,0.13,54.04,200911,,,A*4A
$GPRMC,191434.000,A,3748.7971,N,12217.8644,W,0.34,51.93,200911,,,A*4D
$GPRMC,191435.000,A,3748.7966,N,12217.8636,W,0.02,124.69,200911,,,A*7C
$GPRMC,191436.000,A,3748.7971,N,12217.8630,W,0.28,154.71,200911,,,A*79
$GPRMC,191437.000,A,3748.7969,N,12217.8629,W,0.12,186.54,200911,,,A*78
$GPRMC,191438.000,A,3748.7968,N,12217.8629,W,0.09,184.20,200911,,,A*7D
$GPRMC,191439.000,A,3748.7968,N,12217.8628,W,0.08,182.75,200911,,,A*7A
$GPRMC,191440.000,A,3748.7968,N,12217.8627,W,0.08,161.26,200911,,,A*70
$GPRMC,191441.000,A,3748.7968,N,12217.8627,W,0.09,176.86,200911,,,A*7C
$GPRMC,191442.000,A,3748.7968,N,12217.8627,W,0.05,138.69,200911,,,A*78
$GPRMC,191443.000,A,3748.7968,N,12217.8627,W,0.06,174.71,200911,,,A*7B
$GPRMC,191444.000,A,3748.7969,N,12217.8627,W,0.04,149.85,200911,,,A*7A
$GPRMC,191445.000,A,3748.7969,N,12217.8626,W,0.05,123.06,200911,,,A*7C
$GPRMC,191446.000,A,3748.7969,N,12217.8626,W,0.06,168.24,200911,,,A*73
$GPRMC,191447.000,A,3748.7967,N,12217.8630,W,0.21,210.25,200911,,,A*73
$GPRMC,191448.000,A,3748.7966,N,12217.8631,W,0.27,46.29,200911,,,A*47
$GPRMC,191449.000,A,3748.7966,N,12217.8632,W,0.06,96.07,200911,,,A*47
$GPRMC,191450.000,A,3748.7964,N,12217.8634,W,0.19,51.70,200911,,,A*4E
$GPRMC,191451.000,A,3748.7964,N,12217.8636,W,0.05,163.71,200911,,,A*71
$GPRMC,191452.000,A,3748.7964,N,12217.8636,W,0.13,123.83,200911,,,A*7C
$GPRMC,191453.000,A,3748.7966,N,12217.8637,W,0.13,33.42,200911,,,A*43
$GPRMC,191454.000,A,3748.7968,N,12217.8637,W,0.06,65.27,200911,,,A*4E
$GPRMC,191455.000,A,3748.7969,N,12217.8637,W,0.08,72.27,200911,,,A*46
$GPRMC,191456.000,A,3748.7970,N,12217.8638,W,0.09,65.10,200911,,,A*41
$GPRMC,191457.000,A,3748.7971,N,12217.8638,W,0.11,61.08,200911,,,A*45
$GPRMC,191458.000,A,3748.7972,N,12217.8638,W,0.13,53.15,200911,,,A*46
$GPRMC,191459.000,A,3748.7972,N,12217.8638,W,0.09,57.51,200911,,,A*48
$GPRMC,191500.000,A,3748.7973,N,12217.8638,W,0.10,60.95,200911,,,A*40
$GPRMC,191501.000,A,3748.7974,N,12217.8638,W,0.09,67.34,200911,,,A*42
$GPRMC,191502.000,A,3748.7975,N,12217.8638,W,0.10,61.31,200911,,,A*4B
$GPRMC,191503.000,A,3748.7975,N,12217.8638,W,0.10,71.65,200911,,,A*4A
$GPRMC,191504.000,A,3748.7976,N,12217.8638,W,0.11,55.07,200911,,,A*4D
$GPRMC,191505.000,A,3748.7977,N,12217.8638,W,0.13,48.37,200911,,,A*40
$GPRMC,191506.000,A,3748.7978,N,12217.8636,W,0.11,168.05,200911,,,A*72
$GPRMC,191507.000,A,3748.7977,N,12217.8633,W,0.22,96.81,200911,,,A*45
$GPRMC,191508.000,A,3748.7979,N,12217.8632,W,0.28,91.19,200911,,,A*49
$GPRMC,191509.000,A,3748.7981,N,12217.8632,W,0.20,72.98,200911,,,A*43
$GPRMC,191510.000,A,3748.7983,N,12217.8633,W,0.21,92.43,200911,,,A*41
$GPRMC,191511.000,A,3748.7984,N,12217.8637,W,0.59,295.72,200911,,,A*7B
$GPRMC,191512.000,A,3748.7985,N,12217.8640,W,0.19,61.97,200911,,,A*4F
$GPRMC,191513.000,A,3748.7986,N,12217.8642,W,0.14,71.61,200911,,,A*4A
$GPRMC,191514.000,A,3748.7988,N,12217.8643,W,0.17,12.39,200911,,,A*49
$GPRMC,191515.000,A,3748.7988,N,12217.8643,W,0.35,116.16,200911,,,A*70
$GPRMC,191516.000,A,3748.7990,N,12217.8644,W,0.44,170.95,200911,,,A*70
$GPRMC,191517.000,A,3748.7988,N,12217.8646,W,0.32,199.40,200911,,,A*74
$GPRMC,191518.000,A,3748.7986,N,12217.8647,W,0.11,91.06,200911,,,A*4E
$GPRMC,191519.000,A,3748.7988,N,12217.8644,W,0.51,43.44,200911,,,A*4F
$GPRMC,191520.000,A,3748.7991,N,12217.8640,W,1.41,43.89,200911,,,A*48
$GPRMC,191521.000,A,3748.7993,N,12217.8636,W,1.28,42.03,200911,,,A*46
$GPRMC,191522.000,A,3748.7998,N,12217.8628,W,2.11,42.71,200911,,,A*4D
$GPRMC,191523.000,A,3748.7997,N,12217.8626,W,0.75,46.28,200911,,,A*45
$GPRMC,191524.000,A,3748.7995,N,12217.8626,W,0.13,187.92,200911,,,A*7D
$GPRMC,191525.000,A,3748.7997,N,12217.8622,W,0.30,56.14,200911,,,A*48
$GPRMC,191526.000,A,3748.8000,N,12217.8615,W,0.34,52.21,200911,,,A*41
$GPRMC,191527.000,A,3748.8004,N,12217.8609,W,0.33,70.45,200911,,,A*4C
$GPRMC,191528.000,A,3748.8004,N,12217.8606,W,0.08,177.48,200911,,,A*7F
$GPRMC,191529.000,A,3748.8009,N,12217.8600,W,0.17,33.72,200911,,,A*43
$GPRMC,191530.000,A,3748.8013,N,12217.8595,W,0.82,45.69,200911,,,A*48
$GPRMC,191531.000,A,3748.8016,N,12217.8589,W,0.60,47.75,200911,,,A*42
$GPRMC,191532.000,A,3748.8020,N,12217.8587,W,0.26,27.75,200911,,,A*4E
$GPRMC,191533.000,A,3748.8021,N,12217.8589,W,0.34,330.09,200911,,,A*7D
$GPRMC,191534.000,A,3748.8019,N,12217.8595,W,0.06,341.70,200911,,,A*75
$GPRMC,191535.000,A,3748.8020,N,12217.8591,W,1.70,83.70,200911,,,A*47
$GPRMC,191536.000,A,3748.8019,N,12217.8588,W,1.95,96.14,200911,,,A*4B
$GPRMC,191537.000,A,3748.8019,N,12217.8583,W,2.46,114.16,200911,,,A*75
$GPRMC,191538.000,A,3748.8015,N,12217.8580,W,2.64,104.87,200911,,,A*7C
$GPRMC,191539.000,A,3748.8017,N,12217.8578,W,2.36,89.79,200911,,,A*4A
$GPRMC,191540.000,A,3748.8020,N,12217.8568,W,2.14,102.77,200911,,,A*7D
$GPRMC,191541.000,A,3748.8014,N,12217.8562,W,2.47,104.18,200911,,,A*78
$GPRMC,191542.000,A,3748.8010,N,12217.8559,W,2.60,97.66,200911,,,A*40
$GPRMC,191543.000,A,3748.8012,N,12217.8554,W,2.10,82.14,200911,,,A*48
$GPRMC,191544.000,A,3748.8011,N,12217.8550,W,1.76,82.21,200911,,,A*4D
$GPRMC,191545.000,A,3748.8016,N,12217.8542,W,1.39,58.03,200911,,,A*44
$GPRMC,191546.000,A,3748.8024,N,12217.8540,W,1.07,52.20,200911,,,A*42
$GPRMC,191547.000,A,3748.8028,N,12217.8539,W,0.57,36.54,200911,,,A*44
$GPRMC,191548.000,A,3748.8037,N,12217.8536,W,0.84,357.05,200911,,,A*74
$GPRMC,191549.000,A,3748.8045,N,12217.8532,W,0.71,305.14,200911,,,A*79
$GPRMC,191550.000,A,3748.8049,N,12217.8534,W,0.44,299.89,200911,,,A*7D
$GPRMC,191551.000,A,3748.8053,N,12217.8537,W,0.53,35.12,200911,,,A*44
$GPRMC,191552.000,A,3748.8052,N,12217.8535,W,0.40,185.12,200911,,,A*7C
$GPRMC,191553.000,A,3748.8053,N,12217.8534,W,0.18,64.17,200911,,,A*4B
$GPRMC,191554.000,A,3748.8056,N,12217.8528,W,0.81,57.71,200911,,,A*44
$GPRMC,191555.000,A,3748.8060,N,12217.8526,W,1.46,58.53,200911,,,A*4B
$GPRMC,191556.000,A,3748.8066,N,12217.8523,W,2.07,52.19,200911,,,A*49
$GPRMC,191557.000,A,3748.8074,N,12217.8522,W,1.94,46.63,200911,,,A*4B
$GPRMC,191558.000,A,3748.8076,N,12217.8527,W,1.04,29.03,200911,,,A*45
$GPRMC,191559.000,A,3748.8069,N,12217.8535,W,0.43,66.82,200911,,,A*49
$GPRMC,191600.000,A,3748.8064,N,12217.8547,W,0.94,19.23,200911,,,A*47
$GPRMC,191601.000,A,3748.8064,N,12217.8552,W,0.85,49.02,200911,,,A*44
$GPRMC,191602.000,A,3748.8065,N,12217.8553,W,0.76,77.00,200911,,,A*44
$GPRMC,191603.000,A,3748.8066,N,12217.8557,W,0.85,51.98,200911,,,A*4B
$GPRMC,191604.000,A,3748.8069,N,12217.8559,W,0.72,46.04,200911,,,A*46
$GPRMC,191605.000,A,3748.8066,N,12217.8567,W,0.89,76.61,200911,,,A*41
$GPRMC,191606.000,A,3748.8062,N,12217.8575,W,0.34,76.48,200911,,,A*48
$GPRMC,191607.000,A,3748.8057,N,12217.8584,W,0.26,205.65,200911,,,A*7B
$GPRMC,191608.000,A,3748.8054,N,12217.8588,W,0.17,241.02,200911,,,A*78
$GPRMC,191609.000,A,3748.8051,N,12217.8593,W,0.51,216.47,200911,,,A*77
$GPRMC,191610.000,A,3748.8045,N,12217.8598,W,0.98,208.47,200911,,,A*7B
$GPRMC,191611.000,A,3748.8039,N,12217.8603,W,0.60,241.27,200911,,,A*7C
$GPRMC,191612.000,A,3748.8038,N,12217.8602,W,0.51,244.85,200911,,,A*70
$GPRMC,191613.000,A,3748.8036,N,12217.8603,W,0.45,296.65,200911,,,A*7A
$GPRMC,191614.000,A,3748.8031,N,12217.8606,W,0.45,201.40,200911,,,A*76
$GPRMC,191615.000,A,3748.8025,N,12217.8607,W,0.25,159.27,200911,,,A*7A
$GPRMC,191616.000,A,3748.8020,N,12217.8609,W,0.20,227.10,200911,,,A*79
$GPRMC,191617.000,A,3748.8014,N,12217.8611,W,0.30,230.51,200911,,,A*74
$GPRMC,191618.000,A,3748.8009,N,12217.8615,W,0.17,223.68,200911,,,A*7E
$GPRMC,191619.000,A,3748.8003,N,12217.8618,W,0.98,232.93,200911,,,A*7B
$GPRMC,191620.000,A,3748.7999,N,12217.8617,W,0.25,186.22,200911,,,A*7B
$GPRMC,191621.000,A,3748.7995,N,12217.8615,W,0.24,161.07,200911,,,A*7B
$GPRMC,191622.000,A,3748.7992,N,12217.8613,W,0.18,200.34,200911,,,A*72
$GPRMC,191623.000,A,3748.7988,N,12217.8612,W,0.21,173.09,200911,,,A*7A
$GPRMC,191624.000,A,3748.7985,N,12217.8611,W,0.25,171.82,200911,,,A*76
$GPRMC,191625.000,A,3748.7979,N,12217.8610,W,0.22,167.91,200911,,,A*77
$GPRMC,191626.000,A,3748.7974,N,12217.8608,W,0.35,167.84,200911,,,A*72
$GPRMC,191627.000,A,3748.7971,N,12217.8609,W,0.31,186.24,200911,,,A*76
$GPRMC,191628.000,A,3748.7967,N,12217.8608,W,0.50,173.36,200911,,,A*71
$GPRMC,191629.000,A,3748.7965,N,12217.8609,W,0.47,174.40,200911,,,A*73
$GPRMC,191630.000,A,3748.7964,N,12217.8610,W,0.73,248.62,200911,,,A*79
$GPRMC,191631.000,A,3748.7963,N,12217.8611,W,0.36,218.41,200911,,,A*7B
$GPRMC,191632.000,A,3748.7963,N,12217.8611,W,0.04,105.45,200911,,,A*72
$GPRMC,191633.000,A,3748.7962,N,12217.8610,W,0.19,218.84,200911,,,A*7D
$GPRMC,191634.000,A,3748.7961,N,12217.8609,W,0.18,93.65,200911,,,A*4E
$GPRMC,191635.000,A,3748.7958,N,12217.8608,W,0.31,156.90,200911,,,A*7D
$GPRMC,191636.000,A,3748.7953,N,12217.8606,W,0.59,160.47,200911,,,A*7A
$GPRMC,191637.000,A,3748.7948,N,12217.8605,W,0.40,153.48,200911,,,A*75
$GPRMC,191638.000,A,3748.7946,N,12217.8607,W,1.29,191.79,200911,,,A*74
$GPRMC,191639.000,A,3748.7945,N,12217.8608,W,1.13,151.78,200911,,,A*7D
$GPRMC,191640.000,A,3748.7944,N,12217.8605,W,0.70,132.80,200911,,,A*79
$GPRMC,191641.000,A,3748.7945,N,12217.8604,W,0.58,16.76,200911,,,A*4C
$GPRMC,191642.000,A,3748.7947,N,12217.8604,W,0.22,357.38,200911,,,A*7C
$GPRMC,191643.000,A,3748.7949,N,12217.8604,W,0.42,280.48,200911,,,A*79
$GPRMC,191644.000,A,3748.7948,N,12217.8606,W,0.34,325.58,200911,,,A*73
$GPRMC,191645.000,A,3748.7949,N,12217.8609,W,0.50,328.14,200911,,,A*7B
$GPRMC,191646.000,A,3748.7951,N,12217.8611,W,0.20,314.01,200911,,,A*74
$GPRMC,191647.000,A,3748.7951,N,12217.8615,W,0.56,299.88,200911,,,A*75
$GPRMC,191648.000,A,3748.7959,N,12217.8620,W,0.81,359.04,200911,,,A*77
$GPRMC,191649.000,A,3748.7966,N,12217.8624,W,0.23,0.46,200911,,,A*7F
$GPRMC,191650.000,A,3748.7972,N,12217.8623,W,0.94,2.64,200911,,,A*7B
$GPRMC,191651.000,A,3748.7976,N,12217.8627,W,0.78,3.86,200911,,,A*75
$GPRMC,191652.000,A,3748.7982,N,12217.8629,W,0.14,44.37,200911,,,A*40
$GPRMC,191653.000,A,3748.7986,N,12217.8629,W,0.65,354.16,200911,,,A*72
$GPRMC,191654.000,A,3748.7989,N,12217.8632,W,0.26,317.77,200911,,,A*77
$GPRMC,191655.000,A,3748.7987,N,12217.8641,W,1.13,190.59,200911,,,A*7A
$GPRMC,191656.000,A,3748.7978,N,12217.8654,W,1.33,216.99,200911,,,A*7E
$GPRMC,191657.000,A,3748.7973,N,12217.8671,W,2.46,223.35,200911,,,A*72
$GPRMC,191658.000,A,3748.7968,N,12217.8681,W,2.70,217.87,200911,,,A*73
$GPRMC,191659.000,A,3748.7963,N,12217.8686,W,2.21,212.60,200911,,,A*76
$GPRMC,191700.000,A,3748.7961,N,12217.8686,W,0.97,206.24,200911,,,A*73
$GPRMC,191701.000,A,3748.7960,N,12217.8685,W,0.28,128.69,200911,,,A*72
$GPRMC,191702.000,A,3748.7957,N,12217.8681,W,0.23,209.57,200911,,,A*77
$GPRMC,191703.000,A,3748.7954,N,12217.8680,W,0.84,185.47,200911,,,A*7F
$GPRMC,191704.000,A,3748.7950,N,12217.8679,W,1.85,182.05,200911,,,A*7B
$GPRMC,191705.000,A,3748.7944,N,12217.8678,W,1.81,197.37,200911,,,A*7F
$GPRMC,191706.000,A,3748.7938,N,12217.8680,W,2.25,214.24,200911,,,A*77
$GPRMC,191707.000,A,3748.7932,N,12217.8684,W,2.35,214.43,200911,,,A*78
$GPRMC,191708.000,A,3748.7927,N,12217.8688,W,2.18,205.83,200911,,,A*7C
$GPRMC,191709.000,A,3748.7918,N,12217.8694,W,2.31,204.14,200911,,,A*78
$GPRMC,191710.000,A,3748.7913,N,12217.8702,W,1.75,203.42,200911,,,A*72
$GPRMC,191711.000,A,3748.7909,N,12217.8706,W,1.60,161.05,200911,,,A*7C
$GPRMC,191712.000,A,3748.7905,N,12217.8710,W,1.21,165.78,200911,,,A*7F
$GPRMC,191713.000,A,3748.7903,N,12217.8708,W,0.91,144.16,200911,,,A*70
$GPRMC,191714.000,A,3748.7895,N,12217.8710,W,1.25,175.52,200911,,,A*7C
$GPRMC,191715.000,A,3748.7886,N,12217.8714,W,2.32,180.74,200911,,,A*70
$GPRMC,191716.000,A,3748.7885,N,12217.8714,W,1.97,171.94,200911,,,A*7C
$GPRMC,191717.000,A,3748.7882,N,12217.8714,W,1.76,179.71,200911,,,A*76
$GPRMC,191718.000,A,3748.7882,N,12217.8706,W,2.25,155.62,200911,,,A*73
$GPRMC,191719.000,A,3748.7881,N,12217.8704,W,1.16,164.18,200911,,,A*7F
$GPRMC,191720.000,A,3748.7879,N,12217.8702,W,1.08,209.03,200911,,,A*79
$GPRMC,191721.000,A,3748.7879,N,12217.8702,W,0.78,204.24,200911,,,A*76
$GPRMC,191722.000,A,3748.7882,N,12217.8702,W,0.27,220.20,200911,,,A*79
$GPRMC,191723.000,A,3748.7885,N,12217.8701,W,0.73,250.75,200911,,,A*7A
$GPRMC,191724.000,A,3748.7881,N,12217.8706,W,2.28,231.98,200911,,,A*76
$GPRMC,191725.000,A,3748.7875,N,12217.8718,W,4.06,235.15,200911,,,A*78
$GPRMC,191726.000,A,3748.7862,N,12217.8756,W,6.68,245.64,200911,,,A*7C
$GPRMC,191727.000,A,3748.7852,N,12217.8796,W,7.77,254.14,200911,,,A*7A
$GPRMC,191728.000,A,3748.7846,N,12217.8822,W,7.77,254.14,200911,,,E*74
$GPRMC,191729.000,A,3748.7840,N,12217.8848,W,7.77,254.14,200911,,,E*7F
$GPRMC,191730.000,A,3748.7834,N,12217.8875,W,7.77,254.14,200911,,,E*7A
$GPRMC,191731.000,A,3748.7828,N,12217.8901,W,7.77,254.14,200911,,,E*74
$GPRMC,191732.000,A,3748.7823,N,12217.8927,W,7.77,254.14,200911,,,E*78
$GPRMC,191733.000,A,3748.7817,N,12217.8953,W,7.77,254.14,200911,,,E*7D
$GPRMC,191734.000,A,3748.7811,N,12217.8979,W,7.77,254.14,200911,,,E*74
$GPRMC,191735.000,A,3748.7805,N,12217.9006,W,7.77,254.14,200911,,,E*70
$GPRMC,191736.000,A,3748.7799,N,12217.9032,W,7.77,254.14,200911,,,E*7E
$GPRMC,191737.000,A,3748.7793,N,12217.9058,W,7.77,254.14,200911,,,E*79
$GPRMC,191738.000,A,3748.7787,N,12217.9084,W,7.77,254.14,200911,,,E*72
$GPRMC,191739.000,A,3748.7781,N,12217.9111,W,7.77,254.14,200911,,,E*78
$GPRMC,191740.000,A,3748.7747,N,12217.8814,W,0.66,117.78,200911,,,A*7C
$GPRMC,191741.000,A,3748.7738,N,12217.8848,W,1.84,255.04,200911,,,A*7F
$GPRMC,191742.000,A,3748.7749,N,12217.8833,W,2.82,253.78,200911,,,A*7E
$GPRMC,191743.000,A,3748.7766,N,12217.8824,W,2.28,282.01,200911,,,A*76
$GPRMC,191744.000,A,3748.7783,N,12217.8810,W,2.15,298.14,200911,,,A*7C
$GPRMC,191745.000,A,3748.7786,N,12217.8818,W,2.55,277.01,200911,,,A*71
$GPRMC,191746.000,A,3748.7785,N,12217.8829,W,3.01,262.60,200911,,,A*70
$GPRMC,191747.000,A,3748.7776,N,12217.8844,W,4.09,255.53,200911,,,A*7D
$GPRMC,191748.000,A,3748.7773,N,12217.8858,W,4.09,255.53,200911,,,E*7E
$GPRMC,191749.000,A,3748.7770,N,12217.8871,W,4.09,255.53,200911,,,E*77
$GPRMC,191750.000,A,3748.7762,N,12217.8888,W,3.96,245.61,200911,,,A*7F
$GPRMC,191751.000,A,3748.7757,N,12217.8901,W,3.96,245.61,200911,,,E*7C
$GPRMC,191752.000,A,3748.7770,N,12217.8939,W,6.22,278.75,200911,,,A*74
$GPRMC,191753.000,A,3748.7748,N,12217.8952,W,5.74,238.69,200911,,,A*7A
$GPRMC,191754.000,A,3748.7716,N,12217.8996,W,8.98,237.70,200911,,,A*76
$GPRMC,191755.000,A,3748.7691,N,12217.9046,W,10.42,234.71,200911,,,A*40
$GPRMC,191756.000,A,3748.7678,N,12217.9064,W,9.24,233.62,200911,,,A*79
$GPRMC,191757.000,A,3748.7670,N,12217.9073,W,8.11,234.91,200911,,,A*7A
$GPRMC,191758.000,A,3748.7657,N,12217.9096,W,8.11,234.91,200911,,,E*7F
$GPRMC,191759.000,A,3748.7644,N,12217.9119,W,8.11,234.91,200911,,,E*7A
$GPRMC,191800.000,A,3748.7631,N,12217.9143,W,8.11,234.91,200911,,,E*74
$GPRMC,191801.000,A,3748.7618,N,12217.9166,W,8.11,234.91,200911,,,E*79
$GPRMC,191802.000,A,3748.7605,N,12217.9189,W,8.11,234.91,200911,,,E*77
$GPRMC,191803.000,A,3748.7592,N,12217.9212,W,8.11,234.91,200911,,,E*7A
$GPRMC,191804.000,A,3748.7621,N,12217.9189,W,3.69,225.53,200911,,,A*79
$GPRMC,191805.000,A,3748.7630,N,12217.9152,W,2.08,207.69,200911,,,A*71
$GPRMC,191806.000,A,3748.7672,N,12217.9088,W,0.28,166.14,200911,,,A*7C
$GPRMC,191807.000,A,3748.7671,N,12217.9088,W,0.28,166.14,200911,,,E*7A
$GPRMC,191808.000,A,3748.7671,N,12217.9088,W,0.28,166.14,200911,,,E*75
$GPRMC,191809.000,A,3748.7692,N,12217.9047,W,1.02,57.12,200911,,,A*42
$GPRMC,191810.000,A,3748.7736,N,12217.8974,W,2.98,57.79,200911,,,A*40
$GPRMC,191811.000,A,3748.7744,N,12217.8980,W,1.43,28.72,200911,,,A*49
$GPRMC,191812.000,A,3748.7747,N,12217.8977,W,1.43,28.72,200911,,,E*45
$GPRMC,191813.000,A,3748.7751,N,12217.8975,W,1.43,28.72,200911,,,E*41
$GPRMC,191814.000,A,3748.7754,N,12217.8973,W,1.43,28.72,200911,,,E*45
$GPRMC,191815.000,A,3748.7767,N,12217.8949,W,1.14,45.18,200911,,,A*4C
$GPRMC,191816.000,A,3748.7779,N,12217.8918,W,0.45,37.10,200911,,,A*4C
$GPRMC,191817.000,A,3748.7798,N,12217.8886,W,0.94,48.15,200911,,,A*45
$GPRMC,191818.000,A,3748.7831,N,12217.8840,W,1.09,44.93,200911,,,A*4B
$GPRMC,191819.000,A,3748.7842,N,12217.8825,W,0.50,52.99,200911,,,A*4D
$GPRMC,191820.000,A,3748.7842,N,12217.8821,W,0.39,67.57,200911,,,A*48
$GPRMC,191821.000,A,3748.7842,N,12217.8822,W,0.15,58.27,200911,,,A*4F
$GPRMC,191822.000,A,3748.7857,N,12217.8792,W,0.47,74.39,200911,,,A*4A
$GPRMC,191823.000,A,3748.7870,N,12217.8772,W,0.19,273.58,200911,,,A*79
$GPRMC,191824.000,A,3748.7887,N,12217.8749,W,0.38,240.45,200911,,,A*71
$GPRMC,191825.000,A,3748.7900,N,12217.8727,W,0.56,228.92,200911,,,A*7A
$GPRMC,191826.000,A,3748.7905,N,12217.8713,W,0.09,234.24,200911,,,A*71
$GPRMC,191827.000,A,3748.7920,N,12217.8691,W,0.58,45.19,200911,,,A*42
$GPRMC,191828.000,A,3748.7933,N,12217.8677,W,0.69,25.54,200911,,,A*4A
$GPRMC,191829.000,A,3748.7931,N,12217.8684,W,0.32,53.45,200911,,,A*4A
$GPRMC,191830.000,A,3748.7933,N,12217.8680,W,0.59,64.10,200911,,,A*4D
$GPRMC,191831.000,A,3748.7940,N,12217.8669,W,0.91,59.87,200911,,,A*4B
$GPRMC,191832.000,A,3748.7942,N,12217.8664,W,0.07,167.95,200911,,,A*77
$GPRMC,191833.000,A,3748.7944,N,12217.8661,W,0.10,18.42,200911,,,A*40
$GPRMC,191834.000,A,3748.7946,N,12217.8661,W,0.75,239.27,200911,,,A*74
$GPRMC,191835.000,A,3748.7946,N,12217.8663,W,1.38,234.64,200911,,,A*75
$GPRMC,191836.000,A,3748.7948,N,12217.8662,W,0.73,241.08,200911,,,A*7F
$GPRMC,191837.000,A,3748.7947,N,12217.8665,W,1.52,236.37,200911,,,A*78
$GPRMC,191838.000,A,3748.7942,N,12217.8674,W,0.87,231.63,200911,,,A*7D
$GPRMC,191839.000,A,3748.7941,N,12217.8679,W,0.54,234.53,200911,,,A*7A
$GPRMC,191840.000,A,3748.7951,N,12217.8672,W,0.96,334.53,200911,,,A*71
$GPRMC,191841.000,A,3748.7960,N,12217.8660,W,2.01,58.89,200911,,,A*43
$GPRMC,191842.000,A,3748.7969,N,12217.8653,W,2.50,47.90,200911,,,A*4B
$GPRMC,191843.000,A,3748.7974,N,12217.8652,W,1.65,38.84,200911,,,A*4F
$GPRMC,191844.000,A,3748.7976,N,12217.8652,W,1.37,27.16,200911,,,A*48
$GPRMC,191845.000,A,3748.7971,N,12217.8657,W,0.21,34.70,200911,,,A*4F
$GPRMC,191846.000,A,3748.7965,N,12217.8660,W,0.57,92.65,200911,,,A*44
$GPRMC,191847.000,A,3748.7964,N,12217.8661,W,0.53,43.31,200911,,,A*4C
$GPRMC,191848.000,A,3748.7964,N,12217.8657,W,1.33,46.62,200911,,,A*42
$GPRMC,191849.000,A,3748.7953,N,12217.8661,W,1.32,59.32,200911,,,A*48
$GPRMC,191850.000,A,3748.7944,N,12217.8670,W,0.63,121.62,200911,,,A*78
$GPRMC,191851.000,A,3748.7940,N,12217.8675,W,0.59,13.33,200911,,,A*45
$GPRMC,191852.000,A,3748.7934,N,12217.8684,W,0.78,300.96,200911,,,A*76
$GPRMC,191853.000,A,3748.7930,N,12217.8697,W,0.61,350.04,200911,,,A*77
$GPRMC,191854.000,A,3748.7929,N,12217.8704,W,0.84,349.02,200911,,,A*76
$GPRMC,191855.000,A,3748.7922,N,12217.8706,W,0.97,194.15,200911,,,A*78
$GPRMC,191856.000,A,3748.7917,N,12217.8705,W,1.26,163.21,200911,,,A*7A
$GPRMC,191857.000,A,3748.7904,N,12217.8704,W,1.92,140.69,200911,,,A*7A
$GPRMC,191858.000,A,3748.7898,N,12217.8704,W,2.14,112.90,200911,,,A*7D
$GPRMC,191859.000,A,3748.7891,N,12217.8704,W,2.02,111.32,200911,,,A*79
$GPRMC,191900.000,A,3748.7883,N,12217.8694,W,2.07,120.12,200911,,,A*7A
$GPRMC,191901.000,A,3748.7876,N,12217.8683,W,1.44,137.17,200911,,,A*70
$GPRMC,191902.000,A,3748.7870,N,12217.8673,W,1.38,117.12,200911,,,A*76
$GPRMC,191903.000,A,3748.7867,N,12217.8676,W,0.68,117.97,200911,,,A*7D
$GPRMC,191904.000,A,3748.7870,N,12217.8685,W,0.30,23.50,200911,,,A*40
$GPRMC,191905.000,A,3748.7868,N,12217.8688,W,0.40,183.44,200911,,,A*7C
$GPRMC,191906.000,A,3748.7873,N,12217.8686,W,0.64,221.01,200911,,,A*77
$GPRMC,191907.000,A,3748.7879,N,12217.8686,W,0.04,249.92,200911,,,A*7E
$GPRMC,191908.000,A,3748.7890,N,12217.8679,W,1.49,53.93,200911,,,A*46
$GPRMC,191909.000,A,3748.7891,N,12217.8680,W,1.31,3.89,200911,,,A*71
$GPRMC,191910.000,A,3748.7894,N,12217.8674,W,0.10,192.46,200911,,,A*7F
$GPRMC,191911.000,A,3748.7894,N,12217.8672,W,1.14,177.08,200911,,,A*7C
$GPRMC,191912.000,A,3748.7901,N,12217.8659,W,0.36,120.03,200911,,,A*73
$GPRMC,191913.000,A,3748.7904,N,12217.8654,W,0.59,132.17,200911,,,A*75
$GPRMC,191914.000,A,3748.7914,N,12217.8652,W,0.83,227.91,200911,,,A*7B
$GPRMC,191915.000,A,3748.7918,N,12217.8650,W,1.26,206.95,200911,,,A*7D
$GPRMC,191916.000,A,3748.7908,N,12217.8643,W,1.52,153.21,200911,,,A*72
$GPRMC,191917.000,A,3748.7897,N,12217.8636,W,1.51,147.38,200911,,,A*78
$GPRMC,191918.000,A,3748.7892,N,12217.8631,W,1.52,152.79,200911,,,A*77
$GPRMC,191919.000,A,3748.7896,N,12217.8629,W,0.45,72.39,200911,,,A*4B
$GPRMC,191920.000,A,3748.7901,N,12217.8632,W,0.66,63.75,200911,,,A*4D
$GPRMC,191921.000,A,3748.7906,N,12217.8633,W,0.80,65.11,200911,,,A*46
$GPRMC,191922.000,A,3748.7905,N,12217.8636,W,0.74,1.70,200911,,,A*7D
$GPRMC,191923.000,A,3748.7903,N,12217.8638,W,1.30,346.59,200911,,,A*7E
$GPRMC,191924.000,A,3748.7905,N,12217.8643,W,0.71,330.46,200911,,,A*78
$GPRMC,191925.000,A,3748.7910,N,12217.8648,W,0.70,291.51,200911,,,A*7B
$GPRMC,191926.000,A,3748.7913,N,12217.8656,W,1.80,264.25,200911,,,A*73
$GPRMC,191927.000,A,3748.7915,N,12217.8664,W,1.53,278.81,200911,,,A*78
$GPRMC,191928.000,A,3748.7920,N,12217.8672,W,1.69,311.78,200911,,,A*77
$GPRMC,191929.000,A,3748.7933,N,12217.8674,W,1.89,4.07,200911,,,A*73
$GPRMC,191930.000,A,3748.7934,N,12217.8685,W,0.61,323.90,200911,,,A*7D
$GPRMC,191931.000,A,3748.7932,N,12217.8693,W,0.87,189.84,200911,,,A*72
$GPRMC,191932.000,A,3748.7931,N,12217.8697,W,1.35,172.16,200911,,,A*71
$GPRMC,191933.000,A,3748.7929,N,12217.8700,W,1.64,199.82,200911,,,A*7A
$GPRMC,191934.000,A,3748.7928,N,12217.8703,W,0.80,190.38,200911,,,A*7C
$GPRMC,191935.000,A,3748.7924,N,12217.8702,W,1.25,152.88,200911,,,A*7B
$GPRMC,191936.000,A,3748.7919,N,12217.8705,W,1.37,225.75,200911,,,A*73
$GPRMC,191937.000,A,3748.7916,N,12217.8708,W,1.52,206.03,200911,,,A*73
$GPRMC,191938.000,A,3748.7912,N,12217.8708,W,1.41,208.18,200911,,,A*7E
$GPRMC,191939.000,A,3748.7909,N,12217.8711,W,1.52,177.40,200911,,,A*79
$GPRMC,191940.000,A,3748.7907,N,12217.8711,W,1.35,170.10,200911,,,A*7A
$GPRMC,191941.000,A,3748.7904,N,12217.8710,W,1.42,169.60,200911,,,A*76
$GPRMC,191942.000,A,3748.7901,N,12217.8710,W,1.54,171.08,200911,,,A*70
$GPRMC,191943.000,A,3748.7900,N,12217.8712,W,1.15,167.00,200911,,,A*78
$GPRMC,191944.000,A,3748.7898,N,12217.8721,W,1.61,214.11,200911,,,A*7B
$GPRMC,191945.000,A,3748.7895,N,12217.8727,W,1.61,230.82,200911,,,A*7D
$GPRMC,191946.000,A,3748.7893,N,12217.8728,W,1.17,208.53,200911,,,A*71
$GPRMC,191947.000,A,3748.7890,N,12217.8729,W,1.47,185.95,200911,,,A*7B
$GPRMC,191948.000,A,3748.7884,N,12217.8739,W,1.63,194.47,200911,,,A*79
$GPRMC,191949.000,A,3748.7878,N,12217.8747,W,2.02,214.21,200911,,,A*7D
$GPRMC,191950.000,A,3748.7873,N,12217.8760,W,1.79,216.28,200911,,,A*7F
$GPRMC,191951.000,A,3748.7868,N,12217.8769,W,1.54,211.15,200911,,,A*7B
$GPRMC,191952.000,A,3748.7863,N,12217.8780,W,1.61,226.12,200911,,,A*71
$GPRMC,191953.000,A,3748.7857,N,12217.8792,W,1.72,213.60,200911,,,A*75
$GPRMC,191954.000,A,3748.7850,N,12217.8801,W,1.76,197.72,200911,,,A*78
$GPRMC,191955.000,A,3748.7843,N,12217.8809,W,1.73,183.58,200911,,,A*7B
$GPRMC,191956.000,A,3748.7835,N,12217.8815,W,1.77,188.42,200911,,,A*70
$GPRMC,191957.000,A,3748.7828,N,12217.8821,W,1.82,189.42,200911,,,A*71
$GPRMC,191958.000,A,3748.7822,N,12217.8834,W,1.87,196.08,200911,,,A*75
$GPRMC,191959.000,A,3748.7815,N,12217.8856,W,2.48,222.61,200911,,,A*77
$GPRMC,192000.000,A,3748.7803,N,12217.8884,W,2.78,221.80,200911,,,A*76
$GPRMC,192001.000,A,3748.7794,N,12217.8901,W,2.01,213.63,200911,,,A*78
$GPRMC,192002.000,A,3748.7784,N,12217.8914,W,2.17,213.99,200911,,,A*7C
$GPRMC,192003.000,A,3748.7776,N,12217.8923,W,1.97,198.99,200911,,,A*7F
$GPRMC,192004.000,A,3748.7770,N,12217.8936,W,1.91,207.58,200911,,,A*74
$GPRMC,192005.000,A,3748.7761,N,12217.8946,W,2.12,202.61,200911,,,A*75
$GPRMC,192006.000,A,3748.7750,N,12217.8955,W,2.42,214.51,200911,,,A*77
$GPRMC,192007.000,A,3748.7743,N,12217.8964,W,2.12,185.89,200911,,,A*7D
$GPRMC,192008.000,A,3748.7736,N,12217.8969,W,2.12,187.27,200911,,,A*7B
$GPRMC,192009.000,A,3748.7727,N,12217.8980,W,2.22,198.54,200911,,,A*74
$GPRMC,192010.000,A,3748.7719,N,12217.8990,W,2.09,206.55,200911,,,A*7C
$GPRMC,192011.000,A,3748.7710,N,12217.8992,W,2.74,207.29,200911,,,A*76
$GPRMC,192012.000,A,3748.7702,N,12217.9001,W,2.40,215.91,200911,,,A*73
$GPRMC,192013.000,A,3748.7696,N,12217.9011,W,2.34,219.11,200911,,,A*78
$GPRMC,192014.000,A,3748.7687,N,12217.9021,W,2.08,207.53,200911,,,A*7A
$GPRMC,192015.000,A,3748.7681,N,12217.9025,W,2.53,212.01,200911,,,A*74
$GPRMC,192016.000,A,3748.7676,N,12217.9032,W,3.15,220.52,200911,,,A*7D
$GPRMC,192017.000,A,3748.7669,N,12217.9033,W,2.62,199.15,200911,,,A*70
$GPRMC,192018.000,A,3748.7662,N,12217.9040,W,2.45,191.08,200911,,,A*71
$GPRMC,192019.000,A,3748.7653,N,12217.9044,W,2.55,196.40,200911,,,A*7C
$GPRMC,192020.000,A,3748.7647,N,12217.9047,W,2.39,196.40,200911,,,A*7A
$GPRMC,192021.000,A,3748.7641,N,12217.9047,W,2.66,189.36,200911,,,A*78
$GPRMC,192022.000,A,3748.7636,N,12217.9057,W,2.57,202.80,200911,,,A*75
$GPRMC,192023.000,A,3748.7626,N,12217.9066,W,2.28,201.19,200911,,,A*7C
$GPRMC,192024.000,A,3748.7619,N,12217.9076,W,2.83,197.68,200911,,,A*7D
$GPRMC,192025.000,A,3748.7612,N,12217.9086,W,3.09,215.35,200911,,,A*7A
$GPRMC,192026.000,A,3748.7606,N,12217.9096,W,2.72,201.13,200911,,,A*71
$GPRMC,192027.000,A,3748.7596,N,12217.9107,W,2.82,198.56,200911,,,A*7E
$GPRMC,192028.000,A,3748.7592,N,12217.9111,W,2.83,198.77,200911,,,A*70
$GPRMC,192029.000,A,3748.7581,N,12217.9117,W,2.93,200.79,200911,,,A*78
$GPRMC,192030.000,A,3748.7582,N,12217.9120,W,2.63,193.01,200911,,,A*7E
$GPRMC,192031.000,A,3748.7572,N,12217.9125,W,2.82,205.94,200911,,,A*7A
$GPRMC,192032.000,A,3748.7571,N,12217.9122,W,2.47,206.40,200911,,,A*7E
$GPRMC,192033.000,A,3748.7567,N,12217.9119,W,2.58,213.55,200911,,,A*7E
$GPRMC,192034.000,A,3748.7567,N,12217.9115,W,2.01,201.85,200911,,,A*77
$GPRMC,192035.000,A,3748.7560,N,12217.9118,W,1.98,199.12,200911,,,A*73
$GPRMC,192036.000,A,3748.7549,N,12217.9127,W,2.71,214.59,200911,,,A*7A
$GPRMC,192037.000,A,3748.7538,N,12217.9138,W,2.41,210.80,200911,,,A*70
$GPRMC,192038.000,A,3748.7531,N,12217.9143,W,2.35,218.04,200911,,,A*7D
$GPRMC,192039.000,A,3748.7518,N,12217.9156,W,2.43,207.12,200911,,,A*7B
$GPRMC,192040.000,A,3748.7514,N,12217.9157,W,2.32,195.48,200911,,,A*79
$GPRMC,192041.000,A,3748.7502,N,12217.9162,W,2.20,188.70,200911,,,A*7D
$GPRMC,192042.000,A,3748.7497,N,12217.9159,W,1.52,185.51,200911,,,A*73
$GPRMC,192043.000,A,3748.7491,N,12217.9161,W,1.47,190.27,200911,,,A*7E
$GPRMC,192044.000,A,3748.7486,N,12217.9164,W,2.48,196.75,200911,,,A*77
$GPRMC,192045.000,A,3748.7480,N,12217.9171,W,2.81,217.58,200911,,,A*74
$GPRMC,192046.000,A,3748.7476,N,12217.9182,W,2.33,217.88,200911,,,A*76
$GPRMC,192047.000,A,3748.7473,N,12217.9194,W,2.31,208.56,200911,,,A*7A
$GPRMC,192048.000,A,3748.7471,N,12217.9200,W,2.03,212.16,200911,,,A*77
$GPRMC,192049.000,A,3748.7474,N,12217.9198,W,1.35,178.04,200911,,,A*7B
$GPRMC,192050.000,A,3748.7475,N,12217.9194,W,1.71,175.17,200911,,,A*71
$GPRMC,192051.000,A,3748.7466,N,12217.9193,W,1.84,185.43,200911,,,A*71
$GPRMC,192052.000,A,3748.7460,N,12217.9196,W,1.77,195.29,200911,,,A*70
$GPRMC,192053.000,A,3748.7448,N,12217.9202,W,2.46,211.33,200911,,,A*70
$GPRMC,192054.000,A,3748.7434,N,12217.9206,W,2.69,211.45,200911,,,A*74
$GPRMC,192055.000,A,3748.7424,N,12217.9209,W,2.34,198.77,200911,,,A*70
$GPRMC,192056.000,A,3748.7419,N,12217.9202,W,1.82,181.18,200911,,,A*79
$GPRMC,192057.000,A,3748.7412,N,12217.9202,W,2.42,202.03,200911,,,A*7E
$GPRMC,192058.000,A,3748.7408,N,12217.9197,W,2.12,198.31,200911,,,A*71
$GPRMC,192059.000,A,3748.7405,N,12217.9193,W,1.95,199.06,200911,,,A*70
$GPRMC,192100.000,A,3748.7406,N,12217.9187,W,1.76,188.42,200911,,,A*76
$GPRMC,192101.000,A,3748.7404,N,12217.9184,W,1.54,203.83,200911,,,A*7B
$GPRMC,192102.000,A,3748.7408,N,12217.9181,W,1.36,216.06,200911,,,A*7C
$GPRMC,192103.000,A,3748.7405,N,12217.9185,W,1.31,206.88,200911,,,A*74
$GPRMC,192104.000,A,3748.7406,N,12217.9185,W,0.71,188.35,200911,,,A*76
$GPRMC,192105.000,A,3748.7407,N,12217.9183,W,0.75,194.95,200911,,,A*73
$GPRMC,192106.000,A,3748.7405,N,12217.9182,W,0.90,183.84,200911,,,A*7E
$GPRMC,192107.000,A,3748.7402,N,12217.9180,W,1.46,190.22,200911,,,A*7E
$GPRMC,192108.000,A,3748.7399,N,12217.9177,W,1.13,176.12,200911,,,A*77
$GPRMC,192109.000,A,3748.7397,N,12217.9174,W,0.90,183.68,200911,,,A*76
$GPRMC,192110.000,A,3748.7395,N,12217.9172,W,0.78,179.43,200911,,,A*70
$GPRMC,192111.000,A,3748.7388,N,12217.9179,W,1.37,198.23,200911,,,A*75
$GPRMC,192112.000,A,3748.7386,N,12217.9179,W,1.06,164.87,200911,,,A*77
$GPRMC,192113.000,A,3748.7388,N,12217.9173,W,0.93,128.43,200911,,,A*7F
$GPRMC,192114.000,A,3748.7384,N,12217.9175,W,1.07,121.87,200911,,,A*7F
$GPRMC,192115.000,A,3748.7377,N,12217.9179,W,1.05,172.69,200911,,,A*7A
$GPRMC,192116.000,A,3748.7373,N,12217.9179,W,1.10,177.27,200911,,,A*76
$GPRMC,192117.000,A,3748.7366,N,12217.9183,W,1.28,177.81,200911,,,A*71
$GPRMC,192118.000,A,3748.7359,N,12217.9186,W,1.35,188.15,200911,,,A*76
$GPRMC,192119.000,A,3748.7356,N,12217.9191,W,1.46,188.25,200911,,,A*79
$GPRMC,192120.000,A,3748.7352,N,12217.9196,W,1.32,163.22,200911,,,A*71
$GPRMC,192121.000,A,3748.7351,N,12217.9196,W,1.34,160.52,200911,,,A*71
$GPRMC,192122.000,A,3748.7350,N,12217.9198,W,1.03,195.57,200911,,,A*76
$GPRMC,192123.000,A,3748.7348,N,12217.9203,W,0.75,210.80,200911,,,A*7B
$GPRMC,192124.000,A,3748.7345,N,12217.9209,W,0.83,189.32,200911,,,A*78
$GPRMC,192125.000,A,3748.7344,N,12217.9217,W,1.16,218.28,200911,,,A*7A
$GPRMC,192126.000,A,3748.7340,N,12217.9228,W,1.25,212.64,200911,,,A*73
$GPRMC,192127.000,A,3748.7335,N,12217.9234,W,1.55,198.30,200911,,,A*7A
$GPRMC,192128.000,A,3748.7326,N,12217.9243,W,1.81,188.07,200911,,,A*7B
$GPRMC,192129.000,A,3748.7317,N,12217.9249,W,1.86,185.23,200911,,,A*7E
$GPRMC,192130.000,A,3748.7313,N,12217.9258,W,1.85,186.07,200911,,,A*74
$GPRMC,192131.000,A,3748.7308,N,12217.9262,W,1.37,180.15,200911,,,A*7A
$GPRMC,192132.000,A,3748.7311,N,12217.9264,W,1.19,200.74,200911,,,A*77
$GPRMC,192133.000,A,3748.7314,N,12217.9263,W,1.03,199.67,200911,,,A*7E
$GPRMC,192134.000,A,3748.7306,N,12217.9271,W,1.82,201.91,200911,,,A*7B
$GPRMC,192135.000,A,3748.7298,N,12217.9277,W,1.71,201.65,200911,,,A*7D
$GPRMC,192136.000,A,3748.7290,N,12217.9281,W,1.95,203.33,200911,,,A*74
$GPRMC,192137.000,A,3748.7279,N,12217.9292,W,2.03,198.30,200911,,,D*7B
$GPRMC,192138.000,A,3748.7271,N,12217.9302,W,2.43,201.15,200911,,,D*74
$GPRMC,192139.000,A,3748.7264,N,12217.9311,W,2.69,206.64,200911,,,D*7A
$GPRMC,192140.000,A,3748.7257,N,12217.9316,W,2.22,198.67,200911,,,D*7B
$GPRMC,192141.000,A,3748.7251,N,12217.9317,W,2.27,198.44,200911,,,D*79
$GPRMC,192142.000,A,3748.7241,N,12217.9324,W,3.04,213.47,200911,,,D*78
$GPRMC,192143.000,A,3748.7232,N,12217.9329,W,2.27,212.60,200911,,,D*74
$GPRMC,192144.000,A,3748.7226,N,12217.9330,W,1.95,207.41,200911,,,D*73
$GPRMC,192145.000,A,3748.7223,N,12217.9333,W,1.60,202.68,200911,,,D*70
$GPRMC,192146.000,A,3748.7222,N,12217.9333,W,1.63,174.18,200911,,,D*74
$GPRMC,192147.000,A,3748.7217,N,12217.9330,W,1.39,185.59,200911,,,D*74
$GPRMC,192148.000,A,3748.7217,N,12217.9324,W,1.42,191.34,200911,,,D*7C
$GPRMC,192149.000,A,3748.7215,N,12217.9320,W,1.57,167.70,200911,,,D*76
$GPRMC,192150.000,A,3748.7208,N,12217.9318,W,1.62,182.76,200911,,,D*72
$GPRMC,192151.000,A,3748.7197,N,12217.9320,W,1.90,201.30,200911,,,D*7A
$GPRMC,192152.000,A,3748.7190,N,12217.9325,W,1.64,209.49,200911,,,D*76
$GPRMC,192153.000,A,3748.7185,N,12217.9333,W,1.70,210.91,200911,,,D*7C
$GPRMC,192154.000,A,3748.7182,N,12217.9336,W,1.65,190.61,200911,,,D*79
$GPRMC,192155.000,A,3748.7178,N,12217.9339,W,1.50,178.75,200911,,,D*77
$GPRMC,192156.000,A,3748.7174,N,12217.9340,W,1.32,167.01,200911,,,D*7F
$GPRMC,192157.000,A,3748.7170,N,12217.9342,W,1.42,193.14,200911,,,D*70
$GPRMC,192158.000,A,3748.7167,N,12217.9346,W,1.47,198.14,200911,,,D*73
$GPRMC,192159.000,A,3748.7162,N,12217.9349,W,1.39,169.35,200911,,,D*7C
$GPRMC,192200.000,A,3748.7156,N,12217.9354,W,1.45,180.50,200911,,,D*77
$GPRMC,192201.000,A,3748.7150,N,12217.9359,W,1.81,186.45,200911,,,D*77
$GPRMC,192202.000,A,3748.7141,N,12217.9367,W,2.08,197.73,200911,,,D*7E
$GPRMC,192203.000,A,3748.7135,N,12217.9373,W,1.61,193.42,200911,,,D*73
$GPRMC,192204.000,A,3748.7127,N,12217.9380,W,1.97,195.23,200911,,,D*73
$GPRMC,192205.000,A,3748.7119,N,12217.9386,W,1.96,192.50,200911,,,D*7B
$GPRMC,192206.000,A,3748.7109,N,12217.9396,W,2.35,206.82,200911,,,D*73
$GPRMC,192207.000,A,3748.7097,N,12217.9410,W,2.01,207.36,200911,,,D*74
$GPRMC,192208.000,A,3748.7092,N,12217.9414,W,1.83,212.39,200911,,,D*78
$GPRMC,192209.000,A,3748.7088,N,12217.9417,W,1.62,195.12,200911,,,D*7B
$GPRMC,192210.000,A,3748.7083,N,12217.9422,W,1.91,200.05,200911,,,D*7B
$GPRMC,192211.000,A,3748.7078,N,12217.9425,W,1.76,201.79,200911,,,D*7A
$GPRMC,192212.000,A,3748.7074,N,12217.9429,W,1.73,201.24,200911,,,D*74
$GPRMC,192213.000,A,3748.7070,N,12217.9433,W,1.89,197.63,200911,,,D*70
$GPRMC,192214.000,A,3748.7064,N,12217.9440,W,2.13,194.76,200911,,,D*71
$GPRMC,192215.000,A,3748.7062,N,12217.9442,W,2.20,184.00,200911,,,D*74
$GPRMC,192216.000,A,3748.7062,N,12217.9434,W,2.17,146.37,200911,,,D*78
$GPRMC,192217.000,A,3748.7059,N,12217.9424,W,2.00,152.53,200911,,,D*71
$GPRMC,192218.000,A,3748.7051,N,12217.9427,W,1.97,191.94,200911,,,D*7C
$GPRMC,192219.000,A,3748.7044,N,12217.9434,W,2.08,192.61,200911,,,D*77
$GPRMC,192220.000,A,3748.7034,N,12217.9441,W,2.06,210.15,200911,,,D*7C
$GPRMC,192221.000,A,3748.7027,N,12217.9451,W,2.33,208.24,200911,,,D*73
$GPRMC,192222.000,A,3748.7017,N,12217.9462,W,2.79,216.59,200911,,,D*78
$GPRMC,192223.000,A,3748.7007,N,12217.9474,W,2.69,219.03,200911,,,D*7E
$GPRMC,192224.000,A,3748.6998,N,12217.9485,W,2.96,217.35,200911,,,D*72
$GPRMC,192225.000,A,3748.6993,N,12217.9493,W,2.44,220.32,200911,,,D*73
$GPRMC,192226.000,A,3748.6991,N,12217.9497,W,2.29,211.57,200911,,,D*7C
$GPRMC,192227.000,A,3748.6988,N,12217.9497,W,2.02,203.46,200911,,,D*7F
$GPRMC,192228.000,A,3748.6985,N,12217.9499,W,2.21,205.78,200911,,,D*79
$GPRMC,192229.000,A,3748.6978,N,12217.9508,W,2.05,208.71,200911,,,D*71
$GPRMC,192230.000,A,3748.6969,N,12217.9512,W,2.22,196.11,200911,,,D*75
$GPRMC,192231.000,A,3748.6962,N,12217.9517,W,2.45,210.34,200911,,,D*71
$GPRMC,192232.000,A,3748.6953,N,12217.9522,W,2.64,204.04,200911,,,D*73
$GPRMC,192233.000,A,3748.6947,N,12217.9524,W,2.12,193.59,200911,,,D*75
$GPRMC,192234.000,A,3748.6944,N,12217.9522,W,1.47,209.65,200911,,,D*7B
$GPRMC,192235.000,A,3748.6940,N,12217.9520,W,1.38,232.46,200911,,,D*7D
$GPRMC,192236.000,A,3748.6938,N,12217.9520,W,1.72,209.43,200911,,,D*72
$GPRMC,192237.000,A,3748.6934,N,12217.9522,W,1.51,217.83,200911,,,D*7F
$GPRMC,192238.000,A,3748.6931,N,12217.9522,W,1.60,208.82,200911,,,D*78
$GPRMC,192239.000,A,3748.6924,N,12217.9525,W,1.78,192.59,200911,,,D*75
$GPRMC,192240.000,A,3748.6916,N,12217.9529,W,1.83,192.15,200911,,,D*7A
$GPRMC,192241.000,A,3748.6912,N,12217.9536,W,1.85,207.10,200911,,,D*7D
$GPRMC,192242.000,A,3748.6904,N,12217.9543,W,2.17,198.51,200911,,,D*73
$GPRMC,192243.000,A,3748.6898,N,12217.9548,W,1.99,195.03,200911,,,D*72
$GPRMC,192244.000,A,3748.6894,N,12217.9547,W,1.40,190.73,200911,,,D*70
$GPRMC,192245.000,A,3748.6890,N,12217.9546,W,1.49,188.65,200911,,,D*73
$GPRMC,192246.000,A,3748.6888,N,12217.9544,W,1.55,207.19,200911,,,D*79
$GPRMC,192247.000,A,3748.6883,N,12217.9550,W,1.84,211.60,200911,,,D*73
$GPRMC,192248.000,A,3748.6883,N,12217.9550,W,1.38,193.27,200911,,,D*71
$GPRMC,192249.000,A,3748.6875,N,12217.9558,W,1.75,192.04,200911,,,D*78
$GPRMC,192250.000,A,3748.6870,N,12217.9556,W,1.44,174.33,200911,,,D*75
$GPRMC,192251.000,A,3748.6869,N,12217.9553,W,1.30,182.49,200911,,,D*7E
$GPRMC,192252.000,A,3748.6864,N,12217.9553,W,1.57,197.96,200911,,,D*77
$GPRMC,192253.000,A,3748.6862,N,12217.9554,W,1.44,201.62,200911,,,D*72
$GPRMC,192254.000,A,3748.6863,N,12217.9557,W,1.53,195.88,200911,,,D*7B
$GPRMC,192255.000,A,3748.6861,N,12217.9558,W,1.50,182.64,200911,,,D*70
$GPRMC,192256.000,A,3748.6857,N,12217.9561,W,1.49,177.44,200911,,,D*7C
$GPRMC,192257.000,A,3748.6853,N,12217.9564,W,1.69,196.84,200911,,,D*7D
$GPRMC,192258.000,A,3748.6850,N,12217.9570,W,1.46,203.83,200911,,,D*71
$GPRMC,192259.000,A,3748.6846,N,12217.9575,W,1.57,194.46,200911,,,D*76
$GPRMC,192300.000,A,3748.6843,N,12217.9580,W,1.78,185.10,200911,,,D*7A
$GPRMC,192301.000,A,3748.6841,N,12217.9584,W,1.62,192.49,200911,,,D*7C
$GPRMC,192302.000,A,3748.6837,N,12217.9592,W,1.55,171.50,200911,,,D*78
$GPRMC,192303.000,A,3748.6833,N,12217.9599,W,1.64,194.84,200911,,,D*76
$GPRMC,192304.000,A,3748.6828,N,12217.9603,W,1.64,201.16,200911,,,D*7F
$GPRMC,192305.000,A,3748.6820,N,12217.9607,W,1.64,191.34,200911,,,D*78
$GPRMC,192306.000,A,3748.6809,N,12217.9614,W,1.72,185.69,200911,,,D*78
$GPRMC,192307.000,A,3748.6798,N,12217.9624,W,1.44,176.77,200911,,,D*7B
$GPRMC,192308.000,A,3748.6786,N,12217.9631,W,1.40,176.62,200911,,,D*7F
$GPRMC,192309.000,A,3748.6778,N,12217.9635,W,1.37,168.70,200911,,,D*77
$GPRMC,192310.000,A,3748.6772,N,12217.9636,W,1.35,176.35,200911,,,D*7A
$GPRMC,192311.000,A,3748.6760,N,12217.9644,W,1.79,191.41,200911,,,D*7F
$GPRMC,192312.000,A,3748.6758,N,12217.9645,W,1.70,194.49,200911,,,D*72
$GPRMC,192313.000,A,3748.6761,N,12217.9641,W,0.42,39.63,200911,,,D*43
$GPRMC,192314.000,A,3748.6761,N,12217.9641,W,0.90,41.15,200911,,,D*45
$GPRMC,192315.000,A,3748.6761,N,12217.9642,W,0.09,292.74,200911,,,D*7C
$GPRMC,192316.000,A,3748.6762,N,12217.9640,W,0.31,354.03,200911,,,D*7E
$GPRMC,192317.000,A,3748.6766,N,12217.9636,W,0.23,192.85,200911,,,D*7F
$GPRMC,192318.000,A,3748.6760,N,12217.9638,W,1.66,205.28,200911,,,D*72
$GPRMC,192319.000,A,3748.6750,N,12217.9642,W,2.08,201.13,200911,,,D*7A
$GPRMC,192320.000,A,3748.6744,N,12217.9649,W,1.56,227.62,200911,,,D*74
$GPRMC,192321.000,A,3748.6743,N,12217.9657,W,0.78,261.55,200911,,,D*76
$GPRMC,192322.000,A,3748.6737,N,12217.9663,W,1.59,198.13,200911,,,D*74
$GPRMC,192323.000,A,3748.6732,N,12217.9671,W,2.21,197.63,200911,,,D*77
$GPRMC,192324.000,A,3748.6728,N,12217.9678,W,2.07,199.47,200911,,,D*7E
$GPRMC,192325.000,A,3748.6725,N,12217.9680,W,1.94,195.29,200911,,,D*78
$GPRMC,192326.000,A,3748.6720,N,12217.9686,W,1.73,193.91,200911,,,A*71
$GPRMC,192327.000,A,3748.6717,N,12217.9691,W,1.23,217.69,200911,,,A*7F
$GPRMC,192328.000,A,3748.6705,N,12217.9701,W,1.73,216.94,200911,,,A*7D
$GPRMC,192329.000,A,3748.6694,N,12217.9713,W,1.77,222.62,200911,,,A*7C
$GPRMC,192330.000,A,3748.6687,N,12217.9720,W,1.05,234.23,200911,,,A*71
$GPRMC,192331.000,A,3748.6675,N,12217.9730,W,1.73,214.66,200911,,,A*7E
$GPRMC,192332.000,A,3748.6664,N,12217.9740,W,2.31,206.93,200911,,,A*76
$GPRMC,192333.000,A,3748.6653,N,12217.9748,W,2.37,205.22,200911,,,A*74
$GPRMC,192334.000,A,3748.6644,N,12217.9753,W,2.12,199.63,200911,,,A*7B
$GPRMC,192335.000,A,3748.6633,N,12217.9766,W,2.50,208.77,200911,,,A*74
$GPRMC,192336.000,A,3748.6635,N,12217.9762,W,2.31,194.96,200911,,,A*7B
$GPRMC,192337.000,A,3748.6629,N,12217.9765,W,2.31,197.52,200911,,,A*7B
$GPRMC,192338.000,A,3748.6623,N,12217.9770,W,1.85,198.02,200911,,,A*7C
$GPRMC,192339.000,A,3748.6622,N,12217.9775,W,1.92,205.66,200911,,,A*7A
$GPRMC,192340.000,A,3748.6617,N,12217.9781,W,2.19,203.54,200911,,,A*7E
$GPRMC,192341.000,A,3748.6608,N,12217.9792,W,2.63,209.88,200911,,,A*75
$GPRMC,192342.000,A,3748.6600,N,12217.9802,W,2.62,214.85,200911,,,A*78
$GPRMC,192343.000,A,3748.6595,N,12217.9808,W,2.38,213.48,200911,,,A*75
$GPRMC,192344.000,A,3748.6593,N,12217.9816,W,2.05,215.15,200911,,,A*7B
$GPRMC,192345.000,A,3748.6590,N,12217.9818,W,2.26,216.87,200911,,,A*7E
$GPRMC,192346.000,A,3748.6585,N,12217.9819,W,2.20,219.86,200911,,,A*70
$GPRMC,192347.000,A,3748.6575,N,12217.9822,W,2.05,204.52,200911,,,A*74
$GPRMC,192348.000,A,3748.6569,N,12217.9826,W,1.53,211.21,200911,,,A*72
$GPRMC,192349.000,A,3748.6570,N,12217.9826,W,1.13,199.71,200911,,,A*79
$GPRMC,192350.000,A,3748.6564,N,12217.9835,W,1.65,201.37,200911,,,A*77
$GPRMC,192351.000,A,3748.6558,N,12217.9844,W,2.44,213.71,200911,,,A*7E
$GPRMC,192352.000,A,3748.6551,N,12217.9855,W,2.25,211.77,200911,,,A*77
$GPRMC,192353.000,A,3748.6547,N,12217.9861,W,2.52,219.83,200911,,,A*75
$GPRMC,192354.000,A,3748.6545,N,12217.9863,W,2.62,223.85,200911,,,A*7E
$GPRMC,192355.000,A,3748.6543,N,12217.9871,W,2.37,234.85,200911,,,D*79
$GPRMC,192356.000,A,3748.6544,N,12217.9875,W,1.78,218.05,200911,,,D*77
$GPRMC,192357.000,A,3748.6542,N,12217.9872,W,1.68,201.14,200911,,,D*7E
$GPRMC,192358.000,A,3748.6540,N,12217.9876,W,1.49,198.72,200911,,,D*77
$GPRMC,192359.000,A,3748.6535,N,12217.9880,W,1.54,173.78,200911,,,D*7E
$GPRMC,192400.000,A,3748.6530,N,12217.9889,W,1.37,181.78,200911,,,D*71
$GPRMC,192401.000,A,3748.6530,N,12217.9894,W,1.31,200.11,200911,,,D*7F
$GPRMC,192402.000,A,3748.6525,N,12217.9903,W,1.18,192.33,200911,,,D*74
$GPRMC,192403.000,A,3748.6522,N,12217.9906,W,1.39,199.46,200911,,,D*7D
$GPRMC,192404.000,A,3748.6515,N,12217.9911,W,1.50,197.50,200911,,,D*7E
$GPRMC,192405.000,A,3748.6512,N,12217.9914,W,1.67,200.48,200911,,,D*7D
$GPRMC,192406.000,A,3748.6508,N,12217.9915,W,1.55,177.30,200911,,,D*79
$GPRMC,192407.000,A,3748.6505,N,12217.9917,W,1.80,189.43,200911,,,D*7A
$GPRMC,192408.000,A,3748.6502,N,12217.9918,W,1.52,188.51,200911,,,D*70
$GPRMC,192409.000,A,3748.6498,N,12217.9919,W,1.47,187.00,200911,,,D*7D
$GPRMC,192410.000,A,3748.6496,N,12217.9919,W,1.20,166.63,200911,,,D*70
$GPRMC,192411.000,A,3748.6494,N,12217.9918,W,1.12,191.11,200911,,,D*7E
$GPRMC,192412.000,A,3748.6490,N,12217.9920,W,1.21,195.65,200911,,,D*75
$GPRMC,192413.000,A,3748.6482,N,12217.9921,W,1.54,181.55,200911,,,D*72
$GPRMC,192414.000,A,3748.6474,N,12217.9921,W,1.31,175.58,200911,,,D*79
$GPRMC,192415.000,A,3748.6467,N,12217.9922,W,1.53,192.00,200911,,,D*79
$GPRMC,192416.000,A,3748.6464,N,12217.9920,W,1.29,198.26,200911,,,D*78
$GPRMC,192417.000,A,3748.6460,N,12217.9918,W,1.32,180.05,200911,,,D*74
$GPRMC,192418.000,A,3748.6459,N,12217.9918,W,1.26,193.03,200911,,,D*70
$GPRMC,192419.000,A,3748.6453,N,12217.9929,W,1.10,196.57,200911,,,D*78
$GPRMC,192420.000,A,3748.6452,N,12217.9923,W,1.36,145.61,200911,,,D*76
$GPRMC,192421.000,A,3748.6448,N,12217.9927,W,1.12,174.70,200911,,,D*7C
$GPRMC,192422.000,A,3748.6442,N,12217.9932,W,1.32,189.12,200911,,,D*75
$GPRMC,192423.000,A,3748.6440,N,12217.9933,W,1.34,177.17,200911,,,D*75
$GPRMC,192424.000,A,3748.6440,N,12217.9936,W,0.90,172.71,200911,,,D*7D
$GPRMC,192425.000,A,3748.6439,N,12217.9935,W,1.17,141.83,200911,,,D*72
$GPRMC,192426.000,A,3748.6432,N,12217.9930,W,1.29,175.03,200911,,,D*7D
$GPRMC,192427.000,A,3748.6427,N,12217.9926,W,1.45,163.92,200911,,,D*7A
$GPRMC,192428.000,A,3748.6424,N,12217.9931,W,1.56,200.03,200911,,,D*7C
$GPRMC,192429.000,A,3748.6420,N,12217.9936,W,1.73,213.52,200911,,,D*7F
$GPRMC,192430.000,A,3748.6414,N,12217.9942,W,2.14,207.70,200911,,,D*74
$GPRMC,192431.000,A,3748.6409,N,12217.9947,W,1.99,215.80,200911,,,D*76
$GPRMC,192432.000,A,3748.6407,N,12217.9952,W,1.29,205.80,200911,,,D*75
$GPRMC,192433.000,A,3748.6402,N,12217.9954,W,1.38,175.86,200911,,,D*75
$GPRMC,192434.000,A,3748.6398,N,12217.9951,W,1.37,163.59,200911,,,D*79
$GPRMC,192435.000,A,3748.6394,N,12217.9947,W,1.52,176.73,200911,,,D*7C
$GPRMC,192436.000,A,3748.6389,N,12217.9943,W,1.21,162.46,200911,,,D*70
$GPRMC,192437.000,A,3748.6384,N,12217.9942,W,1.42,167.67,200911,,,D*7E
$GPRMC,192438.000,A,3748.6374,N,12217.9948,W,1.44,168.92,200911,,,D*77
$GPRMC,192439.000,A,3748.6362,N,12217.9967,W,1.23,177.19,200911,,,D*70
$GPRMC,192440.000,A,3748.6355,N,12217.9972,W,1.74,194.14,200911,,,D*7C
$GPRMC,192441.000,A,3748.6345,N,12217.9981,W,1.65,185.07,200911,,,D*72
$GPRMC,192442.000,A,3748.6332,N,12217.9991,W,2.07,196.49,200911,,,D*7F
$GPRMC,192443.000,A,3748.6322,N,12217.9996,W,1.63,190.55,200911,,,D*72
$GPRMC,192444.000,A,3748.6314,N,12218.0005,W,1.53,179.42,200911,,,D*77
$GPRMC,192445.000,A,3748.6313,N,12218.0003,W,1.81,206.26,200911,,,D*71
$GPRMC,192446.000,A,3748.6313,N,12218.0001,W,1.35,203.91,200911,,,D*76
$GPRMC,192447.000,A,3748.6315,N,12218.0000,W,1.47,220.48,200911,,,D*70
$GPRMC,192448.000,A,3748.6309,N,12218.0009,W,1.36,207.00,200911,,,D*74
$GPRMC,192449.000,A,3748.6304,N,12218.0019,W,1.53,205.12,200911,,,D*7B
$GPRMC,192450.000,A,3748.6299,N,12218.0028,W,1.65,193.19,200911,,,D*76
$GPRMC,192451.000,A,3748.6292,N,12218.0037,W,1.62,174.08,200911,,,D*7C
$GPRMC,192452.000,A,3748.6290,N,12218.0039,W,1.42,161.22,200911,,,D*7D
$GPRMC,192453.000,A,3748.6287,N,12218.0040,W,1.24,184.43,200911,,,D*78
$GPRMC,192454.000,A,3748.6284,N,12218.0043,W,1.27,187.59,200911,,,D*74
$GPRMC,192455.000,A,3748.6280,N,12218.0049,W,1.81,188.66,200911,,,D*74
$GPRMC,192456.000,A,3748.6276,N,12218.0051,W,1.62,174.73,200911,,,D*7D
$GPRMC,192457.000,A,3748.6267,N,12218.0061,W,2.09,182.91,200911,,,D*74
$GPRMC,192458.000,A,3748.6258,N,12218.0061,W,2.37,169.28,200911,,,D*7D
$GPRMC,192459.000,A,3748.6250,N,12218.0060,W,2.18,157.63,200911,,,D*7A
$GPRMC,192500.000,A,3748.6241,N,12218.0059,W,2.07,153.04,200911,,,D*76
$GPRMC,192501.000,A,3748.6233,N,12218.0054,W,1.40,164.70,200911,,,D*78
$GPRMC,192502.000,A,3748.6228,N,12218.0049,W,1.89,143.61,200911,,,D*7D
$GPRMC,192503.000,A,3748.6218,N,12218.0053,W,1.62,151.86,200911,,,D*7B
$GPRMC,192504.000,A,3748.6210,N,12218.0051,W,1.65,142.06,200911,,,D*7B
$GPRMC,192505.000,A,3748.6210,N,12218.0031,W,2.10,100.41,200911,,,D*78
$GPRMC,192506.000,A,3748.6208,N,12218.0020,W,2.06,100.19,200911,,,D*78
$GPRMC,192507.000,A,3748.6204,N,12218.0015,W,2.23,97.75,200911,,,D*41
$GPRMC,192508.000,A,3748.6204,N,12218.0003,W,2.01,102.47,200911,,,D*75
$GPRMC,192509.000,A,3748.6205,N,12217.9992,W,1.25,127.21,200911,,,D*70
$GPRMC,192510.000,A,3748.6207,N,12217.9977,W,1.75,100.15,200911,,,D*76
$GPRMC,192511.000,A,3748.6203,N,12217.9975,W,1.62,105.72,200911,,,D*73
$GPRMC,192512.000,A,3748.6197,N,12217.9974,W,1.26,98.80,200911,,,D*47
$GPRMC,192513.000,A,3748.6192,N,12217.9973,W,1.14,104.31,200911,,,D*7B
$GPRMC,192514.000,A,3748.6190,N,12217.9969,W,1.63,115.72,200911,,,D*72
$GPRMC,192515.000,A,3748.6185,N,12217.9966,W,1.42,110.80,200911,,,D*73
$GPRMC,192516.000,A,3748.6178,N,12217.9963,W,1.41,119.76,200911,,,D*74
$GPRMC,192517.000,A,3748.6173,N,12217.9958,W,1.51,122.63,200911,,,D*7B
$GPRMC,192518.000,A,3748.6170,N,12217.9947,W,1.62,104.77,200911,,,D*78
$GPRMC,192519.000,A,3748.6170,N,12217.9927,W,2.97,83.52,200911,,,D*4F
$GPRMC,192520.000,A,3748.6168,N,12217.9915,W,2.22,100.07,200911,,,D*79
$GPRMC,192521.000,A,3748.6165,N,12217.9904,W,2.26,114.24,200911,,,D*75
$GPRMC,192522.000,A,3748.6161,N,12217.9895,W,2.33,126.28,200911,,,D*72
$GPRMC,192523.000,A,3748.6155,N,12217.9885,W,2.29,133.70,200911,,,D*77
$GPRMC,192524.000,A,3748.6150,N,12217.9876,W,1.64,115.29,200911,,,D*7B
$GPRMC,192525.000,A,3748.6145,N,12217.9867,W,1.89,112.09,200911,,,D*78
$GPRMC,192526.000,A,3748.6143,N,12217.9861,W,1.48,97.73,200911,,,D*47
$GPRMC,192527.000,A,3748.6141,N,12217.9854,W,1.24,92.16,200911,,,D*4E
$GPRMC,192528.000,A,3748.6138,N,12217.9846,W,1.63,94.92,200911,,,D*45
$GPRMC,192529.000,A,3748.6134,N,12217.9838,W,2.15,122.81,200911,,,D*7D
$GPRMC,192530.000,A,3748.6130,N,12217.9830,W,2.04,120.02,200911,,,D*70
$GPRMC,192531.000,A,3748.6127,N,12217.9824,W,1.57,115.36,200911,,,D*76
$GPRMC,192532.000,A,3748.6124,N,12217.9816,W,2.17,118.09,200911,,,D*71
$GPRMC,192533.000,A,3748.6121,N,12217.9809,W,1.53,107.94,200911,,,D*72
$GPRMC,192534.000,A,3748.6115,N,12217.9799,W,2.23,117.27,200911,,,D*79
$GPRMC,192535.000,A,3748.6109,N,12217.9787,W,2.43,116.42,200911,,,D*7E
$GPRMC,192536.000,A,3748.6105,N,12217.9778,W,1.41,110.50,200911,,,D*75
$GPRMC,192537.000,A,3748.6101,N,12217.9770,W,2.32,111.76,200911,,,D*7A
$GPRMC,192538.000,A,3748.6096,N,12217.9760,W,2.49,114.03,200911,,,D*70
$GPRMC,192539.000,A,3748.6092,N,12217.9750,W,2.30,117.13,200911,,,D*7A
$GPRMC,192540.000,A,3748.6089,N,12217.9743,W,2.34,117.18,200911,,,D*73
$GPRMC,192541.000,A,3748.6085,N,12217.9735,W,2.06,117.72,200911,,,D*72
$GPRMC,192542.000,A,3748.6082,N,12217.9729,W,1.75,119.11,200911,,,D*77
$GPRMC,192543.000,A,3748.6079,N,12217.9721,W,2.22,122.98,200911,,,D*72
$GPRMC,192544.000,A,3748.6075,N,12217.9713,W,1.64,116.32,200911,,,D*7E
$GPRMC,192545.000,A,3748.6072,N,12217.9707,W,1.24,101.05,200911,,,D*7B
$GPRMC,192546.000,A,3748.6070,N,12217.9705,W,0.92,87.06,200911,,,D*48
$GPRMC,192547.000,A,3748.6067,N,12217.9704,W,1.33,112.62,200911,,,D*7B
$GPRMC,192548.000,A,3748.6062,N,12217.9704,W,1.40,118.84,200911,,,D*77
$GPRMC,192549.000,A,3748.6059,N,12217.9700,W,1.14,106.83,200911,,,D*73
$GPRMC,192550.000,A,3748.6057,N,12217.9694,W,0.91,103.90,200911,,,D*72
$GPRMC,192551.000,A,3748.6056,N,12217.9688,W,1.14,111.51,200911,,,D*7D
$GPRMC,192552.000,A,3748.6053,N,12217.9681,W,1.92,121.88,200911,,,D*7B
$GPRMC,192553.000,A,3748.6050,N,12217.9673,W,2.15,127.54,200911,,,D*7F
$GPRMC,192554.000,A,3748.6047,N,12217.9665,W,2.09,122.23,200911,,,D*71
$GPRMC,192555.000,A,3748.6045,N,12217.9657,W,1.88,118.16,200911,,,D*76
$GPRMC,192556.000,A,3748.6043,N,12217.9649,W,2.04,113.93,200911,,,D*7D
$GPRMC,192557.000,A,3748.6040,N,12217.9641,W,1.88,115.20,200911,,,D*7E
$GPRMC,192558.000,A,3748.6039,N,12217.9635,W,1.46,103.90,200911,,,D*72
$GPRMC,192559.000,A,3748.6036,N,12217.9628,W,2.02,117.62,200911,,,D*7B
$GPRMC,192600.000,A,3748.6033,N,12217.9622,W,2.00,119.68,200911,,,D*7D
$GPRMC,192601.000,A,3748.6029,N,12217.9616,W,1.93,123.67,200911,,,D*7F
$GPRMC,192602.000,A,3748.6024,N,12217.9609,W,1.76,121.72,200911,,,D*72
$GPRMC,192603.000,A,3748.6018,N,12217.9600,W,2.08,129.46,200911,,,D*70
$GPRMC,192604.000,A,3748.6012,N,12217.9591,W,2.30,133.50,200911,,,D*71
$GPRMC,192605.000,A,3748.6005,N,12217.9584,W,1.83,123.89,200911,,,D*7C
$GPRMC,192606.000,A,3748.5999,N,12217.9577,W,2.29,124.94,200911,,,D*74
$GPRMC,192607.000,A,3748.5993,N,12217.9570,W,2.23,125.17,200911,,,D*78
$GPRMC,192608.000,A,3748.5987,N,12217.9561,W,2.29,114.51,200911,,,D*78
$GPRMC,192609.000,A,3748.5983,N,12217.9553,W,1.75,116.61,200911,,,D*77
$GPRMC,192609.000,A,3748.5978,N,12217.9547,W,1.87,131.88,200911,,,D*79
$GPRMC,192610.000,A,3748.5974,N,12217.9540,W,2.44,118.84,200911,,,D*71
$GPRMC,192611.000,A,3748.5972,N,12217.9535,W,1.82,119.52,200911,,,D*77
$GPRMC,192612.000,A,3748.5966,N,12217.9529,W,1.99,127.11,200911,,,D*7C
$GPRMC,192613.000,A,3748.5961,N,12217.9524,W,2.05,138.27,200911,,,D*7A
$GPRMC,192614.000,A,3748.5955,N,12217.9518,W,1.86,133.73,200911,,,D*77
$GPRMC,192615.000,A,3748.5955,N,12217.9504,W,2.08,121.32,200911,,,D*78
$GPRMC,192616.000,A,3748.5955,N,12217.9493,W,2.19,119.26,200911,,,D*7A
$GPRMC,192617.000,A,3748.5953,N,12217.9485,W,2.16,115.43,200911,,,D*7A
$GPRMC,192618.000,A,3748.5951,N,12217.9478,W,1.86,120.88,200911,,,D*7E
$GPRMC,192619.000,A,3748.5949,N,12217.9470,W,2.26,123.19,200911,,,D*7C
$GPRMC,192620.000,A,3748.5946,N,12217.9463,W,2.41,120.29,200911,,,D*7A
$GPRMC,192621.000,A,3748.5943,N,12217.9455,W,2.13,113.98,200911,,,D*76
$GPRMC,192622.000,A,3748.5941,N,12217.9445,W,1.88,111.58,200911,,,D*79
$GPRMC,192623.000,A,3748.5934,N,12217.9436,W,1.77,125.31,200911,,,D*76
$GPRMC,192624.000,A,3748.5928,N,12217.9429,W,2.04,119.61,200911,,,D*7F
$GPRMC,192625.000,A,3748.5921,N,12217.9421,W,1.86,129.54,200911,,,D*73
$GPRMC,192626.000,A,3748.5916,N,12217.9413,W,1.33,118.29,200911,,,D*73
$GPRMC,192627.000,A,3748.5908,N,12217.9402,W,1.57,100.72,200911,,,D*78
$GPRMC,192628.000,A,3748.5904,N,12217.9399,W,2.01,116.32,200911,,,D*7D
$GPRMC,192629.000,A,3748.5899,N,12217.9391,W,1.94,124.30,200911,,,D*7D
$GPRMC,192630.000,A,3748.5894,N,12217.9389,W,1.75,115.64,200911,,,D*7D
$GPRMC,192631.000,A,3748.5890,N,12217.9383,W,1.70,109.00,200911,,,D*78
$GPRMC,192632.000,A,3748.5886,N,12217.9377,W,1.58,108.50,200911,,,D*79
$GPRMC,192633.000,A,3748.5881,N,12217.9371,W,1.60,125.77,200911,,,D*78
$GPRMC,192634.000,A,3748.5878,N,12217.9365,W,1.21,136.28,200911,,,D*71
$GPRMC,192635.000,A,3748.5873,N,12217.9368,W,0.51,121.08,200911,,,D*74
$GPRMC,192636.000,A,3748.5872,N,12217.9371,W,0.29,185.98,200911,,,D*76
$GPRMC,192637.000,A,3748.5872,N,12217.9373,W,1.08,189.19,200911,,,D*72
$GPRMC,192638.000,A,3748.5869,N,12217.9375,W,1.37,195.59,200911,,,D*74
$GPRMC,192639.000,A,3748.5865,N,12217.9378,W,2.14,199.76,200911,,,D*77
$GPRMC,192640.000,A,3748.5860,N,12217.9380,W,1.82,205.03,200911,,,D*73
$GPRMC,192641.000,A,3748.5855,N,12217.9382,W,1.81,204.93,200911,,,D*7D
$GPRMC,192642.000,A,3748.5850,N,12217.9384,W,1.74,199.42,200911,,,D*7C
$GPRMC,192643.000,A,3748.5846,N,12217.9389,W,2.21,214.56,200911,,,D*77
$GPRMC,192644.000,A,3748.5840,N,12217.9392,W,1.90,197.42,200911,,,D*78
$GPRMC,192645.000,A,3748.5835,N,12217.9393,W,1.83,189.21,200911,,,D*72
$GPRMC,192646.000,A,3748.5830,N,12217.9399,W,1.87,204.71,200911,,,D*79
$GPRMC,192647.000,A,3748.5823,N,12217.9405,W,1.82,204.98,200911,,,D*7A
$GPRMC,192648.000,A,3748.5820,N,12217.9408,W,2.00,201.84,200911,,,D*7A
$GPRMC,192649.000,A,3748.5807,N,12217.9427,W,2.26,215.55,200911,,,D*7E
$GPRMC,192650.000,A,3748.5807,N,12217.9426,W,1.84,204.50,200911,,,D*79
$GPRMC,192651.000,A,3748.5803,N,12217.9429,W,1.70,205.31,200911,,,D*7E
$GPRMC,192652.000,A,3748.5798,N,12217.9434,W,2.24,212.99,200911,,,D*7A
$GPRMC,192653.000,A,3748.5792,N,12217.9440,W,2.10,207.56,200911,,,D*72
$GPRMC,192654.000,A,3748.5787,N,12217.9442,W,1.85,197.01,200911,,,D*74
$GPRMC,192655.000,A,3748.5784,N,12217.9445,W,1.76,194.50,200911,,,D*7A
$GPRMC,192656.000,A,3748.5777,N,12217.9449,W,1.79,202.98,200911,,,D*7E
$GPRMC,192657.000,A,3748.5772,N,12217.9452,W,1.67,211.01,200911,,,D*7D
$GPRMC,192658.000,A,3748.5770,N,12217.9456,W,1.40,203.67,200911,,,D*72
$GPRMC,192659.000,A,3748.5767,N,12217.9458,W,1.58,206.40,200911,,,D*72
$GPRMC,192700.000,A,3748.5760,N,12217.9459,W,1.24,208.53,200911,,,D*7E
$GPRMC,192701.000,A,3748.5753,N,12217.9460,W,1.50,218.23,200911,,,D*70
$GPRMC,192702.000,A,3748.5750,N,12217.9462,W,1.32,221.20,200911,,,D*7F
$GPRMC,192703.000,A,3748.5748,N,12217.9469,W,1.29,221.94,200911,,,D*79
$GPRMC,192704.000,A,3748.5745,N,12217.9473,W,1.33,209.32,200911,,,D*75
$GPRMC,192705.000,A,3748.5741,N,12217.9477,W,1.52,199.40,200911,,,D*7C
$GPRMC,192706.000,A,3748.5733,N,12217.9480,W,1.36,193.63,200911,,,D*7B
$GPRMC,192707.000,A,3748.5728,N,12217.9483,W,1.38,199.22,200911,,,D*72
$GPRMC,192708.000,A,3748.5724,N,12217.9484,W,1.29,184.87,200911,,,D*75
$GPRMC,192709.000,A,3748.5717,N,12217.9490,W,1.41,184.61,200911,,,D*77
$GPRMC,192710.000,A,3748.5711,N,12217.9497,W,1.48,204.41,200911,,,D*7E
$GPRMC,192711.000,A,3748.5702,N,12217.9508,W,1.64,207.33,200911,,,D*72
$GPRMC,192712.000,A,3748.5698,N,12217.9512,W,1.67,202.52,200911,,,D*79
$GPRMC,192713.000,A,3748.5693,N,12217.9516,W,1.64,197.82,200911,,,D*76
$GPRMC,192714.000,A,3748.5689,N,12217.9518,W,1.55,204.02,200911,,,D*77
$GPRMC,192715.000,A,3748.5685,N,12217.9519,W,1.43,205.09,200911,,,D*76
$GPRMC,192716.000,A,3748.5680,N,12217.9523,W,1.53,209.79,200911,,,D*73
$GPRMC,192717.000,A,3748.5676,N,12217.9526,W,1.71,210.03,200911,,,D*7B
$GPRMC,192718.000,A,3748.5672,N,12217.9529,W,1.46,202.96,200911,,,D*74
$GPRMC,192719.000,A,3748.5670,N,12217.9530,W,1.44,197.48,200911,,,D*71
$GPRMC,192720.000,A,3748.5664,N,12217.9534,W,1.42,199.79,200911,,,D*70
$GPRMC,192721.000,A,3748.5658,N,12217.9539,W,1.63,198.73,200911,,,D*7B
$GPRMC,192722.000,A,3748.5652,N,12217.9544,W,1.69,194.42,200911,,,D*7C
$GPRMC,192723.000,A,3748.5646,N,12217.9547,W,1.71,187.82,200911,,,D*7C
$GPRMC,192724.000,A,3748.5636,N,12217.9555,W,1.54,195.48,200911,,,D*7D
$GPRMC,192725.000,A,3748.5630,N,12217.9565,W,1.52,210.04,200911,,,D*79
$GPRMC,192726.000,A,3748.5626,N,12217.9570,W,1.58,215.23,200911,,,D*73
$GPRMC,192727.000,A,3748.5623,N,12217.9573,W,1.62,204.51,200911,,,D*78
$GPRMC,192728.000,A,3748.5625,N,12217.9574,W,1.34,199.95,200911,,,D*7A
$GPRMC,192729.000,A,3748.5622,N,12217.9576,W,1.49,192.85,200911,,,D*7E
$GPRMC,192730.000,A,3748.5619,N,12217.9576,W,1.64,192.01,200911,,,D*7D
$GPRMC,192731.000,A,3748.5612,N,12217.9578,W,1.43,200.07,200911,,,D*72
$GPRMC,192732.000,A,3748.5607,N,12217.9580,W,1.35,195.54,200911,,,D*7A
$GPRMC,192733.000,A,3748.5604,N,12217.9586,W,1.97,218.52,200911,,,D*76
$GPRMC,192734.000,A,3748.5601,N,12217.9591,W,1.53,220.34,200911,,,D*71
$GPRMC,192735.000,A,3748.5597,N,12217.9599,W,1.93,209.41,200911,,,D*71
$GPRMC,192736.000,A,3748.5591,N,12217.9606,W,1.66,198.08,200911,,,D*7D
$GPRMC,192737.000,A,3748.5578,N,12217.9618,W,1.84,203.86,200911,,,D*7F
$GPRMC,192738.000,A,3748.5573,N,12217.9625,W,1.93,210.72,200911,,,D*7A
$GPRMC,192739.000,A,3748.5569,N,12217.9631,W,1.91,215.71,200911,,,D*71
$GPRMC,192740.000,A,3748.5561,N,12217.9639,W,2.01,209.46,200911,,,D*7C
$GPRMC,192741.000,A,3748.5556,N,12217.9642,W,1.77,205.95,200911,,,D*75
$GPRMC,192742.000,A,3748.5547,N,12217.9650,W,1.91,208.90,200911,,,D*75
$GPRMC,192743.000,A,3748.5538,N,12217.9653,W,1.96,211.32,200911,,,D*78
$GPRMC,192744.000,A,3748.5535,N,12217.9658,W,1.75,211.94,200911,,,D*78
$GPRMC,192745.000,A,3748.5530,N,12217.9663,W,2.05,206.62,200911,,,D*7F
$GPRMC,192746.000,A,3748.5524,N,12217.9666,W,2.02,203.75,200911,,,D*78
$GPRMC,192747.000,A,3748.5518,N,12217.9669,W,2.11,207.77,200911,,,D*7D
$GPRMC,192748.000,A,3748.5512,N,12217.9673,W,2.06,209.97,200911,,,D*75
$GPRMC,192749.000,A,3748.5503,N,12217.9680,W,2.22,209.91,200911,,,D*78
$GPRMC,192750.000,A,3748.5498,N,12217.9685,W,2.04,209.12,200911,,,D*79
$GPRMC,192751.000,A,3748.5489,N,12217.9691,W,2.24,208.02,200911,,,D*7F
$GPRMC,192752.000,A,3748.5482,N,12217.9701,W,2.23,209.13,200911,,,D*79
$GPRMC,192753.000,A,3748.5478,N,12217.9705,W,2.22,209.35,200911,,,D*7C
$GPRMC,192754.000,A,3748.5475,N,12217.9709,W,2.19,214.87,200911,,,D*77
$GPRMC,192755.000,A,3748.5473,N,12217.9714,W,1.88,205.81,200911,,,D*71
$GPRMC,192756.000,A,3748.5470,N,12217.9718,W,1.86,202.62,200911,,,D*79
$GPRMC,192757.000,A,3748.5464,N,12217.9722,W,2.12,206.40,200911,,,D*7E
$GPRMC,192758.000,A,3748.5456,N,12217.9725,W,2.34,211.45,200911,,,D*70
$GPRMC,192759.000,A,3748.5449,N,12217.9729,W,2.09,217.04,200911,,,D*7E
$GPRMC,192800.000,A,3748.5443,N,12217.9732,W,2.15,206.21,200911,,,D*77
$GPRMC,192801.000,A,3748.5438,N,12217.9736,W,2.08,201.33,200911,,,D*76
$GPRMC,192802.000,A,3748.5435,N,12217.9740,W,1.91,208.37,200911,,,D*77
$GPRMC,192803.000,A,3748.5429,N,12217.9745,W,2.47,217.64,200911,,,D*7E
$GPRMC,192804.000,A,3748.5423,N,12217.9750,W,1.89,214.62,200911,,,D*73
$GPRMC,192805.000,A,3748.5419,N,12217.9753,W,1.64,204.07,200911,,,D*79
$GPRMC,192806.000,A,3748.5414,N,12217.9756,W,2.01,214.20,200911,,,D*76
$GPRMC,192807.000,A,3748.5409,N,12217.9759,W,1.82,204.83,200911,,,D*74
$GPRMC,192808.000,A,3748.5405,N,12217.9761,W,1.74,202.89,200911,,,D*79
$GPRMC,192809.000,A,3748.5401,N,12217.9764,W,1.79,199.34,200911,,,D*73
$GPRMC,192810.000,A,3748.5396,N,12217.9766,W,1.97,199.09,200911,,,D*7E
$GPRMC,192811.000,A,3748.5390,N,12217.9771,W,2.09,196.03,200911,,,D*7E
$GPRMC,192812.000,A,3748.5386,N,12217.9775,W,1.75,187.32,200911,,,D*74
$GPRMC,192813.000,A,3748.5383,N,12217.9774,W,1.50,181.14,200911,,,D*74
$GPRMC,192814.000,A,3748.5377,N,12217.9776,W,1.58,171.60,200911,,,D*7E
$GPRMC,192815.000,A,3748.5374,N,12217.9774,W,1.56,156.80,200911,,,D*7B
$GPRMC,192816.000,A,3748.5369,N,12217.9774,W,1.56,171.63,200911,,,D*7C
$GPRMC,192817.000,A,3748.5368,N,12217.9765,W,0.66,176.26,200911,,,D*78
$GPRMC,192818.000,A,3748.5362,N,12217.9766,W,0.15,50.49,200911,,,D*46
$GPRMC,192819.000,A,3748.5356,N,12217.9772,W,0.19,86.00,200911,,,D*4F
$GPRMC,192820.000,A,3748.5352,N,12217.9773,W,0.23,107.00,200911,,,D*71
$GPRMC,192821.000,A,3748.5345,N,12217.9783,W,0.80,210.18,200911,,,D*7C
$GPRMC,192822.000,A,3748.5345,N,12217.9781,W,1.25,199.78,200911,,,D*77
$GPRMC,192823.000,A,3748.5344,N,12217.9782,W,1.63,237.77,200911,,,D*7E
$GPRMC,192824.000,A,3748.5338,N,12217.9786,W,1.73,209.80,200911,,,D*72
$GPRMC,192825.000,A,3748.5333,N,12217.9790,W,1.64,208.81,200911,,,D*79
$GPRMC,192826.000,A,3748.5329,N,12217.9797,W,1.58,199.29,200911,,,D*70
