$ADVER,3080,2.3
$GPRMC,233107.132,A,3748.7895,N,12217.8662,W,2.19,312.20,151012,,,A*70
$GPGGA,233108.132,3748.7951,N,12217.8747,W,1,03,1.6,25.1,M,-25.1,M,,0000*55
$GPGSA,A,2,18,05,16,,,,,,,,,,1.9,1.6,1.0*36
$GPRMC,233108.132,A,3748.7951,N,12217.8747,W,0.90,313.73,151012,,,A*74
$GPVTG,313.73,T,,M,0.90,N,1.7,K,N*08
$GPGGA,233109.132,3748.7968,N,12217.8778,W,1,03,1.6,25.1,M,-25.1,M,,0000*52
$GPGSA,A,2,18,05,16,,,,,,,,,,1.9,1.6,1.0*36
$GPRMC,233109.132,A,3748.7968,N,12217.8778,W,1.10,128.55,151012,,,A*74
$GPVTG,128.55,T,,M,1.10,N,2.0,K,N*0B
$GPGGA,233110.132,3748.7986,N,12217.8802,W,1,03,1.6,25.1,M,-25.1,M,,0000*58
$GPGSA,A,2,18,05,16,,,,,,,,,,1.9,1.6,1.0*36
$GPRMC,233110.132,A,3748.7986,N,12217.8802,W,0.91,128.92,151012,,,A*7D
$GPVTG,128.92,T,,M,0.91,N,1.7,K,N*0C
$GPGGA,233111.132,3748.7967,N,12217.8776,W,1,03,1.6,25.1,M,-25.1,M,,0000*5A
$GPGSA,A,2,18,05,16,,,,,,,,,,1.9,1.6,1.0*36
$GPGSV,3,1,11,18,53,215,37,16,20,312,22,05,12,045,28,21,64,319,20*76
$GPGSV,3,2,11,29,58,127,34,30,30,280,34,26,23,067,24,22,13,221,35*77
$GPGSV,3,3,11,25,11,187,35,06,09,313,30,48,44,197,38*43
$GPRMC,233111.132,A,3748.7967,N,12217.8776,W,0.27,316.71,151012,,,A*70
$GPVTG,316.71,T,,M,0.27,N,0.5,K,N*00
$GPGGA,233112.132,3748.7937,N,12217.8735,W,1,03,1.6,25.1,M,-25.1,M,,0000*5B
$GPGSA,A,2,18,05,16,,,,,,,,,,1.9,1.6,1.0*36
$GPRMC,233112.132,A,3748.7937,N,12217.8735,W,1.26,129.31,151012,,,A*7B
$GPVTG,129.31,T,,M,1.26,N,2.3,K,N*0E
$GPGGA,233113.132,3748.7967,N,12217.8780,W,1,03,1.6,25.1,M,-25.1,M,,0000*51
$GPGSA,A,2,18,05,16,,,,,,,,,,1.9,1.6,1.0*36
$GPRMC,233113.132,A,3748.7967,N,12217.8780,W,0.80,128.10,151012,,,A*7E
$GPVTG,128.10,T,,M,0.80,N,1.5,K,N*04
$GPGGA,233114.132,3748.8029,N,12217.8867,W,1,03,1.6,25.1,M,-25.1,M,,0000*5C
$GPGSA,A,2,18,05,16,,,,,,,,,,1.9,1.6,1.0*36
$GPRMC,233114.132,A,3748.8029,N,12217.8867,W,0.49,312.96,151012,,,A*73
$GPVTG,312.96,T,,M,0.49,N,0.9,K,N*09
$GPGGA,233115.132,3748.8012,N,12217.8845,W,1,03,1.6,25.1,M,-25.1,M,,0000*55
$GPGSA,A,2,18,05,16,,,,,,,,,,1.9,1.6,1.0*36
$GPRMC,233115.132,A,3748.8012,N,12217.8845,W,0.50,314.11,151012,,,A*7B
$GPVTG,314.11,T,,M,0.50,N,0.9,K,N*08
$GPGGA,233116.132,3748.8008,N,12217.8842,W,1,03,1.6,25.1,M,-25.1,M,,0000*5A
$GPGSA,A,2,18,05,16,,,,,,,,,,1.9,1.6,1.0*36
$GPGSV,3,1,11,18,53,215,38,16,20,312,22,05,12,045,32,21,64,319,20*72
$GPGSV,3,2,11,29,58,127,35,30,30,280,34,26,23,067,24,22,13,221,36*75
$GPGSV,3,3,11,25,11,187,36,06,09,313,31,48,44,197,37*4E
$GPRMC,233116.132,A,3748.8008,N,12217.8842,W,1.06,129.18,151012,,,A*73
$GPVTG,129.18,T,,M,1.06,N,2.0,K,N*04
$GPGGA,233117.132,3748.7952,N,12217.8764,W,1,03,1.6,25.1,M,-25.1,M,,0000*59
$GPGSA,A,2,18,05,16,,,,,,,,,,1.9,1.6,1.0*36
$GPRMC,233117.132,A,3748.7952,N,12217.8764,W,0.69,312.69,151012,,,A*74
$GPVTG,312.69,T,,M,0.69,N,1.3,K,N*00
$GPGGA,233118.132,3748.7946,N,12217.8753,W,1,03,1.6,25.1,M,-25.1,M,,0000*57
$GPGSA,A,2,18,05,16,,,,,,,,,,1.9,1.6,1.0*36
$GPRMC,233118.132,A,3748.7946,N,12217.8753,W,0.35,317.50,151012,,,A*7C
$GPVTG,317.50,T,,M,0.35,N,0.7,K,N*03
$GPGGA,233119.132,3748.7959,N,12217.8770,W,1,03,1.6,25.1,M,-25.1,M,,0000*59
$GPGSA,A,2,18,05,16,,,,,,,,,,1.9,1.6,1.0*36
$GPRMC,233119.132,A,3748.7959,N,12217.8770,W,0.06,357.81,151012,,,A*7A
$GPVTG,357.81,T,,M,0.06,N,0.1,K,N*0D
$GPGGA,233120.132,3748.7956,N,12217.8766,W,1,03,1.6,25.1,M,-25.1,M,,0000*5B
$GPGSA,A,2,18,05,16,,,,,,,,,,1.9,1.6,1.0*36
$GPRMC,233120.132,A,3748.7956,N,12217.8766,W,0.13,119.14,151012,,,A*78
$GPVTG,119.14,T,,M,0.13,N,0.2,K,N*0E
$GPGGA,233121.132,3748.7948,N,12217.8754,W,1,03,1.6,25.1,M,-25.1,M,,0000*54
$GPGSA,A,2,18,05,16,,,,,,,,,,1.9,1.6,1.0*36
$GPGSV,3,1,11,18,53,215,38,16,20,312,29,05,12,045,30,21,64,319,19*71
$GPGSV,3,2,11,29,58,127,35,30,30,280,34,26,23,067,25,22,13,221,36*74
$GPGSV,3,3,11,25,11,187,36,06,09,313,25,48,44,197,38*44
$GPRMC,233121.132,A,3748.7948,N,12217.8754,W,0.05,344.72,151012,,,A*7A
$GPGGA,233122.132,3748.7947,N,12217.8754,W,1,04,1.4,24.4,M,-25.1,M,,0000*59
$GPGSA,A,3,18,05,16,22,,,,,,,,,2.7,1.4,2.3*38
$GPRMC,233122.132,A,3748.7947,N,12217.8754,W,0.09,57.86,151012,,,A*40
$GPVTG,57.86,T,,M,0.09,N,0.2,K,A*3A
$GPGGA,233123.132,3748.7947,N,12217.8754,W,1,04,1.4,24.4,M,-25.1,M,,0000*58
$GPGSA,A,3,18,05,16,22,,,,,,,,,2.7,1.4,2.3*38
$GPRMC,233123.132,A,3748.7947,N,12217.8754,W,0.15,358.09,151012,,,A*77
$GPVTG,358.09,T,,M,0.15,N,0.3,K,A*0D
$GPGGA,233124.132,3748.7948,N,12217.8756,W,1,04,1.4,24.3,M,-25.1,M,,0000*55
$GPGSA,A,3,18,05,16,22,,,,,,,,,2.7,1.4,2.3*38
$GPRMC,233124.132,A,3748.7948,N,12217.8756,W,0.06,345.17,151012,,,A*7C
$GPVTG,345.17,T,,M,0.06,N,0.1,K,A*0E
$GPGGA,233125.000,3748.7950,N,12217.8757,W,1,04,1.4,24.2,M,-25.1,M,,0000*5D
$GPGSA,A,3,18,05,16,22,,,,,,,,,2.7,1.4,2.3*38
$GPRMC,233125.000,A,3748.7950,N,12217.8757,W,0.14,90.34,151012,,,A*4C
$GPVTG,90.34,T,,M,0.14,N,0.3,K,A*35
$GPGGA,233126.000,3748.7951,N,12217.8757,W,1,04,1.4,24.1,M,-25.1,M,,0000*5C
$GPGSA,A,3,18,05,16,22,,,,,,,,,2.7,1.4,2.3*38
$GPGSV,3,1,11,18,53,215,41,16,20,312,37,22,13,221,36,05,12,045,30*74
$GPGSV,3,2,11,21,64,319,34,29,58,128,36,30,30,280,42,26,23,067,25*72
$GPGSV,3,3,11,25,11,187,36,06,09,313,35,48,44,197,40*4A
$GPRMC,233126.000,A,3748.7951,N,12217.8757,W,0.07,12.64,151012,,,A*43
$GPVTG,12.64,T,,M,0.07,N,0.1,K,A*3A
$GPGGA,233127.000,3748.7953,N,12217.8757,W,1,04,1.4,23.9,M,-25.1,M,,0000*50
$GPGSA,A,3,18,05,16,22,,,,,,,,,2.7,1.4,2.3*38
$GPRMC,233127.000,A,3748.7953,N,12217.8757,W,0.07,38.89,151012,,,A*4B
$GPVTG,38.89,T,,M,0.07,N,0.1,K,A*31
$GPGGA,233128.000,3748.7954,N,12217.8757,W,1,04,1.4,23.8,M,-25.1,M,,0000*59
$GPGSA,A,3,18,05,16,22,,,,,,,,,2.7,1.4,2.3*38
$GPRMC,233128.000,A,3748.7954,N,12217.8757,W,0.07,358.49,151012,,,A*7A
$GPVTG,358.49,T,,M,0.07,N,0.1,K,A*08
$GPGGA,233129.000,3748.7956,N,12217.8756,W,1,04,1.4,23.6,M,-25.1,M,,0000*55
$GPGSA,A,3,18,05,16,22,,,,,,,,,2.7,1.4,2.3*38
$GPRMC,233129.000,A,3748.7956,N,12217.8756,W,0.10,21.11,151012,,,A*4E
$GPVTG,21.11,T,,M,0.10,N,0.2,K,A*3D
$GPGGA,233130.000,3748.7957,N,12217.8755,W,1,04,1.4,23.5,M,-25.1,M,,0000*5C
$GPGSA,A,3,18,05,16,22,,,,,,,,,2.7,1.4,2.3*38
$GPRMC,233130.000,A,3748.7957,N,12217.8755,W,0.08,11.03,151012,,,A*4D
$GPVTG,11.03,T,,M,0.08,N,0.1,K,A*37
$GPGGA,233131.000,3748.7958,N,12217.8754,W,1,04,1.4,23.3,M,-25.1,M,,0000*55
$GPGSA,A,3,18,05,16,22,,,,,,,,,2.7,1.4,2.3*38
$GPGSV,3,1,11,18,53,215,39,16,20,312,35,22,13,221,35,05,12,045,30*7A
$GPGSV,3,2,11,21,64,319,28,29,58,128,35,30,30,280,41,26,23,067,20*7A
$GPGSV,3,3,11,25,11,187,35,06,09,313,34,48,44,197,39*46
$GPRMC,233131.000,A,3748.7958,N,12217.8754,W,0.08,30.18,151012,,,A*4B
$GPVTG,30.18,T,,M,0.08,N,0.1,K,A*3E
$GPGGA,233132.000,3748.7958,N,12217.8752,W,1,04,1.4,23.2,M,-25.1,M,,0000*51
$GPGSA,A,3,18,05,16,22,,,,,,,,,2.7,1.4,2.3*38
$GPRMC,233132.000,A,3748.7958,N,12217.8752,W,0.23,105.45,151012,,,A*78
$GPVTG,105.45,T,,M,0.23,N,0.4,K,A*0D
$GPGGA,233133.000,3748.7958,N,12217.8751,W,1,04,1.4,23.2,M,-25.1,M,,0000*53
$GPGSA,A,3,18,05,16,22,,,,,,,,,2.7,1.4,2.3*38
$GPRMC,233133.000,A,3748.7958,N,12217.8751,W,0.04,31.27,151012,,,A*4D
$GPVTG,31.27,T,,M,0.04,N,0.1,K,A*3F
$GPGGA,233134.000,3748.7951,N,12217.8737,W,1,06,1.1,20.8,M,-25.1,M,,0000*53
$GPGSA,A,3,18,05,30,16,22,25,,,,,,,2.3,1.1,2.0*3E
$GPRMC,233134.000,A,3748.7951,N,12217.8737,W,0.46,110.10,151012,,,A*73
$GPVTG,110.10,T,,M,0.46,N,0.8,K,A*06
$GPGGA,233135.000,3748.7946,N,12217.8725,W,1,06,1.1,18.7,M,-25.1,M,,0000*53
$GPGSA,A,3,18,05,30,16,22,25,,,,,,,2.3,1.1,2.0*3E
$GPRMC,233135.000,A,3748.7946,N,12217.8725,W,0.37,108.15,151012,,,A*7D
$GPVTG,108.15,T,,M,0.37,N,0.7,K,A*03
$GPGGA,233136.000,3748.7944,N,12217.8719,W,1,06,1.1,17.5,M,-25.1,M,,0000*50
$GPGSA,A,3,18,05,30,16,22,25,,,,,,,2.3,1.1,2.0*3E
$GPGSV,3,1,11,21,64,319,17,29,58,128,34,18,53,215,29,30,30,280,29*7E
$GPGSV,3,2,11,26,23,067,27,16,20,312,18,22,13,221,26,05,11,045,25*71
$GPGSV,3,3,11,25,11,187,34,06,09,313,22,48,44,197,36*4F
$GPRMC,233136.000,A,3748.7944,N,12217.8719,W,0.49,145.13,151012,,,A*75
$GPGGA,233137.000,3748.7946,N,12217.8718,W,1,06,1.1,16.4,M,-25.1,M,,0000*52
$GPGSA,A,3,18,05,30,16,22,25,,,,,,,2.3,1.1,2.0*3E
$GPRMC,233137.000,A,3748.7946,N,12217.8718,W,1.03,312.72,151012,,,A*7F
$GPVTG,312.72,T,,M,1.03,N,1.9,K,A*02
$GPGGA,233138.000,3748.7948,N,12217.8710,W,1,06,1.1,14.6,M,-25.1,M,,0000*5B
$GPGSA,A,3,18,05,30,16,22,25,,,,,,,2.3,1.1,2.0*3E
$GPRMC,233138.000,A,3748.7948,N,12217.8710,W,0.56,336.48,151012,,,A*78
$GPVTG,336.48,T,,M,0.56,N,1.0,K,A*05
$GPGGA,233139.000,3748.7954,N,12217.8702,W,1,06,1.1,13.9,M,-25.1,M,,0000*5C
$GPGSA,A,3,18,05,30,16,22,25,,,,,,,2.3,1.1,2.0*3E
$GPRMC,233139.000,A,3748.7954,N,12217.8702,W,0.23,351.46,151012,,,A*7A
$GPVTG,351.46,T,,M,0.23,N,0.4,K,A*0D
$GPGGA,233140.000,3748.7957,N,12217.8697,W,1,06,1.1,13.3,M,-25.1,M,,0000*56
$GPGSA,A,3,18,05,30,16,22,25,,,,,,,2.3,1.1,2.0*3E
$GPRMC,233140.000,A,3748.7957,N,12217.8697,W,0.46,167.92,151012,,,A*77
$GPVTG,167.92,T,,M,0.46,N,0.9,K,A*0D
$GPGGA,233141.000,3748.7958,N,12217.8693,W,1,06,1.1,12.3,M,-25.1,M,,0000*5D
$GPGSA,A,3,18,05,30,16,22,25,,,,,,,2.3,1.1,2.0*3E
$GPGSV,3,1,11,21,64,319,25,29,58,128,,18,53,215,26,30,30,280,21*7F
$GPGSV,3,2,11,26,23,067,21,16,20,312,25,22,13,221,19,05,11,045,25*75
$GPGSV,3,3,11,25,11,187,19,06,09,313,21,48,44,197,25*41
$GPRMC,233141.000,A,3748.7958,N,12217.8693,W,0.79,156.77,151012,,,A*78
$GPVTG,156.77,T,,M,0.79,N,1.5,K,A*05
$GPGGA,233142.000,3748.7964,N,12217.8696,W,1,06,1.1,12.3,M,-25.1,M,,0000*54
$GPGSA,A,3,18,05,30,16,22,25,,,,,,,2.3,1.1,2.0*3E
$GPRMC,233142.000,A,3748.7964,N,12217.8696,W,0.89,190.75,151012,,,A*76
$GPVTG,190.75,T,,M,0.89,N,1.6,K,A*01
$GPGGA,233143.000,3748.7965,N,12217.8692,W,1,06,1.1,13.8,M,-25.1,M,,0000*5A
$GPGSA,A,3,18,05,30,16,22,25,,,,,,,2.3,1.1,2.0*3E
$GPRMC,233143.000,A,3748.7965,N,12217.8692,W,0.65,195.55,151012,,,A*77
$GPVTG,195.55,T,,M,0.65,N,1.2,K,A*00
$GPGGA,233144.000,3748.7968,N,12217.8690,W,1,06,1.1,14.4,M,-25.1,M,,0000*59
$GPGSA,A,3,18,05,30,16,22,25,,,,,,,2.3,1.1,2.0*3E
$GPRMC,233144.000,A,3748.7968,N,12217.8690,W,0.73,289.11,151012,,,A*76
$GPVTG,289.11,T,,M,0.73,N,1.3,K,A*08
$GPGGA,233145.000,3748.7968,N,12217.8694,W,1,06,1.1,14.9,M,-25.1,M,,0000*51
$GPGSA,A,3,18,05,30,16,22,25,,,,,,,2.3,1.1,2.0*3E
$GPRMC,233145.000,A,3748.7968,N,12217.8694,W,1.08,280.67,151012,,,A*76
$GPVTG,280.67,T,,M,1.08,N,2.0,K,A*0D
$GPGGA,233146.000,3748.7968,N,12217.8700,W,1,06,1.1,14.9,M,-25.1,M,,0000*5E
$GPGSA,A,3,18,05,30,16,22,25,,,,,,,2.3,1.1,2.0*3E
$GPGSV,3,1,11,21,64,319,26,29,58,128,32,18,53,215,37,30,30,280,26*7A
$GPGSV,3,2,11,26,23,067,22,16,20,312,26,22,13,221,26,05,11,045,25*79
$GPGSV,3,3,11,25,11,187,13,06,09,313,24,48,44,197,35*4F
$GPRMC,233146.000,A,3748.7968,N,12217.8700,W,0.42,240.38,151012,,,A*70
$GPVTG,240.38,T,,M,0.42,N,0.8,K,A*0E
$GPGGA,233147.000,3748.7968,N,12217.8704,W,1,06,1.1,15.2,M,-25.1,M,,0000*51
$GPGSA,A,3,18,05,30,16,22,25,,,,,,,2.3,1.1,2.0*3E
$GPRMC,233147.000,A,3748.7968,N,12217.8704,W,0.64,266.65,151012,,,A*7D
$GPVTG,266.65,T,,M,0.64,N,1.2,K,A*0D
$GPGGA,233148.000,3748.7969,N,12217.8707,W,1,06,1.1,15.2,M,-25.1,M,,0000*5C
$GPGSA,A,3,18,05,30,16,22,25,,,,,,,2.3,1.1,2.0*3E
$GPRMC,233148.000,A,3748.7969,N,12217.8707,W,1.05,321.92,151012,,,A*7C
$GPVTG,321.92,T,,M,1.05,N,1.9,K,A*0A
$GPGGA,233149.000,3748.7973,N,12217.8708,W,1,06,1.1,15.6,M,-25.1,M,,0000*5D
$GPGSA,A,3,18,05,30,16,22,25,,,,,,,2.3,1.1,2.0*3E
$GPRMC,233149.000,A,3748.7973,N,12217.8708,W,1.43,312.66,151012,,,A*70
$GPVTG,312.66,T,,M,1.43,N,2.7,K,A*0E
$GPGGA,233150.000,3748.7977,N,12217.8711,W,1,06,1.1,16.2,M,-25.1,M,,0000*5E
$GPGSA,A,3,18,05,30,16,22,25,,,,,,,2.3,1.1,2.0*3E
$GPRMC,233150.000,A,3748.7977,N,12217.8711,W,1.17,316.70,151012,,,A*76
$GPVTG,316.70,T,,M,1.17,N,2.2,K,A*09
$GPGGA,233151.000,3748.7979,N,12217.8717,W,1,06,1.1,16.8,M,-25.1,M,,0000*5D
$GPGSA,A,3,18,05,30,16,22,25,,,,,,,2.3,1.1,2.0*3E
$GPGSV,3,1,10,21,64,319,32,29,58,128,27,18,53,215,35,30,30,280,36*79
$GPGSV,3,2,10,26,23,067,22,16,20,312,36,22,13,221,40,05,11,045,25*79
$GPGSV,3,3,10,25,11,187,24,06,09,313,36*7C
$GPRMC,233151.000,A,3748.7979,N,12217.8717,W,1.13,275.90,151012,,,A*71
$GPGGA,233152.000,3748.7979,N,12217.8719,W,1,06,1.1,17.1,M,-25.1,M,,0000*58
$GPGSA,A,3,18,05,30,16,22,25,,,,,,,2.3,1.1,2.0*3E
$GPRMC,233152.000,A,3748.7979,N,12217.8719,W,0.91,225.74,151012,,,A*78
$GPVTG,225.74,T,,M,0.91,N,1.7,K,A*05
$GPGGA,233153.000,3748.7975,N,12217.8724,W,1,06,1.1,17.5,M,-25.1,M,,0000*5F
$GPGSA,A,3,18,05,30,16,22,25,,,,,,,2.3,1.1,2.0*3E
$GPRMC,233153.000,A,3748.7975,N,12217.8724,W,2.11,208.26,151012,,,A*79
$GPVTG,208.26,T,,M,2.11,N,3.9,K,A*0B
$GPGGA,233154.000,3748.7969,N,12217.8730,W,1,06,1.1,18.3,M,-25.1,M,,0000*59
$GPGSA,A,3,18,05,30,16,22,25,,,,,,,2.3,1.1,2.0*3E
$GPRMC,233154.000,A,3748.7969,N,12217.8730,W,2.36,197.06,151012,,,A*74
$GPVTG,197.06,T,,M,2.36,N,4.4,K,A*03
$GPGGA,233155.000,3748.7963,N,12217.8736,W,1,06,1.1,18.9,M,-25.1,M,,0000*5E
$GPGSA,A,3,18,05,30,16,22,25,,,,,,,2.3,1.1,2.0*3E
$GPRMC,233155.000,A,3748.7963,N,12217.8736,W,2.28,194.34,151012,,,A*74
$GPVTG,194.34,T,,M,2.28,N,4.2,K,A*08
$GPGGA,233156.000,3748.7957,N,12217.8741,W,1,06,1.1,19.7,M,-25.1,M,,0000*55
$GPGSA,A,3,18,05,30,16,22,25,,,,,,,2.3,1.1,2.0*3E
$GPGSV,3,1,11,21,64,319,28,29,58,128,30,18,53,215,35,30,30,280,38*7B
$GPGSV,3,2,11,26,23,067,21,16,20,312,36,22,13,221,40,05,11,045,25*7B
$GPGSV,3,3,11,25,11,187,29,06,09,313,31,51,43,156,30*45
$GPRMC,233156.000,A,3748.7957,N,12217.8741,W,2.34,205.47,151012,,,A*72
$GPVTG,205.47,T,,M,2.34,N,4.3,K,A*0B
$GPGGA,233157.000,3748.7951,N,12217.8752,W,1,06,1.1,20.8,M,-25.1,M,,0000*55
$GPGSA,A,3,18,05,30,16,22,25,,,,,,,2.3,1.1,2.0*3E
$GPRMC,233157.000,A,3748.7951,N,12217.8752,W,2.15,213.78,151012,,,A*7F
$GPVTG,213.78,T,,M,2.15,N,4.0,K,A*00
$GPGGA,233158.000,3748.7948,N,12217.8745,W,1,07,1.0,21.9,M,-25.1,M,,0000*54
$GPGSA,A,3,18,05,30,16,29,22,25,,,,,,1.8,1.0,1.5*3A
$GPRMC,233158.000,A,3748.7948,N,12217.8745,W,2.12,220.94,151012,,,A*7B
$GPVTG,220.94,T,,M,2.12,N,3.9,K,A*0B
$GPGGA,233159.000,3748.7944,N,12217.8747,W,1,07,1.0,22.2,M,-25.1,M,,0000*53
$GPGSA,A,3,18,05,30,16,29,22,25,,,,,,1.8,1.0,1.5*3A
$GPRMC,233159.000,A,3748.7944,N,12217.8747,W,2.32,221.91,151012,,,A*72
$GPVTG,221.91,T,,M,2.32,N,4.3,K,A*00
$GPGGA,233200.000,3748.7940,N,12217.8745,W,1,07,1.0,22.5,M,-25.1,M,,0000*5D
$GPGSA,A,3,18,05,30,16,29,22,25,,,,,,1.8,1.0,1.5*3A
$GPRMC,233200.000,A,3748.7940,N,12217.8745,W,2.15,212.05,151012,,,A*73
$GPVTG,212.05,T,,M,2.15,N,4.0,K,A*0B
$GPGGA,233201.000,3748.7936,N,12217.8747,W,1,07,1.0,22.5,M,-25.1,M,,0000*5F
$GPGSA,A,3,18,05,30,16,29,22,25,,,,,,1.8,1.0,1.5*3A
$GPGSV,3,1,11,21,65,320,31,29,58,128,29,18,54,215,36,30,30,279,40*7D
$GPGSV,3,2,11,26,23,067,25,16,20,312,37,22,13,221,30,05,11,045,30*7D
$GPGSV,3,3,11,25,11,187,25,06,10,313,32,51,43,156,31*43
$GPRMC,233201.000,A,3748.7936,N,12217.8747,W,2.09,211.63,151012,,,A*7F
$GPVTG,211.63,T,,M,2.09,N,3.9,K,A*0B
$GPGGA,233202.000,3748.7932,N,12217.8748,W,1,07,1.0,22.3,M,-25.1,M,,0000*51
$GPGSA,A,3,18,05,30,16,29,22,25,,,,,,1.8,1.0,1.5*3A
$GPRMC,233202.000,A,3748.7932,N,12217.8748,W,1.95,214.18,151012,,,A*78
$GPVTG,214.18,T,,M,1.95,N,3.6,K,A*0B
$GPGGA,233203.000,3748.7929,N,12217.8748,W,1,07,1.0,21.6,M,-25.1,M,,0000*5C
$GPGSA,A,3,18,05,30,16,29,22,25,,,,,,1.8,1.0,1.5*3A
$GPRMC,233203.000,A,3748.7929,N,12217.8748,W,1.68,208.48,151012,,,A*79
$GPVTG,208.48,T,,M,1.68,N,3.1,K,A*06
$GPGGA,233204.000,3748.7926,N,12217.8747,W,1,07,1.0,20.7,M,-25.1,M,,0000*5B
$GPGSA,A,3,18,05,30,16,29,22,25,,,,,,1.8,1.0,1.5*3A
$GPRMC,233204.000,A,3748.7926,N,12217.8747,W,1.59,211.65,151012,,,A*7B
$GPVTG,211.65,T,,M,1.59,N,2.9,K,A*0A
$GPGGA,233205.000,3748.7922,N,12217.8746,W,1,07,1.0,20.6,M,-25.1,M,,0000*5E
$GPGSA,A,3,18,05,30,16,29,22,25,,,,,,1.8,1.0,1.5*3A
$GPRMC,233205.000,A,3748.7922,N,12217.8746,W,1.94,199.01,151012,,,A*7F
$GPVTG,199.01,T,,M,1.94,N,3.6,K,A*04
$GPGGA,233206.000,3748.7919,N,12217.8743,W,1,06,1.1,20.5,M,-25.1,M,,0000*53
$GPGSA,A,3,18,05,30,16,29,22,,,,,,,2.1,1.1,1.8*3B
$GPGSV,3,1,11,21,65,320,26,29,58,128,26,18,54,215,37,30,30,279,38*7A
$GPGSV,3,2,11,26,23,067,28,16,20,312,31,22,13,221,39,05,11,045,24*7A
$GPGSV,3,3,11,25,11,187,23,06,10,313,33,51,43,156,27*43
$GPRMC,233206.000,A,3748.7919,N,12217.8743,W,1.20,215.81,151012,,,A*71
$GPGGA,233207.000,3748.7916,N,12217.8743,W,1,07,1.0,20.2,M,-25.1,M,,0000*5A
$GPGSA,A,3,18,05,30,16,29,22,25,,,,,,1.8,1.0,1.5*3A
$GPRMC,233207.000,A,3748.7916,N,12217.8743,W,1.76,211.58,151012,,,A*7C
$GPVTG,211.58,T,,M,1.76,N,3.3,K,A*02
$GPGGA,233208.000,3748.7911,N,12217.8746,W,1,07,1.0,19.7,M,-25.1,M,,0000*58
$GPGSA,A,3,18,05,30,16,29,22,25,,,,,,1.8,1.0,1.5*3A
$GPRMC,233208.000,A,3748.7911,N,12217.8746,W,2.49,194.21,151012,,,A*7E
$GPVTG,194.21,T,,M,2.49,N,4.6,K,A*0F
$GPGGA,233209.000,3748.7904,N,12217.8758,W,1,06,1.1,20.7,M,-25.1,M,,0000*58
$GPGSA,A,3,18,05,30,16,22,25,,,,,,,2.3,1.1,2.0*3E
$GPRMC,233209.000,A,3748.7904,N,12217.8758,W,2.29,213.47,151012,,,A*7E
$GPVTG,213.47,T,,M,2.29,N,4.2,K,A*01
$GPGGA,233210.000,3748.7899,N,12217.8764,W,1,06,1.1,20.7,M,-25.1,M,,0000*5A
$GPGSA,A,3,18,05,30,16,22,25,,,,,,,2.3,1.1,2.0*3E
$GPRMC,233210.000,A,3748.7899,N,12217.8764,W,2.06,206.38,151012,,,A*7D
$GPVTG,206.38,T,,M,2.06,N,3.8,K,A*0D
$GPGGA,233211.000,3748.7894,N,12217.8771,W,1,06,1.1,21.1,M,-25.1,M,,0000*55
$GPGSA,A,3,18,05,30,16,22,25,,,,,,,2.3,1.1,2.0*3E
$GPGSV,3,1,10,21,65,320,25,29,58,128,,18,54,215,33,30,30,279,34*74
$GPGSV,3,2,10,26,23,067,22,16,20,312,32,22,13,221,42,05,11,045,25*7F
$GPGSV,3,3,10,25,11,187,22,06,10,313,26*73
$GPRMC,233211.000,A,3748.7894,N,12217.8771,W,1.73,199.14,151012,,,A*7F
$GPVTG,199.14,T,,M,1.73,N,3.2,K,A*0D
$GPGGA,233212.000,3748.7888,N,12217.8781,W,1,07,1.0,22.2,M,-25.1,M,,0000*54
$GPGSA,A,3,18,05,30,16,29,22,25,,,,,,1.8,1.0,1.5*3A
$GPRMC,233212.000,A,3748.7888,N,12217.8781,W,1.13,204.40,151012,,,A*7E
$GPVTG,204.40,T,,M,1.13,N,2.1,K,A*0F
$GPGGA,233213.000,3748.7882,N,12217.8794,W,1,07,1.0,23.7,M,-25.1,M,,0000*5F
$GPGSA,A,3,18,05,30,16,29,22,25,,,,,,1.8,1.0,1.5*3A
$GPRMC,233213.000,A,3748.7882,N,12217.8794,W,1.03,191.09,151012,,,A*72
$GPVTG,191.09,T,,M,1.03,N,1.9,K,A*07
$GPGGA,233214.000,3748.7881,N,12217.8799,W,1,07,1.0,23.4,M,-25.1,M,,0000*55
$GPGSA,A,3,18,05,30,16,29,22,25,,,,,,1.8,1.0,1.5*3A
$GPRMC,233214.000,A,3748.7881,N,12217.8799,W,0.83,199.47,151012,,,A*70
$GPVTG,199.47,T,,M,0.83,N,1.5,K,A*00
$GPGGA,233215.000,3748.7876,N,12217.8809,W,1,07,1.0,24.3,M,-25.1,M,,0000*5A
$GPGSA,A,3,18,05,30,16,29,22,25,,,,,,1.8,1.0,1.5*3A
$GPRMC,233215.000,A,3748.7876,N,12217.8809,W,1.00,197.63,151012,,,A*7D
$GPVTG,197.63,T,,M,1.00,N,1.8,K,A*0F
$GPGGA,233216.000,3748.7869,N,12217.8819,W,1,07,1.0,25.0,M,-25.1,M,,0000*54
$GPGSA,A,3,18,05,30,16,29,22,25,,,,,,1.8,1.0,1.5*3A
$GPGSV,3,1,10,21,65,320,30,29,58,128,21,18,54,215,34,30,30,279,38*78
$GPGSV,3,2,10,26,23,067,22,16,20,312,25,22,13,221,40,05,11,045,26*78
$GPGSV,3,3,10,25,11,187,26,06,10,313,15*77
$GPRMC,233216.000,A,3748.7869,N,12217.8819,W,1.50,199.13,151012,,,A*7D
$GPVTG,199.13,T,,M,1.50,N,2.8,K,A*00
$GPGGA,233217.000,3748.7863,N,12217.8828,W,1,07,1.0,25.5,M,-25.1,M,,0000*58
$GPGSA,A,3,18,05,30,16,29,22,25,,,,,,1.8,1.0,1.5*3A
$GPRMC,233217.000,A,3748.7863,N,12217.8828,W,1.68,210.03,151012,,,A*7C
$GPVTG,210.03,T,,M,1.68,N,3.1,K,A*00
$GPGGA,233218.000,3748.7857,N,12217.8837,W,1,07,1.0,26.2,M,-25.1,M,,0000*5A
$GPGSA,A,3,18,05,30,16,29,22,25,,,,,,1.8,1.0,1.5*3A
$GPRMC,233218.000,A,3748.7857,N,12217.8837,W,1.52,206.41,151012,,,A*72
$GPVTG,206.41,T,,M,1.52,N,2.8,K,A*00
$GPGGA,233219.000,3748.7851,N,12217.8844,W,1,07,1.0,26.7,M,-25.1,M,,0000*5C
$GPGSA,A,3,18,05,30,16,29,22,25,,,,,,1.8,1.0,1.5*3A
$GPRMC,233219.000,A,3748.7851,N,12217.8844,W,1.28,197.50,151012,,,A*77
$GPVTG,197.50,T,,M,1.28,N,2.4,K,A*0A
$GPGGA,233220.000,3748.7846,N,12217.8850,W,1,07,1.0,27.0,M,-25.1,M,,0000*53
$GPGSA,A,3,18,05,30,16,29,22,25,,,,,,1.8,1.0,1.5*3A
$GPRMC,233220.000,A,3748.7846,N,12217.8850,W,1.41,202.76,151012,,,A*7A
$GPVTG,202.76,T,,M,1.41,N,2.6,K,A*0C
$GPGGA,233221.000,3748.7841,N,12217.8855,W,1,07,1.0,27.2,M,-25.1,M,,0000*52
$GPGSA,A,3,18,05,30,16,29,22,25,,,,,,1.8,1.0,1.5*3A
$GPGSV,3,1,10,21,65,320,32,29,58,128,21,18,54,215,35,30,30,279,38*7B
$GPGSV,3,2,10,26,23,067,22,16,20,312,25,22,13,221,42,05,11,045,25*79
$GPGSV,3,3,10,25,11,187,24,06,10,313,15*75
$GPVTG,215.81,T,,M,1.69,N,3.1,K,A*0E
$GPGGA,233222.000,3748.7836,N,12217.8863,W,1,07,1.0,27.6,M,-25.1,M,,0000*50
$GPGSA,A,3,18,05,30,16,29,22,25,,,,,,1.8,1.0,1.5*3A
$GPRMC,233222.000,A,3748.7836,N,12217.8863,W,1.69,210.20,151012,,,A*75
$GPVTG,210.20,T,,M,1.69,N,3.1,K,A*00
$GPGGA,233223.000,3748.7832,N,12217.8866,W,1,07,1.0,27.7,M,-25.1,M,,0000*51
$GPGSA,A,3,18,05,30,16,29,22,25,,,,,,1.8,1.0,1.5*3A
$GPRMC,233223.000,A,3748.7832,N,12217.8866,W,1.51,205.49,151012,,,A*75
$GPVTG,205.49,T,,M,1.51,N,2.8,K,A*08
$GPGGA,233224.000,3748.7828,N,12217.8869,W,1,07,1.0,28.1,M,-25.1,M,,0000*5B
$GPGSA,A,3,18,05,30,16,29,22,25,,,,,,1.8,1.0,1.5*3A
$GPRMC,233224.000,A,3748.7828,N,12217.8869,W,1.37,184.92,151012,,,A*7A
$GPVTG,184.92,T,,M,1.37,N,2.5,K,A*09
$GPGGA,233225.000,3748.7824,N,12217.8869,W,1,07,1.0,27.8,M,-25.1,M,,0000*50
$GPGSA,A,3,18,05,30,16,29,22,25,,,,,,1.8,1.0,1.5*3A
$GPRMC,233225.000,A,3748.7824,N,12217.8869,W,1.44,187.01,151012,,,A*7A
$GPVTG,187.01,T,,M,1.44,N,2.7,K,A*06
$GPGGA,233226.000,3748.7820,N,12217.8868,W,1,07,1.0,27.4,M,-25.1,M,,0000*5A
$GPGSA,A,3,18,05,30,16,29,22,25,,,,,,1.8,1.0,1.5*3A
$GPGSV,3,1,10,21,65,320,34,29,58,128,23,18,54,215,35,30,30,279,39*7E
$GPGSV,3,2,10,26,23,067,22,16,20,312,25,22,13,221,41,05,11,045,25*7A
$GPGSV,3,3,10,25,11,187,25,06,10,313,15*74
$GPRMC,233226.000,A,3748.7820,N,12217.8868,W,1.38,191.07,151012,,,A*76
$GPVTG,191.07,T,,M,1.38,N,2.5,K,A*0E
$GPGGA,233227.000,3748.7815,N,12217.8871,W,1,07,1.0,27.5,M,-25.1,M,,0000*54
$GPGSA,A,3,18,05,30,16,29,22,25,,,,,,1.8,1.0,1.5*3A
$GPRMC,233227.000,A,3748.7815,N,12217.8871,W,1.37,201.01,151012,,,A*7A
$GPVTG,201.01,T,,M,1.37,N,2.5,K,A*0D
$GPGGA,233228.000,3748.7809,N,12217.8878,W,1,07,1.0,28.1,M,-25.1,M,,0000*54
$GPGSA,A,3,18,05,30,16,29,22,25,,,,,,1.8,1.0,1.5*3A
$GPRMC,233228.000,A,3748.7809,N,12217.8878,W,1.47,199.31,151012,,,A*77
$GPVTG,199.31,T,,M,1.47,N,2.7,K,A*09
$GPGGA,233229.000,3748.7802,N,12217.8885,W,1,07,1.0,28.8,M,-25.1,M,,0000*55
$GPGSA,A,3,18,05,30,16,29,22,25,,,,,,1.8,1.0,1.5*3A
$GPRMC,233229.000,A,3748.7802,N,12217.8885,W,1.49,197.07,151012,,,A*7A
$GPVTG,197.07,T,,M,1.49,N,2.8,K,A*03
$GPGGA,233230.000,3748.7798,N,12217.8889,W,1,07,1.0,28.7,M,-25.1,M,,0000*52
$GPGSA,A,3,18,05,30,16,29,22,25,,,,,,1.8,1.0,1.5*3A
$GPRMC,233230.000,A,3748.7798,N,12217.8889,W,1.33,189.53,151012,,,A*71
$GPVTG,189.53,T,,M,1.33,N,2.5,K,A*0D
$GPGGA,233231.000,3748.7795,N,12217.8890,W,1,07,1.0,28.5,M,-25.1,M,,0000*54
$GPGSA,A,3,18,05,30,16,29,22,25,,,,,,1.8,1.0,1.5*3A
$GPGSV,3,1,10,21,65,320,33,29,58,128,23,18,54,215,36,30,30,279,39*7A
$GPGSV,3,2,10,26,23,067,21,16,20,312,26,22,13,221,41,05,11,045,25*7A
$GPGSV,3,3,10,25,11,187,24,06,10,313,14*74
$GPRMC,233231.000,A,3748.7795,N,12217.8890,W,1.23,202.70,151012,,,A*75
$GPVTG,202.70,T,,M,1.23,N,2.3,K,A*0B
$GPGGA,233232.000,3748.7790,N,12217.8895,W,1,07,1.0,28.7,M,-25.1,M,,0000*55
$GPGSA,A,3,18,05,30,16,29,22,25,,,,,,1.8,1.0,1.5*3A
$GPRMC,233232.000,A,3748.7790,N,12217.8895,W,1.49,195.68,151012,,,A*7E
$GPVTG,195.68,T,,M,1.49,N,2.8,K,A*08
$GPGGA,233233.000,3748.7784,N,12217.8899,W,1,07,1.0,29.1,M,-25.1,M,,0000*5A
$GPGSA,A,3,18,05,30,16,29,22,25,,,,,,1.8,1.0,1.5*3A
$GPRMC,233233.000,A,3748.7784,N,12217.8899,W,1.09,182.71,151012,,,A*7C
$GPVTG,182.71,T,,M,1.09,N,2.0,K,A*0A
$GPGGA,233234.000,3748.7781,N,12217.8901,W,1,07,1.0,29.0,M,-25.1,M,,0000*59
$GPGSA,A,3,18,05,30,16,29,22,25,,,,,,1.8,1.0,1.5*3A
$GPRMC,233234.000,A,3748.7781,N,12217.8901,W,0.69,159.31,151012,,,A*7B
$GPVTG,159.31,T,,M,0.69,N,1.3,K,A*0F
$GPGGA,233235.000,3748.7778,N,12217.8902,W,1,07,1.0,28.9,M,-25.1,M,,0000*55
$GPGSA,A,3,18,05,30,16,29,22,25,,,,,,1.8,1.0,1.5*3A
$GPRMC,233235.000,A,3748.7778,N,12217.8902,W,1.16,199.91,151012,,,A*70
$GPVTG,199.91,T,,M,1.16,N,2.1,K,A*01
$GPGGA,233236.000,3748.7773,N,12217.8906,W,1,07,1.0,28.9,M,-25.1,M,,0000*59
$GPGSA,A,3,18,05,30,16,29,22,25,,,,,,1.8,1.0,1.5*3A
$GPGSV,3,1,10,21,65,320,33,29,58,128,23,18,54,215,37,30,30,279,39*7B
$GPGSV,3,2,10,26,23,067,22,16,20,312,25,22,13,221,39,05,11,045,25*75
$GPGSV,3,3,10,25,11,187,25,06,10,313,16*77
$GPRMC,233236.000,A,3748.7773,N,12217.8906,W,1.22,206.86,151012,,,A*78
$GPGGA,233237.000,3748.7768,N,12217.8910,W,1,07,1.0,29.1,M,-25.1,M,,0000*5C
$GPGSA,A,3,18,05,30,16,29,22,25,,,,,,1.8,1.0,1.5*3A
$GPRMC,233237.000,A,3748.7768,N,12217.8910,W,1.36,198.60,151012,,,A*7D
$GPVTG,198.60,T,,M,1.36,N,2.5,K,A*08
$GPGGA,233238.000,3748.7763,N,12217.8913,W,1,07,1.0,29.1,M,-25.1,M,,0000*5B
$GPGSA,A,3,18,05,30,16,29,22,25,,,,,,1.8,1.0,1.5*3A
$GPRMC,233238.000,A,3748.7763,N,12217.8913,W,1.40,191.15,151012,,,A*70
$GPVTG,191.15,T,,M,1.40,N,2.6,K,A*01
$GPGGA,233239.000,3748.7758,N,12217.8916,W,1,07,1.0,29.3,M,-25.1,M,,0000*55
$GPGSA,A,3,18,05,30,16,29,22,25,,,,,,1.8,1.0,1.5*3A
$GPRMC,233239.000,A,3748.7758,N,12217.8916,W,1.15,186.00,151012,,,A*7E
$GPVTG,186.00,T,,M,1.15,N,2.1,K,A*04
$GPGGA,233240.000,3748.7755,N,12217.8916,W,1,07,1.0,29.3,M,-25.1,M,,0000*56
$GPGSA,A,3,18,05,30,16,29,22,25,,,,,,1.8,1.0,1.5*3A
$GPRMC,233240.000,A,3748.7755,N,12217.8916,W,1.01,165.92,151012,,,A*7E
$GPVTG,165.92,T,,M,1.01,N,1.9,K,A*0C
$GPGGA,233241.000,3748.7750,N,12217.8919,W,1,07,1.0,29.4,M,-25.1,M,,0000*5A
$GPGSA,A,3,18,05,30,16,29,22,25,,,,,,1.8,1.0,1.5*3A
$GPGSV,3,1,11,21,65,320,33,29,58,128,23,18,54,215,37,30,30,279,40*74
$GPGSV,3,2,11,26,23,067,23,16,20,312,26,22,13,221,37,05,11,045,25*78
$GPGSV,3,3,11,25,11,187,25,06,10,313,16,51,43,156,26*43
$GPRMC,233241.000,A,3748.7750,N,12217.8919,W,1.11,171.27,151012,,,A*7F
$GPVTG,171.27,T,,M,1.11,N,2.1,K,A*0D
$GPGGA,233242.000,3748.7746,N,12217.8924,W,1,07,1.0,29.5,M,-25.1,M,,0000*51
$GPGSA,A,3,18,05,30,16,29,22,25,,,,,,1.8,1.0,1.5*3A
$GPRMC,233242.000,A,3748.7746,N,12217.8924,W,0.90,200.86,151012,,,A*73
$GPVTG,200.86,T,,M,0.90,N,1.7,K,A*0E
$GPGGA,233243.000,3748.7742,N,12217.8929,W,1,07,1.0,29.9,M,-25.1,M,,0000*55
$GPGSA,A,3,18,05,30,16,29,22,25,,,,,,1.8,1.0,1.5*3A
$GPRMC,233243.000,A,3748.7742,N,12217.8929,W,1.06,193.94,151012,,,A*7F
$GPVTG,193.94,T,,M,1.06,N,2.0,K,A*0E
$GPGGA,233244.000,3748.7738,N,12217.8934,W,1,07,1.0,30.2,M,-25.1,M,,0000*50
$GPGSA,A,3,18,05,30,16,29,22,25,,,,,,1.8,1.0,1.5*3A
$GPRMC,233244.000,A,3748.7738,N,12217.8934,W,1.15,188.70,151012,,,A*7B
$GPVTG,188.70,T,,M,1.15,N,2.1,K,A*0D
$GPGGA,233245.000,3748.7733,N,12217.8940,W,1,07,1.0,30.9,M,-25.1,M,,0000*52
$GPGSA,A,3,18,05,30,16,29,22,25,,,,,,1.8,1.0,1.5*3A
$GPRMC,233245.000,A,3748.7733,N,12217.8940,W,1.57,208.89,151012,,,A*79
$GPVTG,208.89,T,,M,1.57,N,2.9,K,A*0E
$GPGGA,233246.000,3748.7727,N,12217.8947,W,1,07,1.0,31.4,M,-25.1,M,,0000*5F
$GPGSA,A,3,18,05,30,16,29,22,25,,,,,,1.8,1.0,1.5*3A
$GPGSV,3,1,10,21,65,320,33,29,58,128,23,18,54,215,37,30,30,279,39*7B
$GPGSV,3,2,10,26,23,067,22,16,20,312,29,22,13,221,37,05,11,045,24*76
$GPGSV,3,3,10,25,11,187,25,06,10,313,15*74
$GPRMC,233246.000,A,3748.7727,N,12217.8947,W,1.85,201.03,151012,,,A*7C
$GPVTG,201.03,T,,M,1.85,N,3.4,K,A*06
$GPGGA,233247.000,3748.7723,N,12217.8955,W,1,07,1.0,31.6,M,-25.1,M,,0000*5B
$GPGSA,A,3,18,05,30,16,29,22,25,,,,,,1.8,1.0,1.5*3A
$GPRMC,233247.000,A,3748.7723,N,12217.8955,W,1.64,224.32,151012,,,A*70
$GPVTG,224.32,T,,M,1.64,N,3.0,K,A*08
$GPGGA,233248.000,3748.7719,N,12217.8959,W,1,07,1.0,31.3,M,-25.1,M,,0000*54
$GPGSA,A,3,18,05,30,16,29,22,25,,,,,,1.8,1.0,1.5*3A
$GPRMC,233248.000,A,3748.7719,N,12217.8959,W,1.27,200.87,151012,,,A*75
$GPVTG,200.87,T,,M,1.27,N,2.4,K,A*02
$GPGGA,233249.000,3748.7715,N,12217.8963,W,1,07,1.0,30.5,M,-25.1,M,,0000*57
$GPGSA,A,3,18,05,30,16,29,22,25,,,,,,1.8,1.0,1.5*3A
$GPRMC,233249.000,A,3748.7715,N,12217.8963,W,1.12,197.24,151012,,,A*73
$GPVTG,197.24,T,,M,1.12,N,2.1,K,A*05
$GPGGA,233250.000,3748.7712,N,12217.8960,W,1,07,1.0,29.9,M,-25.1,M,,0000*5F
$GPGSA,A,3,18,05,30,16,29,22,25,,,,,,1.8,1.0,1.5*3A
$GPRMC,233250.000,A,3748.7712,N,12217.8960,W,0.90,169.32,151012,,,A*72
$GPVTG,169.32,T,,M,0.90,N,1.7,K,A*0D
$GPGGA,233251.000,3748.7709,N,12217.8958,W,1,07,1.0,29.1,M,-25.1,M,,0000*57
$GPGSA,A,3,18,05,30,16,29,22,25,,,,,,1.8,1.0,1.5*3A
$GPGSV,3,1,10,21,65,321,29,29,58,128,22,18,54,215,34,30,30,279,34*7E
$GPGSV,3,2,10,26,23,067,16,16,20,311,23,22,13,221,38,05,11,045,22*71
$GPGSV,3,3,10,25,11,187,21,06,10,313,14*71
$GPVTG,162.26,T,,M,0.83,N,1.5,K,A*03
$GPGGA,233252.000,3748.7706,N,12217.8958,W,1,07,1.0,28.9,M,-25.1,M,,0000*52
$GPGSA,A,3,18,05,30,16,29,22,25,,,,,,1.8,1.0,1.5*3A
$GPRMC,233252.000,A,3748.7706,N,12217.8958,W,0.42,184.73,151012,,,A*77
$GPVTG,184.73,T,,M,0.42,N,0.8,K,A*0A
$GPGGA,233253.000,3748.7705,N,12217.8962,W,1,07,1.0,29.2,M,-25.1,M,,0000*53
$GPGSA,A,3,18,05,30,16,29,22,25,,,,,,1.8,1.0,1.5*3A
$GPRMC,233253.000,A,3748.7705,N,12217.8962,W,0.45,69.97,151012,,,A*43
$GPVTG,69.97,T,,M,0.45,N,0.8,K,A*35
$GPGGA,233254.000,3748.7700,N,12217.8962,W,1,07,1.0,29.0,M,-25.1,M,,0000*53
$GPGSA,A,3,18,05,30,16,29,22,25,,,,,,1.8,1.0,1.5*3A
$GPRMC,233254.000,A,3748.7700,N,12217.8962,W,0.43,185.49,151012,,,A*77
$GPVTG,185.49,T,,M,0.43,N,0.8,K,A*03
$GPGGA,233255.000,3748.7697,N,12217.8962,W,1,07,1.0,29.0,M,-25.1,M,,0000*5D
$GPGSA,A,3,18,05,30,16,29,22,25,,,,,,1.8,1.0,1.5*3A
$GPRMC,233255.000,A,3748.7697,N,12217.8962,W,0.32,277.23,151012,,,A*7D
$GPVTG,277.23,T,,M,0.32,N,0.6,K,A*09
$GPGGA,233256.000,3748.7693,N,12217.8964,W,1,07,1.0,29.3,M,-25.1,M,,0000*5F
$GPGSA,A,3,18,05,30,16,29,22,25,,,,,,1.8,1.0,1.5*3A
$GPGSV,3,1,10,21,65,321,29,29,58,128,16,18,54,215,35,30,30,279,35*79
$GPGSV,3,2,10,26,23,067,18,16,20,311,23,22,13,221,39,05,11,045,23*7F
$GPGSV,3,3,10,25,11,187,22,06,10,313,15*73
$GPRMC,233256.000,A,3748.7693,N,12217.8964,W,0.18,337.08,151012,,,A*78
$GPVTG,337.08,T,,M,0.18,N,0.3,K,A*08
$GPGGA,233257.000,3748.7691,N,12217.8967,W,1,07,1.0,29.5,M,-25.1,M,,0000*59
$GPGSA,A,3,18,05,30,16,29,22,25,,,,,,1.8,1.0,1.5*3A
$GPRMC,233257.000,A,3748.7691,N,12217.8967,W,0.18,340.60,151012,,,A*76
$GPVTG,340.60,T,,M,0.18,N,0.3,K,A*06
$GPGGA,233258.000,3748.7688,N,12217.8970,W,1,07,1.0,29.7,M,-25.1,M,,0000*5A
$GPGSA,A,3,18,05,30,16,29,22,25,,,,,,1.8,1.0,1.5*3A
$GPRMC,233258.000,A,3748.7688,N,12217.8970,W,1.53,208.33,151012,,,A*72
$GPVTG,208.33,T,,M,1.53,N,2.8,K,A*0A
$GPGGA,233259.000,3748.7681,N,12217.8976,W,1,05,1.4,29.9,M,-25.1,M,,0000*5C
$GPGSA,A,3,18,05,30,22,25,,,,,,,,2.5,1.4,2.1*3B
$GPRMC,233259.000,A,3748.7681,N,12217.8976,W,1.94,210.64,151012,,,A*7C
$GPVTG,210.64,T,,M,1.94,N,3.6,K,A*05
$GPGGA,233300.000,3748.7674,N,12217.8983,W,1,05,1.4,30.4,M,-25.1,M,,0000*54
$GPGSA,A,3,18,05,30,22,25,,,,,,,,2.5,1.4,2.1*3B
$GPRMC,233300.000,A,3748.7674,N,12217.8983,W,2.13,213.88,151012,,,A*7C
$GPVTG,213.88,T,,M,2.13,N,3.9,K,A*07
$GPGGA,233301.000,3748.7667,N,12217.8987,W,1,05,1.4,30.2,M,-25.1,M,,0000*55
$GPGSA,A,3,18,05,30,22,25,,,,,,,,2.5,1.4,2.1*3B
$GPGSV,3,1,10,21,65,321,23,29,58,128,17,18,54,215,33,30,30,279,36*77
$GPGSV,3,2,10,26,23,067,22,16,20,311,,22,13,221,39,05,11,045,24*70
$GPGSV,3,3,10,25,11,187,22,06,10,313,*77
$GPRMC,233301.000,A,3748.7667,N,12217.8987,W,1.82,192.95,151012,,,A*76
$GPVTG,192.95,T,,M,1.82,N,3.4,K,A*07
$GPGGA,233302.000,3748.7660,N,12217.8991,W,1,06,1.1,30.5,M,-25.1,M,,0000*57
$GPGSA,A,3,18,05,30,16,22,25,,,,,,,2.3,1.1,2.0*3E
$GPRMC,233302.000,A,3748.7660,N,12217.8991,W,1.41,192.75,151012,,,A*74
$GPVTG,192.75,T,,M,1.41,N,2.6,K,A*05
$GPGGA,233303.000,3748.7654,N,12217.8993,W,1,06,1.1,30.7,M,-25.1,M,,0000*51
$GPGSA,A,3,18,05,30,16,22,25,,,,,,,2.3,1.1,2.0*3E
$GPRMC,233303.000,A,3748.7654,N,12217.8993,W,1.39,181.44,151012,,,A*7F
$GPVTG,181.44,T,,M,1.39,N,2.6,K,A*0A
$GPGGA,233304.000,3748.7649,N,12217.8999,W,1,07,1.0,30.2,M,-25.1,M,,0000*55
$GPGSA,A,3,18,05,30,16,29,22,25,,,,,,1.8,1.0,1.5*3A
$GPRMC,233304.000,A,3748.7649,N,12217.8999,W,1.11,191.65,151012,,,A*76
$GPVTG,191.65,T,,M,1.11,N,2.1,K,A*05
$GPGGA,233305.000,3748.7643,N,12217.9001,W,1,07,1.0,30.4,M,-25.1,M,,0000*51
$GPGSA,A,3,18,05,30,16,29,22,25,,,,,,1.8,1.0,1.5*3A
$GPRMC,233305.000,A,3748.7643,N,12217.9001,W,1.13,190.64,151012,,,A*76
$GPVTG,190.64,T,,M,1.13,N,2.1,K,A*07
$GPGGA,233306.000,3748.7637,N,12217.9009,W,1,07,1.0,30.3,M,-25.1,M,,0000*5E
$GPGSA,A,3,18,05,30,16,29,22,25,,,,,,1.8,1.0,1.5*3A
$GPGSV,3,1,10,21,65,321,23,29,58,128,18,18,54,215,31,30,30,279,35*79
$GPGSV,3,2,10,26,23,067,21,16,20,311,21,22,13,221,38,05,11,045,24*71
$GPGSV,3,3,10,25,11,187,25,06,10,313,*70
$GPRMC,233306.000,A,3748.7637,N,12217.9009,W,1.06,185.02,151012,,,A*7E
$GPGGA,233307.000,3748.7632,N,12217.9015,W,1,07,1.0,31.4,M,-25.1,M,,0000*51
$GPGSA,A,3,18,05,30,16,29,22,25,,,,,,1.8,1.0,1.5*3A
$GPRMC,233307.000,A,3748.7632,N,12217.9015,W,0.53,205.53,151012,,,A*79
$GPVTG,205.53,T,,M,0.53,N,1.0,K,A*0B
$GPGGA,233308.000,3748.7625,N,12217.9021,W,1,07,1.0,31.6,M,-25.1,M,,0000*5D
$GPGSA,A,3,18,05,30,16,29,22,25,,,,,,1.8,1.0,1.5*3A
$GPRMC,233308.000,A,3748.7625,N,12217.9021,W,1.26,184.53,151012,,,A*7E
$GPVTG,184.53,T,,M,1.26,N,2.3,K,A*02
$GPGGA,233309.000,3748.7614,N,12217.9036,W,1,07,1.0,34.2,M,-25.1,M,,0000*59
$GPGSA,A,3,18,05,30,16,29,22,25,,,,,,1.8,1.0,1.5*3A
$GPRMC,233309.000,A,3748.7614,N,12217.9036,W,1.99,205.60,151012,,,A*75
$GPVTG,205.60,T,,M,1.99,N,3.7,K,A*09
$GPGGA,233310.000,3748.7603,N,12217.9058,W,1,07,1.0,34.7,M,-25.1,M,,0000*5A
$GPGSA,A,3,18,05,30,16,29,22,25,,,,,,1.8,1.0,1.5*3A
$GPRMC,233310.000,A,3748.7603,N,12217.9058,W,2.86,216.52,151012,,,A*7D
$GPVTG,216.52,T,,M,2.86,N,5.3,K,A*05
$GPGGA,233311.000,3748.7593,N,12217.9066,W,1,07,1.0,34.7,M,-25.1,M,,0000*5C
$GPGSA,A,3,18,05,30,16,29,22,25,,,,,,1.7,1.0,1.5*35
$GPGSV,3,1,10,21,65,321,23,29,58,128,25,18,54,215,31,30,30,279,35*77
$GPGSV,3,2,10,26,23,067,21,16,20,311,20,22,13,221,36,05,11,045,25*7F
$GPGSV,3,3,10,25,11,187,28,06,10,313,*7D
$GPRMC,233311.000,A,3748.7593,N,12217.9066,W,3.05,214.39,151012,,,A*7E
$GPVTG,214.39,T,,M,3.05,N,5.6,K,A*05
$GPGGA,233312.000,3748.7586,N,12217.9068,W,1,07,1.0,35.1,M,-25.1,M,,0000*52
$GPGSA,A,3,18,05,30,16,29,22,25,,,,,,1.7,1.0,1.5*35
$GPRMC,233312.000,A,3748.7586,N,12217.9068,W,2.51,214.64,151012,,,A*7F
$GPVTG,214.64,T,,M,2.51,N,4.7,K,A*0D
$GPGGA,233313.000,3748.7579,N,12217.9066,W,1,07,1.0,35.6,M,-25.1,M,,0000*5A
$GPGSA,A,3,18,05,30,16,29,22,25,,,,,,1.7,1.0,1.5*35
$GPRMC,233313.000,A,3748.7579,N,12217.9066,W,2.11,213.01,151012,,,A*70
$GPVTG,213.01,T,,M,2.11,N,3.9,K,A*04
$GPGGA,233314.000,3748.7572,N,12217.9070,W,1,07,1.0,35.2,M,-25.1,M,,0000*55
$GPGSA,A,3,18,05,30,16,29,22,25,,,,,,1.7,1.0,1.5*35
$GPRMC,233314.000,A,3748.7572,N,12217.9070,W,1.89,203.74,151012,,,A*7A
$GPVTG,203.74,T,,M,1.89,N,3.5,K,A*09
$GPGGA,233315.000,3748.7567,N,12217.9070,W,1,07,1.0,34.6,M,-25.1,M,,0000*55
$GPGSA,A,3,18,05,30,16,29,22,25,,,,,,1.7,1.0,1.5*35
$GPRMC,233315.000,A,3748.7567,N,12217.9070,W,1.49,208.82,151012,,,A*71
$GPVTG,208.82,T,,M,1.49,N,2.8,K,A*0B
$GPGGA,233316.000,3748.7561,N,12217.9074,W,1,07,1.0,34.6,M,-25.1,M,,0000*54
$GPGSA,A,3,18,05,30,16,29,22,25,,,,,,1.7,1.0,1.5*35
$GPGSV,3,1,10,21,65,321,23,29,58,128,25,18,54,215,31,30,30,279,31*73
$GPGSV,3,2,10,26,23,067,27,16,20,311,21,22,13,221,36,05,11,045,25*78
$GPGSV,3,3,10,25,11,187,26,06,10,313,23*72
$GPRMC,233316.000,A,3748.7561,N,12217.9074,W,1.48,191.91,151012,,,A*70
$GPVTG,191.91,T,,M,1.48,N,2.7,K,A*04
$GPGGA,233317.000,3748.7554,N,12217.9083,W,1,07,1.0,34.8,M,-25.1,M,,0000*55
$GPGSA,A,3,18,05,30,16,29,22,25,,,,,,1.7,1.0,1.5*35
$GPRMC,233317.000,A,3748.7554,N,12217.9083,W,2.05,217.69,151012,,,A*7F
$GPVTG,217.69,T,,M,2.05,N,3.8,K,A*0A
$GPGGA,233318.000,3748.7550,N,12217.9086,W,1,07,1.0,34.4,M,-25.1,M,,0000*57
$GPGSA,A,3,18,05,30,16,29,22,25,,,,,,1.7,1.0,1.5*35
$GPRMC,233318.000,A,3748.7550,N,12217.9086,W,2.40,223.58,151012,,,A*75
$GPVTG,223.58,T,,M,2.40,N,4.4,K,A*05
$GPGGA,233319.000,3748.7546,N,12217.9087,W,1,07,1.0,34.0,M,-25.1,M,,0000*54
$GPGSA,A,3,18,05,30,16,29,22,25,,,,,,1.7,1.0,1.5*35
$GPRMC,233319.000,A,3748.7546,N,12217.9087,W,2.08,207.07,151012,,,A*72
$GPVTG,207.07,T,,M,2.08,N,3.9,K,A*0F
$GPGGA,233320.000,3748.7543,N,12217.9089,W,1,07,1.0,33.2,M,-25.1,M,,0000*50
$GPGSA,A,3,18,05,30,16,29,22,25,,,,,,1.7,1.0,1.5*35
$GPRMC,233320.000,A,3748.7543,N,12217.9089,W,1.57,210.45,151012,,,A*7A
$GPVTG,210.45,T,,M,1.57,N,2.9,K,A*07
$GPGGA,233321.000,3748.7538,N,12217.9097,W,1,06,1.1,33.5,M,-25.1,M,,0000*55
$GPGSA,A,3,18,05,30,29,22,25,,,,,,,1.9,1.1,1.5*3D
$GPGSV,3,1,10,21,65,321,23,29,57,128,25,18,54,215,31,30,30,279,34*79
$GPGSV,3,2,10,26,23,066,23,16,21,311,,22,14,221,28,05,11,045,22*70
$GPGSV,3,3,10,25,11,187,25,06,10,313,25*77
$GPRMC,233321.000,A,3748.7538,N,12217.9097,W,1.41,207.98,151012,,,A*79
$GPGGA,233322.000,3748.7535,N,12217.9101,W,1,07,1.0,33.3,M,-25.1,M,,0000*53
$GPGSA,A,3,18,05,30,16,29,22,25,,,,,,1.7,1.0,1.5*35
$GPRMC,233322.000,A,3748.7535,N,12217.9101,W,1.51,228.04,151012,,,A*70
$GPVTG,228.04,T,,M,1.51,N,2.8,K,A*0E
$GPGGA,233323.000,3748.7533,N,12217.9104,W,1,07,1.0,32.9,M,-25.1,M,,0000*5A
$GPGSA,A,3,18,05,30,16,29,22,25,,,,,,1.7,1.0,1.5*35
$GPRMC,233323.000,A,3748.7533,N,12217.9104,W,1.35,212.18,151012,,,A*74
$GPVTG,212.18,T,,M,1.35,N,2.5,K,A*05
$GPGGA,233324.000,3748.7530,N,12217.9105,W,1,07,1.0,32.4,M,-25.1,M,,0000*52
$GPGSA,A,3,18,05,30,16,29,22,25,,,,,,1.7,1.0,1.5*35
$GPRMC,233324.000,A,3748.7530,N,12217.9105,W,1.56,189.66,151012,,,A*7C
$GPVTG,189.66,T,,M,1.56,N,2.9,K,A*04
$GPGGA,233325.000,3748.7525,N,12217.9108,W,1,07,1.0,31.9,M,-25.1,M,,0000*54
$GPGSA,A,3,18,05,30,16,29,22,25,,,,,,1.7,1.0,1.5*35
$GPRMC,233325.000,A,3748.7525,N,12217.9108,W,1.47,181.55,151012,,,A*7C
$GPVTG,181.55,T,,M,1.47,N,2.7,K,A*02
$GPGGA,233326.000,3748.7521,N,12217.9106,W,1,07,1.0,31.9,M,-25.1,M,,0000*5D
$GPGSA,A,3,18,05,30,16,29,22,25,,,,,,1.7,1.0,1.5*35
$GPGSV,3,1,10,21,65,321,29,29,57,128,25,18,54,215,31,30,30,279,37*70
$GPGSV,3,2,10,26,23,066,23,16,21,311,28,22,14,221,40,05,11,045,23*75
$GPGSV,3,3,10,25,11,187,26,06,10,313,32*72
$GPRMC,233326.000,A,3748.7521,N,12217.9106,W,1.45,202.23,151012,,,A*7E
$GPVTG,202.23,T,,M,1.45,N,2.7,K,A*09
$GPGGA,233327.000,3748.7519,N,12217.9106,W,1,07,1.0,30.8,M,-25.1,M,,0000*57
$GPGSA,A,3,18,05,30,16,29,22,25,,,,,,1.7,1.0,1.5*35
$GPRMC,233327.000,A,3748.7519,N,12217.9106,W,1.46,202.49,151012,,,A*7B
$GPVTG,202.49,T,,M,1.46,N,2.7,K,A*06
$GPGGA,233328.000,3748.7516,N,12217.9105,W,1,07,1.0,29.8,M,-25.1,M,,0000*5C
$GPGSA,A,3,18,05,30,16,29,22,25,,,,,,1.7,1.0,1.5*35
$GPRMC,233328.000,A,3748.7516,N,12217.9105,W,1.33,195.25,151012,,,A*7D
$GPVTG,195.25,T,,M,1.33,N,2.5,K,A*01
$GPGGA,233329.000,3748.7512,N,12217.9107,W,1,07,1.0,29.6,M,-25.1,M,,0000*55
$GPGSA,A,3,18,05,30,16,29,22,25,,,,,,1.7,1.0,1.5*35
$GPRMC,233329.000,A,3748.7512,N,12217.9107,W,1.25,205.22,151012,,,A*70
$GPVTG,205.22,T,,M,1.25,N,2.3,K,A*0D
$GPGGA,233330.000,3748.7507,N,12217.9110,W,1,07,1.0,30.1,M,-25.1,M,,0000*50
$GPGSA,A,3,18,05,30,16,29,22,25,,,,,,1.7,1.0,1.5*35
$GPRMC,233330.000,A,3748.7507,N,12217.9110,W,1.28,193.01,151012,,,A*7A
$GPVTG,193.01,T,,M,1.28,N,2.4,K,A*0A
$GPGGA,233331.000,3748.7502,N,12217.9116,W,1,07,1.0,29.8,M,-25.1,M,,0000*53
$GPGSA,A,3,18,05,30,16,29,22,25,,,,,,1.7,1.0,1.5*35
$GPGSV,3,1,10,21,65,321,21,29,57,128,26,18,54,215,31,30,30,279,33*7F
$GPGSV,3,2,10,26,23,066,23,16,21,311,19,22,14,221,32,05,11,045,23*72
$GPGSV,3,3,10,25,11,187,26,06,10,313,17*75
$GPRMC,233331.000,A,3748.7502,N,12217.9116,W,1.30,182.82,151012,,,A*7A
$GPVTG,182.82,T,,M,1.30,N,2.4,K,A*08
$GPGGA,233332.000,3748.7495,N,12217.9124,W,1,07,1.0,30.0,M,-25.1,M,,0000*5E
$GPGSA,A,3,18,05,30,16,29,22,25,,,,,,1.7,1.0,1.5*35
$GPRMC,233332.000,A,3748.7495,N,12217.9124,W,1.30,185.61,151012,,,A*7D
$GPVTG,185.61,T,,M,1.30,N,2.4,K,A*02
$GPGGA,233333.000,3748.7488,N,12217.9130,W,1,07,1.0,30.6,M,-25.1,M,,0000*50
$GPGSA,A,3,18,05,30,16,29,22,25,,,,,,1.7,1.0,1.5*35
$GPRMC,233333.000,A,3748.7488,N,12217.9130,W,1.01,201.42,151012,,,A*79
$GPVTG,201.42,T,,M,1.01,N,1.9,K,A*00
$GPGGA,233334.000,3748.7483,N,12217.9133,W,1,07,1.0,31.2,M,-25.1,M,,0000*5A
$GPGSA,A,3,18,05,30,16,29,22,25,,,,,,1.7,1.0,1.5*35
$GPRMC,233334.000,A,3748.7483,N,12217.9133,W,1.14,192.47,151012,,,A*7E
$GPVTG,192.47,T,,M,1.14,N,2.1,K,A*03
$GPGGA,233335.000,3748.7479,N,12217.9133,W,1,07,1.0,31.5,M,-25.1,M,,0000*59
$GPGSA,A,3,18,05,30,16,29,22,25,,,,,,1.7,1.0,1.5*35
$GPRMC,233335.000,A,3748.7479,N,12217.9133,W,1.52,201.04,151012,,,A*76
$GPVTG,201.04,T,,M,1.52,N,2.8,K,A*06
$GPGGA,233336.000,3748.7474,N,12217.9132,W,1,07,1.0,31.5,M,-25.1,M,,0000*56
$GPGSA,A,3,18,05,30,16,29,22,25,,,,,,1.7,1.0,1.5*35
$GPGSV,3,1,10,21,65,321,25,29,57,128,26,18,54,215,32,30,30,279,34*7F
$GPGSV,3,2,10,26,23,066,23,16,21,311,19,22,14,221,34,05,11,045,23*74
$GPGSV,3,3,10,25,11,187,24,06,10,313,16*76
$GPVTG,209.24,T,,M,0.88,N,1.6,K,A*07
$GPGGA,233337.000,3748.7469,N,12217.9136,W,1,07,1.0,32.1,M,-25.1,M,,0000*58
$GPGSA,A,3,18,05,30,16,29,22,25,,,,,,1.7,1.0,1.5*35
$GPRMC,233337.000,A,3748.7469,N,12217.9136,W,0.94,198.01,151012,,,A*7D
$GPVTG,198.01,T,,M,0.94,N,1.7,K,A*07
$GPGGA,233338.000,3748.7462,N,12217.9141,W,1,07,1.0,33.1,M,-25.1,M,,0000*5D
$GPGSA,A,3,18,05,30,16,29,22,25,,,,,,1.7,1.0,1.5*35
$GPRMC,233338.000,A,3748.7462,N,12217.9141,W,1.54,216.37,151012,,,A*74
$GPVTG,216.37,T,,M,1.54,N,2.9,K,A*07
$GPGGA,233339.000,3748.7454,N,12217.9152,W,1,07,1.0,34.1,M,-25.1,M,,0000*5C
$GPGSA,A,3,18,05,30,16,29,22,25,,,,,,1.7,1.0,1.5*35
$GPRMC,233339.000,A,3748.7454,N,12217.9152,W,2.14,213.47,151012,,,A*77
$GPVTG,213.47,T,,M,2.14,N,4.0,K,A*0D
$GPGGA,233340.000,3748.7445,N,12217.9161,W,1,07,1.0,35.7,M,-25.1,M,,0000*55
$GPGSA,A,3,18,05,30,16,29,22,25,,,,,,1.7,1.0,1.5*35
$GPRMC,233340.000,A,3748.7445,N,12217.9161,W,2.04,203.37,151012,,,A*7E
$GPVTG,203.37,T,,M,2.04,N,3.8,K,A*05
$GPGGA,233341.000,3748.7437,N,12217.9167,W,1,07,1.0,36.5,M,-25.1,M,,0000*56
$GPGSA,A,3,18,05,30,16,29,22,25,,,,,,1.7,1.0,1.5*35
$GPGSV,3,1,10,21,65,321,25,29,57,128,25,18,54,215,32,30,30,279,34*7C
$GPGSV,3,2,10,26,23,066,23,16,21,311,19,22,14,221,39,05,11,045,24*7E
$GPGSV,3,3,10,25,11,187,23,06,10,313,15*72
$GPRMC,233341.000,A,3748.7437,N,12217.9167,W,1.84,213.79,151012,,,A*7C
$GPVTG,213.79,T,,M,1.84,N,3.4,K,A*09
$GPGGA,233342.000,3748.7430,N,12217.9169,W,1,07,1.0,37.1,M,-25.1,M,,0000*59
$GPGSA,A,3,18,05,30,16,29,22,25,,,,,,1.7,1.0,1.5*35
$GPRMC,233342.000,A,3748.7430,N,12217.9169,W,1.87,205.95,151012,,,A*70
$GPVTG,205.95,T,,M,1.87,N,3.5,K,A*0E
$GPGGA,233343.000,3748.7424,N,12217.9172,W,1,07,1.0,37.7,M,-25.1,M,,0000*51
$GPGSA,A,3,18,05,30,16,29,22,25,,,,,,1.7,1.0,1.5*35
$GPRMC,233343.000,A,3748.7424,N,12217.9172,W,1.43,199.94,151012,,,A*71
$GPVTG,199.94,T,,M,1.43,N,2.6,K,A*03
$GPGGA,233344.000,3748.7418,N,12217.9172,W,1,07,1.0,38.0,M,-25.1,M,,0000*51
$GPGSA,A,3,18,05,30,16,29,22,25,,,,,,1.7,1.0,1.5*35
$GPRMC,233344.000,A,3748.7418,N,12217.9172,W,1.41,187.14,151012,,,A*7C
$GPVTG,187.14,T,,M,1.41,N,2.6,K,A*06
$GPGGA,233345.000,3748.7415,N,12217.9173,W,1,07,1.0,38.0,M,-25.1,M,,0000*5C
$GPGSA,A,3,18,05,30,16,29,22,25,,,,,,1.7,1.0,1.5*35
$GPRMC,233345.000,A,3748.7415,N,12217.9173,W,1.04,195.50,151012,,,A*73
$GPVTG,195.50,T,,M,1.04,N,1.9,K,A*08
$GPGGA,233346.000,3748.7412,N,12217.9172,W,1,07,1.0,37.9,M,-25.1,M,,0000*5F
$GPGSA,A,3,18,05,30,16,29,22,25,,,,,,1.7,1.0,1.5*35
$GPGSV,3,1,10,21,65,321,25,29,57,128,26,18,54,215,32,30,30,279,34*7F
$GPGSV,3,2,10,26,23,066,22,16,21,311,19,22,14,221,40,05,11,045,24*71
$GPGSV,3,3,10,25,11,187,27,06,10,313,14*77
$GPRMC,233346.000,A,3748.7412,N,12217.9172,W,1.06,202.91,151012,,,A*74
$GPVTG,202.91,T,,M,1.06,N,2.0,K,A*00
$GPGGA,233347.000,3748.7407,N,12217.9174,W,1,07,1.0,38.2,M,-25.1,M,,0000*58
$GPGSA,A,3,18,05,30,16,29,22,25,,,,,,1.7,1.0,1.5*35
$GPRMC,233347.000,A,3748.7407,N,12217.9174,W,1.35,199.14,151012,,,A*7B
$GPVTG,199.14,T,,M,1.35,N,2.5,K,A*09
$GPGGA,233348.000,3748.7400,N,12217.9179,W,1,07,1.0,37.6,M,-25.1,M,,0000*56
$GPGSA,A,3,18,05,30,16,29,22,25,,,,,,1.7,1.0,1.5*35
$GPRMC,233348.000,A,3748.7400,N,12217.9179,W,2.18,214.03,151012,,,A*72
$GPVTG,214.03,T,,M,2.18,N,4.0,K,A*06
$GPGGA,233349.000,3748.7394,N,12217.9183,W,1,07,1.0,37.3,M,-25.1,M,,0000*5D
$GPGSA,A,3,18,05,30,16,29,22,25,,,,,,1.7,1.0,1.5*35
$GPRMC,233349.000,A,3748.7394,N,12217.9183,W,1.89,216.83,151012,,,A*7D
$GPVTG,216.83,T,,M,1.89,N,3.5,K,A*05
$GPGGA,233350.000,3748.7389,N,12217.9188,W,1,07,1.0,37.1,M,-25.1,M,,0000*50
$GPGSA,A,3,18,05,30,16,29,22,25,,,,,,1.7,1.0,1.5*35
$GPRMC,233350.000,A,3748.7389,N,12217.9188,W,1.91,209.26,151012,,,A*7A
$GPVTG,209.26,T,,M,1.91,N,3.5,K,A*0D
$GPGGA,233351.000,3748.7385,N,12217.9189,W,1,07,1.0,36.5,M,-25.1,M,,0000*59
$GPGSA,A,3,18,05,30,16,29,22,25,,,,,,1.7,1.0,1.5*35
$GPGSV,3,1,10,21,65,321,26,29,57,128,26,18,54,215,26,30,30,279,30*7D
$GPGSV,3,2,10,26,23,066,22,16,21,311,18,22,14,221,40,05,11,045,19*7E
$GPGSV,3,3,10,25,11,187,22,06,10,313,14*72
$GPRMC,233351.000,A,3748.7385,N,12217.9189,W,1.62,211.89,151012,,,A*76
$GPGGA,233352.000,3748.7383,N,12217.9194,W,1,07,1.0,35.4,M,-25.1,M,,0000*52
$GPGSA,A,3,18,05,30,16,29,22,25,,,,,,1.7,1.0,1.5*35
$GPRMC,233352.000,A,3748.7383,N,12217.9194,W,1.05,193.00,151012,,,A*76
$GPVTG,193.00,T,,M,1.05,N,1.9,K,A*0A
$GPGGA,233353.000,3748.7381,N,12217.9200,W,1,07,1.0,34.4,M,-25.1,M,,0000*5E
$GPGSA,A,3,18,05,30,16,29,22,25,,,,,,1.7,1.0,1.5*35
$GPRMC,233353.000,A,3748.7381,N,12217.9200,W,0.77,222.80,151012,,,A*7E
$GPVTG,222.80,T,,M,0.77,N,1.4,K,A*02
$GPGGA,233354.000,3748.7377,N,12217.9206,W,1,07,1.0,34.8,M,-25.1,M,,0000*5A
$GPGSA,A,3,18,05,30,16,29,22,25,,,,,,1.7,1.0,1.5*35
$GPRMC,233354.000,A,3748.7377,N,12217.9206,W,1.03,226.01,151012,,,A*79
$GPVTG,226.01,T,,M,1.03,N,1.9,K,A*00
$GPGGA,233355.000,3748.7372,N,12217.9208,W,1,07,1.0,34.6,M,-25.1,M,,0000*5E
$GPGSA,A,3,18,05,30,16,29,22,25,,,,,,1.7,1.0,1.5*35
$GPRMC,233355.000,A,3748.7372,N,12217.9208,W,1.00,182.63,151012,,,A*79
$GPVTG,182.63,T,,M,1.00,N,1.9,K,A*0A
$GPGGA,233356.000,3748.7368,N,12217.9217,W,1,07,1.0,34.1,M,-25.1,M,,0000*5F
$GPGSA,A,3,18,05,30,16,29,22,25,,,,,,1.7,1.0,1.5*35
$GPGSV,3,1,10,21,65,321,22,29,57,128,25,18,54,215,32,30,30,279,32*7D
$GPGSV,3,2,10,26,23,066,23,16,21,311,19,22,14,221,38,05,11,045,22*79
$GPGSV,3,3,10,25,11,187,21,06,10,313,15*70
$GPRMC,233356.000,A,3748.7368,N,12217.9217,W,1.75,210.66,151012,,,A*70
$GPVTG,210.66,T,,M,1.75,N,3.2,K,A*0C
$GPGGA,233357.000,3748.7364,N,12217.9222,W,1,07,1.0,33.2,M,-25.1,M,,0000*50
$GPGSA,A,3,18,05,30,16,29,22,25,,,,,,1.7,1.0,1.5*35
$GPRMC,233357.000,A,3748.7364,N,12217.9222,W,2.02,216.48,151012,,,A*72
$GPVTG,216.48,T,,M,2.02,N,3.7,K,A*00
$GPGGA,233358.000,3748.7359,N,12217.9227,W,1,07,1.0,32.4,M,-25.1,M,,0000*53
$GPGSA,A,3,18,05,30,16,29,22,25,,,,,,1.7,1.0,1.5*35
$GPRMC,233358.000,A,3748.7359,N,12217.9227,W,1.94,212.61,151012,,,A*75
$GPVTG,212.61,T,,M,1.94,N,3.6,K,A*02
$GPGGA,233359.000,3748.7354,N,12217.9230,W,1,07,1.0,31.8,M,-25.1,M,,0000*56
$GPGSA,A,3,18,05,30,16,29,22,25,,,,,,1.7,1.0,1.5*35
$GPRMC,233359.000,A,3748.7354,N,12217.9230,W,1.83,203.14,151012,,,A*7B
$GPVTG,203.14,T,,M,1.83,N,3.4,K,A*04
$GPGGA,233400.000,3748.7349,N,12217.9239,W,1,07,1.0,30.6,M,-25.1,M,,0000*57
$GPGSA,A,3,18,05,30,16,29,22,25,,,,,,1.7,1.0,1.5*35
$GPRMC,233400.000,A,3748.7349,N,12217.9239,W,1.65,218.41,151012,,,A*77
$GPVTG,218.41,T,,M,1.65,N,3.1,K,A*03
$GPGGA,233401.000,3748.7345,N,12217.9248,W,1,07,1.0,30.5,M,-25.1,M,,0000*5F
$GPGSA,A,3,18,05,30,16,29,22,25,,,,,,1.7,1.0,1.5*35
$GPGSV,3,1,10,21,65,321,24,29,57,128,25,18,54,215,32,30,30,279,32*7B
$GPGSV,3,2,10,26,23,066,22,16,21,311,23,22,14,221,37,05,11,045,22*7E
$GPGSV,3,3,10,25,11,187,21,06,10,313,17*72
$GPRMC,233401.000,A,3748.7345,N,12217.9248,W,1.88,228.29,151012,,,A*72
$GPVTG,228.29,T,,M,1.88,N,3.5,K,A*09
$GPGGA,233402.000,3748.7342,N,12217.9251,W,1,07,1.0,29.7,M,-25.1,M,,0000*59
$GPGSA,A,3,18,05,30,16,29,22,25,,,,,,1.7,1.0,1.5*35
$GPRMC,233402.000,A,3748.7342,N,12217.9251,W,1.48,220.15,151012,,,A*75
$GPVTG,220.15,T,,M,1.48,N,2.7,K,A*01
$GPGGA,233403.000,3748.7338,N,12217.9252,W,1,07,1.0,29.3,M,-25.1,M,,0000*52
$GPGSA,A,3,18,05,30,16,29,22,25,,,,,,1.7,1.0,1.5*35
$GPRMC,233403.000,A,3748.7338,N,12217.9252,W,1.84,208.94,151012,,,A*79
$GPVTG,208.94,T,,M,1.84,N,3.4,K,A*00
$GPGGA,233404.000,3748.7332,N,12217.9254,W,1,07,1.0,29.7,M,-25.1,M,,0000*5D
$GPGSA,A,3,18,05,30,16,29,22,25,,,,,,1.7,1.0,1.5*35
$GPRMC,233404.000,A,3748.7332,N,12217.9254,W,2.36,198.05,151012,,,A*7A
$GPVTG,198.05,T,,M,2.36,N,4.4,K,A*0F
$GPGGA,233405.000,3748.7325,N,12217.9266,W,1,07,1.0,30.6,M,-25.1,M,,0000*52
$GPGSA,A,3,18,05,30,16,29,22,25,,,,,,1.7,1.0,1.5*35
$GPRMC,233405.000,A,3748.7325,N,12217.9266,W,1.67,201.85,151012,,,A*70
$GPVTG,201.85,T,,M,1.67,N,3.1,K,A*01
$GPGGA,233406.000,3748.7322,N,12217.9270,W,1,07,1.0,30.3,M,-25.1,M,,0000*54
$GPGSA,A,3,18,05,30,16,29,22,25,,,,,,1.7,1.0,1.5*35
$GPGSV,3,1,10,21,65,321,24,29,57,128,25,18,54,215,33,30,30,279,32*7A
$GPGSV,3,2,10,26,23,066,22,16,21,311,21,22,14,221,37,05,11,045,19*74
$GPGSV,3,3,10,25,11,187,21,06,10,313,14*71
$GPVTG,231.16,T,,M,1.32,N,2.5,K,A*0D
$GPGGA,233407.000,3748.7319,N,12217.9268,W,1,07,1.0,30.1,M,-25.1,M,,0000*56
$GPGSA,A,3,18,05,30,16,29,22,25,,,,,,1.7,1.0,1.5*35
$GPRMC,233407.000,A,3748.7319,N,12217.9268,W,1.07,199.54,151012,,,A*7B
$GPVTG,199.54,T,,M,1.07,N,2.0,K,A*09
$GPGGA,233408.000,3748.7320,N,12217.9269,W,1,07,1.0,30.7,M,-25.1,M,,0000*54
$GPGSA,A,3,18,05,30,16,29,22,25,,,,,,1.7,1.0,1.5*35
$GPRMC,233408.000,A,3748.7320,N,12217.9269,W,0.86,227.80,151012,,,A*78
$GPVTG,227.80,T,,M,0.86,N,1.6,K,A*0B
$GPGGA,233409.000,3748.7318,N,12217.9272,W,1,07,1.0,32.1,M,-25.1,M,,0000*50
$GPGSA,A,3,18,05,30,16,29,22,25,,,,,,1.7,1.0,1.5*35
$GPRMC,233409.000,A,3748.7318,N,12217.9272,W,0.74,196.49,151012,,,A*79
$GPVTG,196.49,T,,M,0.74,N,1.4,K,A*08
$GPGGA,233410.000,3748.7317,N,12217.9267,W,1,07,1.0,33.5,M,-25.1,M,,0000*56
$GPGSA,A,3,18,05,30,16,29,22,25,,,,,,1.7,1.0,1.5*35
$GPRMC,233410.000,A,3748.7317,N,12217.9267,W,1.19,145.86,151012,,,A*7D
$GPVTG,145.86,T,,M,1.19,N,2.2,K,A*0A
$GPGGA,233411.000,3748.7314,N,12217.9260,W,1,07,1.0,34.6,M,-25.1,M,,0000*57
$GPGSA,A,3,18,05,30,16,29,22,25,,,,,,1.7,1.0,1.5*35
$GPGSV,3,1,10,21,65,322,25,29,57,129,25,18,55,215,32,30,30,278,32*78
$GPGSV,3,2,10,26,23,066,21,16,21,311,20,22,14,222,37,06,10,313,*7F
$GPGSV,3,3,10,05,10,045,18,25,10,187,20*7E
$GPRMC,233411.000,A,3748.7314,N,12217.9260,W,1.15,145.22,151012,,,A*7A
$GPVTG,145.22,T,,M,1.15,N,2.1,K,A*0B
$GPGGA,233412.000,3748.7310,N,12217.9259,W,1,07,1.0,34.7,M,-25.1,M,,0000*5B
$GPGSA,A,3,18,05,30,16,29,22,25,,,,,,1.7,1.0,1.5*35
$GPRMC,233412.000,A,3748.7310,N,12217.9259,W,0.95,161.18,151012,,,A*71
$GPVTG,161.18,T,,M,0.95,N,1.8,K,A*07
$GPGGA,233413.000,3748.7305,N,12217.9259,W,1,07,1.0,35.1,M,-25.1,M,,0000*59
$GPGSA,A,3,18,05,30,16,29,22,25,,,,,,1.7,1.0,1.5*35
$GPRMC,233413.000,A,3748.7305,N,12217.9259,W,0.91,171.07,151012,,,A*7F
$GPVTG,171.07,T,,M,0.91,N,1.7,K,A*03
$GPGGA,233414.000,3748.7300,N,12217.9257,W,1,07,1.0,35.6,M,-25.1,M,,0000*52
$GPGSA,A,3,18,05,30,16,29,22,25,,,,,,1.7,1.0,1.5*35
$GPRMC,233414.000,A,3748.7300,N,12217.9257,W,0.72,180.65,151012,,,A*74
$GPVTG,180.65,T,,M,0.72,N,1.3,K,A*00
$GPGGA,233415.000,3748.7297,N,12217.9261,W,1,07,1.0,35.5,M,-25.1,M,,0000*5A
$GPGSA,A,3,18,05,30,16,29,22,25,,,,,,1.7,1.0,1.5*35
$GPRMC,233415.000,A,3748.7297,N,12217.9261,W,0.89,192.52,151012,,,A*7C
$GPVTG,192.52,T,,M,0.89,N,1.6,K,A*06
$GPGGA,233416.000,3748.7293,N,12217.9268,W,1,07,1.0,35.8,M,-25.1,M,,0000*59
$GPGSA,A,3,18,05,30,16,29,22,25,,,,,,1.7,1.0,1.5*35
$GPGSV,3,1,10,21,65,322,25,29,57,129,26,18,55,215,33,30,30,278,37*7F
$GPGSV,3,2,10,26,23,066,21,16,21,311,25,22,14,222,37,06,10,313,*7A
$GPGSV,3,3,10,05,10,045,19,25,10,187,20*7F
$GPRMC,233416.000,A,3748.7293,N,12217.9268,W,1.37,208.68,151012,,,A*7F
$GPVTG,208.68,T,,M,1.37,N,2.5,K,A*0B
$GPGGA,233417.000,3748.7288,N,12217.9276,W,1,07,1.0,36.1,M,-25.1,M,,0000*57
$GPGSA,A,3,18,05,30,16,29,22,25,,,,,,1.7,1.0,1.5*35
$GPRMC,233417.000,A,3748.7288,N,12217.9276,W,2.30,222.44,151012,,,A*79
$GPVTG,222.44,T,,M,2.30,N,4.3,K,A*09
$GPGGA,233418.000,3748.7282,N,12217.9283,W,1,07,1.0,36.2,M,-25.1,M,,0000*5B
$GPGSA,A,3,18,05,30,16,29,22,25,,,,,,1.7,1.0,1.5*35
$GPRMC,233418.000,A,3748.7282,N,12217.9283,W,1.97,215.85,151012,,,A*71
$GPVTG,215.85,T,,M,1.97,N,3.7,K,A*0D
$GPGGA,233419.000,3748.7279,N,12217.9288,W,1,07,1.0,35.7,M,-25.1,M,,0000*53
$GPGSA,A,3,18,05,30,16,29,22,25,,,,,,1.7,1.0,1.5*35
$GPRMC,233419.000,A,3748.7279,N,12217.9288,W,1.43,214.92,151012,,,A*71
$GPVTG,214.92,T,,M,1.43,N,2.6,K,A*03
$GPGGA,233420.000,3748.7275,N,12217.9293,W,1,07,1.0,35.7,M,-25.1,M,,0000*5F
$GPGSA,A,3,18,05,30,16,29,22,25,,,,,,1.7,1.0,1.5*35
$GPRMC,233420.000,A,3748.7275,N,12217.9293,W,1.08,219.52,151012,,,A*73
$GPVTG,219.52,T,,M,1.08,N,2.0,K,A*0B
$GPGGA,233421.000,3748.7272,N,12217.9300,W,1,07,1.0,35.7,M,-25.1,M,,0000*52
$GPGSA,A,3,18,05,30,16,29,22,25,,,,,,1.7,1.0,1.5*35
$GPGSV,3,1,10,21,65,322,26,29,57,129,26,18,55,215,33,30,30,278,36*7D
$GPGSV,3,2,10,26,23,066,20,16,21,311,21,22,14,222,38,06,11,313,*71
$GPGSV,3,3,10,05,10,045,19,25,10,187,19*75
$GPRMC,233421.000,A,3748.7272,N,12217.9300,W,1.02,231.79,151012,,,A*77
$GPGGA,233422.000,3748.7269,N,12217.9307,W,1,07,1.0,35.4,M,-25.1,M,,0000*5F
$GPGSA,A,3,18,05,30,16,29,22,25,,,,,,1.7,1.0,1.5*35
$GPRMC,233422.000,A,3748.7269,N,12217.9307,W,1.13,214.54,151012,,,A*71
$GPVTG,214.54,T,,M,1.13,N,2.1,K,A*0B
$GPGGA,233423.000,3748.7264,N,12217.9315,W,1,07,1.0,33.4,M,-25.1,M,,0000*56
$GPGSA,A,3,18,05,30,16,29,22,25,,,,,,1.7,1.0,1.5*35
$GPRMC,233423.000,A,3748.7264,N,12217.9315,W,1.68,204.38,151012,,,A*79
$GPVTG,204.38,T,,M,1.68,N,3.1,K,A*0D
$GPGGA,233424.000,3748.7258,N,12217.9319,W,1,07,1.0,32.7,M,-25.1,M,,0000*50
$GPGSA,A,3,18,05,30,16,29,22,25,,,,,,1.7,1.0,1.5*35
$GPRMC,233424.000,A,3748.7258,N,12217.9319,W,2.21,209.61,151012,,,A*72
$GPVTG,209.61,T,,M,2.21,N,4.1,K,A*05
$GPGGA,233425.000,3748.7249,N,12217.9323,W,1,07,1.0,32.9,M,-25.1,M,,0000*56
$GPGSA,A,3,18,05,30,16,29,22,25,,,,,,1.7,1.0,1.5*35
$GPRMC,233425.000,A,3748.7249,N,12217.9323,W,2.29,216.60,151012,,,A*7D
$GPVTG,216.60,T,,M,2.29,N,4.2,K,A*01
$GPGGA,233426.000,3748.7243,N,12217.9333,W,1,07,1.0,33.1,M,-25.1,M,,0000*57
$GPGSA,A,3,18,05,30,16,29,22,25,,,,,,1.7,1.0,1.5*35
$GPGSV,3,1,10,21,65,322,26,29,57,129,23,18,55,215,33,30,30,278,36*78
$GPGSV,3,2,10,26,23,066,19,16,21,311,21,22,14,222,36,06,11,313,*75
$GPGSV,3,3,10,05,10,045,18,25,10,187,20*7E
$GPRMC,233426.000,A,3748.7243,N,12217.9333,W,2.06,213.62,151012,,,A*7F
$GPVTG,213.62,T,,M,2.06,N,3.8,K,A*06
$GPGGA,233427.000,3748.7234,N,12217.9338,W,1,07,1.0,32.5,M,-25.1,M,,0000*58
$GPGSA,A,3,18,05,30,16,29,22,25,,,,,,1.7,1.0,1.5*35
$GPRMC,233427.000,A,3748.7234,N,12217.9338,W,1.45,205.65,151012,,,A*71
$GPVTG,205.65,T,,M,1.45,N,2.7,K,A*0C
$GPGGA,233428.000,3748.7226,N,12217.9344,W,1,07,1.0,31.5,M,-25.1,M,,0000*5C
$GPGSA,A,3,18,05,30,16,29,22,25,,,,,,1.7,1.0,1.5*35
$GPRMC,233428.000,A,3748.7226,N,12217.9344,W,1.72,210.19,151012,,,A*7D
$GPVTG,210.19,T,,M,1.72,N,3.2,K,A*03
$GPGGA,233429.000,3748.7217,N,12217.9346,W,1,07,1.0,30.7,M,-25.1,M,,0000*5E
$GPGSA,A,3,18,05,30,16,29,22,25,,,,,,1.7,1.0,1.5*35
$GPRMC,233429.000,A,3748.7217,N,12217.9346,W,1.75,193.77,151012,,,A*7B
$GPVTG,193.77,T,,M,1.75,N,3.2,K,A*04
$GPGGA,233430.000,3748.7209,N,12217.9351,W,1,07,1.0,29.9,M,-25.1,M,,0000*59
$GPGSA,A,3,18,05,30,16,29,22,25,,,,,,1.7,1.0,1.5*35
$GPRMC,233430.000,A,3748.7209,N,12217.9351,W,1.39,179.24,151012,,,A*70
$GPVTG,179.24,T,,M,1.39,N,2.6,K,A*0B
$GPGGA,233431.000,3748.7205,N,12217.9348,W,1,07,1.0,30.2,M,-25.1,M,,0000*5F
$GPGSA,A,3,18,05,30,16,29,22,25,,,,,,1.7,1.0,1.5*35
$GPGSV,3,1,10,21,65,322,25,29,57,129,23,18,55,215,33,30,30,278,35*78
$GPGSV,3,2,10,26,23,066,19,16,21,311,21,22,14,222,35,06,11,313,*76
$GPGSV,3,3,10,05,10,045,17,25,10,187,20*71
$GPRMC,233431.000,A,3748.7205,N,12217.9348,W,1.02,127.32,151012,,,A*71
$GPVTG,127.32,T,,M,1.02,N,1.9,K,A*03
$GPGGA,233432.000,3748.7202,N,12217.9348,W,1,07,1.0,30.5,M,-25.1,M,,0000*5C
$GPGSA,A,3,18,05,30,16,29,22,25,,,,,,1.7,1.0,1.5*35
$GPRMC,233432.000,A,3748.7202,N,12217.9348,W,0.91,172.78,151012,,,A*70
$GPVTG,172.78,T,,M,0.91,N,1.7,K,A*08
$GPGGA,233433.000,3748.7198,N,12217.9344,W,1,07,1.0,31.1,M,-25.1,M,,0000*54
$GPGSA,A,3,18,05,30,16,29,22,25,,,,,,1.7,1.0,1.5*35
$GPRMC,233433.000,A,3748.7198,N,12217.9344,W,0.48,139.54,151012,,,A*78
$GPVTG,139.54,T,,M,0.48,N,0.9,K,A*02
$GPGGA,233434.000,3748.7196,N,12217.9344,W,1,06,1.1,31.7,M,-25.1,M,,0000*5B
$GPGSA,A,3,18,05,30,16,29,22,,,,,,,2.2,1.1,1.8*38
$GPRMC,233434.000,A,3748.7196,N,12217.9344,W,0.41,20.85,151012,,,A*4D
$GPVTG,20.85,T,,M,0.41,N,0.8,K,A*3F
$GPGGA,233435.000,3748.7196,N,12217.9347,W,1,07,1.0,31.8,M,-25.1,M,,0000*56
$GPGSA,A,3,18,05,30,16,29,22,25,,,,,,1.7,1.0,1.5*35
$GPRMC,233435.000,A,3748.7196,N,12217.9347,W,0.47,12.43,151012,,,A*42
$GPVTG,12.43,T,,M,0.47,N,0.9,K,A*33
$GPGGA,233436.000,3748.7193,N,12217.9343,W,1,07,1.0,32.8,M,-25.1,M,,0000*57
$GPGSA,A,3,18,05,30,16,29,22,25,,,,,,1.7,1.0,1.5*35
$GPGSV,3,1,10,21,65,322,21,29,57,129,23,18,55,215,34,30,30,278,32*7C
$GPGSV,3,2,10,26,23,066,18,16,21,311,25,22,14,222,39,06,11,313,*7F
$GPGSV,3,3,10,05,10,045,17,25,10,187,13*71
$GPRMC,233436.000,A,3748.7193,N,12217.9343,W,0.26,49.28,151012,,,A*44
$GPGGA,233437.000,3748.7190,N,12217.9346,W,1,07,1.0,33.9,M,-25.1,M,,0000*50
$GPGSA,A,3,18,05,30,16,29,22,25,,,,,,1.7,1.0,1.5*35
$GPRMC,233437.000,A,3748.7190,N,12217.9346,W,0.57,344.78,151012,,,A*7E
$GPVTG,344.78,T,,M,0.57,N,1.1,K,A*03
$GPGGA,233438.000,3748.7187,N,12217.9352,W,1,07,1.0,33.8,M,-25.1,M,,0000*5D
$GPGSA,A,3,18,05,30,16,29,22,25,,,,,,1.7,1.0,1.5*35
$GPRMC,233438.000,A,3748.7187,N,12217.9352,W,0.78,329.36,151012,,,A*7E
$GPVTG,329.36,T,,M,0.78,N,1.4,K,A*0A
$GPGGA,233439.000,3748.7185,N,12217.9355,W,1,07,1.0,33.5,M,-25.1,M,,0000*54
$GPGSA,A,3,18,05,30,16,29,22,25,,,,,,1.7,1.0,1.5*35
$GPRMC,233439.000,A,3748.7185,N,12217.9355,W,0.92,325.64,151012,,,A*75
$GPVTG,325.64,T,,M,0.92,N,1.7,K,A*06
$GPGGA,233440.000,3748.7178,N,12217.9357,W,1,07,1.0,33.7,M,-25.1,M,,0000*58
$GPGSA,A,3,18,05,30,16,29,22,25,,,,,,1.7,1.0,1.5*35
$GPRMC,233440.000,A,3748.7178,N,12217.9357,W,0.63,332.55,151012,,,A*71
$GPVTG,332.55,T,,M,0.63,N,1.2,K,A*09
$GPGGA,233441.000,3748.7173,N,12217.9356,W,1,07,1.0,33.2,M,-25.1,M,,0000*56
$GPGSA,A,3,18,05,30,16,29,22,25,,,,,,1.7,1.0,1.5*35
$GPGSV,3,1,10,21,65,322,23,29,57,129,18,18,55,215,29,30,30,278,23*7A
$GPGSV,3,2,10,26,23,066,09,16,21,311,25,22,14,222,32,06,11,313,15*70
$GPGSV,3,3,10,05,10,045,18,25,10,187,16*7B
$GPRMC,233441.000,A,3748.7173,N,12217.9356,W,0.95,307.68,151012,,,A*7B
$GPVTG,307.68,T,,M,0.95,N,1.8,K,A*02
$GPGGA,233442.000,3748.7171,N,12217.9356,W,1,07,1.0,32.2,M,-25.1,M,,0000*56
$GPGSA,A,3,18,05,30,16,29,22,25,,,,,,1.7,1.0,1.5*35
$GPRMC,233442.000,A,3748.7171,N,12217.9356,W,0.12,301.23,151012,,,A*7C
$GPVTG,301.23,T,,M,0.12,N,0.2,K,A*0F
$GPGGA,233443.000,3748.7169,N,12217.9358,W,1,07,1.0,31.2,M,-25.1,M,,0000*53
$GPGSA,A,3,18,05,30,16,29,22,25,,,,,,1.7,1.0,1.5*35
$GPRMC,233443.000,A,3748.7169,N,12217.9358,W,0.47,284.63,151012,,,A*72
$GPVTG,284.63,T,,M,0.47,N,0.9,K,A*0C
$GPGGA,233444.000,3748.7164,N,12217.9357,W,1,06,1.1,30.2,M,-25.1,M,,0000*57
$GPGSA,A,3,18,05,30,16,22,25,,,,,,,2.3,1.1,2.0*3E
$GPRMC,233444.000,A,3748.7164,N,12217.9357,W,0.24,209.42,151012,,,A*74
$GPVTG,209.42,T,,M,0.24,N,0.5,K,A*03
$GPGGA,233445.000,3748.7160,N,12217.9352,W,1,07,1.0,29.9,M,-25.1,M,,0000*54
$GPGSA,A,3,18,05,30,16,29,22,25,,,,,,1.7,1.0,1.5*35
$GPRMC,233445.000,A,3748.7160,N,12217.9352,W,0.56,116.31,151012,,,A*78
$GPVTG,116.31,T,,M,0.56,N,1.0,K,A*0B
$GPGGA,233446.000,3748.7154,N,12217.9342,W,1,07,1.0,29.9,M,-25.1,M,,0000*51
$GPGSA,A,3,18,05,30,16,29,22,25,,,,,,1.7,1.0,1.5*35
$GPGSV,3,1,10,21,65,322,17,29,57,129,20,18,55,215,31,30,30,278,25*79
$GPGSV,3,2,10,26,23,066,17,16,21,311,26,22,14,222,32,06,11,313,14*7D
$GPGSV,3,3,10,05,10,045,17,25,10,187,16*74
$GPRMC,233446.000,A,3748.7154,N,12217.9342,W,0.91,117.12,151012,,,A*76
$GPVTG,117.12,T,,M,0.91,N,1.7,K,A*07
$GPGGA,233447.000,3748.7151,N,12217.9335,W,1,07,1.0,29.6,M,-25.1,M,,0000*5A
$GPGSA,A,3,18,05,30,16,29,22,25,,,,,,1.7,1.0,1.5*35
$GPRMC,233447.000,A,3748.7151,N,12217.9335,W,0.85,121.27,151012,,,A*74
$GPVTG,121.27,T,,M,0.85,N,1.6,K,A*00
$GPGGA,233448.000,3748.7142,N,12217.9333,W,1,07,1.0,28.5,M,-25.1,M,,0000*53
$GPGSA,A,3,18,05,30,16,29,22,25,,,,,,1.7,1.0,1.5*35
$GPRMC,233448.000,A,3748.7142,N,12217.9333,W,0.78,117.65,151012,,,A*7E
$GPVTG,117.65,T,,M,0.78,N,1.4,K,A*03
$GPGGA,233449.000,3748.7133,N,12217.9323,W,1,07,1.0,29.0,M,-25.1,M,,0000*51
$GPGSA,A,3,18,05,30,16,29,22,25,,,,,,1.7,1.0,1.5*35
$GPRMC,233449.000,A,3748.7133,N,12217.9323,W,1.40,96.67,151012,,,A*48
$GPVTG,96.67,T,,M,1.40,N,2.6,K,A*32
$GPGGA,233450.000,3748.7132,N,12217.9318,W,1,07,1.0,28.7,M,-25.1,M,,0000*56
$GPGSA,A,3,18,05,30,16,29,22,25,,,,,,1.7,1.0,1.5*35
$GPRMC,233450.000,A,3748.7132,N,12217.9318,W,1.78,79.51,151012,,,A*46
$GPVTG,79.51,T,,M,1.78,N,3.3,K,A*39
$GPGGA,233451.000,3748.7132,N,12217.9318,W,1,07,1.0,28.0,M,-25.1,M,,0000*50
$GPGSA,A,3,18,05,30,16,29,22,25,,,,,,1.7,1.0,1.5*35
