$ADVER,3080,2.3
$GPRMC,204857.277,A,3748.6057,N,12217.9688,W,2.56,75.03,240511,,,A*45
$GPGGA,204858.277,3748.6010,N,12217.9715,W,1,04,2.1,0.5,M,-25.1,M,,0000*64
$GPGSA,A,3,07,10,32,08,,,,,,,,,4.5,2.1,4.0*3B
$GPRMC,204858.277,A,3748.6010,N,12217.9715,W,2.90,72.99,240511,,,A*42
$GPVTG,72.99,T,,M,2.90,N,5.4,K,A*32
$GPGGA,204859.277,3748.6036,N,12217.9712,W,1,04,2.1,-1.8,M,-25.1,M,,0000*47
$GPGSA,A,3,07,10,32,08,,,,,,,,,4.5,2.1,4.0*3B
$GPRMC,204859.277,A,3748.6036,N,12217.9712,W,3.38,61.39,240511,,,A*4B
$GPVTG,61.39,T,,M,3.38,N,6.3,K,A*3D
$GPGGA,204900.000,3748.6040,N,12217.9707,W,1,04,2.1,-4.0,M,-25.1,M,,0000*40
$GPGSA,A,3,07,10,32,08,,,,,,,,,4.5,2.1,4.0*3B
$GPRMC,204900.000,A,3748.6040,N,12217.9707,W,2.67,77.09,240511,,,A*4E
$GPVTG,77.09,T,,M,2.67,N,5.0,K,A*32
$GPGGA,204901.000,3748.6030,N,12217.9703,W,1,04,2.1,3.5,M,-25.1,M,,0000*6D
$GPGSA,A,3,07,10,32,08,,,,,,,,,4.5,2.1,4.0*3B
$GPRMC,204901.000,A,3748.6030,N,12217.9703,W,1.41,110.84,240511,,,A*7E
$GPVTG,110.84,T,,M,1.41,N,2.6,K,A*01
$GPGGA,204902.000,3748.6043,N,12217.9670,W,1,04,2.1,11.2,M,-25.1,M,,0000*5B
$GPGSA,A,3,07,10,32,08,,,,,,,,,4.5,2.1,4.0*3B
$GPGSV,3,1,12,07,43,265,29,10,31,308,23,08,17,250,22,32,15,160,26*74
$GPGSV,3,2,12,13,65,342,26,23,64,082,34,16,41,054,31,20,32,178,33*79
$GPRMC,204902.000,A,3748.6043,N,12217.9670,W,2.69,74.47,240511,,,A*49
$GPVTG,74.47,T,,M,2.69,N,5.0,K,A*35
$GPGGA,204903.000,3748.6054,N,12217.9612,W,1,05,1.5,18.3,M,-25.1,M,,0000*56
$GPGSA,A,3,07,10,03,32,08,,,,,,,,4.2,1.5,3.9*36
$GPRMC,204903.000,A,3748.6054,N,12217.9612,W,2.23,82.55,240511,,,A*4E
$GPVTG,82.55,T,,M,2.23,N,4.1,K,A*31
$GPGGA,204904.000,3748.6068,N,12217.9585,W,1,05,1.5,21.2,M,-25.1,M,,0000*58
$GPGSA,A,3,07,10,03,32,08,,,,,,,,4.2,1.5,3.9*36
$GPRMC,204904.000,A,3748.6068,N,12217.9585,W,2.15,91.06,240511,,,A*4A
$GPVTG,91.06,T,,M,2.15,N,4.0,K,A*31
$GPGGA,204905.000,3748.6059,N,12217.9578,W,1,05,1.5,20.6,M,-25.1,M,,0000*5C
$GPGSA,A,3,07,10,03,32,08,,,,,,,,4.2,1.5,3.9*36
$GPRMC,204905.000,A,3748.6059,N,12217.9578,W,1.43,107.36,240511,,,A*76
$GPVTG,107.36,T,,M,1.43,N,2.6,K,A*0C
$GPGGA,204906.000,3748.6056,N,12217.9576,W,1,05,1.5,17.5,M,-25.1,M,,0000*59
$GPGSA,A,3,07,10,03,32,08,,,,,,,,4.2,1.5,3.9*36
$GPRMC,204906.000,A,3748.6056,N,12217.9576,W,1.14,76.89,240511,,,A*45
$GPVTG,76.89,T,,M,1.14,N,2.1,K,A*3A
$GPGGA,204907.000,3748.6044,N,12217.9568,W,1,05,1.5,19.5,M,-25.1,M,,0000*5A
$GPGSA,A,3,07,10,03,32,08,,,,,,,,4.2,1.5,3.9*36
$GPGSV,3,1,12,13,65,342,26,23,64,082,34,07,43,265,27,16,41,054,32*70
$GPGSV,3,2,12,20,32,178,38,10,31,308,23,03,18,106,27,08,17,250,25*72
$GPGSV,3,3,12,32,15,160,28,06,14,091,22,04,08,268,20,19,03,132,*70
$GPRMC,204907.000,A,3748.6044,N,12217.9568,W,1.22,106.18,240511,,,A*73
$GPVTG,106.18,T,,M,1.22,N,2.3,K,A*03
$GPGGA,204908.000,3748.6030,N,12217.9562,W,1,05,1.5,19.1,M,-25.1,M,,0000*58
$GPGSA,A,3,07,10,03,32,08,,,,,,,,4.2,1.5,3.9*36
$GPRMC,204908.000,A,3748.6030,N,12217.9562,W,1.88,129.52,240511,,,A*76
$GPVTG,129.52,T,,M,1.88,N,3.5,K,A*07
$GPGGA,204909.000,3748.6016,N,12217.9557,W,2,05,1.5,17.3,M,-25.1,M,1.8,0000*73
$GPGSA,A,3,07,10,03,32,08,,,,,,,,4.2,1.5,3.9*36
$GPRMC,204909.000,A,3748.6016,N,12217.9557,W,2.04,133.40,240511,,,D*7F
$GPVTG,133.40,T,,M,2.04,N,3.8,K,D*00
$GPGGA,204910.000,3748.6008,N,12217.9550,W,2,05,1.5,17.9,M,-25.1,M,1.8,0000*79
$GPGSA,A,3,07,10,03,32,08,,,,,,,,4.2,1.5,3.9*36
$GPRMC,204910.000,A,3748.6008,N,12217.9550,W,2.38,136.54,240511,,,D*70
$GPVTG,136.54,T,,M,2.38,N,4.4,K,D*04
$GPGGA,204911.000,3748.5998,N,12217.9540,W,2,05,1.5,18.3,M,-25.1,M,1.8,0000*7F
$GPGSA,A,3,07,10,03,32,08,,,,,,,,4.2,1.5,3.9*36
$GPRMC,204911.000,A,3748.5998,N,12217.9540,W,2.15,126.42,240511,,,D*7A
$GPVTG,126.42,T,,M,2.15,N,4.0,K,D*09
$GPGGA,204912.000,3748.5988,N,12217.9530,W,2,05,1.5,18.7,M,-25.1,M,2.8,0000*7D
$GPGSA,A,3,07,10,03,32,08,,,,,,,,4.2,1.5,3.9*36
$GPGSV,3,1,12,13,65,342,27,23,63,082,34,07,43,265,27,16,41,054,33*77
$GPGSV,3,2,12,20,32,178,39,10,31,308,23,03,18,106,33,08,17,250,25*76
$GPGSV,3,3,12,32,15,160,29,06,14,090,19,04,08,268,20,19,03,132,*78
$GPRMC,204912.000,A,3748.5988,N,12217.9530,W,2.14,122.54,240511,,,D*7D
$GPVTG,122.54,T,,M,2.14,N,4.0,K,D*0B
$GPGGA,204913.000,3748.5981,N,12217.9522,W,2,05,1.5,18.1,M,-25.1,M,3.8,0000*71
$GPGSA,A,3,07,10,03,32,08,,,,,,,,4.2,1.5,3.9*36
$GPRMC,204913.000,A,3748.5981,N,12217.9522,W,1.58,120.77,240511,,,D*7E
$GPVTG,120.77,T,,M,1.58,N,2.9,K,D*0C
$GPGGA,204914.000,3748.5968,N,12217.9516,W,2,05,1.5,19.2,M,-25.1,M,4.8,0000*73
$GPGSA,A,3,07,10,03,32,08,,,,,,,,4.2,1.5,3.9*36
$GPRMC,204914.000,A,3748.5968,N,12217.9516,W,2.13,125.53,240511,,,D*76
$GPVTG,125.53,T,,M,2.13,N,4.0,K,D*0C
$GPGGA,204915.000,3748.5964,N,12217.9509,W,2,05,1.5,16.7,M,-25.1,M,1.8,0000*7F
$GPGSA,A,3,07,10,03,32,08,,,,,,,,4.2,1.5,3.9*36
$GPRMC,204915.000,A,3748.5964,N,12217.9509,W,2.07,127.72,240511,,,D*71
$GPVTG,127.72,T,,M,2.07,N,3.8,K,D*07
$GPGGA,204916.000,3748.5951,N,12217.9505,W,2,05,1.5,15.7,M,-25.1,M,1.8,0000*75
$GPGSA,A,3,07,10,03,32,08,,,,,,,,4.2,1.5,3.9*36
$GPRMC,204916.000,A,3748.5951,N,12217.9505,W,1.74,119.52,240511,,,D*70
$GPVTG,119.52,T,,M,1.74,N,3.2,K,D*05
$GPGGA,204917.000,3748.5947,N,12217.9500,W,2,05,1.5,13.2,M,-25.1,M,1.8,0000*75
$GPGSA,A,3,07,10,03,32,08,,,,,,,,4.2,1.5,3.9*36
$GPGSV,3,1,12,13,65,342,27,23,63,082,34,07,43,265,26,16,41,054,33*76
$GPGSV,3,2,12,20,32,178,39,10,31,308,23,03,18,106,42,08,17,251,25*71
$GPGSV,3,3,12,32,15,160,35,06,14,090,19,04,07,268,20,19,03,132,*7A
$GPRMC,204917.000,A,3748.5947,N,12217.9500,W,1.58,111.08,240511,,,D*7A
$GPVTG,111.08,T,,M,1.58,N,2.9,K,D*06
$GPGGA,204918.000,3748.5946,N,12217.9497,W,2,05,1.5,10.9,M,-25.1,M,2.8,0000*7F
$GPGSA,A,3,07,10,03,32,08,,,,,,,,4.2,1.5,3.9*36
$GPRMC,204918.000,A,3748.5946,N,12217.9497,W,1.37,101.89,240511,,,D*7A
$GPVTG,101.89,T,,M,1.37,N,2.5,K,D*0B
$GPGGA,204919.000,3748.5939,N,12217.9493,W,2,05,1.5,11.2,M,-25.1,M,3.8,0000*79
$GPGSA,A,3,07,10,03,32,08,,,,,,,,4.2,1.5,3.9*36
$GPRMC,204919.000,A,3748.5939,N,12217.9493,W,1.42,101.88,240511,,,D*74
$GPVTG,101.88,T,,M,1.42,N,2.6,K,D*0B
$GPGGA,204920.000,3748.5934,N,12217.9488,W,2,05,1.5,10.6,M,-25.1,M,4.8,0000*76
$GPGSA,A,3,07,10,03,32,08,,,,,,,,4.2,1.5,3.9*36
$GPRMC,204920.000,A,3748.5934,N,12217.9488,W,2.04,120.62,240511,,,D*7F
$GPVTG,120.62,T,,M,2.04,N,3.8,K,D*02
$GPGGA,204921.000,3748.5929,N,12217.9482,W,2,05,1.5,9.7,M,-25.1,M,1.8,0000*4D
$GPGSA,A,3,07,10,03,32,08,,,,,,,,4.2,1.5,3.9*36
$GPRMC,204921.000,A,3748.5929,N,12217.9482,W,2.59,125.21,240511,,,D*72
$GPVTG,125.21,T,,M,2.59,N,4.8,K,D*0F
$GPGGA,204922.000,3748.5925,N,12217.9475,W,2,05,1.5,8.7,M,-25.1,M,1.8,0000*4B
$GPGSA,A,3,07,10,03,32,08,,,,,,,,4.2,1.5,3.9*36
$GPGSV,3,1,12,13,65,342,27,23,63,082,34,07,43,265,27,16,41,054,23*76
$GPGSV,3,2,12,20,32,178,39,10,31,308,22,03,18,106,33,08,17,251,32*70
$GPGSV,3,3,12,32,15,160,39,06,14,090,19,04,07,268,19,19,03,132,*7C
$GPRMC,204922.000,A,3748.5925,N,12217.9475,W,2.52,120.64,240511,,,D*7A
$GPGGA,204923.000,3748.5922,N,12217.9468,W,2,05,1.5,8.0,M,-25.1,M,1.8,0000*46
$GPGSA,A,3,07,10,03,32,08,,,,,,,,4.2,1.5,3.9*36
$GPRMC,204923.000,A,3748.5922,N,12217.9468,W,2.34,114.99,240511,,,D*75
$GPVTG,114.99,T,,M,2.34,N,4.3,K,D*0E
$GPGGA,204924.000,3748.5913,N,12217.9460,W,2,05,1.5,8.7,M,-25.1,M,2.8,0000*4F
$GPGSA,A,3,07,10,03,32,08,,,,,,,,4.2,1.5,3.9*36
$GPRMC,204924.000,A,3748.5913,N,12217.9460,W,2.46,127.92,240511,,,D*76
$GPVTG,127.92,T,,M,2.46,N,4.6,K,D*05
$GPGGA,204925.000,3748.5907,N,12217.9453,W,2,05,1.5,9.4,M,-25.1,M,3.8,0000*48
$GPGSA,A,3,07,10,03,32,08,,,,,,,,4.2,1.5,3.9*36
$GPRMC,204925.000,A,3748.5907,N,12217.9453,W,2.57,127.40,240511,,,D*7D
$GPVTG,127.40,T,,M,2.57,N,4.8,K,D*04
$GPGGA,204926.000,3748.5897,N,12217.9448,W,2,05,1.5,11.9,M,-25.1,M,4.8,0000*7A
$GPGSA,A,3,07,10,03,32,08,,,,,,,,4.2,1.5,3.9*36
$GPRMC,204926.000,A,3748.5897,N,12217.9448,W,2.42,132.83,240511,,,D*73
$GPVTG,132.83,T,,M,2.42,N,4.5,K,D*06
$GPGGA,204927.000,3748.5886,N,12217.9444,W,2,05,1.5,14.1,M,-25.1,M,5.8,0000*7B
$GPGSA,A,3,07,10,03,32,08,,,,,,,,4.2,1.5,3.9*36
$GPGSV,3,1,12,13,65,342,27,23,63,082,34,07,43,265,27,16,41,054,25*70
$GPGSV,3,2,12,20,32,178,38,10,31,308,22,03,18,106,25,08,17,251,25*70
$GPGSV,3,3,12,32,15,160,39,06,14,090,19,04,07,268,22,19,03,132,*74
$GPRMC,204927.000,A,3748.5886,N,12217.9444,W,2.38,147.39,240511,,,D*70
$GPVTG,147.39,T,,M,2.38,N,4.4,K,D*09
$GPGGA,204928.000,3748.5878,N,12217.9436,W,2,05,1.5,15.6,M,-25.1,M,6.8,0000*75
$GPGSA,A,3,07,10,03,32,08,,,,,,,,4.2,1.5,3.9*36
$GPRMC,204928.000,A,3748.5878,N,12217.9436,W,2.27,136.45,240511,,,D*78
$GPVTG,136.45,T,,M,2.27,N,4.2,K,D*0C
$GPGGA,204929.000,3748.5870,N,12217.9432,W,2,05,1.5,17.7,M,-25.1,M,7.8,0000*7A
$GPGSA,A,3,07,10,03,32,08,,,,,,,,4.2,1.5,3.9*36
$GPRMC,204929.000,A,3748.5870,N,12217.9432,W,2.05,158.52,240511,,,D*7B
$GPVTG,158.52,T,,M,2.05,N,3.8,K,D*0F
$GPGGA,204930.000,3748.5862,N,12217.9429,W,2,05,1.5,21.3,M,-25.1,M,8.8,0000*75
$GPGSA,A,3,07,10,03,32,08,,,,,,,,4.2,1.5,3.9*36
$GPRMC,204930.000,A,3748.5862,N,12217.9429,W,2.13,169.88,240511,,,D*78
$GPVTG,169.88,T,,M,2.13,N,3.9,K,D*0C
$GPGGA,204931.000,3748.5851,N,12217.9427,W,2,05,1.5,25.7,M,-25.1,M,9.8,0000*7B
$GPGSA,A,3,07,10,03,32,08,,,,,,,,4.2,1.5,3.9*36
$GPRMC,204931.000,A,3748.5851,N,12217.9427,W,1.72,160.33,240511,,,D*7A
$GPVTG,160.33,T,,M,1.72,N,3.2,K,D*0A
$GPGGA,204932.000,3748.5845,N,12217.9421,W,2,05,1.5,28.2,M,-25.1,M,10.8,0000*4B
$GPGSA,A,3,07,10,03,32,08,,,,,,,,4.2,1.5,3.9*36
$GPGSV,3,1,12,13,65,342,27,23,63,082,34,07,43,265,27,16,41,054,31*75
$GPGSV,3,2,12,20,32,178,38,10,31,308,22,03,18,106,21,08,17,251,23*72
$GPGSV,3,3,12,32,15,160,39,06,14,090,18,04,07,268,26,19,03,132,*71
$GPRMC,204932.000,A,3748.5845,N,12217.9421,W,1.47,145.17,240511,,,D*7D
$GPVTG,145.17,T,,M,1.47,N,2.7,K,D*09
$GPGGA,204933.000,3748.5841,N,12217.9414,W,2,05,1.5,28.9,M,-25.1,M,11.8,0000*42
$GPGSA,A,3,07,10,03,32,08,,,,,,,,4.2,1.5,3.9*36
$GPRMC,204933.000,A,3748.5841,N,12217.9414,W,1.43,162.69,240511,,,D*76
$GPVTG,162.69,T,,M,1.43,N,2.6,K,D*00
$GPGGA,204934.000,3748.5840,N,12217.9408,W,2,05,1.5,28.5,M,-25.1,M,12.8,0000*46
$GPGSA,A,3,07,10,03,32,08,,,,,,,,4.2,1.5,3.9*36
$GPRMC,204934.000,A,3748.5840,N,12217.9408,W,1.21,144.28,240511,,,D*78
$GPVTG,144.28,T,,M,1.21,N,2.2,K,D*01
$GPGGA,204935.000,3748.5840,N,12217.9398,W,2,05,1.5,30.0,M,-25.1,M,13.8,0000*44
$GPGSA,A,3,07,10,03,32,08,,,,,,,,4.2,1.5,3.9*36
$GPRMC,204935.000,A,3748.5840,N,12217.9398,W,1.36,101.12,240511,,,D*79
$GPVTG,101.12,T,,M,1.36,N,2.5,K,D*08
$GPGGA,204936.000,3748.5845,N,12217.9384,W,2,05,1.5,28.4,M,-25.1,M,14.8,0000*45
$GPGSA,A,3,07,10,03,32,08,,,,,,,,4.2,1.5,3.9*36
$GPRMC,204936.000,A,3748.5845,N,12217.9384,W,2.26,107.32,240511,,,D*74
$GPVTG,107.32,T,,M,2.26,N,4.2,K,D*0F
$GPGGA,204937.000,3748.5837,N,12217.9378,W,2,05,1.5,27.4,M,-25.1,M,15.8,0000*4C
$GPGSA,A,3,07,10,03,32,08,,,,,,,,4.2,1.5,3.9*36
$GPGSV,3,1,12,13,65,342,17,23,63,082,21,07,43,265,27,16,41,054,19*78
$GPGSV,3,2,12,20,32,178,32,10,31,308,22,03,18,106,29,08,17,251,31*73
$GPGSV,3,3,12,32,15,160,34,06,14,090,18,04,07,268,21,19,03,132,*7B
$GPVTG,133.24,T,,M,2.21,N,4.1,K,D*0B
$GPGGA,204938.000,3748.5831,N,12217.9379,W,2,04,2.2,26.6,M,-25.1,M,16.8,0000*41
$GPGSA,A,3,07,10,32,08,,,,,,,,,4.5,2.2,4.0*38
$GPRMC,204938.000,A,3748.5831,N,12217.9379,W,0.94,161.80,240511,,,D*79
$GPVTG,161.80,T,,M,0.94,N,1.7,K,D*0D
$GPGGA,204939.000,3748.5834,N,12217.9381,W,2,05,1.5,24.8,M,-25.1,M,17.8,0000*4A
$GPGSA,A,3,07,10,03,32,08,,,,,,,,4.2,1.5,3.9*36
$GPRMC,204939.000,A,3748.5834,N,12217.9381,W,0.33,305.73,240511,,,D*7B
$GPVTG,305.73,T,,M,0.33,N,0.6,K,D*0C
$GPGGA,204940.000,3748.5843,N,12217.9377,W,1,05,1.5,22.7,M,-25.1,M,,0000*57
$GPGSA,A,3,07,10,03,32,08,,,,,,,,4.2,1.5,3.9*36
$GPRMC,204940.000,A,3748.5843,N,12217.9377,W,0.08,97.33,240511,,,A*4D
$GPVTG,97.33,T,,M,0.08,N,0.1,K,A*3A
$GPGGA,204941.000,3748.5849,N,12217.9377,W,1,05,1.5,21.8,M,-25.1,M,,0000*50
$GPGSA,A,3,07,10,03,32,08,,,,,,,,4.2,1.5,3.9*36
$GPRMC,204941.000,A,3748.5849,N,12217.9377,W,0.90,228.46,240511,,,A*73
$GPVTG,228.46,T,,M,0.90,N,1.7,K,A*08
$GPGGA,204942.000,3748.5851,N,12217.9380,W,1,05,1.5,20.7,M,-25.1,M,,0000*5C
$GPGSA,A,3,07,10,03,32,08,,,,,,,,4.2,1.5,3.9*36
$GPGSV,3,1,12,13,65,342,17,23,63,082,20,07,43,265,33,16,41,054,19*7C
$GPGSV,3,2,12,20,32,178,31,10,31,308,30,03,18,106,21,08,17,251,33*79
$GPGSV,3,3,12,32,15,160,29,06,14,090,18,04,07,268,20,19,03,132,*76
$GPRMC,204942.000,A,3748.5851,N,12217.9380,W,1.95,207.27,240511,,,A*7F
$GPVTG,207.27,T,,M,1.95,N,3.6,K,A*05
$GPGGA,204943.000,3748.5850,N,12217.9381,W,1,05,1.5,20.4,M,-25.1,M,,0000*5E
$GPGSA,A,3,07,10,03,32,08,,,,,,,,4.2,1.5,3.9*36
$GPRMC,204943.000,A,3748.5850,N,12217.9381,W,2.32,207.58,240511,,,A*78
$GPVTG,207.58,T,,M,2.32,N,4.3,K,A*01
$GPGGA,204944.000,3748.5848,N,12217.9383,W,1,05,1.5,20.7,M,-25.1,M,,0000*51
$GPGSA,A,3,07,10,03,32,08,,,,,,,,4.2,1.5,3.9*36
$GPRMC,204944.000,A,3748.5848,N,12217.9383,W,2.19,200.22,240511,,,A*77
$GPVTG,200.22,T,,M,2.19,N,4.1,K,A*00
$GPGGA,204945.000,3748.5844,N,12217.9385,W,1,05,1.5,21.3,M,-25.1,M,,0000*5F
$GPGSA,A,3,07,10,03,32,08,,,,,,,,4.2,1.5,3.9*36
$GPRMC,204945.000,A,3748.5844,N,12217.9385,W,2.27,199.08,240511,,,A*7A
$GPVTG,199.08,T,,M,2.27,N,4.2,K,A*05
$GPGGA,204946.000,3748.5841,N,12217.9387,W,1,05,1.5,21.3,M,-25.1,M,,0000*5B
$GPGSA,A,3,07,10,03,32,08,,,,,,,,4.2,1.5,3.9*36
$GPRMC,204946.000,A,3748.5841,N,12217.9387,W,2.37,200.71,240511,,,A*72
$GPVTG,200.71,T,,M,2.37,N,4.4,K,A*0F
$GPGGA,204947.000,3748.5836,N,12217.9390,W,1,05,1.5,20.7,M,-25.1,M,,0000*59
$GPGSA,A,3,07,10,03,32,08,,,,,,,,4.2,1.5,3.9*36
$GPGSV,3,1,12,13,65,342,25,23,63,082,28,07,43,265,35,16,41,054,18*72
$GPGSV,3,2,12,20,32,178,36,10,31,308,33,03,18,106,27,08,17,251,23*7A
$GPGSV,3,3,12,32,15,160,37,06,14,090,22,04,07,268,21,19,03,132,*71
$GPRMC,204947.000,A,3748.5836,N,12217.9390,W,2.46,198.85,240511,,,A*7A
$GPVTG,198.85,T,,M,2.46,N,4.6,K,A*02
$GPGGA,204948.000,3748.5831,N,12217.9392,W,1,05,1.5,19.7,M,-25.1,M,,0000*59
$GPGSA,A,3,07,10,03,32,08,,,,,,,,4.2,1.5,3.9*36
$GPRMC,204948.000,A,3748.5831,N,12217.9392,W,2.53,187.13,240511,,,A*75
$GPVTG,187.13,T,,M,2.53,N,4.7,K,A*06
$GPGGA,204949.000,3748.5826,N,12217.9392,W,1,05,1.5,18.7,M,-25.1,M,,0000*5F
$GPGSA,A,3,07,10,03,32,08,,,,,,,,4.2,1.5,3.9*36
$GPRMC,204949.000,A,3748.5826,N,12217.9392,W,2.70,187.97,240511,,,A*7F
$GPVTG,187.97,T,,M,2.70,N,5.0,K,A*0D
$GPGGA,204950.000,3748.5820,N,12217.9392,W,1,05,1.5,19.0,M,-25.1,M,,0000*57
$GPGSA,A,3,07,10,03,32,08,,,,,,,,4.2,1.5,3.9*36
$GPRMC,204950.000,A,3748.5820,N,12217.9392,W,2.80,191.16,240511,,,A*70
$GPVTG,191.16,T,,M,2.80,N,5.2,K,A*0E
$GPGGA,204951.000,3748.5818,N,12217.9387,W,1,05,1.5,21.5,M,-25.1,M,,0000*57
$GPGSA,A,3,07,10,03,32,08,,,,,,,,4.2,1.5,3.9*36
$GPRMC,204951.000,A,3748.5818,N,12217.9387,W,1.88,179.43,240511,,,A*73
$GPVTG,179.43,T,,M,1.88,N,3.5,K,A*02
$GPGGA,204952.000,3748.5814,N,12217.9386,W,1,05,1.5,23.0,M,-25.1,M,,0000*5E
$GPGSA,A,3,07,10,03,32,08,,,,,,,,4.2,1.5,3.9*36
$GPGSV,3,1,12,13,65,342,26,23,63,082,28,07,43,265,34,16,41,054,20*7B
$GPGSV,3,2,12,20,32,178,36,10,31,308,33,03,18,106,27,08,17,251,23*7A
$GPGSV,3,3,12,32,15,160,33,06,14,090,23,04,07,268,20,19,03,132,*75
$GPVTG,194.03,T,,M,1.84,N,3.4,K,A*08
$GPGGA,204953.000,3748.5811,N,12217.9388,W,1,05,1.5,23.8,M,-25.1,M,,0000*5C
$GPGSA,A,3,07,10,03,32,08,,,,,,,,4.2,1.5,3.9*36
$GPRMC,204953.000,A,3748.5811,N,12217.9388,W,2.00,200.56,240511,,,A*7D
$GPVTG,200.56,T,,M,2.00,N,3.7,K,A*0A
$GPGGA,204954.000,3748.5807,N,12217.9392,W,1,05,1.5,25.2,M,-25.1,M,,0000*5B
$GPGSA,A,3,07,10,03,32,08,,,,,,,,4.2,1.5,3.9*36
$GPRMC,204954.000,A,3748.5807,N,12217.9392,W,1.88,205.75,240511,,,A*71
$GPVTG,205.75,T,,M,1.88,N,3.5,K,A*0F
$GPGGA,204955.000,3748.5803,N,12217.9395,W,1,05,1.5,25.5,M,-25.1,M,,0000*5E
$GPGSA,A,3,07,10,03,32,08,,,,,,,,4.2,1.5,3.9*36
$GPRMC,204955.000,A,3748.5803,N,12217.9395,W,2.00,201.81,240511,,,A*7F
$GPVTG,201.81,T,,M,2.00,N,3.7,K,A*01
$GPGGA,204956.000,3748.5798,N,12217.9401,W,1,05,1.5,25.7,M,-25.1,M,,0000*58
$GPGSA,A,3,07,10,03,32,08,,,,,,,,4.2,1.5,3.9*36
$GPRMC,204956.000,A,3748.5798,N,12217.9401,W,2.20,196.17,240511,,,A*7B
$GPVTG,196.17,T,,M,2.20,N,4.1,K,A*00
$GPGGA,204957.000,3748.5792,N,12217.9404,W,1,05,1.5,26.8,M,-25.1,M,,0000*5A
$GPGSA,A,3,07,10,03,32,08,,,,,,,,4.2,1.5,3.9*36
$GPGSV,3,1,12,13,65,342,26,23,63,082,28,07,43,265,37,16,41,054,20*78
$GPGSV,3,2,12,20,32,178,36,10,31,308,31,03,18,106,22,08,17,251,23*7D
$GPGSV,3,3,12,32,15,160,33,06,14,090,23,04,07,268,20,19,03,132,*75
$GPRMC,204957.000,A,3748.5792,N,12217.9404,W,1.79,200.48,240511,,,A*7C
$GPVTG,200.48,T,,M,1.79,N,3.3,K,A*0C
$GPGGA,204958.000,3748.5786,N,12217.9410,W,1,05,1.5,27.6,M,-25.1,M,,0000*5A
$GPGSA,A,3,07,10,03,32,08,,,,,,,,4.2,1.5,3.9*36
$GPRMC,204958.000,A,3748.5786,N,12217.9410,W,2.11,211.18,240511,,,A*7B
$GPVTG,211.18,T,,M,2.11,N,3.9,K,A*0E
$GPGGA,204959.000,3748.5780,N,12217.9414,W,1,05,1.5,28.2,M,-25.1,M,,0000*52
$GPGSA,A,3,07,10,03,32,08,,,,,,,,4.2,1.5,3.9*36
$GPRMC,204959.000,A,3748.5780,N,12217.9414,W,1.46,210.50,240511,,,A*74
$GPVTG,210.50,T,,M,1.46,N,2.7,K,A*0D
$GPGGA,205000.000,3748.5778,N,12217.9414,W,1,05,1.5,29.5,M,-25.1,M,,0000*57
$GPGSA,A,3,07,10,03,32,08,,,,,,,,4.2,1.5,3.9*36
$GPRMC,205000.000,A,3748.5778,N,12217.9414,W,1.17,212.87,240511,,,A*7B
$GPVTG,212.87,T,,M,1.17,N,2.2,K,A*04
$GPGGA,205001.000,3748.5777,N,12217.9414,W,1,05,1.5,30.1,M,-25.1,M,,0000*55
$GPGSA,A,3,07,10,03,32,08,,,,,,,,4.2,1.5,3.9*36
$GPRMC,205001.000,A,3748.5777,N,12217.9414,W,1.63,204.35,240511,,,A*78
$GPVTG,204.35,T,,M,1.63,N,3.0,K,A*0A
$GPGGA,205002.000,3748.5770,N,12217.9420,W,1,05,1.5,30.0,M,-25.1,M,,0000*57
$GPGSA,A,3,07,10,03,32,08,,,,,,,,4.2,1.5,3.9*36
$GPGSV,3,1,12,13,65,342,25,23,63,082,28,07,43,265,32,16,41,054,21*7F
$GPGSV,3,2,12,20,32,178,36,10,31,308,24,03,18,106,23,08,17,251,23*78
$GPGSV,3,3,12,32,15,160,32,06,14,090,22,04,07,268,20,19,03,132,*75
$GPRMC,205002.000,A,3748.5770,N,12217.9420,W,1.65,199.09,240511,,,A*75
$GPVTG,199.09,T,,M,1.65,N,3.1,K,A*05
$GPGGA,205003.000,3748.5761,N,12217.9423,W,1,05,1.5,30.9,M,-25.1,M,,0000*5C
$GPGSA,A,3,07,10,03,32,08,,,,,,,,4.2,1.5,3.9*36
$GPRMC,205003.000,A,3748.5761,N,12217.9423,W,1.75,211.41,240511,,,A*79
$GPVTG,211.41,T,,M,1.75,N,3.2,K,A*08
$GPGGA,205004.000,3748.5752,N,12217.9429,W,1,05,1.5,31.5,M,-25.1,M,,0000*5C
$GPGSA,A,3,07,10,03,32,08,,,,,,,,4.2,1.5,3.9*36
$GPRMC,205004.000,A,3748.5752,N,12217.9429,W,1.97,204.40,240511,,,A*7D
$GPVTG,204.40,T,,M,1.97,N,3.6,K,A*05
$GPGGA,205005.000,3748.5744,N,12217.9436,W,1,05,1.5,31.6,M,-25.1,M,,0000*57
$GPGSA,A,3,07,10,03,32,08,,,,,,,,4.2,1.5,3.9*36
$GPRMC,205005.000,A,3748.5744,N,12217.9436,W,2.00,201.74,240511,,,A*7A
$GPVTG,201.74,T,,M,2.00,N,3.7,K,A*0B
$GPGGA,205006.000,3748.5739,N,12217.9442,W,1,05,1.5,31.4,M,-25.1,M,,0000*5F
$GPGSA,A,3,07,10,03,32,08,,,,,,,,4.2,1.5,3.9*36
$GPRMC,205006.000,A,3748.5739,N,12217.9442,W,1.49,205.71,240511,,,A*7F
$GPVTG,205.71,T,,M,1.49,N,2.8,K,A*0A
$GPGGA,205007.000,3748.5735,N,12217.9448,W,1,05,1.5,30.7,M,-25.1,M,,0000*5A
$GPGSA,A,3,07,10,03,32,08,,,,,,,,4.2,1.5,3.9*36
$GPGSV,3,1,12,13,65,342,30,23,63,082,27,07,43,265,38,16,41,054,22*7D
$GPGSV,3,2,12,20,32,178,36,10,31,308,23,03,18,106,23,08,17,251,27*7B
$GPGSV,3,3,12,32,15,160,33,06,14,090,21,04,07,268,19,19,03,132,*7D
$GPVTG,198.92,T,,M,1.02,N,1.9,K,A*0D
$GPGGA,205008.000,3748.5726,N,12217.9457,W,1,05,1.5,30.8,M,-25.1,M,,0000*56
$GPGSA,A,3,07,10,03,32,08,,,,,,,,4.2,1.5,3.9*36
$GPRMC,205008.000,A,3748.5726,N,12217.9457,W,1.92,203.32,240511,,,A*7C
$GPVTG,203.32,T,,M,1.92,N,3.6,K,A*02
$GPGGA,205009.000,3748.5715,N,12217.9464,W,1,05,1.5,31.0,M,-25.1,M,,0000*5E
$GPGSA,A,3,07,10,03,32,08,,,,,,,,4.2,1.5,3.9*36
$GPRMC,205009.000,A,3748.5715,N,12217.9464,W,2.64,210.41,240511,,,A*71
$GPVTG,210.41,T,,M,2.64,N,4.9,K,A*06
$GPGGA,205010.000,3748.5707,N,12217.9471,W,1,05,1.5,30.4,M,-25.1,M,,0000*54
$GPGSA,A,3,07,10,03,32,08,,,,,,,,4.2,1.5,3.9*36
$GPRMC,205010.000,A,3748.5707,N,12217.9471,W,2.68,209.88,240511,,,A*7F
$GPVTG,209.88,T,,M,2.68,N,5.0,K,A*0F
$GPGGA,205011.000,3748.5701,N,12217.9477,W,1,05,1.5,29.6,M,-25.1,M,,0000*5F
$GPGSA,A,3,07,10,03,32,08,,,,,,,,4.2,1.5,3.9*36
$GPRMC,205011.000,A,3748.5701,N,12217.9477,W,2.85,204.84,240511,,,A*7C
$GPVTG,204.84,T,,M,2.85,N,5.3,K,A*0E
$GPGGA,205012.000,3748.5694,N,12217.9485,W,1,05,1.5,28.7,M,-25.1,M,,0000*5C
$GPGSA,A,3,07,10,03,32,08,,,,,,,,4.2,1.5,4.0*38
$GPGSV,3,1,12,13,65,342,27,23,63,082,27,07,43,265,38,16,41,054,23*7A
$GPGSV,3,2,12,20,32,178,36,10,31,308,37,03,18,106,25,08,17,251,34*7A
$GPGSV,3,3,12,32,15,160,35,06,14,090,21,04,07,268,21,19,03,132,*70
$GPRMC,205012.000,A,3748.5694,N,12217.9485,W,2.41,202.40,240511,,,A*79
$GPVTG,202.40,T,,M,2.41,N,4.5,K,A*0F
$GPGGA,205013.000,3748.5689,N,12217.9491,W,1,05,1.5,27.8,M,-25.1,M,,0000*54
$GPGSA,A,3,07,10,03,32,08,,,,,,,,4.2,1.5,4.0*38
$GPRMC,205013.000,A,3748.5689,N,12217.9491,W,2.13,206.24,240511,,,A*70
$GPVTG,206.24,T,,M,2.13,N,3.9,K,A*05
$GPGGA,205014.000,3748.5685,N,12217.9498,W,1,05,1.5,27.0,M,-25.1,M,,0000*5E
$GPGSA,A,3,07,10,03,32,08,,,,,,,,4.2,1.5,4.0*38
$GPRMC,205014.000,A,3748.5685,N,12217.9498,W,2.32,211.61,240511,,,A*76
$GPVTG,211.61,T,,M,2.32,N,4.3,K,A*0C
$GPGGA,205015.000,3748.5681,N,12217.9505,W,1,05,1.5,26.0,M,-25.1,M,,0000*5F
$GPGSA,A,3,07,10,03,32,08,,,,,,,,4.2,1.5,4.0*38
$GPRMC,205015.000,A,3748.5681,N,12217.9505,W,2.31,208.74,240511,,,A*79
$GPVTG,208.74,T,,M,2.31,N,4.3,K,A*03
$GPGGA,205016.000,3748.5676,N,12217.9511,W,1,05,1.5,25.0,M,-25.1,M,,0000*52
$GPGSA,A,3,07,10,03,32,08,,,,,,,,4.2,1.5,4.0*38
$GPRMC,205016.000,A,3748.5676,N,12217.9511,W,2.16,212.90,240511,,,A*73
$GPVTG,212.90,T,,M,2.16,N,4.0,K,A*04
$GPGGA,205017.000,3748.5672,N,12217.9516,W,1,05,1.5,24.1,M,-25.1,M,,0000*50
$GPGSA,A,3,07,10,03,32,08,,,,,,,,4.2,1.5,4.0*38
$GPGSV,3,1,12,13,65,343,28,23,63,083,27,07,43,266,39,16,40,054,23*76
$GPGSV,3,2,12,20,32,178,36,10,32,308,29,03,18,106,24,08,18,251,31*7D
$GPGSV,3,3,12,06,15,090,21,32,14,160,31,04,07,267,23,19,03,132,*79
$GPRMC,205017.000,A,3748.5672,N,12217.9516,W,1.83,213.93,240511,,,A*7C
$GPVTG,213.93,T,,M,1.83,N,3.4,K,A*0A
$GPGGA,205018.000,3748.5668,N,12217.9522,W,2,05,1.5,23.2,M,-25.1,M,1.8,0000*73
$GPGSA,A,3,07,10,03,32,08,,,,,,,,4.2,1.5,4.0*38
$GPRMC,205018.000,A,3748.5668,N,12217.9522,W,1.59,210.52,240511,,,D*73
$GPVTG,210.52,T,,M,1.59,N,2.9,K,D*0A
$GPGGA,205019.000,3748.5665,N,12217.9524,W,2,05,1.5,23.6,M,-25.1,M,1.8,0000*7D
$GPGSA,A,3,07,10,03,32,08,,,,,,,,4.2,1.5,4.0*38
$GPRMC,205019.000,A,3748.5665,N,12217.9524,W,2.02,215.88,240511,,,D*76
$GPVTG,215.88,T,,M,2.02,N,3.7,K,D*0A
$GPGGA,205020.000,3748.5662,N,12217.9525,W,2,05,1.5,23.7,M,-25.1,M,1.8,0000*70
$GPGSA,A,3,07,10,03,32,08,,,,,,,,4.2,1.5,4.0*38
$GPRMC,205020.000,A,3748.5662,N,12217.9525,W,2.37,210.16,240511,,,D*7E
$GPVTG,210.16,T,,M,2.37,N,4.4,K,D*0A
$GPGGA,205021.000,3748.5657,N,12217.9529,W,2,05,1.5,23.5,M,-25.1,M,1.8,0000*79
$GPGSA,A,3,07,10,03,32,08,,,,,,,,4.2,1.5,4.0*38
$GPRMC,205021.000,A,3748.5657,N,12217.9529,W,2.78,207.29,240511,,,D*74
$GPVTG,207.29,T,,M,2.78,N,5.1,K,D*0F
$GPGGA,205022.000,3748.5652,N,12217.9529,W,2,05,1.5,24.2,M,-25.1,M,2.8,0000*7C
$GPGSA,A,3,07,10,03,32,08,,,,,,,,4.2,1.5,4.0*38
$GPGSV,3,1,12,13,65,343,27,23,63,083,27,07,43,266,39,16,40,054,22*78
$GPGSV,3,2,12,20,32,178,35,10,32,308,36,03,18,106,27,08,18,251,24*77
$GPGSV,3,3,12,06,15,090,22,32,14,160,36,04,07,267,23,19,03,132,*7D
$GPVTG,199.56,T,,M,2.39,N,4.4,K,D*02
$GPGGA,205023.000,3748.5647,N,12217.9534,W,2,05,1.5,23.1,M,-25.1,M,3.8,0000*70
$GPGSA,A,3,07,10,03,32,08,,,,,,,,4.2,1.5,4.0*38
$GPRMC,205023.000,A,3748.5647,N,12217.9534,W,2.06,204.73,240511,,,D*7E
$GPVTG,204.73,T,,M,2.06,N,3.8,K,D*05
$GPGGA,205024.000,3748.5645,N,12217.9536,W,2,05,1.5,23.2,M,-25.1,M,4.8,0000*73
$GPGSA,A,3,07,10,03,32,08,,,,,,,,4.2,1.5,4.0*38
$GPRMC,205024.000,A,3748.5645,N,12217.9536,W,1.30,212.67,240511,,,D*7D
$GPVTG,212.67,T,,M,1.30,N,2.4,K,D*0C
$GPGGA,205025.000,3748.5641,N,12217.9542,W,2,05,1.5,22.2,M,-25.1,M,5.8,0000*75
$GPGSA,A,3,07,10,03,32,08,,,,,,,,4.2,1.5,4.0*38
$GPRMC,205025.000,A,3748.5641,N,12217.9542,W,1.90,212.99,240511,,,D*70
$GPVTG,212.99,T,,M,1.90,N,3.5,K,D*07
$GPGGA,205026.000,3748.5635,N,12217.9550,W,2,05,1.5,20.9,M,-25.1,M,6.8,0000*7C
$GPGSA,A,3,07,10,03,32,08,,,,,,,,4.2,1.5,4.0*38
$GPRMC,205026.000,A,3748.5635,N,12217.9550,W,2.71,210.03,240511,,,D*7E
$GPVTG,210.03,T,,M,2.71,N,5.0,K,D*09
$GPGGA,205027.000,3748.5629,N,12217.9554,W,2,05,1.5,20.7,M,-25.1,M,7.8,0000*7B
$GPGSA,A,3,07,10,03,32,08,,,,,,,,4.2,1.5,4.0*38
$GPGSV,3,1,12,13,65,343,27,23,63,083,26,07,43,266,37,16,40,054,22*77
$GPGSV,3,2,12,20,32,178,31,10,32,308,30,03,18,106,21,08,18,251,24*73
$GPGSV,3,3,12,06,15,090,21,32,14,160,28,04,07,267,22,19,03,132,*70
$GPRMC,205027.000,A,3748.5629,N,12217.9554,W,2.61,207.98,240511,,,D*73
$GPVTG,207.98,T,,M,2.61,N,4.8,K,D*05
$GPGGA,205028.000,3748.5624,N,12217.9558,W,2,05,1.5,20.6,M,-25.1,M,8.8,0000*7B
$GPGSA,A,3,07,10,03,32,08,,,,,,,,4.2,1.5,4.0*38
$GPRMC,205028.000,A,3748.5624,N,12217.9558,W,1.98,204.41,240511,,,D*7F
$GPVTG,204.41,T,,M,1.98,N,3.7,K,D*0F
$GPGGA,205029.000,3748.5618,N,12217.9562,W,2,05,1.5,20.4,M,-25.1,M,9.8,0000*7F
$GPGSA,A,3,07,10,03,32,08,,,,,,,,4.2,1.5,4.0*38
$GPRMC,205029.000,A,3748.5618,N,12217.9562,W,2.07,204.13,240511,,,D*7A
$GPVTG,204.13,T,,M,2.07,N,3.8,K,D*02
$GPGGA,205030.000,3748.5611,N,12217.9565,W,2,05,1.5,20.4,M,-25.1,M,0.8,0000*70
$GPGSA,A,3,07,10,03,32,08,,,,,,,,4.2,1.5,4.0*38
$GPRMC,205030.000,A,3748.5611,N,12217.9565,W,2.11,204.77,240511,,,D*79
$GPVTG,204.77,T,,M,2.11,N,3.9,K,D*06
$GPGGA,205031.000,3748.5605,N,12217.9570,W,2,05,1.5,20.0,M,-25.1,M,1.8,0000*75
$GPGSA,A,3,07,10,03,32,08,,,,,,,,4.2,1.5,4.0*38
$GPRMC,205031.000,A,3748.5605,N,12217.9570,W,1.91,203.86,240511,,,D*7B
$GPVTG,203.86,T,,M,1.91,N,3.5,K,D*08
$GPGGA,205032.000,3748.5600,N,12217.9573,W,2,05,1.5,19.6,M,-25.1,M,1.8,0000*7C
$GPGSA,A,3,07,10,03,32,08,,,,,,,,4.2,1.5,4.0*38
$GPGSV,3,1,12,13,65,343,27,23,63,083,25,07,43,266,38,16,40,054,22*7B
$GPGSV,3,2,12,20,32,178,35,10,32,308,28,03,18,106,26,08,18,251,30*7C
$GPGSV,3,3,12,06,15,090,20,32,14,160,34,04,07,267,22,19,03,132,*7C
$GPRMC,205032.000,A,3748.5600,N,12217.9573,W,1.81,205.35,240511,,,D*71
$GPVTG,205.35,T,,M,1.81,N,3.4,K,D*06
$GPGGA,205033.000,3748.5594,N,12217.9578,W,2,05,1.5,19.1,M,-25.1,M,1.8,0000*7F
$GPGSA,A,3,07,10,03,32,08,,,,,,,,4.2,1.5,4.0*38
$GPRMC,205033.000,A,3748.5594,N,12217.9578,W,1.63,213.45,240511,,,D*79
$GPVTG,213.45,T,,M,1.63,N,3.0,K,D*0E
$GPGGA,205034.000,3748.5588,N,12217.9584,W,2,05,1.5,18.9,M,-25.1,M,1.8,0000*7F
$GPGSA,A,3,07,10,03,32,08,,,,,,,,4.2,1.5,4.0*38
$GPRMC,205034.000,A,3748.5588,N,12217.9584,W,2.03,212.82,240511,,,D*7F
$GPVTG,212.82,T,,M,2.03,N,3.8,K,D*09
$GPGGA,205035.000,3748.5582,N,12217.9590,W,2,05,1.5,18.5,M,-25.1,M,2.8,0000*7E
$GPGSA,A,3,07,10,03,32,08,,,,,,,,4.2,1.5,4.0*38
$GPRMC,205035.000,A,3748.5582,N,12217.9590,W,2.23,211.22,240511,,,D*7A
$GPVTG,211.22,T,,M,2.23,N,4.1,K,D*0C
$GPGGA,205036.000,3748.5574,N,12217.9598,W,2,05,1.5,18.0,M,-25.1,M,1.8,0000*7A
$GPGSA,A,3,07,10,03,32,08,,,,,,,,4.2,1.5,4.0*38
$GPRMC,205036.000,A,3748.5574,N,12217.9598,W,2.07,212.26,240511,,,D*79
$GPVTG,212.26,T,,M,2.07,N,3.8,K,D*03
$GPGGA,205037.000,3748.5568,N,12217.9602,W,2,05,1.5,17.7,M,-25.1,M,1.8,0000*7E
$GPGSA,A,3,07,10,03,32,08,,,,,,,,4.2,1.5,4.0*38
$GPGSV,3,1,12,13,65,343,28,23,63,083,27,07,43,266,38,16,40,054,22*76
$GPGSV,3,2,12,20,32,178,36,10,32,308,25,03,18,106,27,08,18,251,34*77
$GPRMC,205037.000,A,3748.5568,N,12217.9602,W,1.70,202.88,240511,,,D*73
$GPVTG,202.88,T,,M,1.70,N,3.2,K,D*0F
$GPGGA,205038.000,3748.5562,N,12217.9605,W,2,05,1.5,17.1,M,-25.1,M,2.8,0000*79
$GPGSA,A,3,07,10,03,32,08,,,,,,,,4.2,1.5,4.0*38
$GPRMC,205038.000,A,3748.5562,N,12217.9605,W,2.29,203.76,240511,,,D*7E
$GPVTG,203.76,T,,M,2.29,N,4.2,K,D*07
$GPGGA,205039.000,3748.5557,N,12217.9610,W,2,05,1.5,16.3,M,-25.1,M,3.8,0000*78
$GPGSA,A,3,07,10,03,32,08,,,,,,,,4.2,1.5,4.0*38
$GPRMC,205039.000,A,3748.5557,N,12217.9610,W,2.48,210.27,240511,,,D*7C
$GPVTG,210.27,T,,M,2.48,N,4.6,K,D*02
$GPGGA,205040.000,3748.5551,N,12217.9616,W,2,05,1.5,15.5,M,-25.1,M,4.8,0000*74
$GPGSA,A,3,07,10,03,32,08,,,,,,,,4.2,1.5,4.0*38
$GPRMC,205040.000,A,3748.5551,N,12217.9616,W,2.64,200.16,240511,,,D*7F
$GPVTG,200.16,T,,M,2.64,N,4.9,K,D*00
$GPGGA,205041.000,3748.5544,N,12217.9622,W,2,05,1.5,14.8,M,-25.1,M,5.8,0000*7B
$GPGSA,A,3,07,10,03,32,08,,,,,,,,4.2,1.5,4.0*38
$GPRMC,205041.000,A,3748.5544,N,12217.9622,W,2.66,211.17,240511,,,D*7E
$GPVTG,211.17,T,,M,2.66,N,4.9,K,D*03
$GPGGA,205042.000,3748.5538,N,12217.9629,W,2,05,1.5,14.4,M,-25.1,M,1.8,0000*70
$GPGSA,A,3,07,10,03,32,08,,,,,,,,4.2,1.5,4.0*38
$GPGSV,3,1,12,13,65,343,25,23,63,083,27,07,43,266,38,16,40,054,22*7B
$GPGSV,3,2,12,20,32,178,36,10,32,308,35,03,18,106,25,08,18,251,39*79
$GPGSV,3,3,12,06,15,090,22,32,14,160,29,04,07,267,32,19,03,132,*73
$GPRMC,205042.000,A,3748.5538,N,12217.9629,W,2.32,210.04,240511,,,D*7F
$GPVTG,210.04,T,,M,2.32,N,4.3,K,D*0B
$GPGGA,205043.000,3748.5532,N,12217.9635,W,2,05,1.5,14.0,M,-25.1,M,1.8,0000*72
$GPGSA,A,3,07,10,03,32,08,,,,,,,,4.2,1.5,4.0*38
$GPRMC,205043.000,A,3748.5532,N,12217.9635,W,2.51,211.73,240511,,,D*7D
$GPVTG,211.73,T,,M,2.51,N,4.6,K,D*0A
$GPGGA,205044.000,3748.5526,N,12217.9640,W,2,05,1.5,13.6,M,-25.1,M,1.8,0000*73
$GPGSA,A,3,07,10,03,32,08,,,,,,,,4.2,1.5,4.0*38
$GPRMC,205044.000,A,3748.5526,N,12217.9640,W,2.24,206.63,240511,,,D*78
$GPVTG,206.63,T,,M,2.24,N,4.2,K,D*0B
$GPGGA,205045.000,3748.5520,N,12217.9646,W,2,05,1.5,13.1,M,-25.1,M,2.8,0000*76
$GPGSA,A,3,07,10,03,32,08,,,,,,,,4.3,1.5,4.0*39
$GPRMC,205045.000,A,3748.5520,N,12217.9646,W,2.18,204.48,240511,,,D*7D
$GPVTG,204.48,T,,M,2.18,N,4.0,K,D*0D
$GPGGA,205046.000,3748.5515,N,12217.9648,W,2,05,1.5,12.7,M,-25.1,M,3.8,0000*7B
$GPGSA,A,3,07,10,03,32,08,,,,,,,,4.3,1.5,4.0*39
$GPRMC,205046.000,A,3748.5515,N,12217.9648,W,2.11,198.34,240511,,,D*72
$GPVTG,198.34,T,,M,2.11,N,3.9,K,D*07
$GPGGA,205047.000,3748.5509,N,12217.9653,W,2,05,1.5,12.4,M,-25.1,M,4.8,0000*79
$GPGSA,A,3,07,10,03,32,08,,,,,,,,4.3,1.5,4.0*39
$GPGSV,3,1,12,13,65,343,26,23,63,083,27,07,43,266,38,16,40,054,22*78
$GPGSV,3,2,12,10,32,308,35,20,32,178,28,03,18,106,24,08,18,251,37*79
$GPGSV,3,3,12,06,15,090,21,32,14,160,29,04,07,267,28,19,04,131,*7F
$GPRMC,205047.000,A,3748.5509,N,12217.9653,W,2.44,212.81,240511,,,D*7B
$GPVTG,212.81,T,,M,2.44,N,4.5,K,D*03
$GPGGA,205048.000,3748.5503,N,12217.9659,W,2,05,1.5,12.2,M,-25.1,M,5.8,0000*71
$GPGSA,A,3,07,10,03,32,08,,,,,,,,4.3,1.5,4.0*39
$GPRMC,205048.000,A,3748.5503,N,12217.9659,W,2.53,213.96,240511,,,D*75
$GPVTG,213.96,T,,M,2.53,N,4.7,K,D*00
$GPGGA,205049.000,3748.5496,N,12217.9667,W,2,05,1.5,12.0,M,-25.1,M,6.8,0000*71
$GPGSA,A,3,07,10,03,32,08,,,,,,,,4.3,1.5,4.0*39
$GPRMC,205049.000,A,3748.5496,N,12217.9667,W,2.36,210.53,240511,,,D*7D
$GPVTG,210.53,T,,M,2.36,N,4.4,K,D*0A
$GPGGA,205050.000,3748.5489,N,12217.9675,W,2,05,1.5,11.8,M,-25.1,M,7.8,0000*7E
$GPGSA,A,3,07,10,03,32,08,,,,,,,,4.3,1.5,4.0*39
$GPRMC,205050.000,A,3748.5489,N,12217.9675,W,2.55,210.94,240511,,,D*76
$GPVTG,210.94,T,,M,2.55,N,4.7,K,D*07
$GPGGA,205051.000,3748.5482,N,12217.9682,W,2,05,1.5,11.6,M,-25.1,M,1.8,0000*74
$GPGSA,A,3,07,10,03,32,08,,,,,,,,4.3,1.5,4.0*39
$GPRMC,205051.000,A,3748.5482,N,12217.9682,W,2.60,210.56,240511,,,D*7C
$GPVTG,210.56,T,,M,2.60,N,4.8,K,D*00
$GPGGA,205052.000,3748.5475,N,12217.9687,W,2,04,2.2,11.4,M,-25.1,M,2.8,0000*7E
$GPGSA,A,3,07,10,32,08,,,,,,,,,4.6,2.2,4.0*3B
$GPGSV,3,1,12,13,65,343,27,23,63,083,22,07,43,266,39,16,40,054,21*7E
$GPGSV,3,2,12,10,32,308,36,20,32,178,37,03,18,106,17,08,18,251,37*74
$GPGSV,3,3,12,06,15,090,21,32,14,160,33,04,07,267,21,19,04,131,*7D
$GPRMC,205052.000,A,3748.5475,N,12217.9687,W,2.44,210.98,240511,,,D*76
$GPVTG,210.98,T,,M,2.44,N,4.5,K,D*09
$GPGGA,205053.000,3748.5469,N,12217.9694,W,2,04,2.2,11.2,M,-25.1,M,1.8,0000*75
$GPGSA,A,3,07,10,32,08,,,,,,,,,4.6,2.2,4.0*3B
$GPRMC,205053.000,A,3748.5469,N,12217.9694,W,2.61,219.98,240511,,,D*76
$GPVTG,219.98,T,,M,2.61,N,4.8,K,D*0A
$GPGGA,205054.000,3748.5462,N,12217.9701,W,2,04,2.2,10.9,M,-25.1,M,1.8,0000*7E
$GPGSA,A,3,07,10,32,08,,,,,,,,,4.6,2.2,4.0*3B
$GPRMC,205054.000,A,3748.5462,N,12217.9701,W,2.71,218.79,240511,,,D*78
$GPVTG,218.79,T,,M,2.71,N,5.0,K,D*0C
$GPGGA,205055.000,3748.5456,N,12217.9707,W,2,04,2.2,10.6,M,-25.1,M,1.8,0000*71
$GPGSA,A,3,07,10,32,08,,,,,,,,,4.6,2.2,4.0*3B
$GPRMC,205055.000,A,3748.5456,N,12217.9707,W,2.69,209.77,240511,,,D*7F
$GPVTG,209.77,T,,M,2.69,N,5.0,K,D*0B
$GPGGA,205056.000,3748.5447,N,12217.9715,W,2,05,1.5,10.0,M,-25.1,M,1.8,0000*72
$GPGSA,A,3,07,10,03,32,08,,,,,,,,4.3,1.5,4.0*39
$GPRMC,205056.000,A,3748.5447,N,12217.9715,W,2.78,205.27,240511,,,D*76
$GPVTG,205.27,T,,M,2.78,N,5.1,K,D*03
$GPGGA,205057.000,3748.5440,N,12217.9723,W,2,05,1.5,9.7,M,-25.1,M,2.8,0000*4D
$GPGSA,A,3,07,10,03,32,08,,,,,,,,4.3,1.5,4.0*39
$GPGSV,3,1,12,13,65,343,27,23,63,083,28,07,43,266,39,16,40,054,20*75
$GPGSV,3,2,12,10,32,308,36,20,32,178,36,03,18,106,23,08,18,251,24*70
$GPGSV,3,3,12,06,15,090,20,32,14,160,34,04,07,267,22,19,04,131,*78
$GPRMC,205057.000,A,3748.5440,N,12217.9723,W,2.75,209.47,240511,,,D*72
$GPGGA,205058.000,3748.5433,N,12217.9729,W,2,05,1.5,10.0,M,-25.1,M,1.8,0000*70
$GPGSA,A,3,07,10,03,32,08,,,,,,,,4.3,1.5,4.0*39
$GPRMC,205058.000,A,3748.5433,N,12217.9729,W,2.39,209.70,240511,,,D*7F
$GPVTG,209.70,T,,M,2.39,N,4.4,K,D*0C
$GPGGA,205059.000,3748.5426,N,12217.9736,W,2,05,1.5,10.4,M,-25.1,M,1.8,0000*7F
$GPGSA,A,3,07,10,03,32,08,,,,,,,,4.3,1.5,4.0*39
$GPRMC,205059.000,A,3748.5426,N,12217.9736,W,2.10,207.40,240511,,,D*72
$GPVTG,207.40,T,,M,2.10,N,3.9,K,D*00
$GPGGA,205100.000,3748.5423,N,12217.9738,W,2,05,1.5,10.8,M,-25.1,M,1.8,0000*75
$GPGSA,A,3,07,10,03,32,08,,,,,,,,4.3,1.5,4.0*39
$GPRMC,205100.000,A,3748.5423,N,12217.9738,W,1.58,190.18,240511,,,D*7B
$GPVTG,190.18,T,,M,1.58,N,2.9,K,D*0E
$GPGGA,205101.000,3748.5418,N,12217.9741,W,2,05,1.5,10.5,M,-25.1,M,2.8,0000*7C
$GPGSA,A,3,07,10,03,32,08,,,,,,,,4.3,1.5,4.0*39
$GPRMC,205101.000,A,3748.5418,N,12217.9741,W,1.32,186.74,240511,,,D*7D
$GPVTG,186.74,T,,M,1.32,N,2.4,K,D*02
$GPGGA,205102.000,3748.5414,N,12217.9743,W,2,05,1.5,10.2,M,-25.1,M,3.8,0000*77
$GPGSA,A,3,07,10,03,32,08,,,,,,,,4.3,1.5,4.0*39
$GPGSV,3,1,12,13,65,343,23,23,63,083,22,07,43,266,35,16,40,054,20*77
$GPGSV,3,2,12,10,32,308,31,20,32,178,33,03,18,106,22,08,18,251,20*77
$GPGSV,3,3,12,06,15,090,20,32,14,160,35,04,07,267,21,19,04,131,*7A
$GPRMC,205102.000,A,3748.5414,N,12217.9743,W,1.19,201.08,240511,,,D*7E
$GPVTG,201.08,T,,M,1.19,N,2.2,K,D*0A
$GPGGA,205103.000,3748.5409,N,12217.9746,W,2,05,1.5,10.1,M,-25.1,M,4.8,0000*7B
$GPGSA,A,3,07,10,03,32,08,,,,,,,,4.3,1.5,4.0*39
$GPRMC,205103.000,A,3748.5409,N,12217.9746,W,1.42,174.26,240511,,,D*75
$GPVTG,174.26,T,,M,1.42,N,2.6,K,D*0D
$GPGGA,205104.000,3748.5403,N,12217.9748,W,2,05,1.5,11.5,M,-25.1,M,5.8,0000*7C
$GPGSA,A,3,07,10,03,32,08,,,,,,,,4.3,1.5,4.0*39
$GPRMC,205104.000,A,3748.5403,N,12217.9748,W,1.58,199.11,240511,,,D*7A
$GPVTG,199.11,T,,M,1.58,N,2.9,K,D*0E
$GPGGA,205105.000,3748.5398,N,12217.9748,W,2,05,1.5,12.4,M,-25.1,M,1.8,0000*7E
$GPGSA,A,3,07,10,03,32,08,,,,,,,,4.3,1.5,4.0*39
$GPRMC,205105.000,A,3748.5398,N,12217.9748,W,2.31,204.19,240511,,,D*7D
$GPVTG,204.19,T,,M,2.31,N,4.3,K,D*01
$GPGGA,205106.000,3748.5393,N,12217.9750,W,2,05,1.5,14.3,M,-25.1,M,1.8,0000*7E
$GPGSA,A,3,07,10,03,32,08,,,,,,,,4.3,1.5,4.0*39
$GPRMC,205106.000,A,3748.5393,N,12217.9750,W,2.11,202.73,240511,,,D*74
$GPVTG,202.73,T,,M,2.11,N,3.9,K,D*04
$GPGGA,205107.000,3748.5389,N,12217.9748,W,2,05,1.5,15.3,M,-25.1,M,1.8,0000*7C
$GPGSA,A,3,07,10,03,32,08,,,,,,,,4.3,1.5,4.0*39
$GPGSV,3,1,12,13,65,343,26,23,63,083,26,07,43,266,29,16,40,054,27*7C
$GPGSV,3,2,12,10,32,308,33,20,32,178,35,03,18,106,26,08,18,251,21*76
$GPGSV,3,3,12,06,15,090,21,32,14,160,32,04,07,267,20,19,04,131,*7D
$GPRMC,205107.000,A,3748.5389,N,12217.9748,W,1.63,181.22,240511,,,D*7D
$GPVTG,181.22,T,,M,1.63,N,3.0,K,D*07
$GPGGA,205108.000,3748.5385,N,12217.9748,W,2,05,1.5,16.4,M,-25.1,M,1.8,0000*7B
$GPGSA,A,3,07,10,03,32,08,,,,,,,,4.3,1.5,4.0*39
$GPRMC,205108.000,A,3748.5385,N,12217.9748,W,1.57,202.99,240511,,,D*71
$GPVTG,202.99,T,,M,1.57,N,2.9,K,D*00
$GPGGA,205109.000,3748.5378,N,12217.9751,W,2,05,1.5,17.7,M,-25.1,M,2.8,0000*71
$GPGSA,A,3,07,10,03,32,08,,,,,,,,4.3,1.5,4.0*39
$GPRMC,205109.000,A,3748.5378,N,12217.9751,W,1.44,207.96,240511,,,D*72
$GPVTG,207.96,T,,M,1.44,N,2.7,K,D*06
$GPGGA,205110.000,3748.5374,N,12217.9754,W,2,05,1.5,19.6,M,-25.1,M,3.8,0000*7E
$GPGSA,A,3,07,10,03,32,08,,,,,,,,4.3,1.5,4.0*39
$GPRMC,205110.000,A,3748.5374,N,12217.9754,W,1.60,229.91,240511,,,D*7E
$GPVTG,229.91,T,,M,1.60,N,3.0,K,D*0D
$GPGGA,205111.000,3748.5371,N,12217.9757,W,2,05,1.5,20.2,M,-25.1,M,4.8,0000*70
$GPGSA,A,3,07,10,03,32,08,,,,,,,,4.3,1.5,4.0*39
$GPRMC,205111.000,A,3748.5371,N,12217.9757,W,0.94,211.10,240511,,,D*71
$GPVTG,211.10,T,,M,0.94,N,1.7,K,D*00
$GPGGA,205112.000,3748.5363,N,12217.9759,W,2,05,1.5,21.2,M,-25.1,M,1.8,0000*7A
$GPGSA,A,3,07,10,03,32,08,,,,,,,,4.3,1.5,4.0*39
$GPGSV,3,1,12,13,65,343,27,23,63,083,26,07,43,266,41,16,40,054,24*70
$GPGSV,3,2,12,10,32,308,24,20,32,178,36,03,18,106,25,08,18,251,21*70
$GPGSV,3,3,12,06,15,090,26,32,14,160,33,04,07,267,20,19,04,131,*7B
$GPVTG,180.09,T,,M,1.40,N,2.6,K,D*09
$GPGGA,205113.000,3748.5355,N,12217.9761,W,2,05,1.5,21.4,M,-25.1,M,1.8,0000*73
$GPGSA,A,3,07,10,03,32,08,,,,,,,,4.3,1.5,4.0*39
$GPRMC,205113.000,A,3748.5355,N,12217.9761,W,1.91,187.81,240511,,,D*70
$GPVTG,187.81,T,,M,1.91,N,3.5,K,D*00
$GPGGA,205114.000,3748.5347,N,12217.9766,W,2,05,1.5,21.3,M,-25.1,M,1.8,0000*77
$GPGSA,A,3,07,10,03,32,08,,,,,,,,4.3,1.5,4.0*39
$GPRMC,205114.000,A,3748.5347,N,12217.9766,W,2.27,200.02,240511,,,D*7A
$GPVTG,200.02,T,,M,2.27,N,4.2,K,D*09
$GPGGA,205115.000,3748.5341,N,12217.9770,W,2,05,1.5,21.9,M,-25.1,M,2.8,0000*7E
$GPGSA,A,3,07,10,03,32,08,,,,,,,,4.3,1.5,4.0*39
$GPRMC,205115.000,A,3748.5341,N,12217.9770,W,2.15,207.44,240511,,,D*7E
$GPVTG,207.44,T,,M,2.15,N,4.0,K,D*0F
$GPGGA,205116.000,3748.5333,N,12217.9777,W,2,05,1.5,21.4,M,-25.1,M,3.8,0000*73
$GPGSA,A,3,07,10,03,32,08,,,,,,,,4.3,1.5,4.0*39
$GPRMC,205116.000,A,3748.5333,N,12217.9777,W,1.96,209.40,240511,,,D*7D
$GPVTG,209.40,T,,M,1.96,N,3.6,K,D*0C
$GPGGA,205117.000,3748.5325,N,12217.9786,W,2,05,1.5,20.2,M,-25.1,M,4.8,0000*7B
$GPGSA,A,3,07,10,03,32,08,,,,,,,,4.3,1.5,4.0*39
$GPGSV,3,1,12,13,65,343,27,23,63,083,27,07,43,266,38,16,40,054,24*7F
$GPGSV,3,2,12,10,32,308,26,20,32,178,36,03,18,106,25,08,18,251,27*74
$GPGSV,3,3,12,06,15,090,23,32,14,160,27,04,07,267,20,19,04,131,*7B
$GPRMC,205117.000,A,3748.5325,N,12217.9786,W,2.25,201.64,240511,,,D*70
$GPVTG,201.64,T,,M,2.25,N,4.2,K,D*0A
$GPGGA,205118.000,3748.5318,N,12217.9794,W,2,05,1.5,19.3,M,-25.1,M,1.8,0000*77
$GPGSA,A,3,07,10,03,32,08,,,,,,,,4.3,1.5,4.0*39
$GPRMC,205118.000,A,3748.5318,N,12217.9794,W,2.19,212.78,240511,,,D*72
$GPVTG,212.78,T,,M,2.19,N,4.1,K,D*09
$GPGGA,205119.000,3748.5312,N,12217.9802,W,2,05,1.6,18.2,M,-25.1,M,1.8,0000*7F
$GPGSA,A,3,07,10,03,32,08,,,,,,,,4.3,1.6,4.0*3A
$GPRMC,205119.000,A,3748.5312,N,12217.9802,W,1.90,217.69,240511,,,D*7E
$GPVTG,217.69,T,,M,1.90,N,3.5,K,D*0D
$GPGGA,205120.000,3748.5305,N,12217.9809,W,2,05,1.6,17.6,M,-25.1,M,1.8,0000*73
$GPGSA,A,3,07,10,03,32,08,,,,,,,,4.3,1.6,4.0*3A
$GPRMC,205120.000,A,3748.5305,N,12217.9809,W,2.23,209.91,240511,,,D*7A
$GPVTG,209.91,T,,M,2.23,N,4.1,K,D*0D
$GPGGA,205121.000,3748.5295,N,12217.9815,W,2,05,1.6,17.9,M,-25.1,M,2.8,0000*7B
$GPGSA,A,3,07,10,03,32,08,,,,,,,,4.3,1.6,4.0*3A
$GPRMC,205121.000,A,3748.5295,N,12217.9815,W,2.18,198.64,240511,,,D*77
$GPVTG,198.64,T,,M,2.18,N,4.0,K,D*05
$GPGGA,205122.000,3748.5292,N,12217.9821,W,2,05,1.6,16.9,M,-25.1,M,3.8,0000*78
$GPGSA,A,3,07,10,03,32,08,,,,,,,,4.3,1.6,4.0*3A
$GPGSV,3,1,12,13,65,343,27,23,63,083,27,07,43,266,37,16,40,054,24*70
$GPGSV,3,2,12,10,32,308,29,20,32,178,36,03,18,106,25,08,18,251,31*7C
$GPGSV,3,3,12,06,15,090,23,32,14,160,28,04,07,267,26,19,04,131,*72
$GPRMC,205122.000,A,3748.5292,N,12217.9821,W,1.99,200.40,240511,,,D*7A
$GPVTG,200.40,T,,M,1.99,N,3.7,K,D*0B
$GPGGA,205123.000,3748.5282,N,12217.9828,W,2,05,1.6,16.6,M,-25.1,M,1.8,0000*7C
$GPGSA,A,3,07,10,03,32,08,,,,,,,,4.3,1.6,4.0*3A
$GPRMC,205123.000,A,3748.5282,N,12217.9828,W,2.24,199.37,240511,,,D*75
$GPVTG,199.37,T,,M,2.24,N,4.1,K,D*0C
$GPGGA,205124.000,3748.5274,N,12217.9836,W,2,05,1.6,15.8,M,-25.1,M,1.8,0000*70
$GPGSA,A,3,07,10,03,32,08,,,,,,,,4.3,1.6,4.0*3A
$GPRMC,205124.000,A,3748.5274,N,12217.9836,W,1.83,204.55,240511,,,D*79
$GPVTG,204.55,T,,M,1.83,N,3.4,K,D*03
$GPGGA,205125.000,3748.5264,N,12217.9843,W,2,05,1.6,15.4,M,-25.1,M,1.8,0000*7E
$GPGSA,A,3,07,10,03,32,08,,,,,,,,4.3,1.6,4.0*3A
$GPRMC,205125.000,A,3748.5264,N,12217.9843,W,1.23,210.66,240511,,,D*74
$GPVTG,210.66,T,,M,1.23,N,2.3,K,D*0A
$GPGGA,205126.000,3748.5257,N,12217.9850,W,2,05,1.6,15.1,M,-25.1,M,2.8,0000*79
$GPGSA,A,3,07,10,03,32,08,,,,,,,,4.3,1.6,4.0*3A
$GPRMC,205126.000,A,3748.5257,N,12217.9850,W,1.84,228.00,240511,,,D*73
$GPVTG,228.00,T,,M,1.84,N,3.4,K,D*0A
$GPGGA,205127.000,3748.5250,N,12217.9858,W,2,05,1.6,14.9,M,-25.1,M,3.8,0000*7F
$GPGSA,A,3,07,10,03,32,08,,,,,,,,4.3,1.6,4.0*3A
$GPGSV,3,1,12,13,65,343,27,23,63,083,27,07,43,266,38,16,40,054,23*78
$GPGSV,3,2,12,10,32,308,35,20,32,178,36,03,18,106,24,08,18,251,37*76
$GPGSV,3,3,12,06,15,090,23,32,14,160,29,04,07,267,30,19,04,131,*74
$GPRMC,205127.000,A,3748.5250,N,12217.9858,W,2.78,214.14,240511,,,D*77
$GPVTG,214.14,T,,M,2.78,N,5.2,K,D*00
$GPGGA,205128.000,3748.5241,N,12217.9868,W,2,05,1.6,14.8,M,-25.1,M,4.8,0000*75
$GPGSA,A,3,07,10,03,32,08,,,,,,,,4.3,1.6,4.0*3A
$GPRMC,205128.000,A,3748.5241,N,12217.9868,W,3.02,215.65,240511,,,D*70
$GPVTG,215.65,T,,M,3.02,N,5.6,K,D*0F
$GPGGA,205129.000,3748.5234,N,12217.9877,W,2,05,1.6,14.0,M,-25.1,M,5.8,0000*71
$GPGSA,A,3,07,10,03,32,08,,,,,,,,4.3,1.6,4.0*3A
$GPRMC,205129.000,A,3748.5234,N,12217.9877,W,2.34,215.41,240511,,,D*7F
$GPVTG,215.41,T,,M,2.34,N,4.3,K,D*09
$GPGGA,205130.000,3748.5229,N,12217.9883,W,2,05,1.6,13.5,M,-25.1,M,1.8,0000*78
$GPGSA,A,3,07,10,03,32,08,,,,,,,,4.3,1.6,4.0*3A
$GPRMC,205130.000,A,3748.5229,N,12217.9883,W,2.30,207.54,240511,,,D*73
$GPVTG,207.54,T,,M,2.30,N,4.3,K,D*0A
$GPGGA,205131.000,3748.5223,N,12217.9889,W,2,05,1.6,13.0,M,-25.1,M,1.8,0000*7C
$GPGSA,A,3,07,10,03,32,08,,,,,,,,4.3,1.6,4.0*3A
$GPRMC,205131.000,A,3748.5223,N,12217.9889,W,2.54,210.08,240511,,,D*7F
$GPVTG,210.08,T,,M,2.54,N,4.7,K,D*03
$GPGGA,205132.000,3748.5218,N,12217.9890,W,2,05,1.6,13.3,M,-25.1,M,1.8,0000*7C
$GPGSA,A,3,07,10,03,32,08,,,,,,,,4.3,1.6,4.0*3A
$GPGSV,3,1,12,13,65,343,21,23,63,083,27,07,43,266,38,16,40,054,23*7E
$GPGSV,3,2,12,10,32,308,35,20,32,178,36,03,18,106,22,08,18,251,28*7E
$GPGSV,3,3,12,06,15,090,22,32,14,160,35,04,07,267,23,19,04,131,*7A
$GPRMC,205132.000,A,3748.5218,N,12217.9890,W,1.80,204.49,240511,,,D*76
$GPGGA,205133.000,3748.5215,N,12217.9894,W,2,05,1.6,13.0,M,-25.1,M,1.8,0000*77
$GPGSA,A,3,07,10,03,32,08,,,,,,,,4.3,1.6,4.0*3A
$GPRMC,205133.000,A,3748.5215,N,12217.9894,W,0.96,218.69,240511,,,D*77
$GPVTG,218.69,T,,M,0.96,N,1.8,K,D*0A
$GPGGA,205134.000,3748.5213,N,12217.9897,W,2,05,1.6,12.4,M,-25.1,M,2.8,0000*73
$GPGSA,A,3,07,10,03,32,08,,,,,,,,4.3,1.6,4.0*3A
$GPRMC,205134.000,A,3748.5213,N,12217.9897,W,0.74,208.94,240511,,,D*7A
$GPVTG,208.94,T,,M,0.74,N,1.4,K,D*09
$GPGGA,205135.000,3748.5212,N,12217.9900,W,2,05,1.6,11.7,M,-25.1,M,3.8,0000*7D
$GPGSA,A,3,07,10,03,32,08,,,,,,,,4.3,1.6,4.0*3A
$GPRMC,205135.000,A,3748.5212,N,12217.9900,W,0.50,186.79,240511,,,D*75
$GPVTG,186.79,T,,M,0.50,N,0.9,K,D*05
$GPGGA,205136.000,3748.5211,N,12217.9902,W,2,05,1.6,11.0,M,-25.1,M,4.8,0000*7F
$GPGSA,A,3,07,10,03,32,08,,,,,,,,4.3,1.6,4.0*3A
$GPRMC,205136.000,A,3748.5211,N,12217.9902,W,0.53,220.46,240511,,,D*77
$GPVTG,220.46,T,,M,0.53,N,1.0,K,D*0D
$GPGGA,205137.000,3748.5209,N,12217.9904,W,2,05,1.6,11.4,M,-25.1,M,5.8,0000*74
$GPGSA,A,3,07,10,03,32,08,,,,,,,,4.3,1.6,4.0*3A
$GPGSV,3,1,12,13,65,343,31,23,63,083,27,07,43,266,38,16,40,054,26*7A
$GPGSV,3,2,12,10,32,308,37,20,32,178,34,03,18,106,28,08,18,251,25*79
$GPGSV,3,3,12,06,15,090,23,32,14,160,32,04,07,267,23,19,04,131,*7C
$GPRMC,205137.000,A,3748.5209,N,12217.9904,W,1.56,212.20,240511,,,D*7C
$GPVTG,212.20,T,,M,1.56,N,2.9,K,D*02
$GPGGA,205138.000,3748.5204,N,12217.9907,W,2,05,1.6,11.7,M,-25.1,M,1.8,0000*72
$GPGSA,A,3,07,10,03,32,08,,,,,,,,4.3,1.6,4.0*3A
$GPRMC,205138.000,A,3748.5204,N,12217.9907,W,1.51,199.01,240511,,,D*79
$GPVTG,199.01,T,,M,1.51,N,2.8,K,D*07
$GPGGA,205139.000,3748.5199,N,12217.9910,W,2,05,1.6,11.5,M,-25.1,M,1.8,0000*70
$GPGSA,A,3,07,10,03,32,08,,,,,,,,4.3,1.6,4.0*3A
$GPRMC,205139.000,A,3748.5199,N,12217.9910,W,1.85,192.76,240511,,,D*7B
$GPVTG,192.76,T,,M,1.85,N,3.4,K,D*08
$GPGGA,205140.000,3748.5194,N,12217.9912,W,2,05,1.6,12.2,M,-25.1,M,1.8,0000*75
$GPGSA,A,3,07,10,03,32,08,,,,,,,,4.3,1.6,4.0*3A
$GPRMC,205140.000,A,3748.5194,N,12217.9912,W,2.12,205.18,240511,,,D*72
$GPVTG,205.18,T,,M,2.12,N,3.9,K,D*0D
$GPGGA,205141.000,3748.5188,N,12217.9916,W,2,05,1.6,12.7,M,-25.1,M,2.8,0000*7B
$GPGSA,A,3,07,10,03,32,08,,,,,,,,4.3,1.6,4.0*3A
$GPRMC,205141.000,A,3748.5188,N,12217.9916,W,1.87,203.29,240511,,,D*71
$GPVTG,203.29,T,,M,1.87,N,3.5,K,D*0A
$GPGGA,205142.000,3748.5184,N,12217.9916,W,2,05,1.6,13.9,M,-25.1,M,1.8,0000*78
$GPGSA,A,3,07,10,03,32,08,,,,,,,,4.3,1.6,4.0*3A
$GPGSV,3,1,12,13,65,343,28,23,63,083,27,07,43,266,33,16,40,054,25*7A
$GPGSV,3,2,12,10,32,308,24,20,32,178,36,03,18,106,23,08,18,251,24*73
$GPGSV,3,3,12,06,15,090,23,32,14,160,32,04,07,267,19,19,04,131,*75
$GPRMC,205142.000,A,3748.5184,N,12217.9916,W,1.47,193.05,240511,,,D*76
$GPVTG,193.05,T,,M,1.47,N,2.7,K,D*01
$GPGGA,205143.000,3748.5178,N,12217.9917,W,2,05,1.6,15.3,M,-25.1,M,1.8,0000*77
$GPGSA,A,3,07,10,03,32,08,,,,,,,,4.3,1.6,4.0*3A
$GPRMC,205143.000,A,3748.5178,N,12217.9917,W,1.36,206.44,240511,,,D*79
$GPVTG,206.44,T,,M,1.36,N,2.5,K,D*0F
$GPGGA,205144.000,3748.5165,N,12217.9921,W,2,05,1.6,17.2,M,-25.1,M,2.8,0000*79
$GPGSA,A,3,07,10,03,32,08,,,,,,,,4.3,1.6,4.0*3A
$GPRMC,205144.000,A,3748.5165,N,12217.9921,W,2.42,206.41,240511,,,D*72
$GPVTG,206.41,T,,M,2.42,N,4.5,K,D*0C
$GPGGA,205145.000,3748.5155,N,12217.9924,W,2,05,1.6,18.6,M,-25.1,M,3.8,0000*74
$GPGSA,A,3,07,10,03,32,08,,,,,,,,4.3,1.6,4.0*3A
$GPRMC,205145.000,A,3748.5155,N,12217.9924,W,2.10,201.74,240511,,,D*73
$GPVTG,201.74,T,,M,2.10,N,3.9,K,D*01
$GPGGA,205146.000,3748.5150,N,12217.9927,W,2,05,1.6,19.4,M,-25.1,M,4.8,0000*75
$GPGSA,A,3,07,10,03,32,08,,,,,,,,4.3,1.6,4.0*3A
$GPRMC,205146.000,A,3748.5150,N,12217.9927,W,1.67,198.46,240511,,,D*77
$GPVTG,198.46,T,,M,1.67,N,3.1,K,D*08
$GPGGA,205147.000,3748.5146,N,12217.9926,W,2,05,1.6,21.2,M,-25.1,M,5.8,0000*7E
$GPGSA,A,3,07,10,03,32,08,,,,,,,,4.3,1.6,4.0*3A
$GPGSV,3,1,12,13,65,343,27,23,63,083,27,07,43,266,32,16,40,054,25*74
$GPGSV,3,2,12,10,32,308,32,20,32,178,36,03,18,106,27,08,18,251,20*74
$GPGSV,3,3,12,06,15,090,23,32,14,160,32,04,07,267,20,19,04,131,*7F
$GPVTG,182.12,T,,M,1.57,N,2.9,K,D*08
$GPGGA,205148.000,3748.5142,N,12217.9928,W,2,05,1.6,22.1,M,-25.1,M,1.8,0000*7F
$GPGSA,A,3,07,10,03,32,08,,,,,,,,4.3,1.6,4.0*3A
$GPRMC,205148.000,A,3748.5142,N,12217.9928,W,1.59,190.50,240511,,,D*77
$GPVTG,190.50,T,,M,1.59,N,2.9,K,D*03
$GPGGA,205149.000,3748.5134,N,12217.9933,W,2,05,1.6,22.2,M,-25.1,M,1.8,0000*76
$GPGSA,A,3,07,10,03,32,08,,,,,,,,4.3,1.6,4.0*3A
$GPRMC,205149.000,A,3748.5134,N,12217.9933,W,1.62,193.40,240511,,,D*77
$GPVTG,193.40,T,,M,1.62,N,3.0,K,D*01
$GPGGA,205150.000,3748.5123,N,12217.9940,W,2,05,1.6,22.4,M,-25.1,M,1.8,0000*7A
$GPGSA,A,3,07,10,03,32,08,,,,,,,,4.3,1.6,4.0*3A
$GPRMC,205150.000,A,3748.5123,N,12217.9940,W,2.11,199.40,240511,,,D*70
$GPVTG,199.40,T,,M,2.11,N,3.9,K,D*05
$GPGGA,205151.000,3748.5117,N,12217.9944,W,2,05,1.6,22.6,M,-25.1,M,2.8,0000*79
$GPGSA,A,3,07,10,03,32,08,,,,,,,,4.3,1.6,4.0*3A
$GPRMC,205151.000,A,3748.5117,N,12217.9944,W,1.47,193.62,240511,,,D*78
$GPVTG,193.62,T,,M,1.47,N,2.7,K,D*00
$GPGGA,205152.000,3748.5114,N,12217.9943,W,2,05,1.6,24.5,M,-25.1,M,3.8,0000*7A
$GPGSA,A,3,07,10,03,32,08,,,,,,,,4.3,1.6,4.0*3A
$GPGSV,3,1,12,13,65,343,27,23,63,083,28,07,43,266,31,16,40,054,24*79
$GPGSV,3,2,12,10,32,308,27,20,32,178,36,03,18,106,26,08,18,251,22*73
$GPGSV,3,3,12,06,15,090,24,32,14,160,32,04,07,267,19,19,04,131,*72
$GPRMC,205152.000,A,3748.5114,N,12217.9943,W,1.04,162.70,240511,,,D*75
$GPVTG,162.70,T,,M,1.04,N,1.9,K,D*07
$GPGGA,205153.000,3748.5112,N,12217.9945,W,2,05,1.6,23.9,M,-25.1,M,4.8,0000*77
$GPGSA,A,3,07,10,03,32,08,,,,,,,,4.3,1.6,4.0*3A
$GPRMC,205153.000,A,3748.5112,N,12217.9945,W,1.31,178.09,240511,,,D*77
$GPVTG,178.09,T,,M,1.31,N,2.4,K,D*0A
$GPGGA,205154.000,3748.5111,N,12217.9948,W,2,05,1.6,22.7,M,-25.1,M,1.8,0000*74
$GPGSA,A,3,07,10,03,32,08,,,,,,,,4.3,1.6,4.0*3A
$GPRMC,205154.000,A,3748.5111,N,12217.9948,W,1.70,203.65,240511,,,D*7E
$GPVTG,203.65,T,,M,1.70,N,3.1,K,D*0E
$GPGGA,205155.000,3748.5099,N,12217.9956,W,2,05,1.6,25.2,M,-25.1,M,1.8,0000*79
$GPGSA,A,3,07,10,03,32,08,,,,,,,,4.3,1.6,4.0*3A
$GPRMC,205155.000,A,3748.5099,N,12217.9956,W,2.78,210.17,240511,,,D*7D
$GPVTG,210.17,T,,M,2.78,N,5.2,K,D*07
$GPGGA,205156.000,3748.5088,N,12217.9958,W,2,05,1.6,28.2,M,-25.1,M,1.8,0000*79
$GPGSA,A,3,07,10,03,32,08,,,,,,,,4.3,1.6,4.0*3A
$GPRMC,205156.000,A,3748.5088,N,12217.9958,W,1.95,192.46,240511,,,D*7D
$GPVTG,192.46,T,,M,1.95,N,3.6,K,D*08
$GPGGA,205157.000,3748.5081,N,12217.9959,W,2,05,1.6,30.2,M,-25.1,M,2.8,0000*7A
$GPGSA,A,3,07,10,03,32,08,,,,,,,,4.3,1.6,4.0*3A
$GPGSV,3,1,12,13,65,343,26,23,63,083,28,07,43,266,36,16,40,054,25*7E
$GPGSV,3,2,12,10,32,308,20,20,32,178,26,03,18,106,26,08,18,251,21*76
$GPGSV,3,3,12,06,15,090,24,32,14,160,32,04,07,267,18,19,04,131,*73
$GPRMC,205157.000,A,3748.5081,N,12217.9959,W,1.71,199.53,240511,,,D*71
$GPVTG,199.53,T,,M,1.71,N,3.2,K,D*09
$GPGGA,205158.000,3748.5074,N,12217.9962,W,2,05,1.6,31.5,M,-25.1,M,3.8,0000*70
$GPGSA,A,3,07,10,03,32,08,,,,,,,,4.3,1.6,4.0*3A
$GPRMC,205158.000,A,3748.5074,N,12217.9962,W,2.24,197.10,240511,,,D*76
$GPVTG,197.10,T,,M,2.24,N,4.1,K,D*07
$GPGGA,205159.000,3748.5070,N,12217.9964,W,2,05,1.6,32.9,M,-25.1,M,4.8,0000*7B
$GPGSA,A,3,07,10,03,32,08,,,,,,,,4.3,1.6,4.0*3A
$GPRMC,205159.000,A,3748.5070,N,12217.9964,W,0.97,190.78,240511,,,D*76
$GPVTG,190.78,T,,M,0.97,N,1.8,K,D*08
$GPGGA,205200.000,3748.5062,N,12217.9970,W,2,05,1.6,34.2,M,-25.1,M,5.8,0000*7E
$GPGSA,A,3,07,10,03,32,08,,,,,,,,4.3,1.6,4.0*3A
$GPRMC,205200.000,A,3748.5062,N,12217.9970,W,1.88,195.26,240511,,,D*7E
$GPVTG,195.26,T,,M,1.88,N,3.5,K,D*06
$GPGGA,205201.000,3748.5059,N,12217.9975,W,2,05,1.6,34.7,M,-25.1,M,1.8,0000*73
$GPGSA,A,3,07,10,03,32,08,,,,,,,,4.3,1.6,4.0*3A
$GPRMC,205201.000,A,3748.5059,N,12217.9975,W,2.30,197.37,240511,,,D*70
$GPVTG,197.37,T,,M,2.30,N,4.3,K,D*05
$GPGGA,205202.000,3748.5049,N,12217.9982,W,2,05,1.6,35.2,M,-25.1,M,1.8,0000*7D
$GPGSA,A,3,07,10,03,32,08,,,,,,,,4.3,1.6,4.0*3A
$GPGSV,3,1,12,13,65,343,26,23,63,083,25,07,43,266,38,16,40,054,18*73
$GPGSV,3,2,12,10,32,308,22,20,32,178,36,03,18,106,21,08,18,251,20*73
$GPRMC,205202.000,A,3748.5049,N,12217.9982,W,2.12,201.97,240511,,,D*7C
$GPVTG,201.97,T,,M,2.12,N,3.9,K,D*0E
$GPGGA,205203.000,3748.5041,N,12217.9993,W,2,05,1.6,34.0,M,-25.1,M,1.8,0000*77
$GPGSA,A,3,07,10,03,32,08,,,,,,,,4.3,1.6,4.0*3A
$GPRMC,205203.000,A,3748.5041,N,12217.9993,W,2.31,210.16,240511,,,D*7D
$GPVTG,210.16,T,,M,2.31,N,4.3,K,D*0B
$GPGGA,205204.000,3748.5033,N,12217.9999,W,2,05,1.6,34.4,M,-25.1,M,2.8,0000*78
$GPGSA,A,3,07,10,03,32,08,,,,,,,,4.3,1.6,4.0*3A
$GPRMC,205204.000,A,3748.5033,N,12217.9999,W,2.60,201.56,240511,,,D*75
$GPVTG,201.56,T,,M,2.60,N,4.8,K,D*00
$GPGGA,205205.000,3748.5027,N,12218.0010,W,2,05,1.6,32.8,M,-25.1,M,3.8,0000*79
$GPGSA,A,3,07,10,03,32,08,,,,,,,,4.3,1.6,4.0*3A
$GPRMC,205205.000,A,3748.5027,N,12218.0010,W,2.62,208.20,240511,,,D*75
$GPVTG,208.20,T,,M,2.62,N,4.9,K,D*0B
$GPGGA,205206.000,3748.5020,N,12218.0019,W,2,05,1.6,31.4,M,-25.1,M,0.8,0000*78
$GPGSA,A,3,07,10,03,32,08,,,,,,,,4.3,1.6,4.0*3A
$GPRMC,205206.000,A,3748.5020,N,12218.0019,W,2.45,204.60,240511,,,D*75
$GPVTG,204.60,T,,M,2.45,N,4.5,K,D*0A
$GPGGA,205207.000,3748.5010,N,12218.0030,W,2,05,1.6,30.3,M,-25.1,M,1.8,0000*76
$GPGSA,A,3,07,10,03,32,08,,,,,,,,4.3,1.6,4.0*3A
$GPGSV,3,1,12,13,65,343,26,23,63,083,27,07,43,266,29,16,40,054,20*7A
$GPGSV,3,2,12,10,32,308,23,20,32,178,37,03,18,106,25,08,18,251,30*76
$GPGSV,3,3,12,06,15,090,23,32,14,160,34,04,07,267,19,19,04,131,*73
$GPRMC,205207.000,A,3748.5010,N,12218.0030,W,2.03,205.46,240511,,,D*7B
$GPVTG,205.46,T,,M,2.03,N,3.8,K,D*07
$GPGGA,205208.000,3748.5003,N,12218.0037,W,2,05,1.6,29.2,M,-25.1,M,1.8,0000*75
$GPGSA,A,3,07,10,03,32,08,,,,,,,,4.3,1.6,4.0*3A
$GPRMC,205208.000,A,3748.5003,N,12218.0037,W,2.19,207.57,240511,,,D*78
$GPVTG,207.57,T,,M,2.19,N,4.1,K,D*00
$GPGGA,205209.000,3748.4995,N,12218.0044,W,2,05,1.6,28.2,M,-25.1,M,1.8,0000*76
$GPGSA,A,3,07,10,03,32,08,,,,,,,,4.3,1.6,4.0*3A
$GPRMC,205209.000,A,3748.4995,N,12218.0044,W,1.71,206.14,240511,,,D*71
$GPVTG,206.14,T,,M,1.71,N,3.2,K,D*0F
$GPGGA,205210.000,3748.4987,N,12218.0051,W,2,05,1.6,27.5,M,-25.1,M,2.8,0000*72
$GPGSA,A,3,07,10,03,32,08,,,,,,,,4.3,1.6,4.0*3A
$GPRMC,205210.000,A,3748.4987,N,12218.0051,W,1.81,209.78,240511,,,D*74
$GPVTG,209.78,T,,M,1.81,N,3.3,K,D*04
$GPGGA,205211.000,3748.4975,N,12218.0057,W,2,05,1.6,27.5,M,-25.1,M,1.8,0000*7B
$GPGSA,A,3,07,10,03,32,08,,,,,,,,4.3,1.6,4.0*3A
$GPRMC,205211.000,A,3748.4975,N,12218.0057,W,2.84,204.23,240511,,,D*7B
$GPVTG,204.23,T,,M,2.84,N,5.3,K,D*07
$GPGGA,205212.000,3748.4969,N,12218.0066,W,2,05,1.6,26.0,M,-25.1,M,1.8,0000*73
$GPGSA,A,3,07,10,03,32,08,,,,,,,,4.3,1.6,4.0*3A
$GPGSV,3,1,12,13,65,343,26,23,63,083,27,07,43,266,38,16,40,054,20*7A
$GPGSV,3,2,12,10,32,308,33,20,32,178,36,03,18,106,14,08,18,251,39*7D
$GPGSV,3,3,12,06,15,090,22,32,14,160,27,04,07,267,28,19,04,131,*72
$GPRMC,205212.000,A,3748.4969,N,12218.0066,W,3.03,225.52,240511,,,D*7C
$GPVTG,225.52,T,,M,3.03,N,5.6,K,D*09
$GPGGA,205213.000,3748.4963,N,12218.0078,W,2,05,1.6,24.4,M,-25.1,M,1.8,0000*71
$GPGSA,A,3,07,10,03,32,08,,,,,,,,4.3,1.6,4.0*3A
$GPRMC,205213.000,A,3748.4963,N,12218.0078,W,3.27,214.15,240511,,,D*7F
$GPVTG,214.15,T,,M,3.27,N,6.0,K,D*0B
$GPGGA,205214.000,3748.4959,N,12218.0085,W,2,05,1.6,22.9,M,-25.1,M,1.8,0000*76
$GPGSA,A,3,07,10,03,32,08,,,,,,,,4.3,1.6,4.0*3A
$GPRMC,205214.000,A,3748.4959,N,12218.0085,W,3.02,209.33,240511,,,D*7C
$GPVTG,209.33,T,,M,3.02,N,5.6,K,D*01
$GPGGA,205215.000,3748.4952,N,12218.0093,W,2,05,1.6,20.7,M,-25.1,M,2.8,0000*74
$GPGSA,A,3,07,10,03,32,08,,,,,,,,4.3,1.6,4.0*3A
$GPRMC,205215.000,A,3748.4952,N,12218.0093,W,3.64,204.63,240511,,,D*79
$GPVTG,204.63,T,,M,3.64,N,6.7,K,D*0B
$GPGGA,205216.000,3748.4946,N,12218.0098,W,2,05,1.6,19.3,M,-25.1,M,3.8,0000*76
$GPGSA,A,3,07,10,03,32,08,,,,,,,,4.3,1.6,4.0*3A
$GPRMC,205216.000,A,3748.4946,N,12218.0098,W,2.21,201.37,240511,,,D*70
$GPVTG,201.37,T,,M,2.21,N,4.1,K,D*0B
$GPGGA,205217.000,3748.4942,N,12218.0100,W,2,05,1.6,18.8,M,-25.1,M,4.8,0000*7E
$GPGSA,A,3,07,10,03,32,08,,,,,,,,4.3,1.6,4.0*3A
$GPGSV,3,1,12,13,65,343,26,23,63,083,27,07,43,266,38,16,40,054,20*7A
$GPGSV,3,2,12,10,32,308,34,20,32,178,36,03,18,106,25,08,18,251,28*78
$GPGSV,3,3,12,06,15,090,22,32,14,160,20,04,07,267,25,19,04,131,*78
$GPRMC,205217.000,A,3748.4942,N,12218.0100,W,2.05,203.80,240511,,,D*7D
$GPVTG,203.80,T,,M,2.05,N,3.8,K,D*0D
$GPGGA,205218.000,3748.4938,N,12218.0102,W,2,05,1.6,18.6,M,-25.1,M,1.8,0000*75
$GPGSA,A,3,07,10,03,32,08,,,,,,,,4.3,1.6,4.0*3A
$GPRMC,205218.000,A,3748.4938,N,12218.0102,W,2.00,200.68,240511,,,D*7D
$GPVTG,200.68,T,,M,2.00,N,3.7,K,D*02
$GPGGA,205219.000,3748.4934,N,12218.0105,W,2,05,1.6,18.7,M,-25.1,M,1.8,0000*7E
$GPGSA,A,3,07,10,03,32,08,,,,,,,,4.3,1.6,4.0*3A
$GPRMC,205219.000,A,3748.4934,N,12218.0105,W,2.10,203.54,240511,,,D*7A
$GPVTG,203.54,T,,M,2.10,N,3.9,K,D*01
$GPGGA,205220.000,3748.4931,N,12218.0106,W,2,05,1.6,19.7,M,-25.1,M,1.8,0000*73
$GPGSA,A,3,07,10,03,32,08,,,,,,,,4.3,1.6,4.0*3A
$GPRMC,205220.000,A,3748.4931,N,12218.0106,W,2.10,204.30,240511,,,D*73
$GPVTG,204.30,T,,M,2.10,N,3.9,K,D*04
$GPGGA,205221.000,3748.4927,N,12218.0108,W,2,05,1.6,20.4,M,-25.1,M,2.8,0000*71
$GPGSA,A,3,07,10,03,32,08,,,,,,,,4.3,1.6,4.0*3A
$GPRMC,205221.000,A,3748.4927,N,12218.0108,W,2.33,210.77,240511,,,D*7C
$GPVTG,210.77,T,,M,2.33,N,4.3,K,D*0E
$GPGGA,205222.000,3748.4922,N,12218.0114,W,2,05,1.6,20.6,M,-25.1,M,3.8,0000*79
$GPGSA,A,3,07,10,03,32,08,,,,,,,,4.3,1.6,4.0*3A
$GPGSV,3,1,12,13,65,343,27,23,63,083,27,07,43,266,38,16,40,054,21*7A
$GPGSV,3,2,12,10,32,308,34,20,32,178,36,03,18,106,25,08,18,251,21*71
$GPGSV,3,3,12,06,15,090,23,32,14,160,28,04,07,267,23,19,04,131,*77
$GPRMC,205222.000,A,3748.4922,N,12218.0114,W,2.18,207.44,240511,,,D*78
$GPGGA,205223.000,3748.4919,N,12218.0117,W,2,05,1.6,20.0,M,-25.1,M,4.8,0000*72
$GPGSA,A,3,07,10,03,32,08,,,,,,,,4.3,1.6,4.0*3A
$GPRMC,205223.000,A,3748.4919,N,12218.0117,W,1.56,189.93,240511,,,D*74
$GPVTG,189.93,T,,M,1.56,N,2.9,K,D*0B
$GPGGA,205224.000,3748.4921,N,12218.0116,W,2,05,1.6,18.5,M,-25.1,M,1.8,0000*74
$GPGSA,A,3,07,10,03,32,08,,,,,,,,4.3,1.6,4.0*3A
$GPRMC,205224.000,A,3748.4921,N,12218.0116,W,1.13,183.10,240511,,,D*79
$GPVTG,183.10,T,,M,1.13,N,2.1,K,D*03
$GPGGA,205225.000,3748.4915,N,12218.0121,W,2,05,1.6,16.7,M,-25.1,M,1.8,0000*7A
$GPGSA,A,3,07,10,03,32,08,,,,,,,,4.3,1.6,4.0*3A
$GPRMC,205225.000,A,3748.4915,N,12218.0121,W,1.11,201.17,240511,,,D*77
$GPVTG,201.17,T,,M,1.11,N,2.1,K,D*0F
$GPGGA,205226.000,3748.4902,N,12218.0132,W,2,05,1.6,18.0,M,-25.1,M,1.8,0000*74
$GPGSA,A,3,07,10,03,32,08,,,,,,,,4.3,1.6,4.0*3A
$GPRMC,205226.000,A,3748.4902,N,12218.0132,W,1.91,205.10,240511,,,D*7B
$GPVTG,205.10,T,,M,1.91,N,3.5,K,D*01
$GPGGA,205227.000,3748.4898,N,12218.0138,W,2,04,2.4,16.6,M,-25.1,M,1.8,0000*75
$GPGSA,A,3,07,03,32,08,,,,,,,,,5.0,2.4,4.4*3C
$GPGSV,3,1,12,13,65,343,27,23,63,083,27,07,43,266,37,16,40,054,20*74
$GPGSV,3,2,12,10,32,308,17,20,32,178,36,03,18,106,27,08,18,251,37*75
$GPGSV,3,3,12,06,15,090,23,32,14,160,35,04,07,267,22,19,04,131,*7A
$GPRMC,205227.000,A,3748.4898,N,12218.0138,W,1.46,219.27,240511,,,D*71
$GPVTG,219.27,T,,M,1.46,N,2.7,K,D*01
$GPGGA,205228.000,3748.4894,N,12218.0146,W,2,04,2.4,14.9,M,-25.1,M,2.8,0000*71
$GPGSA,A,3,07,03,32,08,,,,,,,,,5.0,2.4,4.5*3D
$GPRMC,205228.000,A,3748.4894,N,12218.0146,W,2.09,219.65,240511,,,D*75
$GPVTG,219.65,T,,M,2.09,N,3.9,K,D*00
$GPGGA,205229.000,3748.4890,N,12218.0154,W,2,04,2.4,13.1,M,-25.1,M,1.8,0000*7B
$GPGSA,A,3,07,03,32,08,,,,,,,,,5.0,2.4,4.5*3D
$GPRMC,205229.000,A,3748.4890,N,12218.0154,W,1.72,226.10,240511,,,D*72
$GPVTG,226.10,T,,M,1.72,N,3.2,K,D*0A
$GPGGA,205230.000,3748.4883,N,12218.0161,W,2,05,1.6,12.2,M,-25.1,M,1.8,0000*75
$GPGSA,A,3,07,10,03,32,08,,,,,,,,4.3,1.6,4.0*3A
$GPRMC,205230.000,A,3748.4883,N,12218.0161,W,1.98,214.33,240511,,,D*7A
$GPVTG,214.33,T,,M,1.98,N,3.7,K,D*0B
$GPGGA,205231.000,3748.4876,N,12218.0167,W,2,05,1.6,11.4,M,-25.1,M,1.8,0000*7D
$GPGSA,A,3,07,10,03,32,08,,,,,,,,4.3,1.6,4.0*3A
$GPRMC,205231.000,A,3748.4876,N,12218.0167,W,2.43,207.64,240511,,,D*72
$GPVTG,207.64,T,,M,2.43,N,4.5,K,D*0B
$GPGGA,205232.000,3748.4869,N,12218.0176,W,2,05,1.6,10.5,M,-25.1,M,1.8,0000*70
$GPGSA,A,3,07,10,03,32,08,,,,,,,,4.3,1.6,4.0*3A
$GPGSV,3,1,12,13,65,343,24,23,63,083,27,07,43,266,38,16,40,054,19*72
$GPGSV,3,2,12,10,32,308,32,20,32,178,36,03,18,106,20,08,18,251,39*7B
$GPGSV,3,3,12,06,15,090,17,32,14,160,31,04,07,267,22,19,04,131,*79
$GPRMC,205232.000,A,3748.4869,N,12218.0176,W,2.14,209.63,240511,,,D*74
$GPVTG,209.63,T,,M,2.14,N,4.0,K,D*05
$GPGGA,205233.000,3748.4861,N,12218.0185,W,2,05,1.6,9.9,M,-25.1,M,2.8,0000*42
$GPGSA,A,3,07,10,03,32,08,,,,,,,,4.3,1.6,4.0*3A
$GPRMC,205233.000,A,3748.4861,N,12218.0185,W,2.24,212.28,240511,,,D*77
$GPVTG,212.28,T,,M,2.24,N,4.1,K,D*02
$GPGGA,205234.000,3748.4854,N,12218.0194,W,2,05,1.6,9.3,M,-25.1,M,3.8,0000*48
$GPGSA,A,3,07,10,03,32,08,,,,,,,,4.3,1.6,4.0*3A
$GPRMC,205234.000,A,3748.4854,N,12218.0194,W,2.22,215.54,240511,,,D*7C
$GPVTG,215.54,T,,M,2.22,N,4.1,K,D*08
$GPGGA,205235.000,3748.4847,N,12218.0203,W,2,05,1.6,8.8,M,-25.1,M,1.8,0000*4E
$GPGSA,A,3,07,10,03,32,08,,,,,,,,4.3,1.6,4.0*3A
$GPRMC,205235.000,A,3748.4847,N,12218.0203,W,2.35,211.72,240511,,,D*74
$GPVTG,211.72,T,,M,2.35,N,4.3,K,D*0C
$GPGGA,205236.000,3748.4839,N,12218.0210,W,2,05,1.6,8.0,M,-25.1,M,1.8,0000*4E
$GPGSA,A,3,07,10,03,32,08,,,,,,,,4.3,1.6,4.0*3A
$GPRMC,205236.000,A,3748.4839,N,12218.0210,W,2.44,205.39,240511,,,D*70
$GPVTG,205.39,T,,M,2.44,N,4.5,K,D*06
$GPGGA,205237.000,3748.4832,N,12218.0217,W,2,05,1.6,7.3,M,-25.1,M,1.8,0000*4F
$GPGSA,A,3,07,10,03,32,08,,,,,,,,4.3,1.6,4.0*3A
$GPGSV,3,1,12,13,65,343,25,23,63,083,27,07,43,266,38,16,40,054,19*73
$GPGSV,3,2,12,10,32,308,34,20,32,178,36,03,18,106,20,08,18,251,39*7D
$GPGSV,3,3,12,06,15,090,18,32,14,160,30,04,07,267,23,19,04,131,*76
$GPVTG,211.86,T,,M,2.49,N,4.6,K,D*09
$GPGGA,205238.000,3748.4825,N,12218.0225,W,2,05,1.6,6.7,M,-25.1,M,0.8,0000*43
$GPGSA,A,3,07,10,03,32,08,,,,,,,,4.3,1.6,4.0*3A
$GPRMC,205238.000,A,3748.4825,N,12218.0225,W,2.60,214.50,240511,,,D*7C
$GPVTG,214.50,T,,M,2.60,N,4.8,K,D*02
