$ADVER,3080,2.3
$GPRMC,212728.096,A,3748.7979,N,12217.8685,W,0.09,355.66,170511,,,A*7A
$GPGGA,212729.096,3748.7977,N,12217.8681,W,1,03,3.1,25.1,M,-25.1,M,,0000*56
$GPGSA,A,2,13,10,08,,,,,,,,,,3.3,3.1,1.0*3B
$GPGSV,3,1,12,13,68,350,29,10,34,305,30,08,20,254,30,23,59,092,22*76
$GPGSV,3,2,12,07,46,270,30,16,37,050,26,20,28,178,21,03,20,102,30*7E
$GPGSV,3,3,12,06,16,087,,30,15,041,,32,11,161,25,19,06,129,25*75
$GPRMC,212729.096,A,3748.7977,N,12217.8681,W,0.14,357.17,170511,,,A*79
$GPVTG,357.17,T,,M,0.14,N,0.3,K,N*03
$GPGGA,212730.096,3748.7977,N,12217.8681,W,1,03,3.1,25.1,M,-25.1,M,,0000*5E
$GPGSA,A,2,13,10,08,,,,,,,,,,3.3,3.1,1.0*3B
$GPRMC,212730.096,A,3748.7977,N,12217.8681,W,0.11,33.01,170511,,,A*42
$GPVTG,33.01,T,,M,0.11,N,0.2,K,N*31
$GPGGA,212731.096,3748.7977,N,12217.8681,W,1,03,3.1,25.1,M,-25.1,M,,0000*5F
$GPGSA,A,2,13,10,08,,,,,,,,,,3.3,3.1,1.0*3B
$GPRMC,212731.096,A,3748.7977,N,12217.8681,W,0.12,22.18,170511,,,A*48
$GPVTG,22.18,T,,M,0.12,N,0.2,K,N*3A
$GPGGA,212732.096,3748.7976,N,12217.8681,W,1,03,3.1,25.1,M,-25.1,M,,0000*5D
$GPGSA,A,2,13,10,08,,,,,,,,,,3.3,3.1,1.0*3B
$GPRMC,212732.096,A,3748.7976,N,12217.8681,W,0.21,301.10,170511,,,A*70
$GPVTG,301.10,T,,M,0.21,N,0.4,K,N*06
$GPGGA,212733.096,3748.7976,N,12217.8681,W,1,03,3.1,25.1,M,-25.1,M,,0000*5C
$GPGSA,A,2,13,10,08,,,,,,,,,,3.3,3.1,1.0*3B
$GPRMC,212733.096,A,3748.7976,N,12217.8681,W,0.15,351.45,170511,,,A*73
$GPVTG,351.45,T,,M,0.15,N,0.3,K,N*03
$GPGGA,212742.096,3748.7991,N,12217.8638,W,1,03,3.1,25.1,M,-25.1,M,,0000*51
$GPGSA,A,2,13,10,08,,,,,,,,,,3.3,3.1,1.0*3B
$GPRMC,212742.096,A,3748.7991,N,12217.8638,W,1.21,164.72,170511,,,A*78
$GPVTG,164.72,T,,M,1.21,N,2.2,K,N*06
$GPGGA,212743.096,3748.7996,N,12217.8695,W,1,03,3.1,25.1,M,-25.1,M,,0000*50
$GPGSA,A,2,13,10,08,,,,,,,,,,3.3,3.1,1.0*3B
$GPRMC,212743.096,A,3748.7996,N,12217.8695,W,0.78,330.35,170511,,,A*74
$GPVTG,330.35,T,,M,0.78,N,1.4,K,N*0E
$GPGGA,212744.096,3748.8006,N,12217.8705,W,1,03,3.1,25.1,M,-25.1,M,,0000*50
$GPGSA,A,2,13,10,08,,,,,,,,,,3.3,3.1,1.0*3B
$GPGSV,3,1,12,13,68,350,38,10,34,305,34,08,20,254,35,23,59,092,39*7D
$GPGSV,3,2,12,07,46,270,38,16,37,050,28,20,28,178,40,03,20,102,30*7F
$GPGSV,3,3,12,06,16,087,,30,15,041,25,32,11,161,39,19,06,129,*78
$GPRMC,212744.096,A,3748.8006,N,12217.8705,W,0.45,279.19,170511,,,A*78
$GPGGA,212747.096,3748.8008,N,12217.8706,W,1,03,3.1,25.1,M,-25.1,M,,0000*5E
$GPGSA,A,2,13,10,08,,,,,,,,,,3.3,3.1,1.0*3B
$GPRMC,212747.096,A,3748.8008,N,12217.8706,W,0.55,101.13,170511,,,A*71
$GPVTG,101.13,T,,M,0.55,N,1.0,K,N*01
$GPGGA,212748.096,3748.8012,N,12217.8716,W,1,03,3.1,25.1,M,-25.1,M,,0000*5B
$GPGSA,A,2,13,10,08,,,,,,,,,,3.3,3.1,1.0*3B
$GPRMC,212748.096,A,3748.8012,N,12217.8716,W,0.28,58.79,170511,,,A*4F
$GPVTG,58.79,T,,M,0.28,N,0.5,K,N*3E
$GPGGA,212749.096,3748.7994,N,12217.8636,W,1,03,3.1,25.1,M,-25.1,M,,0000*51
$GPGSA,A,2,13,10,08,,,,,,,,,,3.3,3.1,1.0*3B
$GPGSV,3,1,12,13,68,350,27,10,34,305,35,08,20,254,30,23,59,092,20*7F
$GPGSV,3,2,12,07,46,270,40,16,37,050,28,20,28,178,29,03,20,102,24*7A
$GPGSV,3,3,12,06,16,087,,30,15,041,28,32,11,161,34,19,06,129,*78
$GPRMC,212749.096,A,3748.7994,N,12217.8636,W,0.13,27.34,170511,,,A*4C
$GPVTG,27.34,T,,M,0.13,N,0.2,K,N*30
$GPGGA,212750.096,3748.8010,N,12217.8676,W,1,03,3.1,25.1,M,-25.1,M,,0000*57
$GPGSA,A,2,13,10,08,,,,,,,,,,3.3,3.1,1.0*3B
$GPRMC,212750.096,A,3748.8010,N,12217.8676,W,0.15,324.07,170511,,,A*7C
$GPVTG,324.07,T,,M,0.15,N,0.3,K,N*07
$GPGGA,212751.096,3748.8053,N,12217.8751,W,1,03,3.1,25.1,M,-25.1,M,,0000*55
$GPGSA,A,2,13,10,08,,,,,,,,,,3.3,3.1,1.0*3B
$GPRMC,212751.096,A,3748.8053,N,12217.8751,W,0.54,338.75,170511,,,A*73
$GPVTG,338.75,T,,M,0.54,N,1.0,K,N*08
$GPGGA,212752.096,3748.8027,N,12217.8696,W,1,04,4.5,16.3,M,-25.1,M,,0000*59
$GPGSA,A,3,13,07,10,08,,,,,,,,,7.2,4.5,5.6*39
$GPRMC,212752.096,A,3748.8027,N,12217.8696,W,0.19,0.00,170511,,,A*7A
$GPVTG,0.00,T,,M,0.19,N,0.4,K,A*01
$GPGGA,212753.096,3748.8012,N,12217.8679,W,1,04,4.5,9.5,M,-25.1,M,,0000*67
$GPGSA,A,3,13,07,10,08,,,,,,,,,7.2,4.5,5.6*39
$GPRMC,212753.096,A,3748.8012,N,12217.8679,W,0.65,0.55,170511,,,A*77
$GPVTG,0.55,T,,M,0.65,N,1.2,K,A*0D
$GPGGA,212754.096,3748.8010,N,12217.8677,W,1,04,4.5,8.2,M,-25.1,M,,0000*6A
$GPGSA,A,3,13,07,10,08,,,,,,,,,7.2,4.5,5.6*39
$GPGSV,3,1,12,13,68,350,31,07,46,270,33,10,34,305,37,08,20,254,28*77
$GPGSV,3,2,12,23,59,092,27,16,37,050,22,20,28,178,24,03,20,102,23*7D
$GPGSV,3,3,12,06,16,086,,30,15,041,26,32,10,161,26,19,06,129,*75
$GPRMC,212754.096,A,3748.8010,N,12217.8677,W,0.60,307.20,170511,,,A*7F
$GPVTG,307.20,T,,M,0.60,N,1.1,K,A*0D
$GPGGA,212755.000,3748.8034,N,12217.8708,W,1,04,4.5,14.5,M,-25.1,M,,0000*51
$GPGSA,A,3,13,07,10,08,,,,,,,,,7.2,4.5,5.6*39
$GPRMC,212755.000,A,3748.8034,N,12217.8708,W,0.86,354.06,170511,,,A*74
$GPVTG,354.06,T,,M,0.86,N,1.6,K,A*00
$GPGGA,212756.000,3748.8067,N,12217.8736,W,1,04,4.5,21.7,M,-25.1,M,,0000*5D
$GPGSA,A,3,13,07,10,08,,,,,,,,,7.2,4.5,5.6*39
$GPRMC,212756.000,A,3748.8067,N,12217.8736,W,1.09,11.12,170511,,,A*4D
$GPVTG,11.12,T,,M,1.09,N,2.0,K,A*34
$GPGGA,212757.000,3748.8067,N,12217.8726,W,1,04,4.5,19.3,M,-25.1,M,,0000*52
$GPGSA,A,3,13,07,10,08,,,,,,,,,7.2,4.5,5.6*39
$GPRMC,212757.000,A,3748.8067,N,12217.8726,W,0.38,20.14,170511,,,A*4A
$GPVTG,20.14,T,,M,0.38,N,0.7,K,A*36
$GPGGA,212758.000,3748.8066,N,12217.8699,W,1,04,4.5,12.5,M,-25.1,M,,0000*54
$GPGSA,A,3,13,07,10,08,,,,,,,,,7.2,4.5,5.6*39
$GPRMC,212758.000,A,3748.8066,N,12217.8699,W,0.31,28.62,170511,,,A*41
$GPVTG,28.62,T,,M,0.31,N,0.6,K,A*37
$GPGGA,212759.000,3748.8065,N,12217.8692,W,1,03,10.8,10.1,M,-25.1,M,,0000*64
$GPGSA,A,2,07,10,08,,,,,,,,,,10.8,10.8,1.0*3C
$GPGSV,3,1,12,13,68,350,,07,46,270,33,10,34,305,34,08,20,254,30*7F
$GPGSV,3,2,12,23,59,092,27,16,37,050,24,20,28,178,32,03,20,102,30*7E
$GPGSV,3,3,12,06,16,086,,30,15,041,31,32,10,161,29,19,06,129,*7C
$GPRMC,212759.000,A,3748.8065,N,12217.8692,W,0.33,352.07,170511,,,A*77
$GPGGA,212800.000,3748.8067,N,12217.8682,W,1,04,4.5,6.6,M,-25.1,M,,0000*6B
$GPGSA,A,3,13,07,10,08,,,,,,,,,7.2,4.5,5.6*39
$GPRMC,212800.000,A,3748.8067,N,12217.8682,W,0.59,45.05,170511,,,A*4C
$GPVTG,45.05,T,,M,0.59,N,1.1,K,A*35
$GPGGA,212801.000,3748.8070,N,12217.8680,W,1,04,4.5,3.7,M,-25.1,M,,0000*6A
$GPGSA,A,3,13,07,10,08,,,,,,,,,7.2,4.5,5.6*39
$GPRMC,212801.000,A,3748.8070,N,12217.8680,W,0.59,75.07,170511,,,A*48
$GPVTG,75.07,T,,M,0.59,N,1.1,K,A*34
$GPGGA,212802.000,3748.8072,N,12217.8678,W,1,04,4.5,1.6,M,-25.1,M,,0000*6F
$GPGSA,A,3,13,07,10,08,,,,,,,,,7.2,4.5,5.6*39
$GPRMC,212802.000,A,3748.8072,N,12217.8678,W,0.73,78.21,170511,,,A*4F
$GPVTG,78.21,T,,M,0.73,N,1.4,K,A*30
$GPGGA,212803.000,3748.8074,N,12217.8686,W,1,04,4.5,0.5,M,-25.1,M,,0000*6B
$GPGSA,A,3,13,07,10,08,,,,,,,,,7.2,4.5,5.6*39
$GPRMC,212803.000,A,3748.8074,N,12217.8686,W,1.01,79.93,170511,,,A*45
$GPVTG,79.93,T,,M,1.01,N,1.9,K,A*31
$GPGGA,212804.000,3748.8076,N,12217.8697,W,1,04,4.5,-0.3,M,-25.1,M,,0000*45
$GPGSA,A,3,13,07,10,08,,,,,,,,,7.2,4.5,5.6*39
$GPGSV,3,1,12,13,68,350,21,07,46,270,33,10,34,305,29,08,20,254,33*73
$GPGSV,3,2,12,23,59,092,27,16,37,050,20,20,28,178,32,03,20,102,28*73
$GPGSV,3,3,12,06,16,086,,30,15,041,32,32,10,161,28,19,06,129,*7E
$GPRMC,212804.000,A,3748.8076,N,12217.8697,W,0.43,63.66,170511,,,A*46
$GPVTG,63.66,T,,M,0.43,N,0.8,K,A*37
$GPGGA,212805.000,3748.8078,N,12217.8703,W,1,04,4.5,-1.2,M,-25.1,M,,0000*46
$GPGSA,A,3,13,07,10,08,,,,,,,,,7.2,4.5,5.6*39
$GPRMC,212805.000,A,3748.8078,N,12217.8703,W,0.46,299.81,170511,,,A*7E
$GPVTG,299.81,T,,M,0.46,N,0.8,K,A*0C
$GPGGA,212806.000,3748.8078,N,12217.8697,W,1,04,4.5,-1.2,M,-25.1,M,,0000*49
$GPGSA,A,3,13,07,10,08,,,,,,,,,7.2,4.5,5.6*39
$GPRMC,212806.000,A,3748.8078,N,12217.8697,W,0.52,48.35,170511,,,A*45
$GPVTG,48.35,T,,M,0.52,N,1.0,K,A*31
$GPGGA,212807.000,3748.8083,N,12217.8703,W,1,03,10.7,0.6,M,-25.1,M,,0000*58
$GPGSA,A,2,07,10,08,,,,,,,,,,10.8,10.7,1.0*33
$GPRMC,212807.000,A,3748.8083,N,12217.8703,W,0.46,44.08,170511,,,A*4B
$GPVTG,44.08,T,,M,0.46,N,0.9,K,N*31
$GPGGA,212808.000,3748.8087,N,12217.8712,W,1,04,4.5,1.8,M,-25.1,M,,0000*6C
$GPGSA,A,3,13,07,10,08,,,,,,,,,7.2,4.5,5.6*39
$GPRMC,212808.000,A,3748.8087,N,12217.8712,W,0.31,336.80,170511,,,A*76
$GPVTG,336.80,T,,M,0.31,N,0.6,K,A*07
$GPGGA,212809.000,3748.8085,N,12217.8712,W,1,04,4.5,0.6,M,-25.1,M,,0000*60
$GPGSA,A,3,13,07,10,08,,,,,,,,,7.2,4.5,5.6*39
$GPGSV,3,1,12,13,68,350,19,07,46,270,29,10,34,305,32,08,20,254,24*7F
$GPGSV,3,2,12,23,59,092,21,16,37,050,21,20,28,178,24,03,20,102,27*7C
$GPGSV,3,3,12,06,16,086,26,30,15,041,32,32,10,161,28,19,06,129,*7A
$GPRMC,212809.000,A,3748.8085,N,12217.8712,W,0.84,276.99,170511,,,A*76
$GPVTG,276.99,T,,M,0.84,N,1.6,K,A*05
$GPGGA,212810.000,3748.8083,N,12217.8694,W,1,04,4.5,0.1,M,-25.1,M,,0000*66
$GPGSA,A,3,13,07,10,08,,,,,,,,,7.2,4.5,5.6*39
$GPRMC,212810.000,A,3748.8083,N,12217.8694,W,0.60,80.78,170511,,,A*49
$GPVTG,80.78,T,,M,0.60,N,1.1,K,A*3C
$GPGGA,212811.000,3748.8080,N,12217.8674,W,1,04,4.5,-0.2,M,-25.1,M,,0000*44
$GPGSA,A,3,13,07,10,08,,,,,,,,,7.2,4.5,5.6*39
$GPRMC,212811.000,A,3748.8080,N,12217.8674,W,0.96,95.54,170511,,,A*46
$GPVTG,95.54,T,,M,0.96,N,1.8,K,A*36
$GPGGA,212812.000,3748.8075,N,12217.8654,W,1,04,4.5,-0.4,M,-25.1,M,,0000*49
$GPGSA,A,3,13,07,10,08,,,,,,,,,7.2,4.5,5.6*39
$GPRMC,212812.000,A,3748.8075,N,12217.8654,W,1.10,97.14,170511,,,A*44
$GPVTG,97.14,T,,M,1.10,N,2.0,K,A*34
$GPGGA,212813.000,3748.8059,N,12217.8628,W,1,04,4.5,-0.0,M,-25.1,M,,0000*49
$GPGSA,A,3,13,07,10,08,,,,,,,,,7.2,4.5,5.6*39
$GPRMC,212813.000,A,3748.8059,N,12217.8628,W,1.53,118.25,170511,,,A*73
$GPVTG,118.25,T,,M,1.53,N,2.8,K,A*0F
$GPGGA,212814.000,3748.8054,N,12217.8617,W,1,04,4.5,-0.2,M,-25.1,M,,0000*4D
$GPGSA,A,3,13,07,10,08,,,,,,,,,7.2,4.5,5.6*39
$GPGSV,3,1,12,13,68,350,29,07,46,270,28,10,34,305,23,08,20,254,29*70
$GPGSV,3,2,12,23,59,092,22,16,37,050,21,20,28,178,22,03,20,102,28*76
$GPGSV,3,3,12,06,16,086,24,30,15,041,22,32,10,161,18,19,06,129,*7A
$GPRMC,212814.000,A,3748.8054,N,12217.8617,W,1.81,129.65,170511,,,A*7C
$GPVTG,129.65,T,,M,1.81,N,3.4,K,A*0B
$GPGGA,212815.000,3748.8049,N,12217.8611,W,1,04,4.5,0.0,M,-25.1,M,,0000*69
$GPGSA,A,3,13,07,10,08,,,,,,,,,7.2,4.5,5.6*39
$GPRMC,212815.000,A,3748.8049,N,12217.8611,W,1.23,127.70,170511,,,A*75
$GPVTG,127.70,T,,M,1.23,N,2.3,K,A*0F
$GPGGA,212816.000,3748.8050,N,12217.8609,W,1,03,3.1,0.0,M,-25.1,M,,0000*6F
$GPGSA,A,2,13,10,08,,,,,,,,,,3.3,3.1,1.0*3B
$GPRMC,212816.000,A,3748.8050,N,12217.8609,W,0.47,71.91,170511,,,A*49
$GPVTG,71.91,T,,M,0.47,N,0.9,K,A*39
$GPGGA,212817.000,3748.8052,N,12217.8610,W,1,03,3.1,0.4,M,-25.1,M,,0000*60
$GPGSA,A,2,13,10,08,,,,,,,,,,3.3,3.1,1.0*3B
$GPRMC,212817.000,A,3748.8052,N,12217.8610,W,0.70,126.62,170511,,,A*79
$GPVTG,126.62,T,,M,0.70,N,1.3,K,A*09
$GPGGA,212818.000,3748.8049,N,12217.8643,W,1,04,4.5,7.3,M,-25.1,M,,0000*67
$GPGSA,A,3,13,07,10,08,,,,,,,,,7.2,4.5,5.6*39
$GPRMC,212818.000,A,3748.8049,N,12217.8643,W,0.50,152.63,170511,,,A*7A
$GPVTG,152.63,T,,M,0.50,N,0.9,K,A*02
$GPGGA,212819.000,3748.8041,N,12217.8640,W,1,04,4.5,8.8,M,-25.1,M,,0000*69
$GPGSA,A,3,13,07,10,08,,,,,,,,,7.2,4.5,5.6*39
$GPGSV,3,1,12,13,68,350,34,07,46,270,33,10,34,305,37,08,20,254,28*72
$GPGSV,3,2,12,23,59,092,23,16,37,050,,20,28,178,35,03,20,102,26*7C
$GPGSV,3,3,12,06,16,086,24,30,15,041,32,32,10,161,33,19,06,129,*72
$GPRMC,212819.000,A,3748.8041,N,12217.8640,W,0.38,76.21,170511,,,A*4F
$GPVTG,76.21,T,,M,0.38,N,0.7,K,A*33
$GPGGA,212820.000,3748.8037,N,12217.8638,W,1,04,4.5,9.9,M,-25.1,M,,0000*6D
$GPGSA,A,3,13,07,10,08,,,,,,,,,7.2,4.5,5.6*39
$GPRMC,212820.000,A,3748.8037,N,12217.8638,W,0.57,21.91,170511,,,A*4B
$GPVTG,21.91,T,,M,0.57,N,1.0,K,A*35
$GPGGA,212821.000,3748.8038,N,12217.8642,W,1,04,4.5,11.0,M,-25.1,M,,0000*5E
$GPGSA,A,3,13,07,10,08,,,,,,,,,7.2,4.5,5.6*39
$GPRMC,212821.000,A,3748.8038,N,12217.8642,W,0.55,308.18,170511,,,A*73
$GPVTG,308.18,T,,M,0.55,N,1.0,K,A*0E
$GPGGA,212822.000,3748.8036,N,12217.8644,W,1,04,4.5,11.9,M,-25.1,M,,0000*5C
$GPGSA,A,3,13,07,10,08,,,,,,,,,7.2,4.5,5.6*39
$GPRMC,212822.000,A,3748.8036,N,12217.8644,W,0.25,312.86,170511,,,A*73
$GPVTG,312.86,T,,M,0.25,N,0.5,K,A*01
$GPGGA,212823.000,3748.8034,N,12217.8652,W,1,04,4.5,14.1,M,-25.1,M,,0000*55
$GPGSA,A,3,13,07,10,08,,,,,,,,,7.2,4.5,5.6*39
$GPRMC,212823.000,A,3748.8034,N,12217.8652,W,0.69,259.23,170511,,,A*7E
$GPVTG,259.23,T,,M,0.69,N,1.3,K,A*0F
$GPGGA,212824.000,3748.8027,N,12217.8660,W,1,04,4.5,16.0,M,-25.1,M,,0000*52
$GPGSA,A,3,13,07,10,08,,,,,,,,,7.2,4.5,5.6*39
$GPGSV,3,1,12,13,68,350,25,07,46,270,33,10,34,305,35,08,20,254,32*7B
$GPGSV,3,2,12,23,59,092,20,16,37,050,25,20,28,178,25,03,20,102,15*79
$GPGSV,3,3,12,06,16,086,16,30,15,041,15,32,10,161,28,19,06,129,*7C
$GPRMC,212824.000,A,3748.8027,N,12217.8660,W,1.09,170.26,170511,,,A*70
$GPVTG,170.26,T,,M,1.09,N,2.0,K,A*05
$GPGGA,212825.000,3748.8023,N,12217.8663,W,1,04,4.5,16.1,M,-25.1,M,,0000*55
$GPGSA,A,3,13,07,10,08,,,,,,,,,7.2,4.5,5.6*39
$GPRMC,212825.000,A,3748.8023,N,12217.8663,W,1.21,202.66,170511,,,A*7E
$GPVTG,202.66,T,,M,1.21,N,2.2,K,A*0F
$GPGGA,212826.000,3748.8017,N,12217.8673,W,1,04,4.5,17.7,M,-25.1,M,,0000*57
$GPGSA,A,3,13,07,10,08,,,,,,,,,7.2,4.5,5.6*39
$GPRMC,212826.000,A,3748.8017,N,12217.8673,W,1.47,231.98,170511,,,A*7A
$GPVTG,231.98,T,,M,1.47,N,2.7,K,A*0B
$GPGGA,212827.000,3748.8016,N,12217.8682,W,1,04,4.5,19.3,M,-25.1,M,,0000*53
$GPGSA,A,3,13,07,10,08,,,,,,,,,7.2,4.5,5.6*39
$GPRMC,212827.000,A,3748.8016,N,12217.8682,W,1.01,252.03,170511,,,A*71
$GPVTG,252.03,T,,M,1.01,N,1.9,K,A*03
$GPGGA,212828.000,3748.8016,N,12217.8674,W,1,04,4.5,17.9,M,-25.1,M,,0000*51
$GPGSA,A,3,13,07,10,08,,,,,,,,,7.2,4.5,5.6*39
$GPRMC,212828.000,A,3748.8016,N,12217.8674,W,0.88,334.97,170511,,,A*7B
$GPVTG,334.97,T,,M,0.88,N,1.6,K,A*00
$GPGGA,212829.000,3748.8017,N,12217.8674,W,1,04,4.5,18.4,M,-25.1,M,,0000*53
$GPGSA,A,3,13,07,10,08,,,,,,,,,7.2,4.5,5.6*39
$GPGSV,3,1,12,13,68,350,41,07,46,270,40,10,34,305,41,08,20,254,31*7D
$GPGSV,3,2,12,23,59,092,36,16,37,050,34,20,28,178,33,03,20,102,25*7A
$GPGSV,3,3,12,06,16,086,21,30,15,041,31,32,10,161,29,19,06,129,*7F
$GPRMC,212829.000,A,3748.8017,N,12217.8674,W,1.45,337.22,170511,,,A*76
$GPGGA,212830.000,3748.8017,N,12217.8677,W,1,04,4.5,19.2,M,-25.1,M,,0000*5F
$GPGSA,A,3,13,07,10,08,,,,,,,,,7.2,4.5,5.6*39
$GPRMC,212830.000,A,3748.8017,N,12217.8677,W,0.87,295.56,170511,,,A*78
$GPVTG,295.56,T,,M,0.87,N,1.6,K,A*08
$GPGGA,212831.000,3748.8016,N,12217.8677,W,1,04,4.5,20.1,M,-25.1,M,,0000*56
$GPGSA,A,3,13,07,10,08,,,,,,,,,7.2,4.5,5.6*39
$GPRMC,212831.000,A,3748.8016,N,12217.8677,W,0.59,287.21,170511,,,A*78
$GPVTG,287.21,T,,M,0.59,N,1.1,K,A*0F
$GPGGA,212832.000,3748.8015,N,12217.8679,W,1,04,4.5,21.1,M,-25.1,M,,0000*59
$GPGSA,A,3,13,07,10,08,,,,,,,,,7.2,4.5,5.6*39
$GPRMC,212832.000,A,3748.8015,N,12217.8679,W,0.55,283.53,170511,,,A*7B
$GPVTG,283.53,T,,M,0.55,N,1.0,K,A*03
$GPGGA,212833.000,3748.8014,N,12217.8679,W,1,04,4.5,22.0,M,-25.1,M,,0000*5B
$GPGSA,A,3,13,07,10,08,,,,,,,,,7.2,4.5,5.6*39
$GPRMC,212833.000,A,3748.8014,N,12217.8679,W,0.56,294.97,170511,,,A*76
$GPVTG,294.97,T,,M,0.56,N,1.0,K,A*0E
$GPGGA,212834.000,3748.8014,N,12217.8679,W,1,04,4.5,22.7,M,-25.1,M,,0000*5B
$GPGSA,A,3,13,07,10,08,,,,,,,,,7.2,4.5,5.6*39
$GPGSV,3,1,12,13,68,350,41,07,46,270,37,10,34,305,41,08,20,254,30*7C
$GPGSV,3,2,12,23,59,092,36,16,37,050,38,20,28,178,22,03,20,102,25*76
$GPGSV,3,3,12,06,16,086,,30,15,041,28,32,10,161,26,19,06,129,*7B
$GPRMC,212834.000,A,3748.8014,N,12217.8679,W,0.50,287.96,170511,,,A*74
$GPVTG,287.96,T,,M,0.50,N,0.9,K,A*03
$GPGGA,212835.000,3748.8013,N,12217.8678,W,1,04,4.5,23.3,M,-25.1,M,,0000*59
$GPGSA,A,3,13,07,10,08,,,,,,,,,7.2,4.5,5.6*39
$GPRMC,212835.000,A,3748.8013,N,12217.8678,W,0.51,291.78,170511,,,A*75
$GPVTG,291.78,T,,M,0.51,N,0.9,K,A*05
$GPGGA,212836.000,3748.8013,N,12217.8678,W,1,04,4.5,23.9,M,-25.1,M,,0000*50
$GPGSA,A,3,13,07,10,08,,,,,,,,,7.2,4.5,5.6*39
$GPRMC,212836.000,A,3748.8013,N,12217.8678,W,0.56,291.06,170511,,,A*78
$GPVTG,291.06,T,,M,0.56,N,1.0,K,A*03
$GPGGA,212837.000,3748.8013,N,12217.8677,W,1,04,4.5,24.3,M,-25.1,M,,0000*53
$GPGSA,A,3,13,07,10,08,,,,,,,,,7.2,4.5,5.6*39
$GPRMC,212837.000,A,3748.8013,N,12217.8677,W,0.54,287.80,170511,,,A*7D
$GPVTG,287.80,T,,M,0.54,N,1.0,K,A*08
$GPGGA,212838.000,3748.8013,N,12217.8677,W,1,04,4.5,24.7,M,-25.1,M,,0000*58
$GPGSA,A,3,13,07,10,08,,,,,,,,,7.2,4.5,5.6*39
$GPRMC,212838.000,A,3748.8013,N,12217.8677,W,0.59,296.68,170511,,,A*79
$GPVTG,296.68,T,,M,0.59,N,1.1,K,A*02
$GPGGA,212839.000,3748.8014,N,12217.8674,W,1,04,4.5,24.0,M,-25.1,M,,0000*5A
$GPGSA,A,3,13,07,10,08,,,,,,,,,7.2,4.5,5.6*39
$GPGSV,3,1,12,13,68,350,35,07,46,270,30,10,34,305,40,08,20,254,24*7C
$GPGSV,3,2,12,23,59,092,36,16,37,050,38,20,28,178,27,03,20,102,36*71
$GPGSV,3,3,12,06,16,086,,30,15,041,40,32,10,161,27,19,06,129,*74
$GPRMC,212839.000,A,3748.8014,N,12217.8674,W,0.53,339.08,170511,,,A*74
$GPVTG,339.08,T,,M,0.53,N,1.0,K,A*0B
$GPGGA,212840.000,3748.8016,N,12217.8678,W,1,04,4.5,24.4,M,-25.1,M,,0000*5E
$GPGSA,A,3,13,07,10,08,,,,,,,,,7.2,4.5,5.6*39
$GPRMC,212840.000,A,3748.8016,N,12217.8678,W,0.76,312.32,170511,,,A*73
$GPVTG,312.32,T,,M,0.76,N,1.4,K,A*08
$GPGGA,212841.000,3748.8020,N,12217.8680,W,1,03,3.8,24.2,M,-25.1,M,,0000*56
$GPGSA,A,2,13,07,10,,,,,,,,,,3.9,3.8,1.0*37
$GPRMC,212841.000,A,3748.8020,N,12217.8680,W,0.88,321.89,170511,,,A*71
$GPVTG,321.89,T,,M,0.88,N,1.6,K,N*04
$GPGGA,212842.000,3748.8023,N,12217.8682,W,1,03,3.8,24.0,M,-25.1,M,,0000*56
$GPGSA,A,2,13,07,10,,,,,,,,,,3.9,3.8,1.0*37
$GPRMC,212842.000,A,3748.8023,N,12217.8682,W,0.76,323.74,170511,,,A*72
$GPVTG,323.74,T,,M,0.76,N,1.4,K,N*07
$GPGGA,212843.000,3748.8023,N,12217.8681,W,1,04,4.5,22.7,M,-25.1,M,,0000*58
$GPGSA,A,3,13,07,10,08,,,,,,,,,7.2,4.5,5.6*39
$GPRMC,212843.000,A,3748.8023,N,12217.8681,W,0.68,277.53,170511,,,A*7A
$GPVTG,277.53,T,,M,0.68,N,1.3,K,A*05
$GPGGA,212844.000,3748.8025,N,12217.8681,W,1,04,4.5,22.4,M,-25.1,M,,0000*5A
$GPGSA,A,3,13,07,10,08,,,,,,,,,7.2,4.5,5.6*39
$GPGSV,3,1,12,13,68,350,34,07,46,270,28,10,34,305,32,08,20,254,30*74
$GPGSV,3,2,12,23,59,092,36,16,37,050,37,20,28,178,20,03,20,102,37*78
$GPGSV,3,3,12,06,16,086,,30,15,041,38,32,10,161,,19,06,129,*7E
$GPRMC,212844.000,A,3748.8025,N,12217.8681,W,0.52,300.58,170511,,,A*78
$GPVTG,300.58,T,,M,0.52,N,1.0,K,A*05
$GPGGA,212845.000,3748.8027,N,12217.8683,W,1,04,4.5,22.4,M,-25.1,M,,0000*5B
$GPGSA,A,3,13,07,10,08,,,,,,,,,7.2,4.5,5.7*38
$GPRMC,212845.000,A,3748.8027,N,12217.8683,W,0.58,303.74,170511,,,A*7E
$GPVTG,303.74,T,,M,0.58,N,1.1,K,A*03
$GPGGA,212846.000,3748.8028,N,12217.8684,W,1,04,4.5,22.6,M,-25.1,M,,0000*52
$GPGSA,A,3,13,07,10,08,,,,,,,,,7.2,4.5,5.7*38
$GPRMC,212846.000,A,3748.8028,N,12217.8684,W,0.45,296.33,170511,,,A*77
$GPVTG,296.33,T,,M,0.45,N,0.8,K,A*09
$GPGGA,212847.000,3748.8030,N,12217.8686,W,1,04,4.5,22.8,M,-25.1,M,,0000*56
$GPGSA,A,3,13,07,10,08,,,,,,,,,7.2,4.5,5.7*38
$GPRMC,212847.000,A,3748.8030,N,12217.8686,W,0.47,320.03,170511,,,A*70
$GPVTG,320.03,T,,M,0.47,N,0.9,K,A*05
$GPGGA,212848.000,3748.8031,N,12217.8687,W,1,04,4.5,23.1,M,-25.1,M,,0000*51
$GPGSA,A,3,13,07,10,08,,,,,,,,,7.2,4.5,5.7*38
$GPRMC,212848.000,A,3748.8031,N,12217.8687,W,0.50,293.83,170511,,,A*78
$GPVTG,293.83,T,,M,0.50,N,0.9,K,A*02
$GPGGA,212849.000,3748.8030,N,12217.8690,W,1,04,4.5,23.7,M,-25.1,M,,0000*51
$GPGSA,A,3,13,07,10,08,,,,,,,,,7.2,4.5,5.7*38
$GPGSV,3,1,12,13,68,351,34,23,59,093,35,07,46,271,33,16,36,050,38*78
$GPGSV,3,2,12,10,34,304,35,20,27,178,26,08,21,254,29,03,20,102,36*75
$GPGSV,3,3,12,06,16,086,,30,15,041,38,32,10,161,,19,06,128,*7F
$GPRMC,212849.000,A,3748.8030,N,12217.8690,W,0.33,291.38,170511,,,A*79
$GPVTG,291.38,T,,M,0.33,N,0.6,K,A*0A
$GPGGA,212850.000,3748.8031,N,12217.8690,W,1,04,4.5,23.5,M,-25.1,M,,0000*5A
$GPGSA,A,3,13,07,10,08,,,,,,,,,7.2,4.5,5.7*38
$GPRMC,212850.000,A,3748.8031,N,12217.8690,W,0.33,330.61,170511,,,A*76
$GPVTG,330.61,T,,M,0.33,N,0.6,K,A*0C
$GPGGA,212851.000,3748.8030,N,12217.8697,W,1,04,4.5,25.0,M,-25.1,M,,0000*5E
$GPGSA,A,3,13,07,10,08,,,,,,,,,7.2,4.5,5.7*38
$GPRMC,212851.000,A,3748.8030,N,12217.8697,W,0.32,268.14,170511,,,A*7E
$GPVTG,268.14,T,,M,0.32,N,0.6,K,A*03
$GPGGA,212852.000,3748.8015,N,12217.8639,W,1,05,2.2,14.1,M,-25.1,M,,0000*5D
$GPGSA,A,3,13,07,10,03,08,,,,,,,,3.6,2.2,2.8*32
$GPRMC,212852.000,A,3748.8015,N,12217.8639,W,0.17,13.99,170511,,,A*42
$GPVTG,13.99,T,,M,0.17,N,0.3,K,A*3A
$GPGGA,212853.000,3748.8013,N,12217.8625,W,1,05,2.2,11.3,M,-25.1,M,,0000*50
$GPGSA,A,3,13,07,10,03,08,,,,,,,,3.6,2.2,2.8*32
$GPRMC,212853.000,A,3748.8013,N,12217.8625,W,0.42,28.05,170511,,,A*45
$GPVTG,28.05,T,,M,0.42,N,0.8,K,A*3C
$GPGGA,212854.000,3748.8013,N,12217.8618,W,1,05,2.2,10.0,M,-25.1,M,,0000*5B
$GPGSA,A,3,13,07,10,03,08,,,,,,,,3.6,2.2,2.8*32
$GPGSV,3,1,12,13,68,351,38,23,59,093,36,07,46,271,34,16,36,050,38*70
$GPGSV,3,2,12,10,35,304,36,20,27,178,31,08,21,254,21,03,20,102,36*79
$GPGSV,3,3,12,06,16,086,,30,14,041,38,32,10,161,27,19,06,128,*7B
$GPRMC,212854.000,A,3748.8013,N,12217.8618,W,0.37,32.29,170511,,,A*4B
$GPVTG,32.29,T,,M,0.37,N,0.7,K,A*34
$GPGGA,212855.000,3748.8013,N,12217.8614,W,1,05,2.2,9.1,M,-25.1,M,,0000*6F
$GPGSA,A,3,13,07,10,03,08,,,,,,,,3.6,2.2,2.8*32
$GPRMC,212855.000,A,3748.8013,N,12217.8614,W,0.92,20.21,170511,,,A*42
$GPVTG,20.21,T,,M,0.92,N,1.7,K,A*31
$GPGGA,212856.000,3748.8015,N,12217.8612,W,1,05,2.2,8.5,M,-25.1,M,,0000*69
$GPGSA,A,3,13,07,10,03,08,,,,,,,,3.6,2.2,2.8*32
$GPRMC,212856.000,A,3748.8015,N,12217.8612,W,0.86,336.94,170511,,,A*7E
$GPVTG,336.94,T,,M,0.86,N,1.6,K,A*0F
$GPGGA,212857.000,3748.8017,N,12217.8610,W,1,05,2.2,8.1,M,-25.1,M,,0000*6C
$GPGSA,A,3,13,07,10,03,08,,,,,,,,3.6,2.2,2.8*32
$GPRMC,212857.000,A,3748.8017,N,12217.8610,W,0.65,13.28,170511,,,A*41
$GPVTG,13.28,T,,M,0.65,N,1.2,K,A*35
$GPGGA,212858.000,3748.8020,N,12217.8608,W,1,05,2.2,7.8,M,-25.1,M,,0000*68
$GPGSA,A,3,13,07,10,03,08,,,,,,,,3.6,2.2,2.8*32
$GPRMC,212858.000,A,3748.8020,N,12217.8608,W,0.47,348.25,170511,,,A*73
$GPVTG,348.25,T,,M,0.47,N,0.9,K,A*0F
$GPGGA,212859.000,3748.8023,N,12217.8605,W,1,05,2.2,7.0,M,-25.1,M,,0000*6F
$GPGSA,A,3,13,07,10,03,08,,,,,,,,3.6,2.2,2.8*32
$GPGSV,3,1,12,13,68,351,38,23,59,093,37,07,46,271,38,16,36,050,38*7D
$GPGSV,3,2,12,10,35,304,41,20,27,178,29,08,21,254,36,03,20,102,28*79
$GPGSV,3,3,12,06,16,086,26,30,14,041,37,32,10,161,25,19,06,128,*72
$GPRMC,212859.000,A,3748.8023,N,12217.8605,W,0.18,315.11,170511,,,A*79
$GPGGA,212900.000,3748.8025,N,12217.8608,W,1,05,2.2,7.5,M,-25.1,M,,0000*6C
$GPGSA,A,3,13,07,10,03,08,,,,,,,,3.6,2.2,2.8*32
$GPRMC,212900.000,A,3748.8025,N,12217.8608,W,0.27,332.82,170511,,,A*7C
$GPVTG,332.82,T,,M,0.27,N,0.5,K,A*05
$GPGGA,212901.000,3748.8027,N,12217.8612,W,1,05,2.2,8.1,M,-25.1,M,,0000*6F
$GPGSA,A,3,13,07,10,03,08,,,,,,,,3.6,2.2,2.8*32
$GPRMC,212901.000,A,3748.8027,N,12217.8612,W,0.10,322.39,170511,,,A*71
$GPVTG,322.39,T,,M,0.10,N,0.2,K,A*07
$GPGGA,212902.000,3748.8029,N,12217.8616,W,1,05,2.2,8.9,M,-25.1,M,,0000*6E
$GPGSA,A,3,13,07,10,03,08,,,,,,,,3.6,2.2,2.8*32
$GPRMC,212902.000,A,3748.8029,N,12217.8616,W,0.25,326.85,170511,,,A*7D
$GPVTG,326.85,T,,M,0.25,N,0.5,K,A*05
$GPGGA,212903.000,3748.8030,N,12217.8616,W,1,04,4.5,8.9,M,-25.1,M,,0000*67
$GPGSA,A,3,13,07,10,08,,,,,,,,,7.3,4.5,5.7*39
$GPRMC,212903.000,A,3748.8030,N,12217.8616,W,0.27,44.54,170511,,,A*4D
$GPVTG,44.54,T,,M,0.27,N,0.5,K,A*3C
$GPGGA,212904.000,3748.8031,N,12217.8615,W,1,05,2.5,8.9,M,-25.1,M,,0000*65
$GPGSA,A,3,13,07,10,16,08,,,,,,,,3.7,2.5,2.7*3F
$GPGSV,3,1,12,13,68,351,37,23,59,093,22,07,46,271,41,16,36,050,34*74
$GPGSV,3,2,12,10,35,304,41,20,27,178,33,08,21,254,39,03,20,102,*77
$GPGSV,3,3,12,06,16,086,24,30,14,041,30,32,10,161,29,19,06,128,*7B
$GPRMC,212904.000,A,3748.8031,N,12217.8615,W,0.11,76.40,170511,,,A*49
$GPVTG,76.40,T,,M,0.11,N,0.2,K,A*3A
$GPGGA,212905.000,3748.8031,N,12217.8615,W,1,05,2.5,8.9,M,-25.1,M,,0000*64
$GPGSA,A,3,13,07,10,16,08,,,,,,,,3.7,2.5,2.7*3F
$GPRMC,212905.000,A,3748.8031,N,12217.8615,W,0.11,13.80,170511,,,A*47
$GPVTG,13.80,T,,M,0.11,N,0.2,K,A*35
$GPGGA,212906.000,3748.8032,N,12217.8615,W,1,05,2.5,8.9,M,-25.1,M,,0000*64
$GPGSA,A,3,13,07,10,16,08,,,,,,,,3.7,2.5,2.7*3F
$GPRMC,212906.000,A,3748.8032,N,12217.8615,W,0.21,92.59,170511,,,A*49
$GPVTG,92.59,T,,M,0.21,N,0.4,K,A*3D
$GPGGA,212907.000,3748.8031,N,12217.8613,W,1,06,1.8,9.3,M,-25.1,M,,0000*66
$GPGSA,A,3,13,07,10,16,03,08,,,,,,,3.2,1.8,2.6*36
$GPRMC,212907.000,A,3748.8031,N,12217.8613,W,0.84,83.77,170511,,,A*4E
$GPVTG,83.77,T,,M,0.84,N,1.5,K,A*3E
$GPGGA,212908.000,3748.8028,N,12217.8606,W,1,06,1.8,9.5,M,-25.1,M,,0000*63
$GPGSA,A,3,13,07,10,16,03,08,,,,,,,3.2,1.8,2.6*36
$GPRMC,212908.000,A,3748.8028,N,12217.8606,W,1.31,97.96,170511,,,A*48
$GPVTG,97.96,T,,M,1.31,N,2.4,K,A*39
$GPGGA,212909.000,3748.8022,N,12217.8599,W,1,06,1.8,9.7,M,-25.1,M,,0000*6F
$GPGSA,A,3,13,07,10,16,03,08,,,,,,,3.2,1.8,2.6*36
$GPGSV,3,1,12,13,69,351,26,23,59,093,36,07,46,271,34,16,36,050,30*76
$GPGSV,3,2,12,10,35,304,27,20,27,178,39,08,21,254,32,03,20,102,39*7C
$GPGSV,3,3,12,06,16,086,31,30,14,041,32,32,10,161,40,19,06,128,*72
$GPRMC,212909.000,A,3748.8022,N,12217.8599,W,1.70,126.85,170511,,,A*7A
$GPVTG,126.85,T,,M,1.70,N,3.2,K,A*02
$GPGGA,212910.000,3748.8017,N,12217.8591,W,1,06,1.8,9.6,M,-25.1,M,,0000*68
$GPGSA,A,3,13,07,10,16,03,08,,,,,,,3.2,1.8,2.6*36
$GPRMC,212910.000,A,3748.8017,N,12217.8591,W,1.96,108.26,170511,,,A*71
$GPVTG,108.26,T,,M,1.96,N,3.6,K,A*0B
$GPGGA,212911.000,3748.8013,N,12217.8582,W,1,06,1.8,9.6,M,-25.1,M,,0000*6F
$GPGSA,A,3,13,07,10,16,03,08,,,,,,,3.2,1.8,2.6*36
$GPRMC,212911.000,A,3748.8013,N,12217.8582,W,1.79,108.81,170511,,,A*7A
$GPVTG,108.81,T,,M,1.79,N,3.3,K,A*02
$GPGGA,212912.000,3748.8010,N,12217.8575,W,1,06,1.8,9.3,M,-25.1,M,,0000*62
$GPGSA,A,3,13,07,10,16,03,08,,,,,,,3.2,1.8,2.6*36
$GPRMC,212912.000,A,3748.8010,N,12217.8575,W,1.77,119.67,170511,,,A*74
$GPVTG,119.67,T,,M,1.77,N,3.3,K,A*04
$GPGGA,212913.000,3748.8006,N,12217.8568,W,1,06,1.8,9.3,M,-25.1,M,,0000*68
$GPGSA,A,3,13,07,10,16,03,08,,,,,,,3.2,1.8,2.6*36
$GPRMC,212913.000,A,3748.8006,N,12217.8568,W,1.77,115.98,170511,,,A*72
$GPVTG,115.98,T,,M,1.77,N,3.3,K,A*08
$GPGGA,212914.000,3748.8002,N,12217.8560,W,1,06,1.8,9.4,M,-25.1,M,,0000*64
$GPGSA,A,3,13,07,10,16,03,08,,,,,,,3.2,1.8,2.6*36
$GPGSV,3,1,12,13,69,351,25,23,59,093,36,07,46,271,32,16,36,050,32*71
$GPGSV,3,2,12,10,35,304,29,20,27,178,39,08,21,254,32,03,20,102,38*73
$GPGSV,3,3,12,06,16,086,26,30,14,041,32,32,10,161,40,19,06,128,*74
$GPRMC,212914.000,A,3748.8002,N,12217.8560,W,1.73,112.09,170511,,,A*72
$GPGGA,212915.000,3748.7997,N,12217.8554,W,1,06,1.8,9.5,M,-25.1,M,,0000*69
$GPGSA,A,3,13,07,10,16,03,08,,,,,,,3.2,1.8,2.6*36
$GPRMC,212915.000,A,3748.7997,N,12217.8554,W,1.63,124.30,170511,,,A*70
$GPVTG,124.30,T,,M,1.63,N,3.0,K,A*0E
$GPGGA,212916.000,3748.7993,N,12217.8548,W,1,06,1.8,9.5,M,-25.1,M,,0000*63
$GPGSA,A,3,13,07,10,16,03,08,,,,,,,3.2,1.8,2.6*36
$GPRMC,212916.000,A,3748.7993,N,12217.8548,W,1.87,127.91,170511,,,A*78
$GPVTG,127.91,T,,M,1.87,N,3.5,K,A*09
$GPGGA,212917.000,3748.7987,N,12217.8542,W,1,06,1.8,9.7,M,-25.1,M,,0000*6F
$GPGSA,A,3,13,07,10,16,03,08,,,,,,,3.2,1.8,2.6*36
$GPRMC,212917.000,A,3748.7987,N,12217.8542,W,1.81,126.03,170511,,,A*7A
$GPVTG,126.03,T,,M,1.81,N,3.3,K,A*03
$GPGGA,212918.000,3748.7985,N,12217.8536,W,1,06,1.8,8.7,M,-25.1,M,,0000*60
$GPGSA,A,3,13,07,10,16,03,08,,,,,,,3.2,1.8,2.6*36
$GPRMC,212918.000,A,3748.7985,N,12217.8536,W,2.16,115.27,170511,,,A*7F
$GPVTG,115.27,T,,M,2.16,N,4.0,K,A*0C
$GPGGA,212919.000,3748.7979,N,12217.8528,W,1,06,1.8,8.4,M,-25.1,M,,0000*6E
$GPGSA,A,3,13,07,10,16,03,08,,,,,,,3.2,1.8,2.6*36
$GPGSV,3,1,12,13,69,351,32,23,58,093,37,07,46,271,33,16,36,050,36*72
$GPGSV,3,2,12,10,35,304,22,20,27,178,40,08,21,254,33,03,20,102,36*79
$GPGSV,3,3,12,06,16,086,27,30,14,041,37,32,10,161,36,19,06,128,*71
$GPRMC,212919.000,A,3748.7979,N,12217.8528,W,2.21,116.28,170511,,,A*7A
$GPVTG,116.28,T,,M,2.21,N,4.1,K,A*05
$GPGGA,212920.000,3748.7974,N,12217.8519,W,1,06,1.8,8.3,M,-25.1,M,,0000*6C
$GPGSA,A,3,13,07,10,16,03,08,,,,,,,3.2,1.8,2.6*36
$GPRMC,212920.000,A,3748.7974,N,12217.8519,W,2.37,116.66,170511,,,A*72
$GPVTG,116.66,T,,M,2.37,N,4.4,K,A*0D
$GPGGA,212921.000,3748.7969,N,12217.8512,W,1,06,1.8,7.9,M,-25.1,M,,0000*6F
$GPGSA,A,3,13,07,10,16,03,08,,,,,,,3.2,1.8,2.6*36
$GPRMC,212921.000,A,3748.7969,N,12217.8512,W,2.26,118.16,170511,,,A*7D
$GPVTG,118.16,T,,M,2.26,N,4.2,K,A*02
$GPGGA,212922.000,3748.7963,N,12217.8504,W,1,06,1.8,8.0,M,-25.1,M,,0000*67
$GPGSA,A,3,13,07,10,16,03,08,,,,,,,3.2,1.8,2.6*36
$GPRMC,212922.000,A,3748.7963,N,12217.8504,W,2.19,116.52,170511,,,A*71
$GPVTG,116.52,T,,M,2.19,N,4.1,K,A*03
$GPGGA,212923.000,3748.7957,N,12217.8496,W,1,06,1.8,8.7,M,-25.1,M,,0000*6C
$GPGSA,A,3,13,07,10,16,03,08,,,,,,,3.2,1.8,2.6*36
$GPRMC,212923.000,A,3748.7957,N,12217.8496,W,2.21,126.78,170511,,,A*7D
$GPVTG,126.78,T,,M,2.21,N,4.1,K,A*03
$GPGGA,212924.000,3748.7951,N,12217.8490,W,1,06,1.8,9.1,M,-25.1,M,,0000*6C
$GPGSA,A,3,13,07,10,16,03,08,,,,,,,3.2,1.8,2.6*36
$GPGSV,3,1,12,13,69,351,26,23,58,093,37,07,46,271,34,16,36,050,33*75
$GPGSV,3,2,12,10,35,304,30,20,27,178,40,08,21,254,34,03,20,102,37*7C
$GPGSV,3,3,12,06,16,086,28,30,14,041,28,32,10,161,40,19,06,128,*71
$GPRMC,212924.000,A,3748.7951,N,12217.8490,W,2.26,125.52,170511,,,A*76
$GPVTG,125.52,T,,M,2.26,N,4.2,K,A*0C
$GPGGA,212925.000,3748.7946,N,12217.8482,W,1,06,1.8,9.5,M,-25.1,M,,0000*6C
$GPGSA,A,3,13,07,10,16,03,08,,,,,,,3.2,1.8,2.6*36
$GPRMC,212925.000,A,3748.7946,N,12217.8482,W,2.23,114.46,170511,,,A*70
$GPVTG,114.46,T,,M,2.23,N,4.1,K,A*0D
$GPGGA,212926.000,3748.7943,N,12217.8475,W,1,06,1.8,9.7,M,-25.1,M,,0000*60
$GPGSA,A,3,13,07,10,16,03,08,,,,,,,3.2,1.8,2.6*36
$GPRMC,212926.000,A,3748.7943,N,12217.8475,W,2.08,112.75,170511,,,A*71
$GPVTG,112.75,T,,M,2.08,N,3.9,K,A*0D
$GPGGA,212927.000,3748.7938,N,12217.8468,W,1,06,1.8,10.2,M,-25.1,M,,0000*5C
$GPGSA,A,3,13,07,10,16,03,08,,,,,,,3.2,1.8,2.6*36
$GPRMC,212927.000,A,3748.7938,N,12217.8468,W,2.23,118.98,170511,,,A*70
$GPVTG,118.98,T,,M,2.23,N,4.1,K,A*02
$GPGGA,212928.000,3748.7934,N,12217.8461,W,2,06,1.8,10.4,M,-25.1,M,2.8,0000*77
$GPGSA,A,3,13,07,10,16,03,08,,,,,,,3.2,1.8,2.6*36
$GPRMC,212928.000,A,3748.7934,N,12217.8461,W,2.25,120.28,170511,,,D*79
$GPVTG,120.28,T,,M,2.25,N,4.2,K,D*02
$GPGGA,212929.000,3748.7933,N,12217.8455,W,2,06,1.8,9.1,M,-25.1,M,2.8,0000*4B
$GPGSA,A,3,13,07,10,16,03,08,,,,,,,3.2,1.8,2.6*36
$GPGSV,3,1,12,13,69,351,28,23,58,093,37,07,46,271,34,16,36,050,23*7A
$GPGSV,3,2,12,10,35,304,30,20,27,178,40,08,21,254,35,03,20,102,37*7D
$GPGSV,3,3,12,06,16,086,35,30,14,041,22,32,10,161,30,19,06,128,*70
$GPVTG,109.06,T,,M,1.91,N,3.5,K,D*09
$GPGGA,212930.000,3748.7931,N,12217.8449,W,2,06,1.8,9.1,M,-25.1,M,2.8,0000*4C
$GPGSA,A,3,13,07,10,16,03,08,,,,,,,3.2,1.8,2.6*36
$GPRMC,212930.000,A,3748.7931,N,12217.8449,W,2.24,115.44,170511,,,D*72
$GPVTG,115.44,T,,M,2.24,N,4.2,K,D*0F
$GPGGA,212931.000,3748.7933,N,12217.8444,W,2,06,1.8,7.4,M,-25.1,M,2.8,0000*49
$GPGSA,A,3,13,07,10,16,03,08,,,,,,,3.2,1.8,2.6*36
$GPRMC,212931.000,A,3748.7933,N,12217.8444,W,1.73,85.77,170511,,,D*45
$GPVTG,85.77,T,,M,1.73,N,3.2,K,D*31
$GPGGA,212932.000,3748.7931,N,12217.8438,W,2,06,1.8,7.3,M,-25.1,M,3.8,0000*45
$GPGSA,A,3,13,07,10,16,03,08,,,,,,,3.2,1.8,2.6*36
$GPRMC,212932.000,A,3748.7931,N,12217.8438,W,1.69,103.93,170511,,,D*71
$GPVTG,103.93,T,,M,1.69,N,3.1,K,D*0C
$GPGGA,212933.000,3748.7925,N,12217.8435,W,2,06,1.8,7.7,M,-25.1,M,4.8,0000*4F
$GPGSA,A,3,13,07,10,16,03,08,,,,,,,3.2,1.8,2.6*36
$GPRMC,212933.000,A,3748.7925,N,12217.8435,W,1.75,126.78,170511,,,D*77
$GPVTG,126.78,T,,M,1.75,N,3.2,K,D*00
$GPGGA,212934.000,3748.7920,N,12217.8430,W,2,06,1.8,7.4,M,-25.1,M,2.8,0000*4D
$GPGSA,A,3,13,07,10,16,03,08,,,,,,,3.2,1.8,2.6*36
$GPGSV,3,1,12,13,69,351,28,23,58,093,34,07,46,271,28,16,36,050,32*74
$GPGSV,3,2,12,10,35,304,30,20,27,178,35,08,21,254,31,03,20,102,37*7B
$GPGSV,3,3,12,06,16,086,34,30,14,041,22,32,10,161,35,19,06,128,*74
$GPRMC,212934.000,A,3748.7920,N,12217.8430,W,2.06,132.10,170511,,,D*7C
$GPVTG,132.10,T,,M,2.06,N,3.8,K,D*06
$GPGGA,212935.000,3748.7915,N,12217.8424,W,2,06,1.8,7.1,M,-25.1,M,2.8,0000*4A
$GPGSA,A,3,13,07,10,16,03,08,,,,,,,3.2,1.8,2.6*36
$GPRMC,212935.000,A,3748.7915,N,12217.8424,W,2.11,121.67,170511,,,D*7A
$GPVTG,121.67,T,,M,2.11,N,3.9,K,D*03
$GPGGA,212936.000,3748.7907,N,12217.8417,W,2,06,1.8,7.9,M,-25.1,M,2.8,0000*42
$GPGSA,A,3,13,07,10,16,03,08,,,,,,,3.2,1.8,2.6*36
$GPRMC,212936.000,A,3748.7907,N,12217.8417,W,2.15,127.58,170511,,,D*74
$GPVTG,127.58,T,,M,2.15,N,4.0,K,D*03
$GPGGA,212937.000,3748.7901,N,12217.8412,W,2,06,1.8,8.1,M,-25.1,M,3.8,0000*46
$GPGSA,A,3,13,07,10,16,03,08,,,,,,,3.2,1.8,2.6*36
$GPRMC,212937.000,A,3748.7901,N,12217.8412,W,1.98,136.10,170511,,,D*7C
$GPVTG,136.10,T,,M,1.98,N,3.7,K,D*09
$GPGGA,212938.000,3748.7896,N,12217.8407,W,2,06,1.8,8.2,M,-25.1,M,4.8,0000*46
$GPGSA,A,3,13,07,10,16,03,08,,,,,,,3.2,1.8,2.6*36
$GPRMC,212938.000,A,3748.7896,N,12217.8407,W,2.22,126.54,170511,,,D*7B
$GPVTG,126.54,T,,M,2.22,N,4.1,K,D*0B
$GPGGA,212939.000,3748.7892,N,12217.8402,W,2,06,1.8,7.7,M,-25.1,M,5.8,0000*4D
$GPGSA,A,3,13,07,10,16,03,08,,,,,,,3.2,1.8,2.6*36
$GPGSV,3,1,12,13,69,351,31,23,58,093,37,07,46,271,33,16,36,050,34*73
$GPGSV,3,2,12,10,35,304,25,20,27,178,42,08,21,254,36,03,20,102,37*78
$GPGSV,3,3,12,06,16,086,34,30,14,041,29,32,10,161,40,19,06,128,*7D
$GPRMC,212939.000,A,3748.7892,N,12217.8402,W,2.07,123.22,170511,,,D*78
$GPVTG,123.22,T,,M,2.07,N,3.8,K,D*06
$GPGGA,212940.000,3748.7883,N,12217.8394,W,2,06,1.8,8.6,M,-25.1,M,2.8,0000*42
$GPGSA,A,3,13,07,10,16,03,08,,,,,,,3.2,1.8,2.6*36
$GPRMC,212940.000,A,3748.7883,N,12217.8394,W,2.29,125.60,170511,,,D*72
$GPVTG,125.60,T,,M,2.29,N,4.2,K,D*07
$GPGGA,212941.000,3748.7878,N,12217.8388,W,2,06,1.8,8.7,M,-25.1,M,2.8,0000*4B
$GPGSA,A,3,13,07,10,16,03,08,,,,,,,3.2,1.8,2.6*36
$GPRMC,212941.000,A,3748.7878,N,12217.8388,W,2.27,123.86,170511,,,D*7A
$GPVTG,123.86,T,,M,2.27,N,4.2,K,D*07
$GPGGA,212942.000,3748.7872,N,12217.8381,W,2,06,1.8,9.0,M,-25.1,M,2.8,0000*4D
$GPGSA,A,3,13,07,10,16,03,08,,,,,,,3.2,1.8,2.6*36
$GPRMC,212942.000,A,3748.7872,N,12217.8381,W,2.05,119.38,170511,,,D*76
$GPVTG,119.38,T,,M,2.05,N,3.8,K,D*06
$GPGGA,212943.000,3748.7867,N,12217.8375,W,2,06,1.8,9.3,M,-25.1,M,3.8,0000*41
$GPGSA,A,3,13,07,10,16,03,08,,,,,,,3.2,1.8,2.6*36
$GPRMC,212943.000,A,3748.7867,N,12217.8375,W,1.96,124.62,170511,,,D*70
$GPVTG,124.62,T,,M,1.96,N,3.6,K,D*00
$GPGGA,212944.000,3748.7863,N,12217.8368,W,2,06,1.8,9.6,M,-25.1,M,4.8,0000*4C
$GPGSA,A,3,13,07,10,16,03,08,,,,,,,3.2,1.8,2.6*36
$GPGSV,3,1,12,13,69,351,31,23,58,093,37,07,46,271,33,16,36,050,34*73
$GPGSV,3,2,12,10,35,304,24,20,27,178,33,08,21,254,36,03,20,102,39*71
$GPRMC,212944.000,A,3748.7863,N,12217.8368,W,1.87,107.68,170511,,,D*74
$GPVTG,107.68,T,,M,1.87,N,3.5,K,D*08
$GPGGA,212945.000,3748.7863,N,12217.8363,W,2,06,1.8,8.8,M,-25.1,M,5.8,0000*48
$GPGSA,A,3,13,07,10,16,03,08,,,,,,,3.2,1.8,2.6*36
$GPRMC,212945.000,A,3748.7863,N,12217.8363,W,1.73,132.74,170511,,,D*7E
$GPVTG,132.74,T,,M,1.73,N,3.2,K,D*0F
$GPGGA,212946.000,3748.7862,N,12217.8358,W,2,06,1.8,8.1,M,-25.1,M,2.8,0000*4C
$GPGSA,A,3,13,07,10,16,03,08,,,,,,,3.2,1.8,2.6*36
$GPRMC,212946.000,A,3748.7862,N,12217.8358,W,1.83,132.68,170511,,,D*76
$GPVTG,132.68,T,,M,1.83,N,3.4,K,D*0B
$GPGGA,212947.000,3748.7855,N,12217.8351,W,2,06,1.8,8.8,M,-25.1,M,2.8,0000*49
$GPGSA,A,3,13,07,10,16,03,08,,,,,,,3.2,1.8,2.6*36
$GPRMC,212947.000,A,3748.7855,N,12217.8351,W,2.12,124.85,170511,,,D*75
$GPVTG,124.85,T,,M,2.12,N,3.9,K,D*09
$GPGGA,212948.000,3748.7845,N,12217.8342,W,2,06,1.8,10.2,M,-25.1,M,2.8,0000*76
$GPGSA,A,3,13,07,10,16,03,08,,,,,,,3.2,1.8,2.6*36
$GPRMC,212948.000,A,3748.7845,N,12217.8342,W,2.26,123.39,170511,,,D*7E
$GPVTG,123.39,T,,M,2.26,N,4.2,K,D*02
$GPGGA,212949.000,3748.7843,N,12217.8335,W,2,06,1.8,9.2,M,-25.1,M,3.8,0000*48
$GPGSA,A,3,13,07,10,16,03,08,,,,,,,3.2,1.8,2.6*36
$GPGSV,3,1,12,13,69,352,31,23,58,094,38,07,46,271,31,16,36,050,34*7A
$GPGSV,3,2,12,10,35,304,24,20,27,178,42,08,21,255,36,03,20,101,40*7B
$GPGSV,3,3,12,06,16,086,28,30,14,041,28,32,10,161,38,19,06,128,*7E
$GPRMC,212949.000,A,3748.7843,N,12217.8335,W,2.08,119.18,170511,,,D*7F
$GPVTG,119.18,T,,M,2.08,N,3.9,K,D*08
$GPGGA,212950.000,3748.7845,N,12217.8330,W,2,06,1.8,7.9,M,-25.1,M,1.8,0000*44
$GPGSA,A,3,13,07,10,16,03,08,,,,,,,3.2,1.8,2.6*36
$GPRMC,212950.000,A,3748.7845,N,12217.8330,W,1.99,110.43,170511,,,D*78
$GPVTG,110.43,T,,M,1.99,N,3.7,K,D*0A
$GPGGA,212951.000,3748.7846,N,12217.8324,W,2,06,1.8,6.9,M,-25.1,M,2.8,0000*41
$GPGSA,A,3,13,07,10,16,03,08,,,,,,,3.2,1.8,2.6*36
$GPRMC,212951.000,A,3748.7846,N,12217.8324,W,2.22,107.57,170511,,,D*7F
$GPVTG,107.57,T,,M,2.22,N,4.1,K,D*0B
$GPGGA,212952.000,3748.7846,N,12217.8318,W,2,06,1.8,5.9,M,-25.1,M,2.8,0000*4E
$GPGSA,A,3,13,07,10,16,03,08,,,,,,,3.2,1.8,2.6*36
$GPRMC,212952.000,A,3748.7846,N,12217.8318,W,2.12,118.99,170511,,,D*7C
$GPVTG,118.99,T,,M,2.12,N,3.9,K,D*0B
$GPGGA,212953.000,3748.7845,N,12217.8312,W,2,06,1.8,4.9,M,-25.1,M,2.8,0000*47
$GPGSA,A,3,13,07,10,16,03,08,,,,,,,3.2,1.8,2.6*36
$GPRMC,212953.000,A,3748.7845,N,12217.8312,W,1.87,110.40,170511,,,D*77
$GPVTG,110.40,T,,M,1.87,N,3.5,K,D*04
$GPGGA,212954.000,3748.7845,N,12217.8306,W,2,06,1.8,4.1,M,-25.1,M,3.8,0000*4C
$GPGSA,A,3,13,07,10,16,03,08,,,,,,,3.2,1.8,2.6*36
$GPGSV,3,1,12,13,69,352,31,23,58,094,38,07,46,271,32,16,36,050,34*79
$GPGSV,3,2,12,10,35,304,28,20,27,178,42,08,21,255,30,03,20,101,39*7F
$GPGSV,3,3,12,06,16,086,26,30,14,041,23,32,10,161,39,19,06,128,*7A
$GPRMC,212954.000,A,3748.7845,N,12217.8306,W,1.95,111.94,170511,,,D*7E
$GPVTG,111.94,T,,M,1.95,N,3.6,K,D*0C
$GPGGA,212955.000,3748.7841,N,12217.8300,W,2,06,1.8,3.9,M,-25.1,M,4.8,0000*47
$GPGSA,A,3,13,07,10,16,03,08,,,,,,,3.2,1.8,2.6*36
$GPRMC,212955.000,A,3748.7841,N,12217.8300,W,1.84,112.41,170511,,,D*76
$GPVTG,112.41,T,,M,1.84,N,3.4,K,D*05
$GPGGA,212956.000,3748.7837,N,12217.8295,W,2,06,1.8,3.8,M,-25.1,M,2.8,0000*4F
$GPGSA,A,3,13,07,10,16,03,08,,,,,,,3.2,1.8,2.6*36
$GPRMC,212956.000,A,3748.7837,N,12217.8295,W,2.16,115.83,170511,,,D*78
$GPVTG,115.83,T,,M,2.16,N,4.0,K,D*07
$GPGGA,212957.000,3748.7833,N,12217.8288,W,2,06,1.8,4.0,M,-25.1,M,3.8,0000*48
$GPGSA,A,3,13,07,10,16,03,08,,,,,,,3.2,1.8,2.6*36
$GPRMC,212957.000,A,3748.7833,N,12217.8288,W,2.17,115.24,170511,,,D*7D
$GPVTG,115.24,T,,M,2.17,N,4.0,K,D*0B
$GPGGA,212958.000,3748.7829,N,12217.8281,W,2,06,1.8,4.2,M,-25.1,M,2.8,0000*46
$GPGSA,A,3,13,07,10,16,03,08,,,,,,,3.2,1.8,2.6*36
$GPRMC,212958.000,A,3748.7829,N,12217.8281,W,2.14,109.93,170511,,,D*72
$GPVTG,109.93,T,,M,2.14,N,4.0,K,D*09
$GPGGA,212959.000,3748.7825,N,12217.8274,W,2,06,1.8,4.7,M,-25.1,M,2.8,0000*44
$GPGSA,A,3,13,07,10,16,03,08,,,,,,,3.2,1.8,2.6*36
$GPGSV,3,1,12,13,69,352,27,23,58,094,32,07,46,271,34,16,36,050,32*74
$GPGSV,3,2,12,10,35,304,29,20,27,178,,08,21,255,36,03,20,101,34*73
$GPGSV,3,3,12,06,16,086,25,30,14,041,24,32,10,161,43,19,06,128,*73
$GPRMC,212959.000,A,3748.7825,N,12217.8274,W,2.07,108.91,170511,,,D*74
$GPVTG,108.91,T,,M,2.07,N,3.8,K,D*07
$GPGGA,213000.000,3748.7821,N,12217.8268,W,2,06,1.8,5.0,M,-25.1,M,3.8,0000*4E
$GPGSA,A,3,13,07,10,16,03,08,,,,,,,3.2,1.8,2.6*36
$GPRMC,213000.000,A,3748.7821,N,12217.8268,W,2.04,118.43,170511,,,D*74
$GPVTG,118.43,T,,M,2.04,N,3.8,K,D*0A
$GPGGA,213001.000,3748.7815,N,12217.8261,W,2,06,1.8,6.1,M,-25.1,M,4.8,0000*44
$GPGSA,A,3,13,07,10,16,03,08,,,,,,,3.2,1.8,2.6*36
$GPRMC,213001.000,A,3748.7815,N,12217.8261,W,2.00,113.50,170511,,,D*76
$GPVTG,113.50,T,,M,2.00,N,3.7,K,D*08
$GPGGA,213002.000,3748.7809,N,12217.8254,W,2,06,1.8,6.9,M,-25.1,M,2.8,0000*42
$GPGSA,A,3,13,07,10,16,03,08,,,,,,,3.2,1.8,2.6*36
$GPRMC,213002.000,A,3748.7809,N,12217.8254,W,2.02,119.04,170511,,,D*77
$GPVTG,119.04,T,,M,2.02,N,3.7,K,D*01
$GPGGA,213003.000,3748.7803,N,12217.8247,W,2,06,1.8,7.6,M,-25.1,M,2.8,0000*45
$GPGSA,A,3,13,07,10,16,03,08,,,,,,,3.2,1.8,2.6*36
$GPRMC,213003.000,A,3748.7803,N,12217.8247,W,2.18,120.78,170511,,,D*74
$GPVTG,120.78,T,,M,2.18,N,4.0,K,D*0B
$GPGGA,213004.000,3748.7799,N,12217.8239,W,2,06,1.8,8.0,M,-25.1,M,2.8,0000*4E
$GPGSA,A,3,13,07,10,16,03,08,,,,,,,3.2,1.8,2.6*36
$GPGSV,3,1,12,13,69,352,28,23,58,094,37,07,46,271,36,16,36,050,32*7C
$GPGSV,3,2,12,10,35,304,29,20,27,178,41,08,21,255,36,03,20,101,40*75
$GPGSV,3,3,12,06,16,086,24,30,14,041,24,32,10,161,42,19,06,128,*73
$GPVTG,109.01,T,,M,2.11,N,3.9,K,D*09
$GPGGA,213005.000,3748.7798,N,12217.8232,W,2,06,1.8,7.5,M,-25.1,M,2.8,0000*4F
$GPGSA,A,3,13,07,10,16,03,08,,,,,,,3.2,1.8,2.6*36
$GPRMC,213005.000,A,3748.7798,N,12217.8232,W,2.21,110.87,170511,,,D*74
$GPVTG,110.87,T,,M,2.21,N,4.1,K,D*03
$GPGGA,213006.000,3748.7797,N,12217.8226,W,2,06,1.8,6.5,M,-25.1,M,2.8,0000*47
$GPGSA,A,3,13,07,10,16,03,08,,,,,,,3.2,1.8,2.6*36
$GPRMC,213006.000,A,3748.7797,N,12217.8226,W,2.32,116.17,170511,,,D*70
$GPVTG,116.17,T,,M,2.32,N,4.3,K,D*0C
$GPGGA,213007.000,3748.7795,N,12217.8219,W,2,06,1.8,6.3,M,-25.1,M,3.8,0000*4F
$GPGSA,A,3,13,07,10,16,03,08,,,,,,,3.2,1.8,2.6*36
$GPRMC,213007.000,A,3748.7795,N,12217.8219,W,2.15,114.92,170511,,,D*75
$GPVTG,114.92,T,,M,2.15,N,4.0,K,D*05
$GPGGA,213008.000,3748.7789,N,12217.8210,W,2,06,1.8,7.2,M,-25.1,M,4.8,0000*43
$GPGSA,A,3,13,07,10,16,03,08,,,,,,,3.2,1.8,2.6*36
$GPRMC,213008.000,A,3748.7789,N,12217.8210,W,2.24,116.28,170511,,,D*7F
$GPVTG,116.28,T,,M,2.24,N,4.1,K,D*05
$GPGGA,213009.000,3748.7784,N,12217.8204,W,2,06,1.8,7.1,M,-25.1,M,5.8,0000*48
$GPGSA,A,3,13,07,10,16,03,08,,,,,,,3.2,1.8,2.6*36
$GPGSV,3,1,12,13,69,352,28,23,58,094,37,07,46,271,36,16,36,050,26*79
$GPGSV,3,2,12,10,35,304,28,20,27,178,42,08,21,255,37,03,20,101,32*73
$GPGSV,3,3,12,06,16,086,25,30,14,041,19,32,10,161,39,19,06,128,*70
$GPRMC,213009.000,A,3748.7784,N,12217.8204,W,2.41,125.71,170511,,,D*79
$GPVTG,125.71,T,,M,2.41,N,4.5,K,D*0E
$GPGGA,213010.000,3748.7781,N,12217.8197,W,2,06,1.8,7.6,M,-25.1,M,2.8,0000*4C
$GPGSA,A,3,13,07,10,16,03,08,,,,,,,3.2,1.8,2.6*36
$GPRMC,213010.000,A,3748.7781,N,12217.8197,W,1.87,106.15,170511,,,D*77
$GPVTG,106.15,T,,M,1.87,N,3.5,K,D*03
$GPGGA,213011.000,3748.7779,N,12217.8191,W,2,06,1.8,7.4,M,-25.1,M,3.8,0000*4F
$GPGSA,A,3,13,07,10,16,03,08,,,,,,,3.2,1.8,2.6*36
$GPRMC,213011.000,A,3748.7779,N,12217.8191,W,2.28,116.98,170511,,,D*75
$GPVTG,116.98,T,,M,2.28,N,4.2,K,D*01
$GPGGA,213012.000,3748.7778,N,12217.8184,W,2,06,1.8,7.3,M,-25.1,M,2.8,0000*4F
$GPGSA,A,3,13,07,10,16,03,08,,,,,,,3.2,1.8,2.6*36
$GPRMC,213012.000,A,3748.7778,N,12217.8184,W,2.44,114.44,170511,,,D*7A
$GPVTG,114.44,T,,M,2.44,N,4.5,K,D*0F
$GPGGA,213013.000,3748.7780,N,12217.8177,W,2,06,1.8,5.8,M,-25.1,M,3.8,0000*4D
$GPGSA,A,3,13,07,10,16,03,08,,,,,,,3.2,1.8,2.6*36
$GPRMC,213013.000,A,3748.7780,N,12217.8177,W,2.25,124.10,170511,,,D*75
$GPVTG,124.10,T,,M,2.25,N,4.2,K,D*0D
$GPGGA,213014.000,3748.7779,N,12217.8170,W,2,06,1.8,5.7,M,-25.1,M,2.8,0000*45
$GPGSA,A,3,13,07,10,16,03,08,,,,,,,3.2,1.8,2.6*36
$GPGSV,3,1,12,13,69,352,28,23,58,094,37,07,46,271,35,16,36,050,32*7F
$GPGSV,3,2,12,10,35,304,32,20,27,178,42,08,21,255,37,03,20,101,39*73
$GPGSV,3,3,12,06,16,086,25,30,14,041,21,32,10,161,41,19,06,128,*74
$GPRMC,213014.000,A,3748.7779,N,12217.8170,W,2.22,119.77,170511,,,D*7B
$GPVTG,119.77,T,,M,2.22,N,4.1,K,D*06
$GPGGA,213015.000,3748.7775,N,12217.8163,W,2,06,1.8,5.9,M,-25.1,M,3.8,0000*45
$GPGSA,A,3,13,07,10,16,03,08,,,,,,,3.2,1.8,2.6*36
$GPRMC,213015.000,A,3748.7775,N,12217.8163,W,1.95,108.97,170511,,,D*75
$GPVTG,108.97,T,,M,1.95,N,3.6,K,D*07
$GPGGA,213016.000,3748.7772,N,12217.8155,W,2,06,1.8,6.2,M,-25.1,M,2.8,0000*4D
$GPGSA,A,3,13,07,10,16,03,08,,,,,,,3.2,1.8,2.6*36
$GPRMC,213016.000,A,3748.7772,N,12217.8155,W,2.09,107.83,170511,,,D*78
$GPVTG,107.83,T,,M,2.09,N,3.9,K,D*04
$GPGGA,213017.000,3748.7767,N,12217.8147,W,2,06,1.8,6.8,M,-25.1,M,2.8,0000*41
$GPGSA,A,3,13,07,10,16,03,08,,,,,,,3.2,1.8,2.6*36
$GPRMC,213017.000,A,3748.7767,N,12217.8147,W,2.34,112.21,170511,,,D*7C
$GPVTG,112.21,T,,M,2.34,N,4.3,K,D*0B
$GPGGA,213018.000,3748.7762,N,12217.8138,W,2,06,1.8,7.2,M,-25.1,M,2.8,0000*48
$GPGSA,A,3,13,07,10,16,03,08,,,,,,,3.2,1.8,2.6*36
$GPRMC,213018.000,A,3748.7762,N,12217.8138,W,2.06,115.83,170511,,,D*70
$GPVTG,115.83,T,,M,2.06,N,3.8,K,D*09
$GPGGA,213019.000,3748.7758,N,12217.8131,W,2,06,1.8,7.3,M,-25.1,M,2.8,0000*48
$GPGSA,A,3,13,07,10,16,03,08,,,,,,,3.2,1.8,2.6*36
$GPGSV,3,1,12,13,69,352,28,23,58,094,37,07,46,272,35,16,36,050,32*7C
$GPGSV,3,2,12,10,35,304,27,20,27,178,42,08,21,255,38,03,21,101,38*78
$GPGSV,3,3,12,06,16,085,29,30,14,041,22,32,09,161,36,19,07,128,*71
$GPVTG,116.80,T,,M,2.05,N,3.8,K,D*0A
$GPGGA,213020.000,3748.7756,N,12217.8124,W,2,06,1.8,7.1,M,-25.1,M,3.8,0000*4B
$GPGSA,A,3,13,07,10,16,03,08,,,,,,,3.2,1.8,2.6*36
$GPRMC,213020.000,A,3748.7756,N,12217.8124,W,2.09,112.13,170511,,,D*70
$GPVTG,112.13,T,,M,2.09,N,3.9,K,D*09
$GPGGA,213021.000,3748.7748,N,12217.8116,W,2,06,1.8,8.3,M,-25.1,M,4.8,0000*4E
$GPGSA,A,3,13,07,10,16,03,08,,,,,,,3.2,1.8,2.6*36
$GPRMC,213021.000,A,3748.7748,N,12217.8116,W,2.04,118.25,170511,,,D*7D
$GPVTG,118.25,T,,M,2.04,N,3.8,K,D*0A
$GPGGA,213022.000,3748.7743,N,12217.8109,W,2,06,1.8,8.8,M,-25.1,M,1.8,0000*46
$GPGSA,A,3,13,07,10,16,03,08,,,,,,,3.2,1.8,2.6*36
$GPRMC,213022.000,A,3748.7743,N,12217.8109,W,1.87,109.85,170511,,,D*79
$GPVTG,109.85,T,,M,1.87,N,3.5,K,D*05
$GPGGA,213023.000,3748.7742,N,12217.8103,W,2,06,1.8,8.6,M,-25.1,M,2.8,0000*41
$GPGSA,A,3,13,07,10,16,03,08,,,,,,,3.2,1.8,2.6*36
$GPRMC,213023.000,A,3748.7742,N,12217.8103,W,1.72,95.89,170511,,,D*41
$GPVTG,95.89,T,,M,1.72,N,3.2,K,D*30
$GPGGA,213024.000,3748.7738,N,12217.8096,W,2,06,1.8,8.9,M,-25.1,M,2.8,0000*49
$GPGSA,A,3,13,07,10,16,03,08,,,,,,,3.2,1.8,2.6*36
$GPGSV,3,1,12,13,69,352,29,23,58,094,38,07,46,272,34,16,36,050,38*79
$GPGSV,3,2,12,10,35,304,26,20,27,178,42,08,21,255,37,03,21,101,38*76
$GPGSV,3,3,12,06,16,085,24,30,14,041,22,32,09,161,32,19,07,128,*78
$GPRMC,213024.000,A,3748.7738,N,12217.8096,W,2.00,120.25,170511,,,D*79
$GPVTG,120.25,T,,M,2.00,N,3.7,K,D*0A
$GPGGA,213025.000,3748.7730,N,12217.8089,W,2,06,1.8,9.8,M,-25.1,M,3.8,0000*4F
$GPGSA,A,3,13,07,10,16,03,08,,,,,,,3.2,1.8,2.6*36
$GPRMC,213025.000,A,3748.7730,N,12217.8089,W,2.13,120.65,170511,,,D*78
$GPVTG,120.65,T,,M,2.13,N,3.9,K,D*02
$GPGGA,213026.000,3748.7724,N,12217.8082,W,2,06,1.8,9.9,M,-25.1,M,4.8,0000*44
$GPGSA,A,3,13,07,10,16,03,08,,,,,,,3.2,1.8,2.6*36
$GPRMC,213026.000,A,3748.7724,N,12217.8082,W,1.92,123.75,170511,,,D*7D
$GPVTG,123.75,T,,M,1.92,N,3.6,K,D*05
$GPGGA,213027.000,3748.7717,N,12217.8075,W,2,06,1.8,10.3,M,-25.1,M,5.8,0000*7E
$GPGSA,A,3,13,07,10,16,03,08,,,,,,,3.2,1.8,2.6*36
$GPRMC,213027.000,A,3748.7717,N,12217.8075,W,1.71,123.90,170511,,,D*72
$GPVTG,123.90,T,,M,1.71,N,3.2,K,D*07
$GPGGA,213028.000,3748.7713,N,12217.8070,W,2,06,1.8,10.1,M,-25.1,M,2.8,0000*75
$GPGSA,A,3,13,07,10,16,03,08,,,,,,,3.2,1.8,2.6*36
$GPRMC,213028.000,A,3748.7713,N,12217.8070,W,1.83,120.72,170511,,,D*7E
$GPVTG,120.72,T,,M,1.83,N,3.4,K,D*03
$GPGGA,213029.000,3748.7711,N,12217.8065,W,2,06,1.8,10.1,M,-25.1,M,2.8,0000*72
$GPGSA,A,3,13,07,10,16,03,08,,,,,,,3.2,1.8,2.6*36
$GPGSV,3,1,12,13,69,352,30,23,58,094,38,07,46,272,34,16,36,050,35*7C
$GPGSV,3,2,12,10,35,304,31,20,27,178,42,08,21,255,37,03,21,101,38*70
$GPGSV,3,3,12,06,16,085,28,30,14,041,23,32,09,161,38,19,07,128,*7F
$GPRMC,213029.000,A,3748.7711,N,12217.8065,W,2.19,120.27,170511,,,D*79
$GPVTG,120.27,T,,M,2.19,N,4.1,K,D*01
$GPGGA,213030.000,3748.7713,N,12217.8059,W,2,06,1.8,9.7,M,-25.1,M,2.8,0000*49
$GPGSA,A,3,13,07,10,16,03,08,,,,,,,3.2,1.8,2.6*36
$GPRMC,213030.000,A,3748.7713,N,12217.8059,W,1.93,103.51,170511,,,D*7D
$GPVTG,103.51,T,,M,1.93,N,3.6,K,D*00
$GPGGA,213031.000,3748.7714,N,12217.8054,W,2,06,1.8,9.3,M,-25.1,M,3.8,0000*47
$GPGSA,A,3,13,07,10,16,03,08,,,,,,,3.2,1.8,2.6*36
$GPRMC,213031.000,A,3748.7714,N,12217.8054,W,1.78,108.23,170511,,,D*7D
$GPVTG,108.23,T,,M,1.78,N,3.3,K,D*0E
$GPGGA,213032.000,3748.7710,N,12217.8048,W,2,06,1.8,9.6,M,-25.1,M,4.8,0000*4F
$GPGSA,A,3,13,07,10,16,03,08,,,,,,,3.2,1.8,2.6*36
$GPRMC,213032.000,A,3748.7710,N,12217.8048,W,1.94,116.22,170511,,,D*7B
$GPVTG,116.22,T,,M,1.94,N,3.6,K,D*07
$GPGGA,213033.000,3748.7709,N,12217.8041,W,2,06,1.8,9.4,M,-25.1,M,5.8,0000*4C
$GPGSA,A,3,13,07,10,16,03,08,,,,,,,3.2,1.8,2.6*36
$GPRMC,213033.000,A,3748.7709,N,12217.8041,W,2.00,110.57,170511,,,D*71
$GPVTG,110.57,T,,M,2.00,N,3.7,K,D*0C
$GPGGA,213034.000,3748.7706,N,12217.8035,W,2,06,1.8,9.2,M,-25.1,M,2.8,0000*46
$GPGSA,A,3,13,07,10,16,03,08,,,,,,,3.2,1.8,2.6*36
$GPGSV,3,1,12,13,69,352,31,23,58,094,38,07,46,272,36,16,36,050,32*78
$GPGSV,3,2,12,10,35,304,31,20,27,178,40,08,21,255,35,03,21,101,38*70
$GPGSV,3,3,12,06,16,085,34,30,14,041,26,32,09,161,42,19,07,128,*7A
$GPRMC,213034.000,A,3748.7706,N,12217.8035,W,2.18,119.28,170511,,,D*72
$GPVTG,119.28,T,,M,2.18,N,4.0,K,D*04
$GPGGA,213035.000,3748.7703,N,12217.8029,W,2,06,1.8,8.8,M,-25.1,M,2.8,0000*44
$GPGSA,A,3,13,07,10,16,03,08,,,,,,,3.2,1.8,2.6*36
$GPRMC,213035.000,A,3748.7703,N,12217.8029,W,2.21,118.31,170511,,,D*78
$GPVTG,118.31,T,,M,2.21,N,4.1,K,D*06
$GPGGA,213036.000,3748.7701,N,12217.8023,W,2,06,1.8,8.5,M,-25.1,M,2.8,0000*42
$GPGSA,A,3,13,07,10,16,03,08,,,,,,,3.2,1.8,2.6*36
$GPRMC,213036.000,A,3748.7701,N,12217.8023,W,1.61,121.25,170511,,,D*7B
$GPVTG,121.25,T,,M,1.61,N,3.0,K,D*08
$GPGGA,213037.000,3748.7699,N,12217.8017,W,2,06,1.8,7.9,M,-25.1,M,2.8,0000*47
$GPGSA,A,3,13,07,10,16,03,08,,,,,,,3.2,1.8,2.6*36
$GPRMC,213037.000,A,3748.7699,N,12217.8017,W,2.07,115.68,170511,,,D*70
$GPVTG,115.68,T,,M,2.07,N,3.8,K,D*0D
$GPGGA,213038.000,3748.7700,N,12217.8011,W,2,06,1.8,6.7,M,-25.1,M,3.8,0000*41
$GPGSA,A,3,13,07,10,16,03,08,,,,,,,3.2,1.8,2.6*36
$GPRMC,213038.000,A,3748.7700,N,12217.8011,W,2.23,106.60,170511,,,D*74
$GPVTG,106.60,T,,M,2.23,N,4.1,K,D*0F
$GPGGA,213039.000,3748.7697,N,12217.8004,W,2,06,1.8,6.6,M,-25.1,M,2.8,0000*4B
$GPGSA,A,3,13,07,10,16,03,08,,,,,,,3.2,1.8,2.6*36
$GPGSV,3,1,12,13,69,352,30,23,58,094,38,07,46,272,35,16,36,050,30*78
$GPGSV,3,2,12,10,35,304,26,20,27,178,41,08,21,255,33,03,21,101,41*7F
$GPGSV,3,3,12,06,16,085,35,30,14,041,23,32,09,161,42,19,07,128,*7E
$GPRMC,213039.000,A,3748.7697,N,12217.8004,W,1.95,106.49,170511,,,D*7B
$GPGGA,213040.000,3748.7695,N,12217.7997,W,2,06,1.8,6.3,M,-25.1,M,2.8,0000*4E
$GPGSA,A,3,13,07,10,16,03,08,,,,,,,3.2,1.8,2.6*36
$GPRMC,213040.000,A,3748.7695,N,12217.7997,W,2.09,113.33,170511,,,D*74
$GPVTG,113.33,T,,M,2.09,N,3.9,K,D*0A
$GPGGA,213041.000,3748.7687,N,12217.7989,W,2,06,1.8,7.0,M,-25.1,M,2.8,0000*41
$GPGSA,A,3,13,07,10,16,03,08,,,,,,,3.2,1.8,2.6*36
$GPRMC,213041.000,A,3748.7687,N,12217.7989,W,2.16,124.33,170511,,,D*73
$GPVTG,124.33,T,,M,2.16,N,4.0,K,D*0E
$GPGGA,213042.000,3748.7685,N,12217.7983,W,2,06,1.8,6.5,M,-25.1,M,2.8,0000*4E
$GPGSA,A,3,13,07,10,16,03,08,,,,,,,3.2,1.8,2.6*36
$GPRMC,213042.000,A,3748.7685,N,12217.7983,W,2.13,115.65,170511,,,D*7C
$GPVTG,115.65,T,,M,2.13,N,3.9,K,D*04
$GPGGA,213043.000,3748.7680,N,12217.7976,W,2,06,1.8,6.9,M,-25.1,M,2.8,0000*4C
$GPGSA,A,3,13,07,10,16,03,08,,,,,,,3.2,1.8,2.6*36
$GPRMC,213043.000,A,3748.7680,N,12217.7976,W,2.05,115.85,170511,,,D*7B
$GPVTG,115.85,T,,M,2.05,N,3.8,K,D*0C
$GPGGA,213044.000,3748.7672,N,12217.7967,W,2,06,1.8,8.0,M,-25.1,M,3.8,0000*40
$GPGSA,A,3,13,07,10,16,03,08,,,,,,,3.2,1.8,2.6*36
$GPGSV,3,1,12,13,69,352,30,23,58,094,38,07,46,272,33,16,36,050,35*7B
$GPGSV,3,2,12,10,35,304,23,20,27,178,41,08,21,255,34,03,21,101,38*73
$GPGSV,3,3,12,06,16,085,32,30,14,041,27,32,09,161,37,19,07,128,*7F
$GPRMC,213044.000,A,3748.7672,N,12217.7967,W,2.06,115.99,170511,,,D*7F
$GPVTG,115.99,T,,M,2.06,N,3.8,K,D*02
$GPGGA,213045.000,3748.7668,N,12217.7961,W,2,06,1.8,7.9,M,-25.1,M,4.8,0000*4D
$GPGSA,A,3,13,07,10,16,03,08,,,,,,,3.2,1.8,2.6*36
$GPRMC,213045.000,A,3748.7668,N,12217.7961,W,1.84,120.22,170511,,,D*7C
$GPVTG,120.22,T,,M,1.84,N,3.4,K,D*01
$GPGGA,213046.000,3748.7665,N,12217.7955,W,2,06,1.8,8.1,M,-25.1,M,2.8,0000*45
$GPGSA,A,3,13,07,10,16,03,08,,,,,,,3.2,1.8,2.6*36
$GPRMC,213046.000,A,3748.7665,N,12217.7955,W,1.57,120.15,170511,,,D*7F
$GPVTG,120.15,T,,M,1.57,N,2.9,K,D*07
$GPGGA,213047.000,3748.7661,N,12217.7949,W,2,06,1.8,8.2,M,-25.1,M,2.8,0000*4E
$GPGSA,A,3,13,07,10,16,03,08,,,,,,,3.2,1.8,2.6*36
$GPRMC,213047.000,A,3748.7661,N,12217.7949,W,1.70,119.25,170511,,,D*7B
$GPVTG,119.25,T,,M,1.70,N,3.1,K,D*02
$GPGGA,213048.000,3748.7650,N,12217.7943,W,2,06,1.8,9.7,M,-25.1,M,2.8,0000*4D
$GPGSA,A,3,13,07,10,16,03,08,,,,,,,3.2,1.8,2.6*36
$GPRMC,213048.000,A,3748.7650,N,12217.7943,W,2.09,136.05,170511,,,D*7E
$GPVTG,136.05,T,,M,2.09,N,3.9,K,D*08
$GPGGA,213049.000,3748.7646,N,12217.7938,W,2,06,1.8,9.8,M,-25.1,M,3.8,0000*49
$GPGSA,A,3,13,07,10,16,03,08,,,,,,,3.2,1.8,2.6*36
$GPGSV,3,1,12,13,69,353,30,23,58,094,38,07,47,272,36,16,36,049,25*77
$GPGSV,3,2,12,10,35,304,30,20,26,178,41,08,21,255,39,03,21,101,33*76
$GPGSV,3,3,12,06,17,085,32,30,14,041,24,32,09,161,36,19,07,128,*7C
$GPRMC,213049.000,A,3748.7646,N,12217.7938,W,1.97,133.20,170511,,,D*72
$GPVTG,133.20,T,,M,1.97,N,3.7,K,D*00
$GPGGA,213050.000,3748.7641,N,12217.7933,W,2,06,1.8,10.0,M,-25.1,M,2.8,0000*7C
$GPGSA,A,3,13,07,10,16,03,08,,,,,,,3.2,1.8,2.6*36
$GPRMC,213050.000,A,3748.7641,N,12217.7933,W,1.98,123.77,170511,,,D*7A
$GPVTG,123.77,T,,M,1.98,N,3.7,K,D*0C
$GPGGA,213051.000,3748.7646,N,12217.7930,W,2,06,1.8,8.5,M,-25.1,M,3.8,0000*44
$GPGSA,A,3,13,07,10,16,03,08,,,,,,,3.2,1.8,2.6*36
$GPRMC,213051.000,A,3748.7646,N,12217.7930,W,1.73,103.69,170511,,,D*77
$GPVTG,103.69,T,,M,1.73,N,3.2,K,D*01
$GPGGA,213052.000,3748.7642,N,12217.7923,W,2,06,1.8,8.9,M,-25.1,M,2.8,0000*4C
$GPGSA,A,3,13,07,10,16,03,08,,,,,,,3.2,1.8,2.6*36
$GPRMC,213052.000,A,3748.7642,N,12217.7923,W,1.95,110.22,170511,,,D*77
$GPVTG,110.22,T,,M,1.95,N,3.6,K,D*00
$GPGGA,213053.000,3748.7633,N,12217.7915,W,2,06,1.8,10.0,M,-25.1,M,2.8,0000*7E
$GPGSA,A,3,13,07,10,16,03,08,,,,,,,3.2,1.8,2.6*36
$GPRMC,213053.000,A,3748.7633,N,12217.7915,W,2.39,120.50,170511,,,D*76
$GPVTG,120.50,T,,M,2.39,N,4.4,K,D*06
$GPGGA,213054.000,3748.7629,N,12217.7907,W,2,06,1.8,10.3,M,-25.1,M,1.8,0000*71
$GPGSA,A,3,13,07,10,16,03,08,,,,,,,3.2,1.8,2.6*36
$GPGSV,3,1,12,13,69,353,31,23,58,094,38,07,47,272,36,16,36,049,34*76
$GPGSV,3,2,12,10,35,304,23,20,26,178,41,08,21,255,35,03,21,101,38*73
$GPGSV,3,3,12,06,17,085,32,30,14,041,32,32,09,161,27,19,07,128,*7B
$GPRMC,213054.000,A,3748.7629,N,12217.7907,W,2.24,111.71,170511,,,D*74
$GPVTG,111.71,T,,M,2.24,N,4.1,K,D*0E
$GPGGA,213055.000,3748.7627,N,12217.7900,W,2,06,1.8,10.7,M,-25.1,M,2.8,0000*7E
$GPGSA,A,3,13,07,10,16,03,08,,,,,,,3.2,1.8,2.6*36
$GPRMC,213055.000,A,3748.7627,N,12217.7900,W,2.06,115.74,170511,,,D*7D
$GPVTG,115.74,T,,M,2.06,N,3.8,K,D*01
$GPGGA,213056.000,3748.7624,N,12217.7893,W,2,06,1.8,11.4,M,-25.1,M,3.8,0000*76
$GPGSA,A,3,13,07,10,16,03,08,,,,,,,3.2,1.8,2.6*36
$GPRMC,213056.000,A,3748.7624,N,12217.7893,W,1.90,112.23,170511,,,D*7F
$GPVTG,112.23,T,,M,1.90,N,3.5,K,D*05
$GPGGA,213057.000,3748.7624,N,12217.7888,W,2,06,1.8,11.0,M,-25.1,M,4.8,0000*7E
$GPGSA,A,3,13,07,10,16,03,08,,,,,,,3.2,1.8,2.6*36
$GPRMC,213057.000,A,3748.7624,N,12217.7888,W,1.94,122.33,170511,,,D*72
$GPVTG,122.33,T,,M,1.94,N,3.6,K,D*00
$GPGGA,213058.000,3748.7622,N,12217.7882,W,2,06,1.8,11.5,M,-25.1,M,2.8,0000*7E
$GPGSA,A,3,13,07,10,16,03,08,,,,,,,3.2,1.8,2.6*36
$GPRMC,213058.000,A,3748.7622,N,12217.7882,W,2.04,114.39,170511,,,D*74
$GPVTG,114.39,T,,M,2.04,N,3.8,K,D*0B
$GPGGA,213059.000,3748.7615,N,12217.7874,W,2,06,1.8,12.8,M,-25.1,M,2.8,0000*7C
$GPGSA,A,3,13,07,10,16,03,08,,,,,,,3.2,1.8,2.6*36
$GPGSV,3,1,12,13,69,353,30,23,58,094,33,07,47,272,34,16,36,049,33*79
$GPGSV,3,2,12,10,35,304,25,20,26,178,36,08,21,255,36,03,21,101,26*79
$GPGSV,3,3,12,06,17,085,28,30,14,041,29,32,09,161,26,19,07,128,*7B
$GPRMC,213059.000,A,3748.7615,N,12217.7874,W,1.92,109.09,170511,,,D*7B
$GPGGA,213100.000,3748.7611,N,12217.7867,W,2,06,1.8,13.3,M,-25.1,M,2.8,0000*7D
$GPGSA,A,3,13,07,10,16,03,08,,,,,,,3.2,1.8,2.6*36
$GPRMC,213100.000,A,3748.7611,N,12217.7867,W,1.72,103.42,170511,,,D*7B
$GPVTG,103.42,T,,M,1.72,N,3.2,K,D*09
$GPGGA,213101.000,3748.7601,N,12217.7858,W,2,06,1.8,14.5,M,-25.1,M,3.8,0000*71
$GPGSA,A,3,13,07,10,16,03,08,,,,,,,3.2,1.8,2.6*36
$GPRMC,213101.000,A,3748.7601,N,12217.7858,W,1.88,118.35,170511,,,D*78
$GPVTG,118.35,T,,M,1.88,N,3.5,K,D*01
$GPGGA,213102.000,3748.7601,N,12217.7854,W,2,06,1.8,15.1,M,-25.1,M,4.8,0000*7C
$GPGSA,A,3,13,07,10,16,03,08,,,,,,,3.2,1.8,2.6*36
$GPRMC,213102.000,A,3748.7601,N,12217.7854,W,1.53,113.57,170511,,,D*7E
$GPVTG,113.57,T,,M,1.53,N,2.8,K,D*04
$GPGGA,213103.000,3748.7596,N,12217.7848,W,2,06,1.8,16.4,M,-25.1,M,5.8,0000*7A
$GPGSA,A,3,13,07,10,16,03,08,,,,,,,3.2,1.8,2.6*36
$GPRMC,213103.000,A,3748.7596,N,12217.7848,W,1.80,106.48,170511,,,D*7B
$GPVTG,106.48,T,,M,1.80,N,3.3,K,D*0A
$GPGGA,213104.000,3748.7596,N,12217.7842,W,2,06,1.8,15.7,M,-25.1,M,2.8,0000*70
$GPGSA,A,3,13,07,10,16,03,08,,,,,,,3.2,1.8,2.6*36
$GPGSV,3,1,12,13,69,353,27,23,58,094,38,07,47,272,34,16,36,049,32*75
$GPGSV,3,2,12,10,35,304,25,20,26,178,31,08,21,255,35,03,21,101,25*7E
$GPGSV,3,3,12,06,17,085,27,30,14,041,26,32,09,161,26,19,07,128,*7B
$GPRMC,213104.000,A,3748.7596,N,12217.7842,W,2.03,104.77,170511,,,D*70
$GPVTG,104.77,T,,M,2.03,N,3.8,K,D*07
$GPGGA,213105.000,3748.7599,N,12217.7837,W,2,06,1.8,14.0,M,-25.1,M,2.8,0000*7A
$GPGSA,A,3,13,07,10,16,03,08,,,,,,,3.2,1.8,2.6*36
$GPRMC,213105.000,A,3748.7599,N,12217.7837,W,1.46,103.85,170511,,,D*74
$GPVTG,103.85,T,,M,1.46,N,2.7,K,D*01
$GPGGA,213106.000,3748.7606,N,12217.7838,W,2,06,1.8,13.1,M,-25.1,M,2.8,0000*75
$GPGSA,A,3,13,07,10,16,03,08,,,,,,,3.2,1.8,2.6*36
$GPRMC,213106.000,A,3748.7606,N,12217.7838,W,1.14,91.99,170511,,,D*4D
$GPVTG,91.99,T,,M,1.14,N,2.1,K,D*37
$GPGGA,213107.000,3748.7610,N,12217.7841,W,2,06,1.8,12.4,M,-25.1,M,2.8,0000*79
$GPGSA,A,3,13,07,10,16,03,08,,,,,,,3.2,1.8,2.6*36
$GPRMC,213107.000,A,3748.7610,N,12217.7841,W,1.32,106.52,170511,,,D*79
$GPVTG,106.52,T,,M,1.32,N,2.4,K,D*0E
$GPGGA,213108.000,3748.7610,N,12217.7839,W,2,06,1.8,12.2,M,-25.1,M,2.8,0000*7F
$GPGSA,A,3,13,07,10,16,03,08,,,,,,,3.2,1.8,2.6*36
$GPRMC,213108.000,A,3748.7610,N,12217.7839,W,1.85,111.66,170511,,,D*74
$GPVTG,111.66,T,,M,1.85,N,3.4,K,D*02
$GPGGA,213109.000,3748.7605,N,12217.7836,W,2,06,1.8,12.6,M,-25.1,M,3.8,0000*70
$GPGSA,A,3,13,07,10,16,03,08,,,,,,,3.2,1.8,2.6*36
$GPGSV,3,1,12,13,69,353,27,23,58,094,39,07,47,272,37,16,36,049,24*70
$GPGSV,3,2,12,10,35,304,31,20,26,178,31,08,21,255,36,03,21,101,25*78
$GPGSV,3,3,12,06,17,085,27,30,14,041,22,32,09,161,28,19,07,128,*71
$GPRMC,213109.000,A,3748.7605,N,12217.7836,W,2.10,113.38,170511,,,D*78
$GPVTG,113.38,T,,M,2.10,N,3.9,K,D*09
$GPGGA,213109.000,3748.7601,N,12217.7830,W,2,06,1.8,12.7,M,-25.1,M,2.8,0000*72
$GPGSA,A,3,13,07,10,16,03,08,,,,,,,3.2,1.8,2.6*36
$GPRMC,213109.000,A,3748.7601,N,12217.7830,W,2.27,117.55,170511,,,D*71
$GPVTG,117.55,T,,M,2.27,N,4.2,K,D*0E
$GPGGA,213110.000,3748.7595,N,12217.7824,W,2,06,1.8,13.0,M,-25.1,M,2.8,0000*77
$GPGSA,A,3,13,07,10,16,03,08,,,,,,,3.2,1.8,2.6*36
$GPRMC,213110.000,A,3748.7595,N,12217.7824,W,2.19,117.84,170511,,,D*73
$GPVTG,117.84,T,,M,2.19,N,4.1,K,D*0C
$GPGGA,213111.000,3748.7589,N,12217.7818,W,2,06,1.8,13.4,M,-25.1,M,2.8,0000*70
$GPGSA,A,3,13,07,10,16,03,08,,,,,,,3.2,1.8,2.6*36
$GPRMC,213111.000,A,3748.7589,N,12217.7818,W,2.21,123.94,170511,,,D*7D
$GPVTG,123.94,T,,M,2.21,N,4.1,K,D*01
$GPGGA,213112.000,3748.7582,N,12217.7813,W,2,06,1.8,13.7,M,-25.1,M,3.8,0000*71
$GPGSA,A,3,13,07,10,16,03,08,,,,,,,3.2,1.8,2.6*36
$GPRMC,213112.000,A,3748.7582,N,12217.7813,W,2.51,126.60,170511,,,D*77
$GPVTG,126.60,T,,M,2.51,N,4.7,K,D*0E
$GPGGA,213113.000,3748.7576,N,12217.7805,W,2,06,1.8,13.9,M,-25.1,M,4.8,0000*75
$GPGSA,A,3,13,07,10,16,03,08,,,,,,,3.2,1.8,2.6*36
$GPGSV,3,1,12,13,69,353,28,23,58,094,39,07,47,272,36,16,36,049,23*79
$GPGSV,3,2,12,10,35,304,31,20,26,178,41,08,21,255,35,03,21,101,26*7F
$GPRMC,213113.000,A,3748.7576,N,12217.7805,W,2.34,118.89,170511,,,D*73
$GPVTG,118.89,T,,M,2.34,N,4.3,K,D*03
$GPGGA,213114.000,3748.7575,N,12217.7799,W,2,06,1.8,13.6,M,-25.1,M,5.8,0000*75
$GPGSA,A,3,13,07,10,16,03,08,,,,,,,3.2,1.8,2.6*36
$GPRMC,213114.000,A,3748.7575,N,12217.7799,W,1.81,99.35,170511,,,D*4F
$GPVTG,99.35,T,,M,1.81,N,3.4,K,D*31
$GPGGA,213115.000,3748.7569,N,12217.7797,W,2,06,1.8,15.1,M,-25.1,M,2.8,0000*71
$GPGSA,A,3,13,07,10,16,03,08,,,,,,,3.2,1.8,2.6*36
$GPRMC,213115.000,A,3748.7569,N,12217.7797,W,1.76,101.85,170511,,,D*7E
$GPVTG,101.85,T,,M,1.76,N,3.3,K,D*05
$GPGGA,213116.000,3748.7561,N,12217.7794,W,2,06,1.8,15.2,M,-25.1,M,2.8,0000*7A
$GPGSA,A,3,13,07,10,16,03,08,,,,,,,3.2,1.8,2.6*36
$GPRMC,213116.000,A,3748.7561,N,12217.7794,W,1.85,114.03,170511,,,D*70
$GPVTG,114.03,T,,M,1.85,N,3.4,K,D*04
$GPGGA,213117.000,3748.7558,N,12217.7787,W,2,06,1.8,14.4,M,-25.1,M,2.8,0000*74
$GPGSA,A,3,13,07,10,16,03,08,,,,,,,3.2,1.8,2.6*36
$GPRMC,213117.000,A,3748.7558,N,12217.7787,W,2.30,128.91,170511,,,D*70
$GPVTG,128.91,T,,M,2.30,N,4.3,K,D*0D
$GPGGA,213118.000,3748.7559,N,12217.7785,W,2,06,1.8,13.7,M,-25.1,M,2.8,0000*7C
$GPGSA,A,3,13,07,10,16,03,08,,,,,,,3.2,1.8,2.6*36
$GPGSV,3,1,12,13,69,353,29,23,58,095,39,07,47,272,36,16,36,049,23*79
$GPGSV,3,2,12,10,35,303,30,20,26,178,43,08,21,255,27,03,21,101,25*7B
