$ADVER,3080,2.3
$GPRMC,212204.658,A,3748.7812,N,12217.8810,W,0.10,331.38,080611,,,A*77
$GPGGA,212205.658,3748.7815,N,12217.8808,W,1,04,2.8,3.6,M,-25.1,M,,0000*6F
$GPGSA,A,3,10,07,08,28,,,,,,,,,3.0,2.8,1.0*3E
$GPGSV,3,1,12,07,65,337,28,08,45,292,35,10,40,255,35,28,26,217,39*76
$GPGSV,3,2,12,13,63,119,,23,29,132,,19,28,095,23,03,25,061,23*72
$GPGSV,3,3,12,05,19,310,,06,16,049,,01,10,220,,16,06,042,15*7A
$GPRMC,212205.658,A,3748.7815,N,12217.8808,W,0.19,301.45,080611,,,A*78
$GPVTG,301.45,T,,M,0.19,N,0.3,K,A*05
$GPGGA,212206.658,3748.7818,N,12217.8805,W,1,04,2.8,1.7,M,-25.1,M,,0000*6F
$GPGSA,A,3,10,07,08,28,,,,,,,,,3.0,2.8,1.0*3E
$GPRMC,212206.658,A,3748.7818,N,12217.8805,W,0.13,284.41,080611,,,A*79
$GPVTG,284.41,T,,M,0.13,N,0.2,K,A*06
$GPGGA,212207.000,3748.7817,N,12217.8806,W,1,04,2.8,2.0,M,-25.1,M,,0000*6D
$GPGSA,A,3,10,07,08,28,,,,,,,,,3.0,2.8,1.0*3E
$GPRMC,212207.000,A,3748.7817,N,12217.8806,W,0.08,238.41,080611,,,A*72
$GPVTG,238.41,T,,M,0.08,N,0.2,K,A*0B
$GPGGA,212208.000,3748.7820,N,12217.8802,W,1,04,2.8,0.1,M,-25.1,M,,0000*61
$GPGSA,A,3,10,07,08,28,,,,,,,,,3.0,2.8,1.0*3E
$GPRMC,212208.000,A,3748.7820,N,12217.8802,W,0.12,298.67,080611,,,A*78
$GPVTG,298.67,T,,M,0.12,N,0.2,K,A*0E
$GPGGA,212209.000,3748.7824,N,12217.8807,W,1,04,2.8,-2.5,M,-25.1,M,,0000*4A
$GPGSA,A,3,10,07,08,28,,,,,,,,,3.0,2.8,1.0*3E
$GPRMC,212209.000,A,3748.7824,N,12217.8807,W,0.10,343.38,080611,,,A*77
$GPVTG,343.38,T,,M,0.10,N,0.2,K,A*01
$GPGGA,212210.000,3748.7825,N,12217.8802,W,1,04,2.8,-3.1,M,-25.1,M,,0000*43
$GPGSA,A,3,10,07,08,28,,,,,,,,,3.0,2.8,1.0*3E
$GPGSV,3,1,12,07,65,337,23,08,45,292,35,10,40,255,27,28,26,217,38*7F
$GPGSV,3,2,12,13,63,119,,23,29,132,27,19,28,095,24,03,25,061,11*71
$GPGSV,3,3,12,05,19,310,,06,16,049,,01,10,220,,16,06,042,*7E
$GPRMC,212210.000,A,3748.7825,N,12217.8802,W,0.63,74.35,080611,,,A*45
$GPGGA,212211.000,3748.7824,N,12217.8793,W,1,04,2.8,-1.6,M,-25.1,M,,0000*41
$GPGSA,A,3,10,07,08,28,,,,,,,,,3.0,2.8,1.0*3E
$GPRMC,212211.000,A,3748.7824,N,12217.8793,W,0.24,334.60,080611,,,A*76
$GPVTG,334.60,T,,M,0.24,N,0.4,K,A*0D
$GPGGA,212212.000,3748.7826,N,12217.8794,W,1,04,2.8,-2.9,M,-25.1,M,,0000*4B
$GPGSA,A,3,10,07,08,28,,,,,,,,,3.0,2.8,1.0*3E
$GPRMC,212212.000,A,3748.7826,N,12217.8794,W,0.46,84.58,080611,,,A*47
$GPVTG,84.58,T,,M,0.46,N,0.9,K,A*37
$GPGGA,212213.000,3748.7831,N,12217.8785,W,1,04,2.8,-5.4,M,-25.1,M,,0000*46
$GPGSA,A,3,10,07,08,28,,,,,,,,,3.0,2.8,1.0*3E
$GPRMC,212213.000,A,3748.7831,N,12217.8785,W,0.22,347.28,080611,,,A*79
$GPVTG,347.28,T,,M,0.22,N,0.4,K,A*03
$GPGGA,212214.000,3748.7845,N,12217.8771,W,1,04,2.8,-14.1,M,-25.1,M,,0000*7C
$GPGSA,A,3,10,07,08,28,,,,,,,,,3.0,2.8,1.0*3E
$GPRMC,212214.000,A,3748.7845,N,12217.8771,W,0.28,255.37,080611,,,A*70
$GPVTG,255.37,T,,M,0.28,N,0.5,K,A*04
$GPGGA,212215.000,3748.7842,N,12217.8767,W,1,04,2.8,-12.3,M,-25.1,M,,0000*79
$GPGSA,A,3,10,07,08,28,,,,,,,,,3.0,2.8,1.0*3E
$GPGSV,3,1,12,07,65,337,24,13,63,119,,08,45,292,35,10,40,255,34*75
$GPGSV,3,2,12,23,29,132,,19,28,095,18,28,26,217,36,03,25,061,*7A
$GPGSV,3,3,12,05,19,310,,06,16,049,,01,10,220,,16,06,042,*7E
$GPRMC,212215.000,A,3748.7842,N,12217.8767,W,0.31,157.43,080611,,,A*7B
$GPVTG,157.43,T,,M,0.31,N,0.6,K,A*0D
$GPGGA,212216.000,3748.7841,N,12217.8774,W,1,04,2.8,-12.9,M,-25.1,M,,0000*71
$GPGSA,A,3,10,07,08,28,,,,,,,,,3.0,2.8,1.0*3E
$GPRMC,212216.000,A,3748.7841,N,12217.8774,W,0.12,236.25,080611,,,A*7C
$GPVTG,236.25,T,,M,0.12,N,0.2,K,A*0C
$GPGGA,212217.000,3748.7841,N,12217.8781,W,1,04,2.8,-13.3,M,-25.1,M,,0000*71
$GPGSA,A,3,10,07,08,28,,,,,,,,,3.0,2.8,1.0*3E
$GPRMC,212217.000,A,3748.7841,N,12217.8781,W,0.04,197.12,080611,,,A*7C
$GPVTG,197.12,T,,M,0.04,N,0.1,K,A*04
$GPGGA,212218.000,3748.7838,N,12217.8790,W,1,04,2.8,-11.8,M,-25.1,M,,0000*79
$GPGSA,A,3,10,07,08,28,,,,,,,,,3.0,2.8,1.0*3E
$GPRMC,212218.000,A,3748.7838,N,12217.8790,W,0.12,292.23,080611,,,A*7E
$GPVTG,292.23,T,,M,0.12,N,0.2,K,A*04
$GPGGA,212219.000,3748.7840,N,12217.8789,W,1,04,2.8,-13.4,M,-25.1,M,,0000*71
$GPGSA,A,3,10,07,08,28,,,,,,,,,3.0,2.8,1.0*3E
$GPRMC,212219.000,A,3748.7840,N,12217.8789,W,0.10,291.05,080611,,,A*7D
$GPVTG,291.05,T,,M,0.10,N,0.2,K,A*01
$GPGGA,212220.000,3748.7840,N,12217.8797,W,1,04,2.8,-13.8,M,-25.1,M,,0000*78
$GPGSA,A,3,10,07,08,28,,,,,,,,,3.0,2.8,1.0*3E
$GPGSV,3,1,12,07,65,337,23,13,63,119,,08,45,292,40,10,40,255,29*7C
$GPGSV,3,2,12,23,29,132,,19,28,095,24,28,26,217,37,03,25,061,*74
$GPGSV,3,3,12,05,19,310,,06,16,049,,01,10,220,,16,06,042,*7E
$GPRMC,212220.000,A,3748.7840,N,12217.8797,W,0.41,255.81,080611,,,A*78
$GPVTG,255.81,T,,M,0.41,N,0.8,K,A*0B
$GPGGA,212221.000,3748.7837,N,12217.8803,W,1,04,2.8,-12.9,M,-25.1,M,,0000*7B
$GPGSA,A,3,10,07,08,28,,,,,,,,,3.0,2.8,1.0*3E
$GPRMC,212221.000,A,3748.7837,N,12217.8803,W,0.72,238.69,080611,,,A*76
$GPVTG,238.69,T,,M,0.72,N,1.3,K,A*0C
$GPGGA,212222.000,3748.7836,N,12217.8808,W,1,04,2.8,-12.4,M,-25.1,M,,0000*7F
$GPGSA,A,3,10,07,08,28,,,,,,,,,3.0,2.8,1.0*3E
$GPRMC,212222.000,A,3748.7836,N,12217.8808,W,0.61,278.12,080611,,,A*75
$GPVTG,278.12,T,,M,0.61,N,1.1,K,A*04
$GPGGA,212223.000,3748.7835,N,12217.8813,W,1,04,2.8,-11.8,M,-25.1,M,,0000*78
$GPGSA,A,3,10,07,08,28,,,,,,,,,3.0,2.8,1.0*3E
$GPRMC,212223.000,A,3748.7835,N,12217.8813,W,0.72,279.87,080611,,,A*72
$GPVTG,279.87,T,,M,0.72,N,1.3,K,A*09
$GPGGA,212224.000,3748.7834,N,12217.8817,W,1,04,2.8,-11.4,M,-25.1,M,,0000*76
$GPGSA,A,3,10,07,08,28,,,,,,,,,3.0,2.8,1.0*3E
$GPRMC,212224.000,A,3748.7834,N,12217.8817,W,0.53,282.55,080611,,,A*78
$GPVTG,282.55,T,,M,0.53,N,1.0,K,A*02
$GPGGA,212225.000,3748.7834,N,12217.8818,W,1,04,2.8,-11.0,M,-25.1,M,,0000*7C
$GPGSA,A,3,10,07,08,28,,,,,,,,,3.0,2.8,1.0*3E
$GPGSV,3,1,12,07,65,337,28,13,63,119,,08,45,292,32,10,40,255,38*72
$GPGSV,3,2,12,23,29,132,,19,28,095,23,28,26,217,37,03,25,061,*73
$GPGSV,3,3,12,05,19,310,,06,16,049,,01,10,220,,16,06,042,*7E
$GPRMC,212225.000,A,3748.7834,N,12217.8818,W,0.40,279.81,080611,,,A*79
$GPGGA,212226.000,3748.7832,N,12217.8819,W,1,04,2.8,-10.6,M,-25.1,M,,0000*7F
$GPGSA,A,3,10,07,08,28,,,,,,,,,3.0,2.8,1.0*3E
$GPRMC,212226.000,A,3748.7832,N,12217.8819,W,0.96,234.08,080611,,,A*7E
$GPVTG,234.08,T,,M,0.96,N,1.8,K,A*06
$GPGGA,212227.000,3748.7828,N,12217.8820,W,1,04,2.8,-10.0,M,-25.1,M,,0000*79
$GPGSA,A,3,10,07,08,28,,,,,,,,,3.0,2.8,1.0*3E
$GPRMC,212227.000,A,3748.7828,N,12217.8820,W,1.76,204.33,080611,,,A*7A
$GPVTG,204.33,T,,M,1.76,N,3.3,K,A*0B
$GPGGA,212228.000,3748.7822,N,12217.8821,W,1,04,2.8,-9.5,M,-25.1,M,,0000*40
$GPGSA,A,3,10,07,08,28,,,,,,,,,3.0,2.8,1.0*3E
$GPRMC,212228.000,A,3748.7822,N,12217.8821,W,2.23,203.03,080611,,,A*79
$GPVTG,203.03,T,,M,2.23,N,4.1,K,A*09
$GPGGA,212229.000,3748.7815,N,12217.8823,W,1,04,2.8,-9.0,M,-25.1,M,,0000*42
$GPGSA,A,3,10,07,08,28,,,,,,,,,3.0,2.8,1.0*3E
$GPRMC,212229.000,A,3748.7815,N,12217.8823,W,2.19,208.02,080611,,,A*7D
$GPVTG,208.02,T,,M,2.19,N,4.1,K,A*0A
$GPGGA,212230.000,3748.7810,N,12217.8826,W,1,04,2.8,-8.7,M,-25.1,M,,0000*4C
$GPGSA,A,3,10,07,08,28,,,,,,,,,3.0,2.8,1.0*3E
$GPGSV,3,1,12,07,65,337,31,13,63,119,,08,45,292,40,10,40,255,39*7E
$GPGSV,3,2,12,23,29,132,,19,28,095,23,28,26,217,38,03,25,061,*7C
$GPGSV,3,3,12,05,19,310,,06,16,049,,01,10,220,,16,06,042,*7E
$GPRMC,212230.000,A,3748.7810,N,12217.8826,W,2.29,217.86,080611,,,A*74
$GPVTG,217.86,T,,M,2.29,N,4.2,K,A*08
$GPGGA,212231.000,3748.7804,N,12217.8831,W,1,04,2.8,-8.4,M,-25.1,M,,0000*4D
$GPGSA,A,3,10,07,08,28,,,,,,,,,3.0,2.8,1.0*3E
$GPRMC,212231.000,A,3748.7804,N,12217.8831,W,2.54,224.41,080611,,,A*77
$GPVTG,224.41,T,,M,2.54,N,4.7,K,A*0C
$GPGGA,212232.000,3748.7799,N,12217.8836,W,1,04,2.8,-8.1,M,-25.1,M,,0000*47
$GPGSA,A,3,10,07,08,28,,,,,,,,,3.0,2.8,1.0*3E
$GPRMC,212232.000,A,3748.7799,N,12217.8836,W,2.72,223.80,080611,,,A*76
$GPVTG,223.80,T,,M,2.72,N,5.0,K,A*04
$GPGGA,212233.000,3748.7793,N,12217.8840,W,1,04,2.8,-7.9,M,-25.1,M,,0000*4A
$GPGSA,A,3,10,07,08,28,,,,,,,,,3.0,2.8,1.0*3E
$GPRMC,212233.000,A,3748.7793,N,12217.8840,W,2.75,216.80,080611,,,A*7D
$GPVTG,216.80,T,,M,2.75,N,5.1,K,A*04
$GPGGA,212234.000,3748.7786,N,12217.8842,W,1,04,2.8,-7.6,M,-25.1,M,,0000*44
$GPGSA,A,3,10,07,08,28,,,,,,,,,3.0,2.8,1.0*3E
$GPRMC,212234.000,A,3748.7786,N,12217.8842,W,2.75,205.91,080611,,,A*7E
$GPVTG,205.91,T,,M,2.75,N,5.1,K,A*06
$GPGGA,212235.000,3748.7779,N,12217.8846,W,1,04,2.8,-7.7,M,-25.1,M,,0000*40
$GPGSA,A,3,10,07,08,28,,,,,,,,,3.0,2.8,1.0*3E
$GPGSV,3,1,12,07,65,337,29,13,63,119,,08,45,292,40,10,40,255,39*77
$GPGSV,3,2,12,23,29,132,,19,28,095,23,28,26,217,36,03,25,061,*72
$GPGSV,3,3,12,05,19,310,,06,16,049,,01,10,220,,16,06,042,*7E
$GPRMC,212235.000,A,3748.7779,N,12217.8846,W,2.35,205.73,080611,,,A*73
$GPVTG,205.73,T,,M,2.35,N,4.4,K,A*0A
$GPGGA,212236.000,3748.7774,N,12217.8851,W,1,04,2.8,-7.7,M,-25.1,M,,0000*48
$GPGSA,A,3,10,07,08,28,,,,,,,,,3.0,2.8,1.0*3E
$GPRMC,212236.000,A,3748.7774,N,12217.8851,W,2.53,212.63,080611,,,A*7C
$GPVTG,212.63,T,,M,2.53,N,4.7,K,A*0E
$GPGGA,212237.000,3748.7767,N,12217.8854,W,1,04,2.8,-7.7,M,-25.1,M,,0000*4E
$GPGSA,A,3,10,07,08,28,,,,,,,,,3.0,2.8,1.0*3E
$GPRMC,212237.000,A,3748.7767,N,12217.8854,W,2.75,208.99,080611,,,A*70
$GPVTG,208.99,T,,M,2.75,N,5.1,K,A*03
$GPGGA,212238.000,3748.7760,N,12217.8861,W,1,04,2.8,-7.9,M,-25.1,M,,0000*4E
$GPGSA,A,3,10,07,08,28,,,,,,,,,3.0,2.8,1.0*3E
$GPRMC,212238.000,A,3748.7760,N,12217.8861,W,2.96,213.65,080611,,,A*7A
$GPVTG,213.65,T,,M,2.96,N,5.5,K,A*03
$GPGGA,212239.000,3748.7754,N,12217.8868,W,1,04,2.8,-8.2,M,-25.1,M,,0000*45
$GPGSA,A,3,10,07,08,28,,,,,,,,,3.0,2.8,1.0*3E
$GPRMC,212239.000,A,3748.7754,N,12217.8868,W,2.76,213.90,080611,,,A*71
$GPVTG,213.90,T,,M,2.76,N,5.1,K,A*03
$GPGGA,212240.000,3748.7748,N,12217.8874,W,1,04,2.8,-8.5,M,-25.1,M,,0000*4C
$GPGSA,A,3,10,07,08,28,,,,,,,,,3.0,2.8,1.0*3E
$GPGSV,3,1,12,07,65,337,31,13,63,119,,08,45,292,39,10,40,255,39*70
$GPGSV,3,2,12,23,29,132,,19,28,095,23,28,26,217,36,03,25,061,*72
$GPGSV,3,3,12,05,19,310,,06,16,049,,01,10,220,,16,06,042,*7E
$GPRMC,212240.000,A,3748.7748,N,12217.8874,W,2.58,213.79,080611,,,A*74
$GPVTG,213.79,T,,M,2.58,N,4.8,K,A*00
$GPGGA,212241.000,3748.7742,N,12217.8879,W,1,04,2.8,-8.8,M,-25.1,M,,0000*47
$GPGSA,A,3,10,07,08,28,,,,,,,,,3.0,2.8,1.0*3E
$GPRMC,212241.000,A,3748.7742,N,12217.8879,W,2.71,214.79,080611,,,A*7E
$GPVTG,214.79,T,,M,2.71,N,5.0,K,A*05
$GPGGA,212242.000,3748.7736,N,12217.8884,W,1,04,2.8,-8.9,M,-25.1,M,,0000*44
$GPGSA,A,3,10,07,08,28,,,,,,,,,3.0,2.8,1.0*3E
$GPRMC,212242.000,A,3748.7736,N,12217.8884,W,2.60,213.32,080611,,,A*74
$GPVTG,213.32,T,,M,2.60,N,4.8,K,A*04
$GPGGA,212243.000,3748.7731,N,12217.8888,W,1,04,2.8,-9.1,M,-25.1,M,,0000*47
$GPGSA,A,3,10,07,08,28,,,,,,,,,3.0,2.8,1.0*3E
$GPRMC,212243.000,A,3748.7731,N,12217.8888,W,2.53,215.76,080611,,,A*78
$GPVTG,215.76,T,,M,2.53,N,4.7,K,A*0D
$GPGGA,212244.000,3748.7726,N,12217.8892,W,1,04,2.8,-9.2,M,-25.1,M,,0000*4E
$GPGSA,A,3,10,07,08,28,,,,,,,,,3.0,2.8,1.0*3E
$GPRMC,212244.000,A,3748.7726,N,12217.8892,W,2.30,220.10,080611,,,A*71
$GPVTG,220.10,T,,M,2.30,N,4.3,K,A*0A
$GPGGA,212245.000,3748.7721,N,12217.8897,W,1,04,2.8,-9.4,M,-25.1,M,,0000*4B
$GPGSA,A,3,10,07,08,28,,,,,,,,,3.0,2.8,1.0*3E
$GPGSV,3,1,12,07,65,337,31,13,63,119,,08,45,292,40,10,40,255,38*7F
$GPGSV,3,2,12,23,29,132,,19,28,095,,28,26,217,35,03,25,061,*70
$GPGSV,3,3,12,05,19,310,25,06,16,049,,01,10,220,,16,06,042,*79
$GPRMC,212245.000,A,3748.7721,N,12217.8897,W,2.39,223.65,080611,,,A*7A
$GPVTG,223.65,T,,M,2.39,N,4.4,K,A*05
$GPGGA,212246.000,3748.7717,N,12217.8902,W,1,04,2.8,-9.5,M,-25.1,M,,0000*41
$GPGSA,A,3,10,07,08,28,,,,,,,,,3.0,2.8,1.0*3E
$GPRMC,212246.000,A,3748.7717,N,12217.8902,W,2.46,219.02,080611,,,A*71
$GPVTG,219.02,T,,M,2.46,N,4.6,K,A*07
$GPGGA,212247.000,3748.7711,N,12217.8905,W,1,04,2.8,-9.7,M,-25.1,M,,0000*43
$GPGSA,A,3,10,07,08,28,,,,,,,,,3.0,2.8,1.0*3E
$GPRMC,212247.000,A,3748.7711,N,12217.8905,W,2.52,209.16,080611,,,A*70
$GPVTG,209.16,T,,M,2.52,N,4.7,K,A*07
$GPGGA,212248.000,3748.7705,N,12217.8908,W,1,04,2.8,-9.8,M,-25.1,M,,0000*4B
$GPGSA,A,3,10,07,08,28,,,,,,,,,3.0,2.8,1.0*3E
$GPRMC,212248.000,A,3748.7705,N,12217.8908,W,2.54,208.40,080611,,,A*73
$GPVTG,208.40,T,,M,2.54,N,4.7,K,A*03
$GPGGA,212249.000,3748.7699,N,12217.8912,W,1,04,2.8,-9.9,M,-25.1,M,,0000*44
$GPGSA,A,3,10,07,08,28,,,,,,,,,3.0,2.8,1.0*3E
$GPRMC,212249.000,A,3748.7699,N,12217.8912,W,2.60,206.23,080611,,,A*71
$GPVTG,206.23,T,,M,2.60,N,4.8,K,A*00
$GPGGA,212250.000,3748.7693,N,12217.8915,W,1,04,2.8,-10.1,M,-25.1,M,,0000*71
$GPGSA,A,3,10,07,08,28,,,,,,,,,3.0,2.8,1.0*3E
$GPGSV,3,1,12,07,65,337,31,13,63,120,,08,45,292,39,10,40,255,39*7A
$GPGSV,3,2,12,23,29,132,,19,28,095,,28,27,217,36,03,25,060,*73
$GPGSV,3,3,12,05,19,309,24,06,16,049,22,01,10,220,,16,06,042,*70
$GPRMC,212250.000,A,3748.7693,N,12217.8915,W,2.53,206.73,080611,,,A*71
$GPVTG,206.73,T,,M,2.53,N,4.7,K,A*0A
$GPGGA,212251.000,3748.7687,N,12217.8918,W,1,04,2.8,-10.3,M,-25.1,M,,0000*7A
$GPGSA,A,3,10,07,08,28,,,,,,,,,3.0,2.8,1.0*3E
$GPRMC,212251.000,A,3748.7687,N,12217.8918,W,2.47,210.83,080611,,,A*75
$GPVTG,210.83,T,,M,2.47,N,4.6,K,A*06
$GPGGA,212252.000,3748.7681,N,12217.8921,W,1,04,2.8,-10.3,M,-25.1,M,,0000*75
$GPGSA,A,3,10,07,08,28,,,,,,,,,3.0,2.8,1.0*3E
$GPRMC,212252.000,A,3748.7681,N,12217.8921,W,2.59,205.84,080611,,,A*76
$GPVTG,205.84,T,,M,2.59,N,4.8,K,A*04
$GPGGA,212253.000,3748.7676,N,12217.8926,W,1,04,2.8,-10.1,M,-25.1,M,,0000*79
$GPGSA,A,3,10,07,08,28,,,,,,,,,3.0,2.8,1.0*3E
$GPRMC,212253.000,A,3748.7676,N,12217.8926,W,2.32,211.36,080611,,,A*79
$GPVTG,211.36,T,,M,2.32,N,4.3,K,A*0E
$GPGGA,212254.000,3748.7672,N,12217.8931,W,1,04,2.8,-10.0,M,-25.1,M,,0000*7D
$GPGSA,A,3,10,07,08,28,,,,,,,,,3.0,2.8,1.0*3E
$GPRMC,212254.000,A,3748.7672,N,12217.8931,W,2.31,219.66,080611,,,A*72
$GPVTG,219.66,T,,M,2.31,N,4.3,K,A*00
$GPGGA,212255.000,3748.7667,N,12217.8937,W,1,04,2.8,-9.8,M,-25.1,M,,0000*4E
$GPGSA,A,3,10,07,08,28,,,,,,,,,3.0,2.8,1.0*3E
$GPGSV,3,1,12,07,65,337,31,13,63,120,,08,45,292,39,10,40,255,39*7A
$GPGSV,3,2,12,23,29,132,,19,28,095,,28,27,217,33,03,25,060,*76
$GPGSV,3,3,12,05,19,309,25,06,16,049,21,01,10,220,,16,06,042,*72
$GPRMC,212255.000,A,3748.7667,N,12217.8937,W,2.42,220.03,080611,,,A*7C
$GPGGA,212256.000,3748.7662,N,12217.8942,W,1,04,2.8,-9.7,M,-25.1,M,,0000*45
$GPGSA,A,3,10,07,08,28,,,,,,,,,3.0,2.8,1.0*3E
$GPRMC,212256.000,A,3748.7662,N,12217.8942,W,2.52,216.51,080611,,,A*7B
$GPVTG,216.51,T,,M,2.52,N,4.7,K,A*0A
$GPGGA,212257.000,3748.7657,N,12217.8946,W,1,04,2.8,-9.6,M,-25.1,M,,0000*47
$GPGSA,A,3,10,07,08,28,,,,,,,,,3.0,2.8,1.0*3E
$GPRMC,212257.000,A,3748.7657,N,12217.8946,W,2.48,211.23,080611,,,A*71
$GPVTG,211.23,T,,M,2.48,N,4.6,K,A*02
$GPGGA,212258.000,3748.7652,N,12217.8949,W,1,04,2.8,-9.5,M,-25.1,M,,0000*41
$GPGSA,A,3,10,07,08,28,,,,,,,,,3.0,2.8,1.0*3E
$GPRMC,212258.000,A,3748.7652,N,12217.8949,W,2.25,202.80,080611,,,A*74
$GPVTG,202.80,T,,M,2.25,N,4.2,K,A*06
$GPGGA,212259.000,3748.7647,N,12217.8954,W,1,04,2.8,-9.4,M,-25.1,M,,0000*49
$GPGSA,A,3,10,07,08,28,,,,,,,,,3.0,2.8,1.0*3E
$GPRMC,212259.000,A,3748.7647,N,12217.8954,W,2.35,211.45,080611,,,A*77
$GPVTG,211.45,T,,M,2.35,N,4.4,K,A*0A
$GPGGA,212300.000,3748.7642,N,12217.8959,W,1,04,2.8,-9.3,M,-25.1,M,,0000*4B
$GPGSA,A,3,10,07,08,28,,,,,,,,,3.0,2.8,1.0*3E
$GPGSV,3,1,12,07,65,337,31,13,63,120,,08,45,292,40,10,40,255,40*7A
$GPGSV,3,2,12,23,29,132,,19,28,095,,28,27,217,34,03,25,060,*71
$GPGSV,3,3,12,05,19,309,24,06,16,049,21,01,10,220,,16,06,042,*73
$GPRMC,212300.000,A,3748.7642,N,12217.8959,W,2.34,208.82,080611,,,A*70
$GPVTG,208.82,T,,M,2.34,N,4.3,K,A*0F
$GPGGA,212301.000,3748.7636,N,12217.8963,W,1,04,2.8,-9.2,M,-25.1,M,,0000*41
$GPGSA,A,3,10,07,08,28,,,,,,,,,3.0,2.8,1.0*3E
$GPRMC,212301.000,A,3748.7636,N,12217.8963,W,2.38,208.66,080611,,,A*7D
$GPVTG,208.66,T,,M,2.38,N,4.4,K,A*0E
$GPGGA,212302.000,3748.7632,N,12217.8967,W,1,04,2.8,-9.1,M,-25.1,M,,0000*41
$GPGSA,A,3,10,07,08,28,,,,,,,,,3.0,2.8,1.0*3E
$GPRMC,212302.000,A,3748.7632,N,12217.8967,W,2.26,212.59,080611,,,A*76
$GPVTG,212.59,T,,M,2.26,N,4.2,K,A*00
$GPGGA,212303.000,3748.7626,N,12217.8971,W,1,04,2.8,-9.0,M,-25.1,M,,0000*43
$GPGSA,A,3,10,07,08,28,,,,,,,,,3.0,2.8,1.0*3E
$GPRMC,212303.000,A,3748.7626,N,12217.8971,W,2.30,205.58,080611,,,A*75
$GPVTG,205.58,T,,M,2.30,N,4.3,K,A*01
$GPGGA,212304.000,3748.7622,N,12217.8975,W,1,04,2.8,-8.8,M,-25.1,M,,0000*4D
$GPGSA,A,3,10,07,08,28,,,,,,,,,3.0,2.8,1.0*3E
$GPRMC,212304.000,A,3748.7622,N,12217.8975,W,1.93,213.22,080611,,,A*72
$GPVTG,213.22,T,,M,1.93,N,3.6                                                                                                                                                                                                                                                                                                                                                                                                                                                                                                                                                                                                                                                                                                                                                                                                                                                                                                                                                                                                                                                                ,K,A*03
$GPGGA,212305.000,3748.7617,N,12217.8979,W,1,04,2.8,-8.7,M,-25.1,M,,0000*49
$GPGSA,A,3,10,07,08,28,,,,,,,,,3.0,2.8,1.0*3E
$GPGSV,3,1,12,07,65,337,28,13,63,120,,08,45,292,39,10,40,255,39*72
$GPGSV,3,2,12,23,29,132,,19,28,095,,28,27,217,40,03,25,060,*72
$GPGSV,3,3,12,05,19,309,24,06,16,049,22,01,10,220,,16,06,042,*70
$GPRMC,212305.000,A,3748.7617,N,12217.8979,W,2.31,215.51,080611,,,A*70
$GPVTG,215.51,T,,M,2.31,N,4.3,K,A*08
$GPGGA,212306.000,3748.7612,N,12217.8984,W,1,04,2.8,-8.6,M,-25.1,M,,0000*4C
$GPGSA,A,3,10,07,08,28,,,,,,,,,3.0,2.8,1.0*3E
$GPRMC,212306.000,A,3748.7612,N,12217.8984,W,2.54,213.58,080611,,,A*78
$GPVTG,213.58,T,,M,2.54,N,4.7,K,A*00
$GPGGA,212307.000,3748.7606,N,12217.8988,W,1,04,2.8,-8.4,M,-25.1,M,,0000*46
$GPGSA,A,3,10,07,08,28,,,,,,,,,3.0,2.8,1.0*3E
$GPRMC,212307.000,A,3748.7606,N,12217.8988,W,2.50,206.96,080611,,,A*72
$GPVTG,206.96,T,,M,2.50,N,4.6,K,A*03
$GPGGA,212308.000,3748.7600,N,12217.8991,W,1,04,2.8,-8.3,M,-25.1,M,,0000*40
$GPGSA,A,3,10,07,08,28,,,,,,,,,3.0,2.8,1.0*3E
$GPRMC,212308.000,A,3748.7600,N,12217.8991,W,2.39,204.67,080611,,,A*70
$GPVTG,204.67,T,,M,2.39,N,4.4,K,A*02
$GPGGA,212309.000,3748.7594,N,12217.8993,W,1,04,2.8,-8.2,M,-25.1,M,,0000*4C
$GPGSA,A,3,10,07,08,28,,,,,,,,,3.0,2.8,1.0*3E
$GPRMC,212309.000,A,3748.7594,N,12217.8993,W,2.52,201.62,080611,,,A*70
$GPVTG,201.62,T,,M,2.52,N,4.7,K,A*0C
$GPGGA,212310.000,3748.7589,N,12217.8999,W,1,04,2.8,-7.7,M,-25.1,M,,0000*48
$GPGSA,A,3,10,07,08,28,,,,,,,,,3.0,2.8,1.0*3E
$GPGSV,3,1,12,07,65,337,29,13,63,120,,08,45,292,39,10,40,255,39*73
$GPGSV,3,2,12,23,29,132,28,19,28,095,,28,27,217,29,03,25,060,*77
$GPGSV,3,3,12,05,19,309,34,06,16,049,22,01,10,220,,16,06,042,*71
$GPRMC,212310.000,A,3748.7589,N,12217.8999,W,2.43,207.97,080611,,,A*72
$GPVTG,207.97,T,,M,2.43,N,4.5,K,A*02
$GPGGA,212311.000,3748.7584,N,12217.9003,W,1,04,2.8,-7.6,M,-25.1,M,,0000*4E
$GPGSA,A,3,10,07,08,28,,,,,,,,,3.0,2.8,1.0*3E
$GPRMC,212311.000,A,3748.7584,N,12217.9003,W,2.48,212.33,080611,,,A*74
$GPVTG,212.33,T,,M,2.48,N,4.6,K,A*00
$GPGGA,212312.000,3748.7578,N,12217.9008,W,1,04,2.8,-7.5,M,-25.1,M,,0000*46
$GPGSA,A,3,10,07,08,28,,,,,,,,,3.0,2.8,1.0*3E
$GPRMC,212312.000,A,3748.7578,N,12217.9008,W,2.62,222.29,080611,,,A*7F
$GPVTG,222.29,T,,M,2.62,N,4.9,K,A*0F
$GPGGA,212313.000,3748.7573,N,12217.9014,W,1,04,2.8,-7.5,M,-25.1,M,,0000*41
$GPGSA,A,3,10,07,08,28,,,,,,,,,3.0,2.8,1.0*3E
$GPRMC,212313.000,A,3748.7573,N,12217.9014,W,2.61,225.99,080611,,,A*77
$GPVTG,225.99,T,,M,2.61,N,4.8,K,A*01
$GPGGA,212314.000,3748.7568,N,12217.9020,W,1,04,2.8,-7.3,M,-25.1,M,,0000*4D
$GPGSA,A,3,10,07,08,28,,,,,,,,,3.0,2.8,1.0*3E
$GPRMC,212314.000,A,3748.7568,N,12217.9020,W,2.28,231.84,080611,,,A*79
$GPVTG,231.84,T,,M,2.28,N,4.2,K,A*0F
$GPGGA,212315.000,3748.7562,N,12217.9022,W,1,04,2.8,-7.6,M,-25.1,M,,0000*41
$GPGSA,A,3,10,07,08,28,,,,,,,,,3.0,2.8,1.0*3E
$GPGSV,3,1,12,07,65,338,31,13,63,120,,08,45,292,39,10,40,255,39*75
$GPGSV,3,2,12,23,29,132,27,19,28,094,,28,27,217,24,03,25,060,*74
$GPGSV,3,3,12,05,19,309,39,06,16,049,22,01,10,220,,16,06,042,*7C
$GPRMC,212315.000,A,3748.7562,N,12217.9022,W,2.42,213.01,080611,,,A*71
$GPVTG,213.01,T,,M,2.42,N,4.5,K,A*09
$GPGGA,212316.000,3748.7556,N,12217.9024,W,1,04,2.8,-7.8,M,-25.1,M,,0000*4D
$GPGSA,A,3,10,07,08,28,,,,,,,,,3.0,2.8,1.0*3E
$GPRMC,212316.000,A,3748.7556,N,12217.9024,W,2.39,204.35,080611,,,A*7E
$GPVTG,204.35,T,,M,2.39,N,4.4,K,A*05
$GPGGA,212317.000,3748.7552,N,12217.9028,W,1,04,2.8,-7.4,M,-25.1,M,,0000*48
$GPGSA,A,3,10,07,08,28,,,,,,,,,3.0,2.8,1.0*3E
$GPRMC,212317.000,A,3748.7552,N,12217.9028,W,1.96,203.82,080611,,,A*7A
$GPVTG,203.82,T,,M,1.96,N,3.6,K,A*0D
$GPGGA,212318.000,3748.7548,N,12217.9028,W,1,04,2.8,-8.0,M,-25.1,M,,0000*47
$GPGSA,A,3,10,07,08,28,,,,,,,,,3.0,2.8,1.0*3E
$GPRMC,212318.000,A,3748.7548,N,12217.9028,W,2.05,212.18,080611,,,A*74
$GPVTG,212.18,T,,M,2.05,N,3.8,K,A*09
$GPGGA,212319.000,3748.7544,N,12217.9026,W,1,04,2.8,-9.0,M,-25.1,M,,0000*45
$GPGSA,A,3,10,07,08,28,,,,,,,,,3.0,2.8,1.0*3E
$GPRMC,212319.000,A,3748.7544,N,12217.9026,W,1.87,204.99,080611,,,A*70
$GPVTG,204.99,T,,M,1.87,N,3.5,K,A*03
$GPGGA,212320.000,3748.7540,N,12217.9028,W,1,04,2.8,-9.4,M,-25.1,M,,0000*41
$GPGSA,A,3,10,07,08,28,,,,,,,,,3.0,2.8,1.0*3E
$GPGSV,3,1,12,07,65,338,31,13,63,120,,08,45,292,38,10,40,255,30*7D
$GPGSV,3,2,12,23,29,132,24,19,28,094,,28,27,217,30,03,25,060,*72
$GPGSV,3,3,12,05,19,309,29,06,16,049,22,01,10,220,,16,06,042,*7D
$GPRMC,212320.000,A,3748.7540,N,12217.9028,W,2.09,214.49,080611,,,A*79
$GPVTG,214.49,T,,M,2.09,N,3.9,K,A*06
$GPGGA,212321.000,3748.7536,N,12217.9029,W,1,04,2.8,-9.7,M,-25.1,M,,0000*43
$GPGSA,A,3,10,07,08,28,,,,,,,,,3.0,2.8,1.0*3E
$GPRMC,212321.000,A,3748.7536,N,12217.9029,W,1.70,211.51,080611,,,A*79
$GPVTG,211.51,T,,M,1.70,N,3.1,K,A*0F
$GPGGA,212322.000,3748.7531,N,12217.9035,W,1,04,2.8,-10.1,M,-25.1,M,,0000*74
$GPGSA,A,3,10,07,08,28,,,,,,,,,3.0,2.8,1.0*3E
$GPRMC,212322.000,A,3748.7531,N,12217.9035,W,2.12,212.31,080611,,,A*72
$GPVTG,212.31,T,,M,2.12,N,3.9,K,A*05
$GPGGA,212323.000,3748.7526,N,12217.9039,W,1,04,2.8,-10.6,M,-25.1,M,,0000*78
$GPGSA,A,3,10,07,08,28,,,,,,,,,3.0,2.8,1.0*3E
$GPRMC,212323.000,A,3748.7526,N,12217.9039,W,1.96,204.79,080611,,,A*7D
$GPVTG,204.79,T,,M,1.96,N,3.6,K,A*0E
$GPGGA,212324.000,3748.7521,N,12217.9048,W,1,04,2.8,-11.2,M,-25.1,M,,0000*7B
$GPGSA,A,3,10,07,08,28,,,,,,,,,3.0,2.8,1.0*3E
$GPRMC,212324.000,A,3748.7521,N,12217.9048,W,1.99,196.80,080611,,,A*7A
$GPVTG,196.80,T,,M,1.99,N,3.7,K,A*0E
$GPGGA,212325.000,3748.7516,N,12217.9051,W,1,04,2.8,-11.7,M,-25.1,M,,0000*73
$GPGSA,A,3,10,07,08,28,,,,,,,,,3.0,2.8,1.0*3E
$GPGSV,3,1,12,07,65,338,24,13,63,120,,08,45,292,35,10,40,255,39*7D
$GPGSV,3,2,12,23,29,132,32,19,28,094,,28,27,217,38,03,25,060,*7D
$GPGSV,3,3,12,05,19,309,23,06,16,049,23,01,10,220,,16,06,042,*76
$GPRMC,212325.000,A,3748.7516,N,12217.9051,W,1.89,195.61,080611,,,A*7A
$GPVTG,195.61,T,,M,1.89,N,3.5,K,A*01
$GPGGA,212326.000,3748.7511,N,12217.9049,W,1,04,2.8,-11.6,M,-25.1,M,,0000*7F
$GPGSA,A,3,10,07,08,28,,,,,,,,,3.0,2.8,1.0*3E
$GPRMC,212326.000,A,3748.7511,N,12217.9049,W,2.07,202.71,080611,,,A*7E
$GPVTG,202.71,T,,M,2.07,N,3.8,K,A*05
$GPGGA,212327.000,3748.7506,N,12217.9045,W,1,04,2.8,-11.4,M,-25.1,M,,0000*76
$GPGSA,A,3,10,07,08,28,,,,,,,,,3.0,2.8,1.0*3E
$GPRMC,212327.000,A,3748.7506,N,12217.9045,W,2.10,202.12,080611,,,A*76
$GPVTG,202.12,T,,M,2.10,N,3.9,K,A*07
$GPGGA,212328.000,3748.7501,N,12217.9049,W,1,04,2.8,-11.6,M,-25.1,M,,0000*70
$GPGSA,A,3,10,07,08,28,,,,,,,,,3.0,2.8,1.0*3E
$GPRMC,212328.000,A,3748.7501,N,12217.9049,W,2.59,211.44,080611,,,A*7E
$GPVTG,211.44,T,,M,2.59,N,4.8,K,A*0D
$GPGGA,212329.000,3748.7494,N,12217.9054,W,1,04,2.8,-11.9,M,-25.1,M,,0000*7F
$GPGSA,A,3,10,07,08,28,,,,,,,,,3.0,2.8,1.0*3E
$GPRMC,212329.000,A,3748.7494,N,12217.9054,W,2.85,212.61,080611,,,A*7B
$GPVTG,212.61,T,,M,2.85,N,5.3,K,A*02
$GPGGA,212330.000,3748.7488,N,12217.9061,W,1,04,2.8,-12.3,M,-25.1,M,,0000*75
$GPGSA,A,3,10,07,08,28,,,,,,,,,3.0,2.8,1.0*3E
$GPGSV,3,1,12,07,65,338,32,13,63,120,,08,45,292,36,10,40,255,39*79
$GPGSV,3,2,12,23,29,132,28,19,28,094,,28,27,217,38,03,25,060,*76
$GPGSV,3,3,12,05,19,309,22,06,16,049,25,01,10,220,,16,06,042,*71
$GPRMC,212330.000,A,3748.7488,N,12217.9061,W,2.66,208.59,080611,,,A*75
$GPVTG,208.59,T,,M,2.66,N,4.9,K,A*04
$GPGGA,212331.000,3748.7481,N,12217.9067,W,1,04,2.8,-12.7,M,-25.1,M,,0000*7F
$GPGSA,A,3,10,07,08,28,,,,,,,,,3.0,2.8,1.0*3E
$GPRMC,212331.000,A,3748.7481,N,12217.9067,W,2.49,204.54,080611,,,A*77
$GPVTG,204.54,T,,M,2.49,N,4.6,K,A*07
$GPGGA,212332.000,3748.7475,N,12217.9073,W,1,04,2.8,-13.1,M,-25.1,M,,0000*75
$GPGSA,A,3,10,07,08,28,,,,,,,,,3.0,2.8,1.0*3E
$GPRMC,212332.000,A,3748.7475,N,12217.9073,W,2.70,211.37,080611,,,A*71
$GPVTG,211.37,T,,M,2.70,N,5.0,K,A*0B
$GPGGA,212333.000,3748.7469,N,12217.9080,W,1,04,2.8,-13.4,M,-25.1,M,,0000*70
$GPGSA,A,3,10,07,08,28,,,,,,,,,3.0,2.8,1.0*3E
$GPRMC,212333.000,A,3748.7469,N,12217.9080,W,2.73,219.53,080611,,,A*78
$GPVTG,219.53,T,,M,2.73,N,5.1,K,A*03
$GPGGA,212334.000,3748.7462,N,12217.9086,W,1,04,2.8,-13.7,M,-25.1,M,,0000*79
$GPGSA,A,3,10,07,08,28,,,,,,,,,3.0,2.8,1.0*3E
$GPRMC,212334.000,A,3748.7462,N,12217.9086,W,2.87,206.71,080611,,,A*77
$GPVTG,206.71,T,,M,2.87,N,5.3,K,A*04
$GPGGA,212335.000,3748.7456,N,12217.9092,W,1,04,2.8,-14.0,M,-25.1,M,,0000*7A
$GPGSA,A,3,10,07,08,28,,,,,,,,,3.0,2.8,1.0*3E
$GPGSV,3,1,12,07,65,338,23,13,63,120,,08,45,292,37,10,40,255,39*78
$GPGSV,3,2,12,23,29,132,34,19,28,094,,28,27,217,36,03,25,060,*75
$GPGSV,3,3,12,05,19,309,26,06,16,049,26,01,10,220,,16,06,042,*76
$GPRMC,212335.000,A,3748.7456,N,12217.9092,W,2.60,213.28,080611,,,A*75
$GPVTG,213.28,T,,M,2.60,N,4.8,K,A*0F
$GPGGA,212336.000,3748.7451,N,12217.9102,W,1,04,2.8,-14.4,M,-25.1,M,,0000*72
$GPGSA,A,3,10,07,08,28,,,,,,,,,3.0,2.8,1.0*3E
$GPRMC,212336.000,A,3748.7451,N,12217.9102,W,2.99,216.07,080611,,,A*77
$GPVTG,216.07,T,,M,2.99,N,5.5,K,A*0D
$GPGGA,212337.000,3748.7445,N,12217.9110,W,1,04,2.8,-14.8,M,-25.1,M,,0000*79
$GPGSA,A,3,10,07,08,28,,,,,,,,,3.0,2.8,1.0*3E
$GPRMC,212337.000,A,3748.7445,N,12217.9110,W,2.64,217.67,080611,,,A*75
$GPVTG,217.67,T,,M,2.64,N,4.9,K,A*05
$GPGGA,212338.000,3748.7439,N,12217.9117,W,1,04,2.8,-15.2,M,-25.1,M,,0000*71
$GPGSA,A,3,10,07,08,28,,,,,,,,,3.0,2.8,1.0*3E
$GPRMC,212338.000,A,3748.7439,N,12217.9117,W,2.69,218.88,080611,,,A*75
$GPVTG,218.88,T,,M,2.69,N,5.0,K,A*0E
$GPGGA,212339.000,3748.7433,N,12217.9123,W,1,04,2.8,-15.5,M,-25.1,M,,0000*7A
$GPGSA,A,3,10,07,08,28,,,,,,,,,3.0,2.8,1.0*3E
$GPRMC,212339.000,A,3748.7433,N,12217.9123,W,2.59,215.18,080611,,,A*7E
$GPVTG,215.18,T,,M,2.59,N,4.8,K,A*00
$GPGGA,212340.000,3748.7427,N,12217.9129,W,1,04,2.8,-15.7,M,-25.1,M,,0000*79
$GPGSA,A,3,10,07,08,28,,,,,,,,,3.0,2.8,1.0*3E
$GPGSV,3,1,12,07,65,338,33,13,63,120,,08,45,292,38,10,40,255,39*76
$GPGSV,3,2,12,23,29,132,27,19,28,094,,28,27,217,30,03,25,060,*71
$GPGSV,3,3,12,05,19,309,25,06,16,049,23,01,10,220,,16,06,042,*70
$GPRMC,212340.000,A,3748.7427,N,12217.9129,W,2.70,219.21,080611,,,A*72
$GPGGA,212341.000,3748.7423,N,12217.9132,W,1,04,2.8,-15.3,M,-25.1,M,,0000*72
$GPGSA,A,3,10,07,08,28,,,,,,,,,3.0,2.8,1.0*3E
$GPRMC,212341.000,A,3748.7423,N,12217.9132,W,2.45,223.38,080611,,,A*7A
$GPVTG,223.38,T,,M,2.45,N,4.5,K,A*07
$GPGGA,212342.000,3748.7418,N,12217.9131,W,1,04,2.8,-14.8,M,-25.1,M,,0000*70
$GPGSA,A,3,10,07,08,28,,,,,,,,,3.0,2.8,1.0*3E
$GPRMC,212342.000,A,3748.7418,N,12217.9131,W,2.08,217.19,080611,,,A*7F
$GPVTG,217.19,T,,M,2.08,N,3.9,K,A*01
$GPGGA,212343.000,3748.7414,N,12217.9136,W,1,04,2.8,-14.9,M,-25.1,M,,0000*7B
$GPGSA,A,3,10,07,08,28,,,,,,,,,3.0,2.8,1.0*3E
$GPRMC,212343.000,A,3748.7414,N,12217.9136,W,2.05,218.54,080611,,,A*7E
$GPVTG,218.54,T,,M,2.05,N,3.8,K,A*0B
$GPGGA,212344.000,3748.7408,N,12217.9138,W,1,04,2.8,-14.8,M,-25.1,M,,0000*7E
$GPGSA,A,3,10,07,08,28,,,,,,,,,3.0,2.8,1.0*3E
$GPRMC,212344.000,A,3748.7408,N,12217.9138,W,2.32,208.51,080611,,,A*7A
$GPVTG,208.51,T,,M,2.32,N,4.3,K,A*07
$GPGGA,212345.000,3748.7403,N,12217.9140,W,1,04,2.8,-14.9,M,-25.1,M,,0000*7A
$GPGSA,A,3,10,07,08,28,,,,,,,,,3.0,2.8,1.0*3E
$GPGSV,3,1,12,07,65,338,27,13,62,121,,08,46,292,37,10,39,255,33*7B
$GPGSV,3,2,12,23,28,132,25,19,28,094,,28,27,217,34,03,25,060,*76
$GPGSV,3,3,12,05,19,309,26,06,16,049,23,01,10,220,,16,06,042,*73
$GPRMC,212345.000,A,3748.7403,N,12217.9140,W,2.09,198.91,080611,,,A*71
$GPVTG,198.91,T,,M,2.09,N,3.9,K,A*04
$GPGGA,212346.000,3748.7396,N,12217.9151,W,1,04,2.8,-15.7,M,-25.1,M,,0000*7D
$GPGSA,A,3,10,07,08,28,,,,,,,,,3.0,2.8,1.0*3E
$GPRMC,212346.000,A,3748.7396,N,12217.9151,W,2.56,197.84,080611,,,A*78
$GPVTG,197.84,T,,M,2.56,N,4.7,K,A*0C
$GPGGA,212347.000,3748.7388,N,12217.9159,W,1,04,2.8,-16.2,M,-25.1,M,,0000*7D
$GPGSA,A,3,10,07,08,28,,,,,,,,,3.0,2.8,1.0*3E
$GPRMC,212347.000,A,3748.7388,N,12217.9159,W,2.55,201.18,080611,,,A*74
$GPVTG,201.18,T,,M,2.55,N,4.7,K,A*06
$GPGGA,212348.000,3748.7381,N,12217.9162,W,1,04,2.8,-16.3,M,-25.1,M,,0000*72
$GPGSA,A,3,10,07,08,28,,,,,,,,,3.0,2.8,1.0*3E
$GPRMC,212348.000,A,3748.7381,N,12217.9162,W,2.76,205.53,080611,,,A*70
$GPVTG,205.53,T,,M,2.76,N,5.1,K,A*0B
$GPGGA,212349.000,3748.7374,N,12217.9164,W,1,04,2.8,-16.2,M,-25.1,M,,0000*7E
$GPGSA,A,3,10,07,08,28,,,,,,,,,3.0,2.8,1.0*3E
$GPRMC,212349.000,A,3748.7374,N,12217.9164,W,2.74,207.73,080611,,,A*7F
$GPVTG,207.73,T,,M,2.74,N,5.1,K,A*09
$GPGGA,212350.000,3748.7367,N,12217.9170,W,1,04,2.8,-16.4,M,-25.1,M,,0000*77
$GPGSA,A,3,10,07,08,28,,,,,,,,,3.0,2.8,1.0*3E
$GPGSV,3,1,12,07,65,338,28,13,62,121,,08,46,292,38,10,39,255,39*71
$GPGSV,3,2,12,23,28,132,27,19,28,094,,28,27,217,37,03,25,060,*77
$GPGSV,3,3,12,05,19,309,25,06,16,049,23,01,10,220,,16,06,042,*70
$GPRMC,212350.000,A,3748.7367,N,12217.9170,W,2.83,210.01,080611,,,A*7B
$GPVTG,210.01,T,,M,2.83,N,5.3,K,A*00
$GPGGA,212351.000,3748.7360,N,12217.9176,W,1,04,2.8,-16.7,M,-25.1,M,,0000*74
$GPGSA,A,3,10,07,08,28,,,,,,,,,3.0,2.8,1.0*3E
$GPRMC,212351.000,A,3748.7360,N,12217.9176,W,2.89,212.07,080611,,,A*75
$GPVTG,212.07,T,,M,2.89,N,5.3,K,A*0E
$GPGGA,212352.000,3748.7353,N,12217.9184,W,1,04,2.8,-16.9,M,-25.1,M,,0000*74
$GPGSA,A,3,10,07,08,28,,,,,,,,,3.0,2.8,1.0*3E
$GPRMC,212352.000,A,3748.7353,N,12217.9184,W,2.92,217.73,080611,,,A*77
$GPVTG,217.73,T,,M,2.92,N,5.4,K,A*05
$GPGGA,212353.000,3748.7346,N,12217.9190,W,1,04,2.8,-17.0,M,-25.1,M,,0000*7C
$GPGSA,A,3,10,07,08,28,,,,,,,,,3.0,2.8,1.0*3E
$GPRMC,212353.000,A,3748.7346,N,12217.9190,W,2.97,219.73,080611,,,A*7C
$GPVTG,219.73,T,,M,2.97,N,5.5,K,A*0F
$GPGGA,212354.000,3748.7340,N,12217.9196,W,1,04,2.8,-17.1,M,-25.1,M,,0000*7A
$GPGSA,A,3,10,07,08,28,,,,,,,,,3.0,2.8,1.0*3E
$GPRMC,212354.000,A,3748.7340,N,12217.9196,W,2.96,220.25,080611,,,A*73
$GPVTG,220.25,T,,M,2.96,N,5.5,K,A*07
$GPGGA,212355.000,3748.7333,N,12217.9202,W,1,04,2.8,-17.1,M,-25.1,M,,0000*71
$GPGSA,A,3,10,07,08,28,,,,,,,,,3.0,2.8,1.0*3E
$GPGSV,3,1,12,07,65,338,31,13,62,121,27,08,46,292,38,10,39,255,39*7C
$GPGSV,3,2,12,23,28,132,27,19,28,094,,28,27,217,37,03,25,060,*77
$GPGSV,3,3,12,05,19,309,24,06,16,049,22,01,10,220,,16,06,042,*70
$GPRMC,212355.000,A,3748.7333,N,12217.9202,W,2.89,218.00,080611,,,A*7A
$GPGGA,212356.000,3748.7327,N,12217.9207,W,1,04,2.8,-17.1,M,-25.1,M,,0000*72
$GPGSA,A,3,10,07,08,28,,,,,,,,,3.0,2.8,1.0*3E
$GPRMC,212356.000,A,3748.7327,N,12217.9207,W,2.84,217.26,080611,,,A*7F
$GPVTG,217.26,T,,M,2.84,N,5.3,K,A*05
$GPGGA,212357.000,3748.7320,N,12217.9211,W,1,04,2.8,-17.2,M,-25.1,M,,0000*70
$GPGSA,A,3,10,07,08,28,,,,,,,,,3.0,2.8,1.0*3E
$GPRMC,212357.000,A,3748.7320,N,12217.9211,W,2.84,213.29,080611,,,A*75
$GPVTG,213.29,T,,M,2.84,N,5.3,K,A*0E
$GPGGA,212358.000,3748.7313,N,12217.9216,W,1,04,2.8,-17.2,M,-25.1,M,,0000*78
$GPGSA,A,3,10,07,08,28,,,,,,,,,3.0,2.8,1.0*3E
$GPRMC,212358.000,A,3748.7313,N,12217.9216,W,2.91,212.87,080611,,,A*7C
$GPVTG,212.87,T,,M,2.91,N,5.4,K,A*08
$GPGGA,212359.000,3748.7307,N,12217.9220,W,1,04,2.8,-17.2,M,-25.1,M,,0000*79
$GPGSA,A,3,10,07,08,28,,,,,,,,,3.0,2.8,1.0*3E
$GPRMC,212359.000,A,3748.7307,N,12217.9220,W,2.80,211.37,080611,,,A*75
$GPVTG,211.37,T,,M,2.80,N,5.2,K,A*06
$GPGGA,212400.000,3748.7300,N,12217.9224,W,1,04,2.8,-17.2,M,-25.1,M,,0000*71
$GPGSA,A,3,10,07,08,28,,,,,,,,,3.0,2.8,1.0*3E
$GPGSV,3,1,12,07,65,338,31,13,62,121,27,08,46,292,38,10,39,255,39*7C
$GPGSV,3,2,12,23,28,132,26,19,28,094,,28,27,217,33,03,25,060,*72
$GPGSV,3,3,12,05,19,309,24,06,16,049,22,01,10,220,,16,06,042,*70
$GPRMC,212400.000,A,3748.7300,N,12217.9224,W,2.78,213.01,080611,,,A*7D
$GPVTG,213.01,T,,M,2.78,N,5.1,K,A*05
$GPGGA,212401.000,3748.7294,N,12217.9228,W,1,04,2.8,-17.2,M,-25.1,M,,0000*70
$GPGSA,A,3,10,07,08,28,,,,,,,,,3.0,2.8,1.0*3E
$GPRMC,212401.000,A,3748.7294,N,12217.9228,W,2.69,213.84,080611,,,A*71
$GPVTG,213.84,T,,M,2.69,N,5.0,K,A*09
$GPGGA,212402.000,3748.7288,N,12217.9232,W,1,04,2.8,-17.2,M,-25.1,M,,0000*75
$GPGSA,A,3,10,07,08,28,,,,,,,,,3.0,2.8,1.0*3E
$GPRMC,212402.000,A,3748.7288,N,12217.9232,W,2.47,218.70,080611,,,A*78
$GPVTG,218.70,T,,M,2.47,N,4.6,K,A*02
$GPGGA,212403.000,3748.7282,N,12217.9237,W,1,04,2.8,-17.2,M,-25.1,M,,0000*7B
$GPGSA,A,3,10,07,08,28,,,,,,,,,3.0,2.8,1.0*3E
$GPRMC,212403.000,A,3748.7282,N,12217.9237,W,2.73,217.01,080611,,,A*78
$GPVTG,217.01,T,,M,2.73,N,5.1,K,A*0A
$GPGGA,212404.000,3748.7276,N,12217.9241,W,1,04,2.8,-17.2,M,-25.1,M,,0000*76
$GPGSA,A,3,10,07,08,28,,,,,,,,,3.0,2.8,1.0*3E
$GPRMC,212404.000,A,3748.7276,N,12217.9241,W,2.62,213.58,080611,,,A*7D
$GPVTG,213.58,T,,M,2.62,N,4.9,K,A*0B
$GPGGA,212405.000,3748.7270,N,12217.9246,W,1,04,2.8,-17.2,M,-25.1,M,,0000*76
$GPGSA,A,3,10,07,08,28,,,,,,,,,3.0,2.8,1.0*3E
$GPGSV,3,1,12,07,65,338,29,13,62,121,27,08,46,292,37,10,39,255,37*74
$GPGSV,3,2,12,23,28,132,22,19,28,094,,28,27,217,39,03,25,060,*7C
$GPGSV,3,3,12,05,19,309,26,06,16,049,23,01,10,220,,16,06,042,*73
$GPRMC,212405.000,A,3748.7270,N,12217.9246,W,2.71,216.91,080611,,,A*7F
$GPVTG,216.91,T,,M,2.71,N,5.0,K,A*01
$GPGGA,212406.000,3748.7264,N,12217.9251,W,1,04,2.8,-17.2,M,-25.1,M,,0000*76
$GPGSA,A,3,10,07,08,28,,,,,,,,,3.0,2.8,1.0*3E
$GPRMC,212406.000,A,3748.7264,N,12217.9251,W,2.77,211.99,080611,,,A*76
$GPVTG,211.99,T,,M,2.77,N,5.1,K,A*09
$GPGGA,212407.000,3748.7257,N,12217.9256,W,1,04,2.8,-17.3,M,-25.1,M,,0000*71
$GPGSA,A,3,10,07,08,28,,,,,,,,,3.0,2.8,1.0*3E
$GPRMC,212407.000,A,3748.7257,N,12217.9256,W,2.75,214.78,080611,,,A*78
$GPVTG,214.78,T,,M,2.75,N,5.1,K,A*01
$GPGGA,212408.000,3748.7251,N,12217.9260,W,1,04,2.8,-17.3,M,-25.1,M,,0000*7D
$GPGSA,A,3,10,07,08,28,,,,,,,,,3.0,2.8,1.0*3E
$GPRMC,212408.000,A,3748.7251,N,12217.9260,W,2.76,215.19,080611,,,A*71
$GPVTG,215.19,T,,M,2.76,N,5.1,K,A*04
$GPGGA,212409.000,3748.7244,N,12217.9265,W,1,04,2.8,-17.3,M,-25.1,M,,0000*7D
$GPGSA,A,3,10,07,08,28,,,,,,,,,3.0,2.8,1.0*3E
$GPRMC,212409.000,A,3748.7244,N,12217.9265,W,2.82,213.05,080611,,,A*71
$GPVTG,213.05,T,,M,2.82,N,5.2,K,A*07
$GPGGA,212410.000,3748.7237,N,12217.9269,W,1,04,2.8,-17.4,M,-25.1,M,,0000*7A
$GPGSA,A,3,10,07,08,28,,,,,,,,,3.0,2.8,1.0*3E
$GPGSV,3,1,12,07,65,338,30,13,62,121,27,08,46,292,37,10,39,255,38*73
$GPGSV,3,2,12,23,28,132,25,19,28,094,,28,27,217,37,03,25,060,14*70
$GPGSV,3,3,12,05,19,309,25,06,16,049,14,01,10,220,,16,06,042,*74
$GPRMC,212410.000,A,3748.7237,N,12217.9269,W,2.81,210.01,080611,,,A*75
$GPGGA,212411.000,3748.7231,N,12217.9273,W,1,04,2.8,-17.4,M,-25.1,M,,0000*76
$GPGSA,A,3,10,07,08,28,,,,,,,,,3.0,2.8,1.0*3E
$GPRMC,212411.000,A,3748.7231,N,12217.9273,W,2.73,207.36,080611,,,A*76
$GPVTG,207.36,T,,M,2.73,N,5.1,K,A*0F
$GPGGA,212412.000,3748.7224,N,12217.9278,W,1,04,2.8,-17.5,M,-25.1,M,,0000*7B
$GPGSA,A,3,10,07,08,28,,,,,,,,,3.0,2.8,1.0*3E
$GPRMC,212412.000,A,3748.7224,N,12217.9278,W,2.83,209.00,080611,,,A*7E
$GPVTG,209.00,T,,M,2.83,N,5.2,K,A*08
$GPGGA,212413.000,3748.7217,N,12217.9282,W,1,04,2.8,-17.5,M,-25.1,M,,0000*7F
$GPGSA,A,3,10,07,08,28,,,,,,,,,3.0,2.8,1.0*3E
$GPRMC,212413.000,A,3748.7217,N,12217.9282,W,2.70,206.57,080611,,,A*7B
$GPVTG,206.57,T,,M,2.70,N,5.0,K,A*0B
$GPGGA,212414.000,3748.7210,N,12217.9286,W,1,04,2.8,-17.5,M,-25.1,M,,0000*7B
$GPGSA,A,3,10,07,08,28,,,,,,,,,3.0,2.8,1.0*3E
$GPRMC,212414.000,A,3748.7210,N,12217.9286,W,2.70,202.08,080611,,,A*71
$GPVTG,202.08,T,,M,2.70,N,5.0,K,A*05
$GPGGA,212415.000,3748.7203,N,12217.9290,W,1,04,2.8,-17.6,M,-25.1,M,,0000*7C
$GPGSA,A,3,10,07,08,28,,,,,,,,,3.0,2.8,1.0*3E
$GPGSV,3,1,12,07,65,339,30,13,62,121,27,08,46,293,37,10,39,254,39*73
$GPGSV,3,2,12,19,29,094,,23,28,132,21,28,27,217,38,03,25,060,*7F
$GPGSV,3,3,12,05,19,309,26,06,16,049,16,01,10,220,,16,06,042,*75
$GPRMC,212415.000,A,3748.7203,N,12217.9290,W,2.75,209.25,080611,,,A*74
$GPVTG,209.25,T,,M,2.75,N,5.1,K,A*05
$GPGGA,212416.000,3748.7196,N,12217.9297,W,1,04,2.8,-17.6,M,-25.1,M,,0000*77
$GPGSA,A,3,10,07,08,28,,,,,,,,,3.0,2.8,1.0*3E
$GPRMC,212416.000,A,3748.7196,N,12217.9297,W,2.80,217.17,080611,,,A*7B
$GPVTG,217.17,T,,M,2.80,N,5.2,K,A*02
$GPGGA,212417.000,3748.7190,N,12217.9301,W,1,04,2.8,-17.7,M,-25.1,M,,0000*7F
$GPGSA,A,3,10,07,08,28,,,,,,,,,3.0,2.8,1.0*3E
$GPRMC,212417.000,A,3748.7190,N,12217.9301,W,2.47,202.99,080611,,,A*7B
$GPVTG,202.99,T,,M,2.47,N,4.6,K,A*0E
$GPGGA,212418.000,3748.7183,N,12217.9305,W,1,04,2.8,-17.6,M,-25.1,M,,0000*77
$GPGSA,A,3,10,07,08,28,,,,,,,,,3.0,2.8,1.0*3E
$GPRMC,212418.000,A,3748.7183,N,12217.9305,W,2.86,208.06,080611,,,A*73
$GPVTG,208.06,T,,M,2.86,N,5.3,K,A*0B
$GPGGA,212419.000,3748.7175,N,12217.9311,W,1,04,2.8,-17.6,M,-25.1,M,,0000*7A
$GPGSA,A,3,10,07,08,28,,,,,,,,,3.0,2.8,1.0*3E
$GPRMC,212419.000,A,3748.7175,N,12217.9311,W,3.05,212.93,080611,,,A*73
$GPVTG,212.93,T,,M,3.05,N,5.6,K,A*03
$GPGGA,212420.000,3748.7168,N,12217.9315,W,1,04,2.8,-17.5,M,-25.1,M,,0000*7B
$GPGSA,A,3,10,07,08,28,,,,,,,,,3.0,2.8,1.0*3E
$GPGSV,3,1,12,07,65,339,30,13,62,121,26,08,46,293,38,10,39,254,39*7D
$GPGSV,3,2,12,19,29,094,,23,28,132,25,28,27,217,34,03,25,060,*77
$GPGSV,3,3,12,05,19,309,38,06,16,049,17,01,10,220,,16,06,042,*7B
$GPRMC,212420.000,A,3748.7168,N,12217.9315,W,2.83,211.57,080611,,,A*75
$GPVTG,211.57,T,,M,2.83,N,5.3,K,A*02
$GPGGA,212421.000,3748.7162,N,12217.9322,W,1,04,2.8,-17.5,M,-25.1,M,,0000*74
$GPGSA,A,3,10,07,08,28,,,,,,,,,3.0,2.8,1.0*3E
$GPRMC,212421.000,A,3748.7162,N,12217.9322,W,2.93,215.47,080611,,,A*7E
$GPVTG,215.47,T,,M,2.93,N,5.4,K,A*01
$GPGGA,212422.000,3748.7155,N,12217.9326,W,1,04,2.8,-17.4,M,-25.1,M,,0000*76
$GPGSA,A,3,10,07,08,28,,,,,,,,,3.0,2.8,1.0*3E
$GPRMC,212422.000,A,3748.7155,N,12217.9326,W,2.85,216.56,080611,,,A*79
$GPVTG,216.56,T,,M,2.85,N,5.3,K,A*02
$GPGGA,212423.000,3748.7148,N,12217.9331,W,1,04,2.8,-17.3,M,-25.1,M,,0000*7A
$GPGSA,A,3,10,07,08,28,,,,,,,,,3.0,2.8,1.0*3E
$GPRMC,212423.000,A,3748.7148,N,12217.9331,W,2.90,214.15,080611,,,A*73
$GPVTG,214.15,T,,M,2.90,N,5.4,K,A*04
$GPGGA,212424.000,3748.7142,N,12217.9337,W,1,04,2.8,-17.3,M,-25.1,M,,0000*71
$GPGSA,A,3,10,07,08,28,,,,,,,,,3.0,2.8,1.0*3E
$GPRMC,212424.000,A,3748.7142,N,12217.9337,W,2.87,217.59,080611,,,A*75
$GPVTG,217.59,T,,M,2.87,N,5.3,K,A*0E
$GPGGA,212425.000,3748.7135,N,12217.9343,W,1,04,2.8,-17.2,M,-25.1,M,,0000*72
$GPGSA,A,3,10,07,08,28,,,,,,,,,3.0,2.8,1.0*3E
$GPGSV,3,1,12,07,65,339,30,13,62,121,26,08,46,293,38,10,39,254,39*7D
$GPGSV,3,2,12,19,29,094,,23,28,132,18,28,27,217,36,03,25,060,*7B
$GPGSV,3,3,12,05,19,309,37,06,16,049,18,01,10,220,,16,06,042,*7B
$GPRMC,212425.000,A,3748.7135,N,12217.9343,W,2.97,219.17,080611,,,A*72
$GPGGA,212426.000,3748.7128,N,12217.9349,W,1,04,2.8,-17.2,M,-25.1,M,,0000*77
$GPGSA,A,3,10,07,08,28,,,,,,,,,3.0,2.8,1.0*3E
$GPRMC,212426.000,A,3748.7128,N,12217.9349,W,3.22,219.39,080611,,,A*74
$GPVTG,219.39,T,,M,3.22,N,6.0,K,A*08
$GPGGA,212427.000,3748.7121,N,12217.9356,W,1,04,2.8,-17.1,M,-25.1,M,,0000*72
$GPGSA,A,3,10,07,08,28,,,,,,,,,3.0,2.8,1.0*3E
$GPRMC,212427.000,A,3748.7121,N,12217.9356,W,3.54,215.03,080611,,,A*76
$GPVTG,215.03,T,,M,3.54,N,6.5,K,A*09
$GPGGA,212428.000,3748.7113,N,12217.9360,W,1,04,2.8,-16.8,M,-25.1,M,,0000*71
$GPGSA,A,3,10,07,08,28,,,,,,,,,3.0,2.8,1.0*3E
$GPRMC,212428.000,A,3748.7113,N,12217.9360,W,3.16,215.98,080611,,,A*79
$GPVTG,215.98,T,,M,3.16,N,5.8,K,A*03
$GPGGA,212429.000,3748.7106,N,12217.9363,W,1,04,2.8,-16.6,M,-25.1,M,,0000*79
$GPGSA,A,3,10,07,08,28,,,,,,,,,3.0,2.8,1.0*3E
$GPRMC,212429.000,A,3748.7106,N,12217.9363,W,2.98,215.37,080611,,,A*7D
$GPVTG,215.37,T,,M,2.98,N,5.5,K,A*0C
$GPGGA,212430.000,3748.7099,N,12217.9367,W,1,04,2.8,-16.3,M,-25.1,M,,0000*77
$GPGSA,A,3,10,07,08,28,,,,,,,,,3.0,2.8,1.0*3E
$GPGSV,3,1,12,07,65,339,31,13,62,121,26,08,46,293,38,10,39,254,39*7C
$GPGSV,3,2,12,19,29,094,,23,28,132,21,28,27,217,36,03,25,060,*71
$GPGSV,3,3,12,05,19,309,38,06,16,049,18,01,10,220,,16,06,042,*74
$GPRMC,212430.000,A,3748.7099,N,12217.9367,W,2.88,215.82,080611,,,A*79
$GPVTG,215.82,T,,M,2.88,N,5.3,K,A*05
$GPGGA,212431.000,3748.7092,N,12217.9372,W,1,04,2.8,-16.1,M,-25.1,M,,0000*7B
$GPGSA,A,3,10,07,08,28,,,,,,,,,3.0,2.8,1.0*3E
$GPRMC,212431.000,A,3748.7092,N,12217.9372,W,2.97,218.24,080611,,,A*78
$GPVTG,218.24,T,,M,2.97,N,5.5,K,A*0C
$GPGGA,212432.000,3748.7086,N,12217.9377,W,1,04,2.8,-16.0,M,-25.1,M,,0000*79
$GPGSA,A,3,10,07,08,28,,,,,,,,,3.0,2.8,1.0*3E
$GPRMC,212432.000,A,3748.7086,N,12217.9377,W,3.01,217.56,080611,,,A*7F
$GPVTG,217.56,T,,M,3.01,N,5.6,K,A*0B
$GPGGA,212433.000,3748.7079,N,12217.9383,W,1,04,2.8,-15.9,M,-25.1,M,,0000*79
$GPGSA,A,3,10,07,08,28,,,,,,,,,3.0,2.8,1.0*3E
$GPRMC,212433.000,A,3748.7079,N,12217.9383,W,3.03,217.38,080611,,,A*7F
$GPVTG,217.38,T,,M,3.03,N,5.6,K,A*01
$GPGGA,212434.000,3748.7072,N,12217.9388,W,1,04,2.8,-15.8,M,-25.1,M,,0000*7F
$GPGSA,A,3,10,07,08,28,,,,,,,,,3.0,2.8,1.0*3E
$GPRMC,212434.000,A,3748.7072,N,12217.9388,W,2.92,217.70,080611,,,A*7D
$GPVTG,217.70,T,,M,2.92,N,5.4,K,A*06
$GPGGA,212435.000,3748.7065,N,12217.9393,W,1,04,2.8,-15.7,M,-25.1,M,,0000*7D
$GPGSA,A,3,10,07,08,28,,,,,,,,,3.0,2.8,1.0*3E
$GPGSV,3,1,12,07,65,339,31,13,62,121,26,08,46,293,38,10,39,254,38*7D
$GPGSV,3,2,12,19,29,094,,23,28,132,25,28,27,217,37,03,25,060,*74
$GPGSV,3,3,12,05,19,309,39,06,16,049,19,01,10,220,,16,06,042,*74
$GPRMC,212435.000,A,3748.7065,N,12217.9393,W,2.87,210.15,080611,,,A*70
$GPVTG,210.15,T,,M,2.87,N,5.3,K,A*01
$GPGGA,212436.000,3748.7058,N,12217.9398,W,1,04,2.8,-15.7,M,-25.1,M,,0000*7B
$GPGSA,A,3,10,07,08,28,,,,,,,,,3.0,2.8,1.0*3E
$GPRMC,212436.000,A,3748.7058,N,12217.9398,W,2.81,206.96,080611,,,A*7C
$GPVTG,206.96,T,,M,2.81,N,5.2,K,A*0A
$GPGGA,212437.000,3748.7051,N,12217.9403,W,1,04,2.8,-15.6,M,-25.1,M,,0000*77
$GPGSA,A,3,10,07,08,28,,,,,,,,,3.0,2.8,1.0*3E
$GPRMC,212437.000,A,3748.7051,N,12217.9403,W,2.87,211.73,080611,,,A*7A
$GPVTG,211.73,T,,M,2.87,N,5.3,K,A*00
$GPGGA,212438.000,3748.7044,N,12217.9408,W,1,04,2.8,-15.5,M,-25.1,M,,0000*74
$GPGSA,A,3,10,07,08,28,,,,,,,,,3.0,2.8,1.0*3E
$GPRMC,212438.000,A,3748.7044,N,12217.9408,W,2.86,213.83,080611,,,A*76
$GPVTG,213.83,T,,M,2.86,N,5.3,K,A*0C
$GPGGA,212439.000,3748.7037,N,12217.9414,W,1,04,2.8,-15.4,M,-25.1,M,,0000*7D
$GPGSA,A,3,10,07,08,28,,,,,,,,,3.0,2.8,1.0*3E
$GPRMC,212439.000,A,3748.7037,N,12217.9414,W,2.81,215.07,080611,,,A*73
$GPVTG,215.07,T,,M,2.81,N,5.2,K,A*00
$GPGGA,212440.000,3748.7031,N,12217.9419,W,1,04,2.8,-15.3,M,-25.1,M,,0000*7F
$GPGSA,A,3,10,07,08,28,,,,,,,,,3.0,2.8,1.0*3E
$GPGSV,3,1,12,07,65,339,32,13,62,121,27,08,46,293,38,10,39,254,39*7E
$GPGSV,3,2,12,19,29,094,,23,28,132,25,28,27,217,37,03,25,060,*74
$GPGSV,3,3,12,05,19,309,30,06,16,049,19,01,10,220,,16,06,042,*7D
$GPRMC,212440.000,A,3748.7031,N,12217.9419,W,2.87,215.07,080611,,,A*70
$GPGGA,212441.000,3748.7024,N,12217.9425,W,1,04,2.8,-15.4,M,-25.1,M,,0000*72
$GPGSA,A,3,10,07,08,28,,,,,,,,,3.0,2.8,1.0*3E
$GPRMC,212441.000,A,3748.7024,N,12217.9425,W,2.69,212.90,080611,,,A*73
$GPVTG,212.90,T,,M,2.69,N,5.0,K,A*0D
$GPGGA,212442.000,3748.7016,N,12217.9427,W,1,04,2.8,-15.2,M,-25.1,M,,0000*74
$GPGSA,A,3,10,07,08,28,,,,,,,,,3.0,2.8,1.0*3E
$GPRMC,212442.000,A,3748.7016,N,12217.9427,W,2.93,199.41,080611,,,A*7A
$GPVTG,199.41,T,,M,2.93,N,5.4,K,A*00
$GPGGA,212443.000,3748.7007,N,12217.9430,W,1,04,2.8,-14.8,M,-25.1,M,,0000*78
$GPGSA,A,3,10,07,08,28,,,,,,,,,3.0,2.8,1.0*3E
$GPRMC,212443.000,A,3748.7007,N,12217.9430,W,2.46,201.54,080611,,,A*73
$GPVTG,201.54,T,,M,2.46,N,4.6,K,A*0D
$GPGGA,212444.000,3748.6999,N,12217.9433,W,1,04,2.8,-14.3,M,-25.1,M,,0000*78
$GPGSA,A,3,10,07,08,28,,,,,,,,,3.0,2.8,1.0*3E
$GPRMC,212444.000,A,3748.6999,N,12217.9433,W,2.18,205.41,080611,,,A*73
$GPVTG,205.41,T,,M,2.18,N,4.0,K,A*00
$GPGGA,212445.000,3748.6993,N,12217.9438,W,1,04,2.8,-13.9,M,-25.1,M,,0000*75
$GPGSA,A,3,10,07,08,28,,,,,,,,,3.0,2.8,1.0*3E
$GPGSV,3,1,12,07,65,339,30,13,62,121,27,08,46,293,35,10,39,254,37*7F
$GPGSV,3,2,12,19,29,094,,23,28,132,26,28,27,217,37,03,25,060,*77
$GPGSV,3,3,12,05,19,309,34,06,15,048,18,01,11,220,,16,05,042,*78
$GPRMC,212445.000,A,3748.6993,N,12217.9438,W,2.57,214.39,080611,,,A*77
$GPVTG,214.39,T,,M,2.57,N,4.8,K,A*0C
$GPGGA,212446.000,3748.6985,N,12217.9442,W,1,04,2.8,-13.6,M,-25.1,M,,0000*73
$GPGSA,A,3,10,07,08,28,,,,,,,,,3.0,2.8,1.0*3E
$GPRMC,212446.000,A,3748.6985,N,12217.9442,W,2.81,216.68,080611,,,A*73
$GPVTG,216.68,T,,M,2.81,N,5.2,K,A*0A
$GPGGA,212447.000,3748.6978,N,12217.9447,W,1,04,2.8,-13.2,M,-25.1,M,,0000*71
$GPGSA,A,3,10,07,08,28,,,,,,,,,3.0,2.8,1.0*3E
$GPRMC,212447.000,A,3748.6978,N,12217.9447,W,2.96,215.00,080611,,,A*7E
$GPVTG,215.00,T,,M,2.96,N,5.5,K,A*06
$GPGGA,212448.000,3748.6970,N,12217.9451,W,1,04,2.8,-13.0,M,-25.1,M,,0000*73
$GPGSA,A,3,10,07,08,28,,,,,,,,,3.0,2.8,1.0*3E
$GPRMC,212448.000,A,3748.6970,N,12217.9451,W,2.92,212.49,080611,,,A*70
$GPVTG,212.49,T,,M,2.92,N,5.4,K,A*09
$GPGGA,212449.000,3748.6963,N,12217.9455,W,1,04,2.8,-12.7,M,-25.1,M,,0000*72
$GPGSA,A,3,10,07,08,28,,,,,,,,,3.0,2.8,1.0*3E
$GPRMC,212449.000,A,3748.6963,N,12217.9455,W,2.89,214.34,080611,,,A*71
$GPVTG,214.34,T,,M,2.89,N,5.3,K,A*08
$GPGGA,212450.000,3748.6955,N,12217.9460,W,1,04,2.8,-12.5,M,-25.1,M,,0000*7B
$GPGSA,A,3,10,07,08,28,,,,,,,,,3.0,2.8,1.0*3E
$GPGSV,3,1,12,07,65,340,31,13,62,121,27,08,46,293,38,10,39,254,38*72
$GPGSV,3,2,12,19,29,094,,23,28,132,27,28,27,217,37,03,25,060,*76
$GPGSV,3,3,12,05,19,309,25,06,15,048,18,01,11,220,,16,05,042,*78
$GPRMC,212450.000,A,3748.6955,N,12217.9460,W,2.81,214.06,080611,,,A*73
$GPVTG,214.06,T,,M,2.81,N,5.2,K,A*00
$GPGGA,212451.000,3748.6948,N,12217.9465,W,1,04,2.8,-12.2,M,-25.1,M,,0000*74
$GPGSA,A,3,10,07,08,28,,,,,,,,,3.0,2.8,1.0*3E
$GPRMC,212451.000,A,3748.6948,N,12217.9465,W,2.85,213.52,080611,,,A*79
$GPVTG,213.52,T,,M,2.85,N,5.3,K,A*03
$GPGGA,212452.000,3748.6941,N,12217.9471,W,1,04,2.8,-12.0,M,-25.1,M,,0000*79
$GPGSA,A,3,10,07,08,28,,,,,,,,,3.0,2.8,1.0*3E
$GPRMC,212452.000,A,3748.6941,N,12217.9471,W,2.97,216.73,080611,,,A*73
$GPVTG,216.73,T,,M,2.97,N,5.5,K,A*00
$GPGGA,212453.000,3748.6934,N,12217.9476,W,1,04,2.8,-11.7,M,-25.1,M,,0000*79
$GPGSA,A,3,10,07,08,28,,,,,,,,,3.0,2.8,1.0*3E
$GPRMC,212453.000,A,3748.6934,N,12217.9476,W,2.92,217.24,080611,,,A*71
$GPVTG,217.24,T,,M,2.92,N,5.4,K,A*07
$GPGGA,212454.000,3748.6926,N,12217.9482,W,1,04,2.8,-11.5,M,-25.1,M,,0000*74
$GPGSA,A,3,10,07,08,28,,,,,,,,,3.0,2.8,1.0*3E
$GPRMC,212454.000,A,3748.6926,N,12217.9482,W,2.92,216.08,080611,,,A*71
$GPVTG,216.08,T,,M,2.92,N,5.4,K,A*08
$GPGGA,212455.000,3748.6919,N,12217.9491,W,1,04,2.8,-11.4,M,-25.1,M,,0000*7A
$GPGSA,A,3,10,07,08,28,,,,,,,,,3.0,2.8,1.0*3E
$GPGSV,3,1,12,07,65,340,31,13,62,121,27,08,46,293,38,10,39,254,38*72
$GPGSV,3,2,12,19,29,094,,23,28,132,28,28,27,217,37,03,25,060,*79
$GPGSV,3,3,12,05,19,309,36,06,15,048,18,01,11,220,,16,05,042,*7A
$GPRMC,212455.000,A,3748.6919,N,12217.9491,W,3.39,217.37,080611,,,A*73
$GPGGA,212456.000,3748.6911,N,12217.9496,W,1,04,2.8,-11.1,M,-25.1,M,,0000*73
$GPGSA,A,3,10,07,08,28,,,,,,,,,3.0,2.8,1.0*3E
$GPRMC,212456.000,A,3748.6911,N,12217.9496,W,3.19,216.10,080611,,,A*79
$GPVTG,216.10,T,,M,3.19,N,5.9,K,A*0E
$GPGGA,212457.000,3748.6903,N,12217.9500,W,1,04,2.8,-10.8,M,-25.1,M,,0000*77
$GPGSA,A,3,10,07,08,28,,,,,,,,,3.0,2.8,1.0*3E
$GPRMC,212457.000,A,3748.6903,N,12217.9500,W,3.03,211.57,080611,,,A*7A
$GPVTG,211.57,T,,M,3.03,N,5.6,K,A*0E
$GPGGA,212458.000,3748.6895,N,12217.9505,W,1,04,2.8,-10.5,M,-25.1,M,,0000*7E
$GPGSA,A,3,10,07,08,28,,,,,,,,,3.0,2.8,1.0*3E
$GPRMC,212458.000,A,3748.6895,N,12217.9505,W,3.00,210.48,080611,,,A*72
$GPVTG,210.48,T,,M,3.00,N,5.6,K,A*02
$GPGGA,212459.000,3748.6888,N,12217.9508,W,1,04,2.8,-10.2,M,-25.1,M,,0000*79
$GPGSA,A,3,10,07,08,28,,,,,,,,,3.0,2.8,1.0*3E
$GPRMC,212459.000,A,3748.6888,N,12217.9508,W,2.74,205.80,080611,,,A*70
$GPVTG,205.80,T,,M,2.74,N,5.1,K,A*07
$GPGGA,212500.000,3748.6881,N,12217.9514,W,1,04,2.8,-10.2,M,-25.1,M,,0000*70
$GPGSA,A,3,10,07,08,28,,,,,,,,,3.0,2.8,1.0*3E
$GPGSV,3,1,12,07,65,340,31,13,62,121,27,08,46,293,38,10,39,254,38*72
$GPGSV,3,2,12,19,29,094,,23,28,132,23,28,27,217,38,03,25,060,*7D
$GPGSV,3,3,12,05,19,309,37,06,15,048,18,01,11,220,,16,05,042,*7B
$GPRMC,212500.000,A,3748.6881,N,12217.9514,W,2.48,201.52,080611,,,A*7D
$GPVTG,201.52,T,,M,2.48,N,4.6,K,A*05
$GPGGA,212501.000,3748.6874,N,12217.9521,W,1,04,2.8,-10.2,M,-25.1,M,,0000*7D
$GPGSA,A,3,10,07,08,28,,,,,,,,,3.0,2.8,1.0*3E
$GPRMC,212501.000,A,3748.6874,N,12217.9521,W,2.84,209.85,080611,,,A*72
$GPVTG,209.85,T,,M,2.84,N,5.3,K,A*03
$GPGGA,212502.000,3748.6867,N,12217.9527,W,1,04,2.8,-10.0,M,-25.1,M,,0000*78
$GPGSA,A,3,10,07,08,28,,,,,,,,,3.0,2.8,1.0*3E
$GPRMC,212502.000,A,3748.6867,N,12217.9527,W,2.85,216.18,080611,,,A*7E
$GPVTG,216.18,T,,M,2.85,N,5.3,K,A*08
$GPGGA,212503.000,3748.6860,N,12217.9535,W,1,04,2.8,-9.7,M,-25.1,M,,0000*42
$GPGSA,A,3,10,07,08,28,,,,,,,,,3.0,2.8,1.0*3E
$GPRMC,212503.000,A,3748.6860,N,12217.9535,W,3.15,227.76,080611,,,A*79
$GPVTG,227.76,T,,M,3.15,N,5.8,K,A*01
$GPGGA,212504.000,3748.6850,N,12217.9544,W,1,05,3.0,-7.4,M,-25.1,M,,0000*45
$GPGSA,A,3,10,07,08,05,28,,,,,,,,4.4,3.0,3.2*31
$GPRMC,212504.000,A,3748.6850,N,12217.9544,W,3.01,227.38,080611,,,A*74
$GPVTG,227.38,T,,M,3.01,N,5.6,K,A*00
$GPGGA,212505.000,3748.6841,N,12217.9552,W,1,05,3.0,-6.0,M,-25.1,M,,0000*46
$GPGSA,A,3,10,07,08,05,28,,,,,,,,4.4,3.0,3.2*31
$GPGSV,3,1,12,07,65,340,31,13,62,122,27,08,46,293,38,10,39,254,38*71
$GPGSV,3,2,12,19,29,094,,23,28,132,23,28,28,217,37,03,25,059,*77
$GPGSV,3,3,12,05,19,308,37,06,15,048,19,01,11,221,,16,05,042,*7A
$GPRMC,212505.000,A,3748.6841,N,12217.9552,W,3.18,220.80,080611,,,A*7E
$GPVTG,220.80,T,,M,3.18,N,5.9,K,A*03
$GPGGA,212506.000,3748.6832,N,12217.9563,W,1,05,3.0,-5.3,M,-25.1,M,,0000*43
$GPGSA,A,3,10,07,08,05,28,,,,,,,,4.4,3.0,3.2*31
$GPRMC,212506.000,A,3748.6832,N,12217.9563,W,3.24,217.14,080611,,,A*7D
$GPVTG,217.14,T,,M,3.24,N,6.0,K,A*0F
$GPGGA,212507.000,3748.6824,N,12217.9573,W,1,05,3.0,-4.7,M,-25.1,M,,0000*41
$GPGSA,A,3,10,07,08,05,28,,,,,,,,4.4,3.0,3.2*31
$GPRMC,212507.000,A,3748.6824,N,12217.9573,W,3.26,213.93,080611,,,A*73
$GPVTG,213.93,T,,M,3.26,N,6.0,K,A*06
$GPGGA,212508.000,3748.6815,N,12217.9580,W,1,05,3.0,-4.2,M,-25.1,M,,0000*45
$GPGSA,A,3,10,07,08,05,28,,,,,,,,4.4,3.0,3.2*31
$GPRMC,212508.000,A,3748.6815,N,12217.9580,W,3.11,210.80,080611,,,A*77
$GPVTG,210.80,T,,M,3.11,N,5.8,K,A*08
$GPGGA,212509.000,3748.6807,N,12217.9584,W,1,05,3.0,-3.7,M,-25.1,M,,0000*41
$GPGSA,A,3,10,07,08,05,28,,,,,,,,4.4,3.0,3.2*31
$GPRMC,212509.000,A,3748.6807,N,12217.9584,W,2.54,199.69,080611,,,A*74
$GPVTG,199.69,T,,M,2.54,N,4.7,K,A*03
$GPGGA,212510.000,3748.6800,N,12217.9587,W,1,05,3.0,-3.2,M,-25.1,M,,0000*48
$GPGSA,A,3,10,07,08,05,28,,,,,,,,4.4,3.0,3.2*31
$GPGSV,3,1,12,07,65,340,31,13,62,122,27,08,46,293,38,10,39,254,39*70
$GPGSV,3,2,12,19,29,094,,23,28,132,29,28,28,217,38,03,25,059,*72
$GPGSV,3,3,12,05,19,308,31,06,15,048,23,01,11,221,,16,05,042,*75
$GPRMC,212510.000,A,3748.6800,N,12217.9587,W,2.63,193.79,080611,,,A*77
$GPGGA,212511.000,3748.6792,N,12217.9594,W,1,05,3.0,-3.0,M,-25.1,M,,0000*4D
$GPGSA,A,3,10,07,08,05,28,,,,,,,,4.4,3.0,3.2*31
$GPRMC,212511.000,A,3748.6792,N,12217.9594,W,2.78,207.69,080611,,,A*75
$GPVTG,207.69,T,,M,2.78,N,5.1,K,A*0E
$GPGGA,212512.000,3748.6785,N,12217.9599,W,1,05,3.0,-2.7,M,-25.1,M,,0000*43
$GPGSA,A,3,10,07,08,05,28,,,,,,,,4.4,3.0,3.2*31
$GPRMC,212512.000,A,3748.6785,N,12217.9599,W,2.74,213.15,080611,,,A*7F
$GPVTG,213.15,T,,M,2.74,N,5.1,K,A*0C
$GPGGA,212513.000,3748.6779,N,12217.9604,W,1,05,3.0,-2.2,M,-25.1,M,,0000*43
$GPGSA,A,3,10,07,08,05,28,,,,,,,,4.4,3.0,3.2*31
$GPRMC,212513.000,A,3748.6779,N,12217.9604,W,2.91,220.01,080611,,,A*74
$GPVTG,220.01,T,,M,2.91,N,5.4,K,A*07
$GPGGA,212514.000,3748.6772,N,12217.9609,W,1,05,3.0,-1.8,M,-25.1,M,,0000*4B
$GPGSA,A,3,10,07,08,05,28,,,,,,,,4.4,3.0,3.2*31
$GPRMC,212514.000,A,3748.6772,N,12217.9609,W,3.08,218.35,080611,,,A*78
$GPVTG,218.35,T,,M,3.08,N,5.7,K,A*09
$GPGGA,212515.000,3748.6765,N,12217.9614,W,1,05,3.0,-1.5,M,-25.1,M,,0000*4D
$GPGSA,A,3,10,07,08,05,28,,,,,,,,4.4,3.0,3.2*31
$GPGSV,3,1,12,07,65,340,30,13,62,122,28,08,46,293,38,10,39,254,39*7E
$GPGSV,3,2,12,19,29,094,,23,28,132,28,28,28,217,30,03,25,059,*7B
$GPGSV,3,3,12,05,19,308,35,06,15,048,23,01,11,221,,16,05,042,*71
$GPRMC,212515.000,A,3748.6765,N,12217.9614,W,3.01,213.44,080611,,,A*77
$GPVTG,213.44,T,,M,3.01,N,5.6,K,A*0C
$GPGGA,212516.000,3748.6757,N,12217.9617,W,1,05,3.0,-1.5,M,-25.1,M,,0000*4C
$GPGSA,A,3,10,07,08,05,28,,,,,,,,4.4,3.0,3.2*31
$GPRMC,212516.000,A,3748.6757,N,12217.9617,W,2.79,207.15,080611,,,A*79
$GPVTG,207.15,T,,M,2.79,N,5.2,K,A*07
$GPGGA,212517.000,3748.6749,N,12217.9621,W,1,05,3.0,-1.3,M,-25.1,M,,0000*41
$GPGSA,A,3,10,07,08,05,28,,,,,,,,4.4,3.0,3.2*31
$GPRMC,212517.000,A,3748.6749,N,12217.9621,W,2.74,212.85,080611,,,A*72
$GPVTG,212.85,T,,M,2.74,N,5.1,K,A*04
$GPGGA,212518.000,3748.6745,N,12217.9631,W,1,05,3.0,-0.4,M,-25.1,M,,0000*45
$GPGSA,A,3,10,07,08,05,28,,,,,,,,4.4,3.0,3.2*31
$GPRMC,212518.000,A,3748.6745,N,12217.9631,W,2.75,222.48,080611,,,A*73
$GPVTG,222.48,T,,M,2.75,N,5.1,K,A*07
$GPGGA,212519.000,3748.6741,N,12217.9641,W,1,05,3.0,0.3,M,-25.1,M,,0000*6D
$GPGSA,A,3,10,07,08,05,28,,,,,,,,4.4,3.0,3.2*31
$GPRMC,212519.000,A,3748.6741,N,12217.9641,W,2.36,225.50,080611,,,A*78
$GPVTG,225.50,T,,M,2.36,N,4.4,K,A*0A
$GPGGA,212520.000,3748.6738,N,12217.9653,W,1,05,3.0,1.5,M,-25.1,M,,0000*6D
$GPGSA,A,3,10,07,08,05,28,,,,,,,,4.4,3.0,3.2*31
$GPGSV,3,1,12,07,65,340,30,13,62,122,22,08,46,293,38,10,39,254,39*74
$GPGSV,3,2,12,19,29,093,,23,28,132,19,28,28,217,18,03,24,059,*75
$GPGSV,3,3,12,05,19,308,35,06,15,048,22,01,11,221,,16,05,042,*70
$GPRMC,212520.000,A,3748.6738,N,12217.9653,W,2.94,227.34,080611,,,A*77
$GPVTG,227.34,T,,M,2.94,N,5.4,K,A*03
$GPGGA,212521.000,3748.6735,N,12217.9666,W,1,05,3.0,2.7,M,-25.1,M,,0000*66
$GPGSA,A,3,10,07,08,05,28,,,,,,,,4.4,3.0,3.2*31
$GPRMC,212521.000,A,3748.6735,N,12217.9666,W,3.26,231.87,080611,,,A*7A
$GPVTG,231.87,T,,M,3.26,N,6.0,K,A*03
$GPGGA,212522.000,3748.6730,N,12217.9677,W,1,05,3.0,3.7,M,-25.1,M,,0000*61
$GPGSA,A,3,10,07,08,05,28,,,,,,,,4.4,3.0,3.2*31
$GPRMC,212522.000,A,3748.6730,N,12217.9677,W,3.29,234.63,080611,,,A*7C
$GPVTG,234.63,T,,M,3.29,N,6.1,K,A*02
$GPGGA,212523.000,3748.6724,N,12217.9684,W,1,05,3.0,4.3,M,-25.1,M,,0000*6A
$GPGSA,A,3,10,07,08,05,28,,,,,,,,4.4,3.0,3.2*31
$GPRMC,212523.000,A,3748.6724,N,12217.9684,W,3.12,221.70,080611,,,A*7A
$GPVTG,221.70,T,,M,3.12,N,5.8,K,A*06
$GPGGA,212524.000,3748.6720,N,12217.9694,W,1,05,3.0,5.3,M,-25.1,M,,0000*69
$GPGSA,A,3,10,07,08,05,28,,,,,,,,4.4,3.0,3.2*31
$GPRMC,212524.000,A,3748.6720,N,12217.9694,W,2.98,223.84,080611,,,A*72
$GPVTG,223.84,T,,M,2.98,N,5.5,K,A*01
$GPGGA,212525.000,3748.6713,N,12217.9706,W,1,05,3.0,5.0,M,-25.1,M,,0000*61
$GPGSA,A,3,10,07,08,05,28,,,,,,,,4.4,3.0,3.2*31
$GPGSV,3,1,12,07,65,340,28,13,62,122,23,08,46,293,38,10,39,254,39*7C
$GPGSV,3,2,12,19,29,093,,23,28,132,30,28,28,217,29,03,24,059,*7C
$GPGSV,3,3,12,05,19,308,32,06,15,048,22,01,11,221,,16,05,042,*77
$GPRMC,212525.000,A,3748.6713,N,12217.9706,W,3.28,225.25,080611,,,A*7E
$GPGGA,212526.000,3748.6705,N,12217.9712,W,1,05,3.0,4.9,M,-25.1,M,,0000*68
$GPGSA,A,3,10,07,08,05,28,,,,,,,,4.4,3.0,3.2*31
$GPRMC,212526.000,A,3748.6705,N,12217.9712,W,3.33,222.39,080611,,,A*7F
$GPVTG,222.39,T,,M,3.33,N,6.2,K,A*02
$GPGGA,212527.000,3748.6697,N,12217.9718,W,1,05,3.0,4.8,M,-25.1,M,,0000*68
$GPGSA,A,3,10,07,08,05,28,,,,,,,,4.4,3.0,3.2*31
$GPRMC,212527.000,A,3748.6697,N,12217.9718,W,3.51,225.30,080611,,,A*74
$GPVTG,225.30,T,,M,3.51,N,6.5,K,A*0F
$GPGGA,212528.000,3748.6690,N,12217.9725,W,1,05,3.0,5.0,M,-25.1,M,,0000*67
$GPGSA,A,3,10,07,08,05,28,,,,,,,,4.4,3.0,3.2*31
$GPRMC,212528.000,A,3748.6690,N,12217.9725,W,3.21,224.48,080611,,,A*7B
$GPVTG,224.48,T,,M,3.21,N,5.9,K,A*09
$GPGGA,212529.000,3748.6684,N,12217.9730,W,1,05,3.0,4.9,M,-25.1,M,,0000*6F
$GPGSA,A,3,10,07,08,05,28,,,,,,,,4.4,3.0,3.2*31
$GPRMC,212529.000,A,3748.6684,N,12217.9730,W,3.06,222.23,080611,,,A*75
$GPVTG,222.23,T,,M,3.06,N,5.7,K,A*09
$GPGGA,212530.000,3748.6677,N,12217.9735,W,1,05,3.0,5.0,M,-25.1,M,,0000*66
$GPGSA,A,3,10,07,08,05,28,,,,,,,,4.4,3.0,3.2*31
$GPGSV,3,1,12,07,65,340,31,13,62,122,24,08,46,293,39,10,39,254,38*73
$GPGSV,3,2,12,19,29,093,,23,28,132,28,28,28,217,29,03,24,059,*75
$GPGSV,3,3,12,05,19,308,38,06,15,048,21,01,11,221,,16,05,042,*7E
$GPRMC,212530.000,A,3748.6677,N,12217.9735,W,2.99,219.76,080611,,,A*7B
$GPVTG,219.76,T,,M,2.99,N,5.5,K,A*04
$GPGGA,212531.000,3748.6670,N,12217.9745,W,1,05,3.0,4.8,M,-25.1,M,,0000*6E
$GPGSA,A,3,10,07,08,05,28,,,,,,,,4.4,3.0,3.2*31
$GPRMC,212531.000,A,3748.6670,N,12217.9745,W,2.81,222.62,080611,,,A*7E
$GPVTG,222.62,T,,M,2.81,N,5.2,K,A*07
$GPGGA,212532.000,3748.6664,N,12217.9754,W,1,05,3.0,4.6,M,-25.1,M,,0000*66
$GPGSA,A,3,10,07,08,05,28,,,,,,,,4.4,3.0,3.2*31
$GPRMC,212532.000,A,3748.6664,N,12217.9754,W,2.97,228.09,080611,,,A*78
$GPVTG,228.09,T,,M,2.97,N,5.5,K,A*00
$GPGGA,212533.000,3748.6658,N,12217.9759,W,1,05,3.0,4.5,M,-25.1,M,,0000*66
$GPGSA,A,3,10,07,08,05,28,,,,,,,,4.4,3.0,3.2*31
$GPRMC,212533.000,A,3748.6658,N,12217.9759,W,2.68,225.01,080611,,,A*7E
$GPVTG,225.01,T,,M,2.68,N,5.0,K,A*00
$GPGGA,212534.000,3748.6651,N,12217.9761,W,1,05,3.0,4.2,M,-25.1,M,,0000*64
$GPGSA,A,3,10,07,08,05,28,,,,,,,,4.4,3.0,3.2*31
$GPRMC,212534.000,A,3748.6651,N,12217.9761,W,3.03,199.76,080611,,,A*73
$GPVTG,199.76,T,,M,3.03,N,5.6,K,A*0E
$GPGGA,212535.000,3748.6644,N,12217.9766,W,1,05,3.0,4.1,M,-25.1,M,,0000*65
$GPGSA,A,3,10,07,08,05,28,,,,,,,,4.4,3.0,3.2*31
$GPGSV,3,1,12,07,65,340,24,13,62,122,24,08,46,293,39,10,39,254,36*79
$GPGSV,3,2,12,19,29,093,,23,28,132,27,28,28,217,28,03,24,059,*7B
$GPGSV,3,3,12,05,19,308,35,06,15,048,21,01,11,221,,16,05,042,*73
$GPRMC,212535.000,A,3748.6644,N,12217.9766,W,2.55,198.52,080611,,,A*74
$GPVTG,198.52,T,,M,2.55,N,4.7,K,A*0B
$GPGGA,212536.000,3748.6635,N,12217.9769,W,1,05,3.0,4.2,M,-25.1,M,,0000*6C
$GPGSA,A,3,10,07,08,05,28,,,,,,,,4.4,3.0,3.2*31
$GPRMC,212536.000,A,3748.6635,N,12217.9769,W,1.93,202.56,080611,,,A*73
$GPVTG,202.56,T,,M,1.93,N,3.6,K,A*00
$GPGGA,212537.000,3748.6628,N,12217.9782,W,1,05,3.0,3.4,M,-25.1,M,,0000*65
$GPGSA,A,3,10,07,08,05,28,,,,,,,,4.4,3.0,3.2*31
$GPRMC,212537.000,A,3748.6628,N,12217.9782,W,2.11,212.24,080611,,,A*76
$GPVTG,212.24,T,,M,2.11,N,3.9,K,A*02
$GPGGA,212538.000,3748.6619,N,12217.9798,W,1,05,3.0,3.1,M,-25.1,M,,0000*66
$GPGSA,A,3,10,07,08,05,28,,,,,,,,4.4,3.0,3.2*31
$GPRMC,212538.000,A,3748.6619,N,12217.9798,W,2.57,211.03,080611,,,A*74
$GPVTG,211.03,T,,M,2.57,N,4.8,K,A*00
$GPGGA,212539.000,3748.6609,N,12217.9819,W,1,05,3.0,2.7,M,-25.1,M,,0000*67
$GPGSA,A,3,10,07,08,05,28,,,,,,,,4.4,3.0,3.2*31
$GPRMC,212539.000,A,3748.6609,N,12217.9819,W,2.93,214.56,080611,,,A*7F
$GPVTG,214.56,T,,M,2.93,N,5.4,K,A*00
$GPGGA,212540.000,3748.6600,N,12217.9833,W,1,05,3.0,2.3,M,-25.1,M,,0000*6C
$GPGSA,A,3,10,07,08,05,28,,,,,,,,4.4,3.0,3.2*31
$GPGSV,3,1,12,07,65,340,24,13,62,122,23,08,46,293,36,10,39,254,36*71
