$ADVER,3080,2.3
$GPRMC,233434.418,A,3748.8001,N,12217.8619,W,0.08,187.92,191010,,,A*75
$GPGGA,233435.418,3748.8001,N,12217.8619,W,1,05,2.3,6.0,M,-25.1,M,,0000*6A
$GPGSA,A,3,25,30,21,29,12,,,,,,,,4.3,2.3,3.6*3E
$GPRMC,233435.418,A,3748.8001,N,12217.8619,W,0.22,159.20,191010,,,A*76
$GPVTG,159.20,T,,M,0.22,N,0.4,K,A*06
$GPGGA,233436.000,3748.8001,N,12217.8619,W,1,05,2.3,6.0,M,-25.1,M,,0000*64
$GPGSA,A,3,25,30,21,29,12,,,,,,,,4.3,2.3,3.6*3E
$GPRMC,233436.000,A,3748.8001,N,12217.8619,W,0.20,173.01,191010,,,A*71
$GPVTG,173.01,T,,M,0.20,N,0.4,K,A*0F
$GPGGA,233437.000,3748.8001,N,12217.8618,W,1,05,2.3,6.0,M,-25.1,M,,0000*64
$GPGSA,A,3,25,30,21,29,12,,,,,,,,4.3,2.3,3.6*3E
$GPGSV,3,1,12,29,67,337,37,30,59,235,39,25,54,203,40,21,37,259,37*7E
$GPGSV,3,2,12,12,27,170,38,05,51,067,34,02,14,061,28,10,12,040,28*71
$GPGSV,3,3,12,18,10,200,,31,09,282,37,26,06,115,33,48,00,000,39*76
$GPRMC,233437.000,A,3748.8001,N,12217.8618,W,0.15,170.00,191010,,,A*75
$GPVTG,170.00,T,,M,0.15,N,0.3,K,A*0C
$GPGGA,233438.000,3748.8001,N,12217.8618,W,1,05,2.3,6.0,M,-25.1,M,,0000*6B
$GPGSA,A,3,25,30,21,29,12,,,,,,,,4.3,2.3,3.6*3E
$GPRMC,233438.000,A,3748.8001,N,12217.8618,W,0.20,155.67,191010,,,A*7A
$GPVTG,155.67,T,,M,0.20,N,0.4,K,A*0B
$GPGGA,233439.000,3748.8000,N,12217.8618,W,1,05,2.3,6.1,M,-25.1,M,,0000*6A
$GPGSA,A,3,25,30,21,29,12,,,,,,,,4.3,2.3,3.6*3E
$GPRMC,233439.000,A,3748.8000,N,12217.8618,W,0.18,176.94,191010,,,A*7C
$GPVTG,176.94,T,,M,0.18,N,0.3,K,A*0A
$GPGGA,233440.000,3748.8000,N,12217.8618,W,1,05,2.3,6.3,M,-25.1,M,,0000*66
$GPGSA,A,3,25,30,21,29,12,,,,,,,,4.3,2.3,3.6*3E
$GPRMC,233440.000,A,3748.8000,N,12217.8618,W,0.20,176.93,191010,,,A*7E
$GPVTG,176.93,T,,M,0.20,N,0.4,K,A*01
$GPGGA,233441.000,3748.8000,N,12217.8618,W,1,05,2.3,6.4,M,-25.1,M,,0000*60
$GPGSA,A,3,25,30,21,29,12,,,,,,,,4.3,2.3,3.6*3E
$GPRMC,233441.000,A,3748.8000,N,12217.8618,W,0.21,137.60,191010,,,A*77
$GPVTG,137.60,T,,M,0.21,N,0.4,K,A*09
$GPGGA,233442.000,3748.7999,N,12217.8618,W,1,05,2.3,6.6,M,-25.1,M,,0000*67
$GPGSA,A,3,25,30,21,29,12,,,,,,,,4.3,2.3,3.6*3E
$GPGSV,3,1,12,29,67,337,37,30,59,235,39,25,54,203,41,21,37,259,38*70
$GPGSV,3,2,12,12,27,170,39,05,51,067,35,02,14,061,35,10,12,040,30*74
$GPGSV,3,3,12,18,10,200,,31,09,282,37,26,06,115,34,48,00,000,39*71
$GPRMC,233442.000,A,3748.7999,N,12217.8618,W,0.15,197.30,191010,,,A*7A
$GPGGA,233443.000,3748.7999,N,12217.8618,W,1,05,2.3,6.7,M,-25.1,M,,0000*67
$GPGSA,A,3,25,30,21,29,12,,,,,,,,4.3,2.3,3.6*3E
$GPRMC,233443.000,A,3748.7999,N,12217.8618,W,0.14,143.49,191010,,,A*7D
$GPVTG,143.49,T,,M,0.14,N,0.3,K,A*00
$GPGGA,233444.000,3748.7999,N,12217.8619,W,1,05,2.3,6.8,M,-25.1,M,,0000*6E
$GPGSA,A,3,25,30,21,29,12,,,,,,,,4.3,2.3,3.6*3E
$GPRMC,233444.000,A,3748.7999,N,12217.8619,W,0.20,183.53,191010,,,A*7B
$GPVTG,183.53,T,,M,0.20,N,0.4,K,A*07
$GPGGA,233445.000,3748.7998,N,12217.8619,W,1,05,2.3,7.0,M,-25.1,M,,0000*67
$GPGSA,A,3,25,30,21,29,12,,,,,,,,4.3,2.3,3.6*3E
$GPRMC,233445.000,A,3748.7998,N,12217.8619,W,0.20,173.94,191010,,,A*7F
$GPVTG,173.94,T,,M,0.20,N,0.4,K,A*03
$GPGGA,233446.000,3748.7997,N,12217.8620,W,1,05,2.3,7.5,M,-25.1,M,,0000*64
$GPGSA,A,3,25,30,21,29,12,,,,,,,,4.3,2.3,3.6*3E
$GPRMC,233446.000,A,3748.7997,N,12217.8620,W,0.24,162.26,191010,,,A*74
$GPVTG,162.26,T,,M,0.24,N,0.4,K,A*0E
$GPGGA,233447.000,3748.8001,N,12217.8616,W,1,05,2.3,5.4,M,-25.1,M,,0000*6A
$GPGSA,A,3,25,30,21,29,12,,,,,,,,4.3,2.3,3.6*3E
$GPGSV,3,1,12,29,67,337,30,30,59,234,36,25,54,203,35,05,51,067,31*7A
$GPGSV,3,2,12,21,37,259,38,12,27,170,33,02,14,061,27,10,12,040,28*70
$GPGSV,3,3,12,18,10,200,,31,09,282,37,26,06,115,31,15,04,143,*74
$GPRMC,233447.000,A,3748.8001,N,12217.8616,W,0.05,2.25,191010,,,A*7E
$GPVTG,2.25,T,,M,0.05,N,0.1,K,A*0C
$GPGGA,233448.000,3748.8004,N,12217.8613,W,1,04,10.9,3.6,M,-25.1,M,,0000*59
$GPGSA,A,3,25,30,21,12,,,,,,,,,11.0,10.9,1.0*3F
$GPRMC,233448.000,A,3748.8004,N,12217.8613,W,0.26,78.16,191010,,,A*4D
$GPVTG,78.16,T,,M,0.26,N,0.5,K,A*34
$GPGGA,233449.000,3748.8005,N,12217.8612,W,1,05,2.3,2.3,M,-25.1,M,,0000*64
$GPGSA,A,3,25,30,21,29,12,,,,,,,,4.3,2.3,3.6*3E
$GPRMC,233449.000,A,3748.8005,N,12217.8612,W,0.06,305.82,191010,,,A*7A
$GPVTG,305.82,T,,M,0.06,N,0.1,K,A*06
$GPGGA,233450.000,3748.7994,N,12217.8623,W,1,05,2.3,1.6,M,-25.1,M,,0000*66
$GPGSA,A,3,25,30,21,29,12,,,,,,,,4.3,2.3,3.6*3E
$GPRMC,233450.000,A,3748.7994,N,12217.8623,W,0.38,202.89,191010,,,A*7E
$GPVTG,202.89,T,,M,0.38,N,0.7,K,A*00
$GPGGA,233451.000,3748.7990,N,12217.8623,W,1,05,2.3,-0.1,M,-25.1,M,,0000*48
$GPGSA,A,3,25,30,21,29,12,,,,,,,,4.3,2.3,3.6*3E
$GPRMC,233451.000,A,3748.7990,N,12217.8623,W,0.32,185.23,191010,,,A*7D
$GPVTG,185.23,T,,M,0.32,N,0.6,K,A*07
$GPGGA,233452.000,3748.7989,N,12217.8621,W,1,05,8.3,-1.1,M,-25.1,M,,0000*4A
$GPGSA,A,3,31,25,30,21,12,,,,,,,,8.5,8.3,2.0*30
$GPGSV,3,1,12,29,67,337,,30,59,234,32,25,54,203,35,05,51,067,24*79
$GPGSV,3,2,12,21,37,259,36,12,27,170,23,02,14,061,28,10,12,040,27*7F
$GPGSV,3,3,12,18,10,200,,31,09,282,30,26,06,115,24,15,04,143,*77
$GPRMC,233452.000,A,3748.7989,N,12217.8621,W,0.45,156.21,191010,,,A*78
$GPVTG,156.21,T,,M,0.45,N,0.8,K,A*05
$GPGGA,233453.000,3748.7989,N,12217.8619,W,1,06,2.0,-1.9,M,-25.1,M,,0000*42
$GPGSA,A,3,31,25,30,21,29,12,,,,,,,2.8,2.0,1.9*3F
$GPRMC,233453.000,A,3748.7989,N,12217.8619,W,0.32,2.21,191010,,,A*72
$GPVTG,2.21,T,,M,0.32,N,0.6,K,A*0B
$GPGGA,233454.000,3748.7988,N,12217.8619,W,1,06,2.0,-2.6,M,-25.1,M,,0000*48
$GPGSA,A,3,31,25,30,21,29,12,,,,,,,2.8,2.0,1.9*3F
$GPRMC,233454.000,A,3748.7988,N,12217.8619,W,0.19,130.28,191010,,,A*74
$GPVTG,130.28,T,,M,0.19,N,0.3,K,A*0E
$GPGGA,233455.000,3748.7989,N,12217.8619,W,1,06,2.0,-2.5,M,-25.1,M,,0000*4B
$GPGSA,A,3,31,25,30,21,29,12,,,,,,,2.8,2.0,1.9*3F
$GPRMC,233455.000,A,3748.7989,N,12217.8619,W,0.31,87.02,191010,,,A*4B
$GPVTG,87.02,T,,M,0.31,N,0.6,K,A*34
$GPGGA,233456.000,3748.7989,N,12217.8617,W,1,06,2.0,-2.9,M,-25.1,M,,0000*4A
$GPGSA,A,3,31,25,30,21,29,12,,,,,,,2.8,2.0,1.9*3F
$GPRMC,233456.000,A,3748.7989,N,12217.8617,W,0.62,65.06,191010,,,A*48
$GPVTG,65.06,T,,M,0.62,N,1.2,K,A*3F
$GPGGA,233457.000,3748.7987,N,12217.8618,W,1,06,2.0,-3.0,M,-25.1,M,,0000*42
$GPGSA,A,3,31,25,30,21,29,12,,,,,,,2.8,2.0,1.9*3F
$GPGSV,3,1,12,29,67,338,20,30,59,234,32,25,54,203,35,05,51,067,25*75
$GPGSV,3,2,12,21,37,259,29,12,26,170,12,02,14,061,21,10,12,040,15*7A
$GPGSV,3,3,12,18,10,200,,31,09,282,29,26,06,115,15,15,04,143,*7D
$GPRMC,233457.000,A,3748.7987,N,12217.8618,W,0.29,125.57,191010,,,A*76
$GPGGA,233458.000,3748.7987,N,12217.8611,W,1,06,2.0,-4.1,M,-25.1,M,,0000*42
$GPGSA,A,3,31,25,30,21,29,12,,,,,,,2.8,2.0,1.9*3F
$GPRMC,233458.000,A,3748.7987,N,12217.8611,W,0.34,102.17,191010,,,A*7D
$GPVTG,102.17,T,,M,0.34,N,0.6,K,A*09
$GPGGA,233459.000,3748.7985,N,12217.8605,W,1,06,2.0,-5.5,M,-25.1,M,,0000*41
$GPGSA,A,3,31,25,30,21,29,12,,,,,,,2.8,2.0,1.9*3F
$GPRMC,233459.000,A,3748.7985,N,12217.8605,W,0.37,138.21,191010,,,A*74
$GPVTG,138.21,T,,M,0.37,N,0.7,K,A*07
$GPGGA,233500.000,3748.7988,N,12217.8596,W,1,06,2.0,-5.8,M,-25.1,M,,0000*45
$GPGSA,A,3,31,25,30,21,29,12,,,,,,,2.8,2.0,1.9*3F
$GPRMC,233500.000,A,3748.7988,N,12217.8596,W,0.53,105.43,191010,,,A*75
$GPVTG,105.43,T,,M,0.53,N,1.0,K,A*09
$GPGGA,233501.000,3748.7980,N,12217.8601,W,1,06,2.0,-5.6,M,-25.1,M,,0000*4F
$GPGSA,A,3,31,25,30,21,29,12,,,,,,,2.8,2.0,1.9*3F
$GPRMC,233501.000,A,3748.7980,N,12217.8601,W,0.92,207.16,191010,,,A*7D
$GPVTG,207.16,T,,M,0.92,N,1.7,K,A*02
$GPGGA,233502.000,3748.7976,N,12217.8615,W,1,06,2.0,-3.1,M,-25.1,M,,0000*41
$GPGSA,A,3,31,25,30,21,29,12,,,,,,,2.8,2.0,1.9*3F
$GPGSV,3,1,12,29,67,338,28,30,59,234,32,25,54,203,34,05,51,067,25*7C
$GPGSV,3,2,12,21,37,259,33,12,26,170,25,02,14,061,24,10,12,040,24*72
$GPGSV,3,3,12,18,10,200,,31,09,282,32,26,06,115,19,15,04,143,*7B
$GPRMC,233502.000,A,3748.7976,N,12217.8615,W,0.77,233.34,191010,,,A*7E
$GPVTG,233.34,T,,M,0.77,N,1.4,K,A*0D
$GPGGA,233503.000,3748.7973,N,12217.8621,W,1,05,8.4,-2.0,M,-25.1,M,,0000*4F
$GPGSA,A,3,31,25,30,21,12,,,,,,,,8.7,8.4,2.0*35
$GPRMC,233503.000,A,3748.7973,N,12217.8621,W,0.81,221.32,191010,,,A*71
$GPVTG,221.32,T,,M,0.81,N,1.5,K,A*00
$GPGGA,233504.000,3748.7971,N,12217.8625,W,1,05,8.4,-1.0,M,-25.1,M,,0000*4D
$GPGSA,A,3,31,25,30,21,12,,,,,,,,8.7,8.4,2.0*35
$GPRMC,233504.000,A,3748.7971,N,12217.8625,W,0.82,224.08,191010,,,A*7F
$GPVTG,224.08,T,,M,0.82,N,1.5,K,A*0F
$GPGGA,233505.000,3748.7974,N,12217.8623,W,1,06,2.0,-0.1,M,-25.1,M,,0000*42
$GPGSA,A,3,31,25,30,21,29,12,,,,,,,2.8,2.0,1.9*3F
$GPRMC,233505.000,A,3748.7974,N,12217.8623,W,0.33,35.33,191010,,,A*4D
$GPVTG,35.33,T,,M,0.33,N,0.6,K,A*3D
$GPGGA,233506.000,3748.7977,N,12217.8623,W,1,06,2.0,0.9,M,-25.1,M,,0000*67
$GPGSA,A,3,31,25,30,21,29,12,,,,,,,2.8,2.0,1.9*3F
$GPRMC,233506.000,A,3748.7977,N,12217.8623,W,0.90,36.38,191010,,,A*4C
$GPVTG,36.38,T,,M,0.90,N,1.7,K,A*3C
$GPGGA,233507.000,3748.7972,N,12217.8631,W,1,06,2.0,2.0,M,-25.1,M,,0000*6B
$GPGSA,A,3,31,25,30,21,29,12,,,,,,,2.8,2.0,1.9*3F
$GPGSV,3,1,12,29,67,338,31,30,59,234,38,25,54,203,36,05,51,067,26*7F
$GPGSV,3,2,12,21,37,259,35,12,26,170,26,02,14,061,33,10,12,040,31*75
$GPGSV,3,3,12,18,10,200,,31,09,282,31,26,06,115,19,15,04,143,*78
$GPRMC,233507.000,A,3748.7972,N,12217.8631,W,0.24,225.98,191010,,,A*7E
$GPVTG,225.98,T,,M,0.24,N,0.4,K,A*0B
$GPGGA,233508.000,3748.7970,N,12217.8635,W,1,06,2.0,2.8,M,-25.1,M,,0000*6A
$GPGSA,A,3,31,25,30,21,29,12,,,,,,,2.8,2.0,1.9*3F
$GPRMC,233508.000,A,3748.7970,N,12217.8635,W,0.29,213.70,191010,,,A*79
$GPVTG,213.70,T,,M,0.29,N,0.5,K,A*04
$GPGGA,233509.000,3748.7966,N,12217.8637,W,1,06,2.0,3.0,M,-25.1,M,,0000*67
$GPGSA,A,3,31,25,30,21,29,12,,,,,,,2.8,2.0,1.9*3F
$GPRMC,233509.000,A,3748.7966,N,12217.8637,W,0.26,228.92,191010,,,A*76
$GPVTG,228.92,T,,M,0.26,N,0.5,K,A*0F
$GPGGA,233510.000,3748.7965,N,12217.8638,W,1,06,2.0,3.4,M,-25.1,M,,0000*67
$GPGSA,A,3,31,25,30,21,29,12,,,,,,,2.8,2.0,1.9*3F
$GPRMC,233510.000,A,3748.7965,N,12217.8638,W,0.24,225.34,191010,,,A*71
$GPVTG,225.34,T,,M,0.24,N,0.4,K,A*0D
$GPGGA,233511.000,3748.7963,N,12217.8637,W,1,06,2.0,3.2,M,-25.1,M,,0000*69
$GPGSA,A,3,31,25,30,21,29,12,,,,,,,2.8,2.0,1.9*3F
$GPRMC,233511.000,A,3748.7963,N,12217.8637,W,0.27,260.52,191010,,,A*7B
$GPVTG,260.52,T,,M,0.27,N,0.5,K,A*0E
$GPGGA,233512.000,3748.7961,N,12217.8636,W,1,06,2.0,3.1,M,-25.1,M,,0000*6A
$GPGSA,A,3,31,25,30,21,29,12,,,,,,,2.8,2.0,1.9*3F
$GPGSV,3,1,12,29,67,338,33,30,59,234,39,25,54,203,38,05,51,067,27*73
$GPGSV,3,2,12,21,37,259,35,12,26,170,21,02,14,061,27,10,12,040,30*76
$GPGSV,3,3,12,18,10,200,,31,09,282,38,26,06,115,22,15,04,143,*79
$GPVTG,262.15,T,,M,0.20,N,0.4,K,A*09
$GPGGA,233513.000,3748.7962,N,12217.8636,W,1,06,2.0,3.7,M,-25.1,M,,0000*6E
$GPGSA,A,3,31,25,30,21,29,12,,,,,,,2.8,2.0,1.9*3F
$GPRMC,233513.000,A,3748.7962,N,12217.8636,W,0.51,89.04,191010,,,A*4E
$GPVTG,89.04,T,,M,0.51,N,0.9,K,A*35
$GPGGA,233514.000,3748.7962,N,12217.8632,W,1,06,2.0,4.6,M,-25.1,M,,0000*6B
$GPGSA,A,3,31,25,30,21,29,12,,,,,,,2.8,2.0,1.9*3F
$GPRMC,233514.000,A,3748.7962,N,12217.8632,W,0.19,180.15,191010,,,A*79
$GPVTG,180.15,T,,M,0.19,N,0.4,K,A*0C
$GPGGA,233515.000,3748.7962,N,12217.8633,W,1,06,2.0,5.1,M,-25.1,M,,0000*6D
$GPGSA,A,3,31,25,30,21,29,12,,,,,,,2.8,2.0,1.9*3F
$GPRMC,233515.000,A,3748.7962,N,12217.8633,W,0.21,191.03,191010,,,A*75
$GPVTG,191.03,T,,M,0.21,N,0.4,K,A*00
$GPGGA,233516.000,3748.7963,N,12217.8627,W,1,06,2.0,4.6,M,-25.1,M,,0000*6C
$GPGSA,A,3,31,25,30,21,29,12,,,,,,,2.8,2.0,1.9*3F
$GPRMC,233516.000,A,3748.7963,N,12217.8627,W,0.30,101.86,191010,,,A*76
$GPVTG,101.86,T,,M,0.30,N,0.5,K,A*05
$GPGGA,233517.000,3748.7970,N,12217.8615,W,1,06,2.0,4.4,M,-25.1,M,,0000*6C
$GPGSA,A,3,31,25,30,21,29,12,,,,,,,2.8,2.0,1.9*3F
$GPGSV,3,1,12,29,67,338,24,30,59,234,26,25,53,203,37,05,51,067,32*77
$GPGSV,3,2,12,21,37,259,30,12,26,170,28,02,14,061,33,10,12,039,30*71
$GPGSV,3,3,12,18,10,200,,31,09,281,24,26,06,115,35,15,04,143,*71
$GPRMC,233517.000,A,3748.7970,N,12217.8615,W,0.63,70.30,191010,,,A*48
$GPVTG,70.30,T,,M,0.63,N,1.2,K,A*3F
$GPGGA,233518.000,3748.7972,N,12217.8605,W,1,06,2.0,5.4,M,-25.1,M,,0000*61
$GPGSA,A,3,31,25,30,21,29,12,,,,,,,2.8,2.0,1.9*3F
$GPRMC,233518.000,A,3748.7972,N,12217.8605,W,1.41,67.44,191010,,,A*40
$GPVTG,67.44,T,,M,1.41,N,2.6,K,A*3C
$GPGGA,233519.000,3748.7974,N,12217.8601,W,1,06,2.0,5.7,M,-25.1,M,,0000*61
$GPGSA,A,3,31,25,30,21,29,12,,,,,,,2.8,2.0,1.9*3F
$GPRMC,233519.000,A,3748.7974,N,12217.8601,W,0.89,89.68,191010,,,A*48
$GPVTG,89.68,T,,M,0.89,N,1.6,K,A*34
$GPGGA,233520.000,3748.7974,N,12217.8599,W,1,06,2.0,5.6,M,-25.1,M,,0000*68
$GPGSA,A,3,31,25,30,21,29,12,,,,,,,2.8,2.0,1.9*3F
$GPRMC,233520.000,A,3748.7974,N,12217.8599,W,0.82,139.76,191010,,,A*7E
$GPVTG,139.76,T,,M,0.82,N,1.5,K,A*09
$GPGGA,233521.000,3748.7974,N,12217.8588,W,1,06,2.0,5.6,M,-25.1,M,,0000*69
$GPGSA,A,3,31,25,30,21,29,12,,,,,,,2.8,2.0,1.9*3F
$GPRMC,233521.000,A,3748.7974,N,12217.8588,W,1.39,158.47,191010,,,A*7B
$GPVTG,158.47,T,,M,1.39,N,2.6,K,A*0D
$GPGGA,233522.000,3748.7973,N,12217.8576,W,1,06,2.0,5.8,M,-25.1,M,,0000*62
$GPGSA,A,3,31,25,30,21,29,12,,,,,,,2.8,2.0,1.9*3F
$GPGSV,3,1,12,29,67,338,30,30,59,234,26,25,53,203,29,05,51,067,36*79
$GPGSV,3,2,12,21,37,259,25,12,26,170,37,02,14,061,25,10,12,039,24*79
$GPGSV,3,3,12,18,10,200,,31,09,281,19,26,06,115,31,15,04,143,*7B
$GPRMC,233522.000,A,3748.7973,N,12217.8576,W,1.46,164.50,191010,,,A*7F
$GPVTG,164.50,T,,M,1.46,N,2.7,K,A*0D
$GPGGA,233523.000,3748.7972,N,12217.8568,W,1,06,2.0,5.5,M,-25.1,M,,0000*60
$GPGSA,A,3,31,25,30,21,29,12,,,,,,,2.8,2.0,1.9*3F
$GPRMC,233523.000,A,3748.7972,N,12217.8568,W,1.18,160.19,191010,,,A*72
$GPVTG,160.19,T,,M,1.18,N,2.2,K,A*0A
$GPGGA,233524.000,3748.7969,N,12217.8558,W,1,06,2.0,6.3,M,-25.1,M,,0000*6B
$GPGSA,A,3,31,25,30,21,29,12,,,,,,,2.8,2.0,1.9*3F
$GPRMC,233524.000,A,3748.7969,N,12217.8558,W,1.89,144.51,191010,,,A*7E
$GPVTG,144.51,T,,M,1.89,N,3.5,K,A*0E
$GPGGA,233525.000,3748.7966,N,12217.8548,W,1,06,2.0,6.6,M,-25.1,M,,0000*61
$GPGSA,A,3,31,25,30,21,29,12,,,,,,,2.8,2.0,1.9*3F
$GPRMC,233525.000,A,3748.7966,N,12217.8548,W,1.38,154.75,191010,,,A*7C
$GPVTG,154.75,T,,M,1.38,N,2.6,K,A*01
$GPGGA,233526.000,3748.7963,N,12217.8540,W,1,05,3.8,7.6,M,-25.1,M,,0000*64
$GPGSA,A,3,31,25,30,21,29,,,,,,,,5.6,3.8,4.2*32
$GPRMC,233526.000,A,3748.7963,N,12217.8540,W,1.07,159.67,191010,,,A*70
$GPVTG,159.67,T,,M,1.07,N,2.0,K,A*05
$GPGGA,233527.000,3748.7959,N,12217.8539,W,1,06,2.0,8.7,M,-25.1,M,,0000*66
$GPGSA,A,3,31,25,30,21,29,12,,,,,,,2.8,2.0,1.9*3F
$GPGSV,3,1,12,29,67,338,30,30,59,234,27,25,53,203,35,05,51,067,36*75
$GPGSV,3,2,12,21,37,259,25,12,26,170,31,02,14,061,34,10,12,039,28*73
$GPGSV,3,3,12,18,10,200,23,31,09,281,27,26,06,115,37,15,04,143,*71
$GPVTG,158.05,T,,M,0.87,N,1.6,K,A*0C
$GPGGA,233528.000,3748.7958,N,12217.8534,W,1,06,2.0,8.7,M,-25.1,M,,0000*65
$GPGSA,A,3,31,25,30,21,29,12,,,,,,,2.8,2.0,1.9*3F
$GPRMC,233528.000,A,3748.7958,N,12217.8534,W,1.01,153.51,191010,,,A*7C
$GPVTG,153.51,T,,M,1.01,N,1.9,K,A*06
$GPGGA,233529.000,3748.7957,N,12217.8532,W,1,06,2.0,8.2,M,-25.1,M,,0000*68
$GPGSA,A,3,31,25,30,21,29,12,,,,,,,2.8,2.0,1.9*3F
$GPRMC,233529.000,A,3748.7957,N,12217.8532,W,0.91,205.38,191010,,,A*73
$GPVTG,205.38,T,,M,0.91,N,1.7,K,A*0F
$GPGGA,233530.000,3748.7955,N,12217.8528,W,1,06,2.0,8.8,M,-25.1,M,,0000*63
$GPGSA,A,3,31,25,30,21,29,12,,,,,,,2.8,2.0,1.9*3F
$GPRMC,233530.000,A,3748.7955,N,12217.8528,W,0.57,239.11,191010,,,A*7C
$GPVTG,239.11,T,,M,0.57,N,1.0,K,A*06
$GPGGA,233531.000,3748.7957,N,12217.8514,W,1,06,2.0,7.8,M,-25.1,M,,0000*60
$GPGSA,A,3,31,25,30,21,29,12,,,,,,,2.8,2.0,1.9*3F
$GPRMC,233531.000,A,3748.7957,N,12217.8514,W,0.69,181.22,191010,,,A*7D
$GPVTG,181.22,T,,M,0.69,N,1.3,K,A*08
$GPGGA,233532.000,3748.7957,N,12217.8503,W,1,06,2.0,7.2,M,-25.1,M,,0000*6F
$GPGSA,A,3,31,25,30,21,29,12,,,,,,,2.8,2.0,1.9*3F
$GPGSV,3,1,12,29,67,338,30,30,59,234,27,25,53,203,34,05,51,067,37*75
$GPGSV,3,2,12,21,37,259,25,12,26,170,40,02,14,061,27,10,12,039,33*7D
$GPGSV,3,3,12,18,10,200,29,31,09,281,28,26,06,115,37,15,04,143,*74
$GPRMC,233532.000,A,3748.7957,N,12217.8503,W,0.68,154.09,191010,,,A*78
$GPVTG,154.09,T,,M,0.68,N,1.3,K,A*08
$GPGGA,233533.000,3748.7959,N,12217.8496,W,1,05,3.8,6.2,M,-25.1,M,,0000*66
$GPGSA,A,3,31,25,30,21,29,,,,,,,,5.6,3.8,4.1*31
$GPRMC,233533.000,A,3748.7959,N,12217.8496,W,1.02,125.89,191010,,,A*79
$GPVTG,125.89,T,,M,1.02,N,1.9,K,A*01
$GPGGA,233534.000,3748.7959,N,12217.8490,W,1,06,2.0,5.9,M,-25.1,M,,0000*65
$GPGSA,A,3,31,25,30,21,29,12,,,,,,,2.8,2.0,1.9*3F
$GPRMC,233534.000,A,3748.7959,N,12217.8490,W,0.84,146.08,191010,,,A*7B
$GPVTG,146.08,T,,M,0.84,N,1.5,K,A*0E
$GPGGA,233535.000,3748.7957,N,12217.8487,W,1,06,2.0,6.0,M,-25.1,M,,0000*66
$GPGSA,A,3,31,25,30,21,29,12,,,,,,,2.8,2.0,1.9*3F
$GPRMC,233535.000,A,3748.7957,N,12217.8487,W,1.00,141.30,191010,,,A*73
$GPVTG,141.30,T,,M,1.00,N,1.9,K,A*03
$GPGGA,233536.000,3748.7955,N,12217.8485,W,1,06,2.0,6.2,M,-25.1,M,,0000*67
$GPGSA,A,3,31,25,30,21,29,12,,,,,,,2.8,2.0,1.9*3F
$GPRMC,233536.000,A,3748.7955,N,12217.8485,W,1.01,135.99,191010,,,A*71
$GPVTG,135.99,T,,M,1.01,N,1.9,K,A*02
$GPGGA,233537.000,3748.7954,N,12217.8482,W,1,06,2.0,6.1,M,-25.1,M,,0000*63
$GPGSA,A,3,31,25,30,21,29,12,,,,,,,2.8,2.0,1.9*3F
$GPGSV,3,1,12,29,67,338,30,30,59,234,33,25,53,203,35,05,51,067,30*76
$GPGSV,3,2,12,21,37,259,31,12,26,170,38,02,14,061,18,10,12,039,23*7A
$GPGSV,3,3,12,18,10,200,38,31,09,281,23,26,06,115,24,15,04,143,*7D
$GPRMC,233537.000,A,3748.7954,N,12217.8482,W,0.32,91.78,191010,,,A*47
$GPVTG,91.78,T,,M,0.32,N,0.6,K,A*3D
$GPGGA,233538.000,3748.7953,N,12217.8484,W,1,06,2.0,5.8,M,-25.1,M,,0000*67
$GPGSA,A,3,31,25,30,21,29,12,,,,,,,2.8,2.0,1.9*3F
$GPRMC,233538.000,A,3748.7953,N,12217.8484,W,0.52,154.41,191010,,,A*7D
$GPVTG,154.41,T,,M,0.52,N,1.0,K,A*0E
$GPGGA,233539.000,3748.7951,N,12217.8485,W,1,06,2.0,5.3,M,-25.1,M,,0000*6E
$GPGSA,A,3,31,25,30,21,29,12,,,,,,,2.8,2.0,1.9*3F
$GPRMC,233539.000,A,3748.7951,N,12217.8485,W,1.41,141.98,191010,,,A*7C
$GPVTG,141.98,T,,M,1.41,N,2.6,K,A*08
$GPGGA,233540.000,3748.7948,N,12217.8482,W,1,06,2.0,4.6,M,-25.1,M,,0000*6B
$GPGSA,A,3,31,25,30,21,29,12,,,,,,,2.8,2.0,1.9*3F
$GPRMC,233540.000,A,3748.7948,N,12217.8482,W,1.34,159.77,191010,,,A*77
$GPVTG,159.77,T,,M,1.34,N,2.5,K,A*01
$GPGGA,233541.000,3748.7947,N,12217.8478,W,1,06,2.0,3.0,M,-25.1,M,,0000*61
$GPGSA,A,3,31,25,30,21,29,12,,,,,,,2.8,2.0,1.9*3F
$GPRMC,233541.000,A,3748.7947,N,12217.8478,W,1.40,192.76,191010,,,A*79
$GPVTG,192.76,T,,M,1.40,N,2.6,K,A*07
$GPGGA,233542.000,3748.7945,N,12217.8474,W,1,06,2.0,2.0,M,-25.1,M,,0000*6D
$GPGSA,A,3,31,25,30,21,29,12,,,,,,,2.8,2.0,1.9*3F
$GPGSV,3,1,12,29,67,338,30,30,59,234,28,25,53,203,35,05,51,067,36*7A
$GPGSV,3,2,12,21,37,259,23,12,26,170,38,02,14,061,20,10,12,039,15*77
$GPGSV,3,3,12,18,10,200,25,31,09,281,28,26,06,115,28,15,04,143,*76
$GPVTG,164.47,T,,M,1.38,N,2.6,K,A*03
$GPGGA,233543.000,3748.7942,N,12217.8472,W,1,06,2.0,0.8,M,-25.1,M,,0000*67
$GPGSA,A,3,31,25,30,21,29,12,,,,,,,2.8,2.0,1.9*3F
$GPRMC,233543.000,A,3748.7942,N,12217.8472,W,1.17,175.49,191010,,,A*73
$GPVTG,175.49,T,,M,1.17,N,2.2,K,A*04
$GPGGA,233544.000,3748.7943,N,12217.8465,W,1,06,2.0,-0.1,M,-25.1,M,,0000*43
$GPGSA,A,3,31,25,30,21,29,12,,,,,,,2.8,2.0,1.9*3F
$GPRMC,233544.000,A,3748.7943,N,12217.8465,W,1.41,125.80,191010,,,A*70
$GPVTG,125.80,T,,M,1.41,N,2.6,K,A*03
$GPGGA,233545.000,3748.7941,N,12217.8458,W,1,06,2.0,-0.4,M,-25.1,M,,0000*4B
$GPGSA,A,3,31,25,30,21,29,12,,,,,,,2.8,2.0,1.9*3F
$GPRMC,233545.000,A,3748.7941,N,12217.8458,W,1.31,121.33,191010,,,A*76
$GPVTG,121.33,T,,M,1.31,N,2.4,K,A*0A
$GPGGA,233546.000,3748.7939,N,12217.8451,W,1,06,2.0,-0.9,M,-25.1,M,,0000*43
$GPGSA,A,3,31,25,30,21,29,12,,,,,,,2.8,2.0,1.9*3F
$GPRMC,233546.000,A,3748.7939,N,12217.8451,W,1.53,116.84,191010,,,A*7F
$GPVTG,116.84,T,,M,1.53,N,2.8,K,A*0A
$GPGGA,233547.000,3748.7938,N,12217.8436,W,1,06,2.0,-1.0,M,-25.1,M,,0000*4A
$GPGSA,A,3,31,25,30,21,29,12,,,,,,,2.8,2.0,1.9*3F
$GPGSV,3,1,12,29,67,338,30,30,59,234,23,25,53,203,32,05,51,067,30*70
$GPGSV,3,2,12,21,37,259,23,12,26,170,32,02,14,061,27,10,12,039,19*76
$GPGSV,3,3,12,18,10,200,26,31,09,281,27,26,06,115,27,15,04,143,*75
$GPRMC,233547.000,A,3748.7938,N,12217.8436,W,1.97,121.54,191010,,,A*7F
$GPVTG,121.54,T,,M,1.97,N,3.6,K,A*04
$GPGGA,233548.000,3748.7938,N,12217.8416,W,1,06,2.0,-1.2,M,-25.1,M,,0000*45
$GPGSA,A,3,31,25,30,21,29,12,,,,,,,2.8,2.0,1.9*3F
$GPRMC,233548.000,A,3748.7938,N,12217.8416,W,2.68,111.50,191010,,,A*76
$GPVTG,111.50,T,,M,2.68,N,5.0,K,A*00
$GPGGA,233549.000,3748.7937,N,12217.8402,W,1,06,2.0,-3.1,M,-25.1,M,,0000*4F
$GPGSA,A,3,31,25,30,21,29,12,,,,,,,2.8,2.0,1.9*3F
$GPRMC,233549.000,A,3748.7937,N,12217.8402,W,2.11,102.53,191010,,,A*72
$GPVTG,102.53,T,,M,2.11,N,3.9,K,A*00
$GPGGA,233550.000,3748.7936,N,12217.8387,W,1,06,2.0,-3.9,M,-25.1,M,,0000*44
$GPGSA,A,3,31,25,30,21,29,12,,,,,,,2.8,2.0,1.9*3F
$GPRMC,233550.000,A,3748.7936,N,12217.8387,W,1.58,124.60,191010,,,A*7B
$GPVTG,124.60,T,,M,1.58,N,2.9,K,A*0B
$GPGGA,233551.000,3748.7933,N,12217.8376,W,1,06,2.0,-4.0,M,-25.1,M,,0000*40
$GPGSA,A,3,31,25,30,21,29,12,,,,,,,2.7,2.0,1.9*30
$GPRMC,233551.000,A,3748.7933,N,12217.8376,W,1.48,134.43,191010,,,A*70
$GPVTG,134.43,T,,M,1.48,N,2.7,K,A*04
$GPGGA,233552.000,3748.7933,N,12217.8364,W,1,06,2.0,-4.2,M,-25.1,M,,0000*42
$GPGSA,A,3,31,25,30,21,29,12,,,,,,,2.7,2.0,1.9*30
$GPGSV,3,1,12,29,67,338,29,30,59,234,25,25,53,203,34,05,51,067,31*79
$GPGSV,3,2,12,21,37,259,24,12,26,170,42,02,14,061,33,10,12,039,28*71
$GPGSV,3,3,12,18,10,200,,31,09,281,19,26,06,115,32,15,04,143,*78
$GPRMC,233552.000,A,3748.7933,N,12217.8364,W,1.31,141.38,191010,,,A*70
$GPVTG,141.38,T,,M,1.31,N,2.4,K,A*07
$GPGGA,233553.000,3748.7930,N,12217.8358,W,1,06,2.0,-4.7,M,-25.1,M,,0000*4A
$GPGSA,A,3,31,25,30,21,29,12,,,,,,,2.7,2.0,1.9*30
$GPRMC,233553.000,A,3748.7930,N,12217.8358,W,1.09,155.16,191010,,,A*7F
$GPVTG,155.16,T,,M,1.09,N,2.0,K,A*01
$GPGGA,233554.000,3748.7928,N,12217.8352,W,1,06,2.0,-5.0,M,-25.1,M,,0000*48
$GPGSA,A,3,31,25,30,21,29,12,,,,,,,2.7,2.0,1.9*30
$GPRMC,233554.000,A,3748.7928,N,12217.8352,W,0.96,139.60,191010,,,A*77
$GPVTG,139.60,T,,M,0.96,N,1.8,K,A*06
$GPGGA,233555.000,3748.7925,N,12217.8349,W,1,06,2.0,-5.0,M,-25.1,M,,0000*4E
$GPGSA,A,3,31,25,30,21,29,12,,,,,,,2.7,2.0,1.9*30
$GPRMC,233555.000,A,3748.7925,N,12217.8349,W,0.97,155.04,191010,,,A*78
$GPVTG,155.04,T,,M,0.97,N,1.8,K,A*0F
$GPGGA,233556.000,3748.7922,N,12217.8336,W,1,06,2.0,-4.5,M,-25.1,M,,0000*46
$GPGSA,A,3,31,25,30,21,29,12,,,,,,,2.7,2.0,1.9*30
$GPRMC,233556.000,A,3748.7922,N,12217.8336,W,1.23,163.05,191010,,,A*7E
$GPVTG,163.05,T,,M,1.23,N,2.3,K,A*0D
$GPGGA,233557.000,3748.7919,N,12217.8333,W,1,06,2.0,-4.9,M,-25.1,M,,0000*46
$GPGSA,A,3,31,25,30,21,29,12,,,,,,,2.7,2.0,1.9*30
$GPGSV,3,1,12,29,67,338,30,30,59,234,26,25,53,203,33,05,51,067,31*75
$GPGSV,3,2,12,21,37,259,24,12,26,170,31,02,14,061,33,10,12,039,28*75
$GPGSV,3,3,12,18,10,200,,31,09,281,30,26,06,115,31,15,04,143,*70
$GPVTG,200.22,T,,M,1.30,N,2.4,K,A*0B
$GPGGA,233558.000,3748.7913,N,12217.8335,W,1,07,1.3,-4.3,M,-25.1,M,,0000*4E
$GPGSA,A,3,31,25,30,21,29,12,26,,,,,,1.8,1.3,1.3*32
$GPRMC,233558.000,A,3748.7913,N,12217.8335,W,1.67,140.25,191010,,,A*72
$GPVTG,140.25,T,,M,1.67,N,3.1,K,A*0D
$GPGGA,233559.000,3748.7906,N,12217.8337,W,1,07,1.3,-3.2,M,-25.1,M,,0000*4F
$GPGSA,A,3,31,25,30,21,29,12,26,,,,,,1.8,1.3,1.3*32
$GPRMC,233559.000,A,3748.7906,N,12217.8337,W,1.67,154.56,191010,,,A*74
$GPVTG,154.56,T,,M,1.67,N,3.1,K,A*0C
$GPGGA,233600.000,3748.7901,N,12217.8332,W,1,07,1.3,-2.8,M,-25.1,M,,0000*49
$GPGSA,A,3,31,25,30,21,29,12,26,,,,,,1.8,1.3,1.3*32
$GPRMC,233600.000,A,3748.7901,N,12217.8332,W,1.69,164.60,191010,,,A*71
$GPVTG,164.60,T,,M,1.69,N,3.1,K,A*04
$GPGGA,233601.000,3748.7896,N,12217.8325,W,1,07,1.3,-1.8,M,-25.1,M,,0000*42
$GPGSA,A,3,31,25,30,21,29,12,26,,,,,,1.8,1.3,1.3*32
$GPRMC,233601.000,A,3748.7896,N,12217.8325,W,1.35,167.16,191010,,,A*72
$GPVTG,167.16,T,,M,1.35,N,2.5,K,A*0A
$GPGGA,233602.000,3748.7894,N,12217.8324,W,1,07,1.3,-2.3,M,-25.1,M,,0000*4A
$GPGSA,A,3,31,25,30,21,29,12,26,,,,,,1.8,1.3,1.3*32
$GPGSV,3,1,12,29,67,338,30,30,58,233,25,25,53,203,33,05,51,066,33*73
$GPGSV,3,2,12,21,37,259,24,12,26,170,36,02,13,061,34,10,11,039,29*70
$GPGSV,3,3,12,18,10,200,17,31,09,281,21,26,06,115,27,15,04,143,*71
$GPRMC,233602.000,A,3748.7894,N,12217.8324,W,0.89,172.12,191010,,,A*74
$GPVTG,172.12,T,,M,0.89,N,1.6,K,A*0C
$GPGGA,233603.000,3748.7892,N,12217.8323,W,1,07,1.3,-2.5,M,-25.1,M,,0000*4C
$GPGSA,A,3,31,25,30,21,29,12,26,,,,,,1.8,1.3,1.3*32
$GPRMC,233603.000,A,3748.7892,N,12217.8323,W,1.25,153.17,191010,,,A*75
$GPVTG,153.17,T,,M,1.25,N,2.3,K,A*0B
$GPGGA,233604.000,3748.7889,N,12217.8317,W,1,07,1.3,-2.2,M,-25.1,M,,0000*41
$GPGSA,A,3,31,25,30,21,29,12,26,,,,,,1.8,1.3,1.3*32
$GPRMC,233604.000,A,3748.7889,N,12217.8317,W,1.08,147.81,191010,,,A*7A
$GPVTG,147.81,T,,M,1.08,N,2.0,K,A*0D
$GPGGA,233605.000,3748.7886,N,12217.8311,W,1,07,1.3,-2.1,M,-25.1,M,,0000*4A
$GPGSA,A,3,31,25,30,21,29,12,26,,,,,,1.8,1.3,1.3*32
$GPRMC,233605.000,A,3748.7886,N,12217.8311,W,1.42,141.22,191010,,,A*73
$GPVTG,141.22,T,,M,1.42,N,2.6,K,A*0A
$GPGGA,233606.000,3748.7883,N,12217.8305,W,1,07,1.3,-2.2,M,-25.1,M,,0000*4A
$GPGSA,A,3,31,25,30,21,29,12,26,,,,,,1.8,1.3,1.3*32
$GPRMC,233606.000,A,3748.7883,N,12217.8305,W,1.68,133.97,191010,,,A*73
$GPVTG,133.97,T,,M,1.68,N,3.1,K,A*0F
$GPGGA,233607.000,3748.7880,N,12217.8297,W,1,06,2.0,-2.1,M,-25.1,M,,0000*40
$GPGSA,A,3,31,25,30,21,29,12,,,,,,,2.7,2.0,1.9*30
$GPGSV,3,1,12,29,67,338,30,30,58,233,26,25,53,203,32,05,51,066,34*76
$GPGSV,3,2,12,21,37,259,26,12,26,170,36,02,13,061,23,10,11,039,29*74
$GPGSV,3,3,12,18,10,200,26,31,09,281,22,26,06,115,28,15,04,143,*7F
$GPRMC,233607.000,A,3748.7880,N,12217.8297,W,1.19,122.51,191010,,,A*77
$GPVTG,122.51,T,,M,1.19,N,2.2,K,A*01
$GPGGA,233608.000,3748.7878,N,12217.8287,W,1,07,1.3,-1.6,M,-25.1,M,,0000*4C
$GPGSA,A,3,31,25,30,21,29,12,26,,,,,,1.8,1.3,1.3*32
$GPRMC,233608.000,A,3748.7878,N,12217.8287,W,1.41,125.08,191010,,,A*78
$GPVTG,125.08,T,,M,1.41,N,2.6,K,A*03
$GPGGA,233609.000,3748.7872,N,12217.8276,W,1,07,1.3,-0.1,M,-25.1,M,,0000*4F
$GPGSA,A,3,31,25,30,21,29,12,26,,,,,,1.8,1.3,1.3*32
$GPRMC,233609.000,A,3748.7872,N,12217.8276,W,1.68,147.62,191010,,,A*7E
$GPVTG,147.62,T,,M,1.68,N,3.1,K,A*06
$GPGGA,233609.000,3748.7866,N,12217.8267,W,1,07,1.3,0.9,M,-25.1,M,,0000*6F
$GPGSA,A,3,31,25,30,21,29,12,26,,,,,,1.8,1.3,1.3*32
$GPRMC,233609.000,A,3748.7866,N,12217.8267,W,1.34,150.14,191010,,,A*75
$GPVTG,150.14,T,,M,1.34,N,2.5,K,A*0D
$GPGGA,233610.000,3748.7861,N,12217.8258,W,1,07,1.3,1.5,M,-25.1,M,,0000*61
$GPGSA,A,3,31,25,30,21,29,12,26,,,,,,1.8,1.3,1.3*32
$GPRMC,233610.000,A,3748.7861,N,12217.8258,W,1.16,138.83,191010,,,A*76
$GPVTG,138.83,T,,M,1.16,N,2.1,K,A*09
$GPGGA,233611.000,3748.7858,N,12217.8255,W,1,07,1.3,1.4,M,-25.1,M,,0000*66
$GPGSA,A,3,31,25,30,21,29,12,26,,,,,,1.8,1.3,1.3*32
$GPGSV,3,1,12,29,67,338,30,30,58,233,27,25,53,203,33,05,51,066,34*76
$GPGSV,3,2,12,21,37,259,27,12,26,170,34,02,13,061,23,10,11,039,21*7F
$GPGSV,3,3,12,18,10,200,26,31,09,281,27,26,06,115,40,15,04,143,*74
$GPRMC,233611.000,A,3748.7858,N,12217.8255,W,1.11,130.52,191010,,,A*73
$GPVTG,130.52,T,,M,1.11,N,2.1,K,A*0A
$GPGGA,233612.000,3748.7854,N,12217.8251,W,1,07,1.3,1.8,M,-25.1,M,,0000*61
$GPGSA,A,3,31,25,30,21,29,12,26,,,,,,1.8,1.3,1.3*32
$GPRMC,233612.000,A,3748.7854,N,12217.8251,W,1.63,124.82,191010,,,A*75
$GPVTG,124.82,T,,M,1.63,N,3.0,K,A*07
$GPGGA,233613.000,3748.7851,N,12217.8250,W,1,07,1.3,1.3,M,-25.1,M,,0000*6F
$GPGSA,A,3,31,25,30,21,29,12,26,,,,,,1.8,1.3,1.3*32
$GPRMC,233613.000,A,3748.7851,N,12217.8250,W,1.53,134.26,191010,,,A*7C
$GPVTG,134.26,T,,M,1.53,N,2.8,K,A*02
$GPGGA,233614.000,3748.7847,N,12217.8249,W,1,07,1.3,1.2,M,-25.1,M,,0000*66
$GPGSA,A,3,31,25,30,21,29,12,26,,,,,,1.8,1.3,1.3*32
$GPRMC,233614.000,A,3748.7847,N,12217.8249,W,1.44,141.44,191010,,,A*74
$GPVTG,141.44,T,,M,1.44,N,2.7,K,A*0D
$GPGGA,233615.000,3748.7842,N,12217.8249,W,1,07,1.3,0.9,M,-25.1,M,,0000*68
$GPGSA,A,3,31,25,30,21,29,12,26,,,,,,1.8,1.3,1.3*32
$GPRMC,233615.000,A,3748.7842,N,12217.8249,W,1.37,150.24,191010,,,A*72
$GPVTG,150.24,T,,M,1.37,N,2.5,K,A*0D
$GPGGA,233616.000,3748.7839,N,12217.8243,W,1,07,1.3,0.7,M,-25.1,M,,0000*63
$GPGSA,A,3,31,25,30,21,29,12,26,,,,,,1.8,1.3,1.3*32
$GPGSV,3,1,12,29,67,338,30,30,58,233,26,25,53,203,28,05,51,066,35*7C
$GPGSV,3,2,12,21,37,259,27,12,26,170,39,02,13,061,22,10,11,039,21*73
$GPGSV,3,3,12,18,10,200,,31,09,281,26,26,06,115,21,15,04,143,*76
$GPRMC,233616.000,A,3748.7839,N,12217.8243,W,1.60,156.62,191010,,,A*71
$GPGGA,233617.000,3748.7834,N,12217.8234,W,1,07,1.3,1.8,M,-25.1,M,,0000*61
$GPGSA,A,3,31,25,30,21,29,12,26,,,,,,1.8,1.3,1.3*32
$GPRMC,233617.000,A,3748.7834,N,12217.8234,W,1.91,150.71,191010,,,A*77
$GPVTG,150.71,T,,M,1.91,N,3.5,K,A*00
$GPGGA,233618.000,3748.7828,N,12217.8230,W,1,07,1.3,1.5,M,-25.1,M,,0000*6A
$GPGSA,A,3,31,25,30,21,29,12,26,,,,,,1.8,1.3,1.3*32
$GPRMC,233618.000,A,3748.7828,N,12217.8230,W,1.72,139.27,191010,,,A*70
$GPVTG,139.27,T,,M,1.72,N,3.2,K,A*06
$GPGGA,233619.000,3748.7823,N,12217.8226,W,1,07,1.3,1.9,M,-25.1,M,,0000*6B
$GPGSA,A,3,31,25,30,21,29,12,26,,,,,,1.8,1.3,1.3*32
$GPRMC,233619.000,A,3748.7823,N,12217.8226,W,1.80,135.87,191010,,,A*76
$GPVTG,135.87,T,,M,1.80,N,3.3,K,A*0C
$GPGGA,233620.000,3748.7818,N,12217.8221,W,1,07,1.3,2.2,M,-25.1,M,,0000*66
$GPGSA,A,3,31,25,30,21,29,12,26,,,,,,1.8,1.3,1.3*32
$GPRMC,233620.000,A,3748.7818,N,12217.8221,W,1.49,142.89,191010,,,A*78
$GPVTG,142.89,T,,M,1.49,N,2.8,K,A*0D
$GPGGA,233621.000,3748.7819,N,12217.8216,W,1,08,1.1,1.9,M,-25.1,M,,0000*67
$GPGSA,A,3,31,25,30,21,29,12,26,05,,,,,1.6,1.1,1.2*3A
$GPGSV,3,1,12,29,67,338,30,30,58,233,28,25,53,203,34,05,51,066,35*7F
$GPGSV,3,2,12,21,37,259,23,12,26,170,36,02,13,061,22,10,11,039,32*7A
$GPGSV,3,3,12,18,10,200,,31,09,281,23,26,06,115,33,15,04,143,*70
$GPRMC,233621.000,A,3748.7819,N,12217.8216,W,1.04,126.55,191010,,,A*76
$GPVTG,126.55,T,,M,1.04,N,1.9,K,A*05
$GPGGA,233622.000,3748.7819,N,12217.8210,W,1,08,1.1,1.0,M,-25.1,M,,0000*6B
$GPGSA,A,3,31,25,30,21,29,12,26,05,,,,,1.6,1.1,1.2*3A
$GPRMC,233622.000,A,3748.7819,N,12217.8210,W,1.11,127.25,191010,,,A*71
$GPVTG,127.25,T,,M,1.11,N,2.1,K,A*0C
$GPGGA,233623.000,3748.7817,N,12217.8205,W,1,08,1.1,-0.1,M,-25.1,M,,0000*4D
$GPGSA,A,3,31,25,30,21,29,12,26,05,,,,,1.6,1.1,1.2*3A
$GPRMC,233623.000,A,3748.7817,N,12217.8205,W,1.21,131.87,191010,,,A*76
$GPVTG,131.87,T,,M,1.21,N,2.2,K,A*03
$GPGGA,233624.000,3748.7816,N,12217.8197,W,1,08,1.1,-1.5,M,-25.1,M,,0000*46
$GPGSA,A,3,31,25,30,21,29,12,26,05,,,,,1.6,1.1,1.2*3A
$GPRMC,233624.000,A,3748.7816,N,12217.8197,W,1.34,119.92,191010,,,A*72
$GPVTG,119.92,T,,M,1.34,N,2.5,K,A*0E
$GPGGA,233625.000,3748.7815,N,12217.8191,W,1,08,1.1,-2.8,M,-25.1,M,,0000*4C
$GPGSA,A,3,31,25,30,21,29,12,26,05,,,,,1.6,1.1,1.2*3A
$GPRMC,233625.000,A,3748.7815,N,12217.8191,W,1.19,131.88,191010,,,A*78
$GPVTG,131.88,T,,M,1.19,N,2.2,K,A*07
$GPGGA,233626.000,3748.7813,N,12217.8188,W,1,08,1.1,-4.0,M,-25.1,M,,0000*4F
$GPGSA,A,3,31,25,30,21,29,12,26,05,,,,,1.6,1.1,1.2*3A
$GPGSV,3,1,12,29,67,339,30,30,58,233,28,25,53,202,29,05,51,066,35*73
$GPGSV,3,2,12,21,37,259,24,12,26,170,36,02,13,061,23,10,11,039,20*7F
$GPGSV,3,3,12,18,10,200,29,31,09,281,25,26,06,115,33,15,04,143,*7D
$GPRMC,233626.000,A,3748.7813,N,12217.8188,W,1.07,136.01,191010,,,A*7C
$GPVTG,136.01,T,,M,1.07,N,2.0,K,A*0C
$GPGGA,233627.000,3748.7810,N,12217.8183,W,1,08,1.1,-4.8,M,-25.1,M,,0000*4E
$GPGSA,A,3,31,25,30,21,29,12,26,05,,,,,1.6,1.1,1.2*3A
$GPRMC,233627.000,A,3748.7810,N,12217.8183,W,1.17,125.82,191010,,,A*7D
$GPVTG,125.82,T,,M,1.17,N,2.2,K,A*06
$GPGGA,233628.000,3748.7809,N,12217.8178,W,1,08,1.1,-6.0,M,-25.1,M,,0000*47
$GPGSA,A,3,31,25,30,21,29,12,26,05,,,,,1.6,1.1,1.2*3A
$GPRMC,233628.000,A,3748.7809,N,12217.8178,W,0.96,134.14,191010,,,A*79
$GPVTG,134.14,T,,M,0.96,N,1.8,K,A*08
$GPGGA,233629.000,3748.7805,N,12217.8173,W,1,08,1.1,-6.8,M,-25.1,M,,0000*49
$GPGSA,A,3,31,25,30,21,29,12,26,05,,,,,1.6,1.1,1.2*3A
$GPRMC,233629.000,A,3748.7805,N,12217.8173,W,1.32,128.67,191010,,,A*79
$GPVTG,128.67,T,,M,1.32,N,2.4,K,A*01
$GPGGA,233630.000,3748.7802,N,12217.8167,W,1,08,1.1,-7.7,M,-25.1,M,,0000*4D
$GPGSA,A,3,31,25,30,21,29,12,26,05,,,,,1.6,1.1,1.2*3A
$GPRMC,233630.000,A,3748.7802,N,12217.8167,W,1.36,124.22,191010,,,A*7A
$GPVTG,124.22,T,,M,1.36,N,2.5,K,A*09
$GPGGA,233631.000,3748.7801,N,12217.8161,W,1,08,1.1,-8.6,M,-25.1,M,,0000*47
$GPGSA,A,3,31,25,30,21,29,12,26,05,,,,,1.6,1.1,1.2*3A
$GPGSV,3,1,12,29,67,339,29,30,58,233,28,25,53,202,32,05,51,066,35*71
$GPGSV,3,2,12,21,37,259,24,12,26,170,36,02,13,061,24,10,11,039,20*78
$GPGSV,3,3,12,18,10,200,31,31,09,281,24,26,06,115,32,15,04,143,*74
$GPVTG,101.70,T,,M,1.02,N,1.9,K,A*01
$GPGGA,233632.000,3748.7799,N,12217.8156,W,1,08,1.1,-9.7,M,-25.1,M,,0000*4E
$GPGSA,A,3,31,25,30,21,29,12,26,05,,,,,1.6,1.1,1.2*3A
$GPRMC,233632.000,A,3748.7799,N,12217.8156,W,1.09,120.04,191010,,,A*7B
$GPVTG,120.04,T,,M,1.09,N,2.0,K,A*00
$GPGGA,233633.000,3748.7798,N,12217.8151,W,1,08,1.1,-10.2,M,-25.1,M,,0000*74
$GPGSA,A,3,31,25,30,21,29,12,26,05,,,,,1.6,1.1,1.2*3A
$GPRMC,233633.000,A,3748.7798,N,12217.8151,W,0.69,92.00,191010,,,A*47
$GPVTG,92.00,T,,M,0.69,N,1.3,K,A*3B
$GPGGA,233634.000,3748.7795,N,12217.8145,W,1,08,1.1,-10.0,M,-25.1,M,,0000*79
$GPGSA,A,3,31,25,30,21,29,12,26,05,,,,,1.6,1.1,1.2*3A
$GPRMC,233634.000,A,3748.7795,N,12217.8145,W,1.01,115.17,191010,,,A*7F
$GPVTG,115.17,T,,M,1.01,N,1.9,K,A*06
$GPGGA,233635.000,3748.7791,N,12217.8141,W,1,08,1.1,-10.5,M,-25.1,M,,0000*7D
$GPGSA,A,3,31,25,30,21,29,12,26,05,,,,,1.6,1.1,1.2*3A
$GPRMC,233635.000,A,3748.7791,N,12217.8141,W,1.16,133.17,191010,,,A*7C
$GPVTG,133.17,T,,M,1.16,N,2.1,K,A*0F
$GPGGA,233636.000,3748.7788,N,12217.8135,W,1,08,1.1,-11.1,M,-25.1,M,,0000*70
$GPGSA,A,3,31,25,30,21,29,12,26,05,,,,,1.6,1.1,1.2*3A
$GPGSV,3,1,12,29,67,339,29,30,58,233,28,25,53,202,32,05,51,066,35*71
$GPGSV,3,2,12,21,37,259,25,12,26,170,37,02,13,061,23,10,11,039,19*75
$GPGSV,3,3,12,18,10,200,32,31,09,281,28,26,06,115,31,15,04,143,*78
$GPRMC,233636.000,A,3748.7788,N,12217.8135,W,1.30,122.18,191010,,,A*7F
$GPVTG,122.18,T,,M,1.30,N,2.4,K,A*01
$GPGGA,233637.000,3748.7785,N,12217.8130,W,1,08,1.1,-11.8,M,-25.1,M,,0000*70
$GPGSA,A,3,31,25,30,21,29,12,26,05,,,,,1.6,1.1,1.2*3A
$GPRMC,233637.000,A,3748.7785,N,12217.8130,W,1.49,129.66,191010,,,A*7A
$GPVTG,129.66,T,,M,1.49,N,2.8,K,A*01
$GPGGA,233638.000,3748.7780,N,12217.8124,W,1,08,1.1,-12.1,M,-25.1,M,,0000*75
$GPGSA,A,3,31,25,30,21,29,12,26,05,,,,,1.6,1.1,1.2*3A
$GPRMC,233638.000,A,3748.7780,N,12217.8124,W,1.56,122.00,191010,,,A*70
$GPVTG,122.00,T,,M,1.56,N,2.9,K,A*05
$GPGGA,233639.000,3748.7777,N,12217.8117,W,1,08,1.1,-12.7,M,-25.1,M,,0000*7A
$GPGSA,A,3,31,25,30,21,29,12,26,05,,,,,1.6,1.1,1.2*3A
$GPRMC,233639.000,A,3748.7777,N,12217.8117,W,1.48,122.44,191010,,,A*76
$GPVTG,122.44,T,,M,1.48,N,2.7,K,A*04
$GPGGA,233640.000,3748.7773,N,12217.8111,W,1,08,1.1,-13.1,M,-25.1,M,,0000*71
$GPGSA,A,3,31,25,30,21,29,12,26,05,,,,,1.6,1.1,1.2*3A
$GPRMC,233640.000,A,3748.7773,N,12217.8111,W,1.64,127.66,191010,,,A*71
$GPVTG,127.66,T,,M,1.64,N,3.0,K,A*09
$GPGGA,233641.000,3748.7770,N,12217.8105,W,1,08,1.1,-13.7,M,-25.1,M,,0000*70
$GPGSA,A,3,31,25,30,21,29,12,26,05,,,,,1.6,1.1,1.2*3A
$GPGSV,3,1,12,29,67,339,30,30,58,233,28,25,53,202,33,05,51,066,36*7B
$GPGSV,3,2,12,21,37,259,25,12,26,170,38,02,13,061,23,10,11,039,20*70
$GPGSV,3,3,12,18,10,200,32,31,09,281,25,26,06,115,33,15,04,143,*77
$GPRMC,233641.000,A,3748.7770,N,12217.8105,W,1.41,116.54,191010,,,A*72
$GPVTG,116.54,T,,M,1.41,N,2.6,K,A*0A
$GPGGA,233642.000,3748.7767,N,12217.8098,W,1,08,1.1,-14.0,M,-25.1,M,,0000*70
$GPGSA,A,3,31,25,30,21,29,12,26,05,,,,,1.6,1.1,1.2*3A
$GPRMC,233642.000,A,3748.7767,N,12217.8098,W,1.64,122.72,191010,,,A*76
$GPVTG,122.72,T,,M,1.64,N,3.0,K,A*09
$GPGGA,233643.000,3748.7764,N,12217.8092,W,1,08,1.1,-14.2,M,-25.1,M,,0000*7A
$GPGSA,A,3,31,25,30,21,29,12,26,05,,,,,1.6,1.1,1.2*3A
$GPRMC,233643.000,A,3748.7764,N,12217.8092,W,1.55,116.25,191010,,,A*79
$GPVTG,116.25,T,,M,1.55,N,2.9,K,A*06
$GPGGA,233644.000,3748.7761,N,12217.8086,W,1,08,1.1,-14.4,M,-25.1,M,,0000*7B
$GPGSA,A,3,31,25,30,21,29,12,26,05,,,,,1.6,1.1,1.2*3A
$GPRMC,233644.000,A,3748.7761,N,12217.8086,W,1.48,116.29,191010,,,A*7E
$GPVTG,116.29,T,,M,1.48,N,2.7,K,A*08
$GPGGA,233645.000,3748.7757,N,12217.8079,W,1,08,1.1,-14.9,M,-25.1,M,,0000*72
$GPGSA,A,3,31,25,30,21,29,12,26,05,,,,,1.6,1.1,1.2*3A
$GPRMC,233645.000,A,3748.7757,N,12217.8079,W,1.36,123.49,191010,,,A*73
$GPVTG,123.49,T,,M,1.36,N,2.5,K,A*03
$GPGGA,233646.000,3748.7750,N,12217.8066,W,1,08,1.1,-13.2,M,-25.1,M,,0000*74
$GPGSA,A,3,31,25,30,21,29,12,26,05,,,,,1.6,1.1,1.2*3A
$GPGSV,3,1,12,29,67,339,30,30,58,233,28,25,53,202,33,05,51,066,36*7B
$GPGSV,3,2,12,21,37,259,24,12,26,170,38,02,13,061,23,10,11,039,20*71
$GPGSV,3,3,12,18,11,200,27,31,09,281,25,26,06,115,23,15,04,143,*73
$GPRMC,233646.000,A,3748.7750,N,12217.8066,W,1.77,126.61,191010,,,A*73
$GPVTG,126.61,T,,M,1.77,N,3.3,K,A*0E
$GPGGA,233647.000,3748.7746,N,12217.8059,W,1,08,1.1,-13.8,M,-25.1,M,,0000*74
$GPGSA,A,3,31,25,30,21,29,12,26,05,,,,,1.6,1.1,1.2*3A
$GPRMC,233647.000,A,3748.7746,N,12217.8059,W,1.59,133.13,191010,,,A*74
$GPVTG,133.13,T,,M,1.59,N,2.9,K,A*08
$GPGGA,233648.000,3748.7743,N,12217.8052,W,1,08,1.1,-14.2,M,-25.1,M,,0000*78
$GPGSA,A,3,31,25,30,21,29,12,26,05,,,,,1.6,1.1,1.2*3A
$GPRMC,233648.000,A,3748.7743,N,12217.8052,W,1.72,114.54,191010,,,A*7A
$GPVTG,114.54,T,,M,1.72,N,3.2,K,A*0D
$GPGGA,233649.000,3748.7741,N,12217.8046,W,1,08,1.1,-14.6,M,-25.1,M,,0000*7A
$GPGSA,A,3,31,25,30,21,29,12,26,05,,,,,1.6,1.1,1.2*3A
$GPRMC,233649.000,A,3748.7741,N,12217.8046,W,1.36,123.07,191010,,,A*7E
$GPVTG,123.07,T,,M,1.36,N,2.5,K,A*09
$GPGGA,233650.000,3748.7735,N,12217.8036,W,1,08,1.1,-13.4,M,-25.1,M,,0000*73
$GPGSA,A,3,31,25,30,21,29,12,26,05,,,,,1.6,1.1,1.2*3A
$GPRMC,233650.000,A,3748.7735,N,12217.8036,W,1.44,124.28,191010,,,A*7D
$GPVTG,124.28,T,,M,1.44,N,2.7,K,A*04
$GPGGA,233651.000,3748.7731,N,12217.8029,W,1,08,1.1,-13.5,M,-25.1,M,,0000*79
$GPGSA,A,3,31,25,30,21,29,12,26,05,,,,,1.6,1.1,1.2*3A
$GPGSV,3,1,12,29,67,339,30,30,58,233,28,25,53,202,33,05,51,066,36*7B
$GPGSV,3,2,12,21,37,259,24,12,26,170,38,02,13,061,22,10,11,039,19*7A
$GPGSV,3,3,12,18,11,200,27,31,09,281,25,26,06,115,27,15,04,143,*77
$GPVTG,127.22,T,,M,1.87,N,3.5,K,A*01
$GPGGA,233652.000,3748.7728,N,12217.8023,W,1,08,1.1,-14.1,M,-25.1,M,,0000*7B
$GPGSA,A,3,31,25,30,21,29,12,26,05,,,,,1.6,1.1,1.2*3A
$GPRMC,233652.000,A,3748.7728,N,12217.8023,W,1.73,130.20,191010,,,A*7E
$GPVTG,130.20,T,,M,1.73,N,3.2,K,A*09
$GPGGA,233653.000,3748.7725,N,12217.8017,W,1,08,1.1,-14.7,M,-25.1,M,,0000*76
$GPGSA,A,3,31,25,30,21,29,12,26,05,,,,,1.6,1.1,1.2*3A
$GPRMC,233653.000,A,3748.7725,N,12217.8017,W,1.44,124.01,191010,,,A*77
$GPVTG,124.01,T,,M,1.44,N,2.7,K,A*0F
$GPGGA,233654.000,3748.7718,N,12217.8005,W,1,08,1.1,-12.4,M,-25.1,M,,0000*79
$GPGSA,A,3,31,25,30,21,29,12,26,05,,,,,1.6,1.1,1.2*3A
$GPRMC,233654.000,A,3748.7718,N,12217.8005,W,1.75,119.25,191010,,,A*77
$GPVTG,119.25,T,,M,1.75,N,3.2,K,A*01
$GPGGA,233655.000,3748.7711,N,12217.7994,W,1,08,1.1,-10.8,M,-25.1,M,,0000*71
$GPGSA,A,3,31,25,30,21,29,12,26,05,,,,,1.6,1.1,1.2*3A
$GPRMC,233655.000,A,3748.7711,N,12217.7994,W,1.59,129.46,191010,,,A*79
$GPVTG,129.46,T,,M,1.59,N,2.9,K,A*03
$GPGGA,233656.000,3748.7706,N,12217.7986,W,1,08,1.1,-10.1,M,-25.1,M,,0000*7E
$GPGSA,A,3,31,25,30,21,29,12,26,05,,,,,1.6,1.1,1.2*3A
$GPGSV,3,1,12,29,67,339,31,30,58,233,29,25,53,202,34,05,51,066,36*7C
$GPGSV,3,2,12,21,37,259,24,12,26,170,39,02,13,061,25,10,11,039,21*77
$GPGSV,3,3,12,18,11,200,29,31,09,281,29,26,06,115,26,15,04,143,*74
$GPRMC,233656.000,A,3748.7706,N,12217.7986,W,1.73,126.68,191010,,,A*74
$GPVTG,126.68,T,,M,1.73,N,3.2,K,A*02
$GPGGA,233657.000,3748.7702,N,12217.7979,W,1,08,1.1,-9.5,M,-25.1,M,,0000*47
$GPGSA,A,3,31,25,30,21,29,12,26,05,,,,,1.6,1.1,1.2*3A
$GPRMC,233657.000,A,3748.7702,N,12217.7979,W,1.39,124.64,191010,,,A*71
$GPVTG,124.64,T,,M,1.39,N,2.6,K,A*07
$GPGGA,233658.000,3748.7699,N,12217.7974,W,1,08,1.1,-9.7,M,-25.1,M,,0000*44
$GPGSA,A,3,31,25,30,21,29,12,26,05,,,,,1.6,1.1,1.2*3A
$GPRMC,233658.000,A,3748.7699,N,12217.7974,W,0.99,124.80,191010,,,A*71
$GPVTG,124.80,T,,M,0.99,N,1.8,K,A*0B
$GPGGA,233659.000,3748.7697,N,12217.7970,W,1,08,1.1,-10.1,M,-25.1,M,,0000*71
$GPGSA,A,3,31,25,30,21,29,12,26,05,,,,,1.6,1.1,1.2*3A
$GPRMC,233659.000,A,3748.7697,N,12217.7970,W,1.24,125.19,191010,,,A*7C
$GPVTG,125.19,T,,M,1.24,N,2.3,K,A*05
$GPGGA,233700.000,3748.7695,N,12217.7964,W,1,08,1.1,-10.8,M,-25.1,M,,0000*72
$GPGSA,A,3,31,25,30,21,29,12,26,05,,,,,1.6,1.1,1.2*3A
$GPRMC,233700.000,A,3748.7695,N,12217.7964,W,1.13,125.01,191010,,,A*7B
$GPVTG,125.01,T,,M,1.13,N,2.1,K,A*0A
$GPGGA,233701.000,3748.7692,N,12217.7958,W,1,08,1.1,-10.8,M,-25.1,M,,0000*7B
$GPGSA,A,3,31,25,30,21,29,12,26,05,,,,,1.6,1.1,1.2*3A
$GPGSV,3,1,12,29,67,339,30,30,58,233,29,25,53,202,34,05,51,066,35*7E
$GPGSV,3,2,12,21,37,259,25,12,26,170,39,02,13,061,20,10,11,039,21*73
$GPGSV,3,3,12,18,11,200,34,31,09,281,29,26,06,115,19,15,04,143,*74
$GPRMC,233701.000,A,3748.7692,N,12217.7958,W,1.20,123.05,191010,,,A*70
$GPVTG,123.05,T,,M,1.20,N,2.2,K,A*0B
$GPGGA,233702.000,3748.7690,N,12217.7953,W,1,08,1.1,-10.9,M,-25.1,M,,0000*70
$GPGSA,A,3,31,25,30,21,29,12,26,05,,,,,1.6,1.1,1.2*3A
$GPRMC,233702.000,A,3748.7690,N,12217.7953,W,1.10,116.80,191010,,,A*72
$GPVTG,116.80,T,,M,1.10,N,2.0,K,A*01
$GPGGA,233703.000,3748.7686,N,12217.7944,W,1,08,1.1,-10.6,M,-25.1,M,,0000*7F
$GPGSA,A,3,31,25,30,21,29,12,26,05,,,,,1.6,1.1,1.2*3A
$GPRMC,233703.000,A,3748.7686,N,12217.7944,W,1.71,120.54,191010,,,A*79
$GPVTG,120.54,T,,M,1.71,N,3.2,K,A*09
$GPGGA,233704.000,3748.7683,N,12217.7936,W,1,08,1.1,-10.7,M,-25.1,M,,0000*79
$GPGSA,A,3,31,25,30,21,29,12,26,05,,,,,1.6,1.1,1.2*3A
$GPRMC,233704.000,A,3748.7683,N,12217.7936,W,1.43,115.74,191010,,,A*7B
$GPVTG,115.74,T,,M,1.43,N,2.6,K,A*09
$GPGGA,233705.000,3748.7681,N,12217.7929,W,1,08,1.1,-11.1,M,-25.1,M,,0000*73
$GPGSA,A,3,31,25,30,21,29,12,26,05,,,,,1.6,1.1,1.2*3A
$GPRMC,233705.000,A,3748.7681,N,12217.7929,W,1.18,109.39,191010,,,A*7C
$GPVTG,109.39,T,,M,1.18,N,2.2,K,A*07
$GPGGA,233706.000,3748.7676,N,12217.7919,W,1,08,1.1,-9.8,M,-25.1,M,,0000*4B
$GPGSA,A,3,31,25,30,21,29,12,26,05,,,,,1.6,1.1,1.2*3A
$GPGSV,3,1,12,29,67,339,30,30,58,233,29,25,53,202,34,05,51,066,34*7F
$GPGSV,3,2,12,21,37,259,25,12,26,170,36,02,13,061,36,10,11,039,29*73
$GPGSV,3,3,12,18,11,200,32,31,09,281,24,26,06,115,20,15,04,143,*75
$GPRMC,233706.000,A,3748.7676,N,12217.7919,W,1.88,121.41,191010,,,A*78
$GPVTG,121.41,T,,M,1.88,N,3.5,K,A*0D
$GPGGA,233707.000,3748.7670,N,12217.7905,W,1,08,1.1,-8.6,M,-25.1,M,,0000*4E
$GPGSA,A,3,31,25,30,21,29,12,26,05,,,,,1.6,1.1,1.2*3A
$GPRMC,233707.000,A,3748.7670,N,12217.7905,W,1.96,122.09,191010,,,A*72
$GPVTG,122.09,T,,M,1.96,N,3.6,K,A*0E
$GPGGA,233708.000,3748.7665,N,12217.7894,W,1,08,1.1,-8.0,M,-25.1,M,,0000*4A
$GPGSA,A,3,31,25,30,21,29,12,26,05,,,,,1.6,1.1,1.2*3A
$GPRMC,233708.000,A,3748.7665,N,12217.7894,W,1.80,121.70,191010,,,A*7A
$GPVTG,121.70,T,,M,1.80,N,3.3,K,A*01
$GPGGA,233709.000,3748.7659,N,12217.7883,W,1,08,1.1,-6.9,M,-25.1,M,,0000*45
$GPGSA,A,3,31,25,30,21,29,12,26,05,,,,,1.6,1.1,1.2*3A
$GPRMC,233709.000,A,3748.7659,N,12217.7883,W,1.76,125.75,191010,,,A*7A
$GPVTG,125.75,T,,M,1.76,N,3.3,K,A*09
$GPGGA,233710.000,3748.7654,N,12217.7875,W,1,08,1.1,-6.8,M,-25.1,M,,0000*48
$GPGSA,A,3,31,25,30,21,29,12,26,05,,,,,1.6,1.1,1.2*3A
$GPRMC,233710.000,A,3748.7654,N,12217.7875,W,1.81,136.36,191010,,,A*7B
$GPVTG,136.36,T,,M,1.81,N,3.4,K,A*03
$GPGGA,233711.000,3748.7649,N,12217.7868,W,1,08,1.1,-6.7,M,-25.1,M,,0000*46
$GPGSA,A,3,31,25,30,21,29,12,26,05,,,,,1.6,1.1,1.2*3A
$GPGSV,3,1,12,29,67,339,30,30,58,233,30,25,53,202,34,05,51,066,34*77
$GPGSV,3,2,12,21,37,259,25,12,26,170,34,02,13,061,25,10,11,039,31*7A
$GPGSV,3,3,12,18,11,200,32,31,09,281,24,26,06,115,25,15,04,143,*70
$GPVTG,131.86,T,,M,1.69,N,3.1,K,A*0C
$GPGGA,233712.000,3748.7645,N,12217.7859,W,1,08,1.1,-5.8,M,-25.1,M,,0000*47
$GPGSA,A,3,31,25,30,21,29,12,26,05,,,,,1.6,1.1,1.2*3A
$GPRMC,233712.000,A,3748.7645,N,12217.7859,W,1.53,136.35,191010,,,A*7B
$GPVTG,136.35,T,,M,1.53,N,2.8,K,A*02
$GPGGA,233713.000,3748.7640,N,12217.7851,W,1,08,1.1,-5.0,M,-25.1,M,,0000*43
$GPGSA,A,3,31,25,30,21,29,12,26,05,,,,,1.6,1.1,1.2*3A
$GPRMC,233713.000,A,3748.7640,N,12217.7851,W,1.62,130.64,191010,,,A*77
$GPVTG,130.64,T,,M,1.62,N,3.0,K,A*0B
$GPGGA,233714.000,3748.7635,N,12217.7841,W,1,08,1.1,-3.7,M,-25.1,M,,0000*46
$GPGSA,A,3,31,25,30,21,29,12,26,05,,,,,1.6,1.1,1.2*3A
$GPRMC,233714.000,A,3748.7635,N,12217.7841,W,1.55,122.77,191010,,,A*76
$GPVTG,122.77,T,,M,1.55,N,2.9,K,A*06
$GPGGA,233715.000,3748.7632,N,12217.7834,W,1,08,1.1,-3.1,M,-25.1,M,,0000*44
$GPGSA,A,3,31,25,30,21,29,12,26,05,,,,,1.6,1.1,1.2*3A
$GPRMC,233715.000,A,3748.7632,N,12217.7834,W,1.69,122.80,191010,,,A*75
$GPVTG,122.80,T,,M,1.69,N,3.1,K,A*08
$GPGGA,233716.000,3748.7628,N,12217.7828,W,1,08,1.1,-2.5,M,-25.1,M,,0000*44
$GPGSA,A,3,31,25,30,21,29,12,26,05,,,,,1.6,1.1,1.2*3A
$GPGSV,3,1,12,29,68,339,30,30,58,232,30,25,53,202,34,05,50,066,34*78
$GPGSV,3,2,12,21,38,260,24,12,25,170,30,02,13,061,24,10,11,039,27*7F
$GPGSV,3,3,12,18,11,200,32,31,09,281,24,26,07,114,23,15,04,143,*76
$GPRMC,233716.000,A,3748.7628,N,12217.7828,W,1.69,127.48,191010,,,A*71
$GPVTG,127.48,T,,M,1.69,N,3.1,K,A*09
$GPGGA,233717.000,3748.7620,N,12217.7819,W,1,08,1.1,-1.1,M,-25.1,M,,0000*48
$GPGSA,A,3,31,25,30,21,29,12,26,05,,,,,1.6,1.1,1.2*3A
$GPRMC,233717.000,A,3748.7620,N,12217.7819,W,1.87,135.59,191010,,,A*79
$GPVTG,135.59,T,,M,1.87,N,3.5,K,A*0E
$GPGGA,233718.000,3748.7614,N,12217.7819,W,2,08,1.1,-0.3,M,-25.1,M,1.8,0000*67
$GPGSA,A,3,31,25,30,21,29,12,26,05,,,,,1.6,1.1,1.2*3A
$GPRMC,233718.000,A,3748.7614,N,12217.7819,W,1.47,203.37,191010,,,D*76
$GPVTG,203.37,T,,M,1.47,N,2.7,K,D*0A
$GPGGA,233719.000,3748.7607,N,12217.7823,W,2,08,1.1,0.2,M,-25.1,M,1.8,0000*41
$GPGSA,A,3,31,25,30,21,29,12,26,05,,,,,1.6,1.1,1.2*3A
$GPRMC,233719.000,A,3748.7607,N,12217.7823,W,2.14,203.25,191010,,,D*7A
$GPVTG,203.25,T,,M,2.14,N,4.0,K,D*0D
$GPGGA,233720.000,3748.7599,N,12217.7830,W,2,08,1.1,0.4,M,-25.1,M,1.8,0000*4B
$GPGSA,A,3,31,25,30,21,29,12,26,05,,,,,1.6,1.1,1.2*3A
$GPRMC,233720.000,A,3748.7599,N,12217.7830,W,2.09,198.51,191010,,,D*78
$GPVTG,198.51,T,,M,2.09,N,3.9,K,D*0D
$GPGGA,233721.000,3748.7593,N,12217.7834,W,2,08,1.1,0.2,M,-25.1,M,2.8,0000*41
$GPGSA,A,3,31,25,30,21,29,12,26,05,,,,,1.6,1.1,1.2*3A
$GPGSV,3,1,12,29,68,339,23,30,58,232,32,25,53,202,39,05,50,066,29*79
$GPGSV,3,2,12,21,38,260,35,12,25,170,32,02,13,061,23,10,11,039,21*7C
$GPGSV,3,3,12,18,11,200,34,31,09,281,26,26,07,114,27,15,04,143,*76
$GPRMC,233721.000,A,3748.7593,N,12217.7834,W,1.81,194.50,191010,,,D*79
$GPVTG,194.50,T,,M,1.81,N,3.4,K,D*0E
$GPGGA,233722.000,3748.7584,N,12217.7830,W,2,08,1.1,1.6,M,-25.1,M,3.8,0000*44
$GPGSA,A,3,31,25,30,21,29,12,26,05,,,,,1.6,1.1,1.2*3A
$GPRMC,233722.000,A,3748.7584,N,12217.7830,W,1.94,177.30,191010,,,D*77
$GPVTG,177.30,T,,M,1.94,N,3.6,K,D*03
$GPGGA,233723.000,3748.7578,N,12217.7828,W,2,08,1.1,2.8,M,-25.1,M,1.8,0000*40
$GPGSA,A,3,31,25,30,21,29,12,26,05,,,,,1.6,1.1,1.2*3A
$GPRMC,233723.000,A,3748.7578,N,12217.7828,W,1.83,191.46,191010,,,D*73
$GPVTG,191.46,T,,M,1.83,N,3.4,K,D*0E
$GPGGA,233724.000,3748.7573,N,12217.7829,W,2,08,1.1,4.0,M,-25.1,M,2.8,0000*40
$GPGSA,A,3,31,25,30,21,29,12,26,05,,,,,1.6,1.1,1.2*3A
$GPRMC,233724.000,A,3748.7573,N,12217.7829,W,1.91,175.60,191010,,,D*73
$GPVTG,175.60,T,,M,1.91,N,3.5,K,D*02
$GPGGA,233725.000,3748.7566,N,12217.7827,W,2,08,1.1,4.3,M,-25.1,M,1.8,0000*4B
$GPGSA,A,3,31,25,30,21,29,12,26,05,,,,,1.6,1.1,1.2*3A
$GPRMC,233725.000,A,3748.7566,N,12217.7827,W,2.20,165.07,191010,,,D*71
$GPVTG,165.07,T,,M,2.20,N,4.1,K,D*08
$GPGGA,233726.000,3748.7560,N,12217.7825,W,2,08,1.1,4.0,M,-25.1,M,1.8,0000*4F
$GPGSA,A,3,31,25,30,21,29,12,26,05,,,,,1.6,1.1,1.2*3A
$GPGSV,3,1,12,29,68,339,25,30,58,232,32,25,53,202,33,05,50,066,30*7D
$GPGSV,3,2,12,21,38,260,30,12,25,170,28,02,13,061,23,10,11,039,20*73
$GPGSV,3,3,12,18,11,200,39,31,09,281,24,26,07,114,29,15,04,143,*77
$GPRMC,233726.000,A,3748.7560,N,12217.7825,W,2.55,161.35,191010,,,D*71
$GPVTG,161.35,T,,M,2.55,N,4.7,K,D*09
$GPGGA,233727.000,3748.7553,N,12217.7822,W,2,08,1.1,3.8,M,-25.1,M,1.8,0000*46
$GPGSA,A,3,31,25,30,21,29,12,26,05,,,,,1.6,1.1,1.2*3A
$GPRMC,233727.000,A,3748.7553,N,12217.7822,W,2.53,163.10,191010,,,D*74
$GPVTG,163.10,T,,M,2.53,N,4.7,K,D*0A
$GPGGA,233728.000,3748.7548,N,12217.7822,W,2,08,1.1,4.1,M,-25.1,M,2.8,0000*4E
$GPGSA,A,3,31,25,30,21,29,12,26,05,,,,,1.6,1.1,1.2*3A
$GPRMC,233728.000,A,3748.7548,N,12217.7822,W,2.40,168.83,191010,,,D*72
$GPVTG,168.83,T,,M,2.40,N,4.5,K,D*0B
$GPGGA,233729.000,3748.7543,N,12217.7820,W,2,08,1.1,4.1,M,-25.1,M,3.8,0000*47
$GPGSA,A,3,31,25,30,21,29,12,26,05,,,,,1.6,1.1,1.2*3A
$GPRMC,233729.000,A,3748.7543,N,12217.7820,W,2.46,160.59,191010,,,D*73
$GPVTG,160.59,T,,M,2.46,N,4.6,K,D*01
$GPGGA,233730.000,3748.7536,N,12217.7820,W,2,08,1.1,3.7,M,-25.1,M,4.8,0000*4B
$GPGSA,A,3,31,25,30,21,29,12,26,05,,,,,1.6,1.1,1.2*3A
$GPRMC,233730.000,A,3748.7536,N,12217.7820,W,2.14,166.49,191010,,,D*79
$GPVTG,166.49,T,,M,2.14,N,4.0,K,D*07
$GPGGA,233731.000,3748.7531,N,12217.7820,W,2,08,1.1,3.2,M,-25.1,M,1.8,0000*4D
$GPGSA,A,3,31,25,30,21,29,12,26,05,,,,,1.6,1.1,1.2*3A
$GPGSV,3,1,12,29,68,339,28,30,58,232,27,25,53,202,27,05,50,066,31*70
$GPGSV,3,2,12,21,38,260,30,12,25,170,40,02,13,061,28,10,11,039,20*76
$GPGSV,3,3,12,18,11,200,37,31,09,281,29,26,07,114,29,15,04,143,*74
$GPVTG,168.54,T,,M,2.23,N,4.1,K,D*00
$GPGGA,233732.000,3748.7525,N,12217.7816,W,2,08,1.1,3.1,M,-25.1,M,2.8,0000*4E
$GPGSA,A,3,31,25,30,21,29,12,26,05,,,,,1.6,1.1,1.2*3A
$GPRMC,233732.000,A,3748.7525,N,12217.7816,W,2.39,165.78,191010,,,D*72
$GPVTG,165.78,T,,M,2.39,N,4.4,K,D*0D
$GPGGA,233733.000,3748.7523,N,12217.7812,W,2,08,1.1,1.3,M,-25.1,M,3.8,0000*4C
$GPGSA,A,3,31,25,30,21,29,12,26,05,,,,,1.6,1.1,1.2*3A
$GPRMC,233733.000,A,3748.7523,N,12217.7812,W,1.92,169.23,191010,,,D*71
$GPVTG,169.23,T,,M,1.92,N,3.6,K,D*08
$GPGGA,233734.000,3748.7518,N,12217.7807,W,2,08,1.1,1.5,M,-25.1,M,4.8,0000*46
$GPGSA,A,3,31,25,30,21,29,12,26,05,,,,,1.6,1.1,1.2*3A
$GPRMC,233734.000,A,3748.7518,N,12217.7807,W,1.44,178.84,191010,,,D*7C
$GPVTG,178.84,T,,M,1.44,N,2.7,K,D*0E
$GPGGA,233735.000,3748.7512,N,12217.7803,W,2,08,1.1,2.0,M,-25.1,M,5.8,0000*4E
$GPGSA,A,3,31,25,30,21,29,12,26,05,,,,,1.6,1.1,1.2*3A
$GPRMC,233735.000,A,3748.7512,N,12217.7803,W,1.61,165.02,191010,,,D*76
$GPVTG,165.02,T,,M,1.61,N,3.0,K,D*0D
$GPGGA,233736.000,3748.7503,N,12217.7797,W,2,08,1.1,3.3,M,-25.1,M,6.8,0000*4E
$GPGSA,A,3,31,25,30,21,29,12,26,05,,,,,1.6,1.1,1.2*3A
$GPGSV,3,1,12,29,68,339,25,30,58,232,26,25,53,202,36,05,50,066,32*7F
$GPGSV,3,2,12,21,38,260,24,12,25,170,41,02,13,061,27,10,11,039,21*7C
$GPGSV,3,3,12,18,11,200,37,31,09,281,27,26,07,114,36,15,04,143,*74
$GPRMC,233736.000,A,3748.7503,N,12217.7797,W,2.42,166.05,191010,,,D*71
$GPVTG,166.05,T,,M,2.42,N,4.5,K,D*09
$GPGGA,233737.000,3748.7497,N,12217.7796,W,2,08,1.1,2.7,M,-25.1,M,1.8,0000*40
$GPGSA,A,3,31,25,30,21,29,12,26,05,,,,,1.6,1.1,1.2*3A
$GPRMC,233737.000,A,3748.7497,N,12217.7796,W,2.00,171.43,191010,,,D*7F
$GPVTG,171.43,T,,M,2.00,N,3.7,K,D*0E
$GPGGA,233738.000,3748.7492,N,12217.7796,W,2,08,1.1,2.1,M,-25.1,M,1.8,0000*4C
$GPGSA,A,3,31,25,30,21,29,12,26,05,,,,,1.6,1.1,1.2*3A
$GPRMC,233738.000,A,3748.7492,N,12217.7796,W,1.77,159.31,191010,,,D*79
$GPVTG,159.31,T,,M,1.77,N,3.3,K,D*06
$GPGGA,233739.000,3748.7488,N,12217.7794,W,2,08,1.1,1.5,M,-25.1,M,1.8,0000*43
$GPGSA,A,3,31,25,30,21,29,12,26,05,,,,,1.6,1.1,1.2*3A
$GPRMC,233739.000,A,3748.7488,N,12217.7794,W,1.84,154.27,191010,,,D*77
$GPVTG,154.27,T,,M,1.84,N,3.4,K,D*07
$GPGGA,233740.000,3748.7482,N,12217.7788,W,2,08,1.1,1.9,M,-25.1,M,2.8,0000*45
$GPGSA,A,3,31,25,30,21,29,12,26,05,,,,,1.6,1.1,1.2*3A
$GPRMC,233740.000,A,3748.7482,N,12217.7788,W,1.97,138.73,191010,,,D*77
$GPVTG,138.73,T,,M,1.97,N,3.6,K,D*0C
$GPGGA,233741.000,3748.7477,N,12217.7782,W,2,08,1.1,1.7,M,-25.1,M,3.8,0000*4B
$GPGSA,A,3,31,25,30,21,29,12,26,05,,,,,1.6,1.1,1.2*3A
$GPGSV,3,1,12,29,68,339,26,30,58,232,33,25,53,202,35,05,50,066,33*7A
$GPGSV,3,2,12,21,38,260,27,12,25,170,41,02,13,061,34,10,11,039,22*7E
$GPGSV,3,3,12,18,11,200,37,31,09,281,26,26,07,114,37,15,04,143,*74
$GPRMC,233741.000,A,3748.7477,N,12217.7782,W,2.00,128.59,191010,,,D*72
$GPVTG,128.59,T,,M,2.00,N,3.7,K,D*09
$GPGGA,233742.000,3748.7473,N,12217.7775,W,2,08,1.1,1.9,M,-25.1,M,4.8,0000*4D
$GPGSA,A,3,31,25,30,21,29,12,26,05,,,,,1.6,1.1,1.2*3A
$GPRMC,233742.000,A,3748.7473,N,12217.7775,W,1.90,120.43,191010,,,D*74
$GPVTG,120.43,T,,M,1.90,N,3.5,K,D*02
$GPGGA,233743.000,3748.7469,N,12217.7770,W,2,08,1.1,1.4,M,-25.1,M,1.8,0000*4A
$GPGSA,A,3,31,25,30,21,29,12,26,05,,,,,1.6,1.1,1.2*3A
$GPRMC,233743.000,A,3748.7469,N,12217.7770,W,1.74,132.49,191010,,,D*78
$GPVTG,132.49,T,,M,1.74,N,3.2,K,D*06
$GPGGA,233744.000,3748.7464,N,12217.7765,W,2,07,1.5,1.0,M,-25.1,M,1.8,0000*4B
$GPGSA,A,3,25,30,21,29,12,26,05,,,,,,2.7,1.5,2.2*3D
$GPRMC,233744.000,A,3748.7464,N,12217.7765,W,1.75,137.72,191010,,,D*7A
$GPVTG,137.72,T,,M,1.75,N,3.2,K,D*0A
$GPGGA,233745.000,3748.7461,N,12217.7761,W,2,08,1.1,0.5,M,-25.1,M,1.8,0000*44
$GPGSA,A,3,31,25,30,21,29,12,26,05,,,,,1.6,1.1,1.2*3A
$GPRMC,233745.000,A,3748.7461,N,12217.7761,W,1.55,131.86,191010,,,D*75
$GPVTG,131.86,T,,M,1.55,N,2.9,K,D*0F
$GPGGA,233746.000,3748.7457,N,12217.7757,W,2,08,1.1,-0.2,M,-25.1,M,1.8,0000*6D
$GPGSA,A,3,31,25,30,21,29,12,26,05,,,,,1.6,1.1,1.2*3A
$GPGSV,3,1,12,29,68,340,30,30,58,232,32,25,52,202,34,05,50,065,34*76
$GPGSV,3,2,12,21,38,260,23,12,25,170,33,02,13,062,34,18,11,200,31*7E
$GPGSV,3,3,12,10,11,039,30,31,08,280,21,26,07,114,37,15,04,142,*75
$GPRMC,233746.000,A,3748.7457,N,12217.7757,W,1.40,132.20,191010,,,D*7D
$GPVTG,132.20,T,,M,1.40,N,2.6,K,D*0B
$GPGGA,233747.000,3748.7455,N,12217.7753,W,2,08,1.1,-0.9,M,-25.1,M,2.8,0000*62
$GPGSA,A,3,31,25,30,21,29,12,26,05,,,,,1.6,1.1,1.2*3A
$GPRMC,233747.000,A,3748.7455,N,12217.7753,W,1.35,135.84,191010,,,D*71
$GPVTG,135.84,T,,M,1.35,N,2.5,K,D*03
$GPGGA,233748.000,3748.7448,N,12217.7740,W,2,08,1.1,1.4,M,-25.1,M,1.8,0000*41
$GPGSA,A,3,31,25,30,21,29,12,26,05,,,,,1.6,1.1,1.2*3A
$GPRMC,233748.000,A,3748.7448,N,12217.7740,W,1.36,120.82,191010,,,D*71
$GPVTG,120.82,T,,M,1.36,N,2.5,K,D*02
$GPGGA,233749.000,3748.7441,N,12217.7729,W,2,08,1.1,4.1,M,-25.1,M,1.8,0000*46
$GPGSA,A,3,31,25,30,21,29,12,26,05,,,,,1.6,1.1,1.2*3A
$GPRMC,233749.000,A,3748.7441,N,12217.7729,W,1.47,122.74,191010,,,D*7B
$GPVTG,122.74,T,,M,1.47,N,2.7,K,D*0D
$GPGGA,233750.000,3748.7434,N,12217.7718,W,2,08,1.1,6.3,M,-25.1,M,1.8,0000*4E
$GPGSA,A,3,31,25,30,21,29,12,26,05,,,,,1.6,1.1,1.2*3A
$GPRMC,233750.000,A,3748.7434,N,12217.7718,W,1.75,118.39,191010,,,D*72
$GPVTG,118.39,T,,M,1.75,N,3.2,K,D*08
$GPGGA,233751.000,3748.7427,N,12217.7707,W,2,08,1.1,8.6,M,-25.1,M,2.8,0000*4B
$GPGSA,A,3,31,25,30,21,29,12,26,05,,,,,1.6,1.1,1.2*3A
$GPGSV,3,1,12,29,68,340,30,30,58,232,29,25,52,202,34,05,50,065,34*7C
$GPGSV,3,2,12,21,38,260,24,12,25,170,26,02,13,062,34,18,11,200,25*78
$GPGSV,3,3,12,10,11,039,29,31,08,280,27,26,07,114,36,15,04,142,*7A
$GPVTG,126.49,T,,M,1.83,N,3.4,K,D*0D
$GPGGA,233752.000,3748.7418,N,12217.7695,W,2,08,1.1,11.0,M,-25.1,M,3.8,0000*71
$GPGSA,A,3,31,25,30,21,29,12,26,05,,,,,1.6,1.1,1.2*3A
$GPRMC,233752.000,A,3748.7418,N,12217.7695,W,2.19,134.90,191010,,,D*7E
$GPVTG,134.90,T,,M,2.19,N,4.1,K,D*08
$GPGGA,233753.000,3748.7411,N,12217.7684,W,2,08,1.1,12.9,M,-25.1,M,4.8,0000*74
$GPGSA,A,3,31,25,30,21,29,12,26,05,,,,,1.6,1.1,1.2*3A
$GPRMC,233753.000,A,3748.7411,N,12217.7684,W,2.29,129.91,191010,,,D*78
$GPVTG,129.91,T,,M,2.29,N,4.2,K,D*05
$GPGGA,233754.000,3748.7404,N,12217.7673,W,2,08,1.1,14.5,M,-25.1,M,1.8,0000*70
$GPGSA,A,3,31,25,30,21,29,12,26,05,,,,,1.6,1.1,1.2*3A
$GPRMC,233754.000,A,3748.7404,N,12217.7673,W,1.95,119.28,191010,,,D*76
$GPVTG,119.28,T,,M,1.95,N,3.6,K,D*03
$GPGGA,233755.000,3748.7397,N,12217.7662,W,2,08,1.1,16.4,M,-25.1,M,1.8,0000*7F
$GPGSA,A,3,31,25,30,21,29,12,26,05,,,,,1.6,1.1,1.2*3A
$GPRMC,233755.000,A,3748.7397,N,12217.7662,W,2.03,125.16,191010,,,D*74
$GPVTG,125.16,T,,M,2.03,N,3.8,K,D*03
$GPGGA,233756.000,3748.7392,N,12217.7651,W,2,08,1.1,17.7,M,-25.1,M,1.8,0000*7B
$GPGSA,A,3,31,25,30,21,29,12,26,05,,,,,1.6,1.1,1.2*3A
$GPGSV,3,1,12,29,68,340,30,30,58,232,29,25,52,202,34,05,50,065,34*7C
$GPGSV,3,2,12,21,38,260,28,12,25,170,26,02,13,062,34,18,11,200,26*77
$GPGSV,3,3,12,10,11,039,34,31,08,280,27,26,07,114,35,15,04,142,*75
$GPRMC,233756.000,A,3748.7392,N,12217.7651,W,2.07,136.01,191010,,,D*72
$GPVTG,136.01,T,,M,2.07,N,3.8,K,D*03
$GPGGA,233757.000,3748.7388,N,12217.7646,W,2,08,1.1,17.7,M,-25.1,M,1.8,0000*77
$GPGSA,A,3,31,25,30,21,29,12,26,05,,,,,1.6,1.1,1.2*3A
$GPRMC,233757.000,A,3748.7388,N,12217.7646,W,2.15,134.09,191010,,,D*77
$GPVTG,134.09,T,,M,2.15,N,4.0,K,D*05
$GPGGA,233758.000,3748.7386,N,12217.7643,W,2,08,1.1,16.8,M,-25.1,M,2.8,0000*7E
$GPGSA,A,3,31,25,30,21,29,12,26,05,,,,,1.6,1.1,1.2*3A
$GPRMC,233758.000,A,3748.7386,N,12217.7643,W,1.91,125.04,191010,,,D*71
$GPVTG,125.04,T,,M,1.91,N,3.5,K,D*05
$GPGGA,233759.000,3748.7382,N,12217.7637,W,2,08,1.1,17.0,M,-25.1,M,3.8,0000*70
$GPGSA,A,3,31,25,30,21,29,12,26,05,,,,,1.6,1.1,1.2*3A
$GPRMC,233759.000,A,3748.7382,N,12217.7637,W,1.68,126.06,191010,,,D*70
$GPVTG,126.06,T,,M,1.68,N,3.1,K,D*06
$GPGGA,233800.000,3748.7377,N,12217.7630,W,2,08,1.1,17.7,M,-25.1,M,1.8,0000*7B
$GPGSA,A,3,31,25,30,21,29,12,26,05,,,,,1.6,1.1,1.2*3A
$GPRMC,233800.000,A,3748.7377,N,12217.7630,W,1.65,127.01,191010,,,D*75
$GPVTG,127.01,T,,M,1.65,N,3.1,K,D*0D
$GPGGA,233801.000,3748.7371,N,12217.7616,W,2,08,1.1,19.5,M,-25.1,M,1.8,0000*74
$GPGSA,A,3,31,25,30,21,29,12,26,05,,,,,1.6,1.1,1.2*3A
$GPGSV,3,1,12,29,68,340,27,30,58,232,29,25,52,202,33,05,50,065,32*7B
$GPGSV,3,2,12,21,38,260,27,12,25,170,26,02,13,062,38,18,11,200,20*72
$GPGSV,3,3,12,10,11,039,25,31,08,280,27,26,07,114,43,15,04,142,*74
$GPRMC,233801.000,A,3748.7371,N,12217.7616,W,1.76,117.52,191010,,,D*71
$GPVTG,117.52,T,,M,1.76,N,3.3,K,D*08
$GPGGA,233802.000,3748.7369,N,12217.7607,W,2,08,1.1,20.4,M,-25.1,M,1.8,0000*75
$GPGSA,A,3,31,25,30,21,29,12,26,05,,,,,1.6,1.1,1.2*3A
$GPRMC,233802.000,A,3748.7369,N,12217.7607,W,2.33,119.26,191010,,,D*74
$GPVTG,119.26,T,,M,2.33,N,4.3,K,D*00
$GPGGA,233803.000,3748.7364,N,12217.7599,W,2,08,1.1,20.4,M,-25.1,M,1.8,0000*7D
$GPGSA,A,3,31,25,30,21,29,12,26,05,,,,,1.6,1.1,1.2*3A
$GPRMC,233803.000,A,3748.7364,N,12217.7599,W,2.04,129.95,191010,,,D*73
$GPVTG,129.95,T,,M,2.04,N,3.8,K,D*03
$GPGGA,233804.000,3748.7360,N,12217.7591,W,2,08,1.1,21.1,M,-25.1,M,2.8,0000*71
$GPGSA,A,3,31,25,30,21,29,12,26,05,,,,,1.6,1.1,1.2*3A
$GPRMC,233804.000,A,3748.7360,N,12217.7591,W,1.90,118.41,191010,,,D*7D
$GPVTG,118.41,T,,M,1.90,N,3.5,K,D*0B
$GPGGA,233805.000,3748.7357,N,12217.7586,W,2,08,1.1,21.0,M,-25.1,M,3.8,0000*72
$GPGSA,A,3,31,25,30,21,29,12,26,05,,,,,1.6,1.1,1.2*3A
$GPRMC,233805.000,A,3748.7357,N,12217.7586,W,1.71,120.06,191010,,,D*79
$GPVTG,120.06,T,,M,1.71,N,3.2,K,D*0B
$GPGGA,233806.000,3748.7357,N,12217.7584,W,2,08,1.1,19.6,M,-25.1,M,4.8,0000*79
$GPGSA,A,3,31,25,30,21,29,12,26,05,,,,,1.6,1.1,1.2*3A
$GPGSV,3,1,12,29,68,340,27,30,58,232,27,25,52,202,33,05,50,065,34*73
$GPGSV,3,2,12,21,38,260,26,12,25,170,27,02,13,062,38,18,11,200,21*73
$GPGSV,3,3,12,10,11,039,31,31,08,280,27,26,07,114,42,15,04,142,*70
$GPRMC,233806.000,A,3748.7357,N,12217.7584,W,1.59,119.81,191010,,,D*77
$GPVTG,119.81,T,,M,1.59,N,2.9,K,D*0E
$GPGGA,233807.000,3748.7359,N,12217.7578,W,2,08,1.1,19.0,M,-25.1,M,1.8,0000*76
$GPGSA,A,3,31,25,30,21,29,12,26,05,,,,,1.6,1.1,1.2*3A
$GPRMC,233807.000,A,3748.7359,N,12217.7578,W,1.49,116.96,191010,,,D*73
$GPVTG,116.96,T,,M,1.49,N,2.8,K,D*07
$GPGGA,233808.000,3748.7359,N,12217.7573,W,2,08,1.1,18.4,M,-25.1,M,1.8,0000*77
$GPGSA,A,3,31,25,30,21,29,12,26,05,,,,,1.6,1.1,1.2*3A
$GPRMC,233808.000,A,3748.7359,N,12217.7573,W,1.66,116.29,191010,,,D*7E
$GPVTG,116.29,T,,M,1.66,N,3.1,K,D*06
$GPGGA,233809.000,3748.7359,N,12217.7568,W,2,08,1.1,17.8,M,-25.1,M,1.8,0000*7F
$GPGSA,A,3,31,25,30,21,29,12,26,05,,,,,1.6,1.1,1.2*3A
$GPRMC,233809.000,A,3748.7359,N,12217.7568,W,1.27,116.43,191010,,,D*7C
$GPVTG,116.43,T,,M,1.27,N,2.4,K,D*0B
$GPGGA,233810.000,3748.7359,N,12217.7565,W,2,08,1.1,17.1,M,-25.1,M,1.8,0000*73
$GPGSA,A,3,31,25,30,21,29,12,26,05,,,,,1.6,1.1,1.2*3A
$GPRMC,233810.000,A,3748.7359,N,12217.7565,W,1.20,124.56,191010,,,D*7B
$GPVTG,124.56,T,,M,1.20,N,2.2,K,D*0F
$GPGGA,233811.000,3748.7359,N,12217.7563,W,2,08,1.1,16.2,M,-25.1,M,2.8,0000*75
$GPGSA,A,3,31,25,30,21,29,12,26,05,,,,,1.6,1.1,1.2*3A
$GPGSV,3,1,12,29,68,340,28,30,58,232,29,25,52,202,32,05,50,065,34*73
$GPGSV,3,2,12,21,38,260,25,12,25,170,35,02,13,062,26,18,11,200,21*7C
$GPGSV,3,3,12,10,11,039,33,31,08,280,17,26,07,114,44,15,04,142,*77
$GPVTG,117.73,T,,M,1.04,N,1.9,K,D*06
$GPGGA,233812.000,3748.7359,N,12217.7561,W,2,08,1.1,15.0,M,-25.1,M,3.8,0000*74
$GPGSA,A,3,31,25,30,21,29,12,26,05,,,,,1.6,1.1,1.2*3A
$GPRMC,233812.000,A,3748.7359,N,12217.7561,W,0.95,121.95,191010,,,D*78
