$ADVER,3080,2.3
$GPRMC,005320.140,A,3748.7789,N,12217.8656,W,0.00,,201010,,,A*62
$GPRMC,005554.143,A,3748.7873,N,12217.8662,W,0.00,,201010,,,A*69
$GPRMC,005555.143,A,3748.7836,N,12217.8613,W,0.00,,201010,,,A*6F
$GPRMC,005556.143,A,3748.7878,N,12217.8693,W,0.00,,201010,,,A*6E
$GPRMC,005557.143,A,3748.7821,N,12217.8649,W,0.00,,201010,,,A*64
$GPRMC,005558.143,A,3748.7906,N,12217.8710,W,0.00,,201010,,,A*62
$GPRMC,005559.143,A,3748.7891,N,12217.8728,W,0.00,,201010,,,A*67
$GPRMC,005600.139,A,3748.7904,N,12217.8734,W,0.41,290.18,201010,,,A*7C
$GPRMC,005601.143,A,3748.7894,N,12217.8721,W,1.03,333.48,201010,,,A*76
$GPRMC,005602.000,A,3748.7897,N,12217.8706,W,0.59,328.27,201010,,,A*78
$GPRMC,005603.000,A,3748.7891,N,12217.8720,W,0.64,304.87,201010,,,A*71
$GPRMC,005604.000,A,3748.7884,N,12217.8723,W,0.14,187.58,201010,,,A*7D
$GPRMC,005605.000,A,3748.7890,N,12217.8717,W,0.63,248.99,201010,,,A*73
$GPRMC,005606.000,A,3748.7892,N,12217.8712,W,0.72,355.19,201010,,,A*72
$GPRMC,005607.000,A,3748.7892,N,12217.8715,W,0.97,339.25,201010,,,A*7A
$GPRMC,005608.000,A,3748.7896,N,12217.8724,W,1.93,282.76,201010,,,A*71
$GPRMC,005609.000,A,3748.7895,N,12217.8724,W,1.85,299.10,201010,,,A*7E
$GPRMC,005610.000,A,3748.7899,N,12217.8727,W,0.74,298.90,201010,,,A*7F
$GPRMC,005611.000,A,3748.7897,N,12217.8724,W,0.72,74.08,201010,,,A*44
$GPRMC,005612.000,A,3748.7894,N,12217.8720,W,0.48,70.08,201010,,,A*4D
$GPRMC,005613.000,A,3748.7894,N,12217.8704,W,0.70,84.31,201010,,,A*40
$GPRMC,005614.000,A,3748.7895,N,12217.8694,W,0.57,118.86,201010,,,A*73
$GPRMC,005615.000,A,3748.7897,N,12217.8685,W,1.14,174.77,201010,,,A*72
$GPRMC,005616.000,A,3748.7898,N,12217.8692,W,1.61,238.26,201010,,,A*75
$GPRMC,005617.000,A,3748.7896,N,12217.8694,W,0.83,249.23,201010,,,A*72
$GPRMC,005618.000,A,3748.7894,N,12217.8693,W,0.45,329.63,201010,,,A*71
$GPRMC,005619.000,A,3748.7898,N,12217.8698,W,0.92,52.04,201010,,,A*43
$GPRMC,005620.000,A,3748.7900,N,12217.8685,W,1.56,73.50,201010,,,A*4E
$GPRMC,005621.000,A,3748.7907,N,12217.8686,W,0.90,19.53,201010,,,A*4F
$GPRMC,005622.000,A,3748.7908,N,12217.8697,W,1.24,306.79,201010,,,A*78
$GPRMC,005623.000,A,3748.7903,N,12217.8695,W,0.47,265.00,201010,,,A*7E
$GPRMC,005624.000,A,3748.7902,N,12217.8702,W,0.73,304.19,201010,,,A*7E
$GPRMC,005625.000,A,3748.7902,N,12217.8716,W,2.39,277.09,201010,,,A*72
$GPRMC,005626.000,A,3748.7899,N,12217.8734,W,2.20,271.46,201010,,,A*77
$GPRMC,005627.000,A,3748.7899,N,12217.8744,W,1.12,268.62,201010,,,A*7D
$GPRMC,005628.000,A,3748.7898,N,12217.8753,W,0.97,296.02,201010,,,A*7E
$GPRMC,005629.000,A,3748.7901,N,12217.8768,W,2.32,275.04,201010,,,A*70
$GPRMC,005630.000,A,3748.7901,N,12217.8771,W,1.21,266.34,201010,,,A*70
$GPRMC,005631.000,A,3748.7901,N,12217.8770,W,0.53,254.53,201010,,,A*74
$GPRMC,005632.000,A,3748.7903,N,12217.8752,W,0.34,256.03,201010,,,A*73
$GPRMC,005633.000,A,3748.7904,N,12217.8753,W,0.15,346.46,201010,,,A*76
$GPRMC,005634.000,A,3748.7908,N,12217.8752,W,1.00,1.16,201010,,,A*7C
$GPRMC,005635.000,A,3748.7909,N,12217.8749,W,1.31,347.74,201010,,,A*71
$GPRMC,005636.000,A,3748.7905,N,12217.8744,W,0.84,14.11,201010,,,A*4A
$GPRMC,005637.000,A,3748.7899,N,12217.8738,W,1.12,64.21,201010,,,A*4E
$GPRMC,005638.000,A,3748.7896,N,12217.8726,W,0.92,43.68,201010,,,A*40
$GPRMC,005639.000,A,3748.7892,N,12217.8715,W,0.60,34.10,201010,,,A*47
$GPRMC,005640.000,A,3748.7889,N,12217.8709,W,0.54,27.68,201010,,,A*44
$GPRMC,005641.000,A,3748.7888,N,12217.8707,W,0.04,350.28,201010,,,A*78
$GPRMC,005642.000,A,3748.7890,N,12217.8707,W,0.71,21.22,201010,,,A*4F
$GPRMC,005643.000,A,3748.7891,N,12217.8701,W,0.92,42.83,201010,,,A*4A
$GPRMC,005644.000,A,3748.7891,N,12217.8698,W,0.73,34.37,201010,,,A*4D
$GPRMC,005645.000,A,3748.7893,N,12217.8693,W,1.38,355.23,201010,,,A*7A
$GPRMC,005646.000,A,3748.7893,N,12217.8693,W,0.72,4.07,201010,,,A*77
$GPRMC,005647.000,A,3748.7896,N,12217.8679,W,1.46,77.77,201010,,,A*42
$GPRMC,005648.000,A,3748.7894,N,12217.8670,W,1.72,124.79,201010,,,A*78
$GPRMC,005649.000,A,3748.7893,N,12217.8670,W,0.76,97.49,201010,,,A*41
$GPRMC,005650.000,A,3748.7889,N,12217.8677,W,0.19,92.78,201010,,,A*4B
$GPRMC,005651.000,A,3748.7881,N,12217.8675,W,0.74,117.12,201010,,,A*7B
$GPRMC,005652.000,A,3748.7872,N,12217.8666,W,1.49,105.64,201010,,,A*7B
$GPRMC,005653.000,A,3748.7869,N,12217.8667,W,1.62,69.43,201010,,,A*46
$GPRMC,005654.000,A,3748.7875,N,12217.8668,W,1.52,17.31,201010,,,A*4C
$GPRMC,005655.000,A,3748.7876,N,12217.8672,W,1.42,324.24,201010,,,A*73
$GPRMC,005656.000,A,3748.7869,N,12217.8675,W,1.98,274.52,201010,,,A*7B
$GPRMC,005657.000,A,3748.7865,N,12217.8681,W,2.83,255.85,201010,,,A*7D
$GPRMC,005658.000,A,3748.7863,N,12217.8689,W,3.39,263.39,201010,,,A*7E
$GPRMC,005659.000,A,3748.7861,N,12217.8704,W,3.40,265.33,201010,,,A*7B
$GPRMC,005700.000,A,3748.7852,N,12217.8712,W,3.31,247.83,201010,,,A*7C
$GPRMC,005701.000,A,3748.7846,N,12217.8720,W,2.62,237.48,201010,,,A*7E
$GPRMC,005702.000,A,3748.7842,N,12217.8726,W,2.33,235.00,201010,,,A*75
$GPRMC,005703.000,A,3748.7833,N,12217.8726,W,1.95,197.49,201010,,,A*7B
$GPRMC,005704.000,A,3748.7833,N,12217.8721,W,1.65,171.41,201010,,,A*74
$GPRMC,005705.000,A,3748.7832,N,12217.8711,W,1.18,136.54,201010,,,A*7A
$GPRMC,005706.000,A,3748.7829,N,12217.8704,W,1.06,147.75,201010,,,A*7D
$GPRMC,005707.000,A,3748.7837,N,12217.8703,W,0.93,58.28,201010,,,A*4E
$GPRMC,005708.000,A,3748.7843,N,12217.8702,W,0.79,86.99,201010,,,A*4E
$GPRMC,005709.000,A,3748.7852,N,12217.8699,W,0.54,44.70,201010,,,A*4A
$GPRMC,005710.000,A,3748.7853,N,12217.8690,W,0.97,73.02,201010,,,A*44
$GPRMC,005711.000,A,3748.7847,N,12217.8680,W,0.76,131.48,201010,,,A*77
$GPRMC,005712.000,A,3748.7842,N,12217.8677,W,0.45,224.88,201010,,,A*72
$GPRMC,005713.000,A,3748.7833,N,12217.8679,W,0.74,275.19,201010,,,A*75
$GPRMC,005714.000,A,3748.7834,N,12217.8676,W,0.43,318.85,201010,,,A*71
$GPRMC,005715.000,A,3748.7831,N,12217.8673,W,0.31,57.50,201010,,,A*45
$GPRMC,005716.000,A,3748.7836,N,12217.8673,W,1.13,332.80,201010,,,A*7D
$GPRMC,005717.000,A,3748.7835,N,12217.8675,W,0.36,338.79,201010,,,A*73
$GPRMC,005718.000,A,3748.7832,N,12217.8672,W,0.53,96.82,201010,,,A*4C
$GPRMC,005719.000,A,3748.7830,N,12217.8669,W,0.88,113.89,201010,,,A*74
$GPRMC,005720.000,A,3748.7831,N,12217.8671,W,1.15,121.72,201010,,,A*76
$GPRMC,005721.000,A,3748.7835,N,12217.8675,W,0.45,62.77,201010,,,A*40
$GPRMC,005722.000,A,3748.7841,N,12217.8683,W,0.72,31.65,201010,,,A*48
$GPRMC,005723.000,A,3748.7856,N,12217.8692,W,1.24,0.92,201010,,,A*77
$GPRMC,005724.000,A,3748.7862,N,12217.8696,W,0.06,155.59,201010,,,A*74
$GPRMC,005725.000,A,3748.7869,N,12217.8701,W,0.76,310.03,201010,,,A*7A
$GPRMC,005726.000,A,3748.7871,N,12217.8705,W,0.53,306.14,201010,,,A*72
$GPRMC,005727.000,A,3748.7878,N,12217.8713,W,0.71,330.29,201010,,,A*76
$GPRMC,005728.000,A,3748.7884,N,12217.8721,W,1.03,316.64,201010,,,A*72
$GPRMC,005729.000,A,3748.7883,N,12217.8723,W,0.85,275.67,201010,,,A*7E
$GPRMC,005730.000,A,3748.7879,N,12217.8724,W,1.04,255.38,201010,,,A*74
$GPRMC,005731.000,A,3748.7885,N,12217.8732,W,0.42,337.78,201010,,,A*73
$GPRMC,005732.000,A,3748.7887,N,12217.8735,W,0.20,0.46,201010,,,A*7B
$GPRMC,005733.000,A,3748.7889,N,12217.8736,W,0.22,146.42,201010,,,A*72
$GPRMC,005734.000,A,3748.7893,N,12217.8743,W,0.05,253.16,201010,,,A*7F
$GPRMC,005735.000,A,3748.7891,N,12217.8744,W,1.00,178.11,201010,,,A*72
$GPRMC,005736.000,A,3748.7891,N,12217.8747,W,0.68,173.96,201010,,,A*79
$GPRMC,005737.000,A,3748.7891,N,12217.8752,W,0.81,187.47,201010,,,A*7C
$GPRMC,005738.000,A,3748.7893,N,12217.8755,W,0.61,241.77,201010,,,A*72
$GPRMC,005739.000,A,3748.7889,N,12217.8752,W,0.53,220.66,201010,,,A*79
$GPRMC,005740.000,A,3748.7890,N,12217.8754,W,0.77,269.67,201010,,,A*73
$GPRMC,005741.000,A,3748.7892,N,12217.8753,W,0.66,258.62,201010,,,A*70
$GPRMC,005742.000,A,3748.7893,N,12217.8751,W,0.11,347.24,201010,,,A*7D
$GPRMC,005743.000,A,3748.7893,N,12217.8751,W,0.15,297.46,201010,,,A*70
$GPRMC,005744.000,A,3748.7894,N,12217.8750,W,0.49,201.62,201010,,,A*71
$GPRMC,005745.000,A,3748.7891,N,12217.8747,W,0.60,180.93,201010,,,A*7C
$GPRMC,005746.000,A,3748.7892,N,12217.8745,W,0.54,98.97,201010,,,A*45
$GPRMC,005747.000,A,3748.7893,N,12217.8741,W,0.39,133.65,201010,,,A*77
$GPRMC,005748.000,A,3748.7893,N,12217.8739,W,0.53,102.36,201010,,,A*7F
$GPRMC,005749.000,A,3748.7896,N,12217.8734,W,0.69,81.10,201010,,,A*41
$GPRMC,005750.000,A,3748.7899,N,12217.8731,W,0.63,52.27,201010,,,A*43
$GPRMC,005751.000,A,3748.7900,N,12217.8730,W,0.81,48.31,201010,,,A*42
$GPRMC,005752.000,A,3748.7897,N,12217.8725,W,0.86,69.51,201010,,,A*48
$GPRMC,005753.000,A,3748.7894,N,12217.8724,W,0.11,222.63,201010,,,A*79
$GPRMC,005754.000,A,3748.7893,N,12217.8724,W,0.13,179.78,201010,,,A*7C
$GPRMC,005755.000,A,3748.7891,N,12217.8721,W,0.27,149.29,201010,,,A*7A
$GPRMC,005756.000,A,3748.7888,N,12217.8716,W,0.25,143.05,201010,,,A*73
$GPRMC,005757.000,A,3748.7885,N,12217.8714,W,0.51,196.70,201010,,,A*74
$GPRMC,005758.000,A,3748.7883,N,12217.8714,W,0.67,208.51,201010,,,A*7F
$GPRMC,005759.000,A,3748.7881,N,12217.8715,W,0.60,211.18,201010,,,A*7F
$GPRMC,005800.000,A,3748.7877,N,12217.8719,W,0.68,207.08,201010,,,A*77
$GPRMC,005801.000,A,3748.7876,N,12217.8719,W,0.34,129.73,201010,,,A*7D
$GPRMC,005802.000,A,3748.7875,N,12217.8720,W,0.39,213.56,201010,,,A*77
$GPRMC,005803.000,A,3748.7875,N,12217.8720,W,0.68,233.26,201010,,,A*77
$GPRMC,005804.000,A,3748.7875,N,12217.8717,W,0.27,184.78,201010,,,A*7B
$GPRMC,005805.000,A,3748.7874,N,12217.8713,W,0.25,21.80,201010,,,A*44
$GPRMC,005806.000,A,3748.7874,N,12217.8704,W,0.37,30.17,201010,,,A*4C
$GPRMC,005807.000,A,3748.7876,N,12217.8702,W,0.27,180.65,201010,,,A*77
$GPRMC,005808.000,A,3748.7875,N,12217.8698,W,0.46,180.54,201010,,,A*7C
$GPRMC,005809.000,A,3748.7873,N,12217.8698,W,1.00,205.23,201010,,,A*76
$GPRMC,005810.000,A,3748.7871,N,12217.8698,W,0.63,182.02,201010,,,A*77
$GPRMC,005811.000,A,3748.7870,N,12217.8695,W,0.74,140.00,201010,,,A*70
$GPRMC,005812.000,A,3748.7870,N,12217.8698,W,0.46,235.73,201010,,,A*7A
$GPRMC,005813.000,A,3748.7870,N,12217.8702,W,0.66,236.93,201010,,,A*76
$GPRMC,005814.000,A,3748.7870,N,12217.8705,W,0.33,241.53,201010,,,A*7A
$GPRMC,005815.000,A,3748.7870,N,12217.8706,W,0.14,193.69,201010,,,A*78
$GPRMC,005816.000,A,3748.7870,N,12217.8705,W,0.43,250.89,201010,,,A*78
$GPRMC,005817.000,A,3748.7871,N,12217.8708,W,0.86,245.26,201010,,,A*7D
$GPRMC,005818.000,A,3748.7871,N,12217.8709,W,0.32,250.28,201010,,,A*76
$GPRMC,005819.000,A,3748.7873,N,12217.8704,W,0.69,59.40,201010,,,A*43
$GPRMC,005820.000,A,3748.7875,N,12217.8702,W,0.20,40.02,201010,,,A*4A
$GPRMC,005821.000,A,3748.7876,N,12217.8703,W,0.10,301.30,201010,,,A*7D
$GPRMC,005822.000,A,3748.7876,N,12217.8703,W,0.34,82.71,201010,,,A*45
$GPRMC,005823.000,A,3748.7876,N,12217.8700,W,0.72,83.52,201010,,,A*45
$GPRMC,005824.000,A,3748.7877,N,12217.8696,W,0.66,86.08,201010,,,A*42
$GPRMC,005825.000,A,3748.7878,N,12217.8698,W,0.17,331.87,201010,,,A*7C
$GPRMC,005826.000,A,3748.7880,N,12217.8698,W,0.39,299.86,201010,,,A*76
$GPRMC,005827.000,A,3748.7883,N,12217.8704,W,0.71,26.08,201010,,,A*4C
$GPRMC,005828.000,A,3748.7881,N,12217.8706,W,0.36,58.93,201010,,,A*4B
$GPRMC,005829.000,A,3748.7883,N,12217.8708,W,0.31,343.94,201010,,,A*7F
$GPRMC,005830.000,A,3748.7883,N,12217.8707,W,0.34,214.81,201010,,,A*7A
$GPRMC,005831.000,A,3748.7882,N,12217.8706,W,0.06,256.89,201010,,,A*74
$GPRMC,005832.000,A,3748.7883,N,12217.8709,W,0.81,273.73,201010,,,A*74
$GPRMC,005833.000,A,3748.7885,N,12217.8710,W,0.45,7.57,201010,,,A*74
$GPRMC,005834.000,A,3748.7890,N,12217.8706,W,0.21,76.14,201010,,,A*43
$GPRMC,005835.000,A,3748.7890,N,12217.8713,W,0.53,269.42,201010,,,A*7C
$GPRMC,005836.000,A,3748.7891,N,12217.8715,W,0.25,351.85,201010,,,A*78
$GPRMC,005837.000,A,3748.7891,N,12217.8712,W,0.42,69.77,201010,,,A*4A
$GPRMC,005838.000,A,3748.7888,N,12217.8707,W,0.52,177.49,201010,,,A*7B
$GPRMC,005839.000,A,3748.7888,N,12217.8707,W,0.25,179.05,201010,,,A*7C
$GPRMC,005840.000,A,3748.7888,N,12217.8705,W,0.08,146.03,201010,,,A*75
$GPRMC,005841.000,A,3748.7885,N,12217.8705,W,0.35,151.27,201010,,,A*77
$GPRMC,005842.000,A,3748.7882,N,12217.8705,W,0.68,50.77,201010,,,A*4E
$GPRMC,005843.000,A,3748.7885,N,12217.8703,W,0.71,68.58,201010,,,A*40
$GPRMC,005844.000,A,3748.7888,N,12217.8703,W,0.20,11.68,201010,,,A*43
$GPRMC,005845.000,A,3748.7889,N,12217.8707,W,0.98,24.94,201010,,,A*41
$GPRMC,005846.000,A,3748.7889,N,12217.8706,W,1.86,35.67,201010,,,A*41
$GPRMC,005847.000,A,3748.7892,N,12217.8703,W,2.36,33.02,201010,,,A*42
$GPRMC,005848.000,A,3748.7890,N,12217.8702,W,0.64,27.68,201010,,,A*42
$GPRMC,005849.000,A,3748.7890,N,12217.8699,W,0.76,45.79,201010,,,A*47
$GPRMC,005850.000,A,3748.7895,N,12217.8696,W,0.21,10.50,201010,,,A*4C
$GPRMC,005851.000,A,3748.7899,N,12217.8692,W,0.59,25.79,201010,,,A*47
$GPRMC,005852.000,A,3748.7900,N,12217.8693,W,0.54,24.17,201010,,,A*40
$GPRMC,005853.000,A,3748.7903,N,12217.8693,W,0.48,63.98,201010,,,A*4B
$GPRMC,005854.000,A,3748.7899,N,12217.8693,W,1.47,44.42,201010,,,A*42
$GPRMC,005855.000,A,3748.7895,N,12217.8693,W,1.59,39.65,201010,,,A*4F
$GPRMC,005856.000,A,3748.7900,N,12217.8693,W,0.64,9.48,201010,,,A*72
$GPRMC,005857.000,A,3748.7891,N,12217.8702,W,0.81,251.99,201010,,,A*7B
$GPRMC,005858.000,A,3748.7887,N,12217.8708,W,0.09,306.21,201010,,,A*79
$GPRMC,005859.000,A,3748.7883,N,12217.8712,W,0.44,236.43,201010,,,A*78
$GPRMC,005900.000,A,3748.7876,N,12217.8714,W,1.45,207.03,201010,,,A*7F
$GPRMC,005901.000,A,3748.7874,N,12217.8714,W,0.52,206.15,201010,,,A*7D
$GPRMC,005902.000,A,3748.7875,N,12217.8712,W,0.78,210.23,201010,,,A*73
$GPRMC,005903.000,A,3748.7880,N,12217.8706,W,0.44,152.62,201010,,,A*72
$GPRMC,005904.000,A,3748.7885,N,12217.8704,W,0.20,206.56,201010,,,A*75
$GPRMC,005905.000,A,3748.7879,N,12217.8706,W,0.46,174.63,201010,,,A*75
$GPRMC,005906.000,A,3748.7881,N,12217.8700,W,0.17,76.76,201010,,,A*44
$GPRMC,005907.000,A,3748.7883,N,12217.8694,W,0.31,48.80,201010,,,A*4B
$GPRMC,005908.000,A,3748.7881,N,12217.8696,W,0.15,4.71,201010,,,A*74
$GPRMC,005909.000,A,3748.7882,N,12217.8700,W,0.48,249.00,201010,,,A*7D
$GPRMC,005910.000,A,3748.7883,N,12217.8703,W,0.19,293.15,201010,,,A*70
$GPRMC,005911.000,A,3748.7884,N,12217.8705,W,0.29,226.82,201010,,,A*73
$GPRMC,005912.000,A,3748.7883,N,12217.8705,W,0.20,73.14,201010,,,A*43
$GPRMC,005913.000,A,3748.7883,N,12217.8701,W,0.17,63.12,201010,,,A*45
$GPRMC,005914.000,A,3748.7882,N,12217.8700,W,0.38,200.57,201010,,,A*79
$GPRMC,005915.000,A,3748.7879,N,12217.8699,W,0.21,149.49,201010,,,A*74
$GPRMC,005916.000,A,3748.7879,N,12217.8693,W,0.38,73.73,201010,,,A*44
$GPRMC,005917.000,A,3748.7879,N,12217.8684,W,0.28,89.46,201010,,,A*41
$GPRMC,005918.000,A,3748.7879,N,12217.8681,W,0.25,223.48,201010,,,A*7A
$GPRMC,005919.000,A,3748.7879,N,12217.8680,W,0.30,106.05,201010,,,A*73
$GPRMC,005920.000,A,3748.7879,N,12217.8679,W,0.21,44.02,201010,,,A*4F
$GPRMC,005921.000,A,3748.7878,N,12217.8681,W,0.73,238.80,201010,,,A*7C
$GPRMC,005922.000,A,3748.7879,N,12217.8681,W,0.28,284.57,201010,,,A*7D
$GPRMC,005923.000,A,3748.7879,N,12217.8686,W,0.47,316.94,201010,,,A*77
$GPRMC,005924.000,A,3748.7881,N,12217.8690,W,0.25,308.11,201010,,,A*76
$GPRMC,005925.000,A,3748.7885,N,12217.8690,W,0.50,24.42,201010,,,A*4A
$GPRMC,005926.000,A,3748.7886,N,12217.8692,W,0.13,243.26,201010,,,A*7E
$GPRMC,005927.000,A,3748.7888,N,12217.8687,W,0.57,61.82,201010,,,A*49
$GPRMC,005928.000,A,3748.7887,N,12217.8692,W,0.35,174.97,201010,,,A*78
$GPRMC,005929.000,A,3748.7886,N,12217.8695,W,0.42,216.25,201010,,,A*71
$GPRMC,005930.000,A,3748.7886,N,12217.8696,W,0.25,239.02,201010,,,A*73
$GPRMC,005931.000,A,3748.7886,N,12217.8701,W,0.27,149.45,201010,,,A*78
$GPRMC,005932.000,A,3748.7886,N,12217.8702,W,0.43,94.06,201010,,,A*4C
$GPRMC,005933.000,A,3748.7887,N,12217.8702,W,0.30,13.94,201010,,,A*4C
$GPRMC,005934.000,A,3748.7886,N,12217.8702,W,0.57,23.34,201010,,,A*42
$GPRMC,005935.000,A,3748.7888,N,12217.8697,W,0.94,19.74,201010,,,A*42
$GPRMC,005936.000,A,3748.7888,N,12217.8693,W,0.64,17.24,201010,,,A*41
$GPRMC,005937.000,A,3748.7888,N,12217.8691,W,0.24,23.35,201010,,,A*41
$GPRMC,005938.000,A,3748.7888,N,12217.8692,W,0.04,44.05,201010,,,A*4D
$GPRMC,005939.000,A,3748.7887,N,12217.8691,W,0.30,171.79,201010,,,A*7B
$GPRMC,005940.000,A,3748.7884,N,12217.8690,W,0.51,162.68,201010,,,A*72
$GPRMC,005941.000,A,3748.7881,N,12217.8689,W,0.54,195.03,201010,,,A*7E
$GPRMC,005942.000,A,3748.7878,N,12217.8689,W,0.81,200.13,201010,,,A*7D
$GPRMC,005943.000,A,3748.7876,N,12217.8690,W,0.48,210.52,201010,,,A*7B
$GPRMC,005944.000,A,3748.7874,N,12217.8688,W,0.39,194.67,201010,,,A*78
$GPRMC,005945.000,A,3748.7869,N,12217.8687,W,0.65,210.55,201010,,,A*7D
$GPRMC,005946.000,A,3748.7869,N,12217.8689,W,0.82,218.57,201010,,,A*73
$GPRMC,005947.000,A,3748.7872,N,12217.8689,W,0.60,194.66,201010,,,A*71
$GPRMC,005948.000,A,3748.7875,N,12217.8688,W,0.02,253.23,201010,,,A*75
$GPRMC,005949.000,A,3748.7877,N,12217.8688,W,0.52,233.45,201010,,,A*75
$GPRMC,005950.000,A,3748.7880,N,12217.8688,W,0.48,213.05,201010,,,A*78
$GPRMC,005951.000,A,3748.7882,N,12217.8686,W,0.19,222.20,201010,,,A*74
$GPRMC,005952.000,A,3748.7885,N,12217.8684,W,0.06,3.85,201010,,,A*72
$GPRMC,005953.000,A,3748.7891,N,12217.8680,W,0.66,28.30,201010,,,A*43
$GPRMC,005954.000,A,3748.7892,N,12217.8680,W,0.50,31.24,201010,,,A*4F
$GPRMC,005955.000,A,3748.7891,N,12217.8682,W,0.23,6.07,201010,,,A*7E
$GPRMC,005956.000,A,3748.7891,N,12217.8682,W,0.11,29.47,201010,,,A*45
$GPRMC,005957.000,A,3748.7891,N,12217.8682,W,0.36,26.41,201010,,,A*48
$GPRMC,005958.000,A,3748.7892,N,12217.8683,W,0.30,47.40,201010,,,A*45
$GPRMC,005959.000,A,3748.7890,N,12217.8684,W,0.10,192.62,201010,,,A*7A
$GPRMC,010000.000,A,3748.7887,N,12217.8688,W,0.66,210.42,201010,,,A*7B
$GPRMC,010001.000,A,3748.7886,N,12217.8689,W,0.44,202.09,201010,,,A*76
$GPRMC,010002.000,A,3748.7885,N,12217.8690,W,0.48,208.38,201010,,,A*7A
$GPRMC,010003.000,A,3748.7883,N,12217.8691,W,0.67,208.32,201010,,,A*7B
$GPRMC,010004.000,A,3748.7880,N,12217.8694,W,0.88,199.33,201010,,,A*71
$GPRMC,010005.000,A,3748.7877,N,12217.8695,W,0.78,195.18,201010,,,A*73
$GPRMC,010006.000,A,3748.7878,N,12217.8694,W,0.29,164.64,201010,,,A*7F
$GPRMC,010007.000,A,3748.7874,N,12217.8695,W,0.17,237.41,201010,,,A*7C
$GPRMC,010008.000,A,3748.7879,N,12217.8690,W,0.22,287.23,201010,,,A*72
$GPRMC,010009.000,A,3748.7883,N,12217.8689,W,0.20,74.61,201010,,,A*44
$GPRMC,010010.000,A,3748.7890,N,12217.8686,W,0.22,331.14,201010,,,A*73
$GPRMC,010011.000,A,3748.7896,N,12217.8683,W,0.35,67.91,201010,,,A*4A
$GPRMC,010012.000,A,3748.7902,N,12217.8679,W,0.38,107.47,201010,,,A*71
$GPRMC,010013.000,A,3748.7906,N,12217.8678,W,0.10,92.84,201010,,,A*4D
$GPRMC,010014.000,A,3748.7908,N,12217.8677,W,0.14,114.98,201010,,,A*7D
$GPRMC,010015.000,A,3748.7911,N,12217.8675,W,0.12,20.41,201010,,,A*42
$GPRMC,010016.000,A,3748.7909,N,12217.8676,W,0.13,155.16,201010,,,A*7B
$GPRMC,010017.000,A,3748.7908,N,12217.8676,W,0.08,280.33,201010,,,A*7D
$GPRMC,010018.000,A,3748.7910,N,12217.8675,W,0.12,311.57,201010,,,A*78
$GPRMC,010019.000,A,3748.7912,N,12217.8674,W,0.10,334.10,201010,,,A*7C
$GPRMC,010020.000,A,3748.7913,N,12217.8672,W,0.24,94.65,201010,,,A*4D
$GPRMC,010021.000,A,3748.7914,N,12217.8670,W,0.35,107.44,201010,,,A*71
$GPRMC,010022.000,A,3748.7914,N,12217.8670,W,0.37,112.34,201010,,,A*73
$GPRMC,010023.000,A,3748.7913,N,12217.8669,W,0.54,94.13,201010,,,A*42
$GPRMC,010024.000,A,3748.7911,N,12217.8672,W,0.48,341.58,201010,,,A*74
$GPRMC,010025.000,A,3748.7910,N,12217.8675,W,0.44,294.69,201010,,,A*74
$GPRMC,010026.000,A,3748.7910,N,12217.8676,W,0.18,301.93,201010,,,A*75
$GPRMC,010027.000,A,3748.7911,N,12217.8676,W,0.35,308.68,201010,,,A*77
$GPRMC,010028.000,A,3748.7910,N,12217.8677,W,0.13,15.27,201010,,,A*48
$GPRMC,010029.000,A,3748.7908,N,12217.8678,W,0.31,261.92,201010,,,A*70
$GPRMC,010030.000,A,3748.7906,N,12217.8679,W,0.37,263.55,201010,,,A*78
$GPRMC,010031.000,A,3748.7904,N,12217.8680,W,0.07,158.75,201010,,,A*77
$GPRMC,010032.000,A,3748.7904,N,12217.8680,W,0.26,41.98,201010,,,A*4D
$GPRMC,010033.000,A,3748.7903,N,12217.8680,W,0.09,115.25,201010,,,A*70
$GPRMC,010034.000,A,3748.7902,N,12217.8680,W,0.36,120.10,201010,,,A*7A
$GPRMC,010035.000,A,3748.7901,N,12217.8680,W,0.14,166.99,201010,,,A*7B
$GPRMC,010036.000,A,3748.7900,N,12217.8679,W,0.27,107.33,201010,,,A*78
$GPRMC,010037.000,A,3748.7900,N,12217.8679,W,0.18,171.72,201010,,,A*71
$GPRMC,010038.000,A,3748.7899,N,12217.8680,W,0.27,146.42,201010,,,A*72
$GPRMC,010039.000,A,3748.7898,N,12217.8681,W,0.18,215.42,201010,,,A*7A
$GPRMC,010040.000,A,3748.7900,N,12217.8683,W,0.25,193.12,201010,,,A*70
$GPRMC,010041.000,A,3748.7902,N,12217.8685,W,0.14,151.63,201010,,,A*7F
$GPRMC,010042.000,A,3748.7902,N,12217.8682,W,0.41,102.01,201010,,,A*79
$GPRMC,010043.000,A,3748.7903,N,12217.8681,W,0.28,92.72,201010,,,A*49
$GPRMC,010044.000,A,3748.7902,N,12217.8681,W,0.23,38.90,201010,,,A*48
$GPRMC,010045.000,A,3748.7902,N,12217.8681,W,0.12,17.45,201010,,,A*4E
$GPRMC,010046.000,A,3748.7901,N,12217.8681,W,0.12,273.16,201010,,,A*78
$GPRMC,010047.000,A,3748.7901,N,12217.8681,W,0.26,327.61,201010,,,A*7E
$GPRMC,010048.000,A,3748.7901,N,12217.8681,W,0.16,91.54,201010,,,A*4A
$GPRMC,010049.000,A,3748.7900,N,12217.8680,W,0.35,132.06,201010,,,A*75
$GPRMC,010050.000,A,3748.7899,N,12217.8680,W,0.48,136.48,201010,,,A*78
$GPRMC,010051.000,A,3748.7897,N,12217.8679,W,0.25,177.93,201010,,,A*79
$GPRMC,010052.000,A,3748.7897,N,12217.8679,W,0.16,256.11,201010,,,A*70
$GPRMC,010053.000,A,3748.7897,N,12217.8680,W,0.06,244.28,201010,,,A*7F
$GPRMC,010054.000,A,3748.7898,N,12217.8681,W,0.10,339.15,201010,,,A*74
$GPRMC,010055.000,A,3748.7900,N,12217.8682,W,0.51,331.23,201010,,,A*7E
$GPRMC,010056.000,A,3748.7900,N,12217.8682,W,0.50,323.51,201010,,,A*7A
$GPRMC,010057.000,A,3748.7900,N,12217.8681,W,0.14,340.21,201010,,,A*7A
$GPRMC,010058.000,A,3748.7900,N,12217.8683,W,0.31,353.56,201010,,,A*72
$GPRMC,010059.000,A,3748.7900,N,12217.8683,W,0.25,32.67,201010,,,A*40
$GPRMC,010100.000,A,3748.7899,N,12217.8684,W,0.19,133.38,201010,,,A*7E
$GPRMC,010101.000,A,3748.7898,N,12217.8685,W,0.25,51.41,201010,,,A*4B
$GPRMC,010102.000,A,3748.7897,N,12217.8685,W,0.26,30.87,201010,,,A*49
$GPRMC,010103.000,A,3748.7897,N,12217.8686,W,0.31,350.74,201010,,,A*74
$GPRMC,010104.000,A,3748.7896,N,12217.8687,W,0.46,332.23,201010,,,A*75
$GPRMC,010105.000,A,3748.7897,N,12217.8690,W,0.89,313.49,201010,,,A*7F
$GPRMC,010106.000,A,3748.7897,N,12217.8692,W,0.82,310.02,201010,,,A*79
$GPRMC,010107.000,A,3748.7897,N,12217.8694,W,0.70,305.06,201010,,,A*73
$GPRMC,010108.000,A,3748.7897,N,12217.8694,W,0.32,355.16,201010,,,A*7E
$GPRMC,010109.000,A,3748.7897,N,12217.8694,W,0.22,14.11,201010,,,A*4F
$GPRMC,010110.000,A,3748.7896,N,12217.8693,W,0.19,156.31,201010,,,A*7C
$GPRMC,010111.000,A,3748.7895,N,12217.8693,W,0.17,243.32,201010,,,A*74
$GPRMC,010112.000,A,3748.7894,N,12217.8693,W,0.22,160.98,201010,,,A*72
$GPRMC,010113.000,A,3748.7893,N,12217.8693,W,0.12,264.83,201010,,,A*7A
$GPRMC,010114.000,A,3748.7893,N,12217.8693,W,0.11,5.97,201010,,,A*7E
$GPRMC,010115.000,A,3748.7892,N,12217.8692,W,0.16,14.32,201010,,,A*47
$GPRMC,010116.000,A,3748.7893,N,12217.8692,W,0.08,60.05,201010,,,A*4D
$GPRMC,010117.000,A,3748.7893,N,12217.8693,W,0.19,23.71,201010,,,A*49
$GPRMC,010118.000,A,3748.7893,N,12217.8693,W,0.37,5.20,201010,,,A*7A
$GPRMC,010119.000,A,3748.7893,N,12217.8693,W,0.49,35.42,201010,,,A*45
$GPRMC,010120.000,A,3748.7893,N,12217.8692,W,0.35,356.00,201010,,,A*75
$GPRMC,010121.000,A,3748.7891,N,12217.8692,W,0.10,256.61,201010,,,A*77
$GPRMC,010122.000,A,3748.7890,N,12217.8692,W,0.48,138.82,201010,,,A*7E
$GPRMC,010123.000,A,3748.7887,N,12217.8691,W,0.39,152.62,201010,,,A*7E
$GPRMC,010124.000,A,3748.7885,N,12217.8690,W,0.66,141.42,201010,,,A*70
$GPRMC,010125.000,A,3748.7883,N,12217.8689,W,0.12,98.58,201010,,,A*42
$GPRMC,010126.000,A,3748.7882,N,12217.8688,W,0.19,123.22,201010,,,A*76
$GPRMC,010127.000,A,3748.7880,N,12217.8688,W,0.33,199.12,201010,,,A*7F
$GPRMC,010128.000,A,3748.7879,N,12217.8688,W,0.12,217.67,201010,,,A*72
$GPRMC,010129.000,A,3748.7878,N,12217.8688,W,0.42,308.34,201010,,,A*7E
$GPRMC,010130.000,A,3748.7874,N,12217.8689,W,0.30,311.10,201010,,,A*70
$GPRMC,010131.000,A,3748.7875,N,12217.8690,W,0.48,314.18,201010,,,A*7A
$GPRMC,010132.000,A,3748.7878,N,12217.8691,W,0.59,316.11,201010,,,A*7E
$GPRMC,010133.000,A,3748.7881,N,12217.8691,W,0.73,317.24,201010,,,A*76
$GPRMC,010134.000,A,3748.7884,N,12217.8690,W,0.19,25.62,201010,,,A*49
$GPRMC,010135.000,A,3748.7885,N,12217.8691,W,0.16,116.92,201010,,,A*79
$GPRMC,010136.000,A,3748.7887,N,12217.8690,W,0.14,133.93,201010,,,A*7D
$GPRMC,010137.000,A,3748.7887,N,12217.8688,W,0.22,353.60,201010,,,A*78
$GPRMC,010138.000,A,3748.7888,N,12217.8689,W,0.24,323.29,201010,,,A*75
$GPRMC,010139.000,A,3748.7888,N,12217.8689,W,0.12,143.11,201010,,,A*7E
$GPRMC,010140.000,A,3748.7888,N,12217.8690,W,0.31,141.74,201010,,,A*78
$GPRMC,010141.000,A,3748.7888,N,12217.8689,W,0.25,138.92,201010,,,A*72
$GPRMC,010142.000,A,3748.7889,N,12217.8688,W,0.38,120.53,201010,,,A*79
$GPRMC,010143.000,A,3748.7890,N,12217.8686,W,0.50,121.59,201010,,,A*7B
$GPRMC,010144.000,A,3748.7891,N,12217.8684,W,0.33,113.73,201010,,,A*73
$GPRMC,010145.000,A,3748.7893,N,12217.8683,W,0.10,306.37,201010,,,A*70
$GPRMC,010146.000,A,3748.7895,N,12217.8682,W,0.16,83.41,201010,,,A*4D
$GPRMC,010147.000,A,3748.7896,N,12217.8681,W,0.46,101.40,201010,,,A*73
$GPRMC,010148.000,A,3748.7897,N,12217.8680,W,0.14,87.26,201010,,,A*44
$GPRMC,010149.000,A,3748.7899,N,12217.8679,W,0.18,13.37,201010,,,A*4C
$GPRMC,010150.000,A,3748.7900,N,12217.8678,W,0.11,102.61,201010,,,A*7F
$GPRMC,010151.000,A,3748.7901,N,12217.8677,W,0.25,96.42,201010,,,A*4A
$GPRMC,010152.000,A,3748.7902,N,12217.8677,W,0.09,303.12,201010,,,A*7E
$GPRMC,010153.000,A,3748.7903,N,12217.8677,W,0.08,318.66,201010,,,A*76
$GPRMC,010154.000,A,3748.7904,N,12217.8677,W,0.09,276.46,201010,,,A*7C
$GPRMC,010155.000,A,3748.7905,N,12217.8677,W,0.07,150.37,201010,,,A*73
$GPRMC,010156.000,A,3748.7905,N,12217.8677,W,0.25,116.12,201010,,,A*75
$GPRMC,010157.000,A,3748.7906,N,12217.8676,W,0.21,102.49,201010,,,A*79
$GPRMC,010158.000,A,3748.7907,N,12217.8676,W,0.17,320.25,201010,,,A*7A
$GPRMC,010159.000,A,3748.7908,N,12217.8677,W,0.28,281.81,201010,,,A*7D
$GPRMC,010200.000,A,3748.7908,N,12217.8677,W,0.10,68.74,201010,,,A*46
$GPRMC,010201.000,A,3748.7909,N,12217.8677,W,0.17,63.44,201010,,,A*49
$GPRMC,010202.000,A,3748.7910,N,12217.8677,W,0.11,321.89,201010,,,A*70
$GPRMC,010203.000,A,3748.7910,N,12217.8677,W,0.28,92.68,201010,,,A*4F
$GPRMC,010204.000,A,3748.7910,N,12217.8676,W,0.28,118.59,201010,,,A*78
$GPRMC,010205.000,A,3748.7910,N,12217.8675,W,0.10,25.64,201010,,,A*40
$GPRMC,010206.000,A,3748.7910,N,12217.8673,W,0.12,23.69,201010,,,A*4C
$GPRMC,010207.000,A,3748.7910,N,12217.8672,W,0.18,19.55,201010,,,A*40
$GPRMC,010208.000,A,3748.7909,N,12217.8670,W,0.07,199.08,201010,,,A*7A
$GPRMC,010209.000,A,3748.7908,N,12217.8669,W,0.26,160.95,201010,,,A*73
$GPRMC,010210.000,A,3748.7906,N,12217.8665,W,0.27,147.45,201010,,,A*70
$GPRMC,010211.000,A,3748.7905,N,12217.8664,W,0.16,195.79,201010,,,A*71
$GPRMC,010212.000,A,3748.7906,N,12217.8666,W,0.13,293.83,201010,,,A*76
$GPRMC,010213.000,A,3748.7906,N,12217.8666,W,0.08,31.76,201010,,,A*4D
$GPRMC,010214.000,A,3748.7908,N,12217.8669,W,0.56,307.76,201010,,,A*76
$GPRMC,010215.000,A,3748.7908,N,12217.8670,W,0.14,357.03,201010,,,A*7E
$GPRMC,010216.000,A,3748.7909,N,12217.8670,W,0.39,138.44,201010,,,A*7B
$GPRMC,010217.000,A,3748.7908,N,12217.8670,W,0.11,192.80,201010,,,A*79
$GPRMC,010218.000,A,3748.7908,N,12217.8671,W,0.17,210.52,201010,,,A*77
$GPRMC,010219.000,A,3748.7907,N,12217.8670,W,0.19,229.26,201010,,,A*7F
$GPRMC,010220.000,A,3748.7909,N,12217.8674,W,0.11,181.73,201010,,,A*76
$GPRMC,010221.000,A,3748.7910,N,12217.8678,W,0.17,201.65,201010,,,A*79
$GPRMC,010222.000,A,3748.7911,N,12217.8681,W,0.11,188.03,201010,,,A*79
$GPRMC,010223.000,A,3748.7910,N,12217.8680,W,0.27,145.54,201010,,,A*7E
$GPRMC,010224.000,A,3748.7909,N,12217.8686,W,0.15,130.63,201010,,,A*70
$GPRMC,010225.000,A,3748.7910,N,12217.8689,W,0.18,195.62,201010,,,A*75
$GPRMC,010226.000,A,3748.7909,N,12217.8687,W,0.03,297.81,201010,,,A*76
$GPRMC,010227.000,A,3748.7909,N,12217.8685,W,0.04,42.41,201010,,,A*44
$GPRMC,010228.000,A,3748.7908,N,12217.8683,W,0.34,116.82,201010,,,A*70
$GPRMC,010229.000,A,3748.7908,N,12217.8681,W,0.10,15.30,201010,,,A*4E
$GPRMC,010230.000,A,3748.7908,N,12217.8680,W,0.14,158.79,201010,,,A*76
$GPRMC,010231.000,A,3748.7907,N,12217.8680,W,0.08,105.52,201010,,,A*74
$GPRMC,010232.000,A,3748.7907,N,12217.8679,W,0.10,207.34,201010,,,A*79
$GPRMC,010233.000,A,3748.7906,N,12217.8679,W,0.17,252.52,201010,,,A*7E
$GPRMC,010234.000,A,3748.7906,N,12217.8679,W,0.16,81.10,201010,,,A*42
$GPRMC,010235.000,A,3748.7906,N,12217.8678,W,0.20,84.06,201010,,,A*45
$GPRMC,010236.000,A,3748.7905,N,12217.8679,W,0.20,96.03,201010,,,A*42
$GPRMC,010237.000,A,3748.7903,N,12217.8679,W,0.27,121.83,201010,,,A*77
$GPRMC,010238.000,A,3748.7901,N,12217.8680,W,0.11,244.55,201010,,,A*72
$GPRMC,010239.000,A,3748.7899,N,12217.8682,W,0.17,239.86,201010,,,A*73
$GPRMC,010240.000,A,3748.7898,N,12217.8683,W,0.19,237.34,201010,,,A*74
$GPRMC,010241.000,A,3748.7897,N,12217.8684,W,0.08,346.42,201010,,,A*7B
$GPRMC,010242.000,A,3748.7897,N,12217.8683,W,0.17,112.82,201010,,,A*7E
$GPRMC,010243.000,A,3748.7897,N,12217.8682,W,0.20,62.44,201010,,,A*46
$GPRMC,010244.000,A,3748.7896,N,12217.8681,W,0.41,106.44,201010,,,A*77
$GPRMC,010245.000,A,3748.7895,N,12217.8681,W,0.06,196.09,201010,,,A*76
$GPRMC,010246.000,A,3748.7894,N,12217.8682,W,0.21,101.34,201010,,,A*72
$GPRMC,010247.000,A,3748.7893,N,12217.8682,W,0.21,270.11,201010,,,A*76
$GPRMC,010248.000,A,3748.7892,N,12217.8683,W,0.19,233.88,201010,,,A*75
$GPRMC,010249.000,A,3748.7891,N,12217.8684,W,0.10,131.15,201010,,,A*7C
$GPRMC,010250.000,A,3748.7890,N,12217.8684,W,0.13,196.96,201010,,,A*70
$GPRMC,010251.000,A,3748.7890,N,12217.8683,W,0.08,102.09,201010,,,A*77
$GPRMC,010252.000,A,3748.7890,N,12217.8683,W,0.03,177.31,201010,,,A*76
$GPRMC,010253.000,A,3748.7890,N,12217.8683,W,0.23,92.82,201010,,,A*47
$GPRMC,010254.000,A,3748.7890,N,12217.8682,W,0.05,143.87,201010,,,A*7D
$GPRMC,010255.000,A,3748.7890,N,12217.8682,W,0.12,85.24,201010,,,A*48
$GPRMC,010256.000,A,3748.7890,N,12217.8682,W,0.10,99.64,201010,,,A*40
$GPRMC,010257.000,A,3748.7889,N,12217.8681,W,0.13,139.64,201010,,,A*72
$GPRMC,010258.000,A,3748.7889,N,12217.8682,W,0.12,249.55,201010,,,A*79
$GPRMC,010259.000,A,3748.7889,N,12217.8682,W,0.19,243.56,201010,,,A*7A
$GPRMC,010300.000,A,3748.7889,N,12217.8683,W,0.13,271.20,201010,,,A*7C
$GPRMC,010301.000,A,3748.7888,N,12217.8684,W,0.08,129.24,201010,,,A*7B
$GPRMC,010302.000,A,3748.7887,N,12217.8684,W,0.19,87.69,201010,,,A*4B
$GPRMC,010303.000,A,3748.7887,N,12217.8684,W,0.10,235.36,201010,,,A*72
$GPRMC,010304.000,A,3748.7886,N,12217.8684,W,0.07,196.91,201010,,,A*75
$GPRMC,010305.000,A,3748.7885,N,12217.8685,W,0.21,55.84,201010,,,A*48
$GPRMC,010306.000,A,3748.7885,N,12217.8685,W,0.15,225.91,201010,,,A*7D
$GPRMC,010307.000,A,3748.7884,N,12217.8685,W,0.08,191.39,201010,,,A*7F
$GPRMC,010308.000,A,3748.7883,N,12217.8686,W,0.14,254.04,201010,,,A*7D
$GPRMC,010309.000,A,3748.7882,N,12217.8686,W,0.10,225.49,201010,,,A*76
$GPRMC,010310.000,A,3748.7882,N,12217.8687,W,0.02,282.86,201010,,,A*72
$GPRMC,010311.000,A,3748.7881,N,12217.8687,W,0.09,255.00,201010,,,A*7F
$GPRMC,010312.000,A,3748.7880,N,12217.8685,W,0.10,259.28,201010,,,A*71
$GPRMC,010313.000,A,3748.7878,N,12217.8684,W,0.21,265.98,201010,,,A*70
$GPRMC,010314.000,A,3748.7877,N,12217.8683,W,0.17,216.34,201010,,,A*78
$GPRMC,010315.000,A,3748.7875,N,12217.8682,W,0.13,97.10,201010,,,A*43
$GPRMC,010316.000,A,3748.7874,N,12217.8681,W,0.14,225.35,201010,,,A*79
$GPRMC,010317.000,A,3748.7873,N,12217.8680,W,0.21,237.17,201010,,,A*7B
$GPRMC,010318.000,A,3748.7872,N,12217.8680,W,0.21,196.66,201010,,,A*7B
$GPRMC,010319.000,A,3748.7871,N,12217.8680,W,0.11,256.10,201010,,,A*74
$GPRMC,010320.000,A,3748.7870,N,12217.8680,W,0.29,222.60,201010,,,A*70
$GPRMC,010321.000,A,3748.7870,N,12217.8679,W,0.08,129.51,201010,,,A*7E
$GPRMC,010322.000,A,3748.7868,N,12217.8679,W,0.15,133.96,201010,,,A*78
$GPRMC,010323.000,A,3748.7866,N,12217.8678,W,0.78,207.34,201010,,,A*71
$GPRMC,010324.000,A,3748.7864,N,12217.8679,W,0.19,180.57,201010,,,A*7B
$GPRMC,010325.000,A,3748.7863,N,12217.8681,W,0.44,55.75,201010,,,A*4B
$GPRMC,010326.000,A,3748.7863,N,12217.8683,W,0.46,47.53,201010,,,A*4F
$GPRMC,010327.000,A,3748.7864,N,12217.8684,W,0.69,358.31,201010,,,A*7A
$GPRMC,010328.000,A,3748.7866,N,12217.8688,W,0.62,343.63,201010,,,A*7D
$GPRMC,010329.000,A,3748.7870,N,12217.8688,W,0.61,2.63,201010,,,A*7E
$GPRMC,010330.000,A,3748.7877,N,12217.8684,W,0.60,17.67,201010,,,A*4C
$GPRMC,010331.000,A,3748.7882,N,12217.8684,W,0.64,18.22,201010,,,A*4D
$GPRMC,010332.000,A,3748.7889,N,12217.8683,W,0.78,25.69,201010,,,A*4E
$GPRMC,010333.000,A,3748.7894,N,12217.8680,W,0.61,26.64,201010,,,A*46
$GPRMC,010334.000,A,3748.7893,N,12217.8678,W,0.43,34.16,201010,,,A*47
$GPRMC,010335.000,A,3748.7897,N,12217.8675,W,0.27,16.82,201010,,,A*40
$GPRMC,010336.000,A,3748.7896,N,12217.8677,W,0.09,311.91,201010,,,A*7A
$GPRMC,010337.000,A,3748.7900,N,12217.8676,W,0.15,131.37,201010,,,A*75
$GPRMC,010338.000,A,3748.7900,N,12217.8678,W,0.37,107.02,201010,,,A*77
$GPRMC,010339.000,A,3748.7897,N,12217.8676,W,0.28,81.66,201010,,,A*44
$GPRMC,010339.000,A,3748.7898,N,12217.8676,W,0.64,13.33,201010,,,A*48
$GPRMC,010340.000,A,3748.7898,N,12217.8676,W,0.62,16.19,201010,,,A*4D
$GPRMC,010341.000,A,3748.7896,N,12217.8680,W,0.34,215.55,201010,,,A*71
$GPRMC,010342.000,A,3748.7895,N,12217.8682,W,0.44,161.15,201010,,,A*70
$GPRMC,010343.000,A,3748.7894,N,12217.8684,W,0.29,177.03,201010,,,A*7D
$GPRMC,010344.000,A,3748.7893,N,12217.8686,W,0.18,134.15,201010,,,A*7D
$GPRMC,010345.000,A,3748.7892,N,12217.8688,W,0.11,322.65,201010,,,A*78
$GPRMC,010346.000,A,3748.7892,N,12217.8690,W,0.16,94.06,201010,,,A*4E
$GPRMC,010347.000,A,3748.7891,N,12217.8691,W,0.17,122.24,201010,,,A*70
$GPRMC,010348.000,A,3748.7891,N,12217.8692,W,0.29,103.49,201010,,,A*79
$GPRMC,010349.000,A,3748.7889,N,12217.8696,W,0.31,66.62,201010,,,A*47
$GPRMC,010350.000,A,3748.7888,N,12217.8698,W,0.28,144.03,201010,,,A*7E
$GPRMC,010351.000,A,3748.7889,N,12217.8699,W,0.26,206.84,201010,,,A*7B
$GPRMC,010352.000,A,3748.7891,N,12217.8700,W,0.34,310.07,201010,,,A*7E
$GPRMC,010353.000,A,3748.7894,N,12217.8701,W,0.44,323.12,201010,,,A*78
$GPRMC,010354.000,A,3748.7896,N,12217.8703,W,0.43,293.37,201010,,,A*75
$GPRMC,010355.000,A,3748.7897,N,12217.8706,W,0.53,257.98,201010,,,A*7C
$GPRMC,010356.000,A,3748.7896,N,12217.8707,W,0.86,228.94,201010,,,A*73
$GPRMC,010357.000,A,3748.7891,N,12217.8709,W,1.67,210.06,201010,,,A*75
$GPRMC,010358.000,A,3748.7885,N,12217.8707,W,1.37,192.05,201010,,,A*7E
$GPRMC,010359.000,A,3748.7883,N,12217.8706,W,0.95,195.85,201010,,,A*7E
$GPRMC,010400.000,A,3748.7878,N,12217.8705,W,1.03,176.76,201010,,,A*7D
$GPRMC,010401.000,A,3748.7875,N,12217.8700,W,1.28,132.29,201010,,,A*77
$GPRMC,010402.000,A,3748.7875,N,12217.8697,W,0.92,108.54,201010,,,A*78
$GPRMC,010403.000,A,3748.7879,N,12217.8693,W,0.38,113.20,201010,,,A*78
$GPRMC,010404.000,A,3748.7883,N,12217.8700,W,0.25,286.30,201010,,,A*73
$GPRMC,010405.000,A,3748.7887,N,12217.8696,W,0.64,295.39,201010,,,A*76
$GPRMC,010406.000,A,3748.7888,N,12217.8697,W,0.59,319.86,201010,,,A*74
$GPRMC,010407.000,A,3748.7891,N,12217.8695,W,0.47,296.49,201010,,,A*75
$GPRMC,010408.000,A,3748.7892,N,12217.8693,W,0.05,90.28,201010,,,A*4A
$GPRMC,010409.000,A,3748.7890,N,12217.8695,W,0.26,192.37,201010,,,A*73
$GPRMC,010410.000,A,3748.7887,N,12217.8701,W,0.64,221.49,201010,,,A*75
$GPRMC,010411.000,A,3748.7884,N,12217.8707,W,0.89,254.04,201010,,,A*79
$GPRMC,010412.000,A,3748.7884,N,12217.8707,W,0.62,324.71,201010,,,A*7B
$GPRMC,010413.000,A,3748.7882,N,12217.8711,W,0.65,265.82,201010,,,A*74
$GPRMC,010414.000,A,3748.7880,N,12217.8712,W,0.58,237.03,201010,,,A*72
$GPRMC,010415.000,A,3748.7878,N,12217.8718,W,0.66,242.08,201010,,,A*7A
$GPRMC,010416.000,A,3748.7881,N,12217.8717,W,0.47,44.91,201010,,,A*47
$GPRMC,010417.000,A,3748.7884,N,12217.8716,W,1.14,56.35,201010,,,A*48
$GPRMC,010418.000,A,3748.7885,N,12217.8711,W,0.70,79.11,201010,,,A*49
$GPRMC,010419.000,A,3748.7879,N,12217.8704,W,1.16,103.84,201010,,,A*7E
$GPRMC,010420.000,A,3748.7879,N,12217.8697,W,1.17,95.21,201010,,,A*4F
$GPRMC,010421.000,A,3748.7879,N,12217.8691,W,0.59,102.55,201010,,,A*7F
$GPRMC,010422.000,A,3748.7878,N,12217.8693,W,0.60,138.83,201010,,,A*77
$GPRMC,010423.000,A,3748.7879,N,12217.8695,W,0.82,91.39,201010,,,A*4E
$GPRMC,010424.000,A,3748.7875,N,12217.8693,W,0.65,133.65,201010,,,A*7A
$GPRMC,010425.000,A,3748.7877,N,12217.8692,W,0.20,11.77,201010,,,A*4B
$GPRMC,010426.000,A,3748.7875,N,12217.8694,W,0.24,270.47,201010,,,A*7E
$GPRMC,010427.000,A,3748.7871,N,12217.8692,W,0.52,229.39,201010,,,A*79
$GPRMC,010428.000,A,3748.7866,N,12217.8696,W,0.91,221.19,201010,,,A*71
$GPRMC,010429.000,A,3748.7861,N,12217.8698,W,0.97,257.80,201010,,,A*7E
$GPRMC,010430.000,A,3748.7863,N,12217.8697,W,0.51,264.76,201010,,,A*78
$GPRMC,010431.000,A,3748.7864,N,12217.8696,W,0.54,283.63,201010,,,A*77
$GPRMC,010432.000,A,3748.7866,N,12217.8696,W,0.64,347.09,201010,,,A*70
$GPRMC,010433.000,A,3748.7870,N,12217.8694,W,0.57,332.60,201010,,,A*79
$GPRMC,010434.000,A,3748.7875,N,12217.8691,W,0.26,88.74,201010,,,A*4F
$GPRMC,010435.000,A,3748.7878,N,12217.8688,W,0.19,293.25,201010,,,A*7B
$GPRMC,010436.000,A,3748.7875,N,12217.8677,W,0.29,13.06,201010,,,A*4D
$GPRMC,010437.000,A,3748.7875,N,12217.8672,W,0.72,55.37,201010,,,A*47
$GPRMC,010438.000,A,3748.7876,N,12217.8673,W,0.45,83.83,201010,,,A*4A
$GPRMC,010439.000,A,3748.7875,N,12217.8675,W,0.76,107.21,201010,,,A*7B
$GPRMC,010440.000,A,3748.7874,N,12217.8677,W,0.88,151.36,201010,,,A*72
$GPRMC,010441.000,A,3748.7875,N,12217.8679,W,0.76,118.80,201010,,,A*7D
$GPRMC,010442.000,A,3748.7879,N,12217.8680,W,0.44,83.35,201010,,,A*48
$GPRMC,010443.000,A,3748.7881,N,12217.8680,W,0.46,340.37,201010,,,A*72
$GPRMC,010444.000,A,3748.7880,N,12217.8680,W,0.97,327.76,201010,,,A*7C
$GPRMC,010445.000,A,3748.7883,N,12217.8677,W,0.27,339.40,201010,,,A*77
$GPRMC,010446.000,A,3748.7884,N,12217.8678,W,0.66,269.27,201010,,,A*7C
$GPRMC,010447.000,A,3748.7884,N,12217.8682,W,0.72,267.72,201010,,,A*73
$GPRMC,010448.000,A,3748.7887,N,12217.8686,W,0.94,305.97,201010,,,A*7D
$GPRMC,010449.000,A,3748.7892,N,12217.8690,W,0.85,298.82,201010,,,A*7E
$GPRMC,010450.000,A,3748.7898,N,12217.8698,W,0.95,298.35,201010,,,A*79
$GPRMC,010451.000,A,3748.7900,N,12217.8694,W,0.88,313.36,201010,,,A*79
$GPRMC,010452.000,A,3748.7901,N,12217.8695,W,0.38,4.36,201010,,,A*74
$GPRMC,010453.000,A,3748.7902,N,12217.8688,W,1.33,34.08,201010,,,A*4E
$GPRMC,010454.000,A,3748.7908,N,12217.8681,W,1.40,35.46,201010,,,A*45
$GPRMC,010455.000,A,3748.7908,N,12217.8676,W,0.60,24.53,201010,,,A*4B
$GPRMC,010456.000,A,3748.7908,N,12217.8676,W,0.59,42.51,201010,,,A*40
$GPRMC,010457.000,A,3748.7910,N,12217.8678,W,0.68,30.92,201010,,,A*4E
$GPRMC,010458.000,A,3748.7909,N,12217.8682,W,0.11,173.93,201010,,,A*75
$GPRMC,010459.000,A,3748.7910,N,12217.8688,W,0.12,267.00,201010,,,A*79
$GPRMC,010500.000,A,3748.7909,N,12217.8688,W,1.03,28.99,201010,,,A*44
$GPRMC,010501.000,A,3748.7912,N,12217.8696,W,1.87,340.26,201010,,,A*75
$GPRMC,010502.000,A,3748.7914,N,12217.8699,W,1.95,334.40,201010,,,A*7F
$GPRMC,010503.000,A,3748.7918,N,12217.8703,W,1.55,337.57,201010,,,A*79
$GPRMC,010504.000,A,3748.7918,N,12217.8710,W,0.73,347.32,201010,,,A*7D
$GPRMC,010505.000,A,3748.7919,N,12217.8710,W,0.82,333.88,201010,,,A*71
$GPRMC,010506.000,A,3748.7926,N,12217.8706,W,0.43,261.42,201010,,,A*74
$GPRMC,010507.000,A,3748.7925,N,12217.8699,W,0.33,252.03,201010,,,A*73
$GPRMC,010508.000,A,3748.7915,N,12217.8698,W,0.29,300.33,201010,,,A*70
$GPRMC,010509.000,A,3748.7917,N,12217.8693,W,1.42,325.11,201010,,,A*73
$GPRMC,010510.000,A,3748.7915,N,12217.8691,W,1.26,312.93,201010,,,A*77
$GPRMC,010511.000,A,3748.7918,N,12217.8688,W,1.47,335.18,201010,,,A*72
$GPRMC,010512.000,A,3748.7921,N,12217.8686,W,1.05,336.03,201010,,,A*7A
$GPRMC,010513.000,A,3748.7919,N,12217.8691,W,0.89,228.35,201010,,,A*78
$GPRMC,010514.000,A,3748.7914,N,12217.8694,W,0.32,240.43,201010,,,A*78
$GPRMC,010515.000,A,3748.7910,N,12217.8695,W,0.24,121.25,201010,,,A*7F
$GPRMC,010516.000,A,3748.7906,N,12217.8694,W,0.66,224.77,201010,,,A*7D
$GPRMC,010517.000,A,3748.7906,N,12217.8696,W,0.18,278.79,201010,,,A*70
$GPRMC,010518.000,A,3748.7910,N,12217.8699,W,0.30,316.27,201010,,,A*7F
$GPRMC,010519.000,A,3748.7911,N,12217.8698,W,0.30,260.00,201010,,,A*7B
$GPRMC,010520.000,A,3748.7910,N,12217.8699,W,0.74,280.40,201010,,,A*7B
$GPRMC,010521.000,A,3748.7913,N,12217.8702,W,1.04,304.44,201010,,,A*75
$GPRMC,010522.000,A,3748.7915,N,12217.8705,W,0.79,296.69,201010,,,A*79
$GPRMC,010523.000,A,3748.7914,N,12217.8703,W,0.13,150.60,201010,,,A*73
$GPRMC,010524.000,A,3748.7912,N,12217.8699,W,0.81,114.28,201010,,,A*77
$GPRMC,010525.000,A,3748.7910,N,12217.8693,W,1.11,102.38,201010,,,A*70
$GPRMC,010526.000,A,3748.7909,N,12217.8689,W,0.62,71.06,201010,,,A*4D
$GPRMC,010527.000,A,3748.7909,N,12217.8689,W,0.35,36.41,201010,,,A*4E
$GPRMC,010528.000,A,3748.7906,N,12217.8684,W,0.27,259.35,201010,,,A*78
$GPRMC,010529.000,A,3748.7904,N,12217.8678,W,0.40,340.55,201010,,,A*76
$GPRMC,010530.000,A,3748.7901,N,12217.8679,W,0.24,215.27,201010,,,A*7C
$GPRMC,010531.000,A,3748.7895,N,12217.8674,W,0.75,156.12,201010,,,A*7A
$GPRMC,010532.000,A,3748.7892,N,12217.8670,W,1.09,122.88,201010,,,A*70
$GPRMC,010533.000,A,3748.7891,N,12217.8668,W,0.21,79.66,201010,,,A*4F
$GPRMC,010534.000,A,3748.7887,N,12217.8667,W,0.43,249.35,201010,,,A*73
$GPRMC,010535.000,A,3748.7888,N,12217.8673,W,0.89,273.97,201010,,,A*7F
$GPRMC,010536.000,A,3748.7888,N,12217.8677,W,0.95,331.73,201010,,,A*78
$GPRMC,010537.000,A,3748.7893,N,12217.8688,W,0.73,323.66,201010,,,A*7C
$GPRMC,010538.000,A,3748.7896,N,12217.8691,W,0.82,353.37,201010,,,A*73
$GPRMC,010539.000,A,3748.7898,N,12217.8688,W,0.70,2.37,201010,,,A*7E
$GPRMC,010540.000,A,3748.7897,N,12217.8686,W,0.59,304.99,201010,,,A*7B
$GPRMC,010541.000,A,3748.7895,N,12217.8686,W,0.40,301.82,201010,,,A*7F
$GPRMC,010542.000,A,3748.7895,N,12217.8686,W,0.27,207.68,201010,,,A*7E
$GPRMC,010543.000,A,3748.7894,N,12217.8688,W,0.28,17.30,201010,,,A*41
$GPRMC,010544.000,A,3748.7893,N,12217.8689,W,0.38,36.47,201010,,,A*42
$GPRMC,010545.000,A,3748.7893,N,12217.8691,W,0.17,73.73,201010,,,A*41
$GPRMC,010546.000,A,3748.7892,N,12217.8692,W,0.13,158.61,201010,,,A*7F
$GPRMC,010547.000,A,3748.7891,N,12217.8693,W,0.07,98.43,201010,,,A*44
$GPRMC,010548.000,A,3748.7891,N,12217.8693,W,0.27,36.81,201010,,,A*43
$GPRMC,010549.000,A,3748.7891,N,12217.8693,W,0.09,170.58,201010,,,A*79
$GPRMC,010550.000,A,3748.7891,N,12217.8693,W,0.09,117.87,201010,,,A*72
$GPRMC,010551.000,A,3748.7891,N,12217.8691,W,0.13,69.76,201010,,,A*4C
$GPRMC,010552.000,A,3748.7892,N,12217.8690,W,0.11,69.43,201010,,,A*49
$GPRMC,010553.000,A,3748.7895,N,12217.8686,W,0.38,9.85,201010,,,A*7F
$GPRMC,010554.000,A,3748.7899,N,12217.8682,W,0.73,13.61,201010,,,A*4E
$GPRMC,010555.000,A,3748.7902,N,12217.8679,W,0.72,23.28,201010,,,A*47
$GPRMC,010556.000,A,3748.7904,N,12217.8674,W,0.69,69.37,201010,,,A*45
$GPRMC,010557.000,A,3748.7904,N,12217.8673,W,0.33,43.15,201010,,,A*44
$GPRMC,010558.000,A,3748.7910,N,12217.8675,W,0.43,22.37,201010,,,A*48
$GPRMC,010559.000,A,3748.7917,N,12217.8674,W,0.54,42.20,201010,,,A*49
$GPRMC,010600.000,A,3748.7919,N,12217.8673,W,0.38,333.77,201010,,,A*72
$GPRMC,010601.000,A,3748.7923,N,12217.8672,W,0.65,341.09,201010,,,A*7F
$GPRMC,010602.000,A,3748.7919,N,12217.8666,W,0.18,30.91,201010,,,A*4E
$GPRMC,010603.000,A,3748.7916,N,12217.8664,W,0.17,226.68,201010,,,A*7E
$GPRMC,010604.000,A,3748.7914,N,12217.8661,W,0.27,180.20,201010,,,A*7E
$GPRMC,010605.000,A,3748.7911,N,12217.8654,W,0.86,143.02,201010,,,A*78
$GPRMC,010606.000,A,3748.7913,N,12217.8653,W,0.06,164.69,201010,,,A*7E
$GPRMC,010607.000,A,3748.7915,N,12217.8656,W,0.37,330.57,201010,,,A*70
$GPRMC,010608.000,A,3748.7917,N,12217.8654,W,0.09,279.85,201010,,,A*71
$GPRMC,010609.000,A,3748.7913,N,12217.8656,W,0.63,227.10,201010,,,A*7D
$GPRMC,010610.000,A,3748.7906,N,12217.8653,W,0.62,177.47,201010,,,A*71
$GPRMC,010611.000,A,3748.7903,N,12217.8656,W,0.73,256.57,201010,,,A*71
$GPRMC,010612.000,A,3748.7899,N,12217.8660,W,0.36,181.95,201010,,,A*73
$GPRMC,010613.000,A,3748.7900,N,12217.8657,W,0.43,123.64,201010,,,A*73
$GPRMC,010614.000,A,3748.7897,N,12217.8657,W,0.34,323.81,201010,,,A*72
$GPRMC,010615.000,A,3748.7891,N,12217.8663,W,0.28,204.75,201010,,,A*70
$GPRMC,010616.000,A,3748.7886,N,12217.8667,W,0.53,166.95,201010,,,A*74
$GPRMC,010617.000,A,3748.7883,N,12217.8671,W,0.36,100.03,201010,,,A*7B
$GPRMC,010618.000,A,3748.7883,N,12217.8674,W,0.10,97.64,201010,,,A*4B
$GPRMC,010619.000,A,3748.7886,N,12217.8671,W,0.38,69.23,201010,,,A*42
$GPRMC,010620.000,A,3748.7890,N,12217.8668,W,0.40,64.97,201010,,,A*4A
$GPRMC,010621.000,A,3748.7892,N,12217.8667,W,0.24,50.01,201010,,,A*4C
$GPRMC,010622.000,A,3748.7891,N,12217.8668,W,0.29,216.90,201010,,,A*76
$GPRMC,010623.000,A,3748.7888,N,12217.8670,W,0.17,86.69,201010,,,A*46
$GPRMC,010624.000,A,3748.7885,N,12217.8672,W,0.87,191.11,201010,,,A*7F
$GPRMC,010625.000,A,3748.7882,N,12217.8672,W,0.58,169.42,201010,,,A*7A
$GPRMC,010626.000,A,3748.7884,N,12217.8667,W,0.68,50.58,201010,,,A*48
$GPRMC,010627.000,A,3748.7883,N,12217.8661,W,0.90,60.35,201010,,,A*47
$GPRMC,010628.000,A,3748.7880,N,12217.8658,W,0.36,155.55,201010,,,A*7C
$GPRMC,010629.000,A,3748.7881,N,12217.8658,W,0.82,199.12,201010,,,A*70
$GPRMC,010630.000,A,3748.7878,N,12217.8660,W,0.54,182.46,201010,,,A*75
$GPRMC,010631.000,A,3748.7876,N,12217.8662,W,0.83,197.23,201010,,,A*75
$GPRMC,010632.000,A,3748.7870,N,12217.8660,W,0.56,150.34,201010,,,A*77
$GPRMC,010633.000,A,3748.7872,N,12217.8656,W,0.60,96.43,201010,,,A*4F
$GPRMC,010634.000,A,3748.7874,N,12217.8651,W,0.81,75.37,201010,,,A*48
$GPRMC,010635.000,A,3748.7875,N,12217.8647,W,0.74,77.52,201010,,,A*44
$GPRMC,010636.000,A,3748.7873,N,12217.8646,W,0.20,204.09,201010,,,A*79
$GPRMC,010637.000,A,3748.7873,N,12217.8653,W,0.59,242.36,201010,,,A*7C
$GPRMC,010638.000,A,3748.7871,N,12217.8655,W,0.78,269.68,201010,,,A*76
$GPRMC,010639.000,A,3748.7868,N,12217.8660,W,1.26,242.73,201010,,,A*70
$GPRMC,010640.000,A,3748.7869,N,12217.8669,W,1.29,262.05,201010,,,A*7A
$GPRMC,010641.000,A,3748.7871,N,12217.8676,W,1.26,278.11,201010,,,A*7D
$GPRMC,010642.000,A,3748.7873,N,12217.8683,W,0.73,255.97,201010,,,A*76
$GPRMC,010643.000,A,3748.7873,N,12217.8691,W,0.40,272.29,201010,,,A*74
$GPRMC,010644.000,A,3748.7876,N,12217.8691,W,0.43,66.97,201010,,,A*47
$GPRMC,010645.000,A,3748.7873,N,12217.8686,W,1.05,92.66,201010,,,A*43
$GPRMC,010646.000,A,3748.7875,N,12217.8676,W,0.89,94.12,201010,,,A*49
$GPRMC,010647.000,A,3748.7872,N,12217.8669,W,0.95,88.52,201010,,,A*45
$GPRMC,010648.000,A,3748.7873,N,12217.8665,W,0.79,66.14,201010,,,A*47
$GPRMC,010649.000,A,3748.7873,N,12217.8667,W,0.92,51.05,201010,,,A*45
$GPRMC,010650.000,A,3748.7874,N,12217.8666,W,1.25,50.26,201010,,,A*46
$GPRMC,010651.000,A,3748.7873,N,12217.8660,W,1.29,58.95,201010,,,A*4A
$GPRMC,010652.000,A,3748.7876,N,12217.8659,W,0.31,63.50,201010,,,A*4F
$GPRMC,010653.000,A,3748.7880,N,12217.8665,W,0.66,281.65,201010,,,A*72
$GPRMC,010654.000,A,3748.7889,N,12217.8671,W,0.55,266.72,201010,,,A*76
$GPRMC,010655.000,A,3748.7893,N,12217.8679,W,0.86,249.05,201010,,,A*77
$GPRMC,010656.000,A,3748.7899,N,12217.8676,W,0.42,12.19,201010,,,A*48
$GPRMC,010657.000,A,3748.7906,N,12217.8676,W,0.47,47.62,201010,,,A*47
$GPRMC,010658.000,A,3748.7903,N,12217.8678,W,0.25,262.42,201010,,,A*70
$GPRMC,010659.000,A,3748.7902,N,12217.8686,W,0.06,0.66,201010,,,A*70
$GPRMC,010700.000,A,3748.7905,N,12217.8696,W,0.56,296.66,201010,,,A*73
$GPRMC,010701.000,A,3748.7905,N,12217.8702,W,0.11,352.34,201010,,,A*73
$GPRMC,010702.000,A,3748.7902,N,12217.8705,W,0.18,193.26,201010,,,A*75
$GPRMC,010703.000,A,3748.7900,N,12217.8705,W,0.49,166.40,201010,,,A*78
$GPRMC,010704.000,A,3748.7898,N,12217.8703,W,0.09,143.33,201010,,,A*7E
$GPRMC,010705.000,A,3748.7895,N,12217.8701,W,0.36,197.36,201010,,,A*70
$GPRMC,010706.000,A,3748.7890,N,12217.8702,W,0.55,216.10,201010,,,A*7E
$GPRMC,010707.000,A,3748.7888,N,12217.8705,W,0.37,205.62,201010,,,A*72
$GPRMC,010708.000,A,3748.7890,N,12217.8708,W,0.20,240.47,201010,,,A*79
$GPRMC,010709.000,A,3748.7892,N,12217.8711,W,0.37,0.64,201010,,,A*73
$GPRMC,010710.000,A,3748.7895,N,12217.8711,W,0.63,45.56,201010,,,A*4D
$GPRMC,010711.000,A,3748.7897,N,12217.8715,W,0.30,237.96,201010,,,A*77
$GPRMC,010712.000,A,3748.7898,N,12217.8717,W,0.16,68.10,201010,,,A*4B
$GPRMC,010713.000,A,3748.7900,N,12217.8713,W,0.07,261.92,201010,,,A*7F
$GPRMC,010714.000,A,3748.7898,N,12217.8716,W,0.56,320.91,201010,,,A*7E
$GPRMC,010715.000,A,3748.7897,N,12217.8717,W,0.43,263.62,201010,,,A*7F
$GPRMC,010716.000,A,3748.7897,N,12217.8724,W,0.32,16.62,201010,,,A*4A
$GPRMC,010717.000,A,3748.7896,N,12217.8725,W,0.19,114.66,201010,,,A*75
$GPRMC,010718.000,A,3748.7900,N,12217.8725,W,0.15,31.48,201010,,,A*42
$GPRMC,010719.000,A,3748.7902,N,12217.8729,W,0.41,333.12,201010,,,A*72
$GPRMC,010720.000,A,3748.7904,N,12217.8721,W,0.51,175.14,201010,,,A*71
$GPRMC,010721.000,A,3748.7898,N,12217.8723,W,1.15,216.45,201010,,,A*75
$GPRMC,010722.000,A,3748.7895,N,12217.8722,W,1.17,187.34,201010,,,A*75
$GPRMC,010723.000,A,3748.7891,N,12217.8719,W,0.51,194.38,201010,,,A*75
$GPRMC,010724.000,A,3748.7889,N,12217.8719,W,0.26,279.56,201010,,,A*73
$GPRMC,010725.000,A,3748.7888,N,12217.8719,W,0.36,278.91,201010,,,A*78
$GPRMC,010726.000,A,3748.7890,N,12217.8715,W,0.49,15.82,201010,,,A*4D
$GPRMC,010727.000,A,3748.7892,N,12217.8716,W,0.47,320.01,201010,,,A*7D
$GPRMC,010728.000,A,3748.7893,N,12217.8717,W,0.54,209.22,201010,,,A*7B
$GPRMC,010729.000,A,3748.7891,N,12217.8714,W,0.42,179.53,201010,,,A*7E
$GPRMC,010730.000,A,3748.7893,N,12217.8716,W,0.28,169.01,201010,,,A*7C
$GPRMC,010731.000,A,3748.7895,N,12217.8715,W,0.37,297.44,201010,,,A*75
$GPRMC,010732.000,A,3748.7896,N,12217.8709,W,0.29,324.66,201010,,,A*7E
$GPRMC,010733.000,A,3748.7890,N,12217.8699,W,0.33,80.92,201010,,,A*4C
$GPRMC,010734.000,A,3748.7892,N,12217.8694,W,0.82,69.37,201010,,,A*46
$GPRMC,010735.000,A,3748.7891,N,12217.8693,W,0.29,127.49,201010,,,A*70
$GPRMC,010736.000,A,3748.7891,N,12217.8694,W,0.41,198.89,201010,,,A*72
$GPRMC,010737.000,A,3748.7888,N,12217.8687,W,0.48,142.64,201010,,,A*74
$GPRMC,010738.000,A,3748.7888,N,12217.8685,W,0.68,119.94,201010,,,A*7A
$GPRMC,010739.000,A,3748.7888,N,12217.8684,W,0.62,87.47,201010,,,A*48
$GPRMC,010740.000,A,3748.7887,N,12217.8685,W,0.16,58.17,201010,,,A*4C
$GPRMC,010741.000,A,3748.7888,N,12217.8684,W,0.28,311.86,201010,,,A*78
$GPRMC,010742.000,A,3748.7887,N,12217.8682,W,0.27,111.07,201010,,,A*76
$GPRMC,010743.000,A,3748.7886,N,12217.8684,W,0.93,136.31,201010,,,A*7F
$GPRMC,010744.000,A,3748.7882,N,12217.8681,W,0.79,150.18,201010,,,A*76
$GPRMC,010745.000,A,3748.7878,N,12217.8677,W,0.89,153.17,201010,,,A*78
$GPRMC,010746.000,A,3748.7873,N,12217.8679,W,0.75,194.71,201010,,,A*76
$GPRMC,010747.000,A,3748.7875,N,12217.8678,W,0.63,163.93,201010,,,A*73
$GPRMC,010748.000,A,3748.7876,N,12217.8682,W,0.20,147.54,201010,,,A*70
$GPRMC,010749.000,A,3748.7878,N,12217.8685,W,0.20,127.68,201010,,,A*71
$GPRMC,010750.000,A,3748.7881,N,12217.8686,W,0.28,32.63,201010,,,A*4A
$GPRMC,010751.000,A,3748.7886,N,12217.8687,W,0.17,17.55,201010,,,A*43
$GPRMC,010752.000,A,3748.7887,N,12217.8688,W,0.27,312.13,201010,,,A*79
$GPRMC,010753.000,A,3748.7888,N,12217.8688,W,0.41,307.72,201010,,,A*74
$GPRMC,010754.000,A,3748.7889,N,12217.8691,W,0.36,291.33,201010,,,A*71
$GPRMC,010755.000,A,3748.7891,N,12217.8691,W,0.38,328.49,201010,,,A*79
$GPRMC,010756.000,A,3748.7891,N,12217.8693,W,0.21,176.69,201010,,,A*7B
$GPRMC,010757.000,A,3748.7890,N,12217.8691,W,0.34,77.08,201010,,,A*4A
$GPRMC,010758.000,A,3748.7892,N,12217.8697,W,0.01,54.27,201010,,,A*4B
$GPRMC,010759.000,A,3748.7888,N,12217.8693,W,0.16,77.28,201010,,,A*4D
$GPRMC,010800.000,A,3748.7888,N,12217.8693,W,0.42,6.39,201010,,,A*79
$GPRMC,010801.000,A,3748.7886,N,12217.8693,W,0.21,18.85,201010,,,A*4B
$GPRMC,010802.000,A,3748.7883,N,12217.8692,W,0.06,253.04,201010,,,A*7D
$GPRMC,010803.000,A,3748.7886,N,12217.8692,W,0.28,66.28,201010,,,A*4F
$GPRMC,010804.000,A,3748.7887,N,12217.8690,W,0.38,33.84,201010,,,A*4C
$GPRMC,010805.000,A,3748.7890,N,12217.8688,W,0.30,66.20,201010,,,A*44
$GPRMC,010806.000,A,3748.7890,N,12217.8685,W,0.40,90.03,201010,,,A*45
$GPRMC,010807.000,A,3748.7891,N,12217.8684,W,0.63,5.82,201010,,,A*70
$GPRMC,010808.000,A,3748.7893,N,12217.8689,W,0.81,344.90,201010,,,A*79
$GPRMC,010809.000,A,3748.7893,N,12217.8691,W,0.37,307.77,201010,,,A*72
$GPRMC,010810.000,A,3748.7892,N,12217.8693,W,0.35,43.49,201010,,,A*45
$GPRMC,010811.000,A,3748.7895,N,12217.8694,W,0.32,194.11,201010,,,A*75
$GPRMC,010812.000,A,3748.7890,N,12217.8696,W,1.05,228.45,201010,,,A*71
$GPRMC,010813.000,A,3748.7888,N,12217.8700,W,1.22,217.75,201010,,,A*7D
$GPRMC,010814.000,A,3748.7886,N,12217.8704,W,1.07,222.20,201010,,,A*71
$GPRMC,010815.000,A,3748.7884,N,12217.8701,W,0.80,197.30,201010,,,A*75
$GPRMC,010816.000,A,3748.7881,N,12217.8700,W,1.37,184.41,201010,,,A*7B
$GPRMC,010817.000,A,3748.7882,N,12217.8697,W,1.54,174.45,201010,,,A*78
$GPRMC,010818.000,A,3748.7884,N,12217.8696,W,0.99,200.34,201010,,,A*76
$GPRMC,010819.000,A,3748.7884,N,12217.8700,W,1.07,261.35,201010,,,A*79
$GPRMC,010820.000,A,3748.7887,N,12217.8708,W,0.76,292.49,201010,,,A*78
$GPRMC,010821.000,A,3748.7891,N,12217.8716,W,0.22,216.74,201010,,,A*72
$GPRMC,010822.000,A,3748.7894,N,12217.8722,W,0.77,143.20,201010,,,A*71
$GPRMC,010823.000,A,3748.7890,N,12217.8719,W,0.99,146.13,201010,,,A*79
$GPRMC,010824.000,A,3748.7888,N,12217.8710,W,1.59,134.18,201010,,,A*7D
$GPRMC,010825.000,A,3748.7888,N,12217.8704,W,0.50,188.82,201010,,,A*75
$GPRMC,010826.000,A,3748.7890,N,12217.8696,W,0.30,33.78,201010,,,A*47
$GPRMC,010827.000,A,3748.7894,N,12217.8690,W,0.65,98.64,201010,,,A*48
$GPRMC,010828.000,A,3748.7901,N,12217.8687,W,0.42,57.42,201010,,,A*4E
$GPRMC,010829.000,A,3748.7902,N,12217.8681,W,0.88,92.34,201010,,,A*44
$GPRMC,010830.000,A,3748.7906,N,12217.8682,W,0.60,117.28,201010,,,A*7C
$GPRMC,010831.000,A,3748.7908,N,12217.8682,W,0.45,165.50,201010,,,A*7E
$GPRMC,010832.000,A,3748.7908,N,12217.8682,W,0.31,248.05,201010,,,A*72
$GPRMC,010833.000,A,3748.7901,N,12217.8678,W,0.45,202.11,201010,,,A*77
$GPRMC,010834.000,A,3748.7894,N,12217.8674,W,0.54,95.15,201010,,,A*49
$GPRMC,010835.000,A,3748.7891,N,12217.8670,W,0.80,232.73,201010,,,A*7F
$GPRMC,010836.000,A,3748.7895,N,12217.8670,W,0.65,69.38,201010,,,A*40
$GPRMC,010837.000,A,3748.7900,N,12217.8663,W,1.66,45.64,201010,,,A*4B
$GPRMC,010838.000,A,3748.7894,N,12217.8652,W,2.26,39.17,201010,,,A*42
$GPRMC,010839.000,A,3748.7901,N,12217.8647,W,1.75,20.69,201010,,,A*4E
$GPRMC,010840.000,A,3748.7904,N,12217.8636,W,2.02,38.10,201010,,,A*47
$GPRMC,010841.000,A,3748.7905,N,12217.8630,W,2.11,47.78,201010,,,A*45
$GPRMC,010842.000,A,3748.7907,N,12217.8627,W,1.66,62.36,201010,,,A*4C
$GPRMC,010843.000,A,3748.7911,N,12217.8624,W,0.95,102.65,201010,,,A*75
$GPRMC,010844.000,A,3748.7908,N,12217.8617,W,0.92,112.27,201010,,,A*7A
$GPRMC,010845.000,A,3748.7909,N,12217.8613,W,0.82,112.62,201010,,,A*7E
$GPRMC,010846.000,A,3748.7910,N,12217.8614,W,0.99,97.20,201010,,,A*42
$GPRMC,010847.000,A,3748.7910,N,12217.8606,W,1.72,67.24,201010,,,A*4F
$GPRMC,010848.000,A,3748.7917,N,12217.8604,W,1.69,52.69,201010,,,A*40
$GPRMC,010849.000,A,3748.7919,N,12217.8603,W,0.93,24.62,201010,,,A*46
$GPRMC,010850.000,A,3748.7919,N,12217.8607,W,0.18,345.10,201010,,,A*78
$GPRMC,010851.000,A,3748.7917,N,12217.8614,W,0.75,296.27,201010,,,A*75
$GPRMC,010852.000,A,3748.7919,N,12217.8622,W,1.10,301.33,201010,,,A*75
$GPRMC,010853.000,A,3748.7919,N,12217.8631,W,0.66,297.10,201010,,,A*79
$GPRMC,010854.000,A,3748.7915,N,12217.8628,W,0.09,352.30,201010,,,A*79
$GPRMC,010855.000,A,3748.7913,N,12217.8628,W,0.36,0.77,201010,,,A*75
$GPRMC,010856.000,A,3748.7914,N,12217.8629,W,0.47,31.85,201010,,,A*49
$GPRMC,010857.000,A,3748.7914,N,12217.8630,W,0.62,64.42,201010,,,A*4C
$GPRMC,010858.000,A,3748.7909,N,12217.8634,W,0.22,25.89,201010,,,A*4D
$GPRMC,010859.000,A,3748.7906,N,12217.8635,W,0.19,26.47,201010,,,A*4B
$GPRMC,010900.000,A,3748.7903,N,12217.8633,W,0.12,153.16,201010,,,A*79
$GPRMC,010901.000,A,3748.7900,N,12217.8631,W,0.25,85.27,201010,,,A*45
$GPRMC,010902.000,A,3748.7899,N,12217.8631,W,0.40,36.65,201010,,,A*4A
$GPRMC,010903.000,A,3748.7897,N,12217.8633,W,0.18,119.26,201010,,,A*71
$GPRMC,010904.000,A,3748.7896,N,12217.8639,W,0.59,263.59,201010,,,A*7E
$GPRMC,010905.000,A,3748.7892,N,12217.8641,W,0.87,216.55,201010,,,A*79
$GPRMC,010906.000,A,3748.7890,N,12217.8639,W,0.46,96.71,201010,,,A*46
$GPRMC,010907.000,A,3748.7887,N,12217.8641,W,0.72,245.57,201010,,,A*71
$GPRMC,010908.000,A,3748.7885,N,12217.8641,W,0.62,221.59,201010,,,A*71
$GPRMC,010909.000,A,3748.7882,N,12217.8639,W,0.63,148.11,201010,,,A*79
$GPRMC,010910.000,A,3748.7881,N,12217.8642,W,0.41,80.54,201010,,,A*4A
$GPRMC,010911.000,A,3748.7881,N,12217.8642,W,0.57,57.08,201010,,,A*4F
$GPRMC,010912.000,A,3748.7881,N,12217.8639,W,0.27,97.79,201010,,,A*4D
$GPRMC,010913.000,A,3748.7881,N,12217.8641,W,0.39,340.10,201010,,,A*7A
$GPRMC,010914.000,A,3748.7880,N,12217.8647,W,0.22,252.23,201010,,,A*72
$GPRMC,010915.000,A,3748.7877,N,12217.8650,W,0.14,13.01,201010,,,A*4F
$GPRMC,010916.000,A,3748.7876,N,12217.8654,W,0.65,14.60,201010,,,A*4F
$GPRMC,010917.000,A,3748.7879,N,12217.8657,W,0.50,23.25,201010,,,A*41
$GPRMC,010918.000,A,3748.7877,N,12217.8661,W,0.49,210.35,201010,,,A*7E
$GPRMC,010919.000,A,3748.7876,N,12217.8665,W,0.36,214.78,201010,,,A*7F
$GPRMC,010920.000,A,3748.7871,N,12217.8670,W,0.86,201.79,201010,,,A*78
$GPRMC,010921.000,A,3748.7868,N,12217.8672,W,0.45,174.53,201010,,,A*75
$GPRMC,010922.000,A,3748.7866,N,12217.8674,W,0.34,185.65,201010,,,A*73
$GPRMC,010923.000,A,3748.7865,N,12217.8675,W,0.84,195.91,201010,,,A*71
$GPRMC,010924.000,A,3748.7865,N,12217.8675,W,0.72,189.48,201010,,,A*76
$GPRMC,010925.000,A,3748.7865,N,12217.8673,W,0.48,159.04,201010,,,A*7D
$GPRMC,010926.000,A,3748.7864,N,12217.8675,W,0.46,102.09,201010,,,A*74
$GPRMC,010927.000,A,3748.7866,N,12217.8672,W,0.83,83.14,201010,,,A*4D
$GPRMC,010928.000,A,3748.7867,N,12217.8670,W,0.81,77.64,201010,,,A*4F
$GPRMC,010929.000,A,3748.7869,N,12217.8670,W,0.35,66.08,201010,,,A*45
$GPRMC,010930.000,A,3748.7870,N,12217.8671,W,0.11,164.99,201010,,,A*79
$GPRMC,010931.000,A,3748.7870,N,12217.8669,W,0.51,284.48,201010,,,A*74
$GPRMC,010932.000,A,3748.7870,N,12217.8671,W,0.49,272.70,201010,,,A*75
$GPRMC,010933.000,A,3748.7869,N,12217.8673,W,0.43,243.41,201010,,,A*74
$GPRMC,010934.000,A,3748.7869,N,12217.8674,W,0.49,237.81,201010,,,A*71
$GPRMC,010935.000,A,3748.7867,N,12217.8680,W,0.21,255.15,201010,,,A*72
$GPRMC,010936.000,A,3748.7866,N,12217.8684,W,1.17,49.79,201010,,,A*45
$GPRMC,010937.000,A,3748.7870,N,12217.8682,W,1.11,14.36,201010,,,A*40
$GPRMC,010938.000,A,3748.7873,N,12217.8677,W,0.48,45.24,201010,,,A*4C
$GPRMC,010939.000,A,3748.7870,N,12217.8678,W,0.46,296.53,201010,,,A*73
$GPRMC,010940.000,A,3748.7868,N,12217.8679,W,0.44,182.69,201010,,,A*78
$GPRMC,010941.000,A,3748.7868,N,12217.8675,W,0.46,162.29,201010,,,A*7D
$GPRMC,010942.000,A,3748.7868,N,12217.8677,W,0.51,273.51,201010,,,A*76
$GPRMC,010943.000,A,3748.7869,N,12217.8678,W,0.45,279.34,201010,,,A*75
$GPRMC,010944.000,A,3748.7870,N,12217.8679,W,0.42,269.31,201010,,,A*78
$GPRMC,010945.000,A,3748.7871,N,12217.8681,W,0.37,264.70,201010,,,A*75
$GPRMC,010946.000,A,3748.7873,N,12217.8682,W,0.67,303.57,201010,,,A*77
$GPRMC,010947.000,A,3748.7873,N,12217.8682,W,0.29,282.83,201010,,,A*7D
$GPRMC,010948.000,A,3748.7873,N,12217.8680,W,0.48,163.99,201010,,,A*70
$GPRMC,010949.000,A,3748.7874,N,12217.8678,W,0.97,171.19,201010,,,A*78
$GPRMC,010950.000,A,3748.7873,N,12217.8677,W,1.58,157.16,201010,,,A*71
$GPRMC,010951.000,A,3748.7867,N,12217.8670,W,1.80,154.46,201010,,,A*71
$GPRMC,010952.000,A,3748.7871,N,12217.8666,W,0.65,101.64,201010,,,A*78
$GPRMC,010953.000,A,3748.7871,N,12217.8658,W,1.09,71.88,201010,,,A*4B
$GPRMC,010954.000,A,3748.7876,N,12217.8655,W,0.59,18.79,201010,,,A*43
$GPRMC,010955.000,A,3748.7880,N,12217.8654,W,0.14,81.10,201010,,,A*4C
$GPRMC,010956.000,A,3748.7880,N,12217.8655,W,0.07,246.15,201010,,,A*70
$GPRMC,010957.000,A,3748.7882,N,12217.8660,W,0.20,178.39,201010,,,A*70
$GPRMC,010958.000,A,3748.7883,N,12217.8664,W,0.19,258.54,201010,,,A*7A
$GPRMC,010959.000,A,3748.7883,N,12217.8669,W,0.29,249.64,201010,,,A*76
$GPRMC,011000.000,A,3748.7881,N,12217.8670,W,0.20,202.25,201010,,,A*7B
