$ADVER,3080,2.3
$GPRMC,214204.930,A,3748.7976,N,12217.8627,W,0.09,50.39,260612,,,A*4B
$GPRMC,214205.930,A,3748.7997,N,12217.8608,W,0.09,22.43,260612,,,A*40
$GPRMC,214207.000,A,3748.7997,N,12217.8608,W,0.09,10.95,260612,,,A*42
$GPRMC,214208.000,A,3748.7997,N,12217.8608,W,0.10,11.76,260612,,,A*49
$GPRMC,214209.000,A,3748.7996,N,12217.8608,W,0.05,4.06,260612,,,A*7E
$GPRMC,214210.000,A,3748.7996,N,12217.8608,W,0.09,355.62,260612,,,A*7F
$GPRMC,214211.000,A,3748.7996,N,12217.8608,W,0.07,13.40,260612,,,A*41
$GPRMC,214212.000,A,3748.7996,N,12217.8608,W,0.07,346.50,260612,,,A*70
$GPRMC,214213.000,A,3748.7996,N,12217.8608,W,0.07,16.67,260612,,,A*43
$GPRMC,214214.000,A,3748.7996,N,12217.8608,W,0.07,356.52,260612,,,A*75
$GPRMC,214215.000,A,3748.7996,N,12217.8608,W,0.07,1.33,260612,,,A*72
$GPRMC,214216.000,A,3748.7996,N,12217.8608,W,0.09,359.81,260612,,,A*78
$GPRMC,214217.000,A,3748.7996,N,12217.8608,W,0.05,2.65,260612,,,A*72
$GPRMC,214218.000,A,3748.7996,N,12217.8608,W,0.06,341.55,260612,,,A*79
$GPRMC,214219.000,A,3748.7996,N,12217.8609,W,0.05,355.77,260612,,,A*7F
$GPRMC,214220.000,A,3748.7995,N,12217.8609,W,0.07,354.87,260612,,,A*7A
$GPRMC,214221.000,A,3748.7995,N,12217.8609,W,0.08,27.72,260612,,,A*49
$GPRMC,214222.000,A,3748.7995,N,12217.8609,W,0.11,53.21,260612,,,A*47
$GPRMC,214223.000,A,3748.7995,N,12217.8608,W,0.06,75.24,260612,,,A*40
$GPRMC,214224.000,A,3748.7995,N,12217.8608,W,0.06,53.00,260612,,,A*45
$GPRMC,214225.000,A,3748.7994,N,12217.8608,W,0.38,141.51,260612,,,A*7E
$GPRMC,214226.000,A,3748.7993,N,12217.8605,W,0.22,89.20,260612,,,A*4F
$GPRMC,214227.000,A,3748.7992,N,12217.8604,W,0.05,0.49,260612,,,A*75
$GPRMC,214228.000,A,3748.7991,N,12217.8599,W,0.15,64.06,260612,,,A*46
$GPRMC,214229.000,A,3748.7995,N,12217.8594,W,0.38,8.56,260612,,,A*7E
$GPRMC,214230.000,A,3748.8001,N,12217.8590,W,0.32,330.22,260612,,,A*78
$GPRMC,214231.000,A,3748.8003,N,12217.8588,W,0.45,52.65,260612,,,A*46
$GPRMC,214232.000,A,3748.8004,N,12217.8585,W,0.07,52.94,260612,,,A*47
$GPRMC,214233.000,A,3748.8005,N,12217.8582,W,0.15,139.58,260612,,,A*7F
$GPRMC,214234.000,A,3748.8005,N,12217.8579,W,0.27,192.47,260612,,,A*72
$GPRMC,214235.000,A,3748.8007,N,12217.8578,W,0.38,214.86,260612,,,A*7E
$GPRMC,214236.000,A,3748.8007,N,12217.8578,W,0.13,149.80,260612,,,A*79
$GPRMC,214237.000,A,3748.8009,N,12217.8578,W,0.51,34.29,260612,,,A*48
$GPRMC,214238.000,A,3748.8009,N,12217.8578,W,0.37,12.58,260612,,,A*45
$GPRMC,214239.000,A,3748.8007,N,12217.8579,W,0.31,185.87,260612,,,A*70
$GPRMC,214240.000,A,3748.8006,N,12217.8579,W,0.35,151.76,260612,,,A*7C
$GPRMC,214241.000,A,3748.8008,N,12217.8578,W,0.62,188.06,260612,,,A*73
$GPRMC,214242.000,A,3748.8009,N,12217.8580,W,0.22,186.10,260612,,,A*7B
$GPRMC,214243.000,A,3748.8006,N,12217.8583,W,0.31,64.72,260612,,,A*4D
$GPRMC,214244.000,A,3748.8002,N,12217.8584,W,0.07,231.20,260612,,,A*79
$GPRMC,214245.000,A,3748.8007,N,12217.8584,W,0.48,18.36,260612,,,A*48
$GPRMC,214246.000,A,3748.8000,N,12217.8591,W,0.98,206.07,260612,,,A*7A
$GPRMC,214247.000,A,3748.8000,N,12217.8594,W,0.50,182.52,260612,,,A*75
$GPRMC,214248.000,A,3748.7997,N,12217.8598,W,0.10,261.20,260612,,,A*71
$GPRMC,214249.000,A,3748.7994,N,12217.8597,W,0.04,187.12,260612,,,A*73
$GPRMC,214250.000,A,3748.7992,N,12217.8594,W,0.48,75.88,260612,,,A*49
$GPRMC,214251.000,A,3748.7989,N,12217.8592,W,0.43,6.81,260612,,,A*72
$GPRMC,214252.000,A,3748.7987,N,12217.8594,W,0.66,224.82,260612,,,A*7F
$GPRMC,214253.000,A,3748.7980,N,12217.8602,W,1.24,204.03,260612,,,A*79
$GPRMC,214254.000,A,3748.7983,N,12217.8606,W,0.87,190.84,260612,,,A*70
$GPRMC,214255.000,A,3748.7984,N,12217.8610,W,0.65,144.95,260612,,,A*74
$GPRMC,214256.000,A,3748.7990,N,12217.8607,W,1.08,68.64,260612,,,A*4F
$GPRMC,214257.000,A,3748.7990,N,12217.8605,W,1.58,98.20,260612,,,A*46
$GPRMC,214258.000,A,3748.7989,N,12217.8600,W,1.27,121.66,260612,,,A*7D
$GPRMC,214259.000,A,3748.7987,N,12217.8597,W,1.50,121.33,260612,,,A*7F
$GPRMC,214300.000,A,3748.7985,N,12217.8593,W,1.68,129.55,260612,,,A*77
$GPRMC,214301.000,A,3748.7981,N,12217.8589,W,1.48,122.58,260612,,,A*7D
$GPRMC,214302.000,A,3748.7978,N,12217.8585,W,1.63,126.25,260612,,,A*73
$GPRMC,214303.000,A,3748.7974,N,12217.8581,W,1.43,126.56,260612,,,A*7C
$GPRMC,214304.000,A,3748.7971,N,12217.8578,W,1.38,132.85,260612,,,A*7F
$GPRMC,214305.000,A,3748.7971,N,12217.8574,W,1.63,146.38,260612,,,A*79
$GPRMC,214306.000,A,3748.7969,N,12217.8570,W,1.93,142.19,260612,,,A*7F
$GPRMC,214307.000,A,3748.7967,N,12217.8566,W,1.76,133.35,260612,,,A*74
$GPRMC,214308.000,A,3748.7965,N,12217.8558,W,2.99,97.28,260612,,,A*45
$GPRMC,214309.000,A,3748.7956,N,12217.8550,W,2.30,126.21,260612,,,A*7D
$GPRMC,214310.000,A,3748.7950,N,12217.8543,W,1.49,117.94,260612,,,A*70
$GPRMC,214311.000,A,3748.7946,N,12217.8534,W,1.74,114.03,260612,,,A*75
$GPRMC,214312.000,A,3748.7938,N,12217.8526,W,1.56,146.39,260612,,,A*72
$GPRMC,214313.000,A,3748.7930,N,12217.8518,W,1.16,133.47,260612,,,A*79
$GPRMC,214314.000,A,3748.7924,N,12217.8512,W,1.16,139.36,260612,,,A*7D
$GPRMC,214315.000,A,3748.7921,N,12217.8508,W,0.93,121.36,260612,,,A*77
$GPRMC,214316.000,A,3748.7919,N,12217.8502,W,1.39,108.34,260612,,,A*7D
$GPRMC,214317.000,A,3748.7916,N,12217.8495,W,1.19,114.72,260612,,,A*71
$GPRMC,214318.000,A,3748.7912,N,12217.8493,W,0.96,114.84,260612,,,A*73
$GPRMC,214319.000,A,3748.7911,N,12217.8483,W,1.21,102.86,260612,,,A*78
$GPRMC,214320.000,A,3748.7910,N,12217.8477,W,0.85,94.11,260612,,,A*47
$GPRMC,214321.000,A,3748.7911,N,12217.8476,W,0.77,92.35,260612,,,A*4B
$GPRMC,214322.000,A,3748.7913,N,12217.8474,W,1.08,80.21,260612,,,A*47
$GPRMC,214323.000,A,3748.7918,N,12217.8472,W,0.87,65.29,260612,,,A*4E
$GPRMC,214324.000,A,3748.7919,N,12217.8470,W,0.66,91.69,260612,,,A*4A
$GPRMC,214325.000,A,3748.7919,N,12217.8464,W,0.76,97.52,260612,,,A*41
$GPRMC,214326.000,A,3748.7920,N,12217.8462,W,0.47,93.15,260612,,,A*4B
$GPRMC,214327.000,A,3748.7918,N,12217.8460,W,0.69,152.71,260612,,,A*71
$GPRMC,214328.000,A,3748.7917,N,12217.8459,W,0.24,111.80,260612,,,A*7B
$GPRMC,214329.000,A,3748.7913,N,12217.8454,W,0.29,60.19,260612,,,A*49
$GPRMC,214330.000,A,3748.7910,N,12217.8447,W,1.38,126.16,260612,,,A*7D
$GPRMC,214331.000,A,3748.7905,N,12217.8439,W,1.20,114.43,260612,,,A*79
$GPRMC,214332.000,A,3748.7901,N,12217.8431,W,0.93,103.82,260612,,,A*74
$GPRMC,214333.000,A,3748.7897,N,12217.8421,W,0.87,87.82,260612,,,A*42
$GPRMC,214334.000,A,3748.7893,N,12217.8412,W,1.43,109.94,260612,,,A*78
$GPRMC,214335.000,A,3748.7890,N,12217.8403,W,1.60,115.89,260612,,,A*7A
$GPRMC,214336.000,A,3748.7884,N,12217.8393,W,1.50,124.42,260612,,,A*74
$GPRMC,214337.000,A,3748.7879,N,12217.8385,W,1.24,117.91,260612,,,A*7D
$GPRMC,214338.000,A,3748.7876,N,12217.8378,W,1.73,115.66,260612,,,A*77
$GPRMC,214339.000,A,3748.7873,N,12217.8372,W,1.32,118.61,260612,,,A*76
$GPRMC,214339.000,A,3748.7869,N,12217.8367,W,1.13,127.58,260612,,,A*7C
$GPRMC,214340.000,A,3748.7863,N,12217.8357,W,1.22,132.18,260612,,,A*79
$GPRMC,214341.000,A,3748.7858,N,12217.8350,W,1.20,145.10,260612,,,A*7D
$GPRMC,214342.000,A,3748.7854,N,12217.8344,W,1.26,137.90,260612,,,D*79
$GPRMC,214343.000,A,3748.7851,N,12217.8341,W,1.31,138.26,260612,,,D*7C
$GPRMC,214344.000,A,3748.7849,N,12217.8340,W,1.34,120.71,260612,,,D*7D
$GPRMC,214345.000,A,3748.7848,N,12217.8339,W,0.77,133.89,260612,,,D*70
$GPRMC,214346.000,A,3748.7847,N,12217.8336,W,0.76,115.70,260612,,,D*70
$GPRMC,214347.000,A,3748.7845,N,12217.8338,W,0.59,206.07,260612,,,D*71
$GPRMC,214348.000,A,3748.7844,N,12217.8343,W,0.33,38.88,260612,,,D*47
$GPRMC,214349.000,A,3748.7846,N,12217.8341,W,0.34,53.90,260612,,,D*45
$GPRMC,214350.000,A,3748.7847,N,12217.8339,W,0.26,220.21,260612,,,D*7C
$GPRMC,214351.000,A,3748.7847,N,12217.8337,W,0.06,90.37,260612,,,D*4F
$GPRMC,214352.000,A,3748.7846,N,12217.8336,W,0.16,296.30,260612,,,D*7E
$GPRMC,214353.000,A,3748.7843,N,12217.8338,W,0.16,244.13,260612,,,D*7A
$GPRMC,214354.000,A,3748.7842,N,12217.8341,W,0.02,192.68,260612,,,D*73
$GPRMC,214355.000,A,3748.7841,N,12217.8342,W,0.04,77.26,260612,,,D*44
$GPRMC,214356.000,A,3748.7840,N,12217.8341,W,0.17,84.22,260612,,,D*4F
$GPRMC,214357.000,A,3748.7840,N,12217.8341,W,0.53,50.64,260612,,,D*45
$GPRMC,214358.000,A,3748.7840,N,12217.8341,W,0.40,44.24,260612,,,D*49
$GPRMC,214359.000,A,3748.7840,N,12217.8341,W,0.08,232.69,260612,,,D*7E
$GPRMC,214400.000,A,3748.7841,N,12217.8340,W,0.12,60.04,260612,,,D*40
$GPRMC,214401.000,A,3748.7841,N,12217.8340,W,0.05,131.34,260612,,,D*71
$GPRMC,214402.000,A,3748.7842,N,12217.8339,W,0.07,289.61,260612,,,D*7D
$GPRMC,214403.000,A,3748.7842,N,12217.8340,W,0.06,353.66,260612,,,D*72
$GPRMC,214404.000,A,3748.7842,N,12217.8340,W,0.10,282.65,260612,,,D*7C
$GPRMC,214405.000,A,3748.7842,N,12217.8341,W,0.06,23.01,260612,,,D*40
$GPRMC,214406.000,A,3748.7843,N,12217.8341,W,0.18,53.62,260612,,,D*4F
$GPRMC,214407.000,A,3748.7843,N,12217.8341,W,0.15,325.20,260612,,,D*77
$GPRMC,214408.000,A,3748.7842,N,12217.8344,W,0.19,314.29,260612,,,D*7B
$GPRMC,214409.000,A,3748.7843,N,12217.8344,W,0.14,8.45,260612,,,D*72
$GPRMC,214410.000,A,3748.7843,N,12217.8343,W,0.01,141.74,260612,,,D*77
$GPRMC,214411.000,A,3748.7840,N,12217.8344,W,0.07,237.29,260612,,,D*7E
$GPRMC,214412.000,A,3748.7837,N,12217.8348,W,0.13,323.99,260612,,,D*7B
$GPRMC,214413.000,A,3748.7835,N,12217.8350,W,0.06,66.78,260612,,,D*48
$GPRMC,214414.000,A,3748.7834,N,12217.8353,W,0.51,227.96,260612,,,D*78
$GPRMC,214415.000,A,3748.7832,N,12217.8354,W,0.10,96.91,260612,,,D*42
$GPRMC,214416.000,A,3748.7832,N,12217.8356,W,0.30,247.22,260612,,,D*77
$GPRMC,214417.000,A,3748.7830,N,12217.8359,W,0.41,254.32,260612,,,D*7E
$GPRMC,214418.000,A,3748.7828,N,12217.8361,W,0.22,149.28,260612,,,D*72
$GPRMC,214419.000,A,3748.7828,N,12217.8360,W,0.33,129.43,260612,,,D*79
$GPRMC,214420.000,A,3748.7826,N,12217.8364,W,0.14,217.09,260612,,,D*7C
$GPRMC,214421.000,A,3748.7830,N,12217.8365,W,0.13,358.43,260612,,,D*78
$GPRMC,214422.000,A,3748.7832,N,12217.8365,W,0.21,93.47,260612,,,D*48
$GPRMC,214423.000,A,3748.7831,N,12217.8367,W,0.17,16.72,260612,,,D*46
$GPRMC,214424.000,A,3748.7828,N,12217.8369,W,0.08,25.16,260612,,,D*4B
$GPRMC,214425.000,A,3748.7828,N,12217.8370,W,0.11,29.76,260612,,,D*40
$GPRMC,214426.000,A,3748.7831,N,12217.8371,W,0.14,271.51,260612,,,D*75
$GPRMC,214427.000,A,3748.7833,N,12217.8373,W,0.11,83.87,260612,,,D*45
$GPRMC,214428.000,A,3748.7835,N,12217.8374,W,0.06,29.61,260612,,,D*45
$GPRMC,214429.000,A,3748.7840,N,12217.8374,W,0.45,16.79,260612,,,D*44
$GPRMC,214430.000,A,3748.7843,N,12217.8375,W,0.70,339.85,260612,,,D*75
$GPRMC,214431.000,A,3748.7845,N,12217.8377,W,0.90,304.43,260612,,,D*7A
$GPRMC,214432.000,A,3748.7846,N,12217.8378,W,1.05,327.55,260612,,,D*7E
$GPRMC,214433.000,A,3748.7848,N,12217.8382,W,1.19,299.28,260612,,,D*77
$GPRMC,214434.000,A,3748.7850,N,12217.8384,W,1.04,286.52,260612,,,D*70
$GPRMC,214435.000,A,3748.7853,N,12217.8388,W,0.86,314.87,260612,,,D*77
$GPRMC,214436.000,A,3748.7862,N,12217.8386,W,0.51,308.11,260612,,,D*70
$GPRMC,214437.000,A,3748.7869,N,12217.8384,W,0.06,270.28,260612,,,A*7B
$GPRMC,214438.000,A,3748.7866,N,12217.8384,W,0.11,45.05,260612,,,A*46
$GPRMC,214439.000,A,3748.7865,N,12217.8384,W,0.15,172.92,260612,,,A*7B
$GPRMC,214440.000,A,3748.7865,N,12217.8383,W,0.24,186.79,260612,,,A*7E
$GPRMC,214441.000,A,3748.7864,N,12217.8383,W,0.19,200.15,260612,,,A*77
$GPRMC,214442.000,A,3748.7862,N,12217.8383,W,0.22,204.47,260612,,,A*79
$GPRMC,214443.000,A,3748.7860,N,12217.8383,W,0.09,165.52,260612,,,A*73
$GPRMC,214444.000,A,3748.7861,N,12217.8382,W,0.10,131.54,260612,,,A*7B
$GPRMC,214445.000,A,3748.7861,N,12217.8381,W,0.31,35.20,260612,,,A*4C
$GPRMC,214446.000,A,3748.7863,N,12217.8380,W,0.26,28.87,260612,,,A*4B
$GPRMC,214447.000,A,3748.7862,N,12217.8380,W,0.44,197.26,260612,,,A*71
$GPRMC,214448.000,A,3748.7853,N,12217.8383,W,0.27,196.85,260612,,,A*72
$GPRMC,214449.000,A,3748.7849,N,12217.8385,W,0.31,204.69,260612,,,A*73
$GPRMC,214450.000,A,3748.7844,N,12217.8388,W,0.42,188.97,260612,,,A*79
$GPRMC,214451.000,A,3748.7838,N,12217.8391,W,0.77,189.89,260612,,,A*73
$GPRMC,214452.000,A,3748.7838,N,12217.8391,W,0.52,171.13,260612,,,A*73
$GPRMC,214453.000,A,3748.7841,N,12217.8390,W,0.19,347.33,260612,,,A*77
$GPRMC,214454.000,A,3748.7843,N,12217.8389,W,0.03,198.37,260612,,,A*75
$GPRMC,214455.000,A,3748.7845,N,12217.8388,W,0.04,127.75,260612,,,A*76
$GPRMC,214456.000,A,3748.7846,N,12217.8388,W,0.07,45.95,260612,,,A*4E
$GPRMC,214457.000,A,3748.7846,N,12217.8387,W,0.20,133.26,260612,,,A*7D
$GPRMC,214458.000,A,3748.7845,N,12217.8387,W,0.05,77.11,260612,,,A*43
$GPRMC,214459.000,A,3748.7845,N,12217.8387,W,0.12,18.24,260612,,,A*4B
$GPRMC,214500.000,A,3748.7845,N,12217.8384,W,1.31,106.13,260612,,,A*7F
$GPRMC,214501.000,A,3748.7840,N,12217.8379,W,1.89,97.72,260612,,,D*41
$GPRMC,214502.000,A,3748.7835,N,12217.8372,W,1.87,120.65,260612,,,D*7E
$GPRMC,214503.000,A,3748.7830,N,12217.8368,W,1.71,125.57,260612,,,D*7C
$GPRMC,214504.000,A,3748.7826,N,12217.8360,W,1.75,120.10,260612,,,D*76
$GPRMC,214505.000,A,3748.7822,N,12217.8350,W,1.65,130.53,260612,,,D*77
$GPRMC,214506.000,A,3748.7818,N,12217.8343,W,1.35,122.97,260612,,,D*71
$GPRMC,214507.000,A,3748.7813,N,12217.8337,W,1.92,133.87,260612,,,D*74
$GPRMC,214508.000,A,3748.7811,N,12217.8329,W,1.45,111.63,260612,,,D*76
$GPRMC,214509.000,A,3748.7809,N,12217.8321,W,1.20,102.94,260612,,,D*7F
$GPRMC,214510.000,A,3748.7807,N,12217.8314,W,1.45,95.53,260612,,,D*48
$GPRMC,214511.000,A,3748.7805,N,12217.8304,W,1.47,107.29,260612,,,D*7F
$GPRMC,214512.000,A,3748.7805,N,12217.8297,W,1.12,83.21,260612,,,D*42
$GPRMC,214513.000,A,3748.7807,N,12217.8286,W,1.20,73.38,260612,,,D*47
$GPRMC,214514.000,A,3748.7807,N,12217.8279,W,1.08,97.98,260612,,,D*4A
$GPRMC,214515.000,A,3748.7801,N,12217.8272,W,1.53,121.90,260612,,,D*7C
$GPRMC,214516.000,A,3748.7795,N,12217.8264,W,1.51,124.06,260612,,,D*72
$GPRMC,214517.000,A,3748.7791,N,12217.8258,W,1.57,107.51,260612,,,D*7D
$GPRMC,214518.000,A,3748.7786,N,12217.8249,W,1.25,108.94,260612,,,D*77
$GPRMC,214519.000,A,3748.7781,N,12217.8241,W,1.68,125.07,260612,,,D*75
$GPRMC,214520.000,A,3748.7777,N,12217.8234,W,1.05,116.33,260612,,,D*78
$GPRMC,214521.000,A,3748.7776,N,12217.8232,W,0.41,143.28,260612,,,D*75
$GPRMC,214522.000,A,3748.7775,N,12217.8233,W,0.08,220.65,260612,,,D*76
$GPRMC,214523.000,A,3748.7775,N,12217.8234,W,0.33,46.64,260612,,,D*4B
$GPRMC,214524.000,A,3748.7776,N,12217.8234,W,0.10,209.38,260612,,,D*7E
$GPRMC,214525.000,A,3748.7776,N,12217.8236,W,0.09,87.25,260612,,,D*4D
$GPRMC,214526.000,A,3748.7776,N,12217.8238,W,0.09,172.96,260612,,,D*73
$GPRMC,214527.000,A,3748.7776,N,12217.8240,W,0.32,221.33,260612,,,D*7F
$GPRMC,214528.000,A,3748.7776,N,12217.8242,W,0.56,221.53,260612,,,D*76
$GPRMC,214529.000,A,3748.7775,N,12217.8245,W,0.25,234.21,260612,,,D*76
$GPRMC,214530.000,A,3748.7775,N,12217.8246,W,0.02,5.51,260612,,,D*7F
$GPRMC,214531.000,A,3748.7775,N,12217.8247,W,0.23,34.19,260612,,,D*42
$GPRMC,214532.000,A,3748.7775,N,12217.8249,W,0.27,229.24,260612,,,D*7B
$GPRMC,214533.000,A,3748.7775,N,12217.8251,W,0.23,239.22,260612,,,D*70
$GPRMC,214534.000,A,3748.7775,N,12217.8252,W,0.07,303.00,260612,,,D*7A
$GPRMC,214535.000,A,3748.7775,N,12217.8254,W,0.13,264.59,260612,,,D*74
$GPRMC,214536.000,A,3748.7775,N,12217.8255,W,0.11,325.16,260612,,,D*7B
$GPRMC,214537.000,A,3748.7775,N,12217.8255,W,0.32,38.43,260612,,,D*44
$GPRMC,214538.000,A,3748.7775,N,12217.8256,W,0.09,154.51,260612,,,D*78
$GPRMC,214539.000,A,3748.7775,N,12217.8257,W,0.02,255.68,260612,,,D*7B
$GPRMC,214540.000,A,3748.7774,N,12217.8257,W,0.23,197.18,260612,,,D*7D
$GPRMC,214541.000,A,3748.7774,N,12217.8258,W,0.14,175.84,260612,,,D*7E
$GPRMC,214542.000,A,3748.7773,N,12217.8257,W,0.76,104.44,260612,,,D*7B
$GPRMC,214543.000,A,3748.7771,N,12217.8254,W,1.59,116.27,260612,,,D*71
$GPRMC,214544.000,A,3748.7768,N,12217.8248,W,1.48,113.05,260612,,,D*76
$GPRMC,214545.000,A,3748.7767,N,12217.8241,W,1.32,122.50,260612,,,D*7E
$GPRMC,214546.000,A,3748.7768,N,12217.8238,W,0.97,104.47,260612,,,D*70
$GPRMC,214547.000,A,3748.7768,N,12217.8236,W,0.87,112.82,260612,,,D*70
$GPRMC,214548.000,A,3748.7771,N,12217.8231,W,0.79,68.53,260612,,,D*41
$GPRMC,214549.000,A,3748.7774,N,12217.8226,W,0.88,93.79,260612,,,D*41
$GPRMC,214550.000,A,3748.7773,N,12217.8222,W,0.78,113.34,260612,,,D*75
$GPRMC,214551.000,A,3748.7772,N,12217.8217,W,1.02,97.80,260612,,,D*4D
$GPRMC,214552.000,A,3748.7771,N,12217.8211,W,1.00,98.46,260612,,,D*4C
$GPRMC,214553.000,A,3748.7768,N,12217.8200,W,1.30,95.46,260612,,,D*4B
$GPRMC,214554.000,A,3748.7766,N,12217.8190,W,1.42,78.04,260612,,,D*48
$GPRMC,214555.000,A,3748.7764,N,12217.8180,W,1.22,69.07,260612,,,D*4F
$GPRMC,214556.000,A,3748.7762,N,12217.8170,W,1.41,51.34,260612,,,D*4B
$GPRMC,214557.000,A,3748.7760,N,12217.8157,W,1.56,58.06,260612,,,D*43
$GPRMC,214558.000,A,3748.7758,N,12217.8147,W,1.41,78.81,260612,,,D*4D
$GPRMC,214559.000,A,3748.7755,N,12217.8136,W,1.40,102.26,260612,,,D*77
$GPRMC,214600.000,A,3748.7752,N,12217.8126,W,1.21,88.53,260612,,,D*48
$GPRMC,214601.000,A,3748.7748,N,12217.8119,W,0.94,99.72,260612,,,D*42
$GPRMC,214602.000,A,3748.7745,N,12217.8114,W,1.25,91.42,260612,,,D*41
$GPRMC,214603.000,A,3748.7740,N,12217.8105,W,1.09,90.07,260612,,,D*4B
$GPRMC,214604.000,A,3748.7736,N,12217.8098,W,1.31,106.14,260612,,,D*7F
$GPRMC,214605.000,A,3748.7732,N,12217.8090,W,1.50,122.77,260612,,,D*76
$GPRMC,214606.000,A,3748.7728,N,12217.8085,W,1.58,120.22,260612,,,D*70
$GPRMC,214607.000,A,3748.7725,N,12217.8080,W,1.09,101.38,260612,,,D*75
$GPRMC,214608.000,A,3748.7723,N,12217.8073,W,1.73,109.83,260612,,,D*75
$GPRMC,214609.000,A,3748.7720,N,12217.8065,W,1.84,102.84,260612,,,D*74
$GPRMC,214610.000,A,3748.7718,N,12217.8056,W,1.52,108.98,260612,,,D*7B
$GPRMC,214611.000,A,3748.7713,N,12217.8044,W,1.79,100.06,260612,,,D*74
$GPRMC,214612.000,A,3748.7712,N,12217.8038,W,1.13,89.21,260612,,,D*44
$GPRMC,214613.000,A,3748.7707,N,12217.8036,W,1.16,87.45,260612,,,D*46
$GPRMC,214614.000,A,3748.7704,N,12217.8032,W,1.80,130.46,260612,,,D*77
$GPRMC,214615.000,A,3748.7699,N,12217.8025,W,1.54,127.31,260612,,,D*7A
$GPRMC,214616.000,A,3748.7695,N,12217.8022,W,1.13,115.88,260612,,,D*72
$GPRMC,214617.000,A,3748.7690,N,12217.8018,W,0.96,124.61,260612,,,D*76
$GPRMC,214618.000,A,3748.7687,N,12217.8019,W,1.11,140.28,260612,,,D*7F
$GPRMC,214619.000,A,3748.7682,N,12217.8015,W,1.34,135.05,260612,,,D*7D
$GPRMC,214620.000,A,3748.7678,N,12217.8012,W,1.55,125.81,260612,,,D*7F
$GPRMC,214621.000,A,3748.7675,N,12217.8007,W,1.20,124.58,260612,,,D*70
$GPRMC,214622.000,A,3748.7672,N,12217.8004,W,1.49,114.67,260612,,,D*77
$GPRMC,214623.000,A,3748.7670,N,12217.7999,W,0.85,111.92,260612,,,D*78
$GPRMC,214624.000,A,3748.7668,N,12217.7995,W,0.90,103.37,260612,,,D*72
$GPRMC,214625.000,A,3748.7664,N,12217.7991,W,0.98,128.48,260612,,,D*72
$GPRMC,214626.000,A,3748.7664,N,12217.7987,W,1.39,115.22,260612,,,D*7E
$GPRMC,214627.000,A,3748.7662,N,12217.7978,W,1.54,117.39,260612,,,D*7A
$GPRMC,214628.000,A,3748.7660,N,12217.7969,W,1.70,111.80,260612,,,D*75
$GPRMC,214629.000,A,3748.7655,N,12217.7955,W,2.78,118.12,260612,,,D*74
$GPRMC,214630.000,A,3748.7652,N,12217.7945,W,1.82,115.81,260612,,,D*7B
$GPRMC,214631.000,A,3748.7648,N,12217.7938,W,1.05,110.62,260612,,,D*7C
$GPRMC,214632.000,A,3748.7645,N,12217.7933,W,0.97,107.36,260612,,,D*74
$GPRMC,214633.000,A,3748.7642,N,12217.7927,W,1.34,101.71,260612,,,D*7A
$GPRMC,214634.000,A,3748.7637,N,12217.7917,W,1.30,107.01,260612,,,D*79
$GPRMC,214635.000,A,3748.7631,N,12217.7904,W,1.05,114.48,260612,,,D*75
$GPRMC,214636.000,A,3748.7626,N,12217.7894,W,1.52,111.44,260612,,,D*73
$GPRMC,214637.000,A,3748.7622,N,12217.7887,W,1.27,109.65,260612,,,D*7C
$GPRMC,214638.000,A,3748.7618,N,12217.7883,W,1.72,116.29,260612,,,D*78
$GPRMC,214639.000,A,3748.7617,N,12217.7873,W,1.93,109.19,260612,,,D*7B
$GPRMC,214640.000,A,3748.7615,N,12217.7861,W,2.25,103.77,260612,,,D*78
$GPRMC,214641.000,A,3748.7611,N,12217.7852,W,1.64,99.44,260612,,,D*49
$GPRMC,214642.000,A,3748.7606,N,12217.7842,W,1.93,120.48,260612,,,D*7A
$GPRMC,214643.000,A,3748.7601,N,12217.7835,W,1.72,116.62,260612,,,D*7E
$GPRMC,214644.000,A,3748.7598,N,12217.7829,W,1.54,116.50,260612,,,D*72
$GPRMC,214645.000,A,3748.7594,N,12217.7824,W,1.34,125.98,260612,,,D*70
$GPRMC,214646.000,A,3748.7589,N,12217.7821,W,1.59,123.87,260612,,,D*79
$GPRMC,214647.000,A,3748.7584,N,12217.7815,W,1.68,106.62,260612,,,D*7C
$GPRMC,214648.000,A,3748.7580,N,12217.7805,W,1.77,107.19,260612,,,D*75
$GPRMC,214649.000,A,3748.7574,N,12217.7792,W,2.07,110.72,260612,,,D*71
$GPRMC,214650.000,A,3748.7568,N,12217.7779,W,1.92,108.59,260612,,,D*7E
$GPRMC,214651.000,A,3748.7563,N,12217.7770,W,2.23,128.76,260612,,,D*7B
$GPRMC,214652.000,A,3748.7559,N,12217.7763,W,1.97,132.15,260612,,,D*71
$GPRMC,214653.000,A,3748.7553,N,12217.7756,W,1.82,136.54,260612,,,D*79
$GPRMC,214654.000,A,3748.7548,N,12217.7751,W,1.44,140.57,260612,,,D*7B
$GPRMC,214655.000,A,3748.7545,N,12217.7747,W,2.10,120.74,260612,,,D*75
$GPRMC,214656.000,A,3748.7541,N,12217.7741,W,2.01,127.23,260612,,,D*71
$GPRMC,214657.000,A,3748.7537,N,12217.7737,W,1.50,132.56,260612,,,D*71
$GPRMC,214658.000,A,3748.7533,N,12217.7731,W,1.24,128.58,260612,,,D*7A
$GPRMC,214659.000,A,3748.7530,N,12217.7725,W,1.21,117.80,260612,,,D*71
$GPRMC,214700.000,A,3748.7527,N,12217.7719,W,1.02,96.99,260612,,,D*44
$GPRMC,214701.000,A,3748.7520,N,12217.7704,W,1.97,118.08,260612,,,D*7D
$GPRMC,214702.000,A,3748.7512,N,12217.7688,W,1.86,119.42,260612,,,D*75
$GPRMC,214703.000,A,3748.7505,N,12217.7673,W,1.97,116.96,260612,,,D*70
$GPRMC,214704.000,A,3748.7499,N,12217.7663,W,1.92,122.83,260612,,,D*74
$GPRMC,214705.000,A,3748.7495,N,12217.7655,W,1.82,120.08,260612,,,D*7C
$GPRMC,214706.000,A,3748.7489,N,12217.7643,W,1.72,123.13,260612,,,D*73
$GPRMC,214707.000,A,3748.7483,N,12217.7631,W,1.33,114.37,260612,,,D*7A
$GPRMC,214708.000,A,3748.7479,N,12217.7622,W,2.19,106.86,260612,,,D*70
$GPRMC,214709.000,A,3748.7476,N,12217.7612,W,1.72,96.44,260612,,,D*45
$GPRMC,214710.000,A,3748.7474,N,12217.7603,W,2.11,95.32,260612,,,D*4B
$GPRMC,214711.000,A,3748.7471,N,12217.7590,W,2.05,85.73,260612,,,D*47
$GPRMC,214712.000,A,3748.7470,N,12217.7584,W,1.55,69.36,260612,,,D*45
$GPRMC,214713.000,A,3748.7470,N,12217.7582,W,0.97,82.59,260612,,,D*41
$GPRMC,214714.000,A,3748.7471,N,12217.7579,W,1.19,93.54,260612,,,D*49
$GPRMC,214715.000,A,3748.7466,N,12217.7581,W,1.06,108.30,260612,,,D*76
$GPRMC,214716.000,A,3748.7462,N,12217.7584,W,1.08,112.02,260612,,,D*70
$GPRMC,214717.000,A,3748.7455,N,12217.7579,W,2.33,138.69,260612,,,D*79
$GPRMC,214718.000,A,3748.7449,N,12217.7576,W,2.46,139.72,260612,,,D*7D
$GPRMC,214719.000,A,3748.7443,N,12217.7566,W,1.95,116.90,260612,,,D*7B
$GPRMC,214720.000,A,3748.7437,N,12217.7557,W,1.79,123.92,260612,,,D*76
$GPRMC,214721.000,A,3748.7431,N,12217.7545,W,1.43,111.37,260612,,,D*75
$GPRMC,214722.000,A,3748.7427,N,12217.7535,W,1.08,111.39,260612,,,D*77
$GPRMC,214723.000,A,3748.7424,N,12217.7527,W,1.16,103.14,260612,,,D*75
$GPRMC,214724.000,A,3748.7421,N,12217.7517,W,1.06,62.40,260612,,,D*42
$GPRMC,214725.000,A,3748.7421,N,12217.7510,W,1.11,53.77,260612,,,D*44
$GPRMC,214726.000,A,3748.7419,N,12217.7504,W,0.90,84.58,260612,,,D*46
$GPRMC,214727.000,A,3748.7415,N,12217.7492,W,0.68,100.36,260612,,,D*77
$GPRMC,214728.000,A,3748.7411,N,12217.7485,W,0.53,137.91,260612,,,D*7B
$GPRMC,214729.000,A,3748.7409,N,12217.7483,W,0.31,169.40,260612,,,D*76
$GPRMC,214730.000,A,3748.7406,N,12217.7481,W,0.20,359.76,260612,,,D*77
$GPRMC,214731.000,A,3748.7403,N,12217.7475,W,0.69,89.61,260612,,,D*4D
$GPRMC,214732.000,A,3748.7394,N,12217.7467,W,1.10,88.32,260612,,,D*4C
$GPRMC,214733.000,A,3748.7391,N,12217.7458,W,1.11,77.30,260612,,,D*47
$GPRMC,214734.000,A,3748.7386,N,12217.7451,W,1.01,142.72,260612,,,D*7F
$GPRMC,214735.000,A,3748.7384,N,12217.7449,W,1.11,160.44,260612,,,D*71
$GPRMC,214736.000,A,3748.7379,N,12217.7445,W,0.60,124.34,260612,,,D*7C
$GPRMC,214737.000,A,3748.7378,N,12217.7440,W,0.56,110.50,260612,,,D*79
$GPRMC,214738.000,A,3748.7377,N,12217.7440,W,0.02,40.82,260612,,,D*43
$GPRMC,214739.000,A,3748.7374,N,12217.7442,W,0.38,174.17,260612,,,D*70
$GPRMC,214740.000,A,3748.7371,N,12217.7435,W,0.43,134.66,260612,,,D*75
$GPRMC,214741.000,A,3748.7369,N,12217.7426,W,1.23,137.67,260612,,,D*7A
$GPRMC,214742.000,A,3748.7367,N,12217.7419,W,1.12,142.73,260612,,,D*7E
$GPRMC,214743.000,A,3748.7359,N,12217.7411,W,1.27,123.23,260612,,,D*7E
$GPRMC,214744.000,A,3748.7352,N,12217.7402,W,1.78,131.34,260612,,,D*7F
$GPRMC,214745.000,A,3748.7346,N,12217.7397,W,1.78,139.55,260612,,,D*7F
$GPRMC,214746.000,A,3748.7341,N,12217.7392,W,1.37,133.66,260612,,,D*7F
$GPRMC,214747.000,A,3748.7340,N,12217.7381,W,1.63,123.99,260612,,,D*7D
$GPRMC,214748.000,A,3748.7341,N,12217.7370,W,1.46,102.25,260612,,,D*7E
$GPRMC,214749.000,A,3748.7340,N,12217.7356,W,1.63,116.89,260612,,,D*7E
$GPRMC,214750.000,A,3748.7334,N,12217.7348,W,1.74,117.02,260612,,,D*7E
$GPRMC,214751.000,A,3748.7329,N,12217.7345,W,1.08,128.62,260612,,,D*7F
$GPRMC,214752.000,A,3748.7327,N,12217.7340,W,1.25,97.12,260612,,,D*4A
$GPRMC,214753.000,A,3748.7327,N,12217.7335,W,1.36,111.97,260612,,,D*79
$GPRMC,214754.000,A,3748.7326,N,12217.7335,W,1.43,128.56,260612,,,D*7A
$GPRMC,214755.000,A,3748.7324,N,12217.7327,W,1.38,125.61,260612,,,D*7F
$GPRMC,214756.000,A,3748.7324,N,12217.7318,W,1.09,118.84,260612,,,D*77
$GPRMC,214757.000,A,3748.7324,N,12217.7309,W,0.79,128.79,260612,,,D*71
$GPRMC,214758.000,A,3748.7323,N,12217.7299,W,1.41,113.36,260612,,,D*78
$GPRMC,214759.000,A,3748.7319,N,12217.7287,W,2.21,126.89,260612,,,D*78
$GPRMC,214800.000,A,3748.7311,N,12217.7276,W,2.32,125.42,260612,,,D*7B
$GPRMC,214801.000,A,3748.7305,N,12217.7270,W,1.81,120.95,260612,,,D*7D
$GPRMC,214802.000,A,3748.7299,N,12217.7263,W,2.10,120.91,260612,,,D*77
$GPRMC,214803.000,A,3748.7294,N,12217.7255,W,1.94,117.77,260612,,,D*7D
$GPRMC,214804.000,A,3748.7289,N,12217.7245,W,2.12,117.22,260612,,,D*7A
$GPRMC,214805.000,A,3748.7285,N,12217.7237,W,1.19,103.38,260612,,,D*74
$GPRMC,214806.000,A,3748.7284,N,12217.7232,W,1.30,102.96,260612,,,D*7D
$GPRMC,214807.000,A,3748.7284,N,12217.7230,W,1.15,103.76,260612,,,D*76
$GPRMC,214808.000,A,3748.7281,N,12217.7223,W,1.14,105.54,260612,,,D*79
$GPRMC,214809.000,A,3748.7281,N,12217.7218,W,0.95,97.02,260612,,,D*41
$GPRMC,214810.000,A,3748.7283,N,12217.7215,W,1.28,96.80,260612,,,D*4A
$GPRMC,214811.000,A,3748.7281,N,12217.7206,W,1.13,104.44,260612,,,D*71
$GPRMC,214812.000,A,3748.7279,N,12217.7198,W,1.08,114.05,260612,,,D*7F
$GPRMC,214813.000,A,3748.7276,N,12217.7191,W,1.31,120.12,260612,,,D*73
$GPRMC,214814.000,A,3748.7275,N,12217.7184,W,1.28,109.77,260612,,,D*73
$GPRMC,214815.000,A,3748.7273,N,12217.7180,W,1.47,120.31,260612,,,D*70
$GPRMC,214816.000,A,3748.7269,N,12217.7166,W,1.41,114.53,260612,,,D*75
$GPRMC,214817.000,A,3748.7268,N,12217.7157,W,1.71,90.68,260612,,,D*41
$GPRMC,214818.000,A,3748.7265,N,12217.7147,W,2.02,92.64,260612,,,D*4B
$GPRMC,214819.000,A,3748.7265,N,12217.7135,W,2.22,64.44,260612,,,D*46
$GPRMC,214820.000,A,3748.7267,N,12217.7125,W,2.57,51.96,260612,,,D*44
$GPRMC,214821.000,A,3748.7271,N,12217.7114,W,2.25,39.24,260612,,,D*42
$GPRMC,214822.000,A,3748.7276,N,12217.7110,W,1.73,22.77,260612,,,D*4E
$GPRMC,214823.000,A,3748.7280,N,12217.7107,W,1.68,21.82,260612,,,D*43
$GPRMC,214824.000,A,3748.7284,N,12217.7101,W,2.11,22.51,260612,,,D*46
$GPRMC,214825.000,A,3748.7294,N,12217.7096,W,2.31,32.30,260612,,,D*4D
$GPRMC,214826.000,A,3748.7302,N,12217.7092,W,2.38,29.69,260612,,,D*4B
$GPRMC,214827.000,A,3748.7311,N,12217.7088,W,2.59,22.87,260612,,,D*4F
$GPRMC,214828.000,A,3748.7313,N,12217.7083,W,2.09,31.30,260612,,,D*42
$GPRMC,214829.000,A,3748.7319,N,12217.7079,W,1.96,28.77,260612,,,D*42
$GPRMC,214830.000,A,3748.7324,N,12217.7076,W,1.81,22.79,260612,,,D*49
$GPRMC,214831.000,A,3748.7330,N,12217.7069,W,2.23,34.96,260612,,,D*4E
$GPRMC,214832.000,A,3748.7336,N,12217.7063,W,2.49,27.26,260612,,,D*44
$GPRMC,214833.000,A,3748.7343,N,12217.7057,W,1.96,27.44,260612,,,D*45
$GPRMC,214834.000,A,3748.7349,N,12217.7049,W,2.41,28.10,260612,,,D*40
$GPRMC,214835.000,A,3748.7355,N,12217.7045,W,2.22,29.01,260612,,,D*44
$GPRMC,214836.000,A,3748.7360,N,12217.7039,W,2.08,27.39,260612,,,D*47
$GPRMC,214837.000,A,3748.7364,N,12217.7036,W,2.21,32.45,260612,,,A*4C
$GPRMC,214838.000,A,3748.7370,N,12217.7028,W,2.08,38.27,260612,,,A*4C
$GPRMC,214839.000,A,3748.7376,N,12217.7019,W,2.30,28.65,260612,,,A*45
$GPRMC,214840.000,A,3748.7382,N,12217.7011,W,2.41,32.88,260612,,,A*46
$GPRMC,214841.000,A,3748.7387,N,12217.7005,W,2.31,35.14,260612,,,A*42
$GPRMC,214842.000,A,3748.7390,N,12217.6997,W,2.55,39.24,260612,,,A*49
$GPRMC,214843.000,A,3748.7393,N,12217.6988,W,2.32,32.50,260612,,,A*4C
$GPRMC,214844.000,A,3748.7396,N,12217.6981,W,1.88,36.06,260612,,,A*42
$GPRMC,214845.000,A,3748.7402,N,12217.6976,W,2.10,32.79,260612,,,A*4F
$GPRMC,214846.000,A,3748.7407,N,12217.6974,W,1.83,27.58,260612,,,A*45
$GPRMC,214847.000,A,3748.7415,N,12217.6974,W,1.83,13.64,260612,,,A*4F
$GPRMC,214848.000,A,3748.7422,N,12217.6973,W,2.10,3.84,260612,,,A*75
$GPRMC,214849.000,A,3748.7432,N,12217.6977,W,2.49,5.34,260612,,,A*70
$GPRMC,214850.000,A,3748.7440,N,12217.6978,W,2.61,9.44,260612,,,A*73
$GPRMC,214851.000,A,3748.7444,N,12217.6974,W,2.00,8.20,260612,,,A*7E
$GPRMC,214852.000,A,3748.7445,N,12217.6972,W,1.81,0.29,260612,,,A*71
$GPRMC,214853.000,A,3748.7453,N,12217.6970,W,1.92,4.06,260612,,,A*7E
$GPRMC,214854.000,A,3748.7456,N,12217.6969,W,1.62,358.43,260612,,,A*70
$GPRMC,214855.000,A,3748.7462,N,12217.6966,W,1.30,6.63,260612,,,A*74
$GPRMC,214856.000,A,3748.7470,N,12217.6962,W,1.47,13.82,260612,,,A*4B
$GPRMC,214857.000,A,3748.7476,N,12217.6953,W,2.09,25.16,260612,,,A*4F
$GPRMC,214858.000,A,3748.7489,N,12217.6946,W,2.08,21.36,260612,,,A*43
$GPRMC,214859.000,A,3748.7501,N,12217.6941,W,1.91,14.87,260612,,,A*4B
$GPRMC,214900.000,A,3748.7509,N,12217.6936,W,1.79,27.28,260612,,,A*4D
$GPRMC,214901.000,A,3748.7513,N,12217.6929,W,1.77,37.30,260612,,,A*4F
$GPRMC,214902.000,A,3748.7519,N,12217.6919,W,2.33,39.98,260612,,,A*4A
$GPRMC,214903.000,A,3748.7518,N,12217.6913,W,2.23,46.99,260612,,,A*48
$GPRMC,214904.000,A,3748.7520,N,12217.6905,W,2.21,44.07,260612,,,A*44
$GPRMC,214905.000,A,3748.7526,N,12217.6899,W,2.12,37.25,260612,,,A*43
$GPRMC,214906.000,A,3748.7531,N,12217.6893,W,2.46,28.33,260612,,,A*44
$GPRMC,214907.000,A,3748.7537,N,12217.6889,W,2.41,29.96,260612,,,A*41
$GPRMC,214908.000,A,3748.7543,N,12217.6887,W,2.41,29.84,260612,,,A*40
$GPRMC,214909.000,A,3748.7548,N,12217.6886,W,2.36,29.36,260612,,,A*42
$GPRMC,214910.000,A,3748.7549,N,12217.6886,W,1.84,38.18,260612,,,A*4D
$GPRMC,214911.000,A,3748.7554,N,12217.6883,W,2.36,33.80,260612,,,A*45
$GPRMC,214912.000,A,3748.7559,N,12217.6877,W,2.09,38.52,260612,,,A*48
$GPRMC,214913.000,A,3748.7563,N,12217.6873,W,1.96,53.04,260612,,,A*4F
$GPRMC,214914.000,A,3748.7568,N,12217.6867,W,2.40,37.71,260612,,,A*4E
$GPRMC,214915.000,A,3748.7573,N,12217.6860,W,2.23,40.18,260612,,,A*48
$GPRMC,214916.000,A,3748.7579,N,12217.6853,W,2.27,35.18,260612,,,A*47
$GPRMC,214917.000,A,3748.7584,N,12217.6848,W,2.23,22.68,260612,,,A*4B
$GPRMC,214918.000,A,3748.7591,N,12217.6846,W,2.21,25.06,260612,,,A*43
$GPRMC,214919.000,A,3748.7597,N,12217.6843,W,2.32,31.02,260612,,,A*42
$GPRMC,214920.000,A,3748.7604,N,12217.6840,W,2.67,32.75,260612,,,A*41
$GPRMC,214921.000,A,3748.7610,N,12217.6836,W,2.30,29.30,260612,,,A*4D
$GPRMC,214922.000,A,3748.7614,N,12217.6828,W,2.38,29.46,260612,,,A*4C
$GPRMC,214923.000,A,3748.7619,N,12217.6820,W,2.47,38.00,260612,,,A*42
$GPRMC,214924.000,A,3748.7625,N,12217.6817,W,2.43,24.85,260612,,,A*4A
$GPRMC,214925.000,A,3748.7633,N,12217.6815,W,2.27,7.53,260612,,,A*76
$GPRMC,214926.000,A,3748.7642,N,12217.6812,W,1.87,2.18,260612,,,A*77
$GPRMC,214927.000,A,3748.7652,N,12217.6809,W,2.48,20.47,260612,,,A*47
$GPRMC,214928.000,A,3748.7661,N,12217.6802,W,2.22,17.88,260612,,,A*48
$GPRMC,214929.000,A,3748.7666,N,12217.6793,W,2.44,21.72,260612,,,A*49
$GPRMC,214930.000,A,3748.7671,N,12217.6788,W,2.41,21.58,260612,,,A*40
$GPRMC,214931.000,A,3748.7674,N,12217.6783,W,2.34,25.48,260612,,,A*48
$GPRMC,214932.000,A,3748.7680,N,12217.6779,W,2.09,19.35,260612,,,A*4E
$GPRMC,214933.000,A,3748.7683,N,12217.6773,W,2.16,21.10,260612,,,A*44
$GPRMC,214934.000,A,3748.7686,N,12217.6767,W,2.27,28.05,260612,,,A*4C
$GPRMC,214935.000,A,3748.7689,N,12217.6759,W,2.33,28.33,260612,,,A*4F
$GPRMC,214936.000,A,3748.7695,N,12217.6752,W,2.04,26.27,260612,,,A*45
$GPRMC,214937.000,A,3748.7700,N,12217.6749,W,2.04,21.39,260612,,,A*4B
$GPRMC,214938.000,A,3748.7705,N,12217.6747,W,2.04,21.57,260612,,,A*47
$GPRMC,214939.000,A,3748.7712,N,12217.6743,W,2.58,27.08,260612,,,A*41
$GPRMC,214940.000,A,3748.7719,N,12217.6738,W,2.46,25.72,260612,,,A*48
$GPRMC,214941.000,A,3748.7726,N,12217.6732,W,2.34,36.01,260612,,,A*4C
$GPRMC,214942.000,A,3748.7732,N,12217.6726,W,2.46,32.68,260612,,,A*41
$GPRMC,214943.000,A,3748.7739,N,12217.6722,W,2.52,27.44,260612,,,A*40
$GPRMC,214944.000,A,3748.7745,N,12217.6715,W,2.54,30.54,260612,,,A*49
$GPRMC,214945.000,A,3748.7751,N,12217.6709,W,2.15,39.23,260612,,,A*4C
$GPRMC,214946.000,A,3748.7757,N,12217.6704,W,2.56,38.32,260612,,,A*42
$GPRMC,214947.000,A,3748.7764,N,12217.6700,W,2.42,23.57,260612,,,A*4B
$GPRMC,214948.000,A,3748.7770,N,12217.6696,W,2.34,24.65,260612,,,A*48
$GPRMC,214949.000,A,3748.7775,N,12217.6691,W,2.32,27.78,260612,,,A*42
$GPRMC,214950.000,A,3748.7782,N,12217.6688,W,2.31,32.19,260612,,,A*4A
$GPRMC,214951.000,A,3748.7787,N,12217.6683,W,2.21,39.63,260612,,,A*42
$GPRMC,214952.000,A,3748.7790,N,12217.6677,W,1.82,29.11,260612,,,A*42
$GPRMC,214953.000,A,3748.7795,N,12217.6676,W,1.97,8.86,260612,,,A*7E
$GPRMC,214954.000,A,3748.7803,N,12217.6676,W,2.42,15.42,260612,,,A*46
$GPRMC,214955.000,A,3748.7810,N,12217.6673,W,2.42,26.57,260612,,,A*44
$GPRMC,214956.000,A,3748.7816,N,12217.6669,W,2.10,33.50,260612,,,A*4E
$GPRMC,214957.000,A,3748.7821,N,12217.6664,W,2.30,33.71,260612,,,A*47
$GPRMC,214958.000,A,3748.7828,N,12217.6661,W,2.17,26.08,260612,,,A*4B
$GPRMC,214959.000,A,3748.7833,N,12217.6656,W,2.43,27.51,260612,,,A*48
$GPRMC,215000.000,A,3748.7838,N,12217.6654,W,1.75,19.63,260612,,,A*4F
$GPRMC,215001.000,A,3748.7844,N,12217.6650,W,2.08,23.07,260612,,,A*43
$GPRMC,215002.000,A,3748.7852,N,12217.6647,W,2.50,16.08,260612,,,A*45
$GPRMC,215003.000,A,3748.7858,N,12217.6643,W,2.00,30.03,260612,,,A*40
$GPRMC,215004.000,A,3748.7864,N,12217.6639,W,2.30,20.54,260612,,,A*45
$GPRMC,215005.000,A,3748.7870,N,12217.6634,W,2.26,29.79,260612,,,A*4D
$GPRMC,215006.000,A,3748.7876,N,12217.6633,W,1.88,15.32,260612,,,A*48
$GPRMC,215007.000,A,3748.7881,N,12217.6630,W,2.13,31.40,260612,,,A*40
$GPRMC,215008.000,A,3748.7886,N,12217.6625,W,2.18,38.18,260612,,,A*43
$GPRMC,215009.000,A,3748.7893,N,12217.6619,W,2.36,25.13,260612,,,A*42
$GPRMC,215010.000,A,3748.7901,N,12217.6617,W,1.93,11.04,260612,,,A*43
$GPRMC,215011.000,A,3748.7909,N,12217.6615,W,2.18,12.98,260612,,,A*4E
$GPRMC,215012.000,A,3748.7919,N,12217.6614,W,1.95,17.54,260612,,,A*4E
$GPRMC,215013.000,A,3748.7929,N,12217.6613,W,2.13,21.39,260612,,,A*48
$GPRMC,215014.000,A,3748.7934,N,12217.6607,W,2.32,34.79,260612,,,A*45
$GPRMC,215015.000,A,3748.7942,N,12217.6601,W,2.01,32.56,260612,,,A*48
$GPRMC,215016.000,A,3748.7948,N,12217.6597,W,2.23,34.40,260612,,,A*4C
$GPRMC,215017.000,A,3748.7953,N,12217.6593,W,1.93,28.11,260612,,,A*42
$GPRMC,215018.000,A,3748.7959,N,12217.6589,W,1.95,23.33,260612,,,A*41
$GPRMC,215019.000,A,3748.7964,N,12217.6584,W,1.89,21.48,260612,,,A*40
$GPRMC,215020.000,A,3748.7970,N,12217.6579,W,2.19,19.83,260612,,,A*4B
$GPRMC,215021.000,A,3748.7977,N,12217.6576,W,1.84,17.25,260612,,,A*47
$GPRMC,215022.000,A,3748.7981,N,12217.6573,W,1.66,19.03,260612,,,A*4E
$GPRMC,215023.000,A,3748.7985,N,12217.6568,W,1.73,11.85,260612,,,A*43
$GPRMC,215024.000,A,3748.7989,N,12217.6561,W,2.18,31.20,260612,,,A*42
$GPRMC,215025.000,A,3748.7995,N,12217.6555,W,2.11,39.51,260612,,,A*4E
$GPRMC,215026.000,A,3748.7999,N,12217.6550,W,1.54,33.05,260612,,,A*4D
$GPRMC,215027.000,A,3748.8000,N,12217.6544,W,0.42,30.97,260612,,,A*41
$GPRMC,215028.000,A,3748.8002,N,12217.6538,W,1.10,39.86,260612,,,A*48
$GPRMC,215029.000,A,3748.8004,N,12217.6531,W,2.33,45.27,260612,,,A*44
$GPRMC,215030.000,A,3748.8009,N,12217.6526,W,2.29,34.42,260612,,,A*49
$GPRMC,215031.000,A,3748.8015,N,12217.6522,W,1.97,26.52,260612,,,A*45
$GPRMC,215032.000,A,3748.8021,N,12217.6519,W,2.07,27.71,260612,,,A*43
$GPRMC,215033.000,A,3748.8028,N,12217.6517,W,1.95,28.21,260612,,,A*47
$GPRMC,215034.000,A,3748.8034,N,12217.6514,W,2.17,28.35,260612,,,A*42
$GPRMC,215035.000,A,3748.8039,N,12217.6512,W,2.29,18.68,260612,,,A*4E
$GPRMC,215036.000,A,3748.8044,N,12217.6511,W,2.27,12.83,260612,,,A*45
$GPRMC,215037.000,A,3748.8051,N,12217.6508,W,2.45,28.31,260612,,,A*4C
$GPRMC,215038.000,A,3748.8055,N,12217.6506,W,2.03,18.78,260612,,,A*45
$GPRMC,215039.000,A,3748.8061,N,12217.6498,W,2.03,26.82,260612,,,A*4D
$GPRMC,215040.000,A,3748.8066,N,12217.6488,W,2.20,24.95,260612,,,A*40
$GPRMC,215041.000,A,3748.8072,N,12217.6483,W,2.25,24.91,260612,,,A*4E
$GPRMC,215042.000,A,3748.8077,N,12217.6472,W,2.49,37.52,260612,,,A*41
$GPRMC,215043.000,A,3748.8083,N,12217.6465,W,2.79,38.03,260612,,,A*45
$GPRMC,215044.000,A,3748.8090,N,12217.6460,W,2.55,42.96,260612,,,A*4A
$GPRMC,215045.000,A,3748.8095,N,12217.6453,W,2.53,41.63,260612,,,A*41
$GPRMC,215046.000,A,3748.8100,N,12217.6445,W,2.60,28.93,260612,,,A*48
$GPRMC,215047.000,A,3748.8105,N,12217.6442,W,2.64,21.10,260612,,,A*4D
$GPRMC,215048.000,A,3748.8108,N,12217.6431,W,2.58,16.06,260612,,,A*47
$GPRMC,215049.000,A,3748.8111,N,12217.6425,W,2.27,14.24,260612,,,A*41
$GPRMC,215050.000,A,3748.8115,N,12217.6420,W,2.78,29.82,260612,,,A*40
$GPRMC,215051.000,A,3748.8122,N,12217.6419,W,2.39,18.57,260612,,,A*40
$GPRMC,215052.000,A,3748.8129,N,12217.6417,W,2.73,19.53,260612,,,A*4D
$GPRMC,215053.000,A,3748.8133,N,12217.6410,W,2.27,25.24,260612,,,A*4E
$GPRMC,215054.000,A,3748.8136,N,12217.6404,W,2.14,20.72,260612,,,A*4F
$GPRMC,215055.000,A,3748.8140,N,12217.6401,W,2.25,20.15,260612,,,A*49
$GPRMC,215056.000,A,3748.8143,N,12217.6395,W,2.60,32.75,260612,,,A*47
$GPRMC,215057.000,A,3748.8148,N,12217.6388,W,2.47,35.89,260612,,,A*40
$GPRMC,215058.000,A,3748.8154,N,12217.6387,W,2.29,18.88,260612,,,A*4B
$GPRMC,215059.000,A,3748.8160,N,12217.6385,W,2.26,20.67,260612,,,A*4A
$GPRMC,215100.000,A,3748.8164,N,12217.6381,W,2.79,22.33,260612,,,A*4E
$GPRMC,215101.000,A,3748.8175,N,12217.6380,W,2.55,1.22,260612,,,A*71
$GPRMC,215102.000,A,3748.8181,N,12217.6376,W,2.40,21.19,260612,,,A*4E
$GPRMC,215103.000,A,3748.8184,N,12217.6368,W,2.54,38.81,260612,,,A*49
$GPRMC,215104.000,A,3748.8189,N,12217.6361,W,2.43,40.48,260612,,,A*46
$GPRMC,215105.000,A,3748.8191,N,12217.6351,W,2.22,42.70,260612,,,A*43
$GPRMC,215106.000,A,3748.8195,N,12217.6347,W,2.27,17.11,260612,,,A*41
$GPRMC,215107.000,A,3748.8198,N,12217.6340,W,2.20,28.90,260612,,,A*48
$GPRMC,215108.000,A,3748.8201,N,12217.6332,W,2.28,28.04,260612,,,A*44
$GPRMC,215109.000,A,3748.8207,N,12217.6327,W,2.51,27.51,260612,,,A*46
$GPRMC,215110.000,A,3748.8214,N,12217.6321,W,2.35,21.04,260612,,,A*4E
$GPRMC,215111.000,A,3748.8221,N,12217.6317,W,3.02,12.05,260612,,,A*48
$GPRMC,215112.000,A,3748.8226,N,12217.6314,W,2.68,19.73,260612,,,A*48
$GPRMC,215113.000,A,3748.8233,N,12217.6310,W,2.25,32.53,260612,,,A*4B
$GPRMC,215114.000,A,3748.8238,N,12217.6305,W,2.37,32.80,260612,,,A*4E
$GPRMC,215115.000,A,3748.8245,N,12217.6301,W,2.36,28.24,260612,,,A*45
$GPRMC,215116.000,A,3748.8249,N,12217.6294,W,2.23,35.74,260612,,,A*4A
$GPRMC,215117.000,A,3748.8252,N,12217.6284,W,2.37,37.24,260612,,,A*42
$GPRMC,215118.000,A,3748.8252,N,12217.6276,W,2.30,38.07,260612,,,A*49
$GPRMC,215119.000,A,3748.8261,N,12217.6275,W,2.45,20.32,260612,,,A*46
$GPRMC,215120.000,A,3748.8268,N,12217.6275,W,1.98,17.28,260612,,,A*49
$GPRMC,215121.000,A,3748.8277,N,12217.6274,W,2.22,21.94,260612,,,A*47
$GPRMC,215122.000,A,3748.8283,N,12217.6269,W,2.56,34.54,260612,,,A*48
$GPRMC,215123.000,A,3748.8288,N,12217.6262,W,2.58,29.14,260612,,,A*4F
$GPRMC,215124.000,A,3748.8297,N,12217.6257,W,2.63,23.66,260612,,,A*47
$GPRMC,215125.000,A,3748.8304,N,12217.6254,W,2.78,23.77,260612,,,A*44
$GPRMC,215126.000,A,3748.8311,N,12217.6248,W,2.75,29.33,260612,,,A*49
$GPRMC,215127.000,A,3748.8316,N,12217.6242,W,2.38,35.51,260612,,,A*45
$GPRMC,215128.000,A,3748.8319,N,12217.6234,W,2.32,44.43,260612,,,A*4B
$GPRMC,215129.000,A,3748.8324,N,12217.6227,W,2.17,36.63,260612,,,A*46
$GPRMC,215130.000,A,3748.8335,N,12217.6223,W,2.55,27.33,260612,,,A*49
$GPRMC,215131.000,A,3748.8342,N,12217.6218,W,2.41,35.72,260612,,,A*43
$GPRMC,215132.000,A,3748.8349,N,12217.6214,W,2.50,28.57,260612,,,A*4C
$GPRMC,215133.000,A,3748.8358,N,12217.6211,W,2.52,25.29,260612,,,A*4E
$GPRMC,215134.000,A,3748.8368,N,12217.6210,W,2.41,20.96,260612,,,A*48
$GPRMC,215135.000,A,3748.8374,N,12217.6207,W,2.34,20.89,260612,,,A*4E
$GPRMC,215136.000,A,3748.8380,N,12217.6204,W,2.44,33.38,260612,,,A*4A
$GPRMC,215137.000,A,3748.8386,N,12217.6199,W,2.14,36.32,260612,,,A*40
$GPRMC,215138.000,A,3748.8388,N,12217.6195,W,1.46,40.58,260612,,,A*44
$GPRMC,215139.000,A,3748.8390,N,12217.6192,W,1.35,47.44,260612,,,A*45
$GPRMC,215140.000,A,3748.8391,N,12217.6185,W,1.88,88.43,260612,,,A*4E
$GPRMC,215141.000,A,3748.8389,N,12217.6181,W,2.00,111.78,260612,,,A*78
$GPRMC,215142.000,A,3748.8386,N,12217.6176,W,1.51,109.77,260612,,,A*7D
$GPRMC,215143.000,A,3748.8381,N,12217.6169,W,1.97,125.49,260612,,,A*7C
$GPRMC,215144.000,A,3748.8378,N,12217.6167,W,1.62,125.19,260612,,,A*7C
$GPRMC,215145.000,A,3748.8377,N,12217.6167,W,1.58,116.15,260612,,,A*77
$GPRMC,215146.000,A,3748.8375,N,12217.6164,W,1.37,121.76,260612,,,A*7D
$GPRMC,215147.000,A,3748.8372,N,12217.6160,W,1.45,125.40,260612,,,A*7B
$GPRMC,215148.000,A,3748.8368,N,12217.6149,W,1.97,131.96,260612,,,A*75
$GPRMC,215149.000,A,3748.8364,N,12217.6146,W,2.11,105.17,260612,,,A*74
$GPRMC,215150.000,A,3748.8360,N,12217.6141,W,2.32,129.17,260612,,,A*70
$GPRMC,215151.000,A,3748.8356,N,12217.6135,W,2.14,117.63,260612,,,A*7D
$GPRMC,215152.000,A,3748.8351,N,12217.6131,W,1.67,119.32,260612,,,A*70
$GPRMC,215153.000,A,3748.8348,N,12217.6128,W,1.81,147.60,260612,,,A*75
$GPRMC,215154.000,A,3748.8347,N,12217.6121,W,1.48,121.54,260612,,,A*76
$GPRMC,215155.000,A,3748.8344,N,12217.6117,W,1.41,112.55,260612,,,A*79
$GPRMC,215156.000,A,3748.8341,N,12217.6113,W,1.47,111.06,260612,,,A*78
$GPRMC,215157.000,A,3748.8339,N,12217.6106,W,1.90,107.35,260612,,,A*7F
$GPRMC,215158.000,A,3748.8338,N,12217.6099,W,1.30,132.13,260612,,,A*7E
$GPRMC,215159.000,A,3748.8334,N,12217.6091,W,1.88,134.63,260612,,,A*79
$GPRMC,215200.000,A,3748.8325,N,12217.6085,W,2.25,141.96,260612,,,A*7F
$GPRMC,215201.000,A,3748.8316,N,12217.6082,W,1.85,152.77,260612,,,A*7D
$GPRMC,215202.000,A,3748.8311,N,12217.6077,W,1.54,140.62,260612,,,A*78
$GPRMC,215203.000,A,3748.8307,N,12217.6072,W,1.45,126.97,260612,,,A*71
$GPRMC,215204.000,A,3748.8304,N,12217.6066,W,2.05,134.89,260612,,,A*7B
$GPRMC,215205.000,A,3748.8307,N,12217.6057,W,2.24,125.23,260612,,,A*78
$GPRMC,215206.000,A,3748.8302,N,12217.6052,W,2.15,116.83,260612,,,A*73
$GPRMC,215207.000,A,3748.8299,N,12217.6048,W,1.88,119.18,260612,,,A*70
$GPRMC,215208.000,A,3748.8295,N,12217.6040,W,2.03,122.21,260612,,,A*79
$GPRMC,215209.000,A,3748.8292,N,12217.6036,W,2.03,127.04,260612,,,A*7C
$GPRMC,215210.000,A,3748.8290,N,12217.6031,W,2.07,107.62,260612,,,A*77
$GPRMC,215211.000,A,3748.8281,N,12217.6027,W,1.87,124.33,260612,,,A*7F
$GPRMC,215212.000,A,3748.8274,N,12217.6023,W,1.55,118.66,260612,,,A*72
$GPRMC,215213.000,A,3748.8270,N,12217.6020,W,1.05,112.09,260612,,,A*72
$GPRMC,215214.000,A,3748.8267,N,12217.6016,W,1.18,108.46,260612,,,A*7A
$GPRMC,215215.000,A,3748.8263,N,12217.6014,W,1.23,128.50,260612,,,A*70
$GPRMC,215216.000,A,3748.8259,N,12217.6011,W,1.32,124.78,260612,,,A*79
$GPRMC,215217.000,A,3748.8258,N,12217.6005,W,1.34,100.98,260612,,,A*72
$GPRMC,215218.000,A,3748.8256,N,12217.5999,W,1.08,109.67,260612,,,A*7A
$GPRMC,215219.000,A,3748.8251,N,12217.5992,W,1.73,123.04,260612,,,A*76
$GPRMC,215220.000,A,3748.8245,N,12217.5980,W,2.55,140.48,260612,,,A*70
$GPRMC,215221.000,A,3748.8242,N,12217.5972,W,1.77,126.34,260612,,,A*73
$GPRMC,215222.000,A,3748.8236,N,12217.5959,W,1.65,127.13,260612,,,A*7D
$GPRMC,215223.000,A,3748.8232,N,12217.5953,W,1.54,125.52,260612,,,A*77
$GPRMC,215224.000,A,3748.8229,N,12217.5948,W,2.20,130.20,260612,,,A*71
$GPRMC,215225.000,A,3748.8225,N,12217.5939,W,2.41,120.55,260612,,,A*7E
$GPRMC,215226.000,A,3748.8222,N,12217.5930,W,2.11,112.66,260612,,,A*77
$GPRMC,215227.000,A,3748.8217,N,12217.5925,W,1.82,114.61,260612,,,A*7C
$GPRMC,215228.000,A,3748.8214,N,12217.5915,W,1.76,114.89,260612,,,A*7E
$GPRMC,215229.000,A,3748.8210,N,12217.5908,W,1.58,114.14,260612,,,A*7F
$GPRMC,215230.000,A,3748.8208,N,12217.5903,W,1.18,113.07,260612,,,D*71
$GPRMC,215231.000,A,3748.8203,N,12217.5894,W,0.74,95.34,260612,,,D*40
$GPRMC,215232.000,A,3748.8201,N,12217.5886,W,1.50,107.93,260612,,,D*72
$GPRMC,215233.000,A,3748.8200,N,12217.5881,W,1.48,105.51,260612,,,D*70
$GPRMC,215234.000,A,3748.8196,N,12217.5874,W,1.73,115.49,260612,,,D*71
$GPRMC,215235.000,A,3748.8191,N,12217.5864,W,1.25,120.19,260612,,,D*76
$GPRMC,215236.000,A,3748.8188,N,12217.5858,W,0.98,113.38,260612,,,D*76
$GPRMC,215237.000,A,3748.8187,N,12217.5852,W,0.95,99.50,260612,,,D*42
$GPRMC,215238.000,A,3748.8185,N,12217.5844,W,0.94,119.45,260612,,,D*74
$GPRMC,215239.000,A,3748.8183,N,12217.5839,W,1.25,116.10,260612,,,D*7D
$GPRMC,215240.000,A,3748.8181,N,12217.5831,W,1.48,116.56,260612,,,D*70
$GPRMC,215241.000,A,3748.8178,N,12217.5823,W,1.61,116.53,260612,,,D*7A
$GPRMC,215242.000,A,3748.8175,N,12217.5817,W,1.78,112.19,260612,,,D*71
$GPRMC,215243.000,A,3748.8174,N,12217.5808,W,1.84,117.46,260612,,,D*73
$GPRMC,215244.000,A,3748.8172,N,12217.5800,W,1.92,105.14,260612,,,D*79
$GPRMC,215245.000,A,3748.8167,N,12217.5792,W,1.58,126.11,260612,,,D*7A
$GPRMC,215246.000,A,3748.8169,N,12217.5783,W,1.60,93.89,260612,,,D*42
$GPRMC,215247.000,A,3748.8168,N,12217.5772,W,1.14,100.15,260612,,,D*71
$GPRMC,215248.000,A,3748.8167,N,12217.5764,W,1.00,102.94,260612,,,D*78
$GPRMC,215249.000,A,3748.8161,N,12217.5756,W,1.74,120.46,260612,,,D*72
$GPRMC,215250.000,A,3748.8156,N,12217.5749,W,1.42,125.57,260612,,,D*70
$GPRMC,215251.000,A,3748.8151,N,12217.5742,W,1.41,112.82,260612,,,D*72
$GPRMC,215252.000,A,3748.8146,N,12217.5735,W,1.70,124.52,260612,,,D*7D
$GPRMC,215253.000,A,3748.8140,N,12217.5726,W,1.44,130.33,260612,,,D*7D
$GPRMC,215254.000,A,3748.8137,N,12217.5717,W,1.71,101.09,260612,,,D*75
$GPRMC,215255.000,A,3748.8135,N,12217.5709,W,1.77,112.05,260612,,,D*71
$GPRMC,215256.000,A,3748.8131,N,12217.5704,W,1.92,119.38,260612,,,D*75
$GPRMC,215257.000,A,3748.8127,N,12217.5694,W,1.56,124.30,260612,,,D*75
$GPRMC,215258.000,A,3748.8124,N,12217.5686,W,1.21,131.56,260612,,,D*7E
$GPRMC,215259.000,A,3748.8123,N,12217.5677,W,1.07,98.18,260612,,,D*4A
$GPRMC,215300.000,A,3748.8119,N,12217.5661,W,1.71,121.41,260612,,,D*77
$GPRMC,215301.000,A,3748.8115,N,12217.5651,W,1.50,111.16,260612,,,D*7B
$GPRMC,215302.000,A,3748.8111,N,12217.5639,W,2.07,137.46,260612,,,D*72
$GPRMC,215303.000,A,3748.8106,N,12217.5628,W,2.12,123.96,260612,,,D*79
$GPRMC,215304.000,A,3748.8103,N,12217.5616,W,1.93,102.01,260612,,,D*71
$GPRMC,215305.000,A,3748.8103,N,12217.5607,W,1.86,101.42,260612,,,D*70
$GPRMC,215306.000,A,3748.8106,N,12217.5598,W,1.89,108.61,260612,,,D*74
$GPRMC,215307.000,A,3748.8099,N,12217.5594,W,2.10,151.70,260612,,,D*71
$GPRMC,215308.000,A,3748.8091,N,12217.5588,W,1.10,157.11,260612,,,D*79
$GPRMC,215309.000,A,3748.8085,N,12217.5584,W,2.07,144.36,260612,,,D*73
$GPRMC,215310.000,A,3748.8078,N,12217.5578,W,1.76,134.05,260612,,,D*78
$GPRMC,215311.000,A,3748.8075,N,12217.5571,W,1.40,133.99,260612,,,D*7A
$GPRMC,215312.000,A,3748.8072,N,12217.5564,W,1.23,126.57,260612,,,D*79
$GPRMC,215313.000,A,3748.8070,N,12217.5556,W,1.47,116.47,260612,,,A*7E
$GPRMC,215314.000,A,3748.8066,N,12217.5550,W,1.57,145.40,260612,,,A*78
$GPRMC,215315.000,A,3748.8064,N,12217.5545,W,1.29,132.34,260612,,,A*75
$GPRMC,215316.000,A,3748.8060,N,12217.5541,W,1.36,125.03,260612,,,A*7A
$GPRMC,215317.000,A,3748.8053,N,12217.5536,W,1.18,152.88,260612,,,A*74
$GPRMC,215318.000,A,3748.8045,N,12217.5534,W,1.08,143.08,260612,,,A*77
$GPRMC,215319.000,A,3748.8035,N,12217.5533,W,2.04,177.50,260612,,,A*73
$GPRMC,215320.000,A,3748.8026,N,12217.5535,W,1.75,211.41,260612,,,A*7B
$GPRMC,215321.000,A,3748.8017,N,12217.5535,W,1.18,180.68,260612,,,A*73
$GPRMC,215322.000,A,3748.8009,N,12217.5534,W,0.88,208.52,260612,,,A*7C
$GPRMC,215323.000,A,3748.8007,N,12217.5530,W,0.81,197.45,260612,,,A*7D
$GPRMC,215324.000,A,3748.8007,N,12217.5529,W,0.58,189.86,260612,,,A*76
$GPRMC,215325.000,A,3748.8004,N,12217.5536,W,1.19,196.68,260612,,,A*70
$GPRMC,215326.000,A,3748.8000,N,12217.5541,W,1.02,183.96,260612,,,A*78
$GPRMC,215327.000,A,3748.7995,N,12217.5542,W,1.33,187.32,260612,,,A*78
$GPRMC,215328.000,A,3748.7992,N,12217.5544,W,1.71,173.58,260612,,,A*77
$GPRMC,215329.000,A,3748.7985,N,12217.5547,W,1.58,167.81,260612,,,A*79
$GPRMC,215330.000,A,3748.7976,N,12217.5546,W,1.51,171.57,260612,,,A*79
$GPRMC,215331.000,A,3748.7969,N,12217.5548,W,1.11,171.45,260612,,,A*7F
$GPRMC,215332.000,A,3748.7964,N,12217.5550,W,0.95,194.48,260612,,,A*73
$GPRMC,215333.000,A,3748.7961,N,12217.5553,W,1.14,201.91,260612,,,A*77
$GPRMC,215334.000,A,3748.7958,N,12217.5553,W,1.96,208.20,260612,,,A*73
$GPRMC,215335.000,A,3748.7954,N,12217.5558,W,1.43,224.74,260612,,,A*72
$GPRMC,215336.000,A,3748.7948,N,12217.5560,W,1.37,199.35,260612,,,A*74
$GPRMC,215337.000,A,3748.7944,N,12217.5561,W,0.79,168.20,260612,,,A*79
$GPRMC,215338.000,A,3748.7941,N,12217.5566,W,1.79,205.85,260612,,,A*72
$GPRMC,215339.000,A,3748.7936,N,12217.5575,W,1.61,202.92,260612,,,A*79
$GPRMC,215340.000,A,3748.7928,N,12217.5578,W,1.72,192.40,260612,,,A*72
$GPRMC,215341.000,A,3748.7920,N,12217.5579,W,0.89,163.15,260612,,,A*71
$GPRMC,215342.000,A,3748.7916,N,12217.5582,W,0.90,214.21,260612,,,A*7F
$GPRMC,215343.000,A,3748.7909,N,12217.5582,W,1.65,192.26,260612,,,A*71
$GPRMC,215344.000,A,3748.7902,N,12217.5583,W,1.42,194.80,260612,,,A*73
$GPRMC,215345.000,A,3748.7900,N,12217.5587,W,1.23,224.01,260612,,,A*72
$GPRMC,215346.000,A,3748.7894,N,12217.5591,W,1.27,193.21,260612,,,A*73
$GPRMC,215347.000,A,3748.7888,N,12217.5593,W,1.36,189.80,260612,,,A*7D
$GPRMC,215348.000,A,3748.7882,N,12217.5598,W,1.05,202.35,260612,,,A*7D
$GPRMC,215349.000,A,3748.7879,N,12217.5603,W,0.66,241.04,260612,,,A*78
$GPRMC,215350.000,A,3748.7872,N,12217.5607,W,1.11,224.87,260612,,,A*76
$GPRMC,215351.000,A,3748.7862,N,12217.5611,W,1.87,207.33,260612,,,A*70
$GPRMC,215352.000,A,3748.7852,N,12217.5619,W,2.13,227.53,260612,,,A*72
$GPRMC,215353.000,A,3748.7847,N,12217.5628,W,2.80,233.35,260612,,,A*7A
$GPRMC,215354.000,A,3748.7842,N,12217.5641,W,1.86,228.94,260612,,,A*73
$GPRMC,215355.000,A,3748.7835,N,12217.5651,W,1.81,240.03,260612,,,A*74
$GPRMC,215356.000,A,3748.7827,N,12217.5661,W,1.64,238.63,260612,,,A*75
$GPRMC,215357.000,A,3748.7824,N,12217.5669,W,2.00,240.19,260612,,,A*7C
$GPRMC,215358.000,A,3748.7819,N,12217.5678,W,1.61,260.03,260612,,,A*70
$GPRMC,215359.000,A,3748.7815,N,12217.5685,W,1.17,243.79,260612,,,A*72
$GPRMC,215400.000,A,3748.7810,N,12217.5694,W,1.00,273.38,260612,,,A*7C
$GPRMC,215401.000,A,3748.7807,N,12217.5694,W,0.71,248.23,260612,,,A*7E
$GPRMC,215402.000,A,3748.7801,N,12217.5692,W,1.20,241.41,260612,,,A*75
$GPRMC,215403.000,A,3748.7794,N,12217.5694,W,1.62,210.00,260612,,,A*76
$GPRMC,215404.000,A,3748.7784,N,12217.5690,W,1.65,187.13,260612,,,A*7C
$GPRMC,215405.000,A,3748.7779,N,12217.5693,W,1.50,212.62,260612,,,A*73
$GPRMC,215406.000,A,3748.7772,N,12217.5696,W,1.79,213.30,260612,,,A*73
$GPRMC,215407.000,A,3748.7764,N,12217.5700,W,1.50,203.33,260612,,,A*72
$GPRMC,215408.000,A,3748.7754,N,12217.5706,W,1.59,194.06,260612,,,A*7A
$GPRMC,215409.000,A,3748.7747,N,12217.5707,W,0.89,202.62,260612,,,A*7A
$GPRMC,215410.000,A,3748.7739,N,12217.5709,W,1.31,217.87,260612,,,A*78
$GPRMC,215411.000,A,3748.7731,N,12217.5715,W,1.69,198.22,260612,,,A*7A
$GPRMC,215412.000,A,3748.7724,N,12217.5720,W,1.88,198.60,260612,,,A*72
$GPRMC,215413.000,A,3748.7714,N,12217.5724,W,1.72,216.56,260612,,,A*71
$GPRMC,215414.000,A,3748.7705,N,12217.5721,W,1.79,209.71,260612,,,A*73
$GPRMC,215415.000,A,3748.7702,N,12217.5730,W,1.36,224.25,260612,,,A*70
$GPRMC,215416.000,A,3748.7699,N,12217.5736,W,1.14,224.92,260612,,,A*7A
$GPRMC,215417.000,A,3748.7695,N,12217.5741,W,1.52,221.67,260612,,,A*7A
$GPRMC,215418.000,A,3748.7683,N,12217.5742,W,2.64,207.76,260612,,,A*73
$GPRMC,215419.000,A,3748.7673,N,12217.5751,W,2.01,209.90,260612,,,A*7A
$GPRMC,215420.000,A,3748.7665,N,12217.5759,W,1.90,202.62,260612,,,A*72
$GPRMC,215421.000,A,3748.7659,N,12217.5771,W,1.88,206.24,260612,,,A*79
$GPRMC,215422.000,A,3748.7653,N,12217.5774,W,1.88,197.51,260612,,,A*7C
$GPRMC,215423.000,A,3748.7649,N,12217.5778,W,1.46,189.55,260612,,,A*73
$GPRMC,215424.000,A,3748.7644,N,12217.5784,W,1.99,188.85,260612,,,A*74
$GPRMC,215425.000,A,3748.7641,N,12217.5790,W,1.93,177.94,260612,,,A*7F
$GPRMC,215426.000,A,3748.7637,N,12217.5795,W,2.08,188.94,260612,,,A*79
$GPRMC,215427.000,A,3748.7633,N,12217.5802,W,1.99,205.64,260612,,,A*7F
$GPRMC,215428.000,A,3748.7628,N,12217.5810,W,1.95,200.08,260612,,,A*7A
$GPRMC,215429.000,A,3748.7626,N,12217.5815,W,1.68,197.61,260612,,,A*70
$GPRMC,215430.000,A,3748.7621,N,12217.5821,W,1.96,198.97,260612,,,A*7F
$GPRMC,215431.000,A,3748.7613,N,12217.5828,W,1.97,198.86,260612,,,A*77
$GPRMC,215432.000,A,3748.7604,N,12217.5833,W,1.98,197.34,260612,,,A*71
$GPRMC,215433.000,A,3748.7596,N,12217.5837,W,1.93,194.90,260612,,,A*7A
$GPRMC,215434.000,A,3748.7588,N,12217.5840,W,1.89,193.30,260612,,,A*74
$GPRMC,215435.000,A,3748.7580,N,12217.5844,W,2.15,201.30,260612,,,A*77
$GPRMC,215436.000,A,3748.7573,N,12217.5846,W,1.86,200.03,260612,,,A*72
$GPRMC,215437.000,A,3748.7567,N,12217.5851,W,1.50,193.94,260612,,,A*7C
$GPRMC,215438.000,A,3748.7559,N,12217.5857,W,2.03,194.02,260612,,,A*75
$GPRMC,215439.000,A,3748.7555,N,12217.5863,W,1.72,188.77,260612,,,A*75
$GPRMC,215440.000,A,3748.7551,N,12217.5868,W,2.35,201.02,260612,,,A*74
$GPRMC,215441.000,A,3748.7548,N,12217.5875,W,1.65,211.47,260612,,,A*77
$GPRMC,215442.000,A,3748.7544,N,12217.5878,W,2.18,206.81,260612,,,A*70
$GPRMC,215443.000,A,3748.7538,N,12217.5885,W,2.12,225.73,260612,,,A*7E
$GPRMC,215444.000,A,3748.7535,N,12217.5888,W,1.70,229.71,260612,,,A*70
$GPRMC,215445.000,A,3748.7531,N,12217.5891,W,1.94,255.48,260612,,,A*76
$GPRMC,215446.000,A,3748.7526,N,12217.5898,W,1.90,230.79,260612,,,A*7F
$GPRMC,215447.000,A,3748.7519,N,12217.5903,W,2.32,211.73,260612,,,A*73
$GPRMC,215448.000,A,3748.7511,N,12217.5904,W,1.97,205.57,260612,,,A*7C
$GPRMC,215449.000,A,3748.7501,N,12217.5906,W,2.13,196.66,260612,,,A*7A
$GPRMC,215450.000,A,3748.7493,N,12217.5909,W,1.80,194.67,260612,,,A*7D
$GPRMC,215451.000,A,3748.7487,N,12217.5905,W,1.76,185.22,260612,,,A*7D
$GPRMC,215452.000,A,3748.7483,N,12217.5908,W,1.42,210.46,260612,,,A*7D
$GPRMC,215453.000,A,3748.7478,N,12217.5910,W,1.29,173.34,260612,,,A*7F
$GPRMC,215454.000,A,3748.7472,N,12217.5912,W,1.65,209.07,260612,,,A*76
$GPRMC,215455.000,A,3748.7464,N,12217.5917,W,2.33,217.67,260612,,,A*7C
$GPRMC,215456.000,A,3748.7458,N,12217.5925,W,1.80,205.05,260612,,,A*7D
$GPRMC,215457.000,A,3748.7456,N,12217.5931,W,1.38,223.60,260612,,,A*73
$GPRMC,215458.000,A,3748.7453,N,12217.5937,W,1.52,205.21,260612,,,A*72
$GPRMC,215459.000,A,3748.7449,N,12217.5945,W,1.71,221.75,260612,,,A*7B
$GPRMC,215500.000,A,3748.7445,N,12217.5949,W,1.49,198.05,260612,,,A*7B
$GPRMC,215501.000,A,3748.7439,N,12217.5949,W,1.38,183.87,260612,,,A*77
$GPRMC,215502.000,A,3748.7434,N,12217.5950,W,1.43,185.78,260612,,,A*7B
$GPRMC,215503.000,A,3748.7430,N,12217.5953,W,1.61,221.03,260612,,,A*7C
$GPRMC,215504.000,A,3748.7422,N,12217.5957,W,1.69,204.00,260612,,,A*70
$GPRMC,215505.000,A,3748.7417,N,12217.5957,W,1.47,180.00,260612,,,A*74
$GPRMC,215506.000,A,3748.7411,N,12217.5961,W,0.87,188.20,260612,,,A*73
$GPRMC,215507.000,A,3748.7407,N,12217.5966,W,0.78,180.83,260612,,,A*73
$GPRMC,215508.000,A,3748.7401,N,12217.5974,W,1.38,211.07,260612,,,A*7B
$GPRMC,215509.000,A,3748.7397,N,12217.5981,W,0.70,207.53,260612,,,A*73
$GPRMC,215510.000,A,3748.7392,N,12217.5991,W,0.78,216.48,260612,,,A*7D
$GPRMC,215511.000,A,3748.7385,N,12217.6000,W,1.42,212.19,260612,,,A*70
$GPRMC,215512.000,A,3748.7377,N,12217.6007,W,1.75,206.36,260612,,,A*75
$GPRMC,215513.000,A,3748.7372,N,12217.6013,W,1.29,199.83,260612,,,A*76
$GPRMC,215514.000,A,3748.7369,N,12217.6019,W,1.80,215.05,260612,,,A*7B
$GPRMC,215515.000,A,3748.7363,N,12217.6027,W,1.75,205.39,260612,,,A*79
$GPRMC,215516.000,A,3748.7357,N,12217.6034,W,1.83,213.15,260612,,,A*7F
$GPRMC,215517.000,A,3748.7351,N,12217.6040,W,1.74,202.06,260612,,,A*71
$GPRMC,215518.000,A,3748.7346,N,12217.6044,W,1.96,200.41,260612,,,A*71
$GPRMC,215519.000,A,3748.7340,N,12217.6051,W,1.61,199.01,260612,,,A*7D
$GPRMC,215520.000,A,3748.7333,N,12217.6052,W,1.99,199.54,260612,,,A*77
$GPRMC,215521.000,A,3748.7327,N,12217.6057,W,1.54,206.98,260612,,,A*72
$GPRMC,215522.000,A,3748.7322,N,12217.6065,W,1.41,219.87,260612,,,A*71
$GPRMC,215523.000,A,3748.7318,N,12217.6070,W,0.82,226.17,260612,,,A*76
$GPRMC,215524.000,A,3748.7314,N,12217.6078,W,1.54,228.68,260612,,,A*79
$GPRMC,215525.000,A,3748.7307,N,12217.6090,W,1.92,225.75,260612,,,A*77
$GPRMC,215526.000,A,3748.7300,N,12217.6099,W,1.70,212.41,260612,,,A*75
$GPRMC,215527.000,A,3748.7294,N,12217.6106,W,1.99,221.72,260612,,,A*78
$GPRMC,215528.000,A,3748.7286,N,12217.6114,W,1.69,208.18,260612,,,A*7F
$GPRMC,215529.000,A,3748.7279,N,12217.6119,W,1.72,205.70,260612,,,A*7A
$GPRMC,215530.000,A,3748.7270,N,12217.6123,W,2.89,193.76,260612,,,A*7F
$GPRMC,215531.000,A,3748.7258,N,12217.6128,W,3.14,194.21,260612,,,A*7F
$GPRMC,215532.000,A,3748.7248,N,12217.6132,W,2.55,189.54,260612,,,A*7C
$GPRMC,215533.000,A,3748.7241,N,12217.6136,W,1.93,189.06,260612,,,A*7E
$GPRMC,215534.000,A,3748.7236,N,12217.6139,W,1.60,201.72,260612,,,A*7A
$GPRMC,215535.000,A,3748.7230,N,12217.6144,W,1.30,204.16,260612,,,A*75
$GPRMC,215536.000,A,3748.7224,N,12217.6150,W,1.82,191.44,260612,,,A*77
$GPRMC,215537.000,A,3748.7218,N,12217.6153,W,1.53,180.56,260612,,,A*75
$GPRMC,215538.000,A,3748.7214,N,12217.6155,W,1.10,176.93,260612,,,A*77
$GPRMC,215539.000,A,3748.7208,N,12217.6161,W,1.41,185.67,260612,,,A*7F
$GPRMC,215540.000,A,3748.7202,N,12217.6166,W,1.83,195.56,260612,,,A*71
$GPRMC,215541.000,A,3748.7197,N,12217.6172,W,1.48,192.59,260612,,,A*75
$GPRMC,215542.000,A,3748.7192,N,12217.6176,W,1.53,195.09,260612,,,A*7F
$GPRMC,215543.000,A,3748.7187,N,12217.6179,W,1.41,200.98,260612,,,A*71
$GPRMC,215544.000,A,3748.7181,N,12217.6182,W,1.65,186.97,260612,,,A*70
$GPRMC,215545.000,A,3748.7174,N,12217.6187,W,1.32,186.29,260612,,,A*79
$GPRMC,215546.000,A,3748.7168,N,12217.6191,W,0.92,187.27,260612,,,A*74
$GPRMC,215547.000,A,3748.7164,N,12217.6194,W,0.92,204.41,260612,,,A*74
$GPRMC,215548.000,A,3748.7159,N,12217.6197,W,1.26,188.74,260612,,,A*79
$GPRMC,215549.000,A,3748.7155,N,12217.6200,W,1.12,189.03,260612,,,A*7F
$GPRMC,215550.000,A,3748.7152,N,12217.6206,W,0.70,210.28,260612,,,A*79
$GPRMC,215551.000,A,3748.7146,N,12217.6212,W,1.11,187.35,260612,,,A*7F
$GPRMC,215552.000,A,3748.7142,N,12217.6216,W,1.22,186.73,260612,,,A*7F
$GPRMC,215553.000,A,3748.7136,N,12217.6218,W,1.27,185.47,260612,,,A*72
$GPRMC,215554.000,A,3748.7131,N,12217.6222,W,1.18,209.47,260612,,,A*70
$GPRMC,215555.000,A,3748.7126,N,12217.6226,W,1.32,199.59,260612,,,A*7E
$GPRMC,215556.000,A,3748.7120,N,12217.6229,W,1.25,198.71,260612,,,A*79
$GPRMC,215557.000,A,3748.7116,N,12217.6233,W,1.01,219.47,260612,,,A*7F
$GPRMC,215558.000,A,3748.7110,N,12217.6239,W,1.37,208.51,260612,,,A*7E
$GPRMC,215559.000,A,3748.7104,N,12217.6246,W,1.88,225.56,260612,,,A*7E
$GPRMC,215600.000,A,3748.7098,N,12217.6253,W,1.65,224.23,260612,,,A*71
$GPRMC,215601.000,A,3748.7091,N,12217.6260,W,2.24,218.72,260612,,,A*74
$GPRMC,215602.000,A,3748.7084,N,12217.6268,W,2.08,217.62,260612,,,A*7B
$GPRMC,215603.000,A,3748.7075,N,12217.6269,W,1.87,200.99,260612,,,A*73
$GPRMC,215604.000,A,3748.7068,N,12217.6270,W,2.09,190.17,260612,,,A*79
$GPRMC,215605.000,A,3748.7061,N,12217.6272,W,1.79,194.01,260612,,,A*74
$GPRMC,215606.000,A,3748.7056,N,12217.6276,W,1.76,197.85,260612,,,A*77
$GPRMC,215607.000,A,3748.7050,N,12217.6281,W,2.02,200.02,260612,,,A*7A
$GPRMC,215608.000,A,3748.7045,N,12217.6283,W,1.78,188.18,260612,,,A*75
$GPRMC,215609.000,A,3748.7035,N,12217.6287,W,1.68,190.77,260612,,,A*76
$GPRMC,215610.000,A,3748.7027,N,12217.6290,W,1.75,190.35,260612,,,A*71
$GPRMC,215611.000,A,3748.7021,N,12217.6293,W,2.28,189.39,260612,,,A*7A
$GPRMC,215612.000,A,3748.7015,N,12217.6297,W,1.95,196.51,260612,,,A*7F
