$ADVER,3080,2.3
$GPRMC,215428.283,A,3748.5614,N,12217.8575,W,0.16,46.36,230712,,,A*4E
$GPGGA,215429.283,3748.5613,N,12217.8576,W,1,03,2.8,25.1,M,-25.1,M,,0000*58
$GPGSA,A,2,17,27,04,,,,,,,,,,3.0,2.8,1.0*3C
$GPGSV,3,1,10,17,70,043,34,27,49,311,38,04,29,156,31,28,43,066,37*7D
$GPGSV,3,2,10,09,34,315,34,26,26,214,31,08,20,137,33,01,11,039,*76
$GPGSV,3,3,10,02,06,183,,12,05,281,*7B
$GPRMC,215429.283,A,3748.5613,N,12217.8576,W,0.29,46.22,230712,,,A*42
$GPVTG,46.22,T,,M,0.29,N,0.5,K,N*3E
$GPGGA,215430.287,3748.5613,N,12217.8577,W,1,03,2.8,25.1,M,-25.1,M,,0000*55
$GPGSA,A,2,17,27,04,,,,,,,,,,3.0,2.8,1.0*3C
$GPRMC,215430.287,A,3748.5613,N,12217.8577,W,0.25,54.95,230712,,,A*4C
$GPVTG,54.95,T,,M,0.25,N,0.5,K,N*3D
$GPGGA,215431.287,3748.5613,N,12217.8577,W,1,03,2.8,25.1,M,-25.1,M,,0000*54
$GPGSA,A,2,17,27,04,,,,,,,,,,3.0,2.8,1.0*3C
$GPRMC,215431.287,A,3748.5613,N,12217.8577,W,0.28,46.24,230712,,,A*49
$GPVTG,46.24,T,,M,0.28,N,0.5,K,N*39
$GPGGA,215432.287,3748.5612,N,12217.8578,W,1,03,2.8,25.1,M,-25.1,M,,0000*59
$GPGSA,A,2,17,27,04,,,,,,,,,,3.0,2.8,1.0*3C
$GPRMC,215432.287,A,3748.5612,N,12217.8578,W,0.14,50.58,230712,,,A*47
$GPVTG,50.58,T,,M,0.14,N,0.3,K,N*3C
$GPGGA,215433.283,3748.5612,N,12217.8579,W,1,03,2.8,25.1,M,-25.1,M,,0000*5D
$GPGSA,A,2,17,27,04,,,,,,,,,,3.0,2.8,1.0*3C
$GPRMC,215433.283,A,3748.5612,N,12217.8579,W,0.22,38.22,230712,,,A*45
$GPVTG,38.22,T,,M,0.22,N,0.4,K,N*3D
$GPGGA,215434.287,3748.5648,N,12217.8571,W,1,07,1.3,8.0,M,-25.1,M,,0000*6B
$GPGSA,A,3,17,27,04,28,09,08,26,,,,,,3.2,1.3,2.9*32
$GPGSV,3,1,10,17,70,043,34,27,49,311,38,04,29,156,31,28,43,066,37*7D
$GPGSV,3,2,10,09,34,315,34,26,26,214,31,08,20,137,33,01,11,039,*76
$GPGSV,3,3,10,02,06,183,24,12,05,281,21*7E
$GPRMC,215434.287,A,3748.5648,N,12217.8571,W,0.06,68.82,230712,,,A*48
$GPGGA,215435.287,3748.5658,N,12217.8557,W,1,07,1.3,5.7,M,-25.1,M,,0000*65
$GPGSA,A,3,17,27,04,28,09,08,26,,,,,,3.2,1.3,2.9*32
$GPRMC,215435.287,A,3748.5658,N,12217.8557,W,0.02,143.29,230712,,,A*71
$GPVTG,143.29,T,,M,0.02,N,0.0,K,A*02
$GPGGA,215436.000,3748.5653,N,12217.8562,W,1,07,1.3,6.3,M,-25.1,M,,0000*61
$GPGSA,A,3,17,27,04,28,09,08,26,,,,,,3.2,1.3,2.9*32
$GPRMC,215436.000,A,3748.5653,N,12217.8562,W,0.04,168.37,230712,,,A*72
$GPVTG,168.37,T,,M,0.04,N,0.1,K,A*03
$GPGGA,215437.000,3748.5652,N,12217.8566,W,1,07,1.3,7.5,M,-25.1,M,,0000*62
$GPGSA,A,3,17,27,04,28,09,08,26,,,,,,3.2,1.3,2.9*32
$GPRMC,215437.000,A,3748.5652,N,12217.8566,W,0.95,71.79,230712,,,A*4D
$GPVTG,71.79,T,,M,0.95,N,1.8,K,A*30
$GPGGA,215438.000,3748.5661,N,12217.8562,W,1,07,1.3,8.2,M,-25.1,M,,0000*61
$GPGSA,A,3,17,27,04,28,09,08,26,,,,,,3.2,1.3,2.9*32
$GPRMC,215438.000,A,3748.5661,N,12217.8562,W,0.66,38.00,230712,,,A*49
$GPVTG,38.00,T,,M,0.66,N,1.2,K,A*35
$GPGGA,215439.000,3748.5664,N,12217.8566,W,1,07,1.3,8.8,M,-25.1,M,,0000*6B
$GPGSA,A,3,17,27,04,28,09,08,26,,,,,,3.2,1.3,2.9*32
$GPGSV,3,1,11,17,69,043,36,27,49,311,33,28,43,066,31,09,34,315,35*7B
$GPGSV,3,2,11,04,29,156,30,26,26,214,22,08,20,137,33,01,11,039,*75
$GPGSV,3,3,11,02,06,183,24,12,05,281,15,48,44,197,29*40
$GPRMC,215439.000,A,3748.5664,N,12217.8566,W,1.37,315.65,230712,,,A*73
$GPVTG,315.65,T,,M,1.37,N,2.5,K,A*0B
$GPGGA,215440.000,3748.5664,N,12217.8569,W,1,07,1.3,8.8,M,-25.1,M,,0000*6A
$GPGSA,A,3,17,27,04,28,09,08,26,,,,,,3.2,1.3,2.9*32
$GPRMC,215440.000,A,3748.5664,N,12217.8569,W,0.74,300.36,230712,,,A*76
$GPVTG,300.36,T,,M,0.74,N,1.4,K,A*0D
$GPGGA,215441.000,3748.5665,N,12217.8570,W,1,07,1.3,9.7,M,-25.1,M,,0000*6C
$GPGSA,A,3,17,27,04,28,09,08,26,,,,,,3.2,1.3,2.9*32
$GPRMC,215441.000,A,3748.5665,N,12217.8570,W,1.07,358.58,230712,,,A*7E
$GPVTG,358.58,T,,M,1.07,N,2.0,K,A*0A
$GPGGA,215442.000,3748.5671,N,12217.8573,W,1,07,1.3,8.9,M,-25.1,M,,0000*66
$GPGSA,A,3,17,27,04,28,09,08,26,,,,,,3.2,1.3,2.9*32
$GPRMC,215442.000,A,3748.5671,N,12217.8573,W,1.16,312.67,230712,,,A*79
$GPVTG,312.67,T,,M,1.16,N,2.1,K,A*09
$GPGGA,215443.000,3748.5680,N,12217.8574,W,1,07,1.3,7.8,M,-25.1,M,,0000*60
$GPGSA,A,3,17,27,04,28,09,08,26,,,,,,3.2,1.3,2.9*32
$GPRMC,215443.000,A,3748.5680,N,12217.8574,W,0.68,313.05,230712,,,A*7C
$GPVTG,313.05,T,,M,0.68,N,1.3,K,A*05
$GPGGA,215444.000,3748.5685,N,12217.8572,W,1,07,1.3,6.8,M,-25.1,M,,0000*65
$GPGSA,A,3,17,27,04,28,09,08,26,,,,,,3.2,1.3,2.9*32
$GPGSV,3,1,11,17,69,043,33,27,49,311,41,28,43,066,22,09,34,315,37*7B
$GPGSV,3,2,11,04,29,156,35,26,26,214,29,08,20,137,29,01,11,039,*70
$GPGSV,3,3,11,02,06,183,21,12,05,281,19,48,44,197,30*41
$GPRMC,215444.000,A,3748.5685,N,12217.8572,W,0.55,353.62,230712,,,A*73
$GPVTG,353.62,T,,M,0.55,N,1.0,K,A*0D
$GPGGA,215445.000,3748.5684,N,12217.8578,W,1,07,1.3,7.5,M,-25.1,M,,0000*63
$GPGSA,A,3,17,27,04,28,09,08,26,,,,,,3.2,1.3,2.9*32
$GPRMC,215445.000,A,3748.5684,N,12217.8578,W,0.31,342.74,230712,,,A*7C
$GPVTG,342.74,T,,M,0.31,N,0.6,K,A*0F
$GPGGA,215446.000,3748.5683,N,12217.8581,W,1,07,1.3,7.2,M,-25.1,M,,0000*66
$GPGSA,A,3,17,27,04,28,09,08,26,,,,,,3.2,1.3,2.9*32
$GPRMC,215446.000,A,3748.5683,N,12217.8581,W,0.49,67.31,230712,,,A*44
$GPVTG,67.31,T,,M,0.49,N,0.9,K,A*3A
$GPGGA,215447.000,3748.5682,N,12217.8583,W,1,07,1.3,7.3,M,-25.1,M,,0000*65
$GPGSA,A,3,17,27,04,28,09,08,26,,,,,,3.2,1.3,2.9*32
$GPRMC,215447.000,A,3748.5682,N,12217.8583,W,0.59,22.23,230712,,,A*45
$GPVTG,22.23,T,,M,0.59,N,1.1,K,A*30
$GPGGA,215448.000,3748.5680,N,12217.8588,W,1,07,1.3,9.1,M,-25.1,M,,0000*6F
$GPGSA,A,3,17,27,04,28,09,08,26,,,,,,3.2,1.3,2.9*32
$GPRMC,215448.000,A,3748.5680,N,12217.8588,W,0.23,57.13,230712,,,A*4F
$GPVTG,57.13,T,,M,0.23,N,0.4,K,A*38
$GPGGA,215449.000,3748.5681,N,12217.8586,W,1,07,1.3,9.3,M,-25.1,M,,0000*63
$GPGSA,A,3,17,27,04,28,09,08,26,,,,,,3.2,1.3,2.9*32
$GPGSV,3,1,11,17,69,043,28,27,49,311,34,28,43,066,22,09,34,315,19*7F
$GPGSV,3,2,11,04,29,156,33,26,26,214,21,08,20,137,24,01,11,039,*73
$GPGSV,3,3,11,02,06,183,17,12,05,281,24,48,44,197,25*4E
$GPRMC,215449.000,A,3748.5681,N,12217.8586,W,0.24,309.44,230712,,,A*7C
$GPGGA,215450.000,3748.5679,N,12217.8588,W,1,07,1.3,10.2,M,-25.1,M,,0000*5B
$GPGSA,A,3,17,27,04,28,09,08,26,,,,,,3.2,1.3,2.9*32
$GPRMC,215450.000,A,3748.5679,N,12217.8588,W,0.37,202.38,230712,,,A*7E
$GPVTG,202.38,T,,M,0.37,N,0.7,K,A*05
$GPGGA,215451.000,3748.5683,N,12217.8585,W,1,07,1.3,8.7,M,-25.1,M,,0000*6E
$GPGSA,A,3,17,27,04,28,09,08,26,,,,,,3.2,1.3,2.9*32
$GPRMC,215451.000,A,3748.5683,N,12217.8585,W,0.12,92.11,230712,,,A*40
$GPVTG,92.11,T,,M,0.12,N,0.2,K,A*37
$GPGGA,215452.000,3748.5686,N,12217.8584,W,1,07,1.3,7.3,M,-25.1,M,,0000*62
$GPGSA,A,3,17,27,04,28,09,08,26,,,,,,3.2,1.3,2.9*32
$GPRMC,215452.000,A,3748.5686,N,12217.8584,W,0.42,243.27,230712,,,A*79
$GPVTG,243.27,T,,M,0.42,N,0.8,K,A*03
$GPGGA,215453.000,3748.5687,N,12217.8585,W,1,07,1.3,6.5,M,-25.1,M,,0000*64
$GPGSA,A,3,17,27,04,28,09,08,26,,,,,,3.2,1.3,2.9*32
$GPRMC,215453.000,A,3748.5687,N,12217.8585,W,0.08,28.56,230712,,,A*4F
$GPVTG,28.56,T,,M,0.08,N,0.1,K,A*3D
$GPGGA,215454.000,3748.5684,N,12217.8587,W,1,07,1.3,7.1,M,-25.1,M,,0000*67
$GPGSA,A,3,17,27,04,28,09,08,26,,,,,,3.2,1.3,2.9*32
$GPGSV,3,1,10,17,69,043,27,27,49,311,24,28,43,066,22,09,34,315,23*79
$GPGSV,3,2,10,04,29,156,36,26,26,214,22,08,20,137,29,01,11,039,*79
$GPGSV,3,3,10,02,06,183,20,12,05,281,17*7F
$GPRMC,215454.000,A,3748.5684,N,12217.8587,W,0.77,274.41,230712,,,A*7C
$GPVTG,274.41,T,,M,0.77,N,1.4,K,A*0C
$GPGGA,215455.000,3748.5684,N,12217.8583,W,1,07,1.3,6.6,M,-25.1,M,,0000*64
$GPGSA,A,3,17,27,04,28,09,08,26,,,,,,3.2,1.3,2.9*32
$GPRMC,215455.000,A,3748.5684,N,12217.8583,W,0.39,258.29,230712,,,A*73
$GPVTG,258.29,T,,M,0.39,N,0.7,K,A*04
$GPGGA,215456.000,3748.5683,N,12217.8582,W,1,07,1.3,5.9,M,-25.1,M,,0000*6D
$GPGSA,A,3,17,27,04,28,09,08,26,,,,,,3.2,1.3,2.9*32
$GPRMC,215456.000,A,3748.5683,N,12217.8582,W,0.31,208.77,230712,,,A*70
$GPVTG,208.77,T,,M,0.31,N,0.6,K,A*03
$GPGGA,215457.000,3748.5685,N,12217.8580,W,1,07,1.3,4.1,M,-25.1,M,,0000*61
$GPGSA,A,3,17,27,04,28,09,08,26,,,,,,3.2,1.3,2.9*32
$GPRMC,215457.000,A,3748.5685,N,12217.8580,W,0.94,12.59,230712,,,A*4F
$GPVTG,12.59,T,,M,0.94,N,1.7,K,A*39
$GPGGA,215458.000,3748.5692,N,12217.8577,W,1,07,1.3,2.1,M,-25.1,M,,0000*66
$GPGSA,A,3,17,27,04,28,09,08,26,,,,,,3.2,1.3,2.9*32
$GPRMC,215458.000,A,3748.5692,N,12217.8577,W,0.49,348.27,230712,,,A*7B
$GPVTG,348.27,T,,M,0.49,N,0.9,K,A*03
$GPGGA,215459.000,3748.5697,N,12217.8576,W,1,07,1.3,0.9,M,-25.1,M,,0000*69
$GPGSA,A,3,17,27,04,28,09,08,26,,,,,,3.2,1.3,2.9*32
$GPGSV,3,1,10,17,69,043,34,27,49,311,28,28,43,066,20,09,34,315,23*75
$GPGSV,3,2,10,04,29,156,22,26,26,214,24,08,20,137,23,01,11,039,*70
$GPGSV,3,3,10,02,06,183,14,12,05,281,16*79
$GPRMC,215459.000,A,3748.5697,N,12217.8576,W,0.53,341.30,230712,,,A*7A
$GPVTG,341.30,T,,M,0.53,N,1.0,K,A*0F
$GPGGA,215500.000,3748.5703,N,12217.8574,W,1,07,1.3,-1.4,M,-25.1,M,,0000*4B
$GPGSA,A,3,17,27,04,28,09,08,26,,,,,,3.2,1.3,2.9*32
$GPRMC,215500.000,A,3748.5703,N,12217.8574,W,0.53,22.59,230712,,,A*40
$GPVTG,22.59,T,,M,0.53,N,1.0,K,A*36
$GPGGA,215501.000,3748.5707,N,12217.8571,W,1,06,1.4,-3.1,M,-25.1,M,,0000*4A
$GPGSA,A,3,17,27,28,09,08,26,,,,,,,3.3,1.4,3.0*38
$GPRMC,215501.000,A,3748.5707,N,12217.8571,W,0.31,353.63,230712,,,A*78
$GPVTG,353.63,T,,M,0.31,N,0.6,K,A*09
$GPGGA,215502.000,3748.5708,N,12217.8568,W,1,07,1.3,-4.1,M,-25.1,M,,0000*4F
$GPGSA,A,3,17,27,04,28,09,08,26,,,,,,3.2,1.3,2.9*32
$GPRMC,215502.000,A,3748.5708,N,12217.8568,W,0.44,129.66,230712,,,A*74
$GPVTG,129.66,T,,M,0.44,N,0.8,K,A*0F
$GPGGA,215503.000,3748.5707,N,12217.8565,W,1,07,1.3,-3.9,M,-25.1,M,,0000*43
$GPGSA,A,3,17,27,04,28,09,08,26,,,,,,3.2,1.3,2.9*32
$GPRMC,215503.000,A,3748.5707,N,12217.8565,W,0.56,94.87,230712,,,A*4C
$GPVTG,94.87,T,,M,0.56,N,1.0,K,A*3D
$GPGGA,215504.000,3748.5707,N,12217.8559,W,1,07,1.3,-4.7,M,-25.1,M,,0000*42
$GPGSA,A,3,17,27,04,28,09,08,26,,,,,,3.2,1.3,2.9*32
$GPGSV,3,1,10,17,69,043,25,27,49,311,29,28,43,066,21,09,34,315,25*73
$GPGSV,3,2,10,04,29,156,18,26,26,214,28,08,20,137,23,01,11,039,*75
$GPGSV,3,3,10,02,06,183,14,12,05,281,16*79
$GPRMC,215504.000,A,3748.5707,N,12217.8559,W,0.34,98.94,230712,,,A*4E
$GPGGA,215505.000,3748.5711,N,12217.8554,W,1,06,1.4,-6.0,M,-25.1,M,,0000*4A
$GPGSA,A,3,17,27,04,28,09,26,,,,,,,3.7,1.4,3.5*35
$GPRMC,215505.000,A,3748.5711,N,12217.8554,W,0.32,64.70,230712,,,A*4A
$GPVTG,64.70,T,,M,0.32,N,0.6,K,A*3F
$GPGGA,215506.000,3748.5711,N,12217.8555,W,1,07,1.3,-5.6,M,-25.1,M,,0000*4B
$GPGSA,A,3,17,27,04,28,09,08,26,,,,,,3.2,1.3,2.9*32
$GPRMC,215506.000,A,3748.5711,N,12217.8555,W,0.71,314.65,230712,,,A*7F
$GPVTG,314.65,T,,M,0.71,N,1.3,K,A*0C
$GPGGA,215507.000,3748.5709,N,12217.8559,W,1,06,1.3,-4.4,M,-25.1,M,,0000*4D
$GPGSA,A,3,17,04,28,09,08,26,,,,,,,3.3,1.3,3.0*3E
$GPRMC,215507.000,A,3748.5709,N,12217.8559,W,0.18,61.56,230712,,,A*45
$GPVTG,61.56,T,,M,0.18,N,0.3,K,A*33
$GPGGA,215508.000,3748.5709,N,12217.8557,W,1,07,1.3,-5.4,M,-25.1,M,,0000*4C
$GPGSA,A,3,17,27,04,28,09,08,26,,,,,,3.2,1.3,2.9*32
$GPRMC,215508.000,A,3748.5709,N,12217.8557,W,0.15,180.85,230712,,,A*79
$GPVTG,180.85,T,,M,0.15,N,0.3,K,A*0E
$GPGGA,215509.000,3748.5715,N,12217.8562,W,1,06,1.7,-6.9,M,-25.1,M,,0000*4D
$GPGSA,A,3,17,27,04,28,09,08,,,,,,,3.5,1.7,3.0*3D
$GPGSV,3,1,11,17,69,043,26,27,49,311,22,28,43,066,21,09,34,315,22*7D
$GPGSV,3,2,11,04,29,156,18,26,26,214,19,08,20,137,18,01,11,039,*7E
$GPGSV,3,3,11,02,06,183,14,12,05,281,16,48,44,197,23*4A
$GPRMC,215509.000,A,3748.5715,N,12217.8562,W,0.38,346.52,230712,,,A*7E
$GPVTG,346.52,T,,M,0.38,N,0.7,K,A*07
$GPGGA,215510.000,3748.5713,N,12217.8563,W,1,07,1.3,-7.7,M,-25.1,M,,0000*48
$GPGSA,A,3,17,27,04,28,09,08,26,,,,,,3.2,1.3,2.9*32
$GPRMC,215510.000,A,3748.5713,N,12217.8563,W,0.51,347.81,230712,,,A*71
$GPVTG,347.81,T,,M,0.51,N,0.9,K,A*09
$GPGGA,215511.000,3748.5713,N,12217.8565,W,1,07,1.3,-6.3,M,-25.1,M,,0000*4A
$GPGSA,A,3,17,27,04,28,09,08,26,,,,,,3.2,1.3,2.9*32
$GPRMC,215511.000,A,3748.5713,N,12217.8565,W,0.70,289.54,230712,,,A*7E
$GPVTG,289.54,T,,M,0.70,N,1.3,K,A*0A
$GPGGA,215512.000,3748.5710,N,12217.8572,W,1,07,1.3,-6.1,M,-25.1,M,,0000*4E
$GPGSA,A,3,17,27,04,28,09,08,26,,,,,,3.2,1.3,2.9*32
$GPRMC,215512.000,A,3748.5710,N,12217.8572,W,0.83,232.16,230712,,,A*72
$GPVTG,232.16,T,,M,0.83,N,1.5,K,A*06
$GPGGA,215513.000,3748.5706,N,12217.8572,W,1,07,1.3,-5.7,M,-25.1,M,,0000*4D
$GPGSA,A,3,17,27,04,28,09,08,26,,,,,,3.2,1.3,2.9*32
$GPRMC,215513.000,A,3748.5706,N,12217.8572,W,0.59,169.77,230712,,,A*79
$GPVTG,169.77,T,,M,0.59,N,1.1,K,A*0F
$GPGGA,215514.000,3748.5703,N,12217.8573,W,1,07,1.3,-4.6,M,-25.1,M,,0000*4E
$GPGSA,A,3,17,27,04,28,09,08,26,,,,,,3.2,1.3,2.9*32
$GPGSV,3,1,10,17,69,043,31,27,49,311,22,28,43,066,29,09,34,315,20*70
$GPGSV,3,2,10,04,29,156,26,26,26,214,32,08,20,137,18,01,11,039,*7B
$GPGSV,3,3,10,02,06,183,15,12,05,281,15*7B
$GPRMC,215514.000,A,3748.5703,N,12217.8573,W,0.16,182.38,230712,,,A*7F
$GPVTG,182.38,T,,M,0.16,N,0.3,K,A*09
$GPGGA,215515.000,3748.5702,N,12217.8571,W,1,06,1.8,-3.8,M,-25.1,M,,0000*4F
$GPGSA,A,3,17,27,04,28,08,26,,,,,,,4.5,1.8,4.1*3E
$GPRMC,215515.000,A,3748.5702,N,12217.8571,W,0.13,115.58,230712,,,A*70
$GPVTG,115.58,T,,M,0.13,N,0.2,K,A*05
$GPGGA,215516.000,3748.5696,N,12217.8566,W,1,07,1.3,-2.8,M,-25.1,M,,0000*4D
$GPGSA,A,3,17,27,04,28,09,08,26,,,,,,3.2,1.3,2.9*32
$GPRMC,215516.000,A,3748.5696,N,12217.8566,W,1.04,134.13,230712,,,A*72
$GPVTG,134.13,T,,M,1.04,N,1.9,K,A*04
$GPGGA,215517.000,3748.5691,N,12217.8561,W,1,07,1.3,-1.7,M,-25.1,M,,0000*40
$GPGSA,A,3,17,27,04,28,09,08,26,,,,,,3.2,1.3,2.9*32
$GPRMC,215517.000,A,3748.5691,N,12217.8561,W,1.15,136.33,230712,,,A*73
$GPVTG,136.33,T,,M,1.15,N,2.1,K,A*0F
$GPGGA,215518.000,3748.5685,N,12217.8557,W,1,07,1.3,-0.3,M,-25.1,M,,0000*4A
$GPGSA,A,3,17,27,04,28,09,08,26,,,,,,3.2,1.3,2.9*32
$GPRMC,215518.000,A,3748.5685,N,12217.8557,W,0.88,140.26,230712,,,A*7C
$GPVTG,140.26,T,,M,0.88,N,1.6,K,A*0B
$GPGGA,215519.000,3748.5682,N,12217.8554,W,1,07,1.3,0.6,M,-25.1,M,,0000*67
$GPGSA,A,3,17,27,04,28,09,08,26,,,,,,3.2,1.3,2.9*32
$GPGSV,3,1,10,17,69,043,31,27,49,311,23,28,43,066,29,09,34,315,18*7A
$GPGSV,3,2,10,04,29,156,28,26,26,214,32,08,20,137,18,01,11,039,*75
$GPGSV,3,3,10,02,06,183,17,12,05,281,14*78
$GPRMC,215519.000,A,3748.5682,N,12217.8554,W,0.45,149.92,230712,,,A*7E
$GPGGA,215520.000,3748.5678,N,12217.8552,W,1,07,1.3,1.7,M,-25.1,M,,0000*6E
$GPGSA,A,3,17,27,04,28,09,08,26,,,,,,3.2,1.3,2.9*32
$GPRMC,215520.000,A,3748.5678,N,12217.8552,W,0.17,189.46,230712,,,A*75
$GPVTG,189.46,T,,M,0.17,N,0.3,K,A*0A
$GPGGA,215521.000,3748.5676,N,12217.8551,W,1,07,1.3,2.7,M,-25.1,M,,0000*61
$GPGSA,A,3,17,27,04,28,09,08,26,,,,,,3.2,1.3,2.9*32
$GPRMC,215521.000,A,3748.5676,N,12217.8551,W,0.18,236.95,230712,,,A*7F
$GPVTG,236.95,T,,M,0.18,N,0.3,K,A*0C
$GPGGA,215522.000,3748.5675,N,12217.8551,W,1,07,1.3,3.9,M,-25.1,M,,0000*6E
$GPGSA,A,3,17,27,04,28,09,08,26,,,,,,3.2,1.3,2.9*32
$GPRMC,215522.000,A,3748.5675,N,12217.8551,W,0.20,260.64,230712,,,A*79
$GPVTG,260.64,T,,M,0.20,N,0.4,K,A*0D
$GPGGA,215523.000,3748.5674,N,12217.8550,W,1,07,1.3,5.0,M,-25.1,M,,0000*60
$GPGSA,A,3,17,27,04,28,09,08,26,,,,,,3.2,1.3,2.9*32
$GPRMC,215523.000,A,3748.5674,N,12217.8550,W,0.49,154.16,230712,,,A*76
$GPVTG,154.16,T,,M,0.49,N,0.9,K,A*0E
$GPGGA,215524.000,3748.5675,N,12217.8551,W,1,07,1.3,4.9,M,-25.1,M,,0000*6F
$GPGSA,A,3,17,27,04,28,09,08,26,,,,,,3.2,1.3,2.9*32
$GPGSV,3,1,11,17,69,043,32,27,49,311,16,28,43,066,29,09,34,315,21*74
$GPGSV,3,2,11,04,29,156,32,26,26,214,30,08,20,137,24,01,11,039,*72
$GPGSV,3,3,11,02,06,183,19,12,05,281,,48,44,197,31*43
$GPRMC,215524.000,A,3748.5675,N,12217.8551,W,0.20,239.85,230712,,,A*7C
$GPVTG,239.85,T,,M,0.20,N,0.4,K,A*0E
$GPGGA,215525.000,3748.5674,N,12217.8553,W,1,07,1.3,6.3,M,-25.1,M,,0000*65
$GPGSA,A,3,17,27,04,28,09,08,26,,,,,,3.2,1.3,2.9*32
$GPRMC,215525.000,A,3748.5674,N,12217.8553,W,0.18,221.93,230712,,,A*7B
$GPVTG,221.93,T,,M,0.18,N,0.3,K,A*0C
$GPGGA,215526.000,3748.5680,N,12217.8556,W,1,07,1.3,4.5,M,-25.1,M,,0000*6C
$GPGSA,A,3,17,27,04,28,09,08,26,,,,,,3.2,1.3,2.9*32
$GPRMC,215526.000,A,3748.5680,N,12217.8556,W,0.18,224.75,230712,,,A*7B
$GPVTG,224.75,T,,M,0.18,N,0.3,K,A*01
$GPGGA,215527.000,3748.5683,N,12217.8558,W,1,07,1.3,3.4,M,-25.1,M,,0000*66
$GPGSA,A,3,17,27,04,28,09,08,26,,,,,,3.2,1.3,2.9*32
$GPRMC,215527.000,A,3748.5683,N,12217.8558,W,0.27,151.69,230712,,,A*77
$GPVTG,151.69,T,,M,0.27,N,0.5,K,A*07
$GPGGA,215528.000,3748.5684,N,12217.8559,W,1,07,1.3,3.2,M,-25.1,M,,0000*69
$GPGSA,A,3,17,27,04,28,09,08,26,,,,,,3.2,1.3,3.0*3A
$GPRMC,215528.000,A,3748.5684,N,12217.8559,W,0.18,155.09,230712,,,A*70
$GPVTG,155.09,T,,M,0.18,N,0.3,K,A*0F
$GPGGA,215529.000,3748.5685,N,12217.8559,W,1,07,1.3,3.2,M,-25.1,M,,0000*69
$GPGSA,A,3,17,27,04,28,09,08,26,,,,,,3.2,1.3,3.0*3A
$GPGSV,3,1,10,17,69,043,32,27,49,311,21,28,43,066,31,09,34,315,22*7B
$GPGSV,3,2,10,04,29,156,32,26,26,214,28,08,20,137,22,01,11,039,*7C
$GPGSV,3,3,10,02,06,183,18,12,05,281,*72
$GPRMC,215529.000,A,3748.5685,N,12217.8559,W,0.31,142.33,230712,,,A*74
$GPVTG,142.33,T,,M,0.31,N,0.6,K,A*0E
$GPGGA,215530.000,3748.5687,N,12217.8559,W,1,07,1.3,2.0,M,-25.1,M,,0000*60
$GPGSA,A,3,17,27,04,28,09,08,26,,,,,,3.2,1.3,3.0*3A
$GPRMC,215530.000,A,3748.5687,N,12217.8559,W,0.13,152.15,230712,,,A*7B
$GPVTG,152.15,T,,M,0.13,N,0.2,K,A*0F
$GPGGA,215531.000,3748.5685,N,12217.8555,W,1,07,1.3,1.7,M,-25.1,M,,0000*6B
$GPGSA,A,3,17,27,04,28,09,08,26,,,,,,3.2,1.3,3.0*3A
$GPRMC,215531.000,A,3748.5685,N,12217.8555,W,0.21,128.17,230712,,,A*7A
$GPVTG,128.17,T,,M,0.21,N,0.4,K,A*07
$GPGGA,215532.000,3748.5684,N,12217.8555,W,1,07,1.3,2.4,M,-25.1,M,,0000*69
$GPGSA,A,3,17,27,04,28,09,08,26,,,,,,3.2,1.3,3.0*3A
$GPRMC,215532.000,A,3748.5684,N,12217.8555,W,0.17,137.27,230712,,,A*70
$GPVTG,137.27,T,,M,0.17,N,0.3,K,A*08
$GPGGA,215533.000,3748.5682,N,12217.8552,W,1,07,1.3,2.7,M,-25.1,M,,0000*6A
$GPGSA,A,3,17,27,04,28,09,08,26,,,,,,3.2,1.3,3.0*3A
$GPRMC,215533.000,A,3748.5682,N,12217.8552,W,0.85,133.06,230712,,,A*7C
$GPVTG,133.06,T,,M,0.85,N,1.6,K,A*00
$GPGGA,215534.000,3748.5678,N,12217.8547,W,1,07,1.3,3.4,M,-25.1,M,,0000*6E
$GPGSA,A,3,17,27,04,28,09,08,26,,,,,,3.2,1.3,3.0*3A
$GPGSV,3,1,11,17,69,043,33,27,49,311,17,28,43,066,31,09,34,315,16*79
$GPGSV,3,2,11,04,29,156,28,26,26,214,28,08,20,137,22,01,11,039,*76
$GPGSV,3,3,11,02,06,183,,12,05,281,,51,43,156,30*48
$GPRMC,215534.000,A,3748.5678,N,12217.8547,W,1.30,133.50,230712,,,A*76
$GPGGA,215535.000,3748.5673,N,12217.8541,W,1,07,1.3,3.7,M,-25.1,M,,0000*61
$GPGSA,A,3,17,27,04,28,09,08,26,,,,,,3.2,1.3,3.0*3A
$GPRMC,215535.000,A,3748.5673,N,12217.8541,W,1.03,132.50,230712,,,A*7B
$GPVTG,132.50,T,,M,1.03,N,1.9,K,A*02
$GPGGA,215536.000,3748.5671,N,12217.8538,W,1,07,1.3,4.2,M,-25.1,M,,0000*6C
$GPGSA,A,3,17,27,04,28,09,08,26,,,,,,3.2,1.3,3.0*3A
$GPRMC,215536.000,A,3748.5671,N,12217.8538,W,0.30,142.52,230712,,,A*70
$GPVTG,142.52,T,,M,0.30,N,0.6,K,A*08
$GPGGA,215537.000,3748.5670,N,12217.8539,W,1,07,1.3,5.0,M,-25.1,M,,0000*6E
$GPGSA,A,3,17,27,04,28,09,08,26,,,,,,3.2,1.3,3.0*3A
$GPRMC,215537.000,A,3748.5670,N,12217.8539,W,0.15,240.61,230712,,,A*77
$GPVTG,240.61,T,,M,0.15,N,0.3,K,A*0B
$GPGGA,215538.000,3748.5670,N,12217.8540,W,1,07,1.3,5.5,M,-25.1,M,,0000*6A
$GPGSA,A,3,17,27,04,28,09,08,26,,,,,,3.2,1.3,3.0*3A
$GPRMC,215538.000,A,3748.5670,N,12217.8540,W,0.30,154.52,230712,,,A*77
$GPVTG,154.52,T,,M,0.30,N,0.6,K,A*0F
$GPGGA,215539.000,3748.5671,N,12217.8543,W,1,07,1.3,5.6,M,-25.1,M,,0000*6A
$GPGSA,A,3,17,27,04,28,09,08,26,,,,,,3.2,1.3,3.0*3A
$GPGSV,3,1,11,17,69,043,34,27,49,311,23,28,43,066,31,09,34,315,18*77
$GPGSV,3,2,11,04,29,156,29,26,26,214,28,08,20,137,19,01,11,039,*7F
$GPGSV,3,3,11,02,06,183,,12,05,281,,51,43,156,29*40
$GPRMC,215539.000,A,3748.5671,N,12217.8543,W,0.35,147.34,230712,,,A*73
$GPVTG,147.34,T,,M,0.35,N,0.6,K,A*08
$GPGGA,215540.000,3748.5673,N,12217.8546,W,1,07,1.3,5.7,M,-25.1,M,,0000*62
$GPGSA,A,3,17,27,04,28,09,08,26,,,,,,3.2,1.3,3.0*3A
$GPRMC,215540.000,A,3748.5673,N,12217.8546,W,0.43,140.52,230712,,,A*7C
$GPVTG,140.52,T,,M,0.43,N,0.8,K,A*00
$GPGGA,215541.000,3748.5674,N,12217.8548,W,1,06,1.8,5.3,M,-25.1,M,,0000*64
$GPGSA,A,3,17,27,04,28,08,26,,,,,,,4.5,1.8,4.1*3E
$GPRMC,215541.000,A,3748.5674,N,12217.8548,W,0.58,132.60,230712,,,A*7A
$GPVTG,132.60,T,,M,0.58,N,1.1,K,A*06
$GPGGA,215542.000,3748.5673,N,12217.8548,W,1,07,1.3,6.0,M,-25.1,M,,0000*6A
$GPGSA,A,3,17,27,04,28,09,08,26,,,,,,3.2,1.3,3.0*3A
$GPRMC,215542.000,A,3748.5673,N,12217.8548,W,0.32,153.76,230712,,,A*72
$GPVTG,153.76,T,,M,0.32,N,0.6,K,A*0C
$GPGGA,215543.000,3748.5671,N,12217.8547,W,1,07,1.3,6.5,M,-25.1,M,,0000*63
$GPGSA,A,3,17,27,04,28,09,08,26,,,,,,3.2,1.3,3.0*3A
$GPRMC,215543.000,A,3748.5671,N,12217.8547,W,0.26,171.18,230712,,,A*73
$GPVTG,171.18,T,,M,0.26,N,0.5,K,A*02
$GPGGA,215544.000,3748.5679,N,12217.8547,W,1,07,1.3,3.8,M,-25.1,M,,0000*64
$GPGSA,A,3,17,27,04,28,09,08,26,,,,,,3.2,1.3,3.0*3A
$GPGSV,3,1,11,17,69,043,27,27,49,311,16,28,43,066,23,09,34,315,19*71
$GPGSV,3,2,11,04,29,156,29,26,26,214,29,08,20,137,21,01,11,039,*75
$GPGSV,3,3,11,02,06,183,,12,05,281,,51,43,156,30*48
$GPRMC,215544.000,A,3748.5679,N,12217.8547,W,0.32,177.26,230712,,,A*72
$GPVTG,177.26,T,,M,0.32,N,0.6,K,A*0F
$GPGGA,215545.000,3748.5681,N,12217.8549,W,1,07,1.3,2.0,M,-25.1,M,,0000*65
$GPGSA,A,3,17,27,04,28,09,08,26,,,,,,3.2,1.3,3.0*3A
$GPRMC,215545.000,A,3748.5681,N,12217.8549,W,0.36,252.85,230712,,,A*73
$GPVTG,252.85,T,,M,0.36,N,0.7,K,A*07
$GPGGA,215546.000,3748.5686,N,12217.8551,W,1,07,1.3,0.0,M,-25.1,M,,0000*6A
$GPGSA,A,3,17,27,04,28,09,08,26,,,,,,3.2,1.3,3.0*3A
$GPRMC,215546.000,A,3748.5686,N,12217.8551,W,0.14,154.59,230712,,,A*7A
$GPVTG,154.59,T,,M,0.14,N,0.3,K,A*07
$GPGGA,215547.000,3748.5692,N,12217.8550,W,1,07,1.3,-1.1,M,-25.1,M,,0000*42
$GPGSA,A,3,17,27,04,28,09,08,26,,,,,,3.2,1.3,3.0*3A
$GPRMC,215547.000,A,3748.5692,N,12217.8550,W,0.69,32.44,230712,,,A*48
$GPVTG,32.44,T,,M,0.69,N,1.3,K,A*31
$GPGGA,215548.000,3748.5696,N,12217.8548,W,1,07,1.3,-2.6,M,-25.1,M,,0000*44
$GPGSA,A,3,17,27,04,28,09,08,26,,,,,,3.2,1.3,3.0*3A
$GPRMC,215548.000,A,3748.5696,N,12217.8548,W,0.12,11.94,230712,,,A*4A
$GPVTG,11.94,T,,M,0.12,N,0.2,K,A*31
$GPGGA,215549.000,3748.5701,N,12217.8547,W,1,07,1.3,-3.4,M,-25.1,M,,0000*46
$GPGSA,A,3,17,27,04,28,09,08,26,,,,,,3.2,1.3,3.0*3A
$GPGSV,3,1,11,17,69,043,30,27,49,311,34,28,43,066,23,09,34,315,27*7A
$GPGSV,3,2,11,04,29,156,28,26,26,214,27,08,20,137,21,01,11,039,*7A
$GPGSV,3,3,11,02,06,183,,12,05,281,,51,43,156,25*4C
$GPRMC,215549.000,A,3748.5701,N,12217.8547,W,0.68,326.91,230712,,,A*74
$GPGGA,215550.000,3748.5704,N,12217.8546,W,1,07,1.3,-3.6,M,-25.1,M,,0000*48
$GPGSA,A,3,17,27,04,28,09,08,26,,,,,,3.2,1.3,3.0*3A
$GPRMC,215550.000,A,3748.5704,N,12217.8546,W,0.69,29.87,230712,,,A*42
$GPVTG,29.87,T,,M,0.69,N,1.3,K,A*34
$GPGGA,215551.000,3748.5701,N,12217.8545,W,1,07,1.3,-1.1,M,-25.1,M,,0000*4A
$GPGSA,A,3,17,27,04,28,09,08,26,,,,,,3.2,1.3,3.0*3A
$GPRMC,215551.000,A,3748.5701,N,12217.8545,W,0.69,40.54,230712,,,A*44
$GPVTG,40.54,T,,M,0.69,N,1.3,K,A*35
$GPGGA,215552.000,3748.5700,N,12217.8548,W,1,07,1.3,-0.0,M,-25.1,M,,0000*45
$GPGSA,A,3,17,27,04,28,09,08,26,,,,,,3.2,1.3,3.0*3A
$GPRMC,215552.000,A,3748.5700,N,12217.8548,W,0.47,5.93,230712,,,A*7D
$GPVTG,5.93,T,,M,0.47,N,0.9,K,A*08
$GPGGA,215553.000,3748.5697,N,12217.8556,W,1,06,1.7,1.2,M,-25.1,M,,0000*6F
$GPGSA,A,3,17,27,04,28,09,08,,,,,,,3.5,1.7,3.0*3D
$GPRMC,215553.000,A,3748.5697,N,12217.8556,W,0.92,236.42,230712,,,A*7A
$GPVTG,236.42,T,,M,0.92,N,1.7,K,A*01
$GPGGA,215554.000,3748.5694,N,12217.8558,W,1,07,1.3,3.1,M,-25.1,M,,0000*61
$GPGSA,A,3,17,27,04,28,09,08,26,,,,,,3.2,1.3,3.0*3A
$GPGSV,3,1,10,17,69,043,25,27,49,311,28,28,43,066,20,09,34,315,24*72
$GPGSV,3,2,10,04,29,156,34,26,26,214,22,08,20,137,28,01,11,039,*7A
$GPGSV,3,3,10,02,06,183,23,12,05,281,*7A
$GPRMC,215554.000,A,3748.5694,N,12217.8558,W,0.68,221.65,230712,,,A*76
$GPVTG,221.65,T,,M,0.68,N,1.3,K,A*03
$GPGGA,215555.000,3748.5685,N,12217.8563,W,1,07,1.3,5.5,M,-25.1,M,,0000*6A
$GPGSA,A,3,17,27,04,28,09,08,26,,,,,,3.2,1.3,3.0*3A
$GPRMC,215555.000,A,3748.5685,N,12217.8563,W,0.39,206.33,230712,,,A*7D
$GPVTG,206.33,T,,M,0.39,N,0.7,K,A*04
$GPGGA,215556.000,3748.5681,N,12217.8563,W,1,07,1.3,5.4,M,-25.1,M,,0000*6C
$GPGSA,A,3,17,27,04,28,09,08,26,,,,,,3.2,1.3,3.0*3A
$GPRMC,215556.000,A,3748.5681,N,12217.8563,W,0.27,100.14,230712,,,A*75
$GPVTG,100.14,T,,M,0.27,N,0.5,K,A*09
$GPGGA,215557.000,3748.5679,N,12217.8566,W,1,07,1.3,5.3,M,-25.1,M,,0000*68
$GPGSA,A,3,17,27,04,28,09,08,26,,,,,,3.2,1.3,3.0*3A
$GPRMC,215557.000,A,3748.5679,N,12217.8566,W,0.65,250.06,230712,,,A*75
$GPVTG,250.06,T,,M,0.65,N,1.2,K,A*0C
$GPGGA,215558.000,3748.5680,N,12217.8566,W,1,07,1.3,4.5,M,-25.1,M,,0000*66
$GPGSA,A,3,17,27,04,28,09,08,26,,,,,,3.2,1.3,3.0*3A
$GPRMC,215558.000,A,3748.5680,N,12217.8566,W,0.73,223.55,230712,,,A*79
$GPVTG,223.55,T,,M,0.73,N,1.4,K,A*0F
$GPGGA,215559.000,3748.5683,N,12217.8562,W,1,07,1.3,4.1,M,-25.1,M,,0000*64
$GPGSA,A,3,17,27,04,28,09,08,26,,,,,,3.2,1.3,3.0*3A
$GPGSV,3,1,11,17,69,043,29,27,49,311,34,28,43,066,20,09,34,315,24*72
$GPGSV,3,2,11,04,29,156,31,26,26,214,22,08,20,137,30,01,11,039,*77
$GPGSV,3,3,11,02,06,183,22,12,05,281,,51,43,156,29*40
$GPRMC,215559.000,A,3748.5683,N,12217.8562,W,0.07,300.85,230712,,,A*71
$GPVTG,300.85,T,,M,0.07,N,0.1,K,A*05
$GPGGA,215600.000,3748.5686,N,12217.8560,W,1,07,1.3,3.5,M,-25.1,M,,0000*6F
$GPGSA,A,3,17,27,04,28,09,08,26,,,,,,3.2,1.3,3.0*3A
$GPRMC,215600.000,A,3748.5686,N,12217.8560,W,0.38,59.86,230712,,,A*49
$GPVTG,59.86,T,,M,0.38,N,0.7,K,A*33
$GPGGA,215601.000,3748.5687,N,12217.8561,W,1,07,1.3,2.8,M,-25.1,M,,0000*62
$GPGSA,A,3,17,27,04,28,09,08,26,,,,,,3.2,1.3,3.0*3A
$GPRMC,215601.000,A,3748.5687,N,12217.8561,W,0.29,130.86,230712,,,A*76
$GPVTG,130.86,T,,M,0.29,N,0.5,K,A*0F
$GPGGA,215602.000,3748.5689,N,12217.8564,W,1,07,1.3,2.4,M,-25.1,M,,0000*66
$GPGSA,A,3,17,27,04,28,09,08,26,,,,,,3.2,1.3,3.0*3A
$GPRMC,215602.000,A,3748.5689,N,12217.8564,W,0.06,161.81,230712,,,A*70
$GPVTG,161.81,T,,M,0.06,N,0.1,K,A*05
$GPGGA,215603.000,3748.5691,N,12217.8561,W,1,07,1.3,1.7,M,-25.1,M,,0000*6B
$GPGSA,A,3,17,27,04,28,09,08,26,,,,,,3.2,1.3,3.0*3A
$GPRMC,215603.000,A,3748.5691,N,12217.8561,W,0.29,113.65,230712,,,A*7F
$GPVTG,113.65,T,,M,0.29,N,0.5,K,A*03
$GPGGA,215604.000,3748.5694,N,12217.8557,W,1,07,1.3,-0.8,M,-25.1,M,,0000*4F
$GPGSA,A,3,17,27,04,28,09,08,26,,,,,,3.2,1.3,3.0*3A
$GPGSV,3,1,10,17,69,043,27,27,49,311,27,28,43,066,21,09,34,315,24*7E
$GPGSV,3,2,10,04,29,156,26,26,26,214,26,08,20,137,21,01,11,039,*74
$GPGSV,3,3,10,02,06,183,20,12,05,281,25*7E
$GPRMC,215604.000,A,3748.5694,N,12217.8557,W,0.56,93.95,230712,,,A*46
$GPGGA,215605.000,3748.5691,N,12217.8556,W,1,07,1.3,-0.8,M,-25.1,M,,0000*4A
$GPGSA,A,3,17,27,04,28,09,08,26,,,,,,3.2,1.3,3.0*3A
$GPRMC,215605.000,A,3748.5691,N,12217.8556,W,0.79,64.65,230712,,,A*49
$GPVTG,64.65,T,,M,0.79,N,1.5,K,A*36
$GPGGA,215606.000,3748.5689,N,12217.8556,W,1,07,1.3,-0.5,M,-25.1,M,,0000*4D
$GPGSA,A,3,17,27,04,28,09,08,26,,,,,,3.2,1.3,3.0*3A
$GPRMC,215606.000,A,3748.5689,N,12217.8556,W,0.24,33.13,230712,,,A*48
$GPVTG,33.13,T,,M,0.24,N,0.4,K,A*3D
$GPGGA,215607.000,3748.5688,N,12217.8553,W,1,07,1.3,-1.5,M,-25.1,M,,0000*49
$GPGSA,A,3,17,27,04,28,09,08,26,,,,,,3.2,1.3,3.0*3A
$GPRMC,215607.000,A,3748.5688,N,12217.8553,W,0.13,177.94,230712,,,A*77
$GPVTG,177.94,T,,M,0.13,N,0.2,K,A*01
$GPGGA,215608.000,3748.5689,N,12217.8551,W,1,06,1.4,-3.1,M,-25.1,M,,0000*45
$GPGSA,A,3,17,27,04,28,09,26,,,,,,,3.8,1.4,3.5*3A
$GPRMC,215608.000,A,3748.5689,N,12217.8551,W,0.21,249.28,230712,,,A*73
$GPVTG,249.28,T,,M,0.21,N,0.4,K,A*0F
$GPGGA,215609.000,3748.5692,N,12217.8549,W,1,07,1.3,-4.8,M,-25.1,M,,0000*4F
$GPGSA,A,3,17,27,04,28,09,08,26,,,,,,3.2,1.3,3.0*3A
$GPGSV,3,1,10,17,69,043,28,27,49,311,32,28,43,066,21,09,34,315,31*71
$GPGSV,3,2,10,04,29,156,26,26,26,214,27,08,20,137,15,01,11,039,*72
$GPGSV,3,3,10,02,06,183,22,12,05,281,12*78
$GPRMC,215609.000,A,3748.5692,N,12217.8549,W,0.42,320.32,230712,,,A*71
$GPVTG,320.32,T,,M,0.42,N,0.8,K,A*03
$GPGGA,215610.000,3748.5695,N,12217.8548,W,1,07,1.3,-6.2,M,-25.1,M,,0000*49
$GPGSA,A,3,17,27,04,28,09,08,26,,,,,,3.2,1.3,3.0*3A
$GPRMC,215610.000,A,3748.5695,N,12217.8548,W,0.15,90.86,230712,,,A*4A
$GPVTG,90.86,T,,M,0.15,N,0.3,K,A*3D
$GPGGA,215611.000,3748.5699,N,12217.8544,W,1,07,1.3,-7.6,M,-25.1,M,,0000*4D
$GPGSA,A,3,17,27,04,28,09,08,26,,,,,,3.2,1.3,3.0*3A
$GPRMC,215611.000,A,3748.5699,N,12217.8544,W,0.55,32.43,230712,,,A*4E
$GPVTG,32.43,T,,M,0.55,N,1.0,K,A*3A
$GPGGA,215612.000,3748.5707,N,12217.8537,W,1,07,1.3,-8.8,M,-25.1,M,,0000*4D
$GPGSA,A,3,17,27,04,28,09,08,26,,,,,,3.2,1.3,3.0*3A
$GPRMC,215612.000,A,3748.5707,N,12217.8537,W,1.59,30.97,230712,,,A*49
$GPVTG,30.97,T,,M,1.59,N,2.9,K,A*36
$GPGGA,215613.000,3748.5711,N,12217.8535,W,1,07,1.3,-8.2,M,-25.1,M,,0000*43
$GPGSA,A,3,17,27,04,28,09,08,26,,,,,,3.2,1.3,3.0*3A
$GPRMC,215613.000,A,3748.5711,N,12217.8535,W,1.08,36.45,230712,,,A*40
$GPVTG,36.45,T,,M,1.08,N,2.0,K,A*32
$GPGGA,215614.000,3748.5710,N,12217.8536,W,1,06,1.6,-7.8,M,-25.1,M,,0000*47
$GPGSA,A,3,17,27,04,09,08,26,,,,,,,3.5,1.6,3.1*33
$GPGSV,3,1,11,17,69,043,25,27,49,311,26,28,43,066,,09,34,315,28*73
$GPGSV,3,2,11,04,29,156,25,26,26,214,21,08,20,137,31,01,11,039,*70
$GPGSV,3,3,11,02,06,183,23,12,05,281,24,51,43,156,26*48
$GPRMC,215614.000,A,3748.5710,N,12217.8536,W,0.46,6.62,230712,,,A*78
$GPVTG,6.62,T,,M,0.46,N,0.9,K,A*04
$GPGGA,215615.000,3748.5705,N,12217.8542,W,1,06,1.6,-6.9,M,-25.1,M,,0000*41
$GPGSA,A,3,17,27,04,09,08,26,,,,,,,3.5,1.6,3.1*33
$GPRMC,215615.000,A,3748.5705,N,12217.8542,W,0.06,233.16,230712,,,A*7D
$GPVTG,233.16,T,,M,0.06,N,0.1,K,A*0F
$GPGGA,215616.000,3748.5704,N,12217.8542,W,1,06,1.6,-5.4,M,-25.1,M,,0000*4D
$GPGSA,A,3,17,27,04,09,08,26,,,,,,,3.5,1.6,3.1*33
$GPRMC,215616.000,A,3748.5704,N,12217.8542,W,0.16,226.20,230712,,,A*7F
$GPVTG,226.20,T,,M,0.16,N,0.3,K,A*0D
$GPGGA,215617.000,3748.5702,N,12217.8541,W,1,06,1.6,-4.8,M,-25.1,M,,0000*44
$GPGSA,A,3,17,27,04,09,08,26,,,,,,,3.5,1.6,3.1*33
$GPRMC,215617.000,A,3748.5702,N,12217.8541,W,0.14,139.90,230712,,,A*7F
$GPVTG,139.90,T,,M,0.14,N,0.3,K,A*09
$GPGGA,215618.000,3748.5701,N,12217.8541,W,1,06,1.6,-4.3,M,-25.1,M,,0000*43
$GPGSA,A,3,17,27,04,09,08,26,,,,,,,3.5,1.6,3.1*33
$GPRMC,215618.000,A,3748.5701,N,12217.8541,W,0.19,123.93,230712,,,A*76
$GPVTG,123.93,T,,M,0.19,N,0.3,K,A*0C
$GPGGA,215619.000,3748.5701,N,12217.8542,W,1,07,1.3,-4.3,M,-25.1,M,,0000*45
$GPGSA,A,3,17,27,04,28,09,08,26,,,,,,3.2,1.3,3.0*3A
$GPGSV,3,1,11,17,69,043,27,27,49,311,26,28,43,066,17,09,34,315,31*7F
$GPGSV,3,2,11,04,29,156,27,26,26,214,26,08,20,137,24,01,11,039,*71
$GPGSV,3,3,11,02,06,183,23,12,05,281,23,51,43,156,23*4A
$GPVTG,308.01,T,,M,0.16,N,0.3,K,A*03
$GPGGA,215620.000,3748.5698,N,12217.8546,W,1,06,1.6,-2.1,M,-25.1,M,,0000*4A
$GPGSA,A,3,17,27,04,09,08,26,,,,,,,3.5,1.6,3.1*33
$GPRMC,215620.000,A,3748.5698,N,12217.8546,W,0.23,213.39,230712,,,A*72
$GPVTG,213.39,T,,M,0.23,N,0.4,K,A*02
$GPGGA,215621.000,3748.5695,N,12217.8551,W,1,07,1.3,-0.8,M,-25.1,M,,0000*4F
$GPGSA,A,3,17,27,04,28,09,08,26,,,,,,3.2,1.3,3.0*3A
$GPRMC,215621.000,A,3748.5695,N,12217.8551,W,0.57,254.25,230712,,,A*75
$GPVTG,254.25,T,,M,0.57,N,1.1,K,A*0B
$GPGGA,215622.000,3748.5692,N,12217.8554,W,1,07,1.3,0.3,M,-25.1,M,,0000*68
$GPGSA,A,3,17,27,04,28,09,08,26,,,,,,3.2,1.3,3.0*3A
$GPRMC,215622.000,A,3748.5692,N,12217.8554,W,0.26,207.22,230712,,,A*73
$GPVTG,207.22,T,,M,0.26,N,0.5,K,A*09
$GPGGA,215623.000,3748.5689,N,12217.8556,W,1,07,1.3,0.4,M,-25.1,M,,0000*66
$GPGSA,A,3,17,27,04,28,09,08,26,,,,,,3.2,1.3,3.0*3A
$GPRMC,215623.000,A,3748.5689,N,12217.8556,W,0.10,132.76,230712,,,A*7B
$GPVTG,132.76,T,,M,0.10,N,0.2,K,A*0F
$GPGGA,215624.000,3748.5691,N,12217.8554,W,1,06,1.6,0.2,M,-25.1,M,,0000*68
$GPGSA,A,3,17,27,04,09,08,26,,,,,,,3.5,1.6,3.1*33
$GPGSV,3,1,11,17,69,043,35,27,49,311,26,28,43,066,,09,34,315,19*70
$GPGSV,3,2,11,04,29,156,31,26,26,214,21,08,20,137,30,01,11,039,*74
$GPGSV,3,3,11,02,06,183,15,12,05,281,23,51,43,156,33*4E
$GPRMC,215624.000,A,3748.5691,N,12217.8554,W,0.13,287.23,230712,,,A*79
$GPVTG,287.23,T,,M,0.13,N,0.2,K,A*01
$GPGGA,215625.000,3748.5689,N,12217.8552,W,1,05,1.6,1.4,M,-25.1,M,,0000*62
$GPGSA,A,3,17,04,09,08,26,,,,,,,,3.5,1.6,3.1*36
$GPRMC,215625.000,A,3748.5689,N,12217.8552,W,0.52,194.41,230712,,,A*77
$GPVTG,194.41,T,,M,0.52,N,1.0,K,A*02
$GPGGA,215626.000,3748.5685,N,12217.8554,W,1,06,1.6,2.7,M,-25.1,M,,0000*68
$GPGSA,A,3,17,27,04,09,08,26,,,,,,,3.5,1.6,3.1*33
$GPRMC,215626.000,A,3748.5685,N,12217.8554,W,0.73,210.53,230712,,,A*71
$GPVTG,210.53,T,,M,0.73,N,1.4,K,A*09
$GPGGA,215627.000,3748.5681,N,12217.8558,W,1,06,1.6,3.6,M,-25.1,M,,0000*61
$GPGSA,A,3,17,27,04,09,08,26,,,,,,,3.5,1.6,3.1*33
$GPRMC,215627.000,A,3748.5681,N,12217.8558,W,0.64,208.15,230712,,,A*75
$GPVTG,208.15,T,,M,0.64,N,1.2,K,A*02
$GPGGA,215628.000,3748.5679,N,12217.8561,W,1,06,1.6,4.0,M,-25.1,M,,0000*62
$GPGSA,A,3,17,27,04,09,08,26,,,,,,,3.5,1.6,3.1*33
$GPRMC,215628.000,A,3748.5679,N,12217.8561,W,0.46,216.19,230712,,,A*74
$GPVTG,216.19,T,,M,0.46,N,0.8,K,A*0A
$GPGGA,215629.000,3748.5683,N,12217.8563,W,1,06,1.6,3.3,M,-25.1,M,,0000*60
$GPGSA,A,3,17,27,04,09,08,26,,,,,,,3.5,1.6,3.1*33
$GPGSV,3,1,11,17,69,043,24,27,49,311,27,28,43,066,,09,34,315,29*72
$GPGSV,3,2,11,04,29,156,31,26,26,214,31,08,20,137,29,01,11,039,*7D
$GPGSV,3,3,11,02,06,183,20,12,05,281,12,51,43,156,30*49
$GPRMC,215629.000,A,3748.5683,N,12217.8563,W,0.17,261.67,230712,,,A*7F
$GPVTG,261.67,T,,M,0.17,N,0.3,K,A*0C
$GPGGA,215630.000,3748.5683,N,12217.8564,W,1,07,1.3,3.5,M,-25.1,M,,0000*6D
$GPGSA,A,3,17,27,04,28,09,08,26,,,,,,3.2,1.3,3.0*3A
$GPRMC,215630.000,A,3748.5683,N,12217.8564,W,0.22,27.07,230712,,,A*40
$GPVTG,27.07,T,,M,0.22,N,0.4,K,A*3B
$GPGGA,215631.000,3748.5685,N,12217.8558,W,1,07,1.3,2.6,M,-25.1,M,,0000*67
$GPGSA,A,3,17,27,04,28,09,08,26,,,,,,3.2,1.3,3.0*3A
$GPRMC,215631.000,A,3748.5685,N,12217.8558,W,0.59,94.82,230712,,,A*41
$GPVTG,94.82,T,,M,0.59,N,1.1,K,A*36
$GPGGA,215632.000,3748.5684,N,12217.8557,W,1,07,1.3,2.2,M,-25.1,M,,0000*6E
$GPGSA,A,3,17,27,04,28,09,08,26,,,,,,3.2,1.3,3.0*3A
$GPRMC,215632.000,A,3748.5684,N,12217.8557,W,0.69,130.56,230712,,,A*79
$GPVTG,130.56,T,,M,0.69,N,1.3,K,A*01
$GPGGA,215633.000,3748.5684,N,12217.8552,W,1,07,1.3,0.0,M,-25.1,M,,0000*6A
$GPGSA,A,3,17,27,04,28,09,08,26,,,,,,3.2,1.3,3.0*3A
$GPRMC,215633.000,A,3748.5684,N,12217.8552,W,0.51,193.05,230712,,,A*79
$GPVTG,193.05,T,,M,0.51,N,0.9,K,A*0E
$GPGGA,215634.000,3748.5683,N,12217.8556,W,1,06,1.6,-0.7,M,-25.1,M,,0000*40
$GPGSA,A,3,17,27,04,09,08,26,,,,,,,3.5,1.6,3.1*33
$GPGSV,3,1,11,17,69,043,32,27,49,311,25,28,43,066,,09,34,315,26*78
$GPGSV,3,2,11,04,29,156,26,26,26,214,19,08,20,137,20,01,11,039,*78
$GPGSV,3,3,11,02,06,183,23,12,05,281,15,51,43,156,31*4C
$GPRMC,215634.000,A,3748.5683,N,12217.8556,W,0.74,249.11,230712,,,A*7B
$GPGGA,215635.000,3748.5684,N,12217.8564,W,1,07,1.3,-2.0,M,-25.1,M,,0000*46
$GPGSA,A,3,17,27,04,28,09,08,26,,,,,,3.3,1.3,3.0*3B
$GPRMC,215635.000,A,3748.5684,N,12217.8564,W,0.41,293.67,230712,,,A*7C
$GPVTG,293.67,T,,M,0.41,N,0.8,K,A*09
$GPGGA,215636.000,3748.5685,N,12217.8567,W,1,07,1.3,-1.9,M,-25.1,M,,0000*4D
$GPGSA,A,3,17,27,04,28,09,08,26,,,,,,3.3,1.3,3.0*3B
$GPRMC,215636.000,A,3748.5685,N,12217.8567,W,0.72,258.70,230712,,,A*7C
$GPVTG,258.70,T,,M,0.72,N,1.3,K,A*02
$GPGGA,215637.000,3748.5689,N,12217.8570,W,1,06,1.6,-2.8,M,-25.1,M,,0000*40
$GPGSA,A,3,17,27,04,09,08,26,,,,,,,3.5,1.6,3.1*33
$GPRMC,215637.000,A,3748.5689,N,12217.8570,W,0.51,312.46,230712,,,A*7C
$GPVTG,312.46,T,,M,0.51,N,0.9,K,A*02
$GPGGA,215638.000,3748.5692,N,12217.8571,W,1,07,1.3,-2.5,M,-25.1,M,,0000*4D
$GPGSA,A,3,17,27,04,28,09,08,26,,,,,,3.3,1.3,3.0*3B
$GPRMC,215638.000,A,3748.5692,N,12217.8571,W,1.03,340.74,230712,,,A*78
$GPVTG,340.74,T,,M,1.03,N,1.9,K,A*03
$GPGGA,215639.000,3748.5695,N,12217.8571,W,1,07,1.3,-2.9,M,-25.1,M,,0000*47
$GPGSA,A,3,17,27,04,28,09,08,26,,,,,,3.3,1.3,3.0*3B
$GPGSV,3,1,10,17,69,043,25,27,49,311,30,28,43,066,23,09,34,315,31*7C
$GPGSV,3,2,10,04,29,156,27,26,26,214,31,08,20,137,28,01,11,039,*7A
$GPGSV,3,3,10,02,06,183,22,12,05,281,15*7F
$GPRMC,215639.000,A,3748.5695,N,12217.8571,W,0.45,350.73,230712,,,A*7B
$GPVTG,350.73,T,,M,0.45,N,0.8,K,A*06
$GPGGA,215640.000,3748.5698,N,12217.8572,W,1,07,1.3,-4.4,M,-25.1,M,,0000*4C
$GPGSA,A,3,17,27,04,28,09,08,26,,,,,,3.3,1.3,3.0*3B
$GPRMC,215640.000,A,3748.5698,N,12217.8572,W,0.39,40.18,230712,,,A*4F
$GPVTG,40.18,T,,M,0.39,N,0.7,K,A*3D
$GPGGA,215641.000,3748.5696,N,12217.8573,W,1,07,1.3,-3.1,M,-25.1,M,,0000*40
$GPGSA,A,3,17,27,04,28,09,08,26,,,,,,3.3,1.3,3.0*3B
$GPRMC,215641.000,A,3748.5696,N,12217.8573,W,0.15,104.00,230712,,,A*77
$GPVTG,104.00,T,,M,0.15,N,0.3,K,A*0F
$GPGGA,215642.000,3748.5693,N,12217.8574,W,1,07,1.3,-2.5,M,-25.1,M,,0000*44
$GPGSA,A,3,17,27,04,28,09,08,26,,,,,,3.3,1.3,3.0*3B
$GPRMC,215642.000,A,3748.5693,N,12217.8574,W,0.55,197.41,230712,,,A*7D
$GPVTG,197.41,T,,M,0.55,N,1.0,K,A*06
$GPGGA,215643.000,3748.5688,N,12217.8573,W,1,07,1.3,-0.9,M,-25.1,M,,0000*46
$GPGSA,A,3,17,27,04,28,09,08,26,,,,,,3.3,1.3,3.0*3B
$GPRMC,215643.000,A,3748.5688,N,12217.8573,W,0.58,142.33,230712,,,A*71
$GPVTG,142.33,T,,M,0.58,N,1.1,K,A*07
$GPGGA,215644.000,3748.5688,N,12217.8572,W,1,07,1.3,-0.1,M,-25.1,M,,0000*48
$GPGSA,A,3,17,27,04,28,09,08,26,,,,,,3.3,1.3,3.0*3B
$GPGSV,3,1,11,17,69,043,31,27,49,311,20,28,43,066,26,09,34,315,23*7F
$GPGSV,3,2,11,04,29,156,29,26,26,214,25,08,20,137,30,01,11,039,*79
$GPGSV,3,3,11,02,06,183,22,12,05,281,,51,43,156,28*41
$GPRMC,215644.000,A,3748.5688,N,12217.8572,W,0.44,166.92,230712,,,A*77
$GPVTG,166.92,T,,M,0.44,N,0.8,K,A*0F
$GPGGA,215645.000,3748.5692,N,12217.8565,W,1,07,1.3,-0.5,M,-25.1,M,,0000*40
$GPGSA,A,3,17,27,04,28,09,08,26,,,,,,3.3,1.3,3.0*3B
$GPRMC,215645.000,A,3748.5692,N,12217.8565,W,0.47,106.91,230712,,,A*7D
$GPVTG,106.91,T,,M,0.47,N,0.9,K,A*08
$GPGGA,215646.000,3748.5692,N,12217.8568,W,1,07,1.3,-0.4,M,-25.1,M,,0000*4F
$GPGSA,A,3,17,27,04,28,09,08,26,,,,,,3.3,1.3,3.0*3B
$GPRMC,215646.000,A,3748.5692,N,12217.8568,W,0.14,172.16,230712,,,A*79
$GPVTG,172.16,T,,M,0.14,N,0.3,K,A*08
$GPGGA,215647.000,3748.5697,N,12217.8571,W,1,07,1.3,-1.5,M,-25.1,M,,0000*43
$GPGSA,A,3,17,27,04,28,09,08,26,,,,,,3.3,1.3,3.0*3B
$GPRMC,215647.000,A,3748.5697,N,12217.8571,W,0.06,277.34,230712,,,A*70
$GPVTG,277.34,T,,M,0.06,N,0.1,K,A*0F
$GPGGA,215648.000,3748.5696,N,12217.8572,W,1,07,1.3,-1.0,M,-25.1,M,,0000*4B
$GPGSA,A,3,17,27,04,28,09,08,26,,,,,,3.3,1.3,3.0*3B
$GPRMC,215648.000,A,3748.5696,N,12217.8572,W,0.23,113.25,230712,,,A*7B
$GPVTG,113.25,T,,M,0.23,N,0.4,K,A*0C
$GPGGA,215649.000,3748.5694,N,12217.8573,W,1,07,1.3,-0.3,M,-25.1,M,,0000*4B
$GPGSA,A,3,17,27,04,28,09,08,26,,,,,,3.3,1.3,3.0*3B
$GPGSV,3,1,10,17,69,043,36,27,49,311,22,28,43,066,32,09,34,315,23*7E
$GPGSV,3,2,10,04,29,156,25,26,26,214,28,08,20,137,30,01,11,039,*79
$GPGSV,3,3,10,02,06,183,20,12,05,281,*79
$GPRMC,215649.000,A,3748.5694,N,12217.8573,W,0.32,137.25,230712,,,A*7F
$GPGGA,215650.000,3748.5697,N,12217.8576,W,1,06,1.4,-1.7,M,-25.1,M,,0000*46
$GPGSA,A,3,17,27,04,28,09,26,,,,,,,3.8,1.4,3.6*39
$GPRMC,215650.000,A,3748.5697,N,12217.8576,W,0.27,135.50,230712,,,A*75
$GPVTG,135.50,T,,M,0.27,N,0.5,K,A*0F
$GPGGA,215651.000,3748.5696,N,12217.8574,W,1,07,1.3,-1.4,M,-25.1,M,,0000*41
$GPGSA,A,3,17,27,04,28,09,08,26,,,,,,3.3,1.3,3.0*3B
$GPRMC,215651.000,A,3748.5696,N,12217.8574,W,0.41,88.46,230712,,,A*47
$GPVTG,88.46,T,,M,0.41,N,0.8,K,A*32
$GPGGA,215652.000,3748.5693,N,12217.8571,W,1,07,1.3,-1.0,M,-25.1,M,,0000*46
$GPGSA,A,3,17,27,04,28,09,08,26,,,,,,3.3,1.3,3.0*3B
$GPRMC,215652.000,A,3748.5693,N,12217.8571,W,0.17,128.97,230712,,,A*70
$GPVTG,128.97,T,,M,0.17,N,0.3,K,A*0D
$GPGGA,215653.000,3748.5690,N,12217.8571,W,1,07,1.3,0.0,M,-25.1,M,,0000*68
$GPGSA,A,3,17,27,04,28,09,08,26,,,,,,3.3,1.3,3.0*3B
$GPRMC,215653.000,A,3748.5690,N,12217.8571,W,0.12,176.68,230712,,,A*7C
$GPVTG,176.68,T,,M,0.12,N,0.2,K,A*02
$GPGGA,215654.000,3748.5686,N,12217.8571,W,1,07,1.3,1.7,M,-25.1,M,,0000*6E
$GPGSA,A,3,17,27,04,28,09,08,26,,,,,,3.3,1.3,3.0*3B
$GPGSV,3,1,10,17,69,043,36,27,49,311,22,28,43,066,32,09,34,315,23*7E
$GPGSV,3,2,10,04,29,156,25,26,26,214,29,08,20,137,32,01,11,039,*7A
$GPGSV,3,3,10,02,06,183,19,12,05,281,*73
$GPRMC,215654.000,A,3748.5686,N,12217.8571,W,0.20,192.26,230712,,,A*7D
$GPVTG,192.26,T,,M,0.20,N,0.4,K,A*05
$GPGGA,215655.000,3748.5685,N,12217.8573,W,1,07,1.3,2.2,M,-25.1,M,,0000*68
$GPGSA,A,3,17,27,04,28,09,08,26,,,,,,3.3,1.3,3.0*3B
$GPRMC,215655.000,A,3748.5685,N,12217.8573,W,0.64,155.31,230712,,,A*70
$GPVTG,155.31,T,,M,0.64,N,1.2,K,A*0F
$GPGGA,215656.000,3748.5679,N,12217.8570,W,1,06,1.4,3.4,M,-25.1,M,,0000*6A
$GPGSA,A,3,17,27,04,28,09,26,,,,,,,3.8,1.4,3.6*39
$GPRMC,215656.000,A,3748.5679,N,12217.8570,W,0.55,154.71,230712,,,A*74
$GPVTG,154.71,T,,M,0.55,N,1.0,K,A*0A
$GPGGA,215657.000,3748.5675,N,12217.8567,W,1,07,1.3,4.6,M,-25.1,M,,0000*62
$GPGSA,A,3,17,27,04,28,09,08,26,,,,,,3.3,1.3,3.0*3B
$GPRMC,215657.000,A,3748.5675,N,12217.8567,W,0.31,176.72,230712,,,A*7E
$GPVTG,176.72,T,,M,0.31,N,0.6,K,A*0C
$GPGGA,215658.000,3748.5672,N,12217.8564,W,1,07,1.3,5.7,M,-25.1,M,,0000*69
$GPGSA,A,3,17,27,04,28,09,08,26,,,,,,3.3,1.3,3.0*3B
$GPRMC,215658.000,A,3748.5672,N,12217.8564,W,0.25,208.99,230712,,,A*7F
$GPVTG,208.99,T,,M,0.25,N,0.5,K,A*05
$GPGGA,215659.000,3748.5668,N,12217.8562,W,1,07,1.3,7.3,M,-25.1,M,,0000*63
$GPGSA,A,3,17,27,04,28,09,08,26,,,,,,3.3,1.3,3.0*3B
$GPGSV,3,1,10,17,69,043,36,27,49,311,24,28,43,066,31,09,34,315,22*7A
$GPGSV,3,2,10,04,29,156,26,26,26,214,29,08,20,137,31,01,11,039,*7A
$GPGSV,3,3,10,02,06,183,15,12,05,281,*7F
$GPRMC,215659.000,A,3748.5668,N,12217.8562,W,0.37,181.93,230712,,,A*78
$GPVTG,181.93,T,,M,0.37,N,0.7,K,A*0C
$GPGGA,215700.000,3748.5664,N,12217.8561,W,1,07,1.3,9.1,M,-25.1,M,,0000*6D
$GPGSA,A,3,17,27,04,28,09,08,26,,,,,,3.3,1.3,3.0*3B
$GPRMC,215700.000,A,3748.5664,N,12217.8561,W,0.56,167.89,230712,,,A*7E
$GPVTG,167.89,T,,M,0.56,N,1.0,K,A*0E
$GPGGA,215701.000,3748.5659,N,12217.8558,W,1,07,1.3,10.9,M,-25.1,M,,0000*58
$GPGSA,A,3,17,27,04,28,09,08,26,,,,,,3.3,1.3,3.0*3B
$GPRMC,215701.000,A,3748.5659,N,12217.8558,W,0.70,158.55,230712,,,A*72
$GPVTG,158.55,T,,M,0.70,N,1.3,K,A*04
$GPGGA,215702.000,3748.5656,N,12217.8556,W,1,07,1.3,12.7,M,-25.1,M,,0000*56
$GPGSA,A,3,17,27,04,28,09,08,26,,,,,,3.3,1.3,3.0*3B
$GPRMC,215702.000,A,3748.5656,N,12217.8556,W,0.51,175.97,230712,,,A*72
$GPVTG,175.97,T,,M,0.51,N,0.9,K,A*0D
$GPGGA,215703.000,3748.5652,N,12217.8555,W,1,07,1.3,14.7,M,-25.1,M,,0000*56
$GPGSA,A,3,17,27,04,28,09,08,26,,,,,,3.3,1.3,3.0*3B
$GPRMC,215703.000,A,3748.5652,N,12217.8555,W,0.50,179.17,230712,,,A*71
$GPVTG,179.17,T,,M,0.50,N,0.9,K,A*08
$GPGGA,215704.000,3748.5648,N,12217.8553,W,1,06,1.8,16.7,M,-25.1,M,,0000*54
$GPGSA,A,3,17,27,04,28,08,26,,,,,,,4.5,1.8,4.2*3D
$GPGSV,3,1,10,17,69,043,35,27,49,311,25,28,43,066,31,09,34,315,12*7B
$GPGSV,3,2,10,04,29,156,27,26,26,214,29,08,20,137,31,01,11,039,*7B
$GPGSV,3,3,10,02,06,183,17,12,05,281,*7D
$GPRMC,215704.000,A,3748.5648,N,12217.8553,W,0.62,169.71,230712,,,A*7B
$GPGGA,215705.000,3748.5645,N,12217.8551,W,1,06,1.8,18.3,M,-25.1,M,,0000*50
$GPGSA,A,3,17,27,04,28,08,26,,,,,,,4.5,1.8,4.2*3D
$GPRMC,215705.000,A,3748.5645,N,12217.8551,W,0.70,167.33,230712,,,A*7E
$GPVTG,167.33,T,,M,0.70,N,1.3,K,A*08
$GPGGA,215706.000,3748.5642,N,12217.8549,W,1,06,1.8,20.1,M,-25.1,M,,0000*54
$GPGSA,A,3,17,27,04,28,08,26,,,,,,,4.5,1.8,4.2*3D
$GPRMC,215706.000,A,3748.5642,N,12217.8549,W,0.69,170.13,230712,,,A*7F
$GPVTG,170.13,T,,M,0.69,N,1.3,K,A*04
$GPGGA,215707.000,3748.5638,N,12217.8547,W,1,07,1.3,22.0,M,-25.1,M,,0000*5F
$GPGSA,A,3,17,27,04,28,09,08,26,,,,,,3.3,1.3,3.0*3B
$GPRMC,215707.000,A,3748.5638,N,12217.8547,W,0.77,165.48,230712,,,A*78
$GPVTG,165.48,T,,M,0.77,N,1.4,K,A*06
$GPGGA,215708.000,3748.5635,N,12217.8545,W,1,07,1.3,23.5,M,-25.1,M,,0000*5B
$GPGSA,A,3,17,27,04,28,09,08,26,,,,,,3.3,1.3,3.0*3B
$GPRMC,215708.000,A,3748.5635,N,12217.8545,W,0.84,166.01,230712,,,A*7A
$GPVTG,166.01,T,,M,0.84,N,1.6,K,A*06
$GPGGA,215709.000,3748.5632,N,12217.8543,W,1,07,1.3,25.0,M,-25.1,M,,0000*58
$GPGSA,A,3,17,27,04,28,09,08,26,,,,,,3.3,1.3,3.0*3B
$GPGSV,3,1,10,17,69,043,35,27,49,311,26,28,43,066,31,09,34,315,16*7C
$GPGSV,3,2,10,04,29,156,28,26,26,214,29,08,20,137,31,01,11,039,*74
$GPGSV,3,3,10,02,06,183,18,12,05,281,*72
$GPRMC,215709.000,A,3748.5632,N,12217.8543,W,0.85,164.75,230712,,,A*7A
$GPVTG,164.75,T,,M,0.85,N,1.6,K,A*06
$GPGGA,215710.000,3748.5629,N,12217.8540,W,1,07,1.3,26.5,M,-25.1,M,,0000*5F
$GPGSA,A,3,17,27,04,28,09,08,26,,,,,,3.3,1.3,3.0*3B
$GPRMC,215710.000,A,3748.5629,N,12217.8540,W,0.97,160.41,230712,,,A*7B
$GPVTG,160.41,T,,M,0.97,N,1.8,K,A*08
$GPGGA,215711.000,3748.5627,N,12217.8539,W,1,07,1.3,27.6,M,-25.1,M,,0000*5C
$GPGSA,A,3,17,27,04,28,09,08,26,,,,,,3.3,1.3,3.0*3B
$GPRMC,215711.000,A,3748.5627,N,12217.8539,W,0.65,175.74,230712,,,A*75
$GPVTG,175.74,T,,M,0.65,N,1.2,K,A*0D
$GPGGA,215712.000,3748.5625,N,12217.8537,W,1,07,1.3,28.8,M,-25.1,M,,0000*52
$GPGSA,A,3,17,27,04,28,09,08,26,,,,,,3.3,1.3,3.0*3B
$GPRMC,215712.000,A,3748.5625,N,12217.8537,W,0.85,165.22,230712,,,A*76
$GPVTG,165.22,T,,M,0.85,N,1.6,K,A*05
$GPGGA,215713.000,3748.5623,N,12217.8535,W,1,07,1.3,29.7,M,-25.1,M,,0000*59
$GPGSA,A,3,17,27,04,28,09,08,26,,,,,,3.3,1.3,3.0*3B
$GPRMC,215713.000,A,3748.5623,N,12217.8535,W,0.65,173.47,230712,,,A*79
$GPVTG,173.47,T,,M,0.65,N,1.2,K,A*0B
$GPGGA,215714.000,3748.5622,N,12217.8534,W,1,07,1.3,30.5,M,-25.1,M,,0000*54
$GPGSA,A,3,17,27,04,28,09,08,26,,,,,,3.3,1.3,3.0*3B
$GPGSV,3,1,10,17,69,043,35,27,49,311,27,28,43,066,31,09,34,315,23*7B
$GPGSV,3,2,10,04,29,156,28,26,26,214,28,08,20,137,31,01,11,039,18*7C
$GPGSV,3,3,10,02,06,183,20,12,05,281,*79
$GPRMC,215714.000,A,3748.5622,N,12217.8534,W,0.55,180.37,230712,,,A*76
$GPVTG,180.37,T,,M,0.55,N,1.0,K,A*01
$GPGGA,215715.000,3748.5622,N,12217.8534,W,1,07,1.3,31.1,M,-25.1,M,,0000*50
$GPGSA,A,3,17,27,04,28,09,08,26,,,,,,3.3,1.3,3.0*3B
$GPRMC,215715.000,A,3748.5622,N,12217.8534,W,0.46,188.96,230712,,,A*76
$GPVTG,188.96,T,,M,0.46,N,0.9,K,A*08
$GPGGA,215716.000,3748.5621,N,12217.8533,W,1,07,1.3,31.6,M,-25.1,M,,0000*50
$GPGSA,A,3,17,27,04,28,09,08,26,,,,,,3.3,1.3,3.0*3B
$GPRMC,215716.000,A,3748.5621,N,12217.8533,W,0.42,190.46,230712,,,A*71
$GPVTG,190.46,T,,M,0.42,N,0.8,K,A*09
$GPGGA,215717.000,3748.5621,N,12217.8533,W,1,07,1.3,32.0,M,-25.1,M,,0000*54
$GPGSA,A,3,17,27,04,28,09,08,26,,,,,,3.3,1.3,3.0*3B
$GPRMC,215717.000,A,3748.5621,N,12217.8533,W,0.40,192.30,230712,,,A*71
$GPVTG,192.30,T,,M,0.40,N,0.7,K,A*07
$GPGGA,215718.000,3748.5621,N,12217.8532,W,1,07,1.3,32.3,M,-25.1,M,,0000*59
$GPGSA,A,3,17,27,04,28,09,08,26,,,,,,3.3,1.3,3.0*3B
$GPRMC,215718.000,A,3748.5621,N,12217.8532,W,0.39,192.35,230712,,,A*74
$GPVTG,192.35,T,,M,0.39,N,0.7,K,A*0C
$GPGGA,215719.000,3748.5620,N,12217.8532,W,1,07,1.3,32.8,M,-25.1,M,,0000*52
$GPGSA,A,3,17,27,04,28,09,08,26,,,,,,3.3,1.3,3.0*3B
$GPGSV,3,1,11,17,68,043,36,27,50,311,27,28,42,068,31,09,35,315,21*7C
$GPGSV,3,2,11,04,30,155,28,15,28,260,,26,25,213,28,08,19,138,31*7F
$GPGSV,3,3,11,01,10,038,19,02,07,183,19,12,06,281,*43
$GPVTG,170.38,T,,M,0.49,N,0.9,K,A*04
$GPGGA,215720.000,3748.5620,N,12217.8531,W,1,07,1.3,33.1,M,-25.1,M,,0000*53
$GPGSA,A,3,17,27,04,28,09,08,26,,,,,,3.3,1.3,3.0*3B
$GPRMC,215720.000,A,3748.5620,N,12217.8531,W,0.36,184.57,230712,,,A*71
$GPVTG,184.57,T,,M,0.36,N,0.7,K,A*00
$GPGGA,215721.000,3748.5620,N,12217.8531,W,1,07,1.3,33.3,M,-25.1,M,,0000*50
$GPGSA,A,3,17,27,04,28,09,08,26,,,,,,3.3,1.3,3.0*3B
$GPRMC,215721.000,A,3748.5620,N,12217.8531,W,0.32,201.77,230712,,,A*78
$GPVTG,201.77,T,,M,0.32,N,0.6,K,A*09
$GPGGA,215722.000,3748.5620,N,12217.8531,W,1,06,1.4,33.6,M,-25.1,M,,0000*50
$GPGSA,A,3,17,27,04,28,09,26,,,,,,,3.9,1.4,3.6*38
$GPRMC,215722.000,A,3748.5620,N,12217.8531,W,0.28,241.48,230712,,,A*78
$GPVTG,241.48,T,,M,0.28,N,0.5,K,A*09
$GPGGA,215723.000,3748.5619,N,12217.8531,W,1,07,1.3,34.0,M,-25.1,M,,0000*5C
$GPGSA,A,3,17,27,04,28,09,08,26,,,,,,3.3,1.3,3.0*3B
$GPRMC,215723.000,A,3748.5619,N,12217.8531,W,0.30,178.73,230712,,,A*7B
$GPVTG,178.73,T,,M,0.30,N,0.6,K,A*02
$GPGGA,215724.000,3748.5619,N,12217.8530,W,1,07,1.3,34.1,M,-25.1,M,,0000*5B
$GPGSA,A,3,17,27,04,28,09,08,26,,,,,,3.3,1.3,3.0*3B
$GPGSV,3,1,11,17,68,043,36,27,50,311,27,28,42,068,31,09,35,315,22*7F
$GPGSV,3,2,11,04,30,155,28,15,28,260,,26,25,213,28,08,19,138,29*76
$GPGSV,3,3,11,01,10,038,20,02,07,183,,12,06,281,*41
$GPRMC,215724.000,A,3748.5619,N,12217.8530,W,0.29,186.45,230712,,,A*71
$GPVTG,186.45,T,,M,0.29,N,0.5,K,A*0D
$GPGGA,215725.000,3748.5618,N,12217.8528,W,1,07,1.3,34.2,M,-25.1,M,,0000*51
$GPGSA,A,3,17,27,04,28,09,08,26,,,,,,3.3,1.3,3.0*3B
$GPRMC,215725.000,A,3748.5618,N,12217.8528,W,0.21,192.06,230712,,,A*72
$GPVTG,192.06,T,,M,0.21,N,0.4,K,A*06
$GPGGA,215726.000,3748.5619,N,12217.8528,W,1,07,1.3,33.5,M,-25.1,M,,0000*53
$GPGSA,A,3,17,27,04,28,09,08,26,,,,,,3.3,1.3,3.0*3B
$GPRMC,215726.000,A,3748.5619,N,12217.8528,W,0.24,173.18,230712,,,A*75
$GPVTG,173.18,T,,M,0.24,N,0.4,K,A*03
$GPGGA,215727.000,3748.5618,N,12217.8527,W,1,07,1.3,33.9,M,-25.1,M,,0000*50
$GPGSA,A,3,17,27,04,28,09,08,26,,,,,,3.3,1.3,3.0*3B
$GPRMC,215727.000,A,3748.5618,N,12217.8527,W,0.39,141.42,230712,,,A*78
$GPVTG,141.42,T,,M,0.39,N,0.7,K,A*02
$GPGGA,215728.000,3748.5619,N,12217.8527,W,1,07,1.3,33.6,M,-25.1,M,,0000*51
$GPGSA,A,3,17,27,04,28,09,08,26,,,,,,3.3,1.3,3.0*3B
$GPRMC,215728.000,A,3748.5619,N,12217.8527,W,0.38,138.30,230712,,,A*7C
$GPVTG,138.30,T,,M,0.38,N,0.7,K,A*08
$GPGGA,215729.000,3748.5618,N,12217.8527,W,1,07,1.3,34.1,M,-25.1,M,,0000*51
$GPGSA,A,3,17,27,04,28,09,08,26,,,,,,3.3,1.3,3.0*3B
$GPGSV,3,1,11,17,68,043,36,27,50,311,21,28,42,068,31,09,35,315,22*79
$GPGSV,3,2,11,04,30,155,27,15,28,260,23,26,25,213,28,08,19,138,30*70
$GPGSV,3,3,11,01,10,038,,02,07,183,,12,06,281,*43
$GPRMC,215729.000,A,3748.5618,N,12217.8527,W,0.44,143.54,230712,,,A*79
$GPVTG,143.54,T,,M,0.44,N,0.8,K,A*02
$GPGGA,215730.000,3748.5618,N,12217.8527,W,1,07,1.3,34.3,M,-25.1,M,,0000*5B
$GPGSA,A,3,17,27,04,28,09,08,26,,,,,,3.3,1.3,3.0*3B
$GPRMC,215730.000,A,3748.5618,N,12217.8527,W,0.31,141.89,230712,,,A*71
$GPVTG,141.89,T,,M,0.31,N,0.6,K,A*0C
$GPGGA,215731.000,3748.5619,N,12217.8528,W,1,07,1.3,34.3,M,-25.1,M,,0000*54
$GPGSA,A,3,17,27,04,28,09,08,26,,,,,,3.3,1.3,3.0*3B
$GPRMC,215731.000,A,3748.5619,N,12217.8528,W,0.16,164.95,230712,,,A*71
$GPVTG,164.95,T,,M,0.16,N,0.3,K,A*06
$GPGGA,215732.000,3748.5619,N,12217.8529,W,1,07,1.3,34.9,M,-25.1,M,,0000*5C
$GPGSA,A,3,17,27,04,28,09,08,26,,,,,,3.3,1.3,3.0*3B
$GPRMC,215732.000,A,3748.5619,N,12217.8529,W,0.34,146.59,230712,,,A*73
$GPVTG,146.59,T,,M,0.34,N,0.6,K,A*03
$GPGGA,215733.000,3748.5618,N,12217.8528,W,1,07,1.3,35.3,M,-25.1,M,,0000*56
$GPGSA,A,3,17,27,04,28,09,08,26,,,,,,3.3,1.3,3.0*3B
$GPRMC,215733.000,A,3748.5618,N,12217.8528,W,0.29,152.83,230712,,,A*7C
$GPVTG,152.83,T,,M,0.29,N,0.5,K,A*0E
$GPGGA,215734.000,3748.5619,N,12217.8528,W,1,07,1.3,35.1,M,-25.1,M,,0000*52
$GPGSA,A,3,17,27,04,28,09,08,26,,,,,,3.3,1.3,3.0*3B
$GPGSV,3,1,11,17,68,043,36,27,50,311,17,28,42,068,31,09,35,315,21*7F
$GPGSV,3,2,11,04,30,155,27,15,28,260,24,26,25,213,27,08,19,138,30*78
$GPGSV,3,3,11,01,10,038,22,02,07,183,,12,06,281,*43
$GPVTG,137.68,T,,M,0.49,N,0.9,K,A*02
$GPGGA,215735.000,3748.5619,N,12217.8529,W,1,07,1.3,35.3,M,-25.1,M,,0000*50
$GPGSA,A,3,17,27,04,28,09,08,26,,,,,,3.3,1.3,3.0*3B
$GPRMC,215735.000,A,3748.5619,N,12217.8529,W,0.56,135.05,230712,,,A*7D
$GPVTG,135.05,T,,M,0.56,N,1.0,K,A*0D
$GPGGA,215736.000,3748.5625,N,12217.8531,W,1,07,1.3,32.9,M,-25.1,M,,0000*58
$GPGSA,A,3,17,27,04,28,09,08,26,,,,,,3.3,1.3,3.0*3B
$GPRMC,215736.000,A,3748.5625,N,12217.8531,W,0.25,129.72,230712,,,A*71
$GPVTG,129.72,T,,M,0.25,N,0.5,K,A*00
$GPGGA,215737.000,3748.5627,N,12217.8532,W,1,07,1.3,32.0,M,-25.1,M,,0000*51
$GPGSA,A,3,17,27,04,28,09,08,26,,,,,,3.3,1.3,3.0*3B
$GPRMC,215737.000,A,3748.5627,N,12217.8532,W,0.13,207.86,230712,,,A*70
$GPVTG,207.86,T,,M,0.13,N,0.2,K,A*06
$GPGGA,215738.000,3748.5625,N,12217.8538,W,1,06,1.4,33.2,M,-25.1,M,,0000*53
$GPGSA,A,3,17,27,04,28,09,26,,,,,,,3.9,1.4,3.6*38
$GPRMC,215738.000,A,3748.5625,N,12217.8538,W,0.26,298.03,230712,,,A*7A
$GPVTG,298.03,T,,M,0.26,N,0.5,K,A*0C
$GPGGA,215739.000,3748.5628,N,12217.8540,W,1,07,1.3,32.7,M,-25.1,M,,0000*52
$GPGSA,A,3,17,27,04,28,09,26,08,,,,,,3.3,1.3,3.0*3B
$GPGSV,3,1,11,17,68,043,36,27,50,311,20,28,42,068,31,09,35,315,21*7B
$GPGSV,3,2,11,04,30,155,27,15,28,260,25,26,25,213,27,08,19,138,31*78
$GPGSV,3,3,11,01,10,038,22,02,07,183,,12,06,281,*43
$GPRMC,215739.000,A,3748.5628,N,12217.8540,W,0.66,304.37,230712,,,A*7E
$GPVTG,304.37,T,,M,0.66,N,1.2,K,A*0D
$GPGGA,215740.000,3748.5632,N,12217.8544,W,1,07,1.3,32.2,M,-25.1,M,,0000*56
$GPGSA,A,3,17,27,04,28,09,26,08,,,,,,3.3,1.3,3.0*3B
$GPRMC,215740.000,A,3748.5632,N,12217.8544,W,0.66,308.50,230712,,,A*72
$GPVTG,308.50,T,,M,0.66,N,1.2,K,A*00
$GPGGA,215741.000,3748.5635,N,12217.8547,W,1,07,1.3,31.8,M,-25.1,M,,0000*5A
$GPGSA,A,3,17,27,04,28,09,26,08,,,,,,3.3,1.3,3.0*3B
$GPRMC,215741.000,A,3748.5635,N,12217.8547,W,0.60,306.36,230712,,,A*7F
$GPVTG,306.36,T,,M,0.60,N,1.1,K,A*0B
$GPGGA,215742.000,3748.5635,N,12217.8547,W,1,07,1.3,31.8,M,-25.1,M,,0000*59
$GPGSA,A,3,17,27,04,28,09,26,08,,,,,,3.3,1.3,3.0*3B
$GPRMC,215742.000,A,3748.5635,N,12217.8547,W,0.05,327.77,230712,,,A*79
$GPVTG,327.77,T,,M,0.05,N,0.1,K,A*0F
$GPGGA,215743.000,3748.5635,N,12217.8545,W,1,07,1.3,31.7,M,-25.1,M,,0000*55
$GPGSA,A,3,17,27,04,28,09,26,08,,,,,,3.3,1.3,3.0*3B
$GPRMC,215743.000,A,3748.5635,N,12217.8545,W,0.03,21.56,230712,,,A*4A
$GPVTG,21.56,T,,M,0.03,N,0.1,K,A*3F
$GPGGA,215744.000,3748.5637,N,12217.8548,W,1,07,1.3,31.5,M,-25.1,M,,0000*5F
$GPGSA,A,3,17,27,04,28,09,26,08,,,,,,3.3,1.3,3.0*3B
$GPGSV,3,1,12,17,68,043,36,27,50,311,26,28,42,068,31,09,35,315,22*7D
$GPGSV,3,2,12,04,30,155,28,15,28,260,24,26,25,213,27,08,19,138,32*76
$GPGSV,3,3,12,01,10,038,,02,07,183,,12,06,281,,51,43,156,22*71
$GPRMC,215744.000,A,3748.5637,N,12217.8548,W,0.12,27.77,230712,,,A*47
$GPVTG,27.77,T,,M,0.12,N,0.2,K,A*39
$GPGGA,215745.000,3748.5637,N,12217.8548,W,1,07,1.3,31.4,M,-25.1,M,,0000*5F
$GPGSA,A,3,17,27,04,28,09,26,08,,,,,,3.3,1.3,3.0*3B
$GPRMC,215745.000,A,3748.5637,N,12217.8548,W,0.14,349.50,230712,,,A*7E
$GPVTG,349.50,T,,M,0.14,N,0.3,K,A*00
$GPGGA,215746.000,3748.5640,N,12217.8548,W,1,07,1.3,30.6,M,-25.1,M,,0000*5F
$GPGSA,A,3,17,27,04,28,09,26,08,,,,,,3.3,1.3,3.0*3B
$GPRMC,215746.000,A,3748.5640,N,12217.8548,W,0.17,344.01,230712,,,A*77
$GPVTG,344.01,T,,M,0.17,N,0.3,K,A*0A
$GPGGA,215747.000,3748.5647,N,12217.8543,W,1,07,1.3,28.2,M,-25.1,M,,0000*5F
$GPGSA,A,3,17,27,04,28,09,26,08,,,,,,3.3,1.3,3.0*3B
$GPRMC,215747.000,A,3748.5647,N,12217.8543,W,0.32,15.73,230712,,,A*4F
$GPVTG,15.73,T,,M,0.32,N,0.6,K,A*3A
$GPGGA,215748.000,3748.5648,N,12217.8544,W,1,07,1.3,28.2,M,-25.1,M,,0000*58
$GPGSA,A,3,17,27,04,28,09,26,08,,,,,,3.3,1.3,3.0*3B
$GPRMC,215748.000,A,3748.5648,N,12217.8544,W,0.33,333.30,230712,,,A*79
$GPVTG,333.30,T,,M,0.33,N,0.6,K,A*0B
$GPGGA,215749.000,3748.5648,N,12217.8545,W,1,07,1.3,28.2,M,-25.1,M,,0000*58
$GPGSA,A,3,17,27,04,28,09,26,08,,,,,,3.3,1.3,3.0*3B
$GPGSV,3,1,11,17,68,043,36,27,50,311,25,28,42,068,26,09,35,315,23*7A
$GPGSV,3,2,11,04,30,155,29,15,28,260,24,26,25,213,27,08,19,138,27*70
$GPGSV,3,3,11,01,10,038,,02,07,183,20,12,06,282,*42
$GPVTG,47.10,T,,M,0.05,N,0.1,K,A*3B
$GPGGA,215750.000,3748.5652,N,12217.8550,W,1,07,1.3,26.5,M,-25.1,M,,0000*56
$GPGSA,A,3,17,27,04,28,09,26,08,,,,,,3.3,1.3,3.0*3B
$GPRMC,215750.000,A,3748.5652,N,12217.8550,W,0.12,9.43,230712,,,A*73
$GPVTG,9.43,T,,M,0.12,N,0.2,K,A*02
$GPGGA,215751.000,3748.5656,N,12217.8554,W,1,07,1.3,24.8,M,-25.1,M,,0000*58
$GPGSA,A,3,17,27,04,28,09,26,08,,,,,,3.3,1.3,3.0*3B
$GPRMC,215751.000,A,3748.5656,N,12217.8554,W,0.62,311.44,230712,,,A*78
$GPVTG,311.44,T,,M,0.62,N,1.2,K,A*09
$GPGGA,215752.000,3748.5657,N,12217.8554,W,1,07,1.3,24.4,M,-25.1,M,,0000*56
$GPGSA,A,3,17,27,04,28,09,26,08,,,,,,3.3,1.3,3.0*3B
$GPRMC,215752.000,A,3748.5657,N,12217.8554,W,0.22,330.67,230712,,,A*7C
$GPVTG,330.67,T,,M,0.22,N,0.4,K,A*08
$GPGGA,215753.000,3748.5656,N,12217.8557,W,1,07,1.3,23.9,M,-25.1,M,,0000*5F
$GPGSA,A,3,17,27,04,28,09,26,08,,,,,,3.3,1.3,3.0*3B
$GPRMC,215753.000,A,3748.5656,N,12217.8557,W,0.20,156.22,230712,,,A*7E
$GPVTG,156.22,T,,M,0.20,N,0.4,K,A*09
$GPGGA,215754.000,3748.5653,N,12217.8561,W,1,07,1.3,24.1,M,-25.1,M,,0000*57
$GPGSA,A,3,17,27,04,28,09,26,08,,,,,,3.3,1.3,3.0*3B
$GPGSV,3,1,12,17,68,043,25,27,50,311,21,28,42,068,25,09,35,315,22*7D
$GPGSV,3,2,12,04,30,155,29,15,28,260,24,26,25,213,27,08,19,138,22*76
$GPGSV,3,3,12,01,10,038,,02,07,183,19,12,06,282,,51,43,156,32*7B
$GPRMC,215754.000,A,3748.5653,N,12217.8561,W,0.26,144.76,230712,,,A*7D
$GPVTG,144.76,T,,M,0.26,N,0.5,K,A*0C
$GPGGA,215755.000,3748.5651,N,12217.8563,W,1,07,1.3,23.7,M,-25.1,M,,0000*57
$GPGSA,A,3,17,27,04,28,09,26,08,,,,,,3.3,1.3,3.0*3B
$GPRMC,215755.000,A,3748.5651,N,12217.8563,W,0.47,121.88,230712,,,A*79
$GPVTG,121.88,T,,M,0.47,N,0.9,K,A*05
$GPGGA,215756.000,3748.5644,N,12217.8572,W,1,07,1.3,25.1,M,-25.1,M,,0000*50
$GPGSA,A,3,17,27,04,28,09,26,08,,,,,,3.3,1.3,3.0*3B
$GPRMC,215756.000,A,3748.5644,N,12217.8572,W,0.14,251.39,230712,,,A*76
$GPVTG,251.39,T,,M,0.14,N,0.3,K,A*07
$GPGGA,215757.000,3748.5646,N,12217.8576,W,1,07,1.3,24.3,M,-25.1,M,,0000*54
$GPGSA,A,3,17,27,04,28,09,26,08,,,,,,3.3,1.3,3.0*3B
$GPRMC,215757.000,A,3748.5646,N,12217.8576,W,0.23,248.36,230712,,,A*72
$GPVTG,248.36,T,,M,0.23,N,0.4,K,A*03
$GPGGA,215758.000,3748.5645,N,12217.8580,W,1,07,1.3,24.7,M,-25.1,M,,0000*55
$GPGSA,A,3,17,27,04,28,09,26,08,,,,,,3.3,1.3,3.0*3B
$GPRMC,215758.000,A,3748.5645,N,12217.8580,W,0.36,315.92,230712,,,A*74
$GPVTG,315.92,T,,M,0.36,N,0.7,K,A*03
$GPGGA,215759.000,3748.5649,N,12217.8580,W,1,07,1.3,23.6,M,-25.1,M,,0000*5E
$GPGSA,A,3,17,27,04,28,09,26,08,,,,,,3.3,1.3,3.0*3B
$GPGSV,3,1,12,17,68,043,24,27,50,311,20,28,42,068,15,09,35,315,21*7D
$GPGSV,3,2,12,04,30,155,23,15,28,260,24,26,25,213,27,08,19,138,21*7F
$GPGSV,3,3,12,01,10,038,,02,07,183,11,12,06,282,,51,43,156,26*76
$GPRMC,215759.000,A,3748.5649,N,12217.8580,W,0.70,68.61,230712,,,A*4E
$GPVTG,68.61,T,,M,0.70,N,1.3,K,A*31
$GPGGA,215800.000,3748.5649,N,12217.8577,W,1,07,1.3,25.1,M,-25.1,M,,0000*54
$GPGSA,A,3,17,27,04,28,09,26,08,,,,,,3.3,1.3,3.0*3B
$GPRMC,215800.000,A,3748.5649,N,12217.8577,W,1.36,84.05,230712,,,A*46
$GPVTG,84.05,T,,M,1.36,N,2.5,K,A*37
$GPGGA,215801.000,3748.5652,N,12217.8568,W,1,07,1.3,24.0,M,-25.1,M,,0000*51
$GPGSA,A,3,17,27,04,28,09,26,08,,,,,,3.3,1.3,3.0*3B
$GPRMC,215801.000,A,3748.5652,N,12217.8568,W,1.56,76.95,230712,,,A*41
$GPVTG,76.95,T,,M,1.56,N,2.9,K,A*39
$GPGGA,215802.000,3748.5654,N,12217.8568,W,1,07,1.3,22.8,M,-25.1,M,,0000*5A
$GPGSA,A,3,17,27,04,28,09,26,08,,,,,,3.3,1.3,3.0*3B
$GPRMC,215802.000,A,3748.5654,N,12217.8568,W,1.21,61.18,230712,,,A*47
$GPVTG,61.18,T,,M,1.21,N,2.2,K,A*31
$GPGGA,215803.000,3748.5654,N,12217.8569,W,1,06,1.4,22.9,M,-25.1,M,,0000*5D
$GPGSA,A,3,17,04,28,09,26,08,,,,,,,3.4,1.4,3.1*3F
$GPRMC,215803.000,A,3748.5654,N,12217.8569,W,0.31,317.92,230712,,,A*77
$GPVTG,317.92,T,,M,0.31,N,0.6,K,A*07
$GPGGA,215804.000,3748.5657,N,12217.8575,W,1,06,1.4,21.1,M,-25.1,M,,0000*5F
$GPGSA,A,3,17,04,28,09,26,08,,,,,,,3.4,1.4,3.1*3F
$GPGSV,3,1,12,17,68,043,25,27,50,311,,28,42,068,22,09,35,315,21*7A
$GPGSV,3,2,12,04,30,155,28,15,28,260,,26,25,213,23,08,19,138,23*74
$GPGSV,3,3,12,01,10,038,,02,07,183,22,12,06,282,,51,43,156,24*74
$GPVTG,305.85,T,,M,0.41,N,0.8,K,A*0B
$GPGGA,215805.000,3748.5655,N,12217.8581,W,1,07,1.3,20.9,M,-25.1,M,,0000*58
$GPGSA,A,3,17,27,04,28,09,26,08,,,,,,3.3,1.3,3.0*3B
$GPRMC,215805.000,A,3748.5655,N,12217.8581,W,0.83,288.06,230712,,,A*75
$GPVTG,288.06,T,,M,0.83,N,1.5,K,A*06
$GPGGA,215806.000,3748.5659,N,12217.8587,W,1,07,1.3,19.0,M,-25.1,M,,0000*52
$GPGSA,A,3,17,27,04,28,09,26,08,,,,,,3.3,1.3,3.0*3B
$GPRMC,215806.000,A,3748.5659,N,12217.8587,W,0.75,294.09,230712,,,A*77
$GPVTG,294.09,T,,M,0.75,N,1.4,K,A*0C
$GPGGA,215807.000,3748.5661,N,12217.8589,W,1,07,1.3,17.4,M,-25.1,M,,0000*5C
$GPGSA,A,3,17,27,04,28,09,26,08,,,,,,3.3,1.3,3.0*3B
$GPRMC,215807.000,A,3748.5661,N,12217.8589,W,0.72,277.05,230712,,,A*75
$GPVTG,277.05,T,,M,0.72,N,1.3,K,A*0D
$GPGGA,215808.000,3748.5657,N,12217.8589,W,1,07,1.3,17.8,M,-25.1,M,,0000*5A
$GPGSA,A,3,17,27,04,28,09,26,08,,,,,,3.3,1.3,3.0*3B
$GPRMC,215808.000,A,3748.5657,N,12217.8589,W,0.66,234.61,230712,,,A*7F
$GPVTG,234.61,T,,M,0.66,N,1.2,K,A*0C
$GPGGA,215809.000,3748.5655,N,12217.8588,W,1,07,1.3,17.3,M,-25.1,M,,0000*53
$GPGSA,A,3,17,27,04,28,09,26,08,,,,,,3.3,1.3,3.0*3B
$GPGSV,3,1,11,17,68,043,28,27,50,311,22,28,42,068,22,09,35,315,21*74
$GPGSV,3,2,11,04,30,155,31,15,28,260,,26,25,213,25,08,19,138,28*72
$GPGSV,3,3,11,01,10,038,,02,07,183,24,12,06,282,*46
$GPRMC,215809.000,A,3748.5655,N,12217.8588,W,0.34,270.23,230712,,,A*7C
$GPVTG,270.23,T,,M,0.34,N,0.6,K,A*08
$GPGGA,215810.000,3748.5656,N,12217.8585,W,1,07,1.3,16.6,M,-25.1,M,,0000*51
$GPGSA,A,3,17,27,04,28,09,26,08,,,,,,3.3,1.3,3.0*3B
$GPRMC,215810.000,A,3748.5656,N,12217.8585,W,0.45,17.02,230712,,,A*4C
$GPVTG,17.02,T,,M,0.45,N,0.8,K,A*30
$GPGGA,215811.000,3748.5661,N,12217.8582,W,1,06,1.6,13.1,M,-25.1,M,,0000*55
$GPGSA,A,3,17,27,04,09,26,08,,,,,,,3.5,1.6,3.1*33
