$ADVER,3080,2.3
$GPRMC,215404.260,A,3748.5669,N,12217.8569,W,0.09,66.52,230712,,,A*44
$GPGGA,215405.260,3748.5669,N,12217.8578,W,1,06,1.7,-2.3,M,-25.1,M,,0000*4B
$GPGSA,A,3,27,28,17,04,08,09,,,,,,,3.4,1.7,3.0*3C
$GPRMC,215405.260,A,3748.5669,N,12217.8578,W,0.08,85.36,230712,,,A*4B
$GPVTG,85.36,T,,M,0.08,N,0.1,K,A*3C
$GPGGA,215406.000,3748.5669,N,12217.8578,W,1,06,1.7,-2.3,M,-25.1,M,,0000*4C
$GPGSA,A,3,27,28,17,04,08,09,,,,,,,3.4,1.7,3.0*3C
$GPGSV,3,1,10,17,70,043,34,27,49,311,36,28,43,066,37,09,33,315,35*74
$GPGSV,3,2,10,04,29,156,34,08,21,137,29,26,26,214,,01,11,039,*7A
$GPGSV,3,3,10,02,06,184,26,12,05,280,*79
$GPRMC,215406.000,A,3748.5669,N,12217.8578,W,0.06,63.22,230712,,,A*4F
$GPVTG,63.22,T,,M,0.06,N,0.1,K,A*3F
$GPGGA,215407.000,3748.5669,N,12217.8578,W,1,06,1.7,-2.3,M,-25.1,M,,0000*4D
$GPGSA,A,3,27,28,17,04,08,09,,,,,,,3.4,1.7,3.0*3C
$GPRMC,215407.000,A,3748.5669,N,12217.8578,W,0.07,90.59,230712,,,A*4F
$GPVTG,90.59,T,,M,0.07,N,0.1,K,A*3E
$GPGGA,215408.000,3748.5669,N,12217.8577,W,1,06,1.7,-2.3,M,-25.1,M,,0000*4D
$GPGSA,A,3,27,28,17,04,08,09,,,,,,,3.4,1.7,3.0*3C
$GPRMC,215408.000,A,3748.5669,N,12217.8577,W,0.07,81.52,230712,,,A*44
$GPVTG,81.52,T,,M,0.07,N,0.1,K,A*35
$GPGGA,215409.000,3748.5669,N,12217.8577,W,1,06,1.7,-2.3,M,-25.1,M,,0000*4C
$GPGSA,A,3,27,28,17,04,08,09,,,,,,,3.4,1.7,3.0*3C
$GPRMC,215409.000,A,3748.5669,N,12217.8577,W,0.06,68.62,230712,,,A*40
$GPVTG,68.62,T,,M,0.06,N,0.1,K,A*30
$GPGGA,215410.000,3748.5669,N,12217.8577,W,1,06,1.7,-2.2,M,-25.1,M,,0000*45
$GPGSA,A,3,27,28,17,04,08,09,,,,,,,3.4,1.7,3.0*3C
$GPRMC,215410.000,A,3748.5669,N,12217.8577,W,0.06,75.68,230712,,,A*4E
$GPVTG,75.68,T,,M,0.06,N,0.1,K,A*36
$GPGGA,215411.000,3748.5669,N,12217.8578,W,1,06,1.7,-2.2,M,-25.1,M,,0000*4B
$GPGSA,A,3,27,28,17,04,08,09,,,,,,,3.4,1.7,3.0*3C
$GPGSV,3,1,10,17,70,043,34,27,49,311,36,28,43,066,37,09,33,315,35*74
$GPGSV,3,2,10,04,29,156,34,26,26,214,26,08,20,137,29,01,11,039,*7F
$GPGSV,3,3,10,02,06,184,27,12,05,280,21*7B
$GPRMC,215411.000,A,3748.5669,N,12217.8578,W,0.07,67.89,230712,,,A*4D
$GPVTG,67.89,T,,M,0.07,N,0.1,K,A*3B
$GPGGA,215412.000,3748.5669,N,12217.8578,W,1,06,1.7,-2.2,M,-25.1,M,,0000*48
$GPGSA,A,3,27,28,17,04,08,09,,,,,,,3.4,1.7,3.0*3C
$GPRMC,215412.000,A,3748.5669,N,12217.8578,W,0.05,89.11,230712,,,A*4D
$GPVTG,89.11,T,,M,0.05,N,0.1,K,A*38
$GPGGA,215413.000,3748.5669,N,12217.8578,W,1,06,1.7,-2.1,M,-25.1,M,,0000*4A
$GPGSA,A,3,27,28,17,04,08,09,,,,,,,3.4,1.7,3.0*3C
$GPRMC,215413.000,A,3748.5669,N,12217.8578,W,0.07,72.90,230712,,,A*43
$GPVTG,72.90,T,,M,0.07,N,0.1,K,A*37
$GPGGA,215414.000,3748.5669,N,12217.8578,W,1,06,1.7,-2.1,M,-25.1,M,,0000*4D
$GPGSA,A,3,27,28,17,04,08,09,,,,,,,3.4,1.7,3.0*3C
$GPRMC,215414.000,A,3748.5669,N,12217.8578,W,0.07,66.31,230712,,,A*4A
$GPVTG,66.31,T,,M,0.07,N,0.1,K,A*39
$GPGGA,215415.000,3748.5669,N,12217.8578,W,1,06,1.7,-2.1,M,-25.1,M,,0000*4C
$GPGSA,A,3,27,28,17,04,08,09,,,,,,,3.4,1.7,3.0*3C
$GPRMC,215415.000,A,3748.5669,N,12217.8578,W,0.06,79.91,230712,,,A*4E
$GPVTG,79.91,T,,M,0.06,N,0.1,K,A*3C
$GPGGA,215416.000,3748.5669,N,12217.8578,W,1,06,1.7,-2.0,M,-25.1,M,,0000*4E
$GPGSA,A,3,27,28,17,04,08,09,,,,,,,3.4,1.7,3.0*3C
$GPGSV,3,1,10,17,70,043,34,27,49,311,36,28,43,066,37,09,33,315,35*74
$GPGSV,3,2,10,04,29,156,34,26,26,214,27,08,20,137,29,01,11,039,*7E
$GPGSV,3,3,10,02,06,184,28,12,05,280,22*77
$GPVTG,81.60,T,,M,0.05,N,0.1,K,A*36
$GPGGA,215417.000,3748.5669,N,12217.8578,W,1,06,1.7,-2.0,M,-25.1,M,,0000*4F
$GPGSA,A,3,27,28,17,04,08,09,,,,,,,3.4,1.7,3.0*3C
$GPRMC,215417.000,A,3748.5669,N,12217.8578,W,0.06,70.38,230712,,,A*46
$GPVTG,70.38,T,,M,0.06,N,0.1,K,A*36
$GPGGA,215418.000,3748.5669,N,12217.8578,W,1,06,1.7,-2.0,M,-25.1,M,,0000*40
$GPGSA,A,3,27,28,17,04,08,09,,,,,,,3.4,1.7,3.0*3C
$GPRMC,215418.000,A,3748.5669,N,12217.8578,W,0.09,70.98,230712,,,A*4C
$GPVTG,70.98,T,,M,0.09,N,0.2,K,A*30
$GPGGA,215419.000,3748.5669,N,12217.8578,W,1,06,1.7,-2.0,M,-25.1,M,,0000*41
$GPGSA,A,3,27,28,17,04,08,09,,,,,,,3.4,1.7,3.0*3C
$GPRMC,215419.000,A,3748.5669,N,12217.8578,W,0.05,72.41,230712,,,A*47
$GPVTG,72.41,T,,M,0.05,N,0.1,K,A*39
$GPGGA,215420.000,3748.5669,N,12217.8578,W,1,06,1.7,-2.0,M,-25.1,M,,0000*4B
$GPGSA,A,3,27,28,17,04,08,09,,,,,,,3.4,1.7,3.0*3C
$GPRMC,215420.000,A,3748.5669,N,12217.8578,W,0.06,77.01,230712,,,A*4F
$GPVTG,77.01,T,,M,0.06,N,0.1,K,A*3B
$GPGGA,215421.000,3748.5669,N,12217.8578,W,1,06,1.7,-2.0,M,-25.1,M,,0000*4A
$GPGSA,A,3,27,28,17,04,08,09,,,,,,,3.4,1.7,3.0*3C
$GPGSV,3,1,10,17,70,043,34,27,49,311,35,28,43,066,37,09,34,315,35*70
$GPGSV,3,2,10,04,29,156,33,26,26,214,26,08,20,137,30,01,11,039,*70
$GPGSV,3,3,10,02,06,184,28,12,05,281,22*76
$GPRMC,215421.000,A,3748.5669,N,12217.8578,W,0.07,71.96,230712,,,A*47
$GPVTG,71.96,T,,M,0.07,N,0.1,K,A*32
$GPGGA,215422.000,3748.5670,N,12217.8576,W,1,06,1.7,-1.8,M,-25.1,M,,0000*44
$GPGSA,A,3,27,28,17,04,08,09,,,,,,,3.4,1.7,3.0*3C
$GPRMC,215422.000,A,3748.5670,N,12217.8576,W,0.20,33.91,230712,,,A*46
$GPVTG,33.91,T,,M,0.20,N,0.4,K,A*33
$GPGGA,215423.000,3748.5671,N,12217.8572,W,1,06,1.7,-2.7,M,-25.1,M,,0000*4C
$GPGSA,A,3,27,28,17,04,08,09,,,,,,,3.4,1.7,3.0*3C
$GPRMC,215423.000,A,3748.5671,N,12217.8572,W,0.99,225.11,230712,,,A*7D
$GPVTG,225.11,T,,M,0.99,N,1.8,K,A*01
$GPGGA,215424.000,3748.5666,N,12217.8573,W,1,06,1.7,-2.2,M,-25.1,M,,0000*49
$GPGSA,A,3,27,28,17,04,08,09,,,,,,,3.4,1.7,3.0*3C
$GPRMC,215424.000,A,3748.5666,N,12217.8573,W,0.77,223.43,230712,,,A*7C
$GPVTG,223.43,T,,M,0.77,N,1.4,K,A*0C
$GPGGA,215425.000,3748.5665,N,12217.8572,W,1,06,1.7,-1.6,M,-25.1,M,,0000*4D
$GPGSA,A,3,27,28,17,04,08,09,,,,,,,3.4,1.7,3.0*3C
$GPRMC,215425.000,A,3748.5665,N,12217.8572,W,0.40,206.32,230712,,,A*7A
$GPVTG,206.32,T,,M,0.40,N,0.7,K,A*0B
$GPGGA,215426.000,3748.5664,N,12217.8574,W,1,06,1.7,-2.8,M,-25.1,M,,0000*44
$GPGSA,A,3,27,28,17,04,08,09,,,,,,,3.4,1.7,3.0*3C
$GPGSV,3,1,10,17,70,043,29,27,49,311,27,28,43,066,25,09,34,315,25*7D
$GPGSV,3,2,10,04,29,156,24,26,26,214,17,08,20,137,20,01,11,039,*75
$GPGSV,3,3,10,02,06,184,20,12,05,281,16*79
$GPRMC,215426.000,A,3748.5664,N,12217.8574,W,1.28,224.79,230712,,,A*7E
$GPVTG,224.79,T,,M,1.28,N,2.4,K,A*0A
$GPGGA,215427.000,3748.5669,N,12217.8575,W,1,06,1.7,-4.8,M,-25.1,M,,0000*4F
$GPGSA,A,3,27,28,17,04,08,09,,,,,,,3.4,1.7,3.0*3C
$GPRMC,215427.000,A,3748.5669,N,12217.8575,W,0.42,347.76,230712,,,A*75
$GPVTG,347.76,T,,M,0.42,N,0.8,K,A*02
$GPGGA,215428.000,3748.5683,N,12217.8572,W,1,06,1.7,-5.9,M,-25.1,M,,0000*43
$GPGSA,A,3,27,28,17,04,08,09,,,,,,,3.4,1.7,3.0*3C
$GPRMC,215428.000,A,3748.5683,N,12217.8572,W,1.19,45.79,230712,,,A*48
$GPVTG,45.79,T,,M,1.19,N,2.2,K,A*3B
$GPGGA,215429.000,3748.5697,N,12217.8561,W,1,06,1.7,-7.0,M,-25.1,M,,0000*4E
$GPGSA,A,3,27,28,17,04,08,09,,,,,,,3.4,1.7,3.0*3C
$GPRMC,215429.000,A,3748.5697,N,12217.8561,W,2.52,46.61,230712,,,A*48
$GPVTG,46.61,T,,M,2.52,N,4.7,K,A*3E
$GPGGA,215430.000,3748.5705,N,12217.8551,W,1,05,3.2,-7.2,M,-25.1,M,,0000*49
$GPGSA,A,3,27,17,04,08,09,,,,,,,,4.7,3.2,3.4*31
$GPRMC,215430.000,A,3748.5705,N,12217.8551,W,2.25,43.73,230712,,,A*4F
$GPVTG,43.73,T,,M,2.25,N,4.2,K,A*3D
$GPGGA,215431.000,3748.5711,N,12217.8547,W,1,05,3.2,-8.3,M,-25.1,M,,0000*44
$GPGSA,A,3,27,17,04,08,09,,,,,,,,4.7,3.2,3.4*31
$GPGSV,3,1,10,17,70,043,26,27,49,311,28,28,43,066,,09,34,315,19*75
$GPGSV,3,2,10,04,29,156,20,26,26,214,16,08,20,137,16,01,11,039,*75
$GPGSV,3,3,10,02,06,184,17,12,05,281,*7A
$GPRMC,215431.000,A,3748.5711,N,12217.8547,W,1.32,48.03,230712,,,A*45
$GPGGA,215432.000,3748.5711,N,12217.8546,W,1,05,3.2,-8.5,M,-25.1,M,,0000*40
$GPGSA,A,3,27,17,04,08,09,,,,,,,,4.7,3.2,3.4*31
$GPRMC,215432.000,A,3748.5711,N,12217.8546,W,0.16,97.69,230712,,,A*4E
$GPVTG,97.69,T,,M,0.16,N,0.3,K,A*38
$GPGGA,215433.000,3748.5708,N,12217.8547,W,1,05,3.2,-7.8,M,-25.1,M,,0000*4A
$GPGSA,A,3,27,17,04,08,09,,,,,,,,4.7,3.2,3.4*31
$GPRMC,215433.000,A,3748.5708,N,12217.8547,W,0.28,28.77,230712,,,A*40
$GPVTG,28.77,T,,M,0.28,N,0.5,K,A*38
$GPGGA,215434.000,3748.5706,N,12217.8549,W,1,06,1.7,-7.0,M,-25.1,M,,0000*41
$GPGSA,A,3,27,28,17,04,08,09,,,,,,,3.4,1.7,3.0*3C
$GPRMC,215434.000,A,3748.5706,N,12217.8549,W,0.63,34.51,230712,,,A*41
$GPVTG,34.51,T,,M,0.63,N,1.2,K,A*38
$GPGGA,215435.000,3748.5710,N,12217.8544,W,1,06,1.7,-8.1,M,-25.1,M,,0000*44
$GPGSA,A,3,27,28,17,04,08,09,,,,,,,3.4,1.7,3.0*3C
$GPRMC,215435.000,A,3748.5710,N,12217.8544,W,0.65,45.39,230712,,,A*44
$GPVTG,45.39,T,,M,0.65,N,1.2,K,A*36
$GPGGA,215436.000,3748.5710,N,12217.8540,W,1,06,1.7,-8.6,M,-25.1,M,,0000*44
$GPGSA,A,3,27,28,17,04,08,09,,,,,,,3.4,1.7,3.0*3C
$GPGSV,3,1,10,17,70,043,27,27,49,311,27,28,43,066,20,09,34,315,27*74
$GPGSV,3,2,10,04,29,156,23,26,26,214,,08,20,137,19,01,11,039,*7E
$GPGSV,3,3,10,02,06,184,,12,05,281,*7C
$GPRMC,215436.000,A,3748.5710,N,12217.8540,W,0.38,0.51,230712,,,A*74
$GPVTG,0.51,T,,M,0.38,N,0.7,K,A*05
$GPGGA,215437.000,3748.5705,N,12217.8540,W,1,06,1.7,-7.4,M,-25.1,M,,0000*4C
$GPGSA,A,3,27,28,17,04,08,09,,,,,,,3.4,1.7,3.0*3C
$GPRMC,215437.000,A,3748.5705,N,12217.8540,W,0.16,46.73,230712,,,A*4F
$GPVTG,46.73,T,,M,0.16,N,0.3,K,A*3F
$GPGGA,215438.000,3748.5705,N,12217.8545,W,1,06,1.7,-8.3,M,-25.1,M,,0000*4E
$GPGSA,A,3,27,28,17,04,08,09,,,,,,,3.4,1.7,3.0*3C
$GPRMC,215438.000,A,3748.5705,N,12217.8545,W,0.72,6.17,230712,,,A*71
$GPVTG,6.17,T,,M,0.72,N,1.3,K,A*0A
$GPGGA,215439.000,3748.5705,N,12217.8543,W,1,06,1.7,-7.8,M,-25.1,M,,0000*4D
$GPGSA,A,3,27,28,17,04,08,09,,,,,,,3.4,1.7,3.0*3C
$GPRMC,215439.000,A,3748.5705,N,12217.8543,W,0.79,69.37,230712,,,A*46
$GPVTG,69.37,T,,M,0.79,N,1.5,K,A*3C
$GPGGA,215440.000,3748.5704,N,12217.8546,W,1,05,2.3,-8.7,M,-25.1,M,,0000*43
$GPGSA,A,3,27,28,17,08,09,,,,,,,,3.9,2.3,3.2*30
$GPRMC,215440.000,A,3748.5704,N,12217.8546,W,0.93,16.56,230712,,,A*47
$GPVTG,16.56,T,,M,0.93,N,1.7,K,A*35
$GPGGA,215441.000,3748.5702,N,12217.8553,W,1,06,1.7,-9.5,M,-25.1,M,,0000*47
$GPGSA,A,3,27,28,17,04,08,09,,,,,,,3.4,1.7,3.0*3C
$GPGSV,3,1,10,17,70,043,21,27,49,311,26,28,43,066,27,09,34,315,29*7A
$GPGSV,3,2,10,04,29,156,20,26,26,214,16,08,20,137,19,01,11,039,*7A
$GPGSV,3,3,10,02,06,184,21,12,05,281,*7F
$GPRMC,215441.000,A,3748.5702,N,12217.8553,W,0.37,291.49,230712,,,A*79
$GPVTG,291.49,T,,M,0.37,N,0.7,K,A*09
$GPGGA,215442.000,3748.5697,N,12217.8556,W,1,06,1.7,-9.2,M,-25.1,M,,0000*4B
$GPGSA,A,3,27,28,17,04,08,09,,,,,,,3.4,1.7,3.0*3C
$GPRMC,215442.000,A,3748.5697,N,12217.8556,W,0.21,355.67,230712,,,A*70
$GPVTG,355.67,T,,M,0.21,N,0.4,K,A*08
$GPGGA,215443.000,3748.5696,N,12217.8557,W,1,06,1.7,-9.7,M,-25.1,M,,0000*4F
$GPGSA,A,3,27,28,17,04,08,09,,,,,,,3.4,1.7,3.0*3C
$GPRMC,215443.000,A,3748.5696,N,12217.8557,W,0.09,54.00,230712,,,A*48
$GPVTG,54.00,T,,M,0.09,N,0.2,K,A*37
$GPGGA,215444.000,3748.5692,N,12217.8559,W,1,06,1.7,-7.9,M,-25.1,M,,0000*42
$GPGSA,A,3,27,28,17,04,08,09,,,,,,,3.4,1.7,3.0*3C
$GPRMC,215444.000,A,3748.5692,N,12217.8559,W,0.47,259.01,230712,,,A*71
$GPVTG,259.01,T,,M,0.47,N,0.9,K,A*08
$GPGGA,215445.000,3748.5689,N,12217.8558,W,1,06,1.7,-6.0,M,-25.1,M,,0000*40
$GPGSA,A,3,27,28,17,04,08,09,,,,,,,3.4,1.7,3.0*3C
$GPRMC,215445.000,A,3748.5689,N,12217.8558,W,0.16,111.19,230712,,,A*79
$GPVTG,111.19,T,,M,0.16,N,0.3,K,A*00
$GPGGA,215446.000,3748.5686,N,12217.8558,W,1,06,1.7,-4.4,M,-25.1,M,,0000*4A
$GPGSA,A,3,27,28,17,04,08,09,,,,,,,3.4,1.7,3.0*3C
$GPGSV,3,1,11,17,70,043,34,27,49,311,24,28,43,066,26,09,34,315,30*74
$GPGSV,3,2,11,04,29,156,32,26,26,214,17,08,20,137,31,01,11,039,*73
$GPGSV,3,3,11,02,06,184,32,12,05,281,18,48,44,197,28*4C
$GPRMC,215446.000,A,3748.5686,N,12217.8558,W,0.24,123.38,230712,,,A*76
$GPVTG,123.38,T,,M,0.24,N,0.4,K,A*04
$GPGGA,215447.000,3748.5687,N,12217.8553,W,1,06,1.7,-3.3,M,-25.1,M,,0000*41
$GPGSA,A,3,27,28,17,04,08,09,,,,,,,3.4,1.7,3.0*3C
$GPRMC,215447.000,A,3748.5687,N,12217.8553,W,0.21,96.83,230712,,,A*47
$GPVTG,96.83,T,,M,0.21,N,0.4,K,A*3E
$GPGGA,215448.000,3748.5687,N,12217.8551,W,1,06,1.7,-2.1,M,-25.1,M,,0000*4F
$GPGSA,A,3,27,28,17,04,08,09,,,,,,,3.4,1.7,3.0*3C
$GPRMC,215448.000,A,3748.5687,N,12217.8551,W,0.65,85.26,230712,,,A*47
$GPVTG,85.26,T,,M,0.65,N,1.2,K,A*34
$GPGGA,215449.000,3748.5683,N,12217.8553,W,1,06,1.7,-0.9,M,-25.1,M,,0000*42
$GPGSA,A,3,27,28,17,04,08,09,,,,,,,3.4,1.7,3.0*3C
$GPRMC,215449.000,A,3748.5683,N,12217.8553,W,0.90,243.96,230712,,,A*79
$GPVTG,243.96,T,,M,0.90,N,1.7,K,A*08
$GPGGA,215450.000,3748.5680,N,12217.8554,W,1,06,1.7,0.1,M,-25.1,M,,0000*6B
$GPGSA,A,3,27,28,17,04,08,09,,,,,,,3.4,1.7,3.0*3C
$GPRMC,215450.000,A,3748.5680,N,12217.8554,W,0.79,246.72,230712,,,A*7D
$GPVTG,246.72,T,,M,0.79,N,1.5,K,A*02
$GPGGA,215451.000,3748.5677,N,12217.8557,W,1,06,1.7,1.1,M,-25.1,M,,0000*60
$GPGSA,A,3,27,28,17,04,08,09,,,,,,,3.4,1.7,3.0*3C
$GPGSV,3,1,10,17,70,043,31,27,49,311,26,28,43,066,21,09,34,315,35*70
$GPGSV,3,2,10,04,29,156,26,26,26,214,24,08,20,137,21,01,11,039,*76
$GPGSV,3,3,10,02,06,184,19,12,05,281,17*72
$GPRMC,215451.000,A,3748.5677,N,12217.8557,W,0.66,240.09,230712,,,A*73
$GPVTG,240.09,T,,M,0.66,N,1.2,K,A*01
$GPGGA,215452.000,3748.5676,N,12217.8560,W,1,06,1.7,2.2,M,-25.1,M,,0000*66
$GPGSA,A,3,27,28,17,04,08,09,,,,,,,3.4,1.7,3.0*3C
$GPRMC,215452.000,A,3748.5676,N,12217.8560,W,0.39,334.42,230712,,,A*72
$GPVTG,334.42,T,,M,0.39,N,0.7,K,A*02
$GPGGA,215453.000,3748.5682,N,12217.8553,W,1,06,1.7,1.9,M,-25.1,M,,0000*64
$GPGSA,A,3,27,28,17,04,08,09,,,,,,,3.4,1.7,3.0*3C
$GPRMC,215453.000,A,3748.5682,N,12217.8553,W,0.83,41.13,230712,,,A*4C
$GPVTG,41.13,T,,M,0.83,N,1.5,K,A*35
$GPGGA,215454.000,3748.5683,N,12217.8550,W,1,06,1.7,1.6,M,-25.1,M,,0000*6E
$GPGSA,A,3,27,28,17,04,08,09,,,,,,,3.4,1.7,3.0*3C
$GPRMC,215454.000,A,3748.5683,N,12217.8550,W,0.63,116.83,230712,,,A*7D
$GPVTG,116.83,T,,M,0.63,N,1.2,K,A*06
$GPGGA,215455.000,3748.5675,N,12217.8560,W,1,06,1.7,2.6,M,-25.1,M,,0000*66
$GPGSA,A,3,27,28,17,04,08,09,,,,,,,3.4,1.7,3.0*3C
$GPRMC,215455.000,A,3748.5675,N,12217.8560,W,1.22,215.92,230712,,,A*72
$GPVTG,215.92,T,,M,1.22,N,2.3,K,A*00
$GPGGA,215456.000,3748.5671,N,12217.8571,W,1,06,1.7,4.4,M,-25.1,M,,0000*65
$GPGSA,A,3,27,28,17,04,08,09,,,,,,,3.4,1.7,3.0*3C
$GPGSV,3,1,10,17,70,043,28,27,49,311,32,28,43,066,23,09,34,315,34*7E
$GPGSV,3,2,10,04,29,156,24,26,26,214,25,08,20,137,23,01,11,039,*77
$GPGSV,3,3,10,02,06,184,19,12,05,281,20*76
$GPRMC,215456.000,A,3748.5671,N,12217.8571,W,1.39,233.42,230712,,,A*76
$GPVTG,233.42,T,,M,1.39,N,2.6,K,A*06
$GPGGA,215457.000,3748.5666,N,12217.8580,W,1,06,1.7,5.4,M,-25.1,M,,0000*6D
$GPGSA,A,3,27,28,17,04,08,09,,,,,,,3.4,1.7,3.0*3C
$GPRMC,215457.000,A,3748.5666,N,12217.8580,W,0.80,266.14,230712,,,A*7F
$GPVTG,266.14,T,,M,0.80,N,1.5,K,A*06
$GPGGA,215458.000,3748.5669,N,12217.8579,W,1,06,1.7,4.9,M,-25.1,M,,0000*67
$GPGSA,A,3,27,28,17,04,08,09,,,,,,,3.4,1.7,3.0*3C
$GPRMC,215458.000,A,3748.5669,N,12217.8579,W,0.54,258.05,230712,,,A*7D
$GPVTG,258.05,T,,M,0.54,N,1.0,K,A*07
$GPGGA,215459.000,3748.5672,N,12217.8576,W,1,06,1.7,4.5,M,-25.1,M,,0000*6F
$GPGSA,A,3,27,28,17,04,08,09,,,,,,,3.4,1.7,3.0*3C
$GPRMC,215459.000,A,3748.5672,N,12217.8576,W,0.66,220.32,230712,,,A*73
$GPVTG,220.32,T,,M,0.66,N,1.2,K,A*0F
$GPGGA,215500.000,3748.5670,N,12217.8582,W,1,06,1.7,4.7,M,-25.1,M,,0000*69
$GPGSA,A,3,27,28,17,04,08,09,,,,,,,3.4,1.7,3.0*3C
$GPRMC,215500.000,A,3748.5670,N,12217.8582,W,1.24,233.56,230712,,,A*70
$GPVTG,233.56,T,,M,1.24,N,2.3,K,A*0A
$GPGGA,215501.000,3748.5674,N,12217.8578,W,1,06,1.7,3.2,M,-25.1,M,,0000*6B
$GPGSA,A,3,27,28,17,04,08,09,,,,,,,3.4,1.7,3.0*3C
$GPGSV,3,1,10,17,70,043,24,27,49,311,32,28,43,066,20,09,34,315,40*72
$GPGSV,3,2,10,04,29,156,26,26,26,214,19,08,20,137,23,01,11,039,*7A
$GPGSV,3,3,10,02,06,184,18,12,05,281,18*7C
$GPRMC,215501.000,A,3748.5674,N,12217.8578,W,0.37,209.75,230712,,,A*7B
$GPVTG,209.75,T,,M,0.37,N,0.7,K,A*07
$GPGGA,215502.000,3748.5670,N,12217.8582,W,1,06,1.7,2.7,M,-25.1,M,,0000*6D
$GPGSA,A,3,27,28,17,04,08,09,,,,,,,3.4,1.7,3.0*3C
$GPRMC,215502.000,A,3748.5670,N,12217.8582,W,0.32,156.20,230712,,,A*75
$GPVTG,156.20,T,,M,0.32,N,0.6,K,A*0A
$GPGGA,215503.000,3748.5666,N,12217.8588,W,1,05,2.3,3.7,M,-25.1,M,,0000*64
$GPGSA,A,3,27,28,17,08,09,,,,,,,,3.9,2.3,3.2*30
$GPRMC,215503.000,A,3748.5666,N,12217.8588,W,0.44,229.44,230712,,,A*71
$GPVTG,229.44,T,,M,0.44,N,0.8,K,A*0C
$GPGGA,215504.000,3748.5666,N,12217.8591,W,1,03,10.7,3.1,M,-25.1,M,,0000*5C
$GPGSA,A,2,27,28,09,,,,,,,,,,10.8,10.7,1.0*3B
$GPRMC,215504.000,A,3748.5666,N,12217.8591,W,0.52,239.96,230712,,,A*77
$GPVTG,239.96,T,,M,0.52,N,1.0,K,A*0C
$GPGGA,215505.000,3748.5669,N,12217.8589,W,1,06,1.7,3.8,M,-25.1,M,,0000*67
$GPGSA,A,3,27,28,17,04,08,09,,,,,,,3.4,1.7,3.0*3C
$GPRMC,215505.000,A,3748.5669,N,12217.8589,W,1.61,8.84,230712,,,A*72
$GPVTG,8.84,T,,M,1.61,N,3.0,K,A*0C
$GPGGA,215506.000,3748.5690,N,12217.8583,W,1,04,1.9,3.8,M,-25.1,M,,0000*64
$GPGSA,A,3,27,28,04,09,,,,,,,,,6.8,1.9,6.5*35
$GPGSV,3,1,10,17,70,043,18,27,49,311,26,28,43,066,18,09,34,315,32*76
$GPGSV,3,2,10,04,29,156,14,26,26,214,24,08,20,137,14,01,11,039,*71
$GPGSV,3,3,10,02,06,184,17,12,05,281,17*7C
$GPRMC,215506.000,A,3748.5690,N,12217.8583,W,4.94,3.89,230712,,,A*74
$GPVTG,3.89,T,,M,4.94,N,9.1,K,A*0E
$GPGGA,215507.000,3748.5715,N,12217.8567,W,1,06,1.7,5.0,M,-25.1,M,,0000*61
$GPGSA,A,3,27,28,17,04,08,09,,,,,,,3.5,1.7,3.0*3D
$GPRMC,215507.000,A,3748.5715,N,12217.8567,W,6.87,17.72,230712,,,A*42
$GPVTG,17.72,T,,M,6.87,N,12.7,K,A*03
$GPGGA,215508.000,3748.5726,N,12217.8562,W,1,06,1.7,5.4,M,-25.1,M,,0000*6F
$GPGSA,A,3,27,28,17,04,08,09,,,,,,,3.5,1.7,3.0*3D
$GPRMC,215508.000,A,3748.5726,N,12217.8562,W,5.28,14.38,230712,,,A*43
$GPVTG,14.38,T,,M,5.28,N,9.8,K,A*3D
$GPGGA,215509.000,3748.5712,N,12217.8572,W,1,06,1.7,5.0,M,-25.1,M,,0000*6C
$GPGSA,A,3,27,28,17,04,08,09,,,,,,,3.5,1.7,3.0*3D
$GPRMC,215509.000,A,3748.5712,N,12217.8572,W,1.74,1.70,230712,,,A*71
$GPVTG,1.70,T,,M,1.74,N,3.2,K,A*08
$GPGGA,215510.000,3748.5703,N,12217.8579,W,1,06,1.7,5.8,M,-25.1,M,,0000*67
$GPGSA,A,3,27,28,17,04,08,09,,,,,,,3.5,1.7,3.0*3D
$GPRMC,215510.000,A,3748.5703,N,12217.8579,W,0.63,241.38,230712,,,A*7F
$GPVTG,241.38,T,,M,0.63,N,1.2,K,A*07
$GPGGA,215511.000,3748.5701,N,12217.8577,W,1,06,1.7,4.5,M,-25.1,M,,0000*66
$GPGSA,A,3,27,28,17,04,08,09,,,,,,,3.5,1.7,3.0*3D
$GPGSV,3,1,11,17,70,043,30,27,49,311,26,28,43,066,23,09,34,315,22*74
$GPGSV,3,2,11,04,29,156,27,26,26,214,23,08,20,137,26,01,11,039,*76
$GPGSV,3,3,11,02,06,184,18,12,05,281,16,51,43,156,32*43
$GPRMC,215511.000,A,3748.5701,N,12217.8577,W,0.30,265.60,230712,,,A*7F
$GPVTG,265.60,T,,M,0.30,N,0.6,K,A*0F
$GPGGA,215512.000,3748.5696,N,12217.8584,W,1,06,1.7,2.6,M,-25.1,M,,0000*63
$GPGSA,A,3,27,28,17,04,08,09,,,,,,,3.5,1.7,3.0*3D
$GPRMC,215512.000,A,3748.5696,N,12217.8584,W,0.43,267.93,230712,,,A*75
$GPVTG,267.93,T,,M,0.43,N,0.8,K,A*0B
$GPGGA,215513.000,3748.5701,N,12217.8585,W,1,06,1.7,1.1,M,-25.1,M,,0000*68
$GPGSA,A,3,27,28,17,04,08,09,,,,,,,3.5,1.7,3.0*3D
$GPRMC,215513.000,A,3748.5701,N,12217.8585,W,1.00,8.96,230712,,,A*72
$GPVTG,8.96,T,,M,1.00,N,1.9,K,A*03
$GPGGA,215514.000,3748.5707,N,12217.8582,W,1,06,1.7,0.2,M,-25.1,M,,0000*6C
$GPGSA,A,3,27,28,17,04,08,09,,,,,,,3.5,1.7,3.0*3D
$GPRMC,215514.000,A,3748.5707,N,12217.8582,W,1.31,17.01,230712,,,A*46
$GPVTG,17.01,T,,M,1.31,N,2.4,K,A*3F
$GPGGA,215515.000,3748.5711,N,12217.8578,W,1,06,1.7,0.4,M,-25.1,M,,0000*69
$GPGSA,A,3,27,28,17,04,08,09,,,,,,,3.5,1.7,3.0*3D
$GPRMC,215515.000,A,3748.5711,N,12217.8578,W,0.74,23.36,230712,,,A*46
$GPVTG,23.36,T,,M,0.74,N,1.4,K,A*3F
$GPGGA,215516.000,3748.5716,N,12217.8570,W,1,06,1.7,0.3,M,-25.1,M,,0000*62
$GPGSA,A,3,27,28,17,04,08,09,,,,,,,3.5,1.7,3.0*3D
$GPGSV,3,1,11,17,70,043,26,27,49,311,33,28,43,066,24,09,34,315,33*70
$GPGSV,3,2,11,04,29,156,19,26,26,214,16,08,20,137,21,01,11,039,*7A
$GPGSV,3,3,11,02,06,184,17,12,05,281,15,51,43,156,31*4C
$GPRMC,215516.000,A,3748.5716,N,12217.8570,W,1.62,41.62,230712,,,A*49
$GPVTG,41.62,T,,M,1.62,N,3.0,K,A*3A
$GPGGA,215517.000,3748.5721,N,12217.8563,W,1,06,1.7,1.6,M,-25.1,M,,0000*61
$GPGSA,A,3,27,28,17,04,08,09,,,,,,,3.5,1.7,3.0*3D
$GPRMC,215517.000,A,3748.5721,N,12217.8563,W,0.67,55.24,230712,,,A*4D
$GPVTG,55.24,T,,M,0.67,N,1.2,K,A*39
$GPGGA,215518.000,3748.5713,N,12217.8564,W,1,06,1.7,3.6,M,-25.1,M,,0000*6A
$GPGSA,A,3,27,28,17,04,08,09,,,,,,,3.5,1.7,3.0*3D
$GPRMC,215518.000,A,3748.5713,N,12217.8564,W,0.25,74.02,230712,,,A*45
$GPVTG,74.02,T,,M,0.25,N,0.5,K,A*3E
$GPGGA,215519.000,3748.5711,N,12217.8564,W,1,06,1.7,3.9,M,-25.1,M,,0000*66
$GPGSA,A,3,27,28,17,04,08,09,,,,,,,3.5,1.7,3.0*3D
$GPRMC,215519.000,A,3748.5711,N,12217.8564,W,0.65,220.26,230712,,,A*77
$GPVTG,220.26,T,,M,0.65,N,1.2,K,A*09
$GPGGA,215520.000,3748.5711,N,12217.8560,W,1,06,1.7,4.6,M,-25.1,M,,0000*60
$GPGSA,A,3,27,28,17,04,08,09,,,,,,,3.5,1.7,3.0*3D
$GPRMC,215520.000,A,3748.5711,N,12217.8560,W,0.64,221.81,230712,,,A*74
$GPVTG,221.81,T,,M,0.64,N,1.2,K,A*04
$GPGGA,215521.000,3748.5708,N,12217.8560,W,1,05,1.8,4.2,M,-25.1,M,,0000*61
$GPGSA,A,3,27,28,17,04,09,,,,,,,,3.9,1.8,3.5*33
$GPGSV,3,1,10,17,70,043,21,27,49,311,31,28,43,066,21,09,34,315,32*70
$GPGSV,3,2,10,04,29,156,20,26,26,214,17,08,20,137,25,01,11,039,*74
$GPGSV,3,3,10,02,06,184,16,12,05,281,*7B
$GPRMC,215521.000,A,3748.5708,N,12217.8560,W,0.41,176.12,230712,,,A*71
$GPVTG,176.12,T,,M,0.41,N,0.8,K,A*03
$GPGGA,215522.000,3748.5702,N,12217.8564,W,1,06,1.7,4.4,M,-25.1,M,,0000*66
$GPGSA,A,3,27,28,17,04,08,09,,,,,,,3.5,1.7,3.0*3D
$GPRMC,215522.000,A,3748.5702,N,12217.8564,W,0.69,246.14,230712,,,A*70
$GPVTG,246.14,T,,M,0.69,N,1.3,K,A*05
$GPGGA,215523.000,3748.5707,N,12217.8560,W,1,06,1.7,3.7,M,-25.1,M,,0000*62
$GPGSA,A,3,27,28,17,04,08,09,,,,,,,3.5,1.7,3.0*3D
$GPRMC,215523.000,A,3748.5707,N,12217.8560,W,0.84,264.81,230712,,,A*7F
$GPVTG,264.81,T,,M,0.84,N,1.5,K,A*0C
$GPGGA,215524.000,3748.5708,N,12217.8563,W,1,06,1.7,4.1,M,-25.1,M,,0000*68
$GPGSA,A,3,27,28,17,04,08,09,,,,,,,3.5,1.7,3.0*3D
$GPRMC,215524.000,A,3748.5708,N,12217.8563,W,0.58,218.13,230712,,,A*75
$GPVTG,218.13,T,,M,0.58,N,1.1,K,A*09
$GPGGA,215525.000,3748.5703,N,12217.8568,W,1,06,1.7,5.6,M,-25.1,M,,0000*6F
$GPGSA,A,3,27,28,17,04,08,09,,,,,,,3.5,1.7,3.0*3D
$GPRMC,215525.000,A,3748.5703,N,12217.8568,W,0.32,305.58,230712,,,A*7A
$GPVTG,305.58,T,,M,0.32,N,0.6,K,A*01
$GPGGA,215526.000,3748.5698,N,12217.8571,W,1,06,1.7,6.9,M,-25.1,M,,0000*6B
$GPGSA,A,3,27,28,17,04,08,09,,,,,,,3.5,1.7,3.0*3D
$GPGSV,3,1,10,17,70,043,26,27,49,311,27,28,43,066,22,09,34,315,32*73
$GPGSV,3,2,10,04,29,156,21,26,26,214,25,08,20,137,19,01,11,039,*7B
$GPGSV,3,3,10,02,06,184,17,12,05,281,*7A
$GPRMC,215526.000,A,3748.5698,N,12217.8571,W,0.27,294.60,230712,,,A*74
$GPVTG,294.60,T,,M,0.27,N,0.5,K,A*04
$GPGGA,215527.000,3748.5698,N,12217.8573,W,1,06,1.7,8.2,M,-25.1,M,,0000*6D
$GPGSA,A,3,27,28,17,04,08,09,,,,,,,3.5,1.7,3.0*3D
$GPRMC,215527.000,A,3748.5698,N,12217.8573,W,0.90,222.36,230712,,,A*75
$GPVTG,222.36,T,,M,0.90,N,1.7,K,A*05
$GPGGA,215528.000,3748.5692,N,12217.8576,W,1,06,1.7,8.8,M,-25.1,M,,0000*67
$GPGSA,A,3,27,28,17,04,08,09,,,,,,,3.5,1.7,3.0*3D
$GPRMC,215528.000,A,3748.5692,N,12217.8576,W,1.02,202.47,230712,,,A*7B
$GPVTG,202.47,T,,M,1.02,N,1.9,K,A*05
$GPGGA,215529.000,3748.5695,N,12217.8570,W,1,06,1.7,8.6,M,-25.1,M,,0000*69
$GPGSA,A,3,27,28,17,04,08,09,,,,,,,3.5,1.7,3.0*3D
$GPRMC,215529.000,A,3748.5695,N,12217.8570,W,0.50,142.25,230712,,,A*7E
$GPVTG,142.25,T,,M,0.50,N,0.9,K,A*01
$GPGGA,215530.000,3748.5689,N,12217.8576,W,1,06,1.7,9.2,M,-25.1,M,,0000*6F
$GPGSA,A,3,27,28,17,04,08,09,,,,,,,3.5,1.7,3.0*3D
$GPRMC,215530.000,A,3748.5689,N,12217.8576,W,1.15,182.95,230712,,,A*7A
$GPVTG,182.95,T,,M,1.15,N,2.1,K,A*0C
$GPGGA,215531.000,3748.5684,N,12217.8581,W,1,06,1.7,8.6,M,-25.1,M,,0000*6E
$GPGSA,A,3,27,28,17,04,08,09,,,,,,,3.5,1.7,3.0*3D
$GPGSV,3,1,10,17,70,043,26,27,49,311,30,28,43,066,21,09,34,315,36*72
$GPGSV,3,2,10,04,29,156,17,26,26,214,23,08,20,137,14,01,11,039,*75
$GPGSV,3,3,10,02,06,184,11,12,05,281,*7C
$GPRMC,215531.000,A,3748.5684,N,12217.8581,W,1.73,199.12,230712,,,A*7B
$GPVTG,199.12,T,,M,1.73,N,3.2,K,A*0B
$GPGGA,215532.000,3748.5679,N,12217.8587,W,1,06,1.7,9.2,M,-25.1,M,,0000*6C
$GPGSA,A,3,27,28,17,04,08,09,,,,,,,3.5,1.7,3.0*3D
$GPRMC,215532.000,A,3748.5679,N,12217.8587,W,1.79,202.59,230712,,,A*78
$GPVTG,202.59,T,,M,1.79,N,3.3,K,A*0E
$GPGGA,215533.000,3748.5680,N,12217.8583,W,1,06,1.7,8.9,M,-25.1,M,,0000*65
$GPGSA,A,3,27,28,17,04,08,09,,,,,,,3.5,1.7,3.0*3D
$GPRMC,215533.000,A,3748.5680,N,12217.8583,W,0.49,159.89,230712,,,A*79
$GPVTG,159.89,T,,M,0.49,N,0.9,K,A*05
$GPGGA,215534.000,3748.5681,N,12217.8583,W,1,06,1.7,9.4,M,-25.1,M,,0000*6F
$GPGSA,A,3,27,28,17,04,08,09,,,,,,,3.5,1.7,3.0*3D
$GPRMC,215534.000,A,3748.5681,N,12217.8583,W,0.68,60.17,230712,,,A*40
$GPVTG,60.17,T,,M,0.68,N,1.3,K,A*31
$GPGGA,215535.000,3748.5683,N,12217.8583,W,1,06,1.7,9.8,M,-25.1,M,,0000*60
$GPGSA,A,3,27,28,17,04,08,09,,,,,,,3.5,1.7,3.0*3D
$GPRMC,215535.000,A,3748.5683,N,12217.8583,W,0.03,102.30,230712,,,A*7E
$GPVTG,102.30,T,,M,0.03,N,0.1,K,A*0F
$GPGGA,215536.000,3748.5690,N,12217.8575,W,1,05,1.7,9.0,M,-25.1,M,,0000*63
$GPGSA,A,3,27,28,17,04,09,,,,,,,,3.9,1.7,3.5*3C
$GPGSV,3,1,10,17,70,043,27,27,49,311,30,28,43,066,20,09,34,315,36*72
$GPGSV,3,2,10,04,29,156,26,26,26,214,23,08,20,137,21,01,11,039,*71
$GPGSV,3,3,10,02,06,184,21,12,05,281,*7F
$GPRMC,215536.000,A,3748.5690,N,12217.8575,W,0.49,43.34,230712,,,A*48
$GPVTG,43.34,T,,M,0.49,N,0.9,K,A*39
$GPGGA,215537.000,3748.5693,N,12217.8572,W,1,05,1.7,8.3,M,-25.1,M,,0000*64
$GPGSA,A,3,27,28,17,04,09,,,,,,,,3.9,1.7,3.5*3C
$GPRMC,215537.000,A,3748.5693,N,12217.8572,W,0.71,45.40,230712,,,A*43
$GPVTG,45.40,T,,M,0.71,N,1.3,K,A*3C
$GPGGA,215538.000,3748.5690,N,12217.8572,W,1,05,1.7,7.0,M,-25.1,M,,0000*64
$GPGSA,A,3,27,28,17,04,09,,,,,,,,3.9,1.7,3.5*3C
$GPRMC,215538.000,A,3748.5690,N,12217.8572,W,1.04,57.75,230712,,,A*49
$GPVTG,57.75,T,,M,1.04,N,1.9,K,A*30
$GPGGA,215539.000,3748.5683,N,12217.8580,W,1,06,1.7,9.3,M,-25.1,M,,0000*64
$GPGSA,A,3,27,28,17,04,08,09,,,,,,,3.5,1.7,3.0*3D
$GPRMC,215539.000,A,3748.5683,N,12217.8580,W,0.09,335.70,230712,,,A*79
$GPVTG,335.70,T,,M,0.09,N,0.2,K,A*04
$GPGGA,215540.000,3748.5683,N,12217.8579,W,1,06,1.7,8.9,M,-25.1,M,,0000*67
$GPGSA,A,3,27,28,17,04,08,09,,,,,,,3.5,1.7,3.0*3D
$GPRMC,215540.000,A,3748.5683,N,12217.8579,W,0.16,322.59,230712,,,A*72
$GPVTG,322.59,T,,M,0.16,N,0.3,K,A*06
$GPGGA,215541.000,3748.5679,N,12217.8584,W,1,06,1.7,10.0,M,-25.1,M,,0000*51
$GPGSA,A,3,27,28,17,04,08,09,,,,,,,3.5,1.7,3.0*3D
$GPGSV,3,1,11,17,70,043,24,27,49,311,32,28,43,066,20,09,34,315,36*72
$GPGSV,3,2,11,04,29,156,25,26,26,214,22,08,20,137,16,01,11,039,*76
$GPGSV,3,3,11,02,06,184,18,12,05,281,,51,43,156,33*45
$GPRMC,215541.000,A,3748.5679,N,12217.8584,W,0.54,245.07,230712,,,A*79
$GPVTG,245.07,T,,M,0.54,N,1.0,K,A*09
$GPGGA,215542.000,3748.5679,N,12217.8586,W,1,06,1.7,10.5,M,-25.1,M,,0000*55
$GPGSA,A,3,27,28,17,04,08,09,,,,,,,3.5,1.7,3.0*3D
$GPRMC,215542.000,A,3748.5679,N,12217.8586,W,0.91,239.79,230712,,,A*73
$GPVTG,239.79,T,,M,0.91,N,1.7,K,A*05
$GPGGA,215543.000,3748.5680,N,12217.8583,W,1,06,1.7,8.4,M,-25.1,M,,0000*6F
$GPGSA,A,3,27,28,17,04,08,09,,,,,,,3.5,1.7,3.0*3D
$GPRMC,215543.000,A,3748.5680,N,12217.8583,W,0.66,209.88,230712,,,A*74
$GPVTG,209.88,T,,M,0.66,N,1.2,K,A*05
$GPGGA,215544.000,3748.5681,N,12217.8578,W,1,06,1.7,7.1,M,-25.1,M,,0000*67
$GPGSA,A,3,27,28,17,04,08,09,,,,,,,3.5,1.7,3.0*3D
$GPRMC,215544.000,A,3748.5681,N,12217.8578,W,0.38,80.43,230712,,,A*49
$GPVTG,80.43,T,,M,0.38,N,0.7,K,A*3E
$GPGGA,215545.000,3748.5684,N,12217.8572,W,1,06,1.7,6.2,M,-25.1,M,,0000*6B
$GPGSA,A,3,27,28,17,04,08,09,,,,,,,3.5,1.7,3.0*3D
$GPRMC,215545.000,A,3748.5684,N,12217.8572,W,0.51,74.51,230712,,,A*40
$GPVTG,74.51,T,,M,0.51,N,0.9,K,A*37
$GPGGA,215546.000,3748.5687,N,12217.8566,W,1,06,1.7,5.3,M,-25.1,M,,0000*6C
$GPGSA,A,3,27,28,17,04,08,09,,,,,,,3.5,1.7,3.0*3D
$GPGSV,3,1,11,17,70,043,32,27,49,311,36,28,43,066,19,09,34,315,32*7F
$GPGSV,3,2,11,04,29,156,26,26,26,214,29,08,20,137,26,01,11,039,*7D
$GPGSV,3,3,11,02,06,184,17,12,05,281,,51,43,156,30*49
$GPRMC,215546.000,A,3748.5687,N,12217.8566,W,0.19,60.50,230712,,,A*4D
$GPVTG,60.50,T,,M,0.19,N,0.4,K,A*32
$GPGGA,215547.000,3748.5691,N,12217.8562,W,1,06,1.7,5.0,M,-25.1,M,,0000*6D
$GPGSA,A,3,27,28,17,04,08,09,,,,,,,3.5,1.7,3.0*3D
$GPRMC,215547.000,A,3748.5691,N,12217.8562,W,0.17,206.38,230712,,,A*7D
$GPVTG,206.38,T,,M,0.17,N,0.3,K,A*07
$GPGGA,215548.000,3748.5690,N,12217.8563,W,1,06,1.7,5.0,M,-25.1,M,,0000*62
$GPGSA,A,3,27,28,17,04,08,09,,,,,,,3.5,1.7,3.0*3D
$GPRMC,215548.000,A,3748.5690,N,12217.8563,W,0.10,120.62,230712,,,A*7D
$GPVTG,120.62,T,,M,0.10,N,0.2,K,A*09
$GPGGA,215549.000,3748.5688,N,12217.8568,W,1,06,1.7,4.6,M,-25.1,M,,0000*66
$GPGSA,A,3,27,28,17,04,08,09,,,,,,,3.5,1.7,3.0*3D
$GPRMC,215549.000,A,3748.5688,N,12217.8568,W,0.32,340.77,230712,,,A*7E
$GPVTG,340.77,T,,M,0.32,N,0.6,K,A*0D
$GPGGA,215550.000,3748.5685,N,12217.8574,W,1,06,1.7,2.4,M,-25.1,M,,0000*6A
$GPGSA,A,3,27,28,17,04,08,09,,,,,,,3.5,1.7,3.0*3D
$GPRMC,215550.000,A,3748.5685,N,12217.8574,W,0.49,327.28,230712,,,A*71
$GPVTG,327.28,T,,M,0.49,N,0.9,K,A*05
$GPGGA,215551.000,3748.5681,N,12217.8577,W,1,06,1.7,2.6,M,-25.1,M,,0000*6E
$GPGSA,A,3,27,28,17,04,08,09,,,,,,,3.5,1.7,3.0*3D
$GPGSV,3,1,10,17,69,043,23,27,49,311,28,28,43,067,20,09,34,315,31*71
$GPGSV,3,2,10,04,29,155,21,26,25,214,22,08,20,137,19,01,11,039,*7C
$GPGSV,3,3,10,02,07,183,16,12,06,281,*7E
$GPRMC,215551.000,A,3748.5681,N,12217.8577,W,0.30,34.46,230712,,,A*40
$GPVTG,34.46,T,,M,0.30,N,0.6,K,A*3D
$GPGGA,215552.000,3748.5676,N,12217.8583,W,1,04,7.8,3.6,M,-25.1,M,,0000*64
$GPGSA,A,3,27,28,17,09,,,,,,,,,7.9,7.8,1.0*32
$GPRMC,215552.000,A,3748.5676,N,12217.8583,W,0.38,185.28,230712,,,A*7B
$GPVTG,185.28,T,,M,0.38,N,0.7,K,A*07
$GPGGA,215553.000,3748.5669,N,12217.8588,W,1,06,1.7,3.5,M,-25.1,M,,0000*68
$GPGSA,A,3,27,28,17,04,08,09,,,,,,,3.5,1.7,3.0*3D
$GPRMC,215553.000,A,3748.5669,N,12217.8588,W,0.41,162.03,230712,,,A*71
$GPVTG,162.03,T,,M,0.41,N,0.8,K,A*06
$GPGGA,215554.000,3748.5666,N,12217.8594,W,1,05,2.3,3.9,M,-25.1,M,,0000*65
$GPGSA,A,3,27,28,17,08,09,,,,,,,,3.9,2.3,3.2*30
$GPRMC,215554.000,A,3748.5666,N,12217.8594,W,0.36,214.37,230712,,,A*71
$GPVTG,214.37,T,,M,0.36,N,0.7,K,A*0C
$GPGGA,215555.000,3748.5668,N,12217.8592,W,1,06,1.7,4.4,M,-25.1,M,,0000*62
$GPGSA,A,3,27,28,17,04,08,09,,,,,,,3.5,1.7,3.0*3D
$GPRMC,215555.000,A,3748.5668,N,12217.8592,W,0.16,73.90,230712,,,A*44
$GPVTG,73.90,T,,M,0.16,N,0.3,K,A*34
$GPGGA,215556.000,3748.5662,N,12217.8592,W,1,05,3.2,5.5,M,-25.1,M,,0000*6F
$GPGSA,A,3,27,17,04,08,09,,,,,,,,4.7,3.2,3.5*30
$GPGSV,3,1,10,17,69,043,19,27,49,311,29,28,43,067,19,09,34,315,31*73
$GPGSV,3,2,10,04,29,155,17,26,25,214,22,08,20,137,18,01,11,039,*78
$GPGSV,3,3,10,02,07,183,17,12,06,281,*7F
$GPRMC,215556.000,A,3748.5662,N,12217.8592,W,0.46,183.65,230712,,,A*7C
$GPVTG,183.65,T,,M,0.46,N,0.9,K,A*0F
$GPGGA,215557.000,3748.5651,N,12217.8604,W,1,06,1.7,7.0,M,-25.1,M,,0000*61
$GPGSA,A,3,27,28,17,04,08,09,,,,,,,3.5,1.7,3.0*3D
$GPRMC,215557.000,A,3748.5651,N,12217.8604,W,0.63,192.12,230712,,,A*76
$GPVTG,192.12,T,,M,0.63,N,1.2,K,A*02
$GPGGA,215558.000,3748.5651,N,12217.8607,W,1,06,1.7,7.7,M,-25.1,M,,0000*6A
$GPGSA,A,3,27,28,17,04,08,09,,,,,,,3.5,1.7,3.0*3D
$GPRMC,215558.000,A,3748.5651,N,12217.8607,W,0.94,47.68,230712,,,A*46
$GPVTG,47.68,T,,M,0.94,N,1.7,K,A*3B
$GPGGA,215559.000,3748.5658,N,12217.8600,W,1,06,1.7,6.3,M,-25.1,M,,0000*60
$GPGSA,A,3,27,28,17,04,08,09,,,,,,,3.5,1.7,3.0*3D
$GPRMC,215559.000,A,3748.5658,N,12217.8600,W,1.25,39.42,230712,,,A*43
$GPVTG,39.42,T,,M,1.25,N,2.3,K,A*36
$GPGGA,215600.000,3748.5665,N,12217.8594,W,1,05,2.3,5.1,M,-25.1,M,,0000*6A
$GPGSA,A,3,27,28,17,08,09,,,,,,,,3.9,2.3,3.2*30
$GPRMC,215600.000,A,3748.5665,N,12217.8594,W,0.86,48.05,230712,,,A*41
$GPVTG,48.05,T,,M,0.86,N,1.6,K,A*3D
$GPGGA,215601.000,3748.5672,N,12217.8587,W,1,06,1.7,4.5,M,-25.1,M,,0000*6E
$GPGSA,A,3,27,28,17,04,08,09,,,,,,,3.5,1.7,3.0*3D
$GPGSV,3,1,10,17,69,043,21,27,49,311,34,28,43,067,20,09,34,315,31*7E
$GPGSV,3,2,10,04,29,155,18,26,25,214,14,08,20,137,22,01,11,039,*7B
$GPGSV,3,3,10,02,07,183,13,12,06,281,*7B
$GPRMC,215601.000,A,3748.5672,N,12217.8587,W,0.63,20.05,230712,,,A*41
$GPVTG,20.05,T,,M,0.63,N,1.2,K,A*3C
$GPGGA,215602.000,3748.5673,N,12217.8586,W,1,05,3.1,5.3,M,-25.1,M,,0000*6D
$GPGSA,A,3,27,17,04,08,09,,,,,,,,4.7,3.1,3.5*33
$GPRMC,215602.000,A,3748.5673,N,12217.8586,W,1.02,38.62,230712,,,A*4C
$GPVTG,38.62,T,,M,1.02,N,1.9,K,A*39
$GPGGA,215603.000,3748.5670,N,12217.8590,W,1,05,3.1,5.0,M,-25.1,M,,0000*6B
$GPGSA,A,3,27,17,04,08,09,,,,,,,,4.7,3.1,3.5*33
$GPRMC,215603.000,A,3748.5670,N,12217.8590,W,1.29,42.63,230712,,,A*4C
$GPVTG,42.63,T,,M,1.29,N,2.4,K,A*32
$GPGGA,215604.000,3748.5673,N,12217.8590,W,1,04,6.2,5.0,M,-25.1,M,,0000*68
$GPGSA,A,3,27,04,08,09,,,,,,,,,9.2,6.2,6.8*33
$GPRMC,215604.000,A,3748.5673,N,12217.8590,W,0.75,48.74,230712,,,A*4C
$GPVTG,48.74,T,,M,0.75,N,1.4,K,A*35
$GPGGA,215605.000,3748.5676,N,12217.8592,W,1,05,3.1,4.6,M,-25.1,M,,0000*6E
$GPGSA,A,3,27,17,04,08,09,,,,,,,,4.7,3.1,3.5*33
$GPRMC,215605.000,A,3748.5676,N,12217.8592,W,0.30,3.71,230712,,,A*71
$GPVTG,3.71,T,,M,0.30,N,0.6,K,A*0D
$GPGGA,215606.000,3748.5680,N,12217.8588,W,1,05,3.1,6.2,M,-25.1,M,,0000*69
$GPGSA,A,3,27,17,04,08,09,,,,,,,,4.7,3.1,3.5*33
$GPGSV,3,1,10,17,69,043,19,27,49,311,33,28,43,067,,09,34,315,30*71
$GPGSV,3,2,10,04,29,155,14,26,25,214,19,08,20,137,22,01,11,039,*7A
$GPGSV,3,3,10,02,07,183,14,12,06,281,*7C
$GPRMC,215606.000,A,3748.5680,N,12217.8588,W,0.29,22.07,230712,,,A*4A
$GPVTG,22.07,T,,M,0.29,N,0.5,K,A*34
$GPGGA,215607.000,3748.5683,N,12217.8590,W,1,05,3.1,6.3,M,-25.1,M,,0000*63
$GPGSA,A,3,27,17,04,08,09,,,,,,,,4.7,3.1,3.5*33
$GPRMC,215607.000,A,3748.5683,N,12217.8590,W,0.39,238.44,230712,,,A*7E
$GPVTG,238.44,T,,M,0.39,N,0.7,K,A*09
$GPGGA,215608.000,3748.5673,N,12217.8605,W,1,05,3.1,6.8,M,-25.1,M,,0000*67
$GPGSA,A,3,27,17,04,08,09,,,,,,,,4.7,3.1,3.5*33
$GPRMC,215608.000,A,3748.5673,N,12217.8605,W,1.72,226.65,230712,,,A*73
$GPVTG,226.65,T,,M,1.72,N,3.2,K,A*0D
$GPGGA,215609.000,3748.5670,N,12217.8612,W,1,04,6.3,7.3,M,-25.1,M,,0000*6F
$GPGSA,A,3,27,17,08,09,,,,,,,,,8.2,6.3,5.2*38
$GPRMC,215609.000,A,3748.5670,N,12217.8612,W,1.29,227.40,230712,,,A*7F
$GPVTG,227.40,T,,M,1.29,N,2.4,K,A*02
$GPGGA,215610.000,3748.5660,N,12217.8628,W,1,05,3.1,6.1,M,-25.1,M,,0000*6A
$GPGSA,A,3,27,17,04,08,09,,,,,,,,4.7,3.1,3.5*33
$GPRMC,215610.000,A,3748.5660,N,12217.8628,W,2.16,226.75,230712,,,A*77
$GPVTG,226.75,T,,M,2.16,N,4.0,K,A*08
$GPGGA,215611.000,3748.5656,N,12217.8635,W,1,04,6.3,4.9,M,-25.1,M,,0000*6E
$GPGSA,A,3,27,17,08,09,,,,,,,,,8.2,6.3,5.2*38
$GPGSV,3,1,10,17,69,043,20,27,49,311,33,28,43,067,,09,34,315,30*7B
$GPGSV,3,2,10,04,29,155,18,26,25,214,18,08,20,137,22,01,11,039,*77
$GPGSV,3,3,10,02,07,183,15,12,06,281,*7D
$GPVTG,220.56,T,,M,1.72,N,3.2,K,A*0B
$GPGGA,215612.000,3748.5650,N,12217.8647,W,1,04,6.3,3.6,M,-25.1,M,,0000*66
$GPGSA,A,3,27,17,08,09,,,,,,,,,8.2,6.3,5.2*38
$GPRMC,215612.000,A,3748.5650,N,12217.8647,W,1.32,217.07,230712,,,A*7D
$GPVTG,217.07,T,,M,1.32,N,2.4,K,A*08
$GPGGA,215613.000,3748.5645,N,12217.8648,W,1,05,3.1,5.2,M,-25.1,M,,0000*68
$GPGSA,A,3,27,17,04,08,09,,,,,,,,4.7,3.1,3.5*33
$GPRMC,215613.000,A,3748.5645,N,12217.8648,W,0.60,135.85,230712,,,A*78
$GPVTG,135.85,T,,M,0.60,N,1.1,K,A*01
$GPGGA,215614.000,3748.5638,N,12217.8651,W,1,05,3.1,5.8,M,-25.1,M,,0000*67
$GPGSA,A,3,27,17,04,08,09,,,,,,,,4.7,3.1,3.5*33
$GPRMC,215614.000,A,3748.5638,N,12217.8651,W,0.74,179.31,230712,,,A*7F
$GPVTG,179.31,T,,M,0.74,N,1.4,K,A*06
$GPGGA,215615.000,3748.5633,N,12217.8647,W,1,04,5.1,6.0,M,-25.1,M,,0000*66
$GPGSA,A,3,27,17,04,09,,,,,,,,,8.2,5.1,6.4*30
$GPRMC,215615.000,A,3748.5633,N,12217.8647,W,1.48,134.53,230712,,,A*71
$GPVTG,134.53,T,,M,1.48,N,2.7,K,A*05
$GPGGA,215616.000,3748.5633,N,12217.8644,W,1,03,12.2,4.7,M,-25.1,M,,0000*51
$GPGSA,A,2,27,17,09,,,,,,,,,,12.3,12.2,1.0*39
$GPGSV,3,1,10,17,69,043,20,27,49,311,33,28,43,067,,09,34,315,27*7D
$GPGSV,3,2,10,04,29,155,,26,25,214,21,08,20,137,12,01,11,039,*77
$GPGSV,3,3,10,02,07,183,15,12,06,281,*7D
$GPRMC,215616.000,A,3748.5633,N,12217.8644,W,1.27,167.63,230712,,,A*7D
$GPVTG,167.63,T,,M,1.27,N,2.3,K,N*02
$GPGGA,215617.000,3748.5631,N,12217.8645,W,1,03,12.2,3.4,M,-25.1,M,,0000*57
$GPGSA,A,2,27,17,09,,,,,,,,,,12.3,12.2,1.0*39
$GPRMC,215617.000,A,3748.5631,N,12217.8645,W,1.62,208.68,230712,,,A*7F
$GPVTG,208.68,T,,M,1.62,N,3.0,K,N*00
$GPGGA,215618.000,3748.5627,N,12217.8648,W,6,00,50.0,3.3,M,-25.1,M,,0000*55
$GPGSA,A,2,,,,,,,,,,,,,50.0,50.0,50.0*06
$GPRMC,215618.000,A,3748.5627,N,12217.8648,W,1.62,208.68,230712,,,E*7E
$GPVTG,208.68,T,,M,1.62,N,3.0,K,N*00
$GPGGA,215619.000,3748.5623,N,12217.8651,W,6,00,50.0,3.1,M,-25.1,M,,0000*5A
$GPGSA,A,2,,,,,,,,,,,,,50.0,50.0,50.0*06
$GPRMC,215619.000,A,3748.5623,N,12217.8651,W,1.62,208.68,230712,,,E*73
$GPVTG,208.68,T,,M,1.62,N,3.0,K,N*00
$GPGGA,215620.000,3748.5644,N,12217.8617,W,1,04,6.3,2.7,M,-25.1,M,,0000*67
$GPGSA,A,3,27,17,08,09,,,,,,,,,8.2,6.3,5.2*38
$GPRMC,215620.000,A,3748.5644,N,12217.8617,W,0.76,131.37,230712,,,A*79
$GPVTG,131.37,T,,M,0.76,N,1.4,K,A*0E
$GPGGA,215621.000,3748.5645,N,12217.8611,W,1,04,6.3,0.7,M,-25.1,M,,0000*63
$GPGSA,A,3,27,17,08,09,,,,,,,,,8.2,6.3,5.2*38
$GPGSV,3,1,10,17,69,043,16,27,49,311,33,28,42,067,,09,34,315,27*79
$GPGSV,3,2,10,04,30,155,,26,25,214,,08,20,137,13,01,11,039,*7D
$GPGSV,3,3,10,02,07,183,17,12,06,281,*7F
$GPRMC,215621.000,A,3748.5645,N,12217.8611,W,1.12,182.89,230712,,,A*71
$GPVTG,182.89,T,,M,1.12,N,2.1,K,A*06
$GPGGA,215622.000,3748.5646,N,12217.8596,W,1,04,6.3,-1.7,M,-25.1,M,,0000*43
$GPGSA,A,3,27,17,08,09,,,,,,,,,8.2,6.3,5.2*38
$GPRMC,215622.000,A,3748.5646,N,12217.8596,W,1.41,195.71,230712,,,A*7A
$GPVTG,195.71,T,,M,1.41,N,2.6,K,A*06
$GPGGA,215623.000,3748.5644,N,12217.8592,W,1,03,34.8,-3.7,M,-25.1,M,,0000*7B
$GPGSA,A,2,27,08,09,,,,,,,,,,34.8,34.8,1.0*36
$GPRMC,215623.000,A,3748.5644,N,12217.8592,W,2.04,208.18,230712,,,A*77
$GPVTG,208.18,T,,M,2.04,N,3.8,K,A*03
$GPGGA,215624.000,3748.5660,N,12217.8569,W,1,04,6.3,-5.0,M,-25.1,M,,0000*42
$GPGSA,A,3,27,17,08,09,,,,,,,,,8.2,6.3,5.2*38
$GPRMC,215624.000,A,3748.5660,N,12217.8569,W,1.58,206.93,230712,,,A*75
$GPVTG,206.93,T,,M,1.58,N,2.9,K,A*04
$GPGGA,215625.000,3748.5675,N,12217.8555,W,1,04,6.3,-6.4,M,-25.1,M,,0000*4F
$GPGSA,A,3,27,17,08,09,,,,,,,,,8.2,6.3,5.2*38
$GPRMC,215625.000,A,3748.5675,N,12217.8555,W,1.19,210.79,230712,,,A*79
$GPVTG,210.79,T,,M,1.19,N,2.2,K,A*09
$GPGGA,215626.000,3748.5688,N,12217.8539,W,1,03,12.2,-7.7,M,-25.1,M,,0000*75
$GPGSA,A,2,27,17,09,,,,,,,,,,12.2,12.2,1.0*38
$GPGSV,3,1,10,17,69,043,19,27,49,311,32,28,42,067,,09,34,315,27*77
$GPGSV,3,2,10,04,30,155,,26,25,214,,08,20,137,14,01,11,039,*7A
$GPGSV,3,3,10,02,07,183,16,12,06,281,*7E
$GPRMC,215626.000,A,3748.5688,N,12217.8539,W,0.05,248.58,230712,,,A*70
$GPVTG,248.58,T,,M,0.05,N,0.1,K,A*0A
$GPGGA,215627.000,3748.5703,N,12217.8520,W,1,03,12.2,-8.8,M,-25.1,M,,0000*7E
$GPGSA,A,2,27,17,09,,,,,,,,,,12.2,12.2,1.0*38
$GPRMC,215627.000,A,3748.5703,N,12217.8520,W,1.17,26.93,230712,,,A*44
$GPVTG,26.93,T,,M,1.17,N,2.2,K,A*34
$GPGGA,215628.000,3748.5709,N,12217.8519,W,1,03,12.2,-10.2,M,-25.1,M,,0000*42
$GPGSA,A,2,27,17,09,,,,,,,,,,12.2,12.2,1.0*38
$GPRMC,215628.000,A,3748.5709,N,12217.8519,W,2.07,22.62,230712,,,A*43
$GPVTG,22.62,T,,M,2.07,N,3.8,K,A*37
$GPGGA,215629.000,3748.5699,N,12217.8539,W,1,04,6.3,-8.8,M,-25.1,M,,0000*49
$GPGSA,A,3,27,17,08,09,,,,,,,,,8.2,6.3,5.2*38
$GPRMC,215629.000,A,3748.5699,N,12217.8539,W,1.96,15.36,230712,,,A*46
$GPVTG,15.36,T,,M,1.96,N,3.6,K,A*37
$GPGGA,215630.000,3748.5713,N,12217.8535,W,1,04,6.3,-10.1,M,-25.1,M,,0000*7E
$GPGSA,A,3,27,17,08,09,,,,,,,,,8.2,6.3,5.2*38
$GPRMC,215630.000,A,3748.5713,N,12217.8535,W,2.58,29.53,230712,,,A*4C
$GPVTG,29.53,T,,M,2.58,N,4.8,K,A*33
$GPGGA,215631.000,3748.5726,N,12217.8520,W,1,03,12.1,-10.6,M,-25.1,M,,0000*4A
$GPGSA,A,2,27,17,09,,,,,,,,,,12.2,12.1,1.0*3B
$GPGSV,3,1,10,17,69,043,20,27,49,311,31,28,42,067,,09,34,315,21*78
$GPGSV,3,2,10,04,30,155,,26,25,214,,08,20,137,13,01,11,039,*7D
$GPGSV,3,3,10,02,07,183,16,12,06,281,*7E
$GPRMC,215631.000,A,3748.5726,N,12217.8520,W,2.25,30.92,230712,,,A*40
$GPVTG,30.92,T,,M,2.25,N,4.2,K,A*36
$GPGGA,215632.000,3748.5747,N,12217.8512,W,1,04,6.3,-12.2,M,-25.1,M,,0000*79
$GPGSA,A,3,27,17,08,09,,,,,,,,,8.2,6.3,5.2*38
$GPRMC,215632.000,A,3748.5747,N,12217.8512,W,2.52,38.57,230712,,,A*44
$GPVTG,38.57,T,,M,2.52,N,4.7,K,A*32
$GPGGA,215633.000,3748.5763,N,12217.8501,W,1,04,6.3,-13.4,M,-25.1,M,,0000*7B
$GPGSA,A,3,27,17,08,09,,,,,,,,,8.2,6.3,5.2*38
$GPRMC,215633.000,A,3748.5763,N,12217.8501,W,2.28,38.29,230712,,,A*45
$GPVTG,38.29,T,,M,2.28,N,4.2,K,A*33
$GPGGA,215634.000,3748.5763,N,12217.8502,W,1,06,1.7,-11.9,M,-25.1,M,,0000*71
$GPGSA,A,3,27,04,17,08,09,28,,,,,,,3.5,1.7,3.0*3D
$GPRMC,215634.000,A,3748.5763,N,12217.8502,W,1.84,30.67,230712,,,A*46
$GPVTG,30.67,T,,M,1.84,N,3.4,K,A*35
$GPGGA,215635.000,3748.5738,N,12217.8527,W,1,06,1.7,-7.8,M,-25.1,M,,0000*4F
$GPGSA,A,3,27,04,17,08,09,28,,,,,,,3.5,1.7,3.0*3D
$GPRMC,215635.000,A,3748.5738,N,12217.8527,W,0.46,5.44,230712,,,A*76
$GPVTG,5.44,T,,M,0.46,N,0.9,K,A*03
$GPGGA,215636.000,3748.5715,N,12217.8551,W,1,06,1.7,-4.1,M,-25.1,M,,0000*48
$GPGSA,A,3,27,04,17,08,09,28,,,,,,,3.5,1.7,3.0*3D
$GPGSV,3,1,10,17,69,043,33,27,49,311,34,28,42,067,21,09,34,315,31*7D
$GPGSV,3,2,10,04,30,155,28,26,25,214,24,08,20,137,24,01,11,039,*75
$GPGSV,3,3,10,02,07,183,17,12,06,281,*7F
$GPRMC,215636.000,A,3748.5715,N,12217.8551,W,0.18,231.38,230712,,,A*7E
$GPGGA,215637.000,3748.5701,N,12217.8569,W,1,06,1.7,-0.8,M,-25.1,M,,0000*4A
$GPGSA,A,3,27,04,17,08,09,28,,,,,,,3.5,1.7,3.0*3D
$GPRMC,215637.000,A,3748.5701,N,12217.8569,W,0.44,319.30,230712,,,A*7B
$GPVTG,319.30,T,,M,0.44,N,0.8,K,A*0D
$GPGGA,215638.000,3748.5701,N,12217.8572,W,1,06,1.7,0.4,M,-25.1,M,,0000*6E
$GPGSA,A,3,27,04,17,08,09,28,,,,,,,3.5,1.7,3.0*3D
$GPRMC,215638.000,A,3748.5701,N,12217.8572,W,0.38,12.96,230712,,,A*41
$GPVTG,12.96,T,,M,0.38,N,0.7,K,A*3D
$GPGGA,215639.000,3748.5700,N,12217.8571,W,1,06,1.7,-0.7,M,-25.1,M,,0000*43
$GPGSA,A,3,27,04,17,08,09,28,,,,,,,3.5,1.7,3.0*3D
$GPRMC,215639.000,A,3748.5700,N,12217.8571,W,0.06,145.46,230712,,,A*71
$GPVTG,145.46,T,,M,0.06,N,0.1,K,A*08
$GPGGA,215640.000,3748.5706,N,12217.8558,W,1,06,1.7,-3.1,M,-25.1,M,,0000*45
$GPGSA,A,3,27,04,17,08,09,28,,,,,,,3.5,1.7,3.0*3D
$GPRMC,215640.000,A,3748.5706,N,12217.8558,W,0.56,146.96,230712,,,A*79
$GPVTG,146.96,T,,M,0.56,N,1.0,K,A*03
$GPGGA,215641.000,3748.5699,N,12217.8566,W,1,06,1.7,-4.2,M,-25.1,M,,0000*4A
$GPGSA,A,3,27,04,17,08,09,28,,,,,,,3.5,1.7,3.0*3D
$GPGSV,3,1,10,17,69,043,27,27,49,311,31,28,42,067,22,09,34,315,25*7B
$GPGSV,3,2,10,04,30,155,22,26,25,214,23,08,20,137,25,01,11,039,*79
$GPGSV,3,3,10,02,07,183,18,12,06,281,*70
$GPRMC,215641.000,A,3748.5699,N,12217.8566,W,0.57,200.46,230712,,,A*7F
$GPVTG,200.46,T,,M,0.57,N,1.1,K,A*0F
$GPGGA,215642.000,3748.5697,N,12217.8565,W,1,06,1.7,-4.1,M,-25.1,M,,0000*47
$GPGSA,A,3,27,04,17,08,09,28,,,,,,,3.5,1.7,3.0*3D
$GPRMC,215642.000,A,3748.5697,N,12217.8565,W,0.11,300.30,230712,,,A*73
$GPVTG,300.30,T,,M,0.11,N,0.2,K,A*0F
$GPGGA,215643.000,3748.5700,N,12217.8561,W,1,06,1.7,-3.9,M,-25.1,M,,0000*42
$GPGSA,A,3,27,04,17,08,09,28,,,,,,,3.5,1.7,3.0*3D
$GPRMC,215643.000,A,3748.5700,N,12217.8561,W,0.47,327.65,230712,,,A*7F
$GPVTG,327.65,T,,M,0.47,N,0.9,K,A*02
$GPGGA,215644.000,3748.5700,N,12217.8559,W,1,05,3.1,-3.3,M,-25.1,M,,0000*43
$GPGSA,A,3,27,04,17,08,09,,,,,,,,4.7,3.1,3.5*33
$GPRMC,215644.000,A,3748.5700,N,12217.8559,W,0.39,52.47,230712,,,A*4B
$GPVTG,52.47,T,,M,0.39,N,0.7,K,A*34
$GPGGA,215645.000,3748.5700,N,12217.8560,W,1,06,1.7,-2.7,M,-25.1,M,,0000*4A
$GPGSA,A,3,27,04,17,08,09,28,,,,,,,3.5,1.7,3.0*3D
$GPRMC,215645.000,A,3748.5700,N,12217.8560,W,0.80,67.03,230712,,,A*44
$GPVTG,67.03,T,,M,0.80,N,1.5,K,A*33
$GPGGA,215646.000,3748.5708,N,12217.8552,W,1,06,1.7,-4.0,M,-25.1,M,,0000*41
$GPGSA,A,3,27,04,17,08,09,28,,,,,,,3.5,1.7,3.0*3D
$GPGSV,3,1,10,17,69,043,32,27,49,311,21,28,42,067,19,09,34,315,21*72
$GPGSV,3,2,10,04,30,155,19,26,25,214,18,08,20,137,25,01,11,039,*79
$GPGSV,3,3,10,02,07,183,16,12,06,281,*7E
$GPRMC,215646.000,A,3748.5708,N,12217.8552,W,0.73,78.42,230712,,,A*49
$GPVTG,78.42,T,,M,0.73,N,1.4,K,A*35
$GPGGA,215647.000,3748.5706,N,12217.8549,W,1,06,1.7,-3.1,M,-25.1,M,,0000*42
$GPGSA,A,3,27,04,17,08,09,28,,,,,,,3.5,1.7,3.0*3D
$GPRMC,215647.000,A,3748.5706,N,12217.8549,W,0.43,182.72,230712,,,A*78
$GPVTG,182.72,T,,M,0.43,N,0.8,K,A*0C
$GPGGA,215648.000,3748.5711,N,12217.8550,W,1,06,1.7,-3.9,M,-25.1,M,,0000*4B
$GPGSA,A,3,27,04,17,08,09,28,,,,,,,3.5,1.7,3.0*3D
$GPRMC,215648.000,A,3748.5711,N,12217.8550,W,0.48,1.93,230712,,,A*77
$GPVTG,1.93,T,,M,0.48,N,0.9,K,A*03
$GPGGA,215649.000,3748.5709,N,12217.8557,W,1,06,1.7,-2.7,M,-25.1,M,,0000*4B
$GPGSA,A,3,27,04,17,08,09,28,,,,,,,3.5,1.7,3.0*3D
$GPRMC,215649.000,A,3748.5709,N,12217.8557,W,0.77,24.87,230712,,,A*46
$GPVTG,24.87,T,,M,0.77,N,1.4,K,A*31
$GPGGA,215650.000,3748.5702,N,12217.8565,W,1,06,1.7,-0.7,M,-25.1,M,,0000*4B
$GPGSA,A,3,27,04,17,08,09,28,,,,,,,3.5,1.7,3.0*3D
$GPRMC,215650.000,A,3748.5702,N,12217.8565,W,0.63,341.20,230712,,,A*7C
$GPVTG,341.20,T,,M,0.63,N,1.2,K,A*0F
$GPGGA,215651.000,3748.5703,N,12217.8574,W,1,05,1.9,-1.6,M,-25.1,M,,0000*46
$GPGSA,A,3,04,17,08,09,28,,,,,,,,3.7,1.9,3.2*36
$GPGSV,3,1,10,17,69,043,24,27,49,311,15,28,42,067,21,09,34,315,21*79
$GPGSV,3,2,10,04,30,155,19,26,25,214,16,08,20,137,20,01,11,039,*72
$GPGSV,3,3,10,02,07,183,,12,06,281,*79
$GPRMC,215651.000,A,3748.5703,N,12217.8574,W,1.26,310.41,230712,,,A*7F
$GPGGA,215652.000,3748.5710,N,12217.8574,W,1,06,1.7,-3.5,M,-25.1,M,,0000*4B
$GPGSA,A,3,27,04,17,08,09,28,,,,,,,3.5,1.7,3.0*3D
$GPRMC,215652.000,A,3748.5710,N,12217.8574,W,1.23,2.85,230712,,,A*73
$GPVTG,2.85,T,,M,1.23,N,2.3,K,A*03
$GPGGA,215653.000,3748.5712,N,12217.8574,W,1,05,2.3,-3.8,M,-25.1,M,,0000*41
$GPGSA,A,3,27,17,08,09,28,,,,,,,,4.0,2.3,3.3*3F
$GPRMC,215653.000,A,3748.5712,N,12217.8574,W,0.57,75.05,230712,,,A*4A
$GPVTG,75.05,T,,M,0.57,N,1.0,K,A*39
$GPGGA,215654.000,3748.5707,N,12217.8571,W,1,05,2.3,-3.0,M,-25.1,M,,0000*4F
$GPGSA,A,3,27,17,08,09,28,,,,,,,,4.0,2.3,3.3*3F
$GPRMC,215654.000,A,3748.5707,N,12217.8571,W,0.89,129.65,230712,,,A*71
$GPVTG,129.65,T,,M,0.89,N,1.6,K,A*02
$GPGGA,215655.000,3748.5706,N,12217.8561,W,1,04,2.6,-2.9,M,-25.1,M,,0000*42
$GPGSA,A,3,17,08,09,28,,,,,,,,,4.4,2.6,3.5*3D
$GPRMC,215655.000,A,3748.5706,N,12217.8561,W,1.51,97.71,230712,,,A*45
$GPVTG,97.71,T,,M,1.51,N,2.8,K,A*3A
$GPGGA,215656.000,3748.5700,N,12217.8573,W,1,04,2.6,-0.8,M,-25.1,M,,0000*47
$GPGSA,A,3,17,08,09,28,,,,,,,,,4.4,2.6,3.5*3D
$GPGSV,3,1,10,17,69,043,26,27,49,311,15,28,42,067,22,09,34,315,20*79
$GPGSV,3,2,10,04,30,155,,26,25,214,15,08,20,137,19,01,11,039,*73
$GPGSV,3,3,10,02,07,183,,12,06,281,*79
$GPRMC,215656.000,A,3748.5700,N,12217.8573,W,1.36,185.92,230712,,,A*7D
$GPVTG,185.92,T,,M,1.36,N,2.5,K,A*09
$GPGGA,215657.000,3748.5701,N,12217.8582,W,1,04,2.6,-0.1,M,-25.1,M,,0000*40
$GPGSA,A,3,17,08,09,28,,,,,,,,,4.4,2.6,3.5*3D
$GPRMC,215657.000,A,3748.5701,N,12217.8582,W,0.46,281.58,230712,,,A*74
$GPVTG,281.58,T,,M,0.46,N,0.8,K,A*01
$GPGGA,215658.000,3748.5698,N,12217.8598,W,1,05,2.3,1.3,M,-25.1,M,,0000*6F
$GPGSA,A,3,27,17,08,09,28,,,,,,,,4.0,2.3,3.3*3F
$GPRMC,215658.000,A,3748.5698,N,12217.8598,W,0.77,214.22,230712,,,A*72
$GPVTG,214.22,T,,M,0.77,N,1.4,K,A*0F
$GPGGA,215659.000,3748.5702,N,12217.8599,W,1,05,2.3,0.8,M,-25.1,M,,0000*67
$GPGSA,A,3,27,17,08,09,28,,,,,,,,4.0,2.3,3.3*3F
$GPRMC,215659.000,A,3748.5702,N,12217.8599,W,0.90,146.15,230712,,,A*79
$GPVTG,146.15,T,,M,0.90,N,1.7,K,A*05
$GPGGA,215700.000,3748.5702,N,12217.8603,W,1,05,2.3,0.4,M,-25.1,M,,0000*66
$GPGSA,A,3,27,17,08,09,28,,,,,,,,4.0,2.3,3.3*3F
$GPRMC,215700.000,A,3748.5702,N,12217.8603,W,0.20,46.05,230712,,,A*4F
$GPVTG,46.05,T,,M,0.20,N,0.4,K,A*3C
$GPGGA,215701.000,3748.5705,N,12217.8602,W,1,05,2.3,0.2,M,-25.1,M,,0000*67
$GPGSA,A,3,27,17,08,09,28,,,,,,,,4.0,2.3,3.3*3F
$GPGSV,3,1,10,17,69,043,25,27,49,311,21,28,42,067,23,09,34,315,21*7D
$GPGSV,3,2,10,04,30,155,,26,25,214,14,08,20,137,19,01,11,039,*72
$GPGSV,3,3,10,02,07,183,,12,06,281,*79
$GPRMC,215701.000,A,3748.5705,N,12217.8602,W,0.80,121.20,230712,,,A*75
$GPVTG,121.20,T,,M,0.80,N,1.5,K,A*01
$GPGGA,215702.000,3748.5710,N,12217.8599,W,1,05,2.3,-0.6,M,-25.1,M,,0000*48
$GPGSA,A,3,27,17,08,09,28,,,,,,,,4.0,2.3,3.3*3F
$GPRMC,215702.000,A,3748.5710,N,12217.8599,W,0.64,127.10,230712,,,A*7C
$GPVTG,127.10,T,,M,0.64,N,1.2,K,A*09
$GPGGA,215703.000,3748.5712,N,12217.8594,W,1,05,2.3,-1.4,M,-25.1,M,,0000*45
$GPGSA,A,3,27,17,08,09,28,,,,,,,,4.0,2.3,3.3*3F
$GPRMC,215703.000,A,3748.5712,N,12217.8594,W,0.35,154.24,230712,,,A*75
$GPVTG,154.24,T,,M,0.35,N,0.6,K,A*0B
$GPGGA,215704.000,3748.5716,N,12217.8586,W,1,05,2.3,-2.1,M,-25.1,M,,0000*43
$GPGSA,A,3,27,17,08,09,28,,,,,,,,4.0,2.3,3.3*3F
$GPRMC,215704.000,A,3748.5716,N,12217.8586,W,0.29,152.01,230712,,,A*79
$GPVTG,152.01,T,,M,0.29,N,0.5,K,A*04
$GPGGA,215705.000,3748.5723,N,12217.8578,W,1,05,2.3,-3.0,M,-25.1,M,,0000*45
$GPGSA,A,3,27,17,08,09,28,,,,,,,,4.0,2.3,3.3*3F
$GPRMC,215705.000,A,3748.5723,N,12217.8578,W,0.15,49.72,230712,,,A*4F
$GPVTG,49.72,T,,M,0.15,N,0.3,K,A*32
$GPGGA,215706.000,3748.5722,N,12217.8584,W,1,05,2.3,-2.0,M,-25.1,M,,0000*45
$GPGSA,A,3,27,17,08,09,28,,,,,,,,4.0,2.3,3.3*3F
$GPGSV,3,1,10,17,69,043,25,27,49,311,20,28,42,067,23,09,34,315,21*7C
$GPGSV,3,2,10,04,30,155,,26,25,214,13,08,20,137,19,01,11,039,*75
$GPGSV,3,3,10,02,07,183,,12,06,281,*79
$GPRMC,215706.000,A,3748.5722,N,12217.8584,W,0.40,208.91,230712,,,A*74
$GPVTG,208.91,T,,M,0.40,N,0.7,K,A*0C
$GPGGA,215707.000,3748.5716,N,12217.8594,W,1,05,2.3,-1.3,M,-25.1,M,,0000*42
$GPGSA,A,3,27,17,08,09,28,,,,,,,,4.0,2.3,3.3*3F
$GPRMC,215707.000,A,3748.5716,N,12217.8594,W,1.56,213.84,230712,,,A*7B
$GPVTG,213.84,T,,M,1.56,N,2.9,K,A*08
$GPGGA,215708.000,3748.5709,N,12217.8597,W,1,05,2.3,-0.2,M,-25.1,M,,0000*40
$GPGSA,A,3,27,17,08,09,28,,,,,,,,4.0,2.3,3.3*3F
$GPRMC,215708.000,A,3748.5709,N,12217.8597,W,1.55,219.80,230712,,,A*74
$GPVTG,219.80,T,,M,1.55,N,2.9,K,A*05
$GPGGA,215709.000,3748.5698,N,12217.8602,W,1,05,2.3,1.7,M,-25.1,M,,0000*6E
$GPGSA,A,3,27,17,08,09,28,,,,,,,,4.0,2.3,3.3*3F
$GPRMC,215709.000,A,3748.5698,N,12217.8602,W,1.17,227.36,230712,,,A*75
$GPVTG,227.36,T,,M,1.17,N,2.2,K,A*08
$GPGGA,215710.000,3748.5704,N,12217.8601,W,1,05,2.3,0.5,M,-25.1,M,,0000*62
$GPGSA,A,3,27,17,08,09,28,,,,,,,,4.0,2.3,3.3*3F
$GPRMC,215710.000,A,3748.5704,N,12217.8601,W,0.16,113.64,230712,,,A*79
$GPVTG,113.64,T,,M,0.16,N,0.3,K,A*08
$GPGGA,215711.000,3748.5704,N,12217.8605,W,1,05,2.3,-0.5,M,-25.1,M,,0000*4A
$GPGSA,A,3,27,17,08,09,28,,,,,,,,4.0,2.3,3.3*3F
$GPGSV,3,1,10,17,69,043,24,27,49,311,20,28,42,067,22,09,34,315,21*7C
$GPGSV,3,2,10,04,30,155,,26,25,214,,08,20,137,20,01,11,039,*7D
$GPGSV,3,3,10,02,07,183,,12,06,281,*79
$GPRMC,215711.000,A,3748.5704,N,12217.8605,W,1.05,196.30,230712,,,A*73
$GPVTG,196.30,T,,M,1.05,N,2.0,K,A*06
$GPGGA,215712.000,3748.5705,N,12217.8606,W,1,05,2.3,1.3,M,-25.1,M,,0000*61
$GPGSA,A,3,27,17,08,09,28,,,,,,,,4.0,2.3,3.3*3F
$GPRMC,215712.000,A,3748.5705,N,12217.8606,W,0.47,175.87,230712,,,A*74
$GPVTG,175.87,T,,M,0.47,N,0.9,K,A*0B
$GPGGA,215713.000,3748.5704,N,12217.8604,W,1,05,2.3,1.5,M,-25.1,M,,0000*65
$GPGSA,A,3,27,17,08,09,28,,,,,,,,4.0,2.3,3.3*3F
$GPRMC,215713.000,A,3748.5704,N,12217.8604,W,0.45,211.42,230712,,,A*7C
$GPVTG,211.42,T,,M,0.45,N,0.8,K,A*00
$GPGGA,215714.000,3748.5706,N,12217.8601,W,1,05,2.3,1.3,M,-25.1,M,,0000*63
$GPGSA,A,3,27,17,08,09,28,,,,,,,,4.0,2.3,3.3*3F
$GPRMC,215714.000,A,3748.5706,N,12217.8601,W,0.41,37.78,230712,,,A*47
$GPVTG,37.78,T,,M,0.41,N,0.8,K,A*3B
$GPGGA,215715.000,3748.5705,N,12217.8602,W,1,05,2.3,0.7,M,-25.1,M,,0000*67
$GPGSA,A,3,27,17,08,09,28,,,,,,,,4.0,2.3,3.3*3F
$GPRMC,215715.000,A,3748.5705,N,12217.8602,W,0.25,135.25,230712,,,A*7F
$GPVTG,135.25,T,,M,0.25,N,0.5,K,A*0F
$GPGGA,215716.000,3748.5703,N,12217.8599,W,1,05,2.3,-0.1,M,-25.1,M,,0000*48
$GPGSA,A,3,27,17,08,09,28,,,,,,,,4.0,2.3,3.3*3F
$GPGSV,3,1,10,17,69,043,24,27,49,311,20,28,42,067,23,09,34,315,20*7C
$GPGSV,3,2,10,04,30,155,,26,25,214,,08,20,137,20,01,11,039,*7D
$GPGSV,3,3,10,02,07,183,,12,06,281,*79
$GPVTG,101.47,T,,M,0.34,N,0.6,K,A*0F
$GPGGA,215717.000,3748.5702,N,12217.8600,W,1,05,2.3,-1.0,M,-25.1,M,,0000*4B
$GPGSA,A,3,27,17,08,09,28,,,,,,,,4.0,2.3,3.3*3F
$GPRMC,215717.000,A,3748.5702,N,12217.8600,W,0.77,51.38,230712,,,A*40
$GPVTG,51.38,T,,M,0.77,N,1.4,K,A*37
$GPGGA,215718.000,3748.5707,N,12217.8592,W,1,05,2.3,-1.8,M,-25.1,M,,0000*41
$GPGSA,A,3,27,17,08,09,28,,,,,,,,4.0,2.3,3.3*3F
$GPRMC,215718.000,A,3748.5707,N,12217.8592,W,1.02,30.46,230712,,,A*4F
$GPVTG,30.46,T,,M,1.02,N,1.9,K,A*37
$GPGGA,215719.000,3748.5706,N,12217.8593,W,1,05,2.3,-1.5,M,-25.1,M,,0000*4D
$GPGSA,A,3,27,17,08,09,28,,,,,,,,4.0,2.3,3.3*3F
$GPRMC,215719.000,A,3748.5706,N,12217.8593,W,0.47,98.44,230712,,,A*4E
$GPVTG,98.44,T,,M,0.47,N,0.9,K,A*36
$GPGGA,215720.000,3748.5707,N,12217.8589,W,1,05,2.3,1.3,M,-25.1,M,,0000*66
$GPGSA,A,3,27,17,08,09,28,,,,,,,,4.0,2.3,3.3*3F
$GPRMC,215720.000,A,3748.5707,N,12217.8589,W,1.05,38.09,230712,,,A*4A
$GPVTG,38.09,T,,M,1.05,N,1.9,K,A*33
$GPGGA,215721.000,3748.5712,N,12217.8581,W,1,04,2.7,2.6,M,-25.1,M,,0000*68
$GPGSA,A,3,27,08,09,28,,,,,,,,,6.5,2.7,5.9*36
$GPGSV,3,1,10,17,69,043,,27,49,311,20,28,42,067,25,09,34,315,19*76
$GPGSV,3,2,10,04,30,155,,26,25,214,,08,20,137,20,01,11,039,*7D
$GPGSV,3,3,10,02,07,183,,12,06,281,*79
$GPRMC,215721.000,A,3748.5712,N,12217.8581,W,1.95,32.54,230712,,,A*4C
$GPVTG,32.54,T,,M,1.95,N,3.6,K,A*35
$GPGGA,215722.000,3748.5711,N,12217.8579,W,1,04,2.7,2.3,M,-25.1,M,,0000*6A
$GPGSA,A,3,27,08,09,28,,,,,,,,,6.5,2.7,5.9*36
$GPRMC,215722.000,A,3748.5711,N,12217.8579,W,1.26,56.20,230712,,,A*42
$GPVTG,56.20,T,,M,1.26,N,2.3,K,A*38
$GPGGA,215723.000,3748.5720,N,12217.8570,W,1,04,2.7,0.0,M,-25.1,M,,0000*61
$GPGSA,A,3,27,08,09,28,,,,,,,,,6.5,2.7,5.9*36
$GPRMC,215723.000,A,3748.5720,N,12217.8570,W,1.07,66.88,230712,,,A*4A
$GPVTG,66.88,T,,M,1.07,N,2.0,K,A*39
$GPGGA,215724.000,3748.5721,N,12217.8569,W,1,04,6.1,-0.3,M,-25.1,M,,0000*43
$GPGSA,A,3,27,17,08,09,,,,,,,,,8.0,6.1,5.2*38
$GPRMC,215724.000,A,3748.5721,N,12217.8569,W,0.58,53.02,230712,,,A*4B
$GPVTG,53.02,T,,M,0.58,N,1.1,K,A*34
$GPGGA,215725.000,3748.5726,N,12217.8573,W,1,04,6.1,-3.1,M,-25.1,M,,0000*4F
$GPGSA,A,3,27,17,08,09,,,,,,,,,8.0,6.1,5.2*38
$GPRMC,215725.000,A,3748.5726,N,12217.8573,W,0.39,307.97,230712,,,A*7F
$GPVTG,307.97,T,,M,0.39,N,0.7,K,A*0A
$GPGGA,215726.000,3748.5735,N,12217.8572,W,1,05,3.1,-5.0,M,-25.1,M,,0000*4C
$GPGSA,A,3,27,17,04,08,09,,,,,,,,4.6,3.1,3.5*32
$GPGSV,3,1,10,17,69,043,19,27,49,311,19,28,42,067,,09,34,315,26*7F
$GPGSV,3,2,10,04,30,155,16,26,25,214,,08,20,137,21,01,11,039,*7B
$GPGSV,3,3,10,02,07,183,,12,06,281,*79
$GPRMC,215726.000,A,3748.5735,N,12217.8572,W,0.86,32.77,230712,,,A*40
$GPVTG,32.77,T,,M,0.86,N,1.6,K,A*35
$GPGGA,215727.000,3748.5744,N,12217.8565,W,1,04,6.8,-5.4,M,-25.1,M,,0000*44
$GPGSA,A,3,27,04,08,09,,,,,,,,,9.7,6.8,6.9*3D
$GPRMC,215727.000,A,3748.5744,N,12217.8565,W,2.12,48.18,230712,,,A*4A
$GPVTG,48.18,T,,M,2.12,N,3.9,K,A*33
$GPGGA,215728.000,3748.5739,N,12217.8570,W,1,05,3.1,-5.1,M,-25.1,M,,0000*4D
$GPGSA,A,3,27,17,04,08,09,,,,,,,,4.6,3.1,3.5*32
$GPRMC,215728.000,A,3748.5739,N,12217.8570,W,0.71,56.74,230712,,,A*49
$GPVTG,56.74,T,,M,0.71,N,1.3,K,A*39
$GPGGA,215729.000,3748.5721,N,12217.8589,W,1,05,3.1,-6.1,M,-25.1,M,,0000*40
$GPGSA,A,3,27,17,04,08,09,,,,,,,,4.6,3.1,3.5*32
$GPRMC,215729.000,A,3748.5721,N,12217.8589,W,1.14,233.78,230712,,,A*78
$GPVTG,233.78,T,,M,1.14,N,2.1,K,A*07
$GPGGA,215730.000,3748.5710,N,12217.8590,W,1,05,3.1,-4.1,M,-25.1,M,,0000*40
$GPGSA,A,3,27,17,04,08,09,,,,,,,,4.6,3.1,3.5*32
$GPRMC,215730.000,A,3748.5710,N,12217.8590,W,1.11,201.91,230712,,,A*79
$GPVTG,201.91,T,,M,1.11,N,2.1,K,A*04
$GPGGA,215731.000,3748.5703,N,12217.8589,W,1,05,1.7,-2.7,M,-25.1,M,,0000*4F
$GPGSA,A,3,27,17,04,09,28,,,,,,,,4.0,1.7,3.6*31
$GPGSV,3,1,10,17,69,043,28,27,49,311,25,28,42,067,19,09,34,315,26*7A
$GPGSV,3,2,10,04,30,155,31,26,25,214,24,08,20,137,20,01,11,039,*79
$GPGSV,3,3,10,02,07,183,19,12,06,281,*71
$GPRMC,215731.000,A,3748.5703,N,12217.8589,W,0.83,197.87,230712,,,A*73
$GPVTG,197.87,T,,M,0.83,N,1.5,K,A*02
$GPGGA,215732.000,3748.5703,N,12217.8587,W,1,06,1.7,-4.0,M,-25.1,M,,0000*40
$GPGSA,A,3,27,17,04,08,09,28,,,,,,,3.5,1.7,3.0*3D
$GPRMC,215732.000,A,3748.5703,N,12217.8587,W,0.32,274.85,230712,,,A*78
$GPVTG,274.85,T,,M,0.32,N,0.6,K,A*06
$GPGGA,215733.000,3748.5707,N,12217.8583,W,1,06,1.7,-5.1,M,-25.1,M,,0000*41
$GPGSA,A,3,27,17,04,08,09,28,,,,,,,3.5,1.7,3.0*3D
$GPRMC,215733.000,A,3748.5707,N,12217.8583,W,0.24,17.11,230712,,,A*44
$GPVTG,17.11,T,,M,0.24,N,0.4,K,A*39
$GPGGA,215734.000,3748.5711,N,12217.8580,W,1,06,1.7,-6.8,M,-25.1,M,,0000*48
$GPGSA,A,3,27,17,04,08,09,28,,,,,,,3.5,1.7,3.0*3D
$GPRMC,215734.000,A,3748.5711,N,12217.8580,W,0.38,354.29,230712,,,A*75
$GPVTG,354.29,T,,M,0.38,N,0.7,K,A*08
$GPGGA,215735.000,3748.5712,N,12217.8569,W,1,06,1.7,-7.2,M,-25.1,M,,0000*46
$GPGSA,A,3,27,17,04,08,09,28,,,,,,,3.5,1.7,3.0*3D
$GPRMC,215735.000,A,3748.5712,N,12217.8569,W,1.49,52.80,230712,,,A*41
$GPVTG,52.80,T,,M,1.49,N,2.8,K,A*34
$GPGGA,215736.000,3748.5705,N,12217.8573,W,1,06,1.7,-5.6,M,-25.1,M,,0000*4E
$GPGSA,A,3,27,17,04,08,09,28,,,,,,,3.5,1.7,3.0*3D
$GPGSV,3,1,10,17,69,043,23,27,49,311,33,28,42,067,19,09,34,315,24*74
$GPGSV,3,2,10,04,30,155,24,26,25,214,18,08,20,137,19,01,11,039,*78
$GPGSV,3,3,10,02,07,183,10,12,06,281,*78
$GPRMC,215736.000,A,3748.5705,N,12217.8573,W,1.50,52.65,230712,,,A*4C
$GPVTG,52.65,T,,M,1.50,N,2.8,K,A*37
$GPGGA,215737.000,3748.5710,N,12217.8566,W,1,06,1.7,-5.8,M,-25.1,M,,0000*41
$GPGSA,A,3,27,17,04,08,09,28,,,,,,,3.5,1.7,3.0*3D
$GPRMC,215737.000,A,3748.5710,N,12217.8566,W,2.23,50.00,230712,,,A*4B
$GPVTG,50.00,T,,M,2.23,N,4.1,K,A*3E
$GPGGA,215738.000,3748.5713,N,12217.8562,W,1,06,1.7,-5.9,M,-25.1,M,,0000*48
$GPGSA,A,3,27,17,04,08,09,28,,,,,,,3.5,1.7,3.0*3D
$GPRMC,215738.000,A,3748.5713,N,12217.8562,W,2.23,56.10,230712,,,A*44
$GPVTG,56.10,T,,M,2.23,N,4.1,K,A*39
$GPGGA,215739.000,3748.5715,N,12217.8556,W,1,05,3.1,-6.3,M,-25.1,M,,0000*46
$GPGSA,A,3,27,17,04,08,09,,,,,,,,4.6,3.1,3.5*32
$GPRMC,215739.000,A,3748.5715,N,12217.8556,W,2.32,58.46,230712,,,A*49
$GPVTG,58.46,T,,M,2.32,N,4.3,K,A*36
$GPGGA,215740.000,3748.5708,N,12217.8563,W,1,06,1.7,-4.7,M,-25.1,M,,0000*43
$GPGSA,A,3,27,17,04,08,09,28,,,,,,,3.5,1.7,3.0*3D
$GPRMC,215740.000,A,3748.5708,N,12217.8563,W,0.79,38.23,230712,,,A*45
$GPVTG,38.23,T,,M,0.79,N,1.5,K,A*3D
$GPGGA,215741.000,3748.5707,N,12217.8565,W,1,05,2.1,-4.4,M,-25.1,M,,0000*4E
$GPGSA,A,3,27,17,04,08,28,,,,,,,,4.7,2.1,4.2*31
$GPGSV,3,1,10,17,69,043,22,27,49,311,33,28,42,067,14,09,34,315,26*7A
$GPGSV,3,2,10,04,30,155,28,26,25,214,20,08,20,137,21,01,11,039,*74
$GPGSV,3,3,10,02,07,183,,12,06,281,*79
$GPVTG,327.81,T,,M,0.25,N,0.5,K,A*00
$GPGGA,215742.000,3748.5702,N,12217.8569,W,1,06,1.7,-1.3,M,-25.1,M,,0000*40
$GPGSA,A,3,27,17,04,08,09,28,,,,,,,3.5,1.7,3.0*3D
$GPRMC,215742.000,A,3748.5702,N,12217.8569,W,0.94,218.92,230712,,,A*7E
$GPVTG,218.92,T,,M,0.94,N,1.7,K,A*06
$GPGGA,215743.000,3748.5698,N,12217.8568,W,1,06,1.7,1.6,M,-25.1,M,,0000*6A
$GPGSA,A,3,27,17,04,08,09,28,,,,,,,3.5,1.7,3.0*3D
$GPRMC,215743.000,A,3748.5698,N,12217.8568,W,0.83,208.22,230712,,,A*70
$GPVTG,208.22,T,,M,0.83,N,1.5,K,A*08
$GPGGA,215744.000,3748.5691,N,12217.8576,W,1,05,2.3,4.8,M,-25.1,M,,0000*64
$GPGSA,A,3,27,17,08,09,28,,,,,,,,4.0,2.3,3.3*3F
$GPRMC,215744.000,A,3748.5691,N,12217.8576,W,0.45,207.18,230712,,,A*7D
$GPVTG,207.18,T,,M,0.45,N,0.8,K,A*08
$GPGGA,215745.000,3748.5683,N,12217.8589,W,1,05,3.1,5.5,M,-25.1,M,,0000*69
$GPGSA,A,3,27,17,04,08,09,,,,,,,,4.6,3.1,3.5*32
$GPRMC,215745.000,A,3748.5683,N,12217.8589,W,1.57,250.26,230712,,,A*72
$GPVTG,250.26,T,,M,1.57,N,2.9,K,A*06
$GPGGA,215746.000,3748.5680,N,12217.8596,W,1,06,1.7,5.9,M,-25.1,M,,0000*6C
$GPGSA,A,3,27,17,04,08,09,28,,,,,,,3.5,1.7,3.0*3D
$GPGSV,3,1,10,17,69,043,23,27,49,311,31,28,42,067,15,09,34,315,20*7E
$GPGSV,3,2,10,04,30,155,17,26,25,214,18,08,20,137,18,01,11,039,*79
$GPGSV,3,3,10,02,07,183,,12,06,281,*79
$GPRMC,215746.000,A,3748.5680,N,12217.8596,W,1.84,249.72,230712,,,A*7B
$GPVTG,249.72,T,,M,1.84,N,3.4,K,A*0D
$GPGGA,215747.000,3748.5673,N,12217.8610,W,1,05,1.9,6.7,M,-25.1,M,,0000*6C
$GPGSA,A,3,17,04,08,09,28,,,,,,,,3.7,1.9,3.2*36
$GPRMC,215747.000,A,3748.5673,N,12217.8610,W,2.07,239.11,230712,,,A*71
$GPVTG,239.11,T,,M,2.07,N,3.8,K,A*0B
$GPGGA,215748.000,3748.5665,N,12217.8615,W,1,06,1.7,8.7,M,-25.1,M,,0000*62
$GPGSA,A,3,27,17,04,08,09,28,,,,,,,3.5,1.7,3.0*3D
$GPRMC,215748.000,A,3748.5665,N,12217.8615,W,2.13,200.73,230712,,,A*77
$GPVTG,200.73,T,,M,2.13,N,3.9,K,A*01
$GPGGA,215749.000,3748.5668,N,12217.8607,W,1,06,1.7,9.6,M,-25.1,M,,0000*6D
$GPGSA,A,3,27,17,04,08,09,28,,,,,,,3.5,1.7,3.0*3D
$GPRMC,215749.000,A,3748.5668,N,12217.8607,W,1.17,167.04,230712,,,A*7D
$GPVTG,167.04,T,,M,1.17,N,2.2,K,A*0E
$GPGGA,215750.000,3748.5668,N,12217.8605,W,1,06,1.7,9.4,M,-25.1,M,,0000*65
$GPGSA,A,3,27,17,04,08,09,28,,,,,,,3.5,1.7,3.0*3D
$GPRMC,215750.000,A,3748.5668,N,12217.8605,W,0.86,163.16,230712,,,A*79
$GPVTG,163.16,T,,M,0.86,N,1.6,K,A*07
