$ADVER,3080,2.3
$GPRMC,220004.320,A,3748.5564,N,12217.8615,W,0.17,105.71,230712,,,A*7F
$GPRMC,220006.322,A,3748.5601,N,12217.8570,W,2.78,265.88,230712,,,A*77
$GPRMC,220007.322,A,3748.5563,N,12217.8439,W,0.17,285.71,230712,,,A*7E
$GPRMC,220008.322,A,3748.5586,N,12217.8587,W,0.88,107.22,230712,,,A*77
$GPRMC,220009.322,A,3748.5701,N,12217.9016,W,0.54,96.62,230712,,,A*4B
$GPRMC,220010.322,A,3748.5660,N,12217.8896,W,0.65,85.64,230712,,,A*42
$GPRMC,220011.322,A,3748.5626,N,12217.8701,W,0.44,100.16,230712,,,A*7A
$GPRMC,220012.322,A,3748.5599,N,12217.8561,W,0.64,89.90,230712,,,A*46
$GPRMC,220013.322,A,3748.5593,N,12217.8466,W,0.78,99.17,230712,,,A*48
$GPRMC,220014.322,A,3748.5582,N,12217.8467,W,0.43,111.46,230712,,,A*73
$GPRMC,220015.322,A,3748.5612,N,12217.8618,W,0.28,101.57,230712,,,A*7E
$GPRMC,220016.322,A,3748.5596,N,12217.8601,W,0.56,124.21,230712,,,A*75
$GPRMC,220017.322,A,3748.5579,N,12217.8565,W,0.55,133.01,230712,,,A*73
$GPRMC,220018.322,A,3748.5580,N,12217.8553,W,0.62,103.88,230712,,,A*79
$GPRMC,220019.322,A,3748.5584,N,12217.8563,W,0.46,106.11,230712,,,A*7C
$GPRMC,220020.322,A,3748.5587,N,12217.8574,W,0.69,103.80,230712,,,A*73
$GPRMC,220021.322,A,3748.5588,N,12217.8582,W,0.52,105.71,230712,,,A*74
$GPRMC,220022.322,A,3748.5592,N,12217.8595,W,0.81,89.86,230712,,,A*49
$GPRMC,220023.322,A,3748.5594,N,12217.8602,W,0.62,103.88,230712,,,A*73
$GPRMC,220024.322,A,3748.5595,N,12217.8604,W,0.27,91.56,230712,,,A*4B
$GPRMC,220025.322,A,3748.5571,N,12217.8590,W,0.35,105.71,230712,,,A*74
$GPRMC,220026.322,A,3748.5505,N,12217.8565,W,0.64,297.88,230712,,,A*74
$GPRMC,220038.321,A,3748.5506,N,12217.8383,W,2.29,68.84,230712,,,A*40
$GPRMC,220039.321,A,3748.5499,N,12217.8387,W,2.43,63.21,230712,,,A*4A
$GPRMC,220040.321,A,3748.5506,N,12217.8393,W,2.31,54.41,230712,,,A*41
$GPRMC,220041.321,A,3748.5518,N,12217.8401,W,2.04,71.36,230712,,,A*42
$GPRMC,220043.321,A,3748.5552,N,12217.8486,W,1.91,113.98,230712,,,A*7F
$GPRMC,220044.321,A,3748.5547,N,12217.8477,W,3.02,116.12,230712,,,A*7D
$GPRMC,220045.321,A,3748.5518,N,12217.8376,W,2.76,129.43,230712,,,A*7A
$GPRMC,220128.321,A,3748.5745,N,12217.8455,W,5.45,188.46,230712,,,A*75
$GPRMC,220129.321,A,3748.5826,N,12217.8466,W,8.05,187.78,230712,,,A*75
$GPRMC,220130.321,A,3748.5804,N,12217.8470,W,8.05,187.78,230712,,,E*7E
$GPRMC,220131.321,A,3748.5860,N,12217.8446,W,9.53,180.96,230712,,,A*79
$GPRMC,220132.321,A,3748.5876,N,12217.8411,W,10.23,176.04,230712,,,A*42
$GPRMC,220133.321,A,3748.5848,N,12217.8408,W,10.23,176.04,230712,,,E*42
$GPRMC,220134.321,A,3748.5481,N,12217.8385,W,4.58,186.49,230712,,,A*75
$GPRMC,220135.321,A,3748.5498,N,12217.8375,W,1.46,207.72,230712,,,A*7B
$GPRMC,220136.000,A,3748.5507,N,12217.8375,W,0.65,233.83,230712,,,A*76
$GPRMC,220137.000,A,3748.5509,N,12217.8380,W,0.92,246.76,230712,,,A*73
$GPRMC,220138.000,A,3748.5504,N,12217.8389,W,0.94,242.37,230712,,,A*7F
$GPRMC,220139.000,A,3748.5502,N,12217.8397,W,0.82,240.06,230712,,,A*70
$GPRMC,220140.000,A,3748.5502,N,12217.8404,W,0.78,237.24,230712,,,A*76
$GPRMC,220141.000,A,3748.5495,N,12217.8411,W,0.82,227.13,230712,,,A*7C
$GPRMC,220142.000,A,3748.5491,N,12217.8409,W,0.46,245.69,230712,,,A*73
$GPRMC,220143.000,A,3748.5429,N,12217.8438,W,0.68,263.22,230712,,,A*74
$GPRMC,220144.000,A,3748.5430,N,12217.8451,W,1.37,235.55,230712,,,A*7C
$GPRMC,220145.000,A,3748.5430,N,12217.8458,W,1.50,219.81,230712,,,A*72
$GPRMC,220146.000,A,3748.5447,N,12217.8466,W,1.21,223.60,230712,,,A*7C
$GPRMC,220147.000,A,3748.5442,N,12217.8484,W,1.77,218.68,230712,,,A*77
$GPRMC,220148.000,A,3748.5436,N,12217.8490,W,1.39,218.01,230712,,,A*7B
$GPRMC,220149.000,A,3748.5442,N,12217.8492,W,0.54,205.19,230712,,,A*74
$GPRMC,220150.000,A,3748.5446,N,12217.8496,W,0.50,244.42,230712,,,A*73
$GPRMC,220151.000,A,3748.5454,N,12217.8498,W,0.33,336.29,230712,,,A*73
$GPRMC,220152.000,A,3748.5454,N,12217.8500,W,0.20,243.72,230712,,,A*7F
$GPRMC,220153.000,A,3748.5447,N,12217.8504,W,0.29,212.46,230712,,,A*72
$GPRMC,220154.000,A,3748.5445,N,12217.8507,W,0.46,215.76,230712,,,A*79
$GPRMC,220155.000,A,3748.5441,N,12217.8510,W,0.46,215.66,230712,,,A*7B
$GPRMC,220156.000,A,3748.5437,N,12217.8514,W,0.05,221.05,230712,,,A*78
$GPRMC,220157.000,A,3748.5436,N,12217.8516,W,0.24,6.52,230712,,,A*7C
$GPRMC,220158.000,A,3748.5437,N,12217.8518,W,0.38,15.52,230712,,,A*43
$GPRMC,220159.000,A,3748.5437,N,12217.8519,W,0.44,21.09,230712,,,A*41
$GPRMC,220200.000,A,3748.5438,N,12217.8520,W,0.54,23.98,230712,,,A*40
$GPRMC,220201.000,A,3748.5438,N,12217.8521,W,0.28,22.00,230712,,,A*4B
$GPRMC,220202.000,A,3748.5430,N,12217.8524,W,0.25,241.04,230712,,,A*7B
$GPRMC,220203.000,A,3748.5431,N,12217.8526,W,0.36,228.89,230712,,,A*71
$GPRMC,220204.000,A,3748.5430,N,12217.8527,W,0.30,223.18,230712,,,A*73
$GPRMC,220205.000,A,3748.5431,N,12217.8531,W,0.45,230.50,230712,,,A*78
$GPRMC,220206.000,A,3748.5431,N,12217.8531,W,0.13,246.33,230712,,,A*7C
$GPRMC,220207.000,A,3748.5429,N,12217.8529,W,0.12,149.78,230712,,,A*7F
$GPRMC,220208.000,A,3748.5429,N,12217.8531,W,0.68,231.63,230712,,,A*72
$GPRMC,220209.000,A,3748.5428,N,12217.8535,W,1.13,211.91,230712,,,A*74
$GPRMC,220210.000,A,3748.5424,N,12217.8537,W,1.71,202.66,230712,,,A*7C
$GPRMC,220211.000,A,3748.5420,N,12217.8540,W,1.89,195.37,230712,,,A*77
$GPRMC,220212.000,A,3748.5415,N,12217.8542,W,1.94,205.09,230712,,,A*7B
$GPRMC,220213.000,A,3748.5408,N,12217.8545,W,2.22,207.89,230712,,,A*75
$GPRMC,220214.000,A,3748.5402,N,12217.8549,W,2.80,210.99,230712,,,A*7B
$GPRMC,220215.000,A,3748.5394,N,12217.8554,W,2.82,205.26,230712,,,A*7C
$GPRMC,220216.000,A,3748.5388,N,12217.8558,W,2.31,212.15,230712,,,A*70
$GPRMC,220217.000,A,3748.5380,N,12217.8561,W,2.08,206.71,230712,,,A*7E
$GPRMC,220218.000,A,3748.5375,N,12217.8563,W,2.17,180.82,230712,,,A*76
$GPRMC,220219.000,A,3748.5368,N,12217.8562,W,2.51,162.15,230712,,,A*7A
$GPRMC,220220.000,A,3748.5362,N,12217.8557,W,2.71,148.74,230712,,,A*71
$GPRMC,220221.000,A,3748.5360,N,12217.8546,W,2.36,138.28,230712,,,A*7F
$GPRMC,220222.000,A,3748.5358,N,12217.8538,W,2.28,148.16,230712,,,A*7B
$GPRMC,220223.000,A,3748.5355,N,12217.8532,W,1.94,146.76,230712,,,A*71
$GPRMC,220224.000,A,3748.5352,N,12217.8526,W,2.54,140.89,230712,,,A*7D
$GPRMC,220225.000,A,3748.5348,N,12217.8518,W,2.52,143.17,230712,,,A*78
$GPRMC,220226.000,A,3748.5346,N,12217.8506,W,2.68,141.70,230712,,,A*70
$GPRMC,220227.000,A,3748.5344,N,12217.8493,W,2.81,135.10,230712,,,A*7C
$GPRMC,220228.000,A,3748.5341,N,12217.8480,W,3.17,126.14,230712,,,A*7C
$GPRMC,220229.000,A,3748.5334,N,12217.8463,W,3.27,122.10,230712,,,A*71
$GPRMC,220230.000,A,3748.5332,N,12217.8447,W,2.93,121.62,230712,,,A*71
$GPRMC,220231.000,A,3748.5329,N,12217.8433,W,2.98,118.01,230712,,,A*7D
$GPRMC,220232.000,A,3748.5323,N,12217.8420,W,2.71,115.29,230712,,,A*76
$GPRMC,220233.000,A,3748.5321,N,12217.8403,W,3.05,117.31,230712,,,A*7D
$GPRMC,220234.000,A,3748.5317,N,12217.8384,W,2.97,110.69,230712,,,A*77
$GPRMC,220235.000,A,3748.5314,N,12217.8371,W,2.70,117.70,230712,,,A*79
$GPRMC,220236.000,A,3748.5310,N,12217.8357,W,2.57,127.12,230712,,,A*78
$GPRMC,220237.000,A,3748.5300,N,12217.8345,W,2.46,131.24,230712,,,A*79
$GPRMC,220238.000,A,3748.5297,N,12217.8338,W,2.21,132.28,230712,,,A*7D
$GPRMC,220239.000,A,3748.5295,N,12217.8333,W,2.10,137.97,230712,,,A*76
$GPRMC,220240.000,A,3748.5290,N,12217.8325,W,1.68,137.45,230712,,,A*79
$GPRMC,220241.000,A,3748.5291,N,12217.8324,W,1.22,134.86,230712,,,A*7A
$GPRMC,220242.000,A,3748.5289,N,12217.8319,W,2.38,117.68,230712,,,A*77
$GPRMC,220243.000,A,3748.5287,N,12217.8313,W,3.15,110.58,230712,,,A*78
$GPRMC,220244.000,A,3748.5285,N,12217.8306,W,2.78,107.92,230712,,,A*73
$GPRMC,220245.000,A,3748.5284,N,12217.8301,W,2.63,119.41,230712,,,A*7F
$GPRMC,220246.000,A,3748.5282,N,12217.8294,W,2.16,127.74,230712,,,A*7E
$GPRMC,220247.000,A,3748.5278,N,12217.8285,W,1.51,126.65,230712,,,A*7B
$GPRMC,220248.000,A,3748.5276,N,12217.8281,W,0.62,122.27,230712,,,A*7D
$GPRMC,220249.000,A,3748.5274,N,12217.8280,W,0.41,174.21,230712,,,A*7B
$GPRMC,220250.000,A,3748.5272,N,12217.8281,W,0.77,122.94,230712,,,A*7C
$GPRMC,220251.000,A,3748.5267,N,12217.8273,W,1.32,131.86,230712,,,A*75
$GPRMC,220252.000,A,3748.5263,N,12217.8264,W,1.61,136.88,230712,,,A*7B
$GPRMC,220253.000,A,3748.5260,N,12217.8257,W,1.22,150.24,230712,,,A*78
$GPRMC,220254.000,A,3748.5254,N,12217.8250,W,2.25,130.86,230712,,,A*75
$GPRMC,220255.000,A,3748.5250,N,12217.8241,W,1.93,129.36,230712,,,A*7D
$GPRMC,220256.000,A,3748.5253,N,12217.8237,W,2.06,130.66,230712,,,A*7E
$GPRMC,220257.000,A,3748.5254,N,12217.8229,W,1.69,136.17,230712,,,A*7D
$GPRMC,220258.000,A,3748.5254,N,12217.8219,W,1.78,131.56,230712,,,A*73
$GPRMC,220259.000,A,3748.5254,N,12217.8211,W,1.29,138.42,230712,,,A*72
$GPRMC,220300.000,A,3748.5258,N,12217.8201,W,0.93,129.20,230712,,,A*76
$GPRMC,220301.000,A,3748.5257,N,12217.8193,W,1.57,135.06,230712,,,A*70
$GPRMC,220302.000,A,3748.5251,N,12217.8184,W,1.51,126.49,230712,,,A*7C
$GPRMC,220303.000,A,3748.5247,N,12217.8179,W,1.25,128.13,230712,,,A*7A
$GPRMC,220304.000,A,3748.5243,N,12217.8172,W,1.53,115.72,230712,,,A*7A
$GPRMC,220305.000,A,3748.5239,N,12217.8168,W,1.34,125.79,230712,,,A*74
$GPRMC,220306.000,A,3748.5235,N,12217.8165,W,1.16,121.68,230712,,,A*72
$GPRMC,220307.000,A,3748.5230,N,12217.8161,W,1.25,107.10,230712,,,A*79
$GPRMC,220308.000,A,3748.5227,N,12217.8158,W,1.42,102.32,230712,,,A*7E
$GPRMC,220309.000,A,3748.5222,N,12217.8152,W,1.60,124.16,230712,,,A*72
$GPRMC,220310.000,A,3748.5220,N,12217.8145,W,1.11,127.91,230712,,,A*74
$GPRMC,220311.000,A,3748.5215,N,12217.8136,W,1.79,117.55,230712,,,A*72
$GPRMC,220312.000,A,3748.5209,N,12217.8122,W,2.07,108.83,230712,,,A*76
$GPRMC,220313.000,A,3748.5202,N,12217.8118,W,1.21,130.82,230712,,,A*78
$GPRMC,220314.000,A,3748.5195,N,12217.8118,W,1.05,140.90,230712,,,A*70
$GPRMC,220315.000,A,3748.5190,N,12217.8109,W,1.26,125.43,230712,,,A*78
$GPRMC,220316.000,A,3748.5187,N,12217.8098,W,1.23,113.26,230712,,,A*77
$GPRMC,220317.000,A,3748.5187,N,12217.8097,W,0.87,96.53,230712,,,A*48
$GPRMC,220318.000,A,3748.5182,N,12217.8089,W,0.88,117.71,230712,,,A*7A
$GPRMC,220319.000,A,3748.5178,N,12217.8089,W,0.69,180.34,230712,,,A*7E
$GPRMC,220320.000,A,3748.5175,N,12217.8091,W,0.42,205.93,230712,,,A*7A
$GPRMC,220321.000,A,3748.5174,N,12217.8092,W,0.30,237.28,230712,,,A*7D
$GPRMC,220322.000,A,3748.5173,N,12217.8085,W,1.18,107.23,230712,,,A*7F
$GPRMC,220323.000,A,3748.5177,N,12217.8083,W,1.11,102.08,230712,,,A*79
$GPRMC,220324.000,A,3748.5171,N,12217.8076,W,1.28,90.14,230712,,,A*4F
$GPRMC,220325.000,A,3748.5164,N,12217.8070,W,1.04,88.89,230712,,,A*4F
$GPRMC,220326.000,A,3748.5160,N,12217.8063,W,0.94,125.56,230712,,,A*76
$GPRMC,220327.000,A,3748.5156,N,12217.8056,W,0.74,127.70,230712,,,A*7C
$GPRMC,220328.000,A,3748.5152,N,12217.8048,W,0.97,131.70,230712,,,A*72
$GPRMC,220329.000,A,3748.5153,N,12217.8039,W,0.79,116.52,230712,,,A*71
$GPRMC,220330.000,A,3748.5151,N,12217.8032,W,1.29,111.18,230712,,,A*7D
$GPRMC,220331.000,A,3748.5151,N,12217.8022,W,0.82,124.03,230712,,,A*71
$GPRMC,220332.000,A,3748.5151,N,12217.8017,W,0.75,107.86,230712,,,A*70
$GPRMC,220333.000,A,3748.5152,N,12217.8010,W,1.40,106.45,230712,,,A*7C
$GPRMC,220334.000,A,3748.5151,N,12217.8005,W,1.37,95.09,230712,,,A*4F
$GPRMC,220335.000,A,3748.5150,N,12217.7999,W,1.22,83.16,230712,,,A*41
$GPRMC,220336.000,A,3748.5149,N,12217.7996,W,0.99,74.84,230712,,,A*47
$GPRMC,220337.000,A,3748.5148,N,12217.7991,W,1.05,87.93,230712,,,A*4E
$GPRMC,220338.000,A,3748.5143,N,12217.7989,W,0.54,149.54,230712,,,A*7E
$GPRMC,220339.000,A,3748.5139,N,12217.7986,W,0.69,88.73,230712,,,A*4A
$GPRMC,220340.000,A,3748.5137,N,12217.7982,W,0.65,77.17,230712,,,A*40
$GPRMC,220341.000,A,3748.5135,N,12217.7980,W,0.54,94.59,230712,,,A*44
$GPRMC,220342.000,A,3748.5132,N,12217.7975,W,1.25,100.51,230712,,,A*79
$GPRMC,220343.000,A,3748.5128,N,12217.7968,W,1.49,94.91,230712,,,A*45
$GPRMC,220344.000,A,3748.5122,N,12217.7963,W,1.52,104.16,230712,,,A*7E
$GPRMC,220345.000,A,3748.5117,N,12217.7955,W,1.23,83.07,230712,,,A*44
$GPRMC,220346.000,A,3748.5114,N,12217.7950,W,1.15,95.02,230712,,,A*46
$GPRMC,220347.000,A,3748.5105,N,12217.7940,W,1.88,122.04,230712,,,A*79
$GPRMC,220348.000,A,3748.5090,N,12217.7931,W,1.99,161.89,230712,,,A*7F
$GPRMC,220349.000,A,3748.5078,N,12217.7926,W,2.12,180.11,230712,,,A*70
$GPRMC,220350.000,A,3748.5070,N,12217.7926,W,2.30,199.71,230712,,,A*7E
$GPRMC,220351.000,A,3748.5060,N,12217.7921,W,2.21,195.20,230712,,,A*71
$GPRMC,220352.000,A,3748.5049,N,12217.7922,W,2.54,215.83,230712,,,A*7A
$GPRMC,220353.000,A,3748.5041,N,12217.7925,W,2.25,205.73,230712,,,A*7C
$GPRMC,220354.000,A,3748.5032,N,12217.7929,W,2.49,210.78,230712,,,A*76
$GPRMC,220355.000,A,3748.5025,N,12217.7932,W,2.41,206.54,230712,,,A*7A
$GPRMC,220356.000,A,3748.5018,N,12217.7936,W,2.46,210.89,230712,,,A*73
$GPRMC,220357.000,A,3748.5009,N,12217.7939,W,2.43,212.35,230712,,,A*7D
$GPRMC,220358.000,A,3748.5002,N,12217.7947,W,2.44,215.14,230712,,,D*76
$GPRMC,220359.000,A,3748.4997,N,12217.7951,W,2.43,212.50,230712,,,D*74
$GPRMC,220400.000,A,3748.4989,N,12217.7954,W,2.08,212.48,230712,,,D*73
$GPRMC,220401.000,A,3748.4984,N,12217.7956,W,1.85,199.67,230712,,,D*76
$GPRMC,220402.000,A,3748.4977,N,12217.7955,W,1.75,198.88,230712,,,D*75
$GPRMC,220403.000,A,3748.4971,N,12217.7960,W,1.84,217.87,230712,,,D*71
$GPRMC,220404.000,A,3748.4962,N,12217.7969,W,2.45,222.41,230712,,,D*7F
$GPRMC,220405.000,A,3748.4960,N,12217.7971,W,2.00,215.44,230712,,,D*75
$GPRMC,220406.000,A,3748.4953,N,12217.7973,W,1.93,214.60,230712,,,D*7A
$GPRMC,220407.000,A,3748.4947,N,12217.7976,W,1.92,218.75,230712,,,D*72
$GPRMC,220408.000,A,3748.4940,N,12217.7983,W,2.16,222.73,230712,,,D*70
$GPRMC,220409.000,A,3748.4937,N,12217.7985,W,1.67,215.01,230712,,,D*73
$GPRMC,220410.000,A,3748.4935,N,12217.7985,W,1.61,225.24,230712,,,D*7B
$GPRMC,220411.000,A,3748.4932,N,12217.7983,W,1.47,212.03,230712,,,D*7E
$GPRMC,220412.000,A,3748.4926,N,12217.7987,W,1.87,210.85,230712,,,D*7C
$GPRMC,220413.000,A,3748.4919,N,12217.7989,W,1.79,216.86,230712,,,D*7B
$GPRMC,220414.000,A,3748.4911,N,12217.7995,W,2.06,213.93,230712,,,D*73
$GPRMC,220415.000,A,3748.4902,N,12217.8003,W,1.99,213.09,230712,,,D*7F
$GPRMC,220416.000,A,3748.4890,N,12217.8011,W,2.24,210.38,230712,,,D*71
$GPRMC,220417.000,A,3748.4882,N,12217.8018,W,2.02,210.25,230712,,,D*72
$GPRMC,220418.000,A,3748.4876,N,12217.8025,W,1.64,193.66,230712,,,D*74
$GPRMC,220419.000,A,3748.4869,N,12217.8034,W,2.17,206.74,230712,,,D*70
$GPRMC,220420.000,A,3748.4863,N,12217.8038,W,2.13,203.37,230712,,,D*7A
$GPRMC,220421.000,A,3748.4857,N,12217.8041,W,1.85,198.03,230712,,,D*78
$GPRMC,220422.000,A,3748.4848,N,12217.8041,W,1.99,190.73,230712,,,D*77
$GPRMC,220423.000,A,3748.4839,N,12217.8039,W,1.82,191.32,230712,,,D*71
$GPRMC,220424.000,A,3748.4833,N,12217.8039,W,1.38,199.55,230712,,,D*74
$GPRMC,220425.000,A,3748.4824,N,12217.8043,W,1.64,213.55,230712,,,D*76
$GPRMC,220426.000,A,3748.4809,N,12217.8053,W,2.50,211.11,230712,,,D*7D
$GPRMC,220427.000,A,3748.4798,N,12217.8063,W,2.86,215.17,230712,,,D*71
$GPRMC,220428.000,A,3748.4789,N,12217.8067,W,2.29,211.95,230712,,,D*71
$GPRMC,220429.000,A,3748.4780,N,12217.8075,W,1.74,214.87,230712,,,D*77
$GPRMC,220430.000,A,3748.4775,N,12217.8081,W,2.12,202.29,230712,,,D*7E
$GPRMC,220431.000,A,3748.4771,N,12217.8089,W,2.97,212.11,230712,,,D*74
$GPRMC,220432.000,A,3748.4766,N,12217.8096,W,2.19,227.75,230712,,,D*7D
$GPRMC,220433.000,A,3748.4753,N,12217.8109,W,2.59,207.55,230712,,,A*7C
$GPRMC,220434.000,A,3748.4744,N,12217.8116,W,2.53,211.72,230712,,,A*7B
$GPRMC,220435.000,A,3748.4737,N,12217.8120,W,2.49,205.24,230712,,,A*76
$GPRMC,220436.000,A,3748.4730,N,12217.8125,W,2.55,201.60,230712,,,A*7E
$GPRMC,220437.000,A,3748.4722,N,12217.8130,W,2.16,200.47,230712,,,A*7B
$GPRMC,220438.000,A,3748.4715,N,12217.8134,W,2.36,205.28,230712,,,A*7A
$GPRMC,220439.000,A,3748.4708,N,12217.8140,W,2.16,198.66,230712,,,A*7B
$GPRMC,220440.000,A,3748.4702,N,12217.8143,W,2.34,203.15,230712,,,A*79
$GPRMC,220441.000,A,3748.4695,N,12217.8148,W,2.14,227.65,230712,,,A*7F
$GPRMC,220442.000,A,3748.4690,N,12217.8155,W,2.14,224.75,230712,,,A*77
$GPRMC,220443.000,A,3748.4686,N,12217.8162,W,2.02,216.92,230712,,,A*7A
$GPRMC,220444.000,A,3748.4679,N,12217.8171,W,2.65,219.44,230712,,,A*7A
$GPRMC,220445.000,A,3748.4673,N,12217.8177,W,2.79,212.40,230712,,,A*75
$GPRMC,220446.000,A,3748.4667,N,12217.8183,W,2.76,210.60,230712,,,A*77
$GPRMC,220447.000,A,3748.4662,N,12217.8188,W,2.60,212.77,230712,,,A*7B
$GPRMC,220448.000,A,3748.4658,N,12217.8193,W,2.25,210.82,230712,,,A*7E
$GPRMC,220449.000,A,3748.4653,N,12217.8197,W,2.56,209.73,230712,,,A*72
$GPRMC,220450.000,A,3748.4647,N,12217.8202,W,2.64,209.02,230712,,,A*77
$GPRMC,220451.000,A,3748.4640,N,12217.8206,W,2.78,203.32,230712,,,A*71
$GPRMC,220452.000,A,3748.4633,N,12217.8209,W,2.16,203.00,230712,,,A*70
$GPRMC,220453.000,A,3748.4625,N,12217.8212,W,2.19,210.43,230712,,,A*76
$GPRMC,220454.000,A,3748.4618,N,12217.8214,W,2.12,207.60,230712,,,A*75
$GPRMC,220455.000,A,3748.4611,N,12217.8215,W,2.40,203.53,230712,,,A*7F
$GPRMC,220456.000,A,3748.4603,N,12217.8218,W,2.12,214.79,230712,,,A*7B
$GPRMC,220457.000,A,3748.4596,N,12217.8226,W,2.26,214.68,230712,,,A*7F
$GPRMC,220458.000,A,3748.4590,N,12217.8232,W,2.45,212.69,230712,,,A*71
$GPRMC,220459.000,A,3748.4585,N,12217.8241,W,2.12,205.43,230712,,,A*7C
$GPRMC,220500.000,A,3748.4577,N,12217.8244,W,2.54,208.95,230712,,,A*7D
$GPRMC,220501.000,A,3748.4571,N,12217.8250,W,2.13,215.09,230712,,,A*75
$GPRMC,220502.000,A,3748.4566,N,12217.8255,W,2.30,206.94,230712,,,A*72
$GPRMC,220503.000,A,3748.4560,N,12217.8262,W,2.55,206.62,230712,,,A*7B
$GPRMC,220504.000,A,3748.4555,N,12217.8269,W,2.51,209.36,230712,,,A*7B
$GPRMC,220505.000,A,3748.4550,N,12217.8275,W,2.30,212.52,230712,,,A*7D
$GPRMC,220506.000,A,3748.4545,N,12217.8282,W,2.38,208.28,230712,,,A*7C
$GPRMC,220507.000,A,3748.4538,N,12217.8289,W,2.50,204.46,230712,,,A*76
$GPRMC,220508.000,A,3748.4532,N,12217.8293,W,2.35,207.83,230712,,,A*71
$GPRMC,220509.000,A,3748.4525,N,12217.8299,W,2.42,213.44,230712,,,A*72
$GPRMC,220510.000,A,3748.4521,N,12217.8303,W,2.25,208.15,230712,,,A*73
$GPRMC,220511.000,A,3748.4517,N,12217.8309,W,1.97,205.91,230712,,,A*76
$GPRMC,220512.000,A,3748.4513,N,12217.8314,W,2.07,211.94,230712,,,A*77
$GPRMC,220513.000,A,3748.4508,N,12217.8319,W,2.12,206.34,230712,,,A*79
$GPRMC,220514.000,A,3748.4502,N,12217.8324,W,2.24,208.41,230712,,,A*73
$GPRMC,220515.000,A,3748.4497,N,12217.8329,W,1.94,209.03,230712,,,A*7D
$GPRMC,220516.000,A,3748.4492,N,12217.8333,W,1.78,197.74,230712,,,A*76
$GPRMC,220517.000,A,3748.4481,N,12217.8344,W,1.87,195.74,230712,,,A*77
$GPRMC,220518.000,A,3748.4477,N,12217.8347,W,1.23,184.86,230712,,,A*71
$GPRMC,220519.000,A,3748.4471,N,12217.8354,W,1.92,201.24,230712,,,A*78
$GPRMC,220520.000,A,3748.4465,N,12217.8360,W,2.19,210.93,230712,,,A*7C
$GPRMC,220521.000,A,3748.4460,N,12217.8364,W,2.29,211.25,230712,,,A*73
$GPRMC,220522.000,A,3748.4455,N,12217.8369,W,1.98,210.57,230712,,,A*76
$GPRMC,220523.000,A,3748.4449,N,12217.8373,W,2.10,210.97,230712,,,A*7E
$GPRMC,220524.000,A,3748.4443,N,12217.8378,W,2.29,211.76,230712,,,A*7C
$GPRMC,220525.000,A,3748.4436,N,12217.8382,W,2.47,211.58,230712,,,A*7E
$GPRMC,220526.000,A,3748.4429,N,12217.8386,W,2.17,212.03,230712,,,A*7F
$GPRMC,220527.000,A,3748.4422,N,12217.8389,W,2.52,209.57,230712,,,A*70
$GPRMC,220528.000,A,3748.4414,N,12217.8394,W,2.61,214.92,230712,,,A*73
$GPRMC,220529.000,A,3748.4407,N,12217.8398,W,2.50,214.84,230712,,,A*79
$GPRMC,220530.000,A,3748.4400,N,12217.8403,W,2.34,211.10,230712,,,A*79
$GPRMC,220531.000,A,3748.4392,N,12217.8407,W,2.54,205.52,230712,,,A*75
$GPRMC,220532.000,A,3748.4384,N,12217.8411,W,2.55,203.80,230712,,,A*7E
$GPRMC,220533.000,A,3748.4375,N,12217.8417,W,3.14,211.50,230712,,,A*7D
$GPRMC,220534.000,A,3748.4368,N,12217.8423,W,2.61,208.39,230712,,,A*75
$GPRMC,220535.000,A,3748.4360,N,12217.8429,W,2.61,202.93,230712,,,A*7C
$GPRMC,220536.000,A,3748.4352,N,12217.8434,W,2.36,206.11,230712,,,A*7E
$GPRMC,220537.000,A,3748.4343,N,12217.8443,W,2.97,211.73,230712,,,A*76
$GPRMC,220538.000,A,3748.4335,N,12217.8449,W,2.92,206.60,230712,,,A*73
$GPRMC,220539.000,A,3748.4329,N,12217.8454,W,2.46,209.58,230712,,,A*7E
$GPRMC,220540.000,A,3748.4325,N,12217.8457,W,2.28,209.94,230712,,,A*77
$GPRMC,220541.000,A,3748.4320,N,12217.8461,W,2.20,210.47,230712,,,A*78
$GPRMC,220542.000,A,3748.4314,N,12217.8468,W,2.25,209.16,230712,,,A*7C
$GPRMC,220543.000,A,3748.4309,N,12217.8473,W,2.16,204.32,230712,,,A*70
$GPRMC,220544.000,A,3748.4304,N,12217.8477,W,2.19,210.26,230712,,,A*71
$GPRMC,220545.000,A,3748.4299,N,12217.8483,W,2.17,211.36,230712,,,A*70
$GPRMC,220546.000,A,3748.4295,N,12217.8489,W,2.05,210.03,230712,,,A*71
$GPRMC,220547.000,A,3748.4289,N,12217.8493,W,2.12,204.44,230712,,,A*76
$GPRMC,220548.000,A,3748.4280,N,12217.8493,W,2.29,197.22,230712,,,A*71
$GPRMC,220549.000,A,3748.4273,N,12217.8496,W,2.46,189.57,230712,,,A*7D
$GPRMC,220550.000,A,3748.4263,N,12217.8495,W,2.06,184.23,230712,,,A*7D
$GPRMC,220551.000,A,3748.4262,N,12217.8488,W,1.68,156.49,230712,,,A*79
$GPRMC,220552.000,A,3748.4256,N,12217.8485,W,2.20,139.04,230712,,,A*7F
$GPRMC,220553.000,A,3748.4250,N,12217.8483,W,1.97,147.37,230712,,,A*78
$GPRMC,220554.000,A,3748.4245,N,12217.8479,W,2.44,149.01,230712,,,A*78
$GPRMC,220555.000,A,3748.4238,N,12217.8476,W,2.30,151.87,230712,,,A*78
$GPRMC,220556.000,A,3748.4230,N,12217.8472,W,2.75,166.29,230712,,,A*76
$GPRMC,220557.000,A,3748.4223,N,12217.8469,W,2.80,164.66,230712,,,A*7C
$GPRMC,220558.000,A,3748.4215,N,12217.8465,W,2.78,159.27,230712,,,A*76
$GPRMC,220559.000,A,3748.4207,N,12217.8461,W,2.91,163.90,230712,,,A*72
$GPRMC,220600.000,A,3748.4199,N,12217.8458,W,2.90,169.57,230712,,,A*73
$GPRMC,220601.000,A,3748.4191,N,12217.8457,W,2.66,169.73,230712,,,A*7A
$GPRMC,220602.000,A,3748.4182,N,12217.8456,W,2.70,167.45,230712,,,A*76
$GPRMC,220603.000,A,3748.4173,N,12217.8455,W,2.91,170.20,230712,,,A*70
$GPRMC,220604.000,A,3748.4163,N,12217.8453,W,2.42,170.88,230712,,,A*7C
$GPRMC,220605.000,A,3748.4157,N,12217.8449,W,2.25,175.25,230712,,,A*72
$GPRMC,220606.000,A,3748.4152,N,12217.8445,W,1.81,187.51,230712,,,A*7B
$GPRMC,220607.000,A,3748.4146,N,12217.8444,W,2.03,179.57,230712,,,A*70
$GPRMC,220608.000,A,3748.4139,N,12217.8445,W,1.75,187.75,230712,,,A*75
$GPRMC,220609.000,A,3748.4133,N,12217.8452,W,2.60,197.26,230712,,,A*78
$GPRMC,220610.000,A,3748.4127,N,12217.8456,W,2.55,192.41,230712,,,A*73
$GPRMC,220611.000,A,3748.4120,N,12217.8463,W,2.89,201.92,230712,,,A*75
$GPRMC,220612.000,A,3748.4113,N,12217.8471,W,2.97,200.78,230712,,,A*7F
$GPRMC,220613.000,A,3748.4105,N,12217.8483,W,3.01,211.26,230712,,,A*71
$GPRMC,220614.000,A,3748.4098,N,12217.8493,W,3.32,217.48,230712,,,A*7C
$GPRMC,220615.000,A,3748.4091,N,12217.8506,W,3.03,220.83,230712,,,A*78
$GPRMC,220616.000,A,3748.4086,N,12217.8521,W,2.86,218.43,230712,,,A*73
$GPRMC,220617.000,A,3748.4075,N,12217.8539,W,3.08,215.75,230712,,,A*78
$GPRMC,220618.000,A,3748.4067,N,12217.8548,W,3.00,208.93,230712,,,A*7E
$GPRMC,220619.000,A,3748.4059,N,12217.8559,W,3.16,213.15,230712,,,A*71
$GPRMC,220620.000,A,3748.4050,N,12217.8566,W,3.03,208.84,230712,,,A*78
$GPRMC,220621.000,A,3748.4043,N,12217.8573,W,2.81,210.36,230712,,,A*74
$GPRMC,220622.000,A,3748.4035,N,12217.8576,W,2.96,209.02,230712,,,A*7A
$GPRMC,220623.000,A,3748.4027,N,12217.8579,W,3.17,206.43,230712,,,A*75
$GPRMC,220624.000,A,3748.4019,N,12217.8584,W,2.86,210.26,230712,,,A*70
$GPRMC,220625.000,A,3748.4016,N,12217.8586,W,2.70,219.70,230712,,,A*7F
$GPRMC,220626.000,A,3748.4014,N,12217.8587,W,2.99,215.64,230712,,,A*71
$GPRMC,220627.000,A,3748.4012,N,12217.8584,W,1.97,197.10,230712,,,A*72
$GPRMC,220628.000,A,3748.4007,N,12217.8591,W,1.96,196.80,230712,,,A*74
$GPRMC,220629.000,A,3748.3996,N,12217.8607,W,2.08,191.76,230712,,,A*75
$GPRMC,220630.000,A,3748.3986,N,12217.8612,W,2.09,196.82,230712,,,A*75
$GPRMC,220631.000,A,3748.3974,N,12217.8622,W,2.28,194.30,230712,,,A*72
$GPRMC,220632.000,A,3748.3966,N,12217.8632,W,2.28,197.76,230712,,,A*72
$GPRMC,220633.000,A,3748.3960,N,12217.8642,W,2.52,197.71,230712,,,A*78
$GPRMC,220634.000,A,3748.3954,N,12217.8647,W,2.27,197.40,230712,,,A*7D
$GPRMC,220635.000,A,3748.3949,N,12217.8654,W,2.76,212.11,230712,,,A*7C
$GPRMC,220636.000,A,3748.3941,N,12217.8667,W,3.30,217.50,230712,,,A*74
$GPRMC,220637.000,A,3748.3930,N,12217.8680,W,2.73,206.35,230712,,,A*7F
$GPRMC,220638.000,A,3748.3922,N,12217.8683,W,2.23,196.11,230712,,,A*79
$GPRMC,220639.000,A,3748.3918,N,12217.8677,W,2.16,192.76,230712,,,A*79
$GPRMC,220640.000,A,3748.3912,N,12217.8674,W,2.38,192.51,230712,,,A*77
$GPRMC,220641.000,A,3748.3903,N,12217.8677,W,2.40,190.57,230712,,,A*7E
$GPRMC,220642.000,A,3748.3898,N,12217.8673,W,2.71,194.12,230712,,,A*7D
$GPRMC,220643.000,A,3748.3891,N,12217.8673,W,2.94,196.11,230712,,,A*7F
$GPRMC,220644.000,A,3748.3883,N,12217.8676,W,2.43,200.53,230712,,,A*7E
$GPRMC,220645.000,A,3748.3876,N,12217.8680,W,2.34,202.90,230712,,,A*71
$GPRMC,220646.000,A,3748.3864,N,12217.8691,W,2.62,208.02,230712,,,A*73
$GPRMC,220647.000,A,3748.3854,N,12217.8708,W,2.52,207.95,230712,,,A*72
$GPRMC,220648.000,A,3748.3847,N,12217.8714,W,2.83,201.68,230712,,,A*7A
$GPRMC,220649.000,A,3748.3840,N,12217.8724,W,2.96,205.93,230712,,,A*7B
$GPRMC,220650.000,A,3748.3832,N,12217.8733,W,2.64,203.89,230712,,,A*70
$GPRMC,220651.000,A,3748.3826,N,12217.8739,W,2.50,203.20,230712,,,A*7A
$GPRMC,220652.000,A,3748.3820,N,12217.8747,W,2.37,209.72,230712,,,A*7A
$GPRMC,220653.000,A,3748.3815,N,12217.8753,W,2.69,211.54,230712,,,A*7E
$GPRMC,220654.000,A,3748.3809,N,12217.8761,W,2.62,203.31,230712,,,A*7E
$GPRMC,220655.000,A,3748.3802,N,12217.8766,W,2.21,218.39,230712,,,A*76
$GPRMC,220656.000,A,3748.3794,N,12217.8770,W,2.74,213.94,230712,,,A*7E
$GPRMC,220657.000,A,3748.3787,N,12217.8773,W,2.62,212.92,230712,,,A*7E
$GPRMC,220658.000,A,3748.3781,N,12217.8775,W,2.59,211.81,230712,,,A*78
$GPRMC,220659.000,A,3748.3775,N,12217.8777,W,2.68,206.65,230712,,,A*7E
$GPRMC,220700.000,A,3748.3769,N,12217.8779,W,2.33,212.29,230712,,,A*73
$GPRMC,220701.000,A,3748.3764,N,12217.8780,W,2.45,210.30,230712,,,A*72
$GPRMC,220702.000,A,3748.3759,N,12217.8783,W,2.24,211.33,230712,,,A*79
$GPRMC,220703.000,A,3748.3754,N,12217.8785,W,2.77,206.95,230712,,,A*7F
$GPRMC,220704.000,A,3748.3749,N,12217.8787,W,2.38,201.19,230712,,,A*7E
$GPRMC,220705.000,A,3748.3743,N,12217.8791,W,2.70,213.19,230712,,,A*7D
$GPRMC,220706.000,A,3748.3737,N,12217.8794,W,2.66,213.68,230712,,,A*79
$GPRMC,220707.000,A,3748.3730,N,12217.8798,W,2.40,202.46,230712,,,A*7B
$GPRMC,220708.000,A,3748.3722,N,12217.8802,W,2.15,195.90,230712,,,A*7D
$GPRMC,220709.000,A,3748.3714,N,12217.8805,W,2.40,196.60,230712,,,A*72
$GPRMC,220710.000,A,3748.3706,N,12217.8812,W,2.52,212.76,230712,,,A*74
$GPRMC,220711.000,A,3748.3699,N,12217.8820,W,2.32,213.66,230712,,,A*75
$GPRMC,220712.000,A,3748.3693,N,12217.8825,W,2.57,210.38,230712,,,D*77
$GPRMC,220713.000,A,3748.3684,N,12217.8832,W,2.49,206.05,230712,,,D*70
$GPRMC,220714.000,A,3748.3680,N,12217.8835,W,1.69,211.87,230712,,,D*79
$GPRMC,220715.000,A,3748.3676,N,12217.8835,W,1.84,182.33,230712,,,D*74
$GPRMC,220716.000,A,3748.3673,N,12217.8829,W,1.71,133.40,230712,,,D*7B
$GPRMC,220717.000,A,3748.3674,N,12217.8820,W,1.48,103.10,230712,,,D*78
$GPRMC,220718.000,A,3748.3676,N,12217.8809,W,1.14,95.31,230712,,,D*4A
$GPRMC,220719.000,A,3748.3679,N,12217.8797,W,1.31,95.63,230712,,,D*4C
$GPRMC,220720.000,A,3748.3680,N,12217.8788,W,1.43,90.98,230712,,,D*4A
$GPRMC,220721.000,A,3748.3680,N,12217.8777,W,1.46,84.40,230712,,,D*4E
$GPRMC,220722.000,A,3748.3681,N,12217.8761,W,1.62,87.36,230712,,,D*4F
$GPRMC,220723.000,A,3748.3681,N,12217.8750,W,1.65,87.04,230712,,,D*4A
$GPRMC,220724.000,A,3748.3682,N,12217.8742,W,1.40,86.31,230712,,,D*4D
$GPRMC,220725.000,A,3748.3681,N,12217.8735,W,1.44,92.54,230712,,,D*4D
$GPRMC,220726.000,A,3748.3681,N,12217.8726,W,1.41,74.73,230712,,,D*44
$GPRMC,220727.000,A,3748.3681,N,12217.8715,W,2.02,82.94,230712,,,D*41
$GPRMC,220728.000,A,3748.3680,N,12217.8704,W,1.86,80.08,230712,,,D*47
$GPRMC,220729.000,A,3748.3680,N,12217.8695,W,1.71,74.56,230712,,,D*47
$GPRMC,220730.000,A,3748.3679,N,12217.8686,W,1.63,85.24,230712,,,D*43
$GPRMC,220731.000,A,3748.3678,N,12217.8677,W,1.65,97.44,230712,,,D*4E
$GPRMC,220732.000,A,3748.3676,N,12217.8667,W,1.84,93.34,230712,,,D*4E
$GPRMC,220733.000,A,3748.3674,N,12217.8655,W,2.25,93.71,230712,,,D*45
$GPRMC,220734.000,A,3748.3672,N,12217.8646,W,1.82,91.45,230712,,,D*4D
$GPRMC,220735.000,A,3748.3672,N,12217.8636,W,1.72,84.20,230712,,,D*43
$GPRMC,220736.000,A,3748.3671,N,12217.8623,W,2.01,79.55,230712,,,D*40
$GPRMC,220737.000,A,3748.3669,N,12217.8617,W,1.83,66.84,230712,,,D*44
$GPRMC,220738.000,A,3748.3665,N,12217.8615,W,1.83,70.34,230712,,,D*49
$GPRMC,220739.000,A,3748.3665,N,12217.8611,W,1.26,86.06,230712,,,D*4B
$GPRMC,220740.000,A,3748.3660,N,12217.8609,W,1.46,94.78,230712,,,D*45
$GPRMC,220741.000,A,3748.3658,N,12217.8605,W,1.57,85.00,230712,,,D*4C
$GPRMC,220742.000,A,3748.3659,N,12217.8597,W,2.10,89.89,230712,,,D*4B
$GPRMC,220743.000,A,3748.3656,N,12217.8587,W,2.42,96.34,230712,,,D*4B
$GPRMC,220744.000,A,3748.3653,N,12217.8575,W,2.52,101.63,230712,,,D*78
$GPRMC,220745.000,A,3748.3649,N,12217.8565,W,1.92,96.24,230712,,,D*40
$GPRMC,220746.000,A,3748.3642,N,12217.8560,W,1.19,106.64,230712,,,D*72
$GPRMC,220747.000,A,3748.3640,N,12217.8554,W,1.77,99.71,230712,,,D*4D
$GPRMC,220748.000,A,3748.3638,N,12217.8545,W,2.23,85.15,230712,,,D*40
$GPRMC,220749.000,A,3748.3638,N,12217.8535,W,2.26,79.60,230712,,,D*42
$GPRMC,220750.000,A,3748.3636,N,12217.8529,W,1.88,84.55,230712,,,D*4A
$GPRMC,220751.000,A,3748.3633,N,12217.8523,W,1.64,102.52,230712,,,D*7E
$GPRMC,220752.000,A,3748.3634,N,12217.8513,W,1.49,99.12,230712,,,D*41
$GPRMC,220753.000,A,3748.3634,N,12217.8506,W,1.69,75.57,230712,,,D*45
$GPRMC,220754.000,A,3748.3634,N,12217.8499,W,1.82,86.09,230712,,,D*47
$GPRMC,220755.000,A,3748.3633,N,12217.8493,W,1.57,93.10,230712,,,D*4F
$GPRMC,220756.000,A,3748.3628,N,12217.8490,W,2.13,110.95,230712,,,D*71
$GPRMC,220757.000,A,3748.3624,N,12217.8481,W,2.74,117.12,230712,,,D*75
$GPRMC,220758.000,A,3748.3620,N,12217.8473,W,2.53,108.56,230712,,,D*78
$GPRMC,220759.000,A,3748.3619,N,12217.8465,W,2.26,88.55,230712,,,D*4C
$GPRMC,220800.000,A,3748.3616,N,12217.8460,W,1.96,91.64,230712,,,D*47
$GPRMC,220801.000,A,3748.3612,N,12217.8454,W,2.51,96.42,230712,,,D*4E
$GPRMC,220802.000,A,3748.3606,N,12217.8443,W,1.91,89.95,230712,,,D*45
$GPRMC,220803.000,A,3748.3603,N,12217.8434,W,1.70,94.16,230712,,,D*49
$GPRMC,220804.000,A,3748.3597,N,12217.8420,W,2.54,91.16,230712,,,D*45
$GPRMC,220805.000,A,3748.3592,N,12217.8409,W,2.55,102.28,230712,,,A*78
$GPRMC,220806.000,A,3748.3586,N,12217.8395,W,2.47,88.59,230712,,,A*4A
$GPRMC,220807.000,A,3748.3585,N,12217.8384,W,2.42,81.92,230712,,,A*43
$GPRMC,220808.000,A,3748.3584,N,12217.8373,W,2.38,82.35,230712,,,A*46
$GPRMC,220809.000,A,3748.3583,N,12217.8365,W,2.33,100.22,230712,,,A*71
$GPRMC,220810.000,A,3748.3578,N,12217.8357,W,2.26,113.87,230712,,,A*75
$GPRMC,220811.000,A,3748.3577,N,12217.8347,W,2.38,109.19,230712,,,A*79
$GPRMC,220812.000,A,3748.3577,N,12217.8336,W,2.34,97.52,230712,,,A*49
$GPRMC,220813.000,A,3748.3576,N,12217.8326,W,1.63,101.08,230712,,,A*78
$GPRMC,220814.000,A,3748.3575,N,12217.8320,W,1.59,115.02,230712,,,A*7C
$GPRMC,220815.000,A,3748.3572,N,12217.8314,W,1.83,125.40,230712,,,A*7F
$GPRMC,220816.000,A,3748.3568,N,12217.8308,W,2.29,139.33,230712,,,A*70
$GPRMC,220817.000,A,3748.3558,N,12217.8301,W,2.99,162.89,230712,,,A*7F
$GPRMC,220818.000,A,3748.3548,N,12217.8292,W,2.66,166.26,230712,,,A*7B
$GPRMC,220819.000,A,3748.3538,N,12217.8286,W,2.70,171.58,230712,,,A*70
$GPRMC,220820.000,A,3748.3530,N,12217.8280,W,2.34,166.49,230712,,,A*72
$GPRMC,220821.000,A,3748.3524,N,12217.8275,W,1.95,158.27,230712,,,A*71
$GPRMC,220822.000,A,3748.3517,N,12217.8272,W,2.33,177.71,230712,,,A*74
$GPRMC,220823.000,A,3748.3509,N,12217.8270,W,2.73,180.33,230712,,,A*72
$GPRMC,220824.000,A,3748.3502,N,12217.8267,W,2.57,163.87,230712,,,A*7C
$GPRMC,220825.000,A,3748.3493,N,12217.8265,W,2.71,161.86,230712,,,A*71
$GPRMC,220826.000,A,3748.3484,N,12217.8262,W,2.43,152.08,230712,,,A*74
$GPRMC,220827.000,A,3748.3476,N,12217.8258,W,2.69,154.12,230712,,,A*74
$GPRMC,220828.000,A,3748.3467,N,12217.8254,W,2.48,144.88,230712,,,A*76
$GPRMC,220829.000,A,3748.3464,N,12217.8245,W,1.87,133.34,230712,,,A*73
$GPRMC,220830.000,A,3748.3467,N,12217.8237,W,1.42,112.72,230712,,,A*75
$GPRMC,220831.000,A,3748.3468,N,12217.8233,W,1.22,104.59,230712,,,A*77
$GPRMC,220832.000,A,3748.3471,N,12217.8227,W,1.21,98.31,230712,,,A*40
$GPRMC,220833.000,A,3748.3472,N,12217.8222,W,1.32,83.63,230712,,,A*48
$GPRMC,220834.000,A,3748.3476,N,12217.8216,W,1.45,87.45,230712,,,A*4C
$GPRMC,220835.000,A,3748.3479,N,12217.8211,W,1.60,93.29,230712,,,A*4D
$GPRMC,220836.000,A,3748.3480,N,12217.8203,W,1.79,80.12,230712,,,A*49
$GPRMC,220837.000,A,3748.3484,N,12217.8197,W,1.52,63.79,230712,,,A*4B
$GPRMC,220838.000,A,3748.3490,N,12217.8191,W,1.63,74.97,230712,,,A*43
$GPRMC,220839.000,A,3748.3491,N,12217.8187,W,1.39,81.64,230712,,,A*4D
$GPRMC,220840.000,A,3748.3497,N,12217.8185,W,1.22,47.62,230712,,,A*41
$GPRMC,220841.000,A,3748.3499,N,12217.8186,W,1.16,67.33,230712,,,A*4C
$GPRMC,220842.000,A,3748.3505,N,12217.8187,W,1.20,53.33,230712,,,A*48
$GPRMC,220843.000,A,3748.3510,N,12217.8184,W,1.69,54.21,230712,,,A*47
$GPRMC,220844.000,A,3748.3512,N,12217.8176,W,2.07,60.61,230712,,,A*47
$GPRMC,220845.000,A,3748.3514,N,12217.8171,W,1.61,58.72,230712,,,A*4D
$GPRMC,220846.000,A,3748.3514,N,12217.8168,W,1.71,52.50,230712,,,A*4D
$GPRMC,220847.000,A,3748.3513,N,12217.8163,W,1.48,71.91,230712,,,A*46
$GPRMC,220848.000,A,3748.3512,N,12217.8158,W,1.59,62.53,230712,,,A*4C
$GPRMC,220849.000,A,3748.3513,N,12217.8152,W,1.52,61.37,230712,,,A*4C
$GPRMC,220850.000,A,3748.3516,N,12217.8145,W,1.27,104.51,230712,,,A*77
$GPRMC,220851.000,A,3748.3513,N,12217.8140,W,1.16,94.38,230712,,,A*43
$GPRMC,220852.000,A,3748.3508,N,12217.8130,W,1.96,81.45,230712,,,A*4B
$GPRMC,220853.000,A,3748.3504,N,12217.8119,W,1.89,84.82,230712,,,A*4D
$GPRMC,220854.000,A,3748.3502,N,12217.8110,W,1.75,86.41,230712,,,A*4B
$GPRMC,220855.000,A,3748.3500,N,12217.8099,W,1.54,85.84,230712,,,A*41
$GPRMC,220856.000,A,3748.3498,N,12217.8089,W,1.34,89.68,230712,,,A*4B
$GPRMC,220857.000,A,3748.3494,N,12217.8083,W,1.61,91.86,230712,,,A*45
$GPRMC,220858.000,A,3748.3488,N,12217.8075,W,1.60,117.25,230712,,,A*79
$GPRMC,220859.000,A,3748.3482,N,12217.8068,W,1.32,112.89,230712,,,A*7A
$GPRMC,220900.000,A,3748.3476,N,12217.8063,W,1.17,111.93,230712,,,A*78
$GPRMC,220901.000,A,3748.3471,N,12217.8058,W,1.23,108.85,230712,,,A*7E
$GPRMC,220902.000,A,3748.3466,N,12217.8052,W,0.98,85.83,230712,,,A*42
$GPRMC,220903.000,A,3748.3463,N,12217.8047,W,1.01,79.10,230712,,,A*4A
$GPRMC,220904.000,A,3748.3459,N,12217.8038,W,1.20,76.35,230712,,,A*47
$GPRMC,220905.000,A,3748.3456,N,12217.8029,W,2.22,87.39,230712,,,A*4A
$GPRMC,220906.000,A,3748.3453,N,12217.8019,W,2.15,80.78,230712,,,A*49
$GPRMC,220907.000,A,3748.3450,N,12217.8011,W,1.25,81.96,230712,,,A*42
$GPRMC,220908.000,A,3748.3448,N,12217.8000,W,1.34,70.75,230712,,,A*47
$GPRMC,220909.000,A,3748.3445,N,12217.7994,W,1.30,73.65,230712,,,A*46
$GPRMC,220910.000,A,3748.3443,N,12217.7986,W,1.48,68.95,230712,,,A*41
$GPRMC,220911.000,A,3748.3439,N,12217.7976,W,1.65,83.90,230712,,,A*4D
$GPRMC,220912.000,A,3748.3437,N,12217.7968,W,1.37,78.42,230712,,,A*43
$GPRMC,220913.000,A,3748.3433,N,12217.7960,W,1.89,88.42,230712,,,A*44
$GPRMC,220914.000,A,3748.3430,N,12217.7950,W,1.66,79.24,230712,,,A*4C
$GPRMC,220915.000,A,3748.3426,N,12217.7942,W,1.79,80.91,230712,,,A*4F
$GPRMC,220916.000,A,3748.3423,N,12217.7934,W,1.96,91.17,230712,,,A*47
$GPRMC,220917.000,A,3748.3420,N,12217.7924,W,1.75,80.66,230712,,,A*4F
$GPRMC,220918.000,A,3748.3415,N,12217.7913,W,1.93,97.37,230712,,,A*48
$GPRMC,220919.000,A,3748.3409,N,12217.7902,W,2.53,115.07,230712,,,A*73
$GPRMC,220920.000,A,3748.3402,N,12217.7890,W,1.97,125.81,230712,,,A*7E
$GPRMC,220921.000,A,3748.3397,N,12217.7878,W,1.46,107.96,230712,,,A*78
$GPRMC,220922.000,A,3748.3392,N,12217.7869,W,1.37,117.83,230712,,,A*7D
$GPRMC,220923.000,A,3748.3388,N,12217.7861,W,1.35,101.28,230712,,,A*7B
$GPRMC,220924.000,A,3748.3379,N,12217.7845,W,2.38,104.24,230712,,,A*73
$GPRMC,220925.000,A,3748.3374,N,12217.7828,W,2.14,105.09,230712,,,A*74
$GPRMC,220926.000,A,3748.3369,N,12217.7815,W,2.50,110.31,230712,,,A*7A
$GPRMC,220927.000,A,3748.3365,N,12217.7801,W,2.18,117.95,230712,,,A*77
$GPRMC,220928.000,A,3748.3361,N,12217.7791,W,1.71,108.87,230712,,,A*7B
$GPRMC,220929.000,A,3748.3358,N,12217.7775,W,1.81,102.97,230712,,,A*7E
$GPRMC,220930.000,A,3748.3353,N,12217.7762,W,2.10,103.72,230712,,,A*7A
$GPRMC,220931.000,A,3748.3348,N,12217.7746,W,2.16,105.65,230712,,,A*71
$GPRMC,220932.000,A,3748.3342,N,12217.7724,W,2.08,103.63,230712,,,A*73
$GPRMC,220933.000,A,3748.3337,N,12217.7713,W,2.14,106.36,230712,,,A*7C
$GPRMC,220934.000,A,3748.3332,N,12217.7703,W,2.05,95.37,230712,,,A*45
$GPRMC,220935.000,A,3748.3328,N,12217.7692,W,1.62,96.08,230712,,,A*4B
$GPRMC,220936.000,A,3748.3323,N,12217.7681,W,1.68,107.43,230712,,,A*7D
$GPRMC,220937.000,A,3748.3320,N,12217.7668,W,2.43,102.41,230712,,,A*75
$GPRMC,220938.000,A,3748.3317,N,12217.7653,W,1.87,113.63,230712,,,A*7D
$GPRMC,220939.000,A,3748.3313,N,12217.7644,W,2.15,109.40,230712,,,A*7C
$GPRMC,220940.000,A,3748.3308,N,12217.7633,W,2.17,105.33,230712,,,A*72
$GPRMC,220941.000,A,3748.3304,N,12217.7622,W,1.50,125.84,230712,,,A*71
$GPRMC,220942.000,A,3748.3297,N,12217.7615,W,2.45,138.50,230712,,,A*7F
$GPRMC,220943.000,A,3748.3289,N,12217.7606,W,2.41,134.31,230712,,,A*7C
$GPRMC,220944.000,A,3748.3281,N,12217.7599,W,2.22,115.21,230712,,,A*71
$GPRMC,220945.000,A,3748.3276,N,12217.7589,W,2.29,126.84,230712,,,A*7D
$GPRMC,220946.000,A,3748.3269,N,12217.7583,W,2.30,144.66,230712,,,A*7A
$GPRMC,220947.000,A,3748.3260,N,12217.7582,W,2.44,152.99,230712,,,A*77
$GPRMC,220948.000,A,3748.3252,N,12217.7578,W,2.65,166.92,230712,,,A*73
$GPRMC,220949.000,A,3748.3243,N,12217.7576,W,2.74,163.92,230712,,,A*79
$GPRMC,220950.000,A,3748.3234,N,12217.7572,W,2.56,159.23,230712,,,A*76
$GPRMC,220951.000,A,3748.3227,N,12217.7564,W,1.75,166.48,230712,,,A*71
$GPRMC,220952.000,A,3748.3225,N,12217.7554,W,1.91,153.30,230712,,,A*70
$GPRMC,220953.000,A,3748.3222,N,12217.7548,W,1.20,149.91,230712,,,A*71
$GPRMC,220954.000,A,3748.3222,N,12217.7544,W,1.11,147.57,230712,,,A*7C
$GPRMC,220955.000,A,3748.3219,N,12217.7535,W,1.95,115.22,230712,,,A*7A
$GPRMC,220956.000,A,3748.3217,N,12217.7526,W,1.26,109.07,230712,,,A*77
$GPRMC,220957.000,A,3748.3216,N,12217.7517,W,1.05,105.65,230712,,,A*7C
$GPRMC,220958.000,A,3748.3215,N,12217.7505,W,0.95,93.72,230712,,,A*43
$GPRMC,220959.000,A,3748.3215,N,12217.7500,W,1.21,103.72,230712,,,A*71
$GPRMC,221000.000,A,3748.3214,N,12217.7491,W,2.07,97.85,230712,,,A*4E
$GPRMC,221001.000,A,3748.3213,N,12217.7480,W,1.62,97.40,230712,,,A*41
$GPRMC,221002.000,A,3748.3209,N,12217.7473,W,1.27,98.42,230712,,,A*49
$GPRMC,221003.000,A,3748.3207,N,12217.7464,W,1.74,113.56,230712,,,A*71
$GPRMC,221004.000,A,3748.3209,N,12217.7453,W,1.52,94.74,230712,,,A*46
$GPRMC,221005.000,A,3748.3213,N,12217.7443,W,1.79,79.17,230712,,,A*42
$GPRMC,221006.000,A,3748.3218,N,12217.7431,W,1.63,84.70,230712,,,A*47
$GPRMC,221007.000,A,3748.3218,N,12217.7423,W,1.42,92.96,230712,,,A*49
$GPRMC,221008.000,A,3748.3219,N,12217.7418,W,1.34,107.77,230712,,,A*7C
$GPRMC,221009.000,A,3748.3215,N,12217.7408,W,1.68,100.86,230712,,,A*70
$GPRMC,221010.000,A,3748.3211,N,12217.7400,W,1.82,99.62,230712,,,A*4B
$GPRMC,221011.000,A,3748.3208,N,12217.7395,W,1.46,104.15,230712,,,A*74
$GPRMC,221012.000,A,3748.3207,N,12217.7388,W,1.32,81.87,230712,,,A*40
$GPRMC,221013.000,A,3748.3206,N,12217.7379,W,1.38,86.62,230712,,,A*48
$GPRMC,221014.000,A,3748.3208,N,12217.7374,W,1.24,89.40,230712,,,A*4E
$GPRMC,221015.000,A,3748.3207,N,12217.7369,W,0.86,87.32,230712,,,A*4E
$GPRMC,221016.000,A,3748.3206,N,12217.7362,W,1.35,60.60,230712,,,A*40
$GPRMC,221017.000,A,3748.3209,N,12217.7354,W,1.33,67.90,230712,,,A*45
$GPRMC,221018.000,A,3748.3207,N,12217.7345,W,1.11,55.62,230712,,,A*48
$GPRMC,221019.000,A,3748.3208,N,12217.7337,W,1.12,54.89,230712,,,A*44
$GPRMC,221020.000,A,3748.3206,N,12217.7330,W,1.73,87.95,230712,,,A*43
$GPRMC,221021.000,A,3748.3202,N,12217.7323,W,0.75,85.24,230712,,,A*4B
$GPRMC,221022.000,A,3748.3201,N,12217.7315,W,0.46,32.43,230712,,,A*43
$GPRMC,221023.000,A,3748.3201,N,12217.7310,W,0.74,21.84,230712,,,A*4F
$GPRMC,221024.000,A,3748.3197,N,12217.7304,W,1.39,58.23,230712,,,A*4A
$GPRMC,221025.000,A,3748.3198,N,12217.7295,W,1.70,48.97,230712,,,A*4E
$GPRMC,221026.000,A,3748.3200,N,12217.7286,W,1.75,57.70,230712,,,A*4F
$GPRMC,221027.000,A,3748.3197,N,12217.7280,W,1.28,76.65,230712,,,A*4A
$GPRMC,221028.000,A,3748.3193,N,12217.7274,W,1.27,89.68,230712,,,A*48
$GPRMC,221029.000,A,3748.3194,N,12217.7269,W,1.22,88.09,230712,,,A*41
$GPRMC,221030.000,A,3748.3193,N,12217.7260,W,1.55,82.82,230712,,,A*4E
$GPRMC,221031.000,A,3748.3195,N,12217.7253,W,2.01,97.95,230712,,,A*49
$GPRMC,221032.000,A,3748.3194,N,12217.7243,W,1.08,110.22,230712,,,A*72
$GPRMC,221033.000,A,3748.3195,N,12217.7236,W,0.54,104.50,230712,,,A*78
$GPRMC,221034.000,A,3748.3191,N,12217.7229,W,1.22,125.66,230712,,,A*73
$GPRMC,221035.000,A,3748.3183,N,12217.7224,W,1.99,131.18,230712,,,A*70
$GPRMC,221036.000,A,3748.3173,N,12217.7216,W,1.76,125.82,230712,,,A*7A
$GPRMC,221037.000,A,3748.3169,N,12217.7209,W,1.18,128.83,230712,,,A*7A
$GPRMC,221038.000,A,3748.3165,N,12217.7204,W,1.20,117.78,230712,,,A*77
$GPRMC,221039.000,A,3748.3161,N,12217.7197,W,1.25,110.01,230712,,,A*77
$GPRMC,221040.000,A,3748.3158,N,12217.7192,W,1.21,117.65,230712,,,A*77
$GPRMC,221041.000,A,3748.3158,N,12217.7189,W,0.71,181.07,230712,,,A*73
$GPRMC,221042.000,A,3748.3152,N,12217.7191,W,0.98,173.14,230712,,,A*7B
$GPRMC,221043.000,A,3748.3145,N,12217.7188,W,0.47,116.02,230712,,,A*72
$GPRMC,221044.000,A,3748.3138,N,12217.7194,W,0.60,46.92,230712,,,A*4A
$GPRMC,221045.000,A,3748.3136,N,12217.7198,W,0.24,192.47,230712,,,A*79
$GPRMC,221046.000,A,3748.3132,N,12217.7202,W,0.38,191.89,230712,,,A*72
$GPRMC,221047.000,A,3748.3130,N,12217.7205,W,0.32,157.32,230712,,,A*76
$GPRMC,221048.000,A,3748.3127,N,12217.7207,W,0.43,215.27,230712,,,A*7A
$GPRMC,221049.000,A,3748.3124,N,12217.7210,W,0.49,163.90,230712,,,A*7A
$GPRMC,221050.000,A,3748.3124,N,12217.7210,W,1.05,197.80,230712,,,A*71
$GPRMC,221051.000,A,3748.3125,N,12217.7209,W,0.92,194.97,230712,,,A*73
$GPRMC,221052.000,A,3748.3128,N,12217.7207,W,0.86,175.51,230712,,,A*73
$GPRMC,221053.000,A,3748.3129,N,12217.7206,W,0.26,144.01,230712,,,A*7F
$GPRMC,221054.000,A,3748.3132,N,12217.7205,W,0.26,136.39,230712,,,A*7F
$GPRMC,221055.000,A,3748.3134,N,12217.7204,W,0.43,193.38,230712,,,A*74
$GPRMC,221056.000,A,3748.3134,N,12217.7204,W,0.60,206.04,230712,,,A*76
$GPRMC,221057.000,A,3748.3135,N,12217.7204,W,0.34,216.85,230712,,,A*7F
$GPRMC,221058.000,A,3748.3136,N,12217.7203,W,0.74,227.61,230712,,,A*78
$GPRMC,221059.000,A,3748.3129,N,12217.7205,W,1.14,228.71,230712,,,A*78
$GPRMC,221100.000,A,3748.3126,N,12217.7204,W,0.59,199.02,230712,,,A*7E
$GPRMC,221101.000,A,3748.3125,N,12217.7202,W,0.53,162.28,230712,,,A*7C
$GPRMC,221102.000,A,3748.3126,N,12217.7201,W,0.81,164.95,230712,,,A*70
$GPRMC,221103.000,A,3748.3124,N,12217.7199,W,1.91,186.78,230712,,,A*7E
$GPRMC,221104.000,A,3748.3119,N,12217.7199,W,2.31,189.85,230712,,,A*73
$GPRMC,221105.000,A,3748.3109,N,12217.7205,W,1.71,195.55,230712,,,A*72
$GPRMC,221106.000,A,3748.3107,N,12217.7209,W,0.39,159.76,230712,,,A*7F
$GPRMC,221107.000,A,3748.3112,N,12217.7205,W,0.30,100.86,230712,,,A*7C
$GPRMC,221108.000,A,3748.3112,N,12217.7203,W,0.32,153.85,230712,,,A*72
$GPRMC,221109.000,A,3748.3105,N,12217.7208,W,0.57,216.18,230712,,,A*7B
$GPRMC,221108.000,A,3748.3106,N,12217.7208,W,0.48,227.02,230712,,,A*7E
$GPRMC,221109.000,A,3748.3103,N,12217.7209,W,0.08,210.66,230712,,,A*79
$GPRMC,221110.000,A,3748.3099,N,12217.7208,W,0.63,91.08,230712,,,A*4C
$GPRMC,221111.000,A,3748.3100,N,12217.7205,W,0.56,106.84,230712,,,A*7C
$GPRMC,221112.000,A,3748.3097,N,12217.7208,W,0.76,205.12,230712,,,A*70
$GPRMC,221113.000,A,3748.3092,N,12217.7215,W,0.35,236.30,230712,,,A*7F
$GPRMC,221114.000,A,3748.3092,N,12217.7214,W,0.19,246.22,230712,,,A*73
$GPRMC,221115.000,A,3748.3093,N,12217.7216,W,0.29,168.89,230712,,,A*7C
$GPRMC,221116.000,A,3748.3094,N,12217.7217,W,0.36,279.77,230712,,,A*75
$GPRMC,221117.000,A,3748.3092,N,12217.7222,W,0.42,261.31,230712,,,A*7C
$GPRMC,221118.000,A,3748.3092,N,12217.7225,W,0.27,285.56,230712,,,A*7C
$GPRMC,221119.000,A,3748.3091,N,12217.7231,W,0.28,242.75,230712,,,A*7E
$GPRMC,221120.000,A,3748.3091,N,12217.7236,W,0.32,116.62,230712,,,A*7C
$GPRMC,221121.000,A,3748.3090,N,12217.7237,W,0.46,29.03,230712,,,A*44
$GPRMC,221122.000,A,3748.3094,N,12217.7234,W,0.60,74.90,230712,,,A*46
$GPRMC,221123.000,A,3748.3096,N,12217.7234,W,0.21,279.04,230712,,,A*72
$GPRMC,221124.000,A,3748.3098,N,12217.7235,W,0.41,347.26,230712,,,A*70
$GPRMC,221125.000,A,3748.3099,N,12217.7234,W,0.14,72.71,230712,,,A*46
$GPRMC,221126.000,A,3748.3099,N,12217.7232,W,0.27,97.01,230712,,,A*4F
$GPRMC,221127.000,A,3748.3095,N,12217.7242,W,0.61,223.22,230712,,,A*7B
$GPRMC,221128.000,A,3748.3093,N,12217.7243,W,0.63,247.83,230712,,,A*78
$GPRMC,221129.000,A,3748.3091,N,12217.7244,W,0.46,243.74,230712,,,A*77
$GPRMC,221130.000,A,3748.3090,N,12217.7244,W,0.55,224.76,230712,,,A*7F
$GPRMC,221131.000,A,3748.3090,N,12217.7242,W,0.17,61.04,230712,,,A*48
$GPRMC,221132.000,A,3748.3091,N,12217.7245,W,0.33,267.60,230712,,,A*7D
$GPRMC,221133.000,A,3748.3089,N,12217.7249,W,0.57,216.05,230712,,,A*7E
$GPRMC,221134.000,A,3748.3088,N,12217.7251,W,0.31,186.18,230712,,,A*77
$GPRMC,221135.000,A,3748.3087,N,12217.7251,W,0.26,231.10,230712,,,A*78
$GPRMC,221136.000,A,3748.3087,N,12217.7251,W,0.23,66.81,230712,,,A*46
$GPRMC,221137.000,A,3748.3087,N,12217.7254,W,0.33,95.75,230712,,,A*44
$GPRMC,221138.000,A,3748.3084,N,12217.7261,W,0.33,229.36,230712,,,A*7C
$GPRMC,221139.000,A,3748.3080,N,12217.7275,W,0.96,217.89,230712,,,A*7A
$GPRMC,221140.000,A,3748.3085,N,12217.7280,W,0.77,225.96,230712,,,A*7B
$GPRMC,221141.000,A,3748.3091,N,12217.7279,W,0.39,148.60,230712,,,A*72
$GPRMC,221142.000,A,3748.3091,N,12217.7276,W,0.83,137.90,230712,,,A*78
$GPRMC,221143.000,A,3748.3088,N,12217.7270,W,1.13,167.93,230712,,,A*79
$GPRMC,221144.000,A,3748.3086,N,12217.7270,W,1.58,191.08,230712,,,A*74
$GPRMC,221145.000,A,3748.3088,N,12217.7262,W,1.19,163.42,230712,,,A*7E
$GPRMC,221146.000,A,3748.3087,N,12217.7255,W,0.78,132.51,230712,,,A*76
$GPRMC,221147.000,A,3748.3088,N,12217.7246,W,0.53,117.73,230712,,,A*74
$GPRMC,221148.000,A,3748.3080,N,12217.7242,W,0.57,125.52,230712,,,A*71
$GPRMC,221149.000,A,3748.3075,N,12217.7241,W,0.96,111.85,230712,,,A*79
$GPRMC,221150.000,A,3748.3071,N,12217.7237,W,1.23,123.44,230712,,,A*77
$GPRMC,221151.000,A,3748.3066,N,12217.7235,W,1.25,130.08,230712,,,A*7E
$GPRMC,221152.000,A,3748.3065,N,12217.7229,W,1.46,138.39,230712,,,A*7C
$GPRMC,221153.000,A,3748.3063,N,12217.7225,W,1.20,150.68,230712,,,A*7D
$GPRMC,221154.000,A,3748.3060,N,12217.7229,W,0.68,185.77,230712,,,A*7E
$GPRMC,221155.000,A,3748.3055,N,12217.7234,W,1.21,211.61,230712,,,A*70
$GPRMC,221156.000,A,3748.3050,N,12217.7239,W,1.73,182.25,230712,,,A*75
$GPRMC,221157.000,A,3748.3047,N,12217.7239,W,1.85,171.68,230712,,,A*7E
$GPRMC,221158.000,A,3748.3044,N,12217.7241,W,0.94,182.72,230712,,,A*7B
$GPRMC,221159.000,A,3748.3044,N,12217.7239,W,0.37,194.42,230712,,,A*78
$GPRMC,221200.000,A,3748.3047,N,12217.7236,W,0.60,40.37,230712,,,A*43
$GPRMC,221201.000,A,3748.3051,N,12217.7231,W,1.09,11.92,230712,,,A*47
$GPRMC,221202.000,A,3748.3052,N,12217.7227,W,0.39,0.64,230712,,,A*7B
$GPRMC,221203.000,A,3748.3051,N,12217.7227,W,0.54,193.68,230712,,,A*75
$GPRMC,221204.000,A,3748.3049,N,12217.7225,W,0.79,164.99,230712,,,A*70
$GPRMC,221205.000,A,3748.3048,N,12217.7219,W,0.36,338.45,230712,,,A*7E
$GPRMC,221206.000,A,3748.3047,N,12217.7207,W,0.75,338.64,230712,,,A*79
$GPRMC,221207.000,A,3748.3050,N,12217.7203,W,0.43,32.22,230712,,,A*44
$GPRMC,221208.000,A,3748.3057,N,12217.7199,W,0.25,60.66,230712,,,A*4B
$GPRMC,221209.000,A,3748.3063,N,12217.7197,W,0.08,175.44,230712,,,A*79
$GPRMC,221210.000,A,3748.3070,N,12217.7193,W,0.20,194.39,230712,,,A*78
$GPRMC,221211.000,A,3748.3074,N,12217.7191,W,0.19,164.35,230712,,,A*76
$GPRMC,221212.000,A,3748.3072,N,12217.7182,W,0.94,120.52,230712,,,A*75
$GPRMC,221213.000,A,3748.3071,N,12217.7174,W,0.28,94.85,230712,,,A*4D
$GPRMC,221214.000,A,3748.3071,N,12217.7172,W,0.48,339.10,230712,,,A*72
$GPRMC,221215.000,A,3748.3073,N,12217.7167,W,0.53,37.96,230712,,,A*4C
$GPRMC,221216.000,A,3748.3076,N,12217.7167,W,0.56,316.36,230712,,,A*75
$GPRMC,221217.000,A,3748.3081,N,12217.7166,W,0.27,351.86,230712,,,A*73
$GPRMC,221218.000,A,3748.3090,N,12217.7168,W,0.44,13.55,230712,,,A*4C
$GPRMC,221219.000,A,3748.3099,N,12217.7168,W,0.61,351.47,230712,,,A*75
$GPRMC,221220.000,A,3748.3101,N,12217.7171,W,0.22,315.08,230712,,,A*7B
$GPRMC,221221.000,A,3748.3101,N,12217.7172,W,0.22,175.20,230712,,,A*77
$GPRMC,221222.000,A,3748.3096,N,12217.7169,W,0.42,116.94,230712,,,A*7D
$GPRMC,221223.000,A,3748.3095,N,12217.7167,W,0.58,21.05,230712,,,A*47
$GPRMC,221224.000,A,3748.3094,N,12217.7166,W,0.52,348.74,230712,,,A*70
$GPRMC,221225.000,A,3748.3089,N,12217.7167,W,0.19,216.67,230712,,,A*7B
$GPRMC,221226.000,A,3748.3089,N,12217.7174,W,0.59,252.94,230712,,,A*72
$GPRMC,221227.000,A,3748.3092,N,12217.7177,W,0.46,357.93,230712,,,A*77
$GPRMC,221228.000,A,3748.3094,N,12217.7173,W,0.95,11.20,230712,,,A*4D
$GPRMC,221229.000,A,3748.3096,N,12217.7170,W,0.29,12.27,230712,,,A*4E
$GPRMC,221230.000,A,3748.3100,N,12217.7169,W,0.56,6.27,230712,,,A*7D
$GPRMC,221231.000,A,3748.3110,N,12217.7170,W,1.75,1.47,230712,,,A*74
$GPRMC,221232.000,A,3748.3119,N,12217.7169,W,1.82,14.14,230712,,,A*4C
$GPRMC,221233.000,A,3748.3126,N,12217.7164,W,1.34,25.21,230712,,,A*45
$GPRMC,221234.000,A,3748.3131,N,12217.7158,W,1.21,15.11,230712,,,A*4F
$GPRMC,221235.000,A,3748.3136,N,12217.7155,W,1.06,4.82,230712,,,A*7B
$GPRMC,221236.000,A,3748.3137,N,12217.7153,W,0.40,105.25,230712,,,A*71
$GPRMC,221237.000,A,3748.3138,N,12217.7144,W,1.27,150.86,230712,,,A*70
$GPRMC,221238.000,A,3748.3134,N,12217.7138,W,1.91,178.08,230712,,,A*79
$GPRMC,221239.000,A,3748.3130,N,12217.7136,W,1.45,180.13,230712,,,A*76
$GPRMC,221240.000,A,3748.3128,N,12217.7134,W,0.78,157.10,230712,,,A*75
$GPRMC,221241.000,A,3748.3128,N,12217.7133,W,0.09,26.46,230712,,,A*41
$GPRMC,221242.000,A,3748.3133,N,12217.7134,W,0.82,8.48,230712,,,A*7E
$GPRMC,221243.000,A,3748.3142,N,12217.7134,W,2.16,14.44,230712,,,A*47
$GPRMC,221244.000,A,3748.3151,N,12217.7130,W,3.38,10.08,230712,,,A*47
$GPRMC,221245.000,A,3748.3153,N,12217.7122,W,2.11,26.85,230712,,,A*4D
$GPRMC,221246.000,A,3748.3158,N,12217.7112,W,1.63,46.80,230712,,,A*43
$GPRMC,221247.000,A,3748.3153,N,12217.7103,W,0.82,132.74,230712,,,A*7E
$GPRMC,221248.000,A,3748.3150,N,12217.7094,W,0.32,158.70,230712,,,A*7E
$GPRMC,221249.000,A,3748.3152,N,12217.7103,W,0.61,337.46,230712,,,A*7A
$GPRMC,221250.000,A,3748.3152,N,12217.7108,W,0.48,292.56,230712,,,A*7D
$GPRMC,221251.000,A,3748.3148,N,12217.7114,W,0.48,294.17,230712,,,A*79
$GPRMC,221252.000,A,3748.3147,N,12217.7116,W,0.26,69.13,230712,,,A*4B
$GPRMC,221253.000,A,3748.3148,N,12217.7113,W,0.77,121.21,230712,,,A*78
$GPRMC,221254.000,A,3748.3140,N,12217.7110,W,0.99,147.87,230712,,,A*78
$GPRMC,221255.000,A,3748.3137,N,12217.7104,W,1.19,147.58,230712,,,A*77
$GPRMC,221256.000,A,3748.3135,N,12217.7098,W,0.63,78.74,230712,,,A*4D
$GPRMC,221257.000,A,3748.3144,N,12217.7091,W,2.14,22.71,230712,,,A*4B
$GPRMC,221258.000,A,3748.3154,N,12217.7087,W,3.10,14.31,230712,,,A*46
$GPRMC,221259.000,A,3748.3163,N,12217.7082,W,3.59,12.43,230712,,,A*48
$GPRMC,221300.000,A,3748.3170,N,12217.7080,W,2.90,16.27,230712,,,A*47
$GPRMC,221301.000,A,3748.3172,N,12217.7077,W,2.41,23.60,230712,,,A*45
$GPRMC,221302.000,A,3748.3182,N,12217.7072,W,2.28,23.41,230712,,,A*40
$GPRMC,221303.000,A,3748.3186,N,12217.7072,W,1.92,18.28,230712,,,A*40
$GPRMC,221304.000,A,3748.3193,N,12217.7073,W,1.84,15.22,230712,,,A*42
$GPRMC,221305.000,A,3748.3198,N,12217.7077,W,1.02,351.59,230712,,,A*7D
$GPRMC,221306.000,A,3748.3199,N,12217.7080,W,0.36,290.22,230712,,,A*71
$GPRMC,221307.000,A,3748.3205,N,12217.7080,W,0.26,220.60,230712,,,A*7A
$GPRMC,221308.000,A,3748.3206,N,12217.7077,W,0.25,96.90,230712,,,A*4D
$GPRMC,221309.000,A,3748.3200,N,12217.7082,W,0.17,23.26,230712,,,A*42
$GPRMC,221310.000,A,3748.3195,N,12217.7086,W,1.12,164.83,230712,,,A*78
$GPRMC,221311.000,A,3748.3172,N,12217.7091,W,0.63,144.12,230712,,,A*7B
$GPRMC,221312.000,A,3748.3162,N,12217.7095,W,0.25,127.61,230712,,,A*7E
$GPRMC,221313.000,A,3748.3153,N,12217.7094,W,1.17,146.26,230712,,,A*78
$GPRMC,221314.000,A,3748.3139,N,12217.7093,W,1.55,132.94,230712,,,A*78
$GPRMC,221315.000,A,3748.3133,N,12217.7088,W,1.52,152.47,230712,,,A*76
$GPRMC,221316.000,A,3748.3135,N,12217.7089,W,0.74,137.89,230712,,,A*76
$GPRMC,221317.000,A,3748.3126,N,12217.7090,W,1.00,148.94,230712,,,A*7B
$GPRMC,221318.000,A,3748.3119,N,12217.7090,W,1.33,139.13,230712,,,A*71
$GPRMC,221319.000,A,3748.3115,N,12217.7089,W,0.80,136.74,230712,,,A*73
$GPRMC,221320.000,A,3748.3115,N,12217.7089,W,0.24,124.93,230712,,,A*7D
$GPRMC,221321.000,A,3748.3121,N,12217.7083,W,0.43,78.86,230712,,,A*4C
$GPRMC,221322.000,A,3748.3124,N,12217.7082,W,0.31,284.53,230712,,,A*77
$GPRMC,221323.000,A,3748.3132,N,12217.7078,W,0.08,54.84,230712,,,A*4B
$GPRMC,221324.000,A,3748.3135,N,12217.7076,W,0.37,330.84,230712,,,A*78
$GPRMC,221325.000,A,3748.3138,N,12217.7075,W,0.53,46.09,230712,,,A*42
$GPRMC,221326.000,A,3748.3136,N,12217.7071,W,0.56,16.96,230712,,,A*4D
$GPRMC,221327.000,A,3748.3138,N,12217.7069,W,1.62,339.57,230712,,,A*7E
$GPRMC,221328.000,A,3748.3152,N,12217.7073,W,0.92,296.19,230712,,,A*76
$GPRMC,221329.000,A,3748.3155,N,12217.7072,W,1.28,308.75,230712,,,A*7D
$GPRMC,221330.000,A,3748.3144,N,12217.7072,W,0.22,169.54,230712,,,A*78
$GPRMC,221331.000,A,3748.3139,N,12217.7071,W,1.59,204.21,230712,,,A*77
$GPRMC,221332.000,A,3748.3135,N,12217.7070,W,1.83,204.76,230712,,,A*7C
$GPRMC,221333.000,A,3748.3124,N,12217.7073,W,2.22,191.21,230712,,,A*7B
$GPRMC,221334.000,A,3748.3114,N,12217.7075,W,1.92,186.93,230712,,,A*7E
$GPRMC,221335.000,A,3748.3099,N,12217.7083,W,1.81,192.17,230712,,,A*79
$GPRMC,221336.000,A,3748.3087,N,12217.7090,W,1.37,196.16,230712,,,A*7F
$GPRMC,221337.000,A,3748.3078,N,12217.7096,W,2.45,197.64,230712,,,A*7A
$GPRMC,221338.000,A,3748.3071,N,12217.7099,W,2.10,191.72,230712,,,A*72
$GPRMC,221339.000,A,3748.3066,N,12217.7103,W,1.23,210.68,230712,,,A*75
$GPRMC,221340.000,A,3748.3066,N,12217.7103,W,0.55,182.12,230712,,,A*7E
$GPRMC,221341.000,A,3748.3064,N,12217.7104,W,0.43,174.50,230712,,,A*72
$GPRMC,221342.000,A,3748.3061,N,12217.7104,W,1.38,171.76,230712,,,A*78
$GPRMC,221343.000,A,3748.3056,N,12217.7104,W,1.62,157.44,230712,,,A*77
$GPRMC,221344.000,A,3748.3054,N,12217.7102,W,1.73,156.86,230712,,,A*7B
$GPRMC,221345.000,A,3748.3063,N,12217.7106,W,0.99,160.70,230712,,,A*73
$GPRMC,221346.000,A,3748.3065,N,12217.7108,W,0.18,15.63,230712,,,A*40
$GPRMC,221347.000,A,3748.3067,N,12217.7107,W,1.09,356.27,230712,,,A*79
$GPRMC,221348.000,A,3748.3070,N,12217.7106,W,1.20,3.09,230712,,,A*75
$GPRMC,221349.000,A,3748.3067,N,12217.7105,W,0.61,136.65,230712,,,A*78
$GPRMC,221350.000,A,3748.3054,N,12217.7103,W,1.80,145.04,230712,,,A*7B
$GPRMC,221351.000,A,3748.3053,N,12217.7104,W,1.05,146.24,230712,,,A*76
$GPRMC,221352.000,A,3748.3059,N,12217.7109,W,0.65,240.19,230712,,,A*7E
$GPRMC,221353.000,A,3748.3059,N,12217.7114,W,1.16,248.12,230712,,,A*75
$GPRMC,221354.000,A,3748.3059,N,12217.7118,W,0.89,241.64,230712,,,A*71
$GPRMC,221355.000,A,3748.3065,N,12217.7123,W,0.38,237.35,230712,,,A*78
$GPRMC,221356.000,A,3748.3064,N,12217.7131,W,1.98,203.33,230712,,,A*73
$GPRMC,221357.000,A,3748.3060,N,12217.7131,W,2.34,196.82,230712,,,A*76
$GPRMC,221358.000,A,3748.3057,N,12217.7129,W,2.57,191.22,230712,,,A*7C
$GPRMC,221359.000,A,3748.3050,N,12217.7128,W,2.01,176.47,230712,,,A*72
$GPRMC,221400.000,A,3748.3045,N,12217.7127,W,2.01,176.47,230712,,,E*76
$GPRMC,221401.000,A,3748.3044,N,12217.7128,W,0.86,143.57,230712,,,A*77
$GPRMC,221402.000,A,3748.3044,N,12217.7129,W,0.40,300.09,230712,,,A*71
$GPRMC,221403.000,A,3748.3047,N,12217.7135,W,0.88,0.70,230712,,,A*77
$GPRMC,221404.000,A,3748.3050,N,12217.7132,W,1.04,321.57,230712,,,A*71
$GPRMC,221405.000,A,3748.3053,N,12217.7127,W,1.07,314.57,230712,,,A*72
$GPRMC,221406.000,A,3748.3054,N,12217.7130,W,0.68,273.51,230712,,,A*7E
$GPRMC,221407.000,A,3748.3052,N,12217.7126,W,0.80,39.58,230712,,,A*4D
$GPRMC,221408.000,A,3748.3045,N,12217.7124,W,0.53,65.25,230712,,,A*4B
$GPRMC,221409.000,A,3748.3042,N,12217.7124,W,1.17,123.98,230712,,,A*79
$GPRMC,221410.000,A,3748.3043,N,12217.7120,W,1.27,168.46,230712,,,A*7B
$GPRMC,221411.000,A,3748.3044,N,12217.7117,W,1.24,156.14,230712,,,A*70
$GPRMC,221412.000,A,3748.3042,N,12217.7115,W,1.24,109.25,230712,,,A*7F
$GPRMC,221413.000,A,3748.3037,N,12217.7108,W,1.51,116.89,230712,,,A*7A
$GPRMC,221414.000,A,3748.3030,N,12217.7109,W,1.43,124.62,230712,,,A*7C
$GPRMC,221415.000,A,3748.3025,N,12217.7104,W,1.58,118.80,230712,,,A*7D
$GPRMC,221416.000,A,3748.3011,N,12217.7102,W,2.21,128.65,230712,,,A*7A
$GPRMC,221417.000,A,3748.2999,N,12217.7097,W,2.55,126.83,230712,,,A*7B
$GPRMC,221418.000,A,3748.2986,N,12217.7091,W,2.91,119.45,230712,,,A*72
$GPRMC,221419.000,A,3748.2977,N,12217.7083,W,2.27,114.30,230712,,,A*7C
$GPRMC,221420.000,A,3748.2968,N,12217.7076,W,2.33,115.60,230712,,,A*73
$GPRMC,221421.000,A,3748.2959,N,12217.7070,W,1.67,115.64,230712,,,A*70
$GPRMC,221422.000,A,3748.2954,N,12217.7066,W,1.13,77.44,230712,,,A*4D
$GPRMC,221423.000,A,3748.2955,N,12217.7062,W,1.48,102.97,230712,,,A*7A
$GPRMC,221424.000,A,3748.2951,N,12217.7059,W,1.08,101.74,230712,,,A*7B
$GPRMC,221425.000,A,3748.2949,N,12217.7057,W,0.86,104.13,230712,,,A*7E
$GPRMC,221426.000,A,3748.2948,N,12217.7054,W,0.86,104.13,230712,,,E*7B
$GPRMC,221427.000,A,3748.2942,N,12217.7049,W,1.68,110.61,230712,,,A*79
$GPRMC,221428.000,A,3748.2935,N,12217.7041,W,2.72,117.86,230712,,,A*78
$GPRMC,221429.000,A,3748.2920,N,12217.7042,W,2.40,118.08,230712,,,A*76
$GPRMC,221430.000,A,3748.2906,N,12217.7048,W,1.79,123.54,230712,,,A*78
$GPRMC,221431.000,A,3748.2900,N,12217.7046,W,1.39,102.82,230712,,,A*7D
$GPRMC,221432.000,A,3748.2898,N,12217.7044,W,1.75,84.72,230712,,,A*44
$GPRMC,221433.000,A,3748.2899,N,12217.7043,W,1.79,45.69,230712,,,A*48
$GPRMC,221434.000,A,3748.2905,N,12217.7032,W,1.97,57.77,230712,,,A*41
$GPRMC,221435.000,A,3748.2908,N,12217.7026,W,1.97,57.77,230712,,,E*4C
$GPRMC,221436.000,A,3748.2911,N,12217.7020,W,1.97,57.77,230712,,,E*41
$GPRMC,221437.000,A,3748.2938,N,12217.7004,W,5.95,34.11,230712,,,A*4A
$GPRMC,221438.000,A,3748.2950,N,12217.7007,W,3.78,23.23,230712,,,A*4A
$GPRMC,221439.000,A,3748.2948,N,12217.6986,W,2.11,59.55,230712,,,A*41
$GPRMC,221440.000,A,3748.2940,N,12217.6955,W,2.59,92.56,230712,,,A*41
$GPRMC,221441.000,A,3748.2934,N,12217.6934,W,3.03,109.80,230712,,,A*72
$GPRMC,221442.000,A,3748.2933,N,12217.6927,W,1.48,96.92,230712,,,A*4D
$GPRMC,221443.000,A,3748.2932,N,12217.6923,W,0.19,68.24,230712,,,A*40
$GPRMC,221444.000,A,3748.2932,N,12217.6922,W,0.19,68.24,230712,,,E*42
$GPRMC,221445.000,A,3748.2932,N,12217.6921,W,0.19,68.24,230712,,,E*40
$GPRMC,221446.000,A,3748.2933,N,12217.6921,W,0.19,68.24,230712,,,E*42
$GPRMC,221447.000,A,3748.2933,N,12217.6920,W,0.19,68.24,230712,,,E*42
$GPRMC,221448.000,A,3748.2933,N,12217.6919,W,0.19,68.24,230712,,,E*47
$GPRMC,221449.000,A,3748.2933,N,12217.6919,W,0.19,68.24,230712,,,E*46
$GPRMC,221450.000,A,3748.2933,N,12217.6918,W,0.19,68.24,230712,,,E*4F
$GPRMC,221451.000,A,3748.2934,N,12217.6918,W,0.19,68.24,230712,,,E*49
$GPRMC,221452.000,A,3748.2934,N,12217.6917,W,0.19,68.24,230712,,,E*45
$GPRMC,221453.000,A,3748.2934,N,12217.6916,W,0.19,68.24,230712,,,E*45
$GPRMC,221454.000,A,3748.2934,N,12217.6916,W,0.19,68.24,230712,,,E*42
$GPRMC,221455.000,A,3748.2934,N,12217.6915,W,0.19,68.24,230712,,,E*40
$GPRMC,221456.000,A,3748.2935,N,12217.6914,W,0.19,68.24,230712,,,E*43
$GPRMC,221457.000,A,3748.2935,N,12217.6914,W,0.19,68.24,230712,,,E*42
$GPRMC,221458.000,A,3748.3006,N,12217.7078,W,2.33,11.32,230712,,,A*40
$GPRMC,221459.000,A,3748.3052,N,12217.7056,W,3.81,43.84,230712,,,A*4E
$GPRMC,221500.000,A,3748.3113,N,12217.7028,W,6.36,40.35,230712,,,A*4E
$GPRMC,221501.000,A,3748.3169,N,12217.6985,W,7.99,31.31,230712,,,A*4B
$GPRMC,221502.000,A,3748.3189,N,12217.6968,W,8.11,25.15,230712,,,A*49
$GPRMC,221503.000,A,3748.3244,N,12217.6929,W,9.79,24.28,230712,,,A*4F
$GPRMC,221504.000,A,3748.3009,N,12217.6986,W,2.26,32.09,230712,,,A*43
