$ADVER,3080,2.3
$GPRMC,213722.318,A,3748.8035,N,12217.8704,W,0.00,,130412,,,A*60
$GPGGA,213723.318,3748.8034,N,12217.8699,W,1,03,11.6,25.1,M,-25.1,M,,0000*64
$GPGSA,A,2,30,32,16,,,,,,,,,,11.6,11.6,1.0*37
$GPRMC,213723.318,A,3748.8034,N,12217.8699,W,0.00,,130412,,,A*65
$GPVTG,,T,,M,0.00,N,0.0,K,N*1C
$GPGGA,213724.318,3748.8032,N,12217.8691,W,1,03,11.6,25.1,M,-25.1,M,,0000*6D
$GPGSA,A,2,30,32,16,,,,,,,,,,11.6,11.6,1.0*37
$GPRMC,213724.318,A,3748.8032,N,12217.8691,W,0.00,,130412,,,A*6C
$GPVTG,,T,,M,0.00,N,0.0,K,N*1C
$GPGGA,213725.318,3748.8030,N,12217.8679,W,1,03,11.6,25.1,M,-25.1,M,,0000*68
$GPGSA,A,2,30,32,16,,,,,,,,,,11.6,11.6,1.0*37
$GPGSV,3,1,12,16,50,095,37,32,39,154,38,30,38,058,37,23,67,348,34*7B
$GPGSV,3,2,12,20,59,185,,13,42,306,,07,28,242,35,10,15,317,*77
$GPGSV,3,3,12,04,14,295,,31,03,052,,03,03,128,,06,02,113,*7F
$GPRMC,213725.318,A,3748.8030,N,12217.8679,W,0.00,,130412,,,A*69
$GPVTG,,T,,M,0.00,N,0.0,K,N*1C
$GPGGA,213726.318,3748.8027,N,12217.8666,W,1,03,11.6,25.1,M,-25.1,M,,0000*63
$GPGSA,A,2,30,32,16,,,,,,,,,,11.6,11.6,1.0*37
$GPRMC,213726.318,A,3748.8027,N,12217.8666,W,0.00,,130412,,,A*62
$GPVTG,,T,,M,0.00,N,0.0,K,N*1C
$GPGGA,213727.318,3748.8025,N,12217.8657,W,1,03,11.6,25.1,M,-25.1,M,,0000*62
$GPGSA,A,2,30,32,16,,,,,,,,,,11.6,11.6,1.0*37
$GPRMC,213727.318,A,3748.8025,N,12217.8657,W,0.00,,130412,,,A*63
$GPVTG,,T,,M,0.00,N,0.0,K,N*1C
$GPGGA,213728.318,3748.8024,N,12217.8653,W,1,03,11.6,25.1,M,-25.1,M,,0000*68
$GPGSA,A,2,30,32,16,,,,,,,,,,11.6,11.6,1.0*37
$GPRMC,213728.318,A,3748.8024,N,12217.8653,W,0.00,,130412,,,A*69
$GPVTG,,T,,M,0.00,N,0.0,K,N*1C
$GPGGA,213729.318,3748.8024,N,12217.8650,W,1,03,11.6,25.1,M,-25.1,M,,0000*6A
$GPGSA,A,2,30,32,16,,,,,,,,,,11.6,11.6,1.0*37
$GPRMC,213729.318,A,3748.8024,N,12217.8650,W,0.00,,130412,,,A*6B
$GPVTG,,T,,M,0.00,N,0.0,K,N*1C
$GPGGA,213730.318,3748.8024,N,12217.8651,W,1,03,11.6,25.1,M,-25.1,M,,0000*63
$GPGSA,A,2,30,32,16,,,,,,,,,,11.6,11.6,1.0*37
$GPGSV,3,1,12,16,50,095,37,32,39,154,38,30,38,058,37,23,67,348,34*7B
$GPGSV,3,2,12,20,59,185,,13,42,306,26,07,28,242,35,10,15,317,*73
$GPGSV,3,3,12,04,14,295,,31,03,052,,03,03,128,,06,02,113,*7F
$GPRMC,213730.318,A,3748.8024,N,12217.8651,W,0.00,,130412,,,A*62
$GPVTG,,T,,M,0.00,N,0.0,K,N*1C
$GPGGA,213731.318,3748.8026,N,12217.8654,W,1,03,11.6,25.1,M,-25.1,M,,0000*65
$GPGSA,A,2,30,32,16,,,,,,,,,,11.6,11.6,1.0*37
$GPRMC,213731.318,A,3748.8026,N,12217.8654,W,0.00,,130412,,,A*64
$GPVTG,,T,,M,0.00,N,0.0,K,N*1C
$GPGGA,213732.318,3748.8027,N,12217.8656,W,1,03,11.6,25.1,M,-25.1,M,,0000*65
$GPGSA,A,2,30,32,16,,,,,,,,,,11.6,11.6,1.0*37
$GPRMC,213732.318,A,3748.8027,N,12217.8656,W,0.00,,130412,,,A*64
$GPVTG,,T,,M,0.00,N,0.0,K,N*1C
$GPGGA,213733.318,3748.8028,N,12217.8658,W,1,03,11.6,25.1,M,-25.1,M,,0000*65
$GPGSA,A,2,30,32,16,,,,,,,,,,11.6,11.6,1.0*37
$GPRMC,213733.318,A,3748.8028,N,12217.8658,W,0.00,,130412,,,A*64
$GPVTG,,T,,M,0.00,N,0.0,K,N*1C
$GPGGA,213734.318,3748.8020,N,12217.8626,W,1,04,1.7,21.1,M,-25.1,M,,0000*50
$GPGSA,A,3,07,30,32,16,,,,,,,,,2.0,1.7,1.0*35
$GPRMC,213734.318,A,3748.8020,N,12217.8626,W,0.08,89.76,130412,,,A*44
$GPVTG,89.76,T,,M,0.08,N,0.1,K,A*34
$GPGGA,213735.317,3748.8054,N,12217.8656,W,1,04,1.7,19.0,M,-25.1,M,,0000*50
$GPGSA,A,3,07,30,32,16,,,,,,,,,2.0,1.7,1.0*35
$GPGSV,3,1,12,16,50,095,37,32,39,154,36,30,38,058,36,07,29,242,35*72
$GPGSV,3,2,12,23,67,348,35,20,59,185,,13,42,306,25,10,15,317,*76
$GPGSV,3,3,12,04,14,295,,31,03,052,,03,03,128,,06,02,113,*7F
$GPRMC,213735.317,A,3748.8054,N,12217.8656,W,0.38,332.60,130412,,,A*79
$GPVTG,332.60,T,,M,0.38,N,0.7,K,A*05
$GPGGA,213736.321,3748.8049,N,12217.8603,W,1,04,1.7,1.8,M,-25.1,M,,0000*6B
$GPGSA,A,3,07,30,32,16,,,,,,,,,2.0,1.7,1.0*35
$GPRMC,213736.321,A,3748.8049,N,12217.8603,W,0.27,24.62,130412,,,A*4B
$GPVTG,24.62,T,,M,0.27,N,0.5,K,A*3F
$GPGGA,213737.000,3748.8023,N,12217.8581,W,1,04,1.7,-15.5,M,-25.1,M,,0000*7A
$GPGSA,A,3,07,30,32,16,,,,,,,,,2.0,1.7,1.0*35
$GPRMC,213737.000,A,3748.8023,N,12217.8581,W,0.07,115.07,130412,,,A*7D
$GPVTG,115.07,T,,M,0.07,N,0.1,K,A*09
$GPGGA,213738.000,3748.8017,N,12217.8575,W,1,04,1.7,-21.0,M,-25.1,M,,0000*7B
$GPGSA,A,3,07,30,32,16,,,,,,,,,2.0,1.7,1.0*35
$GPRMC,213738.000,A,3748.8017,N,12217.8575,W,0.11,94.87,130412,,,A*49
$GPVTG,94.87,T,,M,0.11,N,0.2,K,A*3D
$GPGGA,213739.000,3748.8016,N,12217.8567,W,1,04,1.7,-25.7,M,-25.1,M,,0000*7B
$GPGSA,A,3,07,30,32,16,,,,,,,,,2.0,1.7,1.0*35
$GPRMC,213739.000,A,3748.8016,N,12217.8567,W,0.11,95.50,130412,,,A*41
$GPVTG,95.50,T,,M,0.11,N,0.2,K,A*36
$GPGGA,213740.000,3748.8017,N,12217.8571,W,1,04,1.7,-23.9,M,-25.1,M,,0000*7B
$GPGSA,A,3,07,30,32,16,,,,,,,,,2.0,1.7,1.0*35
$GPGSV,3,1,12,16,50,095,38,32,39,154,37,30,38,058,36,07,29,242,36*7F
$GPGSV,3,2,12,23,67,348,35,20,59,185,29,13,42,306,25,10,15,317,*7D
$GPGSV,3,3,12,04,14,295,25,31,03,052,26,03,03,128,,06,02,113,*7C
$GPRMC,213740.000,A,3748.8017,N,12217.8571,W,0.11,96.70,130412,,,A*48
$GPGGA,213741.000,3748.8015,N,12217.8570,W,1,04,1.7,-23.9,M,-25.1,M,,0000*79
$GPGSA,A,3,07,30,32,16,,,,,,,,,2.0,1.7,1.0*35
$GPRMC,213741.000,A,3748.8015,N,12217.8570,W,0.10,95.12,130412,,,A*4C
$GPVTG,95.12,T,,M,0.10,N,0.2,K,A*31
$GPGGA,213742.000,3748.8011,N,12217.8569,W,1,04,1.7,-24.4,M,-25.1,M,,0000*7C
$GPGSA,A,3,07,30,32,16,,,,,,,,,2.0,1.7,1.0*35
$GPRMC,213742.000,A,3748.8011,N,12217.8569,W,0.13,116.43,130412,,,A*7E
$GPVTG,116.43,T,,M,0.13,N,0.2,K,A*0C
$GPGGA,213743.000,3748.8007,N,12217.8573,W,1,04,1.7,-21.0,M,-25.1,M,,0000*70
$GPGSA,A,3,07,30,32,16,,,,,,,,,2.0,1.7,1.0*35
$GPRMC,213743.000,A,3748.8007,N,12217.8573,W,0.11,115.82,130412,,,A*7F
$GPVTG,115.82,T,,M,0.11,N,0.2,K,A*00
$GPGGA,213744.000,3748.8006,N,12217.8575,W,1,04,1.7,-18.7,M,-25.1,M,,0000*7D
$GPGSA,A,3,07,30,32,16,,,,,,,,,2.0,1.7,1.0*35
$GPRMC,213744.000,A,3748.8006,N,12217.8575,W,0.13,108.11,130412,,,A*7B
$GPVTG,108.11,T,,M,0.13,N,0.2,K,A*04
$GPGGA,213745.000,3748.8005,N,12217.8576,W,1,04,1.7,-17.5,M,-25.1,M,,0000*71
$GPGSA,A,3,07,30,32,16,,,,,,,,,2.0,1.7,1.0*35
$GPGSV,3,1,12,16,50,095,38,32,39,154,37,30,38,058,36,07,29,242,36*7F
$GPGSV,3,2,12,23,67,348,35,20,59,185,29,13,42,306,25,10,15,317,*7D
$GPGSV,3,3,12,04,14,295,25,31,03,052,25,03,03,128,,06,02,113,*7F
$GPRMC,213745.000,A,3748.8005,N,12217.8576,W,0.12,112.03,130412,,,A*73
$GPVTG,112.03,T,,M,0.12,N,0.2,K,A*0D
$GPGGA,213746.000,3748.8003,N,12217.8576,W,1,04,1.7,-16.6,M,-25.1,M,,0000*76
$GPGSA,A,3,07,30,32,16,,,,,,,,,2.0,1.7,1.0*35
$GPRMC,213746.000,A,3748.8003,N,12217.8576,W,0.12,110.40,130412,,,A*73
$GPVTG,110.40,T,,M,0.12,N,0.2,K,A*08
$GPGGA,213747.000,3748.8001,N,12217.8576,W,1,04,1.7,-16.1,M,-25.1,M,,0000*72
$GPGSA,A,3,07,30,32,16,,,,,,,,,2.0,1.7,1.0*35
$GPRMC,213747.000,A,3748.8001,N,12217.8576,W,0.12,113.61,130412,,,A*70
$GPVTG,113.61,T,,M,0.12,N,0.2,K,A*08
$GPGGA,213748.000,3748.8000,N,12217.8575,W,1,04,1.7,-15.9,M,-25.1,M,,0000*74
$GPGSA,A,3,07,30,32,16,,,,,,,,,2.0,1.7,1.0*35
$GPRMC,213748.000,A,3748.8000,N,12217.8575,W,0.14,113.65,130412,,,A*7F
$GPVTG,113.65,T,,M,0.14,N,0.3,K,A*0B
$GPGGA,213749.000,3748.7998,N,12217.8574,W,1,04,1.7,-15.8,M,-25.1,M,,0000*72
$GPGSA,A,3,07,30,32,16,,,,,,,,,2.0,1.7,1.0*35
$GPRMC,213749.000,A,3748.7998,N,12217.8574,W,0.14,107.99,130412,,,A*7E
$GPVTG,107.99,T,,M,0.14,N,0.3,K,A*0D
$GPGGA,213750.000,3748.7997,N,12217.8573,W,1,04,1.7,-15.8,M,-25.1,M,,0000*72
$GPGSA,A,3,07,30,32,16,,,,,,,,,2.0,1.7,1.0*35
$GPGSV,3,1,12,23,67,348,35,20,59,185,29,16,50,095,38,13,42,306,25*7B
$GPGSV,3,2,12,32,39,154,36,30,38,058,36,07,29,242,36,10,15,317,*78
$GPGSV,3,3,12,04,14,295,25,03,03,128,,31,03,052,20,06,02,113,*7A
$GPRMC,213750.000,A,3748.7997,N,12217.8573,W,0.13,114.97,130412,,,A*75
$GPVTG,114.97,T,,M,0.13,N,0.2,K,A*07
$GPGGA,213751.000,3748.7995,N,12217.8572,W,1,04,1.7,-15.8,M,-25.1,M,,0000*70
$GPGSA,A,3,07,30,32,16,,,,,,,,,2.0,1.7,1.0*35
$GPRMC,213751.000,A,3748.7995,N,12217.8572,W,0.12,104.46,130412,,,A*7B
$GPVTG,104.46,T,,M,0.12,N,0.2,K,A*0B
$GPGGA,213752.000,3748.7994,N,12217.8571,W,1,04,1.7,-15.8,M,-25.1,M,,0000*71
$GPGSA,A,3,07,30,32,16,,,,,,,,,2.0,1.7,1.0*35
$GPRMC,213752.000,A,3748.7994,N,12217.8571,W,0.12,113.53,130412,,,A*78
$GPVTG,113.53,T,,M,0.12,N,0.2,K,A*09
$GPGGA,213753.000,3748.7993,N,12217.8570,W,1,04,1.7,-15.8,M,-25.1,M,,0000*76
$GPGSA,A,3,07,30,32,16,,,,,,,,,2.0,1.7,1.0*35
$GPRMC,213753.000,A,3748.7993,N,12217.8570,W,0.11,104.50,130412,,,A*79
$GPVTG,104.50,T,,M,0.11,N,0.2,K,A*0F
$GPGGA,213754.000,3748.7992,N,12217.8569,W,1,04,1.7,-15.6,M,-25.1,M,,0000*76
$GPGSA,A,3,07,30,32,16,,,,,,,,,2.0,1.7,1.0*35
$GPRMC,213754.000,A,3748.7992,N,12217.8569,W,0.13,106.38,130412,,,A*79
$GPVTG,106.38,T,,M,0.13,N,0.2,K,A*01
$GPGGA,213755.000,3748.7992,N,12217.8569,W,1,04,1.7,-15.5,M,-25.1,M,,0000*74
$GPGSA,A,3,07,30,32,16,,,,,,,,,2.0,1.7,1.0*35
$GPGSV,3,1,12,23,67,348,35,20,59,185,30,16,50,095,38,13,42,306,25*73
$GPGSV,3,2,12,32,39,154,36,30,38,058,36,07,29,242,36,10,15,317,*78
$GPGSV,3,3,12,04,14,295,25,03,03,128,,31,03,052,20,06,02,113,*7A
$GPRMC,213755.000,A,3748.7992,N,12217.8569,W,0.12,105.64,130412,,,A*73
$GPGGA,213756.000,3748.7991,N,12217.8569,W,1,04,1.7,-15.3,M,-25.1,M,,0000*72
$GPGSA,A,3,07,30,32,16,,,,,,,,,2.0,1.7,1.0*35
$GPRMC,213756.000,A,3748.7991,N,12217.8569,W,0.10,103.58,130412,,,A*78
$GPVTG,103.58,T,,M,0.10,N,0.2,K,A*01
$GPGGA,213757.000,3748.7990,N,12217.8568,W,1,04,1.7,-15.1,M,-25.1,M,,0000*71
$GPGSA,A,3,07,30,32,16,,,,,,,,,2.0,1.7,1.0*35
$GPRMC,213757.000,A,3748.7990,N,12217.8568,W,0.10,106.65,130412,,,A*72
$GPVTG,106.65,T,,M,0.10,N,0.2,K,A*0A
$GPGGA,213758.000,3748.7990,N,12217.8568,W,1,04,1.7,-14.9,M,-25.1,M,,0000*77
$GPGSA,A,3,07,30,32,16,,,,,,,,,2.0,1.7,1.0*35
$GPRMC,213758.000,A,3748.7990,N,12217.8568,W,0.11,103.75,130412,,,A*78
$GPVTG,103.75,T,,M,0.11,N,0.2,K,A*0F
$GPGGA,213759.000,3748.7989,N,12217.8568,W,1,04,1.7,-14.7,M,-25.1,M,,0000*70
$GPGSA,A,3,07,30,32,16,,,,,,,,,2.0,1.7,1.0*35
$GPRMC,213759.000,A,3748.7989,N,12217.8568,W,0.12,103.95,130412,,,A*7C
$GPVTG,103.95,T,,M,0.12,N,0.2,K,A*02
$GPGGA,213800.000,3748.7988,N,12217.8568,W,1,04,1.7,-14.6,M,-25.1,M,,0000*73
$GPGSA,A,3,07,30,32,16,,,,,,,,,2.0,1.7,1.0*35
$GPGSV,3,1,12,23,67,348,35,20,59,185,30,16,50,095,39,13,42,306,24*73
$GPGSV,3,2,12,32,39,154,36,30,38,058,37,07,29,242,36,10,15,317,*79
$GPGSV,3,3,12,04,14,295,24,03,03,128,,31,03,052,19,06,02,113,*71
$GPRMC,213800.000,A,3748.7988,N,12217.8568,W,0.08,100.03,130412,,,A*79
$GPVTG,100.03,T,,M,0.08,N,0.1,K,A*06
$GPGGA,213801.000,3748.7988,N,12217.8568,W,1,04,1.7,-14.5,M,-25.1,M,,0000*71
$GPGSA,A,3,07,30,32,16,,,,,,,,,2.0,1.7,1.0*35
$GPRMC,213801.000,A,3748.7988,N,12217.8568,W,0.12,99.41,130412,,,A*44
$GPVTG,99.41,T,,M,0.12,N,0.2,K,A*39
$GPGGA,213802.000,3748.7988,N,12217.8568,W,1,04,1.7,-14.4,M,-25.1,M,,0000*73
$GPGSA,A,3,07,30,32,16,,,,,,,,,2.0,1.7,1.0*35
$GPRMC,213802.000,A,3748.7988,N,12217.8568,W,0.08,98.58,130412,,,A*45
$GPVTG,98.58,T,,M,0.08,N,0.1,K,A*38
$GPGGA,213803.000,3748.7987,N,12217.8567,W,1,04,1.7,-14.3,M,-25.1,M,,0000*75
$GPGSA,A,3,07,30,32,16,,,,,,,,,2.0,1.7,1.0*35
$GPRMC,213803.000,A,3748.7987,N,12217.8567,W,0.13,104.23,130412,,,A*76
$GPVTG,104.23,T,,M,0.13,N,0.2,K,A*09
$GPGGA,213804.000,3748.7991,N,12217.8576,W,1,06,1.4,-7.8,M,-25.1,M,,0000*4D
$GPGSA,A,3,07,30,32,16,23,20,,,,,,,3.2,1.4,2.9*3C
$GPRMC,213804.000,A,3748.7991,N,12217.8576,W,0.06,94.24,130412,,,A*4D
$GPVTG,94.24,T,,M,0.06,N,0.1,K,A*31
$GPGGA,213805.000,3748.7993,N,12217.8581,W,1,06,1.4,-4.5,M,-25.1,M,,0000*48
$GPGSA,A,3,07,30,32,16,23,20,,,,,,,3.2,1.4,2.9*3C
$GPGSV,3,1,12,23,67,349,34,20,59,184,31,16,50,094,39,13,42,306,25*73
$GPGSV,3,2,12,32,39,154,36,30,38,058,37,07,29,243,36,10,15,317,*78
$GPGSV,3,3,12,04,14,295,23,03,03,128,,31,03,052,18,06,02,113,*77
$GPRMC,213805.000,A,3748.7993,N,12217.8581,W,0.07,105.82,130412,,,A*72
$GPVTG,105.82,T,,M,0.07,N,0.1,K,A*05
$GPGGA,213806.000,3748.7994,N,12217.8583,W,1,06,1.4,-2.4,M,-25.1,M,,0000*49
$GPGSA,A,3,07,30,32,16,23,20,,,,,,,3.2,1.4,2.9*3C
$GPRMC,213806.000,A,3748.7994,N,12217.8583,W,0.07,124.31,130412,,,A*7F
$GPVTG,124.31,T,,M,0.07,N,0.1,K,A*0E
$GPGGA,213807.000,3748.7995,N,12217.8585,W,1,06,1.4,-0.9,M,-25.1,M,,0000*40
$GPGSA,A,3,07,30,32,16,23,20,,,,,,,3.2,1.4,2.9*3C
$GPRMC,213807.000,A,3748.7995,N,12217.8585,W,0.08,113.77,130412,,,A*70
$GPVTG,113.77,T,,M,0.08,N,0.1,K,A*07
$GPGGA,213808.000,3748.7995,N,12217.8587,W,1,06,1.4,0.3,M,-25.1,M,,0000*6A
$GPGSA,A,3,07,30,32,16,23,20,,,,,,,3.2,1.4,2.9*3C
$GPRMC,213808.000,A,3748.7995,N,12217.8587,W,0.07,116.13,130412,,,A*75
$GPVTG,116.13,T,,M,0.07,N,0.1,K,A*0F
$GPGGA,213809.000,3748.7995,N,12217.8586,W,1,06,1.4,0.3,M,-25.1,M,,0000*6A
$GPGSA,A,3,07,30,32,16,23,20,,,,,,,3.2,1.4,2.9*3C
$GPRMC,213809.000,A,3748.7995,N,12217.8586,W,0.09,130.38,130412,,,A*76
$GPVTG,130.38,T,,M,0.09,N,0.2,K,A*0F
$GPGGA,213810.000,3748.7995,N,12217.8586,W,1,06,1.4,0.3,M,-25.1,M,,0000*62
$GPGSA,A,3,07,30,32,16,23,20,,,,,,,3.2,1.4,2.9*3C
$GPGSV,3,1,12,23,67,349,34,20,59,184,31,16,50,094,39,13,42,306,26*70
$GPGSV,3,2,12,32,39,154,37,30,38,058,36,07,29,243,36,10,15,317,*78
$GPGSV,3,3,12,04,14,295,18,03,03,128,,31,03,052,16,06,02,113,*71
$GPVTG,121.62,T,,M,0.11,N,0.2,K,A*09
$GPGGA,213811.000,3748.7995,N,12217.8586,W,1,06,1.4,0.2,M,-25.1,M,,0000*62
$GPGSA,A,3,07,30,32,16,23,20,,,,,,,3.2,1.4,2.9*3C
$GPRMC,213811.000,A,3748.7995,N,12217.8586,W,0.09,114.04,130412,,,A*76
$GPVTG,114.04,T,,M,0.09,N,0.2,K,A*06
$GPGGA,213812.000,3748.7995,N,12217.8585,W,1,06,1.4,0.2,M,-25.1,M,,0000*62
$GPGSA,A,3,07,30,32,16,23,20,,,,,,,3.2,1.4,2.9*3C
$GPRMC,213812.000,A,3748.7995,N,12217.8585,W,0.11,128.02,130412,,,A*76
$GPVTG,128.02,T,,M,0.11,N,0.2,K,A*06
$GPGGA,213813.000,3748.7994,N,12217.8585,W,1,06,1.4,0.1,M,-25.1,M,,0000*61
$GPGSA,A,3,07,30,32,16,23,20,,,,,,,3.2,1.4,2.9*3C
$GPRMC,213813.000,A,3748.7994,N,12217.8585,W,0.10,113.05,130412,,,A*78
$GPVTG,113.05,T,,M,0.10,N,0.2,K,A*08
$GPGGA,213814.000,3748.7994,N,12217.8585,W,1,06,1.4,-0.0,M,-25.1,M,,0000*4A
$GPGSA,A,3,07,30,32,16,23,20,,,,,,,3.2,1.4,2.9*3C
$GPRMC,213814.000,A,3748.7994,N,12217.8585,W,0.08,118.85,130412,,,A*75
$GPVTG,118.85,T,,M,0.08,N,0.2,K,A*02
$GPGGA,213815.000,3748.7994,N,12217.8584,W,1,06,1.4,-0.1,M,-25.1,M,,0000*4B
$GPGSA,A,3,07,30,32,16,23,20,,,,,,,3.2,1.4,2.9*3C
$GPGSV,3,1,12,23,67,349,34,20,59,184,32,16,50,094,39,13,42,306,26*73
$GPGSV,3,2,12,32,39,154,37,30,38,058,36,07,29,243,36,10,15,317,*78
$GPGSV,3,3,12,04,14,295,17,03,03,128,,31,03,052,15,06,02,113,*7D
$GPRMC,213815.000,A,3748.7994,N,12217.8584,W,0.11,117.14,130412,,,A*7A
$GPVTG,117.14,T,,M,0.11,N,0.2,K,A*0D
$GPGGA,213816.000,3748.7994,N,12217.8584,W,1,06,1.4,-0.2,M,-25.1,M,,0000*4B
$GPGSA,A,3,07,30,32,16,23,20,,,,,,,3.2,1.4,2.9*3C
$GPRMC,213816.000,A,3748.7994,N,12217.8584,W,0.11,114.18,130412,,,A*76
$GPVTG,114.18,T,,M,0.11,N,0.2,K,A*02
$GPGGA,213817.000,3748.7994,N,12217.8584,W,1,06,1.4,-0.3,M,-25.1,M,,0000*4B
$GPGSA,A,3,07,30,32,16,23,20,,,,,,,3.2,1.4,2.9*3C
$GPRMC,213817.000,A,3748.7994,N,12217.8584,W,0.11,114.40,130412,,,A*7A
$GPVTG,114.40,T,,M,0.11,N,0.2,K,A*0F
$GPGGA,213818.000,3748.7994,N,12217.8583,W,1,06,1.4,-0.4,M,-25.1,M,,0000*44
$GPGSA,A,3,07,30,32,16,23,20,,,,,,,3.2,1.4,2.9*3C
$GPRMC,213818.000,A,3748.7994,N,12217.8583,W,0.09,103.89,130412,,,A*78
$GPVTG,103.89,T,,M,0.09,N,0.2,K,A*05
$GPGGA,213819.000,3748.7994,N,12217.8583,W,1,06,1.4,-0.5,M,-25.1,M,,0000*44
$GPGSA,A,3,07,30,32,16,23,20,,,,,,,3.2,1.4,2.9*3C
$GPRMC,213819.000,A,3748.7994,N,12217.8583,W,0.12,117.03,130412,,,A*74
$GPVTG,117.03,T,,M,0.12,N,0.2,K,A*08
$GPGGA,213820.000,3748.7994,N,12217.8582,W,1,06,1.4,-0.7,M,-25.1,M,,0000*4D
$GPGSA,A,3,07,30,32,16,23,20,,,,,,,3.2,1.4,2.9*3C
$GPGSV,3,1,12,23,67,349,34,20,59,184,32,16,50,094,39,13,42,306,27*72
$GPGSV,3,2,12,32,39,154,37,30,38,058,36,07,29,243,37,10,15,317,*79
$GPGSV,3,3,12,04,14,295,17,03,03,127,,31,03,052,,06,02,113,*76
$GPRMC,213820.000,A,3748.7994,N,12217.8582,W,0.10,112.24,130412,,,A*7D
$GPVTG,112.24,T,,M,0.10,N,0.2,K,A*0A
$GPGGA,213821.000,3748.7994,N,12217.8582,W,1,06,1.4,-0.8,M,-25.1,M,,0000*43
$GPGSA,A,3,07,30,32,16,23,20,,,,,,,3.2,1.4,2.9*3C
$GPRMC,213821.000,A,3748.7994,N,12217.8582,W,0.12,100.06,130412,,,A*7D
$GPVTG,100.06,T,,M,0.12,N,0.2,K,A*0B
$GPGGA,213822.000,3748.7995,N,12217.8582,W,1,06,1.4,-1.0,M,-25.1,M,,0000*48
$GPGSA,A,3,07,30,32,16,23,20,,,,,,,3.2,1.4,2.9*3C
$GPRMC,213822.000,A,3748.7995,N,12217.8582,W,0.10,103.76,130412,,,A*79
$GPVTG,103.76,T,,M,0.10,N,0.2,K,A*0D
$GPGGA,213823.000,3748.7995,N,12217.8581,W,1,06,1.4,-1.1,M,-25.1,M,,0000*4B
$GPGSA,A,3,07,30,32,16,23,20,,,,,,,3.2,1.4,2.9*3C
$GPRMC,213823.000,A,3748.7995,N,12217.8581,W,0.12,110.36,130412,,,A*7F
$GPVTG,110.36,T,,M,0.12,N,0.2,K,A*09
$GPGGA,213824.000,3748.7995,N,12217.8581,W,1,06,1.4,-1.3,M,-25.1,M,,0000*4E
$GPGSA,A,3,07,30,32,16,23,20,,,,,,,3.2,1.4,2.9*3C
$GPRMC,213824.000,A,3748.7995,N,12217.8581,W,0.11,110.03,130412,,,A*7D
$GPVTG,110.03,T,,M,0.11,N,0.2,K,A*0C
$GPGGA,213825.000,3748.7995,N,12217.8581,W,1,06,1.4,-1.4,M,-25.1,M,,0000*48
$GPGSA,A,3,07,30,32,16,23,20,,,,,,,3.2,1.4,2.9*3C
$GPGSV,3,1,12,23,67,349,34,20,59,184,31,16,50,094,39,13,42,306,26*70
$GPGSV,3,2,12,32,39,154,38,30,38,058,36,07,29,243,37,10,15,317,*76
$GPGSV,3,3,12,04,14,295,,03,03,127,,31,03,052,,06,02,113,*70
$GPVTG,100.94,T,,M,0.12,N,0.2,K,A*00
$GPGGA,213826.000,3748.7995,N,12217.8580,W,1,06,1.4,-1.6,M,-25.1,M,,0000*48
$GPGSA,A,3,07,30,32,16,23,20,,,,,,,3.2,1.4,2.9*3C
$GPRMC,213826.000,A,3748.7995,N,12217.8580,W,0.11,109.44,130412,,,A*75
$GPVTG,109.44,T,,M,0.11,N,0.2,K,A*07
$GPGGA,213827.000,3748.7996,N,12217.8580,W,1,06,1.4,-1.8,M,-25.1,M,,0000*44
$GPGSA,A,3,07,30,32,16,23,20,,,,,,,3.2,1.4,2.9*3C
$GPRMC,213827.000,A,3748.7996,N,12217.8580,W,0.12,99.60,130412,,,A*4A
$GPVTG,99.60,T,,M,0.12,N,0.2,K,A*3A
$GPGGA,213828.000,3748.7997,N,12217.8583,W,1,06,1.4,0.8,M,-25.1,M,,0000*65
$GPGSA,A,3,07,30,32,16,23,20,,,,,,,3.2,1.4,2.9*3C
$GPRMC,213828.000,A,3748.7997,N,12217.8583,W,0.03,65.09,130412,,,A*4B
$GPVTG,65.09,T,,M,0.03,N,0.1,K,A*35
$GPGGA,213829.000,3748.7996,N,12217.8581,W,1,05,1.9,1.4,M,-25.1,M,,0000*64
$GPGSA,A,3,07,30,32,16,20,,,,,,,,4.6,1.9,4.2*3E
$GPRMC,213829.000,A,3748.7996,N,12217.8581,W,0.82,139.94,130412,,,A*7C
$GPVTG,139.94,T,,M,0.82,N,1.5,K,A*05
$GPGGA,213830.000,3748.8000,N,12217.8580,W,1,05,2.9,1.7,M,-25.1,M,,0000*64
$GPGSA,A,3,30,32,16,23,20,,,,,,,,7.4,2.9,6.9*33
$GPGSV,3,1,12,23,67,349,25,20,59,184,22,16,50,094,29,13,42,306,25*70
$GPGSV,3,2,12,32,39,154,25,30,38,058,25,07,29,243,17,10,15,317,*7A
$GPGSV,3,3,12,04,14,295,,03,03,127,,31,03,052,,06,02,113,*70
$GPRMC,213830.000,A,3748.8000,N,12217.8580,W,0.34,77.28,130412,,,A*4D
$GPVTG,77.28,T,,M,0.34,N,0.6,K,A*36
$GPGGA,213831.000,3748.8003,N,12217.8584,W,1,05,2.9,3.9,M,-25.1,M,,0000*6E
$GPGSA,A,3,30,32,16,23,20,,,,,,,,7.4,2.9,6.9*33
$GPRMC,213831.000,A,3748.8003,N,12217.8584,W,0.31,253.17,130412,,,A*76
$GPVTG,253.17,T,,M,0.31,N,0.6,K,A*0B
$GPGGA,213832.000,3748.8007,N,12217.8586,W,1,06,1.4,3.9,M,-25.1,M,,0000*66
$GPGSA,A,3,07,30,32,16,23,20,,,,,,,3.2,1.4,2.9*3C
$GPRMC,213832.000,A,3748.8007,N,12217.8586,W,0.54,256.74,130412,,,A*70
$GPVTG,256.74,T,,M,0.54,N,1.0,K,A*0F
$GPGGA,213833.000,3748.8009,N,12217.8584,W,1,06,1.4,3.1,M,-25.1,M,,0000*63
$GPGSA,A,3,07,30,32,16,23,20,,,,,,,3.2,1.4,2.9*3C
$GPRMC,213833.000,A,3748.8009,N,12217.8584,W,0.23,237.97,130412,,,A*77
$GPVTG,237.97,T,,M,0.23,N,0.4,K,A*00
$GPGGA,213834.000,3748.8007,N,12217.8587,W,1,06,1.4,3.3,M,-25.1,M,,0000*6B
$GPGSA,A,3,07,30,32,16,23,20,,,,,,,3.2,1.4,2.9*3C
$GPRMC,213834.000,A,3748.8007,N,12217.8587,W,0.15,145.52,130412,,,A*77
$GPVTG,145.52,T,,M,0.15,N,0.3,K,A*0D
$GPGGA,213835.000,3748.8004,N,12217.8593,W,1,06,1.4,3.6,M,-25.1,M,,0000*69
$GPGSA,A,3,07,30,32,16,23,20,,,,,,,3.2,1.4,2.9*3C
$GPGSV,3,1,12,23,67,349,31,20,59,184,22,16,50,094,32,13,42,306,28*72
$GPGSV,3,2,12,32,39,154,28,30,38,058,28,07,29,243,22,10,15,317,26*78
$GPGSV,3,3,12,04,14,295,28,03,03,127,,31,03,052,,06,02,113,*7A
$GPRMC,213835.000,A,3748.8004,N,12217.8593,W,0.81,225.62,130412,,,A*7B
$GPVTG,225.62,T,,M,0.81,N,1.5,K,A*01
$GPGGA,213836.000,3748.8004,N,12217.8599,W,1,06,1.4,2.4,M,-25.1,M,,0000*63
$GPGSA,A,3,07,30,32,16,23,20,,,,,,,3.2,1.4,2.9*3C
$GPRMC,213836.000,A,3748.8004,N,12217.8599,W,0.58,237.24,130412,,,A*77
$GPVTG,237.24,T,,M,0.58,N,1.1,K,A*00
$GPGGA,213837.000,3748.8004,N,12217.8599,W,1,06,1.4,2.6,M,-25.1,M,,0000*60
$GPGSA,A,3,07,30,32,16,23,20,,,,,,,3.2,1.4,2.9*3C
$GPRMC,213837.000,A,3748.8004,N,12217.8599,W,0.47,146.44,130412,,,A*7B
$GPVTG,146.44,T,,M,0.47,N,0.9,K,A*04
$GPGGA,213838.000,3748.8002,N,12217.8594,W,1,06,1.4,3.1,M,-25.1,M,,0000*62
$GPGSA,A,3,07,30,32,16,23,20,,,,,,,3.2,1.4,2.9*3C
$GPRMC,213838.000,A,3748.8002,N,12217.8594,W,0.66,112.72,130412,,,A*78
$GPVTG,112.72,T,,M,0.66,N,1.2,K,A*09
$GPGGA,213839.000,3748.8003,N,12217.8589,W,1,06,1.4,5.6,M,-25.1,M,,0000*6F
$GPGSA,A,3,07,30,32,16,23,20,,,,,,,3.2,1.4,2.9*3C
$GPRMC,213839.000,A,3748.8003,N,12217.8589,W,0.08,153.23,130412,,,A*7D
$GPVTG,153.23,T,,M,0.08,N,0.1,K,A*02
$GPGGA,213840.000,3748.7999,N,12217.8587,W,1,06,1.4,8.9,M,-25.1,M,,0000*68
$GPGSA,A,3,07,30,32,16,23,20,,,,,,,3.2,1.4,2.9*3C
$GPGSV,3,1,12,23,67,349,25,20,59,184,24,16,50,094,32,13,42,306,28*71
$GPGSV,3,2,12,32,39,154,25,30,38,058,33,07,29,243,23,10,15,317,29*71
$GPGSV,3,3,12,04,14,295,27,03,03,127,,31,03,052,,06,02,113,*75
$GPRMC,213840.000,A,3748.7999,N,12217.8587,W,0.45,185.34,130412,,,A*7C
$GPGGA,213841.000,3748.7998,N,12217.8588,W,1,06,1.4,9.2,M,-25.1,M,,0000*6D
$GPGSA,A,3,07,30,32,16,23,20,,,,,,,3.2,1.4,2.9*3C
$GPRMC,213841.000,A,3748.7998,N,12217.8588,W,0.39,179.75,130412,,,A*7E
$GPVTG,179.75,T,,M,0.39,N,0.7,K,A*0D
$GPGGA,213842.000,3748.8000,N,12217.8584,W,1,06,1.4,10.0,M,-25.1,M,,0000*5F
$GPGSA,A,3,07,30,32,16,23,20,,,,,,,3.2,1.4,2.9*3C
$GPRMC,213842.000,A,3748.8000,N,12217.8584,W,0.29,82.38,130412,,,A*4B
$GPVTG,82.38,T,,M,0.29,N,0.5,K,A*32
$GPGGA,213843.000,3748.8000,N,12217.8583,W,1,05,2.8,11.1,M,-25.1,M,,0000*55
$GPGSA,A,3,30,32,16,23,20,,,,,,,,7.4,2.8,6.8*33
$GPRMC,213843.000,A,3748.8000,N,12217.8583,W,0.70,109.75,130412,,,A*7A
$GPVTG,109.75,T,,M,0.70,N,1.3,K,A*02
$GPGGA,213844.000,3748.8001,N,12217.8583,W,1,06,1.4,10.3,M,-25.1,M,,0000*5C
$GPGSA,A,3,07,30,32,16,23,20,,,,,,,3.2,1.4,2.9*3C
$GPRMC,213844.000,A,3748.8001,N,12217.8583,W,0.52,352.48,130412,,,A*7E
$GPVTG,352.48,T,,M,0.52,N,1.0,K,A*03
$GPGGA,213845.000,3748.8002,N,12217.8579,W,1,05,2.8,10.6,M,-25.1,M,,0000*52
$GPGSA,A,3,30,32,16,23,20,,,,,,,,7.4,2.8,6.8*33
$GPGSV,3,1,12,23,67,349,27,20,59,184,20,16,50,094,21,13,42,306,32*7E
$GPGSV,3,2,12,32,39,154,24,30,38,058,20,07,29,243,17,10,15,317,37*7A
$GPGSV,3,3,12,04,14,295,38,03,03,127,,31,03,052,23,06,02,113,*7A
$GPRMC,213845.000,A,3748.8002,N,12217.8579,W,0.59,71.40,130412,,,A*48
$GPVTG,71.40,T,,M,0.59,N,1.1,K,A*33
$GPGGA,213846.000,3748.8003,N,12217.8578,W,1,05,2.8,12.4,M,-25.1,M,,0000*51
$GPGSA,A,3,30,32,16,23,20,,,,,,,,7.4,2.8,6.8*33
$GPRMC,213846.000,A,3748.8003,N,12217.8578,W,1.06,86.50,130412,,,A*49
$GPVTG,86.50,T,,M,1.06,N,2.0,K,A*33
$GPGGA,213847.000,3748.8004,N,12217.8581,W,1,06,1.4,12.9,M,-25.1,M,,0000*50
$GPGSA,A,3,07,30,32,16,23,20,,,,,,,3.2,1.4,2.9*3C
$GPRMC,213847.000,A,3748.8004,N,12217.8581,W,0.23,351.78,130412,,,A*7C
$GPVTG,351.78,T,,M,0.23,N,0.4,K,A*00
$GPGGA,213848.000,3748.8006,N,12217.8596,W,1,06,1.4,10.9,M,-25.1,M,,0000*59
$GPGSA,A,3,07,30,32,16,23,20,,,,,,,3.2,1.4,2.9*3C
$GPRMC,213848.000,A,3748.8006,N,12217.8596,W,0.29,259.89,130412,,,A*7A
$GPVTG,259.89,T,,M,0.29,N,0.5,K,A*0C
$GPGGA,213849.000,3748.8013,N,12217.8604,W,1,06,1.4,10.1,M,-25.1,M,,0000*5C
$GPGSA,A,3,07,30,32,16,23,20,,,,,,,3.2,1.4,2.9*3C
$GPRMC,213849.000,A,3748.8013,N,12217.8604,W,1.02,143.96,130412,,,A*79
$GPVTG,143.96,T,,M,1.02,N,1.9,K,A*0F
$GPGGA,213850.000,3748.8008,N,12217.8603,W,1,06,1.4,9.9,M,-25.1,M,,0000*69
$GPGSA,A,3,07,30,32,16,23,20,,,,,,,3.2,1.4,2.9*3C
$GPGSV,3,1,12,23,67,349,27,20,59,184,26,16,50,094,23,13,42,306,33*7B
$GPGSV,3,2,12,32,39,154,26,30,38,058,28,07,29,243,31,10,15,317,31*72
$GPGSV,3,3,12,04,14,295,31,03,03,127,14,31,03,052,25,06,02,113,*70
$GPRMC,213850.000,A,3748.8008,N,12217.8603,W,1.31,143.94,130412,,,A*7E
$GPVTG,143.94,T,,M,1.31,N,2.4,K,A*03
$GPGGA,213851.000,3748.8001,N,12217.8609,W,1,06,1.4,10.8,M,-25.1,M,,0000*52
$GPGSA,A,3,07,30,32,16,23,20,,,,,,,3.2,1.4,2.9*3C
$GPRMC,213851.000,A,3748.8001,N,12217.8609,W,0.28,310.33,130412,,,A*7C
$GPVTG,310.33,T,,M,0.28,N,0.5,K,A*00
$GPGGA,213852.000,3748.8005,N,12217.8608,W,1,05,2.8,10.1,M,-25.1,M,,0000*51
$GPGSA,A,3,30,32,16,23,20,,,,,,,,7.4,2.8,6.8*33
$GPRMC,213852.000,A,3748.8005,N,12217.8608,W,0.93,62.09,130412,,,A*45
$GPVTG,62.09,T,,M,0.93,N,1.7,K,A*3C
$GPGGA,213853.000,3748.8010,N,12217.8604,W,1,06,1.4,8.9,M,-25.1,M,,0000*65
$GPGSA,A,3,07,30,32,16,23,20,,,,,,,3.2,1.4,2.9*3C
$GPRMC,213853.000,A,3748.8010,N,12217.8604,W,0.93,68.45,130412,,,A*4E
$GPVTG,68.45,T,,M,0.93,N,1.7,K,A*3E
$GPGGA,213854.000,3748.8015,N,12217.8598,W,1,05,1.5,10.3,M,-25.1,M,,0000*50
$GPGSA,A,3,07,30,32,16,23,,,,,,,,4.0,1.5,3.7*35
$GPRMC,213854.000,A,3748.8015,N,12217.8598,W,0.89,58.96,130412,,,A*4C
$GPVTG,58.96,T,,M,0.89,N,1.6,K,A*39
$GPGGA,213855.000,3748.8018,N,12217.8588,W,1,06,1.4,11.9,M,-25.1,M,,0000*54
$GPGSA,A,3,07,30,32,16,23,20,,,,,,,3.2,1.4,2.9*3C
$GPGSV,3,1,12,23,67,349,28,20,59,184,16,16,50,094,30,13,42,306,21*76
$GPGSV,3,2,12,32,39,154,14,30,38,058,33,07,29,243,20,10,15,317,31*79
$GPGSV,3,3,12,04,14,295,25,03,03,127,19,31,03,052,31,06,02,113,*7D
$GPVTG,60.72,T,,M,1.16,N,2.1,K,A*3B
$GPGGA,213856.000,3748.8020,N,12217.8583,W,1,06,1.4,11.6,M,-25.1,M,,0000*58
$GPGSA,A,3,07,30,32,16,23,20,,,,,,,3.2,1.4,2.9*3C
$GPRMC,213856.000,A,3748.8020,N,12217.8583,W,0.62,57.23,130412,,,A*46
$GPVTG,57.23,T,,M,0.62,N,1.2,K,A*39
$GPGGA,213857.000,3748.8030,N,12217.8583,W,1,06,1.4,8.8,M,-25.1,M,,0000*6E
$GPGSA,A,3,07,30,32,16,23,20,,,,,,,3.2,1.4,2.9*3C
$GPRMC,213857.000,A,3748.8030,N,12217.8583,W,0.96,355.73,130412,,,A*79
$GPVTG,355.73,T,,M,0.96,N,1.8,K,A*0C
$GPGGA,213858.000,3748.8030,N,12217.8587,W,1,06,1.4,7.2,M,-25.1,M,,0000*60
$GPGSA,A,3,07,30,32,16,23,20,,,,,,,3.2,1.4,2.9*3C
$GPRMC,213858.000,A,3748.8030,N,12217.8587,W,0.29,251.67,130412,,,A*76
$GPVTG,251.67,T,,M,0.29,N,0.5,K,A*04
$GPGGA,213859.000,3748.8029,N,12217.8592,W,1,06,1.4,5.8,M,-25.1,M,,0000*65
$GPGSA,A,3,07,30,32,16,23,20,,,,,,,3.2,1.4,2.9*3C
$GPRMC,213859.000,A,3748.8029,N,12217.8592,W,0.61,118.33,130412,,,A*78
$GPVTG,118.33,T,,M,0.61,N,1.1,K,A*02
$GPGGA,213900.000,3748.8025,N,12217.8591,W,1,06,1.4,5.6,M,-25.1,M,,0000*69
$GPGSA,A,3,07,30,32,16,23,20,,,,,,,3.2,1.4,2.9*3C
$GPGSV,3,1,12,23,67,349,27,20,59,184,21,16,50,094,30,13,42,306,30*7D
$GPGSV,3,2,12,32,39,154,22,30,38,058,26,07,29,243,25,10,15,317,26*7B
$GPGSV,3,3,12,04,14,295,26,03,03,127,19,31,03,052,31,06,02,113,*7E
$GPRMC,213900.000,A,3748.8025,N,12217.8591,W,0.40,194.51,130412,,,A*79
$GPVTG,194.51,T,,M,0.40,N,0.7,K,A*06
$GPGGA,213901.000,3748.8030,N,12217.8595,W,1,06,1.4,5.0,M,-25.1,M,,0000*6E
$GPGSA,A,3,07,30,32,16,23,20,,,,,,,3.2,1.4,2.9*3C
$GPRMC,213901.000,A,3748.8030,N,12217.8595,W,0.40,92.00,130412,,,A*4B
$GPVTG,92.00,T,,M,0.40,N,0.7,K,A*35
$GPGGA,213902.000,3748.8027,N,12217.8598,W,1,06,1.4,6.3,M,-25.1,M,,0000*66
$GPGSA,A,3,07,30,32,16,23,20,,,,,,,3.2,1.4,2.9*3C
$GPRMC,213902.000,A,3748.8027,N,12217.8598,W,0.60,53.10,130412,,,A*4D
$GPVTG,53.10,T,,M,0.60,N,1.1,K,A*3C
$GPGGA,213903.000,3748.8033,N,12217.8603,W,1,06,1.4,8.0,M,-25.1,M,,0000*6E
$GPGSA,A,3,07,30,32,16,23,20,,,,,,,3.2,1.4,2.9*3C
$GPRMC,213903.000,A,3748.8033,N,12217.8603,W,0.43,344.80,130412,,,A*75
$GPVTG,344.80,T,,M,0.43,N,0.8,K,A*09
$GPGGA,213904.000,3748.8042,N,12217.8613,W,1,06,1.4,10.2,M,-25.1,M,,0000*55
$GPGSA,A,3,07,30,32,16,23,20,,,,,,,3.2,1.4,2.9*3C
$GPRMC,213904.000,A,3748.8042,N,12217.8613,W,1.08,324.83,130412,,,A*7E
$GPVTG,324.83,T,,M,1.08,N,2.0,K,A*08
$GPGGA,213905.000,3748.8042,N,12217.8618,W,1,06,1.4,10.4,M,-25.1,M,,0000*59
$GPGSA,A,3,07,30,32,16,23,20,,,,,,,3.2,1.4,2.9*3C
$GPGSV,3,1,12,23,67,349,24,20,59,184,30,16,50,094,27,13,42,306,24*7D
$GPGSV,3,2,12,32,39,154,30,30,38,058,22,07,29,243,31,10,15,317,20*7F
$GPGSV,3,3,12,04,14,295,26,03,03,127,18,31,03,052,21,06,02,113,*7E
$GPRMC,213905.000,A,3748.8042,N,12217.8618,W,0.48,172.04,130412,,,A*7F
$GPVTG,172.04,T,,M,0.48,N,0.9,K,A*08
$GPGGA,213906.000,3748.8032,N,12217.8615,W,1,06,1.4,9.3,M,-25.1,M,,0000*6F
$GPGSA,A,3,07,30,32,16,23,20,,,,,,,3.2,1.4,2.9*3C
$GPRMC,213906.000,A,3748.8032,N,12217.8615,W,0.81,197.30,130412,,,A*7F
$GPVTG,197.30,T,,M,0.81,N,1.5,K,A*0C
$GPGGA,213907.000,3748.8030,N,12217.8615,W,1,06,1.4,10.0,M,-25.1,M,,0000*57
$GPGSA,A,3,07,30,32,16,23,20,,,,,,,3.2,1.4,2.9*3C
$GPRMC,213907.000,A,3748.8030,N,12217.8615,W,0.63,86.57,130412,,,A*40
$GPVTG,86.57,T,,M,0.63,N,1.2,K,A*37
$GPGGA,213908.000,3748.8029,N,12217.8615,W,1,06,1.4,10.5,M,-25.1,M,,0000*55
$GPGSA,A,3,07,30,32,16,23,20,,,,,,,3.2,1.4,2.9*3C
$GPRMC,213908.000,A,3748.8029,N,12217.8615,W,0.56,330.91,130412,,,A*75
$GPVTG,330.91,T,,M,0.56,N,1.0,K,A*07
$GPGGA,213909.000,3748.8027,N,12217.8615,W,1,06,1.4,9.2,M,-25.1,M,,0000*65
$GPGSA,A,3,07,30,32,16,23,20,,,,,,,3.2,1.4,2.9*3C
$GPRMC,213909.000,A,3748.8027,N,12217.8615,W,0.43,64.85,130412,,,A*49
$GPVTG,64.85,T,,M,0.43,N,0.8,K,A*3D
$GPGGA,213910.000,3748.8027,N,12217.8612,W,1,06,1.4,8.7,M,-25.1,M,,0000*6E
$GPGSA,A,3,07,30,32,16,23,20,,,,,,,3.2,1.4,2.9*3C
$GPGSV,3,1,12,23,67,349,24,20,59,184,33,16,50,094,32,13,42,306,25*7B
$GPGSV,3,2,12,32,39,154,32,30,38,058,34,07,29,243,23,10,15,317,23*7A
$GPGSV,3,3,12,04,14,295,20,03,03,127,29,31,03,052,28,06,02,113,*73
$GPVTG,122.02,T,,M,0.57,N,1.1,K,A*0C
$GPGGA,213911.000,3748.8028,N,12217.8610,W,1,06,1.4,8.8,M,-25.1,M,,0000*6D
$GPGSA,A,3,07,30,32,16,23,20,,,,,,,3.2,1.4,2.9*3C
$GPRMC,213911.000,A,3748.8028,N,12217.8610,W,0.45,40.80,130412,,,A*4F
$GPVTG,40.80,T,,M,0.45,N,0.8,K,A*38
$GPGGA,213912.000,3748.8026,N,12217.8604,W,1,06,1.4,7.8,M,-25.1,M,,0000*6A
$GPGSA,A,3,07,30,32,16,23,20,,,,,,,3.2,1.4,2.9*3C
$GPRMC,213912.000,A,3748.8026,N,12217.8604,W,0.60,144.87,130412,,,A*72
$GPVTG,144.87,T,,M,0.60,N,1.1,K,A*05
$GPGGA,213913.000,3748.8025,N,12217.8603,W,1,06,1.4,7.7,M,-25.1,M,,0000*60
$GPGSA,A,3,07,30,32,16,23,20,,,,,,,3.2,1.4,2.9*3C
$GPRMC,213913.000,A,3748.8025,N,12217.8603,W,0.79,84.63,130412,,,A*48
$GPVTG,84.63,T,,M,0.79,N,1.5,K,A*3E
$GPGGA,213914.000,3748.8021,N,12217.8601,W,1,06,1.4,8.7,M,-25.1,M,,0000*6E
$GPGSA,A,3,07,30,32,16,23,20,,,,,,,3.2,1.4,2.9*3C
$GPRMC,213914.000,A,3748.8021,N,12217.8601,W,1.20,89.96,130412,,,A*43
$GPVTG,89.96,T,,M,1.20,N,2.2,K,A*30
$GPGGA,213915.000,3748.8016,N,12217.8598,W,1,06,1.4,9.6,M,-25.1,M,,0000*68
$GPGSA,A,3,07,30,32,16,23,20,,,,,,,3.2,1.4,2.9*3C
$GPGSV,3,1,12,23,67,349,19,20,59,184,28,16,50,094,33,13,42,306,24*7F
$GPGSV,3,2,12,32,39,154,34,30,38,058,25,07,29,243,33,10,15,317,19*74
$GPGSV,3,3,12,04,14,295,19,03,03,127,28,31,03,052,20,06,02,113,*70
$GPRMC,213915.000,A,3748.8016,N,12217.8598,W,1.30,99.96,130412,,,A*45
$GPVTG,99.96,T,,M,1.30,N,2.4,K,A*36
$GPGGA,213916.000,3748.8012,N,12217.8591,W,1,05,1.9,8.3,M,-25.1,M,,0000*6C
$GPGSA,A,3,07,32,16,23,20,,,,,,,,4.4,1.9,4.0*3C
$GPRMC,213916.000,A,3748.8012,N,12217.8591,W,1.94,111.88,130412,,,A*7B
$GPVTG,111.88,T,,M,1.94,N,3.6,K,A*05
$GPGGA,213917.000,3748.8013,N,12217.8587,W,1,06,1.4,6.9,M,-25.1,M,,0000*61
$GPGSA,A,3,07,30,32,16,23,20,,,,,,,3.2,1.4,2.9*3C
$GPRMC,213917.000,A,3748.8013,N,12217.8587,W,1.15,108.27,130412,,,A*78
$GPVTG,108.27,T,,M,1.15,N,2.1,K,A*07
$GPGGA,213918.000,3748.8011,N,12217.8584,W,1,06,1.4,7.1,M,-25.1,M,,0000*66
$GPGSA,A,3,07,30,32,16,23,20,,,,,,,3.2,1.4,2.9*3C
$GPRMC,213918.000,A,3748.8011,N,12217.8584,W,1.15,140.40,130412,,,A*7B
$GPVTG,140.40,T,,M,1.15,N,2.1,K,A*0A
$GPGGA,213919.000,3748.8006,N,12217.8579,W,1,05,1.9,7.3,M,-25.1,M,,0000*6F
$GPGSA,A,3,07,32,16,23,20,,,,,,,,4.4,1.9,4.0*3C
$GPRMC,213919.000,A,3748.8006,N,12217.8579,W,1.54,125.91,130412,,,A*74
$GPVTG,125.91,T,,M,1.54,N,2.9,K,A*08
$GPGGA,213920.000,3748.7996,N,12217.8571,W,1,06,1.4,5.9,M,-25.1,M,,0000*64
$GPGSA,A,3,07,30,32,16,23,20,,,,,,,3.2,1.4,2.9*3C
$GPGSV,3,1,12,23,67,349,20,20,59,184,31,16,50,094,27,13,42,306,21*7D
$GPGSV,3,2,12,32,39,154,31,30,38,058,18,07,29,243,35,10,15,317,18*78
$GPGSV,3,3,12,04,14,295,19,03,03,127,20,31,03,052,14,06,02,113,*7F
$GPRMC,213920.000,A,3748.7996,N,12217.8571,W,2.27,138.48,130412,,,A*76
$GPVTG,138.48,T,,M,2.27,N,4.2,K,A*0A
$GPGGA,213921.000,3748.7990,N,12217.8566,W,1,06,1.4,6.7,M,-25.1,M,,0000*68
$GPGSA,A,3,07,30,32,16,23,20,,,,,,,3.2,1.4,2.9*3C
$GPRMC,213921.000,A,3748.7990,N,12217.8566,W,2.01,120.84,130412,,,A*7A
$GPVTG,120.84,T,,M,2.01,N,3.7,K,A*05
$GPGGA,213922.000,3748.7983,N,12217.8561,W,1,06,1.4,7.6,M,-25.1,M,,0000*6E
$GPGSA,A,3,07,30,32,16,23,20,,,,,,,3.2,1.4,2.9*3C
$GPRMC,213922.000,A,3748.7983,N,12217.8561,W,1.96,124.81,130412,,,A*70
$GPVTG,124.81,T,,M,1.96,N,3.6,K,A*08
$GPGGA,213923.000,3748.7979,N,12217.8555,W,1,06,1.4,8.1,M,-25.1,M,,0000*65
$GPGSA,A,3,07,30,32,16,23,20,,,,,,,3.2,1.4,2.9*3C
$GPRMC,213923.000,A,3748.7979,N,12217.8555,W,2.19,127.79,130412,,,A*73
$GPVTG,127.79,T,,M,2.19,N,4.0,K,A*09
$GPGGA,213924.000,3748.7975,N,12217.8549,W,1,06,1.4,8.6,M,-25.1,M,,0000*64
$GPGSA,A,3,07,30,32,16,23,20,,,,,,,3.2,1.4,2.9*3C
$GPRMC,213924.000,A,3748.7975,N,12217.8549,W,2.16,126.22,130412,,,A*75
$GPVTG,126.22,T,,M,2.16,N,4.0,K,A*09
$GPGGA,213925.000,3748.7972,N,12217.8542,W,1,06,1.4,8.7,M,-25.1,M,,0000*68
$GPGSA,A,3,07,30,32,16,23,20,,,,,,,3.2,1.4,2.9*3C
$GPGSV,3,1,12,23,67,349,28,20,59,184,34,16,50,094,37,13,42,306,21*71
$GPGSV,3,2,12,32,39,154,39,30,38,058,26,07,29,243,32,10,15,317,*73
$GPGSV,3,3,12,04,14,295,20,03,03,127,21,31,03,052,18,06,02,113,*78
$GPVTG,112.27,T,,M,1.98,N,3.7,K,A*0E
$GPGGA,213926.000,3748.7968,N,12217.8533,W,1,06,1.4,8.2,M,-25.1,M,,0000*63
$GPGSA,A,3,07,30,32,16,23,20,,,,,,,3.2,1.4,2.9*3C
$GPRMC,213926.000,A,3748.7968,N,12217.8533,W,2.25,118.17,130412,,,A*7D
$GPVTG,118.17,T,,M,2.25,N,4.2,K,A*00
$GPGGA,213927.000,3748.7966,N,12217.8525,W,1,06,1.4,7.6,M,-25.1,M,,0000*60
$GPGSA,A,3,07,30,32,16,23,20,,,,,,,3.2,1.4,2.9*3C
$GPRMC,213927.000,A,3748.7966,N,12217.8525,W,2.29,126.73,130412,,,A*76
$GPVTG,126.73,T,,M,2.29,N,4.2,K,A*03
$GPGGA,213928.000,3748.7964,N,12217.8518,W,1,06,1.4,7.2,M,-25.1,M,,0000*67
$GPGSA,A,3,07,30,32,16,23,20,,,,,,,3.2,1.4,2.9*3C
$GPRMC,213928.000,A,3748.7964,N,12217.8518,W,2.08,126.99,130412,,,A*72
$GPVTG,126.99,T,,M,2.08,N,3.9,K,A*08
$GPGGA,213929.000,3748.7961,N,12217.8512,W,1,06,1.4,7.6,M,-25.1,M,,0000*6D
$GPGSA,A,3,07,30,32,16,23,20,,,,,,,3.2,1.4,2.9*3C
$GPRMC,213929.000,A,3748.7961,N,12217.8512,W,1.88,113.57,130412,,,A*73
$GPVTG,113.57,T,,M,1.88,N,3.5,K,A*0B
$GPGGA,213930.000,3748.7958,N,12217.8506,W,1,06,1.4,7.6,M,-25.1,M,,0000*6A
$GPGSA,A,3,07,30,32,16,23,20,,,,,,,3.2,1.4,2.9*3C
$GPGSV,3,1,12,23,67,349,24,20,59,184,34,16,50,094,31,13,42,306,29*73
$GPGSV,3,2,12,32,39,154,33,30,38,058,26,07,29,243,38,10,15,317,*73
$GPGSV,3,3,12,04,14,295,21,03,03,127,21,31,03,052,23,06,02,113,*71
$GPRMC,213930.000,A,3748.7958,N,12217.8506,W,2.17,117.82,130412,,,A*7D
$GPVTG,117.82,T,,M,2.17,N,4.0,K,A*00
$GPGGA,213931.000,3748.7955,N,12217.8498,W,1,06,1.4,7.6,M,-25.1,M,,0000*60
$GPGSA,A,3,07,30,32,16,23,20,,,,,,,3.2,1.4,2.9*3C
$GPRMC,213931.000,A,3748.7955,N,12217.8498,W,2.21,114.87,130412,,,A*74
$GPVTG,114.87,T,,M,2.21,N,4.1,K,A*02
$GPGGA,213932.000,3748.7953,N,12217.8492,W,1,06,1.4,7.7,M,-25.1,M,,0000*6E
$GPGSA,A,3,07,30,32,16,23,20,,,,,,,3.2,1.4,2.9*3C
$GPRMC,213932.000,A,3748.7953,N,12217.8492,W,1.61,104.32,130412,,,A*73
$GPVTG,104.32,T,,M,1.61,N,3.0,K,A*0C
$GPGGA,213933.000,3748.7950,N,12217.8486,W,1,06,1.4,7.5,M,-25.1,M,,0000*6B
$GPGSA,A,3,07,30,32,16,23,20,,,,,,,3.2,1.4,2.9*3C
$GPRMC,213933.000,A,3748.7950,N,12217.8486,W,2.05,111.99,130412,,,A*70
$GPVTG,111.99,T,,M,2.05,N,3.8,K,A*00
$GPGGA,213934.000,3748.7948,N,12217.8479,W,1,06,1.4,7.4,M,-25.1,M,,0000*64
$GPGSA,A,3,07,30,32,16,23,20,,,,,,,3.2,1.4,2.9*3C
$GPRMC,213934.000,A,3748.7948,N,12217.8479,W,2.14,102.06,130412,,,A*7A
$GPVTG,102.06,T,,M,2.14,N,4.0,K,A*0B
$GPGGA,213935.000,3748.7946,N,12217.8470,W,1,06,1.4,7.1,M,-25.1,M,,0000*67
$GPGSA,A,3,07,30,32,16,23,20,,,,,,,3.2,1.4,2.9*3C
$GPGSV,3,1,12,23,67,349,25,20,59,184,31,16,50,094,31,13,42,306,27*79
$GPGSV,3,2,12,32,39,154,34,30,38,058,21,07,29,243,34,10,15,317,*7F
$GPGSV,3,3,12,04,14,295,22,03,03,127,21,31,03,052,15,06,02,113,*77
$GPRMC,213935.000,A,3748.7946,N,12217.8470,W,2.45,108.62,130412,,,A*70
$GPVTG,108.62,T,,M,2.45,N,4.5,K,A*02
$GPGGA,213936.000,3748.7943,N,12217.8464,W,1,06,1.4,7.2,M,-25.1,M,,0000*67
$GPGSA,A,3,07,30,32,16,23,20,,,,,,,3.2,1.4,2.9*3C
$GPRMC,213936.000,A,3748.7943,N,12217.8464,W,2.00,112.48,130412,,,A*71
$GPVTG,112.48,T,,M,2.00,N,3.7,K,A*05
$GPGGA,213937.000,3748.7940,N,12217.8459,W,1,06,1.4,7.5,M,-25.1,M,,0000*6C
$GPGSA,A,3,07,30,32,16,23,20,,,,,,,3.2,1.4,2.9*3C
$GPRMC,213937.000,A,3748.7940,N,12217.8459,W,1.54,119.63,130412,,,A*7D
$GPVTG,119.63,T,,M,1.54,N,2.9,K,A*0A
$GPGGA,213938.000,3748.7939,N,12217.8455,W,1,06,1.4,8.6,M,-25.1,M,,0000*6D
$GPGSA,A,3,07,30,32,16,23,20,,,,,,,3.2,1.4,2.9*3C
$GPRMC,213938.000,A,3748.7939,N,12217.8455,W,1.69,120.93,130412,,,A*7B
$GPVTG,120.93,T,,M,1.69,N,3.1,K,A*08
$GPGGA,213939.000,3748.7932,N,12217.8448,W,1,06,1.4,8.5,M,-25.1,M,,0000*68
$GPGSA,A,3,07,30,32,16,23,20,,,,,,,3.2,1.4,2.9*3C
$GPRMC,213939.000,A,3748.7932,N,12217.8448,W,2.19,126.22,130412,,,A*75
$GPVTG,126.22,T,,M,2.19,N,4.1,K,A*07
$GPGGA,213940.000,3748.7928,N,12217.8440,W,1,06,1.4,9.0,M,-25.1,M,,0000*61
$GPGSA,A,3,07,30,32,16,23,20,,,,,,,3.2,1.4,2.9*3C
$GPGSV,3,1,12,23,67,349,24,20,59,184,31,16,50,094,26,13,42,306,23*7A
$GPGSV,3,2,12,32,39,154,28,30,38,058,22,07,29,243,26,10,15,317,*72
$GPGSV,3,3,12,04,14,295,21,03,03,127,18,31,03,052,15,06,02,113,*7E
$GPVTG,110.63,T,,M,1.64,N,3.0,K,A*08
$GPGGA,213941.000,3748.7927,N,12217.8434,W,1,06,1.4,9.7,M,-25.1,M,,0000*6B
$GPGSA,A,3,07,30,32,16,23,20,,,,,,,3.2,1.4,2.9*3C
$GPRMC,213941.000,A,3748.7927,N,12217.8434,W,2.24,116.50,130412,,,A*7D
$GPVTG,116.50,T,,M,2.24,N,4.1,K,A*0F
$GPGGA,213942.000,3748.7925,N,12217.8428,W,1,06,1.4,10.3,M,-25.1,M,,0000*5B
$GPGSA,A,3,07,30,32,16,23,20,,,,,,,3.2,1.4,2.9*3C
$GPRMC,213942.000,A,3748.7925,N,12217.8428,W,2.44,121.58,130412,,,A*7B
$GPVTG,121.58,T,,M,2.44,N,4.5,K,A*01
$GPGGA,213943.000,3748.7922,N,12217.8422,W,1,06,1.4,10.7,M,-25.1,M,,0000*53
$GPGSA,A,3,07,30,32,16,23,20,,,,,,,3.2,1.4,2.9*3C
$GPRMC,213943.000,A,3748.7922,N,12217.8422,W,2.39,116.98,130412,,,A*75
$GPVTG,116.98,T,,M,2.39,N,4.4,K,A*02
$GPGGA,213944.000,3748.7919,N,12217.8416,W,1,06,1.4,11.5,M,-25.1,M,,0000*58
$GPGSA,A,3,07,30,32,16,23,20,,,,,,,3.2,1.4,2.9*3C
$GPRMC,213944.000,A,3748.7919,N,12217.8416,W,2.30,121.25,130412,,,A*76
$GPVTG,121.25,T,,M,2.30,N,4.3,K,A*0E
$GPGGA,213945.000,3748.7916,N,12217.8410,W,1,06,1.4,11.8,M,-25.1,M,,0000*5D
$GPGSA,A,3,07,30,32,16,23,20,,,,,,,3.2,1.4,2.9*3C
$GPGSV,3,1,12,23,67,349,23,20,59,184,32,16,50,094,28,13,42,306,23*70
$GPGSV,3,2,12,32,39,154,35,30,38,058,25,07,29,243,33,10,15,317,*7D
$GPGSV,3,3,12,04,14,295,21,03,03,127,19,31,03,052,15,06,02,113,*7F
$GPRMC,213945.000,A,3748.7916,N,12217.8410,W,2.27,117.46,130412,,,A*78
$GPVTG,117.46,T,,M,2.27,N,4.2,K,A*09
$GPGGA,213946.000,3748.7913,N,12217.8404,W,1,06,1.4,12.1,M,-25.1,M,,0000*54
$GPGSA,A,3,07,30,32,16,23,20,,,,,,,3.2,1.4,2.9*3C
$GPRMC,213946.000,A,3748.7913,N,12217.8404,W,2.28,115.93,130412,,,A*7E
$GPVTG,115.93,T,,M,2.28,N,4.2,K,A*0C
$GPGGA,213947.000,3748.7911,N,12217.8398,W,1,06,1.4,12.7,M,-25.1,M,,0000*53
$GPGSA,A,3,07,30,32,16,23,20,,,,,,,3.2,1.4,2.9*3C
$GPRMC,213947.000,A,3748.7911,N,12217.8398,W,1.53,98.71,130412,,,A*48
$GPVTG,98.71,T,,M,1.53,N,2.8,K,A*37
$GPGGA,213948.000,3748.7909,N,12217.8388,W,1,06,1.4,11.1,M,-25.1,M,,0000*51
$GPGSA,A,3,07,30,32,16,23,20,,,,,,,3.2,1.4,2.9*3C
$GPRMC,213948.000,A,3748.7909,N,12217.8388,W,0.84,99.54,130412,,,A*42
$GPVTG,99.54,T,,M,0.84,N,1.6,K,A*37
$GPGGA,213949.000,3748.7903,N,12217.8387,W,1,06,1.4,11.2,M,-25.1,M,,0000*56
$GPGSA,A,3,07,30,32,16,23,20,,,,,,,3.2,1.4,2.9*3C
$GPRMC,213949.000,A,3748.7903,N,12217.8387,W,0.79,138.32,130412,,,A*7E
$GPVTG,138.32,T,,M,0.79,N,1.5,K,A*0C
$GPGGA,213950.000,3748.7899,N,12217.8386,W,1,06,1.4,11.3,M,-25.1,M,,0000*5C
$GPGSA,A,3,07,30,32,16,23,20,,,,,,,3.2,1.4,2.9*3C
$GPGSV,3,1,12,23,67,349,23,20,59,184,29,16,50,094,28,13,42,306,23*7A
$GPGSV,3,2,12,32,39,154,32,30,38,058,19,07,29,243,31,10,15,317,*77
$GPGSV,3,3,12,04,14,295,20,03,03,127,22,31,03,052,,06,02,113,*72
$GPRMC,213950.000,A,3748.7899,N,12217.8386,W,0.88,137.66,130412,,,A*75
$GPVTG,137.66,T,,M,0.88,N,1.6,K,A*0F
$GPGGA,213951.000,3748.7888,N,12217.8387,W,1,06,1.4,8.3,M,-25.1,M,,0000*64
$GPGSA,A,3,07,30,32,16,23,20,,,,,,,3.2,1.4,2.9*3C
$GPRMC,213951.000,A,3748.7888,N,12217.8387,W,0.21,228.97,130412,,,A*75
$GPVTG,228.97,T,,M,0.21,N,0.4,K,A*0C
$GPGGA,213952.000,3748.7889,N,12217.8381,W,1,04,2.0,5.1,M,-25.1,M,,0000*6A
$GPGSA,A,3,07,30,23,20,,,,,,,,,3.6,2.0,2.9*39
$GPRMC,213952.000,A,3748.7889,N,12217.8381,W,0.81,89.79,130412,,,A*42
$GPVTG,89.79,T,,M,0.81,N,1.5,K,A*3F
$GPGGA,213953.000,3748.7895,N,12217.8383,W,1,05,1.4,4.6,M,-25.1,M,,0000*64
$GPGSA,A,3,07,30,32,23,20,,,,,,,,3.2,1.4,2.9*3B
$GPRMC,213953.000,A,3748.7895,N,12217.8383,W,0.65,8.59,130412,,,A*7D
$GPVTG,8.59,T,,M,0.65,N,1.2,K,A*09
$GPGGA,213954.000,3748.7900,N,12217.8387,W,1,05,1.4,4.0,M,-25.1,M,,0000*6C
$GPGSA,A,3,07,30,32,23,20,,,,,,,,3.2,1.4,2.9*3B
$GPRMC,213954.000,A,3748.7900,N,12217.8387,W,1.03,32.15,130412,,,A*43
$GPVTG,32.15,T,,M,1.03,N,1.9,K,A*32
$GPGGA,213955.000,3748.7906,N,12217.8389,W,1,05,1.4,4.6,M,-25.1,M,,0000*63
$GPGSA,A,3,07,30,32,23,20,,,,,,,,3.2,1.4,2.9*3B
$GPGSV,3,1,12,23,67,349,25,20,59,184,26,16,50,094,18,13,42,306,32*70
$GPGSV,3,2,12,32,39,154,27,30,38,058,17,07,29,243,34,10,15,317,*78
$GPGSV,3,3,12,04,14,295,32,03,03,127,15,31,03,052,,06,02,113,*75
$GPVTG,351.71,T,,M,1.32,N,2.4,K,A*0A
$GPGGA,213956.000,3748.7908,N,12217.8396,W,1,06,1.4,4.6,M,-25.1,M,,0000*63
$GPGSA,A,3,07,30,32,16,23,20,,,,,,,3.2,1.4,2.9*3C
$GPRMC,213956.000,A,3748.7908,N,12217.8396,W,1.53,25.97,130412,,,A*40
$GPVTG,25.97,T,,M,1.53,N,2.8,K,A*39
$GPGGA,213957.000,3748.7909,N,12217.8392,W,1,06,1.4,4.1,M,-25.1,M,,0000*60
$GPGSA,A,3,07,30,32,16,23,20,,,,,,,3.2,1.4,2.9*3C
$GPRMC,213957.000,A,3748.7909,N,12217.8392,W,1.35,92.21,130412,,,A*45
$GPVTG,92.21,T,,M,1.35,N,2.5,K,A*35
$GPGGA,213958.000,3748.7903,N,12217.8388,W,1,06,1.4,4.1,M,-25.1,M,,0000*6E
$GPGSA,A,3,07,30,32,16,23,20,,,,,,,3.2,1.4,2.9*3C
$GPRMC,213958.000,A,3748.7903,N,12217.8388,W,2.17,135.88,130412,,,A*77
$GPVTG,135.88,T,,M,2.17,N,4.0,K,A*0A
$GPGGA,213959.000,3748.7899,N,12217.8380,W,1,06,1.4,4.0,M,-25.1,M,,0000*64
$GPGSA,A,3,07,30,32,16,23,20,,,,,,,3.2,1.4,2.9*3C
$GPRMC,213959.000,A,3748.7899,N,12217.8380,W,2.49,126.55,130412,,,A*75
$GPVTG,126.55,T,,M,2.49,N,4.6,K,A*05
$GPGGA,214000.000,3748.7895,N,12217.8371,W,1,06,1.4,3.5,M,-25.1,M,,0000*66
$GPGSA,A,3,07,30,32,16,23,20,,,,,,,3.2,1.4,2.9*3C
$GPGSV,3,1,12,23,67,349,24,20,59,184,32,16,50,094,31,13,42,306,24*78
$GPGSV,3,2,12,32,39,154,34,30,38,058,23,07,29,243,35,10,15,317,*7C
$GPGSV,3,3,12,04,14,295,22,03,03,127,21,31,03,052,,06,02,113,*73
$GPRMC,214000.000,A,3748.7895,N,12217.8371,W,2.58,124.46,130412,,,A*75
$GPVTG,124.46,T,,M,2.58,N,4.8,K,A*0B
$GPGGA,214001.000,3748.7891,N,12217.8361,W,1,06,1.4,3.0,M,-25.1,M,,0000*67
$GPGSA,A,3,07,30,32,16,23,20,,,,,,,3.2,1.4,2.9*3C
$GPRMC,214001.000,A,3748.7891,N,12217.8361,W,2.68,115.21,130412,,,A*71
$GPVTG,115.21,T,,M,2.68,N,5.0,K,A*02
$GPGGA,214002.000,3748.7888,N,12217.8351,W,1,06,1.4,2.6,M,-25.1,M,,0000*68
$GPGSA,A,3,07,30,32,16,23,20,,,,,,,3.2,1.4,2.9*3C
$GPRMC,214002.000,A,3748.7888,N,12217.8351,W,2.52,109.30,130412,,,A*7D
$GPVTG,109.30,T,,M,2.52,N,4.7,K,A*00
$GPGGA,214003.000,3748.7886,N,12217.8344,W,1,06,1.4,2.9,M,-25.1,M,,0000*6C
$GPGSA,A,3,07,30,32,16,23,20,,,,,,,3.2,1.4,2.9*3C
$GPRMC,214003.000,A,3748.7886,N,12217.8344,W,2.36,105.05,130412,,,A*7E
$GPVTG,105.05,T,,M,2.36,N,4.4,K,A*0B
$GPGGA,214004.000,3748.7884,N,12217.8337,W,1,06,1.4,2.8,M,-25.1,M,,0000*6C
$GPGSA,A,3,07,30,32,16,23,20,,,,,,,3.2,1.4,2.9*3C
$GPRMC,214004.000,A,3748.7884,N,12217.8337,W,2.45,103.58,130412,,,A*75
$GPVTG,103.58,T,,M,2.45,N,4.5,K,A*00
$GPGGA,214005.000,3748.7880,N,12217.8327,W,1,06,1.4,3.4,M,-25.1,M,,0000*65
$GPGSA,A,3,07,30,32,16,23,20,,,,,,,3.2,1.4,2.9*3C
$GPGSV,3,1,12,23,67,349,25,20,59,184,33,16,50,094,31,13,42,306,22*7E
$GPGSV,3,2,12,32,39,154,33,30,38,058,27,07,29,243,29,10,15,317,*72
$GPGSV,3,3,12,04,14,295,22,03,03,127,29,31,03,052,,06,02,113,*7B
$GPRMC,214005.000,A,3748.7880,N,12217.8327,W,2.26,113.14,130412,,,A*7D
$GPVTG,113.14,T,,M,2.26,N,4.2,K,A*0B
$GPGGA,214006.000,3748.7876,N,12217.8320,W,1,06,1.4,3.6,M,-25.1,M,,0000*6A
$GPGSA,A,3,07,30,32,16,23,20,,,,,,,3.2,1.4,2.9*3C
$GPRMC,214006.000,A,3748.7876,N,12217.8320,W,2.14,116.69,130412,,,A*7E
$GPVTG,116.69,T,,M,2.14,N,4.0,K,A*07
$GPGGA,214007.000,3748.7873,N,12217.8312,W,1,06,1.4,3.7,M,-25.1,M,,0000*6E
$GPGSA,A,3,07,30,32,16,23,20,,,,,,,3.2,1.4,2.9*3C
$GPRMC,214007.000,A,3748.7873,N,12217.8312,W,2.27,115.14,130412,,,A*72
$GPVTG,115.14,T,,M,2.27,N,4.2,K,A*0C
$GPGGA,214008.000,3748.7870,N,12217.8305,W,1,06,1.4,3.5,M,-25.1,M,,0000*66
$GPGSA,A,3,07,30,32,16,23,20,,,,,,,3.2,1.4,2.9*3C
$GPRMC,214008.000,A,3748.7870,N,12217.8305,W,2.55,111.65,130412,,,A*7F
$GPVTG,111.65,T,,M,2.55,N,4.7,K,A*0E
$GPGGA,214009.000,3748.7867,N,12217.8297,W,1,06,1.4,3.7,M,-25.1,M,,0000*69
$GPGSA,A,3,07,30,32,16,23,20,,,,,,,3.2,1.4,2.9*3C
$GPRMC,214009.000,A,3748.7867,N,12217.8297,W,2.26,113.17,130412,,,A*71
$GPVTG,113.17,T,,M,2.26,N,4.2,K,A*08
$GPGGA,214010.000,3748.7853,N,12217.8293,W,1,06,1.4,6.7,M,-25.1,M,,0000*67
$GPGSA,A,3,07,30,32,16,23,20,,,,,,,3.2,1.4,2.9*3C
$GPGSV,3,1,12,23,67,349,25,20,59,184,33,16,50,094,24,13,42,306,21*79
$GPGSV,3,2,12,32,39,154,33,30,38,058,25,07,29,243,31,10,15,317,*79
$GPGSV,3,3,12,04,14,295,22,03,03,127,33,31,03,052,,06,02,113,*70
$GPVTG,114.79,T,,M,2.46,N,4.6,K,A*05
$GPGGA,214011.000,3748.7849,N,12217.8285,W,1,06,1.4,6.4,M,-25.1,M,,0000*69
$GPGSA,A,3,07,30,32,16,23,20,,,,,,,3.2,1.4,2.9*3C
$GPRMC,214011.000,A,3748.7849,N,12217.8285,W,2.51,106.18,130412,,,A*7C
$GPVTG,106.18,T,,M,2.51,N,4.6,K,A*07
$GPGGA,214012.000,3748.7846,N,12217.8277,W,1,06,1.4,6.6,M,-25.1,M,,0000*6A
$GPGSA,A,3,07,30,32,16,23,20,,,,,,,3.2,1.4,2.9*3C
$GPRMC,214012.000,A,3748.7846,N,12217.8277,W,2.30,116.95,130412,,,A*7E
$GPVTG,116.95,T,,M,2.30,N,4.3,K,A*01
$GPGGA,214013.000,3748.7843,N,12217.8268,W,1,06,1.4,7.3,M,-25.1,M,,0000*64
$GPGSA,A,3,07,30,32,16,23,20,,,,,,,3.2,1.4,2.9*3C
$GPRMC,214013.000,A,3748.7843,N,12217.8268,W,2.17,118.60,130412,,,A*75
$GPVTG,118.60,T,,M,2.17,N,4.0,K,A*03
$GPGGA,214014.000,3748.7839,N,12217.8261,W,1,06,1.4,8.2,M,-25.1,M,,0000*69
$GPGSA,A,3,07,30,32,16,23,20,,,,,,,3.2,1.4,2.9*3C
$GPRMC,214014.000,A,3748.7839,N,12217.8261,W,1.92,137.89,130412,,,A*72
$GPVTG,137.89,T,,M,1.92,N,3.6,K,A*06
$GPGGA,214015.000,3748.7835,N,12217.8256,W,1,06,1.4,8.3,M,-25.1,M,,0000*61
$GPGSA,A,3,07,30,32,16,23,20,,,,,,,3.2,1.4,2.9*3C
$GPGSV,3,1,12,23,67,349,25,20,59,184,34,16,50,094,29,13,42,306,21*73
$GPGSV,3,2,12,32,39,154,35,30,38,058,24,07,29,243,29,10,15,317,*77
$GPGSV,3,3,12,04,14,295,22,03,03,127,30,31,03,052,,06,02,113,*73
$GPRMC,214015.000,A,3748.7835,N,12217.8256,W,2.48,127.82,130412,,,A*75
$GPVTG,127.82,T,,M,2.48,N,4.6,K,A*0F
$GPGGA,214016.000,3748.7832,N,12217.8251,W,1,06,1.4,8.2,M,-25.1,M,,0000*63
$GPGSA,A,3,07,30,32,16,23,20,,,,,,,3.2,1.4,2.9*3C
$GPRMC,214016.000,A,3748.7832,N,12217.8251,W,2.27,122.49,130412,,,A*7D
$GPVTG,122.49,T,,M,2.27,N,4.2,K,A*00
$GPGGA,214017.000,3748.7830,N,12217.8245,W,1,06,1.4,7.9,M,-25.1,M,,0000*61
$GPGSA,A,3,07,30,32,16,23,20,,,,,,,3.2,1.4,2.9*3C
$GPRMC,214017.000,A,3748.7830,N,12217.8245,W,2.47,115.93,130412,,,A*7E
$GPVTG,115.93,T,,M,2.47,N,4.6,K,A*01
$GPGGA,214018.000,3748.7826,N,12217.8238,W,1,06,1.4,7.8,M,-25.1,M,,0000*62
$GPGSA,A,3,07,30,32,16,23,20,,,,,,,3.2,1.4,2.9*3C
$GPRMC,214018.000,A,3748.7826,N,12217.8238,W,2.80,129.55,130412,,,A*72
$GPVTG,129.55,T,,M,2.80,N,5.2,K,A*0A
$GPGGA,214019.000,3748.7821,N,12217.8232,W,1,06,1.4,7.6,M,-25.1,M,,0000*60
$GPGSA,A,3,07,30,32,16,23,20,,,,,,,3.2,1.4,2.9*3C
$GPRMC,214019.000,A,3748.7821,N,12217.8232,W,2.47,131.48,130412,,,A*70
$GPVTG,131.48,T,,M,2.47,N,4.6,K,A*01
$GPGGA,214020.000,3748.7817,N,12217.8226,W,1,06,1.4,7.4,M,-25.1,M,,0000*68
$GPGSA,A,3,07,30,32,16,23,20,,,,,,,3.2,1.4,2.9*3C
$GPGSV,3,1,12,23,67,349,25,20,59,184,34,16,50,094,29,13,42,306,22*70
$GPGSV,3,2,12,32,39,154,36,30,38,058,24,07,29,243,31,10,15,317,*7D
$GPGSV,3,3,12,04,14,295,18,03,03,127,30,31,03,052,,06,02,113,*7A
$GPRMC,214020.000,A,3748.7817,N,12217.8226,W,2.67,133.75,130412,,,A*74
$GPVTG,133.75,T,,M,2.67,N,5.0,K,A*08
$GPGGA,214021.000,3748.7812,N,12217.8219,W,1,06,1.4,7.2,M,-25.1,M,,0000*66
$GPGSA,A,3,07,30,32,16,23,20,,,,,,,3.2,1.4,2.9*3C
$GPRMC,214021.000,A,3748.7812,N,12217.8219,W,2.56,128.73,130412,,,A*72
$GPVTG,128.73,T,,M,2.56,N,4.7,K,A*00
$GPGGA,214022.000,3748.7808,N,12217.8212,W,1,06,1.4,7.7,M,-25.1,M,,0000*60
$GPGSA,A,3,07,30,32,16,23,20,,,,,,,3.2,1.4,2.9*3C
$GPRMC,214022.000,A,3748.7808,N,12217.8212,W,2.71,124.94,130412,,,A*71
$GPVTG,124.94,T,,M,2.71,N,5.0,K,A*06
$GPGGA,214023.000,3748.7804,N,12217.8204,W,1,06,1.4,8.0,M,-25.1,M,,0000*62
$GPGSA,A,3,07,30,32,16,23,20,,,,,,,3.2,1.4,2.9*3C
$GPRMC,214023.000,A,3748.7804,N,12217.8204,W,2.55,123.67,130412,,,A*76
$GPVTG,123.67,T,,M,2.55,N,4.7,K,A*0D
$GPGGA,214024.000,3748.7798,N,12217.8197,W,1,06,1.4,8.3,M,-25.1,M,,0000*65
$GPGSA,A,3,07,30,32,16,23,20,,,,,,,3.2,1.4,2.9*3C
$GPRMC,214024.000,A,3748.7798,N,12217.8197,W,2.47,126.97,130412,,,A*7B
$GPVTG,126.97,T,,M,2.47,N,4.6,K,A*05
$GPGGA,214025.000,3748.7793,N,12217.8189,W,1,06,1.4,8.6,M,-25.1,M,,0000*65
$GPGSA,A,3,07,30,32,16,23,20,,,,,,,3.2,1.4,2.9*3C
$GPGSV,3,1,12,23,67,349,25,20,59,184,33,16,50,094,30,13,42,306,23*7E
$GPGSV,3,2,12,32,39,154,35,30,38,058,23,07,29,243,32,10,15,317,*7A
$GPGSV,3,3,12,04,14,295,21,03,03,127,32,31,03,052,,06,02,113,*72
$GPVTG,120.69,T,,M,2.51,N,4.7,K,A*04
$GPGGA,214026.000,3748.7787,N,12217.8181,W,1,06,1.4,9.1,M,-25.1,M,,0000*6D
$GPGSA,A,3,07,30,32,16,23,20,,,,,,,3.2,1.4,2.9*3C
$GPRMC,214026.000,A,3748.7787,N,12217.8181,W,2.75,124.71,130412,,,A*7B
$GPVTG,124.71,T,,M,2.75,N,5.1,K,A*08
$GPGGA,214027.000,3748.7782,N,12217.8174,W,1,06,1.4,9.8,M,-25.1,M,,0000*6A
$GPGSA,A,3,07,30,32,16,23,20,,,,,,,3.2,1.4,2.9*3C
$GPRMC,214027.000,A,3748.7782,N,12217.8174,W,2.53,123.41,130412,,,A*75
$GPVTG,123.41,T,,M,2.53,N,4.7,K,A*0F
$GPGGA,214028.000,3748.7778,N,12217.8166,W,1,06,1.4,10.2,M,-25.1,M,,0000*51
$GPGSA,A,3,07,30,32,16,23,20,,,,,,,3.2,1.4,2.9*3C
$GPRMC,214028.000,A,3748.7778,N,12217.8166,W,2.44,115.35,130412,,,A*7C
$GPVTG,115.35,T,,M,2.44,N,4.5,K,A*0D
$GPGGA,214029.000,3748.7774,N,12217.8158,W,1,06,1.4,10.4,M,-25.1,M,,0000*57
$GPGSA,A,3,07,30,32,16,23,20,,,,,,,3.2,1.4,2.9*3C
$GPRMC,214029.000,A,3748.7774,N,12217.8158,W,2.58,116.84,130412,,,A*78
$GPVTG,116.84,T,,M,2.58,N,4.8,K,A*04
$GPGGA,214030.000,3748.7770,N,12217.8150,W,1,06,1.4,10.5,M,-25.1,M,,0000*52
$GPGSA,A,3,07,30,32,16,23,20,,,,,,,3.2,1.4,2.9*3C
$GPGSV,3,1,12,23,67,349,25,20,59,184,33,16,50,094,30,13,42,306,24*79
$GPGSV,3,2,12,32,39,154,35,30,38,058,23,07,29,243,33,10,15,317,*7B
$GPGSV,3,3,12,04,14,295,22,03,03,127,32,31,03,052,,06,02,113,*71
$GPRMC,214030.000,A,3748.7770,N,12217.8150,W,2.64,118.35,130412,,,A*77
$GPVTG,118.35,T,,M,2.64,N,4.9,K,A*0E
$GPGGA,214031.000,3748.7765,N,12217.8142,W,1,06,1.4,10.8,M,-25.1,M,,0000*59
$GPGSA,A,3,07,30,32,16,23,20,,,,,,,3.2,1.4,2.9*3C
$GPRMC,214031.000,A,3748.7765,N,12217.8142,W,2.62,121.03,130412,,,A*78
$GPVTG,121.03,T,,M,2.62,N,4.9,K,A*07
$GPGGA,214032.000,3748.7761,N,12217.8135,W,1,06,1.4,11.0,M,-25.1,M,,0000*57
$GPGSA,A,3,07,30,32,16,23,20,,,,,,,3.2,1.4,2.9*3C
$GPRMC,214032.000,A,3748.7761,N,12217.8135,W,2.43,123.42,130412,,,A*7B
$GPVTG,123.42,T,,M,2.43,N,4.5,K,A*0F
$GPGGA,214033.000,3748.7757,N,12217.8128,W,1,06,1.4,11.2,M,-25.1,M,,0000*5D
$GPGSA,A,3,07,30,32,16,23,20,,,,,,,3.2,1.4,2.9*3C
$GPRMC,214033.000,A,3748.7757,N,12217.8128,W,2.53,116.80,130412,,,A*7A
$GPVTG,116.80,T,,M,2.53,N,4.7,K,A*04
$GPGGA,214034.000,3748.7753,N,12217.8120,W,1,06,1.4,11.4,M,-25.1,M,,0000*50
$GPGSA,A,3,07,30,32,16,23,20,,,,,,,3.2,1.4,2.9*3C
$GPRMC,214034.000,A,3748.7753,N,12217.8120,W,2.59,119.06,130412,,,A*7A
$GPVTG,119.06,T,,M,2.59,N,4.8,K,A*00
$GPGGA,214035.000,3748.7749,N,12217.8112,W,1,06,1.4,11.5,M,-25.1,M,,0000*5A
$GPGSA,A,3,07,30,32,16,23,20,,,,,,,3.2,1.4,2.9*3C
$GPGSV,3,1,12,23,67,349,25,20,59,184,34,16,50,094,30,13,42,306,23*79
$GPGSV,3,2,12,32,39,154,36,30,38,058,24,07,29,243,33,10,15,317,*7F
$GPGSV,3,3,12,04,14,295,22,03,03,127,31,31,03,052,,06,02,113,*72
$GPRMC,214035.000,A,3748.7749,N,12217.8112,W,2.60,118.23,130412,,,A*7D
$GPVTG,118.23,T,,M,2.60,N,4.8,K,A*0C
$GPGGA,214036.000,3748.7746,N,12217.8105,W,1,06,1.4,11.7,M,-25.1,M,,0000*52
$GPGSA,A,3,07,30,32,16,23,20,,,,,,,3.2,1.4,2.9*3C
$GPRMC,214036.000,A,3748.7746,N,12217.8105,W,2.42,121.24,130412,,,A*7A
$GPVTG,121.24,T,,M,2.42,N,4.5,K,A*0C
$GPGGA,214037.000,3748.7741,N,12217.8098,W,1,06,1.4,11.9,M,-25.1,M,,0000*5F
$GPGSA,A,3,07,30,32,16,23,20,,,,,,,3.2,1.4,2.9*3C
$GPRMC,214037.000,A,3748.7741,N,12217.8098,W,2.41,129.30,130412,,,A*77
$GPVTG,129.30,T,,M,2.41,N,4.5,K,A*02
$GPGGA,214038.000,3748.7737,N,12217.8091,W,1,06,1.4,11.9,M,-25.1,M,,0000*58
$GPGSA,A,3,07,30,32,16,23,20,,,,,,,3.2,1.4,2.9*3C
$GPRMC,214038.000,A,3748.7737,N,12217.8091,W,2.56,124.73,130412,,,A*7C
$GPVTG,124.73,T,,M,2.56,N,4.7,K,A*0C
$GPGGA,214039.000,3748.7733,N,12217.8084,W,1,06,1.4,12.2,M,-25.1,M,,0000*51
$GPGSA,A,3,07,30,32,16,23,20,,,,,,,3.2,1.4,2.9*3C
$GPRMC,214039.000,A,3748.7733,N,12217.8084,W,2.45,123.20,130412,,,A*7E
$GPVTG,123.20,T,,M,2.45,N,4.5,K,A*0D
$GPGGA,214040.000,3748.7730,N,12217.8075,W,1,06,1.4,12.0,M,-25.1,M,,0000*50
$GPGSA,A,3,07,30,32,16,23,20,,,,,,,3.2,1.4,2.9*3C
$GPGSV,3,1,12,23,67,349,25,20,59,184,34,16,50,094,30,13,42,306,23*79
$GPGSV,3,2,12,32,39,154,36,30,38,058,24,07,29,243,34,10,15,317,*78
$GPGSV,3,3,12,04,14,295,22,03,03,127,22,31,03,052,,06,02,113,*70
$GPVTG,112.41,T,,M,2.57,N,4.8,K,A*06
$GPGGA,214041.000,3748.7727,N,12217.8067,W,1,06,1.4,12.1,M,-25.1,M,,0000*55
$GPGSA,A,3,07,30,32,16,23,20,,,,,,,3.2,1.4,2.9*3C
$GPRMC,214041.000,A,3748.7727,N,12217.8067,W,2.74,124.61,130412,,,A*79
$GPVTG,124.61,T,,M,2.74,N,5.1,K,A*08
$GPGGA,214042.000,3748.7723,N,12217.8058,W,1,06,1.4,11.9,M,-25.1,M,,0000*55
$GPGSA,A,3,07,30,32,16,23,20,,,,,,,3.2,1.4,2.9*3C
$GPRMC,214042.000,A,3748.7723,N,12217.8058,W,2.80,119.94,130412,,,A*7D
$GPVTG,119.94,T,,M,2.80,N,5.2,K,A*04
$GPGGA,214043.000,3748.7720,N,12217.8050,W,1,06,1.4,11.9,M,-25.1,M,,0000*5F
$GPGSA,A,3,07,30,32,16,23,20,,,,,,,3.2,1.4,2.9*3C
$GPRMC,214043.000,A,3748.7720,N,12217.8050,W,2.56,112.69,130412,,,A*75
$GPVTG,112.69,T,,M,2.56,N,4.7,K,A*02
$GPGGA,214044.000,3748.7717,N,12217.8041,W,1,06,1.4,11.8,M,-25.1,M,,0000*5D
$GPGSA,A,3,07,30,32,16,23,20,,,,,,,3.2,1.4,2.9*3C
$GPRMC,214044.000,A,3748.7717,N,12217.8041,W,2.67,113.29,130412,,,A*71
$GPVTG,113.29,T,,M,2.67,N,4.9,K,A*0B
$GPGGA,214045.000,3748.7713,N,12217.8033,W,1,06,1.4,11.8,M,-25.1,M,,0000*5D
$GPGSA,A,3,07,30,32,16,23,20,,,,,,,3.2,1.4,2.9*3C
$GPGSV,3,1,12,23,68,351,25,20,58,184,34,16,50,092,30,13,43,307,23*78
$GPGSV,3,2,12,32,38,155,36,30,37,057,18,07,30,244,34,10,16,316,*7A
$GPGSV,3,3,12,04,14,294,23,03,04,127,24,06,03,112,,31,02,053,*71
$GPRMC,214045.000,A,3748.7713,N,12217.8033,W,2.51,119.42,130412,,,A*73
$GPVTG,119.42,T,,M,2.51,N,4.6,K,A*06
$GPGGA,214046.000,3748.7710,N,12217.8025,W,1,06,1.4,11.6,M,-25.1,M,,0000*54
$GPGSA,A,3,07,30,32,16,23,20,,,,,,,3.2,1.4,2.9*3C
$GPRMC,214046.000,A,3748.7710,N,12217.8025,W,2.71,119.77,130412,,,A*70
$GPVTG,119.77,T,,M,2.71,N,5.0,K,A*05
$GPGGA,214047.000,3748.7706,N,12217.8017,W,1,06,1.4,11.4,M,-25.1,M,,0000*51
$GPGSA,A,3,07,30,32,16,23,20,,,,,,,3.2,1.4,2.9*3C
$GPRMC,214047.000,A,3748.7706,N,12217.8017,W,2.72,112.13,130412,,,A*7D
$GPVTG,112.13,T,,M,2.72,N,5.0,K,A*0F
$GPGGA,214048.000,3748.7702,N,12217.8009,W,1,06,1.4,11.4,M,-25.1,M,,0000*55
$GPGSA,A,3,07,30,32,16,23,20,,,,,,,3.2,1.4,2.9*3C
$GPRMC,214048.000,A,3748.7702,N,12217.8009,W,2.82,126.42,130412,,,A*75
$GPVTG,126.42,T,,M,2.82,N,5.2,K,A*01
$GPGGA,214049.000,3748.7697,N,12217.8002,W,1,06,1.4,11.5,M,-25.1,M,,0000*53
$GPGSA,A,3,07,30,32,16,23,20,,,,,,,3.2,1.4,2.9*3C
$GPRMC,214049.000,A,3748.7697,N,12217.8002,W,2.79,129.38,130412,,,A*74
$GPVTG,129.38,T,,M,2.79,N,5.2,K,A*07
$GPGGA,214050.000,3748.7692,N,12217.7994,W,1,06,1.4,11.5,M,-25.1,M,,0000*57
$GPGSA,A,3,07,30,32,16,23,20,,,,,,,3.2,1.4,2.9*3C
$GPGSV,3,1,12,23,68,351,25,20,57,184,34,16,50,092,30,13,43,307,23*77
$GPGSV,3,2,12,32,37,155,36,30,37,057,28,07,30,244,34,10,16,316,*76
$GPGSV,3,3,12,04,14,294,23,03,04,127,24,06,03,112,,31,02,053,*71
$GPRMC,214050.000,A,3748.7692,N,12217.7994,W,2.63,126.03,130412,,,A*7C
$GPVTG,126.03,T,,M,2.63,N,4.9,K,A*01
$GPGGA,214051.000,3748.7688,N,12217.7987,W,1,06,1.4,11.3,M,-25.1,M,,0000*59
$GPGSA,A,3,07,30,32,16,23,20,,,,,,,3.2,1.4,2.9*3C
$GPRMC,214051.000,A,3748.7688,N,12217.7987,W,2.60,122.24,130412,,,A*76
$GPVTG,122.24,T,,M,2.60,N,4.8,K,A*02
$GPGGA,214052.000,3748.7684,N,12217.7979,W,1,06,1.4,11.2,M,-25.1,M,,0000*56
$GPGSA,A,3,07,30,32,16,23,20,,,,,,,3.2,1.4,2.9*3C
$GPRMC,214052.000,A,3748.7684,N,12217.7979,W,2.74,122.80,130412,,,A*73
$GPVTG,122.80,T,,M,2.74,N,5.1,K,A*01
$GPGGA,214053.000,3748.7679,N,12217.7972,W,1,06,1.4,11.0,M,-25.1,M,,0000*5C
$GPGSA,A,3,07,30,32,16,23,20,,,,,,,3.2,1.4,2.9*3C
$GPRMC,214053.000,A,3748.7679,N,12217.7972,W,2.64,122.16,130412,,,A*75
$GPVTG,122.16,T,,M,2.64,N,4.9,K,A*06
$GPGGA,214054.000,3748.7676,N,12217.7962,W,1,06,1.4,10.9,M,-25.1,M,,0000*5D
$GPGSA,A,3,07,30,32,16,23,20,,,,,,,3.2,1.4,2.9*3C
$GPRMC,214054.000,A,3748.7676,N,12217.7962,W,2.74,124.47,130412,,,A*7F
$GPVTG,124.47,T,,M,2.74,N,5.1,K,A*0C
$GPGGA,214055.000,3748.7674,N,12217.7953,W,1,06,1.4,10.8,M,-25.1,M,,0000*5D
$GPGSA,A,3,07,30,32,16,23,20,,,,,,,3.2,1.4,2.9*3C
$GPGSV,3,1,12,23,68,351,25,20,57,184,35,16,50,092,28,13,43,307,22*7E
$GPGSV,3,2,12,32,37,155,36,30,37,057,18,07,30,244,33,10,16,316,*72
$GPGSV,3,3,12,04,14,294,22,03,04,127,28,06,03,112,,31,02,053,*7C
$GPVTG,114.25,T,,M,2.73,N,5.1,K,A*0C
$GPGGA,214056.000,3748.7671,N,12217.7944,W,1,06,1.4,10.7,M,-25.1,M,,0000*52
$GPGSA,A,3,07,30,32,16,23,20,,,,,,,3.2,1.4,2.9*3C
$GPRMC,214056.000,A,3748.7671,N,12217.7944,W,2.79,117.79,130412,,,A*7E
$GPVTG,117.79,T,,M,2.79,N,5.2,K,A*0F
$GPGGA,214057.000,3748.7667,N,12217.7935,W,1,06,1.4,10.4,M,-25.1,M,,0000*51
$GPGSA,A,3,07,30,32,16,23,20,,,,,,,3.2,1.4,2.9*3C
$GPRMC,214057.000,A,3748.7667,N,12217.7935,W,2.91,121.03,130412,,,A*70
$GPVTG,121.03,T,,M,2.91,N,5.4,K,A*07
$GPGGA,214058.000,3748.7662,N,12217.7927,W,1,06,1.4,10.4,M,-25.1,M,,0000*58
$GPGSA,A,3,07,30,32,16,23,20,,,,,,,3.2,1.4,2.9*3C
$GPRMC,214058.000,A,3748.7662,N,12217.7927,W,2.76,124.86,130412,,,A*78
$GPVTG,124.86,T,,M,2.76,N,5.1,K,A*03
$GPGGA,214059.000,3748.7657,N,12217.7920,W,1,06,1.4,10.5,M,-25.1,M,,0000*59
$GPGSA,A,3,07,30,32,16,23,20,,,,,,,3.2,1.4,2.9*3C
$GPRMC,214059.000,A,3748.7657,N,12217.7920,W,2.65,117.62,130412,,,A*70
$GPVTG,117.62,T,,M,2.65,N,4.9,K,A*02
$GPGGA,214100.000,3748.7652,N,12217.7914,W,1,06,1.4,10.8,M,-25.1,M,,0000*5B
$GPGSA,A,3,07,30,32,16,23,20,,,,,,,3.2,1.4,2.9*3C
$GPGSV,3,1,12,23,68,351,25,20,57,184,34,16,50,092,29,13,43,307,21*7D
$GPGSV,3,2,12,32,37,155,36,30,37,057,21,07,30,244,33,10,16,316,*78
$GPGSV,3,3,12,04,14,294,22,03,04,127,28,06,03,112,,31,02,053,*7C
$GPRMC,214100.000,A,3748.7652,N,12217.7914,W,2.37,119.62,130412,,,A*76
$GPVTG,119.62,T,,M,2.37,N,4.4,K,A*06
$GPGGA,214101.000,3748.7647,N,12217.7907,W,1,06,1.4,10.7,M,-25.1,M,,0000*53
$GPGSA,A,3,07,30,32,16,23,20,,,,,,,3.2,1.4,2.9*3C
$GPRMC,214101.000,A,3748.7647,N,12217.7907,W,2.62,115.55,130412,,,A*79
$GPVTG,115.55,T,,M,2.62,N,4.9,K,A*03
$GPGGA,214102.000,3748.7643,N,12217.7900,W,2,06,1.4,10.8,M,-25.1,M,1.8,0000*78
$GPGSA,A,3,07,30,32,16,23,20,,,,,,,3.2,1.4,2.9*3C
$GPRMC,214102.000,A,3748.7643,N,12217.7900,W,2.52,115.65,130412,,,D*7C
$GPVTG,115.65,T,,M,2.52,N,4.7,K,D*08
$GPGGA,214103.000,3748.7633,N,12217.7886,W,2,06,1.4,7.9,M,-25.1,M,1.8,0000*46
$GPGSA,A,3,07,30,32,16,23,20,,,,,,,3.2,1.4,2.9*3C
$GPRMC,214103.000,A,3748.7633,N,12217.7886,W,2.72,115.41,130412,,,D*71
$GPVTG,115.41,T,,M,2.72,N,5.0,K,D*0A
$GPGGA,214104.000,3748.7626,N,12217.7876,W,2,06,1.4,6.5,M,-25.1,M,1.8,0000*47
$GPGSA,A,3,07,30,32,16,23,20,,,,,,,3.2,1.4,2.9*3C
$GPRMC,214104.000,A,3748.7626,N,12217.7876,W,2.53,120.64,130412,,,D*7F
$GPVTG,120.64,T,,M,2.53,N,4.7,K,D*0E
$GPGGA,214105.000,3748.7623,N,12217.7867,W,2,06,1.4,6.3,M,-25.1,M,2.8,0000*46
$GPGSA,A,3,07,30,32,16,23,20,,,,,,,3.2,1.4,2.9*3C
$GPGSV,3,1,12,23,68,351,24,20,57,184,34,16,50,092,25,13,43,307,21*70
$GPGSV,3,2,12,32,37,155,36,30,37,057,22,07,30,244,33,10,16,316,*7B
$GPGSV,3,3,12,04,14,294,24,03,04,127,17,06,03,112,,31,02,053,*76
$GPRMC,214105.000,A,3748.7623,N,12217.7867,W,2.80,124.02,130412,,,D*71
$GPVTG,124.02,T,,M,2.80,N,5.2,K,D*00
