$ADVER,3080,2.3
$GPRMC,201316.929,A,3748.7673,N,12217.7228,W,1.99,142.46,170611,,,A*78
$GPGGA,201317.929,3748.7673,N,12217.7218,W,1,03,8.1,25.1,M,-25.1,M,,0000*5B
$GPGSA,A,2,13,19,23,,,,,,,,,,8.1,8.1,1.0*39
$GPRMC,201317.929,A,3748.7673,N,12217.7218,W,2.03,148.16,170611,,,A*75
$GPVTG,148.16,T,,M,2.03,N,3.8,K,N*02
$GPGGA,201318.929,3748.7657,N,12217.7231,W,1,03,8.1,25.1,M,-25.1,M,,0000*59
$GPGSA,A,2,13,19,23,,,,,,,,,,8.1,8.1,1.0*39
$GPRMC,201318.929,A,3748.7657,N,12217.7231,W,2.02,135.66,170611,,,A*7B
$GPVTG,135.66,T,,M,2.02,N,3.7,K,N*01
$GPGGA,201319.929,3748.7642,N,12217.7240,W,1,03,8.1,25.1,M,-25.1,M,,0000*5A
$GPGSA,A,2,13,19,23,,,,,,,,,,8.1,8.1,1.0*39
$GPRMC,201319.929,A,3748.7642,N,12217.7240,W,2.08,136.57,170611,,,A*73
$GPVTG,136.57,T,,M,2.08,N,3.8,K,N*05
$GPGGA,201401.929,3748.7400,N,12217.7077,W,1,03,7.8,25.1,M,-25.1,M,,0000*50
$GPGSA,A,2,13,19,23,,,,,,,,,,7.9,7.8,1.0*38
$GPGSV,3,1,12,13,74,084,31,23,43,120,35,19,21,110,34,07,60,306,19*74
$GPGSV,3,2,12,10,43,275,21,08,37,276,23,03,27,076,32,16,19,042,19*77
$GPGSV,3,3,12,06,19,062,31,28,13,211,31,05,11,320,19,20,06,173,*77
$GPRMC,201401.929,A,3748.7400,N,12217.7077,W,2.07,123.44,170611,,,A*76
$GPVTG,123.44,T,,M,2.07,N,3.8,K,N*0C
$GPGGA,201402.929,3748.7423,N,12217.7077,W,1,03,7.8,25.1,M,-25.1,M,,0000*52
$GPGSA,A,2,13,19,23,,,,,,,,,,7.9,7.8,1.0*38
$GPRMC,201402.929,A,3748.7423,N,12217.7077,W,2.25,132.95,170611,,,A*78
$GPVTG,132.95,T,,M,2.25,N,4.2,K,N*0D
$GPGGA,201403.929,3748.7415,N,12217.7071,W,1,03,7.8,25.1,M,-25.1,M,,0000*50
$GPGSA,A,2,13,19,23,,,,,,,,,,7.9,7.8,1.0*38
$GPRMC,201403.929,A,3748.7415,N,12217.7071,W,2.29,136.81,170611,,,A*77
$GPVTG,136.81,T,,M,2.29,N,4.2,K,N*00
$GPGGA,201404.929,3748.7406,N,12217.7065,W,1,03,7.8,25.1,M,-25.1,M,,0000*50
$GPGSA,A,2,13,19,23,,,,,,,,,,7.9,7.8,1.0*38
$GPRMC,201404.929,A,3748.7406,N,12217.7065,W,2.31,136.40,170611,,,A*73
$GPVTG,136.40,T,,M,2.31,N,4.3,K,N*05
$GPGGA,201405.929,3748.7402,N,12217.7058,W,1,03,7.8,25.1,M,-25.1,M,,0000*5B
$GPGSA,A,2,13,19,23,,,,,,,,,,7.8,7.8,1.0*39
$GPRMC,201405.929,A,3748.7402,N,12217.7058,W,2.50,140.10,170611,,,A*7B
$GPVTG,140.10,T,,M,2.50,N,4.6,K,N*03
$GPGGA,201406.929,3748.7398,N,12217.7050,W,1,03,7.8,25.1,M,-25.1,M,,0000*54
$GPGSA,A,2,13,19,23,,,,,,,,,,7.8,7.8,1.0*39
$GPGSV,3,1,12,13,74,084,32,23,43,120,36,19,21,110,35,07,60,306,20*7F
$GPGSV,3,2,12,10,43,275,21,08,37,276,22,03,27,076,24,16,19,042,29*72
$GPGSV,3,3,12,06,19,062,20,28,13,211,28,05,11,320,18,20,06,173,*7E
$GPRMC,201406.929,A,3748.7398,N,12217.7050,W,2.25,145.06,170611,,,A*74
$GPVTG,145.06,T,,M,2.25,N,4.2,K,N*07
$GPGGA,201407.929,3748.7394,N,12217.7043,W,1,03,7.8,25.1,M,-25.1,M,,0000*5B
$GPGSA,A,2,13,19,23,,,,,,,,,,7.8,7.8,1.0*39
$GPRMC,201407.929,A,3748.7394,N,12217.7043,W,2.36,137.57,170611,,,A*78
$GPVTG,137.57,T,,M,2.36,N,4.4,K,N*02
$GPGGA,201408.929,3748.7376,N,12217.7036,W,2,03,7.8,25.1,M,-25.1,M,,0000*59
$GPGSA,A,2,13,19,23,,,,,,,,,,7.8,7.8,1.0*39
$GPRMC,201408.929,A,3748.7376,N,12217.7036,W,2.38,144.89,170611,,,D*75
$GPVTG,144.89,T,,M,2.38,N,4.4,K,N*0B
$GPGGA,201409.929,3748.7371,N,12217.7031,W,2,03,7.8,25.1,M,-25.1,M,,0000*58
$GPGSA,A,2,13,19,23,,,,,,,,,,7.8,7.8,1.0*39
$GPRMC,201409.929,A,3748.7371,N,12217.7031,W,2.10,134.24,170611,,,D*7E
$GPVTG,134.24,T,,M,2.10,N,3.9,K,N*0B
$GPGGA,201410.929,3748.7367,N,12217.7027,W,2,03,7.8,25.1,M,-25.1,M,,0000*50
$GPGSA,A,2,13,19,23,,,,,,,,,,7.8,7.8,1.0*39
$GPRMC,201410.929,A,3748.7367,N,12217.7027,W,2.15,137.41,170611,,,D*73
$GPVTG,137.41,T,,M,2.15,N,4.0,K,N*00
$GPGGA,201411.929,3748.7366,N,12217.7021,W,2,03,7.7,25.1,M,-25.1,M,,0000*59
$GPGSA,A,2,13,19,23,,,,,,,,,,7.8,7.7,1.0*36
$GPGSV,3,1,12,13,74,085,31,23,42,121,36,19,21,109,34,07,60,307,21*74
$GPGSV,3,2,12,10,43,275,26,08,37,276,26,03,27,076,20,06,19,062,20*7F
$GPGSV,3,3,12,16,19,042,17,28,13,211,32,05,11,320,18,20,05,173,*71
$GPVTG,149.83,T,,M,2.45,N,4.5,K,N*07
$GPGGA,201412.929,3748.7364,N,12217.7014,W,2,03,7.7,25.1,M,-25.1,M,2.8,0000*7A
$GPGSA,A,2,13,19,23,,,,,,,,,,7.8,7.7,1.0*36
$GPRMC,201412.929,A,3748.7364,N,12217.7014,W,2.18,139.58,170611,,,D*79
$GPVTG,139.58,T,,M,2.18,N,4.0,K,N*0B
$GPGGA,201413.929,3748.7361,N,12217.7008,W,2,03,7.7,25.1,M,-25.1,M,3.8,0000*72
$GPGSA,A,2,13,19,23,,,,,,,,,,7.8,7.7,1.0*36
$GPRMC,201413.929,A,3748.7361,N,12217.7008,W,2.51,146.31,170611,,,D*7A
$GPVTG,146.31,T,,M,2.51,N,4.6,K,N*07
$GPGGA,201414.929,3748.7361,N,12217.6996,W,2,03,7.7,25.1,M,-25.1,M,,0000*5F
$GPGSA,A,2,13,19,23,,,,,,,,,,7.8,7.7,1.0*36
$GPRMC,201414.929,A,3748.7361,N,12217.6996,W,2.36,140.02,170611,,,D*75
$GPVTG,140.02,T,,M,2.36,N,4.4,K,N*02
$GPGGA,201415.929,3748.7357,N,12217.6991,W,2,03,7.7,25.1,M,-25.1,M,,0000*5C
$GPGSA,A,2,13,19,23,,,,,,,,,,7.8,7.7,1.0*36
$GPRMC,201415.929,A,3748.7357,N,12217.6991,W,2.01,132.28,170611,,,D*7F
$GPVTG,132.28,T,,M,2.01,N,3.7,K,N*0F
$GPGGA,201416.929,3748.7355,N,12217.6983,W,2,03,7.7,25.1,M,-25.1,M,1.8,0000*79
$GPGSA,A,2,13,19,23,,,,,,,,,,7.8,7.7,1.0*36
$GPGSV,3,1,12,13,73,085,31,23,42,121,37,19,21,109,34,07,60,307,20*73
$GPGSV,3,2,12,10,43,274,26,08,37,276,26,03,27,076,21,06,19,062,19*75
$GPGSV,3,3,12,16,19,042,24,28,13,211,26,05,11,320,19,20,05,173,*75
$GPRMC,201416.929,A,3748.7355,N,12217.6983,W,2.09,116.38,170611,,,D*72
$GPVTG,116.38,T,,M,2.09,N,3.9,K,N*0E
$GPGGA,201417.929,3748.7354,N,12217.6975,W,2,03,7.7,25.1,M,-25.1,M,2.8,0000*73
$GPGSA,A,2,13,19,23,,,,,,,,,,7.8,7.7,1.0*36
$GPRMC,201417.929,A,3748.7354,N,12217.6975,W,2.26,121.36,170611,,,D*7C
$GPVTG,121.36,T,,M,2.26,N,4.2,K,N*05
$GPGGA,201418.929,3748.7351,N,12217.6968,W,2,03,7.7,25.1,M,-25.1,M,3.8,0000*74
$GPGSA,A,2,13,19,23,,,,,,,,,,7.8,7.7,1.0*36
$GPRMC,201418.929,A,3748.7351,N,12217.6968,W,2.19,144.46,170611,,,D*72
$GPVTG,144.46,T,,M,2.19,N,4.0,K,N*0F
$GPGGA,201419.929,3748.7349,N,12217.6961,W,2,03,7.7,25.1,M,-25.1,M,,0000*50
$GPGSA,A,2,13,19,23,,,,,,,,,,7.8,7.7,1.0*36
$GPRMC,201419.929,A,3748.7349,N,12217.6961,W,2.02,122.19,170611,,,D*73
$GPVTG,122.19,T,,M,2.02,N,3.7,K,N*0F
$GPGGA,201420.929,3748.7357,N,12217.6966,W,2,03,7.7,25.1,M,-25.1,M,,0000*52
$GPGSA,A,2,13,19,23,,,,,,,,,,7.8,7.7,1.0*36
$GPRMC,201420.929,A,3748.7357,N,12217.6966,W,2.29,142.72,170611,,,D*73
$GPVTG,142.72,T,,M,2.29,N,4.2,K,N*0F
$GPGGA,201421.929,3748.7334,N,12217.6955,W,2,03,7.7,25.1,M,-25.1,M,,0000*56
$GPGSA,A,2,13,19,23,,,,,,,,,,7.8,7.7,1.0*36
$GPGSV,3,1,12,13,73,085,30,23,42,121,37,19,21,109,35,07,60,307,20*73
$GPGSV,3,2,12,10,43,274,26,08,37,276,25,03,27,076,33,06,19,062,29*76
$GPGSV,3,3,12,16,19,042,20,28,13,211,24,05,11,320,20,20,05,173,*79
$GPRMC,201421.929,A,3748.7334,N,12217.6955,W,2.09,138.87,170611,,,D*72
$GPVTG,138.87,T,,M,2.09,N,3.9,K,N*06
$GPGGA,201422.929,3748.7333,N,12217.6948,W,2,03,7.7,25.1,M,-25.1,M,,0000*5E
$GPGSA,A,2,13,19,23,,,,,,,,,,7.7,7.7,1.0*39
$GPRMC,201422.929,A,3748.7333,N,12217.6948,W,2.02,135.66,170611,,,D*73
$GPVTG,135.66,T,,M,2.02,N,3.7,K,N*01
$GPGGA,201423.929,3748.7337,N,12217.6942,W,2,03,7.7,25.1,M,-25.1,M,2.8,0000*75
$GPGSA,A,2,13,19,23,,,,,,,,,,7.7,7.7,1.0*39
$GPRMC,201423.929,A,3748.7337,N,12217.6942,W,1.82,125.63,170611,,,D*73
$GPVTG,125.63,T,,M,1.82,N,3.4,K,N*0D
$GPGGA,201424.929,3748.7340,N,12217.6936,W,2,03,7.7,25.1,M,-25.1,M,,0000*55
$GPGSA,A,2,13,19,23,,,,,,,,,,7.7,7.7,1.0*39
$GPRMC,201424.929,A,3748.7340,N,12217.6936,W,1.81,74.95,170611,,,D*48
$GPVTG,74.95,T,,M,1.81,N,3.4,K,N*32
$GPGGA,201425.929,3748.7343,N,12217.6929,W,2,03,7.7,25.1,M,-25.1,M,2.8,0000*7D
$GPGSA,A,2,13,19,23,,,,,,,,,,7.7,7.7,1.0*39
$GPRMC,201425.929,A,3748.7343,N,12217.6929,W,1.90,61.60,170611,,,D*4A
$GPVTG,61.60,T,,M,1.90,N,3.5,K,N*3D
$GPGGA,201426.929,3748.7355,N,12217.6916,W,2,03,7.7,25.1,M,-25.1,M,,0000*51
$GPGSA,A,2,13,19,23,,,,,,,,,,7.7,7.7,1.0*39
$GPGSV,3,1,12,13,73,085,31,23,42,121,38,19,21,109,36,07,60,307,24*7A
$GPGSV,3,2,12,10,43,274,20,08,37,276,21,03,27,076,40,06,19,062,37*7F
$GPGSV,3,3,12,16,19,042,35,28,13,211,25,05,11,320,20,20,05,173,*7C
$GPRMC,201426.929,A,3748.7355,N,12217.6916,W,2.32,50.00,170611,,,D*4D
$GPGGA,201427.929,3748.7357,N,12217.6911,W,2,03,7.7,25.1,M,-25.1,M,2.8,0000*71
$GPGSA,A,2,13,19,23,,,,,,,,,,7.7,7.7,1.0*39
$GPRMC,201427.929,A,3748.7357,N,12217.6911,W,1.78,39.97,170611,,,D*45
$GPVTG,39.97,T,,M,1.78,N,3.3,K,N*38
$GPGGA,201428.929,3748.7363,N,12217.6908,W,2,03,7.6,25.1,M,-25.1,M,3.8,0000*71
$GPGSA,A,2,13,19,23,,,,,,,,,,7.7,7.6,1.0*38
$GPRMC,201428.929,A,3748.7363,N,12217.6908,W,1.22,20.65,170611,,,D*4F
$GPVTG,20.65,T,,M,1.22,N,2.3,K,N*33
$GPGGA,201429.929,3748.7367,N,12217.6903,W,2,03,7.6,25.1,M,-25.1,M,4.8,0000*78
$GPGSA,A,2,13,19,23,,,,,,,,,,7.7,7.6,1.0*38
$GPRMC,201429.929,A,3748.7367,N,12217.6903,W,1.81,25.02,170611,,,D*4C
$GPVTG,25.02,T,,M,1.81,N,3.3,K,N*3F
$GPGGA,201430.929,3748.7372,N,12217.6899,W,2,03,7.6,25.1,M,-25.1,M,5.8,0000*77
$GPGSA,A,2,13,19,23,,,,,,,,,,7.7,7.6,1.0*38
$GPRMC,201430.929,A,3748.7372,N,12217.6899,W,1.91,19.92,170611,,,D*45
$GPVTG,19.92,T,,M,1.91,N,3.5,K,N*3E
$GPGGA,201431.930,3748.7376,N,12217.6895,W,2,03,7.6,25.1,M,-25.1,M,6.8,0000*75
$GPGSA,A,2,13,19,23,,,,,,,,,,7.7,7.6,1.0*38
$GPGSV,3,1,12,13,73,085,31,23,42,121,38,19,21,109,37,07,60,307,20*7F
$GPGSV,3,2,12,10,43,274,20,08,37,276,20,03,27,076,39,06,19,062,38*7F
$GPGSV,3,3,12,16,19,042,33,28,13,211,13,05,11,320,21,20,05,173,*7E
$GPRMC,201431.930,A,3748.7376,N,12217.6895,W,1.88,22.12,170611,,,D*4C
$GPVTG,22.12,T,,M,1.88,N,3.5,K,N*36
$GPGGA,201432.930,3748.7382,N,12217.6891,W,2,03,7.6,25.1,M,-25.1,M,7.8,0000*78
$GPGSA,A,2,13,19,23,,,,,,,,,,7.7,7.6,1.0*38
$GPRMC,201432.930,A,3748.7382,N,12217.6891,W,1.91,33.11,170611,,,D*4B
$GPVTG,33.11,T,,M,1.91,N,3.5,K,N*3D
$GPGGA,201433.930,3748.7389,N,12217.6888,W,2,03,7.6,25.1,M,-25.1,M,8.8,0000*75
$GPGSA,A,2,13,19,23,,,,,,,,,,7.7,7.6,1.0*38
$GPRMC,201433.930,A,3748.7389,N,12217.6888,W,1.91,15.40,170611,,,D*49
$GPVTG,15.40,T,,M,1.91,N,3.5,K,N*3D
$GPGGA,201434.930,3748.7395,N,12217.6884,W,2,03,7.6,25.1,M,-25.1,M,9.8,0000*72
$GPGSA,A,2,13,19,23,,,,,,,,,,7.7,7.6,1.0*38
$GPRMC,201434.930,A,3748.7395,N,12217.6884,W,2.03,25.59,170611,,,D*4C
$GPVTG,25.59,T,,M,2.03,N,3.8,K,N*33
$GPGGA,201435.930,3748.7445,N,12217.6892,W,2,03,7.6,25.1,M,-25.1,M,10.8,0000*46
$GPGSA,A,2,13,19,23,,,,,,,,,,7.7,7.6,1.0*38
$GPRMC,201435.930,A,3748.7445,N,12217.6892,W,2.91,33.06,170611,,,D*46
$GPVTG,33.06,T,,M,2.91,N,5.4,K,N*3F
$GPGGA,201436.930,3748.7426,N,12217.6880,W,2,03,7.6,25.1,M,-25.1,M,11.8,0000*42
$GPGSA,A,2,13,19,23,,,,,,,,,,7.7,7.6,1.0*38
$GPGSV,3,1,12,13,73,085,32,23,42,121,38,19,21,109,37,07,60,307,26*7A
$GPGSV,3,2,12,10,43,274,20,08,37,276,19,03,27,076,39,06,19,062,38*75
$GPGSV,3,3,12,16,19,042,37,28,13,211,16,05,11,320,25,20,05,173,*7B
$GPRMC,201436.930,A,3748.7426,N,12217.6880,W,2.07,38.13,170611,,,D*43
$GPVTG,38.13,T,,M,2.07,N,3.8,K,N*35
$GPGGA,201437.930,3748.7433,N,12217.6877,W,2,03,7.6,25.1,M,-25.1,M,12.8,0000*4C
$GPGSA,A,2,13,19,23,,,,,,,,,,7.7,7.6,1.0*38
$GPRMC,201437.930,A,3748.7433,N,12217.6877,W,2.14,31.62,170611,,,D*43
$GPVTG,31.62,T,,M,2.14,N,4.0,K,N*37
$GPGGA,201438.930,3748.7436,N,12217.6872,W,2,03,7.6,25.1,M,-25.1,M,13.8,0000*42
$GPGSA,A,2,13,19,23,,,,,,,,,,7.7,7.6,1.0*38
$GPRMC,201438.930,A,3748.7436,N,12217.6872,W,1.95,26.50,170611,,,D*41
$GPVTG,26.50,T,,M,1.95,N,3.6,K,N*3B
$GPGGA,201439.930,3748.7440,N,12217.6867,W,2,03,7.6,25.1,M,-25.1,M,14.8,0000*41
$GPGSA,A,2,13,19,23,,,,,,,,,,7.6,7.6,1.0*39
$GPRMC,201439.930,A,3748.7440,N,12217.6867,W,1.78,31.53,170611,,,D*43
$GPVTG,31.53,T,,M,1.78,N,3.3,K,N*38
$GPGGA,201440.930,3748.7439,N,12217.6861,W,2,03,7.6,25.1,M,-25.1,M,15.8,0000*46
$GPGSA,A,2,13,19,23,,,,,,,,,,7.6,7.6,1.0*39
$GPRMC,201440.930,A,3748.7439,N,12217.6861,W,1.82,24.01,170611,,,D*43
$GPVTG,24.01,T,,M,1.82,N,3.4,K,N*39
$GPGGA,201441.930,3748.7441,N,12217.6856,W,2,03,7.6,25.1,M,-25.1,M,16.8,0000*4F
$GPGSA,A,2,13,19,23,,,,,,,,,,7.6,7.6,1.0*39
$GPGSV,3,1,12,13,73,086,32,23,42,121,39,19,21,109,37,07,60,307,25*7B
$GPGSV,3,2,12,10,43,274,20,08,37,277,20,03,27,076,39,06,19,062,38*7E
$GPGSV,3,3,12,16,19,042,33,28,13,211,24,05,12,320,18,20,05,173,*73
$GPRMC,201441.930,A,3748.7441,N,12217.6856,W,2.06,27.83,170611,,,D*4F
$GPGGA,201442.930,3748.7444,N,12217.6849,W,2,03,7.6,25.1,M,-25.1,M,17.8,0000*46
$GPGSA,A,2,13,19,23,,,,,,,,,,7.6,7.6,1.0*39
$GPRMC,201442.930,A,3748.7444,N,12217.6849,W,2.13,40.14,170611,,,D*4C
$GPVTG,40.14,T,,M,2.13,N,3.9,K,N*39
$GPGGA,201443.930,3748.7451,N,12217.6861,W,1,03,7.6,25.1,M,-25.1,M,,0000*5A
$GPGSA,A,2,13,19,23,,,,,,,,,,7.6,7.6,1.0*39
$GPRMC,201443.930,A,3748.7451,N,12217.6861,W,1.91,32.78,170611,,,A*40
$GPVTG,32.78,T,,M,1.91,N,3.5,K,N*33
$GPGGA,201444.930,3748.7456,N,12217.6855,W,1,03,7.6,25.1,M,-25.1,M,,0000*5D
$GPGSA,A,2,13,19,23,,,,,,,,,,7.6,7.6,1.0*39
$GPRMC,201444.930,A,3748.7456,N,12217.6855,W,2.10,31.01,170611,,,A*40
$GPVTG,31.01,T,,M,2.10,N,3.9,K,N*38
$GPGGA,201445.930,3748.7459,N,12217.6851,W,1,03,7.5,25.1,M,-25.1,M,,0000*54
$GPGSA,A,2,13,19,23,,,,,,,,,,7.6,7.5,1.0*3A
$GPRMC,201445.930,A,3748.7459,N,12217.6851,W,1.42,23.83,170611,,,A*47
$GPVTG,23.83,T,,M,1.42,N,2.6,K,N*3B
$GPGGA,201446.930,3748.7466,N,12217.6847,W,1,03,7.5,25.1,M,-25.1,M,,0000*5C
$GPGSA,A,2,13,19,23,,,,,,,,,,7.6,7.5,1.0*3A
$GPGSV,3,1,12,13,73,086,31,23,42,121,39,19,21,109,37,07,60,307,20*7D
$GPGSV,3,2,12,10,43,274,20,08,37,277,19,03,27,076,37,06,19,062,33*71
$GPGSV,3,3,12,16,19,042,20,28,13,211,16,05,12,320,18,20,05,173,*70
$GPRMC,201446.930,A,3748.7466,N,12217.6847,W,1.81,25.02,170611,,,A*4F
$GPVTG,25.02,T,,M,1.81,N,3.3,K,N*3F
$GPGGA,201447.930,3748.7471,N,12217.6843,W,1,03,7.5,25.1,M,-25.1,M,,0000*5F
$GPGSA,A,2,13,19,23,,,,,,,,,,7.6,7.5,1.0*3A
$GPRMC,201447.930,A,3748.7471,N,12217.6843,W,1.67,32.22,170611,,,A*40
$GPVTG,32.22,T,,M,1.67,N,3.1,K,N*31
$GPGGA,201448.930,3748.7475,N,12217.6838,W,1,03,7.5,25.1,M,-25.1,M,,0000*58
$GPGSA,A,2,13,19,23,,,,,,,,,,7.6,7.5,1.0*3A
$GPRMC,201448.930,A,3748.7475,N,12217.6838,W,1.71,32.48,170611,,,A*4C
$GPVTG,32.48,T,,M,1.71,N,3.2,K,N*39
$GPGGA,201449.930,3748.7480,N,12217.6835,W,1,03,7.5,25.1,M,-25.1,M,,0000*5E
$GPGSA,A,2,13,19,23,,,,,,,,,,7.6,7.5,1.0*3A
$GPRMC,201449.930,A,3748.7480,N,12217.6835,W,1.62,33.02,170611,,,A*47
$GPVTG,33.02,T,,M,1.62,N,3.0,K,N*36
$GPGGA,201450.930,3748.7487,N,12217.6832,W,1,03,7.5,25.1,M,-25.1,M,,0000*56
$GPGSA,A,2,13,19,23,,,,,,,,,,7.6,7.5,1.0*3A
$GPRMC,201450.930,A,3748.7487,N,12217.6832,W,1.83,23.34,170611,,,A*44
$GPVTG,23.34,T,,M,1.83,N,3.4,K,N*39
$GPGGA,201451.930,3748.7491,N,12217.6827,W,1,03,7.5,25.1,M,-25.1,M,,0000*54
$GPGSA,A,2,13,19,23,,,,,,,,,,7.6,7.5,1.0*3A
$GPGSV,3,1,12,13,73,086,32,23,42,121,39,19,21,109,38,07,60,307,27*76
$GPGSV,3,2,12,10,43,274,17,08,37,277,19,03,27,076,38,06,19,062,34*7D
$GPGSV,3,3,12,16,19,042,26,28,13,211,17,05,12,320,18,20,05,173,*77
$GPRMC,201451.930,A,3748.7491,N,12217.6827,W,1.75,30.55,170611,,,A*4A
$GPVTG,30.55,T,,M,1.75,N,3.2,K,N*33
$GPGGA,201452.930,3748.7492,N,12217.6823,W,1,03,7.5,25.1,M,-25.1,M,,0000*50
$GPGSA,A,2,13,19,23,,,,,,,,,,7.6,7.5,1.0*3A
$GPRMC,201452.930,A,3748.7492,N,12217.6823,W,0.48,37.89,170611,,,A*47
$GPVTG,37.89,T,,M,0.48,N,0.9,K,N*32
$GPGGA,201453.930,3748.7498,N,12217.6819,W,1,03,7.5,25.1,M,-25.1,M,,0000*52
$GPGSA,A,2,13,19,23,,,,,,,,,,7.6,7.5,1.0*3A
$GPRMC,201453.930,A,3748.7498,N,12217.6819,W,1.77,24.98,170611,,,A*4A
$GPVTG,24.98,T,,M,1.77,N,3.3,K,N*34
$GPGGA,201454.930,3748.7503,N,12217.6814,W,1,03,7.5,25.1,M,-25.1,M,,0000*5B
$GPGSA,A,2,13,19,23,,,,,,,,,,7.6,7.5,1.0*3A
$GPRMC,201454.930,A,3748.7503,N,12217.6814,W,1.64,38.79,170611,,,A*43
$GPVTG,38.79,T,,M,1.64,N,3.0,K,N*37
$GPGGA,201455.930,3748.7508,N,12217.6811,W,1,03,7.5,25.1,M,-25.1,M,,0000*54
$GPGSA,A,2,13,19,23,,,,,,,,,,7.6,7.5,1.0*3A
$GPRMC,201455.930,A,3748.7508,N,12217.6811,W,1.23,27.68,170611,,,A*41
$GPVTG,27.68,T,,M,1.23,N,2.3,K,N*38
$GPGGA,201505.930,3748.7546,N,12217.6711,W,1,03,7.4,25.1,M,-25.1,M,,0000*54
$GPGSA,A,2,13,19,23,,,,,,,,,,7.5,7.4,1.0*38
$GPRMC,201505.930,A,3748.7546,N,12217.6711,W,1.82,36.51,170611,,,A*41
$GPVTG,36.51,T,,M,1.82,N,3.4,K,N*3F
$GPGGA,201506.930,3748.7563,N,12217.6707,W,1,03,7.4,25.1,M,-25.1,M,,0000*57
$GPGSA,A,2,13,19,23,,,,,,,,,,7.5,7.4,1.0*38
$GPGSV,3,1,12,13,73,086,32,23,42,121,36,19,21,109,36,07,60,307,27*77
$GPGSV,3,2,12,10,43,274,21,08,37,277,20,03,27,076,38,06,19,062,36*70
$GPGSV,3,3,12,16,19,042,32,28,13,211,23,05,12,320,,20,05,173,*7C
$GPRMC,201506.930,A,3748.7563,N,12217.6707,W,1.87,37.07,170611,,,A*45
$GPVTG,37.07,T,,M,1.87,N,3.5,K,N*39
$GPGGA,201507.930,3748.7567,N,12217.6706,W,1,03,7.4,25.1,M,-25.1,M,,0000*53
$GPGSA,A,2,13,19,23,,,,,,,,,,7.5,7.4,1.0*38
$GPRMC,201507.930,A,3748.7567,N,12217.6706,W,1.94,40.87,170611,,,A*4B
$GPVTG,40.87,T,,M,1.94,N,3.6,K,N*30
$GPGGA,201508.930,3748.7560,N,12217.6712,W,1,03,7.4,25.1,M,-25.1,M,,0000*5E
$GPGSA,A,2,13,19,23,,,,,,,,,,7.5,7.4,1.0*38
$GPRMC,201508.930,A,3748.7560,N,12217.6712,W,1.58,34.60,170611,,,A*4C
$GPVTG,34.60,T,,M,1.58,N,2.9,K,N*34
$GPGGA,201509.930,3748.7563,N,12217.6712,W,1,03,7.4,25.1,M,-25.1,M,,0000*5C
$GPGSA,A,2,13,19,23,,,,,,,,,,7.5,7.4,1.0*38
$GPRMC,201509.930,A,3748.7563,N,12217.6712,W,2.08,35.97,170611,,,A*41
$GPVTG,35.97,T,,M,2.08,N,3.9,K,N*3A
$GPGGA,201510.930,3748.7562,N,12217.6714,W,1,03,7.4,25.1,M,-25.1,M,,0000*53
$GPGSA,A,2,13,19,23,,,,,,,,,,7.5,7.4,1.0*38
$GPRMC,201510.930,A,3748.7562,N,12217.6714,W,1.82,24.01,170611,,,A*40
$GPVTG,24.01,T,,M,1.82,N,3.4,K,N*39
$GPGGA,201511.930,3748.7567,N,12217.6714,W,1,03,7.4,25.1,M,-25.1,M,,0000*57
$GPGSA,A,2,13,19,23,,,,,,,,,,7.5,7.4,1.0*38
$GPGSV,3,1,12,13,73,086,32,23,42,121,38,19,21,109,36,07,60,307,26*78
$GPGSV,3,2,12,10,43,274,21,08,37,277,20,03,27,076,38,06,19,062,38*7E
$GPGSV,3,3,12,16,19,042,27,28,13,211,23,05,12,320,21,20,05,173,*7B
$GPRMC,201511.930,A,3748.7567,N,12217.6714,W,1.78,18.77,170611,,,A*4F
$GPGGA,201512.930,3748.7574,N,12217.6711,W,1,03,7.4,25.1,M,-25.1,M,,0000*53
$GPGSA,A,2,13,19,23,,,,,,,,,,7.5,7.4,1.0*38
$GPRMC,201512.930,A,3748.7574,N,12217.6711,W,1.94,24.13,170611,,,A*44
$GPVTG,24.13,T,,M,1.94,N,3.6,K,N*3F
$GPGGA,201513.930,3748.7580,N,12217.6712,W,1,03,7.4,25.1,M,-25.1,M,,0000*5A
$GPGSA,A,2,13,19,23,,,,,,,,,,7.5,7.4,1.0*38
$GPRMC,201513.930,A,3748.7580,N,12217.6712,W,1.86,22.40,170611,,,A*4E
$GPVTG,22.40,T,,M,1.86,N,3.4,K,N*3E
$GPGGA,201514.930,3748.7585,N,12217.6708,W,1,03,7.4,25.1,M,-25.1,M,,0000*53
$GPGSA,A,2,13,19,23,,,,,,,,,,7.5,7.4,1.0*38
$GPRMC,201514.930,A,3748.7585,N,12217.6708,W,1.95,24.78,170611,,,A*48
$GPVTG,24.78,T,,M,1.95,N,3.6,K,N*33
$GPGGA,201515.930,3748.7593,N,12217.6705,W,1,03,7.4,25.1,M,-25.1,M,,0000*58
$GPGSA,A,2,13,19,23,,,,,,,,,,7.5,7.4,1.0*38
$GPRMC,201515.930,A,3748.7593,N,12217.6705,W,2.09,29.71,170611,,,A*41
$GPVTG,29.71,T,,M,2.09,N,3.9,K,N*3E
$GPGGA,201518.930,3748.7605,N,12217.6706,W,1,03,7.4,25.1,M,-25.1,M,,0000*5A
$GPGSA,A,2,13,19,23,,,,,,,,,,7.4,7.4,1.0*39
$GPRMC,201518.930,A,3748.7605,N,12217.6706,W,1.91,35.20,170611,,,A*48
$GPVTG,35.20,T,,M,1.91,N,3.5,K,N*39
$GPGGA,201519.930,3748.7655,N,12217.6668,W,1,03,7.4,25.1,M,-25.1,M,,0000*57
$GPGSA,A,2,13,19,23,,,,,,,,,,7.4,7.4,1.0*39
$GPRMC,201519.930,A,3748.7655,N,12217.6668,W,3.14,28.73,170611,,,A*40
$GPVTG,28.73,T,,M,3.14,N,5.8,K,N*37
$GPGGA,201520.930,3748.7633,N,12217.6679,W,1,03,7.4,25.1,M,-25.1,M,,0000*5D
$GPGSA,A,2,13,19,23,,,,,,,,,,7.4,7.4,1.0*39
$GPRMC,201520.930,A,3748.7633,N,12217.6679,W,1.90,37.55,170611,,,A*4E
$GPVTG,37.55,T,,M,1.90,N,3.5,K,N*38
$GPGGA,201521.930,3748.7645,N,12217.6668,W,1,03,7.4,25.1,M,-25.1,M,,0000*5D
$GPGSA,A,2,13,19,23,,,,,,,,,,7.4,7.4,1.0*39
$GPGSV,3,1,12,13,73,087,32,23,42,121,39,19,21,109,38,07,60,308,26*79
$GPGSV,3,2,12,10,43,274,20,08,37,277,19,03,27,075,40,06,19,061,37*75
$GPGSV,3,3,12,16,18,042,36,28,14,211,18,05,12,319,21,20,05,173,*7F
$GPRMC,201521.930,A,3748.7645,N,12217.6668,W,1.93,32.07,170611,,,A*4F
$GPVTG,32.07,T,,M,1.93,N,3.6,K,N*3A
$GPGGA,201522.930,3748.7668,N,12217.6651,W,1,03,7.3,25.1,M,-25.1,M,,0000*5C
$GPGSA,A,2,13,19,23,,,,,,,,,,7.4,7.3,1.0*3E
$GPRMC,201522.930,A,3748.7668,N,12217.6651,W,2.34,29.47,170611,,,A*49
$GPVTG,29.47,T,,M,2.34,N,4.3,K,N*38
$GPGGA,201523.930,3748.7625,N,12217.6682,W,1,03,7.3,25.1,M,-25.1,M,,0000*5A
$GPGSA,A,2,13,19,23,,,,,,,,,,7.4,7.3,1.0*3E
$GPRMC,201523.930,A,3748.7625,N,12217.6682,W,1.85,20.23,170611,,,A*4D
$GPVTG,20.23,T,,M,1.85,N,3.4,K,N*3A
$GPGGA,201524.930,3748.7572,N,12217.6719,W,1,03,7.3,25.1,M,-25.1,M,,0000*5F
$GPGSA,A,2,13,19,23,,,,,,,,,,7.4,7.3,1.0*3E
$GPRMC,201524.930,A,3748.7572,N,12217.6719,W,1.59,25.24,170611,,,A*4B
$GPVTG,25.24,T,,M,1.59,N,2.9,K,N*35
$GPGGA,201525.930,3748.7656,N,12217.6662,W,1,03,7.3,25.1,M,-25.1,M,,0000*56
$GPGSA,A,2,13,19,23,,,,,,,,,,7.4,7.3,1.0*3E
$GPRMC,201525.930,A,3748.7656,N,12217.6662,W,1.96,27.44,170611,,,A*45
$GPVTG,27.44,T,,M,1.96,N,3.6,K,N*3C
$GPGGA,201526.930,3748.7624,N,12217.6683,W,1,03,7.3,25.1,M,-25.1,M,,0000*5F
$GPGSA,A,2,13,19,23,,,,,,,,,,7.4,7.3,1.0*3E
$GPGSV,3,1,12,13,73,087,32,23,42,121,39,19,21,109,37,07,60,308,26*76
$GPGSV,3,2,12,10,43,274,20,08,37,277,19,03,27,075,39,06,19,061,37*7B
$GPGSV,3,3,12,16,18,042,32,28,14,211,18,05,12,319,21,20,05,173,*7B
$GPRMC,201526.930,A,3748.7624,N,12217.6683,W,1.91,24.27,170611,,,A*4D
$GPVTG,24.27,T,,M,1.91,N,3.5,K,N*3E
$GPGGA,201527.930,3748.7698,N,12217.6632,W,1,03,7.3,25.1,M,-25.1,M,,0000*53
$GPGSA,A,2,13,19,23,,,,,,,,,,7.4,7.3,1.0*3E
$GPRMC,201527.930,A,3748.7698,N,12217.6632,W,1.92,25.71,170611,,,A*40
$GPVTG,25.71,T,,M,1.92,N,3.6,K,N*3C
$GPGGA,201528.930,3748.7673,N,12217.6651,W,1,03,7.3,25.1,M,-25.1,M,,0000*5C
$GPGSA,A,2,13,19,23,,,,,,,,,,7.4,7.3,1.0*3E
$GPRMC,201528.930,A,3748.7673,N,12217.6651,W,1.88,26.68,170611,,,A*4F
$GPVTG,26.68,T,,M,1.88,N,3.5,K,N*3F
$GPGGA,201529.930,3748.7641,N,12217.6673,W,1,03,7.3,25.1,M,-25.1,M,,0000*5C
$GPGSA,A,2,13,19,23,,,,,,,,,,7.4,7.3,1.0*3E
$GPRMC,201529.930,A,3748.7641,N,12217.6673,W,2.30,29.51,170611,,,A*4A
$GPVTG,29.51,T,,M,2.30,N,4.3,K,N*3B
$GPGGA,201530.930,3748.7662,N,12217.6657,W,1,03,7.3,25.1,M,-25.1,M,,0000*53
$GPGSA,A,2,13,19,23,,,,,,,,,,7.4,7.3,1.0*3E
$GPRMC,201530.930,A,3748.7662,N,12217.6657,W,3.04,22.47,170611,,,A*4F
$GPVTG,22.47,T,,M,3.04,N,5.6,K,N*35
$GPGGA,201531.930,3748.7674,N,12217.6648,W,1,03,7.3,25.1,M,-25.1,M,,0000*5B
$GPGSA,A,2,13,19,23,,,,,,,,,,7.4,7.3,1.0*3E
$GPGSV,3,1,12,13,73,087,32,23,42,121,39,19,21,109,32,07,60,308,26*73
$GPGSV,3,2,12,10,43,274,20,08,37,277,19,03,27,075,36,06,19,061,35*76
$GPRMC,201531.930,A,3748.7674,N,12217.6648,W,2.49,30.01,170611,,,A*4E
$GPVTG,30.01,T,,M,2.49,N,4.6,K,N*3D
$GPGGA,201533.929,3748.7718,N,12217.6595,W,1,03,7.3,25.1,M,-25.1,M,,0000*59
$GPGSA,A,2,13,19,23,,,,,,,,,,7.4,7.3,1.0*3E
$GPRMC,201533.929,A,3748.7718,N,12217.6595,W,2.67,42.40,170611,,,A*40
$GPVTG,42.40,T,,M,2.67,N,4.9,K,N*3E
$GPGGA,201534.929,3748.7715,N,12217.6603,W,1,03,7.3,25.1,M,-25.1,M,,0000*5F
$GPGSA,A,2,13,19,23,,,,,,,,,,7.4,7.3,1.0*3E
$GPRMC,201534.929,A,3748.7715,N,12217.6603,W,1.89,46.41,170611,,,A*40
$GPVTG,46.41,T,,M,1.89,N,3.5,K,N*33
$GPGGA,201535.929,3748.7703,N,12217.6621,W,1,03,7.3,25.1,M,-25.1,M,,0000*59
$GPGSA,A,2,13,19,23,,,,,,,,,,7.3,7.3,1.0*39
$GPRMC,201535.929,A,3748.7703,N,12217.6621,W,2.01,45.67,170611,,,A*42
$GPVTG,45.67,T,,M,2.01,N,3.7,K,N*35
$GPGGA,201536.929,3748.7690,N,12217.6642,W,1,03,7.3,25.1,M,-25.1,M,,0000*54
$GPGSA,A,2,13,19,23,,,,,,,,,,7.3,7.3,1.0*39
$GPGSV,3,1,12,13,73,087,32,23,42,121,38,19,21,109,39,07,60,308,25*7A
$GPGSV,3,2,12,10,43,274,21,08,37,277,19,03,27,075,39,06,19,061,38*75
$GPGSV,3,3,12,16,18,042,32,28,14,211,19,05,12,319,23,20,05,173,*78
$GPRMC,201536.929,A,3748.7690,N,12217.6642,W,2.09,47.02,170611,,,A*46
$GPVTG,47.02,T,,M,2.09,N,3.9,K,N*32
$GPGGA,201537.929,3748.7685,N,12217.6652,W,1,03,7.3,25.1,M,-25.1,M,,0000*50
$GPGSA,A,2,13,19,23,,,,,,,,,,7.3,7.3,1.0*39
$GPRMC,201537.929,A,3748.7685,N,12217.6652,W,1.87,44.36,170611,,,A*43
$GPVTG,44.36,T,,M,1.87,N,3.5,K,N*3F
$GPGGA,201538.929,3748.7685,N,12217.6658,W,1,03,7.3,25.1,M,-25.1,M,,0000*55
$GPGSA,A,2,13,19,23,,,,,,,,,,7.3,7.3,1.0*39
$GPRMC,201538.929,A,3748.7685,N,12217.6658,W,1.77,33.48,170611,,,A*40
$GPVTG,33.48,T,,M,1.77,N,3.3,K,N*3F
$GPGGA,201539.929,3748.7685,N,12217.6663,W,1,03,7.3,25.1,M,-25.1,M,,0000*5C
$GPGSA,A,2,13,19,23,,,,,,,,,,7.3,7.3,1.0*39
$GPRMC,201539.929,A,3748.7685,N,12217.6663,W,1.62,16.88,170611,,,A*46
$GPVTG,16.88,T,,M,1.62,N,3.0,K,N*33
$GPGGA,201540.929,3748.7825,N,12217.6465,W,1,03,7.3,25.1,M,-25.1,M,,0000*52
$GPGSA,A,2,13,19,23,,,,,,,,,,7.3,7.3,1.0*39
$GPRMC,201540.929,A,3748.7825,N,12217.6465,W,2.69,27.79,170611,,,A*4C
$GPVTG,27.79,T,,M,2.69,N,5.0,K,N*31
$GPGGA,201541.929,3748.7761,N,12217.6565,W,1,03,7.2,25.1,M,-25.1,M,,0000*5C
$GPGSA,A,2,13,19,23,,,,,,,,,,7.3,7.2,1.0*38
$GPGSV,3,1,12,13,73,087,32,23,42,121,38,19,22,109,29,07,60,308,25*78
$GPGSV,3,2,12,10,43,274,20,08,37,277,19,03,27,075,39,06,19,061,38*74
$GPGSV,3,3,12,16,18,042,38,28,14,211,20,05,12,319,21,20,05,173,*7A
$GPRMC,201541.929,A,3748.7761,N,12217.6565,W,2.14,15.41,170611,,,A*43
$GPGGA,201542.929,3748.7753,N,12217.6585,W,1,03,7.2,25.1,M,-25.1,M,,0000*50
$GPGSA,A,2,13,19,23,,,,,,,,,,7.3,7.2,1.0*38
$GPRMC,201542.929,A,3748.7753,N,12217.6585,W,3.21,19.21,170611,,,A*42
$GPVTG,19.21,T,,M,3.21,N,5.9,K,N*35
$GPGGA,201543.929,3748.7811,N,12217.6508,W,1,03,7.2,25.1,M,-25.1,M,,0000*5D
$GPGSA,A,2,13,19,23,,,,,,,,,,7.3,7.2,1.0*38
$GPRMC,201543.929,A,3748.7811,N,12217.6508,W,2.48,27.67,170611,,,A*4E
$GPVTG,27.67,T,,M,2.48,N,4.6,K,N*3A
$GPGGA,201544.929,3748.7763,N,12217.6580,W,1,03,7.2,25.1,M,-25.1,M,,0000*50
$GPGSA,A,2,13,19,23,,,,,,,,,,7.3,7.2,1.0*38
$GPRMC,201544.929,A,3748.7763,N,12217.6580,W,2.02,22.27,170611,,,A*4C
$GPVTG,22.27,T,,M,2.02,N,3.7,K,N*33
$GPGGA,201545.929,3748.7781,N,12217.6559,W,1,03,7.2,25.1,M,-25.1,M,,0000*59
$GPGSA,A,2,13,19,23,,,,,,,,,,7.3,7.2,1.0*38
$GPRMC,201545.929,A,3748.7781,N,12217.6559,W,1.71,29.41,170611,,,A*49
$GPVTG,29.41,T,,M,1.71,N,3.2,K,N*3A
$GPGGA,201546.929,3748.7794,N,12217.6543,W,1,03,7.2,25.1,M,-25.1,M,,0000*55
$GPGSA,A,2,13,19,23,,,,,,,,,,7.3,7.2,1.0*38
$GPGSV,3,1,12,13,73,088,32,23,42,121,38,19,22,109,37,07,60,308,26*7B
$GPGSV,3,2,12,10,43,273,20,08,37,277,20,03,27,075,39,06,19,061,38*79
$GPGSV,3,3,12,16,18,042,32,28,14,211,20,05,12,319,21,20,05,173,*70
$GPRMC,201546.929,A,3748.7794,N,12217.6543,W,2.34,32.75,170611,,,A*4A
$GPVTG,32.75,T,,M,2.34,N,4.3,K,N*33
$GPGGA,201547.929,3748.7794,N,12217.6548,W,1,03,7.2,25.1,M,-25.1,M,,0000*5F
$GPGSA,A,2,13,19,23,,,,,,,,,,7.3,7.2,1.0*38
$GPRMC,201547.929,A,3748.7794,N,12217.6548,W,1.83,31.54,170611,,,A*4F
$GPVTG,31.54,T,,M,1.83,N,3.4,K,N*3C
$GPGGA,201548.929,3748.7707,N,12217.6506,W,1,03,7.2,25.1,M,-25.1,M,,0000*50
$GPGSA,A,2,13,19,23,,,,,,,,,,7.3,7.2,1.0*38
$GPRMC,201548.929,A,3748.7707,N,12217.6506,W,1.38,29.75,170611,,,A*4A
$GPVTG,29.75,T,,M,1.38,N,2.6,K,N*35
$GPGGA,201549.929,3748.7777,N,12217.6528,W,1,03,7.2,25.1,M,-25.1,M,,0000*5A
$GPGSA,A,2,13,19,23,,,,,,,,,,7.3,7.2,1.0*38
$GPRMC,201549.929,A,3748.7777,N,12217.6528,W,3.00,21.08,170611,,,A*4B
$GPVTG,21.08,T,,M,3.00,N,5.6,K,N*39
$GPGGA,201550.929,3748.7797,N,12217.6527,W,1,03,7.2,25.1,M,-25.1,M,,0000*53
$GPGSA,A,2,13,19,23,,,,,,,,,,7.3,7.2,1.0*38
$GPRMC,201550.929,A,3748.7797,N,12217.6527,W,2.26,34.92,170611,,,A*40
$GPVTG,34.92,T,,M,2.26,N,4.2,K,N*3E
$GPGGA,201551.929,3748.7821,N,12217.6539,W,1,04,2.9,22.0,M,-25.1,M,,0000*50
$GPGSA,A,3,16,13,19,23,,,,,,,,,3.1,2.9,1.0*36
$GPGSV,3,1,12,13,73,088,30,23,42,121,38,19,22,109,38,07,60,308,21*71
$GPGSV,3,2,12,10,43,273,20,08,37,277,21,03,27,075,39,06,19,061,38*78
$GPGSV,3,3,12,16,18,042,35,28,14,211,23,05,12,319,20,20,05,173,*75
$GPVTG,27.24,T,,M,2.35,N,4.4,K,A*3A
$GPGGA,201552.929,3748.7826,N,12217.6537,W,1,04,2.9,22.2,M,-25.1,M,,0000*58
$GPGSA,A,3,16,13,19,23,,,,,,,,,3.1,2.9,1.0*36
$GPRMC,201552.929,A,3748.7826,N,12217.6537,W,2.45,29.10,170611,,,A*45
$GPVTG,29.10,T,,M,2.45,N,4.5,K,A*35
$GPGGA,201553.929,3748.7833,N,12217.6534,W,1,04,2.9,22.5,M,-25.1,M,,0000*59
$GPGSA,A,3,16,13,19,23,,,,,,,,,3.1,2.9,1.0*36
$GPRMC,201553.929,A,3748.7833,N,12217.6534,W,2.41,28.61,170611,,,A*40
$GPVTG,28.61,T,,M,2.41,N,4.5,K,A*36
$GPGGA,201555.000,3748.7839,N,12217.6529,W,1,04,2.9,22.7,M,-25.1,M,,0000*59
$GPGSA,A,3,16,13,19,23,,,,,,,,,3.1,2.9,1.0*36
$GPRMC,201555.000,A,3748.7839,N,12217.6529,W,2.32,27.85,170611,,,A*43
$GPVTG,27.85,T,,M,2.32,N,4.3,K,A*31
$GPGGA,201556.000,3748.7846,N,12217.6524,W,1,04,2.9,22.8,M,-25.1,M,,0000*50
$GPGSA,A,3,16,13,19,23,,,,,,,,,3.1,2.9,1.0*36
$GPRMC,201556.000,A,3748.7846,N,12217.6524,W,2.37,26.66,170611,,,A*4C
$GPVTG,26.66,T,,M,2.37,N,4.4,K,A*3F
$GPGGA,201557.000,3748.7852,N,12217.6520,W,1,04,2.9,22.8,M,-25.1,M,,0000*50
$GPGSA,A,3,16,13,19,23,,,,,,,,,3.1,2.9,1.0*36
$GPGSV,3,1,12,13,73,088,31,23,42,122,38,19,22,108,38,16,18,042,36*76
$GPGSV,3,2,12,07,60,308,26,10,43,273,20,08,37,277,21,03,27,075,39*74
$GPGSV,3,3,12,06,19,061,38,28,14,211,22,05,12,319,20,20,05,173,*78
$GPRMC,201557.000,A,3748.7852,N,12217.6520,W,2.40,28.35,170611,,,A*44
$GPVTG,28.35,T,,M,2.40,N,4.4,K,A*37
$GPGGA,201558.000,3748.7857,N,12217.6516,W,1,04,2.9,22.8,M,-25.1,M,,0000*5F
$GPGSA,A,3,16,13,19,23,,,,,,,,,3.1,2.9,1.0*36
$GPRMC,201558.000,A,3748.7857,N,12217.6516,W,2.39,29.51,170611,,,A*46
$GPVTG,29.51,T,,M,2.39,N,4.4,K,A*3A
$GPGGA,201559.000,3748.7863,N,12217.6512,W,1,04,2.9,22.8,M,-25.1,M,,0000*5D
$GPGSA,A,3,16,13,19,23,,,,,,,,,3.1,2.9,1.0*36
$GPRMC,201559.000,A,3748.7863,N,12217.6512,W,2.38,30.02,170611,,,A*4B
$GPVTG,30.02,T,,M,2.38,N,4.4,K,A*35
$GPGGA,201600.000,3748.7869,N,12217.6508,W,1,04,2.9,22.8,M,-25.1,M,,0000*53
$GPGSA,A,3,16,13,19,23,,,,,,,,,3.1,2.9,1.0*36
$GPRMC,201600.000,A,3748.7869,N,12217.6508,W,2.37,25.38,170611,,,A*47
$GPVTG,25.38,T,,M,2.37,N,4.4,K,A*37
$GPGGA,201601.000,3748.7875,N,12217.6503,W,1,04,2.9,22.8,M,-25.1,M,,0000*54
$GPGSA,A,3,16,13,19,23,,,,,,,,,3.1,2.9,1.0*36
$GPRMC,201601.000,A,3748.7875,N,12217.6503,W,2.49,31.66,170611,,,A*47
$GPVTG,31.66,T,,M,2.49,N,4.6,K,A*32
$GPGGA,201602.000,3748.7881,N,12217.6497,W,1,04,2.9,22.9,M,-25.1,M,,0000*51
$GPGSA,A,3,16,13,19,23,,,,,,,,,3.1,2.9,1.0*36
$GPGSV,3,1,12,13,73,088,31,23,42,122,38,19,22,108,38,16,18,042,35*75
$GPGSV,3,2,12,07,60,308,26,10,43,273,21,08,37,277,20,03,27,075,39*74
$GPGSV,3,3,12,06,19,061,38,28,14,211,22,05,12,319,20,20,05,173,*78
$GPRMC,201602.000,A,3748.7881,N,12217.6497,W,2.53,34.88,170611,,,A*4D
$GPVTG,34.88,T,,M,2.53,N,4.7,K,A*3D
$GPGGA,201603.000,3748.7887,N,12217.6492,W,1,04,2.9,22.9,M,-25.1,M,,0000*53
$GPGSA,A,3,16,13,19,23,,,,,,,,,3.1,2.9,1.0*36
$GPRMC,201603.000,A,3748.7887,N,12217.6492,W,2.48,32.59,170611,,,A*4F
$GPVTG,32.59,T,,M,2.48,N,4.6,K,A*3C
$GPGGA,201604.000,3748.7893,N,12217.6487,W,1,04,2.9,22.9,M,-25.1,M,,0000*55
$GPGSA,A,3,16,13,19,23,,,,,,,,,3.1,2.9,1.0*36
$GPRMC,201604.000,A,3748.7893,N,12217.6487,W,2.47,32.33,170611,,,A*4A
$GPVTG,32.33,T,,M,2.47,N,4.6,K,A*3F
$GPGGA,201605.000,3748.7899,N,12217.6483,W,1,04,2.9,23.0,M,-25.1,M,,0000*52
$GPGSA,A,3,16,13,19,23,,,,,,,,,3.1,2.9,1.0*36
$GPRMC,201605.000,A,3748.7899,N,12217.6483,W,2.54,27.59,170611,,,A*4F
$GPVTG,27.59,T,,M,2.54,N,4.7,K,A*34
$GPGGA,201606.000,3748.7904,N,12217.6477,W,1,04,2.9,23.0,M,-25.1,M,,0000*5F
$GPGSA,A,3,16,13,19,23,,,,,,,,,3.1,2.9,1.0*36
$GPRMC,201606.000,A,3748.7904,N,12217.6477,W,2.38,39.57,170611,,,A*49
$GPVTG,39.57,T,,M,2.38,N,4.4,K,A*3C
$GPGGA,201607.000,3748.7910,N,12217.6472,W,1,04,2.9,23.0,M,-25.1,M,,0000*5E
$GPGSA,A,3,16,13,19,23,,,,,,,,,3.1,2.9,1.0*36
$GPGSV,3,1,12,13,73,088,31,23,42,122,38,19,22,108,33,16,18,042,35*7E
$GPGSV,3,2,12,07,60,308,26,10,43,273,25,08,37,277,21,03,27,075,39*71
$GPGSV,3,3,12,06,19,061,36,28,14,211,22,05,12,319,20,20,05,173,*76
$GPRMC,201607.000,A,3748.7910,N,12217.6472,W,2.55,34.82,170611,,,A*46
$GPGGA,201608.000,3748.7916,N,12217.6467,W,1,04,2.9,23.0,M,-25.1,M,,0000*53
$GPGSA,A,3,16,13,19,23,,,,,,,,,3.1,2.9,1.0*36
$GPRMC,201608.000,A,3748.7916,N,12217.6467,W,2.46,28.36,170611,,,A*4B
$GPVTG,28.36,T,,M,2.46,N,4.5,K,A*33
$GPGGA,201609.000,3748.7922,N,12217.6463,W,1,04,2.9,22.9,M,-25.1,M,,0000*59
$GPGSA,A,3,16,13,19,23,,,,,,,,,3.1,2.9,1.0*36
$GPRMC,201609.000,A,3748.7922,N,12217.6463,W,2.48,29.96,170611,,,A*4C
$GPVTG,29.96,T,,M,2.48,N,4.6,K,A*35
$GPGGA,201610.000,3748.7927,N,12217.6459,W,1,04,2.9,22.9,M,-25.1,M,,0000*5D
$GPGSA,A,3,16,13,19,23,,,,,,,,,3.1,2.9,1.0*36
$GPRMC,201610.000,A,3748.7927,N,12217.6459,W,2.43,30.41,170611,,,A*41
$GPVTG,30.41,T,,M,2.43,N,4.5,K,A*3F
$GPGGA,201611.000,3748.7933,N,12217.6455,W,1,04,2.9,22.8,M,-25.1,M,,0000*54
$GPGSA,A,3,16,13,19,23,,,,,,,,,3.1,2.9,1.0*36
$GPRMC,201611.000,A,3748.7933,N,12217.6455,W,2.40,30.29,170611,,,A*44
$GPVTG,30.29,T,,M,2.40,N,4.4,K,A*33
$GPGGA,201612.000,3748.7939,N,12217.6451,W,1,04,2.9,22.8,M,-25.1,M,,0000*59
$GPGSA,A,3,16,13,19,23,,,,,,,,,3.1,2.9,1.0*36
$GPGSV,3,1,12,13,73,088,32,07,60,308,26,10,43,273,21,23,41,122,38*7C
$GPGSV,3,2,12,08,37,277,22,03,27,075,39,19,22,108,35,06,19,061,33*75
$GPGSV,3,3,12,16,18,042,35,28,14,211,22,05,12,319,21,20,05,173,*75
$GPRMC,201612.000,A,3748.7939,N,12217.6451,W,2.52,26.35,170611,,,A*40
$GPVTG,26.35,T,,M,2.52,N,4.7,K,A*39
$GPGGA,201613.000,3748.7946,N,12217.6446,W,1,04,2.9,22.7,M,-25.1,M,,0000*59
$GPGSA,A,3,16,13,19,23,,,,,,,,,3.1,2.9,1.0*36
$GPRMC,201613.000,A,3748.7946,N,12217.6446,W,2.57,30.48,170611,,,A*47
$GPVTG,30.48,T,,M,2.57,N,4.8,K,A*3E
$GPGGA,201614.000,3748.7952,N,12217.6441,W,1,04,2.9,22.6,M,-25.1,M,,0000*5D
$GPGSA,A,3,16,13,19,23,,,,,,,,,3.1,2.9,1.0*36
$GPRMC,201614.000,A,3748.7952,N,12217.6441,W,2.51,34.97,170611,,,A*42
$GPVTG,34.97,T,,M,2.51,N,4.6,K,A*30
$GPGGA,201615.000,3748.7958,N,12217.6437,W,1,04,2.9,22.6,M,-25.1,M,,0000*57
$GPGSA,A,3,16,13,19,23,,,,,,,,,3.1,2.9,1.0*36
$GPRMC,201615.000,A,3748.7958,N,12217.6437,W,2.50,29.36,170611,,,A*4E
$GPVTG,29.36,T,,M,2.50,N,4.6,K,A*36
$GPGGA,201616.000,3748.7965,N,12217.6432,W,1,04,2.9,22.5,M,-25.1,M,,0000*5C
$GPGSA,A,3,16,13,19,23,,,,,,,,,3.1,2.9,1.0*36
$GPRMC,201616.000,A,3748.7965,N,12217.6432,W,2.63,27.22,170611,,,A*4D
$GPVTG,27.22,T,,M,2.63,N,4.9,K,A*32
$GPGGA,201617.000,3748.7971,N,12217.6428,W,1,04,2.9,22.4,M,-25.1,M,,0000*52
$GPGSA,A,3,16,13,19,23,,,,,,,,,3.1,2.9,1.0*36
$GPGSV,3,1,12,13,73,088,32,07,60,308,26,10,43,273,22,23,41,122,38*7F
$GPGSV,3,2,12,08,37,277,22,03,27,075,40,19,22,108,37,06,19,061,29*72
$GPGSV,3,3,12,16,18,042,35,28,14,211,21,05,12,319,30,20,05,173,*76
$GPRMC,201617.000,A,3748.7971,N,12217.6428,W,2.56,27.43,170611,,,A*43
$GPVTG,27.43,T,,M,2.56,N,4.7,K,A*3D
$GPGGA,201618.000,3748.7978,N,12217.6424,W,1,04,2.9,22.4,M,-25.1,M,,0000*58
$GPGSA,A,3,16,13,19,23,,,,,,,,,3.1,2.9,1.0*36
$GPRMC,201618.000,A,3748.7978,N,12217.6424,W,2.57,25.64,170611,,,A*4F
$GPVTG,25.64,T,,M,2.57,N,4.8,K,A*34
$GPGGA,201619.000,3748.7984,N,12217.6421,W,1,04,2.9,22.3,M,-25.1,M,,0000*58
$GPGSA,A,3,16,13,19,23,,,,,,,,,3.1,2.9,1.0*36
$GPRMC,201619.000,A,3748.7984,N,12217.6421,W,2.52,25.94,170611,,,A*42
$GPVTG,25.94,T,,M,2.52,N,4.7,K,A*31
$GPGGA,201620.000,3748.7990,N,12217.6417,W,1,04,2.9,22.3,M,-25.1,M,,0000*52
$GPGSA,A,3,16,13,19,23,,,,,,,,,3.1,2.9,1.0*36
$GPRMC,201620.000,A,3748.7990,N,12217.6417,W,2.50,27.47,170611,,,A*46
$GPVTG,27.47,T,,M,2.50,N,4.6,K,A*3E
$GPGGA,201621.000,3748.7997,N,12217.6412,W,1,04,2.9,22.2,M,-25.1,M,,0000*50
$GPGSA,A,3,16,13,19,23,,,,,,,,,3.1,2.9,1.0*36
$GPRMC,201621.000,A,3748.7997,N,12217.6412,W,2.62,31.43,170611,,,A*47
$GPVTG,31.43,T,,M,2.62,N,4.8,K,A*32
$GPGGA,201622.000,3748.7995,N,12217.6444,W,1,05,2.6,17.6,M,-25.1,M,,0000*5E
$GPGSA,A,3,06,16,13,19,23,,,,,,,,2.8,2.6,1.0*37
$GPGSV,3,1,12,13,73,089,32,07,60,308,27,10,43,273,23,23,41,122,38*7E
$GPGSV,3,2,12,08,37,277,22,03,27,075,39,19,22,108,37,06,19,061,15*73
$GPGSV,3,3,12,16,18,042,36,28,14,211,21,05,12,319,22,20,05,173,*76
$GPRMC,201622.000,A,3748.7995,N,12217.6444,W,2.70,32.94,170611,,,A*4F
$GPGGA,201623.000,3748.7979,N,12217.6535,W,1,05,2.6,6.0,M,-25.1,M,,0000*6C
$GPGSA,A,3,06,16,13,19,23,,,,,,,,2.8,2.6,1.0*37
$GPRMC,201623.000,A,3748.7979,N,12217.6535,W,2.32,27.12,170611,,,A*47
$GPVTG,27.12,T,,M,2.32,N,4.3,K,A*3F
$GPGGA,201624.000,3748.7993,N,12217.6496,W,1,05,2.6,10.3,M,-25.1,M,,0000*53
$GPGSA,A,3,06,16,13,19,23,,,,,,,,2.8,2.6,1.0*37
$GPRMC,201624.000,A,3748.7993,N,12217.6496,W,2.38,25.40,170611,,,A*43
$GPVTG,25.40,T,,M,2.38,N,4.4,K,A*37
$GPGGA,201625.000,3748.7990,N,12217.6532,W,1,05,2.6,5.5,M,-25.1,M,,0000*6C
$GPGSA,A,3,06,16,13,19,23,,,,,,,,2.8,2.6,1.0*37
$GPRMC,201625.000,A,3748.7990,N,12217.6532,W,2.48,24.34,170611,,,A*4B
$GPVTG,24.34,T,,M,2.48,N,4.6,K,A*30
$GPGGA,201626.000,3748.7993,N,12217.6541,W,1,05,2.6,3.8,M,-25.1,M,,0000*63
$GPGSA,A,3,06,16,13,19,23,,,,,,,,2.8,2.6,1.0*37
$GPRMC,201626.000,A,3748.7993,N,12217.6541,W,2.46,28.73,170611,,,A*4E
$GPVTG,28.73,T,,M,2.46,N,4.6,K,A*31
$GPGGA,201627.000,3748.8003,N,12217.6516,W,1,05,2.6,6.3,M,-25.1,M,,0000*61
$GPGSA,A,3,06,16,13,19,23,,,,,,,,2.8,2.6,1.0*37
$GPGSV,3,1,12,13,73,089,32,07,60,308,20,10,43,273,22,23,41,122,38*78
$GPGSV,3,2,12,08,37,277,22,03,27,075,39,19,22,108,37,06,19,061,27*72
$GPGSV,3,3,12,16,18,042,37,28,14,211,21,05,12,319,23,20,05,173,*76
$GPRMC,201627.000,A,3748.8003,N,12217.6516,W,2.36,33.87,170611,,,A*44
$GPVTG,33.87,T,,M,2.36,N,4.4,K,A*35
$GPGGA,201628.000,3748.8005,N,12217.6528,W,1,05,2.6,4.3,M,-25.1,M,,0000*67
$GPGSA,A,3,06,16,13,19,23,,,,,,,,2.8,2.6,1.0*37
$GPRMC,201628.000,A,3748.8005,N,12217.6528,W,2.31,29.05,170611,,,A*46
$GPVTG,29.05,T,,M,2.31,N,4.3,K,A*34
$GPGGA,201629.000,3748.8010,N,12217.6524,W,1,05,2.6,4.1,M,-25.1,M,,0000*6C
$GPGSA,A,3,06,16,13,19,23,,,,,,,,2.8,2.6,1.0*37
$GPRMC,201629.000,A,3748.8010,N,12217.6524,W,2.48,36.80,170611,,,A*42
$GPVTG,36.80,T,,M,2.48,N,4.6,K,A*3C
$GPGGA,201630.000,3748.8013,N,12217.6531,W,1,05,2.6,2.8,M,-25.1,M,,0000*6C
$GPGSA,A,3,06,16,13,19,23,,,,,,,,2.8,2.6,1.0*37
$GPRMC,201630.000,A,3748.8013,N,12217.6531,W,2.38,27.95,170611,,,A*4E
$GPVTG,27.95,T,,M,2.38,N,4.4,K,A*3D
$GPGGA,201631.000,3748.8022,N,12217.6517,W,1,05,2.6,4.1,M,-25.1,M,,0000*64
$GPGSA,A,3,06,16,13,19,23,,,,,,,,2.8,2.6,1.0*37
$GPRMC,201631.000,A,3748.8022,N,12217.6517,W,2.50,16.62,170611,,,A*4D
$GPVTG,16.62,T,,M,2.50,N,4.6,K,A*3B
$GPGGA,201632.000,3748.8027,N,12217.6524,W,1,05,2.6,3.0,M,-25.1,M,,0000*64
$GPGSA,A,3,06,16,13,19,23,,,,,,,,2.8,2.6,1.0*37
$GPGSV,3,1,12,13,73,089,32,07,60,308,30,10,43,273,17,23,41,122,38*7F
$GPGSV,3,2,12,08,37,277,20,03,27,075,24,19,22,108,36,06,19,061,24*7E
$GPGSV,3,3,12,16,18,042,37,28,14,211,21,05,12,319,26,20,05,173,*73
$GPRMC,201632.000,A,3748.8027,N,12217.6524,W,2.40,7.29,170611,,,A*75
$GPVTG,7.29,T,,M,2.40,N,4.4,K,A*07
$GPGGA,201633.000,3748.8032,N,12217.6526,W,1,05,2.6,2.5,M,-25.1,M,,0000*67
$GPGSA,A,3,06,16,13,19,23,,,,,,,,2.8,2.6,1.0*37
$GPRMC,201633.000,A,3748.8032,N,12217.6526,W,2.19,18.52,170611,,,A*4C
$GPVTG,18.52,T,,M,2.19,N,4.1,K,A*3C
$GPGGA,201634.000,3748.8040,N,12217.6510,W,1,05,2.6,3.7,M,-25.1,M,,0000*63
$GPGSA,A,3,06,16,13,19,23,,,,,,,,2.8,2.6,1.0*37
$GPRMC,201634.000,A,3748.8040,N,12217.6510,W,2.70,27.41,170611,,,A*4A
$GPVTG,27.41,T,,M,2.70,N,5.0,K,A*3D
$GPGGA,201635.000,3748.8048,N,12217.6498,W,1,05,2.6,4.6,M,-25.1,M,,0000*6D
$GPGSA,A,3,06,16,13,19,23,,,,,,,,2.8,2.6,1.0*37
$GPRMC,201635.000,A,3748.8048,N,12217.6498,W,2.30,36.77,170611,,,A*43
$GPVTG,36.77,T,,M,2.30,N,4.3,K,A*3E
$GPGGA,201636.000,3748.8045,N,12217.6522,W,1,05,2.6,1.2,M,-25.1,M,,0000*62
$GPGSA,A,3,06,16,13,19,23,,,,,,,,2.8,2.6,1.0*37
$GPRMC,201636.000,A,3748.8045,N,12217.6522,W,1.71,50.72,170611,,,A*4E
$GPVTG,50.72,T,,M,1.71,N,3.2,K,A*3B
$GPGGA,201637.000,3748.8044,N,12217.6530,W,1,05,2.6,-0.1,M,-25.1,M,,0000*4E
$GPGSA,A,3,06,16,13,19,23,,,,,,,,2.8,2.6,1.0*37
$GPGSV,3,1,12,13,73,089,32,07,60,308,27,10,43,273,27,23,41,122,38*7A
$GPGSV,3,2,12,08,37,277,29,03,27,075,24,19,22,108,37,06,19,061,20*72
$GPGSV,3,3,12,16,18,042,31,28,14,211,38,05,12,319,20,20,05,173,*7B
$GPRMC,201637.000,A,3748.8044,N,12217.6530,W,0.79,61.28,170611,,,A*49
$GPGGA,201638.000,3748.8040,N,12217.6549,W,1,05,2.6,-2.3,M,-25.1,M,,0000*4B
$GPGSA,A,3,06,16,13,19,23,,,,,,,,2.8,2.6,1.0*37
$GPRMC,201638.000,A,3748.8040,N,12217.6549,W,0.17,183.91,170611,,,A*7B
$GPVTG,183.91,T,,M,0.17,N,0.3,K,A*0A
$GPGGA,201639.000,3748.8035,N,12217.6560,W,1,05,2.6,-3.2,M,-25.1,M,,0000*43
$GPGSA,A,3,06,16,13,19,23,,,,,,,,2.8,2.6,1.0*37
$GPRMC,201639.000,A,3748.8035,N,12217.6560,W,0.28,297.19,170611,,,A*79
$GPVTG,297.19,T,,M,0.28,N,0.5,K,A*06
$GPGGA,201640.000,3748.8032,N,12217.6561,W,1,05,2.6,-2.7,M,-25.1,M,,0000*4F
$GPGSA,A,3,06,16,13,19,23,,,,,,,,2.8,2.6,1.0*37
$GPRMC,201640.000,A,3748.8032,N,12217.6561,W,0.37,269.69,170611,,,A*79
$GPVTG,269.69,T,,M,0.37,N,0.7,K,A*0C
$GPGGA,201641.000,3748.8030,N,12217.6561,W,1,05,2.6,-2.2,M,-25.1,M,,0000*49
$GPGSA,A,3,06,16,13,19,23,,,,,,,,2.8,2.6,1.0*37
$GPRMC,201641.000,A,3748.8030,N,12217.6561,W,0.57,267.58,170611,,,A*70
$GPVTG,267.58,T,,M,0.57,N,1.1,K,A*01
$GPGGA,201642.000,3748.8027,N,12217.6557,W,1,05,2.6,-1.1,M,-25.1,M,,0000*49
$GPGSA,A,3,06,16,13,19,23,,,,,,,,2.8,2.6,1.0*37
$GPGSV,3,1,12,13,73,089,28,07,60,309,28,10,43,273,34,23,41,122,37*72
$GPGSV,3,2,12,08,38,277,37,03,27,075,11,19,22,108,36,06,19,061,19*7F
$GPGSV,3,3,12,16,18,042,21,28,14,212,40,05,12,319,28,20,05,173,*7E
$GPRMC,201642.000,A,3748.8027,N,12217.6557,W,0.49,296.42,170611,,,A*7A
$GPVTG,296.42,T,,M,0.49,N,0.9,K,A*02
$GPGGA,201643.000,3748.8027,N,12217.6562,W,1,05,2.6,-1.8,M,-25.1,M,,0000*47
$GPGSA,A,3,06,16,13,19,23,,,,,,,,2.8,2.6,1.0*37
$GPRMC,201643.000,A,3748.8027,N,12217.6562,W,0.37,347.28,170611,,,A*75
$GPVTG,347.28,T,,M,0.37,N,0.7,K,A*04
$GPGGA,201644.000,3748.8025,N,12217.6567,W,1,05,2.6,-2.2,M,-25.1,M,,0000*4E
$GPGSA,A,3,06,16,13,19,23,,,,,,,,2.8,2.6,1.0*37
$GPRMC,201644.000,A,3748.8025,N,12217.6567,W,0.33,258.41,170611,,,A*71
$GPVTG,258.41,T,,M,0.33,N,0.6,K,A*01
$GPGGA,201645.000,3748.8025,N,12217.6574,W,1,05,2.6,-3.2,M,-25.1,M,,0000*4C
$GPGSA,A,3,06,16,13,19,23,,,,,,,,2.8,2.6,1.0*37
$GPRMC,201645.000,A,3748.8025,N,12217.6574,W,0.33,238.41,170611,,,A*74
$GPVTG,238.41,T,,M,0.33,N,0.6,K,A*07
$GPGGA,201646.000,3748.8022,N,12217.6584,W,1,05,2.6,-4.3,M,-25.1,M,,0000*41
$GPGSA,A,3,06,16,13,19,23,,,,,,,,2.8,2.6,1.0*37
$GPRMC,201646.000,A,3748.8022,N,12217.6584,W,0.89,208.44,170611,,,A*78
$GPVTG,208.44,T,,M,0.89,N,1.6,K,A*01
$GPGGA,201647.000,3748.8021,N,12217.6591,W,1,05,2.6,-5.5,M,-25.1,M,,0000*40
$GPGSA,A,3,06,16,13,19,23,,,,,,,,2.8,2.6,1.0*37
$GPGSV,3,1,12,13,73,089,29,07,60,309,27,10,43,273,21,23,41,122,37*78
$GPGSV,3,2,12,08,38,278,21,03,27,075,24,19,22,108,36,06,19,061,19*71
$GPGSV,3,3,12,16,18,042,34,28,14,212,36,05,12,319,24,20,05,173,*77
$GPRMC,201647.000,A,3748.8021,N,12217.6591,W,0.56,39.21,170611,,,A*4F
$GPVTG,39.21,T,,M,0.56,N,1.0,K,A*36
$GPGGA,201648.000,3748.8020,N,12217.6606,W,1,05,2.6,-7.7,M,-25.1,M,,0000*43
$GPGSA,A,3,06,16,13,19,23,,,,,,,,2.8,2.6,1.0*37
$GPRMC,201648.000,A,3748.8020,N,12217.6606,W,1.51,22.01,170611,,,A*42
$GPVTG,22.01,T,,M,1.51,N,2.8,K,A*33
$GPGGA,201649.000,3748.8026,N,12217.6596,W,1,05,2.6,-7.3,M,-25.1,M,,0000*4A
$GPGSA,A,3,06,16,13,19,23,,,,,,,,2.8,2.6,1.0*37
$GPRMC,201649.000,A,3748.8026,N,12217.6596,W,1.80,20.29,170611,,,A*4B
$GPVTG,20.29,T,,M,1.80,N,3.3,K,A*3D
$GPGGA,201650.000,3748.8035,N,12217.6582,W,1,05,2.6,-6.5,M,-25.1,M,,0000*42
$GPGSA,A,3,06,16,13,19,23,,,,,,,,2.8,2.6,1.0*37
$GPRMC,201650.000,A,3748.8035,N,12217.6582,W,2.33,28.94,170611,,,A*41
$GPVTG,28.94,T,,M,2.33,N,4.3,K,A*3F
$GPGGA,201651.000,3748.8039,N,12217.6584,W,1,05,2.6,-7.2,M,-25.1,M,,0000*4F
$GPGSA,A,3,06,16,13,19,23,,,,,,,,2.8,2.6,1.0*37
$GPRMC,201651.000,A,3748.8039,N,12217.6584,W,1.81,27.45,170611,,,A*43
$GPVTG,27.45,T,,M,1.81,N,3.4,K,A*36
$GPGGA,201652.000,3748.8041,N,12217.6591,W,1,05,2.6,-8.8,M,-25.1,M,,0000*42
$GPGSA,A,3,06,16,13,19,23,,,,,,,,2.8,2.6,1.0*37
$GPGSV,3,1,12,13,73,089,30,07,60,309,26,10,43,273,20,23,41,122,38*7F
$GPGSV,3,2,12,08,38,278,20,03,27,075,25,19,22,108,24,06,19,061,20*78
$GPGSV,3,3,12,16,18,042,35,28,14,212,23,05,12,319,26,20,05,173,*70
$GPRMC,201652.000,A,3748.8041,N,12217.6591,W,1.83,27.58,170611,,,A*45
$GPGGA,201653.000,3748.8047,N,12217.6601,W,1,05,2.6,-9.6,M,-25.1,M,,0000*40
$GPGSA,A,3,06,16,13,19,23,,,,,,,,2.8,2.6,1.0*37
$GPRMC,201653.000,A,3748.8047,N,12217.6601,W,2.33,5.20,170611,,,A*7F
$GPVTG,5.20,T,,M,2.33,N,4.3,K,A*0F
$GPGGA,201654.000,3748.8054,N,12217.6612,W,1,05,2.6,-10.2,M,-25.1,M,,0000*7B
$GPGSA,A,3,06,16,13,19,23,,,,,,,,2.8,2.6,1.0*37
$GPRMC,201654.000,A,3748.8054,N,12217.6612,W,2.24,354.37,170611,,,A*7F
$GPVTG,354.37,T,,M,2.24,N,4.1,K,A*0A
$GPGGA,201655.000,3748.8058,N,12217.6625,W,1,05,2.6,-11.7,M,-25.1,M,,0000*76
$GPGSA,A,3,06,16,13,19,23,,,,,,,,2.8,2.6,1.0*37
$GPRMC,201655.000,A,3748.8058,N,12217.6625,W,2.28,0.47,170611,,,A*7F
$GPVTG,0.47,T,,M,2.28,N,4.2,K,A*00
$GPGGA,201656.000,3748.8070,N,12217.6610,W,1,05,2.6,-10.2,M,-25.1,M,,0000*7D
$GPGSA,A,3,06,16,13,19,23,,,,,,,,2.8,2.6,1.0*37
$GPRMC,201656.000,A,3748.8070,N,12217.6610,W,2.49,15.38,170611,,,A*4B
$GPVTG,15.38,T,,M,2.49,N,4.6,K,A*3F
$GPGGA,201657.000,3748.8076,N,12217.6607,W,1,05,2.6,-10.1,M,-25.1,M,,0000*7F
$GPGSA,A,3,06,16,13,19,23,,,,,,,,2.8,2.6,1.0*37
$GPGSV,3,1,12,13,73,089,31,07,60,309,26,10,43,273,21,23,41,122,34*73
$GPGSV,3,2,12,08,38,278,21,03,27,075,23,19,22,108,18,06,19,061,20*70
$GPGSV,3,3,12,16,18,042,35,28,14,212,20,05,12,319,25,20,05,173,*70
$GPRMC,201657.000,A,3748.8076,N,12217.6607,W,1.97,32.53,170611,,,A*42
$GPVTG,32.53,T,,M,1.97,N,3.6,K,A*30
$GPGGA,201658.000,3748.8081,N,12217.6604,W,1,05,2.6,-10.6,M,-25.1,M,,0000*7C
$GPGSA,A,3,06,16,13,19,23,,,,,,,,2.8,2.6,1.0*37
$GPRMC,201658.000,A,3748.8081,N,12217.6604,W,2.28,24.81,170611,,,A*49
$GPVTG,24.81,T,,M,2.28,N,4.2,K,A*3C
$GPGGA,201659.000,3748.8087,N,12217.6604,W,1,04,3.2,-11.2,M,-25.1,M,,0000*7A
$GPGSA,A,3,06,16,13,23,,,,,,,,,3.3,3.2,1.0*30
$GPRMC,201659.000,A,3748.8087,N,12217.6604,W,2.27,19.95,170611,,,A*4A
$GPVTG,19.95,T,,M,2.27,N,4.2,K,A*38
$GPGGA,201700.000,3748.8095,N,12217.6595,W,1,04,3.2,-10.8,M,-25.1,M,,0000*74
$GPGSA,A,3,06,16,13,23,,,,,,,,,3.3,3.2,1.0*30
$GPRMC,201700.000,A,3748.8095,N,12217.6595,W,2.43,11.27,170611,,,A*4C
$GPVTG,11.27,T,,M,2.43,N,4.5,K,A*3C
$GPGGA,201701.000,3748.8102,N,12217.6591,W,1,04,3.2,-10.8,M,-25.1,M,,0000*7E
$GPGSA,A,3,06,16,13,23,,,,,,,,,3.3,3.2,1.0*30
$GPRMC,201701.000,A,3748.8102,N,12217.6591,W,2.36,7.87,170611,,,A*79
$GPVTG,7.87,T,,M,2.36,N,4.4,K,A*02
$GPGGA,201702.000,3748.8109,N,12217.6586,W,1,04,3.2,-10.9,M,-25.1,M,,0000*71
$GPGSA,A,3,06,16,13,23,,,,,,,,,3.3,3.2,1.0*30
$GPGSV,3,1,12,13,73,089,32,07,60,309,27,10,43,273,23,23,41,122,32*75
$GPGSV,3,2,12,08,38,278,24,03,27,075,23,19,22,108,18,06,19,061,24*71
$GPGSV,3,3,12,16,18,042,36,28,14,212,20,05,12,319,25,20,05,173,*73
$GPRMC,201702.000,A,3748.8109,N,12217.6586,W,2.28,6.23,170611,,,A*77
$GPVTG,6.23,T,,M,2.28,N,4.2,K,A*04
$GPGGA,201703.000,3748.8116,N,12217.6579,W,1,04,3.2,-10.7,M,-25.1,M,,0000*70
$GPGSA,A,3,06,16,13,23,,,,,,,,,3.3,3.2,1.0*30
$GPRMC,201703.000,A,3748.8116,N,12217.6579,W,2.45,3.08,170611,,,A*7F
$GPVTG,3.08,T,,M,2.45,N,4.5,K,A*04
$GPGGA,201704.000,3748.8125,N,12217.6561,W,1,04,3.2,-9.7,M,-25.1,M,,0000*46
$GPGSA,A,3,06,16,13,23,,,,,,,,,3.3,3.2,1.0*30
$GPRMC,201704.000,A,3748.8125,N,12217.6561,W,2.28,24.69,170611,,,A*48
$GPVTG,24.69,T,,M,2.28,N,4.2,K,A*3A
$GPGGA,201705.000,3748.8133,N,12217.6544,W,1,04,3.2,-8.8,M,-25.1,M,,0000*49
$GPGSA,A,3,06,16,13,23,,,,,,,,,3.3,3.2,1.0*30
$GPRMC,201705.000,A,3748.8133,N,12217.6544,W,2.40,36.07,170611,,,A*4C
$GPVTG,36.07,T,,M,2.40,N,4.4,K,A*39
$GPGGA,201706.000,3748.8141,N,12217.6542,W,1,05,2.6,-8.2,M,-25.1,M,,0000*47
$GPGSA,A,3,06,16,13,19,23,,,,,,,,2.8,2.6,1.0*37
$GPRMC,201706.000,A,3748.8141,N,12217.6542,W,2.10,34.94,170611,,,A*41
$GPVTG,34.94,T,,M,2.10,N,3.9,K,A*3E
$GPGGA,201707.000,3748.8149,N,12217.6539,W,1,05,2.6,-7.7,M,-25.1,M,,0000*48
$GPGSA,A,3,06,16,13,19,23,,,,,,,,2.8,2.6,1.0*37
$GPGSV,3,1,12,13,73,089,32,07,60,309,27,10,43,273,25,23,41,122,32*73
$GPGSV,3,2,12,08,38,278,25,03,27,075,22,19,22,108,17,06,19,061,23*79
$GPGSV,3,3,12,16,18,042,36,28,14,212,21,05,12,319,24,20,05,173,*73
$GPRMC,201707.000,A,3748.8149,N,12217.6539,W,2.18,26.92,170611,,,A*49
$GPGGA,201708.000,3748.8155,N,12217.6535,W,1,05,2.6,-7.8,M,-25.1,M,,0000*49
$GPGSA,A,3,06,16,13,19,23,,,,,,,,2.8,2.6,1.0*37
$GPRMC,201708.000,A,3748.8155,N,12217.6535,W,2.46,21.42,170611,,,A*46
$GPVTG,21.42,T,,M,2.46,N,4.6,K,A*3A
$GPGGA,201709.000,3748.8163,N,12217.6529,W,1,05,2.6,-7.3,M,-25.1,M,,0000*4B
$GPGSA,A,3,06,16,13,19,23,,,,,,,,2.8,2.6,1.0*37
$GPRMC,201709.000,A,3748.8163,N,12217.6529,W,2.44,18.76,170611,,,A*40
$GPVTG,18.76,T,,M,2.44,N,4.5,K,A*36
$GPGGA,201710.000,3748.8167,N,12217.6530,W,1,04,3.2,-7.9,M,-25.1,M,,0000*41
$GPGSA,A,3,06,16,13,23,,,,,,,,,3.3,3.2,1.0*30
$GPRMC,201710.000,A,3748.8167,N,12217.6530,W,2.15,17.42,170611,,,A*48
$GPVTG,17.42,T,,M,2.15,N,4.0,K,A*3F
$GPGGA,201711.000,3748.8174,N,12217.6530,W,1,05,2.6,-7.9,M,-25.1,M,,0000*46
$GPGSA,A,3,06,16,13,19,23,,,,,,,,2.8,2.6,1.0*37
$GPRMC,201711.000,A,3748.8174,N,12217.6530,W,2.36,15.90,170611,,,A*47
$GPVTG,15.90,T,,M,2.36,N,4.4,K,A*37
$GPGGA,201712.000,3748.8179,N,12217.6533,W,1,05,2.6,-8.5,M,-25.1,M,,0000*48
$GPGSA,A,3,06,16,13,19,23,,,,,,,,2.8,2.6,1.0*37
$GPGSV,3,1,12,13,73,090,32,07,60,309,27,10,43,273,24,23,41,122,32*7A
$GPGSV,3,2,12,08,38,278,25,03,27,074,22,19,22,108,17,06,19,061,23*78
$GPGSV,3,3,12,16,18,042,37,28,14,212,21,05,12,319,26,20,04,173,*71
$GPRMC,201712.000,A,3748.8179,N,12217.6533,W,2.27,11.56,170611,,,A*44
$GPVTG,11.56,T,,M,2.27,N,4.2,K,A*3F
$GPGGA,201713.000,3748.8185,N,12217.6526,W,1,05,2.6,-8.5,M,-25.1,M,,0000*4E
$GPGSA,A,3,06,16,13,19,23,,,,,,,,2.8,2.6,1.0*37
$GPRMC,201713.000,A,3748.8185,N,12217.6526,W,2.12,32.87,170611,,,A*49
$GPVTG,32.87,T,,M,2.12,N,3.9,K,A*38
$GPGGA,201714.000,3748.8189,N,12217.6516,W,1,05,2.6,-8.6,M,-25.1,M,,0000*45
$GPGSA,A,3,06,16,13,19,23,,,,,,,,2.8,2.6,1.0*37
$GPRMC,201714.000,A,3748.8189,N,12217.6516,W,2.22,32.12,170611,,,A*4E
$GPVTG,32.12,T,,M,2.22,N,4.1,K,A*38
$GPGGA,201715.000,3748.8194,N,12217.6513,W,1,05,2.6,-9.0,M,-25.1,M,,0000*4A
$GPGSA,A,3,06,16,13,19,23,,,,,,,,2.8,2.6,1.0*37
$GPRMC,201715.000,A,3748.8194,N,12217.6513,W,2.48,32.05,170611,,,A*4C
$GPVTG,32.05,T,,M,2.48,N,4.6,K,A*35
$GPGGA,201716.000,3748.8201,N,12217.6502,W,1,05,2.6,-8.4,M,-25.1,M,,0000*43
$GPGSA,A,3,06,16,13,19,23,,,,,,,,2.8,2.6,1.0*37
$GPRMC,201716.000,A,3748.8201,N,12217.6502,W,2.45,27.60,170611,,,A*4A
$GPVTG,27.60,T,,M,2.45,N,4.5,K,A*3C
$GPGGA,201717.000,3748.8205,N,12217.6492,W,1,05,2.6,-8.9,M,-25.1,M,,0000*43
$GPGSA,A,3,06,16,13,19,23,,,,,,,,2.8,2.6,1.0*37
$GPGSV,3,1,12,13,73,090,32,07,60,309,27,10,43,273,22,23,41,122,32*7C
$GPGSV,3,2,12,08,38,278,20,03,27,074,28,19,22,108,16,06,19,061,25*70
$GPGSV,3,3,12,16,18,042,36,28,14,212,20,05,12,319,22,20,04,173,*75
$GPRMC,201717.000,A,3748.8205,N,12217.6492,W,2.54,29.86,170611,,,A*41
$GPVTG,29.86,T,,M,2.54,N,4.7,K,A*38
$GPGGA,201718.000,3748.8211,N,12217.6481,W,1,05,2.6,-8.6,M,-25.1,M,,0000*44
$GPGSA,A,3,06,16,13,19,23,,,,,,,,2.8,2.6,1.0*37
$GPRMC,201718.000,A,3748.8211,N,12217.6481,W,2.50,27.63,170611,,,A*48
$GPVTG,27.63,T,,M,2.50,N,4.6,K,A*38
$GPGGA,201719.000,3748.8220,N,12217.6482,W,1,05,2.6,-8.2,M,-25.1,M,,0000*40
$GPGSA,A,3,06,16,13,19,23,,,,,,,,2.8,2.6,1.0*37
$GPRMC,201719.000,A,3748.8220,N,12217.6482,W,2.39,16.45,170611,,,A*41
$GPVTG,16.45,T,,M,2.39,N,4.4,K,A*33
$GPGGA,201720.000,3748.8227,N,12217.6468,W,1,04,3.2,-7.5,M,-25.1,M,,0000*45
$GPGSA,A,3,06,16,13,23,,,,,,,,,3.3,3.2,1.0*30
$GPRMC,201720.000,A,3748.8227,N,12217.6468,W,2.18,21.68,170611,,,A*40
$GPVTG,21.68,T,,M,2.18,N,4.0,K,A*3F
$GPGGA,201721.000,3748.8232,N,12217.6460,W,1,04,3.2,-7.5,M,-25.1,M,,0000*48
$GPGSA,A,3,06,16,13,23,,,,,,,,,3.3,3.2,1.0*30
$GPRMC,201721.000,A,3748.8232,N,12217.6460,W,2.30,38.79,170611,,,A*4F
$GPVTG,38.79,T,,M,2.30,N,4.3,K,A*3E
$GPGGA,201722.000,3748.8239,N,12217.6445,W,1,04,3.2,-6.8,M,-25.1,M,,0000*4B
$GPGSA,A,3,06,16,13,23,,,,,,,,,3.3,3.2,1.0*30
$GPGSV,3,1,12,13,73,090,32,07,60,309,25,10,43,273,21,23,41,122,27*79
$GPGSV,3,2,12,08,38,278,21,03,27,074,22,19,22,108,16,06,19,061,28*76
$GPGSV,3,3,12,16,18,042,38,28,14,212,19,05,12,319,23,20,04,173,*70
$GPRMC,201722.000,A,3748.8239,N,12217.6445,W,2.44,46.42,170611,,,A*42
$GPGGA,201723.000,3748.8245,N,12217.6434,W,1,04,3.2,-6.4,M,-25.1,M,,0000*4B
$GPGSA,A,3,06,16,13,23,,,,,,,,,3.3,3.2,1.0*30
$GPRMC,201723.000,A,3748.8245,N,12217.6434,W,2.67,48.75,170611,,,A*45
$GPVTG,48.75,T,,M,2.67,N,5.0,K,A*35
$GPGGA,201724.000,3748.8250,N,12217.6428,W,1,04,3.2,-6.5,M,-25.1,M,,0000*44
$GPGSA,A,3,06,16,13,23,,,,,,,,,3.3,3.2,1.0*30
$GPRMC,201724.000,A,3748.8250,N,12217.6428,W,2.56,47.83,170611,,,A*4F
$GPVTG,47.83,T,,M,2.56,N,4.7,K,A*37
$GPGGA,201725.000,3748.8256,N,12217.6424,W,1,05,2.6,-6.5,M,-25.1,M,,0000*4B
$GPGSA,A,3,06,16,13,19,23,,,,,,,,2.8,2.6,1.0*37
$GPRMC,201725.000,A,3748.8256,N,12217.6424,W,2.57,38.11,170611,,,A*46
$GPVTG,38.11,T,,M,2.57,N,4.8,K,A*3A
$GPGGA,201726.000,3748.8262,N,12217.6419,W,1,05,2.6,-6.5,M,-25.1,M,,0000*41
$GPGSA,A,3,06,16,13,19,23,,,,,,,,2.8,2.6,1.0*37
$GPRMC,201726.000,A,3748.8262,N,12217.6419,W,2.62,30.08,170611,,,A*4A
$GPVTG,30.08,T,,M,2.62,N,4.9,K,A*3D
$GPGGA,201727.000,3748.8268,N,12217.6414,W,1,05,2.6,-6.5,M,-25.1,M,,0000*47
$GPGSA,A,3,06,16,13,19,23,,,,,,,,2.8,2.6,1.0*37
$GPGSV,3,1,12,13,73,090,32,07,60,309,26,10,43,273,21,23,41,122,33*7F
$GPGSV,3,2,12,08,38,278,21,03,27,074,29,19,22,108,16,06,19,061,39*7D
$GPGSV,3,3,12,16,18,042,37,28,14,212,19,05,12,319,23,20,04,173,*7F
$GPRMC,201727.000,A,3748.8268,N,12217.6414,W,2.47,30.23,170611,,,A*42
$GPVTG,30.23,T,,M,2.47,N,4.6,K,A*3C
$GPGGA,201728.000,3748.8273,N,12217.6411,W,1,05,2.6,-6.6,M,-25.1,M,,0000*44
$GPGSA,A,3,06,16,13,19,23,,,,,,,,2.8,2.6,1.0*37
$GPRMC,201728.000,A,3748.8273,N,12217.6411,W,2.37,30.40,170611,,,A*40
$GPVTG,30.40,T,,M,2.37,N,4.4,K,A*3C
$GPGGA,201729.000,3748.8280,N,12217.6407,W,1,05,2.6,-6.5,M,-25.1,M,,0000*4D
$GPGSA,A,3,06,16,13,19,23,,,,,,,,2.8,2.6,1.0*37
$GPRMC,201729.000,A,3748.8280,N,12217.6407,W,2.50,29.08,170611,,,A*4F
$GPVTG,29.08,T,,M,2.50,N,4.6,K,A*3B
$GPGGA,201730.000,3748.8286,N,12217.6402,W,1,05,2.6,-6.6,M,-25.1,M,,0000*45
$GPGSA,A,3,06,16,13,19,23,,,,,,,,2.8,2.6,1.0*37
$GPRMC,201730.000,A,3748.8286,N,12217.6402,W,2.47,24.42,170611,,,A*41
$GPVTG,24.42,T,,M,2.47,N,4.6,K,A*3E
$GPGGA,201731.000,3748.8292,N,12217.6395,W,1,05,2.6,-6.3,M,-25.1,M,,0000*4D
$GPGSA,A,3,06,16,13,19,23,,,,,,,,2.8,2.6,1.0*37
$GPRMC,201731.000,A,3748.8292,N,12217.6395,W,2.44,33.49,170611,,,A*42
$GPVTG,33.49,T,,M,2.44,N,4.5,K,A*33
$GPGGA,201732.000,3748.8299,N,12217.6391,W,1,05,2.6,-6.3,M,-25.1,M,,0000*41
$GPGSA,A,3,06,16,13,19,23,,,,,,,,2.8,2.6,1.0*37
$GPGSV,3,1,12,13,73,090,30,07,60,309,26,10,43,273,21,23,41,122,33*7D
$GPGSV,3,2,12,08,38,278,21,03,27,074,29,19,22,108,18,06,19,061,36*7C
$GPGSV,3,3,12,16,18,042,37,28,14,212,19,05,12,319,23,20,04,173,*7F
$GPRMC,201732.000,A,3748.8299,N,12217.6391,W,2.66,36.32,170611,,,A*47
$GPVTG,36.32,T,,M,2.66,N,4.9,K,A*36
$GPGGA,201733.000,3748.8306,N,12217.6386,W,1,05,2.6,-6.1,M,-25.1,M,,0000*43
$GPGSA,A,3,06,16,13,19,23,,,,,,,,2.8,2.6,1.0*37
$GPRMC,201733.000,A,3748.8306,N,12217.6386,W,2.46,38.02,170611,,,A*48
$GPVTG,38.02,T,,M,2.46,N,4.6,K,A*36
$GPGGA,201734.000,3748.8313,N,12217.6381,W,1,05,2.6,-5.7,M,-25.1,M,,0000*42
$GPGSA,A,3,06,16,13,19,23,,,,,,,,2.8,2.6,1.0*37
$GPRMC,201734.000,A,3748.8313,N,12217.6381,W,2.46,24.23,170611,,,A*42
$GPVTG,24.23,T,,M,2.46,N,4.6,K,A*38
$GPGGA,201735.000,3748.8321,N,12217.6377,W,1,05,2.6,-5.3,M,-25.1,M,,0000*4F
$GPGSA,A,3,06,16,13,19,23,,,,,,,,2.8,2.6,1.0*37
$GPRMC,201735.000,A,3748.8321,N,12217.6377,W,2.50,17.26,170611,,,A*49
$GPVTG,17.26,T,,M,2.50,N,4.6,K,A*3A
$GPGGA,201736.000,3748.8328,N,12217.6371,W,1,05,2.6,-5.1,M,-25.1,M,,0000*41
$GPGSA,A,3,06,16,13,19,23,,,,,,,,2.8,2.6,1.0*37
$GPRMC,201736.000,A,3748.8328,N,12217.6371,W,2.37,31.50,170611,,,A*41
$GPVTG,31.50,T,,M,2.37,N,4.4,K,A*3C
$GPGGA,201737.000,3748.8333,N,12217.6363,W,1,04,3.2,-5.0,M,-25.1,M,,0000*4C
$GPGSA,A,3,06,16,13,23,,,,,,,,,3.3,3.2,1.0*30
$GPGSV,3,1,12,13,73,090,31,07,60,309,26,10,43,273,21,23,41,122,34*7B
$GPGSV,3,2,12,08,38,278,21,03,27,074,41,19,22,108,19,06,19,061,38*7D
$GPGSV,3,3,12,16,18,042,37,28,14,212,19,05,12,319,25,20,04,173,*79
$GPRMC,201737.000,A,3748.8333,N,12217.6363,W,2.42,33.64,170611,,,A*4E
$GPGGA,201738.000,3748.8339,N,12217.6355,W,1,04,3.2,-4.8,M,-25.1,M,,0000*45
$GPGSA,A,3,06,16,13,23,,,,,,,,,3.3,3.2,1.0*30
$GPRMC,201738.000,A,3748.8339,N,12217.6355,W,2.45,33.83,170611,,,A*40
$GPVTG,33.83,T,,M,2.45,N,4.5,K,A*34
$GPGGA,201739.000,3748.8345,N,12217.6347,W,1,04,3.2,-4.7,M,-25.1,M,,0000*43
$GPGSA,A,3,06,16,13,23,,,,,,,,,3.3,3.2,1.0*30
$GPRMC,201739.000,A,3748.8345,N,12217.6347,W,2.52,33.62,170611,,,A*40
$GPVTG,33.62,T,,M,2.52,N,4.7,K,A*3F
$GPGGA,201740.000,3748.8351,N,12217.6339,W,1,04,3.2,-4.6,M,-25.1,M,,0000*40
$GPGSA,A,3,06,16,13,23,,,,,,,,,3.3,3.2,1.0*30
$GPRMC,201740.000,A,3748.8351,N,12217.6339,W,2.60,34.18,170611,,,A*49
$GPVTG,34.18,T,,M,2.60,N,4.8,K,A*3B
$GPGGA,201741.000,3748.8357,N,12217.6332,W,1,04,3.2,-4.5,M,-25.1,M,,0000*4F
$GPGSA,A,3,06,16,13,23,,,,,,,,,3.3,3.2,1.0*30
$GPRMC,201741.000,A,3748.8357,N,12217.6332,W,2.49,30.33,170611,,,A*43
$GPVTG,30.33,T,,M,2.49,N,4.6,K,A*33
$GPGGA,201742.000,3748.8362,N,12217.6323,W,1,05,2.6,-4.4,M,-25.1,M,,0000*4F
$GPGSA,A,3,06,16,13,19,23,,,,,,,,2.8,2.6,1.0*37
$GPGSV,3,1,12,13,73,090,31,07,60,309,26,10,43,273,21,23,41,122,34*7B
$GPGSV,3,2,12,08,38,278,20,03,27,074,40,19,22,108,21,06,19,061,38*76
$GPGSV,3,3,12,16,18,042,39,28,14,212,20,05,12,319,23,20,04,173,*7B
$GPRMC,201742.000,A,3748.8362,N,12217.6323,W,2.52,25.73,170611,,,A*4C
$GPVTG,25.73,T,,M,2.52,N,4.7,K,A*38
$GPGGA,201743.000,3748.8369,N,12217.6317,W,1,05,2.6,-4.3,M,-25.1,M,,0000*45
$GPGSA,A,3,06,16,13,19,23,,,,,,,,2.8,2.6,1.0*37
$GPRMC,201743.000,A,3748.8369,N,12217.6317,W,2.48,30.56,170611,,,A*49
$GPVTG,30.56,T,,M,2.48,N,4.6,K,A*31
$GPGGA,201744.000,3748.8374,N,12217.6310,W,1,05,2.6,-4.3,M,-25.1,M,,0000*49
$GPGSA,A,3,06,16,13,19,23,,,,,,,,2.8,2.6,1.0*37
$GPRMC,201744.000,A,3748.8374,N,12217.6310,W,2.45,47.00,170611,,,A*4B
$GPVTG,47.00,T,,M,2.45,N,4.5,K,A*3C
$GPGGA,201745.000,3748.8379,N,12217.6302,W,1,05,2.6,-4.3,M,-25.1,M,,0000*46
$GPGSA,A,3,06,16,13,19,23,,,,,,,,2.8,2.6,1.0*37
$GPRMC,201745.000,A,3748.8379,N,12217.6302,W,2.52,35.90,170611,,,A*4E
$GPVTG,35.90,T,,M,2.52,N,4.7,K,A*34
$GPGGA,201746.000,3748.8384,N,12217.6295,W,1,05,2.6,-4.3,M,-25.1,M,,0000*48
$GPGSA,A,3,06,16,13,19,23,,,,,,,,2.8,2.6,1.0*37
$GPRMC,201746.000,A,3748.8384,N,12217.6295,W,2.53,30.03,170611,,,A*4E
$GPVTG,30.03,T,,M,2.53,N,4.7,K,A*3A
$GPGGA,201747.000,3748.8390,N,12217.6288,W,1,05,2.6,-4.3,M,-25.1,M,,0000*40
$GPGSA,A,3,06,16,13,19,23,,,,,,,,2.8,2.6,1.0*37
$GPGSV,3,1,12,13,73,091,32,07,61,310,25,10,43,272,21,23,41,122,34*72
$GPGSV,3,2,12,08,38,278,20,03,27,074,40,19,22,108,38,06,19,060,38*7F
$GPGSV,3,3,12,16,18,042,39,28,15,212,23,05,12,319,22,20,04,173,*78
$GPRMC,201747.000,A,3748.8390,N,12217.6288,W,2.46,33.96,170611,,,A*4D
$GPVTG,33.96,T,,M,2.46,N,4.6,K,A*30
$GPGGA,201748.000,3748.8395,N,12217.6281,W,1,05,2.6,-4.2,M,-25.1,M,,0000*42
$GPGSA,A,3,06,16,13,19,23,,,,,,,,2.8,2.6,1.0*37
$GPRMC,201748.000,A,3748.8395,N,12217.6281,W,2.15,46.36,170611,,,A*40
$GPVTG,46.36,T,,M,2.15,N,4.0,K,A*38
$GPGGA,201749.000,3748.8398,N,12217.6271,W,1,05,2.6,-4.1,M,-25.1,M,,0000*42
$GPGSA,A,3,06,16,13,19,23,,,,,,,,2.8,2.6,1.0*37
$GPRMC,201749.000,A,3748.8398,N,12217.6271,W,2.15,72.67,170611,,,A*40
$GPVTG,72.67,T,,M,2.15,N,4.0,K,A*3B
$GPGGA,201750.000,3748.8399,N,12217.6259,W,1,05,2.6,-3.9,M,-25.1,M,,0000*4E
$GPGSA,A,3,06,16,13,19,23,,,,,,,,2.8,2.6,1.0*37
$GPRMC,201750.000,A,3748.8399,N,12217.6259,W,2.56,88.00,170611,,,A*40
$GPVTG,88.00,T,,M,2.56,N,4.7,K,A*3F
$GPGGA,201751.000,3748.8399,N,12217.6247,W,1,05,2.6,-3.8,M,-25.1,M,,0000*41
$GPGSA,A,3,06,16,13,19,23,,,,,,,,2.8,2.6,1.0*37
$GPRMC,201751.000,A,3748.8399,N,12217.6247,W,2.46,98.16,170611,,,A*49
$GPVTG,98.16,T,,M,2.46,N,4.6,K,A*39
$GPGGA,201752.000,3748.8397,N,12217.6237,W,1,05,2.6,-3.5,M,-25.1,M,,0000*46
$GPGSA,A,3,06,16,13,19,23,,,,,,,,2.8,2.6,1.0*37
$GPGSV,3,1,12,13,73,091,32,07,61,310,25,10,43,272,21,23,41,122,40*71
$GPGSV,3,2,12,08,38,278,23,03,27,074,33,19,22,108,36,06,19,060,32*7C
$GPGSV,3,3,12,16,18,042,26,28,15,212,36,05,12,319,21,20,04,173,*71
$GPRMC,201752.000,A,3748.8397,N,12217.6237,W,2.33,110.07,170611,,,A*70
$GPGGA,201753.000,3748.8395,N,12217.6228,W,1,05,2.6,-3.5,M,-25.1,M,,0000*4B
$GPGSA,A,3,06,16,13,19,23,,,,,,,,2.8,2.6,1.0*37
$GPRMC,201753.000,A,3748.8395,N,12217.6228,W,2.29,108.46,170611,,,A*7A
$GPVTG,108.46,T,,M,2.29,N,4.2,K,A*09
$GPGGA,201754.000,3748.8393,N,12217.6221,W,1,05,2.6,-3.6,M,-25.1,M,,0000*40
$GPGSA,A,3,06,16,13,19,23,,,,,,,,2.8,2.6,1.0*37
$GPRMC,201754.000,A,3748.8393,N,12217.6221,W,2.17,106.22,170611,,,A*73
$GPVTG,106.22,T,,M,2.17,N,4.0,K,A*0A
$GPGGA,201755.000,3748.8392,N,12217.6214,W,1,05,2.6,-3.7,M,-25.1,M,,0000*47
$GPGSA,A,3,06,16,13,19,23,,,,,,,,2.8,2.6,1.0*37
$GPRMC,201755.000,A,3748.8392,N,12217.6214,W,2.09,106.32,170611,,,A*7B
$GPVTG,106.32,T,,M,2.09,N,3.9,K,A*0A
$GPGGA,201756.000,3748.8390,N,12217.6206,W,1,05,2.6,-3.7,M,-25.1,M,,0000*45
$GPGSA,A,3,06,16,13,19,23,,,,,,,,2.8,2.6,1.0*37
