$ADVER,3080,2.3
$GPRMC,194458.495,A,3748.7320,N,12217.2577,W,0.00,,250812,,,A*6D
$GPGGA,194459.495,3748.7327,N,12217.2575,W,1,03,12.2,25.1,M,-25.1,M,,0000*66
$GPGSA,A,2,17,27,09,,,,,,,,,,12.2,12.2,1.0*38
$GPRMC,194459.495,A,3748.7327,N,12217.2575,W,0.00,,250812,,,A*69
$GPVTG,,T,,M,0.00,N,0.0,K,N*1C
$GPGGA,194500.495,3748.7328,N,12217.2575,W,1,03,12.2,25.1,M,-25.1,M,,0000*64
$GPGSA,A,2,17,27,09,,,,,,,,,,12.2,12.2,1.0*38
$GPGSV,3,1,12,17,68,042,39,27,50,310,32,09,37,314,29,28,41,069,31*7D
$GPGSV,3,2,12,04,32,154,,15,28,258,,26,24,213,26,08,18,138,*72
$GPGSV,3,3,12,01,09,037,,02,08,183,,12,06,282,,48,00,000,32*76
$GPRMC,194500.495,A,3748.7328,N,12217.2575,W,0.00,,250812,,,A*6B
$GPVTG,,T,,M,0.00,N,0.0,K,N*1C
$GPGGA,194501.495,3748.7326,N,12217.2575,W,1,03,12.2,25.1,M,-25.1,M,,0000*6B
$GPGSA,A,2,17,27,09,,,,,,,,,,12.2,12.2,1.0*38
$GPRMC,194501.495,A,3748.7326,N,12217.2575,W,0.00,,250812,,,A*64
$GPVTG,,T,,M,0.00,N,0.0,K,N*1C
$GPGGA,194502.495,3748.7325,N,12217.2575,W,1,03,12.2,25.1,M,-25.1,M,,0000*6B
$GPGSA,A,2,17,27,09,,,,,,,,,,12.2,12.2,1.0*38
$GPRMC,194502.495,A,3748.7325,N,12217.2575,W,0.00,,250812,,,A*64
$GPVTG,,T,,M,0.00,N,0.0,K,N*1C
$GPGGA,194503.494,3748.7319,N,12217.2576,W,1,03,12.2,25.1,M,-25.1,M,,0000*67
$GPGSA,A,2,17,27,09,,,,,,,,,,12.2,12.2,1.0*38
$GPRMC,194503.494,A,3748.7319,N,12217.2576,W,0.00,,250812,,,A*68
$GPVTG,,T,,M,0.00,N,0.0,K,N*1C
$GPGGA,194504.494,3748.7283,N,12217.2575,W,1,04,9.2,18.9,M,-25.1,M,,0000*5A
$GPGSA,A,3,17,27,09,28,,,,,,,,,9.2,9.2,1.0*33
$GPRMC,194504.494,A,3748.7283,N,12217.2575,W,0.53,165.72,250812,,,A*71
$GPVTG,165.72,T,,M,0.53,N,1.0,K,A*0D
$GPGGA,194505.494,3748.7277,N,12217.2577,W,1,04,9.2,18.6,M,-25.1,M,,0000*5D
$GPGSA,A,3,17,27,09,28,,,,,,,,,9.2,9.2,1.0*33
$GPGSV,3,1,12,17,68,042,39,27,50,310,32,28,41,069,31,09,37,314,31*74
$GPGSV,3,2,12,04,32,154,,15,28,257,26,26,24,213,26,08,18,138,*79
$GPGSV,3,3,12,01,09,037,,02,08,183,,12,06,282,20,48,44,197,31*78
$GPRMC,194505.494,A,3748.7277,N,12217.2577,W,0.50,182.00,250812,,,A*76
$GPVTG,182.00,T,,M,0.50,N,0.9,K,A*0A
$GPGGA,194506.494,3748.7274,N,12217.2578,W,1,04,9.2,18.3,M,-25.1,M,,0000*57
$GPGSA,A,3,17,27,09,28,,,,,,,,,9.2,9.2,1.0*33
$GPRMC,194506.494,A,3748.7274,N,12217.2578,W,0.49,189.02,250812,,,A*78
$GPVTG,189.02,T,,M,0.49,N,0.9,K,A*0B
$GPGGA,194507.000,3748.7274,N,12217.2578,W,1,04,9.2,18.5,M,-25.1,M,,0000*59
$GPGSA,A,3,17,27,09,28,,,,,,,,,9.2,9.2,1.0*33
$GPRMC,194507.000,A,3748.7274,N,12217.2578,W,0.50,188.20,250812,,,A*79
$GPVTG,188.20,T,,M,0.50,N,0.9,K,A*02
$GPGGA,194508.000,3748.7273,N,12217.2578,W,1,04,9.2,18.5,M,-25.1,M,,0000*51
$GPGSA,A,3,17,27,09,28,,,,,,,,,9.3,9.2,1.0*32
$GPRMC,194508.000,A,3748.7273,N,12217.2578,W,0.43,191.56,250812,,,A*7A
$GPVTG,191.56,T,,M,0.43,N,0.8,K,A*08
$GPGGA,194509.000,3748.7274,N,12217.2578,W,1,04,9.2,18.7,M,-25.1,M,,0000*55
$GPGSA,A,3,17,27,09,28,,,,,,,,,9.3,9.2,1.0*32
$GPRMC,194509.000,A,3748.7274,N,12217.2578,W,0.44,183.42,250812,,,A*7D
$GPVTG,183.42,T,,M,0.44,N,0.8,K,A*09
$GPGGA,194510.000,3748.7274,N,12217.2578,W,1,04,9.2,18.9,M,-25.1,M,,0000*53
$GPGSA,A,3,17,27,09,28,,,,,,,,,9.3,9.2,1.0*32
$GPGSV,3,1,12,17,68,042,38,27,50,310,31,28,41,069,30,09,37,314,31*77
$GPGSV,3,2,12,04,32,154,,15,28,257,26,26,24,213,26,08,18,138,*79
$GPGSV,3,3,12,01,09,037,,02,08,183,,12,06,282,19,48,44,197,31*72
$GPVTG,183.97,T,,M,0.43,N,0.8,K,A*06
$GPGGA,194511.000,3748.7274,N,12217.2578,W,1,04,9.2,19.0,M,-25.1,M,,0000*5A
$GPGSA,A,3,17,27,09,28,,,,,,,,,9.3,9.2,1.0*32
$GPRMC,194511.000,A,3748.7274,N,12217.2578,W,0.38,184.48,250812,,,A*72
$GPVTG,184.48,T,,M,0.38,N,0.7,K,A*00
$GPGGA,194512.000,3748.7274,N,12217.2578,W,1,04,9.2,19.1,M,-25.1,M,,0000*58
$GPGSA,A,3,17,27,09,28,,,,,,,,,9.3,9.2,1.0*32
$GPRMC,194512.000,A,3748.7274,N,12217.2578,W,0.36,185.38,250812,,,A*79
$GPVTG,185.38,T,,M,0.36,N,0.7,K,A*08
$GPGGA,194513.000,3748.7274,N,12217.2578,W,1,04,9.2,19.1,M,-25.1,M,,0000*59
$GPGSA,A,3,17,27,09,28,,,,,,,,,9.3,9.2,1.0*32
$GPRMC,194513.000,A,3748.7274,N,12217.2578,W,0.36,183.02,250812,,,A*77
$GPVTG,183.02,T,,M,0.36,N,0.7,K,A*07
$GPGGA,194514.000,3748.7274,N,12217.2578,W,1,04,9.2,19.2,M,-25.1,M,,0000*5D
$GPGSA,A,3,17,27,09,28,,,,,,,,,9.3,9.2,1.0*32
$GPRMC,194514.000,A,3748.7274,N,12217.2578,W,0.41,187.96,250812,,,A*79
$GPVTG,187.96,T,,M,0.41,N,0.8,K,A*01
$GPGGA,194515.000,3748.7274,N,12217.2578,W,1,04,9.2,19.3,M,-25.1,M,,0000*5D
$GPGSA,A,3,17,27,09,28,,,,,,,,,9.3,9.2,1.0*32
$GPGSV,3,1,12,17,68,042,38,27,50,310,32,28,41,069,30,09,37,314,31*74
$GPGSV,3,2,12,04,32,154,,15,28,257,27,26,24,213,27,08,18,138,*79
$GPGSV,3,3,12,01,09,037,,02,08,183,,12,06,282,19,48,44,197,32*71
$GPRMC,194515.000,A,3748.7274,N,12217.2578,W,0.38,182.12,250812,,,A*7F
$GPVTG,182.12,T,,M,0.38,N,0.7,K,A*09
$GPGGA,194516.000,3748.7274,N,12217.2578,W,1,04,9.2,19.4,M,-25.1,M,,0000*59
$GPGSA,A,3,17,27,09,28,,,,,,,,,9.3,9.2,1.0*32
$GPRMC,194516.000,A,3748.7274,N,12217.2578,W,0.32,185.52,250812,,,A*75
$GPVTG,185.52,T,,M,0.32,N,0.6,K,A*01
$GPGGA,194517.000,3748.7275,N,12217.2578,W,1,04,9.2,19.4,M,-25.1,M,,0000*59
$GPGSA,A,3,17,27,09,28,,,,,,,,,9.3,9.2,1.0*32
$GPRMC,194517.000,A,3748.7275,N,12217.2578,W,0.27,180.80,250812,,,A*7B
$GPVTG,180.80,T,,M,0.27,N,0.5,K,A*0C
$GPGGA,194518.000,3748.7274,N,12217.2578,W,1,04,9.3,19.5,M,-25.1,M,,0000*57
$GPGSA,A,3,17,27,09,28,,,,,,,,,9.3,9.3,1.0*33
$GPRMC,194518.000,A,3748.7274,N,12217.2578,W,0.28,181.80,250812,,,A*7B
$GPVTG,181.80,T,,M,0.28,N,0.5,K,A*02
$GPGGA,194519.000,3748.7274,N,12217.2578,W,1,04,9.3,19.5,M,-25.1,M,,0000*56
$GPGSA,A,3,17,27,09,28,,,,,,,,,9.3,9.3,1.0*33
$GPRMC,194519.000,A,3748.7274,N,12217.2578,W,0.26,177.24,250812,,,A*73
$GPVTG,177.24,T,,M,0.26,N,0.5,K,A*0B
$GPGGA,194520.000,3748.7273,N,12217.2578,W,1,04,9.3,19.5,M,-25.1,M,,0000*5B
$GPGSA,A,3,17,27,09,28,,,,,,,,,9.3,9.3,1.0*33
$GPGSV,3,1,12,17,68,042,38,27,51,310,31,28,41,069,30,09,37,314,31*76
$GPGSV,3,2,12,04,32,154,,15,27,257,27,26,24,213,27,08,18,138,*76
$GPGSV,3,3,12,01,09,037,,02,08,183,,12,06,282,20,48,44,197,32*7B
$GPRMC,194520.000,A,3748.7273,N,12217.2578,W,0.29,182.64,250812,,,A*7F
$GPVTG,182.64,T,,M,0.29,N,0.5,K,A*0A
$GPGGA,194521.000,3748.7272,N,12217.2579,W,1,04,9.3,19.5,M,-25.1,M,,0000*5A
$GPGSA,A,3,17,27,09,28,,,,,,,,,9.3,9.3,1.0*33
$GPRMC,194521.000,A,3748.7272,N,12217.2579,W,0.31,188.05,250812,,,A*7A
$GPVTG,188.05,T,,M,0.31,N,0.6,K,A*0D
$GPGGA,194522.000,3748.7271,N,12217.2579,W,1,04,9.3,19.5,M,-25.1,M,,0000*5A
$GPGSA,A,3,17,27,09,28,,,,,,,,,9.3,9.3,1.0*33
$GPRMC,194522.000,A,3748.7271,N,12217.2579,W,0.32,182.45,250812,,,A*77
$GPVTG,182.45,T,,M,0.32,N,0.6,K,A*00
$GPGGA,194523.000,3748.7271,N,12217.2579,W,1,04,9.3,19.5,M,-25.1,M,,0000*5B
$GPGSA,A,3,17,27,09,28,,,,,,,,,9.3,9.3,1.0*33
$GPRMC,194523.000,A,3748.7271,N,12217.2579,W,0.27,174.40,250812,,,A*7E
$GPVTG,174.40,T,,M,0.27,N,0.5,K,A*0B
$GPGGA,194524.000,3748.7270,N,12217.2579,W,1,04,9.3,19.6,M,-25.1,M,,0000*5E
$GPGSA,A,3,17,27,09,28,,,,,,,,,9.3,9.3,1.0*33
$GPRMC,194524.000,A,3748.7270,N,12217.2579,W,0.42,197.57,250812,,,A*70
$GPVTG,197.57,T,,M,0.42,N,0.8,K,A*0E
$GPGGA,194525.000,3748.7272,N,12217.2577,W,1,04,9.3,19.0,M,-25.1,M,,0000*55
$GPGSA,A,3,17,27,09,28,,,,,,,,,9.3,9.3,1.0*33
$GPGSV,3,1,12,17,68,042,38,27,51,310,31,28,41,069,20,09,37,314,32*74
$GPGSV,3,2,12,04,32,154,,15,27,257,27,26,24,213,28,08,18,138,*79
$GPGSV,3,3,12,01,09,037,,02,08,183,,12,06,282,21,48,44,197,30*78
$GPRMC,194525.000,A,3748.7272,N,12217.2577,W,0.53,57.77,250812,,,A*42
$GPGGA,194526.000,3748.7273,N,12217.2576,W,1,04,9.3,19.4,M,-25.1,M,,0000*52
$GPGSA,A,3,17,27,09,28,,,,,,,,,9.3,9.3,1.0*33
$GPRMC,194526.000,A,3748.7273,N,12217.2576,W,0.60,53.15,250812,,,A*41
$GPVTG,53.15,T,,M,0.60,N,1.1,K,A*39
$GPGGA,194527.000,3748.7273,N,12217.2578,W,1,04,9.3,20.0,M,-25.1,M,,0000*53
$GPGSA,A,3,17,27,09,28,,,,,,,,,9.4,9.3,1.0*34
$GPRMC,194527.000,A,3748.7273,N,12217.2578,W,0.19,117.36,250812,,,A*70
$GPVTG,117.36,T,,M,0.19,N,0.4,K,A*03
$GPGGA,194528.000,3748.7269,N,12217.2581,W,1,04,9.3,20.6,M,-25.1,M,,0000*57
$GPGSA,A,3,17,27,09,28,,,,,,,,,9.4,9.3,1.0*34
$GPRMC,194528.000,A,3748.7269,N,12217.2581,W,0.94,204.52,250812,,,A*74
$GPVTG,204.52,T,,M,0.94,N,1.7,K,A*07
$GPGGA,194529.000,3748.7261,N,12217.2589,W,1,04,9.3,22.0,M,-25.1,M,,0000*52
$GPGSA,A,3,17,27,09,28,,,,,,,,,9.4,9.3,1.0*34
$GPRMC,194529.000,A,3748.7261,N,12217.2589,W,2.34,204.67,250812,,,A*7B
$GPVTG,204.67,T,,M,2.34,N,4.3,K,A*08
$GPGGA,194530.000,3748.7257,N,12217.2594,W,1,04,9.3,22.8,M,-25.1,M,,0000*5B
$GPGSA,A,3,17,27,09,28,,,,,,,,,9.4,9.3,1.0*34
$GPGSV,3,1,11,17,68,042,38,27,51,310,31,28,41,069,22,09,37,314,33*74
$GPGSV,3,2,11,04,32,154,,15,27,257,23,26,24,213,29,08,18,138,*7F
$GPGSV,3,3,11,01,09,037,,02,08,183,,12,06,282,25*4F
$GPRMC,194530.000,A,3748.7257,N,12217.2594,W,2.58,200.18,250812,,,A*7C
$GPVTG,200.18,T,,M,2.58,N,4.8,K,A*05
$GPGGA,194531.000,3748.7258,N,12217.2593,W,1,04,9.3,22.7,M,-25.1,M,,0000*5D
$GPGSA,A,3,17,27,09,28,,,,,,,,,9.4,9.3,1.0*34
$GPRMC,194531.000,A,3748.7258,N,12217.2593,W,1.65,190.88,250812,,,A*7B
$GPVTG,190.88,T,,M,1.65,N,3.0,K,A*04
$GPGGA,194532.000,3748.7260,N,12217.2590,W,1,04,9.3,22.5,M,-25.1,M,,0000*54
$GPGSA,A,3,17,27,09,28,,,,,,,,,9.4,9.3,1.0*34
$GPRMC,194532.000,A,3748.7260,N,12217.2590,W,1.03,188.51,250812,,,A*7D
$GPVTG,188.51,T,,M,1.03,N,1.9,K,A*02
$GPGGA,194533.000,3748.7264,N,12217.2586,W,1,04,9.3,21.9,M,-25.1,M,,0000*59
$GPGSA,A,3,17,27,09,28,,,,,,,,,9.4,9.3,1.0*34
$GPRMC,194533.000,A,3748.7264,N,12217.2586,W,0.54,196.35,250812,,,A*71
$GPVTG,196.35,T,,M,0.54,N,1.0,K,A*05
$GPGGA,194534.000,3748.7268,N,12217.2581,W,1,04,9.3,21.1,M,-25.1,M,,0000*5D
$GPGSA,A,3,17,27,09,28,,,,,,,,,9.4,9.3,1.0*34
$GPRMC,194534.000,A,3748.7268,N,12217.2581,W,0.07,348.61,250812,,,A*7B
$GPVTG,348.61,T,,M,0.07,N,0.1,K,A*03
$GPGGA,194535.000,3748.7269,N,12217.2581,W,1,04,9.3,21.1,M,-25.1,M,,0000*5D
$GPGSA,A,3,17,27,09,28,,,,,,,,,9.4,9.3,1.0*34
$GPGSV,3,1,11,17,68,042,38,27,51,310,31,28,41,069,24,09,37,314,31*70
$GPGSV,3,2,11,04,32,154,,15,27,257,27,26,24,213,35,08,18,138,*76
$GPGSV,3,3,11,01,09,037,,02,08,183,,12,06,282,26*4C
$GPRMC,194535.000,A,3748.7269,N,12217.2581,W,0.05,155.34,250812,,,A*77
$GPVTG,155.34,T,,M,0.05,N,0.1,K,A*0F
$GPGGA,194536.000,3748.7268,N,12217.2583,W,1,04,9.3,21.4,M,-25.1,M,,0000*58
$GPGSA,A,3,17,27,09,28,,,,,,,,,9.4,9.3,1.0*34
$GPRMC,194536.000,A,3748.7268,N,12217.2583,W,0.30,207.30,250812,,,A*71
$GPVTG,207.30,T,,M,0.30,N,0.6,K,A*0E
$GPGGA,194537.000,3748.7268,N,12217.2583,W,1,04,9.4,21.5,M,-25.1,M,,0000*5F
$GPGSA,A,3,17,27,09,28,,,,,,,,,9.4,9.4,1.0*33
$GPRMC,194537.000,A,3748.7268,N,12217.2583,W,0.27,181.49,250812,,,A*75
$GPVTG,181.49,T,,M,0.27,N,0.5,K,A*08
$GPGGA,194538.000,3748.7270,N,12217.2582,W,1,04,9.4,21.4,M,-25.1,M,,0000*59
$GPGSA,A,3,17,27,09,28,,,,,,,,,9.4,9.4,1.0*33
$GPRMC,194538.000,A,3748.7270,N,12217.2582,W,0.15,160.37,250812,,,A*75
$GPVTG,160.37,T,,M,0.15,N,0.3,K,A*09
$GPGGA,194539.000,3748.7271,N,12217.2580,W,1,04,9.4,21.3,M,-25.1,M,,0000*5C
$GPGSA,A,3,17,27,09,28,,,,,,,,,9.4,9.4,1.0*33
$GPRMC,194539.000,A,3748.7271,N,12217.2580,W,0.06,78.44,250812,,,A*49
$GPVTG,78.44,T,,M,0.06,N,0.1,K,A*35
$GPGGA,194540.000,3748.7257,N,12217.2583,W,1,04,9.4,21.1,M,-25.1,M,,0000*57
$GPGSA,A,3,17,27,09,28,,,,,,,,,9.4,9.4,1.0*33
$GPGSV,3,1,11,17,68,042,38,27,51,310,32,28,41,069,28,09,37,314,27*78
$GPGSV,3,2,11,04,32,154,,15,27,257,31,26,24,213,33,08,18,138,*77
$GPGSV,3,3,11,01,09,037,,02,08,183,,12,06,282,25*4F
$GPRMC,194540.000,A,3748.7257,N,12217.2583,W,0.55,180.06,250812,,,A*76
$GPVTG,180.06,T,,M,0.55,N,1.0,K,A*03
$GPGGA,194541.000,3748.7230,N,12217.2587,W,1,04,9.4,20.5,M,-25.1,M,,0000*56
$GPGSA,A,3,17,27,09,28,,,,,,,,,9.4,9.4,1.0*33
$GPRMC,194541.000,A,3748.7230,N,12217.2587,W,1.56,184.29,250812,,,A*79
$GPVTG,184.29,T,,M,1.56,N,2.9,K,A*02
$GPGGA,194542.000,3748.7212,N,12217.2590,W,1,04,9.4,20.1,M,-25.1,M,,0000*57
$GPGSA,A,3,17,27,09,28,,,,,,,,,9.4,9.4,1.0*33
$GPRMC,194542.000,A,3748.7212,N,12217.2590,W,1.87,187.43,250812,,,A*7F
$GPVTG,187.43,T,,M,1.87,N,3.5,K,A*0C
$GPGGA,194543.000,3748.7199,N,12217.2592,W,1,04,9.4,19.8,M,-25.1,M,,0000*57
$GPGSA,A,3,17,27,09,28,,,,,,,,,9.4,9.4,1.0*33
$GPRMC,194543.000,A,3748.7199,N,12217.2592,W,1.90,189.71,250812,,,A*75
$GPVTG,189.71,T,,M,1.90,N,3.5,K,A*05
$GPGGA,194544.000,3748.7187,N,12217.2594,W,1,04,9.4,19.5,M,-25.1,M,,0000*54
$GPGSA,A,3,17,27,09,28,,,,,,,,,9.4,9.4,1.0*33
$GPRMC,194544.000,A,3748.7187,N,12217.2594,W,1.96,189.11,250812,,,A*7B
$GPVTG,189.11,T,,M,1.96,N,3.6,K,A*06
$GPGGA,194545.000,3748.7179,N,12217.2596,W,1,04,9.4,19.3,M,-25.1,M,,0000*50
$GPGSA,A,3,17,27,09,28,,,,,,,,,9.4,9.4,1.0*33
$GPGSV,3,1,11,17,68,042,38,27,51,310,31,28,41,070,28,09,37,314,28*7C
$GPGSV,3,2,11,04,32,154,,15,27,257,31,26,23,213,33,08,18,138,*70
$GPGSV,3,3,11,01,09,037,,02,08,183,,12,06,282,25*4F
$GPRMC,194545.000,A,3748.7179,N,12217.2596,W,1.84,188.65,250812,,,A*78
$GPVTG,188.65,T,,M,1.84,N,3.4,K,A*05
$GPGGA,194546.000,3748.7173,N,12217.2597,W,1,04,9.4,19.1,M,-25.1,M,,0000*5A
$GPGSA,A,3,17,27,09,28,,,,,,,,,9.5,9.4,1.0*32
$GPRMC,194546.000,A,3748.7173,N,12217.2597,W,1.63,190.60,250812,,,A*75
$GPVTG,190.60,T,,M,1.63,N,3.0,K,A*04
$GPGGA,194547.000,3748.7169,N,12217.2598,W,1,04,9.4,18.9,M,-25.1,M,,0000*56
$GPGSA,A,3,17,27,09,28,,,,,,,,,9.5,9.4,1.0*32
$GPRMC,194547.000,A,3748.7169,N,12217.2598,W,1.47,189.17,250812,,,A*7E
$GPVTG,189.17,T,,M,1.47,N,2.7,K,A*0C
$GPGGA,194548.000,3748.7166,N,12217.2598,W,1,04,9.4,18.8,M,-25.1,M,,0000*57
$GPGSA,A,3,17,27,09,28,,,,,,,,,9.5,9.4,1.0*32
$GPRMC,194548.000,A,3748.7166,N,12217.2598,W,1.24,189.72,250812,,,A*78
$GPVTG,189.72,T,,M,1.24,N,2.3,K,A*0E
$GPGGA,194549.000,3748.7163,N,12217.2598,W,1,04,9.4,18.6,M,-25.1,M,,0000*5D
$GPGSA,A,3,17,27,09,28,,,,,,,,,9.5,9.4,1.0*32
$GPRMC,194549.000,A,3748.7163,N,12217.2598,W,1.18,188.68,250812,,,A*79
$GPVTG,188.68,T,,M,1.18,N,2.2,K,A*0A
$GPGGA,194550.000,3748.7156,N,12217.2603,W,1,04,9.4,19.0,M,-25.1,M,,0000*55
$GPGSA,A,3,17,27,09,28,,,,,,,,,9.5,9.4,1.0*32
$GPGSV,3,1,11,17,67,042,37,27,51,310,35,28,41,070,23,09,37,314,35*7F
$GPGSV,3,2,11,04,32,154,,15,27,257,29,26,23,212,33,08,18,138,*78
$GPGSV,3,3,11,01,09,037,,02,08,183,,12,06,282,25*4F
$GPVTG,187.79,T,,M,1.47,N,2.7,K,A*0A
$GPGGA,194551.000,3748.7152,N,12217.2605,W,1,04,9.4,19.2,M,-25.1,M,,0000*54
$GPGSA,A,3,17,27,09,28,,,,,,,,,9.5,9.4,1.0*32
$GPRMC,194551.000,A,3748.7152,N,12217.2605,W,1.14,169.95,250812,,,A*74
$GPVTG,169.95,T,,M,1.14,N,2.1,K,A*08
$GPGGA,194552.000,3748.7160,N,12217.2596,W,1,04,9.4,18.3,M,-25.1,M,,0000*5F
$GPGSA,A,3,17,27,09,28,,,,,,,,,9.5,9.4,1.0*32
$GPRMC,194552.000,A,3748.7160,N,12217.2596,W,0.91,66.77,250812,,,A*41
$GPVTG,66.77,T,,M,0.91,N,1.7,K,A*33
$GPGGA,194553.000,3748.7158,N,12217.2595,W,1,04,9.4,18.2,M,-25.1,M,,0000*57
$GPGSA,A,3,17,27,09,28,,,,,,,,,9.5,9.4,1.0*32
$GPRMC,194553.000,A,3748.7158,N,12217.2595,W,0.33,68.65,250812,,,A*4D
$GPVTG,68.65,T,,M,0.33,N,0.6,K,A*36
$GPGGA,194554.000,3748.7154,N,12217.2598,W,1,04,9.4,18.3,M,-25.1,M,,0000*50
$GPGSA,A,3,17,27,09,28,,,,,,,,,9.5,9.4,1.0*32
$GPRMC,194554.000,A,3748.7154,N,12217.2598,W,0.23,160.12,250812,,,A*73
$GPVTG,160.12,T,,M,0.23,N,0.4,K,A*0C
$GPGGA,194555.000,3748.7156,N,12217.2596,W,1,04,9.4,17.9,M,-25.1,M,,0000*58
$GPGSA,A,3,17,27,09,28,,,,,,,,,9.5,9.4,1.0*32
$GPGSV,3,1,11,17,67,042,36,27,51,310,33,28,41,070,24,09,37,314,33*79
$GPGSV,3,2,11,04,32,154,,15,27,257,30,26,23,212,32,08,18,138,*71
$GPGSV,3,3,11,01,09,037,,02,08,183,,12,06,282,25*4F
$GPRMC,194555.000,A,3748.7156,N,12217.2596,W,0.10,102.76,250812,,,A*78
$GPVTG,102.76,T,,M,0.10,N,0.2,K,A*0C
$GPGGA,194556.000,3748.7152,N,12217.2598,W,1,04,9.5,18.1,M,-25.1,M,,0000*57
$GPGSA,A,3,17,27,09,28,,,,,,,,,9.5,9.5,1.0*33
$GPRMC,194556.000,A,3748.7152,N,12217.2598,W,0.40,186.44,250812,,,A*79
$GPVTG,186.44,T,,M,0.40,N,0.7,K,A*01
$GPGGA,194557.000,3748.7148,N,12217.2601,W,1,04,9.5,18.3,M,-25.1,M,,0000*5C
$GPGSA,A,3,17,27,09,28,,,,,,,,,9.5,9.5,1.0*33
$GPRMC,194557.000,A,3748.7148,N,12217.2601,W,0.68,189.98,250812,,,A*74
$GPVTG,189.98,T,,M,0.68,N,1.3,K,A*00
$GPGGA,194558.000,3748.7145,N,12217.2602,W,1,04,9.5,18.4,M,-25.1,M,,0000*5A
$GPGSA,A,3,17,27,09,28,,,,,,,,,9.5,9.5,1.0*33
$GPRMC,194558.000,A,3748.7145,N,12217.2602,W,0.79,189.70,250812,,,A*73
$GPVTG,189.70,T,,M,0.79,N,1.5,K,A*00
$GPGGA,194559.000,3748.7145,N,12217.2602,W,1,04,9.5,18.3,M,-25.1,M,,0000*5C
$GPGSA,A,3,17,27,09,28,,,,,,,,,9.5,9.5,1.0*33
$GPRMC,194559.000,A,3748.7145,N,12217.2602,W,0.63,184.21,250812,,,A*70
$GPVTG,184.21,T,,M,0.63,N,1.2,K,A*05
$GPGGA,194600.000,3748.7145,N,12217.2601,W,1,04,9.5,18.1,M,-25.1,M,,0000*52
$GPGSA,A,3,17,27,09,28,,,,,,,,,9.5,9.5,1.0*33
$GPGSV,3,1,11,17,67,042,36,27,51,310,30,28,41,070,28,09,37,314,33*76
$GPGSV,3,2,11,04,32,154,,15,27,257,30,26,23,212,31,08,18,138,*72
$GPGSV,3,3,11,01,09,037,,02,08,183,,12,06,282,27*4D
$GPRMC,194600.000,A,3748.7145,N,12217.2601,W,0.45,180.17,250812,,,A*79
$GPVTG,180.17,T,,M,0.45,N,0.8,K,A*0B
$GPGGA,194601.000,3748.7155,N,12217.2593,W,1,04,9.5,17.0,M,-25.1,M,,0000*54
$GPGSA,A,3,17,27,09,28,,,,,,,,,9.5,9.5,1.0*33
$GPRMC,194601.000,A,3748.7155,N,12217.2593,W,0.59,24.84,250812,,,A*49
$GPVTG,24.84,T,,M,0.59,N,1.1,K,A*3B
$GPGGA,194602.000,3748.7159,N,12217.2588,W,1,04,9.5,16.2,M,-25.1,M,,0000*52
$GPGSA,A,3,17,27,09,28,,,,,,,,,9.5,9.5,1.0*33
$GPRMC,194602.000,A,3748.7159,N,12217.2588,W,0.74,12.81,250812,,,A*43
$GPVTG,12.81,T,,M,0.74,N,1.4,K,A*31
$GPGGA,194603.000,3748.7160,N,12217.2587,W,1,04,9.5,15.7,M,-25.1,M,,0000*50
$GPGSA,A,3,17,27,09,28,,,,,,,,,9.5,9.5,1.0*33
$GPRMC,194603.000,A,3748.7160,N,12217.2587,W,0.68,16.23,250812,,,A*46
$GPVTG,16.23,T,,M,0.68,N,1.3,K,A*37
$GPGGA,194604.000,3748.7158,N,12217.2588,W,1,04,9.5,15.6,M,-25.1,M,,0000*52
$GPGSA,A,3,17,27,09,28,,,,,,,,,9.5,9.5,1.0*33
$GPRMC,194604.000,A,3748.7158,N,12217.2588,W,0.41,18.66,250812,,,A*41
$GPVTG,18.66,T,,M,0.41,N,0.8,K,A*39
$GPGGA,194605.000,3748.7157,N,12217.2589,W,1,04,9.5,15.6,M,-25.1,M,,0000*5D
$GPGSA,A,3,17,27,09,28,,,,,,,,,9.5,9.5,1.0*33
$GPGSV,3,1,11,17,67,042,32,27,51,310,33,28,41,070,28,09,37,314,33*71
$GPGSV,3,2,11,04,32,154,,15,27,257,31,26,23,212,31,08,18,138,*73
$GPGSV,3,3,11,01,09,037,,02,08,183,,12,06,282,26*4C
$GPRMC,194605.000,A,3748.7157,N,12217.2589,W,0.26,20.05,250812,,,A*41
$GPGGA,194606.000,3748.7155,N,12217.2590,W,1,04,9.5,15.5,M,-25.1,M,,0000*57
$GPGSA,A,3,17,27,09,28,,,,,,,,,9.6,9.5,1.0*30
$GPRMC,194606.000,A,3748.7155,N,12217.2590,W,0.09,39.39,250812,,,A*42
$GPVTG,39.39,T,,M,0.09,N,0.2,K,A*36
$GPGGA,194607.000,3748.7154,N,12217.2591,W,1,04,9.5,15.5,M,-25.1,M,,0000*56
$GPGSA,A,3,17,27,09,28,,,,,,,,,9.6,9.5,1.0*30
$GPRMC,194607.000,A,3748.7154,N,12217.2591,W,0.06,127.83,250812,,,A*73
$GPVTG,127.83,T,,M,0.06,N,0.1,K,A*05
$GPGGA,194608.000,3748.7152,N,12217.2592,W,1,04,9.5,15.4,M,-25.1,M,,0000*5D
$GPGSA,A,3,17,27,09,28,,,,,,,,,9.6,9.5,1.0*30
$GPRMC,194608.000,A,3748.7152,N,12217.2592,W,0.21,179.39,250812,,,A*76
$GPVTG,179.39,T,,M,0.21,N,0.4,K,A*0F
$GPGGA,194609.000,3748.7150,N,12217.2593,W,1,04,9.5,15.4,M,-25.1,M,,0000*5F
$GPGSA,A,3,17,27,09,28,,,,,,,,,9.6,9.5,1.0*30
$GPRMC,194609.000,A,3748.7150,N,12217.2593,W,0.24,180.39,250812,,,A*77
$GPVTG,180.39,T,,M,0.24,N,0.4,K,A*0C
$GPGGA,194610.000,3748.7149,N,12217.2593,W,1,04,9.5,15.4,M,-25.1,M,,0000*5F
$GPGSA,A,3,17,27,09,28,,,,,,,,,9.6,9.5,1.0*30
$GPGSV,3,1,11,17,67,042,33,27,51,310,33,28,41,070,28,09,37,314,35*76
$GPGSV,3,2,11,04,32,154,19,15,27,257,30,26,23,212,30,08,18,138,*7B
$GPGSV,3,3,11,01,09,037,,02,08,183,,12,06,282,25*4F
$GPRMC,194610.000,A,3748.7149,N,12217.2593,W,0.33,185.79,250812,,,A*70
$GPVTG,185.79,T,,M,0.33,N,0.6,K,A*09
$GPGGA,194611.000,3748.7147,N,12217.2594,W,1,04,9.5,15.4,M,-25.1,M,,0000*57
$GPGSA,A,3,17,27,09,28,,,,,,,,,9.6,9.5,1.0*30
$GPRMC,194611.000,A,3748.7147,N,12217.2594,W,0.39,184.96,250812,,,A*72
$GPVTG,184.96,T,,M,0.39,N,0.7,K,A*02
$GPGGA,194612.000,3748.7145,N,12217.2595,W,1,04,9.5,15.4,M,-25.1,M,,0000*57
$GPGSA,A,3,17,27,09,28,,,,,,,,,9.6,9.5,1.0*30
$GPRMC,194612.000,A,3748.7145,N,12217.2595,W,0.44,186.18,250812,,,A*7C
$GPVTG,186.18,T,,M,0.44,N,0.8,K,A*03
$GPGGA,194613.000,3748.7144,N,12217.2597,W,1,04,9.5,15.5,M,-25.1,M,,0000*54
$GPGSA,A,3,17,27,09,28,,,,,,,,,9.6,9.5,1.0*30
$GPRMC,194613.000,A,3748.7144,N,12217.2597,W,0.52,187.51,250812,,,A*75
$GPVTG,187.51,T,,M,0.52,N,1.0,K,A*01
$GPGGA,194614.000,3748.7142,N,12217.2598,W,1,04,9.5,15.6,M,-25.1,M,,0000*59
$GPGSA,A,3,17,27,09,28,,,,,,,,,9.6,9.5,1.0*30
$GPRMC,194614.000,A,3748.7142,N,12217.2598,W,0.53,188.66,250812,,,A*71
$GPVTG,188.66,T,,M,0.53,N,1.0,K,A*0B
$GPGGA,194615.000,3748.7141,N,12217.2599,W,1,04,9.5,15.6,M,-25.1,M,,0000*5A
$GPGSA,A,3,17,27,09,28,,,,,,,,,9.6,9.5,1.0*30
$GPGSV,3,1,11,17,67,042,34,27,51,310,33,28,40,070,29,09,37,314,35*71
$GPGSV,3,2,11,04,32,153,18,15,27,257,30,26,23,212,29,08,18,138,*75
$GPGSV,3,3,11,01,09,037,,02,08,183,,12,06,282,23*49
$GPRMC,194615.000,A,3748.7141,N,12217.2599,W,0.59,186.35,250812,,,A*70
$GPVTG,186.35,T,,M,0.59,N,1.1,K,A*08
$GPGGA,194616.000,3748.7140,N,12217.2599,W,1,04,9.6,15.7,M,-25.1,M,,0000*5A
$GPGSA,A,3,17,27,09,28,,,,,,,,,9.6,9.6,1.0*33
$GPRMC,194616.000,A,3748.7140,N,12217.2599,W,0.56,188.19,250812,,,A*7D
$GPVTG,188.19,T,,M,0.56,N,1.0,K,A*06
$GPGGA,194617.000,3748.7140,N,12217.2600,W,1,04,9.6,15.8,M,-25.1,M,,0000*57
$GPGSA,A,3,17,27,09,28,,,,,,,,,9.6,9.6,1.0*33
$GPRMC,194617.000,A,3748.7140,N,12217.2600,W,0.56,188.69,250812,,,A*78
$GPVTG,188.69,T,,M,0.56,N,1.0,K,A*01
$GPGGA,194618.000,3748.7140,N,12217.2600,W,1,04,9.6,15.9,M,-25.1,M,,0000*59
$GPGSA,A,3,17,27,09,28,,,,,,,,,9.6,9.6,1.0*33
$GPRMC,194618.000,A,3748.7140,N,12217.2600,W,0.50,184.02,250812,,,A*70
$GPVTG,184.02,T,,M,0.50,N,0.9,K,A*0E
$GPGGA,194619.000,3748.7140,N,12217.2601,W,1,04,9.6,16.0,M,-25.1,M,,0000*53
$GPGSA,A,3,17,27,09,28,,,,,,,,,9.6,9.6,1.0*33
$GPRMC,194619.000,A,3748.7140,N,12217.2601,W,0.48,187.56,250812,,,A*7B
$GPVTG,187.56,T,,M,0.48,N,0.9,K,A*05
$GPGGA,194620.000,3748.7141,N,12217.2601,W,1,04,9.6,16.1,M,-25.1,M,,0000*59
$GPGSA,A,3,17,27,09,28,,,,,,,,,9.6,9.6,1.0*33
$GPGSV,3,1,11,17,67,042,34,27,51,310,33,28,40,070,29,09,37,314,36*72
$GPGSV,3,2,11,04,32,153,18,15,27,257,31,26,23,212,26,08,18,138,*7B
$GPGSV,3,3,11,01,09,037,,02,08,183,17,12,06,282,20*4C
$GPRMC,194620.000,A,3748.7141,N,12217.2601,W,0.42,184.77,250812,,,A*7A
$GPVTG,184.77,T,,M,0.42,N,0.8,K,A*0E
$GPGGA,194621.000,3748.7142,N,12217.2601,W,1,04,9.6,16.2,M,-25.1,M,,0000*58
$GPGSA,A,3,17,27,09,28,,,,,,,,,9.6,9.6,1.0*33
$GPRMC,194621.000,A,3748.7142,N,12217.2601,W,0.38,184.56,250812,,,A*76
$GPVTG,184.56,T,,M,0.38,N,0.7,K,A*0F
$GPGGA,194622.000,3748.7104,N,12217.2611,W,1,05,2.2,14.0,M,-25.1,M,,0000*56
$GPGSA,A,3,17,27,09,28,15,,,,,,,,4.3,2.2,3.7*35
$GPRMC,194622.000,A,3748.7104,N,12217.2611,W,0.28,172.54,250812,,,A*7C
$GPVTG,172.54,T,,M,0.28,N,0.5,K,A*07
$GPGGA,194623.000,3748.7101,N,12217.2611,W,1,05,2.2,13.8,M,-25.1,M,,0000*5D
$GPGSA,A,3,17,27,09,28,15,,,,,,,,4.3,2.2,3.7*35
$GPRMC,194623.000,A,3748.7101,N,12217.2611,W,0.19,165.32,250812,,,A*7C
$GPVTG,165.32,T,,M,0.19,N,0.3,K,A*05
$GPGGA,194624.000,3748.7100,N,12217.2612,W,1,05,2.2,13.7,M,-25.1,M,,0000*57
$GPGSA,A,3,17,27,09,28,15,,,,,,,,4.3,2.2,3.7*35
$GPRMC,194624.000,A,3748.7100,N,12217.2612,W,0.15,166.87,250812,,,A*78
$GPVTG,166.87,T,,M,0.15,N,0.3,K,A*04
$GPGGA,194625.000,3748.7100,N,12217.2612,W,1,05,2.2,13.7,M,-25.1,M,,0000*56
$GPGSA,A,3,17,27,09,28,15,,,,,,,,4.3,2.2,3.7*35
$GPGSV,3,1,11,17,67,042,35,27,51,310,33,28,40,070,30,09,37,314,36*7B
$GPGSV,3,2,11,04,32,153,17,15,27,257,31,26,23,212,26,08,17,138,*7B
$GPGSV,3,3,11,01,09,037,16,02,08,183,17,12,06,282,22*49
$GPRMC,194625.000,A,3748.7100,N,12217.2612,W,0.14,172.73,250812,,,A*76
$GPVTG,172.73,T,,M,0.14,N,0.3,K,A*0B
$GPGGA,194626.000,3748.7100,N,12217.2613,W,1,05,2.2,13.7,M,-25.1,M,,0000*54
$GPGSA,A,3,17,27,09,28,15,,,,,,,,4.3,2.2,3.7*35
$GPRMC,194626.000,A,3748.7100,N,12217.2613,W,0.14,178.31,250812,,,A*78
$GPVTG,178.31,T,,M,0.14,N,0.3,K,A*07
$GPGGA,194627.000,3748.7100,N,12217.2613,W,1,05,2.2,13.7,M,-25.1,M,,0000*55
$GPGSA,A,3,17,27,09,28,15,,,,,,,,4.3,2.2,3.7*35
$GPRMC,194627.000,A,3748.7100,N,12217.2613,W,0.12,164.82,250812,,,A*7A
$GPVTG,164.82,T,,M,0.12,N,0.2,K,A*05
$GPGGA,194628.000,3748.7100,N,12217.2613,W,1,05,2.2,13.8,M,-25.1,M,,0000*55
$GPGSA,A,3,17,27,09,28,15,,,,,,,,4.3,2.2,3.7*35
$GPRMC,194628.000,A,3748.7100,N,12217.2613,W,0.13,172.22,250812,,,A*79
$GPVTG,172.22,T,,M,0.13,N,0.2,K,A*09
$GPGGA,194629.000,3748.7100,N,12217.2614,W,1,05,2.2,13.8,M,-25.1,M,,0000*53
$GPGSA,A,3,17,27,09,28,15,,,,,,,,4.3,2.2,3.7*35
$GPRMC,194629.000,A,3748.7100,N,12217.2614,W,0.14,179.14,250812,,,A*76
$GPVTG,179.14,T,,M,0.14,N,0.3,K,A*01
$GPGGA,194630.000,3748.7100,N,12217.2614,W,1,05,2.2,13.8,M,-25.1,M,,0000*5B
$GPGSA,A,3,17,27,09,28,15,,,,,,,,4.3,2.2,3.7*35
$GPGSV,3,1,11,17,67,042,35,27,51,310,34,28,40,070,30,09,37,314,37*7D
$GPGSV,3,2,11,04,32,153,18,15,27,257,32,26,23,212,23,08,17,138,*72
$GPGSV,3,3,11,01,09,037,15,02,08,183,16,12,06,282,22*4B
$GPRMC,194630.000,A,3748.7100,N,12217.2614,W,0.17,175.51,250812,,,A*70
$GPVTG,175.51,T,,M,0.17,N,0.3,K,A*0F
$GPGGA,194631.000,3748.7100,N,12217.2614,W,1,05,2.2,13.9,M,-25.1,M,,0000*5B
$GPGSA,A,3,17,27,09,28,15,,,,,,,,4.3,2.2,3.7*35
$GPRMC,194631.000,A,3748.7100,N,12217.2614,W,0.14,177.56,250812,,,A*77
$GPVTG,177.56,T,,M,0.14,N,0.3,K,A*09
$GPGGA,194632.000,3748.7100,N,12217.2615,W,1,05,2.2,13.9,M,-25.1,M,,0000*59
$GPGSA,A,3,17,27,09,28,15,,,,,,,,4.3,2.2,3.7*35
$GPRMC,194632.000,A,3748.7100,N,12217.2615,W,0.13,172.28,250812,,,A*7E
$GPVTG,172.28,T,,M,0.13,N,0.2,K,A*03
$GPGGA,194633.000,3748.7100,N,12217.2615,W,1,05,2.2,14.0,M,-25.1,M,,0000*56
$GPGSA,A,3,17,27,09,28,15,,,,,,,,4.3,2.2,3.7*35
$GPRMC,194633.000,A,3748.7100,N,12217.2615,W,0.13,175.51,250812,,,A*76
$GPVTG,175.51,T,,M,0.13,N,0.2,K,A*0A
$GPGGA,194634.000,3748.7100,N,12217.2615,W,1,05,2.2,14.0,M,-25.1,M,,0000*51
$GPGSA,A,3,17,27,09,28,15,,,,,,,,4.3,2.2,3.7*35
$GPRMC,194634.000,A,3748.7100,N,12217.2615,W,0.15,184.05,250812,,,A*78
$GPVTG,184.05,T,,M,0.15,N,0.3,K,A*02
$GPGGA,194635.000,3748.7100,N,12217.2615,W,1,05,2.2,14.1,M,-25.1,M,,0000*51
$GPGSA,A,3,17,27,09,28,15,,,,,,,,4.3,2.2,3.7*35
$GPGSV,3,1,11,17,67,042,35,27,51,310,34,28,40,070,30,09,37,314,37*7D
$GPGSV,3,2,11,04,32,153,18,15,27,257,32,26,23,212,23,08,17,138,*72
$GPGSV,3,3,11,01,09,037,13,02,08,183,16,12,06,282,22*4D
$GPRMC,194635.000,A,3748.7100,N,12217.2615,W,0.19,174.18,250812,,,A*76
$GPVTG,174.18,T,,M,0.19,N,0.4,K,A*0A
$GPGGA,194636.000,3748.7100,N,12217.2615,W,1,05,2.2,14.1,M,-25.1,M,,0000*52
$GPGSA,A,3,17,27,09,28,15,,,,,,,,4.3,2.2,3.7*35
$GPRMC,194636.000,A,3748.7100,N,12217.2615,W,0.17,173.27,250812,,,A*70
$GPVTG,173.27,T,,M,0.17,N,0.3,K,A*08
$GPGGA,194637.000,3748.7100,N,12217.2616,W,1,05,2.2,14.2,M,-25.1,M,,0000*53
$GPGSA,A,3,17,27,09,28,15,,,,,,,,4.3,2.2,3.7*35
$GPRMC,194637.000,A,3748.7100,N,12217.2616,W,0.16,183.30,250812,,,A*7A
$GPVTG,183.30,T,,M,0.16,N,0.3,K,A*00
$GPGGA,194638.000,3748.7100,N,12217.2616,W,1,05,2.2,14.2,M,-25.1,M,,0000*5C
$GPGSA,A,3,17,27,09,28,15,,,,,,,,4.3,2.2,3.7*35
$GPRMC,194638.000,A,3748.7100,N,12217.2616,W,0.14,181.37,250812,,,A*72
$GPVTG,181.37,T,,M,0.14,N,0.3,K,A*07
$GPGGA,194639.000,3748.7100,N,12217.2616,W,1,05,2.2,14.2,M,-25.1,M,,0000*5D
$GPGSA,A,3,17,27,09,28,15,,,,,,,,4.3,2.2,3.7*35
$GPRMC,194639.000,A,3748.7100,N,12217.2616,W,0.13,171.37,250812,,,A*7B
$GPVTG,171.37,T,,M,0.13,N,0.2,K,A*0E
$GPGGA,194640.000,3748.7100,N,12217.2616,W,1,05,2.2,14.2,M,-25.1,M,,0000*53
$GPGSA,A,3,17,27,09,28,15,,,,,,,,4.3,2.2,3.7*35
$GPGSV,3,1,11,17,67,042,34,27,51,310,33,28,40,070,27,09,37,314,36*7C
$GPGSV,3,2,11,04,32,153,18,15,27,257,33,26,23,212,25,08,17,138,*75
$GPGSV,3,3,11,01,09,037,12,02,08,183,16,12,06,282,16*4B
$GPRMC,194640.000,A,3748.7100,N,12217.2616,W,0.12,176.80,250812,,,A*7F
$GPVTG,176.80,T,,M,0.12,N,0.2,K,A*04
$GPGGA,194641.000,3748.7101,N,12217.2613,W,1,05,2.2,13.3,M,-25.1,M,,0000*50
$GPGSA,A,3,17,27,09,28,15,,,,,,,,4.3,2.2,3.7*35
$GPRMC,194641.000,A,3748.7101,N,12217.2613,W,0.14,158.41,250812,,,A*7D
$GPVTG,158.41,T,,M,0.14,N,0.3,K,A*02
$GPGGA,194642.000,3748.7101,N,12217.2614,W,1,05,2.2,13.5,M,-25.1,M,,0000*52
$GPGSA,A,3,17,27,09,28,15,,,,,,,,4.3,2.2,3.7*35
$GPRMC,194642.000,A,3748.7101,N,12217.2614,W,0.15,163.55,250812,,,A*75
$GPVTG,163.55,T,,M,0.15,N,0.3,K,A*0E
$GPGGA,194643.000,3748.7101,N,12217.2615,W,1,05,2.2,13.6,M,-25.1,M,,0000*51
$GPGSA,A,3,17,27,09,28,15,,,,,,,,4.3,2.2,3.7*35
$GPRMC,194643.000,A,3748.7101,N,12217.2615,W,0.11,168.70,250812,,,A*7D
$GPVTG,168.70,T,,M,0.11,N,0.2,K,A*07
$GPGGA,194644.000,3748.7101,N,12217.2615,W,1,05,2.2,13.7,M,-25.1,M,,0000*57
$GPGSA,A,3,17,27,09,28,15,,,,,,,,4.3,2.2,3.7*35
$GPRMC,194644.000,A,3748.7101,N,12217.2615,W,0.15,176.32,250812,,,A*77
$GPVTG,176.32,T,,M,0.15,N,0.3,K,A*0B
$GPGGA,194645.000,3748.7101,N,12217.2615,W,1,05,2.2,13.7,M,-25.1,M,,0000*56
$GPGSA,A,3,17,27,09,28,15,,,,,,,,4.3,2.2,3.7*35
$GPGSV,3,1,11,17,67,042,34,27,51,310,31,28,40,070,26,09,38,314,35*73
$GPGSV,3,2,11,04,32,153,16,15,27,257,34,26,23,212,31,08,17,139,*78
$GPGSV,3,3,11,01,09,037,,02,08,183,16,12,06,282,16*48
$GPRMC,194645.000,A,3748.7101,N,12217.2615,W,0.13,177.65,250812,,,A*73
$GPVTG,177.65,T,,M,0.13,N,0.2,K,A*0F
$GPGGA,194646.000,3748.7101,N,12217.2615,W,1,05,2.2,13.7,M,-25.1,M,,0000*55
$GPGSA,A,3,17,27,09,28,15,,,,,,,,4.4,2.2,3.7*32
$GPRMC,194646.000,A,3748.7101,N,12217.2615,W,0.16,176.39,250812,,,A*7D
$GPVTG,176.39,T,,M,0.16,N,0.3,K,A*03
$GPGGA,194647.000,3748.7101,N,12217.2615,W,1,05,2.2,13.6,M,-25.1,M,,0000*55
$GPGSA,A,3,17,27,09,28,15,,,,,,,,4.4,2.2,3.7*32
$GPRMC,194647.000,A,3748.7101,N,12217.2615,W,0.17,175.02,250812,,,A*76
$GPVTG,175.02,T,,M,0.17,N,0.3,K,A*09
$GPGGA,194648.000,3748.7101,N,12217.2615,W,1,05,2.2,13.6,M,-25.1,M,,0000*5A
$GPGSA,A,3,17,27,09,28,15,,,,,,,,4.4,2.2,3.7*32
$GPRMC,194648.000,A,3748.7101,N,12217.2615,W,0.16,172.72,250812,,,A*78
$GPVTG,172.72,T,,M,0.16,N,0.3,K,A*08
$GPGGA,194649.000,3748.7101,N,12217.2615,W,1,05,2.2,13.5,M,-25.1,M,,0000*58
$GPGSA,A,3,17,27,09,28,15,,,,,,,,4.4,2.2,3.7*32
$GPRMC,194649.000,A,3748.7101,N,12217.2615,W,0.11,138.67,250812,,,A*74
$GPVTG,138.67,T,,M,0.11,N,0.2,K,A*04
$GPGGA,194650.000,3748.7101,N,12217.2614,W,1,05,2.2,13.4,M,-25.1,M,,0000*50
$GPGSA,A,3,17,27,09,28,15,,,,,,,,4.4,2.2,3.7*32
$GPGSV,3,1,11,17,67,042,34,27,51,310,32,28,40,070,28,09,38,314,34*7F
$GPGSV,3,2,11,04,32,153,16,15,27,257,33,26,23,212,23,08,17,139,*7C
$GPGSV,3,3,11,01,09,037,,02,08,183,19,12,06,283,26*45
$GPRMC,194650.000,A,3748.7101,N,12217.2614,W,0.30,171.42,250812,,,A*74
$GPGGA,194651.000,3748.7101,N,12217.2614,W,1,05,2.2,13.3,M,-25.1,M,,0000*56
$GPGSA,A,3,17,27,09,28,15,,,,,,,,4.4,2.2,3.7*32
$GPRMC,194651.000,A,3748.7101,N,12217.2614,W,0.04,121.10,250812,,,A*70
$GPVTG,121.10,T,,M,0.04,N,0.1,K,A*0B
$GPGGA,194652.000,3748.7101,N,12217.2614,W,1,05,2.2,13.3,M,-25.1,M,,0000*55
$GPGSA,A,3,17,27,09,28,15,,,,,,,,4.4,2.2,3.7*32
$GPRMC,194652.000,A,3748.7101,N,12217.2614,W,0.16,177.89,250812,,,A*73
$GPVTG,177.89,T,,M,0.16,N,0.3,K,A*09
$GPGGA,194653.000,3748.7100,N,12217.2614,W,1,04,4.1,13.4,M,-25.1,M,,0000*56
$GPGSA,A,3,17,27,28,15,,,,,,,,,6.5,4.1,5.1*3D
$GPRMC,194653.000,A,3748.7100,N,12217.2614,W,0.21,173.19,250812,,,A*7A
$GPVTG,173.19,T,,M,0.21,N,0.4,K,A*07
$GPGGA,194654.000,3748.7101,N,12217.2615,W,1,05,2.2,13.3,M,-25.1,M,,0000*52
$GPGSA,A,3,17,27,09,28,15,,,,,,,,4.4,2.2,3.7*32
$GPRMC,194654.000,A,3748.7101,N,12217.2615,W,0.34,165.25,250812,,,A*71
$GPVTG,165.25,T,,M,0.34,N,0.6,K,A*09
$GPGGA,194655.000,3748.7106,N,12217.2616,W,1,05,2.2,12.8,M,-25.1,M,,0000*5D
$GPGSA,A,3,17,27,09,28,15,,,,,,,,4.4,2.2,3.7*32
$GPGSV,3,1,11,17,67,042,39,27,51,310,33,28,40,070,29,09,38,314,24*73
$GPGSV,3,2,11,04,32,153,18,15,27,257,34,26,23,212,21,08,17,139,*77
$GPGSV,3,3,11,01,09,037,,02,08,183,16,12,06,283,*4E
$GPRMC,194655.000,A,3748.7106,N,12217.2616,W,0.40,160.80,250812,,,A*7D
$GPVTG,160.80,T,,M,0.40,N,0.7,K,A*01
$GPGGA,194656.000,3748.7110,N,12217.2617,W,1,05,2.2,12.3,M,-25.1,M,,0000*53
$GPGSA,A,3,17,27,09,28,15,,,,,,,,4.4,2.2,3.7*32
$GPRMC,194656.000,A,3748.7110,N,12217.2617,W,0.07,151.54,250812,,,A*70
$GPVTG,151.54,T,,M,0.07,N,0.1,K,A*0F
$GPGGA,194657.000,3748.7111,N,12217.2618,W,1,05,2.2,12.2,M,-25.1,M,,0000*5D
$GPGSA,A,3,17,27,09,28,15,,,,,,,,4.4,2.2,3.7*32
$GPRMC,194657.000,A,3748.7111,N,12217.2618,W,0.13,164.67,250812,,,A*7C
$GPVTG,164.67,T,,M,0.13,N,0.2,K,A*0F
$GPGGA,194658.000,3748.7116,N,12217.2618,W,1,05,1.6,12.2,M,-25.1,M,,0000*52
$GPGSA,A,3,26,17,27,09,28,,,,,,,,4.1,1.6,3.8*3F
$GPRMC,194658.000,A,3748.7116,N,12217.2618,W,0.24,176.63,250812,,,A*77
$GPVTG,176.63,T,,M,0.24,N,0.5,K,A*0B
$GPGGA,194659.000,3748.7122,N,12217.2618,W,1,06,1.6,12.3,M,-25.1,M,,0000*56
$GPGSA,A,3,26,17,27,09,28,15,,,,,,,4.1,1.6,3.7*34
$GPRMC,194659.000,A,3748.7122,N,12217.2618,W,0.36,170.40,250812,,,A*75
$GPVTG,170.40,T,,M,0.36,N,0.7,K,A*0D
$GPGGA,194700.000,3748.7124,N,12217.2617,W,1,06,1.6,12.6,M,-25.1,M,,0000*57
$GPGSA,A,3,26,17,27,09,28,15,,,,,,,4.1,1.6,3.7*34
$GPGSV,3,1,11,17,67,042,39,27,51,310,34,28,40,070,29,09,38,314,36*77
$GPGSV,3,2,11,04,32,153,21,15,27,257,27,26,23,212,23,08,17,139,*7D
$GPGSV,3,3,11,01,09,037,,02,08,183,,12,06,283,21*4A
$GPRMC,194700.000,A,3748.7124,N,12217.2617,W,0.09,94.95,250812,,,A*4E
$GPVTG,94.95,T,,M,0.09,N,0.2,K,A*37
$GPGGA,194701.000,3748.7126,N,12217.2616,W,1,06,1.6,13.0,M,-25.1,M,,0000*52
$GPGSA,A,3,26,17,27,09,28,15,,,,,,,4.1,1.6,3.7*34
$GPRMC,194701.000,A,3748.7126,N,12217.2616,W,0.21,19.16,250812,,,A*48
$GPVTG,19.16,T,,M,0.21,N,0.4,K,A*35
$GPGGA,194702.000,3748.7128,N,12217.2616,W,1,06,1.6,13.3,M,-25.1,M,,0000*5C
$GPGSA,A,3,26,17,27,09,28,15,,,,,,,4.1,1.6,3.7*34
$GPRMC,194702.000,A,3748.7128,N,12217.2616,W,0.13,161.02,250812,,,A*7F
$GPVTG,161.02,T,,M,0.13,N,0.2,K,A*09
$GPGGA,194703.000,3748.7129,N,12217.2615,W,1,06,1.6,13.5,M,-25.1,M,,0000*59
$GPGSA,A,3,26,17,27,09,28,15,,,,,,,4.1,1.6,3.7*34
$GPRMC,194703.000,A,3748.7129,N,12217.2615,W,0.36,181.51,250812,,,A*73
$GPVTG,181.51,T,,M,0.36,N,0.7,K,A*03
$GPGGA,194704.000,3748.7130,N,12217.2615,W,1,06,1.6,13.8,M,-25.1,M,,0000*5B
$GPGSA,A,3,26,17,27,09,28,15,,,,,,,4.1,1.6,3.7*34
$GPRMC,194704.000,A,3748.7130,N,12217.2615,W,0.09,112.95,250812,,,A*72
$GPVTG,112.95,T,,M,0.09,N,0.2,K,A*08
$GPGGA,194705.000,3748.7131,N,12217.2615,W,1,06,1.6,14.0,M,-25.1,M,,0000*54
$GPGSA,A,3,26,17,27,09,28,15,,,,,,,4.1,1.6,3.7*34
$GPGSV,3,1,11,17,67,042,39,27,51,310,35,28,40,070,29,09,38,314,36*76
$GPGSV,3,2,11,04,32,153,22,15,27,257,27,26,23,212,24,08,17,139,17*7F
$GPGSV,3,3,11,01,09,037,,02,08,183,,12,06,283,22*49
$GPRMC,194705.000,A,3748.7131,N,12217.2615,W,0.27,182.66,250812,,,A*7B
$GPGGA,194706.000,3748.7132,N,12217.2615,W,1,06,1.6,14.3,M,-25.1,M,,0000*57
$GPGSA,A,3,26,17,27,09,28,15,,,,,,,4.1,1.6,3.7*34
$GPRMC,194706.000,A,3748.7132,N,12217.2615,W,0.13,167.99,250812,,,A*77
$GPVTG,167.99,T,,M,0.13,N,0.2,K,A*0D
$GPGGA,194707.000,3748.7134,N,12217.2614,W,1,06,1.6,14.7,M,-25.1,M,,0000*55
$GPGSA,A,3,26,17,27,09,28,15,,,,,,,4.1,1.6,3.7*34
$GPRMC,194707.000,A,3748.7134,N,12217.2614,W,0.20,9.33,250812,,,A*78
$GPVTG,9.33,T,,M,0.20,N,0.4,K,A*02
$GPGGA,194708.000,3748.7137,N,12217.2613,W,1,06,1.6,15.0,M,-25.1,M,,0000*58
$GPGSA,A,3,26,17,27,09,28,15,,,,,,,4.1,1.6,3.7*34
$GPRMC,194708.000,A,3748.7137,N,12217.2613,W,0.10,166.63,250812,,,A*7D
$GPVTG,166.63,T,,M,0.10,N,0.2,K,A*0A
$GPGGA,194709.000,3748.7141,N,12217.2612,W,1,06,1.6,15.4,M,-25.1,M,,0000*5D
$GPGSA,A,3,26,17,27,09,28,15,,,,,,,4.1,1.6,3.7*34
$GPRMC,194709.000,A,3748.7141,N,12217.2612,W,0.32,12.88,250812,,,A*4B
$GPVTG,12.88,T,,M,0.32,N,0.6,K,A*39
$GPGGA,194710.000,3748.7144,N,12217.2612,W,1,06,1.6,15.7,M,-25.1,M,,0000*53
$GPGSA,A,3,26,17,27,09,28,15,,,,,,,4.1,1.6,3.7*34
$GPGSV,3,1,11,17,67,042,39,27,51,310,36,28,40,070,28,09,38,314,35*77
$GPGSV,3,2,11,04,32,153,22,15,27,257,27,26,23,212,23,08,17,139,17*78
$GPGSV,3,3,11,01,09,037,17,02,08,183,,12,06,283,23*4E
$GPRMC,194710.000,A,3748.7144,N,12217.2612,W,0.29,13.03,250812,,,A*4E
$GPVTG,13.03,T,,M,0.29,N,0.5,K,A*32
$GPGGA,194711.000,3748.7146,N,12217.2611,W,1,06,1.6,16.1,M,-25.1,M,,0000*56
$GPGSA,A,3,26,17,27,09,28,15,,,,,,,4.1,1.6,3.7*34
$GPRMC,194711.000,A,3748.7146,N,12217.2611,W,0.10,187.28,250812,,,A*71
$GPVTG,187.28,T,,M,0.10,N,0.2,K,A*0A
$GPGGA,194712.000,3748.7147,N,12217.2611,W,1,06,1.6,16.5,M,-25.1,M,,0000*50
$GPGSA,A,3,26,17,27,09,28,15,,,,,,,4.1,1.6,3.7*34
$GPRMC,194712.000,A,3748.7147,N,12217.2611,W,0.05,176.55,250812,,,A*73
$GPVTG,176.55,T,,M,0.05,N,0.1,K,A*09
$GPGGA,194713.000,3748.7148,N,12217.2611,W,1,06,1.6,16.8,M,-25.1,M,,0000*53
$GPGSA,A,3,26,17,27,09,28,15,,,,,,,4.1,1.6,3.7*34
$GPRMC,194713.000,A,3748.7148,N,12217.2611,W,0.09,199.23,250812,,,A*71
$GPVTG,199.23,T,,M,0.09,N,0.2,K,A*06
$GPGGA,194714.000,3748.7149,N,12217.2612,W,1,06,1.6,17.1,M,-25.1,M,,0000*5E
$GPGSA,A,3,26,17,27,09,28,15,,,,,,,4.1,1.6,3.7*34
$GPRMC,194714.000,A,3748.7149,N,12217.2612,W,0.20,181.70,250812,,,A*70
$GPVTG,181.70,T,,M,0.20,N,0.4,K,A*04
$GPGGA,194715.000,3748.7154,N,12217.2612,W,1,06,1.6,17.3,M,-25.1,M,,0000*51
$GPGSA,A,3,26,17,27,09,28,15,,,,,,,4.1,1.6,3.7*34
$GPGSV,3,1,11,17,67,042,39,27,51,310,36,28,40,070,28,09,38,314,35*77
$GPGSV,3,2,11,04,32,153,22,15,27,257,20,26,23,212,23,08,17,139,17*7F
$GPGSV,3,3,11,01,09,037,14,02,08,183,,12,06,283,*4C
$GPRMC,194715.000,A,3748.7154,N,12217.2612,W,0.28,2.69,250812,,,A*77
$GPVTG,2.69,T,,M,0.28,N,0.5,K,A*0F
$GPGGA,194716.000,3748.7152,N,12217.2612,W,1,06,1.6,17.6,M,-25.1,M,,0000*51
$GPGSA,A,3,26,17,27,09,28,15,,,,,,,4.1,1.6,3.7*34
$GPRMC,194716.000,A,3748.7152,N,12217.2612,W,0.08,109.94,250812,,,A*78
$GPVTG,109.94,T,,M,0.08,N,0.2,K,A*02
$GPGGA,194717.000,3748.7150,N,12217.2613,W,1,06,1.6,17.9,M,-25.1,M,,0000*5C
$GPGSA,A,3,26,17,27,09,28,15,,,,,,,4.1,1.6,3.7*34
$GPRMC,194717.000,A,3748.7150,N,12217.2613,W,0.04,341.79,250812,,,A*7B
$GPVTG,341.79,T,,M,0.04,N,0.1,K,A*00
$GPGGA,194718.000,3748.7148,N,12217.2613,W,1,06,1.6,17.8,M,-25.1,M,,0000*5B
$GPGSA,A,3,26,17,27,09,28,15,,,,,,,4.1,1.6,3.7*34
$GPRMC,194718.000,A,3748.7148,N,12217.2613,W,0.28,162.81,250812,,,A*77
$GPVTG,162.81,T,,M,0.28,N,0.5,K,A*0E
$GPGGA,194719.000,3748.7144,N,12217.2612,W,1,06,1.6,17.7,M,-25.1,M,,0000*58
$GPGSA,A,3,26,17,27,09,28,15,,,,,,,4.1,1.6,3.8*3B
$GPRMC,194719.000,A,3748.7144,N,12217.2612,W,0.19,50.30,250812,,,A*43
$GPVTG,50.30,T,,M,0.19,N,0.4,K,A*37
$GPGGA,194720.000,3748.7139,N,12217.2612,W,1,06,1.6,17.6,M,-25.1,M,,0000*59
$GPGSA,A,3,26,17,27,09,28,15,,,,,,,4.1,1.6,3.8*3B
$GPGSV,3,1,11,17,67,042,38,27,51,309,35,28,40,070,32,09,38,314,34*77
$GPGSV,3,2,11,04,33,153,22,15,27,256,22,26,23,212,24,08,17,139,16*7B
$GPGSV,3,3,11,01,09,037,14,02,08,183,15,12,06,283,23*49
$GPRMC,194720.000,A,3748.7139,N,12217.2612,W,0.31,171.05,250812,,,A*7D
$GPGGA,194721.000,3748.7137,N,12217.2612,W,1,06,1.6,17.6,M,-25.1,M,,0000*56
$GPGSA,A,3,26,17,27,09,28,15,,,,,,,4.1,1.6,3.8*3B
$GPRMC,194721.000,A,3748.7137,N,12217.2612,W,0.14,138.31,250812,,,A*7F
$GPVTG,138.31,T,,M,0.14,N,0.3,K,A*03
$GPGGA,194722.000,3748.7135,N,12217.2612,W,1,06,1.6,17.6,M,-25.1,M,,0000*57
$GPGSA,A,3,26,17,27,09,28,15,,,,,,,4.1,1.6,3.8*3B
$GPRMC,194722.000,A,3748.7135,N,12217.2612,W,0.15,135.75,250812,,,A*72
$GPVTG,135.75,T,,M,0.15,N,0.3,K,A*0F
$GPGGA,194723.000,3748.7133,N,12217.2612,W,1,06,1.6,17.5,M,-25.1,M,,0000*53
$GPGSA,A,3,26,17,27,09,28,15,,,,,,,4.1,1.6,3.8*3B
$GPRMC,194723.000,A,3748.7133,N,12217.2612,W,0.15,166.31,250812,,,A*73
$GPVTG,166.31,T,,M,0.15,N,0.3,K,A*09
$GPGGA,194724.000,3748.7132,N,12217.2611,W,1,06,1.6,17.4,M,-25.1,M,,0000*57
$GPGSA,A,3,26,17,27,09,28,15,,,,,,,4.1,1.6,3.8*3B
$GPRMC,194724.000,A,3748.7132,N,12217.2611,W,0.17,122.03,250812,,,A*75
$GPVTG,122.03,T,,M,0.17,N,0.3,K,A*0A
$GPGGA,194725.000,3748.7131,N,12217.2611,W,1,06,1.6,17.4,M,-25.1,M,,0000*55
$GPGSA,A,3,26,17,27,09,28,15,,,,,,,4.1,1.6,3.8*3B
$GPGSV,3,1,11,17,67,042,38,27,51,309,36,28,40,070,31,09,38,314,34*77
$GPGSV,3,2,11,04,33,153,22,15,27,256,22,26,23,212,31,08,17,139,15*7C
$GPGSV,3,3,11,01,09,037,14,02,08,183,,12,06,283,20*4E
$GPRMC,194725.000,A,3748.7131,N,12217.2611,W,0.12,98.85,250812,,,A*4C
$GPVTG,98.85,T,,M,0.12,N,0.2,K,A*30
$GPGGA,194726.000,3748.7130,N,12217.2611,W,1,06,1.6,17.3,M,-25.1,M,,0000*50
$GPGSA,A,3,26,17,27,09,28,15,,,,,,,4.1,1.6,3.8*3B
$GPRMC,194726.000,A,3748.7130,N,12217.2611,W,0.17,189.63,250812,,,A*72
$GPVTG,189.63,T,,M,0.17,N,0.3,K,A*0D
$GPGGA,194727.000,3748.7129,N,12217.2611,W,1,06,1.6,17.1,M,-25.1,M,,0000*5B
$GPGSA,A,3,26,17,27,09,28,15,,,,,,,4.1,1.6,3.8*3B
$GPRMC,194727.000,A,3748.7129,N,12217.2611,W,0.17,169.31,250812,,,A*72
$GPVTG,169.31,T,,M,0.17,N,0.3,K,A*04
$GPGGA,194728.000,3748.7128,N,12217.2611,W,1,06,1.6,16.9,M,-25.1,M,,0000*5C
$GPGSA,A,3,26,17,27,09,28,15,,,,,,,4.1,1.6,3.8*3B
$GPRMC,194728.000,A,3748.7128,N,12217.2611,W,0.11,153.42,250812,,,A*77
$GPVTG,153.42,T,,M,0.11,N,0.2,K,A*0E
$GPGGA,194729.000,3748.7127,N,12217.2611,W,1,06,1.6,16.7,M,-25.1,M,,0000*5C
$GPGSA,A,3,26,17,27,09,28,15,,,,,,,4.1,1.6,3.8*3B
$GPRMC,194729.000,A,3748.7127,N,12217.2611,W,0.16,108.70,250812,,,A*71
$GPVTG,108.70,T,,M,0.16,N,0.3,K,A*07
$GPGGA,194730.000,3748.7127,N,12217.2610,W,1,06,1.6,16.6,M,-25.1,M,,0000*54
$GPGSA,A,3,26,17,27,09,28,15,,,,,,,4.1,1.6,3.8*3B
$GPGSV,3,1,11,17,67,042,39,27,51,309,36,28,40,070,30,09,38,314,33*70
$GPGSV,3,2,11,04,33,153,22,15,27,256,23,26,23,212,31,08,17,139,15*7D
$GPGSV,3,3,11,01,09,037,13,02,08,183,,12,06,283,20*49
$GPRMC,194730.000,A,3748.7127,N,12217.2610,W,0.17,109.12,250812,,,A*7C
$GPVTG,109.12,T,,M,0.17,N,0.3,K,A*03
$GPGGA,194731.000,3748.7126,N,12217.2610,W,1,06,1.6,16.4,M,-25.1,M,,0000*56
$GPGSA,A,3,26,17,27,09,28,15,,,,,,,4.1,1.6,3.8*3B
$GPRMC,194731.000,A,3748.7126,N,12217.2610,W,0.13,191.25,250812,,,A*7D
$GPVTG,191.25,T,,M,0.13,N,0.2,K,A*03
$GPGGA,194732.000,3748.7126,N,12217.2610,W,1,06,1.6,16.2,M,-25.1,M,,0000*53
$GPGSA,A,3,26,17,27,09,28,15,,,,,,,4.1,1.6,3.8*3B
$GPRMC,194732.000,A,3748.7126,N,12217.2610,W,0.17,207.91,250812,,,A*79
$GPVTG,207.91,T,,M,0.17,N,0.3,K,A*05
$GPGGA,194733.000,3748.7125,N,12217.2610,W,1,06,1.6,15.9,M,-25.1,M,,0000*59
$GPGSA,A,3,26,17,27,09,28,15,,,,,,,4.1,1.6,3.8*3B
$GPRMC,194733.000,A,3748.7125,N,12217.2610,W,0.08,114.16,250812,,,A*7B
$GPVTG,114.16,T,,M,0.08,N,0.2,K,A*04
$GPGGA,194734.000,3748.7125,N,12217.2610,W,1,06,1.6,15.7,M,-25.1,M,,0000*50
$GPGSA,A,3,26,17,27,09,28,15,,,,,,,4.1,1.6,3.8*3B
$GPRMC,194734.000,A,3748.7125,N,12217.2610,W,0.10,194.42,250812,,,A*7C
$GPVTG,194.42,T,,M,0.10,N,0.2,K,A*04
$GPGGA,194735.000,3748.7125,N,12217.2609,W,1,06,1.6,15.6,M,-25.1,M,,0000*58
$GPGSA,A,3,26,17,27,09,28,15,,,,,,,4.1,1.6,3.8*3B
$GPGSV,3,1,11,17,67,042,39,27,51,309,36,28,40,070,30,09,38,314,33*70
$GPGSV,3,2,11,04,33,153,23,15,27,256,31,26,23,212,31,08,17,139,16*7C
$GPGSV,3,3,11,01,09,037,,02,08,183,,12,06,283,22*49
$GPRMC,194735.000,A,3748.7125,N,12217.2609,W,0.10,141.16,250812,,,A*7C
$GPGGA,194736.000,3748.7125,N,12217.2609,W,1,06,1.6,15.4,M,-25.1,M,,0000*59
$GPGSA,A,3,26,17,27,09,28,15,,,,,,,4.1,1.6,3.8*3B
$GPRMC,194736.000,A,3748.7125,N,12217.2609,W,0.08,131.40,250812,,,A*72
$GPVTG,131.40,T,,M,0.08,N,0.1,K,A*03
$GPGGA,194737.000,3748.7125,N,12217.2609,W,1,06,1.6,15.3,M,-25.1,M,,0000*5F
$GPGSA,A,3,26,17,27,09,28,15,,,,,,,4.1,1.6,3.8*3B
$GPRMC,194737.000,A,3748.7125,N,12217.2609,W,0.08,160.83,250812,,,A*78
$GPVTG,160.83,T,,M,0.08,N,0.1,K,A*08
$GPGGA,194738.000,3748.7124,N,12217.2609,W,1,06,1.6,15.2,M,-25.1,M,,0000*50
$GPGSA,A,3,26,17,27,09,28,15,,,,,,,4.1,1.6,3.8*3B
$GPRMC,194738.000,A,3748.7124,N,12217.2609,W,0.08,130.61,250812,,,A*7F
$GPVTG,130.61,T,,M,0.08,N,0.1,K,A*01
$GPGGA,194739.000,3748.7124,N,12217.2609,W,1,06,1.6,15.0,M,-25.1,M,,0000*53
$GPGSA,A,3,26,17,27,09,28,15,,,,,,,4.1,1.6,3.8*3B
$GPRMC,194739.000,A,3748.7124,N,12217.2609,W,0.08,149.66,250812,,,A*77
$GPVTG,149.66,T,,M,0.08,N,0.2,K,A*0B
$GPGGA,194740.000,3748.7124,N,12217.2608,W,1,06,1.6,14.9,M,-25.1,M,,0000*54
$GPGSA,A,3,26,17,27,09,28,15,,,,,,,4.1,1.6,3.8*3B
$GPGSV,3,1,11,17,67,042,39,27,51,309,35,28,40,070,30,09,38,314,33*73
$GPGSV,3,2,11,04,33,153,23,15,27,256,29,26,23,212,31,08,17,139,17*74
$GPGSV,3,3,11,01,09,037,15,02,08,183,,12,06,283,23*4C
$GPRMC,194740.000,A,3748.7124,N,12217.2608,W,0.06,133.11,250812,,,A*7B
$GPVTG,133.11,T,,M,0.06,N,0.1,K,A*0B
$GPGGA,194741.000,3748.7123,N,12217.2608,W,1,06,1.6,14.8,M,-25.1,M,,0000*53
$GPGSA,A,3,26,17,27,09,28,15,,,,,,,4.1,1.6,3.8*3B
$GPRMC,194741.000,A,3748.7123,N,12217.2608,W,0.06,155.84,250812,,,A*71
$GPVTG,155.84,T,,M,0.06,N,0.1,K,A*07
$GPGGA,194742.000,3748.7123,N,12217.2608,W,1,06,1.6,14.6,M,-25.1,M,,0000*5E
$GPGSA,A,3,26,17,27,09,28,15,,,,,,,4.1,1.6,3.8*3B
$GPRMC,194742.000,A,3748.7123,N,12217.2608,W,0.10,150.44,250812,,,A*7C
$GPVTG,150.44,T,,M,0.10,N,0.2,K,A*0A
$GPGGA,194743.000,3748.7123,N,12217.2608,W,1,06,1.6,14.5,M,-25.1,M,,0000*5C
$GPGSA,A,3,26,17,27,09,28,15,,,,,,,4.1,1.6,3.8*3B
$GPRMC,194743.000,A,3748.7123,N,12217.2608,W,0.08,127.96,250812,,,A*7B
$GPVTG,127.96,T,,M,0.08,N,0.2,K,A*0C
$GPGGA,194744.000,3748.7123,N,12217.2608,W,1,06,1.6,14.4,M,-25.1,M,,0000*5A
$GPGSA,A,3,26,17,27,09,28,15,,,,,,,4.1,1.6,3.8*3B
$GPRMC,194744.000,A,3748.7123,N,12217.2608,W,0.07,140.80,250812,,,A*75
$GPVTG,140.80,T,,M,0.07,N,0.1,K,A*06
$GPGGA,194745.000,3748.7123,N,12217.2608,W,1,06,1.6,14.3,M,-25.1,M,,0000*5C
$GPGSA,A,3,26,17,27,09,28,15,,,,,,,4.1,1.6,3.8*3B
$GPGSV,3,1,11,17,67,042,39,27,51,309,35,28,40,070,30,09,38,314,35*75
$GPGSV,3,2,11,04,33,153,24,15,27,256,26,26,23,212,30,08,17,139,18*72
$GPGSV,3,3,11,01,09,037,15,02,08,183,,12,06,283,21*4E
$GPRMC,194745.000,A,3748.7123,N,12217.2608,W,0.07,145.53,250812,,,A*7F
$GPVTG,145.53,T,,M,0.07,N,0.1,K,A*0D
$GPGGA,194746.000,3748.7123,N,12217.2608,W,1,06,1.6,14.3,M,-25.1,M,,0000*5F
$GPGSA,A,3,26,17,27,09,28,15,,,,,,,4.1,1.6,3.8*3B
$GPRMC,194746.000,A,3748.7123,N,12217.2608,W,0.09,109.55,250812,,,A*7C
$GPVTG,109.55,T,,M,0.09,N,0.2,K,A*0E
$GPGGA,194747.000,3748.7123,N,12217.2608,W,1,06,1.6,14.2,M,-25.1,M,,0000*5F
$GPGSA,A,3,26,17,27,09,28,15,,,,,,,4.1,1.6,3.8*3B
$GPRMC,194747.000,A,3748.7123,N,12217.2608,W,0.06,134.90,250812,,,A*75
$GPVTG,134.90,T,,M,0.06,N,0.1,K,A*05
$GPGGA,194748.000,3748.7123,N,12217.2608,W,1,06,1.6,14.1,M,-25.1,M,,0000*53
$GPGSA,A,3,26,17,27,09,28,15,,,,,,,4.1,1.6,3.8*3B
$GPRMC,194748.000,A,3748.7123,N,12217.2608,W,0.07,134.79,250812,,,A*7C
$GPVTG,134.79,T,,M,0.07,N,0.1,K,A*03
$GPGGA,194749.000,3748.7123,N,12217.2608,W,1,06,1.6,14.0,M,-25.1,M,,0000*53
$GPGSA,A,3,26,17,27,09,28,15,,,,,,,4.1,1.6,3.8*3B
$GPRMC,194749.000,A,3748.7123,N,12217.2608,W,0.08,153.43,250812,,,A*7A
$GPVTG,153.43,T,,M,0.08,N,0.2,K,A*07
$GPGGA,194750.000,3748.7123,N,12217.2608,W,1,06,1.6,13.9,M,-25.1,M,,0000*55
$GPGSA,A,3,26,17,27,09,28,15,,,,,,,4.1,1.6,3.8*3B
$GPGSV,3,1,11,17,67,042,39,27,51,309,35,28,40,071,30,09,38,314,35*74
$GPGSV,3,2,11,04,33,153,23,15,27,256,29,26,23,212,30,08,17,139,18*7A
$GPGSV,3,3,11,02,09,183,,01,09,037,15,12,07,283,22*4D
$GPRMC,194750.000,A,3748.7123,N,12217.2608,W,0.06,118.20,250812,,,A*76
$GPGGA,194751.000,3748.7123,N,12217.2608,W,1,06,1.6,13.9,M,-25.1,M,,0000*54
$GPGSA,A,3,26,17,27,09,28,15,,,,,,,4.1,1.6,3.8*3B
$GPRMC,194751.000,A,3748.7123,N,12217.2608,W,0.08,161.88,250812,,,A*75
$GPVTG,161.88,T,,M,0.08,N,0.2,K,A*01
$GPGGA,194752.000,3748.7123,N,12217.2608,W,1,06,1.6,13.8,M,-25.1,M,,0000*56
$GPGSA,A,3,26,17,27,09,28,15,,,,,,,4.1,1.6,3.8*3B
$GPRMC,194752.000,A,3748.7123,N,12217.2608,W,0.05,136.18,250812,,,A*70
$GPVTG,136.18,T,,M,0.05,N,0.1,K,A*04
$GPGGA,194753.000,3748.7123,N,12217.2608,W,1,06,1.6,13.7,M,-25.1,M,,0000*58
$GPGSA,A,3,26,17,27,09,28,15,,,,,,,4.1,1.6,3.8*3B
$GPRMC,194753.000,A,3748.7123,N,12217.2608,W,0.06,148.94,250812,,,A*7F
$GPVTG,148.94,T,,M,0.06,N,0.1,K,A*0A
$GPGGA,194754.000,3748.7123,N,12217.2608,W,1,06,1.6,13.6,M,-25.1,M,,0000*5E
$GPGSA,A,3,26,17,27,09,28,15,,,,,,,4.1,1.6,3.8*3B
$GPRMC,194754.000,A,3748.7123,N,12217.2608,W,0.05,136.97,250812,,,A*71
$GPVTG,136.97,T,,M,0.05,N,0.1,K,A*03
$GPGGA,194755.000,3748.7123,N,12217.2608,W,1,06,1.6,13.6,M,-25.1,M,,0000*5F
$GPGSA,A,3,26,17,27,09,28,15,,,,,,,4.1,1.6,3.8*3B
$GPGSV,3,1,11,17,67,042,39,27,51,309,35,28,40,071,30,09,38,314,34*75
$GPGSV,3,2,11,04,33,153,23,15,27,256,30,26,23,212,30,08,17,139,17*7D
$GPGSV,3,3,11,02,09,183,,01,09,037,14,12,07,283,21*4F
$GPRMC,194755.000,A,3748.7123,N,12217.2608,W,0.08,152.19,250812,,,A*79
$GPVTG,152.19,T,,M,0.08,N,0.2,K,A*09
$GPGGA,194756.000,3748.7123,N,12217.2608,W,1,06,1.6,13.5,M,-25.1,M,,0000*5F
$GPGSA,A,3,26,17,27,09,28,15,,,,,,,4.1,1.6,3.8*3B
$GPRMC,194756.000,A,3748.7123,N,12217.2608,W,0.06,135.84,250812,,,A*71
$GPVTG,135.84,T,,M,0.06,N,0.1,K,A*01
$GPGGA,194757.000,3748.7123,N,12217.2608,W,1,06,1.6,13.4,M,-25.1,M,,0000*5F
$GPGSA,A,3,26,17,27,09,28,15,,,,,,,4.1,1.6,3.8*3B
$GPRMC,194757.000,A,3748.7123,N,12217.2608,W,0.07,140.64,250812,,,A*7D
$GPVTG,140.64,T,,M,0.07,N,0.1,K,A*0C
$GPGGA,194758.000,3748.7123,N,12217.2608,W,1,06,1.6,13.4,M,-25.1,M,,0000*50
$GPGSA,A,3,26,17,27,09,28,15,,,,,,,4.1,1.6,3.8*3B
$GPRMC,194758.000,A,3748.7123,N,12217.2608,W,0.08,165.51,250812,,,A*7C
$GPVTG,165.51,T,,M,0.08,N,0.1,K,A*02
$GPGGA,194759.000,3748.7123,N,12217.2608,W,1,06,1.6,13.4,M,-25.1,M,,0000*51
$GPGSA,A,3,26,17,27,09,28,15,,,,,,,4.1,1.6,3.8*3B
$GPRMC,194759.000,A,3748.7123,N,12217.2608,W,0.05,139.51,250812,,,A*79
$GPVTG,139.51,T,,M,0.05,N,0.1,K,A*06
$GPGGA,194800.000,3748.7123,N,12217.2608,W,1,06,1.6,13.3,M,-25.1,M,,0000*55
$GPGSA,A,3,26,17,27,09,28,15,,,,,,,4.1,1.6,3.8*3B
$GPGSV,3,1,11,17,67,042,39,27,51,309,34,28,40,071,29,09,38,314,33*7B
$GPGSV,3,2,11,04,33,153,23,15,27,256,30,26,23,212,30,08,17,139,17*7D
$GPGSV,3,3,11,02,09,183,,01,09,037,13,12,07,283,24*4D
$GPRMC,194800.000,A,3748.7123,N,12217.2608,W,0.05,153.22,250812,,,A*72
$GPVTG,153.22,T,,M,0.05,N,0.1,K,A*0E
$GPGGA,194801.000,3748.7123,N,12217.2608,W,1,06,1.6,13.3,M,-25.1,M,,0000*54
$GPGSA,A,3,26,17,27,09,28,15,,,,,,,4.1,1.6,3.8*3B
$GPRMC,194801.000,A,3748.7123,N,12217.2608,W,0.06,130.97,250812,,,A*7B
$GPVTG,130.97,T,,M,0.06,N,0.1,K,A*06
$GPGGA,194802.000,3748.7124,N,12217.2608,W,1,06,1.6,13.3,M,-25.1,M,,0000*50
$GPGSA,A,3,26,17,27,09,28,15,,,,,,,4.1,1.6,3.8*3B
$GPRMC,194802.000,A,3748.7124,N,12217.2608,W,0.05,159.97,250812,,,A*73
$GPVTG,159.97,T,,M,0.05,N,0.1,K,A*0A
$GPGGA,194803.000,3748.7124,N,12217.2609,W,1,06,1.6,13.2,M,-25.1,M,,0000*51
$GPGSA,A,3,26,17,27,09,28,15,,,,,,,4.1,1.6,3.8*3B
$GPRMC,194803.000,A,3748.7124,N,12217.2609,W,0.06,160.24,250812,,,A*72
$GPVTG,160.24,T,,M,0.06,N,0.1,K,A*0B
$GPGGA,194804.000,3748.7124,N,12217.2609,W,1,06,1.6,13.2,M,-25.1,M,,0000*56
$GPGSA,A,3,26,17,27,09,28,15,,,,,,,4.1,1.6,3.8*3B
$GPRMC,194804.000,A,3748.7124,N,12217.2609,W,0.07,161.48,250812,,,A*7F
$GPVTG,161.48,T,,M,0.07,N,0.1,K,A*01
$GPGGA,194805.000,3748.7124,N,12217.2609,W,1,06,1.6,13.1,M,-25.1,M,,0000*54
$GPGSA,A,3,26,17,27,09,28,15,,,,,,,4.1,1.6,3.8*3B
$GPGSV,3,1,11,17,67,042,38,27,51,309,34,28,40,071,30,09,38,314,34*75
$GPGSV,3,2,11,04,33,153,23,15,27,256,30,26,23,212,29,08,17,139,17*75
$GPGSV,3,3,11,02,09,183,,01,09,037,12,12,07,283,26*4E
$GPRMC,194805.000,A,3748.7124,N,12217.2609,W,0.08,155.68,250812,,,A*74
$GPGGA,194806.000,3748.7124,N,12217.2609,W,1,06,1.6,13.1,M,-25.1,M,,0000*57
$GPGSA,A,3,26,17,27,09,28,15,,,,,,,4.1,1.6,3.8*3B
$GPRMC,194806.000,A,3748.7124,N,12217.2609,W,0.05,172.87,250812,,,A*7E
$GPVTG,172.87,T,,M,0.05,N,0.1,K,A*02
$GPGGA,194807.000,3748.7124,N,12217.2609,W,1,06,1.6,13.0,M,-25.1,M,,0000*57
$GPGSA,A,3,26,17,27,09,28,15,,,,,,,4.1,1.6,3.8*3B
$GPRMC,194807.000,A,3748.7124,N,12217.2609,W,0.07,155.97,250812,,,A*79
$GPVTG,155.97,T,,M,0.07,N,0.1,K,A*04
$GPGGA,194808.000,3748.7124,N,12217.2609,W,1,06,1.6,13.0,M,-25.1,M,,0000*58
$GPGSA,A,3,26,17,27,09,28,15,,,,,,,4.1,1.6,3.8*3B
$GPRMC,194808.000,A,3748.7124,N,12217.2609,W,0.05,128.51,250812,,,A*74
$GPVTG,128.51,T,,M,0.05,N,0.1,K,A*06
$GPGGA,194809.000,3748.7124,N,12217.2609,W,1,06,1.6,12.9,M,-25.1,M,,0000*51
$GPGSA,A,3,26,17,27,09,28,15,,,,,,,4.1,1.6,3.8*3B
$GPRMC,194809.000,A,3748.7124,N,12217.2609,W,0.08,135.83,250812,,,A*7B
$GPVTG,135.83,T,,M,0.08,N,0.1,K,A*08
$GPGGA,194810.000,3748.7124,N,12217.2610,W,1,06,1.6,12.9,M,-25.1,M,,0000*51
$GPGSA,A,3,26,17,27,09,28,15,,,,,,,4.1,1.6,3.8*3B
$GPGSV,3,1,11,17,67,042,39,27,51,309,34,28,40,071,31,09,38,314,34*75
$GPGSV,3,2,11,04,33,153,23,15,27,256,30,26,23,212,29,08,17,139,17*75
$GPGSV,3,3,11,02,09,183,,01,09,037,14,12,07,283,22*4C
$GPRMC,194810.000,A,3748.7124,N,12217.2610,W,0.05,152.99,250812,,,A*7C
$GPVTG,152.99,T,,M,0.05,N,0.1,K,A*0F
$GPGGA,194811.000,3748.7124,N,12217.2610,W,1,06,1.6,12.8,M,-25.1,M,,0000*51
$GPGSA,A,3,26,17,27,09,28,15,,,,,,,4.1,1.6,3.8*3B
$GPRMC,194811.000,A,3748.7124,N,12217.2610,W,0.06,175.92,250812,,,A*70
$GPVTG,175.92,T,,M,0.06,N,0.1,K,A*02
$GPGGA,194812.000,3748.7124,N,12217.2610,W,1,06,1.6,12.7,M,-25.1,M,,0000*5D
$GPGSA,A,3,26,17,27,09,28,15,,,,,,,4.1,1.6,3.8*3B
$GPRMC,194812.000,A,3748.7124,N,12217.2610,W,0.04,163.79,250812,,,A*73
$GPVTG,163.79,T,,M,0.04,N,0.1,K,A*02
$GPGGA,194813.000,3748.7124,N,12217.2610,W,1,06,1.6,12.7,M,-25.1,M,,0000*5C
$GPGSA,A,3,26,17,27,09,28,15,,,,,,,4.1,1.6,3.8*3B
$GPRMC,194813.000,A,3748.7124,N,12217.2610,W,0.07,130.07,250812,,,A*7E
$GPVTG,130.07,T,,M,0.07,N,0.1,K,A*0E
$GPGGA,194814.000,3748.7124,N,12217.2610,W,1,06,1.6,12.7,M,-25.1,M,,0000*5B
$GPGSA,A,3,26,17,27,09,28,15,,,,,,,4.1,1.6,3.8*3B
$GPRMC,194814.000,A,3748.7124,N,12217.2610,W,0.06,139.68,250812,,,A*78
$GPVTG,139.68,T,,M,0.06,N,0.1,K,A*0F
$GPGGA,194815.000,3748.7124,N,12217.2610,W,1,06,1.6,12.6,M,-25.1,M,,0000*5B
$GPGSA,A,3,26,17,27,09,28,15,,,,,,,4.1,1.6,3.8*3B
$GPGSV,3,1,11,17,66,042,39,27,52,309,34,28,40,071,31,09,38,314,31*72
$GPGSV,3,2,11,04,33,153,20,15,27,256,28,26,22,212,28,08,17,139,16*7E
$GPGSV,3,3,11,02,09,183,,01,08,037,12,12,07,283,20*49
$GPRMC,194815.000,A,3748.7124,N,12217.2610,W,0.10,172.52,250812,,,A*78
$GPVTG,172.52,T,,M,0.10,N,0.2,K,A*0D
$GPGGA,194816.000,3748.7124,N,12217.2610,W,1,06,1.6,12.6,M,-25.1,M,,0000*58
$GPGSA,A,3,26,17,27,09,28,15,,,,,,,4.1,1.6,3.8*3B
$GPRMC,194816.000,A,3748.7124,N,12217.2610,W,0.09,144.19,250812,,,A*79
$GPVTG,144.19,T,,M,0.09,N,0.2,K,A*0F
$GPGGA,194817.000,3748.7124,N,12217.2610,W,1,06,1.6,12.5,M,-25.1,M,,0000*5A
$GPGSA,A,3,26,17,27,09,28,15,,,,,,,4.1,1.6,3.8*3B
$GPRMC,194817.000,A,3748.7124,N,12217.2610,W,0.05,130.46,250812,,,A*7D
$GPVTG,130.46,T,,M,0.05,N,0.1,K,A*09
$GPGGA,194818.000,3748.7124,N,12217.2610,W,1,06,1.6,12.5,M,-25.1,M,,0000*55
$GPGSA,A,3,26,17,27,09,28,15,,,,,,,4.1,1.6,3.8*3B
$GPRMC,194818.000,A,3748.7124,N,12217.2610,W,0.06,148.58,250812,,,A*71
$GPVTG,148.58,T,,M,0.06,N,0.1,K,A*0A
$GPGGA,194819.000,3748.7124,N,12217.2610,W,1,06,1.6,12.5,M,-25.1,M,,0000*54
$GPGSA,A,3,26,17,27,09,28,15,,,,,,,4.1,1.6,3.8*3B
$GPRMC,194819.000,A,3748.7124,N,12217.2610,W,0.12,167.03,250812,,,A*76
$GPVTG,167.03,T,,M,0.12,N,0.2,K,A*0F
$GPGGA,194820.000,3748.7124,N,12217.2610,W,1,06,1.6,12.5,M,-25.1,M,,0000*5E
$GPGSA,A,3,26,17,27,09,28,15,,,,,,,4.1,1.6,3.8*3B
$GPGSV,3,1,11,17,66,042,39,27,52,309,34,28,40,071,31,09,38,314,33*70
$GPGSV,3,2,11,04,33,153,21,15,27,256,30,26,22,212,28,08,17,139,15*75
$GPGSV,3,3,11,02,09,183,,01,08,036,,12,07,283,20*4B
$GPVTG,159.68,T,,M,0.07,N,0.1,K,A*08
$GPGGA,194821.000,3748.7124,N,12217.2610,W,1,06,1.6,12.5,M,-25.1,M,,0000*5F
$GPGSA,A,3,26,17,27,09,28,15,,,,,,,4.1,1.6,3.8*3B
$GPRMC,194821.000,A,3748.7124,N,12217.2610,W,0.06,155.98,250812,,,A*7B
$GPVTG,155.98,T,,M,0.06,N,0.1,K,A*0A
$GPGGA,194822.000,3748.7124,N,12217.2610,W,1,06,1.6,12.4,M,-25.1,M,,0000*5D
$GPGSA,A,3,26,17,27,09,28,15,,,,,,,4.1,1.6,3.8*3B
$GPRMC,194822.000,A,3748.7124,N,12217.2610,W,0.07,157.88,250812,,,A*7A
$GPVTG,157.88,T,,M,0.07,N,0.1,K,A*08
$GPGGA,194823.000,3748.7124,N,12217.2611,W,1,06,1.6,12.4,M,-25.1,M,,0000*5D
$GPGSA,A,3,26,17,27,09,28,15,,,,,,,4.1,1.6,3.8*3B
$GPRMC,194823.000,A,3748.7124,N,12217.2611,W,0.07,149.58,250812,,,A*78
$GPVTG,149.58,T,,M,0.07,N,0.1,K,A*0A
$GPGGA,194824.000,3748.7124,N,12217.2611,W,1,06,1.6,12.4,M,-25.1,M,,0000*5A
$GPGSA,A,3,26,17,27,09,28,15,,,,,,,4.1,1.6,3.8*3B
$GPRMC,194824.000,A,3748.7124,N,12217.2611,W,0.08,159.88,250812,,,A*7C
$GPVTG,159.88,T,,M,0.08,N,0.1,K,A*09
$GPGGA,194825.000,3748.7124,N,12217.2611,W,1,06,1.6,12.4,M,-25.1,M,,0000*5B
$GPGSA,A,3,26,17,27,09,28,15,,,,,,,4.1,1.6,3.8*3B
$GPGSV,3,1,11,17,66,042,39,27,52,309,33,28,40,071,32,09,38,314,32*75
$GPGSV,3,2,11,04,33,153,22,15,27,256,30,26,22,212,29,08,17,139,15*77
$GPGSV,3,3,11,02,09,183,,01,08,036,,12,07,283,21*4A
$GPRMC,194825.000,A,3748.7124,N,12217.2611,W,0.04,166.78,250812,,,A*72
$GPVTG,166.78,T,,M,0.04,N,0.1,K,A*06
$GPGGA,194826.000,3748.7124,N,12217.2611,W,1,06,1.6,12.4,M,-25.1,M,,0000*58
$GPGSA,A,3,26,17,27,09,28,15,,,,,,,4.1,1.6,3.8*3B
$GPRMC,194826.000,A,3748.7124,N,12217.2611,W,0.07,169.67,250812,,,A*73
$GPVTG,169.67,T,,M,0.07,N,0.1,K,A*04
$GPGGA,194827.000,3748.7124,N,12217.2611,W,1,06,1.6,12.4,M,-25.1,M,,0000*59
$GPGSA,A,3,26,17,27,09,28,15,,,,,,,4.1,1.6,3.8*3B
$GPRMC,194827.000,A,3748.7124,N,12217.2611,W,0.08,167.25,250812,,,A*75
$GPVTG,167.25,T,,M,0.08,N,0.1,K,A*03
$GPGGA,194828.000,3748.7124,N,12217.2611,W,1,06,1.6,12.4,M,-25.1,M,,0000*56
$GPGSA,A,3,26,17,27,09,28,15,,,,,,,4.1,1.6,3.8*3B
$GPRMC,194828.000,A,3748.7124,N,12217.2611,W,0.06,169.41,250812,,,A*78
$GPVTG,169.41,T,,M,0.06,N,0.1,K,A*01
$GPGGA,194829.000,3748.7124,N,12217.2611,W,1,06,1.6,12.4,M,-25.1,M,,0000*57
$GPGSA,A,3,26,17,27,09,28,15,,,,,,,4.1,1.6,3.8*3B
$GPRMC,194829.000,A,3748.7124,N,12217.2611,W,0.09,149.63,250812,,,A*74
$GPVTG,149.63,T,,M,0.09,N,0.2,K,A*0F
$GPGGA,194830.000,3748.7124,N,12217.2611,W,1,06,1.6,12.4,M,-25.1,M,,0000*5F
$GPGSA,A,3,26,17,27,09,28,15,,,,,,,4.1,1.6,3.8*3B
$GPGSV,3,1,12,17,66,042,39,27,52,309,30,28,40,071,31,09,38,314,32*76
$GPGSV,3,2,12,04,33,153,22,15,27,256,22,26,22,212,29,08,17,139,13*71
$GPGSV,3,3,12,02,09,183,,01,08,036,,12,07,283,20,48,44,197,32*7A
$GPRMC,194830.000,A,3748.7124,N,12217.2611,W,0.13,229.21,250812,,,A*74
$GPVTG,229.21,T,,M,0.13,N,0.2,K,A*07
$GPGGA,194831.000,3748.7124,N,12217.2612,W,1,06,1.6,12.4,M,-25.1,M,,0000*5D
$GPGSA,A,3,26,17,27,09,28,15,,,,,,,4.1,1.6,3.8*3B
$GPRMC,194831.000,A,3748.7124,N,12217.2612,W,0.13,229.89,250812,,,A*74
$GPVTG,229.89,T,,M,0.13,N,0.2,K,A*05
$GPGGA,194832.000,3748.7124,N,12217.2612,W,1,06,1.6,12.4,M,-25.1,M,,0000*5E
$GPGSA,A,3,26,17,27,09,28,15,,,,,,,4.1,1.6,3.8*3B
$GPRMC,194832.000,A,3748.7124,N,12217.2612,W,0.14,207.52,250812,,,A*7A
$GPVTG,207.52,T,,M,0.14,N,0.3,K,A*09
$GPGGA,194833.000,3748.7124,N,12217.2612,W,1,06,1.6,12.4,M,-25.1,M,,0000*5F
$GPGSA,A,3,26,17,27,09,28,15,,,,,,,4.1,1.6,3.8*3B
$GPRMC,194833.000,A,3748.7124,N,12217.2612,W,0.08,181.91,250812,,,A*74
$GPVTG,181.91,T,,M,0.08,N,0.1,K,A*04
$GPGGA,194834.000,3748.7124,N,12217.2612,W,1,06,1.6,12.4,M,-25.1,M,,0000*58
$GPGSA,A,3,26,17,27,09,28,15,,,,,,,4.1,1.6,3.8*3B
$GPRMC,194834.000,A,3748.7124,N,12217.2612,W,0.10,159.94,250812,,,A*7A
$GPVTG,159.94,T,,M,0.10,N,0.2,K,A*0E
$GPGGA,194835.000,3748.7124,N,12217.2612,W,1,06,1.6,12.4,M,-25.1,M,,0000*59
$GPGSA,A,3,26,17,27,09,28,15,,,,,,,4.1,1.6,3.8*3B
$GPGSV,3,1,12,17,66,042,39,27,52,309,32,28,40,071,31,09,38,314,33*75
$GPGSV,3,2,12,04,33,153,22,15,27,256,24,26,22,212,29,08,17,139,*75
$GPGSV,3,3,12,02,09,183,,01,08,036,,12,07,283,26,48,44,197,33*7D
$GPVTG,234.60,T,,M,0.08,N,0.2,K,A*04
$GPGGA,194836.000,3748.7124,N,12217.2612,W,1,06,1.6,12.4,M,-25.1,M,,0000*5A
$GPGSA,A,3,26,17,27,09,28,15,,,,,,,4.1,1.6,3.8*3B
$GPRMC,194836.000,A,3748.7124,N,12217.2612,W,0.12,178.80,250812,,,A*7C
$GPVTG,178.80,T,,M,0.12,N,0.2,K,A*0A
$GPGGA,194837.000,3748.7124,N,12217.2612,W,1,06,1.6,12.4,M,-25.1,M,,0000*5B
$GPGSA,A,3,26,17,27,09,28,15,,,,,,,4.1,1.6,3.8*3B
$GPRMC,194837.000,A,3748.7124,N,12217.2612,W,0.05,188.69,250812,,,A*73
$GPVTG,188.69,T,,M,0.05,N,0.1,K,A*07
$GPGGA,194838.000,3748.7124,N,12217.2612,W,1,06,1.6,12.4,M,-25.1,M,,0000*54
$GPGSA,A,3,26,17,27,09,28,15,,,,,,,4.1,1.6,3.8*3B
$GPRMC,194838.000,A,3748.7124,N,12217.2612,W,0.10,153.45,250812,,,A*70
$GPVTG,153.45,T,,M,0.10,N,0.2,K,A*08
$GPGGA,194839.000,3748.7124,N,12217.2612,W,1,06,1.6,12.4,M,-25.1,M,,0000*55
$GPGSA,A,3,26,17,27,09,28,15,,,,,,,4.1,1.6,3.8*3B
$GPRMC,194839.000,A,3748.7124,N,12217.2612,W,0.04,145.36,250812,,,A*77
$GPVTG,145.36,T,,M,0.04,N,0.1,K,A*0D
$GPGGA,194840.000,3748.7125,N,12217.2611,W,1,06,1.6,12.4,M,-25.1,M,,0000*59
$GPGSA,A,3,26,17,27,09,28,15,,,,,,,4.1,1.6,3.8*3B
$GPGSV,3,1,12,17,66,042,39,27,52,309,32,28,40,071,31,09,38,314,32*74
$GPGSV,3,2,12,04,33,153,22,15,27,256,33,26,22,212,30,08,17,139,*7B
$GPGSV,3,3,12,02,09,183,,01,08,036,,12,07,283,,48,44,197,32*78
$GPRMC,194840.000,A,3748.7125,N,12217.2611,W,0.06,153.42,250812,,,A*7D
$GPVTG,153.42,T,,M,0.06,N,0.1,K,A*0B
$GPGGA,194841.000,3748.7126,N,12217.2610,W,1,06,1.6,12.5,M,-25.1,M,,0000*5B
$GPGSA,A,3,26,17,27,09,28,15,,,,,,,4.1,1.6,3.8*3B
$GPRMC,194841.000,A,3748.7126,N,12217.2610,W,0.06,122.91,250812,,,A*76
$GPVTG,122.91,T,,M,0.06,N,0.1,K,A*03
$GPGGA,194842.000,3748.7127,N,12217.2609,W,1,06,1.6,12.5,M,-25.1,M,,0000*51
$GPGSA,A,3,26,17,27,09,28,15,,,,,,,4.1,1.6,3.8*3B
