$ADVER,3080,2.3
$GPRMC,171031.979,A,3748.8010,N,12217.8597,W,0.13,23.90,220812,,,A*4A
$GPGGA,171032.979,3748.8015,N,12217.8599,W,1,04,1.7,-5.8,M,-25.1,M,,0000*48
$GPGSA,A,3,07,26,28,17,,,,,,,,,4.0,1.7,3.7*3B
$GPRMC,171032.979,A,3748.8015,N,12217.8599,W,0.30,100.56,220812,,,A*79
$GPVTG,100.56,T,,M,0.30,N,0.6,K,A*0A
$GPGGA,171033.979,3748.8008,N,12217.8594,W,1,04,1.7,-2.6,M,-25.1,M,,0000*41
$GPGSA,A,3,07,26,28,17,,,,,,,,,4.0,1.7,3.7*3B
$GPRMC,171033.979,A,3748.8008,N,12217.8594,W,0.27,35.64,220812,,,A*49
$GPVTG,35.64,T,,M,0.27,N,0.5,K,A*39
$GPGGA,171035.000,3748.7998,N,12217.8589,W,1,05,1.6,2.2,M,-25.1,M,,0000*6A
$GPGSA,A,3,07,26,28,17,13,,,,,,,,3.5,1.6,3.1*3C
$GPRMC,171035.000,A,3748.7998,N,12217.8589,W,0.32,163.86,220812,,,A*71
$GPVTG,163.86,T,,M,0.32,N,0.6,K,A*00
$GPGGA,171036.000,3748.7997,N,12217.8591,W,1,05,1.6,2.9,M,-25.1,M,,0000*64
$GPGSA,A,3,07,26,28,17,13,,,,,,,,3.5,1.6,3.1*3C
$GPGSV,3,1,12,08,67,020,26,28,67,276,37,07,43,090,37,26,41,309,26*79
$GPGSV,3,2,12,17,26,183,32,19,19,043,,11,18,090,,13,15,155,38*79
$GPGSV,3,3,12,05,13,259,,01,06,105,,10,04,210,,24,02,061,*75
$GPRMC,171036.000,A,3748.7997,N,12217.8591,W,0.65,182.88,220812,,,A*77
$GPVTG,182.88,T,,M,0.65,N,1.2,K,A*06
$GPGGA,171037.000,3748.7995,N,12217.8596,W,1,05,1.6,3.9,M,-25.1,M,,0000*61
$GPGSA,A,3,07,26,28,17,13,,,,,,,,3.5,1.6,3.1*3C
$GPRMC,171037.000,A,3748.7995,N,12217.8596,W,0.63,150.38,220812,,,A*71
$GPVTG,150.38,T,,M,0.63,N,1.2,K,A*04
$GPGGA,171038.000,3748.7988,N,12217.8587,W,1,05,1.6,7.3,M,-25.1,M,,0000*6C
$GPGSA,A,3,07,26,28,17,13,,,,,,,,3.5,1.6,3.1*3C
$GPRMC,171038.000,A,3748.7988,N,12217.8587,W,0.41,150.49,220812,,,A*74
$GPVTG,150.49,T,,M,0.41,N,0.8,K,A*09
$GPGGA,171039.000,3748.7983,N,12217.8582,W,1,05,1.6,9.5,M,-25.1,M,,0000*6B
$GPGSA,A,3,07,26,28,17,13,,,,,,,,3.5,1.6,3.1*3C
$GPRMC,171039.000,A,3748.7983,N,12217.8582,W,0.45,143.68,220812,,,A*7E
$GPVTG,143.68,T,,M,0.45,N,0.8,K,A*0C
$GPGGA,171040.000,3748.7989,N,12217.8587,W,1,05,1.6,7.5,M,-25.1,M,,0000*64
$GPGSA,A,3,07,26,28,17,13,,,,,,,,3.5,1.6,3.1*3C
$GPRMC,171040.000,A,3748.7989,N,12217.8587,W,0.24,171.16,220812,,,A*70
$GPVTG,171.16,T,,M,0.24,N,0.4,K,A*0F
$GPGGA,171041.000,3748.7991,N,12217.8593,W,1,05,1.6,5.5,M,-25.1,M,,0000*6B
$GPGSA,A,3,07,26,28,17,13,,,,,,,,3.5,1.6,3.1*3C
$GPGSV,3,1,12,08,67,020,32,28,67,276,37,07,43,090,36,26,41,309,29*72
$GPGSV,3,2,12,17,26,183,35,19,19,043,30,11,18,090,28,13,15,155,34*7B
$GPGSV,3,3,12,05,13,259,23,01,06,105,,10,04,210,,24,02,061,*74
$GPRMC,171041.000,A,3748.7991,N,12217.8593,W,0.19,226.97,220812,,,A*7B
$GPVTG,226.97,T,,M,0.19,N,0.3,K,A*0E
$GPGGA,171042.000,3748.7997,N,12217.8595,W,1,05,1.6,3.5,M,-25.1,M,,0000*6E
$GPGSA,A,3,07,26,28,17,13,,,,,,,,3.5,1.6,3.1*3C
$GPRMC,171042.000,A,3748.7997,N,12217.8595,W,0.15,27.06,220812,,,A*4F
$GPVTG,27.06,T,,M,0.15,N,0.3,K,A*39
$GPGGA,171043.000,3748.7997,N,12217.8594,W,1,05,1.6,3.3,M,-25.1,M,,0000*68
$GPGSA,A,3,07,26,28,17,13,,,,,,,,3.5,1.6,3.1*3C
$GPRMC,171043.000,A,3748.7997,N,12217.8594,W,0.14,37.16,220812,,,A*4E
$GPVTG,37.16,T,,M,0.14,N,0.3,K,A*38
$GPGGA,171044.000,3748.7997,N,12217.8593,W,1,05,1.6,2.5,M,-25.1,M,,0000*6F
$GPGSA,A,3,07,26,28,17,13,,,,,,,,3.5,1.6,3.1*3C
$GPRMC,171044.000,A,3748.7997,N,12217.8593,W,0.14,43.76,220812,,,A*4B
$GPVTG,43.76,T,,M,0.14,N,0.3,K,A*3D
$GPGGA,171045.000,3748.8000,N,12217.8595,W,1,05,1.6,1.6,M,-25.1,M,,0000*60
$GPGSA,A,3,07,26,28,17,13,,,,,,,,3.5,1.6,3.1*3C
$GPRMC,171045.000,A,3748.8000,N,12217.8595,W,0.15,348.28,220812,,,A*76
$GPVTG,348.28,T,,M,0.15,N,0.3,K,A*0F
$GPGGA,171046.000,3748.8003,N,12217.8596,W,1,05,1.6,0.7,M,-25.1,M,,0000*63
$GPGSA,A,3,07,26,28,17,13,,,,,,,,3.5,1.6,3.1*3C
$GPGSV,3,1,12,08,67,020,31,28,67,276,37,07,43,090,35,26,41,309,30*7A
$GPGSV,3,2,12,17,26,183,34,19,19,043,30,11,18,090,28,13,15,155,32*7C
$GPGSV,3,3,12,05,13,259,21,01,06,105,20,10,04,210,25,24,02,061,*73
$GPVTG,19.91,T,,M,0.20,N,0.4,K,A*3B
$GPGGA,171047.000,3748.8004,N,12217.8596,W,1,05,1.6,0.6,M,-25.1,M,,0000*64
$GPGSA,A,3,07,26,28,17,13,,,,,,,,3.5,1.6,3.1*3C
$GPRMC,171047.000,A,3748.8004,N,12217.8596,W,0.19,16.85,220812,,,A*40
$GPVTG,16.85,T,,M,0.19,N,0.4,K,A*3B
$GPGGA,171048.000,3748.8005,N,12217.8597,W,1,05,1.6,0.4,M,-25.1,M,,0000*69
$GPGSA,A,3,07,26,28,17,13,,,,,,,,3.5,1.6,3.1*3C
$GPRMC,171048.000,A,3748.8005,N,12217.8597,W,0.20,13.38,220812,,,A*46
$GPVTG,13.38,T,,M,0.20,N,0.4,K,A*32
$GPGGA,171049.000,3748.8007,N,12217.8597,W,1,05,1.6,0.0,M,-25.1,M,,0000*6E
$GPGSA,A,3,07,26,28,17,13,,,,,,,,3.5,1.6,3.1*3C
$GPRMC,171049.000,A,3748.8007,N,12217.8597,W,0.15,18.46,220812,,,A*41
$GPVTG,18.46,T,,M,0.15,N,0.3,K,A*31
$GPGGA,171050.000,3748.8008,N,12217.8598,W,1,05,1.6,-0.2,M,-25.1,M,,0000*49
$GPGSA,A,3,07,26,28,17,13,,,,,,,,3.5,1.6,3.1*3C
$GPRMC,171050.000,A,3748.8008,N,12217.8598,W,0.18,8.88,220812,,,A*77
$GPVTG,8.88,T,,M,0.18,N,0.3,K,A*0F
$GPGGA,171051.000,3748.8009,N,12217.8598,W,1,05,1.6,-0.5,M,-25.1,M,,0000*4E
$GPGSA,A,3,07,26,28,17,13,,,,,,,,3.5,1.6,3.1*3C
$GPGSV,3,1,12,08,67,020,31,28,67,276,37,07,43,091,36,26,41,309,30*78
$GPGSV,3,2,12,17,26,183,33,19,19,043,31,11,18,090,31,13,15,155,32*72
$GPGSV,3,3,12,05,13,259,22,01,06,105,22,10,04,210,25,24,02,061,*72
$GPRMC,171051.000,A,3748.8009,N,12217.8598,W,0.17,17.82,220812,,,A*4C
$GPVTG,17.82,T,,M,0.17,N,0.3,K,A*34
$GPGGA,171052.000,3748.8007,N,12217.8596,W,1,05,1.6,0.0,M,-25.1,M,,0000*65
$GPGSA,A,3,07,26,28,17,13,,,,,,,,3.5,1.6,3.1*3C
$GPRMC,171052.000,A,3748.8007,N,12217.8596,W,0.07,56.36,220812,,,A*44
$GPVTG,56.36,T,,M,0.07,N,0.1,K,A*3D
$GPGGA,171053.000,3748.8001,N,12217.8592,W,1,05,1.6,2.5,M,-25.1,M,,0000*61
$GPGSA,A,3,07,26,28,17,13,,,,,,,,3.5,1.6,3.1*3C
$GPRMC,171053.000,A,3748.8001,N,12217.8592,W,0.26,119.65,220812,,,A*78
$GPVTG,119.65,T,,M,0.26,N,0.5,K,A*06
$GPGGA,171054.000,3748.8000,N,12217.8591,W,1,05,1.6,3.0,M,-25.1,M,,0000*60
$GPGSA,A,3,07,26,28,17,13,,,,,,,,3.5,1.6,3.1*3C
$GPRMC,171054.000,A,3748.8000,N,12217.8591,W,0.17,7.45,220812,,,A*73
$GPVTG,7.45,T,,M,0.17,N,0.3,K,A*0E
$GPGGA,171055.000,3748.8001,N,12217.8589,W,1,05,1.6,3.3,M,-25.1,M,,0000*6A
$GPGSA,A,3,07,26,28,17,13,,,,,,,,3.5,1.6,3.1*3C
$GPRMC,171055.000,A,3748.8001,N,12217.8589,W,0.27,19.96,220812,,,A*48
$GPVTG,19.96,T,,M,0.27,N,0.5,K,A*3A
$GPGGA,171056.000,3748.8001,N,12217.8589,W,1,05,1.6,3.6,M,-25.1,M,,0000*6C
$GPGSA,A,3,07,26,28,17,13,,,,,,,,3.5,1.6,3.1*3C
$GPGSV,3,1,12,08,67,020,27,28,67,276,28,07,43,091,27,26,41,309,31*70
$GPGSV,3,2,12,17,26,183,31,19,19,043,22,11,18,090,24,13,15,155,18*7E
$GPGSV,3,3,12,05,13,259,23,01,06,105,17,10,04,210,15,24,02,061,*76
$GPRMC,171056.000,A,3748.8001,N,12217.8589,W,0.30,280.84,220812,,,A*7C
$GPVTG,280.84,T,,M,0.30,N,0.6,K,A*0E
$GPGGA,171057.000,3748.8001,N,12217.8590,W,1,05,1.6,3.6,M,-25.1,M,,0000*65
$GPGSA,A,3,07,26,28,17,13,,,,,,,,3.5,1.6,3.1*3C
$GPRMC,171057.000,A,3748.8001,N,12217.8590,W,0.29,44.10,220812,,,A*4A
$GPVTG,44.10,T,,M,0.29,N,0.5,K,A*32
$GPGGA,171058.000,3748.8003,N,12217.8589,W,1,05,1.6,3.4,M,-25.1,M,,0000*62
$GPGSA,A,3,07,26,28,17,13,,,,,,,,3.5,1.6,3.1*3C
$GPRMC,171058.000,A,3748.8003,N,12217.8589,W,0.78,47.25,220812,,,A*4E
$GPVTG,47.25,T,,M,0.78,N,1.5,K,A*32
$GPGGA,171059.000,3748.8003,N,12217.8590,W,1,05,1.6,3.3,M,-25.1,M,,0000*6C
$GPGSA,A,3,07,26,28,17,13,,,,,,,,3.5,1.6,3.1*3C
$GPRMC,171059.000,A,3748.8003,N,12217.8590,W,0.30,256.67,220812,,,A*7F
$GPVTG,256.67,T,,M,0.30,N,0.5,K,A*0B
$GPGGA,171100.000,3748.8002,N,12217.8590,W,1,05,1.6,3.6,M,-25.1,M,,0000*65
$GPGSA,A,3,07,26,28,17,13,,,,,,,,3.5,1.6,3.1*3C
$GPRMC,171100.000,A,3748.8002,N,12217.8590,W,0.41,212.54,220812,,,A*75
$GPVTG,212.54,T,,M,0.41,N,0.8,K,A*00
$GPGGA,171101.000,3748.7998,N,12217.8589,W,1,05,1.6,4.5,M,-25.1,M,,0000*6D
$GPGSA,A,3,07,26,28,17,13,,,,,,,,3.5,1.6,3.1*3C
$GPGSV,3,1,12,08,67,020,26,28,67,276,24,07,43,091,33,26,41,309,24*7C
$GPGSV,3,2,12,17,26,183,32,19,19,043,24,11,18,090,25,13,15,155,32*72
$GPGSV,3,3,12,05,13,259,20,01,06,105,18,10,04,210,16,24,02,061,*79
$GPRMC,171101.000,A,3748.7998,N,12217.8589,W,0.13,250.28,220812,,,A*73
$GPGGA,171102.000,3748.7998,N,12217.8587,W,1,05,1.6,3.7,M,-25.1,M,,0000*65
$GPGSA,A,3,07,26,28,17,13,,,,,,,,3.5,1.6,3.1*3C
$GPRMC,171102.000,A,3748.7998,N,12217.8587,W,0.08,62.31,220812,,,A*4F
$GPVTG,62.31,T,,M,0.08,N,0.2,K,A*31
$GPGGA,171103.000,3748.7997,N,12217.8587,W,1,05,1.6,4.1,M,-25.1,M,,0000*6A
$GPGSA,A,3,07,26,28,17,13,,,,,,,,3.5,1.6,3.1*3C
$GPRMC,171103.000,A,3748.7997,N,12217.8587,W,0.14,49.43,220812,,,A*40
$GPVTG,49.43,T,,M,0.14,N,0.3,K,A*31
$GPGGA,171104.000,3748.8002,N,12217.8585,W,1,06,1.6,2.9,M,-25.1,M,,0000*68
$GPGSA,A,3,07,26,28,17,13,08,,,,,,,3.3,1.6,2.9*3B
$GPRMC,171104.000,A,3748.8002,N,12217.8585,W,0.19,44.22,220812,,,A*48
$GPVTG,44.22,T,,M,0.19,N,0.4,K,A*31
$GPGGA,171105.000,3748.8004,N,12217.8580,W,1,06,1.6,3.2,M,-25.1,M,,0000*60
$GPGSA,A,3,07,26,28,17,13,08,,,,,,,3.3,1.6,2.9*3B
$GPRMC,171105.000,A,3748.8004,N,12217.8580,W,0.22,78.68,220812,,,A*43
$GPVTG,78.68,T,,M,0.22,N,0.4,K,A*38
$GPGGA,171106.000,3748.8007,N,12217.8588,W,1,05,1.6,1.3,M,-25.1,M,,0000*68
$GPGSA,A,3,07,26,28,17,13,,,,,,,,3.5,1.6,3.1*3C
$GPGSV,3,1,12,08,67,020,,28,67,277,26,07,43,091,20,26,41,309,25*78
$GPGSV,3,2,12,17,27,183,32,19,19,043,,11,18,090,20,13,14,155,28*7A
$GPGSV,3,3,12,05,13,259,22,01,06,105,11,10,04,210,23,24,02,061,*74
$GPRMC,171106.000,A,3748.8007,N,12217.8588,W,0.37,40.33,220812,,,A*4A
$GPVTG,40.33,T,,M,0.37,N,0.7,K,A*3A
$GPGGA,171107.000,3748.8010,N,12217.8594,W,1,05,1.6,-0.6,M,-25.1,M,,0000*4B
$GPGSA,A,3,07,26,28,17,13,,,,,,,,3.5,1.6,3.1*3C
$GPRMC,171107.000,A,3748.8010,N,12217.8594,W,0.34,298.10,220812,,,A*75
$GPVTG,298.10,T,,M,0.34,N,0.6,K,A*0E
$GPGGA,171108.000,3748.8010,N,12217.8597,W,1,06,1.6,-1.0,M,-25.1,M,,0000*43
$GPGSA,A,3,07,26,28,17,13,08,,,,,,,3.3,1.6,2.9*3B
$GPRMC,171108.000,A,3748.8010,N,12217.8597,W,0.45,274.14,220812,,,A*79
$GPVTG,274.14,T,,M,0.45,N,0.8,K,A*00
$GPGGA,171109.000,3748.8003,N,12217.8600,W,1,06,1.6,0.4,M,-25.1,M,,0000*65
$GPGSA,A,3,07,26,28,17,13,08,,,,,,,3.3,1.6,2.9*3B
$GPRMC,171109.000,A,3748.8003,N,12217.8600,W,0.26,318.08,220812,,,A*74
$GPVTG,318.08,T,,M,0.26,N,0.5,K,A*0E
$GPGGA,171110.000,3748.8001,N,12217.8602,W,1,06,1.6,0.9,M,-25.1,M,,0000*60
$GPGSA,A,3,07,26,28,17,13,08,,,,,,,3.3,1.6,2.9*3B
$GPRMC,171110.000,A,3748.8001,N,12217.8602,W,0.16,6.82,220812,,,A*71
$GPVTG,6.82,T,,M,0.16,N,0.3,K,A*05
$GPGGA,171111.000,3748.8000,N,12217.8601,W,1,06,1.6,1.5,M,-25.1,M,,0000*6E
$GPGSA,A,3,07,26,28,17,13,08,,,,,,,3.3,1.6,2.9*3B
$GPGSV,3,1,12,08,67,020,30,28,67,277,26,07,43,091,19,26,41,309,26*72
$GPGSV,3,2,12,17,27,183,33,19,19,043,,11,18,090,25,13,14,155,31*76
$GPGSV,3,3,12,05,13,259,22,01,06,105,23,10,04,210,24,24,02,061,*72
$GPRMC,171111.000,A,3748.8000,N,12217.8601,W,0.13,265.14,220812,,,A*7F
$GPVTG,265.14,T,,M,0.13,N,0.2,K,A*09
$GPGGA,171112.000,3748.7998,N,12217.8605,W,1,06,1.6,0.8,M,-25.1,M,,0000*62
$GPGSA,A,3,07,26,28,17,13,08,,,,,,,3.3,1.6,2.9*3B
$GPRMC,171112.000,A,3748.7998,N,12217.8605,W,0.12,271.87,220812,,,A*71
$GPVTG,271.87,T,,M,0.12,N,0.2,K,A*07
$GPGGA,171113.000,3748.8000,N,12217.8607,W,1,06,1.6,-0.2,M,-25.1,M,,0000*41
$GPGSA,A,3,07,26,28,17,13,08,,,,,,,3.3,1.6,2.9*3B
$GPRMC,171113.000,A,3748.8000,N,12217.8607,W,0.35,48.33,220812,,,A*47
$GPVTG,48.33,T,,M,0.35,N,0.6,K,A*31
$GPGGA,171114.000,3748.7998,N,12217.8606,W,1,06,1.6,0.1,M,-25.1,M,,0000*6E
$GPGSA,A,3,07,26,28,17,13,08,,,,,,,3.3,1.6,2.9*3B
$GPRMC,171114.000,A,3748.7998,N,12217.8606,W,0.24,46.69,220812,,,A*47
$GPVTG,46.69,T,,M,0.24,N,0.4,K,A*32
$GPGGA,171115.000,3748.8000,N,12217.8607,W,1,06,1.6,-0.7,M,-25.1,M,,0000*42
$GPGSA,A,3,07,26,28,17,13,08,,,,,,,3.3,1.6,2.9*3B
$GPRMC,171115.000,A,3748.8000,N,12217.8607,W,0.20,43.81,220812,,,A*47
$GPVTG,43.81,T,,M,0.20,N,0.4,K,A*35
$GPGGA,171116.000,3748.8004,N,12217.8611,W,1,06,1.6,-3.8,M,-25.1,M,,0000*4E
$GPGSA,A,3,07,26,28,17,13,08,,,,,,,3.3,1.6,2.9*3B
$GPGSV,3,1,12,08,67,020,29,28,67,277,26,07,43,091,24,26,41,309,26*74
$GPGSV,3,2,12,17,27,183,34,19,19,043,,11,18,090,24,13,14,155,26*76
$GPGSV,3,3,12,05,13,259,13,01,06,105,23,10,04,210,24,24,02,061,*70
$GPVTG,21.55,T,,M,0.33,N,0.6,K,A*38
$GPGGA,171117.000,3748.8007,N,12217.8612,W,1,06,1.6,-5.7,M,-25.1,M,,0000*46
$GPGSA,A,3,07,26,28,17,13,08,,,,,,,3.3,1.6,2.9*3B
$GPRMC,171117.000,A,3748.8007,N,12217.8612,W,0.35,9.38,220812,,,A*7E
$GPVTG,9.38,T,,M,0.35,N,0.7,K,A*0E
$GPGGA,171118.000,3748.8010,N,12217.8610,W,1,06,1.6,-7.7,M,-25.1,M,,0000*4F
$GPGSA,A,3,07,26,28,17,13,08,,,,,,,3.3,1.6,2.9*3B
$GPRMC,171118.000,A,3748.8010,N,12217.8610,W,0.43,13.03,220812,,,A*47
$GPVTG,13.03,T,,M,0.43,N,0.8,K,A*33
$GPGGA,171119.000,3748.8013,N,12217.8608,W,1,06,1.6,-9.5,M,-25.1,M,,0000*48
$GPGSA,A,3,07,26,28,17,13,08,,,,,,,3.3,1.6,2.9*3B
$GPRMC,171119.000,A,3748.8013,N,12217.8608,W,0.46,9.24,220812,,,A*77
$GPVTG,9.24,T,,M,0.46,N,0.9,K,A*09
$GPGGA,171120.000,3748.8016,N,12217.8603,W,1,05,1.7,-10.9,M,-25.1,M,,0000*7A
$GPGSA,A,3,07,26,28,17,13,,,,,,,,3.5,1.7,3.1*3D
$GPRMC,171120.000,A,3748.8016,N,12217.8603,W,0.52,0.88,220812,,,A*79
$GPVTG,0.88,T,,M,0.52,N,1.0,K,A*0B
$GPGGA,171121.000,3748.8017,N,12217.8600,W,1,05,1.7,-11.1,M,-25.1,M,,0000*70
$GPGSA,A,3,07,26,28,17,13,,,,,,,,3.5,1.7,3.1*3D
$GPGSV,3,1,12,08,67,021,,28,67,277,26,07,42,091,28,26,41,309,27*72
$GPGSV,3,2,12,17,27,183,35,19,19,043,,11,18,090,23,13,14,155,25*73
$GPGSV,3,3,12,05,13,259,,01,06,105,20,10,04,210,21,24,02,061,*74
$GPRMC,171121.000,A,3748.8017,N,12217.8600,W,0.51,10.54,220812,,,A*49
$GPVTG,10.54,T,,M,0.51,N,0.9,K,A*30
$GPGGA,171122.000,3748.8017,N,12217.8597,W,1,06,1.6,-11.0,M,-25.1,M,,0000*7D
$GPGSA,A,3,07,26,28,17,13,08,,,,,,,3.3,1.6,2.9*3B
$GPRMC,171122.000,A,3748.8017,N,12217.8597,W,0.38,24.43,220812,,,A*49
$GPVTG,24.43,T,,M,0.38,N,0.7,K,A*30
$GPGGA,171123.000,3748.8018,N,12217.8593,W,1,06,1.6,-10.5,M,-25.1,M,,0000*73
$GPGSA,A,3,07,26,28,17,13,08,,,,,,,3.3,1.6,2.9*3B
$GPRMC,171123.000,A,3748.8018,N,12217.8593,W,0.55,44.43,220812,,,A*4E
$GPVTG,44.43,T,,M,0.55,N,1.0,K,A*3B
$GPGGA,171124.000,3748.8018,N,12217.8590,W,1,06,1.6,-10.3,M,-25.1,M,,0000*71
$GPGSA,A,3,07,26,28,17,13,08,,,,,,,3.3,1.6,2.9*3B
$GPRMC,171124.000,A,3748.8018,N,12217.8590,W,0.45,18.38,220812,,,A*4E
$GPVTG,18.38,T,,M,0.45,N,0.8,K,A*36
$GPGGA,171125.000,3748.8019,N,12217.8587,W,1,06,1.6,-10.6,M,-25.1,M,,0000*72
$GPGSA,A,3,07,26,28,17,13,08,,,,,,,3.3,1.6,2.9*3B
$GPRMC,171125.000,A,3748.8019,N,12217.8587,W,0.41,10.71,220812,,,A*49
$GPVTG,10.71,T,,M,0.41,N,0.8,K,A*37
$GPGGA,171126.000,3748.8020,N,12217.8585,W,1,06,1.6,-12.4,M,-25.1,M,,0000*79
$GPGSA,A,3,07,26,28,17,13,08,,,,,,,3.3,1.6,2.9*3B
$GPGSV,3,1,12,08,67,021,28,28,67,277,26,07,42,091,28,26,41,309,32*7C
$GPGSV,3,2,12,17,27,183,36,19,19,043,,11,18,090,21,13,14,155,18*7C
$GPGSV,3,3,12,05,13,259,,01,06,105,25,10,04,210,19,24,02,061,*7A
$GPRMC,171126.000,A,3748.8020,N,12217.8585,W,0.36,0.40,220812,,,A*71
$GPVTG,0.40,T,,M,0.36,N,0.7,K,A*0B
$GPGGA,171127.000,3748.8020,N,12217.8583,W,1,06,1.6,-12.1,M,-25.1,M,,0000*7B
$GPGSA,A,3,07,26,28,17,13,08,,,,,,,3.3,1.6,2.9*3B
$GPRMC,171127.000,A,3748.8020,N,12217.8583,W,0.39,7.40,220812,,,A*7E
$GPVTG,7.40,T,,M,0.39,N,0.7,K,A*03
$GPGGA,171128.000,3748.8021,N,12217.8580,W,1,06,1.6,-12.9,M,-25.1,M,,0000*7E
$GPGSA,A,3,07,26,28,17,13,08,,,,,,,3.3,1.6,2.9*3B
$GPRMC,171128.000,A,3748.8021,N,12217.8580,W,0.37,5.84,220812,,,A*77
$GPVTG,5.84,T,,M,0.37,N,0.7,K,A*07
$GPGGA,171129.000,3748.8018,N,12217.8581,W,1,06,1.6,-10.8,M,-25.1,M,,0000*77
$GPGSA,A,3,07,26,28,17,13,08,,,,,,,3.3,1.6,2.9*3B
$GPRMC,171129.000,A,3748.8018,N,12217.8581,W,0.28,359.74,220812,,,A*76
$GPVTG,359.74,T,,M,0.28,N,0.5,K,A*0E
$GPGGA,171130.000,3748.8015,N,12217.8581,W,1,06,1.6,-8.8,M,-25.1,M,,0000*4B
$GPGSA,A,3,07,26,28,17,13,08,,,,,,,3.3,1.6,2.9*3B
$GPRMC,171130.000,A,3748.8015,N,12217.8581,W,0.04,10.20,220812,,,A*42
$GPVTG,10.20,T,,M,0.04,N,0.1,K,A*3B
$GPGGA,171131.000,3748.8014,N,12217.8582,W,2,06,1.6,-7.1,M,-25.1,M,1.8,0000*6A
$GPGSA,A,3,07,26,28,17,13,08,,,,,,,3.3,1.6,2.9*3B
$GPGSV,3,1,12,08,67,021,19,28,67,277,28,07,42,091,32,26,41,309,33*7A
$GPGSV,3,2,12,17,27,183,36,19,19,043,,11,18,090,20,13,14,155,28*7E
$GPGSV,3,3,12,05,13,259,,01,06,105,20,10,04,210,20,24,02,061,*75
$GPRMC,171131.000,A,3748.8014,N,12217.8582,W,0.04,104.39,220812,,,D*78
$GPGGA,171132.000,3748.8014,N,12217.8580,W,2,06,1.6,-7.4,M,-25.1,M,1.8,0000*6E
$GPGSA,A,3,07,26,28,17,13,08,,,,,,,3.3,1.6,2.9*3B
$GPRMC,171132.000,A,3748.8014,N,12217.8580,W,0.13,109.78,220812,,,D*77
$GPVTG,109.78,T,,M,0.13,N,0.2,K,D*0F
$GPGGA,171133.000,3748.8012,N,12217.8580,W,2,06,1.6,-5.8,M,-25.1,M,1.8,0000*67
$GPGSA,A,3,07,26,28,17,13,08,,,,,,,3.3,1.6,2.9*3B
$GPRMC,171133.000,A,3748.8012,N,12217.8580,W,0.14,99.59,220812,,,D*4C
$GPVTG,99.59,T,,M,0.14,N,0.3,K,D*32
$GPGGA,171134.000,3748.8011,N,12217.8581,W,2,06,1.6,-5.0,M,-25.1,M,2.8,0000*69
$GPGSA,A,3,07,26,28,17,13,08,,,,,,,3.3,1.6,2.9*3B
$GPRMC,171134.000,A,3748.8011,N,12217.8581,W,0.21,1.62,220812,,,D*76
$GPVTG,1.62,T,,M,0.21,N,0.4,K,D*0A
$GPGGA,171135.000,3748.8009,N,12217.8586,W,2,05,2.1,-3.5,M,-25.1,M,3.8,0000*63
$GPGSA,A,3,26,28,17,13,08,,,,,,,,3.6,2.1,2.9*3D
$GPRMC,171135.000,A,3748.8009,N,12217.8586,W,0.45,285.07,220812,,,D*76
$GPVTG,285.07,T,,M,0.45,N,0.8,K,D*09
$GPGGA,171136.000,3748.8008,N,12217.8591,W,2,06,1.6,-2.6,M,-25.1,M,4.8,0000*65
$GPGSA,A,3,07,26,28,17,13,08,,,,,,,3.3,1.6,2.9*3B
$GPGSV,3,1,12,08,67,021,30,28,67,277,31,07,42,091,20,26,41,309,33*7A
$GPGSV,3,2,12,17,27,183,30,19,19,043,,11,18,090,24,13,14,155,19*7E
$GPGSV,3,3,12,05,13,259,,01,06,105,22,10,04,210,20,24,02,061,*77
$GPRMC,171136.000,A,3748.8008,N,12217.8591,W,0.18,243.75,220812,,,D*75
$GPVTG,243.75,T,,M,0.18,N,0.3,K,D*05
$GPGGA,171137.000,3748.8005,N,12217.8594,W,2,06,1.6,-1.9,M,-25.1,M,5.8,0000*61
$GPGSA,A,3,07,26,28,17,13,08,,,,,,,3.3,1.6,2.9*3B
$GPRMC,171137.000,A,3748.8005,N,12217.8594,W,0.28,131.41,220812,,,D*7E
$GPVTG,131.41,T,,M,0.28,N,0.5,K,D*01
$GPGGA,171138.000,3748.8001,N,12217.8595,W,2,06,1.6,-1.6,M,-25.1,M,6.8,0000*67
$GPGSA,A,3,07,26,28,17,13,08,,,,,,,3.3,1.6,2.9*3B
$GPRMC,171138.000,A,3748.8001,N,12217.8595,W,0.49,136.89,220812,,,D*70
$GPVTG,136.89,T,,M,0.49,N,0.9,K,D*09
$GPGGA,171139.000,3748.8000,N,12217.8597,W,2,06,1.6,-0.4,M,-25.1,M,7.8,0000*67
$GPGSA,A,3,07,26,28,17,13,08,,,,,,,3.3,1.6,2.9*3B
$GPRMC,171139.000,A,3748.8000,N,12217.8597,W,0.45,181.74,220812,,,D*70
$GPVTG,181.74,T,,M,0.45,N,0.8,K,D*0A
$GPGGA,171140.000,3748.7998,N,12217.8597,W,2,06,1.6,-0.3,M,-25.1,M,8.8,0000*66
$GPGSA,A,3,07,26,28,17,13,08,,,,,,,3.3,1.6,2.9*3B
$GPRMC,171140.000,A,3748.7998,N,12217.8597,W,0.43,189.67,220812,,,D*75
$GPVTG,189.67,T,,M,0.43,N,0.8,K,D*06
$GPGGA,171141.000,3748.7995,N,12217.8601,W,2,06,1.6,1.1,M,-25.1,M,9.8,0000*49
$GPGSA,A,3,07,26,28,17,13,08,,,,,,,3.3,1.6,2.9*3B
$GPGSV,3,1,12,28,67,277,36,08,67,021,31,07,42,091,27,26,41,309,34*7C
$GPGSV,3,2,12,17,27,183,27,19,19,043,,11,18,089,24,13,14,155,20*7A
$GPGSV,3,3,12,05,13,259,26,01,06,105,21,10,03,210,20,24,02,061,*77
$GPRMC,171141.000,A,3748.7995,N,12217.8601,W,0.13,224.22,220812,,,D*75
$GPVTG,224.22,T,,M,0.13,N,0.2,K,D*0C
$GPGGA,171142.000,3748.7994,N,12217.8599,W,2,06,1.6,1.0,M,-25.1,M,10.8,0000*70
$GPGSA,A,3,07,26,28,17,13,08,,,,,,,3.3,1.6,2.9*3B
$GPRMC,171142.000,A,3748.7994,N,12217.8599,W,0.41,164.00,220812,,,D*75
$GPVTG,164.00,T,,M,0.41,N,0.8,K,D*06
$GPGGA,171143.000,3748.7995,N,12217.8594,W,2,06,1.6,1.4,M,-25.1,M,11.8,0000*78
$GPGSA,A,3,07,26,28,17,13,08,,,,,,,3.3,1.6,2.9*3B
$GPRMC,171143.000,A,3748.7995,N,12217.8594,W,0.17,204.34,220812,,,D*79
$GPVTG,204.34,T,,M,0.17,N,0.3,K,D*0C
$GPGGA,171144.000,3748.7994,N,12217.8598,W,2,06,1.6,2.2,M,-25.1,M,12.8,0000*74
$GPGSA,A,3,07,26,28,17,13,08,,,,,,,3.3,1.6,2.9*3B
$GPRMC,171144.000,A,3748.7994,N,12217.8598,W,0.27,156.98,220812,,,D*72
$GPVTG,156.98,T,,M,0.27,N,0.5,K,D*0B
$GPGGA,171145.000,3748.7995,N,12217.8594,W,2,06,1.6,2.0,M,-25.1,M,13.8,0000*7B
$GPGSA,A,3,07,26,28,17,13,08,,,,,,,3.3,1.6,2.9*3B
$GPRMC,171145.000,A,3748.7995,N,12217.8594,W,0.91,74.72,220812,,,D*46
$GPVTG,74.72,T,,M,0.91,N,1.7,K,D*30
$GPGGA,171146.000,3748.7995,N,12217.8596,W,2,06,1.6,2.5,M,-25.1,M,14.8,0000*78
$GPGSA,A,3,07,26,28,17,13,08,,,,,,,3.3,1.6,2.9*3B
$GPGSV,3,1,12,28,67,277,34,08,67,021,34,07,42,091,30,26,41,309,35*7C
$GPGSV,3,2,12,17,27,183,30,19,19,043,,11,18,089,23,13,14,155,19*71
$GPRMC,171146.000,A,3748.7995,N,12217.8596,W,0.24,144.50,220812,,,D*7B
$GPVTG,144.50,T,,M,0.24,N,0.4,K,D*0E
$GPGGA,171147.000,3748.7992,N,12217.8606,W,2,06,1.6,3.8,M,-25.1,M,15.8,0000*79
$GPGSA,A,3,07,26,28,17,13,08,,,,,,,3.3,1.6,2.9*3B
$GPRMC,171147.000,A,3748.7992,N,12217.8606,W,0.20,212.56,220812,,,D*75
$GPVTG,212.56,T,,M,0.20,N,0.4,K,D*0C
$GPGGA,171148.000,3748.7992,N,12217.8614,W,2,06,1.6,5.0,M,-25.1,M,16.8,0000*78
$GPGSA,A,3,07,26,28,17,13,08,,,,,,,3.3,1.6,2.9*3B
$GPRMC,171148.000,A,3748.7992,N,12217.8614,W,0.12,216.71,220812,,,D*79
$GPVTG,216.71,T,,M,0.12,N,0.2,K,D*0A
$GPGGA,171149.000,3748.7991,N,12217.8620,W,2,06,1.6,6.5,M,-25.1,M,17.8,0000*7A
$GPGSA,A,3,07,26,28,17,13,08,,,,,,,3.3,1.6,2.9*3B
$GPRMC,171149.000,A,3748.7991,N,12217.8620,W,0.05,27.12,220812,,,D*4F
$GPVTG,27.12,T,,M,0.05,N,0.1,K,D*3A
$GPGGA,171150.000,3748.7990,N,12217.8624,W,1,06,1.6,7.0,M,-25.1,M,,0000*60
$GPGSA,A,3,07,26,28,17,13,08,,,,,,,3.3,1.6,2.9*3B
$GPRMC,171150.000,A,3748.7990,N,12217.8624,W,0.11,161.62,220812,,,A*76
$GPVTG,161.62,T,,M,0.11,N,0.2,K,A*0D
$GPGGA,171151.000,3748.7990,N,12217.8626,W,1,06,1.6,7.5,M,-25.1,M,,0000*66
$GPGSA,A,3,07,26,28,17,13,08,,,,,,,3.3,1.6,2.9*3B
$GPGSV,3,1,12,28,67,278,34,08,67,021,33,07,42,091,30,26,41,309,35*74
$GPGSV,3,2,12,17,27,183,31,19,19,043,29,11,18,089,23,13,14,155,19*7B
$GPGSV,3,3,12,05,13,259,26,01,06,105,23,10,03,210,,24,02,061,*77
$GPRMC,171151.000,A,3748.7990,N,12217.8626,W,0.16,193.23,220812,,,A*7A
$GPVTG,193.23,T,,M,0.16,N,0.3,K,A*03
$GPGGA,171152.000,3748.7993,N,12217.8627,W,1,06,1.6,8.2,M,-25.1,M,,0000*6F
$GPGSA,A,3,07,26,28,17,13,08,,,,,,,3.3,1.6,2.9*3B
$GPRMC,171152.000,A,3748.7993,N,12217.8627,W,0.07,68.15,220812,,,A*4B
$GPVTG,68.15,T,,M,0.07,N,0.1,K,A*31
$GPGGA,171153.000,3748.7994,N,12217.8628,W,1,06,1.6,8.6,M,-25.1,M,,0000*62
$GPGSA,A,3,07,26,28,17,13,08,,,,,,,3.3,1.6,2.9*3B
$GPRMC,171153.000,A,3748.7994,N,12217.8628,W,0.31,2.68,220812,,,A*71
$GPVTG,2.68,T,,M,0.31,N,0.6,K,A*05
$GPGGA,171154.000,3748.7995,N,12217.8630,W,1,06,1.6,9.7,M,-25.1,M,,0000*6D
$GPGSA,A,3,07,26,28,17,13,08,,,,,,,3.3,1.6,2.9*3B
$GPRMC,171154.000,A,3748.7995,N,12217.8630,W,0.31,22.73,220812,,,A*46
$GPVTG,22.73,T,,M,0.31,N,0.6,K,A*3D
$GPGGA,171155.000,3748.7995,N,12217.8632,W,1,06,1.6,9.9,M,-25.1,M,,0000*60
$GPGSA,A,3,07,26,28,17,13,08,,,,,,,3.3,1.6,2.9*3B
$GPRMC,171155.000,A,3748.7995,N,12217.8632,W,0.26,177.81,220812,,,A*7F
$GPVTG,177.81,T,,M,0.26,N,0.5,K,A*04
$GPGGA,171156.000,3748.7995,N,12217.8633,W,1,05,1.6,10.2,M,-25.1,M,,0000*52
$GPGSA,A,3,07,26,28,17,08,,,,,,,,3.8,1.6,3.4*3E
$GPGSV,3,1,12,28,67,278,35,08,67,021,32,07,42,091,30,26,41,309,36*77
$GPGSV,3,2,12,17,27,183,33,19,19,043,29,11,18,089,22,13,14,155,14*75
$GPGSV,3,3,12,05,13,259,26,01,06,105,23,10,03,210,,24,02,061,*77
$GPRMC,171156.000,A,3748.7995,N,12217.8633,W,0.06,210.03,220812,,,A*77
$GPVTG,210.03,T,,M,0.06,N,0.1,K,A*0A
$GPGGA,171157.000,3748.7995,N,12217.8634,W,1,05,1.6,10.5,M,-25.1,M,,0000*53
$GPGSA,A,3,07,26,28,17,08,,,,,,,,3.8,1.6,3.4*3E
$GPRMC,171157.000,A,3748.7995,N,12217.8634,W,0.03,232.62,220812,,,A*73
$GPVTG,232.62,T,,M,0.03,N,0.1,K,A*08
$GPGGA,171158.000,3748.7996,N,12217.8635,W,1,05,1.6,10.8,M,-25.1,M,,0000*53
$GPGSA,A,3,07,26,28,17,08,,,,,,,,3.8,1.6,3.4*3E
$GPRMC,171158.000,A,3748.7996,N,12217.8635,W,0.01,23.35,220812,,,A*4C
$GPVTG,23.35,T,,M,0.01,N,0.0,K,A*3B
$GPGGA,171159.000,3748.7996,N,12217.8636,W,1,05,1.6,11.0,M,-25.1,M,,0000*58
$GPGSA,A,3,07,26,28,17,08,,,,,,,,3.8,1.6,3.4*3E
$GPRMC,171159.000,A,3748.7996,N,12217.8636,W,0.02,240.16,220812,,,A*7B
$GPVTG,240.16,T,,M,0.02,N,0.0,K,A*0E
$GPGGA,171200.000,3748.7997,N,12217.8636,W,1,06,1.6,11.2,M,-25.1,M,,0000*57
$GPGSA,A,3,07,26,28,17,13,08,,,,,,,3.3,1.6,2.9*3B
$GPRMC,171200.000,A,3748.7997,N,12217.8636,W,0.06,172.49,220812,,,A*79
$GPVTG,172.49,T,,M,0.06,N,0.1,K,A*03
$GPGGA,171201.000,3748.7997,N,12217.8637,W,1,06,1.6,11.4,M,-25.1,M,,0000*51
$GPGSA,A,3,07,26,28,17,13,08,,,,,,,3.3,1.6,2.9*3B
$GPGSV,3,1,12,28,67,278,35,08,67,021,32,07,42,091,31,26,41,309,36*76
$GPGSV,3,2,12,17,27,183,32,19,19,043,30,11,18,089,21,13,14,155,18*73
$GPRMC,171201.000,A,3748.7997,N,12217.8637,W,0.24,157.57,220812,,,A*71
$GPVTG,157.57,T,,M,0.24,N,0.4,K,A*0E
$GPGGA,171202.000,3748.7997,N,12217.8638,W,1,06,1.6,11.8,M,-25.1,M,,0000*51
$GPGSA,A,3,07,26,28,17,13,08,,,,,,,3.3,1.6,2.9*3B
$GPRMC,171202.000,A,3748.7997,N,12217.8638,W,0.22,25.51,220812,,,A*49
$GPVTG,25.51,T,,M,0.22,N,0.4,K,A*3A
$GPGGA,171203.000,3748.7998,N,12217.8638,W,1,06,1.6,12.0,M,-25.1,M,,0000*54
$GPGSA,A,3,07,26,28,17,13,08,,,,,,,3.3,1.6,2.9*3B
$GPRMC,171203.000,A,3748.7998,N,12217.8638,W,0.13,165.14,220812,,,A*71
$GPVTG,165.14,T,,M,0.13,N,0.2,K,A*0A
$GPGGA,171204.000,3748.7998,N,12217.8640,W,1,06,1.6,13.6,M,-25.1,M,,0000*5B
$GPGSA,A,3,07,26,28,17,13,08,,,,,,,3.3,1.6,2.9*3B
$GPRMC,171204.000,A,3748.7998,N,12217.8640,W,0.24,285.06,220812,,,A*73
$GPVTG,285.06,T,,M,0.24,N,0.4,K,A*06
$GPGGA,171205.000,3748.7996,N,12217.8646,W,1,06,1.6,14.4,M,-25.1,M,,0000*57
$GPGSA,A,3,07,26,28,17,13,08,,,,,,,3.3,1.6,2.9*3B
$GPRMC,171205.000,A,3748.7996,N,12217.8646,W,0.46,224.45,220812,,,A*72
$GPVTG,224.45,T,,M,0.46,N,0.9,K,A*03
$GPGGA,171206.000,3748.7992,N,12217.8653,W,1,06,1.6,14.8,M,-25.1,M,,0000*58
$GPGSA,A,3,07,26,28,17,13,08,,,,,,,3.3,1.6,2.9*3B
$GPGSV,3,1,12,28,67,278,31,08,67,021,33,07,42,091,25,26,41,309,37*77
$GPGSV,3,2,12,17,27,183,28,19,19,043,30,11,18,089,21,13,14,155,21*72
$GPGSV,3,3,12,05,13,259,27,01,06,105,25,10,03,210,,24,02,061,*70
$GPRMC,171206.000,A,3748.7992,N,12217.8653,W,0.79,214.93,220812,,,A*75
$GPVTG,214.93,T,,M,0.79,N,1.5,K,A*0A
$GPGGA,171207.000,3748.7988,N,12217.8660,W,1,06,1.6,15.3,M,-25.1,M,,0000*58
$GPGSA,A,3,07,26,28,17,13,08,,,,,,,3.3,1.6,2.9*3B
$GPRMC,171207.000,A,3748.7988,N,12217.8660,W,1.15,212.81,220812,,,A*71
$GPVTG,212.81,T,,M,1.15,N,2.1,K,A*03
$GPGGA,171208.000,3748.7983,N,12217.8662,W,1,06,1.6,15.2,M,-25.1,M,,0000*5F
$GPGSA,A,3,07,26,28,17,13,08,,,,,,,3.3,1.6,2.9*3B
$GPRMC,171208.000,A,3748.7983,N,12217.8662,W,2.53,209.47,220812,,,A*76
$GPVTG,209.47,T,,M,2.53,N,4.7,K,A*02
$GPGGA,171209.000,3748.7979,N,12217.8664,W,1,06,1.6,15.3,M,-25.1,M,,0000*5C
$GPGSA,A,3,07,26,28,17,13,08,,,,,,,3.3,1.6,2.9*3B
$GPRMC,171209.000,A,3748.7979,N,12217.8664,W,2.40,217.46,220812,,,A*78
$GPVTG,217.46,T,,M,2.40,N,4.4,K,A*0D
$GPGGA,171210.000,3748.7972,N,12217.8671,W,1,06,1.6,15.7,M,-25.1,M,,0000*5F
$GPGSA,A,3,07,26,28,17,13,08,,,,,,,3.3,1.6,2.9*3B
$GPRMC,171210.000,A,3748.7972,N,12217.8671,W,2.79,210.68,220812,,,A*7E
$GPVTG,210.68,T,,M,2.79,N,5.2,K,A*0B
$GPGGA,171211.000,3748.7966,N,12217.8675,W,1,06,1.6,15.8,M,-25.1,M,,0000*50
$GPGSA,A,3,07,26,28,17,13,08,,,,,,,3.3,1.6,2.9*3B
$GPGSV,3,1,12,28,68,278,31,08,67,022,33,07,42,091,25,26,41,309,37*7B
$GPGSV,3,2,12,17,27,183,28,19,18,043,36,11,18,089,29,13,14,155,21*7D
$GPGSV,3,3,12,05,13,259,23,01,07,105,24,10,03,210,,24,02,061,*74
$GPRMC,171211.000,A,3748.7966,N,12217.8675,W,2.39,217.95,220812,,,A*7F
$GPVTG,217.95,T,,M,2.39,N,4.4,K,A*0D
$GPGGA,171212.000,3748.7961,N,12217.8675,W,1,06,1.6,15.4,M,-25.1,M,,0000*58
$GPGSA,A,3,07,26,28,17,13,08,,,,,,,3.3,1.6,2.9*3B
$GPRMC,171212.000,A,3748.7961,N,12217.8675,W,2.34,208.98,220812,,,A*75
$GPVTG,208.98,T,,M,2.34,N,4.3,K,A*04
$GPGGA,171213.000,3748.7957,N,12217.8677,W,1,06,1.6,15.5,M,-25.1,M,,0000*5F
$GPGSA,A,3,07,26,28,17,13,08,,,,,,,3.3,1.6,2.9*3B
$GPRMC,171213.000,A,3748.7957,N,12217.8677,W,2.37,199.04,220812,,,A*7E
$GPVTG,199.04,T,,M,2.37,N,4.4,K,A*0E
$GPGGA,171214.000,3748.7954,N,12217.8677,W,1,06,1.6,15.7,M,-25.1,M,,0000*59
$GPGSA,A,3,07,26,28,17,13,08,,,,,,,3.3,1.6,2.9*3B
$GPRMC,171214.000,A,3748.7954,N,12217.8677,W,2.73,208.32,220812,,,A*74
$GPVTG,208.32,T,,M,2.73,N,5.1,K,A*04
$GPGGA,171215.000,3748.7954,N,12217.8676,W,1,06,1.6,16.0,M,-25.1,M,,0000*5D
$GPGSA,A,3,07,26,28,17,13,08,,,,,,,3.3,1.6,2.9*3B
$GPRMC,171215.000,A,3748.7954,N,12217.8676,W,2.23,207.81,220812,,,A*76
$GPVTG,207.81,T,,M,2.23,N,4.1,K,A*07
$GPGGA,171216.000,3748.7950,N,12217.8677,W,1,06,1.6,17.1,M,-25.1,M,,0000*5B
$GPGSA,A,3,07,26,28,17,13,08,,,,,,,3.3,1.6,2.9*3B
$GPGSV,3,1,12,28,68,278,31,08,67,022,33,07,42,091,31,26,41,309,37*7E
$GPGSV,3,2,12,17,27,183,27,19,18,043,33,11,18,089,28,13,14,155,24*73
$GPGSV,3,3,12,05,13,259,22,01,07,105,24,10,03,210,,24,02,061,*75
$GPRMC,171216.000,A,3748.7950,N,12217.8677,W,2.35,206.23,220812,,,A*7E
$GPVTG,206.23,T,,M,2.35,N,4.4,K,A*0C
$GPGGA,171217.000,3748.7949,N,12217.8677,W,1,06,1.6,17.4,M,-25.1,M,,0000*57
$GPGSA,A,3,07,26,28,17,13,08,,,,,,,3.3,1.6,2.9*3B
$GPRMC,171217.000,A,3748.7949,N,12217.8677,W,1.52,208.29,220812,,,A*71
$GPVTG,208.29,T,,M,1.52,N,2.8,K,A*00
$GPGGA,171218.000,3748.7946,N,12217.8675,W,1,06,1.6,17.5,M,-25.1,M,,0000*54
$GPGSA,A,3,07,26,28,17,13,08,,,,,,,3.3,1.6,2.9*3B
$GPRMC,171218.000,A,3748.7946,N,12217.8675,W,2.38,197.03,220812,,,A*71
$GPVTG,197.03,T,,M,2.38,N,4.4,K,A*08
$GPGGA,171219.000,3748.7944,N,12217.8673,W,1,06,1.6,18.4,M,-25.1,M,,0000*5F
$GPGSA,A,3,07,26,28,17,13,08,,,,,,,3.3,1.6,2.9*3B
$GPRMC,171219.000,A,3748.7944,N,12217.8673,W,1.65,195.79,220812,,,A*70
$GPVTG,195.79,T,,M,1.65,N,3.1,K,A*0E
$GPGGA,171220.000,3748.7942,N,12217.8671,W,1,03,3.9,17.9,M,-25.1,M,,0000*5B
$GPGSA,A,2,07,28,08,,,,,,,,,,4.1,3.9,1.0*38
$GPRMC,171220.000,A,3748.7942,N,12217.8671,W,1.21,195.17,220812,,,A*76
$GPVTG,195.17,T,,M,1.21,N,2.2,K,N*0B
$GPGGA,171221.000,3748.7944,N,12217.8665,W,1,06,1.6,18.0,M,-25.1,M,,0000*57
$GPGSA,A,3,07,26,28,17,13,08,,,,,,,3.3,1.6,2.9*3B
$GPGSV,3,1,12,28,68,278,24,08,67,022,22,07,42,091,31,26,41,309,17*78
$GPGSV,3,2,12,17,27,183,14,19,18,043,36,11,18,089,30,13,14,155,13*7B
$GPGSV,3,3,12,05,13,259,16,01,07,105,23,10,03,210,,24,02,061,*75
$GPRMC,171221.000,A,3748.7944,N,12217.8665,W,1.27,182.61,220812,,,A*75
$GPGGA,171222.000,3748.7958,N,12217.8662,W,1,06,1.6,16.2,M,-25.1,M,,0000*52
$GPGSA,A,3,07,26,28,17,13,08,,,,,,,3.3,1.6,2.9*3B
$GPRMC,171222.000,A,3748.7958,N,12217.8662,W,0.78,238.97,220812,,,A*7C
$GPVTG,238.97,T,,M,0.78,N,1.4,K,A*00
$GPGGA,171223.000,3748.7956,N,12217.8662,W,1,06,1.6,14.9,M,-25.1,M,,0000*54
$GPGSA,A,3,07,26,28,17,13,08,,,,,,,3.3,1.6,2.9*3B
$GPRMC,171223.000,A,3748.7956,N,12217.8662,W,1.85,223.61,220812,,,A*73
$GPVTG,223.61,T,,M,1.85,N,3.4,K,A*02
$GPGGA,171224.000,3748.7951,N,12217.8665,W,1,06,1.6,15.3,M,-25.1,M,,0000*58
$GPGSA,A,3,07,26,28,17,13,08,,,,,,,3.3,1.6,2.9*3B
$GPRMC,171224.000,A,3748.7951,N,12217.8665,W,2.16,234.18,220812,,,A*75
$GPVTG,234.18,T,,M,2.16,N,4.0,K,A*00
$GPGGA,171225.000,3748.7948,N,12217.8663,W,1,05,1.6,15.6,M,-25.1,M,,0000*51
$GPGSA,A,3,07,26,28,17,08,,,,,,,,3.8,1.6,3.4*3E
$GPRMC,171225.000,A,3748.7948,N,12217.8663,W,1.08,183.00,220812,,,A*70
$GPVTG,183.00,T,,M,1.08,N,2.0,K,A*0C
$GPGGA,171226.000,3748.7936,N,12217.8663,W,1,05,1.6,14.5,M,-25.1,M,,0000*59
$GPGSA,A,3,07,26,28,17,08,,,,,,,,3.8,1.6,3.4*3E
$GPGSV,3,1,12,28,68,278,29,08,67,022,28,07,42,091,26,26,41,309,34*78
$GPGSV,3,2,12,17,27,183,24,19,18,043,20,11,18,089,22,13,14,155,12*7D
$GPGSV,3,3,12,05,13,259,19,01,07,105,18,10,03,210,,24,02,061,*72
$GPRMC,171226.000,A,3748.7936,N,12217.8663,W,0.53,138.24,220812,,,A*73
$GPVTG,138.24,T,,M,0.53,N,1.0,K,A*06
$GPGGA,171227.000,3748.7923,N,12217.8664,W,1,05,1.6,14.8,M,-25.1,M,,0000*56
$GPGSA,A,3,07,26,28,17,08,,,,,,,,3.8,1.6,3.4*3E
$GPRMC,171227.000,A,3748.7923,N,12217.8664,W,0.82,179.09,220812,,,A*77
$GPVTG,179.09,T,,M,0.82,N,1.5,K,A*05
$GPGGA,171228.000,3748.7918,N,12217.8660,W,1,04,3.3,15.3,M,-25.1,M,,0000*59
$GPGSA,A,3,07,26,28,08,,,,,,,,,5.3,3.3,4.1*30
$GPRMC,171228.000,A,3748.7918,N,12217.8660,W,1.00,149.50,220812,,,A*70
$GPVTG,149.50,T,,M,1.00,N,1.9,K,A*0D
$GPGGA,171229.000,3748.7916,N,12217.8661,W,1,04,3.3,15.4,M,-25.1,M,,0000*50
$GPGSA,A,3,07,26,28,08,,,,,,,,,5.3,3.3,4.1*30
$GPRMC,171229.000,A,3748.7916,N,12217.8661,W,0.96,203.25,220812,,,A*7F
$GPVTG,203.25,T,,M,0.96,N,1.8,K,A*0D
$GPGGA,171230.000,3748.7911,N,12217.8667,W,1,04,3.3,14.3,M,-25.1,M,,0000*5F
$GPGSA,A,3,07,26,28,08,,,,,,,,,5.3,3.3,4.1*30
$GPRMC,171230.000,A,3748.7911,N,12217.8667,W,1.70,200.27,220812,,,A*7E
$GPVTG,200.27,T,,M,1.70,N,3.1,K,A*0E
$GPGGA,171231.000,3748.7909,N,12217.8671,W,1,03,4.1,13.6,M,-25.1,M,,0000*50
$GPGSA,A,2,07,26,28,,,,,,,,,,4.2,4.1,1.0*38
$GPGSV,3,1,12,28,68,278,14,08,67,022,,07,42,091,25,26,41,309,22*78
$GPGSV,3,2,12,17,27,183,,19,18,043,17,11,18,089,14,13,14,155,*79
$GPGSV,3,3,12,05,13,259,,01,07,105,,10,03,210,,24,02,061,*73
$GPRMC,171231.000,A,3748.7909,N,12217.8671,W,1.43,184.47,220812,,,A*78
$GPVTG,184.47,T,,M,1.43,N,2.7,K,N*0F
$GPGGA,171232.000,3748.7894,N,12217.8680,W,1,03,4.1,14.7,M,-25.1,M,,0000*5E
$GPGSA,A,2,07,26,28,,,,,,,,,,4.2,4.1,1.0*38
$GPRMC,171232.000,A,3748.7894,N,12217.8680,W,3.13,212.10,220812,,,A*79
$GPVTG,212.10,T,,M,3.13,N,5.8,K,N*0E
$GPGGA,171233.000,3748.7841,N,12217.8706,W,1,04,3.3,14.9,M,-25.1,M,,0000*54
$GPGSA,A,3,07,26,28,08,,,,,,,,,5.3,3.3,4.1*30
$GPRMC,171233.000,A,3748.7841,N,12217.8706,W,8.50,201.99,220812,,,A*70
$GPVTG,201.99,T,,M,8.50,N,15.7,K,A*30
$GPGGA,171234.000,3748.7832,N,12217.8702,W,1,04,3.3,14.0,M,-25.1,M,,0000*5A
$GPGSA,A,3,07,26,28,08,,,,,,,,,5.3,3.3,4.1*30
$GPRMC,171234.000,A,3748.7832,N,12217.8702,W,6.65,197.63,220812,,,A*76
$GPVTG,197.63,T,,M,6.65,N,12.3,K,A*32
$GPGGA,171235.000,3748.7841,N,12217.8694,W,1,04,3.3,14.2,M,-25.1,M,,0000*53
$GPGSA,A,3,07,26,28,08,,,,,,,,,5.3,3.3,4.1*30
$GPRMC,171235.000,A,3748.7841,N,12217.8694,W,3.66,196.64,220812,,,A*7D
$GPVTG,196.64,T,,M,3.66,N,6.8,K,A*0C
$GPGGA,171236.000,3748.7869,N,12217.8677,W,1,04,3.3,15.3,M,-25.1,M,,0000*57
$GPGSA,A,3,07,26,28,08,,,,,,,,,5.3,3.3,4.1*30
$GPGSV,3,1,12,28,68,278,24,08,67,022,26,07,42,091,20,26,41,309,24*7C
$GPGSV,3,2,12,17,27,183,21,19,18,043,16,11,18,089,21,13,14,155,19*75
$GPGSV,3,3,12,05,13,259,,01,07,105,,10,03,210,,24,02,061,*73
$GPRMC,171236.000,A,3748.7869,N,12217.8677,W,0.59,240.83,220812,,,A*77
$GPGGA,171237.000,3748.7890,N,12217.8672,W,1,06,1.6,13.5,M,-25.1,M,,0000*50
$GPGSA,A,3,07,26,28,13,08,17,,,,,,,3.3,1.6,2.9*3B
$GPRMC,171237.000,A,3748.7890,N,12217.8672,W,0.54,295.54,220812,,,A*7A
$GPVTG,295.54,T,,M,0.54,N,1.0,K,A*02
$GPGGA,171238.000,3748.7896,N,12217.8668,W,1,06,1.6,11.9,M,-25.1,M,,0000*5C
$GPGSA,A,3,07,26,28,13,08,17,,,,,,,3.3,1.6,2.9*3B
$GPRMC,171238.000,A,3748.7896,N,12217.8668,W,0.16,233.91,220812,,,A*7B
$GPVTG,233.91,T,,M,0.16,N,0.3,K,A*03
$GPGGA,171239.000,3748.7898,N,12217.8668,W,1,05,1.6,10.6,M,-25.1,M,,0000*5E
$GPGSA,A,3,07,26,28,08,17,,,,,,,,3.8,1.6,3.4*3E
$GPRMC,171239.000,A,3748.7898,N,12217.8668,W,0.32,22.03,220812,,,A*4B
$GPVTG,22.03,T,,M,0.32,N,0.6,K,A*39
$GPGGA,171240.000,3748.7897,N,12217.8663,W,1,05,1.6,9.7,M,-25.1,M,,0000*6D
$GPGSA,A,3,07,26,28,08,17,,,,,,,,3.8,1.6,3.4*3E
$GPRMC,171240.000,A,3748.7897,N,12217.8663,W,0.29,24.09,220812,,,A*47
$GPVTG,24.09,T,,M,0.29,N,0.5,K,A*3C
$GPGGA,171241.000,3748.7899,N,12217.8659,W,1,05,1.6,11.5,M,-25.1,M,,0000*50
$GPGSA,A,3,07,26,28,08,17,,,,,,,,3.8,1.6,3.4*3E
$GPGSV,3,1,12,28,68,278,30,08,67,022,26,07,42,091,23,26,41,309,25*7B
$GPGSV,3,2,12,17,27,183,27,19,18,043,20,11,18,089,17,13,14,155,*7B
$GPGSV,3,3,12,05,13,259,,01,07,105,,10,03,210,,24,02,061,*73
$GPRMC,171241.000,A,3748.7899,N,12217.8659,W,0.50,14.90,220812,,,A*4C
$GPVTG,14.90,T,,M,0.50,N,0.9,K,A*3D
$GPGGA,171242.000,3748.7903,N,12217.8656,W,1,05,1.6,13.5,M,-25.1,M,,0000*5C
$GPGSA,A,3,07,26,28,08,17,,,,,,,,3.8,1.6,3.4*3E
$GPRMC,171242.000,A,3748.7903,N,12217.8656,W,0.48,10.87,220812,,,A*49
$GPVTG,10.87,T,,M,0.48,N,0.9,K,A*36
$GPGGA,171243.000,3748.7902,N,12217.8653,W,1,05,1.6,13.4,M,-25.1,M,,0000*58
$GPGSA,A,3,07,26,28,08,17,,,,,,,,3.8,1.6,3.4*3E
$GPRMC,171243.000,A,3748.7902,N,12217.8653,W,0.16,92.31,220812,,,A*40
$GPVTG,92.31,T,,M,0.16,N,0.3,K,A*30
$GPGGA,171244.000,3748.7900,N,12217.8652,W,1,05,1.6,13.1,M,-25.1,M,,0000*59
$GPGSA,A,3,07,26,28,08,17,,,,,,,,3.8,1.6,3.4*3E
$GPRMC,171244.000,A,3748.7900,N,12217.8652,W,0.55,129.19,220812,,,A*78
$GPVTG,129.19,T,,M,0.55,N,1.0,K,A*0E
$GPGGA,171245.000,3748.7899,N,12217.8651,W,1,05,1.6,11.9,M,-25.1,M,,0000*50
$GPGSA,A,3,07,26,28,08,17,,,,,,,,3.8,1.6,3.4*3E
$GPRMC,171245.000,A,3748.7899,N,12217.8651,W,0.94,85.29,220812,,,A*42
$GPVTG,85.29,T,,M,0.94,N,1.7,K,A*30
$GPGGA,171246.000,3748.7901,N,12217.8652,W,1,05,1.6,12.5,M,-25.1,M,,0000*5F
$GPGSA,A,3,07,26,28,08,17,,,,,,,,3.8,1.6,3.4*3E
$GPGSV,3,1,12,28,68,278,24,08,67,022,26,07,42,091,26,26,41,309,23*7D
$GPGSV,3,2,12,17,27,183,20,19,18,043,18,11,18,089,17,13,14,155,*77
$GPGSV,3,3,12,05,13,259,15,01,07,105,,10,03,210,,24,02,061,*77
$GPRMC,171246.000,A,3748.7901,N,12217.8652,W,0.42,346.65,220812,,,A*7D
$GPVTG,346.65,T,,M,0.42,N,0.8,K,A*01
$GPGGA,171247.000,3748.7904,N,12217.8657,W,1,05,1.6,12.5,M,-25.1,M,,0000*5E
$GPGSA,A,3,07,26,28,08,17,,,,,,,,3.8,1.6,3.4*3E
$GPRMC,171247.000,A,3748.7904,N,12217.8657,W,1.30,322.22,220812,,,A*79
$GPVTG,322.22,T,,M,1.30,N,2.4,K,A*0A
$GPGGA,171248.000,3748.7909,N,12217.8656,W,1,05,1.6,12.7,M,-25.1,M,,0000*5F
$GPGSA,A,3,07,26,28,08,17,,,,,,,,3.8,1.6,3.4*3E
$GPRMC,171248.000,A,3748.7909,N,12217.8656,W,0.51,34.07,220812,,,A*4F
$GPVTG,34.07,T,,M,0.51,N,1.0,K,A*38
$GPGGA,171249.000,3748.7910,N,12217.8648,W,1,05,1.6,12.0,M,-25.1,M,,0000*5E
$GPGSA,A,3,07,26,28,08,17,,,,,,,,3.8,1.6,3.4*3E
$GPRMC,171249.000,A,3748.7910,N,12217.8648,W,1.50,113.60,220812,,,A*7C
$GPVTG,113.60,T,,M,1.50,N,2.8,K,A*06
$GPGGA,171250.000,3748.7904,N,12217.8642,W,1,05,1.6,11.5,M,-25.1,M,,0000*5F
$GPGSA,A,3,07,26,28,08,17,,,,,,,,3.8,1.6,3.4*3E
$GPRMC,171250.000,A,3748.7904,N,12217.8642,W,1.83,156.63,220812,,,A*77
$GPVTG,156.63,T,,M,1.83,N,3.4,K,A*07
$GPGGA,171251.000,3748.7905,N,12217.8645,W,1,04,2.7,10.7,M,-25.1,M,,0000*58
$GPGSA,A,3,26,28,08,17,,,,,,,,,4.8,2.7,4.0*3F
$GPGSV,3,1,12,28,68,278,23,08,67,022,21,07,42,091,17,26,41,309,21*7D
$GPGSV,3,2,12,17,27,183,18,19,18,043,17,11,18,089,15,13,14,155,*71
$GPGSV,3,3,12,05,13,259,14,01,07,105,,10,03,210,,24,02,061,*76
$GPRMC,171251.000,A,3748.7905,N,12217.8645,W,0.26,169.60,220812,,,A*71
$GPGGA,171252.000,3748.7906,N,12217.8644,W,1,03,3.8,10.4,M,-25.1,M,,0000*53
$GPGSA,A,2,26,28,08,,,,,,,,,,4.0,3.8,1.0*3B
$GPRMC,171252.000,A,3748.7906,N,12217.8644,W,0.91,64.64,220812,,,A*44
$GPVTG,64.64,T,,M,0.91,N,1.7,K,A*33
$GPGGA,171253.000,3748.7911,N,12217.8649,W,1,04,1.7,11.9,M,-25.1,M,,0000*5F
$GPGSA,A,3,07,28,08,17,,,,,,,,,2.0,1.7,1.0*34
$GPRMC,171253.000,A,3748.7911,N,12217.8649,W,1.21,15.54,220812,,,A*41
$GPVTG,15.54,T,,M,1.21,N,2.3,K,A*3B
$GPGGA,171254.000,3748.7910,N,12217.8652,W,1,04,1.7,11.1,M,-25.1,M,,0000*5B
$GPGSA,A,3,07,28,08,17,,,,,,,,,2.0,1.7,1.0*34
$GPRMC,171254.000,A,3748.7910,N,12217.8652,W,1.14,6.95,220812,,,A*74
$GPVTG,6.95,T,,M,1.14,N,2.1,K,A*00
$GPGGA,171255.000,3748.7911,N,12217.8657,W,1,04,1.7,10.6,M,-25.1,M,,0000*58
$GPGSA,A,3,07,28,08,17,,,,,,,,,2.0,1.7,1.0*34
$GPRMC,171255.000,A,3748.7911,N,12217.8657,W,1.58,308.97,220812,,,A*76
$GPVTG,308.97,T,,M,1.58,N,2.9,K,A*0F
$GPGGA,171256.000,3748.7914,N,12217.8661,W,1,04,1.7,9.8,M,-25.1,M,,0000*6D
$GPGSA,A,3,07,28,08,17,,,,,,,,,2.0,1.7,1.0*34
$GPGSV,3,1,12,28,68,278,19,08,67,022,13,07,42,091,15,26,41,309,*74
$GPGSV,3,2,12,17,27,183,15,19,18,043,,11,18,089,,13,14,155,*7E
$GPGSV,3,3,12,05,13,259,,01,07,105,,10,03,210,,24,02,061,*73
$GPRMC,171256.000,A,3748.7914,N,12217.8661,W,2.41,310.44,220812,,,A*79
$GPVTG,310.44,T,,M,2.41,N,4.5,K,A*09
$GPGGA,171257.000,3748.7913,N,12217.8674,W,1,04,1.7,10.3,M,-25.1,M,,0000*5C
$GPGSA,A,3,07,28,08,17,,,,,,,,,2.0,1.7,1.0*34
$GPRMC,171257.000,A,3748.7913,N,12217.8674,W,1.66,323.65,220812,,,A*7E
$GPVTG,323.65,T,,M,1.66,N,3.1,K,A*0F
$GPGGA,171258.000,3748.7919,N,12217.8677,W,1,03,1.9,10.5,M,-25.1,M,,0000*55
$GPGSA,A,2,07,28,17,,,,,,,,,,2.2,1.9,1.0*31
$GPRMC,171258.000,A,3748.7919,N,12217.8677,W,2.19,348.51,220812,,,A*79
$GPVTG,348.51,T,,M,2.19,N,4.1,K,N*06
$GPGGA,171259.000,3748.7926,N,12217.8686,W,1,03,1.9,10.9,M,-25.1,M,,0000*5A
$GPGSA,A,2,07,28,17,,,,,,,,,,2.2,1.9,1.0*31
$GPRMC,171259.000,A,3748.7926,N,12217.8686,W,2.79,354.53,220812,,,A*73
$GPVTG,354.53,T,,M,2.79,N,5.2,K,N*0D
$GPGGA,171300.000,3748.7935,N,12217.8702,W,1,03,1.9,11.4,M,-25.1,M,,0000*54
$GPGSA,A,2,07,28,17,,,,,,,,,,2.2,1.9,1.0*31
$GPRMC,171300.000,A,3748.7935,N,12217.8702,W,3.39,353.78,220812,,,A*7A
$GPVTG,353.78,T,,M,3.39,N,6.3,K,N*04
$GPGGA,171301.000,3748.7947,N,12217.8706,W,1,03,1.9,11.6,M,-25.1,M,,0000*56
$GPGSA,A,2,07,28,17,,,,,,,,,,2.2,1.9,1.0*31
$GPGSV,3,1,12,28,68,278,18,08,67,022,,07,42,091,14,26,41,309,*76
$GPGSV,3,2,12,17,27,183,14,19,18,043,,11,18,089,,13,14,155,*7F
$GPGSV,3,3,12,05,13,259,,01,07,105,,10,03,210,,24,02,061,*73
$GPVTG,3.72,T,,M,4.04,N,7.5,K,N*06
$GPGGA,171302.000,3748.7955,N,12217.8689,W,1,03,1.9,11.6,M,-25.1,M,,0000*50
$GPGSA,A,2,07,28,17,,,,,,,,,,2.2,1.9,1.0*31
$GPRMC,171302.000,A,3748.7955,N,12217.8689,W,3.90,29.11,220812,,,A*4E
$GPVTG,29.11,T,,M,3.90,N,7.2,K,N*36
$GPGGA,171303.000,3748.7965,N,12217.8683,W,6,00,50.0,11.5,M,-25.1,M,,0000*62
$GPGSA,A,2,,,,,,,,,,,,,50.0,50.0,50.0*06
$GPRMC,171303.000,A,3748.7965,N,12217.8683,W,3.90,29.11,220812,,,E*42
$GPVTG,29.11,T,,M,3.90,N,7.2,K,N*36
$GPGGA,171304.000,3748.7974,N,12217.8676,W,6,00,50.0,11.5,M,-25.1,M,,0000*6F
$GPGSA,A,2,,,,,,,,,,,,,50.0,50.0,50.0*06
$GPRMC,171304.000,A,3748.7974,N,12217.8676,W,3.90,29.11,220812,,,E*4F
$GPVTG,29.11,T,,M,3.90,N,7.2,K,N*36
$GPGGA,171305.000,3748.7984,N,12217.8670,W,6,00,50.0,11.5,M,-25.1,M,,0000*67
$GPGSA,A,2,,,,,,,,,,,,,50.0,50.0,50.0*06
$GPRMC,171305.000,A,3748.7984,N,12217.8670,W,3.90,29.11,220812,,,E*47
$GPVTG,29.11,T,,M,3.90,N,7.2,K,N*36
$GPGGA,171306.000,3748.7993,N,12217.8663,W,6,00,50.0,11.5,M,-25.1,M,,0000*60
$GPGSA,A,2,,,,,,,,,,,,,50.0,50.0,50.0*06
$GPGSV,3,1,12,28,68,278,19,08,67,022,,07,42,091,,26,41,309,*72
$GPGSV,3,2,12,17,27,183,14,19,18,043,,11,18,089,,13,14,155,*7F
$GPGSV,3,3,12,05,13,259,,01,07,105,,10,03,210,,24,02,061,*73
$GPRMC,171306.000,A,3748.7993,N,12217.8663,W,3.90,29.11,220812,,,E*40
$GPVTG,29.11,T,,M,3.90,N,7.2,K,N*36
$GPGGA,171307.000,3748.8002,N,12217.8656,W,6,00,50.0,11.5,M,-25.1,M,,0000*69
$GPGSA,A,2,,,,,,,,,,,,,50.0,50.0,50.0*06
$GPRMC,171307.000,A,3748.8002,N,12217.8656,W,3.90,29.11,220812,,,E*49
$GPVTG,29.11,T,,M,3.90,N,7.2,K,N*36
$GPGGA,171308.000,3748.8009,N,12217.8725,W,1,03,3.9,9.8,M,-25.1,M,,0000*67
$GPGSA,A,2,26,08,28,,,,,,,,,,4.0,3.9,1.0*3A
$GPRMC,171308.000,A,3748.8009,N,12217.8725,W,3.93,309.05,220812,,,A*7B
$GPVTG,309.05,T,,M,3.93,N,7.3,K,N*00
$GPGGA,171309.000,3748.8003,N,12217.8730,W,1,03,3.9,11.5,M,-25.1,M,,0000*5C
$GPGSA,A,2,26,08,28,,,,,,,,,,4.0,3.9,1.0*3A
$GPRMC,171309.000,A,3748.8003,N,12217.8730,W,5.35,302.80,220812,,,A*78
$GPVTG,302.80,T,,M,5.35,N,9.9,K,N*08
$GPGGA,171310.000,3748.8004,N,12217.8744,W,1,03,3.9,12.0,M,-25.1,M,,0000*56
$GPGSA,A,2,26,08,28,,,,,,,,,,4.0,3.9,1.0*3A
$GPRMC,171310.000,A,3748.8004,N,12217.8744,W,5.53,300.97,220812,,,A*70
$GPVTG,300.97,T,,M,5.53,N,10.2,K,N*3F
$GPGGA,171311.000,3748.7994,N,12217.8746,W,1,03,3.9,13.1,M,-25.1,M,,0000*5A
$GPGSA,A,2,26,08,28,,,,,,,,,,4.0,3.9,1.0*3A
$GPGSV,3,1,12,28,68,278,19,08,67,022,15,07,42,091,,26,41,309,17*70
$GPGSV,3,2,12,17,27,183,,19,18,043,,11,18,089,,13,14,155,*7A
$GPGSV,3,3,12,05,13,259,,01,07,105,,10,03,210,,24,02,061,*73
$GPRMC,171311.000,A,3748.7994,N,12217.8746,W,4.50,303.64,220812,,,A*71
$GPVTG,303.64,T,,M,4.50,N,8.3,K,N*0A
$GPGGA,171312.000,3748.7998,N,12217.8745,W,1,03,3.9,13.6,M,-25.1,M,,0000*51
$GPGSA,A,2,26,08,28,,,,,,,,,,4.0,3.9,1.0*3A
$GPRMC,171312.000,A,3748.7998,N,12217.8745,W,4.37,309.99,220812,,,A*74
$GPVTG,309.99,T,,M,4.37,N,8.1,K,N*01
$GPGGA,171313.000,3748.7988,N,12217.8746,W,1,03,3.9,13.7,M,-25.1,M,,0000*53
$GPGSA,A,2,26,08,28,,,,,,,,,,4.0,3.9,1.0*3A
$GPRMC,171313.000,A,3748.7988,N,12217.8746,W,2.80,289.81,220812,,,A*7D
$GPVTG,289.81,T,,M,2.80,N,5.2,K,N*05
$GPGGA,171314.000,3748.7991,N,12217.8755,W,6,00,50.0,13.8,M,-25.1,M,,0000*6A
$GPGSA,A,2,,,,,,,,,,,,,50.0,50.0,50.0*06
$GPRMC,171314.000,A,3748.7991,N,12217.8755,W,2.80,289.81,220812,,,E*74
$GPVTG,289.81,T,,M,2.80,N,5.2,K,N*05
$GPGGA,171315.000,3748.7993,N,12217.8764,W,6,00,50.0,13.8,M,-25.1,M,,0000*6B
$GPGSA,A,2,,,,,,,,,,,,,50.0,50.0,50.0*06
$GPRMC,171315.000,A,3748.7993,N,12217.8764,W,2.80,289.81,220812,,,E*75
$GPVTG,289.81,T,,M,2.80,N,5.2,K,N*05
$GPGGA,171316.000,3748.7996,N,12217.8773,W,6,00,50.0,13.8,M,-25.1,M,,0000*6B
$GPGSA,A,2,,,,,,,,,,,,,50.0,50.0,50.0*06
$GPGSV,3,1,12,28,68,278,,08,67,022,,07,42,091,,26,41,309,21*79
$GPGSV,3,2,12,17,27,183,,19,18,043,,11,18,089,,13,14,155,*7A
$GPGSV,3,3,12,05,13,259,,01,07,105,,10,03,210,,24,02,061,*73
$GPRMC,171316.000,A,3748.7996,N,12217.8773,W,2.80,289.81,220812,,,E*75
$GPVTG,289.81,T,,M,2.80,N,5.2,K,N*05
$GPGGA,171317.000,3748.7999,N,12217.8783,W,6,00,50.0,13.8,M,-25.1,M,,0000*6A
$GPGSA,A,2,,,,,,,,,,,,,50.0,50.0,50.0*06
$GPRMC,171317.000,A,3748.7999,N,12217.8783,W,2.80,289.81,220812,,,E*74
$GPVTG,289.81,T,,M,2.80,N,5.2,K,N*05
$GPGGA,171318.000,3748.8001,N,12217.8792,W,6,00,50.0,13.8,M,-25.1,M,,0000*62
$GPGSA,A,2,,,,,,,,,,,,,50.0,50.0,50.0*06
$GPRMC,171318.000,A,3748.8001,N,12217.8792,W,2.80,289.81,220812,,,E*7C
$GPVTG,289.81,T,,M,2.80,N,5.2,K,N*05
$GPGGA,171319.000,3748.8004,N,12217.8801,W,6,00,50.0,13.9,M,-25.1,M,,0000*62
$GPGSA,A,2,,,,,,,,,,,,,50.0,50.0,50.0*06
$GPRMC,171319.000,A,3748.8004,N,12217.8801,W,2.80,289.81,220812,,,E*7D
$GPVTG,289.81,T,,M,2.80,N,5.2,K,N*05
$GPGGA,171320.000,3748.8007,N,12217.8810,W,6,00,50.0,13.9,M,-25.1,M,,0000*6B
$GPGSA,A,2,,,,,,,,,,,,,50.0,50.0,50.0*06
$GPRMC,171320.000,A,3748.8007,N,12217.8810,W,2.80,289.81,220812,,,E*74
$GPVTG,289.81,T,,M,2.80,N,5.2,K,N*05
$GPGGA,171321.000,3748.8009,N,12217.8820,W,6,00,50.0,13.9,M,-25.1,M,,0000*67
$GPGSA,A,2,,,,,,,,,,,,,50.0,50.0,50.0*06
$GPGSV,3,1,12,28,68,278,,08,67,022,,07,42,091,13,26,41,309,20*7A
$GPGSV,3,2,12,17,27,183,,19,18,043,,11,18,089,,13,14,155,*7A
$GPGSV,3,3,12,05,13,259,,01,07,105,,10,03,210,,24,02,061,*73
$GPRMC,171321.000,A,3748.8009,N,12217.8820,W,2.80,289.81,220812,,,E*78
$GPVTG,289.81,T,,M,2.80,N,5.2,K,N*05
$GPGGA,171322.000,3748.8012,N,12217.8829,W,6,00,50.0,13.9,M,-25.1,M,,0000*67
$GPGSA,A,2,,,,,,,,,,,,,50.0,50.0,50.0*06
$GPRMC,171322.000,A,3748.8012,N,12217.8829,W,2.80,289.81,220812,,,E*78
$GPVTG,289.81,T,,M,2.80,N,5.2,K,N*05
$GPGGA,171323.000,3748.8014,N,12217.8838,W,6,00,50.0,13.9,M,-25.1,M,,0000*60
$GPGSA,A,2,,,,,,,,,,,,,50.0,50.0,50.0*06
$GPRMC,171323.000,A,3748.8014,N,12217.8838,W,2.80,289.81,220812,,,E*7F
$GPVTG,289.81,T,,M,2.80,N,5.2,K,N*05
$GPGGA,171324.000,3748.8017,N,12217.8847,W,6,00,50.0,13.9,M,-25.1,M,,0000*6C
$GPGSA,A,2,,,,,,,,,,,,,50.0,50.0,50.0*06
$GPRMC,171324.000,A,3748.8017,N,12217.8847,W,2.80,289.81,220812,,,E*73
$GPVTG,289.81,T,,M,2.80,N,5.2,K,N*05
$GPGGA,171325.000,3748.8020,N,12217.8856,W,6,00,50.0,14.0,M,-25.1,M,,0000*67
$GPGSA,A,2,,,,,,,,,,,,,50.0,50.0,50.0*06
$GPRMC,171325.000,A,3748.8020,N,12217.8856,W,2.80,289.81,220812,,,E*76
$GPVTG,289.81,T,,M,2.80,N,5.2,K,N*05
$GPGGA,171326.000,3748.8022,N,12217.8866,W,6,00,50.0,14.0,M,-25.1,M,,0000*65
$GPGSA,A,2,,,,,,,,,,,,,50.0,50.0,50.0*06
$GPGSV,3,1,12,28,68,278,,08,67,022,23,07,42,091,12,26,41,309,19*70
$GPGSV,3,2,12,17,27,183,,19,18,043,,11,18,089,,13,14,155,*7A
$GPGSV,3,3,12,05,13,259,,01,07,105,,10,03,210,,24,02,061,*73
$GPVTG,289.81,T,,M,2.80,N,5.2,K,N*05
$GPGGA,171327.000,3748.8025,N,12217.8875,W,6,00,50.0,14.0,M,-25.1,M,,0000*61
$GPGSA,A,2,,,,,,,,,,,,,50.0,50.0,50.0*06
$GPRMC,171327.000,A,3748.8025,N,12217.8875,W,2.80,289.81,220812,,,E*70
$GPVTG,289.81,T,,M,2.80,N,5.2,K,N*05
$GPGGA,171329.000,3748.7792,N,12217.8747,W,1,03,2.3,10.9,M,-25.1,M,,0000*58
$GPGSA,A,2,26,08,17,,,,,,,,,,2.5,2.3,1.0*3E
$GPRMC,171329.000,A,3748.7792,N,12217.8747,W,1.60,103.52,220812,,,A*72
$GPVTG,103.52,T,,M,1.60,N,3.0,K,N*03
$GPGGA,171330.000,3748.7774,N,12217.8759,W,1,04,2.7,12.4,M,-25.1,M,,0000*5B
$GPGSA,A,3,26,08,17,28,,,,,,,,,4.8,2.7,4.0*3F
$GPRMC,171330.000,A,3748.7774,N,12217.8759,W,1.49,117.40,220812,,,A*70
$GPVTG,117.40,T,,M,1.49,N,2.8,K,A*08
$GPGGA,171331.000,3748.7778,N,12217.8742,W,1,04,2.7,7.4,M,-25.1,M,,0000*68
$GPGSA,A,3,26,08,17,28,,,,,,,,,4.8,2.7,4.0*3F
$GPGSV,3,1,12,28,68,278,19,08,67,022,22,07,42,091,,26,41,309,19*7A
$GPGSV,3,2,12,17,27,183,17,19,18,043,,11,18,089,,13,14,155,*7C
$GPGSV,3,3,12,05,13,259,,01,07,105,,10,03,210,,24,02,061,*73
$GPVTG,91.69,T,,M,0.56,N,1.0,K,A*38
$GPGGA,171332.000,3748.7801,N,12217.8702,W,1,04,2.7,1.1,M,-25.1,M,,0000*6D
$GPGSA,A,3,26,08,17,28,,,,,,,,,4.8,2.7,4.0*3F
$GPRMC,171332.000,A,3748.7801,N,12217.8702,W,2.31,38.77,220812,,,A*45
$GPVTG,38.77,T,,M,2.31,N,4.3,K,A*31
$GPGGA,171333.000,3748.7818,N,12217.8679,W,1,04,2.7,-1.1,M,-25.1,M,,0000*44
$GPGSA,A,3,26,08,17,28,,,,,,,,,4.8,2.7,4.0*3F
$GPRMC,171333.000,A,3748.7818,N,12217.8679,W,3.21,33.10,220812,,,A*4B
$GPVTG,33.10,T,,M,3.21,N,5.9,K,A*30
$GPGGA,171334.000,3748.7841,N,12217.8667,W,1,04,2.7,-6.2,M,-25.1,M,,0000*44
$GPGSA,A,3,26,08,17,28,,,,,,,,,4.8,2.7,4.0*3F
$GPRMC,171334.000,A,3748.7841,N,12217.8667,W,3.77,25.09,220812,,,A*43
$GPVTG,25.09,T,,M,3.77,N,7.0,K,A*37
$GPGGA,171335.000,3748.7851,N,12217.8656,W,1,04,2.7,-2.4,M,-25.1,M,,0000*44
$GPGSA,A,3,26,08,17,28,,,,,,,,,4.8,2.7,4.0*3F
$GPRMC,171335.000,A,3748.7851,N,12217.8656,W,4.22,14.09,220812,,,A*44
$GPVTG,14.09,T,,M,4.22,N,7.8,K,A*3A
$GPGGA,171336.000,3748.7863,N,12217.8658,W,1,04,2.7,-0.2,M,-25.1,M,,0000*4C
$GPGSA,A,3,26,08,17,28,,,,,,,,,4.8,2.7,4.0*3F
$GPGSV,3,1,12,28,68,278,20,08,67,022,21,07,42,091,,26,41,309,19*73
$GPGSV,3,2,12,17,27,183,15,19,18,043,,11,18,089,,13,14,155,*7E
$GPGSV,3,3,12,05,13,259,,01,07,105,,10,03,210,,24,02,061,*73
$GPRMC,171336.000,A,3748.7863,N,12217.8658,W,4.23,4.75,220812,,,A*73
$GPVTG,4.75,T,,M,4.23,N,7.8,K,A*01
$GPGGA,171337.000,3748.7859,N,12217.8666,W,1,03,3.9,6.0,M,-25.1,M,,0000*68
$GPGSA,A,2,26,08,28,,,,,,,,,,4.0,3.9,1.0*3A
$GPRMC,171337.000,A,3748.7859,N,12217.8666,W,3.32,11.35,220812,,,A*41
$GPVTG,11.35,T,,M,3.32,N,6.1,K,N*31
$GPGGA,171338.000,3748.7864,N,12217.8689,W,1,03,3.9,7.0,M,-25.1,M,,0000*69
$GPGSA,A,2,26,08,28,,,,,,,,,,4.0,3.9,1.0*3A
$GPRMC,171338.000,A,3748.7864,N,12217.8689,W,3.58,345.95,220812,,,A*75
$GPVTG,345.95,T,,M,3.58,N,6.6,K,N*02
$GPGGA,171339.000,3748.7883,N,12217.8699,W,1,03,3.9,4.7,M,-25.1,M,,0000*64
$GPGSA,A,2,26,08,28,,,,,,,,,,4.0,3.9,1.0*3A
$GPRMC,171339.000,A,3748.7883,N,12217.8699,W,4.77,350.61,220812,,,A*79
$GPVTG,350.61,T,,M,4.77,N,8.8,K,N*07
$GPGGA,171340.000,3748.7896,N,12217.8702,W,6,00,50.0,4.7,M,-25.1,M,,0000*56
$GPGSA,A,2,,,,,,,,,,,,,50.0,50.0,50.0*06
$GPRMC,171340.000,A,3748.7896,N,12217.8702,W,4.77,350.61,220812,,,E*74
$GPVTG,350.61,T,,M,4.77,N,8.8,K,N*07
$GPGGA,171341.000,3748.7909,N,12217.8705,W,6,00,50.0,4.7,M,-25.1,M,,0000*57
$GPGSA,A,2,,,,,,,,,,,,,50.0,50.0,50.0*06
$GPGSV,3,1,12,28,68,278,20,08,67,022,21,07,42,091,,26,41,309,18*72
$GPGSV,3,2,12,17,27,183,,19,18,043,,11,18,089,,13,14,155,*7A
$GPGSV,3,3,12,05,13,259,,01,07,105,,10,03,210,,24,02,061,*73
$GPRMC,171341.000,A,3748.7909,N,12217.8705,W,4.77,350.61,220812,,,E*75
$GPVTG,350.61,T,,M,4.77,N,8.8,K,N*07
$GPGGA,171342.000,3748.7922,N,12217.8707,W,6,00,50.0,4.8,M,-25.1,M,,0000*50
$GPGSA,A,2,,,,,,,,,,,,,50.0,50.0,50.0*06
$GPRMC,171342.000,A,3748.7922,N,12217.8707,W,4.77,350.61,220812,,,E*7D
$GPVTG,350.61,T,,M,4.77,N,8.8,K,N*07
$GPGGA,171343.000,3748.7932,N,12217.8735,W,1,03,3.9,4.1,M,-25.1,M,,0000*63
$GPGSA,A,2,26,08,28,,,,,,,,,,4.0,3.9,1.0*3A
$GPRMC,171343.000,A,3748.7932,N,12217.8735,W,3.64,343.67,220812,,,A*79
$GPVTG,343.67,T,,M,3.64,N,6.7,K,N*07
$GPGGA,171344.000,3748.7898,N,12217.8741,W,1,03,2.7,1.2,M,-25.1,M,,0000*6F
$GPGSA,A,2,08,13,28,,,,,,,,,,2.9,2.7,1.0*3C
$GPRMC,171344.000,A,3748.7898,N,12217.8741,W,0.56,64.85,220812,,,A*44
$GPVTG,64.85,T,,M,0.56,N,1.0,K,A*30
$GPGGA,171345.000,3748.7849,N,12217.8730,W,1,05,2.1,2.1,M,-25.1,M,,0000*64
$GPGSA,A,3,26,08,13,28,17,,,,,,,,3.6,2.1,2.9*3D
$GPRMC,171345.000,A,3748.7849,N,12217.8730,W,0.69,51.46,220812,,,A*4A
$GPVTG,51.46,T,,M,0.69,N,1.3,K,A*36
$GPGGA,171346.000,3748.7835,N,12217.8728,W,1,05,2.1,3.3,M,-25.1,M,,0000*66
$GPGSA,A,3,26,08,13,28,17,,,,,,,,3.6,2.1,2.9*3D
$GPGSV,3,1,12,28,68,278,19,08,67,022,21,07,42,091,,26,41,309,19*79
$GPGSV,3,2,12,17,27,183,23,19,18,043,,11,18,089,,13,14,155,13*79
$GPGSV,3,3,12,05,13,259,,01,07,105,,10,03,210,,24,02,061,*73
$GPRMC,171346.000,A,3748.7835,N,12217.8728,W,0.79,56.03,220812,,,A*4C
$GPGGA,171347.000,3748.7813,N,12217.8727,W,1,04,2.7,7.9,M,-25.1,M,,0000*65
$GPGSA,A,3,26,08,28,17,,,,,,,,,4.9,2.7,4.1*3F
$GPRMC,171347.000,A,3748.7813,N,12217.8727,W,1.16,90.67,220812,,,A*46
$GPVTG,90.67,T,,M,1.16,N,2.1,K,A*30
$GPGGA,171348.000,3748.7817,N,12217.8708,W,1,04,2.7,8.3,M,-25.1,M,,0000*66
$GPGSA,A,3,26,08,28,17,,,,,,,,,4.9,2.7,4.1*3F
$GPRMC,171348.000,A,3748.7817,N,12217.8708,W,0.77,101.50,220812,,,A*7B
$GPVTG,101.50,T,,M,0.77,N,1.4,K,A*0D
$GPGGA,171349.000,3748.7815,N,12217.8701,W,1,04,2.7,7.1,M,-25.1,M,,0000*61
$GPGSA,A,3,26,08,28,17,,,,,,,,,4.9,2.7,4.1*3F
$GPRMC,171349.000,A,3748.7815,N,12217.8701,W,0.22,188.73,220812,,,A*71
$GPVTG,188.73,T,,M,0.22,N,0.4,K,A*0C
$GPGGA,171350.000,3748.7819,N,12217.8695,W,1,03,3.9,6.0,M,-25.1,M,,0000*61
$GPGSA,A,2,26,08,28,,,,,,,,,,4.0,3.9,1.0*3A
$GPRMC,171350.000,A,3748.7819,N,12217.8695,W,0.85,305.23,220812,,,A*76
$GPVTG,305.23,T,,M,0.85,N,1.6,K,N*0F
$GPGGA,171351.000,3748.7825,N,12217.8684,W,1,03,3.9,4.4,M,-25.1,M,,0000*69
$GPGSA,A,2,26,08,28,,,,,,,,,,4.0,3.9,1.0*3A
$GPGSV,3,1,12,28,68,278,20,08,67,022,20,07,42,091,,26,41,309,24*7C
$GPGSV,3,2,12,17,27,183,07,19,18,043,,11,18,089,,13,14,155,*7D
$GPGSV,3,3,12,05,13,259,,01,07,105,,10,03,210,,24,02,061,*73
$GPRMC,171351.000,A,3748.7825,N,12217.8684,W,0.58,289.23,220812,,,A*7D
$GPVTG,289.23,T,,M,0.58,N,1.1,K,N*0D
$GPGGA,171352.000,3748.7834,N,12217.8671,W,1,03,3.9,2.7,M,-25.1,M,,0000*65
$GPGSA,A,2,26,08,28,,,,,,,,,,4.0,3.9,1.0*3A
$GPRMC,171352.000,A,3748.7834,N,12217.8671,W,0.77,345.81,220812,,,A*70
$GPVTG,345.81,T,,M,0.77,N,1.4,K,N*0C
$GPGGA,171353.000,3748.7836,N,12217.8672,W,6,00,50.0,2.6,M,-25.1,M,,0000*5F
$GPGSA,A,2,,,,,,,,,,,,,50.0,50.0,50.0*06
$GPRMC,171353.000,A,3748.7836,N,12217.8672,W,0.77,345.81,220812,,,E*74
$GPVTG,345.81,T,,M,0.77,N,1.4,K,N*0C
$GPGGA,171354.000,3748.7874,N,12217.8688,W,1,04,2.7,3.7,M,-25.1,M,,0000*68
$GPGSA,A,3,26,08,28,17,,,,,,,,,4.9,2.7,4.1*3F
$GPRMC,171354.000,A,3748.7874,N,12217.8688,W,4.20,338.37,220812,,,A*75
$GPVTG,338.37,T,,M,4.20,N,7.8,K,A*08
$GPGGA,171355.000,3748.7887,N,12217.8704,W,1,04,2.7,4.1,M,-25.1,M,,0000*61
$GPGSA,A,3,26,08,28,17,,,,,,,,,4.9,2.7,4.1*3F
$GPRMC,171355.000,A,3748.7887,N,12217.8704,W,2.87,329.04,220812,,,A*76
$GPVTG,329.04,T,,M,2.87,N,5.3,K,A*0A
$GPGGA,171356.000,3748.7876,N,12217.8719,W,1,04,2.7,5.9,M,-25.1,M,,0000*69
$GPGSA,A,3,26,08,28,17,,,,,,,,,4.9,2.7,4.1*3F
$GPGSV,3,1,12,28,68,278,20,08,67,022,18,07,42,091,16,26,41,309,23*77
$GPGSV,3,2,12,17,27,183,23,19,18,043,,11,18,089,,13,14,155,*7B
$GPGSV,3,3,12,05,13,259,,01,07,105,,10,03,210,,24,02,061,*73
$GPVTG,243.02,T,,M,1.25,N,2.3,K,A*0D
$GPGGA,171357.000,3748.7871,N,12217.8744,W,1,04,2.7,9.7,M,-25.1,M,,0000*65
$GPGSA,A,3,26,08,28,17,,,,,,,,,4.9,2.7,4.1*3F
$GPRMC,171357.000,A,3748.7871,N,12217.8744,W,1.52,236.22,220812,,,A*79
$GPVTG,236.22,T,,M,1.52,N,2.8,K,A*06
$GPGGA,171358.000,3748.7872,N,12217.8745,W,1,04,2.7,9.6,M,-25.1,M,,0000*69
$GPGSA,A,3,26,08,28,17,,,,,,,,,4.9,2.7,4.1*3F
$GPRMC,171358.000,A,3748.7872,N,12217.8745,W,1.42,247.47,220812,,,A*70
$GPVTG,247.47,T,,M,1.42,N,2.6,K,A*0C
$GPGGA,171359.000,3748.7866,N,12217.8743,W,1,04,2.7,10.0,M,-25.1,M,,0000*55
$GPGSA,A,3,26,08,28,17,,,,,,,,,4.9,2.7,4.1*3F
$GPRMC,171359.000,A,3748.7866,N,12217.8743,W,0.73,222.87,220812,,,A*7E
$GPVTG,222.87,T,,M,0.73,N,1.4,K,A*01
$GPGGA,171400.000,3748.7862,N,12217.8731,W,1,04,2.7,8.6,M,-25.1,M,,0000*60
$GPGSA,A,3,26,08,28,17,,,,,,,,,4.9,2.7,4.1*3F
$GPRMC,171400.000,A,3748.7862,N,12217.8731,W,0.17,20.91,220812,,,A*41
$GPVTG,20.91,T,,M,0.17,N,0.3,K,A*32
$GPGGA,171401.000,3748.7868,N,12217.8713,W,1,03,4.0,5.9,M,-25.1,M,,0000*6F
$GPGSA,A,2,08,28,07,,,,,,,,,,4.1,4.0,1.0*36
$GPGSV,3,1,12,28,68,278,21,08,67,022,19,07,42,091,17,26,41,309,17*71
$GPGSV,3,2,12,17,27,183,18,19,18,043,,11,18,089,,13,14,155,*73
$GPGSV,3,3,12,05,13,259,,01,07,105,,10,03,210,,24,02,061,*73
$GPRMC,171401.000,A,3748.7868,N,12217.8713,W,0.97,161.44,220812,,,A*7E
$GPVTG,161.44,T,,M,0.97,N,1.8,K,A*0C
$GPGGA,171402.000,3748.7868,N,12217.8704,W,1,04,2.7,6.4,M,-25.1,M,,0000*62
$GPGSA,A,3,26,08,28,17,,,,,,,,,4.9,2.7,4.1*3F
$GPRMC,171402.000,A,3748.7868,N,12217.8704,W,1.28,121.57,220812,,,A*78
$GPVTG,121.57,T,,M,1.28,N,2.4,K,A*00
$GPGGA,171403.000,3748.7867,N,12217.8691,W,1,04,2.7,10.2,M,-25.1,M,,0000*50
$GPGSA,A,3,26,08,28,17,,,,,,,,,4.9,2.7,4.1*3F
$GPRMC,171403.000,A,3748.7867,N,12217.8691,W,1.36,102.03,220812,,,A*74
$GPVTG,102.03,T,,M,1.36,N,2.5,K,A*0E
$GPGGA,171404.000,3748.7867,N,12217.8680,W,1,05,1.7,10.4,M,-25.1,M,,0000*53
$GPGSA,A,3,26,08,28,17,07,,,,,,,,3.9,1.7,3.5*3F
$GPRMC,171404.000,A,3748.7867,N,12217.8680,W,1.37,128.43,220812,,,A*7E
$GPVTG,128.43,T,,M,1.37,N,2.5,K,A*03
$GPGGA,171405.000,3748.7871,N,12217.8670,W,1,04,3.4,7.6,M,-25.1,M,,0000*6E
$GPGSA,A,3,26,08,28,07,,,,,,,,,5.3,3.4,4.1*37
$GPRMC,171405.000,A,3748.7871,N,12217.8670,W,2.36,116.58,220812,,,A*72
$GPVTG,116.58,T,,M,2.36,N,4.4,K,A*01
$GPGGA,171406.000,3748.7860,N,12217.8664,W,1,03,3.9,10.7,M,-25.1,M,,0000*55
$GPGSA,A,2,26,08,28,,,,,,,,,,4.1,3.9,1.0*3B
$GPGSV,3,1,12,28,68,278,14,08,67,022,18,07,42,091,,26,41,309,18*7F
$GPGSV,3,2,12,17,27,183,17,19,18,043,,11,18,089,,13,14,155,*7C
$GPGSV,3,3,12,05,13,259,,01,07,105,,10,03,210,,24,02,061,*73
$GPRMC,171406.000,A,3748.7860,N,12217.8664,W,2.47,146.48,220812,,,A*76
$GPVTG,146.48,T,,M,2.47,N,4.6,K,A*01
$GPGGA,171407.000,3748.7854,N,12217.8661,W,1,03,3.9,11.4,M,-25.1,M,,0000*54
$GPGSA,A,2,26,08,28,,,,,,,,,,4.1,3.9,1.0*3B
$GPRMC,171407.000,A,3748.7854,N,12217.8661,W,1.67,167.16,220812,,,A*7C
$GPVTG,167.16,T,,M,1.67,N,3.1,K,A*08
$GPGGA,171408.000,3748.7850,N,12217.8660,W,6,00,50.0,11.8,M,-25.1,M,,0000*69
$GPGSA,A,2,,,,,,,,,,,,,50.0,50.0,50.0*06
$GPRMC,171408.000,A,3748.7850,N,12217.8660,W,1.67,167.16,220812,,,E*72
$GPVTG,167.16,T,,M,1.67,N,3.1,K,N*07
$GPGGA,171409.000,3748.7852,N,12217.8674,W,1,03,1.9,13.2,M,-25.1,M,,0000*5E
$GPGSA,A,2,07,28,17,,,,,,,,,,2.2,1.9,1.0*31
$GPRMC,171409.000,A,3748.7852,N,12217.8674,W,1.39,247.01,220812,,,A*7C
$GPVTG,247.01,T,,M,1.39,N,2.6,K,N*0D
$GPGGA,171410.000,3748.7850,N,12217.8674,W,1,03,1.9,13.1,M,-25.1,M,,0000*57
$GPGSA,A,2,07,28,17,,,,,,,,,,2.2,1.9,1.0*31
$GPRMC,171410.000,A,3748.7850,N,12217.8674,W,1.57,223.12,220812,,,A*7E
$GPVTG,223.12,T,,M,1.57,N,2.9,K,A*05
$GPGGA,171411.000,3748.7838,N,12217.8679,W,1,03,1.9,12.4,M,-25.1,M,,0000*51
$GPGSA,A,2,07,28,17,,,,,,,,,,2.2,1.9,1.0*31
$GPGSV,3,1,12,28,68,278,15,08,67,022,,07,42,091,20,26,41,309,17*7A
$GPGSV,3,2,12,17,27,183,16,19,18,043,,11,18,089,,13,14,155,*7D
$GPGSV,3,3,12,05,13,259,,01,07,105,,10,03,210,,24,02,061,*73
$GPRMC,171411.000,A,3748.7838,N,12217.8679,W,2.96,212.68,220812,,,A*7D
$GPGGA,171412.000,3748.7819,N,12217.8683,W,1,03,1.9,10.4,M,-25.1,M,,0000*56
$GPGSA,A,2,07,28,17,,,,,,,,,,2.2,1.9,1.0*31
$GPRMC,171412.000,A,3748.7819,N,12217.8683,W,3.01,223.11,220812,,,A*7B
$GPVTG,223.11,T,,M,3.01,N,5.6,K,A*0F
$GPGGA,171413.000,3748.7813,N,12217.8690,W,6,00,50.0,10.5,M,-25.1,M,,0000*67
$GPGSA,A,2,,,,,,,,,,,,,50.0,50.0,50.0*06
$GPRMC,171413.000,A,3748.7813,N,12217.8690,W,3.01,223.11,220812,,,E*76
$GPVTG,223.11,T,,M,3.01,N,5.6,K,N*00
$GPGGA,171414.000,3748.7782,N,12217.8690,W,1,04,1.7,11.6,M,-25.1,M,,0000*55
$GPGSA,A,3,26,07,28,17,,,,,,,,,4.3,1.7,3.9*36
$GPRMC,171414.000,A,3748.7782,N,12217.8690,W,5.12,194.66,220812,,,A*79
$GPVTG,194.66,T,,M,5.12,N,9.5,K,N*04
$GPGGA,171415.000,3748.7776,N,12217.8704,W,1,04,1.7,9.8,M,-25.1,M,,0000*64
$GPGSA,A,3,26,07,28,17,,,,,,,,,4.3,1.7,3.9*36
$GPRMC,171415.000,A,3748.7776,N,12217.8704,W,4.74,224.56,220812,,,A*75
$GPVTG,224.56,T,,M,4.74,N,8.8,K,A*0D
$GPGGA,171416.000,3748.7787,N,12217.8691,W,1,04,1.7,9.5,M,-25.1,M,,0000*69
$GPGSA,A,3,26,07,28,17,,,,,,,,,4.3,1.7,3.9*36
$GPGSV,3,1,12,28,68,278,21,08,67,022,,07,42,091,14,26,41,309,17*7A
$GPGSV,3,2,12,17,27,183,14,19,18,043,,11,18,089,,13,14,155,*7F
$GPGSV,3,3,12,05,13,259,,01,07,105,,10,03,210,,24,02,061,*73
$GPRMC,171416.000,A,3748.7787,N,12217.8691,W,3.46,251.90,220812,,,A*7B
$GPVTG,251.90,T,,M,3.46,N,6.4,K,A*01
$GPGGA,171417.000,3748.7805,N,12217.8694,W,1,03,24.0,9.6,M,-25.1,M,,0000*5C
$GPGSA,A,2,26,28,17,,,,,,,,,,24.0,24.0,1.0*3A
$GPRMC,171417.000,A,3748.7805,N,12217.8694,W,3.15,281.95,220812,,,A*74
$GPVTG,281.95,T,,M,3.15,N,5.8,K,A*00
$GPGGA,171418.000,3748.7827,N,12217.8699,W,1,03,24.0,8.2,M,-25.1,M,,0000*5B
$GPGSA,A,2,26,28,17,,,,,,,,,,24.0,24.0,1.0*3A
$GPRMC,171418.000,A,3748.7827,N,12217.8699,W,3.40,326.78,220812,,,A*79
$GPVTG,326.78,T,,M,3.40,N,6.3,K,A*07
