$ADVER,3080,2.3
$GPRMC,182701.538,A,3748.7397,N,12217.7735,W,2.01,92.54,230812,,,A*4F
$GPGGA,182702.538,3748.7337,N,12217.7736,W,1,03,2.6,25.1,M,-25.1,M,,0000*5E
$GPGSA,A,2,07,17,01,,,,,,,,,,2.8,2.6,1.0*3C
$GPRMC,182702.538,A,3748.7337,N,12217.7736,W,2.56,64.15,230812,,,A*4B
$GPVTG,64.15,T,,M,2.56,N,4.7,K,N*36
$GPGGA,182703.542,3748.7329,N,12217.7729,W,1,03,2.6,25.1,M,-25.1,M,,0000*53
$GPGSA,A,2,07,17,01,,,,,,,,,,2.8,2.6,1.0*3C
$GPRMC,182703.542,A,3748.7329,N,12217.7729,W,2.79,59.36,230812,,,A*44
$GPVTG,59.36,T,,M,2.79,N,5.2,K,N*30
$GPGGA,182704.542,3748.7300,N,12217.7726,W,1,03,2.6,25.1,M,-25.1,M,,0000*50
$GPGSA,A,2,07,17,01,,,,,,,,,,2.8,2.6,1.0*3C
$GPGSV,3,1,10,17,66,179,33,01,20,071,20,07,15,122,35,28,64,017,20*7C
$GPGSV,3,2,10,26,53,253,32,08,53,104,31,11,17,054,20,27,17,311,21*71
$GPGSV,3,3,10,09,02,309,,48,00,000,39*7F
$GPRMC,182704.542,A,3748.7300,N,12217.7726,W,2.09,88.85,230812,,,A*44
$GPVTG,88.85,T,,M,2.09,N,3.9,K,N*3E
$GPGGA,182705.538,3748.7333,N,12217.7714,W,1,03,2.6,25.1,M,-25.1,M,,0000*5D
$GPGSA,A,2,07,17,01,,,,,,,,,,2.8,2.6,1.0*3C
$GPRMC,182705.538,A,3748.7333,N,12217.7714,W,3.68,153.32,230812,,,A*74
$GPVTG,153.32,T,,M,3.68,N,6.8,K,N*07
$GPGGA,182706.542,3748.7344,N,12217.7704,W,1,03,2.6,25.1,M,-25.1,M,,0000*52
$GPGSA,A,2,07,17,01,,,,,,,,,,2.8,2.6,1.0*3C
$GPRMC,182706.542,A,3748.7344,N,12217.7704,W,2.96,138.04,230812,,,A*73
$GPVTG,138.04,T,,M,2.96,N,5.5,K,N*01
$GPGGA,182707.542,3748.7350,N,12217.7696,W,1,03,2.6,25.1,M,-25.1,M,,0000*5C
$GPGSA,A,2,07,17,01,,,,,,,,,,2.8,2.6,1.0*3C
$GPRMC,182707.542,A,3748.7350,N,12217.7696,W,3.17,146.27,230812,,,A*7D
$GPVTG,146.27,T,,M,3.17,N,5.9,K,N*0D
$GPGGA,182708.542,3748.7385,N,12217.7683,W,1,03,2.6,25.1,M,-25.1,M,,0000*5F
$GPGSA,A,2,07,17,01,,,,,,,,,,2.8,2.6,1.0*3C
$GPRMC,182708.542,A,3748.7385,N,12217.7683,W,2.63,130.84,230812,,,A*74
$GPVTG,130.84,T,,M,2.63,N,4.9,K,N*06
$GPGGA,182709.538,3748.7283,N,12217.7693,W,1,03,2.6,25.1,M,-25.1,M,,0000*55
$GPGSA,A,2,07,17,01,,,,,,,,,,2.8,2.6,1.0*3C
$GPGSV,3,1,10,17,66,179,33,01,20,071,20,07,15,122,35,28,64,017,20*7C
$GPGSV,3,2,10,26,53,253,31,08,53,104,32,11,17,054,20,27,17,311,19*7A
$GPGSV,3,3,10,09,02,309,16,48,00,000,39*78
$GPRMC,182709.538,A,3748.7283,N,12217.7693,W,2.46,62.52,230812,,,A*44
$GPVTG,62.52,T,,M,2.46,N,4.6,K,N*33
$GPGGA,182710.542,3748.7287,N,12217.7685,W,1,03,2.6,25.1,M,-25.1,M,,0000*53
$GPGSA,A,2,07,17,01,,,,,,,,,,2.8,2.6,1.0*3C
$GPRMC,182710.542,A,3748.7287,N,12217.7685,W,2.88,145.48,230812,,,A*7F
$GPVTG,145.48,T,,M,2.88,N,5.3,K,N*0A
$GPGGA,182711.542,3748.7253,N,12217.7683,W,1,03,2.6,25.1,M,-25.1,M,,0000*5D
$GPGSA,A,2,07,17,01,,,,,,,,,,2.8,2.6,1.0*3C
$GPRMC,182711.542,A,3748.7253,N,12217.7683,W,2.70,133.63,230812,,,A*7E
$GPVTG,133.63,T,,M,2.70,N,5.0,K,N*06
$GPGGA,182712.542,3748.7189,N,12217.7686,W,1,03,2.6,25.1,M,-25.1,M,,0000*5F
$GPGSA,A,2,07,17,01,,,,,,,,,,2.8,2.6,1.0*3C
$GPRMC,182712.542,A,3748.7189,N,12217.7686,W,2.12,92.94,230812,,,A*4A
$GPVTG,92.94,T,,M,2.12,N,3.9,K,N*3F
$GPGGA,182713.538,3748.7164,N,12217.7683,W,1,03,2.6,25.1,M,-25.1,M,,0000*55
$GPGSA,A,2,07,17,01,,,,,,,,,,2.8,2.6,1.0*3C
$GPRMC,182713.538,A,3748.7164,N,12217.7683,W,2.00,99.59,230812,,,A*49
$GPVTG,99.59,T,,M,2.00,N,3.7,K,N*38
$GPGGA,182714.542,3748.7181,N,12217.7672,W,1,03,2.6,25.1,M,-25.1,M,,0000*5A
$GPGSA,A,2,07,17,01,,,,,,,,,,2.8,2.6,1.0*3C
$GPGSV,3,1,10,17,66,179,33,01,20,071,19,07,15,122,36,28,64,017,20*75
$GPGSV,3,2,10,26,53,253,31,08,53,104,32,11,17,054,20,27,17,311,18*7B
$GPGSV,3,3,10,09,02,309,17,48,44,197,38*77
$GPRMC,182714.542,A,3748.7181,N,12217.7672,W,2.34,117.00,230812,,,A*7A
$GPVTG,117.00,T,,M,2.34,N,4.3,K,N*07
$GPGGA,182715.542,3748.7210,N,12217.7660,W,1,03,2.6,25.1,M,-25.1,M,,0000*53
$GPGSA,A,2,07,17,01,,,,,,,,,,2.8,2.6,1.0*3C
$GPRMC,182715.542,A,3748.7210,N,12217.7660,W,2.06,107.55,230812,,,A*73
$GPVTG,107.55,T,,M,2.06,N,3.8,K,N*0B
$GPGGA,182716.542,3748.7185,N,12217.7657,W,1,03,2.6,25.1,M,-25.1,M,,0000*5B
$GPGSA,A,2,07,17,01,,,,,,,,,,2.8,2.6,1.0*3C
$GPRMC,182716.542,A,3748.7185,N,12217.7657,W,2.01,96.60,230812,,,A*43
$GPVTG,96.60,T,,M,2.01,N,3.7,K,N*3C
$GPGGA,182717.538,3748.7261,N,12217.7637,W,1,03,2.6,25.1,M,-25.1,M,,0000*58
$GPGSA,A,2,07,17,01,,,,,,,,,,2.8,2.6,1.0*3C
$GPRMC,182717.538,A,3748.7261,N,12217.7637,W,2.30,118.13,230812,,,A*71
$GPVTG,118.13,T,,M,2.30,N,4.3,K,N*0E
$GPGGA,182718.538,3748.7240,N,12217.7623,W,1,03,2.6,25.1,M,-25.1,M,,0000*51
$GPGSA,A,2,07,17,01,,,,,,,,,,2.8,2.6,1.0*3C
$GPRMC,182718.538,A,3748.7240,N,12217.7623,W,3.98,149.21,230812,,,A*7E
$GPVTG,149.21,T,,M,3.98,N,7.4,K,N*0C
$GPGGA,182719.538,3748.7150,N,12217.7650,W,1,03,2.6,25.1,M,-25.1,M,,0000*56
$GPGSA,A,2,07,17,01,,,,,,,,,,2.8,2.6,1.0*3C
$GPGSV,3,1,11,17,66,179,32,01,20,071,19,07,15,122,36,28,64,017,20*75
$GPGSV,3,2,11,26,53,253,31,08,53,104,32,11,17,054,20,27,17,311,19*7B
$GPGSV,3,3,11,09,02,309,16,04,00,172,,48,44,197,34*4B
$GPVTG,163.28,T,,M,4.90,N,9.1,K,N*09
$GPGGA,182720.538,3748.7221,N,12217.7615,W,1,03,2.6,25.1,M,-25.1,M,,0000*58
$GPGSA,A,2,07,17,01,,,,,,,,,,2.8,2.6,1.0*3C
$GPRMC,182720.538,A,3748.7221,N,12217.7615,W,3.41,146.54,230812,,,A*7E
$GPVTG,146.54,T,,M,3.41,N,6.3,K,N*03
$GPGGA,182721.538,3748.7266,N,12217.7616,W,1,03,2.6,25.1,M,-25.1,M,,0000*59
$GPGSA,A,2,07,17,01,,,,,,,,,,2.8,2.6,1.0*3C
$GPRMC,182721.538,A,3748.7266,N,12217.7616,W,2.17,82.56,230812,,,A*46
$GPVTG,82.56,T,,M,2.17,N,4.0,K,N*3B
$GPGGA,182722.538,3748.7299,N,12217.7610,W,1,03,2.6,25.1,M,-25.1,M,,0000*5C
$GPGSA,A,2,07,17,01,,,,,,,,,,2.8,2.6,1.0*3C
$GPRMC,182722.538,A,3748.7299,N,12217.7610,W,2.43,131.92,230812,,,A*73
$GPVTG,131.92,T,,M,2.43,N,4.5,K,N*0E
$GPGGA,182723.538,3748.7225,N,12217.7614,W,1,03,2.6,25.1,M,-25.1,M,,0000*5E
$GPGSA,A,2,07,17,01,,,,,,,,,,2.8,2.6,1.0*3C
$GPRMC,182723.538,A,3748.7225,N,12217.7614,W,3.65,151.69,230812,,,A*76
$GPVTG,151.69,T,,M,3.65,N,6.8,K,N*06
$GPGGA,182724.538,3748.7200,N,12217.7610,W,1,03,2.6,25.1,M,-25.1,M,,0000*5A
$GPGSA,A,2,07,17,01,,,,,,,,,,2.8,2.6,1.0*3C
$GPGSV,3,1,11,17,66,179,32,01,20,071,18,07,15,122,35,28,64,017,20*77
$GPGSV,3,2,11,26,53,253,31,08,53,104,32,11,17,054,23,27,17,311,18*79
$GPGSV,3,3,11,09,02,309,17,04,00,172,,48,44,197,37*49
$GPRMC,182724.538,A,3748.7200,N,12217.7610,W,2.46,136.86,230812,,,A*72
$GPVTG,136.86,T,,M,2.46,N,4.5,K,N*09
$GPGGA,182725.538,3748.7281,N,12217.7590,W,1,03,2.6,25.1,M,-25.1,M,,0000*59
$GPGSA,A,2,07,17,01,,,,,,,,,,2.8,2.6,1.0*3C
$GPRMC,182725.538,A,3748.7281,N,12217.7590,W,1.84,88.15,230812,,,A*42
$GPVTG,88.15,T,,M,1.84,N,3.4,K,N*3C
$GPGGA,182726.538,3748.7216,N,12217.7583,W,1,03,2.6,25.1,M,-25.1,M,,0000*56
$GPGSA,A,2,07,17,01,,,,,,,,,,2.8,2.6,1.0*3C
$GPRMC,182726.538,A,3748.7216,N,12217.7583,W,3.41,51.34,230812,,,A*41
$GPVTG,51.34,T,,M,3.41,N,6.3,K,N*32
$GPGGA,182727.538,3748.7245,N,12217.7565,W,1,03,2.6,25.1,M,-25.1,M,,0000*59
$GPGSA,A,2,07,17,01,,,,,,,,,,2.8,2.6,1.0*3C
$GPRMC,182727.538,A,3748.7245,N,12217.7565,W,3.38,41.11,230812,,,A*46
$GPVTG,41.11,T,,M,3.38,N,6.3,K,N*3A
$GPGGA,182728.538,3748.7293,N,12217.7729,W,1,04,2.4,-7.8,M,-25.1,M,,0000*46
$GPGSA,A,3,07,17,01,26,,,,,,,,,4.5,2.4,3.8*3A
$GPRMC,182728.538,A,3748.7293,N,12217.7729,W,2.71,67.42,230812,,,A*46
$GPVTG,67.42,T,,M,2.71,N,5.0,K,A*3B
$GPGGA,182729.538,3748.7348,N,12217.7670,W,1,04,2.4,2.0,M,-25.1,M,,0000*6D
$GPGSA,A,3,07,17,01,26,,,,,,,,,4.5,2.4,3.8*3A
$GPGSV,3,1,11,17,66,179,32,26,53,252,31,01,20,071,18,07,15,122,27*7D
$GPGSV,3,2,11,28,64,018,20,08,52,104,32,27,17,311,19,11,17,054,22*7F
$GPGSV,3,3,11,09,02,309,17,04,00,172,,48,44,197,38*46
$GPRMC,182729.538,A,3748.7348,N,12217.7670,W,2.16,127.02,230812,,,A*7D
$GPVTG,127.02,T,,M,2.16,N,4.0,K,A*0A
$GPGGA,182730.538,3748.7362,N,12217.7653,W,1,04,2.4,4.5,M,-25.1,M,,0000*6F
$GPGSA,A,3,07,17,01,26,,,,,,,,,4.5,2.4,3.8*3A
$GPRMC,182730.538,A,3748.7362,N,12217.7653,W,2.02,133.85,230812,,,A*73
$GPVTG,133.85,T,,M,2.02,N,3.7,K,A*05
$GPGGA,182731.000,3748.7365,N,12217.7649,W,1,04,2.4,4.9,M,-25.1,M,,0000*60
$GPGSA,A,3,07,17,01,26,,,,,,,,,4.5,2.4,3.8*3A
$GPRMC,182731.000,A,3748.7365,N,12217.7649,W,2.03,125.81,230812,,,A*72
$GPVTG,125.81,T,,M,2.03,N,3.8,K,A*08
$GPGGA,182732.000,3748.7353,N,12217.7646,W,1,04,2.4,4.4,M,-25.1,M,,0000*64
$GPGSA,A,3,07,17,01,26,,,,,,,,,4.5,2.4,3.8*3A
$GPRMC,182732.000,A,3748.7353,N,12217.7646,W,2.10,123.76,230812,,,A*77
$GPVTG,123.76,T,,M,2.10,N,3.9,K,A*05
$GPGGA,182733.000,3748.7345,N,12217.7640,W,1,04,2.4,2.2,M,-25.1,M,,0000*64
$GPGSA,A,3,07,17,01,26,,,,,,,,,4.5,2.4,3.8*3A
$GPRMC,182733.000,A,3748.7345,N,12217.7640,W,2.25,136.49,230812,,,A*79
$GPVTG,136.49,T,,M,2.25,N,4.2,K,A*07
$GPGGA,182734.000,3748.7337,N,12217.7633,W,1,04,2.4,-0.1,M,-25.1,M,,0000*4E
$GPGSA,A,3,07,17,01,26,,,,,,,,,4.5,2.4,3.8*3A
$GPGSV,3,1,11,17,66,179,32,26,53,252,31,01,20,071,19,07,15,122,17*7F
$GPGSV,3,2,11,28,64,018,20,08,52,104,32,27,17,311,19,11,17,054,22*7F
$GPGSV,3,3,11,09,02,309,18,04,00,172,,48,44,197,38*49
$GPRMC,182734.000,A,3748.7337,N,12217.7633,W,1.85,119.42,230812,,,A*70
$GPVTG,119.42,T,,M,1.85,N,3.4,K,A*09
$GPGGA,182735.000,3748.7356,N,12217.7616,W,1,04,2.4,1.0,M,-25.1,M,,0000*62
$GPGSA,A,3,07,17,01,26,,,,,,,,,4.5,2.4,3.8*3A
$GPRMC,182735.000,A,3748.7356,N,12217.7616,W,2.33,87.21,230812,,,A*4C
$GPVTG,87.21,T,,M,2.33,N,4.3,K,A*34
$GPGGA,182736.000,3748.7378,N,12217.7600,W,1,04,2.4,3.4,M,-25.1,M,,0000*6C
$GPGSA,A,3,07,17,01,26,,,,,,,,,4.5,2.4,3.8*3A
$GPRMC,182736.000,A,3748.7378,N,12217.7600,W,1.61,80.96,230812,,,A*4B
$GPVTG,80.96,T,,M,1.61,N,3.0,K,A*3F
$GPGGA,182737.000,3748.7386,N,12217.7590,W,1,04,2.4,4.4,M,-25.1,M,,0000*61
$GPGSA,A,3,07,17,01,26,,,,,,,,,4.5,2.4,3.8*3A
$GPRMC,182737.000,A,3748.7386,N,12217.7590,W,1.99,118.74,230812,,,A*7A
$GPVTG,118.74,T,,M,1.99,N,3.7,K,A*03
$GPGGA,182738.000,3748.7385,N,12217.7582,W,1,04,2.4,3.8,M,-25.1,M,,0000*65
$GPGSA,A,3,07,17,01,26,,,,,,,,,4.5,2.4,3.8*3A
$GPRMC,182738.000,A,3748.7385,N,12217.7582,W,1.92,111.63,230812,,,A*71
$GPVTG,111.63,T,,M,1.92,N,3.6,K,A*06
$GPGGA,182739.000,3748.7396,N,12217.7570,W,1,04,2.4,5.0,M,-25.1,M,,0000*65
$GPGSA,A,3,07,17,01,26,,,,,,,,,4.5,2.4,3.8*3A
$GPGSV,3,1,11,17,66,179,33,26,53,252,32,01,20,071,30,07,15,122,23*71
$GPGSV,3,2,11,28,64,018,21,08,52,104,31,27,17,311,19,11,17,054,22*7D
$GPGSV,3,3,11,09,02,309,17,04,00,172,,48,44,197,39*47
$GPRMC,182739.000,A,3748.7396,N,12217.7570,W,1.79,97.74,230812,,,A*43
$GPVTG,97.74,T,,M,1.79,N,3.3,K,A*3F
$GPGGA,182740.000,3748.7408,N,12217.7558,W,1,04,2.4,6.5,M,-25.1,M,,0000*67
$GPGSA,A,3,07,17,01,26,,,,,,,,,4.5,2.4,3.8*3A
$GPRMC,182740.000,A,3748.7408,N,12217.7558,W,1.91,87.64,230812,,,A*41
$GPVTG,87.64,T,,M,1.91,N,3.5,K,A*3F
$GPGGA,182741.000,3748.7419,N,12217.7547,W,1,04,2.4,7.7,M,-25.1,M,,0000*6B
$GPGSA,A,3,07,17,01,26,,,,,,,,,4.5,2.4,3.8*3A
$GPRMC,182741.000,A,3748.7419,N,12217.7547,W,1.80,76.40,230812,,,A*46
$GPVTG,76.40,T,,M,1.80,N,3.3,K,A*31
$GPGGA,182742.000,3748.7424,N,12217.7540,W,1,04,2.4,8.8,M,-25.1,M,,0000*61
$GPGSA,A,3,07,17,01,26,,,,,,,,,4.5,2.4,3.8*3A
$GPRMC,182742.000,A,3748.7424,N,12217.7540,W,1.88,68.17,230812,,,A*49
$GPVTG,68.17,T,,M,1.88,N,3.5,K,A*32
$GPGGA,182743.000,3748.7432,N,12217.7532,W,1,04,2.4,10.6,M,-25.1,M,,0000*55
$GPGSA,A,3,07,17,01,26,,,,,,,,,4.5,2.4,3.8*3A
$GPRMC,182743.000,A,3748.7432,N,12217.7532,W,1.55,86.10,230812,,,A*4D
$GPVTG,86.10,T,,M,1.55,N,2.9,K,A*38
$GPGGA,182744.000,3748.7429,N,12217.7526,W,1,04,2.4,11.3,M,-25.1,M,,0000*59
$GPGSA,A,3,07,17,01,26,,,,,,,,,4.5,2.4,3.8*3A
$GPGSV,3,1,11,17,66,179,33,26,53,252,31,01,20,071,22,07,15,122,24*76
$GPGSV,3,2,11,28,64,018,23,08,52,104,31,27,17,311,19,11,17,054,21*7C
$GPGSV,3,3,11,09,02,309,18,04,00,172,,48,44,197,38*49
$GPRMC,182744.000,A,3748.7429,N,12217.7526,W,1.98,121.21,230812,,,A*7A
$GPVTG,121.21,T,,M,1.98,N,3.7,K,A*08
$GPGGA,182745.000,3748.7424,N,12217.7519,W,1,04,2.4,13.0,M,-25.1,M,,0000*58
$GPGSA,A,3,07,17,01,26,,,,,,,,,4.5,2.4,3.7*35
$GPRMC,182745.000,A,3748.7424,N,12217.7519,W,2.13,109.16,230812,,,A*74
$GPVTG,109.16,T,,M,2.13,N,3.9,K,A*08
$GPGGA,182746.000,3748.7421,N,12217.7513,W,1,04,2.4,14.3,M,-25.1,M,,0000*50
$GPGSA,A,3,07,17,01,26,,,,,,,,,4.5,2.4,3.7*35
$GPRMC,182746.000,A,3748.7421,N,12217.7513,W,1.93,82.96,230812,,,A*49
$GPVTG,82.96,T,,M,1.93,N,3.6,K,A*36
$GPGGA,182747.000,3748.7416,N,12217.7509,W,2,04,2.4,15.0,M,-25.1,M,1.8,0000*78
$GPGSA,A,3,07,17,01,26,,,,,,,,,4.4,2.4,3.7*34
$GPRMC,182747.000,A,3748.7416,N,12217.7509,W,1.29,78.15,230812,,,D*4D
$GPVTG,78.15,T,,M,1.29,N,2.4,K,D*3F
$GPGGA,182748.000,3748.7410,N,12217.7505,W,2,04,2.4,14.9,M,-25.1,M,2.8,0000*76
$GPGSA,A,3,07,17,01,26,,,,,,,,,4.4,2.4,3.7*34
$GPRMC,182748.000,A,3748.7410,N,12217.7505,W,1.85,84.35,230812,,,D*4F
$GPVTG,84.35,T,,M,1.85,N,3.4,K,D*39
$GPGGA,182749.000,3748.7405,N,12217.7495,W,2,04,2.4,16.5,M,-25.1,M,1.8,0000*76
$GPGSA,A,3,07,17,01,26,,,,,,,,,4.4,2.4,3.7*34
$GPGSV,3,1,11,17,66,179,25,28,64,018,24,26,53,252,31,08,52,105,22*7C
$GPGSV,3,2,11,01,20,071,22,27,17,311,20,11,17,054,21,07,15,122,23*78
$GPGSV,3,3,11,09,02,309,19,04,00,172,,48,44,197,31*41
$GPRMC,182749.000,A,3748.7405,N,12217.7495,W,2.67,87.25,230812,,,D*4F
$GPVTG,87.25,T,,M,2.67,N,5.0,K,D*36
$GPGGA,182750.000,3748.7393,N,12217.7490,W,2,04,2.4,15.3,M,-25.1,M,2.8,0000*75
$GPGSA,A,3,07,17,01,26,,,,,,,,,4.4,2.4,3.7*34
$GPRMC,182750.000,A,3748.7393,N,12217.7490,W,1.83,110.90,230812,,,D*72
$GPVTG,110.90,T,,M,1.83,N,3.4,K,D*0C
$GPGGA,182751.000,3748.7392,N,12217.7484,W,2,04,2.4,15.0,M,-25.1,M,3.8,0000*72
$GPGSA,A,3,07,17,01,26,,,,,,,,,4.4,2.4,3.7*34
$GPRMC,182751.000,A,3748.7392,N,12217.7484,W,1.17,93.46,230812,,,D*4B
$GPVTG,93.46,T,,M,1.17,N,2.2,K,D*37
$GPGGA,182752.000,3748.7392,N,12217.7482,W,2,04,2.4,14.2,M,-25.1,M,4.8,0000*73
$GPGSA,A,3,07,17,01,26,,,,,,,,,4.4,2.4,3.7*34
$GPRMC,182752.000,A,3748.7392,N,12217.7482,W,1.15,52.73,230812,,,D*47
$GPVTG,52.73,T,,M,1.15,N,2.1,K,D*3D
$GPGGA,182753.000,3748.7392,N,12217.7485,W,2,04,2.4,10.9,M,-25.1,M,1.8,0000*7F
$GPGSA,A,3,07,17,01,26,,,,,,,,,4.4,2.4,3.7*34
$GPRMC,182753.000,A,3748.7392,N,12217.7485,W,1.04,34.88,230812,,,D*45
$GPVTG,34.88,T,,M,1.04,N,1.9,K,D*32
$GPGGA,182754.000,3748.7392,N,12217.7483,W,2,04,2.4,10.1,M,-25.1,M,2.8,0000*75
$GPGSA,A,3,07,17,01,26,,,,,,,,,4.4,2.4,3.7*34
$GPGSV,3,1,11,17,66,179,27,28,64,018,23,26,53,252,25,08,52,105,23*7D
$GPGSV,3,2,11,01,20,071,22,27,17,311,20,11,17,054,22,07,15,122,22*7A
$GPGSV,3,3,11,09,02,309,19,04,00,172,,48,44,197,28*49
$GPRMC,182754.000,A,3748.7392,N,12217.7483,W,1.33,90.39,230812,,,D*44
$GPVTG,90.39,T,,M,1.33,N,2.5,K,D*3D
$GPGGA,182755.000,3748.7387,N,12217.7479,W,2,04,2.4,10.4,M,-25.1,M,3.8,0000*71
$GPGSA,A,3,07,17,01,26,,,,,,,,,4.4,2.4,3.7*34
$GPRMC,182755.000,A,3748.7387,N,12217.7479,W,1.54,84.59,230812,,,D*46
$GPVTG,84.59,T,,M,1.54,N,2.8,K,D*32
$GPGGA,182756.000,3748.7388,N,12217.7468,W,2,04,2.4,11.4,M,-25.1,M,4.8,0000*7B
$GPGSA,A,3,07,17,01,26,,,,,,,,,4.4,2.4,3.7*34
$GPRMC,182756.000,A,3748.7388,N,12217.7468,W,1.03,80.19,230812,,,D*48
$GPVTG,80.19,T,,M,1.03,N,1.9,K,D*32
$GPGGA,182757.000,3748.7384,N,12217.7458,W,2,04,2.4,12.1,M,-25.1,M,5.8,0000*72
$GPGSA,A,3,07,17,01,26,,,,,,,,,4.4,2.4,3.7*34
$GPRMC,182757.000,A,3748.7384,N,12217.7458,W,1.92,95.29,230812,,,D*49
$GPVTG,95.29,T,,M,1.92,N,3.6,K,D*30
$GPGGA,182758.000,3748.7382,N,12217.7448,W,2,04,2.4,12.2,M,-25.1,M,6.8,0000*7A
$GPGSA,A,3,07,17,01,26,,,,,,,,,4.4,2.4,3.7*34
$GPRMC,182758.000,A,3748.7382,N,12217.7448,W,2.09,75.77,230812,,,D*45
$GPVTG,75.77,T,,M,2.09,N,3.9,K,D*3B
$GPGGA,182759.000,3748.7378,N,12217.7444,W,2,04,2.4,10.9,M,-25.1,M,7.8,0000*7A
$GPGSA,A,3,07,17,01,26,,,,,,,,,4.4,2.4,3.7*34
$GPGSV,3,1,11,17,66,179,28,28,64,018,23,26,53,252,25,08,52,105,29*78
$GPGSV,3,2,11,01,20,071,22,27,17,311,21,11,17,054,21,07,15,122,26*7C
$GPGSV,3,3,11,09,02,309,19,04,00,172,,48,44,197,28*49
$GPRMC,182759.000,A,3748.7378,N,12217.7444,W,1.38,81.16,230812,,,D*40
$GPVTG,81.16,T,,M,1.38,N,2.6,K,D*38
$GPGGA,182800.000,3748.7372,N,12217.7441,W,2,04,2.4,9.2,M,-25.1,M,8.8,0000*4A
$GPGSA,A,3,07,17,01,26,,,,,,,,,4.4,2.4,3.7*34
$GPRMC,182800.000,A,3748.7372,N,12217.7441,W,1.16,92.94,230812,,,D*48
$GPVTG,92.94,T,,M,1.16,N,2.2,K,D*38
$GPGGA,182801.000,3748.7372,N,12217.7422,W,2,04,2.4,11.0,M,-25.1,M,9.8,0000*74
$GPGSA,A,3,07,17,01,26,,,,,,,,,4.4,2.4,3.7*34
$GPRMC,182801.000,A,3748.7372,N,12217.7422,W,1.61,91.37,230812,,,D*46
$GPVTG,91.37,T,,M,1.61,N,3.0,K,D*31
$GPGGA,182802.000,3748.7371,N,12217.7400,W,2,04,2.4,12.7,M,-25.1,M,10.8,0000*48
$GPGSA,A,3,07,17,01,26,,,,,,,,,4.4,2.4,3.7*34
$GPRMC,182802.000,A,3748.7371,N,12217.7400,W,2.02,93.79,230812,,,D*48
$GPVTG,93.79,T,,M,2.02,N,3.7,K,D*38
$GPGGA,182803.000,3748.7365,N,12217.7388,W,2,04,2.4,12.9,M,-25.1,M,11.8,0000*44
$GPGSA,A,3,07,17,01,26,,,,,,,,,4.4,2.4,3.7*34
$GPRMC,182803.000,A,3748.7365,N,12217.7388,W,2.41,111.20,230812,,,D*7B
$GPVTG,111.20,T,,M,2.41,N,4.5,K,D*0D
$GPGGA,182804.000,3748.7364,N,12217.7380,W,2,04,2.4,12.2,M,-25.1,M,12.8,0000*42
$GPGSA,A,3,07,17,01,26,,,,,,,,,4.4,2.4,3.7*34
$GPGSV,3,1,11,17,66,179,28,28,64,018,21,26,53,252,30,08,52,105,29*7E
$GPGSV,3,2,11,01,20,071,22,27,17,311,21,11,17,054,21,07,15,122,31*7A
$GPGSV,3,3,11,09,02,309,17,04,00,172,,48,44,197,28*47
$GPRMC,182804.000,A,3748.7364,N,12217.7380,W,2.65,131.52,230812,,,D*74
$GPVTG,131.52,T,,M,2.65,N,4.9,K,D*00
$GPGGA,182805.000,3748.7354,N,12217.7377,W,2,04,2.4,11.1,M,-25.1,M,13.8,0000*49
$GPGSA,A,3,07,17,01,26,,,,,,,,,4.4,2.4,3.7*34
$GPRMC,182805.000,A,3748.7354,N,12217.7377,W,2.11,116.86,230812,,,D*71
$GPVTG,116.86,T,,M,2.11,N,3.9,K,D*08
$GPGGA,182806.000,3748.7347,N,12217.7366,W,2,04,2.4,11.3,M,-25.1,M,14.8,0000*4D
$GPGSA,A,3,07,17,01,26,,,,,,,,,4.4,2.4,3.7*34
$GPRMC,182806.000,A,3748.7347,N,12217.7366,W,2.50,97.68,230812,,,D*4D
$GPVTG,97.68,T,,M,2.50,N,4.6,K,D*3D
$GPGGA,182807.000,3748.7348,N,12217.7352,W,2,04,2.4,11.7,M,-25.1,M,15.8,0000*41
$GPGSA,A,3,07,17,01,26,,,,,,,,,4.4,2.4,3.7*34
$GPRMC,182807.000,A,3748.7348,N,12217.7352,W,2.21,80.12,230812,,,D*49
$GPVTG,80.12,T,,M,2.21,N,4.1,K,D*37
$GPGGA,182808.000,3748.7336,N,12217.7332,W,2,04,2.4,15.9,M,-25.1,M,16.8,0000*48
$GPGSA,A,3,07,17,01,26,,,,,,,,,4.4,2.4,3.7*34
$GPRMC,182808.000,A,3748.7336,N,12217.7332,W,1.98,128.13,230812,,,D*7A
$GPVTG,128.13,T,,M,1.98,N,3.7,K,D*05
$GPGGA,182809.000,3748.7334,N,12217.7313,W,2,04,2.4,18.6,M,-25.1,M,17.8,0000*4B
$GPGSA,A,3,07,17,01,26,,,,,,,,,4.4,2.4,3.7*34
$GPGSV,3,1,11,17,66,179,24,28,64,018,22,26,53,252,23,08,52,105,26*7C
$GPGSV,3,2,11,01,20,071,22,27,17,311,21,11,17,054,21,07,15,122,37*7C
$GPGSV,3,3,11,09,02,309,16,04,00,172,,48,44,197,32*4D
$GPRMC,182809.000,A,3748.7334,N,12217.7313,W,1.92,105.03,230812,,,D*7E
$GPVTG,105.03,T,,M,1.92,N,3.5,K,D*03
$GPGGA,182810.000,3748.7335,N,12217.7298,W,2,04,2.4,18.9,M,-25.1,M,18.8,0000*40
$GPGSA,A,3,07,17,01,26,,,,,,,,,4.4,2.4,3.7*34
$GPRMC,182810.000,A,3748.7335,N,12217.7298,W,1.93,106.60,230812,,,D*72
$GPVTG,106.60,T,,M,1.93,N,3.6,K,D*07
$GPGGA,182811.000,3748.7335,N,12217.7290,W,2,04,2.4,18.1,M,-25.1,M,1.8,0000*79
$GPGSA,A,3,07,17,01,26,,,,,,,,,4.4,2.4,3.7*34
$GPRMC,182811.000,A,3748.7335,N,12217.7290,W,2.06,141.16,230812,,,D*76
$GPVTG,141.16,T,,M,2.06,N,3.8,K,D*04
$GPGGA,182812.000,3748.7336,N,12217.7286,W,2,04,2.4,16.5,M,-25.1,M,2.8,0000*77
$GPGSA,A,3,07,17,01,26,,,,,,,,,4.4,2.4,3.7*34
$GPRMC,182812.000,A,3748.7336,N,12217.7286,W,2.18,109.08,230812,,,D*7D
$GPVTG,109.08,T,,M,2.18,N,4.0,K,D*07
$GPGGA,182813.000,3748.7334,N,12217.7281,W,2,04,2.4,15.3,M,-25.1,M,3.8,0000*77
$GPGSA,A,3,07,17,01,26,,,,,,,,,4.4,2.4,3.7*34
$GPRMC,182813.000,A,3748.7334,N,12217.7281,W,2.43,115.61,230812,,,D*75
$GPVTG,115.61,T,,M,2.43,N,4.5,K,D*0E
$GPGGA,182814.000,3748.7323,N,12217.7279,W,2,04,2.4,14.5,M,-25.1,M,4.8,0000*71
$GPGSA,A,3,07,17,01,26,,,,,,,,,4.4,2.4,3.7*34
$GPGSV,3,1,11,17,66,179,30,28,64,018,22,26,53,252,24,08,52,105,32*7B
$GPGSV,3,2,11,01,20,071,21,27,17,311,20,11,17,054,26,07,15,122,37*79
$GPGSV,3,3,11,09,02,309,,04,00,172,,48,44,197,33*4B
$GPRMC,182814.000,A,3748.7323,N,12217.7279,W,1.94,124.53,230812,,,D*79
$GPVTG,124.53,T,,M,1.94,N,3.6,K,D*00
$GPGGA,182815.000,3748.7309,N,12217.7272,W,2,04,2.4,14.8,M,-25.1,M,5.8,0000*7F
$GPGSA,A,3,07,17,01,26,,,,,,,,,4.4,2.4,3.7*34
$GPRMC,182815.000,A,3748.7309,N,12217.7272,W,2.79,137.39,230812,,,D*75
$GPVTG,137.39,T,,M,2.79,N,5.2,K,D*0C
$GPGGA,182816.000,3748.7296,N,12217.7271,W,2,04,2.4,13.9,M,-25.1,M,6.8,0000*7D
$GPGSA,A,3,07,17,01,26,,,,,,,,,4.4,2.4,3.7*34
$GPRMC,182816.000,A,3748.7296,N,12217.7271,W,3.28,151.42,230812,,,D*7B
$GPVTG,151.42,T,,M,3.28,N,6.1,K,D*05
$GPGGA,182817.000,3748.7283,N,12217.7267,W,2,04,2.4,13.5,M,-25.1,M,1.8,0000*74
$GPGSA,A,3,07,17,01,26,,,,,,,,,4.4,2.4,3.7*34
$GPRMC,182817.000,A,3748.7283,N,12217.7267,W,3.15,156.10,230812,,,D*77
$GPVTG,156.10,T,,M,3.15,N,5.8,K,D*01
$GPGGA,182818.000,3748.7273,N,12217.7268,W,2,04,2.4,12.5,M,-25.1,M,1.8,0000*7A
$GPGSA,A,3,07,17,01,26,,,,,,,,,4.4,2.4,3.7*34
$GPRMC,182818.000,A,3748.7273,N,12217.7268,W,3.15,157.33,230812,,,D*78
$GPVTG,157.33,T,,M,3.15,N,5.8,K,D*01
$GPGGA,182819.000,3748.7264,N,12217.7270,W,2,04,2.4,11.0,M,-25.1,M,1.8,0000*72
$GPGSA,A,3,07,17,01,26,,,,,,,,,4.4,2.4,3.7*34
$GPGSV,3,1,11,17,66,179,31,28,64,018,23,26,53,252,33,08,52,105,32*7D
$GPGSV,3,2,11,01,20,071,20,27,17,312,19,11,17,054,19,07,15,122,36*7C
$GPGSV,3,3,11,09,02,309,,04,00,172,,48,44,197,38*40
$GPRMC,182819.000,A,3748.7264,N,12217.7270,W,2.70,145.09,230812,,,D*7E
$GPGGA,182820.000,3748.7256,N,12217.7270,W,2,04,2.4,9.7,M,-25.1,M,2.8,0000*44
$GPGSA,A,3,07,17,01,26,,,,,,,,,4.4,2.4,3.7*34
$GPRMC,182820.000,A,3748.7256,N,12217.7270,W,2.35,132.40,230812,,,D*79
$GPVTG,132.40,T,,M,2.35,N,4.4,K,D*08
$GPGGA,182821.000,3748.7248,N,12217.7270,W,2,04,2.4,8.4,M,-25.1,M,3.8,0000*49
$GPGSA,A,3,07,17,01,26,,,,,,,,,4.4,2.4,3.7*34
$GPRMC,182821.000,A,3748.7248,N,12217.7270,W,2.23,130.92,230812,,,D*7D
$GPVTG,130.92,T,,M,2.23,N,4.1,K,D*07
$GPGGA,182822.000,3748.7236,N,12217.7272,W,2,04,2.4,7.1,M,-25.1,M,4.8,0000*4C
$GPGSA,A,3,07,17,01,26,,,,,,,,,4.4,2.4,3.7*34
$GPRMC,182822.000,A,3748.7236,N,12217.7272,W,2.13,125.60,230812,,,D*7F
$GPVTG,125.60,T,,M,2.13,N,4.0,K,D*0C
$GPGGA,182823.000,3748.7222,N,12217.7273,W,2,04,2.4,5.9,M,-25.1,M,1.8,0000*46
$GPGSA,A,3,07,17,01,26,,,,,,,,,4.4,2.4,3.7*34
$GPRMC,182823.000,A,3748.7222,N,12217.7273,W,1.93,118.04,230812,,,D*7D
$GPVTG,118.04,T,,M,1.93,N,3.6,K,D*0A
$GPGGA,182824.000,3748.7210,N,12217.7273,W,2,04,2.4,4.9,M,-25.1,M,1.8,0000*41
$GPGSA,A,3,07,17,01,26,,,,,,,,,4.4,2.4,3.7*34
$GPGSV,3,1,11,17,66,179,32,28,64,018,23,26,53,252,32,08,52,105,31*7C
$GPGSV,3,2,11,01,20,071,20,27,17,312,18,11,17,054,21,07,15,122,37*77
$GPGSV,3,3,11,09,02,309,,04,00,172,,48,44,197,36*4E
$GPRMC,182824.000,A,3748.7210,N,12217.7273,W,2.00,113.44,230812,,,D*7D
$GPVTG,113.44,T,,M,2.00,N,3.7,K,D*0D
$GPGGA,182825.000,3748.7198,N,12217.7271,W,2,04,2.4,4.1,M,-25.1,M,1.8,0000*49
$GPGSA,A,3,07,17,01,26,,,,,,,,,4.4,2.4,3.7*34
$GPRMC,182825.000,A,3748.7198,N,12217.7271,W,2.40,140.65,230812,,,D*7C
$GPVTG,140.65,T,,M,2.40,N,4.4,K,D*08
$GPGGA,182826.000,3748.7189,N,12217.7268,W,2,04,2.4,3.4,M,-25.1,M,1.8,0000*40
$GPGSA,A,3,07,17,01,26,,,,,,,,,4.4,2.4,3.7*34
$GPRMC,182826.000,A,3748.7189,N,12217.7268,W,2.30,144.26,230812,,,D*73
$GPVTG,144.26,T,,M,2.30,N,4.3,K,D*0B
$GPGGA,182827.000,3748.7185,N,12217.7263,W,2,04,2.4,3.0,M,-25.1,M,2.8,0000*41
$GPGSA,A,3,07,17,01,26,,,,,,,,,4.4,2.4,3.7*34
$GPRMC,182827.000,A,3748.7185,N,12217.7263,W,2.32,136.91,230812,,,D*7E
$GPVTG,136.91,T,,M,2.32,N,4.3,K,D*00
$GPGGA,182828.000,3748.7188,N,12217.7253,W,2,04,2.4,2.9,M,-25.1,M,3.8,0000*49
$GPGSA,A,3,07,17,01,26,,,,,,,,,4.4,2.4,3.7*34
$GPRMC,182828.000,A,3748.7188,N,12217.7253,W,2.19,113.93,230812,,,D*73
$GPVTG,113.93,T,,M,2.19,N,4.1,K,D*0E
$GPGGA,182829.000,3748.7193,N,12217.7242,W,2,04,2.4,2.9,M,-25.1,M,1.8,0000*40
$GPGSA,A,3,07,17,01,26,,,,,,,,,4.4,2.4,3.7*34
$GPGSV,3,1,11,17,66,179,32,28,64,018,23,26,53,252,32,08,52,105,32*7F
$GPGSV,3,2,11,01,20,071,28,27,17,312,19,11,17,054,21,07,15,122,37*7E
$GPGSV,3,3,11,09,02,309,,04,00,172,,48,44,197,37*4F
$GPRMC,182829.000,A,3748.7193,N,12217.7242,W,1.86,122.68,230812,,,D*7B
$GPVTG,122.68,T,,M,1.86,N,3.4,K,D*0F
$GPGGA,182830.000,3748.7201,N,12217.7231,W,2,04,2.4,3.0,M,-25.1,M,1.8,0000*4C
$GPGSA,A,3,07,17,01,26,,,,,,,,,4.4,2.4,3.7*34
$GPRMC,182830.000,A,3748.7201,N,12217.7231,W,1.97,113.45,230812,,,D*72
$GPVTG,113.45,T,,M,1.97,N,3.7,K,D*01
$GPGGA,182831.000,3748.7208,N,12217.7220,W,2,04,2.4,3.1,M,-25.1,M,1.8,0000*45
$GPGSA,A,3,07,17,01,26,,,,,,,,,4.4,2.4,3.7*34
$GPRMC,182831.000,A,3748.7208,N,12217.7220,W,1.86,123.62,230812,,,D*7C
$GPVTG,123.62,T,,M,1.86,N,3.4,K,D*04
$GPGGA,182832.000,3748.7218,N,12217.7208,W,2,04,2.4,3.4,M,-25.1,M,2.8,0000*4B
$GPGSA,A,3,07,17,01,26,,,,,,,,,4.4,2.4,3.7*34
$GPRMC,182832.000,A,3748.7218,N,12217.7208,W,1.90,96.14,230812,,,D*4D
$GPVTG,96.14,T,,M,1.90,N,3.5,K,D*3C
$GPGGA,182833.000,3748.7225,N,12217.7192,W,2,04,2.4,4.7,M,-25.1,M,3.8,0000*41
$GPGSA,A,3,07,17,01,26,,,,,,,,,4.4,2.4,3.7*34
$GPRMC,182833.000,A,3748.7225,N,12217.7192,W,1.99,84.62,230812,,,D*49
$GPVTG,84.62,T,,M,1.99,N,3.7,K,D*35
$GPGGA,182834.000,3748.7233,N,12217.7177,W,2,04,2.4,5.9,M,-25.1,M,4.8,0000*42
$GPGSA,A,3,07,17,01,26,,,,,,,,,4.4,2.4,3.7*34
$GPGSV,3,1,11,17,66,179,32,28,64,018,24,26,53,252,22,08,52,105,32*79
$GPGSV,3,2,11,01,20,071,33,27,17,312,20,11,17,054,37,07,15,122,35*7B
$GPGSV,3,3,11,09,02,309,,04,00,172,,48,44,197,34*4C
$GPRMC,182834.000,A,3748.7233,N,12217.7177,W,2.09,65.67,230812,,,D*42
$GPGGA,182835.000,3748.7241,N,12217.7162,W,2,04,2.4,7.2,M,-25.1,M,1.8,0000*4E
$GPGSA,A,3,07,17,01,26,,,,,,,,,4.4,2.4,3.7*34
$GPRMC,182835.000,A,3748.7241,N,12217.7162,W,2.14,52.76,230812,,,D*4A
$GPVTG,52.76,T,,M,2.14,N,4.0,K,D*3D
$GPGGA,182836.000,3748.7249,N,12217.7147,W,2,04,2.4,8.8,M,-25.1,M,1.8,0000*47
$GPGSA,A,3,07,17,01,26,,,,,,,,,4.4,2.4,3.7*34
$GPRMC,182836.000,A,3748.7249,N,12217.7147,W,2.16,50.11,230812,,,D*47
$GPVTG,50.11,T,,M,2.16,N,4.0,K,D*3C
$GPGGA,182837.000,3748.7257,N,12217.7132,W,2,04,2.4,10.7,M,-25.1,M,2.8,0000*7E
$GPGSA,A,3,07,17,01,26,,,,,,,,,4.4,2.4,3.7*34
$GPRMC,182837.000,A,3748.7257,N,12217.7132,W,2.26,47.06,230812,,,D*48
$GPVTG,47.06,T,,M,2.26,N,4.2,K,D*3D
$GPGGA,182838.000,3748.7267,N,12217.7123,W,2,04,2.4,11.4,M,-25.1,M,3.8,0000*71
$GPGSA,A,3,07,17,01,26,,,,,,,,,4.4,2.4,3.7*34
$GPRMC,182838.000,A,3748.7267,N,12217.7123,W,2.33,34.46,230812,,,D*40
$GPVTG,34.46,T,,M,2.33,N,4.3,K,D*38
$GPGGA,182839.000,3748.7273,N,12217.7108,W,2,04,2.4,12.8,M,-25.1,M,4.8,0000*74
$GPGSA,A,3,07,17,01,26,,,,,,,,,4.4,2.4,3.7*34
$GPGSV,3,1,11,17,66,179,27,28,64,018,29,26,53,252,21,08,52,105,34*75
$GPGSV,3,2,11,01,20,071,37,27,17,312,20,11,17,054,39,07,15,122,28*7D
$GPGSV,3,3,11,09,02,309,,04,00,172,,48,44,197,27*4E
$GPRMC,182839.000,A,3748.7273,N,12217.7108,W,2.33,38.16,230812,,,D*44
$GPVTG,38.16,T,,M,2.33,N,4.3,K,D*31
$GPGGA,182840.000,3748.7283,N,12217.7100,W,2,04,2.4,13.3,M,-25.1,M,5.8,0000*76
$GPGSA,A,3,07,17,01,26,,,,,,,,,4.4,2.4,3.7*34
$GPRMC,182840.000,A,3748.7283,N,12217.7100,W,2.20,38.82,230812,,,D*42
$GPVTG,38.82,T,,M,2.20,N,4.1,K,D*3C
$GPGGA,182841.000,3748.7291,N,12217.7092,W,2,04,2.4,13.5,M,-25.1,M,6.8,0000*7B
$GPGSA,A,3,07,17,01,26,,,,,,,,,4.4,2.4,3.7*34
$GPRMC,182841.000,A,3748.7291,N,12217.7092,W,2.08,41.94,230812,,,D*49
$GPVTG,41.94,T,,M,2.08,N,3.9,K,D*30
$GPGGA,182842.000,3748.7299,N,12217.7077,W,2,04,2.4,16.1,M,-25.1,M,7.8,0000*7B
$GPGSA,A,3,07,17,01,26,,,,,,,,,4.4,2.4,3.7*34
$GPRMC,182842.000,A,3748.7299,N,12217.7077,W,2.08,45.71,230812,,,D*46
$GPVTG,45.71,T,,M,2.08,N,3.8,K,D*3E
$GPGGA,182843.000,3748.7308,N,12217.7061,W,2,04,2.4,18.3,M,-25.1,M,8.8,0000*77
$GPGSA,A,3,07,17,01,26,,,,,,,,,4.4,2.4,3.7*34
$GPRMC,182843.000,A,3748.7308,N,12217.7061,W,2.17,52.87,230812,,,D*48
$GPVTG,52.87,T,,M,2.17,N,4.0,K,D*30
$GPGGA,182844.000,3748.7319,N,12217.7053,W,2,04,2.4,19.3,M,-25.1,M,9.8,0000*71
$GPGSA,A,3,07,17,01,26,,,,,,,,,4.4,2.4,3.7*34
$GPGSV,3,1,11,17,66,179,27,28,64,018,29,26,53,252,22,08,52,105,35*77
$GPGSV,3,2,11,01,20,071,37,27,17,312,21,11,17,054,36,07,15,122,23*78
$GPGSV,3,3,11,09,02,309,,04,00,172,,48,44,197,27*4E
$GPRMC,182844.000,A,3748.7319,N,12217.7053,W,2.40,51.62,230812,,,D*44
$GPVTG,51.62,T,,M,2.40,N,4.4,K,D*3E
$GPGGA,182845.000,3748.7330,N,12217.7046,W,2,04,2.4,20.1,M,-25.1,M,10.8,0000*4F
$GPGSA,A,3,07,17,01,26,,,,,,,,,4.4,2.4,3.7*34
$GPRMC,182845.000,A,3748.7330,N,12217.7046,W,2.77,45.65,230812,,,D*4C
$GPVTG,45.65,T,,M,2.77,N,5.1,K,D*3C
$GPGGA,182846.000,3748.7334,N,12217.7033,W,2,04,2.4,21.4,M,-25.1,M,11.8,0000*4F
$GPGSA,A,3,07,17,01,26,,,,,,,,,4.4,2.4,3.7*34
$GPRMC,182846.000,A,3748.7334,N,12217.7033,W,2.50,42.20,230812,,,D*4A
$GPVTG,42.20,T,,M,2.50,N,4.6,K,D*39
$GPGGA,182847.000,3748.7338,N,12217.7024,W,2,04,2.4,22.5,M,-25.1,M,12.8,0000*45
$GPGSA,A,3,07,17,01,26,,,,,,,,,4.4,2.4,3.7*34
$GPRMC,182847.000,A,3748.7338,N,12217.7024,W,2.12,43.23,230812,,,D*45
$GPVTG,43.23,T,,M,2.12,N,3.9,K,D*35
$GPGGA,182848.000,3748.7345,N,12217.7025,W,2,04,2.4,22.2,M,-25.1,M,13.8,0000*47
$GPGSA,A,3,07,17,01,26,,,,,,,,,4.4,2.4,3.6*35
$GPRMC,182848.000,A,3748.7345,N,12217.7025,W,1.79,45.92,230812,,,D*43
$GPVTG,45.92,T,,M,1.79,N,3.3,K,D*3D
$GPGGA,182849.000,3748.7351,N,12217.7018,W,2,04,2.4,23.1,M,-25.1,M,14.8,0000*48
$GPGSA,A,3,07,17,01,26,,,,,,,,,4.4,2.4,3.6*35
$GPGSV,3,1,11,17,67,179,27,28,64,019,29,26,53,251,22,08,52,105,35*74
$GPGSV,3,2,11,01,20,071,38,27,17,312,22,11,17,053,39,07,15,123,31*7E
$GPGSV,3,3,11,09,02,309,,04,00,172,,51,43,156,34*4E
$GPRMC,182849.000,A,3748.7351,N,12217.7018,W,2.14,30.80,230812,,,D*40
$GPVTG,30.80,T,,M,2.14,N,4.0,K,D*30
$GPGGA,182850.000,3748.7356,N,12217.7007,W,2,04,2.4,24.7,M,-25.1,M,15.8,0000*49
$GPGSA,A,3,07,17,01,26,,,,,,,,,4.4,2.4,3.6*35
$GPRMC,182850.000,A,3748.7356,N,12217.7007,W,1.91,30.90,230812,,,D*4E
$GPVTG,30.90,T,,M,1.91,N,3.5,K,D*3D
$GPGGA,182851.000,3748.7362,N,12217.7002,W,2,04,2.4,25.0,M,-25.1,M,16.8,0000*4F
$GPGSA,A,3,07,17,01,26,,,,,,,,,4.3,2.4,3.6*32
$GPRMC,182851.000,A,3748.7362,N,12217.7002,W,2.05,31.10,230812,,,D*4A
$GPVTG,31.10,T,,M,2.05,N,3.8,K,D*37
$GPGGA,182852.000,3748.7370,N,12217.7001,W,2,04,2.4,23.9,M,-25.1,M,17.8,0000*42
$GPGSA,A,3,07,17,01,26,,,,,,,,,4.3,2.4,3.6*32
$GPRMC,182852.000,A,3748.7370,N,12217.7001,W,2.21,22.78,230812,,,D*43
$GPVTG,22.78,T,,M,2.21,N,4.1,K,D*33
$GPGGA,182853.000,3748.7376,N,12217.6991,W,2,04,2.4,25.3,M,-25.1,M,1.8,0000*7F
$GPGSA,A,3,07,17,01,26,,,,,,,,,4.3,2.4,3.6*32
$GPRMC,182853.000,A,3748.7376,N,12217.6991,W,2.15,23.30,230812,,,D*4F
$GPVTG,23.30,T,,M,2.15,N,4.0,K,D*38
$GPGGA,182854.000,3748.7383,N,12217.6985,W,2,04,2.4,25.8,M,-25.1,M,1.8,0000*7C
$GPGSA,A,3,07,17,01,26,,,,,,,,,4.3,2.4,3.6*32
$GPGSV,3,1,11,17,67,179,27,28,64,019,30,26,53,251,22,08,52,105,35*7C
$GPGSV,3,2,11,01,20,071,38,27,17,312,21,11,17,053,39,07,15,123,33*7F
$GPGSV,3,3,11,09,02,309,,04,00,172,,51,43,156,33*49
$GPRMC,182854.000,A,3748.7383,N,12217.6985,W,2.29,15.09,230812,,,D*47
$GPVTG,15.09,T,,M,2.29,N,4.2,K,D*3A
$GPGGA,182855.000,3748.7392,N,12217.6992,W,2,04,2.4,23.5,M,-25.1,M,1.8,0000*70
$GPGSA,A,3,07,17,01,26,,,,,,,,,4.3,2.4,3.6*32
$GPRMC,182855.000,A,3748.7392,N,12217.6992,W,2.23,12.14,230812,,,D*41
$GPVTG,12.14,T,,M,2.23,N,4.1,K,D*38
$GPGGA,182856.000,3748.7400,N,12217.6990,W,2,04,2.4,22.5,M,-25.1,M,2.8,0000*7F
$GPGSA,A,3,07,17,01,26,,,,,,,,,4.3,2.4,3.6*32
$GPRMC,182856.000,A,3748.7400,N,12217.6990,W,2.23,15.52,230812,,,D*49
$GPVTG,15.52,T,,M,2.23,N,4.1,K,D*3D
$GPGGA,182857.000,3748.7406,N,12217.6981,W,2,04,2.4,22.8,M,-25.1,M,3.8,0000*74
$GPGSA,A,3,07,17,01,26,,,,,,,,,4.3,2.4,3.6*32
$GPRMC,182857.000,A,3748.7406,N,12217.6981,W,2.54,31.65,230812,,,D*4C
$GPVTG,31.65,T,,M,2.54,N,4.7,K,D*39
$GPGGA,182858.000,3748.7411,N,12217.6971,W,2,04,2.4,23.8,M,-25.1,M,1.8,0000*71
$GPGSA,A,3,07,17,01,26,,,,,,,,,4.3,2.4,3.6*32
$GPRMC,182858.000,A,3748.7411,N,12217.6971,W,2.07,28.48,230812,,,D*4B
$GPVTG,28.48,T,,M,2.07,N,3.8,K,D*30
$GPGGA,182859.000,3748.7415,N,12217.6960,W,2,04,2.4,26.0,M,-25.1,M,1.8,0000*79
$GPGSA,A,3,07,17,01,26,,,,,,,,,4.3,2.4,3.6*32
$GPGSV,3,1,11,17,67,179,27,28,64,019,30,26,53,251,22,08,52,105,35*7C
$GPGSV,3,2,11,01,20,071,39,27,17,312,21,11,17,053,34,07,15,123,30*70
$GPGSV,3,3,11,09,02,309,,04,00,172,,51,43,156,33*49
$GPRMC,182859.000,A,3748.7415,N,12217.6960,W,2.06,23.93,230812,,,D*42
$GPVTG,23.93,T,,M,2.06,N,3.8,K,D*3C
$GPGGA,182900.000,3748.7420,N,12217.6953,W,2,04,2.4,25.6,M,-25.1,M,2.8,0000*74
$GPGSA,A,3,07,17,01,26,,,,,,,,,4.3,2.4,3.6*32
$GPRMC,182900.000,A,3748.7420,N,12217.6953,W,1.96,48.72,230812,,,D*41
$GPVTG,48.72,T,,M,1.96,N,3.6,K,D*3A
$GPGGA,182901.000,3748.7425,N,12217.6944,W,2,04,2.4,25.5,M,-25.1,M,1.8,0000*76
$GPGSA,A,3,07,17,01,26,,,,,,,,,4.3,2.4,3.6*32
$GPRMC,182901.000,A,3748.7425,N,12217.6944,W,2.04,36.80,230812,,,D*4F
$GPVTG,36.80,T,,M,2.04,N,3.8,K,D*38
$GPGGA,182902.000,3748.7433,N,12217.6949,W,2,04,2.4,22.8,M,-25.1,M,2.8,0000*76
$GPGSA,A,3,07,17,01,26,,,,,,,,,4.3,2.4,3.6*32
$GPRMC,182902.000,A,3748.7433,N,12217.6949,W,2.24,30.44,230812,,,D*4A
$GPVTG,30.44,T,,M,2.24,N,4.2,K,D*39
$GPGGA,182903.000,3748.7441,N,12217.6954,W,2,04,2.4,21.6,M,-25.1,M,1.8,0000*70
$GPGSA,A,3,07,17,01,26,,,,,,,,,4.3,2.4,3.6*32
$GPRMC,182903.000,A,3748.7441,N,12217.6954,W,2.06,14.88,230812,,,D*44
$GPVTG,14.88,T,,M,2.06,N,3.8,K,D*32
$GPGGA,182904.000,3748.7447,N,12217.6949,W,2,04,2.4,22.3,M,-25.1,M,2.8,0000*78
$GPGSA,A,3,07,17,01,26,,,,,,,,,4.3,2.4,3.6*32
$GPGSV,3,1,11,17,67,179,27,28,64,019,30,26,53,251,23,08,52,105,36*7E
$GPGSV,3,2,11,01,20,071,38,27,17,312,16,11,17,053,33,07,15,123,32*70
$GPGSV,3,3,11,09,02,309,,04,00,172,,51,43,156,33*49
$GPRMC,182904.000,A,3748.7447,N,12217.6949,W,1.96,10.93,230812,,,D*4D
$GPVTG,10.93,T,,M,1.96,N,3.6,K,D*38
$GPGGA,182905.000,3748.7451,N,12217.6941,W,2,04,2.4,24.0,M,-25.1,M,1.8,0000*70
$GPGSA,A,3,07,17,01,26,,,,,,,,,4.3,2.4,3.6*32
$GPRMC,182905.000,A,3748.7451,N,12217.6941,W,2.23,7.06,230812,,,D*74
$GPVTG,7.06,T,,M,2.23,N,4.1,K,D*0F
$GPGGA,182906.000,3748.7457,N,12217.6932,W,2,04,2.4,24.9,M,-25.1,M,1.8,0000*78
$GPGSA,A,3,07,17,01,26,,,,,,,,,4.3,2.4,3.6*32
$GPRMC,182906.000,A,3748.7457,N,12217.6932,W,2.35,18.46,230812,,,D*48
$GPVTG,18.46,T,,M,2.35,N,4.4,K,D*37
$GPGGA,182907.000,3748.7464,N,12217.6928,W,2,04,2.4,24.4,M,-25.1,M,1.8,0000*7F
$GPGSA,A,3,07,17,01,26,,,,,,,,,4.3,2.4,3.6*32
$GPRMC,182907.000,A,3748.7464,N,12217.6928,W,2.42,27.77,230812,,,D*4C
$GPVTG,27.77,T,,M,2.42,N,4.5,K,D*38
$GPGGA,182908.000,3748.7472,N,12217.6931,W,2,04,2.4,21.9,M,-25.1,M,2.8,0000*74
$GPGSA,A,3,07,17,01,26,,,,,,,,,4.3,2.4,3.6*32
$GPRMC,182908.000,A,3748.7472,N,12217.6931,W,1.69,20.10,230812,,,D*40
$GPVTG,20.10,T,,M,1.69,N,3.1,K,D*37
$GPGGA,182909.000,3748.7478,N,12217.6930,W,2,04,2.4,20.4,M,-25.1,M,3.8,0000*73
$GPGSA,A,3,07,17,01,26,,,,,,,,,4.3,2.4,3.6*32
$GPGSV,3,1,11,17,67,179,21,28,64,019,29,26,53,251,23,08,52,105,32*74
$GPGSV,3,2,11,01,20,071,29,27,17,312,,11,17,053,35,07,15,123,37*74
$GPGSV,3,3,11,09,02,309,,04,00,172,,51,43,156,27*4C
$GPRMC,182909.000,A,3748.7478,N,12217.6930,W,1.97,12.10,230812,,,D*4A
$GPVTG,12.10,T,,M,1.97,N,3.7,K,D*31
$GPGGA,182910.000,3748.7486,N,12217.6932,W,2,04,2.4,19.0,M,-25.1,M,4.8,0000*71
$GPGSA,A,3,07,17,01,26,,,,,,,,,4.3,2.4,3.6*32
$GPRMC,182910.000,A,3748.7486,N,12217.6932,W,1.91,2.38,230812,,,D*7C
$GPVTG,2.38,T,,M,1.91,N,3.5,K,D*0E
$GPGGA,182911.000,3748.7493,N,12217.6936,W,2,04,2.4,17.6,M,-25.1,M,5.8,0000*79
$GPGSA,A,3,07,17,01,26,,,,,,,,,4.3,2.4,3.6*32
$GPRMC,182911.000,A,3748.7493,N,12217.6936,W,2.26,7.90,230812,,,D*75
$GPVTG,7.90,T,,M,2.26,N,4.2,K,D*06
$GPGGA,182912.000,3748.7500,N,12217.6936,W,2,04,2.4,14.5,M,-25.1,M,6.8,0000*72
$GPGSA,A,3,07,17,01,26,,,,,,,,,4.3,2.4,3.6*32
$GPRMC,182912.000,A,3748.7500,N,12217.6936,W,1.89,28.79,230812,,,D*41
$GPVTG,28.79,T,,M,1.89,N,3.5,K,D*3A
$GPGGA,182913.000,3748.7505,N,12217.6931,W,2,04,2.4,12.8,M,-25.1,M,1.8,0000*7D
$GPGSA,A,3,07,17,01,26,,,,,,,,,4.3,2.4,3.6*32
$GPRMC,182913.000,A,3748.7505,N,12217.6931,W,2.32,6.34,230812,,,D*74
$GPVTG,6.34,T,,M,2.32,N,4.3,K,D*0D
$GPGGA,182914.000,3748.7512,N,12217.6927,W,2,04,2.4,11.4,M,-25.1,M,2.8,0000*77
$GPGSA,A,3,07,17,01,26,,,,,,,,,4.3,2.4,3.6*32
$GPGSV,3,1,11,17,67,179,21,28,64,019,29,26,53,251,22,08,52,105,33*74
$GPGSV,3,2,11,01,20,071,38,27,17,312,,11,17,053,36,07,15,123,33*73
$GPGSV,3,3,11,09,02,309,,04,00,172,,51,43,156,28*43
$GPRMC,182914.000,A,3748.7512,N,12217.6927,W,2.22,11.72,230812,,,D*47
$GPVTG,11.72,T,,M,2.22,N,4.1,K,D*3A
$GPGGA,182915.000,3748.7517,N,12217.6917,W,2,04,2.4,11.9,M,-25.1,M,3.8,0000*7C
$GPGSA,A,3,07,17,01,26,,,,,,,,,4.3,2.4,3.6*32
$GPRMC,182915.000,A,3748.7517,N,12217.6917,W,2.14,19.74,230812,,,D*4B
$GPVTG,19.74,T,,M,2.14,N,4.0,K,D*30
$GPGGA,182916.000,3748.7523,N,12217.6917,W,2,04,2.4,11.0,M,-25.1,M,4.8,0000*76
$GPGSA,A,3,07,17,01,26,,,,,,,,,4.3,2.4,3.6*32
$GPRMC,182916.000,A,3748.7523,N,12217.6917,W,2.19,8.10,230812,,,D*70
$GPVTG,8.10,T,,M,2.19,N,4.0,K,D*0F
$GPGGA,182917.000,3748.7534,N,12217.6926,W,2,04,2.4,8.6,M,-25.1,M,5.8,0000*4C
$GPGSA,A,3,07,17,01,26,,,,,,,,,4.3,2.4,3.6*32
$GPRMC,182917.000,A,3748.7534,N,12217.6926,W,1.82,350.81,230812,,,D*72
$GPVTG,350.81,T,,M,1.82,N,3.4,K,D*0B
$GPGGA,182918.000,3748.7543,N,12217.6934,W,2,04,2.4,6.5,M,-25.1,M,1.8,0000*49
$GPGSA,A,3,07,17,01,26,,,,,,,,,4.3,2.4,3.6*32
$GPRMC,182918.000,A,3748.7543,N,12217.6934,W,2.21,2.13,230812,,,D*7B
$GPVTG,2.13,T,,M,2.21,N,4.1,K,D*0C
$GPGGA,182919.000,3748.7552,N,12217.6935,W,2,04,2.4,5.9,M,-25.1,M,2.8,0000*45
$GPGSA,A,3,07,17,01,26,,,,,,,,,4.3,2.4,3.6*32
$GPGSV,3,1,11,17,67,178,27,28,64,019,29,26,53,251,22,08,52,105,34*74
$GPGSV,3,2,11,01,20,070,38,27,17,312,,11,16,053,36,07,14,123,27*77
$GPGSV,3,3,11,09,03,309,,04,00,172,,51,43,156,30*4B
$GPRMC,182919.000,A,3748.7552,N,12217.6935,W,2.49,359.40,230812,,,D*7E
$GPVTG,359.40,T,,M,2.49,N,4.6,K,D*0E
$GPGGA,182920.000,3748.7556,N,12217.6922,W,2,04,2.4,8.1,M,-25.1,M,3.8,0000*49
$GPGSA,A,3,07,17,01,26,,,,,,,,,4.3,2.4,3.6*32
$GPRMC,182920.000,A,3748.7556,N,12217.6922,W,2.30,18.93,230812,,,D*40
$GPVTG,18.93,T,,M,2.30,N,4.3,K,D*3D
$GPGGA,182921.000,3748.7562,N,12217.6915,W,2,04,2.4,9.0,M,-25.1,M,4.8,0000*4C
$GPGSA,A,3,07,17,01,26,,,,,,,,,4.3,2.4,3.6*32
$GPRMC,182921.000,A,3748.7562,N,12217.6915,W,2.29,17.37,230812,,,D*4B
$GPVTG,17.37,T,,M,2.29,N,4.2,K,D*35
$GPGGA,182922.000,3748.7568,N,12217.6912,W,2,04,2.4,9.0,M,-25.1,M,5.8,0000*43
$GPGSA,A,3,07,17,01,26,,,,,,,,,4.3,2.4,3.6*32
$GPRMC,182922.000,A,3748.7568,N,12217.6912,W,2.29,9.41,230812,,,D*7B
$GPVTG,9.41,T,,M,2.29,N,4.2,K,D*0B
$GPGGA,182923.000,3748.7573,N,12217.6904,W,2,04,2.4,9.6,M,-25.1,M,1.8,0000*4D
$GPGSA,A,3,07,17,01,26,,,,,,,,,4.3,2.4,3.6*32
$GPRMC,182923.000,A,3748.7573,N,12217.6904,W,2.18,9.77,230812,,,D*70
$GPVTG,9.77,T,,M,2.18,N,4.0,K,D*0E
$GPGGA,182924.000,3748.7580,N,12217.6902,W,2,04,2.4,9.3,M,-25.1,M,2.8,0000*46
$GPGSA,A,3,07,17,01,26,,,,,,,,,4.3,2.4,3.6*32
$GPGSV,3,1,11,17,67,178,27,28,64,019,30,26,53,251,22,08,52,105,35*7D
$GPGSV,3,2,11,01,20,070,29,27,17,312,,11,16,053,32,07,14,123,31*74
$GPGSV,3,3,11,09,03,309,,04,00,172,,51,43,156,33*48
$GPRMC,182924.000,A,3748.7580,N,12217.6902,W,2.13,4.46,230812,,,D*79
$GPVTG,4.46,T,,M,2.13,N,3.9,K,D*04
$GPGGA,182925.000,3748.7591,N,12217.6903,W,2,04,2.4,8.8,M,-25.1,M,1.8,0000*4F
$GPGSA,A,3,07,17,01,26,,,,,,,,,4.3,2.4,3.6*32
$GPRMC,182925.000,A,3748.7591,N,12217.6903,W,2.93,2.76,230812,,,D*74
$GPVTG,2.76,T,,M,2.93,N,5.4,K,D*02
$GPGGA,182926.000,3748.7594,N,12217.6898,W,2,04,2.4,9.5,M,-25.1,M,2.8,0000*45
$GPGSA,A,3,07,17,01,26,,,,,,,,,4.3,2.4,3.6*32
$GPRMC,182926.000,A,3748.7594,N,12217.6898,W,2.25,0.05,230812,,,D*7A
$GPVTG,0.05,T,,M,2.25,N,4.2,K,D*0E
$GPGGA,182927.000,3748.7600,N,12217.6895,W,2,04,2.4,10.6,M,-25.1,M,3.8,0000*7D
$GPGSA,A,3,07,17,01,26,,,,,,,,,4.3,2.4,3.6*32
$GPRMC,182927.000,A,3748.7600,N,12217.6895,W,2.23,2.52,230812,,,D*7E
$GPVTG,2.52,T,,M,2.23,N,4.1,K,D*0B
$GPGGA,182928.000,3748.7602,N,12217.6882,W,2,04,2.4,13.3,M,-25.1,M,4.8,0000*77
$GPGSA,A,3,07,17,01,26,,,,,,,,,4.3,2.4,3.6*32
$GPRMC,182928.000,A,3748.7602,N,12217.6882,W,2.27,21.22,230812,,,D*47
$GPVTG,21.22,T,,M,2.27,N,4.2,K,D*3A
$GPGGA,182929.000,3748.7607,N,12217.6880,W,2,04,2.4,12.4,M,-25.1,M,5.8,0000*76
$GPGSA,A,3,07,17,01,26,,,,,,,,,4.3,2.4,3.6*32
$GPGSV,3,1,11,17,67,178,26,28,64,019,30,26,53,251,22,08,52,105,36*7F
$GPGSV,3,2,11,01,20,070,39,27,17,312,18,11,16,053,40,07,14,123,27*7E
$GPGSV,3,3,11,09,03,309,,04,00,172,,51,43,156,26*4C
$GPRMC,182929.000,A,3748.7607,N,12217.6880,W,2.27,18.32,230812,,,D*4A
$GPVTG,18.32,T,,M,2.27,N,4.2,K,D*31
$GPGGA,182930.000,3748.7608,N,12217.6867,W,2,04,2.4,15.7,M,-25.1,M,6.8,0000*7F
$GPGSA,A,3,07,17,01,26,,,,,,,,,4.3,2.4,3.6*32
$GPRMC,182930.000,A,3748.7608,N,12217.6867,W,2.17,26.43,230812,,,D*4C
$GPVTG,26.43,T,,M,2.17,N,4.0,K,D*3B
$GPGGA,182931.000,3748.7611,N,12217.6857,W,2,04,2.4,17.2,M,-25.1,M,7.8,0000*73
$GPGSA,A,3,07,17,01,26,,,,,,,,,4.3,2.4,3.6*32
$GPRMC,182931.000,A,3748.7611,N,12217.6857,W,2.14,29.29,230812,,,D*46
$GPVTG,29.29,T,,M,2.14,N,4.0,K,D*3B
$GPGGA,182932.000,3748.7618,N,12217.6859,W,2,04,2.4,15.5,M,-25.1,M,1.8,0000*74
$GPGSA,A,3,07,17,01,26,,,,,,,,,4.3,2.4,3.6*32
$GPRMC,182932.000,A,3748.7618,N,12217.6859,W,2.57,18.95,230812,,,D*40
$GPVTG,18.95,T,,M,2.57,N,4.8,K,D*31
$GPGGA,182933.000,3748.7623,N,12217.6856,W,2,04,2.4,15.3,M,-25.1,M,2.8,0000*77
$GPGSA,A,3,07,17,01,26,,,,,,,,,4.3,2.4,3.6*32
$GPRMC,182933.000,A,3748.7623,N,12217.6856,W,2.04,27.66,230812,,,D*40
$GPVTG,27.66,T,,M,2.04,N,3.8,K,D*30
$GPGGA,182934.000,3748.7629,N,12217.6871,W,2,06,1.8,9.4,M,-25.1,M,3.8,0000*49
$GPGSA,A,3,07,28,17,11,01,26,,,,,,,3.3,1.8,2.7*30
$GPGSV,3,1,11,17,67,178,26,28,64,019,30,26,53,251,22,08,52,105,36*7F
$GPGSV,3,2,11,01,20,070,36,27,17,312,18,11,16,053,39,07,14,123,33*7A
$GPGSV,3,3,11,09,03,309,,04,00,172,,51,43,156,30*4B
$GPRMC,182934.000,A,3748.7629,N,12217.6871,W,2.00,12.86,230812,,,D*44
$GPVTG,12.86,T,,M,2.00,N,3.7,K,D*33
$GPGGA,182935.000,3748.7637,N,12217.6875,W,2,06,1.8,6.5,M,-25.1,M,1.8,0000*4F
$GPGSA,A,3,07,28,17,11,01,26,,,,,,,3.3,1.8,2.7*30
$GPRMC,182935.000,A,3748.7637,N,12217.6875,W,2.10,356.98,230812,,,D*73
$GPVTG,356.98,T,,M,2.10,N,3.9,K,D*00
$GPGGA,182936.000,3748.7647,N,12217.6878,W,2,06,1.8,4.1,M,-25.1,M,2.8,0000*43
$GPGSA,A,3,07,28,17,11,01,26,,,,,,,3.3,1.8,2.7*30
$GPRMC,182936.000,A,3748.7647,N,12217.6878,W,2.25,354.27,230812,,,D*7A
$GPVTG,354.27,T,,M,2.25,N,4.2,K,D*0C
$GPGGA,182937.000,3748.7655,N,12217.6875,W,2,06,1.8,3.2,M,-25.1,M,3.8,0000*49
$GPGSA,A,3,07,28,17,11,01,26,,,,,,,3.3,1.8,2.7*30
$GPRMC,182937.000,A,3748.7655,N,12217.6875,W,1.98,2.61,230812,,,D*72
$GPVTG,2.61,T,,M,1.98,N,3.7,K,D*09
$GPGGA,182938.000,3748.7659,N,12217.6867,W,2,06,1.8,3.7,M,-25.1,M,4.8,0000*4B
$GPGSA,A,3,07,28,17,11,01,26,,,,,,,3.3,1.8,2.7*30
$GPRMC,182938.000,A,3748.7659,N,12217.6867,W,1.90,356.94,230812,,,D*72
$GPVTG,356.94,T,,M,1.90,N,3.5,K,D*0B
$GPGGA,182939.000,3748.7663,N,12217.6857,W,2,06,1.8,4.7,M,-25.1,M,5.8,0000*46
$GPGSA,A,3,07,28,17,11,01,26,,,,,,,3.3,1.8,2.7*30
$GPGSV,3,1,11,17,67,178,26,28,64,019,30,26,53,251,22,08,52,106,36*7C
$GPGSV,3,2,11,01,20,070,37,27,18,312,22,11,16,053,40,07,14,123,38*78
$GPGSV,3,3,11,09,03,310,,04,00,172,,51,43,156,34*47
$GPRMC,182939.000,A,3748.7663,N,12217.6857,W,1.89,1.37,230812,,,D*79
$GPVTG,1.37,T,,M,1.89,N,3.5,K,D*0B
$GPGGA,182940.000,3748.7669,N,12217.6848,W,2,06,1.8,5.3,M,-25.1,M,6.8,0000*4A
$GPGSA,A,3,07,28,17,11,01,26,,,,,,,3.3,1.8,2.7*30
$GPRMC,182940.000,A,3748.7669,N,12217.6848,W,2.03,5.14,230812,,,D*77
$GPVTG,5.14,T,,M,2.03,N,3.8,K,D*02
$GPGGA,182941.000,3748.7674,N,12217.6843,W,2,06,1.8,5.2,M,-25.1,M,7.8,0000*4C
$GPGSA,A,3,07,28,17,11,01,26,,,,,,,3.3,1.8,2.7*30
$GPRMC,182941.000,A,3748.7674,N,12217.6843,W,1.89,2.64,230812,,,D*70
$GPVTG,2.64,T,,M,1.89,N,3.5,K,D*0E
$GPGGA,182942.000,3748.7679,N,12217.6834,W,2,06,1.8,6.4,M,-25.1,M,1.8,0000*41
$GPGSA,A,3,07,28,17,11,01,26,,,,,,,3.3,1.8,2.7*30
$GPRMC,182942.000,A,3748.7679,N,12217.6834,W,1.81,358.06,230812,,,D*7E
$GPVTG,358.06,T,,M,1.81,N,3.4,K,D*0F
$GPGGA,182943.000,3748.7683,N,12217.6827,W,2,06,1.8,6.8,M,-25.1,M,2.8,0000*48
$GPGSA,A,3,07,28,17,11,01,26,,,,,,,3.3,1.8,2.7*30
$GPRMC,182943.000,A,3748.7683,N,12217.6827,W,1.47,21.30,230812,,,D*4A
$GPVTG,21.30,T,,M,1.47,N,2.7,K,D*3F
$GPGGA,182944.000,3748.7686,N,12217.6818,W,2,06,1.8,7.5,M,-25.1,M,3.8,0000*4B
$GPGSA,A,3,07,28,17,11,01,26,,,,,,,3.3,1.8,2.7*30
$GPGSV,3,1,11,17,67,178,26,28,64,019,30,26,53,251,22,08,52,106,35*7F
$GPGSV,3,2,11,01,20,070,38,27,18,312,21,11,16,053,38,07,14,123,32*71
$GPGSV,3,3,11,09,03,310,,04,00,172,,51,43,156,30*43
$GPRMC,182944.000,A,3748.7686,N,12217.6818,W,2.04,34.32,230812,,,D*46
$GPVTG,34.32,T,,M,2.04,N,3.8,K,D*33
$GPGGA,182945.000,3748.7691,N,12217.6806,W,2,06,1.8,8.5,M,-25.1,M,4.8,0000*4B
$GPGSA,A,3,07,28,17,11,01,26,,,,,,,3.3,1.8,2.7*30
$GPRMC,182945.000,A,3748.7691,N,12217.6806,W,2.06,28.96,230812,,,D*4F
$GPVTG,28.96,T,,M,2.06,N,3.8,K,D*32
$GPGGA,182946.000,3748.7695,N,12217.6794,W,2,06,1.8,9.5,M,-25.1,M,1.8,0000*4C
$GPGSA,A,3,07,28,17,11,01,26,,,,,,,3.3,1.8,2.7*30
$GPRMC,182946.000,A,3748.7695,N,12217.6794,W,2.19,30.05,230812,,,D*41
$GPVTG,30.05,T,,M,2.19,N,4.0,K,D*30
$GPGGA,182947.000,3748.7699,N,12217.6787,W,2,06,1.8,10.0,M,-25.1,M,1.8,0000*7E
$GPGSA,A,3,07,28,17,11,01,26,,,,,,,3.3,1.8,2.7*30
$GPRMC,182947.000,A,3748.7699,N,12217.6787,W,2.14,28.64,230812,,,D*4D
$GPVTG,28.64,T,,M,2.14,N,4.0,K,D*33
$GPGGA,182948.000,3748.7703,N,12217.6778,W,2,06,1.8,10.8,M,-25.1,M,1.8,0000*7B
$GPGSA,A,3,07,28,17,11,01,26,,,,,,,3.3,1.8,2.7*30
$GPRMC,182948.000,A,3748.7703,N,12217.6778,W,2.10,28.09,230812,,,D*4F
$GPVTG,28.09,T,,M,2.10,N,3.9,K,D*32
$GPGGA,182949.000,3748.7709,N,12217.6770,W,2,06,1.8,11.3,M,-25.1,M,1.8,0000*72
$GPGSA,A,3,07,28,17,11,01,26,,,,,,,3.3,1.8,2.7*30
$GPGSV,3,1,12,17,67,178,27,28,64,020,30,26,53,251,22,08,52,106,36*74
$GPGSV,3,2,12,15,30,300,22,01,20,070,39,27,18,312,21,11,16,053,39*75
$GPGSV,3,3,12,07,14,123,33,09,03,310,,04,00,172,,51,43,156,28*7B
$GPRMC,182949.000,A,3748.7709,N,12217.6770,W,2.26,27.16,230812,,,D*48
$GPGGA,182950.000,3748.7716,N,12217.6768,W,2,06,1.8,10.3,M,-25.1,M,2.8,0000*7F
$GPGSA,A,3,07,28,17,11,01,26,,,,,,,3.3,1.8,2.7*30
$GPRMC,182950.000,A,3748.7716,N,12217.6768,W,2.04,28.29,230812,,,D*44
$GPVTG,28.29,T,,M,2.04,N,3.8,K,D*34
$GPGGA,182951.000,3748.7720,N,12217.6761,W,2,06,1.8,10.8,M,-25.1,M,3.8,0000*78
$GPGSA,A,3,07,28,17,11,01,26,,,,,,,3.3,1.8,2.7*30
$GPRMC,182951.000,A,3748.7720,N,12217.6761,W,2.04,25.39,230812,,,D*45
$GPVTG,25.39,T,,M,2.04,N,3.8,K,D*38
$GPGGA,182952.000,3748.7722,N,12217.6745,W,2,06,1.8,13.4,M,-25.1,M,4.8,0000*77
$GPGSA,A,3,07,28,17,11,01,26,,,,,,,3.3,1.8,2.7*30
$GPRMC,182952.000,A,3748.7722,N,12217.6745,W,2.41,33.28,230812,,,D*44
$GPVTG,33.28,T,,M,2.41,N,4.5,K,D*34
$GPGGA,182953.000,3748.7726,N,12217.6733,W,2,06,1.8,15.1,M,-25.1,M,1.8,0000*75
$GPGSA,A,3,07,28,17,11,01,26,,,,,,,3.3,1.8,2.7*30
$GPRMC,182953.000,A,3748.7726,N,12217.6733,W,2.54,28.96,230812,,,D*4B
$GPVTG,28.96,T,,M,2.54,N,4.7,K,D*3D
$GPGGA,182954.000,3748.7733,N,12217.6732,W,2,06,1.8,14.9,M,-25.1,M,1.8,0000*7E
$GPGSA,A,3,07,28,17,11,01,26,,,,,,,3.3,1.8,2.7*30
$GPGSV,3,1,12,17,67,178,27,28,64,020,30,26,53,251,23,08,52,106,37*74
$GPGSV,3,2,12,15,30,300,21,01,20,070,39,27,18,312,21,11,16,053,39*76
$GPGSV,3,3,12,07,14,123,23,09,03,310,19,04,00,172,,51,43,156,32*79
$GPRMC,182954.000,A,3748.7733,N,12217.6732,W,2.19,28.83,230812,,,D*44
$GPVTG,28.83,T,,M,2.19,N,4.1,K,D*36
$GPGGA,182955.000,3748.7741,N,12217.6738,W,2,06,1.8,13.2,M,-25.1,M,1.8,0000*7C
$GPGSA,A,3,07,28,17,11,01,26,,,,,,,3.2,1.8,2.7*31
$GPRMC,182955.000,A,3748.7741,N,12217.6738,W,1.94,27.54,230812,,,D*49
$GPVTG,27.54,T,,M,1.94,N,3.6,K,D*35
$GPGGA,182956.000,3748.7745,N,12217.6739,W,2,06,1.8,12.9,M,-25.1,M,2.8,0000*73
$GPGSA,A,3,07,28,17,11,01,26,,,,,,,3.2,1.8,2.7*31
$GPRMC,182956.000,A,3748.7745,N,12217.6739,W,1.73,27.77,230812,,,D*47
$GPVTG,27.77,T,,M,1.73,N,3.2,K,D*39
$GPGGA,182957.000,3748.7745,N,12217.6739,W,2,06,1.8,11.3,M,-25.1,M,3.8,0000*7A
$GPGSA,A,3,07,28,17,11,01,26,,,,,,,3.2,1.8,2.7*31
$GPRMC,182957.000,A,3748.7745,N,12217.6739,W,1.49,25.73,230812,,,D*49
$GPVTG,25.73,T,,M,1.49,N,2.8,K,D*3D
$GPGGA,182958.000,3748.7746,N,12217.6736,W,2,06,1.8,10.0,M,-25.1,M,4.8,0000*7C
$GPGSA,A,3,07,28,17,11,01,26,,,,,,,3.2,1.8,2.7*31
$GPRMC,182958.000,A,3748.7746,N,12217.6736,W,2.16,30.53,230812,,,D*45
$GPVTG,30.53,T,,M,2.16,N,4.0,K,D*3C
$GPGGA,182959.000,3748.7748,N,12217.6722,W,2,06,1.8,11.3,M,-25.1,M,1.8,0000*71
$GPGSA,A,3,07,28,17,11,01,26,,,,,,,3.2,1.8,2.7*31
$GPGSV,3,1,12,17,67,178,27,28,64,020,23,26,53,251,23,08,52,106,36*77
$GPGSV,3,2,12,15,30,300,22,01,20,070,39,27,18,312,21,11,16,053,40*7B
$GPGSV,3,3,12,07,14,123,27,09,03,310,17,04,00,172,,51,43,156,31*70
$GPRMC,182959.000,A,3748.7748,N,12217.6722,W,1.92,33.75,230812,,,D*47
$GPVTG,33.75,T,,M,1.92,N,3.6,K,D*35
$GPGGA,183000.000,3748.7750,N,12217.6709,W,2,06,1.8,12.1,M,-25.1,M,1.8,0000*74
$GPGSA,A,3,07,28,17,11,01,26,,,,,,,3.2,1.8,2.7*31
$GPRMC,183000.000,A,3748.7750,N,12217.6709,W,2.15,33.27,230812,,,D*48
$GPVTG,33.27,T,,M,2.15,N,4.0,K,D*3F
$GPGGA,183001.000,3748.7755,N,12217.6699,W,2,06,1.8,13.1,M,-25.1,M,2.8,0000*7A
$GPGSA,A,3,07,28,17,11,01,26,,,,,,,3.2,1.8,2.7*31
$GPRMC,183001.000,A,3748.7755,N,12217.6699,W,2.11,23.71,230812,,,D*42
$GPVTG,23.71,T,,M,2.11,N,3.9,K,D*37
$GPGGA,183002.000,3748.7763,N,12217.6699,W,2,06,1.8,12.1,M,-25.1,M,3.8,0000*7C
$GPGSA,A,3,07,28,17,11,01,26,,,,,,,3.2,1.8,2.7*31
$GPRMC,183002.000,A,3748.7763,N,12217.6699,W,2.13,16.86,230812,,,D*48
$GPVTG,16.86,T,,M,2.13,N,3.9,K,D*3B
$GPGGA,183003.000,3748.7769,N,12217.6692,W,2,06,1.8,11.8,M,-25.1,M,4.8,0000*71
$GPGSA,A,3,07,28,17,11,01,26,,,,,,,3.2,1.8,2.7*31
$GPRMC,183003.000,A,3748.7769,N,12217.6692,W,1.70,18.27,230812,,,D*4B
$GPVTG,18.27,T,,M,1.70,N,3.2,K,D*33
$GPGGA,183004.000,3748.7777,N,12217.6685,W,2,06,1.8,12.1,M,-25.1,M,5.8,0000*74
$GPGSA,A,3,07,28,17,11,01,26,,,,,,,3.2,1.8,2.7*31
$GPGSV,3,1,12,17,67,178,25,28,64,020,28,26,53,251,22,08,52,106,36*7F
$GPGSV,3,2,12,15,30,300,21,01,20,070,37,27,18,312,16,11,16,053,40*72
$GPGSV,3,3,12,07,14,123,35,09,03,310,,04,00,172,,51,43,156,32*76
$GPVTG,25.74,T,,M,1.93,N,3.6,K,D*32
$GPGGA,183005.000,3748.7784,N,12217.6679,W,2,06,1.8,11.7,M,-25.1,M,6.8,0000*7C
$GPGSA,A,3,07,28,17,11,01,26,,,,,,,3.2,1.8,2.7*31
$GPRMC,183005.000,A,3748.7784,N,12217.6679,W,1.91,25.79,230812,,,D*41
$GPVTG,25.79,T,,M,1.91,N,3.5,K,D*3E
$GPGGA,183006.000,3748.7789,N,12217.6673,W,2,06,1.8,12.1,M,-25.1,M,1.8,0000*7A
$GPGSA,A,3,07,28,17,11,01,26,,,,,,,3.2,1.8,2.7*31
$GPRMC,183006.000,A,3748.7789,N,12217.6673,W,1.95,18.28,230812,,,D*4B
$GPVTG,18.28,T,,M,1.95,N,3.6,K,D*33
$GPGGA,183007.000,3748.7792,N,12217.6663,W,2,06,1.8,13.4,M,-25.1,M,1.8,0000*74
$GPGSA,A,3,07,28,17,11,01,26,,,,,,,3.2,1.8,2.7*31
$GPRMC,183007.000,A,3748.7792,N,12217.6663,W,2.01,23.41,230812,,,D*48
$GPVTG,23.41,T,,M,2.01,N,3.7,K,D*3B
$GPGGA,183008.000,3748.7796,N,12217.6658,W,2,06,1.8,13.9,M,-25.1,M,2.8,0000*79
$GPGSA,A,3,07,28,17,11,01,26,,,,,,,3.2,1.8,2.7*31
$GPRMC,183008.000,A,3748.7796,N,12217.6658,W,1.99,16.98,230812,,,D*4B
$GPVTG,16.98,T,,M,1.99,N,3.7,K,D*3B
$GPGGA,183009.000,3748.7802,N,12217.6653,W,2,06,1.8,14.0,M,-25.1,M,3.8,0000*7E
$GPGSA,A,3,07,28,17,11,01,26,,,,,,,3.2,1.8,2.7*31
$GPGSV,3,1,12,17,67,178,26,28,64,020,29,26,53,251,22,08,52,106,36*7D
$GPGSV,3,2,12,15,30,300,21,01,20,070,37,27,18,312,19,11,16,053,40*7D
$GPGSV,3,3,12,07,14,123,28,09,03,310,,04,00,172,,51,43,156,32*7A
$GPRMC,183009.000,A,3748.7802,N,12217.6653,W,1.76,22.54,230812,,,D*45
$GPVTG,22.54,T,,M,1.76,N,3.3,K,D*39
$GPGGA,183010.000,3748.7808,N,12217.6644,W,2,06,1.8,15.1,M,-25.1,M,4.8,0000*7D
$GPGSA,A,3,07,28,17,11,01,26,,,,,,,3.2,1.8,2.7*31
$GPRMC,183010.000,A,3748.7808,N,12217.6644,W,2.09,17.04,230812,,,D*49
$GPVTG,17.04,T,,M,2.09,N,3.9,K,D*3B
$GPGGA,183011.000,3748.7813,N,12217.6639,W,2,06,1.8,15.5,M,-25.1,M,1.8,0000*7D
$GPGSA,A,3,07,28,17,11,01,26,,,,,,,3.2,1.8,2.7*31
$GPRMC,183011.000,A,3748.7813,N,12217.6639,W,2.04,13.33,230812,,,D*45
$GPVTG,13.33,T,,M,2.04,N,3.8,K,D*37
$GPGGA,183012.000,3748.7819,N,12217.6632,W,2,06,1.8,16.3,M,-25.1,M,1.8,0000*7A
$GPGSA,A,3,07,28,17,11,01,26,,,,,,,3.2,1.8,2.7*31
$GPRMC,183012.000,A,3748.7819,N,12217.6632,W,2.07,13.34,230812,,,D*43
$GPVTG,13.34,T,,M,2.07,N,3.8,K,D*33
$GPGGA,183013.000,3748.7824,N,12217.6626,W,2,06,1.8,17.1,M,-25.1,M,2.8,0000*70
$GPGSA,A,3,07,28,17,11,01,26,,,,,,,3.2,1.8,2.7*31
$GPRMC,183013.000,A,3748.7824,N,12217.6626,W,2.05,15.70,230812,,,D*4D
$GPVTG,15.70,T,,M,2.05,N,3.8,K,D*37
$GPGGA,183014.000,3748.7830,N,12217.6623,W,2,06,1.8,16.9,M,-25.1,M,3.8,0000*7F
$GPGSA,A,3,07,28,17,11,01,26,,,,,,,3.2,1.8,2.7*31
$GPGSV,3,1,12,17,67,178,26,28,64,020,29,26,53,251,22,08,52,106,36*7D
$GPGSV,3,2,12,15,30,300,22,01,20,070,38,27,18,312,18,11,16,053,40*70
$GPGSV,3,3,12,07,14,123,32,09,03,310,15,04,00,172,,51,43,156,32*75
$GPRMC,183014.000,A,3748.7830,N,12217.6623,W,1.87,17.17,230812,,,D*40
$GPVTG,17.17,T,,M,1.87,N,3.5,K,D*30
$GPGGA,183015.000,3748.7835,N,12217.6626,W,2,06,1.8,15.7,M,-25.1,M,4.8,0000*74
$GPGSA,A,3,07,28,17,11,01,26,,,,,,,3.2,1.8,2.7*31
$GPRMC,183015.000,A,3748.7835,N,12217.6626,W,2.07,32.47,230812,,,D*48
$GPVTG,32.47,T,,M,2.07,N,3.8,K,D*34
$GPGGA,183016.000,3748.7840,N,12217.6630,W,2,06,1.8,14.5,M,-25.1,M,5.8,0000*70
$GPGSA,A,3,07,28,17,11,01,26,,,,,,,3.2,1.8,2.7*31
$GPRMC,183016.000,A,3748.7840,N,12217.6630,W,1.77,16.48,230812,,,D*43
$GPVTG,16.48,T,,M,1.77,N,3.3,K,D*32
$GPGGA,183017.000,3748.7845,N,12217.6633,W,2,06,1.8,13.6,M,-25.1,M,6.8,0000*70
$GPGSA,A,3,07,28,17,11,01,26,,,,,,,3.2,1.8,2.7*31
$GPRMC,183017.000,A,3748.7845,N,12217.6633,W,1.77,5.72,230812,,,D*7F
$GPVTG,5.72,T,,M,1.77,N,3.3,K,D*09
$GPGGA,183018.000,3748.7852,N,12217.6643,W,2,06,1.8,11.5,M,-25.1,M,1.8,0000*78
$GPGSA,A,3,07,28,17,11,01,26,,,,,,,3.2,1.8,2.7*31
$GPRMC,183018.000,A,3748.7852,N,12217.6643,W,1.59,351.59,230812,,,D*76
$GPVTG,351.59,T,,M,1.59,N,2.9,K,D*05
$GPGGA,183019.000,3748.7859,N,12217.6641,W,2,06,1.8,11.6,M,-25.1,M,2.8,0000*70
$GPGSA,A,3,07,28,17,11,01,26,,,,,,,3.2,1.8,2.7*31
$GPGSV,3,1,12,17,67,178,26,28,63,020,29,26,53,250,23,08,51,106,36*79
$GPGSV,3,2,12,15,30,300,23,01,20,070,38,27,18,312,19,11,16,053,32*75
$GPGSV,3,3,12,07,14,123,26,09,03,310,14,04,00,172,,51,43,156,31*72
$GPRMC,183019.000,A,3748.7859,N,12217.6641,W,1.58,21.30,230812,,,D*44
$GPVTG,21.30,T,,M,1.58,N,2.9,K,D*3F
$GPGGA,183020.000,3748.7866,N,12217.6638,W,2,06,1.8,11.4,M,-25.1,M,1.8,0000*79
$GPGSA,A,3,07,28,17,11,01,26,,,,,,,3.2,1.8,2.7*31
$GPRMC,183020.000,A,3748.7866,N,12217.6638,W,1.89,16.20,230812,,,D*45
$GPVTG,16.20,T,,M,1.89,N,3.5,K,D*3B
$GPGGA,183021.000,3748.7870,N,12217.6628,W,2,06,1.8,12.5,M,-25.1,M,1.8,0000*7C
$GPGSA,A,3,07,28,17,11,01,26,,,,,,,3.2,1.8,2.7*31
$GPRMC,183021.000,A,3748.7870,N,12217.6628,W,1.40,21.95,230812,,,D*4D
$GPVTG,21.95,T,,M,1.40,N,2.6,K,D*36
$GPGGA,183022.000,3748.7876,N,12217.6619,W,2,06,1.8,13.3,M,-25.1,M,1.8,0000*7C
$GPGSA,A,3,07,28,17,11,01,26,,,,,,,3.2,1.8,2.7*31
$GPRMC,183022.000,A,3748.7876,N,12217.6619,W,2.03,20.75,230812,,,D*41
$GPVTG,20.75,T,,M,2.03,N,3.8,K,D*32
$GPGGA,183023.000,3748.7879,N,12217.6610,W,2,06,1.8,13.7,M,-25.1,M,1.8,0000*7F
$GPGSA,A,3,07,28,17,11,01,26,,,,,,,3.2,1.8,2.7*31
$GPRMC,183023.000,A,3748.7879,N,12217.6610,W,1.39,50.85,230812,,,D*44
$GPVTG,50.85,T,,M,1.39,N,2.6,K,D*3F
$GPGGA,183024.000,3748.7886,N,12217.6613,W,2,06,1.8,11.8,M,-25.1,M,1.8,0000*76
$GPGSA,A,3,07,28,17,11,01,26,,,,,,,3.2,1.8,2.7*31
$GPGSV,3,1,12,17,67,178,26,28,63,020,29,26,53,250,23,08,51,106,36*79
$GPGSV,3,2,12,15,30,300,23,01,20,070,39,27,18,312,20,11,16,053,30*7C
$GPGSV,3,3,12,07,14,123,30,09,03,310,13,04,00,172,,51,43,156,34*77
$GPRMC,183024.000,A,3748.7886,N,12217.6613,W,1.54,12.69,230812,,,D*4F
$GPGGA,183025.000,3748.7893,N,12217.6612,W,2,06,1.8,11.5,M,-25.1,M,1.8,0000*7F
$GPGSA,A,3,07,28,17,11,01,26,,,,,,,3.2,1.8,2.7*31
$GPRMC,183025.000,A,3748.7893,N,12217.6612,W,1.63,11.02,230812,,,D*41
$GPVTG,11.02,T,,M,1.63,N,3.0,K,D*3D
$GPGGA,183026.000,3748.7898,N,12217.6611,W,2,06,1.8,11.0,M,-25.1,M,2.8,0000*72
$GPGSA,A,3,07,28,17,11,01,26,,,,,,,3.2,1.8,2.7*31
$GPRMC,183026.000,A,3748.7898,N,12217.6611,W,1.75,6.39,230812,,,D*73
$GPVTG,6.39,T,,M,1.75,N,3.2,K,D*06
$GPGGA,183027.000,3748.7899,N,12217.6603,W,2,06,1.8,12.3,M,-25.1,M,3.8,0000*70
$GPGSA,A,3,07,28,17,11,01,26,,,,,,,3.2,1.8,2.7*31
$GPRMC,183027.000,A,3748.7899,N,12217.6603,W,1.19,31.77,230812,,,D*44
$GPVTG,31.77,T,,M,1.19,N,2.2,K,D*33
$GPGGA,183028.000,3748.7903,N,12217.6601,W,2,06,1.8,12.1,M,-25.1,M,4.8,0000*7A
$GPGSA,A,3,07,28,17,11,01,26,,,,,,,3.2,1.8,2.7*31
$GPRMC,183028.000,A,3748.7903,N,12217.6601,W,1.38,22.44,230812,,,D*4A
$GPVTG,22.44,T,,M,1.38,N,2.6,K,D*36
$GPGGA,183029.000,3748.7907,N,12217.6599,W,2,06,1.8,11.7,M,-25.1,M,5.8,0000*79
$GPGSA,A,3,07,28,17,11,01,26,,,,,,,3.2,1.8,2.7*31
$GPGSV,3,1,12,17,67,178,27,28,63,020,29,26,53,250,23,08,51,106,35*7B
$GPGSV,3,2,12,15,30,300,23,01,20,070,38,27,18,312,19,11,16,053,27*71
$GPGSV,3,3,12,07,14,123,31,09,03,310,13,04,00,172,,51,43,156,34*76
$GPRMC,183029.000,A,3748.7907,N,12217.6599,W,1.31,26.68,230812,,,D*4E
$GPVTG,26.68,T,,M,1.31,N,2.4,K,D*37
$GPGGA,183030.000,3748.7911,N,12217.6598,W,2,06,1.8,11.4,M,-25.1,M,1.8,0000*70
$GPGSA,A,3,07,28,17,11,01,26,,,,,,,3.2,1.8,2.6*30
$GPRMC,183030.000,A,3748.7911,N,12217.6598,W,1.33,20.24,230812,,,D*4C
$GPVTG,20.24,T,,M,1.33,N,2.5,K,D*3A
$GPGGA,183031.000,3748.7916,N,12217.6599,W,2,06,1.8,10.6,M,-25.1,M,1.8,0000*74
$GPGSA,A,3,07,28,17,11,01,26,,,,,,,3.2,1.8,2.6*30
$GPRMC,183031.000,A,3748.7916,N,12217.6599,W,1.48,358.95,230812,,,D*71
$GPVTG,358.95,T,,M,1.48,N,2.7,K,D*02
$GPGGA,183032.000,3748.7921,N,12217.6595,W,2,06,1.8,10.9,M,-25.1,M,2.8,0000*73
$GPGSA,A,3,07,28,17,11,01,26,,,,,,,3.2,1.8,2.6*30
$GPRMC,183032.000,A,3748.7921,N,12217.6595,W,1.77,356.44,230812,,,D*74
$GPVTG,356.44,T,,M,1.77,N,3.3,K,D*09
$GPGGA,183033.000,3748.7931,N,12217.6604,W,2,06,1.8,9.0,M,-25.1,M,3.8,0000*48
$GPGSA,A,3,07,28,17,11,01,26,,,,,,,3.2,1.8,2.6*30
$GPRMC,183033.000,A,3748.7931,N,12217.6604,W,2.13,342.71,230812,,,D*7D
$GPVTG,342.71,T,,M,2.13,N,3.9,K,D*01
$GPGGA,183034.000,3748.7937,N,12217.6599,W,2,06,1.8,9.9,M,-25.1,M,4.8,0000*40
$GPGSA,A,3,07,28,17,11,01,26,,,,,,,3.2,1.8,2.6*30
$GPGSV,3,1,12,17,67,178,27,28,63,020,30,26,53,250,24,08,51,106,35*74
$GPGSV,3,2,12,15,30,300,28,01,20,070,30,27,18,312,27,11,16,053,33*7A
$GPGSV,3,3,12,07,14,123,18,09,03,310,13,04,00,172,,51,43,156,31*78
$GPRMC,183034.000,A,3748.7937,N,12217.6599,W,1.56,2.80,230812,,,D*70
$GPVTG,2.80,T,,M,1.56,N,2.9,K,D*0B
$GPGGA,183035.000,3748.7942,N,12217.6585,W,2,06,1.8,11.7,M,-25.1,M,5.8,0000*78
$GPGSA,A,3,07,28,17,11,01,26,,,,,,,3.2,1.8,2.6*30
$GPRMC,183035.000,A,3748.7942,N,12217.6585,W,1.43,19.97,230812,,,D*46
$GPVTG,19.97,T,,M,1.43,N,2.6,K,D*3C
$GPGGA,183036.000,3748.7946,N,12217.6574,W,2,06,1.8,13.1,M,-25.1,M,6.8,0000*76
$GPGSA,A,3,07,28,17,11,01,26,,,,,,,3.2,1.8,2.6*30
$GPRMC,183036.000,A,3748.7946,N,12217.6574,W,1.68,24.62,230812,,,D*42
$GPVTG,24.62,T,,M,1.68,N,3.1,K,D*37
$GPGGA,183037.000,3748.7950,N,12217.6563,W,2,06,1.8,14.1,M,-25.1,M,1.8,0000*76
$GPGSA,A,3,07,28,17,11,01,26,,,,,,,3.2,1.8,2.6*30
$GPRMC,183037.000,A,3748.7950,N,12217.6563,W,1.79,27.09,230812,,,D*4C
$GPVTG,27.09,T,,M,1.79,N,3.3,K,D*3B
$GPGGA,183038.000,3748.7955,N,12217.6557,W,2,06,1.8,14.4,M,-25.1,M,1.8,0000*7E
$GPGSA,A,3,07,28,17,11,01,26,,,,,,,3.2,1.8,2.6*30
$GPRMC,183038.000,A,3748.7955,N,12217.6557,W,1.89,27.19,230812,,,D*4F
$GPVTG,27.19,T,,M,1.89,N,3.5,K,D*33
$GPGGA,183039.000,3748.7960,N,12217.6559,W,2,06,1.8,13.2,M,-25.1,M,2.8,0000*75
$GPGSA,A,3,07,28,17,11,01,26,,,,,,,3.2,1.8,2.6*30
$GPGSV,3,1,12,17,67,178,29,28,63,020,31,26,53,250,23,08,51,106,36*7F
$GPGSV,3,2,12,15,30,300,21,01,20,070,22,27,18,312,18,11,16,053,32*7D
$GPGSV,3,3,12,07,14,123,31,09,03,310,,04,00,172,,51,43,156,36*76
$GPVTG,30.95,T,,M,1.96,N,3.6,K,D*3C
$GPGGA,183040.000,3748.7966,N,12217.6558,W,2,06,1.8,12.8,M,-25.1,M,3.8,0000*76
$GPGSA,A,3,07,28,17,11,01,26,,,,,,,3.2,1.8,2.6*30
$GPRMC,183040.000,A,3748.7966,N,12217.6558,W,2.37,24.59,230812,,,D*4E
$GPVTG,24.59,T,,M,2.37,N,4.4,K,D*34
$GPGGA,183041.000,3748.7972,N,12217.6549,W,2,06,1.8,13.6,M,-25.1,M,1.8,0000*7F
$GPGSA,A,3,07,28,17,11,01,26,,,,,,,3.2,1.8,2.6*30
$GPRMC,183041.000,A,3748.7972,N,12217.6549,W,2.19,29.02,230812,,,D*45
$GPVTG,29.02,T,,M,2.19,N,4.1,K,D*3E
$GPGGA,183042.000,3748.7976,N,12217.6528,W,2,06,1.8,16.3,M,-25.1,M,1.8,0000*7F
$GPGSA,A,3,07,28,17,11,01,26,,,,,,,3.2,1.8,2.6*30
$GPRMC,183042.000,A,3748.7976,N,12217.6528,W,2.28,45.10,230812,,,D*4E
$GPVTG,45.10,T,,M,2.28,N,4.2,K,D*36
$GPGGA,183043.000,3748.7980,N,12217.6519,W,2,06,1.8,17.8,M,-25.1,M,1.8,0000*7F
$GPGSA,A,3,07,28,17,11,01,26,,,,,,,3.2,1.8,2.6*30
$GPRMC,183043.000,A,3748.7980,N,12217.6519,W,2.29,51.64,230812,,,D*43
$GPVTG,51.64,T,,M,2.29,N,4.2,K,D*31
$GPGGA,183044.000,3748.7983,N,12217.6507,W,2,06,1.8,19.5,M,-25.1,M,2.8,0000*74
$GPGSA,A,3,07,28,17,11,01,26,,,,,,,3.2,1.8,2.6*30
$GPGSV,3,1,12,17,67,178,29,28,63,020,30,26,53,250,20,08,51,106,37*7C
$GPGSV,3,2,12,15,30,300,20,01,20,070,22,27,18,312,18,11,16,053,26*79
$GPGSV,3,3,12,07,14,123,26,09,03,310,,04,00,172,,51,43,156,35*73
