$ADVER,3080,2.3
$GPRMC,213128.854,A,3748.8016,N,12217.8587,W,0.08,170.70,210112,,,A*74
$GPGGA,213129.854,3748.8016,N,12217.8587,W,1,04,2.6,3.3,M,-25.1,M,,0000*64
$GPGSA,A,3,19,22,18,03,,,,,,,,,4.8,2.6,4.0*3C
$GPRMC,213129.854,A,3748.8016,N,12217.8587,W,0.05,226.17,210112,,,A*79
$GPVTG,226.17,T,,M,0.05,N,0.1,K,A*09
$GPGGA,213130.854,3748.8017,N,12217.8588,W,1,04,2.6,3.3,M,-25.1,M,,0000*62
$GPGSA,A,3,19,22,18,03,,,,,,,,,4.8,2.6,4.0*3C
$GPGSV,3,1,12,22,68,020,40,19,41,284,38,03,34,235,39,18,32,067,35*7D
$GPGSV,3,2,12,14,70,185,31,06,35,221,30,21,23,127,36,24,19,310,*7A
$GPGSV,3,3,12,09,18,053,29,11,14,311,32,27,06,034,27,31,01,172,*76
$GPRMC,213130.854,A,3748.8017,N,12217.8588,W,0.05,225.17,210112,,,A*7C
$GPVTG,225.17,T,,M,0.05,N,0.1,K,A*0A
$GPGGA,213132.000,3748.8017,N,12217.8588,W,1,04,2.6,3.2,M,-25.1,M,,0000*68
$GPGSA,A,3,19,22,18,03,,,,,,,,,4.8,2.6,4.0*3C
$GPRMC,213132.000,A,3748.8017,N,12217.8588,W,0.07,187.27,210112,,,A*7D
$GPVTG,187.27,T,,M,0.07,N,0.1,K,A*00
$GPGGA,213133.000,3748.8017,N,12217.8588,W,1,04,2.6,3.0,M,-25.1,M,,0000*6B
$GPGSA,A,3,19,22,18,03,,,,,,,,,4.8,2.6,4.0*3C
$GPRMC,213133.000,A,3748.8017,N,12217.8588,W,0.05,205.84,210112,,,A*7E
$GPVTG,205.84,T,,M,0.05,N,0.1,K,A*02
$GPGGA,213134.000,3748.8018,N,12217.8589,W,1,08,1.0,3.0,M,-25.1,M,,0000*6B
$GPGSA,A,3,19,22,18,21,14,03,11,09,,,,,1.8,1.0,1.5*33
$GPRMC,213134.000,A,3748.8018,N,12217.8589,W,0.06,162.87,210112,,,A*75
$GPVTG,162.87,T,,M,0.06,N,0.1,K,A*00
$GPGGA,213135.000,3748.8019,N,12217.8589,W,1,08,1.0,3.0,M,-25.1,M,,0000*6B
$GPGSA,A,3,19,22,18,21,14,03,11,09,,,,,1.8,1.0,1.5*33
$GPRMC,213135.000,A,3748.8019,N,12217.8589,W,0.07,176.88,210112,,,A*7E
$GPVTG,176.88,T,,M,0.07,N,0.1,K,A*0B
$GPGGA,213136.000,3748.8019,N,12217.8590,W,1,08,1.0,3.0,M,-25.1,M,,0000*60
$GPGSA,A,3,19,22,18,21,14,03,11,09,,,,,1.8,1.0,1.5*33
$GPGSV,3,1,12,14,70,185,31,22,68,020,40,19,41,283,37,06,35,221,25*7A
$GPGSV,3,2,12,03,34,235,38,18,32,067,35,21,23,127,36,24,19,310,*70
$GPGSV,3,3,12,09,18,053,29,11,14,311,32,27,06,034,28,31,01,172,*79
$GPRMC,213136.000,A,3748.8019,N,12217.8590,W,0.06,160.76,210112,,,A*72
$GPVTG,160.76,T,,M,0.06,N,0.1,K,A*0C
$GPGGA,213137.000,3748.8019,N,12217.8590,W,1,08,1.0,3.0,M,-25.1,M,,0000*61
$GPGSA,A,3,19,22,18,21,14,03,11,09,,,,,1.8,1.0,1.5*33
$GPRMC,213137.000,A,3748.8019,N,12217.8590,W,0.07,168.72,210112,,,A*7E
$GPVTG,168.72,T,,M,0.07,N,0.1,K,A*01
$GPGGA,213138.000,3748.8019,N,12217.8590,W,1,08,1.0,3.0,M,-25.1,M,,0000*6E
$GPGSA,A,3,19,22,18,21,14,03,11,09,,,,,1.8,1.0,1.5*33
$GPRMC,213138.000,A,3748.8019,N,12217.8590,W,0.07,174.11,210112,,,A*79
$GPVTG,174.11,T,,M,0.07,N,0.1,K,A*09
$GPGGA,213139.000,3748.8019,N,12217.8590,W,1,08,1.0,3.0,M,-25.1,M,,0000*6F
$GPGSA,A,3,19,22,18,21,14,03,11,09,,,,,1.8,1.0,1.5*33
$GPRMC,213139.000,A,3748.8019,N,12217.8590,W,0.08,170.78,210112,,,A*7C
$GPVTG,170.78,T,,M,0.08,N,0.2,K,A*0E
$GPGGA,213140.000,3748.8019,N,12217.8590,W,1,08,1.0,3.0,M,-25.1,M,,0000*61
$GPGSA,A,3,19,22,18,21,14,03,11,09,,,,,1.8,1.0,1.5*33
$GPRMC,213140.000,A,3748.8019,N,12217.8590,W,0.08,173.06,210112,,,A*78
$GPVTG,173.06,T,,M,0.08,N,0.1,K,A*07
$GPGGA,213141.000,3748.8019,N,12217.8590,W,1,08,1.0,3.0,M,-25.1,M,,0000*60
$GPGSA,A,3,19,22,18,21,14,03,11,09,,,,,1.8,1.0,1.5*33
$GPGSV,3,1,12,14,70,185,32,22,68,020,40,19,41,283,37,06,35,221,26*7A
$GPGSV,3,2,12,03,34,235,39,18,32,067,34,21,23,127,36,24,19,310,*70
$GPGSV,3,3,12,09,18,053,30,11,14,311,33,27,06,034,28,31,01,172,*70
$GPRMC,213141.000,A,3748.8019,N,12217.8590,W,0.07,175.37,210112,,,A*72
$GPVTG,175.37,T,,M,0.07,N,0.1,K,A*0C
$GPGGA,213142.000,3748.8019,N,12217.8590,W,1,08,1.0,3.0,M,-25.1,M,,0000*63
$GPGSA,A,3,19,22,18,21,14,03,11,09,,,,,1.8,1.0,1.5*33
$GPRMC,213142.000,A,3748.8019,N,12217.8590,W,0.07,170.87,210112,,,A*7F
$GPVTG,170.87,T,,M,0.07,N,0.1,K,A*02
$GPGGA,213143.000,3748.8019,N,12217.8590,W,1,08,1.0,3.0,M,-25.1,M,,0000*62
$GPGSA,A,3,19,22,18,21,14,03,11,09,,,,,1.8,1.0,1.5*33
$GPRMC,213143.000,A,3748.8019,N,12217.8590,W,0.09,177.10,210112,,,A*79
$GPVTG,177.10,T,,M,0.09,N,0.2,K,A*06
$GPGGA,213144.000,3748.8019,N,12217.8590,W,1,08,1.0,2.9,M,-25.1,M,,0000*6D
$GPGSA,A,3,19,22,18,21,14,03,11,09,,,,,1.8,1.0,1.5*33
$GPRMC,213144.000,A,3748.8019,N,12217.8590,W,0.06,170.50,210112,,,A*72
$GPVTG,170.50,T,,M,0.06,N,0.1,K,A*09
$GPGGA,213145.000,3748.8019,N,12217.8590,W,1,08,1.0,2.9,M,-25.1,M,,0000*6C
$GPGSA,A,3,19,22,18,21,14,03,11,09,,,,,1.8,1.0,1.5*33
$GPRMC,213145.000,A,3748.8019,N,12217.8590,W,0.09,172.61,210112,,,A*7C
$GPVTG,172.61,T,,M,0.09,N,0.2,K,A*05
$GPGGA,213146.000,3748.8019,N,12217.8590,W,1,08,1.0,2.9,M,-25.1,M,,0000*6F
$GPGSA,A,3,19,22,18,21,14,03,11,09,,,,,1.8,1.0,1.5*33
$GPGSV,3,1,12,14,70,185,32,22,68,020,40,19,41,283,37,06,35,221,27*7B
$GPGSV,3,2,12,03,34,235,39,18,32,067,34,21,23,127,36,24,19,310,*70
$GPGSV,3,3,12,09,18,053,30,11,14,311,33,27,06,034,28,31,01,172,*70
$GPVTG,176.20,T,,M,0.07,N,0.1,K,A*09
$GPGGA,213147.000,3748.8019,N,12217.8590,W,1,08,1.0,3.0,M,-25.1,M,,0000*66
$GPGSA,A,3,19,22,18,21,14,03,11,09,,,,,1.8,1.0,1.5*33
$GPRMC,213147.000,A,3748.8019,N,12217.8590,W,0.07,170.05,210112,,,A*70
$GPVTG,170.05,T,,M,0.07,N,0.1,K,A*08
$GPGGA,213148.000,3748.8018,N,12217.8590,W,1,08,1.0,3.0,M,-25.1,M,,0000*68
$GPGSA,A,3,19,22,18,21,14,03,11,09,,,,,1.8,1.0,1.5*33
$GPRMC,213148.000,A,3748.8018,N,12217.8590,W,0.08,171.40,210112,,,A*71
$GPVTG,171.40,T,,M,0.08,N,0.2,K,A*04
$GPGGA,213149.000,3748.8018,N,12217.8590,W,1,08,1.0,3.0,M,-25.1,M,,0000*69
$GPGSA,A,3,19,22,18,21,14,03,11,09,,,,,1.8,1.0,1.5*33
$GPRMC,213149.000,A,3748.8018,N,12217.8590,W,0.07,171.41,210112,,,A*7E
$GPVTG,171.41,T,,M,0.07,N,0.1,K,A*09
$GPGGA,213150.000,3748.8018,N,12217.8590,W,1,08,1.0,3.0,M,-25.1,M,,0000*61
$GPGSA,A,3,19,22,18,21,14,03,11,09,,,,,1.8,1.0,1.5*33
$GPRMC,213150.000,A,3748.8018,N,12217.8590,W,0.09,171.49,210112,,,A*70
$GPVTG,171.49,T,,M,0.09,N,0.2,K,A*0C
$GPGGA,213151.000,3748.8018,N,12217.8590,W,1,08,1.0,3.1,M,-25.1,M,,0000*61
$GPGSA,A,3,19,22,18,21,14,03,11,09,,,,,1.8,1.0,1.5*33
$GPGSV,3,1,12,14,70,185,33,22,68,020,40,19,41,283,38,06,35,221,29*7B
$GPGSV,3,2,12,03,34,235,39,18,32,067,34,21,23,127,36,24,19,310,*70
$GPGSV,3,3,12,09,18,053,30,11,14,311,33,27,06,034,28,31,01,172,*70
$GPRMC,213151.000,A,3748.8018,N,12217.8590,W,0.06,159.94,210112,,,A*74
$GPVTG,159.94,T,,M,0.06,N,0.1,K,A*0A
$GPGGA,213152.000,3748.8018,N,12217.8590,W,1,08,1.0,3.1,M,-25.1,M,,0000*62
$GPGSA,A,3,19,22,18,21,14,03,11,09,,,,,1.8,1.0,1.5*33
$GPRMC,213152.000,A,3748.8018,N,12217.8590,W,0.08,174.14,210112,,,A*7E
$GPVTG,174.14,T,,M,0.08,N,0.1,K,A*03
$GPGGA,213153.000,3748.8018,N,12217.8590,W,1,08,1.0,3.2,M,-25.1,M,,0000*60
$GPGSA,A,3,19,22,18,21,14,03,11,09,,,,,1.8,1.0,1.5*33
$GPRMC,213153.000,A,3748.8018,N,12217.8590,W,0.06,155.41,210112,,,A*72
$GPVTG,155.41,T,,M,0.06,N,0.1,K,A*0E
$GPGGA,213154.000,3748.8017,N,12217.8590,W,1,08,1.0,3.2,M,-25.1,M,,0000*68
$GPGSA,A,3,19,22,18,21,14,03,11,09,,,,,1.8,1.0,1.5*33
$GPRMC,213154.000,A,3748.8017,N,12217.8590,W,0.10,180.86,210112,,,A*7E
$GPVTG,180.86,T,,M,0.10,N,0.2,K,A*09
$GPGGA,213155.000,3748.8017,N,12217.8590,W,1,08,1.0,3.3,M,-25.1,M,,0000*68
$GPGSA,A,3,19,22,18,21,14,03,11,09,,,,,1.8,1.0,1.5*33
$GPRMC,213155.000,A,3748.8017,N,12217.8590,W,0.09,173.92,210112,,,A*7E
$GPVTG,173.92,T,,M,0.09,N,0.2,K,A*08
$GPGGA,213156.000,3748.8017,N,12217.8590,W,1,08,1.0,3.3,M,-25.1,M,,0000*6B
$GPGSA,A,3,19,22,18,21,14,03,11,09,,,,,1.8,1.0,1.5*33
$GPGSV,3,1,12,14,70,185,33,22,68,020,40,19,41,283,38,06,35,221,30*73
$GPGSV,3,2,12,03,34,235,39,18,32,067,34,21,23,127,37,24,19,310,*71
$GPGSV,3,3,12,09,18,053,28,11,14,311,32,27,06,034,27,31,01,172,*77
$GPRMC,213156.000,A,3748.8017,N,12217.8590,W,0.07,175.97,210112,,,A*70
$GPVTG,175.97,T,,M,0.07,N,0.1,K,A*06
$GPGGA,213157.000,3748.8017,N,12217.8590,W,2,08,1.0,3.4,M,-25.1,M,,0000*6E
$GPGSA,A,3,19,22,18,21,14,03,11,09,,,,,1.8,1.0,1.5*33
$GPRMC,213157.000,A,3748.8017,N,12217.8590,W,0.07,180.16,210112,,,D*77
$GPVTG,180.16,T,,M,0.07,N,0.1,K,D*00
$GPGGA,213158.000,3748.8016,N,12217.8590,W,2,08,1.0,3.5,M,-25.1,M,,0000*61
$GPGSA,A,3,19,22,18,21,14,03,11,09,,,,,1.8,1.0,1.5*33
$GPRMC,213158.000,A,3748.8016,N,12217.8590,W,0.07,188.33,210112,,,D*76
$GPVTG,188.33,T,,M,0.07,N,0.1,K,D*0F
$GPGGA,213159.000,3748.8016,N,12217.8590,W,2,08,1.0,3.5,M,-25.1,M,,0000*60
$GPGSA,A,3,19,22,18,21,14,03,11,09,,,,,1.8,1.0,1.5*33
$GPRMC,213159.000,A,3748.8016,N,12217.8590,W,0.07,167.36,210112,,,D*73
$GPVTG,167.36,T,,M,0.07,N,0.1,K,D*0B
$GPGGA,213200.000,3748.8016,N,12217.8590,W,2,08,1.0,3.6,M,-25.1,M,2.8,0000*48
$GPGSA,A,3,19,22,18,21,14,03,11,09,,,,,1.8,1.0,1.5*33
$GPRMC,213200.000,A,3748.8016,N,12217.8590,W,0.08,165.20,210112,,,D*76
$GPVTG,165.20,T,,M,0.08,N,0.1,K,D*01
$GPGGA,213201.000,3748.8016,N,12217.8590,W,2,08,1.0,3.7,M,-25.1,M,3.8,0000*49
$GPGSA,A,3,19,22,18,21,14,03,11,09,,,,,1.8,1.0,1.5*33
$GPGSV,3,1,12,14,70,185,34,22,68,020,40,19,41,283,38,06,35,221,31*75
$GPGSV,3,2,12,03,34,235,39,18,32,067,35,21,23,127,37,24,19,310,*70
$GPRMC,213201.000,A,3748.8016,N,12217.8590,W,0.07,168.64,210112,,,D*75
$GPVTG,168.64,T,,M,0.07,N,0.1,K,D*03
$GPGGA,213202.000,3748.8016,N,12217.8589,W,2,08,1.0,3.7,M,-25.1,M,4.8,0000*45
$GPGSA,A,3,19,22,18,21,14,03,11,09,,,,,1.8,1.0,1.5*33
$GPRMC,213202.000,A,3748.8016,N,12217.8589,W,0.06,174.86,210112,,,D*7E
$GPVTG,174.86,T,,M,0.06,N,0.1,K,D*03
$GPGGA,213203.000,3748.8015,N,12217.8589,W,2,08,1.0,3.7,M,-25.1,M,,0000*65
$GPGSA,A,3,19,22,18,21,14,03,11,09,,,,,1.8,1.0,1.5*33
$GPRMC,213203.000,A,3748.8015,N,12217.8589,W,0.09,160.84,210112,,,D*74
$GPVTG,160.84,T,,M,0.09,N,0.2,K,D*08
$GPGGA,213204.000,3748.8015,N,12217.8589,W,2,09,0.9,3.7,M,-25.1,M,1.8,0000*4C
$GPGSA,A,3,19,22,18,21,14,03,11,09,06,,,,1.8,0.9,1.5*3D
$GPRMC,213204.000,A,3748.8015,N,12217.8589,W,0.07,128.05,210112,,,D*78
$GPVTG,128.05,T,,M,0.07,N,0.1,K,D*00
$GPGGA,213205.000,3748.8015,N,12217.8589,W,2,09,0.9,3.7,M,-25.1,M,1.8,0000*4D
$GPGSA,A,3,19,22,18,21,14,03,11,09,06,,,,1.8,0.9,1.5*3D
$GPRMC,213205.000,A,3748.8015,N,12217.8589,W,0.03,151.21,210112,,,D*75
$GPVTG,151.21,T,,M,0.03,N,0.1,K,D*0C
$GPGGA,213206.000,3748.8015,N,12217.8589,W,2,09,0.9,3.7,M,-25.1,M,2.8,0000*4D
$GPGSA,A,3,19,22,18,21,14,03,11,09,06,,,,1.8,0.9,1.5*3D
$GPGSV,3,1,12,14,71,185,34,22,67,020,40,19,41,283,38,06,35,221,31*7B
$GPGSV,3,2,12,03,34,235,38,18,32,067,35,21,23,127,37,24,19,310,*71
$GPGSV,3,3,12,09,18,053,20,11,14,311,32,27,06,034,26,31,01,172,*7E
$GPRMC,213206.000,A,3748.8015,N,12217.8589,W,0.14,199.34,210112,,,D*70
$GPVTG,199.34,T,,M,0.14,N,0.3,K,D*08
$GPGGA,213207.000,3748.8015,N,12217.8590,W,2,09,0.9,3.8,M,-25.1,M,3.8,0000*4A
$GPGSA,A,3,19,22,18,21,14,03,11,09,06,,,,1.8,0.9,1.5*3D
$GPRMC,213207.000,A,3748.8015,N,12217.8590,W,0.09,182.76,210112,,,D*79
$GPVTG,182.76,T,,M,0.09,N,0.2,K,D*09
$GPGGA,213208.000,3748.8014,N,12217.8590,W,2,09,0.9,3.8,M,-25.1,M,4.8,0000*43
$GPGSA,A,3,19,22,18,21,14,03,11,09,06,,,,1.8,0.9,1.5*3D
$GPRMC,213208.000,A,3748.8014,N,12217.8590,W,0.06,142.11,210112,,,D*75
$GPVTG,142.11,T,,M,0.06,N,0.1,K,D*08
$GPGGA,213209.000,3748.8014,N,12217.8590,W,2,09,0.9,3.8,M,-25.1,M,1.8,0000*47
$GPGSA,A,3,19,22,18,21,14,03,11,09,06,,,,1.8,0.9,1.5*3D
$GPRMC,213209.000,A,3748.8014,N,12217.8590,W,0.05,132.66,210112,,,D*70
$GPVTG,132.66,T,,M,0.05,N,0.1,K,D*0C
$GPGGA,213210.000,3748.8014,N,12217.8590,W,2,09,0.9,3.9,M,-25.1,M,1.8,0000*4E
$GPGSA,A,3,19,22,18,21,14,03,11,09,06,,,,1.8,0.9,1.5*3D
$GPRMC,213210.000,A,3748.8014,N,12217.8590,W,0.10,183.73,210112,,,D*72
$GPVTG,183.73,T,,M,0.10,N,0.2,K,D*05
$GPGGA,213211.000,3748.8014,N,12217.8590,W,2,09,0.9,3.9,M,-25.1,M,1.8,0000*4F
$GPGSA,A,3,19,22,18,21,14,03,11,09,06,,,,1.8,0.9,1.5*3D
$GPGSV,3,1,12,14,71,185,34,22,67,020,41,19,41,283,38,06,35,221,30*7B
$GPGSV,3,2,12,03,34,235,38,18,32,067,36,21,23,127,37,24,19,310,*72
$GPGSV,3,3,12,09,18,053,21,11,14,311,33,27,06,034,23,31,01,172,*7B
$GPRMC,213211.000,A,3748.8014,N,12217.8590,W,0.11,187.64,210112,,,D*70
$GPVTG,187.64,T,,M,0.11,N,0.2,K,D*06
$GPGGA,213212.000,3748.8014,N,12217.8590,W,2,09,0.9,3.9,M,-25.1,M,2.8,0000*4F
$GPGSA,A,3,19,22,18,21,14,03,11,09,06,,,,1.8,0.9,1.5*3D
$GPRMC,213212.000,A,3748.8014,N,12217.8590,W,0.09,163.59,210112,,,D*7E
$GPVTG,163.59,T,,M,0.09,N,0.2,K,D*0B
$GPGGA,213213.000,3748.8014,N,12217.8589,W,2,09,0.9,3.9,M,-25.1,M,3.8,0000*47
$GPGSA,A,3,19,22,18,21,14,03,11,09,06,,,,1.8,0.9,1.5*3D
$GPRMC,213213.000,A,3748.8014,N,12217.8589,W,0.08,133.51,210112,,,D*7B
$GPVTG,133.51,T,,M,0.08,N,0.2,K,D*07
$GPGGA,213214.000,3748.8014,N,12217.8589,W,2,09,0.9,4.0,M,-25.1,M,4.8,0000*49
$GPGSA,A,3,19,22,18,21,14,03,11,09,06,,,,1.8,0.9,1.5*3D
$GPRMC,213214.000,A,3748.8014,N,12217.8589,W,0.11,175.92,210112,,,D*79
$GPVTG,175.92,T,,M,0.11,N,0.2,K,D*02
$GPGGA,213215.000,3748.8013,N,12217.8589,W,2,09,0.9,3.9,M,-25.1,M,1.8,0000*44
$GPGSA,A,3,19,22,18,21,14,03,11,09,06,,,,1.8,0.9,1.5*3D
$GPRMC,213215.000,A,3748.8013,N,12217.8589,W,0.08,161.33,210112,,,D*79
$GPVTG,161.33,T,,M,0.08,N,0.1,K,D*07
$GPGGA,213216.000,3748.8013,N,12217.8589,W,2,09,0.9,3.9,M,-25.1,M,1.8,0000*47
$GPGSA,A,3,19,22,18,21,14,03,11,09,06,,,,1.8,0.9,1.5*3D
$GPGSV,3,1,12,14,71,185,34,22,67,020,41,19,41,283,38,06,35,221,29*73
$GPGSV,3,2,12,03,34,235,38,18,32,067,36,21,23,127,37,24,19,310,*72
$GPGSV,3,3,12,09,18,053,22,11,14,311,33,27,06,034,23,31,01,172,*78
$GPRMC,213216.000,A,3748.8013,N,12217.8589,W,0.07,169.91,210112,,,D*75
$GPVTG,169.91,T,,M,0.07,N,0.1,K,D*08
$GPGGA,213217.000,3748.8013,N,12217.8590,W,2,09,0.9,4.0,M,-25.1,M,1.8,0000*40
$GPGSA,A,3,19,22,18,21,14,03,11,09,06,,,,1.8,0.9,1.5*3D
$GPRMC,213217.000,A,3748.8013,N,12217.8590,W,0.13,202.55,210112,,,D*7F
$GPVTG,202.55,T,,M,0.13,N,0.2,K,D*08
$GPGGA,213218.000,3748.8013,N,12217.8590,W,2,09,0.9,4.1,M,-25.1,M,2.8,0000*4D
$GPGSA,A,3,19,22,18,21,14,03,11,09,06,,,,1.8,0.9,1.5*3D
$GPRMC,213218.000,A,3748.8013,N,12217.8590,W,0.12,208.56,210112,,,D*78
$GPVTG,208.56,T,,M,0.12,N,0.2,K,D*00
$GPGGA,213219.000,3748.8012,N,12217.8590,W,2,09,0.9,4.1,M,-25.1,M,1.8,0000*4E
$GPGSA,A,3,19,22,18,21,14,03,11,09,06,,,,1.8,0.9,1.5*3D
$GPRMC,213219.000,A,3748.8012,N,12217.8590,W,0.09,188.34,210112,,,D*7D
$GPVTG,188.34,T,,M,0.09,N,0.2,K,D*05
$GPGGA,213220.000,3748.8012,N,12217.8590,W,2,09,0.9,4.2,M,-25.1,M,2.8,0000*44
$GPGSA,A,3,19,22,18,21,14,03,11,09,06,,,,1.8,0.9,1.5*3D
$GPRMC,213220.000,A,3748.8012,N,12217.8590,W,0.14,205.29,210112,,,D*71
$GPVTG,205.29,T,,M,0.14,N,0.3,K,D*02
$GPGGA,213221.000,3748.8012,N,12217.8591,W,2,09,0.9,4.2,M,-25.1,M,1.8,0000*47
$GPGSA,A,3,19,22,18,21,14,03,11,09,06,,,,1.8,0.9,1.5*3D
$GPGSV,3,1,12,14,71,185,34,22,67,021,41,19,41,283,38,06,35,221,28*73
$GPGSV,3,2,12,03,34,235,38,18,32,067,36,21,23,127,37,24,19,310,*72
$GPGSV,3,3,12,09,18,053,27,11,14,311,33,27,06,034,24,31,01,172,*7A
$GPRMC,213221.000,A,3748.8012,N,12217.8591,W,0.09,166.89,210112,,,D*71
$GPVTG,166.89,T,,M,0.09,N,0.2,K,D*03
$GPGGA,213222.000,3748.8012,N,12217.8591,W,2,09,0.9,4.3,M,-25.1,M,1.8,0000*45
$GPGSA,A,3,19,22,18,21,14,03,11,09,06,,,,1.8,0.9,1.5*3D
$GPRMC,213222.000,A,3748.8012,N,12217.8591,W,0.09,169.39,210112,,,D*76
$GPVTG,169.39,T,,M,0.09,N,0.2,K,D*07
$GPGGA,213223.000,3748.8011,N,12217.8590,W,2,09,0.9,4.3,M,-25.1,M,1.8,0000*46
$GPGSA,A,3,19,22,18,21,14,03,11,09,06,,,,1.8,0.9,1.5*3D
$GPRMC,213223.000,A,3748.8011,N,12217.8590,W,0.10,154.17,210112,,,D*7F
$GPVTG,154.17,T,,M,0.10,N,0.2,K,D*0D
$GPGGA,213224.000,3748.8011,N,12217.8590,W,2,09,0.9,4.3,M,-25.1,M,2.8,0000*42
$GPGSA,A,3,19,22,18,21,14,03,11,09,06,,,,1.8,0.9,1.5*3D
$GPRMC,213224.000,A,3748.8011,N,12217.8590,W,0.12,154.12,210112,,,D*7F
$GPVTG,154.12,T,,M,0.12,N,0.2,K,D*0A
$GPGGA,213225.000,3748.8011,N,12217.8590,W,2,09,0.9,4.3,M,-25.1,M,3.8,0000*42
$GPGSA,A,3,19,22,18,21,14,03,11,09,06,,,,1.8,0.9,1.5*3D
$GPRMC,213225.000,A,3748.8011,N,12217.8590,W,0.09,159.40,210112,,,D*7E
$GPVTG,159.40,T,,M,0.09,N,0.2,K,D*0A
$GPGGA,213226.000,3748.8011,N,12217.8590,W,2,09,0.9,4.3,M,-25.1,M,1.8,0000*43
$GPGSA,A,3,19,22,18,21,14,03,11,09,06,,,,1.8,0.9,1.5*3D
$GPGSV,3,1,12,14,71,185,34,22,67,021,40,19,41,283,38,06,35,221,27*7D
$GPGSV,3,2,12,03,34,235,38,18,32,067,36,21,23,127,37,24,19,310,*72
$GPGSV,3,3,12,09,18,053,28,11,14,311,33,27,06,034,24,31,01,172,*75
$GPVTG,156.79,T,,M,0.11,N,0.2,K,D*06
$GPGGA,213227.000,3748.8011,N,12217.8590,W,2,09,0.9,4.3,M,-25.1,M,1.8,0000*42
$GPGSA,A,3,19,22,18,21,14,03,11,09,06,,,,1.8,0.9,1.5*3D
$GPRMC,213227.000,A,3748.8011,N,12217.8590,W,0.06,160.48,210112,,,D*71
$GPVTG,160.48,T,,M,0.06,N,0.1,K,D*04
$GPGGA,213228.000,3748.8011,N,12217.8590,W,2,09,0.9,4.3,M,-25.1,M,1.8,0000*4D
$GPGSA,A,3,19,22,18,21,14,03,11,09,06,,,,1.8,0.9,1.5*3D
$GPRMC,213228.000,A,3748.8011,N,12217.8590,W,0.08,166.58,210112,,,D*77
$GPVTG,166.58,T,,M,0.08,N,0.2,K,D*0E
$GPGGA,213229.000,3748.8011,N,12217.8591,W,2,09,0.9,4.3,M,-25.1,M,1.8,0000*4D
$GPGSA,A,3,19,22,18,21,14,03,11,09,06,,,,1.8,0.9,1.5*3D
$GPRMC,213229.000,A,3748.8011,N,12217.8591,W,0.01,115.80,210112,,,D*7F
$GPVTG,115.80,T,,M,0.01,N,0.0,K,D*04
$GPGGA,213230.000,3748.8011,N,12217.8591,W,2,09,0.9,4.3,M,-25.1,M,1.8,0000*45
$GPGSA,A,3,19,22,18,21,14,03,11,09,06,,,,1.8,0.9,1.5*3D
$GPRMC,213230.000,A,3748.8011,N,12217.8591,W,0.03,188.74,210112,,,D*7A
$GPVTG,188.74,T,,M,0.03,N,0.1,K,D*08
$GPGGA,213231.000,3748.8011,N,12217.8591,W,2,09,0.9,4.3,M,-25.1,M,1.8,0000*44
$GPGSA,A,3,19,22,18,21,14,03,11,09,06,,,,1.8,0.9,1.5*3D
$GPGSV,3,1,12,14,71,185,34,22,67,021,40,19,41,283,38,06,35,221,30*7B
$GPGSV,3,2,12,03,34,235,37,18,32,067,36,21,23,127,36,24,19,310,*7C
$GPGSV,3,3,12,09,18,053,28,11,14,311,33,27,06,034,25,31,01,172,*74
$GPRMC,213231.000,A,3748.8011,N,12217.8591,W,0.05,188.35,210112,,,D*78
$GPVTG,188.35,T,,M,0.05,N,0.1,K,D*0B
$GPGGA,213232.000,3748.8011,N,12217.8591,W,2,09,0.9,4.3,M,-25.1,M,2.8,0000*44
$GPGSA,A,3,19,22,18,21,14,03,11,09,06,,,,1.8,0.9,1.5*3D
$GPRMC,213232.000,A,3748.8011,N,12217.8591,W,0.04,181.28,210112,,,D*7F
$GPVTG,181.28,T,,M,0.04,N,0.1,K,D*0F
$GPGGA,213233.000,3748.8011,N,12217.8591,W,2,09,0.9,4.5,M,-25.1,M,1.8,0000*40
$GPGSA,A,3,19,22,18,21,14,03,11,09,06,,,,1.8,0.9,1.5*3D
$GPRMC,213233.000,A,3748.8011,N,12217.8591,W,0.12,165.59,210112,,,D*75
$GPVTG,165.59,T,,M,0.12,N,0.2,K,D*07
$GPGGA,213234.000,3748.8010,N,12217.8590,W,2,09,0.9,4.4,M,-25.1,M,1.8,0000*46
$GPGSA,A,3,19,22,18,21,14,03,11,09,06,,,,1.8,0.9,1.5*3D
$GPRMC,213234.000,A,3748.8010,N,12217.8590,W,0.32,117.87,210112,,,D*76
$GPVTG,117.87,T,,M,0.32,N,0.6,K,D*07
$GPGGA,213235.000,3748.8010,N,12217.8590,W,2,09,0.9,4.4,M,-25.1,M,1.8,0000*47
$GPGSA,A,3,19,22,18,21,14,03,11,09,06,,,,1.8,0.9,1.5*3D
$GPRMC,213235.000,A,3748.8010,N,12217.8590,W,0.09,207.38,210112,,,D*79
$GPVTG,207.38,T,,M,0.09,N,0.2,K,D*0D
$GPGGA,213236.000,3748.8009,N,12217.8590,W,2,09,0.9,4.5,M,-25.1,M,2.8,0000*4E
$GPGSA,A,3,19,22,18,21,14,03,11,09,06,,,,1.8,0.9,1.5*3D
$GPGSV,3,1,12,14,71,185,34,22,67,021,32,19,41,283,29,06,35,221,35*7B
$GPGSV,3,2,12,03,34,235,32,18,32,067,36,21,23,127,36,24,19,310,*79
$GPGSV,3,3,12,09,18,053,24,11,14,311,21,27,06,034,16,31,01,172,*7B
$GPRMC,213236.000,A,3748.8009,N,12217.8590,W,0.15,169.94,210112,,,D*72
$GPVTG,169.94,T,,M,0.15,N,0.3,K,D*0C
$GPGGA,213237.000,3748.8009,N,12217.8590,W,2,09,0.9,4.5,M,-25.1,M,3.8,0000*4E
$GPGSA,A,3,19,22,18,21,14,03,11,09,06,,,,1.8,0.9,1.5*3D
$GPRMC,213237.000,A,3748.8009,N,12217.8590,W,0.13,175.18,210112,,,D*7C
$GPVTG,175.18,T,,M,0.13,N,0.2,K,D*02
$GPGGA,213238.000,3748.8009,N,12217.8590,W,2,09,0.9,4.5,M,-25.1,M,4.8,0000*46
$GPGSA,A,3,19,22,18,21,14,03,11,09,06,,,,1.8,0.9,1.5*3D
$GPRMC,213238.000,A,3748.8009,N,12217.8590,W,0.16,155.22,210112,,,D*7D
$GPVTG,155.22,T,,M,0.16,N,0.3,K,D*0D
$GPGGA,213239.000,3748.8008,N,12217.8591,W,2,09,0.9,4.6,M,-25.1,M,1.8,0000*41
$GPGSA,A,3,19,22,18,21,14,03,11,09,06,,,,1.8,0.9,1.5*3D
$GPRMC,213239.000,A,3748.8008,N,12217.8591,W,0.32,180.60,210112,,,D*74
$GPVTG,180.60,T,,M,0.32,N,0.6,K,D*00
$GPGGA,213240.000,3748.8008,N,12217.8591,W,2,09,0.9,4.5,M,-25.1,M,1.8,0000*4C
$GPGSA,A,3,19,22,18,21,14,03,11,09,06,,,,1.8,0.9,1.5*3D
$GPRMC,213240.000,A,3748.8008,N,12217.8591,W,0.12,354.10,210112,,,D*74
$GPVTG,354.10,T,,M,0.12,N,0.2,K,D*0A
$GPGGA,213241.000,3748.8008,N,12217.8591,W,2,09,0.9,4.3,M,-25.1,M,1.8,0000*4B
$GPGSA,A,3,19,22,18,21,14,03,11,09,06,,,,1.8,0.9,1.5*3D
$GPGSV,3,1,12,14,71,185,34,22,67,021,31,19,41,283,29,06,35,221,35*78
$GPGSV,3,2,12,03,34,235,33,18,32,067,35,21,23,127,35,24,19,310,*78
$GPGSV,3,3,12,09,18,053,23,11,14,311,19,27,06,034,,31,01,172,*70
$GPRMC,213241.000,A,3748.8008,N,12217.8591,W,0.20,326.18,210112,,,D*79
$GPVTG,326.18,T,,M,0.20,N,0.4,K,D*00
$GPGGA,213242.000,3748.8009,N,12217.8592,W,2,09,0.9,4.1,M,-25.1,M,1.8,0000*48
$GPGSA,A,3,19,22,18,21,14,03,11,09,06,,,,1.8,0.9,1.5*3D
$GPRMC,213242.000,A,3748.8009,N,12217.8592,W,0.22,309.52,210112,,,D*79
$GPVTG,309.52,T,,M,0.22,N,0.4,K,D*01
$GPGGA,213243.000,3748.8010,N,12217.8593,W,2,09,0.9,3.9,M,-25.1,M,2.8,0000*4C
$GPGSA,A,3,19,22,18,21,14,03,11,09,06,,,,1.8,0.9,1.5*3D
$GPRMC,213243.000,A,3748.8010,N,12217.8593,W,0.29,345.33,210112,,,D*75
$GPVTG,345.33,T,,M,0.29,N,0.5,K,D*04
$GPGGA,213244.000,3748.8011,N,12217.8593,W,2,09,0.9,3.6,M,-25.1,M,1.8,0000*46
$GPGSA,A,3,19,22,18,21,14,03,11,09,06,,,,1.8,0.9,1.5*3D
$GPRMC,213244.000,A,3748.8011,N,12217.8593,W,0.34,340.62,210112,,,D*7E
$GPVTG,340.62,T,,M,0.34,N,0.6,K,D*0A
$GPGGA,213245.000,3748.8011,N,12217.8594,W,2,09,0.9,3.5,M,-25.1,M,0.8,0000*42
$GPGSA,A,3,19,22,18,21,14,03,11,09,06,,,,1.8,0.9,1.5*3D
$GPRMC,213245.000,A,3748.8011,N,12217.8594,W,0.09,193.97,210112,,,D*70
$GPVTG,193.97,T,,M,0.09,N,0.2,K,D*06
$GPGGA,213246.000,3748.8011,N,12217.8594,W,2,09,0.9,3.5,M,-25.1,M,1.8,0000*40
$GPGSA,A,3,19,22,18,21,14,03,11,09,06,,,,1.8,0.9,1.5*3D
$GPGSV,3,1,12,14,71,185,34,22,67,021,31,19,41,283,29,06,35,221,34*79
$GPGSV,3,2,12,03,34,235,34,18,32,067,34,21,23,127,34,24,19,310,*7F
$GPGSV,3,3,12,09,18,053,24,11,14,311,18,27,06,034,,31,01,172,*76
$GPVTG,172.95,T,,M,0.26,N,0.5,K,D*01
$GPGGA,213247.000,3748.8010,N,12217.8594,W,2,09,0.9,3.6,M,-25.1,M,1.8,0000*43
$GPGSA,A,3,19,22,18,21,14,03,11,09,06,,,,1.8,0.9,1.5*3D
$GPRMC,213247.000,A,3748.8010,N,12217.8594,W,0.25,160.60,210112,,,D*79
$GPVTG,160.60,T,,M,0.25,N,0.5,K,D*0B
$GPGGA,213248.000,3748.8010,N,12217.8593,W,2,09,0.9,3.6,M,-25.1,M,2.8,0000*48
$GPGSA,A,3,19,22,18,21,14,03,11,09,06,,,,1.8,0.9,1.5*3D
$GPRMC,213248.000,A,3748.8010,N,12217.8593,W,0.22,159.86,210112,,,D*74
$GPVTG,159.86,T,,M,0.22,N,0.4,K,D*0F
$GPGGA,213249.000,3748.8009,N,12217.8594,W,2,09,0.9,3.6,M,-25.1,M,3.8,0000*47
$GPGSA,A,3,19,22,18,21,14,03,11,09,06,,,,1.8,0.9,1.5*3D
$GPRMC,213249.000,A,3748.8009,N,12217.8594,W,0.07,200.92,210112,,,D*77
$GPVTG,200.92,T,,M,0.07,N,0.1,K,D*07
$GPGGA,213250.000,3748.8010,N,12217.8594,W,2,09,0.9,3.6,M,-25.1,M,4.8,0000*40
$GPGSA,A,3,19,22,18,21,14,03,11,09,06,,,,1.8,0.9,1.5*3D
$GPRMC,213250.000,A,3748.8010,N,12217.8594,W,0.29,332.89,210112,,,D*71
$GPVTG,332.89,T,,M,0.29,N,0.5,K,D*05
$GPGGA,213251.000,3748.8009,N,12217.8596,W,2,09,0.9,4.6,M,-25.1,M,5.8,0000*4D
$GPGSA,A,3,19,22,18,21,14,03,11,09,06,,,,1.8,0.9,1.5*3D
$GPGSV,3,1,12,14,71,185,18,22,67,021,32,19,41,283,28,06,35,220,23*72
$GPGSV,3,2,12,03,34,235,21,18,32,067,34,21,23,127,23,24,20,310,*77
$GPGSV,3,3,12,09,18,053,24,11,14,311,34,27,06,034,,31,01,172,*78
$GPRMC,213251.000,A,3748.8009,N,12217.8596,W,0.47,324.66,210112,,,D*74
$GPVTG,324.66,T,,M,0.47,N,0.9,K,D*07
$GPGGA,213252.000,3748.8009,N,12217.8598,W,2,09,0.9,5.6,M,-25.1,M,6.8,0000*42
$GPGSA,A,3,19,22,18,21,14,03,11,09,06,,,,1.8,0.9,1.5*3D
$GPRMC,213252.000,A,3748.8009,N,12217.8598,W,0.01,270.54,210112,,,D*7A
$GPVTG,270.54,T,,M,0.01,N,0.0,K,D*0D
$GPGGA,213253.000,3748.8008,N,12217.8598,W,2,09,0.9,6.4,M,-25.1,M,7.8,0000*42
$GPGSA,A,3,19,22,18,21,14,03,11,09,06,,,,1.8,0.9,1.5*3D
$GPRMC,213253.000,A,3748.8008,N,12217.8598,W,0.05,49.59,210112,,,D*4B
$GPVTG,49.59,T,,M,0.05,N,0.1,K,D*3D
$GPGGA,213254.000,3748.8006,N,12217.8601,W,2,09,0.9,7.3,M,-25.1,M,8.8,0000*41
$GPGSA,A,3,19,22,18,21,14,03,11,09,06,,,,1.8,0.9,1.5*3D
$GPRMC,213254.000,A,3748.8006,N,12217.8601,W,1.13,200.87,210112,,,D*7B
$GPVTG,200.87,T,,M,1.13,N,2.1,K,D*05
$GPGGA,213255.000,3748.8002,N,12217.8603,W,2,09,0.9,7.7,M,-25.1,M,9.8,0000*43
$GPGSA,A,3,19,22,18,21,14,03,11,09,06,,,,1.8,0.9,1.5*3D
$GPRMC,213255.000,A,3748.8002,N,12217.8603,W,1.14,199.71,210112,,,D*71
$GPVTG,199.71,T,,M,1.14,N,2.1,K,D*08
$GPGGA,213256.000,3748.8000,N,12217.8601,W,2,09,0.9,7.6,M,-25.1,M,10.8,0000*79
$GPGSA,A,3,19,22,18,21,14,03,11,09,06,,,,1.8,0.9,1.5*3D
$GPGSV,3,1,12,14,71,185,27,22,67,021,32,19,41,283,20,06,35,220,22*77
$GPGSV,3,2,12,03,34,235,26,18,32,067,36,21,23,127,30,24,20,310,*70
$GPGSV,3,3,12,09,18,053,23,11,14,311,27,27,06,034,,31,01,172,*7D
$GPRMC,213256.000,A,3748.8000,N,12217.8601,W,0.20,100.85,210112,,,D*7F
$GPVTG,100.85,T,,M,0.20,N,0.4,K,D*02
$GPGGA,213257.000,3748.8000,N,12217.8602,W,2,09,0.9,7.6,M,-25.1,M,11.8,0000*7A
$GPGSA,A,3,19,22,18,21,14,03,11,09,06,,,,1.8,0.9,1.5*3D
$GPRMC,213257.000,A,3748.8000,N,12217.8602,W,0.46,97.06,210112,,,D*49
$GPVTG,97.06,T,,M,0.46,N,0.8,K,D*3A
$GPGGA,213258.000,3748.7999,N,12217.8601,W,2,09,0.9,8.4,M,-25.1,M,12.8,0000*7E
$GPGSA,A,3,19,22,18,21,14,03,11,09,06,,,,1.8,0.9,1.5*3D
$GPRMC,213258.000,A,3748.7999,N,12217.8601,W,1.06,150.12,210112,,,D*79
$GPVTG,150.12,T,,M,1.06,N,2.0,K,D*0A
$GPGGA,213259.000,3748.7999,N,12217.8602,W,2,09,0.9,9.2,M,-25.1,M,13.8,0000*7A
$GPGSA,A,3,19,22,18,21,14,03,11,09,06,,,,1.8,0.9,1.5*3D
$GPRMC,213259.000,A,3748.7999,N,12217.8602,W,0.19,179.34,210112,,,D*7B
$GPVTG,179.34,T,,M,0.19,N,0.3,K,D*0B
$GPGGA,213300.000,3748.7999,N,12217.8604,W,2,09,0.9,9.7,M,-25.1,M,14.8,0000*73
$GPGSA,A,3,19,22,18,21,14,03,11,09,06,,,,1.8,0.9,1.5*3D
$GPRMC,213300.000,A,3748.7999,N,12217.8604,W,0.04,95.61,210112,,,D*4F
$GPVTG,95.61,T,,M,0.04,N,0.1,K,D*36
$GPGGA,213301.000,3748.7999,N,12217.8607,W,2,09,0.9,10.4,M,-25.1,M,15.8,0000*4B
$GPGSA,A,3,19,22,18,21,14,03,11,09,06,,,,1.8,0.9,1.5*3D
$GPGSV,3,1,12,14,71,185,21,22,67,021,26,19,41,283,30,06,35,220,28*7F
$GPGSV,3,2,12,03,34,235,23,18,32,067,29,21,23,127,20,24,20,310,*7A
$GPGSV,3,3,12,09,18,053,31,11,14,311,42,27,06,034,,31,01,172,*7D
$GPRMC,213301.000,A,3748.7999,N,12217.8607,W,0.05,210.25,210112,,,D*73
$GPVTG,210.25,T,,M,0.05,N,0.1,K,D*08
$GPGGA,213302.000,3748.8001,N,12217.8608,W,2,07,1.1,11.8,M,-25.1,M,16.8,0000*49
$GPGSA,A,3,19,22,18,21,14,03,11,,,,,,1.9,1.1,1.6*39
$GPRMC,213302.000,A,3748.8001,N,12217.8608,W,0.63,193.96,210112,,,D*78
$GPVTG,193.96,T,,M,0.63,N,1.2,K,D*0A
$GPGGA,213303.000,3748.8001,N,12217.8610,W,2,09,0.9,12.1,M,-25.1,M,17.8,0000*4D
$GPGSA,A,3,19,22,18,21,14,03,11,09,06,,,,1.8,0.9,1.5*3D
$GPRMC,213303.000,A,3748.8001,N,12217.8610,W,0.29,16.21,210112,,,D*4E
$GPVTG,16.21,T,,M,0.29,N,0.5,K,D*32
$GPGGA,213304.000,3748.8003,N,12217.8610,W,1,09,0.9,13.2,M,-25.1,M,,0000*59
$GPGSA,A,3,19,22,18,21,14,03,11,09,06,,,,1.8,0.9,1.5*3D
$GPRMC,213304.000,A,3748.8003,N,12217.8610,W,0.46,70.96,210112,,,A*4B
$GPVTG,70.96,T,,M,0.46,N,0.8,K,A*3F
$GPGGA,213305.000,3748.8001,N,12217.8611,W,1,09,0.9,13.7,M,-25.1,M,,0000*5E
$GPGSA,A,3,19,22,18,21,14,03,11,09,06,,,,1.8,0.9,1.5*3D
$GPRMC,213305.000,A,3748.8001,N,12217.8611,W,1.41,167.15,210112,,,A*73
$GPVTG,167.15,T,,M,1.41,N,2.6,K,A*09
$GPGGA,213306.000,3748.7993,N,12217.8611,W,1,09,0.9,13.5,M,-25.1,M,,0000*52
$GPGSA,A,3,19,22,18,21,14,03,11,09,06,,,,1.8,0.9,1.5*3D
$GPGSV,3,1,12,14,71,185,29,22,67,021,27,19,41,283,34,06,35,220,35*7E
$GPGSV,3,2,12,03,34,235,32,18,32,067,29,21,23,127,32,24,20,310,*79
$GPRMC,213306.000,A,3748.7993,N,12217.8611,W,0.48,135.94,210112,,,A*7B
$GPVTG,135.94,T,,M,0.48,N,0.9,K,A*02
$GPGGA,213307.000,3748.7987,N,12217.8611,W,1,09,0.9,13.8,M,-25.1,M,,0000*5B
$GPGSA,A,3,19,22,18,21,14,03,11,09,06,,,,1.8,0.9,1.5*3D
$GPRMC,213307.000,A,3748.7987,N,12217.8611,W,0.32,123.58,210112,,,A*75
$GPVTG,123.58,T,,M,0.32,N,0.6,K,A*07
$GPGGA,213308.000,3748.7983,N,12217.8609,W,1,09,0.9,13.5,M,-25.1,M,,0000*54
$GPGSA,A,3,19,22,18,21,14,03,11,09,06,,,,1.8,0.9,1.5*3D
$GPRMC,213308.000,A,3748.7983,N,12217.8609,W,0.25,139.90,210112,,,A*7E
$GPVTG,139.90,T,,M,0.25,N,0.5,K,A*0D
$GPGGA,213309.000,3748.7981,N,12217.8608,W,1,09,0.9,12.9,M,-25.1,M,,0000*5B
$GPGSA,A,3,19,22,18,21,14,03,11,09,06,,,,1.8,0.9,1.5*3D
$GPRMC,213309.000,A,3748.7981,N,12217.8608,W,0.15,85.71,210112,,,A*46
$GPVTG,85.71,T,,M,0.15,N,0.3,K,A*31
$GPGGA,213310.000,3748.7985,N,12217.8605,W,1,09,0.9,12.9,M,-25.1,M,,0000*5A
$GPGSA,A,3,19,22,18,21,14,03,11,09,06,,,,1.8,0.9,1.5*3D
$GPRMC,213310.000,A,3748.7985,N,12217.8605,W,1.18,33.00,210112,,,A*40
$GPVTG,33.00,T,,M,1.18,N,2.2,K,A*35
$GPGGA,213311.000,3748.7987,N,12217.8603,W,1,09,0.9,13.7,M,-25.1,M,,0000*50
$GPGSA,A,3,19,22,18,21,14,03,11,09,06,,,,1.8,0.9,1.5*3D
$GPGSV,3,1,12,14,71,185,29,22,67,021,32,19,41,283,24,06,35,220,31*7F
$GPGSV,3,2,12,03,34,235,29,18,32,067,38,21,23,127,35,24,20,310,*74
$GPGSV,3,3,12,09,18,053,39,11,14,311,20,27,06,034,36,31,01,172,*74
$GPRMC,213311.000,A,3748.7987,N,12217.8603,W,0.29,165.61,210112,,,A*73
$GPVTG,165.61,T,,M,0.29,N,0.5,K,A*06
$GPGGA,213312.000,3748.7988,N,12217.8603,W,1,09,0.9,12.7,M,-25.1,M,,0000*5D
$GPGSA,A,3,19,22,18,21,14,03,11,09,06,,,,1.8,0.9,1.5*3D
$GPRMC,213312.000,A,3748.7988,N,12217.8603,W,0.15,299.51,210112,,,A*73
$GPVTG,299.51,T,,M,0.15,N,0.3,K,A*0C
$GPGGA,213313.000,3748.7989,N,12217.8603,W,1,09,0.9,11.7,M,-25.1,M,,0000*5E
$GPGSA,A,3,19,22,18,21,14,03,11,09,06,,,,1.8,0.9,1.5*3D
$GPRMC,213313.000,A,3748.7989,N,12217.8603,W,0.25,343.86,210112,,,A*7C
$GPVTG,343.86,T,,M,0.25,N,0.5,K,A*05
$GPGGA,213314.000,3748.7989,N,12217.8603,W,1,09,0.9,11.6,M,-25.1,M,,0000*58
$GPGSA,A,3,19,22,18,21,14,03,11,09,06,,,,1.8,0.9,1.5*3D
$GPRMC,213314.000,A,3748.7989,N,12217.8603,W,0.16,218.01,210112,,,A*7B
$GPVTG,218.01,T,,M,0.16,N,0.3,K,A*03
$GPGGA,213315.000,3748.7990,N,12217.8603,W,1,09,0.9,11.7,M,-25.1,M,,0000*50
$GPGSA,A,3,19,22,18,21,14,03,11,09,06,,,,1.8,0.9,1.5*3D
$GPRMC,213315.000,A,3748.7990,N,12217.8603,W,0.31,354.36,210112,,,A*7A
$GPVTG,354.36,T,,M,0.31,N,0.6,K,A*0E
$GPGGA,213316.000,3748.7991,N,12217.8602,W,1,09,0.9,11.8,M,-25.1,M,,0000*5C
$GPGSA,A,3,19,22,18,21,14,03,11,09,06,,,,1.8,0.9,1.5*3D
$GPGSV,3,1,12,14,71,185,31,22,67,021,29,19,41,283,28,06,35,220,35*74
$GPGSV,3,2,12,03,34,235,33,18,32,067,39,21,23,127,34,24,20,310,*7F
$GPGSV,3,3,12,09,18,053,40,11,14,311,25,27,06,034,39,31,01,172,*70
$GPRMC,213316.000,A,3748.7991,N,12217.8602,W,0.06,129.26,210112,,,A*74
$GPVTG,129.26,T,,M,0.06,N,0.1,K,A*04
$GPGGA,213317.000,3748.7992,N,12217.8602,W,2,09,0.9,11.9,M,-25.1,M,1.8,0000*7B
$GPGSA,A,3,19,22,18,21,14,03,11,09,06,,,,1.8,0.9,1.5*3D
$GPRMC,213317.000,A,3748.7992,N,12217.8602,W,0.04,49.76,210112,,,D*43
$GPVTG,49.76,T,,M,0.04,N,0.1,K,D*31
$GPGGA,213318.000,3748.7992,N,12217.8602,W,2,09,0.9,12.0,M,-25.1,M,2.8,0000*7D
$GPGSA,A,3,19,22,18,21,14,03,11,09,06,,,,1.8,0.9,1.5*3D
$GPRMC,213318.000,A,3748.7992,N,12217.8602,W,0.13,354.49,210112,,,D*79
$GPVTG,354.49,T,,M,0.13,N,0.2,K,D*07
$GPGGA,213319.000,3748.7993,N,12217.8602,W,2,09,0.9,12.0,M,-25.1,M,3.8,0000*7C
$GPGSA,A,3,19,22,18,21,14,03,11,09,06,,,,1.8,0.9,1.5*3D
$GPRMC,213319.000,A,3748.7993,N,12217.8602,W,0.26,282.14,210112,,,D*7D
$GPVTG,282.14,T,,M,0.26,N,0.5,K,D*04
$GPGGA,213320.000,3748.7994,N,12217.8602,W,2,09,0.9,12.1,M,-25.1,M,4.8,0000*77
$GPGSA,A,3,19,22,18,21,14,03,11,09,06,,,,1.8,0.9,1.5*3D
$GPRMC,213320.000,A,3748.7994,N,12217.8602,W,0.37,320.84,210112,,,D*70
$GPVTG,320.84,T,,M,0.37,N,0.7,K,D*06
$GPGGA,213321.000,3748.7995,N,12217.8601,W,2,09,0.9,12.2,M,-25.1,M,1.8,0000*72
$GPGSA,A,3,19,22,18,21,14,03,11,09,06,,,,1.8,0.9,1.5*3D
$GPGSV,3,1,12,14,71,185,32,22,67,022,26,19,41,282,27,06,35,220,35*75
$GPGSV,3,2,12,03,34,234,31,18,32,067,36,21,23,128,35,24,20,310,*7D
$GPGSV,3,3,12,09,18,052,39,11,14,311,25,27,06,034,39,31,01,171,*7C
$GPRMC,213321.000,A,3748.7995,N,12217.8601,W,0.03,160.45,210112,,,D*7F
$GPVTG,160.45,T,,M,0.03,N,0.1,K,D*0C
$GPGGA,213322.000,3748.7996,N,12217.8600,W,2,09,0.9,12.3,M,-25.1,M,1.8,0000*72
$GPGSA,A,3,19,22,18,21,14,03,11,09,06,,,,1.8,0.9,1.5*3D
$GPRMC,213322.000,A,3748.7996,N,12217.8600,W,0.08,111.63,210112,,,D*77
$GPVTG,111.63,T,,M,0.08,N,0.2,K,D*06
$GPGGA,213323.000,3748.7997,N,12217.8599,W,2,09,0.9,12.4,M,-25.1,M,1.8,0000*76
$GPGSA,A,3,19,22,18,21,14,03,11,09,06,,,,1.8,0.9,1.5*3D
$GPRMC,213323.000,A,3748.7997,N,12217.8599,W,0.01,70.44,210112,,,D*4E
$GPVTG,70.44,T,,M,0.01,N,0.0,K,D*3E
$GPGGA,213324.000,3748.7998,N,12217.8598,W,2,09,0.9,12.5,M,-25.1,M,2.8,0000*7D
$GPGSA,A,3,19,22,18,21,14,03,11,09,06,,,,1.8,0.9,1.5*3D
$GPRMC,213324.000,A,3748.7998,N,12217.8598,W,0.45,71.24,210112,,,D*40
$GPVTG,71.24,T,,M,0.45,N,0.8,K,D*31
$GPGGA,213325.000,3748.7999,N,12217.8595,W,2,09,0.9,12.3,M,-25.1,M,3.8,0000*77
$GPGSA,A,3,19,22,18,21,14,03,11,09,06,,,,1.8,0.9,1.5*3D
$GPRMC,213325.000,A,3748.7999,N,12217.8595,W,0.82,84.44,210112,,,D*4A
$GPVTG,84.44,T,,M,0.82,N,1.5,K,D*3A
$GPGGA,213326.000,3748.7999,N,12217.8592,W,2,09,0.9,11.5,M,-25.1,M,1.8,0000*74
$GPGSA,A,3,19,22,18,21,14,03,11,09,06,,,,1.8,0.9,1.5*3D
$GPGSV,3,1,12,14,71,185,33,22,67,022,30,19,41,282,28,06,35,220,35*7C
$GPGSV,3,2,12,03,34,234,31,18,32,067,35,21,23,128,35,24,20,310,*7E
$GPGSV,3,3,12,09,18,052,29,11,14,311,20,27,06,034,25,31,01,171,*75
$GPRMC,213326.000,A,3748.7999,N,12217.8592,W,1.08,86.67,210112,,,D*4E
$GPVTG,86.67,T,,M,1.08,N,2.0,K,D*3C
$GPGGA,213327.000,3748.7999,N,12217.8588,W,2,09,0.9,10.5,M,-25.1,M,1.8,0000*7F
$GPGSA,A,3,19,22,18,21,14,03,11,09,06,,,,1.8,0.9,1.5*3D
$GPRMC,213327.000,A,3748.7999,N,12217.8588,W,1.38,105.43,210112,,,D*7B
$GPVTG,105.43,T,,M,1.38,N,2.5,K,D*06
$GPGGA,213328.000,3748.7997,N,12217.8584,W,2,08,1.0,9.7,M,-25.1,M,1.8,0000*41
$GPGSA,A,3,19,22,18,21,14,03,11,06,,,,,1.9,1.0,1.6*3E
$GPRMC,213328.000,A,3748.7997,N,12217.8584,W,1.47,120.24,210112,,,D*78
$GPVTG,120.24,T,,M,1.47,N,2.7,K,D*0A
$GPGGA,213329.000,3748.7995,N,12217.8579,W,2,09,0.9,8.8,M,-25.1,M,1.8,0000*47
$GPGSA,A,3,19,22,18,21,14,03,11,09,06,,,,1.8,0.9,1.5*3D
$GPRMC,213329.000,A,3748.7995,N,12217.8579,W,1.69,116.27,210112,,,D*73
$GPVTG,116.27,T,,M,1.69,N,3.1,K,D*07
$GPGGA,213330.000,3748.7993,N,12217.8572,W,2,09,0.9,7.9,M,-25.1,M,2.8,0000*4F
$GPGSA,A,3,19,22,18,21,14,03,11,09,06,,,,1.8,0.9,1.5*3D
$GPRMC,213330.000,A,3748.7993,N,12217.8572,W,1.94,118.57,210112,,,D*7D
$GPVTG,118.57,T,,M,1.94,N,3.6,K,D*0B
$GPGGA,213331.000,3748.7989,N,12217.8567,W,2,09,0.9,7.4,M,-25.1,M,3.8,0000*4D
$GPGSA,A,3,19,22,18,21,14,03,11,09,06,,,,1.8,0.9,1.5*3D
$GPGSV,3,1,12,14,71,185,33,22,67,022,27,19,41,282,32,06,35,220,36*72
$GPGSV,3,2,12,03,34,234,36,18,32,067,30,21,23,128,28,24,20,310,*70
$GPGSV,3,3,12,09,18,052,26,11,14,311,22,27,06,034,25,31,01,171,*78
$GPRMC,213331.000,A,3748.7989,N,12217.8567,W,2.53,118.72,210112,,,D*7C
$GPGGA,213332.000,3748.7986,N,12217.8561,W,2,09,0.9,6.8,M,-25.1,M,4.8,0000*4D
$GPGSA,A,3,19,22,18,21,14,03,11,09,06,,,,1.8,0.9,1.5*3D
$GPRMC,213332.000,A,3748.7986,N,12217.8561,W,2.27,121.17,210112,,,D*7C
$GPVTG,121.17,T,,M,2.27,N,4.2,K,D*0D
$GPGGA,213333.000,3748.7984,N,12217.8556,W,2,09,0.9,6.2,M,-25.1,M,1.8,0000*45
$GPGSA,A,3,19,22,18,21,14,03,11,09,06,,,,1.8,0.9,1.5*3D
$GPRMC,213333.000,A,3748.7984,N,12217.8556,W,2.16,121.84,210112,,,D*73
$GPVTG,121.84,T,,M,2.16,N,4.0,K,D*07
$GPGGA,213334.000,3748.7980,N,12217.8549,W,2,09,0.9,5.6,M,-25.1,M,1.8,0000*4F
$GPGSA,A,3,19,22,18,21,14,03,11,09,06,,,,1.8,0.9,1.5*3D
$GPRMC,213334.000,A,3748.7980,N,12217.8549,W,2.22,118.86,210112,,,D*71
$GPVTG,118.86,T,,M,2.22,N,4.1,K,D*09
$GPGGA,213335.000,3748.7977,N,12217.8542,W,2,09,0.9,5.1,M,-25.1,M,1.8,0000*4A
$GPGSA,A,3,19,22,18,21,14,03,11,09,06,,,,1.8,0.9,1.5*3D
$GPRMC,213335.000,A,3748.7977,N,12217.8542,W,2.12,118.79,210112,,,D*70
$GPVTG,118.79,T,,M,2.12,N,3.9,K,D*05
$GPGGA,213336.000,3748.7974,N,12217.8537,W,2,09,0.9,4.7,M,-25.1,M,1.8,0000*4F
$GPGSA,A,3,19,22,18,21,14,03,11,09,06,,,,1.8,0.9,1.5*3D
$GPGSV,3,1,12,14,71,185,33,22,67,022,27,19,41,282,31,06,35,220,37*70
$GPGSV,3,2,12,03,34,234,38,18,32,067,36,21,23,128,35,24,20,310,*74
$GPGSV,3,3,12,09,18,052,27,11,14,311,27,27,06,034,21,31,01,171,*78
$GPRMC,213336.000,A,3748.7974,N,12217.8537,W,1.76,109.76,210112,,,D*7C
$GPVTG,109.76,T,,M,1.76,N,3.3,K,D*01
$GPGGA,213337.000,3748.7971,N,12217.8531,W,2,09,0.9,4.4,M,-25.1,M,2.8,0000*4D
$GPGSA,A,3,19,22,18,21,14,03,11,09,06,,,,1.8,0.9,1.5*3D
$GPRMC,213337.000,A,3748.7971,N,12217.8531,W,2.04,116.59,210112,,,D*7B
$GPVTG,116.59,T,,M,2.04,N,3.8,K,D*0F
$GPGGA,213338.000,3748.7967,N,12217.8524,W,2,09,0.9,4.3,M,-25.1,M,3.8,0000*47
$GPGSA,A,3,19,22,18,21,14,03,11,09,06,,,,1.8,0.9,1.5*3D
$GPRMC,213338.000,A,3748.7967,N,12217.8524,W,2.13,118.48,210112,,,D*7F
$GPVTG,118.48,T,,M,2.13,N,3.9,K,D*06
$GPGGA,213339.000,3748.7962,N,12217.8515,W,2,09,0.9,3.7,M,-25.1,M,1.8,0000*40
$GPGSA,A,3,19,22,18,21,14,03,11,09,06,,,,1.8,0.9,1.5*3D
$GPRMC,213339.000,A,3748.7962,N,12217.8515,W,2.15,114.58,210112,,,D*72
$GPVTG,114.58,T,,M,2.15,N,4.0,K,D*03
$GPGGA,213339.000,3748.7958,N,12217.8506,W,2,09,0.9,3.2,M,-25.1,M,1.8,0000*4E
$GPGSA,A,3,19,22,18,21,14,03,11,09,06,,,,1.8,0.9,1.5*3D
$GPRMC,213339.000,A,3748.7958,N,12217.8506,W,2.24,108.98,210112,,,D*7A
$GPVTG,108.98,T,,M,2.24,N,4.1,K,D*01
$GPGGA,213340.000,3748.7954,N,12217.8498,W,2,09,0.9,2.8,M,-25.1,M,1.8,0000*41
$GPGSA,A,3,19,22,18,21,14,03,11,09,06,,,,1.8,0.9,1.5*3D
$GPGSV,3,1,12,14,71,185,33,22,67,022,28,19,41,282,31,06,35,220,38*70
$GPGSV,3,2,12,03,34,234,38,18,32,067,28,21,23,128,29,24,20,310,*76
$GPGSV,3,3,12,09,18,052,18,11,14,311,26,27,06,034,21,31,01,171,*75
$GPRMC,213340.000,A,3748.7954,N,12217.8498,W,1.86,110.25,210112,,,D*7A
$GPVTG,110.25,T,,M,1.86,N,3.4,K,D*07
$GPGGA,213341.000,3748.7950,N,12217.8492,W,2,09,0.9,2.7,M,-25.1,M,2.8,0000*42
$GPGSA,A,3,19,22,18,21,14,03,11,09,06,,,,1.8,0.9,1.5*3D
$GPRMC,213341.000,A,3748.7950,N,12217.8492,W,2.12,115.85,210112,,,D*74
$GPVTG,115.85,T,,M,2.12,N,3.9,K,D*0B
$GPGGA,213342.000,3748.7947,N,12217.8485,W,2,09,0.9,2.4,M,-25.1,M,3.8,0000*43
$GPGSA,A,3,19,22,18,21,14,03,11,09,06,,,,1.8,0.9,1.5*3D
$GPRMC,213342.000,A,3748.7947,N,12217.8485,W,2.14,112.04,210112,,,D*7F
$GPVTG,112.04,T,,M,2.14,N,4.0,K,D*0D
$GPGGA,213343.000,3748.7944,N,12217.8478,W,2,09,0.9,2.1,M,-25.1,M,4.8,0000*41
$GPGSA,A,3,19,22,18,21,14,03,11,09,06,,,,1.8,0.9,1.5*3D
$GPRMC,213343.000,A,3748.7944,N,12217.8478,W,2.10,116.56,210112,,,D*78
$GPVTG,116.56,T,,M,2.10,N,3.9,K,D*04
$GPGGA,213344.000,3748.7943,N,12217.8473,W,2,09,0.9,1.5,M,-25.1,M,5.8,0000*4C
$GPGSA,A,3,19,22,18,21,14,03,11,09,06,,,,1.8,0.9,1.5*3D
$GPRMC,213344.000,A,3748.7943,N,12217.8473,W,1.57,92.48,210112,,,D*41
$GPVTG,92.48,T,,M,1.57,N,2.9,K,D*37
$GPGGA,213345.000,3748.7940,N,12217.8466,W,2,09,0.9,1.4,M,-25.1,M,1.8,0000*4F
$GPGSA,A,3,19,22,18,21,14,03,11,09,06,,,,1.8,0.9,1.5*3D
$GPGSV,3,1,12,14,71,185,32,22,67,022,28,19,41,282,31,06,35,220,33*7A
$GPGSV,3,2,12,03,34,234,36,18,32,067,29,21,23,128,29,24,20,310,*79
$GPGSV,3,3,12,09,18,052,21,11,14,311,26,27,06,034,20,31,01,171,*7E
$GPRMC,213345.000,A,3748.7940,N,12217.8466,W,1.09,91.65,210112,,,D*40
$GPVTG,91.65,T,,M,1.09,N,2.0,K,D*39
$GPGGA,213346.000,3748.7939,N,12217.8460,W,2,09,0.9,0.5,M,-25.1,M,2.8,0000*47
$GPGSA,A,3,19,22,18,21,14,03,11,09,06,,,,1.8,0.9,1.5*3D
$GPRMC,213346.000,A,3748.7939,N,12217.8460,W,1.17,116.60,210112,,,D*7F
$GPVTG,116.60,T,,M,1.17,N,2.2,K,D*0F
$GPGGA,213347.000,3748.7937,N,12217.8455,W,2,09,0.9,0.2,M,-25.1,M,3.8,0000*48
$GPGSA,A,3,19,22,18,21,14,03,11,09,06,,,,1.8,0.9,1.5*3D
$GPRMC,213347.000,A,3748.7937,N,12217.8455,W,1.28,105.35,210112,,,D*78
$GPVTG,105.35,T,,M,1.28,N,2.4,K,D*07
$GPGGA,213348.000,3748.7933,N,12217.8451,W,2,09,0.9,0.4,M,-25.1,M,4.8,0000*46
$GPGSA,A,3,19,22,18,21,14,03,11,09,06,,,,1.8,0.9,1.5*3D
$GPRMC,213348.000,A,3748.7933,N,12217.8451,W,1.70,124.08,210112,,,D*77
$GPVTG,124.08,T,,M,1.70,N,3.2,K,D*00
$GPGGA,213349.000,3748.7929,N,12217.8446,W,2,09,0.9,0.1,M,-25.1,M,5.8,0000*4E
$GPGSA,A,3,19,22,18,21,14,03,11,09,06,,,,1.8,0.9,1.5*3D
$GPRMC,213349.000,A,3748.7929,N,12217.8446,W,1.87,127.75,210112,,,D*7A
$GPVTG,127.75,T,,M,1.87,N,3.5,K,D*06
$GPGGA,213350.000,3748.7925,N,12217.8439,W,2,09,0.9,-0.1,M,-25.1,M,1.8,0000*6B
$GPGSA,A,3,19,22,18,21,14,03,11,09,06,,,,1.8,0.9,1.5*3D
$GPGSV,3,1,12,14,71,185,29,22,67,022,28,19,41,282,27,06,35,220,35*71
$GPGSV,3,2,12,03,34,234,38,18,32,067,25,21,23,128,33,24,20,310,*70
$GPGSV,3,3,12,09,18,052,26,11,14,311,20,27,06,034,21,31,01,171,*7E
$GPVTG,123.77,T,,M,2.23,N,4.1,K,D*0E
$GPGGA,213351.000,3748.7920,N,12217.8430,W,2,09,0.9,-0.2,M,-25.1,M,1.8,0000*65
$GPGSA,A,3,19,22,18,21,14,03,11,09,06,,,,1.8,0.9,1.5*3D
$GPRMC,213351.000,A,3748.7920,N,12217.8430,W,2.50,120.81,210112,,,D*7E
$GPVTG,120.81,T,,M,2.50,N,4.6,K,D*07
$GPGGA,213352.000,3748.7917,N,12217.8421,W,2,09,0.9,-0.3,M,-25.1,M,1.8,0000*63
$GPGSA,A,3,19,22,18,21,14,03,11,09,06,,,,1.8,0.9,1.5*3D
$GPRMC,213352.000,A,3748.7917,N,12217.8421,W,2.05,105.86,210112,,,D*79
$GPVTG,105.86,T,,M,2.05,N,3.8,K,D*0E
$GPGGA,213353.000,3748.7915,N,12217.8414,W,2,09,0.9,-0.2,M,-25.1,M,2.8,0000*64
$GPGSA,A,3,19,22,18,21,14,03,11,09,06,,,,1.8,0.9,1.5*3D
$GPRMC,213353.000,A,3748.7915,N,12217.8414,W,2.03,97.37,210112,,,D*4A
$GPVTG,97.37,T,,M,2.03,N,3.8,K,D*38
$GPGGA,213354.000,3748.7912,N,12217.8406,W,2,09,0.9,-0.1,M,-25.1,M,3.8,0000*65
$GPGSA,A,3,19,22,18,21,14,03,11,09,06,,,,1.8,0.9,1.5*3D
$GPRMC,213354.000,A,3748.7912,N,12217.8406,W,1.97,97.81,210112,,,D*4A
$GPVTG,97.81,T,,M,1.97,N,3.6,K,D*35
$GPGGA,213355.000,3748.7909,N,12217.8398,W,2,09,0.9,-0.1,M,-25.1,M,1.8,0000*6C
$GPGSA,A,3,19,22,18,21,14,03,11,09,06,,,,1.8,0.9,1.5*3D
$GPGSV,3,1,12,14,71,185,30,22,67,022,28,19,41,282,28,06,35,220,36*75
$GPGSV,3,2,12,03,34,234,38,18,32,067,29,21,23,128,34,24,20,310,*7B
$GPGSV,3,3,12,09,18,052,26,11,14,311,21,27,06,034,26,31,01,171,*78
$GPRMC,213355.000,A,3748.7909,N,12217.8398,W,2.15,116.07,210112,,,D*7E
$GPVTG,116.07,T,,M,2.15,N,4.0,K,D*0B
$GPGGA,213356.000,3748.7904,N,12217.8393,W,2,09,0.9,0.5,M,-25.1,M,1.8,0000*40
$GPGSA,A,3,19,22,18,21,14,03,11,09,06,,,,1.8,0.9,1.5*3D
$GPRMC,213356.000,A,3748.7904,N,12217.8393,W,1.12,108.08,210112,,,D*7F
$GPVTG,108.08,T,,M,1.12,N,2.1,K,D*08
$GPGGA,213357.000,3748.7900,N,12217.8392,W,2,09,0.9,-0.5,M,-25.1,M,2.8,0000*6A
$GPGSA,A,3,19,22,18,21,14,03,11,09,06,,,,1.8,0.9,1.5*3D
$GPRMC,213357.000,A,3748.7900,N,12217.8392,W,0.72,124.21,210112,,,D*79
$GPVTG,124.21,T,,M,0.72,N,1.3,K,D*0B
$GPGGA,213358.000,3748.7895,N,12217.8384,W,2,09,0.9,0.5,M,-25.1,M,3.8,0000*43
$GPGSA,A,3,19,22,18,21,14,03,11,09,06,,,,1.8,0.9,1.5*3D
$GPRMC,213358.000,A,3748.7895,N,12217.8384,W,0.97,93.85,210112,,,D*44
$GPVTG,93.85,T,,M,0.97,N,1.8,K,D*38
$GPGGA,213359.000,3748.7892,N,12217.8377,W,2,09,0.9,0.5,M,-25.1,M,4.8,0000*4E
$GPGSA,A,3,19,22,18,21,14,03,11,09,06,,,,1.8,0.9,1.5*3D
$GPRMC,213359.000,A,3748.7892,N,12217.8377,W,1.84,113.13,210112,,,D*7B
$GPVTG,113.13,T,,M,1.84,N,3.4,K,D*03
$GPGGA,213400.000,3748.7887,N,12217.8367,W,2,08,1.0,0.7,M,-25.1,M,5.8,0000*4A
$GPGSA,A,3,19,22,18,21,14,03,11,06,,,,,1.9,1.0,1.6*3E
$GPGSV,3,1,12,14,71,185,30,22,67,022,27,19,41,282,28,06,35,220,37*7B
$GPGSV,3,2,12,03,34,234,37,18,32,067,28,21,23,128,29,24,20,310,*79
$GPGSV,3,3,12,09,18,052,24,11,14,311,22,27,06,034,25,31,01,171,*7A
$GPRMC,213400.000,A,3748.7887,N,12217.8367,W,2.20,110.38,210112,,,D*72
$GPVTG,110.38,T,,M,2.20,N,4.1,K,D*06
$GPGGA,213401.000,3748.7883,N,12217.8359,W,2,09,0.9,0.8,M,-25.1,M,1.8,0000*40
$GPGSA,A,3,19,22,18,21,14,03,11,09,06,,,,1.8,0.9,1.5*3D
$GPRMC,213401.000,A,3748.7883,N,12217.8359,W,1.69,112.30,210112,,,D*7E
$GPVTG,112.30,T,,M,1.69,N,3.1,K,D*05
$GPGGA,213402.000,3748.7878,N,12217.8354,W,2,09,0.9,1.8,M,-25.1,M,1.8,0000*4B
$GPGSA,A,3,19,22,18,21,14,03,11,09,06,,,,1.8,0.9,1.5*3D
$GPRMC,213402.000,A,3748.7878,N,12217.8354,W,1.47,85.03,210112,,,D*47
$GPVTG,85.03,T,,M,1.47,N,2.7,K,D*31
$GPGGA,213403.000,3748.7873,N,12217.8345,W,2,09,0.9,2.0,M,-25.1,M,1.8,0000*4A
$GPGSA,A,3,19,22,18,21,14,03,11,09,06,,,,1.8,0.9,1.5*3D
$GPRMC,213403.000,A,3748.7873,N,12217.8345,W,1.79,93.00,210112,,,D*44
$GPVTG,93.00,T,,M,1.79,N,3.3,K,D*3D
$GPGGA,213404.000,3748.7868,N,12217.8336,W,2,09,0.9,2.4,M,-25.1,M,1.8,0000*47
$GPGSA,A,3,19,22,18,21,14,03,11,09,06,,,,1.8,0.9,1.5*3D
$GPRMC,213404.000,A,3748.7868,N,12217.8336,W,2.38,116.94,210112,,,D*7A
$GPVTG,116.94,T,,M,2.38,N,4.4,K,D*0A
$GPGGA,213405.000,3748.7865,N,12217.8328,W,2,09,0.9,2.2,M,-25.1,M,2.8,0000*41
$GPGSA,A,3,19,22,18,21,14,03,11,09,06,,,,1.8,0.9,1.5*3D
$GPGSV,3,1,12,14,71,185,29,22,67,022,27,19,41,282,29,06,35,220,37*72
$GPGSV,3,2,12,03,34,234,37,18,32,067,29,21,23,128,33,24,20,310,*73
$GPGSV,3,3,12,09,18,052,21,11,14,311,22,27,06,034,19,31,01,171,*70
$GPRMC,213405.000,A,3748.7865,N,12217.8328,W,2.05,113.45,210112,,,D*7E
$GPVTG,113.45,T,,M,2.05,N,3.8,K,D*06
$GPGGA,213406.000,3748.7858,N,12217.8324,W,2,09,0.9,3.4,M,-25.1,M,3.8,0000*46
$GPGSA,A,3,19,22,18,21,14,03,11,09,06,,,,1.8,0.9,1.5*3D
$GPRMC,213406.000,A,3748.7858,N,12217.8324,W,1.89,116.40,210112,,,D*78
$GPVTG,116.40,T,,M,1.89,N,3.5,K,D*0C
$GPGGA,213407.000,3748.7852,N,12217.8321,W,2,09,0.9,4.8,M,-25.1,M,1.8,0000*41
$GPGSA,A,3,19,22,18,21,14,03,11,09,06,,,,1.8,0.9,1.5*3D
$GPRMC,213407.000,A,3748.7852,N,12217.8321,W,1.65,102.25,210112,,,D*72
$GPVTG,102.25,T,,M,1.65,N,3.1,K,D*0C
$GPGGA,213408.000,3748.7849,N,12217.8314,W,2,09,0.9,5.1,M,-25.1,M,1.8,0000*4A
$GPGSA,A,3,19,22,18,21,14,03,11,09,06,,,,1.8,0.9,1.5*3D
$GPRMC,213408.000,A,3748.7849,N,12217.8314,W,2.02,99.39,210112,,,D*4D
$GPVTG,99.39,T,,M,2.02,N,3.7,K,D*36
$GPGGA,213409.000,3748.7846,N,12217.8306,W,2,09,0.9,5.4,M,-25.1,M,2.8,0000*41
$GPGSA,A,3,19,22,18,21,14,03,11,09,06,,,,1.8,0.9,1.5*3D
$GPRMC,213409.000,A,3748.7846,N,12217.8306,W,1.64,106.20,210112,,,D*7C
$GPVTG,106.20,T,,M,1.64,N,3.0,K,D*0D
$GPGGA,213410.000,3748.7841,N,12217.8300,W,2,09,0.9,5.1,M,-25.1,M,3.8,0000*4C
$GPGSA,A,3,19,22,18,21,14,03,11,09,06,,,,1.8,0.9,1.5*3D
$GPGSV,3,1,12,14,71,185,30,22,67,022,27,19,41,282,26,06,35,220,31*73
$GPGSV,3,2,12,03,34,234,33,18,32,067,28,21,23,128,35,24,20,310,*70
$GPGSV,3,3,12,09,18,052,21,11,14,311,22,27,06,034,16,31,01,171,*7F
$GPRMC,213410.000,A,3748.7841,N,12217.8300,W,1.94,120.97,210112,,,D*72
$GPVTG,120.97,T,,M,1.94,N,3.6,K,D*0C
$GPGGA,213411.000,3748.7841,N,12217.8289,W,2,09,0.9,4.5,M,-25.1,M,4.8,0000*4F
$GPGSA,A,3,19,22,18,21,14,03,11,09,06,,,,1.8,0.9,1.5*3D
$GPRMC,213411.000,A,3748.7841,N,12217.8289,W,2.26,120.28,210112,,,D*7D
$GPVTG,120.28,T,,M,2.26,N,4.2,K,D*01
$GPGGA,213412.000,3748.7837,N,12217.8281,W,2,09,0.9,4.3,M,-25.1,M,5.8,0000*42
$GPGSA,A,3,19,22,18,21,14,03,11,09,06,,,,1.8,0.9,1.5*3D
$GPRMC,213412.000,A,3748.7837,N,12217.8281,W,2.33,123.43,210112,,,D*7D
$GPVTG,123.43,T,,M,2.33,N,4.3,K,D*0A
$GPGGA,213413.000,3748.7834,N,12217.8273,W,2,09,0.9,4.0,M,-25.1,M,6.8,0000*4D
$GPGSA,A,3,19,22,18,21,14,03,11,09,06,,,,1.8,0.9,1.5*3D
$GPRMC,213413.000,A,3748.7834,N,12217.8273,W,2.04,115.87,210112,,,D*7B
$GPVTG,115.87,T,,M,2.04,N,3.8,K,D*0F
$GPGGA,213414.000,3748.7830,N,12217.8266,W,2,09,0.9,3.7,M,-25.1,M,1.8,0000*4D
$GPGSA,A,3,19,22,18,21,14,03,11,09,06,,,,1.8,0.9,1.5*3D
$GPRMC,213414.000,A,3748.7830,N,12217.8266,W,2.20,116.10,210112,,,D*77
$GPVTG,116.10,T,,M,2.20,N,4.1,K,D*0A
$GPGGA,213415.000,3748.7826,N,12217.8256,W,2,09,0.9,3.6,M,-25.1,M,1.8,0000*49
$GPGSA,A,3,19,22,18,21,14,03,11,09,06,,,,1.8,0.9,1.5*3D
$GPGSV,3,1,12,14,71,185,31,22,67,022,27,19,41,282,32,06,35,220,36*70
$GPGSV,3,2,12,03,34,234,37,18,32,067,27,21,23,128,34,24,20,310,*7A
$GPGSV,3,3,12,09,18,052,22,11,14,311,23,27,06,034,22,31,01,171,*7A
$GPRMC,213415.000,A,3748.7826,N,12217.8256,W,2.29,106.40,210112,,,D*7F
$GPGGA,213416.000,3748.7822,N,12217.8247,W,2,09,0.9,2.9,M,-25.1,M,1.8,0000*40
$GPGSA,A,3,19,22,18,21,14,03,11,09,06,,,,1.8,0.9,1.5*3D
$GPRMC,213416.000,A,3748.7822,N,12217.8247,W,2.09,105.07,210112,,,D*7A
$GPVTG,105.07,T,,M,2.09,N,3.9,K,D*0A
$GPGGA,213417.000,3748.7818,N,12217.8239,W,2,09,0.9,1.7,M,-25.1,M,1.8,0000*4C
$GPGSA,A,3,19,22,18,21,14,03,11,09,06,,,,1.8,0.9,1.5*3D
$GPRMC,213417.000,A,3748.7818,N,12217.8239,W,2.11,93.62,210112,,,D*4F
$GPVTG,93.62,T,,M,2.11,N,3.9,K,D*3E
$GPGGA,213418.000,3748.7814,N,12217.8231,W,2,09,0.9,0.2,M,-25.1,M,1.8,0000*43
$GPGSA,A,3,19,22,18,21,14,03,11,09,06,,,,1.8,0.9,1.5*3D
$GPRMC,213418.000,A,3748.7814,N,12217.8231,W,1.86,100.67,210112,,,D*77
$GPVTG,100.67,T,,M,1.86,N,3.4,K,D*00
$GPGGA,213419.000,3748.7809,N,12217.8223,W,2,09,0.9,-1.0,M,-25.1,M,2.8,0000*60
$GPGSA,A,3,19,22,18,21,14,03,11,09,06,,,,1.8,0.9,1.5*3D
$GPRMC,213419.000,A,3748.7809,N,12217.8223,W,1.93,113.02,210112,,,D*7C
$GPVTG,113.02,T,,M,1.93,N,3.6,K,D*07
$GPGGA,213420.000,3748.7805,N,12217.8216,W,2,09,0.9,-1.2,M,-25.1,M,1.8,0000*61
$GPGSA,A,3,19,22,18,21,14,03,11,09,06,,,,1.8,0.9,1.5*3D
$GPGSV,3,1,12,14,72,185,28,22,67,023,27,19,41,282,26,06,34,220,34*7C
$GPGSV,3,2,12,03,34,234,37,18,31,068,28,21,22,128,35,24,20,310,*79
$GPGSV,3,3,12,09,18,052,21,11,15,311,20,27,06,033,17,31,02,171,*79
$GPRMC,213420.000,A,3748.7805,N,12217.8216,W,1.93,112.01,210112,,,D*7E
$GPVTG,112.01,T,,M,1.93,N,3.6,K,D*05
$GPGGA,213421.000,3748.7800,N,12217.8209,W,2,09,0.9,-1.0,M,-25.1,M,1.8,0000*69
$GPGSA,A,3,19,22,18,21,14,03,11,09,06,,,,1.8,0.9,1.5*3D
$GPRMC,213421.000,A,3748.7800,N,12217.8209,W,1.91,107.37,210112,,,D*77
$GPVTG,107.37,T,,M,1.91,N,3.5,K,D*05
$GPGGA,213422.000,3748.7797,N,12217.8201,W,2,09,0.9,-1.0,M,-25.1,M,1.8,0000*63
$GPGSA,A,3,19,22,18,21,14,03,11,09,06,,,,1.8,0.9,1.5*3D
$GPRMC,213422.000,A,3748.7797,N,12217.8201,W,1.84,108.23,210112,,,D*73
$GPVTG,108.23,T,,M,1.84,N,3.4,K,D*0A
$GPGGA,213423.000,3748.7792,N,12217.8194,W,2,09,0.9,-1.7,M,-25.1,M,2.8,0000*6C
$GPGSA,A,3,19,22,18,21,14,03,11,09,06,,,,1.8,0.9,1.5*3D
$GPRMC,213423.000,A,3748.7792,N,12217.8194,W,1.87,107.08,210112,,,D*7D
$GPVTG,107.08,T,,M,1.87,N,3.5,K,D*0E
$GPGGA,213424.000,3748.7785,N,12217.8186,W,2,09,0.9,-2.2,M,-25.1,M,3.8,0000*69
$GPGSA,A,3,19,22,18,21,14,03,11,09,06,,,,1.8,0.9,1.5*3D
$GPRMC,213424.000,A,3748.7785,N,12217.8186,W,2.07,119.52,210112,,,D*74
$GPVTG,119.52,T,,M,2.07,N,3.8,K,D*08
$GPGGA,213425.000,3748.7781,N,12217.8178,W,2,09,0.9,-2.4,M,-25.1,M,4.8,0000*6C
$GPGSA,A,3,19,22,18,21,14,03,11,09,06,,,,1.8,0.9,1.5*3D
$GPGSV,3,1,12,14,72,185,30,22,67,023,27,19,41,282,26,06,34,220,36*77
$GPGSV,3,2,12,03,34,234,37,18,31,068,28,21,22,128,36,24,20,310,*7A
$GPGSV,3,3,12,09,18,052,21,11,15,311,22,27,06,033,17,31,02,171,*7B
$GPRMC,213425.000,A,3748.7781,N,12217.8178,W,2.12,115.24,210112,,,D*79
$GPVTG,115.24,T,,M,2.12,N,3.9,K,D*00
$GPGGA,213426.000,3748.7778,N,12217.8169,W,2,09,0.9,-2.4,M,-25.1,M,1.8,0000*6C
$GPGSA,A,3,19,22,18,21,14,03,11,09,06,,,,1.8,0.9,1.5*3D
$GPRMC,213426.000,A,3748.7778,N,12217.8169,W,2.17,115.08,210112,,,D*77
$GPVTG,115.08,T,,M,2.17,N,4.0,K,D*05
$GPGGA,213427.000,3748.7773,N,12217.8162,W,2,09,0.9,-2.4,M,-25.1,M,1.8,0000*6D
$GPGSA,A,3,19,22,18,21,14,03,11,09,06,,,,1.8,0.9,1.5*3D
$GPRMC,213427.000,A,3748.7773,N,12217.8162,W,2.30,126.31,210112,,,D*79
$GPVTG,126.31,T,,M,2.30,N,4.3,K,D*09
$GPGGA,213428.000,3748.7768,N,12217.8153,W,2,09,0.9,-2.4,M,-25.1,M,1.8,0000*6A
$GPGSA,A,3,19,22,18,21,14,03,11,09,06,,,,1.8,0.9,1.5*3D
$GPRMC,213428.000,A,3748.7768,N,12217.8153,W,2.27,117.12,210112,,,D*7B
$GPVTG,117.12,T,,M,2.27,N,4.2,K,D*0D
$GPGGA,213429.000,3748.7762,N,12217.8143,W,2,09,0.9,-2.4,M,-25.1,M,2.8,0000*63
$GPGSA,A,3,19,22,18,21,14,03,11,09,06,,,,1.8,0.9,1.5*3D
$GPRMC,213429.000,A,3748.7762,N,12217.8143,W,2.15,120.10,210112,,,D*76
$GPVTG,120.10,T,,M,2.15,N,4.0,K,D*08
$GPGGA,213430.000,3748.7756,N,12217.8134,W,2,09,0.9,-2.5,M,-25.1,M,3.8,0000*6C
$GPGSA,A,3,19,22,18,21,14,03,11,09,06,,,,1.8,0.9,1.5*3D
$GPGSV,3,1,12,14,72,185,31,22,67,023,27,19,41,282,31,06,34,220,37*71
$GPGSV,3,2,12,03,34,234,37,18,31,068,28,21,22,128,36,24,20,310,*7A
$GPGSV,3,3,12,09,18,052,22,11,15,311,22,27,06,033,18,31,02,171,*77
$GPRMC,213430.000,A,3748.7756,N,12217.8134,W,2.07,115.67,210112,,,D*7C
$GPVTG,115.67,T,,M,2.07,N,3.8,K,D*02
$GPGGA,213431.000,3748.7750,N,12217.8125,W,2,09,0.9,-2.6,M,-25.1,M,4.8,0000*6F
$GPGSA,A,3,19,22,18,21,14,03,11,09,06,,,,1.8,0.9,1.5*3D
$GPRMC,213431.000,A,3748.7750,N,12217.8125,W,2.06,112.60,210112,,,D*7A
$GPVTG,112.60,T,,M,2.06,N,3.8,K,D*03
$GPGGA,213432.000,3748.7748,N,12217.8117,W,2,09,0.9,-2.9,M,-25.1,M,1.8,0000*6E
$GPGSA,A,3,19,22,18,21,14,03,11,09,06,,,,1.8,0.9,1.5*3D
$GPRMC,213432.000,A,3748.7748,N,12217.8117,W,2.23,111.01,210112,,,D*72
$GPVTG,111.01,T,,M,2.23,N,4.1,K,D*0E
$GPGGA,213433.000,3748.7744,N,12217.8109,W,2,09,0.9,-3.0,M,-25.1,M,2.8,0000*67
$GPGSA,A,3,19,22,18,21,14,03,11,09,06,,,,1.8,0.9,1.5*3D
$GPRMC,213433.000,A,3748.7744,N,12217.8109,W,2.07,105.69,210112,,,D*7D
$GPVTG,105.69,T,,M,2.07,N,3.8,K,D*0D
$GPGGA,213434.000,3748.7738,N,12217.8098,W,2,09,0.9,-2.3,M,-25.1,M,1.8,0000*63
$GPGSA,A,3,19,22,18,21,14,03,11,09,06,,,,1.8,0.9,1.5*3D
$GPRMC,213434.000,A,3748.7738,N,12217.8098,W,1.98,99.65,210112,,,D*45
$GPVTG,99.65,T,,M,1.98,N,3.7,K,D*3F
$GPGGA,213435.000,3748.7734,N,12217.8089,W,2,09,0.9,-2.2,M,-25.1,M,2.8,0000*6C
$GPGSA,A,3,19,22,18,21,14,03,11,09,06,,,,1.8,0.9,1.5*3D
$GPGSV,3,1,12,14,72,185,31,22,67,023,27,19,41,282,29,06,34,220,37*78
$GPGSV,3,2,12,03,34,234,38,18,31,068,29,21,22,128,36,24,20,310,*74
$GPRMC,213435.000,A,3748.7734,N,12217.8089,W,2.21,111.03,210112,,,D*78
$GPVTG,111.03,T,,M,2.21,N,4.1,K,D*0E
$GPGGA,213436.000,3748.7731,N,12217.8081,W,2,09,0.9,-2.0,M,-25.1,M,3.8,0000*61
$GPGSA,A,3,19,22,18,21,14,03,11,09,06,,,,1.8,0.9,1.5*3D
$GPRMC,213436.000,A,3748.7731,N,12217.8081,W,2.48,120.43,210112,,,D*7F
$GPVTG,120.43,T,,M,2.48,N,4.6,K,D*00
$GPGGA,213437.000,3748.7727,N,12217.8073,W,2,09,0.9,-1.7,M,-25.1,M,1.8,0000*6C
$GPGSA,A,3,19,22,18,21,14,03,11,09,06,,,,1.8,0.9,1.5*3D
$GPRMC,213437.000,A,3748.7727,N,12217.8073,W,2.30,118.20,210112,,,D*75
$GPVTG,118.20,T,,M,2.30,N,4.3,K,D*04
$GPGGA,213438.000,3748.7722,N,12217.8065,W,2,09,0.9,-2.9,M,-25.1,M,1.8,0000*6C
$GPGSA,A,3,19,22,18,21,14,03,11,09,06,,,,1.8,0.9,1.5*3D
$GPRMC,213438.000,A,3748.7722,N,12217.8065,W,2.14,118.16,210112,,,D*7B
$GPVTG,118.16,T,,M,2.14,N,4.0,K,D*04
$GPGGA,213439.000,3748.7717,N,12217.8057,W,2,09,0.9,-3.4,M,-25.1,M,1.8,0000*66
$GPGSA,A,3,19,22,18,21,14,03,11,09,06,,,,1.8,0.9,1.5*3D
$GPRMC,213439.000,A,3748.7717,N,12217.8057,W,2.32,117.95,210112,,,D*7D
$GPVTG,117.95,T,,M,2.32,N,4.3,K,D*07
$GPGGA,213440.000,3748.7714,N,12217.8049,W,2,09,0.9,-3.6,M,-25.1,M,1.8,0000*66
$GPGSA,A,3,19,22,18,21,14,03,11,09,06,,,,1.8,0.9,1.5*3D
$GPGSV,3,1,12,14,72,185,31,22,67,023,27,19,41,282,29,06,34,220,37*78
$GPGSV,3,2,12,03,34,234,38,18,31,068,23,21,22,128,36,24,20,310,*7E
$GPGSV,3,3,12,09,18,052,18,11,15,311,23,27,06,033,22,31,02,171,*76
$GPRMC,213440.000,A,3748.7714,N,12217.8049,W,2.02,100.00,210112,,,D*76
$GPVTG,100.00,T,,M,2.02,N,3.7,K,D*0D
$GPGGA,213441.000,3748.7712,N,12217.8042,W,2,09,0.9,-4.0,M,-25.1,M,2.8,0000*68
$GPGSA,A,3,19,22,18,21,14,03,11,09,06,,,,1.8,0.9,1.5*3D
$GPRMC,213441.000,A,3748.7712,N,12217.8042,W,1.79,104.20,210112,,,D*73
$GPVTG,104.20,T,,M,1.79,N,3.3,K,D*00
$GPGGA,213442.000,3748.7708,N,12217.8034,W,2,09,0.9,-4.1,M,-25.1,M,3.8,0000*61
$GPGSA,A,3,19,22,18,21,14,03,11,09,06,,,,1.8,0.9,1.5*3D
$GPRMC,213442.000,A,3748.7708,N,12217.8034,W,2.21,117.60,210112,,,D*72
$GPVTG,117.60,T,,M,2.21,N,4.1,K,D*0D
$GPGGA,213443.000,3748.7701,N,12217.8024,W,2,09,0.9,-3.8,M,-25.1,M,1.8,0000*64
$GPGSA,A,3,19,22,18,21,14,03,11,09,06,,,,1.8,0.9,1.5*3D
$GPRMC,213443.000,A,3748.7701,N,12217.8024,W,2.50,121.37,210112,,,D*7A
$GPVTG,121.37,T,,M,2.50,N,4.6,K,D*0B
$GPGGA,213444.000,3748.7696,N,12217.8016,W,2,09,0.9,-4.2,M,-25.1,M,1.8,0000*60
$GPGSA,A,3,19,22,18,21,14,03,11,09,06,,,,1.8,0.9,1.5*3D
$GPRMC,213444.000,A,3748.7696,N,12217.8016,W,2.50,122.67,210112,,,D*75
$GPVTG,122.67,T,,M,2.50,N,4.6,K,D*0D
$GPGGA,213445.000,3748.7692,N,12217.8008,W,2,09,0.9,-4.3,M,-25.1,M,1.8,0000*6B
$GPGSA,A,3,19,22,18,21,14,03,11,09,06,,,,1.8,0.9,1.5*3D
$GPGSV,3,1,12,14,72,185,31,22,67,023,27,19,41,282,29,06,34,220,38*77
$GPGSV,3,2,12,03,34,234,38,18,31,068,26,21,22,128,36,24,20,310,*7B
$GPGSV,3,3,12,09,18,052,20,11,15,311,23,27,06,033,17,31,02,171,*7B
$GPRMC,213445.000,A,3748.7692,N,12217.8008,W,2.11,105.35,210112,,,D*78
$GPVTG,105.35,T,,M,2.11,N,3.9,K,D*02
$GPGGA,213446.000,3748.7690,N,12217.7999,W,2,09,0.9,-4.2,M,-25.1,M,2.8,0000*66
$GPGSA,A,3,19,22,18,21,14,03,11,09,06,,,,1.8,0.9,1.5*3D
$GPRMC,213446.000,A,3748.7690,N,12217.7999,W,2.19,102.72,210112,,,D*7B
$GPVTG,102.72,T,,M,2.19,N,4.1,K,D*01
$GPGGA,213447.000,3748.7687,N,12217.7991,W,2,09,0.9,-3.7,M,-25.1,M,3.8,0000*6A
$GPGSA,A,3,19,22,18,21,14,03,11,09,06,,,,1.8,0.9,1.5*3D
$GPRMC,213447.000,A,3748.7687,N,12217.7991,W,2.00,102.63,210112,,,D*7C
$GPVTG,102.63,T,,M,2.00,N,3.7,K,D*08
$GPGGA,213448.000,3748.7682,N,12217.7981,W,2,09,0.9,-3.1,M,-25.1,M,4.8,0000*60
$GPGSA,A,3,19,22,18,21,14,03,11,09,06,,,,1.8,0.9,1.5*3D
$GPRMC,213448.000,A,3748.7682,N,12217.7981,W,2.60,120.89,210112,,,D*75
$GPVTG,120.89,T,,M,2.60,N,4.8,K,D*02
$GPGGA,213449.000,3748.7677,N,12217.7973,W,2,09,0.9,-3.0,M,-25.1,M,1.8,0000*62
$GPGSA,A,3,19,22,18,21,14,03,11,09,06,,,,1.8,0.9,1.5*3D
$GPRMC,213449.000,A,3748.7677,N,12217.7973,W,2.42,120.35,210112,,,D*74
$GPVTG,120.35,T,,M,2.42,N,4.5,K,D*08
$GPGGA,213450.000,3748.7677,N,12217.7967,W,2,09,0.9,-4.2,M,-25.1,M,1.8,0000*6A
$GPGSA,A,3,19,22,18,21,14,03,11,09,06,,,,1.8,0.9,1.5*3D
$GPGSV,3,1,12,14,72,185,31,22,67,023,28,19,41,281,29,06,34,220,38*7B
$GPGSV,3,2,12,03,33,234,38,18,31,068,23,21,22,128,37,24,20,310,*78
$GPGSV,3,3,12,09,18,052,25,11,15,311,23,27,06,033,18,31,02,171,*71
$GPRMC,213450.000,A,3748.7677,N,12217.7967,W,2.31,122.79,210112,,,D*77
$GPVTG,122.79,T,,M,2.31,N,4.3,K,D*00
$GPGGA,213451.000,3748.7674,N,12217.7961,W,2,09,0.9,-4.8,M,-25.1,M,1.8,0000*64
$GPGSA,A,3,19,22,18,21,14,03,11,09,06,,,,1.8,0.9,1.5*3D
$GPRMC,213451.000,A,3748.7674,N,12217.7961,W,2.21,123.10,210112,,,D*7C
$GPVTG,123.10,T,,M,2.21,N,4.1,K,D*0D
$GPGGA,213452.000,3748.7669,N,12217.7953,W,2,09,0.9,-4.9,M,-25.1,M,1.8,0000*6B
$GPGSA,A,3,19,22,18,21,14,03,11,09,06,,,,1.8,0.9,1.5*3D
$GPRMC,213452.000,A,3748.7669,N,12217.7953,W,2.47,121.90,210112,,,D*78
$GPVTG,121.90,T,,M,2.47,N,4.6,K,D*00
$GPGGA,213453.000,3748.7665,N,12217.7944,W,2,09,0.9,-5.0,M,-25.1,M,2.8,0000*6B
$GPGSA,A,3,19,22,18,21,14,03,11,09,06,,,,1.8,0.9,1.5*3D
$GPRMC,213453.000,A,3748.7665,N,12217.7944,W,2.61,115.44,210112,,,D*79
$GPVTG,115.44,T,,M,2.61,N,4.8,K,D*04
$GPGGA,213454.000,3748.7662,N,12217.7936,W,2,09,0.9,-5.1,M,-25.1,M,3.8,0000*6E
$GPGSA,A,3,19,22,18,21,14,03,11,09,06,,,,1.8,0.9,1.5*3D
$GPRMC,213454.000,A,3748.7662,N,12217.7936,W,2.11,115.51,210112,,,D*7F
$GPVTG,115.51,T,,M,2.11,N,3.9,K,D*01
$GPGGA,213455.000,3748.7656,N,12217.7930,W,2,09,0.9,-6.5,M,-25.1,M,4.8,0000*6E
$GPGSA,A,3,19,22,18,21,14,03,11,09,06,,,,1.8,0.9,1.5*3D
$GPGSV,3,1,12,14,72,185,31,22,67,023,27,19,41,281,27,06,34,220,38*7A
$GPGSV,3,2,12,03,33,234,37,18,31,068,24,21,22,128,28,24,20,310,*7E
$GPGSV,3,3,12,09,18,052,24,11,15,311,23,27,06,033,18,31,02,171,*70
$GPRMC,213455.000,A,3748.7656,N,12217.7930,W,2.25,115.33,210112,,,D*7C
$GPVTG,115.33,T,,M,2.25,N,4.2,K,D*0E
$GPGGA,213456.000,3748.7650,N,12217.7920,W,2,09,0.9,-6.3,M,-25.1,M,1.8,0000*69
$GPGSA,A,3,19,22,18,21,14,03,11,09,06,,,,1.8,0.9,1.5*3D
$GPRMC,213456.000,A,3748.7650,N,12217.7920,W,2.73,118.17,210112,,,D*70
$GPVTG,118.17,T,,M,2.73,N,5.1,K,D*04
$GPGGA,213457.000,3748.7645,N,12217.7910,W,2,09,0.9,-6.1,M,-25.1,M,1.8,0000*6D
$GPGSA,A,3,19,22,18,21,14,03,11,09,06,,,,1.8,0.9,1.5*3D
$GPRMC,213457.000,A,3748.7645,N,12217.7910,W,2.44,110.73,210112,,,D*78
$GPVTG,110.73,T,,M,2.44,N,4.5,K,D*0F
$GPGGA,213458.000,3748.7639,N,12217.7899,W,2,09,0.9,-5.8,M,-25.1,M,1.8,0000*63
$GPGSA,A,3,19,22,18,21,14,03,11,09,06,,,,1.8,0.9,1.5*3D
$GPRMC,213458.000,A,3748.7639,N,12217.7899,W,2.31,105.34,210112,,,D*79
$GPVTG,105.34,T,,M,2.31,N,4.3,K,D*0C
$GPGGA,213459.000,3748.7637,N,12217.7890,W,2,09,0.9,-5.9,M,-25.1,M,1.8,0000*64
$GPGSA,A,3,19,22,18,21,14,03,11,09,06,,,,1.8,0.9,1.5*3D
$GPRMC,213459.000,A,3748.7637,N,12217.7890,W,2.10,113.76,210112,,,D*7D
$GPVTG,113.76,T,,M,2.10,N,3.9,K,D*03
$GPGGA,213500.000,3748.7635,N,12217.7882,W,2,09,0.9,-5.9,M,-25.1,M,2.8,0000*6B
$GPGSA,A,3,19,22,18,21,14,03,11,09,06,,,,1.8,0.9,1.5*3D
$GPGSV,3,1,12,14,72,185,31,22,67,023,27,19,41,281,28,06,34,220,37*7A
$GPGSV,3,2,12,03,33,234,37,18,31,068,28,21,22,128,35,24,20,310,*7E
$GPGSV,3,3,12,09,18,052,27,11,15,311,23,27,06,033,23,31,02,171,*7B
$GPVTG,122.99,T,,M,2.40,N,4.4,K,D*0F
$GPGGA,213501.000,3748.7630,N,12217.7874,W,2,09,0.9,-5.6,M,-25.1,M,3.8,0000*68
$GPGSA,A,3,19,22,18,21,14,03,11,09,06,,,,1.8,0.9,1.5*3D
$GPRMC,213501.000,A,3748.7630,N,12217.7874,W,2.22,120.68,210112,,,D*72
$GPVTG,120.68,T,,M,2.22,N,4.1,K,D*02
$GPGGA,213502.000,3748.7625,N,12217.7866,W,2,09,0.9,-5.2,M,-25.1,M,1.8,0000*6A
$GPGSA,A,3,19,22,18,21,14,03,11,09,06,,,,1.8,0.9,1.5*3D
$GPRMC,213502.000,A,3748.7625,N,12217.7866,W,2.15,102.02,210112,,,D*7E
$GPVTG,102.02,T,,M,2.15,N,4.0,K,D*0B
$GPGGA,213503.000,3748.7624,N,12217.7859,W,2,09,0.9,-5.3,M,-25.1,M,1.8,0000*67
$GPGSA,A,3,19,22,18,21,14,03,11,09,06,,,,1.8,0.9,1.5*3D
$GPRMC,213503.000,A,3748.7624,N,12217.7859,W,1.33,95.78,210112,,,D*47
