$ADVER,3080,2.3
$GPRMC,223127.119,A,3748.7919,N,12217.8696,W,0.03,45.96,201010,,,A*45
$GPGGA,223128.119,3748.7914,N,12217.8701,W,1,04,1.6,3.6,M,-25.1,M,,0000*68
$GPGSA,A,3,12,30,21,10,,,,,,,,,2.8,1.6,2.2*3D
$GPGSV,3,1,10,30,57,295,39,12,55,167,42,10,30,056,31,21,17,239,40*70
$GPGSV,3,2,10,25,71,262,41,05,51,114,43,29,46,307,39,02,36,049,33*74
$GPGSV,3,3,10,31,13,306,32,04,01,054,*78
$GPRMC,223128.119,A,3748.7914,N,12217.8701,W,0.15,76.33,201010,,,A*40
$GPVTG,76.33,T,,M,0.15,N,0.3,K,A*3B
$GPGGA,223129.119,3748.7914,N,12217.8700,W,1,04,1.6,3.6,M,-25.1,M,,0000*68
$GPGSA,A,3,12,30,21,10,,,,,,,,,2.8,1.6,2.2*3D
$GPRMC,223129.119,A,3748.7914,N,12217.8700,W,0.12,111.68,201010,,,A*79
$GPVTG,111.68,T,,M,0.12,N,0.2,K,A*03
$GPGGA,223130.000,3748.7914,N,12217.8700,W,1,04,1.6,3.5,M,-25.1,M,,0000*6A
$GPGSA,A,3,12,30,21,10,,,,,,,,,2.8,1.6,2.2*3D
$GPRMC,223130.000,A,3748.7914,N,12217.8700,W,0.06,76.59,201010,,,A*4F
$GPVTG,76.59,T,,M,0.06,N,0.1,K,A*37
$GPGGA,223131.000,3748.7914,N,12217.8700,W,1,04,1.6,3.5,M,-25.1,M,,0000*6B
$GPGSA,A,3,12,30,21,10,,,,,,,,,2.8,1.6,2.2*3D
$GPRMC,223131.000,A,3748.7914,N,12217.8700,W,0.09,75.36,201010,,,A*4B
$GPVTG,75.36,T,,M,0.09,N,0.2,K,A*31
$GPGGA,223132.000,3748.7914,N,12217.8700,W,1,04,1.6,3.5,M,-25.1,M,,0000*68
$GPGSA,A,3,12,30,21,10,,,,,,,,,2.8,1.6,2.2*3D
$GPRMC,223132.000,A,3748.7914,N,12217.8700,W,0.13,69.40,201010,,,A*4F
$GPVTG,69.40,T,,M,0.13,N,0.2,K,A*36
$GPGGA,223133.000,3748.7913,N,12217.8700,W,1,06,1.4,3.5,M,-25.1,M,,0000*6E
$GPGSA,A,3,12,02,30,21,10,05,,,,,,,2.6,1.4,2.2*36
$GPGSV,3,1,11,30,57,295,40,12,55,167,42,10,30,056,39,21,17,239,39*79
$GPGSV,3,2,11,25,71,262,41,05,51,114,43,29,46,307,36,02,36,049,38*71
$GPGSV,3,3,11,31,13,306,25,04,01,054,,48,00,000,33*43
$GPRMC,223133.000,A,3748.7913,N,12217.8700,W,0.15,97.97,201010,,,A*44
$GPGGA,223134.000,3748.7913,N,12217.8700,W,1,06,1.4,3.5,M,-25.1,M,,0000*69
$GPGSA,A,3,12,02,30,21,10,05,,,,,,,2.6,1.4,2.2*36
$GPRMC,223134.000,A,3748.7913,N,12217.8700,W,0.12,15.40,201010,,,A*44
$GPVTG,15.40,T,,M,0.12,N,0.2,K,A*3C
$GPGGA,223135.000,3748.7914,N,12217.8700,W,1,06,1.4,3.5,M,-25.1,M,,0000*6F
$GPGSA,A,3,12,02,30,21,10,05,,,,,,,2.6,1.4,2.2*36
$GPRMC,223135.000,A,3748.7914,N,12217.8700,W,0.09,53.40,201010,,,A*4A
$GPVTG,53.40,T,,M,0.09,N,0.2,K,A*34
$GPGGA,223136.000,3748.7914,N,12217.8701,W,1,06,1.4,3.5,M,-25.1,M,,0000*6D
$GPGSA,A,3,12,02,30,21,10,05,,,,,,,2.6,1.4,2.2*36
$GPRMC,223136.000,A,3748.7914,N,12217.8701,W,0.06,256.59,201010,,,A*78
$GPVTG,256.59,T,,M,0.06,N,0.1,K,A*07
$GPGGA,223137.000,3748.7913,N,12217.8701,W,1,06,1.4,3.5,M,-25.1,M,,0000*6B
$GPGSA,A,3,12,02,30,21,10,05,,,,,,,2.6,1.4,2.2*36
$GPRMC,223137.000,A,3748.7913,N,12217.8701,W,0.10,74.06,201010,,,A*41
$GPVTG,74.06,T,,M,0.10,N,0.2,K,A*3B
$GPGGA,223138.000,3748.7913,N,12217.8701,W,1,06,1.4,3.5,M,-25.1,M,,0000*64
$GPGSA,A,3,12,02,30,21,10,05,,,,,,,2.6,1.4,2.2*36
$GPGSV,3,1,11,25,71,262,36,30,57,294,36,12,55,167,40,05,51,114,40*74
$GPGSV,3,2,11,29,46,307,36,02,36,049,39,10,30,056,38,21,17,239,39*7D
$GPGSV,3,3,11,31,13,306,26,04,01,054,,48,44,197,31*4D
$GPRMC,223138.000,A,3748.7913,N,12217.8701,W,0.07,13.77,201010,,,A*4F
$GPVTG,13.77,T,,M,0.07,N,0.1,K,A*39
$GPGGA,223139.000,3748.7916,N,12217.8703,W,1,06,1.4,4.2,M,-25.1,M,,0000*62
$GPGSA,A,3,12,02,30,21,10,05,,,,,,,2.6,1.4,2.2*36
$GPRMC,223139.000,A,3748.7916,N,12217.8703,W,0.25,345.63,201010,,,A*7C
$GPVTG,345.63,T,,M,0.25,N,0.5,K,A*08
$GPGGA,223140.000,3748.7913,N,12217.8706,W,1,06,1.4,4.7,M,-25.1,M,,0000*69
$GPGSA,A,3,12,02,30,21,10,05,,,,,,,2.6,1.4,2.2*36
$GPRMC,223140.000,A,3748.7913,N,12217.8706,W,0.07,204.30,201010,,,A*70
$GPVTG,204.30,T,,M,0.07,N,0.1,K,A*0E
$GPGGA,223141.000,3748.7910,N,12217.8705,W,1,06,1.4,4.6,M,-25.1,M,,0000*69
$GPGSA,A,3,12,02,30,21,10,05,,,,,,,2.6,1.4,2.2*36
$GPRMC,223141.000,A,3748.7910,N,12217.8705,W,0.10,150.58,201010,,,A*7B
$GPVTG,150.58,T,,M,0.10,N,0.2,K,A*07
$GPGGA,223142.000,3748.7908,N,12217.8704,W,1,06,1.4,4.4,M,-25.1,M,,0000*60
$GPGSA,A,3,12,02,30,21,10,05,,,,,,,2.6,1.4,2.2*36
$GPRMC,223142.000,A,3748.7908,N,12217.8704,W,0.20,113.09,201010,,,A*70
$GPVTG,113.09,T,,M,0.20,N,0.4,K,A*01
$GPGGA,223143.000,3748.7907,N,12217.8704,W,1,06,1.4,4.3,M,-25.1,M,,0000*69
$GPGSA,A,3,12,02,30,21,10,05,,,,,,,2.6,1.4,2.2*36
$GPGSV,3,1,11,25,71,262,27,30,57,294,29,12,55,167,32,05,51,114,35*7D
$GPGSV,3,2,11,29,46,307,22,02,36,049,39,10,30,056,38,21,17,239,30*71
$GPGSV,3,3,11,31,13,306,24,04,01,054,,48,44,197,27*48
$GPRMC,223143.000,A,3748.7907,N,12217.8704,W,0.05,99.59,201010,,,A*4F
$GPVTG,99.59,T,,M,0.05,N,0.1,K,A*35
$GPGGA,223144.000,3748.7907,N,12217.8704,W,1,06,1.4,4.2,M,-25.1,M,,0000*6F
$GPGSA,A,3,12,02,30,21,10,05,,,,,,,2.6,1.4,2.2*36
$GPRMC,223144.000,A,3748.7907,N,12217.8704,W,0.06,62.67,201010,,,A*42
$GPVTG,62.67,T,,M,0.06,N,0.1,K,A*3F
$GPGGA,223145.000,3748.7907,N,12217.8704,W,1,06,1.4,4.2,M,-25.1,M,,0000*6E
$GPGSA,A,3,12,02,30,21,10,05,,,,,,,2.6,1.4,2.2*36
$GPRMC,223145.000,A,3748.7907,N,12217.8704,W,0.15,18.63,201010,,,A*48
$GPVTG,18.63,T,,M,0.15,N,0.3,K,A*36
$GPGGA,223146.000,3748.7906,N,12217.8704,W,1,06,1.4,4.1,M,-25.1,M,,0000*6F
$GPGSA,A,3,12,02,30,21,10,05,,,,,,,2.6,1.4,2.2*36
$GPRMC,223146.000,A,3748.7906,N,12217.8704,W,0.09,196.67,201010,,,A*74
$GPVTG,196.67,T,,M,0.09,N,0.2,K,A*09
$GPGGA,223147.000,3748.7906,N,12217.8704,W,1,06,1.4,3.9,M,-25.1,M,,0000*61
$GPGSA,A,3,12,02,30,21,10,05,,,,,,,2.6,1.4,2.2*36
$GPRMC,223147.000,A,3748.7906,N,12217.8704,W,0.20,174.22,201010,,,A*73
$GPVTG,174.22,T,,M,0.20,N,0.4,K,A*09
$GPGGA,223148.000,3748.7905,N,12217.8704,W,1,06,1.4,3.8,M,-25.1,M,,0000*6C
$GPGSA,A,3,12,02,30,21,10,05,,,,,,,2.6,1.4,2.2*36
$GPGSV,3,1,11,25,71,262,40,30,57,294,36,12,55,167,41,05,51,114,42*76
$GPGSV,3,2,11,29,46,307,32,02,36,049,40,10,30,056,37,21,17,239,41*77
$GPGSV,3,3,11,31,13,306,22,04,01,054,,48,44,197,34*4C
$GPRMC,223148.000,A,3748.7905,N,12217.8704,W,0.03,121.42,201010,,,A*78
$GPGGA,223149.000,3748.7905,N,12217.8704,W,1,06,1.4,3.8,M,-25.1,M,,0000*6D
$GPGSA,A,3,12,02,30,21,10,05,,,,,,,2.6,1.4,2.2*36
$GPRMC,223149.000,A,3748.7905,N,12217.8704,W,0.06,71.53,201010,,,A*48
$GPVTG,71.53,T,,M,0.06,N,0.1,K,A*3A
$GPGGA,223150.000,3748.7905,N,12217.8704,W,1,06,1.4,3.7,M,-25.1,M,,0000*6A
$GPGSA,A,3,12,02,30,21,10,05,,,,,,,2.6,1.4,2.2*36
$GPRMC,223150.000,A,3748.7905,N,12217.8704,W,0.10,105.05,201010,,,A*76
$GPVTG,105.05,T,,M,0.10,N,0.2,K,A*0F
$GPGGA,223151.000,3748.7905,N,12217.8703,W,1,06,1.4,3.6,M,-25.1,M,,0000*6D
$GPGSA,A,3,12,02,30,21,10,05,,,,,,,2.6,1.4,2.2*36
$GPRMC,223151.000,A,3748.7905,N,12217.8703,W,0.09,55.57,201010,,,A*4B
$GPVTG,55.57,T,,M,0.09,N,0.2,K,A*34
$GPGGA,223152.000,3748.7905,N,12217.8703,W,1,06,1.4,3.6,M,-25.1,M,,0000*6E
$GPGSA,A,3,12,02,30,21,10,05,,,,,,,2.6,1.4,2.2*36
$GPRMC,223152.000,A,3748.7905,N,12217.8703,W,0.02,343.13,201010,,,A*77
$GPVTG,343.13,T,,M,0.02,N,0.0,K,A*09
$GPGGA,223153.000,3748.7905,N,12217.8703,W,1,06,1.4,3.4,M,-25.1,M,,0000*6D
$GPGSA,A,3,12,02,30,21,10,05,,,,,,,2.6,1.4,2.2*36
$GPGSV,3,1,11,25,71,262,40,30,57,294,36,12,55,167,41,05,51,114,42*76
$GPGSV,3,2,11,29,46,307,38,02,36,049,41,10,30,056,37,21,17,239,26*7D
$GPGSV,3,3,11,31,13,306,28,04,01,054,,48,44,197,32*40
$GPRMC,223153.000,A,3748.7905,N,12217.8703,W,0.06,299.38,201010,,,A*7D
$GPVTG,299.38,T,,M,0.06,N,0.1,K,A*03
$GPGGA,223154.000,3748.7905,N,12217.8704,W,1,06,1.4,3.0,M,-25.1,M,,0000*69
$GPGSA,A,3,12,02,30,21,10,05,,,,,,,2.6,1.4,2.2*36
$GPRMC,223154.000,A,3748.7905,N,12217.8704,W,0.07,274.00,201010,,,A*74
$GPVTG,274.00,T,,M,0.07,N,0.1,K,A*0A
$GPGGA,223155.000,3748.7904,N,12217.8704,W,1,06,1.4,2.7,M,-25.1,M,,0000*6F
$GPGSA,A,3,12,02,30,21,10,05,,,,,,,2.6,1.4,2.2*36
$GPRMC,223155.000,A,3748.7904,N,12217.8704,W,0.01,96.09,201010,,,A*45
$GPVTG,96.09,T,,M,0.01,N,0.0,K,A*3A
$GPGGA,223156.000,3748.7904,N,12217.8704,W,2,06,1.4,2.3,M,-25.1,M,,0000*6B
$GPGSA,A,3,12,02,30,21,10,05,,,,,,,2.6,1.4,2.2*36
$GPRMC,223156.000,A,3748.7904,N,12217.8704,W,0.06,73.02,201010,,,D*44
$GPVTG,73.02,T,,M,0.06,N,0.1,K,D*39
$GPGGA,223157.000,3748.7904,N,12217.8703,W,2,07,1.3,2.0,M,-25.1,M,,0000*68
$GPGSA,A,3,12,02,25,30,21,10,05,,,,,,2.2,1.3,1.8*3B
$GPRMC,223157.000,A,3748.7904,N,12217.8703,W,0.06,120.70,201010,,,D*70
$GPVTG,120.70,T,,M,0.06,N,0.1,K,D*0B
$GPGGA,223158.000,3748.7904,N,12217.8702,W,2,07,1.3,1.8,M,-25.1,M,,0000*6D
$GPGSA,A,3,12,02,25,30,21,10,05,,,,,,2.2,1.3,1.8*3B
$GPGSV,3,1,11,25,71,262,40,30,57,294,37,12,55,167,41,05,51,114,42*77
$GPGSV,3,2,11,29,46,307,39,02,36,049,41,10,30,056,38,21,17,239,23*76
$GPGSV,3,3,11,31,13,306,24,04,01,054,,48,44,197,32*4C
$GPRMC,223158.000,A,3748.7904,N,12217.8702,W,0.05,99.03,201010,,,D*4A
$GPVTG,99.03,T,,M,0.05,N,0.1,K,D*3F
$GPGGA,223159.000,3748.7904,N,12217.8702,W,2,07,1.3,1.5,M,-25.1,M,,0000*61
$GPGSA,A,3,12,02,25,30,21,10,05,,,,,,2.2,1.3,1.8*3B
$GPRMC,223159.000,A,3748.7904,N,12217.8702,W,0.06,205.70,201010,,,D*7B
$GPVTG,205.70,T,,M,0.06,N,0.1,K,D*0F
$GPGGA,223200.000,3748.7904,N,12217.8702,W,2,07,1.3,1.3,M,-25.1,M,2.8,0000*4C
$GPGSA,A,3,12,02,25,30,21,10,05,,,,,,2.2,1.3,1.8*3B
$GPRMC,223200.000,A,3748.7904,N,12217.8702,W,0.05,178.52,201010,,,D*7E
$GPVTG,178.52,T,,M,0.05,N,0.1,K,D*05
$GPGGA,223201.000,3748.7904,N,12217.8701,W,2,07,1.3,0.9,M,-25.1,M,3.8,0000*44
$GPGSA,A,3,12,02,25,30,21,10,05,,,,,,2.2,1.3,1.8*3B
$GPRMC,223201.000,A,3748.7904,N,12217.8701,W,0.05,225.98,201010,,,D*71
$GPVTG,225.98,T,,M,0.05,N,0.1,K,D*08
$GPGGA,223202.000,3748.7903,N,12217.8701,W,2,07,1.3,0.6,M,-25.1,M,,0000*6A
$GPGSA,A,3,12,02,25,30,21,10,05,,,,,,2.2,1.3,1.8*3B
$GPRMC,223202.000,A,3748.7903,N,12217.8701,W,0.07,182.94,201010,,,D*75
$GPVTG,182.94,T,,M,0.07,N,0.1,K,D*08
$GPGGA,223203.000,3748.7904,N,12217.8701,W,2,08,1.1,0.4,M,-25.1,M,,0000*63
$GPGSA,A,3,12,29,02,25,30,21,10,05,,,,,2.1,1.1,1.8*31
$GPGSV,3,1,11,25,71,262,40,30,57,294,38,12,55,167,41,05,51,114,42*78
$GPGSV,3,2,11,29,46,307,39,02,36,049,41,10,30,056,38,21,17,239,34*70
$GPGSV,3,3,11,31,13,306,25,04,01,054,,48,44,197,35*4A
$GPRMC,223203.000,A,3748.7904,N,12217.8701,W,0.10,351.75,201010,,,D*76
$GPGGA,223204.000,3748.7903,N,12217.8700,W,2,08,1.1,-0.1,M,-25.1,M,,0000*4A
$GPGSA,A,3,12,29,02,25,30,21,10,05,,,,,2.1,1.1,1.8*31
$GPRMC,223204.000,A,3748.7903,N,12217.8700,W,0.13,75.55,201010,,,D*43
$GPVTG,75.55,T,,M,0.13,N,0.2,K,D*3A
$GPGGA,223205.000,3748.7903,N,12217.8700,W,2,08,1.1,-0.5,M,-25.1,M,1.8,0000*68
$GPGSA,A,3,12,29,02,25,30,21,10,05,,,,,2.1,1.1,1.8*31
$GPRMC,223205.000,A,3748.7903,N,12217.8700,W,0.05,274.20,201010,,,D*74
$GPVTG,274.20,T,,M,0.05,N,0.1,K,D*0F
$GPGGA,223206.000,3748.7903,N,12217.8700,W,2,08,1.1,-0.8,M,-25.1,M,2.8,0000*65
$GPGSA,A,3,12,29,02,25,30,21,10,05,,,,,2.1,1.1,1.8*31
$GPRMC,223206.000,A,3748.7903,N,12217.8700,W,0.09,135.49,201010,,,D*72
$GPVTG,135.49,T,,M,0.09,N,0.2,K,D*09
$GPGGA,223207.000,3748.7903,N,12217.8700,W,2,08,1.1,-1.0,M,-25.1,M,3.8,0000*6C
$GPGSA,A,3,12,29,02,25,30,21,10,05,,,,,2.1,1.1,1.8*31
$GPRMC,223207.000,A,3748.7903,N,12217.8700,W,0.11,152.66,201010,,,D*76
$GPVTG,152.66,T,,M,0.11,N,0.2,K,D*0C
$GPGGA,223208.000,3748.7903,N,12217.8700,W,2,08,1.1,-1.2,M,-25.1,M,4.8,0000*66
$GPGSA,A,3,12,29,02,25,30,21,10,05,,,,,2.1,1.1,1.8*31
$GPGSV,3,1,11,25,71,262,40,30,57,294,34,12,55,167,41,05,51,114,42*74
$GPGSV,3,2,11,29,46,307,32,02,35,049,42,10,30,056,39,21,17,239,29*76
$GPGSV,3,3,11,31,13,306,26,04,01,054,,48,44,197,34*48
$GPRMC,223208.000,A,3748.7903,N,12217.8700,W,0.25,193.65,201010,,,D*70
$GPVTG,193.65,T,,M,0.25,N,0.5,K,D*02
$GPGGA,223209.000,3748.7903,N,12217.8700,W,2,08,1.1,-1.5,M,-25.1,M,,0000*42
$GPGSA,A,3,12,29,02,25,30,21,10,05,,,,,2.1,1.1,1.8*31
$GPRMC,223209.000,A,3748.7903,N,12217.8700,W,0.08,198.71,201010,,,D*70
$GPVTG,198.71,T,,M,0.08,N,0.2,K,D*04
$GPGGA,223210.000,3748.7903,N,12217.8700,W,2,08,1.1,-1.7,M,-25.1,M,,0000*48
$GPGSA,A,3,12,29,02,25,30,21,10,05,,,,,2.1,1.1,1.8*31
$GPRMC,223210.000,A,3748.7903,N,12217.8700,W,0.16,215.05,201010,,,D*72
$GPVTG,215.05,T,,M,0.16,N,0.3,K,D*0F
$GPGGA,223211.000,3748.7902,N,12217.8700,W,2,08,1.1,-1.8,M,-25.1,M,,0000*47
$GPGSA,A,3,12,29,02,25,30,21,10,05,,,,,2.1,1.1,1.8*31
$GPRMC,223211.000,A,3748.7902,N,12217.8700,W,0.15,227.51,201010,,,D*71
$GPVTG,227.51,T,,M,0.15,N,0.3,K,D*0C
$GPGGA,223212.000,3748.7902,N,12217.8701,W,2,08,1.1,-1.9,M,-25.1,M,1.8,0000*63
$GPGSA,A,3,12,29,02,25,30,21,10,05,,,,,2.1,1.1,1.8*31
$GPRMC,223212.000,A,3748.7902,N,12217.8701,W,0.03,138.68,201010,,,D*73
$GPVTG,138.68,T,,M,0.03,N,0.0,K,D*0F
$GPGGA,223213.000,3748.7902,N,12217.8701,W,2,08,1.1,-2.0,M,-25.1,M,2.8,0000*6B
$GPGSA,A,3,12,29,02,25,30,21,10,05,,,,,2.1,1.1,1.8*31
$GPGSV,3,1,11,25,71,262,41,30,57,294,39,12,55,167,41,05,51,114,42*78
$GPGSV,3,2,11,29,46,307,38,02,35,049,42,10,30,056,38,21,17,239,35*70
$GPGSV,3,3,11,31,13,306,27,04,01,054,,48,44,197,34*49
$GPRMC,223213.000,A,3748.7902,N,12217.8701,W,0.07,174.22,201010,,,D*70
$GPVTG,174.22,T,,M,0.07,N,0.1,K,D*0C
$GPGGA,223214.000,3748.7902,N,12217.8701,W,2,08,1.1,-2.3,M,-25.1,M,3.8,0000*6E
$GPGSA,A,3,12,29,02,25,30,21,10,05,,,,,2.1,1.1,1.8*31
$GPRMC,223214.000,A,3748.7902,N,12217.8701,W,0.02,276.67,201010,,,D*72
$GPVTG,276.67,T,,M,0.02,N,0.0,K,D*08
$GPGGA,223215.000,3748.7901,N,12217.8702,W,2,08,1.1,-3.3,M,-25.1,M,1.8,0000*6C
$GPGSA,A,3,12,29,02,25,30,21,10,05,,,,,2.1,1.1,1.8*31
$GPRMC,223215.000,A,3748.7901,N,12217.8702,W,0.10,97.86,201010,,,D*42
$GPVTG,97.86,T,,M,0.10,N,0.2,K,D*3B
$GPGGA,223216.000,3748.7900,N,12217.8704,W,2,08,1.1,-4.7,M,-25.1,M,2.8,0000*68
$GPGSA,A,3,12,29,02,25,30,21,10,05,,,,,2.1,1.1,1.8*31
$GPRMC,223216.000,A,3748.7900,N,12217.8704,W,0.10,118.78,201010,,,D*71
$GPVTG,118.78,T,,M,0.10,N,0.2,K,D*0C
$GPGGA,223217.000,3748.7900,N,12217.8704,W,2,08,1.1,-4.9,M,-25.1,M,3.8,0000*66
$GPGSA,A,3,12,29,02,25,30,21,10,05,,,,,2.1,1.1,1.8*31
$GPRMC,223217.000,A,3748.7900,N,12217.8704,W,0.01,311.56,201010,,,D*77
$GPVTG,311.56,T,,M,0.01,N,0.0,K,D*09
$GPGGA,223218.000,3748.7901,N,12217.8704,W,2,08,1.1,-4.7,M,-25.1,M,4.8,0000*61
$GPGSA,A,3,12,29,02,25,30,21,10,05,,,,,2.1,1.1,1.8*31
$GPGSV,3,1,11,25,71,261,42,30,57,294,40,12,55,167,40,05,51,114,42*77
$GPGSV,3,2,11,29,46,307,37,02,35,049,40,10,30,056,36,21,17,239,36*70
$GPGSV,3,3,11,31,13,306,31,04,01,054,,48,44,197,35*4F
$GPRMC,223218.000,A,3748.7901,N,12217.8704,W,0.15,48.63,201010,,,D*45
$GPVTG,48.63,T,,M,0.15,N,0.3,K,D*36
$GPGGA,223219.000,3748.7902,N,12217.8704,W,2,08,1.1,-4.6,M,-25.1,M,5.8,0000*63
$GPGSA,A,3,12,29,02,25,30,21,10,05,,,,,2.1,1.1,1.8*31
$GPRMC,223219.000,A,3748.7902,N,12217.8704,W,0.12,29.20,201010,,,D*40
$GPVTG,29.20,T,,M,0.12,N,0.2,K,D*30
$GPGGA,223220.000,3748.7902,N,12217.8704,W,2,08,1.1,-4.7,M,-25.1,M,6.8,0000*6B
$GPGSA,A,3,12,29,02,25,30,21,10,05,,,,,2.1,1.1,1.8*31
$GPRMC,223220.000,A,3748.7902,N,12217.8704,W,0.08,109.43,201010,,,D*77
$GPVTG,109.43,T,,M,0.08,N,0.1,K,D*0E
$GPGGA,223221.000,3748.7902,N,12217.8705,W,2,08,1.1,-4.8,M,-25.1,M,7.8,0000*65
$GPGSA,A,3,12,29,02,25,30,21,10,05,,,,,2.1,1.1,1.8*31
$GPRMC,223221.000,A,3748.7902,N,12217.8705,W,0.06,70.39,201010,,,D*4B
$GPVTG,70.39,T,,M,0.06,N,0.1,K,D*32
$GPGGA,223222.000,3748.7903,N,12217.8704,W,2,08,1.1,-4.9,M,-25.1,M,1.8,0000*61
$GPGSA,A,3,12,29,02,25,30,21,10,05,,,,,2.1,1.1,1.8*31
$GPRMC,223222.000,A,3748.7903,N,12217.8704,W,0.25,74.73,201010,,,D*43
$GPVTG,74.73,T,,M,0.25,N,0.5,K,D*3D
$GPGGA,223223.000,3748.7903,N,12217.8704,W,2,08,1.1,-5.0,M,-25.1,M,2.8,0000*6B
$GPGSA,A,3,12,29,02,25,30,21,10,05,,,,,2.1,1.1,1.8*31
$GPGSV,3,1,11,25,71,261,42,30,57,294,39,12,55,167,40,05,51,114,41*7A
$GPGSV,3,2,11,29,46,307,38,02,35,049,40,10,30,056,37,21,17,239,37*7F
$GPGSV,3,3,11,31,13,306,29,04,01,054,,48,44,197,32*41
$GPRMC,223223.000,A,3748.7903,N,12217.8704,W,0.08,100.63,201010,,,D*7E
$GPGGA,223224.000,3748.7903,N,12217.8705,W,2,08,1.1,-5.1,M,-25.1,M,3.8,0000*6D
$GPGSA,A,3,12,29,02,25,30,21,10,05,,,,,2.1,1.1,1.8*31
$GPRMC,223224.000,A,3748.7903,N,12217.8705,W,0.11,227.71,201010,,,D*75
$GPVTG,227.71,T,,M,0.11,N,0.2,K,D*0B
$GPGGA,223225.000,3748.7903,N,12217.8705,W,2,08,1.1,-5.2,M,-25.1,M,4.8,0000*68
$GPGSA,A,3,12,29,02,25,30,21,10,05,,,,,2.1,1.1,1.8*31
$GPRMC,223225.000,A,3748.7903,N,12217.8705,W,0.03,103.59,201010,,,D*78
$GPVTG,103.59,T,,M,0.03,N,0.1,K,D*04
$GPGGA,223226.000,3748.7903,N,12217.8705,W,2,08,1.1,-5.3,M,-25.1,M,5.8,0000*6B
$GPGSA,A,3,12,29,02,25,30,21,10,05,,,,,2.1,1.1,1.8*31
$GPRMC,223226.000,A,3748.7903,N,12217.8705,W,0.12,98.37,201010,,,D*40
$GPVTG,98.37,T,,M,0.12,N,0.2,K,D*3C
$GPGGA,223227.000,3748.7904,N,12217.8705,W,2,08,1.1,-5.3,M,-25.1,M,6.8,0000*6E
$GPGSA,A,3,12,29,02,25,30,21,10,05,,,,,2.1,1.1,1.8*31
$GPRMC,223227.000,A,3748.7904,N,12217.8705,W,0.06,110.73,201010,,,D*72
$GPVTG,110.73,T,,M,0.06,N,0.1,K,D*0B
$GPGGA,223228.000,3748.7904,N,12217.8705,W,2,08,1.1,-5.3,M,-25.1,M,7.8,0000*60
$GPGSA,A,3,12,29,02,25,30,21,10,05,,,,,2.1,1.1,1.8*31
$GPGSV,3,1,11,25,71,261,41,30,57,294,38,12,55,167,40,05,51,114,41*78
$GPGSV,3,2,11,29,46,307,38,02,35,049,40,10,30,056,37,21,17,239,31*79
$GPGSV,3,3,11,31,13,306,29,04,01,054,,48,44,197,31*42
$GPRMC,223228.000,A,3748.7904,N,12217.8705,W,0.08,76.32,201010,,,D*47
$GPVTG,76.32,T,,M,0.08,N,0.1,K,D*31
$GPGGA,223229.000,3748.7905,N,12217.8706,W,2,08,1.1,-5.3,M,-25.1,M,8.8,0000*6C
$GPGSA,A,3,12,29,02,25,30,21,10,05,,,,,2.1,1.1,1.8*31
$GPRMC,223229.000,A,3748.7905,N,12217.8706,W,0.31,302.60,201010,,,D*79
$GPVTG,302.60,T,,M,0.31,N,0.6,K,D*0B
$GPGGA,223230.000,3748.7905,N,12217.8707,W,2,08,1.1,-5.4,M,-25.1,M,9.8,0000*63
$GPGSA,A,3,12,29,02,25,30,21,10,05,,,,,2.1,1.1,1.8*31
$GPRMC,223230.000,A,3748.7905,N,12217.8707,W,0.16,195.68,201010,,,D*71
$GPVTG,195.68,T,,M,0.16,N,0.3,K,D*0F
$GPGGA,223231.000,3748.7904,N,12217.8707,W,2,08,1.1,-5.5,M,-25.1,M,10.8,0000*5A
$GPGSA,A,3,12,29,02,25,30,21,10,05,,,,,2.1,1.1,1.8*31
$GPRMC,223231.000,A,3748.7904,N,12217.8707,W,0.21,124.99,201010,,,D*71
$GPVTG,124.99,T,,M,0.21,N,0.4,K,D*08
$GPGGA,223232.000,3748.7904,N,12217.8707,W,2,08,1.1,-5.5,M,-25.1,M,11.8,0000*58
$GPGSA,A,3,12,29,02,25,30,21,10,05,,,,,2.1,1.1,1.8*31
$GPRMC,223232.000,A,3748.7904,N,12217.8707,W,0.15,100.63,201010,,,D*76
$GPVTG,100.63,T,,M,0.15,N,0.3,K,D*0B
$GPGGA,223233.000,3748.7904,N,12217.8706,W,2,08,1.1,-5.5,M,-25.1,M,12.8,0000*5B
$GPGSA,A,3,12,29,02,25,30,21,10,05,,,,,2.1,1.1,1.8*31
$GPGSV,3,1,11,25,71,261,32,30,57,294,38,12,55,167,40,05,51,114,31*7B
$GPGSV,3,2,11,29,46,307,37,02,35,049,32,10,30,056,30,21,17,239,39*7C
$GPGSV,3,3,11,31,13,306,29,04,01,054,,48,44,197,32*41
$GPRMC,223233.000,A,3748.7904,N,12217.8706,W,0.11,105.30,201010,,,D*71
$GPVTG,105.30,T,,M,0.11,N,0.2,K,D*0D
$GPGGA,223234.000,3748.7904,N,12217.8706,W,2,08,1.1,-5.5,M,-25.1,M,13.8,0000*5D
$GPGSA,A,3,12,29,02,25,30,21,10,05,,,,,2.1,1.1,1.8*31
$GPRMC,223234.000,A,3748.7904,N,12217.8706,W,0.11,105.87,201010,,,D*7A
$GPVTG,105.87,T,,M,0.11,N,0.2,K,D*01
$GPGGA,223235.000,3748.7904,N,12217.8706,W,2,08,1.1,-5.4,M,-25.1,M,14.8,0000*5A
$GPGSA,A,3,12,29,02,25,30,21,10,05,,,,,2.1,1.1,1.8*31
$GPRMC,223235.000,A,3748.7904,N,12217.8706,W,0.13,116.69,201010,,,D*7B
$GPVTG,116.69,T,,M,0.13,N,0.2,K,D*01
$GPGGA,223236.000,3748.7904,N,12217.8706,W,2,08,1.1,-5.4,M,-25.1,M,15.8,0000*58
$GPGSA,A,3,12,29,02,25,30,21,10,05,,,,,2.1,1.1,1.8*31
$GPRMC,223236.000,A,3748.7904,N,12217.8706,W,0.08,91.15,201010,,,D*47
$GPVTG,91.15,T,,M,0.08,N,0.1,K,D*3D
$GPGGA,223237.000,3748.7904,N,12217.8706,W,2,08,1.1,-5.5,M,-25.1,M,16.8,0000*5B
$GPGSA,A,3,12,29,02,25,30,21,10,05,,,,,2.1,1.1,1.8*31
$GPRMC,223237.000,A,3748.7904,N,12217.8706,W,0.18,89.91,201010,,,D*42
$GPVTG,89.91,T,,M,0.18,N,0.3,K,D*3B
$GPGGA,223238.000,3748.7905,N,12217.8707,W,2,08,1.1,-5.2,M,-25.1,M,17.8,0000*52
$GPGSA,A,3,12,29,02,25,30,21,10,05,,,,,2.1,1.1,1.8*31
$GPGSV,3,1,11,25,71,261,32,30,57,294,28,12,55,167,35,05,51,114,30*79
$GPGSV,3,2,11,29,46,307,24,02,35,049,25,10,30,056,24,21,17,239,39*7D
$GPGSV,3,3,11,31,13,306,17,04,01,054,,48,44,197,26*49
$GPRMC,223238.000,A,3748.7905,N,12217.8707,W,0.09,88.50,201010,,,D*41
$GPVTG,88.50,T,,M,0.09,N,0.2,K,D*36
$GPGGA,223239.000,3748.7905,N,12217.8707,W,1,08,1.1,-5.3,M,-25.1,M,,0000*41
$GPGSA,A,3,12,29,02,25,30,21,10,05,,,,,2.1,1.1,1.8*31
$GPRMC,223239.000,A,3748.7905,N,12217.8707,W,0.07,201.15,201010,,,A*79
$GPVTG,201.15,T,,M,0.07,N,0.1,K,A*0C
$GPGGA,223240.000,3748.7908,N,12217.8707,W,1,07,1.1,-5.3,M,-25.1,M,,0000*4D
$GPGSA,A,3,12,29,02,30,21,10,05,,,,,,2.4,1.1,2.1*39
$GPRMC,223240.000,A,3748.7908,N,12217.8707,W,0.06,49.41,201010,,,A*44
$GPVTG,49.41,T,,M,0.06,N,0.1,K,A*32
$GPGGA,223241.000,3748.7911,N,12217.8708,W,1,08,1.1,-5.3,M,-25.1,M,,0000*44
$GPGSA,A,3,12,29,02,25,30,21,10,05,,,,,2.1,1.1,1.8*31
$GPRMC,223241.000,A,3748.7911,N,12217.8708,W,0.21,3.53,201010,,,A*7A
$GPVTG,3.53,T,,M,0.21,N,0.4,K,A*0F
$GPGGA,223242.000,3748.7915,N,12217.8710,W,1,08,1.1,-4.9,M,-25.1,M,,0000*41
$GPGSA,A,3,12,29,02,25,30,21,10,05,,,,,2.1,1.1,1.8*31
$GPRMC,223242.000,A,3748.7915,N,12217.8710,W,0.32,22.77,201010,,,A*43
$GPVTG,22.77,T,,M,0.32,N,0.6,K,A*3A
$GPGGA,223243.000,3748.7920,N,12217.8710,W,1,08,1.1,-5.3,M,-25.1,M,,0000*4D
$GPGSA,A,3,12,29,02,25,30,21,10,05,,,,,2.1,1.1,1.8*31
$GPGSV,3,1,10,25,71,261,24,30,57,294,27,12,55,167,33,05,51,114,34*72
$GPGSV,3,2,10,29,46,307,26,02,35,049,26,10,30,056,25,21,17,239,22*76
$GPGSV,3,3,10,31,13,306,24,04,01,054,*7F
$GPRMC,223243.000,A,3748.7920,N,12217.8710,W,0.40,34.68,201010,,,A*48
$GPVTG,34.68,T,,M,0.40,N,0.7,K,A*37
$GPGGA,223244.000,3748.7924,N,12217.8711,W,1,08,1.1,-5.1,M,-25.1,M,,0000*4D
$GPGSA,A,3,12,29,02,25,30,21,10,05,,,,,2.1,1.1,1.8*31
$GPRMC,223244.000,A,3748.7924,N,12217.8711,W,0.39,356.88,201010,,,A*7D
$GPVTG,356.88,T,,M,0.39,N,0.7,K,A*00
$GPGGA,223245.000,3748.7927,N,12217.8714,W,1,07,2.3,-4.7,M,-25.1,M,,0000*43
$GPGSA,A,3,12,29,02,25,30,10,05,,,,,,7.0,2.3,6.6*3E
$GPRMC,223245.000,A,3748.7927,N,12217.8714,W,0.45,252.44,201010,,,A*74
$GPVTG,252.44,T,,M,0.45,N,0.8,K,A*01
$GPGGA,223246.000,3748.7929,N,12217.8714,W,1,08,1.1,-4.9,M,-25.1,M,,0000*4E
$GPGSA,A,3,12,29,02,25,30,21,10,05,,,,,2.1,1.1,1.8*31
$GPRMC,223246.000,A,3748.7929,N,12217.8714,W,0.26,47.89,201010,,,A*4B
$GPVTG,47.89,T,,M,0.26,N,0.5,K,A*3E
$GPGGA,223247.000,3748.7931,N,12217.8713,W,1,08,1.1,-5.2,M,-25.1,M,,0000*4B
$GPGSA,A,3,12,29,02,25,30,21,10,05,,,,,2.1,1.1,1.8*31
$GPRMC,223247.000,A,3748.7931,N,12217.8713,W,0.25,54.58,201010,,,A*49
$GPVTG,54.58,T,,M,0.25,N,0.5,K,A*33
$GPGGA,223248.000,3748.7934,N,12217.8714,W,1,08,1.1,-5.3,M,-25.1,M,,0000*47
$GPGSA,A,3,12,29,02,25,30,21,10,05,,,,,2.1,1.1,1.8*31
$GPGSV,3,1,10,25,71,261,25,30,57,294,26,12,55,167,33,05,51,114,34*72
$GPGSV,3,2,10,29,46,307,25,02,35,049,31,10,30,056,31,21,17,239,34*71
$GPGSV,3,3,10,31,13,306,22,04,01,054,*79
$GPRMC,223248.000,A,3748.7934,N,12217.8714,W,0.15,215.06,201010,,,A*7B
$GPVTG,215.06,T,,M,0.15,N,0.3,K,A*0A
$GPGGA,223249.000,3748.7931,N,12217.8715,W,1,08,1.1,-5.3,M,-25.1,M,,0000*42
$GPGSA,A,3,12,29,02,25,30,21,10,05,,,,,2.1,1.1,1.8*31
$GPRMC,223249.000,A,3748.7931,N,12217.8715,W,0.74,195.95,201010,,,A*78
$GPVTG,195.95,T,,M,0.74,N,1.4,K,A*0A
$GPGGA,223250.000,3748.7934,N,12217.8719,W,1,08,1.1,-5.8,M,-25.1,M,,0000*48
$GPGSA,A,3,12,29,02,25,30,21,10,05,,,,,2.1,1.1,1.8*31
$GPRMC,223250.000,A,3748.7934,N,12217.8719,W,0.50,85.28,201010,,,A*49
$GPVTG,85.28,T,,M,0.50,N,0.9,K,A*36
$GPGGA,223251.000,3748.7938,N,12217.8721,W,1,08,1.1,-6.4,M,-25.1,M,,0000*41
$GPGSA,A,3,12,29,02,25,30,21,10,05,,,,,2.1,1.1,1.8*31
$GPRMC,223251.000,A,3748.7938,N,12217.8721,W,0.37,29.83,201010,,,A*49
$GPVTG,29.83,T,,M,0.37,N,0.7,K,A*3E
$GPGGA,223252.000,3748.7943,N,12217.8722,W,1,08,1.1,-7.4,M,-25.1,M,,0000*4C
$GPGSA,A,3,12,29,02,25,30,21,10,05,,,,,2.1,1.1,1.8*31
$GPRMC,223252.000,A,3748.7943,N,12217.8722,W,0.51,9.52,201010,,,A*7B
$GPVTG,9.52,T,,M,0.51,N,0.9,K,A*0E
$GPGGA,223253.000,3748.7941,N,12217.8721,W,1,08,1.1,-7.2,M,-25.1,M,,0000*4A
$GPGSA,A,3,12,29,02,25,30,21,10,05,,,,,2.1,1.1,1.8*31
$GPGSV,3,1,10,25,71,261,25,30,57,294,30,12,55,167,24,05,51,114,25*73
$GPGSV,3,2,10,29,46,307,33,02,35,049,34,10,30,056,32,21,17,239,28*7D
$GPGSV,3,3,10,31,13,306,39,04,01,054,*73
$GPRMC,223253.000,A,3748.7941,N,12217.8721,W,0.68,148.73,201010,,,A*76
$GPVTG,148.73,T,,M,0.68,N,1.3,K,A*08
$GPGGA,223254.000,3748.7937,N,12217.8720,W,1,08,1.1,-6.2,M,-25.1,M,,0000*4C
$GPGSA,A,3,12,29,02,25,30,21,10,05,,,,,2.1,1.1,1.8*31
$GPRMC,223254.000,A,3748.7937,N,12217.8720,W,1.18,159.81,201010,,,A*7A
$GPVTG,159.81,T,,M,1.18,N,2.2,K,A*01
$GPGGA,223255.000,3748.7933,N,12217.8719,W,1,08,1.1,-6.1,M,-25.1,M,,0000*40
$GPGSA,A,3,12,29,02,25,30,21,10,05,,,,,2.1,1.1,1.8*31
$GPRMC,223255.000,A,3748.7933,N,12217.8719,W,0.59,167.27,201010,,,A*70
$GPVTG,167.27,T,,M,0.59,N,1.1,K,A*04
$GPGGA,223256.000,3748.7931,N,12217.8719,W,1,08,1.1,-6.0,M,-25.1,M,,0000*40
$GPGSA,A,3,12,29,02,25,30,21,10,05,,,,,2.1,1.1,1.8*31
$GPRMC,223256.000,A,3748.7931,N,12217.8719,W,0.49,150.61,201010,,,A*76
$GPVTG,150.61,T,,M,0.49,N,0.9,K,A*0A
$GPGGA,223257.000,3748.7928,N,12217.8718,W,1,08,1.1,-5.5,M,-25.1,M,,0000*4E
$GPGSA,A,3,12,29,02,25,30,21,10,05,,,,,2.1,1.1,1.8*31
$GPRMC,223257.000,A,3748.7928,N,12217.8718,W,0.50,157.06,201010,,,A*70
$GPVTG,157.06,T,,M,0.50,N,0.9,K,A*04
$GPGGA,223258.000,3748.7926,N,12217.8718,W,1,08,1.1,-5.0,M,-25.1,M,,0000*4A
$GPGSA,A,3,12,29,02,25,30,21,10,05,,,,,2.1,1.1,1.8*31
$GPGSV,3,1,10,25,71,261,31,30,57,294,37,12,55,167,21,05,51,114,23*72
$GPGSV,3,2,10,29,46,307,34,02,35,049,34,10,30,056,34,21,17,239,33*76
$GPGSV,3,3,10,31,13,306,25,04,01,054,*7E
$GPRMC,223258.000,A,3748.7926,N,12217.8718,W,0.02,108.17,201010,,,A*7C
$GPGGA,223259.000,3748.7923,N,12217.8717,W,1,08,1.1,-4.5,M,-25.1,M,,0000*45
$GPGSA,A,3,12,29,02,25,30,21,10,05,,,,,2.1,1.1,1.8*31
$GPRMC,223259.000,A,3748.7923,N,12217.8717,W,0.40,152.88,201010,,,A*78
$GPVTG,152.88,T,,M,0.40,N,0.7,K,A*08
$GPGGA,223300.000,3748.7921,N,12217.8717,W,1,08,1.1,-4.1,M,-25.1,M,,0000*4E
$GPGSA,A,3,12,29,02,25,30,21,10,05,,,,,2.1,1.1,1.8*31
$GPRMC,223300.000,A,3748.7921,N,12217.8717,W,0.16,140.86,201010,,,A*79
$GPVTG,140.86,T,,M,0.16,N,0.3,K,A*02
$GPGGA,223301.000,3748.7919,N,12217.8717,W,1,08,1.1,-3.6,M,-25.1,M,,0000*44
$GPGSA,A,3,12,29,02,25,30,21,10,05,,,,,2.1,1.1,1.8*31
$GPRMC,223301.000,A,3748.7919,N,12217.8717,W,0.31,145.20,201010,,,A*7F
$GPVTG,145.20,T,,M,0.31,N,0.6,K,A*0B
$GPGGA,223302.000,3748.7916,N,12217.8715,W,1,08,1.1,-3.2,M,-25.1,M,,0000*4E
$GPGSA,A,3,12,29,02,25,30,21,10,05,,,,,2.1,1.1,1.8*31
$GPRMC,223302.000,A,3748.7916,N,12217.8715,W,0.98,122.15,201010,,,A*75
$GPVTG,122.15,T,,M,0.98,N,1.8,K,A*00
$GPGGA,223303.000,3748.7915,N,12217.8711,W,1,08,1.1,-4.3,M,-25.1,M,,0000*4E
$GPGSA,A,3,12,29,02,25,30,21,10,05,,,,,2.1,1.1,1.8*31
$GPGSV,3,1,10,25,71,261,26,30,57,294,26,12,55,167,21,05,51,114,23*74
$GPGSV,3,2,10,29,46,307,33,02,35,049,38,10,30,056,35,21,17,239,32*7D
$GPGSV,3,3,10,31,13,306,35,04,01,054,*7F
$GPRMC,223303.000,A,3748.7915,N,12217.8711,W,1.34,110.46,201010,,,A*73
$GPVTG,110.46,T,,M,1.34,N,2.5,K,A*0E
$GPGGA,223304.000,3748.7914,N,12217.8708,W,1,08,1.1,-4.3,M,-25.1,M,,0000*40
$GPGSA,A,3,12,29,02,25,30,21,10,05,,,,,2.1,1.1,1.8*31
$GPRMC,223304.000,A,3748.7914,N,12217.8708,W,0.59,125.82,201010,,,A*79
$GPVTG,125.82,T,,M,0.59,N,1.1,K,A*0D
$GPGGA,223305.000,3748.7913,N,12217.8706,W,1,08,1.1,-4.0,M,-25.1,M,,0000*4B
$GPGSA,A,3,12,29,02,25,30,21,10,05,,,,,2.1,1.1,1.8*31
$GPRMC,223305.000,A,3748.7913,N,12217.8706,W,0.15,12.08,201010,,,A*4E
$GPVTG,12.08,T,,M,0.15,N,0.3,K,A*31
$GPGGA,223306.000,3748.7913,N,12217.8706,W,1,08,1.1,-3.6,M,-25.1,M,,0000*49
$GPGSA,A,3,12,29,02,25,30,21,10,05,,,,,2.1,1.1,1.8*31
$GPRMC,223306.000,A,3748.7913,N,12217.8706,W,0.18,112.52,201010,,,A*7E
$GPVTG,112.52,T,,M,0.18,N,0.3,K,A*02
$GPGGA,223307.000,3748.7911,N,12217.8704,W,1,08,1.1,-2.9,M,-25.1,M,,0000*46
$GPGSA,A,3,12,29,02,25,30,21,10,05,,,,,2.1,1.1,1.8*31
$GPRMC,223307.000,A,3748.7911,N,12217.8704,W,0.11,168.80,201010,,,A*74
$GPVTG,168.80,T,,M,0.11,N,0.2,K,A*08
$GPGGA,223308.000,3748.7907,N,12217.8704,W,1,08,1.1,-3.3,M,-25.1,M,,0000*45
$GPGSA,A,3,12,29,02,25,30,21,10,05,,,,,2.1,1.1,1.8*31
$GPGSV,3,1,10,25,71,261,27,30,57,294,28,12,55,167,24,05,51,114,28*75
$GPGSV,3,2,10,29,46,307,31,02,35,049,27,10,30,056,32,21,17,239,36*72
$GPGSV,3,3,10,31,13,306,34,04,01,054,*7E
$GPRMC,223308.000,A,3748.7907,N,12217.8704,W,1.67,182.25,201010,,,A*77
$GPVTG,182.25,T,,M,1.67,N,3.1,K,A*03
$GPGGA,223309.000,3748.7904,N,12217.8703,W,1,08,1.1,-3.0,M,-25.1,M,,0000*43
$GPGSA,A,3,12,29,02,25,30,21,10,05,,,,,2.1,1.1,1.8*31
$GPRMC,223309.000,A,3748.7904,N,12217.8703,W,1.02,177.01,201010,,,A*7D
$GPVTG,177.01,T,,M,1.02,N,1.9,K,A*06
$GPGGA,223310.000,3748.7902,N,12217.8703,W,1,08,1.1,-3.1,M,-25.1,M,,0000*4C
$GPGSA,A,3,12,29,02,25,30,21,10,05,,,,,2.1,1.1,1.8*31
$GPRMC,223310.000,A,3748.7902,N,12217.8703,W,0.48,171.83,201010,,,A*70
$GPVTG,171.83,T,,M,0.48,N,0.9,K,A*04
$GPGGA,223311.000,3748.7902,N,12217.8702,W,1,08,1.1,-3.3,M,-25.1,M,,0000*4E
$GPGSA,A,3,12,29,02,25,30,21,10,05,,,,,2.1,1.1,1.8*31
$GPRMC,223311.000,A,3748.7902,N,12217.8702,W,0.42,42.14,201010,,,A*45
$GPVTG,42.14,T,,M,0.42,N,0.8,K,A*30
$GPGGA,223312.000,3748.7907,N,12217.8699,W,1,08,1.1,-5.7,M,-25.1,M,,0000*49
$GPGSA,A,3,12,29,02,25,30,21,10,05,,,,,2.1,1.1,1.8*31
$GPRMC,223312.000,A,3748.7907,N,12217.8699,W,0.43,173.76,201010,,,A*76
$GPVTG,173.76,T,,M,0.43,N,0.8,K,A*06
$GPGGA,223313.000,3748.7910,N,12217.8698,W,1,08,1.1,-7.5,M,-25.1,M,,0000*4F
$GPGSA,A,3,12,29,02,25,30,21,10,05,,,,,2.1,1.1,1.8*31
$GPGSV,3,1,10,25,71,261,25,30,57,294,24,12,55,167,23,05,51,114,22*76
$GPGSV,3,2,10,29,46,307,32,02,35,049,36,10,30,056,35,21,17,239,28*79
$GPGSV,3,3,10,31,13,306,31,04,01,054,*7B
$GPVTG,120.12,T,,M,0.53,N,1.0,K,A*0A
$GPGGA,223314.000,3748.7910,N,12217.8697,W,1,08,1.1,-8.0,M,-25.1,M,,0000*4D
$GPGSA,A,3,12,29,02,25,30,21,10,05,,,,,2.1,1.1,1.8*31
$GPRMC,223314.000,A,3748.7910,N,12217.8697,W,0.34,239.27,201010,,,A*71
$GPVTG,239.27,T,,M,0.34,N,0.6,K,A*01
$GPGGA,223315.000,3748.7909,N,12217.8699,W,1,08,1.1,-8.3,M,-25.1,M,,0000*49
$GPGSA,A,3,12,29,02,25,30,21,10,05,,,,,2.1,1.1,1.8*31
$GPRMC,223315.000,A,3748.7909,N,12217.8699,W,0.56,285.92,201010,,,A*7B
$GPVTG,285.92,T,,M,0.56,N,1.0,K,A*0B
$GPGGA,223316.000,3748.7909,N,12217.8701,W,1,08,1.1,-8.3,M,-25.1,M,,0000*4A
$GPGSA,A,3,12,29,02,25,30,21,10,05,,,,,2.1,1.1,1.8*31
$GPRMC,223316.000,A,3748.7909,N,12217.8701,W,0.37,240.35,201010,,,A*7B
$GPVTG,240.35,T,,M,0.37,N,0.7,K,A*0E
$GPGGA,223317.000,3748.7905,N,12217.8700,W,1,08,1.1,-8.2,M,-25.1,M,,0000*47
$GPGSA,A,3,12,29,02,25,30,21,10,05,,,,,2.1,1.1,1.8*31
$GPRMC,223317.000,A,3748.7905,N,12217.8700,W,0.84,157.33,201010,,,A*7C
$GPVTG,157.33,T,,M,0.84,N,1.6,K,A*05
$GPGGA,223318.000,3748.7904,N,12217.8699,W,1,08,1.1,-8.4,M,-25.1,M,,0000*4E
$GPGSA,A,3,12,29,02,25,30,21,10,05,,,,,2.1,1.1,1.8*31
$GPGSV,3,1,10,25,71,261,30,30,57,294,32,12,55,167,22,05,51,114,22*74
$GPGSV,3,2,10,29,46,307,34,02,35,049,26,10,30,056,20,21,17,239,31*72
$GPGSV,3,3,10,31,13,306,33,04,01,054,*79
$GPRMC,223318.000,A,3748.7904,N,12217.8699,W,0.21,218.85,201010,,,A*79
$GPVTG,218.85,T,,M,0.21,N,0.4,K,A*0C
$GPGGA,223319.000,3748.7904,N,12217.8696,W,1,08,1.1,-8.5,M,-25.1,M,,0000*41
$GPGSA,A,3,12,29,02,25,30,21,10,05,,,,,2.1,1.1,1.8*31
$GPRMC,223319.000,A,3748.7904,N,12217.8696,W,1.16,60.80,201010,,,A*4A
$GPVTG,60.80,T,,M,1.16,N,2.2,K,A*35
$GPGGA,223320.000,3748.7905,N,12217.8694,W,1,08,1.1,-8.5,M,-25.1,M,,0000*48
$GPGSA,A,3,12,29,02,25,30,21,10,05,,,,,2.1,1.1,1.8*31
$GPRMC,223320.000,A,3748.7905,N,12217.8694,W,0.35,28.44,201010,,,A*47
$GPVTG,28.44,T,,M,0.35,N,0.6,K,A*37
$GPGGA,223321.000,3748.7904,N,12217.8692,W,1,08,1.1,-8.1,M,-25.1,M,,0000*4A
$GPGSA,A,3,12,29,02,25,30,21,10,05,,,,,2.1,1.1,1.8*31
$GPRMC,223321.000,A,3748.7904,N,12217.8692,W,0.26,345.25,201010,,,A*7C
$GPVTG,345.25,T,,M,0.26,N,0.5,K,A*09
$GPGGA,223322.000,3748.7906,N,12217.8693,W,1,08,1.1,-8.6,M,-25.1,M,,0000*4D
$GPGSA,A,3,12,29,02,25,30,21,10,05,,,,,2.1,1.1,1.8*31
$GPRMC,223322.000,A,3748.7906,N,12217.8693,W,0.59,1.46,201010,,,A*72
$GPVTG,1.46,T,,M,0.59,N,1.1,K,A*02
$GPGGA,223323.000,3748.7912,N,12217.8697,W,1,08,1.1,-8.7,M,-25.1,M,,0000*4C
$GPGSA,A,3,12,29,02,25,30,21,10,05,,,,,2.1,1.1,1.8*31
$GPGSV,3,1,10,25,71,261,20,30,57,294,30,12,55,167,23,05,51,114,20*74
$GPGSV,3,2,10,29,46,307,35,02,35,049,37,10,30,056,38,21,17,239,27*7D
$GPGSV,3,3,10,31,13,306,31,04,01,054,*7B
$GPRMC,223323.000,A,3748.7912,N,12217.8697,W,0.28,351.08,201010,,,A*78
$GPVTG,351.08,T,,M,0.28,N,0.5,K,A*0D
$GPGGA,223324.000,3748.7916,N,12217.8700,W,1,08,1.1,-8.8,M,-25.1,M,,0000*4F
$GPGSA,A,3,12,29,02,25,30,21,10,05,,,,,2.1,1.1,1.8*31
$GPRMC,223324.000,A,3748.7916,N,12217.8700,W,0.28,307.53,201010,,,A*79
$GPVTG,307.53,T,,M,0.28,N,0.5,K,A*00
$GPGGA,223325.000,3748.7922,N,12217.8705,W,1,08,1.1,-9.4,M,-25.1,M,,0000*41
$GPGSA,A,3,12,29,02,25,30,21,10,05,,,,,2.1,1.1,1.8*31
$GPRMC,223325.000,A,3748.7922,N,12217.8705,W,0.81,352.24,201010,,,A*79
$GPVTG,352.24,T,,M,0.81,N,1.5,K,A*02
$GPGGA,223326.000,3748.7923,N,12217.8708,W,1,08,1.1,-9.2,M,-25.1,M,,0000*48
$GPGSA,A,3,12,29,02,25,30,21,10,05,,,,,2.1,1.1,1.8*31
$GPRMC,223326.000,A,3748.7923,N,12217.8708,W,0.58,319.72,201010,,,A*7E
$GPVTG,319.72,T,,M,0.58,N,1.1,K,A*0E
$GPGGA,223327.000,3748.7922,N,12217.8711,W,1,08,1.1,-9.0,M,-25.1,M,,0000*42
$GPGSA,A,3,12,29,02,25,30,21,10,05,,,,,2.1,1.1,1.8*31
$GPRMC,223327.000,A,3748.7922,N,12217.8711,W,0.47,241.38,201010,,,A*7A
$GPVTG,241.38,T,,M,0.47,N,0.9,K,A*0B
$GPGGA,223328.000,3748.7919,N,12217.8713,W,1,08,1.1,-9.2,M,-25.1,M,,0000*45
$GPGSA,A,3,12,29,02,25,30,21,10,05,,,,,2.1,1.1,1.8*31
$GPGSV,3,1,10,25,71,261,32,30,57,294,34,12,55,167,23,05,51,114,19*79
$GPGSV,3,2,10,29,46,307,31,02,35,049,26,10,30,056,24,21,17,239,38*7A
$GPGSV,3,3,10,31,13,306,23,04,01,054,*78
$GPVTG,176.48,T,,M,1.19,N,2.2,K,A*08
$GPGGA,223329.000,3748.7914,N,12217.8719,W,1,08,1.1,-8.6,M,-25.1,M,,0000*46
$GPGSA,A,3,12,29,02,25,30,21,10,05,,,,,2.1,1.1,1.8*31
$GPRMC,223329.000,A,3748.7914,N,12217.8719,W,1.25,204.13,201010,,,A*74
$GPVTG,204.13,T,,M,1.25,N,2.3,K,A*0E
$GPGGA,223330.000,3748.7909,N,12217.8724,W,1,08,1.1,-8.2,M,-25.1,M,,0000*48
$GPGSA,A,3,12,29,02,25,30,21,10,05,,,,,2.1,1.1,1.8*31
$GPRMC,223330.000,A,3748.7909,N,12217.8724,W,1.44,182.79,201010,,,A*78
$GPVTG,182.79,T,,M,1.44,N,2.7,K,A*0C
$GPGGA,223331.000,3748.7902,N,12217.8729,W,1,08,1.1,-7.1,M,-25.1,M,,0000*43
$GPGSA,A,3,12,29,02,25,30,21,10,05,,,,,2.1,1.1,1.8*31
$GPRMC,223331.000,A,3748.7902,N,12217.8729,W,1.85,167.92,201010,,,A*7C
$GPVTG,167.92,T,,M,1.85,N,3.4,K,A*0D
$GPGGA,223332.000,3748.7896,N,12217.8732,W,1,08,1.1,-6.7,M,-25.1,M,,0000*41
$GPGSA,A,3,12,29,02,25,30,21,10,05,,,,,2.1,1.1,1.8*31
$GPRMC,223332.000,A,3748.7896,N,12217.8732,W,1.54,163.64,201010,,,A*78
$GPVTG,163.64,T,,M,1.54,N,2.9,K,A*00
$GPGGA,223333.000,3748.7890,N,12217.8737,W,1,08,1.1,-5.9,M,-25.1,M,,0000*4E
$GPGSA,A,3,12,29,02,25,30,21,10,05,,,,,2.1,1.1,1.8*31
$GPGSV,3,1,10,25,71,261,33,30,57,294,33,12,55,167,24,05,51,114,21*73
$GPGSV,3,2,10,29,46,307,29,02,35,049,25,10,30,056,23,21,17,239,36*79
$GPGSV,3,3,10,31,13,306,18,04,01,054,*70
$GPRMC,223333.000,A,3748.7890,N,12217.8737,W,1.09,179.81,201010,,,A*72
$GPVTG,179.81,T,,M,1.09,N,2.0,K,A*01
$GPGGA,223334.000,3748.7882,N,12217.8738,W,1,08,1.1,-5.4,M,-25.1,M,,0000*48
$GPGSA,A,3,12,29,02,25,30,21,10,05,,,,,2.1,1.1,1.8*31
$GPRMC,223334.000,A,3748.7882,N,12217.8738,W,1.10,182.81,201010,,,A*75
$GPVTG,182.81,T,,M,1.10,N,2.0,K,A*0D
$GPGGA,223335.000,3748.7875,N,12217.8741,W,1,08,1.1,-4.7,M,-25.1,M,,0000*4D
$GPGSA,A,3,12,29,02,25,30,21,10,05,,,,,2.1,1.1,1.8*31
$GPRMC,223335.000,A,3748.7875,N,12217.8741,W,0.83,186.34,201010,,,A*73
$GPVTG,186.34,T,,M,0.83,N,1.5,K,A*0A
$GPGGA,223336.000,3748.7876,N,12217.8745,W,1,08,1.1,-5.1,M,-25.1,M,,0000*4E
$GPGSA,A,3,12,29,02,25,30,21,10,05,,,,,2.1,1.1,1.8*31
$GPRMC,223336.000,A,3748.7876,N,12217.8745,W,0.24,176.38,201010,,,A*79
$GPVTG,176.38,T,,M,0.24,N,0.4,K,A*04
$GPGGA,223337.000,3748.7875,N,12217.8748,W,1,08,1.1,-5.0,M,-25.1,M,,0000*40
$GPGSA,A,3,12,29,02,25,30,21,10,05,,,,,2.1,1.1,1.8*31
$GPRMC,223337.000,A,3748.7875,N,12217.8748,W,0.49,91.35,201010,,,A*48
$GPVTG,91.35,T,,M,0.49,N,0.9,K,A*37
$GPGGA,223338.000,3748.7874,N,12217.8748,W,1,08,1.1,-4.3,M,-25.1,M,,0000*4C
$GPGSA,A,3,12,29,02,25,30,21,10,05,,,,,2.1,1.1,1.8*31
$GPGSV,3,1,10,25,71,261,27,30,57,294,30,12,55,167,23,05,51,114,26*75
$GPGSV,3,2,10,29,46,307,31,02,35,049,25,10,30,056,23,21,17,239,28*7F
$GPGSV,3,3,10,31,13,306,18,04,01,054,*70
$GPRMC,223338.000,A,3748.7874,N,12217.8748,W,0.16,8.58,201010,,,A*77
$GPVTG,8.58,T,,M,0.16,N,0.3,K,A*0C
$GPGGA,223339.000,3748.7878,N,12217.8752,W,1,08,1.1,-4.0,M,-25.1,M,,0000*49
$GPGSA,A,3,12,29,02,25,30,21,10,05,,,,,2.1,1.1,1.8*31
$GPRMC,223339.000,A,3748.7878,N,12217.8752,W,1.01,324.94,201010,,,A*7B
$GPVTG,324.94,T,,M,1.01,N,1.9,K,A*0D
$GPGGA,223340.000,3748.7881,N,12217.8753,W,1,07,1.3,-4.2,M,-25.1,M,,0000*4F
$GPGSA,A,3,12,02,25,30,21,10,05,,,,,,2.2,1.3,1.8*3B
$GPRMC,223340.000,A,3748.7881,N,12217.8753,W,0.23,44.60,201010,,,A*4D
$GPVTG,44.60,T,,M,0.23,N,0.4,K,A*3E
$GPGGA,223341.000,3748.7885,N,12217.8752,W,1,07,1.3,-5.3,M,-25.1,M,,0000*4B
$GPGSA,A,3,12,29,02,25,30,21,10,,,,,,2.2,1.3,1.8*35
$GPRMC,223341.000,A,3748.7885,N,12217.8752,W,0.72,29.93,201010,,,A*4A
$GPVTG,29.93,T,,M,0.72,N,1.3,K,A*3B
$GPGGA,223342.000,3748.7879,N,12217.8751,W,1,08,1.1,-5.6,M,-25.1,M,,0000*40
$GPGSA,A,3,12,29,02,25,30,21,10,05,,,,,2.1,1.1,1.8*31
$GPRMC,223342.000,A,3748.7879,N,12217.8751,W,0.42,19.89,201010,,,A*42
$GPVTG,19.89,T,,M,0.42,N,0.8,K,A*3A
$GPGGA,223343.000,3748.7885,N,12217.8757,W,1,08,1.1,-5.8,M,-25.1,M,,0000*4A
$GPGSA,A,3,12,29,02,25,30,21,10,05,,,,,2.1,1.1,1.8*31
$GPGSV,3,1,10,25,71,261,19,30,57,294,20,12,55,167,22,05,51,114,21*7F
$GPGSV,3,2,10,29,46,307,27,02,35,049,25,10,30,056,22,21,17,239,24*75
$GPGSV,3,3,10,31,13,306,18,04,01,054,*70
$GPVTG,352.65,T,,M,0.48,N,0.9,K,A*0F
$GPGGA,223344.000,3748.7893,N,12217.8761,W,1,08,1.1,-6.2,M,-25.1,M,,0000*46
$GPGSA,A,3,12,29,02,25,30,21,10,05,,,,,2.1,1.1,1.8*31
$GPRMC,223344.000,A,3748.7893,N,12217.8761,W,0.27,3.40,201010,,,A*7E
$GPVTG,3.40,T,,M,0.27,N,0.5,K,A*0A
$GPGGA,223345.000,3748.7898,N,12217.8763,W,1,08,1.1,-6.7,M,-25.1,M,,0000*4B
$GPGSA,A,3,12,29,02,25,30,21,10,05,,,,,2.1,1.1,1.8*31
$GPRMC,223345.000,A,3748.7898,N,12217.8763,W,0.07,52.52,201010,,,A*43
$GPVTG,52.52,T,,M,0.07,N,0.1,K,A*3B
$GPGGA,223346.000,3748.7898,N,12217.8759,W,1,08,1.1,-7.8,M,-25.1,M,,0000*4F
$GPGSA,A,3,12,29,02,25,30,21,10,05,,,,,2.1,1.1,1.8*31
$GPRMC,223346.000,A,3748.7898,N,12217.8759,W,0.41,107.23,201010,,,A*7C
$GPVTG,107.23,T,,M,0.41,N,0.8,K,A*07
$GPGGA,223347.000,3748.7899,N,12217.8754,W,1,08,1.1,-8.6,M,-25.1,M,,0000*43
$GPGSA,A,3,12,29,02,25,30,21,10,05,,,,,2.1,1.1,1.8*31
$GPRMC,223347.000,A,3748.7899,N,12217.8754,W,0.92,84.67,201010,,,A*45
$GPVTG,84.67,T,,M,0.92,N,1.7,K,A*3D
$GPGGA,223348.000,3748.7898,N,12217.8754,W,1,08,1.1,-8.4,M,-25.1,M,,0000*4F
$GPGSA,A,3,12,29,02,25,30,21,10,05,,,,,2.1,1.1,1.8*31
$GPGSV,3,1,10,25,71,261,27,30,57,294,33,12,55,167,21,05,51,114,21*73
$GPGSV,3,2,10,29,46,307,33,02,35,049,25,10,30,056,23,21,17,239,26*73
$GPGSV,3,3,10,31,13,306,18,04,01,054,*70
$GPRMC,223348.000,A,3748.7898,N,12217.8754,W,0.40,88.31,201010,,,A*4B
$GPVTG,88.31,T,,M,0.40,N,0.7,K,A*3C
$GPGGA,223349.000,3748.7896,N,12217.8753,W,1,08,1.1,-7.7,M,-25.1,M,,0000*4B
$GPGSA,A,3,12,29,02,25,30,21,10,05,,,,,2.1,1.1,1.8*31
$GPRMC,223349.000,A,3748.7896,N,12217.8753,W,0.83,103.11,201010,,,A*7C
$GPVTG,103.11,T,,M,0.83,N,1.5,K,A*00
$GPGGA,223350.000,3748.7895,N,12217.8750,W,1,08,1.1,-6.8,M,-25.1,M,,0000*4D
$GPGSA,A,3,12,29,02,25,30,21,10,05,,,,,2.1,1.1,1.8*31
$GPRMC,223350.000,A,3748.7895,N,12217.8750,W,0.94,111.72,201010,,,A*74
$GPVTG,111.72,T,,M,0.94,N,1.7,K,A*02
$GPGGA,223351.000,3748.7895,N,12217.8746,W,1,08,1.1,-6.6,M,-25.1,M,,0000*45
$GPGSA,A,3,12,29,02,25,30,21,10,05,,,,,2.1,1.1,1.8*31
$GPRMC,223351.000,A,3748.7895,N,12217.8746,W,1.37,129.60,201010,,,A*72
$GPVTG,129.60,T,,M,1.37,N,2.5,K,A*03
$GPGGA,223352.000,3748.7895,N,12217.8740,W,1,08,1.1,-7.2,M,-25.1,M,,0000*45
$GPGSA,A,3,12,29,02,25,30,21,10,05,,,,,2.1,1.1,1.8*31
$GPRMC,223352.000,A,3748.7895,N,12217.8740,W,1.16,117.82,201010,,,A*75
$GPVTG,117.82,T,,M,1.16,N,2.2,K,A*06
$GPGGA,223353.000,3748.7895,N,12217.8735,W,1,08,1.1,-7.7,M,-25.1,M,,0000*43
$GPGSA,A,3,12,29,02,25,30,21,10,05,,,,,2.1,1.1,1.8*31
$GPGSV,3,1,10,25,71,261,26,30,57,294,29,12,55,167,22,05,51,114,21*7A
$GPGSV,3,2,10,29,46,307,32,02,35,049,27,10,30,056,22,21,17,239,26*71
$GPGSV,3,3,10,31,13,306,22,04,01,054,*79
$GPRMC,223353.000,A,3748.7895,N,12217.8735,W,0.63,104.04,201010,,,A*79
$GPVTG,104.04,T,,M,0.63,N,1.2,K,A*0A
$GPGGA,223354.000,3748.7897,N,12217.8731,W,1,08,1.1,-8.6,M,-25.1,M,,0000*4C
$GPGSA,A,3,12,29,02,25,30,21,10,05,,,,,2.1,1.1,1.8*31
$GPRMC,223354.000,A,3748.7897,N,12217.8731,W,0.57,320.72,201010,,,A*7A
$GPVTG,320.72,T,,M,0.57,N,1.1,K,A*0B
$GPGGA,223355.000,3748.7898,N,12217.8729,W,1,08,1.1,-8.4,M,-25.1,M,,0000*49
$GPGSA,A,3,12,29,02,25,30,21,10,05,,,,,2.1,1.1,1.8*31
$GPRMC,223355.000,A,3748.7898,N,12217.8729,W,0.10,290.58,201010,,,A*7C
$GPVTG,290.58,T,,M,0.10,N,0.2,K,A*08
$GPGGA,223356.000,3748.7896,N,12217.8729,W,1,08,1.1,-8.0,M,-25.1,M,,0000*40
$GPGSA,A,3,12,29,02,25,30,21,10,05,,,,,2.1,1.1,1.8*31
$GPRMC,223356.000,A,3748.7896,N,12217.8729,W,0.72,126.75,201010,,,A*74
$GPVTG,126.75,T,,M,0.72,N,1.3,K,A*0D
$GPGGA,223357.000,3748.7893,N,12217.8727,W,1,08,1.1,-7.1,M,-25.1,M,,0000*44
$GPGSA,A,3,12,29,02,25,30,21,10,05,,,,,2.1,1.1,1.8*31
$GPRMC,223357.000,A,3748.7893,N,12217.8727,W,0.69,120.20,201010,,,A*72
$GPVTG,120.20,T,,M,0.69,N,1.3,K,A*01
$GPGGA,223358.000,3748.7892,N,12217.8731,W,1,08,1.1,-6.4,M,-25.1,M,,0000*49
$GPGSA,A,3,12,29,02,25,30,21,10,05,,,,,2.1,1.1,1.8*31
$GPGSV,3,1,10,25,71,261,28,30,57,294,31,12,55,167,22,05,51,114,22*7E
$GPGSV,3,2,10,29,46,307,32,02,35,049,24,10,30,056,30,21,17,239,30*76
$GPGSV,3,3,10,31,13,306,20,04,01,054,*7B
$GPVTG,146.43,T,,M,0.11,N,0.2,K,A*0B
$GPGGA,223359.000,3748.7893,N,12217.8728,W,1,08,1.1,-6.5,M,-25.1,M,,0000*40
$GPGSA,A,3,12,29,02,25,30,21,10,05,,,,,2.1,1.1,1.8*31
$GPRMC,223359.000,A,3748.7893,N,12217.8728,W,0.21,46.98,201010,,,A*4D
$GPVTG,46.98,T,,M,0.21,N,0.4,K,A*39
$GPGGA,223400.000,3748.7893,N,12217.8733,W,1,08,1.1,-5.3,M,-25.1,M,,0000*44
$GPGSA,A,3,12,29,02,25,30,21,10,05,,,,,2.1,1.1,1.8*31
$GPRMC,223400.000,A,3748.7893,N,12217.8733,W,0.16,146.95,201010,,,A*74
$GPVTG,146.95,T,,M,0.16,N,0.3,K,A*06
$GPGGA,223401.000,3748.7904,N,12217.8743,W,1,08,1.1,-5.3,M,-25.1,M,,0000*4D
$GPGSA,A,3,12,29,02,25,30,21,10,05,,,,,2.1,1.1,1.8*31
$GPRMC,223401.000,A,3748.7904,N,12217.8743,W,0.07,269.56,201010,,,A*7C
$GPVTG,269.56,T,,M,0.07,N,0.1,K,A*05
$GPGGA,223402.000,3748.7908,N,12217.8745,W,1,08,1.1,-5.4,M,-25.1,M,,0000*43
$GPGSA,A,3,12,29,02,25,30,21,10,05,,,,,2.1,1.1,1.8*31
$GPRMC,223402.000,A,3748.7908,N,12217.8745,W,0.20,162.42,201010,,,A*7D
$GPVTG,162.42,T,,M,0.20,N,0.4,K,A*08
$GPGGA,223403.000,3748.7908,N,12217.8744,W,1,08,1.1,-4.8,M,-25.1,M,,0000*4E
$GPGSA,A,3,12,29,02,25,30,21,10,05,,,,,2.1,1.1,1.8*31
$GPGSV,3,1,10,25,71,261,28,30,57,294,30,12,55,167,21,05,51,114,27*79
$GPGSV,3,2,10,29,46,307,29,02,35,049,29,10,30,056,28,21,17,239,26*7F
$GPGSV,3,3,10,31,13,306,17,04,01,054,*7F
$GPRMC,223403.000,A,3748.7908,N,12217.8744,W,0.26,12.80,201010,,,A*43
$GPVTG,12.80,T,,M,0.26,N,0.5,K,A*37
$GPGGA,223404.000,3748.7908,N,12217.8741,W,1,08,1.1,-4.7,M,-25.1,M,,0000*43
$GPGSA,A,3,12,29,02,25,30,21,10,05,,,,,2.1,1.1,1.8*31
$GPRMC,223404.000,A,3748.7908,N,12217.8741,W,0.12,189.65,201010,,,A*7E
$GPVTG,189.65,T,,M,0.12,N,0.2,K,A*0F
$GPGGA,223405.000,3748.7905,N,12217.8740,W,1,08,1.1,-4.6,M,-25.1,M,,0000*4F
$GPGSA,A,3,12,29,02,25,30,21,10,05,,,,,2.1,1.1,1.8*31
$GPRMC,223405.000,A,3748.7905,N,12217.8740,W,0.81,134.00,201010,,,A*7C
$GPVTG,134.00,T,,M,0.81,N,1.5,K,A*06
$GPGGA,223406.000,3748.7902,N,12217.8737,W,1,08,1.1,-4.7,M,-25.1,M,,0000*4A
$GPGSA,A,3,12,29,02,25,30,21,10,05,,,,,2.1,1.1,1.8*31
$GPRMC,223406.000,A,3748.7902,N,12217.8737,W,0.87,132.52,201010,,,A*7F
$GPVTG,132.52,T,,M,0.87,N,1.6,K,A*02
$GPGGA,223407.000,3748.7901,N,12217.8735,W,1,08,1.1,-4.5,M,-25.1,M,,0000*48
$GPGSA,A,3,12,29,02,25,30,21,10,05,,,,,2.1,1.1,1.8*31
$GPRMC,223407.000,A,3748.7901,N,12217.8735,W,0.34,116.42,201010,,,A*70
$GPVTG,116.42,T,,M,0.34,N,0.6,K,A*0C
$GPGGA,223408.000,3748.7900,N,12217.8734,W,1,08,1.1,-4.4,M,-25.1,M,,0000*46
$GPGSA,A,3,12,29,02,25,30,21,10,05,,,,,2.1,1.1,1.8*31
$GPGSV,3,1,10,25,71,261,28,30,57,294,31,12,55,167,21,05,51,114,21*7E
$GPGSV,3,2,10,29,46,307,32,02,35,049,29,10,30,056,22,21,17,239,42*7D
$GPGSV,3,3,10,31,13,306,28,04,01,054,*73
$GPRMC,223408.000,A,3748.7900,N,12217.8734,W,0.18,120.82,201010,,,A*78
$GPVTG,120.82,T,,M,0.18,N,0.3,K,A*0E
$GPGGA,223409.000,3748.7897,N,12217.8736,W,1,08,1.1,-3.2,M,-25.1,M,,0000*4B
$GPGSA,A,3,12,29,02,25,30,21,10,05,,,,,2.1,1.1,1.8*31
$GPRMC,223409.000,A,3748.7897,N,12217.8736,W,0.38,57.31,201010,,,A*4F
$GPVTG,57.31,T,,M,0.38,N,0.7,K,A*31
$GPGGA,223410.000,3748.7896,N,12217.8737,W,1,08,1.1,-2.6,M,-25.1,M,,0000*46
$GPGSA,A,3,12,29,02,25,30,21,10,05,,,,,2.1,1.1,1.8*31
$GPRMC,223410.000,A,3748.7896,N,12217.8737,W,0.43,42.95,201010,,,A*41
$GPVTG,42.95,T,,M,0.43,N,0.8,K,A*38
$GPGGA,223411.000,3748.7896,N,12217.8740,W,1,08,1.1,-3.0,M,-25.1,M,,0000*40
$GPGSA,A,3,12,29,02,25,30,21,10,05,,,,,2.1,1.1,1.8*31
$GPRMC,223411.000,A,3748.7896,N,12217.8740,W,0.17,143.56,201010,,,A*7E
$GPVTG,143.56,T,,M,0.17,N,0.3,K,A*0D
$GPGGA,223412.000,3748.7893,N,12217.8740,W,1,08,1.1,-2.8,M,-25.1,M,,0000*4F
$GPGSA,A,3,12,29,02,25,30,21,10,05,,,,,2.1,1.1,1.8*31
$GPRMC,223412.000,A,3748.7893,N,12217.8740,W,0.10,258.48,201010,,,A*79
$GPVTG,258.48,T,,M,0.10,N,0.2,K,A*0D
$GPGGA,223413.000,3748.7893,N,12217.8738,W,1,08,1.1,-2.5,M,-25.1,M,,0000*4C
$GPGSA,A,3,12,29,02,25,30,21,10,05,,,,,2.1,1.1,1.8*31
$GPGSV,3,1,10,25,71,261,28,30,57,294,30,12,55,167,20,05,51,114,21*7E
$GPGSV,3,2,10,29,46,307,32,02,35,049,23,10,30,056,22,21,17,239,28*7B
$GPGSV,3,3,10,31,13,306,24,04,01,054,*7F
$GPVTG,98.10,T,,M,0.76,N,1.4,K,A*39
$GPGGA,223414.000,3748.7897,N,12217.8732,W,1,08,1.1,-3.0,M,-25.1,M,,0000*41
$GPGSA,A,3,12,29,02,25,30,21,10,05,,,,,2.1,1.1,1.8*31
$GPRMC,223414.000,A,3748.7897,N,12217.8732,W,0.98,19.05,201010,,,A*40
$GPVTG,19.05,T,,M,0.98,N,1.8,K,A*38
$GPGGA,223415.000,3748.7900,N,12217.8728,W,1,08,1.1,-3.4,M,-25.1,M,,0000*40
$GPGSA,A,3,12,29,02,25,30,21,10,05,,,,,2.1,1.1,1.8*31
$GPRMC,223415.000,A,3748.7900,N,12217.8728,W,0.67,10.64,201010,,,A*4B
$GPVTG,10.64,T,,M,0.67,N,1.2,K,A*3C
$GPGGA,223416.000,3748.7901,N,12217.8729,W,1,08,1.1,-3.8,M,-25.1,M,,0000*4F
$GPGSA,A,3,12,29,02,25,30,21,10,05,,,,,2.1,1.1,1.8*31
$GPRMC,223416.000,A,3748.7901,N,12217.8729,W,0.38,47.28,201010,,,A*48
$GPVTG,47.28,T,,M,0.38,N,0.7,K,A*38
$GPGGA,223417.000,3748.7903,N,12217.8728,W,1,08,1.1,-4.0,M,-25.1,M,,0000*42
$GPGSA,A,3,12,29,02,25,30,21,10,05,,,,,2.1,1.1,1.8*31
$GPRMC,223417.000,A,3748.7903,N,12217.8728,W,0.38,356.77,201010,,,A*73
$GPVTG,356.77,T,,M,0.38,N,0.7,K,A*01
$GPGGA,223418.000,3748.7903,N,12217.8728,W,1,08,1.1,-2.6,M,-25.1,M,,0000*4D
$GPGSA,A,3,12,29,02,25,30,21,10,05,,,,,2.1,1.1,1.8*31
$GPGSV,3,1,10,25,71,261,24,30,57,294,31,12,55,167,20,05,51,114,21*73
$GPGSV,3,2,10,29,46,307,33,02,35,049,24,10,30,056,22,21,17,239,27*72
$GPGSV,3,3,10,31,13,306,33,04,01,054,*79
$GPRMC,223418.000,A,3748.7903,N,12217.8728,W,0.62,2.01,201010,,,A*70
$GPVTG,2.01,T,,M,0.62,N,1.1,K,A*0A
$GPGGA,223419.000,3748.7901,N,12217.8730,W,1,08,1.1,-2.0,M,-25.1,M,,0000*41
$GPGSA,A,3,12,29,02,25,30,21,10,05,,,,,2.1,1.1,1.8*31
$GPRMC,223419.000,A,3748.7901,N,12217.8730,W,0.39,26.94,201010,,,A*4E
$GPVTG,26.94,T,,M,0.39,N,0.7,K,A*39
$GPGGA,223420.000,3748.7896,N,12217.8725,W,1,08,1.1,-0.9,M,-25.1,M,,0000*4B
$GPGSA,A,3,12,29,02,25,30,21,10,05,,,,,2.1,1.1,1.8*31
$GPRMC,223420.000,A,3748.7896,N,12217.8725,W,0.13,35.29,201010,,,A*43
$GPVTG,35.29,T,,M,0.13,N,0.2,K,A*30
$GPGGA,223421.000,3748.7897,N,12217.8724,W,1,08,1.1,-1.4,M,-25.1,M,,0000*46
$GPGSA,A,3,12,29,02,25,30,21,10,05,,,,,2.1,1.1,1.8*31
$GPRMC,223421.000,A,3748.7897,N,12217.8724,W,0.10,225.54,201010,,,A*78
$GPVTG,225.54,T,,M,0.10,N,0.2,K,A*0A
$GPGGA,223422.000,3748.7895,N,12217.8728,W,1,08,1.1,-1.0,M,-25.1,M,,0000*4F
$GPGSA,A,3,12,29,02,25,30,21,10,05,,,,,2.1,1.1,1.8*31
$GPRMC,223422.000,A,3748.7895,N,12217.8728,W,0.29,19.13,201010,,,A*41
$GPVTG,19.13,T,,M,0.29,N,0.5,K,A*39
$GPGGA,223423.000,3748.7894,N,12217.8727,W,1,08,1.1,-0.9,M,-25.1,M,,0000*48
$GPGSA,A,3,12,29,02,25,30,21,10,05,,,,,2.1,1.1,1.8*31
$GPGSV,3,1,10,25,71,261,28,30,57,294,31,12,55,167,24,05,51,114,21*7B
$GPGSV,3,2,10,29,46,307,35,02,35,049,25,10,30,056,21,21,17,239,29*78
$GPGSV,3,3,10,31,13,306,28,04,01,054,*73
$GPRMC,223423.000,A,3748.7894,N,12217.8727,W,0.08,270.30,201010,,,A*71
$GPVTG,270.30,T,,M,0.08,N,0.2,K,A*01
$GPGGA,223424.000,3748.7895,N,12217.8727,W,1,08,1.1,-1.4,M,-25.1,M,,0000*42
$GPGSA,A,3,12,29,02,25,30,21,10,05,,,,,2.1,1.1,1.8*31
$GPRMC,223424.000,A,3748.7895,N,12217.8727,W,0.33,14.19,201010,,,A*44
$GPVTG,14.19,T,,M,0.33,N,0.6,K,A*36
$GPGGA,223425.000,3748.7897,N,12217.8725,W,1,08,1.1,-1.8,M,-25.1,M,,0000*4F
$GPGSA,A,3,12,29,02,25,30,21,10,05,,,,,2.1,1.1,1.8*31
$GPRMC,223425.000,A,3748.7897,N,12217.8725,W,0.43,42.75,201010,,,A*4B
$GPVTG,42.75,T,,M,0.43,N,0.8,K,A*36
$GPGGA,223426.000,3748.7896,N,12217.8725,W,1,08,1.1,-1.8,M,-25.1,M,,0000*4D
$GPGSA,A,3,12,29,02,25,30,21,10,05,,,,,2.1,1.1,1.8*31
$GPRMC,223426.000,A,3748.7896,N,12217.8725,W,0.25,81.40,201010,,,A*40
$GPVTG,81.40,T,,M,0.25,N,0.5,K,A*32
$GPGGA,223427.000,3748.7899,N,12217.8727,W,1,08,1.1,-2.1,M,-25.1,M,,0000*4B
$GPGSA,A,3,12,29,02,25,30,21,10,05,,,,,2.1,1.1,1.8*31
$GPRMC,223427.000,A,3748.7899,N,12217.8727,W,0.15,354.00,201010,,,A*70
$GPVTG,354.00,T,,M,0.15,N,0.3,K,A*08
$GPGGA,223428.000,3748.7900,N,12217.8725,W,1,08,1.1,-3.1,M,-25.1,M,,0000*46
$GPGSA,A,3,12,29,02,25,30,21,10,05,,,,,2.1,1.1,1.8*31
$GPGSV,3,1,10,25,71,261,29,30,57,294,30,12,55,167,25,05,51,114,22*79
$GPGSV,3,2,10,29,46,307,25,02,35,049,30,10,30,056,32,21,17,239,29*7F
$GPGSV,3,3,10,31,13,306,29,04,01,054,*72
$GPRMC,223428.000,A,3748.7900,N,12217.8725,W,0.48,0.94,201010,,,A*7B
$GPGGA,223429.000,3748.7906,N,12217.8723,W,1,08,1.1,-4.6,M,-25.1,M,,0000*47
$GPGSA,A,3,12,29,02,25,30,21,10,05,,,,,2.1,1.1,1.8*31
$GPRMC,223429.000,A,3748.7906,N,12217.8723,W,1.48,342.48,201010,,,A*7F
$GPVTG,342.48,T,,M,1.48,N,2.7,K,A*0C
$GPGGA,223430.000,3748.7909,N,12217.8723,W,1,08,1.1,-5.4,M,-25.1,M,,0000*43
$GPGSA,A,3,12,29,02,25,30,21,10,05,,,,,2.1,1.1,1.8*31
$GPRMC,223430.000,A,3748.7909,N,12217.8723,W,0.33,300.50,201010,,,A*7A
$GPVTG,300.50,T,,M,0.33,N,0.6,K,A*0D
$GPGGA,223431.000,3748.7906,N,12217.8723,W,1,08,1.1,-5.8,M,-25.1,M,,0000*41
$GPGSA,A,3,12,29,02,25,30,21,10,05,,,,,2.1,1.1,1.8*31
$GPRMC,223431.000,A,3748.7906,N,12217.8723,W,0.81,204.69,201010,,,A*72
$GPVTG,204.69,T,,M,0.81,N,1.5,K,A*09
$GPGGA,223432.000,3748.7921,N,12217.8738,W,1,08,1.1,-7.1,M,-25.1,M,,0000*46
$GPGSA,A,3,12,29,02,25,30,21,10,05,,,,,2.1,1.1,1.8*31
$GPRMC,223432.000,A,3748.7921,N,12217.8738,W,0.52,219.45,201010,,,A*72
$GPVTG,219.45,T,,M,0.52,N,1.0,K,A*00
$GPGGA,223433.000,3748.7925,N,12217.8744,W,1,08,1.1,-7.5,M,-25.1,M,,0000*4C
$GPGSA,A,3,12,29,02,25,30,21,10,05,,,,,2.1,1.1,1.8*31
$GPGSV,3,1,10,25,71,261,31,30,57,294,33,12,55,167,24,05,51,114,27*77
$GPGSV,3,2,10,29,46,307,36,02,35,049,21,10,30,056,22,21,17,239,39*7D
$GPGSV,3,3,10,31,13,306,25,04,01,054,*7E
$GPRMC,223433.000,A,3748.7925,N,12217.8744,W,0.15,129.14,201010,,,A*7B
$GPVTG,129.14,T,,M,0.15,N,0.3,K,A*05
$GPGGA,223434.000,3748.7923,N,12217.8743,W,1,08,1.1,-7.5,M,-25.1,M,,0000*4A
$GPGSA,A,3,12,29,02,25,30,21,10,05,,,,,2.1,1.1,1.8*31
$GPRMC,223434.000,A,3748.7923,N,12217.8743,W,0.31,85.82,201010,,,A*43
$GPVTG,85.82,T,,M,0.31,N,0.6,K,A*3E
$GPGGA,223435.000,3748.7921,N,12217.8743,W,1,08,1.1,-7.2,M,-25.1,M,,0000*4E
$GPGSA,A,3,12,29,02,25,30,21,10,05,,,,,2.1,1.1,1.8*31
$GPRMC,223435.000,A,3748.7921,N,12217.8743,W,0.18,347.45,201010,,,A*7D
$GPVTG,347.45,T,,M,0.18,N,0.3,K,A*06
$GPGGA,223436.000,3748.7920,N,12217.8746,W,1,08,1.1,-6.3,M,-25.1,M,,0000*49
$GPGSA,A,3,12,29,02,25,30,21,10,05,,,,,2.1,1.1,1.8*31
$GPRMC,223436.000,A,3748.7920,N,12217.8746,W,0.67,27.79,201010,,,A*48
$GPVTG,27.79,T,,M,0.67,N,1.2,K,A*34
$GPGGA,223437.000,3748.7919,N,12217.8744,W,1,08,1.1,-6.2,M,-25.1,M,,0000*41
$GPGSA,A,3,12,29,02,25,30,21,10,05,,,,,2.1,1.1,1.8*31
$GPRMC,223437.000,A,3748.7919,N,12217.8744,W,0.20,28.63,201010,,,A*46
$GPVTG,28.63,T,,M,0.20,N,0.4,K,A*34
$GPGGA,223438.000,3748.7918,N,12217.8744,W,1,08,1.1,-6.4,M,-25.1,M,,0000*49
$GPGSA,A,3,12,29,02,25,30,21,10,05,,,,,2.1,1.1,1.8*31
$GPGSV,3,1,10,25,71,261,26,30,57,294,29,12,55,167,22,05,51,114,22*79
$GPGSV,3,2,10,29,46,307,33,02,35,049,27,10,30,056,22,21,17,239,34*73
$GPGSV,3,3,10,31,13,306,23,04,01,054,*78
$GPRMC,223438.000,A,3748.7918,N,12217.8744,W,0.56,114.45,201010,,,A*73
$GPVTG,114.45,T,,M,0.56,N,1.0,K,A*0A
$GPGGA,223439.000,3748.7918,N,12217.8745,W,1,07,1.2,-6.4,M,-25.1,M,,0000*45
$GPGSA,A,3,12,29,02,25,30,21,05,,,,,,2.3,1.2,2.0*3A
$GPRMC,223439.000,A,3748.7918,N,12217.8745,W,0.48,304.69,201010,,,A*71
$GPVTG,304.69,T,,M,0.48,N,0.9,K,A*00
$GPGGA,223440.000,3748.7913,N,12217.8751,W,1,08,1.1,-5.0,M,-25.1,M,,0000*4E
$GPGSA,A,3,12,29,02,25,30,21,10,05,,,,,2.1,1.1,1.8*31
$GPRMC,223440.000,A,3748.7913,N,12217.8751,W,0.31,199.90,201010,,,A*7F
$GPVTG,199.90,T,,M,0.31,N,0.6,K,A*01
$GPGGA,223441.000,3748.7910,N,12217.8754,W,1,08,1.1,-4.1,M,-25.1,M,,0000*49
$GPGSA,A,3,12,29,02,25,30,21,10,05,,,,,2.1,1.1,1.8*31
$GPRMC,223441.000,A,3748.7910,N,12217.8754,W,0.13,154.18,201010,,,A*79
$GPVTG,154.18,T,,M,0.13,N,0.2,K,A*04
$GPGGA,223442.000,3748.7907,N,12217.8760,W,1,08,1.1,-2.8,M,-25.1,M,,0000*44
$GPGSA,A,3,12,29,02,25,30,21,10,05,,,,,2.1,1.1,1.8*31
$GPRMC,223442.000,A,3748.7907,N,12217.8760,W,0.38,343.69,201010,,,A*70
$GPVTG,343.69,T,,M,0.38,N,0.7,K,A*0A
$GPGGA,223443.000,3748.7906,N,12217.8765,W,1,08,1.1,-2.3,M,-25.1,M,,0000*4A
$GPGSA,A,3,12,29,02,25,30,21,10,05,,,,,2.1,1.1,1.8*31
$GPGSV,3,1,10,25,71,261,27,30,57,294,33,12,55,167,23,05,51,114,23*73
$GPGSV,3,2,10,29,46,307,36,02,35,049,24,10,30,056,18,21,17,239,33*7B
$GPGSV,3,3,10,31,13,306,28,04,01,054,*73
$GPVTG,257.99,T,,M,0.85,N,1.6,K,A*07
$GPGGA,223444.000,3748.7906,N,12217.8769,W,1,07,1.2,-2.2,M,-25.1,M,,0000*4C
$GPGSA,A,3,12,29,25,30,21,10,05,,,,,,2.2,1.2,1.9*32
$GPRMC,223444.000,A,3748.7906,N,12217.8769,W,0.28,292.93,201010,,,A*77
$GPVTG,292.93,T,,M,0.28,N,0.5,K,A*01
$GPGGA,223445.000,3748.7908,N,12217.8767,W,1,08,1.1,-3.3,M,-25.1,M,,0000*41
$GPGSA,A,3,12,29,02,25,30,21,10,05,,,,,2.1,1.1,1.8*31
$GPRMC,223445.000,A,3748.7908,N,12217.8767,W,0.25,72.66,201010,,,A*4D
$GPVTG,72.66,T,,M,0.25,N,0.5,K,A*3A
$GPGGA,223446.000,3748.7908,N,12217.8765,W,1,08,1.1,-4.1,M,-25.1,M,,0000*45
$GPGSA,A,3,12,29,02,25,30,21,10,05,,,,,2.1,1.1,1.8*31
$GPRMC,223446.000,A,3748.7908,N,12217.8765,W,0.38,148.81,201010,,,A*71
$GPVTG,148.81,T,,M,0.38,N,0.7,K,A*05
$GPGGA,223447.000,3748.7902,N,12217.8763,W,1,08,1.1,-3.7,M,-25.1,M,,0000*49
$GPGSA,A,3,12,29,02,25,30,21,10,05,,,,,2.1,1.1,1.8*31
$GPRMC,223447.000,A,3748.7902,N,12217.8763,W,0.65,99.64,201010,,,A*42
$GPVTG,99.64,T,,M,0.65,N,1.2,K,A*3F
$GPGGA,223448.000,3748.7900,N,12217.8763,W,1,08,1.1,-4.2,M,-25.1,M,,0000*46
$GPGSA,A,3,12,29,02,25,30,21,10,05,,,,,2.1,1.1,1.8*31
$GPGSV,3,1,10,25,71,261,28,30,57,294,34,12,55,167,23,05,51,114,22*7A
$GPGSV,3,2,10,29,46,307,36,02,35,049,21,10,30,056,19,21,17,239,31*7D
$GPGSV,3,3,10,31,13,306,28,04,01,054,*73
$GPRMC,223448.000,A,3748.7900,N,12217.8763,W,0.58,57.19,201010,,,A*49
$GPVTG,57.19,T,,M,0.58,N,1.1,K,A*3A
$GPGGA,223449.000,3748.7901,N,12217.8764,W,1,08,1.1,-4.4,M,-25.1,M,,0000*47
$GPGSA,A,3,12,29,02,25,30,21,10,05,,,,,2.1,1.1,1.8*31
$GPRMC,223449.000,A,3748.7901,N,12217.8764,W,0.21,335.57,201010,,,A*7D
$GPVTG,335.57,T,,M,0.21,N,0.4,K,A*0D
$GPGGA,223450.000,3748.7901,N,12217.8764,W,1,08,1.1,-5.0,M,-25.1,M,,0000*4A
$GPGSA,A,3,12,29,02,25,30,21,10,05,,,,,2.1,1.1,1.8*31
$GPRMC,223450.000,A,3748.7901,N,12217.8764,W,0.26,204.86,201010,,,A*7D
$GPVTG,204.86,T,,M,0.26,N,0.5,K,A*04
$GPGGA,223451.000,3748.7900,N,12217.8762,W,1,08,1.1,-5.4,M,-25.1,M,,0000*48
$GPGSA,A,3,12,29,02,25,30,21,10,05,,,,,2.1,1.1,1.8*31
$GPRMC,223451.000,A,3748.7900,N,12217.8762,W,0.18,181.09,201010,,,A*7F
$GPVTG,181.09,T,,M,0.18,N,0.3,K,A*06
$GPGGA,223452.000,3748.7899,N,12217.8762,W,1,08,1.1,-6.0,M,-25.1,M,,0000*4D
$GPGSA,A,3,12,29,02,25,30,21,10,05,,,,,2.1,1.1,1.8*31
$GPRMC,223452.000,A,3748.7899,N,12217.8762,W,0.10,146.98,201010,,,A*76
$GPVTG,146.98,T,,M,0.10,N,0.2,K,A*0C
$GPGGA,223453.000,3748.7897,N,12217.8762,W,1,08,1.1,-6.2,M,-25.1,M,,0000*40
$GPGSA,A,3,12,29,02,25,30,21,10,05,,,,,2.1,1.1,1.8*31
$GPGSV,3,1,10,25,71,261,29,30,57,294,34,12,55,167,23,05,51,114,22*7B
$GPGSV,3,2,10,29,46,307,30,02,35,049,23,10,30,056,20,21,17,239,39*7B
$GPGSV,3,3,10,31,13,306,21,04,01,054,*7A
$GPRMC,223453.000,A,3748.7897,N,12217.8762,W,1.50,148.54,201010,,,A*72
$GPVTG,148.54,T,,M,1.50,N,2.8,K,A*0F
$GPGGA,223454.000,3748.7895,N,12217.8757,W,1,08,1.1,-7.1,M,-25.1,M,,0000*41
$GPGSA,A,3,12,29,02,25,30,21,10,05,,,,,2.1,1.1,1.8*31
$GPRMC,223454.000,A,3748.7895,N,12217.8757,W,1.25,150.86,201010,,,A*75
$GPVTG,150.86,T,,M,1.25,N,2.3,K,A*00
$GPGGA,223455.000,3748.7895,N,12217.8760,W,1,08,1.1,-7.4,M,-25.1,M,,0000*41
$GPGSA,A,3,12,29,02,25,30,21,10,05,,,,,2.1,1.1,1.8*31
$GPRMC,223455.000,A,3748.7895,N,12217.8760,W,0.68,194.96,201010,,,A*71
$GPVTG,194.96,T,,M,0.68,N,1.3,K,A*02
$GPGGA,223456.000,3748.7897,N,12217.8763,W,1,08,1.1,-7.7,M,-25.1,M,,0000*40
$GPGSA,A,3,12,29,02,25,30,21,10,05,,,,,2.1,1.1,1.8*31
$GPRMC,223456.000,A,3748.7897,N,12217.8763,W,0.96,180.06,201010,,,A*7E
$GPVTG,180.06,T,,M,0.96,N,1.8,K,A*04
$GPGGA,223457.000,3748.7901,N,12217.8770,W,1,08,1.1,-8.4,M,-25.1,M,,0000*41
$GPGSA,A,3,12,29,02,25,30,21,10,05,,,,,2.1,1.1,1.8*31
$GPRMC,223457.000,A,3748.7901,N,12217.8770,W,0.43,196.35,201010,,,A*7C
$GPVTG,196.35,T,,M,0.43,N,0.8,K,A*0A
$GPGGA,223458.000,3748.7898,N,12217.8771,W,1,08,1.1,-8.1,M,-25.1,M,,0000*4B
$GPGSA,A,3,12,29,02,25,30,21,10,05,,,,,2.1,1.1,1.8*31
$GPGSV,3,1,10,25,71,261,31,30,57,294,35,12,55,167,24,05,51,114,23*75
$GPGSV,3,2,10,29,46,307,32,02,35,049,22,10,30,056,24,21,17,239,38*7D
$GPGSV,3,3,10,31,13,306,20,04,01,054,*7B
$GPVTG,197.63,T,,M,0.57,N,1.1,K,A*05
$GPGGA,223459.000,3748.7899,N,12217.8777,W,1,08,1.1,-8.1,M,-25.1,M,,0000*4D
$GPGSA,A,3,12,29,02,25,30,21,10,05,,,,,2.1,1.1,1.8*31
$GPRMC,223459.000,A,3748.7899,N,12217.8777,W,0.60,218.22,201010,,,A*77
$GPVTG,218.22,T,,M,0.60,N,1.1,K,A*00
$GPGGA,223500.000,3748.7898,N,12217.8782,W,1,08,1.1,-7.2,M,-25.1,M,,0000*47
$GPGSA,A,3,12,29,02,25,30,21,10,05,,,,,2.1,1.1,1.8*31
$GPRMC,223500.000,A,3748.7898,N,12217.8782,W,0.53,202.09,201010,,,A*73
$GPVTG,202.09,T,,M,0.53,N,1.0,K,A*03
$GPGGA,223501.000,3748.7894,N,12217.8783,W,1,08,1.1,-6.4,M,-25.1,M,,0000*4C
$GPGSA,A,3,12,29,02,25,30,21,10,05,,,,,2.1,1.1,1.8*31
$GPRMC,223501.000,A,3748.7894,N,12217.8783,W,0.92,180.41,201010,,,A*77
$GPVTG,180.41,T,,M,0.92,N,1.7,K,A*0C
$GPGGA,223502.000,3748.7888,N,12217.8787,W,1,08,1.1,-5.1,M,-25.1,M,,0000*40
$GPGSA,A,3,12,29,02,25,30,21,10,05,,,,,2.1,1.1,1.8*31
$GPRMC,223502.000,A,3748.7888,N,12217.8787,W,0.99,186.71,201010,,,A*73
$GPVTG,186.71,T,,M,0.99,N,1.8,K,A*0D
$GPGGA,223503.000,3748.7884,N,12217.8791,W,1,08,1.1,-3.9,M,-25.1,M,,0000*44
$GPGSA,A,3,12,29,02,25,30,21,10,05,,,,,2.1,1.1,1.8*31
$GPGSV,3,1,10,25,71,261,36,30,57,294,35,12,55,167,26,05,51,114,22*71
$GPGSV,3,2,10,29,46,307,33,02,35,049,27,10,30,056,19,21,17,239,38*77
$GPGSV,3,3,10,31,13,306,,04,01,054,*79
$GPRMC,223503.000,A,3748.7884,N,12217.8791,W,0.72,155.19,201010,,,A*7C
$GPVTG,155.19,T,,M,0.72,N,1.3,K,A*03
$GPGGA,223504.000,3748.7881,N,12217.8792,W,1,08,1.1,-2.8,M,-25.1,M,,0000*45
$GPGSA,A,3,12,29,02,25,30,21,10,05,,,,,2.1,1.1,1.8*31
$GPRMC,223504.000,A,3748.7881,N,12217.8792,W,0.62,114.34,201010,,,A*76
$GPVTG,114.34,T,,M,0.62,N,1.2,K,A*09
$GPGGA,223505.000,3748.7877,N,12217.8786,W,1,08,1.1,-2.0,M,-25.1,M,,0000*40
$GPGSA,A,3,12,29,02,25,30,21,10,05,,,,,2.1,1.1,1.8*31
$GPRMC,223505.000,A,3748.7877,N,12217.8786,W,0.74,122.04,201010,,,A*7A
$GPVTG,122.04,T,,M,0.74,N,1.4,K,A*0E
$GPGGA,223506.000,3748.7879,N,12217.8785,W,1,08,1.1,-2.4,M,-25.1,M,,0000*4A
$GPGSA,A,3,12,29,02,25,30,21,10,05,,,,,2.1,1.1,1.8*31
$GPRMC,223506.000,A,3748.7879,N,12217.8785,W,0.71,193.15,201010,,,A*7B
$GPVTG,193.15,T,,M,0.71,N,1.3,K,A*06
$GPGGA,223507.000,3748.7876,N,12217.8785,W,1,08,1.1,-2.0,M,-25.1,M,,0000*40
$GPGSA,A,3,12,29,02,25,30,21,10,05,,,,,2.1,1.1,1.8*31
$GPRMC,223507.000,A,3748.7876,N,12217.8785,W,0.57,170.13,201010,,,A*7A
$GPVTG,170.13,T,,M,0.57,N,1.1,K,A*0B
$GPGGA,223508.000,3748.7872,N,12217.8783,W,1,08,1.1,-2.3,M,-25.1,M,,0000*4E
$GPGSA,A,3,12,29,02,25,30,21,10,05,,,,,2.1,1.1,1.8*31
$GPGSV,3,1,10,25,71,261,26,30,57,294,32,12,55,167,23,05,51,114,24*74
$GPGSV,3,2,10,29,46,307,31,02,35,049,21,10,30,056,20,21,17,239,36*77
$GPGSV,3,3,10,31,13,306,,04,01,054,*79
$GPRMC,223508.000,A,3748.7872,N,12217.8783,W,1.04,197.56,201010,,,A*78
$GPVTG,197.56,T,,M,1.04,N,1.9,K,A*0C
