$ADVER,3080,2.3
$GPRMC,225418.000,A,3748.8030,N,12217.8620,W,0.08,72.41,170412,,,A*45
$GPGGA,225419.000,3748.8055,N,12217.8631,W,1,04,8.3,2.5,M,-25.1,M,,0000*6F
$GPGSA,A,3,16,10,08,07,,,,,,,,,9.4,8.3,4.5*3C
$GPRMC,225419.000,A,3748.8055,N,12217.8631,W,0.40,350.44,170412,,,A*7D
$GPVTG,350.44,T,,M,0.40,N,0.7,K,A*08
$GPGGA,225420.000,3748.8068,N,12217.8635,W,1,04,8.3,3.9,M,-25.1,M,,0000*62
$GPGSA,A,3,16,10,08,07,,,,,,,,,9.4,8.3,4.5*3C
$GPRMC,225420.000,A,3748.8068,N,12217.8635,W,0.62,347.33,170412,,,A*7B
$GPVTG,347.33,T,,M,0.62,N,1.2,K,A*0A
$GPGGA,225421.000,3748.8072,N,12217.8638,W,1,04,8.3,3.5,M,-25.1,M,,0000*69
$GPGSA,A,3,16,10,08,07,,,,,,,,,9.4,8.3,4.5*3C
$GPRMC,225421.000,A,3748.8072,N,12217.8638,W,0.61,341.62,170412,,,A*7D
$GPVTG,341.62,T,,M,0.61,N,1.1,K,A*08
$GPGGA,225422.000,3748.8074,N,12217.8637,W,1,04,8.3,3.9,M,-25.1,M,,0000*6F
$GPGSA,A,3,16,10,08,07,,,,,,,,,9.4,8.3,4.5*3C
$GPGSV,3,1,12,07,58,292,34,10,43,287,41,16,30,045,41,08,26,262,39*72
$GPGSV,3,2,12,13,74,009,39,23,59,104,38,03,25,091,40,06,19,076,40*79
$GPGSV,3,3,12,20,16,176,,19,12,126,30,30,05,040,31,05,02,326,*72
$GPRMC,225422.000,A,3748.8074,N,12217.8637,W,0.60,344.65,170412,,,A*74
$GPVTG,344.65,T,,M,0.60,N,1.1,K,A*0B
$GPGGA,225423.000,3748.8073,N,12217.8635,W,1,04,8.3,3.2,M,-25.1,M,,0000*60
$GPGSA,A,3,16,10,08,07,,,,,,,,,9.5,8.3,4.5*3D
$GPRMC,225423.000,A,3748.8073,N,12217.8635,W,0.67,343.90,170412,,,A*7A
$GPVTG,343.90,T,,M,0.67,N,1.2,K,A*02
$GPGGA,225424.000,3748.8063,N,12217.8628,W,1,04,8.3,4.5,M,-25.1,M,,0000*6A
$GPGSA,A,3,16,10,08,07,,,,,,,,,9.5,8.3,4.5*3D
$GPRMC,225424.000,A,3748.8063,N,12217.8628,W,0.59,343.72,170412,,,A*71
$GPVTG,343.72,T,,M,0.59,N,1.1,K,A*00
$GPGGA,225425.000,3748.8052,N,12217.8621,W,1,04,8.3,5.6,M,-25.1,M,,0000*62
$GPGSA,A,3,16,10,08,07,,,,,,,,,9.5,8.3,4.5*3D
$GPRMC,225425.000,A,3748.8052,N,12217.8621,W,0.41,353.63,170412,,,A*73
$GPVTG,353.63,T,,M,0.41,N,0.8,K,A*00
$GPGGA,225426.000,3748.8049,N,12217.8618,W,1,04,8.4,6.7,M,-25.1,M,,0000*64
$GPGSA,A,3,16,10,08,07,,,,,,,,,9.5,8.4,4.5*3A
$GPRMC,225426.000,A,3748.8049,N,12217.8618,W,0.46,1.84,170412,,,A*7A
$GPVTG,1.84,T,,M,0.46,N,0.9,K,A*0B
$GPGGA,225427.000,3748.8047,N,12217.8616,W,1,04,8.4,8.0,M,-25.1,M,,0000*6C
$GPGSA,A,3,16,10,08,07,,,,,,,,,9.5,8.4,4.5*3A
$GPGSV,3,1,12,07,58,292,29,10,43,287,28,16,30,045,40,08,26,262,25*7D
$GPGSV,3,2,12,13,74,009,35,23,59,104,34,03,25,091,34,06,19,076,40*7A
$GPGSV,3,3,12,20,16,176,23,19,12,126,30,30,05,040,32,05,02,326,*70
$GPRMC,225427.000,A,3748.8047,N,12217.8616,W,0.43,356.57,170412,,,A*71
$GPVTG,356.57,T,,M,0.43,N,0.8,K,A*00
$GPGGA,225428.000,3748.8047,N,12217.8614,W,1,04,8.4,9.0,M,-25.1,M,,0000*60
$GPGSA,A,3,16,10,08,07,,,,,,,,,9.5,8.4,4.5*3A
$GPRMC,225428.000,A,3748.8047,N,12217.8614,W,0.54,348.61,170412,,,A*70
$GPVTG,348.61,T,,M,0.54,N,1.0,K,A*05
$GPGGA,225429.000,3748.8036,N,12217.8610,W,1,04,8.4,8.1,M,-25.1,M,,0000*63
$GPGSA,A,3,16,10,08,07,,,,,,,,,9.5,8.4,4.5*3A
$GPRMC,225429.000,A,3748.8036,N,12217.8610,W,0.50,13.51,170412,,,A*49
$GPVTG,13.51,T,,M,0.50,N,0.9,K,A*37
$GPGGA,225430.000,3748.8031,N,12217.8606,W,1,04,8.4,7.6,M,-25.1,M,,0000*63
$GPGSA,A,3,16,10,08,07,,,,,,,,,9.5,8.4,4.5*3A
$GPRMC,225430.000,A,3748.8031,N,12217.8606,W,0.27,104.58,170412,,,A*7F
$GPVTG,104.58,T,,M,0.27,N,0.5,K,A*05
$GPGGA,225431.000,3748.8040,N,12217.8607,W,1,04,8.4,8.8,M,-25.1,M,,0000*64
$GPGSA,A,3,16,10,08,07,,,,,,,,,9.5,8.4,4.5*3A
$GPRMC,225431.000,A,3748.8040,N,12217.8607,W,0.68,354.36,170412,,,A*7D
$GPVTG,354.36,T,,M,0.68,N,1.3,K,A*06
$GPGGA,225432.000,3748.8052,N,12217.8613,W,1,04,8.4,5.9,M,-25.1,M,,0000*6D
$GPGSA,A,3,16,10,08,07,,,,,,,,,9.5,8.4,4.5*3A
$GPGSV,3,1,12,07,58,292,30,10,43,287,31,16,30,045,41,08,26,262,32*7A
$GPGSV,3,2,12,13,74,009,30,23,59,104,36,03,25,091,39,06,19,076,38*7F
$GPGSV,3,3,12,20,16,176,25,19,12,126,33,30,05,040,32,05,02,326,*75
$GPVTG,315.90,T,,M,0.32,N,0.6,K,A*04
$GPGGA,225433.000,3748.8036,N,12217.8604,W,1,04,8.4,6.0,M,-25.1,M,,0000*62
$GPGSA,A,3,16,10,08,07,,,,,,,,,9.5,8.4,4.5*3A
$GPRMC,225433.000,A,3748.8036,N,12217.8604,W,0.52,146.33,170412,,,A*70
$GPVTG,146.33,T,,M,0.52,N,1.0,K,A*08
$GPGGA,225434.000,3748.8054,N,12217.8614,W,1,04,8.4,5.5,M,-25.1,M,,0000*66
$GPGSA,A,3,16,10,08,07,,,,,,,,,9.5,8.4,4.5*3A
$GPRMC,225434.000,A,3748.8054,N,12217.8614,W,0.66,331.32,170412,,,A*76
$GPVTG,331.32,T,,M,0.66,N,1.2,K,A*0E
$GPGGA,225435.000,3748.8054,N,12217.8619,W,1,03,6.1,5.4,M,-25.1,M,,0000*67
$GPGSA,A,2,16,10,08,,,,,,,,,,6.2,6.1,1.0*3F
$GPRMC,225435.000,A,3748.8054,N,12217.8619,W,0.57,296.64,170412,,,A*77
$GPVTG,296.64,T,,M,0.57,N,1.1,K,N*0F
$GPGGA,225436.000,3748.8060,N,12217.8627,W,1,04,8.5,4.9,M,-25.1,M,,0000*6F
$GPGSA,A,3,16,10,08,07,,,,,,,,,9.6,8.5,4.5*38
$GPRMC,225436.000,A,3748.8060,N,12217.8627,W,1.19,322.07,170412,,,A*7E
$GPVTG,322.07,T,,M,1.19,N,2.2,K,A*00
$GPGGA,225437.000,3748.8065,N,12217.8632,W,1,04,8.5,3.7,M,-25.1,M,,0000*66
$GPGSA,A,3,16,10,08,07,,,,,,,,,9.6,8.5,4.5*38
$GPGSV,3,1,12,07,58,292,31,10,43,287,39,16,30,045,18,08,26,262,44*7E
$GPGSV,3,2,12,13,74,009,24,23,59,104,24,03,25,091,28,06,19,076,29*79
$GPGSV,3,3,12,20,16,176,31,19,12,126,16,30,05,040,30,05,02,326,*75
$GPRMC,225437.000,A,3748.8065,N,12217.8632,W,0.70,349.48,170412,,,A*76
$GPVTG,349.48,T,,M,0.70,N,1.3,K,A*0A
$GPGGA,225438.000,3748.8058,N,12217.8629,W,1,04,8.5,4.7,M,-25.1,M,,0000*6A
$GPGSA,A,3,16,10,08,07,,,,,,,,,9.6,8.5,4.5*38
$GPRMC,225438.000,A,3748.8058,N,12217.8629,W,0.77,31.68,170412,,,A*44
$GPVTG,31.68,T,,M,0.77,N,1.4,K,A*34
$GPGGA,225439.000,3748.8058,N,12217.8631,W,1,04,8.5,3.7,M,-25.1,M,,0000*65
$GPGSA,A,3,16,10,08,07,,,,,,,,,9.6,8.5,4.5*38
$GPRMC,225439.000,A,3748.8058,N,12217.8631,W,1.00,228.20,170412,,,A*7B
$GPVTG,228.20,T,,M,1.00,N,1.9,K,A*0E
$GPGGA,225440.000,3748.8065,N,12217.8637,W,1,04,8.5,2.5,M,-25.1,M,,0000*60
$GPGSA,A,3,16,10,08,07,,,,,,,,,9.6,8.5,4.5*38
$GPRMC,225440.000,A,3748.8065,N,12217.8637,W,0.24,196.09,170412,,,A*77
$GPVTG,196.09,T,,M,0.24,N,0.4,K,A*08
$GPGGA,225441.000,3748.8067,N,12217.8647,W,1,04,8.5,3.4,M,-25.1,M,,0000*64
$GPGSA,A,3,16,10,08,07,,,,,,,,,9.6,8.5,4.5*38
$GPRMC,225441.000,A,3748.8067,N,12217.8647,W,0.57,306.27,170412,,,A*70
$GPVTG,306.27,T,,M,0.57,N,1.1,K,A*0F
$GPGGA,225442.000,3748.8071,N,12217.8651,W,1,04,8.5,3.4,M,-25.1,M,,0000*67
$GPGSA,A,3,16,10,08,07,,,,,,,,,9.6,8.5,4.5*38
$GPGSV,3,1,12,07,58,292,33,10,43,287,34,16,30,045,20,08,26,262,41*7F
$GPGSV,3,2,12,13,74,009,25,23,59,104,13,03,25,091,,06,19,076,26*79
$GPGSV,3,3,12,20,16,176,31,19,12,126,23,30,05,040,26,05,02,326,*74
$GPRMC,225442.000,A,3748.8071,N,12217.8651,W,1.33,314.68,170412,,,A*78
$GPVTG,314.68,T,,M,1.33,N,2.5,K,A*03
$GPGGA,225443.000,3748.8074,N,12217.8654,W,1,03,9.7,3.1,M,-25.1,M,,0000*67
$GPGSA,A,2,10,08,07,,,,,,,,,,9.7,9.7,1.0*3C
$GPRMC,225443.000,A,3748.8074,N,12217.8654,W,1.21,331.06,170412,,,A*75
$GPVTG,331.06,T,,M,1.21,N,2.2,K,A*08
$GPGGA,225444.000,3748.8077,N,12217.8658,W,1,04,8.5,3.1,M,-25.1,M,,0000*6B
$GPGSA,A,3,16,10,08,07,,,,,,,,,9.6,8.5,4.5*38
$GPRMC,225444.000,A,3748.8077,N,12217.8658,W,1.03,332.02,170412,,,A*7A
$GPVTG,332.02,T,,M,1.03,N,1.9,K,A*07
$GPGGA,225445.000,3748.8078,N,12217.8659,W,1,04,8.5,3.1,M,-25.1,M,,0000*64
$GPGSA,A,3,16,10,08,07,,,,,,,,,9.6,8.5,4.5*38
$GPRMC,225445.000,A,3748.8078,N,12217.8659,W,0.63,17.69,170412,,,A*4B
$GPVTG,17.69,T,,M,0.63,N,1.2,K,A*32
$GPGGA,225446.000,3748.8077,N,12217.8656,W,1,04,8.5,3.4,M,-25.1,M,,0000*62
$GPGSA,A,3,16,10,08,07,,,,,,,,,9.7,8.5,4.5*39
$GPRMC,225446.000,A,3748.8077,N,12217.8656,W,0.50,39.93,170412,,,A*41
$GPVTG,39.93,T,,M,0.50,N,0.9,K,A*31
$GPGGA,225447.000,3748.8074,N,12217.8655,W,1,04,8.6,4.1,M,-25.1,M,,0000*62
$GPGSA,A,3,16,10,08,07,,,,,,,,,9.7,8.6,4.5*3A
$GPGSV,3,1,12,13,74,010,22,23,59,104,16,07,58,292,38,10,43,286,36*70
$GPGSV,3,2,12,16,30,045,27,08,26,262,42,03,25,091,24,06,19,075,28*7B
$GPGSV,3,3,12,20,16,176,36,19,12,126,26,30,04,040,32,05,02,326,*72
$GPRMC,225447.000,A,3748.8074,N,12217.8655,W,0.46,330.03,170412,,,A*74
$GPGGA,225448.000,3748.8073,N,12217.8655,W,1,04,8.6,4.4,M,-25.1,M,,0000*6F
$GPGSA,A,3,16,10,08,07,,,,,,,,,9.7,8.6,4.5*3A
$GPRMC,225448.000,A,3748.8073,N,12217.8655,W,0.43,345.52,170412,,,A*7F
$GPVTG,345.52,T,,M,0.43,N,0.8,K,A*07
$GPGGA,225449.000,3748.8074,N,12217.8656,W,1,04,8.6,4.6,M,-25.1,M,,0000*68
$GPGSA,A,3,16,10,08,07,,,,,,,,,9.7,8.6,4.5*3A
$GPRMC,225449.000,A,3748.8074,N,12217.8656,W,0.44,354.43,170412,,,A*7D
$GPVTG,354.43,T,,M,0.44,N,0.8,K,A*00
$GPGGA,225450.000,3748.8075,N,12217.8658,W,1,04,8.6,4.8,M,-25.1,M,,0000*61
$GPGSA,A,3,16,10,08,07,,,,,,,,,9.7,8.6,4.5*3A
$GPRMC,225450.000,A,3748.8075,N,12217.8658,W,0.47,342.12,170412,,,A*7A
$GPVTG,342.12,T,,M,0.47,N,0.9,K,A*01
$GPGGA,225451.000,3748.8077,N,12217.8660,W,1,04,8.6,4.9,M,-25.1,M,,0000*68
$GPGSA,A,3,16,10,08,07,,,,,,,,,9.7,8.6,4.5*3A
$GPRMC,225451.000,A,3748.8077,N,12217.8660,W,0.53,343.53,170412,,,A*73
$GPVTG,343.53,T,,M,0.53,N,1.0,K,A*08
$GPGGA,225452.000,3748.8080,N,12217.8667,W,1,04,8.6,5.5,M,-25.1,M,,0000*69
$GPGSA,A,3,16,10,08,07,,,,,,,,,9.7,8.6,4.5*3A
$GPGSV,3,1,12,13,74,010,27,23,59,104,23,07,58,292,38,10,43,286,36*73
$GPGSV,3,2,12,16,30,045,28,08,26,262,42,03,25,091,24,06,19,075,27*7B
$GPGSV,3,3,12,20,16,176,35,19,12,126,25,30,04,040,31,05,02,326,*71
$GPRMC,225452.000,A,3748.8080,N,12217.8667,W,0.46,336.75,170412,,,A*7D
$GPVTG,336.75,T,,M,0.46,N,0.9,K,A*02
$GPGGA,225453.000,3748.8083,N,12217.8673,W,1,04,8.6,6.0,M,-25.1,M,,0000*68
$GPGSA,A,3,16,10,08,07,,,,,,,,,9.7,8.6,4.5*3A
$GPRMC,225453.000,A,3748.8083,N,12217.8673,W,0.57,343.49,170412,,,A*77
$GPVTG,343.49,T,,M,0.57,N,1.1,K,A*06
$GPGGA,225454.000,3748.8086,N,12217.8678,W,1,04,8.6,6.7,M,-25.1,M,,0000*66
$GPGSA,A,3,16,10,08,07,,,,,,,,,9.7,8.6,4.5*3A
$GPRMC,225454.000,A,3748.8086,N,12217.8678,W,0.74,341.48,170412,,,A*7C
$GPVTG,341.48,T,,M,0.74,N,1.4,K,A*01
$GPGGA,225455.000,3748.8087,N,12217.8676,W,1,04,8.6,6.2,M,-25.1,M,,0000*6D
$GPGSA,A,3,16,10,08,07,,,,,,,,,9.7,8.6,4.5*3A
$GPRMC,225455.000,A,3748.8087,N,12217.8676,W,0.65,47.40,170412,,,A*4F
$GPVTG,47.40,T,,M,0.65,N,1.2,K,A*3A
$GPGGA,225456.000,3748.8101,N,12217.8682,W,1,04,8.6,5.3,M,-25.1,M,,0000*68
$GPGSA,A,3,16,10,08,07,,,,,,,,,9.7,8.6,4.5*3A
$GPRMC,225456.000,A,3748.8101,N,12217.8682,W,0.97,340.45,170412,,,A*74
$GPVTG,340.45,T,,M,0.97,N,1.8,K,A*0C
$GPGGA,225457.000,3748.8101,N,12217.8682,W,1,04,8.7,5.4,M,-25.1,M,,0000*6F
$GPGSA,A,3,16,10,08,07,,,,,,,,,9.8,8.7,4.5*34
$GPGSV,3,1,12,13,74,010,29,23,59,104,27,07,58,292,27,10,43,286,36*77
$GPGSV,3,2,12,16,30,045,33,08,26,262,37,03,25,091,24,06,19,075,28*7C
$GPGSV,3,3,12,20,16,176,24,19,12,126,17,30,04,040,32,05,02,326,*73
$GPRMC,225457.000,A,3748.8101,N,12217.8682,W,0.44,8.97,170412,,,A*7B
$GPVTG,8.97,T,,M,0.44,N,0.8,K,A*03
$GPGGA,225458.000,3748.8082,N,12217.8670,W,1,04,8.7,8.0,M,-25.1,M,,0000*6E
$GPGSA,A,3,16,10,08,07,,,,,,,,,9.8,8.7,4.5*34
$GPRMC,225458.000,A,3748.8082,N,12217.8670,W,0.20,346.45,170412,,,A*77
$GPVTG,346.45,T,,M,0.20,N,0.4,K,A*0B
$GPGGA,225459.000,3748.8083,N,12217.8670,W,6,00,50.0,8.2,M,-25.1,M,,0000*55
$GPGSA,A,2,,,,,,,,,,,,,50.0,50.0,50.0*06
$GPRMC,225459.000,A,3748.8083,N,12217.8670,W,0.20,346.45,170412,,,E*73
$GPVTG,346.45,T,,M,0.20,N,0.4,K,N*04
$GPGGA,225500.000,3748.8054,N,12217.8642,W,1,04,8.7,10.5,M,-25.1,M,,0000*54
$GPGSA,A,3,16,10,08,07,,,,,,,,,9.8,8.7,4.5*34
$GPRMC,225500.000,A,3748.8054,N,12217.8642,W,2.40,103.41,170412,,,A*72
$GPVTG,103.41,T,,M,2.40,N,4.4,K,N*03
$GPGGA,225501.000,3748.8043,N,12217.8631,W,1,04,8.7,11.9,M,-25.1,M,,0000*5A
$GPGSA,A,3,16,10,08,07,,,,,,,,,9.8,8.7,4.5*34
$GPRMC,225501.000,A,3748.8043,N,12217.8631,W,1.46,127.01,170412,,,A*76
$GPVTG,127.01,T,,M,1.46,N,2.7,K,A*0E
$GPGGA,225502.000,3748.8047,N,12217.8632,W,1,04,8.7,11.9,M,-25.1,M,,0000*5E
$GPGSA,A,3,16,10,08,07,,,,,,,,,9.8,8.7,4.5*34
$GPGSV,3,1,12,13,74,010,33,23,59,104,29,07,58,292,32,10,43,286,37*77
$GPGSV,3,2,12,16,30,045,28,08,26,262,36,03,25,091,24,06,19,075,*7D
$GPGSV,3,3,12,20,16,176,28,19,12,126,23,30,04,040,31,05,02,326,*7B
$GPRMC,225502.000,A,3748.8047,N,12217.8632,W,1.32,81.41,170412,,,A*48
$GPGGA,225503.000,3748.8049,N,12217.8626,W,1,04,8.7,11.3,M,-25.1,M,,0000*5E
$GPGSA,A,3,16,10,08,07,,,,,,,,,9.8,8.7,4.5*34
$GPRMC,225503.000,A,3748.8049,N,12217.8626,W,1.70,86.80,170412,,,A*4E
$GPVTG,86.80,T,,M,1.70,N,3.1,K,A*3F
$GPGGA,225504.000,3748.8014,N,12217.8596,W,1,05,5.1,13.4,M,-25.1,M,,0000*56
$GPGSA,A,3,16,10,08,07,13,,,,,,,,5.6,5.1,2.3*3F
$GPRMC,225504.000,A,3748.8014,N,12217.8596,W,2.79,127.89,170412,,,A*70
$GPVTG,127.89,T,,M,2.79,N,5.2,K,A*03
$GPGGA,225505.000,3748.8028,N,12217.8599,W,1,05,5.1,10.2,M,-25.1,M,,0000*52
$GPGSA,A,3,16,10,08,07,13,,,,,,,,5.6,5.1,2.3*3F
$GPRMC,225505.000,A,3748.8028,N,12217.8599,W,1.75,151.40,170412,,,A*7A
$GPVTG,151.40,T,,M,1.75,N,3.2,K,A*0E
$GPGGA,225506.000,3748.8030,N,12217.8596,W,1,05,5.1,8.5,M,-25.1,M,,0000*69
$GPGSA,A,3,16,10,08,07,13,,,,,,,,5.6,5.1,2.3*3F
$GPRMC,225506.000,A,3748.8030,N,12217.8596,W,1.16,146.55,170412,,,A*78
$GPVTG,146.55,T,,M,1.16,N,2.1,K,A*0B
$GPGGA,225507.000,3748.8017,N,12217.8579,W,1,05,5.1,9.1,M,-25.1,M,,0000*69
$GPGSA,A,3,16,10,08,07,13,,,,,,,,5.6,5.1,2.3*3F
$GPGSV,3,1,12,13,74,011,26,23,59,105,34,07,58,292,28,10,43,286,24*76
$GPGSV,3,2,12,16,30,045,26,08,26,262,25,03,25,091,39,06,19,075,34*7A
$GPGSV,3,3,12,20,16,176,39,19,12,126,37,30,04,040,26,05,02,326,*78
$GPRMC,225507.000,A,3748.8017,N,12217.8579,W,2.20,145.87,170412,,,A*77
$GPVTG,145.87,T,,M,2.20,N,4.1,K,A*07
$GPGGA,225508.000,3748.8017,N,12217.8578,W,1,05,5.1,8.8,M,-25.1,M,,0000*6F
$GPGSA,A,3,16,10,08,07,13,,,,,,,,5.6,5.1,2.3*3F
$GPRMC,225508.000,A,3748.8017,N,12217.8578,W,2.72,135.99,170412,,,A*76
$GPVTG,135.99,T,,M,2.72,N,5.0,K,A*08
$GPGGA,225509.000,3748.7999,N,12217.8569,W,1,05,5.1,9.4,M,-25.1,M,,0000*63
$GPGSA,A,3,16,10,08,07,13,,,,,,,,5.6,5.1,2.3*3F
$GPRMC,225509.000,A,3748.7999,N,12217.8569,W,3.79,147.44,170412,,,A*78
$GPVTG,147.44,T,,M,3.79,N,7.0,K,A*05
$GPGGA,225510.000,3748.7989,N,12217.8558,W,1,05,5.1,12.5,M,-25.1,M,,0000*53
$GPGSA,A,3,16,10,08,07,13,,,,,,,,5.6,5.1,2.3*3F
$GPRMC,225510.000,A,3748.7989,N,12217.8558,W,3.47,146.29,170412,,,A*74
$GPVTG,146.29,T,,M,3.47,N,6.4,K,A*07
$GPGGA,225511.000,3748.7978,N,12217.8543,W,1,05,5.1,14.0,M,-25.1,M,,0000*55
$GPGSA,A,3,16,10,08,07,13,,,,,,,,5.6,5.1,2.3*3F
$GPRMC,225511.000,A,3748.7978,N,12217.8543,W,3.63,140.33,170412,,,A*7A
$GPVTG,140.33,T,,M,3.63,N,6.7,K,A*0F
$GPGGA,225512.000,3748.7982,N,12217.8538,W,1,05,5.1,14.2,M,-25.1,M,,0000*5D
$GPGSA,A,3,16,10,08,07,13,,,,,,,,5.6,5.1,2.3*3F
$GPGSV,3,1,12,13,74,011,26,23,59,105,34,07,58,292,24,10,43,286,26*78
$GPGSV,3,2,12,16,30,045,29,08,26,262,24,03,25,091,34,06,19,075,27*7B
$GPGSV,3,3,12,20,16,176,33,19,12,126,37,30,04,040,24,05,02,326,*70
$GPRMC,225512.000,A,3748.7982,N,12217.8538,W,3.31,140.34,170412,,,A*70
$GPVTG,140.34,T,,M,3.31,N,6.1,K,A*09
$GPGGA,225513.000,3748.7976,N,12217.8533,W,1,05,5.1,13.2,M,-25.1,M,,0000*5B
$GPGSA,A,3,16,10,08,07,13,,,,,,,,5.6,5.1,2.3*3F
$GPRMC,225513.000,A,3748.7976,N,12217.8533,W,3.15,136.08,170412,,,A*79
$GPVTG,136.08,T,,M,3.15,N,5.8,K,A*0B
$GPGGA,225514.000,3748.7965,N,12217.8521,W,1,05,5.1,13.5,M,-25.1,M,,0000*5A
$GPGSA,A,3,16,10,08,07,13,,,,,,,,5.6,5.1,2.3*3F
$GPRMC,225514.000,A,3748.7965,N,12217.8521,W,3.99,145.73,170412,,,A*73
$GPVTG,145.73,T,,M,3.99,N,7.4,K,A*09
$GPGGA,225515.000,3748.7988,N,12217.8526,W,1,05,5.1,15.7,M,-25.1,M,,0000*5B
$GPGSA,A,3,16,10,08,07,13,,,,,,,,5.6,5.1,2.3*3F
$GPRMC,225515.000,A,3748.7988,N,12217.8526,W,2.10,123.56,170412,,,A*71
$GPVTG,123.56,T,,M,2.10,N,3.9,K,A*07
$GPGGA,225516.000,3748.7992,N,12217.8526,W,1,05,5.1,15.6,M,-25.1,M,,0000*52
$GPGSA,A,3,16,10,08,07,13,,,,,,,,5.6,5.1,2.3*3F
$GPRMC,225516.000,A,3748.7992,N,12217.8526,W,1.91,129.20,170412,,,A*78
$GPVTG,129.20,T,,M,1.91,N,3.5,K,A*0A
$GPGGA,225517.000,3748.7991,N,12217.8526,W,1,05,5.1,13.2,M,-25.1,M,,0000*52
$GPGSA,A,3,16,10,08,07,13,,,,,,,,5.6,5.1,2.3*3F
$GPGSV,3,1,12,13,74,011,29,23,59,105,38,07,58,293,26,10,43,286,27*79
$GPGSV,3,2,12,16,29,044,30,08,26,263,29,03,25,091,37,06,19,075,19*78
$GPGSV,3,3,12,20,16,176,37,19,12,126,37,30,04,040,19,05,03,326,*7B
$GPRMC,225517.000,A,3748.7991,N,12217.8526,W,2.10,132.35,170412,,,A*7E
$GPGGA,225518.000,3748.7997,N,12217.8523,W,1,05,5.1,12.5,M,-25.1,M,,0000*58
$GPGSA,A,3,16,10,08,07,13,,,,,,,,5.6,5.1,2.3*3F
$GPRMC,225518.000,A,3748.7997,N,12217.8523,W,2.60,109.15,170412,,,A*7F
$GPVTG,109.15,T,,M,2.60,N,4.8,K,A*09
$GPGGA,225519.000,3748.8016,N,12217.8525,W,1,05,5.1,12.0,M,-25.1,M,,0000*55
$GPGSA,A,3,16,10,08,07,13,,,,,,,,5.6,5.1,2.3*3F
$GPRMC,225519.000,A,3748.8016,N,12217.8525,W,1.49,51.06,170412,,,A*41
$GPVTG,51.06,T,,M,1.49,N,2.8,K,A*39
$GPGGA,225520.000,3748.8025,N,12217.8524,W,1,05,5.1,11.5,M,-25.1,M,,0000*58
$GPGSA,A,3,16,10,08,07,13,,,,,,,,5.6,5.1,2.3*3F
$GPRMC,225520.000,A,3748.8025,N,12217.8524,W,1.76,25.32,170412,,,A*42
$GPVTG,25.32,T,,M,1.76,N,3.3,K,A*3B
$GPGGA,225521.000,3748.8018,N,12217.8521,W,1,05,5.1,11.5,M,-25.1,M,,0000*52
$GPGSA,A,3,16,10,08,07,13,,,,,,,,5.6,5.1,2.3*3F
$GPRMC,225521.000,A,3748.8018,N,12217.8521,W,0.75,44.17,170412,,,A*4A
$GPVTG,44.17,T,,M,0.75,N,1.4,K,A*3C
$GPGGA,225522.000,3748.8013,N,12217.8520,W,1,05,5.1,12.0,M,-25.1,M,,0000*5D
$GPGSA,A,3,16,10,08,07,13,,,,,,,,5.6,5.1,2.3*3F
$GPGSV,3,1,12,13,74,011,29,23,59,105,36,07,58,293,27,10,43,286,30*70
$GPGSV,3,2,12,16,29,044,23,08,26,263,33,03,25,091,36,06,19,075,30*7B
$GPGSV,3,3,12,20,16,176,39,19,12,126,29,30,04,040,20,05,03,326,*70
$GPRMC,225522.000,A,3748.8013,N,12217.8520,W,0.80,78.35,170412,,,A*46
$GPVTG,78.35,T,,M,0.80,N,1.5,K,A*38
$GPGGA,225523.000,3748.8006,N,12217.8519,W,1,05,5.1,14.0,M,-25.1,M,,0000*54
$GPGSA,A,3,16,10,08,07,13,,,,,,,,5.6,5.1,2.3*3F
$GPRMC,225523.000,A,3748.8006,N,12217.8519,W,1.59,127.26,170412,,,A*75
$GPVTG,127.26,T,,M,1.59,N,2.9,K,A*0B
$GPGGA,225524.000,3748.7997,N,12217.8513,W,1,05,5.1,14.4,M,-25.1,M,,0000*53
$GPGSA,A,3,16,10,08,07,13,,,,,,,,5.6,5.1,2.3*3F
$GPRMC,225524.000,A,3748.7997,N,12217.8513,W,1.51,104.63,170412,,,A*7E
$GPVTG,104.63,T,,M,1.51,N,2.8,K,A*02
$GPGGA,225525.000,3748.8002,N,12217.8515,W,1,05,5.1,14.6,M,-25.1,M,,0000*5C
$GPGSA,A,3,16,10,08,07,13,,,,,,,,5.6,5.1,2.3*3F
$GPRMC,225525.000,A,3748.8002,N,12217.8515,W,1.17,49.07,170412,,,A*4B
$GPVTG,49.07,T,,M,1.17,N,2.2,K,A*30
$GPGGA,225526.000,3748.7993,N,12217.8513,W,1,05,5.1,16.2,M,-25.1,M,,0000*51
$GPGSA,A,3,16,10,08,07,13,,,,,,,,5.6,5.1,2.3*3F
$GPRMC,225526.000,A,3748.7993,N,12217.8513,W,1.01,66.07,170412,,,A*4A
$GPVTG,66.07,T,,M,1.01,N,1.9,K,A*32
$GPGGA,225527.000,3748.7981,N,12217.8505,W,1,05,5.1,17.4,M,-25.1,M,,0000*53
$GPGSA,A,3,16,10,08,07,13,,,,,,,,5.6,5.1,2.3*3F
$GPGSV,3,1,12,13,74,011,23,23,59,105,28,07,58,293,28,10,43,286,27*7C
$GPGSV,3,2,12,16,29,044,24,08,26,263,32,03,25,091,33,06,19,075,29*70
$GPGSV,3,3,12,20,16,176,35,19,12,126,35,30,04,040,20,05,03,326,*71
$GPRMC,225527.000,A,3748.7981,N,12217.8505,W,0.46,79.91,170412,,,A*4C
$GPVTG,79.91,T,,M,0.46,N,0.9,K,A*30
$GPGGA,225528.000,3748.7964,N,12217.8494,W,1,05,5.1,16.5,M,-25.1,M,,0000*5E
$GPGSA,A,3,16,10,08,07,13,,,,,,,,5.6,5.1,2.3*3F
$GPRMC,225528.000,A,3748.7964,N,12217.8494,W,0.70,134.71,170412,,,A*72
$GPVTG,134.71,T,,M,0.70,N,1.3,K,A*08
$GPGGA,225529.000,3748.7947,N,12217.8481,W,1,05,5.1,16.6,M,-25.1,M,,0000*59
$GPGSA,A,3,16,10,08,07,13,,,,,,,,5.6,5.1,2.3*3F
$GPRMC,225529.000,A,3748.7947,N,12217.8481,W,0.97,130.91,170412,,,A*75
$GPVTG,130.91,T,,M,0.97,N,1.8,K,A*00
$GPGGA,225530.000,3748.7917,N,12217.8455,W,1,05,5.1,15.2,M,-25.1,M,,0000*5A
$GPGSA,A,3,16,10,08,07,13,,,,,,,,5.6,5.1,2.3*3F
$GPRMC,225530.000,A,3748.7917,N,12217.8455,W,2.04,110.84,170412,,,A*7F
$GPVTG,110.84,T,,M,2.04,N,3.8,K,A*0C
$GPGGA,225531.000,3748.7918,N,12217.8447,W,1,05,5.2,13.1,M,-25.1,M,,0000*51
$GPGSA,A,3,16,10,08,07,13,,,,,,,,5.6,5.2,2.3*3C
$GPRMC,225531.000,A,3748.7918,N,12217.8447,W,2.22,105.79,170412,,,A*70
$GPVTG,105.79,T,,M,2.22,N,4.1,K,A*00
$GPGGA,225532.000,3748.7908,N,12217.8435,W,1,05,5.2,12.3,M,-25.1,M,,0000*55
$GPGSA,A,3,16,10,08,07,13,,,,,,,,5.6,5.2,2.3*3C
$GPGSV,3,1,12,13,74,011,23,23,59,105,34,07,58,293,27,10,43,286,27*7E
$GPGSV,3,2,12,16,29,044,25,08,26,263,35,03,25,091,36,06,19,075,30*7B
$GPGSV,3,3,12,20,16,176,38,19,12,126,28,30,04,040,22,05,03,326,*72
$GPRMC,225532.000,A,3748.7908,N,12217.8435,W,2.20,111.30,170412,,,A*7D
$GPGGA,225533.000,3748.7912,N,12217.8428,W,1,05,5.2,11.5,M,-25.1,M,,0000*56
$GPGSA,A,3,16,10,08,07,13,,,,,,,,5.6,5.2,2.3*3C
$GPRMC,225533.000,A,3748.7912,N,12217.8428,W,2.01,91.74,170412,,,A*41
$GPVTG,91.74,T,,M,2.01,N,3.7,K,A*31
$GPGGA,225534.000,3748.7911,N,12217.8418,W,1,05,5.2,9.7,M,-25.1,M,,0000*6A
$GPGSA,A,3,16,10,08,07,13,,,,,,,,5.6,5.2,2.3*3C
$GPRMC,225534.000,A,3748.7911,N,12217.8418,W,1.86,80.66,170412,,,A*49
$GPVTG,80.66,T,,M,1.86,N,3.5,K,A*3C
$GPGGA,225535.000,3748.7906,N,12217.8408,W,1,05,5.2,7.8,M,-25.1,M,,0000*6D
$GPGSA,A,3,16,10,08,07,13,,,,,,,,5.6,5.2,2.3*3C
$GPRMC,225535.000,A,3748.7906,N,12217.8408,W,1.61,121.31,170412,,,A*7E
$GPVTG,121.31,T,,M,1.61,N,3.0,K,A*08
$GPGGA,225536.000,3748.7914,N,12217.8405,W,1,05,5.2,6.8,M,-25.1,M,,0000*61
$GPGSA,A,3,16,10,08,07,13,,,,,,,,5.6,5.2,2.3*3C
$GPRMC,225536.000,A,3748.7914,N,12217.8405,W,1.14,78.90,170412,,,A*47
$GPVTG,78.90,T,,M,1.14,N,2.1,K,A*3C
$GPGGA,225537.000,3748.7905,N,12217.8395,W,1,05,5.2,5.2,M,-25.1,M,,0000*67
$GPGSA,A,3,16,10,08,07,13,,,,,,,,5.6,5.2,2.3*3C
$GPGSV,3,1,12,13,74,011,27,23,58,105,35,07,58,293,27,10,43,286,31*7D
$GPGSV,3,2,12,16,29,044,28,08,26,263,30,03,25,091,36,06,20,075,30*79
$GPGSV,3,3,12,20,15,176,38,19,12,126,30,30,04,040,22,05,03,326,*78
$GPRMC,225537.000,A,3748.7905,N,12217.8395,W,1.44,75.06,170412,,,A*4F
$GPVTG,75.06,T,,M,1.44,N,2.7,K,A*3D
$GPGGA,225538.000,3748.7890,N,12217.8377,W,1,05,5.2,3.8,M,-25.1,M,,0000*65
$GPGSA,A,3,16,10,08,07,13,,,,,,,,5.6,5.2,2.3*3C
$GPRMC,225538.000,A,3748.7890,N,12217.8377,W,1.79,69.37,170412,,,A*40
$GPVTG,69.37,T,,M,1.79,N,3.3,K,A*39
$GPGGA,225539.000,3748.7874,N,12217.8362,W,1,05,5.2,3.2,M,-25.1,M,,0000*60
$GPGSA,A,3,16,10,08,07,13,,,,,,,,5.6,5.2,2.3*3C
$GPRMC,225539.000,A,3748.7874,N,12217.8362,W,1.88,103.35,170412,,,A*7E
$GPVTG,103.35,T,,M,1.88,N,3.5,K,A*0E
$GPGGA,225540.000,3748.7877,N,12217.8358,W,1,05,5.2,2.8,M,-25.1,M,,0000*6F
$GPGSA,A,3,16,10,08,07,13,,,,,,,,5.6,5.2,2.3*3C
$GPRMC,225540.000,A,3748.7877,N,12217.8358,W,1.69,84.05,170412,,,A*48
$GPVTG,84.05,T,,M,1.69,N,3.1,K,A*38
$GPGGA,225541.000,3748.7873,N,12217.8350,W,1,05,5.2,2.5,M,-25.1,M,,0000*6F
$GPGSA,A,3,16,10,08,07,13,,,,,,,,5.6,5.2,2.3*3C
$GPRMC,225541.000,A,3748.7873,N,12217.8350,W,2.06,107.72,170412,,,A*75
$GPVTG,107.72,T,,M,2.06,N,3.8,K,A*01
$GPGGA,225542.000,3748.7877,N,12217.8345,W,1,05,5.2,2.5,M,-25.1,M,,0000*6C
$GPGSA,A,3,16,10,08,07,13,,,,,,,,5.6,5.2,2.3*3C
$GPGSV,3,1,12,13,74,011,29,23,58,105,36,07,58,293,29,10,43,286,30*7F
$GPGSV,3,2,12,16,29,044,27,08,26,263,39,03,25,091,36,06,20,075,23*7D
$GPGSV,3,3,12,20,15,176,38,19,12,126,24,30,04,040,21,05,03,326,*7E
$GPRMC,225542.000,A,3748.7877,N,12217.8345,W,2.07,89.28,170412,,,A*4F
$GPVTG,89.28,T,,M,2.07,N,3.8,K,A*38
$GPGGA,225543.000,3748.7881,N,12217.8341,W,1,05,5.2,2.8,M,-25.1,M,,0000*6D
$GPGSA,A,3,16,10,08,07,13,,,,,,,,5.6,5.2,2.3*3C
$GPRMC,225543.000,A,3748.7881,N,12217.8341,W,1.91,76.04,170412,,,A*41
$GPVTG,76.04,T,,M,1.91,N,3.5,K,A*37
$GPGGA,225544.000,3748.7885,N,12217.8338,W,1,05,5.2,3.1,M,-25.1,M,,0000*68
$GPGSA,A,3,16,10,08,07,13,,,,,,,,5.6,5.2,2.3*3C
$GPRMC,225544.000,A,3748.7885,N,12217.8338,W,1.18,87.13,170412,,,A*45
$GPVTG,87.13,T,,M,1.18,N,2.2,K,A*38
$GPGGA,225545.000,3748.7885,N,12217.8333,W,1,05,5.2,3.4,M,-25.1,M,,0000*67
$GPGSA,A,3,16,10,08,07,13,,,,,,,,5.6,5.2,2.3*3C
$GPRMC,225545.000,A,3748.7885,N,12217.8333,W,1.84,99.28,170412,,,A*4D
$GPVTG,99.28,T,,M,1.84,N,3.4,K,A*3D
$GPGGA,225546.000,3748.7890,N,12217.8327,W,1,05,5.2,3.6,M,-25.1,M,,0000*67
$GPGSA,A,3,16,10,08,07,13,,,,,,,,5.6,5.2,2.3*3C
$GPRMC,225546.000,A,3748.7890,N,12217.8327,W,1.30,78.19,170412,,,A*4D
$GPVTG,78.19,T,,M,1.30,N,2.4,K,A*3E
$GPGGA,225547.000,3748.7889,N,12217.8319,W,1,05,5.2,3.7,M,-25.1,M,,0000*62
$GPGSA,A,3,16,10,08,07,13,,,,,,,,5.6,5.2,2.3*3C
$GPGSV,3,1,12,13,74,011,29,23,58,105,35,07,58,293,22,10,43,286,29*7F
$GPGSV,3,2,12,16,29,044,28,08,26,263,34,03,25,091,35,06,20,075,29*76
$GPGSV,3,3,12,20,15,176,38,19,12,126,30,30,04,040,20,05,03,326,*7A
$GPRMC,225547.000,A,3748.7889,N,12217.8319,W,1.30,37.48,170412,,,A*46
$GPGGA,225548.000,3748.7866,N,12217.8306,W,1,05,5.2,5.8,M,-25.1,M,,0000*6B
$GPGSA,A,3,16,10,08,07,13,,,,,,,,5.6,5.2,2.3*3C
$GPRMC,225548.000,A,3748.7866,N,12217.8306,W,1.34,85.89,170412,,,A*46
$GPVTG,85.89,T,,M,1.34,N,2.5,K,A*30
$GPGGA,225549.000,3748.7851,N,12217.8293,W,1,05,5.2,6.9,M,-25.1,M,,0000*61
$GPGSA,A,3,16,10,08,07,13,,,,,,,,5.6,5.2,2.3*3C
$GPRMC,225549.000,A,3748.7851,N,12217.8293,W,1.52,97.07,170412,,,A*4B
$GPVTG,97.07,T,,M,1.52,N,2.8,K,A*38
$GPGGA,225550.000,3748.7841,N,12217.8281,W,1,05,5.2,6.8,M,-25.1,M,,0000*6A
$GPGSA,A,3,16,10,08,07,13,,,,,,,,5.6,5.2,2.3*3C
$GPRMC,225550.000,A,3748.7841,N,12217.8281,W,2.04,105.82,170412,,,A*76
$GPVTG,105.82,T,,M,2.04,N,3.8,K,A*0E
$GPGGA,225551.000,3748.7828,N,12217.8265,W,1,05,5.2,5.9,M,-25.1,M,,0000*6C
$GPGSA,A,3,16,10,08,07,13,,,,,,,,5.6,5.2,2.3*3C
$GPRMC,225551.000,A,3748.7828,N,12217.8265,W,2.24,110.67,170412,,,A*7F
$GPVTG,110.67,T,,M,2.24,N,4.2,K,A*0E
$GPGGA,225552.000,3748.7821,N,12217.8252,W,1,05,5.2,4.4,M,-25.1,M,,0000*6E
$GPGSA,A,3,16,10,08,07,13,,,,,,,,5.6,5.2,2.3*3C
$GPGSV,3,1,12,13,74,011,29,23,58,105,31,07,58,293,24,10,43,286,27*73
$GPGSV,3,2,12,16,29,044,23,08,26,263,29,03,25,091,29,06,20,075,24*71
$GPGSV,3,3,12,20,15,176,39,19,12,126,38,30,04,040,20,05,03,326,*73
$GPRMC,225552.000,A,3748.7821,N,12217.8252,W,2.34,107.54,170412,,,A*76
$GPVTG,107.54,T,,M,2.34,N,4.3,K,A*08
$GPGGA,225553.000,3748.7820,N,12217.8250,W,1,05,5.2,5.1,M,-25.1,M,,0000*68
$GPGSA,A,3,16,10,08,07,13,,,,,,,,5.6,5.2,2.3*3C
$GPRMC,225553.000,A,3748.7820,N,12217.8250,W,1.45,95.09,170412,,,A*43
$GPVTG,95.09,T,,M,1.45,N,2.7,K,A*3D
$GPGGA,225554.000,3748.7824,N,12217.8248,W,1,05,5.2,4.6,M,-25.1,M,,0000*64
$GPGSA,A,3,16,10,08,07,13,,,,,,,,5.6,5.2,2.3*3C
$GPRMC,225554.000,A,3748.7824,N,12217.8248,W,1.31,70.28,170412,,,A*42
$GPVTG,70.28,T,,M,1.31,N,2.4,K,A*35
$GPGGA,225555.000,3748.7818,N,12217.8237,W,1,05,5.2,3.7,M,-25.1,M,,0000*64
$GPGSA,A,3,16,10,08,07,13,,,,,,,,5.6,5.2,2.3*3C
$GPRMC,225555.000,A,3748.7818,N,12217.8237,W,1.53,77.53,170412,,,A*4B
$GPVTG,77.53,T,,M,1.53,N,2.8,K,A*36
$GPGGA,225556.000,3748.7814,N,12217.8230,W,1,05,5.2,4.0,M,-25.1,M,,0000*6C
$GPGSA,A,3,16,10,08,07,13,,,,,,,,5.6,5.2,2.3*3C
$GPRMC,225556.000,A,3748.7814,N,12217.8230,W,1.65,94.20,170412,,,A*4F
$GPVTG,94.20,T,,M,1.65,N,3.1,K,A*32
$GPGGA,225557.000,3748.7808,N,12217.8220,W,1,05,5.2,3.9,M,-25.1,M,,0000*6F
$GPGSA,A,3,16,10,08,07,13,,,,,,,,5.6,5.2,2.3*3C
$GPGSV,3,1,12,13,74,011,28,23,58,105,33,07,58,293,25,10,43,286,27*71
$GPGSV,3,2,12,16,29,044,30,08,26,263,32,03,25,091,38,06,20,075,22*7F
$GPGSV,3,3,12,20,15,176,38,19,12,126,37,30,04,040,19,05,03,326,*77
$GPRMC,225557.000,A,3748.7808,N,12217.8220,W,1.43,83.47,170412,,,A*41
$GPVTG,83.47,T,,M,1.43,N,2.6,K,A*37
$GPGGA,225558.000,3748.7789,N,12217.8205,W,1,06,2.0,3.9,M,-25.1,M,,0000*67
$GPGSA,A,3,16,10,08,07,23,13,,,,,,,3.0,2.0,2.2*39
$GPRMC,225558.000,A,3748.7789,N,12217.8205,W,2.01,115.99,170412,,,A*77
$GPVTG,115.99,T,,M,2.01,N,3.7,K,A*0F
$GPGGA,225559.000,3748.7772,N,12217.8197,W,1,06,2.0,6.1,M,-25.1,M,,0000*67
$GPGSA,A,3,16,10,08,07,23,13,,,,,,,3.0,2.0,2.2*39
$GPRMC,225559.000,A,3748.7772,N,12217.8197,W,1.81,129.21,170412,,,A*7D
$GPVTG,129.21,T,,M,1.81,N,3.3,K,A*0C
$GPGGA,225600.000,3748.7768,N,12217.8194,W,1,06,2.0,7.0,M,-25.1,M,,0000*60
$GPGSA,A,3,16,10,08,07,23,13,,,,,,,3.0,2.0,2.2*39
$GPRMC,225600.000,A,3748.7768,N,12217.8194,W,1.40,127.12,170412,,,A*79
$GPVTG,127.12,T,,M,1.40,N,2.6,K,A*0B
$GPGGA,225601.000,3748.7766,N,12217.8190,W,1,06,2.0,7.5,M,-25.1,M,,0000*6E
$GPGSA,A,3,16,10,08,07,23,13,,,,,,,3.0,2.0,2.2*39
$GPRMC,225601.000,A,3748.7766,N,12217.8190,W,1.70,116.02,170412,,,A*72
$GPVTG,116.02,T,,M,1.70,N,3.2,K,A*0E
$GPGGA,225602.000,3748.7753,N,12217.8181,W,1,06,2.0,7.3,M,-25.1,M,,0000*6D
$GPGSA,A,3,16,10,08,07,23,13,,,,,,,3.0,2.0,2.2*39
$GPGSV,3,1,12,13,75,012,29,23,58,105,34,07,58,293,25,10,44,286,27*72
$GPGSV,3,2,12,16,29,044,23,08,26,263,32,03,25,090,37,06,20,075,30*70
$GPGSV,3,3,12,20,15,176,39,19,12,126,36,30,04,040,18,05,03,326,*76
$GPRMC,225602.000,A,3748.7753,N,12217.8181,W,1.65,111.58,170412,,,A*7B
$GPGGA,225603.000,3748.7754,N,12217.8175,W,1,06,2.0,6.9,M,-25.1,M,,0000*6B
$GPGSA,A,3,16,10,08,07,23,13,,,,,,,3.0,2.0,2.2*39
$GPRMC,225603.000,A,3748.7754,N,12217.8175,W,2.11,114.44,170412,,,A*7E
$GPVTG,114.44,T,,M,2.11,N,3.9,K,A*01
$GPGGA,225604.000,3748.7748,N,12217.8165,W,1,07,1.7,6.6,M,-25.1,M,,0000*6A
$GPGSA,A,3,16,10,08,03,07,23,13,,,,,,2.5,1.7,1.9*32
$GPRMC,225604.000,A,3748.7748,N,12217.8165,W,2.20,116.95,170412,,,A*79
$GPVTG,116.95,T,,M,2.20,N,4.1,K,A*02
$GPGGA,225605.000,3748.7745,N,12217.8159,W,1,07,1.7,6.8,M,-25.1,M,,0000*67
$GPGSA,A,3,16,10,08,03,07,23,13,,,,,,2.5,1.7,1.9*32
$GPRMC,225605.000,A,3748.7745,N,12217.8159,W,2.36,129.28,170412,,,A*77
$GPVTG,129.28,T,,M,2.36,N,4.4,K,A*0A
$GPGGA,225606.000,3748.7737,N,12217.8150,W,1,07,1.7,6.6,M,-25.1,M,,0000*66
$GPGSA,A,3,16,10,08,03,07,23,13,,,,,,2.5,1.7,1.9*32
$GPRMC,225606.000,A,3748.7737,N,12217.8150,W,2.76,141.04,170412,,,A*7C
$GPVTG,141.04,T,,M,2.76,N,5.1,K,A*0A
$GPGGA,225607.000,3748.7727,N,12217.8144,W,1,07,1.7,7.1,M,-25.1,M,,0000*65
$GPGSA,A,3,16,10,08,03,07,23,13,,,,,,2.5,1.7,1.9*32
$GPGSV,3,1,12,13,75,012,28,23,58,105,34,07,58,293,25,10,44,286,27*73
$GPGSV,3,2,12,16,29,044,29,08,26,263,32,03,25,090,34,06,20,075,27*7F
$GPGSV,3,3,12,20,15,176,39,19,12,126,39,30,04,040,18,05,03,326,*79
$GPRMC,225607.000,A,3748.7727,N,12217.8144,W,2.63,129.29,170412,,,A*7C
$GPVTG,129.29,T,,M,2.63,N,4.9,K,A*06
$GPGGA,225608.000,3748.7721,N,12217.8137,W,1,07,1.7,7.0,M,-25.1,M,,0000*69
$GPGSA,A,3,16,10,08,03,07,23,13,,,,,,2.5,1.7,1.9*32
$GPRMC,225608.000,A,3748.7721,N,12217.8137,W,2.31,118.14,170412,,,A*7A
$GPVTG,118.14,T,,M,2.31,N,4.3,K,A*07
$GPGGA,225609.000,3748.7721,N,12217.8129,W,1,07,1.7,6.8,M,-25.1,M,,0000*6E
$GPGSA,A,3,16,10,08,03,07,23,13,,,,,,2.5,1.7,1.9*32
$GPRMC,225609.000,A,3748.7721,N,12217.8129,W,2.37,115.13,170412,,,A*78
$GPVTG,115.13,T,,M,2.37,N,4.4,K,A*0C
$GPGGA,225610.000,3748.7715,N,12217.8123,W,1,07,1.7,7.6,M,-25.1,M,,0000*64
$GPGSA,A,3,16,10,08,03,07,23,13,,,,,,2.5,1.7,1.9*32
$GPRMC,225610.000,A,3748.7715,N,12217.8123,W,2.42,115.70,170412,,,A*7A
$GPVTG,115.70,T,,M,2.42,N,4.5,K,A*0A
$GPGGA,225611.000,3748.7713,N,12217.8114,W,1,07,1.7,7.4,M,-25.1,M,,0000*65
$GPGSA,A,3,16,10,08,03,07,23,13,,,,,,2.5,1.7,1.9*32
$GPRMC,225611.000,A,3748.7713,N,12217.8114,W,2.36,110.09,170412,,,A*71
$GPVTG,110.09,T,,M,2.36,N,4.4,K,A*03
$GPGGA,225612.000,3748.7712,N,12217.8105,W,1,07,1.7,7.5,M,-25.1,M,,0000*66
$GPGSA,A,3,16,10,08,03,07,23,13,,,,,,2.5,1.7,1.9*32
$GPGSV,3,1,12,13,75,012,29,23,58,105,35,07,58,293,25,10,44,286,28*7C
$GPGSV,3,2,12,16,29,044,24,08,26,263,32,03,25,090,37,06,20,075,32*75
$GPGSV,3,3,12,20,15,176,39,19,12,126,39,30,04,040,,05,03,326,*70
$GPRMC,225612.000,A,3748.7712,N,12217.8105,W,2.31,93.22,170412,,,A*47
$GPVTG,93.22,T,,M,2.31,N,4.3,K,A*30
$GPGGA,225613.000,3748.7714,N,12217.8098,W,1,07,1.7,7.6,M,-25.1,M,,0000*67
$GPGSA,A,3,16,10,08,03,07,23,13,,,,,,2.5,1.7,1.9*32
$GPRMC,225613.000,A,3748.7714,N,12217.8098,W,2.38,103.14,170412,,,A*71
$GPVTG,103.14,T,,M,2.38,N,4.4,K,A*03
$GPGGA,225614.000,3748.7708,N,12217.8090,W,1,07,1.7,8.0,M,-25.1,M,,0000*6C
$GPGSA,A,3,16,10,08,03,07,23,13,,,,,,2.5,1.7,1.9*32
$GPRMC,225614.000,A,3748.7708,N,12217.8090,W,2.64,122.12,170412,,,A*7F
$GPVTG,122.12,T,,M,2.64,N,4.9,K,A*02
$GPGGA,225615.000,3748.7705,N,12217.8082,W,1,07,1.7,8.1,M,-25.1,M,,0000*62
$GPGSA,A,3,16,10,08,03,07,23,13,,,,,,2.5,1.7,1.9*32
$GPRMC,225615.000,A,3748.7705,N,12217.8082,W,2.60,127.18,170412,,,A*7B
$GPVTG,127.18,T,,M,2.60,N,4.8,K,A*08
$GPGGA,225616.000,3748.7713,N,12217.8072,W,1,07,1.7,7.4,M,-25.1,M,,0000*63
$GPGSA,A,3,16,10,08,03,07,23,13,,,,,,2.5,1.7,1.9*32
$GPRMC,225616.000,A,3748.7713,N,12217.8072,W,2.44,108.17,170412,,,A*74
$GPVTG,108.17,T,,M,2.44,N,4.5,K,A*01
$GPGGA,225617.000,3748.7715,N,12217.8063,W,1,07,1.7,7.1,M,-25.1,M,,0000*61
$GPGSA,A,3,16,10,08,03,07,23,13,,,,,,2.5,1.7,1.9*32
$GPGSV,3,1,12,13,75,013,29,23,58,105,36,07,58,293,25,10,44,285,28*7D
$GPGSV,3,2,12,16,29,044,30,08,26,263,34,03,25,090,31,06,20,075,23*70
$GPGSV,3,3,12,20,15,176,38,19,12,126,37,30,04,040,,05,03,326,*7F
$GPVTG,111.62,T,,M,2.43,N,4.5,K,A*0C
$GPGGA,225618.000,3748.7716,N,12217.8054,W,1,07,1.7,6.9,M,-25.1,M,,0000*60
$GPGSA,A,3,16,10,08,03,07,23,13,,,,,,2.5,1.7,1.9*32
$GPRMC,225618.000,A,3748.7716,N,12217.8054,W,2.54,115.92,170412,,,A*7B
$GPVTG,115.92,T,,M,2.54,N,4.7,K,A*03
$GPGGA,225619.000,3748.7712,N,12217.8046,W,1,07,1.7,6.9,M,-25.1,M,,0000*66
$GPGSA,A,3,16,10,08,03,07,23,13,,,,,,2.5,1.7,1.9*32
$GPRMC,225619.000,A,3748.7712,N,12217.8046,W,2.34,111.09,170412,,,A*7D
$GPVTG,111.09,T,,M,2.34,N,4.3,K,A*07
$GPGGA,225620.000,3748.7710,N,12217.8038,W,1,07,1.7,6.8,M,-25.1,M,,0000*66
$GPGSA,A,3,16,10,08,03,07,23,13,,,,,,2.5,1.7,1.9*32
$GPRMC,225620.000,A,3748.7710,N,12217.8038,W,2.42,116.52,170412,,,A*74
$GPVTG,116.52,T,,M,2.42,N,4.5,K,A*09
$GPGGA,225621.000,3748.7707,N,12217.8030,W,1,07,1.7,6.4,M,-25.1,M,,0000*65
$GPGSA,A,3,16,10,08,03,07,23,13,,,,,,2.5,1.7,1.9*32
$GPRMC,225621.000,A,3748.7707,N,12217.8030,W,2.18,105.83,170412,,,A*7A
$GPVTG,105.83,T,,M,2.18,N,4.0,K,A*0D
$GPGGA,225622.000,3748.7705,N,12217.8022,W,1,07,1.7,6.0,M,-25.1,M,,0000*63
$GPGSA,A,3,16,10,08,03,07,23,13,,,,,,2.5,1.7,1.9*32
$GPGSV,3,1,12,13,75,013,29,23,58,105,36,07,58,293,26,10,44,285,29*7F
$GPGSV,3,2,12,16,29,044,24,08,26,263,35,03,25,090,36,06,20,075,33*72
$GPGSV,3,3,12,20,15,176,33,19,12,126,38,30,04,040,20,05,03,326,*79
$GPRMC,225622.000,A,3748.7705,N,12217.8022,W,2.34,104.56,170412,,,A*7F
$GPVTG,104.56,T,,M,2.34,N,4.3,K,A*09
$GPGGA,225623.000,3748.7701,N,12217.8012,W,1,07,1.7,5.4,M,-25.1,M,,0000*62
$GPGSA,A,3,16,10,08,03,07,23,13,,,,,,2.5,1.7,1.9*32
$GPRMC,225623.000,A,3748.7701,N,12217.8012,W,2.64,113.02,170412,,,A*7B
$GPVTG,113.02,T,,M,2.64,N,4.9,K,A*01
$GPGGA,225624.000,3748.7696,N,12217.8003,W,1,07,1.7,5.0,M,-25.1,M,,0000*6E
$GPGSA,A,3,16,10,08,03,07,23,13,,,,,,2.5,1.7,1.9*32
$GPRMC,225624.000,A,3748.7696,N,12217.8003,W,2.71,118.96,170412,,,A*71
$GPVTG,118.96,T,,M,2.71,N,5.0,K,A*0B
$GPGGA,225625.000,3748.7692,N,12217.7994,W,1,07,1.7,4.3,M,-25.1,M,,0000*61
$GPGSA,A,3,16,10,08,03,07,23,13,,,,,,2.5,1.7,1.9*32
$GPRMC,225625.000,A,3748.7692,N,12217.7994,W,2.40,108.59,170412,,,A*7C
$GPVTG,108.59,T,,M,2.40,N,4.4,K,A*0E
$GPGGA,225626.000,3748.7686,N,12217.7985,W,1,07,1.7,3.7,M,-25.1,M,,0000*64
$GPGSA,A,3,16,10,08,03,07,23,13,,,,,,2.5,1.7,1.9*32
$GPRMC,225626.000,A,3748.7686,N,12217.7985,W,2.49,117.84,170412,,,A*7D
$GPVTG,117.84,T,,M,2.49,N,4.6,K,A*0B
$GPGGA,225627.000,3748.7682,N,12217.7977,W,1,07,1.7,3.4,M,-25.1,M,,0000*6F
$GPGSA,A,3,16,10,08,03,07,23,13,,,,,,2.5,1.7,1.9*32
$GPGSV,3,1,12,13,75,013,29,23,58,105,36,07,58,293,26,10,44,285,30*77
$GPGSV,3,2,12,16,29,044,26,08,26,263,34,03,25,090,36,06,20,075,34*76
$GPGSV,3,3,12,20,15,176,38,19,12,126,38,30,04,040,19,05,03,326,*78
$GPRMC,225627.000,A,3748.7682,N,12217.7977,W,2.49,113.33,170412,,,A*7D
$GPVTG,113.33,T,,M,2.49,N,4.6,K,A*03
$GPGGA,225628.000,3748.7684,N,12217.7970,W,1,08,1.1,3.5,M,-25.1,M,,0000*69
$GPGSA,A,3,16,10,08,03,07,23,20,13,,,,,2.1,1.1,1.8*33
$GPRMC,225628.000,A,3748.7684,N,12217.7970,W,2.44,116.86,170412,,,A*75
$GPVTG,116.86,T,,M,2.44,N,4.5,K,A*06
$GPGGA,225629.000,3748.7685,N,12217.7962,W,1,08,1.1,3.6,M,-25.1,M,,0000*69
$GPGSA,A,3,16,10,08,03,07,23,20,13,,,,,2.1,1.1,1.8*33
$GPRMC,225629.000,A,3748.7685,N,12217.7962,W,2.71,119.61,170412,,,A*76
$GPVTG,119.61,T,,M,2.71,N,5.0,K,A*02
$GPGGA,225630.000,3748.7684,N,12217.7954,W,1,08,1.1,3.8,M,-25.1,M,,0000*6B
$GPGSA,A,3,16,10,08,03,07,23,20,13,,,,,2.1,1.1,1.8*33
$GPRMC,225630.000,A,3748.7684,N,12217.7954,W,2.69,122.44,170412,,,A*7C
$GPVTG,122.44,T,,M,2.69,N,5.0,K,A*04
$GPGGA,225631.000,3748.7682,N,12217.7946,W,1,08,1.1,4.1,M,-25.1,M,,0000*61
$GPGSA,A,3,16,10,08,03,07,23,20,13,,,,,2.1,1.1,1.8*33
$GPRMC,225631.000,A,3748.7682,N,12217.7946,W,2.68,126.45,170412,,,A*7C
$GPVTG,126.45,T,,M,2.68,N,5.0,K,A*00
$GPGGA,225632.000,3748.7679,N,12217.7938,W,1,08,1.1,4.4,M,-25.1,M,,0000*6A
$GPGSA,A,3,16,10,08,03,07,23,20,13,,,,,2.1,1.1,1.8*33
$GPGSV,3,1,12,13,75,013,29,23,58,105,36,07,58,294,26,10,44,285,29*78
$GPGSV,3,2,12,16,29,044,22,08,26,263,34,03,26,090,35,06,20,075,28*7F
$GPGSV,3,3,12,20,15,176,38,19,12,126,40,30,04,040,19,05,03,326,*77
$GPRMC,225632.000,A,3748.7679,N,12217.7938,W,2.68,122.15,170412,,,A*73
$GPVTG,122.15,T,,M,2.68,N,5.0,K,A*01
$GPGGA,225633.000,3748.7677,N,12217.7929,W,1,08,1.1,4.4,M,-25.1,M,,0000*65
$GPGSA,A,3,16,10,08,03,07,23,20,13,,,,,2.1,1.1,1.8*33
$GPRMC,225633.000,A,3748.7677,N,12217.7929,W,2.92,117.12,170412,,,A*78
$GPVTG,117.12,T,,M,2.92,N,5.4,K,A*01
$GPGGA,225634.000,3748.7676,N,12217.7920,W,1,09,1.1,4.3,M,-25.1,M,,0000*6C
$GPGSA,A,3,16,10,08,03,07,23,19,20,13,,,,2.0,1.1,1.7*35
$GPRMC,225634.000,A,3748.7676,N,12217.7920,W,2.72,117.18,170412,,,A*73
$GPVTG,117.18,T,,M,2.72,N,5.0,K,A*01
$GPGGA,225635.000,3748.7675,N,12217.7911,W,1,09,1.1,4.1,M,-25.1,M,,0000*6E
$GPGSA,A,3,16,10,08,03,07,23,19,20,13,,,,2.0,1.1,1.7*35
$GPRMC,225635.000,A,3748.7675,N,12217.7911,W,2.41,115.71,170412,,,A*7E
$GPVTG,115.71,T,,M,2.41,N,4.5,K,A*08
$GPGGA,225636.000,3748.7675,N,12217.7903,W,1,09,1.1,3.9,M,-25.1,M,,0000*61
$GPGSA,A,3,16,10,08,03,07,23,19,20,13,,,,2.0,1.1,1.7*35
$GPRMC,225636.000,A,3748.7675,N,12217.7903,W,2.44,110.65,170412,,,A*7B
$GPVTG,110.65,T,,M,2.44,N,4.5,K,A*0D
$GPGGA,225637.000,3748.7674,N,12217.7894,W,1,09,1.1,3.8,M,-25.1,M,,0000*6F
$GPGSA,A,3,16,10,08,03,07,23,19,20,13,,,,2.0,1.1,1.7*35
$GPGSV,3,1,12,13,75,013,29,07,58,294,25,23,58,106,35,10,44,285,27*75
$GPGSV,3,2,12,16,29,044,31,08,26,263,28,03,26,090,36,06,20,075,35*7F
$GPGSV,3,3,12,20,15,176,39,19,12,126,43,30,04,040,21,05,03,326,*7E
$GPRMC,225637.000,A,3748.7674,N,12217.7894,W,2.40,108.83,170412,,,A*71
$GPGGA,225638.000,3748.7671,N,12217.7887,W,2,09,1.1,4.1,M,-25.1,M,,0000*6A
$GPGSA,A,3,16,10,08,03,07,23,19,20,13,,,,2.0,1.1,1.7*35
$GPRMC,225638.000,A,3748.7671,N,12217.7887,W,2.45,113.47,170412,,,D*7B
$GPVTG,113.47,T,,M,2.45,N,4.5,K,D*0A
$GPGGA,225639.000,3748.7668,N,12217.7879,W,2,09,1.1,4.4,M,-25.1,M,,0000*67
$GPGSA,A,3,16,10,08,03,07,23,19,20,13,,,,2.0,1.1,1.7*35
$GPRMC,225639.000,A,3748.7668,N,12217.7879,W,2.51,118.50,170412,,,D*7B
$GPVTG,118.50,T,,M,2.51,N,4.6,K,D*01
$GPGGA,225640.000,3748.7664,N,12217.7871,W,2,09,1.1,4.7,M,-25.1,M,,0000*6E
$GPGSA,A,3,16,10,08,03,07,23,19,20,13,,,,2.0,1.1,1.7*35
$GPRMC,225640.000,A,3748.7664,N,12217.7871,W,2.61,125.16,170412,,,D*7E
$GPVTG,125.16,T,,M,2.61,N,4.8,K,D*00
$GPGGA,225641.000,3748.7660,N,12217.7863,W,2,09,1.1,4.9,M,-25.1,M,2.8,0000*42
$GPGSA,A,3,16,10,08,03,07,23,19,20,13,,,,2.0,1.1,1.7*35
$GPRMC,225641.000,A,3748.7660,N,12217.7863,W,2.65,123.11,170412,,,D*7D
$GPVTG,123.11,T,,M,2.65,N,4.9,K,D*04
$GPGGA,225642.000,3748.7655,N,12217.7854,W,2,09,1.1,4.9,M,-25.1,M,3.8,0000*42
$GPGSA,A,3,16,10,08,03,07,23,19,20,13,,,,2.0,1.1,1.7*35
$GPGSV,3,1,12,13,75,013,29,07,58,294,30,23,58,106,31,10,44,285,28*7A
$GPGSV,3,2,12,16,29,044,25,08,26,263,36,03,26,090,26,06,20,075,25*75
$GPGSV,3,3,12,20,15,176,31,19,12,126,37,30,04,040,19,05,03,326,*7E
$GPRMC,225642.000,A,3748.7655,N,12217.7854,W,2.91,121.81,170412,,,D*7C
$GPVTG,121.81,T,,M,2.91,N,5.4,K,D*08
$GPGGA,225643.000,3748.7649,N,12217.7845,W,2,09,1.1,5.3,M,-25.1,M,4.8,0000*42
$GPGSA,A,3,16,10,08,03,07,23,19,20,13,,,,2.0,1.1,1.7*35
$GPRMC,225643.000,A,3748.7649,N,12217.7845,W,2.65,118.07,170412,,,D*7F
$GPVTG,118.07,T,,M,2.65,N,4.9,K,D*0B
$GPGGA,225644.000,3748.7644,N,12217.7836,W,2,09,1.1,5.7,M,-25.1,M,,0000*6A
$GPGSA,A,3,16,10,08,03,07,23,19,20,13,,,,2.0,1.1,1.7*35
$GPRMC,225644.000,A,3748.7644,N,12217.7836,W,2.55,123.57,170412,,,D*7F
$GPVTG,123.57,T,,M,2.55,N,4.7,K,D*0B
$GPGGA,225645.000,3748.7640,N,12217.7827,W,2,09,1.1,5.8,M,-25.1,M,,0000*60
$GPGSA,A,3,16,10,08,03,07,23,19,20,13,,,,2.0,1.1,1.7*35
$GPRMC,225645.000,A,3748.7640,N,12217.7827,W,2.69,117.74,170412,,,D*73
$GPVTG,117.74,T,,M,2.69,N,5.0,K,D*04
$GPGGA,225646.000,3748.7635,N,12217.7819,W,2,09,1.1,6.0,M,-25.1,M,,0000*67
$GPGSA,A,3,16,10,08,03,07,23,19,20,13,,,,2.0,1.1,1.7*35
$GPRMC,225646.000,A,3748.7635,N,12217.7819,W,2.63,128.31,170412,,,D*78
$GPVTG,128.31,T,,M,2.63,N,4.9,K,D*0B
$GPGGA,225647.000,3748.7630,N,12217.7812,W,2,09,1.1,6.2,M,-25.1,M,1.8,0000*4D
$GPGSA,A,3,16,10,08,03,07,23,19,20,13,,,,2.0,1.1,1.7*35
$GPGSV,3,1,12,13,75,013,29,07,58,294,27,23,58,106,37,10,44,285,29*7B
$GPGSV,3,2,12,16,29,044,24,08,26,263,35,03,26,090,26,06,20,075,22*70
$GPGSV,3,3,12,20,15,176,35,19,12,126,38,30,04,040,19,05,03,326,*75
$GPRMC,225647.000,A,3748.7630,N,12217.7812,W,2.59,127.76,170412,,,D*72
$GPVTG,127.76,T,,M,2.59,N,4.8,K,D*0F
$GPGGA,225648.000,3748.7625,N,12217.7804,W,2,09,1.1,6.2,M,-25.1,M,2.8,0000*42
$GPGSA,A,3,16,10,08,03,07,23,19,20,13,,,,2.0,1.1,1.7*35
$GPRMC,225648.000,A,3748.7625,N,12217.7804,W,2.68,121.97,170412,,,D*75
$GPVTG,121.97,T,,M,2.68,N,5.0,K,D*0D
$GPGGA,225649.000,3748.7621,N,12217.7796,W,2,09,1.1,6.3,M,-25.1,M,3.8,0000*43
$GPGSA,A,3,16,10,08,03,07,23,19,20,13,,,,2.0,1.1,1.7*35
$GPRMC,225649.000,A,3748.7621,N,12217.7796,W,2.72,121.64,170412,,,D*73
$GPVTG,121.64,T,,M,2.72,N,5.0,K,D*0A
$GPGGA,225650.000,3748.7616,N,12217.7788,W,2,09,1.1,6.4,M,-25.1,M,1.8,0000*45
$GPGSA,A,3,16,10,08,03,07,23,19,20,13,,,,2.0,1.1,1.7*35
$GPRMC,225650.000,A,3748.7616,N,12217.7788,W,2.86,130.60,170412,,,D*7F
$GPVTG,130.60,T,,M,2.86,N,5.3,K,D*06
$GPGGA,225651.000,3748.7611,N,12217.7781,W,2,09,1.1,6.5,M,-25.1,M,1.8,0000*4B
$GPGSA,A,3,16,10,08,03,07,23,19,20,13,,,,2.0,1.1,1.7*35
$GPRMC,225651.000,A,3748.7611,N,12217.7781,W,2.65,126.73,170412,,,D*78
$GPVTG,126.73,T,,M,2.65,N,4.9,K,D*05
$GPGGA,225652.000,3748.7606,N,12217.7774,W,2,09,1.1,6.5,M,-25.1,M,1.8,0000*44
$GPGSA,A,3,16,10,08,03,07,23,19,20,13,,,,2.0,1.1,1.7*35
$GPGSV,3,1,12,13,75,013,29,07,58,294,27,23,58,106,36,10,44,285,30*72
$GPGSV,3,2,12,16,29,044,21,08,26,263,34,03,26,090,26,06,20,075,22*74
$GPGSV,3,3,12,20,15,176,37,19,12,126,38,30,04,040,19,05,03,326,*77
$GPRMC,225652.000,A,3748.7606,N,12217.7774,W,2.45,131.90,170412,,,D*7E
$GPVTG,131.90,T,,M,2.45,N,4.5,K,D*00
$GPGGA,225653.000,3748.7602,N,12217.7768,W,2,09,1.1,6.4,M,-25.1,M,1.8,0000*4D
$GPGSA,A,3,16,10,08,03,07,23,19,20,13,,,,2.0,1.1,1.7*35
$GPRMC,225653.000,A,3748.7602,N,12217.7768,W,2.33,135.06,170412,,,D*7C
$GPVTG,135.06,T,,M,2.33,N,4.3,K,D*0C
$GPGGA,225654.000,3748.7599,N,12217.7763,W,2,09,1.1,6.4,M,-25.1,M,1.8,0000*40
$GPGSA,A,3,16,10,08,03,07,23,19,20,13,,,,2.0,1.1,1.7*35
$GPRMC,225654.000,A,3748.7599,N,12217.7763,W,1.23,121.45,170412,,,D*71
$GPVTG,121.45,T,,M,1.23,N,2.3,K,D*0A
$GPGGA,225655.000,3748.7596,N,12217.7760,W,2,09,1.1,7.1,M,-25.1,M,2.8,0000*4A
$GPGSA,A,3,16,10,08,03,07,23,19,20,13,,,,2.0,1.1,1.7*35
$GPRMC,225655.000,A,3748.7596,N,12217.7760,W,0.58,144.35,170412,,,D*75
$GPVTG,144.35,T,,M,0.58,N,1.1,K,D*02
$GPGGA,225656.000,3748.7597,N,12217.7759,W,2,09,1.1,7.0,M,-25.1,M,3.8,0000*42
$GPGSA,A,3,16,10,08,03,07,23,19,20,13,,,,2.0,1.1,1.7*35
$GPRMC,225656.000,A,3748.7597,N,12217.7759,W,1.05,123.68,170412,,,D*7D
$GPVTG,123.68,T,,M,1.05,N,1.9,K,D*0A
$GPGGA,225657.000,3748.7595,N,12217.7754,W,2,09,1.1,7.2,M,-25.1,M,4.8,0000*49
$GPGSA,A,3,16,10,08,03,07,23,19,20,13,,,,2.0,1.1,1.7*35
$GPGSV,3,1,12,13,75,013,28,07,58,294,24,23,58,106,30,10,44,285,26*71
$GPGSV,3,2,12,16,29,044,21,08,26,263,28,03,26,090,20,06,20,075,19*77
$GPGSV,3,3,12,20,15,176,30,19,12,126,38,30,04,040,,05,03,326,*78
$GPVTG,115.77,T,,M,1.85,N,3.4,K,D*06
$GPGGA,225658.000,3748.7594,N,12217.7748,W,2,09,1.1,6.8,M,-25.1,M,1.8,0000*44
$GPGSA,A,3,16,10,08,03,07,23,19,20,13,,,,2.0,1.1,1.7*35
$GPRMC,225658.000,A,3748.7594,N,12217.7748,W,2.31,101.29,170412,,,D*71
$GPVTG,101.29,T,,M,2.31,N,4.3,K,D*04
$GPGGA,225659.000,3748.7592,N,12217.7739,W,2,09,1.1,6.5,M,-25.1,M,2.8,0000*4B
$GPGSA,A,3,16,10,08,03,07,23,19,20,13,,,,2.0,1.1,1.7*35
$GPRMC,225659.000,A,3748.7592,N,12217.7739,W,2.33,105.75,170412,,,D*7F
$GPVTG,105.75,T,,M,2.33,N,4.3,K,D*0B
$GPGGA,225700.000,3748.7589,N,12217.7730,W,2,09,1.1,5.9,M,-25.1,M,3.8,0000*4B
$GPGSA,A,3,16,10,08,03,07,23,19,20,13,,,,2.0,1.1,1.7*35
$GPRMC,225700.000,A,3748.7589,N,12217.7730,W,2.26,102.43,170412,,,D*77
$GPVTG,102.43,T,,M,2.26,N,4.2,K,D*0C
$GPGGA,225701.000,3748.7586,N,12217.7720,W,2,09,1.1,5.5,M,-25.1,M,4.8,0000*4F
$GPGSA,A,3,16,10,08,03,07,23,19,20,13,,,,2.0,1.1,1.7*35
$GPRMC,225701.000,A,3748.7586,N,12217.7720,W,2.26,109.89,170412,,,D*75
$GPVTG,109.89,T,,M,2.26,N,4.2,K,D*01
$GPGGA,225702.000,3748.7580,N,12217.7712,W,2,09,1.1,5.3,M,-25.1,M,1.8,0000*48
$GPGSA,A,3,16,10,08,03,07,23,19,20,13,,,,2.0,1.1,1.7*35
$GPGSV,3,1,12,13,75,013,27,07,58,294,26,23,58,106,34,10,44,285,28*76
$GPGSV,3,2,12,16,29,044,21,08,26,263,27,03,26,090,23,06,20,075,21*70
$GPGSV,3,3,12,20,15,176,25,19,12,126,37,30,04,040,,05,03,326,*73
$GPRMC,225702.000,A,3748.7580,N,12217.7712,W,2.49,129.40,170412,,,D*7F
$GPVTG,129.40,T,,M,2.49,N,4.6,K,D*0B
$GPGGA,225703.000,3748.7574,N,12217.7705,W,2,09,1.1,5.9,M,-25.1,M,1.8,0000*4E
$GPGSA,A,3,16,10,08,03,07,23,19,20,13,,,,2.0,1.1,1.7*35
$GPRMC,225703.000,A,3748.7574,N,12217.7705,W,2.43,136.03,170412,,,D*70
$GPVTG,136.03,T,,M,2.43,N,4.5,K,D*0B
$GPGGA,225704.000,3748.7568,N,12217.7696,W,2,09,1.1,7.0,M,-25.1,M,1.8,0000*44
$GPGSA,A,3,16,10,08,03,07,23,19,20,13,,,,2.0,1.1,1.7*35
$GPRMC,225704.000,A,3748.7568,N,12217.7696,W,2.18,138.89,170412,,,D*73
$GPVTG,138.89,T,,M,2.18,N,4.0,K,D*0C
$GPGGA,225705.000,3748.7564,N,12217.7689,W,2,09,1.1,7.2,M,-25.1,M,2.8,0000*46
$GPGSA,A,3,16,10,08,03,07,23,19,20,13,,,,2.0,1.1,1.7*35
$GPRMC,225705.000,A,3748.7564,N,12217.7689,W,2.15,133.74,170412,,,D*74
$GPVTG,133.74,T,,M,2.15,N,4.0,K,D*08
$GPGGA,225706.000,3748.7560,N,12217.7682,W,2,09,1.1,7.4,M,-25.1,M,3.8,0000*4D
$GPGSA,A,3,16,10,08,03,07,23,19,20,13,,,,2.0,1.1,1.7*35
$GPRMC,225706.000,A,3748.7560,N,12217.7682,W,1.97,127.67,170412,,,D*76
$GPVTG,127.67,T,,M,1.97,N,3.6,K,D*07
$GPGGA,225707.000,3748.7556,N,12217.7674,W,2,09,1.1,7.7,M,-25.1,M,1.8,0000*41
$GPGSA,A,3,16,10,08,03,07,23,19,20,13,,,,2.0,1.1,1.7*35
$GPGSV,3,1,12,13,75,013,29,07,58,294,26,23,58,106,35,10,44,285,28*79
$GPGSV,3,2,12,16,29,044,21,08,26,263,27,03,26,090,24,06,20,075,22*74
$GPGSV,3,3,12,20,15,176,21,19,12,126,37,30,04,040,,05,03,326,*77
$GPRMC,225707.000,A,3748.7556,N,12217.7674,W,1.78,133.22,170412,,,D*7E
$GPVTG,133.22,T,,M,1.78,N,3.3,K,D*07
$GPGGA,225708.000,3748.7551,N,12217.7666,W,2,09,1.1,8.6,M,-25.1,M,1.8,0000*44
$GPGSA,A,3,16,10,08,03,07,23,19,20,13,,,,2.0,1.1,1.7*35
$GPRMC,225708.000,A,3748.7551,N,12217.7666,W,1.96,137.38,170412,,,D*7A
$GPVTG,137.38,T,,M,1.96,N,3.6,K,D*0D
$GPGGA,225709.000,3748.7547,N,12217.7659,W,2,09,1.1,9.1,M,-25.1,M,1.8,0000*48
$GPGSA,A,3,16,10,08,03,07,23,19,20,13,,,,2.0,1.1,1.7*35
$GPRMC,225709.000,A,3748.7547,N,12217.7659,W,1.85,132.93,170412,,,D*76
$GPVTG,132.93,T,,M,1.85,N,3.4,K,D*09
$GPGGA,225710.000,3748.7544,N,12217.7653,W,2,09,1.1,8.6,M,-25.1,M,1.8,0000*4F
$GPGSA,A,3,16,10,08,03,07,23,19,20,13,,,,2.0,1.1,1.7*35
$GPRMC,225710.000,A,3748.7544,N,12217.7653,W,2.10,121.64,170412,,,D*72
$GPVTG,121.64,T,,M,2.10,N,3.9,K,D*01
$GPGGA,225711.000,3748.7539,N,12217.7647,W,2,09,1.1,8.5,M,-25.1,M,2.8,0000*41
$GPGSA,A,3,16,10,08,03,07,23,19,20,13,,,,2.0,1.1,1.7*35
$GPRMC,225711.000,A,3748.7539,N,12217.7647,W,2.25,130.65,170412,,,D*7B
$GPVTG,130.65,T,,M,2.25,N,4.2,K,D*0A
$GPGGA,225712.000,3748.7536,N,12217.7641,W,2,09,1.1,8.3,M,-25.1,M,3.8,0000*4C
$GPGSA,A,3,16,10,08,03,07,23,19,20,13,,,,2.0,1.1,1.7*35
$GPGSV,3,1,12,13,75,013,29,07,58,294,26,23,58,106,35,10,44,285,29*78
$GPGSV,3,2,12,16,29,044,20,08,26,263,32,03,26,090,23,06,20,075,19*7E
$GPGSV,3,3,12,20,15,176,31,19,12,126,36,30,04,040,,05,03,326,*77
$GPRMC,225712.000,A,3748.7536,N,12217.7641,W,2.38,121.77,170412,,,D*7E
$GPVTG,121.77,T,,M,2.38,N,4.4,K,D*03
$GPGGA,225713.000,3748.7532,N,12217.7634,W,2,09,1.1,8.2,M,-25.1,M,4.8,0000*4D
$GPGSA,A,3,16,10,08,03,07,23,19,20,13,,,,2.0,1.1,1.7*35
$GPRMC,225713.000,A,3748.7532,N,12217.7634,W,2.38,121.96,170412,,,D*76
$GPVTG,121.96,T,,M,2.38,N,4.4,K,D*0C
$GPGGA,225714.000,3748.7529,N,12217.7627,W,2,09,1.1,8.0,M,-25.1,M,0.8,0000*44
$GPGSA,A,3,16,10,08,03,07,23,19,20,13,,,,2.0,1.1,1.7*35
$GPRMC,225714.000,A,3748.7529,N,12217.7627,W,2.32,112.41,170412,,,D*79
$GPVTG,112.41,T,,M,2.32,N,4.3,K,D*0B
$GPGGA,225715.000,3748.7526,N,12217.7619,W,2,09,1.1,7.8,M,-25.1,M,1.8,0000*41
$GPGSA,A,3,16,10,08,03,07,23,19,20,13,,,,2.0,1.1,1.7*35
$GPRMC,225715.000,A,3748.7526,N,12217.7619,W,2.53,109.07,170412,,,D*75
$GPVTG,109.07,T,,M,2.53,N,4.7,K,D*00
$GPGGA,225716.000,3748.7522,N,12217.7611,W,2,09,1.1,8.1,M,-25.1,M,1.8,0000*48
$GPGSA,A,3,16,10,08,03,07,23,19,20,13,,,,2.0,1.1,1.7*35
$GPRMC,225716.000,A,3748.7522,N,12217.7611,W,2.46,115.16,170412,,,D*73
$GPVTG,115.16,T,,M,2.46,N,4.6,K,D*08
$GPGGA,225717.000,3748.7517,N,12217.7604,W,2,09,1.1,8.2,M,-25.1,M,1.8,0000*48
$GPGSA,A,3,16,10,08,03,07,23,19,20,13,,,,2.0,1.1,1.7*35
$GPGSV,3,1,12,13,75,013,29,07,58,294,26,23,58,106,30,10,44,285,29*7D
$GPGSV,3,2,12,16,29,044,20,08,26,263,32,03,26,090,23,06,20,075,20*74
$GPRMC,225717.000,A,3748.7517,N,12217.7604,W,2.73,126.41,170412,,,D*74
$GPVTG,126.41,T,,M,2.73,N,5.1,K,D*0A
$GPGGA,225718.000,3748.7512,N,12217.7596,W,2,09,1.1,7.9,M,-25.1,M,2.8,0000*4D
$GPGSA,A,3,16,10,08,03,07,23,19,20,13,,,,2.0,1.1,1.7*35
$GPRMC,225718.000,A,3748.7512,N,12217.7596,W,2.41,122.21,170412,,,D*75
$GPVTG,122.21,T,,M,2.41,N,4.5,K,D*0C
$GPGGA,225719.000,3748.7508,N,12217.7588,W,2,09,1.1,7.2,M,-25.1,M,3.8,0000*42
$GPGSA,A,3,16,10,08,03,07,23,19,20,13,,,,2.0,1.1,1.7*35
$GPRMC,225719.000,A,3748.7508,N,12217.7588,W,2.44,119.11,170412,,,D*7E
$GPVTG,119.11,T,,M,2.44,N,4.5,K,D*02
$GPGGA,225720.000,3748.7509,N,12217.7579,W,2,09,1.1,5.9,M,-25.1,M,1.8,0000*4C
$GPGSA,A,3,16,10,08,03,07,23,19,20,13,,,,2.0,1.1,1.7*35
$GPRMC,225720.000,A,3748.7509,N,12217.7579,W,2.34,115.67,170412,,,D*71
$GPVTG,115.67,T,,M,2.34,N,4.3,K,D*0E
$GPGGA,225721.000,3748.7509,N,12217.7569,W,2,09,1.1,5.2,M,-25.1,M,1.8,0000*47
$GPGSA,A,3,16,10,08,03,07,23,19,20,13,,,,2.0,1.1,1.7*35
$GPRMC,225721.000,A,3748.7509,N,12217.7569,W,2.17,110.60,170412,,,D*72
$GPVTG,110.60,T,,M,2.17,N,4.0,K,D*0E
$GPGGA,225722.000,3748.7507,N,12217.7561,W,2,09,1.1,4.8,M,-25.1,M,1.8,0000*49
$GPGSA,A,3,16,10,08,03,07,23,19,20,13,,,,2.0,1.1,1.7*35
$GPGSV,3,1,12,13,75,013,29,07,58,294,26,23,58,106,34,10,44,285,29*79
$GPGSV,3,2,12,16,29,044,21,08,26,263,32,03,26,090,35,06,20,075,34*77
$GPGSV,3,3,12,20,15,176,35,19,12,126,29,30,04,040,20,05,03,326,*7F
$GPRMC,225722.000,A,3748.7507,N,12217.7561,W,2.36,116.17,170412,,,D*72
$GPVTG,116.17,T,,M,2.36,N,4.4,K,D*0F
$GPGGA,225723.000,3748.7491,N,12217.7559,W,2,09,1.1,7.4,M,-25.1,M,1.8,0000*42
$GPGSA,A,3,16,10,08,03,07,23,19,20,13,,,,2.0,1.1,1.7*35
$GPRMC,225723.000,A,3748.7491,N,12217.7559,W,2.23,118.29,170412,,,D*71
$GPVTG,118.29,T,,M,2.23,N,4.1,K,D*0D
$GPGGA,225724.000,3748.7482,N,12217.7553,W,2,09,1.1,8.6,M,-25.1,M,2.8,0000*43
$GPGSA,A,3,16,10,08,03,07,23,19,20,13,,,,2.0,1.1,1.7*35
$GPRMC,225724.000,A,3748.7482,N,12217.7553,W,2.35,121.54,170412,,,D*79
$GPVTG,121.54,T,,M,2.35,N,4.3,K,D*08
$GPGGA,225725.000,3748.7477,N,12217.7545,W,2,09,1.1,9.2,M,-25.1,M,3.8,0000*4B
$GPGSA,A,3,16,10,08,03,07,23,19,20,13,,,,2.0,1.1,1.7*35
$GPRMC,225725.000,A,3748.7477,N,12217.7545,W,2.43,112.89,170412,,,D*74
$GPVTG,112.89,T,,M,2.43,N,4.5,K,D*0F
$GPGGA,225726.000,3748.7476,N,12217.7536,W,2,09,1.1,8.9,M,-25.1,M,1.8,0000*45
$GPGSA,A,3,16,10,08,03,07,23,19,20,13,,,,2.0,1.1,1.7*35
$GPRMC,225726.000,A,3748.7476,N,12217.7536,W,2.34,118.96,170412,,,D*76
$GPVTG,118.96,T,,M,2.34,N,4.3,K,D*0D
$GPGGA,225727.000,3748.7472,N,12217.7528,W,2,09,1.1,8.9,M,-25.1,M,1.8,0000*4F
$GPGSA,A,3,16,10,08,03,07,23,19,20,13,,,,2.0,1.1,1.7*35
$GPGSV,3,1,12,13,75,013,29,07,58,294,26,23,58,106,34,10,44,285,29*79
$GPGSV,3,2,12,16,29,044,30,08,26,263,32,03,26,090,37,06,20,075,29*79
$GPGSV,3,3,12,20,15,176,36,19,12,126,22,30,04,040,20,05,03,326,*77
$GPRMC,225727.000,A,3748.7472,N,12217.7528,W,2.45,116.13,170412,,,D*79
$GPVTG,116.13,T,,M,2.45,N,4.5,K,D*0E
$GPGGA,225728.000,3748.7470,N,12217.7520,W,2,09,1.1,8.8,M,-25.1,M,1.8,0000*4B
$GPGSA,A,3,16,10,08,03,07,23,19,20,13,,,,2.0,1.1,1.7*35
$GPRMC,225728.000,A,3748.7470,N,12217.7520,W,2.24,106.46,170412,,,D*7A
$GPVTG,106.46,T,,M,2.24,N,4.1,K,D*0C
$GPGGA,225729.000,3748.7467,N,12217.7513,W,2,09,1.1,9.0,M,-25.1,M,2.8,0000*46
$GPGSA,A,3,16,10,08,03,07,23,19,20,13,,,,2.0,1.1,1.7*35
$GPRMC,225729.000,A,3748.7467,N,12217.7513,W,2.04,111.75,170412,,,D*79
$GPVTG,111.75,T,,M,2.04,N,3.8,K,D*06
$GPGGA,225730.000,3748.7462,N,12217.7507,W,2,09,1.1,9.6,M,-25.1,M,3.8,0000*49
$GPGSA,A,3,16,10,08,03,07,23,19,20,13,,,,2.0,1.1,1.7*35
$GPRMC,225730.000,A,3748.7462,N,12217.7507,W,2.41,116.84,170412,,,D*79
$GPVTG,116.84,T,,M,2.41,N,4.5,K,D*04
$GPGGA,225731.000,3748.7458,N,12217.7500,W,2,09,1.1,10.1,M,-25.1,M,4.8,0000*7E
$GPGSA,A,3,16,10,08,03,07,23,19,20,13,,,,2.0,1.1,1.7*35
$GPRMC,225731.000,A,3748.7458,N,12217.7500,W,2.02,114.44,170412,,,D*7F
$GPVTG,114.44,T,,M,2.02,N,3.7,K,D*08
$GPGGA,225732.000,3748.7455,N,12217.7493,W,2,09,1.1,11.0,M,-25.1,M,5.8,0000*7A
$GPGSA,A,3,16,10,08,03,07,23,19,20,13,,,,2.0,1.1,1.7*35
$GPGSV,3,1,12,13,75,013,29,07,58,294,26,23,58,106,34,10,44,285,30*71
$GPGSV,3,2,12,16,29,044,30,08,26,263,30,03,26,090,27,06,20,075,25*76
$GPGSV,3,3,12,20,15,176,36,19,12,126,30,30,04,040,19,05,03,326,*7E
$GPRMC,225732.000,A,3748.7455,N,12217.7493,W,2.30,116.35,170412,,,D*7F
$GPVTG,116.35,T,,M,2.30,N,4.3,K,D*0E
$GPGGA,225733.000,3748.7451,N,12217.7486,W,2,09,1.1,11.5,M,-25.1,M,6.8,0000*7D
$GPGSA,A,3,16,10,08,03,07,23,19,20,13,,,,2.0,1.1,1.7*35
$GPRMC,225733.000,A,3748.7451,N,12217.7486,W,2.13,126.88,170412,,,D*7A
$GPVTG,126.88,T,,M,2.13,N,3.9,K,D*07
$GPGGA,225734.000,3748.7447,N,12217.7479,W,2,09,1.1,11.6,M,-25.1,M,7.8,0000*7F
$GPGSA,A,3,16,10,08,03,07,23,19,20,13,,,,2.0,1.1,1.7*35
$GPRMC,225734.000,A,3748.7447,N,12217.7479,W,2.38,127.47,170412,,,D*71
$GPVTG,127.47,T,,M,2.38,N,4.4,K,D*06
$GPGGA,225735.000,3748.7443,N,12217.7473,W,2,09,1.1,11.9,M,-25.1,M,8.8,0000*70
$GPGSA,A,3,16,10,08,03,07,23,19,20,13,,,,2.0,1.1,1.7*35
$GPRMC,225735.000,A,3748.7443,N,12217.7473,W,2.27,125.46,170412,,,D*73
$GPVTG,125.46,T,,M,2.27,N,4.2,K,D*0D
$GPGGA,225736.000,3748.7441,N,12217.7467,W,2,09,1.1,11.7,M,-25.1,M,9.8,0000*7B
$GPGSA,A,3,16,10,08,03,07,23,19,20,13,,,,2.0,1.1,1.7*35
$GPRMC,225736.000,A,3748.7441,N,12217.7467,W,2.22,119.80,170412,,,D*77
$GPVTG,119.80,T,,M,2.22,N,4.1,K,D*0E
$GPGGA,225737.000,3748.7439,N,12217.7460,W,2,09,1.1,11.7,M,-25.1,M,10.8,0000*4A
$GPGSA,A,3,16,10,08,03,07,23,19,20,13,,,,2.0,1.1,1.7*35
$GPGSV,3,1,12,13,75,013,29,07,58,294,27,23,58,106,32,10,44,285,30*76
$GPGSV,3,2,12,16,29,044,22,08,26,263,31,03,26,090,37,06,20,075,25*75
$GPGSV,3,3,12,20,15,176,36,19,12,126,28,30,04,040,18,05,03,326,*76
$GPRMC,225737.000,A,3748.7439,N,12217.7460,W,2.06,115.54,170412,,,D*7D
$GPVTG,115.54,T,,M,2.06,N,3.8,K,D*03
$GPGGA,225738.000,3748.7434,N,12217.7452,W,2,09,1.1,11.6,M,-25.1,M,11.8,0000*49
$GPGSA,A,3,16,10,08,03,07,23,19,20,13,,,,2.0,1.1,1.7*35
$GPRMC,225738.000,A,3748.7434,N,12217.7452,W,2.37,121.35,170412,,,D*7C
$GPVTG,121.35,T,,M,2.37,N,4.4,K,D*0A
$GPGGA,225739.000,3748.7431,N,12217.7443,W,2,09,1.1,11.4,M,-25.1,M,12.8,0000*4C
$GPGSA,A,3,16,10,08,03,07,23,19,20,13,,,,2.0,1.1,1.7*35
$GPRMC,225739.000,A,3748.7431,N,12217.7443,W,2.03,118.91,170412,,,D*7B
$GPVTG,118.91,T,,M,2.03,N,3.8,K,D*02
$GPGGA,225740.000,3748.7427,N,12217.7433,W,2,09,1.1,11.1,M,-25.1,M,13.8,0000*46
$GPGSA,A,3,16,10,08,03,07,23,19,20,13,,,,2.0,1.1,1.7*35
$GPRMC,225740.000,A,3748.7427,N,12217.7433,W,2.17,125.03,170412,,,D*75
$GPVTG,125.03,T,,M,2.17,N,4.0,K,D*0D
$GPGGA,225741.000,3748.7423,N,12217.7424,W,2,09,1.1,10.8,M,-25.1,M,14.8,0000*4A
$GPGSA,A,3,16,10,08,03,07,23,19,20,13,,,,2.0,1.1,1.7*35
$GPRMC,225741.000,A,3748.7423,N,12217.7424,W,1.82,120.31,170412,,,D*7D
$GPVTG,120.31,T,,M,1.82,N,3.4,K,D*05
$GPGGA,225742.000,3748.7419,N,12217.7416,W,2,09,1.1,10.7,M,-25.1,M,15.8,0000*4F
$GPGSA,A,3,16,10,08,03,07,23,19,20,13,,,,2.0,1.1,1.7*35
$GPGSV,3,1,12,13,75,013,27,07,58,294,27,23,58,106,33,10,44,285,26*7E
$GPGSV,3,2,12,16,29,044,25,08,26,263,28,03,26,090,36,06,20,075,27*79
$GPGSV,3,3,12,20,15,176,39,19,12,126,29,30,04,040,18,05,03,326,*78
$GPVTG,124.28,T,,M,1.97,N,3.7,K,D*0E
$GPGGA,225743.000,3748.7413,N,12217.7407,W,2,09,1.1,11.6,M,-25.1,M,16.8,0000*47
$GPGSA,A,3,16,10,08,03,07,23,19,20,13,,,,2.0,1.1,1.7*35
$GPRMC,225743.000,A,3748.7413,N,12217.7407,W,2.03,118.80,170412,,,D*76
$GPVTG,118.80,T,,M,2.03,N,3.8,K,D*02
$GPGGA,225744.000,3748.7410,N,12217.7397,W,2,09,1.1,11.7,M,-25.1,M,1.8,0000*7A
$GPGSA,A,3,16,10,08,03,07,23,19,20,13,,,,2.0,1.1,1.7*35
$GPRMC,225744.000,A,3748.7410,N,12217.7397,W,1.76,119.21,170412,,,D*77
$GPVTG,119.21,T,,M,1.76,N,3.3,K,D*02
$GPGGA,225745.000,3748.7407,N,12217.7391,W,2,09,1.1,10.9,M,-25.1,M,2.8,0000*77
$GPGSA,A,3,16,10,08,03,07,23,19,20,13,,,,2.0,1.1,1.7*35
$GPRMC,225745.000,A,3748.7407,N,12217.7391,W,1.84,117.91,170412,,,D*7E
$GPVTG,117.91,T,,M,1.84,N,3.4,K,D*0D
$GPGGA,225746.000,3748.7405,N,12217.7386,W,2,09,1.1,10.3,M,-25.1,M,3.8,0000*7B
$GPGSA,A,3,16,10,08,03,07,23,19,20,13,,,,2.0,1.1,1.7*35
$GPRMC,225746.000,A,3748.7405,N,12217.7386,W,1.30,112.92,170412,,,D*70
$GPVTG,112.92,T,,M,1.30,N,2.4,K,D*05
$GPGGA,225747.000,3748.7403,N,12217.7380,W,2,09,1.1,10.1,M,-25.1,M,4.8,0000*7F
$GPGSA,A,3,16,10,08,03,07,23,19,20,13,,,,2.0,1.1,1.7*35
$GPGSV,3,1,12,13,75,015,27,07,58,295,25,23,58,106,34,10,44,285,26*7C
$GPGSV,3,2,12,16,29,044,27,08,27,263,28,03,26,090,33,06,20,074,27*7E
$GPGSV,3,3,12,20,15,176,39,19,13,125,27,05,03,325,,30,03,040,*79
$GPRMC,225747.000,A,3748.7403,N,12217.7380,W,2.03,111.95,170412,,,D*76
$GPVTG,111.95,T,,M,2.03,N,3.8,K,D*0F
$GPGGA,225748.000,3748.7400,N,12217.7374,W,2,09,1.1,9.7,M,-25.1,M,5.8,0000*47
$GPGSA,A,3,16,10,08,03,07,23,19,20,13,,,,2.0,1.1,1.7*35
$GPRMC,225748.000,A,3748.7400,N,12217.7374,W,1.83,124.49,170412,,,D*7D
$GPVTG,124.49,T,,M,1.83,N,3.4,K,D*0F
$GPGGA,225749.000,3748.7397,N,12217.7367,W,2,09,1.1,9.5,M,-25.1,M,6.8,0000*4C
$GPGSA,A,3,16,10,08,03,07,23,19,20,13,,,,2.0,1.1,1.7*35
$GPRMC,225749.000,A,3748.7397,N,12217.7367,W,1.98,117.32,170412,,,D*71
$GPVTG,117.32,T,,M,1.98,N,3.7,K,D*0A
$GPGGA,225750.000,3748.7395,N,12217.7359,W,2,09,1.1,9.5,M,-25.1,M,7.8,0000*4A
$GPGSA,A,3,16,10,08,03,07,23,19,20,13,,,,2.0,1.1,1.7*35
$GPRMC,225750.000,A,3748.7395,N,12217.7359,W,2.22,118.17,170412,,,D*7C
$GPVTG,118.17,T,,M,2.22,N,4.1,K,D*01
$GPGGA,225751.000,3748.7394,N,12217.7352,W,2,09,1.1,8.3,M,-25.1,M,8.8,0000*49
$GPGSA,A,3,16,10,08,03,07,23,19,20,13,,,,2.0,1.1,1.7*35
$GPRMC,225751.000,A,3748.7394,N,12217.7352,W,1.98,118.14,170412,,,D*76
$GPVTG,118.14,T,,M,1.98,N,3.7,K,D*01
$GPGGA,225752.000,3748.7389,N,12217.7341,W,2,09,1.1,8.1,M,-25.1,M,9.8,0000*47
$GPGSA,A,3,16,10,08,03,07,23,19,20,13,,,,2.0,1.1,1.7*35
$GPGSV,3,1,12,13,75,015,26,07,58,295,24,23,58,106,31,10,44,285,26*79
$GPGSV,3,2,12,16,29,044,23,08,27,263,29,03,26,090,39,06,20,074,27*71
$GPGSV,3,3,12,20,15,176,39,19,13,125,36,05,03,325,,30,03,040,*79
$GPRMC,225752.000,A,3748.7389,N,12217.7341,W,1.53,115.41,170412,,,D*71
$GPVTG,115.41,T,,M,1.53,N,2.8,K,D*05
$GPGGA,225753.000,3748.7387,N,12217.7336,W,2,09,1.1,7.8,M,-25.1,M,10.8,0000*76
$GPGSA,A,3,16,10,08,03,07,23,19,20,13,,,,2.0,1.1,1.7*35
$GPRMC,225753.000,A,3748.7387,N,12217.7336,W,1.47,115.88,170412,,,D*7E
$GPVTG,115.88,T,,M,1.47,N,2.7,K,D*0A
$GPGGA,225754.000,3748.7383,N,12217.7328,W,2,09,1.1,7.4,M,-25.1,M,11.8,0000*77
$GPGSA,A,3,16,10,08,03,07,23,19,20,13,,,,2.0,1.1,1.7*35
$GPRMC,225754.000,A,3748.7383,N,12217.7328,W,2.48,119.13,170412,,,D*70
$GPVTG,119.13,T,,M,2.48,N,4.6,K,D*0F
$GPGGA,225755.000,3748.7379,N,12217.7320,W,2,09,1.1,7.8,M,-25.1,M,12.8,0000*74
$GPGSA,A,3,16,10,08,03,07,23,19,20,13,,,,2.0,1.1,1.7*35
$GPRMC,225755.000,A,3748.7379,N,12217.7320,W,2.07,117.05,170412,,,D*7E
$GPVTG,117.05,T,,M,2.07,N,3.8,K,D*04
$GPGGA,225756.000,3748.7376,N,12217.7312,W,2,09,1.1,8.1,M,-25.1,M,1.8,0000*4D
$GPGSA,A,3,16,10,08,03,07,23,19,20,13,,,,2.0,1.1,1.7*35
$GPRMC,225756.000,A,3748.7376,N,12217.7312,W,2.24,113.31,170412,,,D*71
$GPVTG,113.31,T,,M,2.24,N,4.1,K,D*08
$GPGGA,225757.000,3748.7368,N,12217.7303,W,2,09,1.1,9.2,M,-25.1,M,1.8,0000*41
$GPGSA,A,3,16,10,08,03,07,23,19,20,13,,,,2.0,1.1,1.7*35
$GPGSV,3,1,12,13,75,015,28,07,58,295,23,23,58,106,34,10,44,285,26*75
$GPGSV,3,2,12,16,29,044,30,08,27,263,28,03,26,090,31,06,20,074,21*7C
$GPGSV,3,3,12,20,15,176,26,19,13,125,39,05,03,325,,30,03,040,*78
$GPRMC,225757.000,A,3748.7368,N,12217.7303,W,2.35,125.61,170412,,,D*7F
$GPVTG,125.61,T,,M,2.35,N,4.3,K,D*0A
