$ADVER,3080,2.3
$GPRMC,230658.801,A,3748.8001,N,12217.8698,W,0.14,63.20,050411,,,A*45
$GPGGA,230659.801,3748.8002,N,12217.8698,W,1,03,4.4,25.1,M,-25.1,M,,0000*58
$GPGSA,A,2,16,30,23,,,,,,,,,,4.5,4.4,1.0*36
$GPRMC,230659.801,A,3748.8002,N,12217.8698,W,0.31,62.71,050411,,,A*45
$GPVTG,62.71,T,,M,0.31,N,0.6,K,N*34
$GPGGA,230700.805,3748.8002,N,12217.8698,W,1,03,4.4,25.1,M,-25.1,M,,0000*51
$GPGSA,A,2,16,30,23,,,,,,,,,,4.5,4.4,1.0*36
$GPRMC,230700.805,A,3748.8002,N,12217.8698,W,0.05,105.28,050411,,,A*77
$GPVTG,105.28,T,,M,0.05,N,0.1,K,N*08
$GPGGA,230701.801,3748.7999,N,12217.8698,W,1,03,4.4,25.1,M,-25.1,M,,0000*50
$GPGSA,A,2,16,30,23,,,,,,,,,,4.5,4.4,1.0*36
$GPGSV,3,1,12,23,68,000,33,16,48,091,37,30,39,063,35,20,63,186,39*78
$GPGSV,3,2,12,13,42,306,28,07,22,240,,04,15,295,,10,07,319,26*76
$GPGSV,3,3,12,31,06,051,25,24,04,194,24,03,02,129,,06,00,115,*7D
$GPRMC,230701.801,A,3748.7999,N,12217.8698,W,0.30,165.41,050411,,,A*79
$GPVTG,165.41,T,,M,0.30,N,0.5,K,N*03
$GPGGA,230702.801,3748.7995,N,12217.8707,W,1,03,4.4,25.1,M,-25.1,M,,0000*58
$GPGSA,A,2,16,30,23,,,,,,,,,,4.5,4.4,1.0*36
$GPRMC,230702.801,A,3748.7995,N,12217.8707,W,1.02,85.78,050411,,,A*44
$GPVTG,85.78,T,,M,1.02,N,1.9,K,N*3B
$GPGGA,230703.801,3748.7991,N,12217.8713,W,1,03,4.4,25.1,M,-25.1,M,,0000*58
$GPGSA,A,2,16,30,23,,,,,,,,,,4.5,4.4,1.0*36
$GPRMC,230703.801,A,3748.7991,N,12217.8713,W,0.50,83.61,050411,,,A*4C
$GPVTG,83.61,T,,M,0.50,N,0.9,K,N*32
$GPGGA,230704.801,3748.7993,N,12217.8715,W,1,03,4.4,25.1,M,-25.1,M,,0000*5B
$GPGSA,A,2,16,30,23,,,,,,,,,,4.5,4.4,1.0*36
$GPRMC,230704.801,A,3748.7993,N,12217.8715,W,0.15,95.52,050411,,,A*49
$GPVTG,95.52,T,,M,0.15,N,0.3,K,N*3E
$GPGGA,230705.801,3748.7992,N,12217.8714,W,1,03,4.4,25.1,M,-25.1,M,,0000*5A
$GPGSA,A,2,16,30,23,,,,,,,,,,4.5,4.4,1.0*36
$GPRMC,230705.801,A,3748.7992,N,12217.8714,W,0.27,145.64,050411,,,A*70
$GPVTG,145.64,T,,M,0.27,N,0.5,K,N*00
$GPGGA,230706.805,3748.7996,N,12217.8703,W,1,03,4.4,25.1,M,-25.1,M,,0000*5F
$GPGSA,A,2,16,30,23,,,,,,,,,,4.5,4.4,1.0*36
$GPGSV,3,1,12,23,68,000,28,16,48,091,34,30,39,063,30,20,63,186,36*7B
$GPGSV,3,2,12,13,42,306,23,07,22,240,21,04,15,295,23,10,07,319,22*7B
$GPGSV,3,3,12,31,06,051,27,24,04,194,27,03,02,129,,06,00,115,*7C
$GPRMC,230706.805,A,3748.7996,N,12217.8703,W,0.52,43.77,050411,,,A*42
$GPGGA,230707.801,3748.7999,N,12217.8703,W,1,03,4.4,25.1,M,-25.1,M,,0000*55
$GPGSA,A,2,16,30,23,,,,,,,,,,4.5,4.4,1.0*36
$GPRMC,230707.801,A,3748.7999,N,12217.8703,W,0.19,81.40,050411,,,A*4D
$GPVTG,81.40,T,,M,0.19,N,0.3,K,N*34
$GPGGA,230708.800,3748.8001,N,12217.8706,W,1,03,4.4,25.1,M,-25.1,M,,0000*59
$GPGSA,A,2,16,30,23,,,,,,,,,,4.5,4.4,1.0*36
$GPRMC,230708.800,A,3748.8001,N,12217.8706,W,0.11,46.18,050411,,,A*4F
$GPVTG,46.18,T,,M,0.11,N,0.2,K,N*3B
$GPGGA,230709.800,3748.8001,N,12217.8717,W,1,03,4.4,25.1,M,-25.1,M,,0000*58
$GPGSA,A,2,16,30,23,,,,,,,,,,4.5,4.4,1.0*36
$GPRMC,230709.800,A,3748.8001,N,12217.8717,W,0.30,57.11,050411,,,A*44
$GPVTG,57.11,T,,M,0.30,N,0.6,K,N*35
$GPGGA,230710.804,3748.7999,N,12217.8716,W,1,03,4.4,25.1,M,-25.1,M,,0000*52
$GPGSA,A,2,16,30,23,,,,,,,,,,4.5,4.4,1.0*36
$GPRMC,230710.804,A,3748.7999,N,12217.8716,W,0.21,125.64,050411,,,A*78
$GPVTG,125.64,T,,M,0.21,N,0.4,K,N*01
$GPGGA,230711.804,3748.7998,N,12217.8715,W,1,03,4.4,25.1,M,-25.1,M,,0000*51
$GPGSA,A,2,16,30,23,,,,,,,,,,4.5,4.4,1.0*36
$GPGSV,3,1,12,23,68,000,28,16,48,091,35,30,39,063,30,20,63,186,37*7B
$GPGSV,3,2,12,32,42,153,39,13,42,306,21,07,22,240,22,04,15,294,23*7C
$GPGSV,3,3,12,10,07,319,25,31,06,051,32,24,04,194,22,03,02,129,*74
$GPRMC,230711.804,A,3748.7998,N,12217.8715,W,0.22,91.36,050411,,,A*41
$GPVTG,91.36,T,,M,0.22,N,0.4,K,N*3B
$GPGGA,230712.804,3748.7998,N,12217.8715,W,1,03,4.4,25.1,M,-25.1,M,,0000*52
$GPGSA,A,2,16,30,23,,,,,,,,,,4.5,4.4,1.0*36
$GPRMC,230712.804,A,3748.7998,N,12217.8715,W,0.16,42.63,050411,,,A*4B
$GPVTG,42.63,T,,M,0.16,N,0.3,K,N*35
$GPGGA,230713.804,3748.7997,N,12217.8699,W,1,03,4.4,25.1,M,-25.1,M,,0000*59
$GPGSA,A,2,16,30,23,,,,,,,,,,4.5,4.4,1.0*36
$GPRMC,230713.804,A,3748.7997,N,12217.8699,W,1.33,278.08,050411,,,A*70
$GPVTG,278.08,T,,M,1.33,N,2.5,K,N*01
$GPGGA,230714.804,3748.7997,N,12217.8692,W,1,03,4.4,25.1,M,-25.1,M,,0000*55
$GPGSA,A,2,16,30,23,,,,,,,,,,4.5,4.4,1.0*36
$GPRMC,230714.804,A,3748.7997,N,12217.8692,W,0.43,89.56,050411,,,A*4D
$GPVTG,89.56,T,,M,0.43,N,0.8,K,N*3F
$GPGGA,230715.804,3748.7994,N,12217.8687,W,1,03,4.4,25.1,M,-25.1,M,,0000*53
$GPGSA,A,2,16,30,23,,,,,,,,,,4.5,4.4,1.0*36
$GPRMC,230715.804,A,3748.7994,N,12217.8687,W,1.04,103.91,050411,,,A*71
$GPVTG,103.91,T,,M,1.04,N,1.9,K,N*05
$GPGGA,230716.804,3748.7991,N,12217.8688,W,1,03,4.4,25.1,M,-25.1,M,,0000*5A
$GPGSA,A,2,16,30,23,,,,,,,,,,4.5,4.4,1.0*36
$GPGSV,3,1,12,23,68,000,28,16,48,091,37,30,39,063,32,20,63,186,37*7B
$GPGSV,3,2,12,32,42,153,41,13,42,306,29,07,22,240,22,04,15,294,20*78
$GPGSV,3,3,12,10,07,319,29,31,06,051,29,24,04,194,28,03,02,129,*78
$GPVTG,161.31,T,,M,1.47,N,2.7,K,N*01
$GPGGA,230717.800,3748.7920,N,12217.8739,W,1,03,4.4,25.1,M,-25.1,M,,0000*5E
$GPGSA,A,2,16,30,23,,,,,,,,,,4.5,4.4,1.0*36
$GPRMC,230717.800,A,3748.7920,N,12217.8739,W,1.64,157.97,050411,,,A*7D
$GPVTG,157.97,T,,M,1.64,N,3.0,K,N*0F
$GPGGA,230718.804,3748.7956,N,12217.8711,W,1,03,4.4,25.1,M,-25.1,M,,0000*5E
$GPGSA,A,2,16,30,23,,,,,,,,,,4.5,4.4,1.0*36
$GPRMC,230718.804,A,3748.7956,N,12217.8711,W,1.89,68.98,050411,,,A*4C
$GPVTG,68.98,T,,M,1.89,N,3.5,K,N*3B
$GPGGA,230719.804,3748.7949,N,12217.8717,W,1,03,4.4,25.1,M,-25.1,M,,0000*57
$GPGSA,A,2,16,30,23,,,,,,,,,,4.5,4.4,1.0*36
$GPRMC,230719.804,A,3748.7949,N,12217.8717,W,1.75,124.18,050411,,,A*77
$GPVTG,124.18,T,,M,1.75,N,3.2,K,N*0E
$GPGGA,230720.804,3748.7935,N,12217.8720,W,1,03,4.4,25.1,M,-25.1,M,,0000*52
$GPGSA,A,2,16,30,23,,,,,,,,,,4.5,4.4,1.0*36
$GPRMC,230720.804,A,3748.7935,N,12217.8720,W,2.12,123.96,050411,,,A*71
$GPVTG,123.96,T,,M,2.12,N,3.9,K,N*06
$GPGGA,230721.804,3748.7932,N,12217.8712,W,1,03,4.4,25.1,M,-25.1,M,,0000*55
$GPGSA,A,2,16,30,23,,,,,,,,,,4.5,4.4,1.0*36
$GPGSV,3,1,12,23,68,001,30,16,48,091,37,30,39,063,33,20,63,186,38*7D
$GPGSV,3,2,12,13,42,306,27,32,42,154,41,07,22,240,29,04,15,294,20*7A
$GPGSV,3,3,12,10,07,319,22,31,06,051,30,24,04,194,27,03,02,129,*74
$GPRMC,230721.804,A,3748.7932,N,12217.8712,W,2.38,116.57,050411,,,A*75
$GPVTG,116.57,T,,M,2.38,N,4.4,K,N*0F
$GPGGA,230722.804,3748.7936,N,12217.8701,W,1,03,4.4,25.1,M,-25.1,M,,0000*50
$GPGSA,A,2,16,30,23,,,,,,,,,,4.5,4.4,1.0*36
$GPRMC,230722.804,A,3748.7936,N,12217.8701,W,2.39,120.20,050411,,,A*74
$GPVTG,120.20,T,,M,2.39,N,4.4,K,N*0B
$GPGGA,230723.804,3748.7929,N,12217.8697,W,1,03,4.4,25.1,M,-25.1,M,,0000*51
$GPGSA,A,2,16,30,23,,,,,,,,,,4.5,4.4,1.0*36
$GPRMC,230723.804,A,3748.7929,N,12217.8697,W,2.43,108.35,050411,,,A*76
$GPVTG,108.35,T,,M,2.43,N,4.5,K,N*09
$GPGGA,230724.804,3748.7924,N,12217.8695,W,1,03,4.4,25.1,M,-25.1,M,,0000*59
$GPGSA,A,2,16,30,23,,,,,,,,,,4.5,4.4,1.0*36
$GPRMC,230724.804,A,3748.7924,N,12217.8695,W,0.96,166.32,050411,,,A*7B
$GPVTG,166.32,T,,M,0.96,N,1.8,K,N*04
$GPGGA,230725.804,3748.7924,N,12217.8755,W,1,03,4.4,25.1,M,-25.1,M,,0000*55
$GPGSA,A,2,16,30,23,,,,,,,,,,4.5,4.4,1.0*36
$GPRMC,230725.804,A,3748.7924,N,12217.8755,W,1.97,123.34,050411,,,A*70
$GPVTG,123.34,T,,M,1.97,N,3.6,K,N*0F
$GPGGA,230726.804,3748.7921,N,12217.8694,W,1,03,4.4,25.1,M,-25.1,M,,0000*5F
$GPGSA,A,2,16,30,23,,,,,,,,,,4.5,4.4,1.0*36
$GPGSV,3,1,12,23,68,001,28,16,48,091,37,30,39,063,31,20,63,186,38*76
$GPGSV,3,2,12,13,42,306,28,32,42,154,41,07,22,240,39,04,15,294,26*72
$GPGSV,3,3,12,10,07,319,32,31,06,051,31,24,04,194,26,03,02,129,*75
$GPRMC,230726.804,A,3748.7921,N,12217.8694,W,1.49,115.54,050411,,,A*7A
$GPVTG,115.54,T,,M,1.49,N,2.8,K,N*00
$GPGGA,230727.804,3748.7920,N,12217.8707,W,1,03,4.4,25.1,M,-25.1,M,,0000*54
$GPGSA,A,2,16,30,23,,,,,,,,,,4.5,4.4,1.0*36
$GPRMC,230727.804,A,3748.7920,N,12217.8707,W,2.29,125.82,050411,,,A*7C
$GPVTG,125.82,T,,M,2.29,N,4.2,K,N*01
$GPGGA,230728.804,3748.7926,N,12217.8680,W,1,03,4.4,25.1,M,-25.1,M,,0000*53
$GPGSA,A,2,16,30,23,,,,,,,,,,4.5,4.4,1.0*36
$GPRMC,230728.804,A,3748.7926,N,12217.8680,W,2.67,93.74,050411,,,A*44
$GPVTG,93.74,T,,M,2.67,N,5.0,K,N*3D
$GPGGA,230729.800,3748.7927,N,12217.8659,W,1,03,4.4,25.1,M,-25.1,M,,0000*53
$GPGSA,A,2,16,30,23,,,,,,,,,,4.5,4.4,1.0*36
$GPRMC,230729.800,A,3748.7927,N,12217.8659,W,2.53,107.55,050411,,,A*7C
$GPVTG,107.55,T,,M,2.53,N,4.7,K,N*03
$GPGGA,230730.804,3748.7924,N,12217.8642,W,1,03,4.4,25.1,M,-25.1,M,,0000*56
$GPGSA,A,2,16,30,23,,,,,,,,,,4.5,4.4,1.0*36
$GPRMC,230730.804,A,3748.7924,N,12217.8642,W,2.73,102.00,050411,,,A*7E
$GPVTG,102.00,T,,M,2.73,N,5.1,K,N*03
$GPGGA,230731.804,3748.7963,N,12217.8619,W,1,03,4.4,25.1,M,-25.1,M,,0000*5A
$GPGSA,A,2,16,30,23,,,,,,,,,,4.5,4.4,1.0*36
$GPGSV,3,1,12,23,68,001,30,16,48,091,31,30,39,063,38,20,63,186,38*70
$GPGSV,3,2,12,13,42,306,27,32,42,154,34,07,22,240,39,04,15,294,21*78
$GPGSV,3,3,12,10,07,319,33,31,06,051,31,24,04,194,26,03,02,129,*74
$GPRMC,230731.804,A,3748.7963,N,12217.8619,W,3.17,63.30,050411,,,A*44
$GPGGA,230732.804,3748.7903,N,12217.8600,W,1,03,4.4,25.1,M,-25.1,M,,0000*57
$GPGSA,A,2,16,30,23,,,,,,,,,,4.5,4.4,1.0*36
$GPRMC,230732.804,A,3748.7903,N,12217.8600,W,2.96,84.95,050411,,,A*47
$GPVTG,84.95,T,,M,2.96,N,5.5,K,N*3F
$GPGGA,230733.804,3748.7899,N,12217.8593,W,1,03,4.4,25.1,M,-25.1,M,,0000*5D
$GPGSA,A,2,16,30,23,,,,,,,,,,4.5,4.4,1.0*36
$GPRMC,230733.804,A,3748.7899,N,12217.8593,W,1.86,97.11,050411,,,A*41
$GPVTG,97.11,T,,M,1.86,N,3.5,K,N*35
$GPGGA,230734.804,3748.7902,N,12217.8556,W,1,03,4.4,25.1,M,-25.1,M,,0000*50
$GPGSA,A,2,16,30,23,,,,,,,,,,4.5,4.4,1.0*36
$GPRMC,230734.804,A,3748.7902,N,12217.8556,W,2.17,131.34,050411,,,A*7D
$GPVTG,131.34,T,,M,2.17,N,4.0,K,N*06
$GPGGA,230735.804,3748.7865,N,12217.8587,W,1,03,4.4,25.1,M,-25.1,M,,0000*5D
$GPGSA,A,2,16,30,23,,,,,,,,,,4.5,4.4,1.0*36
$GPRMC,230735.804,A,3748.7865,N,12217.8587,W,2.29,110.11,050411,,,A*79
$GPVTG,110.11,T,,M,2.29,N,4.2,K,N*0D
$GPGGA,230736.804,3748.7896,N,12217.8565,W,1,03,4.4,25.1,M,-25.1,M,,0000*5E
$GPGSA,A,2,16,30,23,,,,,,,,,,4.5,4.4,1.0*36
$GPGSV,3,1,12,23,68,001,31,16,48,091,38,30,39,063,35,20,63,186,27*7B
$GPGSV,3,2,12,13,42,306,27,32,42,154,27,07,22,240,19,04,15,294,21*78
$GPGSV,3,3,12,10,07,319,33,31,06,051,38,24,04,194,18,03,02,129,*70
$GPRMC,230736.804,A,3748.7896,N,12217.8565,W,2.02,116.17,050411,,,A*73
$GPVTG,116.17,T,,M,2.02,N,3.7,K,N*06
$GPGGA,230737.804,3748.7876,N,12217.8583,W,1,03,4.4,25.1,M,-25.1,M,,0000*59
$GPGSA,A,2,16,30,23,,,,,,,,,,4.5,4.4,1.0*36
$GPRMC,230737.804,A,3748.7876,N,12217.8583,W,3.24,165.48,050411,,,A*7F
$GPVTG,165.48,T,,M,3.24,N,6.0,K,N*0F
$GPGGA,230738.804,3748.7882,N,12217.8564,W,1,03,4.4,25.1,M,-25.1,M,,0000*54
$GPGSA,A,2,16,30,23,,,,,,,,,,4.5,4.4,1.0*36
$GPRMC,230738.804,A,3748.7882,N,12217.8564,W,2.71,147.62,050411,,,A*7B
$GPVTG,147.62,T,,M,2.71,N,5.0,K,N*05
$GPGGA,230739.804,3748.7883,N,12217.8554,W,1,03,4.4,25.1,M,-25.1,M,,0000*57
$GPGSA,A,2,16,30,23,,,,,,,,,,4.5,4.4,1.0*36
$GPRMC,230739.804,A,3748.7883,N,12217.8554,W,2.46,131.74,050411,,,A*7A
$GPVTG,131.74,T,,M,2.46,N,4.6,K,N*00
$GPGGA,230740.804,3748.7880,N,12217.8552,W,1,03,4.4,25.1,M,-25.1,M,,0000*5C
$GPGSA,A,2,16,30,23,,,,,,,,,,4.5,4.4,1.0*36
$GPRMC,230740.804,A,3748.7880,N,12217.8552,W,2.20,86.76,050411,,,A*4E
$GPVTG,86.76,T,,M,2.20,N,4.1,K,N*38
$GPGGA,230741.804,3748.7878,N,12217.8568,W,1,03,4.4,25.1,M,-25.1,M,,0000*53
$GPGSA,A,2,16,30,23,,,,,,,,,,4.5,4.4,1.0*36
$GPGSV,3,1,12,23,68,001,33,16,48,091,37,30,39,063,39,20,63,186,31*7D
$GPGSV,3,2,12,13,42,306,27,32,42,154,34,07,22,240,20,04,15,294,21*70
$GPGSV,3,3,12,10,07,319,29,31,06,051,27,24,04,194,19,03,02,129,*74
$GPRMC,230741.804,A,3748.7878,N,12217.8568,W,2.45,95.03,050411,,,A*42
$GPVTG,95.03,T,,M,2.45,N,4.5,K,N*3F
$GPGGA,230742.804,3748.7873,N,12217.8557,W,1,03,4.4,25.1,M,-25.1,M,,0000*57
$GPGSA,A,2,16,30,23,,,,,,,,,,4.5,4.4,1.0*36
$GPRMC,230742.804,A,3748.7873,N,12217.8557,W,3.50,94.94,050411,,,A*4C
$GPVTG,94.94,T,,M,3.50,N,6.5,K,N*37
$GPGGA,230743.804,3748.7870,N,12217.8545,W,1,03,4.4,25.1,M,-25.1,M,,0000*56
$GPGSA,A,2,16,30,23,,,,,,,,,,4.5,4.4,1.0*36
$GPRMC,230743.804,A,3748.7870,N,12217.8545,W,2.90,115.75,050411,,,A*77
$GPVTG,115.75,T,,M,2.90,N,5.4,K,N*0F
$GPGGA,230744.804,3748.7867,N,12217.8535,W,1,03,4.4,25.1,M,-25.1,M,,0000*50
$GPGSA,A,2,16,30,23,,,,,,,,,,4.5,4.4,1.0*36
$GPRMC,230744.804,A,3748.7867,N,12217.8535,W,2.79,114.04,050411,,,A*71
$GPVTG,114.04,T,,M,2.79,N,5.2,K,N*09
$GPGGA,230745.804,3748.7842,N,12217.8545,W,1,03,4.4,25.1,M,-25.1,M,,0000*51
$GPGSA,A,2,16,30,23,,,,,,,,,,4.5,4.4,1.0*36
$GPRMC,230745.804,A,3748.7842,N,12217.8545,W,2.64,140.55,050411,,,A*79
$GPVTG,140.55,T,,M,2.64,N,4.9,K,N*0A
$GPGGA,230746.804,3748.7853,N,12217.8524,W,1,03,4.4,25.1,M,-25.1,M,,0000*55
$GPGSA,A,2,16,30,23,,,,,,,,,,4.5,4.4,1.0*36
$GPGSV,3,1,12,23,68,001,32,16,48,091,37,30,39,063,35,20,63,186,38*79
$GPGSV,3,2,12,13,42,306,28,32,42,154,41,07,22,240,31,04,15,294,21*7D
$GPGSV,3,3,12,10,07,319,26,31,06,051,27,24,04,194,27,03,02,129,*76
$GPRMC,230746.804,A,3748.7853,N,12217.8524,W,2.82,114.95,050411,,,A*78
$GPGGA,230747.804,3748.7854,N,12217.8507,W,1,03,4.4,25.1,M,-25.1,M,,0000*52
$GPGSA,A,2,16,30,23,,,,,,,,,,4.5,4.4,1.0*36
$GPRMC,230747.804,A,3748.7854,N,12217.8507,W,2.88,126.80,050411,,,A*70
$GPVTG,126.80,T,,M,2.88,N,5.3,K,N*0B
$GPGGA,230748.804,3748.7851,N,12217.8496,W,1,03,4.4,25.1,M,-25.1,M,,0000*51
$GPGSA,A,2,16,30,23,,,,,,,,,,4.5,4.4,1.0*36
$GPRMC,230748.804,A,3748.7851,N,12217.8496,W,2.93,118.14,050411,,,A*79
$GPVTG,118.14,T,,M,2.93,N,5.4,K,N*06
$GPGGA,230749.804,3748.7851,N,12217.8488,W,1,03,4.4,25.1,M,-25.1,M,,0000*5F
$GPGSA,A,2,16,30,23,,,,,,,,,,4.5,4.4,1.0*36
$GPRMC,230749.804,A,3748.7851,N,12217.8488,W,2.84,112.59,050411,,,A*72
$GPVTG,112.59,T,,M,2.84,N,5.3,K,N*04
$GPGGA,230750.804,3748.7848,N,12217.8481,W,1,03,4.4,25.1,M,-25.1,M,,0000*56
$GPGSA,A,2,16,30,23,,,,,,,,,,4.5,4.4,1.0*36
$GPRMC,230750.804,A,3748.7848,N,12217.8481,W,2.42,125.66,050411,,,A*79
$GPVTG,125.66,T,,M,2.42,N,4.5,K,N*01
$GPGGA,230751.804,3748.7842,N,12217.8476,W,1,03,4.4,25.1,M,-25.1,M,,0000*55
$GPGSA,A,2,16,30,23,,,,,,,,,,4.5,4.4,1.0*36
$GPGSV,3,1,12,23,68,001,32,16,48,090,37,30,39,063,34,20,62,186,38*78
$GPGSV,3,2,12,13,42,306,27,32,42,154,41,07,22,240,35,04,15,294,22*75
$GPGSV,3,3,12,10,07,319,23,31,06,052,34,24,03,194,19,03,02,129,*78
$GPRMC,230751.804,A,3748.7842,N,12217.8476,W,2.64,119.54,050411,,,A*70
$GPVTG,119.54,T,,M,2.64,N,4.9,K,N*07
$GPGGA,230752.804,3748.7817,N,12217.8483,W,1,03,4.4,25.1,M,-25.1,M,,0000*5C
$GPGSA,A,2,16,30,23,,,,,,,,,,4.5,4.4,1.0*36
$GPRMC,230752.804,A,3748.7817,N,12217.8483,W,2.78,131.57,050411,,,A*7D
$GPVTG,131.57,T,,M,2.78,N,5.2,K,N*09
$GPGGA,230753.804,3748.7852,N,12217.8446,W,1,03,4.4,25.1,M,-25.1,M,,0000*55
$GPGSA,A,2,16,30,23,,,,,,,,,,4.5,4.4,1.0*36
$GPRMC,230753.804,A,3748.7852,N,12217.8446,W,2.83,104.90,050411,,,A*7D
$GPVTG,104.90,T,,M,2.83,N,5.2,K,N*00
$GPGGA,230754.804,3748.7843,N,12217.8445,W,1,03,4.4,25.1,M,-25.1,M,,0000*51
$GPGSA,A,2,16,30,23,,,,,,,,,,4.5,4.4,1.0*36
$GPRMC,230754.804,A,3748.7843,N,12217.8445,W,2.67,113.97,050411,,,A*72
$GPVTG,113.97,T,,M,2.67,N,4.9,K,N*01
$GPGGA,230755.804,3748.7801,N,12217.8468,W,1,03,4.4,25.1,M,-25.1,M,,0000*59
$GPGSA,A,2,16,30,23,,,,,,,,,,4.5,4.4,1.0*36
$GPRMC,230755.804,A,3748.7801,N,12217.8468,W,2.70,134.35,050411,,,A*71
$GPVTG,134.35,T,,M,2.70,N,5.0,K,N*02
$GPGGA,230756.804,3748.7778,N,12217.8472,W,1,03,4.4,25.1,M,-25.1,M,,0000*50
$GPGSA,A,2,16,30,23,,,,,,,,,,4.5,4.4,1.0*36
$GPGSV,3,1,12,23,68,001,32,16,48,090,37,30,39,063,30,20,62,186,38*7C
$GPGSV,3,2,12,13,42,306,27,32,42,154,41,07,22,240,28,04,15,294,30*7A
$GPGSV,3,3,12,10,07,319,24,31,06,052,29,24,03,194,18,03,02,129,*72
$GPRMC,230756.804,A,3748.7778,N,12217.8472,W,2.66,119.64,050411,,,A*74
$GPVTG,119.64,T,,M,2.66,N,4.9,K,N*06
$GPGGA,230757.804,3748.7772,N,12217.8465,W,1,03,4.4,25.1,M,-25.1,M,,0000*5D
$GPGSA,A,2,16,30,23,,,,,,,,,,4.5,4.4,1.0*36
$GPRMC,230757.804,A,3748.7772,N,12217.8465,W,3.86,168.17,050411,,,A*74
$GPVTG,168.17,T,,M,3.86,N,7.2,K,N*03
$GPGGA,230758.804,3748.7797,N,12217.8437,W,1,03,4.4,25.1,M,-25.1,M,,0000*5E
$GPGSA,A,2,16,30,23,,,,,,,,,,4.5,4.4,1.0*36
$GPRMC,230758.804,A,3748.7797,N,12217.8437,W,2.83,110.62,050411,,,A*7E
$GPVTG,110.62,T,,M,2.83,N,5.2,K,N*08
$GPGGA,230759.804,3748.7788,N,12217.8434,W,1,03,4.4,25.1,M,-25.1,M,,0000*52
$GPGSA,A,2,16,30,23,,,,,,,,,,4.5,4.4,1.0*36
$GPRMC,230759.804,A,3748.7788,N,12217.8434,W,2.78,115.03,050411,,,A*74
$GPVTG,115.03,T,,M,2.78,N,5.1,K,N*0D
$GPGGA,230800.804,3748.7785,N,12217.8426,W,1,03,4.4,25.1,M,-25.1,M,,0000*5F
$GPGSA,A,2,16,30,23,,,,,,,,,,4.5,4.4,1.0*36
$GPRMC,230800.804,A,3748.7785,N,12217.8426,W,2.74,129.76,050411,,,A*78
$GPVTG,129.76,T,,M,2.74,N,5.1,K,N*0C
$GPGGA,230801.804,3748.7820,N,12217.8392,W,1,03,4.4,25.1,M,-25.1,M,,0000*56
$GPGSA,A,2,16,30,23,,,,,,,,,,4.5,4.4,1.0*36
$GPGSV,3,1,12,23,68,001,31,16,48,090,37,30,39,063,31,20,62,186,38*7E
$GPGSV,3,2,12,13,42,306,27,32,42,154,36,07,22,240,27,04,15,294,29*7D
$GPGSV,3,3,12,10,07,319,24,31,06,052,29,24,03,194,17,03,02,129,*7D
$GPRMC,230801.804,A,3748.7820,N,12217.8392,W,3.11,145.64,050411,,,A*7A
$GPVTG,145.64,T,,M,3.11,N,5.8,K,N*0E
$GPGGA,230802.804,3748.7810,N,12217.8391,W,1,03,4.4,25.1,M,-25.1,M,,0000*55
$GPGSA,A,2,16,30,23,,,,,,,,,,4.5,4.4,1.0*36
$GPRMC,230802.804,A,3748.7810,N,12217.8391,W,2.30,131.34,050411,,,A*7D
$GPVTG,131.34,T,,M,2.30,N,4.3,K,N*00
$GPGGA,230803.804,3748.7804,N,12217.8388,W,1,03,4.4,25.1,M,-25.1,M,,0000*59
$GPGSA,A,2,16,30,23,,,,,,,,,,4.5,4.4,1.0*36
$GPRMC,230803.804,A,3748.7804,N,12217.8388,W,2.39,147.95,050411,,,A*72
$GPVTG,147.95,T,,M,2.39,N,4.4,K,N*04
$GPGGA,230804.804,3748.7778,N,12217.8415,W,1,04,2.3,15.2,M,-25.1,M,,0000*5F
$GPGSA,A,3,16,30,20,23,,,,,,,,,2.5,2.3,1.0*32
$GPRMC,230804.804,A,3748.7778,N,12217.8415,W,2.67,129.96,050411,,,A*72
$GPVTG,129.96,T,,M,2.67,N,5.0,K,A*0E
$GPGGA,230805.804,3748.7771,N,12217.8403,W,1,04,2.3,17.1,M,-25.1,M,,0000*51
$GPGSA,A,3,16,30,20,23,,,,,,,,,2.5,2.3,1.0*32
$GPRMC,230805.804,A,3748.7771,N,12217.8403,W,2.02,117.00,050411,,,A*7C
$GPVTG,117.00,T,,M,2.02,N,3.7,K,A*0E
$GPGGA,230806.804,3748.7767,N,12217.8394,W,1,04,2.3,17.6,M,-25.1,M,,0000*5B
$GPGSA,A,3,16,30,20,23,,,,,,,,,2.5,2.3,1.0*32
$GPGSV,3,1,12,23,68,002,32,20,62,186,37,16,48,090,37,30,39,062,32*73
$GPGSV,3,2,12,13,43,306,27,32,42,154,39,07,22,240,21,04,15,294,25*79
$GPGSV,3,3,12,10,07,319,25,31,06,052,25,24,03,194,16,03,02,129,*71
$GPRMC,230806.804,A,3748.7767,N,12217.8394,W,2.46,122.62,050411,,,A*73
$GPVTG,122.62,T,,M,2.46,N,4.6,K,A*0A
$GPGGA,230807.000,3748.7766,N,12217.8392,W,1,04,2.3,18.1,M,-25.1,M,,0000*59
$GPGSA,A,3,16,30,20,23,,,,,,,,,2.5,2.3,1.0*32
$GPRMC,230807.000,A,3748.7766,N,12217.8392,W,2.60,120.33,050411,,,A*7B
$GPGGA,230808.000,3748.7763,N,12217.8383,W,1,04,2.3,19.6,M,-25.1,M,,0000*55
$GPGSA,A,3,16,30,20,23,,,,,,,,,2.5,2.3,1.0*32
$GPRMC,230808.000,A,3748.7763,N,12217.8383,W,2.58,121.77,050411,,,A*7B
$GPVTG,121.77,T,,M,2.58,N,4.8,K,A*0C
$GPGGA,230809.000,3748.7760,N,12217.8374,W,1,04,2.3,20.6,M,-25.1,M,,0000*55
$GPGSA,A,3,16,30,20,23,,,,,,,,,2.5,2.3,1.0*32
$GPRMC,230809.000,A,3748.7760,N,12217.8374,W,2.64,118.01,050411,,,A*75
$GPVTG,118.01,T,,M,2.64,N,4.9,K,A*09
$GPGGA,230810.000,3748.7754,N,12217.8365,W,1,04,2.3,19.4,M,-25.1,M,,0000*52
$GPGSA,A,3,16,30,20,23,,,,,,,,,2.5,2.3,1.0*32
$GPRMC,230810.000,A,3748.7754,N,12217.8365,W,2.55,115.00,050411,,,A*74
$GPVTG,115.00,T,,M,2.55,N,4.7,K,A*09
$GPGGA,230811.000,3748.7751,N,12217.8356,W,1,04,2.3,19.4,M,-25.1,M,,0000*56
$GPGSA,A,3,16,30,20,23,,,,,,,,,2.5,2.3,1.0*32
$GPGSV,3,1,12,23,68,002,32,20,62,186,38,16,48,090,37,30,39,062,33*7D
$GPGSV,3,2,12,13,43,306,26,32,42,154,40,07,22,240,21,04,15,294,27*74
$GPRMC,230811.000,A,3748.7751,N,12217.8356,W,2.66,121.11,050411,,,A*77
$GPVTG,121.11,T,,M,2.66,N,4.9,K,A*00
$GPGGA,230812.000,3748.7746,N,12217.8348,W,1,04,2.3,19.5,M,-25.1,M,,0000*5D
$GPGSA,A,3,16,30,20,23,,,,,,,,,2.5,2.3,1.0*32
$GPRMC,230812.000,A,3748.7746,N,12217.8348,W,2.66,120.00,050411,,,A*7C
$GPVTG,120.00,T,,M,2.66,N,4.9,K,A*01
$GPGGA,230813.000,3748.7743,N,12217.8340,W,1,04,2.3,19.7,M,-25.1,M,,0000*53
$GPGSA,A,3,16,30,20,23,,,,,,,,,2.5,2.3,1.0*32
$GPRMC,230813.000,A,3748.7743,N,12217.8340,W,2.50,120.00,050411,,,A*75
$GPVTG,120.00,T,,M,2.50,N,4.6,K,A*0B
$GPGGA,230814.000,3748.7740,N,12217.8332,W,1,04,2.3,19.9,M,-25.1,M,,0000*5C
$GPGSA,A,3,16,30,20,23,,,,,,,,,2.5,2.3,1.0*32
$GPRMC,230814.000,A,3748.7740,N,12217.8332,W,2.06,118.05,050411,,,A*79
$GPVTG,118.05,T,,M,2.06,N,3.8,K,A*0F
$GPGGA,230815.000,3748.7736,N,12217.8325,W,1,04,2.3,20.1,M,-25.1,M,,0000*58
$GPGSA,A,3,16,30,20,23,,,,,,,,,2.5,2.3,1.0*32
$GPRMC,230815.000,A,3748.7736,N,12217.8325,W,2.46,124.08,050411,,,A*79
$GPVTG,124.08,T,,M,2.46,N,4.6,K,A*00
$GPGGA,230816.000,3748.7736,N,12217.8312,W,1,04,2.3,21.7,M,-25.1,M,,0000*58
$GPGSA,A,3,16,30,20,23,,,,,,,,,2.5,2.3,1.0*32
$GPGSV,3,1,12,23,68,002,31,20,62,186,26,16,48,090,37,30,39,062,34*76
$GPGSV,3,2,12,13,43,306,26,32,42,154,27,07,22,240,22,04,15,294,26*77
$GPGSV,3,3,12,10,07,319,22,31,06,052,22,24,03,194,18,03,02,129,*7F
$GPRMC,230816.000,A,3748.7736,N,12217.8312,W,2.73,121.31,050411,,,A*77
$GPVTG,121.31,T,,M,2.73,N,5.1,K,A*0F
$GPGGA,230817.000,3748.7734,N,12217.8301,W,1,04,2.3,22.1,M,-25.1,M,,0000*5C
$GPGSA,A,3,16,30,20,23,,,,,,,,,2.5,2.3,1.0*32
$GPRMC,230817.000,A,3748.7734,N,12217.8301,W,2.56,108.15,050411,,,A*7C
$GPVTG,108.15,T,,M,2.56,N,4.7,K,A*02
$GPGGA,230818.000,3748.7730,N,12217.8293,W,1,04,2.3,21.8,M,-25.1,M,,0000*57
$GPGSA,A,3,16,30,20,23,,,,,,,,,2.5,2.3,1.0*32
$GPRMC,230818.000,A,3748.7730,N,12217.8293,W,2.61,99.42,050411,,,A*42
$GPVTG,99.42,T,,M,2.61,N,4.8,K,A*32
$GPGGA,230819.000,3748.7733,N,12217.8277,W,1,04,2.3,23.6,M,-25.1,M,,0000*53
$GPGSA,A,3,16,30,20,23,,,,,,,,,2.5,2.3,1.0*32
$GPRMC,230819.000,A,3748.7733,N,12217.8277,W,2.75,107.77,050411,,,A*7F
$GPVTG,107.77,T,,M,2.75,N,5.1,K,A*0F
$GPGGA,230820.000,3748.7732,N,12217.8265,W,1,04,2.3,24.4,M,-25.1,M,,0000*5E
$GPGSA,A,3,16,30,20,23,,,,,,,,,2.5,2.3,1.0*32
$GPRMC,230820.000,A,3748.7732,N,12217.8265,W,2.50,118.60,050411,,,A*78
$GPVTG,118.60,T,,M,2.50,N,4.6,K,A*06
$GPGGA,230821.000,3748.7732,N,12217.8257,W,1,04,2.3,24.2,M,-25.1,M,,0000*58
$GPGSA,A,3,16,30,20,23,,,,,,,,,2.5,2.3,1.0*32
$GPGSV,3,1,12,23,68,002,31,20,62,186,18,16,48,090,31,13,43,306,26*73
$GPGSV,3,2,12,32,42,154,25,30,38,062,34,07,22,240,15,04,15,294,16*7D
$GPGSV,3,3,12,10,07,319,25,31,06,052,21,24,03,194,23,03,02,129,*73
$GPRMC,230821.000,A,3748.7732,N,12217.8257,W,2.92,125.57,050411,,,A*7C
$GPVTG,125.57,T,,M,2.92,N,5.4,K,A*01
$GPGGA,230822.000,3748.7719,N,12217.8253,W,1,04,2.3,21.2,M,-25.1,M,,0000*53
$GPGSA,A,3,16,30,20,23,,,,,,,,,2.5,2.3,1.0*32
$GPRMC,230822.000,A,3748.7719,N,12217.8253,W,3.96,138.06,050411,,,A*7F
$GPVTG,138.06,T,,M,3.96,N,7.3,K,A*09
$GPGGA,230823.000,3748.7710,N,12217.8239,W,1,04,2.3,22.0,M,-25.1,M,,0000*56
$GPGSA,A,3,16,30,20,23,,,,,,,,,2.5,2.3,1.0*32
$GPRMC,230823.000,A,3748.7710,N,12217.8239,W,3.38,143.02,050411,,,A*77
$GPVTG,143.02,T,,M,3.38,N,6.3,K,A*04
$GPGGA,230824.000,3748.7703,N,12217.8234,W,1,03,4.4,23.5,M,-25.1,M,,0000*5C
$GPGSA,A,2,16,30,23,,,,,,,,,,4.5,4.4,1.0*36
$GPRMC,230824.000,A,3748.7703,N,12217.8234,W,3.25,156.13,050411,,,A*77
$GPVTG,156.13,T,,M,3.25,N,6.0,K,A*0F
$GPGGA,230825.000,3748.7691,N,12217.8227,W,1,04,2.3,20.9,M,-25.1,M,,0000*5C
$GPGSA,A,3,16,30,20,23,,,,,,,,,2.5,2.3,1.0*32
$GPRMC,230825.000,A,3748.7691,N,12217.8227,W,3.80,146.48,050411,,,A*7E
$GPVTG,146.48,T,,M,3.80,N,7.0,K,A*0E
$GPGGA,230826.000,3748.7683,N,12217.8222,W,1,03,4.4,19.0,M,-25.1,M,,0000*5C
$GPGSA,A,2,16,30,23,,,,,,,,,,4.5,4.4,1.0*36
$GPGSV,3,1,12,23,68,002,25,20,62,186,18,16,48,090,36,13,43,306,26*71
$GPGSV,3,2,12,32,42,154,26,30,38,062,33,07,22,240,16,04,15,294,18*74
$GPGSV,3,3,12,10,07,319,24,31,06,052,17,24,03,194,15,03,02,129,*72
$GPVTG,149.84,T,,M,2.99,N,5.5,K,A*0F
$GPGGA,230827.000,3748.7693,N,12217.8208,W,1,04,2.3,20.6,M,-25.1,M,,0000*5E
$GPGSA,A,3,16,30,20,23,,,,,,,,,2.5,2.3,1.0*32
$GPRMC,230827.000,A,3748.7693,N,12217.8208,W,2.43,110.27,050411,,,A*77
$GPVTG,110.27,T,,M,2.43,N,4.5,K,A*0C
$GPGGA,230828.000,3748.7689,N,12217.8192,W,1,04,2.3,22.9,M,-25.1,M,,0000*57
$GPGSA,A,3,16,30,20,23,,,,,,,,,2.5,2.3,1.0*32
$GPRMC,230828.000,A,3748.7689,N,12217.8192,W,2.47,122.23,050411,,,A*72
$GPVTG,122.23,T,,M,2.47,N,4.6,K,A*0E
$GPGGA,230829.000,3748.7684,N,12217.8184,W,1,04,2.3,23.8,M,-25.1,M,,0000*5C
$GPGSA,A,3,16,30,20,23,,,,,,,,,2.5,2.3,1.0*32
$GPRMC,230829.000,A,3748.7684,N,12217.8184,W,2.05,118.95,050411,,,A*7B
$GPVTG,118.95,T,,M,2.05,N,3.8,K,A*05
$GPGGA,230830.000,3748.7681,N,12217.8176,W,1,04,2.3,24.3,M,-25.1,M,,0000*50
$GPGSA,A,3,16,30,20,23,,,,,,,,,2.5,2.3,1.0*32
$GPRMC,230830.000,A,3748.7681,N,12217.8176,W,2.32,121.86,050411,,,A*77
$GPVTG,121.86,T,,M,2.32,N,4.3,K,A*05
$GPGGA,230831.000,3748.7677,N,12217.8169,W,1,04,2.3,24.3,M,-25.1,M,,0000*56
$GPGSA,A,3,16,30,20,23,,,,,,,,,2.5,2.3,1.0*32
$GPGSV,3,1,12,23,68,002,29,20,62,186,34,16,48,090,34,13,43,306,27*70
$GPGSV,3,2,12,32,42,154,32,30,38,062,36,07,22,240,17,04,15,294,17*7A
$GPGSV,3,3,12,10,07,319,24,31,06,052,17,24,03,194,15,03,02,129,*72
$GPRMC,230831.000,A,3748.7677,N,12217.8169,W,2.44,114.41,050411,,,A*7D
$GPVTG,114.41,T,,M,2.44,N,4.5,K,A*0F
$GPGGA,230832.000,3748.7673,N,12217.8162,W,1,04,2.3,24.3,M,-25.1,M,,0000*5A
$GPGSA,A,3,16,30,20,23,,,,,,,,,2.5,2.3,1.0*32
$GPRMC,230832.000,A,3748.7673,N,12217.8162,W,2.56,122.01,050411,,,A*73
$GPVTG,122.01,T,,M,2.56,N,4.7,K,A*0F
$GPGGA,230833.000,3748.7666,N,12217.8155,W,1,04,2.3,25.7,M,-25.1,M,,0000*5E
$GPGSA,A,3,16,30,20,23,,,,,,,,,2.5,2.3,1.0*32
$GPRMC,230833.000,A,3748.7666,N,12217.8155,W,2.55,124.86,050411,,,A*78
$GPVTG,124.86,T,,M,2.55,N,4.7,K,A*05
$GPGGA,230834.000,3748.7660,N,12217.8147,W,1,04,2.3,26.9,M,-25.1,M,,0000*51
$GPGSA,A,3,16,30,20,23,,,,,,,,,2.5,2.3,1.0*32
$GPRMC,230834.000,A,3748.7660,N,12217.8147,W,2.57,125.60,050411,,,A*71
$GPVTG,125.60,T,,M,2.57,N,4.8,K,A*01
$GPGGA,230835.000,3748.7654,N,12217.8140,W,1,04,2.3,26.3,M,-25.1,M,,0000*5A
$GPGSA,A,3,16,30,20,23,,,,,,,,,2.5,2.3,1.0*32
$GPRMC,230835.000,A,3748.7654,N,12217.8140,W,2.31,123.12,050411,,,A*73
$GPVTG,123.12,T,,M,2.31,N,4.3,K,A*09
$GPGGA,230836.000,3748.7650,N,12217.8134,W,1,04,2.3,26.0,M,-25.1,M,,0000*5D
$GPGSA,A,3,16,30,20,23,,,,,,,,,2.5,2.3,1.0*32
$GPGSV,3,1,12,23,68,002,31,20,62,186,35,16,48,090,36,13,43,306,27*7A
$GPGSV,3,2,12,32,42,154,35,30,38,062,35,07,22,240,23,04,15,294,19*77
$GPGSV,3,3,12,10,07,319,31,31,06,052,25,24,03,194,28,03,02,129,*79
$GPRMC,230836.000,A,3748.7650,N,12217.8134,W,2.20,131.09,050411,,,A*7E
$GPVTG,131.09,T,,M,2.20,N,4.1,K,A*02
$GPGGA,230837.000,3748.7645,N,12217.8128,W,1,04,2.3,25.9,M,-25.1,M,,0000*5F
$GPGSA,A,3,16,30,20,23,,,,,,,,,2.5,2.3,1.0*32
$GPRMC,230837.000,A,3748.7645,N,12217.8128,W,2.15,127.00,050411,,,A*7E
$GPVTG,127.00,T,,M,2.15,N,4.0,K,A*0B
$GPGGA,230838.000,3748.7642,N,12217.8123,W,1,04,2.3,25.8,M,-25.1,M,,0000*5D
$GPGSA,A,3,16,30,20,23,,,,,,,,,2.5,2.3,1.0*32
$GPRMC,230838.000,A,3748.7642,N,12217.8123,W,1.98,131.71,050411,,,A*7A
$GPVTG,131.71,T,,M,1.98,N,3.7,K,A*0C
$GPGGA,230839.000,3748.7640,N,12217.8116,W,1,04,2.3,24.6,M,-25.1,M,,0000*57
$GPGSA,A,3,16,30,20,23,,,,,,,,,2.5,2.3,1.0*32
$GPRMC,230839.000,A,3748.7640,N,12217.8116,W,2.24,135.23,050411,,,A*78
$GPVTG,135.23,T,,M,2.24,N,4.2,K,A*09
$GPGGA,230840.000,3748.7643,N,12217.8105,W,1,04,2.3,24.4,M,-25.1,M,,0000*5A
$GPGSA,A,3,16,30,20,23,,,,,,,,,2.5,2.3,1.0*32
$GPRMC,230840.000,A,3748.7643,N,12217.8105,W,2.43,120.55,050411,,,A*73
$GPVTG,120.55,T,,M,2.43,N,4.5,K,A*0A
$GPGGA,230841.000,3748.7640,N,12217.8099,W,1,04,2.3,23.4,M,-25.1,M,,0000*5B
$GPGSA,A,3,16,30,20,23,,,,,,,,,2.5,2.3,1.0*32
$GPGSV,3,1,12,23,68,002,31,20,62,186,26,16,48,090,37,13,43,306,28*76
$GPGSV,3,2,12,32,42,154,28,30,38,062,39,07,22,240,22,04,15,294,20*7C
$GPGSV,3,3,12,10,07,319,24,31,06,052,24,24,03,194,18,03,02,129,*7F
$GPVTG,111.54,T,,M,2.50,N,4.6,K,A*08
$GPGGA,230842.000,3748.7639,N,12217.8091,W,1,04,2.3,23.0,M,-25.1,M,,0000*5A
$GPGSA,A,3,16,30,20,23,,,,,,,,,2.5,2.3,1.0*32
$GPRMC,230842.000,A,3748.7639,N,12217.8091,W,2.43,121.02,050411,,,A*73
$GPVTG,121.02,T,,M,2.43,N,4.5,K,A*09
$GPGGA,230843.000,3748.7641,N,12217.8081,W,1,04,2.3,23.1,M,-25.1,M,,0000*54
$GPGSA,A,3,16,30,20,23,,,,,,,,,2.5,2.3,1.0*32
$GPRMC,230843.000,A,3748.7641,N,12217.8081,W,2.42,118.73,050411,,,A*71
$GPVTG,118.73,T,,M,2.42,N,4.5,K,A*04
$GPGGA,230844.000,3748.7636,N,12217.8075,W,1,04,2.3,23.7,M,-25.1,M,,0000*5E
$GPGSA,A,3,16,30,20,23,,,,,,,,,2.5,2.3,1.0*32
$GPRMC,230844.000,A,3748.7636,N,12217.8075,W,2.36,123.79,050411,,,A*7C
$GPVTG,123.79,T,,M,2.36,N,4.4,K,A*04
$GPGGA,230845.000,3748.7634,N,12217.8068,W,1,04,2.3,23.6,M,-25.1,M,,0000*50
$GPGSA,A,3,16,30,20,23,,,,,,,,,2.5,2.3,1.0*32
$GPRMC,230845.000,A,3748.7634,N,12217.8068,W,2.62,145.12,050411,,,A*7F
$GPVTG,145.12,T,,M,2.62,N,4.8,K,A*04
$GPGGA,230846.000,3748.7633,N,12217.8059,W,1,04,2.3,23.6,M,-25.1,M,,0000*56
$GPGSA,A,3,16,30,20,23,,,,,,,,,2.5,2.3,1.0*32
$GPGSV,3,1,12,23,68,002,32,20,62,186,18,16,48,090,38,13,43,306,25*7A
$GPGSV,3,2,12,32,42,154,23,30,38,062,33,07,22,240,22,04,15,294,20*7D
$GPGSV,3,3,12,10,07,319,26,31,06,052,24,24,03,194,18,03,02,129,*7D
$GPRMC,230846.000,A,3748.7633,N,12217.8059,W,2.43,124.11,050411,,,A*7E
$GPVTG,124.11,T,,M,2.43,N,4.5,K,A*0E
$GPGGA,230847.000,3748.7638,N,12217.8046,W,1,04,2.3,24.0,M,-25.1,M,,0000*53
$GPGSA,A,3,16,30,20,23,,,,,,,,,2.5,2.3,1.0*32
$GPRMC,230847.000,A,3748.7638,N,12217.8046,W,2.70,96.61,050411,,,A*45
$GPVTG,96.61,T,,M,2.70,N,5.0,K,A*35
$GPGGA,230848.000,3748.7638,N,12217.8036,W,1,04,2.3,24.1,M,-25.1,M,,0000*5A
$GPGSA,A,3,16,30,20,23,,,,,,,,,2.5,2.3,1.0*32
$GPRMC,230848.000,A,3748.7638,N,12217.8036,W,2.44,108.09,050411,,,A*72
$GPVTG,108.09,T,,M,2.44,N,4.5,K,A*0E
$GPGGA,230849.000,3748.7635,N,12217.8030,W,1,04,2.3,23.8,M,-25.1,M,,0000*5E
$GPGSA,A,3,16,30,20,23,,,,,,,,,2.5,2.3,1.0*32
$GPRMC,230849.000,A,3748.7635,N,12217.8030,W,2.32,119.15,050411,,,A*74
$GPVTG,119.15,T,,M,2.32,N,4.3,K,A*04
$GPGGA,230850.000,3748.7633,N,12217.8022,W,1,04,2.3,23.7,M,-25.1,M,,0000*5C
$GPGSA,A,3,16,30,20,23,,,,,,,,,2.5,2.3,1.0*32
$GPRMC,230850.000,A,3748.7633,N,12217.8022,W,2.56,110.54,050411,,,A*77
$GPVTG,110.54,T,,M,2.56,N,4.7,K,A*0E
$GPGGA,230851.000,3748.7630,N,12217.8023,W,1,04,2.3,21.7,M,-25.1,M,,0000*5D
$GPGSA,A,3,16,30,20,23,,,,,,,,,2.5,2.3,1.0*32
$GPGSV,3,1,12,23,68,002,32,20,62,186,29,16,48,090,29,13,43,306,27*7A
$GPGSV,3,2,12,32,42,154,29,30,38,062,30,07,22,240,23,04,15,294,21*74
$GPGSV,3,3,12,10,07,319,31,31,06,052,31,24,03,194,17,03,02,129,*70
$GPRMC,230851.000,A,3748.7630,N,12217.8023,W,2.79,130.87,050411,,,A*75
$GPVTG,130.87,T,,M,2.79,N,5.2,K,A*0B
$GPGGA,230852.000,3748.7626,N,12217.8027,W,1,04,2.3,19.7,M,-25.1,M,,0000*56
$GPGSA,A,3,16,30,20,23,,,,,,,,,2.5,2.3,1.0*32
$GPRMC,230852.000,A,3748.7626,N,12217.8027,W,2.34,140.29,050411,,,A*7F
$GPVTG,140.29,T,,M,2.34,N,4.3,K,A*01
$GPGGA,230853.000,3748.7622,N,12217.8029,W,1,04,2.3,18.4,M,-25.1,M,,0000*5F
$GPGSA,A,3,16,30,20,23,,,,,,,,,2.5,2.3,1.0*32
$GPRMC,230853.000,A,3748.7622,N,12217.8029,W,1.73,121.08,050411,,,A*70
$GPVTG,121.08,T,,M,1.73,N,3.2,K,A*03
$GPGGA,230854.000,3748.7612,N,12217.8023,W,1,04,2.3,18.0,M,-25.1,M,,0000*55
$GPGSA,A,3,16,30,20,23,,,,,,,,,2.5,2.3,1.0*32
$GPRMC,230854.000,A,3748.7612,N,12217.8023,W,2.15,129.56,050411,,,A*7E
$GPVTG,129.56,T,,M,2.15,N,4.0,K,A*06
$GPGGA,230855.000,3748.7607,N,12217.8021,W,1,04,2.3,17.7,M,-25.1,M,,0000*5A
$GPGSA,A,3,16,30,20,23,,,,,,,,,2.5,2.3,1.0*32
$GPRMC,230855.000,A,3748.7607,N,12217.8021,W,1.65,133.28,050411,,,A*7F
$GPVTG,133.28,T,,M,1.65,N,3.1,K,A*06
$GPGGA,230856.000,3748.7603,N,12217.8015,W,1,04,2.3,17.5,M,-25.1,M,,0000*58
$GPGSA,A,3,16,30,20,23,,,,,,,,,2.5,2.3,1.0*32
$GPGSV,3,1,12,23,68,002,30,20,62,186,29,16,48,090,30,13,43,306,30*76
$GPGSV,3,2,12,32,42,154,29,30,38,062,30,07,22,240,24,04,15,294,21*73
$GPGSV,3,3,12,10,07,319,27,31,06,052,34,24,03,194,17,03,02,129,*72
$GPRMC,230856.000,A,3748.7603,N,12217.8015,W,1.88,123.10,050411,,,A*76
$GPGGA,230857.000,3748.7600,N,12217.8012,W,1,04,2.3,17.1,M,-25.1,M,,0000*59
$GPGSA,A,3,16,30,20,23,,,,,,,,,2.5,2.3,1.0*32
$GPRMC,230857.000,A,3748.7600,N,12217.8012,W,1.05,122.22,050411,,,A*76
$GPVTG,122.22,T,,M,1.05,N,2.0,K,A*0A
$GPGGA,230858.000,3748.7598,N,12217.8008,W,1,04,2.3,16.6,M,-25.1,M,,0000*59
$GPGSA,A,3,16,30,20,23,,,,,,,,,2.5,2.3,1.0*32
$GPRMC,230858.000,A,3748.7598,N,12217.8008,W,1.57,96.72,050411,,,A*4C
$GPVTG,96.72,T,,M,1.57,N,2.9,K,A*3F
$GPGGA,230859.000,3748.7598,N,12217.8006,W,1,04,2.3,16.3,M,-25.1,M,,0000*53
$GPGSA,A,3,16,30,20,23,,,,,,,,,2.5,2.3,1.0*32
$GPRMC,230859.000,A,3748.7598,N,12217.8006,W,1.79,119.22,050411,,,A*7C
$GPVTG,119.22,T,,M,1.79,N,3.3,K,A*0B
$GPGGA,230900.000,3748.7597,N,12217.7995,W,1,04,2.3,16.2,M,-25.1,M,,0000*5C
$GPGSA,A,3,16,30,20,23,,,,,,,,,2.5,2.3,1.0*32
$GPRMC,230900.000,A,3748.7597,N,12217.7995,W,2.53,116.86,050411,,,A*78
$GPVTG,116.86,T,,M,2.53,N,4.7,K,A*02
$GPGGA,230901.000,3748.7592,N,12217.7987,W,1,04,2.3,15.1,M,-25.1,M,,0000*5B
$GPGSA,A,3,16,30,20,23,,,,,,,,,2.5,2.3,1.0*32
$GPGSV,3,1,12,23,68,002,32,20,62,186,39,16,48,090,38,13,43,306,27*7B
$GPGSV,3,2,12,32,42,154,41,30,38,062,32,07,22,240,24,04,15,294,22*7C
$GPGSV,3,3,12,10,07,319,27,31,06,052,27,24,03,194,21,03,02,129,*75
$GPRMC,230901.000,A,3748.7592,N,12217.7987,W,2.44,113.23,050411,,,A*73
$GPVTG,113.23,T,,M,2.44,N,4.5,K,A*0C
$GPGGA,230902.000,3748.7587,N,12217.7981,W,1,04,2.3,14.5,M,-25.1,M,,0000*5F
$GPGSA,A,3,16,30,20,23,,,,,,,,,2.5,2.3,1.0*32
$GPRMC,230902.000,A,3748.7587,N,12217.7981,W,2.55,112.38,050411,,,A*79
$GPVTG,112.38,T,,M,2.55,N,4.7,K,A*05
$GPGGA,230903.000,3748.7583,N,12217.7974,W,1,04,2.3,13.9,M,-25.1,M,,0000*5B
$GPGSA,A,3,16,30,20,23,,,,,,,,,2.5,2.3,1.0*32
$GPRMC,230903.000,A,3748.7583,N,12217.7974,W,2.40,116.55,050411,,,A*7D
$GPVTG,116.55,T,,M,2.40,N,4.4,K,A*0D
$GPGGA,230904.000,3748.7577,N,12217.7967,W,1,05,3.7,12.9,M,-25.1,M,,0000*50
$GPGSA,A,3,16,30,20,23,32,,,,,,,,9.5,3.7,8.7*33
$GPRMC,230904.000,A,3748.7577,N,12217.7967,W,2.64,114.56,050411,,,A*74
$GPVTG,114.56,T,,M,2.64,N,4.9,K,A*07
$GPGGA,230905.000,3748.7573,N,12217.7960,W,1,05,3.7,12.1,M,-25.1,M,,0000*5A
$GPGSA,A,3,16,30,20,23,32,,,,,,,,9.5,3.7,8.7*33
$GPRMC,230905.000,A,3748.7573,N,12217.7960,W,2.54,109.80,050411,,,A*72
$GPVTG,109.80,T,,M,2.54,N,4.7,K,A*0D
$GPGGA,230906.000,3748.7570,N,12217.7954,W,1,05,3.7,11.5,M,-25.1,M,,0000*5A
$GPGSA,A,3,16,30,20,23,32,,,,,,,,9.5,3.7,8.7*33
$GPGSV,3,1,12,23,68,003,31,20,62,186,38,16,48,089,37,13,43,307,24*7D
$GPGSV,3,2,12,32,41,154,40,30,38,062,34,07,22,241,35,04,15,294,22*79
$GPGSV,3,3,12,10,08,319,23,31,06,052,26,24,03,194,23,03,02,129,*7D
$GPRMC,230906.000,A,3748.7570,N,12217.7954,W,2.41,113.72,050411,,,A*77
$GPVTG,113.72,T,,M,2.41,N,4.5,K,A*0D
$GPGGA,230907.000,3748.7565,N,12217.7948,W,1,05,3.7,11.1,M,-25.1,M,,0000*56
$GPGSA,A,3,16,30,20,23,32,,,,,,,,9.5,3.7,8.7*33
$GPRMC,230907.000,A,3748.7565,N,12217.7948,W,2.31,129.30,050411,,,A*77
$GPVTG,129.30,T,,M,2.31,N,4.3,K,A*03
$GPGGA,230908.000,3748.7561,N,12217.7944,W,1,05,3.7,10.6,M,-25.1,M,,0000*57
$GPGSA,A,3,16,30,20,23,32,,,,,,,,9.5,3.7,8.7*33
$GPRMC,230908.000,A,3748.7561,N,12217.7944,W,2.22,132.11,050411,,,A*7B
$GPVTG,132.11,T,,M,2.22,N,4.1,K,A*0A
$GPGGA,230909.000,3748.7556,N,12217.7939,W,1,05,3.7,10.3,M,-25.1,M,,0000*5D
$GPGSA,A,3,16,30,20,23,32,,,,,,,,9.5,3.7,8.7*33
$GPRMC,230909.000,A,3748.7556,N,12217.7939,W,2.45,126.47,050411,,,A*73
$GPVTG,126.47,T,,M,2.45,N,4.5,K,A*09
$GPGGA,230910.000,3748.7552,N,12217.7933,W,1,05,3.7,9.9,M,-25.1,M,,0000*69
$GPGSA,A,3,16,30,20,23,32,,,,,,,,9.5,3.7,8.7*33
$GPRMC,230910.000,A,3748.7552,N,12217.7933,W,2.39,122.12,050411,,,A*7A
$GPVTG,122.12,T,,M,2.39,N,4.4,K,A*07
$GPGGA,230911.000,3748.7548,N,12217.7928,W,1,05,3.7,9.6,M,-25.1,M,,0000*66
$GPGSA,A,3,16,30,20,23,32,,,,,,,,9.5,3.7,8.7*33
$GPGSV,3,1,12,23,68,003,31,20,62,186,38,16,48,089,34,13,43,307,25*7F
$GPGSV,3,2,12,32,41,154,40,30,38,062,33,07,22,241,37,04,15,294,28*76
$GPGSV,3,3,12,10,08,319,24,31,06,052,23,24,03,194,23,03,02,129,*7F
$GPRMC,230911.000,A,3748.7548,N,12217.7928,W,2.27,123.49,050411,,,A*7A
$GPGGA,230912.000,3748.7546,N,12217.7931,W,1,05,3.7,7.0,M,-25.1,M,,0000*6B
$GPGSA,A,3,16,30,20,23,32,,,,,,,,9.5,3.7,8.7*33
$GPRMC,230912.000,A,3748.7546,N,12217.7931,W,1.94,131.22,050411,,,A*7A
$GPVTG,131.22,T,,M,1.94,N,3.6,K,A*07
$GPGGA,230913.000,3748.7543,N,12217.7934,W,1,05,3.7,4.6,M,-25.1,M,,0000*6F
$GPGSA,A,3,16,30,20,23,32,,,,,,,,9.5,3.7,8.7*33
$GPRMC,230913.000,A,3748.7543,N,12217.7934,W,1.95,135.79,050411,,,A*70
$GPVTG,135.79,T,,M,1.95,N,3.6,K,A*0C
$GPGGA,230914.000,3748.7540,N,12217.7935,W,1,05,3.7,2.8,M,-25.1,M,,0000*62
$GPGSA,A,3,16,30,20,23,32,,,,,,,,9.5,3.7,8.7*33
$GPRMC,230914.000,A,3748.7540,N,12217.7935,W,1.63,126.94,050411,,,A*7D
$GPVTG,126.94,T,,M,1.63,N,3.0,K,A*02
$GPGGA,230915.000,3748.7540,N,12217.7944,W,1,05,3.7,-1.1,M,-25.1,M,,0000*42
$GPGSA,A,3,16,30,20,23,32,,,,,,,,9.4,3.7,8.7*32
$GPRMC,230915.000,A,3748.7540,N,12217.7944,W,1.44,117.96,050411,,,A*7F
$GPVTG,117.96,T,,M,1.44,N,2.7,K,A*01
$GPGGA,230916.000,3748.7541,N,12217.7955,W,1,05,3.7,-5.8,M,-25.1,M,,0000*4D
$GPGSA,A,3,16,30,20,23,32,,,,,,,,9.4,3.7,8.7*32
$GPGSV,3,1,12,23,68,003,32,20,62,186,38,16,48,089,26,13,43,307,25*7F
$GPGSV,3,2,12,32,41,154,40,30,38,062,32,07,22,241,37,04,15,294,28*77
$GPGSV,3,3,12,10,08,319,22,31,06,052,23,24,03,194,22,03,02,129,*78
$GPRMC,230916.000,A,3748.7541,N,12217.7955,W,1.33,113.91,050411,,,A*7E
$GPVTG,113.91,T,,M,1.33,N,2.5,K,A*00
$GPGGA,230917.000,3748.7542,N,12217.7963,W,1,05,3.7,-11.2,M,-25.1,M,,0000*75
$GPGSA,A,3,16,30,20,23,32,,,,,,,,9.4,3.7,8.7*32
$GPRMC,230917.000,A,3748.7542,N,12217.7963,W,1.63,112.66,050411,,,A*75
$GPVTG,112.66,T,,M,1.63,N,3.0,K,A*08
$GPGGA,230918.000,3748.7542,N,12217.7966,W,1,05,3.7,-15.1,M,-25.1,M,,0000*78
$GPGSA,A,3,16,30,20,23,32,,,,,,,,9.4,3.7,8.7*32
$GPRMC,230918.000,A,3748.7542,N,12217.7966,W,1.72,125.86,050411,,,A*75
$GPVTG,125.86,T,,M,1.72,N,3.2,K,A*00
$GPGGA,230919.000,3748.7537,N,12217.7965,W,1,05,3.7,-16.1,M,-25.1,M,,0000*7B
$GPGSA,A,3,16,30,20,23,32,,,,,,,,9.4,3.7,8.7*32
$GPRMC,230919.000,A,3748.7537,N,12217.7965,W,1.60,122.79,050411,,,A*71
$GPVTG,122.79,T,,M,1.60,N,3.0,K,A*06
$GPGGA,230920.000,3748.7530,N,12217.7953,W,1,05,3.7,-15.7,M,-25.1,M,,0000*76
$GPGSA,A,3,16,30,20,23,32,,,,,,,,9.4,3.7,8.7*32
$GPRMC,230920.000,A,3748.7530,N,12217.7953,W,1.47,115.81,050411,,,A*7F
$GPVTG,115.81,T,,M,1.47,N,2.7,K,A*06
$GPGGA,230921.000,3748.7525,N,12217.7946,W,1,05,3.7,-16.1,M,-25.1,M,,0000*72
$GPGSA,A,3,16,30,20,23,32,,,,,,,,9.4,3.7,8.7*32
$GPGSV,3,1,12,23,68,003,23,20,62,186,38,16,48,089,30,13,43,307,25*78
$GPGSV,3,2,12,32,41,154,40,30,38,062,26,07,22,241,38,04,15,294,26*73
$GPGSV,3,3,12,10,08,319,23,31,06,052,22,24,03,194,27,03,02,129,*7D
$GPRMC,230921.000,A,3748.7525,N,12217.7946,W,1.55,128.07,050411,,,A*7D
$GPVTG,128.07,T,,M,1.55,N,2.9,K,A*0B
$GPGGA,230922.000,3748.7517,N,12217.7940,W,1,05,3.7,-16.9,M,-25.1,M,,0000*7E
$GPGSA,A,3,16,30,20,23,32,,,,,,,,9.4,3.7,8.7*32
$GPRMC,230922.000,A,3748.7517,N,12217.7940,W,1.61,129.22,050411,,,A*78
$GPVTG,129.22,T,,M,1.61,N,3.0,K,A*02
$GPGGA,230923.000,3748.7506,N,12217.7927,W,1,05,3.7,-14.7,M,-25.1,M,,0000*72
$GPGSA,A,3,16,30,20,23,32,,,,,,,,9.4,3.7,8.7*32
$GPRMC,230923.000,A,3748.7506,N,12217.7927,W,1.63,119.77,050411,,,A*79
$GPVTG,119.77,T,,M,1.63,N,3.0,K,A*03
$GPGGA,230924.000,3748.7500,N,12217.7914,W,1,05,3.7,-13.8,M,-25.1,M,,0000*7B
$GPGSA,A,3,16,30,20,23,32,,,,,,,,9.4,3.7,8.6*33
$GPRMC,230924.000,A,3748.7500,N,12217.7914,W,2.08,128.22,050411,,,A*74
$GPVTG,128.22,T,,M,2.08,N,3.9,K,A*06
$GPGGA,230925.000,3748.7494,N,12217.7901,W,1,05,3.7,-12.9,M,-25.1,M,,0000*72
$GPGSA,A,3,16,30,20,23,32,,,,,,,,9.4,3.7,8.6*33
$GPRMC,230925.000,A,3748.7494,N,12217.7901,W,1.76,117.43,050411,,,A*7C
$GPVTG,117.43,T,,M,1.76,N,3.3,K,A*0D
$GPGGA,230926.000,3748.7490,N,12217.7890,W,1,05,3.7,-11.9,M,-25.1,M,,0000*7F
$GPGSA,A,3,16,30,20,23,32,,,,,,,,9.4,3.7,8.6*33
$GPGSV,3,1,12,23,68,003,24,20,62,186,37,16,48,089,36,13,43,307,25*76
$GPGSV,3,2,12,32,41,154,41,30,38,062,32,07,22,241,38,04,15,294,27*76
$GPGSV,3,3,12,10,08,319,23,31,06,052,22,24,03,194,30,03,02,129,*7B
$GPVTG,119.14,T,,M,1.96,N,3.6,K,A*0A
$GPGGA,230927.000,3748.7487,N,12217.7879,W,1,05,3.7,-10.7,M,-25.1,M,,0000*70
$GPGSA,A,3,16,30,20,23,32,,,,,,,,9.4,3.7,8.6*33
$GPRMC,230927.000,A,3748.7487,N,12217.7879,W,2.10,115.93,050411,,,A*7E
$GPVTG,115.93,T,,M,2.10,N,3.9,K,A*0B
$GPGGA,230928.000,3748.7483,N,12217.7867,W,1,05,3.7,-9.8,M,-25.1,M,,0000*43
$GPGSA,A,3,16,30,20,23,32,,,,,,,,9.4,3.7,8.6*33
$GPRMC,230928.000,A,3748.7483,N,12217.7867,W,1.91,117.71,050411,,,A*7E
$GPVTG,117.71,T,,M,1.91,N,3.5,K,A*03
$GPGGA,230929.000,3748.7479,N,12217.7855,W,1,05,3.7,-8.3,M,-25.1,M,,0000*4C
$GPGSA,A,3,16,30,20,23,32,,,,,,,,9.4,3.7,8.6*33
$GPRMC,230929.000,A,3748.7479,N,12217.7855,W,1.72,109.35,050411,,,A*79
$GPVTG,109.35,T,,M,1.72,N,3.2,K,A*06
$GPGGA,230930.000,3748.7476,N,12217.7844,W,1,05,3.7,-6.8,M,-25.1,M,,0000*4E
$GPGSA,A,3,16,30,20,23,32,,,,,,,,9.4,3.7,8.6*33
$GPRMC,230930.000,A,3748.7476,N,12217.7844,W,1.52,108.98,050411,,,A*7A
$GPVTG,108.98,T,,M,1.52,N,2.8,K,A*09
$GPGGA,230931.000,3748.7471,N,12217.7833,W,1,05,3.7,-5.4,M,-25.1,M,,0000*47
$GPGSA,A,3,16,30,20,23,32,,,,,,,,9.4,3.7,8.6*33
$GPGSV,3,1,12,23,68,003,30,20,62,186,37,16,48,089,37,13,43,307,24*73
$GPGSV,3,2,12,32,41,154,42,30,38,062,32,07,22,241,38,04,15,294,29*7B
$GPGSV,3,3,12,10,08,319,21,31,06,052,28,24,03,194,30,03,02,129,*73
$GPRMC,230931.000,A,3748.7471,N,12217.7833,W,2.13,120.24,050411,,,A*77
$GPVTG,120.24,T,,M,2.13,N,3.9,K,A*02
$GPGGA,230932.000,3748.7466,N,12217.7820,W,1,05,3.7,-4.0,M,-25.1,M,,0000*45
$GPGSA,A,3,16,30,20,23,32,,,,,,,,9.4,3.7,8.6*33
$GPRMC,230932.000,A,3748.7466,N,12217.7820,W,2.62,121.38,050411,,,A*7A
$GPVTG,121.38,T,,M,2.62,N,4.9,K,A*0F
$GPGGA,230933.000,3748.7461,N,12217.7807,W,1,05,3.7,-2.4,M,-25.1,M,,0000*44
$GPGSA,A,3,16,30,20,23,32,,,,,,,,9.4,3.7,8.6*33
$GPRMC,230933.000,A,3748.7461,N,12217.7807,W,2.66,121.55,050411,,,A*76
$GPVTG,121.55,T,,M,2.66,N,4.9,K,A*00
$GPGGA,230934.000,3748.7456,N,12217.7795,W,1,05,3.7,-0.8,M,-25.1,M,,0000*4D
$GPGSA,A,3,16,30,20,23,32,,,,,,,,9.4,3.7,8.6*33
$GPRMC,230934.000,A,3748.7456,N,12217.7795,W,2.62,121.28,050411,,,A*7F
$GPVTG,121.28,T,,M,2.62,N,4.9,K,A*0E
$GPGGA,230935.000,3748.7450,N,12217.7783,W,1,05,3.7,0.8,M,-25.1,M,,0000*60
$GPGSA,A,3,16,30,20,23,32,,,,,,,,9.4,3.7,8.6*33
$GPRMC,230935.000,A,3748.7450,N,12217.7783,W,2.53,125.22,050411,,,A*73
$GPVTG,125.22,T,,M,2.53,N,4.7,K,A*0C
$GPGGA,230936.000,3748.7445,N,12217.7772,W,1,05,3.7,2.3,M,-25.1,M,,0000*60
$GPGSA,A,3,16,30,20,23,32,,,,,,,,9.4,3.7,8.6*33
$GPGSV,3,1,12,23,68,003,30,20,62,186,38,16,48,089,32,13,43,307,23*7E
$GPGSV,3,2,12,32,41,154,41,30,38,062,29,07,22,241,33,04,15,294,20*70
$GPGSV,3,3,12,10,08,319,19,31,06,052,26,24,03,194,21,03,02,129,*76
$GPRMC,230936.000,A,3748.7445,N,12217.7772,W,2.80,131.54,050411,,,A*70
$GPVTG,131.54,T,,M,2.80,N,5.2,K,A*02
$GPGGA,230937.000,3748.7439,N,12217.7762,W,1,05,3.7,3.8,M,-25.1,M,,0000*61
$GPGSA,A,3,16,30,20,23,32,,,,,,,,9.4,3.7,8.6*33
$GPRMC,230937.000,A,3748.7439,N,12217.7762,W,3.03,131.22,050411,,,A*70
$GPVTG,131.22,T,,M,3.03,N,5.6,K,A*0D
$GPGGA,230938.000,3748.7434,N,12217.7751,W,1,05,3.7,4.0,M,-25.1,M,,0000*6C
$GPGSA,A,3,16,30,20,23,32,,,,,,,,9.4,3.7,8.6*33
$GPRMC,230938.000,A,3748.7434,N,12217.7751,W,3.21,123.63,050411,,,A*74
$GPVTG,123.63,T,,M,3.21,N,5.9,K,A*04
$GPGGA,230939.000,3748.7430,N,12217.7741,W,1,05,3.7,4.3,M,-25.1,M,,0000*6B
$GPGSA,A,3,16,30,20,23,32,,,,,,,,9.4,3.7,8.6*33
$GPRMC,230939.000,A,3748.7430,N,12217.7741,W,3.11,121.88,050411,,,A*74
$GPVTG,121.88,T,,M,3.11,N,5.8,K,A*01
$GPGGA,230940.000,3748.7425,N,12217.7731,W,1,05,3.7,4.3,M,-25.1,M,,0000*66
$GPGSA,A,3,16,30,20,23,32,,,,,,,,9.3,3.7,8.6*34
$GPRMC,230940.000,A,3748.7425,N,12217.7731,W,3.05,116.89,050411,,,A*79
$GPVTG,116.89,T,,M,3.05,N,5.7,K,A*0E
$GPGGA,230941.000,3748.7421,N,12217.7720,W,1,05,3.7,4.6,M,-25.1,M,,0000*66
$GPGSA,A,3,16,30,20,23,32,,,,,,,,9.3,3.7,8.6*34
$GPGSV,3,1,12,23,68,003,30,20,62,186,38,16,48,089,33,13,43,307,24*78
$GPGSV,3,2,12,32,41,154,36,30,38,062,30,07,22,241,40,04,15,294,22*7E
$GPGSV,3,3,12,10,08,319,23,31,06,052,,24,03,194,21,03,02,129,*7B
$GPVTG,116.23,T,,M,3.05,N,5.7,K,A*0E
$GPGGA,230942.000,3748.7417,N,12217.7711,W,1,05,3.7,5.0,M,-25.1,M,,0000*65
$GPGSA,A,3,16,30,20,23,32,,,,,,,,9.3,3.7,8.6*34
$GPRMC,230942.000,A,3748.7417,N,12217.7711,W,2.70,119.60,050411,,,A*73
$GPVTG,119.60,T,,M,2.70,N,5.0,K,A*02
$GPGGA,230943.000,3748.7412,N,12217.7703,W,1,05,3.7,5.7,M,-25.1,M,,0000*65
$GPGSA,A,3,16,30,20,23,32,,,,,,,,9.3,3.7,8.6*34
$GPRMC,230943.000,A,3748.7412,N,12217.7703,W,3.14,128.44,050411,,,A*73
$GPVTG,128.44,T,,M,3.14,N,5.8,K,A*0D
$GPGGA,230944.000,3748.7407,N,12217.7694,W,1,05,3.7,6.5,M,-25.1,M,,0000*68
$GPGSA,A,3,16,30,20,23,32,,,,,,,,9.3,3.7,8.6*34
$GPRMC,230944.000,A,3748.7407,N,12217.7694,W,2.74,127.26,050411,,,A*73
$GPVTG,127.26,T,,M,2.74,N,5.1,K,A*08
$GPGGA,230945.000,3748.7402,N,12217.7685,W,1,05,3.7,6.6,M,-25.1,M,,0000*6F
$GPGSA,A,3,16,30,20,23,32,,,,,,,,9.3,3.7,8.6*34
$GPRMC,230945.000,A,3748.7402,N,12217.7685,W,2.83,119.61,050411,,,A*71
$GPVTG,119.61,T,,M,2.83,N,5.2,K,A*0D
$GPGGA,230946.000,3748.7395,N,12217.7670,W,1,05,3.7,8.4,M,-25.1,M,,0000*63
$GPGSA,A,3,16,30,20,23,32,,,,,,,,9.3,3.7,8.6*34
$GPGSV,3,1,12,23,68,003,27,20,62,186,37,16,48,089,31,13,43,307,25*72
$GPGSV,3,2,12,32,41,154,38,30,38,062,27,07,22,241,40,04,15,294,26*72
$GPGSV,3,3,12,10,08,319,24,31,06,052,29,24,03,194,21,03,02,129,*77
$GPRMC,230946.000,A,3748.7395,N,12217.7670,W,3.04,118.97,050411,,,A*77
$GPVTG,118.97,T,,M,3.04,N,5.6,K,A*0F
$GPGGA,230947.000,3748.7391,N,12217.7658,W,1,05,3.7,8.9,M,-25.1,M,,0000*61
$GPGSA,A,3,16,30,20,23,32,,,,,,,,9.3,3.7,8.6*34
$GPRMC,230947.000,A,3748.7391,N,12217.7658,W,3.15,118.90,050411,,,A*7F
$GPVTG,118.90,T,,M,3.15,N,5.8,K,A*06
$GPGGA,230948.000,3748.7387,N,12217.7647,W,1,05,3.7,9.4,M,-25.1,M,,0000*6B
$GPGSA,A,3,16,30,20,23,32,,,,,,,,9.3,3.7,8.5*37
$GPRMC,230948.000,A,3748.7387,N,12217.7647,W,3.01,116.38,050411,,,A*70
$GPVTG,116.38,T,,M,3.01,N,5.6,K,A*01
$GPGGA,230949.000,3748.7380,N,12217.7632,W,1,05,3.7,10.3,M,-25.1,M,,0000*50
$GPGSA,A,3,16,30,20,23,32,,,,,,,,9.3,3.7,8.5*37
$GPRMC,230949.000,A,3748.7380,N,12217.7632,W,3.48,121.12,050411,,,A*75
$GPVTG,121.12,T,,M,3.48,N,6.4,K,A*01
$GPGGA,230950.000,3748.7374,N,12217.7618,W,1,05,3.7,11.2,M,-25.1,M,,0000*5B
$GPGSA,A,3,16,30,20,23,32,,,,,,,,9.3,3.7,8.5*37
$GPRMC,230950.000,A,3748.7374,N,12217.7618,W,3.18,116.03,050411,,,A*7F
$GPVTG,116.03,T,,M,3.18,N,5.9,K,A*0E
$GPGGA,230951.000,3748.7371,N,12217.7608,W,1,05,3.7,12.3,M,-25.1,M,,0000*5C
$GPGSA,A,3,16,30,20,23,32,,,,,,,,9.3,3.7,8.5*37
$GPGSV,3,1,12,23,69,004,28,20,61,186,37,16,48,089,34,13,43,307,25*7D
$GPGSV,3,2,12,32,41,154,39,30,38,062,31,07,23,241,40,04,15,293,27*73
$GPGSV,3,3,12,10,08,319,25,31,05,052,32,24,03,194,20,03,02,128,*7F
$GPRMC,230951.000,A,3748.7371,N,12217.7608,W,2.90,114.26,050411,,,A*7E
$GPVTG,114.26,T,,M,2.90,N,5.4,K,A*07
$GPGGA,230952.000,3748.7366,N,12217.7596,W,1,05,3.7,13.4,M,-25.1,M,,0000*5B
$GPGSA,A,3,16,30,20,23,32,,,,,,,,9.3,3.7,8.5*37
$GPRMC,230952.000,A,3748.7366,N,12217.7596,W,3.33,118.66,050411,,,A*7F
$GPVTG,118.66,T,,M,3.33,N,6.2,K,A*02
$GPGGA,230953.000,3748.7362,N,12217.7586,W,1,05,3.7,14.6,M,-25.1,M,,0000*5A
$GPGSA,A,3,16,30,20,23,32,,,,,,,,9.3,3.7,8.5*37
$GPRMC,230953.000,A,3748.7362,N,12217.7586,W,3.13,120.76,050411,,,A*73
$GPVTG,120.76,T,,M,3.13,N,5.8,K,A*03
$GPGGA,230954.000,3748.7358,N,12217.7578,W,1,05,3.7,15.7,M,-25.1,M,,0000*55
$GPGSA,A,3,16,30,20,23,32,,,,,,,,9.3,3.7,8.5*37
$GPRMC,230954.000,A,3748.7358,N,12217.7578,W,3.15,120.44,050411,,,A*7B
$GPVTG,120.44,T,,M,3.15,N,5.8,K,A*04
$GPGGA,230955.000,3748.7355,N,12217.7569,W,1,05,3.7,16.6,M,-25.1,M,,0000*5B
$GPGSA,A,3,16,30,20,23,32,,,,,,,,9.3,3.7,8.5*37
$GPRMC,230955.000,A,3748.7355,N,12217.7569,W,3.29,119.09,050411,,,A*7B
$GPVTG,119.09,T,,M,3.29,N,6.1,K,A*02
$GPGGA,230956.000,3748.7351,N,12217.7559,W,1,05,3.7,17.4,M,-25.1,M,,0000*5C
$GPGSA,A,3,16,30,20,23,32,,,,,,,,9.3,3.7,8.5*37
$GPGSV,3,1,12,23,69,004,29,20,61,186,36,16,48,089,35,13,43,307,25*7C
$GPGSV,3,2,12,32,41,154,39,30,38,062,31,07,23,241,39,04,15,293,27*7D
$GPGSV,3,3,12,10,08,319,27,31,05,052,23,24,03,194,20,03,02,128,*7D
$GPRMC,230956.000,A,3748.7351,N,12217.7559,W,3.25,120.89,050411,,,A*71
$GPGGA,230957.000,3748.7347,N,12217.7550,W,1,05,3.7,18.1,M,-25.1,M,,0000*59
$GPGSA,A,3,16,30,20,23,32,,,,,,,,9.3,3.7,8.5*37
$GPRMC,230957.000,A,3748.7347,N,12217.7550,W,3.28,121.06,050411,,,A*75
$GPVTG,121.06,T,,M,3.28,N,6.1,K,A*07
$GPGGA,230958.000,3748.7343,N,12217.7541,W,1,05,3.7,18.7,M,-25.1,M,,0000*54
$GPGSA,A,3,16,30,20,23,32,,,,,,,,9.3,3.7,8.5*37
$GPRMC,230958.000,A,3748.7343,N,12217.7541,W,3.38,119.19,050411,,,A*7A
$GPVTG,119.19,T,,M,3.38,N,6.3,K,A*01
$GPGGA,230959.000,3748.7339,N,12217.7531,W,1,05,3.7,19.2,M,-25.1,M,,0000*5B
$GPGSA,A,3,16,30,20,23,32,,,,,,,,9.3,3.7,8.5*37
$GPRMC,230959.000,A,3748.7339,N,12217.7531,W,3.09,115.72,050411,,,A*72
$GPVTG,115.72,T,,M,3.09,N,5.7,K,A*05
$GPGGA,231000.000,3748.7334,N,12217.7520,W,1,05,3.7,19.6,M,-25.1,M,,0000*56
$GPGSA,A,3,16,30,20,23,32,,,,,,,,9.3,3.7,8.5*37
$GPRMC,231000.000,A,3748.7334,N,12217.7520,W,2.94,118.88,050411,,,A*76
$GPVTG,118.88,T,,M,2.94,N,5.4,K,A*0B
$GPGGA,231001.000,3748.7330,N,12217.7510,W,1,05,3.7,20.4,M,-25.1,M,,0000*58
$GPGSA,A,3,16,30,20,23,32,,,,,,,,9.3,3.7,8.5*37
$GPGSV,3,1,12,23,69,004,30,20,61,186,37,16,48,089,35,13,43,307,25*75
$GPGSV,3,2,12,32,41,154,40,30,38,062,37,07,23,241,32,04,15,293,27*7E
$GPGSV,3,3,12,10,08,319,27,31,05,052,22,24,03,194,19,03,02,128,*76
$GPRMC,231001.000,A,3748.7330,N,12217.7510,W,3.28,122.57,050411,,,A*7D
$GPVTG,122.57,T,,M,3.28,N,6.1,K,A*00
$GPGGA,231002.000,3748.7326,N,12217.7501,W,1,05,3.7,20.8,M,-25.1,M,,0000*50
$GPGSA,A,3,16,30,20,23,32,,,,,,,,9.3,3.7,8.5*37
$GPRMC,231002.000,A,3748.7326,N,12217.7501,W,3.26,119.11,050411,,,A*7D
$GPVTG,119.11,T,,M,3.26,N,6.0,K,A*05
$GPGGA,231003.000,3748.7323,N,12217.7492,W,1,05,3.7,21.3,M,-25.1,M,,0000*55
$GPGSA,A,3,16,30,20,23,32,,,,,,,,9.3,3.7,8.5*37
$GPRMC,231003.000,A,3748.7323,N,12217.7492,W,3.53,114.27,050411,,,A*78
$GPVTG,114.27,T,,M,3.53,N,6.5,K,A*0A
$GPGGA,231004.000,3748.7318,N,12217.7477,W,1,06,1.5,24.1,M,-25.1,M,,0000*55
$GPGSA,A,3,16,30,20,23,07,32,,,,,,,2.9,1.5,2.5*3B
$GPRMC,231004.000,A,3748.7318,N,12217.7477,W,2.94,125.53,050411,,,A*77
$GPVTG,125.53,T,,M,2.94,N,5.5,K,A*02
$GPGGA,231005.000,3748.7311,N,12217.7457,W,1,06,1.5,28.8,M,-25.1,M,,0000*5A
$GPGSA,A,3,16,30,20,23,07,32,,,,,,,2.9,1.5,2.5*3B
$GPRMC,231005.000,A,3748.7311,N,12217.7457,W,2.73,125.56,050411,,,A*71
$GPVTG,125.56,T,,M,2.73,N,5.1,K,A*0A
$GPGGA,231006.000,3748.7308,N,12217.7453,W,1,06,1.5,28.4,M,-25.1,M,,0000*59
$GPGSA,A,3,16,30,20,23,07,32,,,,,,,2.9,1.5,2.5*3B
$GPGSV,3,1,12,23,69,004,31,20,61,186,33,16,48,088,36,13,43,307,26*71
$GPGSV,3,2,12,32,41,154,37,30,38,061,34,07,23,241,22,04,15,293,23*7B
$GPGSV,3,3,12,10,08,318,21,31,05,052,22,24,03,194,18,03,02,128,*70
$GPRMC,231006.000,A,3748.7308,N,12217.7453,W,2.68,124.95,050411,,,A*7A
$GPVTG,124.95,T,,M,2.68,N,5.0,K,A*0F
$GPGGA,231007.000,3748.7304,N,12217.7443,W,1,06,1.5,29.9,M,-25.1,M,,0000*59
$GPGSA,A,3,16,30,20,23,07,32,,,,,,,2.9,1.5,2.5*3B
$GPRMC,231007.000,A,3748.7304,N,12217.7443,W,3.34,120.00,050411,,,A*76
$GPVTG,120.00,T,,M,3.34,N,6.2,K,A*0E
$GPGGA,231008.000,3748.7300,N,12217.7438,W,1,06,1.5,29.8,M,-25.1,M,,0000*5F
$GPGSA,A,3,16,30,20,23,07,32,,,,,,,2.9,1.5,2.5*3B
$GPRMC,231008.000,A,3748.7300,N,12217.7438,W,2.54,125.79,050411,,,A*7D
$GPVTG,125.79,T,,M,2.54,N,4.7,K,A*05
$GPGGA,231009.000,3748.7298,N,12217.7438,W,1,06,1.5,28.5,M,-25.1,M,,0000*52
$GPGSA,A,3,16,30,20,23,07,32,,,,,,,2.9,1.5,2.5*3B
$GPRMC,231009.000,A,3748.7298,N,12217.7438,W,2.18,125.00,050411,,,A*7A
$GPVTG,125.00,T,,M,2.18,N,4.0,K,A*04
$GPGGA,231010.000,3748.7295,N,12217.7434,W,1,06,1.5,28.0,M,-25.1,M,,0000*5E
$GPGSA,A,3,16,30,20,23,07,32,,,,,,,2.9,1.5,2.5*3B
$GPRMC,231010.000,A,3748.7295,N,12217.7434,W,1.98,122.52,050411,,,A*78
$GPVTG,122.52,T,,M,1.98,N,3.7,K,A*0F
$GPGGA,231011.000,3748.7292,N,12217.7422,W,1,06,1.5,29.8,M,-25.1,M,,0000*56
$GPGSA,A,3,16,30,20,23,07,32,,,,,,,2.9,1.5,2.5*3B
$GPGSV,3,1,12,23,69,004,31,20,61,186,35,16,48,088,36,13,43,307,27*76
$GPGSV,3,2,12,32,41,154,38,30,38,061,35,07,23,241,22,04,15,293,24*72
$GPGSV,3,3,12,10,08,318,23,31,05,052,21,24,03,194,18,03,02,128,*71
$GPVTG,117.57,T,,M,2.51,N,4.7,K,A*0D
$GPGGA,231012.000,3748.7289,N,12217.7408,W,1,06,1.5,31.1,M,-25.1,M,,0000*57
$GPGSA,A,3,16,30,20,23,07,32,,,,,,,2.9,1.5,2.5*3B
$GPRMC,231012.000,A,3748.7289,N,12217.7408,W,2.78,119.03,050411,,,A*79
$GPVTG,119.03,T,,M,2.78,N,5.2,K,A*0D
$GPGGA,231013.000,3748.7285,N,12217.7397,W,1,06,1.5,32.0,M,-25.1,M,,0000*59
$GPGSA,A,3,16,30,20,23,07,32,,,,,,,2.9,1.5,2.5*3B
$GPRMC,231013.000,A,3748.7285,N,12217.7397,W,2.73,120.84,050411,,,A*7B
$GPVTG,120.84,T,,M,2.73,N,5.1,K,A*00
$GPGGA,231014.000,3748.7280,N,12217.7388,W,1,06,1.5,32.6,M,-25.1,M,,0000*53
$GPGSA,A,3,16,30,20,23,07,32,,,,,,,2.9,1.5,2.5*3B
$GPRMC,231014.000,A,3748.7280,N,12217.7388,W,2.65,125.13,050411,,,A*7B
$GPVTG,125.13,T,,M,2.65,N,4.9,K,A*05
$GPGGA,231015.000,3748.7276,N,12217.7387,W,1,06,1.5,31.2,M,-25.1,M,,0000*53
$GPGSA,A,3,16,30,20,23,07,32,,,,,,,2.9,1.5,2.5*3B
$GPRMC,231015.000,A,3748.7276,N,12217.7387,W,2.51,132.76,050411,,,A*7E
$GPVTG,132.76,T,,M,2.51,N,4.7,K,A*09
$GPGGA,231016.000,3748.7273,N,12217.7385,W,1,06,1.5,29.6,M,-25.1,M,,0000*5A
$GPGSA,A,3,16,30,20,23,07,32,,,,,,,2.9,1.5,2.5*3B
$GPGSV,3,1,12,23,69,004,31,20,61,186,36,16,48,088,36,13,43,307,27*75
$GPGSV,3,2,12,32,41,154,42,30,38,061,29,07,23,241,30,04,15,293,21*74
$GPGSV,3,3,12,10,08,318,23,31,05,052,21,24,03,194,17,03,02,128,*7E
$GPRMC,231016.000,A,3748.7273,N,12217.7385,W,2.15,132.78,050411,,,A*74
$GPVTG,132.78,T,,M,2.15,N,4.0,K,A*00
$GPGGA,231017.000,3748.7269,N,12217.7382,W,1,06,1.5,28.0,M,-25.1,M,,0000*50
$GPGSA,A,3,16,30,20,23,07,32,,,,,,,2.9,1.5,2.5*3B
$GPRMC,231017.000,A,3748.7269,N,12217.7382,W,2.53,128.63,050411,,,A*7A
$GPVTG,128.63,T,,M,2.53,N,4.7,K,A*04
$GPGGA,231018.000,3748.7267,N,12217.7377,W,1,06,1.5,26.5,M,-25.1,M,,0000*50
$GPGSA,A,3,16,30,20,23,07,32,,,,,,,2.9,1.5,2.5*3B
$GPRMC,231018.000,A,3748.7267,N,12217.7377,W,2.71,119.70,050411,,,A*71
$GPVTG,119.70,T,,M,2.71,N,5.0,K,A*02
$GPGGA,231019.000,3748.7265,N,12217.7371,W,1,06,1.5,24.9,M,-25.1,M,,0000*5B
$GPGSA,A,3,16,30,20,23,07,32,,,,,,,2.9,1.5,2.5*3B
$GPRMC,231019.000,A,3748.7265,N,12217.7371,W,2.14,121.10,050411,,,A*7A
$GPVTG,121.10,T,,M,2.14,N,4.0,K,A*0D
$GPGGA,231020.000,3748.7262,N,12217.7364,W,1,06,1.5,23.9,M,-25.1,M,,0000*55
$GPGSA,A,3,16,30,20,23,07,32,,,,,,,2.9,1.5,2.5*3B
$GPRMC,231020.000,A,3748.7262,N,12217.7364,W,2.35,123.42,050411,,,A*75
$GPVTG,123.42,T,,M,2.35,N,4.4,K,A*0F
$GPGGA,231021.000,3748.7257,N,12217.7358,W,1,06,1.5,23.7,M,-25.1,M,,0000*53
$GPGSA,A,3,16,30,20,23,07,32,,,,,,,2.9,1.5,2.5*3B
$GPGSV,3,1,12,23,69,004,31,20,61,186,36,16,48,088,36,13,43,307,26*74
$GPGSV,3,2,12,32,41,154,42,30,38,061,31,07,23,241,24,04,15,293,26*7F
$GPGSV,3,3,12,10,08,318,23,31,05,052,21,24,03,194,,03,02,128,*78
$GPRMC,231021.000,A,3748.7257,N,12217.7358,W,2.34,120.73,050411,,,A*7D
$GPVTG,120.73,T,,M,2.34,N,4.3,K,A*08
$GPGGA,231022.000,3748.7255,N,12217.7352,W,1,06,1.5,22.1,M,-25.1,M,,0000*5F
$GPGSA,A,3,16,30,20,23,07,32,,,,,,,2.9,1.5,2.5*3B
$GPRMC,231022.000,A,3748.7255,N,12217.7352,W,2.23,118.44,050411,,,A*7F
$GPVTG,118.44,T,,M,2.23,N,4.1,K,A*03
$GPGGA,231023.000,3748.7251,N,12217.7344,W,1,06,1.5,21.6,M,-25.1,M,,0000*59
$GPGSA,A,3,16,30,20,23,07,32,,,,,,,2.9,1.5,2.5*3B
$GPRMC,231023.000,A,3748.7251,N,12217.7344,W,2.31,126.43,050411,,,A*74
$GPVTG,126.43,T,,M,2.31,N,4.3,K,A*08
$GPGGA,231024.000,3748.7248,N,12217.7337,W,1,06,1.5,21.2,M,-25.1,M,,0000*56
$GPGSA,A,3,16,30,20,23,07,32,,,,,,,2.9,1.5,2.5*3B
$GPRMC,231024.000,A,3748.7248,N,12217.7337,W,1.70,123.77,050411,,,A*7B
$GPVTG,123.77,T,,M,1.70,N,3.2,K,A*0A
$GPGGA,231025.000,3748.7244,N,12217.7327,W,1,06,1.5,21.5,M,-25.1,M,,0000*5D
$GPGSA,A,3,16,30,20,23,07,32,,,,,,,2.9,1.5,2.5*3B
$GPRMC,231025.000,A,3748.7244,N,12217.7327,W,2.33,127.54,050411,,,A*76
$GPVTG,127.54,T,,M,2.33,N,4.3,K,A*0D
$GPGGA,231026.000,3748.7238,N,12217.7314,W,1,06,1.5,23.1,M,-25.1,M,,0000*53
$GPGSA,A,3,16,30,20,23,07,32,,,,,,,2.9,1.5,2.5*3B
$GPGSV,3,1,12,23,69,004,31,20,61,186,38,16,48,088,36,13,43,307,27*7B
$GPGSV,3,2,12,32,41,154,38,30,38,061,32,07,23,241,23,04,15,293,28*78
$GPGSV,3,3,12,10,08,318,25,31,05,052,21,24,03,194,,03,02,128,*7E
$GPVTG,127.50,T,,M,2.72,N,5.0,K,A*0E
$GPGGA,231027.000,3748.7232,N,12217.7301,W,1,06,1.5,24.5,M,-25.1,M,,0000*5F
$GPGSA,A,3,16,30,20,23,07,32,,,,,,,2.9,1.5,2.5*3B
$GPRMC,231027.000,A,3748.7232,N,12217.7301,W,2.60,130.15,050411,,,A*74
$GPVTG,130.15,T,,M,2.60,N,4.8,K,A*03
$GPGGA,231028.000,3748.7226,N,12217.7291,W,1,06,1.5,25.2,M,-25.1,M,,0000*5B
$GPGSA,A,3,16,30,20,23,07,32,,,,,,,2.9,1.5,2.5*3B
$GPRMC,231028.000,A,3748.7226,N,12217.7291,W,2.33,123.44,050411,,,A*76
$GPVTG,123.44,T,,M,2.33,N,4.3,K,A*08
$GPGGA,231029.000,3748.7221,N,12217.7280,W,1,06,1.5,26.4,M,-25.1,M,,0000*58
$GPGSA,A,3,16,30,20,23,07,32,,,,,,,2.9,1.5,2.5*3B
$GPRMC,231029.000,A,3748.7221,N,12217.7280,W,2.42,128.74,050411,,,A*7E
$GPVTG,128.74,T,,M,2.42,N,4.5,K,A*00
$GPGGA,231030.000,3748.7218,N,12217.7276,W,1,06,1.5,25.4,M,-25.1,M,,0000*50
$GPGSA,A,3,16,30,20,23,07,32,,,,,,,2.9,1.5,2.5*3B
$GPRMC,231030.000,A,3748.7218,N,12217.7276,W,2.36,125.46,050411,,,A*7A
$GPVTG,125.46,T,,M,2.36,N,4.4,K,A*0E
$GPGGA,231031.000,3748.7215,N,12217.7272,W,1,06,1.5,24.0,M,-25.1,M,,0000*5D
$GPGSA,A,3,16,30,20,23,07,32,,,,,,,2.9,1.5,2.5*3B
$GPGSV,3,1,12,23,69,004,31,20,61,186,30,16,48,088,35,13,43,307,25*72
$GPGSV,3,2,12,32,41,154,27,30,38,061,33,07,23,241,22,04,15,293,22*7C
$GPGSV,3,3,12,10,08,318,24,31,05,052,21,24,03,194,,03,02,128,*7F
$GPRMC,231031.000,A,3748.7215,N,12217.7272,W,2.07,117.23,050411,,,A*72
$GPVTG,117.23,T,,M,2.07,N,3.8,K,A*05
$GPGGA,231032.000,3748.7215,N,12217.7266,W,1,06,1.5,23.9,M,-25.1,M,,0000*55
$GPGSA,A,3,16,30,20,23,07,32,,,,,,,2.9,1.5,2.5*3B
$GPRMC,231032.000,A,3748.7215,N,12217.7266,W,1.73,123.80,050411,,,A*7A
$GPVTG,123.80,T,,M,1.73,N,3.2,K,A*01
$GPGGA,231033.000,3748.7212,N,12217.7261,W,1,06,1.5,23.7,M,-25.1,M,,0000*5A
$GPGSA,A,3,16,30,20,23,07,32,,,,,,,2.9,1.5,2.5*3B
$GPRMC,231033.000,A,3748.7212,N,12217.7261,W,1.71,130.19,050411,,,A*7B
$GPVTG,130.19,T,,M,1.71,N,3.2,K,A*01
$GPGGA,231034.000,3748.7212,N,12217.7255,W,1,05,3.7,23.4,M,-25.1,M,,0000*5A
$GPGSA,A,3,16,30,20,23,32,,,,,,,,9.1,3.7,8.4*34
$GPRMC,231034.000,A,3748.7212,N,12217.7255,W,2.14,114.14,050411,,,A*70
$GPVTG,114.14,T,,M,2.14,N,4.0,K,A*0F
$GPGGA,231035.000,3748.7209,N,12217.7241,W,1,06,1.5,24.7,M,-25.1,M,,0000*53
$GPGSA,A,3,16,30,20,23,07,32,,,,,,,2.9,1.5,2.5*3B
$GPRMC,231035.000,A,3748.7209,N,12217.7241,W,2.32,117.56,050411,,,A*7F
$GPVTG,117.56,T,,M,2.32,N,4.3,K,A*0D
$GPGGA,231036.000,3748.7211,N,12217.7233,W,1,05,3.7,24.2,M,-25.1,M,,0000*5A
$GPGSA,A,3,16,30,20,23,32,,,,,,,,9.1,3.7,8.4*34
$GPGSV,3,1,12,23,69,004,32,20,61,186,19,16,48,088,34,13,43,307,26*78
$GPGSV,3,2,12,32,41,154,22,30,38,061,35,07,23,241,18,04,15,293,21*75
$GPGSV,3,3,12,10,08,318,24,31,05,052,30,24,03,194,,03,02,128,*7F
$GPRMC,231036.000,A,3748.7211,N,12217.7233,W,2.51,113.14,050411,,,A*77
$GPVTG,113.14,T,,M,2.51,N,4.7,K,A*0E
$GPGGA,231037.000,3748.7212,N,12217.7224,W,1,05,3.7,23.1,M,-25.1,M,,0000*5A
$GPGSA,A,3,16,30,20,23,32,,,,,,,,9.1,3.7,8.3*33
$GPRMC,231037.000,A,3748.7212,N,12217.7224,W,2.51,127.65,050411,,,A*72
$GPVTG,127.65,T,,M,2.51,N,4.7,K,A*0F
$GPGGA,231038.000,3748.7209,N,12217.7219,W,1,05,3.7,22.9,M,-25.1,M,,0000*58
$GPGSA,A,3,16,30,20,23,32,,,,,,,,9.1,3.7,8.3*33
$GPRMC,231038.000,A,3748.7209,N,12217.7219,W,1.90,128.25,050411,,,A*7C
$GPVTG,128.25,T,,M,1.90,N,3.5,K,A*0F
$GPGGA,231039.000,3748.7208,N,12217.7210,W,1,06,1.5,23.0,M,-25.1,M,,0000*5A
$GPGSA,A,3,16,30,20,23,07,32,,,,,,,2.9,1.5,2.5*3B
$GPRMC,231039.000,A,3748.7208,N,12217.7210,W,2.37,85.32,050411,,,A*4B
$GPVTG,85.32,T,,M,2.37,N,4.4,K,A*37
$GPGGA,231040.000,3748.7210,N,12217.7200,W,1,06,1.5,22.9,M,-25.1,M,,0000*54
$GPGSA,A,3,16,30,20,23,07,32,,,,,,,2.9,1.5,2.5*3B
$GPRMC,231040.000,A,3748.7210,N,12217.7200,W,2.77,57.53,050411,,,A*41
$GPVTG,57.53,T,,M,2.77,N,5.1,K,A*3F
$GPGGA,231041.000,3748.7214,N,12217.7187,W,1,06,1.5,22.5,M,-25.1,M,,0000*51
$GPGSA,A,3,16,30,20,23,07,32,,,,,,,2.9,1.5,2.5*3B
$GPGSV,3,1,12,23,69,004,32,20,61,186,33,16,48,088,37,13,43,307,25*70
$GPGSV,3,2,12,32,41,154,39,30,38,061,36,07,23,241,19,04,15,293,21*7D
$GPRMC,231041.000,A,3748.7214,N,12217.7187,W,2.87,59.49,050411,,,A*42
$GPVTG,59.49,T,,M,2.87,N,5.3,K,A*37
$GPGGA,231042.000,3748.7216,N,12217.7174,W,1,06,1.5,23.0,M,-25.1,M,,0000*58
$GPGSA,A,3,16,30,20,23,07,32,,,,,,,2.9,1.5,2.5*3B
$GPRMC,231042.000,A,3748.7216,N,12217.7174,W,2.39,54.71,050411,,,A*4C
$GPVTG,54.71,T,,M,2.39,N,4.4,K,A*32
