$ADVER,3080,2.3
$GPRMC,232134.363,A,3748.7949,N,12217.8580,W,0.22,339.46,201211,,,A*7C
$GPGGA,232135.363,3748.7951,N,12217.8582,W,1,03,6.9,25.1,M,-25.1,M,,0000*5F
$GPGSA,A,2,03,18,06,,,,,,,,,,7.0,6.9,1.0*36
$GPRMC,232135.363,A,3748.7951,N,12217.8582,W,0.44,343.74,201211,,,A*7A
$GPVTG,343.74,T,,M,0.44,N,0.8,K,N*0D
$GPGGA,232136.363,3748.7953,N,12217.8582,W,1,03,6.9,25.1,M,-25.1,M,,0000*5E
$GPGSA,A,2,03,18,06,,,,,,,,,,7.0,6.9,1.0*36
$GPRMC,232136.363,A,3748.7953,N,12217.8582,W,0.63,348.52,201211,,,A*71
$GPVTG,348.52,T,,M,0.63,N,1.2,K,N*0C
$GPGGA,232137.363,3748.7955,N,12217.8581,W,1,03,6.9,25.1,M,-25.1,M,,0000*5A
$GPGSA,A,2,03,18,06,,,,,,,,,,7.0,6.9,1.0*36
$GPGSV,3,1,12,06,43,229,35,03,40,245,36,18,39,060,41,22,71,355,39*78
$GPGSV,3,2,12,14,61,185,35,19,39,294,41,21,32,121,30,09,19,063,39*76
$GPGSV,3,3,12,27,11,044,,24,08,306,,11,06,311,37,48,00,000,35*7F
$GPRMC,232137.363,A,3748.7955,N,12217.8581,W,0.86,112.91,201211,,,A*7C
$GPVTG,112.91,T,,M,0.86,N,1.6,K,N*01
$GPGGA,232138.363,3748.7956,N,12217.8582,W,1,03,6.9,25.1,M,-25.1,M,,0000*55
$GPGSA,A,2,03,18,06,,,,,,,,,,7.0,6.9,1.0*36
$GPRMC,232138.363,A,3748.7956,N,12217.8582,W,0.78,324.29,201211,,,A*76
$GPVTG,324.29,T,,M,0.78,N,1.4,K,N*06
$GPGGA,232139.363,3748.7957,N,12217.8583,W,1,03,6.9,25.1,M,-25.1,M,,0000*54
$GPGSA,A,2,03,18,06,,,,,,,,,,7.0,6.9,1.0*36
$GPRMC,232139.363,A,3748.7957,N,12217.8583,W,0.34,185.71,201211,,,A*7B
$GPVTG,185.71,T,,M,0.34,N,0.6,K,N*09
$GPGGA,232140.363,3748.7956,N,12217.8584,W,1,03,6.9,25.1,M,-25.1,M,,0000*5C
$GPGSA,A,2,03,18,06,,,,,,,,,,7.0,6.9,1.0*36
$GPRMC,232140.363,A,3748.7956,N,12217.8584,W,0.52,205.22,201211,,,A*7E
$GPVTG,205.22,T,,M,0.52,N,1.0,K,N*03
$GPGGA,232141.363,3748.7954,N,12217.8583,W,1,03,6.9,25.1,M,-25.1,M,,0000*58
$GPGSA,A,2,03,18,06,,,,,,,,,,7.0,6.9,1.0*36
$GPRMC,232141.363,A,3748.7954,N,12217.8583,W,0.65,184.28,201211,,,A*7E
$GPVTG,184.28,T,,M,0.65,N,1.2,K,N*05
$GPGGA,232142.363,3748.7951,N,12217.8584,W,1,03,6.9,25.1,M,-25.1,M,,0000*59
$GPGSA,A,2,03,18,06,,,,,,,,,,7.0,6.9,1.0*36
$GPGSV,3,1,12,06,43,229,38,03,40,245,37,18,39,060,29,22,71,355,35*76
$GPGSV,3,2,12,14,61,185,38,19,39,294,36,21,32,121,34,09,19,063,25*72
$GPGSV,3,3,12,27,11,044,29,24,08,306,,11,06,311,31,48,00,000,42*72
$GPRMC,232142.363,A,3748.7951,N,12217.8584,W,0.97,195.77,201211,,,A*78
$GPGGA,232143.363,3748.7950,N,12217.8584,W,1,03,6.9,25.1,M,-25.1,M,,0000*59
$GPGSA,A,2,03,18,06,,,,,,,,,,7.0,6.9,1.0*36
$GPRMC,232143.363,A,3748.7950,N,12217.8584,W,0.44,155.83,201211,,,A*71
$GPVTG,155.83,T,,M,0.44,N,0.8,K,N*00
$GPGGA,232144.363,3748.7951,N,12217.8584,W,1,03,6.9,25.1,M,-25.1,M,,0000*5F
$GPGSA,A,2,03,18,06,,,,,,,,,,7.0,6.9,1.0*36
$GPRMC,232144.363,A,3748.7951,N,12217.8584,W,0.37,309.71,201211,,,A*75
$GPVTG,309.71,T,,M,0.37,N,0.7,K,N*0D
$GPGGA,232145.363,3748.7952,N,12217.8584,W,1,03,6.9,25.1,M,-25.1,M,,0000*5D
$GPGSA,A,2,03,18,06,,,,,,,,,,7.0,6.9,1.0*36
$GPRMC,232145.363,A,3748.7952,N,12217.8584,W,0.04,311.29,201211,,,A*73
$GPVTG,311.29,T,,M,0.04,N,0.1,K,N*0F
$GPGGA,232146.363,3748.7954,N,12217.8583,W,1,03,6.9,25.1,M,-25.1,M,,0000*5F
$GPGSA,A,2,03,18,06,,,,,,,,,,7.0,6.9,1.0*36
$GPRMC,232146.363,A,3748.7954,N,12217.8583,W,0.49,58.93,201211,,,A*47
$GPVTG,58.93,T,,M,0.49,N,0.9,K,N*31
$GPGGA,232147.363,3748.7962,N,12217.8571,W,1,03,6.9,25.1,M,-25.1,M,,0000*56
$GPGSA,A,2,03,18,06,,,,,,,,,,7.0,6.9,1.0*36
$GPGSV,3,1,12,06,43,229,39,03,40,245,39,18,39,060,29,22,71,355,35*79
$GPGSV,3,2,12,14,61,185,39,19,39,294,37,21,32,121,34,09,19,063,26*71
$GPGSV,3,3,12,27,11,044,20,24,08,306,,11,06,311,31,48,44,197,42*74
$GPRMC,232147.363,A,3748.7962,N,12217.8571,W,0.29,298.51,201211,,,A*78
$GPVTG,298.51,T,,M,0.29,N,0.5,K,N*0B
$GPGGA,232148.363,3748.7958,N,12217.8581,W,1,03,6.9,25.1,M,-25.1,M,,0000*5F
$GPGSA,A,2,03,18,06,,,,,,,,,,7.0,6.9,1.0*36
$GPRMC,232148.363,A,3748.7958,N,12217.8581,W,0.35,272.06,201211,,,A*7A
$GPVTG,272.06,T,,M,0.35,N,0.6,K,N*03
$GPGGA,232149.363,3748.7955,N,12217.8587,W,1,03,6.9,25.1,M,-25.1,M,,0000*55
$GPGSA,A,2,03,18,06,,,,,,,,,,7.0,6.9,1.0*36
$GPRMC,232149.363,A,3748.7955,N,12217.8587,W,0.07,136.42,201211,,,A*72
$GPVTG,136.42,T,,M,0.07,N,0.1,K,N*06
$GPGGA,232150.363,3748.7956,N,12217.8588,W,1,03,6.9,25.1,M,-25.1,M,,0000*51
$GPGSA,A,2,03,18,06,,,,,,,,,,7.0,6.9,1.0*36
$GPRMC,232150.363,A,3748.7956,N,12217.8588,W,0.04,270.74,201211,,,A*71
$GPVTG,270.74,T,,M,0.04,N,0.1,K,N*01
$GPGGA,232151.363,3748.7955,N,12217.8590,W,1,03,6.9,25.1,M,-25.1,M,,0000*5A
$GPGSA,A,2,03,18,06,,,,,,,,,,7.0,6.9,1.0*36
$GPRMC,232151.363,A,3748.7955,N,12217.8590,W,0.11,291.77,201211,,,A*72
$GPVTG,291.77,T,,M,0.11,N,0.2,K,N*0A
$GPGGA,232152.363,3748.7957,N,12217.8589,W,1,03,6.9,25.1,M,-25.1,M,,0000*53
$GPGSA,A,2,03,18,06,,,,,,,,,,7.0,6.9,1.0*36
$GPGSV,3,1,12,06,43,229,39,03,40,245,39,18,39,060,30,22,71,355,37*73
$GPGSV,3,2,12,14,61,185,39,19,39,294,38,21,32,121,35,09,19,063,32*7A
$GPGSV,3,3,12,27,11,044,29,24,08,306,,11,06,311,32,48,44,197,42*7E
$GPRMC,232152.363,A,3748.7957,N,12217.8589,W,0.22,315.03,201211,,,A*75
$GPVTG,315.03,T,,M,0.22,N,0.4,K,N*02
$GPGGA,232153.363,3748.7958,N,12217.8589,W,1,03,6.9,25.1,M,-25.1,M,,0000*5D
$GPGSA,A,2,03,18,06,,,,,,,,,,7.0,6.9,1.0*36
$GPRMC,232153.363,A,3748.7958,N,12217.8589,W,0.06,57.25,201211,,,A*4C
$GPVTG,57.25,T,,M,0.06,N,0.1,K,N*30
$GPGGA,232154.363,3748.7959,N,12217.8589,W,1,03,6.9,25.1,M,-25.1,M,,0000*5B
$GPGSA,A,2,03,18,06,,,,,,,,,,7.0,6.9,1.0*36
$GPRMC,232154.363,A,3748.7959,N,12217.8589,W,0.15,177.11,201211,,,A*7C
$GPVTG,177.11,T,,M,0.15,N,0.3,K,N*04
$GPGGA,232155.363,3748.7960,N,12217.8590,W,1,03,6.9,25.1,M,-25.1,M,,0000*58
$GPGSA,A,2,03,18,06,,,,,,,,,,7.0,6.9,1.0*36
$GPRMC,232155.363,A,3748.7960,N,12217.8590,W,0.13,329.12,201211,,,A*73
$GPVTG,329.12,T,,M,0.13,N,0.2,K,N*09
$GPGGA,232156.363,3748.7960,N,12217.8591,W,1,03,6.9,25.1,M,-25.1,M,,0000*5A
$GPGSA,A,2,03,18,06,,,,,,,,,,7.0,6.9,1.0*36
$GPRMC,232156.363,A,3748.7960,N,12217.8591,W,0.28,139.06,201211,,,A*7F
$GPVTG,139.06,T,,M,0.28,N,0.5,K,N*00
$GPGGA,232157.363,3748.7960,N,12217.8591,W,1,03,6.9,25.1,M,-25.1,M,,0000*5B
$GPGSA,A,2,03,18,06,,,,,,,,,,7.0,6.9,1.0*36
$GPGSV,3,1,12,06,43,229,40,03,40,245,40,18,39,060,30,22,71,355,37*73
$GPGSV,3,2,12,14,61,185,39,19,39,294,38,21,32,121,36,09,19,063,32*79
$GPGSV,3,3,12,27,11,044,30,24,08,306,,11,06,311,33,48,44,197,41*74
$GPRMC,232157.363,A,3748.7960,N,12217.8591,W,0.14,38.27,201211,,,A*42
$GPVTG,38.27,T,,M,0.14,N,0.3,K,N*3A
$GPGGA,232158.363,3748.7961,N,12217.8593,W,1,03,6.9,25.1,M,-25.1,M,,0000*57
$GPGSA,A,2,03,18,06,,,,,,,,,,7.0,6.9,1.0*36
$GPRMC,232158.363,A,3748.7961,N,12217.8593,W,0.42,333.31,201211,,,A*72
$GPVTG,333.31,T,,M,0.42,N,0.8,K,N*0D
$GPGGA,232159.363,3748.7947,N,12217.8614,W,1,03,6.9,25.1,M,-25.1,M,,0000*5E
$GPGSA,A,2,03,18,06,,,,,,,,,,7.0,6.9,1.0*36
$GPRMC,232159.363,A,3748.7947,N,12217.8614,W,0.02,6.06,201211,,,A*7E
$GPVTG,6.06,T,,M,0.02,N,0.0,K,N*00
$GPGGA,232200.363,3748.7938,N,12217.8630,W,1,03,6.9,25.1,M,-25.1,M,,0000*5F
$GPGSA,A,2,03,18,06,,,,,,,,,,7.0,6.9,1.0*36
$GPRMC,232200.363,A,3748.7938,N,12217.8630,W,0.33,150.81,201211,,,A*70
$GPVTG,150.81,T,,M,0.33,N,0.6,K,N*09
$GPGGA,232201.363,3748.7948,N,12217.8616,W,1,03,6.9,25.1,M,-25.1,M,,0000*5D
$GPGSA,A,2,03,18,06,,,,,,,,,,7.0,6.9,1.0*36
$GPRMC,232201.363,A,3748.7948,N,12217.8616,W,0.14,84.94,201211,,,A*4B
$GPVTG,84.94,T,,M,0.14,N,0.3,K,N*35
$GPGGA,232202.363,3748.7952,N,12217.8610,W,1,03,6.9,25.1,M,-25.1,M,,0000*53
$GPGSA,A,2,03,18,06,,,,,,,,,,7.0,6.9,1.0*36
$GPGSV,3,1,12,06,43,229,40,03,40,245,41,18,39,060,30,22,71,355,37*72
$GPGSV,3,2,12,14,61,185,39,19,39,294,39,21,32,121,25,09,19,063,26*7F
$GPGSV,3,3,12,27,11,044,33,24,08,306,,11,06,311,31,48,44,197,41*75
$GPRMC,232202.363,A,3748.7952,N,12217.8610,W,0.32,73.61,201211,,,A*43
$GPVTG,73.61,T,,M,0.32,N,0.6,K,N*36
$GPGGA,232203.363,3748.7954,N,12217.8608,W,1,03,6.9,25.1,M,-25.1,M,,0000*5D
$GPGSA,A,2,03,18,06,,,,,,,,,,7.0,6.9,1.0*36
$GPRMC,232203.363,A,3748.7954,N,12217.8608,W,0.21,293.12,201211,,,A*77
$GPVTG,293.12,T,,M,0.21,N,0.4,K,N*0E
$GPGGA,232204.363,3748.7964,N,12217.8645,W,1,04,2.6,21.9,M,-25.1,M,,0000*50
$GPGSA,A,3,03,22,06,14,,,,,,,,,2.8,2.6,1.0*3D
$GPRMC,232204.363,A,3748.7964,N,12217.8645,W,0.43,320.59,201211,,,A*78
$GPVTG,320.59,T,,M,0.43,N,0.8,K,A*0F
$GPGGA,232205.363,3748.7971,N,12217.8717,W,1,05,2.0,39.9,M,-25.1,M,,0000*5D
$GPGSA,A,3,19,03,22,06,14,,,,,,,,2.2,2.0,1.0*39
$GPRMC,232205.363,A,3748.7971,N,12217.8717,W,0.39,274.49,201211,,,A*77
$GPVTG,274.49,T,,M,0.39,N,0.7,K,A*0C
$GPGGA,232206.363,3748.7988,N,12217.8807,W,1,05,2.0,59.3,M,-25.1,M,,0000*5A
$GPGSA,A,3,19,03,22,06,14,,,,,,,,2.2,2.0,1.0*39
$GPRMC,232206.363,A,3748.7988,N,12217.8807,W,0.77,298.60,201211,,,A*7F
$GPVTG,298.60,T,,M,0.77,N,1.4,K,A*0D
$GPGGA,232207.000,3748.7986,N,12217.8803,W,1,05,2.0,58.9,M,-25.1,M,,0000*5C
$GPGSA,A,3,19,03,22,06,14,,,,,,,,2.2,2.0,1.0*39
$GPGSV,3,1,12,22,71,356,27,14,61,185,21,06,42,229,31,03,40,245,27*7C
$GPGSV,3,2,12,19,39,294,21,18,39,060,,21,32,121,,09,19,063,10*75
$GPGSV,3,3,12,27,11,044,31,24,08,306,,11,06,311,27,48,44,197,31*77
$GPRMC,232207.000,A,3748.7986,N,12217.8803,W,0.87,303.65,201211,,,A*7B
$GPVTG,303.65,T,,M,0.87,N,1.6,K,A*06
$GPGGA,232208.000,3748.7984,N,12217.8782,W,1,05,2.0,53.3,M,-25.1,M,,0000*56
$GPGSA,A,3,19,03,22,06,14,,,,,,,,2.2,2.0,1.0*39
$GPRMC,232208.000,A,3748.7984,N,12217.8782,W,0.39,300.79,201211,,,A*7B
$GPVTG,300.79,T,,M,0.39,N,0.7,K,A*0D
$GPGGA,232209.000,3748.7983,N,12217.8775,W,1,06,1.5,51.6,M,-25.1,M,,0000*5A
$GPGSA,A,3,19,03,22,18,06,14,,,,,,,3.8,1.5,3.5*3A
$GPRMC,232209.000,A,3748.7983,N,12217.8775,W,0.39,184.47,201211,,,A*76
$GPVTG,184.47,T,,M,0.39,N,0.7,K,A*0E
$GPGGA,232210.000,3748.7990,N,12217.8691,W,1,06,1.5,22.3,M,-25.1,M,,0000*5A
$GPGSA,A,3,19,03,22,18,06,14,,,,,,,3.8,1.5,3.5*3A
$GPRMC,232210.000,A,3748.7990,N,12217.8691,W,0.56,192.46,201211,,,A*78
$GPVTG,192.46,T,,M,0.56,N,1.0,K,A*07
$GPGGA,232211.000,3748.7985,N,12217.8659,W,1,06,1.5,14.0,M,-25.1,M,,0000*5D
$GPGSA,A,3,19,03,22,18,06,14,,,,,,,3.8,1.5,3.5*3A
$GPRMC,232211.000,A,3748.7985,N,12217.8659,W,0.70,124.21,201211,,,A*71
$GPVTG,124.21,T,,M,0.70,N,1.3,K,A*0C
$GPGGA,232212.000,3748.7985,N,12217.8643,W,1,06,1.5,10.3,M,-25.1,M,,0000*52
$GPGSA,A,3,19,03,22,18,06,14,,,,,,,3.8,1.5,3.5*3A
$GPGSV,3,1,11,22,71,356,27,14,61,185,28,06,42,229,27,03,40,245,25*73
$GPGSV,3,2,11,19,39,294,30,18,39,060,28,21,32,121,,09,19,063,20*7F
$GPGSV,3,3,11,27,11,044,25,24,08,306,,11,06,311,24*43
$GPRMC,232212.000,A,3748.7985,N,12217.8643,W,0.24,49.61,201211,,,A*46
$GPGGA,232213.000,3748.7989,N,12217.8642,W,1,06,1.5,14.0,M,-25.1,M,,0000*59
$GPGSA,A,3,19,03,22,18,06,14,,,,,,,3.8,1.5,3.5*3A
$GPRMC,232213.000,A,3748.7989,N,12217.8642,W,0.36,273.77,201211,,,A*75
$GPVTG,273.77,T,,M,0.36,N,0.7,K,A*09
$GPGGA,232214.000,3748.7993,N,12217.8641,W,1,06,1.5,15.7,M,-25.1,M,,0000*50
$GPGSA,A,3,19,03,22,18,06,14,,,,,,,3.8,1.5,3.5*3A
$GPRMC,232214.000,A,3748.7993,N,12217.8641,W,0.48,302.09,201211,,,A*7D
$GPVTG,302.09,T,,M,0.48,N,0.9,K,A*00
$GPGGA,232215.000,3748.7995,N,12217.8644,W,1,05,1.6,17.6,M,-25.1,M,,0000*51
$GPGSA,A,3,19,22,18,06,14,,,,,,,,3.9,1.6,3.6*38
$GPRMC,232215.000,A,3748.7995,N,12217.8644,W,0.68,37.41,201211,,,A*44
$GPVTG,37.41,T,,M,0.68,N,1.3,K,A*30
$GPGGA,232216.000,3748.7997,N,12217.8644,W,1,05,1.6,18.3,M,-25.1,M,,0000*5A
$GPGSA,A,3,19,22,18,06,14,,,,,,,,3.9,1.6,3.6*38
$GPRMC,232216.000,A,3748.7997,N,12217.8644,W,0.37,49.12,201211,,,A*40
$GPVTG,49.12,T,,M,0.37,N,0.7,K,A*30
$GPGGA,232217.000,3748.8002,N,12217.8645,W,1,05,1.6,15.8,M,-25.1,M,,0000*56
$GPGSA,A,3,19,22,18,06,14,,,,,,,,3.9,1.6,3.6*38
$GPGSV,3,1,11,22,71,356,28,14,61,185,29,06,42,229,18,03,40,245,*76
$GPGSV,3,2,11,19,39,294,24,18,39,060,19,21,32,121,,09,19,063,20*78
$GPGSV,3,3,11,27,11,044,23,24,08,306,,11,06,311,*43
$GPRMC,232217.000,A,3748.8002,N,12217.8645,W,0.72,271.97,201211,,,A*7F
$GPVTG,271.97,T,,M,0.72,N,1.3,K,A*00
$GPGGA,232218.000,3748.8003,N,12217.8640,W,1,05,1.6,13.6,M,-25.1,M,,0000*55
$GPGSA,A,3,19,22,18,06,14,,,,,,,,3.9,1.6,3.6*38
$GPRMC,232218.000,A,3748.8003,N,12217.8640,W,0.20,227.37,201211,,,A*7A
$GPVTG,227.37,T,,M,0.20,N,0.4,K,A*08
$GPGGA,232219.000,3748.8004,N,12217.8633,W,1,05,1.6,12.8,M,-25.1,M,,0000*58
$GPGSA,A,3,19,22,18,06,14,,,,,,,,3.9,1.6,3.6*38
$GPRMC,232219.000,A,3748.8004,N,12217.8633,W,0.63,114.04,201211,,,A*7C
$GPVTG,114.04,T,,M,0.63,N,1.2,K,A*0B
$GPGGA,232220.000,3748.8003,N,12217.8631,W,1,05,1.6,12.4,M,-25.1,M,,0000*5B
$GPGSA,A,3,19,22,18,06,14,,,,,,,,3.9,1.6,3.6*38
$GPRMC,232220.000,A,3748.8003,N,12217.8631,W,0.31,193.66,201211,,,A*7F
$GPVTG,193.66,T,,M,0.31,N,0.6,K,A*02
$GPGGA,232221.000,3748.8001,N,12217.8628,W,1,06,1.5,12.1,M,-25.1,M,,0000*55
$GPGSA,A,3,19,03,22,18,06,14,,,,,,,3.8,1.5,3.4*3B
$GPRMC,232221.000,A,3748.8001,N,12217.8628,W,0.43,112.60,201211,,,A*7E
$GPVTG,112.60,T,,M,0.43,N,0.8,K,A*06
$GPGGA,232222.000,3748.7999,N,12217.8626,W,1,06,1.5,11.3,M,-25.1,M,,0000*5E
$GPGSA,A,3,19,03,22,18,06,14,,,,,,,3.8,1.5,3.4*3B
$GPGSV,3,1,12,22,71,356,35,14,61,185,30,06,42,229,38,03,40,245,37*77
$GPGSV,3,2,12,19,39,294,38,18,39,060,30,21,32,121,,09,19,063,27*7A
$GPGSV,3,3,12,27,11,044,31,24,08,306,,11,06,311,38,48,44,197,35*7D
$GPRMC,232222.000,A,3748.7999,N,12217.8626,W,0.76,195.12,201211,,,A*78
$GPVTG,195.12,T,,M,0.76,N,1.4,K,A*07
$GPGGA,232223.000,3748.7998,N,12217.8626,W,1,06,1.5,10.1,M,-25.1,M,,0000*5D
$GPGSA,A,3,19,03,22,18,06,14,,,,,,,3.8,1.5,3.4*3B
$GPRMC,232223.000,A,3748.7998,N,12217.8626,W,0.16,240.40,201211,,,A*72
$GPVTG,240.40,T,,M,0.16,N,0.3,K,A*0B
$GPGGA,232224.000,3748.7996,N,12217.8626,W,1,06,1.5,8.8,M,-25.1,M,,0000*64
$GPGSA,A,3,19,03,22,18,06,14,,,,,,,3.8,1.5,3.4*3B
$GPRMC,232224.000,A,3748.7996,N,12217.8626,W,0.40,175.90,201211,,,A*70
$GPVTG,175.90,T,,M,0.40,N,0.7,K,A*04
$GPGGA,232225.000,3748.7996,N,12217.8624,W,1,06,1.5,8.0,M,-25.1,M,,0000*6F
$GPGSA,A,3,19,03,22,18,06,14,,,,,,,3.8,1.5,3.4*3B
$GPRMC,232225.000,A,3748.7996,N,12217.8624,W,0.06,233.26,201211,,,A*7D
$GPVTG,233.26,T,,M,0.06,N,0.1,K,A*0C
$GPGGA,232226.000,3748.7997,N,12217.8621,W,1,06,1.5,7.2,M,-25.1,M,,0000*65
$GPGSA,A,3,19,03,22,18,06,14,,,,,,,3.8,1.5,3.4*3B
$GPRMC,232226.000,A,3748.7997,N,12217.8621,W,0.08,90.83,201211,,,A*40
$GPVTG,90.83,T,,M,0.08,N,0.1,K,A*36
$GPGGA,232227.000,3748.7997,N,12217.8620,W,1,06,1.5,6.2,M,-25.1,M,,0000*64
$GPGSA,A,3,19,03,22,18,06,14,,,,,,,3.8,1.5,3.4*3B
$GPGSV,3,1,12,22,71,356,34,14,61,185,37,06,42,229,38,03,40,245,39*7F
$GPGSV,3,2,12,19,39,294,36,18,39,060,36,21,32,121,33,09,19,063,27*72
$GPGSV,3,3,12,27,11,044,24,24,08,306,,11,06,311,33,48,44,197,40*70
$GPRMC,232227.000,A,3748.7997,N,12217.8620,W,0.13,171.94,201211,,,A*72
$GPGGA,232228.000,3748.7997,N,12217.8619,W,1,06,1.5,5.3,M,-25.1,M,,0000*63
$GPGSA,A,3,19,03,22,18,06,14,,,,,,,3.8,1.5,3.4*3B
$GPRMC,232228.000,A,3748.7997,N,12217.8619,W,0.13,288.94,201211,,,A*72
$GPVTG,288.94,T,,M,0.13,N,0.2,K,A*02
$GPGGA,232229.000,3748.7996,N,12217.8619,W,1,06,1.5,4.4,M,-25.1,M,,0000*65
$GPGSA,A,3,19,03,22,18,06,14,,,,,,,3.8,1.5,3.4*3B
$GPRMC,232229.000,A,3748.7996,N,12217.8619,W,0.30,149.43,201211,,,A*77
$GPVTG,149.43,T,,M,0.30,N,0.5,K,A*00
$GPGGA,232230.000,3748.7995,N,12217.8617,W,1,06,1.5,3.0,M,-25.1,M,,0000*63
$GPGSA,A,3,19,03,22,18,06,14,,,,,,,3.8,1.5,3.4*3B
$GPRMC,232230.000,A,3748.7995,N,12217.8617,W,0.25,98.08,201211,,,A*44
$GPVTG,98.08,T,,M,0.25,N,0.5,K,A*36
$GPGGA,232231.000,3748.7993,N,12217.8615,W,1,06,1.5,1.3,M,-25.1,M,,0000*67
$GPGSA,A,3,19,03,22,18,06,14,,,,,,,3.8,1.5,3.4*3B
$GPRMC,232231.000,A,3748.7993,N,12217.8615,W,0.19,115.73,201211,,,A*76
$GPVTG,115.73,T,,M,0.19,N,0.3,K,A*07
$GPGGA,232232.000,3748.7992,N,12217.8614,W,1,06,1.5,-0.0,M,-25.1,M,,0000*4B
$GPGSA,A,3,19,03,22,18,06,14,,,,,,,3.8,1.5,3.4*3B
$GPGSV,3,1,12,22,71,356,32,14,61,185,37,06,42,229,34,03,40,245,39*75
$GPGSV,3,2,12,19,39,294,36,18,39,060,28,21,32,121,33,09,19,063,32*79
$GPGSV,3,3,12,27,11,044,30,24,08,306,,11,06,311,30,48,44,197,38*79
$GPRMC,232232.000,A,3748.7992,N,12217.8614,W,0.19,120.97,201211,,,A*79
$GPVTG,120.97,T,,M,0.19,N,0.3,K,A*0B
$GPGGA,232233.000,3748.7990,N,12217.8614,W,1,06,1.5,-0.6,M,-25.1,M,,0000*4E
$GPGSA,A,3,19,03,22,18,06,14,,,,,,,3.8,1.5,3.4*3B
$GPRMC,232233.000,A,3748.7990,N,12217.8614,W,0.25,133.31,201211,,,A*7B
$GPVTG,133.31,T,,M,0.25,N,0.5,K,A*0C
$GPGGA,232234.000,3748.7989,N,12217.8616,W,1,06,1.5,-1.0,M,-25.1,M,,0000*44
$GPGSA,A,3,19,03,22,18,06,14,,,,,,,3.8,1.5,3.4*3B
$GPRMC,232234.000,A,3748.7989,N,12217.8616,W,0.14,156.43,201211,,,A*72
$GPVTG,156.43,T,,M,0.14,N,0.3,K,A*0E
$GPGGA,232235.000,3748.7988,N,12217.8616,W,1,06,1.5,-1.2,M,-25.1,M,,0000*46
$GPGSA,A,3,19,03,22,18,06,14,,,,,,,3.8,1.5,3.4*3B
$GPRMC,232235.000,A,3748.7988,N,12217.8616,W,0.17,122.20,201211,,,A*77
$GPVTG,122.20,T,,M,0.17,N,0.3,K,A*0B
$GPGGA,232236.000,3748.7987,N,12217.8617,W,1,06,1.5,-1.5,M,-25.1,M,,0000*4C
$GPGSA,A,3,19,03,22,18,06,14,,,,,,,3.8,1.5,3.4*3B
$GPRMC,232236.000,A,3748.7987,N,12217.8617,W,0.12,234.21,201211,,,A*7A
$GPVTG,234.21,T,,M,0.12,N,0.2,K,A*0A
$GPGGA,232237.000,3748.7986,N,12217.8618,W,1,06,1.5,-1.5,M,-25.1,M,,0000*43
$GPGSA,A,3,19,03,22,18,06,14,,,,,,,3.8,1.5,3.4*3B
$GPGSV,3,1,12,22,71,356,30,14,61,185,37,06,42,229,37,03,40,245,39*74
$GPGSV,3,2,12,19,39,294,30,18,39,060,34,21,32,121,34,09,19,063,30*77
$GPGSV,3,3,12,27,11,044,27,24,08,306,,11,06,311,24,48,44,197,39*7B
$GPRMC,232237.000,A,3748.7986,N,12217.8618,W,0.04,107.73,201211,,,A*76
$GPVTG,107.73,T,,M,0.04,N,0.1,K,A*0A
$GPGGA,232238.000,3748.7987,N,12217.8619,W,1,05,2.2,-1.2,M,-25.1,M,,0000*4C
$GPGSA,A,3,03,22,18,06,14,,,,,,,,4.2,2.2,3.6*38
$GPRMC,232238.000,A,3748.7987,N,12217.8619,W,0.10,174.24,201211,,,A*7A
$GPVTG,174.24,T,,M,0.10,N,0.2,K,A*0A
$GPGGA,232239.000,3748.7987,N,12217.8620,W,1,06,1.5,-0.9,M,-25.1,M,,0000*4A
$GPGSA,A,3,19,03,22,18,06,14,,,,,,,3.7,1.5,3.4*34
$GPRMC,232239.000,A,3748.7987,N,12217.8620,W,0.06,212.44,201211,,,A*73
$GPVTG,212.44,T,,M,0.06,N,0.1,K,A*0B
$GPGGA,232240.000,3748.7986,N,12217.8617,W,1,06,1.5,-2.5,M,-25.1,M,,0000*4F
$GPGSA,A,3,19,03,22,18,06,14,,,,,,,3.7,1.5,3.4*34
$GPRMC,232240.000,A,3748.7986,N,12217.8617,W,0.49,123.00,201211,,,A*72
$GPVTG,123.00,T,,M,0.49,N,0.9,K,A*09
$GPGGA,232241.000,3748.7982,N,12217.8613,W,1,06,1.5,-4.7,M,-25.1,M,,0000*4A
$GPGSA,A,3,19,03,22,18,06,14,,,,,,,3.7,1.5,3.4*34
$GPRMC,232241.000,A,3748.7982,N,12217.8613,W,0.76,143.67,201211,,,A*78
$GPVTG,143.67,T,,M,0.76,N,1.4,K,A*0E
$GPGGA,232242.000,3748.7980,N,12217.8609,W,1,06,1.5,-6.5,M,-25.1,M,,0000*40
$GPGSA,A,3,19,03,22,18,06,14,,,,,,,3.7,1.5,3.4*34
$GPGSV,3,1,12,22,71,356,24,14,61,185,34,06,42,229,32,03,40,245,38*76
$GPGSV,3,2,12,19,39,294,22,18,39,060,28,21,32,121,34,09,19,063,33*7A
$GPGSV,3,3,12,27,11,044,30,24,08,306,,11,06,311,22,48,44,197,39*7B
$GPVTG,142.73,T,,M,0.95,N,1.8,K,A*0B
$GPGGA,232243.000,3748.7976,N,12217.8601,W,1,06,1.5,-7.8,M,-25.1,M,,0000*4C
$GPGSA,A,3,19,03,22,18,06,14,,,,,,,3.7,1.5,3.4*34
$GPRMC,232243.000,A,3748.7976,N,12217.8601,W,0.27,149.42,201211,,,A*7B
$GPVTG,149.42,T,,M,0.27,N,0.5,K,A*07
$GPGGA,232244.000,3748.7978,N,12217.8600,W,1,06,1.5,-9.1,M,-25.1,M,,0000*43
$GPGSA,A,3,19,03,22,18,06,14,,,,,,,3.7,1.5,3.4*34
$GPRMC,232244.000,A,3748.7978,N,12217.8600,W,0.18,113.73,201211,,,A*72
$GPVTG,113.73,T,,M,0.18,N,0.3,K,A*00
$GPGGA,232245.000,3748.7981,N,12217.8600,W,1,06,1.5,-10.2,M,-25.1,M,,0000*7F
$GPGSA,A,3,19,03,22,18,06,14,,,,,,,3.7,1.5,3.4*34
$GPRMC,232245.000,A,3748.7981,N,12217.8600,W,0.07,78.36,201211,,,A*46
$GPVTG,78.36,T,,M,0.07,N,0.1,K,A*31
$GPGGA,232246.000,3748.7983,N,12217.8600,W,1,06,1.5,-11.2,M,-25.1,M,,0000*7F
$GPGSA,A,3,19,03,22,18,06,14,,,,,,,3.7,1.5,3.4*34
$GPRMC,232246.000,A,3748.7983,N,12217.8600,W,0.17,173.20,201211,,,A*7B
$GPVTG,173.20,T,,M,0.17,N,0.3,K,A*0F
$GPGGA,232247.000,3748.7972,N,12217.8601,W,1,06,1.5,-14.2,M,-25.1,M,,0000*74
$GPGSA,A,3,19,03,22,18,06,14,,,,,,,3.7,1.5,3.4*34
$GPGSV,3,1,12,22,71,357,25,14,61,185,24,06,42,228,33,03,40,244,31*7F
$GPGSV,3,2,12,19,39,294,20,18,39,060,29,21,31,121,34,09,19,063,32*7B
$GPGSV,3,3,12,27,11,044,27,24,08,306,,11,06,311,21,48,44,197,30*77
$GPRMC,232247.000,A,3748.7972,N,12217.8601,W,0.92,155.10,201211,,,A*7F
$GPVTG,155.10,T,,M,0.92,N,1.7,K,A*00
$GPGGA,232248.000,3748.7965,N,12217.8603,W,1,06,1.5,-13.9,M,-25.1,M,,0000*73
$GPGSA,A,3,19,03,22,18,06,14,,,,,,,3.7,1.5,3.4*34
$GPRMC,232248.000,A,3748.7965,N,12217.8603,W,0.87,162.30,201211,,,A*76
$GPVTG,162.30,T,,M,0.87,N,1.6,K,A*03
$GPGGA,232249.000,3748.7963,N,12217.8597,W,1,06,1.5,-15.3,M,-25.1,M,,0000*76
$GPGSA,A,3,19,03,22,18,06,14,,,,,,,3.7,1.5,3.4*34
$GPRMC,232249.000,A,3748.7963,N,12217.8597,W,0.63,151.47,201211,,,A*75
$GPVTG,151.47,T,,M,0.63,N,1.2,K,A*0D
$GPGGA,232250.000,3748.7964,N,12217.8593,W,1,06,1.5,-16.5,M,-25.1,M,,0000*78
$GPGSA,A,3,19,03,22,18,06,14,,,,,,,3.7,1.5,3.4*34
$GPRMC,232250.000,A,3748.7964,N,12217.8593,W,0.23,134.50,201211,,,A*7F
$GPVTG,134.50,T,,M,0.23,N,0.4,K,A*0B
$GPGGA,232251.000,3748.7965,N,12217.8594,W,1,06,1.5,-16.5,M,-25.1,M,,0000*7F
$GPGSA,A,3,19,03,22,18,06,14,,,,,,,3.7,1.5,3.4*34
$GPRMC,232251.000,A,3748.7965,N,12217.8594,W,0.01,256.70,201211,,,A*7D
$GPVTG,256.70,T,,M,0.01,N,0.0,K,A*0A
$GPGGA,232252.000,3748.7970,N,12217.8596,W,1,06,1.5,-17.5,M,-25.1,M,,0000*7B
$GPGSA,A,3,19,03,22,18,06,14,,,,,,,3.7,1.5,3.4*34
$GPGSV,3,1,11,22,71,357,22,14,61,185,29,06,42,228,26,03,40,244,25*77
$GPGSV,3,2,11,19,39,294,27,18,39,060,32,21,31,121,33,09,19,063,34*74
$GPGSV,3,3,11,27,11,044,32,24,08,306,,11,06,311,19*4B
$GPRMC,232252.000,A,3748.7970,N,12217.8596,W,0.25,2.35,201211,,,A*7C
$GPVTG,2.35,T,,M,0.25,N,0.5,K,A*0B
$GPGGA,232253.000,3748.7971,N,12217.8595,W,1,06,1.5,-17.8,M,-25.1,M,,0000*75
$GPGSA,A,3,19,03,22,18,06,14,,,,,,,3.7,1.5,3.4*34
$GPRMC,232253.000,A,3748.7971,N,12217.8595,W,0.24,263.25,201211,,,A*7A
$GPVTG,263.25,T,,M,0.24,N,0.4,K,A*0F
$GPGGA,232254.000,3748.7973,N,12217.8594,W,1,06,1.5,-16.8,M,-25.1,M,,0000*70
$GPGSA,A,3,19,03,22,18,06,14,,,,,,,3.7,1.5,3.4*34
$GPRMC,232254.000,A,3748.7973,N,12217.8594,W,0.73,140.59,201211,,,A*75
$GPVTG,140.59,T,,M,0.73,N,1.4,K,A*05
$GPGGA,232255.000,3748.7973,N,12217.8591,W,1,06,1.5,-16.2,M,-25.1,M,,0000*7E
$GPGSA,A,3,19,03,22,18,06,14,,,,,,,3.7,1.5,3.4*34
$GPRMC,232255.000,A,3748.7973,N,12217.8591,W,0.82,156.35,201211,,,A*72
$GPVTG,156.35,T,,M,0.82,N,1.5,K,A*07
$GPGGA,232256.000,3748.7980,N,12217.8593,W,1,05,2.1,-17.5,M,-25.1,M,,0000*71
$GPGSA,A,3,19,03,18,06,14,,,,,,,,7.3,2.1,7.0*33
$GPRMC,232256.000,A,3748.7980,N,12217.8593,W,0.20,338.43,201211,,,A*7C
$GPVTG,338.43,T,,M,0.20,N,0.4,K,A*04
$GPGGA,232257.000,3748.7983,N,12217.8591,W,1,06,1.5,-15.6,M,-25.1,M,,0000*74
$GPGSA,A,3,19,03,22,18,06,14,,,,,,,3.7,1.5,3.4*34
$GPGSV,3,1,12,22,71,357,23,14,61,185,34,06,42,228,27,03,40,244,33*7F
$GPGSV,3,2,12,19,39,294,26,18,39,060,36,21,31,121,37,09,19,063,36*74
$GPGSV,3,3,12,27,11,044,32,24,08,306,,11,06,311,23,48,44,197,36*77
$GPVTG,170.35,T,,M,0.15,N,0.3,K,A*0A
$GPGGA,232258.000,3748.7982,N,12217.8584,W,1,06,1.5,-16.0,M,-25.1,M,,0000*7B
$GPGSA,A,3,19,03,22,18,06,14,,,,,,,3.7,1.5,3.4*34
$GPRMC,232258.000,A,3748.7982,N,12217.8584,W,0.17,101.99,201211,,,A*7D
$GPVTG,101.99,T,,M,0.17,N,0.3,K,A*08
$GPGGA,232259.000,3748.7980,N,12217.8580,W,1,06,1.5,-15.9,M,-25.1,M,,0000*76
$GPGSA,A,3,19,03,22,18,06,14,,,,,,,3.7,1.5,3.4*34
$GPRMC,232259.000,A,3748.7980,N,12217.8580,W,0.51,84.38,201211,,,A*4F
$GPVTG,84.38,T,,M,0.51,N,0.9,K,A*37
$GPGGA,232300.000,3748.7981,N,12217.8579,W,1,06,1.5,-15.4,M,-25.1,M,,0000*71
$GPGSA,A,3,19,03,22,18,06,14,,,,,,,3.7,1.5,3.4*34
$GPRMC,232300.000,A,3748.7981,N,12217.8579,W,0.46,72.48,201211,,,A*4D
$GPVTG,72.48,T,,M,0.46,N,0.8,K,A*3E
$GPGGA,232301.000,3748.7984,N,12217.8575,W,1,06,1.5,-16.3,M,-25.1,M,,0000*7D
$GPGSA,A,3,19,03,22,18,06,14,,,,,,,3.7,1.5,3.4*34
$GPRMC,232301.000,A,3748.7984,N,12217.8575,W,0.16,54.16,201211,,,A*4F
$GPVTG,54.16,T,,M,0.16,N,0.3,K,A*3F
$GPGGA,232302.000,3748.7985,N,12217.8575,W,1,06,1.5,-15.9,M,-25.1,M,,0000*76
$GPGSA,A,3,19,03,22,18,06,14,,,,,,,3.7,1.5,3.4*34
$GPGSV,3,1,12,22,71,357,20,14,61,185,36,06,42,228,34,03,40,244,36*79
$GPGSV,3,2,12,19,39,294,29,18,39,060,25,21,31,121,33,09,19,063,18*71
$GPGSV,3,3,12,27,11,044,27,24,08,306,,11,06,311,21,48,44,197,40*70
$GPRMC,232302.000,A,3748.7985,N,12217.8575,W,0.28,30.11,201211,,,A*45
$GPVTG,30.11,T,,M,0.28,N,0.5,K,A*31
$GPGGA,232303.000,3748.7988,N,12217.8577,W,1,06,1.5,-13.5,M,-25.1,M,,0000*72
$GPGSA,A,3,19,03,22,18,06,14,,,,,,,3.7,1.5,3.4*34
$GPRMC,232303.000,A,3748.7988,N,12217.8577,W,0.20,10.12,201211,,,A*42
$GPVTG,10.12,T,,M,0.20,N,0.4,K,A*39
$GPGGA,232304.000,3748.7990,N,12217.8580,W,1,06,1.5,-11.4,M,-25.1,M,,0000*77
$GPGSA,A,3,19,03,22,18,06,14,,,,,,,3.7,1.5,3.4*34
$GPRMC,232304.000,A,3748.7990,N,12217.8580,W,0.22,282.97,201211,,,A*72
$GPVTG,282.97,T,,M,0.22,N,0.4,K,A*0F
$GPGGA,232305.000,3748.7986,N,12217.8585,W,1,06,1.5,-10.2,M,-25.1,M,,0000*73
$GPGSA,A,3,19,03,22,18,06,14,,,,,,,3.7,1.5,3.4*34
$GPRMC,232305.000,A,3748.7986,N,12217.8585,W,0.19,185.71,201211,,,A*75
$GPVTG,185.71,T,,M,0.19,N,0.3,K,A*0C
$GPGGA,232306.000,3748.7978,N,12217.8583,W,1,06,1.5,-6.8,M,-25.1,M,,0000*4A
$GPGSA,A,3,19,03,22,18,06,14,,,,,,,3.7,1.5,3.4*34
$GPWPL,3748.7978,N,12217.8583,W,00001*60
$ADPMB,5,0
$GPRMC,232306.000,A,3748.7978,N,12217.8583,W,0.73,160.18,201211,,,A*79
$GPVTG,160.18,T,,M,0.73,N,1.3,K,A*05
$GPGGA,232307.000,3748.7967,N,12217.8578,W,1,06,1.5,-5.4,M,-25.1,M,,0000*4E
$GPGSA,A,3,19,03,22,18,06,14,,,,,,,3.7,1.5,3.4*34
$GPGSV,3,1,12,22,71,357,21,14,61,185,20,06,42,228,24,03,40,244,24*7D
$GPGSV,3,2,12,19,39,294,22,18,39,060,32,21,31,121,30,09,19,063,31*74
$GPGSV,3,3,12,27,11,044,30,24,08,306,,11,06,311,18,48,44,197,31*7A
$GPRMC,232307.000,A,3748.7967,N,12217.8578,W,2.50,155.35,201211,,,A*78
$GPVTG,155.35,T,,M,2.50,N,4.6,K,A*0F
$GPGGA,232308.000,3748.7959,N,12217.8576,W,1,06,1.5,-1.2,M,-25.1,M,,0000*40
$GPGSA,A,3,19,03,22,18,06,14,,,,,,,3.7,1.5,3.4*34
$GPRMC,232308.000,A,3748.7959,N,12217.8576,W,2.91,157.73,201211,,,A*79
$GPVTG,157.73,T,,M,2.91,N,5.4,K,A*01
$GPGGA,232309.000,3748.7952,N,12217.8572,W,1,06,1.5,-0.9,M,-25.1,M,,0000*44
$GPGSA,A,3,19,03,22,18,06,14,,,,,,,3.7,1.5,3.4*34
$GPRMC,232309.000,A,3748.7952,N,12217.8572,W,2.53,158.10,201211,,,A*73
$GPVTG,158.10,T,,M,2.53,N,4.7,K,A*07
$GPGGA,232310.000,3748.7949,N,12217.8570,W,1,06,1.5,-0.9,M,-25.1,M,,0000*44
$GPGSA,A,3,19,03,22,18,06,14,,,,,,,3.7,1.5,3.4*34
$GPRMC,232310.000,A,3748.7949,N,12217.8570,W,1.24,152.98,201211,,,A*7A
$GPVTG,152.98,T,,M,1.24,N,2.3,K,A*0C
$GPGGA,232311.000,3748.7952,N,12217.8564,W,1,06,1.5,-2.2,M,-25.1,M,,0000*43
$GPGSA,A,3,19,03,22,18,06,14,,,,,,,3.7,1.5,3.4*34
$GPRMC,232311.000,A,3748.7952,N,12217.8564,W,0.63,62.36,201211,,,A*40
$GPVTG,62.36,T,,M,0.63,N,1.2,K,A*3A
$GPGGA,232312.000,3748.7954,N,12217.8562,W,1,06,1.5,-2.2,M,-25.1,M,,0000*40
$GPGSA,A,3,19,03,22,18,06,14,,,,,,,3.7,1.5,3.4*34
$GPGSV,3,1,12,22,71,357,31,14,61,185,35,06,42,228,33,03,40,244,34*7F
$GPGSV,3,2,12,19,39,294,25,18,39,060,36,21,31,121,31,09,19,063,28*7E
$GPGSV,3,3,12,27,11,044,24,24,08,306,,11,06,311,15,48,44,197,36*75
$GPRMC,232312.000,A,3748.7954,N,12217.8562,W,1.08,61.52,201211,,,A*4E
$GPVTG,61.52,T,,M,1.08,N,2.0,K,A*36
$GPGGA,232313.000,3748.7954,N,12217.8558,W,1,06,1.5,-2.3,M,-25.1,M,,0000*49
$GPGSA,A,3,19,03,22,18,06,14,,,,,,,3.7,1.5,3.4*34
$GPRMC,232313.000,A,3748.7954,N,12217.8558,W,1.33,99.49,201211,,,A*43
$GPVTG,99.49,T,,M,1.33,N,2.5,K,A*36
$GPGGA,232314.000,3748.7954,N,12217.8553,W,1,06,1.5,-2.7,M,-25.1,M,,0000*41
$GPGSA,A,3,19,03,22,18,06,14,,,,,,,3.7,1.5,3.4*34
$GPRMC,232314.000,A,3748.7954,N,12217.8553,W,1.32,99.63,201211,,,A*46
$GPVTG,99.63,T,,M,1.32,N,2.4,K,A*3E
$GPGGA,232315.000,3748.7956,N,12217.8552,W,1,06,1.5,-1.6,M,-25.1,M,,0000*41
$GPGSA,A,3,19,03,22,18,06,14,,,,,,,3.7,1.5,3.4*34
$GPRMC,232315.000,A,3748.7956,N,12217.8552,W,1.27,107.83,201211,,,A*78
$GPVTG,107.83,T,,M,1.27,N,2.3,K,A*05
$GPGGA,232316.000,3748.7957,N,12217.8549,W,1,06,1.5,-1.1,M,-25.1,M,,0000*4E
$GPGSA,A,3,19,03,22,18,06,14,,,,,,,3.7,1.5,3.4*34
$GPRMC,232316.000,A,3748.7957,N,12217.8549,W,1.56,98.97,201211,,,A*44
$GPVTG,98.97,T,,M,1.56,N,2.9,K,A*3B
$GPGGA,232317.000,3748.7957,N,12217.8547,W,1,06,1.5,-1.1,M,-25.1,M,,0000*41
$GPGSA,A,3,19,03,22,18,06,14,,,,,,,3.7,1.5,3.4*34
$GPGSV,3,1,12,22,71,357,27,14,62,185,34,06,42,228,29,03,40,244,31*74
$GPGSV,3,2,12,19,39,294,19,18,39,060,28,21,31,121,33,09,19,062,29*7C
$GPGSV,3,3,12,27,11,043,20,24,08,306,,11,06,311,17,48,44,197,36*74
$GPRMC,232317.000,A,3748.7957,N,12217.8547,W,0.99,106.46,201211,,,A*73
$GPGGA,232318.000,3748.7954,N,12217.8543,W,1,06,1.5,-1.7,M,-25.1,M,,0000*4F
$GPGSA,A,3,19,03,22,18,06,14,,,,,,,3.7,1.5,3.4*34
$GPRMC,232318.000,A,3748.7954,N,12217.8543,W,1.27,117.95,201211,,,A*71
$GPVTG,117.95,T,,M,1.27,N,2.3,K,A*03
$GPGGA,232319.000,3748.7947,N,12217.8534,W,1,06,1.5,-1.6,M,-25.1,M,,0000*4D
$GPGSA,A,3,19,03,22,18,06,14,,,,,,,3.7,1.5,3.4*34
$GPRMC,232319.000,A,3748.7947,N,12217.8534,W,2.11,120.41,201211,,,A*79
$GPVTG,120.41,T,,M,2.11,N,3.9,K,A*03
$GPGGA,232320.000,3748.7942,N,12217.8527,W,1,06,1.5,-1.7,M,-25.1,M,,0000*41
$GPGSA,A,3,19,03,22,18,06,14,,,,,,,3.7,1.5,3.4*34
$GPRMC,232320.000,A,3748.7942,N,12217.8527,W,1.95,122.19,201211,,,A*74
$GPVTG,122.19,T,,M,1.95,N,3.6,K,A*0C
$GPGGA,232321.000,3748.7938,N,12217.8520,W,1,06,1.5,-1.8,M,-25.1,M,,0000*45
$GPGSA,A,3,19,03,22,18,06,14,,,,,,,3.7,1.5,3.4*34
$GPRMC,232321.000,A,3748.7938,N,12217.8520,W,1.95,117.14,201211,,,A*74
$GPVTG,117.14,T,,M,1.95,N,3.6,K,A*07
$GPGGA,232322.000,3748.7937,N,12217.8515,W,1,06,1.5,-1.7,M,-25.1,M,,0000*40
$GPGSA,A,3,19,03,22,18,06,14,,,,,,,3.7,1.5,3.4*34
$GPGSV,3,1,12,22,71,357,29,14,62,185,35,06,42,228,37,03,40,244,38*7D
$GPGSV,3,2,12,19,39,294,28,18,39,060,33,21,31,121,34,09,19,062,29*73
$GPGSV,3,3,12,27,11,043,20,24,08,306,,11,06,311,23,48,44,197,39*7C
$GPRMC,232322.000,A,3748.7937,N,12217.8515,W,1.88,116.09,201211,,,A*7F
$GPVTG,116.09,T,,M,1.88,N,3.5,K,A*05
$GPGGA,232323.000,3748.7935,N,12217.8510,W,1,06,1.5,-1.4,M,-25.1,M,,0000*45
$GPGSA,A,3,19,03,22,18,06,14,,,,,,,3.7,1.5,3.4*34
$GPRMC,232323.000,A,3748.7935,N,12217.8510,W,1.73,127.14,201211,,,A*73
$GPVTG,127.14,T,,M,1.73,N,3.2,K,A*08
$GPGGA,232324.000,3748.7935,N,12217.8507,W,1,06,1.5,-1.6,M,-25.1,M,,0000*46
$GPGSA,A,3,19,03,22,18,06,14,,,,,,,3.7,1.5,3.4*34
$GPRMC,232324.000,A,3748.7935,N,12217.8507,W,1.92,125.03,201211,,,A*79
$GPVTG,125.03,T,,M,1.92,N,3.6,K,A*07
$GPGGA,232325.000,3748.7933,N,12217.8503,W,1,06,1.5,-1.3,M,-25.1,M,,0000*40
$GPGSA,A,3,19,03,22,18,06,14,,,,,,,3.7,1.5,3.4*34
$GPRMC,232325.000,A,3748.7933,N,12217.8503,W,1.77,126.64,201211,,,A*73
$GPVTG,126.64,T,,M,1.77,N,3.3,K,A*0B
$GPGGA,232326.000,3748.7930,N,12217.8500,W,1,06,1.5,-0.6,M,-25.1,M,,0000*47
$GPGSA,A,3,19,03,22,18,06,14,,,,,,,3.7,1.5,3.4*34
$GPRMC,232326.000,A,3748.7930,N,12217.8500,W,1.60,120.21,201211,,,A*71
$GPVTG,120.21,T,,M,1.60,N,3.0,K,A*09
$GPGGA,232327.000,3748.7929,N,12217.8497,W,1,06,1.5,-0.3,M,-25.1,M,,0000*44
$GPGSA,A,3,19,03,22,18,06,14,,,,,,,3.7,1.5,3.4*34
$GPGSV,3,1,12,22,71,357,29,14,62,185,34,06,42,228,38,03,40,244,37*7C
$GPGSV,3,2,12,19,39,294,28,18,39,060,30,21,31,121,35,09,19,062,20*78
$GPGSV,3,3,12,27,11,043,18,24,08,306,,11,06,311,27,48,44,197,38*72
$GPRMC,232327.000,A,3748.7929,N,12217.8497,W,1.37,124.24,201211,,,A*74
$GPVTG,124.24,T,,M,1.37,N,2.5,K,A*0E
$GPGGA,232328.000,3748.7927,N,12217.8492,W,1,06,1.5,-0.5,M,-25.1,M,,0000*46
$GPGSA,A,3,19,03,22,18,06,14,,,,,,,3.7,1.5,3.4*34
$GPRMC,232328.000,A,3748.7927,N,12217.8492,W,1.47,119.58,201211,,,A*72
$GPVTG,119.58,T,,M,1.47,N,2.7,K,A*0E
$GPGGA,232329.000,3748.7926,N,12217.8487,W,1,06,1.5,-0.7,M,-25.1,M,,0000*40
$GPGSA,A,3,19,03,22,18,06,14,,,,,,,3.7,1.5,3.4*34
$GPRMC,232329.000,A,3748.7926,N,12217.8487,W,1.45,107.88,201211,,,A*76
$GPVTG,107.88,T,,M,1.45,N,2.7,K,A*0E
$GPGGA,232330.000,3748.7925,N,12217.8481,W,1,06,1.5,-0.8,M,-25.1,M,,0000*42
$GPGSA,A,3,19,03,22,18,06,14,,,,,,,3.7,1.5,3.4*34
$GPRMC,232330.000,A,3748.7925,N,12217.8481,W,2.09,112.86,201211,,,A*7A
$GPVTG,112.86,T,,M,2.09,N,3.9,K,A*00
$GPGGA,232331.000,3748.7922,N,12217.8474,W,1,06,1.5,-1.0,M,-25.1,M,,0000*47
$GPGSA,A,3,19,03,22,18,06,14,,,,,,,3.7,1.5,3.4*34
$GPRMC,232331.000,A,3748.7922,N,12217.8474,W,2.15,122.16,201211,,,A*71
$GPVTG,122.16,T,,M,2.15,N,4.0,K,A*09
$GPGGA,232332.000,3748.7920,N,12217.8474,W,1,06,1.5,0.5,M,-25.1,M,,0000*6F
$GPGSA,A,3,19,03,22,18,06,14,,,,,,,3.7,1.5,3.4*34
$GPGSV,3,1,12,22,71,357,30,14,62,185,35,06,42,228,37,03,40,244,37*7A
$GPGSV,3,2,12,19,39,294,28,18,39,060,26,21,31,121,36,09,19,062,18*77
$GPGSV,3,3,12,27,11,043,,24,08,306,,11,06,311,26,48,44,197,40*75
$GPVTG,125.27,T,,M,1.93,N,3.6,K,A*00
$GPGGA,232333.000,3748.7913,N,12217.8470,W,1,06,1.5,3.0,M,-25.1,M,,0000*6C
$GPGSA,A,3,19,03,22,18,06,14,,,,,,,3.7,1.5,3.4*34
$GPRMC,232333.000,A,3748.7913,N,12217.8470,W,1.49,113.35,201211,,,A*7C
$GPVTG,113.35,T,,M,1.49,N,2.8,K,A*0E
$GPGGA,232334.000,3748.7911,N,12217.8464,W,1,07,1.2,3.5,M,-25.1,M,,0000*6F
$GPGSA,A,3,19,03,22,18,06,14,21,,,,,,3.1,1.2,2.8*3B
$GPRMC,232334.000,A,3748.7911,N,12217.8464,W,2.01,110.44,201211,,,A*76
$GPVTG,110.44,T,,M,2.01,N,3.7,K,A*0A
$GPGGA,232335.000,3748.7908,N,12217.8458,W,1,07,1.2,3.5,M,-25.1,M,,0000*69
$GPGSA,A,3,19,03,22,18,06,14,21,,,,,,3.1,1.2,2.8*3B
$GPRMC,232335.000,A,3748.7908,N,12217.8458,W,1.86,123.57,201211,,,A*7E
$GPVTG,123.57,T,,M,1.86,N,3.4,K,A*07
$GPGGA,232336.000,3748.7907,N,12217.8452,W,1,07,1.2,4.0,M,-25.1,M,,0000*6D
$GPGSA,A,3,19,03,22,18,06,14,21,,,,,,3.1,1.2,2.8*3B
$GPRMC,232336.000,A,3748.7907,N,12217.8452,W,1.99,114.74,201211,,,A*73
$GPVTG,114.74,T,,M,1.99,N,3.7,K,A*0F
$GPGGA,232337.000,3748.7905,N,12217.8447,W,1,07,1.2,4.1,M,-25.1,M,,0000*6B
$GPGSA,A,3,19,03,22,18,06,14,21,,,,,,3.1,1.2,2.8*3B
$GPGSV,3,1,12,22,70,358,29,14,62,185,34,06,42,228,34,03,40,244,30*79
$GPGSV,3,2,12,19,39,293,29,18,39,060,26,21,31,122,31,09,19,062,19*74
$GPGSV,3,3,12,27,11,043,,24,08,307,,11,06,311,23,48,44,197,34*72
$GPRMC,232337.000,A,3748.7905,N,12217.8447,W,2.02,128.59,201211,,,A*75
$GPVTG,128.59,T,,M,2.02,N,3.7,K,A*0E
$GPGGA,232338.000,3748.7905,N,12217.8443,W,1,07,1.2,4.0,M,-25.1,M,,0000*61
$GPGSA,A,3,19,03,22,18,06,14,21,,,,,,3.1,1.2,2.8*3B
$GPRMC,232338.000,A,3748.7905,N,12217.8443,W,1.49,110.93,201211,,,A*7F
$GPVTG,110.93,T,,M,1.49,N,2.8,K,A*01
$GPGGA,232339.000,3748.7907,N,12217.8437,W,1,07,1.2,3.4,M,-25.1,M,,0000*62
$GPGSA,A,3,19,03,22,18,06,14,21,,,,,,3.1,1.2,2.8*3B
$GPRMC,232339.000,A,3748.7907,N,12217.8437,W,1.21,109.49,201211,,,A*7E
$GPVTG,109.49,T,,M,1.21,N,2.2,K,A*0A
$GPGGA,232339.000,3748.7906,N,12217.8432,W,1,07,1.2,3.1,M,-25.1,M,,0000*63
$GPGSA,A,3,19,03,22,18,06,14,21,,,,,,3.1,1.2,2.8*3B
$GPRMC,232339.000,A,3748.7906,N,12217.8432,W,1.13,114.07,201211,,,A*7D
$GPVTG,114.07,T,,M,1.13,N,2.1,K,A*0E
$GPGGA,232340.000,3748.7903,N,12217.8427,W,1,07,1.2,3.0,M,-25.1,M,,0000*6D
$GPGSA,A,3,19,03,22,18,06,14,21,,,,,,3.1,1.2,2.8*3B
$GPRMC,232340.000,A,3748.7903,N,12217.8427,W,1.51,120.87,201211,,,A*7B
$GPVTG,120.87,T,,M,1.51,N,2.8,K,A*0E
$GPGGA,232341.000,3748.7901,N,12217.8421,W,1,07,1.2,2.9,M,-25.1,M,,0000*60
$GPGSA,A,3,19,03,22,18,06,14,21,,,,,,3.1,1.2,2.8*3B
$GPGSV,3,1,12,22,70,358,27,14,62,185,34,06,42,228,33,03,40,244,30*70
$GPGSV,3,2,12,19,39,293,21,18,39,060,26,21,31,122,34,09,19,062,24*77
$GPGSV,3,3,12,27,11,043,,24,08,307,,11,06,311,22,48,44,197,38*7F
$GPRMC,232341.000,A,3748.7901,N,12217.8421,W,1.64,102.98,201211,,,A*76
$GPVTG,102.98,T,,M,1.64,N,3.0,K,A*0F
$GPGGA,232342.000,3748.7899,N,12217.8415,W,1,07,1.2,2.7,M,-25.1,M,,0000*6A
$GPGSA,A,3,19,03,22,18,06,14,21,,,,,,3.1,1.2,2.8*3B
$GPRMC,232342.000,A,3748.7899,N,12217.8415,W,1.66,106.15,201211,,,A*71
$GPVTG,106.15,T,,M,1.66,N,3.1,K,A*0D
$GPGGA,232343.000,3748.7897,N,12217.8409,W,1,07,1.2,2.4,M,-25.1,M,,0000*6B
$GPGSA,A,3,19,03,22,18,06,14,21,,,,,,3.1,1.2,2.8*3B
$GPRMC,232343.000,A,3748.7897,N,12217.8409,W,1.61,118.56,201211,,,A*7C
$GPVTG,118.56,T,,M,1.61,N,3.0,K,A*03
$GPGGA,232344.000,3748.7893,N,12217.8404,W,1,07,1.2,2.2,M,-25.1,M,,0000*63
$GPGSA,A,3,19,03,22,18,06,14,21,,,,,,3.1,1.2,2.8*3B
$GPRMC,232344.000,A,3748.7893,N,12217.8404,W,1.76,122.23,201211,,,A*7F
$GPVTG,122.23,T,,M,1.76,N,3.3,K,A*0D
$GPGGA,232345.000,3748.7891,N,12217.8398,W,1,07,1.2,2.4,M,-25.1,M,,0000*64
$GPGSA,A,3,19,03,22,18,06,14,21,,,,,,3.1,1.2,2.8*3B
$GPRMC,232345.000,A,3748.7891,N,12217.8398,W,1.86,115.71,201211,,,A*72
$GPVTG,115.71,T,,M,1.86,N,3.4,K,A*06
$GPGGA,232346.000,3748.7889,N,12217.8392,W,1,07,1.2,2.0,M,-25.1,M,,0000*60
$GPGSA,A,3,19,03,22,18,06,14,21,,,,,,3.1,1.2,2.8*3B
$GPGSV,3,1,12,22,70,358,28,14,62,185,34,06,42,228,34,03,40,244,37*7F
$GPGSV,3,2,12,19,39,293,25,18,39,060,27,21,31,122,35,09,19,062,24*73
$GPGSV,3,3,12,27,11,043,,24,08,307,,11,06,311,21,48,44,197,37*73
$GPVTG,110.25,T,,M,1.71,N,3.2,K,A*0C
$GPGGA,232347.000,3748.7888,N,12217.8387,W,1,07,1.2,1.5,M,-25.1,M,,0000*62
$GPGSA,A,3,19,03,22,18,06,14,21,,,,,,3.1,1.2,2.8*3B
$GPRMC,232347.000,A,3748.7888,N,12217.8387,W,1.61,109.09,201211,,,A*7D
$GPVTG,109.09,T,,M,1.61,N,3.0,K,A*09
$GPGGA,232348.000,3748.7886,N,12217.8381,W,1,07,1.2,1.0,M,-25.1,M,,0000*60
$GPGSA,A,3,19,03,22,18,06,14,21,,,,,,3.1,1.2,2.8*3B
$GPRMC,232348.000,A,3748.7886,N,12217.8381,W,1.56,106.69,201211,,,A*77
$GPVTG,106.69,T,,M,1.56,N,2.9,K,A*0C
$GPGGA,232349.000,3748.7885,N,12217.8375,W,1,07,1.2,0.5,M,-25.1,M,,0000*6D
$GPGSA,A,3,19,03,22,18,06,14,21,,,,,,3.1,1.2,2.8*3B
$GPRMC,232349.000,A,3748.7885,N,12217.8375,W,1.74,113.97,201211,,,A*7B
$GPVTG,113.97,T,,M,1.74,N,3.2,K,A*03
$GPGGA,232350.000,3748.7882,N,12217.8369,W,1,07,1.2,0.0,M,-25.1,M,,0000*6A
$GPGSA,A,3,19,03,22,18,06,14,21,,,,,,3.1,1.2,2.8*3B
$GPRMC,232350.000,A,3748.7882,N,12217.8369,W,2.07,124.86,201211,,,A*7A
$GPVTG,124.86,T,,M,2.07,N,3.8,K,A*0A
$GPGGA,232351.000,3748.7879,N,12217.8364,W,1,07,1.2,-0.3,M,-25.1,M,,0000*4C
$GPGSA,A,3,19,03,22,18,06,14,21,,,,,,3.1,1.2,2.8*3B
$GPGSV,3,1,12,22,70,358,28,14,62,185,34,06,42,228,34,03,40,244,36*7E
$GPGSV,3,2,12,19,39,293,26,18,39,060,27,21,31,122,36,09,19,062,25*72
$GPGSV,3,3,12,27,11,043,,24,08,307,,11,06,311,21,48,44,197,36*72
$GPRMC,232351.000,A,3748.7879,N,12217.8364,W,1.55,111.15,201211,,,A*7A
$GPVTG,111.15,T,,M,1.55,N,2.9,K,A*02
$GPGGA,232352.000,3748.7875,N,12217.8358,W,1,07,1.2,-1.0,M,-25.1,M,,0000*4E
$GPGSA,A,3,19,03,22,18,06,14,21,,,,,,3.1,1.2,2.8*3B
$GPRMC,232352.000,A,3748.7875,N,12217.8358,W,2.15,130.12,201211,,,A*79
$GPVTG,130.12,T,,M,2.15,N,4.0,K,A*0E
$GPGGA,232353.000,3748.7871,N,12217.8352,W,1,07,1.2,-1.5,M,-25.1,M,,0000*44
$GPGSA,A,3,19,03,22,18,06,14,21,,,,,,3.1,1.2,2.8*3B
$GPRMC,232353.000,A,3748.7871,N,12217.8352,W,1.96,123.13,201211,,,A*7D
$GPVTG,123.13,T,,M,1.96,N,3.6,K,A*04
$GPGGA,232354.000,3748.7868,N,12217.8346,W,1,07,1.2,-2.0,M,-25.1,M,,0000*48
$GPGSA,A,3,19,03,22,18,06,14,21,,,,,,3.1,1.2,2.8*3B
$GPRMC,232354.000,A,3748.7868,N,12217.8346,W,1.99,123.31,201211,,,A*78
$GPVTG,123.31,T,,M,1.99,N,3.7,K,A*0A
$GPGGA,232355.000,3748.7864,N,12217.8340,W,1,07,1.2,-2.4,M,-25.1,M,,0000*47
$GPGSA,A,3,19,03,22,18,06,14,21,,,,,,3.1,1.2,2.8*3B
$GPRMC,232355.000,A,3748.7864,N,12217.8340,W,2.03,121.14,201211,,,A*76
$GPVTG,121.14,T,,M,2.03,N,3.8,K,A*00
$GPGGA,232356.000,3748.7861,N,12217.8333,W,1,07,1.2,-2.7,M,-25.1,M,,0000*46
$GPGSA,A,3,19,03,22,18,06,14,21,,,,,,3.1,1.2,2.8*3B
$GPGSV,3,1,12,22,70,358,29,14,62,185,34,06,42,228,34,03,40,244,33*7A
$GPGSV,3,2,12,19,39,293,26,18,39,060,26,21,31,122,35,09,19,062,24*71
$GPGSV,3,3,12,27,11,043,,24,08,307,,11,06,311,22,48,44,197,37*70
$GPRMC,232356.000,A,3748.7861,N,12217.8333,W,2.19,117.83,201211,,,A*74
$GPVTG,117.83,T,,M,2.19,N,4.1,K,A*0E
$GPGGA,232357.000,3748.7856,N,12217.8326,W,1,07,1.2,-3.1,M,-25.1,M,,0000*40
$GPGSA,A,3,19,03,22,18,06,14,21,,,,,,3.1,1.2,2.8*3B
$GPRMC,232357.000,A,3748.7856,N,12217.8326,W,1.91,109.43,201211,,,A*75
$GPVTG,109.43,T,,M,1.91,N,3.5,K,A*0D
$GPGGA,232358.000,3748.7853,N,12217.8319,W,1,07,1.2,-2.9,M,-25.1,M,,0000*4F
$GPGSA,A,3,19,03,22,18,06,14,21,,,,,,3.1,1.2,2.8*3B
$GPRMC,232358.000,A,3748.7853,N,12217.8319,W,2.02,108.99,201211,,,A*7C
$GPVTG,108.99,T,,M,2.02,N,3.7,K,A*00
$GPGGA,232359.000,3748.7850,N,12217.8314,W,1,07,1.2,-2.4,M,-25.1,M,,0000*4D
$GPGSA,A,3,19,03,22,18,06,14,21,,,,,,3.1,1.2,2.8*3B
$GPRMC,232359.000,A,3748.7850,N,12217.8314,W,1.75,116.11,201211,,,A*7F
$GPVTG,116.11,T,,M,1.75,N,3.2,K,A*09
$GPGGA,232400.000,3748.7846,N,12217.8308,W,1,07,1.2,-1.9,M,-25.1,M,,0000*42
$GPGSA,A,3,19,03,22,18,06,14,21,,,,,,3.1,1.2,2.8*3B
$GPRMC,232400.000,A,3748.7846,N,12217.8308,W,1.71,120.98,201211,,,A*7E
$GPVTG,120.98,T,,M,1.71,N,3.2,K,A*09
$GPGGA,232401.000,3748.7842,N,12217.8302,W,1,07,1.2,-1.4,M,-25.1,M,,0000*40
$GPGSA,A,3,19,03,22,18,06,14,21,,,,,,3.1,1.2,2.8*3B
$GPGSV,3,1,12,22,70,358,23,14,62,185,29,06,42,228,29,03,40,244,31*72
$GPGSV,3,2,12,19,39,293,26,18,39,060,25,21,31,122,26,09,19,062,14*73
$GPGSV,3,3,12,27,11,043,,24,08,307,,11,06,311,21,48,44,197,32*76
$GPRMC,232401.000,A,3748.7842,N,12217.8302,W,2.16,114.32,201211,,,A*74
$GPVTG,114.32,T,,M,2.16,N,4.0,K,A*09
$GPGGA,232402.000,3748.7838,N,12217.8295,W,1,07,1.2,-1.6,M,-25.1,M,,0000*43
$GPGSA,A,3,19,03,22,18,06,14,21,,,,,,3.1,1.2,2.8*3B
$GPRMC,232402.000,A,3748.7838,N,12217.8295,W,2.16,130.21,201211,,,A*71
$GPVTG,130.21,T,,M,2.16,N,4.0,K,A*0D
$GPGGA,232403.000,3748.7830,N,12217.8293,W,1,07,1.2,-0.9,M,-25.1,M,,0000*42
$GPGSA,A,3,19,03,22,18,06,14,21,,,,,,3.1,1.2,2.8*3B
$GPRMC,232403.000,A,3748.7830,N,12217.8293,W,1.82,125.58,201211,,,A*7A
$GPVTG,125.58,T,,M,1.82,N,3.4,K,A*0A
$GPGGA,232404.000,3748.7828,N,12217.8286,W,1,07,1.2,-2.5,M,-25.1,M,,0000*46
$GPGSA,A,3,19,03,22,18,06,14,21,,,,,,3.1,1.2,2.8*3B
$GPRMC,232404.000,A,3748.7828,N,12217.8286,W,2.06,106.48,201211,,,A*7F
$GPVTG,106.48,T,,M,2.06,N,3.8,K,A*09
$GPGGA,232405.000,3748.7821,N,12217.8280,W,1,07,1.2,-5.0,M,-25.1,M,,0000*4A
$GPGSA,A,3,19,03,22,18,06,14,21,,,,,,3.1,1.2,2.8*3B
$GPRMC,232405.000,A,3748.7821,N,12217.8280,W,2.03,118.77,201211,,,A*77
$GPVTG,118.77,T,,M,2.03,N,3.8,K,A*0F
$GPGGA,232406.000,3748.7816,N,12217.8273,W,1,07,1.2,-6.2,M,-25.1,M,,0000*40
$GPGSA,A,3,19,03,22,18,06,14,21,,,,,,3.1,1.2,2.8*3B
$GPGSV,3,1,12,22,70,358,23,14,62,185,24,06,42,228,29,03,40,244,26*79
$GPGSV,3,2,12,19,39,293,26,18,39,060,20,21,31,122,26,09,19,062,14*76
$GPGSV,3,3,12,27,11,043,,24,08,307,,11,06,311,21,48,44,197,30*74
$GPRMC,232406.000,A,3748.7816,N,12217.8273,W,2.12,131.25,201211,,,A*70
$GPGGA,232407.000,3748.7808,N,12217.8265,W,1,07,1.2,-6.3,M,-25.1,M,,0000*48
$GPGSA,A,3,19,03,22,18,06,14,21,,,,,,3.1,1.2,2.8*3B
$GPRMC,232407.000,A,3748.7808,N,12217.8265,W,1.91,134.38,201211,,,A*78
$GPVTG,134.38,T,,M,1.91,N,3.5,K,A*0F
$GPGGA,232408.000,3748.7805,N,12217.8257,W,1,07,1.2,-6.7,M,-25.1,M,,0000*4F
$GPGSA,A,3,19,03,22,18,06,14,21,,,,,,3.1,1.2,2.8*3B
$GPRMC,232408.000,A,3748.7805,N,12217.8257,W,2.07,124.95,201211,,,A*71
$GPVTG,124.95,T,,M,2.07,N,3.8,K,A*08
$GPGGA,232409.000,3748.7802,N,12217.8250,W,1,07,1.2,-6.3,M,-25.1,M,,0000*4A
$GPGSA,A,3,19,03,22,18,06,14,21,,,,,,3.1,1.2,2.8*3B
$GPRMC,232409.000,A,3748.7802,N,12217.8250,W,2.27,122.25,201211,,,A*7F
$GPVTG,122.25,T,,M,2.27,N,4.2,K,A*0A
$GPGGA,232410.000,3748.7801,N,12217.8242,W,1,07,1.2,-5.9,M,-25.1,M,,0000*4B
$GPGSA,A,3,19,03,22,18,06,14,21,,,,,,3.1,1.2,2.8*3B
$GPRMC,232410.000,A,3748.7801,N,12217.8242,W,2.09,116.35,201211,,,A*7D
$GPVTG,116.35,T,,M,2.09,N,3.9,K,A*0C
$GPGGA,232411.000,3748.7798,N,12217.8235,W,2,07,1.2,-6.0,M,-25.1,M,1.8,0000*6B
$GPGSA,A,3,19,03,22,18,06,14,21,,,,,,3.1,1.2,2.8*3B
$GPGSV,3,1,12,22,70,358,23,14,62,185,30,06,42,228,29,03,40,244,35*7E
$GPGSV,3,2,12,19,39,293,22,18,39,060,22,21,31,122,31,09,19,062,16*74
$GPGSV,3,3,12,27,11,043,,24,08,307,,11,06,311,21,48,44,197,35*71
$GPRMC,232411.000,A,3748.7798,N,12217.8235,W,2.04,116.41,201211,,,D*78
$GPVTG,116.41,T,,M,2.04,N,3.8,K,D*06
$GPGGA,232412.000,3748.7799,N,12217.8227,W,2,07,1.2,-6.7,M,-25.1,M,1.8,0000*6D
$GPGSA,A,3,19,03,22,18,06,14,21,,,,,,3.1,1.2,2.8*3B
$GPRMC,232412.000,A,3748.7799,N,12217.8227,W,1.97,121.93,201211,,,D*7B
$GPVTG,121.93,T,,M,1.97,N,3.6,K,D*0A
$GPGGA,232413.000,3748.7794,N,12217.8223,W,2,07,1.2,-5.3,M,-25.1,M,1.8,0000*62
$GPGSA,A,3,19,03,22,18,06,14,21,,,,,,3.1,1.2,2.8*3B
$GPRMC,232413.000,A,3748.7794,N,12217.8223,W,2.04,127.75,201211,,,D*74
$GPVTG,127.75,T,,M,2.04,N,3.8,K,D*03
$GPGGA,232414.000,3748.7797,N,12217.8221,W,2,07,1.2,-6.1,M,-25.1,M,1.8,0000*65
$GPGSA,A,3,19,03,22,18,06,14,21,,,,,,3.1,1.2,2.8*3B
$GPRMC,232414.000,A,3748.7797,N,12217.8221,W,1.72,122.76,201211,,,D*76
$GPVTG,122.76,T,,M,1.72,N,3.2,K,D*0D
$GPGGA,232415.000,3748.7792,N,12217.8215,W,2,07,1.2,-5.8,M,-25.1,M,2.8,0000*6F
$GPGSA,A,3,19,03,22,18,06,14,21,,,,,,3.1,1.2,2.8*3B
$GPRMC,232415.000,A,3748.7792,N,12217.8215,W,1.86,130.34,201211,,,D*7B
$GPVTG,130.34,T,,M,1.86,N,3.4,K,D*05
$GPGGA,232416.000,3748.7788,N,12217.8210,W,2,07,1.2,-6.3,M,-25.1,M,1.8,0000*69
$GPGSA,A,3,19,03,22,18,06,14,21,,,,,,3.1,1.2,2.8*3B
$GPGSV,3,1,12,22,70,359,24,14,62,185,30,06,42,228,31,03,40,243,34*77
$GPGSV,3,2,12,19,40,293,29,18,38,061,18,21,31,122,29,09,19,062,16*71
$GPGSV,3,3,12,27,11,043,,24,09,307,,11,07,311,20,48,44,197,31*74
$GPRMC,232416.000,A,3748.7788,N,12217.8210,W,2.09,133.05,201211,,,D*73
$GPVTG,133.05,T,,M,2.09,N,3.9,K,D*0D
$GPGGA,232417.000,3748.7785,N,12217.8204,W,2,07,1.2,-6.4,M,-25.1,M,2.8,0000*64
$GPGSA,A,3,19,03,22,18,06,14,21,,,,,,3.1,1.2,2.8*3B
$GPRMC,232417.000,A,3748.7785,N,12217.8204,W,2.12,132.71,201211,,,D*72
$GPVTG,132.71,T,,M,2.12,N,3.9,K,D*05
$GPGGA,232418.000,3748.7784,N,12217.8197,W,2,07,1.2,-6.2,M,-25.1,M,1.8,0000*66
$GPGSA,A,3,19,03,22,18,06,14,21,,,,,,3.1,1.2,2.8*3B
$GPRMC,232418.000,A,3748.7784,N,12217.8197,W,1.86,123.44,201211,,,D*7D
$GPVTG,123.44,T,,M,1.86,N,3.4,K,D*00
$GPGGA,232419.000,3748.7784,N,12217.8191,W,2,07,1.2,-6.1,M,-25.1,M,1.8,0000*62
$GPGSA,A,3,19,03,22,18,06,14,21,,,,,,3.1,1.2,2.8*3B
$GPRMC,232419.000,A,3748.7784,N,12217.8191,W,1.84,125.00,201211,,,D*7E
$GPVTG,125.00,T,,M,1.84,N,3.4,K,D*04
$GPGGA,232420.000,3748.7782,N,12217.8184,W,2,07,1.2,-6.1,M,-25.1,M,1.8,0000*6A
$GPGSA,A,3,19,03,22,18,06,14,21,,,,,,3.1,1.2,2.8*3B
$GPRMC,232420.000,A,3748.7782,N,12217.8184,W,2.06,122.85,201211,,,D*75
$GPVTG,122.85,T,,M,2.06,N,3.8,K,D*0B
$GPGGA,232421.000,3748.7781,N,12217.8177,W,2,07,1.2,-6.3,M,-25.1,M,2.8,0000*65
$GPGSA,A,3,19,03,22,18,06,14,21,,,,,,3.1,1.2,2.8*3B
$GPGSV,3,1,12,22,70,359,31,14,62,185,35,06,42,228,36,03,40,243,37*72
$GPGSV,3,2,12,19,40,293,30,18,38,061,22,21,31,122,30,09,19,062,23*7E
$GPRMC,232421.000,A,3748.7781,N,12217.8177,W,1.76,110.25,201211,,,D*74
$GPVTG,110.25,T,,M,1.76,N,3.3,K,D*0F
$GPGGA,232422.000,3748.7779,N,12217.8171,W,2,07,1.2,-6.4,M,-25.1,M,3.8,0000*61
$GPGSA,A,3,19,03,22,18,06,14,21,,,,,,3.1,1.2,2.8*3B
$GPRMC,232422.000,A,3748.7779,N,12217.8171,W,2.08,119.20,201211,,,D*70
$GPVTG,119.20,T,,M,2.08,N,3.8,K,D*02
$GPGGA,232423.000,3748.7776,N,12217.8163,W,2,07,1.2,-6.5,M,-25.1,M,4.8,0000*6A
$GPGSA,A,3,19,03,22,18,06,14,21,,,,,,3.1,1.2,2.8*3B
$GPRMC,232423.000,A,3748.7776,N,12217.8163,W,2.22,119.08,201211,,,D*7F
$GPVTG,119.08,T,,M,2.22,N,4.1,K,D*0E
$GPGGA,232424.000,3748.7773,N,12217.8156,W,2,07,1.2,-6.7,M,-25.1,M,1.8,0000*69
$GPGSA,A,3,19,03,22,18,06,14,21,,,,,,3.1,1.2,2.8*3B
$GPRMC,232424.000,A,3748.7773,N,12217.8156,W,2.12,121.24,201211,,,D*7D
$GPVTG,121.24,T,,M,2.12,N,3.9,K,D*07
$GPGGA,232425.000,3748.7771,N,12217.8149,W,2,07,1.2,-7.1,M,-25.1,M,1.8,0000*63
$GPGSA,A,3,19,03,22,18,06,14,21,,,,,,3.1,1.2,2.8*3B
$GPRMC,232425.000,A,3748.7771,N,12217.8149,W,2.00,117.08,201211,,,D*78
$GPVTG,117.08,T,,M,2.00,N,3.7,K,D*01
$GPGGA,232426.000,3748.7768,N,12217.8139,W,2,07,1.2,-8.4,M,-25.1,M,1.8,0000*65
$GPGSA,A,3,19,03,22,18,06,14,21,,,,,,3.1,1.2,2.8*3B
$GPGSV,3,1,12,22,70,359,31,14,62,185,34,06,42,228,36,03,40,243,37*73
$GPGSV,3,2,12,19,40,293,25,18,38,061,23,21,31,122,30,09,19,062,22*7A
$GPGSV,3,3,12,27,11,043,,24,09,307,,11,07,311,19,48,44,197,36*79
$GPRMC,232426.000,A,3748.7768,N,12217.8139,W,2.30,118.30,201211,,,D*73
$GPVTG,118.30,T,,M,2.30,N,4.3,K,D*05
$GPGGA,232427.000,3748.7765,N,12217.8131,W,2,07,1.2,-9.0,M,-25.1,M,1.8,0000*64
$GPGSA,A,3,19,03,22,18,06,14,21,,,,,,3.1,1.2,2.8*3B
$GPRMC,232427.000,A,3748.7765,N,12217.8131,W,2.07,112.31,201211,,,D*78
$GPVTG,112.31,T,,M,2.07,N,3.8,K,D*06
$GPGGA,232428.000,3748.7763,N,12217.8124,W,2,07,1.2,-9.5,M,-25.1,M,2.8,0000*6F
$GPGSA,A,3,19,03,22,18,06,14,21,,,,,,3.0,1.2,2.8*3A
$GPRMC,232428.000,A,3748.7763,N,12217.8124,W,1.96,117.50,201211,,,D*7C
$GPVTG,117.50,T,,M,1.96,N,3.6,K,D*01
$GPGGA,232429.000,3748.7760,N,12217.8117,W,2,07,1.2,-9.8,M,-25.1,M,1.8,0000*63
$GPGSA,A,3,19,03,22,18,06,14,21,,,,,,3.0,1.2,2.8*3A
$GPRMC,232429.000,A,3748.7760,N,12217.8117,W,2.02,119.19,201211,,,D*73
$GPVTG,119.19,T,,M,2.02,N,3.7,K,D*0D
$GPGGA,232430.000,3748.7758,N,12217.8110,W,2,07,1.2,-10.1,M,-25.1,M,1.8,0000*56
$GPGSA,A,3,19,03,22,18,06,14,21,,,,,,3.0,1.2,2.8*3A
$GPRMC,232430.000,A,3748.7758,N,12217.8110,W,1.99,113.73,201211,,,D*70
$GPVTG,113.73,T,,M,1.99,N,3.7,K,D*0A
$GPGGA,232431.000,3748.7754,N,12217.8104,W,2,07,1.2,-10.2,M,-25.1,M,1.8,0000*5D
$GPGSA,A,3,19,03,22,18,06,14,21,,,,,,3.0,1.2,2.8*3A
$GPGSV,3,1,12,22,70,359,31,14,62,185,34,06,42,228,36,03,40,243,36*72
$GPGSV,3,2,12,19,40,293,24,18,38,061,21,21,31,122,30,09,19,062,23*78
$GPGSV,3,3,12,27,11,043,,24,09,307,,11,07,311,19,48,44,197,37*78
$GPRMC,232431.000,A,3748.7754,N,12217.8104,W,2.06,128.63,201211,,,D*74
$GPVTG,128.63,T,,M,2.06,N,3.8,K,D*09
$GPGGA,232432.000,3748.7752,N,12217.8097,W,2,07,1.2,-10.3,M,-25.1,M,1.8,0000*52
$GPGSA,A,3,19,03,22,18,06,14,21,,,,,,3.0,1.2,2.8*3A
$GPRMC,232432.000,A,3748.7752,N,12217.8097,W,2.08,114.95,201211,,,D*72
$GPVTG,114.95,T,,M,2.08,N,3.9,K,D*00
$GPGGA,232433.000,3748.7749,N,12217.8091,W,2,07,1.2,-10.1,M,-25.1,M,2.8,0000*5E
$GPGSA,A,3,19,03,22,18,06,14,21,,,,,,3.0,1.2,2.8*3A
$GPRMC,232433.000,A,3748.7749,N,12217.8091,W,2.11,123.86,201211,,,D*71
$GPVTG,123.86,T,,M,2.11,N,3.9,K,D*0E
$GPGGA,232434.000,3748.7745,N,12217.8084,W,2,07,1.2,-9.9,M,-25.1,M,3.8,0000*60
$GPGSA,A,3,19,03,22,18,06,14,21,,,,,,3.0,1.2,2.8*3A
$GPRMC,232434.000,A,3748.7745,N,12217.8084,W,2.09,130.60,201211,,,D*7D
$GPVTG,130.60,T,,M,2.09,N,3.9,K,D*0D
$GPGGA,232435.000,3748.7741,N,12217.8079,W,2,07,1.2,-9.7,M,-25.1,M,4.8,0000*6E
$GPGSA,A,3,19,03,22,18,06,14,21,,,,,,3.0,1.2,2.8*3A
$GPRMC,232435.000,A,3748.7741,N,12217.8079,W,1.92,128.93,201211,,,D*7E
$GPVTG,128.93,T,,M,1.92,N,3.5,K,D*05
$GPGGA,232436.000,3748.7739,N,12217.8074,W,2,07,1.2,-9.5,M,-25.1,M,1.8,0000*68
$GPGSA,A,3,19,03,22,18,06,14,21,,,,,,3.0,1.2,2.8*3A
$GPGSV,3,1,12,22,70,359,31,14,62,185,34,06,42,228,35,03,40,243,36*71
$GPGSV,3,2,12,19,40,293,25,18,38,061,25,21,31,122,31,09,19,062,24*7B
$GPGSV,3,3,12,27,11,043,,24,09,307,,11,07,311,18,48,44,197,37*79
$GPRMC,232436.000,A,3748.7739,N,12217.8074,W,1.79,118.05,201211,,,D*76
$GPVTG,118.05,T,,M,1.79,N,3.3,K,D*0A
$GPGGA,232437.000,3748.7736,N,12217.8068,W,2,07,1.2,-9.1,M,-25.1,M,1.8,0000*6F
$GPGSA,A,3,19,03,22,18,06,14,21,,,,,,3.0,1.2,2.8*3A
$GPRMC,232437.000,A,3748.7736,N,12217.8068,W,2.06,119.98,201211,,,D*7B
$GPVTG,119.98,T,,M,2.06,N,3.8,K,D*0F
$GPGGA,232438.000,3748.7732,N,12217.8062,W,2,07,1.2,-8.8,M,-25.1,M,1.8,0000*66
$GPGSA,A,3,19,03,22,18,06,14,21,,,,,,3.0,1.2,2.8*3A
$GPRMC,232438.000,A,3748.7732,N,12217.8062,W,2.11,125.04,201211,,,D*76
$GPVTG,125.04,T,,M,2.11,N,3.9,K,D*02
$GPGGA,232439.000,3748.7729,N,12217.8056,W,2,07,1.2,-8.5,M,-25.1,M,2.8,0000*64
$GPGSA,A,3,19,03,22,18,06,14,21,,,,,,3.0,1.2,2.8*3A
$GPRMC,232439.000,A,3748.7729,N,12217.8056,W,2.20,121.31,201211,,,D*7A
$GPVTG,121.31,T,,M,2.20,N,4.1,K,D*0D
$GPGGA,232440.000,3748.7726,N,12217.8049,W,2,07,1.2,-8.2,M,-25.1,M,3.8,0000*6D
$GPGSA,A,3,19,03,22,18,06,14,21,,,,,,3.0,1.2,2.8*3A
$GPRMC,232440.000,A,3748.7726,N,12217.8049,W,2.22,120.92,201211,,,D*7F
$GPVTG,120.92,T,,M,2.22,N,4.1,K,D*07
$GPGGA,232441.000,3748.7723,N,12217.8043,W,2,07,1.2,-8.0,M,-25.1,M,1.8,0000*63
$GPGSA,A,3,19,03,22,18,06,14,21,,,,,,3.0,1.2,2.8*3A
$GPGSV,3,1,12,22,70,359,31,14,62,185,34,06,42,228,35,03,40,243,37*70
$GPGSV,3,2,12,19,40,293,26,18,38,061,23,21,31,122,31,09,19,062,*78
$GPGSV,3,3,12,27,11,043,,24,09,307,,11,07,311,17,48,44,197,37*76
$GPVTG,125.37,T,,M,1.98,N,3.7,K,D*0E
$GPGGA,232442.000,3748.7720,N,12217.8038,W,2,07,1.2,-7.9,M,-25.1,M,1.8,0000*69
$GPGSA,A,3,19,03,22,18,06,14,21,,,,,,3.0,1.2,2.8*3A
$GPRMC,232442.000,A,3748.7720,N,12217.8038,W,2.08,120.05,201211,,,D*7B
$GPVTG,120.05,T,,M,2.08,N,3.9,K,D*0E
$GPGGA,232443.000,3748.7717,N,12217.8031,W,2,07,1.2,-7.8,M,-25.1,M,1.8,0000*64
$GPGSA,A,3,19,03,22,18,06,14,21,,,,,,3.0,1.2,2.8*3A
$GPRMC,232443.000,A,3748.7717,N,12217.8031,W,2.02,121.16,201211,,,D*7E
$GPVTG,121.16,T,,M,2.02,N,3.7,K,D*09
$GPGGA,232444.000,3748.7715,N,12217.8025,W,2,07,1.2,-7.6,M,-25.1,M,1.8,0000*6A
$GPGSA,A,3,19,03,22,18,06,14,21,,,,,,3.0,1.2,2.8*3A
$GPRMC,232444.000,A,3748.7715,N,12217.8025,W,2.08,119.10,201211,,,D*79
$GPVTG,119.10,T,,M,2.08,N,3.9,K,D*00
$GPGGA,232445.000,3748.7712,N,12217.8019,W,2,07,1.2,-7.6,M,-25.1,M,2.8,0000*60
$GPGSA,A,3,19,03,22,18,06,14,21,,,,,,3.0,1.2,2.8*3A
$GPRMC,232445.000,A,3748.7712,N,12217.8019,W,2.00,114.73,201211,,,D*70
$GPVTG,114.73,T,,M,2.00,N,3.7,K,D*0E
$GPGGA,232446.000,3748.7710,N,12217.8012,W,2,07,1.2,-7.4,M,-25.1,M,3.8,0000*69
$GPGSA,A,3,19,03,22,18,06,14,21,,,,,,3.0,1.2,2.8*3A
$GPGSV,3,1,12,22,70,359,30,14,63,185,34,06,42,227,35,19,40,293,27*78
$GPGSV,3,2,12,03,39,243,37,18,38,061,25,21,31,122,31,09,19,062,24*70
$GPGSV,3,3,12,27,11,043,,24,09,307,,11,07,311,19,48,44,197,38*77
$GPRMC,232446.000,A,3748.7710,N,12217.8012,W,2.12,121.60,201211,,,D*7D
$GPVTG,121.60,T,,M,2.12,N,3.9,K,D*07
$GPGGA,232447.000,3748.7707,N,12217.8006,W,2,07,1.2,-7.3,M,-25.1,M,4.8,0000*6B
$GPGSA,A,3,19,03,22,18,06,14,21,,,,,,3.0,1.2,2.8*3A
$GPRMC,232447.000,A,3748.7707,N,12217.8006,W,1.93,122.76,201211,,,D*71
$GPVTG,122.76,T,,M,1.93,N,3.6,K,D*06
$GPGGA,232448.000,3748.7704,N,12217.8001,W,2,07,1.2,-6.8,M,-25.1,M,1.8,0000*6F
$GPGSA,A,3,19,03,22,18,06,14,21,,,,,,3.0,1.2,2.8*3A
$GPRMC,232448.000,A,3748.7704,N,12217.8001,W,1.66,122.35,201211,,,D*77
$GPVTG,122.35,T,,M,1.66,N,3.1,K,D*0C
$GPGGA,232449.000,3748.7701,N,12217.7996,W,2,07,1.2,-6.5,M,-25.1,M,1.8,0000*6E
$GPGSA,A,3,19,03,22,18,06,14,21,,,,,,3.0,1.2,2.8*3A
$GPRMC,232449.000,A,3748.7701,N,12217.7996,W,1.88,122.24,201211,,,D*7B
$GPVTG,122.24,T,,M,1.88,N,3.5,K,D*08
$GPGGA,232450.000,3748.7698,N,12217.7991,W,2,07,1.2,-6.4,M,-25.1,M,1.8,0000*61
$GPGSA,A,3,19,03,22,18,06,14,21,,,,,,3.0,1.2,2.8*3A
$GPRMC,232450.000,A,3748.7698,N,12217.7991,W,1.73,127.66,201211,,,D*72
$GPVTG,127.66,T,,M,1.73,N,3.2,K,D*08
$GPGGA,232451.000,3748.7696,N,12217.7987,W,2,07,1.2,-6.3,M,-25.1,M,1.8,0000*6E
$GPGSA,A,3,19,03,22,18,06,14,21,,,,,,3.0,1.2,2.8*3A
$GPGSV,3,1,12,22,70,359,31,14,63,185,33,06,42,227,35,19,40,293,29*70
$GPGSV,3,2,12,03,39,243,37,18,38,061,25,21,31,122,30,09,19,062,24*71
$GPGSV,3,3,12,27,11,043,,24,09,307,,11,07,311,19,48,44,197,36*79
$GPRMC,232451.000,A,3748.7696,N,12217.7987,W,1.34,120.02,201211,,,D*7C
$GPVTG,120.02,T,,M,1.34,N,2.5,K,D*08
$GPGGA,232452.000,3748.7694,N,12217.7982,W,2,07,1.2,-6.2,M,-25.1,M,2.8,0000*68
$GPGSA,A,3,19,03,22,18,06,14,21,,,,,,3.0,1.2,2.8*3A
$GPRMC,232452.000,A,3748.7694,N,12217.7982,W,1.55,120.46,201211,,,D*7F
$GPVTG,120.46,T,,M,1.55,N,2.9,K,D*03
$GPGGA,232453.000,3748.7690,N,12217.7978,W,2,07,1.2,-5.9,M,-25.1,M,3.8,0000*61
$GPGSA,A,3,19,03,22,18,06,14,21,,,,,,3.0,1.2,2.8*3A
$GPRMC,232453.000,A,3748.7690,N,12217.7978,W,1.32,137.50,201211,,,D*7F
$GPVTG,137.50,T,,M,1.32,N,2.5,K,D*0F
$GPGGA,232454.000,3748.7688,N,12217.7975,W,2,07,1.2,-5.7,M,-25.1,M,1.8,0000*6E
$GPGSA,A,3,19,03,22,18,06,14,21,,,,,,3.0,1.2,2.8*3A
$GPRMC,232454.000,A,3748.7688,N,12217.7975,W,1.28,138.17,201211,,,D*7B
$GPVTG,138.17,T,,M,1.28,N,2.4,K,D*09
$GPGGA,232455.000,3748.7685,N,12217.7971,W,2,07,1.2,-5.6,M,-25.1,M,1.8,0000*67
$GPGSA,A,3,19,03,22,18,06,14,21,,,,,,3.0,1.2,2.8*3A
$GPRMC,232455.000,A,3748.7685,N,12217.7971,W,1.45,128.83,201211,,,D*74
$GPVTG,128.83,T,,M,1.45,N,2.7,K,D*0D
$GPGGA,232456.000,3748.7682,N,12217.7967,W,2,07,1.2,-5.5,M,-25.1,M,1.8,0000*67
$GPGSA,A,3,19,03,22,18,06,14,21,,,,,,3.0,1.2,2.8*3A
$GPGSV,3,1,12,22,70,359,31,14,63,185,33,06,42,227,36,19,40,293,31*7A
$GPGSV,3,2,12,03,39,243,37,18,38,061,27,21,31,122,28,09,19,062,20*7E
$GPGSV,3,3,12,27,11,043,,24,09,307,,11,07,311,19,48,44,197,37*78
$GPRMC,232456.000,A,3748.7682,N,12217.7967,W,1.73,128.54,201211,,,D*78
$GPVTG,128.54,T,,M,1.73,N,3.2,K,D*06
$GPGGA,232457.000,3748.7679,N,12217.7962,W,2,07,1.2,-5.3,M,-25.1,M,1.8,0000*61
$GPGSA,A,3,19,03,22,18,06,14,21,,,,,,3.0,1.2,2.8*3A
$GPRMC,232457.000,A,3748.7679,N,12217.7962,W,2.11,125.73,201211,,,D*77
$GPVTG,125.73,T,,M,2.11,N,3.9,K,D*02
$GPGGA,232458.000,3748.7676,N,12217.7955,W,2,07,1.2,-4.8,M,-25.1,M,1.8,0000*6F
$GPGSA,A,3,19,03,22,18,06,14,21,,,,,,3.0,1.2,2.8*3A
$GPRMC,232458.000,A,3748.7676,N,12217.7955,W,2.27,114.73,201211,,,D*74
$GPVTG,114.73,T,,M,2.27,N,4.2,K,D*09
$GPGGA,232459.000,3748.7673,N,12217.7947,W,2,07,1.2,-4.6,M,-25.1,M,2.8,0000*65
$GPGSA,A,3,19,03,22,18,06,14,21,,,,,,3.0,1.2,2.8*3A
$GPRMC,232459.000,A,3748.7673,N,12217.7947,W,2.38,115.09,201211,,,D*71
$GPVTG,115.09,T,,M,2.38,N,4.4,K,D*0D
$GPGGA,232500.000,3748.7668,N,12217.7941,W,2,07,1.2,-3.9,M,-25.1,M,1.8,0000*6F
$GPGSA,A,3,19,03,22,18,06,14,21,,,,,,3.0,1.2,2.8*3A
$GPRMC,232500.000,A,3748.7668,N,12217.7941,W,1.99,103.68,201211,,,D*78
$GPVTG,103.68,T,,M,1.99,N,3.7,K,D*01
$GPGGA,232501.000,3748.7664,N,12217.7936,W,2,07,1.2,-3.7,M,-25.1,M,1.8,0000*6C
$GPGSA,A,3,19,03,22,18,06,14,21,,,,,,3.0,1.2,2.8*3A
$GPGSV,3,1,12,22,70,359,23,14,63,185,33,06,42,227,36,19,40,293,26*7F
$GPGSV,3,2,12,03,39,243,37,18,38,061,28,21,31,122,31,09,19,062,30*78
$GPGSV,3,3,12,27,11,043,,24,09,307,,11,07,311,18,48,44,197,37*79
$GPVTG,111.79,T,,M,1.79,N,3.3,K,D*08
$GPGGA,232502.000,3748.7661,N,12217.7931,W,2,07,1.2,-3.4,M,-25.1,M,1.8,0000*6E
$GPGSA,A,3,19,03,22,18,06,14,21,,,,,,3.0,1.2,2.8*3A
$GPRMC,232502.000,A,3748.7661,N,12217.7931,W,1.38,99.82,201211,,,D*49
$GPVTG,99.82,T,,M,1.38,N,2.5,K,D*3F
$GPGGA,232503.000,3748.7659,N,12217.7927,W,2,07,1.2,-3.3,M,-25.1,M,2.8,0000*67
$GPGSA,A,3,19,03,22,18,06,14,21,,,,,,3.0,1.2,2.8*3A
$GPRMC,232503.000,A,3748.7659,N,12217.7927,W,1.57,103.46,201211,,,D*77
$GPVTG,103.46,T,,M,1.57,N,2.9,K,D*00
$GPGGA,232504.000,3748.7657,N,12217.7921,W,2,07,1.2,-3.1,M,-25.1,M,3.8,0000*6B
$GPGSA,A,3,19,03,22,18,06,14,21,,,,,,3.0,1.2,2.8*3A
$GPRMC,232504.000,A,3748.7657,N,12217.7921,W,1.85,112.06,201211,,,D*73
$GPVTG,112.06,T,,M,1.85,N,3.4,K,D*07
$GPGGA,232505.000,3748.7654,N,12217.7916,W,2,07,1.2,-3.2,M,-25.1,M,4.8,0000*69
$GPGSA,A,3,19,03,22,18,06,14,21,,,,,,3.0,1.2,2.8*3A
$GPRMC,232505.000,A,3748.7654,N,12217.7916,W,1.99,101.10,201211,,,D*7D
$GPVTG,101.10,T,,M,1.99,N,3.7,K,D*0C
$GPGGA,232506.000,3748.7652,N,12217.7910,W,2,07,1.2,-2.8,M,-25.1,M,1.8,0000*64
$GPGSA,A,3,19,03,22,18,06,14,21,,,,,,3.0,1.2,2.8*3A
$GPGSV,3,1,12,22,70,359,19,14,63,185,33,06,42,227,30,19,40,293,24*72
$GPGSV,3,2,12,03,39,243,28,18,38,061,26,21,31,122,23,09,19,062,23*79
$GPGSV,3,3,12,27,11,043,,24,09,307,,11,07,311,18,48,44,197,30*7E
$GPRMC,232506.000,A,3748.7652,N,12217.7910,W,1.83,114.55,201211,,,D*70
$GPVTG,114.55,T,,M,1.83,N,3.4,K,D*01
$GPGGA,232507.000,3748.7650,N,12217.7902,W,2,07,1.2,-2.7,M,-25.1,M,1.8,0000*6B
$GPGSA,A,3,19,03,22,18,06,14,21,,,,,,3.0,1.2,2.8*3A
$GPRMC,232507.000,A,3748.7650,N,12217.7902,W,1.72,109.86,201211,,,D*7C
$GPVTG,109.86,T,,M,1.72,N,3.2,K,D*0B
$GPGGA,232508.000,3748.7647,N,12217.7896,W,2,07,1.2,-2.4,M,-25.1,M,1.8,0000*6D
$GPGSA,A,3,19,03,22,18,06,14,21,,,,,,3.0,1.2,2.8*3A
$GPRMC,232508.000,A,3748.7647,N,12217.7896,W,1.81,115.28,201211,,,D*7C
$GPVTG,115.28,T,,M,1.81,N,3.3,K,D*0F
$GPGGA,232509.000,3748.7645,N,12217.7888,W,2,07,1.2,-2.2,M,-25.1,M,2.8,0000*64
$GPGSA,A,3,19,03,22,18,06,14,21,,,,,,3.0,1.2,2.8*3A
$GPRMC,232509.000,A,3748.7645,N,12217.7888,W,1.83,110.33,201211,,,D*7D
$GPVTG,110.33,T,,M,1.83,N,3.4,K,D*05
$GPGGA,232510.000,3748.7641,N,12217.7880,W,2,07,1.2,-2.2,M,-25.1,M,3.8,0000*61
$GPGSA,A,3,19,03,22,18,06,14,21,,,,,,3.0,1.2,2.8*3A
$GPRMC,232510.000,A,3748.7641,N,12217.7880,W,2.29,124.51,201211,,,D*79
$GPVTG,124.51,T,,M,2.29,N,4.2,K,D*04
$GPGGA,232511.000,3748.7636,N,12217.7873,W,2,07,1.2,-2.2,M,-25.1,M,4.8,0000*6B
$GPGSA,A,3,19,03,22,18,06,14,21,,,,,,3.0,1.2,2.8*3A
$GPGSV,3,1,12,22,70,359,17,14,63,185,32,06,42,227,29,19,40,293,25*74
$GPGSV,3,2,12,03,39,243,28,18,38,061,26,21,31,122,24,09,19,062,11*7F
$GPGSV,3,3,12,27,11,043,,24,09,307,,11,07,311,17,48,44,197,30*71
$GPRMC,232511.000,A,3748.7636,N,12217.7873,W,2.29,125.33,201211,,,D*71
$GPVTG,125.33,T,,M,2.29,N,4.2,K,D*01
$GPGGA,232512.000,3748.7633,N,12217.7867,W,2,07,1.2,-3.0,M,-25.1,M,1.8,0000*6E
$GPGSA,A,3,19,03,22,18,06,14,21,,,,,,3.0,1.2,2.8*3A
$GPRMC,232512.000,A,3748.7633,N,12217.7867,W,2.04,128.76,201211,,,D*71
$GPVTG,128.76,T,,M,2.04,N,3.8,K,D*0F
$GPGGA,232513.000,3748.7631,N,12217.7858,W,2,07,1.2,-4.0,M,-25.1,M,1.8,0000*66
$GPGSA,A,3,19,03,22,18,06,14,21,,,,,,3.0,1.2,2.8*3A
$GPRMC,232513.000,A,3748.7631,N,12217.7858,W,2.45,125.82,201211,,,D*7D
$GPVTG,125.82,T,,M,2.45,N,4.5,K,D*06
