$ADVER,3080,2.3
$GPRMC,190851.935,A,3749.8820,N,12215.3644,W,0.24,92.85,131011,,,A*4F
$GPGGA,190852.935,3749.8820,N,12215.3640,W,1,04,1.5,25.2,M,-25.0,M,,0000*56
$GPGSA,A,3,09,02,12,17,,,,,,,,,1.8,1.5,1.0*30
$GPRMC,190852.935,A,3749.8820,N,12215.3640,W,0.34,238.34,131011,,,A*71
$GPVTG,238.34,T,,M,0.34,N,0.6,K,A*02
$GPGGA,190853.935,3749.8819,N,12215.3641,W,1,04,1.5,24.4,M,-25.0,M,,0000*5B
$GPGSA,A,3,09,02,12,17,,,,,,,,,1.8,1.5,1.0*30
$GPRMC,190853.935,A,3749.8819,N,12215.3641,W,0.15,121.79,131011,,,A*7A
$GPVTG,121.79,T,,M,0.15,N,0.3,K,A*06
$GPGGA,190855.000,3749.8818,N,12215.3641,W,1,04,1.5,23.6,M,-25.0,M,,0000*56
$GPGSA,A,3,09,02,12,17,,,,,,,,,1.8,1.5,1.0*30
$GPRMC,190855.000,A,3749.8818,N,12215.3641,W,0.09,209.29,131011,,,A*73
$GPVTG,209.29,T,,M,0.09,N,0.2,K,A*06
$GPGGA,190856.000,3749.8818,N,12215.3641,W,1,04,1.5,23.3,M,-25.0,M,,0000*50
$GPGSA,A,3,09,02,12,17,,,,,,,,,1.8,1.5,1.0*30
$GPRMC,190856.000,A,3749.8818,N,12215.3641,W,0.43,90.80,131011,,,A*4F
$GPVTG,90.80,T,,M,0.43,N,0.8,K,A*33
$GPGGA,190857.000,3749.8817,N,12215.3640,W,1,04,1.5,23.1,M,-25.0,M,,0000*5D
$GPGSA,A,3,09,02,12,17,,,,,,,,,1.8,1.5,1.0*30
$GPGSV,3,1,11,09,59,253,37,27,57,226,37,02,51,177,40,12,38,311,40*77
$GPGSV,3,2,11,17,28,055,40,04,61,088,40,10,09,123,25,28,09,110,23*7A
$GPRMC,190857.000,A,3749.8817,N,12215.3640,W,0.02,144.36,131011,,,A*70
$GPVTG,144.36,T,,M,0.02,N,0.0,K,A*0B
$GPGGA,190858.000,3749.8817,N,12215.3640,W,1,04,1.5,22.9,M,-25.0,M,,0000*5B
$GPGSA,A,3,09,02,12,17,,,,,,,,,1.8,1.5,1.0*30
$GPRMC,190858.000,A,3749.8817,N,12215.3640,W,0.12,40.57,131011,,,A*4C
$GPVTG,40.57,T,,M,0.12,N,0.2,K,A*3A
$GPGGA,190859.000,3749.8817,N,12215.3640,W,1,04,1.5,22.8,M,-25.0,M,,0000*5B
$GPGSA,A,3,09,02,12,17,,,,,,,,,1.8,1.5,1.0*30
$GPRMC,190859.000,A,3749.8817,N,12215.3640,W,0.04,142.67,131011,,,A*7A
$GPVTG,142.67,T,,M,0.04,N,0.1,K,A*0E
$GPGGA,190900.000,3749.8816,N,12215.3641,W,1,04,1.5,22.6,M,-25.0,M,,0000*58
$GPGSA,A,3,09,02,12,17,,,,,,,,,1.8,1.5,1.0*30
$GPRMC,190900.000,A,3749.8816,N,12215.3641,W,0.05,122.11,131011,,,A*71
$GPVTG,122.11,T,,M,0.05,N,0.1,K,A*08
$GPGGA,190901.000,3749.8816,N,12215.3641,W,1,04,1.5,22.4,M,-25.0,M,,0000*5B
$GPGSA,A,3,09,02,12,17,,,,,,,,,1.8,1.5,1.0*30
$GPRMC,190901.000,A,3749.8816,N,12215.3641,W,0.06,71.89,131011,,,A*45
$GPVTG,71.89,T,,M,0.06,N,0.1,K,A*3D
$GPGGA,190902.000,3749.8815,N,12215.3641,W,1,04,1.5,22.3,M,-25.0,M,,0000*5C
$GPGSA,A,3,09,02,12,17,,,,,,,,,1.8,1.5,1.0*30
$GPGSV,3,1,11,09,59,253,38,27,57,226,37,02,51,177,39,12,38,311,40*76
$GPGSV,3,2,11,17,28,055,40,04,61,088,40,10,09,123,25,28,09,110,23*7A
$GPGSV,3,3,11,25,08,302,23,14,02,321,,48,00,000,35*4B
$GPRMC,190902.000,A,3749.8815,N,12215.3641,W,0.09,80.36,131011,,,A*40
$GPVTG,80.36,T,,M,0.09,N,0.2,K,A*3B
$GPGGA,190903.000,3749.8822,N,12215.3633,W,1,05,1.7,28.0,M,-25.0,M,,0000*56
$GPGSA,A,3,04,09,02,12,17,,,,,,,,4.6,1.7,4.3*3B
$GPRMC,190903.000,A,3749.8822,N,12215.3633,W,0.10,78.18,131011,,,A*43
$GPVTG,78.18,T,,M,0.10,N,0.2,K,A*38
$GPGGA,190904.000,3749.8824,N,12215.3630,W,1,05,1.7,30.4,M,-25.0,M,,0000*59
$GPGSA,A,3,04,09,02,12,17,,,,,,,,4.6,1.7,4.3*3B
$GPRMC,190904.000,A,3749.8824,N,12215.3630,W,0.05,107.39,131011,,,A*7F
$GPVTG,107.39,T,,M,0.05,N,0.1,K,A*05
$GPGGA,190905.000,3749.8825,N,12215.3629,W,1,05,1.7,31.7,M,-25.0,M,,0000*53
$GPGSA,A,3,04,09,02,12,17,,,,,,,,4.7,1.7,4.3*3A
$GPRMC,190905.000,A,3749.8825,N,12215.3629,W,0.21,81.31,131011,,,A*46
$GPVTG,81.31,T,,M,0.21,N,0.4,K,A*31
$GPGGA,190906.000,3749.8826,N,12215.3627,W,1,05,1.7,32.5,M,-25.0,M,,0000*5C
$GPGSA,A,3,04,09,02,12,17,,,,,,,,4.7,1.7,4.3*3A
$GPRMC,190906.000,A,3749.8826,N,12215.3627,W,0.38,9.46,131011,,,A*70
$GPVTG,9.46,T,,M,0.38,N,0.7,K,A*0A
$GPGGA,190907.000,3749.8827,N,12215.3627,W,1,05,1.7,33.0,M,-25.0,M,,0000*58
$GPGSA,A,3,04,09,02,12,17,,,,,,,,4.7,1.7,4.3*3A
$GPGSV,3,1,11,04,61,088,40,09,59,253,38,27,57,226,37,02,51,177,38*7F
$GPGSV,3,2,11,12,38,311,40,17,28,055,40,10,09,123,25,28,08,110,23*73
$GPGSV,3,3,11,25,08,302,23,14,02,320,,48,44,197,35*45
$GPRMC,190907.000,A,3749.8827,N,12215.3627,W,0.27,30.74,131011,,,A*45
$GPVTG,30.74,T,,M,0.27,N,0.5,K,A*3D
$GPGGA,190908.000,3749.8828,N,12215.3626,W,1,05,1.7,33.4,M,-25.0,M,,0000*5D
$GPGSA,A,3,04,09,02,12,17,,,,,,,,4.7,1.7,4.3*3A
$GPRMC,190908.000,A,3749.8828,N,12215.3626,W,0.07,60.72,131011,,,A*45
$GPVTG,60.72,T,,M,0.07,N,0.1,K,A*38
$GPGGA,190909.000,3749.8828,N,12215.3626,W,1,05,1.7,33.8,M,-25.0,M,,0000*50
$GPGSA,A,3,04,09,02,12,17,,,,,,,,4.7,1.7,4.3*3A
$GPRMC,190909.000,A,3749.8828,N,12215.3626,W,0.07,80.68,131011,,,A*41
$GPVTG,80.68,T,,M,0.07,N,0.1,K,A*3D
$GPGGA,190910.000,3749.8828,N,12215.3625,W,1,05,1.7,34.0,M,-25.0,M,,0000*54
$GPGSA,A,3,04,09,02,12,17,,,,,,,,4.7,1.7,4.3*3A
$GPRMC,190910.000,A,3749.8828,N,12215.3625,W,0.09,131.94,131011,,,A*7C
$GPVTG,131.94,T,,M,0.09,N,0.2,K,A*08
$GPGGA,190911.000,3749.8828,N,12215.3625,W,1,05,1.7,34.3,M,-25.0,M,,0000*56
$GPGSA,A,3,04,09,02,12,17,,,,,,,,4.7,1.7,4.3*3A
$GPRMC,190911.000,A,3749.8828,N,12215.3625,W,0.11,82.20,131011,,,A*42
$GPVTG,82.20,T,,M,0.11,N,0.2,K,A*37
$GPGGA,190912.000,3749.8828,N,12215.3625,W,1,05,1.7,34.5,M,-25.0,M,,0000*53
$GPGSA,A,3,04,09,02,12,17,,,,,,,,4.7,1.7,4.3*3A
$GPGSV,3,1,11,04,61,088,40,09,59,253,38,27,57,226,36,02,51,177,37*71
$GPGSV,3,2,11,12,38,311,40,17,28,055,40,10,09,123,23,28,08,110,*74
$GPGSV,3,3,11,25,08,302,22,14,02,320,,48,44,197,35*44
$GPVTG,29.83,T,,M,0.10,N,0.2,K,A*3E
$GPGGA,190913.000,3749.8828,N,12215.3625,W,1,05,1.7,34.6,M,-25.0,M,,0000*51
$GPGSA,A,3,04,09,02,12,17,,,,,,,,4.7,1.7,4.3*3A
$GPRMC,190913.000,A,3749.8828,N,12215.3625,W,0.11,28.08,131011,,,A*4A
$GPVTG,28.08,T,,M,0.11,N,0.2,K,A*3D
$GPGGA,190914.000,3749.8828,N,12215.3625,W,1,05,1.7,34.8,M,-25.0,M,,0000*58
$GPGSA,A,3,04,09,02,12,17,,,,,,,,4.7,1.7,4.3*3A
$GPRMC,190914.000,A,3749.8828,N,12215.3625,W,0.05,264.79,131011,,,A*74
$GPVTG,264.79,T,,M,0.05,N,0.1,K,A*07
$GPGGA,190915.000,3749.8828,N,12215.3624,W,1,05,1.7,35.0,M,-25.0,M,,0000*51
$GPGSA,A,3,04,09,02,12,17,,,,,,,,4.7,1.7,4.3*3A
$GPRMC,190915.000,A,3749.8828,N,12215.3624,W,0.73,90.08,131011,,,A*4A
$GPVTG,90.08,T,,M,0.73,N,1.3,K,A*3A
$GPGGA,190916.000,3749.8828,N,12215.3622,W,1,05,1.7,35.1,M,-25.0,M,,0000*55
$GPGSA,A,3,04,09,02,12,17,,,,,,,,4.7,1.7,4.3*3A
$GPRMC,190916.000,A,3749.8828,N,12215.3622,W,0.28,131.16,131011,,,A*74
$GPVTG,131.16,T,,M,0.28,N,0.5,K,A*06
$GPGGA,190917.000,3749.8827,N,12215.3622,W,1,05,1.7,34.9,M,-25.0,M,,0000*52
$GPGSA,A,3,04,09,02,12,17,,,,,,,,4.7,1.7,4.3*3A
$GPGSV,3,1,11,04,61,088,35,09,59,253,38,27,57,225,36,02,51,177,37*70
$GPGSV,3,2,11,12,38,311,34,17,28,055,35,10,09,123,25,28,08,110,*73
$GPGSV,3,3,11,25,08,302,23,14,02,320,,48,44,197,34*44
$GPRMC,190917.000,A,3749.8827,N,12215.3622,W,0.14,146.50,131011,,,A*77
$GPVTG,146.50,T,,M,0.14,N,0.3,K,A*0D
$GPGGA,190918.000,3749.8826,N,12215.3622,W,1,05,1.7,34.6,M,-25.0,M,,0000*53
$GPGSA,A,3,04,09,02,12,17,,,,,,,,4.7,1.7,4.3*3A
$GPRMC,190918.000,A,3749.8826,N,12215.3622,W,0.12,17.92,131011,,,A*44
$GPVTG,17.92,T,,M,0.12,N,0.2,K,A*31
$GPGGA,190919.000,3749.8826,N,12215.3623,W,1,05,1.7,34.2,M,-25.0,M,,0000*57
$GPGSA,A,3,04,09,02,12,17,,,,,,,,4.7,1.7,4.3*3A
$GPRMC,190919.000,A,3749.8826,N,12215.3623,W,0.18,113.47,131011,,,A*73
$GPVTG,113.47,T,,M,0.18,N,0.3,K,A*07
$GPGGA,190920.000,3749.8825,N,12215.3621,W,1,05,1.7,33.7,M,-25.0,M,,0000*5E
$GPGSA,A,3,04,09,02,12,17,,,,,,,,4.7,1.7,4.3*3A
$GPRMC,190920.000,A,3749.8825,N,12215.3621,W,1.08,91.64,131011,,,A*42
$GPVTG,91.64,T,,M,1.08,N,2.0,K,A*3C
$GPGGA,190921.000,3749.8825,N,12215.3619,W,1,05,1.7,33.5,M,-25.0,M,,0000*56
$GPGSA,A,3,04,09,02,12,17,,,,,,,,4.7,1.7,4.3*3A
$GPRMC,190921.000,A,3749.8825,N,12215.3619,W,0.67,71.25,131011,,,A*4B
$GPVTG,71.25,T,,M,0.67,N,1.2,K,A*3E
$GPGGA,190922.000,3749.8824,N,12215.3620,W,1,05,1.7,32.4,M,-25.0,M,,0000*5E
$GPGSA,A,3,04,09,02,12,17,,,,,,,,4.7,1.7,4.3*3A
$GPGSV,3,1,11,04,61,088,27,09,59,253,31,27,57,225,28,02,51,177,31*73
$GPGSV,3,2,11,12,38,311,34,17,28,055,31,10,09,123,15,28,08,110,*74
$GPGSV,3,3,11,25,08,302,15,14,02,320,,48,44,197,30*45
$GPRMC,190922.000,A,3749.8824,N,12215.3620,W,0.13,89.84,131011,,,A*4C
$GPVTG,89.84,T,,M,0.13,N,0.2,K,A*30
$GPGGA,190923.000,3749.8822,N,12215.3621,W,1,05,1.7,31.1,M,-25.0,M,,0000*5E
$GPGSA,A,3,04,09,02,12,17,,,,,,,,4.7,1.7,4.3*3A
$GPRMC,190923.000,A,3749.8822,N,12215.3621,W,0.11,149.93,131011,,,A*73
$GPVTG,149.93,T,,M,0.11,N,0.2,K,A*09
$GPGGA,190924.000,3749.8821,N,12215.3623,W,1,05,1.7,29.9,M,-25.0,M,,0000*59
$GPGSA,A,3,04,09,02,12,17,,,,,,,,4.7,1.7,4.3*3A
$GPRMC,190924.000,A,3749.8821,N,12215.3623,W,0.10,209.42,131011,,,A*7F
$GPVTG,209.42,T,,M,0.10,N,0.2,K,A*03
$GPGGA,190925.000,3749.8821,N,12215.3624,W,1,05,1.7,29.0,M,-25.0,M,,0000*56
$GPGSA,A,3,04,09,02,12,17,,,,,,,,4.7,1.7,4.3*3A
$GPRMC,190925.000,A,3749.8821,N,12215.3624,W,0.71,344.22,131011,,,A*70
$GPVTG,344.22,T,,M,0.71,N,1.3,K,A*0A
$GPGGA,190926.000,3749.8823,N,12215.3624,W,1,05,1.7,28.1,M,-25.0,M,,0000*57
$GPGSA,A,3,04,09,02,12,17,,,,,,,,4.7,1.7,4.3*3A
$GPRMC,190926.000,A,3749.8823,N,12215.3624,W,1.43,3.02,131011,,,A*73
$GPVTG,3.02,T,,M,1.43,N,2.7,K,A*0F
$GPGGA,190927.000,3749.8825,N,12215.3625,W,1,05,1.7,27.2,M,-25.0,M,,0000*5D
$GPGSA,A,3,04,09,02,12,17,,,,,,,,4.7,1.7,4.3*3A
$GPGSV,3,1,11,04,61,088,30,09,59,253,31,27,57,225,31,02,51,177,31*7D
$GPGSV,3,2,11,12,38,311,27,17,28,055,32,10,09,123,16,28,08,110,*76
$GPGSV,3,3,11,25,08,302,,14,02,320,,48,44,197,30*41
$GPRMC,190927.000,A,3749.8825,N,12215.3625,W,0.66,355.78,131011,,,A*7E
$GPGGA,190928.000,3749.8825,N,12215.3625,W,1,05,1.7,26.6,M,-25.0,M,,0000*57
$GPGSA,A,3,04,09,02,12,17,,,,,,,,4.7,1.7,4.3*3A
$GPRMC,190928.000,A,3749.8825,N,12215.3625,W,0.04,222.56,131011,,,A*78
$GPVTG,222.56,T,,M,0.04,N,0.1,K,A*09
$GPGGA,190929.000,3749.8823,N,12215.3624,W,1,05,1.7,26.1,M,-25.0,M,,0000*56
$GPGSA,A,3,04,09,02,12,17,,,,,,,,4.7,1.7,4.3*3A
$GPRMC,190929.000,A,3749.8823,N,12215.3624,W,0.12,167.47,131011,,,A*7B
$GPVTG,167.47,T,,M,0.12,N,0.2,K,A*0F
$GPGGA,190930.000,3749.8822,N,12215.3625,W,1,05,1.7,25.7,M,-25.0,M,,0000*5B
$GPGSA,A,3,04,09,02,12,17,,,,,,,,4.7,1.7,4.3*3A
$GPRMC,190930.000,A,3749.8822,N,12215.3625,W,0.77,297.96,131011,,,A*70
$GPVTG,297.96,T,,M,0.77,N,1.4,K,A*0B
$GPGGA,190931.000,3749.8822,N,12215.3626,W,1,05,1.7,25.4,M,-25.0,M,,0000*5A
$GPGSA,A,3,04,09,02,12,17,,,,,,,,4.7,1.7,4.3*3A
$GPRMC,190931.000,A,3749.8822,N,12215.3626,W,0.50,303.26,131011,,,A*70
$GPVTG,303.26,T,,M,0.50,N,0.9,K,A*05
$GPGGA,190932.000,3749.8822,N,12215.3626,W,1,05,1.7,25.1,M,-25.0,M,,0000*5C
$GPGSA,A,3,04,09,02,12,17,,,,,,,,4.7,1.7,4.3*3A
$GPGSV,3,1,11,04,61,088,32,09,59,253,22,27,57,225,32,02,51,177,31*7E
$GPGSV,3,2,11,12,38,311,36,17,28,055,26,10,09,123,,28,08,110,*74
$GPGSV,3,3,11,25,08,302,,14,02,320,,48,44,197,29*49
$GPRMC,190932.000,A,3749.8822,N,12215.3626,W,0.11,127.06,131011,,,A*70
$GPVTG,127.06,T,,M,0.11,N,0.2,K,A*0D
$GPGGA,190933.000,3749.8821,N,12215.3626,W,1,05,1.7,24.8,M,-25.0,M,,0000*56
$GPGSA,A,3,04,09,02,12,17,,,,,,,,4.7,1.7,4.3*3A
$GPRMC,190933.000,A,3749.8821,N,12215.3626,W,0.19,150.52,131011,,,A*7B
$GPVTG,150.52,T,,M,0.19,N,0.4,K,A*02
$GPGGA,190934.000,3749.8820,N,12215.3626,W,1,05,1.7,24.8,M,-25.0,M,,0000*50
$GPGSA,A,3,04,09,02,12,17,,,,,,,,4.7,1.7,4.3*3A
$GPRMC,190934.000,A,3749.8820,N,12215.3626,W,0.17,189.40,131011,,,A*74
$GPVTG,189.40,T,,M,0.17,N,0.3,K,A*0C
$GPGGA,190935.000,3749.8819,N,12215.3625,W,1,05,1.7,25.3,M,-25.0,M,,0000*52
$GPGSA,A,3,04,09,02,12,17,,,,,,,,4.7,1.7,4.3*3A
$GPRMC,190935.000,A,3749.8819,N,12215.3625,W,1.01,138.73,131011,,,A*70
$GPVTG,138.73,T,,M,1.01,N,1.9,K,A*0B
$GPGGA,190936.000,3749.8820,N,12215.3623,W,1,05,1.7,25.1,M,-25.0,M,,0000*5F
$GPGSA,A,3,04,09,02,12,17,,,,,,,,4.7,1.7,4.3*3A
$GPRMC,190936.000,A,3749.8820,N,12215.3623,W,0.39,4.87,131011,,,A*70
$GPVTG,4.87,T,,M,0.39,N,0.7,K,A*0B
$GPGGA,190937.000,3749.8822,N,12215.3622,W,1,05,1.7,24.8,M,-25.0,M,,0000*55
$GPGSA,A,3,04,09,02,12,17,,,,,,,,4.7,1.7,4.3*3A
$GPGSV,3,1,11,04,61,088,36,09,59,253,36,27,57,225,33,02,51,177,33*7C
$GPGSV,3,2,11,12,38,311,28,17,28,055,36,10,09,123,,28,08,110,*7A
$GPGSV,3,3,11,25,08,302,,14,02,320,,48,44,197,32*43
$GPRMC,190937.000,A,3749.8822,N,12215.3622,W,0.90,32.72,131011,,,A*4E
$GPVTG,32.72,T,,M,0.90,N,1.7,K,A*36
$GPGGA,190938.000,3749.8825,N,12215.3619,W,1,05,1.7,24.5,M,-25.0,M,,0000*58
$GPGSA,A,3,04,09,02,12,17,,,,,,,,4.7,1.7,4.3*3A
$GPRMC,190938.000,A,3749.8825,N,12215.3619,W,1.35,48.93,131011,,,A*42
$GPVTG,48.93,T,,M,1.35,N,2.5,K,A*3B
$GPGGA,190939.000,3749.8827,N,12215.3617,W,1,05,1.7,24.2,M,-25.0,M,,0000*52
$GPGSA,A,3,04,09,02,12,17,,,,,,,,4.7,1.7,4.3*3A
$GPRMC,190939.000,A,3749.8827,N,12215.3617,W,0.58,127.23,131011,,,A*76
$GPVTG,127.23,T,,M,0.58,N,1.1,K,A*05
$GPGGA,190940.000,3749.8827,N,12215.3617,W,1,05,1.7,23.9,M,-25.0,M,,0000*50
$GPGSA,A,3,04,09,02,12,17,,,,,,,,4.7,1.7,4.3*3A
$GPRMC,190940.000,A,3749.8827,N,12215.3617,W,0.44,199.47,131011,,,A*72
$GPVTG,199.47,T,,M,0.44,N,0.8,K,A*07
$GPGGA,190941.000,3749.8828,N,12215.3619,W,1,05,1.7,23.7,M,-25.0,M,,0000*5E
$GPGSA,A,3,04,09,02,12,17,,,,,,,,4.7,1.7,4.3*3A
$GPRMC,190941.000,A,3749.8828,N,12215.3619,W,0.24,251.93,131011,,,A*7A
$GPVTG,251.93,T,,M,0.24,N,0.4,K,A*03
$GPGGA,190942.000,3749.8828,N,12215.3620,W,1,05,1.7,22.9,M,-25.0,M,,0000*58
$GPGSA,A,3,04,09,02,12,17,,,,,,,,4.7,1.7,4.3*3A
$GPGSV,3,1,11,04,61,088,38,09,59,253,28,27,57,225,33,02,51,177,30*7E
$GPGSV,3,2,11,12,38,311,33,17,28,055,34,10,09,123,,28,08,110,*72
$GPGSV,3,3,11,25,08,302,,14,02,320,,48,44,197,26*46
$GPRMC,190942.000,A,3749.8828,N,12215.3620,W,0.44,57.15,131011,,,A*4F
$GPVTG,57.15,T,,M,0.44,N,0.8,K,A*33
$GPGGA,190943.000,3749.8830,N,12215.3620,W,1,05,1.7,23.5,M,-25.0,M,,0000*5D
$GPGSA,A,3,04,09,02,12,17,,,,,,,,4.7,1.7,4.3*3A
$GPRMC,190943.000,A,3749.8830,N,12215.3620,W,0.77,189.89,131011,,,A*70
$GPVTG,189.89,T,,M,0.77,N,1.4,K,A*09
$GPGGA,190944.000,3749.8835,N,12215.3619,W,1,05,1.7,24.9,M,-25.0,M,,0000*5E
$GPGSA,A,3,04,09,02,12,17,,,,,,,,4.7,1.7,4.3*3A
$GPRMC,190944.000,A,3749.8835,N,12215.3619,W,0.73,55.84,131011,,,A*41
$GPVTG,55.84,T,,M,0.73,N,1.3,K,A*37
$GPGGA,190945.000,3749.8835,N,12215.3618,W,1,05,1.7,25.0,M,-25.0,M,,0000*56
$GPGSA,A,3,04,09,02,12,17,,,,,,,,4.7,1.7,4.3*3A
$GPRMC,190945.000,A,3749.8835,N,12215.3618,W,0.06,60.77,131011,,,A*49
$GPVTG,60.77,T,,M,0.06,N,0.1,K,A*3C
$GPGGA,190946.000,3749.8838,N,12215.3618,W,1,05,1.7,26.0,M,-25.0,M,,0000*5B
$GPGSA,A,3,04,09,02,12,17,,,,,,,,4.7,1.7,4.3*3A
$GPRMC,190946.000,A,3749.8838,N,12215.3618,W,0.07,55.96,131011,,,A*4F
$GPVTG,55.96,T,,M,0.07,N,0.1,K,A*34
$GPGGA,190947.000,3749.8840,N,12215.3617,W,1,05,1.7,26.8,M,-25.0,M,,0000*52
$GPGSA,A,3,04,09,02,12,17,,,,,,,,4.7,1.7,4.3*3A
$GPGSV,3,1,10,04,61,088,33,09,59,253,30,27,57,225,27,02,51,177,25*7C
$GPGSV,3,2,10,12,38,311,34,17,28,055,25,10,09,123,,28,08,110,*74
$GPGSV,3,3,10,25,08,302,,14,02,320,*70
$GPRMC,190947.000,A,3749.8840,N,12215.3617,W,0.02,11.76,131011,,,A*45
$GPVTG,11.76,T,,M,0.02,N,0.0,K,A*3E
$GPGGA,190948.000,3749.8842,N,12215.3617,W,1,05,1.7,27.3,M,-25.0,M,,0000*55
$GPGSA,A,3,04,09,02,12,17,,,,,,,,4.7,1.7,4.3*3A
$GPRMC,190948.000,A,3749.8842,N,12215.3617,W,0.07,62.55,131011,,,A*48
$GPVTG,62.55,T,,M,0.07,N,0.1,K,A*3F
$GPGGA,190949.000,3749.8843,N,12215.3616,W,1,05,1.7,27.7,M,-25.0,M,,0000*50
$GPGSA,A,3,04,09,02,12,17,,,,,,,,4.7,1.7,4.3*3A
$GPRMC,190949.000,A,3749.8843,N,12215.3616,W,0.18,52.41,131011,,,A*41
$GPVTG,52.41,T,,M,0.18,N,0.3,K,A*35
$GPGGA,190950.000,3749.8844,N,12215.3615,W,1,05,1.7,28.1,M,-25.0,M,,0000*55
$GPGSA,A,3,04,09,02,12,17,,,,,,,,4.7,1.7,4.3*3A
$GPRMC,190950.000,A,3749.8844,N,12215.3615,W,0.20,54.49,131011,,,A*48
$GPVTG,54.49,T,,M,0.20,N,0.4,K,A*37
$GPGGA,190951.000,3749.8845,N,12215.3614,W,1,04,2.1,28.6,M,-25.0,M,,0000*57
$GPGSA,A,3,04,09,02,12,,,,,,,,,7.1,2.1,6.8*35
$GPRMC,190951.000,A,3749.8845,N,12215.3614,W,0.17,88.11,131011,,,A*41
$GPVTG,88.11,T,,M,0.17,N,0.3,K,A*38
$GPGGA,190952.000,3749.8846,N,12215.3615,W,1,04,2.1,29.4,M,-25.0,M,,0000*55
$GPGSA,A,3,04,09,02,12,,,,,,,,,7.1,2.1,6.8*35
$GPGSV,3,1,10,04,61,088,33,09,59,253,31,27,57,225,17,02,51,177,29*72
$GPGSV,3,2,10,12,38,311,34,17,28,055,,10,09,123,,28,08,110,*73
$GPGSV,3,3,10,25,08,302,,14,02,320,*70
$GPVTG,205.91,T,,M,0.46,N,0.9,K,A*09
$GPGGA,190953.000,3749.8843,N,12215.3615,W,1,04,2.1,29.0,M,-25.0,M,,0000*55
$GPGSA,A,3,04,09,02,12,,,,,,,,,7.1,2.1,6.8*35
$GPRMC,190953.000,A,3749.8843,N,12215.3615,W,0.54,193.88,131011,,,A*78
$GPVTG,193.88,T,,M,0.54,N,1.0,K,A*06
$GPGGA,190954.000,3749.8841,N,12215.3615,W,1,05,1.7,29.0,M,-25.0,M,,0000*54
$GPGSA,A,3,04,09,02,12,17,,,,,,,,4.7,1.7,4.3*3A
$GPRMC,190954.000,A,3749.8841,N,12215.3615,W,0.25,201.16,131011,,,A*74
$GPVTG,201.16,T,,M,0.25,N,0.5,K,A*0B
$GPGGA,190955.000,3749.8840,N,12215.3615,W,1,05,1.7,29.1,M,-25.0,M,,0000*55
$GPGSA,A,3,04,09,02,12,17,,,,,,,,4.7,1.7,4.3*3A
$GPRMC,190955.000,A,3749.8840,N,12215.3615,W,0.24,215.49,131011,,,A*7A
$GPVTG,215.49,T,,M,0.24,N,0.5,K,A*05
$GPGGA,190956.000,3749.8840,N,12215.3615,W,1,05,1.7,29.4,M,-25.0,M,,0000*53
$GPGSA,A,3,04,09,02,12,17,,,,,,,,4.7,1.7,4.3*3A
$GPRMC,190956.000,A,3749.8840,N,12215.3615,W,0.04,106.75,131011,,,A*75
$GPVTG,106.75,T,,M,0.04,N,0.1,K,A*0D
$GPGGA,190957.000,3749.8841,N,12215.3614,W,1,05,1.7,29.6,M,-25.0,M,,0000*50
$GPGSA,A,3,04,09,02,12,17,,,,,,,,4.7,1.7,4.3*3A
$GPGSV,3,1,10,04,61,088,34,09,59,253,31,27,57,225,22,02,51,177,28*72
$GPGSV,3,2,10,12,38,311,34,17,28,055,25,10,09,123,,28,08,110,*74
$GPGSV,3,3,10,25,08,302,,14,02,320,*70
$GPRMC,190957.000,A,3749.8841,N,12215.3614,W,0.32,57.81,131011,,,A*4F
$GPVTG,57.81,T,,M,0.32,N,0.6,K,A*31
$GPGGA,190958.000,3749.8841,N,12215.3613,W,1,05,1.7,29.7,M,-25.0,M,,0000*59
$GPGSA,A,3,04,09,02,12,17,,,,,,,,4.7,1.7,4.3*3A
$GPRMC,190958.000,A,3749.8841,N,12215.3613,W,0.24,52.37,131011,,,A*48
$GPVTG,52.37,T,,M,0.24,N,0.4,K,A*3C
$GPGGA,190959.000,3749.8839,N,12215.3615,W,1,05,1.7,30.8,M,-25.0,M,,0000*56
$GPGSA,A,3,04,09,02,12,17,,,,,,,,4.7,1.7,4.3*3A
$GPRMC,190959.000,A,3749.8839,N,12215.3615,W,0.33,221.86,131011,,,A*7A
$GPVTG,221.86,T,,M,0.33,N,0.6,K,A*04
$GPGGA,191000.000,3749.8833,N,12215.3613,W,1,05,1.7,28.1,M,-25.0,M,,0000*5E
$GPGSA,A,3,04,09,02,12,17,,,,,,,,4.7,1.7,4.3*3A
$GPRMC,191000.000,A,3749.8833,N,12215.3613,W,0.50,202.70,131011,,,A*7F
$GPVTG,202.70,T,,M,0.50,N,0.9,K,A*06
$GPGGA,191001.000,3749.8833,N,12215.3611,W,1,05,1.7,27.0,M,-25.0,M,,0000*53
$GPGSA,A,3,04,09,02,12,17,,,,,,,,4.7,1.7,4.4*3D
$GPRMC,191001.000,A,3749.8833,N,12215.3611,W,0.20,274.46,131011,,,A*7F
$GPVTG,274.46,T,,M,0.20,N,0.4,K,A*08
$GPGGA,191002.000,3749.8833,N,12215.3617,W,1,05,1.7,26.5,M,-25.0,M,,0000*52
$GPGSA,A,3,04,09,02,12,17,,,,,,,,4.7,1.7,4.4*3D
$GPGSV,3,1,10,04,61,088,27,09,59,253,34,27,57,225,32,02,51,177,27*7B
$GPGSV,3,2,10,12,38,311,27,17,28,055,24,10,09,123,,28,08,110,*77
$GPGSV,3,3,10,25,08,302,,14,02,320,*70
$GPRMC,191002.000,A,3749.8833,N,12215.3617,W,0.57,232.29,131011,,,A*71
$GPVTG,232.29,T,,M,0.57,N,1.1,K,A*07
$GPGGA,191003.000,3749.8834,N,12215.3620,W,1,05,1.7,27.0,M,-25.0,M,,0000*54
$GPGSA,A,3,04,09,02,12,17,,,,,,,,4.7,1.7,4.4*3D
$GPRMC,191003.000,A,3749.8834,N,12215.3620,W,0.16,222.91,131011,,,A*74
$GPVTG,222.91,T,,M,0.16,N,0.3,K,A*03
$GPGGA,191004.000,3749.8837,N,12215.3621,W,1,05,1.7,27.3,M,-25.0,M,,0000*52
$GPGSA,A,3,04,09,02,12,17,,,,,,,,4.7,1.7,4.4*3D
$GPRMC,191004.000,A,3749.8837,N,12215.3621,W,0.37,316.82,131011,,,A*76
$GPVTG,316.82,T,,M,0.37,N,0.7,K,A*00
$GPGGA,191005.000,3749.8838,N,12215.3621,W,1,05,1.7,27.2,M,-25.0,M,,0000*5D
$GPGSA,A,3,04,09,02,12,17,,,,,,,,4.7,1.7,4.4*3D
$GPRMC,191005.000,A,3749.8838,N,12215.3621,W,0.68,340.95,131011,,,A*77
$GPVTG,340.95,T,,M,0.68,N,1.3,K,A*0A
$GPGGA,191006.000,3749.8836,N,12215.3627,W,1,05,1.7,30.1,M,-25.0,M,,0000*53
$GPGSA,A,3,04,09,02,12,17,,,,,,,,4.7,1.7,4.4*3D
$GPRMC,191006.000,A,3749.8836,N,12215.3627,W,0.87,335.05,131011,,,A*76
$GPVTG,335.05,T,,M,0.87,N,1.6,K,A*05
$GPGGA,191007.000,3749.8835,N,12215.3631,W,1,05,1.7,30.8,M,-25.0,M,,0000*5F
$GPGSA,A,3,04,09,02,12,17,,,,,,,,4.7,1.7,4.4*3D
$GPGSV,3,1,11,04,61,088,26,09,59,253,34,27,57,225,28,02,51,177,34*72
$GPGSV,3,2,11,12,38,311,33,17,28,055,27,10,09,123,,28,08,110,*70
$GPGSV,3,3,11,25,08,302,,14,02,320,,48,44,197,28*48
$GPRMC,191007.000,A,3749.8835,N,12215.3631,W,0.44,290.15,131011,,,A*73
$GPGGA,191008.000,3749.8836,N,12215.3631,W,1,05,1.7,31.1,M,-25.0,M,,0000*5B
$GPGSA,A,3,04,09,02,12,17,,,,,,,,4.7,1.7,4.4*3D
$GPRMC,191008.000,A,3749.8836,N,12215.3631,W,0.39,309.92,131011,,,A*7B
$GPVTG,309.92,T,,M,0.39,N,0.7,K,A*01
$GPGGA,191009.000,3749.8833,N,12215.3632,W,1,05,1.7,30.6,M,-25.0,M,,0000*5A
$GPGSA,A,3,04,09,02,12,17,,,,,,,,4.7,1.7,4.4*3D
$GPRMC,191009.000,A,3749.8833,N,12215.3632,W,0.84,194.38,131011,,,A*7C
$GPVTG,194.38,T,,M,0.84,N,1.6,K,A*01
$GPGGA,191010.000,3749.8830,N,12215.3633,W,1,05,1.7,30.2,M,-25.0,M,,0000*54
$GPGSA,A,3,04,09,02,12,17,,,,,,,,4.7,1.7,4.4*3D
$GPRMC,191010.000,A,3749.8830,N,12215.3633,W,0.46,217.38,131011,,,A*70
$GPVTG,217.38,T,,M,0.46,N,0.8,K,A*08
$GPGGA,191011.000,3749.8828,N,12215.3634,W,1,05,1.7,30.0,M,-25.0,M,,0000*59
$GPGSA,A,3,04,09,02,12,17,,,,,,,,4.7,1.7,4.4*3D
$GPRMC,191011.000,A,3749.8828,N,12215.3634,W,0.58,225.11,131011,,,A*7A
$GPVTG,225.11,T,,M,0.58,N,1.1,K,A*05
$GPGGA,191012.000,3749.8823,N,12215.3640,W,1,05,1.7,30.0,M,-25.0,M,,0000*52
$GPGSA,A,3,04,09,02,12,17,,,,,,,,4.7,1.7,4.4*3D
$GPGSV,3,1,11,04,61,088,25,09,59,253,34,27,57,225,32,02,51,177,33*7D
$GPGSV,3,2,11,12,38,311,37,17,28,055,26,10,09,123,,28,08,110,19*7D
$GPGSV,3,3,11,25,08,302,22,14,02,320,,48,44,197,31*40
$GPRMC,191012.000,A,3749.8823,N,12215.3640,W,0.46,193.47,131011,,,A*73
$GPVTG,193.47,T,,M,0.46,N,0.9,K,A*0E
$GPGGA,191013.000,3749.8819,N,12215.3641,W,1,05,1.7,28.4,M,-25.0,M,,0000*56
$GPGSA,A,3,04,09,02,12,17,,,,,,,,4.7,1.7,4.4*3D
$GPRMC,191013.000,A,3749.8819,N,12215.3641,W,0.76,100.61,131011,,,A*77
$GPVTG,100.61,T,,M,0.76,N,1.4,K,A*0F
$GPGGA,191014.000,3749.8815,N,12215.3641,W,1,05,1.7,27.5,M,-25.0,M,,0000*53
$GPGSA,A,3,04,09,02,12,17,,,,,,,,4.7,1.7,4.4*3D
$GPRMC,191014.000,A,3749.8815,N,12215.3641,W,0.56,66.89,131011,,,A*49
$GPVTG,66.89,T,,M,0.56,N,1.0,K,A*3E
$GPGGA,191015.000,3749.8811,N,12215.3640,W,1,05,1.7,26.6,M,-25.0,M,,0000*55
$GPGSA,A,3,04,09,02,12,17,,,,,,,,4.7,1.7,4.4*3D
$GPRMC,191015.000,A,3749.8811,N,12215.3640,W,0.48,167.26,131011,,,A*77
$GPVTG,167.26,T,,M,0.48,N,0.9,K,A*0C
$GPGGA,191016.000,3749.8813,N,12215.3639,W,1,05,1.7,26.8,M,-25.0,M,,0000*54
$GPGSA,A,3,04,09,02,12,17,,,,,,,,4.7,1.7,4.4*3D
$GPRMC,191016.000,A,3749.8813,N,12215.3639,W,1.05,167.70,131011,,,A*73
$GPVTG,167.70,T,,M,1.05,N,1.9,K,A*06
$GPGGA,191017.000,3749.8813,N,12215.3633,W,1,05,1.7,27.9,M,-25.0,M,,0000*5F
$GPGSA,A,3,04,09,02,12,17,,,,,,,,4.7,1.7,4.4*3D
$GPGSV,3,1,11,04,61,088,35,09,59,253,27,27,57,225,25,02,51,177,27*7D
$GPGSV,3,2,11,12,38,311,27,17,28,055,36,10,09,123,23,28,08,110,18*7D
$GPGSV,3,3,11,25,08,302,19,14,02,320,,48,44,197,25*4D
$GPRMC,191017.000,A,3749.8813,N,12215.3633,W,0.19,102.56,131011,,,A*73
$GPVTG,102.56,T,,M,0.19,N,0.4,K,A*01
$GPGGA,191018.000,3749.8816,N,12215.3636,W,1,05,1.7,27.8,M,-25.0,M,,0000*51
$GPGSA,A,3,04,09,02,12,17,,,,,,,,4.7,1.7,4.4*3D
$GPRMC,191018.000,A,3749.8816,N,12215.3636,W,1.18,303.15,131011,,,A*78
$GPVTG,303.15,T,,M,1.18,N,2.2,K,A*01
$GPGGA,191019.000,3749.8819,N,12215.3639,W,1,05,1.7,28.3,M,-25.0,M,,0000*54
$GPGSA,A,3,04,09,02,12,17,,,,,,,,4.7,1.7,4.4*3D
$GPRMC,191019.000,A,3749.8819,N,12215.3639,W,0.46,190.77,131011,,,A*7F
$GPVTG,190.77,T,,M,0.46,N,0.9,K,A*0E
$GPGGA,191020.000,3749.8825,N,12215.3637,W,1,05,1.7,29.9,M,-25.0,M,,0000*54
$GPGSA,A,3,04,09,02,12,17,,,,,,,,4.7,1.7,4.4*3D
$GPRMC,191020.000,A,3749.8825,N,12215.3637,W,0.18,181.25,131011,,,A*78
$GPVTG,181.25,T,,M,0.18,N,0.3,K,A*08
$GPGGA,191021.000,3749.8831,N,12215.3633,W,1,05,1.7,32.8,M,-25.0,M,,0000*5F
$GPGSA,A,3,04,09,02,12,17,,,,,,,,4.7,1.7,4.4*3D
$GPRMC,191021.000,A,3749.8831,N,12215.3633,W,0.05,104.48,131011,,,A*72
$GPVTG,104.48,T,,M,0.05,N,0.1,K,A*00
$GPGGA,191022.000,3749.8834,N,12215.3631,W,1,04,1.8,36.0,M,-25.0,M,,0000*59
$GPGSA,A,3,04,02,12,17,,,,,,,,,5.0,1.8,4.6*3F
$GPGSV,3,1,11,04,61,088,23,09,59,253,23,27,57,225,28,02,51,177,25*71
$GPGSV,3,2,11,12,38,311,36,17,28,055,31,10,09,123,18,28,08,110,17*7D
$GPGSV,3,3,11,25,08,302,19,14,02,320,,48,44,197,27*4F
$GPRMC,191022.000,A,3749.8834,N,12215.3631,W,0.12,327.13,131011,,,A*7D
$GPVTG,327.13,T,,M,0.12,N,0.2,K,A*08
$GPGGA,191023.000,3749.8838,N,12215.3629,W,1,05,1.7,39.2,M,-25.0,M,,0000*5E
$GPGSA,A,3,04,09,02,12,17,,,,,,,,4.7,1.7,4.4*3D
$GPRMC,191023.000,A,3749.8838,N,12215.3629,W,0.20,127.27,131011,,,A*7D
$GPVTG,127.27,T,,M,0.20,N,0.4,K,A*0A
$GPGGA,191024.000,3749.8836,N,12215.3628,W,1,05,1.7,37.0,M,-25.0,M,,0000*5A
$GPGSA,A,3,04,09,02,12,17,,,,,,,,4.7,1.7,4.4*3D
$GPRMC,191024.000,A,3749.8836,N,12215.3628,W,0.18,86.35,131011,,,A*47
$GPVTG,86.35,T,,M,0.18,N,0.3,K,A*3F
$GPGGA,191025.000,3749.8839,N,12215.3626,W,1,05,1.7,35.9,M,-25.0,M,,0000*51
$GPGSA,A,3,04,09,02,12,17,,,,,,,,4.7,1.7,4.4*3D
$GPRMC,191025.000,A,3749.8839,N,12215.3626,W,0.28,80.49,131011,,,A*49
$GPVTG,80.49,T,,M,0.28,N,0.5,K,A*37
$GPGGA,191026.000,3749.8836,N,12215.3625,W,1,05,1.7,34.2,M,-25.0,M,,0000*54
$GPGSA,A,3,04,09,02,12,17,,,,,,,,4.7,1.7,4.4*3D
$GPRMC,191026.000,A,3749.8836,N,12215.3625,W,0.11,27.82,131011,,,A*46
$GPVTG,27.82,T,,M,0.11,N,0.2,K,A*30
$GPGGA,191027.000,3749.8843,N,12215.3622,W,1,05,1.7,35.7,M,-25.0,M,,0000*54
$GPGSA,A,3,04,09,02,12,17,,,,,,,,4.7,1.7,4.4*3D
$GPGSV,3,1,11,04,61,088,24,09,59,253,25,27,57,225,24,02,51,177,24*7D
$GPGSV,3,2,11,12,38,311,36,17,28,055,34,10,09,123,17,28,08,110,16*76
$GPGSV,3,3,11,25,08,302,18,14,02,320,,48,44,197,26*4F
$GPRMC,191027.000,A,3749.8843,N,12215.3622,W,0.13,82.14,131011,,,A*40
$GPVTG,82.14,T,,M,0.13,N,0.2,K,A*32
$GPGGA,191028.000,3749.8843,N,12215.3624,W,1,05,1.7,35.2,M,-25.0,M,,0000*58
$GPGSA,A,3,04,09,02,12,17,,,,,,,,4.7,1.7,4.4*3D
$GPRMC,191028.000,A,3749.8843,N,12215.3624,W,0.08,40.47,131011,,,A*4B
$GPVTG,40.47,T,,M,0.08,N,0.2,K,A*30
$GPGGA,191029.000,3749.8839,N,12215.3624,W,1,05,1.7,33.1,M,-25.0,M,,0000*51
$GPGSA,A,3,04,09,02,12,17,,,,,,,,4.7,1.7,4.4*3D
$GPRMC,191029.000,A,3749.8839,N,12215.3624,W,0.36,36.59,131011,,,A*44
$GPVTG,36.59,T,,M,0.36,N,0.7,K,A*36
$GPGGA,191030.000,3749.8839,N,12215.3621,W,1,05,1.7,31.8,M,-25.0,M,,0000*57
$GPGSA,A,3,04,09,02,12,17,,,,,,,,4.7,1.7,4.4*3D
$GPRMC,191030.000,A,3749.8839,N,12215.3621,W,0.46,95.40,131011,,,A*4F
$GPVTG,95.40,T,,M,0.46,N,0.9,K,A*3E
$GPGGA,191031.000,3749.8842,N,12215.3617,W,1,05,1.7,32.5,M,-25.0,M,,0000*51
$GPGSA,A,3,04,09,02,12,17,,,,,,,,4.7,1.7,4.4*3D
$GPRMC,191031.000,A,3749.8842,N,12215.3617,W,0.53,10.92,131011,,,A*41
$GPVTG,10.92,T,,M,0.53,N,1.0,K,A*30
$GPGGA,191032.000,3749.8843,N,12215.3617,W,1,05,1.7,32.7,M,-25.0,M,,0000*51
$GPGSA,A,3,04,09,02,12,17,,,,,,,,4.7,1.7,4.4*3D
$GPGSV,3,1,11,04,61,088,29,09,59,253,25,27,57,225,20,02,51,177,24*74
$GPGSV,3,2,11,12,38,311,34,17,28,055,32,10,09,123,17,28,08,110,*75
$GPGSV,3,3,11,25,08,302,17,14,02,320,,48,44,197,24*42
$GPRMC,191032.000,A,3749.8843,N,12215.3617,W,0.39,343.98,131011,,,A*70
$GPVTG,343.98,T,,M,0.39,N,0.7,K,A*05
$GPGGA,191033.000,3749.8845,N,12215.3619,W,1,05,1.7,33.0,M,-25.0,M,,0000*5E
$GPGSA,A,3,04,09,02,12,17,,,,,,,,4.7,1.7,4.4*3D
$GPRMC,191033.000,A,3749.8845,N,12215.3619,W,0.31,285.81,131011,,,A*72
$GPVTG,285.81,T,,M,0.31,N,0.6,K,A*0F
$GPGGA,191034.000,3749.8850,N,12215.3621,W,1,05,1.7,34.1,M,-25.0,M,,0000*50
$GPGSA,A,3,04,09,02,12,17,,,,,,,,4.7,1.7,4.4*3D
$GPRMC,191034.000,A,3749.8850,N,12215.3621,W,0.03,66.09,131011,,,A*44
$GPVTG,66.09,T,,M,0.03,N,0.1,K,A*36
$GPGGA,191035.000,3749.8853,N,12215.3615,W,1,05,1.7,38.1,M,-25.0,M,,0000*59
$GPGSA,A,3,04,09,02,12,17,,,,,,,,4.7,1.7,4.4*3D
$GPRMC,191035.000,A,3749.8853,N,12215.3615,W,0.51,113.29,131011,,,A*77
$GPVTG,113.29,T,,M,0.51,N,0.9,K,A*08
$GPGGA,191036.000,3749.8862,N,12215.3610,W,1,05,1.7,42.4,M,-25.0,M,,0000*55
$GPGSA,A,3,04,09,02,12,17,,,,,,,,4.7,1.7,4.4*3D
$GPRMC,191036.000,A,3749.8862,N,12215.3610,W,0.57,74.15,131011,,,A*4A
$GPVTG,74.15,T,,M,0.57,N,1.1,K,A*38
$GPGGA,191037.000,3749.8857,N,12215.3611,W,1,05,1.7,40.8,M,-25.0,M,,0000*5D
$GPGSA,A,3,04,09,02,12,17,,,,,,,,4.7,1.7,4.4*3D
$GPGSV,3,1,10,04,61,088,22,09,59,253,34,27,57,225,26,02,51,177,24*78
$GPGSV,3,2,10,12,38,311,35,17,28,055,27,10,09,123,16,28,08,110,*70
$GPGSV,3,3,10,25,08,302,15,14,02,320,*74
$GPRMC,191037.000,A,3749.8857,N,12215.3611,W,0.57,51.06,131011,,,A*49
$GPVTG,51.06,T,,M,0.57,N,1.1,K,A*3D
$GPGGA,191038.000,3749.8859,N,12215.3612,W,1,05,1.8,40.4,M,-25.0,M,,0000*5C
$GPGSA,A,3,04,09,02,12,17,,,,,,,,4.7,1.8,4.4*32
$GPRMC,191038.000,A,3749.8859,N,12215.3612,W,0.57,339.07,131011,,,A*77
$GPVTG,339.07,T,,M,0.57,N,1.0,K,A*00
$GPGGA,191039.000,3749.8863,N,12215.3609,W,1,05,1.8,42.7,M,-25.0,M,,0000*5F
$GPGSA,A,3,04,09,02,12,17,,,,,,,,4.7,1.8,4.4*32
$GPRMC,191039.000,A,3749.8863,N,12215.3609,W,0.28,344.25,131011,,,A*77
$GPVTG,344.25,T,,M,0.28,N,0.5,K,A*06
$GPGGA,191040.000,3749.8865,N,12215.3607,W,1,05,1.8,44.1,M,-25.0,M,,0000*59
$GPGSA,A,3,04,09,02,12,17,,,,,,,,4.7,1.8,4.4*32
$GPRMC,191040.000,A,3749.8865,N,12215.3607,W,0.16,324.61,131011,,,A*7A
$GPVTG,324.61,T,,M,0.16,N,0.3,K,A*0B
$GPGGA,191041.000,3749.8866,N,12215.3603,W,1,05,1.8,45.9,M,-25.0,M,,0000*56
$GPGSA,A,3,04,09,02,12,17,,,,,,,,4.7,1.8,4.4*32
$GPRMC,191041.000,A,3749.8866,N,12215.3603,W,0.57,55.42,131011,,,A*4D
$GPVTG,55.42,T,,M,0.57,N,1.0,K,A*38
$GPGGA,191042.000,3749.8865,N,12215.3604,W,1,05,1.8,47.4,M,-25.0,M,,0000*5E
$GPGSA,A,3,04,09,02,12,17,,,,,,,,4.7,1.8,4.4*32
$GPGSV,3,1,10,04,61,088,22,09,59,253,34,27,57,225,33,02,51,177,29*71
$GPGSV,3,2,10,12,38,311,31,17,28,055,24,10,09,123,17,28,08,110,*76
$GPGSV,3,3,10,25,08,302,,14,02,320,*70
$GPRMC,191042.000,A,3749.8865,N,12215.3604,W,0.32,275.38,131011,,,A*74
$GPVTG,275.38,T,,M,0.32,N,0.6,K,A*01
$GPGGA,191043.000,3749.8861,N,12215.3611,W,1,05,1.8,46.5,M,-25.0,M,,0000*5F
$GPGSA,A,3,04,09,02,12,17,,,,,,,,4.7,1.8,4.4*32
$GPRMC,191043.000,A,3749.8861,N,12215.3611,W,0.23,272.30,131011,,,A*7A
$GPVTG,272.30,T,,M,0.23,N,0.4,K,A*0C
$GPGGA,191044.000,3749.8858,N,12215.3615,W,1,05,1.8,45.9,M,-25.0,M,,0000*59
$GPGSA,A,3,04,09,02,12,17,,,,,,,,4.7,1.8,4.4*32
$GPRMC,191044.000,A,3749.8858,N,12215.3615,W,0.22,45.58,131011,,,A*4A
$GPVTG,45.58,T,,M,0.22,N,0.4,K,A*35
$GPGGA,191045.000,3749.8853,N,12215.3620,W,1,05,1.8,43.0,M,-25.0,M,,0000*5A
$GPGSA,A,3,04,09,02,12,17,,,,,,,,4.7,1.8,4.4*32
$GPRMC,191045.000,A,3749.8853,N,12215.3620,W,0.35,31.67,131011,,,A*4F
$GPVTG,31.67,T,,M,0.35,N,0.6,K,A*3E
$GPGGA,191046.000,3749.8854,N,12215.3617,W,1,05,1.8,41.4,M,-25.0,M,,0000*5C
$GPGSA,A,3,04,09,02,12,17,,,,,,,,4.7,1.8,4.4*32
$GPRMC,191046.000,A,3749.8854,N,12215.3617,W,0.51,37.03,131011,,,A*49
$GPVTG,37.03,T,,M,0.51,N,0.9,K,A*37
$GPGGA,191047.000,3749.8856,N,12215.3618,W,1,05,1.8,40.9,M,-25.0,M,,0000*5C
$GPGSA,A,3,04,09,02,12,17,,,,,,,,4.7,1.8,4.4*32
$GPGSV,3,1,11,04,60,086,22,09,59,252,24,27,56,224,25,02,52,177,24*76
$GPGSV,3,2,11,12,39,312,33,17,28,055,27,10,09,122,22,25,08,302,*7F
$GPGSV,3,3,11,28,08,111,,14,02,320,,48,44,197,23*4E
$GPRMC,191047.000,A,3749.8856,N,12215.3618,W,0.59,26.27,131011,,,A*4B
$GPVTG,26.27,T,,M,0.59,N,1.1,K,A*30
$GPGGA,191048.000,3749.8863,N,12215.3614,W,1,05,1.8,43.5,M,-25.0,M,,0000*56
$GPGSA,A,3,04,09,02,12,17,,,,,,,,4.7,1.8,4.4*32
$GPRMC,191048.000,A,3749.8863,N,12215.3614,W,0.31,100.33,131011,,,A*70
$GPVTG,100.33,T,,M,0.31,N,0.6,K,A*08
$GPGGA,191049.000,3749.8864,N,12215.3610,W,1,05,1.8,44.6,M,-25.0,M,,0000*50
$GPGSA,A,3,04,09,02,12,17,,,,,,,,4.7,1.8,4.4*32
$GPRMC,191049.000,A,3749.8864,N,12215.3610,W,0.64,81.79,131011,,,A*44
$GPVTG,81.79,T,,M,0.64,N,1.2,K,A*3B
$GPGGA,191050.000,3749.8863,N,12215.3608,W,1,05,1.8,44.8,M,-25.0,M,,0000*58
$GPGSA,A,3,04,09,02,12,17,,,,,,,,4.7,1.8,4.4*32
$GPRMC,191050.000,A,3749.8863,N,12215.3608,W,0.25,95.98,131011,,,A*4D
$GPVTG,95.98,T,,M,0.25,N,0.5,K,A*32
$GPGGA,191051.000,3749.8856,N,12215.3610,W,1,05,1.8,43.1,M,-25.0,M,,0000*58
$GPGSA,A,3,04,09,02,12,17,,,,,,,,4.7,1.8,4.4*32
$GPRMC,191051.000,A,3749.8856,N,12215.3610,W,0.31,191.75,131011,,,A*70
$GPVTG,191.75,T,,M,0.31,N,0.6,K,A*02
$GPGGA,191052.000,3749.8851,N,12215.3612,W,1,05,1.8,42.6,M,-25.0,M,,0000*58
$GPGSA,A,3,04,09,02,12,17,,,,,,,,4.7,1.8,4.4*32
$GPGSV,3,1,10,04,60,086,28,09,59,252,31,27,56,224,27,02,52,177,25*7A
$GPGSV,3,2,10,12,39,312,29,17,28,055,28,10,09,122,12,25,08,302,*79
$GPGSV,3,3,10,28,08,111,18,14,02,320,*74
$GPRMC,191052.000,A,3749.8851,N,12215.3612,W,0.15,243.17,131011,,,A*78
$GPVTG,243.17,T,,M,0.15,N,0.3,K,A*09
$GPGGA,191053.000,3749.8844,N,12215.3613,W,1,05,1.8,41.7,M,-25.0,M,,0000*5E
$GPGSA,A,3,04,09,02,12,17,,,,,,,,4.7,1.8,4.4*32
$GPRMC,191053.000,A,3749.8844,N,12215.3613,W,0.58,167.20,131011,,,A*74
$GPVTG,167.20,T,,M,0.58,N,1.1,K,A*02
$GPGGA,191054.000,3749.8840,N,12215.3614,W,1,05,1.8,40.7,M,-25.0,M,,0000*5B
$GPGSA,A,3,04,09,02,12,17,,,,,,,,4.7,1.8,4.4*32
$GPRMC,191054.000,A,3749.8840,N,12215.3614,W,0.35,340.71,131011,,,A*78
$GPVTG,340.71,T,,M,0.35,N,0.7,K,A*0D
$GPGGA,191055.000,3749.8836,N,12215.3616,W,1,05,1.8,39.3,M,-25.0,M,,0000*53
$GPGSA,A,3,04,09,02,12,17,,,,,,,,4.7,1.8,4.4*32
$GPRMC,191055.000,A,3749.8836,N,12215.3616,W,0.34,175.76,131011,,,A*78
$GPVTG,175.76,T,,M,0.34,N,0.6,K,A*0E
$GPGGA,191056.000,3749.8832,N,12215.3616,W,1,05,1.8,38.1,M,-25.0,M,,0000*57
$GPGSA,A,3,04,09,02,12,17,,,,,,,,4.7,1.8,4.4*32
$GPRMC,191056.000,A,3749.8832,N,12215.3616,W,0.27,179.08,131011,,,A*78
$GPVTG,179.08,T,,M,0.27,N,0.5,K,A*0A
$GPGGA,191057.000,3749.8825,N,12215.3620,W,1,05,1.8,34.4,M,-25.0,M,,0000*5C
$GPGSA,A,3,04,09,02,12,17,,,,,,,,4.7,1.8,4.4*32
$GPGSV,3,1,11,04,60,086,29,09,59,252,22,27,56,224,24,02,52,177,34*7B
$GPGSV,3,2,11,12,39,312,30,17,28,055,31,10,09,122,22,25,08,302,20*79
$GPGSV,3,3,11,28,08,111,17,14,02,320,,48,44,197,32*48
$GPRMC,191057.000,A,3749.8825,N,12215.3620,W,0.20,205.91,131011,,,A*75
$GPVTG,205.91,T,,M,0.20,N,0.4,K,A*04
$GPGGA,191058.000,3749.8823,N,12215.3620,W,1,05,1.8,34.0,M,-25.0,M,,0000*51
$GPGSA,A,3,04,09,02,12,17,,,,,,,,4.7,1.8,4.4*32
$GPRMC,191058.000,A,3749.8823,N,12215.3620,W,0.21,165.87,131011,,,A*7F
$GPVTG,165.87,T,,M,0.21,N,0.4,K,A*07
$GPGGA,191059.000,3749.8821,N,12215.3620,W,1,05,1.8,33.5,M,-25.0,M,,0000*50
$GPGSA,A,3,04,09,02,12,17,,,,,,,,4.7,1.8,4.4*32
$GPRMC,191059.000,A,3749.8821,N,12215.3620,W,0.17,205.60,131011,,,A*75
$GPVTG,205.60,T,,M,0.17,N,0.3,K,A*09
$GPGGA,191100.000,3749.8820,N,12215.3621,W,1,05,1.8,33.1,M,-25.0,M,,0000*59
$GPGSA,A,3,04,09,02,12,17,,,,,,,,4.7,1.8,4.4*32
$GPRMC,191100.000,A,3749.8820,N,12215.3621,W,0.16,231.65,131011,,,A*7B
$GPVTG,231.65,T,,M,0.16,N,0.3,K,A*0A
$GPGGA,191101.000,3749.8819,N,12215.3621,W,1,05,1.8,32.7,M,-25.0,M,,0000*55
$GPGSA,A,3,04,09,02,12,17,,,,,,,,4.7,1.8,4.4*32
$GPRMC,191101.000,A,3749.8819,N,12215.3621,W,0.16,101.82,131011,,,A*79
$GPVTG,101.82,T,,M,0.16,N,0.3,K,A*03
$GPGGA,191102.000,3749.8817,N,12215.3620,W,1,05,1.8,31.4,M,-25.0,M,,0000*59
$GPGSA,A,3,04,09,02,12,17,,,,,,,,4.7,1.8,4.4*32
$GPGSV,3,1,11,04,60,086,28,09,59,252,22,27,56,224,25,02,52,177,33*7C
$GPGSV,3,2,11,12,39,312,30,17,28,055,27,10,09,122,16,25,08,302,21*78
$GPGSV,3,3,11,28,08,111,17,14,02,320,,48,44,197,30*4A
$GPRMC,191102.000,A,3749.8817,N,12215.3620,W,0.23,130.62,131011,,,A*7F
$GPVTG,130.62,T,,M,0.23,N,0.4,K,A*0E
$GPGGA,191103.000,3749.8817,N,12215.3618,W,1,05,1.8,30.8,M,-25.0,M,,0000*5E
$GPGSA,A,3,04,09,02,12,17,,,,,,,,4.7,1.8,4.4*32
$GPRMC,191103.000,A,3749.8817,N,12215.3618,W,0.69,84.00,131011,,,A*41
$GPVTG,84.00,T,,M,0.69,N,1.3,K,A*3C
$GPGGA,191104.000,3749.8818,N,12215.3617,W,1,05,1.8,30.8,M,-25.0,M,,0000*59
$GPGSA,A,3,04,09,02,12,17,,,,,,,,4.7,1.8,4.4*32
$GPRMC,191104.000,A,3749.8818,N,12215.3617,W,0.10,33.81,131011,,,A*4D
$GPVTG,33.81,T,,M,0.10,N,0.2,K,A*37
$GPGGA,191105.000,3749.8822,N,12215.3615,W,1,05,1.8,32.4,M,-25.0,M,,0000*5D
$GPGSA,A,3,04,09,02,12,17,,,,,,,,4.7,1.8,4.4*32
$GPRMC,191105.000,A,3749.8822,N,12215.3615,W,0.37,349.80,131011,,,A*7D
$GPVTG,349.80,T,,M,0.37,N,0.7,K,A*08
$GPGGA,191106.000,3749.8825,N,12215.3616,W,1,04,1.5,33.1,M,-25.0,M,,0000*52
$GPGSA,A,3,09,02,12,17,,,,,,,,,1.8,1.5,1.0*30
$GPRMC,191106.000,A,3749.8825,N,12215.3616,W,0.21,188.41,131011,,,A*7F
$GPVTG,188.41,T,,M,0.21,N,0.4,K,A*0E
$GPGGA,191107.000,3749.8826,N,12215.3617,W,1,05,1.8,33.4,M,-25.0,M,,0000*58
$GPGSA,A,3,04,09,02,12,17,,,,,,,,4.7,1.8,4.4*32
$GPGSV,3,1,10,04,60,086,21,09,59,252,32,27,56,224,26,02,52,177,33*76
$GPGSV,3,2,10,12,39,312,31,17,28,055,22,10,09,122,16,25,08,302,18*77
$GPGSV,3,3,10,28,08,111,17,14,02,320,*7B
$GPRMC,191107.000,A,3749.8826,N,12215.3617,W,0.29,259.54,131011,,,A*7F
$GPVTG,259.54,T,,M,0.29,N,0.5,K,A*0C
$GPGGA,191108.000,3749.8824,N,12215.3621,W,1,05,1.8,31.4,M,-25.0,M,,0000*52
$GPGSA,A,3,04,09,02,12,17,,,,,,,,4.7,1.8,4.4*32
$GPRMC,191108.000,A,3749.8824,N,12215.3621,W,0.38,59.12,131011,,,A*47
$GPVTG,59.12,T,,M,0.38,N,0.7,K,A*3E
$GPGGA,191109.000,3749.8823,N,12215.3621,W,1,05,1.8,30.6,M,-25.0,M,,0000*57
$GPGSA,A,3,04,09,02,12,17,,,,,,,,4.7,1.8,4.4*32
$GPRMC,191109.000,A,3749.8823,N,12215.3621,W,0.34,136.05,131011,,,A*73
$GPVTG,136.05,T,,M,0.34,N,0.6,K,A*0D
$GPGGA,191110.000,3749.8822,N,12215.3622,W,1,05,1.8,29.9,M,-25.0,M,,0000*5A
$GPGSA,A,3,04,09,02,12,17,,,,,,,,4.7,1.8,4.4*32
$GPRMC,191110.000,A,3749.8822,N,12215.3622,W,0.16,184.81,131011,,,A*7C
$GPVTG,184.81,T,,M,0.16,N,0.3,K,A*0D
$GPGGA,191111.000,3749.8821,N,12215.3623,W,1,05,1.8,29.7,M,-25.0,M,,0000*57
$GPGSA,A,3,04,09,02,12,17,,,,,,,,4.7,1.8,4.4*32
$GPRMC,191111.000,A,3749.8821,N,12215.3623,W,0.87,206.09,131011,,,A*7E
$GPVTG,206.09,T,,M,0.87,N,1.6,K,A*08
$GPGGA,191112.000,3749.8821,N,12215.3624,W,1,05,1.8,29.3,M,-25.0,M,,0000*57
$GPGSA,A,3,04,09,02,12,17,,,,,,,,4.7,1.8,4.4*32
$GPGSV,3,1,11,04,60,086,25,09,59,252,31,27,56,224,31,02,52,177,32*77
$GPGSV,3,2,11,12,39,312,31,17,28,055,19,10,09,122,,25,08,302,20*72
$GPGSV,3,3,11,28,08,111,,14,02,320,,48,44,197,30*4C
$GPRMC,191112.000,A,3749.8821,N,12215.3624,W,0.09,43.70,131011,,,A*41
$GPVTG,43.70,T,,M,0.09,N,0.2,K,A*36
$GPGGA,191113.000,3749.8818,N,12215.3629,W,1,05,1.8,27.2,M,-25.0,M,,0000*5E
$GPGSA,A,3,04,09,02,12,17,,,,,,,,4.7,1.8,4.4*32
$GPRMC,191113.000,A,3749.8818,N,12215.3629,W,0.47,233.77,131011,,,A*7F
$GPVTG,233.77,T,,M,0.47,N,0.9,K,A*05
$GPGGA,191114.000,3749.8814,N,12215.3635,W,1,05,1.8,25.6,M,-25.0,M,,0000*5E
$GPGSA,A,3,04,09,02,12,17,,,,,,,,4.7,1.8,4.4*32
$GPRMC,191114.000,A,3749.8814,N,12215.3635,W,1.05,232.50,131011,,,A*7A
$GPVTG,232.50,T,,M,1.05,N,1.9,K,A*07
$GPGGA,191115.000,3749.8814,N,12215.3637,W,1,05,1.8,24.8,M,-25.0,M,,0000*52
$GPGSA,A,3,04,09,02,12,17,,,,,,,,4.7,1.8,4.4*32
$GPRMC,191115.000,A,3749.8814,N,12215.3637,W,0.28,205.25,131011,,,A*71
$GPVTG,205.25,T,,M,0.28,N,0.5,K,A*02
$GPGGA,191116.000,3749.8820,N,12215.3631,W,1,05,1.8,28.4,M,-25.0,M,,0000*50
$GPGSA,A,3,04,09,02,12,17,,,,,,,,4.7,1.8,4.4*32
$GPRMC,191116.000,A,3749.8820,N,12215.3631,W,0.12,236.27,131011,,,A*78
$GPVTG,236.27,T,,M,0.12,N,0.2,K,A*0E
$GPGGA,191117.000,3749.8823,N,12215.3630,W,1,05,1.8,29.1,M,-25.0,M,,0000*57
$GPGSA,A,3,04,09,02,12,17,,,,,,,,4.7,1.8,4.4*32
$GPGSV,3,1,11,04,60,086,23,09,59,252,35,27,56,224,33,02,52,177,30*75
$GPGSV,3,2,11,12,39,312,35,17,28,055,29,10,09,122,,25,08,302,23*76
$GPGSV,3,3,11,28,08,111,,14,02,320,,48,44,197,27*4A
$GPRMC,191117.000,A,3749.8823,N,12215.3630,W,0.12,87.76,131011,,,A*47
$GPVTG,87.76,T,,M,0.12,N,0.2,K,A*32
$GPGGA,191118.000,3749.8828,N,12215.3624,W,1,05,1.8,32.9,M,-25.0,M,,0000*54
$GPGSA,A,3,04,09,02,12,17,,,,,,,,4.7,1.8,4.4*32
$GPRMC,191118.000,A,3749.8828,N,12215.3624,W,0.14,44.45,131011,,,A*4F
$GPVTG,44.45,T,,M,0.14,N,0.3,K,A*3A
$GPGGA,191119.000,3749.8832,N,12215.3620,W,1,05,1.8,35.7,M,-25.0,M,,0000*53
$GPGSA,A,3,04,09,02,12,17,,,,,,,,4.7,1.8,4.4*32
$GPRMC,191119.000,A,3749.8832,N,12215.3620,W,0.17,74.49,131011,,,A*4D
$GPVTG,74.49,T,,M,0.17,N,0.3,K,A*36
$GPGGA,191120.000,3749.8836,N,12215.3617,W,1,05,1.8,38.5,M,-25.0,M,,0000*56
$GPGSA,A,3,04,09,02,12,17,,,,,,,,4.7,1.8,4.4*32
$GPRMC,191120.000,A,3749.8836,N,12215.3617,W,0.21,36.50,131011,,,A*4C
$GPVTG,36.50,T,,M,0.21,N,0.4,K,A*3A
$GPGGA,191121.000,3749.8839,N,12215.3613,W,1,05,1.8,40.5,M,-25.0,M,,0000*53
$GPGSA,A,3,04,09,02,12,17,,,,,,,,4.7,1.8,4.4*32
$GPRMC,191121.000,A,3749.8839,N,12215.3613,W,0.21,35.65,131011,,,A*43
$GPVTG,35.65,T,,M,0.21,N,0.4,K,A*3F
$GPGGA,191122.000,3749.8843,N,12215.3609,W,1,05,1.8,42.3,M,-25.0,M,,0000*52
$GPGSA,A,3,04,09,02,12,17,,,,,,,,4.7,1.8,4.4*32
$GPGSV,3,1,10,04,60,086,25,09,59,252,36,27,56,224,33,02,52,177,33*72
$GPGSV,3,2,10,12,39,312,36,17,28,055,26,10,09,122,20,25,08,302,28*72
$GPGSV,3,3,10,28,08,111,15,14,02,320,*79
$GPRMC,191122.000,A,3749.8843,N,12215.3609,W,0.34,35.53,131011,,,A*47
$GPVTG,35.53,T,,M,0.34,N,0.6,K,A*3C
$GPGGA,191123.000,3749.8841,N,12215.3612,W,1,05,1.8,40.8,M,-25.0,M,,0000*52
$GPGSA,A,3,04,09,02,12,17,,,,,,,,4.7,1.8,4.4*32
$GPRMC,191123.000,A,3749.8841,N,12215.3612,W,0.22,35.96,131011,,,A*40
$GPVTG,35.96,T,,M,0.22,N,0.4,K,A*30
$GPGGA,191124.000,3749.8838,N,12215.3616,W,1,05,1.8,38.1,M,-25.0,M,,0000*59
$GPGSA,A,3,04,09,02,12,17,,,,,,,,4.7,1.8,4.4*32
$GPRMC,191124.000,A,3749.8838,N,12215.3616,W,0.30,31.93,131011,,,A*4F
$GPVTG,31.93,T,,M,0.30,N,0.6,K,A*30
$GPGGA,191125.000,3749.8834,N,12215.3621,W,1,05,1.8,35.5,M,-25.0,M,,0000*59
$GPGSA,A,3,04,09,02,12,17,,,,,,,,4.7,1.8,4.4*32
$GPRMC,191125.000,A,3749.8834,N,12215.3621,W,0.11,250.45,131011,,,A*7B
$GPVTG,250.45,T,,M,0.11,N,0.2,K,A*09
$GPGGA,191126.000,3749.8831,N,12215.3626,W,1,05,1.8,33.5,M,-25.0,M,,0000*5E
$GPGSA,A,3,04,09,02,12,17,,,,,,,,4.7,1.8,4.4*32
$GPRMC,191126.000,A,3749.8831,N,12215.3626,W,0.30,229.61,131011,,,A*71
$GPVTG,229.61,T,,M,0.30,N,0.6,K,A*06
$GPGGA,191127.000,3749.8829,N,12215.3630,W,1,05,1.8,31.9,M,-25.0,M,,0000*5F
$GPGSA,A,3,04,09,02,12,17,,,,,,,,4.7,1.8,4.4*32
$GPGSV,3,1,11,04,60,086,29,09,59,252,35,27,56,224,34,02,52,177,35*7D
$GPGSV,3,2,11,12,39,312,37,17,28,055,16,10,09,122,18,25,08,302,23*71
$GPGSV,3,3,11,28,08,111,20,14,02,320,,48,44,197,34*4A
$GPRMC,191127.000,A,3749.8829,N,12215.3630,W,0.26,234.59,131011,,,A*7E
$GPVTG,234.59,T,,M,0.26,N,0.5,K,A*05
$GPGGA,191128.000,3749.8826,N,12215.3633,W,1,05,1.8,30.1,M,-25.0,M,,0000*55
$GPGSA,A,3,04,09,02,12,17,,,,,,,,4.7,1.8,4.4*32
$GPRMC,191128.000,A,3749.8826,N,12215.3633,W,0.16,117.13,131011,,,A*72
$GPVTG,117.13,T,,M,0.16,N,0.3,K,A*0C
$GPGGA,191129.000,3749.8824,N,12215.3636,W,1,05,1.8,28.3,M,-25.0,M,,0000*58
$GPGSA,A,3,04,09,02,12,17,,,,,,,,4.7,1.8,4.4*32
$GPRMC,191129.000,A,3749.8824,N,12215.3636,W,0.15,124.83,131011,,,A*7E
$GPVTG,124.83,T,,M,0.15,N,0.3,K,A*06
$GPGGA,191130.000,3749.8822,N,12215.3638,W,1,05,1.8,26.4,M,-25.0,M,,0000*51
$GPGSA,A,3,04,09,02,12,17,,,,,,,,4.7,1.8,4.4*32
$GPRMC,191130.000,A,3749.8822,N,12215.3638,W,0.13,119.38,131011,,,A*76
$GPVTG,119.38,T,,M,0.13,N,0.2,K,A*0F
$GPGGA,191131.000,3749.8821,N,12215.3642,W,1,04,1.5,27.3,M,-25.0,M,,0000*54
$GPGSA,A,3,09,02,12,17,,,,,,,,,1.8,1.5,1.0*30
$GPRMC,191131.000,A,3749.8821,N,12215.3642,W,0.61,222.73,131011,,,A*78
$GPVTG,222.73,T,,M,0.61,N,1.1,K,A*0C
$GPGGA,191132.000,3749.8820,N,12215.3643,W,1,04,1.5,26.9,M,-25.0,M,,0000*5C
$GPGSA,A,3,09,02,12,17,,,,,,,,,1.8,1.5,1.0*30
$GPGSV,3,1,11,04,60,086,,09,59,252,35,27,56,224,33,02,52,177,31*75
$GPGSV,3,2,11,12,39,312,37,17,28,055,24,10,09,122,17,25,08,302,24*78
$GPGSV,3,3,11,28,08,111,20,14,02,320,,48,44,197,27*48
$GPRMC,191132.000,A,3749.8820,N,12215.3643,W,0.64,231.65,131011,,,A*7B
$GPVTG,231.65,T,,M,0.64,N,1.2,K,A*0F
$GPGGA,191133.000,3749.8820,N,12215.3644,W,1,05,1.8,26.7,M,-25.0,M,,0000*58
$GPGSA,A,3,04,09,02,12,17,,,,,,,,4.7,1.8,4.4*32
$GPRMC,191133.000,A,3749.8820,N,12215.3644,W,0.48,241.24,131011,,,A*71
$GPVTG,241.24,T,,M,0.48,N,0.9,K,A*09
$GPGGA,191134.000,3749.8821,N,12215.3643,W,1,05,1.8,28.2,M,-25.0,M,,0000*52
$GPGSA,A,3,04,09,02,12,17,,,,,,,,4.7,1.8,4.4*32
$GPRMC,191134.000,A,3749.8821,N,12215.3643,W,0.18,172.85,131011,,,A*7D
$GPVTG,172.85,T,,M,0.18,N,0.3,K,A*0E
$GPGGA,191135.000,3749.8822,N,12215.3642,W,1,05,1.8,30.4,M,-25.0,M,,0000*5E
$GPGSA,A,3,04,09,02,12,17,,,,,,,,4.7,1.8,4.4*32
$GPRMC,191135.000,A,3749.8822,N,12215.3642,W,0.15,146.23,131011,,,A*78
$GPVTG,146.23,T,,M,0.15,N,0.3,K,A*08
$GPGGA,191136.000,3749.8819,N,12215.3646,W,1,05,1.8,28.7,M,-25.0,M,,0000*5B
$GPGSA,A,3,04,09,02,12,17,,,,,,,,4.7,1.8,4.4*32
$GPRMC,191136.000,A,3749.8819,N,12215.3646,W,0.13,226.36,131011,,,A*70
$GPVTG,226.36,T,,M,0.13,N,0.2,K,A*0E
$GPGGA,191137.000,3749.8818,N,12215.3649,W,1,05,1.8,27.7,M,-25.0,M,,0000*5B
$GPGSA,A,3,04,09,02,12,17,,,,,,,,4.7,1.8,4.4*32
$GPGSV,3,1,11,04,60,086,30,09,59,252,36,27,56,224,33,02,52,177,32*76
$GPGSV,3,2,11,12,39,312,34,17,28,055,31,10,09,122,15,25,08,302,24*7D
$GPGSV,3,3,11,28,08,111,21,14,02,320,,48,44,197,29*47
$GPRMC,191137.000,A,3749.8818,N,12215.3649,W,0.16,193.73,131011,,,A*76
$GPVTG,193.73,T,,M,0.16,N,0.3,K,A*06
$GPGGA,191138.000,3749.8813,N,12215.3653,W,1,05,1.8,24.7,M,-25.0,M,,0000*57
$GPGSA,A,3,04,09,02,12,17,,,,,,,,4.7,1.8,4.4*32
$GPRMC,191138.000,A,3749.8813,N,12215.3653,W,0.31,192.22,131011,,,A*79
$GPVTG,192.22,T,,M,0.31,N,0.6,K,A*03
$GPGGA,191139.000,3749.8811,N,12215.3657,W,1,05,1.8,23.3,M,-25.0,M,,0000*53
$GPGSA,A,3,04,09,02,12,17,,,,,,,,4.7,1.8,4.4*32
$GPRMC,191139.000,A,3749.8811,N,12215.3657,W,0.27,192.50,131011,,,A*7C
$GPVTG,192.50,T,,M,0.27,N,0.5,K,A*02
$GPGGA,191140.000,3749.8806,N,12215.3663,W,1,05,1.8,19.8,M,-25.0,M,,0000*5E
$GPGSA,A,3,04,09,02,12,17,,,,,,,,4.7,1.8,4.4*32
$GPRMC,191140.000,A,3749.8806,N,12215.3663,W,0.40,230.82,131011,,,A*76
$GPVTG,230.82,T,,M,0.40,N,0.7,K,A*05
$GPGGA,191141.000,3749.8803,N,12215.3666,W,1,05,1.8,18.2,M,-25.0,M,,0000*54
$GPGSA,A,3,04,09,02,12,17,,,,,,,,4.7,1.8,4.4*32
$GPRMC,191141.000,A,3749.8803,N,12215.3666,W,0.39,199.62,131011,,,A*77
$GPVTG,199.62,T,,M,0.39,N,0.7,K,A*05
$GPGGA,191142.000,3749.8803,N,12215.3666,W,1,05,1.8,18.3,M,-25.0,M,,0000*56
$GPGSA,A,3,04,09,02,12,17,,,,,,,,4.7,1.8,4.4*32
$GPGSV,3,1,11,04,60,086,22,09,59,252,34,27,56,224,33,02,52,177,36*73
$GPGSV,3,2,11,12,39,312,35,17,28,055,28,10,09,122,21,25,08,302,17*73
$GPGSV,3,3,11,28,08,111,20,14,02,320,,48,44,197,29*46
$GPRMC,191142.000,A,3749.8803,N,12215.3666,W,0.29,201.24,131011,,,A*75
$GPVTG,201.24,T,,M,0.29,N,0.5,K,A*06
$GPGGA,191143.000,3749.8806,N,12215.3662,W,1,05,1.8,20.4,M,-25.0,M,,0000*5A
$GPGSA,A,3,04,09,02,12,17,,,,,,,,4.7,1.8,4.4*32
$GPRMC,191143.000,A,3749.8806,N,12215.3662,W,0.16,201.85,131011,,,A*72
$GPVTG,201.85,T,,M,0.16,N,0.3,K,A*07
$GPGGA,191144.000,3749.8808,N,12215.3660,W,1,05,1.8,22.3,M,-25.0,M,,0000*54
$GPGSA,A,3,04,09,02,12,17,,,,,,,,4.7,1.8,4.4*32
$GPRMC,191144.000,A,3749.8808,N,12215.3660,W,0.11,128.09,131011,,,A*72
$GPVTG,128.09,T,,M,0.11,N,0.2,K,A*0D
$GPGGA,191145.000,3749.8810,N,12215.3656,W,1,05,1.8,24.0,M,-25.0,M,,0000*5C
$GPGSA,A,3,04,09,02,12,17,,,,,,,,4.7,1.8,4.4*32
$GPRMC,191145.000,A,3749.8810,N,12215.3656,W,0.26,128.17,131011,,,A*74
$GPVTG,128.17,T,,M,0.26,N,0.5,K,A*01
$GPGGA,191146.000,3749.8811,N,12215.3652,W,1,05,1.8,25.0,M,-25.0,M,,0000*5B
$GPGSA,A,3,04,09,02,12,17,,,,,,,,4.7,1.8,4.4*32
$GPRMC,191146.000,A,3749.8811,N,12215.3652,W,0.15,134.62,131011,,,A*7D
$GPVTG,134.62,T,,M,0.15,N,0.3,K,A*08
$GPGGA,191147.000,3749.8813,N,12215.3650,W,1,05,1.8,26.0,M,-25.0,M,,0000*59
$GPGSA,A,3,04,09,02,12,17,,,,,,,,4.7,1.8,4.4*32
$GPGSV,3,1,11,04,60,085,28,09,59,251,34,27,56,224,34,02,52,177,36*7E
$GPGSV,3,2,11,12,39,312,35,17,27,055,26,10,10,122,,25,08,303,21*7D
$GPGSV,3,3,11,28,08,111,16,14,02,319,,48,44,197,33*42
$GPRMC,191147.000,A,3749.8813,N,12215.3650,W,0.29,351.70,131011,,,A*71
$GPVTG,351.70,T,,M,0.29,N,0.5,K,A*03
$GPGGA,191148.000,3749.8815,N,12215.3648,W,1,05,1.8,26.8,M,-25.0,M,,0000*51
$GPGSA,A,3,04,09,02,12,17,,,,,,,,4.7,1.8,4.4*32
$GPRMC,191148.000,A,3749.8815,N,12215.3648,W,0.12,166.76,131011,,,A*79
$GPVTG,166.76,T,,M,0.12,N,0.2,K,A*0C
$GPGGA,191149.000,3749.8815,N,12215.3646,W,1,05,1.8,27.2,M,-25.0,M,,0000*55
$GPGSA,A,3,04,09,02,12,17,,,,,,,,4.7,1.8,4.4*32
$GPRMC,191149.000,A,3749.8815,N,12215.3646,W,0.01,280.85,131011,,,A*73
$GPVTG,280.85,T,,M,0.01,N,0.0,K,A*0B
$GPGGA,191150.000,3749.8813,N,12215.3650,W,1,05,1.8,25.6,M,-25.0,M,,0000*5A
$GPGSA,A,3,04,09,02,12,17,,,,,,,,4.7,1.8,4.4*32
$GPRMC,191150.000,A,3749.8813,N,12215.3650,W,0.09,294.48,131011,,,A*76
$GPVTG,294.48,T,,M,0.09,N,0.2,K,A*05
$GPGGA,191151.000,3749.8812,N,12215.3648,W,1,05,1.8,22.3,M,-25.0,M,,0000*51
$GPGSA,A,3,04,09,02,12,17,,,,,,,,4.7,1.8,4.4*32
$GPRMC,191151.000,A,3749.8812,N,12215.3648,W,0.12,46.28,131011,,,A*4E
$GPVTG,46.28,T,,M,0.12,N,0.2,K,A*34
$GPGGA,191152.000,3749.8812,N,12215.3648,W,1,05,1.8,21.7,M,-25.0,M,,0000*55
$GPGSA,A,3,04,09,02,12,17,,,,,,,,4.7,1.8,4.4*32
$GPGSV,3,1,11,04,60,085,29,09,59,251,35,27,56,224,34,02,52,177,33*7B
$GPGSV,3,2,11,12,39,312,35,17,27,055,25,10,10,122,,25,08,303,22*7D
$GPGSV,3,3,11,28,08,111,18,14,02,319,,48,44,197,33*4C
$GPRMC,191152.000,A,3749.8812,N,12215.3648,W,0.16,158.21,131011,,,A*7E
$GPGGA,191153.000,3749.8812,N,12215.3648,W,1,05,1.8,21.7,M,-25.0,M,,0000*54
$GPGSA,A,3,04,09,02,12,17,,,,,,,,4.7,1.8,4.4*32
$GPRMC,191153.000,A,3749.8812,N,12215.3648,W,0.24,191.93,131011,,,A*72
$GPVTG,191.93,T,,M,0.24,N,0.4,K,A*0C
$GPGGA,191154.000,3749.8812,N,12215.3647,W,1,05,1.8,21.8,M,-25.0,M,,0000*53
$GPGSA,A,3,04,09,02,12,17,,,,,,,,4.7,1.8,4.4*32
$GPRMC,191154.000,A,3749.8812,N,12215.3647,W,0.13,156.98,131011,,,A*7E
$GPVTG,156.98,T,,M,0.13,N,0.2,K,A*0E
$GPGGA,191155.000,3749.8812,N,12215.3646,W,1,05,1.8,21.8,M,-25.0,M,,0000*53
$GPGSA,A,3,04,09,02,12,17,,,,,,,,4.7,1.8,4.4*32
$GPRMC,191155.000,A,3749.8812,N,12215.3646,W,0.10,165.81,131011,,,A*75
$GPVTG,165.81,T,,M,0.10,N,0.2,K,A*05
$GPGGA,191156.000,3749.8812,N,12215.3646,W,1,05,1.8,21.7,M,-25.0,M,,0000*5F
$GPGSA,A,3,04,09,02,12,17,,,,,,,,4.7,1.8,4.4*32
$GPRMC,191156.000,A,3749.8812,N,12215.3646,W,0.17,141.94,131011,,,A*73
$GPVTG,141.94,T,,M,0.17,N,0.3,K,A*01
$GPGGA,191157.000,3749.8812,N,12215.3645,W,1,05,1.8,21.7,M,-25.0,M,,0000*5D
$GPGSA,A,3,04,09,02,12,17,,,,,,,,4.7,1.8,4.4*32
$GPGSV,3,1,11,04,60,085,34,09,59,251,35,27,56,224,34,02,52,177,33*77
$GPGSV,3,2,11,12,39,312,36,17,27,055,26,10,10,122,,25,08,303,23*7C
$GPGSV,3,3,11,28,08,111,17,14,02,319,,48,44,197,34*44
$GPRMC,191157.000,A,3749.8812,N,12215.3645,W,0.16,140.36,131011,,,A*79
$GPVTG,140.36,T,,M,0.16,N,0.3,K,A*09
$GPGGA,191158.000,3749.8812,N,12215.3644,W,1,05,1.8,21.6,M,-25.0,M,,0000*52
$GPGSA,A,3,04,09,02,12,17,,,,,,,,4.7,1.8,4.4*32
$GPRMC,191158.000,A,3749.8812,N,12215.3644,W,0.10,223.22,131011,,,A*72
$GPVTG,223.22,T,,M,0.10,N,0.2,K,A*0D
$GPGGA,191159.000,3749.8812,N,12215.3644,W,1,05,1.8,21.5,M,-25.0,M,,0000*50
$GPGSA,A,3,04,09,02,12,17,,,,,,,,4.7,1.8,4.4*32
$GPRMC,191159.000,A,3749.8812,N,12215.3644,W,0.27,184.63,131011,,,A*7C
$GPVTG,184.63,T,,M,0.27,N,0.5,K,A*05
$GPGGA,191200.000,3749.8813,N,12215.3642,W,1,05,1.8,21.5,M,-25.0,M,,0000*58
$GPGSA,A,3,04,09,02,12,17,,,,,,,,4.7,1.8,4.4*32
$GPRMC,191200.000,A,3749.8813,N,12215.3642,W,0.26,242.92,131011,,,A*72
$GPVTG,242.92,T,,M,0.26,N,0.5,K,A*03
$GPGGA,191201.000,3749.8824,N,12215.3639,W,1,05,1.8,25.5,M,-25.0,M,,0000*55
$GPGSA,A,3,04,09,02,12,17,,,,,,,,4.7,1.8,4.4*32
$GPRMC,191201.000,A,3749.8824,N,12215.3639,W,0.50,358.15,131011,,,A*7F
$GPVTG,358.15,T,,M,0.50,N,0.9,K,A*0B
$GPGGA,191202.000,3749.8830,N,12215.3634,W,1,05,1.8,27.5,M,-25.0,M,,0000*5C
$GPGSA,A,3,04,09,02,12,17,,,,,,,,4.7,1.8,4.4*32
$GPGSV,3,1,11,04,60,085,23,09,59,251,34,27,56,224,27,02,52,177,23*73
$GPGSV,3,2,11,12,39,312,36,17,27,055,33,10,10,122,,25,08,303,23*78
$GPGSV,3,3,11,28,08,111,18,14,02,319,,48,44,197,24*4A
$GPRMC,191202.000,A,3749.8830,N,12215.3634,W,1.17,19.08,131011,,,A*4C
$GPVTG,19.08,T,,M,1.17,N,2.2,K,A*3A
$GPGGA,191203.000,3749.8838,N,12215.3631,W,1,05,1.8,29.6,M,-25.0,M,,0000*5D
$GPGSA,A,3,04,09,02,12,17,,,,,,,,4.7,1.8,4.4*32
$GPRMC,191203.000,A,3749.8838,N,12215.3631,W,0.45,345.58,131011,,,A*79
$GPVTG,345.58,T,,M,0.45,N,0.8,K,A*0B
$GPGGA,191204.000,3749.8845,N,12215.3630,W,1,05,1.8,30.7,M,-25.0,M,,0000*58
$GPGSA,A,3,04,09,02,12,17,,,,,,,,4.7,1.8,4.4*32
$GPRMC,191204.000,A,3749.8845,N,12215.3630,W,0.70,357.87,131011,,,A*72
$GPVTG,357.87,T,,M,0.70,N,1.3,K,A*06
$GPGGA,191205.000,3749.8852,N,12215.3629,W,1,05,1.8,32.3,M,-25.0,M,,0000*51
$GPGSA,A,3,04,09,02,12,17,,,,,,,,4.7,1.8,4.4*32
$GPRMC,191205.000,A,3749.8852,N,12215.3629,W,0.86,7.06,131011,,,A*7B
$GPVTG,7.06,T,,M,0.86,N,1.6,K,A*05
$GPGGA,191206.000,3749.8854,N,12215.3628,W,1,05,1.8,32.4,M,-25.0,M,,0000*52
$GPGSA,A,3,04,09,02,12,17,,,,,,,,4.7,1.8,4.4*32
$GPRMC,191206.000,A,3749.8854,N,12215.3628,W,0.96,10.27,131011,,,A*4B
$GPVTG,10.27,T,,M,0.96,N,1.8,K,A*3F
$GPGGA,191207.000,3749.8855,N,12215.3626,W,1,05,1.8,32.5,M,-25.0,M,,0000*5D
$GPGSA,A,3,04,09,02,12,17,,,,,,,,4.7,1.8,4.4*32
$GPGSV,3,1,10,04,60,085,30,09,59,251,22,27,56,224,25,02,52,177,22*74
$GPGSV,3,2,10,12,39,312,33,17,27,055,34,10,10,122,16,25,08,303,20*7F
$GPGSV,3,3,10,28,08,111,19,14,02,319,*7F
$GPRMC,191207.000,A,3749.8855,N,12215.3626,W,0.69,42.49,131011,,,A*4A
$GPVTG,42.49,T,,M,0.69,N,1.3,K,A*3B
$GPGGA,191208.000,3749.8858,N,12215.3625,W,1,05,1.8,33.0,M,-25.0,M,,0000*58
$GPGSA,A,3,04,09,02,12,17,,,,,,,,4.7,1.8,4.4*32
$GPRMC,191208.000,A,3749.8858,N,12215.3625,W,0.83,3.86,131011,,,A*79
$GPVTG,3.86,T,,M,0.83,N,1.5,K,A*0F
$GPGGA,191209.000,3749.8856,N,12215.3623,W,1,05,1.8,32.4,M,-25.0,M,,0000*54
$GPGSA,A,3,04,09,02,12,17,,,,,,,,4.7,1.8,4.4*32
$GPRMC,191209.000,A,3749.8856,N,12215.3623,W,0.60,35.86,131011,,,A*48
$GPVTG,35.86,T,,M,0.60,N,1.1,K,A*33
$GPGGA,191210.000,3749.8856,N,12215.3621,W,1,05,1.8,32.1,M,-25.0,M,,0000*5B
$GPGSA,A,3,04,09,02,12,17,,,,,,,,4.7,1.8,4.4*32
$GPRMC,191210.000,A,3749.8856,N,12215.3621,W,0.64,23.23,131011,,,A*4E
$GPVTG,23.23,T,,M,0.64,N,1.2,K,A*3C
$GPGGA,191211.000,3749.8857,N,12215.3621,W,1,05,1.8,31.9,M,-25.0,M,,0000*50
$GPGSA,A,3,04,09,02,12,17,,,,,,,,4.7,1.8,4.4*32
$GPRMC,191211.000,A,3749.8857,N,12215.3621,W,0.58,350.26,131011,,,A*73
$GPVTG,350.26,T,,M,0.58,N,1.1,K,A*02
$GPGGA,191212.000,3749.8859,N,12215.3618,W,1,05,1.8,31.7,M,-25.0,M,,0000*59
$GPGSA,A,3,04,09,02,12,17,,,,,,,,4.7,1.8,4.4*32
$GPGSV,3,1,10,04,60,085,33,09,59,251,29,27,56,224,25,02,52,177,26*78
$GPGSV,3,2,10,12,39,312,24,17,27,055,25,10,10,122,16,25,08,303,18*72
$GPGSV,3,3,10,28,08,111,18,14,02,319,*7E
$GPRMC,191212.000,A,3749.8859,N,12215.3618,W,0.95,0.91,131011,,,A*7F
$GPVTG,0.91,T,,M,0.95,N,1.8,K,A*00
$GPGGA,191213.000,3749.8862,N,12215.3615,W,1,05,1.8,30.8,M,-25.0,M,,0000*53
$GPGSA,A,3,04,09,02,12,17,,,,,,,,4.7,1.8,4.4*32
$GPRMC,191213.000,A,3749.8862,N,12215.3615,W,0.68,344.72,131011,,,A*77
$GPVTG,344.72,T,,M,0.68,N,1.3,K,A*07
$GPGGA,191214.000,3749.8864,N,12215.3612,W,1,05,1.8,29.3,M,-25.0,M,,0000*56
$GPGSA,A,3,04,09,02,12,17,,,,,,,,4.7,1.8,4.4*32
$GPRMC,191214.000,A,3749.8864,N,12215.3612,W,0.55,346.55,131011,,,A*78
$GPVTG,346.55,T,,M,0.55,N,1.0,K,A*0D
$GPGGA,191215.000,3749.8864,N,12215.3614,W,1,05,1.8,29.9,M,-25.0,M,,0000*5B
$GPGSA,A,3,04,09,02,12,17,,,,,,,,4.7,1.8,4.4*32
$GPRMC,191215.000,A,3749.8864,N,12215.3614,W,0.54,284.84,131011,,,A*7D
$GPVTG,284.84,T,,M,0.54,N,1.0,K,A*0F
$GPGGA,191216.000,3749.8861,N,12215.3614,W,1,05,1.8,31.1,M,-25.0,M,,0000*5C
$GPGSA,A,3,04,09,02,12,17,,,,,,,,4.7,1.8,4.4*32
$GPRMC,191216.000,A,3749.8861,N,12215.3614,W,0.53,199.06,131011,,,A*79
$GPVTG,199.06,T,,M,0.53,N,1.0,K,A*0D
$GPGGA,191217.000,3749.8861,N,12215.3618,W,1,05,1.8,33.6,M,-25.0,M,,0000*54
$GPGSA,A,3,04,09,02,12,17,,,,,,,,4.7,1.8,4.4*32
$GPGSV,3,1,10,04,60,085,34,09,59,251,24,27,56,224,25,02,52,177,33*76
$GPGSV,3,2,10,12,39,312,17,17,27,055,20,10,10,122,24,25,08,303,18*76
$GPRMC,191217.000,A,3749.8861,N,12215.3618,W,0.54,241.37,131011,,,A*77
$GPVTG,241.37,T,,M,0.54,N,1.0,K,A*0E
$GPGGA,191218.000,3749.8855,N,12215.3620,W,1,05,1.8,34.1,M,-25.0,M,,0000*57
$GPGSA,A,3,04,09,02,12,17,,,,,,,,4.7,1.8,4.4*32
$GPRMC,191218.000,A,3749.8855,N,12215.3620,W,0.82,229.93,131011,,,A*7F
$GPVTG,229.93,T,,M,0.82,N,1.5,K,A*00
$GPGGA,191219.000,3749.8856,N,12215.3621,W,1,04,2.4,35.9,M,-25.0,M,,0000*53
$GPGSA,A,3,04,09,02,17,,,,,,,,,5.1,2.4,4.5*38
$GPRMC,191219.000,A,3749.8856,N,12215.3621,W,1.12,250.02,131011,,,A*72
$GPVTG,250.02,T,,M,1.12,N,2.1,K,A*09
$GPGGA,191220.000,3749.8854,N,12215.3623,W,1,05,1.8,38.3,M,-25.0,M,,0000*50
$GPGSA,A,3,04,09,02,12,17,,,,,,,,4.7,1.8,4.4*32
$GPRMC,191220.000,A,3749.8854,N,12215.3623,W,1.33,232.80,131011,,,A*75
$GPVTG,232.80,T,,M,1.33,N,2.5,K,A*00
$GPGGA,191221.000,3749.8850,N,12215.3621,W,1,04,2.1,38.4,M,-25.0,M,,0000*5B
$GPGSA,A,3,04,09,02,12,,,,,,,,,7.9,2.1,7.6*32
$GPRMC,191221.000,A,3749.8850,N,12215.3621,W,0.37,253.67,131011,,,A*79
$GPVTG,253.67,T,,M,0.37,N,0.7,K,A*0B
$GPGGA,191222.000,3749.8845,N,12215.3618,W,1,04,2.1,37.8,M,-25.0,M,,0000*55
$GPGSA,A,3,04,09,02,12,,,,,,,,,7.9,2.1,7.6*32
$GPGSV,3,1,11,04,60,085,20,09,59,251,26,27,56,224,26,02,52,177,26*77
$GPGSV,3,2,11,12,39,312,20,17,27,055,10,10,10,122,20,25,08,303,18*74
$GPGSV,3,3,11,28,08,111,20,14,02,319,,48,44,197,29*4C
$GPRMC,191222.000,A,3749.8845,N,12215.3618,W,0.31,43.49,131011,,,A*4D
$GPVTG,43.49,T,,M,0.31,N,0.6,K,A*33
$GPGGA,191223.000,3749.8844,N,12215.3613,W,1,04,2.1,38.1,M,-25.0,M,,0000*58
$GPGSA,A,3,04,09,02,12,,,,,,,,,7.9,2.1,7.6*32
$GPRMC,191223.000,A,3749.8844,N,12215.3613,W,0.68,1.51,131011,,,A*75
$GPVTG,1.51,T,,M,0.68,N,1.3,K,A*04
$GPGGA,191224.000,3749.8842,N,12215.3606,W,1,04,2.1,40.4,M,-25.0,M,,0000*57
$GPGSA,A,3,04,09,02,12,,,,,,,,,7.9,2.1,7.6*32
$GPRMC,191224.000,A,3749.8842,N,12215.3606,W,0.42,96.84,131011,,,A*4E
$GPVTG,96.84,T,,M,0.42,N,0.8,K,A*30
$GPGGA,191225.000,3749.8847,N,12215.3596,W,1,04,2.1,45.8,M,-25.0,M,,0000*50
$GPGSA,A,3,04,09,02,12,,,,,,,,,7.9,2.1,7.6*32
$GPRMC,191225.000,A,3749.8847,N,12215.3596,W,0.28,88.77,131011,,,A*4F
$GPVTG,88.77,T,,M,0.28,N,0.5,K,A*32
$GPGGA,191226.000,3749.8843,N,12215.3601,W,1,04,2.1,45.5,M,-25.0,M,,0000*57
$GPGSA,A,3,04,09,02,12,,,,,,,,,7.9,2.1,7.6*32
$GPRMC,191226.000,A,3749.8843,N,12215.3601,W,0.56,346.82,131011,,,A*77
$GPVTG,346.82,T,,M,0.56,N,1.0,K,A*04
$GPGGA,191227.000,3749.8848,N,12215.3596,W,1,04,2.1,47.2,M,-25.0,M,,0000*55
$GPGSA,A,3,04,09,02,12,,,,,,,,,7.9,2.1,7.6*32
$GPGSV,3,1,11,04,60,085,19,09,59,251,36,27,56,224,38,02,52,177,40*73
$GPGSV,3,2,11,12,39,312,18,17,27,055,,10,10,122,20,25,08,303,18*7E
$GPGSV,3,3,11,28,08,111,,14,02,319,,48,44,197,39*4F
$GPRMC,191227.000,A,3749.8848,N,12215.3596,W,1.58,18.30,131011,,,A*4E
$GPVTG,18.30,T,,M,1.58,N,2.9,K,A*30
$GPGGA,191228.000,3749.8854,N,12215.3587,W,1,03,2.7,46.5,M,-25.0,M,,0000*50
$GPGSA,A,2,04,09,02,,,,,,,,,,2.9,2.7,1.0*33
$GPRMC,191228.000,A,3749.8854,N,12215.3587,W,2.56,35.54,131011,,,A*4C
$GPVTG,35.54,T,,M,2.56,N,4.7,K,N*37
$GPGGA,191229.000,3749.8864,N,12215.3590,W,1,04,2.1,46.3,M,-25.0,M,,0000*53
$GPGSA,A,3,04,09,02,12,,,,,,,,,7.9,2.1,7.7*33
$GPRMC,191229.000,A,3749.8864,N,12215.3590,W,2.50,6.10,131011,,,A*7E
$GPVTG,6.10,T,,M,2.50,N,4.6,K,A*0F
$GPGGA,191230.000,3749.8875,N,12215.3594,W,1,04,2.1,45.3,M,-25.0,M,,0000*5C
$GPGSA,A,3,04,09,02,12,,,,,,,,,7.9,2.1,7.7*33
$GPRMC,191230.000,A,3749.8875,N,12215.3594,W,3.07,0.57,131011,,,A*74
$GPVTG,0.57,T,,M,3.07,N,5.7,K,A*09
$GPGGA,191231.000,3749.8877,N,12215.3597,W,1,04,2.1,44.2,M,-25.0,M,,0000*5C
$GPGSA,A,3,04,09,02,12,,,,,,,,,8.0,2.1,7.7*35
$GPRMC,191231.000,A,3749.8877,N,12215.3597,W,2.59,10.33,131011,,,A*4D
$GPVTG,10.33,T,,M,2.59,N,4.8,K,A*3E
$GPGGA,191232.000,3749.8874,N,12215.3602,W,1,04,2.1,45.0,M,-25.0,M,,0000*50
$GPGSA,A,3,04,09,02,12,,,,,,,,,8.0,2.1,7.7*35
$GPGSV,3,1,11,04,60,085,18,09,59,251,36,27,56,224,30,02,52,177,31*7C
$GPGSV,3,2,11,12,39,312,15,17,27,055,,10,10,122,16,25,08,303,*7F
$GPGSV,3,3,11,28,08,111,,14,02,319,,48,44,197,32*44
$GPRMC,191232.000,A,3749.8874,N,12215.3602,W,1.81,4.90,131011,,,A*78
$GPGGA,191233.000,3749.8864,N,12215.3606,W,1,04,2.1,43.9,M,-25.0,M,,0000*5B
$GPGSA,A,3,04,09,02,12,,,,,,,,,8.0,2.1,7.7*35
$GPRMC,191233.000,A,3749.8864,N,12215.3606,W,0.33,349.76,131011,,,A*76
$GPVTG,349.76,T,,M,0.33,N,0.6,K,A*04
$GPGGA,191234.000,3749.8859,N,12215.3607,W,1,03,2.7,43.0,M,-25.0,M,,0000*5B
$GPGSA,A,2,04,09,02,,,,,,,,,,2.9,2.7,1.0*33
$GPRMC,191234.000,A,3749.8859,N,12215.3607,W,0.19,274.13,131011,,,A*7A
$GPVTG,274.13,T,,M,0.19,N,0.3,K,A*05
$GPGGA,191235.000,3749.8857,N,12215.3607,W,1,04,2.1,44.8,M,-25.0,M,,0000*5A
$GPGSA,A,3,04,09,02,12,,,,,,,,,8.0,2.1,7.7*35
$GPRMC,191235.000,A,3749.8857,N,12215.3607,W,0.40,311.25,131011,,,A*7E
$GPVTG,311.25,T,,M,0.40,N,0.7,K,A*0A
$GPGGA,191236.000,3749.8856,N,12215.3595,W,1,04,2.1,47.8,M,-25.0,M,,0000*53
$GPGSA,A,3,04,09,02,12,,,,,,,,,8.0,2.1,7.7*35
$GPRMC,191236.000,A,3749.8856,N,12215.3595,W,0.34,62.59,131011,,,A*4B
$GPVTG,62.59,T,,M,0.34,N,0.6,K,A*34
$GPGGA,191237.000,3749.8857,N,12215.3585,W,1,04,2.1,50.1,M,-25.0,M,,0000*5D
$GPGSA,A,3,04,09,02,12,,,,,,,,,8.0,2.1,7.7*35
$GPGSV,3,1,11,04,60,085,26,09,59,251,32,27,56,224,34,02,52,177,32*72
$GPGSV,3,2,11,12,39,312,20,17,27,055,,10,10,122,17,25,08,303,*78
$GPGSV,3,3,11,28,08,111,21,14,02,319,,48,44,197,31*44
$GPRMC,191237.000,A,3749.8857,N,12215.3585,W,0.43,51.89,131011,,,A*47
