$ADVER,3080,2.3
$GPRMC,190952.778,A,3749.9037,N,12215.3575,W,0.22,353.14,131011,,,A*74
$GPGGA,190953.778,3749.9037,N,12215.3574,W,1,03,2.6,25.0,M,-25.0,M,,0000*5F
$GPGSA,A,2,04,09,02,,,,,,,,,,2.8,2.6,1.0*33
$GPRMC,190953.778,A,3749.9037,N,12215.3574,W,0.28,353.67,131011,,,A*7A
$GPVTG,353.67,T,,M,0.28,N,0.5,K,N*09
$GPGGA,190954.777,3749.9037,N,12215.3575,W,1,03,2.6,25.0,M,-25.0,M,,0000*56
$GPGSA,A,2,04,09,02,,,,,,,,,,2.8,2.6,1.0*33
$GPRMC,190954.777,A,3749.9037,N,12215.3575,W,0.23,335.78,131011,,,A*76
$GPVTG,335.78,T,,M,0.23,N,0.4,K,N*0D
$GPGGA,190955.777,3749.9038,N,12215.3574,W,1,03,2.6,25.0,M,-25.0,M,,0000*59
$GPGSA,A,2,04,09,02,,,,,,,,,,2.8,2.6,1.0*33
$GPGSV,3,1,10,04,61,087,40,09,59,252,39,27,56,224,35,02,51,177,35*7D
$GPGSV,3,2,10,12,39,311,39,17,28,055,29,10,09,122,,28,08,110,*75
$GPGSV,3,3,10,25,08,302,28,14,02,320,*7A
$GPRMC,190955.777,A,3749.9038,N,12215.3574,W,0.30,346.15,131011,,,A*74
$GPVTG,346.15,T,,M,0.30,N,0.6,K,N*02
$GPGGA,190956.777,3749.9037,N,12215.3574,W,1,03,2.6,25.0,M,-25.0,M,,0000*55
$GPGSA,A,2,04,09,02,,,,,,,,,,2.8,2.6,1.0*33
$GPRMC,190956.777,A,3749.9037,N,12215.3574,W,0.14,359.21,131011,,,A*77
$GPVTG,359.21,T,,M,0.14,N,0.3,K,N*08
$GPGGA,190957.777,3749.9037,N,12215.3574,W,1,03,2.6,25.0,M,-25.0,M,,0000*54
$GPGSA,A,2,04,09,02,,,,,,,,,,2.8,2.6,1.0*33
$GPRMC,190957.777,A,3749.9037,N,12215.3574,W,0.31,340.12,131011,,,A*79
$GPVTG,340.12,T,,M,0.31,N,0.6,K,N*02
$GPGGA,190958.777,3749.9037,N,12215.3574,W,1,03,2.6,25.0,M,-25.0,M,,0000*5B
$GPGSA,A,2,04,09,02,,,,,,,,,,2.8,2.6,1.0*33
$GPRMC,190958.777,A,3749.9037,N,12215.3574,W,0.20,354.33,131011,,,A*70
$GPVTG,354.33,T,,M,0.20,N,0.4,K,N*06
$GPGGA,190959.777,3749.9037,N,12215.3574,W,1,03,2.6,25.0,M,-25.0,M,,0000*5A
$GPGSA,A,2,04,09,02,,,,,,,,,,2.8,2.6,1.0*33
$GPRMC,190959.777,A,3749.9037,N,12215.3574,W,0.27,341.51,131011,,,A*76
$GPVTG,341.51,T,,M,0.27,N,0.5,K,N*00
$GPGGA,191000.777,3749.9036,N,12215.3574,W,1,03,2.6,25.0,M,-25.0,M,,0000*5F
$GPGSA,A,2,04,09,02,,,,,,,,,,2.8,2.6,1.0*33
$GPGSV,3,1,11,04,61,087,41,09,59,252,39,27,56,224,36,02,51,177,35*7E
$GPGSV,3,2,11,12,39,311,39,17,28,055,35,10,09,122,,28,08,110,*79
$GPGSV,3,3,11,25,08,302,17,14,02,320,,48,00,000,27*4E
$GPRMC,191000.777,A,3749.9036,N,12215.3574,W,0.22,343.54,131011,,,A*71
$GPVTG,343.54,T,,M,0.22,N,0.4,K,N*03
$GPGGA,191001.777,3749.9037,N,12215.3573,W,1,03,2.6,25.0,M,-25.0,M,,0000*58
$GPGSA,A,2,04,09,02,,,,,,,,,,2.8,2.6,1.0*33
$GPRMC,191001.777,A,3749.9037,N,12215.3573,W,0.56,2.63,131011,,,A*77
$GPVTG,2.63,T,,M,0.56,N,1.0,K,N*07
$GPGGA,191002.777,3749.9037,N,12215.3574,W,1,03,2.6,25.0,M,-25.0,M,,0000*5C
$GPGSA,A,2,04,09,02,,,,,,,,,,2.8,2.6,1.0*33
$GPRMC,191002.777,A,3749.9037,N,12215.3574,W,0.32,336.37,131011,,,A*74
$GPVTG,336.37,T,,M,0.32,N,0.6,K,N*07
$GPGGA,191003.777,3749.9037,N,12215.3576,W,1,03,2.6,25.0,M,-25.0,M,,0000*5F
$GPGSA,A,2,04,09,02,,,,,,,,,,2.8,2.6,1.0*33
$GPRMC,191003.777,A,3749.9037,N,12215.3576,W,0.67,309.10,131011,,,A*7E
$GPVTG,309.10,T,,M,0.67,N,1.2,K,N*0B
$GPGGA,191004.777,3749.9050,N,12215.3597,W,1,03,2.6,25.0,M,-25.0,M,,0000*56
$GPGSA,A,2,04,09,02,,,,,,,,,,2.8,2.6,1.0*33
$GPRMC,191004.777,A,3749.9050,N,12215.3597,W,0.49,333.52,131011,,,A*74
$GPVTG,333.52,T,,M,0.49,N,0.9,K,N*02
$GPGGA,191005.777,3749.9051,N,12215.3598,W,1,03,2.6,25.0,M,-25.0,M,,0000*59
$GPGSA,A,2,04,09,02,,,,,,,,,,2.8,2.6,1.0*33
$GPGSV,3,1,11,04,61,087,28,09,59,252,31,27,56,224,34,02,51,177,39*77
$GPGSV,3,2,11,12,39,311,32,17,28,055,28,10,09,122,,28,08,110,*7E
$GPGSV,3,3,11,25,08,302,27,14,02,320,,48,44,197,33*47
$GPRMC,191005.777,A,3749.9051,N,12215.3598,W,0.88,327.41,131011,,,A*71
$GPVTG,327.41,T,,M,0.88,N,1.6,K,N*06
$GPGGA,191006.777,3749.9034,N,12215.3573,W,1,03,2.6,25.0,M,-25.0,M,,0000*5C
$GPGSA,A,2,04,09,02,,,,,,,,,,2.8,2.6,1.0*33
$GPRMC,191006.777,A,3749.9034,N,12215.3573,W,0.21,215.05,131011,,,A*77
$GPVTG,215.05,T,,M,0.21,N,0.4,K,N*06
$GPGGA,191007.777,3749.9037,N,12215.3577,W,1,03,2.6,25.0,M,-25.0,M,,0000*5A
$GPGSA,A,2,04,09,02,,,,,,,,,,2.8,2.6,1.0*33
$GPRMC,191007.777,A,3749.9037,N,12215.3577,W,0.32,349.13,131011,,,A*7C
$GPVTG,349.13,T,,M,0.32,N,0.6,K,N*09
$GPGGA,191008.777,3749.9038,N,12215.3578,W,1,03,2.6,25.0,M,-25.0,M,,0000*55
$GPGSA,A,2,04,09,02,,,,,,,,,,2.8,2.6,1.0*33
$GPRMC,191008.777,A,3749.9038,N,12215.3578,W,0.33,7.21,131011,,,A*7A
$GPVTG,7.21,T,,M,0.33,N,0.6,K,N*00
$GPGGA,191009.777,3749.9039,N,12215.3580,W,1,03,2.6,25.0,M,-25.0,M,,0000*52
$GPGSA,A,2,04,09,02,,,,,,,,,,2.8,2.6,1.0*33
$GPRMC,191009.777,A,3749.9039,N,12215.3580,W,0.17,342.80,131011,,,A*72
$GPVTG,342.80,T,,M,0.17,N,0.3,K,N*0A
$GPGGA,191010.777,3749.9041,N,12215.3584,W,1,03,2.6,25.0,M,-25.0,M,,0000*51
$GPGSA,A,2,04,09,02,,,,,,,,,,2.8,2.6,1.0*33
$GPGSV,3,1,11,04,61,087,36,09,59,252,38,27,56,224,35,02,51,177,38*71
$GPGSV,3,2,11,12,39,311,37,17,28,055,29,10,09,122,,28,08,110,*7A
$GPGSV,3,3,11,25,08,302,31,14,02,320,,48,44,197,35*46
$GPVTG,14.29,T,,M,0.18,N,0.3,K,N*36
$GPGGA,191011.777,3749.9044,N,12215.3587,W,1,03,2.6,25.0,M,-25.0,M,,0000*56
$GPGSA,A,2,04,09,02,,,,,,,,,,2.8,2.6,1.0*33
$GPRMC,191011.777,A,3749.9044,N,12215.3587,W,0.38,351.50,131011,,,A*74
$GPVTG,351.50,T,,M,0.38,N,0.7,K,N*0C
$GPGGA,191012.777,3749.9045,N,12215.3590,W,1,03,2.6,25.0,M,-25.0,M,,0000*52
$GPGSA,A,2,04,09,02,,,,,,,,,,2.8,2.6,1.0*33
$GPRMC,191012.777,A,3749.9045,N,12215.3590,W,0.09,45.17,131011,,,A*47
$GPVTG,45.17,T,,M,0.09,N,0.2,K,N*3E
$GPGGA,191013.777,3749.9045,N,12215.3589,W,1,03,2.6,25.0,M,-25.0,M,,0000*5B
$GPGSA,A,2,04,09,02,,,,,,,,,,2.8,2.6,1.0*33
$GPRMC,191013.777,A,3749.9045,N,12215.3589,W,0.35,18.18,131011,,,A*46
$GPVTG,18.18,T,,M,0.35,N,0.7,K,N*33
$GPGGA,191014.777,3749.9046,N,12215.3589,W,1,03,2.6,25.0,M,-25.0,M,,0000*5F
$GPGSA,A,2,04,09,02,,,,,,,,,,2.8,2.6,1.0*33
$GPRMC,191014.777,A,3749.9046,N,12215.3589,W,0.54,336.34,131011,,,A*74
$GPVTG,336.34,T,,M,0.54,N,1.0,K,N*03
$GPGGA,191015.777,3749.9045,N,12215.3590,W,1,03,2.6,25.0,M,-25.0,M,,0000*55
$GPGSA,A,2,04,09,02,,,,,,,,,,2.8,2.6,1.0*33
$GPGSV,3,1,11,04,61,087,37,09,59,252,34,27,56,224,30,02,51,177,39*78
$GPGSV,3,2,11,12,39,311,33,17,28,055,31,10,09,122,,28,08,110,*77
$GPGSV,3,3,11,25,08,302,26,14,02,320,,48,44,197,28*4C
$GPRMC,191015.777,A,3749.9045,N,12215.3590,W,0.14,263.38,131011,,,A*77
$GPVTG,263.38,T,,M,0.14,N,0.3,K,N*08
$GPGGA,191016.777,3749.8977,N,12215.3578,W,1,03,2.6,25.0,M,-25.0,M,,0000*59
$GPGSA,A,2,04,09,02,,,,,,,,,,2.8,2.6,1.0*33
$GPRMC,191016.777,A,3749.8977,N,12215.3578,W,0.48,125.42,131011,,,A*7E
$GPVTG,125.42,T,,M,0.48,N,0.9,K,N*07
$GPGGA,191017.777,3749.9094,N,12215.3660,W,1,03,2.6,25.0,M,-25.0,M,,0000*57
$GPGSA,A,2,04,09,02,,,,,,,,,,2.8,2.6,1.0*33
$GPRMC,191017.777,A,3749.9094,N,12215.3660,W,0.23,344.19,131011,,,A*76
$GPVTG,344.19,T,,M,0.23,N,0.4,K,N*0C
$GPGGA,191018.777,3749.9048,N,12215.3590,W,1,03,2.6,25.0,M,-25.0,M,,0000*55
$GPGSA,A,2,04,09,02,,,,,,,,,,2.8,2.6,1.0*33
$GPRMC,191018.777,A,3749.9048,N,12215.3590,W,1.10,192.33,131011,,,A*74
$GPVTG,192.33,T,,M,1.10,N,2.0,K,N*0A
$GPGGA,191019.777,3749.9000,N,12215.3569,W,1,03,2.6,25.0,M,-25.0,M,,0000*5E
$GPGSA,A,2,04,09,02,,,,,,,,,,2.8,2.6,1.0*33
$GPRMC,191019.777,A,3749.9000,N,12215.3569,W,1.54,142.58,131011,,,A*7F
$GPVTG,142.58,T,,M,1.54,N,2.9,K,N*03
$GPGGA,191020.777,3749.9041,N,12215.3591,W,1,03,2.6,25.0,M,-25.0,M,,0000*56
$GPGSA,A,2,04,09,02,,,,,,,,,,2.8,2.6,1.0*33
$GPGSV,3,1,10,04,61,087,22,09,59,252,17,27,56,224,24,02,51,177,17*75
$GPGSV,3,2,10,12,39,311,17,17,28,055,17,10,09,122,,28,08,110,*74
$GPGSV,3,3,10,25,08,302,18,14,02,320,*79
$GPRMC,191020.777,A,3749.9041,N,12215.3591,W,1.24,134.64,131011,,,A*7E
$GPVTG,134.64,T,,M,1.24,N,2.3,K,N*00
$GPGGA,191022.777,3749.8981,N,12215.3568,W,1,03,2.7,25.0,M,-25.0,M,,0000*57
$GPGSA,A,2,04,09,02,,,,,,,,,,2.8,2.7,1.0*32
$GPRMC,191022.777,A,3749.8981,N,12215.3568,W,2.99,143.12,131011,,,A*7A
$GPVTG,143.12,T,,M,2.99,N,5.5,K,N*05
$GPGGA,191023.777,3749.8938,N,12215.3492,W,1,03,2.7,25.0,M,-25.0,M,,0000*50
$GPGSA,A,2,04,09,02,,,,,,,,,,2.8,2.7,1.0*32
$GPRMC,191023.777,A,3749.8938,N,12215.3492,W,0.89,108.95,131011,,,A*7E
$GPVTG,108.95,T,,M,0.89,N,1.6,K,N*01
$GPGGA,191024.777,3749.8891,N,12215.3449,W,1,03,2.7,25.0,M,-25.0,M,,0000*53
$GPGSA,A,2,04,09,02,,,,,,,,,,2.8,2.7,1.0*32
$GPRMC,191024.777,A,3749.8891,N,12215.3449,W,0.77,98.50,131011,,,A*4D
$GPVTG,98.50,T,,M,0.77,N,1.4,K,N*33
$GPGGA,191025.777,3749.8927,N,12215.3428,W,1,03,2.7,25.0,M,-25.0,M,,0000*59
$GPGSA,A,2,04,09,02,,,,,,,,,,2.8,2.7,1.0*32
$GPGSV,3,1,10,04,61,087,23,09,59,252,18,27,56,224,22,02,51,177,17*7D
$GPGSV,3,2,10,12,39,311,,17,28,055,17,10,09,122,,28,08,110,*72
$GPGSV,3,3,10,25,08,302,15,14,02,320,*74
$GPRMC,191025.777,A,3749.8927,N,12215.3428,W,1.46,340.73,131011,,,A*73
$GPVTG,340.73,T,,M,1.46,N,2.7,K,N*07
$GPGGA,191026.777,3749.8910,N,12215.3463,W,1,03,2.7,25.0,M,-25.0,M,,0000*51
$GPGSA,A,2,04,09,02,,,,,,,,,,2.8,2.7,1.0*32
$GPRMC,191026.777,A,3749.8910,N,12215.3463,W,1.92,130.56,131011,,,A*70
$GPVTG,130.56,T,,M,1.92,N,3.5,K,N*0F
$GPGGA,191027.777,3749.8994,N,12215.3508,W,1,03,2.7,25.0,M,-25.0,M,,0000*50
$GPGSA,A,2,04,09,02,,,,,,,,,,2.8,2.7,1.0*32
$GPRMC,191027.777,A,3749.8994,N,12215.3508,W,2.40,198.79,131011,,,A*72
$GPVTG,198.79,T,,M,2.40,N,4.4,K,N*0A
$GPGGA,191028.777,3749.9028,N,12215.3581,W,1,03,2.7,25.0,M,-25.0,M,,0000*51
$GPGSA,A,2,04,09,02,,,,,,,,,,2.8,2.7,1.0*32
$GPRMC,191028.777,A,3749.9028,N,12215.3581,W,4.31,241.16,131011,,,A*7D
$GPVTG,241.16,T,,M,4.31,N,8.0,K,N*0C
$GPGGA,191029.777,3749.9059,N,12215.3616,W,1,03,2.7,25.0,M,-25.0,M,,0000*5B
$GPGSA,A,2,04,09,02,,,,,,,,,,2.8,2.7,1.0*32
$GPRMC,191029.777,A,3749.9059,N,12215.3616,W,2.57,269.96,131011,,,A*73
$GPVTG,269.96,T,,M,2.57,N,4.8,K,N*0C
$GPGGA,191043.777,3749.9011,N,12215.3578,W,1,03,2.7,25.0,M,-25.0,M,,0000*50
$GPGSA,A,2,04,09,02,,,,,,,,,,2.8,2.7,1.0*32
$GPRMC,191043.777,A,3749.9011,N,12215.3578,W,0.96,9.62,131011,,,A*78
$GPVTG,9.62,T,,M,0.96,N,1.8,K,N*09
$GPGGA,191044.777,3749.9036,N,12215.3584,W,1,03,2.7,25.0,M,-25.0,M,,0000*51
$GPGSA,A,2,04,09,02,,,,,,,,,,2.8,2.7,1.0*32
$GPRMC,191044.777,A,3749.9036,N,12215.3584,W,0.27,15.79,131011,,,A*44
$GPVTG,15.79,T,,M,0.27,N,0.5,K,N*38
$GPGGA,191045.777,3749.9038,N,12215.3584,W,1,03,2.7,25.0,M,-25.0,M,,0000*5E
$GPGSA,A,2,04,09,02,,,,,,,,,,2.8,2.7,1.0*32
$GPGSV,3,1,11,04,61,087,39,09,59,252,39,27,56,224,37,02,51,177,36*73
$GPGSV,3,2,11,12,39,311,40,17,28,055,40,10,09,122,,28,08,110,*75
$GPGSV,3,3,11,25,08,302,31,14,02,320,,48,44,197,30*43
$GPRMC,191045.777,A,3749.9038,N,12215.3584,W,0.19,348.35,131011,,,A*75
$GPVTG,348.35,T,,M,0.19,N,0.4,K,N*07
$GPGGA,191046.777,3749.9044,N,12215.3575,W,1,03,2.7,25.0,M,-25.0,M,,0000*58
$GPGSA,A,2,04,09,02,,,,,,,,,,2.8,2.7,1.0*32
$GPRMC,191046.777,A,3749.9044,N,12215.3575,W,0.53,117.46,131011,,,A*71
$GPVTG,117.46,T,,M,0.53,N,1.0,K,N*00
$GPGGA,191047.777,3749.9054,N,12215.3554,W,1,03,2.7,25.0,M,-25.0,M,,0000*5B
$GPGSA,A,2,04,09,02,,,,,,,,,,2.8,2.7,1.0*32
$GPRMC,191047.777,A,3749.9054,N,12215.3554,W,0.12,89.86,131011,,,A*4D
$GPVTG,89.86,T,,M,0.12,N,0.2,K,N*3C
$GPGGA,191048.777,3749.8990,N,12215.3561,W,1,03,2.7,25.0,M,-25.0,M,,0000*52
$GPGSA,A,2,04,09,02,,,,,,,,,,2.8,2.7,1.0*32
$GPRMC,191048.777,A,3749.8990,N,12215.3561,W,0.30,348.86,131011,,,A*7A
$GPVTG,348.86,T,,M,0.30,N,0.6,K,N*06
$GPGGA,191049.777,3749.8993,N,12215.3571,W,1,03,2.7,25.0,M,-25.0,M,,0000*51
$GPGSA,A,2,04,09,02,,,,,,,,,,2.8,2.7,1.0*32
$GPRMC,191049.777,A,3749.8993,N,12215.3571,W,0.16,3.78,131011,,,A*70
$GPVTG,3.78,T,,M,0.16,N,0.3,K,N*0A
$GPGGA,191050.777,3749.8983,N,12215.3572,W,1,03,2.7,25.0,M,-25.0,M,,0000*5B
$GPGSA,A,2,04,09,02,,,,,,,,,,2.8,2.7,1.0*32
$GPGSV,3,1,11,04,61,087,40,09,59,252,36,27,56,224,36,02,51,177,34*71
$GPGSV,3,2,11,12,39,311,33,17,28,055,41,10,09,122,,28,08,110,*70
$GPGSV,3,3,11,25,08,302,20,14,02,320,,48,44,197,28*4A
$GPRMC,191050.777,A,3749.8983,N,12215.3572,W,0.19,357.02,131011,,,A*7A
$GPVTG,357.02,T,,M,0.19,N,0.4,K,N*0D
$GPGGA,191051.777,3749.8972,N,12215.3571,W,1,03,2.7,25.0,M,-25.0,M,,0000*57
$GPGSA,A,2,04,09,02,,,,,,,,,,2.8,2.7,1.0*32
$GPRMC,191051.777,A,3749.8972,N,12215.3571,W,0.26,350.56,131011,,,A*7C
$GPVTG,350.56,T,,M,0.26,N,0.5,K,N*06
$GPGGA,191052.777,3749.9001,N,12215.3577,W,1,03,2.7,25.0,M,-25.0,M,,0000*5E
$GPGSA,A,2,04,09,02,,,,,,,,,,2.8,2.7,1.0*32
$GPRMC,191052.777,A,3749.9001,N,12215.3577,W,0.26,353.84,131011,,,A*79
$GPVTG,353.84,T,,M,0.26,N,0.5,K,N*0A
$GPGGA,191053.777,3749.9018,N,12215.3581,W,1,03,2.7,25.0,M,-25.0,M,,0000*5E
$GPGSA,A,2,04,09,02,,,,,,,,,,2.8,2.7,1.0*32
$GPRMC,191053.777,A,3749.9018,N,12215.3581,W,0.20,347.13,131011,,,A*74
$GPVTG,347.13,T,,M,0.20,N,0.4,K,N*06
$GPGGA,191054.777,3749.9016,N,12215.3580,W,1,03,2.7,25.0,M,-25.0,M,,0000*56
$GPGSA,A,2,04,09,02,,,,,,,,,,2.8,2.7,1.0*32
$GPRMC,191054.777,A,3749.9016,N,12215.3580,W,0.29,345.58,131011,,,A*78
$GPVTG,345.58,T,,M,0.29,N,0.5,K,N*03
$GPGGA,191055.777,3749.9013,N,12215.3580,W,1,03,2.7,25.0,M,-25.0,M,,0000*52
$GPGSA,A,2,04,09,02,,,,,,,,,,2.8,2.7,1.0*32
$GPGSV,3,1,11,04,61,087,40,09,59,252,36,27,56,224,37,02,51,177,34*70
$GPGSV,3,2,11,12,39,311,34,17,28,055,42,10,09,122,,28,08,110,*74
$GPGSV,3,3,11,25,08,302,23,14,02,320,,48,44,197,29*48
$GPRMC,191055.777,A,3749.9013,N,12215.3580,W,0.16,33.73,131011,,,A*4B
$GPVTG,33.73,T,,M,0.16,N,0.3,K,N*32
$GPGGA,191056.777,3749.9012,N,12215.3579,W,1,03,2.7,25.0,M,-25.0,M,,0000*56
$GPGSA,A,2,04,09,02,,,,,,,,,,2.8,2.7,1.0*32
$GPRMC,191056.777,A,3749.9012,N,12215.3579,W,0.20,341.82,131011,,,A*72
$GPVTG,341.82,T,,M,0.20,N,0.4,K,N*08
$GPGGA,191057.777,3749.9012,N,12215.3577,W,1,03,2.7,25.0,M,-25.0,M,,0000*59
$GPGSA,A,2,04,09,02,,,,,,,,,,2.8,2.7,1.0*32
$GPRMC,191057.777,A,3749.9012,N,12215.3577,W,0.29,357.96,131011,,,A*76
$GPVTG,357.96,T,,M,0.29,N,0.5,K,N*02
$GPGGA,191058.777,3749.9014,N,12215.3577,W,1,03,2.7,25.0,M,-25.0,M,,0000*50
$GPGSA,A,2,04,09,02,,,,,,,,,,2.8,2.7,1.0*32
$GPRMC,191058.777,A,3749.9014,N,12215.3577,W,0.24,20.68,131011,,,A*40
$GPVTG,20.68,T,,M,0.24,N,0.5,K,N*3D
$GPGGA,191059.777,3749.9018,N,12215.3580,W,1,03,2.7,25.0,M,-25.0,M,,0000*55
$GPGSA,A,2,04,09,02,,,,,,,,,,2.8,2.7,1.0*32
$GPRMC,191059.777,A,3749.9018,N,12215.3580,W,0.20,341.01,131011,,,A*7A
$GPVTG,341.01,T,,M,0.20,N,0.4,K,N*03
$GPGGA,191100.777,3749.9022,N,12215.3580,W,1,03,2.7,25.0,M,-25.0,M,,0000*51
$GPGSA,A,2,04,09,02,,,,,,,,,,2.8,2.7,1.0*32
$GPGSV,3,1,11,04,61,087,41,09,59,252,36,27,56,224,37,02,51,177,34*71
$GPGSV,3,2,11,12,39,311,33,17,28,055,42,10,09,122,,28,08,110,*73
$GPGSV,3,3,11,25,08,302,22,14,02,320,,48,44,197,31*40
$GPRMC,191100.777,A,3749.9022,N,12215.3580,W,0.35,353.22,131011,,,A*78
$GPVTG,353.22,T,,M,0.35,N,0.6,K,N*07
$GPGGA,191101.777,3749.9022,N,12215.3580,W,1,03,2.7,25.0,M,-25.0,M,,0000*50
$GPGSA,A,2,04,09,02,,,,,,,,,,2.8,2.7,1.0*32
$GPRMC,191101.777,A,3749.9022,N,12215.3580,W,0.23,324.67,131011,,,A*7F
$GPVTG,324.67,T,,M,0.23,N,0.4,K,N*03
$GPGGA,191102.777,3749.9023,N,12215.3580,W,1,03,2.7,25.0,M,-25.0,M,,0000*52
$GPGSA,A,2,04,09,02,,,,,,,,,,2.8,2.7,1.0*32
$GPRMC,191102.777,A,3749.9023,N,12215.3580,W,0.17,316.78,131011,,,A*75
$GPVTG,316.78,T,,M,0.17,N,0.3,K,N*0C
$GPGGA,191103.777,3749.9022,N,12215.3579,W,1,03,2.7,25.0,M,-25.0,M,,0000*54
$GPGSA,A,2,04,09,02,,,,,,,,,,2.8,2.7,1.0*32
$GPRMC,191103.777,A,3749.9022,N,12215.3579,W,0.27,347.52,131011,,,A*7C
$GPVTG,347.52,T,,M,0.27,N,0.5,K,N*05
$GPGGA,191104.777,3749.9015,N,12215.3578,W,1,04,2.1,34.0,M,-25.0,M,,0000*57
$GPGSA,A,3,04,09,12,02,,,,,,,,,7.4,2.1,7.1*38
$GPRMC,191104.777,A,3749.9015,N,12215.3578,W,0.37,195.23,131011,,,A*74
$GPVTG,195.23,T,,M,0.37,N,0.7,K,A*02
$GPGGA,191105.777,3749.9012,N,12215.3578,W,1,04,2.1,32.6,M,-25.0,M,,0000*51
$GPGSA,A,3,04,09,12,02,,,,,,,,,7.4,2.1,7.1*38
$GPGSV,3,1,11,04,60,086,41,09,59,251,36,27,56,224,36,02,52,177,34*70
$GPGSV,3,2,11,12,39,312,33,17,28,055,42,10,09,122,,25,08,302,24*7A
$GPGSV,3,3,11,28,08,111,,14,02,320,,48,44,197,27*4A
$GPRMC,191105.777,A,3749.9012,N,12215.3578,W,0.08,331.13,131011,,,A*71
$GPVTG,331.13,T,,M,0.08,N,0.1,K,A*07
$GPGGA,191106.777,3749.9012,N,12215.3578,W,1,04,2.1,32.7,M,-25.0,M,,0000*53
$GPGSA,A,3,04,09,12,02,,,,,,,,,7.4,2.1,7.1*38
$GPRMC,191106.777,A,3749.9012,N,12215.3578,W,0.07,310.38,131011,,,A*77
$GPVTG,310.38,T,,M,0.07,N,0.1,K,A*02
$GPGGA,191107.000,3749.9012,N,12215.3578,W,1,04,2.1,32.7,M,-25.0,M,,0000*55
$GPGSA,A,3,04,09,12,02,,,,,,,,,7.4,2.1,7.2*3B
$GPRMC,191107.000,A,3749.9012,N,12215.3578,W,0.11,314.72,131011,,,A*7C
$GPVTG,314.72,T,,M,0.11,N,0.2,K,A*0C
$GPGGA,191108.000,3749.9012,N,12215.3577,W,1,04,2.1,32.8,M,-25.0,M,,0000*5A
$GPGSA,A,3,04,09,12,02,,,,,,,,,7.5,2.1,7.2*3A
$GPRMC,191108.000,A,3749.9012,N,12215.3577,W,0.09,342.15,131011,,,A*77
$GPVTG,342.15,T,,M,0.09,N,0.2,K,A*07
$GPGGA,191109.000,3749.9012,N,12215.3577,W,1,04,2.1,32.8,M,-25.0,M,,0000*5B
$GPGSA,A,3,04,09,12,02,,,,,,,,,7.5,2.1,7.2*3A
$GPRMC,191109.000,A,3749.9012,N,12215.3577,W,0.08,312.64,131011,,,A*74
$GPVTG,312.64,T,,M,0.08,N,0.1,K,A*06
$GPGGA,191110.000,3749.9012,N,12215.3577,W,1,04,2.1,32.7,M,-25.0,M,,0000*5C
$GPGSA,A,3,04,09,12,02,,,,,,,,,7.5,2.1,7.2*3A
$GPGSV,3,1,11,04,60,086,41,09,59,251,35,27,56,224,35,02,52,177,34*70
$GPGSV,3,2,11,12,39,312,33,17,28,055,42,10,09,122,,25,08,302,25*7B
$GPGSV,3,3,11,28,08,111,,14,02,320,,48,44,197,26*4B
$GPVTG,336.20,T,,M,0.10,N,0.2,K,A*0A
$GPGGA,191111.000,3749.9011,N,12215.3576,W,1,04,2.1,32.6,M,-25.0,M,,0000*5E
$GPGSA,A,3,04,09,12,02,,,,,,,,,7.5,2.1,7.2*3A
$GPRMC,191111.000,A,3749.9011,N,12215.3576,W,0.06,309.75,131011,,,A*7B
$GPVTG,309.75,T,,M,0.06,N,0.1,K,A*02
$GPGGA,191112.000,3749.9011,N,12215.3576,W,1,04,2.1,32.4,M,-25.0,M,,0000*5F
$GPGSA,A,3,04,09,12,02,,,,,,,,,7.5,2.1,7.2*3A
$GPRMC,191112.000,A,3749.9011,N,12215.3576,W,0.04,354.39,131011,,,A*7A
$GPVTG,354.39,T,,M,0.04,N,0.1,K,A*00
$GPGGA,191113.000,3749.9011,N,12215.3575,W,1,04,2.1,32.4,M,-25.0,M,,0000*5D
$GPGSA,A,3,04,09,12,02,,,,,,,,,7.5,2.1,7.2*3A
$GPRMC,191113.000,A,3749.9011,N,12215.3575,W,0.03,329.03,131011,,,A*7C
$GPVTG,329.03,T,,M,0.03,N,0.1,K,A*04
$GPGGA,191114.000,3749.9010,N,12215.3575,W,1,04,2.1,32.1,M,-25.0,M,,0000*5E
$GPGSA,A,3,04,09,12,02,,,,,,,,,7.5,2.1,7.2*3A
$GPRMC,191114.000,A,3749.9010,N,12215.3575,W,0.09,335.64,131011,,,A*7C
$GPVTG,335.64,T,,M,0.09,N,0.2,K,A*01
$GPGGA,191115.000,3749.9010,N,12215.3575,W,1,04,2.1,31.7,M,-25.0,M,,0000*5A
$GPGSA,A,3,04,09,12,02,,,,,,,,,7.5,2.1,7.2*3A
$GPGSV,3,1,10,04,60,086,41,09,59,251,35,27,56,224,35,02,52,177,33*76
$GPGSV,3,2,10,12,39,312,28,17,28,055,42,10,09,122,,25,08,302,25*70
$GPGSV,3,3,10,28,08,111,,14,02,320,*7D
$GPRMC,191115.000,A,3749.9010,N,12215.3575,W,0.05,313.60,131011,,,A*71
$GPVTG,313.60,T,,M,0.05,N,0.1,K,A*0E
$GPGGA,191116.000,3749.9010,N,12215.3575,W,1,04,2.1,31.3,M,-25.0,M,,0000*5D
$GPGSA,A,3,04,09,12,02,,,,,,,,,7.5,2.1,7.2*3A
$GPRMC,191116.000,A,3749.9010,N,12215.3575,W,0.10,343.25,131011,,,A*72
$GPVTG,343.25,T,,M,0.10,N,0.2,K,A*0D
$GPGGA,191117.000,3749.9010,N,12215.3575,W,1,04,2.1,31.4,M,-25.0,M,,0000*5B
$GPGSA,A,3,04,09,12,02,,,,,,,,,7.5,2.1,7.2*3A
$GPRMC,191117.000,A,3749.9010,N,12215.3575,W,0.06,305.11,131011,,,A*71
$GPVTG,305.11,T,,M,0.06,N,0.1,K,A*0C
$GPGGA,191118.000,3749.9010,N,12215.3575,W,1,04,2.1,31.5,M,-25.0,M,,0000*55
$GPGSA,A,3,04,09,12,02,,,,,,,,,7.5,2.1,7.2*3A
$GPRMC,191118.000,A,3749.9010,N,12215.3575,W,0.11,356.56,131011,,,A*7D
$GPVTG,356.56,T,,M,0.11,N,0.2,K,A*0C
$GPGGA,191119.000,3749.9009,N,12215.3574,W,1,04,2.1,31.0,M,-25.0,M,,0000*58
$GPGSA,A,3,04,09,12,02,,,,,,,,,7.5,2.1,7.2*3A
$GPRMC,191119.000,A,3749.9009,N,12215.3574,W,0.05,40.83,131011,,,A*4C
$GPVTG,40.83,T,,M,0.05,N,0.1,K,A*36
$GPGGA,191120.000,3749.9008,N,12215.3574,W,1,04,2.1,30.7,M,-25.0,M,,0000*55
$GPGSA,A,3,04,09,12,02,,,,,,,,,7.5,2.1,7.2*3A
$GPGSV,3,1,11,04,60,086,41,09,59,251,34,27,56,224,35,02,52,177,33*76
$GPGSV,3,2,11,12,39,312,30,17,28,055,41,10,10,122,,25,08,303,26*71
$GPGSV,3,3,11,28,08,111,,14,02,320,,51,43,156,28*47
$GPRMC,191120.000,A,3749.9008,N,12215.3574,W,0.04,18.96,131011,,,A*4F
$GPVTG,18.96,T,,M,0.04,N,0.1,K,A*3E
$GPGGA,191121.000,3749.9007,N,12215.3574,W,1,04,2.1,30.4,M,-25.0,M,,0000*58
$GPGSA,A,3,04,09,12,02,,,,,,,,,7.5,2.1,7.2*3A
$GPRMC,191121.000,A,3749.9007,N,12215.3574,W,0.05,358.74,131011,,,A*7B
$GPVTG,358.74,T,,M,0.05,N,0.1,K,A*04
$GPGGA,191122.000,3749.9007,N,12215.3574,W,1,04,2.1,30.2,M,-25.0,M,,0000*5D
$GPGSA,A,3,04,09,12,02,,,,,,,,,7.5,2.1,7.2*3A
$GPRMC,191122.000,A,3749.9007,N,12215.3574,W,0.02,23.49,131011,,,A*4E
$GPVTG,23.49,T,,M,0.02,N,0.0,K,A*33
$GPGGA,191123.000,3749.9006,N,12215.3574,W,1,04,2.1,30.0,M,-25.0,M,,0000*5F
$GPGSA,A,3,04,09,12,02,,,,,,,,,7.5,2.1,7.2*3A
$GPRMC,191123.000,A,3749.9006,N,12215.3574,W,0.04,287.04,131011,,,A*7D
$GPVTG,287.04,T,,M,0.04,N,0.1,K,A*01
$GPGGA,191124.000,3749.9006,N,12215.3574,W,1,04,2.1,30.1,M,-25.0,M,,0000*59
$GPGSA,A,3,04,09,12,02,,,,,,,,,7.5,2.1,7.2*3A
$GPRMC,191124.000,A,3749.9006,N,12215.3574,W,0.10,16.01,131011,,,A*40
$GPVTG,16.01,T,,M,0.10,N,0.2,K,A*38
$GPGGA,191125.000,3749.9006,N,12215.3574,W,1,04,2.1,29.9,M,-25.0,M,,0000*58
$GPGSA,A,3,04,09,12,02,,,,,,,,,7.5,2.1,7.3*3B
$GPGSV,3,1,11,04,60,086,41,09,59,251,34,27,56,224,35,02,52,177,33*76
$GPGSV,3,2,11,12,39,312,30,17,28,055,41,10,10,122,,25,08,303,27*70
$GPGSV,3,3,11,28,08,111,,14,02,320,,51,43,156,28*47
$GPRMC,191125.000,A,3749.9006,N,12215.3574,W,0.03,16.20,131011,,,A*40
$GPVTG,16.20,T,,M,0.03,N,0.1,K,A*3A
$GPGGA,191126.000,3749.9005,N,12215.3574,W,1,04,2.1,29.8,M,-25.0,M,,0000*59
$GPGSA,A,3,04,09,12,02,,,,,,,,,7.6,2.1,7.3*38
$GPRMC,191126.000,A,3749.9005,N,12215.3574,W,0.04,274.40,131011,,,A*77
$GPVTG,274.40,T,,M,0.04,N,0.1,K,A*0D
$GPGGA,191127.000,3749.9005,N,12215.3574,W,1,04,2.1,29.6,M,-25.0,M,,0000*56
$GPGSA,A,3,04,09,12,02,,,,,,,,,7.6,2.1,7.3*38
$GPRMC,191127.000,A,3749.9005,N,12215.3574,W,0.04,207.14,131011,,,A*73
$GPVTG,207.14,T,,M,0.04,N,0.1,K,A*08
$GPGGA,191128.000,3749.9004,N,12215.3574,W,1,04,2.1,29.5,M,-25.0,M,,0000*5B
$GPGSA,A,3,04,09,12,02,,,,,,,,,7.6,2.1,7.3*38
$GPRMC,191128.000,A,3749.9004,N,12215.3574,W,0.07,69.11,131011,,,A*41
$GPVTG,69.11,T,,M,0.07,N,0.1,K,A*34
$GPGGA,191129.000,3749.9005,N,12215.3574,W,1,04,2.1,29.2,M,-25.0,M,,0000*5C
$GPGSA,A,3,04,09,12,02,,,,,,,,,7.6,2.1,7.3*38
$GPRMC,191129.000,A,3749.9005,N,12215.3574,W,0.16,352.00,131011,,,A*7A
$GPVTG,352.00,T,,M,0.16,N,0.3,K,A*0D
$GPGGA,191130.000,3749.9005,N,12215.3574,W,1,04,2.1,29.1,M,-25.0,M,,0000*57
$GPGSA,A,3,04,09,12,02,,,,,,,,,7.6,2.1,7.3*38
$GPGSV,3,1,11,04,60,086,41,09,59,251,36,27,56,224,36,02,52,177,33*77
$GPGSV,3,2,11,12,39,312,26,17,28,055,37,10,10,122,,25,08,303,28*79
$GPGSV,3,3,11,28,08,111,,14,02,320,,51,43,156,28*47
$GPRMC,191130.000,A,3749.9005,N,12215.3574,W,0.06,109.93,131011,,,A*75
$GPVTG,109.93,T,,M,0.06,N,0.1,K,A*08
$GPGGA,191131.000,3749.9005,N,12215.3574,W,1,04,2.1,28.8,M,-25.0,M,,0000*5E
$GPGSA,A,3,04,09,12,02,,,,,,,,,7.6,2.1,7.3*38
$GPRMC,191131.000,A,3749.9005,N,12215.3574,W,0.06,38.72,131011,,,A*48
$GPVTG,38.72,T,,M,0.06,N,0.1,K,A*34
$GPGGA,191132.000,3749.9005,N,12215.3574,W,1,04,2.1,28.6,M,-25.0,M,,0000*53
$GPGSA,A,3,04,09,12,02,,,,,,,,,7.6,2.1,7.3*38
$GPRMC,191132.000,A,3749.9005,N,12215.3574,W,0.03,21.28,131011,,,A*49
$GPVTG,21.28,T,,M,0.03,N,0.1,K,A*36
$GPGGA,191133.000,3749.9005,N,12215.3574,W,1,04,2.1,28.3,M,-25.0,M,,0000*57
$GPGSA,A,3,04,09,12,02,,,,,,,,,7.6,2.1,7.3*38
$GPRMC,191133.000,A,3749.9005,N,12215.3574,W,0.01,117.25,131011,,,A*73
$GPVTG,117.25,T,,M,0.01,N,0.0,K,A*0C
$GPGGA,191134.000,3749.9006,N,12215.3574,W,1,04,2.1,27.9,M,-25.0,M,,0000*56
$GPGSA,A,3,04,09,12,02,,,,,,,,,7.6,2.1,7.3*38
$GPRMC,191134.000,A,3749.9006,N,12215.3574,W,0.03,18.20,131011,,,A*4E
$GPVTG,18.20,T,,M,0.03,N,0.1,K,A*34
$GPGGA,191135.000,3749.9005,N,12215.3574,W,1,04,2.1,28.0,M,-25.0,M,,0000*52
$GPGSA,A,3,04,09,12,02,,,,,,,,,7.6,2.1,7.3*38
$GPGSV,3,1,11,04,60,086,41,09,59,251,36,27,56,224,35,02,52,177,33*74
$GPGSV,3,2,11,12,39,312,29,17,28,055,39,10,10,122,,25,08,303,11*72
$GPGSV,3,3,11,28,08,111,,14,02,320,,51,43,156,30*4E
$GPRMC,191135.000,A,3749.9005,N,12215.3574,W,0.24,338.68,131011,,,A*74
$GPVTG,338.68,T,,M,0.24,N,0.4,K,A*09
$GPGGA,191136.000,3749.9004,N,12215.3574,W,1,04,2.1,28.6,M,-25.0,M,,0000*56
$GPGSA,A,3,04,09,12,02,,,,,,,,,7.6,2.1,7.3*38
$GPRMC,191136.000,A,3749.9004,N,12215.3574,W,0.02,100.17,131011,,,A*73
$GPVTG,100.17,T,,M,0.02,N,0.0,K,A*08
$GPGGA,191137.000,3749.9003,N,12215.3573,W,1,04,2.1,29.0,M,-25.0,M,,0000*50
$GPGSA,A,3,04,09,12,02,,,,,,,,,7.6,2.1,7.3*38
$GPRMC,191137.000,A,3749.9003,N,12215.3573,W,0.03,36.39,131011,,,A*4B
$GPVTG,36.39,T,,M,0.03,N,0.0,K,A*31
$GPGGA,191138.000,3749.9007,N,12215.3574,W,1,04,2.1,27.2,M,-25.0,M,,0000*50
$GPGSA,A,3,04,09,12,02,,,,,,,,,7.6,2.1,7.3*38
$GPRMC,191138.000,A,3749.9007,N,12215.3574,W,0.09,79.91,131011,,,A*44
$GPVTG,79.91,T,,M,0.09,N,0.2,K,A*30
$GPGGA,191139.000,3749.9009,N,12215.3574,W,1,04,2.1,26.3,M,-25.0,M,,0000*5F
$GPGSA,A,3,04,09,12,02,,,,,,,,,7.6,2.1,7.3*38
$GPRMC,191139.000,A,3749.9009,N,12215.3574,W,0.25,24.80,131011,,,A*4D
$GPVTG,24.80,T,,M,0.25,N,0.5,K,A*31
$GPGGA,191140.000,3749.9010,N,12215.3574,W,1,04,2.1,25.8,M,-25.0,M,,0000*51
$GPGSA,A,3,04,09,12,02,,,,,,,,,7.6,2.1,7.3*38
$GPGSV,3,1,11,04,60,086,41,09,59,251,35,27,56,224,35,02,52,177,33*77
$GPGSV,3,2,11,12,39,312,29,17,28,055,38,10,10,122,,25,08,303,27*76
$GPGSV,3,3,11,28,08,111,,14,02,320,,51,43,156,22*4D
$GPRMC,191140.000,A,3749.9010,N,12215.3574,W,0.12,76.89,131011,,,A*41
$GPVTG,76.89,T,,M,0.12,N,0.2,K,A*3C
$GPGGA,191141.000,3749.9010,N,12215.3574,W,1,04,2.1,25.3,M,-25.0,M,,0000*5B
$GPGSA,A,3,04,09,12,02,,,,,,,,,7.6,2.1,7.3*38
$GPRMC,191141.000,A,3749.9010,N,12215.3574,W,0.08,59.30,131011,,,A*44
$GPVTG,59.30,T,,M,0.08,N,0.2,K,A*38
$GPGGA,191142.000,3749.9011,N,12215.3574,W,1,04,2.1,25.0,M,-25.0,M,,0000*5A
$GPGSA,A,3,04,09,12,02,,,,,,,,,7.6,2.1,7.4*3F
$GPRMC,191142.000,A,3749.9011,N,12215.3574,W,0.07,96.78,131011,,,A*46
$GPVTG,96.78,T,,M,0.07,N,0.1,K,A*3B
$GPGGA,191143.000,3749.9010,N,12215.3573,W,1,04,2.1,24.8,M,-25.0,M,,0000*54
$GPGSA,A,3,04,09,12,02,,,,,,,,,7.7,2.1,7.4*3E
$GPRMC,191143.000,A,3749.9010,N,12215.3573,W,0.12,78.44,131011,,,A*4A
$GPVTG,78.44,T,,M,0.12,N,0.2,K,A*33
$GPGGA,191144.000,3749.9010,N,12215.3573,W,1,04,2.1,24.6,M,-25.0,M,,0000*5D
$GPGSA,A,3,04,09,12,02,,,,,,,,,7.7,2.1,7.4*3E
$GPRMC,191144.000,A,3749.9010,N,12215.3573,W,0.05,113.53,131011,,,A*71
$GPVTG,113.53,T,,M,0.05,N,0.1,K,A*0C
$GPGGA,191145.000,3749.9010,N,12215.3573,W,1,04,2.1,24.4,M,-25.0,M,,0000*5E
$GPGSA,A,3,04,09,12,02,,,,,,,,,7.7,2.1,7.4*3E
$GPGSV,3,1,11,04,60,086,41,09,59,251,32,27,56,224,34,02,52,177,32*70
$GPGSV,3,2,11,12,39,312,32,17,28,055,40,10,10,122,,25,08,303,24*70
$GPGSV,3,3,11,28,08,111,,14,02,320,,51,43,156,27*48
$GPRMC,191145.000,A,3749.9010,N,12215.3573,W,0.06,135.79,131011,,,A*7F
$GPVTG,135.79,T,,M,0.06,N,0.1,K,A*03
$GPGGA,191146.000,3749.9010,N,12215.3573,W,1,04,2.1,24.2,M,-25.0,M,,0000*5B
$GPGSA,A,3,04,09,12,02,,,,,,,,,7.7,2.1,7.4*3E
$GPRMC,191146.000,A,3749.9010,N,12215.3573,W,0.17,107.22,131011,,,A*73
$GPVTG,107.22,T,,M,0.17,N,0.3,K,A*0E
$GPGGA,191147.000,3749.9009,N,12215.3572,W,1,04,2.1,24.1,M,-25.0,M,,0000*50
$GPGSA,A,3,04,09,12,02,,,,,,,,,7.7,2.1,7.4*3E
$GPRMC,191147.000,A,3749.9009,N,12215.3572,W,0.19,77.62,131011,,,A*47
$GPVTG,77.62,T,,M,0.19,N,0.3,K,A*32
$GPGGA,191148.000,3749.9009,N,12215.3571,W,1,04,2.1,24.0,M,-25.0,M,,0000*5D
$GPGSA,A,3,04,09,12,02,,,,,,,,,7.7,2.1,7.4*3E
$GPRMC,191148.000,A,3749.9009,N,12215.3571,W,0.24,90.88,131011,,,A*48
$GPVTG,90.88,T,,M,0.24,N,0.4,K,A*36
$GPGGA,191149.000,3749.9010,N,12215.3571,W,1,04,2.1,23.9,M,-25.0,M,,0000*5A
$GPGSA,A,3,04,09,12,02,,,,,,,,,7.7,2.1,7.4*3E
$GPRMC,191149.000,A,3749.9010,N,12215.3571,W,0.51,0.08,131011,,,A*72
$GPVTG,0.08,T,,M,0.51,N,0.9,K,A*08
$GPGGA,191150.000,3749.9012,N,12215.3570,W,1,04,2.1,23.9,M,-25.0,M,,0000*51
$GPGSA,A,3,04,09,12,02,,,,,,,,,7.7,2.1,7.4*3E
$GPGSV,3,1,11,04,60,085,40,09,59,251,38,27,56,223,39,02,52,177,39*79
$GPGSV,3,2,11,12,39,312,32,17,27,055,34,10,10,122,,25,08,303,26*7E
$GPGSV,3,3,11,28,08,111,,14,02,319,,51,43,156,32*46
$GPVTG,38.51,T,,M,0.82,N,1.5,K,A*3C
$GPGGA,191151.000,3749.9014,N,12215.3568,W,1,04,2.1,24.1,M,-25.0,M,,0000*50
$GPGSA,A,3,04,09,12,02,,,,,,,,,7.7,2.1,7.4*3E
$GPRMC,191151.000,A,3749.9014,N,12215.3568,W,1.06,42.51,131011,,,A*4E
$GPVTG,42.51,T,,M,1.06,N,2.0,K,A*3A
$GPGGA,191152.000,3749.9015,N,12215.3565,W,1,04,2.1,24.3,M,-25.0,M,,0000*5D
$GPGSA,A,3,04,09,12,02,,,,,,,,,7.7,2.1,7.4*3E
$GPRMC,191152.000,A,3749.9015,N,12215.3565,W,1.14,74.39,131011,,,A*49
$GPVTG,74.39,T,,M,1.14,N,2.1,K,A*33
$GPGGA,191153.000,3749.9017,N,12215.3562,W,1,04,2.1,24.3,M,-25.0,M,,0000*59
$GPGSA,A,3,04,09,12,02,,,,,,,,,7.7,2.1,7.4*3E
$GPRMC,191153.000,A,3749.9017,N,12215.3562,W,1.05,43.49,131011,,,A*4E
$GPVTG,43.49,T,,M,1.05,N,1.9,K,A*3B
$GPGGA,191154.000,3749.9019,N,12215.3560,W,1,04,2.1,24.5,M,-25.0,M,,0000*54
$GPGSA,A,3,04,09,12,02,,,,,,,,,7.7,2.1,7.4*3E
$GPRMC,191154.000,A,3749.9019,N,12215.3560,W,1.12,66.20,131011,,,A*4B
$GPVTG,66.20,T,,M,1.12,N,2.1,K,A*3E
$GPGGA,191155.000,3749.9020,N,12215.3556,W,1,04,2.1,24.5,M,-25.0,M,,0000*5A
$GPGSA,A,3,04,09,12,02,,,,,,,,,7.7,2.1,7.4*3E
$GPGSV,3,1,11,04,60,085,36,09,59,251,39,27,56,223,39,02,52,177,40*77
$GPGSV,3,2,11,12,39,312,36,17,27,055,29,10,10,122,,25,08,303,29*79
$GPGSV,3,3,11,28,08,111,,14,02,319,,51,43,156,40*43
$GPRMC,191155.000,A,3749.9020,N,12215.3556,W,1.21,58.25,131011,,,A*4D
$GPVTG,58.25,T,,M,1.21,N,2.2,K,A*35
$GPGGA,191156.000,3749.9022,N,12215.3553,W,1,04,2.1,24.6,M,-25.0,M,,0000*5D
$GPGSA,A,3,04,09,12,02,,,,,,,,,7.7,2.1,7.4*3E
$GPRMC,191156.000,A,3749.9022,N,12215.3553,W,1.20,46.30,131011,,,A*43
$GPVTG,46.30,T,,M,1.20,N,2.2,K,A*3F
$GPGGA,191157.000,3749.9024,N,12215.3550,W,1,04,2.1,24.8,M,-25.0,M,,0000*57
$GPGSA,A,3,04,09,12,02,,,,,,,,,7.7,2.1,7.4*3E
$GPRMC,191157.000,A,3749.9024,N,12215.3550,W,1.24,60.95,131011,,,A*48
$GPVTG,60.95,T,,M,1.24,N,2.3,K,A*31
$GPGGA,191158.000,3749.9026,N,12215.3546,W,1,04,2.1,25.0,M,-25.0,M,,0000*54
$GPGSA,A,3,04,09,12,02,,,,,,,,,7.7,2.1,7.5*3F
$GPRMC,191158.000,A,3749.9026,N,12215.3546,W,1.27,52.90,131011,,,A*45
$GPVTG,52.90,T,,M,1.27,N,2.4,K,A*31
$GPGGA,191159.000,3749.9028,N,12215.3542,W,1,04,2.1,25.1,M,-25.0,M,,0000*5E
$GPGSA,A,3,04,09,12,02,,,,,,,,,7.7,2.1,7.5*3F
$GPRMC,191159.000,A,3749.9028,N,12215.3542,W,1.29,63.76,131011,,,A*4A
$GPVTG,63.76,T,,M,1.29,N,2.4,K,A*35
$GPGGA,191200.000,3749.9030,N,12215.3539,W,1,04,2.1,25.2,M,-25.0,M,,0000*57
$GPGSA,A,3,04,09,12,02,,,,,,,,,7.8,2.1,7.5*30
$GPGSV,3,1,11,04,60,085,35,09,59,251,39,27,56,223,39,02,52,177,40*74
$GPGSV,3,2,11,12,39,312,36,17,27,055,29,10,10,122,,25,08,303,29*79
$GPGSV,3,3,11,28,08,111,,14,02,319,,51,43,156,38*4C
$GPRMC,191200.000,A,3749.9030,N,12215.3539,W,1.19,62.73,131011,,,A*47
$GPVTG,62.73,T,,M,1.19,N,2.2,K,A*34
$GPGGA,191201.000,3749.9032,N,12215.3535,W,1,04,2.1,25.4,M,-25.0,M,,0000*5E
$GPGSA,A,3,04,09,12,02,,,,,,,,,7.8,2.1,7.5*30
$GPRMC,191201.000,A,3749.9032,N,12215.3535,W,1.22,52.98,131011,,,A*46
$GPVTG,52.98,T,,M,1.22,N,2.3,K,A*3B
$GPGGA,191202.000,3749.9033,N,12215.3532,W,1,04,2.1,25.5,M,-25.0,M,,0000*5A
$GPGSA,A,3,04,09,12,02,,,,,,,,,7.8,2.1,7.5*30
$GPRMC,191202.000,A,3749.9033,N,12215.3532,W,1.31,71.22,131011,,,A*41
$GPVTG,71.22,T,,M,1.31,N,2.4,K,A*3E
$GPGGA,191203.000,3749.9034,N,12215.3527,W,1,04,2.1,25.7,M,-25.0,M,,0000*5A
$GPGSA,A,3,04,09,12,02,,,,,,,,,7.8,2.1,7.5*30
$GPRMC,191203.000,A,3749.9034,N,12215.3527,W,1.44,72.86,131011,,,A*4C
$GPVTG,72.86,T,,M,1.44,N,2.7,K,A*32
$GPGGA,191204.000,3749.9036,N,12215.3523,W,1,04,2.1,25.8,M,-25.0,M,,0000*54
$GPGSA,A,3,04,09,12,02,,,,,,,,,7.8,2.1,7.5*30
$GPRMC,191204.000,A,3749.9036,N,12215.3523,W,1.32,74.13,131011,,,A*46
$GPVTG,74.13,T,,M,1.32,N,2.4,K,A*3A
$GPGGA,191205.000,3749.9036,N,12215.3518,W,1,04,2.1,26.0,M,-25.0,M,,0000*56
$GPGSA,A,3,04,09,12,02,,,,,,,,,7.8,2.1,7.5*30
$GPGSV,3,1,11,04,60,085,35,09,59,251,39,27,56,223,39,02,52,177,40*74
$GPGSV,3,2,11,12,39,312,36,17,27,055,28,10,10,122,,25,08,303,29*78
$GPGSV,3,3,11,28,08,111,,14,02,319,,51,43,156,37*43
$GPRMC,191205.000,A,3749.9036,N,12215.3518,W,1.44,83.77,131011,,,A*44
$GPVTG,83.77,T,,M,1.44,N,2.7,K,A*32
$GPGGA,191206.000,3749.9037,N,12215.3513,W,1,04,2.1,26.2,M,-25.0,M,,0000*5D
$GPGSA,A,3,04,09,12,02,,,,,,,,,7.8,2.1,7.5*30
$GPRMC,191206.000,A,3749.9037,N,12215.3513,W,1.49,72.57,131011,,,A*4C
$GPVTG,72.57,T,,M,1.49,N,2.8,K,A*3C
$GPGGA,191207.000,3749.9039,N,12215.3508,W,1,04,2.1,26.5,M,-25.0,M,,0000*5F
$GPGSA,A,3,04,09,12,02,,,,,,,,,7.8,2.1,7.5*30
$GPRMC,191207.000,A,3749.9039,N,12215.3508,W,1.60,71.06,131011,,,A*45
$GPVTG,71.06,T,,M,1.60,N,3.0,K,A*39
$GPGGA,191208.000,3749.9040,N,12215.3502,W,1,04,2.1,26.8,M,-25.0,M,,0000*59
$GPGSA,A,3,04,09,12,02,,,,,,,,,7.8,2.1,7.5*30
$GPRMC,191208.000,A,3749.9040,N,12215.3502,W,1.83,82.78,131011,,,A*46
$GPVTG,82.78,T,,M,1.83,N,3.4,K,A*35
$GPGGA,191209.000,3749.9040,N,12215.3496,W,1,04,2.1,27.1,M,-25.0,M,,0000*5C
$GPGSA,A,3,04,09,12,02,,,,,,,,,7.8,2.1,7.5*30
$GPRMC,191209.000,A,3749.9040,N,12215.3496,W,1.77,80.48,131011,,,A*41
$GPVTG,80.48,T,,M,1.77,N,3.3,K,A*38
$GPGGA,191210.000,3749.9042,N,12215.3490,W,1,04,2.1,27.2,M,-25.0,M,,0000*53
$GPGSA,A,3,04,09,12,02,,,,,,,,,7.8,2.1,7.5*30
$GPGSV,3,1,11,04,60,085,35,09,59,251,39,27,56,223,39,02,52,177,40*74
$GPGSV,3,2,11,12,39,312,37,17,27,055,23,10,10,122,,25,08,303,31*7B
$GPGSV,3,3,11,28,08,111,,14,02,319,,51,43,156,32*46
$GPRMC,191210.000,A,3749.9042,N,12215.3490,W,1.62,72.91,131011,,,A*40
$GPVTG,72.91,T,,M,1.62,N,3.0,K,A*36
$GPGGA,191211.000,3749.9042,N,12215.3485,W,1,04,2.1,27.4,M,-25.0,M,,0000*50
$GPGSA,A,3,04,09,12,02,,,,,,,,,7.8,2.1,7.5*30
$GPRMC,191211.000,A,3749.9042,N,12215.3485,W,1.66,85.20,131011,,,A*43
$GPVTG,85.20,T,,M,1.66,N,3.1,K,A*31
$GPGGA,191212.000,3749.9043,N,12215.3479,W,1,04,2.1,27.7,M,-25.0,M,,0000*52
$GPGSA,A,3,04,09,12,02,,,,,,,,,7.8,2.1,7.5*30
$GPRMC,191212.000,A,3749.9043,N,12215.3479,W,1.71,89.07,131011,,,A*4D
$GPVTG,89.07,T,,M,1.71,N,3.2,K,A*3D
$GPGGA,191213.000,3749.9043,N,12215.3473,W,1,04,2.1,27.9,M,-25.0,M,,0000*57
$GPGSA,A,3,04,09,12,02,,,,,,,,,7.8,2.1,7.5*30
$GPRMC,191213.000,A,3749.9043,N,12215.3473,W,1.77,76.60,131011,,,A*41
$GPVTG,76.60,T,,M,1.77,N,3.3,K,A*3B
$GPGGA,191214.000,3749.9045,N,12215.3467,W,1,04,2.1,28.2,M,-25.0,M,,0000*57
$GPGSA,A,3,04,09,12,02,,,,,,,,,7.8,2.1,7.6*33
$GPRMC,191214.000,A,3749.9045,N,12215.3467,W,1.70,73.20,131011,,,A*43
$GPVTG,73.20,T,,M,1.70,N,3.2,K,A*3C
$GPGGA,191215.000,3749.9046,N,12215.3461,W,1,04,2.1,28.4,M,-25.0,M,,0000*55
$GPGSA,A,3,04,09,12,02,,,,,,,,,7.8,2.1,7.6*33
$GPGSV,3,1,10,04,60,085,34,09,59,251,39,27,56,223,39,02,52,177,39*7A
$GPGSV,3,2,10,12,39,312,37,17,27,055,23,10,10,122,,25,08,303,31*7A
$GPGSV,3,3,10,28,08,111,,14,02,319,*77
$GPRMC,191215.000,A,3749.9046,N,12215.3461,W,1.80,83.70,131011,,,A*42
$GPVTG,83.70,T,,M,1.80,N,3.3,K,A*38
$GPGGA,191216.000,3749.9046,N,12215.3455,W,1,04,2.1,28.7,M,-25.0,M,,0000*52
$GPGSA,A,3,04,09,12,02,,,,,,,,,7.9,2.1,7.6*32
$GPRMC,191216.000,A,3749.9046,N,12215.3455,W,1.87,85.43,131011,,,A*47
$GPVTG,85.43,T,,M,1.87,N,3.5,K,A*3F
$GPGGA,191217.000,3749.9047,N,12215.3449,W,1,04,2.1,29.1,M,-25.0,M,,0000*58
$GPGSA,A,3,04,09,12,02,,,,,,,,,7.9,2.1,7.6*32
$GPRMC,191217.000,A,3749.9047,N,12215.3449,W,1.78,69.63,131011,,,A*4A
$GPVTG,69.63,T,,M,1.78,N,3.3,K,A*39
$GPGGA,191218.000,3749.9049,N,12215.3443,W,1,04,2.1,29.4,M,-25.0,M,,0000*56
$GPGSA,A,3,04,09,12,02,,,,,,,,,7.9,2.1,7.6*32
$GPRMC,191218.000,A,3749.9049,N,12215.3443,W,1.70,67.19,131011,,,A*4A
$GPVTG,67.19,T,,M,1.70,N,3.1,K,A*30
$GPGGA,191219.000,3749.9050,N,12215.3438,W,1,04,2.1,29.7,M,-25.0,M,,0000*50
$GPGSA,A,3,04,09,12,02,,,,,,,,,7.9,2.1,7.6*32
$GPRMC,191219.000,A,3749.9050,N,12215.3438,W,1.64,88.26,131011,,,A*47
$GPVTG,88.26,T,,M,1.64,N,3.0,K,A*39
$GPGGA,191220.000,3749.9050,N,12215.3431,W,1,04,2.1,30.1,M,-25.0,M,,0000*5D
$GPGSA,A,3,04,09,12,02,,,,,,,,,7.9,2.1,7.6*32
$GPGSV,3,1,10,04,60,085,34,09,59,251,39,27,56,223,39,02,52,177,39*7A
$GPGSV,3,2,10,12,39,312,37,17,27,055,24,10,10,122,,25,08,303,29*74
$GPGSV,3,3,10,28,08,111,,14,02,319,*77
$GPRMC,191220.000,A,3749.9050,N,12215.3431,W,1.84,84.35,131011,,,A*44
$GPVTG,84.35,T,,M,1.84,N,3.4,K,A*3D
$GPGGA,191221.000,3749.9051,N,12215.3425,W,1,04,2.1,30.4,M,-25.0,M,,0000*5D
$GPGSA,A,3,04,09,12,02,,,,,,,,,7.9,2.1,7.6*32
$GPRMC,191221.000,A,3749.9051,N,12215.3425,W,1.92,77.33,131011,,,A*4C
$GPVTG,77.33,T,,M,1.92,N,3.5,K,A*31
$GPGGA,191222.000,3749.9052,N,12215.3418,W,1,04,2.1,30.8,M,-25.0,M,,0000*5F
$GPGSA,A,3,04,09,12,02,,,,,,,,,7.9,2.1,7.6*32
$GPRMC,191222.000,A,3749.9052,N,12215.3418,W,1.98,81.40,131011,,,A*45
$GPVTG,81.40,T,,M,1.98,N,3.7,K,A*34
$GPGGA,191223.000,3749.9053,N,12215.3412,W,1,04,2.1,31.2,M,-25.0,M,,0000*5E
$GPGSA,A,3,04,09,12,02,,,,,,,,,7.9,2.1,7.6*32
$GPRMC,191223.000,A,3749.9053,N,12215.3412,W,1.88,76.91,131011,,,A*4A
$GPVTG,76.91,T,,M,1.88,N,3.5,K,A*33
$GPGGA,191224.000,3749.9055,N,12215.3406,W,1,04,2.1,31.3,M,-25.0,M,,0000*5B
$GPGSA,A,3,04,09,12,02,,,,,,,,,7.9,2.1,7.6*32
$GPRMC,191224.000,A,3749.9055,N,12215.3406,W,1.80,64.76,131011,,,A*4C
$GPVTG,64.76,T,,M,1.80,N,3.3,K,A*37
$GPGGA,191225.000,3749.9057,N,12215.3400,W,1,04,2.1,31.6,M,-25.0,M,,0000*5B
$GPGSA,A,3,04,09,12,02,,,,,,,,,7.9,2.1,7.6*32
$GPGSV,3,1,10,04,60,085,34,09,59,251,39,27,56,223,39,02,52,177,39*7A
$GPGSV,3,2,10,12,39,312,37,17,27,055,30,10,10,122,,25,08,303,30*79
$GPGSV,3,3,10,28,08,111,,14,02,319,*77
$GPRMC,191225.000,A,3749.9057,N,12215.3400,W,1.87,68.14,131011,,,A*46
$GPVTG,68.14,T,,M,1.87,N,3.5,K,A*3E
$GPGGA,191226.000,3749.9059,N,12215.3395,W,1,04,2.1,31.8,M,-25.0,M,,0000*53
$GPGSA,A,3,04,09,12,02,,,,,,,,,7.9,2.1,7.6*32
$GPRMC,191226.000,A,3749.9059,N,12215.3395,W,1.86,76.67,131011,,,A*4A
$GPVTG,76.67,T,,M,1.86,N,3.4,K,A*35
$GPGGA,191227.000,3749.9060,N,12215.3388,W,1,04,2.1,32.0,M,-25.0,M,,0000*5F
$GPGSA,A,3,04,09,12,02,,,,,,,,,7.9,2.1,7.6*32
$GPRMC,191227.000,A,3749.9060,N,12215.3388,W,1.89,75.67,131011,,,A*41
$GPVTG,75.67,T,,M,1.89,N,3.5,K,A*38
$GPGGA,191228.000,3749.9062,N,12215.3383,W,1,04,2.1,32.3,M,-25.0,M,,0000*5A
$GPGSA,A,3,04,09,12,02,,,,,,,,,7.9,2.1,7.6*32
$GPRMC,191228.000,A,3749.9062,N,12215.3383,W,1.78,65.52,131011,,,A*4E
$GPVTG,65.52,T,,M,1.78,N,3.3,K,A*37
$GPGGA,191229.000,3749.9064,N,12215.3377,W,1,04,2.1,32.5,M,-25.0,M,,0000*50
$GPGSA,A,3,04,09,12,02,,,,,,,,,7.9,2.1,7.6*32
$GPRMC,191229.000,A,3749.9064,N,12215.3377,W,2.05,70.17,131011,,,A*4E
$GPVTG,70.17,T,,M,2.05,N,3.8,K,A*30
$GPGGA,191230.000,3749.9065,N,12215.3370,W,1,04,2.1,32.8,M,-25.0,M,,0000*53
$GPGSA,A,3,04,09,12,02,,,,,,,,,7.9,2.1,7.7*33
$GPGSV,3,1,10,04,60,085,34,09,59,251,39,27,56,223,39,02,52,177,39*7A
$GPGSV,3,2,10,12,39,312,37,17,27,055,29,10,10,122,,25,08,303,30*71
$GPGSV,3,3,10,28,08,111,,14,02,319,*77
$GPRMC,191230.000,A,3749.9065,N,12215.3370,W,1.86,78.46,131011,,,A*44
$GPGGA,191231.000,3749.9067,N,12215.3364,W,1,04,2.1,33.2,M,-25.0,M,,0000*5E
$GPGSA,A,3,04,09,12,02,,,,,,,,,7.9,2.1,7.7*33
$GPRMC,191231.000,A,3749.9067,N,12215.3364,W,1.97,70.09,131011,,,A*41
$GPVTG,70.09,T,,M,1.97,N,3.6,K,A*39
$GPGGA,191232.000,3749.9068,N,12215.3357,W,1,04,2.1,33.5,M,-25.0,M,,0000*55
$GPGSA,A,3,04,09,12,02,,,,,,,,,8.0,2.1,7.7*35
$GPRMC,191232.000,A,3749.9068,N,12215.3357,W,1.96,71.78,131011,,,A*4B
$GPVTG,71.78,T,,M,1.96,N,3.6,K,A*3F
$GPGGA,191233.000,3749.9069,N,12215.3351,W,1,04,2.1,33.8,M,-25.0,M,,0000*5E
$GPGSA,A,3,04,09,12,02,,,,,,,,,8.0,2.1,7.7*35
$GPRMC,191233.000,A,3749.9069,N,12215.3351,W,1.97,85.90,131011,,,A*41
$GPVTG,85.90,T,,M,1.97,N,3.7,K,A*32
$GPGGA,191234.000,3749.9070,N,12215.3344,W,1,04,2.1,34.1,M,-25.0,M,,0000*5B
$GPGSA,A,3,04,09,12,02,,,,,,,,,8.0,2.1,7.7*35
$GPRMC,191234.000,A,3749.9070,N,12215.3344,W,1.96,77.83,131011,,,A*44
$GPVTG,77.83,T,,M,1.96,N,3.6,K,A*3D
$GPGGA,191235.000,3749.9072,N,12215.3338,W,1,04,2.1,34.5,M,-25.0,M,,0000*57
$GPGSA,A,3,04,09,12,02,,,,,,,,,8.0,2.1,7.7*35
$GPGSV,3,1,10,04,60,085,34,09,59,251,39,27,56,223,39,02,52,177,39*7A
$GPGSV,3,2,10,12,39,312,37,17,27,055,28,10,10,122,,25,08,303,25*74
$GPGSV,3,3,10,28,08,111,,14,02,319,*77
$GPRMC,191235.000,A,3749.9072,N,12215.3338,W,1.91,67.39,131011,,,A*4B
$GPVTG,67.39,T,,M,1.91,N,3.5,K,A*39
$GPGGA,191236.000,3749.9074,N,12215.3332,W,1,04,2.1,34.8,M,-25.0,M,,0000*55
$GPGSA,A,3,04,09,12,02,,,,,,,,,8.0,2.1,7.7*35
$GPRMC,191236.000,A,3749.9074,N,12215.3332,W,1.98,71.49,131011,,,A*4D
$GPVTG,71.49,T,,M,1.98,N,3.7,K,A*32
$GPGGA,191237.000,3749.9074,N,12215.3325,W,1,04,2.1,35.1,M,-25.0,M,,0000*5A
$GPGSA,A,3,04,09,12,02,,,,,,,,,8.0,2.1,7.7*35
$GPRMC,191237.000,A,3749.9074,N,12215.3325,W,1.99,87.35,131011,,,A*49
$GPVTG,87.35,T,,M,1.99,N,3.7,K,A*31
$GPGGA,191238.000,3749.9075,N,12215.3319,W,1,04,2.1,35.4,M,-25.0,M,,0000*5E
$GPGSA,A,3,04,09,12,02,,,,,,,,,8.0,2.1,7.7*35
$GPRMC,191238.000,A,3749.9075,N,12215.3319,W,1.88,78.01,131011,,,A*4F
$GPVTG,78.01,T,,M,1.88,N,3.5,K,A*34
$GPGGA,191239.000,3749.9076,N,12215.3313,W,1,04,2.1,35.7,M,-25.0,M,,0000*55
$GPGSA,A,3,04,09,12,02,,,,,,,,,8.0,2.1,7.7*35
$GPRMC,191239.000,A,3749.9076,N,12215.3313,W,1.76,75.44,131011,,,A*4A
$GPVTG,75.44,T,,M,1.76,N,3.3,K,A*3F
$GPGGA,191240.000,3749.9077,N,12215.3306,W,1,04,2.1,36.0,M,-25.0,M,,0000*5A
$GPGSA,A,3,04,09,12,02,,,,,,,,,8.0,2.1,7.7*35
$GPGSV,3,1,10,04,60,085,34,09,59,251,39,27,56,223,39,02,52,177,39*7A
$GPGSV,3,2,10,12,39,312,37,17,27,055,26,10,10,122,,25,08,303,25*7A
$GPGSV,3,3,10,28,08,111,,14,02,319,*77
$GPRMC,191240.000,A,3749.9077,N,12215.3306,W,2.10,77.18,131011,,,A*49
$GPVTG,77.18,T,,M,2.10,N,3.9,K,A*3D
$GPGGA,191241.000,3749.9078,N,12215.3300,W,1,04,2.1,36.3,M,-25.0,M,,0000*51
$GPGSA,A,3,04,09,12,02,,,,,,,,,8.0,2.1,7.7*35
$GPRMC,191241.000,A,3749.9078,N,12215.3300,W,1.87,84.84,131011,,,A*45
$GPVTG,84.84,T,,M,1.87,N,3.5,K,A*35
$GPGGA,191242.000,3749.9079,N,12215.3294,W,1,04,2.1,36.5,M,-25.0,M,,0000*59
$GPGSA,A,3,04,09,12,02,,,,,,,,,8.0,2.1,7.7*35
$GPRMC,191242.000,A,3749.9079,N,12215.3294,W,1.86,84.81,131011,,,A*4F
$GPVTG,84.81,T,,M,1.86,N,3.4,K,A*30
$GPGGA,191243.000,3749.9079,N,12215.3288,W,1,04,2.1,36.8,M,-25.0,M,,0000*58
$GPGSA,A,3,04,09,12,02,,,,,,,,,8.0,2.1,7.7*35
$GPRMC,191243.000,A,3749.9079,N,12215.3288,W,1.72,78.93,131011,,,A*48
$GPVTG,78.93,T,,M,1.72,N,3.2,K,A*3D
$GPGGA,191244.000,3749.9080,N,12215.3282,W,1,04,2.1,37.1,M,-25.0,M,,0000*5B
$GPGSA,A,3,04,09,12,02,,,,,,,,,8.0,2.1,7.7*35
$GPRMC,191244.000,A,3749.9080,N,12215.3282,W,1.62,84.20,131011,,,A*49
$GPVTG,84.20,T,,M,1.62,N,3.0,K,A*35
$GPGGA,191245.000,3749.9081,N,12215.3276,W,1,04,2.1,37.3,M,-25.0,M,,0000*52
$GPGSA,A,3,04,09,12,02,,,,,,,,,8.0,2.1,7.8*3A
$GPGSV,3,1,10,04,60,085,34,09,59,251,39,27,56,223,39,02,52,177,39*7A
$GPGSV,3,2,10,12,39,312,37,17,27,055,27,10,10,122,,25,08,303,25*7B
$GPGSV,3,3,10,28,08,111,,14,02,319,*77
$GPRMC,191245.000,A,3749.9081,N,12215.3276,W,1.93,79.35,131011,,,A*4A
$GPVTG,79.35,T,,M,1.93,N,3.6,K,A*3B
$GPGGA,191246.000,3749.9083,N,12215.3270,W,1,04,2.1,37.7,M,-25.0,M,,0000*51
$GPGSA,A,3,04,09,12,02,,,,,,,,,8.0,2.1,7.8*3A
$GPRMC,191246.000,A,3749.9083,N,12215.3270,W,1.84,60.75,131011,,,A*47
$GPVTG,60.75,T,,M,1.84,N,3.4,K,A*33
$GPGGA,191247.000,3749.9085,N,12215.3265,W,1,04,2.1,38.0,M,-25.0,M,,0000*5A
$GPGSA,A,3,04,09,12,02,,,,,,,,,8.1,2.1,7.8*3B
$GPRMC,191247.000,A,3749.9085,N,12215.3265,W,1.96,62.93,131011,,,A*4D
$GPVTG,62.93,T,,M,1.96,N,3.6,K,A*38
$GPGGA,191248.000,3749.9087,N,12215.3258,W,1,04,2.1,38.3,M,-25.0,M,,0000*5A
$GPGSA,A,3,04,09,12,02,,,,,,,,,8.1,2.1,7.8*3B
$GPRMC,191248.000,A,3749.9087,N,12215.3258,W,1.87,80.69,131011,,,A*47
$GPVTG,80.69,T,,M,1.87,N,3.5,K,A*32
$GPGGA,191249.000,3749.9087,N,12215.3252,W,1,04,2.1,38.5,M,-25.0,M,,0000*57
$GPGSA,A,3,04,09,12,02,,,,,,,,,8.1,2.1,7.8*3B
$GPRMC,191249.000,A,3749.9087,N,12215.3252,W,1.83,80.14,131011,,,A*42
$GPVTG,80.14,T,,M,1.83,N,3.4,K,A*3D
$GPGGA,191250.000,3749.9088,N,12215.3246,W,1,04,2.1,38.8,M,-25.0,M,,0000*58
$GPGSA,A,3,04,09,12,02,,,,,,,,,8.1,2.1,7.8*3B
$GPGSV,3,1,09,04,60,084,34,09,59,250,39,02,53,177,39,12,40,312,37*7F
$GPGSV,3,2,09,17,27,056,28,10,10,121,,25,09,303,21,28,07,111,*78
$GPGSV,3,3,09,14,02,319,*4C
$GPRMC,191250.000,A,3749.9088,N,12215.3246,W,1.80,83.95,131011,,,A*49
$GPVTG,83.95,T,,M,1.80,N,3.3,K,A*33
$GPGGA,191251.000,3749.9088,N,12215.3240,W,1,04,2.1,39.1,M,-25.0,M,,0000*57
$GPGSA,A,3,04,09,12,02,,,,,,,,,8.1,2.1,7.8*3B
$GPRMC,191251.000,A,3749.9088,N,12215.3240,W,1.84,85.72,131011,,,A*45
$GPVTG,85.72,T,,M,1.84,N,3.4,K,A*3F
$GPGGA,191252.000,3749.9088,N,12215.3234,W,1,04,2.1,39.4,M,-25.0,M,,0000*52
$GPGSA,A,3,04,09,12,02,,,,,,,,,8.1,2.1,7.8*3B
$GPRMC,191252.000,A,3749.9088,N,12215.3234,W,1.84,90.72,131011,,,A*41
$GPVTG,90.72,T,,M,1.84,N,3.4,K,A*3B
$GPGGA,191253.000,3749.9088,N,12215.3227,W,1,04,2.1,39.7,M,-25.0,M,,0000*52
$GPGSA,A,3,04,09,12,02,,,,,,,,,8.1,2.1,7.8*3B
$GPRMC,191253.000,A,3749.9088,N,12215.3227,W,1.81,86.71,131011,,,A*43
$GPVTG,86.71,T,,M,1.81,N,3.4,K,A*3A
$GPGGA,191254.000,3749.9089,N,12215.3221,W,1,04,2.1,40.0,M,-25.0,M,,0000*5B
$GPGSA,A,3,04,09,12,02,,,,,,,,,8.1,2.1,7.8*3B
$GPRMC,191254.000,A,3749.9089,N,12215.3221,W,1.84,85.07,131011,,,A*44
$GPVTG,85.07,T,,M,1.84,N,3.4,K,A*3D
$GPGGA,191255.000,3749.9089,N,12215.3215,W,1,04,2.1,40.3,M,-25.0,M,,0000*5E
$GPGSA,A,3,04,09,12,02,,,,,,,,,8.1,2.1,7.8*3B
$GPGSV,3,1,09,04,60,084,33,09,59,250,39,02,53,177,38,12,40,312,37*79
$GPGSV,3,2,09,17,27,056,27,10,10,121,,25,09,303,27,28,07,111,*71
$GPGSV,3,3,09,14,02,319,*4C
$GPRMC,191255.000,A,3749.9089,N,12215.3215,W,1.64,87.31,131011,,,A*4B
$GPGGA,191256.000,3749.9089,N,12215.3210,W,1,04,2.1,40.7,M,-25.0,M,,0000*5C
$GPGSA,A,3,04,09,12,02,,,,,,,,,8.1,2.1,7.8*3B
$GPRMC,191256.000,A,3749.9089,N,12215.3210,W,1.40,94.39,131011,,,A*41
$GPVTG,94.39,T,,M,1.40,N,2.6,K,A*3B
$GPGGA,191257.000,3749.9088,N,12215.3207,W,1,04,2.1,40.9,M,-25.0,M,,0000*54
$GPGSA,A,3,04,09,12,02,,,,,,,,,8.1,2.1,7.8*3B
$GPRMC,191257.000,A,3749.9088,N,12215.3207,W,0.92,81.72,131011,,,A*42
$GPVTG,81.72,T,,M,0.92,N,1.7,K,A*3C
$GPGGA,191258.000,3749.9088,N,12215.3205,W,1,04,2.1,41.2,M,-25.0,M,,0000*53
$GPGSA,A,3,04,09,12,02,,,,,,,,,8.1,2.1,7.8*3B
$GPRMC,191258.000,A,3749.9088,N,12215.3205,W,0.33,103.91,131011,,,A*72
$GPVTG,103.91,T,,M,0.33,N,0.6,K,A*01
$GPGGA,191259.000,3749.9088,N,12215.3205,W,1,04,2.1,41.4,M,-25.0,M,,0000*54
$GPGSA,A,3,04,09,12,02,,,,,,,,,8.1,2.1,7.8*3B
$GPRMC,191259.000,A,3749.9088,N,12215.3205,W,0.08,118.88,131011,,,A*79
$GPVTG,118.88,T,,M,0.08,N,0.2,K,A*0F
$GPGGA,191300.000,3749.9088,N,12215.3203,W,1,04,2.1,41.7,M,-25.0,M,,0000*5C
$GPGSA,A,3,04,09,12,02,,,,,,,,,8.1,2.1,7.9*3A
$GPGSV,3,1,09,04,60,084,33,09,59,250,39,02,53,177,38,12,40,312,38*76
$GPGSV,3,2,09,17,27,056,24,10,10,121,,25,09,303,28,28,07,111,*7D
$GPGSV,3,3,09,14,02,319,*4C
$GPRMC,191300.000,A,3749.9088,N,12215.3203,W,0.85,74.77,131011,,,A*4C
$GPVTG,74.77,T,,M,0.85,N,1.6,K,A*34
$GPGGA,191301.000,3749.9089,N,12215.3199,W,1,04,2.1,42.0,M,-25.0,M,,0000*58
$GPGSA,A,3,04,09,12,02,,,,,,,,,8.1,2.1,7.9*3A
$GPRMC,191301.000,A,3749.9089,N,12215.3199,W,1.45,81.68,131011,,,A*45
$GPVTG,81.68,T,,M,1.45,N,2.7,K,A*3F
$GPGGA,191302.000,3749.9090,N,12215.3193,W,1,04,2.1,42.3,M,-25.0,M,,0000*5A
$GPGSA,A,3,04,09,12,02,,,,,,,,,8.2,2.1,7.9*39
$GPRMC,191302.000,A,3749.9090,N,12215.3193,W,1.72,78.97,131011,,,A*46
$GPVTG,78.97,T,,M,1.72,N,3.2,K,A*39
$GPGGA,191303.000,3749.9091,N,12215.3188,W,1,04,2.1,42.6,M,-25.0,M,,0000*55
$GPGSA,A,3,04,09,12,02,,,,,,,,,8.2,2.1,7.9*39
$GPRMC,191303.000,A,3749.9091,N,12215.3188,W,1.36,76.67,131011,,,A*4D
$GPVTG,76.67,T,,M,1.36,N,2.5,K,A*3E
$GPGGA,191304.000,3749.9092,N,12215.3182,W,1,04,2.1,43.1,M,-25.0,M,,0000*5D
$GPGSA,A,3,04,09,12,02,,,,,,,,,8.2,2.1,7.9*39
$GPRMC,191304.000,A,3749.9092,N,12215.3182,W,1.78,78.52,131011,,,A*41
$GPVTG,78.52,T,,M,1.78,N,3.3,K,A*3B
$GPGGA,191305.000,3749.9093,N,12215.3176,W,1,04,2.1,43.6,M,-25.0,M,,0000*51
$GPGSA,A,3,04,09,12,02,,,,,,,,,8.2,2.1,7.9*39
$GPGSV,3,1,09,04,60,084,31,09,59,250,39,02,53,177,37,12,40,312,29*7B
$GPGSV,3,2,09,17,27,056,24,10,10,121,,25,09,303,23,28,07,111,*76
$GPGSV,3,3,09,14,02,319,*4C
$GPVTG,89.09,T,,M,1.60,N,3.0,K,A*31
$GPGGA,191306.000,3749.9093,N,12215.3171,W,1,04,2.1,44.1,M,-25.0,M,,0000*55
$GPGSA,A,3,04,09,12,02,,,,,,,,,8.2,2.1,7.9*39
$GPRMC,191306.000,A,3749.9093,N,12215.3171,W,1.69,85.60,131011,,,A*4D
$GPVTG,85.60,T,,M,1.69,N,3.1,K,A*3A
$GPGGA,191307.000,3749.9094,N,12215.3165,W,1,04,2.1,44.7,M,-25.0,M,,0000*50
$GPGSA,A,3,04,09,12,02,,,,,,,,,8.2,2.1,7.9*39
$GPRMC,191307.000,A,3749.9094,N,12215.3165,W,1.55,84.55,131011,,,A*46
$GPVTG,84.55,T,,M,1.55,N,2.9,K,A*3B
$GPGGA,191308.000,3749.9095,N,12215.3159,W,1,04,2.1,45.2,M,-25.0,M,,0000*55
$GPGSA,A,3,04,09,12,02,,,,,,,,,8.2,2.1,7.9*39
$GPRMC,191308.000,A,3749.9095,N,12215.3159,W,1.68,75.72,131011,,,A*42
$GPVTG,75.72,T,,M,1.68,N,3.1,K,A*37
$GPGGA,191309.000,3749.9096,N,12215.3153,W,1,04,2.1,45.9,M,-25.0,M,,0000*56
$GPGSA,A,3,04,09,12,02,,,,,,,,,8.2,2.1,7.9*39
$GPRMC,191309.000,A,3749.9096,N,12215.3153,W,1.73,76.84,131011,,,A*4A
$GPVTG,76.84,T,,M,1.73,N,3.2,K,A*34
$GPGGA,191310.000,3749.9098,N,12215.3147,W,1,04,2.1,46.4,M,-25.0,M,,0000*5B
$GPGSA,A,3,04,09,12,02,,,,,,,,,8.2,2.1,7.9*39
$GPGSV,3,1,09,04,60,084,33,09,59,250,39,02,53,177,38,12,40,312,36*78
$GPGSV,3,2,09,17,27,056,25,10,10,121,,25,09,303,23,28,07,111,*77
$GPGSV,3,3,09,14,02,319,*4C
$GPRMC,191310.000,A,3749.9098,N,12215.3147,W,1.93,67.24,131011,,,A*4D
$GPVTG,67.24,T,,M,1.93,N,3.6,K,A*34
$GPGGA,191311.000,3749.9101,N,12215.3141,W,1,04,2.1,46.9,M,-25.0,M,,0000*50
$GPGSA,A,3,04,09,12,02,,,,,,,,,8.2,2.1,7.9*39
$GPRMC,191311.000,A,3749.9101,N,12215.3141,W,1.97,63.72,131011,,,A*48
$GPVTG,63.72,T,,M,1.97,N,3.6,K,A*37
$GPGGA,191312.000,3749.9103,N,12215.3134,W,1,04,2.1,47.4,M,-25.0,M,,0000*5F
$GPGSA,A,3,04,09,12,02,,,,,,,,,8.2,2.1,7.9*39
$GPRMC,191312.000,A,3749.9103,N,12215.3134,W,2.05,65.87,131011,,,A*4F
$GPVTG,65.87,T,,M,2.05,N,3.8,K,A*3D
$GPGGA,191313.000,3749.9106,N,12215.3128,W,1,04,2.1,48.0,M,-25.0,M,,0000*5D
$GPGSA,A,3,04,09,12,02,,,,,,,,,8.2,2.1,7.9*39
$GPRMC,191313.000,A,3749.9106,N,12215.3128,W,2.11,67.68,131011,,,A*40
$GPVTG,67.68,T,,M,2.11,N,3.9,K,A*3A
$GPGGA,191314.000,3749.9108,N,12215.3121,W,1,04,2.1,48.5,M,-25.0,M,,0000*58
$GPGSA,A,3,04,09,12,02,,,,,,,,,8.2,2.1,8.0*3F
$GPRMC,191314.000,A,3749.9108,N,12215.3121,W,2.12,68.29,131011,,,A*49
$GPVTG,68.29,T,,M,2.12,N,3.9,K,A*33
$GPGGA,191315.000,3749.9110,N,12215.3114,W,1,04,2.1,49.0,M,-25.0,M,,0000*52
$GPGSA,A,3,04,09,12,02,,,,,,,,,8.2,2.1,8.0*3F
$GPGSV,3,1,09,04,60,084,33,09,59,249,39,02,53,177,38,12,40,312,36*70
$GPGSV,3,2,09,17,27,056,22,10,10,121,,25,09,303,32,28,07,111,*70
$GPGSV,3,3,09,14,02,319,*4C
$GPVTG,70.36,T,,M,2.12,N,3.9,K,A*34
$GPGGA,191316.000,3749.9113,N,12215.3107,W,1,04,2.1,49.6,M,-25.0,M,,0000*56
$GPGSA,A,3,04,09,12,02,,,,,,,,,8.2,2.1,8.0*3F
$GPRMC,191316.000,A,3749.9113,N,12215.3107,W,2.22,72.43,131011,,,A*41
$GPVTG,72.43,T,,M,2.22,N,4.1,K,A*38
$GPGGA,191317.000,3749.9114,N,12215.3100,W,1,04,2.1,50.3,M,-25.0,M,,0000*5A
$GPGSA,A,3,04,09,12,02,,,,,,,,,8.3,2.1,8.0*3E
$GPRMC,191317.000,A,3749.9114,N,12215.3100,W,1.78,79.76,131011,,,A*41
$GPVTG,79.76,T,,M,1.78,N,3.3,K,A*3C
$GPGGA,191318.000,3749.9115,N,12215.3094,W,1,04,2.1,50.9,M,-25.0,M,,0000*52
$GPGSA,A,3,04,09,12,02,,,,,,,,,8.3,2.1,8.0*3E
$GPRMC,191318.000,A,3749.9115,N,12215.3094,W,1.93,77.91,131011,,,A*41
$GPVTG,77.91,T,,M,1.93,N,3.6,K,A*3B
$GPGGA,191319.000,3749.9117,N,12215.3087,W,1,04,2.1,51.4,M,-25.0,M,,0000*5F
$GPGSA,A,3,04,09,12,02,,,,,,,,,8.3,2.1,8.0*3E
$GPRMC,191319.000,A,3749.9117,N,12215.3087,W,2.02,74.33,131011,,,A*40
$GPVTG,74.33,T,,M,2.02,N,3.7,K,A*3A
$GPGGA,191320.000,3749.9118,N,12215.3080,W,1,04,2.1,51.9,M,-25.0,M,,0000*50
$GPGSA,A,3,04,09,12,02,,,,,,,,,8.3,2.1,8.0*3E
$GPGSV,3,1,09,04,60,084,32,09,59,249,39,02,53,177,38,12,40,312,36*71
$GPGSV,3,2,09,17,27,056,19,10,10,121,,25,09,303,33,28,07,111,*79
$GPGSV,3,3,09,14,02,319,*4C
$GPRMC,191320.000,A,3749.9118,N,12215.3080,W,2.01,77.08,131011,,,A*4A
$GPVTG,77.08,T,,M,2.01,N,3.7,K,A*32
$GPGGA,191321.000,3749.9120,N,12215.3073,W,1,04,2.1,52.4,M,-25.0,M,,0000*58
$GPGSA,A,3,04,09,12,02,,,,,,,,,8.3,2.1,8.0*3E
$GPRMC,191321.000,A,3749.9120,N,12215.3073,W,2.14,82.96,131011,,,A*45
$GPVTG,82.96,T,,M,2.14,N,4.0,K,A*3B
$GPGGA,191322.000,3749.9121,N,12215.3065,W,1,04,2.1,53.0,M,-25.0,M,,0000*58
$GPGSA,A,3,04,09,12,02,,,,,,,,,8.3,2.1,8.0*3E
$GPRMC,191322.000,A,3749.9121,N,12215.3065,W,2.16,81.77,131011,,,A*4E
$GPVTG,81.77,T,,M,2.16,N,4.0,K,A*35
$GPGGA,191323.000,3749.9121,N,12215.3058,W,1,04,2.1,53.4,M,-25.0,M,,0000*53
$GPGSA,A,3,04,09,12,02,,,,,,,,,8.3,2.1,8.0*3E
$GPRMC,191323.000,A,3749.9121,N,12215.3058,W,2.09,83.60,131011,,,A*4B
$GPVTG,83.60,T,,M,2.09,N,3.9,K,A*31
$GPGGA,191324.000,3749.9122,N,12215.3051,W,1,04,2.1,53.9,M,-25.0,M,,0000*53
$GPGSA,A,3,04,09,12,02,,,,,,,,,8.3,2.1,8.0*3E
$GPRMC,191324.000,A,3749.9122,N,12215.3051,W,2.08,81.79,131011,,,A*4D
$GPVTG,81.79,T,,M,2.08,N,3.9,K,A*3A
$GPGGA,191325.000,3749.9123,N,12215.3044,W,1,04,2.1,54.4,M,-25.0,M,,0000*5D
$GPGSA,A,3,04,09,12,02,,,,,,,,,8.3,2.1,8.0*3E
$GPGSV,3,1,09,04,60,084,31,09,59,249,39,02,53,177,37,12,40,312,36*7D
$GPGSV,3,2,09,17,27,056,19,10,10,121,,25,09,303,33,28,07,111,*79
$GPGSV,3,3,09,14,02,319,*4C
$GPRMC,191325.000,A,3749.9123,N,12215.3044,W,2.15,81.53,131011,,,A*4D
$GPVTG,81.53,T,,M,2.15,N,4.0,K,A*30
$GPGGA,191326.000,3749.9124,N,12215.3037,W,1,04,2.1,54.8,M,-25.0,M,,0000*51
$GPGSA,A,3,04,09,12,02,,,,,,,,,8.3,2.1,8.0*3E
$GPRMC,191326.000,A,3749.9124,N,12215.3037,W,2.04,81.37,131011,,,A*4F
$GPVTG,81.37,T,,M,2.04,N,3.8,K,A*3D
$GPGGA,191327.000,3749.9125,N,12215.3030,W,1,04,2.1,55.3,M,-25.0,M,,0000*5C
$GPGSA,A,3,04,09,12,02,,,,,,,,,8.3,2.1,8.0*3E
$GPRMC,191327.000,A,3749.9125,N,12215.3030,W,1.92,79.52,131011,,,A*40
$GPVTG,79.52,T,,M,1.92,N,3.5,K,A*38
$GPGGA,191328.000,3749.9126,N,12215.3024,W,1,04,2.1,55.8,M,-25.0,M,,0000*5E
$GPGSA,A,3,04,09,12,02,,,,,,,,,8.3,2.1,8.1*3F
$GPRMC,191328.000,A,3749.9126,N,12215.3024,W,1.85,76.32,131011,,,A*46
$GPVTG,76.32,T,,M,1.85,N,3.4,K,A*36
$GPGGA,191329.000,3749.9127,N,12215.3017,W,1,04,2.1,56.2,M,-25.0,M,,0000*57
$GPGSA,A,3,04,09,12,02,,,,,,,,,8.3,2.1,8.1*3F
$GPRMC,191329.000,A,3749.9127,N,12215.3017,W,1.89,81.02,131011,,,A*41
$GPVTG,81.02,T,,M,1.89,N,3.5,K,A*30
$GPGGA,191330.000,3749.9128,N,12215.3013,W,1,04,2.1,56.5,M,-25.0,M,,0000*53
$GPGSA,A,3,04,09,12,02,,,,,,,,,8.3,2.1,8.1*3F
$GPGSV,3,1,09,04,60,084,31,09,59,249,39,02,53,177,33,12,40,312,37*78
$GPGSV,3,2,09,17,27,056,19,10,10,121,,25,09,303,33,28,07,111,*79
$GPGSV,3,3,09,14,02,319,*4C
$GPRMC,191330.000,A,3749.9128,N,12215.3013,W,0.91,73.27,131011,,,A*40
$GPVTG,73.27,T,,M,0.91,N,1.7,K,A*32
$GPGGA,191331.000,3749.9127,N,12215.3010,W,1,04,2.1,56.9,M,-25.0,M,,0000*52
$GPGSA,A,3,04,09,12,02,,,,,,,,,8.4,2.1,8.1*38
$GPRMC,191331.000,A,3749.9127,N,12215.3010,W,0.91,104.39,131011,,,A*73
$GPVTG,104.39,T,,M,0.91,N,1.7,K,A*0C
$GPGGA,191332.000,3749.9127,N,12215.3007,W,1,04,2.1,57.3,M,-25.0,M,,0000*5C
$GPGSA,A,3,04,09,12,02,,,,,,,,,8.4,2.1,8.1*38
$GPRMC,191332.000,A,3749.9127,N,12215.3007,W,1.06,89.70,131011,,,A*40
$GPVTG,89.70,T,,M,1.06,N,2.0,K,A*3E
$GPGGA,191333.000,3749.9125,N,12215.3004,W,1,04,2.1,56.9,M,-25.0,M,,0000*57
$GPGSA,A,3,04,09,12,02,,,,,,,,,8.4,2.1,8.1*38
$GPRMC,191333.000,A,3749.9125,N,12215.3004,W,1.16,89.16,131011,,,A*41
$GPVTG,89.16,T,,M,1.16,N,2.1,K,A*3E
$GPGGA,191334.000,3749.9125,N,12215.3001,W,1,04,2.1,57.3,M,-25.0,M,,0000*5E
$GPGSA,A,3,04,09,12,02,,,,,,,,,8.4,2.1,8.1*38
$GPRMC,191334.000,A,3749.9125,N,12215.3001,W,1.13,90.31,131011,,,A*4B
$GPVTG,90.31,T,,M,1.13,N,2.1,K,A*36
$GPGGA,191335.000,3749.9125,N,12215.2997,W,1,04,2.1,57.6,M,-25.0,M,,0000*5D
$GPGSA,A,3,04,09,12,02,,,,,,,,,8.4,2.1,8.1*38
$GPGSV,3,1,09,04,60,084,29,09,59,249,39,02,53,177,36,12,40,312,37*74
$GPGSV,3,2,09,17,27,056,,10,10,121,,25,09,303,34,28,07,111,*76
$GPGSV,3,3,09,14,02,319,*4C
$GPRMC,191335.000,A,3749.9125,N,12215.2997,W,0.99,79.56,131011,,,A*48
$GPVTG,79.56,T,,M,0.99,N,1.8,K,A*39
$GPGGA,191336.000,3749.9124,N,12215.2994,W,1,04,2.1,57.6,M,-25.0,M,,0000*5C
$GPGSA,A,3,04,09,12,02,,,,,,,,,8.4,2.1,8.1*38
$GPRMC,191336.000,A,3749.9124,N,12215.2994,W,1.16,93.27,131011,,,A*4D
$GPVTG,93.27,T,,M,1.16,N,2.2,K,A*34
$GPGGA,191337.000,3749.9124,N,12215.2989,W,1,04,2.1,58.0,M,-25.0,M,,0000*58
$GPGSA,A,3,04,09,12,02,,,,,,,,,8.4,2.1,8.1*38
$GPRMC,191337.000,A,3749.9124,N,12215.2989,W,1.58,87.48,131011,,,A*46
$GPVTG,87.48,T,,M,1.58,N,2.9,K,A*39
$GPGGA,191338.000,3749.9122,N,12215.2984,W,1,04,2.1,56.7,M,-25.0,M,,0000*55
$GPGSA,A,3,04,09,12,02,,,,,,,,,8.4,2.1,8.1*38
$GPRMC,191338.000,A,3749.9122,N,12215.2984,W,2.00,79.44,131011,,,A*41
$GPVTG,79.44,T,,M,2.00,N,3.7,K,A*35
$GPGGA,191339.000,3749.9121,N,12215.2979,W,1,04,2.1,56.2,M,-25.0,M,,0000*50
$GPGSA,A,3,04,09,12,02,,,,,,,,,8.4,2.1,8.1*38
$GPRMC,191339.000,A,3749.9121,N,12215.2979,W,1.71,89.11,131011,,,A*4B
$GPVTG,89.11,T,,M,1.71,N,3.2,K,A*3A
$GPGGA,191340.000,3749.9121,N,12215.2969,W,1,04,2.1,54.2,M,-25.0,M,,0000*5D
$GPGSA,A,3,04,09,12,02,,,,,,,,,8.4,2.1,8.1*38
$GPGSV,3,1,09,04,60,084,19,09,59,249,39,02,53,177,36,12,40,312,37*77
$GPGSV,3,2,09,17,27,056,,10,10,121,,25,09,303,34,28,07,111,*76
$GPGSV,3,3,09,14,02,319,21*4F
$GPRMC,191340.000,A,3749.9121,N,12215.2969,W,1.19,108.09,131011,,,A*7B
$GPVTG,108.09,T,,M,1.19,N,2.2,K,A*04
$GPGGA,191341.000,3749.9117,N,12215.2969,W,1,04,2.1,53.7,M,-25.0,M,,0000*5B
$GPGSA,A,3,04,09,12,02,,,,,,,,,8.4,2.1,8.2*3B
$GPRMC,191341.000,A,3749.9117,N,12215.2969,W,0.83,108.38,131011,,,A*7F
$GPVTG,108.38,T,,M,0.83,N,1.5,K,A*00
$GPGGA,191342.000,3749.9115,N,12215.2966,W,1,03,5.0,52.8,M,-25.0,M,,0000*5A
$GPGSA,A,2,09,12,02,,,,,,,,,,5.1,5.0,1.0*3B
$GPRMC,191342.000,A,3749.9115,N,12215.2966,W,0.90,125.99,131011,,,A*77
$GPVTG,125.99,T,,M,0.90,N,1.7,K,A*04
$GPGGA,191343.000,3749.9107,N,12215.2970,W,1,04,2.1,49.9,M,-25.0,M,,0000*55
$GPGSA,A,3,04,09,12,02,,,,,,,,,8.4,2.1,8.2*3B
$GPRMC,191343.000,A,3749.9107,N,12215.2970,W,0.93,143.61,131011,,,A*76
$GPVTG,143.61,T,,M,0.93,N,1.7,K,A*00
$GPGGA,191344.000,3749.9105,N,12215.2966,W,1,03,5.0,48.9,M,-25.0,M,,0000*57
$GPGSA,A,2,09,12,02,,,,,,,,,,5.1,5.0,1.0*3B
$GPRMC,191344.000,A,3749.9105,N,12215.2966,W,0.62,94.87,131011,,,A*49
$GPVTG,94.87,T,,M,0.62,N,1.2,K,A*38
$GPGGA,191345.000,3749.9097,N,12215.2967,W,1,04,2.1,48.1,M,-25.0,M,,0000*54
$GPGSA,A,3,04,09,12,02,,,,,,,,,8.5,2.1,8.2*3A
$GPGSV,3,1,09,04,60,084,15,09,58,249,31,02,53,177,15,12,40,312,25*70
$GPGSV,3,2,09,17,27,056,,10,10,121,,25,09,303,34,28,07,111,*76
$GPGSV,3,3,09,14,02,319,22*4C
$GPRMC,191345.000,A,3749.9097,N,12215.2967,W,1.28,123.72,131011,,,A*7B
$GPVTG,123.72,T,,M,1.28,N,2.4,K,A*05
$GPGGA,191346.000,3749.9097,N,12215.2974,W,1,04,2.1,55.6,M,-25.0,M,,0000*5E
$GPGSA,A,3,04,09,12,02,,,,,,,,,8.5,2.1,8.2*3A
$GPRMC,191346.000,A,3749.9097,N,12215.2974,W,1.49,113.35,131011,,,A*7D
$GPVTG,113.35,T,,M,1.49,N,2.8,K,A*0E
$GPGGA,191347.000,3749.9101,N,12215.2979,W,1,04,2.1,54.4,M,-25.0,M,,0000*5F
$GPGSA,A,3,04,09,12,02,,,,,,,,,8.5,2.1,8.2*3A
$GPRMC,191347.000,A,3749.9101,N,12215.2979,W,0.89,77.44,131011,,,A*47
$GPVTG,77.44,T,,M,0.89,N,1.6,K,A*3B
$GPGGA,191348.000,3749.9105,N,12215.2967,W,1,03,2.5,47.6,M,-25.0,M,,0000*58
$GPGSA,A,2,04,09,12,,,,,,,,,,2.6,2.5,1.0*3F
$GPRMC,191348.000,A,3749.9105,N,12215.2967,W,1.55,76.38,131011,,,A*49
$GPVTG,76.38,T,,M,1.55,N,2.9,K,N*32
$GPGGA,191349.000,3749.9113,N,12215.2954,W,1,03,2.5,37.7,M,-25.0,M,,0000*58
$GPGSA,A,2,04,09,12,,,,,,,,,,2.6,2.5,1.0*3F
$GPRMC,191349.000,A,3749.9113,N,12215.2954,W,1.72,83.07,131011,,,A*4C
$GPVTG,83.07,T,,M,1.72,N,3.2,K,N*3B
$GPGGA,191350.000,3749.9129,N,12215.2934,W,1,03,2.5,29.2,M,-25.0,M,,0000*55
$GPGSA,A,2,04,09,12,,,,,,,,,,2.6,2.5,1.0*3F
$GPGSV,3,1,09,04,60,084,15,09,58,249,24,02,53,177,,12,40,312,24*71
$GPGSV,3,2,09,17,27,056,,10,10,121,,25,09,303,29,28,07,111,*7A
$GPGSV,3,3,09,14,02,319,18*45
$GPVTG,44.78,T,,M,1.90,N,3.5,K,N*33
$GPGGA,191351.000,3749.9136,N,12215.2928,W,1,03,2.5,26.9,M,-25.0,M,,0000*53
$GPGSA,A,2,04,09,12,,,,,,,,,,2.6,2.5,1.0*3F
$GPRMC,191351.000,A,3749.9136,N,12215.2928,W,1.51,45.16,131011,,,A*42
$GPVTG,45.16,T,,M,1.51,N,2.8,K,N*3B
$GPGGA,191352.000,3749.9139,N,12215.2924,W,6,00,50.0,26.7,M,-25.0,M,,0000*6B
$GPGSA,A,2,,,,,,,,,,,,,50.0,50.0,50.0*06
$GPRMC,191352.000,A,3749.9139,N,12215.2924,W,1.51,45.16,131011,,,E*46
$GPVTG,45.16,T,,M,1.51,N,2.8,K,N*3B
$GPGGA,191353.000,3749.9142,N,12215.2921,W,6,00,50.0,26.4,M,-25.0,M,,0000*60
$GPGSA,A,2,,,,,,,,,,,,,50.0,50.0,50.0*06
$GPRMC,191353.000,A,3749.9142,N,12215.2921,W,1.51,45.16,131011,,,E*4E
$GPVTG,45.16,T,,M,1.51,N,2.8,K,N*3B
$GPGGA,191354.000,3749.9133,N,12215.2912,W,1,03,2.4,27.7,M,-25.0,M,,0000*54
$GPGSA,A,2,04,09,12,,,,,,,,,,2.6,2.4,1.0*3E
$GPRMC,191354.000,A,3749.9133,N,12215.2912,W,2.74,98.34,131011,,,A*4F
$GPVTG,98.34,T,,M,2.74,N,5.1,K,N*31
$GPGGA,191355.000,3749.9117,N,12215.2903,W,1,03,2.4,29.5,M,-25.0,M,,0000*5F
$GPGSA,A,2,04,09,12,,,,,,,,,,2.6,2.4,1.0*3E
$GPGSV,3,1,09,04,60,084,24,09,58,249,16,02,53,177,,12,40,312,15*70
$GPGSV,3,2,09,17,27,056,25,10,10,121,,25,09,303,19,28,07,111,*7E
$GPGSV,3,3,09,14,02,319,*4C
$GPRMC,191355.000,A,3749.9117,N,12215.2903,W,3.23,103.48,131011,,,A*73
$GPVTG,103.48,T,,M,3.23,N,6.0,K,N*08
