$ADVER,3080,2.3
$GPRMC,224928.526,A,3748.1927,N,12217.6747,W,0.86,141.66,110415,,,A*70
$GPRMC,224929.526,A,3748.1930,N,12217.6750,W,0.30,108.29,110415,,,A*7A
$GPRMC,224930.000,A,3748.1930,N,12217.6749,W,0.55,132.29,110415,,,A*71
$GPRMC,224931.000,A,3748.1930,N,12217.6749,W,0.19,52.13,110415,,,A*46
$GPRMC,224932.000,A,3748.1930,N,12217.6749,W,0.01,152.38,110415,,,A*74
$GPRMC,224933.000,A,3748.1930,N,12217.6749,W,0.07,34.76,110415,,,A*48
$GPRMC,224934.000,A,3748.1930,N,12217.6749,W,0.07,37.64,110415,,,A*4F
$GPRMC,224935.000,A,3748.1930,N,12217.6750,W,0.03,215.39,110415,,,A*78
$GPRMC,224936.000,A,3748.1930,N,12217.6750,W,0.05,215.19,110415,,,A*7F
$GPRMC,224937.000,A,3748.1930,N,12217.6750,W,0.06,63.16,110415,,,A*41
$GPRMC,224938.000,A,3748.1930,N,12217.6750,W,0.02,161.61,110415,,,A*79
$GPRMC,224939.000,A,3748.1931,N,12217.6750,W,0.05,351.41,110415,,,A*7D
$GPRMC,224940.000,A,3748.1931,N,12217.6750,W,0.02,35.70,110415,,,A*47
$GPRMC,224941.000,A,3748.1931,N,12217.6750,W,0.04,87.64,110415,,,A*4C
$GPRMC,224942.000,A,3748.1931,N,12217.6750,W,0.02,120.68,110415,,,A*79
$GPRMC,224943.000,A,3748.1931,N,12217.6750,W,0.03,79.49,110415,,,A*47
$GPRMC,224944.000,A,3748.1931,N,12217.6750,W,0.05,231.56,110415,,,A*76
$GPRMC,224945.000,A,3748.1931,N,12217.6750,W,0.01,181.97,110415,,,A*76
$GPRMC,224946.000,A,3748.1931,N,12217.6750,W,0.05,41.65,110415,,,A*41
$GPRMC,224947.000,A,3748.1931,N,12217.6750,W,0.03,154.67,110415,,,A*71
$GPRMC,224948.000,A,3748.1931,N,12217.6751,W,0.03,254.03,110415,,,A*7E
$GPRMC,224949.000,A,3748.1932,N,12217.6751,W,0.52,339.69,110415,,,A*7E
$GPRMC,224950.000,A,3748.1932,N,12217.6748,W,0.22,28.02,110415,,,A*47
$GPRMC,224951.000,A,3748.1932,N,12217.6745,W,0.19,303.21,110415,,,A*78
$GPRMC,224952.000,A,3748.1931,N,12217.6743,W,0.20,343.68,110415,,,A*7D
$GPRMC,224953.000,A,3748.1931,N,12217.6742,W,0.37,45.91,110415,,,A*48
$GPRMC,224954.000,A,3748.1932,N,12217.6745,W,0.14,22.59,110415,,,A*4F
$GPRMC,224955.000,A,3748.1933,N,12217.6745,W,0.09,199.24,110415,,,A*78
$GPRMC,224956.000,A,3748.1934,N,12217.6745,W,0.21,140.35,110415,,,A*72
$GPRMC,224957.000,A,3748.1935,N,12217.6745,W,0.20,144.37,110415,,,A*75
$GPRMC,224958.000,A,3748.1936,N,12217.6744,W,0.61,264.34,110415,,,A*7F
$GPRMC,224959.000,A,3748.1936,N,12217.6748,W,0.34,132.55,110415,,,A*75
$GPRMC,225000.000,A,3748.1933,N,12217.6749,W,1.44,116.82,110415,,,A*7F
$GPRMC,225001.000,A,3748.1939,N,12217.6744,W,1.23,59.85,110415,,,A*45
$GPRMC,225002.000,A,3748.1939,N,12217.6744,W,1.12,42.15,110415,,,A*47
$GPRMC,225003.000,A,3748.1936,N,12217.6745,W,0.19,170.56,110415,,,A*75
$GPRMC,225004.000,A,3748.1937,N,12217.6744,W,0.06,155.98,110415,,,A*79
$GPRMC,225005.000,A,3748.1935,N,12217.6742,W,0.20,146.34,110415,,,A*7C
$GPRMC,225006.000,A,3748.1932,N,12217.6738,W,0.07,237.43,110415,,,A*75
$GPRMC,225007.000,A,3748.1936,N,12217.6736,W,0.33,29.12,110415,,,A*40
$GPRMC,225008.000,A,3748.1942,N,12217.6731,W,0.14,129.11,110415,,,A*7C
$GPRMC,225009.000,A,3748.1943,N,12217.6735,W,0.08,260.36,110415,,,A*7E
$GPRMC,225010.000,A,3748.1945,N,12217.6740,W,0.51,285.94,110415,,,A*7D
$GPRMC,225011.000,A,3748.1945,N,12217.6747,W,0.55,308.56,110415,,,A*75
$GPRMC,225012.000,A,3748.1943,N,12217.6752,W,0.48,218.45,110415,,,A*7A
$GPRMC,225013.000,A,3748.1942,N,12217.6748,W,0.57,341.81,110415,,,A*7A
$GPRMC,225014.000,A,3748.1942,N,12217.6746,W,0.05,96.80,110415,,,A*4C
$GPRMC,225015.000,A,3748.1941,N,12217.6743,W,0.67,121.52,110415,,,A*7D
$GPRMC,225016.000,A,3748.1937,N,12217.6737,W,1.45,107.78,110415,,,A*71
$GPRMC,225017.000,A,3748.1934,N,12217.6736,W,1.82,104.53,110415,,,A*73
$GPRMC,225018.000,A,3748.1932,N,12217.6732,W,0.46,120.47,110415,,,A*74
$GPRMC,225019.000,A,3748.1931,N,12217.6730,W,0.25,166.82,110415,,,A*7A
$GPRMC,225020.000,A,3748.1931,N,12217.6729,W,0.23,87.08,110415,,,A*42
$GPRMC,225021.000,A,3748.1932,N,12217.6727,W,0.74,287.42,110415,,,A*70
$GPRMC,225022.000,A,3748.1933,N,12217.6729,W,0.89,271.91,110415,,,A*79
$GPRMC,225023.000,A,3748.1930,N,12217.6726,W,0.38,235.35,110415,,,A*70
$GPRMC,225024.000,A,3748.1928,N,12217.6722,W,0.91,104.36,110415,,,A*7B
$GPRMC,225025.000,A,3748.1927,N,12217.6715,W,0.65,70.88,110415,,,A*4D
$GPRMC,225026.000,A,3748.1927,N,12217.6709,W,0.58,70.25,110415,,,A*4A
$GPRMC,225027.000,A,3748.1925,N,12217.6704,W,0.38,99.68,110415,,,A*4C
$GPRMC,225028.000,A,3748.1922,N,12217.6699,W,0.71,128.75,110415,,,A*7B
$GPRMC,225029.000,A,3748.1921,N,12217.6694,W,0.39,75.61,110415,,,A*44
$GPRMC,225030.000,A,3748.1921,N,12217.6691,W,0.06,163.34,110415,,,A*73
$GPRMC,225031.000,A,3748.1922,N,12217.6689,W,0.30,285.08,110415,,,A*79
$GPRMC,225032.000,A,3748.1923,N,12217.6686,W,0.24,295.13,110415,,,A*7A
$GPRMC,225033.000,A,3748.1922,N,12217.6683,W,0.22,214.31,110415,,,A*70
$GPRMC,225034.000,A,3748.1923,N,12217.6688,W,0.23,325.30,110415,,,A*7E
$GPRMC,225035.000,A,3748.1921,N,12217.6686,W,0.14,192.45,110415,,,A*7B
$GPRMC,225036.000,A,3748.1919,N,12217.6691,W,0.33,266.26,110415,,,A*7D
$GPRMC,225037.000,A,3748.1917,N,12217.6696,W,0.30,259.23,110415,,,A*7F
$GPRMC,225038.000,A,3748.1917,N,12217.6704,W,0.89,270.73,110415,,,A*76
$GPRMC,225039.000,A,3748.1915,N,12217.6702,W,0.21,286.31,110415,,,A*7E
$GPRMC,225040.000,A,3748.1914,N,12217.6698,W,0.30,91.13,110415,,,A*47
$GPRMC,225041.000,A,3748.1914,N,12217.6698,W,0.45,146.75,110415,,,A*7F
$GPRMC,225042.000,A,3748.1915,N,12217.6697,W,0.38,336.90,110415,,,A*76
$GPRMC,225043.000,A,3748.1916,N,12217.6695,W,0.38,55.74,110415,,,A*4A
$GPRMC,225044.000,A,3748.1915,N,12217.6694,W,0.32,143.25,110415,,,A*77
$GPRMC,225045.000,A,3748.1915,N,12217.6696,W,0.34,280.73,110415,,,A*7D
$GPRMC,225046.000,A,3748.1917,N,12217.6695,W,0.37,297.82,110415,,,A*74
$GPRMC,225047.000,A,3748.1918,N,12217.6692,W,0.25,325.51,110415,,,A*78
$GPRMC,225048.000,A,3748.1919,N,12217.6690,W,0.15,21.37,110415,,,A*40
$GPRMC,225049.000,A,3748.1922,N,12217.6685,W,0.26,81.74,110415,,,A*40
$GPRMC,225050.000,A,3748.1922,N,12217.6679,W,0.79,95.75,110415,,,A*45
$GPRMC,225051.000,A,3748.1923,N,12217.6676,W,0.47,115.74,110415,,,A*7F
$GPRMC,225052.000,A,3748.1924,N,12217.6675,W,0.17,27.97,110415,,,A*40
$GPRMC,225053.000,A,3748.1925,N,12217.6675,W,0.23,24.30,110415,,,A*49
$GPRMC,225054.000,A,3748.1926,N,12217.6675,W,0.26,125.87,110415,,,A*74
$GPRMC,225055.000,A,3748.1925,N,12217.6671,W,0.27,110.14,110415,,,A*7F
$GPRMC,225056.000,A,3748.1929,N,12217.6676,W,0.12,83.45,110415,,,A*4E
$GPRMC,225057.000,A,3748.1934,N,12217.6684,W,0.17,65.12,110415,,,A*41
$GPRMC,225058.000,A,3748.1937,N,12217.6690,W,0.24,246.60,110415,,,A*7E
$GPRMC,225059.000,A,3748.1938,N,12217.6694,W,0.71,270.18,110415,,,A*7E
$GPRMC,225100.000,A,3748.1938,N,12217.6697,W,0.65,234.46,110415,,,A*7E
$GPRMC,225101.000,A,3748.1935,N,12217.6700,W,0.55,244.85,110415,,,A*76
$GPRMC,225102.000,A,3748.1935,N,12217.6703,W,0.23,310.76,110415,,,A*7B
$GPRMC,225103.000,A,3748.1932,N,12217.6706,W,0.13,139.02,110415,,,A*71
$GPRMC,225104.000,A,3748.1930,N,12217.6707,W,0.61,132.98,110415,,,A*78
$GPRMC,225105.000,A,3748.1928,N,12217.6706,W,0.84,139.52,110415,,,A*77
$GPRMC,225106.000,A,3748.1924,N,12217.6702,W,0.91,147.29,110415,,,A*7D
$GPRMC,225107.000,A,3748.1921,N,12217.6699,W,1.24,149.61,110415,,,A*77
$GPRMC,225108.000,A,3748.1918,N,12217.6698,W,0.81,141.30,110415,,,A*71
$GPRMC,225109.000,A,3748.1916,N,12217.6700,W,0.54,197.10,110415,,,A*7F
$GPRMC,225110.000,A,3748.1913,N,12217.6702,W,0.68,170.64,110415,,,A*75
$GPRMC,225111.000,A,3748.1909,N,12217.6701,W,0.74,125.58,110415,,,A*7E
$GPRMC,225112.000,A,3748.1909,N,12217.6697,W,0.69,141.43,110415,,,A*77
$GPRMC,225113.000,A,3748.1907,N,12217.6694,W,0.85,118.40,110415,,,A*76
$GPRMC,225114.000,A,3748.1904,N,12217.6692,W,1.04,120.05,110415,,,A*76
$GPRMC,225115.000,A,3748.1900,N,12217.6689,W,1.20,144.10,110415,,,A*79
$GPRMC,225116.000,A,3748.1894,N,12217.6688,W,1.22,142.02,110415,,,A*70
$GPRMC,225117.000,A,3748.1890,N,12217.6685,W,0.85,129.19,110415,,,A*73
$GPRMC,225118.000,A,3748.1886,N,12217.6685,W,0.68,141.51,110415,,,A*7A
$GPRMC,225119.000,A,3748.1884,N,12217.6684,W,0.68,70.27,110415,,,A*4A
$GPRMC,225120.000,A,3748.1882,N,12217.6686,W,0.17,127.07,110415,,,A*7D
$GPRMC,225121.000,A,3748.1881,N,12217.6690,W,0.54,151.90,110415,,,A*70
$GPRMC,225122.000,A,3748.1881,N,12217.6692,W,0.66,156.12,110415,,,A*7D
$GPRMC,225123.000,A,3748.1879,N,12217.6692,W,0.88,175.83,110415,,,A*72
$GPRMC,225124.000,A,3748.1876,N,12217.6695,W,1.24,204.59,110415,,,A*78
$GPRMC,225125.000,A,3748.1875,N,12217.6694,W,1.41,171.53,110415,,,A*73
$GPRMC,225126.000,A,3748.1877,N,12217.6693,W,1.11,164.75,110415,,,A*70
$GPRMC,225127.000,A,3748.1880,N,12217.6691,W,0.99,131.76,110415,,,A*79
$GPRMC,225128.000,A,3748.1876,N,12217.6687,W,0.68,134.94,110415,,,A*7F
$GPRMC,225129.000,A,3748.1873,N,12217.6685,W,0.64,136.66,110415,,,A*7A
$GPRMC,225130.000,A,3748.1873,N,12217.6686,W,0.82,193.24,110415,,,A*70
$GPRMC,225131.000,A,3748.1869,N,12217.6687,W,0.86,201.26,110415,,,A*75
$GPRMC,225132.000,A,3748.1863,N,12217.6685,W,1.57,184.62,110415,,,A*7D
$GPRMC,225133.000,A,3748.1854,N,12217.6686,W,2.45,185.98,110415,,,A*7F
$GPRMC,225134.000,A,3748.1844,N,12217.6688,W,1.77,191.10,110415,,,A*70
$GPRMC,225135.000,A,3748.1837,N,12217.6695,W,1.55,202.98,110415,,,A*70
$GPRMC,225136.000,A,3748.1837,N,12217.6693,W,1.32,212.37,110415,,,A*70
$GPRMC,225137.000,A,3748.1836,N,12217.6693,W,1.16,210.74,110415,,,A*73
$GPRMC,225138.000,A,3748.1833,N,12217.6690,W,1.15,167.06,110415,,,A*7F
$GPRMC,225139.000,A,3748.1827,N,12217.6692,W,1.68,165.14,110415,,,A*72
$GPRMC,225140.000,A,3748.1824,N,12217.6689,W,1.57,177.95,110415,,,A*73
$GPRMC,225141.000,A,3748.1816,N,12217.6689,W,1.45,187.51,110415,,,A*77
$GPRMC,225142.000,A,3748.1811,N,12217.6693,W,0.55,196.85,110415,,,A*71
$GPRMC,225143.000,A,3748.1804,N,12217.6696,W,1.29,191.92,110415,,,A*7A
$GPRMC,225144.000,A,3748.1803,N,12217.6696,W,0.05,112.60,110415,,,A*73
$GPRMC,225145.000,A,3748.1803,N,12217.6697,W,0.37,209.71,110415,,,A*7B
$GPRMC,225146.000,A,3748.1801,N,12217.6700,W,0.23,173.62,110415,,,A*7C
$GPRMC,225147.000,A,3748.1802,N,12217.6697,W,0.48,52.99,110415,,,A*4A
$GPRMC,225148.000,A,3748.1802,N,12217.6699,W,0.46,16.55,110415,,,A*45
$GPRMC,225149.000,A,3748.1805,N,12217.6698,W,0.43,106.69,110415,,,A*78
$GPRMC,225150.000,A,3748.1802,N,12217.6697,W,0.34,82.67,110415,,,A*4B
$GPRMC,225151.000,A,3748.1802,N,12217.6695,W,0.28,60.93,110415,,,A*42
$GPRMC,225152.000,A,3748.1803,N,12217.6694,W,0.22,132.31,110415,,,A*75
$GPRMC,225153.000,A,3748.1801,N,12217.6696,W,0.29,158.83,110415,,,A*7A
$GPRMC,225154.000,A,3748.1799,N,12217.6698,W,0.46,159.74,110415,,,A*7D
$GPRMC,225155.000,A,3748.1796,N,12217.6701,W,0.58,201.28,110415,,,A*7A
$GPRMC,225156.000,A,3748.1795,N,12217.6702,W,0.82,173.24,110415,,,A*74
$GPRMC,225157.000,A,3748.1792,N,12217.6704,W,1.39,171.35,110415,,,A*77
$GPRMC,225158.000,A,3748.1788,N,12217.6704,W,1.15,165.98,110415,,,A*7F
$GPRMC,225159.000,A,3748.1782,N,12217.6707,W,1.44,172.43,110415,,,A*73
$GPRMC,225200.000,A,3748.1777,N,12217.6710,W,0.49,172.79,110415,,,A*75
$GPRMC,225201.000,A,3748.1772,N,12217.6713,W,0.75,180.64,110415,,,A*7C
$GPRMC,225202.000,A,3748.1766,N,12217.6717,W,1.15,185.53,110415,,,A*78
$GPRMC,225203.000,A,3748.1761,N,12217.6719,W,0.71,157.32,110415,,,A*7B
$GPRMC,225204.000,A,3748.1759,N,12217.6718,W,1.05,158.34,110415,,,A*7D
$GPRMC,225205.000,A,3748.1754,N,12217.6721,W,0.52,133.69,110415,,,A*7D
$GPRMC,225206.000,A,3748.1749,N,12217.6723,W,1.02,180.05,110415,,,A*76
$GPRMC,225207.000,A,3748.1746,N,12217.6722,W,1.07,151.87,110415,,,A*7A
$GPRMC,225208.000,A,3748.1742,N,12217.6721,W,1.51,167.23,110415,,,A*7A
$GPRMC,225209.000,A,3748.1741,N,12217.6716,W,1.20,166.79,110415,,,A*74
$GPRMC,225210.000,A,3748.1739,N,12217.6713,W,1.18,180.46,110415,,,A*79
$GPRMC,225211.000,A,3748.1731,N,12217.6718,W,2.16,194.86,110415,,,A*7F
$GPRMC,225212.000,A,3748.1724,N,12217.6722,W,1.90,203.77,110415,,,A*7F
$GPRMC,225213.000,A,3748.1722,N,12217.6726,W,0.96,197.48,110415,,,A*79
$GPRMC,225214.000,A,3748.1719,N,12217.6726,W,1.14,212.74,110415,,,A*7C
$GPRMC,225215.000,A,3748.1717,N,12217.6722,W,1.16,200.08,110415,,,A*7D
$GPRMC,225216.000,A,3748.1714,N,12217.6720,W,1.66,186.38,110415,,,A*76
$GPRMC,225217.000,A,3748.1708,N,12217.6714,W,0.97,151.24,110415,,,A*75
$GPRMC,225218.000,A,3748.1699,N,12217.6708,W,2.30,162.54,110415,,,A*76
$GPRMC,225219.000,A,3748.1694,N,12217.6707,W,1.82,174.42,110415,,,A*7F
$GPRMC,225220.000,A,3748.1690,N,12217.6711,W,1.00,165.59,110415,,,A*76
$GPRMC,225221.000,A,3748.1684,N,12217.6718,W,1.49,187.47,110415,,,A*75
$GPRMC,225222.000,A,3748.1679,N,12217.6724,W,2.14,216.31,110415,,,A*7A
$GPRMC,225223.000,A,3748.1670,N,12217.6731,W,1.63,222.45,110415,,,A*71
$GPRMC,225224.000,A,3748.1658,N,12217.6738,W,2.37,218.02,110415,,,A*7D
$GPRMC,225225.000,A,3748.1649,N,12217.6753,W,2.33,222.76,110415,,,A*7F
$GPRMC,225226.000,A,3748.1641,N,12217.6754,W,2.19,241.21,110415,,,A*7C
$GPRMC,225227.000,A,3748.1638,N,12217.6760,W,1.70,232.05,110415,,,A*7A
$GPRMC,225228.000,A,3748.1630,N,12217.6756,W,1.52,210.52,110415,,,A*7A
$GPRMC,225229.000,A,3748.1624,N,12217.6749,W,1.62,179.72,110415,,,A*7D
$GPRMC,225230.000,A,3748.1619,N,12217.6749,W,1.73,195.42,110415,,,A*7A
$GPRMC,225231.000,A,3748.1611,N,12217.6743,W,1.34,194.85,110415,,,A*70
$GPRMC,225232.000,A,3748.1605,N,12217.6742,W,1.06,183.00,110415,,,A*7D
$GPRMC,225233.000,A,3748.1598,N,12217.6739,W,1.95,171.57,110415,,,A*72
$GPRMC,225234.000,A,3748.1587,N,12217.6745,W,2.66,185.75,110415,,,A*74
$GPRMC,225235.000,A,3748.1578,N,12217.6737,W,1.90,176.20,110415,,,A*76
$GPRMC,225236.000,A,3748.1574,N,12217.6736,W,1.38,172.48,110415,,,A*70
$GPRMC,225237.000,A,3748.1566,N,12217.6730,W,1.04,165.64,110415,,,A*73
$GPRMC,225238.000,A,3748.1562,N,12217.6723,W,0.72,133.74,110415,,,A*78
$GPRMC,225239.000,A,3748.1556,N,12217.6715,W,0.59,89.41,110415,,,A*44
$GPRMC,225240.000,A,3748.1554,N,12217.6709,W,0.70,83.71,110415,,,A*47
$GPRMC,225241.000,A,3748.1555,N,12217.6702,W,1.05,56.96,110415,,,A*4E
$GPRMC,225242.000,A,3748.1552,N,12217.6702,W,0.74,306.21,110415,,,A*77
$GPRMC,225243.000,A,3748.1549,N,12217.6698,W,0.20,85.10,110415,,,A*45
$GPRMC,225244.000,A,3748.1549,N,12217.6696,W,0.25,44.99,110415,,,A*45
$GPRMC,225245.000,A,3748.1547,N,12217.6693,W,0.72,294.07,110415,,,A*75
$GPRMC,225246.000,A,3748.1547,N,12217.6693,W,0.69,311.99,110415,,,A*77
$GPRMC,225247.000,A,3748.1548,N,12217.6695,W,0.40,299.03,110415,,,A*76
$GPRMC,225248.000,A,3748.1550,N,12217.6701,W,0.65,250.07,110415,,,A*7A
$GPRMC,225249.000,A,3748.1546,N,12217.6706,W,1.09,196.52,110415,,,A*79
$GPRMC,225250.000,A,3748.1539,N,12217.6713,W,1.69,195.50,110415,,,A*7A
$GPRMC,225251.000,A,3748.1533,N,12217.6718,W,1.54,227.98,110415,,,A*7A
$GPRMC,225252.000,A,3748.1531,N,12217.6713,W,1.11,240.88,110415,,,A*71
$GPRMC,225253.000,A,3748.1531,N,12217.6714,W,0.61,205.46,110415,,,A*72
$GPRMC,225254.000,A,3748.1526,N,12217.6706,W,0.92,140.77,110415,,,A*7C
$GPRMC,225255.000,A,3748.1516,N,12217.6703,W,1.21,146.11,110415,,,A*74
$GPRMC,225256.000,A,3748.1510,N,12217.6695,W,1.29,144.38,110415,,,A*7E
$GPRMC,225257.000,A,3748.1508,N,12217.6700,W,0.84,185.71,110415,,,A*7D
$GPRMC,225258.000,A,3748.1507,N,12217.6703,W,1.43,238.75,110415,,,A*75
$GPRMC,225259.000,A,3748.1499,N,12217.6717,W,1.84,232.53,110415,,,A*72
$GPRMC,225300.000,A,3748.1488,N,12217.6726,W,2.70,211.05,110415,,,A*77
$GPRMC,225301.000,A,3748.1473,N,12217.6734,W,3.18,199.28,110415,,,A*72
$GPRMC,225302.000,A,3748.1454,N,12217.6741,W,3.85,201.14,110415,,,A*7F
$GPRMC,225303.000,A,3748.1444,N,12217.6750,W,3.20,200.85,110415,,,A*79
$GPRMC,225304.000,A,3748.1439,N,12217.6762,W,3.49,202.26,110415,,,A*71
$GPRMC,225305.000,A,3748.1427,N,12217.6772,W,4.14,195.83,110415,,,A*73
$GPRMC,225306.000,A,3748.1417,N,12217.6781,W,4.51,192.04,110415,,,A*76
$GPRMC,225307.000,A,3748.1415,N,12217.6791,W,3.78,195.56,110415,,,A*78
$GPRMC,225308.000,A,3748.1427,N,12217.6819,W,2.55,245.16,110415,,,A*7D
$GPRMC,225309.000,A,3748.1435,N,12217.6844,W,2.73,265.58,110415,,,A*7B
$GPRMC,225310.000,A,3748.1465,N,12217.6873,W,3.14,277.71,110415,,,A*7A
$GPRMC,225311.000,A,3748.1482,N,12217.6889,W,2.14,273.55,110415,,,A*74
$GPRMC,225312.000,A,3748.1484,N,12217.6899,W,1.27,265.60,110415,,,A*72
$GPRMC,225313.000,A,3748.1488,N,12217.6911,W,1.29,272.76,110415,,,A*71
$GPRMC,225314.000,A,3748.1480,N,12217.6897,W,0.46,183.29,110415,,,A*7E
$GPRMC,225315.000,A,3748.1472,N,12217.6911,W,0.48,234.17,110415,,,A*71
$GPRMC,225316.000,A,3748.1472,N,12217.6923,W,0.41,190.11,110415,,,A*71
$GPRMC,225317.000,A,3748.1476,N,12217.6932,W,0.56,187.33,110415,,,A*74
$GPRMC,225318.000,A,3748.1478,N,12217.6939,W,0.53,201.60,110415,,,A*70
$GPRMC,225319.000,A,3748.1482,N,12217.6946,W,0.36,272.80,110415,,,A*75
$GPRMC,225320.000,A,3748.1486,N,12217.6950,W,0.20,107.76,110415,,,A*73
$GPRMC,225321.000,A,3748.1488,N,12217.6953,W,0.19,253.84,110415,,,A*7A
$GPRMC,225322.000,A,3748.1488,N,12217.6950,W,0.33,200.72,110415,,,A*7D
$GPRMC,225323.000,A,3748.1487,N,12217.6947,W,0.76,201.29,110415,,,A*7B
$GPRMC,225324.000,A,3748.1486,N,12217.6946,W,0.52,211.61,110415,,,A*77
$GPRMC,225325.000,A,3748.1485,N,12217.6945,W,1.08,233.27,110415,,,A*7A
$GPRMC,225326.000,A,3748.1481,N,12217.6948,W,1.02,255.79,110415,,,A*71
$GPRMC,225327.000,A,3748.1482,N,12217.6950,W,0.89,266.21,110415,,,A*75
$GPRMC,225328.000,A,3748.1482,N,12217.6953,W,0.96,259.23,110415,,,A*79
$GPRMC,225329.000,A,3748.1482,N,12217.6956,W,0.94,273.32,110415,,,A*77
$GPRMC,225330.000,A,3748.1483,N,12217.6959,W,1.01,273.94,110415,,,A*70
$GPRMC,225331.000,A,3748.1484,N,12217.6965,W,1.13,291.44,110415,,,A*7B
$GPRMC,225332.000,A,3748.1487,N,12217.6970,W,1.75,281.28,110415,,,A*74
$GPRMC,225333.000,A,3748.1493,N,12217.6975,W,1.82,280.16,110415,,,A*71
$GPRMC,225334.000,A,3748.1497,N,12217.6981,W,1.58,268.49,110415,,,A*72
$GPRMC,225335.000,A,3748.1498,N,12217.6989,W,1.56,261.79,110415,,,A*70
$GPRMC,225336.000,A,3748.1496,N,12217.7000,W,1.65,253.88,110415,,,A*7B
$GPRMC,225337.000,A,3748.1495,N,12217.7008,W,1.80,249.07,110415,,,A*76
$GPRMC,225338.000,A,3748.1495,N,12217.7014,W,1.38,257.02,110415,,,A*7D
$GPRMC,225339.000,A,3748.1496,N,12217.7020,W,1.24,256.72,110415,,,A*73
$GPRMC,225340.000,A,3748.1496,N,12217.7025,W,1.69,249.93,110415,,,A*70
$GPRMC,225341.000,A,3748.1494,N,12217.7034,W,1.60,255.24,110415,,,A*7B
$GPRMC,225342.000,A,3748.1493,N,12217.7042,W,1.54,263.14,110415,,,A*7F
$GPRMC,225343.000,A,3748.1496,N,12217.7049,W,1.48,271.08,110415,,,A*73
$GPRMC,225344.000,A,3748.1497,N,12217.7053,W,1.56,265.50,110415,,,A*79
$GPRMC,225345.000,A,3748.1497,N,12217.7059,W,1.57,265.97,110415,,,A*78
$GPRMC,225346.000,A,3748.1493,N,12217.7062,W,1.31,280.10,110415,,,A*73
$GPRMC,225347.000,A,3748.1493,N,12217.7068,W,1.28,246.57,110415,,,A*79
$GPRMC,225348.000,A,3748.1485,N,12217.7071,W,1.71,237.61,110415,,,A*76
$GPRMC,225349.000,A,3748.1481,N,12217.7076,W,1.84,227.49,110415,,,A*75
$GPRMC,225350.000,A,3748.1485,N,12217.7082,W,0.90,248.05,110415,,,A*77
$GPRMC,225351.000,A,3748.1486,N,12217.7084,W,0.62,244.29,110415,,,A*7C
$GPRMC,225352.000,A,3748.1489,N,12217.7089,W,0.90,216.45,110415,,,A*7D
$GPRMC,225353.000,A,3748.1491,N,12217.7092,W,0.71,240.59,110415,,,A*7E
$GPRMC,225354.000,A,3748.1495,N,12217.7095,W,0.47,270.85,110415,,,A*7D
$GPRMC,225355.000,A,3748.1492,N,12217.7101,W,0.54,214.03,110415,,,A*79
$GPRMC,225356.000,A,3748.1490,N,12217.7105,W,0.64,232.66,110415,,,A*78
$GPRMC,225357.000,A,3748.1504,N,12217.7107,W,0.75,309.19,110415,,,A*76
$GPRMC,225358.000,A,3748.1517,N,12217.7109,W,1.10,314.65,110415,,,A*70
$GPRMC,225359.000,A,3748.1523,N,12217.7112,W,1.26,313.33,110415,,,A*7D
$GPRMC,225400.000,A,3748.1524,N,12217.7116,W,1.24,316.71,110415,,,A*74
$GPRMC,225401.000,A,3748.1524,N,12217.7119,W,1.07,289.56,110415,,,A*79
$GPRMC,225402.000,A,3748.1529,N,12217.7124,W,1.09,289.70,110415,,,A*73
$GPRMC,225403.000,A,3748.1528,N,12217.7131,W,1.12,285.50,110415,,,A*73
$GPRMC,225404.000,A,3748.1531,N,12217.7133,W,1.14,314.14,110415,,,A*71
$GPRMC,225405.000,A,3748.1531,N,12217.7136,W,1.24,288.76,110415,,,A*76
$GPRMC,225406.000,A,3748.1527,N,12217.7142,W,1.34,287.27,110415,,,A*7B
$GPRMC,225407.000,A,3748.1529,N,12217.7148,W,1.70,283.56,110415,,,A*7C
$GPRMC,225408.000,A,3748.1531,N,12217.7150,W,1.02,293.15,110415,,,A*70
$GPRMC,225409.000,A,3748.1532,N,12217.7156,W,1.48,295.59,110415,,,A*74
$GPRMC,225410.000,A,3748.1532,N,12217.7164,W,2.24,258.06,110415,,,A*7F
$GPRMC,225411.000,A,3748.1542,N,12217.7172,W,1.64,295.37,110415,,,A*7A
$GPRMC,225412.000,A,3748.1543,N,12217.7180,W,1.54,297.94,110415,,,A*7D
$GPRMC,225413.000,A,3748.1553,N,12217.7188,W,2.18,289.31,110415,,,A*7E
$GPRMC,225414.000,A,3748.1555,N,12217.7196,W,1.93,293.71,110415,,,A*7F
$GPRMC,225415.000,A,3748.1553,N,12217.7201,W,1.67,267.68,110415,,,A*7D
$GPRMC,225416.000,A,3748.1550,N,12217.7206,W,1.14,261.64,110415,,,A*74
$GPRMC,225417.000,A,3748.1549,N,12217.7212,W,1.33,253.94,110415,,,A*73
$GPRMC,225418.000,A,3748.1544,N,12217.7219,W,1.28,251.05,110415,,,A*7A
$GPRMC,225419.000,A,3748.1548,N,12217.7225,W,0.71,259.53,110415,,,A*7E
$GPRMC,225420.000,A,3748.1539,N,12217.7231,W,2.02,220.56,110415,,,A*7A
$GPRMC,225421.000,A,3748.1533,N,12217.7236,W,2.64,221.33,110415,,,A*74
$GPRMC,225422.000,A,3748.1529,N,12217.7244,W,2.21,235.61,110415,,,A*7A
$GPRMC,225423.000,A,3748.1527,N,12217.7254,W,1.56,253.94,110415,,,A*7D
$GPRMC,225424.000,A,3748.1527,N,12217.7259,W,0.94,279.39,110415,,,A*77
$GPRMC,225425.000,A,3748.1523,N,12217.7265,W,1.43,272.39,110415,,,A*7D
$GPRMC,225426.000,A,3748.1518,N,12217.7272,W,1.37,266.96,110415,,,A*73
$GPRMC,225427.000,A,3748.1518,N,12217.7277,W,1.26,271.02,110415,,,A*7C
$GPRMC,225428.000,A,3748.1518,N,12217.7282,W,1.68,268.87,110415,,,A*76
$GPRMC,225429.000,A,3748.1522,N,12217.7289,W,1.43,288.09,110415,,,A*74
$GPRMC,225430.000,A,3748.1529,N,12217.7293,W,1.09,292.40,110415,,,A*74
$GPRMC,225431.000,A,3748.1530,N,12217.7298,W,1.01,260.57,110415,,,A*75
$GPRMC,225432.000,A,3748.1534,N,12217.7299,W,1.09,264.91,110415,,,A*75
$GPRMC,225433.000,A,3748.1533,N,12217.7305,W,1.62,256.89,110415,,,A*72
$GPRMC,225434.000,A,3748.1532,N,12217.7316,W,1.81,256.20,110415,,,A*78
$GPRMC,225435.000,A,3748.1531,N,12217.7328,W,1.98,271.97,110415,,,A*76
$GPRMC,225436.000,A,3748.1529,N,12217.7338,W,1.71,278.19,110415,,,A*75
$GPRMC,225437.000,A,3748.1529,N,12217.7349,W,1.76,302.25,110415,,,A*76
$GPRMC,225438.000,A,3748.1532,N,12217.7355,W,1.93,301.36,110415,,,A*74
$GPRMC,225439.000,A,3748.1541,N,12217.7360,W,1.68,300.57,110415,,,A*75
$GPRMC,225440.000,A,3748.1547,N,12217.7370,W,1.75,285.73,110415,,,A*7A
$GPRMC,225441.000,A,3748.1558,N,12217.7376,W,1.81,284.81,110415,,,A*74
$GPRMC,225442.000,A,3748.1563,N,12217.7384,W,2.01,278.35,110415,,,A*75
$GPRMC,225443.000,A,3748.1568,N,12217.7389,W,1.77,267.59,110415,,,A*74
$GPRMC,225444.000,A,3748.1573,N,12217.7396,W,1.92,265.68,110415,,,A*7C
$GPRMC,225445.000,A,3748.1577,N,12217.7407,W,2.59,264.69,110415,,,A*72
$GPRMC,225446.000,A,3748.1575,N,12217.7420,W,2.43,258.92,110415,,,A*76
$GPRMC,225447.000,A,3748.1580,N,12217.7431,W,1.90,272.79,110415,,,A*7D
$GPRMC,225448.000,A,3748.1582,N,12217.7438,W,1.56,271.30,110415,,,A*7D
$GPRMC,225449.000,A,3748.1584,N,12217.7446,W,1.50,258.52,110415,,,A*7A
$GPRMC,225450.000,A,3748.1590,N,12217.7454,W,1.48,259.38,110415,,,A*70
$GPRMC,225451.000,A,3748.1593,N,12217.7462,W,1.52,242.36,110415,,,A*78
$GPRMC,225452.000,A,3748.1594,N,12217.7468,W,1.41,266.71,110415,,,A*71
$GPRMC,225453.000,A,3748.1596,N,12217.7477,W,1.32,267.33,110415,,,A*7F
$GPRMC,225454.000,A,3748.1592,N,12217.7487,W,1.33,226.99,110415,,,A*77
$GPRMC,225455.000,A,3748.1589,N,12217.7492,W,1.10,224.76,110415,,,A*7A
$GPRMC,225456.000,A,3748.1585,N,12217.7498,W,1.62,229.17,110415,,,A*70
$GPRMC,225457.000,A,3748.1582,N,12217.7504,W,1.60,228.73,110415,,,A*73
$GPRMC,225458.000,A,3748.1578,N,12217.7512,W,1.51,219.41,110415,,,A*7F
$GPRMC,225459.000,A,3748.1576,N,12217.7514,W,1.58,219.80,110415,,,A*72
$GPRMC,225500.000,A,3748.1572,N,12217.7516,W,1.75,215.45,110415,,,A*73
$GPRMC,225501.000,A,3748.1566,N,12217.7521,W,1.60,216.41,110415,,,A*70
$GPRMC,225502.000,A,3748.1559,N,12217.7529,W,1.94,205.43,110415,,,A*7C
$GPRMC,225503.000,A,3748.1550,N,12217.7534,W,1.80,190.88,110415,,,A*75
$GPRMC,225504.000,A,3748.1545,N,12217.7537,W,1.76,196.92,110415,,,A*71
$GPRMC,225505.000,A,3748.1541,N,12217.7542,W,1.71,219.88,110415,,,A*7E
$GPRMC,225506.000,A,3748.1542,N,12217.7547,W,1.41,229.18,110415,,,A*72
$GPRMC,225507.000,A,3748.1537,N,12217.7553,W,1.63,213.04,110415,,,A*70
$GPRMC,225508.000,A,3748.1533,N,12217.7556,W,1.65,212.67,110415,,,A*7C
$GPRMC,225509.000,A,3748.1529,N,12217.7563,W,1.24,202.68,110415,,,A*7B
$GPRMC,225510.000,A,3748.1523,N,12217.7568,W,2.09,209.88,110415,,,A*7B
$GPRMC,225511.000,A,3748.1518,N,12217.7569,W,1.61,219.24,110415,,,A*79
$GPRMC,225512.000,A,3748.1516,N,12217.7573,W,1.21,225.78,110415,,,A*7D
$GPRMC,225513.000,A,3748.1513,N,12217.7577,W,1.21,228.90,110415,,,A*76
$GPRMC,225514.000,A,3748.1511,N,12217.7581,W,0.62,215.21,110415,,,A*78
$GPRMC,225515.000,A,3748.1510,N,12217.7586,W,0.68,268.46,110415,,,A*7E
$GPRMC,225516.000,A,3748.1508,N,12217.7592,W,1.03,261.40,110415,,,A*72
$GPRMC,225517.000,A,3748.1507,N,12217.7597,W,1.30,256.25,110415,,,A*7E
$GPRMC,225518.000,A,3748.1506,N,12217.7602,W,0.82,277.31,110415,,,A*71
$GPRMC,225519.000,A,3748.1508,N,12217.7606,W,1.22,264.99,110415,,,A*71
$GPRMC,225520.000,A,3748.1508,N,12217.7613,W,1.22,260.23,110415,,,A*7A
$GPRMC,225521.000,A,3748.1509,N,12217.7619,W,1.26,284.42,110415,,,A*79
$GPRMC,225522.000,A,3748.1511,N,12217.7623,W,1.09,278.80,110415,,,A*7A
$GPRMC,225523.000,A,3748.1513,N,12217.7626,W,1.20,286.90,110415,,,A*77
$GPRMC,225524.000,A,3748.1513,N,12217.7630,W,1.28,267.13,110415,,,A*7B
$GPRMC,225525.000,A,3748.1513,N,12217.7636,W,0.99,267.80,110415,,,A*7D
$GPRMC,225526.000,A,3748.1511,N,12217.7637,W,0.44,316.81,110415,,,A*7B
$GPRMC,225527.000,A,3748.1510,N,12217.7640,W,1.31,292.53,110415,,,A*7A
$GPRMC,225528.000,A,3748.1511,N,12217.7644,W,1.17,257.88,110415,,,A*7B
$GPRMC,225529.000,A,3748.1511,N,12217.7649,W,1.16,252.97,110415,,,A*7D
$GPRMC,225530.000,A,3748.1513,N,12217.7655,W,1.20,255.20,110415,,,A*74
$GPRMC,225531.000,A,3748.1513,N,12217.7657,W,0.91,256.96,110415,,,A*72
$GPRMC,225532.000,A,3748.1517,N,12217.7664,W,1.34,253.85,110415,,,A*7C
$GPRMC,225533.000,A,3748.1514,N,12217.7670,W,1.57,245.44,110415,,,A*74
$GPRMC,225534.000,A,3748.1507,N,12217.7674,W,1.50,202.89,110415,,,A*70
$GPRMC,225535.000,A,3748.1499,N,12217.7676,W,1.46,189.67,110415,,,A*72
$GPRMC,225536.000,A,3748.1494,N,12217.7679,W,1.44,164.42,110415,,,A*75
$GPRMC,225537.000,A,3748.1492,N,12217.7677,W,1.09,132.76,110415,,,A*71
$GPRMC,225538.000,A,3748.1491,N,12217.7676,W,0.55,74.37,110415,,,A*42
$GPRMC,225539.000,A,3748.1493,N,12217.7673,W,0.85,86.59,110415,,,A*4C
$GPRMC,225540.000,A,3748.1493,N,12217.7671,W,1.02,92.27,110415,,,A*42
$GPRMC,225541.000,A,3748.1493,N,12217.7670,W,0.90,56.20,110415,,,A*47
$GPRMC,225542.000,A,3748.1496,N,12217.7668,W,1.21,6.01,110415,,,A*75
$GPRMC,225543.000,A,3748.1498,N,12217.7666,W,0.38,0.27,110415,,,A*7F
$GPRMC,225544.000,A,3748.1499,N,12217.7665,W,0.20,80.37,110415,,,A*4A
$GPRMC,225545.000,A,3748.1498,N,12217.7666,W,0.53,215.32,110415,,,A*76
$GPRMC,225546.000,A,3748.1496,N,12217.7670,W,1.11,252.94,110415,,,A*74
$GPRMC,225547.000,A,3748.1494,N,12217.7677,W,1.19,251.91,110415,,,A*7E
$GPRMC,225548.000,A,3748.1490,N,12217.7682,W,1.27,235.48,110415,,,A*74
$GPRMC,225549.000,A,3748.1492,N,12217.7684,W,0.78,293.11,110415,,,A*7A
$GPRMC,225550.000,A,3748.1497,N,12217.7688,W,0.85,313.77,110415,,,A*70
$GPRMC,225551.000,A,3748.1501,N,12217.7689,W,0.85,290.88,110415,,,A*74
$GPRMC,225552.000,A,3748.1504,N,12217.7691,W,1.36,302.48,110415,,,A*74
$GPRMC,225553.000,A,3748.1507,N,12217.7693,W,1.20,304.45,110415,,,A*78
$GPRMC,225554.000,A,3748.1510,N,12217.7698,W,0.95,315.62,110415,,,A*78
$GPRMC,225555.000,A,3748.1511,N,12217.7703,W,0.91,315.21,110415,,,A*78
$GPRMC,225556.000,A,3748.1512,N,12217.7710,W,0.87,281.83,110415,,,A*79
$GPRMC,225557.000,A,3748.1510,N,12217.7713,W,0.81,238.46,110415,,,A*74
$GPRMC,225558.000,A,3748.1516,N,12217.7718,W,0.50,263.26,110415,,,A*72
$GPRMC,225559.000,A,3748.1520,N,12217.7719,W,0.37,256.63,110415,,,A*71
$GPRMC,225600.000,A,3748.1525,N,12217.7724,W,0.58,275.42,110415,,,A*7E
$GPRMC,225601.000,A,3748.1524,N,12217.7728,W,0.87,297.13,110415,,,A*78
$GPRMC,225602.000,A,3748.1521,N,12217.7734,W,1.06,275.40,110415,,,A*71
$GPRMC,225603.000,A,3748.1523,N,12217.7737,W,0.70,265.06,110415,,,A*72
$GPRMC,225604.000,A,3748.1521,N,12217.7738,W,0.98,213.60,110415,,,A*7F
$GPRMC,225605.000,A,3748.1516,N,12217.7736,W,0.22,252.99,110415,,,A*76
$GPRMC,225606.000,A,3748.1515,N,12217.7734,W,0.17,276.11,110415,,,A*74
$GPRMC,225607.000,A,3748.1516,N,12217.7733,W,0.52,320.44,110415,,,A*72
$GPRMC,225608.000,A,3748.1517,N,12217.7735,W,0.45,336.19,110415,,,A*73
$GPRMC,225609.000,A,3748.1516,N,12217.7735,W,0.38,149.34,110415,,,A*7C
$GPRMC,225610.000,A,3748.1513,N,12217.7738,W,0.40,148.24,110415,,,A*73
$GPRMC,225611.000,A,3748.1511,N,12217.7739,W,0.26,158.05,110415,,,A*73
$GPRMC,225612.000,A,3748.1509,N,12217.7738,W,0.98,152.18,110415,,,A*7B
$GPRMC,225613.000,A,3748.1505,N,12217.7733,W,0.38,196.96,110415,,,A*79
$GPRMC,225614.000,A,3748.1509,N,12217.7736,W,0.63,19.06,110415,,,A*46
$GPRMC,225615.000,A,3748.1509,N,12217.7739,W,1.22,272.62,110415,,,A*71
$GPRMC,225616.000,A,3748.1509,N,12217.7746,W,1.85,278.69,110415,,,A*76
$GPRMC,225617.000,A,3748.1510,N,12217.7752,W,1.56,259.87,110415,,,A*77
$GPRMC,225618.000,A,3748.1510,N,12217.7759,W,1.94,256.49,110415,,,A*70
$GPRMC,225619.000,A,3748.1510,N,12217.7764,W,1.96,272.89,110415,,,A*77
$GPRMC,225620.000,A,3748.1510,N,12217.7771,W,2.04,276.16,110415,,,A*73
$GPRMC,225621.000,A,3748.1511,N,12217.7778,W,1.98,278.53,110415,,,A*73
$GPRMC,225622.000,A,3748.1512,N,12217.7785,W,1.87,273.49,110415,,,A*7F
$GPRMC,225623.000,A,3748.1513,N,12217.7791,W,1.67,258.66,110415,,,A*70
$GPRMC,225624.000,A,3748.1513,N,12217.7797,W,1.84,268.43,110415,,,A*78
$GPRMC,225625.000,A,3748.1513,N,12217.7804,W,1.80,263.38,110415,,,A*7F
$GPRMC,225626.000,A,3748.1513,N,12217.7812,W,2.01,265.37,110415,,,A*78
$GPRMC,225627.000,A,3748.1514,N,12217.7820,W,2.08,274.37,110415,,,A*76
$GPRMC,225628.000,A,3748.1514,N,12217.7828,W,1.90,270.93,110415,,,A*79
$GPRMC,225629.000,A,3748.1515,N,12217.7834,W,1.74,267.86,110415,,,A*7C
$GPRMC,225630.000,A,3748.1514,N,12217.7841,W,1.60,257.87,110415,,,A*70
$GPRMC,225631.000,A,3748.1513,N,12217.7848,W,1.80,250.08,110415,,,A*71
$GPRMC,225632.000,A,3748.1512,N,12217.7855,W,1.84,260.55,110415,,,A*70
$GPRMC,225633.000,A,3748.1512,N,12217.7863,W,2.11,261.32,110415,,,A*7B
$GPRMC,225634.000,A,3748.1511,N,12217.7871,W,2.06,252.93,110415,,,A*71
$GPRMC,225635.000,A,3748.1509,N,12217.7879,W,2.31,249.11,110415,,,A*75
$GPRMC,225636.000,A,3748.1508,N,12217.7888,W,2.34,259.50,110415,,,A*78
$GPRMC,225637.000,A,3748.1507,N,12217.7897,W,2.21,249.03,110415,,,A*7B
$GPRMC,225638.000,A,3748.1506,N,12217.7904,W,2.00,254.87,110415,,,A*7D
$GPRMC,225639.000,A,3748.1505,N,12217.7912,W,2.12,250.38,110415,,,A*7B
$GPRMC,225640.000,A,3748.1504,N,12217.7921,W,2.44,258.18,110415,,,A*7D
$GPRMC,225641.000,A,3748.1503,N,12217.7930,W,1.79,250.92,110415,,,A*7C
$GPRMC,225642.000,A,3748.1501,N,12217.7938,W,1.46,255.19,110415,,,A*7F
$GPRMC,225643.000,A,3748.1500,N,12217.7945,W,1.88,250.79,110415,,,A*74
$GPRMC,225644.000,A,3748.1498,N,12217.7953,W,2.04,235.29,110415,,,A*75
$GPRMC,225645.000,A,3748.1496,N,12217.7962,W,1.91,242.76,110415,,,A*7D
$GPRMC,225646.000,A,3748.1494,N,12217.7971,W,1.98,236.91,110415,,,A*7D
$GPRMC,225647.000,A,3748.1493,N,12217.7978,W,2.03,253.07,110415,,,A*7F
$GPRMC,225648.000,A,3748.1492,N,12217.7985,W,1.52,244.12,110415,,,A*76
$GPRMC,225649.000,A,3748.1492,N,12217.7990,W,1.57,227.91,110415,,,A*78
$GPRMC,225650.000,A,3748.1491,N,12217.7994,W,1.40,235.70,110415,,,A*7D
$GPRMC,225651.000,A,3748.1489,N,12217.7999,W,1.41,237.33,110415,,,A*7C
$GPRMC,225652.000,A,3748.1488,N,12217.8006,W,1.71,243.83,110415,,,A*75
$GPRMC,225653.000,A,3748.1486,N,12217.8016,W,1.82,241.34,110415,,,A*79
$GPRMC,225654.000,A,3748.1484,N,12217.8023,W,2.03,249.39,110415,,,A*75
$GPRMC,225655.000,A,3748.1483,N,12217.8031,W,2.11,250.45,110415,,,A*70
$GPRMC,225656.000,A,3748.1481,N,12217.8040,W,2.13,241.13,110415,,,A*76
$GPRMC,225657.000,A,3748.1478,N,12217.8051,W,2.00,233.62,110415,,,A*70
$GPRMC,225658.000,A,3748.1475,N,12217.8057,W,1.66,230.70,110415,,,A*77
$GPRMC,225659.000,A,3748.1475,N,12217.8062,W,1.30,246.41,110415,,,A*70
$GPRMC,225700.000,A,3748.1476,N,12217.8067,W,1.43,263.97,110415,,,A*73
$GPRMC,225701.000,A,3748.1478,N,12217.8076,W,2.37,269.53,110415,,,A*7E
$GPRMC,225702.000,A,3748.1479,N,12217.8085,W,2.19,260.26,110415,,,A*77
$GPRMC,225703.000,A,3748.1479,N,12217.8092,W,1.92,259.26,110415,,,A*7A
$GPRMC,225704.000,A,3748.1481,N,12217.8102,W,1.82,261.82,110415,,,A*76
$GPRMC,225705.000,A,3748.1483,N,12217.8112,W,2.05,274.20,110415,,,A*74
$GPRMC,225706.000,A,3748.1486,N,12217.8121,W,1.97,283.72,110415,,,A*75
$GPRMC,225707.000,A,3748.1489,N,12217.8130,W,1.91,278.66,110415,,,A*7C
$GPRMC,225708.000,A,3748.1492,N,12217.8139,W,2.06,290.10,110415,,,A*7A
$GPRMC,225709.000,A,3748.1494,N,12217.8147,W,1.82,282.72,110415,,,A*7C
$GPRMC,225710.000,A,3748.1496,N,12217.8154,W,1.69,278.75,110415,,,A*73
$GPRMC,225711.000,A,3748.1498,N,12217.8162,W,1.93,284.15,110415,,,A*79
$GPRMC,225712.000,A,3748.1501,N,12217.8169,W,2.02,295.60,110415,,,A*79
$GPRMC,225713.000,A,3748.1504,N,12217.8179,W,1.94,286.78,110415,,,A*7B
$GPRMC,225714.000,A,3748.1506,N,12217.8187,W,1.66,290.42,110415,,,A*7C
$GPRMC,225715.000,A,3748.1506,N,12217.8194,W,1.74,293.80,110415,,,A*71
$GPRMC,225716.000,A,3748.1510,N,12217.8199,W,1.73,299.78,110415,,,A*72
$GPRMC,225717.000,A,3748.1524,N,12217.8204,W,1.49,319.42,110415,,,A*7A
$GPRMC,225718.000,A,3748.1536,N,12217.8208,W,1.47,319.42,110415,,,A*74
$GPRMC,225719.000,A,3748.1548,N,12217.8212,W,1.91,333.70,110415,,,A*75
$GPRMC,225720.000,A,3748.1555,N,12217.8218,W,2.17,329.49,110415,,,A*75
$GPRMC,225721.000,A,3748.1565,N,12217.8221,W,2.05,339.44,110415,,,A*72
$GPRMC,225722.000,A,3748.1570,N,12217.8222,W,1.89,348.46,110415,,,A*75
$GPRMC,225723.000,A,3748.1577,N,12217.8222,W,2.16,348.85,110415,,,A*79
$GPRMC,225724.000,A,3748.1584,N,12217.8222,W,1.85,0.16,110415,,,A*7E
$GPRMC,225725.000,A,3748.1590,N,12217.8224,W,1.64,359.75,110415,,,A*79
$GPRMC,225726.000,A,3748.1595,N,12217.8225,W,1.59,0.95,110415,,,A*71
$GPRMC,225727.000,A,3748.1600,N,12217.8225,W,2.38,3.11,110415,,,A*74
$GPRMC,225728.000,A,3748.1604,N,12217.8223,W,1.93,7.74,110415,,,A*7C
$GPRMC,225729.000,A,3748.1610,N,12217.8224,W,1.48,357.50,110415,,,A*79
$GPRMC,225730.000,A,3748.1615,N,12217.8223,W,1.76,352.87,110415,,,A*71
$GPRMC,225731.000,A,3748.1620,N,12217.8221,W,1.84,355.15,110415,,,A*75
$GPRMC,225732.000,A,3748.1625,N,12217.8220,W,2.04,355.45,110415,,,A*7C
$GPRMC,225733.000,A,3748.1630,N,12217.8218,W,2.03,3.56,110415,,,A*77
$GPRMC,225734.000,A,3748.1634,N,12217.8216,W,1.73,4.12,110415,,,A*79
$GPRMC,225735.000,A,3748.1636,N,12217.8210,W,1.36,26.21,110415,,,A*4D
$GPRMC,225736.000,A,3748.1638,N,12217.8204,W,1.20,45.15,110415,,,A*40
$GPRMC,225737.000,A,3748.1643,N,12217.8198,W,1.48,48.48,110415,,,A*40
$GPRMC,225738.000,A,3748.1645,N,12217.8194,W,2.07,30.61,110415,,,A*49
$GPRMC,225739.000,A,3748.1648,N,12217.8188,W,2.16,57.50,110415,,,A*4B
$GPRMC,225740.000,A,3748.1649,N,12217.8178,W,2.13,86.14,110415,,,A*42
$GPRMC,225741.000,A,3748.1647,N,12217.8172,W,1.71,93.43,110415,,,A*46
$GPRMC,225742.000,A,3748.1646,N,12217.8166,W,1.64,85.66,110415,,,A*45
$GPRMC,225743.000,A,3748.1645,N,12217.8158,W,1.34,103.73,110415,,,A*74
$GPRMC,225744.000,A,3748.1643,N,12217.8151,W,1.66,95.75,110415,,,A*43
$GPRMC,225745.000,A,3748.1643,N,12217.8143,W,2.09,83.80,110415,,,A*46
$GPRMC,225746.000,A,3748.1642,N,12217.8135,W,1.96,77.91,110415,,,A*4B
$GPRMC,225747.000,A,3748.1642,N,12217.8126,W,1.70,83.18,110415,,,A*4A
$GPRMC,225748.000,A,3748.1641,N,12217.8119,W,1.99,78.07,110415,,,A*47
$GPRMC,225749.000,A,3748.1638,N,12217.8112,W,1.77,86.22,110415,,,A*45
$GPRMC,225750.000,A,3748.1637,N,12217.8104,W,2.19,84.26,110415,,,A*48
$GPRMC,225751.000,A,3748.1637,N,12217.8094,W,2.22,102.52,110415,,,A*75
$GPRMC,225752.000,A,3748.1634,N,12217.8086,W,2.04,109.54,110415,,,A*7F
$GPRMC,225753.000,A,3748.1630,N,12217.8078,W,2.28,115.43,110415,,,A*7E
$GPRMC,225754.000,A,3748.1626,N,12217.8072,W,2.21,99.94,110415,,,A*42
$GPRMC,225755.000,A,3748.1625,N,12217.8063,W,2.07,113.74,110415,,,A*79
$GPRMC,225756.000,A,3748.1621,N,12217.8055,W,2.42,112.89,110415,,,A*79
$GPRMC,225757.000,A,3748.1618,N,12217.8046,W,2.17,104.79,110415,,,A*78
$GPRMC,225758.000,A,3748.1616,N,12217.8038,W,2.05,98.61,110415,,,A*4E
$GPRMC,225759.000,A,3748.1615,N,12217.8030,W,2.04,95.16,110415,,,A*48
$GPRMC,225800.000,A,3748.1614,N,12217.8023,W,2.27,108.18,110415,,,A*72
$GPRMC,225801.000,A,3748.1612,N,12217.8014,W,2.23,99.89,110415,,,A*44
$GPRMC,225802.000,A,3748.1611,N,12217.8005,W,2.36,91.98,110415,,,A*48
$GPRMC,225803.000,A,3748.1610,N,12217.7996,W,2.10,102.03,110415,,,A*79
$GPRMC,225804.000,A,3748.1607,N,12217.7988,W,2.31,97.85,110415,,,A*47
$GPRMC,225805.000,A,3748.1606,N,12217.7981,W,1.86,99.90,110415,,,A*4B
$GPRMC,225806.000,A,3748.1602,N,12217.7974,W,2.11,100.23,110415,,,A*72
$GPRMC,225807.000,A,3748.1601,N,12217.7965,W,2.28,100.86,110415,,,A*75
$GPRMC,225808.000,A,3748.1599,N,12217.7957,W,2.12,104.15,110415,,,A*7E
$GPRMC,225809.000,A,3748.1598,N,12217.7949,W,2.05,99.52,110415,,,A*41
$GPRMC,225810.000,A,3748.1596,N,12217.7941,W,2.30,105.77,110415,,,A*7A
$GPRMC,225811.000,A,3748.1594,N,12217.7932,W,2.40,110.89,110415,,,A*7F
$GPRMC,225812.000,A,3748.1591,N,12217.7923,W,2.18,110.49,110415,,,A*78
$GPRMC,225813.000,A,3748.1588,N,12217.7914,W,1.69,102.04,110415,,,A*7A
$GPRMC,225814.000,A,3748.1586,N,12217.7909,W,1.23,106.18,110415,,,A*78
$GPRMC,225815.000,A,3748.1584,N,12217.7904,W,1.71,103.47,110415,,,A*7E
$GPRMC,225816.000,A,3748.1584,N,12217.7897,W,1.92,105.51,110415,,,A*7A
$GPRMC,225817.000,A,3748.1583,N,12217.7890,W,2.16,98.82,110415,,,A*4F
$GPRMC,225818.000,A,3748.1581,N,12217.7882,W,2.14,109.25,110415,,,A*77
$GPRMC,225819.000,A,3748.1575,N,12217.7876,W,1.90,103.63,110415,,,A*71
$GPRMC,225820.000,A,3748.1573,N,12217.7870,W,1.65,102.69,110415,,,A*7A
$GPRMC,225821.000,A,3748.1571,N,12217.7864,W,1.79,98.75,110415,,,A*4E
$GPRMC,225822.000,A,3748.1571,N,12217.7857,W,1.85,87.87,110415,,,A*4D
$GPRMC,225823.000,A,3748.1570,N,12217.7848,W,2.10,92.03,110415,,,A*44
$GPRMC,225824.000,A,3748.1568,N,12217.7839,W,1.80,106.44,110415,,,A*79
$GPRMC,225825.000,A,3748.1567,N,12217.7831,W,2.02,84.14,110415,,,A*48
$GPRMC,225826.000,A,3748.1566,N,12217.7821,W,1.84,87.36,110415,,,A*45
$GPRMC,225827.000,A,3748.1566,N,12217.7814,W,1.89,90.80,110415,,,A*44
$GPRMC,225828.000,A,3748.1564,N,12217.7806,W,1.77,108.41,110415,,,A*76
$GPRMC,225829.000,A,3748.1562,N,12217.7798,W,2.08,103.37,110415,,,A*78
$GPRMC,225830.000,A,3748.1559,N,12217.7790,W,2.07,124.80,110415,,,A*76
$GPRMC,225831.000,A,3748.1557,N,12217.7782,W,1.87,114.66,110415,,,A*7A
$GPRMC,225832.000,A,3748.1554,N,12217.7775,W,1.91,113.53,110415,,,A*74
$GPRMC,225833.000,A,3748.1551,N,12217.7768,W,1.96,121.20,110415,,,A*7E
$GPRMC,225834.000,A,3748.1549,N,12217.7763,W,1.86,113.83,110415,,,A*72
$GPRMC,225835.000,A,3748.1546,N,12217.7756,W,1.90,108.35,110415,,,A*7A
$GPRMC,225836.000,A,3748.1546,N,12217.7747,W,1.80,108.05,110415,,,A*7B
$GPRMC,225837.000,A,3748.1543,N,12217.7741,W,1.83,114.77,110415,,,A*72
$GPRMC,225838.000,A,3748.1540,N,12217.7734,W,2.02,116.87,110415,,,A*7B
$GPRMC,225839.000,A,3748.1537,N,12217.7727,W,1.65,106.07,110415,,,A*73
$GPRMC,225840.000,A,3748.1536,N,12217.7720,W,1.51,106.56,110415,,,A*78
$GPRMC,225841.000,A,3748.1535,N,12217.7713,W,1.69,104.55,110415,,,A*70
$GPRMC,225842.000,A,3748.1533,N,12217.7706,W,1.90,103.21,110415,,,A*73
$GPRMC,225843.000,A,3748.1531,N,12217.7696,W,2.16,104.87,110415,,,A*7E
$GPRMC,225844.000,A,3748.1528,N,12217.7687,W,1.70,108.06,110415,,,A*77
$GPRMC,225845.000,A,3748.1525,N,12217.7681,W,1.08,99.67,110415,,,A*4C
$GPRMC,225846.000,A,3748.1526,N,12217.7675,W,1.26,68.05,110415,,,A*41
$GPRMC,225847.000,A,3748.1526,N,12217.7669,W,1.43,59.93,110415,,,A*43
$GPRMC,225848.000,A,3748.1528,N,12217.7663,W,1.40,57.40,110415,,,A*4B
$GPRMC,225849.000,A,3748.1528,N,12217.7656,W,1.63,65.08,110415,,,A*40
$GPRMC,225850.000,A,3748.1528,N,12217.7649,W,1.52,73.88,110415,,,A*4B
$GPRMC,225851.000,A,3748.1527,N,12217.7643,W,1.42,105.07,110415,,,A*79
$GPRMC,225852.000,A,3748.1525,N,12217.7635,W,1.24,95.68,110415,,,A*48
$GPRMC,225853.000,A,3748.1525,N,12217.7627,W,1.77,88.19,110415,,,A*46
$GPRMC,225854.000,A,3748.1524,N,12217.7619,W,2.08,83.17,110415,,,A*43
$GPRMC,225855.000,A,3748.1520,N,12217.7611,W,1.74,85.29,110415,,,A*4D
$GPRMC,225856.000,A,3748.1516,N,12217.7602,W,1.55,106.57,110415,,,A*79
$GPRMC,225857.000,A,3748.1514,N,12217.7593,W,1.62,98.20,110415,,,A*43
$GPRMC,225858.000,A,3748.1512,N,12217.7586,W,1.39,97.74,110415,,,A*4E
$GPRMC,225859.000,A,3748.1510,N,12217.7579,W,1.49,98.23,110415,,,A*47
$GPRMC,225900.000,A,3748.1508,N,12217.7572,W,1.13,88.36,110415,,,A*42
$GPRMC,225901.000,A,3748.1506,N,12217.7567,W,0.65,114.88,110415,,,A*78
$GPRMC,225902.000,A,3748.1503,N,12217.7565,W,0.74,122.50,110415,,,A*7C
$GPRMC,225903.000,A,3748.1501,N,12217.7562,W,0.79,102.68,110415,,,A*7C
$GPRMC,225904.000,A,3748.1496,N,12217.7558,W,0.47,89.56,110415,,,A*4F
$GPRMC,225905.000,A,3748.1493,N,12217.7559,W,0.38,109.39,110415,,,A*72
$GPRMC,225906.000,A,3748.1488,N,12217.7556,W,0.87,153.12,110415,,,A*76
$GPRMC,225907.000,A,3748.1487,N,12217.7555,W,0.77,89.12,110415,,,D*47
$GPRMC,225908.000,A,3748.1490,N,12217.7553,W,1.08,29.44,110415,,,D*48
$GPRMC,225909.000,A,3748.1494,N,12217.7549,W,1.54,22.33,110415,,,D*44
$GPRMC,225910.000,A,3748.1501,N,12217.7548,W,1.38,15.34,110415,,,D*49
$GPRMC,225911.000,A,3748.1506,N,12217.7546,W,1.33,18.81,110415,,,D*49
$GPRMC,225912.000,A,3748.1509,N,12217.7544,W,0.94,33.27,110415,,,D*4E
$GPRMC,225913.000,A,3748.1513,N,12217.7539,W,1.21,73.28,110415,,,D*4A
$GPRMC,225914.000,A,3748.1512,N,12217.7532,W,1.21,84.48,110415,,,D*49
$GPRMC,225915.000,A,3748.1514,N,12217.7524,W,1.46,93.08,110415,,,D*4A
$GPRMC,225916.000,A,3748.1514,N,12217.7518,W,1.08,99.29,110415,,,D*45
$GPRMC,225917.000,A,3748.1514,N,12217.7516,W,0.41,98.89,110415,,,D*4D
$GPRMC,225918.000,A,3748.1515,N,12217.7516,W,0.24,66.53,110415,,,D*46
$GPRMC,225919.000,A,3748.1516,N,12217.7516,W,0.24,90.54,110415,,,D*4A
$GPRMC,225920.000,A,3748.1517,N,12217.7515,W,0.20,123.16,110415,,,D*79
$GPRMC,225921.000,A,3748.1517,N,12217.7514,W,0.31,144.47,110415,,,D*7C
$GPRMC,225922.000,A,3748.1517,N,12217.7517,W,0.12,316.55,110415,,,D*7B
$GPRMC,225923.000,A,3748.1517,N,12217.7519,W,0.39,295.64,110415,,,D*75
$GPRMC,225924.000,A,3748.1517,N,12217.7521,W,0.06,324.83,110415,,,D*77
$GPRMC,225925.000,A,3748.1519,N,12217.7523,W,0.13,10.93,110415,,,D*4B
$GPRMC,225926.000,A,3748.1521,N,12217.7524,W,0.12,252.01,110415,,,D*7A
$GPRMC,225927.000,A,3748.1523,N,12217.7523,W,0.38,238.92,110415,,,D*70
$GPRMC,225928.000,A,3748.1526,N,12217.7520,W,0.23,29.55,110415,,,D*4A
$GPRMC,225929.000,A,3748.1528,N,12217.7517,W,0.47,140.66,110415,,,D*7D
$GPRMC,225930.000,A,3748.1529,N,12217.7516,W,0.50,143.59,110415,,,D*7C
$GPRMC,225931.000,A,3748.1528,N,12217.7516,W,0.36,160.96,110415,,,D*7E
$GPRMC,225932.000,A,3748.1528,N,12217.7516,W,0.38,222.63,110415,,,D*7C
$GPRMC,225933.000,A,3748.1529,N,12217.7517,W,0.24,166.28,110415,,,D*7C
$GPRMC,225934.000,A,3748.1529,N,12217.7518,W,0.10,123.73,110415,,,D*7C
$GPRMC,225935.000,A,3748.1530,N,12217.7518,W,0.43,325.25,110415,,,D*74
$GPRMC,225936.000,A,3748.1531,N,12217.7518,W,0.49,9.83,110415,,,D*7D
$GPRMC,225937.000,A,3748.1532,N,12217.7518,W,0.65,281.20,110415,,,D*7A
$GPRMC,225938.000,A,3748.1532,N,12217.7520,W,0.54,283.96,110415,,,D*73
$GPRMC,225939.000,A,3748.1532,N,12217.7522,W,1.14,272.69,110415,,,D*7B
$GPRMC,225940.000,A,3748.1531,N,12217.7525,W,1.31,227.82,110415,,,D*73
$GPRMC,225941.000,A,3748.1527,N,12217.7528,W,1.91,191.70,110415,,,D*71
$GPRMC,225942.000,A,3748.1523,N,12217.7534,W,1.92,198.29,110415,,,D*7D
$GPRMC,225943.000,A,3748.1521,N,12217.7536,W,1.67,174.12,110415,,,D*7C
$GPRMC,225944.000,A,3748.1518,N,12217.7536,W,1.58,176.49,110415,,,D*71
$GPRMC,225945.000,A,3748.1513,N,12217.7536,W,1.61,157.41,110415,,,D*7A
$GPRMC,225946.000,A,3748.1510,N,12217.7537,W,1.23,186.34,110415,,,D*73
$GPRMC,225947.000,A,3748.1507,N,12217.7540,W,1.09,218.89,110415,,,D*7E
$GPRMC,225948.000,A,3748.1505,N,12217.7543,W,0.50,210.33,110415,,,A*71
$GPRMC,225949.000,A,3748.1503,N,12217.7541,W,0.14,252.35,110415,,,A*74
$GPRMC,225950.000,A,3748.1504,N,12217.7540,W,0.35,292.93,110415,,,A*79
$GPRMC,225951.000,A,3748.1503,N,12217.7538,W,0.23,217.11,110415,,,A*70
$GPRMC,225952.000,A,3748.1504,N,12217.7535,W,0.35,308.41,110415,,,A*74
$GPRMC,225953.000,A,3748.1504,N,12217.7535,W,0.28,205.70,110415,,,A*77
$GPRMC,225954.000,A,3748.1503,N,12217.7531,W,0.52,185.06,110415,,,A*74
$GPRMC,225955.000,A,3748.1506,N,12217.7529,W,0.38,334.26,110415,,,A*7F
$GPRMC,225956.000,A,3748.1508,N,12217.7527,W,0.60,334.24,110415,,,A*73
$GPRMC,225957.000,A,3748.1511,N,12217.7524,W,1.14,348.25,110415,,,A*71
$GPRMC,225958.000,A,3748.1515,N,12217.7521,W,0.40,11.30,110415,,,A*44
$GPRMC,225959.000,A,3748.1507,N,12217.7520,W,0.81,163.01,110415,,,A*7C
$GPRMC,230000.000,A,3748.1511,N,12217.7516,W,0.60,37.59,110415,,,A*4D
$GPRMC,230001.000,A,3748.1503,N,12217.7510,W,0.64,17.60,110415,,,A*45
$GPRMC,230002.000,A,3748.1504,N,12217.7506,W,1.35,20.63,110415,,,A*44
$GPRMC,230003.000,A,3748.1502,N,12217.7501,W,1.00,13.69,110415,,,A*48
$GPRMC,230004.000,A,3748.1502,N,12217.7498,W,0.83,10.10,110415,,,A*49
$GPRMC,230005.000,A,3748.1504,N,12217.7496,W,1.10,357.19,110415,,,A*72
$GPRMC,230006.000,A,3748.1511,N,12217.7497,W,1.68,357.95,110415,,,A*7F
$GPRMC,230007.000,A,3748.1520,N,12217.7500,W,1.09,348.85,110415,,,A*7B
$GPRMC,230008.000,A,3748.1527,N,12217.7501,W,0.81,357.59,110415,,,A*7C
$GPRMC,230009.000,A,3748.1530,N,12217.7503,W,0.67,336.26,110415,,,A*7E
$GPRMC,230010.000,A,3748.1533,N,12217.7507,W,0.38,277.46,110415,,,A*79
$GPRMC,230011.000,A,3748.1535,N,12217.7509,W,0.34,13.17,110415,,,A*48
$GPRMC,230012.000,A,3748.1534,N,12217.7510,W,0.10,182.91,110415,,,A*73
$GPRMC,230013.000,A,3748.1534,N,12217.7511,W,0.22,263.06,110415,,,D*75
$GPRMC,230014.000,A,3748.1529,N,12217.7514,W,0.26,200.94,110415,,,D*71
$GPRMC,230015.000,A,3748.1528,N,12217.7514,W,0.29,64.56,110415,,,D*40
$GPRMC,230016.000,A,3748.1530,N,12217.7513,W,0.94,22.85,110415,,,D*47
$GPRMC,230017.000,A,3748.1530,N,12217.7511,W,0.89,19.28,110415,,,D*47
$GPRMC,230018.000,A,3748.1533,N,12217.7508,W,1.42,358.29,110415,,,D*72
$GPRMC,230019.000,A,3748.1537,N,12217.7510,W,0.31,296.50,110415,,,D*76
$GPRMC,230020.000,A,3748.1538,N,12217.7510,W,0.55,317.91,110415,,,D*74
$GPRMC,230021.000,A,3748.1541,N,12217.7511,W,1.10,344.08,110415,,,D*7C
$GPRMC,230022.000,A,3748.1547,N,12217.7515,W,1.38,325.10,110415,,,D*79
$GPRMC,230023.000,A,3748.1554,N,12217.7518,W,1.83,331.08,110415,,,D*7B
$GPRMC,230024.000,A,3748.1559,N,12217.7522,W,1.72,327.93,110415,,,D*73
$GPRMC,230025.000,A,3748.1563,N,12217.7526,W,1.49,320.88,110415,,,D*7A
$GPRMC,230026.000,A,3748.1568,N,12217.7530,W,1.93,326.83,110415,,,D*7F
$GPRMC,230027.000,A,3748.1574,N,12217.7531,W,1.74,331.16,110415,,,D*71
$GPRMC,230028.000,A,3748.1579,N,12217.7532,W,1.68,335.06,110415,,,D*78
$GPRMC,230029.000,A,3748.1583,N,12217.7536,W,1.35,323.80,110415,,,D*79
$GPRMC,230030.000,A,3748.1588,N,12217.7538,W,1.73,325.49,110415,,,D*75
$GPRMC,230031.000,A,3748.1594,N,12217.7540,W,2.28,351.15,110415,,,D*71
$GPRMC,230032.000,A,3748.1600,N,12217.7539,W,2.24,7.31,110415,,,A*7D
$GPRMC,230033.000,A,3748.1606,N,12217.7537,W,2.43,7.19,110415,,,A*7F
$GPRMC,230034.000,A,3748.1611,N,12217.7536,W,1.62,11.85,110415,,,A*4D
$GPRMC,230035.000,A,3748.1613,N,12217.7530,W,1.88,5.15,110415,,,A*70
$GPRMC,230036.000,A,3748.1619,N,12217.7529,W,2.21,354.33,110415,,,A*72
$GPRMC,230037.000,A,3748.1626,N,12217.7530,W,2.21,0.02,110415,,,A*77
$GPRMC,230038.000,A,3748.1630,N,12217.7530,W,0.79,21.22,110415,,,A*41
$GPRMC,230039.000,A,3748.1635,N,12217.7528,W,1.38,11.26,110415,,,A*4F
$GPRMC,230040.000,A,3748.1638,N,12217.7528,W,0.66,10.55,110415,,,A*43
$GPRMC,230041.000,A,3748.1641,N,12217.7525,W,0.80,43.48,110415,,,A*43
$GPRMC,230042.000,A,3748.1646,N,12217.7522,W,0.84,29.32,110415,,,A*45
$GPRMC,230043.000,A,3748.1653,N,12217.7520,W,1.19,359.13,110415,,,A*70
$GPRMC,230044.000,A,3748.1659,N,12217.7519,W,1.47,359.34,110415,,,A*79
$GPRMC,230045.000,A,3748.1664,N,12217.7520,W,1.33,6.35,110415,,,A*77
$GPRMC,230046.000,A,3748.1668,N,12217.7521,W,1.71,359.78,110415,,,A*7F
$GPRMC,230047.000,A,3748.1672,N,12217.7520,W,1.34,354.24,110415,,,A*71
$GPRMC,230048.000,A,3748.1675,N,12217.7517,W,0.58,330.51,110415,,,A*76
$GPRMC,230049.000,A,3748.1675,N,12217.7516,W,0.12,275.61,110415,,,A*7B
$GPRMC,230050.000,A,3748.1675,N,12217.7517,W,0.50,347.18,110415,,,A*7A
$GPRMC,230051.000,A,3748.1678,N,12217.7519,W,0.54,353.01,110415,,,A*71
$GPRMC,230052.000,A,3748.1684,N,12217.7517,W,1.20,9.53,110415,,,A*76
$GPRMC,230053.000,A,3748.1684,N,12217.7518,W,0.96,9.58,110415,,,A*7F
$GPRMC,230054.000,A,3748.1686,N,12217.7516,W,0.69,28.68,110415,,,A*44
$GPRMC,230055.000,A,3748.1685,N,12217.7516,W,0.11,180.28,110415,,,A*7E
$GPRMC,230056.000,A,3748.1683,N,12217.7517,W,0.38,213.22,110415,,,A*72
$GPRMC,230057.000,A,3748.1681,N,12217.7518,W,0.27,146.41,110415,,,A*76
$GPRMC,230058.000,A,3748.1679,N,12217.7518,W,0.37,183.03,110415,,,A*70
$GPRMC,230059.000,A,3748.1679,N,12217.7516,W,0.30,183.25,110415,,,A*7C
$GPRMC,230100.000,A,3748.1677,N,12217.7519,W,0.60,218.82,110415,,,A*79
$GPRMC,230101.000,A,3748.1675,N,12217.7523,W,0.33,231.59,110415,,,D*7D
$GPRMC,230102.000,A,3748.1673,N,12217.7521,W,0.07,130.32,110415,,,D*72
$GPRMC,230103.000,A,3748.1672,N,12217.7521,W,0.46,52.14,110415,,,D*46
$GPRMC,230104.000,A,3748.1672,N,12217.7516,W,0.79,18.35,110415,,,D*44
$GPRMC,230105.000,A,3748.1673,N,12217.7512,W,0.53,15.56,110415,,,D*40
$GPRMC,230106.000,A,3748.1676,N,12217.7509,W,1.07,9.70,110415,,,D*75
$GPRMC,230107.000,A,3748.1677,N,12217.7510,W,0.47,44.45,110415,,,D*47
$GPRMC,230108.000,A,3748.1677,N,12217.7510,W,0.11,134.41,110415,,,D*79
$GPRMC,230109.000,A,3748.1679,N,12217.7512,W,0.49,211.23,110415,,,D*79
$GPRMC,230110.000,A,3748.1679,N,12217.7515,W,0.24,207.98,110415,,,D*7A
$GPRMC,230111.000,A,3748.1679,N,12217.7509,W,0.81,33.75,110415,,,D*4F
$GPRMC,230112.000,A,3748.1680,N,12217.7503,W,0.80,41.85,110415,,,D*4B
$GPRMC,230113.000,A,3748.1682,N,12217.7500,W,0.42,25.97,110415,,,D*44
$GPRMC,230114.000,A,3748.1684,N,12217.7496,W,0.94,20.82,110415,,,D*41
$GPRMC,230115.000,A,3748.1688,N,12217.7496,W,1.34,5.34,110415,,,D*7D
$GPRMC,230116.000,A,3748.1692,N,12217.7494,W,1.47,2.36,110415,,,D*76
$GPRMC,230117.000,A,3748.1696,N,12217.7494,W,1.36,15.98,110415,,,D*47
$GPRMC,230118.000,A,3748.1702,N,12217.7495,W,1.35,10.43,110415,,,D*45
$GPRMC,230119.000,A,3748.1706,N,12217.7495,W,1.02,10.82,110415,,,D*49
$GPRMC,230120.000,A,3748.1709,N,12217.7490,W,1.44,11.53,110415,,,D*46
$GPRMC,230121.000,A,3748.1715,N,12217.7490,W,1.73,358.74,110415,,,D*75
$GPRMC,230122.000,A,3748.1721,N,12217.7489,W,1.88,9.65,110415,,,D*7A
$GPRMC,230123.000,A,3748.1728,N,12217.7485,W,1.77,9.85,110415,,,D*70
$GPRMC,230124.000,A,3748.1734,N,12217.7483,W,1.05,21.55,110415,,,D*4E
$GPRMC,230125.000,A,3748.1738,N,12217.7481,W,1.59,23.90,110415,,,D*43
$GPRMC,230126.000,A,3748.1744,N,12217.7479,W,1.77,6.12,110415,,,D*7D
$GPRMC,230127.000,A,3748.1750,N,12217.7478,W,1.80,10.28,110415,,,D*4E
$GPRMC,230128.000,A,3748.1757,N,12217.7477,W,2.00,8.45,110415,,,D*70
$GPRMC,230129.000,A,3748.1763,N,12217.7476,W,1.96,5.43,110415,,,D*70
$GPRMC,230130.000,A,3748.1770,N,12217.7476,W,2.17,4.88,110415,,,A*73
$GPRMC,230131.000,A,3748.1777,N,12217.7478,W,1.71,351.80,110415,,,A*73
$GPRMC,230132.000,A,3748.1783,N,12217.7480,W,1.76,352.97,110415,,,A*7E
$GPRMC,230133.000,A,3748.1788,N,12217.7483,W,1.80,356.03,110415,,,A*77
$GPRMC,230134.000,A,3748.1793,N,12217.7483,W,2.04,5.25,110415,,,A*74
$GPRMC,230135.000,A,3748.1799,N,12217.7483,W,1.98,14.81,110415,,,A*47
$GPRMC,230136.000,A,3748.1804,N,12217.7482,W,1.88,14.71,110415,,,A*40
$GPRMC,230137.000,A,3748.1809,N,12217.7478,W,1.62,14.88,110415,,,A*4B
$GPRMC,230138.000,A,3748.1816,N,12217.7476,W,1.60,5.78,110415,,,A*79
$GPRMC,230139.000,A,3748.1821,N,12217.7475,W,1.61,9.77,110415,,,A*7D
$GPRMC,230140.000,A,3748.1825,N,12217.7474,W,1.64,15.33,110415,,,A*4E
$GPRMC,230141.000,A,3748.1830,N,12217.7474,W,1.39,10.09,110415,,,A*4F
$GPRMC,230142.000,A,3748.1834,N,12217.7474,W,1.62,5.00,110415,,,A*7B
$GPRMC,230143.000,A,3748.1840,N,12217.7473,W,1.35,7.70,110415,,,A*79
$GPRMC,230144.000,A,3748.1845,N,12217.7471,W,1.77,10.67,110415,,,A*4F
$GPRMC,230145.000,A,3748.1849,N,12217.7468,W,1.97,9.81,110415,,,A*74
$GPRMC,230146.000,A,3748.1856,N,12217.7466,W,1.84,13.80,110415,,,A*4F
$GPRMC,230147.000,A,3748.1862,N,12217.7464,W,1.68,1.41,110415,,,A*77
$GPRMC,230148.000,A,3748.1866,N,12217.7462,W,1.76,10.09,110415,,,A*49
$GPRMC,230149.000,A,3748.1871,N,12217.7459,W,1.42,14.40,110415,,,A*48
$GPRMC,230150.000,A,3748.1877,N,12217.7459,W,1.64,13.32,110415,,,A*40
$GPRMC,230151.000,A,3748.1881,N,12217.7457,W,1.26,46.98,110415,,,A*40
$GPRMC,230152.000,A,3748.1884,N,12217.7455,W,1.59,21.62,110415,,,A*48
$GPRMC,230153.000,A,3748.1887,N,12217.7453,W,0.88,26.30,110415,,,A*41
$GPRMC,230154.000,A,3748.1893,N,12217.7453,W,0.51,348.90,110415,,,A*76
$GPRMC,230155.000,A,3748.1897,N,12217.7453,W,1.27,5.10,110415,,,A*71
$GPRMC,230156.000,A,3748.1901,N,12217.7457,W,1.16,353.60,110415,,,A*7D
$GPRMC,230157.000,A,3748.1909,N,12217.7457,W,0.91,7.53,110415,,,A*78
$GPRMC,230158.000,A,3748.1916,N,12217.7455,W,1.34,16.01,110415,,,A*42
$GPRMC,230159.000,A,3748.1923,N,12217.7452,W,1.62,357.63,110415,,,A*73
$GPRMC,230200.000,A,3748.1923,N,12217.7445,W,1.50,12.97,110415,,,A*42
$GPRMC,230201.000,A,3748.1924,N,12217.7445,W,0.89,19.87,110415,,,A*4B
$GPRMC,230202.000,A,3748.1928,N,12217.7443,W,1.88,21.53,110415,,,A*40
$GPRMC,230203.000,A,3748.1936,N,12217.7439,W,2.05,26.16,110415,,,A*43
$GPRMC,230204.000,A,3748.1943,N,12217.7437,W,1.88,19.21,110415,,,A*46
$GPRMC,230205.000,A,3748.1951,N,12217.7433,W,2.35,8.15,110415,,,A*72
$GPRMC,230206.000,A,3748.1958,N,12217.7430,W,2.31,10.81,110415,,,A*4B
$GPRMC,230207.000,A,3748.1964,N,12217.7427,W,1.95,8.61,110415,,,A*79
$GPRMC,230208.000,A,3748.1970,N,12217.7424,W,2.13,1.25,110415,,,A*74
$GPRMC,230209.000,A,3748.1974,N,12217.7426,W,1.35,354.68,110415,,,A*7E
$GPRMC,230210.000,A,3748.1978,N,12217.7428,W,1.37,349.74,110415,,,A*77
$GPRMC,230211.000,A,3748.1982,N,12217.7428,W,1.02,334.17,110415,,,A*7A
$GPRMC,230212.000,A,3748.1984,N,12217.7428,W,0.77,335.12,110415,,,A*78
$GPRMC,230213.000,A,3748.1980,N,12217.7422,W,0.71,260.14,110415,,,A*76
$GPRMC,230214.000,A,3748.1980,N,12217.7422,W,0.55,263.70,110415,,,A*76
$GPRMC,230215.000,A,3748.1980,N,12217.7424,W,0.51,246.41,110415,,,A*70
$GPRMC,230216.000,A,3748.1979,N,12217.7425,W,0.44,247.86,110415,,,A*7A
$GPRMC,230217.000,A,3748.1977,N,12217.7422,W,0.74,264.05,110415,,,A*7B
$GPRMC,230218.000,A,3748.1977,N,12217.7425,W,0.87,280.63,110415,,,A*75
$GPRMC,230219.000,A,3748.1978,N,12217.7428,W,0.82,303.39,110415,,,A*76
$GPRMC,230220.000,A,3748.1980,N,12217.7430,W,0.67,301.83,110415,,,A*7A
$GPRMC,230221.000,A,3748.1980,N,12217.7425,W,0.57,320.97,110415,,,A*7A
$GPRMC,230222.000,A,3748.1978,N,12217.7421,W,0.07,14.69,110415,,,A*4A
$GPRMC,230223.000,A,3748.1980,N,12217.7422,W,0.26,344.71,110415,,,A*73
$GPRMC,230224.000,A,3748.1981,N,12217.7418,W,0.79,9.92,110415,,,A*71
$GPRMC,230225.000,A,3748.1987,N,12217.7415,W,1.69,19.63,110415,,,A*44
$GPRMC,230226.000,A,3748.1994,N,12217.7414,W,1.55,22.37,110415,,,A*42
$GPRMC,230227.000,A,3748.2000,N,12217.7414,W,1.33,11.02,110415,,,A*42
$GPRMC,230228.000,A,3748.2006,N,12217.7412,W,1.55,14.02,110415,,,A*48
$GPRMC,230229.000,A,3748.2013,N,12217.7408,W,2.06,9.61,110415,,,A*7A
$GPRMC,230230.000,A,3748.2016,N,12217.7405,W,1.85,17.46,110415,,,A*48
$GPRMC,230231.000,A,3748.2023,N,12217.7400,W,2.45,10.96,110415,,,A*4F
$GPRMC,230232.000,A,3748.2030,N,12217.7398,W,2.09,17.77,110415,,,A*48
$GPRMC,230233.000,A,3748.2035,N,12217.7393,W,2.27,16.24,110415,,,A*4C
$GPRMC,230234.000,A,3748.2039,N,12217.7386,W,2.19,15.58,110415,,,A*46
$GPRMC,230235.000,A,3748.2048,N,12217.7381,W,2.17,1.33,110415,,,A*70
$GPRMC,230236.000,A,3748.2055,N,12217.7380,W,2.08,0.44,110415,,,A*71
$GPRMC,230237.000,A,3748.2062,N,12217.7380,W,2.19,357.17,110415,,,D*76
$GPRMC,230238.000,A,3748.2069,N,12217.7382,W,1.91,1.42,110415,,,D*73
$GPRMC,230239.000,A,3748.2077,N,12217.7381,W,1.86,15.49,110415,,,D*46
$GPRMC,230240.000,A,3748.2081,N,12217.7377,W,1.12,13.80,110415,,,D*46
$GPRMC,230241.000,A,3748.2087,N,12217.7377,W,1.35,6.67,110415,,,D*79
$GPRMC,230242.000,A,3748.2091,N,12217.7376,W,1.50,7.37,110415,,,D*7B
$GPRMC,230243.000,A,3748.2098,N,12217.7375,W,2.26,14.55,110415,,,D*44
$GPRMC,230244.000,A,3748.2106,N,12217.7371,W,2.22,6.98,110415,,,D*77
$GPRMC,230245.000,A,3748.2112,N,12217.7370,W,1.82,8.08,110415,,,D*7C
$GPRMC,230246.000,A,3748.2117,N,12217.7374,W,1.70,353.76,110415,,,D*77
$GPRMC,230247.000,A,3748.2123,N,12217.7375,W,1.68,351.30,110415,,,D*79
$GPRMC,230248.000,A,3748.2128,N,12217.7375,W,1.82,355.70,110415,,,D*79
$GPRMC,230249.000,A,3748.2137,N,12217.7372,W,1.97,350.92,110415,,,D*7C
$GPRMC,230250.000,A,3748.2141,N,12217.7374,W,1.57,358.70,110415,,,D*7B
$GPRMC,230251.000,A,3748.2147,N,12217.7373,W,1.84,17.09,110415,,,D*43
$GPRMC,230252.000,A,3748.2155,N,12217.7369,W,1.86,5.85,110415,,,D*7D
$GPRMC,230253.000,A,3748.2161,N,12217.7364,W,1.90,8.28,110415,,,D*7B
$GPRMC,230254.000,A,3748.2167,N,12217.7360,W,2.13,17.82,110415,,,D*48
$GPRMC,230255.000,A,3748.2173,N,12217.7354,W,1.90,9.03,110415,,,A*70
$GPRMC,230256.000,A,3748.2178,N,12217.7349,W,1.92,6.11,110415,,,A*7A
$GPRMC,230257.000,A,3748.2183,N,12217.7342,W,1.87,18.64,110415,,,A*4D
$GPRMC,230258.000,A,3748.2187,N,12217.7336,W,1.76,7.39,110415,,,A*7D
$GPRMC,230259.000,A,3748.2193,N,12217.7332,W,2.39,8.22,110415,,,A*70
$GPRMC,230300.000,A,3748.2201,N,12217.7330,W,2.06,11.27,110415,,,A*46
$GPRMC,230301.000,A,3748.2209,N,12217.7330,W,2.03,10.55,110415,,,A*4E
$GPRMC,230302.000,A,3748.2216,N,12217.7327,W,2.14,14.78,110415,,,A*48
$GPRMC,230303.000,A,3748.2221,N,12217.7323,W,1.61,15.02,110415,,,A*44
$GPRMC,230304.000,A,3748.2225,N,12217.7319,W,1.78,12.30,110415,,,A*40
$GPRMC,230305.000,A,3748.2229,N,12217.7319,W,1.57,28.14,110415,,,A*4F
$GPRMC,230306.000,A,3748.2234,N,12217.7317,W,1.89,17.52,110415,,,A*43
$GPRMC,230307.000,A,3748.2237,N,12217.7311,W,1.71,28.60,110415,,,A*4D
$GPRMC,230308.000,A,3748.2240,N,12217.7304,W,1.17,23.85,110415,,,D*43
$GPRMC,230309.000,A,3748.2243,N,12217.7302,W,1.10,346.73,110415,,,D*79
$GPRMC,230310.000,A,3748.2246,N,12217.7301,W,1.38,349.23,110415,,,D*77
$GPRMC,230311.000,A,3748.2254,N,12217.7295,W,1.84,12.48,110415,,,D*4E
$GPRMC,230312.000,A,3748.2261,N,12217.7292,W,1.51,10.71,110415,,,D*4C
$GPRMC,230313.000,A,3748.2266,N,12217.7292,W,1.43,358.05,110415,,,D*75
$GPRMC,230314.000,A,3748.2272,N,12217.7290,W,1.04,4.72,110415,,,D*7C
$GPRMC,230315.000,A,3748.2279,N,12217.7288,W,1.50,7.35,110415,,,D*7E
$GPRMC,230316.000,A,3748.2286,N,12217.7286,W,1.41,357.96,110415,,,D*7C
$GPRMC,230317.000,A,3748.2293,N,12217.7285,W,0.77,10.92,110415,,,D*4A
$GPRMC,230318.000,A,3748.2295,N,12217.7287,W,0.63,97.59,110415,,,D*4C
$GPRMC,230319.000,A,3748.2296,N,12217.7289,W,0.78,82.10,110415,,,D*43
$GPRMC,230320.000,A,3748.2300,N,12217.7290,W,0.86,31.65,110415,,,D*44
$GPRMC,230321.000,A,3748.2304,N,12217.7292,W,1.35,2.14,110415,,,D*7C
$GPRMC,230322.000,A,3748.2308,N,12217.7293,W,1.27,352.42,110415,,,D*74
$GPRMC,230323.000,A,3748.2310,N,12217.7290,W,1.06,327.22,110415,,,D*78
$GPRMC,230324.000,A,3748.2311,N,12217.7287,W,1.13,336.50,110415,,,D*79
$GPRMC,230325.000,A,3748.2309,N,12217.7285,W,0.93,14.49,110415,,,D*41
$GPRMC,230326.000,A,3748.2314,N,12217.7281,W,0.86,17.07,110415,,,D*47
$GPRMC,230327.000,A,3748.2312,N,12217.7278,W,0.67,1.74,110415,,,D*7A
$GPRMC,230328.000,A,3748.2311,N,12217.7276,W,0.30,315.89,110415,,,D*7E
$GPRMC,230329.000,A,3748.2310,N,12217.7276,W,0.08,218.16,110415,,,D*7F
$GPRMC,230330.000,A,3748.2311,N,12217.7276,W,0.20,289.79,110415,,,D*7D
$GPRMC,230331.000,A,3748.2312,N,12217.7277,W,0.66,1.42,110415,,,D*76
$GPRMC,230332.000,A,3748.2315,N,12217.7275,W,0.70,34.48,110415,,,A*4E
$GPRMC,230333.000,A,3748.2315,N,12217.7271,W,0.82,35.27,110415,,,A*4E
$GPRMC,230334.000,A,3748.2316,N,12217.7270,W,1.08,356.77,110415,,,A*7B
$GPRMC,230335.000,A,3748.2322,N,12217.7268,W,1.73,24.90,110415,,,A*47
$GPRMC,230336.000,A,3748.2327,N,12217.7265,W,0.76,21.27,110415,,,A*41
