$ADVER,3080,2.3
$GPRMC,183304.844,A,3748.8044,N,12217.8641,W,0.08,8.38,300512,,,A*7B
$GPRMC,183305.844,A,3748.8045,N,12217.8642,W,0.03,13.62,300512,,,A*46
$GPRMC,183306.844,A,3748.8045,N,12217.8642,W,0.11,10.32,300512,,,A*40
$GPRMC,183307.844,A,3748.8045,N,12217.8642,W,0.05,12.68,300512,,,A*49
$GPRMC,183308.844,A,3748.8045,N,12217.8641,W,0.09,9.30,300512,,,A*7E
$GPRMC,183309.844,A,3748.8045,N,12217.8641,W,0.04,31.47,300512,,,A*49
$GPRMC,183310.844,A,3748.8045,N,12217.8642,W,0.07,351.57,300512,,,A*75
$GPRMC,183311.844,A,3748.8046,N,12217.8641,W,0.02,53.13,300512,,,A*40
$GPRMC,183312.844,A,3748.8046,N,12217.8641,W,0.01,350.70,300512,,,A*75
$GPRMC,183313.844,A,3748.8046,N,12217.8641,W,0.12,359.82,300512,,,A*72
$GPRMC,183314.844,A,3748.8047,N,12217.8641,W,0.01,20.19,300512,,,A*49
$GPRMC,183315.844,A,3748.8047,N,12217.8641,W,0.11,355.11,300512,,,A*70
$GPRMC,183316.844,A,3748.8047,N,12217.8641,W,0.09,19.48,300512,,,A*4D
$GPRMC,183317.844,A,3748.8047,N,12217.8641,W,0.07,6.01,300512,,,A*71
$GPRMC,183318.844,A,3748.8048,N,12217.8640,W,0.04,49.25,300512,,,A*4E
$GPRMC,183319.844,A,3748.8048,N,12217.8640,W,0.07,27.97,300512,,,A*4D
$GPRMC,183320.844,A,3748.8048,N,12217.8639,W,0.04,229.25,300512,,,A*7F
$GPRMC,183321.844,A,3748.8047,N,12217.8639,W,0.07,51.24,300512,,,A*4E
$GPRMC,183322.844,A,3748.8001,N,12217.8612,W,0.33,162.05,300512,,,A*73
$GPRMC,183323.844,A,3748.8020,N,12217.8606,W,0.18,101.37,300512,,,A*79
$GPRMC,183324.844,A,3748.8017,N,12217.8607,W,0.13,132.41,300512,,,A*71
$GPRMC,183326.000,A,3748.8011,N,12217.8608,W,0.17,145.10,300512,,,A*72
$GPRMC,183327.000,A,3748.8008,N,12217.8609,W,0.14,136.92,300512,,,A*77
$GPRMC,183328.000,A,3748.8006,N,12217.8609,W,0.17,143.91,300512,,,A*74
$GPRMC,183329.000,A,3748.8006,N,12217.8609,W,0.11,120.73,300512,,,A*7A
$GPRMC,183330.000,A,3748.8007,N,12217.8608,W,0.18,137.45,300512,,,A*78
$GPRMC,183331.000,A,3748.8008,N,12217.8608,W,0.16,141.39,300512,,,A*72
$GPRMC,183332.000,A,3748.8008,N,12217.8607,W,0.23,151.22,300512,,,A*73
$GPRMC,183333.000,A,3748.8007,N,12217.8607,W,0.19,147.63,300512,,,A*76
$GPRMC,183334.000,A,3748.8001,N,12217.8608,W,0.23,120.38,300512,,,A*7E
$GPRMC,183335.000,A,3748.8005,N,12217.8612,W,0.40,346.76,300512,,,A*7D
$GPRMC,183336.000,A,3748.8000,N,12217.8613,W,0.98,334.17,300512,,,A*7D
$GPRMC,183337.000,A,3748.7988,N,12217.8614,W,0.27,2.01,300512,,,A*78
$GPRMC,183338.000,A,3748.7987,N,12217.8612,W,0.54,46.23,300512,,,A*4A
$GPRMC,183339.000,A,3748.7991,N,12217.8611,W,0.32,315.00,300512,,,A*7B
$GPRMC,183340.000,A,3748.7995,N,12217.8612,W,0.38,317.17,300512,,,A*7C
$GPRMC,183341.000,A,3748.7997,N,12217.8609,W,0.14,61.85,300512,,,A*42
$GPRMC,183342.000,A,3748.7998,N,12217.8606,W,0.33,165.56,300512,,,A*7F
$GPRMC,183343.000,A,3748.7995,N,12217.8605,W,0.11,75.31,300512,,,A*41
$GPRMC,183344.000,A,3748.7996,N,12217.8604,W,0.76,40.55,300512,,,A*41
$GPRMC,183345.000,A,3748.7993,N,12217.8601,W,0.57,107.60,300512,,,A*77
$GPRMC,183346.000,A,3748.7991,N,12217.8600,W,0.29,204.49,300512,,,A*75
$GPRMC,183347.000,A,3748.7990,N,12217.8600,W,0.12,261.02,300512,,,A*71
$GPRMC,183348.000,A,3748.7986,N,12217.8600,W,0.36,133.19,300512,,,A*71
$GPRMC,183349.000,A,3748.7987,N,12217.8603,W,0.51,40.68,300512,,,A*40
$GPRMC,183350.000,A,3748.7988,N,12217.8605,W,0.40,9.51,300512,,,A*76
$GPRMC,183351.000,A,3748.7991,N,12217.8606,W,0.46,354.84,300512,,,A*79
$GPRMC,183352.000,A,3748.7993,N,12217.8607,W,0.63,14.53,300512,,,A*43
$GPRMC,183353.000,A,3748.7999,N,12217.8606,W,0.08,335.82,300512,,,A*78
$GPRMC,183354.000,A,3748.8005,N,12217.8605,W,0.26,50.48,300512,,,A*45
$GPRMC,183355.000,A,3748.8012,N,12217.8603,W,0.22,33.42,300512,,,A*4F
$GPRMC,183356.000,A,3748.8017,N,12217.8601,W,0.24,59.35,300512,,,A*41
$GPRMC,183357.000,A,3748.8024,N,12217.8599,W,0.24,52.15,300512,,,A*4B
$GPRMC,183358.000,A,3748.8027,N,12217.8598,W,0.30,29.30,300512,,,A*48
$GPRMC,183359.000,A,3748.8026,N,12217.8598,W,0.11,219.55,300512,,,A*79
$GPRMC,183400.000,A,3748.8024,N,12217.8598,W,0.66,189.76,300512,,,A*7B
$GPRMC,183401.000,A,3748.8023,N,12217.8596,W,1.18,167.35,300512,,,A*7C
$GPRMC,183402.000,A,3748.8019,N,12217.8594,W,0.57,138.16,300512,,,A*75
$GPRMC,183403.000,A,3748.8024,N,12217.8590,W,0.92,11.29,300512,,,A*41
$GPRMC,183404.000,A,3748.8024,N,12217.8587,W,0.25,118.81,300512,,,A*76
$GPRMC,183405.000,A,3748.8028,N,12217.8586,W,0.45,115.98,300512,,,A*79
$GPRMC,183406.000,A,3748.8033,N,12217.8586,W,0.19,121.70,300512,,,A*78
$GPRMC,183407.000,A,3748.8038,N,12217.8589,W,0.23,353.93,300512,,,A*7E
$GPRMC,183408.000,A,3748.8036,N,12217.8591,W,0.16,305.73,300512,,,A*7D
$GPRMC,183409.000,A,3748.8030,N,12217.8590,W,0.15,242.84,300512,,,A*72
$GPRMC,183410.000,A,3748.8025,N,12217.8586,W,0.27,63.89,300512,,,A*44
$GPRMC,183411.000,A,3748.8014,N,12217.8577,W,0.81,101.83,300512,,,A*7A
$GPRMC,183412.000,A,3748.7995,N,12217.8566,W,2.09,115.07,300512,,,A*7D
$GPRMC,183413.000,A,3748.7984,N,12217.8557,W,2.20,118.13,300512,,,A*7D
$GPRMC,183414.000,A,3748.7976,N,12217.8548,W,1.99,113.23,300512,,,A*70
$GPRMC,183415.000,A,3748.7970,N,12217.8541,W,2.28,122.28,300512,,,A*7E
$GPRMC,183416.000,A,3748.7966,N,12217.8533,W,2.18,113.66,300512,,,A*74
$GPRMC,183417.000,A,3748.7963,N,12217.8528,W,2.42,113.19,300512,,,A*7D
$GPRMC,183418.000,A,3748.7952,N,12217.8520,W,2.20,119.02,300512,,,A*7C
$GPRMC,183419.000,A,3748.7945,N,12217.8512,W,1.96,103.91,300512,,,A*75
$GPRMC,183420.000,A,3748.7947,N,12217.8511,W,1.08,113.62,300512,,,A*74
$GPRMC,183421.000,A,3748.7941,N,12217.8509,W,1.92,131.72,300512,,,A*78
$GPRMC,183422.000,A,3748.7933,N,12217.8503,W,1.87,109.75,300512,,,A*7C
$GPRMC,183423.000,A,3748.7925,N,12217.8492,W,2.38,118.79,300512,,,A*78
$GPRMC,183424.000,A,3748.7914,N,12217.8482,W,2.02,120.63,300512,,,A*75
$GPRMC,183425.000,A,3748.7913,N,12217.8478,W,1.90,102.30,300512,,,A*78
$GPRMC,183426.000,A,3748.7912,N,12217.8474,W,2.12,97.43,300512,,,A*46
$GPRMC,183427.000,A,3748.7911,N,12217.8468,W,1.95,115.71,300512,,,A*7F
$GPRMC,183428.000,A,3748.7912,N,12217.8464,W,2.05,108.47,300512,,,A*7C
$GPRMC,183429.000,A,3748.7909,N,12217.8455,W,2.21,90.88,300512,,,A*40
$GPRMC,183430.000,A,3748.7907,N,12217.8450,W,1.85,89.59,300512,,,A*4A
$GPRMC,183431.000,A,3748.7905,N,12217.8444,W,1.94,101.50,300512,,,A*74
$GPRMC,183432.000,A,3748.7905,N,12217.8442,W,1.75,99.70,300512,,,A*4C
$GPRMC,183433.000,A,3748.7905,N,12217.8441,W,1.81,94.77,300512,,,A*4F
$GPRMC,183434.000,A,3748.7905,N,12217.8440,W,1.33,97.70,300512,,,A*44
$GPRMC,183435.000,A,3748.7901,N,12217.8433,W,1.50,99.40,300512,,,A*4D
$GPRMC,183436.000,A,3748.7894,N,12217.8423,W,1.41,86.32,300512,,,A*49
$GPRMC,183437.000,A,3748.7890,N,12217.8412,W,1.41,76.52,300512,,,A*47
$GPRMC,183438.000,A,3748.7885,N,12217.8401,W,2.32,105.53,300512,,,A*7D
$GPRMC,183439.000,A,3748.7877,N,12217.8392,W,2.17,101.71,300512,,,A*7F
$GPRMC,183440.000,A,3748.7868,N,12217.8384,W,2.42,118.95,300512,,,A*7A
$GPRMC,183441.000,A,3748.7859,N,12217.8377,W,2.67,122.58,300512,,,A*7A
$GPRMC,183442.000,A,3748.7851,N,12217.8368,W,2.62,112.31,300512,,,A*76
$GPRMC,183443.000,A,3748.7850,N,12217.8358,W,2.81,116.47,300512,,,A*7D
$GPRMC,183444.000,A,3748.7846,N,12217.8351,W,2.80,121.60,300512,,,A*74
$GPRMC,183445.000,A,3748.7838,N,12217.8346,W,2.06,117.82,300512,,,A*7D
$GPRMC,183446.000,A,3748.7829,N,12217.8342,W,1.66,101.69,300512,,,A*7D
$GPRMC,183447.000,A,3748.7823,N,12217.8337,W,1.88,101.75,300512,,,A*79
$GPRMC,183448.000,A,3748.7822,N,12217.8331,W,1.85,98.23,300512,,,A*4E
$GPRMC,183449.000,A,3748.7818,N,12217.8322,W,2.10,101.87,300512,,,A*74
$GPRMC,183450.000,A,3748.7818,N,12217.8315,W,2.10,98.82,300512,,,A*4C
$GPRMC,183451.000,A,3748.7814,N,12217.8309,W,1.87,102.85,300512,,,A*74
$GPRMC,183452.000,A,3748.7809,N,12217.8302,W,1.87,105.47,300512,,,A*79
$GPRMC,183453.000,A,3748.7805,N,12217.8294,W,1.75,98.67,300512,,,A*40
$GPRMC,183454.000,A,3748.7802,N,12217.8287,W,1.76,93.42,300512,,,A*4D
$GPRMC,183455.000,A,3748.7801,N,12217.8279,W,2.03,96.30,300512,,,A*4F
$GPRMC,183456.000,A,3748.7797,N,12217.8273,W,1.95,107.68,300512,,,A*7E
$GPRMC,183457.000,A,3748.7797,N,12217.8268,W,2.00,118.70,300512,,,A*7D
$GPRMC,183458.000,A,3748.7798,N,12217.8264,W,2.03,104.42,300512,,,D*7B
$GPRMC,183459.000,A,3748.7803,N,12217.8261,W,1.51,97.75,300512,,,D*49
$GPRMC,183500.000,A,3748.7807,N,12217.8256,W,1.67,78.97,300512,,,D*4C
$GPRMC,183501.000,A,3748.7809,N,12217.8248,W,1.62,92.55,300512,,,D*43
$GPRMC,183502.000,A,3748.7801,N,12217.8238,W,1.92,112.93,300512,,,D*73
$GPRMC,183503.000,A,3748.7797,N,12217.8234,W,1.48,91.69,300512,,,D*46
$GPRMC,183504.000,A,3748.7791,N,12217.8223,W,1.83,89.26,300512,,,D*44
$GPRMC,183505.000,A,3748.7786,N,12217.8213,W,1.59,91.92,300512,,,D*41
$GPRMC,183506.000,A,3748.7779,N,12217.8202,W,1.98,101.89,300512,,,D*7D
$GPRMC,183507.000,A,3748.7775,N,12217.8194,W,2.01,96.66,300512,,,D*41
$GPRMC,183508.000,A,3748.7769,N,12217.8190,W,1.95,110.01,300512,,,D*77
$GPRMC,183509.000,A,3748.7769,N,12217.8183,W,2.25,100.58,300512,,,D*71
$GPRMC,183510.000,A,3748.7762,N,12217.8171,W,2.07,99.57,300512,,,D*41
$GPRMC,183511.000,A,3748.7760,N,12217.8162,W,1.90,100.43,300512,,,D*79
$GPRMC,183512.000,A,3748.7756,N,12217.8152,W,2.03,104.39,300512,,,D*7C
$GPRMC,183513.000,A,3748.7749,N,12217.8146,W,2.09,102.39,300512,,,D*7A
$GPRMC,183514.000,A,3748.7748,N,12217.8138,W,1.69,87.91,300512,,,D*4E
$GPRMC,183515.000,A,3748.7746,N,12217.8128,W,1.64,92.13,300512,,,D*43
$GPRMC,183516.000,A,3748.7747,N,12217.8127,W,1.86,96.76,300512,,,D*45
$GPRMC,183517.000,A,3748.7743,N,12217.8118,W,1.92,95.65,300512,,,D*48
$GPRMC,183518.000,A,3748.7741,N,12217.8109,W,2.01,99.21,300512,,,D*40
$GPRMC,183519.000,A,3748.7738,N,12217.8103,W,1.47,99.39,300512,,,D*4D
$GPRMC,183520.000,A,3748.7737,N,12217.8098,W,1.81,105.35,300512,,,D*79
$GPRMC,183521.000,A,3748.7732,N,12217.8088,W,1.80,102.74,300512,,,D*7F
$GPRMC,183522.000,A,3748.7731,N,12217.8082,W,1.84,108.67,300512,,,D*79
$GPRMC,183523.000,A,3748.7727,N,12217.8073,W,2.32,108.89,300512,,,D*7F
$GPRMC,183524.000,A,3748.7725,N,12217.8067,W,2.04,111.31,300512,,,D*71
$GPRMC,183525.000,A,3748.7722,N,12217.8060,W,1.95,103.76,300512,,,D*7B
$GPRMC,183526.000,A,3748.7712,N,12217.8047,W,2.01,115.68,300512,,,D*78
$GPRMC,183527.000,A,3748.7704,N,12217.8038,W,1.96,113.73,300512,,,D*77
$GPRMC,183528.000,A,3748.7703,N,12217.8030,W,1.46,95.14,300512,,,D*44
$GPRMC,183529.000,A,3748.7703,N,12217.8020,W,0.44,104.34,300512,,,D*7C
$GPRMC,183530.000,A,3748.7704,N,12217.8013,W,0.60,88.34,300512,,,D*40
$GPRMC,183531.000,A,3748.7700,N,12217.8003,W,1.86,97.16,300512,,,D*43
$GPRMC,183532.000,A,3748.7695,N,12217.7997,W,2.11,113.36,300512,,,D*74
$GPRMC,183533.000,A,3748.7686,N,12217.7987,W,2.03,112.79,300512,,,D*7F
$GPRMC,183534.000,A,3748.7682,N,12217.7980,W,2.10,114.34,300512,,,D*76
$GPRMC,183535.000,A,3748.7678,N,12217.7972,W,1.67,106.21,300512,,,D*7B
$GPRMC,183536.000,A,3748.7671,N,12217.7962,W,2.45,125.21,300512,,,D*72
$GPRMC,183537.000,A,3748.7664,N,12217.7953,W,2.38,126.27,300512,,,D*7A
$GPRMC,183538.000,A,3748.7658,N,12217.7944,W,2.70,128.24,300512,,,D*7D
$GPRMC,183539.000,A,3748.7647,N,12217.7931,W,2.61,115.86,300512,,,D*76
$GPRMC,183540.000,A,3748.7636,N,12217.7914,W,3.43,126.55,300512,,,D*76
$GPRMC,183541.000,A,3748.7632,N,12217.7905,W,2.69,119.27,300512,,,D*73
$GPRMC,183542.000,A,3748.7624,N,12217.7893,W,2.94,127.81,300512,,,D*7A
$GPRMC,183543.000,A,3748.7611,N,12217.7881,W,2.74,126.26,300512,,,D*7C
$GPRMC,183544.000,A,3748.7605,N,12217.7875,W,2.03,117.81,300512,,,D*7A
$GPRMC,183545.000,A,3748.7594,N,12217.7865,W,3.25,129.65,300512,,,D*73
$GPRMC,183546.000,A,3748.7584,N,12217.7859,W,2.77,123.21,300512,,,D*72
$GPRMC,183547.000,A,3748.7582,N,12217.7850,W,2.63,111.43,300512,,,D*7C
$GPRMC,183548.000,A,3748.7576,N,12217.7834,W,2.71,114.01,300512,,,D*7A
$GPRMC,183549.000,A,3748.7574,N,12217.7831,W,2.52,118.86,300512,,,D*7E
$GPRMC,183550.000,A,3748.7572,N,12217.7825,W,2.25,119.92,300512,,,D*71
$GPRMC,183551.000,A,3748.7571,N,12217.7821,W,2.08,108.82,300512,,,D*79
$GPRMC,183552.000,A,3748.7572,N,12217.7815,W,2.41,105.06,300512,,,D*72
$GPRMC,183553.000,A,3748.7569,N,12217.7811,W,2.65,127.30,300512,,,D*7E
$GPRMC,183554.000,A,3748.7566,N,12217.7805,W,2.48,113.80,300512,,,D*70
$GPRMC,183555.000,A,3748.7563,N,12217.7799,W,2.37,119.95,300512,,,D*78
$GPRMC,183556.000,A,3748.7562,N,12217.7790,W,2.44,107.18,300512,,,D*7D
$GPRMC,183557.000,A,3748.7560,N,12217.7784,W,2.22,116.59,300512,,,D*7E
$GPRMC,183558.000,A,3748.7558,N,12217.7777,W,2.21,101.07,300512,,,D*78
$GPRMC,183559.000,A,3748.7558,N,12217.7769,W,2.40,94.95,300512,,,D*47
$GPRMC,183600.000,A,3748.7560,N,12217.7757,W,2.15,95.62,300512,,,D*47
$GPRMC,183601.000,A,3748.7560,N,12217.7748,W,2.40,111.87,300512,,,D*7E
$GPRMC,183602.000,A,3748.7557,N,12217.7740,W,2.14,120.86,300512,,,D*73
$GPRMC,183603.000,A,3748.7554,N,12217.7733,W,2.20,111.53,300512,,,D*78
$GPRMC,183604.000,A,3748.7553,N,12217.7722,W,2.74,110.22,300512,,,D*7E
$GPRMC,183605.000,A,3748.7551,N,12217.7715,W,2.41,108.45,300512,,,D*77
$GPRMC,183606.000,A,3748.7548,N,12217.7707,W,2.35,96.27,300512,,,D*4E
$GPRMC,183607.000,A,3748.7545,N,12217.7700,W,2.10,99.80,300512,,,D*40
$GPRMC,183608.000,A,3748.7541,N,12217.7694,W,2.11,116.62,300512,,,D*7C
$GPRMC,183609.000,A,3748.7537,N,12217.7689,W,2.23,121.75,300512,,,D*73
$GPRMC,183610.000,A,3748.7533,N,12217.7683,W,2.22,109.48,300512,,,D*70
$GPRMC,183611.000,A,3748.7530,N,12217.7676,W,2.15,95.88,300512,,,D*44
$GPRMC,183612.000,A,3748.7532,N,12217.7668,W,2.31,75.61,300512,,,D*45
$GPRMC,183613.000,A,3748.7531,N,12217.7660,W,2.02,73.20,300512,,,D*4C
$GPRMC,183614.000,A,3748.7529,N,12217.7653,W,2.38,93.85,300512,,,D*4A
$GPRMC,183615.000,A,3748.7529,N,12217.7647,W,2.08,89.77,300512,,,D*4B
$GPRMC,183616.000,A,3748.7527,N,12217.7641,W,2.02,104.15,300512,,,D*7A
$GPRMC,183617.000,A,3748.7522,N,12217.7635,W,1.92,112.31,300512,,,D*76
$GPRMC,183618.000,A,3748.7517,N,12217.7627,W,2.37,117.23,300512,,,D*76
$GPRMC,183619.000,A,3748.7512,N,12217.7621,W,2.19,117.72,300512,,,D*7C
$GPRMC,183620.000,A,3748.7508,N,12217.7614,W,2.29,124.55,300512,,,D*7D
$GPRMC,183621.000,A,3748.7504,N,12217.7606,W,2.23,116.59,300512,,,D*74
$GPRMC,183622.000,A,3748.7500,N,12217.7597,W,2.46,100.21,300512,,,D*73
$GPRMC,183623.000,A,3748.7498,N,12217.7588,W,2.30,100.45,300512,,,D*7F
$GPRMC,183624.000,A,3748.7494,N,12217.7578,W,2.47,108.52,300512,,,D*75
$GPRMC,183625.000,A,3748.7487,N,12217.7572,W,1.99,105.84,300512,,,D*7A
$GPRMC,183626.000,A,3748.7480,N,12217.7564,W,1.75,103.48,300512,,,D*7D
$GPRMC,183627.000,A,3748.7483,N,12217.7555,W,2.04,81.47,300512,,,D*4C
$GPRMC,183628.000,A,3748.7481,N,12217.7547,W,1.88,94.33,300512,,,D*42
$GPRMC,183629.000,A,3748.7478,N,12217.7540,W,1.76,107.42,300512,,,D*7E
$GPRMC,183630.000,A,3748.7472,N,12217.7534,W,1.94,115.32,300512,,,D*77
$GPRMC,183631.000,A,3748.7467,N,12217.7528,W,1.76,98.30,300512,,,D*45
$GPRMC,183632.000,A,3748.7460,N,12217.7519,W,1.51,95.66,300512,,,D*48
$GPRMC,183633.000,A,3748.7455,N,12217.7506,W,1.73,91.21,300512,,,D*46
$GPRMC,183634.000,A,3748.7448,N,12217.7498,W,1.52,99.47,300512,,,D*40
$GPRMC,183635.000,A,3748.7442,N,12217.7494,W,1.80,105.11,300512,,,D*7F
$GPRMC,183636.000,A,3748.7433,N,12217.7490,W,1.41,101.70,300512,,,D*70
$GPRMC,183637.000,A,3748.7426,N,12217.7486,W,1.71,108.71,300512,,,D*79
$GPRMC,183638.000,A,3748.7422,N,12217.7481,W,2.03,99.58,300512,,,D*41
$GPRMC,183639.000,A,3748.7419,N,12217.7474,W,1.92,107.92,300512,,,D*79
$GPRMC,183640.000,A,3748.7415,N,12217.7464,W,2.08,105.29,300512,,,D*78
$GPRMC,183641.000,A,3748.7407,N,12217.7453,W,2.13,125.96,300512,,,D*72
$GPRMC,183642.000,A,3748.7403,N,12217.7443,W,1.33,120.85,300512,,,D*72
$GPRMC,183643.000,A,3748.7399,N,12217.7438,W,1.04,127.67,300512,,,D*74
$GPRMC,183644.000,A,3748.7398,N,12217.7433,W,1.70,100.48,300512,,,D*72
$GPRMC,183645.000,A,3748.7400,N,12217.7422,W,1.76,101.90,300512,,,D*77
$GPRMC,183646.000,A,3748.7401,N,12217.7414,W,1.84,82.63,300512,,,D*4B
$GPRMC,183647.000,A,3748.7399,N,12217.7407,W,1.82,105.17,300512,,,D*75
$GPRMC,183648.000,A,3748.7396,N,12217.7400,W,2.05,108.32,300512,,,D*74
$GPRMC,183649.000,A,3748.7393,N,12217.7393,W,1.75,108.98,300512,,,D*79
$GPRMC,183650.000,A,3748.7389,N,12217.7385,W,1.72,100.03,300512,,,D*70
$GPRMC,183651.000,A,3748.7380,N,12217.7380,W,1.36,109.94,300512,,,D*7A
$GPRMC,183652.000,A,3748.7373,N,12217.7375,W,1.16,126.85,300512,,,D*70
$GPRMC,183653.000,A,3748.7368,N,12217.7370,W,0.96,85.22,300512,,,D*42
$GPRMC,183654.000,A,3748.7364,N,12217.7364,W,1.48,89.52,300512,,,D*45
$GPRMC,183655.000,A,3748.7359,N,12217.7356,W,1.72,122.87,300512,,,D*7A
$GPRMC,183656.000,A,3748.7351,N,12217.7351,W,2.05,119.11,300512,,,D*72
$GPRMC,183657.000,A,3748.7347,N,12217.7344,W,1.71,114.13,300512,,,D*7F
$GPRMC,183658.000,A,3748.7343,N,12217.7335,W,2.08,105.16,300512,,,D*7A
$GPRMC,183659.000,A,3748.7341,N,12217.7324,W,1.88,116.39,300512,,,D*7D
$GPRMC,183700.000,A,3748.7334,N,12217.7317,W,2.26,129.83,300512,,,D*78
$GPRMC,183701.000,A,3748.7328,N,12217.7307,W,2.34,113.37,300512,,,D*70
$GPRMC,183702.000,A,3748.7322,N,12217.7298,W,2.26,105.85,300512,,,D*73
$GPRMC,183703.000,A,3748.7318,N,12217.7289,W,2.05,105.71,300512,,,D*71
$GPRMC,183704.000,A,3748.7312,N,12217.7284,W,1.88,106.87,300512,,,D*7D
$GPRMC,183705.000,A,3748.7303,N,12217.7279,W,2.19,119.20,300512,,,D*76
$GPRMC,183706.000,A,3748.7298,N,12217.7271,W,2.20,110.15,300512,,,D*7B
$GPRMC,183707.000,A,3748.7294,N,12217.7260,W,2.02,96.13,300512,,,D*4F
$GPRMC,183708.000,A,3748.7287,N,12217.7248,W,1.99,99.19,300512,,,D*4C
$GPRMC,183709.000,A,3748.7285,N,12217.7236,W,2.04,94.23,300512,,,D*45
$GPRMC,183710.000,A,3748.7283,N,12217.7229,W,1.72,100.35,300512,,,D*7C
$GPRMC,183711.000,A,3748.7280,N,12217.7218,W,1.91,110.64,300512,,,D*74
$GPRMC,183712.000,A,3748.7281,N,12217.7209,W,1.82,96.43,300512,,,D*4E
$GPRMC,183713.000,A,3748.7283,N,12217.7201,W,2.09,71.93,300512,,,D*41
$GPRMC,183714.000,A,3748.7286,N,12217.7192,W,1.58,61.24,300512,,,D*40
$GPRMC,183715.000,A,3748.7292,N,12217.7183,W,1.98,36.98,300512,,,D*4D
$GPRMC,183716.000,A,3748.7297,N,12217.7177,W,2.54,22.88,300512,,,D*47
$GPRMC,183717.000,A,3748.7304,N,12217.7172,W,2.81,5.14,300512,,,D*70
$GPRMC,183718.000,A,3748.7312,N,12217.7167,W,2.44,7.55,300512,,,D*72
$GPRMC,183719.000,A,3748.7318,N,12217.7162,W,1.58,6.25,300512,,,D*74
$GPRMC,183720.000,A,3748.7325,N,12217.7154,W,2.00,14.27,300512,,,D*4A
$GPRMC,183721.000,A,3748.7332,N,12217.7146,W,1.94,17.30,300512,,,D*45
$GPRMC,183722.000,A,3748.7339,N,12217.7137,W,2.13,21.03,300512,,,D*42
$GPRMC,183723.000,A,3748.7344,N,12217.7132,W,1.95,23.81,300512,,,D*49
$GPRMC,183724.000,A,3748.7353,N,12217.7124,W,2.02,23.68,300512,,,D*45
$GPRMC,183725.000,A,3748.7360,N,12217.7118,W,2.18,23.04,300512,,,D*4A
$GPRMC,183726.000,A,3748.7361,N,12217.7109,W,1.76,31.59,300512,,,D*48
$GPRMC,183727.000,A,3748.7366,N,12217.7103,W,1.74,30.46,300512,,,D*49
$GPRMC,183728.000,A,3748.7372,N,12217.7100,W,2.29,14.27,300512,,,D*4A
$GPRMC,183729.000,A,3748.7377,N,12217.7094,W,2.03,17.30,300512,,,D*4F
$GPRMC,183730.000,A,3748.7383,N,12217.7087,W,1.60,35.29,300512,,,D*40
$GPRMC,183731.000,A,3748.7388,N,12217.7076,W,2.36,35.86,300512,,,A*44
$GPRMC,183732.000,A,3748.7394,N,12217.7064,W,2.43,48.11,300512,,,A*4F
$GPRMC,183733.000,A,3748.7400,N,12217.7050,W,2.69,62.79,300512,,,A*4D
$GPRMC,183734.000,A,3748.7405,N,12217.7037,W,2.37,55.81,300512,,,A*46
$GPRMC,183735.000,A,3748.7409,N,12217.7026,W,2.14,31.80,300512,,,A*49
$GPRMC,183736.000,A,3748.7413,N,12217.7017,W,2.29,28.17,300512,,,A*4B
$GPRMC,183737.000,A,3748.7422,N,12217.7012,W,2.36,26.53,300512,,,A*4D
$GPRMC,183738.000,A,3748.7434,N,12217.7009,W,2.56,23.61,300512,,,A*4D
$GPRMC,183739.000,A,3748.7436,N,12217.7003,W,2.00,48.38,300512,,,A*46
$GPRMC,183740.000,A,3748.7440,N,12217.6993,W,1.56,53.71,300512,,,A*4F
$GPRMC,183741.000,A,3748.7443,N,12217.6983,W,1.82,42.82,300512,,,A*49
$GPRMC,183742.000,A,3748.7449,N,12217.6975,W,2.53,39.24,300512,,,A*46
$GPRMC,183743.000,A,3748.7455,N,12217.6962,W,2.85,51.36,300512,,,A*4A
$GPRMC,183744.000,A,3748.7462,N,12217.6952,W,2.47,46.57,300512,,,A*45
$GPRMC,183745.000,A,3748.7469,N,12217.6944,W,2.61,45.58,300512,,,A*40
$GPRMC,183746.000,A,3748.7478,N,12217.6937,W,2.01,35.24,300512,,,A*4D
$GPRMC,183747.000,A,3748.7482,N,12217.6938,W,1.59,24.40,300512,,,A*4A
$GPRMC,183748.000,A,3748.7489,N,12217.6937,W,1.37,14.21,300512,,,A*4D
$GPRMC,183749.000,A,3748.7498,N,12217.6934,W,2.48,26.92,300512,,,A*4D
$GPRMC,183750.000,A,3748.7511,N,12217.6933,W,2.78,11.83,300512,,,A*45
$GPRMC,183751.000,A,3748.7522,N,12217.6931,W,2.92,14.90,300512,,,A*45
$GPRMC,183752.000,A,3748.7525,N,12217.6929,W,2.74,17.13,300512,,,A*48
$GPRMC,183753.000,A,3748.7533,N,12217.6923,W,1.97,20.84,300512,,,A*40
$GPRMC,183754.000,A,3748.7540,N,12217.6916,W,2.07,19.83,300512,,,A*42
$GPRMC,183755.000,A,3748.7544,N,12217.6909,W,1.99,15.95,300512,,,A*46
$GPRMC,183756.000,A,3748.7552,N,12217.6900,W,2.30,21.03,300512,,,A*43
$GPRMC,183757.000,A,3748.7562,N,12217.6893,W,2.27,39.82,300512,,,A*4C
$GPRMC,183758.000,A,3748.7565,N,12217.6892,W,1.81,30.55,300512,,,A*49
$GPRMC,183759.000,A,3748.7567,N,12217.6890,W,1.50,38.55,300512,,,A*4C
$GPRMC,183800.000,A,3748.7572,N,12217.6883,W,2.04,33.43,300512,,,A*47
$GPRMC,183801.000,A,3748.7574,N,12217.6876,W,1.87,25.28,300512,,,A*48
$GPRMC,183802.000,A,3748.7581,N,12217.6874,W,1.44,28.53,300512,,,A*4D
$GPRMC,183803.000,A,3748.7588,N,12217.6874,W,1.79,19.89,300512,,,A*4E
$GPRMC,183804.000,A,3748.7594,N,12217.6873,W,2.09,18.20,300512,,,A*45
$GPRMC,183805.000,A,3748.7603,N,12217.6870,W,2.21,23.41,300512,,,A*4F
$GPRMC,183806.000,A,3748.7611,N,12217.6865,W,2.39,18.95,300512,,,A*43
$GPRMC,183807.000,A,3748.7616,N,12217.6859,W,2.51,25.05,300512,,,A*43
$GPRMC,183808.000,A,3748.7625,N,12217.6852,W,2.77,28.54,300512,,,A*4A
$GPRMC,183809.000,A,3748.7630,N,12217.6844,W,2.61,23.24,300512,,,A*43
$GPRMC,183810.000,A,3748.7634,N,12217.6838,W,2.59,6.74,300512,,,A*7D
$GPRMC,183811.000,A,3748.7643,N,12217.6835,W,2.86,14.41,300512,,,A*46
$GPRMC,183812.000,A,3748.7656,N,12217.6831,W,2.68,9.71,300512,,,A*7A
$GPRMC,183813.000,A,3748.7664,N,12217.6829,W,2.63,13.23,300512,,,A*44
$GPRMC,183814.000,A,3748.7670,N,12217.6825,W,2.11,20.17,300512,,,A*48
$GPRMC,183815.000,A,3748.7675,N,12217.6820,W,2.25,19.35,300512,,,A*44
$GPRMC,183816.000,A,3748.7683,N,12217.6811,W,2.57,24.98,300512,,,A*40
$GPRMC,183817.000,A,3748.7688,N,12217.6803,W,2.26,25.35,300512,,,A*49
$GPRMC,183818.000,A,3748.7693,N,12217.6797,W,2.31,24.04,300512,,,A*4B
$GPRMC,183819.000,A,3748.7697,N,12217.6792,W,2.29,24.31,300512,,,A*44
$GPRMC,183820.000,A,3748.7701,N,12217.6787,W,2.46,24.43,300512,,,A*48
$GPRMC,183821.000,A,3748.7703,N,12217.6780,W,2.04,31.20,300512,,,A*4B
$GPRMC,183822.000,A,3748.7706,N,12217.6776,W,1.84,25.50,300512,,,D*48
$GPRMC,183823.000,A,3748.7713,N,12217.6771,W,2.27,5.24,300512,,,D*71
$GPRMC,183824.000,A,3748.7720,N,12217.6769,W,2.39,6.03,300512,,,D*76
$GPRMC,183825.000,A,3748.7731,N,12217.6764,W,3.35,8.98,300512,,,D*7B
$GPRMC,183826.000,A,3748.7740,N,12217.6760,W,2.76,13.38,300512,,,D*4C
$GPRMC,183827.000,A,3748.7750,N,12217.6754,W,2.50,22.29,300512,,,D*4D
$GPRMC,183828.000,A,3748.7756,N,12217.6750,W,1.88,26.30,300512,,,D*4A
$GPRMC,183829.000,A,3748.7757,N,12217.6744,W,1.77,27.42,300512,,,D*4B
$GPRMC,183830.000,A,3748.7758,N,12217.6739,W,1.06,69.62,300512,,,D*48
$GPRMC,183831.000,A,3748.7760,N,12217.6735,W,2.04,66.03,300512,,,D*47
$GPRMC,183832.000,A,3748.7762,N,12217.6730,W,1.93,72.55,300512,,,D*48
$GPRMC,183833.000,A,3748.7766,N,12217.6723,W,2.20,70.90,300512,,,D*4F
$GPRMC,183834.000,A,3748.7770,N,12217.6720,W,2.10,57.29,300512,,,D*48
$GPRMC,183835.000,A,3748.7779,N,12217.6715,W,2.10,45.61,300512,,,D*49
$GPRMC,183836.000,A,3748.7789,N,12217.6713,W,1.78,42.10,300512,,,D*4F
$GPRMC,183837.000,A,3748.7801,N,12217.6711,W,1.45,38.32,300512,,,D*40
$GPRMC,183838.000,A,3748.7805,N,12217.6711,W,1.39,44.93,300512,,,D*40
$GPRMC,183839.000,A,3748.7807,N,12217.6712,W,1.39,41.38,300512,,,D*44
$GPRMC,183840.000,A,3748.7815,N,12217.6707,W,2.14,45.79,300512,,,D*40
$GPRMC,183841.000,A,3748.7820,N,12217.6703,W,1.59,45.47,300512,,,D*44
$GPRMC,183842.000,A,3748.7824,N,12217.6696,W,2.02,55.88,300512,,,D*41
$GPRMC,183843.000,A,3748.7828,N,12217.6686,W,2.25,66.10,300512,,,D*49
$GPRMC,183844.000,A,3748.7836,N,12217.6681,W,2.26,22.65,300512,,,D*47
$GPRMC,183845.000,A,3748.7843,N,12217.6680,W,2.61,15.57,300512,,,D*43
$GPRMC,183846.000,A,3748.7855,N,12217.6679,W,2.51,8.93,300512,,,D*76
$GPRMC,183847.000,A,3748.7863,N,12217.6674,W,1.94,34.26,300512,,,A*41
$GPRMC,183848.000,A,3748.7866,N,12217.6668,W,1.99,45.23,300512,,,A*48
$GPRMC,183849.000,A,3748.7872,N,12217.6661,W,1.33,34.45,300512,,,A*43
$GPRMC,183850.000,A,3748.7876,N,12217.6657,W,1.71,15.10,300512,,,A*4F
$GPRMC,183851.000,A,3748.7883,N,12217.6653,W,1.69,23.64,300512,,,A*4F
$GPRMC,183852.000,A,3748.7884,N,12217.6646,W,1.80,40.80,300512,,,A*47
$GPRMC,183853.000,A,3748.7892,N,12217.6643,W,1.64,28.19,300512,,,A*40
$GPRMC,183854.000,A,3748.7899,N,12217.6637,W,2.29,32.45,300512,,,A*47
$GPRMC,183855.000,A,3748.7905,N,12217.6632,W,1.88,46.21,300512,,,A*4E
$GPRMC,183856.000,A,3748.7908,N,12217.6625,W,2.08,40.65,300512,,,A*4B
$GPRMC,183857.000,A,3748.7914,N,12217.6622,W,1.73,39.05,300512,,,A*47
$GPRMC,183858.000,A,3748.7927,N,12217.6618,W,2.20,28.84,300512,,,A*4D
$GPRMC,183859.000,A,3748.7937,N,12217.6614,W,2.32,27.87,300512,,,A*4E
$GPRMC,183900.000,A,3748.7944,N,12217.6607,W,2.55,37.11,300512,,,A*4A
$GPRMC,183901.000,A,3748.7951,N,12217.6598,W,2.39,33.71,300512,,,A*42
$GPRMC,183902.000,A,3748.7958,N,12217.6592,W,2.09,35.91,300512,,,A*49
$GPRMC,183903.000,A,3748.7967,N,12217.6580,W,1.95,45.63,300512,,,A*4B
$GPRMC,183904.000,A,3748.7972,N,12217.6571,W,1.88,43.64,300512,,,A*4B
$GPRMC,183905.000,A,3748.7982,N,12217.6561,W,2.53,43.37,300512,,,A*47
$GPRMC,183906.000,A,3748.7982,N,12217.6551,W,1.95,60.08,300512,,,A*43
$GPRMC,183907.000,A,3748.7987,N,12217.6542,W,1.92,41.93,300512,,,A*43
$GPRMC,183908.000,A,3748.7989,N,12217.6531,W,1.80,45.34,300512,,,A*4C
$GPRMC,183909.000,A,3748.7995,N,12217.6526,W,1.72,27.92,300512,,,A*43
$GPRMC,183910.000,A,3748.7996,N,12217.6516,W,2.20,42.18,300512,,,A*4E
$GPRMC,183911.000,A,3748.8001,N,12217.6513,W,2.38,37.73,300512,,,A*44
$GPRMC,183912.000,A,3748.8008,N,12217.6510,W,2.40,31.32,300512,,,A*41
$GPRMC,183913.000,A,3748.8017,N,12217.6506,W,2.54,11.73,300512,,,A*4B
$GPRMC,183914.000,A,3748.8027,N,12217.6505,W,2.32,14.20,300512,,,A*4F
$GPRMC,183915.000,A,3748.8033,N,12217.6499,W,2.46,23.15,300512,,,A*4E
$GPRMC,183916.000,A,3748.8038,N,12217.6490,W,2.76,36.41,300512,,,A*49
$GPRMC,183917.000,A,3748.8044,N,12217.6483,W,2.88,26.20,300512,,,A*46
$GPRMC,183918.000,A,3748.8048,N,12217.6475,W,2.32,24.33,300512,,,A*4D
$GPRMC,183919.000,A,3748.8057,N,12217.6470,W,3.02,25.39,300512,,,A*4E
$GPRMC,183920.000,A,3748.8064,N,12217.6463,W,2.49,25.21,300512,,,A*41
$GPRMC,183921.000,A,3748.8067,N,12217.6458,W,2.09,36.89,300512,,,A*4F
$GPRMC,183922.000,A,3748.8069,N,12217.6452,W,2.44,37.28,300512,,,A*4B
$GPRMC,183923.000,A,3748.8074,N,12217.6444,W,2.61,42.55,300512,,,A*4E
$GPRMC,183924.000,A,3748.8076,N,12217.6434,W,2.44,39.44,300512,,,A*47
$GPRMC,183925.000,A,3748.8079,N,12217.6429,W,1.89,26.79,300512,,,A*47
$GPRMC,183926.000,A,3748.8085,N,12217.6424,W,2.74,2.31,300512,,,A*71
$GPRMC,183927.000,A,3748.8092,N,12217.6421,W,3.06,10.20,300512,,,A*44
$GPRMC,183928.000,A,3748.8102,N,12217.6418,W,3.17,17.05,300512,,,A*49
$GPRMC,183929.000,A,3748.8116,N,12217.6416,W,2.79,13.28,300512,,,A*41
$GPRMC,183930.000,A,3748.8122,N,12217.6411,W,2.41,19.35,300512,,,A*44
$GPRMC,183931.000,A,3748.8125,N,12217.6403,W,2.17,21.16,300512,,,A*48
$GPRMC,183932.000,A,3748.8131,N,12217.6398,W,2.92,19.80,300512,,,A*42
$GPRMC,183933.000,A,3748.8134,N,12217.6391,W,2.31,20.65,300512,,,A*47
$GPRMC,183934.000,A,3748.8137,N,12217.6382,W,2.17,25.80,300512,,,A*4B
$GPRMC,183935.000,A,3748.8142,N,12217.6374,W,2.19,25.95,300512,,,A*4B
$GPRMC,183936.000,A,3748.8143,N,12217.6368,W,1.92,40.08,300512,,,A*43
$GPRMC,183937.000,A,3748.8143,N,12217.6359,W,2.33,42.17,300512,,,A*44
$GPRMC,183938.000,A,3748.8143,N,12217.6351,W,2.16,32.31,300512,,,A*47
$GPRMC,183939.000,A,3748.8149,N,12217.6349,W,2.18,33.06,300512,,,A*4E
$GPRMC,183940.000,A,3748.8157,N,12217.6347,W,1.96,34.27,300512,,,A*40
$GPRMC,183941.000,A,3748.8165,N,12217.6344,W,2.34,23.49,300512,,,A*46
$GPRMC,183942.000,A,3748.8171,N,12217.6339,W,2.12,22.31,300512,,,A*40
$GPRMC,183943.000,A,3748.8174,N,12217.6333,W,1.69,25.31,300512,,,A*46
$GPRMC,183944.000,A,3748.8178,N,12217.6327,W,2.13,35.62,300512,,,A*41
$GPRMC,183945.000,A,3748.8183,N,12217.6320,W,2.34,49.81,300512,,,A*40
$GPRMC,183946.000,A,3748.8190,N,12217.6314,W,2.32,39.15,300512,,,A*4A
$GPRMC,183947.000,A,3748.8197,N,12217.6313,W,2.10,27.92,300512,,,A*4B
$GPRMC,183948.000,A,3748.8207,N,12217.6313,W,1.64,10.82,300512,,,A*4B
$GPRMC,183949.000,A,3748.8214,N,12217.6310,W,2.00,22.10,300512,,,A*40
$GPRMC,183950.000,A,3748.8223,N,12217.6308,W,2.37,29.03,300512,,,A*48
$GPRMC,183951.000,A,3748.8231,N,12217.6303,W,2.68,30.95,300512,,,A*4C
$GPRMC,183952.000,A,3748.8233,N,12217.6294,W,2.22,33.87,300512,,,A*4C
$GPRMC,183953.000,A,3748.8233,N,12217.6281,W,2.40,35.11,300512,,,A*44
$GPRMC,183954.000,A,3748.8236,N,12217.6276,W,2.13,28.70,300512,,,A*43
$GPRMC,183955.000,A,3748.8241,N,12217.6271,W,1.99,35.43,300512,,,A*48
$GPRMC,183956.000,A,3748.8244,N,12217.6263,W,2.11,29.19,300512,,,A*4C
$GPRMC,183957.000,A,3748.8245,N,12217.6257,W,2.46,32.29,300512,,,A*40
$GPRMC,183958.000,A,3748.8247,N,12217.6249,W,2.30,34.17,300512,,,A*48
$GPRMC,183959.000,A,3748.8249,N,12217.6241,W,2.20,37.05,300512,,,A*4E
$GPRMC,184000.000,A,3748.8254,N,12217.6234,W,2.49,35.94,300512,,,A*47
$GPRMC,184001.000,A,3748.8260,N,12217.6226,W,2.60,33.90,300512,,,A*4B
$GPRMC,184002.000,A,3748.8265,N,12217.6220,W,2.41,27.53,300512,,,A*42
$GPRMC,184003.000,A,3748.8271,N,12217.6214,W,2.44,34.73,300512,,,A*44
$GPRMC,184004.000,A,3748.8277,N,12217.6202,W,2.54,50.26,300512,,,A*41
$GPRMC,184005.000,A,3748.8285,N,12217.6195,W,2.38,49.38,300512,,,A*4D
$GPRMC,184006.000,A,3748.8287,N,12217.6184,W,2.34,22.11,300512,,,A*46
$GPRMC,184007.000,A,3748.8296,N,12217.6180,W,2.60,33.90,300512,,,A*4B
$GPRMC,184008.000,A,3748.8308,N,12217.6170,W,2.32,24.30,300512,,,A*46
$GPRMC,184009.000,A,3748.8319,N,12217.6166,W,2.03,26.40,300512,,,A*47
$GPRMC,184010.000,A,3748.8329,N,12217.6163,W,2.64,31.32,300512,,,A*4B
$GPRMC,184011.000,A,3748.8334,N,12217.6155,W,2.70,17.31,300512,,,A*41
$GPRMC,184012.000,A,3748.8345,N,12217.6153,W,2.37,8.79,300512,,,A*73
$GPRMC,184013.000,A,3748.8358,N,12217.6154,W,2.54,13.73,300512,,,A*4C
$GPRMC,184014.000,A,3748.8367,N,12217.6153,W,2.14,26.44,300512,,,A*46
$GPRMC,184015.000,A,3748.8374,N,12217.6149,W,1.34,33.99,300512,,,A*4B
$GPRMC,184016.000,A,3748.8381,N,12217.6150,W,0.41,5.36,300512,,,A*79
$GPRMC,184017.000,A,3748.8383,N,12217.6155,W,0.39,144.62,300512,,,A*75
$GPRMC,184018.000,A,3748.8385,N,12217.6158,W,0.44,246.84,300512,,,A*72
$GPRMC,184019.000,A,3748.8383,N,12217.6165,W,0.28,238.78,300512,,,A*7B
$GPRMC,184020.000,A,3748.8384,N,12217.6167,W,0.63,37.19,300512,,,A*41
$GPRMC,184021.000,A,3748.8386,N,12217.6162,W,0.66,74.67,300512,,,A*4C
$GPRMC,184022.000,A,3748.8387,N,12217.6162,W,1.42,84.33,300512,,,A*47
$GPRMC,184023.000,A,3748.8385,N,12217.6164,W,1.50,109.04,300512,,,A*71
$GPRMC,184024.000,A,3748.8381,N,12217.6165,W,1.85,118.44,300512,,,A*7F
$GPRMC,184025.000,A,3748.8375,N,12217.6165,W,2.13,122.96,300512,,,A*7F
$GPRMC,184026.000,A,3748.8369,N,12217.6164,W,1.99,120.98,300512,,,A*7D
$GPRMC,184027.000,A,3748.8366,N,12217.6159,W,2.04,108.36,300512,,,A*74
$GPRMC,184028.000,A,3748.8362,N,12217.6157,W,1.91,100.16,300512,,,A*74
$GPRMC,184029.000,A,3748.8361,N,12217.6154,W,1.72,108.32,300512,,,A*76
$GPRMC,184030.000,A,3748.8359,N,12217.6151,W,2.07,124.29,300512,,,A*75
$GPRMC,184031.000,A,3748.8358,N,12217.6147,W,2.31,120.01,300512,,,A*79
$GPRMC,184032.000,A,3748.8355,N,12217.6142,W,2.40,101.36,300512,,,A*73
$GPRMC,184033.000,A,3748.8353,N,12217.6136,W,2.43,102.37,300512,,,A*76
$GPRMC,184034.000,A,3748.8348,N,12217.6132,W,2.11,112.22,300512,,,A*7D
$GPRMC,184035.000,A,3748.8344,N,12217.6127,W,2.46,119.67,300512,,,A*7C
$GPRMC,184036.000,A,3748.8343,N,12217.6122,W,2.46,110.87,300512,,,A*7A
$GPRMC,184037.000,A,3748.8338,N,12217.6118,W,2.36,100.83,300512,,,A*7C
$GPRMC,184038.000,A,3748.8338,N,12217.6112,W,2.17,120.61,300512,,,A*74
$GPRMC,184039.000,A,3748.8334,N,12217.6107,W,1.99,118.46,300512,,,A*76
$GPRMC,184040.000,A,3748.8329,N,12217.6098,W,1.77,127.79,300512,,,A*73
$GPRMC,184041.000,A,3748.8324,N,12217.6092,W,1.88,131.72,300512,,,A*79
$GPRMC,184042.000,A,3748.8317,N,12217.6091,W,1.93,149.73,300512,,,A*7D
$GPRMC,184043.000,A,3748.8313,N,12217.6089,W,1.98,142.49,300512,,,A*78
$GPRMC,184044.000,A,3748.8307,N,12217.6083,W,2.42,156.94,300512,,,A*71
$GPRMC,184045.000,A,3748.8306,N,12217.6080,W,1.24,155.43,300512,,,A*78
$GPRMC,184046.000,A,3748.8307,N,12217.6071,W,1.45,108.83,300512,,,A*77
$GPRMC,184047.000,A,3748.8306,N,12217.6064,W,2.36,119.85,300512,,,A*72
$GPRMC,184048.000,A,3748.8305,N,12217.6055,W,2.48,113.12,300512,,,A*71
$GPRMC,184049.000,A,3748.8304,N,12217.6048,W,1.74,121.80,300512,,,A*7B
$GPRMC,184050.000,A,3748.8300,N,12217.6041,W,1.72,122.98,300512,,,A*72
$GPRMC,184051.000,A,3748.8298,N,12217.6035,W,1.46,117.36,300512,,,A*75
$GPRMC,184052.000,A,3748.8293,N,12217.6029,W,1.99,125.93,300512,,,A*7C
$GPRMC,184053.000,A,3748.8287,N,12217.6020,W,2.16,124.77,300512,,,A*7E
$GPRMC,184054.000,A,3748.8283,N,12217.6011,W,2.02,117.59,300512,,,A*76
$GPRMC,184055.000,A,3748.8279,N,12217.6003,W,1.67,133.45,300512,,,A*7A
$GPRMC,184056.000,A,3748.8272,N,12217.5998,W,1.46,110.71,300512,,,A*7F
$GPRMC,184057.000,A,3748.8268,N,12217.5995,W,1.59,118.98,300512,,,A*79
$GPRMC,184058.000,A,3748.8263,N,12217.5987,W,1.22,129.06,300512,,,A*77
$GPRMC,184059.000,A,3748.8258,N,12217.5987,W,0.39,108.49,300512,,,A*7D
$GPRMC,184100.000,A,3748.8254,N,12217.5983,W,2.12,116.43,300512,,,A*76
$GPRMC,184101.000,A,3748.8252,N,12217.5971,W,1.85,124.39,300512,,,A*7D
$GPRMC,184102.000,A,3748.8250,N,12217.5960,W,2.11,111.06,300512,,,A*78
$GPRMC,184103.000,A,3748.8248,N,12217.5951,W,2.59,117.59,300512,,,A*72
$GPRMC,184104.000,A,3748.8247,N,12217.5942,W,1.96,99.88,300512,,,D*46
$GPRMC,184105.000,A,3748.8243,N,12217.5931,W,1.76,103.07,300512,,,D*7C
$GPRMC,184106.000,A,3748.8242,N,12217.5925,W,2.15,105.93,300512,,,D*76
$GPRMC,184107.000,A,3748.8237,N,12217.5918,W,2.52,123.99,300512,,,D*76
$GPRMC,184108.000,A,3748.8230,N,12217.5908,W,2.26,123.04,300512,,,D*78
$GPRMC,184109.000,A,3748.8225,N,12217.5900,W,1.87,108.63,300512,,,D*75
$GPRMC,184110.000,A,3748.8222,N,12217.5891,W,1.87,110.79,300512,,,D*71
$GPRMC,184111.000,A,3748.8219,N,12217.5882,W,1.81,104.41,300512,,,D*72
$GPRMC,184112.000,A,3748.8218,N,12217.5872,W,2.46,117.46,300512,,,D*72
$GPRMC,184113.000,A,3748.8213,N,12217.5868,W,1.98,110.03,300512,,,D*75
$GPRMC,184114.000,A,3748.8209,N,12217.5860,W,1.89,97.95,300512,,,D*40
$GPRMC,184115.000,A,3748.8207,N,12217.5847,W,2.45,93.84,300512,,,D*4D
$GPRMC,184116.000,A,3748.8206,N,12217.5839,W,2.32,107.03,300512,,,D*75
$GPRMC,184117.000,A,3748.8205,N,12217.5831,W,1.95,110.02,300512,,,D*76
$GPRMC,184118.000,A,3748.8196,N,12217.5822,W,1.88,116.83,300512,,,D*71
$GPRMC,184119.000,A,3748.8195,N,12217.5816,W,1.33,115.99,300512,,,D*7C
$GPRMC,184120.000,A,3748.8190,N,12217.5807,W,2.10,112.02,300512,,,D*74
$GPRMC,184121.000,A,3748.8190,N,12217.5800,W,2.14,113.24,300512,,,D*73
$GPRMC,184122.000,A,3748.8188,N,12217.5795,W,1.63,105.95,300512,,,D*74
$GPRMC,184123.000,A,3748.8188,N,12217.5792,W,0.92,65.95,300512,,,D*4A
$GPRMC,184124.000,A,3748.8184,N,12217.5784,W,1.15,101.41,300512,,,D*72
$GPRMC,184125.000,A,3748.8182,N,12217.5773,W,1.48,84.17,300512,,,D*4A
$GPRMC,184126.000,A,3748.8178,N,12217.5765,W,1.10,96.35,300512,,,D*45
$GPRMC,184127.000,A,3748.8174,N,12217.5758,W,1.00,105.63,300512,,,D*7F
$GPRMC,184128.000,A,3748.8171,N,12217.5752,W,0.39,67.31,300512,,,D*46
$GPRMC,184129.000,A,3748.8168,N,12217.5746,W,0.61,96.50,300512,,,D*4E
$GPRMC,184130.000,A,3748.8166,N,12217.5740,W,0.91,102.13,300512,,,D*7A
$GPRMC,184131.000,A,3748.8157,N,12217.5731,W,1.15,109.14,300512,,,D*7E
$GPRMC,184132.000,A,3748.8150,N,12217.5722,W,1.46,131.47,300512,,,D*73
$GPRMC,184133.000,A,3748.8146,N,12217.5717,W,1.61,101.79,300512,,,D*78
$GPRMC,184134.000,A,3748.8137,N,12217.5707,W,1.27,106.24,300512,,,D*75
$GPRMC,184135.000,A,3748.8129,N,12217.5700,W,0.80,75.91,300512,,,D*4B
$GPRMC,184136.000,A,3748.8123,N,12217.5694,W,0.85,105.97,300512,,,D*7B
$GPRMC,184137.000,A,3748.8117,N,12217.5686,W,1.58,111.06,300512,,,D*72
$GPRMC,184138.000,A,3748.8113,N,12217.5682,W,1.75,116.78,300512,,,D*7C
$GPRMC,184139.000,A,3748.8112,N,12217.5674,W,1.76,130.41,300512,,,D*78
$GPRMC,184140.000,A,3748.8110,N,12217.5668,W,1.83,146.56,300512,,,D*74
$GPRMC,184141.000,A,3748.8107,N,12217.5658,W,2.00,113.94,300512,,,D*76
$GPRMC,184142.000,A,3748.8105,N,12217.5648,W,1.55,90.02,300512,,,D*40
$GPRMC,184143.000,A,3748.8103,N,12217.5637,W,1.76,121.46,300512,,,D*75
$GPRMC,184144.000,A,3748.8095,N,12217.5630,W,1.89,117.96,300512,,,D*73
$GPRMC,184145.000,A,3748.8089,N,12217.5617,W,2.06,127.90,300512,,,D*7B
$GPRMC,184146.000,A,3748.8085,N,12217.5603,W,1.86,132.70,300512,,,D*70
$GPRMC,184147.000,A,3748.8079,N,12217.5594,W,1.70,154.55,300512,,,D*71
$GPRMC,184148.000,A,3748.8076,N,12217.5588,W,1.31,116.39,300512,,,D*75
$GPRMC,184149.000,A,3748.8076,N,12217.5579,W,1.42,82.35,300512,,,D*4E
$GPRMC,184150.000,A,3748.8068,N,12217.5569,W,1.47,122.92,300512,,,D*7B
$GPRMC,184151.000,A,3748.8062,N,12217.5561,W,1.44,132.92,300512,,,D*7A
$GPRMC,184152.000,A,3748.8057,N,12217.5554,W,1.09,129.76,300512,,,D*70
$GPRMC,184153.000,A,3748.8047,N,12217.5546,W,1.30,178.24,300512,,,A*7F
$GPRMC,184154.000,A,3748.8041,N,12217.5542,W,0.91,147.41,300512,,,A*7F
$GPRMC,184155.000,A,3748.8033,N,12217.5536,W,1.40,156.30,300512,,,A*73
$GPRMC,184156.000,A,3748.8025,N,12217.5533,W,2.53,148.01,300512,,,A*7E
$GPRMC,184157.000,A,3748.8020,N,12217.5527,W,2.33,160.97,300512,,,A*7C
$GPRMC,184158.000,A,3748.8014,N,12217.5528,W,1.73,176.96,300512,,,A*7A
$GPRMC,184159.000,A,3748.8012,N,12217.5525,W,1.41,181.97,300512,,,A*78
$GPRMC,184200.000,A,3748.8007,N,12217.5527,W,1.93,198.34,300512,,,A*7F
$GPRMC,184201.000,A,3748.8001,N,12217.5528,W,2.12,180.89,300512,,,A*72
$GPRMC,184202.000,A,3748.7993,N,12217.5524,W,1.04,180.88,300512,,,A*75
$GPRMC,184203.000,A,3748.7990,N,12217.5529,W,0.77,246.58,300512,,,A*7B
$GPRMC,184204.000,A,3748.7988,N,12217.5540,W,2.11,233.06,300512,,,A*71
$GPRMC,184205.000,A,3748.7985,N,12217.5552,W,1.89,255.06,300512,,,A*7C
$GPRMC,184206.000,A,3748.7979,N,12217.5562,W,2.21,223.08,300512,,,A*71
$GPRMC,184207.000,A,3748.7974,N,12217.5571,W,1.41,214.90,300512,,,A*7F
$GPRMC,184208.000,A,3748.7969,N,12217.5569,W,1.28,214.72,300512,,,A*76
$GPRMC,184209.000,A,3748.7963,N,12217.5576,W,1.58,217.26,300512,,,A*76
$GPRMC,184210.000,A,3748.7956,N,12217.5580,W,1.65,222.45,300512,,,A*7C
$GPRMC,184211.000,A,3748.7948,N,12217.5583,W,1.30,240.65,300512,,,A*77
$GPRMC,184212.000,A,3748.7946,N,12217.5586,W,1.00,235.06,300512,,,A*7B
$GPRMC,184213.000,A,3748.7945,N,12217.5583,W,1.29,254.93,300512,,,A*7C
$GPRMC,184214.000,A,3748.7936,N,12217.5583,W,1.28,250.25,300512,,,A*77
$GPRMC,184215.000,A,3748.7928,N,12217.5589,W,1.63,216.54,300512,,,A*78
$GPRMC,184216.000,A,3748.7919,N,12217.5593,W,2.13,203.94,300512,,,A*7E
$GPRMC,184217.000,A,3748.7913,N,12217.5602,W,2.04,212.89,300512,,,A*74
$GPRMC,184218.000,A,3748.7905,N,12217.5608,W,2.06,197.96,300512,,,A*74
$GPRMC,184219.000,A,3748.7898,N,12217.5605,W,1.49,182.34,300512,,,A*79
$GPRMC,184220.000,A,3748.7893,N,12217.5605,W,1.81,208.64,300512,,,A*78
$GPRMC,184221.000,A,3748.7886,N,12217.5606,W,1.21,215.28,300512,,,A*70
$GPRMC,184222.000,A,3748.7879,N,12217.5604,W,1.06,211.79,300512,,,A*74
$GPRMC,184223.000,A,3748.7876,N,12217.5607,W,1.00,208.48,300512,,,A*75
$GPRMC,184224.000,A,3748.7873,N,12217.5617,W,1.72,221.22,300512,,,A*74
$GPRMC,184225.000,A,3748.7865,N,12217.5618,W,2.14,212.63,300512,,,A*7B
$GPRMC,184226.000,A,3748.7860,N,12217.5625,W,2.18,199.32,300512,,,A*7B
$GPRMC,184227.000,A,3748.7855,N,12217.5627,W,2.45,198.40,300512,,,A*72
$GPRMC,184228.000,A,3748.7848,N,12217.5631,W,1.98,213.56,300512,,,A*72
$GPRMC,184229.000,A,3748.7838,N,12217.5637,W,1.87,218.89,300512,,,A*75
$GPRMC,184230.000,A,3748.7834,N,12217.5648,W,1.98,236.11,300512,,,A*7A
$GPRMC,184231.000,A,3748.7831,N,12217.5657,W,1.85,216.48,300512,,,A*72
$GPRMC,184232.000,A,3748.7822,N,12217.5657,W,1.90,193.34,300512,,,A*72
$GPRMC,184233.000,A,3748.7816,N,12217.5658,W,2.45,201.69,300512,,,A*70
$GPRMC,184234.000,A,3748.7811,N,12217.5659,W,2.05,190.98,300512,,,A*70
$GPRMC,184235.000,A,3748.7810,N,12217.5664,W,1.54,228.86,300512,,,A*76
$GPRMC,184236.000,A,3748.7809,N,12217.5667,W,1.81,260.61,300512,,,A*73
$GPRMC,184237.000,A,3748.7806,N,12217.5672,W,1.95,249.50,300512,,,A*75
$GPRMC,184238.000,A,3748.7797,N,12217.5674,W,1.71,215.61,300512,,,A*7A
$GPRMC,184239.000,A,3748.7790,N,12217.5678,W,1.80,178.90,300512,,,A*78
$GPRMC,184240.000,A,3748.7787,N,12217.5677,W,0.68,126.40,300512,,,A*7E
$GPRMC,184241.000,A,3748.7784,N,12217.5674,W,0.69,108.70,300512,,,A*71
$GPRMC,184242.000,A,3748.7779,N,12217.5671,W,1.38,115.06,300512,,,A*7D
$GPRMC,184243.000,A,3748.7770,N,12217.5669,W,2.36,146.77,300512,,,A*71
$GPRMC,184244.000,A,3748.7763,N,12217.5671,W,1.95,174.78,300512,,,A*79
$GPRMC,184245.000,A,3748.7749,N,12217.5669,W,2.14,191.92,300512,,,A*7C
$GPRMC,184246.000,A,3748.7735,N,12217.5671,W,2.38,205.52,300512,,,A*71
$GPRMC,184247.000,A,3748.7726,N,12217.5675,W,2.04,218.03,300512,,,A*71
$GPRMC,184248.000,A,3748.7718,N,12217.5672,W,1.95,191.17,300512,,,A*78
$GPRMC,184249.000,A,3748.7713,N,12217.5672,W,2.20,201.67,300512,,,A*72
$GPRMC,184250.000,A,3748.7706,N,12217.5668,W,1.54,198.41,300512,,,A*72
$GPRMC,184251.000,A,3748.7693,N,12217.5673,W,2.47,188.16,300512,,,A*76
$GPRMC,184252.000,A,3748.7689,N,12217.5689,W,1.86,210.37,300512,,,A*74
$GPRMC,184253.000,A,3748.7692,N,12217.5714,W,2.30,228.98,300512,,,A*7A
$GPRMC,184254.000,A,3748.7689,N,12217.5728,W,2.72,218.40,300512,,,A*78
$GPRMC,184255.000,A,3748.7686,N,12217.5740,W,2.66,204.93,300512,,,A*7E
$GPRMC,184256.000,A,3748.7679,N,12217.5749,W,2.29,217.63,300512,,,A*72
$GPRMC,184257.000,A,3748.7675,N,12217.5755,W,1.71,201.48,300512,,,A*72
$GPRMC,184258.000,A,3748.7672,N,12217.5763,W,1.71,198.45,300512,,,A*71
$GPRMC,184259.000,A,3748.7665,N,12217.5772,W,2.11,204.10,300512,,,A*75
$GPRMC,184300.000,A,3748.7660,N,12217.5779,W,2.30,200.97,300512,,,A*7E
$GPRMC,184301.000,A,3748.7654,N,12217.5787,W,2.65,208.82,300512,,,A*75
$GPRMC,184302.000,A,3748.7648,N,12217.5794,W,2.30,201.51,300512,,,A*7E
$GPRMC,184303.000,A,3748.7643,N,12217.5800,W,2.02,201.15,300512,,,A*77
$GPRMC,184304.000,A,3748.7637,N,12217.5806,W,2.28,198.99,300512,,,A*7A
$GPRMC,184305.000,A,3748.7630,N,12217.5815,W,2.28,197.56,300512,,,A*72
$GPRMC,184306.000,A,3748.7623,N,12217.5822,W,1.92,194.38,300512,,,A*7E
$GPRMC,184307.000,A,3748.7616,N,12217.5829,W,1.94,194.32,300512,,,A*7E
$GPRMC,184308.000,A,3748.7609,N,12217.5835,W,2.51,205.74,300512,,,A*71
$GPRMC,184309.000,A,3748.7602,N,12217.5841,W,2.69,208.87,300512,,,A*72
$GPRMC,184310.000,A,3748.7596,N,12217.5843,W,2.53,208.65,300512,,,A*73
$GPRMC,184311.000,A,3748.7589,N,12217.5850,W,2.14,194.68,300512,,,A*76
$GPRMC,184312.000,A,3748.7583,N,12217.5855,W,1.98,193.66,300512,,,A*74
$GPRMC,184313.000,A,3748.7578,N,12217.5858,W,1.79,197.33,300512,,,A*77
$GPRMC,184314.000,A,3748.7574,N,12217.5863,W,1.57,202.45,300512,,,A*76
$GPRMC,184315.000,A,3748.7572,N,12217.5866,W,1.02,191.44,300512,,,A*7C
$GPRMC,184316.000,A,3748.7570,N,12217.5868,W,1.35,185.69,300512,,,A*7D
$GPRMC,184317.000,A,3748.7567,N,12217.5868,W,1.17,171.28,300512,,,A*74
$GPRMC,184318.000,A,3748.7565,N,12217.5865,W,1.63,172.78,300512,,,A*71
$GPRMC,184319.000,A,3748.7558,N,12217.5865,W,2.28,184.89,300512,,,A*75
$GPRMC,184320.000,A,3748.7551,N,12217.5866,W,1.93,196.46,300512,,,A*76
$GPRMC,184321.000,A,3748.7546,N,12217.5871,W,1.74,210.11,300512,,,A*71
$GPRMC,184322.000,A,3748.7538,N,12217.5876,W,1.65,221.77,300512,,,A*7E
$GPRMC,184323.000,A,3748.7527,N,12217.5879,W,1.67,213.32,300512,,,A*7C
$GPRMC,184324.000,A,3748.7521,N,12217.5886,W,1.61,212.53,300512,,,A*7D
$GPRMC,184325.000,A,3748.7512,N,12217.5892,W,1.41,204.40,300512,,,A*7E
$GPRMC,184326.000,A,3748.7508,N,12217.5898,W,1.52,207.45,300512,,,A*78
$GPRMC,184327.000,A,3748.7498,N,12217.5904,W,2.16,210.51,300512,,,A*75
$GPRMC,184328.000,A,3748.7494,N,12217.5912,W,1.99,205.38,300512,,,A*7E
$GPRMC,184329.000,A,3748.7485,N,12217.5919,W,1.61,205.28,300512,,,A*72
$GPRMC,184330.000,A,3748.7476,N,12217.5925,W,1.64,201.12,300512,,,A*71
$GPRMC,184331.000,A,3748.7467,N,12217.5933,W,2.16,205.33,300512,,,A*76
$GPRMC,184332.000,A,3748.7461,N,12217.5938,W,1.73,214.34,300512,,,A*7F
$GPRMC,184333.000,A,3748.7455,N,12217.5942,W,1.40,227.96,300512,,,A*7C
$GPRMC,184334.000,A,3748.7449,N,12217.5951,W,1.50,224.83,300512,,,A*72
$GPRMC,184335.000,A,3748.7444,N,12217.5957,W,1.78,207.60,300512,,,A*7E
$GPRMC,184336.000,A,3748.7439,N,12217.5957,W,2.19,184.56,300512,,,A*7E
$GPRMC,184337.000,A,3748.7433,N,12217.5953,W,2.00,185.26,300512,,,A*7F
$GPRMC,184338.000,A,3748.7424,N,12217.5957,W,2.09,186.97,300512,,,A*72
$GPRMC,184339.000,A,3748.7414,N,12217.5963,W,1.91,189.96,300512,,,A*7B
$GPRMC,184340.000,A,3748.7407,N,12217.5969,W,2.19,206.38,300512,,,A*7E
$GPRMC,184341.000,A,3748.7399,N,12217.5972,W,2.38,221.00,300512,,,A*78
$GPRMC,184342.000,A,3748.7390,N,12217.5984,W,2.45,220.58,300512,,,A*7D
$GPRMC,184343.000,A,3748.7383,N,12217.5990,W,2.15,202.18,300512,,,A*7A
$GPRMC,184344.000,A,3748.7376,N,12217.5996,W,2.42,205.68,300512,,,A*73
$GPRMC,184345.000,A,3748.7371,N,12217.6001,W,1.79,216.71,300512,,,A*70
$GPRMC,184346.000,A,3748.7368,N,12217.6004,W,1.79,218.04,300512,,,A*72
$GPRMC,184347.000,A,3748.7365,N,12217.6012,W,1.56,181.90,300512,,,A*7A
$GPRMC,184348.000,A,3748.7363,N,12217.6021,W,0.75,191.90,300512,,,A*72
$GPRMC,184349.000,A,3748.7359,N,12217.6028,W,1.16,194.55,300512,,,A*7B
$GPRMC,184350.000,A,3748.7355,N,12217.6037,W,1.61,181.10,300512,,,A*74
$GPRMC,184351.000,A,3748.7348,N,12217.6039,W,1.49,192.13,300512,,,A*7C
$GPRMC,184352.000,A,3748.7341,N,12217.6043,W,1.31,200.62,300512,,,A*7A
$GPRMC,184353.000,A,3748.7336,N,12217.6050,W,2.02,203.79,300512,,,A*73
$GPRMC,184354.000,A,3748.7327,N,12217.6056,W,2.40,184.49,300512,,,A*7B
$GPRMC,184355.000,A,3748.7318,N,12217.6060,W,2.44,184.57,300512,,,A*78
$GPRMC,184356.000,A,3748.7311,N,12217.6066,W,1.99,183.24,300512,,,A*74
$GPRMC,184357.000,A,3748.7305,N,12217.6070,W,1.63,181.10,300512,,,A*77
$GPRMC,184358.000,A,3748.7299,N,12217.6074,W,1.93,195.60,300512,,,A*75
$GPRMC,184359.000,A,3748.7292,N,12217.6078,W,2.04,198.53,300512,,,A*73
$GPRMC,184400.000,A,3748.7286,N,12217.6082,W,1.82,188.13,300512,,,A*70
$GPRMC,184401.000,A,3748.7282,N,12217.6086,W,1.92,187.80,300512,,,A*75
$GPRMC,184402.000,A,3748.7275,N,12217.6094,W,1.96,214.33,300512,,,A*78
$GPRMC,184403.000,A,3748.7269,N,12217.6101,W,3.20,199.96,300512,,,A*7F
$GPRMC,184404.000,A,3748.7261,N,12217.6113,W,3.00,199.46,300512,,,A*7C
$GPRMC,184405.000,A,3748.7255,N,12217.6119,W,2.24,196.36,300512,,,A*7F
$GPRMC,184406.000,A,3748.7250,N,12217.6125,W,2.10,189.43,300512,,,A*7D
$GPRMC,184407.000,A,3748.7245,N,12217.6130,W,1.90,197.61,300512,,,A*78
$GPRMC,184408.000,A,3748.7238,N,12217.6141,W,2.00,192.81,300512,,,A*7A
$GPRMC,184409.000,A,3748.7233,N,12217.6144,W,2.02,182.69,300512,,,A*70
$GPRMC,184410.000,A,3748.7228,N,12217.6143,W,2.20,178.25,300512,,,A*78
$GPRMC,184411.000,A,3748.7222,N,12217.6147,W,2.19,192.48,300512,,,A*72
$GPRMC,184412.000,A,3748.7216,N,12217.6151,W,2.30,181.50,300512,,,A*71
$GPRMC,184413.000,A,3748.7209,N,12217.6154,W,2.26,181.80,300512,,,A*71
$GPRMC,184414.000,A,3748.7204,N,12217.6155,W,2.16,183.02,300512,,,A*71
$GPRMC,184415.000,A,3748.7197,N,12217.6160,W,1.87,180.76,300512,,,A*74
$GPRMC,184416.000,A,3748.7192,N,12217.6166,W,1.60,190.25,300512,,,A*7A
$GPRMC,184417.000,A,3748.7187,N,12217.6171,W,1.84,205.70,300512,,,A*7C
$GPRMC,184418.000,A,3748.7181,N,12217.6178,W,1.99,203.71,300512,,,A*77
$GPRMC,184419.000,A,3748.7175,N,12217.6188,W,2.05,218.37,300512,,,A*7C
$GPRMC,184420.000,A,3748.7171,N,12217.6197,W,1.72,219.35,300512,,,A*7C
$GPRMC,184421.000,A,3748.7163,N,12217.6203,W,2.06,187.22,300512,,,A*72
$GPRMC,184422.000,A,3748.7157,N,12217.6207,W,2.05,188.99,300512,,,A*7E
$GPRMC,184423.000,A,3748.7151,N,12217.6214,W,1.91,207.49,300512,,,A*7C
$GPRMC,184424.000,A,3748.7146,N,12217.6219,W,1.85,205.71,300512,,,A*7C
$GPRMC,184425.000,A,3748.7140,N,12217.6225,W,1.91,203.20,300512,,,A*73
$GPRMC,184426.000,A,3748.7134,N,12217.6232,W,2.08,201.06,300512,,,A*70
$GPRMC,184427.000,A,3748.7129,N,12217.6239,W,2.05,207.99,300512,,,A*7B
$GPRMC,184428.000,A,3748.7124,N,12217.6247,W,2.36,208.70,300512,,,A*78
$GPRMC,184429.000,A,3748.7117,N,12217.6253,W,2.28,213.26,300512,,,A*7A
$GPRMC,184430.000,A,3748.7109,N,12217.6261,W,1.94,207.69,300512,,,A*76
$GPRMC,184431.000,A,3748.7103,N,12217.6267,W,1.76,211.66,300512,,,A*7F
$GPRMC,184432.000,A,3748.7099,N,12217.6271,W,1.87,221.37,300512,,,A*70
$GPRMC,184433.000,A,3748.7092,N,12217.6279,W,2.09,218.51,300512,,,A*7D
$GPRMC,184434.000,A,3748.7084,N,12217.6286,W,2.43,209.39,300512,,,A*7D
$GPRMC,184435.000,A,3748.7080,N,12217.6288,W,2.31,205.56,300512,,,A*76
$GPRMC,184436.000,A,3748.7076,N,12217.6291,W,1.99,206.37,300512,,,A*71
$GPRMC,184437.000,A,3748.7073,N,12217.6295,W,1.96,207.59,300512,,,A*77
$GPRMC,184438.000,A,3748.7067,N,12217.6301,W,1.84,195.52,300512,,,A*71
$GPRMC,184439.000,A,3748.7062,N,12217.6306,W,1.23,190.89,300512,,,A*7C
$GPRMC,184440.000,A,3748.7056,N,12217.6310,W,1.76,191.63,300512,,,A*77
$GPRMC,184441.000,A,3748.7050,N,12217.6313,W,1.90,186.63,300512,,,A*7D
$GPRMC,184442.000,A,3748.7046,N,12217.6310,W,1.67,189.99,300512,,,A*78
$GPRMC,184443.000,A,3748.7043,N,12217.6307,W,1.49,182.22,300512,,,A*7D
$GPRMC,184444.000,A,3748.7037,N,12217.6310,W,1.62,196.44,300512,,,A*73
$GPRMC,184445.000,A,3748.7031,N,12217.6312,W,1.74,204.28,300512,,,A*73
$GPRMC,184446.000,A,3748.7023,N,12217.6317,W,1.62,188.41,300512,,,A*79
$GPRMC,184447.000,A,3748.7016,N,12217.6321,W,1.77,211.31,300512,,,A*7B
$GPRMC,184448.000,A,3748.7011,N,12217.6328,W,2.19,223.88,300512,,,A*72
$GPRMC,184449.000,A,3748.7004,N,12217.6331,W,2.20,201.16,300512,,,A*72
$GPRMC,184450.000,A,3748.6997,N,12217.6334,W,1.93,211.28,300512,,,A*7A
$GPRMC,184451.000,A,3748.6989,N,12217.6346,W,2.48,222.71,300512,,,A*78
$GPRMC,184452.000,A,3748.6981,N,12217.6353,W,2.20,205.51,300512,,,A*7E
$GPRMC,184453.000,A,3748.6973,N,12217.6355,W,2.07,190.45,300512,,,A*7B
$GPRMC,184454.000,A,3748.6963,N,12217.6360,W,2.18,200.81,300512,,,A*77
$GPRMC,184455.000,A,3748.6954,N,12217.6368,W,1.93,206.36,300512,,,A*70
$GPRMC,184456.000,A,3748.6943,N,12217.6375,W,2.04,189.53,300512,,,A*73
$GPRMC,184457.000,A,3748.6935,N,12217.6377,W,2.31,188.10,300512,,,A*71
$GPRMC,184458.000,A,3748.6927,N,12217.6380,W,2.13,204.96,300512,,,A*7C
$GPRMC,184459.000,A,3748.6920,N,12217.6383,W,1.82,202.05,300512,,,A*7E
$GPRMC,184500.000,A,3748.6916,N,12217.6386,W,1.34,203.29,300512,,,A*71
$GPRMC,184501.000,A,3748.6907,N,12217.6395,W,1.93,213.68,300512,,,A*7B
$GPRMC,184502.000,A,3748.6900,N,12217.6401,W,1.91,195.30,300512,,,A*77
$GPRMC,184503.000,A,3748.6896,N,12217.6400,W,2.51,179.44,300512,,,A*77
$GPRMC,184504.000,A,3748.6888,N,12217.6400,W,2.32,189.89,300512,,,A*74
$GPRMC,184505.000,A,3748.6882,N,12217.6401,W,1.61,202.42,300512,,,A*7C
$GPRMC,184506.000,A,3748.6880,N,12217.6403,W,0.81,209.25,300512,,,A*7A
$GPRMC,184507.000,A,3748.6878,N,12217.6406,W,1.66,186.27,300512,,,A*77
$GPRMC,184508.000,A,3748.6874,N,12217.6412,W,2.01,193.27,300512,,,A*77
$GPRMC,184509.000,A,3748.6868,N,12217.6416,W,2.07,195.37,300512,,,A*7E
$GPRMC,184510.000,A,3748.6864,N,12217.6424,W,2.39,210.00,300512,,,A*7C
$GPRMC,184511.000,A,3748.6859,N,12217.6431,W,1.91,206.63,300512,,,A*74
$GPRMC,184512.000,A,3748.6855,N,12217.6438,W,2.11,198.36,300512,,,A*7D
$GPRMC,184513.000,A,3748.6850,N,12217.6444,W,2.03,188.75,300512,,,A*77
$GPRMC,184514.000,A,3748.6847,N,12217.6451,W,1.65,197.13,300512,,,A*7F
$GPRMC,184515.000,A,3748.6836,N,12217.6467,W,2.41,205.35,300512,,,A*74
$GPRMC,184516.000,A,3748.6832,N,12217.6472,W,2.22,202.83,300512,,,A*78
$GPRMC,184517.000,A,3748.6823,N,12217.6476,W,2.32,172.95,300512,,,A*7F
$GPRMC,184518.000,A,3748.6813,N,12217.6488,W,2.42,203.09,300512,,,A*75
$GPRMC,184519.000,A,3748.6804,N,12217.6495,W,2.54,202.67,300512,,,A*70
$GPRMC,184520.000,A,3748.6791,N,12217.6507,W,2.62,202.69,300512,,,A*78
$GPRMC,184521.000,A,3748.6782,N,12217.6518,W,1.88,222.80,300512,,,A*77
$GPRMC,184522.000,A,3748.6779,N,12217.6519,W,0.62,238.69,300512,,,A*78
$GPRMC,184523.000,A,3748.6773,N,12217.6519,W,1.35,202.38,300512,,,A*7D
$GPRMC,184524.000,A,3748.6770,N,12217.6514,W,1.69,216.86,300512,,,A*7D
$GPRMC,184525.000,A,3748.6764,N,12217.6521,W,2.32,229.69,300512,,,A*7F
$GPRMC,184526.000,A,3748.6760,N,12217.6523,W,2.41,241.46,300512,,,A*7D
$GPRMC,184527.000,A,3748.6756,N,12217.6525,W,1.54,251.13,300512,,,A*79
$GPRMC,184528.000,A,3748.6753,N,12217.6520,W,0.20,149.89,300512,,,A*7D
$GPRMC,184529.000,A,3748.6742,N,12217.6517,W,2.06,167.21,300512,,,A*70
$GPRMC,184530.000,A,3748.6732,N,12217.6516,W,1.03,191.38,300512,,,A*79
$GPRMC,184531.000,A,3748.6723,N,12217.6521,W,1.41,204.93,300512,,,A*74
$GPRMC,184532.000,A,3748.6714,N,12217.6518,W,1.31,184.16,300512,,,A*78
$GPRMC,184533.000,A,3748.6710,N,12217.6521,W,1.20,165.45,300512,,,A*7E
$GPRMC,184534.000,A,3748.6707,N,12217.6522,W,1.60,141.58,300512,,,A*72
$GPRMC,184535.000,A,3748.6701,N,12217.6519,W,1.40,135.97,300512,,,A*7F
$GPRMC,184536.000,A,3748.6694,N,12217.6520,W,1.50,150.91,300512,,,A*7F
$GPRMC,184537.000,A,3748.6685,N,12217.6522,W,0.61,169.47,300512,,,A*7E
$GPRMC,184538.000,A,3748.6675,N,12217.6535,W,1.32,233.26,300512,,,A*74
$GPRMC,184539.000,A,3748.6664,N,12217.6545,W,1.63,243.47,300512,,,A*76
$GPRMC,184540.000,A,3748.6660,N,12217.6558,W,1.81,259.62,300512,,,A*70
$GPRMC,184541.000,A,3748.6656,N,12217.6570,W,1.62,260.67,300512,,,A*7C
$GPRMC,184542.000,A,3748.6651,N,12217.6583,W,1.80,215.70,300512,,,A*7C
$GPRMC,184543.000,A,3748.6641,N,12217.6593,W,2.46,223.58,300512,,,A*7B
$GPRMC,184544.000,A,3748.6631,N,12217.6600,W,1.53,234.96,300512,,,A*71
$GPRMC,184545.000,A,3748.6625,N,12217.6606,W,1.34,200.58,300512,,,A*77
$GPRMC,184546.000,A,3748.6620,N,12217.6611,W,1.56,182.51,300512,,,A*73
$GPRMC,184547.000,A,3748.6612,N,12217.6619,W,2.23,185.75,300512,,,A*7B
$GPRMC,184548.000,A,3748.6604,N,12217.6627,W,1.84,201.41,300512,,,A*78
$GPRMC,184549.000,A,3748.6598,N,12217.6633,W,1.42,201.63,300512,,,A*70
$GPRMC,184550.000,A,3748.6595,N,12217.6636,W,1.82,186.97,300512,,,A*7B
$GPRMC,184551.000,A,3748.6592,N,12217.6635,W,1.47,188.17,300512,,,A*71
$GPRMC,184552.000,A,3748.6587,N,12217.6640,W,1.82,211.31,300512,,,A*7A
$GPRMC,184553.000,A,3748.6583,N,12217.6645,W,1.67,195.67,300512,,,A*7D
$GPRMC,184554.000,A,3748.6578,N,12217.6653,W,2.11,191.59,300512,,,A*72
$GPRMC,184555.000,A,3748.6572,N,12217.6663,W,2.33,196.31,300512,,,A*73
$GPRMC,184556.000,A,3748.6565,N,12217.6673,W,1.93,202.11,300512,,,A*72
$GPRMC,184557.000,A,3748.6561,N,12217.6680,W,1.75,206.50,300512,,,A*72
$GPRMC,184558.000,A,3748.6557,N,12217.6689,W,2.27,212.24,300512,,,A*73
$GPRMC,184559.000,A,3748.6554,N,12217.6694,W,2.40,210.09,300512,,,A*71
$GPRMC,184600.000,A,3748.6550,N,12217.6699,W,2.63,215.75,300512,,,A*78
$GPRMC,184601.000,A,3748.6545,N,12217.6705,W,2.06,205.83,300512,,,A*72
$GPRMC,184602.000,A,3748.6539,N,12217.6712,W,1.97,202.50,300512,,,A*7E
$GPRMC,184603.000,A,3748.6532,N,12217.6722,W,2.30,205.61,300512,,,A*7C
$GPRMC,184604.000,A,3748.6526,N,12217.6731,W,2.10,207.38,300512,,,D*75
$GPRMC,184605.000,A,3748.6519,N,12217.6741,W,2.09,210.03,300512,,,D*79
$GPRMC,184606.000,A,3748.6512,N,12217.6750,W,2.05,214.18,300512,,,D*73
$GPRMC,184607.000,A,3748.6506,N,12217.6756,W,1.97,214.77,300512,,,D*70
$GPRMC,184608.000,A,3748.6499,N,12217.6765,W,2.54,213.62,300512,,,D*77
$GPRMC,184609.000,A,3748.6493,N,12217.6773,W,2.78,208.97,300512,,,D*75
$GPRMC,184609.000,A,3748.6488,N,12217.6781,W,2.57,208.45,300512,,,D*70
$GPRMC,184610.000,A,3748.6482,N,12217.6787,W,2.40,211.49,300512,,,D*76
$GPRMC,184611.000,A,3748.6476,N,12217.6792,W,2.49,202.98,300512,,,D*7F
$GPRMC,184612.000,A,3748.6469,N,12217.6797,W,1.98,193.99,300512,,,D*72
$GPRMC,184613.000,A,3748.6464,N,12217.6799,W,1.74,184.65,300512,,,D*77
$GPRMC,184614.000,A,3748.6456,N,12217.6806,W,1.88,187.74,300512,,,D*78
$GPRMC,184615.000,A,3748.6450,N,12217.6809,W,1.96,187.89,300512,,,D*7D
$GPRMC,184616.000,A,3748.6444,N,12217.6814,W,2.15,185.61,300512,,,D*7B
$GPRMC,184617.000,A,3748.6437,N,12217.6819,W,1.50,182.38,300512,,,D*7A
$GPRMC,184618.000,A,3748.6432,N,12217.6821,W,1.70,165.44,300512,,,D*7B
$GPRMC,184619.000,A,3748.6426,N,12217.6815,W,1.90,154.95,300512,,,D*78
$GPRMC,184620.000,A,3748.6420,N,12217.6817,W,1.26,215.95,300512,,,D*7D
$GPRMC,184621.000,A,3748.6418,N,12217.6816,W,0.76,214.43,300512,,,D*78
$GPRMC,184622.000,A,3748.6414,N,12217.6815,W,0.34,240.49,300512,,,D*79
$GPRMC,184623.000,A,3748.6414,N,12217.6813,W,0.42,107.90,300512,,,D*7B
$GPRMC,184624.000,A,3748.6410,N,12217.6808,W,0.59,136.92,300512,,,D*78
$GPRMC,184625.000,A,3748.6406,N,12217.6804,W,0.57,139.89,300512,,,D*79
$GPRMC,184626.000,A,3748.6406,N,12217.6801,W,0.59,223.34,300512,,,D*7F
$GPRMC,184627.000,A,3748.6405,N,12217.6799,W,1.50,247.76,300512,,,D*7F
$GPRMC,184628.000,A,3748.6401,N,12217.6802,W,1.58,241.86,300512,,,D*78
$GPRMC,184629.000,A,3748.6391,N,12217.6808,W,1.76,232.33,300512,,,D*7B
$GPRMC,184630.000,A,3748.6379,N,12217.6816,W,1.76,226.05,300512,,,D*7A
$GPRMC,184631.000,A,3748.6367,N,12217.6821,W,1.37,209.92,300512,,,D*76
$GPRMC,184632.000,A,3748.6357,N,12217.6824,W,1.76,205.79,300512,,,D*7F
$GPRMC,184633.000,A,3748.6347,N,12217.6832,W,1.36,213.60,300512,,,D*73
$GPRMC,184634.000,A,3748.6338,N,12217.6840,W,1.34,219.58,300512,,,D*7A
$GPRMC,184635.000,A,3748.6330,N,12217.6845,W,1.72,212.42,300512,,,D*74
$GPRMC,184636.000,A,3748.6323,N,12217.6853,W,1.81,211.02,300512,,,D*79
$GPRMC,184637.000,A,3748.6318,N,12217.6860,W,2.31,215.08,300512,,,D*76
$GPRMC,184638.000,A,3748.6313,N,12217.6868,W,2.20,209.70,300512,,,D*78
$GPRMC,184639.000,A,3748.6304,N,12217.6874,W,2.12,204.82,300512,,,D*73
$GPRMC,184640.000,A,3748.6294,N,12217.6882,W,2.09,208.53,300512,,,D*76
$GPRMC,184641.000,A,3748.6286,N,12217.6888,W,2.02,206.25,300512,,,D*7A
$GPRMC,184642.000,A,3748.6278,N,12217.6895,W,2.26,191.09,300512,,,D*71
$GPRMC,184643.000,A,3748.6270,N,12217.6902,W,2.01,187.86,300512,,,D*72
$GPRMC,184644.000,A,3748.6263,N,12217.6908,W,1.83,190.60,300512,,,D*7A
$GPRMC,184645.000,A,3748.6257,N,12217.6914,W,1.86,180.70,300512,,,D*74
$GPRMC,184646.000,A,3748.6250,N,12217.6919,W,1.76,187.63,300512,,,D*77
$GPRMC,184647.000,A,3748.6243,N,12217.6924,W,2.56,181.55,300512,,,D*78
$GPRMC,184648.000,A,3748.6236,N,12217.6929,W,1.92,192.20,300512,,,D*73
$GPRMC,184649.000,A,3748.6229,N,12217.6934,W,2.36,199.46,300512,,,D*76
$GPRMC,184650.000,A,3748.6222,N,12217.6940,W,2.47,196.17,300512,,,D*7B
$GPRMC,184651.000,A,3748.6214,N,12217.6943,W,2.52,186.20,300512,,,D*7D
$GPRMC,184652.000,A,3748.6209,N,12217.6945,W,1.78,202.76,300512,,,D*73
$GPRMC,184653.000,A,3748.6200,N,12217.6950,W,1.68,188.17,300512,,,D*78
$GPRMC,184654.000,A,3748.6189,N,12217.6954,W,1.83,183.31,300512,,,D*73
$GPRMC,184655.000,A,3748.6182,N,12217.6957,W,1.28,182.46,300512,,,D*7A
$GPRMC,184656.000,A,3748.6172,N,12217.6956,W,1.53,178.67,300512,,,D*7D
$GPRMC,184657.000,A,3748.6167,N,12217.6959,W,1.03,208.22,300512,,,D*77
$GPRMC,184658.000,A,3748.6162,N,12217.6967,W,1.39,222.19,300512,,,D*79
$GPRMC,184659.000,A,3748.6158,N,12217.6973,W,1.82,209.95,300512,,,D*79
$GPRMC,184700.000,A,3748.6153,N,12217.6977,W,1.60,177.07,300512,,,D*76
$GPRMC,184701.000,A,3748.6142,N,12217.6980,W,1.44,178.48,300512,,,D*7D
$GPRMC,184702.000,A,3748.6137,N,12217.6984,W,1.88,210.85,300512,,,D*74
$GPRMC,184703.000,A,3748.6133,N,12217.6992,W,2.45,231.89,300512,,,D*7B
$GPRMC,184704.000,A,3748.6131,N,12217.7000,W,1.88,247.98,300512,,,D*7E
$GPRMC,184705.000,A,3748.6126,N,12217.7005,W,1.83,214.82,300512,,,D*7A
$GPRMC,184706.000,A,3748.6115,N,12217.7010,W,2.38,217.34,300512,,,D*70
$GPRMC,184707.000,A,3748.6103,N,12217.7016,W,2.44,235.13,300512,,,D*7E
$GPRMC,184708.000,A,3748.6096,N,12217.7020,W,2.45,233.80,300512,,,D*74
$GPRMC,184709.000,A,3748.6089,N,12217.7026,W,2.10,225.58,300512,,,D*7F
$GPRMC,184710.000,A,3748.6079,N,12217.7037,W,2.05,211.68,300512,,,D*78
$GPRMC,184711.000,A,3748.6068,N,12217.7042,W,1.52,170.53,300512,,,D*76
$GPRMC,184712.000,A,3748.6064,N,12217.7043,W,1.64,133.24,300512,,,D*7A
