$ADVER,3080,2.3
$GPRMC,002652.831,A,3748.7897,N,12217.8534,W,0.11,236.79,261111,,,A*7C
$GPGGA,002653.831,3748.7927,N,12217.8512,W,1,03,2.8,25.1,M,-25.1,M,,0000*58
$GPGSA,A,2,18,09,14,,,,,,,,,,3.0,2.8,1.0*3E
$GPRMC,002653.831,A,3748.7927,N,12217.8512,W,0.52,17.88,261111,,,A*4B
$GPVTG,17.88,T,,M,0.52,N,1.0,K,N*32
$GPGGA,002654.831,3748.7947,N,12217.8517,W,1,03,2.8,25.1,M,-25.1,M,,0000*5C
$GPGSA,A,2,18,09,14,,,,,,,,,,3.0,2.8,1.0*3E
$GPRMC,002654.831,A,3748.7947,N,12217.8517,W,0.18,87.24,261111,,,A*4E
$GPVTG,87.24,T,,M,0.18,N,0.3,K,N*31
$GPGGA,002655.835,3748.7957,N,12217.8517,W,1,03,2.8,25.1,M,-25.1,M,,0000*58
$GPGSA,A,2,18,09,14,,,,,,,,,,3.0,2.8,1.0*3E
$GPGSV,3,1,11,18,53,046,40,14,43,184,36,09,17,081,33,22,70,304,31*7C
$GPGSV,3,2,11,06,52,251,21,21,46,106,36,03,46,268,28,19,30,310,33*71
$GPGSV,3,3,11,27,13,060,37,16,04,244,,48,00,000,38*4A
$GPRMC,002655.835,A,3748.7957,N,12217.8517,W,0.13,63.21,261111,,,A*4E
$GPVTG,63.21,T,,M,0.13,N,0.2,K,N*34
$GPGGA,002656.835,3748.7954,N,12217.8516,W,1,03,2.8,25.1,M,-25.1,M,,0000*59
$GPGSA,A,2,18,09,14,,,,,,,,,,3.0,2.8,1.0*3E
$GPRMC,002656.835,A,3748.7954,N,12217.8516,W,0.13,95.17,261111,,,A*43
$GPVTG,95.17,T,,M,0.13,N,0.2,K,N*38
$GPGGA,002657.831,3748.7954,N,12217.8518,W,1,03,2.8,25.1,M,-25.1,M,,0000*52
$GPGSA,A,2,18,09,14,,,,,,,,,,3.0,2.8,1.0*3E
$GPRMC,002657.831,A,3748.7954,N,12217.8518,W,0.20,28.42,261111,,,A*4E
$GPVTG,28.42,T,,M,0.20,N,0.4,K,N*38
$GPGGA,002658.831,3748.8000,N,12217.8633,W,1,04,3.1,2.3,M,-25.1,M,,0000*68
$GPGSA,A,3,18,21,09,14,,,,,,,,,4.8,3.1,3.6*3F
$GPRMC,002658.831,A,3748.8000,N,12217.8633,W,0.22,346.19,261111,,,A*7B
$GPVTG,346.19,T,,M,0.22,N,0.4,K,A*00
$GPGGA,002659.835,3748.7996,N,12217.8638,W,1,04,3.1,1.5,M,-25.1,M,,0000*6A
$GPGSA,A,3,18,21,09,14,,,,,,,,,4.8,3.1,3.6*3F
$GPRMC,002659.835,A,3748.7996,N,12217.8638,W,0.02,29.12,261111,,,A*4F
$GPVTG,29.12,T,,M,0.02,N,0.0,K,A*37
$GPGGA,002700.835,3748.7996,N,12217.8640,W,1,04,3.1,1.2,M,-25.1,M,,0000*6F
$GPGSA,A,3,18,21,09,14,,,,,,,,,4.8,3.1,3.6*3F
$GPGSV,3,1,11,18,53,047,35,21,46,106,36,14,43,184,29,09,17,081,38*7B
$GPGSV,3,2,11,22,70,304,30,06,52,251,23,03,46,268,19,19,30,310,29*7A
$GPGSV,3,3,11,27,13,060,37,16,04,244,,48,44,197,36*4B
$GPRMC,002700.835,A,3748.7996,N,12217.8640,W,0.22,2.28,261111,,,A*7F
$GPVTG,2.28,T,,M,0.22,N,0.4,K,A*01
$GPGSA,A,3,18,21,09,14,,,,,,,,,4.8,3.1,3.6*3F
$GPRMC,002701.000,A,3748.7996,N,12217.8640,W,0.24,30.61,261111,,,A*4A
$GPVTG,30.61,T,,M,0.24,N,0.4,K,A*3B
$GPGGA,002702.000,3748.7997,N,12217.8641,W,1,04,3.1,1.2,M,-25.1,M,,0000*63
$GPGSA,A,3,18,21,09,14,,,,,,,,,4.8,3.1,3.6*3F
$GPRMC,002702.000,A,3748.7997,N,12217.8641,W,0.17,56.94,261111,,,A*43
$GPVTG,56.94,T,,M,0.17,N,0.3,K,A*36
$GPGGA,002703.000,3748.7998,N,12217.8641,W,1,04,3.1,1.4,M,-25.1,M,,0000*6B
$GPGSA,A,3,18,21,09,14,,,,,,,,,4.8,3.1,3.6*3F
$GPRMC,002703.000,A,3748.7998,N,12217.8641,W,0.12,84.78,261111,,,A*45
$GPVTG,84.78,T,,M,0.12,N,0.2,K,A*3F
$GPGGA,002704.000,3748.7996,N,12217.8634,W,1,05,2.2,1.7,M,-25.1,M,,0000*60
$GPGSA,A,3,18,21,09,14,22,,,,,,,,4.1,2.2,3.5*37
$GPRMC,002704.000,A,3748.7996,N,12217.8634,W,0.41,117.10,261111,,,A*7D
$GPVTG,117.10,T,,M,0.41,N,0.8,K,A*06
$GPGGA,002705.000,3748.8001,N,12217.8640,W,1,05,2.2,2.0,M,-25.1,M,,0000*6E
$GPGSA,A,3,18,21,09,14,22,,,,,,,,4.1,2.2,3.5*37
$GPGSV,3,1,11,22,70,304,23,18,53,047,30,06,52,251,28,21,46,106,37*7A
$GPGSV,3,2,11,03,46,268,22,14,43,184,36,19,30,310,30,09,17,081,38*78
$GPGSV,3,3,11,27,13,060,37,16,04,244,14,48,44,197,36*4E
$GPRMC,002705.000,A,3748.8001,N,12217.8640,W,0.38,117.63,261111,,,A*7D
$GPVTG,117.63,T,,M,0.38,N,0.7,K,A*03
$GPGGA,002706.000,3748.8003,N,12217.8641,W,1,05,2.2,2.2,M,-25.1,M,,0000*6C
$GPGSA,A,3,18,21,09,14,22,,,,,,,,4.1,2.2,3.5*37
$GPRMC,002706.000,A,3748.8003,N,12217.8641,W,0.12,57.34,261111,,,A*42
$GPVTG,57.34,T,,M,0.12,N,0.2,K,A*39
$GPGGA,002707.000,3748.8000,N,12217.8632,W,1,05,2.2,2.6,M,-25.1,M,,0000*6E
$GPGSA,A,3,18,21,09,14,22,,,,,,,,4.1,2.2,3.5*37
$GPRMC,002707.000,A,3748.8000,N,12217.8632,W,0.36,120.17,261111,,,A*72
$GPVTG,120.17,T,,M,0.36,N,0.7,K,A*0A
$GPGGA,002708.000,3748.7998,N,12217.8625,W,1,05,2.2,2.9,M,-25.1,M,,0000*6F
$GPGSA,A,3,18,21,09,14,22,,,,,,,,4.1,2.2,3.5*37
$GPRMC,002708.000,A,3748.7998,N,12217.8625,W,0.25,108.68,261111,,,A*7C
$GPVTG,108.68,T,,M,0.25,N,0.5,K,A*08
$GPGGA,002709.000,3748.7997,N,12217.8621,W,1,05,2.2,3.2,M,-25.1,M,,0000*6F
$GPGSA,A,3,18,21,09,14,22,,,,,,,,4.1,2.2,3.5*37
$GPRMC,002709.000,A,3748.7997,N,12217.8621,W,0.17,101.81,261111,,,A*79
$GPVTG,101.81,T,,M,0.17,N,0.3,K,A*01
$GPGGA,002710.000,3748.7997,N,12217.8617,W,1,05,2.2,3.5,M,-25.1,M,,0000*65
$GPGSA,A,3,18,21,09,14,22,,,,,,,,4.1,2.2,3.5*37
$GPGSV,3,1,11,22,70,304,25,18,53,047,31,06,52,251,28,21,46,106,37*7D
$GPGSV,3,2,11,03,46,268,23,14,43,184,37,19,30,310,29,09,17,081,38*70
$GPGSV,3,3,11,27,13,060,37,16,04,244,,48,44,197,36*4B
$GPVTG,106.83,T,,M,0.23,N,0.4,K,A*04
$GPGGA,002711.000,3748.7997,N,12217.8615,W,1,05,2.2,3.7,M,-25.1,M,,0000*64
$GPGSA,A,3,18,21,09,14,22,,,,,,,,4.1,2.2,3.5*37
$GPRMC,002711.000,A,3748.7997,N,12217.8615,W,0.56,121.70,261111,,,A*7E
$GPVTG,121.70,T,,M,0.56,N,1.0,K,A*0A
$GPGGA,002712.000,3748.7995,N,12217.8611,W,1,05,2.2,3.9,M,-25.1,M,,0000*6F
$GPGSA,A,3,18,21,09,14,22,,,,,,,,4.1,2.2,3.5*37
$GPRMC,002712.000,A,3748.7995,N,12217.8611,W,0.29,111.05,261111,,,A*72
$GPVTG,111.05,T,,M,0.29,N,0.5,K,A*07
$GPGGA,002713.000,3748.7994,N,12217.8608,W,1,05,2.2,4.0,M,-25.1,M,,0000*69
$GPGSA,A,3,18,21,09,14,22,,,,,,,,4.1,2.2,3.5*37
$GPRMC,002713.000,A,3748.7994,N,12217.8608,W,0.06,28.30,261111,,,A*4A
$GPVTG,28.30,T,,M,0.06,N,0.1,K,A*33
$GPGGA,002714.000,3748.7995,N,12217.8608,W,1,05,2.2,4.1,M,-25.1,M,,0000*6E
$GPGSA,A,3,18,21,09,14,22,,,,,,,,4.1,2.2,3.5*37
$GPRMC,002714.000,A,3748.7995,N,12217.8608,W,0.15,109.68,261111,,,A*71
$GPVTG,109.68,T,,M,0.15,N,0.3,K,A*0C
$GPGGA,002715.000,3748.7995,N,12217.8608,W,1,05,2.2,4.2,M,-25.1,M,,0000*6C
$GPGSA,A,3,18,21,09,14,22,,,,,,,,4.1,2.2,3.5*37
$GPGSV,3,1,11,22,70,304,23,18,52,047,37,06,52,251,28,21,46,106,37*7C
$GPGSV,3,2,11,03,46,268,,14,43,184,36,19,30,310,26,09,17,081,38*7F
$GPGSV,3,3,11,27,13,060,37,16,04,244,,48,44,197,36*4B
$GPRMC,002715.000,A,3748.7995,N,12217.8608,W,0.22,110.03,261111,,,A*71
$GPVTG,110.03,T,,M,0.22,N,0.4,K,A*0A
$GPGGA,002716.000,3748.7996,N,12217.8610,W,1,05,2.2,4.2,M,-25.1,M,,0000*65
$GPGSA,A,3,18,21,09,14,22,,,,,,,,4.1,2.2,3.5*37
$GPRMC,002716.000,A,3748.7996,N,12217.8610,W,0.09,9.35,261111,,,A*7D
$GPVTG,9.35,T,,M,0.09,N,0.2,K,A*09
$GPGGA,002717.000,3748.7999,N,12217.8616,W,1,05,2.2,4.1,M,-25.1,M,,0000*6E
$GPGSA,A,3,18,21,09,14,22,,,,,,,,4.1,2.2,3.5*37
$GPRMC,002717.000,A,3748.7999,N,12217.8616,W,0.42,311.52,261111,,,A*71
$GPVTG,311.52,T,,M,0.42,N,0.8,K,A*07
$GPGGA,002718.000,3748.7999,N,12217.8618,W,1,05,2.2,4.1,M,-25.1,M,,0000*6F
$GPGSA,A,3,18,21,09,14,22,,,,,,,,4.1,2.2,3.5*37
$GPRMC,002718.000,A,3748.7999,N,12217.8618,W,0.45,307.02,261111,,,A*75
$GPVTG,307.02,T,,M,0.45,N,0.8,K,A*02
$GPGGA,002719.000,3748.7996,N,12217.8612,W,1,05,2.2,4.3,M,-25.1,M,,0000*69
$GPGSA,A,3,18,21,09,14,22,,,,,,,,4.1,2.2,3.5*37
$GPRMC,002719.000,A,3748.7996,N,12217.8612,W,0.28,120.81,261111,,,A*76
$GPVTG,120.81,T,,M,0.28,N,0.5,K,A*08
$GPGGA,002720.000,3748.7995,N,12217.8611,W,1,05,2.2,4.4,M,-25.1,M,,0000*64
$GPGSA,A,3,18,21,09,14,22,,,,,,,,4.1,2.2,3.5*37
$GPGSV,3,1,11,22,70,304,24,18,52,047,37,06,52,251,29,21,46,106,36*7B
$GPGSV,3,2,11,03,46,268,,14,43,184,36,19,30,309,26,09,17,081,38*77
$GPGSV,3,3,11,27,13,060,36,16,04,244,,48,44,197,38*44
$GPRMC,002720.000,A,3748.7995,N,12217.8611,W,0.14,25.68,261111,,,A*40
$GPVTG,25.68,T,,M,0.14,N,0.3,K,A*32
$GPGGA,002721.000,3748.7995,N,12217.8608,W,1,05,2.2,4.5,M,-25.1,M,,0000*6C
$GPGSA,A,3,18,21,09,14,22,,,,,,,,4.1,2.2,3.5*37
$GPRMC,002721.000,A,3748.7995,N,12217.8608,W,0.53,62.86,261111,,,A*49
$GPVTG,62.86,T,,M,0.53,N,1.0,K,A*30
$GPGGA,002722.000,3748.7995,N,12217.8606,W,1,05,2.2,4.6,M,-25.1,M,,0000*62
$GPGSA,A,3,18,21,09,14,22,,,,,,,,4.1,2.2,3.5*37
$GPRMC,002722.000,A,3748.7995,N,12217.8606,W,0.79,40.35,261111,,,A*44
$GPVTG,40.35,T,,M,0.79,N,1.5,K,A*35
$GPGGA,002723.000,3748.7997,N,12217.8603,W,1,05,2.2,4.8,M,-25.1,M,,0000*6A
$GPGSA,A,3,18,21,09,14,22,,,,,,,,4.1,2.2,3.5*37
$GPRMC,002723.000,A,3748.7997,N,12217.8603,W,0.88,52.81,261111,,,A*40
$GPVTG,52.81,T,,M,0.88,N,1.6,K,A*34
$GPGGA,002724.000,3748.7999,N,12217.8599,W,1,05,2.2,5.0,M,-25.1,M,,0000*6A
$GPGSA,A,3,18,21,09,14,22,,,,,,,,4.1,2.2,3.5*37
$GPRMC,002724.000,A,3748.7999,N,12217.8599,W,1.08,89.69,261111,,,A*40
$GPVTG,89.69,T,,M,1.08,N,2.0,K,A*38
$GPGGA,002725.000,3748.8000,N,12217.8595,W,1,05,2.2,5.5,M,-25.1,M,,0000*64
$GPGSA,A,3,18,21,09,14,22,,,,,,,,4.1,2.2,3.5*37
$GPGSV,3,1,11,22,70,304,25,18,52,047,27,06,52,251,35,03,46,268,*78
$GPGSV,3,2,11,21,46,107,30,14,43,184,36,19,30,309,27,09,17,081,31*76
$GPGSV,3,3,11,27,13,060,26,16,04,244,,48,44,197,36*4B
$GPRMC,002725.000,A,3748.8000,N,12217.8595,W,1.07,110.96,261111,,,A*75
$GPVTG,110.96,T,,M,1.07,N,2.0,K,A*06
$GPGGA,002726.000,3748.7996,N,12217.8591,W,1,05,2.2,7.1,M,-25.1,M,,0000*6C
$GPGSA,A,3,18,21,09,14,22,,,,,,,,4.1,2.2,3.5*37
$GPRMC,002726.000,A,3748.7996,N,12217.8591,W,1.53,125.55,261111,,,A*73
$GPVTG,125.55,T,,M,1.53,N,2.8,K,A*06
$GPGGA,002727.000,3748.7989,N,12217.8587,W,1,05,2.2,8.8,M,-25.1,M,,0000*62
$GPGSA,A,3,18,21,09,14,22,,,,,,,,4.1,2.2,3.5*37
$GPRMC,002727.000,A,3748.7989,N,12217.8587,W,1.09,136.47,261111,,,A*75
$GPVTG,136.47,T,,M,1.09,N,2.0,K,A*00
$GPGGA,002728.000,3748.7985,N,12217.8585,W,1,06,1.7,11.8,M,-25.1,M,,0000*5E
$GPGSA,A,3,18,15,21,09,14,22,,,,,,,2.8,1.7,2.2*3C
$GPRMC,002728.000,A,3748.7985,N,12217.8585,W,1.28,119.70,261111,,,A*7E
$GPVTG,119.70,T,,M,1.28,N,2.4,K,A*0E
$GPGGA,002729.000,3748.7976,N,12217.8574,W,1,06,1.7,16.0,M,-25.1,M,,0000*52
$GPGSA,A,3,18,15,21,09,14,22,,,,,,,2.8,1.7,2.2*3C
$GPRMC,002729.000,A,3748.7976,N,12217.8574,W,1.41,121.28,261111,,,A*74
$GPVTG,121.28,T,,M,1.41,N,2.6,K,A*05
$GPGGA,002730.000,3748.7969,N,12217.8567,W,1,06,1.7,19.7,M,-25.1,M,,0000*5E
$GPGSA,A,3,18,15,21,09,14,22,,,,,,,2.8,1.7,2.2*3C
$GPGSV,3,1,12,22,70,304,25,18,52,047,26,06,52,251,36,03,46,268,34*7E
$GPGSV,3,2,12,21,46,107,30,14,43,184,38,19,30,309,29,09,17,081,24*71
$GPGSV,3,3,12,27,13,059,26,15,11,041,26,16,04,244,,48,44,197,38*79
$GPRMC,002730.000,A,3748.7969,N,12217.8567,W,0.68,113.43,261111,,,A*76
$GPVTG,113.43,T,,M,0.68,N,1.3,K,A*05
$GPGGA,002731.000,3748.7965,N,12217.8560,W,1,06,1.7,23.3,M,-25.1,M,,0000*59
$GPGSA,A,3,18,15,21,09,14,22,,,,,,,2.8,1.7,2.2*3C
$GPRMC,002731.000,A,3748.7965,N,12217.8560,W,0.65,75.85,261111,,,A*4A
$GPVTG,75.85,T,,M,0.65,N,1.2,K,A*32
$GPGGA,002732.000,3748.7962,N,12217.8556,W,1,06,1.7,26.2,M,-25.1,M,,0000*5C
$GPGSA,A,3,18,15,21,09,14,22,,,,,,,2.8,1.7,2.2*3C
$GPRMC,002732.000,A,3748.7962,N,12217.8556,W,0.54,63.42,261111,,,A*45
$GPVTG,63.42,T,,M,0.54,N,1.0,K,A*3E
$GPGGA,002733.000,3748.7959,N,12217.8553,W,1,06,1.7,28.5,M,-25.1,M,,0000*59
$GPGSA,A,3,18,15,21,09,14,22,,,,,,,2.8,1.7,2.2*3C
$GPRMC,002733.000,A,3748.7959,N,12217.8553,W,0.49,76.46,261111,,,A*45
$GPVTG,76.46,T,,M,0.49,N,0.9,K,A*3A
$GPGGA,002734.000,3748.7957,N,12217.8550,W,1,06,1.7,30.9,M,-25.1,M,,0000*56
$GPGSA,A,3,18,15,21,09,14,22,,,,,,,2.8,1.7,2.2*3C
$GPRMC,002734.000,A,3748.7957,N,12217.8550,W,0.56,56.36,261111,,,A*44
$GPVTG,56.36,T,,M,0.56,N,1.0,K,A*39
$GPGGA,002735.000,3748.7951,N,12217.8552,W,1,06,1.7,31.4,M,-25.1,M,,0000*5F
$GPGSA,A,3,18,15,21,09,14,22,,,,,,,2.8,1.7,2.2*3C
$GPGSV,3,1,12,22,70,304,26,18,52,047,27,06,52,251,31,03,46,268,34*7B
$GPGSV,3,2,12,21,46,107,30,14,43,184,39,19,30,309,29,09,17,081,25*71
$GPGSV,3,3,12,27,13,059,16,15,11,041,31,16,04,244,,48,44,197,39*7D
$GPRMC,002735.000,A,3748.7951,N,12217.8552,W,0.44,84.38,261111,,,A*43
$GPVTG,84.38,T,,M,0.44,N,0.8,K,A*32
$GPGGA,002736.000,3748.7943,N,12217.8543,W,1,06,1.7,32.8,M,-25.1,M,,0000*50
$GPGSA,A,3,18,15,21,09,14,22,,,,,,,2.8,1.7,2.2*3C
$GPRMC,002736.000,A,3748.7943,N,12217.8543,W,1.15,107.99,261111,,,A*77
$GPVTG,107.99,T,,M,1.15,N,2.1,K,A*0D
$GPGGA,002737.000,3748.7939,N,12217.8535,W,1,06,1.7,33.8,M,-25.1,M,,0000*5C
$GPGSA,A,3,18,15,21,09,14,22,,,,,,,2.8,1.7,2.2*3C
$GPRMC,002737.000,A,3748.7939,N,12217.8535,W,1.09,109.31,261111,,,A*7B
$GPVTG,109.31,T,,M,1.09,N,2.0,K,A*0D
$GPGGA,002738.000,3748.7937,N,12217.8531,W,1,06,1.7,33.7,M,-25.1,M,,0000*56
$GPGSA,A,3,18,15,21,09,14,22,,,,,,,2.8,1.7,2.2*3C
$GPRMC,002738.000,A,3748.7937,N,12217.8531,W,1.01,109.06,261111,,,A*72
$GPVTG,109.06,T,,M,1.01,N,1.9,K,A*0B
$GPGGA,002739.000,3748.7933,N,12217.8523,W,1,06,1.7,35.6,M,-25.1,M,,0000*57
$GPGSA,A,3,18,15,21,09,14,22,,,,,,,2.8,1.7,2.2*3C
$GPRMC,002739.000,A,3748.7933,N,12217.8523,W,1.15,114.11,261111,,,A*7B
$GPVTG,114.11,T,,M,1.15,N,2.1,K,A*0F
$GPGGA,002740.000,3748.7931,N,12217.8519,W,1,06,1.7,36.5,M,-25.1,M,,0000*52
$GPGSA,A,3,18,15,21,09,14,22,,,,,,,2.8,1.7,2.2*3C
$GPGSV,3,1,12,22,70,304,26,18,52,047,28,06,52,251,35,03,46,268,35*71
$GPGSV,3,2,12,21,46,107,30,14,43,184,39,19,30,309,29,09,17,081,24*70
$GPGSV,3,3,12,27,13,059,24,15,11,041,31,16,04,244,,48,44,197,38*7D
$GPVTG,102.14,T,,M,1.24,N,2.3,K,A*0D
$GPGGA,002741.000,3748.7927,N,12217.8511,W,1,06,1.7,36.9,M,-25.1,M,,0000*50
$GPGSA,A,3,18,15,21,09,14,22,,,,,,,2.8,1.7,2.2*3C
$GPRMC,002741.000,A,3748.7927,N,12217.8511,W,1.58,106.26,261111,,,A*7E
$GPVTG,106.26,T,,M,1.58,N,2.9,K,A*09
$GPGGA,002742.000,3748.7925,N,12217.8508,W,1,06,1.7,36.7,M,-25.1,M,,0000*57
$GPGSA,A,3,18,15,21,09,14,22,,,,,,,2.8,1.7,2.2*3C
$GPRMC,002742.000,A,3748.7925,N,12217.8508,W,0.52,82.14,261111,,,A*40
$GPVTG,82.14,T,,M,0.52,N,1.0,K,A*34
$GPGGA,002743.000,3748.7926,N,12217.8505,W,1,06,1.7,37.3,M,-25.1,M,,0000*5D
$GPGSA,A,3,18,15,21,09,14,22,,,,,,,2.8,1.7,2.2*3C
$GPRMC,002743.000,A,3748.7926,N,12217.8505,W,1.14,80.20,261111,,,A*49
$GPVTG,80.20,T,,M,1.14,N,2.1,K,A*30
$GPGGA,002744.000,3748.7926,N,12217.8504,W,1,06,1.7,38.2,M,-25.1,M,,0000*55
$GPGSA,A,3,18,15,21,09,14,22,,,,,,,2.8,1.7,2.2*3C
$GPRMC,002744.000,A,3748.7926,N,12217.8504,W,1.05,117.68,261111,,,A*7C
$GPVTG,117.68,T,,M,1.05,N,2.0,K,A*02
$GPGGA,002745.000,3748.7925,N,12217.8501,W,1,06,1.7,38.9,M,-25.1,M,,0000*59
$GPGSA,A,3,18,15,21,09,14,22,,,,,,,2.8,1.7,2.2*3C
$GPGSV,3,1,12,22,70,304,30,18,52,047,22,06,52,251,36,03,46,268,36*7C
$GPGSV,3,2,12,21,46,107,31,14,43,184,37,19,30,309,28,09,17,081,22*78
$GPGSV,3,3,12,27,13,059,24,15,11,041,31,16,04,244,,48,44,197,41*73
$GPRMC,002745.000,A,3748.7925,N,12217.8501,W,1.17,122.07,261111,,,A*77
$GPVTG,122.07,T,,M,1.17,N,2.2,K,A*0C
$GPGGA,002746.000,3748.7922,N,12217.8496,W,1,06,1.7,39.7,M,-25.1,M,,0000*5D
$GPGSA,A,3,18,15,21,09,14,22,,,,,,,2.8,1.7,2.2*3C
$GPRMC,002746.000,A,3748.7922,N,12217.8496,W,1.75,121.01,261111,,,A*7D
$GPVTG,121.01,T,,M,1.75,N,3.2,K,A*0C
$GPGGA,002747.000,3748.7920,N,12217.8490,W,1,06,1.7,40.6,M,-25.1,M,,0000*57
$GPGSA,A,3,18,15,21,09,14,22,,,,,,,2.8,1.7,2.2*3C
$GPRMC,002747.000,A,3748.7920,N,12217.8490,W,1.86,114.78,261111,,,A*7C
$GPVTG,114.78,T,,M,1.86,N,3.4,K,A*0E
$GPGGA,002748.000,3748.7916,N,12217.8483,W,1,06,1.7,41.6,M,-25.1,M,,0000*5E
$GPGSA,A,3,18,15,21,09,14,22,,,,,,,2.8,1.7,2.2*3C
$GPRMC,002748.000,A,3748.7916,N,12217.8483,W,2.27,118.51,261111,,,A*7B
$GPVTG,118.51,T,,M,2.27,N,4.2,K,A*00
$GPGGA,002749.000,3748.7913,N,12217.8474,W,1,06,1.7,42.5,M,-25.1,M,,0000*52
$GPGSA,A,3,18,15,21,09,14,22,,,,,,,2.8,1.7,2.2*3C
$GPRMC,002749.000,A,3748.7913,N,12217.8474,W,2.44,119.80,261111,,,A*7F
$GPVTG,119.80,T,,M,2.44,N,4.5,K,A*0F
$GPGGA,002750.000,3748.7909,N,12217.8468,W,1,06,1.7,42.7,M,-25.1,M,,0000*5E
$GPGSA,A,3,18,15,21,09,14,22,,,,,,,2.8,1.7,2.2*3C
$GPGSV,3,1,12,22,70,304,31,18,52,047,29,06,52,251,36,03,46,268,34*74
$GPGSV,3,2,12,21,46,107,32,14,43,184,40,19,30,309,23,09,17,081,23*71
$GPGSV,3,3,12,27,13,059,23,15,11,041,28,16,04,244,,48,44,197,40*7D
$GPRMC,002750.000,A,3748.7909,N,12217.8468,W,2.14,116.30,261111,,,A*70
$GPVTG,116.30,T,,M,2.14,N,4.0,K,A*0B
$GPGGA,002751.000,3748.7907,N,12217.8463,W,1,06,1.7,42.2,M,-25.1,M,,0000*5F
$GPGSA,A,3,18,15,21,09,14,22,,,,,,,2.8,1.7,2.2*3C
$GPRMC,002751.000,A,3748.7907,N,12217.8463,W,2.47,116.17,261111,,,A*77
$GPVTG,116.17,T,,M,2.47,N,4.6,K,A*0E
$GPGGA,002752.000,3748.7905,N,12217.8461,W,1,06,1.7,41.4,M,-25.1,M,,0000*59
$GPGSA,A,3,18,15,21,09,14,22,,,,,,,2.8,1.7,2.2*3C
$GPRMC,002752.000,A,3748.7905,N,12217.8461,W,1.70,121.76,261111,,,A*70
$GPVTG,121.76,T,,M,1.70,N,3.2,K,A*09
$GPGGA,002753.000,3748.7903,N,12217.8458,W,1,06,1.7,40.7,M,-25.1,M,,0000*56
$GPGSA,A,3,18,15,21,09,14,22,,,,,,,2.8,1.7,2.2*3C
$GPRMC,002753.000,A,3748.7903,N,12217.8458,W,1.71,122.78,261111,,,A*71
$GPVTG,122.78,T,,M,1.71,N,3.2,K,A*05
$GPGGA,002754.000,3748.7903,N,12217.8454,W,1,06,1.7,39.6,M,-25.1,M,,0000*52
$GPGSA,A,3,18,15,21,09,14,22,,,,,,,2.8,1.7,2.2*3C
$GPRMC,002754.000,A,3748.7903,N,12217.8454,W,0.92,104.28,261111,,,A*77
$GPVTG,104.28,T,,M,0.92,N,1.7,K,A*0F
$GPGGA,002755.000,3748.7904,N,12217.8453,W,1,06,1.7,38.6,M,-25.1,M,,0000*52
$GPGSA,A,3,18,15,21,09,14,22,,,,,,,2.8,1.7,2.2*3C
$GPGSV,3,1,12,22,70,304,27,18,52,047,27,06,52,251,35,03,46,268,35*7F
$GPGSV,3,2,12,21,46,107,32,14,43,184,40,19,30,309,29,09,17,081,23*7B
$GPGSV,3,3,12,27,13,059,23,15,11,041,24,16,04,244,,48,44,197,39*7F
$GPVTG,83.25,T,,M,0.53,N,1.0,K,A*36
$GPGGA,002756.000,3748.7904,N,12217.8452,W,1,06,1.7,37.8,M,-25.1,M,,0000*51
$GPGSA,A,3,18,15,21,09,14,22,,,,,,,2.8,1.7,2.2*3C
$GPRMC,002756.000,A,3748.7904,N,12217.8452,W,0.52,126.72,261111,,,A*77
$GPVTG,126.72,T,,M,0.52,N,1.0,K,A*0B
$GPGGA,002757.000,3748.7902,N,12217.8454,W,1,06,1.7,36.6,M,-25.1,M,,0000*5F
$GPGSA,A,3,18,15,21,09,14,22,,,,,,,2.8,1.7,2.2*3C
$GPRMC,002757.000,A,3748.7902,N,12217.8454,W,0.59,121.20,261111,,,A*7D
$GPVTG,121.20,T,,M,0.59,N,1.1,K,A*01
$GPGGA,002758.000,3748.7901,N,12217.8453,W,1,06,1.7,37.2,M,-25.1,M,,0000*51
$GPGSA,A,3,18,15,21,09,14,22,,,,,,,2.8,1.7,2.2*3C
$GPRMC,002758.000,A,3748.7901,N,12217.8453,W,0.51,124.24,261111,,,A*7F
$GPVTG,124.24,T,,M,0.51,N,0.9,K,A*01
$GPGGA,002759.000,3748.7901,N,12217.8451,W,1,06,1.7,36.5,M,-25.1,M,,0000*54
$GPGSA,A,3,18,15,21,09,14,22,,,,,,,2.8,1.7,2.2*3C
$GPRMC,002759.000,A,3748.7901,N,12217.8451,W,0.65,96.29,261111,,,A*4E
$GPVTG,96.29,T,,M,0.65,N,1.2,K,A*39
$GPGGA,002800.000,3748.7902,N,12217.8453,W,1,06,1.7,36.2,M,-25.1,M,,0000*51
$GPGSA,A,3,18,15,21,09,14,22,,,,,,,2.8,1.7,2.2*3C
$GPGSV,3,1,12,22,70,304,26,18,52,047,32,06,52,251,36,03,46,268,39*75
$GPGSV,3,2,12,21,46,107,32,14,43,184,39,19,30,309,30,09,17,081,28*76
$GPGSV,3,3,12,27,13,059,22,15,11,041,17,16,04,244,,48,44,197,41*71
$GPRMC,002800.000,A,3748.7902,N,12217.8453,W,0.47,128.33,261111,,,A*73
$GPVTG,128.33,T,,M,0.47,N,0.9,K,A*0C
$GPGGA,002801.000,3748.7901,N,12217.8450,W,1,06,1.7,35.1,M,-25.1,M,,0000*50
$GPGSA,A,3,18,15,21,09,14,22,,,,,,,2.8,1.7,2.2*3C
$GPRMC,002801.000,A,3748.7901,N,12217.8450,W,0.85,114.64,261111,,,A*71
$GPVTG,114.64,T,,M,0.85,N,1.6,K,A*01
$GPGGA,002802.000,3748.7899,N,12217.8444,W,1,06,1.7,34.1,M,-25.1,M,,0000*57
$GPGSA,A,3,18,15,21,09,14,22,,,,,,,2.8,1.7,2.2*3C
$GPRMC,002802.000,A,3748.7899,N,12217.8444,W,0.54,140.51,261111,,,A*7C
$GPVTG,140.51,T,,M,0.54,N,1.0,K,A*0C
$GPGGA,002803.000,3748.7899,N,12217.8447,W,1,06,1.7,32.8,M,-25.1,M,,0000*5A
$GPGSA,A,3,18,15,21,09,14,22,,,,,,,2.8,1.7,2.2*3C
$GPRMC,002803.000,A,3748.7899,N,12217.8447,W,0.41,252.80,261111,,,A*76
$GPVTG,252.80,T,,M,0.41,N,0.8,K,A*0D
$GPGGA,002804.000,3748.7899,N,12217.8452,W,1,06,1.7,30.8,M,-25.1,M,,0000*5B
$GPGSA,A,3,18,15,21,09,14,22,,,,,,,2.8,1.7,2.2*3C
$GPRMC,002804.000,A,3748.7899,N,12217.8452,W,0.21,280.57,261111,,,A*76
$GPVTG,280.57,T,,M,0.21,N,0.4,K,A*02
$GPGGA,002805.000,3748.7899,N,12217.8456,W,1,06,1.7,29.1,M,-25.1,M,,0000*5F
$GPGSA,A,3,18,15,21,09,14,22,,,,,,,2.8,1.7,2.2*3C
$GPGSV,3,1,12,22,70,304,33,18,52,047,22,06,52,251,37,03,46,268,39*71
$GPGSV,3,2,12,21,46,107,22,14,43,184,34,19,30,309,37,09,17,081,28*7D
$GPGSV,3,3,12,27,13,059,21,15,11,041,20,16,04,244,,48,44,197,39*79
$GPRMC,002805.000,A,3748.7899,N,12217.8456,W,0.52,276.54,261111,,,A*7D
$GPVTG,276.54,T,,M,0.52,N,1.0,K,A*09
$GPGGA,002806.000,3748.7901,N,12217.8460,W,1,06,1.7,28.6,M,-25.1,M,,0000*5F
$GPGSA,A,3,18,15,21,09,14,22,,,,,,,2.8,1.7,2.2*3C
$GPRMC,002806.000,A,3748.7901,N,12217.8460,W,0.31,245.42,261111,,,A*79
$GPVTG,245.42,T,,M,0.31,N,0.6,K,A*0C
$GPGGA,002807.000,3748.7900,N,12217.8454,W,2,06,1.7,29.7,M,-25.1,M,1.8,0000*7C
$GPGSA,A,3,18,15,21,09,14,22,,,,,,,2.8,1.7,2.2*3C
$GPRMC,002807.000,A,3748.7900,N,12217.8454,W,0.09,156.41,261111,,,D*72
$GPVTG,156.41,T,,M,0.09,N,0.2,K,D*04
$GPGGA,002808.000,3748.7901,N,12217.8454,W,2,06,1.7,28.9,M,-25.1,M,1.8,0000*7D
$GPGSA,A,3,18,15,21,09,14,22,,,,,,,2.8,1.7,2.2*3C
$GPRMC,002808.000,A,3748.7901,N,12217.8454,W,0.27,92.57,261111,,,D*4E
$GPVTG,92.57,T,,M,0.27,N,0.5,K,D*31
$GPGGA,002809.000,3748.7902,N,12217.8454,W,2,06,1.7,27.9,M,-25.1,M,1.8,0000*70
$GPGSA,A,3,18,15,21,09,14,22,,,,,,,2.8,1.7,2.2*3C
$GPRMC,002809.000,A,3748.7902,N,12217.8454,W,0.04,296.55,261111,,,D*79
$GPVTG,296.55,T,,M,0.04,N,0.1,K,D*00
$GPGGA,002810.000,3748.7900,N,12217.8451,W,2,06,1.7,29.5,M,-25.1,M,2.8,0000*7E
$GPGSA,A,3,18,15,21,09,14,22,,,,,,,2.8,1.7,2.2*3C
$GPGSV,3,1,12,22,70,304,25,18,52,047,32,06,52,251,37,03,46,268,39*77
$GPGSV,3,2,12,21,46,107,30,14,43,184,42,19,30,309,29,09,17,081,17*7C
$GPGSV,3,3,12,27,13,059,21,15,11,041,21,16,04,244,,48,44,197,43*75
$GPVTG,215.24,T,,M,0.20,N,0.4,K,D*0E
$GPGGA,002811.000,3748.7897,N,12217.8447,W,2,06,1.7,31.2,M,-25.1,M,3.8,0000*78
$GPGSA,A,3,18,15,21,09,14,22,,,,,,,2.8,1.7,2.2*3C
$GPRMC,002811.000,A,3748.7897,N,12217.8447,W,0.50,140.17,261111,,,D*70
$GPVTG,140.17,T,,M,0.50,N,0.9,K,D*07
$GPGGA,002812.000,3748.7896,N,12217.8444,W,2,06,1.7,30.7,M,-25.1,M,1.8,0000*7F
$GPGSA,A,3,18,15,21,09,14,22,,,,,,,2.8,1.7,2.2*3C
$GPRMC,002812.000,A,3748.7896,N,12217.8444,W,1.09,117.22,261111,,,D*78
$GPVTG,117.22,T,,M,1.09,N,2.0,K,D*05
$GPGGA,002813.000,3748.7893,N,12217.8438,W,2,06,1.7,31.1,M,-25.1,M,1.8,0000*77
$GPGSA,A,3,18,15,21,09,14,22,,,,,,,2.8,1.7,2.2*3C
$GPRMC,002813.000,A,3748.7893,N,12217.8438,W,1.57,123.85,261111,,,D*76
$GPVTG,123.85,T,,M,1.57,N,2.9,K,D*0D
$GPGGA,002814.000,3748.7889,N,12217.8430,W,2,06,1.7,30.8,M,-25.1,M,1.8,0000*7B
$GPGSA,A,3,18,15,21,09,14,22,,,,,,,2.8,1.7,2.2*3C
$GPRMC,002814.000,A,3748.7889,N,12217.8430,W,1.18,116.48,261111,,,D*7E
$GPVTG,116.48,T,,M,1.18,N,2.2,K,D*0A
$GPGGA,002815.000,3748.7885,N,12217.8423,W,2,06,1.7,30.9,M,-25.1,M,1.8,0000*75
$GPGSA,A,3,18,15,21,09,14,22,,,,,,,2.8,1.7,2.2*3C
$GPGSV,3,1,12,22,70,304,20,18,52,047,25,06,52,251,33,03,46,268,34*7D
$GPGSV,3,2,12,21,46,107,32,14,43,184,39,19,30,309,28,09,17,081,25*72
$GPGSV,3,3,12,27,13,059,20,15,11,041,21,16,04,244,,48,44,197,37*77
$GPRMC,002815.000,A,3748.7885,N,12217.8423,W,0.82,114.84,261111,,,D*71
$GPVTG,114.84,T,,M,0.82,N,1.5,K,D*0E
$GPGGA,002816.000,3748.7884,N,12217.8418,W,2,06,1.7,29.6,M,-25.1,M,2.8,0000*7B
$GPGSA,A,3,18,15,21,09,14,22,,,,,,,2.8,1.7,2.2*3C
$GPRMC,002816.000,A,3748.7884,N,12217.8418,W,0.89,108.43,261111,,,D*76
$GPVTG,108.43,T,,M,0.89,N,1.6,K,D*00
$GPGGA,002817.000,3748.7882,N,12217.8415,W,2,06,1.7,29.4,M,-25.1,M,3.8,0000*72
$GPGSA,A,3,18,15,21,09,14,22,,,,,,,2.8,1.7,2.2*3C
$GPRMC,002817.000,A,3748.7882,N,12217.8415,W,1.12,125.53,261111,,,D*71
$GPVTG,125.53,T,,M,1.12,N,2.1,K,D*09
$GPGGA,002818.000,3748.7876,N,12217.8405,W,2,06,1.7,31.8,M,-25.1,M,4.8,0000*75
$GPGSA,A,3,18,15,21,09,14,22,,,,,,,2.8,1.7,2.2*3C
$GPRMC,002818.000,A,3748.7876,N,12217.8405,W,1.61,128.82,261111,,,D*71
$GPVTG,128.82,T,,M,1.61,N,3.0,K,D*0C
$GPGGA,002819.000,3748.7873,N,12217.8398,W,2,06,1.7,31.6,M,-25.1,M,1.8,0000*79
$GPGSA,A,3,18,15,21,09,14,22,,,,,,,2.8,1.7,2.2*3C
$GPRMC,002819.000,A,3748.7873,N,12217.8398,W,2.08,118.62,261111,,,D*77
$GPVTG,118.62,T,,M,2.08,N,3.8,K,D*05
$GPGGA,002820.000,3748.7870,N,12217.8392,W,2,06,1.7,30.2,M,-25.1,M,2.8,0000*7C
$GPGSA,A,3,18,15,21,09,14,22,,,,,,,2.8,1.7,2.2*3C
$GPGSV,3,1,12,22,70,305,23,06,52,250,29,18,52,047,27,03,46,267,30*7C
$GPGSV,3,2,12,21,46,107,31,14,44,184,35,19,31,309,24,09,17,080,29*7A
$GPGSV,3,3,12,27,13,059,27,15,11,040,24,16,03,243,,48,44,197,39*7A
$GPRMC,002820.000,A,3748.7870,N,12217.8392,W,2.00,119.29,261111,,,D*72
$GPVTG,119.29,T,,M,2.00,N,3.7,K,D*0C
$GPGGA,002821.000,3748.7868,N,12217.8387,W,2,06,1.7,28.1,M,-25.1,M,1.8,0000*79
$GPGSA,A,3,18,15,21,09,14,22,,,,,,,2.8,1.7,2.2*3C
$GPRMC,002821.000,A,3748.7868,N,12217.8387,W,2.52,121.92,261111,,,D*72
$GPVTG,121.92,T,,M,2.52,N,4.7,K,D*07
$GPGGA,002822.000,3748.7866,N,12217.8382,W,2,06,1.7,26.7,M,-25.1,M,2.8,0000*7A
$GPGSA,A,3,18,15,21,09,14,22,,,,,,,2.8,1.7,2.2*3C
$GPRMC,002822.000,A,3748.7866,N,12217.8382,W,2.28,121.50,261111,,,D*79
$GPVTG,121.50,T,,M,2.28,N,4.2,K,D*01
$GPGGA,002823.000,3748.7864,N,12217.8378,W,2,06,1.7,25.5,M,-25.1,M,3.8,0000*7C
$GPGSA,A,3,18,15,21,09,14,22,,,,,,,2.8,1.7,2.2*3C
$GPRMC,002823.000,A,3748.7864,N,12217.8378,W,1.92,120.93,261111,,,D*73
$GPVTG,120.93,T,,M,1.92,N,3.6,K,D*0E
$GPGGA,002824.000,3748.7859,N,12217.8370,W,2,06,1.7,23.5,M,-25.1,M,4.8,0000*7C
$GPGSA,A,3,18,15,21,09,14,22,,,,,,,2.8,1.7,2.2*3C
$GPRMC,002824.000,A,3748.7859,N,12217.8370,W,1.86,123.57,261111,,,D*7C
$GPVTG,123.57,T,,M,1.86,N,3.4,K,D*02
$GPGGA,002825.000,3748.7856,N,12217.8362,W,2,06,1.7,22.7,M,-25.1,M,1.8,0000*77
$GPGSA,A,3,18,15,21,09,14,22,,,,,,,2.8,1.7,2.2*3C
$GPGSV,3,1,12,22,70,305,26,06,52,250,34,18,52,047,27,03,46,267,33*76
$GPGSV,3,2,12,21,46,107,32,14,44,184,38,19,31,309,30,09,17,080,28*70
$GPGSV,3,3,12,27,13,059,26,15,11,040,27,16,03,243,,48,44,197,41*77
$GPRMC,002825.000,A,3748.7856,N,12217.8362,W,1.84,128.07,261111,,,D*7D
$GPVTG,128.07,T,,M,1.84,N,3.4,K,D*0E
$GPGGA,002826.000,3748.7850,N,12217.8352,W,2,06,1.7,21.9,M,-25.1,M,1.8,0000*7C
$GPGSA,A,3,18,15,21,09,14,22,,,,,,,2.8,1.7,2.2*3C
$GPRMC,002826.000,A,3748.7850,N,12217.8352,W,1.61,126.11,261111,,,D*79
$GPVTG,126.11,T,,M,1.61,N,3.0,K,D*08
$GPGGA,002827.000,3748.7846,N,12217.8346,W,2,06,1.7,22.1,M,-25.1,M,1.8,0000*74
$GPGSA,A,3,18,15,21,09,14,22,,,,,,,2.8,1.7,2.2*3C
$GPRMC,002827.000,A,3748.7846,N,12217.8346,W,1.45,129.63,261111,,,D*76
$GPVTG,129.63,T,,M,1.45,N,2.7,K,D*02
$GPGGA,002828.000,3748.7845,N,12217.8348,W,2,07,1.4,21.0,M,-25.1,M,1.8,0000*76
$GPGSA,A,3,18,15,21,09,14,06,22,,,,,,2.5,1.4,2.1*37
$GPRMC,002828.000,A,3748.7845,N,12217.8348,W,1.22,127.17,261111,,,D*78
$GPVTG,127.17,T,,M,1.22,N,2.3,K,D*0A
$GPGGA,002829.000,3748.7844,N,12217.8347,W,2,07,1.4,20.0,M,-25.1,M,1.8,0000*78
$GPGSA,A,3,18,15,21,09,14,06,22,,,,,,2.5,1.4,2.1*37
$GPRMC,002829.000,A,3748.7844,N,12217.8347,W,1.25,123.25,261111,,,D*75
$GPVTG,123.25,T,,M,1.25,N,2.3,K,D*08
$GPGGA,002830.000,3748.7843,N,12217.8347,W,2,07,1.4,19.3,M,-25.1,M,2.8,0000*7D
$GPGSA,A,3,18,15,21,09,14,06,22,,,,,,2.5,1.4,2.1*37
$GPGSV,3,1,12,22,70,306,24,06,52,250,34,18,52,047,27,03,46,267,34*70
$GPGSV,3,2,12,21,46,107,32,14,44,184,38,19,31,309,29,09,17,080,26*76
$GPGSV,3,3,12,27,13,059,25,15,11,040,26,16,03,243,,48,44,197,36*75
$GPVTG,131.43,T,,M,0.84,N,1.6,K,D*07
$GPGGA,002831.000,3748.7838,N,12217.8335,W,2,07,1.4,19.6,M,-25.1,M,1.8,0000*73
$GPGSA,A,3,18,15,21,09,14,06,22,,,,,,2.5,1.4,2.1*37
$GPRMC,002831.000,A,3748.7838,N,12217.8335,W,1.27,139.04,261111,,,D*78
$GPVTG,139.04,T,,M,1.27,N,2.4,K,D*05
$GPGGA,002832.000,3748.7835,N,12217.8326,W,2,07,1.4,19.6,M,-25.1,M,1.8,0000*7F
$GPGSA,A,3,18,15,21,09,14,06,22,,,,,,2.5,1.4,2.1*37
$GPRMC,002832.000,A,3748.7835,N,12217.8326,W,1.36,125.74,261111,,,D*7E
$GPVTG,125.74,T,,M,1.36,N,2.5,K,D*0E
$GPGGA,002833.000,3748.7834,N,12217.8319,W,2,07,1.4,19.3,M,-25.1,M,1.8,0000*76
$GPGSA,A,3,18,15,21,09,14,06,22,,,,,,2.5,1.4,2.1*37
$GPRMC,002833.000,A,3748.7834,N,12217.8319,W,0.85,117.22,261111,,,D*79
$GPVTG,117.22,T,,M,0.85,N,1.6,K,D*05
$GPGGA,002834.000,3748.7832,N,12217.8314,W,2,07,1.4,18.6,M,-25.1,M,2.8,0000*7D
$GPGSA,A,3,18,15,21,09,14,06,22,,,,,,2.5,1.4,2.1*37
$GPRMC,002834.000,A,3748.7832,N,12217.8314,W,0.79,108.14,261111,,,D*7D
$GPVTG,108.14,T,,M,0.79,N,1.5,K,D*0E
$GPGGA,002835.000,3748.7830,N,12217.8311,W,2,07,1.4,17.4,M,-25.1,M,3.8,0000*77
$GPGSA,A,3,18,15,21,09,14,06,22,,,,,,2.5,1.4,2.1*37
$GPGSV,3,1,12,22,70,306,24,06,52,250,34,18,52,047,28,03,46,267,34*7F
$GPGSV,3,2,12,21,46,107,32,14,44,184,39,19,31,309,28,09,17,080,24*74
$GPGSV,3,3,12,27,13,059,22,15,11,040,27,16,03,243,,48,44,197,42*70
$GPRMC,002835.000,A,3748.7830,N,12217.8311,W,0.70,125.38,261111,,,D*73
$GPVTG,125.38,T,,M,0.70,N,1.3,K,D*00
$GPGGA,002836.000,3748.7827,N,12217.8309,W,2,07,1.4,17.2,M,-25.1,M,4.8,0000*7A
$GPGSA,A,3,18,15,21,09,14,06,22,,,,,,2.5,1.4,2.1*37
$GPRMC,002836.000,A,3748.7827,N,12217.8309,W,0.52,123.22,261111,,,D*72
$GPVTG,123.22,T,,M,0.52,N,1.0,K,D*0E
$GPGGA,002837.000,3748.7825,N,12217.8307,W,2,07,1.4,17.7,M,-25.1,M,1.8,0000*77
$GPGSA,A,3,18,15,21,09,14,06,22,,,,,,2.5,1.4,2.1*37
$GPRMC,002837.000,A,3748.7825,N,12217.8307,W,0.08,174.91,261111,,,D*7A
$GPVTG,174.91,T,,M,0.08,N,0.2,K,D*08
$GPGGA,002838.000,3748.7825,N,12217.8307,W,2,07,1.4,18.0,M,-25.1,M,1.8,0000*70
$GPGSA,A,3,18,15,21,09,14,06,22,,,,,,2.5,1.4,2.1*37
$GPRMC,002838.000,A,3748.7825,N,12217.8307,W,0.15,335.16,261111,,,D*71
$GPVTG,335.16,T,,M,0.15,N,0.3,K,D*0D
$GPGGA,002839.000,3748.7827,N,12217.8303,W,2,07,1.4,19.1,M,-25.1,M,1.8,0000*77
$GPGSA,A,3,18,15,21,09,14,06,22,,,,,,2.5,1.4,2.1*37
$GPRMC,002839.000,A,3748.7827,N,12217.8303,W,0.07,54.18,261111,,,D*4F
$GPVTG,54.18,T,,M,0.07,N,0.1,K,D*36
$GPGGA,002840.000,3748.7828,N,12217.8301,W,2,07,1.4,19.8,M,-25.1,M,2.8,0000*7E
$GPGSA,A,3,18,15,21,09,14,06,22,,,,,,2.5,1.4,2.1*37
$GPGSV,3,1,12,22,70,306,30,06,52,250,34,18,52,047,27,03,46,267,34*75
$GPGSV,3,2,12,21,46,107,36,14,44,184,44,19,31,309,31,09,17,080,25*73
$GPGSV,3,3,12,27,13,059,13,15,11,040,22,16,03,243,,48,44,197,43*76
$GPRMC,002840.000,A,3748.7828,N,12217.8301,W,0.13,91.41,261111,,,D*4C
$GPVTG,91.41,T,,M,0.13,N,0.2,K,D*35
$GPGGA,002841.000,3748.7828,N,12217.8301,W,2,07,1.4,20.2,M,-25.1,M,3.8,0000*7E
$GPGSA,A,3,18,15,21,09,14,06,22,,,,,,2.5,1.4,2.1*37
$GPRMC,002841.000,A,3748.7828,N,12217.8301,W,0.10,351.64,261111,,,D*76
$GPVTG,351.64,T,,M,0.10,N,0.2,K,D*0E
$GPGGA,002842.000,3748.7829,N,12217.8301,W,2,07,1.4,20.1,M,-25.1,M,4.8,0000*78
$GPGSA,A,3,18,15,21,09,14,06,22,,,,,,2.5,1.4,2.1*37
$GPRMC,002842.000,A,3748.7829,N,12217.8301,W,0.09,31.47,261111,,,D*48
$GPVTG,31.47,T,,M,0.09,N,0.2,K,D*32
$GPGGA,002843.000,3748.7829,N,12217.8302,W,2,07,1.4,19.7,M,-25.1,M,1.8,0000*73
$GPGSA,A,3,18,15,21,09,14,06,22,,,,,,2.5,1.4,2.1*37
$GPRMC,002843.000,A,3748.7829,N,12217.8302,W,0.09,57.40,261111,,,D*4D
$GPVTG,57.40,T,,M,0.09,N,0.2,K,D*35
$GPGGA,002844.000,3748.7829,N,12217.8303,W,2,07,1.4,19.5,M,-25.1,M,1.8,0000*77
$GPGSA,A,3,18,15,21,09,14,06,22,,,,,,2.5,1.4,2.1*37
$GPRMC,002844.000,A,3748.7829,N,12217.8303,W,0.06,65.74,261111,,,D*42
$GPVTG,65.74,T,,M,0.06,N,0.1,K,D*3F
$GPGGA,002845.000,3748.7830,N,12217.8304,W,2,07,1.4,19.3,M,-25.1,M,1.8,0000*7F
$GPGSA,A,3,18,15,21,09,14,06,22,,,,,,2.5,1.4,2.1*37
$GPGSV,3,1,12,22,70,306,30,06,52,250,34,18,52,047,28,03,46,267,35*7B
$GPGSV,3,2,12,21,46,107,36,14,44,184,43,19,31,309,32,09,17,080,27*75
$GPGSV,3,3,12,27,13,059,,15,11,040,29,16,03,243,,48,44,197,44*78
$GPRMC,002845.000,A,3748.7830,N,12217.8304,W,0.13,358.06,261111,,,D*70
$GPVTG,358.06,T,,M,0.13,N,0.2,K,D*00
$GPGGA,002846.000,3748.7830,N,12217.8306,W,2,07,1.4,19.3,M,-25.1,M,1.8,0000*7E
$GPGSA,A,3,18,15,21,09,14,06,22,,,,,,2.5,1.4,2.1*37
$GPRMC,002846.000,A,3748.7830,N,12217.8306,W,0.13,340.00,261111,,,D*7E
$GPVTG,340.00,T,,M,0.13,N,0.2,K,D*0F
$GPGGA,002847.000,3748.7831,N,12217.8306,W,2,07,1.4,19.5,M,-25.1,M,2.8,0000*7B
$GPGSA,A,3,18,15,21,09,14,06,22,,,,,,2.5,1.4,2.1*37
$GPRMC,002847.000,A,3748.7831,N,12217.8306,W,0.12,0.38,261111,,,D*73
$GPVTG,0.38,T,,M,0.12,N,0.2,K,D*02
$GPGGA,002848.000,3748.7832,N,12217.8307,W,2,07,1.4,19.8,M,-25.1,M,3.8,0000*7A
$GPGSA,A,3,18,15,21,09,14,06,22,,,,,,2.5,1.4,2.1*37
$GPRMC,002848.000,A,3748.7832,N,12217.8307,W,0.11,1.73,261111,,,D*73
$GPVTG,1.73,T,,M,0.11,N,0.2,K,D*0F
$GPGGA,002849.000,3748.7832,N,12217.8308,W,2,07,1.4,20.0,M,-25.1,M,1.8,0000*74
$GPGSA,A,3,18,15,21,09,14,06,22,,,,,,2.5,1.4,2.1*37
$GPRMC,002849.000,A,3748.7832,N,12217.8308,W,0.13,2.90,261111,,,D*71
$GPVTG,2.90,T,,M,0.13,N,0.2,K,D*03
$GPGGA,002850.000,3748.7833,N,12217.8310,W,2,07,1.4,20.1,M,-25.1,M,1.8,0000*75
$GPGSA,A,3,18,15,21,09,14,06,22,,,,,,2.5,1.4,2.1*37
$GPGSV,3,1,12,22,70,306,29,06,52,250,34,18,52,047,29,03,46,267,36*71
$GPGSV,3,2,12,21,45,107,36,14,44,184,43,19,31,309,32,09,17,080,27*76
$GPGSV,3,3,12,27,13,059,,15,11,040,28,16,03,243,,48,44,197,44*79
$GPRMC,002850.000,A,3748.7833,N,12217.8310,W,0.14,343.19,261111,,,D*71
$GPGGA,002851.000,3748.7833,N,12217.8311,W,2,07,1.4,20.2,M,-25.1,M,1.8,0000*76
$GPGSA,A,3,18,15,21,09,14,06,22,,,,,,2.5,1.4,2.1*37
$GPRMC,002851.000,A,3748.7833,N,12217.8311,W,0.06,38.35,261111,,,D*43
$GPVTG,38.35,T,,M,0.06,N,0.1,K,D*32
$GPGGA,002852.000,3748.7839,N,12217.8321,W,2,08,1.2,16.9,M,-25.1,M,1.8,0000*7B
$GPGSA,A,3,18,15,21,19,09,14,06,22,,,,,2.2,1.2,1.9*35
$GPRMC,002852.000,A,3748.7839,N,12217.8321,W,0.09,315.47,261111,,,D*7F
$GPVTG,315.47,T,,M,0.09,N,0.2,K,D*07
$GPGGA,002853.000,3748.7842,N,12217.8327,W,2,08,1.2,15.0,M,-25.1,M,2.8,0000*79
$GPGSA,A,3,18,15,21,19,09,14,06,22,,,,,2.2,1.2,1.9*35
$GPRMC,002853.000,A,3748.7842,N,12217.8327,W,0.08,320.68,261111,,,D*7E
$GPVTG,320.68,T,,M,0.08,N,0.1,K,D*0E
$GPGGA,002854.000,3748.7845,N,12217.8331,W,2,08,1.2,13.7,M,-25.1,M,3.8,0000*7E
$GPGSA,A,3,18,15,21,19,09,14,06,22,,,,,2.2,1.2,1.9*35
$GPRMC,002854.000,A,3748.7845,N,12217.8331,W,0.05,302.68,261111,,,D*74
$GPVTG,302.68,T,,M,0.05,N,0.1,K,D*03
$GPGGA,002855.000,3748.7847,N,12217.8334,W,2,08,1.2,12.6,M,-25.1,M,1.8,0000*7A
$GPGSA,A,3,18,15,21,19,09,14,06,22,,,,,2.2,1.2,1.9*35
$GPGSV,3,1,12,22,70,306,30,06,52,250,34,18,52,047,29,03,46,267,35*7A
$GPGSV,3,2,12,21,45,107,36,14,44,184,43,19,31,309,32,09,17,080,27*76
$GPGSV,3,3,12,27,13,059,,15,11,040,29,16,03,243,,48,44,197,45*79
$GPRMC,002855.000,A,3748.7847,N,12217.8334,W,0.08,313.70,261111,,,D*76
$GPVTG,313.70,T,,M,0.08,N,0.1,K,D*07
$GPGGA,002856.000,3748.7849,N,12217.8336,W,2,08,1.2,11.8,M,-25.1,M,1.8,0000*78
$GPGSA,A,3,18,15,21,19,09,14,06,22,,,,,2.2,1.2,1.9*35
$GPRMC,002856.000,A,3748.7849,N,12217.8336,W,0.01,359.73,261111,,,D*7D
$GPVTG,359.73,T,,M,0.01,N,0.0,K,D*02
$GPGGA,002857.000,3748.7850,N,12217.8338,W,2,08,1.2,11.0,M,-25.1,M,1.8,0000*77
$GPGSA,A,3,18,15,21,19,09,14,06,22,,,,,2.2,1.2,1.9*35
$GPRMC,002857.000,A,3748.7850,N,12217.8338,W,0.08,302.37,261111,,,D*7D
$GPVTG,302.37,T,,M,0.08,N,0.1,K,D*04
$GPGGA,002858.000,3748.7852,N,12217.8340,W,2,08,1.2,10.2,M,-25.1,M,1.8,0000*76
$GPGSA,A,3,18,15,21,19,09,14,06,22,,,,,2.2,1.2,1.9*35
$GPRMC,002858.000,A,3748.7852,N,12217.8340,W,0.07,315.06,261111,,,D*74
$GPVTG,315.06,T,,M,0.07,N,0.1,K,D*0F
$GPGGA,002859.000,3748.7853,N,12217.8341,W,2,08,1.2,9.5,M,-25.1,M,2.8,0000*4B
$GPGSA,A,3,18,15,21,19,09,14,06,22,,,,,2.2,1.2,1.9*35
$GPRMC,002859.000,A,3748.7853,N,12217.8341,W,0.07,325.37,261111,,,D*74
$GPVTG,325.37,T,,M,0.07,N,0.1,K,D*0E
$GPGGA,002900.000,3748.7854,N,12217.8343,W,2,07,1.2,9.1,M,-25.1,M,1.8,0000*4B
$GPGSA,A,3,18,15,21,19,14,06,22,,,,,,2.4,1.2,2.0*30
$GPGSV,3,1,12,22,70,306,31,06,52,250,34,18,52,047,30,03,46,267,38*7E
$GPGSV,3,2,12,21,45,107,29,14,44,184,40,19,31,309,39,09,17,080,23*74
$GPGSV,3,3,12,27,13,059,,15,11,040,28,16,03,243,,48,44,197,38*72
$GPRMC,002900.000,A,3748.7854,N,12217.8343,W,0.45,305.52,261111,,,D*7B
$GPVTG,305.52,T,,M,0.45,N,0.8,K,D*00
$GPGGA,002901.000,3748.7856,N,12217.8345,W,2,08,1.2,9.0,M,-25.1,M,1.8,0000*40
$GPGSA,A,3,18,15,21,19,09,14,06,22,,,,,2.2,1.2,1.9*35
$GPRMC,002901.000,A,3748.7856,N,12217.8345,W,0.50,110.98,261111,,,D*7A
$GPVTG,110.98,T,,M,0.50,N,0.9,K,D*05
$GPGGA,002902.000,3748.7855,N,12217.8344,W,2,08,1.2,7.8,M,-25.1,M,1.8,0000*47
$GPGSA,A,3,18,15,21,19,09,14,06,22,,,,,2.2,1.2,1.9*35
$GPRMC,002902.000,A,3748.7855,N,12217.8344,W,0.24,113.68,261111,,,D*74
$GPVTG,113.68,T,,M,0.24,N,0.4,K,D*07
$GPGGA,002903.000,3748.7856,N,12217.8343,W,2,08,1.2,7.4,M,-25.1,M,1.8,0000*4E
$GPGSA,A,3,18,15,21,19,09,14,06,22,,,,,2.2,1.2,1.9*35
$GPRMC,002903.000,A,3748.7856,N,12217.8343,W,0.72,78.00,261111,,,D*40
$GPVTG,78.00,T,,M,0.72,N,1.3,K,D*30
$GPGGA,002904.000,3748.7856,N,12217.8341,W,2,08,1.2,6.9,M,-25.1,M,2.8,0000*44
$GPGSA,A,3,18,15,21,19,09,14,06,22,,,,,2.2,1.2,1.9*35
$GPRMC,002904.000,A,3748.7856,N,12217.8341,W,0.43,94.30,261111,,,D*46
$GPVTG,94.30,T,,M,0.43,N,0.8,K,D*39
$GPGGA,002905.000,3748.7855,N,12217.8339,W,2,08,1.2,6.6,M,-25.1,M,3.8,0000*47
$GPGSA,A,3,18,15,21,19,09,14,06,22,,,,,2.2,1.2,1.9*35
$GPGSV,3,1,12,22,70,306,25,06,52,250,35,18,52,047,24,03,46,267,32*75
$GPGSV,3,2,12,21,45,107,33,14,44,184,35,19,31,309,30,09,17,080,21*76
$GPGSV,3,3,12,27,13,059,,15,11,040,23,16,03,243,,48,44,197,40*76
$GPRMC,002905.000,A,3748.7855,N,12217.8339,W,0.52,130.69,261111,,,D*78
$GPVTG,130.69,T,,M,0.52,N,1.0,K,D*03
$GPGGA,002906.000,3748.7854,N,12217.8337,W,2,08,1.2,6.2,M,-25.1,M,4.8,0000*48
$GPGSA,A,3,18,15,21,19,09,14,06,22,,,,,2.2,1.2,1.9*35
$GPRMC,002906.000,A,3748.7854,N,12217.8337,W,0.68,121.55,261111,,,D*72
$GPVTG,121.55,T,,M,0.68,N,1.3,K,D*06
$GPGGA,002907.000,3748.7852,N,12217.8333,W,2,08,1.2,5.7,M,-25.1,M,1.8,0000*48
$GPGSA,A,3,18,15,21,19,09,14,06,22,,,,,2.2,1.2,1.9*35
$GPRMC,002907.000,A,3748.7852,N,12217.8333,W,1.00,118.88,261111,,,D*74
$GPVTG,118.88,T,,M,1.00,N,1.9,K,D*09
$GPGGA,002908.000,3748.7852,N,12217.8328,W,2,08,1.2,5.6,M,-25.1,M,1.8,0000*4C
$GPGSA,A,3,18,15,21,19,09,14,06,22,,,,,2.2,1.2,1.9*35
$GPRMC,002908.000,A,3748.7852,N,12217.8328,W,1.37,114.91,261111,,,D*71
$GPVTG,114.91,T,,M,1.37,N,2.5,K,D*06
$GPGGA,002909.000,3748.7852,N,12217.8321,W,2,08,1.2,5.9,M,-25.1,M,1.8,0000*4B
$GPGSA,A,3,18,15,21,19,09,14,06,22,,,,,2.2,1.2,1.9*35
$GPRMC,002909.000,A,3748.7852,N,12217.8321,W,1.54,114.03,261111,,,D*77
$GPVTG,114.03,T,,M,1.54,N,2.8,K,D*05
$GPGGA,002910.000,3748.7851,N,12217.8316,W,2,08,1.2,6.2,M,-25.1,M,2.8,0000*4F
$GPGSA,A,3,18,15,21,19,09,14,06,22,,,,,2.2,1.2,1.9*35
$GPGSV,3,1,12,22,70,306,25,06,52,250,35,18,52,047,31,03,46,267,34*77
$GPGSV,3,2,12,21,45,107,28,14,44,184,39,19,31,309,29,09,17,080,22*7B
$GPGSV,3,3,12,27,13,059,,15,11,040,21,16,03,243,,48,44,197,34*77
$GPVTG,116.57,T,,M,1.43,N,2.7,K,D*0F
$GPGGA,002911.000,3748.7850,N,12217.8311,W,2,08,1.2,6.4,M,-25.1,M,3.8,0000*4F
$GPGSA,A,3,18,15,21,19,09,14,06,22,,,,,2.2,1.2,1.9*35
$GPRMC,002911.000,A,3748.7850,N,12217.8311,W,1.28,132.14,261111,,,D*76
$GPVTG,132.14,T,,M,1.28,N,2.4,K,D*00
$GPGGA,002912.000,3748.7849,N,12217.8307,W,2,08,1.2,7.1,M,-25.1,M,4.8,0000*40
$GPGSA,A,3,18,15,21,19,09,14,06,22,,,,,2.2,1.2,1.9*35
$GPRMC,002912.000,A,3748.7849,N,12217.8307,W,0.88,135.92,261111,,,D*78
$GPVTG,135.92,T,,M,0.88,N,1.6,K,D*03
$GPGGA,002913.000,3748.7847,N,12217.8304,W,2,08,1.2,7.2,M,-25.1,M,1.8,0000*4A
$GPGSA,A,3,18,15,21,19,09,14,06,22,,,,,2.2,1.2,1.9*35
$GPRMC,002913.000,A,3748.7847,N,12217.8304,W,1.48,119.05,261111,,,D*79
$GPVTG,119.05,T,,M,1.48,N,2.7,K,D*0C
$GPGGA,002914.000,3748.7843,N,12217.8297,W,2,08,1.2,7.9,M,-25.1,M,1.8,0000*49
$GPGSA,A,3,18,15,21,19,09,14,06,22,,,,,2.2,1.2,1.9*35
$GPRMC,002914.000,A,3748.7843,N,12217.8297,W,1.37,114.43,261111,,,D*76
$GPVTG,114.43,T,,M,1.37,N,2.5,K,D*09
$GPGGA,002915.000,3748.7841,N,12217.8291,W,2,08,1.2,8.6,M,-25.1,M,1.8,0000*4C
$GPGSA,A,3,18,15,21,19,09,14,06,22,,,,,2.2,1.2,1.9*35
$GPGSV,3,1,12,22,70,306,25,06,52,250,35,18,52,047,28,03,46,267,33*78
$GPGSV,3,2,12,21,45,107,34,14,44,184,38,19,31,309,29,09,17,080,22*77
$GPGSV,3,3,12,27,13,059,,15,11,040,21,16,03,243,,48,44,197,36*75
$GPRMC,002915.000,A,3748.7841,N,12217.8291,W,1.53,101.93,261111,,,D*78
$GPVTG,101.93,T,,M,1.53,N,2.8,K,D*0F
$GPGGA,002916.000,3748.7838,N,12217.8283,W,2,08,1.2,9.6,M,-25.1,M,2.8,0000*40
$GPGSA,A,3,18,15,21,19,09,14,06,22,,,,,2.2,1.2,1.9*35
$GPRMC,002916.000,A,3748.7838,N,12217.8283,W,1.21,106.82,261111,,,D*74
$GPVTG,106.82,T,,M,1.21,N,2.2,K,D*07
$GPGGA,002917.000,3748.7836,N,12217.8280,W,2,08,1.2,9.4,M,-25.1,M,3.8,0000*4F
$GPGSA,A,3,18,15,21,19,09,14,06,22,,,,,2.2,1.2,1.9*35
$GPRMC,002917.000,A,3748.7836,N,12217.8280,W,0.77,104.12,261111,,,D*71
$GPVTG,104.12,T,,M,0.77,N,1.4,K,D*0B
$GPGGA,002918.000,3748.7834,N,12217.8276,W,2,08,1.2,9.7,M,-25.1,M,4.8,0000*4F
$GPGSA,A,3,18,15,21,19,09,14,06,22,,,,,2.2,1.2,1.9*35
$GPRMC,002918.000,A,3748.7834,N,12217.8276,W,1.35,114.77,261111,,,D*70
$GPVTG,114.77,T,,M,1.35,N,2.5,K,D*0C
$GPGGA,002919.000,3748.7832,N,12217.8271,W,2,08,1.2,9.6,M,-25.1,M,5.8,0000*4F
$GPGSA,A,3,18,15,21,19,09,14,06,22,,,,,2.2,1.2,1.9*35
$GPRMC,002919.000,A,3748.7832,N,12217.8271,W,1.57,108.93,261111,,,D*73
$GPVTG,108.93,T,,M,1.57,N,2.9,K,D*03
$GPGGA,002920.000,3748.7829,N,12217.8269,W,2,08,1.2,8.7,M,-25.1,M,6.8,0000*45
$GPGSA,A,3,18,15,21,19,09,14,06,22,,,,,2.2,1.2,1.9*35
$GPGSV,3,1,12,22,70,306,25,06,52,250,29,18,52,047,28,03,46,267,29*7E
$GPGSV,3,2,12,21,45,107,32,14,44,184,31,19,31,309,28,09,17,080,22*79
$GPGSV,3,3,12,27,13,059,,15,11,040,24,16,03,243,,48,44,197,31*77
$GPRMC,002920.000,A,3748.7829,N,12217.8269,W,0.99,131.10,261111,,,D*78
$GPVTG,131.10,T,,M,0.99,N,1.8,K,D*03
$GPGGA,002921.000,3748.7827,N,12217.8268,W,2,08,1.2,8.4,M,-25.1,M,1.8,0000*4F
$GPGSA,A,3,18,15,21,19,09,14,06,22,,,,,2.2,1.2,1.9*35
$GPRMC,002921.000,A,3748.7827,N,12217.8268,W,0.82,161.39,261111,,,D*72
$GPVTG,161.39,T,,M,0.82,N,1.5,K,D*0A
$GPGGA,002922.000,3748.7824,N,12217.8268,W,2,08,1.2,8.1,M,-25.1,M,2.8,0000*49
$GPGSA,A,3,18,15,21,19,09,14,06,22,,,,,2.2,1.2,1.9*35
$GPRMC,002922.000,A,3748.7824,N,12217.8268,W,0.91,136.50,261111,,,D*7D
$GPVTG,136.50,T,,M,0.91,N,1.7,K,D*07
$GPGGA,002923.000,3748.7823,N,12217.8268,W,2,08,1.2,7.1,M,-25.1,M,1.8,0000*43
$GPGSA,A,3,18,15,21,19,09,14,06,22,,,,,2.2,1.2,1.9*35
$GPRMC,002923.000,A,3748.7823,N,12217.8268,W,0.50,122.45,261111,,,D*77
$GPVTG,122.45,T,,M,0.50,N,0.9,K,D*04
$GPGGA,002924.000,3748.7822,N,12217.8268,W,2,08,1.2,6.0,M,-25.1,M,2.8,0000*46
$GPGSA,A,3,18,15,21,19,09,14,06,22,,,,,2.2,1.2,1.9*35
$GPRMC,002924.000,A,3748.7822,N,12217.8268,W,0.41,135.20,261111,,,D*74
$GPVTG,135.20,T,,M,0.41,N,0.8,K,D*00
$GPGGA,002925.000,3748.7820,N,12217.8265,W,2,08,1.2,6.0,M,-25.1,M,1.8,0000*4B
$GPGSA,A,3,18,15,21,19,09,14,06,22,,,,,2.2,1.2,1.9*35
$GPGSV,3,1,12,22,70,306,25,06,52,250,34,18,52,047,32,03,46,267,29*79
$GPGSV,3,2,12,21,45,107,32,14,44,184,39,19,31,309,30,09,17,080,24*7E
$GPGSV,3,3,12,27,13,059,,15,11,040,21,16,03,243,,48,44,197,41*75
$GPRMC,002925.000,A,3748.7820,N,12217.8265,W,0.55,100.50,261111,,,D*7E
$GPVTG,100.50,T,,M,0.55,N,1.0,K,D*0D
$GPGGA,002926.000,3748.7819,N,12217.8263,W,2,08,1.2,5.9,M,-25.1,M,1.8,0000*4E
$GPGSA,A,3,18,15,21,19,09,14,06,22,,,,,2.2,1.2,1.9*35
$GPRMC,002926.000,A,3748.7819,N,12217.8263,W,0.38,72.53,261111,,,D*4D
$GPVTG,72.53,T,,M,0.38,N,0.7,K,D*37
$GPGGA,002927.000,3748.7818,N,12217.8262,W,2,08,1.2,5.8,M,-25.1,M,1.8,0000*4E
$GPGSA,A,3,18,15,21,19,09,14,06,22,,,,,2.2,1.2,1.9*35
$GPRMC,002927.000,A,3748.7818,N,12217.8262,W,0.40,327.01,261111,,,D*77
$GPVTG,327.01,T,,M,0.40,N,0.7,K,D*0C
$GPGGA,002928.000,3748.7816,N,12217.8263,W,2,08,1.2,4.5,M,-25.1,M,2.8,0000*41
$GPGSA,A,3,18,15,21,19,09,14,06,22,,,,,2.2,1.2,1.9*35
$GPRMC,002928.000,A,3748.7816,N,12217.8263,W,0.04,303.60,261111,,,D*76
$GPVTG,303.60,T,,M,0.04,N,0.1,K,D*0B
$GPGGA,002929.000,3748.7816,N,12217.8261,W,2,08,1.2,4.4,M,-25.1,M,1.8,0000*40
$GPGSA,A,3,18,15,21,19,09,14,06,22,,,,,2.2,1.2,1.9*35
$GPRMC,002929.000,A,3748.7816,N,12217.8261,W,0.03,23.83,261111,,,D*4E
$GPVTG,23.83,T,,M,0.03,N,0.1,K,D*30
$GPGGA,002930.000,3748.7814,N,12217.8262,W,2,08,1.2,3.4,M,-25.1,M,1.8,0000*4E
$GPGSA,A,3,18,15,21,19,09,14,06,22,,,,,2.2,1.2,1.9*35
$GPGSV,3,1,12,22,70,306,26,06,52,250,36,18,52,047,26,03,46,267,28*7C
$GPGSV,3,2,12,21,45,107,32,14,44,184,39,19,31,309,26,09,17,080,25*78
$GPGSV,3,3,12,27,13,059,,15,11,040,22,16,03,243,,48,44,197,37*77
$GPVTG,222.73,T,,M,0.13,N,0.2,K,D*0E
$GPGGA,002931.000,3748.7813,N,12217.8260,W,2,08,1.2,3.3,M,-25.1,M,1.8,0000*4D
$GPGSA,A,3,18,15,21,19,09,14,06,22,,,,,2.2,1.2,1.9*35
$GPRMC,002931.000,A,3748.7813,N,12217.8260,W,0.11,254.33,261111,,,D*79
$GPVTG,254.33,T,,M,0.11,N,0.2,K,D*09
$GPGGA,002932.000,3748.7812,N,12217.8258,W,2,08,1.2,2.7,M,-25.1,M,1.8,0000*41
$GPGSA,A,3,18,15,21,19,09,14,06,22,,,,,2.2,1.2,1.9*35
$GPRMC,002932.000,A,3748.7812,N,12217.8258,W,0.08,253.73,261111,,,D*7B
$GPVTG,253.73,T,,M,0.08,N,0.1,K,D*01
$GPGGA,002933.000,3748.7811,N,12217.8257,W,2,08,1.2,1.7,M,-25.1,M,1.8,0000*4F
$GPGSA,A,3,18,15,21,19,09,14,06,22,,,,,2.2,1.2,1.9*35
$GPRMC,002933.000,A,3748.7811,N,12217.8257,W,0.08,22.49,261111,,,D*4B
$GPVTG,22.49,T,,M,0.08,N,0.1,K,D*3C
$GPGGA,002934.000,3748.7811,N,12217.8257,W,2,08,1.2,0.1,M,-25.1,M,1.8,0000*4F
$GPGSA,A,3,18,15,21,19,09,14,06,22,,,,,2.2,1.2,1.9*35
$GPRMC,002934.000,A,3748.7811,N,12217.8257,W,0.16,265.71,261111,,,D*79
$GPVTG,265.71,T,,M,0.16,N,0.3,K,D*0B
$GPGGA,002935.000,3748.7811,N,12217.8258,W,2,08,1.2,-2.1,M,-25.1,M,2.8,0000*6D
$GPGSA,A,3,18,15,21,19,09,14,06,22,,,,,2.2,1.2,1.9*35
$GPGSV,3,1,12,22,70,306,26,06,52,250,36,18,52,047,28,03,46,267,22*78
$GPGSV,3,2,12,21,45,107,33,14,44,184,39,19,31,309,25,09,17,080,25*7A
$GPGSV,3,3,12,27,13,059,,15,11,040,23,16,03,243,,48,44,197,36*77
$GPRMC,002935.000,A,3748.7811,N,12217.8258,W,0.14,252.74,261111,,,D*74
$GPVTG,252.74,T,,M,0.14,N,0.3,K,D*08
$GPGGA,002936.000,3748.7811,N,12217.8259,W,2,08,1.2,-3.9,M,-25.1,M,3.8,0000*67
$GPGSA,A,3,18,15,21,19,09,14,06,22,,,,,2.2,1.2,1.9*35
$GPRMC,002936.000,A,3748.7811,N,12217.8259,W,0.22,230.61,261111,,,D*73
$GPVTG,230.61,T,,M,0.22,N,0.4,K,D*0A
$GPGGA,002937.000,3748.7810,N,12217.8259,W,2,08,1.2,-3.8,M,-25.1,M,1.8,0000*64
$GPGSA,A,3,18,15,21,19,09,14,06,22,,,,,2.2,1.2,1.9*35
$GPRMC,002937.000,A,3748.7810,N,12217.8259,W,0.09,238.38,261111,,,D*7E
$GPVTG,238.38,T,,M,0.09,N,0.2,K,D*01
$GPGGA,002938.000,3748.7808,N,12217.8260,W,2,08,1.2,-3.9,M,-25.1,M,1.8,0000*69
$GPGSA,A,3,18,15,21,19,09,14,06,22,,,,,2.2,1.2,1.9*35
$GPRMC,002938.000,A,3748.7808,N,12217.8260,W,0.10,282.93,261111,,,D*7A
$GPVTG,282.93,T,,M,0.10,N,0.2,K,D*09
$GPGGA,002939.000,3748.7804,N,12217.8261,W,2,08,1.2,-4.3,M,-25.1,M,1.8,0000*68
$GPGSA,A,3,18,15,21,19,09,14,06,22,,,,,2.2,1.2,1.9*35
$GPRMC,002939.000,A,3748.7804,N,12217.8261,W,0.04,279.57,261111,,,D*7F
$GPVTG,279.57,T,,M,0.04,N,0.1,K,D*03
$GPGGA,002940.000,3748.7802,N,12217.8262,W,2,08,1.2,-4.3,M,-25.1,M,1.8,0000*63
$GPGSA,A,3,18,15,21,19,09,14,06,22,,,,,2.2,1.2,1.9*35
$GPGSV,3,1,12,22,70,306,28,06,52,250,36,18,52,047,26,03,46,267,22*78
$GPGSV,3,2,12,21,45,107,34,14,44,184,39,19,31,309,24,09,17,080,26*7F
$GPGSV,3,3,12,27,13,059,,15,11,040,22,16,03,243,,48,44,197,39*79
$GPRMC,002940.000,A,3748.7802,N,12217.8262,W,0.18,216.88,261111,,,D*72
$GPVTG,216.88,T,,M,0.18,N,0.3,K,D*07
$GPGGA,002941.000,3748.7799,N,12217.8262,W,2,08,1.2,-4.2,M,-25.1,M,2.8,0000*6D
$GPGSA,A,3,18,15,21,19,09,14,06,22,,,,,2.2,1.2,1.9*35
$GPRMC,002941.000,A,3748.7799,N,12217.8262,W,0.20,221.71,261111,,,D*77
$GPVTG,221.71,T,,M,0.20,N,0.4,K,D*09
$GPGGA,002942.000,3748.7796,N,12217.8262,W,2,08,1.2,-4.4,M,-25.1,M,3.8,0000*66
$GPGSA,A,3,18,15,21,19,09,14,06,22,,,,,2.2,1.2,1.9*35
$GPRMC,002942.000,A,3748.7796,N,12217.8262,W,0.06,203.30,261111,,,D*7A
$GPVTG,203.30,T,,M,0.06,N,0.1,K,D*0D
$GPGGA,002943.000,3748.7796,N,12217.8259,W,2,08,1.2,-3.4,M,-25.1,M,1.8,0000*6A
$GPGSA,A,3,18,15,21,19,09,14,06,22,,,,,2.2,1.2,1.9*35
$GPRMC,002943.000,A,3748.7796,N,12217.8259,W,0.12,105.97,261111,,,D*7E
$GPVTG,105.97,T,,M,0.12,N,0.2,K,D*03
$GPGGA,002944.000,3748.7794,N,12217.8253,W,2,08,1.2,-3.6,M,-25.1,M,1.8,0000*67
$GPGSA,A,3,18,15,21,19,09,14,06,22,,,,,2.2,1.2,1.9*35
$GPRMC,002944.000,A,3748.7794,N,12217.8253,W,0.97,118.47,261111,,,D*7D
$GPVTG,118.47,T,,M,0.97,N,1.8,K,D*04
$GPGGA,002945.000,3748.7794,N,12217.8249,W,2,08,1.2,-2.2,M,-25.1,M,1.8,0000*68
$GPGSA,A,3,18,15,21,19,09,14,06,22,,,,,2.2,1.2,1.9*35
$GPGSV,3,1,12,22,70,306,28,06,52,250,36,18,52,047,32,03,46,267,32*7C
$GPGSV,3,2,12,21,45,107,26,14,44,184,38,19,31,309,25,09,17,080,20*7A
$GPGSV,3,3,12,27,13,059,,15,11,040,27,16,03,243,,48,44,197,39*7C
$GPRMC,002945.000,A,3748.7794,N,12217.8249,W,1.09,119.69,261111,,,D*7C
$GPVTG,119.69,T,,M,1.09,N,2.0,K,D*04
$GPGGA,002946.000,3748.7792,N,12217.8244,W,2,08,1.2,-1.7,M,-25.1,M,1.8,0000*66
$GPGSA,A,3,18,15,21,19,09,14,06,22,,,,,2.2,1.2,1.9*35
$GPRMC,002946.000,A,3748.7792,N,12217.8244,W,1.08,115.68,261111,,,D*78
$GPVTG,115.68,T,,M,1.08,N,2.0,K,D*08
$GPGGA,002947.000,3748.7789,N,12217.8240,W,2,08,1.2,-1.7,M,-25.1,M,2.8,0000*6A
$GPGSA,A,3,18,15,21,19,09,14,06,22,,,,,2.2,1.2,1.9*35
$GPRMC,002947.000,A,3748.7789,N,12217.8240,W,0.98,108.57,261111,,,D*7F
$GPVTG,108.57,T,,M,0.98,N,1.8,K,D*0B
$GPGGA,002948.000,3748.7789,N,12217.8235,W,2,08,1.2,-1.2,M,-25.1,M,3.8,0000*63
$GPGSA,A,3,18,15,21,19,09,14,06,22,,,,,2.2,1.2,1.9*35
$GPRMC,002948.000,A,3748.7789,N,12217.8235,W,1.07,116.75,261111,,,D*7A
$GPVTG,116.75,T,,M,1.07,N,2.0,K,D*08
$GPGGA,002949.000,3748.7788,N,12217.8231,W,2,08,1.2,-1.0,M,-25.1,M,1.8,0000*67
$GPGSA,A,3,18,15,21,19,09,14,06,22,,,,,2.2,1.2,1.9*35
$GPRMC,002949.000,A,3748.7788,N,12217.8231,W,0.78,106.52,261111,,,D*73
$GPVTG,106.52,T,,M,0.78,N,1.4,K,D*02
$GPGGA,002950.000,3748.7787,N,12217.8227,W,2,08,1.2,-1.4,M,-25.1,M,1.8,0000*63
$GPGSA,A,3,18,15,21,19,09,14,06,22,,,,,2.2,1.2,1.9*35
$GPGSV,3,1,12,22,70,306,27,06,52,250,36,18,52,047,29,03,46,267,33*78
$GPGSV,3,2,12,21,45,107,35,14,44,184,39,19,31,309,26,09,17,080,25*7F
$GPGSV,3,3,12,27,13,059,,15,11,040,26,16,03,243,,48,44,197,39*7D
$GPVTG,121.78,T,,M,0.77,N,1.4,K,D*00
$GPGGA,002951.000,3748.7787,N,12217.8224,W,2,08,1.2,-1.0,M,-25.1,M,1.8,0000*65
$GPGSA,A,3,18,15,21,19,09,14,06,22,,,,,2.2,1.2,1.9*35
$GPRMC,002951.000,A,3748.7787,N,12217.8224,W,0.48,142.64,261111,,,D*77
$GPVTG,142.64,T,,M,0.48,N,0.9,K,D*08
$GPGGA,002952.000,3748.7786,N,12217.8223,W,2,09,1.1,-1.1,M,-25.1,M,2.8,0000*60
$GPGSA,A,3,18,15,21,19,09,14,06,03,22,,,,2.2,1.1,1.9*35
$GPRMC,002952.000,A,3748.7786,N,12217.8223,W,0.14,96.00,261111,,,D*41
$GPVTG,96.00,T,,M,0.14,N,0.3,K,D*31
$GPGGA,002953.000,3748.7786,N,12217.8223,W,2,09,1.1,-1.2,M,-25.1,M,3.8,0000*63
$GPGSA,A,3,18,15,21,19,09,14,06,03,22,,,,2.2,1.1,1.9*35
$GPRMC,002953.000,A,3748.7786,N,12217.8223,W,0.47,106.44,261111,,,D*7E
$GPVTG,106.44,T,,M,0.47,N,0.9,K,D*05
$GPGGA,002954.000,3748.7786,N,12217.8221,W,2,09,1.1,-1.5,M,-25.1,M,4.8,0000*66
$GPGSA,A,3,18,15,21,19,09,14,06,03,22,,,,2.2,1.1,1.9*35
$GPRMC,002954.000,A,3748.7786,N,12217.8221,W,0.52,91.13,261111,,,D*42
$GPVTG,91.13,T,,M,0.52,N,1.0,K,D*34
$GPGGA,002955.000,3748.7788,N,12217.8216,W,2,09,1.1,-0.2,M,-25.1,M,1.8,0000*6E
$GPGSA,A,3,18,15,21,19,09,14,06,03,22,,,,2.2,1.1,1.9*35
$GPGSV,3,1,12,22,70,308,24,06,52,249,36,18,52,048,30,03,46,266,36*7E
$GPGSV,3,2,12,21,45,108,27,14,44,184,39,19,31,309,16,09,17,080,22*77
$GPGSV,3,3,12,27,13,058,,15,10,040,23,16,03,243,,48,44,197,39*78
$GPRMC,002955.000,A,3748.7788,N,12217.8216,W,0.71,110.99,261111,,,D*72
$GPVTG,110.99,T,,M,0.71,N,1.3,K,D*0C
$GPGGA,002956.000,3748.7787,N,12217.8212,W,2,09,1.1,0.1,M,-25.1,M,1.8,0000*48
$GPGSA,A,3,18,15,21,19,09,14,06,03,22,,,,2.2,1.1,1.9*35
$GPRMC,002956.000,A,3748.7787,N,12217.8212,W,1.44,112.02,261111,,,D*7D
$GPVTG,112.02,T,,M,1.44,N,2.7,K,D*0C
$GPGGA,002957.000,3748.7786,N,12217.8207,W,2,09,1.1,0.1,M,-25.1,M,1.8,0000*4C
$GPGSA,A,3,18,15,21,19,09,14,06,03,22,,,,2.2,1.1,1.9*35
$GPRMC,002957.000,A,3748.7786,N,12217.8207,W,1.36,102.93,261111,,,D*75
$GPVTG,102.93,T,,M,1.36,N,2.5,K,D*02
$GPGGA,002958.000,3748.7784,N,12217.8202,W,2,09,1.1,0.1,M,-25.1,M,2.8,0000*47
$GPGSA,A,3,18,15,21,19,09,14,06,03,22,,,,2.2,1.1,1.9*35
$GPRMC,002958.000,A,3748.7784,N,12217.8202,W,1.63,99.30,261111,,,D*47
$GPVTG,99.30,T,,M,1.63,N,3.0,K,D*3C
$GPGGA,002959.000,3748.7783,N,12217.8196,W,2,09,1.1,-0.0,M,-25.1,M,3.8,0000*62
$GPGSA,A,3,18,15,21,19,09,14,06,03,22,,,,2.2,1.1,1.9*35
$GPRMC,002959.000,A,3748.7783,N,12217.8196,W,1.39,106.09,261111,,,D*7D
$GPVTG,106.09,T,,M,1.39,N,2.6,K,D*09
$GPGGA,003000.000,3748.7782,N,12217.8192,W,2,09,1.1,-0.3,M,-25.1,M,4.8,0000*67
$GPGSA,A,3,18,15,21,19,09,14,06,03,22,,,,2.2,1.1,1.9*35
$GPGSV,3,1,12,22,70,308,27,06,52,249,33,18,52,048,29,03,46,266,33*75
$GPGSV,3,2,12,21,45,108,33,14,44,184,39,19,31,309,30,09,17,080,22*76
$GPGSV,3,3,12,27,13,058,,15,10,040,22,16,03,243,,48,44,197,39*79
$GPRMC,003000.000,A,3748.7782,N,12217.8192,W,1.18,114.40,261111,,,D*71
$GPVTG,114.40,T,,M,1.18,N,2.2,K,D*00
$GPGGA,003001.000,3748.7779,N,12217.8187,W,2,09,1.1,0.3,M,-25.1,M,1.8,0000*4E
$GPGSA,A,3,18,15,21,19,09,14,06,03,22,,,,2.2,1.1,1.9*35
$GPRMC,003001.000,A,3748.7779,N,12217.8187,W,1.55,130.67,261111,,,D*7A
$GPVTG,130.67,T,,M,1.55,N,2.9,K,D*01
$GPGGA,003002.000,3748.7777,N,12217.8183,W,2,09,1.1,0.6,M,-25.1,M,1.8,0000*42
$GPGSA,A,3,18,15,21,19,09,14,06,03,22,,,,2.2,1.1,1.9*35
$GPRMC,003002.000,A,3748.7777,N,12217.8183,W,1.69,124.09,261111,,,D*71
$GPVTG,124.09,T,,M,1.69,N,3.1,K,D*0A
$GPGGA,003003.000,3748.7774,N,12217.8178,W,2,09,1.1,1.0,M,-25.1,M,1.8,0000*43
$GPGSA,A,3,18,15,21,19,09,14,06,03,22,,,,2.2,1.1,1.9*35
$GPRMC,003003.000,A,3748.7774,N,12217.8178,W,1.52,120.01,261111,,,D*73
$GPVTG,120.01,T,,M,1.52,N,2.8,K,D*06
$GPGGA,003004.000,3748.7772,N,12217.8172,W,2,09,1.1,0.9,M,-25.1,M,2.8,0000*43
$GPGSA,A,3,18,15,21,19,09,14,06,03,22,,,,2.2,1.1,1.9*35
$GPRMC,003004.000,A,3748.7772,N,12217.8172,W,1.90,113.06,261111,,,D*71
$GPVTG,113.06,T,,M,1.90,N,3.5,K,D*03
$GPGGA,003005.000,3748.7770,N,12217.8165,W,2,09,1.1,1.0,M,-25.1,M,3.8,0000*4F
$GPGSA,A,3,18,15,21,19,09,14,06,03,22,,,,2.2,1.1,1.9*35
$GPGSV,3,1,12,22,70,308,26,06,52,249,34,18,52,048,28,03,46,266,35*74
$GPGSV,3,2,12,21,45,108,33,14,44,184,39,19,31,309,30,09,17,080,22*76
$GPGSV,3,3,12,27,13,058,,15,10,040,21,16,03,243,,48,44,197,40*74
$GPRMC,003005.000,A,3748.7770,N,12217.8165,W,1.97,103.91,261111,,,D*7C
$GPVTG,103.91,T,,M,1.97,N,3.6,K,D*08
$GPGGA,003006.000,3748.7768,N,12217.8159,W,2,09,1.1,1.0,M,-25.1,M,4.8,0000*4D
$GPGSA,A,3,18,15,21,19,09,14,06,03,22,,,,2.2,1.1,1.9*35
$GPRMC,003006.000,A,3748.7768,N,12217.8159,W,1.87,117.39,261111,,,D*7F
$GPVTG,117.39,T,,M,1.87,N,3.5,K,D*0D
$GPGGA,003007.000,3748.7766,N,12217.8152,W,2,09,1.1,1.1,M,-25.1,M,1.8,0000*4D
$GPGSA,A,3,18,15,21,19,09,14,06,03,22,,,,2.2,1.1,1.9*35
$GPRMC,003007.000,A,3748.7766,N,12217.8152,W,1.83,115.31,261111,,,D*75
$GPVTG,115.31,T,,M,1.83,N,3.4,K,D*02
$GPGGA,003008.000,3748.7763,N,12217.8146,W,2,09,1.1,0.9,M,-25.1,M,1.8,0000*4B
$GPGSA,A,3,18,15,21,19,09,14,06,03,22,,,,2.2,1.1,1.9*35
$GPRMC,003008.000,A,3748.7763,N,12217.8146,W,1.68,115.88,261111,,,D*7D
$GPVTG,115.88,T,,M,1.68,N,3.1,K,D*00
$GPGGA,003009.000,3748.7761,N,12217.8140,W,2,09,1.1,0.9,M,-25.1,M,1.8,0000*4E
$GPGSA,A,3,18,15,21,19,09,14,06,03,22,,,,2.2,1.1,1.9*35
$GPRMC,003009.000,A,3748.7761,N,12217.8140,W,1.88,116.33,261111,,,D*75
$GPVTG,116.33,T,,M,1.88,N,3.5,K,D*09
$GPGGA,003010.000,3748.7758,N,12217.8135,W,2,09,1.1,0.7,M,-25.1,M,1.8,0000*40
$GPGSA,A,3,18,15,21,19,09,14,06,03,22,,,,2.2,1.1,1.9*35
$GPGSV,3,1,12,22,70,308,26,06,52,249,34,18,52,048,29,03,46,266,34*74
$GPGSV,3,2,12,21,45,108,32,14,44,184,40,19,31,309,27,09,17,080,26*7B
$GPGSV,3,3,12,27,13,058,,15,10,040,22,16,03,243,,48,44,197,42*75
$GPVTG,127.39,T,,M,1.68,N,3.1,K,D*0B
$GPGGA,003011.000,3748.7755,N,12217.8129,W,2,09,1.1,0.9,M,-25.1,M,2.8,0000*4C
$GPGSA,A,3,18,15,21,19,09,14,06,03,22,,,,2.2,1.1,1.9*35
$GPRMC,003011.000,A,3748.7755,N,12217.8129,W,2.06,120.96,261111,,,D*7B
$GPVTG,120.96,T,,M,2.06,N,3.8,K,D*0B
$GPGGA,003012.000,3748.7752,N,12217.8124,W,2,09,1.1,0.7,M,-25.1,M,3.8,0000*4A
$GPGSA,A,3,18,15,21,19,09,14,06,03,22,,,,2.2,1.1,1.9*35
$GPRMC,003012.000,A,3748.7752,N,12217.8124,W,1.65,111.98,261111,,,D*78
$GPVTG,111.98,T,,M,1.65,N,3.0,K,D*09
$GPGGA,003013.000,3748.7750,N,12217.8119,W,2,09,1.1,0.4,M,-25.1,M,1.8,0000*46
$GPGSA,A,3,18,15,21,19,09,14,06,03,22,,,,2.2,1.1,1.9*35
$GPRMC,003013.000,A,3748.7750,N,12217.8119,W,0.56,139.43,261111,,,D*78
$GPVTG,139.43,T,,M,0.56,N,1.0,K,D*06
$GPGGA,003014.000,3748.7749,N,12217.8117,W,2,09,1.1,0.2,M,-25.1,M,1.8,0000*41
$GPGSA,A,3,18,15,21,19,09,14,06,03,22,,,,2.2,1.1,1.9*35
$GPRMC,003014.000,A,3748.7749,N,12217.8117,W,0.84,105.18,261111,,,D*77
$GPVTG,105.18,T,,M,0.84,N,1.6,K,D*0E
$GPGGA,003015.000,3748.7747,N,12217.8113,W,2,09,1.1,-0.2,M,-25.1,M,1.8,0000*67
$GPGSA,A,3,18,15,21,19,09,14,06,03,22,,,,2.2,1.1,1.9*35
$GPGSV,3,1,12,22,70,308,25,06,52,249,34,18,52,048,29,03,46,266,35*76
$GPGSV,3,2,12,21,45,108,32,14,44,184,40,19,31,309,27,09,17,080,26*7B
$GPGSV,3,3,12,27,13,058,,15,10,040,23,16,03,243,,48,44,197,42*74
$GPRMC,003015.000,A,3748.7747,N,12217.8113,W,1.41,109.74,261111,,,D*72
$GPVTG,109.74,T,,M,1.41,N,2.6,K,D*03
$GPGGA,003016.000,3748.7745,N,12217.8108,W,2,09,1.1,-0.5,M,-25.1,M,2.8,0000*68
$GPGSA,A,3,18,15,21,19,09,14,06,03,22,,,,2.2,1.1,1.9*35
$GPRMC,003016.000,A,3748.7745,N,12217.8108,W,1.51,114.69,261111,,,D*78
$GPVTG,114.69,T,,M,1.51,N,2.8,K,D*0C
$GPGGA,003017.000,3748.7743,N,12217.8103,W,2,09,1.1,-0.5,M,-25.1,M,3.8,0000*65
$GPGSA,A,3,18,15,21,19,09,14,06,03,22,,,,2.2,1.1,1.9*35
$GPRMC,003017.000,A,3748.7743,N,12217.8103,W,1.52,122.31,261111,,,D*7F
$GPVTG,122.31,T,,M,1.52,N,2.8,K,D*07
$GPGGA,003018.000,3748.7737,N,12217.8100,W,2,09,1.1,2.1,M,-25.1,M,1.8,0000*43
$GPGSA,A,3,18,15,21,19,09,14,06,03,22,,,,2.2,1.1,1.9*35
$GPRMC,003018.000,A,3748.7737,N,12217.8100,W,1.66,123.57,261111,,,D*76
$GPVTG,123.57,T,,M,1.66,N,3.1,K,D*09
$GPGGA,003019.000,3748.7734,N,12217.8095,W,2,09,1.1,2.0,M,-25.1,M,1.8,0000*4D
$GPGSA,A,3,18,15,21,19,09,14,06,03,22,,,,2.2,1.1,1.9*35
$GPRMC,003019.000,A,3748.7734,N,12217.8095,W,1.57,120.29,261111,,,D*71
$GPVTG,120.29,T,,M,1.57,N,2.9,K,D*08
$GPGGA,003020.000,3748.7732,N,12217.8090,W,2,09,1.1,2.3,M,-25.1,M,1.8,0000*47
$GPGSA,A,3,18,15,21,19,09,14,06,03,22,,,,2.2,1.1,1.9*35
$GPGSV,3,1,12,22,70,308,26,06,52,249,35,18,51,048,29,03,46,266,35*77
$GPGSV,3,2,12,21,45,108,31,14,45,184,40,19,31,309,28,09,17,079,22*74
$GPGSV,3,3,12,27,13,058,,15,10,040,28,16,03,243,,48,44,197,41*7C
$GPRMC,003020.000,A,3748.7732,N,12217.8090,W,1.59,133.93,261111,,,D*75
$GPVTG,133.93,T,,M,1.59,N,2.9,K,D*05
$GPGGA,003021.000,3748.7729,N,12217.8085,W,2,09,1.1,2.9,M,-25.1,M,1.8,0000*42
$GPGSA,A,3,18,15,21,19,09,14,06,03,22,,,,2.2,1.1,1.9*35
$GPRMC,003021.000,A,3748.7729,N,12217.8085,W,1.64,128.98,261111,,,D*75
$GPVTG,128.98,T,,M,1.64,N,3.0,K,D*02
$GPGGA,003022.000,3748.7726,N,12217.8079,W,2,09,1.1,3.3,M,-25.1,M,1.8,0000*46
$GPGSA,A,3,18,15,21,19,09,14,06,03,22,,,,2.2,1.1,1.9*35
$GPRMC,003022.000,A,3748.7726,N,12217.8079,W,1.48,121.82,261111,,,D*76
$GPVTG,121.82,T,,M,1.48,N,2.7,K,D*08
$GPGGA,003023.000,3748.7723,N,12217.8073,W,2,09,1.1,3.6,M,-25.1,M,2.8,0000*4E
$GPGSA,A,3,18,15,21,19,09,14,06,03,22,,,,2.2,1.1,1.9*35
$GPRMC,003023.000,A,3748.7723,N,12217.8073,W,1.88,127.23,261111,,,D*79
$GPVTG,127.23,T,,M,1.88,N,3.5,K,D*0A
$GPGGA,003024.000,3748.7720,N,12217.8066,W,2,09,1.1,3.9,M,-25.1,M,3.8,0000*40
$GPGSA,A,3,18,15,21,19,09,14,06,03,22,,,,2.2,1.1,1.9*35
$GPRMC,003024.000,A,3748.7720,N,12217.8066,W,1.76,121.18,261111,,,D*76
$GPVTG,121.18,T,,M,1.76,N,3.3,K,D*03
$GPGGA,003025.000,3748.7716,N,12217.8062,W,2,09,1.1,3.0,M,-25.1,M,1.8,0000*4B
$GPGSA,A,3,18,15,21,19,09,14,06,03,22,,,,2.2,1.1,1.9*35
$GPGSV,3,1,12,22,70,308,26,06,52,249,35,18,51,048,27,03,46,266,35*79
$GPGSV,3,2,12,21,45,108,24,14,45,184,41,19,31,309,29,09,17,079,21*73
$GPGSV,3,3,12,27,13,058,,15,10,040,23,16,03,243,,48,44,197,41*77
$GPRMC,003025.000,A,3748.7716,N,12217.8062,W,2.08,122.99,261111,,,D*76
$GPVTG,122.99,T,,M,2.08,N,3.9,K,D*09
$GPGGA,003026.000,3748.7710,N,12217.8057,W,2,09,1.1,3.4,M,-25.1,M,1.8,0000*4C
$GPGSA,A,3,18,15,21,19,09,14,06,03,22,,,,2.2,1.1,1.9*35
$GPRMC,003026.000,A,3748.7710,N,12217.8057,W,2.02,120.64,261111,,,D*7F
$GPVTG,120.64,T,,M,2.02,N,3.7,K,D*0D
$GPGGA,003027.000,3748.7706,N,12217.8048,W,2,09,1.1,3.7,M,-25.1,M,1.8,0000*47
$GPGSA,A,3,18,15,21,19,09,14,06,03,22,,,,2.2,1.1,1.9*35
$GPRMC,003027.000,A,3748.7706,N,12217.8048,W,2.04,124.71,261111,,,D*71
$GPVTG,124.71,T,,M,2.04,N,3.8,K,D*04
$GPGGA,003028.000,3748.7702,N,12217.8041,W,2,09,1.1,4.7,M,-25.1,M,2.8,0000*41
$GPGSA,A,3,18,15,21,19,09,14,06,03,22,,,,2.2,1.1,1.9*35
$GPRMC,003028.000,A,3748.7702,N,12217.8041,W,1.92,123.04,261111,,,D*7A
$GPVTG,123.04,T,,M,1.92,N,3.6,K,D*03
$GPGGA,003029.000,3748.7700,N,12217.8034,W,2,09,1.1,5.5,M,-25.1,M,1.8,0000*40
$GPGSA,A,3,18,15,21,19,09,14,06,03,22,,,,2.2,1.1,1.9*35
$GPRMC,003029.000,A,3748.7700,N,12217.8034,W,1.35,125.84,261111,,,D*78
$GPVTG,125.84,T,,M,1.35,N,2.5,K,D*02
$GPGGA,003030.000,3748.7695,N,12217.8030,W,2,09,1.1,5.1,M,-25.1,M,2.8,0000*46
$GPGSA,A,3,18,15,21,19,09,14,06,03,22,,,,2.2,1.1,1.9*35
$GPGSV,3,1,12,22,70,308,25,06,52,249,35,18,51,048,28,03,46,266,35*75
$GPGSV,3,2,12,21,45,108,28,14,45,184,41,19,31,309,29,09,17,079,29*77
$GPGSV,3,3,12,27,13,058,,15,10,040,23,16,03,243,19,48,44,197,41*7F
$GPRMC,003030.000,A,3748.7695,N,12217.8030,W,1.30,117.27,261111,,,D*74
$GPVTG,117.27,T,,M,1.30,N,2.4,K,D*0E
$GPGGA,003031.000,3748.7692,N,12217.8026,W,2,09,1.1,5.7,M,-25.1,M,1.8,0000*42
