$ADVER,3080,2.3
$GPRMC,183403.991,A,3748.7261,N,12217.9300,W,1.47,146.51,140611,,,A*71
$GPGGA,183404.991,3748.7258,N,12217.9300,W,1,04,3.0,23.5,M,-25.1,M,,0000*50
$GPGSA,A,3,13,10,07,20,,,,,,,,,4.7,3.0,3.6*31
$GPRMC,183404.991,A,3748.7258,N,12217.9300,W,1.39,146.40,140611,,,A*75
$GPVTG,146.40,T,,M,1.39,N,2.6,K,A*05
$GPGGA,183405.991,3748.7257,N,12217.9288,W,1,04,3.0,19.4,M,-25.1,M,,0000*57
$GPGSA,A,3,13,10,07,20,,,,,,,,,4.7,3.0,3.6*31
$GPRMC,183405.991,A,3748.7257,N,12217.9288,W,1.20,147.79,140611,,,A*79
$GPVTG,147.79,T,,M,1.20,N,2.2,K,A*02
$GPGGA,183407.000,3748.7256,N,12217.9275,W,1,04,3.0,14.6,M,-25.1,M,,0000*58
$GPGSA,A,3,13,10,07,20,,,,,,,,,4.7,3.0,3.6*31
$GPRMC,183407.000,A,3748.7256,N,12217.9275,W,1.55,155.96,140611,,,A*79
$GPVTG,155.96,T,,M,1.55,N,2.9,K,A*09
$GPGGA,183408.000,3748.7251,N,12217.9286,W,1,04,3.0,16.7,M,-25.1,M,,0000*5F
$GPGSA,A,3,13,10,07,20,,,,,,,,,4.7,3.0,3.6*31
$GPGSV,3,1,12,20,56,183,35,13,49,314,32,07,27,244,40,10,14,317,19*70
$GPGSV,3,2,12,23,70,016,25,16,50,088,23,32,36,156,25,04,14,288,22*7C
$GPGSV,3,3,12,03,05,124,20,06,04,109,16,08,03,236,16,31,02,054,*7E
$GPRMC,183408.000,A,3748.7251,N,12217.9286,W,1.15,147.13,140611,,,A*77
$GPVTG,147.13,T,,M,1.15,N,2.1,K,A*0B
$GPGGA,183409.000,3748.7242,N,12217.9309,W,1,04,3.0,22.5,M,-25.1,M,,0000*5F
$GPGSA,A,3,13,10,07,20,,,,,,,,,4.7,3.0,3.6*31
$GPRMC,183409.000,A,3748.7242,N,12217.9309,W,1.65,160.36,140611,,,A*77
$GPVTG,160.36,T,,M,1.65,N,3.1,K,A*0F
$GPGGA,183410.000,3748.7236,N,12217.9319,W,1,04,3.0,24.2,M,-25.1,M,,0000*54
$GPGSA,A,3,13,10,07,20,,,,,,,,,4.7,3.0,3.6*31
$GPRMC,183410.000,A,3748.7236,N,12217.9319,W,0.95,162.56,140611,,,A*77
$GPVTG,162.56,T,,M,0.95,N,1.8,K,A*0E
$GPGGA,183411.000,3748.7235,N,12217.9313,W,1,04,3.0,21.3,M,-25.1,M,,0000*58
$GPGSA,A,3,13,10,07,20,,,,,,,,,4.7,3.0,3.6*31
$GPRMC,183411.000,A,3748.7235,N,12217.9313,W,0.94,166.29,140611,,,A*72
$GPVTG,166.29,T,,M,0.94,N,1.7,K,A*0C
$GPGGA,183412.000,3748.7233,N,12217.9310,W,1,04,3.0,19.1,M,-25.1,M,,0000*57
$GPGSA,A,3,13,10,07,20,,,,,,,,,4.7,3.0,3.6*31
$GPRMC,183412.000,A,3748.7233,N,12217.9310,W,0.89,155.82,140611,,,A*79
$GPVTG,155.82,T,,M,0.89,N,1.7,K,A*01
$GPGGA,183413.000,3748.7229,N,12217.9310,W,1,04,3.0,17.8,M,-25.1,M,,0000*5A
$GPGSA,A,3,13,10,07,20,,,,,,,,,4.7,3.0,3.6*31
$GPGSV,3,1,12,20,56,183,34,13,49,314,33,07,27,244,39,10,14,317,18*7F
$GPGSV,3,2,12,23,70,016,24,16,50,088,24,32,36,156,23,04,14,288,21*7F
$GPGSV,3,3,12,03,05,124,20,06,04,109,15,08,03,236,17,31,02,054,*7C
$GPRMC,183413.000,A,3748.7229,N,12217.9310,W,0.86,137.26,140611,,,A*76
$GPVTG,137.26,T,,M,0.86,N,1.6,K,A*05
$GPGGA,183414.000,3748.7227,N,12217.9303,W,1,04,3.0,14.8,M,-25.1,M,,0000*52
$GPGSA,A,3,13,10,07,20,,,,,,,,,4.7,3.0,3.6*31
$GPRMC,183414.000,A,3748.7227,N,12217.9303,W,1.62,153.59,140611,,,A*7C
$GPVTG,153.59,T,,M,1.62,N,3.0,K,A*00
$GPGGA,183415.000,3748.7220,N,12217.9297,W,1,04,3.0,12.0,M,-25.1,M,,0000*56
$GPGSA,A,3,13,10,07,20,,,,,,,,,4.7,3.0,3.6*31
$GPRMC,183415.000,A,3748.7220,N,12217.9297,W,1.76,140.74,140611,,,A*7E
$GPVTG,140.74,T,,M,1.76,N,3.3,K,A*0B
$GPGGA,183416.000,3748.7213,N,12217.9281,W,1,04,3.0,6.6,M,-25.1,M,,0000*61
$GPGSA,A,3,13,10,07,20,,,,,,,,,4.7,3.0,3.6*31
$GPRMC,183416.000,A,3748.7213,N,12217.9281,W,1.56,122.44,140611,,,A*7F
$GPVTG,122.44,T,,M,1.56,N,2.9,K,A*05
$GPGGA,183417.000,3748.7205,N,12217.9274,W,1,04,3.0,3.7,M,-25.1,M,,0000*69
$GPGSA,A,3,13,10,07,20,,,,,,,,,4.7,3.0,3.6*31
$GPRMC,183417.000,A,3748.7205,N,12217.9274,W,2.04,126.25,140611,,,A*74
$GPVTG,126.25,T,,M,2.04,N,3.8,K,A*02
$GPGGA,183418.000,3748.7203,N,12217.9277,W,1,03,2.4,3.7,M,-25.1,M,,0000*61
$GPGSA,A,2,13,07,20,,,,,,,,,,2.6,2.4,1.0*37
$GPGSV,3,1,12,23,70,016,26,20,56,183,34,16,50,087,24,13,49,314,28*79
$GPGSV,3,2,12,32,36,156,35,07,27,244,39,04,14,287,22,10,14,317,18*75
$GPGSV,3,3,12,03,05,124,20,06,04,109,,08,03,236,16,31,02,054,*79
$GPVTG,146.68,T,,M,1.73,N,3.2,K,A*04
$GPGGA,183419.000,3748.7200,N,12217.9280,W,1,03,2.4,3.6,M,-25.1,M,,0000*6A
$GPGSA,A,2,13,07,20,,,,,,,,,,2.6,2.4,1.0*37
$GPRMC,183419.000,A,3748.7200,N,12217.9280,W,1.61,155.40,140611,,,A*73
$GPVTG,155.40,T,,M,1.61,N,3.0,K,A*0D
$GPGGA,183420.000,3748.7196,N,12217.9286,W,1,04,3.0,4.0,M,-25.1,M,,0000*69
$GPGSA,A,3,13,10,07,20,,,,,,,,,4.7,3.0,3.6*31
$GPRMC,183420.000,A,3748.7196,N,12217.9286,W,1.75,167.26,140611,,,A*77
$GPVTG,167.26,T,,M,1.75,N,3.2,K,A*0B
$GPGGA,183421.000,3748.7193,N,12217.9290,W,1,04,3.0,3.8,M,-25.1,M,,0000*65
$GPGSA,A,3,13,10,07,20,,,,,,,,,4.7,3.0,3.6*31
$GPRMC,183421.000,A,3748.7193,N,12217.9290,W,1.75,177.84,140611,,,A*7D
$GPVTG,177.84,T,,M,1.75,N,3.2,K,A*02
$GPGGA,183422.000,3748.7188,N,12217.9295,W,1,04,3.0,4.1,M,-25.1,M,,0000*67
$GPGSA,A,3,13,10,07,20,,,,,,,,,4.7,3.0,3.6*31
$GPRMC,183422.000,A,3748.7188,N,12217.9295,W,1.71,176.45,140611,,,A*79
$GPVTG,176.45,T,,M,1.71,N,3.2,K,A*0A
$GPGGA,183423.000,3748.7183,N,12217.9298,W,1,04,3.0,3.7,M,-25.1,M,,0000*61
$GPGSA,A,3,13,10,07,20,,,,,,,,,4.7,3.0,3.6*31
$GPGSV,3,1,12,23,70,016,23,20,56,183,34,16,50,087,21,13,49,314,34*74
$GPGSV,3,2,12,32,36,156,21,07,27,244,40,04,14,287,30,10,14,317,18*7D
$GPGSV,3,3,12,03,05,124,20,06,04,109,,08,03,236,16,31,02,054,*79
$GPRMC,183423.000,A,3748.7183,N,12217.9298,W,1.86,169.41,140611,,,A*7C
$GPVTG,169.41,T,,M,1.86,N,3.4,K,A*0E
$GPGGA,183424.000,3748.7178,N,12217.9303,W,1,04,3.0,4.4,M,-25.1,M,,0000*65
$GPGSA,A,3,13,10,07,20,,,,,,,,,4.7,3.0,3.6*31
$GPRMC,183424.000,A,3748.7178,N,12217.9303,W,1.68,170.25,140611,,,A*76
$GPVTG,170.25,T,,M,1.68,N,3.1,K,A*01
$GPGGA,183425.000,3748.7172,N,12217.9309,W,1,04,3.0,5.1,M,-25.1,M,,0000*60
$GPGSA,A,3,13,10,07,20,,,,,,,,,4.7,3.0,3.6*31
$GPRMC,183425.000,A,3748.7172,N,12217.9309,W,1.56,172.30,140611,,,A*7C
$GPVTG,172.30,T,,M,1.56,N,2.9,K,A*03
$GPGGA,183426.000,3748.7167,N,12217.9314,W,1,04,3.0,5.6,M,-25.1,M,,0000*6C
$GPGSA,A,3,13,10,07,20,,,,,,,,,4.7,3.0,3.6*31
$GPRMC,183426.000,A,3748.7167,N,12217.9314,W,1.44,177.12,140611,,,A*71
$GPVTG,177.12,T,,M,1.44,N,2.7,K,A*0B
$GPGGA,183427.000,3748.7163,N,12217.9319,W,1,04,3.0,5.8,M,-25.1,M,,0000*6A
$GPGSA,A,3,13,10,07,20,,,,,,,,,4.7,3.0,3.6*31
$GPRMC,183427.000,A,3748.7163,N,12217.9319,W,1.26,184.60,140611,,,A*74
$GPVTG,184.60,T,,M,1.26,N,2.3,K,A*02
$GPGGA,183428.000,3748.7158,N,12217.9325,W,1,04,3.0,6.1,M,-25.1,M,,0000*68
$GPGSA,A,3,13,10,07,20,,,,,,,,,4.7,3.0,3.6*31
$GPGSV,3,1,12,23,70,016,22,20,56,183,34,16,50,087,21,13,49,314,34*75
$GPGSV,3,2,12,32,36,156,25,07,27,244,40,04,14,287,36,10,14,317,19*7E
$GPGSV,3,3,12,03,05,124,19,06,04,109,,08,03,236,16,31,02,054,*73
$GPRMC,183428.000,A,3748.7158,N,12217.9325,W,1.81,181.90,140611,,,A*7B
$GPVTG,181.90,T,,M,1.81,N,3.4,K,A*03
$GPGGA,183429.000,3748.7152,N,12217.9331,W,1,04,3.0,6.9,M,-25.1,M,,0000*6E
$GPGSA,A,3,13,10,07,20,,,,,,,,,4.7,3.0,3.6*31
$GPRMC,183429.000,A,3748.7152,N,12217.9331,W,1.91,182.50,140611,,,A*7B
$GPVTG,182.50,T,,M,1.91,N,3.5,K,A*0C
$GPGGA,183430.000,3748.7146,N,12217.9335,W,2,04,3.0,6.9,M,-25.1,M,1.8,0000*43
$GPGSA,A,3,13,10,07,20,,,,,,,,,4.7,3.0,3.6*31
$GPRMC,183430.000,A,3748.7146,N,12217.9335,W,2.01,185.89,140611,,,D*7E
$GPVTG,185.89,T,,M,2.01,N,3.7,K,D*02
$GPGGA,183431.000,3748.7140,N,12217.9339,W,2,04,3.0,6.6,M,-25.1,M,1.8,0000*47
$GPGSA,A,3,13,10,07,20,,,,,,,,,4.7,3.0,3.6*31
$GPRMC,183431.000,A,3748.7140,N,12217.9339,W,2.43,189.91,140611,,,D*76
$GPVTG,189.91,T,,M,2.43,N,4.5,K,D*04
$GPGGA,183432.000,3748.7133,N,12217.9343,W,2,04,3.0,6.7,M,-25.1,M,1.8,0000*4C
$GPGSA,A,3,13,10,07,20,,,,,,,,,4.7,3.0,3.6*31
$GPRMC,183432.000,A,3748.7133,N,12217.9343,W,2.36,189.32,140611,,,D*77
$GPVTG,189.32,T,,M,2.36,N,4.4,K,D*0E
$GPGGA,183433.000,3748.7127,N,12217.9347,W,2,04,3.0,6.4,M,-25.1,M,1.8,0000*4F
$GPGSA,A,3,13,10,07,20,,,,,,,,,4.7,3.0,3.6*31
$GPGSV,3,1,12,23,70,016,23,20,56,183,34,16,50,087,21,13,49,314,34*74
$GPGSV,3,2,12,32,36,156,33,07,27,244,40,04,14,287,37,10,14,317,23*71
$GPGSV,3,3,12,03,05,124,31,06,04,109,,08,03,236,15,31,02,054,*7A
$GPRMC,183433.000,A,3748.7127,N,12217.9347,W,2.24,193.17,140611,,,D*78
$GPGGA,183434.000,3748.7123,N,12217.9347,W,2,04,3.0,5.3,M,-25.1,M,2.8,0000*4B
$GPGSA,A,3,13,10,07,20,,,,,,,,,4.7,3.0,3.6*31
$GPRMC,183434.000,A,3748.7123,N,12217.9347,W,2.01,195.90,140611,,,D*75
$GPVTG,195.90,T,,M,2.01,N,3.7,K,D*0B
$GPGGA,183435.000,3748.7118,N,12217.9348,W,2,04,3.0,4.5,M,-25.1,M,3.8,0000*4B
$GPGSA,A,3,13,10,07,20,,,,,,,,,4.7,3.0,3.6*31
$GPRMC,183435.000,A,3748.7118,N,12217.9348,W,1.89,185.55,140611,,,D*78
$GPVTG,185.55,T,,M,1.89,N,3.5,K,D*02
$GPGGA,183436.000,3748.7112,N,12217.9349,W,2,04,3.0,4.3,M,-25.1,M,1.8,0000*47
$GPGSA,A,3,13,10,07,20,,,,,,,,,4.7,3.0,3.6*31
$GPRMC,183436.000,A,3748.7112,N,12217.9349,W,2.44,176.34,140611,,,D*79
$GPVTG,176.34,T,,M,2.44,N,4.5,K,D*0C
$GPGGA,183437.000,3748.7106,N,12217.9350,W,2,04,3.0,4.0,M,-25.1,M,1.8,0000*48
$GPGSA,A,3,13,10,07,20,,,,,,,,,4.7,3.0,3.6*31
$GPRMC,183437.000,A,3748.7106,N,12217.9350,W,2.40,178.34,140611,,,D*7F
$GPVTG,178.34,T,,M,2.40,N,4.4,K,D*07
$GPGGA,183438.000,3748.7100,N,12217.9352,W,2,04,3.0,3.5,M,-25.1,M,1.8,0000*41
$GPGSA,A,3,13,10,07,20,,,,,,,,,4.7,3.0,3.6*31
$GPGSV,3,1,12,23,70,016,26,20,56,183,34,16,50,087,22,13,49,314,34*72
$GPGSV,3,2,12,32,36,156,21,07,27,244,40,04,14,287,33,10,14,317,29*7C
$GPGSV,3,3,12,03,05,124,23,06,04,109,,08,03,236,17,31,02,054,*7B
$GPRMC,183438.000,A,3748.7100,N,12217.9352,W,1.93,191.76,140611,,,D*78
$GPVTG,191.76,T,,M,1.93,N,3.6,K,D*0E
$GPGGA,183439.000,3748.7095,N,12217.9355,W,2,04,3.0,3.0,M,-25.1,M,2.8,0000*4C
$GPGSA,A,3,13,10,07,20,,,,,,,,,4.7,3.0,3.6*31
$GPRMC,183439.000,A,3748.7095,N,12217.9355,W,1.91,202.35,140611,,,D*7F
$GPVTG,202.35,T,,M,1.91,N,3.5,K,D*01
$GPGGA,183440.000,3748.7090,N,12217.9360,W,2,04,3.0,2.9,M,-25.1,M,1.8,0000*4A
$GPGSA,A,3,13,10,07,20,,,,,,,,,4.7,3.0,3.6*31
$GPRMC,183440.000,A,3748.7090,N,12217.9360,W,2.11,198.51,140611,,,D*7B
$GPVTG,198.51,T,,M,2.11,N,3.9,K,D*04
$GPGGA,183441.000,3748.7086,N,12217.9365,W,2,04,3.0,2.9,M,-25.1,M,2.8,0000*4A
$GPGSA,A,3,13,10,07,20,,,,,,,,,4.7,3.0,3.6*31
$GPRMC,183441.000,A,3748.7086,N,12217.9365,W,2.15,197.89,140611,,,D*76
$GPVTG,197.89,T,,M,2.15,N,4.0,K,D*04
$GPGGA,183442.000,3748.7081,N,12217.9368,W,2,04,3.0,2.5,M,-25.1,M,1.8,0000*4C
$GPGSA,A,3,13,10,07,20,,,,,,,,,4.7,3.0,3.6*31
$GPRMC,183442.000,A,3748.7081,N,12217.9368,W,1.92,200.06,140611,,,D*79
$GPVTG,200.06,T,,M,1.92,N,3.5,K,D*00
$GPGGA,183443.000,3748.7076,N,12217.9372,W,2,04,3.0,2.2,M,-25.1,M,1.8,0000*49
$GPGSA,A,3,13,10,07,20,,,,,,,,,4.7,3.0,3.6*31
$GPGSV,3,1,12,23,70,016,26,20,56,183,29,16,50,087,22,13,49,314,35*7F
$GPGSV,3,2,12,32,36,156,16,07,27,244,39,04,14,287,33,10,14,317,37*79
$GPGSV,3,3,12,03,05,124,08,06,04,109,,08,03,236,17,31,02,054,*72
$GPRMC,183443.000,A,3748.7076,N,12217.9372,W,2.08,205.49,140611,,,D*75
$GPVTG,205.49,T,,M,2.08,N,3.9,K,D*02
$GPGGA,183444.000,3748.7070,N,12217.9375,W,2,04,3.0,1.9,M,-25.1,M,1.8,0000*47
$GPGSA,A,3,13,10,07,20,,,,,,,,,4.7,3.0,3.6*31
$GPRMC,183444.000,A,3748.7070,N,12217.9375,W,2.38,194.72,140611,,,D*73
$GPVTG,194.72,T,,M,2.38,N,4.4,K,D*08
$GPGGA,183445.000,3748.7064,N,12217.9377,W,2,04,3.0,1.7,M,-25.1,M,2.8,0000*4C
$GPGSA,A,3,13,10,07,20,,,,,,,,,4.7,3.0,3.6*31
$GPRMC,183445.000,A,3748.7064,N,12217.9377,W,2.25,191.27,140611,,,D*7C
$GPVTG,191.27,T,,M,2.25,N,4.2,K,D*07
$GPGGA,183446.000,3748.7059,N,12217.9377,W,2,04,3.0,1.4,M,-25.1,M,3.8,0000*43
$GPGSA,A,3,13,10,07,20,,,,,,,,,4.7,3.0,3.6*31
$GPRMC,183446.000,A,3748.7059,N,12217.9377,W,1.68,183.18,140611,,,D*74
$GPVTG,183.18,T,,M,1.68,N,3.1,K,D*06
$GPGGA,183447.000,3748.7055,N,12217.9377,W,2,04,3.0,1.0,M,-25.1,M,4.8,0000*4D
$GPGSA,A,3,13,10,07,20,,,,,,,,,4.7,3.0,3.6*31
$GPRMC,183447.000,A,3748.7055,N,12217.9377,W,1.84,188.26,140611,,,D*7D
$GPVTG,188.26,T,,M,1.84,N,3.4,K,D*07
$GPGGA,183448.000,3748.7050,N,12217.9379,W,2,04,3.0,0.8,M,-25.1,M,1.8,0000*45
$GPGSA,A,3,13,10,07,20,,,,,,,,,4.7,3.0,3.6*31
$GPGSV,3,1,12,23,70,017,27,20,55,183,30,16,50,087,21,13,49,314,35*77
$GPGSV,3,2,12,32,36,156,28,07,27,245,30,04,14,287,32,10,14,317,36*7C
$GPGSV,3,3,12,03,05,124,,06,04,109,,08,03,236,16,31,01,054,*78
$GPVTG,195.34,T,,M,2.20,N,4.1,K,D*07
$GPGGA,183449.000,3748.7044,N,12217.9381,W,2,04,3.0,0.6,M,-25.1,M,1.8,0000*48
$GPGSA,A,3,13,10,07,20,,,,,,,,,4.7,3.0,3.6*31
$GPRMC,183449.000,A,3748.7044,N,12217.9381,W,2.35,193.36,140611,,,D*78
$GPVTG,193.36,T,,M,2.35,N,4.4,K,D*02
$GPGGA,183450.000,3748.7038,N,12217.9384,W,2,04,3.0,0.2,M,-25.1,M,1.8,0000*4A
$GPGSA,A,3,13,10,07,20,,,,,,,,,4.7,3.0,3.6*31
$GPRMC,183450.000,A,3748.7038,N,12217.9384,W,2.01,203.24,140611,,,D*70
$GPVTG,203.24,T,,M,2.01,N,3.7,K,D*08
$GPGGA,183451.000,3748.7033,N,12217.9387,W,2,04,3.0,-0.0,M,-25.1,M,1.8,0000*6C
$GPGSA,A,3,13,10,07,20,,,,,,,,,4.7,3.0,3.6*31
$GPRMC,183451.000,A,3748.7033,N,12217.9387,W,2.23,201.10,140611,,,D*7C
$GPVTG,201.10,T,,M,2.23,N,4.1,K,D*0C
$GPGGA,183452.000,3748.7028,N,12217.9392,W,2,04,3.0,-0.2,M,-25.1,M,2.8,0000*60
$GPGSA,A,3,13,10,07,20,,,,,,,,,4.7,3.0,3.6*31
$GPRMC,183452.000,A,3748.7028,N,12217.9392,W,2.24,204.59,140611,,,D*7E
$GPVTG,204.59,T,,M,2.24,N,4.1,K,D*03
$GPGGA,183453.000,3748.7022,N,12217.9397,W,2,04,3.0,-0.3,M,-25.1,M,3.8,0000*6E
$GPGSA,A,3,13,10,07,20,,,,,,,,,4.7,3.0,3.6*31
$GPGSV,3,1,12,23,70,017,26,20,55,183,35,16,50,087,21,13,49,314,35*73
$GPGSV,3,2,12,32,36,156,32,07,27,245,40,04,14,287,26,10,14,317,31*72
$GPGSV,3,3,12,03,05,124,,06,04,109,,08,03,236,16,31,01,054,*78
$GPRMC,183453.000,A,3748.7022,N,12217.9397,W,2.32,204.64,140611,,,D*79
$GPVTG,204.64,T,,M,2.32,N,4.3,K,D*08
$GPGGA,183454.000,3748.7017,N,12217.9401,W,2,04,3.0,-0.4,M,-25.1,M,1.8,0000*62
$GPGSA,A,3,13,10,07,20,,,,,,,,,4.7,3.0,3.6*31
$GPRMC,183454.000,A,3748.7017,N,12217.9401,W,2.25,204.49,140611,,,D*79
$GPVTG,204.49,T,,M,2.25,N,4.2,K,D*00
$GPGGA,183455.000,3748.7012,N,12217.9404,W,2,04,3.0,-1.0,M,-25.1,M,1.8,0000*66
$GPGSA,A,3,13,10,07,20,,,,,,,,,4.7,3.0,3.6*31
$GPRMC,183455.000,A,3748.7012,N,12217.9404,W,2.28,199.49,140611,,,D*72
$GPVTG,199.49,T,,M,2.28,N,4.2,K,D*0A
$GPGGA,183456.000,3748.7006,N,12217.9408,W,2,04,3.0,-1.1,M,-25.1,M,1.8,0000*6D
$GPGSA,A,3,13,10,07,20,,,,,,,,,4.7,3.0,3.6*31
$GPRMC,183456.000,A,3748.7006,N,12217.9408,W,2.26,197.02,140611,,,D*77
$GPVTG,197.02,T,,M,2.26,N,4.2,K,D*05
$GPGGA,183457.000,3748.7001,N,12217.9411,W,2,04,3.0,-1.3,M,-25.1,M,2.8,0000*62
$GPGSA,A,3,13,10,07,20,,,,,,,,,4.7,3.0,3.6*31
$GPRMC,183457.000,A,3748.7001,N,12217.9411,W,2.10,200.04,140611,,,D*77
$GPVTG,200.04,T,,M,2.10,N,3.9,K,D*07
$GPGGA,183458.000,3748.6996,N,12217.9414,W,2,04,3.0,-1.5,M,-25.1,M,3.8,0000*69
$GPGSA,A,3,13,10,07,20,,,,,,,,,4.7,3.0,3.6*31
$GPGSV,3,1,12,23,70,017,26,20,55,183,34,16,50,087,26,13,49,314,35*75
$GPGSV,3,2,12,32,36,156,33,07,27,245,40,04,14,287,25,10,14,317,27*77
$GPGSV,3,3,12,03,05,124,,06,04,109,,08,03,236,16,31,01,054,*78
$GPRMC,183458.000,A,3748.6996,N,12217.9414,W,2.03,201.30,140611,,,D*7F
$GPVTG,201.30,T,,M,2.03,N,3.8,K,D*02
$GPGGA,183459.000,3748.6990,N,12217.9417,W,2,04,3.0,-1.6,M,-25.1,M,1.8,0000*6C
$GPGSA,A,3,13,10,07,20,,,,,,,,,4.7,3.0,3.6*31
$GPRMC,183459.000,A,3748.6990,N,12217.9417,W,2.07,200.00,140611,,,D*7D
$GPVTG,200.00,T,,M,2.07,N,3.8,K,D*04
$GPGGA,183500.000,3748.6985,N,12217.9420,W,2,04,3.0,-1.6,M,-25.1,M,1.8,0000*61
$GPGSA,A,3,13,10,07,20,,,,,,,,,4.7,3.0,3.6*31
$GPRMC,183500.000,A,3748.6985,N,12217.9420,W,2.11,199.94,140611,,,D*79
$GPVTG,199.94,T,,M,2.11,N,3.9,K,D*0C
$GPGGA,183501.000,3748.6979,N,12217.9423,W,2,04,3.0,-1.6,M,-25.1,M,1.8,0000*60
$GPGSA,A,3,13,10,07,20,,,,,,,,,4.7,3.0,3.6*31
$GPRMC,183501.000,A,3748.6979,N,12217.9423,W,1.97,188.51,140611,,,D*7C
$GPVTG,188.51,T,,M,1.97,N,3.6,K,D*07
$GPGGA,183502.000,3748.6973,N,12217.9426,W,2,04,3.0,-1.3,M,-25.1,M,1.8,0000*69
$GPGSA,A,3,13,10,07,20,,,,,,,,,4.7,3.0,3.6*31
$GPRMC,183502.000,A,3748.6973,N,12217.9426,W,1.91,196.49,140611,,,D*70
$GPVTG,196.49,T,,M,1.91,N,3.5,K,D*04
$GPGGA,183503.000,3748.6971,N,12217.9436,W,2,04,3.0,0.6,M,-25.1,M,2.8,0000*41
$GPGSA,A,3,13,10,07,20,,,,,,,,,4.7,3.0,3.6*31
$GPGSV,3,1,12,23,70,017,26,20,55,183,34,16,50,087,22,13,49,314,29*7C
$GPGSV,3,2,12,32,36,156,36,07,27,245,39,04,14,287,21,10,14,317,22*7D
$GPGSV,3,3,12,03,05,124,,06,04,109,,08,03,236,16,31,01,054,*78
$GPVTG,214.89,T,,M,1.65,N,3.1,K,D*0E
$GPGGA,183504.000,3748.6966,N,12217.9443,W,2,04,3.0,1.4,M,-25.1,M,3.8,0000*40
$GPGSA,A,3,13,10,07,20,,,,,,,,,4.7,3.0,3.6*31
$GPRMC,183504.000,A,3748.6966,N,12217.9443,W,1.66,219.99,140611,,,D*70
$GPVTG,219.99,T,,M,1.66,N,3.1,K,D*01
$GPGGA,183505.000,3748.6960,N,12217.9447,W,2,04,3.0,1.1,M,-25.1,M,1.8,0000*44
$GPGSA,A,3,13,10,07,20,,,,,,,,,4.7,3.0,3.6*31
$GPRMC,183505.000,A,3748.6960,N,12217.9447,W,2.25,213.80,140611,,,D*75
$GPVTG,213.80,T,,M,2.25,N,4.2,K,D*03
$GPGGA,183506.000,3748.6954,N,12217.9453,W,2,04,3.0,1.3,M,-25.1,M,1.8,0000*47
$GPGSA,A,3,13,10,07,20,,,,,,,,,4.7,3.0,3.6*31
$GPRMC,183506.000,A,3748.6954,N,12217.9453,W,2.38,211.52,140611,,,D*75
$GPVTG,211.52,T,,M,2.38,N,4.4,K,D*04
$GPGGA,183507.000,3748.6947,N,12217.9459,W,2,04,3.0,1.6,M,-25.1,M,2.8,0000*48
$GPGSA,A,3,13,10,07,20,,,,,,,,,4.7,3.0,3.6*31
$GPRMC,183507.000,A,3748.6947,N,12217.9459,W,2.50,208.74,140611,,,D*7E
$GPVTG,208.74,T,,M,2.50,N,4.6,K,D*04
$GPGGA,183508.000,3748.6940,N,12217.9463,W,2,04,3.0,1.7,M,-25.1,M,1.8,0000*4B
$GPGSA,A,3,13,10,07,20,,,,,,,,,4.7,3.0,3.6*31
$GPGSV,3,1,12,23,70,017,26,20,55,183,34,16,50,087,23,13,49,314,37*72
$GPGSV,3,2,12,32,36,156,30,07,27,245,40,04,14,287,40,10,14,317,31*70
$GPGSV,3,3,12,03,05,124,22,06,04,109,,08,03,236,16,31,01,054,*78
$GPRMC,183508.000,A,3748.6940,N,12217.9463,W,2.41,206.05,140611,,,D*77
$GPVTG,206.05,T,,M,2.41,N,4.5,K,D*0F
$GPGGA,183509.000,3748.6934,N,12217.9468,W,2,04,3.0,1.9,M,-25.1,M,1.8,0000*4C
$GPGSA,A,3,13,10,07,20,,,,,,,,,4.7,3.0,3.6*31
$GPRMC,183509.000,A,3748.6934,N,12217.9468,W,2.26,208.61,140611,,,D*73
$GPVTG,208.61,T,,M,2.26,N,4.2,K,D*05
$GPGGA,183510.000,3748.6927,N,12217.9473,W,2,04,3.0,1.8,M,-25.1,M,2.8,0000*4E
$GPGSA,A,3,13,10,07,20,,,,,,,,,4.7,3.0,3.6*31
$GPRMC,183510.000,A,3748.6927,N,12217.9473,W,2.41,209.41,140611,,,D*71
$GPVTG,209.41,T,,M,2.41,N,4.5,K,D*00
$GPGGA,183511.000,3748.6921,N,12217.9478,W,2,04,3.0,1.8,M,-25.1,M,3.8,0000*43
$GPGSA,A,3,13,10,07,20,,,,,,,,,4.7,3.0,3.6*31
$GPRMC,183511.000,A,3748.6921,N,12217.9478,W,2.53,207.71,140611,,,D*73
$GPVTG,207.71,T,,M,2.53,N,4.7,K,D*0C
$GPGGA,183512.000,3748.6914,N,12217.9482,W,2,04,3.0,2.0,M,-25.1,M,1.8,0000*4A
$GPGSA,A,3,13,10,07,20,,,,,,,,,4.7,3.0,3.6*31
$GPRMC,183512.000,A,3748.6914,N,12217.9482,W,2.39,199.76,140611,,,D*7C
$GPVTG,199.76,T,,M,2.39,N,4.4,K,D*00
$GPGGA,183513.000,3748.6907,N,12217.9485,W,2,04,3.0,2.0,M,-25.1,M,1.8,0000*4E
$GPGSA,A,3,13,10,07,20,,,,,,,,,4.7,3.0,3.6*31
$GPGSV,3,1,12,23,70,017,25,20,55,183,34,16,50,087,23,13,49,314,36*70
$GPGSV,3,2,12,32,36,156,32,07,27,245,40,04,14,287,39,10,14,317,30*7D
$GPGSV,3,3,12,03,05,124,23,06,04,109,,08,03,236,16,31,01,054,*79
$GPRMC,183513.000,A,3748.6907,N,12217.9485,W,2.21,200.32,140611,,,D*72
$GPVTG,200.32,T,,M,2.21,N,4.1,K,D*0F
$GPGGA,183514.000,3748.6902,N,12217.9489,W,2,04,3.0,1.7,M,-25.1,M,1.8,0000*44
$GPGSA,A,3,13,10,07,20,,,,,,,,,4.7,3.0,3.6*31
$GPRMC,183514.000,A,3748.6902,N,12217.9489,W,2.25,208.01,140611,,,D*70
$GPVTG,208.01,T,,M,2.25,N,4.2,K,D*00
$GPGGA,183515.000,3748.6896,N,12217.9495,W,2,04,3.0,2.0,M,-25.1,M,1.8,0000*40
$GPGSA,A,3,13,10,07,20,,,,,,,,,4.7,3.0,3.6*31
$GPRMC,183515.000,A,3748.6896,N,12217.9495,W,2.11,214.65,140611,,,D*78
$GPVTG,214.65,T,,M,2.11,N,3.9,K,D*04
$GPGGA,183516.000,3748.6891,N,12217.9501,W,2,04,3.0,2.2,M,-25.1,M,2.8,0000*49
$GPGSA,A,3,13,10,07,20,,,,,,,,,4.7,3.0,3.6*31
$GPRMC,183516.000,A,3748.6891,N,12217.9501,W,2.21,217.15,140611,,,D*77
$GPVTG,217.15,T,,M,2.21,N,4.1,K,D*0C
$GPGGA,183517.000,3748.6885,N,12217.9509,W,2,04,3.0,2.9,M,-25.1,M,3.8,0000*4F
$GPGSA,A,3,13,10,07,20,,,,,,,,,4.7,3.0,3.6*31
$GPRMC,183517.000,A,3748.6885,N,12217.9509,W,2.30,215.31,140611,,,D*7F
$GPVTG,215.31,T,,M,2.30,N,4.3,K,D*0A
$GPGGA,183518.000,3748.6879,N,12217.9515,W,2,04,3.0,3.3,M,-25.1,M,1.8,0000*47
$GPGSA,A,3,13,10,07,20,,,,,,,,,4.7,3.0,3.6*31
$GPGSV,3,1,12,23,70,018,27,20,55,183,34,16,50,087,24,13,49,314,36*7A
$GPGSV,3,2,12,32,36,156,31,07,27,245,40,10,15,317,24,04,14,287,33*70
$GPGSV,3,3,12,03,06,124,22,06,04,109,,08,03,236,18,31,01,054,*75
$GPRMC,183518.000,A,3748.6879,N,12217.9515,W,2.18,207.95,140611,,,D*79
$GPGGA,183519.000,3748.6872,N,12217.9522,W,2,04,3.0,3.8,M,-25.1,M,1.8,0000*42
$GPGSA,A,3,13,10,07,20,,,,,,,,,4.7,3.0,3.6*31
$GPRMC,183519.000,A,3748.6872,N,12217.9522,W,2.40,203.97,140611,,,D*7C
$GPVTG,203.97,T,,M,2.40,N,4.4,K,D*01
$GPGGA,183520.000,3748.6866,N,12217.9526,W,2,04,3.0,3.7,M,-25.1,M,1.8,0000*46
$GPGSA,A,3,13,10,07,20,,,,,,,,,4.7,3.0,3.7*30
$GPRMC,183520.000,A,3748.6866,N,12217.9526,W,2.28,206.57,140611,,,D*70
$GPVTG,206.57,T,,M,2.28,N,4.2,K,D*00
$GPGGA,183521.000,3748.6860,N,12217.9530,W,2,04,3.0,3.6,M,-25.1,M,1.8,0000*47
$GPGSA,A,3,13,10,07,20,,,,,,,,,4.7,3.0,3.7*30
$GPRMC,183521.000,A,3748.6860,N,12217.9530,W,2.29,205.79,140611,,,D*7E
$GPVTG,205.79,T,,M,2.29,N,4.2,K,D*0E
$GPGGA,183522.000,3748.6854,N,12217.9533,W,2,04,3.0,3.6,M,-25.1,M,2.8,0000*43
$GPGSA,A,3,13,10,07,20,,,,,,,,,4.7,3.0,3.7*30
$GPRMC,183522.000,A,3748.6854,N,12217.9533,W,2.10,202.59,140611,,,D*76
$GPVTG,202.59,T,,M,2.10,N,3.9,K,D*0D
$GPGGA,183523.000,3748.6848,N,12217.9536,W,2,04,3.0,3.2,M,-25.1,M,3.8,0000*4F
$GPGSA,A,3,13,10,07,20,,,,,,,,,4.7,3.0,3.7*30
$GPGSV,3,1,12,23,70,018,27,20,55,183,34,16,50,087,24,13,49,314,35*79
$GPGSV,3,2,12,32,36,156,31,07,27,245,40,10,15,317,30,04,14,287,32*74
$GPGSV,3,3,12,03,06,124,18,06,04,109,,08,03,236,17,31,01,054,*73
$GPRMC,183523.000,A,3748.6848,N,12217.9536,W,2.13,206.02,140611,,,D*76
$GPVTG,206.02,T,,M,2.13,N,3.9,K,D*04
$GPGGA,183524.000,3748.6843,N,12217.9539,W,2,04,3.0,2.7,M,-25.1,M,1.8,0000*4A
$GPGSA,A,3,13,10,07,20,,,,,,,,,4.7,3.0,3.7*30
$GPRMC,183524.000,A,3748.6843,N,12217.9539,W,2.21,203.65,140611,,,D*70
$GPVTG,203.65,T,,M,2.21,N,4.1,K,D*0E
$GPGGA,183525.000,3748.6837,N,12217.9542,W,2,04,3.0,2.4,M,-25.1,M,1.8,0000*47
$GPGSA,A,3,13,10,07,20,,,,,,,,,4.7,3.0,3.7*30
$GPRMC,183525.000,A,3748.6837,N,12217.9542,W,2.46,201.76,140611,,,D*7F
$GPVTG,201.76,T,,M,2.46,N,4.6,K,D*08
$GPGGA,183526.000,3748.6831,N,12217.9547,W,2,04,3.0,2.3,M,-25.1,M,1.8,0000*40
$GPGSA,A,3,13,10,07,20,,,,,,,,,4.7,3.0,3.7*30
$GPRMC,183526.000,A,3748.6831,N,12217.9547,W,2.39,203.92,140611,,,D*7F
$GPVTG,203.92,T,,M,2.39,N,4.4,K,D*0A
$GPGGA,183527.000,3748.6825,N,12217.9551,W,2,04,3.0,2.0,M,-25.1,M,2.8,0000*43
$GPGSA,A,3,13,10,07,20,,,,,,,,,4.7,3.0,3.7*30
$GPRMC,183527.000,A,3748.6825,N,12217.9551,W,2.52,208.91,140611,,,D*79
$GPVTG,208.91,T,,M,2.52,N,4.7,K,D*0C
$GPGGA,183528.000,3748.6819,N,12217.9556,W,2,04,3.0,1.8,M,-25.1,M,3.8,0000*4E
$GPGSA,A,3,13,10,07,20,,,,,,,,,4.7,3.0,3.7*30
$GPGSV,3,1,12,23,70,018,26,20,55,183,26,16,50,087,23,13,49,314,36*7F
$GPGSV,3,2,12,32,36,156,25,07,27,245,40,10,15,317,29,04,14,287,39*72
$GPGSV,3,3,12,03,06,124,19,06,04,109,,08,03,236,18,31,01,054,*7D
$GPRMC,183528.000,A,3748.6819,N,12217.9556,W,2.41,205.84,140611,,,D*75
$GPVTG,205.84,T,,M,2.41,N,4.5,K,D*05
$GPGGA,183529.000,3748.6814,N,12217.9563,W,2,04,3.0,1.8,M,-25.1,M,4.8,0000*43
$GPGSA,A,3,13,10,07,20,,,,,,,,,4.7,3.0,3.7*30
$GPRMC,183529.000,A,3748.6814,N,12217.9563,W,2.42,204.87,140611,,,D*7E
$GPVTG,204.87,T,,M,2.42,N,4.5,K,D*04
$GPGGA,183530.000,3748.6809,N,12217.9571,W,2,04,3.0,1.6,M,-25.1,M,1.8,0000*4F
$GPGSA,A,3,13,10,07,20,,,,,,,,,4.7,3.0,3.7*30
$GPRMC,183530.000,A,3748.6809,N,12217.9571,W,2.32,211.04,140611,,,D*71
$GPVTG,211.04,T,,M,2.32,N,4.3,K,D*0A
$GPGGA,183531.000,3748.6804,N,12217.9578,W,2,04,3.0,1.4,M,-25.1,M,1.8,0000*48
$GPGSA,A,3,13,10,07,20,,,,,,,,,4.7,3.0,3.7*30
$GPRMC,183531.000,A,3748.6804,N,12217.9578,W,2.47,207.91,140611,,,D*7D
$GPVTG,207.91,T,,M,2.47,N,4.6,K,D*06
$GPGGA,183532.000,3748.6799,N,12217.9584,W,2,04,3.0,1.2,M,-25.1,M,1.8,0000*45
$GPGSA,A,3,13,10,07,20,,,,,,,,,4.7,3.0,3.7*30
$GPRMC,183532.000,A,3748.6799,N,12217.9584,W,2.42,203.06,140611,,,D*79
$GPVTG,203.06,T,,M,2.42,N,4.5,K,D*0A
$GPGGA,183533.000,3748.6793,N,12217.9589,W,2,04,3.0,1.0,M,-25.1,M,2.8,0000*42
$GPGSA,A,3,13,10,07,20,,,,,,,,,4.7,3.0,3.7*30
$GPGSV,3,1,12,23,70,018,27,20,55,183,35,16,50,087,23,13,49,314,35*7F
$GPGSV,3,2,12,32,36,156,32,07,27,245,40,10,15,317,29,04,14,287,35*78
$GPGSV,3,3,12,03,06,124,21,06,04,109,,08,03,236,18,31,01,054,*76
$GPVTG,203.81,T,,M,2.36,N,4.4,K,D*07
$GPGGA,183534.000,3748.6788,N,12217.9594,W,2,04,3.0,0.7,M,-25.1,M,3.8,0000*44
$GPGSA,A,3,13,10,07,20,,,,,,,,,4.7,3.0,3.7*30
$GPRMC,183534.000,A,3748.6788,N,12217.9594,W,2.25,207.92,140611,,,D*76
$GPVTG,207.92,T,,M,2.25,N,4.2,K,D*05
$GPGGA,183535.000,3748.6782,N,12217.9601,W,2,04,3.0,0.9,M,-25.1,M,4.8,0000*49
$GPGSA,A,3,13,10,07,20,,,,,,,,,4.7,3.0,3.7*30
$GPRMC,183535.000,A,3748.6782,N,12217.9601,W,2.29,212.75,140611,,,D*73
$GPVTG,212.75,T,,M,2.29,N,4.2,K,D*04
$GPGGA,183536.000,3748.6776,N,12217.9610,W,2,04,3.0,1.8,M,-25.1,M,1.8,0000*44
$GPGSA,A,3,13,10,07,20,,,,,,,,,4.7,3.0,3.7*30
$GPRMC,183536.000,A,3748.6776,N,12217.9610,W,2.56,210.48,140611,,,D*7F
$GPVTG,210.48,T,,M,2.56,N,4.7,K,D*05
$GPGGA,183537.000,3748.6771,N,12217.9617,W,2,04,3.0,1.7,M,-25.1,M,1.8,0000*4A
$GPGSA,A,3,13,10,07,20,,,,,,,,,4.7,3.0,3.7*30
$GPRMC,183537.000,A,3748.6771,N,12217.9617,W,2.28,217.23,140611,,,D*7D
$GPVTG,217.23,T,,M,2.28,N,4.2,K,D*03
$GPGGA,183538.000,3748.6767,N,12217.9623,W,2,04,3.0,1.5,M,-25.1,M,1.8,0000*47
$GPGSA,A,3,13,10,07,20,,,,,,,,,4.7,3.0,3.7*30
$GPGSV,3,1,12,23,70,018,27,20,55,183,35,16,50,087,25,13,49,314,35*79
$GPGSV,3,2,12,32,36,156,32,07,27,245,40,10,15,317,34,04,14,287,35*74
$GPGSV,3,3,12,03,06,124,20,06,04,109,21,08,03,236,23,31,01,054,*7C
$GPRMC,183538.000,A,3748.6767,N,12217.9623,W,2.32,222.31,140611,,,D*7C
$GPVTG,222.31,T,,M,2.32,N,4.3,K,D*0C
$GPGGA,183539.000,3748.6762,N,12217.9629,W,2,04,3.0,1.5,M,-25.1,M,2.8,0000*4A
$GPGSA,A,3,13,10,07,20,,,,,,,,,4.7,3.0,3.7*30
$GPRMC,183539.000,A,3748.6762,N,12217.9629,W,2.27,209.74,140611,,,D*7E
$GPVTG,209.74,T,,M,2.27,N,4.2,K,D*01
$GPGGA,183540.000,3748.6756,N,12217.9634,W,2,04,3.0,1.8,M,-25.1,M,3.8,0000*43
$GPGSA,A,3,13,10,07,20,,,,,,,,,4.7,3.0,3.7*30
$GPRMC,183540.000,A,3748.6756,N,12217.9634,W,2.43,199.22,140611,,,D*70
$GPVTG,199.22,T,,M,2.43,N,4.5,K,D*0D
$GPGGA,183541.000,3748.6750,N,12217.9637,W,2,04,3.0,1.8,M,-25.1,M,4.8,0000*40
$GPGSA,A,3,13,10,07,20,,,,,,,,,4.7,3.0,3.7*30
$GPRMC,183541.000,A,3748.6750,N,12217.9637,W,2.46,203.45,140611,,,D*70
$GPVTG,203.45,T,,M,2.46,N,4.6,K,D*0A
$GPGGA,183542.000,3748.6744,N,12217.9644,W,2,04,3.0,2.1,M,-25.1,M,5.8,0000*49
$GPGSA,A,3,13,10,07,20,,,,,,,,,4.7,3.0,3.7*30
$GPRMC,183542.000,A,3748.6744,N,12217.9644,W,2.60,207.36,140611,,,D*76
$GPVTG,207.36,T,,M,2.60,N,4.8,K,D*00
$GPGGA,183543.000,3748.6740,N,12217.9660,W,2,04,3.0,2.9,M,-25.1,M,6.8,0000*41
$GPGSA,A,3,13,10,07,20,,,,,,,,,4.7,3.0,3.7*30
$GPGSV,3,1,12,23,70,018,28,20,55,183,25,16,50,087,24,13,49,314,35*76
$GPGSV,3,2,12,32,36,156,23,07,27,245,40,10,15,317,35,04,14,287,27*76
$GPGSV,3,3,12,03,06,124,19,06,04,109,21,08,03,236,16,31,01,054,*70
$GPRMC,183543.000,A,3748.6740,N,12217.9660,W,2.51,208.91,140611,,,D*75
$GPVTG,208.91,T,,M,2.51,N,4.7,K,D*0F
$GPGGA,183544.000,3748.6736,N,12217.9674,W,2,04,3.0,3.7,M,-25.1,M,7.8,0000*4C
$GPGSA,A,3,13,10,07,20,,,,,,,,,4.7,3.0,3.7*30
$GPRMC,183544.000,A,3748.6736,N,12217.9674,W,2.58,209.23,140611,,,D*77
$GPVTG,209.23,T,,M,2.58,N,4.8,K,D*01
$GPGGA,183545.000,3748.6732,N,12217.9687,W,2,04,3.0,4.0,M,-25.1,M,8.8,0000*4A
$GPGSA,A,3,13,10,07,20,,,,,,,,,4.7,3.0,3.7*30
$GPRMC,183545.000,A,3748.6732,N,12217.9687,W,2.34,215.20,140611,,,D*7A
$GPVTG,215.20,T,,M,2.34,N,4.3,K,D*0E
$GPGGA,183546.000,3748.6727,N,12217.9696,W,2,04,3.0,3.3,M,-25.1,M,9.8,0000*48
$GPGSA,A,3,13,10,07,20,,,,,,,,,4.7,3.0,3.7*30
$GPRMC,183546.000,A,3748.6727,N,12217.9696,W,2.29,217.23,140611,,,D*70
$GPVTG,217.23,T,,M,2.29,N,4.2,K,D*02
$GPGGA,183547.000,3748.6724,N,12217.9717,W,2,04,3.0,3.9,M,-25.1,M,10.8,0000*70
$GPGSA,A,3,13,10,07,20,,,,,,,,,4.7,3.0,3.7*30
$GPRMC,183547.000,A,3748.6724,N,12217.9717,W,3.05,229.63,140611,,,D*7C
$GPVTG,229.63,T,,M,3.05,N,5.7,K,D*00
$GPGGA,183548.000,3748.6721,N,12217.9737,W,2,04,3.0,4.9,M,-25.1,M,11.8,0000*7E
$GPGSA,A,3,13,10,07,20,,,,,,,,,4.7,3.0,3.7*30
$GPGSV,3,1,12,23,70,018,27,20,55,183,24,16,50,086,23,13,49,314,31*7A
$GPGSV,3,2,12,32,36,156,22,07,27,245,38,10,15,317,31,04,14,287,38*72
$GPGSV,3,3,12,03,06,123,19,06,04,108,20,08,03,236,17,31,01,054,*76
$GPVTG,244.72,T,,M,3.39,N,6.3,K,D*03
$GPGGA,183549.000,3748.6715,N,12217.9738,W,2,04,3.0,4.8,M,-25.1,M,12.8,0000*75
$GPGSA,A,3,13,10,07,20,,,,,,,,,4.7,3.0,3.7*30
$GPRMC,183549.000,A,3748.6715,N,12217.9738,W,2.93,226.46,140611,,,D*7B
$GPVTG,226.46,T,,M,2.93,N,5.4,K,D*05
$GPGGA,183550.000,3748.6707,N,12217.9737,W,2,04,3.0,4.6,M,-25.1,M,13.8,0000*7E
$GPGSA,A,3,13,10,07,20,,,,,,,,,4.7,3.0,3.7*30
$GPRMC,183550.000,A,3748.6707,N,12217.9737,W,2.69,206.82,140611,,,D*70
$GPVTG,206.82,T,,M,2.69,N,5.0,K,D*0E
$GPGGA,183551.000,3748.6701,N,12217.9741,W,2,04,3.0,5.1,M,-25.1,M,14.8,0000*79
$GPGSA,A,3,13,10,07,20,,,,,,,,,4.7,3.0,3.7*30
$GPRMC,183551.000,A,3748.6701,N,12217.9741,W,2.38,227.05,140611,,,D*7E
$GPVTG,227.05,T,,M,2.38,N,4.4,K,D*03
$GPGGA,183552.000,3748.6695,N,12217.9744,W,2,04,3.0,5.4,M,-25.1,M,15.8,0000*77
$GPGSA,A,3,13,10,07,20,,,,,,,,,4.7,3.0,3.7*30
$GPRMC,183552.000,A,3748.6695,N,12217.9744,W,2.44,212.95,140611,,,D*70
$GPVTG,212.95,T,,M,2.44,N,4.5,K,D*06
$GPGGA,183553.000,3748.6688,N,12217.9746,W,2,04,3.0,5.4,M,-25.1,M,16.8,0000*7B
$GPGSA,A,3,13,10,07,20,,,,,,,,,4.7,3.0,3.7*30
$GPGSV,3,1,12,23,70,018,28,20,55,183,34,16,50,086,22,13,49,314,32*76
$GPGSV,3,2,12,32,36,156,32,07,27,245,39,10,15,317,20,04,14,287,30*7A
$GPGSV,3,3,12,03,06,123,27,06,04,108,20,08,03,236,18,31,01,054,*74
$GPRMC,183553.000,A,3748.6688,N,12217.9746,W,2.42,209.61,140611,,,D*78
$GPVTG,209.61,T,,M,2.42,N,4.5,K,D*01
$GPGGA,183554.000,3748.6681,N,12217.9747,W,2,04,3.0,5.0,M,-25.1,M,17.8,0000*71
$GPGSA,A,3,13,10,07,20,,,,,,,,,4.7,3.0,3.7*30
$GPRMC,183554.000,A,3748.6681,N,12217.9747,W,2.53,217.23,140611,,,D*7E
$GPVTG,217.23,T,,M,2.53,N,4.7,K,D*0A
$GPGGA,183555.000,3748.6675,N,12217.9746,W,1,04,3.0,4.3,M,-25.1,M,,0000*6B
$GPGSA,A,3,13,10,07,20,,,,,,,,,4.7,3.0,3.7*30
$GPRMC,183555.000,A,3748.6675,N,12217.9746,W,2.55,200.43,140611,,,A*76
$GPVTG,200.43,T,,M,2.55,N,4.7,K,A*09
$GPGGA,183556.000,3748.6668,N,12217.9749,W,1,04,3.0,4.5,M,-25.1,M,,0000*6D
$GPGSA,A,3,13,10,07,20,,,,,,,,,4.7,3.0,3.7*30
$GPRMC,183556.000,A,3748.6668,N,12217.9749,W,2.21,197.23,140611,,,A*7E
$GPVTG,197.23,T,,M,2.21,N,4.1,K,A*07
$GPGGA,183557.000,3748.6659,N,12217.9740,W,1,04,3.0,3.9,M,-25.1,M,,0000*6C
$GPGSA,A,3,13,10,07,20,,,,,,,,,4.7,3.0,3.7*30
$GPRMC,183557.000,A,3748.6659,N,12217.9740,W,2.57,178.99,140611,,,A*75
$GPVTG,178.99,T,,M,2.57,N,4.8,K,A*0F
$GPGGA,183558.000,3748.6652,N,12217.9738,W,1,04,3.0,3.9,M,-25.1,M,,0000*67
$GPGSA,A,3,13,10,07,20,,,,,,,,,4.7,3.0,3.7*30
$GPGSV,3,1,12,23,70,018,28,20,55,183,26,16,50,086,22,13,49,314,33*74
$GPGSV,3,2,12,32,36,156,33,07,27,245,38,10,15,317,31,04,14,287,35*7F
$GPGSV,3,3,12,03,06,123,34,06,04,108,20,08,03,236,23,31,01,054,*7E
$GPRMC,183558.000,A,3748.6652,N,12217.9738,W,2.17,183.58,140611,,,A*73
$GPVTG,183.58,T,,M,2.17,N,4.0,K,A*0A
$GPGGA,183559.000,3748.6646,N,12217.9744,W,2,04,3.0,4.0,M,-25.1,M,1.8,0000*42
$GPGSA,A,3,13,10,07,20,,,,,,,,,4.7,3.0,3.7*30
$GPRMC,183559.000,A,3748.6646,N,12217.9744,W,2.27,202.07,140611,,,D*7A
$GPVTG,202.07,T,,M,2.27,N,4.2,K,D*0E
$GPGGA,183600.000,3748.6643,N,12217.9757,W,2,04,3.0,4.4,M,-25.1,M,2.8,0000*4D
$GPGSA,A,3,13,10,07,20,,,,,,,,,4.7,3.0,3.7*30
$GPRMC,183600.000,A,3748.6643,N,12217.9757,W,2.22,205.02,140611,,,D*75
$GPVTG,205.02,T,,M,2.22,N,4.1,K,D*0A
$GPGGA,183601.000,3748.6639,N,12217.9776,W,2,04,3.0,5.0,M,-25.1,M,3.8,0000*46
$GPGSA,A,3,13,10,07,20,,,,,,,,,4.7,3.0,3.7*30
$GPRMC,183601.000,A,3748.6639,N,12217.9776,W,2.60,211.62,140611,,,D*7F
$GPVTG,211.62,T,,M,2.60,N,4.8,K,D*06
$GPGGA,183602.000,3748.6632,N,12217.9782,W,2,04,3.0,5.3,M,-25.1,M,4.8,0000*41
$GPGSA,A,3,13,10,07,20,,,,,,,,,4.7,3.0,3.7*30
$GPRMC,183602.000,A,3748.6632,N,12217.9782,W,2.79,204.42,140611,,,D*72
$GPVTG,204.42,T,,M,2.79,N,5.2,K,D*03
$GPGGA,183603.000,3748.6625,N,12217.9789,W,2,04,2.9,5.4,M,-25.1,M,5.8,0000*43
$GPGSA,A,3,13,10,07,20,,,,,,,,,4.7,2.9,3.7*38
$GPGSV,3,1,12,23,70,018,18,20,55,183,18,16,50,086,23,13,49,314,34*7C
$GPGSV,3,2,12,32,36,156,20,07,27,245,38,10,15,317,37,04,14,287,27*78
$GPGSV,3,3,12,03,06,123,22,06,04,108,20,08,03,236,21,31,01,054,*7B
$GPVTG,197.01,T,,M,2.58,N,4.8,K,D*05
$GPGGA,183604.000,3748.6619,N,12217.9798,W,2,04,2.9,5.8,M,-25.1,M,6.8,0000*44
$GPGSA,A,3,13,10,07,20,,,,,,,,,4.7,2.9,3.7*38
$GPRMC,183604.000,A,3748.6619,N,12217.9798,W,2.49,190.51,140611,,,D*79
$GPVTG,190.51,T,,M,2.49,N,4.6,K,D*09
$GPGGA,183605.000,3748.6615,N,12217.9807,W,2,04,2.9,6.4,M,-25.1,M,7.8,0000*4E
$GPGSA,A,3,13,10,07,20,,,,,,,,,4.7,2.9,3.7*38
$GPRMC,183605.000,A,3748.6615,N,12217.9807,W,2.30,184.71,140611,,,D*74
$GPVTG,184.71,T,,M,2.30,N,4.3,K,D*05
$GPGGA,183606.000,3748.6609,N,12217.9819,W,2,04,2.9,7.7,M,-25.1,M,8.8,0000*42
$GPGSA,A,3,13,10,07,20,,,,,,,,,4.7,2.9,3.7*38
$GPRMC,183606.000,A,3748.6609,N,12217.9819,W,2.07,208.96,140611,,,D*7F
$GPVTG,208.96,T,,M,2.07,N,3.8,K,D*03
$GPGGA,183607.000,3748.6604,N,12217.9821,W,2,04,2.9,8.6,M,-25.1,M,9.8,0000*4A
$GPGSA,A,3,13,10,07,20,,,,,,,,,4.7,2.9,3.7*38
$GPRMC,183607.000,A,3748.6604,N,12217.9821,W,2.02,219.54,140611,,,D*73
$GPVTG,219.54,T,,M,2.02,N,3.7,K,D*07
$GPGGA,183608.000,3748.6600,N,12217.9824,W,2,04,2.9,8.3,M,-25.1,M,10.8,0000*79
$GPGSA,A,3,13,10,07,20,,,,,,,,,4.7,2.9,3.7*38
$GPGSV,3,1,12,23,70,018,20,20,55,183,32,16,50,086,22,13,49,314,30*7A
$GPGSV,3,2,12,32,36,156,22,07,27,245,39,10,15,317,29,04,14,287,28*7B
$GPGSV,3,3,12,03,06,123,17,06,04,108,20,08,03,236,21,31,01,054,*7D
$GPRMC,183608.000,A,3748.6600,N,12217.9824,W,2.11,228.17,140611,,,D*7A
$GPVTG,228.17,T,,M,2.11,N,3.9,K,D*0E
$GPGGA,183609.000,3748.6594,N,12217.9824,W,2,04,2.9,7.9,M,-25.1,M,11.8,0000*72
$GPGSA,A,3,13,10,07,20,,,,,,,,,4.7,2.9,3.7*38
$GPRMC,183609.000,A,3748.6594,N,12217.9824,W,2.49,208.07,140611,,,D*7B
$GPVTG,208.07,T,,M,2.49,N,4.6,K,D*08
$GPGGA,183610.000,3748.6586,N,12217.9823,W,2,04,2.9,7.1,M,-25.1,M,12.8,0000*75
$GPGSA,A,3,13,10,07,20,,,,,,,,,4.7,2.9,3.7*38
$GPRMC,183610.000,A,3748.6586,N,12217.9823,W,2.55,214.04,140611,,,D*74
$GPVTG,214.04,T,,M,2.55,N,4.7,K,D*0A
$GPGGA,183611.000,3748.6577,N,12217.9820,W,2,04,2.9,6.3,M,-25.1,M,13.8,0000*7B
$GPGSA,A,3,13,10,07,20,,,,,,,,,4.7,2.9,3.7*38
$GPRMC,183611.000,A,3748.6577,N,12217.9820,W,2.48,206.42,140611,,,D*75
$GPVTG,206.42,T,,M,2.48,N,4.6,K,D*06
$GPGGA,183612.000,3748.6568,N,12217.9822,W,2,04,2.9,6.5,M,-25.1,M,14.8,0000*75
$GPGSA,A,3,13,10,07,20,,,,,,,,,4.7,2.9,3.7*38
$GPRMC,183612.000,A,3748.6568,N,12217.9822,W,2.56,206.99,140611,,,D*73
$GPVTG,206.99,T,,M,2.56,N,4.7,K,D*0E
$GPGGA,183613.000,3748.6559,N,12217.9822,W,2,04,2.9,6.2,M,-25.1,M,15.8,0000*70
$GPGSA,A,3,13,10,07,20,,,,,,,,,4.7,2.9,3.7*38
$GPGSV,3,1,12,23,70,018,20,20,55,183,32,16,50,086,22,13,49,314,31*7B
$GPGSV,3,2,12,32,36,156,21,07,27,245,39,10,15,317,26,04,14,287,29*76
$GPGSV,3,3,12,03,06,123,17,06,04,108,19,08,03,236,20,31,01,054,*76
$GPRMC,183613.000,A,3748.6559,N,12217.9822,W,2.48,202.78,140611,,,D*74
$GPVTG,202.78,T,,M,2.48,N,4.6,K,D*0B
$GPGGA,183614.000,3748.6550,N,12217.9823,W,2,04,2.9,5.7,M,-25.1,M,16.8,0000*7A
$GPGSA,A,3,13,10,07,20,,,,,,,,,4.7,2.9,3.7*38
$GPRMC,183614.000,A,3748.6550,N,12217.9823,W,2.42,203.00,140611,,,D*7F
$GPVTG,203.00,T,,M,2.42,N,4.5,K,D*0C
$GPGGA,183615.000,3748.6542,N,12217.9822,W,2,04,2.9,4.8,M,-25.1,M,17.8,0000*76
$GPGSA,A,3,13,10,07,20,,,,,,,,,4.7,2.9,3.7*38
$GPRMC,183615.000,A,3748.6542,N,12217.9822,W,2.50,198.59,140611,,,D*72
$GPVTG,198.59,T,,M,2.50,N,4.6,K,D*01
$GPGGA,183616.000,3748.6534,N,12217.9823,W,1,04,2.9,4.5,M,-25.1,M,,0000*6B
$GPGSA,A,3,13,10,07,20,,,,,,,,,4.7,2.9,3.7*38
$GPRMC,183616.000,A,3748.6534,N,12217.9823,W,2.64,194.96,140611,,,A*7C
$GPVTG,194.96,T,,M,2.64,N,4.9,K,A*03
$GPGGA,183617.000,3748.6526,N,12217.9824,W,1,04,2.9,3.8,M,-25.1,M,,0000*64
$GPGSA,A,3,13,10,07,20,,,,,,,,,4.7,2.9,3.7*38
$GPRMC,183617.000,A,3748.6526,N,12217.9824,W,2.29,191.28,140611,,,A*70
$GPVTG,191.28,T,,M,2.29,N,4.2,K,A*01
$GPGGA,183618.000,3748.6520,N,12217.9827,W,1,04,2.9,3.9,M,-25.1,M,,0000*6F
$GPGSA,A,3,13,10,07,20,,,,,,,,,4.7,2.9,3.7*38
$GPGSV,3,1,12,23,70,019,24,20,55,183,32,16,50,086,21,13,49,315,32*7F
$GPGSV,3,2,12,32,35,156,21,07,27,245,39,10,15,317,25,04,14,287,26*79
$GPGSV,3,3,12,03,06,123,17,06,04,108,,08,03,236,20,31,01,054,*7E
$GPVTG,199.70,T,,M,2.16,N,4.0,K,A*0A
$GPGGA,183619.000,3748.6513,N,12217.9830,W,1,04,2.9,3.7,M,-25.1,M,,0000*66
$GPGSA,A,3,13,10,07,20,,,,,,,,,4.7,2.9,3.7*38
$GPRMC,183619.000,A,3748.6513,N,12217.9830,W,2.48,198.52,140611,,,A*7E
$GPVTG,198.52,T,,M,2.48,N,4.6,K,A*06
$GPGGA,183620.000,3748.6506,N,12217.9834,W,1,04,2.9,3.9,M,-25.1,M,,0000*62
$GPGSA,A,3,13,10,07,20,,,,,,,,,4.7,2.9,3.7*38
$GPRMC,183620.000,A,3748.6506,N,12217.9834,W,2.37,198.52,140611,,,A*7C
$GPVTG,198.52,T,,M,2.37,N,4.4,K,A*0C
$GPGGA,183621.000,3748.6498,N,12217.9840,W,1,05,2.9,4.5,M,-25.1,M,,0000*6C
$GPGSA,A,3,13,10,07,20,04,,,,,,,,4.6,2.9,3.6*3C
$GPRMC,183621.000,A,3748.6498,N,12217.9840,W,2.36,204.09,140611,,,A*71
$GPVTG,204.09,T,,M,2.36,N,4.4,K,A*05
$GPGGA,183622.000,3748.6491,N,12217.9847,W,1,05,2.9,5.2,M,-25.1,M,,0000*67
$GPGSA,A,3,13,10,07,20,04,,,,,,,,4.6,2.9,3.6*3C
$GPRMC,183622.000,A,3748.6491,N,12217.9847,W,2.51,205.69,140611,,,A*7A
$GPVTG,205.69,T,,M,2.51,N,4.7,K,A*00
$GPGGA,183623.000,3748.6484,N,12217.9853,W,1,05,2.9,5.7,M,-25.1,M,,0000*62
$GPGSA,A,3,13,10,07,20,04,,,,,,,,4.6,2.9,3.6*3C
$GPGSV,3,1,12,23,70,019,26,20,55,183,33,16,50,086,21,13,49,315,33*7D
$GPGSV,3,2,12,32,35,156,22,07,27,245,40,10,15,317,25,04,14,287,26*74
$GPGSV,3,3,12,03,06,123,17,06,04,108,,08,03,236,19,31,01,055,*75
$GPRMC,183623.000,A,3748.6484,N,12217.9853,W,2.29,208.58,140611,,,A*7A
$GPVTG,208.58,T,,M,2.29,N,4.2,K,A*05
$GPGGA,183624.000,3748.6477,N,12217.9860,W,1,05,2.9,6.6,M,-25.1,M,,0000*6B
$GPGSA,A,3,13,10,07,20,04,,,,,,,,4.6,2.9,3.6*3C
$GPRMC,183624.000,A,3748.6477,N,12217.9860,W,2.04,211.32,140611,,,A*7A
$GPVTG,211.32,T,,M,2.04,N,3.8,K,A*03
$GPGGA,183625.000,3748.6473,N,12217.9870,W,1,05,2.9,8.4,M,-25.1,M,,0000*63
$GPGSA,A,3,13,10,07,20,04,,,,,,,,4.6,2.9,3.6*3C
$GPRMC,183625.000,A,3748.6473,N,12217.9870,W,1.88,215.31,140611,,,A*7E
$GPVTG,215.31,T,,M,1.88,N,3.5,K,A*0E
$GPGGA,183626.000,3748.6467,N,12217.9875,W,1,05,2.9,9.1,M,-25.1,M,,0000*64
$GPGSA,A,3,13,10,07,20,04,,,,,,,,4.6,2.9,3.6*3C
$GPRMC,183626.000,A,3748.6467,N,12217.9875,W,1.78,215.44,140611,,,A*70
$GPVTG,215.44,T,,M,1.78,N,3.3,K,A*05
$GPGGA,183627.000,3748.6462,N,12217.9877,W,1,05,2.9,8.1,M,-25.1,M,,0000*63
$GPGSA,A,3,13,10,07,20,04,,,,,,,,4.6,2.9,3.6*3C
$GPRMC,183627.000,A,3748.6462,N,12217.9877,W,2.09,213.41,140611,,,A*70
$GPVTG,213.41,T,,M,2.09,N,3.9,K,A*09
$GPGGA,183628.000,3748.6456,N,12217.9880,W,1,05,2.9,7.5,M,-25.1,M,,0000*68
$GPGSA,A,3,13,10,07,20,04,,,,,,,,4.6,2.9,3.6*3C
$GPGSV,3,1,12,23,70,019,27,20,55,183,33,16,50,086,21,13,49,315,32*7D
$GPGSV,3,2,12,32,35,156,29,07,27,245,40,10,15,317,25,04,14,287,26*7F
$GPGSV,3,3,12,03,06,123,15,06,04,108,,08,03,236,18,31,01,055,*76
$GPRMC,183628.000,A,3748.6456,N,12217.9880,W,2.49,207.76,140611,,,A*75
$GPVTG,207.76,T,,M,2.49,N,4.6,K,A*04
$GPGGA,183629.000,3748.6450,N,12217.9883,W,1,05,2.9,7.1,M,-25.1,M,,0000*68
$GPGSA,A,3,13,10,07,20,04,,,,,,,,4.6,2.9,3.6*3C
$GPRMC,183629.000,A,3748.6450,N,12217.9883,W,2.54,204.97,140611,,,A*71
$GPVTG,204.97,T,,M,2.54,N,4.7,K,A*05
$GPGGA,183630.000,3748.6444,N,12217.9889,W,1,05,2.9,7.2,M,-25.1,M,,0000*6C
$GPGSA,A,3,13,10,07,20,04,,,,,,,,4.6,2.9,3.6*3C
$GPRMC,183630.000,A,3748.6444,N,12217.9889,W,2.21,207.99,140611,,,A*79
$GPVTG,207.99,T,,M,2.21,N,4.1,K,A*0C
$GPGGA,183631.000,3748.6437,N,12217.9895,W,1,05,2.9,7.4,M,-25.1,M,,0000*62
$GPGSA,A,3,13,10,07,20,04,,,,,,,,4.6,2.9,3.6*3C
$GPRMC,183631.000,A,3748.6437,N,12217.9895,W,2.51,207.91,140611,,,A*7E
$GPVTG,207.91,T,,M,2.51,N,4.6,K,A*04
$GPGGA,183632.000,3748.6430,N,12217.9900,W,1,05,2.9,7.5,M,-25.1,M,,0000*6A
$GPGSA,A,3,13,10,07,20,04,,,,,,,,4.6,2.9,3.6*3C
$GPRMC,183632.000,A,3748.6430,N,12217.9900,W,2.24,210.48,140611,,,A*77
$GPVTG,210.48,T,,M,2.24,N,4.2,K,A*00
$GPGGA,183633.000,3748.6424,N,12217.9904,W,1,05,2.9,7.1,M,-25.1,M,,0000*6E
$GPGSA,A,3,13,10,07,20,04,,,,,,,,4.6,2.9,3.6*3C
$GPGSV,3,1,12,23,70,019,26,20,55,183,33,16,50,086,22,13,49,315,32*7F
$GPGSV,3,2,12,32,35,156,17,07,27,245,40,10,15,317,34,04,14,287,30*75
$GPGSV,3,3,12,03,06,123,,06,04,108,,08,03,236,19,31,01,055,*73
$GPRMC,183633.000,A,3748.6424,N,12217.9904,W,2.39,208.92,140611,,,A*75
$GPGGA,183634.000,3748.6418,N,12217.9909,W,1,05,2.9,6.9,M,-25.1,M,,0000*62
$GPGSA,A,3,13,10,07,20,04,,,,,,,,4.6,2.9,3.6*3C
$GPRMC,183634.000,A,3748.6418,N,12217.9909,W,2.41,208.26,140611,,,A*70
$GPVTG,208.26,T,,M,2.41,N,4.5,K,A*05
$GPGGA,183635.000,3748.6412,N,12217.9914,W,1,05,2.9,6.6,M,-25.1,M,,0000*6A
$GPGSA,A,3,13,10,07,20,04,,,,,,,,4.6,2.9,3.6*3C
$GPRMC,183635.000,A,3748.6412,N,12217.9914,W,2.52,208.00,140611,,,A*71
$GPVTG,208.00,T,,M,2.52,N,4.7,K,A*01
$GPGGA,183636.000,3748.6406,N,12217.9917,W,1,05,2.9,6.1,M,-25.1,M,,0000*68
$GPGSA,A,3,13,10,07,20,04,,,,,,,,4.6,2.9,3.6*3C
$GPRMC,183636.000,A,3748.6406,N,12217.9917,W,2.49,204.90,140611,,,A*7B
$GPVTG,204.90,T,,M,2.49,N,4.6,K,A*0F
$GPGGA,183637.000,3748.6399,N,12217.9921,W,1,05,2.9,5.8,M,-25.1,M,,0000*67
$GPGSA,A,3,13,10,07,20,04,,,,,,,,4.6,2.9,3.6*3C
$GPRMC,183637.000,A,3748.6399,N,12217.9921,W,2.61,206.18,140611,,,A*76
$GPVTG,206.18,T,,M,2.61,N,4.8,K,A*09
$GPGGA,183638.000,3748.6393,N,12217.9926,W,1,05,2.9,5.5,M,-25.1,M,,0000*68
$GPGSA,A,3,13,10,07,20,04,,,,,,,,4.6,2.9,3.6*3C
$GPGSV,3,1,12,23,70,019,26,20,55,183,33,16,50,086,22,13,49,315,32*7F
$GPGSV,3,2,12,32,35,156,30,07,27,245,40,10,15,317,30,04,14,287,30*74
$GPGSV,3,3,12,03,06,123,,06,04,108,,08,03,236,27,31,01,055,*7E
$GPRMC,183638.000,A,3748.6393,N,12217.9926,W,2.70,204.71,140611,,,A*79
$GPVTG,204.71,T,,M,2.70,N,5.0,K,A*0D
$GPGGA,183639.000,3748.6386,N,12217.9929,W,1,05,2.9,4.9,M,-25.1,M,,0000*6F
$GPGSA,A,3,13,10,07,20,04,,,,,,,,4.6,2.9,3.6*3C
$GPRMC,183639.000,A,3748.6386,N,12217.9929,W,2.59,204.38,140611,,,A*75
$GPVTG,204.38,T,,M,2.59,N,4.8,K,A*02
$GPGGA,183640.000,3748.6380,N,12217.9934,W,1,05,2.9,4.9,M,-25.1,M,,0000*6B
$GPGSA,A,3,13,10,07,20,04,,,,,,,,4.6,2.9,3.6*3C
$GPRMC,183640.000,A,3748.6380,N,12217.9934,W,2.55,208.07,140611,,,A*7D
$GPVTG,208.07,T,,M,2.55,N,4.7,K,A*01
$GPGGA,183641.000,3748.6374,N,12217.9938,W,1,05,2.9,4.6,M,-25.1,M,,0000*62
$GPGSA,A,3,13,10,07,20,04,,,,,,,,4.6,2.9,3.6*3C
$GPRMC,183641.000,A,3748.6374,N,12217.9938,W,2.46,208.39,140611,,,A*74
$GPVTG,208.39,T,,M,2.46,N,4.6,K,A*0F
$GPGGA,183642.000,3748.6367,N,12217.9946,W,1,05,2.9,5.2,M,-25.1,M,,0000*6F
$GPGSA,A,3,13,10,07,20,04,,,,,,,,4.6,2.9,3.6*3C
$GPRMC,183642.000,A,3748.6367,N,12217.9946,W,2.34,207.11,140611,,,A*7C
$GPVTG,207.11,T,,M,2.34,N,4.3,K,A*0A
$GPGGA,183643.000,3748.6361,N,12217.9950,W,1,05,2.9,5.0,M,-25.1,M,,0000*6D
$GPGSA,A,3,13,10,07,20,04,,,,,,,,4.6,2.9,3.6*3C
$GPGSV,3,1,12,23,70,019,26,20,55,183,33,16,50,086,21,13,49,315,32*7C
$GPGSV,3,2,12,32,35,156,30,07,27,245,40,10,15,317,16,04,14,287,30*70
$GPGSV,3,3,12,03,06,123,,06,04,108,,08,03,236,22,31,01,055,*7B
$GPRMC,183643.000,A,3748.6361,N,12217.9950,W,2.31,208.46,140611,,,A*74
$GPVTG,208.46,T,,M,2.31,N,4.3,K,A*02
$GPGGA,183644.000,3748.6355,N,12217.9956,W,1,05,2.9,5.5,M,-25.1,M,,0000*6E
$GPGSA,A,3,13,10,07,20,04,,,,,,,,4.6,2.9,3.6*3C
$GPRMC,183644.000,A,3748.6355,N,12217.9956,W,2.40,206.46,140611,,,A*7A
$GPVTG,206.46,T,,M,2.40,N,4.4,K,A*0D
$GPGGA,183645.000,3748.6350,N,12217.9957,W,1,05,2.9,4.2,M,-25.1,M,,0000*6D
$GPGSA,A,3,13,10,07,20,04,,,,,,,,4.6,2.9,3.6*3C
$GPRMC,183645.000,A,3748.6350,N,12217.9957,W,2.35,208.55,140611,,,A*71
$GPVTG,208.55,T,,M,2.35,N,4.3,K,A*04
$GPGGA,183646.000,3748.6344,N,12217.9961,W,1,05,2.9,4.0,M,-25.1,M,,0000*6C
$GPGSA,A,3,13,10,07,20,04,,,,,,,,4.6,2.9,3.6*3C
$GPRMC,183646.000,A,3748.6344,N,12217.9961,W,2.42,204.42,140611,,,A*78
$GPVTG,204.42,T,,M,2.42,N,4.5,K,A*08
$GPGGA,183647.000,3748.6337,N,12217.9966,W,1,05,2.9,3.8,M,-25.1,M,,0000*61
$GPGSA,A,3,13,10,07,20,04,,,,,,,,4.6,2.9,3.6*3C
$GPRMC,183647.000,A,3748.6337,N,12217.9966,W,2.61,201.75,140611,,,A*7A
$GPVTG,201.75,T,,M,2.61,N,4.8,K,A*05
$GPGGA,183648.000,3748.6331,N,12217.9971,W,1,05,2.9,4.2,M,-25.1,M,,0000*63
$GPGSA,A,3,13,10,07,20,04,,,,,,,,4.6,2.9,3.6*3C
$GPGSV,3,1,12,23,70,020,26,20,54,183,34,16,50,085,22,13,49,315,33*71
$GPGSV,3,2,12,32,35,156,32,07,27,245,41,10,15,317,32,04,14,286,25*70
$GPGSV,3,3,12,03,06,123,,06,04,108,,08,03,236,22,31,01,055,*7B
$GPRMC,183648.000,A,3748.6331,N,12217.9971,W,2.49,206.23,140611,,,A*7B
$GPGGA,183649.000,3748.6325,N,12217.9975,W,1,05,2.9,4.2,M,-25.1,M,,0000*63
$GPGSA,A,3,13,10,07,20,04,,,,,,,,4.6,2.9,3.6*3C
$GPRMC,183649.000,A,3748.6325,N,12217.9975,W,2.46,210.45,140611,,,A*73
$GPVTG,210.45,T,,M,2.46,N,4.6,K,A*0D
$GPGGA,183650.000,3748.6318,N,12217.9979,W,1,05,2.9,4.3,M,-25.1,M,,0000*68
$GPGSA,A,3,13,10,07,20,04,,,,,,,,4.6,2.9,3.6*3C
$GPRMC,183650.000,A,3748.6318,N,12217.9979,W,2.56,203.51,140611,,,A*7F
$GPVTG,203.51,T,,M,2.56,N,4.7,K,A*0A
$GPGGA,183651.000,3748.6312,N,12217.9983,W,1,05,2.9,4.6,M,-25.1,M,,0000*63
$GPGSA,A,3,13,10,07,20,04,,,,,,,,4.6,2.9,3.6*3C
$GPRMC,183651.000,A,3748.6312,N,12217.9983,W,2.38,202.44,140611,,,A*7C
$GPVTG,202.44,T,,M,2.38,N,4.4,K,A*04
$GPGGA,183652.000,3748.6306,N,12217.9988,W,1,05,2.9,5.2,M,-25.1,M,,0000*6B
$GPGSA,A,3,13,10,07,20,04,,,,,,,,4.6,2.9,3.6*3C
$GPRMC,183652.000,A,3748.6306,N,12217.9988,W,2.40,207.19,140611,,,A*73
$GPVTG,207.19,T,,M,2.40,N,4.4,K,A*06
$GPGGA,183653.000,3748.6300,N,12217.9992,W,1,05,2.9,5.5,M,-25.1,M,,0000*60
$GPGSA,A,3,13,10,07,20,04,,,,,,,,4.6,2.9,3.6*3C
$GPGSV,3,1,12,23,70,020,26,20,54,183,34,16,50,085,22,13,49,315,33*71
$GPGSV,3,2,12,32,35,156,24,07,27,245,41,10,15,317,31,04,14,286,24*75
$GPGSV,3,3,12,03,06,123,,06,04,108,,08,03,236,16,31,01,055,*7C
$GPRMC,183653.000,A,3748.6300,N,12217.9992,W,2.43,210.13,140611,,,A*70
$GPVTG,210.13,T,,M,2.43,N,4.5,K,A*08
$GPGGA,183654.000,3748.6293,N,12217.9997,W,1,05,2.9,5.9,M,-25.1,M,,0000*65
$GPGSA,A,3,13,10,07,20,04,,,,,,,,4.6,2.9,3.6*3C
$GPRMC,183654.000,A,3748.6293,N,12217.9997,W,2.50,208.57,140611,,,A*72
$GPVTG,208.57,T,,M,2.50,N,4.6,K,A*00
$GPGGA,183655.000,3748.6286,N,12218.0004,W,1,05,2.9,7.0,M,-25.1,M,,0000*6E
$GPGSA,A,3,13,10,07,20,04,,,,,,,,4.6,2.9,3.6*3C
$GPRMC,183655.000,A,3748.6286,N,12218.0004,W,2.61,209.53,140611,,,A*75
$GPVTG,209.53,T,,M,2.61,N,4.8,K,A*09
$GPGGA,183656.000,3748.6280,N,12218.0010,W,1,05,2.9,7.9,M,-25.1,M,,0000*67
$GPGSA,A,3,13,10,07,20,04,,,,,,,,4.6,2.9,3.6*3C
$GPRMC,183656.000,A,3748.6280,N,12218.0010,W,2.06,209.79,140611,,,A*7C
$GPVTG,209.79,T,,M,2.06,N,3.8,K,A*07
$GPGGA,183657.000,3748.6273,N,12218.0014,W,1,05,2.9,8.8,M,-25.1,M,,0000*60
$GPGSA,A,3,13,10,07,20,04,,,,,,,,4.6,2.9,3.6*3C
$GPRMC,183657.000,A,3748.6273,N,12218.0014,W,2.17,206.53,140611,,,A*72
$GPVTG,206.53,T,,M,2.17,N,4.0,K,A*0F
$GPGGA,183658.000,3748.6268,N,12218.0030,W,1,05,2.9,11.2,M,-25.1,M,,0000*51
$GPGSA,A,3,13,10,07,20,04,,,,,,,,4.6,2.9,3.6*3C
$GPGSV,3,1,12,23,70,020,23,20,54,183,24,16,50,085,23,13,49,315,31*76
$GPGSV,3,2,12,32,35,156,17,07,27,245,34,10,15,317,18,04,14,286,25*7D
$GPGSV,3,3,12,03,06,123,,06,04,108,,08,03,236,16,31,01,055,*7C
$GPRMC,183658.000,A,3748.6268,N,12218.0030,W,2.14,225.24,140611,,,A*73
$GPVTG,225.24,T,,M,2.14,N,4.0,K,A*0D
$GPGGA,183659.000,3748.6262,N,12218.0044,W,1,05,2.9,12.4,M,-25.1,M,,0000*5C
$GPGSA,A,3,13,10,07,20,04,,,,,,,,4.6,2.9,3.6*3C
$GPRMC,183659.000,A,3748.6262,N,12218.0044,W,2.30,209.49,140611,,,A*78
$GPVTG,209.49,T,,M,2.30,N,4.3,K,A*0D
$GPGGA,183700.000,3748.6255,N,12218.0055,W,1,05,2.9,13.5,M,-25.1,M,,0000*55
$GPGSA,A,3,13,10,07,20,04,,,,,,,,4.6,2.9,3.6*3C
$GPRMC,183700.000,A,3748.6255,N,12218.0055,W,2.61,202.63,140611,,,A*76
$GPVTG,202.63,T,,M,2.61,N,4.8,K,A*01
$GPGGA,183701.000,3748.6250,N,12218.0078,W,1,05,2.9,15.8,M,-25.1,M,,0000*55
$GPGSA,A,3,13,10,07,20,04,,,,,,,,4.6,2.9,3.6*3C
$GPRMC,183701.000,A,3748.6250,N,12218.0078,W,2.67,220.20,140611,,,A*7C
$GPVTG,220.20,T,,M,2.67,N,5.0,K,A*09
$GPGGA,183702.000,3748.6244,N,12218.0097,W,1,05,2.9,18.3,M,-25.1,M,,0000*54
$GPGSA,A,3,13,10,07,20,04,,,,,,,,4.6,2.9,3.6*3C
$GPRMC,183702.000,A,3748.6244,N,12218.0097,W,2.69,216.52,140611,,,A*75
$GPVTG,216.52,T,,M,2.69,N,5.0,K,A*07
$GPGGA,183703.000,3748.6234,N,12218.0110,W,1,05,2.9,20.7,M,-25.1,M,,0000*53
$GPGSA,A,3,13,10,07,20,04,,,,,,,,4.6,2.9,3.6*3C
$GPGSV,3,1,12,23,70,020,27,20,54,183,31,16,50,085,22,13,49,315,34*72
$GPGSV,3,2,12,32,35,156,24,07,27,245,38,10,15,317,25,04,14,286,36*7D
$GPGSV,3,3,12,03,06,123,,06,04,108,,08,03,236,23,31,01,055,*7A
$GPRMC,183703.000,A,3748.6234,N,12218.0110,W,2.73,207.31,140611,,,A*73
$GPGGA,183704.000,3748.6224,N,12218.0118,W,1,05,2.9,22.5,M,-25.1,M,,0000*5D
$GPGSA,A,3,13,10,07,20,04,,,,,,,,4.6,2.9,3.6*3C
$GPRMC,183704.000,A,3748.6224,N,12218.0118,W,2.66,198.52,140611,,,A*79
$GPVTG,198.52,T,,M,2.66,N,4.9,K,A*05
$GPGGA,183705.000,3748.6212,N,12218.0119,W,1,05,2.9,22.2,M,-25.1,M,,0000*5F
$GPGSA,A,3,13,10,07,20,04,,,,,,,,4.6,2.9,3.6*3C
$GPRMC,183705.000,A,3748.6212,N,12218.0119,W,2.74,186.18,140611,,,A*7E
$GPVTG,186.18,T,,M,2.74,N,5.1,K,A*0E
$GPGGA,183706.000,3748.6202,N,12218.0115,W,1,05,2.9,21.9,M,-25.1,M,,0000*59
$GPGSA,A,3,13,10,07,20,04,,,,,,,,4.6,2.9,3.6*3C
$GPRMC,183706.000,A,3748.6202,N,12218.0115,W,2.13,151.93,140611,,,A*78
$GPVTG,151.93,T,,M,2.13,N,3.9,K,A*08
$GPGGA,183707.000,3748.6197,N,12218.0110,W,1,05,2.9,22.1,M,-25.1,M,,0000*59
$GPGSA,A,3,13,10,07,20,04,,,,,,,,4.6,2.9,3.6*3C
$GPRMC,183707.000,A,3748.6197,N,12218.0110,W,1.55,83.44,140611,,,A*46
$GPVTG,83.44,T,,M,1.55,N,2.9,K,A*3C
$GPGGA,183708.000,3748.6193,N,12218.0102,W,1,05,2.9,21.7,M,-25.1,M,,0000*54
$GPGSA,A,3,13,10,07,20,04,,,,,,,,4.6,2.9,3.6*3C
$GPGSV,3,1,12,23,70,020,22,20,54,183,35,16,50,085,22,13,49,315,22*74
$GPGSV,3,2,12,32,35,156,36,07,27,245,34,10,15,317,20,04,14,286,29*79
$GPGSV,3,3,12,03,06,123,40,06,04,108,,08,03,236,17,31,01,055,*79
$GPRMC,183708.000,A,3748.6193,N,12218.0102,W,1.77,73.88,140611,,,A*41
$GPVTG,73.88,T,,M,1.77,N,3.3,K,A*38
$GPGGA,183709.000,3748.6190,N,12218.0092,W,1,05,2.9,21.6,M,-25.1,M,,0000*5F
$GPGSA,A,3,13,10,07,20,04,,,,,,,,4.6,2.9,3.6*3C
$GPRMC,183709.000,A,3748.6190,N,12218.0092,W,2.18,71.77,140611,,,A*43
$GPVTG,71.77,T,,M,2.18,N,4.0,K,A*34
$GPGGA,183710.000,3748.6186,N,12218.0085,W,1,05,2.9,21.8,M,-25.1,M,,0000*58
$GPGSA,A,3,13,10,07,20,04,,,,,,,,4.6,2.9,3.6*3C
$GPRMC,183710.000,A,3748.6186,N,12218.0085,W,2.15,69.29,140611,,,A*45
$GPVTG,69.29,T,,M,2.15,N,4.0,K,A*3B
$GPGGA,183711.000,3748.6183,N,12218.0079,W,1,05,2.9,21.3,M,-25.1,M,,0000*54
$GPGSA,A,3,13,10,07,20,04,,,,,,,,4.6,2.9,3.6*3C
$GPRMC,183711.000,A,3748.6183,N,12218.0079,W,1.69,47.55,140611,,,A*4D
$GPVTG,47.55,T,,M,1.69,N,3.1,K,A*32
$GPGGA,183712.000,3748.6179,N,12218.0075,W,1,05,2.9,21.9,M,-25.1,M,,0000*54
$GPGSA,A,3,13,10,07,20,04,,,,,,,,4.6,2.9,3.6*3C
$GPRMC,183712.000,A,3748.6179,N,12218.0075,W,2.42,59.93,140611,,,A*48
$GPVTG,59.93,T,,M,2.42,N,4.5,K,A*3E
$GPGGA,183713.000,3748.6173,N,12218.0064,W,1,05,2.9,21.1,M,-25.1,M,,0000*57
$GPGSA,A,3,13,10,07,20,04,,,,,,,,4.6,2.9,3.6*3C
$GPGSV,3,1,12,23,70,020,22,20,54,183,35,16,50,085,25,13,49,315,22*73
$GPGSV,3,2,12,32,35,156,37,07,27,245,30,10,15,317,18,04,14,286,23*7D
$GPGSV,3,3,12,03,06,123,40,06,04,108,,08,03,236,19,31,01,055,*77
$GPRMC,183713.000,A,3748.6173,N,12218.0064,W,2.55,72.86,140611,,,A*48
$GPVTG,72.86,T,,M,2.55,N,4.7,K,A*37
$GPGGA,183714.000,3748.6171,N,12218.0052,W,1,05,2.9,20.9,M,-25.1,M,,0000*5E
$GPGSA,A,3,13,10,07,20,04,,,,,,,,4.6,2.9,3.6*3C
$GPRMC,183714.000,A,3748.6171,N,12218.0052,W,2.67,67.37,140611,,,A*47
$GPVTG,67.37,T,,M,2.67,N,4.9,K,A*36
$GPGGA,183715.000,3748.6168,N,12218.0042,W,1,05,2.9,20.4,M,-25.1,M,,0000*5B
$GPGSA,A,3,13,10,07,20,04,,,,,,,,4.6,2.9,3.6*3C
$GPRMC,183715.000,A,3748.6168,N,12218.0042,W,2.64,64.72,140611,,,A*4E
$GPVTG,64.72,T,,M,2.64,N,4.9,K,A*37
$GPGGA,183716.000,3748.6170,N,12218.0032,W,1,04,4.5,20.0,M,-25.1,M,,0000*59
$GPGSA,A,3,13,07,20,04,,,,,,,,,7.6,4.5,6.1*36
$GPRMC,183716.000,A,3748.6170,N,12218.0032,W,3.22,61.49,140611,,,A*4D
$GPVTG,61.49,T,,M,3.22,N,6.0,K,A*32
$GPGGA,183717.000,3748.6164,N,12218.0027,W,1,05,2.9,20.6,M,-25.1,M,,0000*54
$GPGSA,A,3,13,10,07,20,04,,,,,,,,4.6,2.9,3.6*3C
$GPRMC,183717.000,A,3748.6164,N,12218.0027,W,2.81,61.78,140611,,,A*47
$GPVTG,61.78,T,,M,2.81,N,5.2,K,A*39
$GPGGA,183718.000,3748.6163,N,12218.0015,W,1,04,4.5,19.6,M,-25.1,M,,0000*5C
$GPGSA,A,3,13,07,20,04,,,,,,,,,7.6,4.5,6.1*36
$GPGSV,3,1,12,23,70,021,29,20,54,182,35,16,50,085,31,13,50,315,21*76
$GPGSV,3,2,12,32,35,156,38,07,28,246,36,10,15,317,17,04,14,286,23*77
$GPGSV,3,3,12,03,06,123,40,06,04,108,,08,04,236,08,31,01,055,*70
$GPRMC,183718.000,A,3748.6163,N,12218.0015,W,2.80,80.49,140611,,,A*42
$GPGGA,183719.000,3748.6152,N,12218.0008,W,2,05,2.9,18.3,M,-25.1,M,1.8,0000*78
$GPGSA,A,3,13,10,07,20,04,,,,,,,,4.6,2.9,3.6*3C
$GPRMC,183719.000,A,3748.6152,N,12218.0008,W,2.49,100.89,140611,,,D*78
$GPVTG,100.89,T,,M,2.49,N,4.6,K,D*05
$GPGGA,183720.000,3748.6142,N,12217.9993,W,2,05,2.9,15.4,M,-25.1,M,1.8,0000*74
$GPGSA,A,3,13,10,07,20,04,,,,,,,,4.6,2.9,3.6*3C
$GPRMC,183720.000,A,3748.6142,N,12217.9993,W,2.56,111.54,140611,,,D*70
$GPVTG,111.54,T,,M,2.56,N,4.7,K,D*0A
$GPGGA,183721.000,3748.6140,N,12217.9979,W,2,04,4.5,13.9,M,-25.1,M,2.8,0000*70
$GPGSA,A,3,13,07,20,04,,,,,,,,,7.5,4.5,6.0*34
$GPRMC,183721.000,A,3748.6140,N,12217.9979,W,2.82,98.12,140611,,,D*4C
$GPVTG,98.12,T,,M,2.82,N,5.2,K,D*35
$GPGGA,183722.000,3748.6138,N,12217.9967,W,2,04,4.5,13.6,M,-25.1,M,3.8,0000*7D
$GPGSA,A,3,13,07,20,04,,,,,,,,,7.5,4.5,6.0*34
$GPRMC,183722.000,A,3748.6138,N,12217.9967,W,2.97,105.37,140611,,,D*79
$GPVTG,105.37,T,,M,2.97,N,5.5,K,D*04
$GPGGA,183723.000,3748.6132,N,12217.9952,W,2,04,4.5,12.4,M,-25.1,M,4.8,0000*74
$GPGSA,A,3,13,07,20,04,,,,,,,,,7.5,4.5,6.0*34
$GPGSV,3,1,12,23,70,021,29,20,54,182,35,16,50,085,32,13,50,315,22*76
$GPGSV,3,2,12,32,35,156,38,07,28,246,34,10,15,317,17,04,14,286,24*72
$GPGSV,3,3,12,03,06,123,39,06,04,108,22,08,04,236,,31,01,055,*76
$GPRMC,183723.000,A,3748.6132,N,12217.9952,W,3.45,91.46,140611,,,D*40
$GPVTG,91.46,T,,M,3.45,N,6.4,K,D*32
$GPGGA,183724.000,3748.6124,N,12217.9936,W,2,04,4.5,10.8,M,-25.1,M,1.8,0000*7D
$GPGSA,A,3,13,07,20,04,,,,,,,,,7.5,4.5,6.0*34
$GPRMC,183724.000,A,3748.6124,N,12217.9936,W,3.64,89.38,140611,,,D*41
$GPVTG,89.38,T,,M,3.64,N,6.7,K,D*32
$GPGGA,183725.000,3748.6120,N,12217.9922,W,2,04,4.5,9.9,M,-25.1,M,2.8,0000*47
$GPGSA,A,3,13,07,20,04,,,,,,,,,7.5,4.5,6.0*34
$GPRMC,183725.000,A,3748.6120,N,12217.9922,W,3.55,79.81,140611,,,D*4E
$GPVTG,79.81,T,,M,3.55,N,6.6,K,D*3C
$GPGGA,183726.000,3748.6115,N,12217.9907,W,2,04,4.5,8.6,M,-25.1,M,3.8,0000*4A
$GPGSA,A,3,13,07,20,04,,,,,,,,,7.5,4.5,6.0*34
$GPRMC,183726.000,A,3748.6115,N,12217.9907,W,4.00,77.05,140611,,,D*49
$GPVTG,77.05,T,,M,4.00,N,7.4,K,D*3A
$GPGGA,183727.000,3748.6111,N,12217.9893,W,2,04,4.5,7.6,M,-25.1,M,4.8,0000*4B
$GPGSA,A,3,13,07,20,04,,,,,,,,,7.5,4.5,6.0*34
$GPRMC,183727.000,A,3748.6111,N,12217.9893,W,4.44,64.25,140611,,,D*40
$GPVTG,64.25,T,,M,4.44,N,8.2,K,D*33
$GPGGA,183728.000,3748.6102,N,12217.9877,W,2,04,4.5,4.7,M,-25.1,M,5.8,0000*4F
$GPGSA,A,3,13,07,20,04,,,,,,,,,7.5,4.5,6.0*34
$GPGSV,3,1,12,23,70,021,29,20,54,182,35,16,50,085,33,13,50,315,21*74
$GPGSV,3,2,12,32,35,156,38,07,28,246,33,10,15,317,16,04,14,286,24*74
$GPGSV,3,3,12,03,06,123,40,06,04,108,15,08,04,236,,31,01,055,*7C
$GPRMC,183728.000,A,3748.6102,N,12217.9877,W,3.52,86.71,140611,,,D*4A
$GPVTG,86.71,T,,M,3.52,N,6.5,K,D*37
$GPGGA,183729.000,3748.6101,N,12217.9868,W,2,04,4.5,5.3,M,-25.1,M,1.8,0000*42
$GPGSA,A,3,13,07,20,04,,,,,,,,,7.5,4.5,6.0*34
$GPRMC,183729.000,A,3748.6101,N,12217.9868,W,3.28,85.79,140611,,,D*40
$GPVTG,85.79,T,,M,3.28,N,6.1,K,D*35
$GPGGA,183730.000,3748.6099,N,12217.9859,W,2,04,4.5,5.7,M,-25.1,M,1.8,0000*4C
$GPGSA,A,3,13,07,20,04,,,,,,,,,7.5,4.5,6.0*34
$GPRMC,183730.000,A,3748.6099,N,12217.9859,W,3.69,75.05,140611,,,D*4B
$GPVTG,75.05,T,,M,3.69,N,6.8,K,D*3D
$GPGGA,183731.000,3748.6100,N,12217.9851,W,2,04,4.5,6.5,M,-25.1,M,1.8,0000*45
$GPGSA,A,3,13,07,20,04,,,,,,,,,7.5,4.5,6.0*34
$GPRMC,183731.000,A,3748.6100,N,12217.9851,W,3.52,69.56,140611,,,D*40
$GPVTG,69.56,T,,M,3.52,N,6.5,K,D*33
$GPGGA,183732.000,3748.6091,N,12217.9852,W,2,05,2.9,7.8,M,-25.1,M,1.8,0000*4B
$GPGSA,A,3,13,10,07,20,04,,,,,,,,4.6,2.9,3.6*3C
$GPRMC,183732.000,A,3748.6091,N,12217.9852,W,3.50,74.93,140611,,,D*4E
$GPVTG,74.93,T,,M,3.50,N,6.5,K,D*34
$GPGGA,183733.000,3748.6084,N,12217.9835,W,2,06,1.4,5.0,M,-25.1,M,2.8,0000*4B
$GPGSA,A,3,03,13,10,07,20,04,,,,,,,2.1,1.4,1.6*32
$GPGSV,3,1,12,23,70,021,29,20,54,182,35,16,50,085,34,13,50,315,22*70
$GPGSV,3,2,12,32,35,156,38,07,28,246,28,10,15,317,17,04,14,286,24*7F
$GPGSV,3,3,12,03,06,123,40,06,04,108,18,08,04,236,,31,01,055,*71
$GPRMC,183733.000,A,3748.6084,N,12217.9835,W,2.40,80.14,140611,,,D*4E
$GPGGA,183734.000,3748.6083,N,12217.9821,W,2,06,1.4,3.8,M,-25.1,M,1.8,0000*43
$GPGSA,A,3,03,13,10,07,20,04,,,,,,,2.1,1.4,1.6*32
$GPRMC,183734.000,A,3748.6083,N,12217.9821,W,2.09,88.62,140611,,,D*4F
$GPVTG,88.62,T,,M,2.09,N,3.9,K,D*3D
$GPGGA,183735.000,3748.6084,N,12217.9809,W,2,06,1.4,4.0,M,-25.1,M,2.8,0000*43
$GPGSA,A,3,03,13,10,07,20,04,,,,,,,2.1,1.4,1.6*32
$GPRMC,183735.000,A,3748.6084,N,12217.9809,W,2.23,98.07,140611,,,D*49
$GPVTG,98.07,T,,M,2.23,N,4.1,K,D*38
$GPGGA,183736.000,3748.6080,N,12217.9802,W,2,06,1.4,5.2,M,-25.1,M,1.8,0000*4F
$GPGSA,A,3,03,13,10,07,20,04,,,,,,,2.1,1.4,1.6*32
$GPRMC,183736.000,A,3748.6080,N,12217.9802,W,2.21,87.14,140611,,,D*4B
$GPVTG,87.14,T,,M,2.21,N,4.1,K,D*36
$GPGGA,183737.000,3748.6084,N,12217.9792,W,2,06,1.4,6.2,M,-25.1,M,1.8,0000*4F
$GPGSA,A,3,03,13,10,07,20,04,,,,,,,2.1,1.4,1.6*32
$GPRMC,183737.000,A,3748.6084,N,12217.9792,W,3.07,54.15,140611,,,D*42
$GPVTG,54.15,T,,M,3.07,N,5.7,K,D*3B
$GPGGA,183738.000,3748.6081,N,12217.9782,W,2,06,1.4,5.8,M,-25.1,M,1.8,0000*4D
$GPGSA,A,3,03,13,10,07,20,04,,,,,,,2.1,1.4,1.6*32
$GPGSV,3,1,12,23,70,021,29,20,54,182,35,16,50,085,34,13,50,315,22*70
$GPGSV,3,2,12,32,35,156,38,07,28,246,31,10,15,317,23,04,14,286,24*70
$GPGSV,3,3,12,03,06,123,32,06,05,108,18,08,04,237,,31,00,055,*75
$GPRMC,183738.000,A,3748.6081,N,12217.9782,W,2.32,61.81,140611,,,D*45
$GPVTG,61.81,T,,M,2.32,N,4.3,K,D*32
$GPGGA,183739.000,3748.6076,N,12217.9775,W,2,06,1.4,5.4,M,-25.1,M,2.8,0000*43
$GPGSA,A,3,03,13,10,07,20,04,,,,,,,2.1,1.4,1.6*32
$GPRMC,183739.000,A,3748.6076,N,12217.9775,W,2.26,93.57,140611,,,D*47
$GPVTG,93.57,T,,M,2.26,N,4.2,K,D*30
$GPGGA,183740.000,3748.6066,N,12217.9768,W,2,06,1.4,4.8,M,-25.1,M,3.8,0000*4C
$GPGSA,A,3,03,13,10,07,20,04,,,,,,,2.1,1.4,1.6*32
$GPRMC,183740.000,A,3748.6066,N,12217.9768,W,2.30,88.51,140611,,,D*4F
$GPVTG,88.51,T,,M,2.30,N,4.3,K,D*3A
$GPGGA,183741.000,3748.6063,N,12217.9759,W,2,06,1.4,6.0,M,-25.1,M,4.8,0000*47
$GPGSA,A,3,03,13,10,07,20,04,,,,,,,2.1,1.4,1.6*32
$GPRMC,183741.000,A,3748.6063,N,12217.9759,W,2.51,93.90,140611,,,D*49
$GPVTG,93.90,T,,M,2.51,N,4.6,K,D*3F
$GPGGA,183742.000,3748.6052,N,12217.9750,W,2,06,1.4,6.3,M,-25.1,M,1.8,0000*49
$GPGSA,A,3,03,13,10,07,20,04,,,,,,,2.1,1.4,1.6*32
$GPRMC,183742.000,A,3748.6052,N,12217.9750,W,2.97,81.69,140611,,,D*4E
$GPVTG,81.69,T,,M,2.97,N,5.5,K,D*32
$GPGGA,183743.000,3748.6047,N,12217.9740,W,2,06,1.4,6.6,M,-25.1,M,1.8,0000*48
$GPGSA,A,3,03,13,10,07,20,04,,,,,,,2.1,1.4,1.6*32
$GPGSV,3,1,12,23,70,021,29,20,54,182,35,16,50,085,34,13,50,315,22*70
$GPGSV,3,2,12,32,35,156,38,07,28,246,32,10,15,317,21,04,14,286,24*71
$GPGSV,3,3,12,03,06,123,23,06,05,108,18,08,04,237,,31,00,055,*75
$GPRMC,183743.000,A,3748.6047,N,12217.9740,W,2.70,76.68,140611,,,D*4A
$GPVTG,76.68,T,,M,2.70,N,5.0,K,D*37
$GPGGA,183744.000,3748.6052,N,12217.9729,W,2,06,1.4,8.0,M,-25.1,M,1.8,0000*4C
$GPGSA,A,3,03,13,10,07,20,04,,,,,,,2.1,1.4,1.6*32
$GPRMC,183744.000,A,3748.6052,N,12217.9729,W,3.37,69.11,140611,,,D*44
$GPVTG,69.11,T,,M,3.37,N,6.2,K,D*34
$GPGGA,183745.000,3748.6053,N,12217.9718,W,2,06,1.4,8.7,M,-25.1,M,1.8,0000*49
$GPGSA,A,3,03,13,10,07,20,04,,,,,,,2.1,1.4,1.6*32
$GPRMC,183745.000,A,3748.6053,N,12217.9718,W,3.32,57.39,140611,,,D*44
$GPVTG,57.39,T,,M,3.32,N,6.1,K,D*35
$GPGGA,183746.000,3748.6049,N,12217.9710,W,2,06,1.4,8.0,M,-25.1,M,1.8,0000*4E
$GPGSA,A,3,03,13,10,07,20,04,,,,,,,2.1,1.4,1.6*32
$GPRMC,183746.000,A,3748.6049,N,12217.9710,W,3.57,60.79,140611,,,D*47
$GPVTG,60.79,T,,M,3.57,N,6.6,K,D*31
$GPGGA,183747.000,3748.6044,N,12217.9700,W,2,06,1.4,6.9,M,-25.1,M,2.8,0000*47
$GPGSA,A,3,03,13,10,07,20,04,,,,,,,2.1,1.4,1.6*32
$GPRMC,183747.000,A,3748.6044,N,12217.9700,W,3.99,58.38,140611,,,D*46
$GPVTG,58.38,T,,M,3.99,N,7.4,K,D*3E
$GPGGA,183748.000,3748.6042,N,12217.9691,W,2,06,1.4,6.1,M,-25.1,M,3.8,0000*4E
