$ADVER,3080,2.3
$GPRMC,202121.648,A,3748.7770,N,12217.8643,W,0.00,,140611,,,A*68
$GPGGA,202122.648,3748.7858,N,12217.8652,W,1,07,2.0,25.3,M,-25.1,M,,0000*5B
$GPGSA,A,3,13,23,03,10,07,08,06,,,,,,3.0,2.0,2.2*3B
$GPRMC,202122.648,A,3748.7858,N,12217.8652,W,0.80,71.54,140611,,,A*4F
$GPVTG,71.54,T,,M,0.80,N,1.5,K,A*36
$GPGGA,202123.648,3748.8003,N,12217.8571,W,1,09,1.0,23.0,M,-25.1,M,,0000*59
$GPGSA,A,3,13,23,03,10,07,08,06,16,20,,,,1.8,1.0,1.5*33
$GPRMC,202123.648,A,3748.8003,N,12217.8571,W,0.23,69.46,140611,,,A*46
$GPVTG,69.46,T,,M,0.23,N,0.4,K,A*35
$GPGGA,202124.000,3748.7997,N,12217.8566,W,1,09,1.0,19.5,M,-25.1,M,,0000*55
$GPGSA,A,3,13,23,03,10,07,08,06,16,20,,,,1.8,1.0,1.5*33
$GPRMC,202124.000,A,3748.7997,N,12217.8566,W,0.29,93.41,140611,,,A*4E
$GPVTG,93.41,T,,M,0.29,N,0.5,K,A*3C
$GPGGA,202125.000,3748.7983,N,12217.8573,W,1,08,1.0,15.4,M,-25.1,M,,0000*59
$GPGSA,A,3,13,23,03,10,07,08,16,20,,,,,1.9,1.0,1.6*37
$GPGSV,3,1,12,13,75,076,32,07,59,302,25,23,44,119,27,10,43,278,25*74
$GPGSV,3,2,12,08,35,274,25,03,27,079,23,16,21,042,27,06,19,064,14*74
$GPGSV,3,3,12,20,07,174,25,19,20,111,29,28,11,210,25,05,10,321,*70
$GPRMC,202125.000,A,3748.7983,N,12217.8573,W,0.08,303.63,140611,,,A*77
$GPVTG,303.63,T,,M,0.08,N,0.1,K,A*01
$GPGGA,202126.000,3748.7991,N,12217.8574,W,1,09,1.0,11.9,M,-25.1,M,,0000*56
$GPGSA,A,3,13,23,03,10,07,08,06,16,20,,,,1.8,1.0,1.5*33
$GPRMC,202126.000,A,3748.7991,N,12217.8574,W,0.30,359.24,140611,,,A*77
$GPVTG,359.24,T,,M,0.30,N,0.6,K,A*01
$GPGGA,202127.000,3748.8002,N,12217.8573,W,1,09,1.0,9.5,M,-25.1,M,,0000*69
$GPGSA,A,3,13,23,03,10,07,08,06,16,20,,,,1.8,1.0,1.5*33
$GPRMC,202127.000,A,3748.8002,N,12217.8573,W,0.29,53.33,140611,,,A*4A
$GPVTG,53.33,T,,M,0.29,N,0.5,K,A*35
$GPGGA,202128.000,3748.7998,N,12217.8574,W,1,09,1.0,10.3,M,-25.1,M,,0000*5A
$GPGSA,A,3,13,23,03,10,07,08,06,16,20,,,,1.8,1.0,1.5*33
$GPRMC,202128.000,A,3748.7998,N,12217.8574,W,0.21,129.95,140611,,,A*7F
$GPVTG,129.95,T,,M,0.21,N,0.4,K,A*0C
$GPGGA,202129.000,3748.8001,N,12217.8571,W,1,09,1.0,10.3,M,-25.1,M,,0000*58
$GPGSA,A,3,13,23,03,10,07,08,06,16,20,,,,1.8,1.0,1.5*33
$GPRMC,202129.000,A,3748.8001,N,12217.8571,W,0.02,262.09,140611,,,A*75
$GPVTG,262.09,T,,M,0.02,N,0.0,K,A*00
$GPGGA,202130.000,3748.7997,N,12217.8577,W,1,09,1.0,12.0,M,-25.1,M,,0000*5E
$GPGSA,A,3,13,23,03,10,07,08,06,16,20,,,,1.8,1.0,1.5*33
$GPGSV,3,1,12,13,75,076,33,07,59,302,29,23,44,119,28,10,43,278,25*76
$GPGSV,3,2,12,08,35,274,24,03,27,079,28,16,21,042,36,06,19,064,27*7E
$GPGSV,3,3,12,20,07,174,26,19,20,111,31,28,11,210,25,05,10,321,*7A
$GPRMC,202130.000,A,3748.7997,N,12217.8577,W,0.13,93.82,140611,,,A*4D
$GPVTG,93.82,T,,M,0.13,N,0.2,K,A*3D
$GPGGA,202131.000,3748.7988,N,12217.8575,W,1,09,1.0,12.1,M,-25.1,M,,0000*52
$GPGSA,A,3,13,23,03,10,07,08,06,16,20,,,,1.8,1.0,1.5*33
$GPRMC,202131.000,A,3748.7988,N,12217.8575,W,0.08,335.03,140611,,,A*7C
$GPVTG,335.03,T,,M,0.08,N,0.1,K,A*02
$GPGGA,202132.000,3748.7990,N,12217.8572,W,1,09,1.0,11.9,M,-25.1,M,,0000*54
$GPGSA,A,3,13,23,03,10,07,08,06,16,20,,,,1.8,1.0,1.5*33
$GPRMC,202132.000,A,3748.7990,N,12217.8572,W,0.11,84.95,140611,,,A*4F
$GPVTG,84.95,T,,M,0.11,N,0.2,K,A*3F
$GPGGA,202133.000,3748.7984,N,12217.8583,W,1,09,1.0,9.2,M,-25.1,M,,0000*6C
$GPGSA,A,3,13,23,03,10,07,08,06,16,20,,,,1.8,1.0,1.5*33
$GPRMC,202133.000,A,3748.7984,N,12217.8583,W,0.36,234.54,140611,,,A*74
$GPVTG,234.54,T,,M,0.36,N,0.7,K,A*0B
$GPGGA,202134.000,3748.7982,N,12217.8592,W,1,09,1.0,7.7,M,-25.1,M,,0000*66
$GPGSA,A,3,13,23,03,10,07,08,06,16,20,,,,1.8,1.0,1.5*33
$GPRMC,202134.000,A,3748.7982,N,12217.8592,W,0.29,15.59,140611,,,A*47
$GPVTG,15.59,T,,M,0.29,N,0.5,K,A*3B
$GPGGA,202135.000,3748.7983,N,12217.8596,W,1,09,1.0,6.6,M,-25.1,M,,0000*62
$GPGSA,A,3,13,23,03,10,07,08,06,16,20,,,,1.8,1.0,1.5*33
$GPGSV,3,1,12,13,75,076,38,07,59,302,38,23,44,119,36,10,43,278,39*7F
$GPGSV,3,2,12,08,35,274,38,03,27,079,36,16,21,042,38,06,19,064,35*71
$GPGSV,3,3,12,20,07,174,30,19,20,111,32,28,11,210,33,05,10,321,*79
$GPRMC,202135.000,A,3748.7983,N,12217.8596,W,0.78,133.26,140611,,,A*7A
$GPVTG,133.26,T,,M,0.78,N,1.4,K,A*02
$GPGGA,202136.000,3748.7982,N,12217.8597,W,1,08,1.0,6.5,M,-25.1,M,,0000*63
$GPGSA,A,3,23,03,10,07,08,06,16,20,,,,,2.2,1.0,2.0*3E
$GPRMC,202136.000,A,3748.7982,N,12217.8597,W,0.60,133.66,140611,,,A*74
$GPVTG,133.66,T,,M,0.60,N,1.1,K,A*0A
$GPGGA,202137.000,3748.7984,N,12217.8600,W,1,08,1.0,7.7,M,-25.1,M,,0000*6A
$GPGSA,A,3,23,03,10,07,08,06,16,20,,,,,2.2,1.0,2.0*3E
$GPRMC,202137.000,A,3748.7984,N,12217.8600,W,0.20,328.12,140611,,,A*71
$GPVTG,328.12,T,,M,0.20,N,0.4,K,A*01
$GPGGA,202138.000,3748.7990,N,12217.8601,W,1,08,1.0,8.3,M,-25.1,M,,0000*6A
$GPGSA,A,3,23,03,10,07,08,06,16,20,,,,,2.2,1.0,2.0*3E
$GPRMC,202138.000,A,3748.7990,N,12217.8601,W,0.13,282.03,140611,,,A*7B
$GPVTG,282.03,T,,M,0.13,N,0.2,K,A*06
$GPGGA,202139.000,3748.7997,N,12217.8603,W,1,08,1.0,8.4,M,-25.1,M,,0000*69
$GPGSA,A,3,23,03,10,07,08,06,16,20,,,,,2.2,1.0,2.0*3E
$GPRMC,202139.000,A,3748.7997,N,12217.8603,W,0.20,332.24,140611,,,A*70
$GPVTG,332.24,T,,M,0.20,N,0.4,K,A*0F
$GPGGA,202140.000,3748.8004,N,12217.8602,W,1,08,1.0,8.4,M,-25.1,M,,0000*6A
$GPGSA,A,3,23,03,10,07,08,06,16,20,,,,,2.2,1.0,2.0*3E
$GPGSV,3,1,12,13,75,076,,07,59,302,34,23,44,119,20,10,43,278,34*72
$GPGSV,3,2,12,08,35,274,41,03,27,079,24,16,21,042,25,06,19,064,26*72
$GPGSV,3,3,12,20,07,174,34,19,20,111,17,28,11,210,30,05,10,321,*79
$GPVTG,48.31,T,,M,0.21,N,0.4,K,A*34
$GPGGA,202141.000,3748.8009,N,12217.8598,W,1,08,1.0,8.2,M,-25.1,M,,0000*60
$GPGSA,A,3,23,03,10,07,08,06,16,20,,,,,2.2,1.0,2.0*3E
$GPRMC,202141.000,A,3748.8009,N,12217.8598,W,0.30,39.18,140611,,,A*49
$GPVTG,39.18,T,,M,0.30,N,0.6,K,A*3B
$GPGGA,202142.000,3748.8017,N,12217.8596,W,1,08,1.0,7.8,M,-25.1,M,,0000*67
$GPGSA,A,3,23,03,10,07,08,06,16,20,,,,,2.2,1.0,2.0*3E
$GPRMC,202142.000,A,3748.8017,N,12217.8596,W,0.50,41.52,140611,,,A*4C
$GPVTG,41.52,T,,M,0.50,N,0.9,K,A*33
$GPGGA,202143.000,3748.8025,N,12217.8597,W,1,09,1.0,6.1,M,-25.1,M,,0000*6F
$GPGSA,A,3,13,23,03,10,07,08,06,16,20,,,,1.8,1.0,1.5*33
$GPRMC,202143.000,A,3748.8025,N,12217.8597,W,0.29,350.70,140611,,,A*70
$GPVTG,350.70,T,,M,0.29,N,0.5,K,A*02
$GPGGA,202144.000,3748.8024,N,12217.8600,W,1,09,1.0,7.3,M,-25.1,M,,0000*67
$GPGSA,A,3,13,23,03,10,07,08,06,16,20,,,,1.8,1.0,1.5*33
$GPRMC,202144.000,A,3748.8024,N,12217.8600,W,0.39,64.28,140611,,,A*43
$GPVTG,64.28,T,,M,0.39,N,0.7,K,A*38
$GPGGA,202145.000,3748.8033,N,12217.8606,W,1,09,1.0,6.0,M,-25.1,M,,0000*64
$GPGSA,A,3,13,23,03,10,07,08,06,16,20,,,,1.8,1.0,1.5*33
$GPGSV,3,1,12,13,75,076,20,07,59,302,34,23,44,119,28,10,43,278,35*79
$GPGSV,3,2,12,08,35,274,40,03,27,079,21,16,21,042,24,06,19,064,21*70
$GPGSV,3,3,12,20,07,174,34,19,20,111,19,28,11,210,30,05,10,321,*77
$GPRMC,202145.000,A,3748.8033,N,12217.8606,W,0.12,349.01,140611,,,A*7C
$GPVTG,349.01,T,,M,0.12,N,0.2,K,A*03
$GPGGA,202146.000,3748.8039,N,12217.8609,W,1,06,2.1,4.1,M,-25.1,M,,0000*6C
$GPGSA,A,3,23,03,10,07,08,06,,,,,,,4.0,2.1,3.4*38
$GPRMC,202146.000,A,3748.8039,N,12217.8609,W,0.39,26.26,140611,,,A*4C
$GPVTG,26.26,T,,M,0.39,N,0.7,K,A*30
$GPGGA,202147.000,3748.8044,N,12217.8611,W,1,05,2.5,2.5,M,-25.1,M,,0000*6B
$GPGSA,A,3,23,03,10,07,08,,,,,,,,4.5,2.5,3.7*3C
$GPRMC,202147.000,A,3748.8044,N,12217.8611,W,0.89,53.75,140611,,,A*41
$GPVTG,53.75,T,,M,0.89,N,1.6,K,A*3F
$GPGGA,202148.000,3748.8041,N,12217.8609,W,1,06,2.4,2.1,M,-25.1,M,,0000*6E
$GPGSA,A,3,23,03,10,07,08,13,,,,,,,3.4,2.4,2.5*3A
$GPRMC,202148.000,A,3748.8041,N,12217.8609,W,0.10,20.12,140611,,,A*47
$GPVTG,20.12,T,,M,0.10,N,0.2,K,A*3F
$GPGGA,202149.000,3748.8036,N,12217.8609,W,1,07,1.8,2.6,M,-25.1,M,,0000*66
$GPGSA,A,3,16,23,03,10,07,08,06,,,,,,3.8,1.8,3.4*3A
$GPRMC,202149.000,A,3748.8036,N,12217.8609,W,0.08,268.20,140611,,,A*70
$GPVTG,268.20,T,,M,0.08,N,0.1,K,A*0A
$GPGGA,202150.000,3748.8033,N,12217.8611,W,1,07,1.8,4.1,M,-25.1,M,,0000*63
$GPGSA,A,3,16,23,03,10,07,08,06,,,,,,3.8,1.8,3.4*3A
$GPGSV,3,1,12,13,75,076,,07,59,303,25,23,44,119,27,10,43,278,26*77
$GPGSV,3,2,12,08,35,274,26,03,27,078,32,16,21,042,29,19,20,111,29*71
$GPGSV,3,3,12,06,19,064,25,28,11,211,23,05,10,321,44,20,07,174,*7B
$GPRMC,202150.000,A,3748.8033,N,12217.8611,W,0.50,10.55,140611,,,A*46
$GPVTG,10.55,T,,M,0.50,N,0.9,K,A*30
$GPGGA,202151.000,3748.8027,N,12217.8615,W,1,05,1.5,4.3,M,-25.1,M,,0000*6E
$GPGSA,A,3,16,23,03,10,08,,,,,,,,1.8,1.5,1.0*32
$GPRMC,202151.000,A,3748.8027,N,12217.8615,W,0.15,237.13,140611,,,A*72
$GPVTG,237.13,T,,M,0.15,N,0.3,K,A*0E
$GPGGA,202152.000,3748.8021,N,12217.8620,W,1,06,1.8,3.9,M,-25.1,M,,0000*6E
$GPGSA,A,3,16,23,03,10,07,08,,,,,,,4.0,1.8,3.6*31
$GPRMC,202152.000,A,3748.8021,N,12217.8620,W,0.20,228.70,140611,,,A*7C
$GPVTG,228.70,T,,M,0.20,N,0.4,K,A*04
$GPGGA,202153.000,3748.8018,N,12217.8624,W,1,06,1.8,3.0,M,-25.1,M,,0000*68
$GPGSA,A,3,16,23,03,10,07,08,,,,,,,4.0,1.8,3.6*31
$GPRMC,202153.000,A,3748.8018,N,12217.8624,W,0.27,187.37,140611,,,A*71
$GPVTG,187.37,T,,M,0.27,N,0.5,K,A*07
$GPGGA,202154.000,3748.8019,N,12217.8629,W,1,07,1.8,1.7,M,-25.1,M,,0000*67
$GPGSA,A,3,16,23,03,10,07,08,06,,,,,,3.8,1.8,3.4*3A
$GPRMC,202154.000,A,3748.8019,N,12217.8629,W,0.45,220.98,140611,,,A*75
$GPVTG,220.98,T,,M,0.45,N,0.8,K,A*05
$GPGGA,202155.000,3748.8012,N,12217.8634,W,1,07,1.8,2.5,M,-25.1,M,,0000*60
$GPGSA,A,3,16,23,03,10,07,08,06,,,,,,3.8,1.8,3.4*3A
$GPGSV,3,1,12,13,75,076,,07,59,303,31,23,44,119,24,10,43,278,34*72
$GPGSV,3,2,12,08,35,274,27,03,27,078,28,16,21,042,25,19,20,111,30*7F
$GPGSV,3,3,12,06,19,064,28,28,11,211,22,05,10,321,25,20,07,174,*70
$GPVTG,220.17,T,,M,0.51,N,0.9,K,A*06
$GPGGA,202156.000,3748.8006,N,12217.8633,W,1,07,1.8,5.6,M,-25.1,M,,0000*65
$GPGSA,A,3,16,23,03,10,07,08,06,,,,,,3.8,1.8,3.4*3A
$GPRMC,202156.000,A,3748.8006,N,12217.8633,W,0.57,148.42,140611,,,A*7B
$GPVTG,148.42,T,,M,0.57,N,1.1,K,A*04
$GPGGA,202157.000,3748.8006,N,12217.8632,W,1,08,1.6,7.5,M,-25.1,M,,0000*65
$GPGSA,A,3,16,23,03,10,07,08,06,13,,,,,2.7,1.6,2.2*3F
$GPRMC,202157.000,A,3748.8006,N,12217.8632,W,0.61,14.84,140611,,,A*4C
$GPVTG,14.84,T,,M,0.61,N,1.1,K,A*33
$GPGGA,202158.000,3748.8004,N,12217.8634,W,1,08,1.6,9.2,M,-25.1,M,,0000*67
$GPGSA,A,3,16,23,03,10,07,08,06,13,,,,,2.7,1.6,2.2*3F
$GPRMC,202158.000,A,3748.8004,N,12217.8634,W,1.04,157.86,140611,,,A*71
$GPVTG,157.86,T,,M,1.04,N,1.9,K,A*0D
$GPGGA,202159.000,3748.8005,N,12217.8631,W,1,08,1.6,10.6,M,-25.1,M,,0000*5E
$GPGSA,A,3,16,23,03,10,07,08,06,13,,,,,2.7,1.6,2.2*3F
$GPRMC,202159.000,A,3748.8005,N,12217.8631,W,0.20,171.93,140611,,,A*73
$GPVTG,171.93,T,,M,0.20,N,0.4,K,A*06
$GPGGA,202200.000,3748.8006,N,12217.8628,W,1,08,1.6,11.2,M,-25.1,M,,0000*5F
$GPGSA,A,3,16,23,03,10,07,08,06,13,,,,,2.7,1.6,2.2*3F
$GPGSV,3,1,12,13,75,076,29,07,59,303,30,23,44,119,32,10,43,278,28*72
$GPGSV,3,2,12,08,35,274,28,03,27,078,28,16,21,042,31,19,20,111,34*71
$GPGSV,3,3,12,06,19,064,27,28,11,211,27,05,10,321,27,20,07,174,*78
$GPRMC,202200.000,A,3748.8006,N,12217.8628,W,0.30,60.14,140611,,,A*48
$GPVTG,60.14,T,,M,0.30,N,0.6,K,A*3B
$GPGGA,202201.000,3748.8004,N,12217.8628,W,1,08,1.6,10.7,M,-25.1,M,,0000*58
$GPGSA,A,3,16,23,03,10,07,08,06,13,,,,,2.7,1.6,2.2*3F
$GPRMC,202201.000,A,3748.8004,N,12217.8628,W,0.50,349.89,140611,,,A*71
$GPVTG,349.89,T,,M,0.50,N,0.9,K,A*0E
$GPGGA,202202.000,3748.8003,N,12217.8627,W,1,08,1.6,9.9,M,-25.1,M,,0000*65
$GPGSA,A,3,16,23,03,10,07,08,06,13,,,,,2.7,1.6,2.2*3F
$GPRMC,202202.000,A,3748.8003,N,12217.8627,W,1.21,141.98,140611,,,A*77
$GPVTG,141.98,T,,M,1.21,N,2.2,K,A*0A
$GPGGA,202203.000,3748.7999,N,12217.8625,W,1,08,1.6,10.3,M,-25.1,M,,0000*51
$GPGSA,A,3,16,23,03,10,07,08,06,13,,,,,2.7,1.6,2.2*3F
$GPRMC,202203.000,A,3748.7999,N,12217.8625,W,0.74,182.99,140611,,,A*7E
$GPVTG,182.99,T,,M,0.74,N,1.4,K,A*00
$GPGGA,202204.000,3748.7996,N,12217.8623,W,1,08,1.6,8.8,M,-25.1,M,,0000*6D
$GPGSA,A,3,16,23,03,10,07,08,06,13,,,,,2.7,1.6,2.2*3F
$GPRMC,202204.000,A,3748.7996,N,12217.8623,W,0.34,109.82,140611,,,A*7D
$GPVTG,109.82,T,,M,0.34,N,0.6,K,A*0E
$GPGGA,202205.000,3748.7994,N,12217.8622,W,1,07,1.9,7.3,M,-25.1,M,,0000*6B
$GPGSA,A,3,16,23,03,10,07,06,13,,,,,,3.3,1.9,2.7*38
$GPGSV,3,1,12,13,75,076,33,07,59,303,29,23,44,119,33,10,43,278,26*7E
$GPGSV,3,2,12,08,35,274,,03,27,078,32,16,21,042,25,19,20,111,28*78
$GPGSV,3,3,12,06,19,064,26,28,11,211,25,05,10,321,28,20,07,174,*74
$GPRMC,202205.000,A,3748.7994,N,12217.8622,W,0.07,336.24,140611,,,A*7D
$GPVTG,336.24,T,,M,0.07,N,0.1,K,A*0B
$GPGGA,202206.000,3748.7991,N,12217.8623,W,1,08,1.6,7.0,M,-25.1,M,,0000*6F
$GPGSA,A,3,16,23,03,10,07,08,06,13,,,,,2.7,1.6,2.2*3F
$GPRMC,202206.000,A,3748.7991,N,12217.8623,W,0.10,216.20,140611,,,A*7B
$GPVTG,216.20,T,,M,0.10,N,0.2,K,A*09
$GPGGA,202207.000,3748.7986,N,12217.8622,W,1,08,1.6,5.7,M,-25.1,M,,0000*6C
$GPGSA,A,3,16,23,03,10,07,08,06,13,,,,,2.7,1.6,2.2*3F
$GPRMC,202207.000,A,3748.7986,N,12217.8622,W,0.66,170.28,140611,,,A*77
$GPVTG,170.28,T,,M,0.66,N,1.2,K,A*02
$GPGGA,202208.000,3748.7981,N,12217.8621,W,1,08,1.6,3.8,M,-25.1,M,,0000*6E
$GPGSA,A,3,16,23,03,10,07,08,06,13,,,,,2.7,1.6,2.2*3F
$GPRMC,202208.000,A,3748.7981,N,12217.8621,W,0.12,92.79,140611,,,A*46
$GPVTG,92.79,T,,M,0.12,N,0.2,K,A*39
$GPGGA,202209.000,3748.7980,N,12217.8620,W,1,08,1.6,3.2,M,-25.1,M,,0000*65
$GPGSA,A,3,16,23,03,10,07,08,06,13,,,,,2.7,1.6,2.2*3F
$GPRMC,202209.000,A,3748.7980,N,12217.8620,W,0.15,226.36,140611,,,A*76
$GPVTG,226.36,T,,M,0.15,N,0.3,K,A*09
$GPGGA,202210.000,3748.7976,N,12217.8619,W,1,08,1.6,1.9,M,-25.1,M,,0000*67
$GPGSA,A,3,16,23,03,10,07,08,06,13,,,,,2.7,1.6,2.2*3F
$GPGSV,3,1,12,13,75,076,25,07,59,303,25,23,44,119,25,10,43,278,21*75
$GPGSV,3,2,12,08,35,274,20,03,27,078,32,16,21,042,38,19,20,111,30*7F
$GPGSV,3,3,12,06,19,064,35,28,11,211,27,05,10,321,25,20,07,174,*79
$GPRMC,202210.000,A,3748.7976,N,12217.8619,W,0.27,190.72,140611,,,A*72
$GPVTG,190.72,T,,M,0.27,N,0.5,K,A*00
$GPGGA,202211.000,3748.7972,N,12217.8618,W,1,08,1.6,-0.2,M,-25.1,M,,0000*44
$GPGSA,A,3,16,23,03,10,07,08,06,13,,,,,2.7,1.6,2.2*3F
$GPRMC,202211.000,A,3748.7972,N,12217.8618,W,0.29,170.25,140611,,,A*74
$GPVTG,170.25,T,,M,0.29,N,0.5,K,A*02
$GPGGA,202212.000,3748.7965,N,12217.8618,W,1,08,1.6,-2.5,M,-25.1,M,,0000*44
$GPGSA,A,3,16,23,03,10,07,08,06,13,,,,,2.7,1.6,2.2*3F
$GPRMC,202212.000,A,3748.7965,N,12217.8618,W,0.67,229.12,140611,,,A*70
$GPVTG,229.12,T,,M,0.67,N,1.2,K,A*05
$GPGGA,202213.000,3748.7959,N,12217.8626,W,1,08,1.6,-5.2,M,-25.1,M,,0000*47
$GPGSA,A,3,16,23,03,10,07,08,06,13,,,,,2.7,1.6,2.2*3F
$GPRMC,202213.000,A,3748.7959,N,12217.8626,W,1.35,205.83,140611,,,A*73
$GPVTG,205.83,T,,M,1.35,N,2.5,K,A*01
$GPGGA,202214.000,3748.7962,N,12217.8625,W,1,08,1.6,-4.6,M,-25.1,M,,0000*4E
$GPGSA,A,3,16,23,03,10,07,08,06,13,,,,,2.7,1.6,2.2*3F
$GPRMC,202214.000,A,3748.7962,N,12217.8625,W,1.14,169.45,140611,,,A*7F
$GPVTG,169.45,T,,M,1.14,N,2.1,K,A*05
$GPGGA,202215.000,3748.7960,N,12217.8627,W,1,08,1.6,-5.0,M,-25.1,M,,0000*48
$GPGSA,A,3,16,23,03,10,07,08,06,13,,,,,2.7,1.6,2.2*3F
$GPGSV,3,1,12,13,75,076,32,07,59,303,35,23,44,119,31,10,43,278,37*70
$GPGSV,3,2,12,08,35,274,35,03,27,078,24,16,21,042,27,19,20,111,27*74
$GPGSV,3,3,12,06,19,064,24,28,11,211,26,05,10,321,31,20,07,174,*7D
$GPRMC,202215.000,A,3748.7960,N,12217.8627,W,1.66,168.72,140611,,,A*7E
$GPGGA,202216.000,3748.7954,N,12217.8629,W,1,08,1.6,-5.6,M,-25.1,M,,0000*44
$GPGSA,A,3,16,23,03,10,07,08,06,13,,,,,2.7,1.6,2.2*3F
$GPRMC,202216.000,A,3748.7954,N,12217.8629,W,0.73,178.69,140611,,,A*7A
$GPVTG,178.69,T,,M,0.73,N,1.4,K,A*0D
$GPGGA,202217.000,3748.7951,N,12217.8633,W,1,08,1.6,-6.2,M,-25.1,M,,0000*4C
$GPGSA,A,3,16,23,03,10,07,08,06,13,,,,,2.7,1.6,2.2*3F
$GPRMC,202217.000,A,3748.7951,N,12217.8633,W,0.42,190.03,140611,,,A*7D
$GPVTG,190.03,T,,M,0.42,N,0.8,K,A*08
$GPGGA,202218.000,3748.7950,N,12217.8636,W,1,08,1.6,-6.8,M,-25.1,M,,0000*4D
$GPGSA,A,3,16,23,03,10,07,08,06,13,,,,,2.7,1.6,2.2*3F
$GPRMC,202218.000,A,3748.7950,N,12217.8636,W,0.39,197.63,140611,,,A*7B
$GPVTG,197.63,T,,M,0.39,N,0.7,K,A*0A
$GPGGA,202219.000,3748.7948,N,12217.8639,W,1,08,1.6,-7.5,M,-25.1,M,,0000*46
$GPGSA,A,3,16,23,03,10,07,08,06,13,,,,,2.7,1.6,2.2*3F
$GPRMC,202219.000,A,3748.7948,N,12217.8639,W,0.33,195.17,140611,,,A*77
$GPVTG,195.17,T,,M,0.33,N,0.6,K,A*00
$GPGGA,202220.000,3748.7947,N,12217.8641,W,1,08,1.6,-7.9,M,-25.1,M,,0000*40
$GPGSA,A,3,16,23,03,10,07,08,06,13,,,,,2.7,1.6,2.2*3F
$GPGSV,3,1,12,13,75,076,24,07,59,303,19,23,44,119,36,10,43,278,34*7D
$GPGSV,3,2,12,08,35,274,32,03,27,078,31,16,21,042,29,19,20,111,37*78
$GPGSV,3,3,12,06,19,064,35,28,11,211,31,05,10,321,21,20,07,174,*7A
$GPRMC,202220.000,A,3748.7947,N,12217.8641,W,0.27,204.43,140611,,,A*72
$GPVTG,204.43,T,,M,0.27,N,0.5,K,A*0C
$GPGGA,202221.000,3748.7945,N,12217.8643,W,1,08,1.6,-8.8,M,-25.1,M,,0000*4F
$GPGSA,A,3,16,23,03,10,07,08,06,13,,,,,2.7,1.6,2.2*3F
$GPRMC,202221.000,A,3748.7945,N,12217.8643,W,0.34,186.99,140611,,,A*7F
$GPVTG,186.99,T,,M,0.34,N,0.6,K,A*03
$GPGGA,202222.000,3748.7943,N,12217.8644,W,1,08,1.6,-9.5,M,-25.1,M,,0000*41
$GPGSA,A,3,16,23,03,10,07,08,06,13,,,,,2.7,1.6,2.2*3F
$GPRMC,202222.000,A,3748.7943,N,12217.8644,W,0.31,193.10,140611,,,A*7D
$GPVTG,193.10,T,,M,0.31,N,0.6,K,A*03
$GPGGA,202223.000,3748.7946,N,12217.8642,W,1,08,1.6,-7.5,M,-25.1,M,,0000*4D
$GPGSA,A,3,16,23,03,10,07,08,06,13,,,,,2.7,1.6,2.2*3F
$GPRMC,202223.000,A,3748.7946,N,12217.8642,W,0.30,152.73,140611,,,A*76
$GPVTG,152.73,T,,M,0.30,N,0.5,K,A*09
$GPGGA,202224.000,3748.7948,N,12217.8640,W,1,08,1.6,-5.3,M,-25.1,M,,0000*42
$GPGSA,A,3,16,23,03,10,07,08,06,13,,,,,2.7,1.6,2.2*3F
$GPRMC,202224.000,A,3748.7948,N,12217.8640,W,0.12,150.93,140611,,,A*71
$GPVTG,150.93,T,,M,0.12,N,0.2,K,A*02
$GPGGA,202225.000,3748.7951,N,12217.8638,W,1,08,1.6,-3.3,M,-25.1,M,,0000*42
$GPGSA,A,3,16,23,03,10,07,08,06,13,,,,,2.7,1.6,2.2*3F
$GPGSV,3,1,12,13,75,076,31,07,59,303,23,23,44,119,36,10,43,278,34*70
$GPGSV,3,2,12,08,35,274,23,03,27,078,31,16,21,042,33,19,20,111,37*73
$GPGSV,3,3,12,06,19,064,36,28,11,211,31,05,10,321,20,20,07,174,*78
$GPRMC,202225.000,A,3748.7951,N,12217.8638,W,0.05,233.93,140611,,,A*77
$GPVTG,233.93,T,,M,0.05,N,0.1,K,A*01
$GPGGA,202226.000,3748.7952,N,12217.8636,W,1,08,1.6,-1.5,M,-25.1,M,,0000*48
$GPGSA,A,3,16,23,03,10,07,08,06,13,,,,,2.7,1.6,2.2*3F
$GPRMC,202226.000,A,3748.7952,N,12217.8636,W,0.04,244.39,140611,,,A*78
$GPVTG,244.39,T,,M,0.04,N,0.1,K,A*00
$GPGGA,202227.000,3748.7955,N,12217.8634,W,1,08,1.6,0.5,M,-25.1,M,,0000*60
$GPGSA,A,3,16,23,03,10,07,08,06,13,,,,,2.7,1.6,2.2*3F
$GPRMC,202227.000,A,3748.7955,N,12217.8634,W,0.18,63.84,140611,,,A*40
$GPVTG,63.84,T,,M,0.18,N,0.3,K,A*3E
$GPGGA,202228.000,3748.7958,N,12217.8631,W,1,08,1.6,3.2,M,-25.1,M,,0000*63
$GPGSA,A,3,16,23,03,10,07,08,06,13,,,,,2.7,1.6,2.2*3F
$GPRMC,202228.000,A,3748.7958,N,12217.8631,W,0.20,44.27,140611,,,A*40
$GPVTG,44.27,T,,M,0.20,N,0.4,K,A*3E
$GPGGA,202229.000,3748.7956,N,12217.8630,W,1,08,1.6,3.9,M,-25.1,M,,0000*66
$GPGSA,A,3,16,23,03,10,07,08,06,13,,,,,2.7,1.6,2.2*3F
$GPRMC,202229.000,A,3748.7956,N,12217.8630,W,0.16,22.15,140611,,,A*4A
$GPVTG,22.15,T,,M,0.16,N,0.3,K,A*3D
$GPGGA,202230.000,3748.7956,N,12217.8630,W,1,08,1.6,4.1,M,-25.1,M,,0000*61
$GPGSA,A,3,16,23,03,10,07,08,06,13,,,,,2.7,1.6,2.2*3F
$GPGSV,3,1,12,13,75,076,27,07,59,303,24,23,44,119,32,10,43,278,30*70
$GPGSV,3,2,12,08,35,274,24,03,27,078,32,16,21,042,27,19,20,111,37*72
$GPGSV,3,3,12,06,19,064,35,28,11,211,28,05,10,321,19,20,07,174,*79
$GPRMC,202230.000,A,3748.7956,N,12217.8630,W,0.26,4.63,140611,,,A*74
$GPVTG,4.63,T,,M,0.26,N,0.5,K,A*0D
$GPGGA,202231.000,3748.7956,N,12217.8632,W,1,08,1.6,3.1,M,-25.1,M,,0000*65
$GPGSA,A,3,16,23,03,10,07,08,06,13,,,,,2.7,1.6,2.2*3F
$GPRMC,202231.000,A,3748.7956,N,12217.8632,W,0.19,44.61,140611,,,A*4D
$GPVTG,44.61,T,,M,0.19,N,0.3,K,A*31
$GPGGA,202232.000,3748.7957,N,12217.8633,W,1,08,1.6,2.3,M,-25.1,M,,0000*65
$GPGSA,A,3,16,23,03,10,07,08,06,13,,,,,2.7,1.6,2.2*3F
$GPRMC,202232.000,A,3748.7957,N,12217.8633,W,0.17,20.97,140611,,,A*4B
$GPVTG,20.97,T,,M,0.17,N,0.3,K,A*34
$GPGGA,202233.000,3748.7951,N,12217.8634,W,1,08,1.6,1.9,M,-25.1,M,,0000*6C
$GPGSA,A,3,16,23,03,10,07,08,06,13,,,,,2.7,1.6,2.2*3F
$GPRMC,202233.000,A,3748.7951,N,12217.8634,W,0.02,189.29,140611,,,A*78
$GPVTG,189.29,T,,M,0.02,N,0.0,K,A*04
$GPGGA,202234.000,3748.7959,N,12217.8634,W,1,08,1.6,3.4,M,-25.1,M,,0000*6C
$GPGSA,A,3,16,23,03,10,07,08,06,13,,,,,2.7,1.6,2.2*3F
$GPRMC,202234.000,A,3748.7959,N,12217.8634,W,0.03,100.09,140611,,,A*75
$GPVTG,100.09,T,,M,0.03,N,0.0,K,A*06
$GPGGA,202235.000,3748.7956,N,12217.8635,W,1,08,1.6,4.5,M,-25.1,M,,0000*65
$GPGSA,A,3,16,23,03,10,07,08,06,13,,,,,2.7,1.6,2.2*3F
$GPGSV,3,1,12,13,75,076,25,07,59,303,24,23,44,119,34,10,43,278,36*72
$GPGSV,3,2,12,08,35,274,33,03,27,078,22,16,21,042,24,19,20,111,37*76
$GPGSV,3,3,12,06,19,064,30,28,11,211,25,05,10,321,27,20,07,174,*7C
$GPRMC,202235.000,A,3748.7956,N,12217.8635,W,0.28,157.39,140611,,,A*72
$GPGGA,202236.000,3748.7951,N,12217.8636,W,1,08,1.6,3.9,M,-25.1,M,,0000*69
$GPGSA,A,3,16,23,03,10,07,08,06,13,,,,,2.7,1.6,2.2*3F
$GPRMC,202236.000,A,3748.7951,N,12217.8636,W,0.24,166.79,140611,,,A*7F
$GPVTG,166.79,T,,M,0.24,N,0.5,K,A*01
$GPGGA,202237.000,3748.7948,N,12217.8636,W,1,08,1.6,3.5,M,-25.1,M,,0000*6C
$GPGSA,A,3,16,23,03,10,07,08,06,13,,,,,2.7,1.6,2.2*3F
$GPRMC,202237.000,A,3748.7948,N,12217.8636,W,0.12,103.52,140611,,,A*79
$GPVTG,103.52,T,,M,0.12,N,0.2,K,A*09
$GPGGA,202238.000,3748.7945,N,12217.8636,W,1,08,1.6,3.1,M,-25.1,M,,0000*6A
$GPGSA,A,3,16,23,03,10,07,08,06,13,,,,,2.7,1.6,2.2*3F
$GPRMC,202238.000,A,3748.7945,N,12217.8636,W,0.07,80.40,140611,,,A*46
$GPVTG,80.40,T,,M,0.07,N,0.1,K,A*37
$GPGGA,202239.000,3748.7942,N,12217.8636,W,1,08,1.6,2.5,M,-25.1,M,,0000*69
$GPGSA,A,3,16,23,03,10,07,08,06,13,,,,,2.7,1.6,2.2*3F
$GPRMC,202239.000,A,3748.7942,N,12217.8636,W,0.16,156.26,140611,,,A*7A
$GPVTG,156.26,T,,M,0.16,N,0.3,K,A*0F
$GPGGA,202240.000,3748.7935,N,12217.8638,W,1,08,1.6,0.8,M,-25.1,M,,0000*66
$GPGSA,A,3,16,23,03,10,07,08,06,13,,,,,2.7,1.6,2.2*3F
$GPGSV,3,1,12,13,75,076,25,07,59,303,24,23,44,119,39,10,43,278,36*7F
$GPGSV,3,2,12,08,35,274,36,03,27,078,25,16,21,042,25,19,20,111,38*7A
$GPGSV,3,3,12,06,19,064,28,28,11,211,25,05,10,321,23,20,07,174,*71
$GPRMC,202240.000,A,3748.7935,N,12217.8638,W,0.33,187.98,140611,,,A*74
$GPVTG,187.98,T,,M,0.33,N,0.6,K,A*04
$GPGGA,202241.000,3748.7930,N,12217.8638,W,1,08,1.6,-1.0,M,-25.1,M,,0000*46
$GPGSA,A,3,16,23,03,10,07,08,06,13,,,,,2.7,1.6,2.2*3F
$GPRMC,202241.000,A,3748.7930,N,12217.8638,W,0.22,172.19,140611,,,A*73
$GPVTG,172.19,T,,M,0.22,N,0.4,K,A*05
$GPGGA,202242.000,3748.7933,N,12217.8637,W,1,08,1.6,-2.0,M,-25.1,M,,0000*4A
$GPGSA,A,3,16,23,03,10,07,08,06,13,,,,,2.7,1.6,2.2*3F
$GPRMC,202242.000,A,3748.7933,N,12217.8637,W,0.13,64.04,140611,,,A*44
$GPVTG,64.04,T,,M,0.13,N,0.2,K,A*3B
$GPGGA,202243.000,3748.7937,N,12217.8637,W,1,08,1.6,-2.6,M,-25.1,M,,0000*49
$GPGSA,A,3,16,23,03,10,07,08,06,13,,,,,2.7,1.6,2.2*3F
$GPRMC,202243.000,A,3748.7937,N,12217.8637,W,0.01,86.18,140611,,,A*43
$GPVTG,86.18,T,,M,0.01,N,0.0,K,A*3B
$GPGGA,202244.000,3748.7940,N,12217.8636,W,1,08,1.6,-3.5,M,-25.1,M,,0000*4D
$GPGSA,A,3,16,23,03,10,07,08,06,13,,,,,2.7,1.6,2.2*3F
$GPRMC,202244.000,A,3748.7940,N,12217.8636,W,0.08,142.39,140611,,,A*76
$GPVTG,142.39,T,,M,0.08,N,0.1,K,A*09
$GPGGA,202245.000,3748.7936,N,12217.8637,W,1,08,1.6,-4.0,M,-25.1,M,,0000*4E
$GPGSA,A,3,16,23,03,10,07,08,06,13,,,,,2.7,1.6,2.2*3F
$GPGSV,3,1,12,13,75,076,29,07,59,303,25,23,44,119,40,10,43,278,37*7D
$GPGSV,3,2,12,08,35,274,35,03,27,078,28,16,21,042,35,19,20,111,38*75
$GPGSV,3,3,12,06,19,064,34,28,11,211,33,05,10,321,23,20,07,174,*7B
$GPRMC,202245.000,A,3748.7936,N,12217.8637,W,0.12,167.36,140611,,,A*74
$GPVTG,167.36,T,,M,0.12,N,0.2,K,A*09
$GPGGA,202246.000,3748.7930,N,12217.8638,W,1,08,1.6,-5.2,M,-25.1,M,,0000*47
$GPGSA,A,3,16,23,03,10,07,08,06,13,,,,,2.7,1.6,2.2*3F
$GPRMC,202246.000,A,3748.7930,N,12217.8638,W,0.27,191.27,140611,,,A*71
$GPVTG,191.27,T,,M,0.27,N,0.5,K,A*01
$GPGGA,202247.000,3748.7933,N,12217.8634,W,1,08,1.6,-5.2,M,-25.1,M,,0000*49
$GPGSA,A,3,16,23,03,10,07,08,06,13,,,,,2.7,1.6,2.2*3F
$GPRMC,202247.000,A,3748.7933,N,12217.8634,W,0.85,145.34,140611,,,A*7C
$GPVTG,145.34,T,,M,0.85,N,1.6,K,A*00
$GPGGA,202248.000,3748.7935,N,12217.8629,W,1,08,1.6,-4.5,M,-25.1,M,,0000*4A
$GPGSA,A,3,16,23,03,10,07,08,06,13,,,,,2.7,1.6,2.2*3F
$GPRMC,202248.000,A,3748.7935,N,12217.8629,W,1.30,115.62,140611,,,A*70
$GPVTG,115.62,T,,M,1.30,N,2.4,K,A*08
$GPGGA,202249.000,3748.7933,N,12217.8625,W,1,08,1.6,-5.3,M,-25.1,M,,0000*46
$GPGSA,A,3,16,23,03,10,07,08,06,13,,,,,2.7,1.6,2.2*3F
$GPRMC,202249.000,A,3748.7933,N,12217.8625,W,1.17,116.45,140611,,,A*78
$GPVTG,116.45,T,,M,1.17,N,2.2,K,A*0D
$GPGGA,202250.000,3748.7932,N,12217.8620,W,1,08,1.6,-6.2,M,-25.1,M,,0000*48
$GPGSA,A,3,16,23,03,10,07,08,06,13,,,,,2.7,1.6,2.2*3F
$GPGSV,3,1,12,13,75,076,26,07,59,303,24,23,44,119,35,10,43,278,25*72
$GPGSV,3,2,12,08,35,274,22,03,27,078,30,16,21,042,22,19,20,111,38*7C
$GPRMC,202250.000,A,3748.7932,N,12217.8620,W,1.18,144.10,140611,,,A*7C
$GPVTG,144.10,T,,M,1.18,N,2.2,K,A*05
$GPGGA,202251.000,3748.7924,N,12217.8617,W,1,09,1.3,-6.6,M,-25.1,M,,0000*4A
$GPGSA,A,3,16,23,03,10,07,19,08,06,13,,,,2.3,1.3,1.9*3E
$GPRMC,202251.000,A,3748.7924,N,12217.8617,W,1.05,141.39,140611,,,A*7C
$GPVTG,141.39,T,,M,1.05,N,1.9,K,A*0F
$GPGGA,202252.000,3748.7918,N,12217.8613,W,1,09,1.3,-7.1,M,-25.1,M,,0000*44
$GPGSA,A,3,16,23,03,10,07,19,08,06,13,,,,2.3,1.3,1.9*3E
$GPRMC,202252.000,A,3748.7918,N,12217.8613,W,1.51,129.11,140611,,,A*71
$GPVTG,129.11,T,,M,1.51,N,2.8,K,A*08
$GPGGA,202253.000,3748.7912,N,12217.8606,W,1,09,1.3,-7.3,M,-25.1,M,,0000*49
$GPGSA,A,3,16,23,03,10,07,19,08,06,13,,,,2.3,1.3,1.9*3E
$GPRMC,202253.000,A,3748.7912,N,12217.8606,W,1.84,132.50,140611,,,A*79
$GPVTG,132.50,T,,M,1.84,N,3.4,K,A*02
$GPGGA,202254.000,3748.7907,N,12217.8600,W,1,09,1.3,-7.4,M,-25.1,M,,0000*4B
$GPGSA,A,3,16,23,03,10,07,19,08,06,13,,,,2.3,1.3,1.9*3E
$GPRMC,202254.000,A,3748.7907,N,12217.8600,W,1.88,132.07,140611,,,A*72
$GPVTG,132.07,T,,M,1.88,N,3.5,K,A*0D
$GPGGA,202255.000,3748.7904,N,12217.8596,W,1,09,1.3,-7.2,M,-25.1,M,,0000*43
$GPGSA,A,3,16,23,03,10,07,19,08,06,13,,,,2.3,1.3,1.9*3E
$GPGSV,3,1,12,13,74,078,24,07,59,304,24,23,44,119,36,10,43,277,25*74
$GPGSV,3,2,12,08,36,275,23,03,27,078,33,19,20,111,36,16,20,042,29*78
$GPGSV,3,3,12,06,19,064,34,28,12,211,21,05,10,321,23,20,07,174,*7B
$GPRMC,202255.000,A,3748.7904,N,12217.8596,W,1.12,125.51,140611,,,A*7A
$GPVTG,125.51,T,,M,1.12,N,2.1,K,A*0E
$GPGGA,202256.000,3748.7905,N,12217.8593,W,1,09,1.3,-6.6,M,-25.1,M,,0000*41
$GPGSA,A,3,16,23,03,10,07,19,08,06,13,,,,2.3,1.3,1.9*3E
$GPRMC,202256.000,A,3748.7905,N,12217.8593,W,0.36,99.59,140611,,,A*44
$GPVTG,99.59,T,,M,0.36,N,0.7,K,A*33
$GPGGA,202257.000,3748.7907,N,12217.8592,W,1,09,1.3,-6.6,M,-25.1,M,,0000*43
$GPGSA,A,3,16,23,03,10,07,19,08,06,13,,,,2.3,1.3,1.9*3E
$GPRMC,202257.000,A,3748.7907,N,12217.8592,W,0.19,43.13,140611,,,A*42
$GPVTG,43.13,T,,M,0.19,N,0.3,K,A*33
$GPGGA,202258.000,3748.7911,N,12217.8592,W,1,09,1.3,-6.1,M,-25.1,M,,0000*4C
$GPGSA,A,3,16,23,03,10,07,19,08,06,13,,,,2.3,1.3,1.9*3E
$GPRMC,202258.000,A,3748.7911,N,12217.8592,W,0.45,333.88,140611,,,A*75
$GPVTG,333.88,T,,M,0.45,N,0.8,K,A*07
$GPGGA,202259.000,3748.7915,N,12217.8588,W,1,09,1.3,-4.4,M,-25.1,M,,0000*45
$GPGSA,A,3,16,23,03,10,07,19,08,06,13,,,,2.3,1.3,1.9*3E
$GPRMC,202259.000,A,3748.7915,N,12217.8588,W,0.29,6.12,140611,,,A*77
$GPVTG,6.12,T,,M,0.29,N,0.5,K,A*06
$GPGGA,202300.000,3748.7918,N,12217.8586,W,1,09,1.3,-3.8,M,-25.1,M,,0000*40
$GPGSA,A,3,16,23,03,10,07,19,08,06,13,,,,2.3,1.3,1.9*3E
$GPGSV,3,1,12,13,74,078,21,07,59,304,31,23,44,119,26,10,43,277,31*71
$GPGSV,3,2,12,08,36,275,31,03,27,078,26,19,20,111,29,16,20,042,27*7F
$GPGSV,3,3,12,06,19,064,31,28,12,211,29,05,10,321,32,20,07,174,*76
$GPRMC,202300.000,A,3748.7918,N,12217.8586,W,0.18,15.83,140611,,,A*41
$GPVTG,15.83,T,,M,0.18,N,0.3,K,A*38
$GPGGA,202301.000,3748.7921,N,12217.8585,W,1,09,1.3,-3.5,M,-25.1,M,,0000*45
$GPGSA,A,3,16,23,03,10,07,19,08,06,13,,,,2.3,1.3,1.9*3E
$GPRMC,202301.000,A,3748.7921,N,12217.8585,W,0.16,20.15,140611,,,A*4E
$GPVTG,20.15,T,,M,0.16,N,0.3,K,A*3F
$GPGGA,202302.000,3748.7924,N,12217.8584,W,1,09,1.3,-3.1,M,-25.1,M,,0000*46
$GPGSA,A,3,16,23,03,10,07,19,08,06,13,,,,2.3,1.3,1.9*3E
$GPRMC,202302.000,A,3748.7924,N,12217.8584,W,0.16,29.08,140611,,,A*4C
$GPVTG,29.08,T,,M,0.16,N,0.3,K,A*3A
$GPGGA,202303.000,3748.7925,N,12217.8583,W,1,09,1.3,-3.0,M,-25.1,M,,0000*40
$GPGSA,A,3,16,23,03,10,07,19,08,06,13,,,,2.3,1.3,1.9*3E
$GPRMC,202303.000,A,3748.7925,N,12217.8583,W,0.03,76.52,140611,,,A*4A
$GPVTG,76.52,T,,M,0.03,N,0.1,K,A*39
$GPGGA,202304.000,3748.7928,N,12217.8585,W,1,09,1.3,-3.6,M,-25.1,M,,0000*4A
$GPGSA,A,3,16,23,03,10,07,19,08,06,13,,,,2.3,1.3,1.9*3E
$GPRMC,202304.000,A,3748.7928,N,12217.8585,W,0.15,148.05,140611,,,A*7F
$GPVTG,148.05,T,,M,0.15,N,0.3,K,A*02
$GPGGA,202305.000,3748.7930,N,12217.8586,W,1,09,1.3,-3.9,M,-25.1,M,,0000*4E
$GPGSA,A,3,16,23,03,10,07,19,08,06,13,,,,2.3,1.3,1.9*3E
$GPGSV,3,1,12,13,74,078,25,07,59,304,31,23,44,119,26,10,43,277,31*75
$GPGSV,3,2,12,08,36,275,35,03,27,078,22,19,20,111,23,16,20,042,28*7A
$GPGSV,3,3,12,06,19,064,25,28,12,211,23,05,10,321,33,20,07,174,*78
$GPRMC,202305.000,A,3748.7930,N,12217.8586,W,0.24,195.26,140611,,,A*77
$GPVTG,195.26,T,,M,0.24,N,0.4,K,A*06
$GPGGA,202306.000,3748.7933,N,12217.8588,W,1,09,1.3,-4.5,M,-25.1,M,,0000*4B
$GPGSA,A,3,16,23,03,10,07,19,08,06,13,,,,2.3,1.3,1.9*3E
$GPRMC,202306.000,A,3748.7933,N,12217.8588,W,0.24,125.88,140611,,,A*76
$GPVTG,125.88,T,,M,0.24,N,0.4,K,A*09
$GPGGA,202307.000,3748.7938,N,12217.8590,W,1,09,1.3,-4.9,M,-25.1,M,,0000*44
$GPGSA,A,3,16,23,03,10,07,19,08,06,13,,,,2.3,1.3,1.9*3E
$GPRMC,202307.000,A,3748.7938,N,12217.8590,W,0.30,12.37,140611,,,A*41
$GPVTG,12.37,T,,M,0.30,N,0.6,K,A*3F
$GPGGA,202308.000,3748.7943,N,12217.8592,W,1,09,1.3,-4.9,M,-25.1,M,,0000*45
$GPGSA,A,3,16,23,03,10,07,19,08,06,13,,,,2.3,1.3,1.9*3E
$GPRMC,202308.000,A,3748.7943,N,12217.8592,W,0.40,354.97,140611,,,A*7C
$GPVTG,354.97,T,,M,0.40,N,0.7,K,A*02
$GPGGA,202309.000,3748.7947,N,12217.8594,W,1,09,1.3,-5.0,M,-25.1,M,,0000*4E
$GPGSA,A,3,16,23,03,10,07,19,08,06,13,,,,2.3,1.3,1.9*3E
$GPRMC,202309.000,A,3748.7947,N,12217.8594,W,0.08,96.50,140611,,,A*45
$GPVTG,96.50,T,,M,0.08,N,0.1,K,A*3E
$GPGGA,202310.000,3748.7951,N,12217.8598,W,1,09,1.3,-5.4,M,-25.1,M,,0000*49
$GPGSA,A,3,16,23,03,10,07,19,08,06,13,,,,2.3,1.3,1.9*3E
$GPGSV,3,1,12,13,74,078,24,07,59,304,31,23,44,119,27,10,43,277,28*7D
$GPGSV,3,2,12,08,36,275,35,03,27,078,18,19,20,111,23,16,20,042,29*72
$GPRMC,202310.000,A,3748.7951,N,12217.8598,W,0.32,358.02,140611,,,A*79
$GPVTG,358.02,T,,M,0.32,N,0.6,K,A*06
$GPGGA,202311.000,3748.7955,N,12217.8601,W,1,09,1.3,-5.5,M,-25.1,M,,0000*4E
$GPGSA,A,3,16,23,03,10,07,19,08,06,13,,,,2.3,1.3,1.9*3E
$GPRMC,202311.000,A,3748.7955,N,12217.8601,W,0.18,349.03,140611,,,A*76
$GPVTG,349.03,T,,M,0.18,N,0.3,K,A*0A
$GPGGA,202312.000,3748.7958,N,12217.8604,W,1,09,1.3,-5.7,M,-25.1,M,,0000*47
$GPGSA,A,3,16,23,03,10,07,19,08,06,13,,,,2.3,1.3,1.9*3E
$GPRMC,202312.000,A,3748.7958,N,12217.8604,W,0.22,232.48,140611,,,A*76
$GPVTG,232.48,T,,M,0.22,N,0.4,K,A*06
$GPGGA,202313.000,3748.7961,N,12217.8608,W,1,09,1.3,-5.8,M,-25.1,M,,0000*4F
$GPGSA,A,3,16,23,03,10,07,19,08,06,13,,,,2.3,1.3,1.9*3E
$GPRMC,202313.000,A,3748.7961,N,12217.8608,W,0.23,225.25,140611,,,A*7D
$GPVTG,225.25,T,,M,0.23,N,0.4,K,A*0A
$GPGGA,202314.000,3748.7963,N,12217.8610,W,1,09,1.3,-5.5,M,-25.1,M,,0000*4E
$GPGSA,A,3,16,23,03,10,07,19,08,06,13,,,,2.3,1.3,1.9*3E
$GPRMC,202314.000,A,3748.7963,N,12217.8610,W,0.32,14.65,140611,,,A*45
$GPVTG,14.65,T,,M,0.32,N,0.6,K,A*3C
$GPGGA,202315.000,3748.7962,N,12217.8610,W,1,09,1.3,-3.0,M,-25.1,M,,0000*4D
$GPGSA,A,3,16,23,03,10,07,19,08,06,13,,,,2.3,1.3,1.9*3E
$GPGSV,3,1,12,13,74,078,21,07,59,304,31,23,44,119,21,10,43,277,35*72
$GPGSV,3,2,12,08,36,275,35,03,27,078,20,19,20,111,24,16,20,042,30*76
$GPGSV,3,3,12,06,19,064,23,28,12,211,21,05,10,321,22,20,07,174,*7C
$GPRMC,202315.000,A,3748.7962,N,12217.8610,W,0.10,167.98,140611,,,A*72
$GPVTG,167.98,T,,M,0.10,N,0.2,K,A*0F
$GPGGA,202316.000,3748.7965,N,12217.8613,W,1,09,1.3,-2.5,M,-25.1,M,,0000*4E
$GPGSA,A,3,16,23,03,10,07,19,08,06,13,,,,2.3,1.3,1.9*3E
$GPRMC,202316.000,A,3748.7965,N,12217.8613,W,0.34,306.60,140611,,,A*71
$GPVTG,306.60,T,,M,0.34,N,0.6,K,A*0F
$GPGGA,202317.000,3748.7972,N,12217.8618,W,1,09,1.3,-2.5,M,-25.1,M,,0000*42
$GPGSA,A,3,16,23,03,10,07,19,08,06,13,,,,2.3,1.3,1.9*3E
$GPRMC,202317.000,A,3748.7972,N,12217.8618,W,0.34,341.83,140611,,,A*73
$GPVTG,341.83,T,,M,0.34,N,0.6,K,A*01
$GPGGA,202318.000,3748.7977,N,12217.8622,W,1,09,1.3,-2.4,M,-25.1,M,,0000*40
$GPGSA,A,3,16,23,03,10,07,19,08,06,13,,,,2.3,1.3,1.9*3E
$GPRMC,202318.000,A,3748.7977,N,12217.8622,W,0.11,332.60,140611,,,A*7E
$GPVTG,332.60,T,,M,0.11,N,0.2,K,A*0B
$GPGGA,202319.000,3748.7981,N,12217.8625,W,1,09,1.3,-2.1,M,-25.1,M,,0000*4A
$GPGSA,A,3,16,23,03,10,07,19,08,06,13,,,,2.3,1.3,1.9*3E
$GPRMC,202319.000,A,3748.7981,N,12217.8625,W,0.30,1.65,140611,,,A*74
$GPVTG,1.65,T,,M,0.30,N,0.6,K,A*0A
$GPGGA,202320.000,3748.7985,N,12217.8627,W,1,09,1.3,-1.8,M,-25.1,M,,0000*4C
$GPGSA,A,3,16,23,03,10,07,19,08,06,13,,,,2.3,1.3,1.9*3E
$GPGSV,3,1,12,13,74,078,25,07,59,304,31,23,44,119,29,10,43,277,35*7E
$GPGSV,3,2,12,08,36,275,35,03,27,078,21,19,20,111,24,16,20,042,29*7F
$GPGSV,3,3,12,06,19,064,23,28,12,211,21,05,10,321,27,20,07,174,*79
$GPRMC,202320.000,A,3748.7985,N,12217.8627,W,0.09,100.74,140611,,,A*72
$GPVTG,100.74,T,,M,0.09,N,0.2,K,A*04
$GPGGA,202321.000,3748.7988,N,12217.8629,W,1,09,1.3,-1.4,M,-25.1,M,,0000*42
$GPGSA,A,3,16,23,03,10,07,19,08,06,13,,,,2.3,1.3,1.9*3E
$GPRMC,202321.000,A,3748.7988,N,12217.8629,W,0.10,350.65,140611,,,A*7F
$GPVTG,350.65,T,,M,0.10,N,0.2,K,A*0B
$GPGGA,202322.000,3748.7990,N,12217.8631,W,1,09,1.3,-1.0,M,-25.1,M,,0000*45
$GPGSA,A,3,16,23,03,10,07,19,08,06,13,,,,2.3,1.3,1.9*3E
$GPRMC,202322.000,A,3748.7990,N,12217.8631,W,0.07,312.61,140611,,,A*78
$GPVTG,312.61,T,,M,0.07,N,0.1,K,A*0C
$GPGGA,202323.000,3748.7989,N,12217.8630,W,1,09,1.3,0.8,M,-25.1,M,,0000*69
$GPGSA,A,3,16,23,03,10,07,19,08,06,13,,,,2.3,1.3,1.9*3E
$GPRMC,202323.000,A,3748.7989,N,12217.8630,W,0.54,137.19,140611,,,A*7C
$GPVTG,137.19,T,,M,0.54,N,1.0,K,A*00
$GPGGA,202324.000,3748.7988,N,12217.8629,W,1,09,1.3,2.7,M,-25.1,M,,0000*6A
$GPGSA,A,3,16,23,03,10,07,19,08,06,13,,,,2.3,1.3,1.9*3E
$GPRMC,202324.000,A,3748.7988,N,12217.8629,W,0.79,145.52,140611,,,A*77
$GPVTG,145.52,T,,M,0.79,N,1.5,K,A*00
$GPGGA,202325.000,3748.7985,N,12217.8627,W,1,09,1.3,4.4,M,-25.1,M,,0000*6D
$GPGSA,A,3,16,23,03,10,07,19,08,06,13,,,,2.3,1.3,1.9*3E
$GPGSV,3,1,12,13,74,079,24,07,59,304,31,23,43,120,21,10,43,277,30*7E
$GPGSV,3,2,12,08,36,275,35,03,27,078,22,19,20,110,20,16,20,042,30*71
$GPGSV,3,3,12,06,19,063,24,28,12,211,26,05,11,320,21,20,07,174,*78
$GPRMC,202325.000,A,3748.7985,N,12217.8627,W,0.89,158.39,140611,,,A*7B
$GPVTG,158.39,T,,M,0.89,N,1.7,K,A*0C
$GPGGA,202326.000,3748.7985,N,12217.8625,W,1,09,1.3,6.7,M,-25.1,M,,0000*6D
$GPGSA,A,3,16,23,03,10,07,19,08,06,13,,,,2.3,1.3,1.9*3E
$GPRMC,202326.000,A,3748.7985,N,12217.8625,W,0.08,134.27,140611,,,A*76
$GPVTG,134.27,T,,M,0.08,N,0.2,K,A*04
$GPGGA,202327.000,3748.7984,N,12217.8623,W,1,09,1.3,9.1,M,-25.1,M,,0000*62
$GPGSA,A,3,16,23,03,10,07,19,08,06,13,,,,2.3,1.3,1.9*3E
$GPRMC,202327.000,A,3748.7984,N,12217.8623,W,0.36,356.00,140611,,,A*7E
$GPVTG,356.00,T,,M,0.36,N,0.7,K,A*0F
$GPGGA,202328.000,3748.7985,N,12217.8623,W,1,08,1.3,9.9,M,-25.1,M,,0000*65
$GPGSA,A,3,16,23,03,10,07,19,08,13,,,,,2.4,1.3,1.9*3F
$GPRMC,202328.000,A,3748.7985,N,12217.8623,W,0.33,106.87,140611,,,A*7D
$GPVTG,106.87,T,,M,0.33,N,0.6,K,A*03
$GPGGA,202329.000,3748.7985,N,12217.8626,W,1,09,1.3,9.1,M,-25.1,M,,0000*68
$GPGSA,A,3,16,23,03,10,07,19,08,06,13,,,,2.3,1.3,1.9*3E
$GPRMC,202329.000,A,3748.7985,N,12217.8626,W,0.33,89.08,140611,,,A*48
$GPVTG,89.08,T,,M,0.33,N,0.6,K,A*32
$GPGGA,202330.000,3748.7986,N,12217.8628,W,1,09,1.3,8.6,M,-25.1,M,,0000*6B
$GPGSA,A,3,16,23,03,10,07,19,08,06,13,,,,2.3,1.3,1.9*3E
$GPGSV,3,1,12,13,74,079,28,07,59,304,31,23,43,120,20,10,43,277,33*70
$GPGSV,3,2,12,08,36,275,35,03,27,078,23,19,20,110,24,16,20,042,30*74
$GPGSV,3,3,12,06,19,063,17,28,12,211,25,05,11,320,27,20,07,174,*7D
$GPVTG,11.83,T,,M,0.20,N,0.4,K,A*30
$GPGGA,202331.000,3748.7988,N,12217.8632,W,1,09,1.3,9.5,M,-25.1,M,,0000*6D
$GPGSA,A,3,16,23,03,10,07,19,08,06,13,,,,2.3,1.3,1.9*3E
$GPRMC,202331.000,A,3748.7988,N,12217.8632,W,0.91,357.63,140611,,,A*7C
$GPVTG,357.63,T,,M,0.91,N,1.7,K,A*07
$GPGGA,202332.000,3748.7994,N,12217.8636,W,1,09,1.3,9.1,M,-25.1,M,,0000*63
$GPGSA,A,3,16,23,03,10,07,19,08,06,13,,,,2.3,1.3,1.9*3E
$GPRMC,202332.000,A,3748.7994,N,12217.8636,W,0.63,349.32,140611,,,A*70
$GPVTG,349.32,T,,M,0.63,N,1.2,K,A*04
$GPGGA,202333.000,3748.7989,N,12217.8637,W,1,09,1.3,9.2,M,-25.1,M,,0000*6C
$GPGSA,A,3,16,23,03,10,07,19,08,06,13,,,,2.3,1.3,1.9*3E
$GPRMC,202333.000,A,3748.7989,N,12217.8637,W,0.64,358.20,140611,,,A*78
$GPVTG,358.20,T,,M,0.64,N,1.2,K,A*00
$GPGGA,202334.000,3748.8002,N,12217.8644,W,1,09,1.3,9.3,M,-25.1,M,,0000*6B
$GPGSA,A,3,16,23,03,10,07,19,08,06,13,,,,2.3,1.3,1.9*3E
$GPRMC,202334.000,A,3748.8002,N,12217.8644,W,0.50,343.83,140611,,,A*7A
$GPVTG,343.83,T,,M,0.50,N,0.9,K,A*0E
$GPGGA,202335.000,3748.8014,N,12217.8650,W,1,09,1.3,9.4,M,-25.1,M,,0000*6F
$GPGSA,A,3,16,23,03,10,07,19,08,06,13,,,,2.3,1.3,1.9*3E
$GPGSV,3,1,12,13,74,080,25,07,59,304,32,23,43,120,26,10,43,277,28*74
$GPGSV,3,2,12,08,36,275,35,03,27,077,16,19,20,110,21,16,20,042,32*7A
$GPGSV,3,3,12,06,19,063,24,28,12,211,20,05,11,320,23,20,07,174,*7C
$GPRMC,202335.000,A,3748.8014,N,12217.8650,W,0.21,6.92,140611,,,A*7D
$GPVTG,6.92,T,,M,0.21,N,0.4,K,A*07
$GPGGA,202336.000,3748.8021,N,12217.8653,W,1,09,1.3,9.6,M,-25.1,M,,0000*6B
$GPGSA,A,3,16,23,03,10,07,19,08,06,13,,,,2.3,1.3,1.9*3E
$GPRMC,202336.000,A,3748.8021,N,12217.8653,W,0.48,0.60,140611,,,A*7F
$GPVTG,0.60,T,,M,0.48,N,0.9,K,A*0E
$GPGGA,202337.000,3748.8026,N,12217.8655,W,1,09,1.3,10.0,M,-25.1,M,,0000*55
$GPGSA,A,3,16,23,03,10,07,19,08,06,13,,,,2.3,1.3,1.9*3E
$GPRMC,202337.000,A,3748.8026,N,12217.8655,W,0.53,0.24,140611,,,A*75
$GPVTG,0.24,T,,M,0.53,N,1.0,K,A*0C
$GPGGA,202338.000,3748.8027,N,12217.8652,W,1,09,1.3,11.3,M,-25.1,M,,0000*5E
$GPGSA,A,3,16,23,03,10,07,19,08,06,13,,,,2.3,1.3,1.9*3E
$GPRMC,202338.000,A,3748.8027,N,12217.8652,W,0.60,354.38,140611,,,A*73
$GPVTG,354.38,T,,M,0.60,N,1.1,K,A*02
$GPGGA,202339.000,3748.8027,N,12217.8652,W,1,09,1.3,12.6,M,-25.1,M,,0000*59
$GPGSA,A,3,16,23,03,10,07,19,08,06,13,,,,2.3,1.3,1.9*3E
$GPRMC,202339.000,A,3748.8027,N,12217.8652,W,0.08,123.07,140611,,,A*72
$GPVTG,123.07,T,,M,0.08,N,0.1,K,A*03
$GPGGA,202340.000,3748.8032,N,12217.8655,W,1,09,1.3,13.2,M,-25.1,M,,0000*51
$GPGSA,A,3,16,23,03,10,07,19,08,06,13,,,,2.3,1.3,1.9*3E
$GPGSV,3,1,12,13,74,080,23,07,59,304,31,23,43,120,24,10,43,277,33*79
$GPGSV,3,2,12,08,36,275,35,03,27,077,22,19,20,110,22,16,20,042,31*7D
$GPGSV,3,3,12,06,19,063,24,28,12,211,24,05,11,320,23,20,07,174,*78
$GPRMC,202340.000,A,3748.8032,N,12217.8655,W,0.09,322.00,140611,,,A*7A
$GPVTG,322.00,T,,M,0.09,N,0.2,K,A*05
$GPGGA,202341.000,3748.8028,N,12217.8656,W,1,09,1.3,14.9,M,-25.1,M,,0000*54
$GPGSA,A,3,16,23,03,10,07,19,08,06,13,,,,2.3,1.3,1.9*3E
$GPRMC,202341.000,A,3748.8028,N,12217.8656,W,0.28,28.29,140611,,,A*42
$GPVTG,28.29,T,,M,0.28,N,0.5,K,A*33
$GPGGA,202342.000,3748.8025,N,12217.8656,W,1,09,1.3,16.2,M,-25.1,M,,0000*53
$GPGSA,A,3,16,23,03,10,07,19,08,06,13,,,,2.3,1.3,1.9*3E
$GPRMC,202342.000,A,3748.8025,N,12217.8656,W,0.28,158.87,140611,,,A*7E
$GPVTG,158.87,T,,M,0.28,N,0.5,K,A*01
$GPGGA,202343.000,3748.8023,N,12217.8656,W,1,09,1.3,17.6,M,-25.1,M,,0000*51
$GPGSA,A,3,16,23,03,10,07,19,08,06,13,,,,2.3,1.3,1.9*3E
$GPRMC,202343.000,A,3748.8023,N,12217.8656,W,0.23,7.18,140611,,,A*7F
$GPVTG,7.18,T,,M,0.23,N,0.4,K,A*06
$GPGGA,202344.000,3748.8021,N,12217.8655,W,1,09,1.3,18.4,M,-25.1,M,,0000*5A
$GPGSA,A,3,16,23,03,10,07,19,08,06,13,,,,2.3,1.3,1.9*3E
$GPRMC,202344.000,A,3748.8021,N,12217.8655,W,0.17,88.79,140611,,,A*4E
$GPVTG,88.79,T,,M,0.17,N,0.3,K,A*36
$GPGGA,202345.000,3748.8020,N,12217.8652,W,1,09,1.3,18.9,M,-25.1,M,,0000*50
$GPGSA,A,3,16,23,03,10,07,19,08,06,13,,,,2.3,1.3,1.9*3E
$GPGSV,3,1,12,13,74,080,22,07,59,304,31,23,43,120,28,10,43,277,33*74
$GPGSV,3,2,12,08,36,275,35,03,27,077,21,19,20,110,21,16,20,042,18*76
$GPGSV,3,3,12,06,19,063,24,28,12,211,16,05,11,320,25,20,07,174,*7F
$GPRMC,202345.000,A,3748.8020,N,12217.8652,W,0.34,77.53,140611,,,A*40
$GPVTG,77.53,T,,M,0.34,N,0.6,K,A*3A
$GPGGA,202346.000,3748.8022,N,12217.8648,W,1,09,1.3,19.3,M,-25.1,M,,0000*51
$GPGSA,A,3,16,23,03,10,07,19,08,06,13,,,,2.3,1.3,1.9*3E
$GPRMC,202346.000,A,3748.8022,N,12217.8648,W,0.37,55.17,140611,,,A*49
$GPVTG,55.17,T,,M,0.37,N,0.7,K,A*38
$GPGGA,202347.000,3748.8020,N,12217.8646,W,1,09,1.3,21.2,M,-25.1,M,,0000*56
$GPGSA,A,3,16,23,03,10,07,19,08,06,13,,,,2.3,1.3,1.9*3E
$GPRMC,202347.000,A,3748.8020,N,12217.8646,W,0.23,49.14,140611,,,A*4F
$GPVTG,49.14,T,,M,0.23,N,0.4,K,A*30
$GPGGA,202348.000,3748.8018,N,12217.8643,W,2,09,1.3,21.9,M,-25.1,M,,0000*5F
$GPGSA,A,3,16,23,03,10,07,19,08,06,13,,,,2.3,1.3,1.9*3E
$GPRMC,202348.000,A,3748.8018,N,12217.8643,W,0.53,28.47,140611,,,D*4D
$GPVTG,28.47,T,,M,0.53,N,1.0,K,D*36
$GPGGA,202349.000,3748.8012,N,12217.8643,W,2,09,1.3,22.9,M,-25.1,M,,0000*57
$GPGSA,A,3,16,23,03,10,07,19,08,06,13,,,,2.3,1.3,1.9*3E
$GPRMC,202349.000,A,3748.8012,N,12217.8643,W,0.19,2.19,140611,,,D*7B
$GPVTG,2.19,T,,M,0.19,N,0.3,K,D*09
$GPGGA,202350.000,3748.8003,N,12217.8643,W,2,09,1.3,24.2,M,-25.1,M,,0000*52
$GPGSA,A,3,16,23,03,10,07,19,08,06,13,,,,2.3,1.3,1.9*3E
$GPGSV,3,1,12,13,74,080,22,07,59,304,31,23,43,120,27,10,43,276,33*7A
$GPGSV,3,2,12,08,36,275,36,03,27,077,21,19,20,110,21,16,20,042,26*78
$GPGSV,3,3,12,06,19,063,19,28,12,211,25,05,11,320,28,20,07,174,*7C
$GPVTG,255.99,T,,M,0.14,N,0.3,K,D*0C
$GPGGA,202351.000,3748.7998,N,12217.8644,W,2,09,1.3,28.1,M,-25.1,M,1.8,0000*78
$GPGSA,A,3,16,23,03,10,07,19,08,06,13,,,,2.3,1.3,1.9*3E
$GPRMC,202351.000,A,3748.7998,N,12217.8644,W,0.88,166.50,140611,,,D*77
$GPVTG,166.50,T,,M,0.88,N,1.6,K,D*0B
$GPGGA,202352.000,3748.7994,N,12217.8644,W,2,09,1.3,29.6,M,-25.1,M,2.8,0000*72
$GPGSA,A,3,16,23,03,10,07,19,08,06,13,,,,2.3,1.3,1.9*3E
$GPRMC,202352.000,A,3748.7994,N,12217.8644,W,0.18,104.51,140611,,,D*74
$GPVTG,104.51,T,,M,0.18,N,0.3,K,D*03
$GPGGA,202353.000,3748.7989,N,12217.8647,W,2,09,1.3,30.6,M,-25.1,M,,0000*50
$GPGSA,A,3,16,23,03,10,07,19,08,06,13,,,,2.3,1.3,1.9*3E
$GPRMC,202353.000,A,3748.7989,N,12217.8647,W,0.85,7.33,140611,,,D*78
$GPVTG,7.33,T,,M,0.85,N,1.6,K,D*05
$GPGGA,202354.000,3748.7993,N,12217.8650,W,2,09,1.3,31.6,M,-25.1,M,1.8,0000*7C
$GPGSA,A,3,16,23,03,10,07,19,08,06,13,,,,2.3,1.3,1.9*3E
$GPRMC,202354.000,A,3748.7993,N,12217.8650,W,0.78,0.09,140611,,,D*7E
$GPVTG,0.09,T,,M,0.78,N,1.4,K,D*0B
$GPGGA,202355.000,3748.7988,N,12217.8655,W,2,09,1.3,31.6,M,-25.1,M,2.8,0000*71
$GPGSA,A,3,16,23,03,10,07,19,08,06,13,,,,2.3,1.3,1.9*3E
$GPGSV,3,1,12,13,74,080,23,07,59,304,25,23,43,120,26,10,43,276,32*7E
$GPGSV,3,2,12,08,36,275,36,03,27,077,28,19,20,110,26,16,20,042,35*74
$GPGSV,3,3,12,06,19,063,24,28,12,211,26,05,11,320,22,20,07,174,*7B
$GPRMC,202355.000,A,3748.7988,N,12217.8655,W,0.28,5.06,140611,,,D*7F
$GPVTG,5.06,T,,M,0.28,N,0.5,K,D*04
$GPGGA,202356.000,3748.7981,N,12217.8659,W,2,09,1.3,31.2,M,-25.1,M,3.8,0000*72
$GPGSA,A,3,16,23,03,10,07,19,08,06,13,,,,2.3,1.3,1.9*3E
$GPRMC,202356.000,A,3748.7981,N,12217.8659,W,0.33,21.94,140611,,,D*4E
$GPVTG,21.94,T,,M,0.33,N,0.6,K,D*30
$GPGGA,202357.000,3748.7974,N,12217.8662,W,2,09,1.3,30.6,M,-25.1,M,4.8,0000*73
$GPGSA,A,3,16,23,03,10,07,19,08,06,13,,,,2.3,1.3,1.9*3E
$GPRMC,202357.000,A,3748.7974,N,12217.8662,W,0.16,38.45,140611,,,D*4E
$GPVTG,38.45,T,,M,0.16,N,0.3,K,D*36
$GPGGA,202358.000,3748.7976,N,12217.8666,W,2,09,1.3,30.5,M,-25.1,M,5.8,0000*78
$GPGSA,A,3,16,23,03,10,07,19,08,06,13,,,,2.3,1.3,1.9*3E
$GPRMC,202358.000,A,3748.7976,N,12217.8666,W,0.26,12.02,140611,,,D*4F
$GPVTG,12.02,T,,M,0.26,N,0.5,K,D*38
$GPGGA,202359.000,3748.7970,N,12217.8665,W,2,09,1.3,29.5,M,-25.1,M,6.8,0000*77
$GPGSA,A,3,16,23,03,10,07,19,08,06,13,,,,2.3,1.3,1.9*3E
$GPRMC,202359.000,A,3748.7970,N,12217.8665,W,0.30,17.10,140611,,,D*4A
$GPVTG,17.10,T,,M,0.30,N,0.5,K,D*39
$GPGGA,202400.000,3748.7967,N,12217.8666,W,2,09,1.3,29.6,M,-25.1,M,,0000*5A
$GPGSA,A,3,16,23,03,10,07,19,08,06,13,,,,2.3,1.3,1.9*3E
$GPGSV,3,1,12,13,74,080,23,07,59,304,29,23,43,120,25,10,43,276,32*71
$GPGSV,3,2,12,08,36,275,36,03,27,077,24,19,20,110,20,16,20,042,34*7F
$GPGSV,3,3,12,06,19,063,22,28,12,211,26,05,11,320,19,20,07,174,*75
$GPRMC,202400.000,A,3748.7967,N,12217.8666,W,0.39,168.99,140611,,,D*75
$GPVTG,168.99,T,,M,0.39,N,0.7,K,D*0A
$GPGGA,202401.000,3748.7959,N,12217.8664,W,2,09,1.3,29.9,M,-25.1,M,,0000*5B
$GPGSA,A,3,16,23,03,10,07,19,08,06,13,,,,2.3,1.3,1.9*3E
$GPRMC,202401.000,A,3748.7959,N,12217.8664,W,0.43,117.02,140611,,,D*7C
$GPVTG,117.02,T,,M,0.43,N,0.8,K,D*02
$GPGGA,202402.000,3748.7950,N,12217.8660,W,2,09,1.3,30.1,M,-25.1,M,,0000*55
$GPGSA,A,3,16,23,03,10,07,19,08,06,13,,,,2.3,1.3,1.9*3E
$GPRMC,202402.000,A,3748.7950,N,12217.8660,W,0.41,114.48,140611,,,D*7D
$GPVTG,114.48,T,,M,0.41,N,0.8,K,D*0D
$GPGGA,202403.000,3748.7940,N,12217.8656,W,2,09,1.3,30.4,M,-25.1,M,1.8,0000*72
$GPGSA,A,3,16,23,03,10,07,19,08,06,13,,,,2.3,1.3,1.9*3E
$GPRMC,202403.000,A,3748.7940,N,12217.8656,W,0.64,135.39,140611,,,D*7A
$GPVTG,135.39,T,,M,0.64,N,1.2,K,D*04
$GPGGA,202404.000,3748.7931,N,12217.8652,W,2,09,1.3,30.5,M,-25.1,M,2.8,0000*75
$GPGSA,A,3,16,23,03,10,07,19,08,06,13,,,,2.3,1.3,1.9*3E
$GPRMC,202404.000,A,3748.7931,N,12217.8652,W,0.62,133.96,140611,,,D*7A
$GPVTG,133.96,T,,M,0.62,N,1.1,K,D*02
$GPGGA,202405.000,3748.7924,N,12217.8649,W,2,09,1.3,30.7,M,-25.1,M,3.8,0000*79
$GPGSA,A,3,16,23,03,10,07,19,08,06,13,,,,2.3,1.3,1.9*3E
$GPGSV,3,1,12,13,74,080,25,07,59,304,30,23,43,120,29,10,43,276,32*73
$GPGSV,3,2,12,08,36,275,34,03,27,077,22,19,20,110,27,16,20,042,33*7B
$GPGSV,3,3,12,06,19,063,18,28,12,211,24,05,11,320,23,20,07,174,*77
$GPRMC,202405.000,A,3748.7924,N,12217.8649,W,0.58,109.18,140611,,,D*73
$GPVTG,109.18,T,,M,0.58,N,1.1,K,D*04
$GPGGA,202406.000,3748.7913,N,12217.8644,W,2,09,1.3,29.2,M,-25.1,M,,0000*5B
$GPGSA,A,3,16,23,03,10,07,19,08,06,13,,,,2.3,1.3,1.9*3E
$GPRMC,202406.000,A,3748.7913,N,12217.8644,W,0.77,114.71,140611,,,D*77
$GPVTG,114.71,T,,M,0.77,N,1.4,K,D*0F
$GPGGA,202407.000,3748.7908,N,12217.8642,W,2,09,1.3,29.8,M,-25.1,M,1.8,0000*7B
$GPGSA,A,3,16,23,03,10,07,19,08,06,13,,,,2.3,1.3,1.9*3E
$GPRMC,202407.000,A,3748.7908,N,12217.8642,W,0.68,119.35,140611,,,D*79
$GPVTG,119.35,T,,M,0.68,N,1.3,K,D*0B
$GPGGA,202408.000,3748.7898,N,12217.8637,W,2,09,1.3,28.3,M,-25.1,M,,0000*53
$GPGSA,A,3,16,23,03,10,07,19,08,06,13,,,,2.3,1.3,1.9*3E
$GPRMC,202408.000,A,3748.7898,N,12217.8637,W,1.04,134.08,140611,,,D*76
$GPVTG,134.08,T,,M,1.04,N,1.9,K,D*0B
$GPGGA,202409.000,3748.7896,N,12217.8628,W,2,09,1.3,26.3,M,-25.1,M,1.8,0000*7B
$GPGSA,A,3,16,23,03,10,07,19,08,06,13,,,,2.3,1.3,1.9*3E
$GPRMC,202409.000,A,3748.7896,N,12217.8628,W,1.42,104.63,140611,,,D*7B
$GPVTG,104.63,T,,M,1.42,N,2.6,K,D*0B
$GPGGA,202410.000,3748.7894,N,12217.8617,W,2,09,1.3,25.5,M,-25.1,M,2.8,0000*7B
$GPGSA,A,3,16,23,03,10,07,19,08,06,13,,,,2.3,1.3,1.9*3E
$GPGSV,3,1,12,13,74,080,24,07,59,304,28,23,43,120,36,10,43,276,26*70
$GPGSV,3,2,12,08,36,275,28,03,27,077,30,19,20,110,38,16,20,042,26*7F
$GPGSV,3,3,12,06,19,063,28,28,12,211,24,05,11,320,27,20,07,174,*70
$GPVTG,105.29,T,,M,1.22,N,2.3,K,D*07
$GPGGA,202411.000,3748.7892,N,12217.8606,W,2,09,1.3,25.0,M,-25.1,M,3.8,0000*78
$GPGSA,A,3,16,23,03,10,07,19,08,06,13,,,,2.3,1.3,1.9*3E
$GPRMC,202411.000,A,3748.7892,N,12217.8606,W,0.90,112.34,140611,,,D*71
$GPVTG,112.34,T,,M,0.90,N,1.7,K,D*02
$GPGGA,202412.000,3748.7894,N,12217.8596,W,2,09,1.3,23.7,M,-25.1,M,,0000*53
$GPGSA,A,3,16,23,03,10,07,19,08,06,13,,,,2.3,1.3,1.9*3E
$GPRMC,202412.000,A,3748.7894,N,12217.8596,W,1.17,114.39,140611,,,D*7B
$GPVTG,114.39,T,,M,1.17,N,2.2,K,D*01
$GPGGA,202413.000,3748.7895,N,12217.8589,W,2,09,1.3,21.4,M,-25.1,M,,0000*5C
$GPGSA,A,3,16,23,03,10,07,19,08,06,13,,,,2.3,1.3,1.9*3E
$GPRMC,202413.000,A,3748.7895,N,12217.8589,W,1.53,116.34,140611,,,D*7A
$GPVTG,116.34,T,,M,1.53,N,2.8,K,D*04
$GPGGA,202414.000,3748.7894,N,12217.8580,W,2,09,1.3,19.4,M,-25.1,M,,0000*58
$GPGSA,A,3,16,23,03,10,07,19,08,06,13,,,,2.3,1.3,1.9*3E
$GPRMC,202414.000,A,3748.7894,N,12217.8580,W,1.43,121.11,140611,,,D*77
$GPVTG,121.11,T,,M,1.43,N,2.7,K,D*09
$GPGGA,202415.000,3748.7891,N,12217.8572,W,2,09,1.3,17.8,M,-25.1,M,1.8,0000*74
$GPGSA,A,3,16,23,03,10,07,19,08,06,13,,,,2.3,1.3,1.9*3E
$GPGSV,3,1,12,13,74,080,26,07,59,304,27,23,43,120,36,10,43,276,26*7D
$GPGSV,3,2,12,08,36,275,25,03,27,077,31,19,20,110,37,16,20,042,19*70
$GPGSV,3,3,12,06,19,063,24,28,12,211,26,05,11,320,24,20,07,174,*7D
$GPRMC,202415.000,A,3748.7891,N,12217.8572,W,1.32,116.14,140611,,,D*79
$GPVTG,116.14,T,,M,1.32,N,2.5,K,D*0C
$GPGGA,202416.000,3748.7885,N,12217.8571,W,2,09,1.3,14.4,M,-25.1,M,2.8,0000*7D
$GPGSA,A,3,16,23,03,10,07,19,08,06,13,,,,2.3,1.3,1.9*3E
$GPRMC,202416.000,A,3748.7885,N,12217.8571,W,1.20,109.23,140611,,,D*75
$GPVTG,109.23,T,,M,1.20,N,2.2,K,D*02
$GPGGA,202417.000,3748.7881,N,12217.8568,W,2,09,1.3,12.6,M,-25.1,M,3.8,0000*75
$GPGSA,A,3,16,23,03,10,07,19,08,06,13,,,,2.3,1.3,1.9*3E
$GPRMC,202417.000,A,3748.7881,N,12217.8568,W,1.22,112.48,140611,,,D*7D
$GPVTG,112.48,T,,M,1.22,N,2.3,K,D*06
$GPGGA,202418.000,3748.7880,N,12217.8560,W,2,09,1.3,13.4,M,-25.1,M,,0000*55
$GPGSA,A,3,16,23,03,10,07,19,08,06,13,,,,2.3,1.3,1.9*3E
$GPRMC,202418.000,A,3748.7880,N,12217.8560,W,1.22,153.22,140611,,,D*72
$GPVTG,153.22,T,,M,1.22,N,2.3,K,D*0F
$GPGGA,202419.000,3748.7875,N,12217.8552,W,2,09,1.3,14.3,M,-25.1,M,,0000*5F
$GPGSA,A,3,16,23,03,10,07,19,08,06,13,,,,2.3,1.3,1.9*3E
$GPRMC,202419.000,A,3748.7875,N,12217.8552,W,1.85,156.34,140611,,,D*77
$GPVTG,156.34,T,,M,1.85,N,3.4,K,D*06
$GPGGA,202420.000,3748.7872,N,12217.8546,W,2,09,1.3,14.0,M,-25.1,M,,0000*54
$GPGSA,A,3,16,23,03,10,07,19,08,06,13,,,,2.3,1.3,1.9*3E
$GPGSV,3,1,12,13,74,080,26,07,59,304,27,23,43,120,37,10,43,276,26*7C
$GPGSV,3,2,12,08,36,275,26,03,27,077,22,19,20,110,34,16,20,042,23*7B
$GPGSV,3,3,12,06,19,063,22,28,12,211,27,05,11,320,25,20,07,174,*7B
$GPRMC,202420.000,A,3748.7872,N,12217.8546,W,1.28,108.74,140611,,,D*77
$GPVTG,108.74,T,,M,1.28,N,2.4,K,D*0F
$GPGGA,202421.000,3748.7875,N,12217.8539,W,2,09,1.3,12.3,M,-25.1,M,,0000*5F
$GPGSA,A,3,16,23,03,10,07,19,08,06,13,,,,2.3,1.3,1.9*3E
$GPRMC,202421.000,A,3748.7875,N,12217.8539,W,0.91,117.97,140611,,,D*79
$GPVTG,117.97,T,,M,0.91,N,1.7,K,D*0F
$GPGGA,202422.000,3748.7878,N,12217.8531,W,2,09,1.3,11.2,M,-25.1,M,,0000*5B
$GPGSA,A,3,16,23,03,10,07,19,08,06,13,,,,2.3,1.3,1.9*3E
$GPRMC,202422.000,A,3748.7878,N,12217.8531,W,0.89,130.16,140611,,,D*7A
$GPVTG,130.16,T,,M,0.89,N,1.6,K,D*0B
$GPGGA,202423.000,3748.7878,N,12217.8525,W,2,09,1.3,10.0,M,-25.1,M,1.8,0000*7B
$GPGSA,A,3,16,23,03,10,07,19,08,06,13,,,,2.3,1.3,1.9*3E
$GPRMC,202423.000,A,3748.7878,N,12217.8525,W,1.45,146.32,140611,,,D*78
$GPVTG,146.32,T,,M,1.45,N,2.7,K,D*0F
$GPGGA,202424.000,3748.7877,N,12217.8518,W,2,09,1.3,9.2,M,-25.1,M,2.8,0000*44
$GPGSA,A,3,16,23,03,10,07,19,08,06,13,,,,2.3,1.3,1.9*3E
$GPRMC,202424.000,A,3748.7877,N,12217.8518,W,1.86,153.51,140611,,,D*70
$GPVTG,153.51,T,,M,1.86,N,3.4,K,D*03
$GPGGA,202425.000,3748.7876,N,12217.8511,W,2,09,1.3,8.2,M,-25.1,M,3.8,0000*4D
$GPGSA,A,3,16,23,03,10,07,19,08,06,13,,,,2.3,1.3,1.9*3E
$GPGSV,3,1,12,13,74,080,26,07,59,304,26,23,43,120,37,10,43,276,27*7C
$GPGSV,3,2,12,08,36,275,26,03,27,077,27,19,20,110,30,16,20,042,19*73
$GPGSV,3,3,12,06,19,063,18,28,12,211,28,05,11,320,21,20,07,174,*79
$GPRMC,202425.000,A,3748.7876,N,12217.8511,W,1.92,154.19,140611,,,D*77
$GPVTG,154.19,T,,M,1.92,N,3.6,K,D*0F
$GPGGA,202426.000,3748.7873,N,12217.8505,W,2,09,1.3,6.7,M,-25.1,M,4.8,0000*42
$GPGSA,A,3,16,23,03,10,07,19,08,06,13,,,,2.3,1.3,1.9*3E
$GPRMC,202426.000,A,3748.7873,N,12217.8505,W,2.52,141.58,140611,,,D*7A
$GPVTG,141.58,T,,M,2.52,N,4.7,K,D*07
$GPGGA,202427.000,3748.7872,N,12217.8498,W,2,08,1.3,5.5,M,-25.1,M,5.8,0000*46
$GPGSA,A,3,16,23,03,10,07,19,08,13,,,,,2.4,1.3,2.0*35
$GPRMC,202427.000,A,3748.7872,N,12217.8498,W,1.70,127.20,140611,,,D*73
$GPVTG,127.20,T,,M,1.70,N,3.2,K,D*09
$GPGGA,202428.000,3748.7874,N,12217.8486,W,2,09,1.3,5.2,M,-25.1,M,6.8,0000*45
$GPGSA,A,3,16,23,03,10,07,19,08,06,13,,,,2.3,1.3,1.9*3E
$GPRMC,202428.000,A,3748.7874,N,12217.8486,W,1.39,121.95,140611,,,D*70
$GPVTG,121.95,T,,M,1.39,N,2.6,K,D*09
$GPGGA,202429.000,3748.7873,N,12217.8479,W,2,09,1.3,3.5,M,-25.1,M,7.8,0000*43
$GPGSA,A,3,16,23,03,10,07,19,08,06,13,,,,2.3,1.3,1.9*3E
$GPRMC,202429.000,A,3748.7873,N,12217.8479,W,0.73,128.46,140611,,,D*7E
$GPVTG,128.46,T,,M,0.73,N,1.3,K,D*07
$GPGGA,202430.000,3748.7874,N,12217.8475,W,2,09,1.3,2.4,M,-25.1,M,8.8,0000*4F
$GPGSA,A,3,16,23,03,10,07,19,08,06,13,,,,2.3,1.3,1.9*3E
$GPGSV,3,1,12,13,74,080,27,07,59,304,26,23,43,120,30,10,43,276,26*7B
$GPGSV,3,2,12,08,36,275,26,03,27,077,32,19,20,110,35,16,20,042,20*78
$GPGSV,3,3,12,06,19,063,26,28,12,211,27,05,11,320,22,20,07,174,*78
$GPRMC,202430.000,A,3748.7874,N,12217.8475,W,1.17,137.05,140611,,,D*77
$GPVTG,137.05,T,,M,1.17,N,2.2,K,D*0F
$GPGGA,202431.000,3748.7875,N,12217.8468,W,2,09,1.3,1.1,M,-25.1,M,9.8,0000*44
$GPGSA,A,3,16,23,03,10,07,19,08,06,13,,,,2.3,1.3,1.9*3E
$GPRMC,202431.000,A,3748.7875,N,12217.8468,W,1.86,126.96,140611,,,D*79
$GPVTG,126.96,T,,M,1.86,N,3.4,K,D*0A
$GPGGA,202432.000,3748.7876,N,12217.8462,W,2,09,1.3,-0.3,M,-25.1,M,10.8,0000*58
$GPGSA,A,3,16,23,03,10,07,19,08,06,13,,,,2.3,1.3,1.9*3E
$GPRMC,202432.000,A,3748.7876,N,12217.8462,W,1.67,138.89,140611,,,D*7D
$GPVTG,138.89,T,,M,1.67,N,3.1,K,D*01
$GPGGA,202433.000,3748.7875,N,12217.8457,W,2,09,1.3,-1.2,M,-25.1,M,11.8,0000*5D
$GPGSA,A,3,16,23,03,10,07,19,08,06,13,,,,2.3,1.3,1.9*3E
$GPRMC,202433.000,A,3748.7875,N,12217.8457,W,2.04,127.12,140611,,,D*73
$GPVTG,127.12,T,,M,2.04,N,3.8,K,D*02
$GPGGA,202434.000,3748.7873,N,12217.8451,W,2,09,1.3,-2.1,M,-25.1,M,12.8,0000*59
$GPGSA,A,3,16,23,03,10,07,19,08,06,13,,,,2.3,1.3,1.9*3E
$GPRMC,202434.000,A,3748.7873,N,12217.8451,W,1.90,120.98,140611,,,D*7F
$GPVTG,120.98,T,,M,1.90,N,3.5,K,D*04
$GPGGA,202435.000,3748.7873,N,12217.8446,W,2,09,1.3,-2.9,M,-25.1,M,13.8,0000*57
$GPGSA,A,3,16,23,03,10,07,19,08,06,13,,,,2.3,1.3,1.9*3E
$GPGSV,3,1,12,13,74,080,27,07,59,304,26,23,43,120,37,10,43,276,25*7F
$GPGSV,3,2,12,08,36,275,26,03,27,077,32,19,20,110,37,16,20,042,26*7C
$GPGSV,3,3,12,06,19,063,29,28,12,211,27,05,11,320,21,20,07,174,*74
$GPVTG,144.57,T,,M,1.71,N,3.2,K,D*0D
$GPGGA,202436.000,3748.7869,N,12217.8442,W,2,09,1.3,-3.7,M,-25.1,M,,0000*40
$GPGSA,A,3,16,23,03,10,07,19,08,06,13,,,,2.3,1.3,1.9*3E
$GPRMC,202436.000,A,3748.7869,N,12217.8442,W,1.82,150.56,140611,,,D*72
$GPVTG,150.56,T,,M,1.82,N,3.4,K,D*03
$GPGGA,202437.000,3748.7868,N,12217.8438,W,2,09,1.3,-4.9,M,-25.1,M,,0000*44
$GPGSA,A,3,16,23,03,10,07,19,08,06,13,,,,2.3,1.3,1.9*3E
$GPRMC,202437.000,A,3748.7868,N,12217.8438,W,1.60,140.40,140611,,,D*75
$GPVTG,140.40,T,,M,1.60,N,3.0,K,D*0D
$GPGGA,202438.000,3748.7866,N,12217.8434,W,2,09,1.3,-5.5,M,-25.1,M,,0000*44
$GPGSA,A,3,16,23,03,10,07,19,08,06,13,,,,2.3,1.3,1.9*3E
$GPRMC,202438.000,A,3748.7866,N,12217.8434,W,1.51,127.88,140611,,,D*7F
$GPVTG,127.88,T,,M,1.51,N,2.8,K,D*03
$GPGGA,202439.000,3748.7866,N,12217.8423,W,2,09,1.3,-5.9,M,-25.1,M,1.8,0000*68
$GPGSA,A,3,16,23,03,10,07,19,08,06,13,,,,2.3,1.3,1.9*3E
$GPRMC,202439.000,A,3748.7866,N,12217.8423,W,1.73,117.57,140611,,,D*79
$GPVTG,117.57,T,,M,1.73,N,3.2,K,D*09
$GPGGA,202440.000,3748.7866,N,12217.8406,W,2,09,1.3,-3.8,M,-25.1,M,,0000*41
$GPGSA,A,3,16,23,03,10,07,19,08,06,13,,,,2.3,1.3,1.9*3E
$GPGSV,3,1,12,13,74,080,27,07,59,304,26,23,43,120,37,10,43,276,27*7D
$GPGSV,3,2,12,08,36,275,26,03,27,077,31,19,20,110,31,16,20,042,21*7E
$GPGSV,3,3,12,06,19,063,25,28,12,211,25,05,11,320,22,20,07,174,*79
$GPRMC,202440.000,A,3748.7866,N,12217.8406,W,1.59,123.48,140611,,,D*71
$GPVTG,123.48,T,,M,1.59,N,2.9,K,D*02
$GPGGA,202441.000,3748.7863,N,12217.8396,W,2,09,1.3,-3.4,M,-25.1,M,1.8,0000*60
$GPGSA,A,3,16,23,03,10,07,19,08,06,13,,,,2.3,1.3,1.9*3E
$GPRMC,202441.000,A,3748.7863,N,12217.8396,W,1.52,133.19,140611,,,D*75
$GPVTG,133.19,T,,M,1.52,N,2.8,K,D*0D
$GPGGA,202442.000,3748.7861,N,12217.8384,W,2,09,1.3,-2.0,M,-25.1,M,2.8,0000*64
$GPGSA,A,3,16,23,03,10,07,19,08,06,13,,,,2.3,1.3,1.9*3E
$GPRMC,202442.000,A,3748.7861,N,12217.8384,W,2.19,131.44,140611,,,D*71
$GPVTG,131.44,T,,M,2.19,N,4.0,K,D*05
$GPGGA,202443.000,3748.7858,N,12217.8374,W,2,09,1.3,-1.2,M,-25.1,M,3.8,0000*60
$GPGSA,A,3,16,23,03,10,07,19,08,06,13,,,,2.3,1.3,1.9*3E
$GPRMC,202443.000,A,3748.7858,N,12217.8374,W,1.85,129.65,140611,,,D*79
$GPVTG,129.65,T,,M,1.85,N,3.4,K,D*0A
$GPGGA,202444.000,3748.7853,N,12217.8367,W,2,09,1.3,-1.5,M,-25.1,M,,0000*4C
$GPGSA,A,3,16,23,03,10,07,19,08,06,13,,,,2.3,1.3,1.9*3E
$GPRMC,202444.000,A,3748.7853,N,12217.8367,W,1.57,130.18,140611,,,D*7A
$GPVTG,130.18,T,,M,1.57,N,2.9,K,D*0B
$GPGGA,202445.000,3748.7851,N,12217.8360,W,2,09,1.3,-1.5,M,-25.1,M,1.8,0000*6F
$GPGSA,A,3,16,23,03,10,07,19,08,06,13,,,,2.3,1.3,1.9*3E
$GPGSV,3,1,12,13,74,080,27,07,59,304,25,23,43,120,37,10,43,276,27*7E
$GPGSV,3,2,12,08,36,275,26,03,27,077,27,19,20,110,32,16,20,042,21*7A
$GPGSV,3,3,12,06,19,063,25,28,12,211,25,05,11,320,16,20,07,174,*7E
$GPRMC,202445.000,A,3748.7851,N,12217.8360,W,1.18,136.65,140611,,,D*79
$GPVTG,136.65,T,,M,1.18,N,2.2,K,D*07
$GPGGA,202446.000,3748.7847,N,12217.8359,W,2,09,1.3,-2.2,M,-25.1,M,2.8,0000*66
$GPGSA,A,3,16,23,03,10,07,19,08,06,13,,,,2.3,1.3,1.9*3E
$GPRMC,202446.000,A,3748.7847,N,12217.8359,W,0.40,144.77,140611,,,D*7D
$GPVTG,144.77,T,,M,0.40,N,0.7,K,D*0A
$GPGGA,202447.000,3748.7849,N,12217.8361,W,2,08,1.6,-2.8,M,-25.1,M,3.8,0000*6D
$GPGSA,A,3,23,03,10,07,19,08,06,13,,,,,2.5,1.6,2.0*30
$GPRMC,202447.000,A,3748.7849,N,12217.8361,W,0.03,281.81,140611,,,D*7D
$GPVTG,281.81,T,,M,0.03,N,0.1,K,D*08
$GPGGA,202448.000,3748.7847,N,12217.8363,W,2,08,1.6,-3.2,M,-25.1,M,,0000*40
$GPGSA,A,3,23,03,10,07,19,08,06,13,,,,,2.5,1.6,2.0*30
$GPRMC,202448.000,A,3748.7847,N,12217.8363,W,0.49,194.70,140611,,,D*79
$GPVTG,194.70,T,,M,0.49,N,0.9,K,D*07
$GPGGA,202449.000,3748.7844,N,12217.8365,W,2,09,1.3,-3.6,M,-25.1,M,,0000*44
$GPGSA,A,3,16,23,03,10,07,19,08,06,13,,,,2.3,1.3,1.9*3E
$GPRMC,202449.000,A,3748.7844,N,12217.8365,W,0.15,153.22,140611,,,D*78
$GPVTG,153.22,T,,M,0.15,N,0.3,K,D*08
$GPGGA,202450.000,3748.7842,N,12217.8368,W,2,09,1.3,-4.3,M,-25.1,M,,0000*45
$GPGSA,A,3,16,23,03,10,07,19,08,06,13,,,,2.3,1.3,1.9*3E
$GPGSV,3,1,12,13,74,080,27,07,59,304,33,23,43,120,22,10,43,276,28*72
$GPGSV,3,2,12,08,36,275,27,03,27,077,27,19,20,110,28,16,20,042,16*74
$GPGSV,3,3,12,06,19,063,19,28,12,211,21,05,11,320,21,20,07,174,*71
$GPRMC,202450.000,A,3748.7842,N,12217.8368,W,0.42,16.81,140611,,,D*40
$GPVTG,16.81,T,,M,0.42,N,0.8,K,D*38
$GPGGA,202451.000,3748.7840,N,12217.8370,W,2,09,1.3,-4.8,M,-25.1,M,,0000*44
$GPGSA,A,3,16,23,03,10,07,19,08,06,13,,,,2.3,1.3,1.9*3E
$GPRMC,202451.000,A,3748.7840,N,12217.8370,W,0.03,189.10,140611,,,D*70
$GPVTG,189.10,T,,M,0.03,N,0.1,K,D*0B
$GPGGA,202452.000,3748.7832,N,12217.8376,W,2,08,1.6,-4.7,M,-25.1,M,1.8,0000*68
$GPGSA,A,3,16,23,03,10,07,08,06,13,,,,,2.7,1.6,2.2*3F
$GPRMC,202452.000,A,3748.7832,N,12217.8376,W,0.59,190.62,140611,,,D*72
$GPVTG,190.62,T,,M,0.59,N,1.1,K,D*08
$GPGGA,202453.000,3748.7826,N,12217.8379,W,2,09,1.3,-5.6,M,-25.1,M,2.8,0000*64
$GPGSA,A,3,16,23,03,10,07,19,08,06,13,,,,2.3,1.3,1.9*3E
$GPRMC,202453.000,A,3748.7826,N,12217.8379,W,1.19,187.11,140611,,,D*7E
$GPVTG,187.11,T,,M,1.19,N,2.2,K,D*0F
$GPGGA,202454.000,3748.7817,N,12217.8382,W,2,09,1.3,-6.3,M,-25.1,M,,0000*47
$GPGSA,A,3,16,23,03,10,07,19,08,06,13,,,,2.3,1.3,1.9*3E
$GPRMC,202454.000,A,3748.7817,N,12217.8382,W,1.11,189.35,140611,,,D*7F
$GPVTG,189.35,T,,M,1.11,N,2.0,K,D*0D
$GPGGA,202455.000,3748.7812,N,12217.8382,W,2,09,1.3,-6.5,M,-25.1,M,,0000*45
$GPGSA,A,3,16,23,03,10,07,19,08,06,13,,,,2.3,1.3,1.9*3E
$GPGSV,3,1,12,13,74,080,28,07,59,304,33,23,43,120,29,10,43,276,29*77
$GPGSV,3,2,12,08,36,275,27,03,27,077,27,19,20,110,20,16,20,042,18*72
$GPGSV,3,3,12,06,19,063,24,28,12,211,23,05,11,320,21,20,07,174,*7D
$GPVTG,195.66,T,,M,0.19,N,0.3,K,D*0E
$GPGGA,202456.000,3748.7809,N,12217.8382,W,2,09,1.3,-6.6,M,-25.1,M,,0000*4F
$GPGSA,A,3,16,23,03,10,07,19,08,06,13,,,,2.3,1.3,1.9*3E
$GPRMC,202456.000,A,3748.7809,N,12217.8382,W,0.59,103.58,140611,,,D*76
$GPVTG,103.58,T,,M,0.59,N,1.1,K,D*0B
$GPGGA,202457.000,3748.7805,N,12217.8376,W,2,09,1.3,-5.9,M,-25.1,M,1.8,0000*62
$GPGSA,A,3,16,23,03,10,07,19,08,06,13,,,,2.3,1.3,1.9*3E
$GPRMC,202457.000,A,3748.7805,N,12217.8376,W,1.41,119.87,140611,,,D*71
$GPVTG,119.87,T,,M,1.41,N,2.6,K,D*0E
$GPGGA,202458.000,3748.7800,N,12217.8369,W,2,09,1.3,-5.5,M,-25.1,M,2.8,0000*69
$GPGSA,A,3,16,23,03,10,07,19,08,06,13,,,,2.3,1.3,1.9*3E
$GPRMC,202458.000,A,3748.7800,N,12217.8369,W,1.70,135.55,140611,,,D*76
$GPVTG,135.55,T,,M,1.70,N,3.1,K,D*0B
