$ADVER,3080,2.3
$GPRMC,215834.201,A,3748.7948,N,12217.8609,W,0.08,210.13,040512,,,A*77
$GPGGA,215835.201,3748.7948,N,12217.8609,W,1,05,2.5,3.2,M,-25.1,M,,0000*67
$GPGSA,A,3,06,03,16,10,13,,,,,,,,3.7,2.5,2.7*35
$GPRMC,215835.201,A,3748.7948,N,12217.8609,W,0.04,300.51,040512,,,A*7C
$GPVTG,300.51,T,,M,0.04,N,0.1,K,A*0F
$GPGGA,215836.000,3748.7947,N,12217.8609,W,1,05,2.5,3.1,M,-25.1,M,,0000*6B
$GPGSA,A,3,06,03,16,10,13,,,,,,,,3.7,2.5,2.7*35
$GPRMC,215836.000,A,3748.7947,N,12217.8609,W,0.10,328.01,040512,,,A*79
$GPVTG,328.01,T,,M,0.10,N,0.2,K,A*06
$GPGGA,215837.000,3748.7947,N,12217.8610,W,1,05,2.5,3.1,M,-25.1,M,,0000*62
$GPGSA,A,3,06,03,16,10,13,,,,,,,,3.7,2.5,2.7*35
$GPRMC,215837.000,A,3748.7947,N,12217.8610,W,0.14,278.27,040512,,,A*74
$GPVTG,278.27,T,,M,0.14,N,0.3,K,A*03
$GPGGA,215838.000,3748.7947,N,12217.8610,W,1,05,2.5,3.1,M,-25.1,M,,0000*6D
$GPGSA,A,3,06,03,16,10,13,,,,,,,,3.7,2.5,2.7*35
$GPGSV,3,1,12,13,77,035,34,10,44,278,36,03,27,085,35,16,24,043,37*7D
$GPGSV,3,2,12,06,20,069,34,07,61,304,36,23,53,113,26,08,29,268,34*7D
$GPGSV,3,3,12,19,16,122,22,20,11,175,26,05,07,323,,28,03,210,*7B
$GPRMC,215838.000,A,3748.7947,N,12217.8610,W,0.07,297.48,040512,,,A*71
$GPVTG,297.48,T,,M,0.07,N,0.1,K,A*0B
$GPGGA,215839.000,3748.7947,N,12217.8610,W,1,05,2.5,3.0,M,-25.1,M,,0000*6D
$GPGSA,A,3,06,03,16,10,13,,,,,,,,3.7,2.5,2.7*35
$GPRMC,215839.000,A,3748.7947,N,12217.8610,W,0.06,322.15,040512,,,A*76
$GPVTG,322.15,T,,M,0.06,N,0.1,K,A*0D
$GPGGA,215840.000,3748.7948,N,12217.8610,W,1,05,2.5,3.1,M,-25.1,M,,0000*6D
$GPGSA,A,3,06,03,16,10,13,,,,,,,,3.7,2.5,2.7*35
$GPRMC,215840.000,A,3748.7948,N,12217.8610,W,0.20,63.70,040512,,,A*46
$GPVTG,63.70,T,,M,0.20,N,0.4,K,A*39
$GPGGA,215841.000,3748.7948,N,12217.8610,W,1,05,2.5,3.0,M,-25.1,M,,0000*6D
$GPGSA,A,3,06,03,16,10,13,,,,,,,,3.7,2.5,2.7*35
$GPRMC,215841.000,A,3748.7948,N,12217.8610,W,0.06,212.64,040512,,,A*72
$GPVTG,212.64,T,,M,0.06,N,0.1,K,A*09
$GPGGA,215842.000,3748.7948,N,12217.8610,W,1,05,2.5,3.0,M,-25.1,M,,0000*6E
$GPGSA,A,3,06,03,16,10,13,,,,,,,,3.7,2.5,2.7*35
$GPRMC,215842.000,A,3748.7948,N,12217.8610,W,0.03,342.32,040512,,,A*73
$GPVTG,342.32,T,,M,0.03,N,0.1,K,A*0B
$GPGGA,215843.000,3748.7948,N,12217.8611,W,1,05,2.5,3.0,M,-25.1,M,,0000*6E
$GPGSA,A,3,06,03,16,10,13,,,,,,,,3.7,2.5,2.7*35
$GPGSV,3,1,12,13,77,035,34,10,44,278,36,03,27,085,33,16,24,043,37*7B
$GPGSV,3,2,12,06,20,069,33,07,61,304,36,23,53,113,31,08,29,268,29*70
$GPGSV,3,3,12,19,16,122,27,20,11,175,25,05,07,323,31,28,03,210,*7F
$GPRMC,215843.000,A,3748.7948,N,12217.8611,W,0.48,280.22,040512,,,A*72
$GPVTG,280.22,T,,M,0.48,N,0.9,K,A*02
$GPGGA,215844.000,3748.7944,N,12217.8611,W,1,05,2.5,2.6,M,-25.1,M,,0000*62
$GPGSA,A,3,06,03,16,10,13,,,,,,,,3.7,2.5,2.7*35
$GPRMC,215844.000,A,3748.7944,N,12217.8611,W,0.17,129.64,040512,,,A*71
$GPVTG,129.64,T,,M,0.17,N,0.3,K,A*00
$GPGGA,215845.000,3748.7944,N,12217.8610,W,1,05,2.5,2.6,M,-25.1,M,,0000*62
$GPGSA,A,3,06,03,16,10,13,,,,,,,,3.7,2.5,2.7*35
$GPRMC,215845.000,A,3748.7944,N,12217.8610,W,0.32,93.84,040512,,,A*48
$GPVTG,93.84,T,,M,0.32,N,0.6,K,A*3C
$GPGGA,215846.000,3748.7944,N,12217.8609,W,1,05,2.5,2.5,M,-25.1,M,,0000*6A
$GPGSA,A,3,06,03,16,10,13,,,,,,,,3.7,2.5,2.7*35
$GPRMC,215846.000,A,3748.7944,N,12217.8609,W,0.03,203.26,040512,,,A*72
$GPVTG,203.26,T,,M,0.03,N,0.1,K,A*0A
$GPGGA,215847.000,3748.7945,N,12217.8610,W,1,05,2.5,2.6,M,-25.1,M,,0000*61
$GPGSA,A,3,06,03,16,10,13,,,,,,,,3.7,2.5,2.7*35
$GPRMC,215847.000,A,3748.7945,N,12217.8610,W,0.06,312.55,040512,,,A*7A
$GPVTG,312.55,T,,M,0.06,N,0.1,K,A*0A
$GPGGA,215848.000,3748.7946,N,12217.8610,W,1,05,2.5,2.6,M,-25.1,M,,0000*6D
$GPGSA,A,3,06,03,16,10,13,,,,,,,,3.7,2.5,2.7*35
$GPGSV,3,1,12,13,77,036,34,07,61,304,36,23,53,113,34,10,44,278,36*70
$GPGSV,3,2,12,08,29,268,30,03,27,084,33,16,24,043,37,06,20,069,33*74
$GPGSV,3,3,12,19,16,122,31,20,11,175,26,05,07,323,32,28,03,210,*78
$GPVTG,299.30,T,,M,0.04,N,0.1,K,A*09
$GPGGA,215849.000,3748.7947,N,12217.8611,W,1,05,2.5,2.6,M,-25.1,M,,0000*6C
$GPGSA,A,3,06,03,16,10,13,,,,,,,,3.7,2.5,2.7*35
$GPRMC,215849.000,A,3748.7947,N,12217.8611,W,0.06,313.44,040512,,,A*76
$GPVTG,313.44,T,,M,0.06,N,0.1,K,A*0B
$GPGGA,215850.000,3748.7947,N,12217.8611,W,1,05,2.5,2.7,M,-25.1,M,,0000*65
$GPGSA,A,3,06,03,16,10,13,,,,,,,,3.7,2.5,2.7*35
$GPRMC,215850.000,A,3748.7947,N,12217.8611,W,0.16,291.33,040512,,,A*74
$GPVTG,291.33,T,,M,0.16,N,0.3,K,A*03
$GPGGA,215851.000,3748.7948,N,12217.8612,W,1,05,2.5,2.7,M,-25.1,M,,0000*68
$GPGSA,A,3,06,03,16,10,13,,,,,,,,3.7,2.5,2.7*35
$GPRMC,215851.000,A,3748.7948,N,12217.8612,W,0.03,75.25,040512,,,A*42
$GPVTG,75.25,T,,M,0.03,N,0.1,K,A*3A
$GPGGA,215852.000,3748.7948,N,12217.8612,W,1,06,2.5,2.8,M,-25.1,M,,0000*67
$GPGSA,A,3,06,03,16,10,07,13,,,,,,,3.6,2.5,2.6*32
$GPRMC,215852.000,A,3748.7948,N,12217.8612,W,0.03,349.72,040512,,,A*7F
$GPVTG,349.72,T,,M,0.03,N,0.1,K,A*04
$GPGGA,215853.000,3748.7948,N,12217.8612,W,1,06,2.5,2.8,M,-25.1,M,,0000*66
$GPGSA,A,3,06,03,16,10,07,13,,,,,,,3.6,2.5,2.6*32
$GPGSV,3,1,12,13,77,036,34,07,61,304,36,23,53,113,29,10,44,278,36*7C
$GPGSV,3,2,12,08,30,268,22,03,27,084,33,16,24,043,37,06,20,069,33*7F
$GPGSV,3,3,12,19,16,122,21,20,10,175,18,05,07,323,32,28,03,210,*75
$GPRMC,215853.000,A,3748.7948,N,12217.8612,W,0.03,323.29,040512,,,A*7C
$GPVTG,323.29,T,,M,0.03,N,0.1,K,A*06
$GPGGA,215854.000,3748.7948,N,12217.8612,W,1,06,2.5,2.9,M,-25.1,M,,0000*60
$GPGSA,A,3,06,03,16,10,07,13,,,,,,,3.6,2.5,2.6*32
$GPRMC,215854.000,A,3748.7948,N,12217.8612,W,0.04,343.79,040512,,,A*7F
$GPVTG,343.79,T,,M,0.04,N,0.1,K,A*02
$GPGGA,215855.000,3748.7947,N,12217.8611,W,1,06,2.5,2.9,M,-25.1,M,,0000*6D
$GPGSA,A,3,06,03,16,10,07,13,,,,,,,3.6,2.5,2.6*32
$GPRMC,215855.000,A,3748.7947,N,12217.8611,W,0.19,109.95,040512,,,A*70
$GPVTG,109.95,T,,M,0.19,N,0.3,K,A*02
$GPGGA,215856.000,3748.7947,N,12217.8611,W,1,06,2.5,3.2,M,-25.1,M,,0000*64
$GPGSA,A,3,06,03,16,10,07,13,,,,,,,3.6,2.5,2.6*32
$GPRMC,215856.000,A,3748.7947,N,12217.8611,W,0.17,343.69,040512,,,A*72
$GPVTG,343.69,T,,M,0.17,N,0.3,K,A*03
$GPGGA,215857.000,3748.7946,N,12217.8612,W,1,06,2.5,1.7,M,-25.1,M,,0000*60
$GPGSA,A,3,06,03,16,10,07,13,,,,,,,3.6,2.5,2.6*32
$GPRMC,215857.000,A,3748.7946,N,12217.8612,W,0.39,325.87,040512,,,A*7D
$GPVTG,325.87,T,,M,0.39,N,0.7,K,A*0B
$GPGGA,215858.000,3748.7948,N,12217.8615,W,1,06,2.5,0.8,M,-25.1,M,,0000*68
$GPGSA,A,3,06,03,16,10,07,13,,,,,,,3.6,2.5,2.6*32
$GPGSV,3,1,12,13,77,036,19,07,61,304,23,23,53,113,30,10,44,278,27*7F
$GPGSV,3,2,12,08,30,268,13,03,27,084,28,16,24,043,29,06,20,069,23*79
$GPGSV,3,3,12,19,16,122,27,20,10,175,23,05,07,323,23,28,03,210,*7B
$GPRMC,215858.000,A,3748.7948,N,12217.8615,W,0.48,320.49,040512,,,A*7A
$GPVTG,320.49,T,,M,0.48,N,0.9,K,A*04
$GPGGA,215859.000,3748.7950,N,12217.8617,W,1,06,2.5,-0.7,M,-25.1,M,,0000*40
$GPGSA,A,3,06,03,16,10,07,13,,,,,,,3.6,2.5,2.6*32
$GPRMC,215859.000,A,3748.7950,N,12217.8617,W,0.57,288.17,040512,,,A*76
$GPVTG,288.17,T,,M,0.57,N,1.1,K,A*0B
$GPGGA,215900.000,3748.7953,N,12217.8615,W,1,06,2.5,-0.7,M,-25.1,M,,0000*4C
$GPGSA,A,3,06,03,16,10,07,13,,,,,,,3.6,2.5,2.6*32
$GPRMC,215900.000,A,3748.7953,N,12217.8615,W,0.39,6.72,040512,,,A*75
$GPVTG,6.72,T,,M,0.39,N,0.7,K,A*03
$GPGGA,215901.000,3748.7957,N,12217.8617,W,1,06,2.5,-2.0,M,-25.1,M,,0000*4E
$GPGSA,A,3,06,03,16,10,07,13,,,,,,,3.6,2.5,2.6*32
$GPRMC,215901.000,A,3748.7957,N,12217.8617,W,0.42,67.44,040512,,,A*4C
$GPVTG,67.44,T,,M,0.42,N,0.8,K,A*32
$GPGGA,215902.000,3748.7955,N,12217.8619,W,1,06,2.5,-3.3,M,-25.1,M,,0000*43
$GPGSA,A,3,06,03,16,10,07,13,,,,,,,3.6,2.5,2.6*32
$GPRMC,215902.000,A,3748.7955,N,12217.8619,W,0.14,119.58,040512,,,A*75
$GPVTG,119.58,T,,M,0.14,N,0.3,K,A*0F
$GPGGA,215903.000,3748.7955,N,12217.8623,W,1,06,2.5,-4.3,M,-25.1,M,,0000*4C
$GPGSA,A,3,06,03,16,10,07,13,,,,,,,3.6,2.5,2.6*32
$GPGSV,3,1,12,13,77,036,23,07,61,304,24,23,53,113,27,10,44,278,26*76
$GPGSV,3,2,12,08,30,268,29,03,27,084,33,16,24,043,25,06,20,069,28*7D
$GPGSV,3,3,12,19,16,122,27,20,10,175,34,05,07,323,25,28,03,210,*7B
$GPVTG,290.52,T,,M,0.61,N,1.1,K,A*06
$GPGGA,215904.000,3748.7950,N,12217.8627,W,1,06,2.5,-7.7,M,-25.1,M,,0000*4D
$GPGSA,A,3,06,03,16,10,07,13,,,,,,,3.6,2.5,2.6*32
$GPRMC,215904.000,A,3748.7950,N,12217.8627,W,0.64,216.15,040512,,,A*79
$GPVTG,216.15,T,,M,0.64,N,1.2,K,A*0D
$GPGGA,215905.000,3748.7940,N,12217.8632,W,1,06,2.5,-9.0,M,-25.1,M,,0000*40
$GPGSA,A,3,06,03,16,10,07,13,,,,,,,3.6,2.5,2.6*32
$GPRMC,215905.000,A,3748.7940,N,12217.8632,W,1.42,191.69,040512,,,A*7F
$GPVTG,191.69,T,,M,1.42,N,2.6,K,A*08
$GPGGA,215906.000,3748.7939,N,12217.8632,W,1,06,2.5,-7.9,M,-25.1,M,,0000*4A
$GPGSA,A,3,06,03,16,10,07,13,,,,,,,3.6,2.5,2.6*32
$GPRMC,215906.000,A,3748.7939,N,12217.8632,W,0.57,208.94,040512,,,A*76
$GPVTG,208.94,T,,M,0.57,N,1.1,K,A*08
$GPGGA,215907.000,3748.7932,N,12217.8630,W,1,06,2.5,-5.7,M,-25.1,M,,0000*4E
$GPGSA,A,3,06,03,16,10,07,13,,,,,,,3.6,2.5,2.6*32
$GPRMC,215907.000,A,3748.7932,N,12217.8630,W,0.73,179.92,040512,,,A*7B
$GPVTG,179.92,T,,M,0.73,N,1.4,K,A*08
$GPGGA,215908.000,3748.7931,N,12217.8627,W,1,06,2.5,-5.1,M,-25.1,M,,0000*42
$GPGSA,A,3,06,03,16,10,07,13,,,,,,,3.6,2.5,2.6*32
$GPGSV,3,1,12,13,77,036,23,07,61,304,24,23,53,113,27,10,44,278,26*76
$GPGSV,3,2,12,08,30,268,27,03,27,084,33,16,24,043,31,06,20,069,29*77
$GPGSV,3,3,12,19,16,122,27,20,10,175,32,05,07,323,31,28,03,210,*78
$GPRMC,215908.000,A,3748.7931,N,12217.8627,W,0.57,228.08,040512,,,A*73
$GPVTG,228.08,T,,M,0.57,N,1.1,K,A*0F
$GPGGA,215909.000,3748.7937,N,12217.8624,W,1,06,2.5,-4.1,M,-25.1,M,,0000*47
$GPGSA,A,3,06,03,16,10,07,13,,,,,,,3.6,2.5,2.6*32
$GPRMC,215909.000,A,3748.7937,N,12217.8624,W,0.49,116.49,040512,,,A*73
$GPVTG,116.49,T,,M,0.49,N,0.9,K,A*02
$GPGGA,215910.000,3748.7937,N,12217.8617,W,1,06,2.5,-3.0,M,-25.1,M,,0000*49
$GPGSA,A,3,06,03,16,10,07,13,,,,,,,3.6,2.5,2.6*32
$GPRMC,215910.000,A,3748.7937,N,12217.8617,W,0.33,167.24,040512,,,A*7B
$GPVTG,167.24,T,,M,0.33,N,0.6,K,A*0D
$GPGGA,215911.000,3748.7940,N,12217.8611,W,1,06,2.5,-0.9,M,-25.1,M,,0000*44
$GPGSA,A,3,06,03,16,10,07,13,,,,,,,3.6,2.5,2.6*32
$GPRMC,215911.000,A,3748.7940,N,12217.8611,W,0.37,34.84,040512,,,A*45
$GPVTG,34.84,T,,M,0.37,N,0.7,K,A*35
$GPGGA,215912.000,3748.7946,N,12217.8610,W,1,06,2.5,-1.0,M,-25.1,M,,0000*48
$GPGSA,A,3,06,03,16,10,07,13,,,,,,,3.6,2.5,2.6*32
$GPRMC,215912.000,A,3748.7946,N,12217.8610,W,0.56,2.40,040512,,,A*7B
$GPVTG,2.40,T,,M,0.56,N,1.0,K,A*09
$GPGGA,215913.000,3748.7950,N,12217.8606,W,1,06,2.5,0.2,M,-25.1,M,,0000*67
$GPGSA,A,3,06,03,16,10,07,13,,,,,,,3.6,2.5,2.6*32
$GPGSV,3,1,12,13,77,036,24,07,61,304,31,23,53,113,19,10,44,278,33*7C
$GPGSV,3,2,12,08,30,268,32,03,27,084,25,16,24,043,32,06,20,069,27*79
$GPGSV,3,3,12,19,16,122,23,20,10,175,24,05,07,323,34,28,03,210,*7E
$GPRMC,215913.000,A,3748.7950,N,12217.8606,W,0.24,41.44,040512,,,A*4C
$GPVTG,41.44,T,,M,0.24,N,0.4,K,A*3A
$GPGGA,215914.000,3748.7951,N,12217.8603,W,1,06,2.5,1.2,M,-25.1,M,,0000*65
$GPGSA,A,3,06,03,16,10,07,13,,,,,,,3.6,2.5,2.6*32
$GPRMC,215914.000,A,3748.7951,N,12217.8603,W,0.27,31.55,040512,,,A*4B
$GPVTG,31.55,T,,M,0.27,N,0.5,K,A*3F
$GPGGA,215915.000,3748.7952,N,12217.8601,W,1,06,2.5,1.9,M,-25.1,M,,0000*6E
$GPGSA,A,3,06,03,16,10,07,13,,,,,,,3.6,2.5,2.6*32
$GPRMC,215915.000,A,3748.7952,N,12217.8601,W,0.21,69.69,040512,,,A*4F
$GPVTG,69.69,T,,M,0.21,N,0.4,K,A*3A
$GPGGA,215916.000,3748.7954,N,12217.8601,W,1,06,2.5,1.8,M,-25.1,M,,0000*6A
$GPGSA,A,3,06,03,16,10,07,13,,,,,,,3.6,2.5,2.6*32
$GPRMC,215916.000,A,3748.7954,N,12217.8601,W,0.15,56.28,040512,,,A*44
$GPVTG,56.28,T,,M,0.15,N,0.3,K,A*33
$GPGGA,215917.000,3748.7966,N,12217.8605,W,1,06,2.5,2.1,M,-25.1,M,,0000*64
$GPGSA,A,3,06,03,16,10,07,13,,,,,,,3.6,2.5,2.6*32
$GPRMC,215917.000,A,3748.7966,N,12217.8605,W,0.51,21.02,040512,,,A*48
$GPVTG,21.02,T,,M,0.51,N,0.9,K,A*31
$GPGGA,215918.000,3748.7972,N,12217.8606,W,1,06,2.5,1.8,M,-25.1,M,,0000*67
$GPGSA,A,3,06,03,16,10,07,13,,,,,,,3.6,2.5,2.6*32
$GPGSV,3,1,12,13,77,037,24,07,61,305,29,23,53,113,27,10,44,278,29*73
$GPGSV,3,2,12,08,30,268,24,03,27,084,30,16,24,042,32,06,20,069,28*74
$GPGSV,3,3,12,19,16,122,26,20,10,175,28,05,07,323,38,28,03,210,*7B
$GPVTG,93.35,T,,M,0.68,N,1.3,K,A*3D
$GPGGA,215919.000,3748.7974,N,12217.8604,W,1,06,2.5,1.8,M,-25.1,M,,0000*62
$GPGSA,A,3,06,03,16,10,07,13,,,,,,,3.6,2.5,2.6*32
$GPRMC,215919.000,A,3748.7974,N,12217.8604,W,0.30,98.24,040512,,,A*45
$GPVTG,98.24,T,,M,0.30,N,0.5,K,A*3C
$GPGGA,215920.000,3748.7982,N,12217.8601,W,1,06,2.5,2.9,M,-25.1,M,,0000*66
$GPGSA,A,3,06,03,16,10,07,13,,,,,,,3.6,2.5,2.6*32
$GPRMC,215920.000,A,3748.7982,N,12217.8601,W,0.94,137.25,040512,,,A*78
$GPVTG,137.25,T,,M,0.94,N,1.7,K,A*04
$GPGGA,215921.000,3748.7984,N,12217.8602,W,1,06,2.5,2.2,M,-25.1,M,,0000*69
$GPGSA,A,3,06,03,16,10,07,13,,,,,,,3.6,2.5,2.6*32
$GPRMC,215921.000,A,3748.7984,N,12217.8602,W,0.68,143.78,040512,,,A*74
$GPVTG,143.78,T,,M,0.68,N,1.3,K,A*08
$GPGGA,215922.000,3748.7986,N,12217.8604,W,1,06,2.5,1.9,M,-25.1,M,,0000*66
$GPGSA,A,3,06,03,16,10,07,13,,,,,,,3.6,2.5,2.6*32
$GPRMC,215922.000,A,3748.7986,N,12217.8604,W,0.26,248.30,040512,,,A*7D
$GPVTG,248.30,T,,M,0.26,N,0.5,K,A*01
$GPGGA,215923.000,3748.7990,N,12217.8607,W,1,06,2.5,1.7,M,-25.1,M,,0000*6D
$GPGSA,A,3,06,03,16,10,07,13,,,,,,,3.6,2.5,2.6*32
$GPGSV,3,1,12,13,77,037,25,07,61,305,27,23,53,113,24,10,44,278,29*7F
$GPGSV,3,2,12,08,30,268,25,03,27,084,22,16,24,042,28,06,20,069,25*70
$GPGSV,3,3,12,19,16,122,27,20,10,175,33,05,07,323,36,28,03,210,*7E
$GPRMC,215923.000,A,3748.7990,N,12217.8607,W,0.46,230.88,040512,,,A*72
$GPVTG,230.88,T,,M,0.46,N,0.9,K,A*07
$GPGGA,215924.000,3748.7990,N,12217.8608,W,1,06,2.5,1.6,M,-25.1,M,,0000*64
$GPGSA,A,3,06,03,16,10,07,13,,,,,,,3.6,2.5,2.6*32
$GPRMC,215924.000,A,3748.7990,N,12217.8608,W,0.48,146.13,040512,,,A*74
$GPVTG,146.13,T,,M,0.48,N,0.9,K,A*09
$GPGGA,215925.000,3748.7985,N,12217.8605,W,1,06,2.5,1.7,M,-25.1,M,,0000*6D
$GPGSA,A,3,06,03,16,10,07,13,,,,,,,3.6,2.5,2.6*32
$GPRMC,215925.000,A,3748.7985,N,12217.8605,W,0.90,148.74,040512,,,A*76
$GPVTG,148.74,T,,M,0.90,N,1.7,K,A*0C
$GPGGA,215926.000,3748.7990,N,12217.8609,W,1,06,2.5,2.3,M,-25.1,M,,0000*61
$GPGSA,A,3,06,03,16,10,07,13,,,,,,,3.6,2.5,2.6*32
$GPRMC,215926.000,A,3748.7990,N,12217.8609,W,0.63,175.62,040512,,,A*78
$GPVTG,175.62,T,,M,0.63,N,1.2,K,A*0C
$GPGGA,215927.000,3748.7995,N,12217.8614,W,1,06,2.5,3.1,M,-25.1,M,,0000*6A
$GPGSA,A,3,06,03,16,10,07,13,,,,,,,3.6,2.5,2.6*32
$GPRMC,215927.000,A,3748.7995,N,12217.8614,W,0.56,126.51,040512,,,A*70
$GPVTG,126.51,T,,M,0.56,N,1.0,K,A*0E
$GPGGA,215928.000,3748.7999,N,12217.8611,W,1,06,2.5,4.8,M,-25.1,M,,0000*62
$GPGSA,A,3,06,03,16,10,07,13,,,,,,,3.6,2.5,2.6*32
$GPGSV,3,1,12,13,77,037,20,07,61,305,25,23,53,113,26,10,44,278,22*71
$GPGSV,3,2,12,08,30,268,23,03,27,084,21,16,24,042,26,06,20,069,25*7B
$GPGSV,3,3,12,19,16,122,25,20,10,175,32,05,07,323,33,28,03,210,*78
$GPRMC,215928.000,A,3748.7999,N,12217.8611,W,0.94,23.77,040512,,,A*48
$GPVTG,23.77,T,,M,0.94,N,1.7,K,A*37
$GPGGA,215929.000,3748.8000,N,12217.8606,W,1,06,2.5,5.6,M,-25.1,M,,0000*6C
$GPGSA,A,3,06,03,16,10,07,13,,,,,,,3.6,2.5,2.6*32
$GPRMC,215929.000,A,3748.8000,N,12217.8606,W,0.94,43.39,040512,,,A*45
$GPVTG,43.39,T,,M,0.94,N,1.7,K,A*3B
$GPGGA,215930.000,3748.7999,N,12217.8599,W,1,06,2.5,6.8,M,-25.1,M,,0000*6A
$GPGSA,A,3,06,03,16,10,07,13,,,,,,,3.6,2.5,2.6*32
$GPRMC,215930.000,A,3748.7999,N,12217.8599,W,1.11,85.59,040512,,,A*4E
$GPVTG,85.59,T,,M,1.11,N,2.1,K,A*3E
$GPGGA,215931.000,3748.7997,N,12217.8593,W,1,06,2.5,9.3,M,-25.1,M,,0000*6B
$GPGSA,A,3,06,03,16,10,07,13,,,,,,,3.6,2.5,2.6*32
$GPRMC,215931.000,A,3748.7997,N,12217.8593,W,1.40,113.71,040512,,,A*7B
$GPVTG,113.71,T,,M,1.40,N,2.6,K,A*09
$GPGGA,215932.000,3748.8009,N,12217.8583,W,1,06,2.5,10.3,M,-25.1,M,,0000*50
$GPGSA,A,3,06,03,16,10,07,13,,,,,,,3.6,2.5,2.6*32
$GPRMC,215932.000,A,3748.8009,N,12217.8583,W,2.22,99.73,040512,,,A*4E
$GPVTG,99.73,T,,M,2.22,N,4.1,K,A*3E
$GPGGA,215933.000,3748.8015,N,12217.8573,W,1,06,2.5,11.7,M,-25.1,M,,0000*56
$GPGSA,A,3,06,03,16,10,07,13,,,,,,,3.6,2.5,2.6*32
$GPGSV,3,1,12,13,77,037,25,07,61,305,21,23,53,113,33,10,44,278,20*76
$GPGSV,3,2,12,08,30,268,22,03,27,084,28,16,24,042,26,06,20,069,25*73
$GPGSV,3,3,12,19,16,122,24,20,10,175,34,05,07,323,28,28,03,210,*75
$GPVTG,96.09,T,,M,2.13,N,3.9,K,A*31
$GPGGA,215934.000,3748.8013,N,12217.8568,W,1,06,2.5,11.9,M,-25.1,M,,0000*53
$GPGSA,A,3,06,03,16,10,07,13,,,,,,,3.6,2.5,2.6*32
$GPRMC,215934.000,A,3748.8013,N,12217.8568,W,1.64,113.08,040512,,,A*78
$GPVTG,113.08,T,,M,1.64,N,3.0,K,A*06
$GPGGA,215935.000,3748.8010,N,12217.8557,W,1,06,2.5,12.1,M,-25.1,M,,0000*56
$GPGSA,A,3,06,03,16,10,07,13,,,,,,,3.6,2.5,2.6*32
$GPRMC,215935.000,A,3748.8010,N,12217.8557,W,1.23,88.85,040512,,,A*43
$GPVTG,88.85,T,,M,1.23,N,2.3,K,A*31
$GPGGA,215936.000,3748.8008,N,12217.8556,W,1,06,2.5,11.1,M,-25.1,M,,0000*5E
$GPGSA,A,3,06,03,16,10,07,13,,,,,,,3.6,2.5,2.6*32
$GPRMC,215936.000,A,3748.8008,N,12217.8556,W,1.58,130.27,040512,,,A*7E
$GPVTG,130.27,T,,M,1.58,N,2.9,K,A*0D
$GPGGA,215937.000,3748.8000,N,12217.8560,W,1,06,2.5,9.9,M,-25.1,M,,0000*63
$GPGSA,A,3,06,03,16,10,07,13,,,,,,,3.6,2.5,2.6*32
$GPRMC,215937.000,A,3748.8000,N,12217.8560,W,2.56,158.04,040512,,,A*70
$GPVTG,158.04,T,,M,2.56,N,4.7,K,A*07
$GPGGA,215938.000,3748.7979,N,12217.8559,W,1,06,2.5,10.4,M,-25.1,M,,0000*5B
$GPGSA,A,3,06,03,16,10,07,13,,,,,,,3.6,2.5,2.6*32
$GPGSV,3,1,12,13,77,037,19,07,61,305,21,23,53,113,21,10,44,278,22*78
$GPGSV,3,2,12,08,30,268,22,03,27,084,17,16,24,042,22,06,20,069,19*74
$GPGSV,3,3,12,19,16,122,19,20,10,175,21,05,07,323,22,28,03,210,*75
$GPRMC,215938.000,A,3748.7979,N,12217.8559,W,4.19,160.74,040512,,,A*7C
$GPVTG,160.74,T,,M,4.19,N,7.8,K,A*0A
$GPGGA,215939.000,3748.7975,N,12217.8555,W,1,06,2.5,13.0,M,-25.1,M,,0000*5D
$GPGSA,A,3,06,03,16,10,07,13,,,,,,,3.6,2.5,2.6*32
$GPRMC,215939.000,A,3748.7975,N,12217.8555,W,3.58,153.74,040512,,,A*7F
$GPVTG,153.74,T,,M,3.58,N,6.6,K,A*07
$GPGGA,215940.000,3748.7950,N,12217.8547,W,1,05,2.5,12.6,M,-25.1,M,,0000*53
$GPGSA,A,3,03,16,10,07,13,,,,,,,,3.7,2.5,2.7*34
$GPRMC,215940.000,A,3748.7950,N,12217.8547,W,4.19,150.68,040512,,,A*79
$GPVTG,150.68,T,,M,4.19,N,7.8,K,A*04
$GPGGA,215941.000,3748.7933,N,12217.8538,W,1,04,7.6,11.8,M,-25.1,M,,0000*55
$GPGSA,A,3,03,10,07,13,,,,,,,,,7.6,7.6,1.0*34
$GPRMC,215941.000,A,3748.7933,N,12217.8538,W,4.04,148.43,040512,,,A*79
$GPVTG,148.43,T,,M,4.04,N,7.5,K,A*05
$GPGGA,215942.000,3748.7917,N,12217.8533,W,1,04,7.6,10.1,M,-25.1,M,,0000*53
$GPGSA,A,3,03,10,07,13,,,,,,,,,7.6,7.6,1.0*34
$GPRMC,215942.000,A,3748.7917,N,12217.8533,W,3.83,159.52,040512,,,A*7F
$GPVTG,159.52,T,,M,3.83,N,7.1,K,A*09
$GPGGA,215943.000,3748.7893,N,12217.8524,W,1,04,7.5,8.9,M,-25.1,M,,0000*6B
$GPGSA,A,3,03,10,07,13,,,,,,,,,7.6,7.5,1.0*37
$GPGSV,3,1,12,13,77,037,26,07,61,305,26,23,53,113,28,10,44,278,25*7D
$GPGSV,3,2,12,08,30,268,27,03,27,084,21,16,24,042,,06,20,069,*7C
$GPGSV,3,3,12,19,16,122,27,20,10,175,25,05,07,323,21,28,03,210,*7F
$GPRMC,215943.000,A,3748.7893,N,12217.8524,W,4.79,154.76,040512,,,A*7C
$GPVTG,154.76,T,,M,4.79,N,8.9,K,A*07
$GPGGA,215944.000,3748.7876,N,12217.8513,W,1,05,2.5,10.7,M,-25.1,M,,0000*50
$GPGSA,A,3,16,03,10,07,13,,,,,,,,3.7,2.5,2.7*34
$GPRMC,215944.000,A,3748.7876,N,12217.8513,W,3.85,163.54,040512,,,A*74
$GPVTG,163.54,T,,M,3.85,N,7.1,K,A*00
$GPGGA,215945.000,3748.7844,N,12217.8504,W,1,05,2.5,11.5,M,-25.1,M,,0000*55
$GPGSA,A,3,16,03,10,07,13,,,,,,,,3.7,2.5,2.7*34
$GPRMC,215945.000,A,3748.7844,N,12217.8504,W,4.79,161.95,040512,,,A*79
$GPVTG,161.95,T,,M,4.79,N,8.9,K,A*0C
$GPGGA,215946.000,3748.7856,N,12217.8496,W,1,05,2.5,11.5,M,-25.1,M,,0000*5F
$GPGSA,A,3,16,03,10,07,13,,,,,,,,3.7,2.5,2.7*34
$GPRMC,215946.000,A,3748.7856,N,12217.8496,W,2.84,141.35,040512,,,A*7F
$GPVTG,141.35,T,,M,2.84,N,5.3,K,A*07
$GPGGA,215947.000,3748.7866,N,12217.8488,W,1,05,2.5,10.2,M,-25.1,M,,0000*54
$GPGSA,A,3,16,03,10,07,13,,,,,,,,3.7,2.5,2.7*34
$GPRMC,215947.000,A,3748.7866,N,12217.8488,W,1.84,124.09,040512,,,A*7D
$GPVTG,124.09,T,,M,1.84,N,3.4,K,A*09
$GPGGA,215948.000,3748.7863,N,12217.8480,W,1,04,7.5,10.9,M,-25.1,M,,0000*59
$GPGSA,A,3,03,10,07,13,,,,,,,,,7.6,7.5,1.0*37
$GPGSV,3,1,12,13,77,037,26,07,61,305,17,23,53,113,33,10,44,278,24*74
$GPGSV,3,2,12,08,30,268,25,03,27,084,32,16,24,042,,06,20,069,17*7A
$GPGSV,3,3,12,19,16,122,30,20,10,175,20,05,07,323,22,28,03,210,*7F
$GPVTG,121.13,T,,M,1.64,N,3.0,K,A*0D
$GPGGA,215949.000,3748.7860,N,12217.8470,W,1,05,4.9,11.2,M,-25.1,M,,0000*50
$GPGSA,A,3,03,10,07,13,06,,,,,,,,5.5,4.9,2.6*3A
$GPRMC,215949.000,A,3748.7860,N,12217.8470,W,1.73,90.52,040512,,,A*4A
$GPVTG,90.52,T,,M,1.73,N,3.2,K,A*37
$GPGGA,215950.000,3748.7866,N,12217.8454,W,1,05,4.9,11.0,M,-25.1,M,,0000*5A
$GPGSA,A,3,03,10,07,13,06,,,,,,,,5.5,4.9,2.6*3A
$GPRMC,215950.000,A,3748.7866,N,12217.8454,W,1.96,92.06,040512,,,A*4A
$GPVTG,92.06,T,,M,1.96,N,3.6,K,A*3B
$GPGGA,215951.000,3748.7870,N,12217.8448,W,1,05,4.9,9.6,M,-25.1,M,,0000*6E
$GPGSA,A,3,03,10,07,13,06,,,,,,,,5.5,4.9,2.6*3A
$GPRMC,215951.000,A,3748.7870,N,12217.8448,W,1.25,107.52,040512,,,A*75
$GPVTG,107.52,T,,M,1.25,N,2.3,K,A*0B
$GPGGA,215952.000,3748.7862,N,12217.8441,W,1,04,7.5,9.1,M,-25.1,M,,0000*6E
$GPGSA,A,3,03,10,07,13,,,,,,,,,7.6,7.5,1.0*37
$GPRMC,215952.000,A,3748.7862,N,12217.8441,W,1.68,164.53,040512,,,A*71
$GPVTG,164.53,T,,M,1.68,N,3.1,K,A*05
$GPGGA,215953.000,3748.7862,N,12217.8439,W,1,04,5.9,8.3,M,-25.1,M,,0000*6D
$GPGSA,A,3,03,10,13,06,,,,,,,,,6.4,5.9,2.7*3F
$GPGSV,3,1,12,13,77,037,18,07,61,305,12,23,53,113,23,10,44,278,14*7E
$GPGSV,3,2,12,08,30,268,17,03,27,084,26,16,24,042,,06,20,069,25*7F
$GPGSV,3,3,12,19,16,122,,20,10,175,17,05,07,323,14,28,03,210,*7D
$GPRMC,215953.000,A,3748.7862,N,12217.8439,W,2.17,177.78,040512,,,A*7F
$GPVTG,177.78,T,,M,2.17,N,4.0,K,A*03
$GPGGA,215954.000,3748.7864,N,12217.8438,W,1,04,5.9,7.6,M,-25.1,M,,0000*67
$GPGSA,A,3,03,10,13,06,,,,,,,,,6.4,5.9,2.7*3F
$GPRMC,215954.000,A,3748.7864,N,12217.8438,W,1.72,169.96,040512,,,A*70
$GPVTG,169.96,T,,M,1.72,N,3.2,K,A*09
$GPGGA,215955.000,3748.7871,N,12217.8442,W,1,03,5.8,7.1,M,-25.1,M,,0000*6E
$GPGSA,A,2,03,10,06,,,,,,,,,,5.9,5.8,1.0*37
$GPRMC,215955.000,A,3748.7871,N,12217.8442,W,0.99,159.87,040512,,,A*7F
$GPVTG,159.87,T,,M,0.99,N,1.8,K,N*09
$GPGGA,215956.000,3748.7845,N,12217.8442,W,1,06,2.5,7.9,M,-25.1,M,,0000*6D
$GPGSA,A,3,07,03,10,16,13,06,,,,,,,3.6,2.5,2.6*32
$GPRMC,215956.000,A,3748.7845,N,12217.8442,W,1.29,176.42,040512,,,A*75
$GPVTG,176.42,T,,M,1.29,N,2.4,K,A*07
$GPGGA,215957.000,3748.7807,N,12217.8438,W,1,06,2.5,6.9,M,-25.1,M,,0000*66
$GPGSA,A,3,07,03,10,16,13,06,,,,,,,3.6,2.5,2.6*32
$GPRMC,215957.000,A,3748.7807,N,12217.8438,W,2.71,151.77,040512,,,A*72
$GPVTG,151.77,T,,M,2.71,N,5.0,K,A*09
$GPGGA,215958.000,3748.7801,N,12217.8430,W,1,06,2.5,8.2,M,-25.1,M,,0000*62
$GPGSA,A,3,07,03,10,16,13,06,,,,,,,3.6,2.5,2.6*32
$GPGSV,3,1,12,13,77,037,24,07,61,305,21,23,53,113,32,10,44,278,24*72
$GPGSV,3,2,12,08,30,268,25,03,27,084,26,16,24,042,21,06,20,069,26*7E
$GPGSV,3,3,12,19,16,122,22,20,10,175,33,05,07,323,17,28,03,210,*78
$GPRMC,215958.000,A,3748.7801,N,12217.8430,W,2.13,132.26,040512,,,A*76
$GPVTG,132.26,T,,M,2.13,N,4.0,K,A*0D
$GPGGA,215959.000,3748.7791,N,12217.8429,W,1,06,2.5,7.4,M,-25.1,M,,0000*64
$GPGSA,A,3,07,03,10,16,13,06,,,,,,,3.6,2.5,2.6*32
$GPRMC,215959.000,A,3748.7791,N,12217.8429,W,2.13,149.82,040512,,,A*7B
$GPVTG,149.82,T,,M,2.13,N,3.9,K,A*01
$GPGGA,220000.000,3748.7777,N,12217.8427,W,1,06,2.5,6.5,M,-25.1,M,,0000*61
$GPGSA,A,3,07,03,10,16,13,06,,,,,,,3.6,2.5,2.6*32
$GPRMC,220000.000,A,3748.7777,N,12217.8427,W,3.52,154.24,040512,,,A*7A
$GPVTG,154.24,T,,M,3.52,N,6.5,K,A*0C
$GPGGA,220001.000,3748.7774,N,12217.8416,W,1,06,2.5,8.1,M,-25.1,M,,0000*6B
$GPGSA,A,3,07,03,10,16,13,06,,,,,,,3.6,2.5,2.6*32
$GPRMC,220001.000,A,3748.7774,N,12217.8416,W,2.59,144.18,040512,,,A*7E
$GPVTG,144.18,T,,M,2.59,N,4.8,K,A*07
$GPGGA,220002.000,3748.7768,N,12217.8410,W,1,06,2.5,7.6,M,-25.1,M,,0000*6B
$GPGSA,A,3,07,03,10,16,13,06,,,,,,,3.6,2.5,2.6*32
$GPRMC,220002.000,A,3748.7768,N,12217.8410,W,2.18,151.66,040512,,,A*7E
$GPVTG,151.66,T,,M,2.18,N,4.0,K,A*07
$GPGGA,220003.000,3748.7765,N,12217.8402,W,1,06,2.5,6.2,M,-25.1,M,,0000*61
$GPGSA,A,3,07,03,10,16,13,06,,,,,,,3.6,2.5,2.6*32
$GPGSV,3,1,12,13,77,037,24,07,61,305,22,23,53,113,31,10,44,278,25*73
$GPGSV,3,2,12,08,30,268,26,03,27,084,26,16,24,042,20,06,20,069,21*7B
$GPGSV,3,3,12,19,16,122,24,20,10,175,33,05,07,323,19,28,03,210,*70
$GPVTG,127.99,T,,M,1.90,N,3.5,K,A*07
$GPGGA,220004.000,3748.7763,N,12217.8391,W,1,06,2.5,5.9,M,-25.1,M,,0000*65
$GPGSA,A,3,07,03,10,16,13,06,,,,,,,3.6,2.5,2.6*32
$GPRMC,220004.000,A,3748.7763,N,12217.8391,W,2.23,97.74,040512,,,A*4D
$GPVTG,97.74,T,,M,2.23,N,4.1,K,A*36
$GPGGA,220005.000,3748.7757,N,12217.8380,W,1,06,2.5,6.7,M,-25.1,M,,0000*6E
$GPGSA,A,3,07,03,10,16,13,06,,,,,,,3.6,2.5,2.6*32
$GPRMC,220005.000,A,3748.7757,N,12217.8380,W,2.23,118.63,040512,,,A*7B
$GPVTG,118.63,T,,M,2.23,N,4.1,K,A*06
$GPGGA,220006.000,3748.7760,N,12217.8377,W,1,06,2.5,7.7,M,-25.1,M,,0000*60
$GPGSA,A,3,07,03,10,16,13,06,,,,,,,3.6,2.5,2.6*32
$GPRMC,220006.000,A,3748.7760,N,12217.8377,W,2.05,144.28,040512,,,A*76
$GPVTG,144.28,T,,M,2.05,N,3.8,K,A*0A
$GPGGA,220007.000,3748.7741,N,12217.8374,W,1,06,2.5,7.2,M,-25.1,M,,0000*64
$GPGSA,A,3,07,03,10,16,13,06,,,,,,,3.6,2.5,2.6*32
$GPRMC,220007.000,A,3748.7741,N,12217.8374,W,3.25,160.67,040512,,,A*79
$GPVTG,160.67,T,,M,3.25,N,6.0,K,A*09
$GPGGA,220008.000,3748.7725,N,12217.8369,W,1,06,2.5,7.2,M,-25.1,M,,0000*65
$GPGSA,A,3,07,03,10,16,13,06,,,,,,,3.6,2.5,2.6*32
$GPGSV,3,1,12,13,77,037,24,07,61,305,22,23,53,113,31,10,44,278,25*73
$GPGSV,3,2,12,08,30,268,27,03,27,084,23,16,24,042,19,06,20,069,20*74
$GPGSV,3,3,12,19,16,122,21,20,10,175,30,05,07,323,18,28,03,210,*77
$GPRMC,220008.000,A,3748.7725,N,12217.8369,W,3.32,152.07,040512,,,A*79
$GPVTG,152.07,T,,M,3.32,N,6.1,K,A*09
$GPGGA,220009.000,3748.7728,N,12217.8361,W,1,06,2.5,8.4,M,-25.1,M,,0000*68
$GPGSA,A,3,07,03,10,16,13,06,,,,,,,3.6,2.5,2.6*32
$GPRMC,220009.000,A,3748.7728,N,12217.8361,W,2.29,129.06,040512,,,A*7B
$GPVTG,129.06,T,,M,2.29,N,4.2,K,A*0E
$GPGGA,220010.000,3748.7735,N,12217.8353,W,1,06,2.5,9.4,M,-25.1,M,,0000*6C
$GPGSA,A,3,07,03,10,16,13,06,,,,,,,3.6,2.5,2.6*32
$GPRMC,220010.000,A,3748.7735,N,12217.8353,W,2.09,105.98,040512,,,A*75
$GPVTG,105.98,T,,M,2.09,N,3.9,K,A*09
$GPGGA,220011.000,3748.7730,N,12217.8348,W,1,06,2.5,9.0,M,-25.1,M,,0000*66
$GPGSA,A,3,07,03,10,16,13,06,,,,,,,3.6,2.5,2.6*32
$GPRMC,220011.000,A,3748.7730,N,12217.8348,W,1.66,104.55,040512,,,A*71
$GPVTG,104.55,T,,M,1.66,N,3.1,K,A*0B
$GPGGA,220012.000,3748.7732,N,12217.8345,W,1,06,2.5,8.2,M,-25.1,M,,0000*69
$GPGSA,A,3,07,03,10,16,13,06,,,,,,,3.6,2.5,2.6*32
$GPRMC,220012.000,A,3748.7732,N,12217.8345,W,1.50,55.55,040512,,,A*4D
$GPVTG,55.55,T,,M,1.50,N,2.8,K,A*33
$GPGGA,220013.000,3748.7727,N,12217.8338,W,1,06,2.5,7.6,M,-25.1,M,,0000*6D
$GPGSA,A,3,07,03,10,16,13,06,,,,,,,3.6,2.5,2.6*32
$GPGSV,3,1,12,13,77,037,24,07,61,305,22,23,53,113,31,10,44,278,26*70
$GPGSV,3,2,12,08,30,268,27,03,27,084,24,16,24,042,20,06,20,069,20*79
$GPGSV,3,3,12,19,16,122,26,20,10,175,19,05,07,323,18,28,03,210,*7B
$GPRMC,220013.000,A,3748.7727,N,12217.8338,W,1.92,63.15,040512,,,A*4D
$GPVTG,63.15,T,,M,1.92,N,3.6,K,A*33
$GPGGA,220014.000,3748.7718,N,12217.8328,W,1,06,2.5,7.5,M,-25.1,M,,0000*64
$GPGSA,A,3,07,03,10,16,13,06,,,,,,,3.6,2.5,2.6*32
$GPRMC,220014.000,A,3748.7718,N,12217.8328,W,1.89,94.64,040512,,,A*43
$GPVTG,94.64,T,,M,1.89,N,3.5,K,A*34
$GPGGA,220015.000,3748.7709,N,12217.8327,W,1,06,2.5,7.3,M,-25.1,M,,0000*6C
$GPGSA,A,3,07,03,10,16,13,06,,,,,,,3.6,2.5,2.6*32
$GPRMC,220015.000,A,3748.7709,N,12217.8327,W,2.06,152.74,040512,,,A*73
$GPVTG,152.74,T,,M,2.06,N,3.8,K,A*07
$GPGGA,220016.000,3748.7695,N,12217.8327,W,1,06,2.5,8.4,M,-25.1,M,,0000*63
$GPGSA,A,3,07,03,10,16,13,06,,,,,,,3.6,2.5,2.6*32
$GPRMC,220016.000,A,3748.7695,N,12217.8327,W,3.82,175.55,040512,,,A*7F
$GPVTG,175.55,T,,M,3.82,N,7.1,K,A*01
$GPGGA,220017.000,3748.7677,N,12217.8324,W,1,06,2.5,8.6,M,-25.1,M,,0000*6F
$GPGSA,A,3,07,03,10,16,13,06,,,,,,,3.6,2.5,2.6*32
$GPRMC,220017.000,A,3748.7677,N,12217.8324,W,3.70,171.40,040512,,,A*7C
$GPVTG,171.40,T,,M,3.70,N,6.9,K,A*05
$GPGGA,220018.000,3748.7658,N,12217.8316,W,1,06,2.5,7.8,M,-25.1,M,,0000*6D
$GPGSA,A,3,07,03,10,16,13,06,,,,,,,3.6,2.5,2.6*32
$GPGSV,3,1,12,13,77,039,24,07,61,306,21,23,53,114,27,10,44,277,25*72
$GPGSV,3,2,12,08,30,268,25,03,27,084,25,16,24,042,20,06,20,069,20*7A
$GPGSV,3,3,12,19,16,122,28,20,10,175,29,05,07,323,17,28,03,210,*79
$GPVTG,156.82,T,,M,3.79,N,7.0,K,A*0F
$GPGGA,220019.000,3748.7652,N,12217.8309,W,1,06,2.5,7.5,M,-25.1,M,,0000*65
$GPGSA,A,3,07,03,10,16,13,06,,,,,,,3.6,2.5,2.6*32
$GPRMC,220019.000,A,3748.7652,N,12217.8309,W,2.62,147.51,040512,,,A*7D
$GPVTG,147.51,T,,M,2.62,N,4.8,K,A*01
$GPGGA,220020.000,3748.7647,N,12217.8299,W,1,06,2.5,7.8,M,-25.1,M,,0000*6E
$GPGSA,A,3,07,03,10,16,13,06,,,,,,,3.6,2.5,2.6*32
$GPRMC,220020.000,A,3748.7647,N,12217.8299,W,2.03,135.78,040512,,,A*72
$GPVTG,135.78,T,,M,2.03,N,3.8,K,A*0F
$GPGGA,220021.000,3748.7641,N,12217.8293,W,1,06,2.5,8.5,M,-25.1,M,,0000*61
$GPGSA,A,3,07,03,10,16,13,06,,,,,,,3.6,2.5,2.6*32
$GPRMC,220021.000,A,3748.7641,N,12217.8293,W,2.32,145.86,040512,,,A*7B
$GPVTG,145.86,T,,M,2.32,N,4.3,K,A*07
$GPGGA,220022.000,3748.7640,N,12217.8283,W,1,06,2.5,8.7,M,-25.1,M,,0000*60
$GPGSA,A,3,07,03,10,16,13,06,,,,,,,3.6,2.5,2.6*32
$GPRMC,220022.000,A,3748.7640,N,12217.8283,W,2.09,133.43,040512,,,A*78
$GPVTG,133.43,T,,M,2.09,N,3.9,K,A*0A
$GPGGA,220023.000,3748.7639,N,12217.8280,W,1,06,2.5,8.1,M,-25.1,M,,0000*6A
$GPGSA,A,3,07,03,10,16,13,06,,,,,,,3.6,2.5,2.6*32
$GPGSV,3,1,12,13,77,039,24,07,61,306,15,23,53,114,29,10,44,277,20*7E
$GPGSV,3,2,12,08,30,268,25,03,27,084,21,16,24,042,19,06,20,069,19*7E
$GPGSV,3,3,12,19,16,122,28,20,10,175,30,05,07,323,16,28,03,210,*70
$GPRMC,220023.000,A,3748.7639,N,12217.8280,W,1.88,131.87,040512,,,A*74
$GPVTG,131.87,T,,M,1.88,N,3.5,K,A*06
$GPGGA,220024.000,3748.7645,N,12217.8273,W,1,06,2.5,9.2,M,-25.1,M,,0000*68
$GPGSA,A,3,07,03,10,16,13,06,,,,,,,3.6,2.5,2.6*32
$GPRMC,220024.000,A,3748.7645,N,12217.8273,W,1.45,112.89,040512,,,A*7A
$GPVTG,112.89,T,,M,1.45,N,2.7,K,A*0B
$GPGGA,220025.000,3748.7651,N,12217.8262,W,1,05,4.8,11.7,M,-25.1,M,,0000*58
$GPGSA,A,3,07,03,10,13,06,,,,,,,,5.5,4.8,2.6*3B
$GPRMC,220025.000,A,3748.7651,N,12217.8262,W,1.51,80.21,040512,,,A*43
$GPVTG,80.21,T,,M,1.51,N,2.8,K,A*39
$GPGGA,220026.000,3748.7648,N,12217.8256,W,1,05,4.8,11.7,M,-25.1,M,,0000*54
$GPGSA,A,3,07,03,10,13,06,,,,,,,,5.5,4.8,2.6*3B
$GPRMC,220026.000,A,3748.7648,N,12217.8256,W,1.66,122.53,040512,,,A*77
$GPVTG,122.53,T,,M,1.66,N,3.1,K,A*09
$GPGGA,220027.000,3748.7648,N,12217.8246,W,1,04,5.9,14.1,M,-25.1,M,,0000*56
$GPGSA,A,3,03,10,13,06,,,,,,,,,6.5,5.9,2.7*3E
$GPRMC,220027.000,A,3748.7648,N,12217.8246,W,2.05,117.25,040512,,,A*76
$GPVTG,117.25,T,,M,2.05,N,3.8,K,A*01
$GPGGA,220028.000,3748.7635,N,12217.8236,W,1,05,4.8,14.8,M,-25.1,M,,0000*5C
$GPGSA,A,3,07,03,10,13,06,,,,,,,,5.5,4.8,2.6*3B
$GPGSV,3,1,12,13,77,039,24,07,61,306,18,23,53,114,30,10,44,277,23*78
$GPGSV,3,2,12,08,30,268,25,03,27,084,22,16,24,042,18,06,20,069,19*7C
$GPGSV,3,3,12,19,16,122,28,20,10,175,31,05,07,323,16,28,03,210,*71
$GPRMC,220028.000,A,3748.7635,N,12217.8236,W,2.07,130.20,040512,,,A*76
$GPVTG,130.20,T,,M,2.07,N,3.8,K,A*03
$GPGGA,220029.000,3748.7624,N,12217.8221,W,1,04,5.9,17.3,M,-25.1,M,,0000*52
$GPGSA,A,3,03,10,13,06,,,,,,,,,6.5,5.9,2.7*3E
$GPRMC,220029.000,A,3748.7624,N,12217.8221,W,2.74,139.70,040512,,,A*79
$GPVTG,139.70,T,,M,2.74,N,5.1,K,A*04
$GPGGA,220030.000,3748.7608,N,12217.8208,W,1,04,5.9,19.4,M,-25.1,M,,0000*56
$GPGSA,A,3,03,10,13,06,,,,,,,,,6.5,5.9,2.7*3E
$GPRMC,220030.000,A,3748.7608,N,12217.8208,W,3.55,142.20,040512,,,A*7F
$GPVTG,142.20,T,,M,3.55,N,6.6,K,A*0B
$GPGGA,220031.000,3748.7578,N,12217.8196,W,1,05,2.6,21.4,M,-25.1,M,,0000*55
$GPGSA,A,3,03,10,16,13,06,,,,,,,,3.7,2.6,2.7*36
$GPRMC,220031.000,A,3748.7578,N,12217.8196,W,3.72,138.51,040512,,,A*70
$GPVTG,138.51,T,,M,3.72,N,6.9,K,A*0A
$GPGGA,220032.000,3748.7542,N,12217.8189,W,1,05,2.6,21.2,M,-25.1,M,,0000*57
$GPGSA,A,3,03,10,16,13,06,,,,,,,,3.7,2.6,2.7*36
$GPRMC,220032.000,A,3748.7542,N,12217.8189,W,4.16,146.85,040512,,,A*71
$GPVTG,146.85,T,,M,4.16,N,7.7,K,A*00
$GPGGA,220033.000,3748.7509,N,12217.8187,W,1,06,2.5,20.5,M,-25.1,M,,0000*51
$GPGSA,A,3,07,03,10,16,13,06,,,,,,,3.6,2.5,2.6*32
$GPGSV,3,1,12,13,77,039,23,07,61,306,18,23,53,114,30,10,44,277,24*78
$GPGSV,3,2,12,08,30,268,22,03,27,084,24,16,24,042,17,06,20,069,19*72
$GPGSV,3,3,12,19,16,122,24,20,10,175,32,05,07,323,16,28,03,210,*7E
$GPVTG,152.40,T,,M,4.01,N,7.4,K,A*09
$GPGGA,220034.000,3748.7488,N,12217.8183,W,1,05,2.6,20.2,M,-25.1,M,,0000*5D
$GPGSA,A,3,03,10,16,13,06,,,,,,,,3.7,2.6,2.7*36
$GPRMC,220034.000,A,3748.7488,N,12217.8183,W,3.91,140.90,040512,,,A*70
$GPVTG,140.90,T,,M,3.91,N,7.2,K,A*0F
$GPGGA,220035.000,3748.7489,N,12217.8174,W,1,06,2.5,21.6,M,-25.1,M,,0000*50
$GPGSA,A,3,07,03,10,16,13,06,,,,,,,3.6,2.5,2.6*32
$GPRMC,220035.000,A,3748.7489,N,12217.8174,W,3.18,140.03,040512,,,A*73
$GPVTG,140.03,T,,M,3.18,N,5.9,K,A*0D
$GPGGA,220036.000,3748.7483,N,12217.8163,W,1,05,2.6,24.0,M,-25.1,M,,0000*5C
$GPGSA,A,3,03,10,16,13,06,,,,,,,,3.7,2.6,2.7*36
$GPRMC,220036.000,A,3748.7483,N,12217.8163,W,3.47,137.21,040512,,,A*76
$GPVTG,137.21,T,,M,3.47,N,6.4,K,A*09
$GPGGA,220037.000,3748.7474,N,12217.8152,W,1,06,2.5,23.3,M,-25.1,M,,0000*53
$GPGSA,A,3,07,03,10,16,13,06,,,,,,,3.6,2.5,2.6*32
$GPRMC,220037.000,A,3748.7474,N,12217.8152,W,3.63,140.93,040512,,,A*72
$GPVTG,140.93,T,,M,3.63,N,6.7,K,A*05
$GPGGA,220038.000,3748.7466,N,12217.8143,W,1,05,2.5,22.7,M,-25.1,M,,0000*59
$GPGSA,A,3,07,03,10,16,13,,,,,,,,3.7,2.5,2.7*34
$GPGSV,3,1,12,13,77,039,23,07,61,306,17,23,53,114,30,10,44,277,25*76
$GPGSV,3,2,12,08,30,268,26,03,27,084,18,16,24,042,18,06,20,069,18*77
$GPGSV,3,3,12,19,16,122,31,20,10,175,33,05,07,323,16,28,03,210,*7B
$GPRMC,220038.000,A,3748.7466,N,12217.8143,W,3.44,136.48,040512,,,A*7C
$GPVTG,136.48,T,,M,3.44,N,6.4,K,A*04
$GPGGA,220039.000,3748.7443,N,12217.8130,W,1,06,2.5,23.2,M,-25.1,M,,0000*5C
$GPGSA,A,3,07,03,10,16,13,06,,,,,,,3.6,2.5,2.6*32
$GPRMC,220039.000,A,3748.7443,N,12217.8130,W,3.95,137.55,040512,,,A*7F
$GPVTG,137.55,T,,M,3.95,N,7.3,K,A*03
$GPGGA,220040.000,3748.7433,N,12217.8117,W,2,06,2.5,23.3,M,-25.1,M,,0000*52
$GPGSA,A,3,07,03,10,16,13,06,,,,,,,3.6,2.5,2.6*32
$GPRMC,220040.000,A,3748.7433,N,12217.8117,W,3.92,128.18,040512,,,D*76
$GPVTG,128.18,T,,M,3.92,N,7.3,K,D*06
$GPGGA,220041.000,3748.7426,N,12217.8104,W,2,05,4.8,21.5,M,-25.1,M,,0000*59
$GPGSA,A,3,07,03,10,13,06,,,,,,,,5.4,4.8,2.6*3A
$GPRMC,220041.000,A,3748.7426,N,12217.8104,W,3.30,118.92,040512,,,D*78
$GPVTG,118.92,T,,M,3.30,N,6.1,K,D*0C
$GPGGA,220042.000,3748.7428,N,12217.8086,W,2,06,2.5,22.0,M,-25.1,M,,0000*51
$GPGSA,A,3,07,03,10,16,13,06,,,,,,,3.6,2.5,2.6*32
$GPRMC,220042.000,A,3748.7428,N,12217.8086,W,2.87,97.11,040512,,,D*4E
$GPVTG,97.11,T,,M,2.87,N,5.3,K,D*3D
$GPGGA,220043.000,3748.7423,N,12217.8073,W,2,06,2.5,21.8,M,-25.1,M,,0000*5A
$GPGSA,A,3,07,03,10,16,13,06,,,,,,,3.6,2.5,2.6*32
$GPGSV,3,1,12,13,77,039,23,07,61,306,17,23,53,114,31,10,44,277,25*77
$GPGSV,3,2,12,08,30,268,25,03,27,084,26,16,24,042,18,06,20,069,18*79
$GPGSV,3,3,12,19,16,122,29,20,10,175,34,05,07,323,15,28,03,210,*76
$GPRMC,220043.000,A,3748.7423,N,12217.8073,W,2.56,116.39,040512,,,D*70
$GPVTG,116.39,T,,M,2.56,N,4.7,K,D*06
$GPGGA,220044.000,3748.7413,N,12217.8069,W,2,05,2.5,20.4,M,-25.1,M,2.8,0000*7F
$GPGSA,A,3,07,03,10,16,13,,,,,,,,3.7,2.5,2.7*34
$GPRMC,220044.000,A,3748.7413,N,12217.8069,W,2.21,131.65,040512,,,D*73
$GPVTG,131.65,T,,M,2.21,N,4.1,K,D*0C
$GPGGA,220045.000,3748.7405,N,12217.8069,W,2,06,2.5,22.0,M,-25.1,M,,0000*58
$GPGSA,A,3,07,03,10,16,13,06,,,,,,,3.6,2.5,2.6*32
$GPRMC,220045.000,A,3748.7405,N,12217.8069,W,1.95,132.84,040512,,,D*75
$GPVTG,132.84,T,,M,1.95,N,3.6,K,D*0C
$GPGGA,220046.000,3748.7391,N,12217.8068,W,2,06,2.5,19.6,M,-25.1,M,2.8,0000*7A
$GPGSA,A,3,07,03,10,16,13,06,,,,,,,3.6,2.5,2.6*32
$GPRMC,220046.000,A,3748.7391,N,12217.8068,W,1.80,132.50,040512,,,D*70
$GPVTG,132.50,T,,M,1.80,N,3.3,K,D*04
$GPGGA,220047.000,3748.7378,N,12217.8064,W,2,06,2.5,17.7,M,-25.1,M,3.8,0000*7E
$GPGSA,A,3,07,03,10,16,13,06,,,,,,,3.6,2.5,2.6*32
$GPRMC,220047.000,A,3748.7378,N,12217.8064,W,2.67,144.49,040512,,,D*79
$GPVTG,144.49,T,,M,2.67,N,4.9,K,D*0A
$GPGGA,220048.000,3748.7389,N,12217.8060,W,2,06,2.5,17.5,M,-25.1,M,,0000*5C
$GPGSA,A,3,07,03,10,16,13,06,,,,,,,3.6,2.5,2.6*32
$GPGSV,3,1,12,13,77,040,23,07,61,306,18,23,53,114,32,10,44,277,25*75
$GPGSV,3,2,12,08,30,269,25,03,27,083,26,16,24,042,18,06,20,068,17*71
$GPGSV,3,3,12,19,16,122,29,20,10,175,26,05,07,323,15,28,04,210,*72
$GPVTG,96.16,T,,M,1.37,N,2.5,K,D*32
$GPGGA,220049.000,3748.7391,N,12217.8056,W,2,04,5.9,17.5,M,-25.1,M,2.8,0000*7C
$GPGSA,A,3,03,10,13,06,,,,,,,,,6.5,5.9,2.7*3E
$GPRMC,220049.000,A,3748.7391,N,12217.8056,W,1.83,62.24,040512,,,D*46
$GPVTG,62.24,T,,M,1.83,N,3.4,K,D*37
$GPGGA,220050.000,3748.7404,N,12217.8054,W,2,04,2.4,17.4,M,-25.1,M,3.8,0000*77
$GPGSA,A,3,03,10,16,06,,,,,,,,,2.6,2.4,1.0*32
$GPRMC,220050.000,A,3748.7404,N,12217.8054,W,1.85,41.81,040512,,,D*4F
$GPVTG,41.81,T,,M,1.85,N,3.4,K,D*3F
$GPGGA,220051.000,3748.7406,N,12217.8042,W,2,04,2.4,17.7,M,-25.1,M,4.8,0000*77
$GPGSA,A,3,03,10,16,06,,,,,,,,,2.6,2.4,1.0*32
$GPRMC,220051.000,A,3748.7406,N,12217.8042,W,2.04,80.52,040512,,,D*42
$GPVTG,80.52,T,,M,2.04,N,3.8,K,D*3A
$GPGGA,220052.000,3748.7433,N,12217.8043,W,2,06,2.1,15.0,M,-25.1,M,,0000*53
$GPGSA,A,3,03,10,16,13,23,06,,,,,,,3.4,2.1,2.6*32
$GPRMC,220052.000,A,3748.7433,N,12217.8043,W,2.21,63.55,040512,,,D*4B
$GPVTG,63.55,T,,M,2.21,N,4.1,K,D*39
$GPGGA,220053.000,3748.7457,N,12217.8039,W,2,06,2.1,13.8,M,-25.1,M,6.8,0000*73
$GPGSA,A,3,03,10,16,13,23,06,,,,,,,3.4,2.1,2.6*32
$GPGSV,3,1,12,13,77,040,20,07,61,306,18,23,53,114,28,10,44,277,24*7C
$GPGSV,3,2,12,08,30,269,25,03,27,083,20,16,24,042,19,06,20,068,17*76
$GPGSV,3,3,12,19,17,122,29,20,10,175,29,05,07,323,14,28,04,210,*7D
$GPRMC,220053.000,A,3748.7457,N,12217.8039,W,1.79,97.82,040512,,,D*4A
$GPVTG,97.82,T,,M,1.79,N,3.3,K,D*33
$GPGGA,220054.000,3748.7472,N,12217.8039,W,2,06,2.0,10.3,M,-25.1,M,,0000*5A
$GPGSA,A,3,07,03,10,16,13,23,,,,,,,3.3,2.0,2.7*34
$GPRMC,220054.000,A,3748.7472,N,12217.8039,W,1.74,132.56,040512,,,D*70
$GPVTG,132.56,T,,M,1.74,N,3.2,K,D*08
$GPGGA,220055.000,3748.7478,N,12217.8034,W,2,05,2.9,8.4,M,-25.1,M,2.8,0000*4C
$GPGSA,A,3,03,10,13,23,06,,,,,,,,4.0,2.9,2.7*3F
$GPRMC,220055.000,A,3748.7478,N,12217.8034,W,1.53,131.04,040512,,,D*77
$GPVTG,131.04,T,,M,1.53,N,2.8,K,D*02
$GPGGA,220056.000,3748.7490,N,12217.8027,W,2,06,2.1,6.3,M,-25.1,M,3.8,0000*48
$GPGSA,A,3,03,10,16,13,23,06,,,,,,,3.4,2.1,2.7*33
$GPRMC,220056.000,A,3748.7490,N,12217.8027,W,1.54,111.83,040512,,,D*7A
$GPVTG,111.83,T,,M,1.54,N,2.8,K,D*08
$GPGGA,220057.000,3748.7497,N,12217.8017,W,2,07,2.0,3.2,M,-25.1,M,4.8,0000*4E
$GPGSA,A,3,07,03,10,16,13,23,06,,,,,,3.2,2.0,2.5*31
$GPRMC,220057.000,A,3748.7497,N,12217.8017,W,1.97,98.72,040512,,,D*4E
$GPVTG,98.72,T,,M,1.97,N,3.6,K,D*36
$GPGGA,220058.000,3748.7506,N,12217.8010,W,2,07,2.0,0.2,M,-25.1,M,,0000*6E
$GPGSA,A,3,07,03,10,16,13,23,06,,,,,,3.2,2.0,2.5*31
$GPGSV,3,1,12,13,77,040,21,07,61,306,25,23,53,114,29,10,44,277,28*7E
$GPGSV,3,2,12,08,30,269,27,03,27,083,24,16,24,042,18,06,20,068,23*76
$GPGSV,3,3,12,19,17,122,29,20,10,175,32,05,07,323,15,28,04,210,*76
$GPRMC,220058.000,A,3748.7506,N,12217.8010,W,1.86,120.63,040512,,,D*7D
$GPVTG,120.63,T,,M,1.86,N,3.4,K,D*06
$GPGGA,220059.000,3748.7519,N,12217.8009,W,2,07,2.0,-0.8,M,-25.1,M,,0000*4E
$GPGSA,A,3,07,03,10,16,13,23,06,,,,,,3.2,2.0,2.5*31
$GPRMC,220059.000,A,3748.7519,N,12217.8009,W,1.68,100.79,040512,,,D*73
$GPVTG,100.79,T,,M,1.68,N,3.1,K,D*0A
$GPGGA,220100.000,3748.7540,N,12217.8003,W,2,07,2.0,-2.0,M,-25.1,M,,0000*4F
$GPGSA,A,3,07,03,10,16,13,23,06,,,,,,3.2,2.0,2.5*31
$GPRMC,220100.000,A,3748.7540,N,12217.8003,W,1.43,112.89,040512,,,D*7D
$GPVTG,112.89,T,,M,1.43,N,2.7,K,D*08
$GPGGA,220101.000,3748.7555,N,12217.7997,W,2,07,2.0,-4.1,M,-25.1,M,,0000*46
$GPGSA,A,3,07,03,10,16,13,23,06,,,,,,3.2,2.0,2.5*31
$GPRMC,220101.000,A,3748.7555,N,12217.7997,W,1.98,115.85,040512,,,D*7E
$GPVTG,115.85,T,,M,1.98,N,3.7,K,D*04
$GPGGA,220102.000,3748.7557,N,12217.7991,W,2,07,2.0,-6.4,M,-25.1,M,2.8,0000*62
$GPGSA,A,3,07,03,10,16,13,23,06,,,,,,3.2,2.0,2.5*31
$GPRMC,220102.000,A,3748.7557,N,12217.7991,W,2.37,118.95,040512,,,D*73
$GPVTG,118.95,T,,M,2.37,N,4.4,K,D*0A
$GPGGA,220103.000,3748.7556,N,12217.7982,W,2,07,2.0,-8.3,M,-25.1,M,3.8,0000*68
$GPGSA,A,3,07,03,10,16,13,23,06,,,,,,3.2,2.0,2.5*31
$GPGSV,3,1,12,13,77,040,24,07,61,306,23,23,53,114,29,10,44,277,27*72
$GPGSV,3,2,12,08,30,269,27,03,27,083,23,16,24,042,17,06,20,068,13*7D
$GPRMC,220103.000,A,3748.7556,N,12217.7982,W,2.28,117.87,040512,,,D*73
$GPVTG,117.87,T,,M,2.28,N,4.2,K,D*0E
$GPGGA,220104.000,3748.7565,N,12217.7969,W,2,07,2.0,-8.1,M,-25.1,M,,0000*4D
$GPGSA,A,3,07,03,10,16,13,23,06,,,,,,3.2,2.0,2.5*31
$GPRMC,220104.000,A,3748.7565,N,12217.7969,W,2.87,112.51,040512,,,D*7A
$GPVTG,112.51,T,,M,2.87,N,5.3,K,D*05
$GPGGA,220105.000,3748.7567,N,12217.7954,W,2,07,2.0,-8.3,M,-25.1,M,,0000*42
$GPGSA,A,3,07,03,10,16,13,23,06,,,,,,3.2,2.0,2.5*31
$GPRMC,220105.000,A,3748.7567,N,12217.7954,W,3.35,118.29,040512,,,D*7A
$GPVTG,118.29,T,,M,3.35,N,6.2,K,D*0A
$GPGGA,220106.000,3748.7562,N,12217.7939,W,2,07,2.0,-9.0,M,-25.1,M,,0000*4D
$GPGSA,A,3,07,03,10,16,13,23,06,,,,,,3.2,2.0,2.5*31
$GPRMC,220106.000,A,3748.7562,N,12217.7939,W,3.35,129.25,040512,,,D*79
$GPVTG,129.25,T,,M,3.35,N,6.2,K,D*04
$GPGGA,220107.000,3748.7560,N,12217.7932,W,2,07,2.0,-8.9,M,-25.1,M,2.8,0000*69
$GPGSA,A,3,07,03,10,16,13,23,06,,,,,,3.2,2.0,2.5*31
$GPRMC,220107.000,A,3748.7560,N,12217.7932,W,2.80,135.79,040512,,,D*7A
$GPVTG,135.79,T,,M,2.80,N,5.2,K,D*0C
$GPGGA,220108.000,3748.7563,N,12217.7927,W,2,07,2.0,-7.6,M,-25.1,M,3.8,0000*60
$GPGSA,A,3,07,03,10,16,13,23,06,,,,,,3.2,2.0,2.5*31
$GPGSV,3,1,12,13,77,040,23,07,61,306,21,23,53,114,29,10,44,277,27*77
$GPGSV,3,2,12,08,30,269,27,03,27,083,23,16,24,042,18,06,20,068,23*71
$GPGSV,3,3,12,19,17,122,31,20,10,175,36,05,07,323,20,28,04,210,*7D
$GPRMC,220108.000,A,3748.7563,N,12217.7927,W,2.27,122.73,040512,,,D*73
$GPVTG,122.73,T,,M,2.27,N,4.2,K,D*0C
$GPGGA,220109.000,3748.7563,N,12217.7917,W,2,07,2.0,-6.8,M,-25.1,M,4.8,0000*6A
$GPGSA,A,3,07,03,10,16,13,23,06,,,,,,3.2,2.0,2.5*31
$GPRMC,220109.000,A,3748.7563,N,12217.7917,W,2.05,108.53,040512,,,D*7B
$GPVTG,108.53,T,,M,2.05,N,3.8,K,D*0B
$GPGGA,220110.000,3748.7564,N,12217.7908,W,2,07,2.0,-5.9,M,-25.1,M,,0000*4B
$GPGSA,A,3,07,03,10,16,13,23,06,,,,,,3.2,2.0,2.5*31
$GPRMC,220110.000,A,3748.7564,N,12217.7908,W,2.19,110.02,040512,,,D*7A
$GPVTG,110.02,T,,M,2.19,N,4.1,K,D*05
$GPGGA,220111.000,3748.7558,N,12217.7902,W,2,07,2.0,-5.4,M,-25.1,M,,0000*42
$GPGSA,A,3,07,03,10,16,13,23,06,,,,,,3.2,2.0,2.5*31
$GPRMC,220111.000,A,3748.7558,N,12217.7902,W,2.58,113.13,040512,,,D*78
$GPVTG,113.13,T,,M,2.58,N,4.8,K,D*0A
$GPGGA,220112.000,3748.7554,N,12217.7895,W,2,07,2.0,-3.9,M,-25.1,M,,0000*49
$GPGSA,A,3,07,03,10,16,13,23,06,,,,,,3.2,2.0,2.5*31
$GPRMC,220112.000,A,3748.7554,N,12217.7895,W,2.37,122.93,040512,,,D*7B
$GPVTG,122.93,T,,M,2.37,N,4.4,K,D*05
$GPGGA,220113.000,3748.7553,N,12217.7886,W,2,07,2.0,-2.6,M,-25.1,M,2.8,0000*67
$GPGSA,A,3,07,03,10,16,13,23,06,,,,,,3.2,2.0,2.5*31
$GPGSV,3,1,12,13,77,040,23,07,61,306,20,23,53,114,30,10,44,277,27*7E
$GPGSV,3,2,12,08,30,269,27,03,27,083,19,16,24,042,19,06,20,068,16*7F
$GPGSV,3,3,12,19,17,122,34,20,10,175,17,05,07,323,19,28,04,210,*71
$GPRMC,220113.000,A,3748.7553,N,12217.7886,W,2.57,96.92,040512,,,D*46
$GPVTG,96.92,T,,M,2.57,N,4.8,K,D*30
$GPGGA,220114.000,3748.7556,N,12217.7873,W,2,07,2.0,-1.3,M,-25.1,M,3.8,0000*68
$GPGSA,A,3,07,03,10,16,13,23,06,,,,,,3.2,2.0,2.5*31
$GPRMC,220114.000,A,3748.7556,N,12217.7873,W,2.96,92.63,040512,,,D*49
$GPVTG,92.63,T,,M,2.96,N,5.5,K,D*3B
$GPGGA,220115.000,3748.7543,N,12217.7866,W,2,07,2.0,-1.2,M,-25.1,M,4.8,0000*6F
$GPGSA,A,3,07,03,10,16,13,23,06,,,,,,3.2,2.0,2.5*31
$GPRMC,220115.000,A,3748.7543,N,12217.7866,W,2.61,96.04,040512,,,D*45
$GPVTG,96.04,T,,M,2.61,N,4.8,K,D*3A
$GPGGA,220116.000,3748.7538,N,12217.7860,W,2,05,3.1,-2.8,M,-25.1,M,5.8,0000*6C
$GPGSA,A,3,07,03,10,13,23,,,,,,,,4.2,3.1,2.8*3A
$GPRMC,220116.000,A,3748.7538,N,12217.7860,W,2.59,97.98,040512,,,D*43
$GPVTG,97.98,T,,M,2.59,N,4.8,K,D*35
$GPGGA,220117.000,3748.7536,N,12217.7852,W,2,05,3.1,-2.4,M,-25.1,M,6.8,0000*6D
$GPGSA,A,3,07,03,10,13,23,,,,,,,,4.2,3.1,2.8*3A
$GPRMC,220117.000,A,3748.7536,N,12217.7852,W,2.36,99.54,040512,,,D*4A
$GPVTG,99.54,T,,M,2.36,N,4.4,K,D*3E
$GPGGA,220118.000,3748.7521,N,12217.7849,W,2,06,2.0,-3.4,M,-25.1,M,7.8,0000*6D
$GPGSA,A,3,07,03,10,16,13,23,,,,,,,3.3,2.0,2.7*34
$GPGSV,3,1,12,13,77,040,23,07,61,306,20,23,53,114,30,10,44,277,27*7E
$GPGSV,3,2,12,08,30,269,28,03,27,083,18,16,24,042,18,06,20,068,16*70
$GPGSV,3,3,12,19,17,122,27,20,10,175,26,05,07,323,18,28,04,210,*70
$GPRMC,220118.000,A,3748.7521,N,12217.7849,W,2.36,124.92,040512,,,D*74
$GPVTG,124.92,T,,M,2.36,N,4.4,K,D*03
$GPGGA,220119.000,3748.7509,N,12217.7848,W,2,05,2.6,-3.2,M,-25.1,M,8.8,0000*6B
$GPGSA,A,3,07,10,13,23,06,,,,,,,,3.7,2.6,2.6*35
$GPRMC,220119.000,A,3748.7509,N,12217.7848,W,2.16,149.86,040512,,,D*72
$GPVTG,149.86,T,,M,2.16,N,4.0,K,D*0B
$GPGGA,220120.000,3748.7500,N,12217.7853,W,2,06,2.6,-2.0,M,-25.1,M,9.8,0000*63
$GPGSA,A,3,07,03,10,13,23,06,,,,,,,3.6,2.6,2.5*34
$GPRMC,220120.000,A,3748.7500,N,12217.7853,W,1.56,155.03,040512,,,D*7C
$GPVTG,155.03,T,,M,1.56,N,2.9,K,D*03
$GPGGA,220121.000,3748.7503,N,12217.7852,W,2,05,3.0,-0.3,M,-25.1,M,10.8,0000*5D
$GPGSA,A,3,07,03,10,13,23,,,,,,,,4.2,3.0,2.8*3B
$GPRMC,220121.000,A,3748.7503,N,12217.7852,W,1.72,138.23,040512,,,D*70
$GPVTG,138.23,T,,M,1.72,N,3.2,K,D*06
$GPGGA,220122.000,3748.7497,N,12217.7845,W,2,05,3.0,-0.2,M,-25.1,M,11.8,0000*54
$GPGSA,A,3,07,03,10,13,23,,,,,,,,4.2,3.0,2.8*3B
$GPRMC,220122.000,A,3748.7497,N,12217.7845,W,2.50,123.01,040512,,,D*70
$GPVTG,123.01,T,,M,2.50,N,4.6,K,D*0C
$GPGGA,220123.000,3748.7481,N,12217.7836,W,2,06,2.6,-0.7,M,-25.1,M,12.8,0000*54
$GPGSA,A,3,07,03,10,13,23,06,,,,,,,3.6,2.6,2.5*34
$GPGSV,3,1,12,13,77,040,23,07,61,306,23,23,53,114,30,10,44,277,27*7D
$GPGSV,3,2,12,08,30,269,27,03,27,083,18,16,24,042,17,06,20,068,17*71
$GPGSV,3,3,12,19,17,122,28,20,10,175,25,05,07,323,17,28,04,210,*73
$GPVTG,121.52,T,,M,2.75,N,5.1,K,D*09
$GPGGA,220124.000,3748.7471,N,12217.7834,W,2,06,2.6,-1.0,M,-25.1,M,13.8,0000*59
$GPGSA,A,3,07,03,10,13,23,06,,,,,,,3.6,2.6,2.5*34
$GPRMC,220124.000,A,3748.7471,N,12217.7834,W,2.53,118.35,040512,,,D*74
$GPVTG,118.35,T,,M,2.53,N,4.7,K,D*01
$GPGGA,220125.000,3748.7470,N,12217.7827,W,2,05,3.0,1.0,M,-25.1,M,14.8,0000*75
$GPGSA,A,3,07,03,10,13,23,,,,,,,,4.2,3.0,2.8*3B
$GPRMC,220125.000,A,3748.7470,N,12217.7827,W,2.55,118.35,040512,,,D*70
$GPVTG,118.35,T,,M,2.55,N,4.7,K,D*07
$GPGGA,220126.000,3748.7452,N,12217.7820,W,2,07,1.9,2.8,M,-25.1,M,15.8,0000*72
$GPGSA,A,3,07,03,10,16,13,23,06,,,,,,3.2,1.9,2.5*3B
$GPRMC,220126.000,A,3748.7452,N,12217.7820,W,2.64,125.67,040512,,,D*7F
$GPVTG,125.67,T,,M,2.64,N,4.9,K,D*02
$GPGGA,220127.000,3748.7454,N,12217.7810,W,2,04,3.5,5.5,M,-25.1,M,16.8,0000*72
$GPGSA,A,3,03,10,13,23,,,,,,,,,4.5,3.5,2.9*3F
$GPRMC,220127.000,A,3748.7454,N,12217.7810,W,2.42,128.24,040512,,,D*75
$GPVTG,128.24,T,,M,2.42,N,4.5,K,D*00
$GPGGA,220128.000,3748.7451,N,12217.7805,W,2,04,3.5,8.2,M,-25.1,M,17.8,0000*77
$GPGSA,A,3,03,10,13,23,,,,,,,,,4.5,3.5,2.9*3F
$GPGSV,3,1,12,13,77,040,23,07,61,306,18,23,53,114,30,10,44,277,27*75
$GPGSV,3,2,12,08,30,269,27,03,27,083,17,16,24,042,16,06,20,068,16*7E
$GPGSV,3,3,12,19,17,122,26,20,10,175,21,05,07,323,17,28,04,210,*79
$GPRMC,220128.000,A,3748.7451,N,12217.7805,W,2.50,147.66,040512,,,D*77
$GPVTG,147.66,T,,M,2.50,N,4.6,K,D*0F
$GPGGA,220129.000,3748.7440,N,12217.7797,W,1,06,2.6,9.9,M,-25.1,M,,0000*6B
$GPGSA,A,3,07,03,10,13,23,06,,,,,,,3.6,2.6,2.5*34
$GPRMC,220129.000,A,3748.7440,N,12217.7797,W,2.93,139.72,040512,,,A*74
$GPVTG,139.72,T,,M,2.93,N,5.4,K,A*0A
$GPGGA,220130.000,3748.7434,N,12217.7789,W,1,04,3.5,11.1,M,-25.1,M,,0000*5E
$GPGSA,A,3,03,10,13,23,,,,,,,,,4.5,3.5,2.9*3F
$GPRMC,220130.000,A,3748.7434,N,12217.7789,W,2.95,130.51,040512,,,A*7E
$GPVTG,130.51,T,,M,2.95,N,5.5,K,A*05
$GPGGA,220131.000,3748.7428,N,12217.7781,W,1,05,3.0,12.5,M,-25.1,M,,0000*59
$GPGSA,A,3,07,03,10,13,23,,,,,,,,4.1,3.0,2.8*38
$GPRMC,220131.000,A,3748.7428,N,12217.7781,W,2.98,128.61,040512,,,A*7D
$GPVTG,128.61,T,,M,2.98,N,5.5,K,A*02
$GPGGA,220132.000,3748.7417,N,12217.7776,W,1,05,3.0,11.0,M,-25.1,M,,0000*58
$GPGSA,A,3,07,03,10,13,23,,,,,,,,4.1,3.0,2.8*38
$GPRMC,220132.000,A,3748.7417,N,12217.7776,W,3.17,129.58,040512,,,A*77
$GPVTG,129.58,T,,M,3.17,N,5.9,K,A*03
$GPGGA,220133.000,3748.7411,N,12217.7768,W,1,05,3.0,11.4,M,-25.1,M,,0000*54
$GPGSA,A,3,07,03,10,13,23,,,,,,,,4.1,3.0,2.8*38
$GPGSV,3,1,12,13,77,040,22,07,61,306,19,23,53,114,31,10,44,277,26*75
$GPGSV,3,2,12,08,30,269,27,03,27,083,17,16,24,042,16,06,20,068,15*7D
$GPGSV,3,3,12,19,17,122,22,20,10,175,22,05,07,323,16,28,04,210,*7F
$GPRMC,220133.000,A,3748.7411,N,12217.7768,W,2.82,125.71,040512,,,A*75
$GPVTG,125.71,T,,M,2.82,N,5.2,K,A*02
$GPGGA,220134.000,3748.7406,N,12217.7755,W,2,05,3.0,13.6,M,-25.1,M,,0000*58
$GPGSA,A,3,07,03,10,13,23,,,,,,,,4.1,3.0,2.8*38
$GPRMC,220134.000,A,3748.7406,N,12217.7755,W,2.81,121.43,040512,,,D*79
$GPVTG,121.43,T,,M,2.81,N,5.2,K,D*01
$GPGGA,220135.000,3748.7385,N,12217.7748,W,2,07,1.9,14.5,M,-25.1,M,,0000*54
$GPGSA,A,3,07,03,10,16,13,23,06,,,,,,3.2,1.9,2.5*3B
$GPRMC,220135.000,A,3748.7385,N,12217.7748,W,3.01,116.04,040512,,,D*76
$GPVTG,116.04,T,,M,3.01,N,5.6,K,D*0B
$GPGGA,220136.000,3748.7383,N,12217.7736,W,2,07,1.9,17.1,M,-25.1,M,,0000*5F
$GPGSA,A,3,07,03,10,16,13,23,06,,,,,,3.2,1.9,2.5*3B
$GPRMC,220136.000,A,3748.7383,N,12217.7736,W,2.79,96.18,040512,,,D*40
$GPVTG,96.18,T,,M,2.79,N,5.2,K,D*35
$GPGGA,220137.000,3748.7391,N,12217.7727,W,2,05,2.6,21.0,M,-25.1,M,,0000*57
$GPGSA,A,3,07,10,13,23,06,,,,,,,,3.7,2.6,2.6*35
$GPRMC,220137.000,A,3748.7391,N,12217.7727,W,3.09,77.93,040512,,,D*48
$GPVTG,77.93,T,,M,3.09,N,5.7,K,D*3A
$GPGGA,220138.000,3748.7396,N,12217.7716,W,2,04,3.8,22.3,M,-25.1,M,2.8,0000*77
$GPGSA,A,3,07,10,13,23,,,,,,,,,3.9,3.8,1.0*37
$GPGSV,3,1,12,13,77,040,23,07,61,306,19,23,53,114,31,10,44,277,27*75
$GPGSV,3,2,12,08,30,269,27,03,27,083,17,16,24,042,16,06,20,068,16*7E
$GPGSV,3,3,12,19,17,122,30,20,10,175,21,05,07,323,16,28,04,210,*7F
$GPVTG,81.73,T,,M,2.94,N,5.5,K,D*3A
$GPGGA,220139.000,3748.7395,N,12217.7711,W,2,05,2.6,22.9,M,-25.1,M,,0000*52
$GPGSA,A,3,07,10,13,23,06,,,,,,,,3.7,2.6,2.6*35
$GPRMC,220139.000,A,3748.7395,N,12217.7711,W,2.85,82.95,040512,,,D*4E
$GPVTG,82.95,T,,M,2.85,N,5.3,K,D*37
$GPGGA,220140.000,3748.7389,N,12217.7704,W,2,05,2.6,22.9,M,-25.1,M,1.8,0000*72
$GPGSA,A,3,07,10,13,23,06,,,,,,,,3.7,2.6,2.6*35
$GPRMC,220140.000,A,3748.7389,N,12217.7704,W,2.08,102.88,040512,,,D*79
$GPVTG,102.88,T,,M,2.08,N,3.8,K,D*0A
$GPGGA,220141.000,3748.7381,N,12217.7699,W,2,05,2.6,24.2,M,-25.1,M,2.8,0000*70
$GPGSA,A,3,07,10,13,23,06,,,,,,,,3.7,2.6,2.6*35
$GPRMC,220141.000,A,3748.7381,N,12217.7699,W,2.88,135.66,040512,,,D*79
$GPVTG,135.66,T,,M,2.88,N,5.3,K,D*0B
$GPGGA,220142.000,3748.7372,N,12217.7691,W,2,06,2.5,26.7,M,-25.1,M,3.8,0000*71
$GPGSA,A,3,07,03,10,13,23,06,,,,,,,3.6,2.5,2.5*37
$GPRMC,220142.000,A,3748.7372,N,12217.7691,W,3.44,144.81,040512,,,D*70
$GPVTG,144.81,T,,M,3.44,N,6.4,K,D*01
$GPGGA,220143.000,3748.7360,N,12217.7677,W,2,06,2.5,25.8,M,-25.1,M,4.8,0000*70
$GPGSA,A,3,07,03,10,13,23,06,,,,,,,3.6,2.5,2.5*37
$GPGSV,3,1,12,13,77,040,23,07,61,306,19,23,53,114,31,10,44,277,26*74
$GPGSV,3,2,12,08,30,269,28,03,27,083,17,16,24,042,16,06,20,068,16*71
$GPGSV,3,3,12,19,17,122,30,20,10,175,28,05,07,323,17,28,04,210,*77
$GPRMC,220143.000,A,3748.7360,N,12217.7677,W,3.92,146.23,040512,,,D*7B
$GPVTG,146.23,T,,M,3.92,N,7.3,K,D*06
$GPGGA,220144.000,3748.7353,N,12217.7666,W,2,06,2.5,25.6,M,-25.1,M,5.8,0000*78
$GPGSA,A,3,07,03,10,13,23,06,,,,,,,3.6,2.5,2.5*37
$GPRMC,220144.000,A,3748.7353,N,12217.7666,W,3.18,131.84,040512,,,D*73
$GPVTG,131.84,T,,M,3.18,N,5.9,K,D*01
$GPGGA,220145.000,3748.7341,N,12217.7659,W,2,06,2.5,24.3,M,-25.1,M,6.8,0000*71
$GPGSA,A,3,07,03,10,13,23,06,,,,,,,3.6,2.5,2.5*37
$GPRMC,220145.000,A,3748.7341,N,12217.7659,W,2.74,113.22,040512,,,D*7A
$GPVTG,113.22,T,,M,2.74,N,5.1,K,D*0E
$GPGGA,220146.000,3748.7330,N,12217.7652,W,2,05,2.6,24.1,M,-25.1,M,,0000*5D
$GPGSA,A,3,07,10,13,23,06,,,,,,,,3.7,2.6,2.6*35
$GPRMC,220146.000,A,3748.7330,N,12217.7652,W,2.89,125.69,040512,,,D*7C
$GPVTG,125.69,T,,M,2.89,N,5.4,K,D*03
$GPGGA,220147.000,3748.7324,N,12217.7641,W,2,06,2.5,22.6,M,-25.1,M,,0000*5A
$GPGSA,A,3,07,03,10,13,23,06,,,,,,,3.6,2.5,2.5*37
$GPRMC,220147.000,A,3748.7324,N,12217.7641,W,3.23,134.43,040512,,,D*73
$GPVTG,134.43,T,,M,3.23,N,6.0,K,D*0D
$GPGGA,220148.000,3748.7322,N,12217.7631,W,2,07,1.9,24.1,M,-25.1,M,,0000*5B
$GPGSA,A,3,07,03,10,16,13,23,06,,,,,,3.2,1.9,2.5*3B
$GPGSV,3,1,12,13,77,040,23,07,61,306,20,23,53,114,32,10,44,277,26*7D
$GPGSV,3,2,12,08,30,269,28,03,27,083,25,16,24,042,15,06,20,068,17*72
$GPGSV,3,3,12,19,17,122,14,20,10,175,36,05,07,323,17,28,04,210,*7E
$GPRMC,220148.000,A,3748.7322,N,12217.7631,W,2.51,129.91,040512,,,D*7A
$GPVTG,129.91,T,,M,2.51,N,4.6,K,D*0E
$GPGGA,220149.000,3748.7328,N,12217.7618,W,2,07,1.9,25.2,M,-25.1,M,2.8,0000*7D
$GPGSA,A,3,07,03,10,16,13,23,06,,,,,,3.2,1.9,2.5*3B
$GPRMC,220149.000,A,3748.7328,N,12217.7618,W,2.24,107.43,040512,,,D*7B
$GPVTG,107.43,T,,M,2.24,N,4.2,K,D*0B
$GPGGA,220150.000,3748.7336,N,12217.7606,W,2,07,1.9,22.1,M,-25.1,M,,0000*55
$GPGSA,A,3,07,03,10,16,13,23,06,,,,,,3.2,1.9,2.5*3B
$GPRMC,220150.000,A,3748.7336,N,12217.7606,W,2.33,115.49,040512,,,D*7C
$GPVTG,115.49,T,,M,2.33,N,4.3,K,D*05
$GPGGA,220151.000,3748.7335,N,12217.7593,W,2,07,1.9,19.2,M,-25.1,M,2.8,0000*77
$GPGSA,A,3,07,03,10,16,13,23,06,,,,,,3.2,1.9,2.5*3B
$GPRMC,220151.000,A,3748.7335,N,12217.7593,W,2.51,123.66,040512,,,D*7D
$GPVTG,123.66,T,,M,2.51,N,4.6,K,D*0C
$GPGGA,220152.000,3748.7344,N,12217.7581,W,2,07,1.9,17.3,M,-25.1,M,,0000*5A
$GPGSA,A,3,07,03,10,16,13,23,06,,,,,,3.2,1.9,2.5*3B
$GPRMC,220152.000,A,3748.7344,N,12217.7581,W,2.22,126.63,040512,,,D*7F
$GPVTG,126.63,T,,M,2.22,N,4.1,K,D*0F
$GPGGA,220153.000,3748.7350,N,12217.7562,W,2,07,1.9,17.8,M,-25.1,M,2.8,0000*7C
$GPGSA,A,3,07,03,10,16,13,23,06,,,,,,3.2,1.9,2.5*3B
$GPGSV,3,1,12,13,77,040,23,07,61,306,19,23,53,114,32,10,44,277,26*77
$GPGSV,3,2,12,08,30,269,28,03,27,083,29,16,24,042,21,06,20,068,24*79
$GPGSV,3,3,12,19,17,122,25,20,10,175,35,05,07,323,17,28,04,210,*7F
$GPRMC,220153.000,A,3748.7350,N,12217.7562,W,2.19,127.88,040512,,,D*7A
$GPVTG,127.88,T,,M,2.19,N,4.1,K,D*03
$GPGGA,220154.000,3748.7366,N,12217.7547,W,2,07,1.9,17.8,M,-25.1,M,,0000*5D
$GPGSA,A,3,07,03,10,16,13,23,06,,,,,,3.2,1.9,2.5*3B
$GPRMC,220154.000,A,3748.7366,N,12217.7547,W,2.03,87.88,040512,,,D*4F
$GPVTG,87.88,T,,M,2.03,N,3.8,K,D*3D
$GPGGA,220155.000,3748.7368,N,12217.7536,W,2,06,1.9,16.9,M,-25.1,M,2.8,0000*71
$GPGSA,A,3,07,03,10,16,13,23,,,,,,,3.3,1.9,2.7*3E
$GPRMC,220155.000,A,3748.7368,N,12217.7536,W,2.46,94.23,040512,,,D*44
$GPVTG,94.23,T,,M,2.46,N,4.6,K,D*36
$GPGGA,220156.000,3748.7372,N,12217.7523,W,2,07,1.9,16.7,M,-25.1,M,3.8,0000*73
$GPGSA,A,3,07,03,10,16,13,23,06,,,,,,3.2,1.9,2.5*3B
$GPRMC,220156.000,A,3748.7372,N,12217.7523,W,2.88,89.34,040512,,,D*40
$GPVTG,89.34,T,,M,2.88,N,5.3,K,D*3A
$GPGGA,220157.000,3748.7380,N,12217.7510,W,2,07,1.9,17.7,M,-25.1,M,4.8,0000*79
$GPGSA,A,3,07,03,10,16,13,23,06,,,,,,3.2,1.9,2.5*3B
$GPRMC,220157.000,A,3748.7380,N,12217.7510,W,2.56,68.29,040512,,,D*4C
$GPVTG,68.29,T,,M,2.56,N,4.8,K,D*30
$GPGGA,220158.000,3748.7386,N,12217.7503,W,2,07,1.9,17.2,M,-25.1,M,5.8,0000*76
$GPGSA,A,3,07,03,10,16,13,23,06,,,,,,3.2,1.9,2.5*3B
$GPGSV,3,1,12,13,77,040,23,07,61,306,20,23,53,114,32,10,44,277,25*7E
$GPGSV,3,2,12,08,30,269,28,03,27,083,17,16,24,042,21,06,20,068,14*77
$GPGSV,3,3,12,19,17,122,22,20,10,175,30,05,07,323,17,28,04,210,*7D
$GPRMC,220158.000,A,3748.7386,N,12217.7503,W,1.89,75.38,040512,,,D*4A
$GPGGA,220159.000,3748.7385,N,12217.7497,W,2,07,1.9,16.9,M,-25.1,M,6.8,0000*71
$GPGSA,A,3,07,03,10,16,13,23,06,,,,,,3.2,1.9,2.5*3B
$GPRMC,220159.000,A,3748.7385,N,12217.7497,W,1.61,99.01,040512,,,D*4A
$GPVTG,99.01,T,,M,1.61,N,3.0,K,D*3C
$GPGGA,220200.000,3748.7392,N,12217.7486,W,2,07,1.9,17.7,M,-25.1,M,7.8,0000*76
$GPGSA,A,3,07,03,10,16,13,23,06,,,,,,3.2,1.9,2.5*3B
$GPRMC,220200.000,A,3748.7392,N,12217.7486,W,1.97,114.56,040512,,,D*7C
$GPVTG,114.56,T,,M,1.97,N,3.6,K,D*05
$GPGGA,220201.000,3748.7382,N,12217.7479,W,2,07,1.9,17.8,M,-25.1,M,8.8,0000*76
$GPGSA,A,3,07,03,10,16,13,23,06,,,,,,3.2,1.9,2.5*3B
$GPRMC,220201.000,A,3748.7382,N,12217.7479,W,1.51,123.13,040512,,,D*73
$GPVTG,123.13,T,,M,1.51,N,2.8,K,D*05
$GPGGA,220202.000,3748.7381,N,12217.7479,W,2,07,1.9,14.4,M,-25.1,M,9.8,0000*78
$GPGSA,A,3,07,03,10,16,13,23,06,,,,,,3.2,1.9,2.5*3B
$GPRMC,220202.000,A,3748.7381,N,12217.7479,W,1.31,104.37,040512,,,D*76
$GPVTG,104.37,T,,M,1.31,N,2.4,K,D*0C
$GPGGA,220203.000,3748.7377,N,12217.7472,W,2,07,1.9,14.0,M,-25.1,M,10.8,0000*47
$GPGSA,A,3,07,03,10,16,13,23,06,,,,,,3.2,1.9,2.5*3B
$GPGSV,3,1,12,13,77,040,22,07,61,306,21,23,53,114,27,10,44,277,25*7A
$GPGSV,3,2,12,08,30,269,28,03,27,083,25,16,24,042,20,06,20,068,17*74
$GPGSV,3,3,12,19,17,122,27,20,10,175,25,05,07,323,17,28,04,210,*7C
$GPRMC,220203.000,A,3748.7377,N,12217.7472,W,1.87,96.06,040512,,,D*40
$GPVTG,96.06,T,,M,1.87,N,3.5,K,D*39
$GPGGA,220204.000,3748.7370,N,12217.7463,W,2,07,1.9,12.3,M,-25.1,M,11.8,0000*43
$GPGSA,A,3,07,03,10,16,13,23,06,,,,,,3.2,1.9,2.5*3B
$GPRMC,220204.000,A,3748.7370,N,12217.7463,W,1.93,115.24,040512,,,D*7F
$GPVTG,115.24,T,,M,1.93,N,3.6,K,D*05
$GPGGA,220205.000,3748.7363,N,12217.7457,W,2,07,1.9,11.4,M,-25.1,M,12.8,0000*40
$GPGSA,A,3,07,03,10,16,13,23,06,,,,,,3.2,1.9,2.5*3B
$GPRMC,220205.000,A,3748.7363,N,12217.7457,W,1.86,157.99,040512,,,D*7F
$GPVTG,157.99,T,,M,1.86,N,3.4,K,D*03
$GPGGA,220206.000,3748.7359,N,12217.7452,W,2,07,1.9,12.8,M,-25.1,M,13.8,0000*41
$GPGSA,A,3,07,03,10,16,13,23,06,,,,,,3.2,1.9,2.5*3B
$GPRMC,220206.000,A,3748.7359,N,12217.7452,W,1.20,157.41,040512,,,D*79
$GPVTG,157.41,T,,M,1.20,N,2.2,K,D*0D
$GPGGA,220207.000,3748.7355,N,12217.7443,W,2,07,1.9,13.8,M,-25.1,M,14.8,0000*4A
$GPGSA,A,3,07,03,10,16,13,23,06,,,,,,3.2,1.9,2.5*3B
$GPRMC,220207.000,A,3748.7355,N,12217.7443,W,1.37,98.32,040512,,,D*44
$GPVTG,98.32,T,,M,1.37,N,2.5,K,D*3A
$GPGGA,220208.000,3748.7356,N,12217.7434,W,2,07,1.9,12.0,M,-25.1,M,15.8,0000*4E
$GPGSA,A,3,07,03,10,16,13,23,06,,,,,,3.2,1.9,2.5*3B
$GPGSV,3,1,12,13,77,040,21,07,61,306,21,23,53,114,32,10,44,277,24*7C
$GPGSV,3,2,12,08,30,269,20,03,27,083,24,16,24,042,19,06,20,068,18*78
$GPGSV,3,3,12,19,17,122,34,20,10,175,26,05,07,323,17,28,04,210,*7D
$GPRMC,220208.000,A,3748.7356,N,12217.7434,W,2.04,57.41,040512,,,D*4C
$GPVTG,57.41,T,,M,2.04,N,3.8,K,D*32
$GPGGA,220209.000,3748.7363,N,12217.7422,W,2,07,1.9,11.6,M,-25.1,M,16.8,0000*48
$GPGSA,A,3,07,03,10,16,13,23,06,,,,,,3.2,1.9,2.5*3B
$GPRMC,220209.000,A,3748.7363,N,12217.7422,W,2.16,45.14,040512,,,D*4C
$GPVTG,45.14,T,,M,2.16,N,4.0,K,D*3D
$GPGGA,220210.000,3748.7366,N,12217.7415,W,2,07,1.9,9.8,M,-25.1,M,17.8,0000*77
$GPGSA,A,3,07,03,10,16,13,23,06,,,,,,3.2,1.9,2.5*3B
$GPRMC,220210.000,A,3748.7366,N,12217.7415,W,1.69,50.99,040512,,,D*4F
$GPVTG,50.99,T,,M,1.69,N,3.1,K,D*31
$GPGGA,220211.000,3748.7364,N,12217.7406,W,1,07,1.9,9.7,M,-25.1,M,,0000*6A
$GPGSA,A,3,07,03,10,16,13,23,06,,,,,,3.2,1.9,2.5*3B
$GPRMC,220211.000,A,3748.7364,N,12217.7406,W,1.13,92.18,040512,,,A*41
$GPVTG,92.18,T,,M,1.13,N,2.1,K,A*3F
$GPGGA,220212.000,3748.7361,N,12217.7396,W,1,07,1.9,9.9,M,-25.1,M,,0000*6C
$GPGSA,A,3,07,03,10,16,13,23,06,,,,,,3.2,1.9,2.5*3B
$GPRMC,220212.000,A,3748.7361,N,12217.7396,W,2.01,97.29,040512,,,A*4E
$GPVTG,97.29,T,,M,2.01,N,3.7,K,A*3F
$GPGGA,220213.000,3748.7362,N,12217.7385,W,1,07,1.9,11.5,M,-25.1,M,,0000*59
$GPGSA,A,3,07,03,10,16,13,23,06,,,,,,3.2,1.9,2.5*3B
$GPGSV,3,1,12,13,77,040,22,07,61,306,21,23,53,114,26,10,44,277,24*7A
$GPGSV,3,2,12,08,30,269,24,03,27,083,24,16,24,042,19,06,20,068,18*7C
$GPGSV,3,3,12,19,17,122,28,20,10,175,26,05,07,323,18,28,04,210,*7F
$GPRMC,220213.000,A,3748.7362,N,12217.7385,W,1.40,80.80,040512,,,A*4D
$GPVTG,80.80,T,,M,1.40,N,2.6,K,A*3C
$GPGGA,220214.000,3748.7366,N,12217.7383,W,1,07,1.9,12.1,M,-25.1,M,,0000*5B
$GPGSA,A,3,07,03,10,16,13,23,06,,,,,,3.2,1.9,2.5*3B
$GPRMC,220214.000,A,3748.7366,N,12217.7383,W,1.06,94.82,040512,,,A*4D
$GPVTG,94.82,T,,M,1.06,N,2.0,K,A*3F
$GPGGA,220215.000,3748.7360,N,12217.7386,W,1,07,1.9,13.0,M,-25.1,M,,0000*59
$GPGSA,A,3,07,03,10,16,13,23,06,,,,,,3.2,1.9,2.5*3B
$GPRMC,220215.000,A,3748.7360,N,12217.7386,W,0.71,147.08,040512,,,A*73
$GPVTG,147.08,T,,M,0.71,N,1.3,K,A*03
$GPGGA,220216.000,3748.7348,N,12217.7384,W,1,07,1.9,12.9,M,-25.1,M,,0000*5A
$GPGSA,A,3,07,03,10,16,13,23,06,,,,,,3.2,1.9,2.5*3B
