$ADVER,3080,2.3
$GPRMC,220952.984,A,3748.8041,N,12217.8610,W,0.14,86.48,171212,,,A*4B
$GPGGA,220953.984,3748.8042,N,12217.8611,W,1,04,3.9,8.1,M,-25.1,M,,0000*67
$GPGSA,A,3,19,03,22,18,,,,,,,,,6.3,3.9,5.0*3A
$GPRMC,220953.984,A,3748.8042,N,12217.8611,W,0.17,180.27,171212,,,A*75
$GPVTG,180.27,T,,M,0.17,N,0.3,K,A*04
$GPGGA,220954.984,3748.8042,N,12217.8612,W,1,04,3.9,8.1,M,-25.1,M,,0000*63
$GPGSA,A,3,19,03,22,18,,,,,,,,,6.3,3.9,5.0*3A
$GPRMC,220954.984,A,3748.8042,N,12217.8612,W,0.20,176.69,171212,,,A*76
$GPVTG,176.69,T,,M,0.20,N,0.4,K,A*04
$GPGGA,220956.000,3748.8041,N,12217.8611,W,1,04,3.9,7.8,M,-25.1,M,,0000*62
$GPGSA,A,3,19,03,22,18,,,,,,,,,6.3,3.9,5.0*3A
$GPRMC,220956.000,A,3748.8041,N,12217.8611,W,0.23,173.78,171212,,,A*77
$GPVTG,173.78,T,,M,0.23,N,0.4,K,A*02
$GPGGA,220957.000,3748.8041,N,12217.8611,W,1,04,3.9,7.6,M,-25.1,M,,0000*6D
$GPGSA,A,3,19,03,22,18,,,,,,,,,6.3,3.9,5.0*3A
$GPRMC,220957.000,A,3748.8041,N,12217.8611,W,0.21,175.80,171212,,,A*75
$GPVTG,175.80,T,,M,0.21,N,0.4,K,A*01
$GPGGA,220958.000,3748.8040,N,12217.8610,W,1,04,3.9,7.3,M,-25.1,M,,0000*67
$GPGSA,A,3,19,03,22,18,,,,,,,,,6.3,3.9,5.0*3A
$GPGSV,3,1,12,22,71,323,40,18,51,050,37,03,42,269,40,19,36,303,40*71
$GPGSV,3,2,12,14,55,179,29,06,49,244,37,21,39,114,30,24,16,070,*7F
$GPRMC,220958.000,A,3748.8040,N,12217.8610,W,0.23,172.29,171212,,,A*7C
$GPVTG,172.29,T,,M,0.23,N,0.4,K,A*07
$GPGGA,220959.000,3748.8040,N,12217.8610,W,1,04,3.9,6.9,M,-25.1,M,,0000*6D
$GPGSA,A,3,19,03,22,18,,,,,,,,,6.3,3.9,5.0*3A
$GPRMC,220959.000,A,3748.8040,N,12217.8610,W,0.20,172.88,171212,,,A*75
$GPVTG,172.88,T,,M,0.20,N,0.4,K,A*0F
$GPGGA,221000.000,3748.8039,N,12217.8609,W,1,04,3.9,6.7,M,-25.1,M,,0000*61
$GPGSA,A,3,19,03,22,18,,,,,,,,,6.3,3.9,5.0*3A
$GPRMC,221000.000,A,3748.8039,N,12217.8609,W,0.19,173.47,171212,,,A*7F
$GPVTG,173.47,T,,M,0.19,N,0.4,K,A*07
$GPGGA,221001.000,3748.8039,N,12217.8609,W,1,04,3.9,6.4,M,-25.1,M,,0000*63
$GPGSA,A,3,19,03,22,18,,,,,,,,,6.3,3.9,5.0*3A
$GPRMC,221001.000,A,3748.8039,N,12217.8609,W,0.26,169.40,171212,,,A*7E
$GPVTG,169.40,T,,M,0.26,N,0.5,K,A*06
$GPGGA,221002.000,3748.8039,N,12217.8608,W,1,04,3.9,6.0,M,-25.1,M,,0000*65
$GPGSA,A,3,19,03,22,18,,,,,,,,,6.3,3.9,5.0*3A
$GPRMC,221002.000,A,3748.8039,N,12217.8608,W,0.17,170.88,171212,,,A*72
$GPVTG,170.88,T,,M,0.17,N,0.3,K,A*0E
$GPGGA,221003.000,3748.8038,N,12217.8608,W,1,04,3.9,5.7,M,-25.1,M,,0000*61
$GPGSA,A,3,19,03,22,18,,,,,,,,,6.3,3.9,5.0*3A
$GPGSV,3,1,12,22,71,323,40,18,51,050,37,03,42,269,39,19,36,303,38*70
$GPGSV,3,2,12,14,55,179,30,06,49,244,36,21,39,114,33,24,16,070,*75
$GPGSV,3,3,12,27,13,054,,09,13,056,33,15,04,040,32,16,01,241,*70
$GPRMC,221003.000,A,3748.8038,N,12217.8608,W,0.22,173.09,171212,,,A*7E
$GPVTG,173.09,T,,M,0.22,N,0.4,K,A*05
$GPGGA,221004.000,3748.8038,N,12217.8608,W,1,04,3.9,5.4,M,-25.1,M,,0000*65
$GPGSA,A,3,19,03,22,18,,,,,,,,,6.3,3.9,5.0*3A
$GPRMC,221004.000,A,3748.8038,N,12217.8608,W,0.22,167.79,171212,,,A*7B
$GPVTG,167.79,T,,M,0.22,N,0.4,K,A*07
$GPGGA,221005.000,3748.8037,N,12217.8607,W,1,04,3.9,5.2,M,-25.1,M,,0000*62
$GPGSA,A,3,19,03,22,18,,,,,,,,,6.3,3.9,5.0*3A
$GPRMC,221005.000,A,3748.8037,N,12217.8607,W,0.23,174.83,171212,,,A*7C
$GPVTG,174.83,T,,M,0.23,N,0.4,K,A*01
$GPGGA,221006.000,3748.8037,N,12217.8607,W,1,04,3.9,4.9,M,-25.1,M,,0000*6B
$GPGSA,A,3,19,03,22,18,,,,,,,,,6.3,3.9,5.0*3A
$GPRMC,221006.000,A,3748.8037,N,12217.8607,W,0.22,170.66,171212,,,A*71
$GPVTG,170.66,T,,M,0.22,N,0.4,K,A*0F
$GPGGA,221007.000,3748.8037,N,12217.8607,W,1,04,3.9,4.7,M,-25.1,M,,0000*64
$GPGSA,A,3,19,03,22,18,,,,,,,,,6.3,3.9,5.0*3A
$GPRMC,221007.000,A,3748.8037,N,12217.8607,W,0.26,166.56,171212,,,A*70
$GPVTG,166.56,T,,M,0.26,N,0.5,K,A*0E
$GPGGA,221008.000,3748.8037,N,12217.8607,W,1,04,3.9,4.6,M,-25.1,M,,0000*6A
$GPGSA,A,3,19,03,22,18,,,,,,,,,6.3,3.9,5.0*3A
$GPGSV,3,1,12,22,71,323,40,18,51,050,37,03,42,269,39,19,36,303,39*71
$GPGSV,3,2,12,14,55,179,30,06,49,244,37,21,39,114,33,24,16,070,*74
$GPGSV,3,3,12,27,13,054,,09,13,056,22,15,04,040,32,16,01,241,*70
$GPRMC,221008.000,A,3748.8037,N,12217.8607,W,0.22,169.64,171212,,,A*75
$GPVTG,169.64,T,,M,0.22,N,0.4,K,A*05
$GPGGA,221009.000,3748.8037,N,12217.8606,W,1,04,3.9,4.4,M,-25.1,M,,0000*68
$GPGSA,A,3,19,03,22,18,,,,,,,,,6.3,3.9,5.0*3A
$GPRMC,221009.000,A,3748.8037,N,12217.8606,W,0.23,175.25,171212,,,A*7C
$GPVTG,175.25,T,,M,0.23,N,0.4,K,A*0C
$GPGGA,221010.000,3748.8037,N,12217.8606,W,1,04,3.9,4.3,M,-25.1,M,,0000*67
$GPGSA,A,3,19,03,22,18,,,,,,,,,6.3,3.9,5.0*3A
$GPRMC,221010.000,A,3748.8037,N,12217.8606,W,0.23,166.46,171212,,,A*73
$GPVTG,166.46,T,,M,0.23,N,0.4,K,A*0B
$GPGGA,221011.000,3748.8037,N,12217.8606,W,1,04,3.9,4.1,M,-25.1,M,,0000*64
$GPGSA,A,3,19,03,22,18,,,,,,,,,6.3,3.9,5.0*3A
$GPRMC,221011.000,A,3748.8037,N,12217.8606,W,0.24,170.58,171212,,,A*7D
$GPVTG,170.58,T,,M,0.24,N,0.4,K,A*04
$GPGGA,221012.000,3748.8035,N,12217.8605,W,2,04,3.9,4.0,M,-25.1,M,,0000*64
$GPGSA,A,3,19,03,22,18,,,,,,,,,6.3,3.9,5.0*3A
$GPRMC,221012.000,A,3748.8035,N,12217.8605,W,0.31,165.89,171212,,,D*76
$GPVTG,165.89,T,,M,0.31,N,0.6,K,D*0F
$GPGGA,221013.000,3748.8034,N,12217.8605,W,2,04,3.9,3.9,M,-25.1,M,,0000*6A
$GPGSA,A,3,19,03,22,18,,,,,,,,,6.3,3.9,5.0*3A
$GPGSV,3,1,12,22,71,323,40,18,51,050,37,03,42,269,40,19,36,303,40*71
$GPGSV,3,2,12,14,55,179,31,06,49,244,37,21,39,114,34,24,16,070,*72
$GPGSV,3,3,12,27,13,054,,09,13,056,25,15,04,040,33,16,01,241,*76
$GPVTG,165.76,T,,M,0.35,N,0.6,K,D*0B
$GPGGA,221014.000,3748.8033,N,12217.8604,W,2,04,3.9,3.8,M,-25.1,M,,0000*6A
$GPGSA,A,3,19,03,22,18,,,,,,,,,6.3,3.9,5.0*3A
$GPRMC,221014.000,A,3748.8033,N,12217.8604,W,0.17,171.88,171212,,,D*77
$GPVTG,171.88,T,,M,0.17,N,0.3,K,D*0A
$GPGGA,221015.000,3748.8032,N,12217.8603,W,2,04,3.9,3.6,M,-25.1,M,,0000*63
$GPGSA,A,3,19,03,22,18,,,,,,,,,6.3,3.9,5.0*3A
$GPRMC,221015.000,A,3748.8032,N,12217.8603,W,0.14,174.26,171212,,,D*72
$GPVTG,174.26,T,,M,0.14,N,0.3,K,D*08
$GPGGA,221016.000,3748.8032,N,12217.8603,W,2,04,3.9,3.5,M,-25.1,M,2.8,0000*47
$GPGSA,A,3,19,03,22,18,,,,,,,,,6.3,3.9,5.0*3A
$GPRMC,221016.000,A,3748.8032,N,12217.8603,W,0.17,169.56,171212,,,D*79
$GPVTG,169.56,T,,M,0.17,N,0.3,K,D*00
$GPGGA,221017.000,3748.8031,N,12217.8603,W,2,04,3.9,3.3,M,-25.1,M,3.8,0000*42
$GPGSA,A,3,19,03,22,18,,,,,,,,,6.3,3.9,5.0*3A
$GPRMC,221017.000,A,3748.8031,N,12217.8603,W,0.15,172.97,171212,,,D*7E
$GPVTG,172.97,T,,M,0.15,N,0.3,K,D*05
$GPGGA,221018.000,3748.8031,N,12217.8602,W,2,04,3.9,3.2,M,-25.1,M,,0000*68
$GPGSA,A,3,19,03,22,18,,,,,,,,,6.3,3.9,5.0*3A
$GPGSV,3,1,12,22,71,324,40,14,55,179,31,18,51,050,37,06,49,244,38*79
$GPGSV,3,2,12,03,42,269,40,21,39,114,34,19,36,303,40,24,16,070,*72
$GPGSV,3,3,12,27,13,054,,09,13,056,25,15,04,040,33,16,00,240,*76
$GPRMC,221018.000,A,3748.8031,N,12217.8602,W,0.12,172.97,171212,,,D*77
$GPVTG,172.97,T,,M,0.12,N,0.2,K,D*03
$GPGGA,221019.000,3748.8030,N,12217.8602,W,2,04,3.9,3.0,M,-25.1,M,,0000*6A
$GPGSA,A,3,19,03,22,18,,,,,,,,,6.3,3.9,5.0*3A
$GPRMC,221019.000,A,3748.8030,N,12217.8602,W,0.14,178.17,171212,,,D*73
$GPVTG,178.17,T,,M,0.14,N,0.3,K,D*06
$GPGGA,221020.000,3748.8029,N,12217.8601,W,2,04,3.9,2.9,M,-25.1,M,,0000*63
$GPGSA,A,3,19,03,22,18,,,,,,,,,6.3,3.9,5.0*3A
$GPRMC,221020.000,A,3748.8029,N,12217.8601,W,0.29,163.98,171212,,,D*71
$GPVTG,163.98,T,,M,0.29,N,0.5,K,D*03
$GPGGA,221021.000,3748.8028,N,12217.8600,W,2,04,3.9,2.8,M,-25.1,M,,0000*63
$GPGSA,A,3,19,03,22,18,,,,,,,,,6.3,3.9,5.0*3A
$GPRMC,221021.000,A,3748.8028,N,12217.8600,W,0.30,166.45,171212,,,D*7D
$GPVTG,166.45,T,,M,0.30,N,0.6,K,D*0D
$GPGGA,221022.000,3748.8023,N,12217.8599,W,2,05,2.5,2.4,M,-25.1,M,1.8,0000*4F
$GPGSA,A,3,19,03,22,18,06,,,,,,,,5.4,2.5,4.8*3C
$GPRMC,221022.000,A,3748.8023,N,12217.8599,W,0.26,160.30,171212,,,D*75
$GPVTG,160.30,T,,M,0.26,N,0.5,K,D*0D
$GPGGA,221023.000,3748.8019,N,12217.8597,W,2,05,2.5,2.0,M,-25.1,M,2.8,0000*4E
$GPGSA,A,3,19,03,22,18,06,,,,,,,,5.4,2.5,4.8*3C
$GPGSV,3,1,12,22,71,324,40,14,55,179,31,18,51,050,37,06,49,244,38*79
$GPGSV,3,2,12,03,42,269,40,21,39,114,34,19,36,303,40,24,16,070,*72
$GPGSV,3,3,12,27,13,054,,09,13,056,27,15,04,040,33,16,00,240,*74
$GPRMC,221023.000,A,3748.8019,N,12217.8597,W,0.23,158.84,171212,,,D*72
$GPVTG,158.84,T,,M,0.23,N,0.4,K,D*0D
$GPGGA,221024.000,3748.8016,N,12217.8596,W,2,05,2.5,1.8,M,-25.1,M,3.8,0000*4D
$GPGSA,A,3,19,03,22,18,06,,,,,,,,5.4,2.5,4.8*3C
$GPRMC,221024.000,A,3748.8016,N,12217.8596,W,0.22,160.94,171212,,,D*70
$GPVTG,160.94,T,,M,0.22,N,0.4,K,D*06
$GPGGA,221025.000,3748.8014,N,12217.8595,W,2,05,2.5,1.6,M,-25.1,M,1.8,0000*41
$GPGSA,A,3,19,03,22,18,06,,,,,,,,5.4,2.5,4.8*3C
$GPRMC,221025.000,A,3748.8014,N,12217.8595,W,0.21,157.62,171212,,,D*7E
$GPVTG,157.62,T,,M,0.21,N,0.4,K,D*08
$GPGGA,221026.000,3748.8012,N,12217.8594,W,2,05,2.5,1.4,M,-25.1,M,1.8,0000*47
$GPGSA,A,3,19,03,22,18,06,,,,,,,,5.4,2.5,4.8*3C
$GPRMC,221026.000,A,3748.8012,N,12217.8594,W,0.13,174.35,171212,,,D*78
$GPVTG,174.35,T,,M,0.13,N,0.2,K,D*0C
$GPGGA,221027.000,3748.8014,N,12217.8594,W,2,05,2.5,1.4,M,-25.1,M,1.8,0000*40
$GPGSA,A,3,19,03,22,18,06,,,,,,,,5.4,2.5,4.8*3C
$GPRMC,221027.000,A,3748.8014,N,12217.8594,W,0.06,21.04,171212,,,D*48
$GPVTG,21.04,T,,M,0.06,N,0.1,K,D*38
$GPGGA,221028.000,3748.8014,N,12217.8594,W,2,05,2.5,1.3,M,-25.1,M,2.8,0000*4B
$GPGSA,A,3,19,03,22,18,06,,,,,,,,5.4,2.5,4.8*3C
$GPGSV,3,1,12,22,71,324,39,14,55,179,10,18,51,050,36,06,49,244,32*7F
$GPGSV,3,2,12,03,42,269,37,21,39,114,34,19,36,303,37,24,16,070,*72
$GPGSV,3,3,12,27,13,054,,09,13,056,31,15,04,040,33,16,00,240,*73
$GPRMC,221028.000,A,3748.8014,N,12217.8594,W,0.07,316.90,171212,,,D*7C
$GPGGA,221029.000,3748.8012,N,12217.8593,W,2,05,2.5,1.1,M,-25.1,M,3.8,0000*48
$GPGSA,A,3,19,03,22,18,06,,,,,,,,5.4,2.5,4.8*3C
$GPRMC,221029.000,A,3748.8012,N,12217.8593,W,0.29,183.06,171212,,,D*71
$GPVTG,183.06,T,,M,0.29,N,0.5,K,D*0A
$GPGGA,221030.000,3748.8010,N,12217.8592,W,2,05,2.5,0.9,M,-25.1,M,4.8,0000*4D
$GPGSA,A,3,19,03,22,18,06,,,,,,,,5.4,2.5,4.8*3C
$GPRMC,221030.000,A,3748.8010,N,12217.8592,W,0.26,112.15,171212,,,D*7F
$GPVTG,112.15,T,,M,0.26,N,0.5,K,D*0F
$GPGGA,221031.000,3748.8009,N,12217.8591,W,2,05,2.5,0.8,M,-25.1,M,5.8,0000*47
$GPGSA,A,3,19,03,22,18,06,,,,,,,,5.4,2.5,4.8*3C
$GPRMC,221031.000,A,3748.8009,N,12217.8591,W,0.21,170.48,171212,,,D*7E
$GPVTG,170.48,T,,M,0.21,N,0.4,K,D*05
$GPGGA,221032.000,3748.8008,N,12217.8590,W,2,05,2.5,0.6,M,-25.1,M,6.8,0000*49
$GPGSA,A,3,19,03,22,18,06,,,,,,,,5.4,2.5,4.8*3C
$GPRMC,221032.000,A,3748.8008,N,12217.8590,W,0.16,158.34,171212,,,D*78
$GPVTG,158.34,T,,M,0.16,N,0.3,K,D*07
$GPGGA,221033.000,3748.8007,N,12217.8589,W,2,05,2.5,0.5,M,-25.1,M,7.8,0000*4D
$GPGSA,A,3,19,03,22,18,06,,,,,,,,5.4,2.5,4.8*3C
$GPGSV,3,1,12,22,71,324,31,14,55,179,,18,51,050,33,06,49,244,34*75
$GPGSV,3,2,12,03,42,269,34,21,39,114,24,19,36,303,37,24,16,070,*70
$GPGSV,3,3,12,27,13,054,,09,13,056,24,15,04,040,28,16,00,240,*7D
$GPRMC,221033.000,A,3748.8007,N,12217.8589,W,0.23,168.46,171212,,,D*7E
$GPVTG,168.46,T,,M,0.23,N,0.4,K,D*00
$GPGGA,221034.000,3748.8006,N,12217.8589,W,2,05,2.5,0.3,M,-25.1,M,8.8,0000*42
$GPGSA,A,3,19,03,22,18,06,,,,,,,,5.4,2.5,4.8*3C
$GPRMC,221034.000,A,3748.8006,N,12217.8589,W,0.31,176.55,171212,,,D*76
$GPVTG,176.55,T,,M,0.31,N,0.6,K,D*0C
$GPGGA,221035.000,3748.8005,N,12217.8589,W,2,05,2.5,0.1,M,-25.1,M,9.8,0000*43
$GPGSA,A,3,19,03,22,18,06,,,,,,,,5.4,2.5,4.8*3C
$GPRMC,221035.000,A,3748.8005,N,12217.8589,W,0.09,202.74,171212,,,D*7C
$GPVTG,202.74,T,,M,0.09,N,0.2,K,D*00
$GPGGA,221036.000,3748.8004,N,12217.8588,W,2,05,2.5,-0.0,M,-25.1,M,10.8,0000*54
$GPGSA,A,3,19,03,22,18,06,,,,,,,,5.4,2.5,4.8*3C
$GPRMC,221036.000,A,3748.8004,N,12217.8588,W,0.19,185.09,171212,,,D*78
$GPVTG,185.09,T,,M,0.19,N,0.4,K,D*01
$GPGGA,221037.000,3748.8003,N,12217.8588,W,2,05,2.5,-0.2,M,-25.1,M,11.8,0000*51
$GPGSA,A,3,19,03,22,18,06,,,,,,,,5.4,2.5,4.8*3C
$GPRMC,221037.000,A,3748.8003,N,12217.8588,W,0.16,146.77,171212,,,D*77
$GPVTG,146.77,T,,M,0.16,N,0.3,K,D*0F
$GPGGA,221038.000,3748.8003,N,12217.8587,W,2,05,2.5,-0.3,M,-25.1,M,12.8,0000*53
$GPGSA,A,3,19,03,22,18,06,,,,,,,,5.4,2.5,4.8*3C
$GPGSV,3,1,12,22,71,324,31,14,55,179,,18,51,050,32,06,49,244,33*73
$GPGSV,3,2,12,03,42,269,34,21,39,114,24,19,36,303,38,24,16,070,*7F
$GPGSV,3,3,12,27,13,054,,09,13,056,28,15,04,040,28,16,00,240,*71
$GPRMC,221038.000,A,3748.8003,N,12217.8587,W,0.11,157.11,171212,,,D*70
$GPVTG,157.11,T,,M,0.11,N,0.2,K,D*09
$GPGGA,221039.000,3748.8003,N,12217.8586,W,2,05,2.5,-0.4,M,-25.1,M,13.8,0000*55
$GPGSA,A,3,19,03,22,18,06,,,,,,,,5.4,2.5,4.8*3C
$GPRMC,221039.000,A,3748.8003,N,12217.8586,W,0.34,102.19,171212,,,D*7F
$GPVTG,102.19,T,,M,0.34,N,0.6,K,D*02
$GPGGA,221040.000,3748.8005,N,12217.8583,W,2,05,2.5,-0.9,M,-25.1,M,14.8,0000*52
$GPGSA,A,3,19,03,22,18,06,,,,,,,,5.4,2.5,4.8*3C
$GPRMC,221040.000,A,3748.8005,N,12217.8583,W,0.67,131.44,171212,,,D*7C
$GPVTG,131.44,T,,M,0.67,N,1.2,K,D*09
$GPGGA,221041.000,3748.8009,N,12217.8581,W,2,05,2.5,-1.7,M,-25.1,M,15.8,0000*53
$GPGSA,A,3,19,03,22,18,06,,,,,,,,5.4,2.5,4.8*3C
$GPRMC,221041.000,A,3748.8009,N,12217.8581,W,0.32,244.85,171212,,,D*7F
$GPVTG,244.85,T,,M,0.32,N,0.6,K,D*00
$GPGGA,221042.000,3748.8009,N,12217.8580,W,2,05,2.5,-2.6,M,-25.1,M,16.8,0000*50
$GPGSA,A,3,19,03,22,18,06,,,,,,,,5.4,2.5,4.8*3C
$GPRMC,221042.000,A,3748.8009,N,12217.8580,W,0.44,348.89,171212,,,D*7D
$GPVTG,348.89,T,,M,0.44,N,0.8,K,D*0E
$GPGGA,221043.000,3748.8008,N,12217.8580,W,2,05,2.5,-3.7,M,-25.1,M,17.8,0000*51
$GPGSA,A,3,19,03,22,18,06,,,,,,,,5.4,2.5,4.8*3C
$GPGSV,3,1,12,22,71,324,24,14,55,179,,18,51,050,27,06,49,244,32*72
$GPGSV,3,2,12,03,42,269,30,21,39,114,28,19,36,303,31,24,16,070,*7E
$GPGSV,3,3,12,27,13,054,,09,13,056,26,15,04,040,28,16,00,240,*7F
$GPVTG,109.27,T,,M,0.27,N,0.5,K,D*05
$GPGGA,221044.000,3748.8005,N,12217.8577,W,1,05,2.5,-8.2,M,-25.1,M,,0000*4E
$GPGSA,A,3,19,03,22,18,06,,,,,,,,5.4,2.5,4.8*3C
$GPRMC,221044.000,A,3748.8005,N,12217.8577,W,0.37,158.67,171212,,,A*7D
$GPVTG,158.67,T,,M,0.37,N,0.7,K,A*03
$GPGGA,221045.000,3748.8002,N,12217.8575,W,1,05,2.5,-10.9,M,-25.1,M,,0000*78
$GPGSA,A,3,19,03,22,18,06,,,,,,,,5.4,2.5,4.8*3C
$GPRMC,221045.000,A,3748.8002,N,12217.8575,W,0.49,145.95,171212,,,A*71
$GPVTG,145.95,T,,M,0.49,N,0.9,K,A*05
$GPGGA,221046.000,3748.7999,N,12217.8570,W,1,05,2.5,-14.5,M,-25.1,M,,0000*72
$GPGSA,A,3,19,03,22,18,06,,,,,,,,5.4,2.5,4.8*3C
$GPRMC,221046.000,A,3748.7999,N,12217.8570,W,0.68,92.55,171212,,,A*47
$GPVTG,92.55,T,,M,0.68,N,1.3,K,A*3A
$GPGGA,221047.000,3748.7999,N,12217.8568,W,1,05,2.5,-14.9,M,-25.1,M,,0000*76
$GPGSA,A,3,19,03,22,18,06,,,,,,,,5.4,2.5,4.8*3C
$GPRMC,221047.000,A,3748.7999,N,12217.8568,W,0.67,152.50,171212,,,A*78
$GPVTG,152.50,T,,M,0.67,N,1.2,K,A*0C
$GPGGA,221048.000,3748.8000,N,12217.8567,W,1,05,2.5,-13.2,M,-25.1,M,,0000*7C
$GPGSA,A,3,19,03,22,18,06,,,,,,,,5.4,2.5,4.8*3C
$GPGSV,3,1,12,22,71,325,22,14,55,179,,18,51,050,26,06,49,244,24*73
$GPGSV,3,2,12,03,42,269,30,21,39,114,26,19,36,303,25,24,16,070,*75
$GPGSV,3,3,12,27,13,053,,09,13,055,22,15,04,040,26,16,00,240,*71
$GPRMC,221048.000,A,3748.8000,N,12217.8567,W,0.69,113.93,171212,,,A*7A
$GPVTG,113.93,T,,M,0.69,N,1.3,K,A*09
$GPGGA,221049.000,3748.8000,N,12217.8562,W,1,05,2.5,-13.4,M,-25.1,M,,0000*7E
$GPGSA,A,3,19,03,22,18,06,,,,,,,,5.4,2.5,4.8*3C
$GPRMC,221049.000,A,3748.8000,N,12217.8562,W,0.36,119.83,171212,,,A*7F
$GPVTG,119.83,T,,M,0.36,N,0.7,K,A*0D
$GPGGA,221050.000,3748.7999,N,12217.8562,W,1,05,2.5,-13.9,M,-25.1,M,,0000*7D
$GPGSA,A,3,19,03,22,18,06,,,,,,,,5.4,2.5,4.8*3C
$GPRMC,221050.000,A,3748.7999,N,12217.8562,W,0.32,31.60,171212,,,A*43
$GPVTG,31.60,T,,M,0.32,N,0.6,K,A*3E
$GPGGA,221051.000,3748.7997,N,12217.8567,W,1,05,2.5,-14.1,M,-25.1,M,,0000*78
$GPGSA,A,3,19,03,22,18,06,,,,,,,,5.4,2.5,4.8*3C
$GPRMC,221051.000,A,3748.7997,N,12217.8567,W,0.34,138.73,171212,,,A*75
$GPVTG,138.73,T,,M,0.34,N,0.6,K,A*02
$GPGGA,221052.000,3748.7994,N,12217.8569,W,1,05,2.5,-15.5,M,-25.1,M,,0000*73
$GPGSA,A,3,19,03,22,18,06,,,,,,,,5.4,2.5,4.8*3C
$GPRMC,221052.000,A,3748.7994,N,12217.8569,W,0.30,163.24,171212,,,A*73
$GPVTG,163.24,T,,M,0.30,N,0.5,K,A*09
$GPGGA,221053.000,3748.8001,N,12217.8574,W,1,05,2.5,-13.3,M,-25.1,M,,0000*74
$GPGSA,A,3,19,03,22,18,06,,,,,,,,5.4,2.5,4.8*3C
$GPGSV,3,1,12,22,71,325,20,14,55,179,,18,51,050,22,06,49,244,28*79
$GPGSV,3,2,12,03,42,269,29,21,39,114,11,19,36,303,23,24,16,070,*7F
$GPGSV,3,3,12,27,13,053,,09,13,055,18,15,04,040,27,16,00,240,*79
$GPRMC,221053.000,A,3748.8001,N,12217.8574,W,0.43,68.76,171212,,,A*4D
$GPVTG,68.76,T,,M,0.43,N,0.8,K,A*3D
$GPGGA,221054.000,3748.8002,N,12217.8582,W,1,05,2.5,-13.3,M,-25.1,M,,0000*79
$GPGSA,A,3,19,03,22,18,06,,,,,,,,5.4,2.5,4.8*3C
$GPRMC,221054.000,A,3748.8002,N,12217.8582,W,0.53,221.98,171212,,,A*7E
$GPVTG,221.98,T,,M,0.53,N,1.0,K,A*0A
$GPGGA,221055.000,3748.7996,N,12217.8580,W,1,05,2.5,-13.7,M,-25.1,M,,0000*75
$GPGSA,A,3,19,03,22,18,06,,,,,,,,5.4,2.5,4.8*3C
$GPRMC,221055.000,A,3748.7996,N,12217.8580,W,0.62,101.40,171212,,,A*70
$GPVTG,101.40,T,,M,0.62,N,1.1,K,A*0D
$GPGGA,221056.000,3748.7998,N,12217.8581,W,1,05,2.5,-13.1,M,-25.1,M,,0000*7F
$GPGSA,A,3,19,03,22,18,06,,,,,,,,5.4,2.5,4.8*3C
$GPRMC,221056.000,A,3748.7998,N,12217.8581,W,0.70,76.31,171212,,,A*48
$GPVTG,76.31,T,,M,0.70,N,1.3,K,A*3B
$GPGGA,221057.000,3748.8000,N,12217.8580,W,1,05,2.5,-13.2,M,-25.1,M,,0000*7B
$GPGSA,A,3,19,03,22,18,06,,,,,,,,5.4,2.5,4.8*3C
$GPRMC,221057.000,A,3748.8000,N,12217.8580,W,0.44,83.58,171212,,,A*4D
$GPVTG,83.58,T,,M,0.44,N,0.8,K,A*33
$GPGGA,221058.000,3748.8004,N,12217.8585,W,1,05,2.5,-13.5,M,-25.1,M,,0000*72
$GPGSA,A,3,19,03,22,18,06,,,,,,,,5.4,2.5,4.8*3C
$GPGSV,3,1,12,22,71,325,27,14,55,179,25,18,51,050,29,06,49,244,35*7E
$GPGSV,3,2,12,03,42,269,35,21,39,114,24,19,36,303,33,24,16,070,*75
$GPGSV,3,3,12,27,13,053,,09,13,055,24,15,04,040,34,16,00,240,*74
$GPVTG,263.11,T,,M,0.24,N,0.4,K,A*08
$GPGGA,221059.000,3748.8003,N,12217.8589,W,1,05,2.5,-12.8,M,-25.1,M,,0000*74
$GPGSA,A,3,19,03,22,18,06,,,,,,,,5.4,2.5,4.8*3C
$GPRMC,221059.000,A,3748.8003,N,12217.8589,W,0.15,130.16,171212,,,A*7E
$GPVTG,130.16,T,,M,0.15,N,0.3,K,A*0F
$GPGGA,221100.000,3748.8005,N,12217.8593,W,1,05,2.5,-12.2,M,-25.1,M,,0000*7E
$GPGSA,A,3,19,03,22,18,06,,,,,,,,5.4,2.5,4.8*3C
$GPRMC,221100.000,A,3748.8005,N,12217.8593,W,0.12,179.26,171212,,,A*77
$GPVTG,179.26,T,,M,0.12,N,0.2,K,A*07
$GPGGA,221101.000,3748.8005,N,12217.8594,W,1,04,3.1,-12.0,M,-25.1,M,,0000*7E
$GPGSA,A,3,19,03,22,06,,,,,,,,,3.3,3.1,1.0*3C
$GPRMC,221101.000,A,3748.8005,N,12217.8594,W,0.34,172.78,171212,,,A*75
$GPVTG,172.78,T,,M,0.34,N,0.6,K,A*07
$GPGGA,221102.000,3748.8005,N,12217.8594,W,1,05,2.5,-11.5,M,-25.1,M,,0000*7F
$GPGSA,A,3,19,03,22,18,06,,,,,,,,5.4,2.5,4.8*3C
$GPRMC,221102.000,A,3748.8005,N,12217.8594,W,0.53,97.12,171212,,,A*41
$GPVTG,97.12,T,,M,0.53,N,1.0,K,A*37
$GPGGA,221103.000,3748.8014,N,12217.8604,W,1,05,2.5,-8.2,M,-25.1,M,,0000*4B
$GPGSA,A,3,19,03,22,18,06,,,,,,,,5.4,2.5,4.8*3C
$GPGSV,3,1,12,22,71,325,27,14,55,179,22,18,51,050,27,06,49,244,27*74
$GPGSV,3,2,12,03,42,269,29,21,39,114,24,19,36,303,31,24,16,070,*7A
$GPGSV,3,3,12,27,13,053,,09,13,055,25,15,04,040,26,16,00,240,*76
$GPRMC,221103.000,A,3748.8014,N,12217.8604,W,0.49,38.02,171212,,,A*45
$GPVTG,38.02,T,,M,0.49,N,0.9,K,A*30
$GPGGA,221104.000,3748.8016,N,12217.8604,W,1,04,3.1,-8.0,M,-25.1,M,,0000*48
$GPGSA,A,3,19,03,22,06,,,,,,,,,3.3,3.1,1.0*3C
$GPRMC,221104.000,A,3748.8016,N,12217.8604,W,0.69,345.84,171212,,,A*75
$GPVTG,345.84,T,,M,0.69,N,1.3,K,A*0E
$GPGGA,221105.000,3748.8015,N,12217.8605,W,1,05,2.5,-5.8,M,-25.1,M,,0000*4A
$GPGSA,A,3,19,03,22,18,06,,,,,,,,5.4,2.5,4.8*3C
$GPRMC,221105.000,A,3748.8015,N,12217.8605,W,0.60,241.45,171212,,,A*77
$GPVTG,241.45,T,,M,0.60,N,1.1,K,A*0D
$GPGGA,221106.000,3748.8008,N,12217.8605,W,1,04,2.2,-5.7,M,-25.1,M,,0000*4C
$GPGSA,A,3,19,03,18,06,,,,,,,,,2.4,2.2,1.0*31
$GPRMC,221106.000,A,3748.8008,N,12217.8605,W,0.66,221.22,171212,,,A*79
$GPVTG,221.22,T,,M,0.66,N,1.2,K,A*0F
$GPGGA,221107.000,3748.8004,N,12217.8604,W,1,05,2.5,-8.5,M,-25.1,M,,0000*49
$GPGSA,A,3,19,03,22,18,06,,,,,,,,5.4,2.5,4.8*3C
$GPRMC,221107.000,A,3748.8004,N,12217.8604,W,0.24,223.86,171212,,,A*7F
$GPVTG,223.86,T,,M,0.24,N,0.5,K,A*03
$GPGGA,221108.000,3748.8001,N,12217.8599,W,1,05,2.5,-10.4,M,-25.1,M,,0000*7C
$GPGSA,A,3,19,03,22,18,06,,,,,,,,5.4,2.5,4.8*3C
$GPGSV,3,1,12,22,71,325,22,14,55,179,23,18,51,050,20,06,49,244,33*72
$GPGSV,3,2,12,03,42,269,31,21,39,114,,19,36,303,30,24,16,070,*74
$GPGSV,3,3,12,27,13,053,,09,13,055,26,15,04,040,32,16,00,240,*70
$GPRMC,221108.000,A,3748.8001,N,12217.8599,W,0.53,73.06,171212,,,A*4D
$GPVTG,73.06,T,,M,0.53,N,1.0,K,A*38
$GPGGA,221109.000,3748.7998,N,12217.8595,W,1,05,2.5,-11.4,M,-25.1,M,,0000*76
$GPGSA,A,3,19,03,22,18,06,,,,,,,,5.4,2.5,4.8*3C
$GPRMC,221109.000,A,3748.7998,N,12217.8595,W,1.13,127.51,171212,,,A*71
$GPVTG,127.51,T,,M,1.13,N,2.1,K,A*0D
$GPGGA,221110.000,3748.7994,N,12217.8593,W,1,05,2.5,-11.8,M,-25.1,M,,0000*78
$GPGSA,A,3,19,03,22,18,06,,,,,,,,5.4,2.5,4.8*3C
$GPRMC,221110.000,A,3748.7994,N,12217.8593,W,1.43,142.13,171212,,,A*73
$GPVTG,142.13,T,,M,1.43,N,2.7,K,A*0B
$GPGGA,221111.000,3748.7987,N,12217.8585,W,1,05,2.5,-15.2,M,-25.1,M,,0000*72
$GPGSA,A,3,19,03,22,18,06,,,,,,,,5.4,2.5,4.8*3C
$GPRMC,221111.000,A,3748.7987,N,12217.8585,W,1.51,153.47,171212,,,A*75
$GPVTG,153.47,T,,M,1.51,N,2.8,K,A*06
$GPGGA,221112.000,3748.7982,N,12217.8586,W,1,05,2.5,-15.1,M,-25.1,M,,0000*74
$GPGSA,A,3,19,03,22,18,06,,,,,,,,5.4,2.5,4.8*3C
$GPRMC,221112.000,A,3748.7982,N,12217.8586,W,1.87,150.01,171212,,,A*7A
$GPVTG,150.01,T,,M,1.87,N,3.5,K,A*00
$GPGGA,221113.000,3748.7974,N,12217.8584,W,1,05,2.5,-17.7,M,-25.1,M,,0000*7A
$GPGSA,A,3,19,03,22,18,06,,,,,,,,5.4,2.5,4.8*3C
$GPGSV,3,1,12,22,71,325,21,14,55,179,,18,51,050,25,06,49,244,31*77
$GPGSV,3,2,12,03,42,269,36,21,39,114,,19,36,303,35,24,16,070,*76
$GPGSV,3,3,12,27,13,053,,09,13,055,19,15,04,040,25,16,00,240,*7A
$GPVTG,139.27,T,,M,2.05,N,3.8,K,A*0F
$GPGGA,221114.000,3748.7968,N,12217.8578,W,1,05,2.5,-19.7,M,-25.1,M,,0000*7D
$GPGSA,A,3,19,03,22,18,06,,,,,,,,5.4,2.5,4.8*3C
$GPRMC,221114.000,A,3748.7968,N,12217.8578,W,1.90,119.90,171212,,,A*7A
$GPVTG,119.90,T,,M,1.90,N,3.5,K,A*03
$GPGGA,221115.000,3748.7959,N,12217.8567,W,1,05,2.5,-22.8,M,-25.1,M,,0000*77
$GPGSA,A,3,19,03,22,18,06,,,,,,,,5.4,2.5,4.8*3C
$GPRMC,221115.000,A,3748.7959,N,12217.8567,W,1.70,127.05,171212,,,A*78
$GPVTG,127.05,T,,M,1.70,N,3.2,K,A*0B
$GPGGA,221116.000,3748.7958,N,12217.8563,W,1,05,2.5,-22.0,M,-25.1,M,,0000*79
$GPGSA,A,3,19,03,22,18,06,,,,,,,,5.4,2.5,4.8*3C
$GPRMC,221116.000,A,3748.7958,N,12217.8563,W,1.48,144.83,171212,,,A*7E
$GPVTG,144.83,T,,M,1.48,N,2.7,K,A*0F
$GPGGA,221117.000,3748.7959,N,12217.8560,W,1,05,2.5,-21.9,M,-25.1,M,,0000*70
$GPGSA,A,3,19,03,22,18,06,,,,,,,,5.4,2.5,4.8*3C
$GPRMC,221117.000,A,3748.7959,N,12217.8560,W,0.69,136.73,171212,,,A*75
$GPVTG,136.73,T,,M,0.69,N,1.3,K,A*00
$GPGGA,221118.000,3748.7960,N,12217.8559,W,1,05,2.5,-21.8,M,-25.1,M,,0000*7E
$GPGSA,A,3,19,03,22,18,06,,,,,,,,5.4,2.5,4.8*3C
$GPGSV,3,1,12,22,71,325,28,14,55,179,16,18,51,050,26,06,49,244,29*73
$GPGSV,3,2,12,03,42,269,36,21,39,114,,19,36,303,35,24,17,069,*7F
$GPGSV,3,3,12,27,13,053,,09,13,055,26,15,04,040,27,16,00,240,*74
$GPRMC,221118.000,A,3748.7960,N,12217.8559,W,0.45,137.41,171212,,,A*74
$GPVTG,137.41,T,,M,0.45,N,0.8,K,A*04
$GPGGA,221119.000,3748.7964,N,12217.8560,W,1,05,2.5,-20.7,M,-25.1,M,,0000*7F
$GPGSA,A,3,19,03,22,18,06,,,,,,,,5.4,2.5,4.8*3C
$GPRMC,221119.000,A,3748.7964,N,12217.8560,W,0.25,135.63,171212,,,A*7F
$GPVTG,135.63,T,,M,0.25,N,0.5,K,A*0D
$GPGGA,221120.000,3748.7966,N,12217.8561,W,1,05,2.5,-19.3,M,-25.1,M,,0000*78
$GPGSA,A,3,19,03,22,18,06,,,,,,,,5.4,2.5,4.8*3C
$GPRMC,221120.000,A,3748.7966,N,12217.8561,W,0.16,50.90,171212,,,A*48
$GPVTG,50.90,T,,M,0.16,N,0.3,K,A*35
$GPGGA,221121.000,3748.7969,N,12217.8562,W,1,05,2.5,-18.3,M,-25.1,M,,0000*74
$GPGSA,A,3,19,03,22,18,06,,,,,,,,5.4,2.5,4.8*3C
$GPRMC,221121.000,A,3748.7969,N,12217.8562,W,0.38,358.80,171212,,,A*73
$GPVTG,358.80,T,,M,0.38,N,0.7,K,A*07
$GPGGA,221122.000,3748.7970,N,12217.8563,W,1,05,2.5,-17.7,M,-25.1,M,,0000*75
$GPGSA,A,3,19,03,22,18,06,,,,,,,,5.4,2.5,4.8*3C
$GPRMC,221122.000,A,3748.7970,N,12217.8563,W,0.28,354.36,171212,,,A*79
$GPVTG,354.36,T,,M,0.28,N,0.5,K,A*05
$GPGGA,221123.000,3748.7977,N,12217.8564,W,1,05,2.5,-17.0,M,-25.1,M,,0000*73
$GPGSA,A,3,19,03,22,18,06,,,,,,,,5.4,2.5,4.8*3C
$GPGSV,3,1,12,22,71,325,28,14,55,179,16,18,51,050,27,06,49,244,22*79
$GPGSV,3,2,12,03,42,269,36,21,39,114,,19,36,303,35,24,17,069,*7F
$GPGSV,3,3,12,27,13,053,,09,13,055,19,15,04,040,20,16,00,240,*7F
$GPRMC,221123.000,A,3748.7977,N,12217.8564,W,0.67,352.45,171212,,,A*71
$GPVTG,352.45,T,,M,0.67,N,1.2,K,A*0A
$GPGGA,221124.000,3748.7983,N,12217.8566,W,1,05,2.5,-16.3,M,-25.1,M,,0000*7F
$GPGSA,A,3,19,03,22,18,06,,,,,,,,5.4,2.5,4.8*3C
$GPRMC,221124.000,A,3748.7983,N,12217.8566,W,0.44,346.67,171212,,,A*7B
$GPVTG,346.67,T,,M,0.44,N,0.8,K,A*05
$GPGGA,221125.000,3748.7980,N,12217.8567,W,1,05,2.5,-15.8,M,-25.1,M,,0000*74
$GPGSA,A,3,19,03,22,18,06,,,,,,,,5.4,2.5,4.8*3C
$GPRMC,221125.000,A,3748.7980,N,12217.8567,W,0.34,192.54,171212,,,A*74
$GPVTG,192.54,T,,M,0.34,N,0.6,K,A*07
$GPGGA,221126.000,3748.7979,N,12217.8568,W,1,05,2.5,-15.5,M,-25.1,M,,0000*73
$GPGSA,A,3,19,03,22,18,06,,,,,,,,5.4,2.5,4.8*3C
$GPRMC,221126.000,A,3748.7979,N,12217.8568,W,0.08,321.04,171212,,,A*7E
$GPVTG,321.04,T,,M,0.08,N,0.2,K,A*03
$GPGGA,221127.000,3748.7976,N,12217.8569,W,1,05,2.5,-15.1,M,-25.1,M,,0000*78
$GPGSA,A,3,19,03,22,18,06,,,,,,,,5.4,2.5,4.8*3C
$GPRMC,221127.000,A,3748.7976,N,12217.8569,W,0.95,179.19,171212,,,A*76
$GPVTG,179.19,T,,M,0.95,N,1.8,K,A*0F
$GPGGA,221128.000,3748.7973,N,12217.8566,W,1,04,3.8,-16.4,M,-25.1,M,,0000*76
$GPGSA,A,3,19,03,22,18,,,,,,,,,6.2,3.8,4.9*32
$GPGSV,3,1,12,22,71,325,27,14,55,179,17,18,51,050,25,06,49,244,16*72
$GPGSV,3,2,12,03,42,269,33,21,39,114,,19,36,303,33,24,17,069,*7C
$GPGSV,3,3,12,27,13,053,,09,13,055,18,15,04,040,32,16,00,240,*7D
$GPRMC,221128.000,A,3748.7973,N,12217.8566,W,0.87,153.77,171212,,,A*70
$GPGGA,221129.000,3748.7973,N,12217.8562,W,1,05,2.5,-17.8,M,-25.1,M,,0000*73
$GPGSA,A,3,19,03,22,18,06,,,,,,,,5.4,2.5,4.8*3C
$GPRMC,221129.000,A,3748.7973,N,12217.8562,W,0.78,110.33,171212,,,A*72
$GPVTG,110.33,T,,M,0.78,N,1.5,K,A*06
$GPGGA,221130.000,3748.7973,N,12217.8554,W,1,05,2.5,-20.3,M,-25.1,M,,0000*71
$GPGSA,A,3,19,03,22,18,06,,,,,,,,5.4,2.5,4.8*3C
$GPRMC,221130.000,A,3748.7973,N,12217.8554,W,1.39,122.26,171212,,,A*7E
$GPVTG,122.26,T,,M,1.39,N,2.6,K,A*07
$GPGGA,221131.000,3748.7971,N,12217.8546,W,1,05,2.5,-20.0,M,-25.1,M,,0000*72
$GPGSA,A,3,19,03,22,18,06,,,,,,,,5.4,2.5,4.8*3C
$GPRMC,221131.000,A,3748.7971,N,12217.8546,W,1.48,116.12,171212,,,A*78
$GPVTG,116.12,T,,M,1.48,N,2.7,K,A*00
$GPGGA,221132.000,3748.7971,N,12217.8539,W,1,05,2.5,-19.3,M,-25.1,M,,0000*70
$GPGSA,A,3,19,03,22,18,06,,,,,,,,5.4,2.5,4.8*3C
$GPRMC,221132.000,A,3748.7971,N,12217.8539,W,1.88,119.02,171212,,,A*71
$GPVTG,119.02,T,,M,1.88,N,3.5,K,A*01
$GPGGA,221133.000,3748.7966,N,12217.8534,W,1,05,2.5,-20.8,M,-25.1,M,,0000*7B
$GPGSA,A,3,19,03,22,18,06,,,,,,,,5.4,2.5,4.8*3C
$GPGSV,3,1,12,22,71,325,25,14,55,179,,18,51,050,25,06,49,244,27*74
$GPGSV,3,2,12,03,42,269,33,21,39,114,,19,36,303,34,24,17,069,*7B
$GPGSV,3,3,12,27,13,053,,09,13,055,19,15,04,040,30,16,00,240,*7E
$GPRMC,221133.000,A,3748.7966,N,12217.8534,W,1.75,124.32,171212,,,A*74
$GPVTG,124.32,T,,M,1.75,N,3.2,K,A*09
$GPGGA,221134.000,3748.7966,N,12217.8530,W,1,05,2.5,-19.6,M,-25.1,M,,0000*7C
$GPGSA,A,3,19,03,22,18,06,,,,,,,,5.4,2.5,4.8*3C
$GPRMC,221134.000,A,3748.7966,N,12217.8530,W,1.96,120.93,171212,,,A*75
$GPVTG,120.93,T,,M,1.96,N,3.6,K,A*0F
$GPGGA,221135.000,3748.7971,N,12217.8524,W,1,05,2.5,-20.1,M,-25.1,M,,0000*73
$GPGSA,A,3,19,03,22,18,06,,,,,,,,5.4,2.5,4.8*3C
$GPRMC,221135.000,A,3748.7971,N,12217.8524,W,2.12,112.69,171212,,,A*7C
$GPVTG,112.69,T,,M,2.12,N,3.9,K,A*0B
$GPGGA,221136.000,3748.7976,N,12217.8522,W,1,05,2.5,-20.4,M,-25.1,M,,0000*74
$GPGSA,A,3,19,03,22,18,06,,,,,,,,5.4,2.5,4.8*3C
$GPRMC,221136.000,A,3748.7976,N,12217.8522,W,1.77,122.08,171212,,,A*7A
$GPVTG,122.08,T,,M,1.77,N,3.3,K,A*05
$GPGGA,221137.000,3748.7980,N,12217.8519,W,1,05,2.5,-18.4,M,-25.1,M,,0000*7F
$GPGSA,A,3,19,03,22,18,06,,,,,,,,5.4,2.5,4.8*3C
$GPRMC,221137.000,A,3748.7980,N,12217.8519,W,1.71,142.26,171212,,,A*76
$GPVTG,142.26,T,,M,1.71,N,3.2,K,A*08
$GPGGA,221138.000,3748.7979,N,12217.8513,W,1,05,2.5,-16.8,M,-25.1,M,,0000*7E
$GPGSA,A,3,19,03,22,18,06,,,,,,,,5.4,2.5,4.8*3C
$GPGSV,3,1,12,22,71,325,25,14,55,179,,18,51,050,25,06,49,244,23*70
$GPGSV,3,2,12,03,42,269,33,21,39,114,,19,36,303,35,24,17,069,*7A
$GPGSV,3,3,12,27,13,053,,09,13,055,20,15,04,040,31,16,00,240,*75
$GPRMC,221138.000,A,3748.7979,N,12217.8513,W,2.08,137.03,171212,,,A*7D
$GPVTG,137.03,T,,M,2.08,N,3.8,K,A*0A
$GPGGA,221139.000,3748.7973,N,12217.8508,W,1,05,2.5,-15.4,M,-25.1,M,,0000*70
$GPGSA,A,3,19,03,22,18,06,,,,,,,,5.4,2.5,4.8*3C
$GPRMC,221139.000,A,3748.7973,N,12217.8508,W,1.82,132.24,171212,,,A*7D
$GPVTG,132.24,T,,M,1.82,N,3.4,K,A*07
$GPGGA,221140.000,3748.7972,N,12217.8501,W,1,05,2.5,-14.9,M,-25.1,M,,0000*7A
$GPGSA,A,3,19,03,22,18,06,,,,,,,,5.4,2.5,4.8*3C
$GPRMC,221140.000,A,3748.7972,N,12217.8501,W,1.34,119.70,171212,,,A*7E
$GPVTG,119.70,T,,M,1.34,N,2.5,K,A*02
$GPGGA,221141.000,3748.7966,N,12217.8497,W,1,05,2.5,-14.9,M,-25.1,M,,0000*70
$GPGSA,A,3,19,03,22,18,06,,,,,,,,5.4,2.5,4.8*3C
$GPRMC,221141.000,A,3748.7966,N,12217.8497,W,2.44,133.48,171212,,,A*73
$GPVTG,133.48,T,,M,2.44,N,4.5,K,A*03
$GPGGA,221142.000,3748.7956,N,12217.8483,W,1,05,2.5,-15.3,M,-25.1,M,,0000*7E
$GPGSA,A,3,19,03,22,18,06,,,,,,,,5.4,2.5,4.8*3C
$GPRMC,221142.000,A,3748.7956,N,12217.8483,W,2.86,129.86,171212,,,A*71
$GPVTG,129.86,T,,M,2.86,N,5.3,K,A*03
$GPGGA,221143.000,3748.7943,N,12217.8474,W,1,05,2.5,-14.1,M,-25.1,M,,0000*70
$GPGSA,A,3,19,03,22,18,06,,,,,,,,5.4,2.5,4.8*3C
$GPGSV,3,1,12,22,71,325,30,14,55,179,36,18,51,050,33,06,49,244,34*70
$GPGSV,3,2,12,03,42,269,34,21,39,114,35,19,36,303,24,24,17,069,*7B
$GPGSV,3,3,12,27,13,053,,09,13,055,20,15,04,040,19,16,00,240,*7F
$GPVTG,134.99,T,,M,2.38,N,4.4,K,A*02
$GPGGA,221144.000,3748.7933,N,12217.8465,W,1,05,2.5,-13.5,M,-25.1,M,,0000*73
$GPGSA,A,3,19,03,22,18,06,,,,,,,,5.4,2.5,4.8*3C
$GPRMC,221144.000,A,3748.7933,N,12217.8465,W,2.21,138.01,171212,,,A*7E
$GPVTG,138.01,T,,M,2.21,N,4.1,K,A*02
$GPGGA,221145.000,3748.7918,N,12217.8457,W,1,05,2.5,-13.7,M,-25.1,M,,0000*78
$GPGSA,A,3,19,03,22,18,06,,,,,,,,5.4,2.5,4.8*3C
$GPRMC,221145.000,A,3748.7918,N,12217.8457,W,2.78,131.33,171212,,,A*73
$GPVTG,131.33,T,,M,2.78,N,5.1,K,A*07
$GPGGA,221146.000,3748.7921,N,12217.8453,W,1,05,2.5,-10.1,M,-25.1,M,,0000*70
$GPGSA,A,3,19,03,22,18,06,,,,,,,,5.4,2.5,4.8*3C
$GPRMC,221146.000,A,3748.7921,N,12217.8453,W,1.04,128.81,171212,,,A*77
$GPVTG,128.81,T,,M,1.04,N,1.9,K,A*02
$GPGGA,221147.000,3748.7929,N,12217.8456,W,1,05,2.5,-8.4,M,-25.1,M,,0000*40
$GPGSA,A,3,19,03,22,18,06,,,,,,,,5.4,2.5,4.8*3C
$GPRMC,221147.000,A,3748.7929,N,12217.8456,W,1.20,0.92,171212,,,A*74
$GPVTG,0.92,T,,M,1.20,N,2.2,K,A*05
$GPGGA,221148.000,3748.7916,N,12217.8449,W,1,05,2.5,-7.5,M,-25.1,M,,0000*43
$GPGSA,A,3,19,03,22,18,06,,,,,,,,5.4,2.5,4.8*3C
$GPGSV,3,1,12,22,71,325,22,14,55,179,30,18,51,050,26,06,49,244,25*71
$GPGSV,3,2,12,03,42,269,25,21,39,114,25,19,36,303,21,24,17,069,*7F
$GPGSV,3,3,12,27,13,053,,09,13,055,,15,04,040,19,16,00,240,*7D
$GPRMC,221148.000,A,3748.7916,N,12217.8449,W,0.17,163.20,171212,,,A*71
$GPVTG,163.20,T,,M,0.17,N,0.3,K,A*0E
$GPGGA,221149.000,3748.7903,N,12217.8442,W,1,05,2.5,-3.8,M,-25.1,M,,0000*44
$GPGSA,A,3,19,03,22,18,06,,,,,,,,5.4,2.5,4.8*3C
$GPRMC,221149.000,A,3748.7903,N,12217.8442,W,1.99,161.88,171212,,,A*78
$GPVTG,161.88,T,,M,1.99,N,3.7,K,A*0E
$GPGGA,221150.000,3748.7882,N,12217.8419,W,1,05,2.5,-2.1,M,-25.1,M,,0000*42
$GPGSA,A,3,19,03,22,18,06,,,,,,,,5.4,2.5,4.8*3C
$GPRMC,221150.000,A,3748.7882,N,12217.8419,W,4.14,142.67,171212,,,A*76
$GPVTG,142.67,T,,M,4.14,N,7.7,K,A*0A
$GPGGA,221151.000,3748.7875,N,12217.8407,W,1,05,2.5,-0.1,M,-25.1,M,,0000*46
$GPGSA,A,3,19,03,22,18,06,,,,,,,,5.4,2.5,4.7*33
$GPRMC,221151.000,A,3748.7875,N,12217.8407,W,3.30,134.58,171212,,,A*7C
$GPVTG,134.58,T,,M,3.30,N,6.1,K,A*01
$GPGGA,221152.000,3748.7858,N,12217.8394,W,1,05,2.5,0.5,M,-25.1,M,,0000*6E
$GPGSA,A,3,19,03,22,18,06,,,,,,,,5.4,2.5,4.7*33
$GPRMC,221152.000,A,3748.7858,N,12217.8394,W,4.17,145.60,171212,,,A*72
$GPVTG,145.60,T,,M,4.17,N,7.7,K,A*09
$GPGGA,221153.000,3748.7853,N,12217.8384,W,1,05,2.5,1.9,M,-25.1,M,,0000*68
$GPGSA,A,3,19,03,22,18,06,,,,,,,,5.4,2.5,4.7*33
$GPGSV,3,1,12,22,71,325,23,14,55,179,30,18,51,050,32,06,49,244,29*79
$GPGSV,3,2,12,03,42,269,24,21,39,114,36,19,36,303,19,24,17,069,*77
$GPGSV,3,3,12,27,13,053,,09,13,055,26,15,04,040,30,16,00,240,*72
$GPRMC,221153.000,A,3748.7853,N,12217.8384,W,2.37,137.04,171212,,,A*7A
$GPVTG,137.04,T,,M,2.37,N,4.4,K,A*0A
$GPGGA,221154.000,3748.7841,N,12217.8369,W,1,05,2.5,5.6,M,-25.1,M,,0000*64
$GPGSA,A,3,19,03,22,18,06,,,,,,,,5.3,2.5,4.7*34
$GPRMC,221154.000,A,3748.7841,N,12217.8369,W,2.08,131.55,171212,,,A*73
$GPVTG,131.55,T,,M,2.08,N,3.8,K,A*0F
$GPGGA,221155.000,3748.7845,N,12217.8368,W,1,05,2.5,4.2,M,-25.1,M,,0000*65
$GPGSA,A,3,19,03,22,18,06,,,,,,,,5.3,2.5,4.7*34
$GPRMC,221155.000,A,3748.7845,N,12217.8368,W,1.14,139.01,171212,,,A*70
$GPVTG,139.01,T,,M,1.14,N,2.1,K,A*00
$GPGGA,221156.000,3748.7850,N,12217.8374,W,2,05,2.5,6.4,M,-25.1,M,1.8,0000*4F
$GPGSA,A,3,19,03,22,18,06,,,,,,,,5.3,2.5,4.7*34
$GPRMC,221156.000,A,3748.7850,N,12217.8374,W,0.95,133.83,171212,,,D*77
$GPVTG,133.83,T,,M,0.95,N,1.8,K,D*07
$GPGGA,221157.000,3748.7856,N,12217.8382,W,2,05,2.5,9.6,M,-25.1,M,2.8,0000*4F
$GPGSA,A,3,19,03,22,18,06,,,,,,,,5.3,2.5,4.7*34
$GPRMC,221157.000,A,3748.7856,N,12217.8382,W,0.61,101.66,171212,,,D*78
$GPVTG,101.66,T,,M,0.61,N,1.1,K,D*0F
$GPGGA,221158.000,3748.7854,N,12217.8381,W,2,05,2.5,8.0,M,-25.1,M,3.8,0000*47
$GPGSA,A,3,19,03,22,18,06,,,,,,,,5.3,2.5,4.7*34
$GPGSV,3,1,12,22,71,325,22,14,55,179,32,18,51,050,21,06,49,244,30*70
$GPGSV,3,2,12,03,42,269,27,21,39,114,31,19,36,303,23,24,17,069,*7A
$GPGSV,3,3,12,27,13,053,,09,13,055,20,15,04,040,22,16,00,240,*77
$GPVTG,28.00,T,,M,0.95,N,1.8,K,D*37
$GPGGA,221159.000,3748.7854,N,12217.8375,W,2,05,2.5,9.1,M,-25.1,M,4.8,0000*4A
$GPGSA,A,3,19,03,22,18,06,,,,,,,,5.3,2.5,4.7*34
$GPRMC,221159.000,A,3748.7854,N,12217.8375,W,1.05,34.48,171212,,,D*44
$GPVTG,34.48,T,,M,1.05,N,2.0,K,D*35
$GPGGA,221200.000,3748.7858,N,12217.8369,W,2,05,2.5,10.7,M,-25.1,M,5.8,0000*7B
$GPGSA,A,3,19,03,22,18,06,,,,,,,,5.3,2.5,4.7*34
$GPRMC,221200.000,A,3748.7858,N,12217.8369,W,1.36,5.32,171212,,,D*75
$GPVTG,5.32,T,,M,1.36,N,2.5,K,D*0F
$GPGGA,221201.000,3748.7870,N,12217.8372,W,2,05,2.5,14.7,M,-25.1,M,6.8,0000*7D
$GPGSA,A,3,19,03,22,18,06,,,,,,,,5.3,2.5,4.7*34
$GPRMC,221201.000,A,3748.7870,N,12217.8372,W,2.29,342.15,171212,,,D*7C
$GPVTG,342.15,T,,M,2.29,N,4.2,K,D*06
$GPGGA,221202.000,3748.7889,N,12217.8375,W,2,05,2.5,17.2,M,-25.1,M,7.8,0000*78
$GPGSA,A,3,19,03,22,18,06,,,,,,,,5.3,2.5,4.7*34
$GPRMC,221202.000,A,3748.7889,N,12217.8375,W,1.91,344.67,171212,,,D*7D
$GPVTG,344.67,T,,M,1.91,N,3.5,K,D*05
$GPGGA,221203.000,3748.7883,N,12217.8372,W,2,05,2.5,18.1,M,-25.1,M,8.8,0000*77
$GPGSA,A,3,19,03,22,18,06,,,,,,,,5.3,2.5,4.7*34
$GPGSV,3,1,12,22,71,325,22,14,55,179,29,18,51,050,27,06,49,244,31*7D
$GPGSV,3,2,12,03,42,269,27,21,39,114,30,19,36,303,18,24,17,069,*73
$GPGSV,3,3,12,27,13,053,,09,13,055,20,15,04,040,21,16,00,240,*74
$GPRMC,221203.000,A,3748.7883,N,12217.8372,W,0.62,56.14,171212,,,D*48
$GPVTG,56.14,T,,M,0.62,N,1.2,K,D*39
$GPGGA,221204.000,3748.7872,N,12217.8372,W,2,06,1.6,20.0,M,-25.1,M,,0000*59
$GPGSA,A,3,19,03,22,18,06,14,,,,,,,4.9,1.6,4.6*3B
$GPRMC,221204.000,A,3748.7872,N,12217.8372,W,1.34,136.01,171212,,,D*70
$GPVTG,136.01,T,,M,1.34,N,2.5,K,D*0C
$GPGGA,221205.000,3748.7863,N,12217.8368,W,2,06,1.6,19.8,M,-25.1,M,10.8,0000*46
$GPGSA,A,3,19,03,22,18,06,14,,,,,,,4.9,1.6,4.6*3B
$GPRMC,221205.000,A,3748.7863,N,12217.8368,W,1.51,133.75,171212,,,D*7F
$GPVTG,133.75,T,,M,1.51,N,2.8,K,D*04
$GPGGA,221206.000,3748.7858,N,12217.8361,W,2,06,1.6,20.0,M,-25.1,M,11.8,0000*47
$GPGSA,A,3,19,03,22,18,06,14,,,,,,,4.9,1.6,4.6*3B
$GPRMC,221206.000,A,3748.7858,N,12217.8361,W,1.67,126.60,171212,,,D*78
$GPVTG,126.60,T,,M,1.67,N,3.1,K,D*09
$GPGGA,221207.000,3748.7852,N,12217.8348,W,2,06,1.6,19.9,M,-25.1,M,,0000*52
$GPGSA,A,3,19,03,22,18,06,14,,,,,,,4.9,1.6,4.6*3B
$GPRMC,221207.000,A,3748.7852,N,12217.8348,W,1.98,118.11,171212,,,D*73
$GPVTG,118.11,T,,M,1.98,N,3.7,K,D*04
$GPGGA,221208.000,3748.7846,N,12217.8341,W,2,06,1.6,17.3,M,-25.1,M,1.8,0000*72
$GPGSA,A,3,19,03,22,18,06,14,,,,,,,4.9,1.6,4.6*3B
$GPGSV,3,1,12,22,71,327,22,14,56,179,31,18,50,050,22,06,49,243,31*76
$GPGSV,3,2,12,03,42,268,27,21,39,114,29,19,36,302,23,24,17,069,*73
$GPGSV,3,3,12,27,13,053,,09,13,055,20,15,03,040,20,11,00,310,*71
$GPRMC,221208.000,A,3748.7846,N,12217.8341,W,1.86,125.64,171212,,,D*73
$GPVTG,125.64,T,,M,1.86,N,3.5,K,D*05
$GPGGA,221209.000,3748.7839,N,12217.8325,W,2,06,1.6,15.6,M,-25.1,M,,0000*59
$GPGSA,A,3,19,03,22,18,06,14,,,,,,,4.9,1.6,4.6*3B
$GPRMC,221209.000,A,3748.7839,N,12217.8325,W,1.79,106.56,171212,,,D*78
$GPVTG,106.56,T,,M,1.79,N,3.3,K,D*03
$GPGGA,221210.000,3748.7833,N,12217.8318,W,2,06,1.6,14.0,M,-25.1,M,2.8,0000*76
$GPGSA,A,3,19,03,22,18,06,14,,,,,,,4.9,1.6,4.6*3B
$GPRMC,221210.000,A,3748.7833,N,12217.8318,W,1.79,113.35,171212,,,D*75
$GPVTG,113.35,T,,M,1.79,N,3.3,K,D*02
$GPGGA,221211.000,3748.7833,N,12217.8317,W,2,06,1.6,17.9,M,-25.1,M,3.8,0000*73
$GPGSA,A,3,19,03,22,18,06,14,,,,,,,4.9,1.6,4.6*3B
$GPRMC,221211.000,A,3748.7833,N,12217.8317,W,1.47,105.24,171212,,,D*71
$GPVTG,105.24,T,,M,1.47,N,2.7,K,D*0D
$GPGGA,221212.000,3748.7832,N,12217.8316,W,2,06,1.6,20.8,M,-25.1,M,4.8,0000*72
$GPGSA,A,3,19,03,22,18,06,14,,,,,,,4.9,1.6,4.6*3B
$GPRMC,221212.000,A,3748.7832,N,12217.8316,W,1.22,124.09,171212,,,D*7D
$GPVTG,124.09,T,,M,1.22,N,2.3,K,D*06
$GPGGA,221213.000,3748.7829,N,12217.8308,W,2,06,1.6,20.1,M,-25.1,M,5.8,0000*7E
$GPGSA,A,3,19,03,22,18,06,14,,,,,,,4.9,1.6,4.6*3B
$GPGSV,3,1,12,22,71,327,21,14,56,179,31,18,50,050,23,06,49,243,31*74
$GPGSV,3,2,12,03,42,268,27,21,39,114,21,19,36,302,22,24,17,069,*7A
$GPGSV,3,3,12,27,13,053,,09,13,055,19,15,03,040,19,11,00,310,*71
$GPVTG,90.72,T,,M,2.16,N,4.0,K,D*35
$GPGGA,221214.000,3748.7826,N,12217.8297,W,2,06,1.6,19.7,M,-25.1,M,6.8,0000*7E
$GPGSA,A,3,19,03,22,18,06,14,,,,,,,4.9,1.6,4.6*3B
$GPRMC,221214.000,A,3748.7826,N,12217.8297,W,1.96,87.55,171212,,,D*48
$GPVTG,87.55,T,,M,1.96,N,3.6,K,D*3C
$GPGGA,221215.000,3748.7823,N,12217.8283,W,2,06,1.6,19.1,M,-25.1,M,7.8,0000*78
$GPGSA,A,3,19,03,22,18,06,14,,,,,,,4.9,1.6,4.6*3B
$GPRMC,221215.000,A,3748.7823,N,12217.8283,W,2.68,110.01,171212,,,D*75
$GPVTG,110.01,T,,M,2.68,N,5.0,K,D*00
$GPGGA,221216.000,3748.7819,N,12217.8274,W,2,06,1.6,19.5,M,-25.1,M,8.8,0000*71
$GPGSA,A,3,19,03,22,18,06,14,,,,,,,4.9,1.6,4.6*3B
$GPRMC,221216.000,A,3748.7819,N,12217.8274,W,2.15,122.93,171212,,,D*77
$GPVTG,122.93,T,,M,2.15,N,4.0,K,D*01
$GPGGA,221217.000,3748.7813,N,12217.8269,W,2,06,1.6,18.8,M,-25.1,M,9.8,0000*7B
$GPGSA,A,3,19,03,22,18,06,14,,,,,,,4.9,1.6,4.6*3B
$GPRMC,221217.000,A,3748.7813,N,12217.8269,W,2.76,146.14,171212,,,D*78
$GPVTG,146.14,T,,M,2.76,N,5.1,K,D*09
$GPGGA,221218.000,3748.7803,N,12217.8269,W,2,06,1.6,19.5,M,-25.1,M,10.8,0000*41
$GPGSA,A,3,19,03,22,18,06,14,,,,,,,4.9,1.6,4.6*3B
$GPGSV,3,1,12,22,71,327,21,14,56,179,28,18,50,050,23,06,49,243,24*78
$GPGSV,3,2,12,03,42,268,23,21,39,114,29,19,36,302,23,24,17,069,*77
$GPGSV,3,3,12,27,13,053,,09,13,055,19,15,03,040,19,11,00,310,*71
$GPRMC,221218.000,A,3748.7803,N,12217.8269,W,2.56,144.58,171212,,,D*7E
$GPVTG,144.58,T,,M,2.56,N,4.7,K,D*06
$GPGGA,221219.000,3748.7794,N,12217.8257,W,2,06,1.6,19.3,M,-25.1,M,11.8,0000*4B
$GPGSA,A,3,19,03,22,18,06,14,,,,,,,4.9,1.6,4.6*3B
$GPRMC,221219.000,A,3748.7794,N,12217.8257,W,2.70,126.53,171212,,,D*78
$GPVTG,126.53,T,,M,2.70,N,5.0,K,D*0B
$GPGGA,221220.000,3748.7791,N,12217.8246,W,2,06,1.6,15.3,M,-25.1,M,,0000*5E
$GPGSA,A,3,19,03,22,18,06,14,,,,,,,4.9,1.6,4.6*3B
$GPRMC,221220.000,A,3748.7791,N,12217.8246,W,2.60,106.70,171212,,,D*75
$GPVTG,106.70,T,,M,2.60,N,4.8,K,D*00
$GPGGA,221221.000,3748.7785,N,12217.8236,W,2,06,1.6,14.1,M,-25.1,M,,0000*5E
$GPGSA,A,3,19,03,22,18,06,14,,,,,,,4.9,1.6,4.6*3B
$GPRMC,221221.000,A,3748.7785,N,12217.8236,W,2.87,110.56,171212,,,D*7C
$GPVTG,110.56,T,,M,2.87,N,5.3,K,D*00
$GPGGA,221222.000,3748.7780,N,12217.8234,W,2,06,1.6,13.2,M,-25.1,M,2.8,0000*7A
$GPGSA,A,3,19,03,22,18,06,14,,,,,,,4.9,1.6,4.6*3B
$GPRMC,221222.000,A,3748.7780,N,12217.8234,W,2.45,120.35,171212,,,D*70
$GPVTG,120.35,T,,M,2.45,N,4.5,K,D*0F
$GPGGA,221223.000,3748.7774,N,12217.8229,W,2,06,1.6,12.1,M,-25.1,M,3.8,0000*7F
$GPGSA,A,3,19,03,22,18,06,14,,,,,,,4.9,1.6,4.6*3B
$GPGSV,3,1,12,22,71,327,21,14,56,179,30,18,50,050,23,06,49,243,31*75
$GPGSV,3,2,12,03,42,268,27,21,39,114,29,19,36,302,22,24,17,069,*72
$GPGSV,3,3,12,27,13,053,,09,13,055,19,15,03,040,18,11,00,310,*70
$GPRMC,221223.000,A,3748.7774,N,12217.8229,W,2.50,112.94,171212,,,D*78
$GPVTG,112.94,T,,M,2.50,N,4.6,K,D*02
$GPGGA,221224.000,3748.7770,N,12217.8219,W,2,06,1.6,8.6,M,-25.1,M,4.8,0000*44
$GPGSA,A,3,19,03,22,18,06,14,,,,,,,4.9,1.6,4.6*3B
$GPRMC,221224.000,A,3748.7770,N,12217.8219,W,2.54,107.33,171212,,,D*75
$GPVTG,107.33,T,,M,2.54,N,4.7,K,D*0E
$GPGGA,221225.000,3748.7765,N,12217.8207,W,2,06,1.6,6.3,M,-25.1,M,,0000*67
$GPGSA,A,3,19,03,22,18,06,14,,,,,,,4.9,1.6,4.6*3B
$GPRMC,221225.000,A,3748.7765,N,12217.8207,W,2.25,123.34,171212,,,D*78
$GPVTG,123.34,T,,M,2.25,N,4.2,K,D*0C
$GPGGA,221226.000,3748.7763,N,12217.8212,W,2,06,1.6,9.6,M,-25.1,M,2.8,0000*48
$GPGSA,A,3,19,03,22,18,06,14,,,,,,,4.9,1.6,4.6*3B
$GPRMC,221226.000,A,3748.7763,N,12217.8212,W,1.71,143.40,171212,,,D*7E
$GPVTG,143.40,T,,M,1.71,N,3.2,K,D*0C
$GPGGA,221227.000,3748.7760,N,12217.8211,W,2,06,1.6,12.0,M,-25.1,M,,0000*51
$GPGSA,A,3,19,03,22,18,06,14,,,,,,,4.9,1.6,4.6*3B
$GPRMC,221227.000,A,3748.7760,N,12217.8211,W,1.64,126.26,171212,,,D*78
$GPVTG,126.26,T,,M,1.64,N,3.0,K,D*09
$GPGGA,221228.000,3748.7755,N,12217.8210,W,2,06,1.6,12.5,M,-25.1,M,,0000*5C
$GPGSA,A,3,19,03,22,18,06,14,,,,,,,4.9,1.6,4.6*3B
$GPGSV,3,1,12,22,71,327,21,14,56,179,31,18,50,050,22,06,49,243,30*74
$GPGSV,3,2,12,03,42,268,27,21,39,114,29,19,36,302,23,24,17,069,*73
$GPGSV,3,3,12,27,13,053,,09,13,055,20,15,03,040,16,11,00,310,*74
$GPRMC,221228.000,A,3748.7755,N,12217.8210,W,1.77,115.65,171212,,,D*75
$GPVTG,115.65,T,,M,1.77,N,3.3,K,D*0F
$GPGGA,221229.000,3748.7750,N,12217.8204,W,2,06,1.6,11.4,M,-25.1,M,2.8,0000*7B
$GPGSA,A,3,19,03,22,18,06,14,,,,,,,4.9,1.6,4.6*3B
$GPRMC,221229.000,A,3748.7750,N,12217.8204,W,2.50,105.42,171212,,,D*76
$GPVTG,105.42,T,,M,2.50,N,4.6,K,D*0F
$GPGGA,221230.000,3748.7746,N,12217.8189,W,2,06,1.6,10.4,M,-25.1,M,3.8,0000*72
$GPGSA,A,3,19,03,22,18,06,14,,,,,,,4.9,1.6,4.6*3B
$GPRMC,221230.000,A,3748.7746,N,12217.8189,W,2.19,104.10,171212,,,D*74
$GPVTG,104.10,T,,M,2.19,N,4.1,K,D*03
$GPGGA,221231.000,3748.7740,N,12217.8179,W,2,06,1.6,7.5,M,-25.1,M,4.8,0000*4A
$GPGSA,A,3,19,03,22,18,06,14,,,,,,,4.9,1.6,4.6*3B
$GPRMC,221231.000,A,3748.7740,N,12217.8179,W,2.59,110.85,171212,,,D*71
$GPVTG,110.85,T,,M,2.59,N,4.8,K,D*07
$GPGGA,221232.000,3748.7735,N,12217.8166,W,2,06,1.6,4.2,M,-25.1,M,,0000*63
$GPGSA,A,3,19,03,22,18,06,14,,,,,,,4.9,1.6,4.6*3B
$GPRMC,221232.000,A,3748.7735,N,12217.8166,W,2.02,113.97,171212,,,D*70
$GPVTG,113.97,T,,M,2.02,N,3.7,K,D*01
$GPGGA,221233.000,3748.7730,N,12217.8155,W,2,06,1.6,0.8,M,-25.1,M,2.8,0000*4D
$GPGSA,A,3,19,03,22,18,06,14,,,,,,,4.9,1.6,4.6*3B
$GPGSV,3,1,12,22,71,327,22,14,56,179,32,18,50,050,26,06,49,243,30*70
$GPGSV,3,2,12,03,42,268,28,21,39,114,28,19,36,302,22,24,17,069,*7C
$GPGSV,3,3,12,27,13,053,,09,13,055,27,15,03,040,15,11,00,310,*70
$GPRMC,221233.000,A,3748.7730,N,12217.8155,W,2.60,112.71,171212,,,D*79
$GPGGA,221234.000,3748.7727,N,12217.8148,W,2,06,1.6,2.3,M,-25.1,M,3.8,0000*48
$GPGSA,A,3,19,03,22,18,06,14,,,,,,,4.9,1.6,4.6*3B
$GPRMC,221234.000,A,3748.7727,N,12217.8148,W,2.30,115.44,171212,,,D*70
$GPVTG,115.44,T,,M,2.30,N,4.3,K,D*0B
$GPGGA,221235.000,3748.7727,N,12217.8140,W,2,06,1.6,0.5,M,-25.1,M,4.8,0000*42
$GPGSA,A,3,19,03,22,18,06,14,,,,,,,4.9,1.6,4.6*3B
$GPRMC,221235.000,A,3748.7727,N,12217.8140,W,2.79,104.11,171212,,,D*74
$GPVTG,104.11,T,,M,2.79,N,5.2,K,D*06
$GPGGA,221236.000,3748.7724,N,12217.8128,W,2,06,1.6,-0.6,M,-25.1,M,,0000*40
$GPGSA,A,3,19,03,22,18,06,14,,,,,,,4.9,1.6,4.6*3B
$GPRMC,221236.000,A,3748.7724,N,12217.8128,W,2.40,108.61,171212,,,D*7B
$GPVTG,108.61,T,,M,2.40,N,4.4,K,D*00
$GPGGA,221237.000,3748.7726,N,12217.8120,W,2,06,1.6,-1.1,M,-25.1,M,2.8,0000*69
$GPGSA,A,3,19,03,22,18,06,14,,,,,,,4.9,1.6,4.6*3B
$GPRMC,221237.000,A,3748.7726,N,12217.8120,W,2.14,101.72,171212,,,D*7A
$GPVTG,101.72,T,,M,2.14,N,4.0,K,D*0E
$GPGGA,221238.000,3748.7728,N,12217.8108,W,2,06,1.6,-2.0,M,-25.1,M,3.8,0000*61
$GPGSA,A,3,19,03,22,18,06,14,,,,,,,4.9,1.6,4.6*3B
$GPGSV,3,1,12,22,71,327,22,14,56,179,32,18,50,050,26,06,49,243,30*70
$GPGSV,3,2,12,03,42,268,29,21,39,114,28,19,36,302,22,24,17,069,*7D
$GPGSV,3,3,12,27,13,053,,09,13,055,19,15,03,040,19,11,00,310,*71
$GPRMC,221238.000,A,3748.7728,N,12217.8108,W,2.27,102.05,171212,,,D*72
$GPVTG,102.05,T,,M,2.27,N,4.2,K,D*0F
$GPGGA,221239.000,3748.7728,N,12217.8099,W,2,06,1.6,0.4,M,-25.1,M,,0000*67
$GPGSA,A,3,19,03,22,18,06,14,,,,,,,4.9,1.6,4.6*3B
$GPRMC,221239.000,A,3748.7728,N,12217.8099,W,2.42,108.24,171212,,,D*70
$GPVTG,108.24,T,,M,2.42,N,4.5,K,D*02
$GPGGA,221240.000,3748.7726,N,12217.8095,W,2,06,1.6,0.4,M,-25.1,M,1.8,0000*4C
$GPGSA,A,3,19,03,22,18,06,14,,,,,,,4.9,1.6,4.6*3B
$GPRMC,221240.000,A,3748.7726,N,12217.8095,W,2.06,103.22,171212,,,D*71
$GPVTG,103.22,T,,M,2.06,N,3.8,K,D*05
$GPGGA,221241.000,3748.7718,N,12217.8087,W,2,06,1.6,0.1,M,-25.1,M,2.8,0000*45
$GPGSA,A,3,19,03,22,18,06,14,,,,,,,4.9,1.6,4.6*3B
$GPRMC,221241.000,A,3748.7718,N,12217.8087,W,2.47,110.14,171212,,,D*7C
$GPVTG,110.14,T,,M,2.47,N,4.6,K,D*0E
$GPGGA,221242.000,3748.7709,N,12217.8082,W,2,06,1.6,1.1,M,-25.1,M,3.8,0000*43
$GPGSA,A,3,19,03,22,18,06,14,,,,,,,4.9,1.6,4.6*3B
$GPRMC,221242.000,A,3748.7709,N,12217.8082,W,2.80,115.91,171212,,,D*79
$GPVTG,115.91,T,,M,2.80,N,5.2,K,D*08
$GPGGA,221243.000,3748.7701,N,12217.8075,W,2,06,1.6,-1.2,M,-25.1,M,4.8,0000*6B
$GPGSA,A,3,19,03,22,18,06,14,,,,,,,4.9,1.6,4.6*3B
$GPGSV,3,1,12,22,71,327,22,14,56,179,32,18,50,050,25,06,49,243,30*73
$GPGSV,3,2,12,03,42,268,28,21,39,114,28,19,36,302,22,24,17,069,*7C
$GPGSV,3,3,12,27,13,053,,09,13,055,19,15,03,040,17,11,00,310,*7F
$GPRMC,221243.000,A,3748.7701,N,12217.8075,W,3.11,124.65,171212,,,D*78
$GPVTG,124.65,T,,M,3.11,N,5.8,K,D*02
$GPGGA,221244.000,3748.7689,N,12217.8074,W,2,06,1.6,-3.0,M,-25.1,M,,0000*4E
$GPGSA,A,3,19,03,22,18,06,14,,,,,,,4.9,1.6,4.6*3B
$GPRMC,221244.000,A,3748.7689,N,12217.8074,W,2.98,127.95,171212,,,D*73
$GPVTG,127.95,T,,M,2.98,N,5.5,K,D*03
$GPGGA,221245.000,3748.7681,N,12217.8068,W,2,06,1.6,-3.2,M,-25.1,M,,0000*48
$GPGSA,A,3,19,03,22,18,06,14,,,,,,,4.9,1.6,4.6*3B
$GPRMC,221245.000,A,3748.7681,N,12217.8068,W,2.62,121.19,171212,,,D*70
$GPVTG,121.19,T,,M,2.62,N,4.9,K,D*09
$GPGGA,221246.000,3748.7673,N,12217.8067,W,2,06,1.6,-0.7,M,-25.1,M,2.8,0000*6B
$GPGSA,A,3,19,03,22,18,06,14,,,,,,,4.9,1.6,4.6*3B
$GPRMC,221246.000,A,3748.7673,N,12217.8067,W,2.42,113.04,171212,,,D*7E
$GPVTG,113.04,T,,M,2.42,N,4.5,K,D*0A
$GPGGA,221247.000,3748.7667,N,12217.8059,W,2,06,1.6,-0.5,M,-25.1,M,3.8,0000*61
$GPGSA,A,3,19,03,22,18,06,14,,,,,,,4.9,1.6,4.6*3B
$GPRMC,221247.000,A,3748.7667,N,12217.8059,W,2.44,104.69,171212,,,D*7C
$GPVTG,104.69,T,,M,2.44,N,4.5,K,D*01
$GPGGA,221248.000,3748.7663,N,12217.8050,W,2,06,1.6,-2.0,M,-25.1,M,4.8,0000*63
$GPGSA,A,3,19,03,22,18,06,14,,,,,,,4.9,1.6,4.6*3B
$GPGSV,3,1,12,22,71,328,22,14,56,179,32,18,50,051,24,06,48,243,30*7D
$GPGSV,3,2,12,03,42,268,29,21,38,115,28,19,37,302,22,24,17,069,*7C
$GPGSV,3,3,12,27,13,053,,09,13,055,19,15,03,040,16,11,00,310,*7E
$GPVTG,101.58,T,,M,3.09,N,5.7,K,D*0D
$GPGGA,221249.000,3748.7660,N,12217.8035,W,2,06,1.6,-2.0,M,-25.1,M,,0000*40
$GPGSA,A,3,19,03,22,18,06,14,,,,,,,4.9,1.6,4.6*3B
$GPRMC,221249.000,A,3748.7660,N,12217.8035,W,2.81,106.22,171212,,,D*7B
$GPVTG,106.22,T,,M,2.81,N,5.2,K,D*03
$GPGGA,221250.000,3748.7658,N,12217.8024,W,2,06,1.6,-4.5,M,-25.1,M,2.8,0000*64
$GPGSA,A,3,19,03,22,18,06,14,,,,,,,4.9,1.6,4.6*3B
$GPRMC,221250.000,A,3748.7658,N,12217.8024,W,2.76,106.13,171212,,,D*72
$GPVTG,106.13,T,,M,2.76,N,5.1,K,D*0A
$GPGGA,221251.000,3748.7656,N,12217.8009,W,2,06,1.6,-7.6,M,-25.1,M,,0000*40
$GPGSA,A,3,19,03,22,18,06,14,,,,,,,4.9,1.6,4.6*3B
$GPRMC,221251.000,A,3748.7656,N,12217.8009,W,2.58,106.62,171212,,,D*78
$GPVTG,106.62,T,,M,2.58,N,4.8,K,D*08
$GPGGA,221252.000,3748.7654,N,12217.7995,W,2,06,1.6,-12.0,M,-25.1,M,2.8,0000*54
$GPGSA,A,3,19,03,22,18,06,14,,,,,,,4.9,1.6,4.6*3B
$GPRMC,221252.000,A,3748.7654,N,12217.7995,W,2.77,117.22,171212,,,D*73
$GPVTG,117.22,T,,M,2.77,N,5.1,K,D*09
$GPGGA,221253.000,3748.7653,N,12217.7980,W,2,06,1.6,-13.8,M,-25.1,M,3.8,0000*5E
$GPGSA,A,3,19,03,22,18,06,14,,,,,,,4.9,1.6,4.6*3B
$GPGSV,3,1,12,22,71,328,22,14,56,179,32,18,50,051,25,06,48,243,30*7C
$GPGSV,3,2,12,03,42,268,29,21,38,115,28,19,37,302,22,24,17,069,*7C
$GPGSV,3,3,12,27,13,053,,09,13,055,22,15,03,040,16,11,00,310,*76
$GPRMC,221253.000,A,3748.7653,N,12217.7980,W,3.19,103.69,171212,,,D*72
$GPVTG,103.69,T,,M,3.19,N,5.9,K,D*02
$GPGGA,221254.000,3748.7653,N,12217.7968,W,2,06,1.6,-11.5,M,-25.1,M,4.8,0000*57
$GPGSA,A,3,19,03,22,18,06,14,,,,,,,4.9,1.6,4.6*3B
$GPRMC,221254.000,A,3748.7653,N,12217.7968,W,3.58,101.06,171212,,,D*7D
$GPVTG,101.06,T,,M,3.58,N,6.6,K,D*00
$GPGGA,221255.000,3748.7652,N,12217.7959,W,2,06,1.6,-10.3,M,-25.1,M,,0000*70
$GPGSA,A,3,19,03,22,18,06,14,,,,,,,4.9,1.6,4.6*3B
$GPRMC,221255.000,A,3748.7652,N,12217.7959,W,2.98,110.19,171212,,,D*7C
$GPVTG,110.19,T,,M,2.98,N,5.5,K,D*03
$GPGGA,221256.000,3748.7643,N,12217.7953,W,2,06,1.6,-8.1,M,-25.1,M,,0000*42
$GPGSA,A,3,19,03,22,18,06,14,,,,,,,4.9,1.6,4.6*3B
$GPRMC,221256.000,A,3748.7643,N,12217.7953,W,2.75,126.73,171212,,,D*7F
$GPVTG,126.73,T,,M,2.75,N,5.1,K,D*0D
$GPGGA,221257.000,3748.7635,N,12217.7950,W,2,06,1.6,-5.8,M,-25.1,M,,0000*45
$GPGSA,A,3,19,03,22,18,06,14,,,,,,,4.9,1.6,4.6*3B
$GPRMC,221257.000,A,3748.7635,N,12217.7950,W,2.43,120.51,171212,,,D*7F
$GPVTG,120.51,T,,M,2.43,N,4.5,K,D*0B
$GPGGA,221258.000,3748.7627,N,12217.7947,W,2,06,1.6,-4.6,M,-25.1,M,2.8,0000*64
$GPGSA,A,3,19,03,22,18,06,14,,,,,,,4.9,1.6,4.6*3B
$GPGSV,3,1,12,22,71,328,22,14,56,179,32,18,50,051,23,06,48,243,30*7A
$GPGSV,3,2,12,03,42,268,29,21,38,115,28,19,37,302,22,24,17,069,*7C
$GPGSV,3,3,12,27,13,053,,09,13,055,20,15,03,040,15,11,00,310,*77
$GPRMC,221258.000,A,3748.7627,N,12217.7947,W,2.59,107.54,171212,,,D*7E
$GPVTG,107.54,T,,M,2.59,N,4.8,K,D*0D
$GPGGA,221259.000,3748.7617,N,12217.7934,W,2,06,1.6,-5.8,M,-25.1,M,3.8,0000*6C
$GPGSA,A,3,19,03,22,18,06,14,,,,,,,4.9,1.6,4.6*3B
$GPRMC,221259.000,A,3748.7617,N,12217.7934,W,3.17,116.10,171212,,,D*73
$GPVTG,116.10,T,,M,3.17,N,5.9,K,D*06
$GPGGA,221300.000,3748.7613,N,12217.7923,W,2,06,1.6,-6.2,M,-25.1,M,4.8,0000*6D
$GPGSA,A,3,19,03,22,18,06,14,,,,,,,4.9,1.6,4.6*3B
$GPRMC,221300.000,A,3748.7613,N,12217.7923,W,2.66,110.65,171212,,,D*7F
$GPVTG,110.65,T,,M,2.66,N,4.9,K,D*04
$GPGGA,221301.000,3748.7616,N,12217.7913,W,2,06,1.6,-4.8,M,-25.1,M,,0000*40
$GPGSA,A,3,19,03,22,18,06,14,,,,,,,4.9,1.6,4.6*3B
$GPRMC,221301.000,A,3748.7616,N,12217.7913,W,2.29,108.68,171212,,,D*77
$GPVTG,108.68,T,,M,2.29,N,4.2,K,D*00
$GPGGA,221302.000,3748.7614,N,12217.7902,W,2,06,1.6,-3.9,M,-25.1,M,,0000*47
$GPGSA,A,3,19,03,22,18,06,14,,,,,,,4.9,1.6,4.6*3B
$GPRMC,221302.000,A,3748.7614,N,12217.7902,W,2.18,117.42,171212,,,D*72
$GPVTG,117.42,T,,M,2.18,N,4.0,K,D*06
$GPGGA,221303.000,3748.7612,N,12217.7890,W,2,06,1.6,-5.6,M,-25.1,M,,0000*43
$GPGSA,A,3,19,03,22,18,06,14,,,,,,,4.9,1.6,4.6*3B
$GPGSV,3,1,12,22,71,328,21,14,56,179,32,18,50,051,22,06,48,243,31*79
$GPGSV,3,2,12,03,42,268,30,21,38,115,28,19,37,302,22,24,17,069,*74
$GPGSV,3,3,12,27,13,053,,09,13,055,19,15,03,040,15,11,00,310,*7D
$GPVTG,104.27,T,,M,2.57,N,4.8,K,D*04
$GPGGA,221304.000,3748.7605,N,12217.7876,W,2,06,1.6,-8.5,M,-25.1,M,,0000*44
$GPGSA,A,3,19,03,22,18,06,14,,,,,,,4.9,1.6,4.6*3B
$GPRMC,221304.000,A,3748.7605,N,12217.7876,W,3.00,113.95,171212,,,D*70
$GPVTG,113.95,T,,M,3.00,N,5.6,K,D*07
$GPGGA,221305.000,3748.7597,N,12217.7867,W,2,06,1.6,-8.4,M,-25.1,M,2.8,0000*68
$GPGSA,A,3,19,03,22,18,06,14,,,,,,,4.9,1.6,4.6*3B
$GPRMC,221305.000,A,3748.7597,N,12217.7867,W,2.64,124.41,171212,,,D*77
$GPVTG,124.41,T,,M,2.64,N,4.9,K,D*07
$GPGGA,221306.000,3748.7586,N,12217.7861,W,2,06,1.6,-9.3,M,-25.1,M,3.8,0000*6A
$GPGSA,A,3,19,03,22,18,06,14,,,,,,,4.9,1.6,4.6*3B
$GPRMC,221306.000,A,3748.7586,N,12217.7861,W,3.10,120.68,171212,,,D*7F
$GPVTG,120.68,T,,M,3.10,N,5.7,K,D*05
$GPGGA,221307.000,3748.7581,N,12217.7854,W,2,06,1.7,-9.6,M,-25.1,M,4.8,0000*69
$GPGSA,A,3,19,03,22,18,06,14,,,,,,,4.9,1.7,4.6*3A
$GPRMC,221307.000,A,3748.7581,N,12217.7854,W,2.52,129.12,171212,,,D*7C
$GPVTG,129.12,T,,M,2.52,N,4.7,K,D*07
$GPGGA,221308.000,3748.7582,N,12217.7845,W,2,06,1.7,-8.5,M,-25.1,M,,0000*45
$GPGSA,A,3,19,03,22,18,06,14,,,,,,,4.9,1.7,4.6*3A
$GPGSV,3,1,12,22,71,328,21,14,56,179,32,18,50,051,22,06,48,243,31*79
$GPGSV,3,2,12,03,42,268,29,21,38,115,26,19,37,302,22,24,17,069,*72
$GPGSV,3,3,12,27,13,053,,09,13,055,18,15,03,040,16,11,00,310,*7F
$GPRMC,221308.000,A,3748.7582,N,12217.7845,W,2.24,129.14,171212,,,D*77
$GPVTG,129.14,T,,M,2.24,N,4.1,K,D*06
$GPGGA,221309.000,3748.7581,N,12217.7835,W,2,06,1.7,-10.0,M,-25.1,M,2.8,0000*58
$GPGSA,A,3,19,03,22,18,06,14,,,,,,,4.9,1.7,4.6*3A
$GPRMC,221309.000,A,3748.7581,N,12217.7835,W,2.58,109.03,171212,,,D*7D
$GPVTG,109.03,T,,M,2.58,N,4.8,K,D*00
$GPGGA,221310.000,3748.7578,N,12217.7826,W,2,05,3.2,-9.8,M,-25.1,M,3.8,0000*61
$GPGSA,A,3,19,03,22,06,14,,,,,,,,7.2,3.2,6.5*3D
$GPRMC,221310.000,A,3748.7578,N,12217.7826,W,2.80,117.03,171212,,,D*7B
$GPVTG,117.03,T,,M,2.80,N,5.2,K,D*01
$GPGGA,221311.000,3748.7575,N,12217.7817,W,2,05,3.2,-9.6,M,-25.1,M,4.8,0000*66
$GPGSA,A,3,19,03,22,06,14,,,,,,,,7.2,3.2,6.5*3D
$GPRMC,221311.000,A,3748.7575,N,12217.7817,W,2.91,108.42,171212,,,D*7E
$GPVTG,108.42,T,,M,2.91,N,5.4,K,D*0C
$GPGGA,221312.000,3748.7572,N,12217.7807,W,2,05,3.2,-9.0,M,-25.1,M,5.8,0000*64
$GPGSA,A,3,19,03,22,06,14,,,,,,,,7.2,3.2,6.5*3D
$GPRMC,221312.000,A,3748.7572,N,12217.7807,W,3.07,114.29,171212,,,D*75
$GPVTG,114.29,T,,M,3.07,N,5.7,K,D*01
$GPGGA,221313.000,3748.7564,N,12217.7800,W,2,06,1.7,-9.6,M,-25.1,M,6.8,0000*64
$GPGSA,A,3,19,03,22,18,06,14,,,,,,,4.9,1.7,4.6*3A
$GPGSV,3,1,12,22,71,328,21,14,56,179,32,18,50,051,19,06,48,243,31*71
$GPGSV,3,2,12,03,42,268,29,21,38,115,26,19,37,302,22,24,17,069,*72
$GPGSV,3,3,12,27,13,053,,09,13,055,18,15,03,040,15,11,00,310,*7C
$GPRMC,221313.000,A,3748.7564,N,12217.7800,W,2.83,113.37,171212,,,D*71
$GPVTG,113.37,T,,M,2.83,N,5.2,K,D*01
$GPGGA,221314.000,3748.7555,N,12217.7789,W,2,05,3.2,-12.1,M,-25.1,M,,0000*76
$GPGSA,A,3,19,03,22,06,14,,,,,,,,7.2,3.2,6.5*3D
$GPRMC,221314.000,A,3748.7555,N,12217.7789,W,3.31,111.53,171212,,,D*72
$GPVTG,111.53,T,,M,3.31,N,6.1,K,D*09
$GPGGA,221315.000,3748.7549,N,12217.7778,W,2,05,3.2,-15.4,M,-25.1,M,2.8,0000*52
$GPGSA,A,3,19,03,22,06,14,,,,,,,,7.2,3.2,6.5*3D
$GPRMC,221315.000,A,3748.7549,N,12217.7778,W,3.00,108.13,171212,,,D*7E
$GPVTG,108.13,T,,M,3.00,N,5.6,K,D*03
$GPGGA,221316.000,3748.7550,N,12217.7770,W,2,05,3.2,-13.7,M,-25.1,M,,0000*70
$GPGSA,A,3,19,03,22,06,14,,,,,,,,7.2,3.2,6.5*3D
$GPRMC,221316.000,A,3748.7550,N,12217.7770,W,2.56,106.49,171212,,,D*7E
$GPVTG,106.49,T,,M,2.56,N,4.7,K,D*00
$GPGGA,221317.000,3748.7550,N,12217.7761,W,2,05,3.2,-11.4,M,-25.1,M,2.8,0000*54
$GPGSA,A,3,19,03,22,06,14,,,,,,,,7.2,3.2,6.5*3D
$GPRMC,221317.000,A,3748.7550,N,12217.7761,W,2.88,113.60,171212,,,D*73
$GPVTG,113.60,T,,M,2.88,N,5.3,K,D*09
$GPGGA,221318.000,3748.7547,N,12217.7752,W,2,05,3.2,-9.8,M,-25.1,M,,0000*4C
$GPGSA,A,3,19,03,22,06,14,,,,,,,,7.2,3.2,6.5*3D
$GPGSV,3,1,12,22,71,328,21,14,56,179,32,18,50,051,18,06,48,242,31*71
$GPGSV,3,2,12,03,42,267,29,21,38,115,27,19,37,302,22,24,17,069,*7C
$GPGSV,3,3,12,27,13,052,,09,13,054,22,15,03,040,16,11,00,310,*76
$GPRMC,221318.000,A,3748.7547,N,12217.7752,W,2.93,117.82,171212,,,D*78
$GPVTG,117.82,T,,M,2.93,N,5.4,K,D*0C
$GPGGA,221319.000,3748.7544,N,12217.7741,W,2,05,3.2,-11.0,M,-25.1,M,,0000*7D
$GPGSA,A,3,19,03,22,06,14,,,,,,,,7.2,3.2,6.5*3D
$GPRMC,221319.000,A,3748.7544,N,12217.7741,W,3.06,108.52,171212,,,D*76
$GPVTG,108.52,T,,M,3.06,N,5.7,K,D*01
$GPGGA,221320.000,3748.7540,N,12217.7734,W,2,05,3.2,-9.7,M,-25.1,M,,0000*4F
$GPGSA,A,3,19,03,22,06,14,,,,,,,,7.2,3.2,6.5*3D
$GPRMC,221320.000,A,3748.7540,N,12217.7734,W,2.41,115.10,171212,,,D*72
$GPVTG,115.10,T,,M,2.41,N,4.5,K,D*0A
$GPGGA,221321.000,3748.7534,N,12217.7728,W,2,05,3.2,-6.8,M,-25.1,M,,0000*40
$GPGSA,A,3,19,03,22,06,14,,,,,,,,7.3,3.2,6.5*3C
$GPRMC,221321.000,A,3748.7534,N,12217.7728,W,2.74,129.40,171212,,,D*71
$GPVTG,129.40,T,,M,2.74,N,5.1,K,D*03
$GPGGA,221322.000,3748.7527,N,12217.7721,W,2,05,3.2,-5.4,M,-25.1,M,2.8,0000*63
$GPGSA,A,3,19,03,22,06,14,,,,,,,,7.3,3.2,6.5*3C
$GPRMC,221322.000,A,3748.7527,N,12217.7721,W,2.59,133.02,171212,,,D*7B
$GPVTG,133.02,T,,M,2.59,N,4.8,K,D*09
$GPGGA,221323.000,3748.7523,N,12217.7714,W,2,05,3.2,-8.4,M,-25.1,M,,0000*49
$GPGSA,A,3,19,03,22,06,14,,,,,,,,7.3,3.2,6.5*3C
$GPGSV,3,1,12,22,71,328,22,14,56,179,32,18,50,051,18,06,48,242,31*72
$GPGSV,3,2,12,03,42,267,29,21,38,115,28,19,37,302,22,24,17,069,*73
$GPGSV,3,3,12,27,13,052,,09,13,054,22,15,03,040,15,11,00,310,*75
$GPRMC,221323.000,A,3748.7523,N,12217.7714,W,2.29,131.31,171212,,,D*7D
$GPGGA,221324.000,3748.7515,N,12217.7708,W,2,05,3.2,-9.3,M,-25.1,M,2.8,0000*64
$GPGSA,A,3,19,03,22,06,14,,,,,,,,7.3,3.2,6.5*3C
$GPRMC,221324.000,A,3748.7515,N,12217.7708,W,2.49,120.71,171212,,,D*70
$GPVTG,120.71,T,,M,2.49,N,4.6,K,D*00
$GPGGA,221325.000,3748.7504,N,12217.7704,W,2,05,3.2,-8.9,M,-25.1,M,3.8,0000*63
$GPGSA,A,3,19,03,22,06,14,,,,,,,,7.3,3.2,6.5*3C
$GPRMC,221325.000,A,3748.7504,N,12217.7704,W,2.62,138.24,171212,,,D*7D
$GPVTG,138.24,T,,M,2.62,N,4.8,K,D*0E
$GPGGA,221326.000,3748.7495,N,12217.7700,W,2,05,3.2,-8.6,M,-25.1,M,,0000*47
$GPGSA,A,3,19,03,22,06,14,,,,,,,,7.3,3.2,6.5*3C
$GPRMC,221326.000,A,3748.7495,N,12217.7700,W,2.65,145.64,171212,,,D*7A
$GPVTG,145.64,T,,M,2.65,N,4.9,K,D*06
$GPGGA,221327.000,3748.7490,N,12217.7698,W,2,05,3.2,-4.2,M,-25.1,M,2.8,0000*6F
$GPGSA,A,3,19,03,22,06,14,,,,,,,,7.3,3.2,6.5*3C
$GPRMC,221327.000,A,3748.7490,N,12217.7698,W,2.13,147.66,171212,,,D*7F
$GPVTG,147.66,T,,M,2.13,N,4.0,K,D*0E
$GPGGA,221328.000,3748.7483,N,12217.7695,W,2,05,3.2,-0.3,M,-25.1,M,3.8,0000*6B
$GPGSA,A,3,19,03,22,06,14,,,,,,,,7.3,3.2,6.6*3F
$GPGSV,3,1,12,22,71,328,22,14,56,179,32,18,50,051,18,06,48,242,31*72
$GPGSV,3,2,12,03,42,267,29,21,38,115,28,19,37,302,22,24,17,069,*73
$GPGSV,3,3,12,27,13,052,,09,13,054,22,15,03,040,16,11,00,310,*76
$GPRMC,221328.000,A,3748.7483,N,12217.7695,W,2.45,144.33,171212,,,D*7F
$GPVTG,144.33,T,,M,2.45,N,4.5,K,D*0B
$GPGGA,221329.000,3748.7478,N,12217.7689,W,2,05,3.2,-2.1,M,-25.1,M,4.8,0000*64
$GPGSA,A,3,19,03,22,06,14,,,,,,,,7.3,3.2,6.6*3F
$GPRMC,221329.000,A,3748.7478,N,12217.7689,W,2.09,138.83,171212,,,D*7F
$GPVTG,138.83,T,,M,2.09,N,3.9,K,D*08
$GPGGA,221330.000,3748.7469,N,12217.7685,W,2,05,3.2,-2.8,M,-25.1,M,5.8,0000*68
$GPGSA,A,3,19,03,22,06,14,,,,,,,,7.3,3.2,6.6*3F
$GPRMC,221330.000,A,3748.7469,N,12217.7685,W,1.88,133.41,171212,,,D*74
$GPVTG,133.41,T,,M,1.88,N,3.5,K,D*0B
$GPGGA,221331.000,3748.7462,N,12217.7678,W,2,05,3.2,-2.3,M,-25.1,M,6.8,0000*68
$GPGSA,A,3,19,03,22,06,14,,,,,,,,7.3,3.2,6.6*3F
$GPRMC,221331.000,A,3748.7462,N,12217.7678,W,2.43,113.82,171212,,,D*75
$GPVTG,113.82,T,,M,2.43,N,4.5,K,D*05
$GPGGA,221332.000,3748.7459,N,12217.7668,W,2,05,3.2,-1.6,M,-25.1,M,,0000*44
$GPGSA,A,3,19,03,22,06,14,,,,,,,,7.3,3.2,6.6*3F
$GPRMC,221332.000,A,3748.7459,N,12217.7668,W,2.96,94.40,171212,,,D*47
$GPVTG,94.40,T,,M,2.96,N,5.5,K,D*3C
$GPGGA,221333.000,3748.7459,N,12217.7659,W,2,05,3.2,3.5,M,-25.1,M,,0000*6B
$GPGSA,A,3,19,03,22,06,14,,,,,,,,7.3,3.2,6.6*3F
$GPGSV,3,1,12,22,71,328,22,14,56,179,32,18,50,051,18,06,48,242,31*72
$GPGSV,3,2,12,03,42,267,29,21,38,115,28,19,37,302,21,24,17,069,*70
$GPGSV,3,3,12,27,13,052,,09,13,054,22,15,03,040,16,11,00,310,*76
$GPRMC,221333.000,A,3748.7459,N,12217.7659,W,3.48,95.53,171212,,,D*45
$GPVTG,95.53,T,,M,3.48,N,6.4,K,D*3F
$GPGGA,221334.000,3748.7460,N,12217.7649,W,2,05,3.2,7.3,M,-25.1,M,2.8,0000*41
$GPGSA,A,3,19,03,22,06,14,,,,,,,,7.3,3.2,6.6*3F
$GPRMC,221334.000,A,3748.7460,N,12217.7649,W,3.27,99.83,171212,,,D*41
$GPVTG,99.83,T,,M,3.27,N,6.1,K,D*32
$GPGGA,221335.000,3748.7456,N,12217.7646,W,2,06,1.7,10.7,M,-25.1,M,,0000*58
$GPGSA,A,3,19,03,22,18,06,14,,,,,,,4.9,1.7,4.6*3A
$GPRMC,221335.000,A,3748.7456,N,12217.7646,W,2.81,103.43,171212,,,D*79
$GPVTG,103.43,T,,M,2.81,N,5.2,K,D*01
$GPGGA,221336.000,3748.7452,N,12217.7652,W,2,06,1.7,16.1,M,-25.1,M,2.8,0000*7E
$GPGSA,A,3,19,03,22,18,06,14,,,,,,,4.9,1.7,4.6*3A
