$ADVER,3080,2.3
$GPRMC,195158.700,A,2940.8377,N,09524.7614,W,0.24,53.45,190411,,,A*4D
$GPGGA,195159.700,2940.8377,N,09524.7614,W,1,04,2.7,31.8,M,-23.7,M,,0000*53
$GPGSA,A,3,22,30,11,32,,,,,,,,,5.7,2.7,5.1*33
$GPRMC,195159.700,A,2940.8377,N,09524.7614,W,0.17,39.47,190411,,,A*42
$GPVTG,39.47,T,,M,0.17,N,0.3,K,A*31
$GPGGA,195200.700,2940.8378,N,09524.7614,W,1,04,2.7,31.7,M,-23.7,M,,0000*5C
$GPGSA,A,3,22,30,11,32,,,,,,,,,5.7,2.7,5.1*33
$GPRMC,195200.700,A,2940.8378,N,09524.7614,W,0.17,47.21,190411,,,A*4B
$GPVTG,47.21,T,,M,0.17,N,0.3,K,A*38
$GPGGA,195201.000,2940.8378,N,09524.7614,W,1,04,2.7,31.7,M,-23.7,M,,0000*5A
$GPGSA,A,3,22,30,11,32,,,,,,,,,5.7,2.7,5.1*33
$GPRMC,195201.000,A,2940.8378,N,09524.7614,W,0.19,40.84,190411,,,A*4B
$GPVTG,40.84,T,,M,0.19,N,0.4,K,A*39
$GPGGA,195202.000,2940.8378,N,09524.7614,W,1,04,2.7,31.6,M,-23.7,M,,0000*58
$GPGSA,A,3,22,30,11,32,,,,,,,,,5.7,2.7,5.1*33
$GPGSV,3,1,12,32,47,319,38,30,38,162,39,22,27,140,34,11,17,256,36*78
$GPGSV,3,2,12,31,70,007,35,14,33,066,,24,30,273,40,25,22,050,*7F
$GPGSV,3,3,12,16,20,177,34,20,19,317,31,23,07,288,,51,00,000,41*71
$GPRMC,195202.000,A,2940.8378,N,09524.7614,W,0.21,50.44,190411,,,A*4E
$GPVTG,50.44,T,,M,0.21,N,0.4,K,A*3F
$GPGGA,195203.000,2940.8378,N,09524.7614,W,1,04,2.7,31.5,M,-23.7,M,,0000*5A
$GPGSA,A,3,22,30,11,32,,,,,,,,,5.7,2.7,5.1*33
$GPRMC,195203.000,A,2940.8378,N,09524.7614,W,0.16,47.64,190411,,,A*4F
$GPVTG,47.64,T,,M,0.16,N,0.3,K,A*38
$GPGGA,195204.000,2940.8378,N,09524.7616,W,1,07,1.5,31.0,M,-23.7,M,,0000*58
$GPGSA,A,3,24,22,30,31,11,20,32,,,,,,2.7,1.5,2.3*36
$GPRMC,195204.000,A,2940.8378,N,09524.7616,W,0.06,347.79,190411,,,A*74
$GPVTG,347.79,T,,M,0.06,N,0.1,K,A*04
$GPGGA,195205.000,2940.8378,N,09524.7616,W,1,07,1.5,30.9,M,-23.7,M,,0000*51
$GPGSA,A,3,24,22,30,31,11,20,32,,,,,,2.7,1.5,2.3*36
$GPRMC,195205.000,A,2940.8378,N,09524.7616,W,0.05,52.89,190411,,,A*4E
$GPVTG,52.89,T,,M,0.05,N,0.1,K,A*3F
$GPGGA,195206.000,2940.8378,N,09524.7617,W,1,07,1.5,30.9,M,-23.7,M,,0000*53
$GPGSA,A,3,24,22,30,31,11,20,32,,,,,,2.7,1.5,2.3*36
$GPRMC,195206.000,A,2940.8378,N,09524.7617,W,0.02,298.33,190411,,,A*7E
$GPVTG,298.33,T,,M,0.02,N,0.0,K,A*0C
$GPGGA,195207.000,2940.8378,N,09524.7617,W,1,07,1.5,30.8,M,-23.7,M,,0000*53
$GPGSA,A,3,24,22,30,31,11,20,32,,,,,,2.7,1.5,2.3*36
$GPGSV,3,1,12,31,70,007,34,32,47,319,38,30,38,162,39,14,33,066,23*7C
$GPGSV,3,2,12,24,30,273,40,22,27,140,34,25,21,050,24,16,20,177,34*7F
$GPGSV,3,3,12,20,19,317,32,11,17,256,36,23,07,288,,51,53,203,41*74
$GPRMC,195207.000,A,2940.8378,N,09524.7617,W,0.03,319.71,190411,,,A*70
$GPVTG,319.71,T,,M,0.03,N,0.0,K,A*03
$GPGGA,195208.000,2940.8378,N,09524.7617,W,1,07,1.5,30.8,M,-23.7,M,,0000*5C
$GPGSA,A,3,24,22,30,31,11,20,32,,,,,,2.7,1.5,2.3*36
$GPRMC,195208.000,A,2940.8378,N,09524.7617,W,0.07,261.17,190411,,,A*75
$GPVTG,261.17,T,,M,0.07,N,0.1,K,A*08
$GPGGA,195209.000,2940.8378,N,09524.7618,W,1,07,1.5,30.8,M,-23.7,M,,0000*52
$GPGSA,A,3,24,22,30,31,11,20,32,,,,,,2.7,1.5,2.3*36
$GPRMC,195209.000,A,2940.8378,N,09524.7618,W,0.07,256.22,190411,,,A*79
$GPVTG,256.22,T,,M,0.07,N,0.1,K,A*0A
$GPGGA,195210.000,2940.8378,N,09524.7618,W,1,07,1.5,30.8,M,-23.7,M,,0000*5A
$GPGSA,A,3,24,22,30,31,11,20,32,,,,,,2.7,1.5,2.3*36
$GPRMC,195210.000,A,2940.8378,N,09524.7618,W,0.03,247.83,190411,,,A*7E
$GPVTG,247.83,T,,M,0.03,N,0.1,K,A*05
$GPGGA,195211.000,2940.8378,N,09524.7618,W,1,07,1.5,30.7,M,-23.7,M,,0000*54
$GPGSA,A,3,24,22,30,31,11,20,32,,,,,,2.7,1.5,2.3*36
$GPRMC,195211.000,A,2940.8378,N,09524.7618,W,0.03,201.22,190411,,,A*76
$GPVTG,201.22,T,,M,0.03,N,0.1,K,A*0C
$GPGGA,195212.000,2940.8378,N,09524.7615,W,1,06,1.9,31.0,M,-23.7,M,,0000*51
$GPGSA,A,3,24,30,31,11,20,32,,,,,,,3.6,1.9,3.0*38
$GPGSV,3,1,12,31,70,007,23,32,47,319,26,30,38,162,25,14,33,066,24*7F
$GPGSV,3,2,12,24,30,273,29,22,27,140,11,25,21,050,28,16,20,177,22*7C
$GPRMC,195212.000,A,2940.8378,N,09524.7615,W,0.28,236.04,190411,,,A*71
$GPVTG,236.04,T,,M,0.28,N,0.5,K,A*01
$GPGGA,195213.000,2940.8376,N,09524.7618,W,1,07,1.5,33.0,M,-23.7,M,,0000*5C
$GPGSA,A,3,24,22,30,31,11,20,32,,,,,,2.7,1.5,2.3*36
$GPRMC,195213.000,A,2940.8376,N,09524.7618,W,0.68,276.75,190411,,,A*75
$GPVTG,276.75,T,,M,0.68,N,1.3,K,A*00
$GPGGA,195214.000,2940.8375,N,09524.7620,W,1,07,1.5,33.9,M,-23.7,M,,0000*5A
$GPGSA,A,3,24,22,30,31,11,20,32,,,,,,2.7,1.5,2.3*36
$GPRMC,195214.000,A,2940.8375,N,09524.7620,W,0.44,267.67,190411,,,A*77
$GPVTG,267.67,T,,M,0.44,N,0.8,K,A*07
$GPGGA,195215.000,2940.8376,N,09524.7619,W,1,07,1.5,33.6,M,-23.7,M,,0000*5D
$GPGSA,A,3,24,22,30,31,11,20,32,,,,,,2.7,1.5,2.3*36
$GPRMC,195215.000,A,2940.8376,N,09524.7619,W,0.15,278.94,190411,,,A*79
$GPVTG,278.94,T,,M,0.15,N,0.3,K,A*0A
$GPGGA,195216.000,2940.8378,N,09524.7619,W,1,07,1.5,33.4,M,-23.7,M,,0000*52
$GPGSA,A,3,24,22,30,31,11,20,32,,,,,,2.7,1.5,2.3*36
$GPRMC,195216.000,A,2940.8378,N,09524.7619,W,0.31,251.50,190411,,,A*71
$GPVTG,251.50,T,,M,0.31,N,0.6,K,A*0A
$GPGGA,195217.000,2940.8379,N,09524.7619,W,1,07,1.5,33.0,M,-23.7,M,,0000*56
$GPGSA,A,3,24,22,30,31,11,20,32,,,,,,2.7,1.5,2.3*36
$GPGSV,3,1,12,31,70,007,33,32,47,319,30,30,38,162,34,14,33,066,26*7B
$GPGSV,3,2,12,24,30,273,32,22,27,140,28,25,21,050,34,16,20,177,36*74
$GPGSV,3,3,12,20,19,317,34,11,17,256,31,23,07,288,,51,53,203,36*75
$GPRMC,195217.000,A,2940.8379,N,09524.7619,W,0.26,278.03,190411,,,A*7A
$GPVTG,278.03,T,,M,0.26,N,0.5,K,A*02
$GPGGA,195218.000,2940.8380,N,09524.7618,W,1,05,3.3,32.5,M,-23.7,M,,0000*5C
$GPGSA,A,3,22,30,31,20,32,,,,,,,,4.1,3.3,2.5*32
$GPRMC,195218.000,A,2940.8380,N,09524.7618,W,0.25,356.90,190411,,,A*76
$GPVTG,356.90,T,,M,0.25,N,0.5,K,A*06
$GPGGA,195219.000,2940.8380,N,09524.7612,W,1,07,1.5,31.6,M,-23.7,M,,0000*51
$GPGSA,A,3,24,22,30,31,11,20,32,,,,,,2.7,1.5,2.3*36
$GPRMC,195219.000,A,2940.8380,N,09524.7612,W,0.35,141.13,190411,,,A*73
$GPVTG,141.13,T,,M,0.35,N,0.6,K,A*0B
$GPGGA,195220.000,2940.8382,N,09524.7608,W,1,06,1.7,31.3,M,-23.7,M,,0000*54
$GPGSA,A,3,22,30,31,11,20,32,,,,,,,2.9,1.7,2.4*3B
$GPRMC,195220.000,A,2940.8382,N,09524.7608,W,0.22,185.77,190411,,,A*7C
$GPVTG,185.77,T,,M,0.22,N,0.4,K,A*05
$GPGGA,195221.000,2940.8381,N,09524.7609,W,1,07,1.5,32.5,M,-23.7,M,,0000*51
$GPGSA,A,3,24,22,30,31,11,20,32,,,,,,2.7,1.5,2.3*36
$GPRMC,195221.000,A,2940.8381,N,09524.7609,W,0.55,216.41,190411,,,A*73
$GPVTG,216.41,T,,M,0.55,N,1.0,K,A*0C
$GPGGA,195222.000,2940.8385,N,09524.7597,W,1,07,1.5,31.7,M,-23.7,M,,0000*53
$GPGSA,A,3,24,22,30,31,11,20,32,,,,,,2.8,1.5,2.3*39
$GPGSV,3,1,12,31,70,007,33,32,47,319,33,30,38,162,38,14,33,066,32*71
$GPGSV,3,2,12,24,30,273,35,22,27,140,36,25,21,050,27,16,20,177,36*7E
$GPGSV,3,3,12,20,19,317,29,11,17,256,34,23,07,288,,51,53,203,38*72
$GPRMC,195222.000,A,2940.8385,N,09524.7597,W,0.62,114.29,190411,,,A*7B
$GPVTG,114.29,T,,M,0.62,N,1.1,K,A*06
$GPGGA,195223.000,2940.8385,N,09524.7600,W,1,06,1.8,31.1,M,-23.7,M,,0000*55
$GPGSA,A,3,24,22,30,31,20,32,,,,,,,2.9,1.8,2.3*35
$GPRMC,195223.000,A,2940.8385,N,09524.7600,W,1.40,289.92,190411,,,A*71
$GPVTG,289.92,T,,M,1.40,N,2.6,K,A*04
$GPGGA,195224.000,2940.8384,N,09524.7608,W,1,07,1.5,31.7,M,-23.7,M,,0000*51
$GPGSA,A,3,24,22,30,31,11,20,32,,,,,,2.8,1.5,2.3*39
$GPRMC,195224.000,A,2940.8384,N,09524.7608,W,0.55,216.99,190411,,,A*77
$GPVTG,216.99,T,,M,0.55,N,1.0,K,A*09
$GPGGA,195225.000,2940.8386,N,09524.7610,W,1,07,1.5,30.1,M,-23.7,M,,0000*5C
$GPGSA,A,3,24,22,30,31,11,20,32,,,,,,2.8,1.5,2.3*39
$GPRMC,195225.000,A,2940.8386,N,09524.7610,W,0.27,233.95,190411,,,A*73
$GPVTG,233.95,T,,M,0.27,N,0.5,K,A*03
$GPGGA,195226.000,2940.8389,N,09524.7610,W,1,07,1.5,29.3,M,-23.7,M,,0000*5A
$GPGSA,A,3,24,22,30,31,11,20,32,,,,,,2.8,1.5,2.3*39
$GPRMC,195226.000,A,2940.8389,N,09524.7610,W,0.18,245.37,190411,,,A*7A
$GPVTG,245.37,T,,M,0.18,N,0.3,K,A*00
$GPGGA,195227.000,2940.8391,N,09524.7603,W,1,06,1.8,27.9,M,-23.7,M,,0000*58
$GPGSA,A,3,24,22,30,31,20,32,,,,,,,2.9,1.8,2.3*35
$GPGSV,3,1,12,31,70,007,28,32,47,319,35,30,38,162,24,14,33,066,23*70
$GPGSV,3,2,12,24,30,273,34,22,27,140,25,25,21,050,22,16,20,177,24*7B
$GPGSV,3,3,12,20,19,317,30,11,17,256,23,23,07,288,,51,53,203,34*70
$GPRMC,195227.000,A,2940.8391,N,09524.7603,W,0.39,142.24,190411,,,A*75
$GPVTG,142.24,T,,M,0.39,N,0.7,K,A*01
$GPGGA,195228.000,2940.8395,N,09524.7597,W,1,06,1.8,26.1,M,-23.7,M,,0000*54
$GPGSA,A,3,24,22,30,31,20,32,,,,,,,2.9,1.8,2.3*35
$GPRMC,195228.000,A,2940.8395,N,09524.7597,W,0.76,135.91,190411,,,A*75
$GPVTG,135.91,T,,M,0.76,N,1.4,K,A*06
$GPGGA,195229.000,2940.8397,N,09524.7598,W,1,06,1.8,25.8,M,-23.7,M,,0000*52
$GPGSA,A,3,24,22,30,31,20,32,,,,,,,2.9,1.8,2.3*35
$GPRMC,195229.000,A,2940.8397,N,09524.7598,W,0.50,151.48,190411,,,A*7B
$GPVTG,151.48,T,,M,0.50,N,0.9,K,A*08
$GPGGA,195230.000,2940.8400,N,09524.7598,W,1,06,1.8,26.2,M,-23.7,M,,0000*5A
$GPGSA,A,3,24,22,30,31,20,32,,,,,,,2.9,1.8,2.3*35
$GPRMC,195230.000,A,2940.8400,N,09524.7598,W,0.27,22.37,190411,,,A*47
$GPVTG,22.37,T,,M,0.27,N,0.5,K,A*39
$GPGGA,195231.000,2940.8396,N,09524.7600,W,1,07,1.5,25.7,M,-23.7,M,,0000*5B
$GPGSA,A,3,24,22,30,31,11,20,32,,,,,,2.8,1.5,2.3*39
$GPRMC,195231.000,A,2940.8396,N,09524.7600,W,0.29,208.78,190411,,,A*73
$GPVTG,208.78,T,,M,0.29,N,0.5,K,A*06
$GPGGA,195232.000,2940.8402,N,09524.7596,W,1,07,1.5,26.4,M,-23.7,M,,0000*5E
$GPGSA,A,3,24,22,30,31,11,20,32,,,,,,2.8,1.5,2.3*39
$GPGSV,3,1,12,31,70,007,33,32,47,319,35,30,38,162,29,14,33,066,32*77
$GPGSV,3,2,12,24,30,273,33,22,27,140,24,25,21,050,36,16,20,177,25*79
$GPGSV,3,3,12,20,19,317,35,11,17,256,22,23,07,288,,51,53,203,33*73
$GPRMC,195232.000,A,2940.8402,N,09524.7596,W,1.25,66.10,190411,,,A*4F
$GPGGA,195233.000,2940.8402,N,09524.7595,W,1,07,1.5,26.2,M,-23.7,M,,0000*5A
$GPGSA,A,3,24,22,30,31,11,20,32,,,,,,2.8,1.5,2.3*39
$GPRMC,195233.000,A,2940.8402,N,09524.7595,W,0.31,13.70,190411,,,A*4D
$GPVTG,13.70,T,,M,0.31,N,0.6,K,A*3C
$GPGGA,195234.000,2940.8401,N,09524.7598,W,1,07,1.5,26.3,M,-23.7,M,,0000*52
$GPGSA,A,3,24,22,30,31,11,20,32,,,,,,2.8,1.5,2.3*39
$GPRMC,195234.000,A,2940.8401,N,09524.7598,W,0.14,180.48,190411,,,A*73
$GPVTG,180.48,T,,M,0.14,N,0.3,K,A*0E
$GPGGA,195235.000,2940.8396,N,09524.7611,W,1,07,1.5,27.8,M,-23.7,M,,0000*52
$GPGSA,A,3,24,22,30,31,11,20,32,,,,,,2.8,1.5,2.3*39
$GPRMC,195235.000,A,2940.8396,N,09524.7611,W,0.52,237.55,190411,,,A*78
$GPVTG,237.55,T,,M,0.52,N,1.0,K,A*0D
$GPGGA,195236.000,2940.8393,N,09524.7618,W,1,07,1.5,28.6,M,-23.7,M,,0000*5C
$GPGSA,A,3,24,22,30,31,11,20,32,,,,,,2.8,1.5,2.3*39
$GPRMC,195236.000,A,2940.8393,N,09524.7618,W,0.54,236.58,190411,,,A*7D
$GPVTG,236.58,T,,M,0.54,N,1.0,K,A*07
$GPGGA,195237.000,2940.8392,N,09524.7621,W,1,07,1.5,29.1,M,-23.7,M,,0000*50
$GPGSA,A,3,24,22,30,31,11,20,32,,,,,,2.8,1.5,2.3*39
$GPGSV,3,1,12,31,70,007,34,32,47,319,35,30,38,162,29,14,33,066,27*74
$GPGSV,3,2,12,24,30,273,26,22,27,140,31,25,21,050,36,16,20,177,25*79
$GPGSV,3,3,12,20,19,317,29,11,17,256,23,23,07,288,,51,53,203,30*7C
$GPRMC,195237.000,A,2940.8392,N,09524.7621,W,0.13,257.69,190411,,,A*71
$GPVTG,257.69,T,,M,0.13,N,0.2,K,A*02
$GPGGA,195238.000,2940.8391,N,09524.7625,W,1,07,1.5,30.3,M,-23.7,M,,0000*52
$GPGSA,A,3,24,22,30,31,11,20,32,,,,,,2.8,1.5,2.3*39
$GPRMC,195238.000,A,2940.8391,N,09524.7625,W,0.11,258.66,190411,,,A*7B
$GPVTG,258.66,T,,M,0.11,N,0.2,K,A*00
$GPGGA,195239.000,2940.8392,N,09524.7626,W,1,07,1.5,30.2,M,-23.7,M,,0000*52
$GPGSA,A,3,24,22,30,31,11,20,32,,,,,,2.8,1.5,2.3*39
$GPRMC,195239.000,A,2940.8392,N,09524.7626,W,0.37,213.45,190411,,,A*70
$GPVTG,213.45,T,,M,0.37,N,0.7,K,A*0F
$GPGGA,195240.000,2940.8390,N,09524.7629,W,1,07,1.5,31.7,M,-23.7,M,,0000*55
$GPGSA,A,3,24,22,30,31,11,20,32,,,,,,2.8,1.5,2.3*39
$GPRMC,195240.000,A,2940.8390,N,09524.7629,W,0.62,212.50,190411,,,A*76
$GPVTG,212.50,T,,M,0.62,N,1.2,K,A*0E
$GPGGA,195241.000,2940.8388,N,09524.7631,W,1,07,1.5,33.0,M,-23.7,M,,0000*51
$GPGSA,A,3,24,22,30,31,11,20,32,,,,,,2.8,1.5,2.3*39
$GPRMC,195241.000,A,2940.8388,N,09524.7631,W,0.68,221.99,190411,,,A*78
$GPVTG,221.99,T,,M,0.68,N,1.3,K,A*00
$GPGGA,195242.000,2940.8386,N,09524.7632,W,1,07,1.5,33.8,M,-23.7,M,,0000*57
$GPGSA,A,3,24,22,30,31,11,20,32,,,,,,2.8,1.5,2.3*39
$GPGSV,3,1,12,31,70,007,34,32,47,319,35,30,38,162,25,14,33,066,28*77
$GPGSV,3,2,12,24,30,273,30,22,27,140,28,25,21,050,36,16,20,177,17*77
$GPGSV,3,3,12,20,19,317,19,11,17,256,17,23,07,288,,51,53,203,32*7A
$GPRMC,195242.000,A,2940.8386,N,09524.7632,W,0.65,224.89,190411,,,A*7F
$GPVTG,224.89,T,,M,0.65,N,1.2,K,A*08
$GPGGA,195243.000,2940.8387,N,09524.7631,W,1,07,1.5,33.5,M,-23.7,M,,0000*59
$GPGSA,A,3,24,22,30,31,11,20,32,,,,,,2.8,1.5,2.3*39
$GPRMC,195243.000,A,2940.8387,N,09524.7631,W,0.31,209.81,190411,,,A*7A
$GPVTG,209.81,T,,M,0.31,N,0.6,K,A*0B
$GPGGA,195244.000,2940.8387,N,09524.7629,W,1,07,1.5,33.4,M,-23.7,M,,0000*56
$GPGSA,A,3,24,22,30,31,11,20,32,,,,,,2.8,1.5,2.3*39
$GPRMC,195244.000,A,2940.8387,N,09524.7629,W,0.47,97.91,190411,,,A*41
$GPVTG,97.91,T,,M,0.47,N,0.9,K,A*31
$GPGGA,195245.000,2940.8388,N,09524.7626,W,1,07,1.5,33.8,M,-23.7,M,,0000*5B
$GPGSA,A,3,24,22,30,31,11,20,32,,,,,,2.8,1.5,2.3*39
$GPRMC,195245.000,A,2940.8388,N,09524.7626,W,0.56,86.58,190411,,,A*45
$GPVTG,86.58,T,,M,0.56,N,1.0,K,A*3C
$GPGGA,195246.000,2940.8392,N,09524.7622,W,1,07,1.5,33.4,M,-23.7,M,,0000*5B
$GPGSA,A,3,24,22,30,31,11,20,32,,,,,,2.8,1.5,2.3*39
$GPRMC,195246.000,A,2940.8392,N,09524.7622,W,0.10,46.05,190411,,,A*4F
$GPVTG,46.05,T,,M,0.10,N,0.2,K,A*39
$GPGGA,195247.000,2940.8393,N,09524.7626,W,1,07,1.5,33.3,M,-23.7,M,,0000*58
$GPGSA,A,3,24,22,30,31,11,20,32,,,,,,2.8,1.5,2.3*39
$GPGSV,3,1,12,31,69,007,34,32,47,319,28,30,38,162,24,14,33,066,34*7F
$GPGSV,3,2,12,24,29,273,30,22,26,140,22,25,21,049,40,16,21,177,24*7C
$GPRMC,195247.000,A,2940.8393,N,09524.7626,W,0.31,172.48,190411,,,A*77
$GPVTG,172.48,T,,M,0.31,N,0.6,K,A*01
$GPGGA,195248.000,2940.8385,N,09524.7630,W,1,07,1.5,34.6,M,-23.7,M,,0000*55
$GPGSA,A,3,24,22,30,31,11,20,32,,,,,,2.8,1.5,2.3*39
$GPRMC,195248.000,A,2940.8385,N,09524.7630,W,0.86,215.59,190411,,,A*76
$GPVTG,215.59,T,,M,0.86,N,1.6,K,A*0E
$GPGGA,195249.000,2940.8385,N,09524.7627,W,1,07,1.5,34.0,M,-23.7,M,,0000*54
$GPGSA,A,3,24,22,30,31,11,20,32,,,,,,2.8,1.5,2.3*39
$GPRMC,195249.000,A,2940.8385,N,09524.7627,W,0.77,183.11,190411,,,A*7F
$GPVTG,183.11,T,,M,0.77,N,1.4,K,A*02
$GPGGA,195250.000,2940.8383,N,09524.7625,W,1,07,1.5,32.8,M,-23.7,M,,0000*56
$GPGSA,A,3,24,22,30,31,11,20,32,,,,,,2.8,1.5,2.3*39
$GPRMC,195250.000,A,2940.8383,N,09524.7625,W,0.33,65.96,190411,,,A*45
$GPVTG,65.96,T,,M,0.33,N,0.6,K,A*37
$GPGGA,195251.000,2940.8383,N,09524.7624,W,1,07,1.5,32.3,M,-23.7,M,,0000*5D
$GPGSA,A,3,24,22,30,31,11,20,32,,,,,,2.8,1.5,2.3*39
$GPRMC,195251.000,A,2940.8383,N,09524.7624,W,0.59,14.63,190411,,,A*45
$GPVTG,14.63,T,,M,0.59,N,1.1,K,A*31
$GPGGA,195252.000,2940.8386,N,09524.7621,W,1,07,1.5,31.6,M,-23.7,M,,0000*58
$GPGSA,A,3,24,22,30,31,11,20,32,,,,,,2.8,1.5,2.3*39
$GPGSV,3,1,12,31,69,007,35,32,47,319,32,30,38,162,28,14,33,066,34*79
$GPGSV,3,2,12,24,29,273,28,22,26,140,27,25,21,049,41,16,21,177,24*71
$GPGSV,3,3,12,20,20,317,30,11,16,256,25,23,07,288,,51,52,203,30*78
$GPRMC,195252.000,A,2940.8386,N,09524.7621,W,0.10,150.65,190411,,,A*7C
$GPVTG,150.65,T,,M,0.10,N,0.2,K,A*09
$GPGGA,195253.000,2940.8388,N,09524.7618,W,1,07,1.5,30.8,M,-23.7,M,,0000*52
$GPGSA,A,3,24,22,30,31,11,20,32,,,,,,2.8,1.5,2.3*39
$GPRMC,195253.000,A,2940.8388,N,09524.7618,W,0.47,95.91,190411,,,A*48
$GPVTG,95.91,T,,M,0.47,N,0.9,K,A*33
$GPGGA,195254.000,2940.8385,N,09524.7620,W,1,07,1.5,32.0,M,-23.7,M,,0000*59
$GPGSA,A,3,24,22,30,31,11,20,32,,,,,,2.8,1.5,2.3*39
$GPRMC,195254.000,A,2940.8385,N,09524.7620,W,0.60,198.74,190411,,,A*7B
$GPVTG,198.74,T,,M,0.60,N,1.1,K,A*08
$GPGGA,195255.000,2940.8384,N,09524.7620,W,1,07,1.5,32.5,M,-23.7,M,,0000*5C
$GPGSA,A,3,24,22,30,31,11,20,32,,,,,,2.8,1.5,2.3*39
$GPRMC,195255.000,A,2940.8384,N,09524.7620,W,1.37,231.60,190411,,,A*7D
$GPVTG,231.60,T,,M,1.37,N,2.5,K,A*09
$GPGGA,195256.000,2940.8384,N,09524.7623,W,1,07,1.5,32.8,M,-23.7,M,,0000*51
$GPGSA,A,3,24,22,30,31,11,20,32,,,,,,2.8,1.5,2.3*39
$GPRMC,195256.000,A,2940.8384,N,09524.7623,W,0.13,27.49,190411,,,A*44
$GPVTG,27.49,T,,M,0.13,N,0.2,K,A*35
$GPGGA,195257.000,2940.8389,N,09524.7620,W,1,07,1.5,31.9,M,-23.7,M,,0000*5C
$GPGSA,A,3,24,22,30,31,11,20,32,,,,,,2.8,1.5,2.3*39
$GPGSV,3,1,12,31,69,007,25,32,47,319,32,30,38,162,35,14,33,066,26*77
$GPGSV,3,2,12,24,29,273,28,22,26,140,34,25,21,049,30,16,21,177,28*79
$GPGSV,3,3,12,20,20,317,27,11,16,256,26,23,07,288,,51,52,203,32*7F
$GPRMC,195257.000,A,2940.8389,N,09524.7620,W,0.24,264.70,190411,,,A*70
$GPVTG,264.70,T,,M,0.24,N,0.4,K,A*08
$GPGGA,195258.000,2940.8388,N,09524.7624,W,1,07,1.5,31.9,M,-23.7,M,,0000*56
$GPGSA,A,3,24,22,30,31,11,20,32,,,,,,2.8,1.5,2.3*39
$GPRMC,195258.000,A,2940.8388,N,09524.7624,W,0.14,340.27,190411,,,A*7C
$GPVTG,340.27,T,,M,0.14,N,0.3,K,A*09
$GPGGA,195259.000,2940.8388,N,09524.7626,W,1,07,1.5,32.0,M,-23.7,M,,0000*5F
$GPGSA,A,3,24,22,30,31,11,20,32,,,,,,2.8,1.5,2.3*39
$GPRMC,195259.000,A,2940.8388,N,09524.7626,W,0.39,40.10,190411,,,A*47
$GPVTG,40.10,T,,M,0.39,N,0.7,K,A*35
$GPGGA,195300.000,2940.8388,N,09524.7623,W,1,07,1.5,31.4,M,-23.7,M,,0000*50
$GPGSA,A,3,24,22,30,31,11,20,32,,,,,,2.8,1.5,2.3*39
$GPRMC,195300.000,A,2940.8388,N,09524.7623,W,0.39,129.46,190411,,,A*72
$GPVTG,129.46,T,,M,0.39,N,0.7,K,A*08
$GPGGA,195301.000,2940.8391,N,09524.7624,W,1,07,1.5,30.5,M,-23.7,M,,0000*5E
$GPGSA,A,3,24,22,30,31,11,20,32,,,,,,2.8,1.5,2.3*39
$GPRMC,195301.000,A,2940.8391,N,09524.7624,W,0.09,76.84,190411,,,A*4A
$GPVTG,76.84,T,,M,0.09,N,0.2,K,A*3B
$GPGGA,195302.000,2940.8394,N,09524.7625,W,1,07,1.5,29.8,M,-23.7,M,,0000*5C
$GPGSA,A,3,24,22,30,31,11,20,32,,,,,,2.8,1.5,2.3*39
$GPGSV,3,1,11,31,69,007,35,32,47,319,35,30,38,162,26,14,33,066,29*7F
$GPGSV,3,2,11,24,29,273,41,22,26,140,23,25,21,049,32,16,21,177,24*7D
$GPGSV,3,3,11,20,20,317,37,11,16,256,33,23,07,288,*4A
$GPRMC,195302.000,A,2940.8394,N,09524.7625,W,0.72,227.68,190411,,,A*75
$GPVTG,227.68,T,,M,0.72,N,1.3,K,A*03
$GPGGA,195303.000,2940.8395,N,09524.7628,W,1,07,1.5,29.4,M,-23.7,M,,0000*5D
$GPGSA,A,3,24,22,30,31,11,20,32,,,,,,2.8,1.5,2.3*39
$GPRMC,195303.000,A,2940.8395,N,09524.7628,W,0.41,248.38,190411,,,A*74
$GPVTG,248.38,T,,M,0.41,N,0.8,K,A*05
$GPGGA,195304.000,2940.8396,N,09524.7628,W,1,07,1.5,28.6,M,-23.7,M,,0000*5A
$GPGSA,A,3,24,22,30,31,11,20,32,,,,,,2.8,1.5,2.3*39
$GPRMC,195304.000,A,2940.8396,N,09524.7628,W,0.35,91.14,190411,,,A*4B
$GPVTG,91.14,T,,M,0.35,N,0.7,K,A*31
$GPGGA,195305.000,2940.8396,N,09524.7627,W,1,07,1.5,27.4,M,-23.7,M,,0000*59
$GPGSA,A,3,24,22,30,31,11,20,32,,,,,,2.8,1.5,2.3*39
$GPRMC,195305.000,A,2940.8396,N,09524.7627,W,0.27,196.22,190411,,,A*75
$GPVTG,196.22,T,,M,0.27,N,0.5,K,A*03
$GPGGA,195306.000,2940.8392,N,09524.7624,W,1,06,1.7,26.9,M,-23.7,M,,0000*52
$GPGSA,A,3,22,30,31,11,20,32,,,,,,,2.9,1.7,2.4*3B
$GPRMC,195306.000,A,2940.8392,N,09524.7624,W,1.19,117.67,190411,,,A*75
$GPVTG,117.67,T,,M,1.19,N,2.2,K,A*02
$GPGGA,195307.000,2940.8394,N,09524.7622,W,1,07,1.5,27.5,M,-23.7,M,,0000*5D
$GPGSA,A,3,24,22,30,31,11,20,32,,,,,,2.8,1.5,2.3*39
$GPGSV,3,1,12,31,69,007,24,32,47,319,26,30,38,162,27,14,33,066,28*7E
$GPGSV,3,2,12,24,29,273,19,22,26,140,27,25,21,049,33,16,21,177,25*77
$GPGSV,3,3,12,20,20,317,26,11,16,256,23,23,07,288,,51,52,203,28*70
$GPRMC,195307.000,A,2940.8394,N,09524.7622,W,0.53,32.11,190411,,,A*4C
$GPGGA,195308.000,2940.8399,N,09524.7621,W,1,07,1.5,28.8,M,-23.7,M,,0000*5E
$GPGSA,A,3,24,22,30,31,11,20,32,,,,,,2.8,1.5,2.3*39
$GPRMC,195308.000,A,2940.8399,N,09524.7621,W,0.68,27.95,190411,,,A*4D
$GPVTG,27.95,T,,M,0.68,N,1.3,K,A*38
$GPGGA,195309.000,2940.8399,N,09524.7628,W,1,07,1.5,30.2,M,-23.7,M,,0000*55
$GPGSA,A,3,24,22,30,31,11,20,32,,,,,,2.8,1.5,2.3*39
$GPRMC,195309.000,A,2940.8399,N,09524.7628,W,0.17,301.63,190411,,,A*73
$GPVTG,301.63,T,,M,0.17,N,0.3,K,A*0F
$GPGGA,195310.000,2940.8405,N,09524.7621,W,1,07,1.5,30.1,M,-23.7,M,,0000*55
$GPGSA,A,3,24,22,30,31,11,20,32,,,,,,2.8,1.5,2.3*39
$GPRMC,195310.000,A,2940.8405,N,09524.7621,W,0.38,26.44,190411,,,A*4E
$GPVTG,26.44,T,,M,0.38,N,0.7,K,A*35
$GPGGA,195311.000,2940.8406,N,09524.7621,W,1,07,1.5,31.1,M,-23.7,M,,0000*56
$GPGSA,A,3,24,22,30,31,11,20,32,,,,,,2.8,1.5,2.3*39
$GPRMC,195311.000,A,2940.8406,N,09524.7621,W,0.36,32.80,190411,,,A*4F
$GPVTG,32.80,T,,M,0.36,N,0.7,K,A*36
$GPGGA,195312.000,2940.8403,N,09524.7624,W,1,07,1.5,31.8,M,-23.7,M,,0000*5C
$GPGSA,A,3,24,22,30,31,11,20,32,,,,,,2.8,1.5,2.3*39
$GPGSV,3,1,12,31,69,007,29,32,47,319,28,30,38,162,25,14,33,066,37*71
$GPGSV,3,2,12,24,29,273,26,22,26,140,26,25,21,049,32,16,21,177,27*79
$GPGSV,3,3,12,20,20,317,28,11,16,256,23,23,07,288,,51,52,203,24*72
$GPRMC,195312.000,A,2940.8403,N,09524.7624,W,0.13,190.91,190411,,,A*72
$GPVTG,190.91,T,,M,0.13,N,0.2,K,A*0D
$GPGGA,195313.000,2940.8398,N,09524.7626,W,1,06,1.7,32.8,M,-23.7,M,,0000*5A
$GPGSA,A,3,22,30,31,11,20,32,,,,,,,2.9,1.7,2.4*3B
$GPRMC,195313.000,A,2940.8398,N,09524.7626,W,0.48,202.95,190411,,,A*76
$GPVTG,202.95,T,,M,0.48,N,0.9,K,A*04
$GPGGA,195314.000,2940.8396,N,09524.7628,W,1,06,1.8,33.6,M,-23.7,M,,0000*5D
$GPGSA,A,3,24,22,30,31,20,32,,,,,,,2.9,1.8,2.3*35
$GPRMC,195314.000,A,2940.8396,N,09524.7628,W,0.44,221.46,190411,,,A*72
$GPVTG,221.46,T,,M,0.44,N,0.8,K,A*06
$GPGGA,195315.000,2940.8394,N,09524.7628,W,1,06,1.8,34.5,M,-23.7,M,,0000*5A
$GPGSA,A,3,24,22,30,31,20,32,,,,,,,2.9,1.8,2.3*35
$GPRMC,195315.000,A,2940.8394,N,09524.7628,W,0.48,229.44,190411,,,A*77
$GPVTG,229.44,T,,M,0.48,N,0.9,K,A*01
$GPGGA,195316.000,2940.8393,N,09524.7628,W,1,06,1.8,35.2,M,-23.7,M,,0000*58
$GPGSA,A,3,24,22,30,31,20,32,,,,,,,2.9,1.8,2.3*35
$GPRMC,195316.000,A,2940.8393,N,09524.7628,W,0.25,240.21,190411,,,A*74
$GPVTG,240.21,T,,M,0.25,N,0.5,K,A*0A
$GPGGA,195317.000,2940.8390,N,09524.7631,W,1,06,1.8,36.2,M,-23.7,M,,0000*51
$GPGSA,A,3,24,22,30,31,20,32,,,,,,,2.9,1.8,2.3*35
$GPGSV,3,1,11,31,69,007,29,32,47,319,28,30,38,162,26,14,33,066,37*71
$GPGSV,3,2,11,24,29,273,29,22,26,140,26,25,21,049,35,16,21,177,23*76
$GPGSV,3,3,11,20,20,317,28,11,16,256,,23,07,288,*44
$GPRMC,195317.000,A,2940.8390,N,09524.7631,W,0.36,245.78,190411,,,A*75
$GPVTG,245.78,T,,M,0.36,N,0.7,K,A*03
$GPGGA,195318.000,2940.8389,N,09524.7631,W,1,06,1.8,37.1,M,-23.7,M,,0000*54
$GPGSA,A,3,24,22,30,31,20,32,,,,,,,2.9,1.8,2.3*35
$GPRMC,195318.000,A,2940.8389,N,09524.7631,W,0.07,295.34,190411,,,A*75
$GPVTG,295.34,T,,M,0.07,N,0.1,K,A*02
$GPGGA,195319.000,2940.8387,N,09524.7629,W,1,07,1.5,37.6,M,-23.7,M,,0000*59
$GPGSA,A,3,24,22,30,31,11,20,32,,,,,,2.8,1.5,2.3*39
$GPRMC,195319.000,A,2940.8387,N,09524.7629,W,0.24,241.02,190411,,,A*7E
$GPVTG,241.02,T,,M,0.24,N,0.4,K,A*0A
$GPGGA,195320.000,2940.8383,N,09524.7632,W,1,07,1.5,38.7,M,-23.7,M,,0000*53
$GPGSA,A,3,24,22,30,31,11,20,32,,,,,,2.8,1.5,2.3*39
$GPRMC,195320.000,A,2940.8383,N,09524.7632,W,0.49,239.80,190411,,,A*74
$GPVTG,239.80,T,,M,0.49,N,0.9,K,A*09
$GPGGA,195321.000,2940.8382,N,09524.7628,W,1,07,1.5,37.8,M,-23.7,M,,0000*58
$GPGSA,A,3,24,22,30,31,11,20,32,,,,,,2.8,1.5,2.3*39
$GPRMC,195321.000,A,2940.8382,N,09524.7628,W,0.10,205.54,190411,,,A*75
$GPVTG,205.54,T,,M,0.10,N,0.2,K,A*08
$GPGGA,195322.000,2940.8382,N,09524.7624,W,1,07,1.5,37.1,M,-23.7,M,,0000*5E
$GPGSA,A,3,24,22,30,31,11,20,32,,,,,,2.8,1.5,2.3*39
$GPGSV,3,1,11,31,69,007,35,32,47,319,32,30,38,162,35,14,33,066,26*75
$GPGSV,3,2,11,24,29,273,29,22,26,140,28,25,21,049,33,16,21,177,28*75
$GPGSV,3,3,11,20,20,317,35,11,16,256,22,23,07,288,*48
$GPVTG,184.57,T,,M,0.11,N,0.2,K,A*00
$GPGGA,195323.000,2940.8381,N,09524.7624,W,1,07,1.5,36.6,M,-23.7,M,,0000*5A
$GPGSA,A,3,24,22,30,31,11,20,32,,,,,,2.8,1.5,2.3*39
$GPRMC,195323.000,A,2940.8381,N,09524.7624,W,0.42,262.12,190411,,,A*7C
$GPVTG,262.12,T,,M,0.42,N,0.8,K,A*06
$GPGGA,195324.000,2940.8378,N,09524.7628,W,1,07,1.5,37.0,M,-23.7,M,,0000*50
$GPGSA,A,3,24,22,30,31,11,20,32,,,,,,2.8,1.5,2.3*39
$GPRMC,195324.000,A,2940.8378,N,09524.7628,W,0.30,212.48,190411,,,A*7C
$GPVTG,212.48,T,,M,0.30,N,0.6,K,A*05
$GPGGA,195325.000,2940.8376,N,09524.7630,W,1,07,1.5,37.2,M,-23.7,M,,0000*54
$GPGSA,A,3,24,22,30,31,11,20,32,,,,,,2.8,1.5,2.3*39
$GPRMC,195325.000,A,2940.8376,N,09524.7630,W,0.22,205.27,190411,,,A*76
$GPVTG,205.27,T,,M,0.22,N,0.4,K,A*0B
$GPGGA,195326.000,2940.8375,N,09524.7631,W,1,07,1.5,37.4,M,-23.7,M,,0000*53
$GPGSA,A,3,24,22,30,31,11,20,32,,,,,,2.8,1.5,2.3*39
$GPRMC,195326.000,A,2940.8375,N,09524.7631,W,0.17,215.89,190411,,,A*74
$GPVTG,215.89,T,,M,0.17,N,0.3,K,A*0F
$GPGGA,195327.000,2940.8373,N,09524.7632,W,1,07,1.5,37.7,M,-23.7,M,,0000*54
$GPGSA,A,3,24,22,30,31,11,20,32,,,,,,2.8,1.5,2.3*39
$GPGSV,3,1,11,31,69,007,30,32,47,319,33,30,38,162,27,14,33,066,*76
$GPGSV,3,2,11,24,29,273,30,22,26,140,28,25,21,049,21,16,21,177,19*7C
$GPGSV,3,3,11,20,20,317,35,11,16,256,29,23,07,288,*43
$GPRMC,195327.000,A,2940.8373,N,09524.7632,W,0.23,191.77,190411,,,A*79
$GPVTG,191.77,T,,M,0.23,N,0.4,K,A*01
$GPGGA,195328.000,2940.8372,N,09524.7633,W,1,07,1.5,37.9,M,-23.7,M,,0000*55
$GPGSA,A,3,24,22,30,31,11,20,32,,,,,,2.8,1.5,2.3*39
$GPRMC,195328.000,A,2940.8372,N,09524.7633,W,0.24,197.63,190411,,,A*72
$GPVTG,197.63,T,,M,0.24,N,0.4,K,A*05
$GPGGA,195329.000,2940.8372,N,09524.7633,W,1,06,1.6,38.0,M,-23.7,M,,0000*50
$GPGSA,A,3,24,22,31,11,20,32,,,,,,,2.9,1.6,2.4*3F
$GPRMC,195329.000,A,2940.8372,N,09524.7633,W,0.18,206.80,190411,,,A*7A
$GPVTG,206.80,T,,M,0.18,N,0.3,K,A*0B
$GPGGA,195330.000,2940.8371,N,09524.7635,W,1,07,1.5,38.3,M,-23.7,M,,0000*5C
$GPGSA,A,3,24,22,30,31,11,20,32,,,,,,2.8,1.5,2.3*39
$GPRMC,195330.000,A,2940.8371,N,09524.7635,W,0.85,276.34,190411,,,A*7B
$GPVTG,276.34,T,,M,0.85,N,1.6,K,A*03
$GPGGA,195331.000,2940.8371,N,09524.7637,W,1,07,1.5,38.6,M,-23.7,M,,0000*5A
$GPGSA,A,3,24,22,30,31,11,20,32,,,,,,2.8,1.5,2.3*39
$GPRMC,195331.000,A,2940.8371,N,09524.7637,W,0.26,263.08,190411,,,A*7A
$GPVTG,263.08,T,,M,0.26,N,0.5,K,A*03
$GPGGA,195332.000,2940.8377,N,09524.7637,W,1,07,1.5,38.0,M,-23.7,M,,0000*59
$GPGSA,A,3,24,22,30,31,11,20,32,,,,,,2.8,1.5,2.3*39
$GPGSV,3,1,11,31,69,007,33,32,47,319,33,30,38,162,28,14,33,066,*7A
$GPGSV,3,2,11,24,29,273,30,22,26,140,28,25,21,049,33,16,21,177,25*70
$GPGSV,3,3,11,20,20,317,35,11,16,256,27,23,07,288,*4D
$GPRMC,195332.000,A,2940.8377,N,09524.7637,W,0.04,14.35,190411,,,A*43
$GPVTG,14.35,T,,M,0.04,N,0.1,K,A*3B
$GPGGA,195333.000,2940.8376,N,09524.7639,W,1,07,1.5,38.4,M,-23.7,M,,0000*53
$GPGSA,A,3,24,22,30,31,11,20,32,,,,,,2.8,1.5,2.3*39
$GPRMC,195333.000,A,2940.8376,N,09524.7639,W,0.65,238.31,190411,,,A*72
$GPVTG,238.31,T,,M,0.65,N,1.2,K,A*06
$GPGGA,195334.000,2940.8373,N,09524.7644,W,1,07,1.5,38.6,M,-23.7,M,,0000*59
$GPGSA,A,3,24,22,30,31,11,20,32,,,,,,2.8,1.5,2.3*39
$GPRMC,195334.000,A,2940.8373,N,09524.7644,W,1.96,232.82,190411,,,A*75
$GPVTG,232.82,T,,M,1.96,N,3.6,K,A*0F
$GPGGA,195335.000,2940.8371,N,09524.7645,W,1,07,1.5,38.4,M,-23.7,M,,0000*59
$GPGSA,A,3,24,22,30,31,11,20,32,,,,,,2.8,1.5,2.3*39
$GPRMC,195335.000,A,2940.8371,N,09524.7645,W,0.91,228.54,190411,,,A*71
$GPVTG,228.54,T,,M,0.91,N,1.7,K,A*0A
$GPGGA,195336.000,2940.8372,N,09524.7646,W,1,07,1.5,38.5,M,-23.7,M,,0000*5B
$GPGSA,A,3,24,22,30,31,11,20,32,,,,,,2.8,1.5,2.3*39
$GPRMC,195336.000,A,2940.8372,N,09524.7646,W,0.51,237.93,190411,,,A*7B
$GPVTG,237.93,T,,M,0.51,N,0.9,K,A*0C
$GPGGA,195337.000,2940.8372,N,09524.7643,W,1,07,1.5,37.3,M,-23.7,M,,0000*56
$GPGSA,A,3,24,22,30,31,11,20,32,,,,,,2.8,1.5,2.3*39
$GPGSV,3,1,11,31,69,007,31,32,47,319,34,30,38,162,26,14,33,066,*71
$GPGSV,3,2,11,24,29,273,31,22,26,140,27,25,21,049,38,16,21,177,*72
$GPGSV,3,3,11,20,20,317,36,11,16,256,26,23,07,288,*4F
$GPVTG,103.49,T,,M,0.52,N,1.0,K,A*04
$GPGGA,195338.000,2940.8372,N,09524.7640,W,1,07,1.5,36.6,M,-23.7,M,,0000*5E
$GPGSA,A,3,24,22,30,31,11,20,32,,,,,,2.8,1.5,2.3*39
$GPRMC,195338.000,A,2940.8372,N,09524.7640,W,0.39,210.08,190411,,,A*7A
$GPVTG,210.08,T,,M,0.39,N,0.7,K,A*0B
$GPGGA,195339.000,2940.8372,N,09524.7640,W,1,07,1.5,36.2,M,-23.7,M,,0000*5B
$GPGSA,A,3,24,22,30,31,11,20,32,,,,,,2.8,1.5,2.3*39
$GPRMC,195339.000,A,2940.8372,N,09524.7640,W,0.13,132.83,190411,,,A*73
$GPVTG,132.83,T,,M,0.13,N,0.2,K,A*06
$GPGGA,195340.000,2940.8372,N,09524.7639,W,1,07,1.5,35.8,M,-23.7,M,,0000*52
$GPGSA,A,3,24,22,30,31,11,20,32,,,,,,2.8,1.5,2.3*39
$GPRMC,195340.000,A,2940.8372,N,09524.7639,W,0.35,61.71,190411,,,A*4D
$GPVTG,61.71,T,,M,0.35,N,0.6,K,A*3C
$GPGGA,195341.000,2940.8372,N,09524.7639,W,1,07,1.5,35.6,M,-23.7,M,,0000*5D
$GPGSA,A,3,24,22,30,31,11,20,32,,,,,,2.8,1.5,2.3*39
$GPRMC,195341.000,A,2940.8372,N,09524.7639,W,0.23,188.50,190411,,,A*7E
$GPVTG,188.50,T,,M,0.23,N,0.4,K,A*0C
$GPGGA,195342.000,2940.8373,N,09524.7638,W,1,07,1.5,35.4,M,-23.7,M,,0000*5C
$GPGSA,A,3,24,22,30,31,11,20,32,,,,,,2.8,1.5,2.3*39
$GPGSV,3,1,11,31,69,007,28,32,47,319,32,30,38,162,23,14,33,066,26*7E
$GPGSV,3,2,11,24,29,273,23,22,26,140,26,25,21,049,29,16,21,177,*70
$GPGSV,3,3,11,20,20,317,34,11,16,256,24,23,07,288,*4F
$GPRMC,195342.000,A,2940.8373,N,09524.7638,W,0.28,189.71,190411,,,A*74
$GPVTG,189.71,T,,M,0.28,N,0.5,K,A*04
$GPGGA,195343.000,2940.8374,N,09524.7638,W,1,07,1.5,35.2,M,-23.7,M,,0000*5C
$GPGSA,A,3,24,22,30,31,11,20,32,,,,,,2.8,1.5,2.3*39
$GPRMC,195343.000,A,2940.8374,N,09524.7638,W,0.13,53.13,190411,,,A*48
$GPVTG,53.13,T,,M,0.13,N,0.2,K,A*39
$GPGGA,195344.000,2940.8377,N,09524.7639,W,1,07,1.5,35.8,M,-23.7,M,,0000*53
$GPGSA,A,3,24,22,30,31,11,20,32,,,,,,2.8,1.5,2.3*39
$GPRMC,195344.000,A,2940.8377,N,09524.7639,W,0.03,133.81,190411,,,A*70
$GPVTG,133.81,T,,M,0.03,N,0.0,K,A*06
$GPGGA,195345.000,2940.8379,N,09524.7636,W,1,07,1.5,35.6,M,-23.7,M,,0000*5D
$GPGSA,A,3,24,22,30,31,11,20,32,,,,,,2.8,1.5,2.3*39
$GPRMC,195345.000,A,2940.8379,N,09524.7636,W,0.28,140.15,190411,,,A*70
$GPVTG,140.15,T,,M,0.28,N,0.5,K,A*03
$GPGGA,195346.000,2940.8382,N,09524.7637,W,1,07,1.5,36.1,M,-23.7,M,,0000*5F
$GPGSA,A,3,24,22,30,31,11,20,32,,,,,,2.8,1.5,2.3*39
$GPRMC,195346.000,A,2940.8382,N,09524.7637,W,0.44,125.53,190411,,,A*7D
$GPVTG,125.53,T,,M,0.44,N,0.8,K,A*05
$GPGGA,195347.000,2940.8384,N,09524.7637,W,1,07,1.5,35.6,M,-23.7,M,,0000*5C
$GPGSA,A,3,24,22,30,31,11,20,32,,,,,,2.8,1.5,2.3*39
$GPGSV,3,1,11,31,69,008,30,32,47,319,36,30,39,162,22,14,33,066,33*78
$GPGSV,3,2,11,24,29,272,34,22,26,140,21,25,21,049,34,16,21,176,*7D
$GPGSV,3,3,11,20,20,317,35,11,16,256,30,23,07,288,*4B
$GPRMC,195347.000,A,2940.8384,N,09524.7637,W,0.30,157.81,190411,,,A*73
$GPVTG,157.81,T,,M,0.30,N,0.5,K,A*01
$GPGGA,195348.000,2940.8383,N,09524.7640,W,1,07,1.5,36.1,M,-23.7,M,,0000*50
$GPGSA,A,3,24,22,30,31,11,20,32,,,,,,2.8,1.5,2.3*39
$GPRMC,195348.000,A,2940.8383,N,09524.7640,W,0.27,193.71,190411,,,A*7A
$GPVTG,193.71,T,,M,0.27,N,0.5,K,A*00
$GPGGA,195349.000,2940.8382,N,09524.7644,W,1,07,1.5,36.7,M,-23.7,M,,0000*52
$GPGSA,A,3,24,22,30,31,11,20,32,,,,,,2.8,1.5,2.3*39
$GPRMC,195349.000,A,2940.8382,N,09524.7644,W,0.47,224.81,190411,,,A*78
$GPVTG,224.81,T,,M,0.47,N,0.9,K,A*0A
$GPGGA,195350.000,2940.8379,N,09524.7645,W,1,07,1.5,36.7,M,-23.7,M,,0000*5F
$GPGSA,A,3,24,22,30,31,11,20,32,,,,,,2.8,1.5,2.3*39
$GPRMC,195350.000,A,2940.8379,N,09524.7645,W,0.71,194.74,190411,,,A*72
$GPVTG,194.74,T,,M,0.71,N,1.3,K,A*06
$GPGGA,195351.000,2940.8377,N,09524.7646,W,1,07,1.5,36.4,M,-23.7,M,,0000*50
$GPGSA,A,3,24,22,30,31,11,20,32,,,,,,2.8,1.5,2.3*39
$GPRMC,195351.000,A,2940.8377,N,09524.7646,W,0.88,228.32,190411,,,A*7E
$GPVTG,228.32,T,,M,0.88,N,1.6,K,A*03
$GPGGA,195352.000,2940.8376,N,09524.7646,W,1,07,1.5,35.9,M,-23.7,M,,0000*5C
$GPGSA,A,3,24,22,30,31,11,20,32,,,,,,2.8,1.5,2.3*39
$GPGSV,3,1,12,31,69,008,30,32,47,319,36,30,39,162,30,14,33,066,21*7B
$GPGSV,3,2,12,24,29,272,36,22,26,140,26,25,21,049,24,16,21,176,*7A
$GPGSV,3,3,12,20,20,317,29,11,16,256,33,23,07,288,,51,52,203,28*7E
$GPVTG,211.79,T,,M,0.94,N,1.7,K,A*0A
$GPGGA,195353.000,2940.8375,N,09524.7644,W,1,07,1.5,34.9,M,-23.7,M,,0000*5D
$GPGSA,A,3,24,22,30,31,11,20,32,,,,,,2.8,1.5,2.3*39
$GPRMC,195353.000,A,2940.8375,N,09524.7644,W,1.11,198.26,190411,,,A*70
$GPVTG,198.26,T,,M,1.11,N,2.1,K,A*0B
$GPGGA,195354.000,2940.8372,N,09524.7640,W,1,07,1.5,33.6,M,-23.7,M,,0000*51
$GPGSA,A,3,24,22,30,31,11,20,32,,,,,,2.8,1.5,2.3*39
$GPRMC,195354.000,A,2940.8372,N,09524.7640,W,1.12,196.66,190411,,,A*7D
$GPVTG,196.66,T,,M,1.12,N,2.1,K,A*02
$GPGGA,195355.000,2940.8369,N,09524.7640,W,1,07,1.5,33.4,M,-23.7,M,,0000*58
$GPGSA,A,3,24,22,30,31,11,20,32,,,,,,2.8,1.5,2.3*39
$GPRMC,195355.000,A,2940.8369,N,09524.7640,W,0.98,190.06,190411,,,A*75
$GPVTG,190.06,T,,M,0.98,N,1.8,K,A*0B
$GPGGA,195356.000,2940.8365,N,09524.7642,W,1,07,1.5,33.6,M,-23.7,M,,0000*57
$GPGSA,A,3,24,22,30,31,11,20,32,,,,,,2.8,1.5,2.3*39
$GPRMC,195356.000,A,2940.8365,N,09524.7642,W,0.86,190.28,190411,,,A*7B
$GPVTG,190.28,T,,M,0.86,N,1.6,K,A*06
$GPGGA,195357.000,2940.8362,N,09524.7642,W,1,07,1.5,33.5,M,-23.7,M,,0000*52
$GPGSA,A,3,24,22,30,31,11,20,32,,,,,,2.8,1.5,2.3*39
$GPGSV,3,1,12,31,69,008,22,32,47,319,35,30,39,162,32,14,33,066,*7A
$GPGSV,3,2,12,24,29,272,36,22,26,140,29,25,21,049,,16,21,176,35*75
$GPGSV,3,3,12,20,20,317,29,11,16,256,27,23,07,288,,51,52,203,34*76
$GPRMC,195357.000,A,2940.8362,N,09524.7642,W,0.92,175.91,190411,,,A*71
$GPVTG,175.91,T,,M,0.92,N,1.7,K,A*0B
$GPGGA,195358.000,2940.8359,N,09524.7642,W,1,07,1.5,33.5,M,-23.7,M,,0000*55
$GPGSA,A,3,24,22,30,31,11,20,32,,,,,,2.8,1.5,2.3*39
$GPRMC,195358.000,A,2940.8359,N,09524.7642,W,1.11,184.36,190411,,,A*7F
$GPVTG,184.36,T,,M,1.11,N,2.1,K,A*07
$GPGGA,195359.000,2940.8355,N,09524.7641,W,1,07,1.5,33.3,M,-23.7,M,,0000*5D
$GPGSA,A,3,24,22,30,31,11,20,32,,,,,,2.8,1.5,2.3*39
$GPRMC,195359.000,A,2940.8355,N,09524.7641,W,1.05,177.01,190411,,,A*7C
$GPVTG,177.01,T,,M,1.05,N,2.0,K,A*0B
$GPGGA,195400.000,2940.8352,N,09524.7640,W,1,07,1.5,33.3,M,-23.7,M,,0000*50
$GPGSA,A,3,24,22,30,31,11,20,32,,,,,,2.8,1.5,2.3*39
$GPRMC,195400.000,A,2940.8352,N,09524.7640,W,1.09,161.83,190411,,,A*70
$GPVTG,161.83,T,,M,1.09,N,2.0,K,A*0A
$GPGGA,195401.000,2940.8347,N,09524.7640,W,1,07,1.5,33.3,M,-23.7,M,,0000*55
$GPGSA,A,3,24,22,30,31,11,20,32,,,,,,2.8,1.5,2.3*39
$GPRMC,195401.000,A,2940.8347,N,09524.7640,W,1.51,184.19,190411,,,A*70
$GPVTG,184.19,T,,M,1.51,N,2.8,K,A*07
$GPGGA,195402.000,2940.8342,N,09524.7638,W,1,07,1.5,33.2,M,-23.7,M,,0000*5D
$GPGSA,A,3,24,22,30,31,11,20,32,,,,,,2.8,1.5,2.3*39
$GPGSV,3,1,12,31,69,008,22,32,47,319,30,30,39,162,33,14,33,066,*7E
$GPGSV,3,2,12,24,29,272,35,22,26,140,32,25,21,049,,16,21,176,36*7F
$GPGSV,3,3,12,20,20,317,28,11,16,256,21,23,07,288,,51,52,203,35*70
$GPRMC,195402.000,A,2940.8342,N,09524.7638,W,1.16,164.98,190411,,,A*7D
$GPVTG,164.98,T,,M,1.16,N,2.1,K,A*0A
$GPGGA,195403.000,2940.8339,N,09524.7635,W,1,07,1.5,32.9,M,-23.7,M,,0000*57
$GPGSA,A,3,24,22,30,31,11,20,32,,,,,,2.8,1.5,2.3*39
$GPRMC,195403.000,A,2940.8339,N,09524.7635,W,1.18,153.78,190411,,,A*79
$GPVTG,153.78,T,,M,1.18,N,2.2,K,A*0D
$GPGGA,195404.000,2940.8335,N,09524.7633,W,1,07,1.5,32.3,M,-23.7,M,,0000*50
$GPGSA,A,3,24,22,30,31,11,20,32,,,,,,2.8,1.5,2.3*39
$GPRMC,195404.000,A,2940.8335,N,09524.7633,W,1.15,180.73,190411,,,A*7C
$GPVTG,180.73,T,,M,1.15,N,2.1,K,A*06
$GPGGA,195405.000,2940.8332,N,09524.7630,W,1,07,1.5,31.8,M,-23.7,M,,0000*5D
$GPGSA,A,3,24,22,30,31,11,20,32,,,,,,2.8,1.5,2.3*39
$GPRMC,195405.000,A,2940.8332,N,09524.7630,W,1.03,155.03,190411,,,A*71
$GPVTG,155.03,T,,M,1.03,N,1.9,K,A*05
$GPGGA,195406.000,2940.8329,N,09524.7627,W,1,07,1.5,31.3,M,-23.7,M,,0000*59
$GPGSA,A,3,24,22,30,31,11,20,32,,,,,,2.8,1.5,2.3*39
$GPRMC,195406.000,A,2940.8329,N,09524.7627,W,1.30,156.50,190411,,,A*7B
$GPVTG,156.50,T,,M,1.30,N,2.4,K,A*0E
$GPGGA,195407.000,2940.8325,N,09524.7624,W,1,07,1.5,31.1,M,-23.7,M,,0000*55
$GPGSA,A,3,24,22,30,31,11,20,32,,,,,,2.8,1.5,2.3*39
$GPGSV,3,1,12,31,69,008,23,32,47,319,30,30,39,162,33,14,33,066,*7F
$GPGSV,3,2,12,24,29,272,34,22,26,140,30,25,21,049,,16,21,176,29*72
$GPGSV,3,3,12,20,20,317,28,11,16,256,18,23,07,288,,51,52,203,34*7B
$GPRMC,195407.000,A,2940.8325,N,09524.7624,W,1.36,148.23,190411,,,A*78
$GPVTG,148.23,T,,M,1.36,N,2.5,K,A*02
$GPGGA,195408.000,2940.8324,N,09524.7619,W,1,07,1.5,30.2,M,-23.7,M,,0000*57
$GPGSA,A,3,24,22,30,31,11,20,32,,,,,,2.8,1.5,2.3*39
$GPRMC,195408.000,A,2940.8324,N,09524.7619,W,1.17,132.97,190411,,,A*79
$GPVTG,132.97,T,,M,1.17,N,2.2,K,A*04
$GPGGA,195409.000,2940.8322,N,09524.7616,W,1,07,1.5,29.3,M,-23.7,M,,0000*56
$GPGSA,A,3,24,22,30,31,11,20,32,,,,,,2.8,1.5,2.3*39
$GPRMC,195409.000,A,2940.8322,N,09524.7616,W,1.30,158.18,190411,,,A*7F
$GPVTG,158.18,T,,M,1.30,N,2.4,K,A*0C
$GPGGA,195410.000,2940.8318,N,09524.7614,W,1,07,1.5,28.2,M,-23.7,M,,0000*55
$GPGSA,A,3,24,22,30,31,11,20,32,,,,,,2.8,1.5,2.3*39
$GPRMC,195410.000,A,2940.8318,N,09524.7614,W,1.65,180.36,190411,,,A*75
$GPVTG,180.36,T,,M,1.65,N,3.1,K,A*01
$GPGGA,195411.000,2940.8315,N,09524.7612,W,1,07,1.5,27.3,M,-23.7,M,,0000*51
$GPGSA,A,3,24,22,30,31,11,20,32,,,,,,2.8,1.5,2.3*39
$GPRMC,195411.000,A,2940.8315,N,09524.7612,W,1.87,185.97,190411,,,A*7D
$GPVTG,185.97,T,,M,1.87,N,3.5,K,A*07
$GPGGA,195412.000,2940.8309,N,09524.7613,W,1,07,1.5,25.8,M,-23.7,M,,0000*57
$GPGSA,A,3,24,22,30,31,11,20,32,,,,,,2.8,1.5,2.3*39
$GPGSV,3,1,12,31,69,008,23,32,47,319,31,30,39,162,33,14,33,066,*7E
$GPGSV,3,2,12,24,29,272,22,22,26,140,32,25,21,049,,16,21,176,33*7C
$GPGSV,3,3,12,20,20,317,27,11,16,256,17,23,07,288,,51,52,203,33*7C
$GPRMC,195412.000,A,2940.8309,N,09524.7613,W,2.26,197.69,190411,,,A*78
$GPGGA,195413.000,2940.8308,N,09524.7607,W,1,07,1.5,25.3,M,-23.7,M,,0000*59
$GPGSA,A,3,24,22,30,31,11,20,32,,,,,,2.8,1.5,2.3*39
$GPRMC,195413.000,A,2940.8308,N,09524.7607,W,1.66,173.47,190411,,,A*7C
$GPVTG,173.47,T,,M,1.66,N,3.1,K,A*08
$GPGGA,195414.000,2940.8301,N,09524.7610,W,1,07,1.5,23.3,M,-23.7,M,,0000*57
$GPGSA,A,3,24,22,30,31,11,20,32,,,,,,2.8,1.5,2.3*39
$GPRMC,195414.000,A,2940.8301,N,09524.7610,W,1.84,182.31,190411,,,A*77
$GPVTG,182.31,T,,M,1.84,N,3.4,K,A*0E
$GPGGA,195415.000,2940.8299,N,09524.7604,W,1,07,1.5,21.7,M,-23.7,M,,0000*55
$GPGSA,A,3,24,22,30,31,11,20,32,,,,,,2.8,1.5,2.3*39
$GPRMC,195415.000,A,2940.8299,N,09524.7604,W,1.29,138.99,190411,,,A*77
$GPVTG,138.99,T,,M,1.29,N,2.4,K,A*0B
$GPGGA,195416.000,2940.8297,N,09524.7601,W,1,07,1.5,20.1,M,-23.7,M,,0000*5A
$GPGSA,A,3,24,22,30,31,11,20,32,,,,,,2.8,1.5,2.3*39
$GPRMC,195416.000,A,2940.8297,N,09524.7601,W,1.47,176.75,190411,,,A*7F
$GPVTG,176.75,T,,M,1.47,N,2.7,K,A*08
$GPGGA,195417.000,2940.8291,N,09524.7602,W,1,07,1.5,18.2,M,-23.7,M,,0000*56
$GPGSA,A,3,24,22,30,31,11,20,32,,,,,,2.8,1.5,2.3*39
$GPGSV,3,1,12,31,69,008,22,32,48,318,30,30,39,162,34,14,32,067,*77
$GPGSV,3,2,12,24,29,272,18,22,26,140,32,16,21,176,33,25,21,049,*75
$GPGSV,3,3,12,20,20,317,28,11,16,256,15,23,07,289,,51,52,203,34*77
$GPRMC,195417.000,A,2940.8291,N,09524.7602,W,1.68,193.35,190411,,,A*79
$GPVTG,193.35,T,,M,1.68,N,3.1,K,A*0D
$GPGGA,195418.000,2940.8287,N,09524.7603,W,1,05,3.2,17.9,M,-23.7,M,,0000*5C
$GPGSA,A,3,22,30,31,20,32,,,,,,,,4.1,3.2,2.5*33
$GPRMC,195418.000,A,2940.8287,N,09524.7603,W,1.63,203.49,190411,,,A*7A
$GPVTG,203.49,T,,M,1.63,N,3.0,K,A*06
$GPGGA,195419.000,2940.8284,N,09524.7605,W,1,05,3.2,18.4,M,-23.7,M,,0000*5A
$GPGSA,A,3,22,30,31,20,32,,,,,,,,4.1,3.2,2.5*33
$GPRMC,195419.000,A,2940.8284,N,09524.7605,W,2.34,207.12,190411,,,A*75
$GPVTG,207.12,T,,M,2.34,N,4.3,K,A*09
$GPGGA,195420.000,2940.8280,N,09524.7606,W,1,07,1.5,17.9,M,-23.7,M,,0000*52
$GPGSA,A,3,24,22,30,31,11,20,32,,,,,,2.8,1.5,2.3*39
$GPRMC,195420.000,A,2940.8280,N,09524.7606,W,2.07,204.32,190411,,,A*79
$GPVTG,204.32,T,,M,2.07,N,3.8,K,A*04
$GPGGA,195421.000,2940.8273,N,09524.7610,W,1,05,3.2,17.1,M,-23.7,M,,0000*57
$GPGSA,A,3,22,30,31,20,32,,,,,,,,4.1,3.2,2.5*33
$GPRMC,195421.000,A,2940.8273,N,09524.7610,W,1.93,204.78,190411,,,A*73
$GPVTG,204.78,T,,M,1.93,N,3.6,K,A*0A
$GPGGA,195422.000,2940.8266,N,09524.7614,W,1,05,3.2,17.4,M,-23.7,M,,0000*51
$GPGSA,A,3,22,30,31,20,32,,,,,,,,4.1,3.2,2.5*33
$GPGSV,3,1,12,31,69,008,22,32,48,318,29,30,39,162,34,14,32,067,*7F
$GPGSV,3,2,12,24,29,272,18,22,26,140,32,16,21,176,33,25,21,049,*75
$GPGSV,3,3,12,20,20,317,20,11,16,256,15,23,07,289,,51,52,203,35*7E
$GPRMC,195422.000,A,2940.8266,N,09524.7614,W,2.07,204.39,190411,,,A*7B
$GPVTG,204.39,T,,M,2.07,N,3.8,K,A*0F
$GPGGA,195423.000,2940.8261,N,09524.7616,W,1,05,3.2,18.3,M,-23.7,M,,0000*5D
$GPGSA,A,3,22,30,31,20,32,,,,,,,,4.1,3.2,2.5*33
$GPRMC,195423.000,A,2940.8261,N,09524.7616,W,1.97,211.09,190411,,,A*72
$GPVTG,211.09,T,,M,1.97,N,3.6,K,A*0C
$GPGGA,195424.000,2940.8259,N,09524.7616,W,1,06,1.7,18.7,M,-23.7,M,,0000*51
$GPGSA,A,3,22,30,31,11,20,32,,,,,,,3.0,1.7,2.4*33
$GPRMC,195424.000,A,2940.8259,N,09524.7616,W,2.13,216.09,190411,,,A*76
$GPVTG,216.09,T,,M,2.13,N,3.9,K,A*0B
$GPGGA,195425.000,2940.8257,N,09524.7616,W,1,05,3.2,19.5,M,-23.7,M,,0000*59
$GPGSA,A,3,22,30,31,20,32,,,,,,,,4.1,3.2,2.5*33
$GPRMC,195425.000,A,2940.8257,N,09524.7616,W,1.58,200.29,190411,,,A*70
$GPVTG,200.29,T,,M,1.58,N,2.9,K,A*03
$GPGGA,195426.000,2940.8251,N,09524.7617,W,1,05,3.2,20.0,M,-23.7,M,,0000*52
$GPGSA,A,3,22,30,31,20,32,,,,,,,,4.1,3.2,2.5*33
$GPRMC,195426.000,A,2940.8251,N,09524.7617,W,2.18,199.52,190411,,,A*7C
$GPVTG,199.52,T,,M,2.18,N,4.0,K,A*04
$GPGGA,195427.000,2940.8251,N,09524.7608,W,1,07,1.5,20.3,M,-23.7,M,,0000*59
$GPGSA,A,3,24,22,30,31,11,20,32,,,,,,2.8,1.5,2.3*39
$GPGSV,3,1,12,31,69,008,22,32,48,318,29,30,39,162,33,14,32,067,*78
$GPGSV,3,2,12,24,29,272,18,22,26,140,27,16,21,176,34,25,21,049,*76
$GPGSV,3,3,12,20,20,317,22,11,16,256,15,23,07,289,,51,52,203,34*7D
$GPVTG,194.29,T,,M,2.11,N,3.9,K,A*02
$GPGGA,195428.000,2940.8247,N,09524.7606,W,2,07,1.5,20.9,M,-23.7,M,1.8,0000*71
$GPGSA,A,3,24,22,30,31,11,20,32,,,,,,2.8,1.5,2.3*39
$GPRMC,195428.000,A,2940.8247,N,09524.7606,W,1.76,185.41,190411,,,D*74
$GPVTG,185.41,T,,M,1.76,N,3.3,K,D*01
$GPGGA,195429.000,2940.8241,N,09524.7606,W,2,07,1.5,19.9,M,-23.7,M,1.8,0000*7C
$GPGSA,A,3,24,22,30,31,11,20,32,,,,,,2.8,1.5,2.3*39
$GPRMC,195429.000,A,2940.8241,N,09524.7606,W,2.04,190.77,190411,,,D*74
$GPVTG,190.77,T,,M,2.04,N,3.8,K,D*0D
$GPGGA,195430.000,2940.8233,N,09524.7609,W,2,07,1.5,20.4,M,-23.7,M,0.8,0000*78
$GPGSA,A,3,24,22,30,31,11,20,32,,,,,,2.8,1.5,2.3*39
$GPRMC,195430.000,A,2940.8233,N,09524.7609,W,2.34,194.93,190411,,,D*7B
$GPVTG,194.93,T,,M,2.34,N,4.3,K,D*0C
$GPGGA,195431.000,2940.8232,N,09524.7604,W,2,07,1.5,19.6,M,-23.7,M,1.8,0000*7C
$GPGSA,A,3,24,22,30,31,11,20,32,,,,,,2.8,1.5,2.3*39
$GPRMC,195431.000,A,2940.8232,N,09524.7604,W,1.77,197.05,190411,,,D*7E
$GPVTG,197.05,T,,M,1.77,N,3.3,K,D*03
$GPGGA,195432.000,2940.8230,N,09524.7601,W,2,07,1.5,19.4,M,-23.7,M,2.8,0000*79
$GPGSA,A,3,24,22,30,31,11,20,32,,,,,,2.8,1.5,2.3*39
$GPGSV,3,1,12,31,69,008,22,32,48,318,29,30,39,162,31,14,32,067,*7A
$GPGSV,3,2,12,24,29,272,20,22,26,140,34,16,21,176,34,25,21,049,*7F
$GPGSV,3,3,12,20,20,317,23,11,16,256,15,23,07,289,,51,52,203,34*7C
$GPRMC,195432.000,A,2940.8230,N,09524.7601,W,1.87,195.26,190411,,,D*76
$GPVTG,195.26,T,,M,1.87,N,3.5,K,D*09
$GPGGA,195433.000,2940.8225,N,09524.7603,W,2,06,1.7,19.5,M,-23.7,M,3.8,0000*7D
$GPGSA,A,3,24,22,30,31,20,32,,,,,,,2.9,1.7,2.4*3D
$GPRMC,195433.000,A,2940.8225,N,09524.7603,W,1.80,194.86,190411,,,D*7D
$GPVTG,194.86,T,,M,1.80,N,3.3,K,D*03
$GPGGA,195434.000,2940.8218,N,09524.7607,W,2,07,1.5,19.2,M,-23.7,M,1.8,0000*76
$GPGSA,A,3,24,22,30,31,11,20,32,,,,,,2.8,1.5,2.3*39
$GPRMC,195434.000,A,2940.8218,N,09524.7607,W,1.67,193.45,190411,,,D*71
$GPVTG,193.45,T,,M,1.67,N,3.1,K,D*00
$GPGGA,195435.000,2940.8214,N,09524.7606,W,2,07,1.5,19.8,M,-23.7,M,1.8,0000*70
$GPGSA,A,3,24,22,30,31,11,20,32,,,,,,2.8,1.5,2.3*39
$GPRMC,195435.000,A,2940.8214,N,09524.7606,W,1.53,188.82,190411,,,D*7B
$GPVTG,188.82,T,,M,1.53,N,2.8,K,D*0E
$GPGGA,195436.000,2940.8210,N,09524.7604,W,2,07,1.5,20.1,M,-23.7,M,1.8,0000*76
$GPGSA,A,3,24,22,30,31,11,20,32,,,,,,2.8,1.5,2.3*39
$GPRMC,195436.000,A,2940.8210,N,09524.7604,W,2.00,182.25,190411,,,D*7C
$GPVTG,182.25,T,,M,2.00,N,3.7,K,D*02
$GPGGA,195437.000,2940.8200,N,09524.7606,W,2,06,1.7,20.5,M,-23.7,M,1.8,0000*73
$GPGSA,A,3,24,22,30,31,20,32,,,,,,,2.9,1.7,2.4*3D
$GPGSV,3,1,12,31,69,008,21,32,48,318,30,30,39,162,31,14,32,067,*71
$GPGSV,3,2,12,24,29,272,20,22,26,140,30,16,21,176,34,25,21,049,*7B
$GPGSV,3,3,12,20,20,317,22,11,16,256,14,23,07,289,,51,52,203,35*7D
$GPRMC,195437.000,A,2940.8200,N,09524.7606,W,2.28,188.84,190411,,,D*75
$GPVTG,188.84,T,,M,2.28,N,4.2,K,D*0B
$GPGGA,195438.000,2940.8195,N,09524.7607,W,2,05,2.5,20.2,M,-23.7,M,1.8,0000*77
$GPGSA,A,3,24,22,30,31,32,,,,,,,,5.1,2.5,4.4*37
$GPRMC,195438.000,A,2940.8195,N,09524.7607,W,2.06,197.76,190411,,,D*7B
$GPVTG,197.76,T,,M,2.06,N,3.8,K,D*09
$GPGGA,195439.000,2940.8189,N,09524.7608,W,2,06,1.7,20.2,M,-23.7,M,1.8,0000*76
$GPGSA,A,3,24,22,30,31,20,32,,,,,,,2.9,1.7,2.4*3D
$GPRMC,195439.000,A,2940.8189,N,09524.7608,W,2.48,205.50,190411,,,D*7E
$GPVTG,205.50,T,,M,2.48,N,4.6,K,D*06
$GPGGA,195440.000,2940.8187,N,09524.7604,W,2,05,2.5,19.5,M,-23.7,M,2.8,0000*76
$GPGSA,A,3,24,22,30,31,32,,,,,,,,5.1,2.5,4.4*37
$GPRMC,195440.000,A,2940.8187,N,09524.7604,W,1.84,198.76,190411,,,D*72
$GPVTG,198.76,T,,M,1.84,N,3.4,K,D*03
$GPGGA,195441.000,2940.8186,N,09524.7600,W,2,07,1.5,19.1,M,-23.7,M,1.8,0000*74
$GPGSA,A,3,24,22,30,31,11,20,32,,,,,,2.8,1.5,2.3*39
$GPRMC,195441.000,A,2940.8186,N,09524.7600,W,1.74,202.15,190411,,,D*7C
$GPVTG,202.15,T,,M,1.74,N,3.2,K,D*0F
$GPGGA,195442.000,2940.8181,N,09524.7602,W,2,06,1.7,19.7,M,-23.7,M,1.8,0000*77
$GPGSA,A,3,24,22,30,31,20,32,,,,,,,2.9,1.7,2.4*3D
$GPGSV,3,1,12,31,69,008,23,32,48,318,30,30,39,162,33,14,32,067,*71
$GPGSV,3,2,12,24,29,272,20,22,26,140,31,16,21,176,33,25,21,049,*7D
$GPRMC,195442.000,A,2940.8181,N,09524.7602,W,2.31,213.03,190411,,,D*7F
$GPVTG,213.03,T,,M,2.31,N,4.3,K,D*0C
$GPGGA,195443.000,2940.8173,N,09524.7606,W,2,06,1.7,20.3,M,-23.7,M,1.8,0000*71
$GPGSA,A,3,24,22,30,31,20,32,,,,,,,2.9,1.7,2.4*3D
$GPRMC,195443.000,A,2940.8173,N,09524.7606,W,2.50,213.10,190411,,,D*72
$GPVTG,213.10,T,,M,2.50,N,4.6,K,D*0C
$GPGGA,195444.000,2940.8167,N,09524.7610,W,2,06,1.7,19.9,M,-23.7,M,2.8,0000*77
$GPGSA,A,3,24,22,30,31,20,32,,,,,,,2.9,1.7,2.4*3D
$GPRMC,195444.000,A,2940.8167,N,09524.7610,W,2.17,213.24,190411,,,D*73
$GPVTG,213.24,T,,M,2.17,N,4.0,K,D*0E
$GPGGA,195445.000,2940.8163,N,09524.7611,W,2,06,1.7,19.1,M,-23.7,M,1.8,0000*78
$GPGSA,A,3,24,22,30,31,20,32,,,,,,,2.9,1.7,2.4*3D
$GPRMC,195445.000,A,2940.8163,N,09524.7611,W,2.01,212.31,190411,,,D*75
$GPVTG,212.31,T,,M,2.01,N,3.7,K,D*0C
$GPGGA,195446.000,2940.8158,N,09524.7614,W,2,05,2.5,18.8,M,-23.7,M,2.8,0000*7F
$GPGSA,A,3,24,22,30,31,32,,,,,,,,5.1,2.5,4.4*37
$GPRMC,195446.000,A,2940.8158,N,09524.7614,W,2.25,207.48,190411,,,D*77
$GPVTG,207.48,T,,M,2.25,N,4.2,K,D*02
$GPGGA,195447.000,2940.8156,N,09524.7610,W,2,06,2.5,18.7,M,-23.7,M,1.8,0000*7B
$GPGSA,A,3,24,22,30,31,11,32,,,,,,,4.8,2.5,4.2*39
$GPGSV,3,1,12,31,69,008,23,32,48,318,29,30,39,162,34,14,32,067,*7E
$GPGSV,3,2,12,24,29,272,23,22,26,140,28,16,21,176,25,25,21,049,*71
$GPGSV,3,3,12,20,20,317,17,11,16,256,20,23,07,289,,51,52,203,34*7D
$GPRMC,195447.000,A,2940.8156,N,09524.7610,W,1.43,176.39,190411,,,D*7C
$GPVTG,176.39,T,,M,1.43,N,2.6,K,D*00
$GPGGA,195448.000,2940.8150,N,09524.7615,W,2,05,2.5,18.6,M,-23.7,M,1.8,0000*75
$GPGSA,A,3,24,22,30,31,32,,,,,,,,5.1,2.5,4.4*37
$GPRMC,195448.000,A,2940.8150,N,09524.7615,W,1.20,173.78,190411,,,D*75
$GPVTG,173.78,T,,M,1.20,N,2.2,K,D*01
$GPGGA,195449.000,2940.8141,N,09524.7618,W,2,06,1.7,19.9,M,-23.7,M,1.8,0000*75
$GPGSA,A,3,24,22,30,31,20,32,,,,,,,2.9,1.7,2.4*3D
$GPRMC,195449.000,A,2940.8141,N,09524.7618,W,1.42,163.97,190411,,,D*7D
$GPVTG,163.97,T,,M,1.42,N,2.6,K,D*01
$GPGGA,195450.000,2940.8139,N,09524.7616,W,2,07,1.5,20.2,M,-23.7,M,2.8,0000*7D
$GPGSA,A,3,24,22,30,31,11,20,32,,,,,,2.8,1.5,2.3*39
$GPRMC,195450.000,A,2940.8139,N,09524.7616,W,0.90,174.38,190411,,,D*79
$GPVTG,174.38,T,,M,0.90,N,1.7,K,D*0E
$GPGGA,195451.000,2940.8134,N,09524.7617,W,2,07,1.5,21.5,M,-23.7,M,3.8,0000*77
$GPGSA,A,3,24,22,30,31,11,20,32,,,,,,2.8,1.5,2.3*39
$GPRMC,195451.000,A,2940.8134,N,09524.7617,W,1.11,172.47,190411,,,D*72
$GPVTG,172.47,T,,M,1.11,N,2.1,K,D*0D
$GPGGA,195452.000,2940.8132,N,09524.7614,W,2,07,1.5,22.2,M,-23.7,M,1.8,0000*77
$GPGSA,A,3,24,22,30,31,11,20,32,,,,,,2.8,1.5,2.3*39
$GPGSV,3,1,12,31,69,008,23,32,48,318,30,30,39,162,34,14,32,067,*76
$GPGSV,3,2,12,24,29,272,37,22,26,140,29,16,21,176,24,25,21,049,*74
$GPGSV,3,3,12,20,20,317,18,11,16,256,20,23,07,289,,51,52,203,34*72
$GPRMC,195452.000,A,2940.8132,N,09524.7614,W,1.34,175.18,190411,,,D*7E
$GPVTG,175.18,T,,M,1.34,N,2.5,K,D*03
$GPGGA,195453.000,2940.8128,N,09524.7613,W,2,07,1.5,22.1,M,-23.7,M,1.8,0000*79
$GPGSA,A,3,24,22,30,31,11,20,32,,,,,,2.8,1.5,2.3*39
$GPRMC,195453.000,A,2940.8128,N,09524.7613,W,1.52,169.98,190411,,,D*76
$GPVTG,169.98,T,,M,1.52,N,2.8,K,D*0B
$GPGGA,195454.000,2940.8122,N,09524.7614,W,2,07,1.5,23.4,M,-23.7,M,1.8,0000*77
$GPGSA,A,3,24,22,30,31,11,20,32,,,,,,2.8,1.5,2.3*39
$GPRMC,195454.000,A,2940.8122,N,09524.7614,W,1.76,176.47,190411,,,D*76
$GPVTG,176.47,T,,M,1.76,N,3.3,K,D*0B
$GPGGA,195455.000,2940.8120,N,09524.7611,W,2,07,1.5,24.4,M,-23.7,M,1.8,0000*76
$GPGSA,A,3,24,22,30,31,11,20,32,,,,,,2.8,1.5,2.3*39
$GPRMC,195455.000,A,2940.8120,N,09524.7611,W,1.74,180.73,190411,,,D*7C
$GPVTG,180.73,T,,M,1.74,N,3.2,K,D*06
$GPGGA,195456.000,2940.8117,N,09524.7608,W,2,07,1.5,25.3,M,-23.7,M,2.8,0000*7C
$GPGSA,A,3,24,22,30,31,11,20,32,,,,,,2.8,1.5,2.3*39
$GPRMC,195456.000,A,2940.8117,N,09524.7608,W,1.59,173.30,190411,,,D*77
$GPVTG,173.30,T,,M,1.59,N,2.9,K,D*08
$GPGGA,195457.000,2940.8112,N,09524.7608,W,2,07,1.5,24.5,M,-23.7,M,3.8,0000*7E
$GPGSA,A,3,24,22,30,31,11,20,32,,,,,,2.8,1.5,2.3*39
$GPGSV,3,1,12,31,69,008,23,32,48,318,30,30,39,162,33,14,32,067,*71
$GPGSV,3,2,12,24,29,272,35,22,26,140,29,16,21,176,24,25,21,049,*76
$GPGSV,3,3,12,20,20,317,19,11,16,256,23,23,07,289,,51,52,203,32*76
$GPRMC,195457.000,A,2940.8112,N,09524.7608,W,1.88,181.01,190411,,,D*70
$GPVTG,181.01,T,,M,1.88,N,3.5,K,D*06
$GPGGA,195458.000,2940.8107,N,09524.7609,W,2,07,1.5,23.7,M,-23.7,M,4.8,0000*76
$GPGSA,A,3,24,22,30,31,11,20,32,,,,,,2.8,1.5,2.3*39
$GPRMC,195458.000,A,2940.8107,N,09524.7609,W,1.12,180.16,190411,,,D*7E
$GPVTG,180.16,T,,M,1.12,N,2.1,K,D*07
$GPGGA,195459.000,2940.8108,N,09524.7609,W,2,07,1.5,24.5,M,-23.7,M,1.8,0000*78
$GPGSA,A,3,24,22,30,31,11,20,32,,,,,,2.8,1.5,2.3*39
$GPRMC,195459.000,A,2940.8108,N,09524.7609,W,0.79,184.04,190411,,,D*7B
$GPVTG,184.04,T,,M,0.79,N,1.5,K,D*0B
$GPGGA,195500.000,2940.8111,N,09524.7611,W,2,07,1.5,24.0,M,-23.7,M,1.8,0000*71
$GPGSA,A,3,24,22,30,31,11,20,32,,,,,,2.8,1.5,2.3*39
$GPRMC,195500.000,A,2940.8111,N,09524.7611,W,1.11,207.07,190411,,,D*73
$GPVTG,207.07,T,,M,1.11,N,2.1,K,D*08
$GPGGA,195501.000,2940.8115,N,09524.7611,W,2,07,1.5,22.9,M,-23.7,M,1.8,0000*7B
$GPGSA,A,3,24,22,30,31,11,20,32,,,,,,2.8,1.5,2.3*39
$GPRMC,195501.000,A,2940.8115,N,09524.7611,W,1.35,217.27,190411,,,D*73
$GPVTG,217.27,T,,M,1.35,N,2.5,K,D*09
$GPGGA,195502.000,2940.8121,N,09524.7611,W,2,07,1.5,21.3,M,-23.7,M,2.8,0000*75
$GPGSA,A,3,24,22,30,31,11,20,32,,,,,,2.8,1.5,2.3*39
$GPGSV,3,1,12,31,69,008,29,32,48,318,34,30,39,162,23,14,32,067,*7E
$GPGSV,3,2,12,24,29,272,36,22,26,140,20,16,21,176,24,25,21,049,24*7A
$GPGSV,3,3,12,20,20,317,23,11,16,256,30,23,07,289,,51,52,203,27*79
$GPVTG,241.95,T,,M,1.04,N,1.9,K,D*0E
$GPGGA,195503.000,2940.8127,N,09524.7610,W,2,07,1.5,19.9,M,-23.7,M,3.8,0000*73
$GPGSA,A,3,24,22,30,31,11,20,32,,,,,,2.8,1.5,2.3*39
$GPRMC,195503.000,A,2940.8127,N,09524.7610,W,1.03,236.17,190411,,,D*74
$GPVTG,236.17,T,,M,1.03,N,1.9,K,D*03
$GPGGA,195504.000,2940.8126,N,09524.7615,W,2,07,1.5,20.8,M,-23.7,M,4.8,0000*7C
$GPGSA,A,3,24,22,30,31,11,20,32,,,,,,2.8,1.5,2.3*39
$GPRMC,195504.000,A,2940.8126,N,09524.7615,W,1.00,236.70,190411,,,D*75
$GPVTG,236.70,T,,M,1.00,N,1.8,K,D*00
$GPGGA,195505.000,2940.8126,N,09524.7614,W,2,07,1.5,20.0,M,-23.7,M,1.8,0000*71
$GPGSA,A,3,24,22,30,31,11,20,32,,,,,,2.8,1.5,2.3*39
$GPRMC,195505.000,A,2940.8126,N,09524.7614,W,1.35,214.64,190411,,,D*76
$GPVTG,214.64,T,,M,1.35,N,2.5,K,D*0D
$GPGGA,195506.000,2940.8124,N,09524.7621,W,2,07,1.5,22.1,M,-23.7,M,2.8,0000*76
$GPGSA,A,3,24,22,30,31,11,20,32,,,,,,2.8,1.5,2.3*39
$GPRMC,195506.000,A,2940.8124,N,09524.7621,W,1.64,210.54,190411,,,D*72
$GPVTG,210.54,T,,M,1.64,N,3.0,K,D*0A
$GPGGA,195507.000,2940.8119,N,09524.7625,W,2,07,1.5,23.5,M,-23.7,M,1.8,0000*7B
$GPGSA,A,3,24,22,30,31,11,20,32,,,,,,2.8,1.5,2.3*39
$GPGSV,3,1,12,31,69,008,29,32,48,318,34,30,39,162,23,14,32,067,*7E
$GPGSV,3,2,12,24,29,272,37,22,26,140,22,16,21,176,23,25,21,049,26*7C
$GPGSV,3,3,12,20,20,317,18,11,16,256,24,23,07,289,,51,52,203,29*7A
$GPRMC,195507.000,A,2940.8119,N,09524.7625,W,1.84,207.58,190411,,,D*7D
$GPVTG,207.58,T,,M,1.84,N,3.4,K,D*0A
$GPGGA,195508.000,2940.8114,N,09524.7629,W,2,07,1.5,25.4,M,-23.7,M,1.8,0000*72
$GPGSA,A,3,24,22,30,31,11,20,32,,,,,,2.8,1.5,2.3*39
$GPRMC,195508.000,A,2940.8114,N,09524.7629,W,1.84,202.89,190411,,,D*7A
$GPVTG,202.89,T,,M,1.84,N,3.4,K,D*03
$GPGGA,195509.000,2940.8109,N,09524.7638,W,2,07,1.5,28.1,M,-23.7,M,2.8,0000*74
$GPGSA,A,3,24,22,30,31,11,20,32,,,,,,2.8,1.5,2.3*39
$GPRMC,195509.000,A,2940.8109,N,09524.7638,W,2.01,222.85,190411,,,D*77
$GPVTG,222.85,T,,M,2.01,N,3.7,K,D*00
$GPGGA,195510.000,2940.8108,N,09524.7643,W,2,07,1.5,29.2,M,-23.7,M,3.8,0000*72
$GPGSA,A,3,24,22,30,31,11,20,32,,,,,,2.8,1.5,2.3*39
$GPRMC,195510.000,A,2940.8108,N,09524.7643,W,2.09,218.40,190411,,,D*7A
$GPVTG,218.40,T,,M,2.09,N,3.9,K,D*06
$GPGGA,195511.000,2940.8103,N,09524.7652,W,2,07,1.5,31.9,M,-23.7,M,1.8,0000*78
$GPGSA,A,3,24,22,30,31,11,20,32,,,,,,2.8,1.5,2.3*39
$GPRMC,195511.000,A,2940.8103,N,09524.7652,W,2.38,216.34,190411,,,D*7F
$GPVTG,216.34,T,,M,2.38,N,4.4,K,D*03
$GPGGA,195512.000,2940.8097,N,09524.7659,W,2,07,1.5,34.6,M,-23.7,M,1.8,0000*76
$GPGSA,A,3,24,22,30,31,11,20,32,,,,,,2.8,1.5,2.3*39
$GPGSV,3,1,12,31,69,008,28,32,48,318,34,30,39,162,27,14,32,067,*7B
$GPGSV,3,2,12,24,29,272,36,22,26,140,22,16,21,176,24,25,21,049,27*7B
$GPGSV,3,3,12,20,20,317,17,11,16,256,23,23,07,289,,51,52,203,32*78
$GPRMC,195512.000,A,2940.8097,N,09524.7659,W,1.81,217.50,190411,,,D*79
$GPVTG,217.50,T,,M,1.81,N,3.3,K,D*01
$GPGGA,195513.000,2940.8094,N,09524.7659,W,2,07,1.5,35.5,M,-23.7,M,1.8,0000*76
$GPGSA,A,3,24,22,30,31,11,20,32,,,,,,2.8,1.5,2.3*39
$GPRMC,195513.000,A,2940.8094,N,09524.7659,W,1.59,214.42,190411,,,D*7E
$GPVTG,214.42,T,,M,1.59,N,2.9,K,D*0F
$GPGGA,195514.000,2940.8088,N,09524.7661,W,2,06,2.5,36.8,M,-23.7,M,2.8,0000*78
$GPGSA,A,3,24,22,30,31,11,32,,,,,,,4.8,2.5,4.1*3A
$GPRMC,195514.000,A,2940.8088,N,09524.7661,W,2.05,211.62,190411,,,D*72
$GPVTG,211.62,T,,M,2.05,N,3.8,K,D*02
$GPGGA,195515.000,2940.8082,N,09524.7666,W,2,05,2.5,38.0,M,-23.7,M,3.8,0000*70
$GPGSA,A,3,24,22,30,31,32,,,,,,,,5.1,2.5,4.4*37
$GPRMC,195515.000,A,2940.8082,N,09524.7666,W,1.91,208.62,190411,,,D*78
$GPVTG,208.62,T,,M,1.91,N,3.5,K,D*09
$GPGGA,195516.000,2940.8078,N,09524.7668,W,2,05,2.5,38.8,M,-23.7,M,4.8,0000*77
$GPGSA,A,3,24,22,30,31,32,,,,,,,,5.1,2.5,4.4*37
$GPRMC,195516.000,A,2940.8078,N,09524.7668,W,1.95,211.22,190411,,,D*78
$GPVTG,211.22,T,,M,1.95,N,3.6,K,D*02
$GPGGA,195517.000,2940.8068,N,09524.7673,W,2,07,1.5,41.0,M,-23.7,M,1.8,0000*7F
$GPGSA,A,3,24,22,30,31,11,20,32,,,,,,2.8,1.5,2.3*39
$GPGSV,3,1,12,31,69,008,27,32,48,318,35,30,39,162,28,14,32,067,*7A
$GPGSV,3,2,12,24,29,272,29,22,26,140,26,16,21,176,30,25,21,049,27*74
$GPGSV,3,3,12,20,20,317,17,11,16,256,17,23,07,289,,51,52,203,32*7F
$GPRMC,195517.000,A,2940.8068,N,09524.7673,W,2.17,211.04,190411,,,D*7F
$GPVTG,211.04,T,,M,2.17,N,4.0,K,D*0E
$GPGGA,195518.000,2940.8059,N,09524.7676,W,2,07,1.5,42.2,M,-23.7,M,1.8,0000*76
$GPGSA,A,3,24,22,30,31,11,20,32,,,,,,2.8,1.5,2.3*39
$GPRMC,195518.000,A,2940.8059,N,09524.7676,W,2.04,207.98,190411,,,D*77
$GPVTG,207.98,T,,M,2.04,N,3.8,K,D*01
$GPGGA,195519.000,2940.8049,N,09524.7682,W,2,07,1.5,43.8,M,-23.7,M,1.8,0000*76
$GPGSA,A,3,24,22,30,31,11,20,32,,,,,,2.8,1.5,2.3*39
$GPRMC,195519.000,A,2940.8049,N,09524.7682,W,1.84,205.03,190411,,,D*77
$GPVTG,205.03,T,,M,1.84,N,3.4,K,D*06
$GPGGA,195520.000,2940.8043,N,09524.7683,W,2,07,1.5,45.2,M,-23.7,M,2.8,0000*78
$GPGSA,A,3,24,22,30,31,11,20,32,,,,,,2.8,1.5,2.3*39
$GPRMC,195520.000,A,2940.8043,N,09524.7683,W,1.38,205.94,190411,,,D*7F
$GPVTG,205.94,T,,M,1.38,N,2.6,K,D*0C
$GPGGA,195521.000,2940.8042,N,09524.7678,W,2,07,1.5,44.6,M,-23.7,M,3.8,0000*78
$GPGSA,A,3,24,22,30,31,11,20,32,,,,,,2.8,1.5,2.3*39
$GPRMC,195521.000,A,2940.8042,N,09524.7678,W,1.11,191.40,190411,,,D*77
$GPVTG,191.40,T,,M,1.11,N,2.0,K,D*06
$GPGGA,195522.000,2940.8037,N,09524.7682,W,2,07,1.5,45.2,M,-23.7,M,1.8,0000*7B
$GPGSA,A,3,24,22,30,31,11,20,32,,,,,,2.8,1.5,2.3*39
$GPGSV,3,1,12,31,69,008,27,32,48,318,35,30,39,162,31,14,32,067,*72
$GPGSV,3,2,12,24,29,272,24,22,26,140,27,16,21,176,19,25,21,049,24*70
$GPGSV,3,3,12,20,20,317,18,11,16,256,18,23,07,289,,51,52,203,32*7F
$GPVTG,195.29,T,,M,1.35,N,2.5,K,D*0E
$GPGGA,195523.000,2940.8035,N,09524.7681,W,2,07,1.5,45.5,M,-23.7,M,1.8,0000*7C
$GPGSA,A,3,24,22,30,31,11,20,32,,,,,,2.8,1.5,2.3*39
$GPRMC,195523.000,A,2940.8035,N,09524.7681,W,1.42,196.44,190411,,,D*76
$GPVTG,196.44,T,,M,1.42,N,2.6,K,D*05
$GPGGA,195524.000,2940.8034,N,09524.7676,W,2,07,1.5,45.3,M,-23.7,M,1.8,0000*74
$GPGSA,A,3,24,22,30,31,11,20,32,,,,,,2.8,1.5,2.3*39
$GPRMC,195524.000,A,2940.8034,N,09524.7676,W,1.32,193.00,190411,,,D*7A
$GPVTG,193.00,T,,M,1.32,N,2.4,K,D*05
$GPGGA,195525.000,2940.8034,N,09524.7676,W,2,07,1.5,44.0,M,-23.7,M,1.8,0000*77
$GPGSA,A,3,24,22,30,31,11,20,32,,,,,,2.8,1.5,2.3*39
$GPRMC,195525.000,A,2940.8034,N,09524.7676,W,1.47,209.28,190411,,,D*73
$GPVTG,209.28,T,,M,1.47,N,2.7,K,D*0E
$GPGGA,195526.000,2940.8028,N,09524.7678,W,2,07,1.5,44.2,M,-23.7,M,2.8,0000*76
$GPGSA,A,3,24,22,30,31,11,20,32,,,,,,2.8,1.5,2.3*39
$GPRMC,195526.000,A,2940.8028,N,09524.7678,W,1.65,205.34,190411,,,D*72
$GPVTG,205.34,T,,M,1.65,N,3.1,K,D*08
$GPGGA,195527.000,2940.8032,N,09524.7673,W,2,07,1.5,43.5,M,-23.7,M,3.8,0000*76
$GPGSA,A,3,24,22,30,31,11,20,32,,,,,,2.8,1.5,2.3*39
$GPGSV,3,1,12,31,69,008,27,32,48,318,35,30,39,162,26,14,32,067,*74
$GPGSV,3,2,12,24,29,272,24,22,26,140,22,16,21,176,26,25,21,049,25*78
$GPGSV,3,3,12,20,20,317,19,11,16,256,19,23,07,289,,51,52,203,25*79
$GPRMC,195527.000,A,2940.8032,N,09524.7673,W,0.94,193.92,190411,,,D*7C
$GPVTG,193.92,T,,M,0.94,N,1.7,K,D*03
$GPGGA,195528.000,2940.8030,N,09524.7668,W,2,07,1.5,42.3,M,-23.7,M,4.8,0000*71
$GPGSA,A,3,24,22,30,31,11,20,32,,,,,,2.8,1.5,2.3*39
$GPRMC,195528.000,A,2940.8030,N,09524.7668,W,0.82,186.99,190411,,,D*73
$GPVTG,186.99,T,,M,0.82,N,1.5,K,D*09
$GPGGA,195529.000,2940.8029,N,09524.7664,W,2,07,1.5,42.1,M,-23.7,M,5.8,0000*77
$GPGSA,A,3,24,22,30,31,11,20,32,,,,,,2.8,1.5,2.3*39
$GPRMC,195529.000,A,2940.8029,N,09524.7664,W,0.81,180.31,190411,,,D*71
$GPVTG,180.31,T,,M,0.81,N,1.5,K,D*0E
$GPGGA,195530.000,2940.8032,N,09524.7658,W,2,07,1.5,39.9,M,-23.7,M,6.8,0000*7D
$GPGSA,A,3,24,22,30,31,11,20,32,,,,,,2.8,1.5,2.3*39
$GPRMC,195530.000,A,2940.8032,N,09524.7658,W,0.85,225.45,190411,,,D*77
$GPVTG,225.45,T,,M,0.85,N,1.6,K,D*06
$GPGGA,195531.000,2940.8039,N,09524.7652,W,2,07,1.5,38.4,M,-23.7,M,7.8,0000*70
$GPGSA,A,3,24,22,30,31,11,20,32,,,,,,2.8,1.5,2.3*39
$GPRMC,195531.000,A,2940.8039,N,09524.7652,W,0.28,33.23,190411,,,D*45
$GPVTG,33.23,T,,M,0.28,N,0.5,K,D*36
$GPGGA,195532.000,2940.8039,N,09524.7654,W,2,07,1.5,37.5,M,-23.7,M,8.8,0000*74
$GPGSA,A,3,24,22,30,31,11,20,32,,,,,,2.8,1.5,2.3*39
$GPGSV,3,1,11,31,69,008,24,32,48,318,30,30,39,162,25,14,32,067,*72
$GPGSV,3,2,11,24,29,272,21,22,26,140,24,16,21,176,26,25,21,049,28*75
$GPGSV,3,3,11,20,20,317,19,11,16,256,19,23,07,289,*4F
$GPRMC,195532.000,A,2940.8039,N,09524.7654,W,0.52,77.47,190411,,,D*4F
$GPVTG,77.47,T,,M,0.52,N,1.0,K,D*3D
$GPGGA,195533.000,2940.8038,N,09524.7649,W,2,07,1.5,35.2,M,-23.7,M,9.8,0000*7C
$GPGSA,A,3,24,22,30,31,11,20,32,,,,,,2.8,1.5,2.4*3E
$GPRMC,195533.000,A,2940.8038,N,09524.7649,W,0.62,90.44,190411,,,D*4A
$GPVTG,90.44,T,,M,0.62,N,1.1,K,D*35
$GPGGA,195534.000,2940.8032,N,09524.7645,W,2,07,1.5,36.7,M,-23.7,M,10.8,0000*43
$GPGSA,A,3,24,22,30,31,11,20,32,,,,,,2.8,1.5,2.4*3E
$GPRMC,195534.000,A,2940.8032,N,09524.7645,W,0.64,87.60,190411,,,D*4D
$GPVTG,87.60,T,,M,0.64,N,1.2,K,D*30
$GPGGA,195535.000,2940.8035,N,09524.7636,W,2,06,2.5,34.1,M,-23.7,M,11.8,0000*46
$GPGSA,A,3,24,22,30,31,11,32,,,,,,,4.8,2.5,4.1*3A
$GPRMC,195535.000,A,2940.8035,N,09524.7636,W,1.20,79.25,190411,,,D*4E
$GPVTG,79.25,T,,M,1.20,N,2.2,K,D*32
$GPGGA,195536.000,2940.8032,N,09524.7634,W,2,06,2.5,32.6,M,-23.7,M,12.8,0000*42
$GPGSA,A,3,24,22,30,31,11,32,,,,,,,4.8,2.5,4.1*3A
$GPRMC,195536.000,A,2940.8032,N,09524.7634,W,0.64,74.60,190411,,,D*45
$GPVTG,74.60,T,,M,0.64,N,1.2,K,D*3C
$GPGGA,195537.000,2940.8030,N,09524.7633,W,2,07,1.5,31.5,M,-23.7,M,13.8,0000*45
$GPGSA,A,3,24,22,30,31,11,20,32,,,,,,2.8,1.5,2.4*3E
$GPGSV,3,1,11,31,69,008,22,32,48,318,27,30,39,162,25,14,32,067,*72
$GPGSV,3,2,11,24,29,272,20,22,26,140,25,16,21,176,33,25,21,049,24*7D
$GPRMC,195537.000,A,2940.8030,N,09524.7633,W,0.33,242.22,190411,,,D*72
$GPVTG,242.22,T,,M,0.33,N,0.6,K,D*0A
$GPGGA,195538.000,2940.8024,N,09524.7643,W,2,07,1.5,30.9,M,-23.7,M,14.8,0000*42
$GPGSA,A,3,24,22,30,31,11,20,32,,,,,,2.8,1.5,2.4*3E
$GPRMC,195538.000,A,2940.8024,N,09524.7643,W,0.95,234.71,190411,,,D*74
