$ADVER,3080,2.3
$GPRMC,175604.851,A,3748.8012,N,12217.8629,W,0.01,68.82,300812,,,A*4D
$GPGGA,175605.851,3748.8012,N,12217.8628,W,1,06,1.7,9.8,M,-25.1,M,,0000*68
$GPGSA,A,3,28,26,01,15,11,17,,,,,,,2.9,1.7,2.3*33
$GPRMC,175605.851,A,3748.8012,N,12217.8628,W,0.09,251.74,300812,,,A*74
$GPVTG,251.74,T,,M,0.09,N,0.2,K,A*03
$GPGGA,175607.000,3748.8011,N,12217.8628,W,1,06,1.7,9.7,M,-25.1,M,,0000*6A
$GPGSA,A,3,28,26,01,15,11,17,,,,,,,2.9,1.7,2.3*33
$GPRMC,175607.000,A,3748.8011,N,12217.8628,W,0.08,240.40,300812,,,A*7F
$GPVTG,240.40,T,,M,0.08,N,0.2,K,A*05
$GPGGA,175608.000,3748.8011,N,12217.8628,W,1,06,1.7,9.5,M,-25.1,M,,0000*67
$GPGSA,A,3,28,26,01,15,11,17,,,,,,,2.9,1.7,2.3*33
$GPRMC,175608.000,A,3748.8011,N,12217.8628,W,0.08,252.27,300812,,,A*72
$GPVTG,252.27,T,,M,0.08,N,0.2,K,A*07
$GPGGA,175609.000,3748.8011,N,12217.8628,W,1,06,1.7,9.4,M,-25.1,M,,0000*67
$GPGSA,A,3,28,26,01,15,11,17,,,,,,,2.9,1.7,2.3*33
$GPRMC,175609.000,A,3748.8011,N,12217.8628,W,0.07,242.66,300812,,,A*78
$GPVTG,242.66,T,,M,0.07,N,0.1,K,A*0F
$GPGGA,175610.000,3748.8010,N,12217.8628,W,1,06,1.7,9.2,M,-25.1,M,,0000*68
$GPGSA,A,3,28,26,01,15,11,17,,,,,,,2.9,1.7,2.3*33
$GPGSV,3,1,11,28,65,016,41,17,64,180,44,26,54,255,44,15,29,302,40*70
$GPGSV,3,2,11,01,20,072,33,11,17,055,31,08,53,103,27,07,16,121,29*7A
$GPGSV,3,3,11,27,16,311,31,09,01,309,,48,00,000,43*43
$GPRMC,175610.000,A,3748.8010,N,12217.8628,W,0.08,249.03,300812,,,A*76
$GPVTG,249.03,T,,M,0.08,N,0.1,K,A*08
$GPGGA,175611.000,3748.8010,N,12217.8628,W,1,06,1.7,9.1,M,-25.1,M,,0000*6A
$GPGSA,A,3,28,26,01,15,11,17,,,,,,,2.9,1.7,2.3*33
$GPRMC,175611.000,A,3748.8010,N,12217.8628,W,0.08,254.93,300812,,,A*72
$GPVTG,254.93,T,,M,0.08,N,0.2,K,A*0E
$GPGGA,175612.000,3748.8010,N,12217.8628,W,1,06,1.7,8.9,M,-25.1,M,,0000*60
$GPGSA,A,3,28,26,01,15,11,17,,,,,,,2.9,1.7,2.3*33
$GPRMC,175612.000,A,3748.8010,N,12217.8628,W,0.07,244.10,300812,,,A*74
$GPVTG,244.10,T,,M,0.07,N,0.1,K,A*08
$GPGGA,175613.000,3748.8010,N,12217.8628,W,1,06,1.7,8.8,M,-25.1,M,,0000*60
$GPGSA,A,3,28,26,01,15,11,17,,,,,,,2.9,1.7,2.3*33
$GPRMC,175613.000,A,3748.8010,N,12217.8628,W,0.07,242.64,300812,,,A*70
$GPVTG,242.64,T,,M,0.07,N,0.1,K,A*0D
$GPGGA,175614.000,3748.8010,N,12217.8627,W,1,06,1.7,8.6,M,-25.1,M,,0000*66
$GPGSA,A,3,28,26,01,15,11,17,,,,,,,2.9,1.7,2.3*33
$GPRMC,175614.000,A,3748.8010,N,12217.8627,W,0.09,243.56,300812,,,A*76
$GPVTG,243.56,T,,M,0.09,N,0.2,K,A*00
$GPGGA,175615.000,3748.8009,N,12217.8627,W,1,06,1.7,8.5,M,-25.1,M,,0000*6C
$GPGSA,A,3,28,26,01,15,11,17,,,,,,,2.9,1.7,2.3*33
$GPGSV,3,1,11,28,65,016,41,17,64,180,44,26,54,255,44,15,29,302,40*70
$GPGSV,3,2,11,01,20,072,32,11,17,055,31,08,53,103,26,07,16,121,29*7A
$GPGSV,3,3,11,27,16,311,30,09,01,309,,48,00,000,44*45
$GPRMC,175615.000,A,3748.8009,N,12217.8627,W,0.06,244.65,300812,,,A*77
$GPVTG,244.65,T,,M,0.06,N,0.1,K,A*0B
$GPGGA,175616.000,3748.8009,N,12217.8627,W,1,06,1.7,8.3,M,-25.1,M,,0000*69
$GPGSA,A,3,28,26,01,15,11,17,,,,,,,2.9,1.7,2.3*33
$GPRMC,175616.000,A,3748.8009,N,12217.8627,W,0.08,247.62,300812,,,A*7E
$GPVTG,247.62,T,,M,0.08,N,0.2,K,A*02
$GPGGA,175617.000,3748.8009,N,12217.8627,W,1,06,1.7,8.2,M,-25.1,M,,0000*69
$GPGSA,A,3,28,26,01,15,11,17,,,,,,,2.9,1.7,2.3*33
$GPRMC,175617.000,A,3748.8009,N,12217.8627,W,0.07,249.43,300812,,,A*7D
$GPVTG,249.43,T,,M,0.07,N,0.1,K,A*03
$GPGGA,175618.000,3748.8009,N,12217.8627,W,1,06,1.7,8.0,M,-25.1,M,,0000*64
$GPGSA,A,3,28,26,01,15,11,17,,,,,,,2.9,1.7,2.3*33
$GPRMC,175618.000,A,3748.8009,N,12217.8627,W,0.08,236.24,300812,,,A*74
$GPVTG,236.24,T,,M,0.08,N,0.1,K,A*05
$GPGGA,175619.000,3748.8009,N,12217.8627,W,1,06,1.7,7.9,M,-25.1,M,,0000*63
$GPGSA,A,3,28,26,01,15,11,17,,,,,,,2.9,1.7,2.3*33
$GPRMC,175619.000,A,3748.8009,N,12217.8627,W,0.08,237.69,300812,,,A*7D
$GPVTG,237.69,T,,M,0.08,N,0.1,K,A*0D
$GPGGA,175620.000,3748.8008,N,12217.8626,W,1,06,1.7,7.8,M,-25.1,M,,0000*68
$GPGSA,A,3,28,26,01,15,11,17,,,,,,,2.9,1.7,2.3*33
$GPGSV,3,1,11,28,65,016,41,17,64,180,44,26,54,255,44,15,29,302,40*70
$GPGSV,3,2,11,01,20,072,32,11,17,055,32,08,53,103,26,07,16,121,29*79
$GPGSV,3,3,11,27,16,311,30,09,01,309,,48,00,000,44*45
$GPRMC,175620.000,A,3748.8008,N,12217.8626,W,0.07,242.51,300812,,,A*71
$GPVTG,242.51,T,,M,0.07,N,0.1,K,A*0B
$GPGGA,175621.000,3748.8008,N,12217.8626,W,1,06,1.7,7.7,M,-25.1,M,,0000*66
$GPGSA,A,3,28,26,01,15,11,17,,,,,,,2.9,1.7,2.3*33
$GPRMC,175621.000,A,3748.8008,N,12217.8626,W,0.07,246.02,300812,,,A*72
$GPVTG,246.02,T,,M,0.07,N,0.1,K,A*09
$GPGGA,175622.000,3748.8008,N,12217.8626,W,1,06,1.7,7.6,M,-25.1,M,,0000*64
$GPGSA,A,3,28,26,01,15,11,17,,,,,,,2.9,1.7,2.3*33
$GPRMC,175622.000,A,3748.8008,N,12217.8626,W,0.07,252.80,300812,,,A*7E
$GPVTG,252.80,T,,M,0.07,N,0.1,K,A*06
$GPGGA,175623.000,3748.8008,N,12217.8626,W,1,06,1.7,7.5,M,-25.1,M,,0000*66
$GPGSA,A,3,28,26,01,15,11,17,,,,,,,2.9,1.7,2.3*33
$GPRMC,175623.000,A,3748.8008,N,12217.8626,W,0.09,241.35,300812,,,A*7D
$GPVTG,241.35,T,,M,0.09,N,0.2,K,A*07
$GPGGA,175624.000,3748.8008,N,12217.8627,W,1,06,1.7,7.7,M,-25.1,M,,0000*62
$GPGSA,A,3,28,26,01,15,11,17,,,,,,,2.9,1.7,2.3*33
$GPRMC,175624.000,A,3748.8008,N,12217.8627,W,0.13,311.35,300812,,,A*74
$GPVTG,311.35,T,,M,0.13,N,0.2,K,A*08
$GPGGA,175625.000,3748.8007,N,12217.8627,W,1,06,1.7,7.8,M,-25.1,M,,0000*63
$GPGSA,A,3,28,26,01,15,11,17,,,,,,,2.9,1.7,2.3*33
$GPGSV,3,1,11,28,65,016,37,17,64,180,31,26,54,255,36,15,29,302,35*74
$GPGSV,3,2,11,01,20,072,27,11,17,055,30,08,53,103,26,07,16,121,34*73
$GPGSV,3,3,11,27,16,311,30,09,01,309,,48,00,000,27*40
$GPRMC,175625.000,A,3748.8007,N,12217.8627,W,1.05,17.19,300812,,,A*47
$GPVTG,17.19,T,,M,1.05,N,1.9,K,A*3F
$GPGGA,175626.000,3748.8008,N,12217.8628,W,1,06,1.7,8.1,M,-25.1,M,,0000*66
$GPGSA,A,3,28,26,01,15,11,17,,,,,,,2.9,1.7,2.3*33
$GPRMC,175626.000,A,3748.8008,N,12217.8628,W,0.39,344.76,300812,,,A*76
$GPVTG,344.76,T,,M,0.39,N,0.7,K,A*02
$GPGGA,175627.000,3748.8007,N,12217.8629,W,1,06,1.7,8.2,M,-25.1,M,,0000*6A
$GPGSA,A,3,28,26,01,15,11,17,,,,,,,2.9,1.7,2.3*33
$GPRMC,175627.000,A,3748.8007,N,12217.8629,W,0.40,194.10,300812,,,A*78
$GPVTG,194.10,T,,M,0.40,N,0.7,K,A*03
$GPGGA,175628.000,3748.7999,N,12217.8628,W,1,06,1.7,8.4,M,-25.1,M,,0000*63
$GPGSA,A,3,28,26,01,15,11,17,,,,,,,2.9,1.7,2.3*33
$GPRMC,175628.000,A,3748.7999,N,12217.8628,W,0.48,155.33,300812,,,A*73
$GPVTG,155.33,T,,M,0.48,N,0.9,K,A*09
$GPGGA,175629.000,3748.7992,N,12217.8627,W,1,06,1.7,8.5,M,-25.1,M,,0000*67
$GPGSA,A,3,28,26,01,15,11,17,,,,,,,2.9,1.7,2.3*33
$GPRMC,175629.000,A,3748.7992,N,12217.8627,W,0.49,158.56,300812,,,A*79
$GPVTG,158.56,T,,M,0.49,N,0.9,K,A*06
$GPGGA,175630.000,3748.7988,N,12217.8628,W,2,06,1.7,8.7,M,-25.1,M,,0000*6A
$GPGSA,A,3,28,26,01,15,11,17,,,,,,,2.9,1.7,2.3*33
$GPGSV,3,1,11,28,65,016,32,17,64,180,25,26,54,255,33,15,29,302,34*70
$GPGSV,3,2,11,01,20,072,19,11,17,055,27,08,53,103,23,07,16,121,25*7D
$GPGSV,3,3,11,27,16,311,29,09,01,309,,48,00,000,31*4F
$GPRMC,175630.000,A,3748.7988,N,12217.8628,W,0.30,187.44,300812,,,D*7F
$GPGGA,175631.000,3748.7985,N,12217.8629,W,2,06,1.7,8.9,M,-25.1,M,,0000*69
$GPGSA,A,3,28,26,01,15,11,17,,,,,,,2.9,1.7,2.3*33
$GPRMC,175631.000,A,3748.7985,N,12217.8629,W,0.30,236.21,300812,,,D*78
$GPVTG,236.21,T,,M,0.30,N,0.5,K,D*0A
$GPGGA,175632.000,3748.7982,N,12217.8630,W,2,06,1.7,9.0,M,-25.1,M,,0000*6D
$GPGSA,A,3,28,26,01,15,11,17,,,,,,,2.9,1.7,2.3*33
$GPRMC,175632.000,A,3748.7982,N,12217.8630,W,0.19,147.82,300812,,,D*73
$GPVTG,147.82,T,,M,0.19,N,0.4,K,D*0C
$GPGGA,175633.000,3748.7979,N,12217.8631,W,2,06,1.7,9.2,M,-25.1,M,1.8,0000*4C
$GPGSA,A,3,28,26,01,15,11,17,,,,,,,2.9,1.7,2.3*33
$GPRMC,175633.000,A,3748.7979,N,12217.8631,W,0.20,235.37,300812,,,D*75
$GPVTG,235.37,T,,M,0.20,N,0.4,K,D*0E
$GPGGA,175634.000,3748.7976,N,12217.8632,W,2,06,1.7,9.5,M,-25.1,M,2.8,0000*43
$GPGSA,A,3,28,26,01,15,11,17,,,,,,,2.9,1.7,2.3*33
$GPRMC,175634.000,A,3748.7976,N,12217.8632,W,0.25,248.22,300812,,,D*75
$GPVTG,248.22,T,,M,0.25,N,0.5,K,D*04
$GPGGA,175635.000,3748.7974,N,12217.8634,W,2,06,1.7,9.7,M,-25.1,M,3.8,0000*45
$GPGSA,A,3,28,26,01,15,11,17,,,,,,,2.9,1.7,2.3*33
$GPGSV,3,1,11,28,65,016,31,17,64,180,26,26,54,255,33,15,29,302,34*70
$GPGSV,3,2,11,01,20,072,20,11,17,055,27,08,53,103,21,07,16,121,25*75
$GPGSV,3,3,11,27,16,311,28,09,01,309,,48,00,000,31*4E
$GPRMC,175635.000,A,3748.7974,N,12217.8634,W,0.29,260.53,300812,,,D*70
$GPVTG,260.53,T,,M,0.29,N,0.5,K,D*04
$GPGGA,175636.000,3748.7972,N,12217.8635,W,2,06,1.7,9.9,M,-25.1,M,,0000*6A
$GPGSA,A,3,28,26,01,15,11,17,,,,,,,2.9,1.7,2.3*33
$GPRMC,175636.000,A,3748.7972,N,12217.8635,W,0.09,230.15,300812,,,D*71
$GPVTG,230.15,T,,M,0.09,N,0.2,K,D*06
$GPGGA,175637.000,3748.7971,N,12217.8637,W,2,06,1.7,10.1,M,-25.1,M,,0000*5A
$GPGSA,A,3,28,26,01,15,11,17,,,,,,,2.9,1.7,2.3*33
$GPRMC,175637.000,A,3748.7971,N,12217.8637,W,0.17,253.39,300812,,,D*75
$GPVTG,253.39,T,,M,0.17,N,0.3,K,D*03
$GPGGA,175638.000,3748.7969,N,12217.8638,W,2,06,1.7,10.3,M,-25.1,M,,0000*51
$GPGSA,A,3,28,26,01,15,11,17,,,,,,,2.9,1.7,2.3*33
$GPRMC,175638.000,A,3748.7969,N,12217.8638,W,0.08,236.96,300812,,,D*74
$GPVTG,236.96,T,,M,0.08,N,0.1,K,D*09
$GPGGA,175639.000,3748.7968,N,12217.8639,W,2,06,1.7,10.6,M,-25.1,M,,0000*55
$GPGSA,A,3,28,26,01,15,11,17,,,,,,,2.9,1.7,2.3*33
$GPRMC,175639.000,A,3748.7968,N,12217.8639,W,0.19,271.38,300812,,,D*72
$GPVTG,271.38,T,,M,0.19,N,0.3,K,D*0C
$GPGGA,175640.000,3748.7967,N,12217.8641,W,2,06,1.7,10.9,M,-25.1,M,2.8,0000*70
$GPGSA,A,3,28,26,01,15,11,17,,,,,,,2.9,1.7,2.3*33
$GPGSV,3,1,11,28,65,016,32,17,64,180,27,26,54,255,32,15,29,302,34*73
$GPGSV,3,2,11,01,20,072,21,11,17,055,28,08,53,103,21,07,16,121,26*78
$GPGSV,3,3,11,27,16,311,28,09,01,309,,48,00,000,32*4D
$GPRMC,175640.000,A,3748.7967,N,12217.8641,W,0.25,276.25,300812,,,D*78
$GPVTG,276.25,T,,M,0.25,N,0.5,K,D*0E
$GPGGA,175641.000,3748.7966,N,12217.8642,W,2,06,1.7,11.1,M,-25.1,M,3.8,0000*7B
$GPGSA,A,3,28,26,01,15,11,17,,,,,,,2.9,1.7,2.3*33
$GPRMC,175641.000,A,3748.7966,N,12217.8642,W,0.03,51.32,300812,,,D*4E
$GPVTG,51.32,T,,M,0.03,N,0.0,K,D*3E
$GPGGA,175642.000,3748.7965,N,12217.8643,W,2,06,1.7,11.3,M,-25.1,M,4.8,0000*7F
$GPGSA,A,3,28,26,01,15,11,17,,,,,,,2.9,1.7,2.3*33
$GPRMC,175642.000,A,3748.7965,N,12217.8643,W,0.05,297.84,300812,,,D*7C
$GPVTG,297.84,T,,M,0.05,N,0.1,K,D*0C
$GPGGA,175643.000,3748.7969,N,12217.8645,W,2,06,1.7,13.0,M,-25.1,M,5.8,0000*74
$GPGSA,A,3,28,26,01,15,11,17,,,,,,,2.9,1.7,2.3*33
$GPRMC,175643.000,A,3748.7969,N,12217.8645,W,0.91,151.77,300812,,,D*7F
$GPVTG,151.77,T,,M,0.91,N,1.7,K,D*03
$GPGGA,175644.000,3748.7970,N,12217.8647,W,2,06,1.7,14.5,M,-25.1,M,,0000*58
$GPGSA,A,3,28,26,01,15,11,17,,,,,,,2.9,1.7,2.3*33
$GPRMC,175644.000,A,3748.7970,N,12217.8647,W,0.67,152.15,300812,,,D*7C
$GPVTG,152.15,T,,M,0.67,N,1.2,K,D*08
$GPGGA,175645.000,3748.7967,N,12217.8641,W,2,06,1.7,12.9,M,-25.1,M,2.8,0000*77
$GPGSA,A,3,28,26,01,15,11,17,,,,,,,2.9,1.7,2.3*33
$GPGSV,3,1,11,28,65,016,26,17,64,180,28,26,54,255,27,15,29,302,21*79
$GPGSV,3,2,11,01,20,072,27,11,17,055,28,08,53,103,28,07,16,121,31*71
$GPGSV,3,3,11,27,16,311,22,09,01,309,19,48,00,000,32*4F
$GPVTG,106.85,T,,M,0.89,N,1.6,K,D*04
$GPGGA,175646.000,3748.7964,N,12217.8628,W,2,06,1.7,13.6,M,-25.1,M,3.8,0000*77
$GPGSA,A,3,28,26,01,15,11,17,,,,,,,2.9,1.7,2.3*33
$GPRMC,175646.000,A,3748.7964,N,12217.8628,W,1.70,105.42,300812,,,D*75
$GPVTG,105.42,T,,M,1.70,N,3.2,K,D*0D
$GPGGA,175647.000,3748.7967,N,12217.8619,W,2,06,1.7,13.3,M,-25.1,M,4.8,0000*75
$GPGSA,A,3,28,26,01,15,11,17,,,,,,,2.9,1.7,2.3*33
$GPRMC,175647.000,A,3748.7967,N,12217.8619,W,1.50,114.80,300812,,,D*79
$GPVTG,114.80,T,,M,1.50,N,2.8,K,D*0A
$GPGGA,175648.000,3748.7969,N,12217.8612,W,2,06,1.7,12.8,M,-25.1,M,5.8,0000*74
$GPGSA,A,3,28,26,01,15,11,17,,,,,,,2.9,1.7,2.3*33
$GPRMC,175648.000,A,3748.7969,N,12217.8612,W,1.74,113.27,300812,,,D*7F
$GPVTG,113.27,T,,M,1.74,N,3.2,K,D*0D
$GPGGA,175649.000,3748.7971,N,12217.8607,W,2,06,1.7,13.0,M,-25.1,M,6.8,0000*72
$GPGSA,A,3,28,26,01,15,11,17,,,,,,,2.9,1.7,2.3*33
$GPRMC,175649.000,A,3748.7971,N,12217.8607,W,1.24,116.92,300812,,,D*7D
$GPVTG,116.92,T,,M,1.24,N,2.3,K,D*03
$GPGGA,175650.000,3748.7967,N,12217.8598,W,2,06,1.7,12.6,M,-25.1,M,,0000*5F
$GPGSA,A,3,28,26,01,15,11,17,,,,,,,2.9,1.7,2.3*33
$GPGSV,3,1,11,28,65,016,37,17,64,180,35,26,54,255,25,15,29,302,26*70
$GPGSV,3,2,11,01,20,072,31,11,17,055,32,08,53,103,36,07,16,121,32*71
$GPGSV,3,3,11,27,16,311,24,09,01,309,15,48,00,000,36*41
$GPRMC,175650.000,A,3748.7967,N,12217.8598,W,2.06,122.88,300812,,,D*78
$GPVTG,122.88,T,,M,2.06,N,3.8,K,D*06
$GPGGA,175651.000,3748.7964,N,12217.8591,W,2,06,1.7,11.9,M,-25.1,M,2.8,0000*7C
$GPGSA,A,3,28,26,01,15,11,17,,,,,,,2.9,1.7,2.3*33
$GPRMC,175651.000,A,3748.7964,N,12217.8591,W,2.10,121.89,300812,,,D*76
$GPVTG,121.89,T,,M,2.10,N,3.9,K,D*02
$GPGGA,175652.000,3748.7967,N,12217.8583,W,2,06,1.7,12.3,M,-25.1,M,3.8,0000*77
$GPGSA,A,3,28,26,01,15,11,17,,,,,,,2.9,1.7,2.3*33
$GPRMC,175652.000,A,3748.7967,N,12217.8583,W,2.49,102.93,300812,,,D*73
$GPVTG,102.93,T,,M,2.49,N,4.6,K,D*0C
$GPGGA,175653.000,3748.7968,N,12217.8571,W,2,06,1.7,12.6,M,-25.1,M,4.8,0000*76
$GPGSA,A,3,28,26,01,15,11,17,,,,,,,2.9,1.7,2.3*33
$GPRMC,175653.000,A,3748.7968,N,12217.8571,W,2.20,114.60,300812,,,D*74
$GPVTG,114.60,T,,M,2.20,N,4.1,K,D*0F
$GPGGA,175654.000,3748.7968,N,12217.8561,W,2,06,1.7,13.9,M,-25.1,M,5.8,0000*7F
$GPGSA,A,3,28,26,01,15,11,17,,,,,,,2.9,1.7,2.3*33
$GPRMC,175654.000,A,3748.7968,N,12217.8561,W,1.87,123.42,300812,,,D*78
$GPVTG,123.42,T,,M,1.87,N,3.5,K,D*06
$GPGGA,175655.000,3748.7973,N,12217.8552,W,2,06,1.7,15.5,M,-25.1,M,6.8,0000*7D
$GPGSA,A,3,28,26,01,15,11,17,,,,,,,2.9,1.7,2.3*33
$GPGSV,3,1,11,28,65,016,23,17,64,180,28,26,54,255,32,15,29,302,27*7E
$GPGSV,3,2,11,01,20,072,22,11,17,055,27,08,53,103,31,07,16,121,30*72
$GPGSV,3,3,11,27,16,311,25,09,01,309,,48,00,000,30*42
$GPRMC,175655.000,A,3748.7973,N,12217.8552,W,2.98,118.53,300812,,,D*76
$GPVTG,118.53,T,,M,2.98,N,5.5,K,D*05
$GPGGA,175656.000,3748.7970,N,12217.8548,W,2,06,1.7,16.0,M,-25.1,M,7.8,0000*71
$GPGSA,A,3,28,26,01,15,11,17,,,,,,,2.9,1.7,2.3*33
$GPRMC,175656.000,A,3748.7970,N,12217.8548,W,2.62,134.64,300812,,,D*72
$GPVTG,134.64,T,,M,2.62,N,4.8,K,D*06
$GPGGA,175657.000,3748.7966,N,12217.8542,W,2,06,1.7,15.8,M,-25.1,M,8.8,0000*79
$GPGSA,A,3,28,26,01,15,11,17,,,,,,,2.9,1.7,2.3*33
$GPRMC,175657.000,A,3748.7966,N,12217.8542,W,2.14,125.04,300812,,,D*79
$GPVTG,125.04,T,,M,2.14,N,4.0,K,D*09
$GPGGA,175658.000,3748.7961,N,12217.8531,W,2,06,1.7,16.3,M,-25.1,M,9.8,0000*7C
$GPGSA,A,3,28,26,01,15,11,17,,,,,,,2.9,1.7,2.3*33
$GPRMC,175658.000,A,3748.7961,N,12217.8531,W,1.43,125.58,300812,,,D*7D
$GPVTG,125.58,T,,M,1.43,N,2.7,K,D*00
$GPGGA,175659.000,3748.7956,N,12217.8528,W,2,06,1.7,15.8,M,-25.1,M,10.8,0000*41
$GPGSA,A,3,28,26,01,15,11,17,,,,,,,2.9,1.7,2.3*33
$GPRMC,175659.000,A,3748.7956,N,12217.8528,W,2.15,166.41,300812,,,D*7F
$GPVTG,166.41,T,,M,2.15,N,4.0,K,D*0E
$GPGGA,175700.000,3748.7954,N,12217.8525,W,2,06,1.7,15.8,M,-25.1,M,11.8,0000*42
$GPGSA,A,3,28,26,01,15,11,17,,,,,,,2.9,1.7,2.3*33
$GPGSV,3,1,11,28,65,016,29,17,64,180,29,26,54,255,25,15,29,302,28*7C
$GPGSV,3,2,11,01,20,072,19,11,17,055,21,08,53,103,31,07,16,121,29*74
$GPGSV,3,3,11,27,16,311,32,09,01,309,23,48,00,000,28*4C
$GPVTG,132.22,T,,M,1.85,N,3.4,K,D*03
$GPGGA,175701.000,3748.7955,N,12217.8523,W,2,06,1.7,16.2,M,-25.1,M,12.8,0000*4E
$GPGSA,A,3,28,26,01,15,11,17,,,,,,,2.9,1.7,2.3*33
$GPRMC,175701.000,A,3748.7955,N,12217.8523,W,2.17,120.61,300812,,,D*79
$GPVTG,120.61,T,,M,2.17,N,4.0,K,D*0C
$GPGGA,175702.000,3748.7956,N,12217.8522,W,2,06,1.7,17.2,M,-25.1,M,13.8,0000*4F
$GPGSA,A,3,28,26,01,15,11,17,,,,,,,2.9,1.7,2.3*33
$GPRMC,175702.000,A,3748.7956,N,12217.8522,W,2.37,124.95,300812,,,D*75
$GPVTG,124.95,T,,M,2.37,N,4.4,K,D*05
$GPGGA,175703.000,3748.7955,N,12217.8518,W,2,06,1.7,17.5,M,-25.1,M,14.8,0000*44
$GPGSA,A,3,28,26,01,15,11,17,,,,,,,2.9,1.7,2.3*33
$GPRMC,175703.000,A,3748.7955,N,12217.8518,W,2.01,123.32,300812,,,D*71
$GPVTG,123.32,T,,M,2.01,N,3.7,K,D*0E
$GPGGA,175704.000,3748.7949,N,12217.8514,W,2,05,1.7,17.5,M,-25.1,M,15.8,0000*40
$GPGSA,A,3,28,26,01,15,17,,,,,,,,3.0,1.7,2.4*3C
$GPRMC,175704.000,A,3748.7949,N,12217.8514,W,2.67,144.21,300812,,,D*74
$GPVTG,144.21,T,,M,2.67,N,4.9,K,D*04
$GPGGA,175705.000,3748.7934,N,12217.8506,W,2,05,1.7,16.9,M,-25.1,M,16.8,0000*46
$GPGSA,A,3,28,26,01,15,17,,,,,,,,3.0,1.7,2.4*3C
$GPGSV,3,1,10,28,65,016,20,17,64,180,24,26,54,255,26,15,29,302,38*7B
$GPGSV,3,2,10,01,20,072,14,11,17,055,10,08,53,103,23,07,16,121,18*7B
$GPGSV,3,3,10,27,16,311,29,09,01,309,27*75
$GPRMC,175705.000,A,3748.7934,N,12217.8506,W,2.07,151.76,300812,,,D*7C
$GPVTG,151.76,T,,M,2.07,N,3.8,K,D*02
$GPGGA,175706.000,3748.7935,N,12217.8499,W,2,05,1.7,17.4,M,-25.1,M,17.8,0000*4E
$GPGSA,A,3,28,26,01,15,17,,,,,,,,3.0,1.7,2.4*3C
$GPRMC,175706.000,A,3748.7935,N,12217.8499,W,1.90,138.99,300812,,,D*7A
$GPVTG,138.99,T,,M,1.90,N,3.5,K,D*0C
$GPGGA,175707.000,3748.7937,N,12217.8493,W,1,05,2.3,18.4,M,-25.1,M,,0000*5C
$GPGSA,A,3,28,26,01,11,17,,,,,,,,3.8,2.3,3.0*32
$GPRMC,175707.000,A,3748.7937,N,12217.8493,W,1.33,153.41,300812,,,A*77
$GPVTG,153.41,T,,M,1.33,N,2.5,K,A*09
$GPGGA,175708.000,3748.7940,N,12217.8481,W,1,05,2.3,18.1,M,-25.1,M,,0000*55
$GPGSA,A,3,28,26,01,11,17,,,,,,,,3.8,2.3,3.0*32
$GPRMC,175708.000,A,3748.7940,N,12217.8481,W,2.21,85.01,300812,,,A*45
$GPVTG,85.01,T,,M,2.21,N,4.1,K,A*35
$GPGGA,175709.000,3748.7945,N,12217.8469,W,1,06,1.7,18.2,M,-25.1,M,,0000*50
$GPGSA,A,3,28,26,01,15,11,17,,,,,,,2.9,1.7,2.3*33
$GPRMC,175709.000,A,3748.7945,N,12217.8469,W,2.44,98.38,300812,,,A*42
$GPVTG,98.38,T,,M,2.44,N,4.5,K,A*34
$GPGGA,175710.000,3748.7935,N,12217.8457,W,1,06,1.7,15.7,M,-25.1,M,,0000*5A
$GPGSA,A,3,28,26,01,15,11,17,,,,,,,2.9,1.7,2.3*33
$GPGSV,3,1,11,28,65,016,25,17,64,180,29,26,54,255,30,15,29,302,24*78
$GPGSV,3,2,11,01,20,072,31,11,17,055,28,08,53,103,33,07,16,121,35*78
$GPGSV,3,3,11,27,16,311,23,09,01,309,17,51,00,000,38*42
$GPRMC,175710.000,A,3748.7935,N,12217.8457,W,2.81,116.40,300812,,,A*71
$GPVTG,116.40,T,,M,2.81,N,5.2,K,A*03
$GPGGA,175711.000,3748.7925,N,12217.8446,W,1,06,1.7,12.9,M,-25.1,M,,0000*53
$GPGSA,A,3,28,26,01,15,11,17,,,,,,,2.9,1.7,2.3*33
$GPRMC,175711.000,A,3748.7925,N,12217.8446,W,2.11,122.39,300812,,,A*71
$GPVTG,122.39,T,,M,2.11,N,3.9,K,A*0E
$GPGGA,175712.000,3748.7921,N,12217.8437,W,1,06,1.7,11.8,M,-25.1,M,,0000*50
$GPGSA,A,3,28,26,01,15,11,17,,,,,,,2.9,1.7,2.3*33
$GPRMC,175712.000,A,3748.7921,N,12217.8437,W,1.49,119.88,300812,,,A*7C
$GPVTG,119.88,T,,M,1.49,N,2.8,K,A*02
$GPGGA,175713.000,3748.7916,N,12217.8431,W,2,06,1.7,11.1,M,-25.1,M,,0000*59
$GPGSA,A,3,28,26,01,15,11,17,,,,,,,2.9,1.7,2.3*33
$GPRMC,175713.000,A,3748.7916,N,12217.8431,W,2.13,113.61,300812,,,D*7B
$GPVTG,113.61,T,,M,2.13,N,3.9,K,D*06
$GPGGA,175714.000,3748.7909,N,12217.8423,W,2,06,1.7,10.2,M,-25.1,M,2.8,0000*75
$GPGSA,A,3,28,26,01,15,11,17,,,,,,,2.9,1.7,2.3*33
$GPRMC,175714.000,A,3748.7909,N,12217.8423,W,2.42,114.88,300812,,,D*75
$GPVTG,114.88,T,,M,2.42,N,4.5,K,D*09
$GPGGA,175715.000,3748.7902,N,12217.8421,W,2,06,1.7,7.7,M,-25.1,M,3.8,0000*4F
$GPGSA,A,3,28,26,01,15,11,17,,,,,,,2.9,1.7,2.3*33
$GPGSV,3,1,11,28,65,016,20,17,64,180,30,26,54,255,28,15,29,302,24*7C
$GPGSV,3,2,11,01,20,072,26,11,17,055,26,08,53,103,29,07,16,121,28*77
$GPGSV,3,3,11,27,16,311,21,09,01,309,16,51,00,000,25*4D
$GPVTG,135.68,T,,M,1.79,N,3.3,K,D*0E
$GPGGA,175716.000,3748.7889,N,12217.8417,W,2,06,1.7,5.3,M,-25.1,M,4.8,0000*4A
$GPGSA,A,3,28,26,01,15,11,17,,,,,,,2.9,1.7,2.3*33
$GPRMC,175716.000,A,3748.7889,N,12217.8417,W,2.96,154.06,300812,,,D*72
$GPVTG,154.06,T,,M,2.96,N,5.5,K,D*03
$GPGGA,175717.000,3748.7875,N,12217.8400,W,2,06,1.7,4.7,M,-25.1,M,5.8,0000*4A
$GPGSA,A,3,28,26,01,15,11,17,,,,,,,2.9,1.7,2.3*33
$GPRMC,175717.000,A,3748.7875,N,12217.8400,W,3.18,131.68,300812,,,D*7A
$GPVTG,131.68,T,,M,3.18,N,5.9,K,D*03
$GPGGA,175718.000,3748.7873,N,12217.8388,W,2,06,1.7,5.2,M,-25.1,M,6.8,0000*43
$GPGSA,A,3,28,26,01,15,11,17,,,,,,,2.9,1.7,2.3*33
$GPRMC,175718.000,A,3748.7873,N,12217.8388,W,1.81,130.77,300812,,,D*79
$GPVTG,130.77,T,,M,1.81,N,3.4,K,D*05
$GPGGA,175719.000,3748.7871,N,12217.8378,W,2,06,1.7,5.6,M,-25.1,M,,0000*6B
$GPGSA,A,3,28,26,01,15,11,17,,,,,,,2.9,1.7,2.3*33
$GPRMC,175719.000,A,3748.7871,N,12217.8378,W,1.81,127.61,300812,,,D*74
$GPVTG,127.61,T,,M,1.81,N,3.3,K,D*03
$GPGGA,175720.000,3748.7868,N,12217.8371,W,2,06,1.7,5.4,M,-25.1,M,,0000*62
$GPGSA,A,3,28,26,01,15,11,17,,,,,,,2.9,1.7,2.3*33
$GPGSV,3,1,11,28,65,016,28,17,64,180,36,26,54,255,32,15,29,302,24*79
$GPGSV,3,2,11,01,20,072,30,11,17,055,30,08,53,103,39,07,16,121,31*7E
$GPGSV,3,3,11,27,16,311,21,09,01,309,16,51,00,000,40*4E
$GPRMC,175720.000,A,3748.7868,N,12217.8371,W,1.40,132.53,300812,,,D*77
$GPVTG,132.53,T,,M,1.40,N,2.6,K,D*0F
$GPGGA,175721.000,3748.7866,N,12217.8360,W,2,06,1.7,6.3,M,-25.1,M,,0000*69
$GPGSA,A,3,28,26,01,15,11,17,,,,,,,2.9,1.7,2.3*33
$GPRMC,175721.000,A,3748.7866,N,12217.8360,W,2.58,124.08,300812,,,D*7B
$GPVTG,124.08,T,,M,2.58,N,4.8,K,D*04
$GPGGA,175722.000,3748.7863,N,12217.8349,W,2,06,1.7,7.0,M,-25.1,M,2.8,0000*42
$GPGSA,A,3,28,26,01,15,11,17,,,,,,,2.9,1.7,2.3*33
$GPRMC,175722.000,A,3748.7863,N,12217.8349,W,2.68,117.14,300812,,,D*78
$GPVTG,117.14,T,,M,2.68,N,5.0,K,D*03
$GPGGA,175723.000,3748.7849,N,12217.8335,W,2,06,1.7,6.3,M,-25.1,M,3.8,0000*43
$GPGSA,A,3,28,26,01,15,11,17,,,,,,,2.9,1.7,2.3*33
$GPRMC,175723.000,A,3748.7849,N,12217.8335,W,2.64,114.78,300812,,,D*7F
$GPVTG,114.78,T,,M,2.64,N,4.9,K,D*0E
$GPGGA,175724.000,3748.7840,N,12217.8324,W,2,06,1.7,6.5,M,-25.1,M,,0000*6E
$GPGSA,A,3,28,26,01,15,11,17,,,,,,,2.9,1.7,2.3*33
$GPRMC,175724.000,A,3748.7840,N,12217.8324,W,2.94,99.14,300812,,,D*40
$GPVTG,99.14,T,,M,2.94,N,5.4,K,D*33
$GPGGA,175725.000,3748.7834,N,12217.8307,W,2,06,1.7,8.1,M,-25.1,M,2.8,0000*43
$GPGSA,A,3,28,26,01,15,11,17,,,,,,,2.9,1.7,2.3*33
$GPGSV,3,1,11,28,65,016,24,17,64,180,34,26,54,255,30,15,29,302,24*75
$GPGSV,3,2,11,01,20,072,19,11,17,055,20,08,53,103,36,07,16,121,34*7E
$GPGSV,3,3,11,27,16,311,21,09,01,309,17,51,00,000,36*4E
$GPRMC,175725.000,A,3748.7834,N,12217.8307,W,3.27,92.55,300812,,,D*44
$GPVTG,92.55,T,,M,3.27,N,6.1,K,D*32
$GPGGA,175726.000,3748.7838,N,12217.8296,W,2,06,1.7,9.9,M,-25.1,M,,0000*68
$GPGSA,A,3,28,26,01,15,11,17,,,,,,,2.9,1.7,2.3*33
$GPRMC,175726.000,A,3748.7838,N,12217.8296,W,2.37,94.21,300812,,,D*47
$GPVTG,94.21,T,,M,2.37,N,4.4,K,D*30
$GPGGA,175727.000,3748.7836,N,12217.8287,W,2,06,1.7,10.7,M,-25.1,M,,0000*51
$GPGSA,A,3,28,26,01,15,11,17,,,,,,,2.9,1.7,2.3*33
$GPRMC,175727.000,A,3748.7836,N,12217.8287,W,2.09,111.07,300812,,,D*7D
$GPVTG,111.07,T,,M,2.09,N,3.9,K,D*0F
$GPGGA,175728.000,3748.7830,N,12217.8282,W,2,06,1.7,10.9,M,-25.1,M,2.8,0000*77
$GPGSA,A,3,28,26,01,15,11,17,,,,,,,2.9,1.7,2.3*33
$GPRMC,175728.000,A,3748.7830,N,12217.8282,W,1.99,106.26,300812,,,D*7E
$GPVTG,106.26,T,,M,1.99,N,3.7,K,D*0E
$GPGGA,175729.000,3748.7833,N,12217.8276,W,2,06,1.7,11.8,M,-25.1,M,3.8,0000*7F
$GPGSA,A,3,28,26,01,15,11,17,,,,,,,2.9,1.7,2.3*33
$GPRMC,175729.000,A,3748.7833,N,12217.8276,W,1.26,70.89,300812,,,D*46
$GPVTG,70.89,T,,M,1.26,N,2.3,K,D*3A
$GPGGA,175730.000,3748.7837,N,12217.8271,W,2,06,1.7,13.1,M,-25.1,M,4.8,0000*78
$GPGSA,A,3,28,26,01,15,11,17,,,,,,,2.9,1.7,2.3*33
$GPGSV,3,1,11,28,65,016,25,17,64,180,31,26,54,255,25,15,29,302,24*75
$GPGSV,3,2,11,01,20,072,26,11,17,055,21,08,53,103,33,07,16,121,32*70
$GPGSV,3,3,11,27,16,311,21,09,01,309,17,51,00,000,37*4F
$GPVTG,52.25,T,,M,1.19,N,2.2,K,D*31
$GPGGA,175731.000,3748.7840,N,12217.8267,W,2,06,1.7,15.1,M,-25.1,M,,0000*5A
$GPGSA,A,3,28,26,01,15,11,17,,,,,,,2.9,1.7,2.3*33
$GPRMC,175731.000,A,3748.7840,N,12217.8267,W,1.05,40.77,300812,,,D*48
$GPVTG,40.77,T,,M,1.05,N,2.0,K,D*3A
$GPGGA,175732.000,3748.7837,N,12217.8260,W,2,06,1.7,15.5,M,-25.1,M,,0000*5A
$GPGSA,A,3,28,26,01,15,11,17,,,,,,,2.9,1.7,2.3*33
$GPRMC,175732.000,A,3748.7837,N,12217.8260,W,1.86,99.53,300812,,,D*45
$GPVTG,99.53,T,,M,1.86,N,3.4,K,D*36
$GPGGA,175733.000,3748.7830,N,12217.8255,W,2,06,1.7,15.3,M,-25.1,M,,0000*5C
$GPGSA,A,3,28,26,01,15,11,17,,,,,,,2.9,1.7,2.3*33
$GPRMC,175733.000,A,3748.7830,N,12217.8255,W,2.18,111.14,300812,,,D*73
$GPVTG,111.14,T,,M,2.18,N,4.0,K,D*03
$GPGGA,175734.000,3748.7827,N,12217.8250,W,2,06,1.7,16.6,M,-25.1,M,,0000*5E
$GPGSA,A,3,28,26,01,15,11,17,,,,,,,2.9,1.7,2.3*33
$GPRMC,175734.000,A,3748.7827,N,12217.8250,W,1.98,111.37,300812,,,D*7D
$GPVTG,111.37,T,,M,1.98,N,3.7,K,D*09
$GPGGA,175735.000,3748.7820,N,12217.8244,W,2,06,1.7,16.5,M,-25.1,M,,0000*5E
$GPGSA,A,3,28,26,01,15,11,17,,,,,,,2.9,1.7,2.3*33
$GPGSV,3,1,11,28,65,016,27,17,64,180,34,26,54,255,33,15,29,302,24*75
$GPGSV,3,2,11,01,20,072,25,11,17,055,21,08,53,103,34,07,16,121,38*7E
$GPGSV,3,3,11,27,16,311,22,09,01,309,17,51,00,000,40*4C
$GPRMC,175735.000,A,3748.7820,N,12217.8244,W,1.93,110.30,300812,,,D*73
$GPVTG,110.30,T,,M,1.93,N,3.6,K,D*05
$GPGGA,175736.000,3748.7813,N,12217.8236,W,2,06,1.7,15.6,M,-25.1,M,2.8,0000*7C
$GPGSA,A,3,28,26,01,15,11,17,,,,,,,2.9,1.7,2.3*33
$GPRMC,175736.000,A,3748.7813,N,12217.8236,W,2.53,104.14,300812,,,D*79
$GPVTG,104.14,T,,M,2.53,N,4.7,K,D*0F
$GPGGA,175737.000,3748.7811,N,12217.8230,W,2,06,1.7,17.2,M,-25.1,M,,0000*5B
$GPGSA,A,3,28,26,01,15,11,17,,,,,,,2.9,1.7,2.3*33
$GPRMC,175737.000,A,3748.7811,N,12217.8230,W,1.99,109.04,300812,,,D*75
$GPVTG,109.04,T,,M,1.99,N,3.7,K,D*01
$GPGGA,175738.000,3748.7805,N,12217.8221,W,2,06,1.7,17.5,M,-25.1,M,2.8,0000*72
$GPGSA,A,3,28,26,01,15,11,17,,,,,,,2.9,1.7,2.3*33
$GPRMC,175738.000,A,3748.7805,N,12217.8221,W,2.60,117.04,300812,,,D*75
$GPVTG,117.04,T,,M,2.60,N,4.8,K,D*03
$GPGGA,175739.000,3748.7799,N,12217.8214,W,2,06,1.7,17.2,M,-25.1,M,,0000*5C
$GPGSA,A,3,28,26,01,15,11,17,,,,,,,2.9,1.7,2.3*33
$GPRMC,175739.000,A,3748.7799,N,12217.8214,W,2.79,116.20,300812,,,D*77
$GPVTG,116.20,T,,M,2.79,N,5.2,K,D*07
$GPGGA,175740.000,3748.7793,N,12217.8206,W,2,06,1.7,16.9,M,-25.1,M,2.8,0000*75
$GPGSA,A,3,28,26,01,15,11,17,,,,,,,2.9,1.7,2.3*33
$GPGSV,3,1,11,28,65,016,27,17,64,180,34,26,54,255,33,15,29,302,24*75
$GPGSV,3,2,11,01,20,072,29,11,17,055,22,08,53,103,35,07,16,121,32*7A
$GPGSV,3,3,11,27,16,311,22,09,01,309,17,51,00,000,39*42
$GPRMC,175740.000,A,3748.7793,N,12217.8206,W,2.88,122.70,300812,,,D*7C
$GPVTG,122.70,T,,M,2.88,N,5.3,K,D*0A
$GPGGA,175741.000,3748.7779,N,12217.8182,W,2,06,1.7,21.4,M,-25.1,M,3.8,0000*77
$GPGSA,A,3,28,26,01,15,11,17,,,,,,,2.9,1.7,2.3*33
$GPRMC,175741.000,A,3748.7779,N,12217.8182,W,3.38,121.18,300812,,,D*71
$GPVTG,121.18,T,,M,3.38,N,6.3,K,D*0E
$GPGGA,175742.000,3748.7771,N,12217.8173,W,2,06,1.7,21.5,M,-25.1,M,4.8,0000*74
$GPGSA,A,3,28,26,01,15,11,17,,,,,,,2.9,1.7,2.3*33
$GPRMC,175742.000,A,3748.7771,N,12217.8173,W,3.34,114.39,300812,,,D*7D
$GPVTG,114.39,T,,M,3.34,N,6.2,K,D*06
$GPGGA,175743.000,3748.7765,N,12217.8157,W,2,06,1.7,23.0,M,-25.1,M,,0000*53
$GPGSA,A,3,28,26,01,15,11,17,,,,,,,2.9,1.7,2.3*33
$GPRMC,175743.000,A,3748.7765,N,12217.8157,W,2.79,104.23,300812,,,D*7D
$GPVTG,104.23,T,,M,2.79,N,5.2,K,D*07
$GPGGA,175744.000,3748.7765,N,12217.8152,W,2,06,1.7,22.2,M,-25.1,M,,0000*52
$GPGSA,A,3,28,26,01,15,11,17,,,,,,,2.9,1.7,2.3*33
$GPRMC,175744.000,A,3748.7765,N,12217.8152,W,2.46,103.42,300812,,,D*73
$GPVTG,103.42,T,,M,2.46,N,4.5,K,D*0D
$GPGGA,175745.000,3748.7762,N,12217.8144,W,2,06,1.7,21.6,M,-25.1,M,,0000*54
$GPGSA,A,3,28,26,01,15,11,17,,,,,,,2.9,1.7,2.3*33
$GPGSV,3,1,11,28,65,016,28,17,64,180,36,26,54,255,34,15,29,302,24*7F
$GPGSV,3,2,11,01,20,072,22,11,17,055,22,08,53,103,36,07,16,121,34*74
$GPGSV,3,3,11,27,16,311,22,09,01,309,17,51,00,000,38*43
$GPVTG,115.63,T,,M,2.42,N,4.5,K,D*0D
$GPGGA,175746.000,3748.7757,N,12217.8132,W,2,06,1.7,19.6,M,-25.1,M,,0000*5B
$GPGSA,A,3,28,26,01,15,11,17,,,,,,,2.9,1.7,2.3*33
$GPRMC,175746.000,A,3748.7757,N,12217.8132,W,2.71,113.72,300812,,,D*70
$GPVTG,113.72,T,,M,2.71,N,5.0,K,D*0F
$GPGGA,175747.000,3748.7751,N,12217.8121,W,2,06,1.7,17.5,M,-25.1,M,2.8,0000*77
$GPGSA,A,3,28,26,01,15,11,17,,,,,,,2.9,1.7,2.3*33
$GPRMC,175747.000,A,3748.7751,N,12217.8121,W,2.41,117.38,300812,,,D*7C
$GPVTG,117.38,T,,M,2.41,N,4.5,K,D*02
$GPGGA,175748.000,3748.7744,N,12217.8111,W,2,06,1.7,15.8,M,-25.1,M,3.8,0000*71
$GPGSA,A,3,28,26,01,15,11,17,,,,,,,2.9,1.7,2.3*33
$GPRMC,175748.000,A,3748.7744,N,12217.8111,W,2.71,121.96,300812,,,D*76
$GPVTG,121.96,T,,M,2.71,N,5.0,K,D*04
$GPGGA,175749.000,3748.7740,N,12217.8103,W,2,06,1.7,15.1,M,-25.1,M,,0000*5B
$GPGSA,A,3,28,26,01,15,11,17,,,,,,,2.9,1.7,2.3*33
$GPRMC,175749.000,A,3748.7740,N,12217.8103,W,2.45,112.69,300812,,,D*77
$GPVTG,112.69,T,,M,2.45,N,4.5,K,D*07
$GPGGA,175750.000,3748.7738,N,12217.8100,W,2,06,1.7,13.9,M,-25.1,M,,0000*51
$GPGSA,A,3,28,26,01,15,11,17,,,,,,,2.9,1.7,2.3*33
$GPGSV,3,1,11,17,65,179,36,28,64,017,29,26,53,253,35,08,53,104,36*7F
$GPGSV,3,2,11,15,29,301,24,01,20,072,22,11,17,054,22,27,16,311,24*75
$GPGSV,3,3,11,07,16,122,33,09,02,309,17,51,43,156,39*44
$GPRMC,175750.000,A,3748.7738,N,12217.8100,W,2.21,101.57,300812,,,D*7E
$GPVTG,101.57,T,,M,2.21,N,4.1,K,D*0E
$GPGGA,175751.000,3748.7737,N,12217.8089,W,2,06,1.7,16.2,M,-25.1,M,,0000*51
$GPGSA,A,3,28,26,01,15,11,17,,,,,,,2.9,1.7,2.3*33
$GPRMC,175751.000,A,3748.7737,N,12217.8089,W,2.12,96.06,300812,,,D*4B
$GPVTG,96.06,T,,M,2.12,N,3.9,K,D*3A
$GPGGA,175752.000,3748.7735,N,12217.8089,W,2,06,1.7,16.1,M,-25.1,M,2.8,0000*77
$GPGSA,A,3,28,26,01,15,11,17,,,,,,,2.9,1.7,2.3*33
$GPRMC,175752.000,A,3748.7735,N,12217.8089,W,2.34,132.30,300812,,,D*74
$GPVTG,132.30,T,,M,2.34,N,4.3,K,D*09
$GPGGA,175753.000,3748.7730,N,12217.8085,W,2,06,1.7,16.5,M,-25.1,M,3.8,0000*7A
$GPGSA,A,3,28,26,01,15,11,17,,,,,,,2.9,1.7,2.3*33
$GPRMC,175753.000,A,3748.7730,N,12217.8085,W,2.22,129.45,300812,,,D*73
$GPVTG,129.45,T,,M,2.22,N,4.1,K,D*04
$GPGGA,175754.000,3748.7728,N,12217.8082,W,2,06,1.7,17.4,M,-25.1,M,4.8,0000*74
$GPGSA,A,3,28,26,01,15,11,17,,,,,,,2.9,1.7,2.3*33
$GPRMC,175754.000,A,3748.7728,N,12217.8082,W,2.47,125.34,300812,,,D*73
$GPVTG,125.34,T,,M,2.47,N,4.6,K,D*0A
$GPGGA,175755.000,3748.7718,N,12217.8079,W,2,06,1.7,16.0,M,-25.1,M,5.8,0000*76
$GPGSA,A,3,28,26,01,15,11,17,,,,,,,2.9,1.7,2.3*33
$GPGSV,3,1,11,17,65,179,27,28,64,017,24,26,53,253,33,08,53,104,30*72
$GPGSV,3,2,11,15,29,301,24,01,20,072,21,11,17,054,22,27,16,311,21*73
$GPGSV,3,3,11,07,16,122,30,09,02,309,16,51,43,156,26*48
$GPRMC,175755.000,A,3748.7718,N,12217.8079,W,2.84,120.68,300812,,,D*76
$GPVTG,120.68,T,,M,2.84,N,5.3,K,D*0D
$GPGGA,175756.000,3748.7710,N,12217.8069,W,2,05,1.8,15.2,M,-25.1,M,6.8,0000*72
$GPGSA,A,3,28,26,01,15,17,,,,,,,,3.0,1.8,2.4*33
$GPRMC,175756.000,A,3748.7710,N,12217.8069,W,2.52,124.95,300812,,,D*71
$GPVTG,124.95,T,,M,2.52,N,4.7,K,D*05
$GPGGA,175757.000,3748.7706,N,12217.8059,W,2,06,1.7,13.8,M,-25.1,M,7.8,0000*76
$GPGSA,A,3,28,26,01,15,11,17,,,,,,,2.9,1.7,2.3*33
$GPRMC,175757.000,A,3748.7706,N,12217.8059,W,2.78,106.23,300812,,,D*71
$GPVTG,106.23,T,,M,2.78,N,5.2,K,D*04
$GPGGA,175758.000,3748.7703,N,12217.8046,W,2,06,1.7,12.9,M,-25.1,M,8.8,0000*7D
$GPGSA,A,3,28,26,01,15,11,17,,,,,,,2.9,1.7,2.3*33
$GPRMC,175758.000,A,3748.7703,N,12217.8046,W,2.20,118.67,300812,,,D*77
$GPVTG,118.67,T,,M,2.20,N,4.1,K,D*04
$GPGGA,175759.000,3748.7703,N,12217.8035,W,2,06,1.7,12.6,M,-25.1,M,9.8,0000*76
$GPGSA,A,3,28,26,01,15,11,17,,,,,,,2.9,1.7,2.3*33
$GPRMC,175759.000,A,3748.7703,N,12217.8035,W,1.64,106.60,300812,,,D*79
$GPVTG,106.60,T,,M,1.64,N,3.0,K,D*09
$GPGGA,175800.000,3748.7705,N,12217.8027,W,2,06,1.7,12.4,M,-25.1,M,10.8,0000*4A
$GPGSA,A,3,28,26,01,15,11,17,,,,,,,2.9,1.7,2.3*33
$GPGSV,3,1,11,17,65,179,32,28,64,017,25,26,53,253,34,08,53,104,31*71
$GPGSV,3,2,11,15,29,301,24,01,20,072,36,11,17,054,26,27,16,311,21*71
$GPRMC,175800.000,A,3748.7705,N,12217.8027,W,1.39,101.14,300812,,,D*73
$GPVTG,101.14,T,,M,1.39,N,2.6,K,D*02
$GPGGA,175801.000,3748.7702,N,12217.8019,W,2,06,1.7,11.3,M,-25.1,M,,0000*52
$GPGSA,A,3,28,26,01,15,11,17,,,,,,,2.9,1.7,2.3*33
$GPRMC,175801.000,A,3748.7702,N,12217.8019,W,1.77,113.63,300812,,,D*71
$GPVTG,113.63,T,,M,1.77,N,3.3,K,D*0F
$GPGGA,175802.000,3748.7697,N,12217.8010,W,2,06,1.7,10.1,M,-25.1,M,,0000*56
$GPGSA,A,3,28,26,01,15,11,17,,,,,,,2.9,1.7,2.3*33
$GPRMC,175802.000,A,3748.7697,N,12217.8010,W,2.51,126.83,300812,,,D*79
$GPVTG,126.83,T,,M,2.51,N,4.7,K,D*03
$GPGGA,175803.000,3748.7693,N,12217.8000,W,2,06,1.7,9.7,M,-25.1,M,,0000*6C
$GPGSA,A,3,28,26,01,15,11,17,,,,,,,2.9,1.7,2.3*33
$GPRMC,175803.000,A,3748.7693,N,12217.8000,W,2.54,113.78,300812,,,D*7A
$GPVTG,113.78,T,,M,2.54,N,4.7,K,D*04
$GPGGA,175804.000,3748.7687,N,12217.7988,W,2,06,1.7,10.2,M,-25.1,M,2.8,0000*71
$GPGSA,A,3,28,26,01,15,11,17,,,,,,,2.9,1.7,2.3*33
$GPRMC,175804.000,A,3748.7687,N,12217.7988,W,2.80,119.34,300812,,,D*75
$GPVTG,119.34,T,,M,2.80,N,5.2,K,D*0B
$GPGGA,175805.000,3748.7677,N,12217.7974,W,2,06,1.7,10.4,M,-25.1,M,3.8,0000*7B
$GPGSA,A,3,28,26,01,15,11,17,,,,,,,2.9,1.7,2.3*33
$GPGSV,3,1,11,17,65,179,36,28,64,017,28,26,53,253,35,08,53,104,32*7A
$GPGSV,3,2,11,15,29,301,24,01,20,072,22,11,17,054,20,27,16,311,25*76
$GPGSV,3,3,11,07,16,122,37,09,02,309,,51,43,156,38*47
$GPRMC,175805.000,A,3748.7677,N,12217.7974,W,2.79,115.89,300812,,,D*74
$GPVTG,115.89,T,,M,2.79,N,5.2,K,D*07
$GPGGA,175806.000,3748.7673,N,12217.7963,W,2,06,1.7,9.9,M,-25.1,M,,0000*6A
$GPGSA,A,3,28,26,01,15,11,17,,,,,,,2.9,1.7,2.3*33
$GPRMC,175806.000,A,3748.7673,N,12217.7963,W,2.60,110.99,300812,,,D*79
$GPVTG,110.99,T,,M,2.60,N,4.8,K,D*00
$GPGGA,175807.000,3748.7667,N,12217.7950,W,2,06,1.7,8.8,M,-25.1,M,,0000*6E
$GPGSA,A,3,28,26,01,15,11,17,,,,,,,2.9,1.7,2.3*33
$GPRMC,175807.000,A,3748.7667,N,12217.7950,W,3.08,122.71,300812,,,D*75
$GPVTG,122.71,T,,M,3.08,N,5.7,K,D*06
$GPGGA,175808.000,3748.7663,N,12217.7939,W,2,06,1.7,8.2,M,-25.1,M,,0000*60
$GPGSA,A,3,28,26,01,15,11,17,,,,,,,2.9,1.7,2.3*33
$GPRMC,175808.000,A,3748.7663,N,12217.7939,W,2.54,117.74,300812,,,D*7A
$GPVTG,117.74,T,,M,2.54,N,4.7,K,D*0C
$GPGGA,175809.000,3748.7662,N,12217.7928,W,2,06,1.7,8.0,M,-25.1,M,,0000*62
$GPGSA,A,3,28,26,01,15,11,17,,,,,,,2.9,1.7,2.3*33
$GPRMC,175809.000,A,3748.7662,N,12217.7928,W,2.24,110.56,300812,,,D*7A
$GPVTG,110.56,T,,M,2.24,N,4.1,K,D*0A
$GPGGA,175810.000,3748.7657,N,12217.7918,W,2,06,1.7,7.5,M,-25.1,M,2.8,0000*41
$GPGSA,A,3,28,26,01,15,11,17,,,,,,,2.9,1.7,2.3*33
$GPGSV,3,1,11,17,65,179,36,28,64,017,27,26,53,253,34,08,53,104,32*74
$GPGSV,3,2,11,15,29,301,24,01,20,072,33,11,17,054,31,27,16,311,21*72
$GPGSV,3,3,11,07,16,122,37,09,02,309,,51,43,156,39*46
$GPRMC,175810.000,A,3748.7657,N,12217.7918,W,2.79,119.51,300812,,,D*71
$GPVTG,119.51,T,,M,2.79,N,5.2,K,D*0E
$GPGGA,175811.000,3748.7651,N,12217.7907,W,2,06,1.7,7.1,M,-25.1,M,3.8,0000*4D
$GPGSA,A,3,28,26,01,15,11,17,,,,,,,2.9,1.7,2.3*33
$GPRMC,175811.000,A,3748.7651,N,12217.7907,W,3.00,125.80,300812,,,D*74
$GPVTG,125.80,T,,M,3.00,N,5.6,K,D*06
$GPGGA,175812.000,3748.7642,N,12217.7898,W,2,06,1.7,6.3,M,-25.1,M,,0000*6D
$GPGSA,A,3,28,26,01,15,11,17,,,,,,,2.9,1.7,2.3*33
$GPRMC,175812.000,A,3748.7642,N,12217.7898,W,2.62,127.01,300812,,,D*7C
$GPVTG,127.01,T,,M,2.62,N,4.9,K,D*06
$GPGGA,175813.000,3748.7637,N,12217.7892,W,2,06,1.7,6.8,M,-25.1,M,,0000*6F
$GPGSA,A,3,28,26,01,15,11,17,,,,,,,2.9,1.7,2.3*33
$GPRMC,175813.000,A,3748.7637,N,12217.7892,W,2.47,126.65,300812,,,D*71
$GPVTG,126.65,T,,M,2.47,N,4.6,K,D*0D
$GPGGA,175814.000,3748.7632,N,12217.7880,W,2,06,1.7,8.7,M,-25.1,M,,0000*6F
$GPGSA,A,3,28,26,01,15,11,17,,,,,,,2.9,1.7,2.3*33
$GPRMC,175814.000,A,3748.7632,N,12217.7880,W,2.59,112.45,300812,,,D*7A
$GPVTG,112.45,T,,M,2.59,N,4.8,K,D*09
$GPGGA,175815.000,3748.7624,N,12217.7876,W,2,06,1.7,8.9,M,-25.1,M,,0000*6E
$GPGSA,A,3,28,26,01,15,11,17,,,,,,,2.9,1.7,2.3*33
$GPGSV,3,1,11,17,65,179,36,28,64,017,24,26,53,253,34,08,53,104,33*76
$GPGSV,3,2,11,15,29,301,24,01,20,071,23,11,17,054,20,27,17,311,21*71
$GPRMC,175815.000,A,3748.7624,N,12217.7876,W,2.60,117.69,300812,,,D*74
$GPVTG,117.69,T,,M,2.60,N,4.8,K,D*08
$GPGGA,175816.000,3748.7615,N,12217.7872,W,2,06,1.7,9.4,M,-25.1,M,2.8,0000*43
$GPGSA,A,3,28,26,01,15,11,17,,,,,,,2.9,1.7,2.3*33
$GPRMC,175816.000,A,3748.7615,N,12217.7872,W,2.27,116.93,300812,,,D*76
$GPVTG,116.93,T,,M,2.27,N,4.2,K,D*05
$GPGGA,175817.000,3748.7608,N,12217.7860,W,2,06,1.7,11.9,M,-25.1,M,3.8,0000*78
$GPGSA,A,3,28,26,01,15,11,17,,,,,,,2.9,1.7,2.3*33
$GPRMC,175817.000,A,3748.7608,N,12217.7860,W,2.10,129.04,300812,,,D*7E
$GPVTG,129.04,T,,M,2.10,N,3.9,K,D*0F
$GPGGA,175818.000,3748.7600,N,12217.7844,W,2,06,1.7,15.2,M,-25.1,M,,0000*53
$GPGSA,A,3,28,26,01,15,11,17,,,,,,,2.9,1.7,2.3*33
$GPRMC,175818.000,A,3748.7600,N,12217.7844,W,2.22,115.63,300812,,,D*70
$GPVTG,115.63,T,,M,2.22,N,4.1,K,D*0F
$GPGGA,175819.000,3748.7591,N,12217.7832,W,2,06,1.7,17.4,M,-25.1,M,,0000*5C
$GPGSA,A,3,28,26,01,15,11,17,,,,,,,2.9,1.7,2.3*33
$GPRMC,175819.000,A,3748.7591,N,12217.7832,W,2.19,117.99,300812,,,D*74
$GPVTG,117.99,T,,M,2.19,N,4.1,K,D*00
$GPGGA,175820.000,3748.7583,N,12217.7825,W,2,06,1.7,17.7,M,-25.1,M,,0000*50
$GPGSA,A,3,28,26,01,15,11,17,,,,,,,2.9,1.7,2.3*33
$GPGSV,3,1,11,17,66,179,36,28,64,017,25,26,53,253,33,08,53,104,33*73
$GPGSV,3,2,11,15,29,301,24,01,20,071,20,11,17,054,20,27,17,311,21*72
$GPGSV,3,3,11,07,15,122,35,09,02,309,19,51,43,156,39*4F
$GPRMC,175820.000,A,3748.7583,N,12217.7825,W,2.07,113.39,300812,,,D*7A
$GPVTG,113.39,T,,M,2.07,N,3.8,K,D*0F
$GPGGA,175821.000,3748.7580,N,12217.7818,W,2,06,1.7,18.6,M,-25.1,M,,0000*52
$GPGSA,A,3,28,26,01,15,11,17,,,,,,,2.9,1.7,2.3*33
$GPRMC,175821.000,A,3748.7580,N,12217.7818,W,1.84,109.30,300812,,,D*7C
$GPVTG,109.30,T,,M,1.84,N,3.4,K,D*09
$GPGGA,175822.000,3748.7574,N,12217.7804,W,2,06,1.7,21.5,M,-25.1,M,1.8,0000*79
$GPGSA,A,3,28,26,01,15,11,17,,,,,,,2.9,1.7,2.3*33
$GPRMC,175822.000,A,3748.7574,N,12217.7804,W,3.14,113.95,300812,,,D*76
$GPVTG,113.95,T,,M,3.14,N,5.8,K,D*0C
$GPGGA,175823.000,3748.7571,N,12217.7793,W,2,06,1.7,22.9,M,-25.1,M,2.8,0000*70
$GPGSA,A,3,28,26,01,15,11,17,,,,,,,2.9,1.7,2.3*33
$GPRMC,175823.000,A,3748.7571,N,12217.7793,W,2.80,107.43,300812,,,D*71
$GPVTG,107.43,T,,M,2.80,N,5.2,K,D*04
$GPGGA,175824.000,3748.7571,N,12217.7782,W,2,06,1.7,24.6,M,-25.1,M,3.8,0000*7F
$GPGSA,A,3,28,26,01,15,11,17,,,,,,,2.9,1.7,2.3*33
$GPRMC,175824.000,A,3748.7571,N,12217.7782,W,2.62,98.15,300812,,,D*4E
$GPVTG,98.15,T,,M,2.62,N,4.9,K,D*36
$GPGGA,175825.000,3748.7570,N,12217.7770,W,2,06,1.7,25.4,M,-25.1,M,1.8,0000*73
$GPGSA,A,3,28,26,01,15,11,17,,,,,,,2.9,1.7,2.3*33
$GPGSV,3,1,11,17,66,179,35,28,64,017,26,26,53,253,33,08,53,104,33*73
$GPGSV,3,2,11,15,29,301,22,01,20,071,21,11,17,054,20,27,17,311,21*75
$GPGSV,3,3,11,07,15,122,35,09,02,309,18,51,43,156,39*4E
$GPRMC,175825.000,A,3748.7570,N,12217.7770,W,2.54,101.84,300812,,,D*7F
$GPVTG,101.84,T,,M,2.54,N,4.7,K,D*04
$GPGGA,175826.000,3748.7568,N,12217.7760,W,2,06,1.7,26.9,M,-25.1,M,1.8,0000*76
$GPGSA,A,3,28,26,01,15,11,17,,,,,,,2.9,1.7,2.3*33
$GPRMC,175826.000,A,3748.7568,N,12217.7760,W,2.38,106.49,300812,,,D*78
$GPVTG,106.49,T,,M,2.38,N,4.4,K,D*0B
$GPGGA,175827.000,3748.7566,N,12217.7755,W,2,06,1.7,28.3,M,-25.1,M,1.8,0000*7B
$GPGSA,A,3,28,26,01,15,11,17,,,,,,,2.9,1.7,2.3*33
$GPRMC,175827.000,A,3748.7566,N,12217.7755,W,2.06,101.25,300812,,,D*71
$GPVTG,101.25,T,,M,2.06,N,3.8,K,D*00
$GPGGA,175828.000,3748.7560,N,12217.7749,W,2,06,1.7,29.5,M,-25.1,M,1.8,0000*78
$GPGSA,A,3,28,26,01,15,11,17,,,,,,,2.9,1.7,2.3*33
$GPRMC,175828.000,A,3748.7560,N,12217.7749,W,1.77,107.09,300812,,,D*78
$GPVTG,107.09,T,,M,1.77,N,3.3,K,D*06
$GPGGA,175829.000,3748.7554,N,12217.7742,W,2,06,1.7,30.3,M,-25.1,M,2.8,0000*78
$GPGSA,A,3,28,26,01,15,11,17,,,,,,,2.9,1.7,2.3*33
$GPRMC,175829.000,A,3748.7554,N,12217.7742,W,1.73,101.89,300812,,,D*7F
$GPVTG,101.89,T,,M,1.73,N,3.2,K,D*0D
$GPGGA,175830.000,3748.7547,N,12217.7739,W,2,06,1.7,31.4,M,-25.1,M,3.8,0000*79
$GPGSA,A,3,28,26,01,15,11,17,,,,,,,2.9,1.7,2.3*33
$GPGSV,3,1,11,17,66,179,35,28,64,017,26,26,53,253,33,08,53,104,33*73
$GPGSV,3,2,11,15,29,301,21,01,20,071,21,11,17,054,20,27,17,311,20*77
$GPGSV,3,3,11,07,15,122,27,09,02,309,18,51,43,156,39*4D
$GPRMC,175830.000,A,3748.7547,N,12217.7739,W,1.60,113.30,300812,,,D*7A
$GPVTG,113.30,T,,M,1.60,N,3.0,K,D*0C
$GPGGA,175831.000,3748.7535,N,12217.7737,W,2,06,1.7,31.0,M,-25.1,M,1.8,0000*75
$GPGSA,A,3,28,26,01,15,11,17,,,,,,,2.9,1.7,2.3*33
$GPRMC,175831.000,A,3748.7535,N,12217.7737,W,1.79,119.21,300812,,,D*72
$GPVTG,119.21,T,,M,1.79,N,3.3,K,D*0D
$GPGGA,175832.000,3748.7530,N,12217.7731,W,2,06,1.7,30.0,M,-25.1,M,1.8,0000*74
$GPGSA,A,3,28,26,01,15,11,17,,,,,,,2.9,1.7,2.3*33
$GPRMC,175832.000,A,3748.7530,N,12217.7731,W,2.19,93.44,300812,,,D*47
$GPVTG,93.44,T,,M,2.19,N,4.1,K,D*3D
$GPGGA,175833.000,3748.7520,N,12217.7718,W,2,06,1.7,29.9,M,-25.1,M,1.8,0000*7E
$GPGSA,A,3,28,26,01,15,11,17,,,,,,,2.9,1.7,2.3*33
$GPRMC,175833.000,A,3748.7520,N,12217.7718,W,2.44,100.71,300812,,,D*79
$GPVTG,100.71,T,,M,2.44,N,4.5,K,D*0C
$GPGGA,175834.000,3748.7520,N,12217.7713,W,2,06,1.7,31.7,M,-25.1,M,1.8,0000*75
$GPGSA,A,3,28,26,01,15,11,17,,,,,,,2.9,1.7,2.3*33
$GPRMC,175834.000,A,3748.7520,N,12217.7713,W,2.47,111.10,300812,,,D*71
$GPVTG,111.10,T,,M,2.47,N,4.6,K,D*0B
$GPGGA,175835.000,3748.7513,N,12217.7705,W,2,06,1.7,32.3,M,-25.1,M,2.8,0000*77
$GPGSA,A,3,28,26,01,15,11,17,,,,,,,2.9,1.7,2.3*33
$GPGSV,3,1,11,17,66,179,35,28,64,017,23,26,53,253,32,08,53,104,34*70
$GPGSV,3,2,11,15,29,301,22,01,20,071,21,11,17,054,20,27,17,311,19*7E
$GPGSV,3,3,11,07,15,122,34,09,02,309,19,51,43,156,40*40
$GPRMC,175835.000,A,3748.7513,N,12217.7705,W,2.61,108.07,300812,,,D*7D
$GPGGA,175836.000,3748.7511,N,12217.7699,W,2,06,1.7,32.9,M,-25.1,M,3.8,0000*79
$GPGSA,A,3,28,26,01,15,11,17,,,,,,,2.9,1.7,2.3*33
$GPRMC,175836.000,A,3748.7511,N,12217.7699,W,2.95,110.17,300812,,,D*7B
$GPVTG,110.17,T,,M,2.95,N,5.5,K,D*00
$GPGGA,175837.000,3748.7510,N,12217.7686,W,2,06,1.7,35.7,M,-25.1,M,1.8,0000*7C
$GPGSA,A,3,28,26,01,15,11,17,,,,,,,2.9,1.7,2.3*33
$GPRMC,175837.000,A,3748.7510,N,12217.7686,W,3.09,102.76,300812,,,D*75
$GPVTG,102.76,T,,M,3.09,N,5.7,K,D*02
$GPGGA,175838.000,3748.7504,N,12217.7669,W,2,06,1.7,38.5,M,-25.1,M,1.8,0000*78
$GPGSA,A,3,28,26,01,15,11,17,,,,,,,2.9,1.7,2.3*33
$GPRMC,175838.000,A,3748.7504,N,12217.7669,W,3.65,100.62,300812,,,D*73
$GPVTG,100.62,T,,M,3.65,N,6.8,K,D*03
$GPGGA,175839.000,3748.7501,N,12217.7658,W,2,06,1.7,40.5,M,-25.1,M,1.8,0000*71
$GPGSA,A,3,28,26,01,15,11,17,,,,,,,2.9,1.7,2.3*33
$GPRMC,175839.000,A,3748.7501,N,12217.7658,W,2.99,102.93,300812,,,D*7B
$GPVTG,102.93,T,,M,2.99,N,5.5,K,D*03
$GPGGA,175840.000,3748.7497,N,12217.7654,W,2,06,1.7,41.6,M,-25.1,M,2.8,0000*7C
$GPGSA,A,3,28,26,01,15,11,17,,,,,,,2.9,1.7,2.3*33
$GPGSV,3,1,11,17,66,179,35,28,64,017,24,26,53,253,33,08,53,104,34*76
$GPGSV,3,2,11,15,29,301,24,01,20,071,20,11,17,054,21,27,17,311,19*78
$GPGSV,3,3,11,07,15,122,33,09,02,309,19,51,43,156,39*49
$GPRMC,175840.000,A,3748.7497,N,12217.7654,W,2.20,110.88,300812,,,D*7C
$GPVTG,110.88,T,,M,2.20,N,4.1,K,D*0D
$GPGGA,175841.000,3748.7501,N,12217.7646,W,2,06,1.7,45.4,M,-25.1,M,3.8,0000*77
$GPGSA,A,3,28,26,01,15,11,17,,,,,,,2.9,1.7,2.3*33
$GPRMC,175841.000,A,3748.7501,N,12217.7646,W,2.41,95.17,300812,,,D*4D
$GPVTG,95.17,T,,M,2.41,N,4.5,K,D*34
$GPGGA,175842.000,3748.7501,N,12217.7637,W,2,06,1.7,45.9,M,-25.1,M,4.8,0000*78
$GPGSA,A,3,28,26,01,15,11,17,,,,,,,2.9,1.7,2.3*33
$GPRMC,175842.000,A,3748.7501,N,12217.7637,W,2.78,76.14,300812,,,D*4C
$GPVTG,76.14,T,,M,2.78,N,5.2,K,D*36
$GPGGA,175843.000,3748.7494,N,12217.7626,W,2,06,1.7,46.7,M,-25.1,M,1.8,0000*7C
$GPGSA,A,3,28,26,01,15,11,17,,,,,,,2.9,1.7,2.3*33
$GPRMC,175843.000,A,3748.7494,N,12217.7626,W,3.06,86.05,300812,,,D*47
$GPVTG,86.05,T,,M,3.06,N,5.7,K,D*34
$GPGGA,175844.000,3748.7490,N,12217.7617,W,2,06,1.7,46.1,M,-25.1,M,1.8,0000*7B
$GPGSA,A,3,28,26,01,15,11,17,,,,,,,2.9,1.7,2.3*33
$GPRMC,175844.000,A,3748.7490,N,12217.7617,W,2.58,85.62,300812,,,D*4E
$GPVTG,85.62,T,,M,2.58,N,4.8,K,D*32
$GPGGA,175845.000,3748.7480,N,12217.7604,W,2,06,1.7,43.2,M,-25.1,M,1.8,0000*7F
$GPGSA,A,3,28,26,01,15,11,17,,,,,,,2.9,1.7,2.3*33
$GPGSV,3,1,12,17,66,179,35,28,64,018,24,26,53,253,32,08,53,104,34*7B
$GPGSV,3,2,12,15,29,301,23,01,20,071,27,11,17,054,21,27,17,311,20*71
$GPGSV,3,3,12,07,15,122,23,09,02,309,19,04,00,172,,51,43,156,38*7A
$GPRMC,175845.000,A,3748.7480,N,12217.7604,W,2.78,89.65,300812,,,D*45
$GPVTG,89.65,T,,M,2.78,N,5.2,K,D*30
$GPGGA,175846.000,3748.7471,N,12217.7585,W,2,06,1.7,39.5,M,-25.1,M,2.8,0000*71
$GPGSA,A,3,28,26,01,15,11,17,,,,,,,2.9,1.7,2.3*33
$GPRMC,175846.000,A,3748.7471,N,12217.7585,W,2.67,101.83,300812,,,D*75
$GPVTG,101.83,T,,M,2.67,N,4.9,K,D*0D
$GPGGA,175847.000,3748.7465,N,12217.7570,W,2,06,1.7,37.3,M,-25.1,M,3.8,0000*76
$GPGSA,A,3,28,26,01,15,11,17,,,,,,,2.9,1.7,2.3*33
$GPRMC,175847.000,A,3748.7465,N,12217.7570,W,2.42,105.87,300812,,,D*7C
$GPVTG,105.87,T,,M,2.42,N,4.5,K,D*06
$GPGGA,175848.000,3748.7456,N,12217.7559,W,2,06,1.7,32.9,M,-25.1,M,4.8,0000*7A
$GPGSA,A,3,28,26,01,15,11,17,,,,,,,2.9,1.7,2.3*33
$GPRMC,175848.000,A,3748.7456,N,12217.7559,W,2.17,119.10,300812,,,D*7B
$GPVTG,119.10,T,,M,2.17,N,4.0,K,D*00
$GPGGA,175849.000,3748.7443,N,12217.7554,W,2,06,1.7,27.2,M,-25.1,M,1.8,0000*78
$GPGSA,A,3,28,26,01,15,11,17,,,,,,,2.9,1.7,2.3*33
$GPRMC,175849.000,A,3748.7443,N,12217.7554,W,1.75,124.67,300812,,,D*7A
$GPVTG,124.67,T,,M,1.75,N,3.2,K,D*0C
$GPGGA,175850.000,3748.7438,N,12217.7549,W,2,06,1.7,24.0,M,-25.1,M,1.8,0000*71
$GPGSA,A,3,28,26,01,15,11,17,,,,,,,2.9,1.7,2.3*33
$GPGSV,3,1,12,17,66,179,35,28,64,018,25,26,53,253,29,08,52,104,34*71
$GPGSV,3,2,12,15,29,301,22,01,20,071,30,11,17,054,28,27,17,311,20*7F
$GPGSV,3,3,12,07,15,122,25,09,02,309,19,04,00,172,,51,43,156,38*7C
$GPVTG,129.23,T,,M,1.65,N,3.1,K,D*03
$GPGGA,175851.000,3748.7435,N,12217.7545,W,2,06,1.7,21.8,M,-25.1,M,1.8,0000*7C
$GPGSA,A,3,28,26,01,15,11,17,,,,,,,2.9,1.7,2.3*33
$GPRMC,175851.000,A,3748.7435,N,12217.7545,W,1.53,130.68,300812,,,D*7C
$GPVTG,130.68,T,,M,1.53,N,2.8,K,D*09
$GPGGA,175852.000,3748.7434,N,12217.7539,W,2,06,1.7,20.9,M,-25.1,M,1.8,0000*75
$GPGSA,A,3,28,26,01,15,11,17,,,,,,,2.9,1.7,2.3*33
$GPRMC,175852.000,A,3748.7434,N,12217.7539,W,2.16,134.22,300812,,,D*7D
$GPVTG,134.22,T,,M,2.16,N,4.0,K,D*0F
$GPGGA,175853.000,3748.7432,N,12217.7533,W,2,06,1.7,19.7,M,-25.1,M,2.8,0000*7F
$GPGSA,A,3,28,26,01,15,11,17,,,,,,,2.9,1.7,2.3*33
$GPRMC,175853.000,A,3748.7432,N,12217.7533,W,2.63,129.19,300812,,,D*76
$GPVTG,129.19,T,,M,2.63,N,4.9,K,D*00
$GPGGA,175854.000,3748.7430,N,12217.7524,W,2,06,1.7,19.9,M,-25.1,M,3.8,0000*73
$GPGSA,A,3,28,26,01,15,11,17,,,,,,,2.9,1.7,2.3*33
$GPRMC,175854.000,A,3748.7430,N,12217.7524,W,2.00,126.23,300812,,,D*76
$GPVTG,126.23,T,,M,2.00,N,3.7,K,D*0A
$GPGGA,175855.000,3748.7427,N,12217.7518,W,2,06,1.7,20.4,M,-25.1,M,4.8,0000*7B
$GPGSA,A,3,28,26,01,15,11,17,,,,,,,2.9,1.7,2.3*33
$GPGSV,3,1,12,17,66,179,33,28,64,018,26,26,53,253,34,08,52,104,34*78
$GPGSV,3,2,12,15,29,301,24,01,20,071,23,11,17,054,25,27,17,311,20*76
$GPGSV,3,3,12,07,15,122,25,09,02,309,19,04,00,172,,51,43,156,30*74
$GPRMC,175855.000,A,3748.7427,N,12217.7518,W,1.67,130.44,300812,,,D*7A
$GPVTG,130.44,T,,M,1.67,N,3.1,K,D*08
$GPGGA,175856.000,3748.7426,N,12217.7514,W,2,06,1.7,21.4,M,-25.1,M,5.8,0000*75
$GPGSA,A,3,28,26,01,15,11,17,,,,,,,2.9,1.7,2.3*33
$GPRMC,175856.000,A,3748.7426,N,12217.7514,W,2.06,118.60,300812,,,D*7C
$GPVTG,118.60,T,,M,2.06,N,3.8,K,D*09
$GPGGA,175857.000,3748.7423,N,12217.7513,W,2,06,1.7,20.8,M,-25.1,M,6.8,0000*78
$GPGSA,A,3,28,26,01,15,11,17,,,,,,,2.9,1.7,2.3*33
$GPRMC,175857.000,A,3748.7423,N,12217.7513,W,2.13,125.14,300812,,,D*76
$GPVTG,125.14,T,,M,2.13,N,3.9,K,D*01
$GPGGA,175858.000,3748.7420,N,12217.7504,W,2,07,1.7,21.2,M,-25.1,M,7.8,0000*79
$GPGSA,A,3,08,28,26,01,15,11,17,,,,,,2.8,1.7,2.3*3A
$GPRMC,175858.000,A,3748.7420,N,12217.7504,W,2.99,136.69,300812,,,D*76
$GPVTG,136.69,T,,M,2.99,N,5.5,K,D*01
$GPGGA,175859.000,3748.7422,N,12217.7494,W,2,07,1.7,22.5,M,-25.1,M,8.8,0000*79
$GPGSA,A,3,08,28,26,01,15,11,17,,,,,,2.8,1.7,2.3*3A
$GPRMC,175859.000,A,3748.7422,N,12217.7494,W,2.22,117.08,300812,,,D*79
$GPVTG,117.08,T,,M,2.22,N,4.1,K,D*00
$GPGGA,175900.000,3748.7419,N,12217.7488,W,2,07,1.7,21.6,M,-25.1,M,9.8,0000*70
$GPGSA,A,3,08,28,26,01,15,11,17,,,,,,2.8,1.7,2.3*3A
$GPGSV,3,1,12,17,66,179,25,28,64,018,26,26,53,252,29,08,52,104,26*71
$GPGSV,3,2,12,15,29,301,25,01,20,071,23,27,17,311,21,11,17,054,22*71
$GPGSV,3,3,12,07,15,122,26,09,02,309,19,04,00,172,,51,43,156,26*70
$GPRMC,175900.000,A,3748.7419,N,12217.7488,W,0.89,113.10,300812,,,D*7F
$GPVTG,113.10,T,,M,0.89,N,1.7,K,D*0D
$GPGGA,175901.000,3748.7416,N,12217.7476,W,2,07,1.7,23.5,M,-25.1,M,10.8,0000*46
$GPGSA,A,3,08,28,26,01,15,11,17,,,,,,2.8,1.7,2.3*3A
$GPRMC,175901.000,A,3748.7416,N,12217.7476,W,1.07,84.34,300812,,,D*4E
$GPVTG,84.34,T,,M,1.07,N,2.0,K,D*37
$GPGGA,175902.000,3748.7409,N,12217.7466,W,2,07,1.7,20.8,M,-25.1,M,11.8,0000*45
$GPGSA,A,3,08,28,26,01,15,11,17,,,,,,2.8,1.7,2.3*3A
$GPRMC,175902.000,A,3748.7409,N,12217.7466,W,1.35,105.09,300812,,,D*75
$GPVTG,105.09,T,,M,1.35,N,2.5,K,D*05
$GPGGA,175903.000,3748.7394,N,12217.7445,W,2,07,1.7,18.4,M,-25.1,M,12.8,0000*42
$GPGSA,A,3,08,28,26,01,15,11,17,,,,,,2.8,1.7,2.3*3A
$GPRMC,175903.000,A,3748.7394,N,12217.7445,W,1.86,110.63,300812,,,D*76
$GPVTG,110.63,T,,M,1.86,N,3.4,K,D*05
$GPGGA,175904.000,3748.7387,N,12217.7434,W,2,07,1.7,16.9,M,-25.1,M,13.8,0000*43
$GPGSA,A,3,08,28,26,01,15,11,17,,,,,,2.8,1.7,2.3*3A
$GPRMC,175904.000,A,3748.7387,N,12217.7434,W,1.96,118.82,300812,,,D*73
$GPVTG,118.82,T,,M,1.96,N,3.6,K,D*01
$GPGGA,175905.000,3748.7383,N,12217.7422,W,2,07,1.7,16.5,M,-25.1,M,14.8,0000*4A
$GPGSA,A,3,08,28,26,01,15,11,17,,,,,,2.8,1.7,2.3*3A
$GPGSV,3,1,11,17,66,179,28,28,64,018,22,26,53,252,27,08,52,104,34*76
$GPGSV,3,2,11,15,29,301,23,01,20,071,23,27,17,311,21,11,17,054,22*74
$GPGSV,3,3,11,07,15,122,29,09,02,309,18,04,00,172,*48
$GPRMC,175905.000,A,3748.7383,N,12217.7422,W,1.89,115.93,300812,,,D*72
$GPVTG,115.93,T,,M,1.89,N,3.5,K,D*01
$GPGGA,175906.000,3748.7372,N,12217.7413,W,2,07,1.7,13.8,M,-25.1,M,15.8,0000*4C
$GPGSA,A,3,08,28,26,01,15,11,17,,,,,,2.8,1.7,2.3*3A
$GPRMC,175906.000,A,3748.7372,N,12217.7413,W,1.55,114.33,300812,,,D*77
$GPVTG,114.33,T,,M,1.55,N,2.9,K,D*06
$GPGGA,175907.000,3748.7376,N,12217.7403,W,2,07,1.7,13.5,M,-25.1,M,16.8,0000*46
$GPGSA,A,3,08,28,26,01,15,11,17,,,,,,2.8,1.7,2.3*3A
$GPRMC,175907.000,A,3748.7376,N,12217.7403,W,2.01,82.94,300812,,,D*42
$GPVTG,82.94,T,,M,2.01,N,3.7,K,D*38
$GPGGA,175908.000,3748.7372,N,12217.7394,W,2,07,1.7,12.4,M,-25.1,M,17.8,0000*45
$GPGSA,A,3,08,28,26,01,15,11,17,,,,,,2.8,1.7,2.3*3A
$GPRMC,175908.000,A,3748.7372,N,12217.7394,W,1.10,115.43,300812,,,D*76
$GPVTG,115.43,T,,M,1.10,N,2.0,K,D*08
$GPGGA,175909.000,3748.7367,N,12217.7391,W,1,07,1.7,11.6,M,-25.1,M,,0000*57
$GPGSA,A,3,08,28,26,01,15,11,17,,,,,,2.8,1.7,2.3*3A
$GPRMC,175909.000,A,3748.7367,N,12217.7391,W,1.11,144.66,300812,,,A*71
$GPVTG,144.66,T,,M,1.11,N,2.1,K,A*0E
$GPGGA,175910.000,3748.7358,N,12217.7384,W,1,07,1.7,9.2,M,-25.1,M,,0000*6A
$GPGSA,A,3,08,28,26,01,15,11,17,,,,,,2.8,1.7,2.3*3A
$GPGSV,3,1,11,17,66,179,23,28,64,018,24,26,53,252,25,08,52,104,29*75
$GPGSV,3,2,11,15,29,301,22,01,20,071,24,27,17,311,20,11,17,054,22*73
$GPGSV,3,3,11,07,15,122,38,09,02,309,16,04,00,172,*46
$GPRMC,175910.000,A,3748.7358,N,12217.7384,W,2.15,148.91,300812,,,A*72
$GPGGA,175911.000,3748.7351,N,12217.7374,W,1,07,1.7,8.7,M,-25.1,M,,0000*69
$GPGSA,A,3,08,28,26,01,15,11,17,,,,,,2.8,1.7,2.3*3A
$GPRMC,175911.000,A,3748.7351,N,12217.7374,W,1.86,151.36,300812,,,A*79
$GPVTG,151.36,T,,M,1.86,N,3.5,K,A*04
$GPGGA,175912.000,3748.7340,N,12217.7369,W,1,07,1.7,6.2,M,-25.1,M,,0000*6D
$GPGSA,A,3,08,28,26,01,15,11,17,,,,,,2.8,1.7,2.3*3A
$GPRMC,175912.000,A,3748.7340,N,12217.7369,W,1.53,160.70,300812,,,A*7E
$GPVTG,160.70,T,,M,1.53,N,2.8,K,A*00
$GPGGA,175913.000,3748.7334,N,12217.7363,W,1,07,1.7,4.2,M,-25.1,M,,0000*67
$GPGSA,A,3,08,28,26,01,15,11,17,,,,,,2.8,1.7,2.3*3A
$GPRMC,175913.000,A,3748.7334,N,12217.7363,W,1.87,158.66,300812,,,A*73
$GPVTG,158.66,T,,M,1.87,N,3.5,K,A*09
$GPGGA,175914.000,3748.7325,N,12217.7355,W,1,07,1.7,1.7,M,-25.1,M,,0000*65
$GPGSA,A,3,08,28,26,01,15,11,17,,,,,,2.8,1.7,2.3*3A
$GPRMC,175914.000,A,3748.7325,N,12217.7355,W,2.55,152.64,300812,,,A*75
$GPVTG,152.64,T,,M,2.55,N,4.7,K,A*08
$GPGGA,175915.000,3748.7322,N,12217.7348,W,1,07,1.7,1.9,M,-25.1,M,,0000*61
$GPGSA,A,3,08,28,26,01,15,11,17,,,,,,2.8,1.7,2.3*3A
$GPGSV,3,1,11,17,66,179,27,28,64,018,25,26,53,252,25,08,52,104,35*7D
$GPGSV,3,2,11,15,29,301,22,01,20,071,23,27,17,311,20,11,17,054,28*7E
$GPGSV,3,3,11,07,15,122,35,09,02,309,14,04,00,172,*49
$GPRMC,175915.000,A,3748.7322,N,12217.7348,W,2.03,154.98,300812,,,A*79
$GPVTG,154.98,T,,M,2.03,N,3.8,K,A*06
$GPGGA,175916.000,3748.7320,N,12217.7344,W,1,06,1.7,1.4,M,-25.1,M,,0000*60
$GPGSA,A,3,08,28,26,01,15,17,,,,,,,3.0,1.7,2.4*34
$GPRMC,175916.000,A,3748.7320,N,12217.7344,W,1.73,135.08,300812,,,A*7E
$GPVTG,135.08,T,,M,1.73,N,3.2,K,A*06
$GPGGA,175917.000,3748.7316,N,12217.7337,W,1,07,1.7,0.4,M,-25.1,M,,0000*60
$GPGSA,A,3,08,28,26,01,15,11,17,,,,,,2.8,1.7,2.3*3A
$GPRMC,175917.000,A,3748.7316,N,12217.7337,W,2.33,120.12,300812,,,A*76
$GPVTG,120.12,T,,M,2.33,N,4.3,K,A*08
$GPGGA,175918.000,3748.7314,N,12217.7327,W,1,07,1.7,0.4,M,-25.1,M,,0000*6C
$GPGSA,A,3,08,28,26,01,15,11,17,,,,,,2.8,1.7,2.3*3A
$GPRMC,175918.000,A,3748.7314,N,12217.7327,W,2.97,127.03,300812,,,A*73
$GPVTG,127.03,T,,M,2.97,N,5.5,K,A*06
$GPGGA,175919.000,3748.7309,N,12217.7316,W,1,07,1.7,0.2,M,-25.1,M,,0000*65
$GPGSA,A,3,08,28,26,01,15,11,17,,,,,,2.8,1.7,2.3*3A
$GPRMC,175919.000,A,3748.7309,N,12217.7316,W,3.02,136.60,300812,,,A*74
$GPVTG,136.60,T,,M,3.02,N,5.6,K,A*0D
$GPGGA,175920.000,3748.7303,N,12217.7306,W,1,07,1.7,-0.2,M,-25.1,M,,0000*49
$GPGSA,A,3,08,28,26,01,15,11,17,,,,,,2.8,1.7,2.3*3A
$GPGSV,3,1,11,17,66,179,34,28,64,018,27,26,53,252,33,08,52,104,35*7A
$GPGSV,3,2,11,15,29,301,21,01,20,071,21,27,17,311,19,11,17,054,20*7D
$GPGSV,3,3,11,07,15,122,34,09,02,309,,04,00,172,*4D
$GPRMC,175920.000,A,3748.7303,N,12217.7306,W,2.75,127.40,300812,,,A*76
$GPVTG,127.40,T,,M,2.75,N,5.1,K,A*09
$GPGGA,175921.000,3748.7299,N,12217.7295,W,1,07,1.7,-0.5,M,-25.1,M,,0000*46
$GPGSA,A,3,08,28,26,01,15,11,17,,,,,,2.8,1.7,2.3*3A
$GPRMC,175921.000,A,3748.7299,N,12217.7295,W,2.73,125.23,300812,,,A*7F
$GPVTG,125.23,T,,M,2.73,N,5.1,K,A*08
$GPGGA,175922.000,3748.7296,N,12217.7284,W,1,07,1.7,-0.3,M,-25.1,M,,0000*4C
$GPGSA,A,3,08,28,26,01,15,11,17,,,,,,2.8,1.7,2.3*3A
$GPRMC,175922.000,A,3748.7296,N,12217.7284,W,2.85,121.76,300812,,,A*7E
$GPVTG,121.76,T,,M,2.85,N,5.3,K,A*07
$GPGGA,175923.000,3748.7293,N,12217.7273,W,1,07,1.7,0.1,M,-25.1,M,,0000*6F
$GPGSA,A,3,08,28,26,01,15,11,17,,,,,,2.8,1.7,2.3*3A
$GPRMC,175923.000,A,3748.7293,N,12217.7273,W,2.80,128.28,300812,,,A*75
$GPVTG,128.28,T,,M,2.80,N,5.2,K,A*01
$GPGGA,175924.000,3748.7287,N,12217.7263,W,1,07,1.7,-0.4,M,-25.1,M,,0000*44
$GPGSA,A,3,08,28,26,01,15,11,17,,,,,,2.8,1.7,2.3*3A
$GPRMC,175924.000,A,3748.7287,N,12217.7263,W,2.66,122.34,300812,,,A*79
$GPVTG,122.34,T,,M,2.66,N,4.9,K,A*04
$GPGGA,175925.000,3748.7282,N,12217.7252,W,1,07,1.7,-1.1,M,-25.1,M,,0000*46
$GPGSA,A,3,08,28,26,01,15,11,17,,,,,,2.8,1.7,2.3*3A
$GPGSV,3,1,11,17,66,179,34,28,64,018,27,26,53,252,33,08,52,104,35*7A
$GPGSV,3,2,11,15,29,301,22,01,20,071,28,27,17,311,19,11,17,054,21*76
$GPGSV,3,3,11,07,15,122,28,09,02,309,,04,00,172,*40
$GPVTG,117.54,T,,M,2.36,N,4.4,K,A*0C
$GPGGA,175926.000,3748.7276,N,12217.7243,W,1,07,1.7,-2.0,M,-25.1,M,,0000*4C
$GPGSA,A,3,08,28,26,01,15,11,17,,,,,,2.8,1.7,2.3*3A
$GPRMC,175926.000,A,3748.7276,N,12217.7243,W,2.36,128.00,300812,,,A*7F
$GPVTG,128.00,T,,M,2.36,N,4.4,K,A*01
$GPGGA,175927.000,3748.7276,N,12217.7234,W,1,07,1.7,-0.7,M,-25.1,M,,0000*48
$GPGSA,A,3,08,28,26,01,15,11,17,,,,,,2.8,1.7,2.3*3A
$GPRMC,175927.000,A,3748.7276,N,12217.7234,W,2.25,118.12,300812,,,A*7C
$GPVTG,118.12,T,,M,2.25,N,4.2,K,A*05
$GPGGA,175928.000,3748.7271,N,12217.7224,W,1,07,1.7,-1.6,M,-25.1,M,,0000*41
$GPGSA,A,3,08,28,26,01,15,11,17,,,,,,2.8,1.7,2.3*3A
$GPRMC,175928.000,A,3748.7271,N,12217.7224,W,2.38,117.66,300812,,,A*75
$GPVTG,117.66,T,,M,2.38,N,4.4,K,A*03
$GPGGA,175929.000,3748.7269,N,12217.7212,W,1,07,1.7,-2.5,M,-25.1,M,,0000*4C
$GPGSA,A,3,08,28,26,01,15,11,17,,,,,,2.8,1.7,2.3*3A
$GPRMC,175929.000,A,3748.7269,N,12217.7212,W,2.36,101.22,300812,,,A*71
$GPVTG,101.22,T,,M,2.36,N,4.4,K,A*0A
$GPGGA,175930.000,3748.7268,N,12217.7202,W,1,07,1.7,-3.3,M,-25.1,M,,0000*43
$GPGSA,A,3,08,28,26,01,15,11,17,,,,,,2.8,1.7,2.3*3A
$GPGSV,3,1,11,17,66,179,34,28,64,018,28,26,53,252,26,08,52,104,35*71
$GPGSV,3,2,11,15,29,301,22,01,20,071,37,27,17,311,19,11,17,054,36*7E
$GPGSV,3,3,11,07,15,122,37,09,02,309,,04,00,172,*4E
$GPRMC,175930.000,A,3748.7268,N,12217.7202,W,2.44,85.10,300812,,,A*40
$GPVTG,85.10,T,,M,2.44,N,4.5,K,A*32
$GPGGA,175931.000,3748.7272,N,12217.7192,W,1,07,1.7,-3.1,M,-25.1,M,,0000*41
$GPGSA,A,3,08,28,26,01,15,11,17,,,,,,2.8,1.7,2.3*3A
$GPRMC,175931.000,A,3748.7272,N,12217.7192,W,2.53,55.27,300812,,,A*4F
$GPVTG,55.27,T,,M,2.53,N,4.7,K,A*3F
$GPGGA,175932.000,3748.7282,N,12217.7181,W,1,07,1.7,-2.4,M,-25.1,M,,0000*4B
$GPGSA,A,3,08,28,26,01,15,11,17,,,,,,2.8,1.7,2.3*3A
$GPRMC,175932.000,A,3748.7282,N,12217.7181,W,2.64,40.79,300812,,,A*4A
$GPVTG,40.79,T,,M,2.64,N,4.9,K,A*3A
$GPGGA,175933.000,3748.7293,N,12217.7171,W,1,07,1.7,-1.8,M,-25.1,M,,0000*4A
$GPGSA,A,3,08,28,26,01,15,11,17,,,,,,2.8,1.7,2.3*3A
$GPRMC,175933.000,A,3748.7293,N,12217.7171,W,2.89,29.70,300812,,,A*41
$GPVTG,29.70,T,,M,2.89,N,5.4,K,A*33
$GPGGA,175934.000,3748.7302,N,12217.7160,W,1,07,1.7,-0.8,M,-25.1,M,,0000*45
$GPGSA,A,3,08,28,26,01,15,11,17,,,,,,2.8,1.7,2.3*3A
$GPRMC,175934.000,A,3748.7302,N,12217.7160,W,2.57,28.74,300812,,,A*49
$GPVTG,28.74,T,,M,2.57,N,4.8,K,A*38
$GPGGA,175935.000,3748.7309,N,12217.7152,W,1,07,1.7,-0.3,M,-25.1,M,,0000*45
$GPGSA,A,3,08,28,26,01,15,11,17,,,,,,2.8,1.7,2.3*3A
$GPGSV,3,1,11,17,66,179,28,28,64,018,33,26,53,252,24,08,52,104,37*76
$GPGSV,3,2,11,15,29,301,22,01,20,071,39,27,17,311,19,11,17,054,40*71
$GPGSV,3,3,11,07,15,122,26,09,02,309,,04,00,172,*4E
$GPRMC,175935.000,A,3748.7309,N,12217.7152,W,2.56,21.84,300812,,,A*45
$GPVTG,21.84,T,,M,2.56,N,4.7,K,A*30
$GPGGA,175936.000,3748.7317,N,12217.7143,W,1,07,1.7,0.4,M,-25.1,M,,0000*63
$GPGSA,A,3,08,28,26,01,15,11,17,,,,,,2.8,1.7,2.3*3A
$GPRMC,175936.000,A,3748.7317,N,12217.7143,W,2.83,25.63,300812,,,A*4C
$GPVTG,25.63,T,,M,2.83,N,5.2,K,A*31
$GPGGA,175937.000,3748.7329,N,12217.7135,W,1,07,1.7,1.0,M,-25.1,M,,0000*6B
$GPGSA,A,3,08,28,26,01,15,11,17,,,,,,2.8,1.7,2.3*3A
$GPRMC,175937.000,A,3748.7329,N,12217.7135,W,3.08,18.44,300812,,,A*48
$GPVTG,18.44,T,,M,3.08,N,5.7,K,A*3D
$GPGGA,175938.000,3748.7339,N,12217.7128,W,1,07,1.7,1.5,M,-25.1,M,,0000*6C
$GPGSA,A,3,08,28,26,01,15,11,17,,,,,,2.8,1.7,2.3*3A
$GPRMC,175938.000,A,3748.7339,N,12217.7128,W,3.29,18.41,300812,,,A*4C
$GPVTG,18.41,T,,M,3.29,N,6.1,K,A*3E
$GPGGA,175939.000,3748.7346,N,12217.7122,W,1,07,1.7,1.4,M,-25.1,M,,0000*6E
$GPGSA,A,3,08,28,26,01,15,11,17,,,,,,2.8,1.7,2.3*3A
$GPRMC,175939.000,A,3748.7346,N,12217.7122,W,2.99,19.02,300812,,,A*43
$GPVTG,19.02,T,,M,2.99,N,5.5,K,A*35
$GPGGA,175940.000,3748.7352,N,12217.7107,W,1,07,1.7,3.7,M,-25.1,M,,0000*63
$GPGSA,A,3,08,28,26,01,15,11,17,,,,,,2.8,1.7,2.3*3A
$GPGSV,3,1,11,17,66,179,28,28,64,018,34,26,53,252,24,08,52,104,37*71
$GPGSV,3,2,11,15,29,301,28,01,20,071,40,27,17,311,28,11,17,054,39*79
$GPGSV,3,3,11,07,15,122,25,09,02,309,,04,00,172,*4D
$GPVTG,31.31,T,,M,3.07,N,5.7,K,A*3B
$GPGGA,175941.000,3748.7361,N,12217.7099,W,1,07,1.7,4.1,M,-25.1,M,,0000*65
$GPGSA,A,3,08,28,26,01,15,11,17,,,,,,2.8,1.7,2.3*3A
$GPRMC,175941.000,A,3748.7361,N,12217.7099,W,3.48,23.78,300812,,,A*41
$GPVTG,23.78,T,,M,3.48,N,6.4,K,A*3E
$GPGGA,175942.000,3748.7368,N,12217.7093,W,1,07,1.7,4.3,M,-25.1,M,,0000*67
$GPGSA,A,3,08,28,26,01,15,11,17,,,,,,2.8,1.7,2.3*3A
$GPRMC,175942.000,A,3748.7368,N,12217.7093,W,3.22,23.15,300812,,,A*46
$GPVTG,23.15,T,,M,3.22,N,6.0,K,A*3D
$GPGGA,175943.000,3748.7375,N,12217.7086,W,1,07,1.7,4.6,M,-25.1,M,,0000*6B
$GPGSA,A,3,08,28,26,01,15,11,17,,,,,,2.8,1.7,2.3*3A
$GPRMC,175943.000,A,3748.7375,N,12217.7086,W,2.79,30.41,300812,,,A*43
$GPVTG,30.41,T,,M,2.79,N,5.2,K,A*30
$GPGGA,175944.000,3748.7382,N,12217.7079,W,1,07,1.7,4.8,M,-25.1,M,,0000*6A
$GPGSA,A,3,08,28,26,01,15,11,17,,,,,,2.8,1.7,2.3*3A
$GPRMC,175944.000,A,3748.7382,N,12217.7079,W,2.78,30.45,300812,,,A*49
$GPVTG,30.45,T,,M,2.78,N,5.1,K,A*36
$GPGGA,175945.000,3748.7392,N,12217.7072,W,1,07,1.7,5.0,M,-25.1,M,,0000*68
$GPGSA,A,3,08,28,26,01,15,11,17,,,,,,2.8,1.7,2.3*3A
$GPGSV,3,1,11,17,66,179,27,28,64,019,34,26,53,252,25,08,52,105,37*7F
$GPGSV,3,2,11,15,30,301,20,01,20,071,40,27,17,312,19,11,17,054,39*78
$GPGSV,3,3,11,07,15,122,33,09,02,309,,04,00,172,*4A
$GPRMC,175945.000,A,3748.7392,N,12217.7072,W,2.96,25.73,300812,,,A*43
$GPVTG,25.73,T,,M,2.96,N,5.5,K,A*33
$GPGGA,175946.000,3748.7399,N,12217.7067,W,1,07,1.7,5.0,M,-25.1,M,,0000*64
$GPGSA,A,3,08,28,26,01,15,11,17,,,,,,2.8,1.7,2.3*3A
$GPRMC,175946.000,A,3748.7399,N,12217.7067,W,2.89,26.34,300812,,,A*41
$GPVTG,26.34,T,,M,2.89,N,5.4,K,A*3C
$GPGGA,175947.000,3748.7408,N,12217.7059,W,1,07,1.7,5.5,M,-25.1,M,,0000*62
$GPGSA,A,3,08,28,26,01,15,11,17,,,,,,2.8,1.7,2.3*3A
$GPRMC,175947.000,A,3748.7408,N,12217.7059,W,2.94,27.02,300812,,,A*4A
