$ADVER,3080,2.3
$GPRMC,181834.983,A,3748.8025,N,12217.8652,W,0.14,238.86,300812,,,A*7A
$GPRMC,181835.983,A,3748.8025,N,12217.8652,W,0.01,183.66,300812,,,A*72
$GPRMC,181836.983,A,3748.8024,N,12217.8651,W,0.11,63.56,300812,,,A*4E
$GPRMC,181837.983,A,3748.8022,N,12217.8651,W,0.39,272.27,300812,,,A*77
$GPRMC,181838.983,A,3748.8021,N,12217.8655,W,1.20,266.61,300812,,,A*71
$GPRMC,181839.983,A,3748.7915,N,12217.8637,W,1.35,187.22,300812,,,A*7A
$GPRMC,181838.983,A,3748.8016,N,12217.8655,W,0.66,337.89,300812,,,A*75
$GPRMC,181839.983,A,3748.8176,N,12217.8684,W,3.61,351.00,300812,,,A*7A
$GPRMC,181840.983,A,3748.8065,N,12217.8664,W,3.36,348.74,300812,,,A*70
$GPRMC,181841.983,A,3748.7961,N,12217.8644,W,0.87,5.11,300812,,,A*71
$GPRMC,181842.983,A,3748.7918,N,12217.8637,W,0.39,272.71,300812,,,A*79
$GPRMC,181843.983,A,3748.7958,N,12217.8645,W,0.09,251.32,300812,,,A*7C
$GPRMC,181844.983,A,3748.7975,N,12217.8649,W,0.25,313.61,300812,,,A*77
$GPRMC,181845.983,A,3748.7990,N,12217.8663,W,0.19,345.92,300812,,,A*75
$GPRMC,181846.983,A,3748.7994,N,12217.8664,W,0.20,243.00,300812,,,A*73
$GPRMC,181847.983,A,3748.8004,N,12217.8666,W,0.26,287.67,300812,,,A*70
$GPRMC,181848.983,A,3748.8008,N,12217.8666,W,2.05,315.30,300812,,,A*78
$GPRMC,181849.983,A,3748.8033,N,12217.8689,W,1.04,139.89,300812,,,A*7C
$GPRMC,181850.983,A,3748.8001,N,12217.8651,W,0.28,271.65,300812,,,A*72
$GPRMC,181851.983,A,3748.8069,N,12217.8732,W,1.38,243.23,300812,,,A*7A
$GPRMC,181852.983,A,3748.8077,N,12217.8754,W,2.53,230.95,300812,,,A*71
$GPRMC,181853.983,A,3748.8078,N,12217.8764,W,1.87,223.96,300812,,,A*77
$GPRMC,181854.983,A,3748.8025,N,12217.8684,W,1.68,150.46,300812,,,A*7C
$GPRMC,181855.983,A,3748.8020,N,12217.8680,W,0.86,212.15,300812,,,A*7E
$GPRMC,181856.983,A,3748.7975,N,12217.8620,W,2.31,196.05,300812,,,A*71
$GPRMC,181857.983,A,3748.7967,N,12217.8629,W,2.96,209.51,300812,,,A*73
$GPRMC,181858.983,A,3748.7937,N,12217.8637,W,4.08,228.12,300812,,,A*73
$GPRMC,181900.000,A,3748.7946,N,12217.8650,W,2.82,210.93,300812,,,A*7C
$GPRMC,181901.000,A,3748.7949,N,12217.8645,W,1.72,249.90,300812,,,A*75
$GPRMC,181902.000,A,3748.7960,N,12217.8649,W,2.31,235.32,300812,,,A*76
$GPRMC,181903.000,A,3748.7957,N,12217.8649,W,2.74,199.44,300812,,,A*76
$GPRMC,181904.000,A,3748.7951,N,12217.8659,W,2.94,219.60,300812,,,A*75
$GPRMC,181905.000,A,3748.7941,N,12217.8671,W,3.00,220.91,300812,,,A*77
$GPRMC,181906.000,A,3748.7932,N,12217.8677,W,3.26,200.90,300812,,,A*71
$GPRMC,181907.000,A,3748.7926,N,12217.8685,W,2.75,213.44,300812,,,A*74
$GPRMC,181908.000,A,3748.7920,N,12217.8690,W,1.64,243.87,300812,,,A*70
$GPRMC,181909.000,A,3748.7913,N,12217.8704,W,2.32,235.45,300812,,,A*72
$GPRMC,181910.000,A,3748.7907,N,12217.8700,W,1.33,194.91,300812,,,A*78
$GPRMC,181911.000,A,3748.7903,N,12217.8705,W,0.95,223.02,300812,,,A*70
$GPRMC,181912.000,A,3748.7905,N,12217.8709,W,0.41,264.64,300812,,,A*73
$GPRMC,181913.000,A,3748.7897,N,12217.8703,W,1.17,182.49,300812,,,A*74
$GPRMC,181914.000,A,3748.7882,N,12217.8705,W,2.05,179.16,300812,,,A*7F
$GPRMC,181915.000,A,3748.7880,N,12217.8712,W,1.53,166.28,300812,,,A*79
$GPRMC,181916.000,A,3748.7880,N,12217.8709,W,1.71,170.97,300812,,,A*73
$GPRMC,181917.000,A,3748.7877,N,12217.8707,W,0.96,175.60,300812,,,A*71
$GPRMC,181918.000,A,3748.7882,N,12217.8720,W,2.07,257.24,300812,,,A*78
$GPRMC,181919.000,A,3748.7881,N,12217.8727,W,2.07,257.24,300812,,,E*79
$GPRMC,181920.000,A,3748.7879,N,12217.8734,W,2.07,257.24,300812,,,E*76
$GPRMC,181921.000,A,3748.7915,N,12217.8792,W,8.69,298.10,300812,,,A*72
$GPRMC,181922.000,A,3748.7913,N,12217.8796,W,5.52,290.40,300812,,,A*7B
$GPRMC,181923.000,A,3748.7944,N,12217.8777,W,3.45,338.09,300812,,,A*79
$GPRMC,181924.000,A,3748.7951,N,12217.8764,W,1.11,342.18,300812,,,A*76
$GPRMC,181925.000,A,3748.7936,N,12217.8740,W,0.70,68.24,300812,,,A*42
$GPRMC,181926.000,A,3748.7933,N,12217.8732,W,1.31,8.53,300812,,,A*73
$GPRMC,181927.000,A,3748.7939,N,12217.8713,W,2.80,42.53,300812,,,A*4C
$GPRMC,181928.000,A,3748.7944,N,12217.8691,W,3.40,62.49,300812,,,A*46
$GPRMC,181929.000,A,3748.7939,N,12217.8676,W,3.34,74.89,300812,,,A*4C
$GPRMC,181930.000,A,3748.7925,N,12217.8657,W,2.74,103.68,300812,,,A*71
$GPRMC,181931.000,A,3748.7908,N,12217.8650,W,1.41,138.42,300812,,,A*7D
$GPRMC,181932.000,A,3748.7892,N,12217.8651,W,1.10,175.49,300812,,,A*7B
$GPRMC,181933.000,A,3748.7884,N,12217.8652,W,0.93,133.81,300812,,,A*72
$GPRMC,181934.000,A,3748.7880,N,12217.8650,W,0.39,92.00,300812,,,A*40
$GPRMC,181935.000,A,3748.7878,N,12217.8640,W,0.62,148.50,300812,,,A*7A
$GPRMC,181936.000,A,3748.7874,N,12217.8631,W,1.06,140.33,300812,,,A*7D
$GPRMC,181937.000,A,3748.7871,N,12217.8627,W,0.93,148.61,300812,,,A*7C
$GPRMC,181938.000,A,3748.7869,N,12217.8623,W,0.59,158.02,300812,,,A*7C
$GPRMC,181939.000,A,3748.7873,N,12217.8616,W,0.47,7.90,300812,,,A*7F
$GPRMC,181940.000,A,3748.7886,N,12217.8608,W,2.09,3.08,300812,,,A*79
$GPRMC,181941.000,A,3748.7897,N,12217.8608,W,2.52,3.50,300812,,,A*7B
$GPRMC,181942.000,A,3748.7903,N,12217.8607,W,2.46,357.34,300812,,,A*7E
$GPRMC,181943.000,A,3748.7908,N,12217.8606,W,2.09,1.71,300812,,,A*7F
$GPRMC,181944.000,A,3748.7915,N,12217.8606,W,1.91,4.56,300812,,,A*76
$GPRMC,181945.000,A,3748.7926,N,12217.8607,W,2.41,348.45,300812,,,A*71
$GPRMC,181946.000,A,3748.7935,N,12217.8607,W,2.38,352.49,300812,,,A*79
$GPRMC,181947.000,A,3748.7942,N,12217.8606,W,2.15,354.60,300812,,,A*7B
$GPRMC,181948.000,A,3748.7941,N,12217.8603,W,1.43,14.00,300812,,,A*43
$GPRMC,181949.000,A,3748.7936,N,12217.8599,W,0.64,20.63,300812,,,A*44
$GPRMC,181950.000,A,3748.7949,N,12217.8601,W,1.06,7.62,300812,,,A*77
$GPRMC,181951.000,A,3748.7953,N,12217.8601,W,0.95,358.08,300812,,,A*73
$GPRMC,181952.000,A,3748.7955,N,12217.8601,W,0.64,12.04,300812,,,A*49
$GPRMC,181953.000,A,3748.7968,N,12217.8603,W,1.01,357.55,300812,,,A*70
$GPRMC,181954.000,A,3748.7983,N,12217.8605,W,1.47,355.32,300812,,,A*75
$GPRMC,181955.000,A,3748.8000,N,12217.8608,W,1.92,356.42,300812,,,A*78
$GPRMC,181956.000,A,3748.8016,N,12217.8611,W,2.26,356.67,300812,,,A*7F
$GPRMC,181957.000,A,3748.8028,N,12217.8613,W,2.27,355.62,300812,,,A*76
$GPRMC,181958.000,A,3748.8038,N,12217.8615,W,2.24,355.81,300812,,,A*70
$GPRMC,181959.000,A,3748.8046,N,12217.8617,W,2.19,356.08,300812,,,A*76
$GPRMC,182000.000,A,3748.8054,N,12217.8619,W,2.08,356.09,300812,,,A*7C
$GPRMC,182001.000,A,3748.8054,N,12217.8620,W,1.34,355.52,300812,,,A*76
$GPRMC,182002.000,A,3748.8054,N,12217.8621,W,0.54,341.26,300812,,,A*75
$GPRMC,182003.000,A,3748.8052,N,12217.8621,W,0.38,199.82,300812,,,A*71
$GPRMC,182004.000,A,3748.8048,N,12217.8622,W,1.34,184.65,300812,,,A*76
$GPRMC,182005.000,A,3748.8045,N,12217.8622,W,1.19,179.81,300812,,,A*7D
$GPRMC,182006.000,A,3748.8043,N,12217.8622,W,0.84,180.42,300812,,,A*74
$GPRMC,182007.000,A,3748.7841,N,12217.8613,W,0.26,165.14,300812,,,A*72
$GPRMC,182008.000,A,3748.7850,N,12217.8613,W,0.74,4.19,300812,,,A*71
$GPRMC,182009.000,A,3748.7856,N,12217.8613,W,0.88,359.44,300812,,,A*76
$GPRMC,182010.000,A,3748.7853,N,12217.8613,W,0.56,356.34,300812,,,A*70
$GPRMC,182011.000,A,3748.7852,N,12217.8612,W,0.97,0.51,300812,,,A*7F
$GPRMC,182012.000,A,3748.7839,N,12217.8611,W,0.09,205.26,300812,,,A*72
$GPRMC,182013.000,A,3748.7838,N,12217.8611,W,0.53,184.49,300812,,,A*7E
$GPRMC,182014.000,A,3748.7838,N,12217.8611,W,0.08,176.16,300812,,,A*70
$GPRMC,182015.000,A,3748.7823,N,12217.8610,W,0.28,169.52,300812,,,A*76
$GPRMC,182016.000,A,3748.7813,N,12217.8609,W,0.52,177.04,300812,,,A*7F
$GPRMC,182017.000,A,3748.7802,N,12217.8608,W,0.12,153.15,300812,,,A*7D
$GPRMC,182018.000,A,3748.7803,N,12217.8608,W,0.50,5.12,300812,,,A*70
$GPRMC,182019.000,A,3748.7801,N,12217.8607,W,0.04,130.74,300812,,,A*7A
$GPRMC,182020.000,A,3748.7807,N,12217.8607,W,0.74,359.80,300812,,,A*77
$GPRMC,182021.000,A,3748.7810,N,12217.8607,W,0.16,338.50,300812,,,A*7E
$GPRMC,182022.000,A,3748.7803,N,12217.8607,W,0.32,7.52,300812,,,A*74
$GPRMC,182023.000,A,3748.7804,N,12217.8607,W,0.98,2.82,300812,,,A*7A
$GPRMC,182024.000,A,3748.7800,N,12217.8607,W,1.14,358.86,300812,,,A*74
$GPRMC,182025.000,A,3748.7800,N,12217.8606,W,0.21,352.10,300812,,,A*76
$GPRMC,182026.000,A,3748.7798,N,12217.8606,W,0.85,184.71,300812,,,A*7B
$GPRMC,182027.000,A,3748.7794,N,12217.8606,W,0.64,181.05,300812,,,A*7F
$GPRMC,182028.000,A,3748.7795,N,12217.8606,W,0.11,28.58,300812,,,A*49
$GPRMC,182029.000,A,3748.7793,N,12217.8606,W,0.22,8.75,300812,,,A*73
$GPRMC,182030.000,A,3748.7789,N,12217.8605,W,0.27,184.55,300812,,,A*71
$GPRMC,182031.000,A,3748.7787,N,12217.8605,W,0.51,178.34,300812,,,A*7B
$GPRMC,182032.000,A,3748.7778,N,12217.8604,W,0.60,178.59,300812,,,A*70
$GPRMC,182033.000,A,3748.7779,N,12217.8604,W,0.16,21.56,300812,,,A*43
$GPRMC,182034.000,A,3748.7784,N,12217.8604,W,0.98,2.19,300812,,,A*7A
$GPRMC,182035.000,A,3748.7788,N,12217.8604,W,0.34,350.93,300812,,,A*77
$GPRMC,182036.000,A,3748.7794,N,12217.8604,W,0.05,226.48,300812,,,A*7D
$GPRMC,182037.000,A,3748.7796,N,12217.8604,W,0.12,354.49,300812,,,A*7D
$GPRMC,182038.000,A,3748.7795,N,12217.8604,W,0.70,1.67,300812,,,A*7A
$GPRMC,182039.000,A,3748.7801,N,12217.8604,W,0.80,1.15,300812,,,A*73
$GPRMC,182040.000,A,3748.7806,N,12217.8604,W,0.27,348.26,300812,,,A*79
$GPRMC,182041.000,A,3748.7801,N,12217.8604,W,0.93,182.95,300812,,,A*7C
$GPRMC,182042.000,A,3748.7799,N,12217.8604,W,0.25,182.76,300812,,,A*71
$GPRMC,182043.000,A,3748.7806,N,12217.8604,W,0.02,37.32,300812,,,A*43
$GPRMC,182044.000,A,3748.7815,N,12217.8604,W,0.25,183.16,300812,,,A*7B
$GPRMC,182045.000,A,3748.7816,N,12217.8604,W,0.38,184.53,300812,,,A*73
$GPRMC,182046.000,A,3748.7813,N,12217.8604,W,0.91,181.48,300812,,,A*79
$GPRMC,182047.000,A,3748.7812,N,12217.8604,W,0.20,182.41,300812,,,A*79
$GPRMC,182048.000,A,3748.7801,N,12217.8604,W,1.14,181.34,300812,,,A*73
$GPRMC,182049.000,A,3748.7791,N,12217.8604,W,1.45,180.08,300812,,,A*7E
$GPRMC,182050.000,A,3748.7789,N,12217.8604,W,0.69,173.13,300812,,,A*76
$GPRMC,182051.000,A,3748.7792,N,12217.8605,W,0.33,183.04,300812,,,A*7A
$GPRMC,182052.000,A,3748.7794,N,12217.8605,W,0.22,180.26,300812,,,A*7C
$GPRMC,182053.000,A,3748.7800,N,12217.8603,W,0.33,155.21,300812,,,D*73
$GPRMC,182054.000,A,3748.7809,N,12217.8602,W,0.37,177.34,300812,,,D*7C
$GPRMC,182055.000,A,3748.7819,N,12217.8603,W,0.77,2.26,300812,,,D*79
$GPRMC,182056.000,A,3748.7815,N,12217.8603,W,0.22,1.74,300812,,,D*72
$GPRMC,182057.000,A,3748.7805,N,12217.8602,W,1.16,186.53,300812,,,D*7E
$GPRMC,182058.000,A,3748.7793,N,12217.8602,W,1.28,178.70,300812,,,D*7C
$GPRMC,182059.000,A,3748.7789,N,12217.8601,W,0.68,170.50,300812,,,D*7A
$GPRMC,182100.000,A,3748.7788,N,12217.8601,W,0.24,356.07,300812,,,D*7A
$GPRMC,182101.000,A,3748.7792,N,12217.8601,W,0.61,3.47,300812,,,D*76
$GPRMC,182102.000,A,3748.7798,N,12217.8601,W,0.22,341.06,300812,,,D*78
$GPRMC,182103.000,A,3748.7804,N,12217.8600,W,1.02,359.68,300812,,,D*70
$GPRMC,182104.000,A,3748.7806,N,12217.8600,W,1.02,359.59,300812,,,D*77
$GPRMC,182105.000,A,3748.7799,N,12217.8600,W,0.36,202.09,300812,,,D*73
$GPRMC,182106.000,A,3748.7797,N,12217.8600,W,0.69,185.14,300812,,,D*74
$GPRMC,182107.000,A,3748.7800,N,12217.8600,W,0.24,2.08,300812,,,D*7E
$GPRMC,182108.000,A,3748.7796,N,12217.8599,W,0.17,6.03,300812,,,D*7D
$GPRMC,182109.000,A,3748.7792,N,12217.8599,W,0.18,192.36,300812,,,D*7D
$GPRMC,182110.000,A,3748.7789,N,12217.8598,W,0.81,180.71,300812,,,D*7E
$GPRMC,182111.000,A,3748.7793,N,12217.8598,W,0.34,12.19,300812,,,D*4E
$GPRMC,182112.000,A,3748.7799,N,12217.8597,W,0.20,354.79,300812,,,D*7A
$GPRMC,182113.000,A,3748.7808,N,12217.8597,W,0.04,158.66,300812,,,D*7A
$GPRMC,182114.000,A,3748.7806,N,12217.8597,W,0.46,184.57,300812,,,D*76
$GPRMC,182115.000,A,3748.7803,N,12217.8597,W,0.05,310.50,300812,,,D*7D
$GPRMC,182116.000,A,3748.7804,N,12217.8597,W,0.05,132.22,300812,,,D*7E
$GPRMC,182117.000,A,3748.7805,N,12217.8598,W,0.34,352.63,300812,,,D*72
$GPRMC,182118.000,A,3748.7802,N,12217.8598,W,0.20,218.65,300812,,,D*76
$GPRMC,182119.000,A,3748.7793,N,12217.8598,W,0.07,210.53,300812,,,D*78
$GPRMC,182120.000,A,3748.7794,N,12217.8600,W,0.77,0.22,300812,,,D*75
$GPRMC,182121.000,A,3748.7795,N,12217.8601,W,0.32,330.17,300812,,,D*73
$GPRMC,182122.000,A,3748.7792,N,12217.8604,W,0.61,197.40,300812,,,D*79
$GPRMC,182123.000,A,3748.7783,N,12217.8608,W,1.92,194.02,300812,,,D*7C
$GPRMC,182124.000,A,3748.7780,N,12217.8609,W,0.94,178.53,300812,,,D*78
$GPRMC,182125.000,A,3748.7781,N,12217.8611,W,0.09,137.43,300812,,,D*7F
$GPRMC,182126.000,A,3748.7785,N,12217.8612,W,0.32,169.24,300812,,,D*79
$GPRMC,182127.000,A,3748.7783,N,12217.8613,W,0.11,50.99,300812,,,D*43
$GPRMC,182128.000,A,3748.7789,N,12217.8614,W,0.27,14.67,300812,,,D*45
$GPRMC,182129.000,A,3748.7781,N,12217.8614,W,0.40,178.28,300812,,,D*7D
$GPRMC,182130.000,A,3748.7781,N,12217.8615,W,0.12,4.16,300812,,,D*74
$GPRMC,182131.000,A,3748.7786,N,12217.8616,W,0.49,2.58,300812,,,D*73
$GPRMC,182132.000,A,3748.7791,N,12217.8615,W,0.04,100.84,300812,,,D*7E
$GPRMC,182133.000,A,3748.7792,N,12217.8619,W,0.75,189.88,300812,,,D*7B
$GPRMC,182134.000,A,3748.7796,N,12217.8622,W,0.21,0.13,300812,,,D*73
$GPRMC,182135.000,A,3748.7805,N,12217.8623,W,1.37,2.86,300812,,,D*7E
$GPRMC,182136.000,A,3748.7818,N,12217.8625,W,1.13,355.05,300812,,,D*7B
$GPRMC,182137.000,A,3748.7826,N,12217.8623,W,0.99,5.54,300812,,,D*70
$GPRMC,182138.000,A,3748.7825,N,12217.8625,W,0.23,321.66,300812,,,D*7F
$GPRMC,182139.000,A,3748.7826,N,12217.8628,W,0.47,195.96,300812,,,D*70
$GPRMC,182140.000,A,3748.7834,N,12217.8630,W,0.09,326.16,300812,,,D*7C
$GPRMC,182141.000,A,3748.7830,N,12217.8633,W,0.31,330.33,300812,,,D*71
$GPRMC,182142.000,A,3748.7828,N,12217.8635,W,0.58,351.46,300812,,,D*77
$GPRMC,182143.000,A,3748.7830,N,12217.8638,W,1.25,354.31,300812,,,D*7C
$GPRMC,182144.000,A,3748.7827,N,12217.8638,W,0.53,0.89,300812,,,D*7C
$GPRMC,182145.000,A,3748.7831,N,12217.8637,W,1.39,357.91,300812,,,D*70
$GPRMC,182146.000,A,3748.7835,N,12217.8637,W,1.20,355.43,300812,,,D*72
$GPRMC,182147.000,A,3748.7829,N,12217.8635,W,0.71,4.33,300812,,,D*79
$GPRMC,182148.000,A,3748.7830,N,12217.8634,W,0.37,355.11,300812,,,D*7A
$GPRMC,182149.000,A,3748.7821,N,12217.8633,W,0.41,176.39,300812,,,D*74
$GPRMC,182150.000,A,3748.7817,N,12217.8633,W,1.31,180.30,300812,,,D*7F
$GPRMC,182151.000,A,3748.7813,N,12217.8632,W,1.44,181.45,300812,,,D*7A
$GPRMC,182152.000,A,3748.7804,N,12217.8633,W,0.97,164.23,300812,,,D*7A
$GPRMC,182153.000,A,3748.7798,N,12217.8632,W,0.43,144.64,300812,,,D*78
$GPRMC,182154.000,A,3748.7787,N,12217.8633,W,0.91,183.06,300812,,,D*70
$GPRMC,182155.000,A,3748.7785,N,12217.8636,W,0.60,188.06,300812,,,D*73
$GPRMC,182156.000,A,3748.7783,N,12217.8639,W,0.40,193.45,300812,,,D*76
$GPRMC,182157.000,A,3748.7777,N,12217.8641,W,0.56,191.79,300812,,,D*79
$GPRMC,182158.000,A,3748.7775,N,12217.8643,W,0.12,345.93,300812,,,D*79
$GPRMC,182159.000,A,3748.7779,N,12217.8644,W,0.56,1.63,300812,,,D*7F
$GPRMC,182200.000,A,3748.7781,N,12217.8645,W,0.13,297.01,300812,,,D*7E
$GPRMC,182201.000,A,3748.7782,N,12217.8646,W,0.48,188.93,300812,,,D*77
$GPRMC,182202.000,A,3748.7781,N,12217.8645,W,0.19,109.96,300812,,,D*7C
$GPRMC,182203.000,A,3748.7775,N,12217.8645,W,0.57,167.68,300812,,,D*75
$GPRMC,182204.000,A,3748.7784,N,12217.8648,W,0.77,184.53,300812,,,D*76
$GPRMC,182205.000,A,3748.7780,N,12217.8650,W,0.23,224.94,300812,,,D*79
$GPRMC,182206.000,A,3748.7775,N,12217.8651,W,0.29,191.93,300812,,,D*71
$GPRMC,182207.000,A,3748.7777,N,12217.8652,W,0.65,189.29,300812,,,D*71
$GPRMC,182208.000,A,3748.7779,N,12217.8653,W,0.39,184.62,300812,,,D*7A
$GPRMC,182209.000,A,3748.7778,N,12217.8652,W,0.65,181.26,300812,,,D*77
$GPRMC,182210.000,A,3748.7784,N,12217.8652,W,0.36,7.28,300812,,,D*7B
$GPRMC,182211.000,A,3748.7792,N,12217.8652,W,0.74,358.84,300812,,,D*74
$GPRMC,182212.000,A,3748.7801,N,12217.8652,W,0.94,353.37,300812,,,D*7F
$GPRMC,182213.000,A,3748.7808,N,12217.8651,W,0.54,356.81,300812,,,D*70
$GPRMC,182214.000,A,3748.7810,N,12217.8652,W,0.29,336.66,300812,,,D*78
$GPRMC,182215.000,A,3748.7809,N,12217.8652,W,0.70,354.06,300812,,,D*7F
$GPRMC,182216.000,A,3748.7801,N,12217.8652,W,0.19,224.63,300812,,,D*7E
$GPRMC,182217.000,A,3748.7797,N,12217.8652,W,0.56,347.68,300812,,,D*7B
$GPRMC,182218.000,A,3748.7799,N,12217.8651,W,0.14,315.63,300812,,,D*73
$GPRMC,182219.000,A,3748.7795,N,12217.8645,W,0.28,32.04,300812,,,D*43
$GPRMC,182220.000,A,3748.7793,N,12217.8643,W,0.50,349.07,300812,,,D*7A
$GPRMC,182221.000,A,3748.7786,N,12217.8641,W,0.61,4.10,300812,,,D*73
$GPRMC,182222.000,A,3748.7781,N,12217.8640,W,0.19,185.64,300812,,,D*72
$GPRMC,182223.000,A,3748.7776,N,12217.8642,W,0.12,161.95,300812,,,D*76
$GPRMC,182224.000,A,3748.7776,N,12217.8644,W,0.21,349.30,300812,,,D*70
$GPRMC,182225.000,A,3748.7778,N,12217.8646,W,0.34,351.33,300812,,,D*73
$GPRMC,182226.000,A,3748.7772,N,12217.8646,W,0.65,186.90,300812,,,D*7F
$GPRMC,182227.000,A,3748.7765,N,12217.8647,W,1.56,185.47,300812,,,D*71
$GPRMC,182228.000,A,3748.7756,N,12217.8651,W,1.27,187.08,300812,,,D*76
$GPRMC,182229.000,A,3748.7746,N,12217.8650,W,1.30,184.92,300812,,,D*71
$GPRMC,182230.000,A,3748.7748,N,12217.8651,W,0.47,180.11,300812,,,D*78
$GPRMC,182231.000,A,3748.7762,N,12217.8650,W,1.02,358.50,300812,,,D*72
$GPRMC,182232.000,A,3748.7766,N,12217.8650,W,0.85,11.17,300812,,,D*46
$GPRMC,182233.000,A,3748.7766,N,12217.8645,W,0.34,88.30,300812,,,D*4C
$GPRMC,182234.000,A,3748.7766,N,12217.8642,W,0.45,143.48,300812,,,D*73
$GPRMC,182235.000,A,3748.7769,N,12217.8638,W,0.38,140.84,300812,,,D*79
$GPRMC,182236.000,A,3748.7762,N,12217.8634,W,0.21,55.45,300812,,,D*4D
$GPRMC,182237.000,A,3748.7755,N,12217.8630,W,0.53,175.89,300812,,,D*7A
$GPRMC,182238.000,A,3748.7748,N,12217.8627,W,1.35,177.75,300812,,,D*7F
$GPRMC,182239.000,A,3748.7751,N,12217.8624,W,0.16,120.56,300812,,,D*76
$GPRMC,182240.000,A,3748.7751,N,12217.8628,W,0.94,205.12,300812,,,D*7A
$GPRMC,182241.000,A,3748.7746,N,12217.8626,W,0.51,211.10,300812,,,D*7D
$GPRMC,182242.000,A,3748.7743,N,12217.8628,W,0.13,344.79,300812,,,D*7D
$GPRMC,182243.000,A,3748.7751,N,12217.8631,W,0.21,234.95,300812,,,D*72
$GPRMC,182244.000,A,3748.7762,N,12217.8635,W,1.19,356.19,300812,,,D*7A
$GPRMC,182245.000,A,3748.7772,N,12217.8638,W,0.78,347.02,300812,,,D*7B
$GPRMC,182246.000,A,3748.7770,N,12217.8641,W,0.34,216.20,300812,,,D*79
$GPRMC,182247.000,A,3748.7779,N,12217.8643,W,0.47,351.86,300812,,,D*79
$GPRMC,182248.000,A,3748.7774,N,12217.8644,W,0.34,189.29,300812,,,D*7A
$GPRMC,182249.000,A,3748.7778,N,12217.8645,W,0.68,185.26,300812,,,D*7C
$GPRMC,182250.000,A,3748.7779,N,12217.8646,W,0.37,188.85,300812,,,D*78
$GPRMC,182251.000,A,3748.7780,N,12217.8646,W,0.57,184.01,300812,,,D*79
$GPRMC,182252.000,A,3748.7789,N,12217.8647,W,0.61,0.51,300812,,,D*7F
$GPRMC,182253.000,A,3748.7800,N,12217.8648,W,0.45,339.80,300812,,,D*7C
$GPRMC,182254.000,A,3748.7797,N,12217.8649,W,0.55,198.53,300812,,,D*7D
$GPRMC,182255.000,A,3748.7793,N,12217.8650,W,1.12,187.47,300812,,,D*79
$GPRMC,182256.000,A,3748.7790,N,12217.8650,W,1.76,184.88,300812,,,D*7B
$GPRMC,182257.000,A,3748.7790,N,12217.8651,W,0.53,184.56,300812,,,D*7E
$GPRMC,182258.000,A,3748.7800,N,12217.8648,W,1.03,346.27,300812,,,D*71
$GPRMC,182259.000,A,3748.7794,N,12217.8648,W,0.13,298.87,300812,,,D*7A
$GPRMC,182300.000,A,3748.7786,N,12217.8651,W,0.22,267.58,300812,,,D*7C
$GPRMC,182301.000,A,3748.7778,N,12217.8654,W,0.64,182.27,300812,,,D*7B
$GPRMC,182302.000,A,3748.7769,N,12217.8652,W,0.85,173.77,300812,,,D*7A
$GPRMC,182303.000,A,3748.7768,N,12217.8651,W,0.20,176.80,300812,,,D*7B
$GPRMC,182304.000,A,3748.7765,N,12217.8648,W,0.94,174.45,300812,,,D*7D
$GPRMC,182305.000,A,3748.7757,N,12217.8644,W,1.29,177.74,300812,,,D*77
$GPRMC,182306.000,A,3748.7757,N,12217.8640,W,0.42,148.68,300812,,,D*7D
$GPRMC,182307.000,A,3748.7761,N,12217.8634,W,0.11,142.55,300812,,,D*78
$GPRMC,182308.000,A,3748.7760,N,12217.8626,W,0.46,53.45,300812,,,D*47
$GPRMC,182309.000,A,3748.7748,N,12217.8613,W,1.09,153.92,300812,,,D*7B
$GPRMC,182310.000,A,3748.7742,N,12217.8606,W,0.50,156.87,300812,,,D*71
$GPRMC,182311.000,A,3748.7744,N,12217.8604,W,0.53,176.04,300812,,,D*7E
$GPRMC,182312.000,A,3748.7748,N,12217.8601,W,0.61,197.75,300812,,,D*7C
$GPRMC,182313.000,A,3748.7747,N,12217.8598,W,0.70,174.95,300812,,,D*72
$GPRMC,182314.000,A,3748.7751,N,12217.8596,W,0.65,173.00,300812,,,D*73
$GPRMC,182315.000,A,3748.7754,N,12217.8594,W,0.16,43.80,300812,,,D*4B
$GPRMC,182316.000,A,3748.7756,N,12217.8594,W,0.49,183.49,300812,,,D*78
$GPRMC,182317.000,A,3748.7750,N,12217.8596,W,1.46,180.40,300812,,,D*79
$GPRMC,182318.000,A,3748.7738,N,12217.8593,W,1.85,170.68,300812,,,D*77
$GPRMC,182319.000,A,3748.7742,N,12217.8591,W,0.51,149.78,300812,,,D*7A
$GPRMC,182320.000,A,3748.7741,N,12217.8588,W,0.82,171.27,300812,,,D*74
$GPRMC,182321.000,A,3748.7741,N,12217.8592,W,1.04,189.10,300812,,,D*72
$GPRMC,182322.000,A,3748.7750,N,12217.8593,W,0.38,3.37,300812,,,D*78
$GPRMC,182323.000,A,3748.7759,N,12217.8598,W,0.49,304.56,300812,,,D*7E
$GPRMC,182324.000,A,3748.7760,N,12217.8597,W,0.52,9.35,300812,,,D*7D
$GPRMC,182325.000,A,3748.7759,N,12217.8598,W,0.36,35.06,300812,,,D*44
$GPRMC,182326.000,A,3748.7765,N,12217.8598,W,0.15,347.22,300812,,,D*79
$GPRMC,182327.000,A,3748.7773,N,12217.8598,W,0.07,270.26,300812,,,D*7D
$GPRMC,182328.000,A,3748.7773,N,12217.8604,W,0.73,201.03,300812,,,D*76
$GPRMC,182329.000,A,3748.7775,N,12217.8605,W,0.65,186.93,300812,,,D*72
$GPRMC,182330.000,A,3748.7778,N,12217.8612,W,1.02,199.07,300812,,,D*72
$GPRMC,182331.000,A,3748.7783,N,12217.8614,W,0.18,305.44,300812,,,D*7B
$GPRMC,182332.000,A,3748.7790,N,12217.8613,W,0.46,357.30,300812,,,D*72
$GPRMC,182333.000,A,3748.7788,N,12217.8611,W,0.30,68.44,300812,,,D*45
$GPRMC,182334.000,A,3748.7784,N,12217.8609,W,0.67,164.96,300812,,,D*77
$GPRMC,182335.000,A,3748.7774,N,12217.8607,W,1.38,174.46,300812,,,D*70
$GPRMC,182336.000,A,3748.7777,N,12217.8614,W,0.34,207.64,300812,,,D*78
$GPRMC,182337.000,A,3748.7774,N,12217.8623,W,0.34,243.36,300812,,,D*79
$GPRMC,182338.000,A,3748.7773,N,12217.8627,W,0.35,259.74,300812,,,D*79
$GPRMC,182339.000,A,3748.7769,N,12217.8634,W,0.67,287.10,300812,,,D*77
$GPRMC,182340.000,A,3748.7764,N,12217.8636,W,0.90,186.32,300812,,,D*7C
$GPRMC,182341.000,A,3748.7761,N,12217.8636,W,0.18,177.11,300812,,,D*77
$GPRMC,182342.000,A,3748.7767,N,12217.8637,W,1.00,346.56,300812,,,D*78
$GPRMC,182343.000,A,3748.7780,N,12217.8641,W,1.09,352.93,300812,,,D*74
$GPRMC,182344.000,A,3748.7792,N,12217.8646,W,1.03,336.57,300812,,,D*77
$GPRMC,182345.000,A,3748.7802,N,12217.8652,W,0.91,330.45,300812,,,D*7A
$GPRMC,182346.000,A,3748.7807,N,12217.8655,W,0.85,304.37,300812,,,D*7C
$GPRMC,182347.000,A,3748.7809,N,12217.8652,W,0.26,158.49,300812,,,D*7F
$GPRMC,182348.000,A,3748.7813,N,12217.8654,W,0.37,165.54,300812,,,D*7F
$GPRMC,182349.000,A,3748.7823,N,12217.8659,W,1.38,338.76,300812,,,D*74
$GPRMC,182350.000,A,3748.7837,N,12217.8669,W,2.13,339.97,300812,,,D*7E
$GPRMC,182351.000,A,3748.7848,N,12217.8671,W,2.29,336.59,300812,,,D*7A
$GPRMC,182352.000,A,3748.7839,N,12217.8663,W,0.21,133.23,300812,,,D*7C
$GPRMC,182353.000,A,3748.7819,N,12217.8652,W,2.49,156.70,300812,,,D*74
$GPRMC,182354.000,A,3748.7823,N,12217.8653,W,1.21,164.27,300812,,,D*75
$GPRMC,182355.000,A,3748.7827,N,12217.8653,W,1.29,142.82,300812,,,D*73
$GPRMC,182356.000,A,3748.7820,N,12217.8649,W,2.00,165.52,300812,,,D*7C
$GPRMC,182357.000,A,3748.7822,N,12217.8649,W,1.08,178.04,300812,,,D*7B
$GPRMC,182358.000,A,3748.7831,N,12217.8650,W,0.52,344.84,300812,,,D*75
$GPRMC,182359.000,A,3748.7843,N,12217.8651,W,1.57,351.45,300812,,,D*7D
$GPRMC,182400.000,A,3748.7847,N,12217.8648,W,2.01,9.51,300812,,,D*71
$GPRMC,182401.000,A,3748.7842,N,12217.8643,W,2.27,1.42,300812,,,D*70
$GPRMC,182402.000,A,3748.7845,N,12217.8646,W,1.84,329.91,300812,,,D*7C
$GPRMC,182403.000,A,3748.7851,N,12217.8645,W,0.55,326.65,300812,,,D*72
$GPRMC,182404.000,A,3748.7840,N,12217.8643,W,0.53,340.12,300812,,,D*75
$GPRMC,182405.000,A,3748.7837,N,12217.8647,W,0.34,359.77,300812,,,D*7A
$GPRMC,182406.000,A,3748.7837,N,12217.8653,W,0.22,270.45,300812,,,D*70
$GPRMC,182407.000,A,3748.7826,N,12217.8657,W,1.11,175.44,300812,,,D*73
$GPRMC,182408.000,A,3748.7825,N,12217.8656,W,1.20,168.17,300812,,,D*76
$GPRMC,182409.000,A,3748.7829,N,12217.8649,W,0.11,46.21,300812,,,D*4E
$GPRMC,182410.000,A,3748.7836,N,12217.8646,W,0.94,340.38,300812,,,D*77
$GPRMC,182411.000,A,3748.7841,N,12217.8647,W,0.56,321.25,300812,,,D*72
$GPRMC,182412.000,A,3748.7853,N,12217.8649,W,1.56,358.04,300812,,,D*70
$GPRMC,182413.000,A,3748.7870,N,12217.8654,W,3.36,346.34,300812,,,D*74
$GPRMC,182414.000,A,3748.7871,N,12217.8653,W,2.27,339.66,300812,,,D*7B
$GPRMC,182415.000,A,3748.7872,N,12217.8653,W,1.05,342.47,300812,,,D*75
$GPRMC,182416.000,A,3748.7860,N,12217.8656,W,1.14,203.78,300812,,,D*78
$GPRMC,182417.000,A,3748.7838,N,12217.8654,W,3.35,168.43,300812,,,D*71
$GPRMC,182418.000,A,3748.7816,N,12217.8644,W,3.54,167.04,300812,,,D*78
$GPRMC,182419.000,A,3748.7814,N,12217.8640,W,2.38,154.77,300812,,,D*70
$GPRMC,182420.000,A,3748.7813,N,12217.8637,W,1.67,173.46,300812,,,D*73
$GPRMC,182421.000,A,3748.7822,N,12217.8639,W,0.29,259.80,300812,,,D*74
$GPRMC,182422.000,A,3748.7838,N,12217.8648,W,0.49,3.83,300812,,,D*72
$GPRMC,182423.000,A,3748.7834,N,12217.8638,W,1.01,128.12,300812,,,D*75
$GPRMC,182424.000,A,3748.7839,N,12217.8635,W,0.67,96.37,300812,,,D*40
$GPRMC,182425.000,A,3748.7843,N,12217.8633,W,0.33,90.26,300812,,,D*4D
$GPRMC,182426.000,A,3748.7842,N,12217.8635,W,0.71,340.83,300812,,,D*7E
$GPRMC,182427.000,A,3748.7842,N,12217.8635,W,0.45,43.42,300812,,,D*45
$GPRMC,182428.000,A,3748.7836,N,12217.8638,W,0.64,278.02,300812,,,D*79
$GPRMC,182429.000,A,3748.7836,N,12217.8645,W,1.35,313.11,300812,,,D*79
$GPRMC,182430.000,A,3748.7832,N,12217.8649,W,0.76,325.40,300812,,,D*7E
$GPRMC,182431.000,A,3748.7827,N,12217.8647,W,0.67,189.48,300812,,,D*79
$GPRMC,182432.000,A,3748.7827,N,12217.8645,W,0.96,211.30,300812,,,D*7B
$GPRMC,182433.000,A,3748.7820,N,12217.8643,W,1.59,172.96,300812,,,D*73
$GPRMC,182434.000,A,3748.7817,N,12217.8640,W,0.98,154.88,300812,,,D*74
$GPRMC,182435.000,A,3748.7820,N,12217.8641,W,1.19,154.09,300812,,,D*71
$GPRMC,182436.000,A,3748.7821,N,12217.8638,W,1.23,165.03,300812,,,D*7C
$GPRMC,182437.000,A,3748.7829,N,12217.8644,W,1.05,218.56,300812,,,D*73
$GPRMC,182438.000,A,3748.7838,N,12217.8653,W,0.95,284.98,300812,,,D*75
$GPRMC,182439.000,A,3748.7857,N,12217.8663,W,2.11,341.30,300812,,,D*7A
$GPRMC,182440.000,A,3748.7876,N,12217.8669,W,2.71,355.31,300812,,,D*7F
$GPRMC,182441.000,A,3748.7886,N,12217.8674,W,1.92,353.30,300812,,,D*74
$GPRMC,182442.000,A,3748.7882,N,12217.8674,W,0.73,333.45,300812,,,D*79
$GPRMC,182443.000,A,3748.7880,N,12217.8673,W,0.57,318.32,300812,,,D*72
$GPRMC,182444.000,A,3748.7875,N,12217.8670,W,0.38,299.79,300812,,,D*72
$GPRMC,182445.000,A,3748.7866,N,12217.8672,W,1.19,293.66,300812,,,D*75
$GPRMC,182446.000,A,3748.7858,N,12217.8677,W,0.98,233.07,300812,,,D*7B
$GPRMC,182447.000,A,3748.7858,N,12217.8684,W,0.88,229.87,300812,,,D*74
$GPRMC,182448.000,A,3748.7851,N,12217.8691,W,1.47,192.71,300812,,,D*7E
$GPRMC,182449.000,A,3748.7848,N,12217.8701,W,1.15,215.85,300812,,,D*7F
$GPRMC,182450.000,A,3748.7843,N,12217.8710,W,0.64,175.36,300812,,,D*76
$GPRMC,182451.000,A,3748.7833,N,12217.8699,W,1.80,147.49,300812,,,D*72
$GPRMC,182452.000,A,3748.7827,N,12217.8690,W,1.45,121.15,300812,,,D*7D
$GPRMC,182453.000,A,3748.7839,N,12217.8691,W,1.05,13.27,300812,,,D*47
$GPRMC,182454.000,A,3748.7852,N,12217.8697,W,2.54,338.96,300812,,,D*7C
$GPRMC,182455.000,A,3748.7866,N,12217.8700,W,3.71,346.68,300812,,,D*7B
$GPRMC,182456.000,A,3748.7875,N,12217.8701,W,3.01,347.17,300812,,,D*75
$GPRMC,182457.000,A,3748.7878,N,12217.8702,W,2.28,329.12,300812,,,D*7D
$GPRMC,182458.000,A,3748.7868,N,12217.8700,W,0.91,282.26,300812,,,D*76
$GPRMC,182459.000,A,3748.7873,N,12217.8704,W,0.44,325.30,300812,,,D*7A
$GPRMC,182500.000,A,3748.7880,N,12217.8704,W,0.07,256.05,300812,,,D*7F
$GPRMC,182501.000,A,3748.7869,N,12217.8698,W,0.91,117.50,300812,,,D*74
$GPRMC,182502.000,A,3748.7863,N,12217.8693,W,1.46,108.22,300812,,,D*76
$GPRMC,182503.000,A,3748.7855,N,12217.8680,W,2.82,137.18,300812,,,D*7E
$GPRMC,182504.000,A,3748.7846,N,12217.8675,W,3.05,144.45,300812,,,D*73
$GPRMC,182505.000,A,3748.7838,N,12217.8675,W,2.30,157.37,300812,,,D*7B
$GPRMC,182506.000,A,3748.7829,N,12217.8662,W,1.77,141.10,300812,,,D*7C
$GPRMC,182507.000,A,3748.7819,N,12217.8652,W,1.43,142.56,300812,,,D*7B
$GPRMC,182508.000,A,3748.7799,N,12217.8640,W,2.57,166.99,300812,,,D*73
$GPRMC,182509.000,A,3748.7787,N,12217.8638,W,1.89,183.33,300812,,,D*79
$GPRMC,182510.000,A,3748.7778,N,12217.8642,W,1.91,216.81,300812,,,D*73
$GPRMC,182511.000,A,3748.7767,N,12217.8641,W,1.18,186.26,300812,,,D*79
$GPRMC,182512.000,A,3748.7747,N,12217.8629,W,1.37,153.79,300812,,,D*79
$GPRMC,182513.000,A,3748.7758,N,12217.8629,W,0.33,146.00,300812,,,D*79
$GPRMC,182514.000,A,3748.7758,N,12217.8639,W,0.92,206.42,300812,,,D*75
$GPRMC,182515.000,A,3748.7753,N,12217.8639,W,1.18,188.93,300812,,,D*75
$GPRMC,182516.000,A,3748.7755,N,12217.8638,W,1.31,169.48,300812,,,D*73
$GPRMC,182517.000,A,3748.7764,N,12217.8641,W,0.10,337.76,300812,,,D*78
$GPRMC,182518.000,A,3748.7768,N,12217.8633,W,1.28,5.88,300812,,,D*77
$GPRMC,182519.000,A,3748.7768,N,12217.8632,W,2.12,347.33,300812,,,D*78
$GPRMC,182520.000,A,3748.7757,N,12217.8628,W,0.75,302.85,300812,,,D*7A
$GPRMC,182521.000,A,3748.7752,N,12217.8623,W,0.86,175.86,300812,,,D*78
$GPRMC,182522.000,A,3748.7749,N,12217.8617,W,0.60,131.17,300812,,,D*76
$GPRMC,182523.000,A,3748.7739,N,12217.8620,W,0.84,144.39,300812,,,D*70
$GPRMC,182524.000,A,3748.7730,N,12217.8617,W,1.82,160.55,300812,,,D*71
$GPRMC,182525.000,A,3748.7733,N,12217.8620,W,1.90,172.49,300812,,,D*7A
$GPRMC,182526.000,A,3748.7735,N,12217.8623,W,1.11,188.84,300812,,,D*71
$GPRMC,182527.000,A,3748.7742,N,12217.8622,W,0.19,149.36,300812,,,D*7C
$GPRMC,182528.000,A,3748.7751,N,12217.8617,W,0.84,108.65,300812,,,D*70
$GPRMC,182529.000,A,3748.7754,N,12217.8611,W,1.72,135.70,300812,,,D*70
$GPRMC,182530.000,A,3748.7758,N,12217.8611,W,1.76,126.82,300812,,,D*7F
$GPRMC,182531.000,A,3748.7766,N,12217.8606,W,0.75,56.20,300812,,,D*49
$GPRMC,182532.000,A,3748.7778,N,12217.8613,W,1.10,347.46,300812,,,D*70
$GPRMC,182533.000,A,3748.7771,N,12217.8621,W,1.03,276.73,300812,,,D*7E
$GPRMC,182534.000,A,3748.7778,N,12217.8629,W,1.55,300.19,300812,,,D*77
$GPRMC,182535.000,A,3748.7788,N,12217.8640,W,1.63,299.62,300812,,,D*7E
$GPRMC,182536.000,A,3748.7794,N,12217.8641,W,1.25,307.08,300812,,,D*79
$GPRMC,182537.000,A,3748.7795,N,12217.8649,W,2.04,276.92,300812,,,D*75
$GPRMC,182538.000,A,3748.7787,N,12217.8657,W,1.42,230.00,300812,,,D*7E
$GPRMC,182539.000,A,3748.7784,N,12217.8662,W,0.70,273.42,300812,,,D*7B
$GPRMC,182540.000,A,3748.7776,N,12217.8668,W,1.06,204.22,300812,,,D*74
$GPRMC,182541.000,A,3748.7767,N,12217.8667,W,1.19,207.08,300812,,,D*7F
$GPRMC,182542.000,A,3748.7756,N,12217.8665,W,1.19,185.14,300812,,,D*78
$GPRMC,182543.000,A,3748.7746,N,12217.8652,W,0.93,154.37,300812,,,D*72
$GPRMC,182544.000,A,3748.7731,N,12217.8643,W,2.02,169.62,300812,,,D*71
$GPRMC,182545.000,A,3748.7724,N,12217.8631,W,1.50,125.24,300812,,,D*7F
$GPRMC,182546.000,A,3748.7728,N,12217.8626,W,0.87,99.65,300812,,,D*4E
$GPRMC,182547.000,A,3748.7725,N,12217.8620,W,0.96,79.85,300812,,,D*44
$GPRMC,182548.000,A,3748.7729,N,12217.8625,W,0.41,308.86,300812,,,D*7E
$GPRMC,182549.000,A,3748.7743,N,12217.8633,W,0.67,293.60,300812,,,D*7B
$GPRMC,182550.000,A,3748.7743,N,12217.8634,W,0.77,204.54,300812,,,D*7C
$GPRMC,182551.000,A,3748.7752,N,12217.8638,W,0.59,279.76,300812,,,D*77
$GPRMC,182552.000,A,3748.7756,N,12217.8635,W,0.35,166.86,300812,,,D*75
$GPRMC,182553.000,A,3748.7756,N,12217.8634,W,1.22,185.59,300812,,,D*7D
$GPRMC,182554.000,A,3748.7755,N,12217.8631,W,1.77,191.14,300812,,,D*70
$GPRMC,182555.000,A,3748.7741,N,12217.8637,W,3.45,195.16,300812,,,D*77
$GPRMC,182556.000,A,3748.7730,N,12217.8644,W,3.17,183.07,300812,,,D*76
$GPRMC,182557.000,A,3748.7718,N,12217.8639,W,2.70,170.82,300812,,,D*76
$GPRMC,182558.000,A,3748.7699,N,12217.8626,W,3.85,162.86,300812,,,D*73
$GPRMC,182559.000,A,3748.7681,N,12217.8622,W,4.23,169.81,300812,,,D*78
$GPRMC,182600.000,A,3748.7661,N,12217.8620,W,4.74,181.65,300812,,,D*75
$GPRMC,182601.000,A,3748.7659,N,12217.8616,W,3.10,178.12,300812,,,D*79
$GPRMC,182602.000,A,3748.7681,N,12217.8613,W,0.73,354.57,300812,,,D*71
$GPRMC,182603.000,A,3748.7677,N,12217.8602,W,0.55,135.18,300812,,,D*73
$GPRMC,182604.000,A,3748.7688,N,12217.8589,W,1.18,109.47,300812,,,D*79
$GPRMC,182605.000,A,3748.7694,N,12217.8591,W,0.27,189.38,300812,,,D*71
$GPRMC,182606.000,A,3748.7703,N,12217.8597,W,0.61,225.10,300812,,,D*76
$GPRMC,182607.000,A,3748.7715,N,12217.8604,W,0.93,291.17,300812,,,D*7C
$GPRMC,182608.000,A,3748.7725,N,12217.8619,W,0.63,289.47,300812,,,D*7F
$GPRMC,182609.000,A,3748.7711,N,12217.8621,W,1.95,192.24,300812,,,D*76
$GPRMC,182610.000,A,3748.7708,N,12217.8617,W,2.61,179.10,300812,,,D*79
$GPRMC,182611.000,A,3748.7703,N,12217.8622,W,2.55,205.81,300812,,,D*72
$GPRMC,182612.000,A,3748.7700,N,12217.8629,W,1.56,191.89,300812,,,D*7F
$GPRMC,182613.000,A,3748.7698,N,12217.8627,W,0.87,188.98,300812,,,D*75
$GPRMC,182614.000,A,3748.7699,N,12217.8626,W,0.09,320.23,300812,,,D*74
$GPRMC,182615.000,A,3748.7703,N,12217.8623,W,1.02,345.16,300812,,,D*7D
$GPRMC,182616.000,A,3748.7709,N,12217.8625,W,1.62,349.52,300812,,,D*78
$GPRMC,182617.000,A,3748.7714,N,12217.8624,W,2.04,346.12,300812,,,D*7C
$GPRMC,182618.000,A,3748.7722,N,12217.8619,W,2.81,8.95,300812,,,D*73
$GPRMC,182619.000,A,3748.7733,N,12217.8610,W,3.84,7.46,300812,,,D*7E
$GPRMC,182620.000,A,3748.7747,N,12217.8599,W,4.83,8.28,300812,,,D*72
$GPRMC,182621.000,A,3748.7763,N,12217.8594,W,5.64,5.63,300812,,,D*72
$GPRMC,182622.000,A,3748.7770,N,12217.8596,W,4.19,1.23,300812,,,D*7A
$GPRMC,182623.000,A,3748.7776,N,12217.8595,W,3.10,0.37,300812,,,D*74
$GPRMC,182624.000,A,3748.7775,N,12217.8598,W,2.56,11.94,300812,,,D*47
$GPRMC,182625.000,A,3748.7778,N,12217.8596,W,2.03,10.54,300812,,,D*48
$GPRMC,182626.000,A,3748.7776,N,12217.8596,W,1.02,350.61,300812,,,D*76
$GPRMC,182627.000,A,3748.7770,N,12217.8598,W,0.61,260.90,300812,,,D*77
$GPRMC,182628.000,A,3748.7766,N,12217.8598,W,1.22,222.81,300812,,,D*7F
$GPRMC,182629.000,A,3748.7768,N,12217.8596,W,0.07,115.29,300812,,,D*7D
$GPRMC,182630.000,A,3748.7761,N,12217.8597,W,0.34,84.07,300812,,,D*48
$GPRMC,182631.000,A,3748.7749,N,12217.8601,W,0.81,193.58,300812,,,D*7C
$GPRMC,182632.000,A,3748.7737,N,12217.8605,W,0.89,171.47,300812,,,D*78
$GPRMC,182633.000,A,3748.7728,N,12217.8607,W,0.76,156.40,300812,,,D*77
$GPRMC,182634.000,A,3748.7720,N,12217.8608,W,0.64,128.46,300812,,,D*7B
$GPRMC,182635.000,A,3748.7707,N,12217.8611,W,1.69,193.30,300812,,,D*7A
$GPRMC,182636.000,A,3748.7708,N,12217.8610,W,1.64,200.16,300812,,,D*77
$GPRMC,182637.000,A,3748.7707,N,12217.8610,W,1.48,200.10,300812,,,D*71
$GPRMC,182638.000,A,3748.7719,N,12217.8602,W,0.59,72.47,300812,,,D*46
$GPRMC,182639.000,A,3748.7737,N,12217.8591,W,2.48,33.92,300812,,,D*4D
$GPRMC,182640.000,A,3748.7739,N,12217.8582,W,2.17,29.86,300812,,,D*4B
$GPRMC,182641.000,A,3748.7755,N,12217.8575,W,2.95,19.49,300812,,,D*42
$GPRMC,182642.000,A,3748.7783,N,12217.8574,W,3.20,8.03,300812,,,D*7A
$GPRMC,182643.000,A,3748.7789,N,12217.8578,W,3.20,358.86,300812,,,D*76
$GPRMC,182644.000,A,3748.7792,N,12217.8581,W,2.09,348.08,300812,,,D*70
$GPRMC,182645.000,A,3748.7803,N,12217.8589,W,1.37,321.69,300812,,,D*78
$GPRMC,182646.000,A,3748.7803,N,12217.8592,W,1.14,259.74,300812,,,D*72
$GPRMC,182647.000,A,3748.7792,N,12217.8597,W,0.63,270.84,300812,,,D*74
$GPRMC,182648.000,A,3748.7793,N,12217.8601,W,0.53,334.08,300812,,,D*70
$GPRMC,182649.000,A,3748.7783,N,12217.8596,W,0.42,81.07,300812,,,D*4F
$GPRMC,182650.000,A,3748.7787,N,12217.8593,W,0.99,58.29,300812,,,D*48
$GPRMC,182651.000,A,3748.7783,N,12217.8594,W,0.90,107.34,300812,,,D*74
$GPRMC,182652.000,A,3748.7784,N,12217.8594,W,0.73,143.75,300812,,,D*78
$GPRMC,182653.000,A,3748.7780,N,12217.8601,W,1.04,170.21,300812,,,D*72
$GPRMC,182654.000,A,3748.7770,N,12217.8599,W,0.96,129.10,300812,,,D*7C
$GPRMC,182655.000,A,3748.7758,N,12217.8597,W,0.72,124.03,300812,,,D*7C
$GPRMC,182656.000,A,3748.7751,N,12217.8597,W,0.02,290.60,300812,,,D*78
$GPRMC,182657.000,A,3748.7754,N,12217.8601,W,0.74,305.19,300812,,,D*72
$GPRMC,182658.000,A,3748.7756,N,12217.8605,W,1.27,314.88,300812,,,D*74
$GPRMC,182659.000,A,3748.7748,N,12217.8608,W,1.01,284.90,300812,,,D*72
$GPRMC,182700.000,A,3748.7742,N,12217.8628,W,1.39,244.32,300812,,,D*78
$GPRMC,182701.000,A,3748.7746,N,12217.8629,W,0.99,222.93,300812,,,D*7C
$GPRMC,182702.000,A,3748.7754,N,12217.8624,W,0.35,13.88,300812,,,D*4D
$GPRMC,182703.000,A,3748.7768,N,12217.8624,W,1.50,15.63,300812,,,D*42
$GPRMC,182704.000,A,3748.7777,N,12217.8618,W,1.38,29.38,300812,,,D*4B
$GPRMC,182705.000,A,3748.7787,N,12217.8623,W,1.34,20.01,300812,,,D*42
$GPRMC,182706.000,A,3748.7793,N,12217.8627,W,1.04,38.47,300812,,,D*48
$GPRMC,182707.000,A,3748.7794,N,12217.8623,W,1.72,38.69,300812,,,D*47
$GPRMC,182708.000,A,3748.7797,N,12217.8616,W,1.95,46.22,300812,,,D*42
$GPRMC,182709.000,A,3748.7802,N,12217.8612,W,1.23,38.24,300812,,,D*46
$GPRMC,182710.000,A,3748.7802,N,12217.8610,W,0.71,36.30,300812,,,D*41
$GPRMC,182711.000,A,3748.7804,N,12217.8609,W,0.34,61.38,300812,,,D*45
$GPRMC,182712.000,A,3748.7805,N,12217.8607,W,0.97,26.07,300812,,,D*4F
$GPRMC,182713.000,A,3748.7801,N,12217.8605,W,0.83,27.12,300812,,,D*48
$GPRMC,182714.000,A,3748.7795,N,12217.8604,W,0.30,30.80,300812,,,D*49
$GPRMC,182715.000,A,3748.7786,N,12217.8605,W,0.91,192.87,300812,,,D*7E
$GPRMC,182716.000,A,3748.7784,N,12217.8604,W,0.60,188.03,300812,,,D*77
$GPRMC,182717.000,A,3748.7784,N,12217.8604,W,0.08,359.05,300812,,,D*70
$GPRMC,182718.000,A,3748.7781,N,12217.8604,W,0.13,183.94,300812,,,D*7D
$GPRMC,182719.000,A,3748.7784,N,12217.8602,W,0.91,16.95,300812,,,D*49
$GPRMC,182720.000,A,3748.7786,N,12217.8601,W,0.03,322.82,300812,,,D*7B
$GPRMC,182721.000,A,3748.7783,N,12217.8602,W,0.65,199.59,300812,,,D*78
$GPRMC,182722.000,A,3748.7786,N,12217.8600,W,0.21,196.87,300812,,,D*70
$GPRMC,182723.000,A,3748.7785,N,12217.8599,W,0.12,57.01,300812,,,D*43
$GPRMC,182724.000,A,3748.7785,N,12217.8598,W,0.75,186.17,300812,,,D*7E
$GPRMC,182725.000,A,3748.7788,N,12217.8595,W,0.57,172.25,300812,,,D*75
$GPRMC,182726.000,A,3748.7787,N,12217.8594,W,0.24,132.92,300812,,,D*74
$GPRMC,182727.000,A,3748.7790,N,12217.8591,W,0.99,31.91,300812,,,D*41
$GPRMC,182728.000,A,3748.7788,N,12217.8590,W,0.68,49.27,300812,,,D*4A
$GPRMC,182729.000,A,3748.7783,N,12217.8592,W,0.58,181.04,300812,,,D*75
$GPRMC,182730.000,A,3748.7775,N,12217.8596,W,1.48,198.41,300812,,,D*79
$GPRMC,182731.000,A,3748.7756,N,12217.8621,W,2.53,189.65,300812,,,D*79
$GPRMC,182732.000,A,3748.7737,N,12217.8663,W,2.08,186.93,300812,,,D*73
$GPRMC,182733.000,A,3748.7732,N,12217.8671,W,1.21,194.56,300812,,,D*76
$GPRMC,182734.000,A,3748.7737,N,12217.8657,W,0.37,99.07,300812,,,D*4E
$GPRMC,182735.000,A,3748.7731,N,12217.8641,W,0.44,157.77,300812,,,D*7E
$GPRMC,182736.000,A,3748.7719,N,12217.8639,W,1.45,199.90,300812,,,D*73
$GPRMC,182737.000,A,3748.7720,N,12217.8626,W,0.56,132.76,300812,,,D*7C
$GPRMC,182738.000,A,3748.7716,N,12217.8615,W,1.01,142.70,300812,,,D*74
$GPRMC,182739.000,A,3748.7712,N,12217.8611,W,0.30,163.78,300812,,,D*7D
$GPRMC,182740.000,A,3748.7710,N,12217.8614,W,1.18,204.92,300812,,,D*79
$GPRMC,182741.000,A,3748.7706,N,12217.8618,W,2.29,208.58,300812,,,D*78
$GPRMC,182742.000,A,3748.7707,N,12217.8625,W,1.29,216.76,300812,,,D*74
$GPRMC,182743.000,A,3748.7702,N,12217.8627,W,1.12,227.62,300812,,,D*7D
$GPRMC,182744.000,A,3748.7705,N,12217.8632,W,1.34,237.72,300812,,,D*7D
$GPRMC,182745.000,A,3748.7712,N,12217.8627,W,0.65,303.00,300812,,,D*78
$GPRMC,182746.000,A,3748.7725,N,12217.8624,W,1.71,349.69,300812,,,D*79
$GPRMC,182747.000,A,3748.7736,N,12217.8628,W,2.27,346.46,300812,,,D*74
$GPRMC,182748.000,A,3748.7738,N,12217.8631,W,1.23,315.33,300812,,,D*7E
$GPRMC,182749.000,A,3748.7738,N,12217.8635,W,1.07,263.25,300812,,,D*7A
$GPRMC,182750.000,A,3748.7737,N,12217.8641,W,1.26,271.54,300812,,,D*78
$GPRMC,182751.000,A,3748.7740,N,12217.8645,W,1.43,300.97,300812,,,D*76
$GPRMC,182752.000,A,3748.7732,N,12217.8646,W,0.95,268.78,300812,,,D*77
$GPRMC,182753.000,A,3748.7739,N,12217.8645,W,1.05,350.36,300812,,,D*76
$GPRMC,182754.000,A,3748.7745,N,12217.8641,W,1.58,349.02,300812,,,D*79
$GPRMC,182755.000,A,3748.7746,N,12217.8634,W,2.40,16.01,300812,,,D*49
$GPRMC,182756.000,A,3748.7740,N,12217.8639,W,2.29,6.89,300812,,,D*7F
$GPRMC,182757.000,A,3748.7747,N,12217.8642,W,2.69,355.20,300812,,,D*77
$GPRMC,182758.000,A,3748.7760,N,12217.8648,W,3.35,352.61,300812,,,D*7D
$GPRMC,182759.000,A,3748.7768,N,12217.8646,W,3.16,352.89,300812,,,D*7D
$GPRMC,182800.000,A,3748.7783,N,12217.8641,W,2.45,353.74,300812,,,D*78
$GPRMC,182801.000,A,3748.7786,N,12217.8644,W,1.39,326.34,300812,,,D*77
$GPRMC,182802.000,A,3748.7786,N,12217.8646,W,0.30,341.85,300812,,,D*75
$GPRMC,182803.000,A,3748.7786,N,12217.8645,W,0.49,55.95,300812,,,D*4E
$GPRMC,182804.000,A,3748.7786,N,12217.8643,W,0.33,21.61,300812,,,D*4A
$GPRMC,182805.000,A,3748.7789,N,12217.8640,W,0.72,22.49,300812,,,D*4B
$GPRMC,182806.000,A,3748.7794,N,12217.8637,W,1.49,20.44,300812,,,D*42
$GPRMC,182807.000,A,3748.7796,N,12217.8636,W,1.05,358.44,300812,,,D*74
$GPRMC,182808.000,A,3748.7801,N,12217.8634,W,0.94,347.21,300812,,,D*7C
$GPRMC,182809.000,A,3748.7799,N,12217.8635,W,0.50,310.69,300812,,,D*74
$GPRMC,182810.000,A,3748.7796,N,12217.8637,W,0.35,301.46,300812,,,D*7F
$GPRMC,182811.000,A,3748.7798,N,12217.8636,W,0.29,310.01,300812,,,D*7F
$GPRMC,182812.000,A,3748.7809,N,12217.8630,W,0.81,9.07,300812,,,D*72
$GPRMC,182813.000,A,3748.7817,N,12217.8625,W,1.82,23.85,300812,,,D*48
$GPRMC,182814.000,A,3748.7815,N,12217.8625,W,1.05,17.69,300812,,,D*47
$GPRMC,182815.000,A,3748.7816,N,12217.8623,W,0.54,7.03,300812,,,D*7B
$GPRMC,182816.000,A,3748.7804,N,12217.8628,W,0.83,210.77,300812,,,D*7D
$GPRMC,182817.000,A,3748.7813,N,12217.8624,W,0.75,34.89,300812,,,D*4A
$GPRMC,182818.000,A,3748.7817,N,12217.8622,W,0.40,328.28,300812,,,D*74
$GPRMC,182819.000,A,3748.7800,N,12217.8630,W,0.78,207.43,300812,,,D*7A
$GPRMC,182820.000,A,3748.7799,N,12217.8630,W,0.20,99.04,300812,,,D*44
$GPRMC,182821.000,A,3748.7784,N,12217.8637,W,1.36,205.44,300812,,,D*7B
$GPRMC,182822.000,A,3748.7772,N,12217.8642,W,1.72,202.48,300812,,,D*78
$GPRMC,182823.000,A,3748.7769,N,12217.8643,W,1.04,188.82,300812,,,D*74
$GPRMC,182824.000,A,3748.7764,N,12217.8644,W,1.00,175.43,300812,,,D*72
$GPRMC,182825.000,A,3748.7768,N,12217.8641,W,0.52,94.90,300812,,,D*4C
$GPRMC,182826.000,A,3748.7782,N,12217.8634,W,0.86,29.67,300812,,,D*4E
$GPRMC,182827.000,A,3748.7793,N,12217.8629,W,1.44,24.91,300812,,,D*48
$GPRMC,182828.000,A,3748.7794,N,12217.8627,W,0.76,15.68,300812,,,D*4A
$GPRMC,182829.000,A,3748.7800,N,12217.8625,W,0.56,351.42,300812,,,D*72
$GPRMC,182830.000,A,3748.7810,N,12217.8622,W,0.58,341.32,300812,,,D*74
$GPRMC,182831.000,A,3748.7816,N,12217.8620,W,0.69,349.33,300812,,,D*7A
$GPRMC,182832.000,A,3748.7822,N,12217.8619,W,1.26,14.99,300812,,,D*45
$GPRMC,182833.000,A,3748.7824,N,12217.8618,W,0.91,8.31,300812,,,D*71
$GPRMC,182834.000,A,3748.7824,N,12217.8618,W,0.44,293.79,300812,,,D*72
$GPRMC,182835.000,A,3748.7826,N,12217.8618,W,0.24,334.52,300812,,,D*72
$GPRMC,182836.000,A,3748.7829,N,12217.8616,W,0.56,39.15,300812,,,D*48
$GPRMC,182837.000,A,3748.7841,N,12217.8610,W,0.67,10.88,300812,,,D*4C
$GPRMC,182838.000,A,3748.7843,N,12217.8606,W,1.15,18.32,300812,,,D*4B
$GPRMC,182839.000,A,3748.7779,N,12217.8602,W,0.34,352.45,300812,,,D*77
$GPRMC,182840.000,A,3748.7769,N,12217.8596,W,0.77,209.84,300812,,,D*73
$GPRMC,182841.000,A,3748.7746,N,12217.8594,W,1.54,175.73,300812,,,D*7D
$GPRMC,182842.000,A,3748.7743,N,12217.8596,W,1.30,182.60,300812,,,D*71
$GPRMC,182843.000,A,3748.7738,N,12217.8595,W,1.80,199.30,300812,,,D*7B
$GPRMC,182844.000,A,3748.7735,N,12217.8598,W,1.45,216.72,300812,,,D*77
$GPRMC,182845.000,A,3748.7731,N,12217.8600,W,1.81,191.41,300812,,,D*74
$GPRMC,182846.000,A,3748.7729,N,12217.8605,W,0.76,170.03,300812,,,D*7B
$GPRMC,182847.000,A,3748.7731,N,12217.8608,W,0.54,50.32,300812,,,D*4F
$GPRMC,182848.000,A,3748.7727,N,12217.8613,W,1.32,199.79,300812,,,D*77
$GPRMC,182849.000,A,3748.7697,N,12217.8622,W,1.81,206.82,300812,,,D*77
$GPRMC,182850.000,A,3748.7687,N,12217.8620,W,0.65,180.12,300812,,,D*73
$GPRMC,182851.000,A,3748.7694,N,12217.8627,W,0.68,275.78,300812,,,D*7F
$GPRMC,182852.000,A,3748.7697,N,12217.8630,W,1.37,228.22,300812,,,D*75
$GPRMC,182853.000,A,3748.7704,N,12217.8630,W,1.07,218.50,300812,,,D*7A
$GPRMC,182854.000,A,3748.7701,N,12217.8627,W,0.78,187.95,300812,,,D*7B
$GPRMC,182855.000,A,3748.7700,N,12217.8623,W,0.54,79.63,300812,,,D*48
$GPRMC,182856.000,A,3748.7707,N,12217.8620,W,0.73,70.89,300812,,,D*47
$GPRMC,182857.000,A,3748.7712,N,12217.8615,W,0.32,143.37,300812,,,D*75
$GPRMC,182858.000,A,3748.7707,N,12217.8620,W,0.33,233.61,300812,,,D*7E
$GPRMC,182859.000,A,3748.7706,N,12217.8615,W,0.48,215.74,300812,,,D*74
$GPRMC,182900.000,A,3748.7713,N,12217.8614,W,0.40,208.11,300812,,,D*7B
$GPRMC,182901.000,A,3748.7718,N,12217.8617,W,0.48,199.60,300812,,,D*77
$GPRMC,182902.000,A,3748.7725,N,12217.8615,W,0.97,204.42,300812,,,D*7D
$GPRMC,182903.000,A,3748.7732,N,12217.8615,W,0.32,336.32,300812,,,D*72
$GPRMC,182904.000,A,3748.7737,N,12217.8618,W,0.89,9.55,300812,,,D*73
$GPRMC,182905.000,A,3748.7743,N,12217.8618,W,0.56,343.37,300812,,,D*7A
$GPRMC,182906.000,A,3748.7748,N,12217.8615,W,0.52,38.09,300812,,,D*49
$GPRMC,182907.000,A,3748.7750,N,12217.8620,W,0.33,101.15,300812,,,D*76
$GPRMC,182908.000,A,3748.7760,N,12217.8616,W,0.87,47.21,300812,,,D*44
$GPRMC,182909.000,A,3748.7770,N,12217.8623,W,0.41,309.93,300812,,,D*78
$GPRMC,182910.000,A,3748.7765,N,12217.8629,W,0.59,7.30,300812,,,D*73
$GPRMC,182911.000,A,3748.7765,N,12217.8620,W,0.98,53.78,300812,,,D*4B
$GPRMC,182912.000,A,3748.7758,N,12217.8614,W,0.95,83.01,300812,,,D*4F
$GPRMC,182913.000,A,3748.7756,N,12217.8608,W,0.64,39.16,300812,,,D*44
$GPRMC,182914.000,A,3748.7754,N,12217.8605,W,0.71,49.73,300812,,,D*4C
$GPRMC,182915.000,A,3748.7757,N,12217.8596,W,1.21,81.57,300812,,,D*41
$GPRMC,182916.000,A,3748.7763,N,12217.8592,W,1.41,50.68,300812,,,D*47
$GPRMC,182917.000,A,3748.7770,N,12217.8584,W,1.34,57.49,300812,,,D*45
$GPRMC,182918.000,A,3748.7769,N,12217.8577,W,0.55,101.77,300812,,,D*77
$GPRMC,182919.000,A,3748.7766,N,12217.8572,W,0.19,122.73,300812,,,D*71
$GPRMC,182920.000,A,3748.7768,N,12217.8573,W,0.35,230.23,300812,,,D*7F
$GPRMC,182921.000,A,3748.7773,N,12217.8575,W,0.39,264.00,300812,,,D*7E
$GPRMC,182922.000,A,3748.7771,N,12217.8573,W,0.32,108.18,300812,,,D*72
$GPRMC,182923.000,A,3748.7771,N,12217.8575,W,0.38,102.05,300812,,,D*79
$GPRMC,182924.000,A,3748.7771,N,12217.8571,W,0.58,38.61,300812,,,D*46
$GPRMC,182925.000,A,3748.7763,N,12217.8570,W,0.11,75.86,300812,,,D*48
$GPRMC,182926.000,A,3748.7758,N,12217.8573,W,1.03,203.06,300812,,,D*79
$GPRMC,182927.000,A,3748.7763,N,12217.8577,W,0.56,204.83,300812,,,D*7F
$GPRMC,182928.000,A,3748.7771,N,12217.8582,W,0.73,21.02,300812,,,D*42
$GPRMC,182929.000,A,3748.7764,N,12217.8582,W,0.60,141.52,300812,,,D*77
$GPRMC,182930.000,A,3748.7758,N,12217.8584,W,0.38,192.89,300812,,,D*73
$GPRMC,182931.000,A,3748.7758,N,12217.8590,W,0.98,229.12,300812,,,D*7C
$GPRMC,182932.000,A,3748.7755,N,12217.8599,W,1.13,247.99,300812,,,D*72
$GPRMC,182933.000,A,3748.7754,N,12217.8597,W,0.33,198.52,300812,,,D*79
$GPRMC,182934.000,A,3748.7750,N,12217.8597,W,0.86,167.75,300812,,,D*71
$GPRMC,182935.000,A,3748.7740,N,12217.8603,W,0.78,176.47,300812,,,D*7F
$GPRMC,182936.000,A,3748.7737,N,12217.8607,W,0.47,238.46,300812,,,D*7C
$GPRMC,182937.000,A,3748.7737,N,12217.8600,W,0.54,133.25,300812,,,D*75
$GPRMC,182938.000,A,3748.7733,N,12217.8597,W,0.81,108.15,300812,,,D*70
$GPRMC,182939.000,A,3748.7730,N,12217.8590,W,0.35,98.88,300812,,,D*46
$GPRMC,182940.000,A,3748.7725,N,12217.8592,W,0.97,194.72,300812,,,D*7E
$GPRMC,182941.000,A,3748.7733,N,12217.8592,W,0.35,255.18,300812,,,D*72
$GPRMC,182942.000,A,3748.7741,N,12217.8594,W,0.86,234.32,300812,,,D*75
$GPRMC,182943.000,A,3748.7747,N,12217.8596,W,0.96,239.84,300812,,,D*71
$GPRMC,182944.000,A,3748.7755,N,12217.8598,W,0.78,231.54,300812,,,D*7E
$GPRMC,182945.000,A,3748.7763,N,12217.8597,W,0.59,9.34,300812,,,D*79
$GPRMC,182946.000,A,3748.7756,N,12217.8589,W,0.59,99.46,300812,,,D*4F
$GPRMC,182947.000,A,3748.7760,N,12217.8574,W,1.50,67.11,300812,,,D*42
$GPRMC,182948.000,A,3748.7764,N,12217.8568,W,0.94,70.90,300812,,,D*42
$GPRMC,182949.000,A,3748.7763,N,12217.8565,W,0.44,58.59,300812,,,D*4B
$GPRMC,182950.000,A,3748.7753,N,12217.8565,W,0.77,108.53,300812,,,D*7E
$GPRMC,182951.000,A,3748.7751,N,12217.8565,W,0.74,59.90,300812,,,D*44
$GPRMC,182952.000,A,3748.7740,N,12217.8561,W,0.53,110.81,300812,,,D*7A
$GPRMC,182953.000,A,3748.7734,N,12217.8560,W,0.56,189.69,300812,,,D*7A
$GPRMC,182954.000,A,3748.7739,N,12217.8563,W,0.56,217.87,300812,,,D*77
$GPRMC,182955.000,A,3748.7740,N,12217.8565,W,0.82,208.03,300812,,,D*75
$GPRMC,182956.000,A,3748.7740,N,12217.8571,W,1.07,179.69,300812,,,D*76
$GPRMC,182957.000,A,3748.7743,N,12217.8571,W,0.77,141.48,300812,,,D*7A
$GPRMC,182958.000,A,3748.7744,N,12217.8576,W,0.50,124.12,300812,,,D*7C
$GPRMC,182959.000,A,3748.7749,N,12217.8578,W,1.16,42.22,300812,,,D*4F
$GPRMC,183000.000,A,3748.7750,N,12217.8576,W,0.64,68.09,300812,,,D*48
$GPRMC,183001.000,A,3748.7740,N,12217.8574,W,1.45,191.32,300812,,,D*77
$GPRMC,183002.000,A,3748.7739,N,12217.8574,W,1.15,212.61,300812,,,D*71
$GPRMC,183003.000,A,3748.7733,N,12217.8569,W,1.29,210.54,300812,,,D*7D
$GPRMC,183004.000,A,3748.7737,N,12217.8574,W,1.05,248.48,300812,,,D*7C
$GPRMC,183005.000,A,3748.7739,N,12217.8579,W,1.66,226.37,300812,,,D*7B
$GPRMC,183006.000,A,3748.7744,N,12217.8584,W,1.73,219.39,300812,,,D*76
$GPRMC,183007.000,A,3748.7749,N,12217.8573,W,1.14,188.39,300812,,,D*78
$GPRMC,183008.000,A,3748.7746,N,12217.8569,W,0.62,127.83,300812,,,D*77
$GPRMC,183009.000,A,3748.7747,N,12217.8566,W,0.85,76.93,300812,,,D*45
$GPRMC,183010.000,A,3748.7748,N,12217.8563,W,0.51,115.20,300812,,,D*72
$GPRMC,183011.000,A,3748.7753,N,12217.8559,W,0.38,113.83,300812,,,D*70
$GPRMC,183012.000,A,3748.7757,N,12217.8552,W,0.40,99.59,300812,,,D*47
$GPRMC,183013.000,A,3748.7760,N,12217.8552,W,0.61,129.17,300812,,,D*71
$GPRMC,183014.000,A,3748.7771,N,12217.8554,W,0.44,50.15,300812,,,D*4A
$GPRMC,183015.000,A,3748.7783,N,12217.8558,W,0.75,336.66,300812,,,D*7F
$GPRMC,183016.000,A,3748.7786,N,12217.8555,W,0.64,251.78,300812,,,D*7B
$GPRMC,183017.000,A,3748.7782,N,12217.8557,W,0.94,222.83,300812,,,D*73
$GPRMC,183018.000,A,3748.7786,N,12217.8557,W,0.58,268.85,300812,,,D*70
$GPRMC,183019.000,A,3748.7777,N,12217.8551,W,0.58,183.78,300812,,,D*7D
$GPRMC,183020.000,A,3748.7772,N,12217.8543,W,1.47,157.08,300812,,,D*70
$GPRMC,183021.000,A,3748.7766,N,12217.8537,W,1.06,154.58,300812,,,D*74
$GPRMC,183022.000,A,3748.7752,N,12217.8533,W,0.97,182.35,300812,,,D*7D
$GPRMC,183023.000,A,3748.7747,N,12217.8543,W,1.03,222.70,300812,,,D*7B
$GPRMC,183024.000,A,3748.7738,N,12217.8536,W,1.43,177.80,300812,,,D*7E
$GPRMC,183025.000,A,3748.7736,N,12217.8529,W,0.87,145.11,300812,,,D*7F
$GPRMC,183026.000,A,3748.7733,N,12217.8521,W,0.90,142.88,300812,,,D*70
$GPRMC,183027.000,A,3748.7742,N,12217.8519,W,0.61,70.40,300812,,,D*46
$GPRMC,183028.000,A,3748.7748,N,12217.8515,W,0.56,3.88,300812,,,D*7B
$GPRMC,183029.000,A,3748.7752,N,12217.8521,W,0.14,75.99,300812,,,D*41
$GPRMC,183030.000,A,3748.7763,N,12217.8515,W,0.55,64.49,300812,,,D*44
$GPRMC,183031.000,A,3748.7774,N,12217.8515,W,1.59,22.84,300812,,,D*4D
$GPRMC,183032.000,A,3748.7782,N,12217.8516,W,1.35,6.46,300812,,,D*76
$GPRMC,183033.000,A,3748.7788,N,12217.8522,W,0.66,313.57,300812,,,D*7A
$GPRMC,183034.000,A,3748.7798,N,12217.8523,W,0.34,304.19,300812,,,D*76
$GPRMC,183035.000,A,3748.7806,N,12217.8527,W,0.71,293.81,300812,,,D*74
$GPRMC,183036.000,A,3748.7801,N,12217.8524,W,0.54,260.42,300812,,,D*77
$GPRMC,183037.000,A,3748.7789,N,12217.8528,W,1.30,195.92,300812,,,D*72
$GPRMC,183038.000,A,3748.7774,N,12217.8529,W,3.07,207.38,300812,,,D*70
$GPRMC,183039.000,A,3748.7763,N,12217.8535,W,4.36,196.95,300812,,,D*73
$GPRMC,183040.000,A,3748.7768,N,12217.8546,W,2.65,215.85,300812,,,D*7B
$GPRMC,183041.000,A,3748.7763,N,12217.8550,W,1.22,220.99,300812,,,D*7D
$GPRMC,183042.000,A,3748.7756,N,12217.8564,W,1.31,246.78,300812,,,D*72
$GPRMC,183043.000,A,3748.7749,N,12217.8577,W,1.84,231.46,300812,,,D*7C
$GPRMC,183044.000,A,3748.7749,N,12217.8587,W,0.93,236.55,300812,,,D*76
$GPRMC,183045.000,A,3748.7753,N,12217.8585,W,0.52,174.41,300812,,,D*73
$GPRMC,183046.000,A,3748.7755,N,12217.8587,W,1.56,244.55,300812,,,D*74
$GPRMC,183047.000,A,3748.7759,N,12217.8591,W,1.70,264.16,300812,,,D*7F
$GPRMC,183048.000,A,3748.7747,N,12217.8593,W,1.28,247.43,300812,,,D*71
$GPRMC,183049.000,A,3748.7741,N,12217.8587,W,1.10,210.94,300812,,,D*70
$GPRMC,183050.000,A,3748.7751,N,12217.8584,W,0.88,165.86,300812,,,D*78
$GPRMC,183051.000,A,3748.7755,N,12217.8588,W,1.11,230.42,300812,,,D*7B
$GPRMC,183052.000,A,3748.7757,N,12217.8590,W,1.34,213.00,300812,,,D*73
$GPRMC,183053.000,A,3748.7767,N,12217.8598,W,1.10,206.07,300812,,,D*7C
$GPRMC,183054.000,A,3748.7768,N,12217.8598,W,1.23,155.86,300812,,,D*78
$GPRMC,183055.000,A,3748.7770,N,12217.8591,W,1.59,96.57,300812,,,D*46
$GPRMC,183056.000,A,3748.7778,N,12217.8587,W,0.49,96.14,300812,,,D*4D
$GPRMC,183057.000,A,3748.7783,N,12217.8582,W,0.25,30.44,300812,,,D*4E
$GPRMC,183058.000,A,3748.7784,N,12217.8577,W,0.71,344.32,300812,,,D*7C
$GPRMC,183059.000,A,3748.7791,N,12217.8577,W,0.77,64.28,300812,,,D*45
$GPRMC,183100.000,A,3748.7804,N,12217.8580,W,0.62,5.88,300812,,,D*7A
$GPRMC,183101.000,A,3748.7809,N,12217.8585,W,0.28,216.12,300812,,,D*7E
$GPRMC,183102.000,A,3748.7829,N,12217.8593,W,1.49,356.58,300812,,,D*75
$GPRMC,183103.000,A,3748.7837,N,12217.8594,W,2.02,346.82,300812,,,D*76
$GPRMC,183104.000,A,3748.7834,N,12217.8599,W,1.54,323.17,300812,,,D*70
$GPRMC,183105.000,A,3748.7846,N,12217.8617,W,2.33,332.26,300812,,,D*71
$GPRMC,183106.000,A,3748.7840,N,12217.8621,W,1.40,289.28,300812,,,D*79
$GPRMC,183107.000,A,3748.7840,N,12217.8615,W,1.17,350.49,300812,,,D*7F
$GPRMC,183108.000,A,3748.7837,N,12217.8614,W,0.37,358.22,300812,,,D*77
$GPRMC,183109.000,A,3748.7826,N,12217.8610,W,0.35,273.73,300812,,,D*7C
$GPRMC,183110.000,A,3748.7821,N,12217.8616,W,0.94,185.74,300812,,,D*73
$GPRMC,183111.000,A,3748.7825,N,12217.8626,W,1.27,256.97,300812,,,D*7C
$GPRMC,183112.000,A,3748.7828,N,12217.8631,W,1.03,218.34,300812,,,D*71
$GPRMC,183113.000,A,3748.7820,N,12217.8635,W,1.27,213.93,300812,,,D*7C
$GPRMC,183114.000,A,3748.7814,N,12217.8631,W,1.35,163.20,300812,,,D*77
$GPRMC,183115.000,A,3748.7815,N,12217.8627,W,0.76,105.25,300812,,,D*73
$GPRMC,183116.000,A,3748.7817,N,12217.8623,W,0.75,31.71,300812,,,D*42
$GPRMC,183117.000,A,3748.7815,N,12217.8616,W,1.01,0.90,300812,,,D*78
$GPRMC,183118.000,A,3748.7805,N,12217.8613,W,0.08,257.78,300812,,,D*7D
$GPRMC,183119.000,A,3748.7809,N,12217.8604,W,0.82,359.79,300812,,,D*7A
$GPRMC,183120.000,A,3748.7804,N,12217.8595,W,0.24,111.68,300812,,,D*74
$GPRMC,183121.000,A,3748.7788,N,12217.8586,W,1.98,144.65,300812,,,D*77
$GPRMC,183122.000,A,3748.7779,N,12217.8582,W,1.51,155.04,300812,,,D*7C
$GPRMC,183123.000,A,3748.7779,N,12217.8578,W,0.64,144.88,300812,,,D*7B
$GPRMC,183124.000,A,3748.7774,N,12217.8574,W,0.28,33.01,300812,,,D*45
$GPRMC,183125.000,A,3748.7785,N,12217.8579,W,0.17,327.62,300812,,,D*78
$GPRMC,183126.000,A,3748.7783,N,12217.8570,W,0.85,110.97,300812,,,D*73
$GPRMC,183127.000,A,3748.7782,N,12217.8562,W,0.44,79.35,300812,,,D*4B
$GPRMC,183128.000,A,3748.7789,N,12217.8556,W,1.53,5.40,300812,,,D*76
$GPRMC,183129.000,A,3748.7790,N,12217.8550,W,1.35,13.88,300812,,,D*4A
$GPRMC,183130.000,A,3748.7784,N,12217.8553,W,0.29,155.74,300812,,,D*78
$GPRMC,183131.000,A,3748.7781,N,12217.8556,W,0.55,120.76,300812,,,D*72
$GPRMC,183132.000,A,3748.7775,N,12217.8552,W,0.87,135.23,300812,,,D*75
$GPRMC,183133.000,A,3748.7764,N,12217.8547,W,0.83,164.62,300812,,,D*75
$GPRMC,183134.000,A,3748.7754,N,12217.8544,W,1.61,177.48,300812,,,D*75
$GPRMC,183135.000,A,3748.7759,N,12217.8548,W,0.39,286.69,300812,,,D*77
$GPRMC,183136.000,A,3748.7758,N,12217.8549,W,0.37,54.71,300812,,,D*4E
$GPRMC,183137.000,A,3748.7754,N,12217.8546,W,0.38,157.69,300812,,,D*78
$GPRMC,183138.000,A,3748.7752,N,12217.8549,W,0.53,310.56,300812,,,D*7E
$GPRMC,183139.000,A,3748.7760,N,12217.8555,W,0.13,321.44,300812,,,D*76
$GPRMC,183140.000,A,3748.7758,N,12217.8547,W,1.22,122.03,300812,,,D*71
$GPRMC,183141.000,A,3748.7749,N,12217.8532,W,3.50,141.52,300812,,,D*74
$GPRMC,183142.000,A,3748.7745,N,12217.8524,W,3.16,138.66,300812,,,D*77
$GPRMC,183143.000,A,3748.7735,N,12217.8511,W,2.83,136.04,300812,,,D*70
$GPRMC,183144.000,A,3748.7734,N,12217.8512,W,1.10,135.87,300812,,,D*74
$GPRMC,183145.000,A,3748.7724,N,12217.8513,W,1.33,184.17,300812,,,D*77
$GPRMC,183146.000,A,3748.7713,N,12217.8512,W,0.50,213.94,300812,,,D*73
$GPRMC,183147.000,A,3748.7703,N,12217.8508,W,0.30,279.93,300812,,,D*75
$GPRMC,183148.000,A,3748.7708,N,12217.8515,W,0.92,293.24,300812,,,D*7D
$GPRMC,183149.000,A,3748.7714,N,12217.8523,W,0.84,272.23,300812,,,D*7B
$GPRMC,183150.000,A,3748.7718,N,12217.8529,W,0.27,283.29,300812,,,D*78
$GPRMC,183151.000,A,3748.7721,N,12217.8532,W,0.53,18.10,300812,,,D*40
$GPRMC,183152.000,A,3748.7716,N,12217.8537,W,0.35,166.37,300812,,,D*7F
$GPRMC,183153.000,A,3748.7712,N,12217.8538,W,0.75,183.78,300812,,,D*71
$GPRMC,183154.000,A,3748.7702,N,12217.8543,W,1.47,203.85,300812,,,D*72
$GPRMC,183155.000,A,3748.7685,N,12217.8541,W,1.53,206.41,300812,,,D*77
$GPRMC,183156.000,A,3748.7680,N,12217.8545,W,1.06,247.86,300812,,,D*7B
$GPRMC,183157.000,A,3748.7680,N,12217.8550,W,1.22,253.04,300812,,,D*77
$GPRMC,183158.000,A,3748.7685,N,12217.8557,W,1.24,259.41,300812,,,D*77
$GPRMC,183159.000,A,3748.7691,N,12217.8557,W,0.31,280.76,300812,,,D*76
$GPRMC,183200.000,A,3748.7701,N,12217.8560,W,0.19,51.61,300812,,,D*47
$GPRMC,183201.000,A,3748.7693,N,12217.8556,W,1.07,136.78,300812,,,D*7F
$GPRMC,183202.000,A,3748.7688,N,12217.8552,W,1.63,148.00,300812,,,D*76
$GPRMC,183203.000,A,3748.7679,N,12217.8548,W,1.32,153.82,300812,,,D*76
$GPRMC,183204.000,A,3748.7670,N,12217.8544,W,1.42,151.91,300812,,,D*73
$GPRMC,183205.000,A,3748.7661,N,12217.8549,W,1.51,155.47,300812,,,D*72
$GPRMC,183206.000,A,3748.7658,N,12217.8548,W,1.42,135.12,300812,,,D*7E
$GPRMC,183207.000,A,3748.7655,N,12217.8548,W,0.64,141.41,300812,,,D*72
$GPRMC,183208.000,A,3748.7654,N,12217.8549,W,0.47,229.27,300812,,,D*71
$GPRMC,183209.000,A,3748.7665,N,12217.8550,W,1.39,334.98,300812,,,D*7B
$GPRMC,183210.000,A,3748.7679,N,12217.8551,W,1.76,333.29,300812,,,D*79
$GPRMC,183211.000,A,3748.7693,N,12217.8553,W,1.87,324.54,300812,,,D*7C
$GPRMC,183212.000,A,3748.7708,N,12217.8559,W,1.18,325.17,300812,,,D*76
$GPRMC,183213.000,A,3748.7718,N,12217.8566,W,0.84,343.32,300812,,,D*79
$GPRMC,183214.000,A,3748.7717,N,12217.8565,W,0.13,189.38,300812,,,D*72
$GPRMC,183215.000,A,3748.7715,N,12217.8563,W,1.24,156.16,300812,,,D*7C
$GPRMC,183216.000,A,3748.7728,N,12217.8569,W,0.39,221.73,300812,,,D*76
$GPRMC,183217.000,A,3748.7729,N,12217.8572,W,0.85,281.47,300812,,,D*76
$GPRMC,183218.000,A,3748.7743,N,12217.8584,W,1.14,285.15,300812,,,D*76
$GPRMC,183219.000,A,3748.7737,N,12217.8588,W,1.00,224.37,300812,,,D*76
$GPRMC,183220.000,A,3748.7738,N,12217.8591,W,0.19,262.39,300812,,,D*7E
$GPRMC,183221.000,A,3748.7743,N,12217.8588,W,0.73,13.54,300812,,,D*48
$GPRMC,183222.000,A,3748.7740,N,12217.8584,W,0.63,342.89,300812,,,D*72
$GPRMC,183223.000,A,3748.7737,N,12217.8578,W,0.19,348.40,300812,,,D*72
$GPRMC,183224.000,A,3748.7728,N,12217.8575,W,0.13,359.02,300812,,,D*7A
$GPRMC,183225.000,A,3748.7722,N,12217.8576,W,0.38,226.31,300812,,,D*72
$GPRMC,183226.000,A,3748.7718,N,12217.8573,W,0.16,276.14,300812,,,D*73
$GPRMC,183227.000,A,3748.7717,N,12217.8574,W,0.36,23.40,300812,,,D*4B
$GPRMC,183228.000,A,3748.7725,N,12217.8574,W,0.71,54.19,300812,,,D*4A
$GPRMC,183229.000,A,3748.7724,N,12217.8575,W,0.90,137.55,300812,,,D*78
$GPRMC,183230.000,A,3748.7723,N,12217.8580,W,0.77,195.99,300812,,,D*7C
$GPRMC,183231.000,A,3748.7722,N,12217.8586,W,0.88,299.90,300812,,,D*7C
$GPRMC,183232.000,A,3748.7713,N,12217.8583,W,1.01,313.10,300812,,,D*73
$GPRMC,183233.000,A,3748.7711,N,12217.8583,W,1.44,312.41,300812,,,D*74
$GPRMC,183234.000,A,3748.7717,N,12217.8587,W,1.06,318.01,300812,,,D*79
$GPRMC,183235.000,A,3748.7720,N,12217.8584,W,0.07,19.58,300812,,,D*41
$GPRMC,183236.000,A,3748.7725,N,12217.8588,W,0.81,288.46,300812,,,D*70
$GPRMC,183237.000,A,3748.7723,N,12217.8592,W,1.58,314.87,300812,,,D*70
$GPRMC,183238.000,A,3748.7732,N,12217.8594,W,2.83,335.75,300812,,,D*72
$GPRMC,183239.000,A,3748.7736,N,12217.8591,W,2.56,327.27,300812,,,D*7E
$GPRMC,183240.000,A,3748.7741,N,12217.8594,W,2.93,321.23,300812,,,D*7E
