$ADVER,3080,2.3
$GPRMC,232734.445,A,3748.7996,N,12217.8606,W,0.09,145.98,131211,,,A*75
$GPGGA,232735.445,3748.7993,N,12217.8610,W,1,06,1.5,-3.1,M,-25.1,M,,0000*4B
$GPGSA,A,3,18,19,22,03,06,21,,,,,,,3.8,1.5,3.5*3C
$GPRMC,232735.445,A,3748.7993,N,12217.8610,W,0.09,176.24,131211,,,A*71
$GPVTG,176.24,T,,M,0.09,N,0.2,K,A*00
$GPGGA,232736.000,3748.7995,N,12217.8608,W,1,06,1.5,-2.9,M,-25.1,M,,0000*4B
$GPGSA,A,3,18,19,22,03,06,21,,,,,,,3.8,1.5,3.5*3C
$GPRMC,232736.000,A,3748.7995,N,12217.8608,W,0.07,162.08,131211,,,A*7D
$GPVTG,162.08,T,,M,0.07,N,0.1,K,A*06
$GPGGA,232737.000,3748.7994,N,12217.8609,W,1,06,1.5,-2.9,M,-25.1,M,,0000*4A
$GPGSA,A,3,18,19,22,03,06,21,,,,,,,3.8,1.5,3.5*3C
$GPRMC,232737.000,A,3748.7994,N,12217.8609,W,0.09,177.27,131211,,,A*7B
$GPVTG,177.27,T,,M,0.09,N,0.2,K,A*02
$GPGGA,232738.000,3748.7993,N,12217.8609,W,1,06,1.5,-2.9,M,-25.1,M,,0000*42
$GPGSA,A,3,18,19,22,03,06,21,,,,,,,3.8,1.5,3.5*3C
$GPGSV,3,1,12,22,71,323,38,06,49,241,30,18,47,052,40,03,45,258,33*7C
$GPGSV,3,2,12,21,41,113,36,19,34,305,40,14,50,185,24,09,18,074,30*7C
$GPGSV,3,3,12,27,13,054,40,15,07,040,30,16,00,238,,48,00,000,28*74
$GPRMC,232738.000,A,3748.7993,N,12217.8609,W,0.10,178.38,131211,,,A*7A
$GPVTG,178.38,T,,M,0.10,N,0.2,K,A*0B
$GPGGA,232739.000,3748.7993,N,12217.8609,W,1,06,1.5,-2.9,M,-25.1,M,,0000*43
$GPGSA,A,3,18,19,22,03,06,21,,,,,,,3.8,1.5,3.5*3C
$GPRMC,232739.000,A,3748.7993,N,12217.8609,W,0.09,183.77,131211,,,A*7C
$GPVTG,183.77,T,,M,0.09,N,0.2,K,A*0C
$GPGGA,232740.000,3748.7993,N,12217.8610,W,1,06,1.5,-2.9,M,-25.1,M,,0000*45
$GPGSA,A,3,18,19,22,03,06,21,,,,,,,3.8,1.5,3.5*3C
$GPRMC,232740.000,A,3748.7993,N,12217.8610,W,0.09,177.80,131211,,,A*79
$GPVTG,177.80,T,,M,0.09,N,0.2,K,A*0F
$GPGGA,232741.000,3748.7992,N,12217.8610,W,1,06,1.5,-2.9,M,-25.1,M,,0000*45
$GPGSA,A,3,18,19,22,03,06,21,,,,,,,3.8,1.5,3.5*3C
$GPRMC,232741.000,A,3748.7992,N,12217.8610,W,0.10,187.05,131211,,,A*73
$GPVTG,187.05,T,,M,0.10,N,0.2,K,A*05
$GPGGA,232742.000,3748.7992,N,12217.8610,W,1,06,1.5,-3.0,M,-25.1,M,,0000*4E
$GPGSA,A,3,18,19,22,03,06,21,,,,,,,3.8,1.5,3.5*3C
$GPRMC,232742.000,A,3748.7992,N,12217.8610,W,0.10,186.16,131211,,,A*73
$GPVTG,186.16,T,,M,0.10,N,0.2,K,A*06
$GPGGA,232743.000,3748.7991,N,12217.8610,W,1,06,1.5,-3.0,M,-25.1,M,,0000*4C
$GPGSA,A,3,18,19,22,03,06,21,,,,,,,3.8,1.5,3.5*3C
$GPGSV,3,1,12,22,71,323,38,06,49,241,29,18,47,052,40,03,45,258,33*74
$GPGSV,3,2,12,21,41,113,36,19,34,305,40,14,50,185,25,09,18,074,30*7D
$GPGSV,3,3,12,27,13,054,40,15,07,040,30,16,00,238,,48,00,000,29*75
$GPRMC,232743.000,A,3748.7991,N,12217.8610,W,0.08,176.46,131211,,,A*72
$GPVTG,176.46,T,,M,0.08,N,0.2,K,A*05
$GPGGA,232744.000,3748.7991,N,12217.8610,W,1,06,1.5,-3.0,M,-25.1,M,,0000*4B
$GPGSA,A,3,18,19,22,03,06,21,,,,,,,3.8,1.5,3.5*3C
$GPRMC,232744.000,A,3748.7991,N,12217.8610,W,0.12,184.24,131211,,,A*77
$GPVTG,184.24,T,,M,0.12,N,0.2,K,A*07
$GPGGA,232745.000,3748.7991,N,12217.8610,W,1,06,1.5,-3.0,M,-25.1,M,,0000*4A
$GPGSA,A,3,18,19,22,03,06,21,,,,,,,3.8,1.5,3.5*3C
$GPRMC,232745.000,A,3748.7991,N,12217.8610,W,0.11,186.86,131211,,,A*7F
$GPVTG,186.86,T,,M,0.11,N,0.2,K,A*0E
$GPGGA,232746.000,3748.7990,N,12217.8610,W,1,05,1.7,-3.0,M,-25.1,M,,0000*49
$GPGSA,A,3,18,19,22,03,21,,,,,,,,3.9,1.7,3.6*3A
$GPRMC,232746.000,A,3748.7990,N,12217.8610,W,0.09,178.15,131211,,,A*7F
$GPVTG,178.15,T,,M,0.09,N,0.2,K,A*0C
$GPGGA,232747.000,3748.7990,N,12217.8611,W,1,05,1.7,-3.0,M,-25.1,M,,0000*49
$GPGSA,A,3,18,19,22,03,21,,,,,,,,3.9,1.7,3.6*3A
$GPRMC,232747.000,A,3748.7990,N,12217.8611,W,0.08,219.83,131211,,,A*75
$GPVTG,219.83,T,,M,0.08,N,0.2,K,A*06
$GPGGA,232748.000,3748.7989,N,12217.8613,W,1,05,1.7,-1.5,M,-25.1,M,,0000*4B
$GPGSA,A,3,18,19,22,03,21,,,,,,,,3.9,1.7,3.6*3A
$GPGSV,3,1,11,22,71,323,32,14,50,185,21,06,49,241,,18,47,052,40*74
$GPGSV,3,2,11,03,45,258,22,21,41,113,36,19,34,305,35,09,18,074,30*7A
$GPGSV,3,3,11,27,13,054,30,15,07,040,21,16,00,238,*46
$GPRMC,232748.000,A,3748.7989,N,12217.8613,W,0.60,248.14,131211,,,A*74
$GPVTG,248.14,T,,M,0.60,N,1.1,K,A*00
$GPGGA,232749.000,3748.7988,N,12217.8614,W,1,05,1.7,-1.7,M,-25.1,M,,0000*4E
$GPGSA,A,3,18,19,22,03,21,,,,,,,,3.9,1.7,3.6*3A
$GPRMC,232749.000,A,3748.7988,N,12217.8614,W,0.11,124.65,131211,,,A*7A
$GPVTG,124.65,T,,M,0.11,N,0.2,K,A*0B
$GPGGA,232750.000,3748.7986,N,12217.8614,W,1,05,1.7,-3.0,M,-25.1,M,,0000*4D
$GPGSA,A,3,18,19,22,03,21,,,,,,,,3.9,1.7,3.6*3A
$GPRMC,232750.000,A,3748.7986,N,12217.8614,W,0.28,25.24,131211,,,A*43
$GPVTG,25.24,T,,M,0.28,N,0.5,K,A*33
$GPGGA,232751.000,3748.7985,N,12217.8614,W,1,05,1.7,-3.3,M,-25.1,M,,0000*4C
$GPGSA,A,3,18,19,22,03,21,,,,,,,,3.9,1.7,3.6*3A
$GPRMC,232751.000,A,3748.7985,N,12217.8614,W,0.07,127.39,131211,,,A*73
$GPVTG,127.39,T,,M,0.07,N,0.1,K,A*05
$GPGGA,232752.000,3748.7987,N,12217.8611,W,1,05,1.7,-4.2,M,-25.1,M,,0000*4E
$GPGSA,A,3,18,19,22,03,21,,,,,,,,3.9,1.7,3.6*3A
$GPRMC,232752.000,A,3748.7987,N,12217.8611,W,0.61,28.10,131211,,,A*42
$GPVTG,28.10,T,,M,0.61,N,1.1,K,A*31
$GPGGA,232753.000,3748.7980,N,12217.8615,W,1,04,1.8,-4.4,M,-25.1,M,,0000*44
$GPGSA,A,3,18,19,03,21,,,,,,,,,8.6,1.8,8.4*38
$GPGSV,3,1,12,22,71,323,18,14,50,185,29,06,49,241,,18,47,052,27*76
$GPGSV,3,2,12,03,45,258,23,21,41,113,27,19,34,305,34,09,18,074,30*79
$GPGSV,3,3,12,27,13,054,35,15,07,040,29,16,00,238,,48,44,197,29*70
$GPRMC,232753.000,A,3748.7980,N,12217.8615,W,0.43,176.64,131211,,,A*79
$GPVTG,176.64,T,,M,0.43,N,0.8,K,A*00
$GPGGA,232754.000,3748.7980,N,12217.8616,W,1,06,1.5,-5.0,M,-25.1,M,,0000*4A
$GPGSA,A,3,18,19,22,03,21,06,,,,,,,3.8,1.5,3.5*3C
$GPRMC,232754.000,A,3748.7980,N,12217.8616,W,0.23,145.33,131211,,,A*79
$GPVTG,145.33,T,,M,0.23,N,0.4,K,A*08
$GPGGA,232755.000,3748.7980,N,12217.8619,W,1,06,1.5,-5.1,M,-25.1,M,,0000*45
$GPGSA,A,3,18,19,22,03,21,06,,,,,,,3.8,1.5,3.5*3C
$GPRMC,232755.000,A,3748.7980,N,12217.8619,W,0.13,253.15,131211,,,A*74
$GPVTG,253.15,T,,M,0.13,N,0.2,K,A*0D
$GPGGA,232756.000,3748.7990,N,12217.8618,W,1,06,1.5,-4.8,M,-25.1,M,,0000*4E
$GPGSA,A,3,18,19,22,03,21,06,,,,,,,3.8,1.5,3.5*3C
$GPRMC,232756.000,A,3748.7990,N,12217.8618,W,0.05,333.32,131211,,,A*72
$GPVTG,333.32,T,,M,0.05,N,0.1,K,A*0B
$GPGGA,232757.000,3748.7996,N,12217.8620,W,1,06,1.5,-4.8,M,-25.1,M,,0000*42
$GPGSA,A,3,18,19,22,03,21,06,,,,,,,3.8,1.5,3.5*3C
$GPRMC,232757.000,A,3748.7996,N,12217.8620,W,0.32,324.17,131211,,,A*7B
$GPVTG,324.17,T,,M,0.32,N,0.6,K,A*09
$GPGGA,232758.000,3748.7999,N,12217.8617,W,1,06,1.5,-7.4,M,-25.1,M,,0000*49
$GPGSA,A,3,18,19,22,03,21,06,,,,,,,3.8,1.5,3.5*3C
$GPGSV,3,1,11,22,71,323,27,14,50,185,22,06,49,241,27,18,47,052,26*76
$GPGSV,3,2,11,03,45,258,31,21,41,113,25,19,34,305,38,09,18,074,25*73
$GPGSV,3,3,11,27,13,054,26,15,07,040,31,16,00,238,*40
$GPRMC,232758.000,A,3748.7999,N,12217.8617,W,0.68,57.96,131211,,,A*4E
$GPVTG,57.96,T,,M,0.68,N,1.3,K,A*3C
$GPGGA,232759.000,3748.8003,N,12217.8618,W,1,06,1.5,-4.3,M,-25.1,M,,0000*46
$GPGSA,A,3,18,19,22,03,21,06,,,,,,,3.8,1.5,3.5*3C
$GPRMC,232759.000,A,3748.8003,N,12217.8618,W,0.32,273.28,131211,,,A*7B
$GPVTG,273.28,T,,M,0.32,N,0.6,K,A*06
$GPGGA,232800.000,3748.8005,N,12217.8620,W,1,06,1.5,-3.9,M,-25.1,M,,0000*45
$GPGSA,A,3,18,19,22,03,21,06,,,,,,,3.8,1.5,3.5*3C
$GPRMC,232800.000,A,3748.8005,N,12217.8620,W,0.24,315.36,131211,,,A*7C
$GPVTG,315.36,T,,M,0.24,N,0.5,K,A*0C
$GPGGA,232801.000,3748.8006,N,12217.8620,W,1,06,1.5,-4.0,M,-25.1,M,,0000*49
$GPGSA,A,3,18,19,22,03,21,06,,,,,,,3.8,1.5,3.5*3C
$GPRMC,232801.000,A,3748.8006,N,12217.8620,W,0.24,133.03,131211,,,A*7E
$GPVTG,133.03,T,,M,0.24,N,0.4,K,A*0D
$GPGGA,232802.000,3748.7999,N,12217.8624,W,1,06,1.5,-3.8,M,-25.1,M,,0000*41
$GPGSA,A,3,18,19,22,03,21,06,,,,,,,3.8,1.5,3.5*3C
$GPRMC,232802.000,A,3748.7999,N,12217.8624,W,1.71,167.68,131211,,,A*74
$GPVTG,167.68,T,,M,1.71,N,3.2,K,A*05
$GPGGA,232803.000,3748.7993,N,12217.8620,W,1,06,1.5,-4.7,M,-25.1,M,,0000*46
$GPGSA,A,3,18,19,22,03,21,06,,,,,,,3.8,1.5,3.5*3C
$GPGSV,3,1,12,22,71,323,27,14,50,185,32,06,49,241,33,18,47,052,32*74
$GPGSV,3,2,12,03,45,258,34,21,41,113,33,19,34,305,22,09,18,074,34*79
$GPGSV,3,3,12,27,13,054,28,15,07,040,31,16,00,238,,48,44,197,35*78
$GPRMC,232803.000,A,3748.7993,N,12217.8620,W,1.26,125.57,131211,,,A*73
$GPVTG,125.57,T,,M,1.26,N,2.3,K,A*0D
$GPGGA,232804.000,3748.7987,N,12217.8613,W,1,06,1.5,-8.5,M,-25.1,M,,0000*4A
$GPGSA,A,3,18,19,22,03,21,06,,,,,,,3.8,1.5,3.5*3C
$GPRMC,232804.000,A,3748.7987,N,12217.8613,W,0.38,71.76,131211,,,A*4C
$GPVTG,71.76,T,,M,0.38,N,0.7,K,A*36
$GPGGA,232805.000,3748.7984,N,12217.8610,W,1,06,1.5,-9.0,M,-25.1,M,,0000*4F
$GPGSA,A,3,18,19,22,03,21,06,,,,,,,3.8,1.5,3.5*3C
$GPRMC,232805.000,A,3748.7984,N,12217.8610,W,0.09,95.64,131211,,,A*46
$GPVTG,95.64,T,,M,0.09,N,0.2,K,A*38
$GPGGA,232806.000,3748.7982,N,12217.8609,W,1,06,1.5,-8.5,M,-25.1,M,,0000*46
$GPGSA,A,3,18,19,22,03,21,06,,,,,,,3.8,1.5,3.5*3C
$GPRMC,232806.000,A,3748.7982,N,12217.8609,W,0.34,216.96,131211,,,A*71
$GPVTG,216.96,T,,M,0.34,N,0.6,K,A*06
$GPGGA,232807.000,3748.7986,N,12217.8611,W,1,06,1.5,-7.4,M,-25.1,M,,0000*44
$GPGSA,A,3,18,19,22,03,21,06,,,,,,,3.8,1.5,3.5*3C
$GPRMC,232807.000,A,3748.7986,N,12217.8611,W,0.06,253.88,131211,,,A*72
$GPVTG,253.88,T,,M,0.06,N,0.1,K,A*0E
$GPGGA,232808.000,3748.7990,N,12217.8613,W,1,06,1.5,-6.4,M,-25.1,M,,0000*4F
$GPGSA,A,3,18,19,22,03,21,06,,,,,,,3.8,1.5,3.5*3C
$GPGSV,3,1,11,22,71,323,35,14,50,185,25,06,49,241,22,18,47,052,32*72
$GPGSV,3,2,11,03,45,258,23,21,41,113,29,19,34,305,29,09,18,074,37*7F
$GPGSV,3,3,11,27,13,054,37,15,07,040,39,16,00,238,*48
$GPRMC,232808.000,A,3748.7990,N,12217.8613,W,0.13,11.22,131211,,,A*48
$GPGGA,232809.000,3748.7994,N,12217.8612,W,1,06,1.5,-5.0,M,-25.1,M,,0000*4C
$GPGSA,A,3,18,19,22,03,21,06,,,,,,,3.8,1.5,3.5*3C
$GPRMC,232809.000,A,3748.7994,N,12217.8612,W,0.56,21.29,131211,,,A*45
$GPVTG,21.29,T,,M,0.56,N,1.0,K,A*37
$GPGGA,232810.000,3748.7995,N,12217.8611,W,1,06,1.5,-4.6,M,-25.1,M,,0000*41
$GPGSA,A,3,18,19,22,03,21,06,,,,,,,3.8,1.5,3.5*3C
$GPRMC,232810.000,A,3748.7995,N,12217.8611,W,0.47,50.97,131211,,,A*4C
$GPVTG,50.97,T,,M,0.47,N,0.9,K,A*3C
$GPGGA,232811.000,3748.7997,N,12217.8614,W,1,06,1.5,-6.8,M,-25.1,M,,0000*4B
$GPGSA,A,3,18,19,22,03,21,06,,,,,,,3.8,1.5,3.5*3C
$GPRMC,232811.000,A,3748.7997,N,12217.8614,W,0.24,264.09,131211,,,A*7D
$GPVTG,264.09,T,,M,0.24,N,0.4,K,A*06
$GPGGA,232812.000,3748.7996,N,12217.8616,W,1,06,1.5,-7.4,M,-25.1,M,,0000*46
$GPGSA,A,3,18,19,22,03,21,06,,,,,,,3.8,1.5,3.5*3C
$GPRMC,232812.000,A,3748.7996,N,12217.8616,W,0.45,227.90,131211,,,A*7D
$GPVTG,227.90,T,,M,0.45,N,0.8,K,A*0A
$GPGGA,232813.000,3748.7994,N,12217.8616,W,1,05,1.7,-6.5,M,-25.1,M,,0000*44
$GPGSA,A,3,18,19,22,03,21,,,,,,,,4.0,1.7,3.6*34
$GPGSV,3,1,12,22,71,324,31,14,50,185,28,06,49,241,18,18,47,052,37*73
$GPGSV,3,2,12,03,45,258,29,21,40,113,35,19,34,305,29,09,18,074,38*75
$GPGSV,3,3,12,27,13,053,36,15,06,040,34,16,00,238,,48,44,197,33*72
$GPRMC,232813.000,A,3748.7994,N,12217.8616,W,0.47,220.29,131211,,,A*79
$GPVTG,220.29,T,,M,0.47,N,0.9,K,A*0C
$GPGGA,232814.000,3748.7990,N,12217.8616,W,1,05,1.7,-5.9,M,-25.1,M,,0000*48
$GPGSA,A,3,18,19,22,03,21,,,,,,,,4.0,1.7,3.6*34
$GPRMC,232814.000,A,3748.7990,N,12217.8616,W,0.31,184.05,131211,,,A*78
$GPVTG,184.05,T,,M,0.31,N,0.6,K,A*01
$GPGGA,232815.000,3748.7986,N,12217.8616,W,1,06,1.5,-5.5,M,-25.1,M,,0000*43
$GPGSA,A,3,18,19,22,03,21,06,,,,,,,3.8,1.5,3.5*3C
$GPRMC,232815.000,A,3748.7986,N,12217.8616,W,0.38,190.14,131211,,,A*72
$GPVTG,190.14,T,,M,0.38,N,0.7,K,A*0C
$GPGGA,232816.000,3748.7983,N,12217.8617,W,1,06,1.5,-5.3,M,-25.1,M,,0000*42
$GPGSA,A,3,18,19,22,03,21,06,,,,,,,3.8,1.5,3.5*3C
$GPRMC,232816.000,A,3748.7983,N,12217.8617,W,0.40,194.86,131211,,,A*75
$GPVTG,194.86,T,,M,0.40,N,0.7,K,A*0C
$GPGGA,232817.000,3748.7980,N,12217.8616,W,1,06,1.5,-5.4,M,-25.1,M,,0000*46
$GPGSA,A,3,18,19,22,03,21,06,,,,,,,3.8,1.5,3.5*3C
$GPRMC,232817.000,A,3748.7980,N,12217.8616,W,0.19,176.87,131211,,,A*77
$GPVTG,176.87,T,,M,0.19,N,0.3,K,A*09
$GPGGA,232818.000,3748.7983,N,12217.8614,W,1,06,1.5,-4.6,M,-25.1,M,,0000*4B
$GPGSA,A,3,18,19,22,03,21,06,,,,,,,3.8,1.5,3.5*3C
$GPGSV,3,1,12,22,71,324,29,14,50,185,37,06,49,241,30,18,47,052,35*7C
$GPGSV,3,2,12,03,45,258,31,21,40,113,32,19,34,305,26,09,18,074,38*74
$GPGSV,3,3,12,27,13,053,28,15,06,040,32,16,00,238,,48,44,197,35*7D
$GPRMC,232818.000,A,3748.7983,N,12217.8614,W,0.86,84.63,131211,,,A*49
$GPVTG,84.63,T,,M,0.86,N,1.6,K,A*3D
$GPGGA,232819.000,3748.7986,N,12217.8608,W,1,06,1.5,-4.1,M,-25.1,M,,0000*45
$GPGSA,A,3,18,19,22,03,21,06,,,,,,,3.8,1.5,3.5*3C
$GPRMC,232819.000,A,3748.7986,N,12217.8608,W,1.86,88.29,131211,,,A*43
$GPVTG,88.29,T,,M,1.86,N,3.5,K,A*3F
$GPGGA,232820.000,3748.7983,N,12217.8601,W,1,06,1.5,-4.7,M,-25.1,M,,0000*45
$GPGSA,A,3,18,19,22,03,21,06,,,,,,,3.8,1.5,3.5*3C
$GPRMC,232820.000,A,3748.7983,N,12217.8601,W,2.09,107.40,131211,,,A*78
$GPVTG,107.40,T,,M,2.09,N,3.9,K,A*0E
$GPGGA,232821.000,3748.7976,N,12217.8596,W,1,06,1.5,-3.7,M,-25.1,M,,0000*44
$GPGSA,A,3,18,19,22,03,21,06,,,,,,,3.8,1.5,3.5*3C
$GPRMC,232821.000,A,3748.7976,N,12217.8596,W,2.21,123.02,131211,,,A*74
$GPVTG,123.02,T,,M,2.21,N,4.1,K,A*0B
$GPGGA,232822.000,3748.7969,N,12217.8586,W,1,06,1.5,-0.4,M,-25.1,M,,0000*48
$GPGSA,A,3,18,19,22,03,21,06,,,,,,,3.8,1.5,3.5*3C
$GPRMC,232822.000,A,3748.7969,N,12217.8586,W,2.20,121.98,131211,,,A*78
$GPVTG,121.98,T,,M,2.20,N,4.1,K,A*0B
$GPGGA,232823.000,3748.7958,N,12217.8578,W,1,06,1.5,1.1,M,-25.1,M,,0000*63
$GPGSA,A,3,18,19,22,03,21,06,,,,,,,3.8,1.5,3.5*3C
$GPGSV,3,1,12,22,71,324,22,14,50,185,38,06,49,241,33,18,47,052,23*7C
$GPGSV,3,2,12,03,45,258,35,21,40,113,33,19,34,305,24,09,18,074,23*79
$GPGSV,3,3,12,27,13,053,26,15,06,040,31,16,00,238,,48,44,197,40*72
$GPVTG,123.74,T,,M,2.15,N,4.0,K,A*0C
$GPGGA,232824.000,3748.7949,N,12217.8570,W,1,06,1.5,-0.2,M,-25.1,M,,0000*43
$GPGSA,A,3,18,19,22,03,21,06,,,,,,,3.8,1.5,3.5*3C
$GPRMC,232824.000,A,3748.7949,N,12217.8570,W,2.21,115.31,131211,,,A*70
$GPVTG,115.31,T,,M,2.21,N,4.1,K,A*0E
$GPGGA,232825.000,3748.7943,N,12217.8561,W,1,06,1.5,1.2,M,-25.1,M,,0000*64
$GPGSA,A,3,18,19,22,03,21,06,,,,,,,3.8,1.5,3.5*3C
$GPRMC,232825.000,A,3748.7943,N,12217.8561,W,2.35,94.63,131211,,,A*41
$GPVTG,94.63,T,,M,2.35,N,4.4,K,A*31
$GPGGA,232826.000,3748.7943,N,12217.8552,W,1,06,1.5,1.4,M,-25.1,M,,0000*61
$GPGSA,A,3,18,19,22,03,21,06,,,,,,,3.8,1.5,3.5*3C
$GPRMC,232826.000,A,3748.7943,N,12217.8552,W,2.37,107.32,131211,,,A*7F
$GPVTG,107.32,T,,M,2.37,N,4.4,K,A*0C
$GPGGA,232827.000,3748.7943,N,12217.8545,W,1,06,1.5,0.7,M,-25.1,M,,0000*64
$GPGSA,A,3,18,19,22,03,21,06,,,,,,,3.8,1.5,3.5*3C
$GPRMC,232827.000,A,3748.7943,N,12217.8545,W,2.41,107.72,131211,,,A*7D
$GPVTG,107.72,T,,M,2.41,N,4.5,K,A*08
$GPGGA,232828.000,3748.7940,N,12217.8536,W,1,06,1.5,-0.2,M,-25.1,M,,0000*44
$GPGSA,A,3,18,19,22,03,21,06,,,,,,,3.8,1.5,3.5*3C
$GPGSV,3,1,12,22,71,324,23,14,50,185,38,06,49,241,33,18,47,052,23*7D
$GPGSV,3,2,12,03,45,258,33,21,40,113,33,19,34,305,23,09,18,074,23*78
$GPGSV,3,3,12,27,13,053,26,15,06,040,24,16,00,238,,48,44,197,38*79
$GPRMC,232828.000,A,3748.7940,N,12217.8536,W,2.16,92.77,131211,,,A*4F
$GPVTG,92.77,T,,M,2.16,N,4.0,K,A*37
$GPGGA,232829.000,3748.7945,N,12217.8527,W,1,06,1.5,1.5,M,-25.1,M,,0000*6B
$GPGSA,A,3,18,19,22,03,21,06,,,,,,,3.8,1.5,3.5*3C
$GPRMC,232829.000,A,3748.7945,N,12217.8527,W,2.20,87.44,131211,,,A*4A
$GPVTG,87.44,T,,M,2.20,N,4.1,K,A*37
$GPGGA,232830.000,3748.7948,N,12217.8518,W,2,06,1.5,3.6,M,-25.1,M,,0000*60
$GPGSA,A,3,18,19,22,03,21,06,,,,,,,3.8,1.5,3.5*3C
$GPRMC,232830.000,A,3748.7948,N,12217.8518,W,2.32,107.22,131211,,,D*7C
$GPVTG,107.22,T,,M,2.32,N,4.3,K,D*0A
$GPGGA,232831.000,3748.7950,N,12217.8508,W,2,06,1.5,2.9,M,-25.1,M,,0000*67
$GPGSA,A,3,18,19,22,03,21,06,,,,,,,3.8,1.5,3.5*3C
$GPRMC,232831.000,A,3748.7950,N,12217.8508,W,2.13,118.09,131211,,,D*71
$GPVTG,118.09,T,,M,2.13,N,3.9,K,D*03
$GPGGA,232832.000,3748.7942,N,12217.8504,W,2,06,1.5,3.8,M,-25.1,M,,0000*6B
$GPGSA,A,3,18,19,22,03,21,06,,,,,,,3.8,1.5,3.5*3C
$GPRMC,232832.000,A,3748.7942,N,12217.8504,W,2.09,110.62,131211,,,D*73
$GPVTG,110.62,T,,M,2.09,N,3.9,K,D*0D
$GPGGA,232833.000,3748.7935,N,12217.8499,W,2,06,1.5,4.4,M,-25.1,M,,0000*64
$GPGSA,A,3,18,19,22,03,21,06,,,,,,,3.8,1.5,3.5*3C
$GPGSV,3,1,12,22,71,324,24,14,50,185,37,06,49,241,33,18,47,052,26*70
$GPGSV,3,2,12,03,45,258,30,21,40,113,34,19,34,305,20,09,18,074,22*7E
$GPGSV,3,3,12,27,13,053,19,15,06,040,24,16,00,238,,48,44,197,36*7B
$GPRMC,232833.000,A,3748.7935,N,12217.8499,W,1.91,102.78,131211,,,D*7D
$GPVTG,102.78,T,,M,1.91,N,3.5,K,D*0B
$GPGGA,232834.000,3748.7927,N,12217.8495,W,2,06,1.5,5.5,M,-25.1,M,2.8,0000*48
$GPGSA,A,3,18,19,22,03,21,06,,,,,,,3.8,1.5,3.5*3C
$GPRMC,232834.000,A,3748.7927,N,12217.8495,W,1.58,104.41,131211,,,D*7C
$GPVTG,104.41,T,,M,1.58,N,2.9,K,D*0F
$GPGGA,232835.000,3748.7923,N,12217.8488,W,2,06,1.5,5.3,M,-25.1,M,,0000*63
$GPGSA,A,3,18,19,22,03,21,06,,,,,,,3.8,1.5,3.5*3C
$GPRMC,232835.000,A,3748.7923,N,12217.8488,W,2.02,87.71,131211,,,D*40
$GPVTG,87.71,T,,M,2.02,N,3.7,K,D*35
$GPGGA,232836.000,3748.7916,N,12217.8478,W,2,06,1.5,8.3,M,-25.1,M,1.8,0000*43
$GPGSA,A,3,18,19,22,03,21,06,,,,,,,3.8,1.5,3.5*3C
$GPRMC,232836.000,A,3748.7916,N,12217.8478,W,2.06,92.71,131211,,,D*4A
$GPVTG,92.71,T,,M,2.06,N,3.8,K,D*3A
$GPGGA,232837.000,3748.7910,N,12217.8472,W,2,06,1.5,7.4,M,-25.1,M,1.8,0000*46
$GPGSA,A,3,18,19,22,03,21,06,,,,,,,3.8,1.5,3.5*3C
$GPRMC,232837.000,A,3748.7910,N,12217.8472,W,2.01,104.40,131211,,,D*7C
$GPVTG,104.40,T,,M,2.01,N,3.7,K,D*0E
$GPGGA,232838.000,3748.7913,N,12217.8465,W,2,06,1.5,6.8,M,-25.1,M,1.8,0000*41
$GPGSA,A,3,18,19,22,03,21,06,,,,,,,3.8,1.5,3.5*3C
$GPGSV,3,1,12,22,71,324,25,14,50,185,37,06,49,241,33,18,47,052,23*74
$GPGSV,3,2,12,03,45,258,31,21,40,113,30,19,34,305,21,09,18,074,23*7B
$GPGSV,3,3,12,27,13,053,19,15,06,040,26,16,00,238,,48,44,197,40*78
$GPVTG,98.38,T,,M,1.03,N,1.9,K,D*38
$GPGGA,232839.000,3748.7917,N,12217.8462,W,2,06,1.5,4.6,M,-25.1,M,1.8,0000*4F
$GPGSA,A,3,18,19,22,03,21,06,,,,,,,3.8,1.5,3.5*3C
$GPRMC,232839.000,A,3748.7917,N,12217.8462,W,0.07,98.68,131211,,,D*4E
$GPVTG,98.68,T,,M,0.07,N,0.1,K,D*31
$GPGGA,232840.000,3748.7919,N,12217.8463,W,2,06,1.5,1.9,M,-25.1,M,2.8,0000*47
$GPGSA,A,3,18,19,22,03,21,06,,,,,,,3.8,1.5,3.5*3C
$GPRMC,232840.000,A,3748.7919,N,12217.8463,W,0.20,283.16,131211,,,D*7B
$GPVTG,283.16,T,,M,0.20,N,0.4,K,D*00
$GPGGA,232841.000,3748.7921,N,12217.8467,W,2,06,1.5,-1.6,M,-25.1,M,3.8,0000*6A
$GPGSA,A,3,18,19,22,03,21,06,,,,,,,3.8,1.5,3.5*3C
$GPRMC,232841.000,A,3748.7921,N,12217.8467,W,0.98,299.08,131211,,,D*72
$GPVTG,299.08,T,,M,0.98,N,1.8,K,D*0A
$GPGGA,232842.000,3748.7918,N,12217.8473,W,2,06,1.5,-2.6,M,-25.1,M,1.8,0000*67
$GPGSA,A,3,18,19,22,03,21,06,,,,,,,3.8,1.5,3.5*3C
$GPRMC,232842.000,A,3748.7918,N,12217.8473,W,0.70,264.17,131211,,,D*74
$GPVTG,264.17,T,,M,0.70,N,1.3,K,D*0B
$GPGGA,232843.000,3748.7916,N,12217.8475,W,2,06,1.5,-4.6,M,-25.1,M,1.8,0000*68
$GPGSA,A,3,18,19,22,03,21,06,,,,,,,3.8,1.5,3.5*3C
$GPGSV,3,1,12,22,71,324,25,14,50,185,37,06,49,241,33,18,47,052,20*77
$GPGSV,3,2,12,03,45,258,37,21,40,113,26,19,34,304,27,09,18,074,22*7C
$GPGSV,3,3,12,27,13,053,20,15,06,040,28,16,00,238,,48,44,197,37*7C
$GPRMC,232843.000,A,3748.7916,N,12217.8475,W,0.67,220.26,131211,,,D*79
$GPVTG,220.26,T,,M,0.67,N,1.2,K,D*0E
$GPGGA,232844.000,3748.7914,N,12217.8476,W,2,05,1.6,-5.1,M,-25.1,M,1.8,0000*68
$GPGSA,A,3,18,19,03,21,06,,,,,,,,7.4,1.6,7.2*34
$GPRMC,232844.000,A,3748.7914,N,12217.8476,W,0.43,197.98,131211,,,D*73
$GPVTG,197.98,T,,M,0.43,N,0.8,K,D*09
$GPGGA,232845.000,3748.7915,N,12217.8476,W,2,05,1.6,-5.7,M,-25.1,M,1.8,0000*6E
$GPGSA,A,3,18,19,03,21,06,,,,,,,,7.4,1.6,7.2*34
$GPRMC,232845.000,A,3748.7915,N,12217.8476,W,0.21,192.02,131211,,,D*71
$GPVTG,192.02,T,,M,0.21,N,0.4,K,D*07
$GPGGA,232846.000,3748.7916,N,12217.8476,W,2,05,1.6,-6.1,M,-25.1,M,2.8,0000*68
$GPGSA,A,3,18,19,03,21,06,,,,,,,,7.4,1.6,7.2*34
$GPRMC,232846.000,A,3748.7916,N,12217.8476,W,0.42,207.78,131211,,,D*76
$GPVTG,207.78,T,,M,0.42,N,0.8,K,D*0C
$GPGGA,232847.000,3748.7919,N,12217.8476,W,2,06,1.5,-4.1,M,-25.1,M,3.8,0000*65
$GPGSA,A,3,18,19,22,03,21,06,,,,,,,3.8,1.5,3.5*3C
$GPRMC,232847.000,A,3748.7919,N,12217.8476,W,0.51,81.65,131211,,,D*4A
$GPVTG,81.65,T,,M,0.51,N,1.0,K,D*37
$GPGGA,232848.000,3748.7918,N,12217.8471,W,2,06,1.5,-2.4,M,-25.1,M,4.8,0000*68
$GPGSA,A,3,18,19,22,03,21,06,,,,,,,3.8,1.5,3.5*3C
$GPGSV,3,1,12,22,71,324,29,14,50,185,37,06,49,241,28,18,47,052,21*70
$GPGSV,3,2,12,03,45,258,34,21,40,113,28,19,34,304,28,09,18,074,24*78
$GPGSV,3,3,12,27,13,053,19,15,06,040,27,16,00,238,,48,44,197,38*76
$GPRMC,232848.000,A,3748.7918,N,12217.8471,W,1.26,104.88,131211,,,D*7D
$GPVTG,104.88,T,,M,1.26,N,2.3,K,D*09
$GPGGA,232849.000,3748.7919,N,12217.8465,W,2,06,1.5,-2.4,M,-25.1,M,1.8,0000*68
$GPGSA,A,3,18,19,22,03,21,06,,,,,,,3.8,1.5,3.5*3C
$GPRMC,232849.000,A,3748.7919,N,12217.8465,W,1.56,99.21,131211,,,D*49
$GPVTG,99.21,T,,M,1.56,N,2.9,K,D*32
$GPGGA,232850.000,3748.7919,N,12217.8460,W,2,06,1.5,-2.6,M,-25.1,M,2.8,0000*64
$GPGSA,A,3,18,19,22,03,21,06,,,,,,,3.8,1.5,3.5*3C
$GPRMC,232850.000,A,3748.7919,N,12217.8460,W,1.50,105.30,131211,,,D*76
$GPVTG,105.30,T,,M,1.50,N,2.8,K,D*01
$GPGGA,232851.000,3748.7919,N,12217.8456,W,2,06,1.5,-0.4,M,-25.1,M,3.8,0000*61
$GPGSA,A,3,18,19,22,03,21,06,,,,,,,3.8,1.5,3.5*3C
$GPRMC,232851.000,A,3748.7919,N,12217.8456,W,1.43,129.14,131211,,,D*78
$GPVTG,129.14,T,,M,1.43,N,2.7,K,D*04
$GPGGA,232852.000,3748.7910,N,12217.8451,W,2,07,1.2,0.6,M,-25.1,M,,0000*60
$GPGSA,A,3,18,19,22,03,21,06,14,,,,,,3.7,1.2,3.5*31
$GPRMC,232852.000,A,3748.7910,N,12217.8451,W,1.80,116.82,131211,,,D*79
$GPVTG,116.82,T,,M,1.80,N,3.3,K,D*0D
$GPGGA,232853.000,3748.7905,N,12217.8445,W,2,07,1.2,-0.0,M,-25.1,M,5.8,0000*68
$GPGSA,A,3,18,19,22,03,21,06,14,,,,,,3.7,1.2,3.5*31
$GPGSV,3,1,12,22,71,325,23,14,50,185,33,06,49,241,31,18,47,052,26*70
$GPGSV,3,2,12,03,45,258,31,21,40,113,28,19,34,304,23,09,18,073,26*73
$GPGSV,3,3,12,27,13,053,20,15,06,040,23,16,00,238,,48,44,197,38*78
$GPRMC,232853.000,A,3748.7905,N,12217.8445,W,2.03,114.58,131211,,,D*74
$GPVTG,114.58,T,,M,2.03,N,3.8,K,D*0B
$GPGGA,232854.000,3748.7897,N,12217.8438,W,2,07,1.2,-0.7,M,-25.1,M,6.8,0000*6B
$GPGSA,A,3,18,19,22,03,21,06,14,,,,,,3.7,1.2,3.5*31
$GPRMC,232854.000,A,3748.7897,N,12217.8438,W,2.69,128.96,131211,,,D*72
$GPVTG,128.96,T,,M,2.69,N,5.0,K,D*04
$GPGGA,232855.000,3748.7887,N,12217.8432,W,2,07,1.2,-1.6,M,-25.1,M,7.8,0000*60
$GPGSA,A,3,18,19,22,03,21,06,14,,,,,,3.7,1.2,3.5*31
$GPRMC,232855.000,A,3748.7887,N,12217.8432,W,2.57,121.56,131211,,,D*70
$GPVTG,121.56,T,,M,2.57,N,4.8,K,D*05
$GPGGA,232856.000,3748.7884,N,12217.8422,W,2,07,1.2,-1.9,M,-25.1,M,,0000*4F
$GPGSA,A,3,18,19,22,03,21,06,14,,,,,,3.7,1.2,3.5*31
$GPRMC,232856.000,A,3748.7884,N,12217.8422,W,2.74,119.04,131211,,,D*7C
$GPVTG,119.04,T,,M,2.74,N,5.1,K,D*00
$GPGGA,232857.000,3748.7881,N,12217.8412,W,2,07,1.2,-2.3,M,-25.1,M,,0000*41
$GPGSA,A,3,18,19,22,03,21,06,14,,,,,,3.7,1.2,3.5*31
$GPRMC,232857.000,A,3748.7881,N,12217.8412,W,2.67,113.40,131211,,,D*73
$GPVTG,113.40,T,,M,2.67,N,4.9,K,D*01
$GPGGA,232858.000,3748.7880,N,12217.8401,W,2,07,1.2,-2.7,M,-25.1,M,2.8,0000*6D
$GPGSA,A,3,18,19,22,03,21,06,14,,,,,,3.7,1.2,3.5*31
$GPGSV,3,1,12,22,71,325,25,14,50,185,36,06,49,241,34,18,47,052,26*76
$GPGSV,3,2,12,03,45,258,32,21,40,113,34,19,34,304,24,09,18,073,26*7A
$GPGSV,3,3,12,27,13,053,25,15,06,040,25,16,00,238,,48,44,197,39*7A
$GPRMC,232858.000,A,3748.7880,N,12217.8401,W,2.54,113.92,131211,,,D*70
$GPGGA,232859.000,3748.7875,N,12217.8392,W,2,07,1.2,-5.3,M,-25.1,M,3.8,0000*69
$GPGSA,A,3,18,19,22,03,21,06,14,,,,,,3.7,1.2,3.5*31
$GPRMC,232859.000,A,3748.7875,N,12217.8392,W,2.43,109.04,131211,,,D*74
$GPVTG,109.04,T,,M,2.43,N,4.5,K,D*00
$GPGGA,232900.000,3748.7871,N,12217.8384,W,2,07,1.2,-5.0,M,-25.1,M,4.8,0000*63
$GPGSA,A,3,18,19,22,03,21,06,14,,,,,,3.7,1.2,3.5*31
$GPRMC,232900.000,A,3748.7871,N,12217.8384,W,2.30,116.28,131211,,,D*7E
$GPVTG,116.28,T,,M,2.30,N,4.3,K,D*02
$GPGGA,232901.000,3748.7866,N,12217.8377,W,2,07,1.2,-6.7,M,-25.1,M,,0000*4E
$GPGSA,A,3,18,19,22,03,21,06,14,,,,,,3.7,1.2,3.5*31
$GPRMC,232901.000,A,3748.7866,N,12217.8377,W,2.02,116.79,131211,,,D*70
$GPVTG,116.79,T,,M,2.02,N,3.7,K,D*04
$GPGGA,232902.000,3748.7863,N,12217.8370,W,2,07,1.2,-6.7,M,-25.1,M,,0000*4F
$GPGSA,A,3,18,19,22,03,21,06,14,,,,,,3.7,1.2,3.5*31
$GPRMC,232902.000,A,3748.7863,N,12217.8370,W,2.07,115.35,131211,,,D*7F
$GPVTG,115.35,T,,M,2.07,N,3.8,K,D*05
$GPGGA,232903.000,3748.7863,N,12217.8363,W,2,07,1.2,-7.0,M,-25.1,M,,0000*4A
$GPGSA,A,3,18,19,22,03,21,06,14,,,,,,3.7,1.2,3.5*31
$GPGSV,3,1,12,22,71,325,25,14,50,185,36,06,49,241,33,18,47,052,26*71
$GPGSV,3,2,12,03,45,258,32,21,40,113,33,19,34,304,24,09,18,073,26*7D
$GPGSV,3,3,12,27,13,053,21,15,06,040,24,16,00,238,,48,44,197,38*7E
$GPRMC,232903.000,A,3748.7863,N,12217.8363,W,1.98,105.70,131211,,,D*79
$GPVTG,105.70,T,,M,1.98,N,3.7,K,D*0F
$GPGGA,232904.000,3748.7863,N,12217.8355,W,2,07,1.2,-7.3,M,-25.1,M,1.8,0000*6C
$GPGSA,A,3,18,19,22,03,21,06,14,,,,,,3.7,1.2,3.5*31
$GPRMC,232904.000,A,3748.7863,N,12217.8355,W,1.97,109.32,131211,,,D*7E
$GPVTG,109.32,T,,M,1.97,N,3.7,K,D*0A
$GPGGA,232905.000,3748.7855,N,12217.8350,W,2,07,1.2,-7.7,M,-25.1,M,2.8,0000*6A
$GPGSA,A,3,18,19,22,03,21,06,14,,,,,,3.7,1.2,3.5*31
$GPRMC,232905.000,A,3748.7855,N,12217.8350,W,2.14,109.64,131211,,,D*74
$GPVTG,109.64,T,,M,2.14,N,4.0,K,D*01
$GPGGA,232906.000,3748.7852,N,12217.8342,W,2,07,1.2,-8.4,M,-25.1,M,3.8,0000*60
$GPGSA,A,3,18,19,22,03,21,06,14,,,,,,3.7,1.2,3.5*31
$GPRMC,232906.000,A,3748.7852,N,12217.8342,W,2.16,109.66,131211,,,D*73
$GPVTG,109.66,T,,M,2.16,N,4.0,K,D*01
$GPGGA,232907.000,3748.7848,N,12217.8334,W,2,07,1.2,-10.0,M,-25.1,M,1.8,0000*54
$GPGSA,A,3,18,19,22,03,21,06,14,,,,,,3.7,1.2,3.5*31
$GPRMC,232907.000,A,3748.7848,N,12217.8334,W,2.16,110.44,131211,,,D*70
$GPVTG,110.44,T,,M,2.16,N,4.0,K,D*09
$GPGGA,232908.000,3748.7845,N,12217.8326,W,2,07,1.2,-10.3,M,-25.1,M,1.8,0000*56
$GPGSA,A,3,18,19,22,03,21,06,14,,,,,,3.7,1.2,3.5*31
$GPGSV,3,1,12,22,71,325,26,14,50,185,36,06,49,241,34,18,47,052,26*75
$GPGSV,3,2,12,03,45,258,33,21,40,113,33,19,34,304,24,09,18,073,21*7B
$GPGSV,3,3,12,27,13,053,21,15,06,040,20,16,00,238,,48,44,197,35*77
$GPRMC,232908.000,A,3748.7845,N,12217.8326,W,1.93,104.96,131211,,,D*75
$GPVTG,104.96,T,,M,1.93,N,3.6,K,D*0C
$GPGGA,232909.000,3748.7843,N,12217.8321,W,2,07,1.2,-10.9,M,-25.1,M,2.8,0000*5F
$GPGSA,A,3,18,19,22,03,21,06,14,,,,,,3.7,1.2,3.5*31
$GPRMC,232909.000,A,3748.7843,N,12217.8321,W,0.85,95.04,131211,,,D*41
$GPVTG,95.04,T,,M,0.85,N,1.6,K,D*3A
$GPGGA,232910.000,3748.7840,N,12217.8315,W,2,07,1.2,-10.9,M,-25.1,M,3.8,0000*52
$GPGSA,A,3,18,19,22,03,21,06,14,,,,,,3.7,1.2,3.5*31
$GPRMC,232910.000,A,3748.7840,N,12217.8315,W,1.71,112.86,131211,,,D*73
$GPVTG,112.86,T,,M,1.71,N,3.2,K,D*02
$GPGGA,232911.000,3748.7838,N,12217.8307,W,2,07,1.2,-11.0,M,-25.1,M,4.8,0000*50
$GPGSA,A,3,18,19,22,03,21,06,14,,,,,,3.7,1.2,3.5*31
$GPRMC,232911.000,A,3748.7838,N,12217.8307,W,1.65,108.14,131211,,,D*7B
$GPVTG,108.14,T,,M,1.65,N,3.1,K,D*04
$GPGGA,232912.000,3748.7832,N,12217.8300,W,2,07,1.2,-11.1,M,-25.1,M,5.8,0000*5E
$GPGSA,A,3,18,19,22,03,21,06,14,,,,,,3.7,1.2,3.5*31
$GPRMC,232912.000,A,3748.7832,N,12217.8300,W,1.94,93.32,131211,,,D*4C
$GPVTG,93.32,T,,M,1.94,N,3.6,K,D*3A
$GPGGA,232913.000,3748.7832,N,12217.8293,W,2,07,1.2,-12.0,M,-25.1,M,1.8,0000*52
$GPGSA,A,3,18,19,22,03,21,06,14,,,,,,3.7,1.2,3.5*31
$GPGSV,3,1,12,22,71,325,26,14,50,185,36,06,49,241,32,18,47,052,26*73
$GPGSV,3,2,12,03,45,258,32,21,40,113,33,19,34,304,24,09,18,073,22*79
$GPGSV,3,3,12,27,13,053,21,15,06,040,20,16,00,238,,48,44,197,29*7A
$GPRMC,232913.000,A,3748.7832,N,12217.8293,W,1.56,82.87,131211,,,D*46
$GPVTG,82.87,T,,M,1.56,N,2.9,K,D*34
$GPGGA,232914.000,3748.7830,N,12217.8285,W,2,07,1.2,-12.2,M,-25.1,M,2.8,0000*51
$GPGSA,A,3,18,19,22,03,21,06,14,,,,,,3.7,1.2,3.5*31
$GPRMC,232914.000,A,3748.7830,N,12217.8285,W,1.53,92.48,131211,,,D*43
$GPVTG,92.48,T,,M,1.53,N,2.8,K,D*32
$GPGGA,232915.000,3748.7827,N,12217.8279,W,2,07,1.2,-11.8,M,-25.1,M,1.8,0000*5F
$GPGSA,A,3,18,19,22,03,21,06,14,,,,,,3.7,1.2,3.5*31
$GPRMC,232915.000,A,3748.7827,N,12217.8279,W,1.62,118.26,131211,,,D*7E
$GPVTG,118.26,T,,M,1.62,N,3.0,K,D*02
$GPGGA,232916.000,3748.7821,N,12217.8273,W,2,07,1.2,-11.6,M,-25.1,M,1.8,0000*5E
$GPGSA,A,3,18,19,22,03,21,06,14,,,,,,3.7,1.2,3.5*31
$GPRMC,232916.000,A,3748.7821,N,12217.8273,W,1.57,125.31,131211,,,D*7F
$GPVTG,125.31,T,,M,1.57,N,2.9,K,D*04
$GPGGA,232917.000,3748.7817,N,12217.8268,W,2,07,1.2,-12.1,M,-25.1,M,1.8,0000*54
$GPGSA,A,3,18,19,22,03,21,06,14,,,,,,3.7,1.2,3.5*31
$GPRMC,232917.000,A,3748.7817,N,12217.8268,W,1.77,116.12,131211,,,D*72
$GPVTG,116.12,T,,M,1.77,N,3.3,K,D*0C
$GPGGA,232918.000,3748.7810,N,12217.8263,W,2,07,1.2,-12.8,M,-25.1,M,1.8,0000*5E
$GPGSA,A,3,18,19,22,03,21,06,14,,,,,,3.7,1.2,3.5*31
$GPGSV,3,1,12,22,71,325,25,14,50,185,37,06,49,241,31,18,47,052,27*73
$GPGSV,3,2,12,03,45,258,31,21,40,113,33,19,34,304,23,09,18,073,23*7C
$GPGSV,3,3,12,27,13,053,21,15,06,040,20,16,00,238,,48,44,197,38*7A
$GPRMC,232918.000,A,3748.7810,N,12217.8263,W,1.88,105.27,131211,,,D*75
$GPGGA,232919.000,3748.7809,N,12217.8254,W,2,07,1.2,-12.6,M,-25.1,M,1.8,0000*5D
$GPGSA,A,3,18,19,22,03,21,06,14,,,,,,3.7,1.2,3.5*31
$GPRMC,232919.000,A,3748.7809,N,12217.8254,W,1.67,96.90,131211,,,D*4E
$GPVTG,96.90,T,,M,1.67,N,3.1,K,D*3C
$GPGGA,232920.000,3748.7809,N,12217.8246,W,2,07,1.2,-12.5,M,-25.1,M,1.8,0000*57
$GPGSA,A,3,18,19,22,03,21,06,14,,,,,,3.7,1.2,3.5*31
$GPRMC,232920.000,A,3748.7809,N,12217.8246,W,1.54,108.82,131211,,,D*72
$GPVTG,108.82,T,,M,1.54,N,2.9,K,D*00
$GPGGA,232921.000,3748.7810,N,12217.8236,W,2,07,1.2,-11.3,M,-25.1,M,1.8,0000*5C
$GPGSA,A,3,18,19,22,03,21,06,14,,,,,,3.7,1.2,3.5*31
$GPRMC,232921.000,A,3748.7810,N,12217.8236,W,1.93,116.06,131211,,,D*74
$GPVTG,116.06,T,,M,1.93,N,3.6,K,D*06
$GPGGA,232922.000,3748.7803,N,12217.8228,W,2,07,1.2,-12.5,M,-25.1,M,2.8,0000*54
$GPGSA,A,3,18,19,22,03,21,06,14,,,,,,3.7,1.2,3.5*31
$GPRMC,232922.000,A,3748.7803,N,12217.8228,W,1.88,121.73,131211,,,D*76
$GPVTG,121.73,T,,M,1.88,N,3.5,K,D*09
$GPGGA,232923.000,3748.7799,N,12217.8220,W,2,07,1.2,-12.9,M,-25.1,M,3.8,0000*5C
$GPGSA,A,3,18,19,22,03,21,06,14,,,,,,3.7,1.2,3.5*31
$GPGSV,3,1,12,22,71,325,25,14,50,185,37,06,49,241,33,18,47,052,26*70
$GPGSV,3,2,12,03,45,258,32,21,40,113,30,19,34,304,23,09,18,073,20*7F
$GPGSV,3,3,12,27,13,053,20,15,06,040,20,16,00,238,,48,44,197,40*74
$GPRMC,232923.000,A,3748.7799,N,12217.8220,W,1.90,116.84,131211,,,D*76
$GPVTG,116.84,T,,M,1.90,N,3.5,K,D*0C
$GPGGA,232924.000,3748.7795,N,12217.8212,W,2,07,1.2,-13.7,M,-25.1,M,1.8,0000*5B
$GPGSA,A,3,18,19,22,03,21,06,14,,,,,,3.7,1.2,3.5*31
$GPRMC,232924.000,A,3748.7795,N,12217.8212,W,2.13,110.50,131211,,,D*7B
$GPVTG,110.50,T,,M,2.13,N,3.9,K,D*07
$GPGGA,232925.000,3748.7791,N,12217.8205,W,2,07,1.2,-15.2,M,-25.1,M,2.8,0000*58
$GPGSA,A,3,18,19,22,03,21,06,14,,,,,,3.7,1.2,3.5*31
$GPRMC,232925.000,A,3748.7791,N,12217.8205,W,2.07,114.78,131211,,,D*73
$GPVTG,114.78,T,,M,2.07,N,3.8,K,D*0D
$GPGGA,232926.000,3748.7787,N,12217.8197,W,2,07,1.2,-15.8,M,-25.1,M,0.8,0000*5C
$GPGSA,A,3,18,19,22,03,21,06,14,,,,,,3.7,1.2,3.5*31
$GPRMC,232926.000,A,3748.7787,N,12217.8197,W,2.34,106.65,131211,,,D*70
$GPVTG,106.65,T,,M,2.34,N,4.3,K,D*0E
$GPGGA,232927.000,3748.7783,N,12217.8189,W,2,07,1.2,-16.9,M,-25.1,M,1.8,0000*55
$GPGSA,A,3,18,19,22,03,21,06,14,,,,,,3.7,1.2,3.5*31
$GPRMC,232927.000,A,3748.7783,N,12217.8189,W,2.12,119.30,131211,,,D*70
$GPVTG,119.30,T,,M,2.12,N,3.9,K,D*09
$GPGGA,232928.000,3748.7777,N,12217.8182,W,2,07,1.2,-17.6,M,-25.1,M,2.8,0000*57
$GPGSA,A,3,18,19,22,03,21,06,14,,,,,,3.7,1.2,3.5*31
$GPGSV,3,1,12,22,71,325,25,14,50,185,38,06,49,241,33,18,47,052,29*70
$GPGSV,3,2,12,03,45,258,33,21,40,113,31,19,34,304,24,09,18,073,21*79
$GPGSV,3,3,12,27,13,053,23,15,06,040,20,16,00,238,,48,44,197,38*78
$GPRMC,232928.000,A,3748.7777,N,12217.8182,W,2.25,122.64,131211,,,D*72
$GPVTG,122.64,T,,M,2.25,N,4.2,K,D*08
$GPGGA,232929.000,3748.7774,N,12217.8173,W,2,07,1.2,-17.4,M,-25.1,M,3.8,0000*58
$GPGSA,A,3,18,19,22,03,21,06,14,,,,,,3.7,1.2,3.5*31
$GPRMC,232929.000,A,3748.7774,N,12217.8173,W,2.52,110.40,131211,,,D*79
$GPVTG,110.40,T,,M,2.52,N,4.7,K,D*0A
$GPGGA,232930.000,3748.7771,N,12217.8163,W,2,07,1.2,-17.2,M,-25.1,M,4.8,0000*55
$GPGSA,A,3,18,19,22,03,21,06,14,,,,,,3.7,1.2,3.5*31
$GPRMC,232930.000,A,3748.7771,N,12217.8163,W,2.55,116.47,131211,,,D*73
$GPVTG,116.47,T,,M,2.55,N,4.7,K,D*0C
$GPGGA,232931.000,3748.7767,N,12217.8155,W,2,07,1.2,-16.3,M,-25.1,M,1.8,0000*53
$GPGSA,A,3,18,19,22,03,21,06,14,,,,,,3.7,1.2,3.5*31
$GPRMC,232931.000,A,3748.7767,N,12217.8155,W,2.38,121.43,131211,,,D*7B
$GPVTG,121.43,T,,M,2.38,N,4.4,K,D*04
$GPGGA,232932.000,3748.7763,N,12217.8146,W,2,07,1.2,-15.1,M,-25.1,M,1.8,0000*57
$GPGSA,A,3,18,19,22,03,21,06,14,,,,,,3.7,1.2,3.5*31
$GPRMC,232932.000,A,3748.7763,N,12217.8146,W,2.34,115.94,131211,,,D*7F
$GPVTG,115.94,T,,M,2.34,N,4.3,K,D*02
$GPGGA,232933.000,3748.7760,N,12217.8138,W,2,07,1.2,-14.3,M,-25.1,M,1.8,0000*5F
$GPGSA,A,3,18,19,22,03,21,06,14,,,,,,3.7,1.2,3.5*31
$GPGSV,3,1,12,22,71,325,26,14,50,185,37,06,49,241,34,18,47,052,23*71
$GPGSV,3,2,12,03,45,258,33,21,40,113,32,19,34,304,20,09,18,073,21*7E
$GPGSV,3,3,12,27,13,053,24,15,06,040,23,16,00,238,,48,44,197,35*71
$GPRMC,232933.000,A,3748.7760,N,12217.8138,W,2.40,123.23,131211,,,D*7E
$GPVTG,123.23,T,,M,2.40,N,4.5,K,D*0E
$GPGGA,232934.000,3748.7757,N,12217.8130,W,2,07,1.2,-13.5,M,-25.1,M,2.8,0000*56
$GPGSA,A,3,18,19,22,03,21,06,14,,,,,,3.7,1.2,3.5*31
$GPRMC,232934.000,A,3748.7757,N,12217.8130,W,2.39,109.27,131211,,,D*77
$GPVTG,109.27,T,,M,2.39,N,4.4,K,D*0D
$GPGGA,232935.000,3748.7754,N,12217.8124,W,2,07,1.2,-14.1,M,-25.1,M,3.8,0000*53
$GPGSA,A,3,18,19,22,03,21,06,14,,,,,,3.7,1.2,3.5*31
$GPRMC,232935.000,A,3748.7754,N,12217.8124,W,2.25,111.07,131211,,,D*76
$GPVTG,111.07,T,,M,2.25,N,4.2,K,D*0D
$GPGGA,232936.000,3748.7750,N,12217.8116,W,2,07,1.2,-11.6,M,-25.1,M,4.8,0000*50
$GPGSA,A,3,18,19,22,03,21,06,14,,,,,,3.7,1.2,3.5*31
$GPRMC,232936.000,A,3748.7750,N,12217.8116,W,2.03,104.40,131211,,,D*73
$GPVTG,104.40,T,,M,2.03,N,3.8,K,D*03
$GPGGA,232937.000,3748.7744,N,12217.8108,W,2,07,1.2,-11.3,M,-25.1,M,5.8,0000*5F
$GPGSA,A,3,18,19,22,03,21,06,14,,,,,,3.7,1.2,3.5*31
$GPRMC,232937.000,A,3748.7744,N,12217.8108,W,2.49,112.94,131211,,,D*78
$GPVTG,112.94,T,,M,2.49,N,4.6,K,D*0A
$GPGGA,232938.000,3748.7737,N,12217.8100,W,2,07,1.2,-10.8,M,-25.1,M,1.8,0000*52
$GPGSA,A,3,18,19,22,03,21,06,14,,,,,,3.7,1.2,3.5*31
$GPGSV,3,1,12,22,71,325,24,14,50,185,37,06,49,241,35,18,47,052,26*77
$GPGSV,3,2,12,03,45,258,36,21,40,113,33,19,34,304,26,09,18,073,24*79
$GPGSV,3,3,12,27,13,053,18,15,06,040,26,16,00,238,,48,44,197,40*79
$GPVTG,118.06,T,,M,2.73,N,5.1,K,D*04
$GPGGA,232939.000,3748.7731,N,12217.8090,W,2,07,1.2,-9.0,M,-25.1,M,1.8,0000*6D
$GPGSA,A,3,18,19,22,03,21,06,14,,,,,,3.7,1.2,3.5*31
$GPRMC,232939.000,A,3748.7731,N,12217.8090,W,2.30,110.12,131211,,,D*76
$GPVTG,110.12,T,,M,2.30,N,4.3,K,D*0D
$GPGGA,232940.000,3748.7721,N,12217.8083,W,2,07,1.2,-8.4,M,-25.1,M,1.8,0000*65
$GPGSA,A,3,18,19,22,03,21,06,14,,,,,,3.7,1.2,3.5*31
$GPRMC,232940.000,A,3748.7721,N,12217.8083,W,2.01,112.72,131211,,,D*7D
$GPVTG,112.72,T,,M,2.01,N,3.7,K,D*08
$GPGGA,232941.000,3748.7717,N,12217.8077,W,2,07,1.2,-9.3,M,-25.1,M,2.8,0000*6F
$GPGSA,A,3,18,19,22,03,21,06,14,,,,,,3.7,1.2,3.5*31
$GPRMC,232941.000,A,3748.7717,N,12217.8077,W,2.03,106.84,131211,,,D*7C
$GPVTG,106.84,T,,M,2.03,N,3.8,K,D*09
$GPGGA,232942.000,3748.7711,N,12217.8066,W,2,07,1.2,-4.3,M,-25.1,M,3.8,0000*66
$GPGSA,A,3,18,19,22,03,21,06,14,,,,,,3.7,1.2,3.5*31
$GPRMC,232942.000,A,3748.7711,N,12217.8066,W,2.67,118.78,131211,,,D*77
$GPVTG,118.78,T,,M,2.67,N,4.9,K,D*01
$GPGGA,232943.000,3748.7701,N,12217.8054,W,2,07,1.2,-0.4,M,-25.1,M,1.8,0000*66
$GPGSA,A,3,18,19,22,03,21,06,14,,,,,,3.7,1.2,3.5*31
$GPGSV,3,1,11,22,71,326,25,14,51,185,37,06,49,240,35,18,47,053,25*74
$GPGSV,3,2,11,03,44,257,34,21,40,113,33,19,35,304,25,09,18,073,22*72
$GPGSV,3,3,11,27,13,053,20,15,06,040,22,48,44,197,38*44
$GPRMC,232943.000,A,3748.7701,N,12217.8054,W,2.66,115.51,131211,,,D*71
$GPVTG,115.51,T,,M,2.66,N,4.9,K,D*06
$GPGGA,232944.000,3748.7695,N,12217.8047,W,2,07,1.2,-0.8,M,-25.1,M,1.8,0000*63
$GPGSA,A,3,18,19,22,03,21,06,14,,,,,,3.7,1.2,3.5*31
$GPRMC,232944.000,A,3748.7695,N,12217.8047,W,2.61,116.60,131211,,,D*7E
$GPVTG,116.60,T,,M,2.61,N,4.8,K,D*01
$GPGGA,232945.000,3748.7692,N,12217.8039,W,2,07,1.2,-0.8,M,-25.1,M,1.8,0000*6C
$GPGSA,A,3,18,19,22,03,21,06,14,,,,,,3.7,1.2,3.5*31
$GPRMC,232945.000,A,3748.7692,N,12217.8039,W,2.35,106.90,131211,,,D*7E
$GPVTG,106.90,T,,M,2.35,N,4.3,K,D*05
$GPGGA,232946.000,3748.7688,N,12217.8030,W,2,07,1.2,-0.2,M,-25.1,M,1.8,0000*67
$GPGSA,A,3,18,19,22,03,21,06,14,,,,,,3.7,1.2,3.5*31
$GPRMC,232946.000,A,3748.7688,N,12217.8030,W,2.13,99.32,131211,,,D*44
$GPVTG,99.32,T,,M,2.13,N,3.9,K,D*33
$GPGGA,232947.000,3748.7686,N,12217.8021,W,2,07,1.2,0.3,M,-25.1,M,2.8,0000*47
$GPGSA,A,3,18,19,22,03,21,06,14,,,,,,3.7,1.2,3.5*31
$GPRMC,232947.000,A,3748.7686,N,12217.8021,W,2.13,90.56,131211,,,D*40
$GPVTG,90.56,T,,M,2.13,N,3.9,K,D*38
$GPGGA,232948.000,3748.7680,N,12217.8015,W,2,07,1.2,-0.1,M,-25.1,M,3.8,0000*67
$GPGSA,A,3,18,19,22,03,21,06,14,,,,,,3.7,1.2,3.5*31
$GPGSV,3,1,11,22,71,326,25,14,51,185,37,06,49,240,34,18,47,053,25*75
$GPGSV,3,2,11,03,44,257,28,21,40,113,33,19,35,304,24,09,18,073,29*75
$GPGSV,3,3,11,27,13,053,19,15,06,040,20,48,44,197,36*42
$GPRMC,232948.000,A,3748.7680,N,12217.8015,W,2.23,95.70,131211,,,D*4C
$GPVTG,95.70,T,,M,2.23,N,4.1,K,D*35
$GPGGA,232949.000,3748.7678,N,12217.8007,W,2,07,1.2,-0.9,M,-25.1,M,1.8,0000*68
$GPGSA,A,3,18,19,22,03,21,06,14,,,,,,3.7,1.2,3.5*31
$GPRMC,232949.000,A,3748.7678,N,12217.8007,W,2.04,105.38,131211,,,D*78
$GPVTG,105.38,T,,M,2.04,N,3.8,K,D*0A
$GPGGA,232950.000,3748.7677,N,12217.7998,W,2,07,1.2,-0.5,M,-25.1,M,2.8,0000*60
$GPGSA,A,3,18,19,22,03,21,06,14,,,,,,3.7,1.2,3.5*31
$GPRMC,232950.000,A,3748.7677,N,12217.7998,W,2.15,90.00,131211,,,D*49
$GPVTG,90.00,T,,M,2.15,N,4.0,K,D*33
$GPGGA,232951.000,3748.7675,N,12217.7990,W,2,07,1.2,-0.3,M,-25.1,M,1.8,0000*6E
$GPGSA,A,3,18,19,22,03,21,06,14,,,,,,3.7,1.2,3.5*31
$GPRMC,232951.000,A,3748.7675,N,12217.7990,W,2.47,109.44,131211,,,D*74
$GPVTG,109.44,T,,M,2.47,N,4.6,K,D*03
$GPGGA,232952.000,3748.7671,N,12217.7982,W,2,07,1.2,-0.5,M,-25.1,M,2.8,0000*6F
$GPGSA,A,3,18,19,22,03,21,06,14,,,,,,3.7,1.2,3.5*31
$GPRMC,232952.000,A,3748.7671,N,12217.7982,W,2.44,115.44,131211,,,D*7E
$GPVTG,115.44,T,,M,2.44,N,4.5,K,D*0E
$GPGGA,232953.000,3748.7668,N,12217.7974,W,2,07,1.2,-0.2,M,-25.1,M,3.8,0000*69
$GPGSA,A,3,18,19,22,03,21,06,14,,,,,,3.7,1.2,3.5*31
$GPGSV,3,1,11,22,71,326,25,14,51,185,37,06,49,240,34,18,47,053,27*77
$GPGSV,3,2,11,03,44,257,33,21,40,113,33,19,35,304,22,09,18,073,21*71
$GPGSV,3,3,11,27,13,053,19,15,06,040,19,48,44,197,39*47
$GPRMC,232953.000,A,3748.7668,N,12217.7974,W,2.57,124.67,131211,,,D*7F
$GPVTG,124.67,T,,M,2.57,N,4.8,K,D*02
$GPGGA,232954.000,3748.7659,N,12217.7968,W,2,07,1.2,-1.1,M,-25.1,M,4.8,0000*64
$GPGSA,A,3,18,19,22,03,21,06,14,,,,,,3.7,1.2,3.5*31
$GPRMC,232954.000,A,3748.7659,N,12217.7968,W,2.67,117.35,131211,,,D*73
$GPVTG,117.35,T,,M,2.67,N,4.9,K,D*07
$GPGGA,232955.000,3748.7655,N,12217.7958,W,2,07,1.2,-1.7,M,-25.1,M,1.8,0000*69
$GPGSA,A,3,18,19,22,03,21,06,14,,,,,,3.7,1.2,3.5*31
$GPRMC,232955.000,A,3748.7655,N,12217.7958,W,2.71,99.99,131211,,,D*4B
$GPVTG,99.99,T,,M,2.71,N,5.0,K,D*39
$GPGGA,232956.000,3748.7653,N,12217.7949,W,2,07,1.2,-0.9,M,-25.1,M,1.8,0000*63
$GPGSA,A,3,18,19,22,03,21,06,14,,,,,,3.7,1.2,3.5*31
$GPRMC,232956.000,A,3748.7653,N,12217.7949,W,2.64,103.21,131211,,,D*7B
$GPVTG,103.21,T,,M,2.64,N,4.9,K,D*04
$GPGGA,232957.000,3748.7651,N,12217.7940,W,2,07,1.2,0.2,M,-25.1,M,1.8,0000*4F
$GPGSA,A,3,18,19,22,03,21,06,14,,,,,,3.7,1.2,3.5*31
$GPRMC,232957.000,A,3748.7651,N,12217.7940,W,2.61,100.76,131211,,,D*75
$GPVTG,100.76,T,,M,2.61,N,4.8,K,D*01
$GPGGA,232958.000,3748.7648,N,12217.7930,W,2,07,1.2,0.0,M,-25.1,M,2.8,0000*4E
$GPGSA,A,3,18,19,22,03,21,06,14,,,,,,3.7,1.2,3.5*31
$GPGSV,3,1,11,22,71,326,25,14,51,185,37,06,49,240,34,18,47,053,24*74
$GPGSV,3,2,11,03,44,257,33,21,40,113,31,19,35,304,23,09,18,073,32*70
$GPGSV,3,3,11,27,13,053,20,15,06,040,20,48,44,197,38*46
$GPRMC,232958.000,A,3748.7648,N,12217.7930,W,2.59,102.16,131211,,,D*7A
$GPGGA,232959.000,3748.7643,N,12217.7922,W,2,07,1.2,-1.8,M,-25.1,M,3.8,0000*62
$GPGSA,A,3,18,19,22,03,21,06,14,,,,,,3.7,1.2,3.5*31
$GPRMC,232959.000,A,3748.7643,N,12217.7922,W,2.37,109.61,131211,,,D*70
$GPVTG,109.61,T,,M,2.37,N,4.4,K,D*01
$GPGGA,233000.000,3748.7639,N,12217.7913,W,2,07,1.2,-2.5,M,-25.1,M,4.8,0000*60
$GPGSA,A,3,18,19,22,03,21,06,14,,,,,,3.7,1.2,3.5*31
$GPRMC,233000.000,A,3748.7639,N,12217.7913,W,2.54,107.20,131211,,,D*75
$GPVTG,107.20,T,,M,2.54,N,4.7,K,D*0C
$GPGGA,233001.000,3748.7634,N,12217.7904,W,2,07,1.2,-3.4,M,-25.1,M,1.8,0000*6F
$GPGSA,A,3,18,19,22,03,21,06,14,,,,,,3.7,1.2,3.5*31
$GPRMC,233001.000,A,3748.7634,N,12217.7904,W,2.80,118.84,131211,,,D*76
$GPVTG,118.84,T,,M,2.80,N,5.2,K,D*01
$GPGGA,233002.000,3748.7631,N,12217.7894,W,2,07,1.2,-2.8,M,-25.1,M,1.8,0000*6C
$GPGSA,A,3,18,19,22,03,21,06,14,,,,,,3.7,1.2,3.5*31
$GPRMC,233002.000,A,3748.7631,N,12217.7894,W,2.60,110.96,131211,,,D*7D
$GPVTG,110.96,T,,M,2.60,N,4.8,K,D*0F
$GPGGA,233003.000,3748.7628,N,12217.7885,W,2,07,1.2,-3.0,M,-25.1,M,1.8,0000*6C
$GPGSA,A,3,18,19,22,03,21,06,14,,,,,,3.7,1.2,3.5*31
$GPGSV,3,1,11,22,71,326,25,14,51,185,37,06,49,240,34,18,47,053,24*74
$GPGSV,3,2,11,03,44,257,33,21,40,113,31,19,35,304,23,09,18,073,22*71
$GPGSV,3,3,11,27,13,053,16,15,06,040,20,48,44,197,39*42
$GPRMC,233003.000,A,3748.7628,N,12217.7885,W,2.54,105.32,131211,,,D*79
$GPVTG,105.32,T,,M,2.54,N,4.7,K,D*0D
$GPGGA,233004.000,3748.7626,N,12217.7876,W,2,07,1.2,-1.9,M,-25.1,M,1.8,0000*62
$GPGSA,A,3,18,19,22,03,21,06,14,,,,,,3.7,1.2,3.5*31
$GPRMC,233004.000,A,3748.7626,N,12217.7876,W,2.41,106.93,131211,,,D*70
$GPVTG,106.93,T,,M,2.41,N,4.5,K,D*03
$GPGGA,233005.000,3748.7622,N,12217.7867,W,2,07,1.2,-1.2,M,-25.1,M,1.8,0000*6C
$GPGSA,A,3,18,19,22,03,21,06,14,,,,,,3.7,1.2,3.5*31
$GPRMC,233005.000,A,3748.7622,N,12217.7867,W,2.70,117.35,131211,,,D*7B
$GPVTG,117.35,T,,M,2.70,N,5.0,K,D*09
$GPGGA,233006.000,3748.7618,N,12217.7858,W,2,07,1.2,-0.7,M,-25.1,M,2.8,0000*6D
$GPGSA,A,3,18,19,22,03,21,06,14,,,,,,3.7,1.2,3.5*31
$GPRMC,233006.000,A,3748.7618,N,12217.7858,W,2.67,119.39,131211,,,D*79
$GPVTG,119.39,T,,M,2.67,N,4.9,K,D*05
$GPGGA,233007.000,3748.7612,N,12217.7848,W,2,07,1.2,-0.8,M,-25.1,M,1.8,0000*6B
$GPGSA,A,3,18,19,22,03,21,06,14,,,,,,3.7,1.2,3.5*31
$GPRMC,233007.000,A,3748.7612,N,12217.7848,W,2.79,120.05,131211,,,D*79
$GPVTG,120.05,T,,M,2.79,N,5.2,K,D*05
$GPGGA,233008.000,3748.7610,N,12217.7839,W,2,07,1.2,0.8,M,-25.1,M,1.8,0000*4D
$GPGSA,A,3,18,19,22,03,21,06,14,,,,,,3.7,1.2,3.5*31
$GPGSV,3,1,11,22,71,326,25,14,51,185,37,06,49,240,34,18,47,053,24*74
$GPGSV,3,2,11,03,44,257,33,21,40,113,32,19,35,304,23,09,18,073,22*72
$GPGSV,3,3,11,27,13,053,17,15,06,040,19,48,44,197,37*47
$GPRMC,233008.000,A,3748.7610,N,12217.7839,W,2.63,109.02,131211,,,D*75
$GPVTG,109.02,T,,M,2.63,N,4.9,K,D*08
$GPGGA,233009.000,3748.7605,N,12217.7830,W,2,07,1.2,-0.3,M,-25.1,M,2.8,0000*64
$GPGSA,A,3,18,19,22,03,21,06,14,,,,,,3.7,1.2,3.5*31
$GPRMC,233009.000,A,3748.7605,N,12217.7830,W,2.55,118.06,131211,,,D*78
$GPVTG,118.06,T,,M,2.55,N,4.7,K,D*07
$GPGGA,233010.000,3748.7598,N,12217.7822,W,2,07,1.2,-1.8,M,-25.1,M,3.8,0000*63
$GPGSA,A,3,18,19,22,03,21,06,14,,,,,,3.7,1.2,3.5*31
$GPRMC,233010.000,A,3748.7598,N,12217.7822,W,2.68,118.84,131211,,,D*70
$GPVTG,118.84,T,,M,2.68,N,5.0,K,D*05
$GPGGA,233011.000,3748.7592,N,12217.7813,W,2,07,1.2,-2.5,M,-25.1,M,4.8,0000*63
$GPGSA,A,3,18,19,22,03,21,06,14,,,,,,3.7,1.2,3.5*31
$GPRMC,233011.000,A,3748.7592,N,12217.7813,W,2.87,124.46,131211,,,D*79
$GPVTG,124.46,T,,M,2.87,N,5.3,K,D*06
$GPGGA,233012.000,3748.7586,N,12217.7804,W,2,07,1.2,-2.4,M,-25.1,M,5.8,0000*63
$GPGSA,A,3,18,19,22,03,21,06,14,,,,,,3.7,1.2,3.5*31
$GPRMC,233012.000,A,3748.7586,N,12217.7804,W,3.10,126.38,131211,,,D*7D
$GPVTG,126.38,T,,M,3.10,N,5.7,K,D*06
$GPGGA,233013.000,3748.7580,N,12217.7795,W,2,07,1.2,-2.7,M,-25.1,M,6.8,0000*63
$GPGSA,A,3,18,19,22,03,21,06,14,,,,,,3.7,1.2,3.5*31
$GPGSV,3,1,11,22,71,326,25,14,51,185,37,06,49,240,34,18,47,053,21*71
$GPGSV,3,2,11,03,44,257,34,21,40,113,32,19,35,304,22,09,18,073,21*77
$GPRMC,233013.000,A,3748.7580,N,12217.7795,W,2.82,122.66,131211,,,D*78
$GPVTG,122.66,T,,M,2.82,N,5.2,K,D*06
$GPGGA,233014.000,3748.7576,N,12217.7786,W,2,07,1.2,-2.4,M,-25.1,M,7.8,0000*6D
$GPGSA,A,3,18,19,22,03,21,06,14,,,,,,3.7,1.2,3.5*31
$GPRMC,233014.000,A,3748.7576,N,12217.7786,W,2.77,119.70,131211,,,D*71
$GPVTG,119.70,T,,M,2.77,N,5.1,K,D*00
$GPGGA,233015.000,3748.7574,N,12217.7777,W,2,07,1.2,-0.4,M,-25.1,M,8.8,0000*6D
$GPGSA,A,3,18,19,22,03,21,06,14,,,,,,3.7,1.2,3.5*31
$GPRMC,233015.000,A,3748.7574,N,12217.7777,W,2.61,118.86,131211,,,D*73
$GPVTG,118.86,T,,M,2.61,N,4.8,K,D*07
$GPGGA,233016.000,3748.7569,N,12217.7768,W,2,07,1.2,-0.1,M,-25.1,M,9.8,0000*68
$GPGSA,A,3,18,19,22,03,21,06,14,,,,,,3.7,1.2,3.5*31
$GPRMC,233016.000,A,3748.7569,N,12217.7768,W,2.61,120.42,131211,,,D*71
$GPVTG,120.42,T,,M,2.61,N,4.8,K,D*04
$GPGGA,233017.000,3748.7565,N,12217.7760,W,2,07,1.2,0.6,M,-25.1,M,10.8,0000*7F
$GPGSA,A,3,18,19,22,03,21,06,14,,,,,,3.7,1.2,3.5*31
$GPRMC,233017.000,A,3748.7565,N,12217.7760,W,2.63,119.27,131211,,,D*7F
$GPVTG,119.27,T,,M,2.63,N,4.9,K,D*0E
$GPGGA,233018.000,3748.7564,N,12217.7750,W,2,07,1.2,2.1,M,-25.1,M,11.8,0000*76
$GPGSA,A,3,18,19,22,03,21,06,14,,,,,,3.7,1.2,3.5*31
$GPGSV,3,1,11,22,71,327,26,14,51,185,38,06,49,240,34,18,46,053,21*7D
$GPGSV,3,2,11,03,44,257,34,21,40,114,33,19,35,304,22,09,19,073,20*71
$GPGSV,3,3,11,27,13,052,23,15,06,040,19,48,44,197,40*41
$GPRMC,233018.000,A,3748.7564,N,12217.7750,W,2.59,104.69,131211,,,D*7D
$GPVTG,104.69,T,,M,2.59,N,4.8,K,D*00
$GPGGA,233019.000,3748.7563,N,12217.7741,W,2,07,1.2,3.0,M,-25.1,M,1.8,0000*41
$GPGSA,A,3,18,19,22,03,21,06,14,,,,,,3.7,1.2,3.5*31
$GPRMC,233019.000,A,3748.7563,N,12217.7741,W,2.51,102.68,131211,,,D*74
$GPVTG,102.68,T,,M,2.51,N,4.7,K,D*00
$GPGGA,233020.000,3748.7560,N,12217.7732,W,2,07,1.2,3.0,M,-25.1,M,1.8,0000*4C
$GPGSA,A,3,18,19,22,03,21,06,14,,,,,,3.7,1.2,3.5*31
$GPRMC,233020.000,A,3748.7560,N,12217.7732,W,2.49,108.65,131211,,,D*77
$GPVTG,108.65,T,,M,2.49,N,4.6,K,D*0F
$GPGGA,233021.000,3748.7555,N,12217.7723,W,2,07,1.2,2.0,M,-25.1,M,1.8,0000*4A
$GPGSA,A,3,18,19,22,03,21,06,14,,,,,,3.7,1.2,3.5*31
$GPRMC,233021.000,A,3748.7555,N,12217.7723,W,2.61,110.49,131211,,,D*7D
$GPVTG,110.49,T,,M,2.61,N,4.8,K,D*0C
$GPGGA,233022.000,3748.7553,N,12217.7713,W,2,07,1.2,2.4,M,-25.1,M,2.8,0000*4B
$GPGSA,A,3,18,19,22,03,21,06,14,,,,,,3.7,1.2,3.5*31
$GPRMC,233022.000,A,3748.7553,N,12217.7713,W,2.76,104.73,131211,,,D*71
$GPVTG,104.73,T,,M,2.76,N,5.1,K,D*0E
$GPGGA,233023.000,3748.7547,N,12217.7704,W,2,07,1.2,-1.1,M,-25.1,M,3.8,0000*63
$GPGSA,A,3,18,19,22,03,21,06,14,,,,,,3.7,1.2,3.5*31
$GPGSV,3,1,11,22,71,327,26,14,51,185,38,06,49,240,34,18,46,053,21*7D
$GPGSV,3,2,11,03,44,257,34,21,40,114,33,19,35,304,22,09,19,073,20*71
$GPGSV,3,3,11,27,13,052,21,15,06,040,19,48,44,197,40*43
$GPRMC,233023.000,A,3748.7547,N,12217.7704,W,2.65,108.85,131211,,,D*74
$GPVTG,108.85,T,,M,2.65,N,4.9,K,D*00
$GPGGA,233024.000,3748.7542,N,12217.7695,W,2,07,1.2,-1.9,M,-25.1,M,4.8,0000*67
$GPGSA,A,3,18,19,22,03,21,06,14,,,,,,3.7,1.2,3.5*31
$GPRMC,233024.000,A,3748.7542,N,12217.7695,W,2.77,117.11,131211,,,D*7F
$GPVTG,117.11,T,,M,2.77,N,5.1,K,D*09
$GPGGA,233025.000,3748.7542,N,12217.7685,W,2,07,1.2,-4.1,M,-25.1,M,1.8,0000*6F
$GPGSA,A,3,18,19,22,03,21,06,14,,,,,,3.7,1.2,3.5*31
$GPRMC,233025.000,A,3748.7542,N,12217.7685,W,2.26,112.76,131211,,,D*7F
$GPVTG,112.76,T,,M,2.26,N,4.2,K,D*0B
$GPGGA,233026.000,3748.7539,N,12217.7675,W,2,07,1.2,-6.9,M,-25.1,M,2.8,0000*66
$GPGSA,A,3,18,19,22,03,21,06,14,,,,,,3.7,1.2,3.5*31
$GPRMC,233026.000,A,3748.7539,N,12217.7675,W,2.84,114.71,131211,,,D*76
$GPVTG,114.71,T,,M,2.84,N,5.3,K,D*02
$GPGGA,233027.000,3748.7539,N,12217.7670,W,2,07,1.2,-9.6,M,-25.1,M,3.8,0000*63
$GPGSA,A,3,18,19,22,03,21,06,14,,,,,,3.7,1.2,3.5*31
$GPRMC,233027.000,A,3748.7539,N,12217.7670,W,2.72,104.57,131211,,,D*7E
$GPVTG,104.57,T,,M,2.72,N,5.0,K,D*0D
$GPGGA,233028.000,3748.7529,N,12217.7658,W,2,07,1.2,-9.9,M,-25.1,M,4.8,0000*6F
$GPGSA,A,3,18,19,22,03,21,06,14,,,,,,3.7,1.2,3.5*31
$GPGSV,3,1,11,22,71,327,16,14,51,185,29,06,49,240,29,18,46,053,16*76
$GPGSV,3,2,11,03,44,257,27,21,40,114,21,19,35,304,22,09,19,073,08*7A
$GPGSV,3,3,11,27,13,052,11,15,06,040,,48,44,197,30*4F
$GPRMC,233028.000,A,3748.7529,N,12217.7658,W,2.80,118.58,131211,,,D*75
$GPVTG,118.58,T,,M,2.80,N,5.2,K,D*00
$GPGGA,233029.000,3748.7525,N,12217.7653,W,2,07,1.2,-8.7,M,-25.1,M,5.8,0000*67
$GPGSA,A,3,18,19,22,03,21,06,14,,,,,,3.7,1.2,3.5*31
$GPRMC,233029.000,A,3748.7525,N,12217.7653,W,2.70,118.11,131211,,,D*71
$GPVTG,118.11,T,,M,2.70,N,5.0,K,D*00
$GPGGA,233030.000,3748.7520,N,12217.7644,W,2,07,1.2,-3.6,M,-25.1,M,6.8,0000*65
$GPGSA,A,3,18,19,22,03,21,06,14,,,,,,3.7,1.2,3.5*31
$GPRMC,233030.000,A,3748.7520,N,12217.7644,W,2.68,103.60,131211,,,D*7F
$GPVTG,103.60,T,,M,2.68,N,5.0,K,D*05
$GPGGA,233031.000,3748.7521,N,12217.7630,W,2,07,1.2,-2.6,M,-25.1,M,7.8,0000*66
$GPGSA,A,3,18,19,22,03,21,06,14,,,,,,3.7,1.2,3.5*31
$GPRMC,233031.000,A,3748.7521,N,12217.7630,W,3.04,94.91,131211,,,D*46
$GPVTG,94.91,T,,M,3.04,N,5.6,K,D*39
$GPGGA,233032.000,3748.7521,N,12217.7621,W,2,07,1.2,1.4,M,-25.1,M,8.8,0000*46
$GPGSA,A,3,18,19,22,03,21,06,14,,,,,,3.7,1.2,3.5*31
$GPRMC,233032.000,A,3748.7521,N,12217.7621,W,2.56,106.46,131211,,,D*73
$GPVTG,106.46,T,,M,2.56,N,4.7,K,D*0F
$GPGGA,233033.000,3748.7518,N,12217.7613,W,2,07,1.2,0.3,M,-25.1,M,1.8,0000*43
$GPGSA,A,3,18,19,22,03,21,06,14,,,,,,3.7,1.2,3.5*31
$GPGSV,3,1,11,22,71,327,21,14,51,185,29,06,49,240,29,18,46,053,15*71
$GPGSV,3,2,11,03,44,257,28,21,40,114,19,19,35,304,22,09,19,073,*76
$GPGSV,3,3,11,27,13,052,,15,06,040,,48,44,197,33*4C
$GPVTG,123.91,T,,M,2.58,N,4.8,K,D*03
$GPGGA,233034.000,3748.7506,N,12217.7610,W,2,07,1.2,1.1,M,-25.1,M,1.8,0000*4B
$GPGSA,A,3,18,19,22,03,21,06,14,,,,,,3.7,1.2,3.5*31
$GPRMC,233034.000,A,3748.7506,N,12217.7610,W,3.29,128.49,131211,,,D*78
$GPVTG,128.49,T,,M,3.29,N,6.1,K,D*01
$GPGGA,233035.000,3748.7492,N,12217.7605,W,2,07,1.2,0.3,M,-25.1,M,2.8,0000*42
$GPGSA,A,3,18,19,22,03,21,06,14,,,,,,3.7,1.2,3.5*31
$GPRMC,233035.000,A,3748.7492,N,12217.7605,W,3.48,121.57,131211,,,D*70
$GPVTG,121.57,T,,M,3.48,N,6.5,K,D*04
$GPGGA,233036.000,3748.7481,N,12217.7591,W,2,07,1.2,-0.7,M,-25.1,M,3.8,0000*65
$GPGSA,A,3,18,19,22,03,21,06,14,,,,,,3.7,1.2,3.5*31
$GPRMC,233036.000,A,3748.7481,N,12217.7591,W,4.02,114.11,131211,,,D*72
$GPVTG,114.11,T,,M,4.02,N,7.5,K,D*08
$GPGGA,233037.000,3748.7478,N,12217.7571,W,2,07,1.2,1.2,M,-25.1,M,4.8,0000*42
$GPGSA,A,3,18,19,22,03,21,06,14,,,,,,3.7,1.2,3.5*31
$GPRMC,233037.000,A,3748.7478,N,12217.7571,W,3.48,106.36,131211,,,D*74
$GPVTG,106.36,T,,M,3.48,N,6.4,K,D*07
$GPGGA,233038.000,3748.7482,N,12217.7562,W,2,07,1.2,3.7,M,-25.1,M,1.8,0000*48
$GPGSA,A,3,18,19,22,03,21,06,14,,,,,,3.7,1.2,3.5*31
$GPGSV,3,1,11,22,71,327,21,14,51,185,30,06,49,240,28,18,46,053,14*79
$GPGSV,3,2,11,03,44,257,28,21,40,114,19,19,35,304,22,09,19,073,*76
$GPGSV,3,3,11,27,13,052,,15,06,040,23,48,44,197,32*4C
$GPRMC,233038.000,A,3748.7482,N,12217.7562,W,2.90,93.91,131211,,,D*48
$GPVTG,93.91,T,,M,2.90,N,5.4,K,D*30
$GPGGA,233039.000,3748.7484,N,12217.7551,W,2,06,1.5,5.2,M,-25.1,M,2.8,0000*49
$GPGSA,A,3,19,22,03,21,06,14,,,,,,,3.8,1.5,3.5*30
$GPRMC,233039.000,A,3748.7484,N,12217.7551,W,2.53,89.03,131211,,,D*40
$GPVTG,89.03,T,,M,2.53,N,4.7,K,D*3D
$GPGGA,233040.000,3748.7481,N,12217.7547,W,2,06,1.5,5.0,M,-25.1,M,3.8,0000*46
$GPGSA,A,3,18,19,22,03,06,14,,,,,,,4.3,1.5,4.1*35
$GPRMC,233040.000,A,3748.7481,N,12217.7547,W,2.46,101.46,131211,,,D*78
$GPVTG,101.46,T,,M,2.46,N,4.6,K,D*08
$GPGGA,233041.000,3748.7474,N,12217.7546,W,2,07,1.2,5.9,M,-25.1,M,4.8,0000*44
$GPGSA,A,3,18,19,22,03,21,06,14,,,,,,3.7,1.2,3.5*31
$GPRMC,233041.000,A,3748.7474,N,12217.7546,W,1.81,98.90,131211,,,D*40
$GPVTG,98.90,T,,M,1.81,N,3.3,K,D*38
$GPGGA,233042.000,3748.7469,N,12217.7545,W,2,07,1.2,9.4,M,-25.1,M,5.8,0000*48
$GPGSA,A,3,18,19,22,03,21,06,14,,,,,,3.7,1.2,3.5*31
$GPRMC,233042.000,A,3748.7469,N,12217.7545,W,1.23,114.35,131211,,,D*7E
$GPVTG,114.35,T,,M,1.23,N,2.3,K,D*0B
$GPGGA,233043.000,3748.7466,N,12217.7541,W,2,07,1.2,10.6,M,-25.1,M,1.8,0000*7C
$GPGSA,A,3,18,19,22,03,21,06,14,,,,,,3.7,1.2,3.5*31
$GPGSV,3,1,11,22,71,327,21,14,51,185,30,06,49,240,28,18,46,053,23*7D
$GPGSV,3,2,11,03,44,257,28,21,40,114,18,19,35,304,14,09,19,073,16*75
$GPGSV,3,3,11,27,13,052,25,15,06,040,25,48,44,197,32*4D
$GPRMC,233043.000,A,3748.7466,N,12217.7541,W,1.81,98.18,131211,,,D*46
$GPVTG,98.18,T,,M,1.81,N,3.4,K,D*3F
$GPGGA,233044.000,3748.7464,N,12217.7531,W,2,07,1.2,10.6,M,-25.1,M,1.8,0000*7E
$GPGSA,A,3,18,19,22,03,21,06,14,,,,,,3.7,1.2,3.5*31
$GPRMC,233044.000,A,3748.7464,N,12217.7531,W,2.45,96.08,131211,,,D*40
$GPVTG,96.08,T,,M,2.45,N,4.5,K,D*3D
$GPGGA,233045.000,3748.7460,N,12217.7520,W,2,07,1.2,9.6,M,-25.1,M,2.8,0000*40
$GPGSA,A,3,18,19,22,03,21,06,14,,,,,,3.7,1.2,3.5*31
$GPRMC,233045.000,A,3748.7460,N,12217.7520,W,2.56,107.24,131211,,,D*70
$GPVTG,107.24,T,,M,2.56,N,4.7,K,D*0A
$GPGGA,233046.000,3748.7451,N,12217.7511,W,2,07,1.2,10.0,M,-25.1,M,3.8,0000*7C
$GPGSA,A,3,18,19,22,03,21,06,14,,,,,,3.7,1.2,3.5*31
$GPRMC,233046.000,A,3748.7451,N,12217.7511,W,2.13,113.75,131211,,,D*73
$GPVTG,113.75,T,,M,2.13,N,3.9,K,D*03
$GPGGA,233047.000,3748.7441,N,12217.7508,W,2,07,1.2,8.4,M,-25.1,M,4.8,0000*4E
$GPGSA,A,3,18,19,22,03,21,06,14,,,,,,3.7,1.2,3.5*31
$GPRMC,233047.000,A,3748.7441,N,12217.7508,W,2.15,124.90,131211,,,D*72
$GPVTG,124.90,T,,M,2.15,N,4.0,K,D*04
$GPGGA,233048.000,3748.7437,N,12217.7503,W,2,07,1.2,10.0,M,-25.1,M,5.8,0000*77
$GPGSA,A,3,18,19,22,03,21,06,14,,,,,,3.7,1.2,3.5*31
$GPGSV,3,1,11,22,71,327,27,14,51,185,37,06,49,240,33,18,46,053,27*72
$GPGSV,3,2,11,03,44,257,33,21,40,114,23,19,35,304,21,09,19,073,18*7F
$GPGSV,3,3,11,27,13,052,21,15,06,040,17,48,44,197,39*43
$GPVTG,117.61,T,,M,1.87,N,3.5,K,D*00
$GPGGA,233049.000,3748.7431,N,12217.7494,W,2,07,1.2,9.4,M,-25.1,M,1.8,0000*47
$GPGSA,A,3,18,19,22,03,21,06,14,,,,,,3.7,1.2,3.5*31
$GPRMC,233049.000,A,3748.7431,N,12217.7494,W,2.03,132.28,131211,,,D*7C
$GPVTG,132.28,T,,M,2.03,N,3.8,K,D*08
$GPGGA,233050.000,3748.7428,N,12217.7485,W,2,07,1.2,9.4,M,-25.1,M,1.8,0000*47
$GPGSA,A,3,18,19,22,03,21,06,14,,,,,,3.7,1.2,3.5*31
$GPRMC,233050.000,A,3748.7428,N,12217.7485,W,2.22,123.36,131211,,,D*70
$GPVTG,123.36,T,,M,2.22,N,4.1,K,D*0A
$GPGGA,233051.000,3748.7423,N,12217.7481,W,2,07,1.2,11.7,M,-25.1,M,2.8,0000*70
$GPGSA,A,3,18,19,22,03,21,06,14,,,,,,3.7,1.2,3.5*31
$GPRMC,233051.000,A,3748.7423,N,12217.7481,W,2.22,119.40,131211,,,D*76
$GPVTG,119.40,T,,M,2.22,N,4.1,K,D*02
$GPGGA,233052.000,3748.7419,N,12217.7470,W,2,07,1.2,10.0,M,-25.1,M,3.8,0000*73
$GPGSA,A,3,18,19,22,03,21,06,14,,,,,,3.7,1.2,3.5*31
$GPRMC,233052.000,A,3748.7419,N,12217.7470,W,2.69,106.72,131211,,,D*72
$GPVTG,106.72,T,,M,2.69,N,5.0,K,D*02
$GPGGA,233053.000,3748.7415,N,12217.7462,W,2,07,1.2,9.9,M,-25.1,M,4.8,0000*4B
$GPGSA,A,3,18,19,22,03,21,06,14,,,,,,3.7,1.2,3.5*31
$GPGSV,3,1,11,22,71,327,27,14,51,185,32,06,49,240,28,18,46,053,26*7C
$GPGSV,3,2,11,03,44,257,29,21,40,114,35,19,35,304,23,09,19,073,24*7E
$GPGSV,3,3,11,27,13,052,19,15,06,040,18,48,44,197,36*48
$GPRMC,233053.000,A,3748.7415,N,12217.7462,W,1.90,91.91,131211,,,D*4B
$GPVTG,91.91,T,,M,1.90,N,3.5,K,D*36
$GPGGA,233054.000,3748.7412,N,12217.7454,W,2,07,1.2,9.0,M,-25.1,M,5.8,0000*46
$GPGSA,A,3,18,19,22,03,21,06,14,,,,,,3.7,1.2,3.5*31
$GPRMC,233054.000,A,3748.7412,N,12217.7454,W,1.67,108.22,131211,,,D*7F
$GPVTG,108.22,T,,M,1.67,N,3.1,K,D*03
$GPGGA,233055.000,3748.7408,N,12217.7448,W,2,07,1.2,8.0,M,-25.1,M,6.8,0000*43
$GPGSA,A,3,18,19,22,03,21,06,14,,,,,,3.7,1.2,3.5*31
$GPRMC,233055.000,A,3748.7408,N,12217.7448,W,0.80,113.98,131211,,,D*7B
$GPVTG,113.98,T,,M,0.80,N,1.5,K,D*06
$GPGGA,233056.000,3748.7403,N,12217.7436,W,2,07,1.2,7.2,M,-25.1,M,7.8,0000*4E
$GPGSA,A,3,18,19,22,03,21,06,14,,,,,,3.7,1.2,3.5*31
$GPRMC,233056.000,A,3748.7403,N,12217.7436,W,2.08,120.02,131211,,,D*7B
$GPVTG,120.02,T,,M,2.08,N,3.9,K,D*09
$GPGGA,233057.000,3748.7398,N,12217.7425,W,2,07,1.2,7.0,M,-25.1,M,8.8,0000*45
$GPGSA,A,3,18,19,22,03,21,06,14,,,,,,3.7,1.2,3.5*31
$GPRMC,233057.000,A,3748.7398,N,12217.7425,W,1.84,115.86,131211,,,D*70
$GPVTG,115.86,T,,M,1.84,N,3.4,K,D*09
$GPGGA,233058.000,3748.7389,N,12217.7415,W,2,07,1.2,7.6,M,-25.1,M,9.8,0000*4E
$GPGSA,A,3,18,19,22,03,21,06,14,,,,,,3.7,1.2,3.5*31
$GPGSV,3,1,11,22,71,327,25,14,51,185,33,06,49,240,30,18,46,053,26*76
$GPGSV,3,2,11,03,44,257,28,21,40,114,31,19,35,304,23,09,19,073,24*7B
$GPGSV,3,3,11,27,13,052,19,15,06,040,18,48,44,197,37*49
$GPRMC,233058.000,A,3748.7389,N,12217.7415,W,2.53,112.87,131211,,,D*73
$GPVTG,112.87,T,,M,2.53,N,4.7,K,D*02
$GPGGA,233059.000,3748.7387,N,12217.7408,W,2,07,1.2,10.1,M,-25.1,M,10.8,0000*44
$GPGSA,A,3,18,19,22,03,21,06,14,,,,,,3.7,1.2,3.5*31
$GPRMC,233059.000,A,3748.7387,N,12217.7408,W,1.46,100.67,131211,,,D*7A
$GPVTG,100.67,T,,M,1.46,N,2.7,K,D*0E
$GPGGA,233100.000,3748.7385,N,12217.7402,W,2,07,1.2,11.7,M,-25.1,M,11.8,0000*47
$GPGSA,A,3,18,19,22,03,21,06,14,,,,,,3.7,1.2,3.5*31
$GPRMC,233100.000,A,3748.7385,N,12217.7402,W,1.69,104.41,131211,,,D*72
$GPVTG,104.41,T,,M,1.69,N,3.1,K,D*04
$GPGGA,233101.000,3748.7382,N,12217.7389,W,2,07,1.2,11.5,M,-25.1,M,12.8,0000*44
$GPGSA,A,3,18,19,22,03,21,06,14,,,,,,3.7,1.2,3.5*31
$GPRMC,233101.000,A,3748.7382,N,12217.7389,W,2.66,108.46,131211,,,D*77
$GPVTG,108.46,T,,M,2.66,N,4.9,K,D*0C
$GPGGA,233102.000,3748.7380,N,12217.7379,W,2,07,1.2,11.8,M,-25.1,M,13.8,0000*46
$GPGSA,A,3,18,19,22,03,21,06,14,,,,,,3.7,1.2,3.5*31
$GPRMC,233102.000,A,3748.7380,N,12217.7379,W,2.62,111.81,131211,,,D*7E
$GPVTG,111.81,T,,M,2.62,N,4.9,K,D*0B
$GPGGA,233103.000,3748.7377,N,12217.7369,W,2,07,1.2,10.7,M,-25.1,M,14.8,0000*47
$GPGSA,A,3,18,19,22,03,21,06,14,,,,,,3.7,1.2,3.5*31
$GPGSV,3,1,11,22,71,327,25,14,51,185,29,06,49,240,31,18,46,053,27*7D
$GPGSV,3,2,11,03,44,257,31,21,40,114,27,19,35,304,23,09,19,073,24*74
$GPGSV,3,3,11,27,13,052,22,15,06,040,18,48,44,197,31*47
$GPRMC,233103.000,A,3748.7377,N,12217.7369,W,2.30,104.38,131211,,,D*77
$GPVTG,104.38,T,,M,2.30,N,4.3,K,D*00
$GPGGA,233104.000,3748.7373,N,12217.7361,W,2,07,1.2,10.6,M,-25.1,M,15.8,0000*4C
$GPGSA,A,3,18,19,22,03,21,06,14,,,,,,3.7,1.2,3.5*31
$GPRMC,233104.000,A,3748.7373,N,12217.7361,W,2.16,102.70,131211,,,D*72
$GPVTG,102.70,T,,M,2.16,N,4.0,K,D*0D
$GPGGA,233105.000,3748.7368,N,12217.7357,W,2,07,1.2,11.1,M,-25.1,M,16.8,0000*47
$GPGSA,A,3,18,19,22,03,21,06,14,,,,,,3.7,1.2,3.5*31
$GPRMC,233105.000,A,3748.7368,N,12217.7357,W,1.00,153.47,131211,,,D*78
$GPVTG,153.47,T,,M,1.00,N,1.8,K,D*04
$GPGGA,233106.000,3748.7363,N,12217.7356,W,2,07,1.2,10.4,M,-25.1,M,17.8,0000*4B
$GPGSA,A,3,18,19,22,03,21,06,14,,,,,,3.7,1.2,3.5*31
$GPRMC,233106.000,A,3748.7363,N,12217.7356,W,1.03,99.52,131211,,,D*41
$GPVTG,99.52,T,,M,1.03,N,1.9,K,D*35
$GPGGA,233107.000,3748.7358,N,12217.7349,W,2,07,1.2,10.5,M,-25.1,M,18.8,0000*42
$GPGSA,A,3,18,19,22,03,21,06,14,,,,,,3.7,1.2,3.5*31
$GPRMC,233107.000,A,3748.7358,N,12217.7349,W,1.10,84.84,131211,,,D*43
$GPVTG,84.84,T,,M,1.10,N,2.0,K,D*3A
$GPGGA,233108.000,3748.7354,N,12217.7341,W,2,07,1.2,9.7,M,-25.1,M,1.8,0000*4B
$GPGSA,A,3,18,19,22,03,21,06,14,,,,,,3.7,1.2,3.5*31
$GPGSV,3,1,11,22,71,327,24,14,51,185,31,06,49,240,29,18,46,053,27*7C
$GPGSV,3,2,11,03,44,257,28,21,40,114,32,19,35,304,22,09,19,073,29*74
$GPGSV,3,3,11,27,13,052,21,15,06,040,19,48,44,197,37*43
$GPRMC,233108.000,A,3748.7354,N,12217.7341,W,2.10,107.55,131211,,,D*7D
$GPGGA,233109.000,3748.7346,N,12217.7332,W,2,07,1.2,8.6,M,-25.1,M,1.8,0000*4D
$GPGSA,A,3,18,19,22,03,21,06,14,,,,,,3.7,1.2,3.5*31
$GPRMC,233109.000,A,3748.7346,N,12217.7332,W,2.18,116.65,131211,,,D*70
$GPVTG,116.65,T,,M,2.18,N,4.0,K,D*02
$GPGGA,233110.000,3748.7346,N,12217.7321,W,2,07,1.2,8.0,M,-25.1,M,1.8,0000*41
$GPGSA,A,3,18,19,22,03,21,06,14,,,,,,3.7,1.2,3.5*31
$GPRMC,233110.000,A,3748.7346,N,12217.7321,W,2.25,108.65,131211,,,D*7B
$GPVTG,108.65,T,,M,2.25,N,4.2,K,D*01
$GPGGA,233111.000,3748.7341,N,12217.7314,W,2,07,1.2,7.9,M,-25.1,M,2.8,0000*44
$GPGSA,A,3,18,19,22,03,21,06,14,,,,,,3.7,1.2,3.5*31
$GPRMC,233111.000,A,3748.7341,N,12217.7314,W,2.66,109.60,131211,,,D*78
$GPVTG,109.60,T,,M,2.66,N,4.9,K,D*09
$GPGGA,233112.000,3748.7333,N,12217.7307,W,2,07,1.2,6.4,M,-25.1,M,3.8,0000*4D
$GPGSA,A,3,18,19,22,03,21,06,14,,,,,,3.7,1.2,3.5*31
$GPRMC,233112.000,A,3748.7333,N,12217.7307,W,2.39,119.77,131211,,,D*71
$GPVTG,119.77,T,,M,2.39,N,4.4,K,D*09
$GPGGA,233113.000,3748.7325,N,12217.7300,W,2,07,1.2,4.7,M,-25.1,M,1.8,0000*4F
$GPGSA,A,3,18,19,22,03,21,06,14,,,,,,3.7,1.2,3.5*31
$GPGSV,3,1,11,22,71,327,25,14,51,185,37,06,49,240,30,18,46,053,26*72
$GPGSV,3,2,11,03,44,257,30,21,40,114,33,19,35,304,22,09,19,073,20*75
