$ADVER,3080,2.3
$GPRMC,191722.917,A,3748.8013,N,12217.8607,W,0.13,23.90,060912,,,A*47
$GPGGA,191723.917,3748.8001,N,12217.8588,W,1,07,1.4,21.5,M,-25.1,M,,0000*5A
$GPGSA,A,3,09,28,15,27,17,04,02,,,,,,3.4,1.4,3.1*30
$GPRMC,191723.917,A,3748.8001,N,12217.8588,W,0.06,21.03,060912,,,A*4D
$GPVTG,21.03,T,,M,0.06,N,0.1,K,A*3A
$GPGGA,191725.000,3748.8001,N,12217.8588,W,1,07,1.4,21.5,M,-25.1,M,,0000*53
$GPGSA,A,3,09,28,15,27,17,04,02,,,,,,3.4,1.4,3.1*30
$GPGSV,3,1,11,17,58,041,38,27,58,301,39,09,47,310,41,04,41,147,39*7A
$GPGSV,3,2,11,28,34,079,42,15,22,248,28,02,16,182,37,26,16,208,24*78
$GPGSV,3,3,11,12,12,289,35,08,09,142,40,01,03,032,*4D
$GPRMC,191725.000,A,3748.8001,N,12217.8588,W,0.06,11.92,060912,,,A*4F
$GPVTG,11.92,T,,M,0.06,N,0.1,K,A*31
$GPGGA,191726.000,3748.8002,N,12217.8595,W,1,07,1.4,17.6,M,-25.1,M,,0000*59
$GPGSA,A,3,09,28,15,27,17,04,02,,,,,,3.4,1.4,3.1*30
$GPRMC,191726.000,A,3748.8002,N,12217.8595,W,0.03,6.22,060912,,,A*7B
$GPVTG,6.22,T,,M,0.03,N,0.1,K,A*09
$GPGGA,191727.000,3748.8002,N,12217.8598,W,1,07,1.4,15.7,M,-25.1,M,,0000*56
$GPGSA,A,3,09,28,15,27,17,04,02,,,,,,3.4,1.4,3.1*30
$GPRMC,191727.000,A,3748.8002,N,12217.8598,W,0.05,350.58,060912,,,A*7C
$GPVTG,350.58,T,,M,0.05,N,0.1,K,A*02
$GPGGA,191728.000,3748.8002,N,12217.8599,W,1,07,1.4,14.6,M,-25.1,M,,0000*58
$GPGSA,A,3,09,28,15,27,17,04,02,,,,,,3.4,1.4,3.1*30
$GPRMC,191728.000,A,3748.8002,N,12217.8599,W,0.07,8.16,060912,,,A*74
$GPVTG,8.16,T,,M,0.07,N,0.1,K,A*04
$GPGGA,191729.000,3748.8001,N,12217.8601,W,1,07,1.4,13.1,M,-25.1,M,,0000*58
$GPGSA,A,3,09,28,15,27,17,04,02,,,,,,3.4,1.4,3.1*30
$GPRMC,191729.000,A,3748.8001,N,12217.8601,W,0.06,7.08,060912,,,A*75
$GPVTG,7.08,T,,M,0.06,N,0.1,K,A*05
$GPGGA,191730.000,3748.8002,N,12217.8602,W,1,07,1.4,13.0,M,-25.1,M,,0000*51
$GPGSA,A,3,09,28,15,27,17,04,02,,,,,,3.4,1.4,3.1*30
$GPGSV,3,1,12,17,58,041,38,27,58,301,38,09,47,310,41,04,41,147,40*76
$GPGSV,3,2,12,28,34,079,42,15,22,248,39,02,16,182,37,26,16,208,38*76
$GPGSV,3,3,12,12,12,289,35,08,09,142,40,01,03,032,,48,00,000,28*78
$GPRMC,191730.000,A,3748.8002,N,12217.8602,W,0.08,0.43,060912,,,A*7B
$GPVTG,0.43,T,,M,0.08,N,0.2,K,A*00
$GPGGA,191731.000,3748.8002,N,12217.8602,W,1,07,1.4,12.7,M,-25.1,M,,0000*56
$GPGSA,A,3,09,28,15,27,17,04,02,,,,,,3.4,1.4,3.1*30
$GPRMC,191731.000,A,3748.8002,N,12217.8602,W,0.06,10.94,060912,,,A*4F
$GPVTG,10.94,T,,M,0.06,N,0.1,K,A*36
$GPGGA,191732.000,3748.8002,N,12217.8602,W,1,07,1.4,12.4,M,-25.1,M,,0000*56
$GPGSA,A,3,09,28,15,27,17,04,02,,,,,,3.4,1.4,3.1*30
$GPRMC,191732.000,A,3748.8002,N,12217.8602,W,0.06,0.57,060912,,,A*72
$GPVTG,0.57,T,,M,0.06,N,0.1,K,A*08
$GPGGA,191733.000,3748.8002,N,12217.8602,W,1,07,1.4,12.1,M,-25.1,M,,0000*52
$GPGSA,A,3,09,28,15,27,17,04,02,,,,,,3.4,1.4,3.1*30
$GPRMC,191733.000,A,3748.8002,N,12217.8602,W,0.07,7.98,060912,,,A*76
$GPVTG,7.98,T,,M,0.07,N,0.1,K,A*0D
$GPGGA,191734.000,3748.8003,N,12217.8602,W,1,08,1.4,12.0,M,-25.1,M,,0000*5A
$GPGSA,A,3,09,28,15,27,17,04,02,08,,,,,2.9,1.4,2.6*32
$GPRMC,191734.000,A,3748.8003,N,12217.8602,W,0.06,1.45,060912,,,A*77
$GPVTG,1.45,T,,M,0.06,N,0.1,K,A*0A
$GPGGA,191735.000,3748.8003,N,12217.8602,W,1,08,1.4,11.9,M,-25.1,M,,0000*51
$GPGSA,A,3,09,28,15,27,17,04,02,08,,,,,2.9,1.4,2.6*32
$GPGSV,3,1,12,17,58,041,38,27,58,301,38,09,47,310,41,04,41,147,40*76
$GPGSV,3,2,12,28,34,079,42,15,22,248,39,02,16,182,37,26,15,207,38*7A
$GPGSV,3,3,12,12,12,289,35,08,09,142,40,01,03,032,15,48,44,197,27*7C
$GPRMC,191735.000,A,3748.8003,N,12217.8602,W,0.05,0.10,060912,,,A*74
$GPVTG,0.10,T,,M,0.05,N,0.1,K,A*08
$GPGGA,191736.000,3748.8003,N,12217.8602,W,1,08,1.4,11.8,M,-25.1,M,,0000*53
$GPGSA,A,3,09,28,15,27,17,04,02,08,,,,,2.9,1.4,2.6*32
$GPRMC,191736.000,A,3748.8003,N,12217.8602,W,0.07,14.01,060912,,,A*40
$GPVTG,14.01,T,,M,0.07,N,0.1,K,A*3F
$GPGGA,191737.000,3748.8004,N,12217.8602,W,1,08,1.4,11.7,M,-25.1,M,,0000*5A
$GPGSA,A,3,09,28,15,27,17,04,02,08,,,,,2.9,1.4,2.6*32
$GPRMC,191737.000,A,3748.8004,N,12217.8602,W,0.06,0.80,060912,,,A*7B
$GPVTG,0.80,T,,M,0.06,N,0.1,K,A*02
$GPGGA,191738.000,3748.8004,N,12217.8602,W,1,08,1.4,11.6,M,-25.1,M,,0000*54
$GPGSA,A,3,09,28,15,27,17,04,02,08,,,,,2.9,1.4,2.6*32
$GPRMC,191738.000,A,3748.8004,N,12217.8602,W,0.07,12.87,060912,,,A*41
$GPVTG,12.87,T,,M,0.07,N,0.1,K,A*37
$GPGGA,191739.000,3748.8004,N,12217.8602,W,1,08,1.4,11.6,M,-25.1,M,,0000*55
$GPGSA,A,3,09,28,15,27,17,04,02,08,,,,,2.9,1.4,2.6*32
$GPRMC,191739.000,A,3748.8004,N,12217.8602,W,0.06,356.01,060912,,,A*7C
$GPVTG,356.01,T,,M,0.06,N,0.1,K,A*0B
$GPGGA,191740.000,3748.8005,N,12217.8602,W,1,08,1.4,11.5,M,-25.1,M,,0000*59
$GPGSA,A,3,09,28,15,27,17,04,02,08,,,,,2.9,1.4,2.6*32
$GPGSV,3,1,11,17,58,041,38,27,58,301,38,09,47,310,41,04,41,147,40*75
$GPGSV,3,2,11,28,34,079,42,15,22,248,39,02,16,182,37,26,15,207,39*78
$GPGSV,3,3,11,12,12,289,35,08,09,142,40,01,03,032,15*49
$GPRMC,191740.000,A,3748.8005,N,12217.8602,W,0.07,358.40,060912,,,A*79
$GPGGA,191741.000,3748.8005,N,12217.8602,W,1,08,1.4,11.5,M,-25.1,M,,0000*58
$GPGSA,A,3,09,28,15,27,17,04,02,08,,,,,2.9,1.4,2.6*32
$GPRMC,191741.000,A,3748.8005,N,12217.8602,W,0.15,60.55,060912,,,A*47
$GPVTG,60.55,T,,M,0.15,N,0.3,K,A*3C
$GPGGA,191742.000,3748.8005,N,12217.8602,W,1,08,1.4,11.6,M,-25.1,M,,0000*58
$GPGSA,A,3,09,28,15,27,17,04,02,08,,,,,2.9,1.4,2.6*32
$GPRMC,191742.000,A,3748.8005,N,12217.8602,W,0.12,65.63,060912,,,A*43
$GPVTG,65.63,T,,M,0.12,N,0.2,K,A*3A
$GPGGA,191743.000,3748.8005,N,12217.8602,W,1,08,1.4,11.4,M,-25.1,M,,0000*5B
$GPGSA,A,3,09,28,15,27,17,04,02,08,,,,,2.9,1.4,2.6*32
$GPRMC,191743.000,A,3748.8005,N,12217.8602,W,0.24,5.78,060912,,,A*7B
$GPVTG,5.78,T,,M,0.24,N,0.4,K,A*05
$GPGGA,191744.000,3748.8006,N,12217.8603,W,1,07,1.4,11.2,M,-25.1,M,,0000*57
$GPGSA,A,3,09,28,15,17,04,02,08,,,,,,3.1,1.4,2.8*30
$GPRMC,191744.000,A,3748.8006,N,12217.8603,W,0.08,329.16,060912,,,A*75
$GPVTG,329.16,T,,M,0.08,N,0.1,K,A*0B
$GPGGA,191745.000,3748.8007,N,12217.8602,W,1,08,1.4,10.6,M,-25.1,M,,0000*5C
$GPGSA,A,3,09,28,15,27,17,04,02,08,,,,,2.9,1.4,2.6*32
$GPGSV,3,1,12,17,58,041,29,27,58,301,31,09,47,310,34,04,41,147,27*7C
$GPGSV,3,2,12,28,34,079,28,15,22,248,34,02,16,182,34,26,15,207,32*72
$GPGSV,3,3,12,12,12,289,18,08,09,142,36,01,03,032,13,48,44,197,25*76
$GPRMC,191745.000,A,3748.8007,N,12217.8602,W,0.18,97.97,060912,,,A*4A
$GPVTG,97.97,T,,M,0.18,N,0.3,K,A*37
$GPGGA,191746.000,3748.8007,N,12217.8601,W,1,08,1.4,10.5,M,-25.1,M,,0000*5F
$GPGSA,A,3,09,28,15,27,17,04,02,08,,,,,2.9,1.4,2.6*32
$GPRMC,191746.000,A,3748.8007,N,12217.8601,W,0.55,37.30,060912,,,A*44
$GPVTG,37.30,T,,M,0.55,N,1.0,K,A*3B
$GPGGA,191747.000,3748.8007,N,12217.8599,W,1,08,1.4,10.8,M,-25.1,M,,0000*51
$GPGSA,A,3,09,28,15,27,17,04,02,08,,,,,2.9,1.4,2.6*32
$GPRMC,191747.000,A,3748.8007,N,12217.8599,W,0.20,79.40,060912,,,A*48
$GPVTG,79.40,T,,M,0.20,N,0.4,K,A*31
$GPGGA,191748.000,3748.8006,N,12217.8598,W,1,08,1.4,11.1,M,-25.1,M,,0000*56
$GPGSA,A,3,09,28,15,27,17,04,02,08,,,,,2.9,1.4,2.6*32
$GPRMC,191748.000,A,3748.8006,N,12217.8598,W,0.77,309.77,060912,,,A*75
$GPVTG,309.77,T,,M,0.77,N,1.4,K,A*02
$GPGGA,191749.000,3748.8010,N,12217.8599,W,1,08,1.4,11.0,M,-25.1,M,,0000*50
$GPGSA,A,3,09,28,15,27,17,04,02,08,,,,,2.9,1.4,2.6*32
$GPRMC,191749.000,A,3748.8010,N,12217.8599,W,0.95,297.98,060912,,,A*79
$GPVTG,297.98,T,,M,0.95,N,1.8,K,A*05
$GPGGA,191750.000,3748.8011,N,12217.8600,W,1,08,1.4,10.0,M,-25.1,M,,0000*5B
$GPGSA,A,3,09,28,15,27,17,04,02,08,,,,,2.9,1.4,2.6*32
$GPGSV,3,1,12,17,58,041,35,27,58,301,34,09,47,310,36,04,41,147,21*70
$GPGSV,3,2,12,28,34,079,38,15,22,248,40,02,16,182,30,26,15,207,32*74
$GPGSV,3,3,12,12,12,289,38,08,09,142,27,01,03,032,33,48,44,197,27*74
$GPRMC,191750.000,A,3748.8011,N,12217.8600,W,0.29,266.45,060912,,,A*7A
$GPVTG,266.45,T,,M,0.29,N,0.5,K,A*00
$GPGGA,191751.000,3748.8013,N,12217.8600,W,1,08,1.4,9.2,M,-25.1,M,,0000*62
$GPGSA,A,3,09,28,15,27,17,04,02,08,,,,,2.9,1.4,2.6*32
$GPRMC,191751.000,A,3748.8013,N,12217.8600,W,0.24,22.19,060912,,,A*4F
$GPVTG,22.19,T,,M,0.24,N,0.5,K,A*36
$GPGGA,191752.000,3748.8015,N,12217.8599,W,1,08,1.4,7.8,M,-25.1,M,,0000*60
$GPGSA,A,3,09,28,15,27,17,04,02,08,,,,,2.9,1.4,2.6*32
$GPRMC,191752.000,A,3748.8015,N,12217.8599,W,0.23,36.99,060912,,,A*43
$GPVTG,36.99,T,,M,0.23,N,0.4,K,A*3D
$GPGGA,191753.000,3748.8020,N,12217.8599,W,1,08,1.4,5.8,M,-25.1,M,,0000*65
$GPGSA,A,3,09,28,15,27,17,04,02,08,,,,,2.9,1.4,2.6*32
$GPRMC,191753.000,A,3748.8020,N,12217.8599,W,0.38,334.91,060912,,,A*77
$GPVTG,334.91,T,,M,0.38,N,0.7,K,A*0D
$GPGGA,191754.000,3748.8024,N,12217.8599,W,1,08,1.4,4.4,M,-25.1,M,,0000*6B
$GPGSA,A,3,09,28,15,27,17,04,02,08,,,,,2.9,1.4,2.6*32
$GPRMC,191754.000,A,3748.8024,N,12217.8599,W,0.43,344.00,060912,,,A*77
$GPVTG,344.00,T,,M,0.43,N,0.8,K,A*01
$GPGGA,191755.000,3748.8027,N,12217.8599,W,1,08,1.4,3.0,M,-25.1,M,,0000*6A
$GPGSA,A,3,09,28,15,27,17,04,02,08,,,,,2.9,1.4,2.6*32
$GPGSV,3,1,12,17,58,041,34,27,58,301,28,09,47,310,35,04,41,147,29*77
$GPGSV,3,2,12,28,34,079,38,15,22,248,28,02,16,182,26,26,15,207,26*78
$GPRMC,191755.000,A,3748.8027,N,12217.8599,W,0.29,6.19,060912,,,A*74
$GPVTG,6.19,T,,M,0.29,N,0.5,K,A*0D
$GPGGA,191756.000,3748.8031,N,12217.8598,W,1,08,1.4,1.3,M,-25.1,M,,0000*6E
$GPGSA,A,3,09,28,15,27,17,04,02,08,,,,,2.9,1.4,2.6*32
$GPRMC,191756.000,A,3748.8031,N,12217.8598,W,0.48,13.50,060912,,,A*4F
$GPVTG,13.50,T,,M,0.48,N,0.9,K,A*3F
$GPGGA,191757.000,3748.8035,N,12217.8597,W,1,08,1.4,-0.1,M,-25.1,M,,0000*4A
$GPGSA,A,3,09,28,15,27,17,04,02,08,,,,,2.9,1.4,2.6*32
$GPRMC,191757.000,A,3748.8035,N,12217.8597,W,0.48,356.57,060912,,,A*70
$GPVTG,356.57,T,,M,0.48,N,0.9,K,A*0A
$GPGGA,191758.000,3748.8039,N,12217.8597,W,1,08,1.4,-1.5,M,-25.1,M,,0000*4C
$GPGSA,A,3,09,28,15,27,17,04,02,08,,,,,2.9,1.4,2.6*32
$GPRMC,191758.000,A,3748.8039,N,12217.8597,W,0.63,5.79,060912,,,A*73
$GPVTG,5.79,T,,M,0.63,N,1.2,K,A*00
$GPGGA,191759.000,3748.8044,N,12217.8597,W,1,08,1.4,-2.9,M,-25.1,M,,0000*48
$GPGSA,A,3,09,28,15,27,17,04,02,08,,,,,2.9,1.4,2.6*32
$GPRMC,191759.000,A,3748.8044,N,12217.8597,W,0.45,343.67,060912,,,A*72
$GPVTG,343.67,T,,M,0.45,N,0.8,K,A*01
$GPGGA,191800.000,3748.8049,N,12217.8596,W,1,08,1.4,-4.3,M,-25.1,M,,0000*4B
$GPGSA,A,3,09,28,15,27,17,04,02,08,,,,,2.9,1.4,2.6*32
$GPGSV,3,1,12,17,58,041,34,27,58,301,29,09,47,310,35,04,41,147,29*76
$GPGSV,3,2,12,28,34,079,38,15,22,248,28,02,16,182,27,26,15,207,28*77
$GPGSV,3,3,12,12,12,289,37,08,09,142,31,01,03,032,27,48,44,197,32*7D
$GPRMC,191800.000,A,3748.8049,N,12217.8596,W,1.34,15.82,060912,,,A*41
$GPVTG,15.82,T,,M,1.34,N,2.5,K,A*32
$GPGGA,191801.000,3748.8051,N,12217.8595,W,1,08,1.4,-4.6,M,-25.1,M,,0000*45
$GPGSA,A,3,09,28,15,27,17,04,02,08,,,,,2.9,1.4,2.6*32
$GPRMC,191801.000,A,3748.8051,N,12217.8595,W,0.36,336.02,060912,,,A*73
$GPVTG,336.02,T,,M,0.36,N,0.7,K,A*0B
$GPGGA,191802.000,3748.8053,N,12217.8595,W,1,06,2.5,-4.8,M,-25.1,M,,0000*46
$GPGSA,A,3,09,15,27,17,02,08,,,,,,,5.3,2.5,4.6*35
$GPRMC,191802.000,A,3748.8053,N,12217.8595,W,0.61,356.59,060912,,,A*78
$GPVTG,356.59,T,,M,0.61,N,1.1,K,A*06
$GPGGA,191803.000,3748.8055,N,12217.8594,W,1,07,2.1,-4.9,M,-25.1,M,,0000*44
$GPGSA,A,3,09,28,15,27,17,02,08,,,,,,4.7,2.1,4.2*3A
$GPRMC,191803.000,A,3748.8055,N,12217.8594,W,0.52,24.39,060912,,,A*4E
$GPVTG,24.39,T,,M,0.52,N,1.0,K,A*37
$GPGGA,191804.000,3748.8056,N,12217.8593,W,1,07,2.1,-5.3,M,-25.1,M,,0000*4C
$GPGSA,A,3,09,28,15,27,17,02,08,,,,,,4.7,2.1,4.2*3A
$GPRMC,191804.000,A,3748.8056,N,12217.8593,W,0.47,326.76,060912,,,A*73
$GPVTG,326.76,T,,M,0.47,N,0.9,K,A*01
$GPGGA,191805.000,3748.8057,N,12217.8594,W,1,08,1.4,-5.9,M,-25.1,M,,0000*48
$GPGSA,A,3,09,28,15,27,17,04,02,08,,,,,2.9,1.4,2.6*32
$GPGSV,3,1,12,17,58,041,32,27,58,301,29,09,47,310,35,04,41,147,24*7D
$GPGSV,3,2,12,28,34,079,35,15,22,248,30,02,16,182,30,26,15,207,22*7F
$GPGSV,3,3,12,12,12,289,38,08,09,142,28,01,03,032,31,48,44,197,27*79
$GPRMC,191805.000,A,3748.8057,N,12217.8594,W,0.64,336.86,060912,,,A*7B
$GPVTG,336.86,T,,M,0.64,N,1.2,K,A*04
$GPGGA,191806.000,3748.8060,N,12217.8595,W,1,08,1.4,-6.6,M,-25.1,M,,0000*42
$GPGSA,A,3,09,28,15,27,17,04,02,08,,,,,2.9,1.4,2.6*32
$GPRMC,191806.000,A,3748.8060,N,12217.8595,W,1.13,338.86,060912,,,A*72
$GPVTG,338.86,T,,M,1.13,N,2.1,K,A*0B
$GPGGA,191807.000,3748.8062,N,12217.8597,W,1,08,1.4,-6.7,M,-25.1,M,,0000*42
$GPGSA,A,3,09,28,15,27,17,04,02,08,,,,,2.9,1.4,2.6*32
$GPRMC,191807.000,A,3748.8062,N,12217.8597,W,1.02,14.98,060912,,,A*41
$GPVTG,14.98,T,,M,1.02,N,1.9,K,A*32
$GPGGA,191808.000,3748.8056,N,12217.8599,W,1,08,1.4,-4.7,M,-25.1,M,,0000*46
$GPGSA,A,3,09,28,15,27,17,04,02,08,,,,,2.9,1.4,2.6*32
$GPRMC,191808.000,A,3748.8056,N,12217.8599,W,0.17,10.11,060912,,,A*47
$GPVTG,10.11,T,,M,0.17,N,0.3,K,A*39
$GPGGA,191809.000,3748.8055,N,12217.8597,W,1,08,1.4,-4.0,M,-25.1,M,,0000*4D
$GPGSA,A,3,09,28,15,27,17,04,02,08,,,,,2.9,1.4,2.6*32
$GPRMC,191809.000,A,3748.8055,N,12217.8597,W,1.26,39.51,060912,,,A*47
$GPVTG,39.51,T,,M,1.26,N,2.3,K,A*37
$GPGGA,191810.000,3748.8051,N,12217.8593,W,1,07,1.4,-3.5,M,-25.1,M,,0000*48
$GPGSA,A,3,09,28,15,27,17,04,02,,,,,,3.4,1.4,3.1*30
$GPGSV,3,1,12,17,58,041,20,27,58,301,23,09,47,310,26,04,41,147,31*72
$GPGSV,3,2,12,28,34,079,18,15,22,248,32,02,16,182,39,26,15,207,35*7D
$GPGSV,3,3,12,12,12,289,30,08,09,142,,01,03,032,28,48,44,197,26*72
$GPRMC,191810.000,A,3748.8051,N,12217.8593,W,1.01,59.96,060912,,,A*47
$GPVTG,59.96,T,,M,1.01,N,1.9,K,A*36
$GPGGA,191811.000,3748.8046,N,12217.8590,W,1,07,1.4,-2.7,M,-25.1,M,,0000*4F
$GPGSA,A,3,09,28,15,27,17,04,02,,,,,,3.4,1.4,3.1*30
$GPRMC,191811.000,A,3748.8046,N,12217.8590,W,0.82,146.10,060912,,,A*78
$GPVTG,146.10,T,,M,0.82,N,1.5,K,A*01
$GPGGA,191812.000,3748.8042,N,12217.8589,W,1,07,1.4,-2.1,M,-25.1,M,,0000*46
$GPGSA,A,3,09,28,15,27,17,04,02,,,,,,3.4,1.4,3.1*30
$GPRMC,191812.000,A,3748.8042,N,12217.8589,W,1.03,141.89,060912,,,A*78
$GPVTG,141.89,T,,M,1.03,N,1.9,K,A*02
$GPGGA,191813.000,3748.8038,N,12217.8585,W,1,08,1.4,-1.8,M,-25.1,M,,0000*43
$GPGSA,A,3,09,28,15,27,17,04,02,08,,,,,2.9,1.4,2.6*32
$GPRMC,191813.000,A,3748.8038,N,12217.8585,W,2.15,119.77,060912,,,A*70
$GPVTG,119.77,T,,M,2.15,N,4.0,K,A*06
$GPGGA,191814.000,3748.8030,N,12217.8577,W,1,08,1.4,-0.5,M,-25.1,M,,0000*4D
$GPGSA,A,3,09,28,15,27,17,04,02,08,,,,,2.9,1.4,2.6*32
$GPRMC,191814.000,A,3748.8030,N,12217.8577,W,2.39,129.11,060912,,,A*7F
$GPVTG,129.11,T,,M,2.39,N,4.4,K,A*0F
$GPGGA,191815.000,3748.8024,N,12217.8572,W,1,08,1.4,0.6,M,-25.1,M,,0000*62
$GPGSA,A,3,09,28,15,27,17,04,02,08,,,,,2.9,1.4,2.6*32
$GPGSV,3,1,12,17,58,041,28,27,58,301,26,09,47,310,27,04,41,147,37*78
$GPGSV,3,2,12,28,34,079,32,15,22,248,28,02,16,182,41,26,15,207,35*71
$GPGSV,3,3,12,12,12,289,25,08,09,142,38,01,03,032,20,48,44,197,36*74
$GPVTG,134.87,T,,M,2.26,N,4.2,K,A*04
$GPGGA,191816.000,3748.8017,N,12217.8567,W,1,08,1.4,1.5,M,-25.1,M,,0000*67
$GPGSA,A,3,09,28,15,27,17,04,02,08,,,,,2.9,1.4,2.6*32
$GPRMC,191816.000,A,3748.8017,N,12217.8567,W,1.94,127.70,060912,,,A*74
$GPVTG,127.70,T,,M,1.94,N,3.6,K,A*07
$GPGGA,191817.000,3748.8012,N,12217.8563,W,1,08,1.4,2.6,M,-25.1,M,,0000*67
$GPGSA,A,3,09,28,15,27,17,04,02,08,,,,,2.9,1.4,2.6*32
$GPRMC,191817.000,A,3748.8012,N,12217.8563,W,1.52,107.87,060912,,,A*74
$GPVTG,107.87,T,,M,1.52,N,2.8,K,A*08
$GPGGA,191818.000,3748.8006,N,12217.8560,W,1,08,1.4,4.0,M,-25.1,M,,0000*6E
$GPGSA,A,3,09,28,15,27,17,04,02,08,,,,,2.9,1.4,2.6*32
$GPRMC,191818.000,A,3748.8006,N,12217.8560,W,1.77,111.00,060912,,,A*72
$GPVTG,111.00,T,,M,1.77,N,3.3,K,A*0D
$GPGGA,191819.000,3748.8001,N,12217.8555,W,1,08,1.4,4.9,M,-25.1,M,,0000*67
$GPGSA,A,3,09,28,15,27,17,04,02,08,,,,,2.9,1.4,2.6*32
$GPRMC,191819.000,A,3748.8001,N,12217.8555,W,1.92,104.16,060912,,,A*7A
$GPVTG,104.16,T,,M,1.92,N,3.6,K,A*00
$GPGGA,191820.000,3748.7997,N,12217.8550,W,1,08,1.4,5.5,M,-25.1,M,,0000*6C
$GPGSA,A,3,09,28,15,27,17,04,02,08,,,,,2.9,1.4,2.6*32
$GPGSV,3,1,12,17,58,041,27,27,58,301,22,09,47,310,22,04,41,147,38*79
$GPGSV,3,2,12,28,34,079,34,15,22,248,32,02,16,182,40,26,15,207,35*7D
$GPGSV,3,3,12,12,12,289,25,08,09,142,38,01,03,032,25,48,44,197,34*73
$GPRMC,191820.000,A,3748.7997,N,12217.8550,W,2.14,116.97,060912,,,A*7B
$GPVTG,116.97,T,,M,2.14,N,4.0,K,A*06
$GPGGA,191821.000,3748.7992,N,12217.8544,W,1,08,1.4,6.4,M,-25.1,M,,0000*6F
$GPGSA,A,3,09,28,15,27,17,04,02,08,,,,,2.9,1.4,2.6*32
$GPRMC,191821.000,A,3748.7992,N,12217.8544,W,2.04,125.36,060912,,,A*70
$GPVTG,125.36,T,,M,2.04,N,3.8,K,A*03
$GPGGA,191822.000,3748.7986,N,12217.8538,W,1,08,1.4,7.2,M,-25.1,M,,0000*65
$GPGSA,A,3,09,28,15,27,17,04,02,08,,,,,2.9,1.4,2.6*32
$GPRMC,191822.000,A,3748.7986,N,12217.8538,W,2.15,128.20,060912,,,A*77
$GPVTG,128.20,T,,M,2.15,N,4.0,K,A*06
$GPGGA,191823.000,3748.7981,N,12217.8532,W,1,08,1.4,8.0,M,-25.1,M,,0000*64
$GPGSA,A,3,09,28,15,27,17,04,02,08,,,,,2.9,1.4,2.6*32
$GPRMC,191823.000,A,3748.7981,N,12217.8532,W,2.40,126.10,060912,,,A*76
$GPVTG,126.10,T,,M,2.40,N,4.4,K,A*0F
$GPGGA,191824.000,3748.7975,N,12217.8525,W,1,08,1.4,8.7,M,-25.1,M,,0000*69
$GPGSA,A,3,09,28,15,27,17,04,02,08,,,,,2.9,1.4,2.6*32
$GPRMC,191824.000,A,3748.7975,N,12217.8525,W,2.26,125.57,060912,,,A*7C
$GPVTG,125.57,T,,M,2.26,N,4.2,K,A*09
$GPGGA,191825.000,3748.7970,N,12217.8518,W,1,08,1.4,9.4,M,-25.1,M,,0000*61
$GPGSA,A,3,09,28,15,27,17,04,02,08,,,,,2.9,1.4,2.6*32
$GPGSV,3,1,12,17,58,041,30,27,58,301,23,09,47,310,23,04,41,147,39*7E
$GPGSV,3,2,12,28,34,079,32,15,22,248,36,02,16,182,40,26,15,207,40*7D
$GPGSV,3,3,12,12,12,289,30,08,09,142,42,01,03,032,22,48,44,197,37*7E
$GPRMC,191825.000,A,3748.7970,N,12217.8518,W,2.32,115.89,060912,,,A*73
$GPVTG,115.89,T,,M,2.32,N,4.3,K,A*0D
$GPGGA,191826.000,3748.7965,N,12217.8511,W,1,08,1.4,9.7,M,-25.1,M,,0000*6C
$GPGSA,A,3,09,28,15,27,17,04,02,08,,,,,2.9,1.4,2.6*32
$GPRMC,191826.000,A,3748.7965,N,12217.8511,W,2.12,117.64,060912,,,A*7E
$GPVTG,117.64,T,,M,2.12,N,3.9,K,A*03
$GPGGA,191827.000,3748.7958,N,12217.8504,W,1,08,1.4,9.9,M,-25.1,M,,0000*69
$GPGSA,A,3,09,28,15,27,17,04,02,08,,,,,2.9,1.4,2.6*32
$GPRMC,191827.000,A,3748.7958,N,12217.8504,W,2.01,117.47,060912,,,A*76
$GPVTG,117.47,T,,M,2.01,N,3.7,K,A*0E
$GPGGA,191828.000,3748.7952,N,12217.8498,W,1,08,1.4,10.9,M,-25.1,M,,0000*50
$GPGSA,A,3,09,28,15,27,17,04,02,08,,,,,2.9,1.4,2.6*32
$GPRMC,191828.000,A,3748.7952,N,12217.8498,W,2.18,115.61,060912,,,A*79
$GPVTG,115.61,T,,M,2.18,N,4.0,K,A*00
$GPGGA,191829.000,3748.7947,N,12217.8492,W,1,08,1.4,11.9,M,-25.1,M,,0000*5E
$GPGSA,A,3,09,28,15,27,17,04,02,08,,,,,2.9,1.4,2.6*32
$GPRMC,191829.000,A,3748.7947,N,12217.8492,W,2.11,117.20,060912,,,A*78
$GPVTG,117.20,T,,M,2.11,N,3.9,K,A*00
$GPGGA,191830.000,3748.7943,N,12217.8485,W,1,08,1.4,12.7,M,-25.1,M,,0000*59
$GPGSA,A,3,09,28,15,27,17,04,02,08,,,,,2.9,1.4,2.6*32
$GPGSV,3,1,12,17,58,041,26,27,58,301,24,09,47,310,24,04,41,147,34*74
$GPGSV,3,2,12,28,34,079,27,15,22,248,36,02,16,182,41,26,15,207,40*78
$GPGSV,3,3,12,12,12,289,30,08,09,142,29,01,03,032,20,48,44,197,36*70
$GPRMC,191830.000,A,3748.7943,N,12217.8485,W,2.22,109.30,060912,,,A*7C
$GPVTG,109.30,T,,M,2.22,N,4.1,K,A*01
$GPGGA,191831.000,3748.7940,N,12217.8478,W,1,08,1.4,13.4,M,-25.1,M,,0000*5B
$GPGSA,A,3,09,28,15,27,17,04,02,08,,,,,2.9,1.4,2.6*32
$GPRMC,191831.000,A,3748.7940,N,12217.8478,W,2.12,117.54,060912,,,A*72
$GPVTG,117.54,T,,M,2.12,N,3.9,K,A*00
$GPGGA,191832.000,3748.7937,N,12217.8474,W,1,08,1.4,14.0,M,-25.1,M,,0000*57
$GPGSA,A,3,09,28,15,27,17,04,02,08,,,,,2.9,1.4,2.6*32
$GPRMC,191832.000,A,3748.7937,N,12217.8474,W,1.24,119.05,060912,,,A*71
$GPVTG,119.05,T,,M,1.24,N,2.3,K,A*07
$GPGGA,191833.000,3748.7931,N,12217.8465,W,1,08,1.4,13.5,M,-25.1,M,,0000*52
$GPGSA,A,3,09,28,15,27,17,04,02,08,,,,,2.9,1.4,2.6*32
$GPRMC,191833.000,A,3748.7931,N,12217.8465,W,1.73,119.21,060912,,,A*72
$GPVTG,119.21,T,,M,1.73,N,3.2,K,A*03
$GPGGA,191834.000,3748.7931,N,12217.8459,W,1,08,1.4,12.7,M,-25.1,M,,0000*59
$GPGSA,A,3,09,28,15,27,17,04,02,08,,,,,2.9,1.4,2.6*32
$GPRMC,191834.000,A,3748.7931,N,12217.8459,W,1.93,108.52,060912,,,A*70
$GPVTG,108.52,T,,M,1.93,N,3.6,K,A*0D
$GPGGA,191835.000,3748.7929,N,12217.8452,W,1,08,1.4,12.7,M,-25.1,M,,0000*5A
$GPGSA,A,3,09,28,15,27,17,04,02,08,,,,,2.9,1.4,2.6*32
$GPGSV,3,1,12,17,58,041,22,27,58,301,24,09,47,310,24,04,41,147,27*72
$GPGSV,3,2,12,28,34,079,28,15,22,248,31,02,16,182,35,26,15,207,33*77
$GPGSV,3,3,12,12,12,289,25,08,09,142,37,01,03,032,18,48,44,197,35*73
$GPRMC,191835.000,A,3748.7929,N,12217.8452,W,1.84,106.22,060912,,,A*7C
$GPGGA,191836.000,3748.7928,N,12217.8447,W,1,08,1.4,12.7,M,-25.1,M,,0000*5C
$GPGSA,A,3,09,28,15,27,17,04,02,08,,,,,2.9,1.4,2.6*32
$GPRMC,191836.000,A,3748.7928,N,12217.8447,W,1.14,107.16,060912,,,A*75
$GPVTG,107.16,T,,M,1.14,N,2.1,K,A*0B
$GPGGA,191837.000,3748.7926,N,12217.8443,W,1,08,1.4,12.8,M,-25.1,M,,0000*58
$GPGSA,A,3,09,28,15,27,17,04,02,08,,,,,2.9,1.4,2.6*32
$GPRMC,191837.000,A,3748.7926,N,12217.8443,W,1.56,105.49,060912,,,A*70
$GPVTG,105.49,T,,M,1.56,N,2.9,K,A*0D
$GPGGA,191838.000,3748.7924,N,12217.8438,W,1,08,1.4,12.9,M,-25.1,M,,0000*58
$GPGSA,A,3,09,28,15,27,17,04,02,08,,,,,2.9,1.4,2.6*32
$GPRMC,191838.000,A,3748.7924,N,12217.8438,W,1.64,113.88,060912,,,A*7A
$GPVTG,113.88,T,,M,1.64,N,3.0,K,A*0E
$GPGGA,191839.000,3748.7920,N,12217.8432,W,1,08,1.4,13.2,M,-25.1,M,,0000*5D
$GPGSA,A,3,09,28,15,27,17,04,02,08,,,,,2.9,1.4,2.6*32
$GPRMC,191839.000,A,3748.7920,N,12217.8432,W,2.17,124.52,060912,,,A*71
$GPVTG,124.52,T,,M,2.17,N,4.0,K,A*0D
$GPGGA,191840.000,3748.7915,N,12217.8426,W,1,08,1.4,13.5,M,-25.1,M,,0000*57
$GPGSA,A,3,09,28,15,27,17,04,02,08,,,,,2.9,1.4,2.6*32
$GPGSV,3,1,12,17,58,041,25,27,58,301,22,09,47,310,23,04,41,147,38*7A
$GPGSV,3,2,12,28,34,079,31,15,22,248,31,02,16,182,37,26,15,207,36*78
$GPGSV,3,3,12,12,12,289,24,08,09,142,38,01,03,032,22,48,44,197,38*79
$GPRMC,191840.000,A,3748.7915,N,12217.8426,W,2.31,123.14,060912,,,A*7D
$GPVTG,123.14,T,,M,2.31,N,4.3,K,A*0F
$GPGGA,191841.000,3748.7912,N,12217.8419,W,1,08,1.4,13.7,M,-25.1,M,,0000*5F
$GPGSA,A,3,09,28,15,27,17,04,02,08,,,,,2.9,1.4,2.6*32
$GPRMC,191841.000,A,3748.7912,N,12217.8419,W,1.89,113.99,060912,,,A*71
$GPVTG,113.99,T,,M,1.89,N,3.5,K,A*08
$GPGGA,191842.000,3748.7909,N,12217.8413,W,1,08,1.4,13.9,M,-25.1,M,,0000*52
$GPGSA,A,3,09,28,15,27,17,04,02,08,,,,,2.9,1.4,2.6*32
$GPRMC,191842.000,A,3748.7909,N,12217.8413,W,1.90,107.57,060912,,,A*7D
$GPVTG,107.57,T,,M,1.90,N,3.5,K,A*07
$GPGGA,191843.000,3748.7906,N,12217.8406,W,1,08,1.4,14.2,M,-25.1,M,,0000*54
$GPGSA,A,3,09,28,15,27,17,04,02,08,,,,,2.9,1.4,2.6*32
$GPRMC,191843.000,A,3748.7906,N,12217.8406,W,2.01,107.16,060912,,,A*79
$GPVTG,107.16,T,,M,2.01,N,3.7,K,A*0B
$GPGGA,191844.000,3748.7903,N,12217.8399,W,1,08,1.4,14.6,M,-25.1,M,,0000*53
$GPGSA,A,3,09,28,15,27,17,04,02,08,,,,,2.9,1.4,2.6*32
$GPRMC,191844.000,A,3748.7903,N,12217.8399,W,1.72,117.05,060912,,,A*7E
$GPVTG,117.05,T,,M,1.72,N,3.2,K,A*0A
$GPGGA,191845.000,3748.7899,N,12217.8392,W,1,08,1.4,15.0,M,-25.1,M,,0000*5C
$GPGSA,A,3,09,28,15,27,17,04,02,08,,,,,2.9,1.4,2.6*32
$GPGSV,3,1,12,17,58,041,26,27,58,301,23,09,47,310,24,04,41,147,38*7F
$GPGSV,3,2,12,28,34,079,30,15,22,248,31,02,16,182,37,26,15,207,33*7C
$GPGSV,3,3,12,12,12,289,30,08,09,142,38,01,03,032,22,48,44,197,36*72
$GPRMC,191845.000,A,3748.7899,N,12217.8392,W,2.01,115.51,060912,,,A*72
$GPVTG,115.51,T,,M,2.01,N,3.7,K,A*0B
$GPGGA,191846.000,3748.7895,N,12217.8385,W,1,08,1.4,15.4,M,-25.1,M,,0000*51
$GPGSA,A,3,09,28,15,27,17,04,02,08,,,,,2.9,1.4,2.6*32
$GPRMC,191846.000,A,3748.7895,N,12217.8385,W,2.17,113.75,060912,,,A*7C
$GPVTG,113.75,T,,M,2.17,N,4.0,K,A*0C
$GPGGA,191847.000,3748.7890,N,12217.8377,W,1,08,1.4,15.8,M,-25.1,M,,0000*54
$GPGSA,A,3,09,28,15,27,17,04,02,08,,,,,2.9,1.4,2.6*32
$GPRMC,191847.000,A,3748.7890,N,12217.8377,W,2.40,125.32,060912,,,A*71
$GPVTG,125.32,T,,M,2.40,N,4.4,K,A*0C
$GPGGA,191848.000,3748.7886,N,12217.8369,W,1,08,1.4,15.8,M,-25.1,M,,0000*53
$GPGSA,A,3,09,28,15,27,17,04,02,08,,,,,2.9,1.4,2.6*32
$GPRMC,191848.000,A,3748.7886,N,12217.8369,W,2.28,116.86,060912,,,A*77
$GPVTG,116.86,T,,M,2.28,N,4.2,K,A*0B
$GPGGA,191849.000,3748.7882,N,12217.8361,W,1,08,1.4,15.9,M,-25.1,M,,0000*5F
$GPGSA,A,3,09,28,15,27,17,04,02,08,,,,,2.9,1.4,2.6*32
$GPRMC,191849.000,A,3748.7882,N,12217.8361,W,2.33,121.23,060912,,,A*7B
$GPVTG,121.23,T,,M,2.33,N,4.3,K,A*0B
$GPGGA,191850.000,3748.7878,N,12217.8352,W,1,08,1.4,16.3,M,-25.1,M,,0000*5B
$GPGSA,A,3,09,28,15,27,17,04,02,08,,,,,2.9,1.4,2.6*32
$GPGSV,3,1,12,27,59,301,23,17,58,041,26,09,47,309,23,04,41,147,32*7B
$GPGSV,3,2,12,28,34,080,31,15,22,247,33,02,16,182,38,26,15,207,40*7D
$GPGSV,3,3,12,12,12,289,28,08,09,143,27,01,02,032,21,48,44,197,37*77
$GPRMC,191850.000,A,3748.7878,N,12217.8352,W,2.27,111.06,060912,,,A*77
$GPVTG,111.06,T,,M,2.27,N,4.2,K,A*0B
$GPGGA,191851.000,3748.7874,N,12217.8344,W,1,08,1.4,16.1,M,-25.1,M,,0000*53
$GPGSA,A,3,09,28,15,27,17,04,02,08,,,,,2.9,1.4,2.6*32
$GPRMC,191851.000,A,3748.7874,N,12217.8344,W,2.91,121.08,060912,,,A*7D
$GPVTG,121.08,T,,M,2.91,N,5.4,K,A*0C
$GPGGA,191852.000,3748.7869,N,12217.8334,W,1,08,1.4,16.7,M,-25.1,M,,0000*5D
$GPGSA,A,3,09,28,15,27,17,04,02,08,,,,,2.9,1.4,2.6*32
$GPRMC,191852.000,A,3748.7869,N,12217.8334,W,2.29,117.33,060912,,,A*7B
$GPVTG,117.33,T,,M,2.29,N,4.2,K,A*05
$GPGGA,191853.000,3748.7865,N,12217.8325,W,1,08,1.4,16.9,M,-25.1,M,,0000*5E
$GPGSA,A,3,09,28,15,27,17,04,02,08,,,,,2.9,1.4,2.6*32
$GPRMC,191853.000,A,3748.7865,N,12217.8325,W,2.52,111.70,060912,,,A*7B
$GPVTG,111.70,T,,M,2.52,N,4.7,K,A*0D
$GPGGA,191854.000,3748.7862,N,12217.8315,W,1,08,1.4,16.9,M,-25.1,M,,0000*5D
$GPGSA,A,3,09,28,15,27,17,04,02,08,,,,,2.9,1.4,2.6*32
$GPRMC,191854.000,A,3748.7862,N,12217.8315,W,2.82,112.85,060912,,,A*7C
$GPVTG,112.85,T,,M,2.82,N,5.2,K,A*0D
$GPGGA,191855.000,3748.7857,N,12217.8305,W,1,08,1.4,17.7,M,-25.1,M,,0000*54
$GPGSA,A,3,09,28,15,27,17,04,02,08,,,,,2.9,1.4,2.6*32
$GPGSV,3,1,12,27,59,301,29,17,58,041,26,09,47,309,25,04,41,147,34*71
$GPGSV,3,2,12,28,34,080,31,15,22,247,33,02,16,182,37,26,15,207,37*72
$GPGSV,3,3,12,12,12,289,27,08,09,143,30,01,02,032,19,48,44,197,31*73
$GPRMC,191855.000,A,3748.7857,N,12217.8305,W,2.87,108.45,060912,,,A*78
$GPGGA,191856.000,3748.7853,N,12217.8295,W,1,08,1.4,18.1,M,-25.1,M,,0000*52
$GPGSA,A,3,09,28,15,27,17,04,02,08,,,,,2.9,1.4,2.6*32
$GPRMC,191856.000,A,3748.7853,N,12217.8295,W,2.34,121.01,060912,,,A*74
$GPVTG,121.01,T,,M,2.34,N,4.3,K,A*0C
$GPGGA,191857.000,3748.7849,N,12217.8288,W,1,08,1.4,18.3,M,-25.1,M,,0000*56
$GPGSA,A,3,09,28,15,27,17,04,02,08,,,,,2.9,1.4,2.6*32
$GPRMC,191857.000,A,3748.7849,N,12217.8288,W,2.03,130.20,060912,,,A*75
$GPVTG,130.20,T,,M,2.03,N,3.8,K,A*07
$GPGGA,191858.000,3748.7845,N,12217.8281,W,1,09,1.3,18.1,M,-25.1,M,,0000*58
$GPGSA,A,3,09,28,15,27,17,04,02,26,08,,,,2.9,1.3,2.6*31
$GPRMC,191858.000,A,3748.7845,N,12217.8281,W,2.41,122.61,060912,,,A*7F
$GPVTG,122.61,T,,M,2.41,N,4.5,K,A*0D
$GPGGA,191859.000,3748.7841,N,12217.8273,W,1,09,1.3,17.9,M,-25.1,M,,0000*57
$GPGSA,A,3,09,28,15,27,17,04,02,26,08,,,,2.9,1.3,2.6*31
$GPRMC,191859.000,A,3748.7841,N,12217.8273,W,2.39,117.06,060912,,,A*7F
$GPVTG,117.06,T,,M,2.39,N,4.4,K,A*04
$GPGGA,191900.000,3748.7838,N,12217.8263,W,1,09,1.3,17.7,M,-25.1,M,,0000*5B
$GPGSA,A,3,09,28,15,27,17,04,02,26,08,,,,2.9,1.3,2.6*31
$GPGSV,3,1,12,27,59,301,24,17,58,041,25,09,47,309,24,04,41,146,37*7C
$GPGSV,3,2,12,28,34,080,30,15,22,247,35,02,16,182,38,26,15,207,36*7B
$GPGSV,3,3,12,12,12,289,27,08,08,143,23,01,02,032,16,48,44,197,40*79
$GPRMC,191900.000,A,3748.7838,N,12217.8263,W,2.81,118.98,060912,,,A*76
$GPVTG,118.98,T,,M,2.81,N,5.2,K,A*08
$GPGGA,191901.000,3748.7830,N,12217.8256,W,2,09,1.3,18.3,M,-25.1,M,,0000*5C
$GPGSA,A,3,09,28,15,27,17,04,02,26,08,,,,2.9,1.3,2.6*31
$GPRMC,191901.000,A,3748.7830,N,12217.8256,W,2.88,123.62,060912,,,D*78
$GPVTG,123.62,T,,M,2.88,N,5.3,K,D*08
$GPGGA,191902.000,3748.7820,N,12217.8247,W,2,09,1.3,17.0,M,-25.1,M,,0000*52
$GPGSA,A,3,09,28,15,27,17,04,02,26,08,,,,2.9,1.3,2.6*31
$GPRMC,191902.000,A,3748.7820,N,12217.8247,W,2.80,121.08,060912,,,D*7C
$GPVTG,121.08,T,,M,2.80,N,5.2,K,D*0F
$GPGGA,191903.000,3748.7811,N,12217.8238,W,2,09,1.3,15.8,M,-25.1,M,,0000*53
$GPGSA,A,3,09,28,15,27,17,04,02,26,08,,,,2.9,1.3,2.6*31
$GPRMC,191903.000,A,3748.7811,N,12217.8238,W,2.68,120.93,060912,,,D*72
$GPVTG,120.93,T,,M,2.68,N,5.0,K,D*08
$GPGGA,191904.000,3748.7807,N,12217.8228,W,2,09,1.3,15.8,M,-25.1,M,2.8,0000*76
$GPGSA,A,3,09,28,15,27,17,04,02,26,08,,,,2.9,1.3,2.6*31
$GPRMC,191904.000,A,3748.7807,N,12217.8228,W,2.85,118.53,060912,,,D*77
$GPVTG,118.53,T,,M,2.85,N,5.3,K,D*0F
$GPGGA,191905.000,3748.7802,N,12217.8219,W,2,09,1.3,15.8,M,-25.1,M,3.8,0000*71
$GPGSA,A,3,09,28,15,27,17,04,02,26,08,,,,2.9,1.3,2.5*32
$GPGSV,3,1,12,27,59,301,24,17,58,041,26,09,47,309,23,04,41,146,36*79
$GPGSV,3,2,12,28,34,080,27,15,22,247,37,02,16,182,38,26,15,207,36*7F
$GPGSV,3,3,12,12,12,289,32,08,08,143,27,01,02,032,,48,44,197,37*7E
$GPRMC,191905.000,A,3748.7802,N,12217.8219,W,2.52,127.26,060912,,,D*75
$GPVTG,127.26,T,,M,2.52,N,4.7,K,D*0E
$GPGGA,191906.000,3748.7797,N,12217.8211,W,2,09,1.3,16.0,M,-25.1,M,4.8,0000*75
$GPGSA,A,3,09,28,15,27,17,04,02,26,08,,,,2.9,1.3,2.5*32
$GPRMC,191906.000,A,3748.7797,N,12217.8211,W,2.73,117.64,060912,,,D*7B
$GPVTG,117.64,T,,M,2.73,N,5.1,K,D*0F
$GPGGA,191907.000,3748.7793,N,12217.8202,W,2,09,1.3,16.1,M,-25.1,M,,0000*51
$GPGSA,A,3,09,28,15,27,17,04,02,26,08,,,,2.9,1.3,2.5*32
$GPRMC,191907.000,A,3748.7793,N,12217.8202,W,2.60,113.11,060912,,,D*78
$GPVTG,113.11,T,,M,2.60,N,4.8,K,D*03
$GPGGA,191908.000,3748.7789,N,12217.8193,W,2,09,1.3,16.5,M,-25.1,M,,0000*5A
$GPGSA,A,3,09,28,15,27,17,04,02,26,08,,,,2.9,1.3,2.5*32
$GPRMC,191908.000,A,3748.7789,N,12217.8193,W,2.56,115.15,060912,,,D*70
$GPVTG,115.15,T,,M,2.56,N,4.7,K,D*0B
$GPGGA,191909.000,3748.7786,N,12217.8184,W,2,09,1.3,16.5,M,-25.1,M,,0000*52
$GPGSA,A,3,09,28,15,27,17,04,02,26,08,,,,2.9,1.3,2.5*32
$GPRMC,191909.000,A,3748.7786,N,12217.8184,W,2.58,113.89,060912,,,D*75
$GPVTG,113.89,T,,M,2.58,N,4.8,K,D*09
$GPGGA,191910.000,3748.7783,N,12217.8175,W,2,09,1.3,16.5,M,-25.1,M,,0000*51
$GPGSA,A,3,09,28,15,27,17,04,02,26,08,,,,2.9,1.3,2.5*32
$GPGSV,3,1,12,27,59,301,20,17,58,041,26,09,47,309,23,04,41,146,38*73
$GPGSV,3,2,12,28,34,080,31,15,22,247,36,02,16,182,38,26,15,207,37*78
$GPGSV,3,3,12,12,12,289,29,08,08,143,22,01,02,032,,48,44,197,38*7E
$GPRMC,191910.000,A,3748.7783,N,12217.8175,W,2.57,113.48,060912,,,D*74
$GPVTG,113.48,T,,M,2.57,N,4.8,K,D*0B
$GPGGA,191911.000,3748.7779,N,12217.8167,W,2,09,1.3,16.7,M,-25.1,M,1.8,0000*73
$GPGSA,A,3,09,28,15,27,17,04,02,26,08,,,,2.9,1.3,2.5*32
$GPRMC,191911.000,A,3748.7779,N,12217.8167,W,2.46,119.48,060912,,,D*79
$GPVTG,119.48,T,,M,2.46,N,4.5,K,D*0C
$GPGGA,191912.000,3748.7776,N,12217.8158,W,2,09,1.3,16.6,M,-25.1,M,2.8,0000*71
$GPGSA,A,3,09,28,15,27,17,04,02,26,08,,,,2.9,1.3,2.5*32
$GPRMC,191912.000,A,3748.7776,N,12217.8158,W,2.52,116.30,060912,,,D*7C
$GPVTG,116.30,T,,M,2.52,N,4.7,K,D*0B
$GPGGA,191913.000,3748.7773,N,12217.8149,W,2,09,1.3,16.7,M,-25.1,M,,0000*50
$GPGSA,A,3,09,28,15,27,17,04,02,26,08,,,,2.9,1.3,2.5*32
$GPRMC,191913.000,A,3748.7773,N,12217.8149,W,2.47,118.89,060912,,,D*70
$GPVTG,118.89,T,,M,2.47,N,4.6,K,D*02
$GPGGA,191914.000,3748.7771,N,12217.8140,W,2,09,1.3,16.1,M,-25.1,M,,0000*5A
$GPGSA,A,3,09,28,15,27,17,04,02,26,08,,,,2.9,1.3,2.5*32
$GPRMC,191914.000,A,3748.7771,N,12217.8140,W,2.76,117.42,060912,,,D*76
$GPVTG,117.42,T,,M,2.76,N,5.1,K,D*0E
$GPGGA,191915.000,3748.7768,N,12217.8129,W,2,09,1.3,15.8,M,-25.1,M,2.8,0000*72
$GPGSA,A,3,09,28,15,27,17,04,02,26,08,,,,2.9,1.3,2.5*32
$GPGSV,3,1,12,27,59,301,21,17,58,041,26,09,47,309,23,04,41,146,31*7B
$GPGSV,3,2,12,28,34,080,29,15,22,247,29,02,16,182,35,26,15,207,32*77
$GPGSV,3,3,12,12,12,289,21,08,08,143,24,01,02,032,,48,44,197,36*7E
$GPVTG,119.76,T,,M,2.29,N,4.2,K,D*0F
$GPGGA,191916.000,3748.7764,N,12217.8120,W,2,09,1.3,16.2,M,-25.1,M,3.8,0000*7C
$GPGSA,A,3,09,28,15,27,17,04,02,26,08,,,,2.9,1.3,2.5*32
$GPRMC,191916.000,A,3748.7764,N,12217.8120,W,2.78,119.09,060912,,,D*79
$GPVTG,119.09,T,,M,2.78,N,5.1,K,D*01
$GPGGA,191917.000,3748.7759,N,12217.8110,W,2,09,1.3,16.6,M,-25.1,M,4.8,0000*73
$GPGSA,A,3,09,28,15,27,17,04,02,26,08,,,,2.9,1.3,2.5*32
$GPRMC,191917.000,A,3748.7759,N,12217.8110,W,2.87,119.78,060912,,,D*73
$GPVTG,119.78,T,,M,2.87,N,5.3,K,D*05
$GPGGA,191918.000,3748.7754,N,12217.8100,W,2,09,1.3,17.0,M,-25.1,M,5.8,0000*76
$GPGSA,A,3,09,28,15,27,17,04,02,26,08,,,,2.9,1.3,2.5*32
$GPRMC,191918.000,A,3748.7754,N,12217.8100,W,2.80,118.94,060912,,,D*74
$GPVTG,118.94,T,,M,2.80,N,5.2,K,D*00
$GPGGA,191919.000,3748.7749,N,12217.8091,W,2,09,1.3,17.5,M,-25.1,M,,0000*54
$GPGSA,A,3,09,28,15,27,17,04,02,26,08,,,,2.9,1.3,2.5*32
$GPRMC,191919.000,A,3748.7749,N,12217.8091,W,2.48,120.01,060912,,,D*73
$GPVTG,120.01,T,,M,2.48,N,4.6,K,D*06
$GPGGA,191920.000,3748.7737,N,12217.8078,W,2,08,1.6,16.3,M,-25.1,M,,0000*53
$GPGSA,A,3,09,15,27,17,04,02,26,08,,,,,3.3,1.6,2.8*3B
$GPGSV,3,1,12,27,59,301,29,17,58,041,24,09,47,309,31,04,41,146,35*76
$GPGSV,3,2,12,28,34,080,28,15,22,247,37,02,16,182,37,26,15,207,38*71
$GPGSV,3,3,12,12,12,289,33,08,08,143,25,01,02,032,,48,44,197,37*7D
$GPRMC,191920.000,A,3748.7737,N,12217.8078,W,2.22,129.02,060912,,,D*71
$GPVTG,129.02,T,,M,2.22,N,4.1,K,D*07
$GPGGA,191921.000,3748.7724,N,12217.8066,W,2,09,1.3,15.7,M,-25.1,M,,0000*5C
$GPGSA,A,3,09,28,15,27,17,04,02,26,08,,,,2.9,1.3,2.5*32
$GPRMC,191921.000,A,3748.7724,N,12217.8066,W,2.88,138.02,060912,,,D*7D
$GPVTG,138.02,T,,M,2.88,N,5.3,K,D*04
$GPGGA,191922.000,3748.7716,N,12217.8060,W,2,09,1.3,16.9,M,-25.1,M,,0000*55
$GPGSA,A,3,09,28,15,27,17,04,02,26,08,,,,2.9,1.3,2.5*32
$GPRMC,191922.000,A,3748.7716,N,12217.8060,W,2.66,124.69,060912,,,D*79
$GPVTG,124.69,T,,M,2.66,N,4.9,K,D*0F
$GPGGA,191923.000,3748.7711,N,12217.8053,W,2,09,1.3,17.5,M,-25.1,M,2.8,0000*7A
$GPGSA,A,3,09,28,15,27,17,04,02,26,08,,,,2.9,1.3,2.5*32
$GPRMC,191923.000,A,3748.7711,N,12217.8053,W,2.47,119.49,060912,,,D*70
$GPVTG,119.49,T,,M,2.47,N,4.6,K,D*0F
$GPGGA,191924.000,3748.7706,N,12217.8046,W,2,09,1.3,18.5,M,-25.1,M,3.8,0000*71
$GPGSA,A,3,09,28,15,27,17,04,02,26,08,,,,2.9,1.3,2.5*32
$GPRMC,191924.000,A,3748.7706,N,12217.8046,W,2.47,111.90,060912,,,D*79
$GPVTG,111.90,T,,M,2.47,N,4.6,K,D*03
$GPGGA,191925.000,3748.7702,N,12217.8037,W,2,09,1.3,18.9,M,-25.1,M,4.8,0000*79
$GPGSA,A,3,09,28,15,27,17,04,02,26,08,,,,2.9,1.3,2.5*32
$GPGSV,3,1,12,27,59,301,22,17,58,041,25,09,47,309,21,04,41,146,36*7E
$GPGSV,3,2,12,28,34,080,33,15,22,247,36,02,16,182,35,26,15,207,38*78
$GPGSV,3,3,12,12,12,289,33,08,08,143,27,01,02,032,,48,44,197,38*70
$GPRMC,191925.000,A,3748.7702,N,12217.8037,W,2.75,112.44,060912,,,D*71
$GPVTG,112.44,T,,M,2.75,N,5.1,K,D*0E
$GPGGA,191926.000,3748.7699,N,12217.8028,W,2,09,1.3,19.3,M,-25.1,M,,0000*5E
$GPGSA,A,3,09,28,15,27,17,04,02,26,08,,,,2.9,1.3,2.5*32
$GPRMC,191926.000,A,3748.7699,N,12217.8028,W,2.82,112.13,060912,,,D*75
$GPVTG,112.13,T,,M,2.82,N,5.2,K,D*07
$GPGGA,191927.000,3748.7695,N,12217.8020,W,2,09,1.3,19.7,M,-25.1,M,,0000*5F
$GPGSA,A,3,09,28,15,27,17,04,02,26,08,,,,2.9,1.3,2.5*32
$GPRMC,191927.000,A,3748.7695,N,12217.8020,W,2.74,117.10,060912,,,D*7F
$GPVTG,117.10,T,,M,2.74,N,5.1,K,D*0B
$GPGGA,191928.000,3748.7691,N,12217.8011,W,2,09,1.3,20.1,M,-25.1,M,2.8,0000*7E
$GPGSA,A,3,09,28,15,27,17,04,02,26,08,,,,2.9,1.3,2.5*32
$GPRMC,191928.000,A,3748.7691,N,12217.8011,W,2.66,117.58,060912,,,D*79
$GPVTG,117.58,T,,M,2.66,N,4.9,K,D*0D
$GPGGA,191929.000,3748.7687,N,12217.8003,W,2,09,1.3,20.5,M,-25.1,M,3.8,0000*7E
$GPGSA,A,3,09,28,15,27,17,04,02,26,08,,,,2.9,1.3,2.5*32
$GPRMC,191929.000,A,3748.7687,N,12217.8003,W,2.59,120.80,060912,,,D*71
$GPVTG,120.80,T,,M,2.59,N,4.8,K,D*01
$GPGGA,191930.000,3748.7682,N,12217.7995,W,2,09,1.3,21.0,M,-25.1,M,4.8,0000*79
$GPGSA,A,3,09,28,15,27,17,04,02,26,08,,,,2.9,1.3,2.5*32
$GPGSV,3,1,12,27,59,301,22,17,58,041,25,09,47,309,21,04,41,146,36*7E
$GPGSV,3,2,12,28,34,080,33,15,22,247,36,02,16,182,36,26,15,207,31*72
$GPGSV,3,3,12,12,12,289,32,08,08,143,25,01,02,032,,48,44,197,38*73
$GPRMC,191930.000,A,3748.7682,N,12217.7995,W,2.48,115.76,060912,,,D*7A
$GPVTG,115.76,T,,M,2.48,N,4.6,K,D*00
$GPGGA,191931.000,3748.7678,N,12217.7989,W,2,09,1.3,21.8,M,-25.1,M,,0000*5A
$GPGSA,A,3,09,28,15,27,17,04,02,26,08,,,,2.9,1.3,2.5*32
$GPRMC,191931.000,A,3748.7678,N,12217.7989,W,2.30,109.45,060912,,,D*71
$GPVTG,109.45,T,,M,2.30,N,4.3,K,D*07
$GPGGA,191932.000,3748.7672,N,12217.7982,W,2,09,1.3,22.7,M,-25.1,M,,0000*54
$GPGSA,A,3,09,28,15,27,17,04,02,26,08,,,,2.9,1.3,2.5*32
$GPRMC,191932.000,A,3748.7672,N,12217.7982,W,2.71,127.07,060912,,,D*7C
$GPVTG,127.07,T,,M,2.71,N,5.0,K,D*0A
$GPGGA,191933.000,3748.7666,N,12217.7975,W,2,09,1.3,23.3,M,-25.1,M,,0000*5D
$GPGSA,A,3,09,28,15,27,17,04,02,26,08,,,,2.9,1.3,2.5*32
$GPRMC,191933.000,A,3748.7666,N,12217.7975,W,3.01,125.99,060912,,,D*73
$GPVTG,125.99,T,,M,3.01,N,5.6,K,D*0F
$GPGGA,191934.000,3748.7661,N,12217.7966,W,2,09,1.3,23.5,M,-25.1,M,2.8,0000*7D
$GPGSA,A,3,09,28,15,27,17,04,02,26,08,,,,2.9,1.3,2.5*32
$GPRMC,191934.000,A,3748.7661,N,12217.7966,W,2.88,115.42,060912,,,D*74
$GPVTG,115.42,T,,M,2.88,N,5.3,K,D*0F
$GPGGA,191935.000,3748.7658,N,12217.7956,W,2,09,1.3,23.6,M,-25.1,M,3.8,0000*77
$GPGSA,A,3,09,28,15,27,17,04,02,26,08,,,,2.9,1.3,2.5*32
$GPGSV,3,1,12,27,59,301,23,17,58,041,24,09,47,309,22,04,41,146,37*7C
$GPGSV,3,2,12,28,34,080,32,15,22,247,36,02,16,182,37,26,15,207,39*7A
$GPRMC,191935.000,A,3748.7658,N,12217.7956,W,2.73,111.36,060912,,,D*7F
$GPVTG,111.36,T,,M,2.73,N,5.0,K,D*0F
$GPGGA,191936.000,3748.7655,N,12217.7946,W,2,09,1.3,23.4,M,-25.1,M,4.8,0000*7D
$GPGSA,A,3,09,28,15,27,17,04,02,26,08,,,,2.9,1.3,2.5*32
$GPRMC,191936.000,A,3748.7655,N,12217.7946,W,3.17,122.37,060912,,,D*72
$GPVTG,122.37,T,,M,3.17,N,5.9,K,D*04
$GPGGA,191937.000,3748.7650,N,12217.7937,W,2,09,1.3,23.4,M,-25.1,M,,0000*5D
$GPGSA,A,3,09,28,15,27,17,04,02,26,08,,,,2.9,1.3,2.5*32
$GPRMC,191937.000,A,3748.7650,N,12217.7937,W,3.03,128.32,060912,,,D*7A
$GPVTG,128.32,T,,M,3.03,N,5.6,K,D*01
$GPGGA,191938.000,3748.7644,N,12217.7929,W,2,09,1.3,23.5,M,-25.1,M,,0000*59
$GPGSA,A,3,09,28,15,27,17,04,02,26,08,,,,2.9,1.3,2.5*32
$GPRMC,191938.000,A,3748.7644,N,12217.7929,W,2.72,131.23,060912,,,D*70
$GPVTG,131.23,T,,M,2.72,N,5.0,K,D*08
$GPGGA,191939.000,3748.7639,N,12217.7921,W,2,09,1.3,23.7,M,-25.1,M,,0000*58
$GPGSA,A,3,09,28,15,27,17,04,02,26,08,,,,2.9,1.3,2.5*32
$GPRMC,191939.000,A,3748.7639,N,12217.7921,W,2.84,131.31,060912,,,D*79
$GPVTG,131.31,T,,M,2.84,N,5.3,K,D*01
$GPGGA,191940.000,3748.7634,N,12217.7913,W,2,09,1.3,23.6,M,-25.1,M,,0000*5B
$GPGSA,A,3,09,28,15,27,17,04,02,26,08,,,,2.9,1.3,2.5*32
$GPGSV,3,1,12,27,59,301,23,17,58,041,24,09,47,309,22,04,41,146,36*7D
$GPGSV,3,2,12,28,34,080,31,15,22,247,36,02,16,182,39,26,15,207,39*77
$GPGSV,3,3,12,12,12,289,32,08,08,143,27,01,02,032,,48,44,197,38*71
$GPRMC,191940.000,A,3748.7634,N,12217.7913,W,2.69,126.62,060912,,,D*78
$GPVTG,126.62,T,,M,2.69,N,5.0,K,D*01
$GPGGA,191941.000,3748.7629,N,12217.7904,W,2,09,1.3,23.5,M,-25.1,M,2.8,0000*77
$GPGSA,A,3,09,28,15,27,17,04,02,26,08,,,,2.9,1.3,2.5*32
$GPRMC,191941.000,A,3748.7629,N,12217.7904,W,2.94,125.59,060912,,,D*7A
$GPVTG,125.59,T,,M,2.94,N,5.4,K,D*0C
$GPGGA,191942.000,3748.7619,N,12217.7895,W,2,09,1.3,22.0,M,-25.1,M,,0000*5E
$GPGSA,A,3,09,28,15,27,17,04,02,26,08,,,,2.9,1.3,2.5*32
$GPRMC,191942.000,A,3748.7619,N,12217.7895,W,2.83,131.33,060912,,,D*7C
$GPVTG,131.33,T,,M,2.83,N,5.2,K,D*05
$GPGGA,191943.000,3748.7610,N,12217.7886,W,2,09,1.3,20.7,M,-25.1,M,1.8,0000*76
$GPGSA,A,3,09,28,15,27,17,04,02,26,08,,,,2.9,1.3,2.5*32
$GPRMC,191943.000,A,3748.7610,N,12217.7886,W,2.79,118.97,060912,,,D*76
$GPVTG,118.97,T,,M,2.79,N,5.2,K,D*05
$GPGGA,191944.000,3748.7602,N,12217.7876,W,2,09,1.3,19.9,M,-25.1,M,,0000*5E
$GPGSA,A,3,09,28,15,27,17,04,02,26,08,,,,2.8,1.3,2.5*33
$GPRMC,191944.000,A,3748.7602,N,12217.7876,W,3.36,121.13,060912,,,D*71
$GPVTG,121.13,T,,M,3.36,N,6.2,K,D*0A
$GPGGA,191945.000,3748.7594,N,12217.7865,W,2,09,1.3,19.5,M,-25.1,M,,0000*5D
$GPGSA,A,3,09,28,15,27,17,04,02,26,08,,,,2.8,1.3,2.5*33
$GPGSV,3,1,12,27,59,301,23,17,58,041,24,09,47,309,22,04,41,146,37*7C
$GPGSV,3,2,12,28,34,080,22,15,22,247,35,02,16,182,32,26,15,207,35*71
$GPGSV,3,3,12,12,12,289,24,08,08,143,33,01,02,032,,48,44,197,37*7C
$GPRMC,191945.000,A,3748.7594,N,12217.7865,W,2.76,111.97,060912,,,D*74
$GPVTG,111.97,T,,M,2.76,N,5.1,K,D*00
$GPGGA,191946.000,3748.7590,N,12217.7856,W,2,09,1.3,20.2,M,-25.1,M,2.8,0000*73
$GPGSA,A,3,09,28,15,27,17,04,02,26,08,,,,2.8,1.3,2.5*33
$GPRMC,191946.000,A,3748.7590,N,12217.7856,W,2.48,110.47,060912,,,D*72
$GPVTG,110.47,T,,M,2.48,N,4.6,K,D*07
$GPGGA,191947.000,3748.7585,N,12217.7847,W,2,09,1.3,20.2,M,-25.1,M,,0000*52
$GPGSA,A,3,09,28,15,27,17,04,02,26,08,,,,2.8,1.3,2.5*33
$GPRMC,191947.000,A,3748.7585,N,12217.7847,W,2.77,112.43,060912,,,D*7D
$GPVTG,112.43,T,,M,2.77,N,5.1,K,D*0B
$GPGGA,191948.000,3748.7579,N,12217.7840,W,2,09,1.3,21.0,M,-25.1,M,,0000*5A
$GPGSA,A,3,09,28,15,27,17,04,02,26,08,,,,2.8,1.3,2.5*33
$GPRMC,191948.000,A,3748.7579,N,12217.7840,W,2.66,115.66,060912,,,D*76
$GPVTG,115.66,T,,M,2.66,N,4.9,K,D*02
$GPGGA,191949.000,3748.7571,N,12217.7833,W,2,09,1.3,22.1,M,-25.1,M,,0000*55
$GPGSA,A,3,09,28,15,27,17,04,02,26,08,,,,2.8,1.3,2.5*33
$GPRMC,191949.000,A,3748.7571,N,12217.7833,W,3.05,122.00,060912,,,D*7B
$GPVTG,122.00,T,,M,3.05,N,5.7,K,D*0D
$GPGGA,191950.000,3748.7566,N,12217.7824,W,2,09,1.3,22.3,M,-25.1,M,2.8,0000*7B
$GPGSA,A,3,09,28,15,27,17,04,02,26,08,,,,2.8,1.3,2.5*33
$GPGSV,3,1,12,27,59,300,22,17,57,041,23,09,48,309,22,04,42,146,37*78
$GPGSV,3,2,12,28,34,080,23,15,22,247,35,02,17,181,39,26,15,207,31*7D
$GPGSV,3,3,12,12,13,289,29,08,08,143,41,01,02,032,,48,44,197,34*76
$GPRMC,191950.000,A,3748.7566,N,12217.7824,W,3.11,116.91,060912,,,D*79
$GPVTG,116.91,T,,M,3.11,N,5.8,K,D*08
$GPGGA,191951.000,3748.7560,N,12217.7815,W,2,09,1.3,22.8,M,-25.1,M,,0000*51
$GPGSA,A,3,09,28,15,27,17,04,02,26,08,,,,2.8,1.3,2.5*33
$GPRMC,191951.000,A,3748.7560,N,12217.7815,W,3.19,120.07,060912,,,D*7E
$GPVTG,120.07,T,,M,3.19,N,5.9,K,D*0B
$GPGGA,191952.000,3748.7554,N,12217.7807,W,2,09,1.3,23.2,M,-25.1,M,2.8,0000*79
$GPGSA,A,3,09,28,15,27,17,04,02,26,08,,,,2.8,1.3,2.5*33
$GPRMC,191952.000,A,3748.7554,N,12217.7807,W,2.97,117.52,060912,,,D*7A
$GPVTG,117.52,T,,M,2.97,N,5.5,K,D*04
$GPGGA,191953.000,3748.7550,N,12217.7797,W,2,09,1.3,23.2,M,-25.1,M,3.8,0000*7B
$GPGSA,A,3,09,28,15,27,17,04,02,26,08,,,,2.8,1.3,2.5*33
$GPRMC,191953.000,A,3748.7550,N,12217.7797,W,2.61,108.46,060912,,,D*7B
$GPVTG,108.46,T,,M,2.61,N,4.8,K,D*0A
$GPGGA,191954.000,3748.7544,N,12217.7791,W,2,09,1.3,24.3,M,-25.1,M,,0000*5C
$GPGSA,A,3,09,28,15,27,17,04,02,26,08,,,,2.8,1.3,2.5*33
$GPRMC,191954.000,A,3748.7544,N,12217.7791,W,2.27,102.45,060912,,,D*74
$GPVTG,102.45,T,,M,2.27,N,4.2,K,D*0B
$GPGGA,191955.000,3748.7539,N,12217.7782,W,2,09,1.3,24.9,M,-25.1,M,,0000*5F
$GPGSA,A,3,09,28,15,27,17,04,02,26,08,,,,2.8,1.3,2.5*33
$GPGSV,3,1,12,27,59,300,22,17,57,041,21,09,48,309,22,04,42,146,37*7A
$GPGSV,3,2,12,28,34,080,22,15,22,247,27,02,17,181,39,26,15,207,40*79
$GPGSV,3,3,12,12,13,289,30,08,08,143,32,01,02,032,,48,44,197,37*79
$GPRMC,191955.000,A,3748.7539,N,12217.7782,W,2.03,115.03,060912,,,D*7F
$GPVTG,115.03,T,,M,2.03,N,3.8,K,D*04
$GPGGA,191956.000,3748.7532,N,12217.7776,W,2,09,1.3,25.8,M,-25.1,M,,0000*5C
$GPGSA,A,3,09,28,15,27,17,04,02,26,08,,,,2.8,1.3,2.5*33
$GPRMC,191956.000,A,3748.7532,N,12217.7776,W,2.58,117.04,060912,,,D*77
$GPVTG,117.04,T,,M,2.58,N,4.8,K,D*08
$GPGGA,191957.000,3748.7525,N,12217.7765,W,2,09,1.3,25.9,M,-25.1,M,,0000*58
$GPGSA,A,3,09,28,15,27,17,04,02,26,08,,,,2.8,1.3,2.5*33
$GPRMC,191957.000,A,3748.7525,N,12217.7765,W,2.90,114.99,060912,,,D*71
$GPVTG,114.99,T,,M,2.90,N,5.4,K,D*06
$GPGGA,191958.000,3748.7518,N,12217.7753,W,2,09,1.3,24.7,M,-25.1,M,,0000*53
$GPGSA,A,3,09,28,15,27,17,04,02,26,08,,,,2.8,1.3,2.5*33
$GPRMC,191958.000,A,3748.7518,N,12217.7753,W,2.84,106.61,060912,,,D*74
$GPVTG,106.61,T,,M,2.84,N,5.3,K,D*00
$GPGGA,191959.000,3748.7509,N,12217.7743,W,2,09,1.3,24.6,M,-25.1,M,2.8,0000*76
$GPGSA,A,3,09,28,15,27,17,04,02,26,08,,,,2.8,1.3,2.5*33
$GPRMC,191959.000,A,3748.7509,N,12217.7743,W,2.63,133.35,060912,,,D*7A
$GPVTG,133.35,T,,M,2.63,N,4.9,K,D*05
$GPGGA,192000.000,3748.7504,N,12217.7734,W,2,09,1.3,24.5,M,-25.1,M,3.8,0000*7F
$GPGSA,A,3,09,28,15,27,17,04,02,26,08,,,,2.8,1.3,2.5*33
$GPGSV,3,1,12,27,59,300,22,17,57,041,21,09,48,309,22,04,42,146,36*7B
$GPGSV,3,2,12,28,34,080,20,15,22,247,26,02,17,181,24,26,15,207,39*78
$GPGSV,3,3,12,12,13,289,32,08,08,143,35,01,02,032,,48,44,197,37*7C
$GPVTG,119.58,T,,M,2.59,N,4.8,K,D*0E
$GPGGA,192001.000,3748.7500,N,12217.7726,W,2,09,1.3,24.7,M,-25.1,M,,0000*5E
$GPGSA,A,3,09,28,15,27,17,04,02,26,08,,,,2.8,1.3,2.5*33
$GPRMC,192001.000,A,3748.7500,N,12217.7726,W,2.72,117.10,060912,,,D*76
$GPVTG,117.10,T,,M,2.72,N,5.0,K,D*0C
$GPGGA,192002.000,3748.7496,N,12217.7716,W,2,09,1.3,24.5,M,-25.1,M,,0000*52
$GPGSA,A,3,09,28,15,27,17,04,02,26,08,,,,2.8,1.3,2.5*33
$GPRMC,192002.000,A,3748.7496,N,12217.7716,W,2.50,119.84,060912,,,D*7B
$GPVTG,119.84,T,,M,2.50,N,4.6,K,D*08
$GPGGA,192003.000,3748.7489,N,12217.7708,W,2,08,1.4,24.5,M,-25.1,M,,0000*54
$GPGSA,A,3,09,28,15,27,17,04,26,08,,,,,2.9,1.4,2.5*37
$GPRMC,192003.000,A,3748.7489,N,12217.7708,W,2.84,122.68,060912,,,D*78
$GPVTG,122.68,T,,M,2.84,N,5.3,K,D*0F
$GPGGA,192004.000,3748.7483,N,12217.7704,W,2,09,1.3,25.9,M,-25.1,M,2.8,0000*7A
$GPGSA,A,3,09,28,15,27,17,04,02,26,08,,,,2.8,1.3,2.5*33
$GPRMC,192004.000,A,3748.7483,N,12217.7704,W,2.65,116.95,060912,,,D*73
$GPVTG,116.95,T,,M,2.65,N,4.9,K,D*0E
$GPGGA,192005.000,3748.7478,N,12217.7693,W,2,09,1.3,25.5,M,-25.1,M,3.8,0000*7D
$GPGSA,A,3,09,28,15,27,17,04,02,26,08,,,,2.8,1.3,2.5*33
$GPGSV,3,1,12,27,59,300,23,17,57,041,21,09,48,309,22,04,42,146,36*7A
$GPGSV,3,2,12,28,34,080,21,15,22,247,35,02,17,181,22,26,15,207,39*7D
$GPGSV,3,3,12,12,13,289,31,08,08,143,36,01,02,032,,48,44,197,38*73
$GPRMC,192005.000,A,3748.7478,N,12217.7693,W,2.81,108.77,060912,,,D*70
$GPVTG,108.77,T,,M,2.81,N,5.2,K,D*0D
$GPGGA,192006.000,3748.7474,N,12217.7683,W,2,09,1.3,25.1,M,-25.1,M,4.8,0000*70
$GPGSA,A,3,09,28,15,27,17,04,02,26,08,,,,2.8,1.3,2.5*33
$GPRMC,192006.000,A,3748.7474,N,12217.7683,W,2.75,111.71,060912,,,D*7B
$GPVTG,111.71,T,,M,2.75,N,5.1,K,D*0B
$GPGGA,192007.000,3748.7471,N,12217.7674,W,2,09,1.3,25.0,M,-25.1,M,,0000*5F
$GPGSA,A,3,09,28,15,27,17,04,02,26,08,,,,2.8,1.3,2.5*33
$GPRMC,192007.000,A,3748.7471,N,12217.7674,W,2.75,110.15,060912,,,D*74
$GPVTG,110.15,T,,M,2.75,N,5.1,K,D*08
$GPGGA,192008.000,3748.7468,N,12217.7665,W,2,09,1.3,25.1,M,-25.1,M,,0000*59
$GPGSA,A,3,09,28,15,27,17,04,02,26,08,,,,2.8,1.3,2.5*33
$GPRMC,192008.000,A,3748.7468,N,12217.7665,W,2.72,121.83,060912,,,D*79
$GPVTG,121.83,T,,M,2.72,N,5.0,K,D*03
$GPGGA,192009.000,3748.7462,N,12217.7656,W,2,09,1.3,25.0,M,-25.1,M,,0000*53
$GPGSA,A,3,09,28,15,27,17,04,02,26,08,,,,2.8,1.3,2.5*33
$GPRMC,192009.000,A,3748.7462,N,12217.7656,W,3.05,125.69,060912,,,D*73
$GPVTG,125.69,T,,M,3.05,N,5.6,K,D*04
$GPGGA,192010.000,3748.7457,N,12217.7646,W,2,09,1.3,24.6,M,-25.1,M,2.8,0000*7F
$GPGSA,A,3,09,28,15,27,17,04,02,26,08,,,,2.8,1.3,2.5*33
$GPGSV,3,1,12,27,59,300,23,17,57,041,20,09,48,309,22,04,42,146,37*7A
$GPGSV,3,2,12,28,34,080,21,15,22,247,35,02,17,181,27,26,15,207,34*75
$GPGSV,3,3,12,12,13,289,29,08,08,143,36,01,02,032,,48,44,197,36*74
$GPRMC,192010.000,A,3748.7457,N,12217.7646,W,2.94,119.50,060912,,,D*70
$GPVTG,119.50,T,,M,2.94,N,5.4,K,D*0A
$GPGGA,192011.000,3748.7450,N,12217.7635,W,2,09,1.3,24.1,M,-25.1,M,3.8,0000*7B
$GPGSA,A,3,09,28,15,27,17,04,02,26,08,,,,2.8,1.3,2.5*33
$GPRMC,192011.000,A,3748.7450,N,12217.7635,W,2.92,113.97,060912,,,D*75
$GPVTG,113.97,T,,M,2.92,N,5.4,K,D*0D
$GPGGA,192012.000,3748.7444,N,12217.7624,W,2,09,1.3,23.6,M,-25.1,M,4.8,0000*7A
$GPGSA,A,3,09,28,15,27,17,04,02,26,08,,,,2.8,1.3,2.5*33
$GPRMC,192012.000,A,3748.7444,N,12217.7624,W,2.82,108.64,060912,,,D*74
$GPVTG,108.64,T,,M,2.82,N,5.2,K,D*0C
$GPGGA,192013.000,3748.7439,N,12217.7614,W,2,09,1.3,23.5,M,-25.1,M,,0000*53
$GPGSA,A,3,09,28,15,27,17,04,02,26,08,,,,2.8,1.3,2.5*33
$GPRMC,192013.000,A,3748.7439,N,12217.7614,W,2.61,107.58,060912,,,D*71
$GPVTG,107.58,T,,M,2.61,N,4.8,K,D*0A
$GPGGA,192014.000,3748.7440,N,12217.7602,W,2,09,1.3,22.1,M,-25.1,M,,0000*58
$GPGSA,A,3,09,28,15,27,17,04,02,26,08,,,,2.8,1.3,2.5*33
$GPRMC,192014.000,A,3748.7440,N,12217.7602,W,2.61,116.47,060912,,,D*71
$GPVTG,116.47,T,,M,2.61,N,4.8,K,D*04
$GPGGA,192015.000,3748.7441,N,12217.7592,W,2,09,1.3,21.3,M,-25.1,M,1.8,0000*74
$GPGSA,A,3,09,28,15,27,17,04,02,26,08,,,,2.8,1.3,2.5*33
$GPGSV,3,1,12,27,59,300,22,17,57,041,21,09,48,309,22,04,42,146,37*7A
$GPGSV,3,2,12,28,34,080,32,15,22,247,33,02,17,181,33,26,15,207,24*75
$GPGSV,3,3,12,12,13,289,29,08,08,143,34,01,02,032,,48,44,197,37*77
$GPRMC,192015.000,A,3748.7441,N,12217.7592,W,2.39,116.90,060912,,,D*7C
$GPVTG,116.90,T,,M,2.39,N,4.4,K,D*0F
$GPGGA,192016.000,3748.7440,N,12217.7582,W,2,09,1.3,21.0,M,-25.1,M,,0000*53
$GPGSA,A,3,09,28,15,27,17,04,02,26,08,,,,2.8,1.3,2.5*33
$GPRMC,192016.000,A,3748.7440,N,12217.7582,W,2.22,110.28,060912,,,D*70
$GPVTG,110.28,T,,M,2.22,N,4.1,K,D*05
$GPGGA,192017.000,3748.7440,N,12217.7572,W,2,09,1.3,20.7,M,-25.1,M,2.8,0000*7F
$GPGSA,A,3,09,28,15,27,17,04,02,26,08,,,,2.8,1.3,2.5*33
$GPRMC,192017.000,A,3748.7440,N,12217.7572,W,2.48,108.57,060912,,,D*73
$GPVTG,108.57,T,,M,2.48,N,4.6,K,D*0F
$GPGGA,192018.000,3748.7439,N,12217.7564,W,2,09,1.3,20.4,M,-25.1,M,3.8,0000*7B
$GPGSA,A,3,09,28,15,27,17,04,02,26,08,,,,2.8,1.3,2.5*33
$GPRMC,192018.000,A,3748.7439,N,12217.7564,W,2.39,122.81,060912,,,D*70
$GPVTG,122.81,T,,M,2.39,N,4.4,K,D*08
$GPGGA,192019.000,3748.7436,N,12217.7555,W,2,09,1.3,20.2,M,-25.1,M,,0000*54
$GPGSA,A,3,09,28,15,27,17,04,02,26,08,,,,2.8,1.3,2.5*33
$GPRMC,192019.000,A,3748.7436,N,12217.7555,W,2.62,126.11,060912,,,D*7F
$GPVTG,126.11,T,,M,2.62,N,4.9,K,D*06
$GPGGA,192020.000,3748.7433,N,12217.7546,W,2,09,1.3,20.1,M,-25.1,M,,0000*5A
$GPGSA,A,3,09,28,15,27,17,04,02,26,08,,,,2.8,1.3,2.5*33
$GPGSV,3,1,12,27,59,300,23,17,57,041,25,09,48,309,23,04,42,146,36*7F
$GPGSV,3,2,12,28,34,080,32,15,22,247,29,02,17,181,36,26,14,207,21*7F
$GPGSV,3,3,12,12,13,290,23,08,08,143,34,01,02,032,,48,44,197,39*7B
$GPVTG,126.31,T,,M,2.08,N,3.9,K,D*0F
$GPGGA,192021.000,3748.7430,N,12217.7537,W,2,09,1.3,20.0,M,-25.1,M,,0000*5F
$GPGSA,A,3,09,28,15,27,17,04,02,26,08,,,,2.8,1.3,2.5*33
$GPRMC,192021.000,A,3748.7430,N,12217.7537,W,2.99,120.63,060912,,,D*71
$GPVTG,120.63,T,,M,2.99,N,5.5,K,D*0C
$GPGGA,192022.000,3748.7427,N,12217.7527,W,2,09,1.3,19.8,M,-25.1,M,2.8,0000*7D
$GPGSA,A,3,09,28,15,27,17,04,02,26,08,,,,2.8,1.3,2.5*33
$GPRMC,192022.000,A,3748.7427,N,12217.7527,W,2.63,116.17,060912,,,D*76
$GPVTG,116.17,T,,M,2.63,N,4.9,K,D*02
$GPGGA,192023.000,3748.7417,N,12217.7519,W,2,09,1.3,19.3,M,-25.1,M,3.8,0000*78
$GPGSA,A,3,09,28,15,27,17,04,02,26,08,,,,2.8,1.3,2.5*33
$GPRMC,192023.000,A,3748.7417,N,12217.7519,W,2.69,113.40,060912,,,D*74
$GPVTG,113.40,T,,M,2.69,N,5.0,K,D*07
$GPGGA,192024.000,3748.7409,N,12217.7511,W,2,09,1.3,19.0,M,-25.1,M,4.8,0000*7C
$GPGSA,A,3,09,28,15,27,17,04,02,26,08,,,,2.8,1.3,2.5*33
$GPRMC,192024.000,A,3748.7409,N,12217.7511,W,2.85,122.12,060912,,,D*73
$GPVTG,122.12,T,,M,2.85,N,5.3,K,D*03
$GPGGA,192025.000,3748.7404,N,12217.7502,W,2,09,1.3,18.6,M,-25.1,M,5.8,0000*74
$GPGSA,A,3,09,28,15,27,17,04,02,26,08,,,,2.8,1.3,2.5*33
$GPGSV,3,1,12,27,59,300,23,17,57,041,25,09,48,309,23,04,42,146,29*71
$GPGSV,3,2,12,28,34,080,23,15,22,247,37,02,17,181,35,26,14,207,35*76
$GPGSV,3,3,12,12,13,290,25,08,08,143,35,01,02,032,,48,44,197,32*77
$GPRMC,192025.000,A,3748.7404,N,12217.7502,W,2.87,110.43,060912,,,D*7A
$GPVTG,110.43,T,,M,2.87,N,5.3,K,D*04
$GPGGA,192026.000,3748.7395,N,12217.7494,W,2,09,1.3,18.2,M,-25.1,M,6.8,0000*71
$GPGSA,A,3,09,28,15,27,17,04,02,26,08,,,,2.8,1.3,2.5*33
$GPRMC,192026.000,A,3748.7395,N,12217.7494,W,2.86,113.18,060912,,,D*74
$GPVTG,113.18,T,,M,2.86,N,5.3,K,D*08
$GPGGA,192027.000,3748.7387,N,12217.7486,W,2,09,1.3,17.5,M,-25.1,M,7.8,0000*79
$GPGSA,A,3,09,28,15,27,17,04,02,26,08,,,,2.8,1.3,2.5*33
$GPRMC,192027.000,A,3748.7387,N,12217.7486,W,2.71,104.57,060912,,,D*70
$GPVTG,104.57,T,,M,2.71,N,5.0,K,D*0E
$GPGGA,192028.000,3748.7388,N,12217.7475,W,2,09,1.3,16.5,M,-25.1,M,,0000*55
$GPGSA,A,3,09,28,15,27,17,04,02,26,08,,,,2.8,1.3,2.5*33
$GPRMC,192028.000,A,3748.7388,N,12217.7475,W,2.65,98.06,060912,,,D*49
$GPVTG,98.06,T,,M,2.65,N,4.9,K,D*33
$GPGGA,192029.000,3748.7390,N,12217.7464,W,2,09,1.3,15.2,M,-25.1,M,2.8,0000*7D
$GPGSA,A,3,09,28,15,27,17,04,02,26,08,,,,2.8,1.3,2.5*33
$GPRMC,192029.000,A,3748.7390,N,12217.7464,W,2.52,89.82,060912,,,D*49
$GPVTG,89.82,T,,M,2.52,N,4.7,K,D*35
$GPGGA,192030.000,3748.7390,N,12217.7453,W,2,09,1.3,14.5,M,-25.1,M,3.8,0000*76
$GPGSA,A,3,09,28,15,27,17,04,02,26,08,,,,2.8,1.3,2.5*33
$GPGSV,3,1,12,27,59,300,23,17,57,041,24,09,48,309,23,04,42,146,29*70
$GPGSV,3,2,12,28,34,080,30,15,22,247,30,02,17,181,33,26,14,207,37*77
$GPGSV,3,3,12,12,13,290,25,08,08,143,34,01,02,032,,48,44,197,33*77
$GPRMC,192030.000,A,3748.7390,N,12217.7453,W,2.48,102.91,060912,,,D*7E
$GPVTG,102.91,T,,M,2.48,N,4.6,K,D*0F
$GPGGA,192031.000,3748.7392,N,12217.7443,W,2,09,1.3,13.3,M,-25.1,M,4.8,0000*72
$GPGSA,A,3,09,28,15,27,17,04,02,26,08,,,,2.8,1.3,2.5*33
$GPRMC,192031.000,A,3748.7392,N,12217.7443,W,2.43,101.10,060912,,,D*7D
$GPVTG,101.10,T,,M,2.43,N,4.5,K,D*0D
$GPGGA,192032.000,3748.7394,N,12217.7434,W,2,09,1.3,11.9,M,-25.1,M,5.8,0000*7E
$GPGSA,A,3,09,28,15,27,17,04,02,26,08,,,,2.8,1.3,2.5*33
$GPRMC,192032.000,A,3748.7394,N,12217.7434,W,2.15,93.61,060912,,,D*47
$GPVTG,93.61,T,,M,2.15,N,4.0,K,D*37
$GPGGA,192033.000,3748.7392,N,12217.7426,W,2,09,1.3,12.7,M,-25.1,M,6.8,0000*74
$GPGSA,A,3,09,28,15,27,17,04,02,26,08,,,,2.8,1.3,2.5*33
$GPRMC,192033.000,A,3748.7392,N,12217.7426,W,1.78,102.57,060912,,,D*77
$GPVTG,102.57,T,,M,1.78,N,3.3,K,D*07
$GPGGA,192034.000,3748.7389,N,12217.7418,W,2,09,1.3,13.1,M,-25.1,M,7.8,0000*72
$GPGSA,A,3,09,28,15,27,17,04,02,26,08,,,,2.8,1.3,2.5*33
$GPRMC,192034.000,A,3748.7389,N,12217.7418,W,1.84,110.66,060912,,,D*75
$GPVTG,110.66,T,,M,1.84,N,3.4,K,D*02
$GPGGA,192035.000,3748.7386,N,12217.7409,W,2,09,1.3,13.3,M,-25.1,M,,0000*5F
$GPGSA,A,3,09,28,15,27,17,04,02,26,08,,,,2.8,1.3,2.5*33
$GPGSV,3,1,12,27,59,300,22,17,57,041,24,09,48,309,23,04,42,146,28*70
$GPGSV,3,2,12,28,34,080,31,15,22,247,29,02,17,181,35,26,14,207,38*77
$GPGSV,3,3,12,12,13,290,24,08,08,143,28,01,02,032,,48,44,197,34*7C
$GPRMC,192035.000,A,3748.7386,N,12217.7409,W,2.30,103.35,060912,,,D*73
$GPVTG,103.35,T,,M,2.30,N,4.3,K,D*0A
$GPGGA,192036.000,3748.7385,N,12217.7399,W,2,09,1.3,13.0,M,-25.1,M,1.8,0000*75
$GPGSA,A,3,09,28,15,27,17,04,02,26,08,,,,2.8,1.3,2.5*33
$GPRMC,192036.000,A,3748.7385,N,12217.7399,W,2.34,101.32,060912,,,D*7C
$GPVTG,101.32,T,,M,2.34,N,4.3,K,D*0B
$GPGGA,192037.000,3748.7383,N,12217.7388,W,2,09,1.3,12.8,M,-25.1,M,2.8,0000*78
$GPGSA,A,3,09,28,15,27,17,04,02,26,08,,,,2.8,1.3,2.5*33
$GPRMC,192037.000,A,3748.7383,N,12217.7388,W,1.96,98.76,060912,,,D*41
$GPVTG,98.76,T,,M,1.96,N,3.6,K,D*33
$GPGGA,192038.000,3748.7381,N,12217.7377,W,2,09,1.3,12.8,M,-25.1,M,3.8,0000*74
$GPGSA,A,3,09,28,15,27,17,04,02,26,08,,,,2.8,1.3,2.5*33
$GPRMC,192038.000,A,3748.7381,N,12217.7377,W,2.28,100.96,060912,,,D*74
$GPVTG,100.96,T,,M,2.28,N,4.2,K,D*08
$GPGGA,192039.000,3748.7375,N,12217.7369,W,2,09,1.3,13.4,M,-25.1,M,4.8,0000*7B
$GPGSA,A,3,09,28,15,27,17,04,02,26,08,,,,2.8,1.3,2.5*33
$GPRMC,192039.000,A,3748.7375,N,12217.7369,W,2.23,105.67,060912,,,D*71
$GPVTG,105.67,T,,M,2.23,N,4.1,K,D*0B
$GPGGA,192040.000,3748.7370,N,12217.7360,W,2,09,1.3,13.5,M,-25.1,M,5.8,0000*79
$GPGSA,A,3,09,28,15,27,17,04,02,26,08,,,,2.8,1.3,2.5*33
$GPGSV,3,1,12,27,59,300,22,17,57,041,24,09,48,309,23,04,42,146,28*70
$GPGSV,3,2,12,28,34,080,33,15,22,247,23,02,17,181,35,26,14,207,34*73
$GPGSV,3,3,12,12,13,290,18,08,08,143,28,01,02,032,,48,44,197,31*76
$GPRMC,192040.000,A,3748.7370,N,12217.7360,W,2.39,109.13,060912,,,D*77
$GPVTG,109.13,T,,M,2.39,N,4.4,K,D*0A
$GPGGA,192041.000,3748.7364,N,12217.7351,W,2,09,1.3,13.6,M,-25.1,M,6.8,0000*7F
$GPGSA,A,3,09,28,15,27,17,04,02,26,08,,,,2.8,1.3,2.5*33
$GPRMC,192041.000,A,3748.7364,N,12217.7351,W,2.16,109.47,060912,,,D*7D
$GPVTG,109.47,T,,M,2.16,N,4.0,K,D*02
$GPGGA,192042.000,3748.7359,N,12217.7342,W,2,09,1.3,13.2,M,-25.1,M,7.8,0000*75
$GPGSA,A,3,09,28,15,27,17,04,02,26,08,,,,2.8,1.3,2.5*33
$GPRMC,192042.000,A,3748.7359,N,12217.7342,W,2.62,126.29,060912,,,D*74
$GPVTG,126.29,T,,M,2.62,N,4.9,K,D*0D
$GPGGA,192043.000,3748.7347,N,12217.7329,W,2,08,1.6,14.3,M,-25.1,M,8.8,0000*7B
$GPGSA,A,3,09,15,27,17,04,02,26,08,,,,,3.2,1.6,2.8*3A
$GPRMC,192043.000,A,3748.7347,N,12217.7329,W,2.40,122.55,060912,,,D*78
$GPVTG,122.55,T,,M,2.40,N,4.4,K,D*0F
$GPGGA,192044.000,3748.7340,N,12217.7320,W,2,09,1.3,14.1,M,-25.1,M,1.8,0000*7D
$GPGSA,A,3,09,28,15,27,17,04,02,26,08,,,,2.8,1.3,2.5*33
$GPRMC,192044.000,A,3748.7340,N,12217.7320,W,2.75,126.61,060912,,,D*74
$GPVTG,126.61,T,,M,2.75,N,5.1,K,D*0E
$GPGGA,192045.000,3748.7333,N,12217.7310,W,2,09,1.3,13.6,M,-25.1,M,1.8,0000*7B
$GPGSA,A,3,09,28,15,27,17,04,02,26,08,,,,2.8,1.3,2.5*33
$GPGSV,3,1,12,27,59,300,22,17,57,041,24,09,48,309,22,04,42,146,35*7D
$GPGSV,3,2,12,28,34,080,25,15,22,247,23,02,17,181,36,26,14,207,30*73
$GPGSV,3,3,12,12,13,290,18,08,08,143,40,01,02,032,,48,44,197,38*71
$GPVTG,125.52,T,,M,2.80,N,5.2,K,D*04
$GPGGA,192046.000,3748.7330,N,12217.7298,W,2,09,1.3,13.2,M,-25.1,M,0.8,0000*7F
$GPGSA,A,3,09,28,15,27,17,04,02,26,08,,,,2.8,1.3,2.5*33
$GPRMC,192046.000,A,3748.7330,N,12217.7298,W,2.73,123.14,060912,,,D*72
$GPVTG,123.14,T,,M,2.73,N,5.0,K,D*0E
$GPGGA,192047.000,3748.7324,N,12217.7288,W,2,09,1.3,13.7,M,-25.1,M,1.8,0000*7E
$GPGSA,A,3,09,28,15,27,17,04,02,26,08,,,,2.8,1.3,2.5*33
$GPRMC,192047.000,A,3748.7324,N,12217.7288,W,2.77,125.13,060912,,,D*72
$GPVTG,125.13,T,,M,2.77,N,5.1,K,D*0A
$GPGGA,192048.000,3748.7320,N,12217.7277,W,2,09,1.3,14.0,M,-25.1,M,2.8,0000*76
$GPGSA,A,3,09,28,15,27,17,04,02,26,08,,,,2.8,1.3,2.5*33
$GPRMC,192048.000,A,3748.7320,N,12217.7277,W,2.83,114.29,060912,,,D*79
$GPVTG,114.29,T,,M,2.83,N,5.2,K,D*09
$GPGGA,192049.000,3748.7317,N,12217.7267,W,2,09,1.3,13.8,M,-25.1,M,1.8,0000*7E
$GPGSA,A,3,09,28,15,27,17,04,02,26,08,,,,2.8,1.3,2.5*33
$GPRMC,192049.000,A,3748.7317,N,12217.7267,W,2.74,118.24,060912,,,D*74
$GPVTG,118.24,T,,M,2.74,N,5.1,K,D*03
$GPGGA,192050.000,3748.7312,N,12217.7258,W,2,09,1.3,14.3,M,-25.1,M,1.8,0000*73
$GPGSA,A,3,09,28,15,27,17,04,02,26,08,,,,2.8,1.3,2.5*33
$GPGSV,3,1,12,27,59,299,23,17,57,041,24,09,48,309,23,04,42,146,36*7F
$GPGSV,3,2,12,28,33,080,24,15,21,247,32,02,17,181,35,26,14,207,34*71
$GPGSV,3,3,12,12,13,290,19,08,08,143,37,01,02,032,,48,44,197,39*71
$GPRMC,192050.000,A,3748.7312,N,12217.7258,W,2.74,112.95,060912,,,D*75
$GPVTG,112.95,T,,M,2.74,N,5.1,K,D*03
$GPGGA,192051.000,3748.7309,N,12217.7249,W,2,09,1.3,14.6,M,-25.1,M,1.8,0000*7D
$GPGSA,A,3,09,28,15,27,17,04,02,26,08,,,,2.8,1.3,2.5*33
$GPRMC,192051.000,A,3748.7309,N,12217.7249,W,2.59,108.06,060912,,,D*70
$GPVTG,108.06,T,,M,2.59,N,4.8,K,D*05
$GPGGA,192052.000,3748.7305,N,12217.7240,W,2,09,1.3,14.5,M,-25.1,M,2.8,0000*7B
$GPGSA,A,3,09,28,15,27,17,04,02,26,08,,,,2.8,1.3,2.5*33
$GPRMC,192052.000,A,3748.7305,N,12217.7240,W,2.42,113.05,060912,,,D*75
$GPVTG,113.05,T,,M,2.42,N,4.5,K,D*0B
$GPGGA,192053.000,3748.7300,N,12217.7233,W,2,09,1.3,15.1,M,-25.1,M,3.8,0000*7F
$GPGSA,A,3,09,28,15,27,17,04,02,26,08,,,,2.8,1.3,2.5*33
$GPRMC,192053.000,A,3748.7300,N,12217.7233,W,2.49,115.38,060912,,,D*76
$GPVTG,115.38,T,,M,2.49,N,4.6,K,D*0B
$GPGGA,192054.000,3748.7293,N,12217.7225,W,2,09,1.3,15.1,M,-25.1,M,4.8,0000*73
$GPGSA,A,3,09,28,15,27,17,04,02,26,08,,,,2.8,1.3,2.5*33
$GPRMC,192054.000,A,3748.7293,N,12217.7225,W,2.70,124.71,060912,,,D*78
$GPVTG,124.71,T,,M,2.70,N,5.0,K,D*09
$GPGGA,192055.000,3748.7286,N,12217.7216,W,2,09,1.3,16.0,M,-25.1,M,1.8,0000*71
$GPGSA,A,3,09,28,15,27,17,04,02,26,08,,,,2.8,1.3,2.5*33
$GPGSV,3,1,12,27,59,299,23,17,57,041,25,09,48,309,22,04,42,146,36*7F
$GPGSV,3,2,12,28,33,080,26,15,21,247,33,02,17,181,39,26,14,207,28*73
$GPGSV,3,3,12,12,13,290,20,08,08,143,38,01,02,032,,48,44,197,38*75
$GPRMC,192055.000,A,3748.7286,N,12217.7216,W,2.78,120.00,060912,,,D*77
$GPVTG,120.00,T,,M,2.78,N,5.1,K,D*02
$GPGGA,192056.000,3748.7281,N,12217.7207,W,2,09,1.3,16.3,M,-25.1,M,1.8,0000*76
$GPGSA,A,3,09,28,15,27,17,04,02,26,08,,,,2.8,1.3,2.5*33
$GPRMC,192056.000,A,3748.7281,N,12217.7207,W,2.56,120.03,060912,,,D*7C
$GPVTG,120.03,T,,M,2.56,N,4.7,K,D*0A
$GPGGA,192057.000,3748.7281,N,12217.7196,W,2,09,1.3,15.6,M,-25.1,M,1.8,0000*7A
$GPGSA,A,3,09,28,15,27,17,04,02,26,08,,,,2.8,1.3,2.5*33
$GPRMC,192057.000,A,3748.7281,N,12217.7196,W,2.55,112.68,060912,,,D*79
$GPVTG,112.68,T,,M,2.55,N,4.7,K,D*05
$GPGGA,192058.000,3748.7281,N,12217.7184,W,2,09,1.3,15.2,M,-25.1,M,1.8,0000*72
$GPGSA,A,3,09,28,15,27,17,04,02,26,08,,,,2.8,1.3,2.5*33
$GPRMC,192058.000,A,3748.7281,N,12217.7184,W,2.66,97.91,060912,,,D*4F
$GPVTG,97.91,T,,M,2.66,N,4.9,K,D*31
$GPGGA,192059.000,3748.7283,N,12217.7174,W,2,09,1.3,14.2,M,-25.1,M,2.8,0000*7C
$GPGSA,A,3,09,28,15,27,17,04,02,26,08,,,,2.8,1.3,2.5*33
$GPRMC,192059.000,A,3748.7283,N,12217.7174,W,2.45,62.24,060912,,,D*46
