$ADVER,3080,2.3
$GPRMC,214503.879,A,3748.8022,N,12217.8592,W,0.29,53.36,180610,,,A*4C
$GPGGA,214504.879,3748.8067,N,12217.8590,W,1,07,1.2,10.4,M,-25.1,M,,0000*56
$GPGSA,A,3,28,19,23,13,10,08,05,,,,,,2.8,1.2,2.5*31
$GPRMC,214504.879,A,3748.8067,N,12217.8590,W,0.50,327.98,180610,,,A*72
$GPVTG,327.98,T,,M,0.50,N,0.9,K,A*06
$GPGGA,214506.000,3748.8056,N,12217.8576,W,1,07,1.2,4.6,M,-25.1,M,,0000*6F
$GPGSA,A,3,28,19,23,13,10,08,05,,,,,,2.8,1.2,2.5*31
$GPGSV,3,1,10,13,60,125,28,08,43,291,30,10,35,278,29,23,32,133,27*71
$GPGSV,3,2,10,28,32,218,25,19,30,096,24,05,18,311,15,07,66,351,29*7C
$GPGSV,3,3,10,03,27,063,20,06,17,051,17*7B
$GPRMC,214506.000,A,3748.8056,N,12217.8576,W,0.15,247.67,180610,,,A*7A
$GPVTG,247.67,T,,M,0.15,N,0.3,K,A*0A
$GPGGA,214507.000,3748.8049,N,12217.8580,W,1,07,1.2,2.7,M,-25.1,M,,0000*6E
$GPGSA,A,3,28,19,23,13,10,08,05,,,,,,2.8,1.2,2.5*31
$GPRMC,214507.000,A,3748.8049,N,12217.8580,W,0.11,229.48,180610,,,A*7D
$GPVTG,229.48,T,,M,0.11,N,0.2,K,A*0A
$GPGGA,214508.000,3748.8044,N,12217.8582,W,1,07,1.2,-0.4,M,-25.1,M,,0000*42
$GPGSA,A,3,28,19,23,13,10,08,05,,,,,,2.8,1.2,2.5*31
$GPRMC,214508.000,A,3748.8044,N,12217.8582,W,0.35,194.72,180610,,,A*77
$GPVTG,194.72,T,,M,0.35,N,0.7,K,A*05
$GPGGA,214509.000,3748.8041,N,12217.8583,W,1,07,1.2,-2.2,M,-25.1,M,,0000*43
$GPGSA,A,3,28,19,23,13,10,08,05,,,,,,2.8,1.2,2.5*31
$GPRMC,214509.000,A,3748.8041,N,12217.8583,W,0.19,199.20,180610,,,A*76
$GPVTG,199.20,T,,M,0.19,N,0.4,K,A*02
$GPGGA,214510.000,3748.8040,N,12217.8584,W,1,07,1.2,-3.1,M,-25.1,M,,0000*4F
$GPGSA,A,3,28,19,23,13,10,08,05,,,,,,2.8,1.2,2.5*31
$GPRMC,214510.000,A,3748.8040,N,12217.8584,W,0.11,344.69,180610,,,A*7F
$GPVTG,344.69,T,,M,0.11,N,0.2,K,A*03
$GPGGA,214511.000,3748.8036,N,12217.8590,W,1,07,1.2,-2.1,M,-25.1,M,,0000*4B
$GPGSA,A,3,28,19,23,13,10,08,05,,,,,,2.8,1.2,2.5*31
$GPGSV,3,1,11,13,60,125,26,08,43,291,21,10,35,278,27,23,32,133,22*75
$GPGSV,3,2,11,28,32,218,27,19,30,096,24,05,18,311,21,07,66,351,37*77
$GPGSV,3,3,11,03,27,063,26,06,17,051,20,51,00,000,24*4A
$GPRMC,214511.000,A,3748.8036,N,12217.8590,W,0.19,357.19,180610,,,A*77
$GPVTG,357.19,T,,M,0.19,N,0.3,K,A*0F
$GPGGA,214512.000,3748.8033,N,12217.8592,W,1,07,1.2,-1.8,M,-25.1,M,,0000*45
$GPGSA,A,3,28,19,23,13,10,08,05,,,,,,2.8,1.2,2.5*31
$GPRMC,214512.000,A,3748.8033,N,12217.8592,W,0.07,220.01,180610,,,A*74
$GPVTG,220.01,T,,M,0.07,N,0.1,K,A*0A
$GPGGA,214513.000,3748.8032,N,12217.8591,W,1,07,1.2,-1.4,M,-25.1,M,,0000*4A
$GPGSA,A,3,28,19,23,13,10,08,05,,,,,,2.8,1.2,2.5*31
$GPRMC,214513.000,A,3748.8032,N,12217.8591,W,0.16,135.59,180610,,,A*7D
$GPVTG,135.59,T,,M,0.16,N,0.3,K,A*02
$GPGGA,214514.000,3748.8033,N,12217.8592,W,1,06,1.5,-0.8,M,-25.1,M,,0000*44
$GPGSA,A,3,28,19,23,13,10,08,,,,,,,3.6,1.5,3.3*3B
$GPRMC,214514.000,A,3748.8033,N,12217.8592,W,0.10,111.79,180610,,,A*7A
$GPVTG,111.79,T,,M,0.10,N,0.2,K,A*01
$GPGGA,214515.000,3748.8031,N,12217.8593,W,1,07,1.2,0.1,M,-25.1,M,,0000*64
$GPGSA,A,3,28,19,23,13,10,08,05,,,,,,2.8,1.2,2.5*31
$GPRMC,214515.000,A,3748.8031,N,12217.8593,W,0.49,234.59,180610,,,A*72
$GPVTG,234.59,T,,M,0.49,N,0.9,K,A*00
$GPGGA,214516.000,3748.8029,N,12217.8592,W,1,07,1.2,-0.5,M,-25.1,M,,0000*46
$GPGSA,A,3,28,19,23,13,10,08,05,,,,,,2.8,1.2,2.5*31
$GPGSV,3,1,11,13,60,125,30,08,43,291,31,10,35,278,32,23,32,133,25*70
$GPGSV,3,2,11,28,32,218,24,19,30,096,22,05,18,311,16,07,66,351,33*72
$GPGSV,3,3,11,03,27,063,10,06,17,051,16,51,00,000,27*49
$GPRMC,214516.000,A,3748.8029,N,12217.8592,W,0.70,235.42,180610,,,A*78
$GPVTG,235.42,T,,M,0.70,N,1.3,K,A*0A
$GPGGA,214517.000,3748.8028,N,12217.8592,W,1,07,1.2,-0.6,M,-25.1,M,,0000*45
$GPGSA,A,3,28,19,23,13,10,08,05,,,,,,2.8,1.2,2.5*31
$GPRMC,214517.000,A,3748.8028,N,12217.8592,W,0.29,172.28,180610,,,A*78
$GPVTG,172.28,T,,M,0.29,N,0.5,K,A*0D
$GPGGA,214518.000,3748.8027,N,12217.8592,W,1,07,1.2,-1.0,M,-25.1,M,,0000*42
$GPGSA,A,3,28,19,23,13,10,08,05,,,,,,2.8,1.2,2.5*31
$GPRMC,214518.000,A,3748.8027,N,12217.8592,W,0.02,116.24,180610,,,A*7F
$GPVTG,116.24,T,,M,0.02,N,0.0,K,A*0F
$GPGGA,214519.000,3748.8027,N,12217.8592,W,1,07,1.2,-1.2,M,-25.1,M,,0000*41
$GPGSA,A,3,28,19,23,13,10,08,05,,,,,,2.8,1.2,2.5*31
$GPRMC,214519.000,A,3748.8027,N,12217.8592,W,0.07,43.71,180610,,,A*4A
$GPVTG,43.71,T,,M,0.07,N,0.1,K,A*3A
$GPGGA,214520.000,3748.8027,N,12217.8592,W,1,07,1.2,-1.4,M,-25.1,M,,0000*4D
$GPGSA,A,3,28,19,23,13,10,08,05,,,,,,2.8,1.2,2.5*31
$GPRMC,214520.000,A,3748.8027,N,12217.8592,W,0.17,146.37,180610,,,A*77
$GPVTG,146.37,T,,M,0.17,N,0.3,K,A*0F
$GPGGA,214521.000,3748.8026,N,12217.8591,W,1,07,1.2,-1.4,M,-25.1,M,,0000*4E
$GPGSA,A,3,28,19,23,13,10,08,05,,,,,,2.8,1.2,2.5*31
$GPGSV,3,1,11,13,60,125,40,08,43,291,36,10,35,278,32,23,32,133,39*7D
$GPGSV,3,2,11,28,32,218,35,19,30,096,32,05,18,311,29,07,66,351,42*79
$GPGSV,3,3,11,03,27,063,27,06,17,051,24,51,00,000,36*4C
$GPRMC,214521.000,A,3748.8026,N,12217.8591,W,0.14,123.36,180610,,,A*75
$GPGGA,214522.000,3748.8025,N,12217.8591,W,1,07,1.2,-1.5,M,-25.1,M,,0000*4F
$GPGSA,A,3,28,19,23,13,10,08,05,,,,,,2.8,1.2,2.5*31
$GPRMC,214522.000,A,3748.8025,N,12217.8591,W,0.08,90.27,180610,,,A*41
$GPVTG,90.27,T,,M,0.08,N,0.2,K,A*3B
$GPGGA,214523.000,3748.8024,N,12217.8590,W,1,07,1.2,-1.6,M,-25.1,M,,0000*4D
$GPGSA,A,3,28,19,23,13,10,08,05,,,,,,2.8,1.2,2.5*31
$GPRMC,214523.000,A,3748.8024,N,12217.8590,W,0.06,76.54,180610,,,A*42
$GPVTG,76.54,T,,M,0.06,N,0.1,K,A*3A
$GPGGA,214524.000,3748.8023,N,12217.8590,W,1,07,1.2,-1.6,M,-25.1,M,,0000*4D
$GPGSA,A,3,28,19,23,13,10,08,05,,,,,,2.8,1.2,2.5*31
$GPRMC,214524.000,A,3748.8023,N,12217.8590,W,0.11,131.79,180610,,,A*79
$GPVTG,131.79,T,,M,0.11,N,0.2,K,A*02
$GPGGA,214525.000,3748.8022,N,12217.8589,W,1,07,1.2,-1.6,M,-25.1,M,,0000*45
$GPGSA,A,3,28,19,23,13,10,08,05,,,,,,2.8,1.2,2.5*31
$GPRMC,214525.000,A,3748.8022,N,12217.8589,W,0.08,83.27,180610,,,A*4A
$GPVTG,83.27,T,,M,0.08,N,0.1,K,A*3A
$GPGGA,214526.000,3748.8022,N,12217.8589,W,1,07,1.2,-1.6,M,-25.1,M,,0000*46
$GPGSA,A,3,28,19,23,13,10,08,05,,,,,,2.8,1.2,2.5*31
$GPGSV,3,1,11,13,60,125,39,08,43,291,37,10,35,278,33,23,32,133,39*73
$GPGSV,3,2,11,28,32,218,36,19,30,096,30,05,18,311,24,07,66,351,41*76
$GPGSV,3,3,11,03,27,063,28,06,17,051,20,51,00,000,36*47
$GPRMC,214526.000,A,3748.8022,N,12217.8589,W,0.10,26.18,180610,,,A*43
$GPVTG,26.18,T,,M,0.10,N,0.2,K,A*33
$GPGGA,214527.000,3748.8020,N,12217.8589,W,1,07,1.2,-1.4,M,-25.1,M,,0000*47
$GPGSA,A,3,28,19,23,13,10,08,05,,,,,,2.8,1.2,2.5*31
$GPRMC,214527.000,A,3748.8020,N,12217.8589,W,0.21,148.03,180610,,,A*71
$GPVTG,148.03,T,,M,0.21,N,0.4,K,A*04
$GPGGA,214528.000,3748.8019,N,12217.8588,W,1,07,1.2,-1.3,M,-25.1,M,,0000*44
$GPGSA,A,3,28,19,23,13,10,08,05,,,,,,2.8,1.2,2.5*31
$GPRMC,214528.000,A,3748.8019,N,12217.8588,W,0.12,144.07,180610,,,A*7D
$GPVTG,144.07,T,,M,0.12,N,0.2,K,A*0A
$GPGGA,214529.000,3748.8018,N,12217.8588,W,1,07,1.2,-1.3,M,-25.1,M,,0000*44
$GPGSA,A,3,28,19,23,13,10,08,05,,,,,,2.8,1.2,2.5*31
$GPRMC,214529.000,A,3748.8018,N,12217.8588,W,0.08,36.64,180610,,,A*47
$GPVTG,36.64,T,,M,0.08,N,0.1,K,A*33
$GPGGA,214530.000,3748.8018,N,12217.8588,W,1,07,1.2,-1.3,M,-25.1,M,,0000*4C
$GPGSA,A,3,28,19,23,13,10,08,05,,,,,,2.8,1.2,2.5*31
$GPRMC,214530.000,A,3748.8018,N,12217.8588,W,0.11,47.99,180610,,,A*43
$GPVTG,47.99,T,,M,0.11,N,0.2,K,A*3C
$GPGGA,214531.000,3748.8018,N,12217.8588,W,1,07,1.2,-1.4,M,-25.1,M,,0000*4A
$GPGSA,A,3,28,19,23,13,10,08,05,,,,,,2.8,1.2,2.5*31
$GPGSV,3,1,11,13,60,125,39,08,43,291,38,10,35,278,34,23,32,133,39*7B
$GPGSV,3,2,11,28,32,218,36,19,30,096,25,05,18,311,25,07,66,351,41*73
$GPGSV,3,3,11,03,27,063,22,06,17,051,20,51,00,000,35*4E
$GPRMC,214531.000,A,3748.8018,N,12217.8588,W,0.10,49.32,180610,,,A*4C
$GPVTG,49.32,T,,M,0.10,N,0.2,K,A*32
$GPGGA,214532.000,3748.8018,N,12217.8587,W,1,07,1.2,-1.5,M,-25.1,M,,0000*47
$GPGSA,A,3,28,19,23,13,10,08,05,,,,,,2.8,1.2,2.5*31
$GPRMC,214532.000,A,3748.8018,N,12217.8587,W,0.09,81.35,180610,,,A*4B
$GPVTG,81.35,T,,M,0.09,N,0.2,K,A*39
$GPGGA,214533.000,3748.8017,N,12217.8587,W,1,08,1.1,-1.8,M,-25.1,M,,0000*48
$GPGSA,A,3,28,19,23,13,10,08,07,05,,,,,2.2,1.1,1.9*30
$GPRMC,214533.000,A,3748.8017,N,12217.8587,W,0.08,101.27,180610,,,A*7E
$GPVTG,101.27,T,,M,0.08,N,0.2,K,A*02
$GPGGA,214534.000,3748.8016,N,12217.8587,W,1,08,1.1,-1.9,M,-25.1,M,,0000*4F
$GPGSA,A,3,28,19,23,13,10,08,07,05,,,,,2.2,1.1,1.9*30
$GPRMC,214534.000,A,3748.8016,N,12217.8587,W,0.12,127.07,180610,,,A*75
$GPVTG,127.07,T,,M,0.12,N,0.2,K,A*0F
$GPGGA,214535.000,3748.8016,N,12217.8587,W,1,08,1.1,-2.0,M,-25.1,M,,0000*44
$GPGSA,A,3,28,19,23,13,10,08,07,05,,,,,2.2,1.1,1.9*30
$GPRMC,214535.000,A,3748.8016,N,12217.8587,W,0.05,123.96,180610,,,A*7E
$GPVTG,123.96,T,,M,0.05,N,0.1,K,A*06
$GPGGA,214536.000,3748.8016,N,12217.8587,W,1,08,1.1,-2.3,M,-25.1,M,,0000*44
$GPGSA,A,3,28,19,23,13,10,08,07,05,,,,,2.2,1.1,1.9*30
$GPGSV,3,1,11,07,66,351,41,13,59,125,39,08,43,292,39,10,35,278,36*7F
$GPGSV,3,2,11,23,32,133,35,28,32,218,36,19,30,095,25,03,27,063,22*79
$GPGSV,3,3,11,05,18,310,25,06,17,051,20,51,43,156,36*42
$GPVTG,92.83,T,,M,0.12,N,0.2,K,A*3C
$GPGGA,214537.000,3748.8015,N,12217.8587,W,1,08,1.1,-2.4,M,-25.1,M,,0000*41
$GPGSA,A,3,28,19,23,13,10,08,07,05,,,,,2.2,1.1,1.9*30
$GPRMC,214537.000,A,3748.8015,N,12217.8587,W,0.11,116.28,180610,,,A*79
$GPVTG,116.28,T,,M,0.11,N,0.2,K,A*03
$GPGGA,214538.000,3748.8015,N,12217.8587,W,1,08,1.1,-2.4,M,-25.1,M,,0000*4E
$GPGSA,A,3,28,19,23,13,10,08,07,05,,,,,2.2,1.1,1.9*30
$GPRMC,214538.000,A,3748.8015,N,12217.8587,W,0.10,100.15,180610,,,A*7E
$GPVTG,100.15,T,,M,0.10,N,0.2,K,A*0B
$GPGGA,214539.000,3748.8015,N,12217.8587,W,1,08,1.1,-2.5,M,-25.1,M,,0000*4E
$GPGSA,A,3,28,19,23,13,10,08,07,05,,,,,2.2,1.1,1.9*30
$GPRMC,214539.000,A,3748.8015,N,12217.8587,W,0.07,102.58,180610,,,A*72
$GPVTG,102.58,T,,M,0.07,N,0.1,K,A*05
$GPGGA,214540.000,3748.8015,N,12217.8587,W,1,08,1.1,-2.5,M,-25.1,M,,0000*40
$GPGSA,A,3,28,19,23,13,10,08,07,05,,,,,2.2,1.1,1.9*30
$GPRMC,214540.000,A,3748.8015,N,12217.8587,W,0.08,107.84,180610,,,A*77
$GPVTG,107.84,T,,M,0.08,N,0.1,K,A*0E
$GPGGA,214541.000,3748.8014,N,12217.8587,W,1,08,1.1,-2.7,M,-25.1,M,,0000*42
$GPGSA,A,3,28,19,23,13,10,08,07,05,,,,,2.2,1.1,1.9*30
$GPGSV,3,1,11,07,66,351,41,13,59,125,39,08,43,292,39,10,35,278,37*7E
$GPGSV,3,2,11,23,32,133,34,28,32,218,36,19,30,095,29,03,27,063,22*74
$GPGSV,3,3,11,05,18,310,29,06,17,051,21,51,43,156,36*4F
$GPRMC,214541.000,A,3748.8014,N,12217.8587,W,0.13,108.71,180610,,,A*78
$GPVTG,108.71,T,,M,0.13,N,0.2,K,A*02
$GPGGA,214542.000,3748.8012,N,12217.8588,W,1,08,1.1,-1.8,M,-25.1,M,,0000*44
$GPGSA,A,3,28,19,23,13,10,08,07,05,,,,,2.2,1.1,1.9*30
$GPRMC,214542.000,A,3748.8012,N,12217.8588,W,0.85,114.11,180610,,,A*76
$GPVTG,114.11,T,,M,0.85,N,1.6,K,A*03
$GPGGA,214543.000,3748.8011,N,12217.8587,W,1,08,1.1,-1.9,M,-25.1,M,,0000*48
$GPGSA,A,3,28,19,23,13,10,08,07,05,,,,,2.2,1.1,1.9*30
$GPRMC,214543.000,A,3748.8011,N,12217.8587,W,0.30,147.49,180610,,,A*7E
$GPVTG,147.49,T,,M,0.30,N,0.6,K,A*07
$GPGGA,214544.000,3748.8010,N,12217.8584,W,1,08,1.1,-2.1,M,-25.1,M,,0000*46
$GPGSA,A,3,28,19,23,13,10,08,07,05,,,,,2.2,1.1,1.9*30
$GPRMC,214544.000,A,3748.8010,N,12217.8584,W,1.43,121.62,180610,,,A*77
$GPVTG,121.62,T,,M,1.43,N,2.7,K,A*08
$GPGGA,214545.000,3748.8006,N,12217.8579,W,1,08,1.1,-1.9,M,-25.1,M,,0000*49
$GPGSA,A,3,28,19,23,13,10,08,07,05,,,,,2.2,1.1,1.9*30
$GPRMC,214545.000,A,3748.8006,N,12217.8579,W,1.95,137.31,180610,,,A*79
$GPVTG,137.31,T,,M,1.95,N,3.6,K,A*02
$GPGGA,214546.000,3748.8001,N,12217.8575,W,1,08,1.1,-1.7,M,-25.1,M,,0000*4F
$GPGSA,A,3,28,19,23,13,10,08,07,05,,,,,2.2,1.1,1.9*30
$GPGSV,3,1,11,07,66,351,37,13,59,125,40,08,43,292,39,10,35,278,37*71
$GPGSV,3,2,11,23,32,134,36,28,32,218,37,19,30,095,35,03,27,063,35*7B
$GPGSV,3,3,11,05,18,310,30,06,17,051,28,51,43,156,38*40
$GPRMC,214546.000,A,3748.8001,N,12217.8575,W,1.78,151.97,180610,,,A*7E
$GPVTG,151.97,T,,M,1.78,N,3.3,K,A*08
$GPGGA,214547.000,3748.7995,N,12217.8572,W,1,08,1.1,-0.9,M,-25.1,M,,0000*4D
$GPGSA,A,3,28,19,23,13,10,08,07,05,,,,,2.2,1.1,1.9*30
$GPRMC,214547.000,A,3748.7995,N,12217.8572,W,1.90,148.64,180610,,,A*71
$GPVTG,148.64,T,,M,1.90,N,3.5,K,A*0C
$GPGGA,214548.000,3748.7989,N,12217.8568,W,1,08,1.1,-0.3,M,-25.1,M,,0000*4E
$GPGSA,A,3,28,19,23,13,10,08,07,05,,,,,2.2,1.1,1.9*30
$GPRMC,214548.000,A,3748.7989,N,12217.8568,W,1.88,137.48,180610,,,A*77
$GPVTG,137.48,T,,M,1.88,N,3.5,K,A*03
$GPGGA,214549.000,3748.7984,N,12217.8564,W,1,08,1.1,0.1,M,-25.1,M,,0000*61
$GPGSA,A,3,28,19,23,13,10,08,07,05,,,,,2.2,1.1,1.9*30
$GPRMC,214549.000,A,3748.7984,N,12217.8564,W,1.54,140.20,180610,,,A*78
$GPVTG,140.20,T,,M,1.54,N,2.9,K,A*01
$GPGGA,214550.000,3748.7981,N,12217.8560,W,1,08,1.1,0.4,M,-25.1,M,,0000*6D
$GPGSA,A,3,28,19,23,13,10,08,07,05,,,,,2.2,1.1,1.9*30
$GPRMC,214550.000,A,3748.7981,N,12217.8560,W,1.31,129.32,180610,,,A*7E
$GPVTG,129.32,T,,M,1.31,N,2.4,K,A*03
$GPGGA,214551.000,3748.7978,N,12217.8556,W,1,08,1.1,0.8,M,-25.1,M,,0000*63
$GPGSA,A,3,28,19,23,13,10,08,07,05,,,,,2.2,1.1,1.9*30
$GPGSV,3,1,11,07,66,351,39,13,59,125,39,08,43,292,39,10,35,278,37*71
$GPGSV,3,2,11,23,32,134,36,28,32,218,36,19,30,095,34,03,27,063,34*7A
$GPRMC,214551.000,A,3748.7978,N,12217.8556,W,1.38,133.69,180610,,,A*70
$GPVTG,133.69,T,,M,1.38,N,2.6,K,A*0D
$GPGGA,214552.000,3748.7973,N,12217.8559,W,1,08,1.1,2.1,M,-25.1,M,,0000*6F
$GPGSA,A,3,28,19,23,13,10,08,07,05,,,,,2.2,1.1,1.9*30
$GPRMC,214552.000,A,3748.7973,N,12217.8559,W,0.79,218.21,180610,,,A*75
$GPVTG,218.21,T,,M,0.79,N,1.5,K,A*0F
$GPGGA,214553.000,3748.7969,N,12217.8560,W,1,08,1.1,2.2,M,-25.1,M,,0000*6C
$GPGSA,A,3,28,19,23,13,10,08,07,05,,,,,2.2,1.1,1.9*30
$GPRMC,214553.000,A,3748.7969,N,12217.8560,W,1.78,199.13,180610,,,A*7E
$GPVTG,199.13,T,,M,1.78,N,3.3,K,A*00
$GPGGA,214554.000,3748.7962,N,12217.8565,W,1,08,1.1,3.3,M,-25.1,M,,0000*65
$GPGSA,A,3,28,19,23,13,10,08,07,05,,,,,2.2,1.1,1.9*30
$GPRMC,214554.000,A,3748.7962,N,12217.8565,W,1.85,198.70,180610,,,A*71
$GPVTG,198.70,T,,M,1.85,N,3.4,K,A*01
$GPGGA,214555.000,3748.7957,N,12217.8568,W,1,08,1.1,4.1,M,-25.1,M,,0000*6A
$GPGSA,A,3,28,19,23,13,10,08,07,05,,,,,2.2,1.1,1.9*30
$GPRMC,214555.000,A,3748.7957,N,12217.8568,W,1.10,192.84,180610,,,A*76
$GPVTG,192.84,T,,M,1.10,N,2.0,K,A*09
$GPGGA,214556.000,3748.7953,N,12217.8570,W,1,08,1.1,4.9,M,-25.1,M,,0000*6C
$GPGSA,A,3,28,19,23,13,10,08,07,05,,,,,2.2,1.1,1.9*30
$GPGSV,3,1,11,07,66,351,39,13,59,125,40,08,43,292,39,10,35,278,38*70
$GPGSV,3,2,11,23,32,134,37,28,32,218,36,19,30,095,35,03,27,063,28*77
$GPGSV,3,3,11,05,18,310,36,06,17,051,25,51,43,156,39*4A
$GPRMC,214556.000,A,3748.7953,N,12217.8570,W,0.52,202.11,180610,,,A*79
$GPVTG,202.11,T,,M,0.52,N,1.0,K,A*0B
$GPGGA,214557.000,3748.7952,N,12217.8572,W,1,08,1.1,5.5,M,-25.1,M,,0000*63
$GPGSA,A,3,28,19,23,13,10,08,07,05,,,,,2.2,1.1,1.9*30
$GPRMC,214557.000,A,3748.7952,N,12217.8572,W,0.16,159.97,180610,,,A*78
$GPVTG,159.97,T,,M,0.16,N,0.3,K,A*0A
$GPGGA,214558.000,3748.7950,N,12217.8573,W,1,08,1.1,6.1,M,-25.1,M,,0000*68
$GPGSA,A,3,28,19,23,13,10,08,07,05,,,,,2.2,1.1,1.9*30
$GPRMC,214558.000,A,3748.7950,N,12217.8573,W,0.30,200.60,180610,,,A*77
$GPVTG,200.60,T,,M,0.30,N,0.6,K,A*0C
$GPGGA,214559.000,3748.7948,N,12217.8574,W,2,08,1.1,6.6,M,-25.1,M,,0000*63
$GPGSA,A,3,28,19,23,13,10,08,07,05,,,,,2.2,1.1,1.9*30
$GPRMC,214559.000,A,3748.7948,N,12217.8574,W,0.12,161.40,180610,,,D*7B
$GPVTG,161.40,T,,M,0.12,N,0.2,K,D*0B
$GPGGA,214600.000,3748.7947,N,12217.8576,W,2,08,1.1,7.0,M,-25.1,M,2.8,0000*42
$GPGSA,A,3,28,19,23,13,10,08,07,05,,,,,2.3,1.1,1.9*31
$GPRMC,214600.000,A,3748.7947,N,12217.8576,W,0.03,229.85,180610,,,D*7F
$GPVTG,229.85,T,,M,0.03,N,0.1,K,D*0E
$GPGGA,214601.000,3748.7945,N,12217.8576,W,2,08,1.1,7.3,M,-25.1,M,,0000*66
$GPGSA,A,3,28,19,23,13,10,08,07,05,,,,,2.3,1.1,1.9*31
$GPGSV,3,1,11,07,66,351,39,13,59,125,40,08,43,292,39,10,35,278,38*70
$GPGSV,3,2,11,23,32,134,37,28,32,218,36,19,30,095,36,03,27,063,37*7A
$GPGSV,3,3,11,05,18,310,31,06,17,051,35,51,43,156,37*42
$GPRMC,214601.000,A,3748.7945,N,12217.8576,W,0.15,90.72,180610,,,D*43
$GPVTG,90.72,T,,M,0.15,N,0.3,K,D*33
$GPGGA,214602.000,3748.7944,N,12217.8577,W,2,08,1.1,7.6,M,-25.1,M,,0000*60
$GPGSA,A,3,28,19,23,13,10,08,07,05,,,,,2.3,1.1,1.9*31
$GPRMC,214602.000,A,3748.7944,N,12217.8577,W,0.06,103.98,180610,,,D*7D
$GPVTG,103.98,T,,M,0.06,N,0.1,K,D*0C
$GPGGA,214603.000,3748.7943,N,12217.8578,W,2,08,1.1,7.9,M,-25.1,M,,0000*66
$GPGSA,A,3,28,19,23,13,10,08,07,05,,,,,2.3,1.1,1.9*31
$GPRMC,214603.000,A,3748.7943,N,12217.8578,W,0.06,193.30,180610,,,D*7F
$GPVTG,193.30,T,,M,0.06,N,0.1,K,D*07
$GPGGA,214604.000,3748.7941,N,12217.8579,W,2,08,1.1,8.2,M,-25.1,M,,0000*66
$GPGSA,A,3,28,19,23,13,10,08,07,05,,,,,2.3,1.1,1.9*31
$GPRMC,214604.000,A,3748.7941,N,12217.8579,W,0.31,221.95,180610,,,D*7A
$GPVTG,221.95,T,,M,0.31,N,0.6,K,D*01
$GPGGA,214605.000,3748.7939,N,12217.8580,W,2,08,1.1,8.5,M,-25.1,M,,0000*69
$GPGSA,A,3,28,19,23,13,10,08,07,05,,,,,2.3,1.1,1.9*31
$GPRMC,214605.000,A,3748.7939,N,12217.8580,W,0.63,146.17,180610,,,D*7D
$GPVTG,146.17,T,,M,0.63,N,1.2,K,D*0B
$GPGGA,214606.000,3748.7938,N,12217.8581,W,2,08,1.1,8.8,M,-25.1,M,2.8,0000*43
$GPGSA,A,3,28,19,23,13,10,08,07,05,,,,,2.3,1.1,1.9*31
$GPGSV,3,1,11,07,66,351,39,13,59,125,40,08,43,292,40,10,35,278,38*7E
$GPGSV,3,2,11,23,32,134,38,28,32,218,36,19,30,095,36,03,27,063,32*70
$GPGSV,3,3,11,05,18,310,30,06,17,051,22,51,43,156,37*45
$GPRMC,214606.000,A,3748.7938,N,12217.8581,W,0.17,235.52,180610,,,D*7B
$GPVTG,235.52,T,,M,0.17,N,0.3,K,D*0E
$GPGGA,214607.000,3748.7937,N,12217.8582,W,2,08,1.1,9.1,M,-25.1,M,3.8,0000*47
$GPGSA,A,3,28,19,23,13,10,08,07,05,,,,,2.3,1.1,1.9*31
$GPRMC,214607.000,A,3748.7937,N,12217.8582,W,0.21,273.44,180610,,,D*76
$GPVTG,273.44,T,,M,0.21,N,0.4,K,D*09
$GPGGA,214608.000,3748.7936,N,12217.8583,W,2,08,1.1,9.3,M,-25.1,M,,0000*6F
$GPGSA,A,3,28,19,23,13,10,08,07,05,,,,,2.3,1.1,1.9*31
$GPRMC,214608.000,A,3748.7936,N,12217.8583,W,0.12,152.61,180610,,,D*7E
$GPVTG,152.61,T,,M,0.12,N,0.2,K,D*08
$GPGGA,214609.000,3748.7935,N,12217.8583,W,2,08,1.1,9.5,M,-25.1,M,,0000*6B
$GPGSA,A,3,28,19,23,13,10,08,07,05,,,,,2.3,1.1,1.9*31
$GPRMC,214609.000,A,3748.7935,N,12217.8583,W,0.11,130.77,180610,,,D*7C
$GPVTG,130.77,T,,M,0.11,N,0.2,K,D*08
$GPGGA,214610.000,3748.7934,N,12217.8584,W,2,08,1.1,9.7,M,-25.1,M,,0000*67
$GPGSA,A,3,28,19,23,13,10,08,07,05,,,,,2.3,1.1,1.9*31
$GPRMC,214610.000,A,3748.7934,N,12217.8584,W,0.14,116.28,180610,,,D*79
$GPVTG,116.28,T,,M,0.14,N,0.3,K,D*02
$GPGGA,214611.000,3748.7933,N,12217.8583,W,2,08,1.1,9.9,M,-25.1,M,,0000*68
$GPGSA,A,3,28,19,23,13,10,08,07,05,,,,,2.3,1.1,1.9*31
$GPGSV,3,1,11,07,66,351,39,13,59,125,40,08,43,292,39,10,35,278,38*70
$GPGSV,3,2,11,23,32,134,38,28,32,218,36,19,30,095,35,03,27,063,36*77
$GPGSV,3,3,11,05,18,310,31,06,17,051,23,51,43,156,35*47
$GPRMC,214611.000,A,3748.7933,N,12217.8583,W,0.31,111.56,180610,,,D*71
$GPGGA,214612.000,3748.7932,N,12217.8583,W,2,08,1.1,10.1,M,-25.1,M,2.8,0000*7E
$GPGSA,A,3,28,19,23,13,10,08,07,05,,,,,2.3,1.1,1.9*31
$GPRMC,214612.000,A,3748.7932,N,12217.8583,W,0.39,107.70,180610,,,D*78
$GPVTG,107.70,T,,M,0.39,N,0.7,K,D*04
$GPGGA,214613.000,3748.7932,N,12217.8582,W,2,08,1.1,10.3,M,-25.1,M,3.8,0000*7D
$GPGSA,A,3,28,19,23,13,10,08,07,05,,,,,2.3,1.1,1.9*31
$GPRMC,214613.000,A,3748.7932,N,12217.8582,W,0.09,90.47,180610,,,D*40
$GPVTG,90.47,T,,M,0.09,N,0.2,K,D*39
$GPGGA,214614.000,3748.7931,N,12217.8583,W,2,08,1.1,10.5,M,-25.1,M,,0000*5B
$GPGSA,A,3,28,19,23,13,10,08,07,05,,,,,2.3,1.1,1.9*31
$GPRMC,214614.000,A,3748.7931,N,12217.8583,W,0.04,1.74,180610,,,D*70
$GPVTG,1.74,T,,M,0.04,N,0.1,K,D*0F
$GPGGA,214615.000,3748.7932,N,12217.8583,W,2,08,1.1,10.6,M,-25.1,M,,0000*5A
$GPGSA,A,3,28,19,23,13,10,08,07,05,,,,,2.3,1.1,1.9*31
$GPRMC,214615.000,A,3748.7932,N,12217.8583,W,0.43,56.14,180610,,,D*45
$GPVTG,56.14,T,,M,0.43,N,0.8,K,D*31
$GPGGA,214616.000,3748.7932,N,12217.8582,W,2,08,1.1,10.6,M,-25.1,M,,0000*58
$GPGSA,A,3,28,19,23,13,10,08,07,05,,,,,2.3,1.1,1.9*31
$GPGSV,3,1,11,07,66,352,39,13,59,125,40,08,43,292,33,10,35,278,30*71
$GPGSV,3,2,11,28,32,218,37,23,32,134,38,19,30,095,36,03,27,062,35*77
$GPGSV,3,3,11,05,18,310,29,06,17,050,30,51,43,156,38*40
$GPRMC,214616.000,A,3748.7932,N,12217.8582,W,0.41,40.55,180610,,,D*47
$GPVTG,40.55,T,,M,0.41,N,0.8,K,D*31
$GPGGA,214617.000,3748.7932,N,12217.8582,W,2,08,1.1,10.8,M,-25.1,M,2.8,0000*73
$GPGSA,A,3,28,19,23,13,10,08,07,05,,,,,2.3,1.1,1.9*31
$GPRMC,214617.000,A,3748.7932,N,12217.8582,W,0.53,48.84,180610,,,D*41
$GPVTG,48.84,T,,M,0.53,N,1.0,K,D*3F
$GPGGA,214618.000,3748.7933,N,12217.8581,W,2,08,1.1,11.1,M,-25.1,M,3.8,0000*77
$GPGSA,A,3,28,19,23,13,10,08,07,05,,,,,2.3,1.1,1.9*31
$GPRMC,214618.000,A,3748.7933,N,12217.8581,W,0.78,50.41,180610,,,D*45
$GPVTG,50.41,T,,M,0.78,N,1.4,K,D*32
$GPGGA,214619.000,3748.7935,N,12217.8578,W,2,08,1.1,11.3,M,-25.1,M,4.8,0000*73
$GPGSA,A,3,28,19,23,13,10,08,07,05,,,,,2.3,1.1,1.9*31
$GPRMC,214619.000,A,3748.7935,N,12217.8578,W,1.06,349.46,180610,,,D*70
$GPVTG,349.46,T,,M,1.06,N,2.0,K,D*01
$GPGGA,214620.000,3748.7937,N,12217.8578,W,2,08,1.1,11.4,M,-25.1,M,,0000*5E
$GPGSA,A,3,28,19,23,13,10,08,07,05,,,,,2.3,1.1,1.9*31
$GPRMC,214620.000,A,3748.7937,N,12217.8578,W,0.89,332.06,180610,,,D*76
$GPVTG,332.06,T,,M,0.89,N,1.7,K,D*0B
$GPGGA,214621.000,3748.7939,N,12217.8578,W,2,09,1.0,11.6,M,-25.1,M,,0000*53
$GPGSA,A,3,28,03,19,23,13,10,08,07,05,,,,2.1,1.0,1.8*30
$GPGSV,3,1,11,07,66,352,38,13,59,125,40,08,43,292,37,10,35,278,38*7C
$GPGSV,3,2,11,28,32,218,32,23,32,134,39,19,30,095,36,03,27,062,35*73
$GPGSV,3,3,11,05,18,310,33,06,17,050,29,51,43,156,37*4C
$GPRMC,214621.000,A,3748.7939,N,12217.8578,W,0.86,344.28,180610,,,D*7B
$GPVTG,344.28,T,,M,0.86,N,1.6,K,D*08
$GPGGA,214622.000,3748.7941,N,12217.8578,W,2,09,1.0,11.7,M,-25.1,M,,0000*5E
$GPGSA,A,3,28,03,19,23,13,10,08,07,05,,,,2.1,1.0,1.8*30
$GPRMC,214622.000,A,3748.7941,N,12217.8578,W,1.18,329.17,180610,,,D*76
$GPVTG,329.17,T,,M,1.18,N,2.2,K,D*0E
$GPGGA,214623.000,3748.7944,N,12217.8579,W,2,09,1.0,11.9,M,-25.1,M,2.8,0000*71
$GPGSA,A,3,28,03,19,23,13,10,08,07,05,,,,2.1,1.0,1.8*30
$GPRMC,214623.000,A,3748.7944,N,12217.8579,W,1.43,339.62,180610,,,D*7E
$GPVTG,339.62,T,,M,1.43,N,2.6,K,D*07
$GPGGA,214624.000,3748.7948,N,12217.8579,W,2,09,1.0,12.1,M,-25.1,M,3.8,0000*70
$GPGSA,A,3,28,03,19,23,13,10,08,07,05,,,,2.1,1.0,1.8*30
$GPRMC,214624.000,A,3748.7948,N,12217.8579,W,1.40,348.62,180610,,,D*70
$GPVTG,348.62,T,,M,1.40,N,2.6,K,D*02
$GPGGA,214625.000,3748.7951,N,12217.8579,W,2,09,1.0,12.3,M,-25.1,M,4.8,0000*7C
$GPGSA,A,3,28,03,19,23,13,10,08,07,05,,,,2.1,1.0,1.8*30
$GPRMC,214625.000,A,3748.7951,N,12217.8579,W,1.16,349.11,180610,,,D*7F
$GPVTG,349.11,T,,M,1.16,N,2.2,K,D*00
$GPGGA,214626.000,3748.7954,N,12217.8579,W,2,09,1.0,12.5,M,-25.1,M,,0000*5E
$GPGSA,A,3,28,03,19,23,13,10,08,07,05,,,,2.1,1.0,1.8*30
$GPGSV,3,1,11,07,66,352,38,13,59,126,40,08,43,292,37,10,35,278,36*71
$GPGSV,3,2,11,28,32,218,31,23,32,134,38,19,30,095,36,03,27,062,34*70
$GPGSV,3,3,11,05,18,310,26,06,17,050,30,51,43,156,29*4F
$GPRMC,214626.000,A,3748.7954,N,12217.8579,W,1.29,346.01,180610,,,D*7B
$GPVTG,346.01,T,,M,1.29,N,2.4,K,D*04
$GPGGA,214627.000,3748.7958,N,12217.8581,W,2,09,1.0,12.8,M,-25.1,M,2.8,0000*7D
$GPGSA,A,3,28,03,19,23,13,10,08,07,05,,,,2.1,1.0,1.8*30
$GPRMC,214627.000,A,3748.7958,N,12217.8581,W,1.48,323.25,180610,,,D*73
$GPVTG,323.25,T,,M,1.48,N,2.7,K,D*05
$GPGGA,214628.000,3748.7962,N,12217.8583,W,2,09,1.0,13.1,M,-25.1,M,3.8,0000*70
$GPGSA,A,3,28,03,19,23,13,10,08,07,05,,,,2.1,1.0,1.8*30
$GPRMC,214628.000,A,3748.7962,N,12217.8583,W,1.46,319.96,180610,,,D*78
$GPVTG,319.96,T,,M,1.46,N,2.7,K,D*0A
$GPGGA,214629.000,3748.7965,N,12217.8587,W,2,09,1.0,13.5,M,-25.1,M,4.8,0000*71
$GPGSA,A,3,28,03,19,23,13,10,08,07,05,,,,2.1,1.0,1.8*30
$GPRMC,214629.000,A,3748.7965,N,12217.8587,W,1.42,306.44,180610,,,D*7F
$GPVTG,306.44,T,,M,1.42,N,2.6,K,D*0E
$GPGGA,214630.000,3748.7964,N,12217.8591,W,2,09,1.0,13.8,M,-25.1,M,5.8,0000*73
$GPGSA,A,3,28,03,19,23,13,10,08,07,05,,,,2.1,1.0,1.8*30
$GPRMC,214630.000,A,3748.7964,N,12217.8591,W,0.94,299.21,180610,,,D*7F
$GPVTG,299.21,T,,M,0.94,N,1.7,K,D*02
$GPGGA,214631.000,3748.7963,N,12217.8593,W,2,09,1.0,14.2,M,-25.1,M,6.8,0000*79
$GPGSA,A,3,28,03,19,23,13,10,08,07,05,,,,2.1,1.0,1.8*30
$GPGSV,3,1,11,07,66,352,38,13,59,126,33,08,43,292,37,10,35,278,34*77
$GPGSV,3,2,11,28,32,218,39,23,32,134,27,19,30,095,30,03,27,062,34*70
$GPGSV,3,3,11,05,18,310,21,06,17,050,25,51,43,156,32*46
$GPRMC,214631.000,A,3748.7963,N,12217.8593,W,0.21,305.88,180610,,,D*72
$GPGGA,214632.000,3748.7961,N,12217.8595,W,2,09,1.0,14.6,M,-25.1,M,,0000*5A
$GPGSA,A,3,28,03,19,23,13,10,08,07,05,,,,2.1,1.0,1.8*30
$GPRMC,214632.000,A,3748.7961,N,12217.8595,W,0.41,270.23,180610,,,D*71
$GPVTG,270.23,T,,M,0.41,N,0.8,K,D*01
$GPGGA,214633.000,3748.7960,N,12217.8596,W,2,09,1.0,14.8,M,-25.1,M,2.8,0000*73
$GPGSA,A,3,28,03,19,23,13,10,08,07,05,,,,2.1,1.0,1.8*30
$GPRMC,214633.000,A,3748.7960,N,12217.8596,W,0.16,281.17,180610,,,D*79
$GPVTG,281.17,T,,M,0.16,N,0.3,K,D*01
$GPGGA,214634.000,3748.7959,N,12217.8596,W,2,09,1.0,15.0,M,-25.1,M,3.8,0000*76
$GPGSA,A,3,28,03,19,23,13,10,08,07,05,,,,2.1,1.0,1.8*30
$GPRMC,214634.000,A,3748.7959,N,12217.8596,W,0.21,135.00,180610,,,D*7A
$GPVTG,135.00,T,,M,0.21,N,0.4,K,D*08
$GPGGA,214635.000,3748.7957,N,12217.8596,W,2,09,1.0,15.2,M,-25.1,M,4.8,0000*7C
$GPGSA,A,3,28,03,19,23,13,10,08,07,05,,,,2.1,1.0,1.8*30
$GPRMC,214635.000,A,3748.7957,N,12217.8596,W,0.24,138.37,180610,,,D*79
$GPVTG,138.37,T,,M,0.24,N,0.4,K,D*04
$GPGGA,214636.000,3748.7956,N,12217.8596,W,2,09,1.0,15.2,M,-25.1,M,5.8,0000*7F
$GPGSA,A,3,28,03,19,23,13,10,08,07,05,,,,2.1,1.0,1.8*30
$GPGSV,3,1,11,07,66,352,38,13,59,126,34,08,43,292,34,10,35,278,34*73
$GPGSV,3,2,11,28,32,218,37,23,32,134,26,19,30,095,24,03,27,062,27*78
$GPGSV,3,3,11,05,18,310,22,06,17,050,26,51,43,156,27*42
$GPRMC,214636.000,A,3748.7956,N,12217.8596,W,0.09,91.79,180610,,,D*4C
$GPVTG,91.79,T,,M,0.09,N,0.2,K,D*35
$GPGGA,214637.000,3748.7958,N,12217.8598,W,2,09,1.0,15.8,M,-25.1,M,6.8,0000*77
$GPGSA,A,3,28,03,19,23,13,10,08,07,05,,,,2.1,1.0,1.8*30
$GPRMC,214637.000,A,3748.7958,N,12217.8598,W,0.08,330.60,180610,,,D*7C
$GPVTG,330.60,T,,M,0.08,N,0.2,K,D*04
$GPGGA,214638.000,3748.7959,N,12217.8600,W,2,09,1.0,16.5,M,-25.1,M,7.8,0000*74
$GPGSA,A,3,28,03,19,23,13,10,08,07,05,,,,2.1,1.0,1.8*30
$GPRMC,214638.000,A,3748.7959,N,12217.8600,W,0.15,138.13,180610,,,D*72
$GPVTG,138.13,T,,M,0.15,N,0.3,K,D*07
$GPGGA,214639.000,3748.7960,N,12217.8602,W,2,09,1.0,17.1,M,-25.1,M,,0000*59
$GPGSA,A,3,28,03,19,23,13,10,08,07,05,,,,2.1,1.0,1.8*30
$GPRMC,214639.000,A,3748.7960,N,12217.8602,W,0.08,35.25,180610,,,D*4E
$GPVTG,35.25,T,,M,0.08,N,0.1,K,D*30
$GPGGA,214640.000,3748.7961,N,12217.8604,W,2,09,1.0,17.8,M,-25.1,M,2.8,0000*7D
$GPGSA,A,3,28,03,19,23,13,10,08,07,05,,,,2.1,1.0,1.8*30
$GPRMC,214640.000,A,3748.7961,N,12217.8604,W,0.05,104.52,180610,,,D*79
$GPVTG,104.52,T,,M,0.05,N,0.1,K,D*0E
$GPGGA,214641.000,3748.7959,N,12217.8605,W,2,09,1.0,18.1,M,-25.1,M,3.8,0000*71
$GPGSA,A,3,28,03,19,23,13,10,08,07,05,,,,2.1,1.0,1.8*30
$GPGSV,3,1,11,07,66,352,38,13,59,126,35,08,43,292,35,10,35,278,35*72
$GPGSV,3,2,11,28,32,218,37,23,32,134,27,19,30,095,25,03,27,062,27*78
$GPGSV,3,3,11,05,18,310,27,06,17,050,30,51,43,156,27*40
$GPRMC,214641.000,A,3748.7959,N,12217.8605,W,0.01,69.42,180610,,,D*4D
$GPVTG,69.42,T,,M,0.01,N,0.0,K,D*30
$GPGGA,214642.000,3748.7958,N,12217.8605,W,2,09,1.0,18.5,M,-25.1,M,4.8,0000*70
$GPGSA,A,3,28,03,19,23,13,10,08,07,05,,,,2.1,1.0,1.8*30
$GPRMC,214642.000,A,3748.7958,N,12217.8605,W,0.02,82.90,180610,,,D*46
$GPVTG,82.90,T,,M,0.02,N,0.0,K,D*39
$GPGGA,214643.000,3748.7957,N,12217.8606,W,2,09,1.0,18.9,M,-25.1,M,5.8,0000*70
$GPGSA,A,3,28,03,19,23,13,10,08,07,05,,,,2.1,1.0,1.8*30
$GPRMC,214643.000,A,3748.7957,N,12217.8606,W,0.03,151.81,180610,,,D*75
$GPVTG,151.81,T,,M,0.03,N,0.1,K,D*06
$GPGGA,214644.000,3748.7956,N,12217.8606,W,2,09,1.0,19.2,M,-25.1,M,6.8,0000*7F
$GPGSA,A,3,28,03,19,23,13,10,08,07,05,,,,2.1,1.0,1.8*30
$GPRMC,214644.000,A,3748.7956,N,12217.8606,W,0.06,341.88,180610,,,D*7C
$GPVTG,341.88,T,,M,0.06,N,0.1,K,D*09
$GPGGA,214645.000,3748.7955,N,12217.8607,W,2,09,1.0,19.5,M,-25.1,M,7.8,0000*7A
$GPGSA,A,3,28,03,19,23,13,10,08,07,05,,,,2.1,1.0,1.8*30
$GPRMC,214645.000,A,3748.7955,N,12217.8607,W,0.08,337.86,180610,,,D*7E
$GPVTG,337.86,T,,M,0.08,N,0.1,K,D*08
$GPGGA,214646.000,3748.7954,N,12217.8608,W,2,09,1.0,19.9,M,-25.1,M,8.8,0000*74
$GPGSA,A,3,28,03,19,23,13,10,08,07,05,,,,2.1,1.0,1.8*30
$GPGSV,3,1,11,07,66,353,38,13,59,126,36,08,43,292,35,10,35,277,35*7F
$GPGSV,3,2,11,28,32,219,37,23,32,134,25,19,30,095,25,03,27,062,28*74
$GPGSV,3,3,11,05,18,310,25,06,17,050,30,51,43,156,25*40
$GPRMC,214646.000,A,3748.7954,N,12217.8608,W,0.07,90.94,180610,,,D*41
$GPVTG,90.94,T,,M,0.07,N,0.1,K,D*3A
$GPGGA,214647.000,3748.7953,N,12217.8608,W,2,09,1.0,20.2,M,-25.1,M,9.8,0000*72
$GPGSA,A,3,28,03,19,23,13,10,08,07,05,,,,2.1,1.0,1.8*30
$GPRMC,214647.000,A,3748.7953,N,12217.8608,W,0.05,42.93,180610,,,D*4D
$GPVTG,42.93,T,,M,0.05,N,0.1,K,D*30
$GPGGA,214648.000,3748.7952,N,12217.8609,W,2,09,1.0,20.6,M,-25.1,M,10.8,0000*41
$GPGSA,A,3,28,03,19,23,13,10,08,07,05,,,,2.1,1.0,1.8*30
$GPRMC,214648.000,A,3748.7952,N,12217.8609,W,0.07,341.57,180610,,,D*78
$GPVTG,341.57,T,,M,0.07,N,0.1,K,D*0A
$GPGGA,214649.000,3748.7952,N,12217.8609,W,2,09,1.0,20.9,M,-25.1,M,11.8,0000*4E
$GPGSA,A,3,28,03,19,23,13,10,08,07,05,,,,2.1,1.0,1.8*30
$GPRMC,214649.000,A,3748.7952,N,12217.8609,W,0.10,18.84,180610,,,D*4E
$GPVTG,18.84,T,,M,0.10,N,0.2,K,D*3E
$GPGGA,214650.000,3748.7951,N,12217.8610,W,2,09,1.0,21.2,M,-25.1,M,12.8,0000*44
$GPGSA,A,3,28,03,19,23,13,10,08,07,05,,,,2.1,1.0,1.8*30
$GPRMC,214650.000,A,3748.7951,N,12217.8610,W,0.11,36.07,180610,,,D*4B
$GPVTG,36.07,T,,M,0.11,N,0.2,K,D*38
$GPGGA,214651.000,3748.7951,N,12217.8610,W,2,09,1.0,21.5,M,-25.1,M,13.8,0000*43
$GPGSA,A,3,28,03,19,23,13,10,08,07,05,,,,2.1,1.0,1.8*30
$GPGSV,3,1,11,07,66,353,38,13,59,126,36,08,43,292,35,10,35,277,34*7E
$GPGSV,3,2,11,28,32,219,36,23,32,134,24,19,30,095,25,03,27,062,29*75
$GPGSV,3,3,11,05,18,310,25,06,17,050,26,51,43,156,23*41
$GPVTG,4.23,T,,M,0.10,N,0.2,K,D*0E
$GPGGA,214652.000,3748.7950,N,12217.8611,W,2,09,1.0,21.8,M,-25.1,M,14.8,0000*4A
$GPGSA,A,3,28,03,19,23,13,10,08,07,05,,,,2.1,1.0,1.8*30
$GPRMC,214652.000,A,3748.7950,N,12217.8611,W,0.10,277.84,180610,,,D*74
$GPVTG,277.84,T,,M,0.10,N,0.2,K,D*05
$GPGGA,214653.000,3748.7950,N,12217.8611,W,2,09,1.0,21.9,M,-25.1,M,15.8,0000*4B
$GPGSA,A,3,28,03,19,23,13,10,08,07,05,,,,2.1,1.0,1.8*30
$GPRMC,214653.000,A,3748.7950,N,12217.8611,W,0.11,148.81,180610,,,D*7E
$GPVTG,148.81,T,,M,0.11,N,0.2,K,D*0E
$GPGGA,214654.000,3748.7949,N,12217.8611,W,2,09,1.0,22.1,M,-25.1,M,16.8,0000*4C
$GPGSA,A,3,28,03,19,23,13,10,08,07,05,,,,2.1,1.0,1.8*30
$GPRMC,214654.000,A,3748.7949,N,12217.8611,W,0.11,136.31,180610,,,D*73
$GPVTG,136.31,T,,M,0.11,N,0.2,K,D*0C
$GPGGA,214655.000,3748.7949,N,12217.8612,W,2,09,1.0,22.2,M,-25.1,M,17.8,0000*4C
$GPGSA,A,3,28,03,19,23,13,10,08,07,05,,,,2.1,1.0,1.8*30
$GPRMC,214655.000,A,3748.7949,N,12217.8612,W,0.05,20.90,180610,,,D*49
$GPVTG,20.90,T,,M,0.05,N,0.1,K,D*37
$GPGGA,214656.000,3748.7951,N,12217.8614,W,2,09,1.0,22.8,M,-25.1,M,18.8,0000*45
$GPGSA,A,3,28,03,19,23,13,10,08,07,05,,,,2.1,1.0,1.8*30
$GPGSV,3,1,11,07,66,353,39,13,59,126,37,08,43,292,36,10,35,277,36*7F
$GPGSV,3,2,11,28,32,219,37,23,32,134,35,19,30,095,32,03,27,062,28*73
$GPGSV,3,3,11,05,18,310,31,06,17,050,30,51,43,156,32*43
$GPRMC,214656.000,A,3748.7951,N,12217.8614,W,0.03,24.02,180610,,,D*4C
$GPVTG,24.02,T,,M,0.03,N,0.1,K,D*3E
$GPGGA,214657.000,3748.7952,N,12217.8616,W,2,09,1.0,23.5,M,-25.1,M,1.8,0000*71
$GPGSA,A,3,28,03,19,23,13,10,08,07,05,,,,2.1,1.0,1.8*30
$GPRMC,214657.000,A,3748.7952,N,12217.8616,W,0.09,215.44,180610,,,D*74
$GPVTG,215.44,T,,M,0.09,N,0.2,K,D*05
$GPGGA,214658.000,3748.7953,N,12217.8618,W,2,09,1.0,24.1,M,-25.1,M,2.8,0000*71
$GPGSA,A,3,28,03,19,23,13,10,08,07,05,,,,2.1,1.0,1.8*30
$GPRMC,214658.000,A,3748.7953,N,12217.8618,W,0.05,110.56,180610,,,D*7D
$GPVTG,110.56,T,,M,0.05,N,0.1,K,D*0F
$GPGGA,214659.000,3748.7953,N,12217.8620,W,2,09,1.0,24.8,M,-25.1,M,3.8,0000*73
$GPGSA,A,3,28,03,19,23,13,10,08,07,05,,,,2.1,1.0,1.8*30
$GPRMC,214659.000,A,3748.7953,N,12217.8620,W,0.06,189.09,180610,,,D*7E
$GPVTG,189.09,T,,M,0.06,N,0.1,K,D*06
$GPGGA,214700.000,3748.7953,N,12217.8622,W,2,09,1.0,25.4,M,-25.1,M,4.8,0000*76
$GPGSA,A,3,28,03,19,23,13,10,08,07,05,,,,2.1,1.0,1.8*30
$GPRMC,214700.000,A,3748.7953,N,12217.8622,W,0.03,27.37,180610,,,D*4C
$GPVTG,27.37,T,,M,0.03,N,0.0,K,D*3A
$GPGGA,214701.000,3748.7953,N,12217.8624,W,2,09,1.0,26.1,M,-25.1,M,5.8,0000*76
$GPGSA,A,3,28,03,19,23,13,10,08,07,05,,,,2.1,1.0,1.8*30
$GPGSV,3,1,11,07,66,353,38,13,59,126,37,08,43,292,36,10,35,277,37*7F
$GPGSV,3,2,11,28,32,219,32,23,32,134,35,19,30,095,31,03,27,062,28*75
$GPGSV,3,3,11,05,18,310,30,06,17,050,23,51,43,156,29*4A
$GPRMC,214701.000,A,3748.7953,N,12217.8624,W,0.03,313.42,180610,,,D*7D
$GPVTG,313.42,T,,M,0.03,N,0.1,K,D*0D
$GPGGA,214702.000,3748.7954,N,12217.8626,W,2,09,1.0,26.7,M,-25.1,M,1.8,0000*72
$GPGSA,A,3,28,03,19,23,13,10,08,07,05,,,,2.1,1.0,1.8*30
$GPRMC,214702.000,A,3748.7954,N,12217.8626,W,0.18,326.85,180610,,,D*7C
$GPVTG,326.85,T,,M,0.18,N,0.3,K,D*08
$GPGGA,214703.000,3748.7953,N,12217.8628,W,2,09,1.0,27.3,M,-25.1,M,2.8,0000*7C
$GPGSA,A,3,28,03,19,23,13,10,08,07,05,,,,2.1,1.0,1.8*30
$GPRMC,214703.000,A,3748.7953,N,12217.8628,W,0.27,205.72,180610,,,D*70
$GPVTG,205.72,T,,M,0.27,N,0.5,K,D*0A
$GPGGA,214704.000,3748.7953,N,12217.8629,W,2,09,1.0,27.1,M,-25.1,M,,0000*5C
$GPGSA,A,3,28,03,19,23,13,10,08,07,05,,,,2.1,1.0,1.8*30
$GPRMC,214704.000,A,3748.7953,N,12217.8629,W,0.26,306.68,180610,,,D*7E
$GPVTG,306.68,T,,M,0.26,N,0.5,K,D*02
$GPGGA,214705.000,3748.7952,N,12217.8629,W,2,09,1.0,26.7,M,-25.1,M,,0000*5B
$GPGSA,A,3,28,03,19,23,13,10,08,07,05,,,,2.1,1.0,1.8*30
$GPRMC,214705.000,A,3748.7952,N,12217.8629,W,0.09,200.29,180610,,,D*71
$GPVTG,200.29,T,,M,0.09,N,0.2,K,D*0A
$GPGGA,214706.000,3748.7952,N,12217.8629,W,2,09,1.0,26.4,M,-25.1,M,2.8,0000*7F
$GPGSA,A,3,28,03,19,23,13,10,08,07,05,,,,2.1,1.0,1.8*30
$GPGSV,3,1,11,07,66,353,39,13,59,126,37,08,43,292,37,10,35,277,37*7F
$GPGSV,3,2,11,28,32,219,33,23,32,134,30,19,30,095,29,03,27,062,24*74
$GPGSV,3,3,11,05,18,310,31,06,17,050,28,51,43,156,33*4B
$GPRMC,214706.000,A,3748.7952,N,12217.8629,W,0.05,75.00,180610,,,D*45
$GPVTG,75.00,T,,M,0.05,N,0.1,K,D*3E
$GPGGA,214707.000,3748.7952,N,12217.8631,W,2,09,1.0,26.8,M,-25.1,M,3.8,0000*7A
$GPGSA,A,3,28,03,19,23,13,10,08,07,05,,,,2.1,1.0,1.8*30
$GPRMC,214707.000,A,3748.7952,N,12217.8631,W,0.13,58.19,180610,,,D*4D
$GPVTG,58.19,T,,M,0.13,N,0.2,K,D*3D
$GPGGA,214708.000,3748.7951,N,12217.8633,W,2,09,1.0,27.4,M,-25.1,M,,0000*5C
$GPGSA,A,3,28,03,19,23,13,10,08,07,05,,,,2.1,1.0,1.8*30
$GPRMC,214708.000,A,3748.7951,N,12217.8633,W,0.24,200.26,180610,,,D*74
$GPVTG,200.26,T,,M,0.24,N,0.4,K,D*0C
$GPGGA,214709.000,3748.7952,N,12217.8634,W,2,09,1.0,28.1,M,-25.1,M,,0000*53
$GPGSA,A,3,28,03,19,23,13,10,08,07,05,,,,2.1,1.0,1.8*30
$GPRMC,214709.000,A,3748.7952,N,12217.8634,W,0.11,196.52,180610,,,D*78
$GPVTG,196.52,T,,M,0.11,N,0.2,K,D*03
$GPGGA,214710.000,3748.7951,N,12217.8635,W,2,09,1.0,28.6,M,-25.1,M,,0000*5E
$GPGSA,A,3,28,03,19,23,13,10,08,07,05,,,,2.1,1.0,1.8*30
$GPRMC,214710.000,A,3748.7951,N,12217.8635,W,0.08,217.04,180610,,,D*73
$GPVTG,217.04,T,,M,0.08,N,0.2,K,D*02
$GPGGA,214711.000,3748.7951,N,12217.8637,W,2,09,1.0,29.0,M,-25.1,M,2.8,0000*7E
$GPGSA,A,3,28,03,19,23,13,10,08,07,05,,,,2.1,1.0,1.8*30
$GPGSV,3,1,11,07,66,353,39,13,59,126,37,08,43,292,38,10,35,277,38*7F
$GPGSV,3,2,11,28,32,219,34,23,32,134,33,19,30,095,29,03,27,062,23*77
$GPGSV,3,3,11,05,18,310,30,06,17,050,28,51,43,156,33*4A
$GPVTG,48.93,T,,M,0.05,N,0.1,K,D*3A
$GPGGA,214712.000,3748.7950,N,12217.8638,W,2,09,1.0,29.5,M,-25.1,M,3.8,0000*77
$GPGSA,A,3,28,03,19,23,13,10,08,07,05,,,,2.1,1.0,1.8*30
$GPRMC,214712.000,A,3748.7950,N,12217.8638,W,0.04,222.80,180610,,,D*7B
$GPVTG,222.80,T,,M,0.04,N,0.1,K,D*07
$GPGGA,214713.000,3748.7949,N,12217.8640,W,2,09,1.0,29.9,M,-25.1,M,4.8,0000*7A
$GPGSA,A,3,28,03,19,23,13,10,08,07,05,,,,2.1,1.0,1.8*30
$GPRMC,214713.000,A,3748.7949,N,12217.8640,W,0.02,176.06,180610,,,D*77
$GPVTG,176.06,T,,M,0.02,N,0.0,K,D*0C
$GPGGA,214714.000,3748.7949,N,12217.8641,W,2,09,1.0,30.3,M,-25.1,M,,0000*5C
$GPGSA,A,3,28,03,19,23,13,10,08,07,05,,,,2.1,1.0,1.8*30
$GPRMC,214714.000,A,3748.7949,N,12217.8641,W,0.05,227.03,180610,,,D*74
$GPVTG,227.03,T,,M,0.05,N,0.1,K,D*08
$GPGGA,214715.000,3748.7948,N,12217.8642,W,2,09,1.0,30.7,M,-25.1,M,,0000*5B
$GPGSA,A,3,28,03,19,23,13,10,08,07,05,,,,2.1,1.0,1.8*30
$GPRMC,214715.000,A,3748.7948,N,12217.8642,W,0.03,0.62,180610,,,D*71
$GPVTG,0.62,T,,M,0.03,N,0.1,K,D*0E
$GPGGA,214716.000,3748.7948,N,12217.8643,W,2,09,1.0,31.0,M,-25.1,M,,0000*5F
$GPGSA,A,3,28,03,19,23,13,10,08,07,05,,,,2.1,1.0,1.8*30
$GPGSV,3,1,11,07,66,353,40,13,59,126,37,08,43,292,37,10,35,277,37*71
$GPGSV,3,2,11,28,32,219,35,23,32,134,32,19,30,095,29,03,27,062,24*70
$GPGSV,3,3,11,05,18,310,25,06,17,050,28,51,43,156,33*4E
$GPRMC,214716.000,A,3748.7948,N,12217.8643,W,0.12,112.25,180610,,,D*72
$GPVTG,112.25,T,,M,0.12,N,0.2,K,D*0C
$GPGGA,214717.000,3748.7947,N,12217.8643,W,2,09,1.0,31.3,M,-25.1,M,2.8,0000*76
$GPGSA,A,3,28,03,19,23,13,10,08,07,05,,,,2.1,1.0,1.9*31
$GPRMC,214717.000,A,3748.7947,N,12217.8643,W,0.10,88.01,180610,,,D*4A
$GPVTG,88.01,T,,M,0.10,N,0.2,K,D*3A
$GPGGA,214718.000,3748.7947,N,12217.8644,W,2,09,1.0,31.6,M,-25.1,M,3.8,0000*7A
$GPGSA,A,3,28,03,19,23,13,10,08,07,05,,,,2.1,1.0,1.9*31
$GPRMC,214718.000,A,3748.7947,N,12217.8644,W,0.07,132.68,180610,,,D*7B
$GPVTG,132.68,T,,M,0.07,N,0.1,K,D*00
$GPGGA,214719.000,3748.7946,N,12217.8645,W,2,09,1.0,31.8,M,-25.1,M,4.8,0000*72
$GPGSA,A,3,28,03,19,23,13,10,08,07,05,,,,2.1,1.0,1.9*31
$GPRMC,214719.000,A,3748.7946,N,12217.8645,W,0.06,111.00,180610,,,D*74
$GPVTG,111.00,T,,M,0.06,N,0.1,K,D*0E
$GPGGA,214720.000,3748.7945,N,12217.8645,W,2,09,1.0,32.1,M,-25.1,M,,0000*53
$GPGSA,A,3,28,03,19,23,13,10,08,07,05,,,,2.1,1.0,1.9*31
$GPRMC,214720.000,A,3748.7945,N,12217.8645,W,0.09,134.51,180610,,,D*71
$GPVTG,134.51,T,,M,0.09,N,0.2,K,D*01
$GPGGA,214721.000,3748.7944,N,12217.8646,W,2,09,1.0,32.3,M,-25.1,M,,0000*52
$GPGSA,A,3,28,03,19,23,13,10,08,07,05,,,,2.1,1.0,1.9*31
$GPGSV,3,1,11,07,66,353,40,13,59,126,37,08,43,292,37,10,35,277,37*71
$GPGSV,3,2,11,28,32,219,35,23,32,134,32,19,30,095,29,03,27,062,28*7C
$GPGSV,3,3,11,05,18,310,25,06,17,050,27,51,43,156,32*40
$GPRMC,214721.000,A,3748.7944,N,12217.8646,W,0.11,164.22,180610,,,D*7A
$GPVTG,164.22,T,,M,0.11,N,0.2,K,D*09
$GPGGA,214722.000,3748.7943,N,12217.8647,W,2,09,1.0,32.6,M,-25.1,M,,0000*52
$GPGSA,A,3,28,03,19,23,13,10,08,07,05,,,,2.1,1.0,1.9*31
$GPRMC,214722.000,A,3748.7943,N,12217.8647,W,0.12,165.88,180610,,,D*7D
$GPVTG,165.88,T,,M,0.12,N,0.2,K,D*0B
$GPGGA,214723.000,3748.7942,N,12217.8648,W,2,09,1.0,32.9,M,-25.1,M,,0000*52
$GPGSA,A,3,28,03,19,23,13,10,08,07,05,,,,2.1,1.0,1.9*31
$GPRMC,214723.000,A,3748.7942,N,12217.8648,W,0.16,157.71,180610,,,D*71
$GPVTG,157.71,T,,M,0.16,N,0.3,K,D*09
$GPGGA,214724.000,3748.7941,N,12217.8648,W,2,09,1.0,33.1,M,-25.1,M,,0000*5F
$GPGSA,A,3,28,03,19,23,13,10,08,07,05,,,,2.1,1.0,1.9*31
$GPRMC,214724.000,A,3748.7941,N,12217.8648,W,0.14,160.38,180610,,,D*7E
$GPVTG,160.38,T,,M,0.14,N,0.3,K,D*02
$GPGGA,214725.000,3748.7941,N,12217.8649,W,2,09,1.0,33.3,M,-25.1,M,2.8,0000*79
$GPGSA,A,3,28,03,19,23,13,10,08,07,05,,,,2.1,1.0,1.9*31
$GPRMC,214725.000,A,3748.7941,N,12217.8649,W,0.09,167.57,180610,,,D*7C
$GPVTG,167.57,T,,M,0.09,N,0.2,K,D*01
$GPGGA,214726.000,3748.7940,N,12217.8649,W,2,09,1.0,33.5,M,-25.1,M,,0000*59
$GPGSA,A,3,28,03,19,23,13,10,08,07,05,,,,2.1,1.0,1.9*31
$GPGSV,3,1,11,07,66,353,40,13,59,126,38,08,43,292,37,10,35,277,37*7E
$GPGSV,3,2,11,28,32,219,35,23,32,134,32,19,30,095,28,03,27,062,27*72
$GPGSV,3,3,11,05,18,310,24,06,17,050,27,51,43,156,33*40
$GPRMC,214726.000,A,3748.7940,N,12217.8649,W,0.10,140.76,180610,,,D*70
$GPVTG,140.76,T,,M,0.10,N,0.2,K,D*0F
$GPGGA,214727.000,3748.7940,N,12217.8650,W,2,09,1.0,33.8,M,-25.1,M,,0000*5D
$GPGSA,A,3,28,03,19,23,13,10,08,07,05,,,,2.1,1.0,1.9*31
$GPRMC,214727.000,A,3748.7940,N,12217.8650,W,0.14,4.48,180610,,,D*71
$GPVTG,4.48,T,,M,0.14,N,0.3,K,D*06
$GPGGA,214728.000,3748.7943,N,12217.8649,W,2,08,1.1,32.2,M,-25.1,M,,0000*52
$GPGSA,A,3,28,19,23,13,10,08,07,05,,,,,2.3,1.1,2.0*3B
$GPRMC,214728.000,A,3748.7943,N,12217.8649,W,0.05,192.06,180610,,,D*71
$GPVTG,192.06,T,,M,0.05,N,0.1,K,D*00
$GPGGA,214729.000,3748.7943,N,12217.8649,W,2,08,1.1,31.1,M,-25.1,M,2.8,0000*77
$GPGSA,A,3,28,19,23,13,10,08,07,05,,,,,2.3,1.1,2.0*3B
$GPRMC,214729.000,A,3748.7943,N,12217.8649,W,0.09,211.50,180610,,,D*77
$GPVTG,211.50,T,,M,0.09,N,0.2,K,D*04
$GPGGA,214730.000,3748.7943,N,12217.8649,W,2,08,1.1,29.9,M,-25.1,M,3.8,0000*7F
$GPGSA,A,3,28,19,23,13,10,08,07,05,,,,,2.3,1.1,2.0*3B
$GPRMC,214730.000,A,3748.7943,N,12217.8649,W,0.29,288.78,180610,,,D*77
$GPVTG,288.78,T,,M,0.29,N,0.5,K,D*0B
$GPGGA,214731.000,3748.7945,N,12217.8651,W,2,09,1.0,28.7,M,-25.1,M,4.8,0000*79
$GPGSA,A,3,28,03,19,23,13,10,08,07,05,,,,2.1,1.0,1.9*31
$GPGSV,3,1,11,07,66,353,27,13,59,126,26,08,43,292,32,10,35,277,28*7B
$GPGSV,3,2,11,28,32,219,30,23,32,134,21,19,30,095,18,03,27,062,13*71
$GPGSV,3,3,11,05,18,310,22,06,17,050,18,51,43,156,23*4B
$GPVTG,278.42,T,,M,0.52,N,1.0,K,D*05
$GPGGA,214732.000,3748.7945,N,12217.8646,W,2,08,1.1,27.7,M,-25.1,M,5.8,0000*72
$GPGSA,A,3,28,19,23,13,10,08,07,05,,,,,2.3,1.1,2.0*3B
$GPRMC,214732.000,A,3748.7945,N,12217.8646,W,0.25,125.18,180610,,,D*72
$GPVTG,125.18,T,,M,0.25,N,0.5,K,D*05
$GPGGA,214733.000,3748.7946,N,12217.8642,W,2,08,1.1,26.1,M,-25.1,M,6.8,0000*70
$GPGSA,A,3,28,19,23,13,10,08,07,05,,,,,2.3,1.1,2.0*3B
$GPWPL,3748.7946,N,12217.8642,W,00001*63
$ADPMB,5,0
$GPRMC,214733.000,A,3748.7946,N,12217.8642,W,0.21,65.12,180610,,,D*4F
$GPVTG,65.12,T,,M,0.21,N,0.4,K,D*3F
$GPGGA,214734.000,3748.7944,N,12217.8639,W,2,09,1.0,24.2,M,-25.1,M,,0000*58
$GPGSA,A,3,28,03,19,23,13,10,08,07,05,,,,2.1,1.0,1.9*31
$GPRMC,214734.000,A,3748.7944,N,12217.8639,W,0.06,3.81,180610,,,D*79
$GPVTG,3.81,T,,M,0.06,N,0.1,K,D*05
$GPGGA,214735.000,3748.7948,N,12217.8635,W,2,09,1.0,21.5,M,-25.1,M,2.8,0000*7F
$GPGSA,A,3,28,03,19,23,13,10,08,07,05,,,,2.1,1.0,1.9*31
$GPRMC,214735.000,A,3748.7948,N,12217.8635,W,0.12,303.14,180610,,,D*72
$GPVTG,303.14,T,,M,0.12,N,0.2,K,D*0C
$GPGGA,214736.000,3748.7948,N,12217.8636,W,2,08,1.1,20.7,M,-25.1,M,3.8,0000*7D
$GPGSA,A,3,28,19,23,13,10,08,07,05,,,,,2.3,1.1,2.0*3B
$GPGSV,3,1,11,07,66,353,39,13,59,126,37,08,43,292,37,10,35,277,35*7D
$GPGSV,3,2,11,28,32,219,37,23,32,134,28,19,30,095,25,03,27,062,*73
$GPGSV,3,3,11,05,18,310,24,06,17,050,25,51,43,156,32*43
$GPRMC,214736.000,A,3748.7948,N,12217.8636,W,0.32,17.72,180610,,,D*46
$GPVTG,17.72,T,,M,0.32,N,0.6,K,D*3C
$GPGGA,214737.000,3748.7947,N,12217.8636,W,2,09,1.0,19.9,M,-25.1,M,,0000*52
$GPGSA,A,3,28,03,19,23,13,10,08,07,05,,,,2.1,1.0,1.9*31
$GPRMC,214737.000,A,3748.7947,N,12217.8636,W,0.16,85.15,180610,,,D*44
$GPVTG,85.15,T,,M,0.16,N,0.3,K,D*35
$GPGGA,214738.000,3748.7949,N,12217.8632,W,2,09,1.0,17.9,M,-25.1,M,,0000*59
$GPGSA,A,3,28,03,19,23,13,10,08,07,05,,,,2.1,1.0,1.9*31
$GPRMC,214738.000,A,3748.7949,N,12217.8632,W,0.31,72.37,180610,,,D*4C
$GPVTG,72.37,T,,M,0.31,N,0.6,K,D*3D
$GPGGA,214739.000,3748.7951,N,12217.8629,W,2,09,1.0,16.1,M,-25.1,M,,0000*52
$GPGSA,A,3,28,03,19,23,13,10,08,07,05,,,,2.1,1.0,1.9*31
$GPRMC,214739.000,A,3748.7951,N,12217.8629,W,0.15,49.38,180610,,,D*4F
$GPVTG,49.38,T,,M,0.15,N,0.3,K,D*39
$GPGGA,214740.000,3748.7953,N,12217.8626,W,2,09,1.0,14.5,M,-25.1,M,,0000*57
$GPGSA,A,3,28,03,19,23,13,10,08,07,05,,,,2.1,1.0,1.9*31
$GPRMC,214740.000,A,3748.7953,N,12217.8626,W,0.17,55.80,180610,,,D*40
$GPVTG,55.80,T,,M,0.17,N,0.3,K,D*35
$GPGGA,214741.000,3748.7954,N,12217.8624,W,2,09,1.0,12.9,M,-25.1,M,,0000*59
$GPGSA,A,3,28,03,19,23,13,10,08,07,05,,,,2.1,1.0,1.9*31
$GPGSV,3,1,11,07,66,353,38,13,59,126,38,08,43,292,38,10,35,277,35*7C
$GPGSV,3,2,11,28,32,219,37,23,32,134,32,19,30,095,32,03,27,062,27*7B
$GPGSV,3,3,11,05,18,310,27,06,17,050,16,51,43,156,32*40
$GPRMC,214741.000,A,3748.7954,N,12217.8624,W,0.13,49.64,180610,,,D*47
$GPVTG,49.64,T,,M,0.13,N,0.2,K,D*37
$GPGGA,214742.000,3748.7954,N,12217.8624,W,2,09,1.0,12.3,M,-25.1,M,2.8,0000*74
$GPGSA,A,3,28,03,19,23,13,10,08,07,05,,,,2.1,1.0,1.9*31
$GPRMC,214742.000,A,3748.7954,N,12217.8624,W,0.08,94.33,180610,,,D*4C
$GPVTG,94.33,T,,M,0.08,N,0.1,K,D*3C
$GPGGA,214743.000,3748.7955,N,12217.8624,W,2,09,1.0,11.7,M,-25.1,M,,0000*57
$GPGSA,A,3,28,03,19,23,13,10,08,07,05,,,,2.1,1.0,1.9*31
$GPRMC,214743.000,A,3748.7955,N,12217.8624,W,0.18,12.62,180610,,,D*47
$GPVTG,12.62,T,,M,0.18,N,0.3,K,D*35
$GPGGA,214744.000,3748.7956,N,12217.8625,W,2,09,1.0,10.7,M,-25.1,M,,0000*53
$GPGSA,A,3,28,03,19,23,13,10,08,07,05,,,,2.1,1.0,1.9*31
$GPRMC,214744.000,A,3748.7956,N,12217.8625,W,0.04,315.35,180610,,,D*79
$GPVTG,315.35,T,,M,0.04,N,0.1,K,D*0C
$GPGGA,214745.000,3748.7957,N,12217.8624,W,2,09,1.0,9.9,M,-25.1,M,,0000*64
$GPGSA,A,3,28,03,19,23,13,10,08,07,05,,,,2.1,1.0,1.9*31
$GPRMC,214745.000,A,3748.7957,N,12217.8624,W,0.13,200.72,180610,,,D*78
$GPVTG,200.72,T,,M,0.13,N,0.2,K,D*0F
$GPGGA,214746.000,3748.7956,N,12217.8625,W,2,09,1.0,9.6,M,-25.1,M,,0000*68
$GPGSA,A,3,28,03,19,23,13,10,08,07,05,,,,2.1,1.0,1.9*31
$GPGSV,3,1,11,07,66,354,38,13,58,126,38,08,43,293,38,10,35,277,34*7A
$GPGSV,3,2,11,28,33,219,37,23,31,134,33,19,30,094,26,03,26,062,16*7F
$GPGSV,3,3,11,05,18,310,30,06,17,050,25,51,43,156,29*4C
$GPRMC,214746.000,A,3748.7956,N,12217.8625,W,0.67,191.76,180610,,,D*77
$GPVTG,191.76,T,,M,0.67,N,1.2,K,D*02
$GPGGA,214747.000,3748.7955,N,12217.8627,W,2,09,1.0,9.5,M,-25.1,M,2.8,0000*4F
$GPGSA,A,3,28,03,19,23,13,10,08,07,05,,,,2.1,1.0,1.9*31
$GPRMC,214747.000,A,3748.7955,N,12217.8627,W,0.34,235.16,180610,,,D*7A
$GPVTG,235.16,T,,M,0.34,N,0.6,K,D*0A
$GPGGA,214748.000,3748.7957,N,12217.8624,W,2,09,1.0,8.5,M,-25.1,M,3.8,0000*41
$GPGSA,A,3,28,03,19,23,13,10,08,07,05,,,,2.1,1.0,1.9*31
$GPRMC,214748.000,A,3748.7957,N,12217.8624,W,0.76,75.40,180610,,,D*47
$GPVTG,75.40,T,,M,0.76,N,1.4,K,D*3A
$GPGGA,214749.000,3748.7959,N,12217.8622,W,2,09,1.0,7.6,M,-25.1,M,4.8,0000*43
$GPGSA,A,3,28,03,19,23,13,10,08,07,05,,,,2.1,1.0,1.9*31
$GPRMC,214749.000,A,3748.7959,N,12217.8622,W,0.40,343.19,180610,,,D*71
$GPVTG,343.19,T,,M,0.40,N,0.7,K,D*07
$GPGGA,214750.000,3748.7960,N,12217.8620,W,2,09,1.0,6.8,M,-25.1,M,,0000*6E
$GPGSA,A,3,28,03,19,23,13,10,08,07,05,,,,2.1,1.0,1.9*31
$GPRMC,214750.000,A,3748.7960,N,12217.8620,W,0.11,85.29,180610,,,D*4F
$GPVTG,85.29,T,,M,0.11,N,0.2,K,D*3C
$GPGGA,214751.000,3748.7961,N,12217.8619,W,2,09,1.0,6.1,M,-25.1,M,,0000*6D
$GPGSA,A,3,28,03,19,23,13,10,08,07,05,,,,2.1,1.0,1.9*31
$GPGSV,3,1,11,07,66,354,38,13,58,126,38,08,43,293,39,10,35,277,35*7A
$GPGSV,3,2,11,28,33,219,37,23,31,134,33,19,30,094,33,03,26,062,26*78
$GPGSV,3,3,11,05,18,310,32,06,17,050,21,51,43,156,32*40
$GPVTG,66.64,T,,M,0.12,N,0.2,K,D*3B
$GPGGA,214752.000,3748.7963,N,12217.8618,W,2,09,1.0,5.4,M,-25.1,M,,0000*6B
$GPGSA,A,3,28,03,19,23,13,10,08,07,05,,,,2.1,1.0,1.9*31
$GPRMC,214752.000,A,3748.7963,N,12217.8618,W,0.05,227.13,180610,,,D*73
$GPVTG,227.13,T,,M,0.05,N,0.1,K,D*09
$GPGGA,214753.000,3748.7964,N,12217.8618,W,2,09,1.0,4.8,M,-25.1,M,2.8,0000*44
$GPGSA,A,3,28,03,19,23,13,10,08,07,05,,,,2.1,1.0,1.9*31
$GPRMC,214753.000,A,3748.7964,N,12217.8618,W,0.09,93.09,180610,,,D*4F
$GPVTG,93.09,T,,M,0.09,N,0.2,K,D*30
$GPGGA,214754.000,3748.7965,N,12217.8617,W,2,09,1.0,3.8,M,-25.1,M,3.8,0000*4B
$GPGSA,A,3,28,03,19,23,13,10,08,07,05,,,,2.1,1.0,1.9*31
$GPRMC,214754.000,A,3748.7965,N,12217.8617,W,0.24,113.79,180610,,,D*77
$GPVTG,113.79,T,,M,0.24,N,0.4,K,D*07
$GPGGA,214755.000,3748.7965,N,12217.8615,W,2,09,1.0,3.0,M,-25.1,M,4.8,0000*47
$GPGSA,A,3,28,03,19,23,13,10,08,07,05,,,,2.1,1.0,1.9*31
$GPRMC,214755.000,A,3748.7965,N,12217.8615,W,0.12,174.14,180610,,,D*7B
$GPVTG,174.14,T,,M,0.12,N,0.2,K,D*0E
$GPGGA,214756.000,3748.7965,N,12217.8614,W,2,09,1.0,2.3,M,-25.1,M,,0000*65
$GPGSA,A,3,28,03,19,23,13,10,08,07,05,,,,2.1,1.0,1.9*31
$GPGSV,3,1,11,07,66,354,38,13,58,126,39,08,43,293,39,10,35,277,36*78
$GPGSV,3,2,11,28,33,219,31,23,31,134,27,19,30,094,33,03,26,062,24*79
$GPGSV,3,3,11,05,18,310,38,06,17,050,25,51,43,156,30*4C
$GPRMC,214756.000,A,3748.7965,N,12217.8614,W,0.36,134.18,180610,,,D*77
$GPVTG,134.18,T,,M,0.36,N,0.7,K,D*05
$GPGGA,214757.000,3748.7966,N,12217.8613,W,2,09,1.0,1.8,M,-25.1,M,2.8,0000*4C
$GPGSA,A,3,28,03,19,23,13,10,08,07,05,,,,2.1,1.0,1.9*31
$GPRMC,214757.000,A,3748.7966,N,12217.8613,W,0.17,160.45,180610,,,D*78
$GPVTG,160.45,T,,M,0.17,N,0.3,K,D*0B
$GPGGA,214758.000,3748.7967,N,12217.8613,W,2,09,1.0,1.5,M,-25.1,M,,0000*6B
$GPGSA,A,3,28,03,19,23,13,10,08,07,05,,,,2.1,1.0,1.9*31
$GPRMC,214758.000,A,3748.7967,N,12217.8613,W,0.24,26.99,180610,,,D*44
$GPVTG,26.99,T,,M,0.24,N,0.4,K,D*3E
$GPGGA,214759.000,3748.7969,N,12217.8612,W,2,09,1.0,1.2,M,-25.1,M,2.8,0000*46
$GPGSA,A,3,28,03,19,23,13,10,08,07,05,,,,2.1,1.0,1.9*31
$GPRMC,214759.000,A,3748.7969,N,12217.8612,W,0.21,63.70,180610,,,D*49
$GPVTG,63.70,T,,M,0.21,N,0.4,K,D*3D
$GPGGA,214800.000,3748.7970,N,12217.8611,W,2,09,1.0,0.9,M,-25.1,M,3.8,0000*45
$GPGSA,A,3,28,03,19,23,13,10,08,07,05,,,,2.1,1.0,1.9*31
$GPRMC,214800.000,A,3748.7970,N,12217.8611,W,0.12,61.58,180610,,,D*49
$GPVTG,61.58,T,,M,0.12,N,0.2,K,D*33
$GPGGA,214801.000,3748.7971,N,12217.8610,W,2,09,1.0,0.6,M,-25.1,M,4.8,0000*4C
$GPGSA,A,3,28,03,19,23,13,10,08,07,05,,,,2.1,1.0,1.9*31
$GPGSV,3,1,11,07,66,354,32,13,58,126,38,08,43,293,36,10,35,277,36*7C
$GPGSV,3,2,11,28,33,219,37,23,31,134,28,19,30,094,24,03,26,062,20*72
$GPGSV,3,3,11,05,18,310,31,06,17,050,21,51,43,156,29*49
$GPRMC,214801.000,A,3748.7971,N,12217.8610,W,0.23,70.71,180610,,,D*41
$GPVTG,70.71,T,,M,0.23,N,0.4,K,D*3C
$GPGGA,214802.000,3748.7973,N,12217.8609,W,2,09,1.0,0.2,M,-25.1,M,,0000*63
$GPGSA,A,3,28,03,19,23,13,10,08,07,05,,,,2.1,1.0,1.9*31
$GPRMC,214802.000,A,3748.7973,N,12217.8609,W,0.37,42.43,180610,,,D*4D
$GPVTG,42.43,T,,M,0.37,N,0.7,K,D*3A
                                                                                                                              
                                                                               