$ADVER,3080,2.3
$GPWPL,3748.7697,N,12217.8126,W,00001*65
$ADPMB,5,0
$GPRMC,030654.978,A,3748.7697,N,12217.8126,W,2.82,114.94,180610,,,A*7C
$GPGGA,030655.978,3748.7800,N,12217.7908,W,1,03,3.1,25.1,M,-25.1,M,,0000*57
$GPGSA,A,2,28,04,17,,,,,,,,,,3.2,3.1,1.0*39
$GPGSV,3,1,10,17,50,043,36,04,48,138,22,28,24,090,29,27,60,292,*7D
$GPGSV,3,2,10,09,53,302,,02,23,180,,26,21,234,,12,16,294,32*75
$GPGSV,3,3,10,15,16,232,,08,02,146,*71
$GPRMC,030655.978,A,3748.7800,N,12217.7908,W,2.71,93.65,180610,,,A*4A
$GPVTG,93.65,T,,M,2.71,N,5.0,K,N*3A
$GPGGA,030656.978,3748.7793,N,12217.7930,W,1,03,3.1,25.1,M,-25.1,M,,0000*5A
$GPGSA,A,2,28,04,17,,,,,,,,,,3.2,3.1,1.0*39
$GPRMC,030656.978,A,3748.7793,N,12217.7930,W,2.60,99.28,180610,,,A*44
$GPVTG,99.28,T,,M,2.60,N,4.8,K,N*30
$GPGGA,030657.978,3748.7808,N,12217.7973,W,1,03,3.1,25.1,M,-25.1,M,,0000*51
$GPGSA,A,2,28,04,17,,,,,,,,,,3.2,3.1,1.0*39
$GPRMC,030657.978,A,3748.7808,N,12217.7973,W,3.29,84.94,180610,,,A*48
$GPVTG,84.94,T,,M,3.29,N,6.1,K,N*3C
$GPGGA,030658.978,3748.7814,N,12217.7881,W,1,03,3.1,25.1,M,-25.1,M,,0000*5F
$GPGSA,A,2,28,04,17,,,,,,,,,,3.2,3.1,1.0*39
$GPRMC,030658.978,A,3748.7814,N,12217.7881,W,2.23,95.43,180610,,,A*47
$GPVTG,95.43,T,,M,2.23,N,4.1,K,N*3F
$GPGGA,030659.978,3748.7792,N,12217.7965,W,1,03,3.1,25.1,M,-25.1,M,,0000*54
$GPGSA,A,2,28,04,17,,,,,,,,,,3.2,3.1,1.0*39
$GPRMC,030659.978,A,3748.7792,N,12217.7965,W,3.21,93.81,180610,,,A*47
$GPVTG,93.81,T,,M,3.21,N,6.0,K,N*37
$GPGGA,030700.978,3748.7806,N,12217.7975,W,1,03,3.1,25.1,M,-25.1,M,,0000*5A
$GPGSA,A,2,28,04,17,,,,,,,,,,3.2,3.1,1.0*39
$GPGSV,3,1,10,17,50,043,36,04,48,138,22,28,24,090,31,27,60,292,*74
$GPGSV,3,2,10,09,53,302,29,02,23,180,,26,21,234,,12,16,294,32*7E
$GPGSV,3,3,10,15,16,232,,08,02,146,*71
$GPRMC,030700.978,A,3748.7806,N,12217.7975,W,2.86,99.69,180610,,,A*49
$GPGGA,030701.978,3748.7811,N,12217.7936,W,1,03,3.1,25.1,M,-25.1,M,,0000*5A
$GPGSA,A,2,28,04,17,,,,,,,,,,3.2,3.1,1.0*39
$GPRMC,030701.978,A,3748.7811,N,12217.7936,W,4.55,202.00,180610,,,A*7E
$GPVTG,202.00,T,,M,4.55,N,8.4,K,N*0A
$GPGGA,030702.978,3748.7710,N,12217.8053,W,1,03,3.1,25.1,M,-25.1,M,,0000*52
$GPGSA,A,2,28,04,17,,,,,,,,,,3.2,3.1,1.0*39
$GPRMC,030702.978,A,3748.7710,N,12217.8053,W,2.16,116.49,180610,,,A*7C
$GPVTG,116.49,T,,M,2.16,N,4.0,K,N*08
$GPGGA,030703.978,3748.7765,N,12217.7975,W,1,03,3.1,25.1,M,-25.1,M,,0000*53
$GPGSA,A,2,28,04,17,,,,,,,,,,3.2,3.1,1.0*39
$GPRMC,030703.978,A,3748.7765,N,12217.7975,W,1.79,123.20,180610,,,A*7E
$GPVTG,123.20,T,,M,1.79,N,3.3,K,N*0F
$GPGGA,030704.978,3748.7779,N,12217.7884,W,1,03,3.1,25.1,M,-25.1,M,,0000*56
$GPGSA,A,2,28,04,17,,,,,,,,,,3.2,3.1,1.0*39
$GPRMC,030704.978,A,3748.7779,N,12217.7884,W,2.08,125.97,180610,,,A*74
$GPVTG,125.97,T,,M,2.08,N,3.9,K,N*0A
$GPGGA,030707.978,3748.7870,N,12217.7685,W,1,03,3.1,25.1,M,-25.1,M,,0000*5C
$GPGSA,A,2,28,04,17,,,,,,,,,,3.2,3.1,1.0*39
$GPRMC,030707.978,A,3748.7870,N,12217.7685,W,1.19,182.46,180610,,,A*7C
$GPVTG,182.46,T,,M,1.19,N,2.2,K,N*02
$GPGGA,030708.978,3748.7806,N,12217.7876,W,1,03,3.1,25.1,M,-25.1,M,,0000*50
$GPGSA,A,2,28,04,17,,,,,,,,,,3.2,3.1,1.0*39
$GPRMC,030708.978,A,3748.7806,N,12217.7876,W,1.65,196.80,180610,,,A*74
$GPVTG,196.80,T,,M,1.65,N,3.1,K,N*04
$GPGGA,030709.978,3748.7746,N,12217.7831,W,1,03,3.1,25.1,M,-25.1,M,,0000*59
$GPGSA,A,2,28,04,17,,,,,,,,,,3.2,3.1,1.0*39
$GPRMC,030709.978,A,3748.7746,N,12217.7831,W,2.12,100.96,180610,,,A*76
$GPVTG,100.96,T,,M,2.12,N,3.9,K,N*07
$GPGGA,030710.978,3748.7708,N,12217.7947,W,1,03,3.1,25.1,M,-25.1,M,,0000*5B
$GPGSA,A,2,28,04,17,,,,,,,,,,3.2,3.1,1.0*39
$GPGSV,3,1,10,17,50,043,35,04,48,138,21,28,24,090,32,27,60,292,*77
$GPGSV,3,2,10,09,53,302,30,02,23,180,,26,21,234,21,12,16,294,23*75
$GPGSV,3,3,10,15,16,232,24,08,02,146,*77
$GPRMC,030710.978,A,3748.7708,N,12217.7947,W,2.30,162.74,180610,,,A*7C
$GPVTG,162.74,T,,M,2.30,N,4.3,K,N*02
$GPGGA,030711.978,3748.7747,N,12217.7886,W,1,03,3.1,25.1,M,-25.1,M,,0000*5D
$GPGSA,A,2,28,04,17,,,,,,,,,,3.2,3.1,1.0*39
$GPRMC,030711.978,A,3748.7747,N,12217.7886,W,2.11,134.35,180610,,,A*7F
$GPVTG,134.35,T,,M,2.11,N,3.9,K,N*0A
$GPGGA,030712.978,3748.7712,N,12217.7873,W,1,03,3.1,25.1,M,-25.1,M,,0000*54
$GPGSA,A,2,28,04,17,,,,,,,,,,3.2,3.1,1.0*39
$GPRMC,030712.978,A,3748.7712,N,12217.7873,W,2.12,158.11,180610,,,A*79
$GPVTG,158.11,T,,M,2.12,N,3.9,K,N*05
$GPGGA,030713.978,3748.7695,N,12217.7892,W,1,03,3.1,25.1,M,-25.1,M,,0000*54
$GPGSA,A,2,28,04,17,,,,,,,,,,3.2,3.1,1.0*39
$GPRMC,030713.978,A,3748.7695,N,12217.7892,W,2.34,153.91,180610,,,A*7E
$GPVTG,153.91,T,,M,2.34,N,4.3,K,N*0F
$GPGGA,030714.978,3748.7722,N,12217.7849,W,1,03,3.1,25.1,M,-25.1,M,,0000*58
$GPGSA,A,2,28,04,17,,,,,,,,,,3.2,3.1,1.0*39
$GPRMC,030714.978,A,3748.7722,N,12217.7849,W,2.56,148.13,180610,,,A*76
$GPVTG,148.13,T,,M,2.56,N,4.7,K,N*0F
$GPGGA,030715.978,3748.7714,N,12217.7853,W,1,03,3.1,25.1,M,-25.1,M,,0000*57
$GPGSA,A,2,28,04,17,,,,,,,,,,3.2,3.1,1.0*39
$GPGSV,3,1,10,17,50,043,36,04,48,138,21,28,24,090,32,27,60,292,*74
$GPGSV,3,2,10,09,53,302,30,02,23,180,,26,21,234,23,12,16,294,33*76
$GPGSV,3,3,10,15,16,232,24,08,02,146,*77
$GPRMC,030715.978,A,3748.7714,N,12217.7853,W,2.62,98.71,180610,,,A*46
$GPVTG,98.71,T,,M,2.62,N,4.9,K,N*3E
$GPGGA,030716.978,3748.7712,N,12217.7848,W,1,03,3.1,25.1,M,-25.1,M,,0000*58
$GPGSA,A,2,28,04,17,,,,,,,,,,3.2,3.1,1.0*39
$GPRMC,030716.978,A,3748.7712,N,12217.7848,W,2.03,136.30,180610,,,A*7E
$GPVTG,136.30,T,,M,2.03,N,3.8,K,N*0F
$GPGGA,030717.978,3748.7742,N,12217.7800,W,1,03,3.1,25.1,M,-25.1,M,,0000*50
$GPGSA,A,2,28,04,17,,,,,,,,,,3.2,3.1,1.0*39
$GPRMC,030717.978,A,3748.7742,N,12217.7800,W,3.53,86.49,180610,,,A*46
$GPVTG,86.49,T,,M,3.53,N,6.5,K,N*37
$GPGGA,030718.978,3748.7750,N,12217.7782,W,1,03,3.1,25.1,M,-25.1,M,,0000*59
$GPGSA,A,2,28,04,17,,,,,,,,,,3.2,3.1,1.0*39
$GPRMC,030718.978,A,3748.7750,N,12217.7782,W,2.48,103.88,180610,,,A*75
$GPVTG,103.88,T,,M,2.48,N,4.6,K,N*0C
$GPGGA,030719.978,3748.7698,N,12217.7853,W,1,03,3.1,25.1,M,-25.1,M,,0000*5E
$GPGSA,A,2,28,04,17,,,,,,,,,,3.2,3.1,1.0*39
$GPRMC,030719.978,A,3748.7698,N,12217.7853,W,1.95,124.45,180610,,,A*75
$GPVTG,124.45,T,,M,1.95,N,3.6,K,N*0C
$GPGGA,030720.978,3748.7716,N,12217.7777,W,1,03,3.1,25.1,M,-25.1,M,,0000*5A
$GPGSA,A,2,28,04,17,,,,,,,,,,3.2,3.1,1.0*39
$GPGSV,3,1,10,17,50,043,36,04,48,138,21,28,24,090,32,27,60,292,*74
$GPGSV,3,2,10,09,53,302,29,02,23,180,,26,21,234,20,12,16,294,32*7C
$GPGSV,3,3,10,15,16,232,20,08,02,146,*73
$GPVTG,103.48,T,,M,1.90,N,3.5,K,N*02
$GPGGA,030721.978,3748.7666,N,12217.7853,W,1,03,3.1,25.1,M,-25.1,M,,0000*54
$GPGSA,A,2,28,04,17,,,,,,,,,,3.2,3.1,1.0*39
$GPRMC,030721.978,A,3748.7666,N,12217.7853,W,2.37,145.02,180610,,,A*70
$GPVTG,145.02,T,,M,2.37,N,4.4,K,N*06
$GPGGA,030722.978,3748.7656,N,12217.7883,W,1,03,3.1,25.1,M,-25.1,M,,0000*59
$GPGSA,A,2,28,04,17,,,,,,,,,,3.2,3.1,1.0*39
$GPRMC,030722.978,A,3748.7656,N,12217.7883,W,2.62,120.34,180610,,,A*7B
$GPVTG,120.34,T,,M,2.62,N,4.9,K,N*0D
$GPGGA,030723.978,3748.7646,N,12217.7854,W,1,03,3.1,25.1,M,-25.1,M,,0000*53
$GPGSA,A,2,28,04,17,,,,,,,,,,3.2,3.1,1.0*39
$GPRMC,030723.978,A,3748.7646,N,12217.7854,W,2.55,83.13,180610,,,A*48
$GPVTG,83.13,T,,M,2.55,N,4.7,K,N*3A
$GPGGA,030724.978,3748.7643,N,12217.7858,W,1,03,3.1,25.1,M,-25.1,M,,0000*5D
$GPGSA,A,2,28,04,17,,,,,,,,,,3.2,3.1,1.0*39
$GPRMC,030724.978,A,3748.7643,N,12217.7858,W,2.90,85.63,180610,,,A*4E
$GPVTG,85.63,T,,M,2.90,N,5.4,K,N*30
$GPGGA,030725.978,3748.7630,N,12217.7853,W,1,03,3.1,25.1,M,-25.1,M,,0000*53
$GPGSA,A,2,28,04,17,,,,,,,,,,3.2,3.1,1.0*39
$GPGSV,3,1,10,17,50,043,36,04,48,138,20,28,24,090,32,27,60,292,*75
$GPGSV,3,2,10,09,53,302,29,02,23,180,,26,21,234,21,12,16,294,31*7E
$GPGSV,3,3,10,15,16,232,20,08,02,146,*73
$GPRMC,030725.978,A,3748.7630,N,12217.7853,W,2.07,140.53,180610,,,A*75
$GPVTG,140.53,T,,M,2.07,N,3.8,K,N*0F
$GPGGA,030726.978,3748.7603,N,12217.7882,W,1,03,3.1,25.1,M,-25.1,M,,0000*5C
$GPGSA,A,2,28,04,17,,,,,,,,,,3.2,3.1,1.0*39
$GPRMC,030726.978,A,3748.7603,N,12217.7882,W,2.30,144.63,180610,,,A*79
$GPVTG,144.63,T,,M,2.30,N,4.3,K,N*00
$GPGGA,030727.978,3748.7646,N,12217.7819,W,1,03,3.1,25.1,M,-25.1,M,,0000*5E
$GPGSA,A,2,28,04,17,,,,,,,,,,3.2,3.1,1.0*39
$GPRMC,030727.978,A,3748.7646,N,12217.7819,W,3.52,82.72,180610,,,A*45
$GPVTG,82.72,T,,M,3.52,N,6.5,K,N*3A
$GPGGA,030728.978,3748.7636,N,12217.7821,W,1,03,3.1,25.1,M,-25.1,M,,0000*5D
$GPGSA,A,2,28,04,17,,,,,,,,,,3.2,3.1,1.0*39
$GPRMC,030728.978,A,3748.7636,N,12217.7821,W,2.12,106.81,180610,,,A*72
$GPVTG,106.81,T,,M,2.12,N,3.9,K,N*07
$GPGGA,030729.978,3748.7668,N,12217.7766,W,1,03,3.1,25.1,M,-25.1,M,,0000*5B
$GPGSA,A,2,28,04,17,,,,,,,,,,3.2,3.1,1.0*39
$GPRMC,030729.978,A,3748.7668,N,12217.7766,W,2.72,86.03,180610,,,A*41
$GPVTG,86.03,T,,M,2.72,N,5.0,K,N*3D
$GPGGA,030730.978,3748.7610,N,12217.7826,W,1,03,3.1,25.1,M,-25.1,M,,0000*57
$GPGSA,A,2,28,04,17,,,,,,,,,,3.2,3.1,1.0*39
$GPGSV,3,1,10,17,50,043,36,04,48,138,21,28,24,090,33,27,60,292,*75
$GPGSV,3,2,10,09,53,302,28,02,23,180,,26,21,234,20,12,16,294,30*7F
$GPGSV,3,3,10,15,16,232,20,08,02,146,*73
$GPRMC,030730.978,A,3748.7610,N,12217.7826,W,2.71,95.73,180610,,,A*4B
$GPVTG,95.73,T,,M,2.71,N,5.0,K,N*3B
$GPGGA,030731.978,3748.7555,N,12217.7888,W,1,03,3.1,25.1,M,-25.1,M,,0000*50
$GPGSA,A,2,28,04,17,,,,,,,,,,3.2,3.1,1.0*39
$GPRMC,030731.978,A,3748.7555,N,12217.7888,W,2.55,166.33,180610,,,A*73
$GPVTG,166.33,T,,M,2.55,N,4.7,K,N*02
$GPGGA,030732.978,3748.7574,N,12217.7854,W,1,03,3.1,25.1,M,-25.1,M,,0000*51
$GPGSA,A,2,28,04,17,,,,,,,,,,3.2,3.1,1.0*39
$GPRMC,030732.978,A,3748.7574,N,12217.7854,W,3.96,191.02,180610,,,A*76
$GPVTG,191.02,T,,M,3.96,N,7.3,K,N*01
$GPGGA,030733.978,3748.7550,N,12217.7875,W,1,03,3.1,25.1,M,-25.1,M,,0000*55
$GPGSA,A,2,28,04,17,,,,,,,,,,3.2,3.1,1.0*39
$GPRMC,030733.978,A,3748.7550,N,12217.7875,W,2.88,90.37,180610,,,A*4A
$GPVTG,90.37,T,,M,2.88,N,5.3,K,N*3B
$GPGGA,030734.978,3748.7619,N,12217.7779,W,1,03,3.1,25.1,M,-25.1,M,,0000*5F
$GPGSA,A,2,28,04,17,,,,,,,,,,3.2,3.1,1.0*39
$GPRMC,030734.978,A,3748.7619,N,12217.7779,W,2.19,127.62,180610,,,A*75
$GPVTG,127.62,T,,M,2.19,N,4.1,K,N*0D
$GPGGA,030735.978,3748.7625,N,12217.7761,W,1,03,3.1,25.1,M,-25.1,M,,0000*58
$GPGSA,A,2,28,04,17,,,,,,,,,,3.2,3.1,1.0*39
$GPGSV,3,1,10,17,50,043,37,04,48,138,21,28,24,090,33,27,60,292,*74
$GPGSV,3,2,10,09,53,302,27,02,23,180,,26,21,234,20,12,16,294,19*7B
$GPGSV,3,3,10,15,16,232,,08,02,146,*71
$GPRMC,030735.978,A,3748.7625,N,12217.7761,W,2.92,92.05,180610,,,A*4F
$GPVTG,92.05,T,,M,2.92,N,5.4,K,N*34
$GPGGA,030736.978,3748.7648,N,12217.7720,W,1,03,3.1,25.1,M,-25.1,M,,0000*55
$GPGSA,A,2,28,04,17,,,,,,,,,,3.2,3.1,1.0*39
$GPRMC,030736.978,A,3748.7648,N,12217.7720,W,2.28,134.49,180610,,,A*76
$GPVTG,134.49,T,,M,2.28,N,4.2,K,N*07
$GPGGA,030737.978,3748.7603,N,12217.7765,W,1,03,3.1,25.1,M,-25.1,M,,0000*5A
$GPGSA,A,2,28,04,17,,,,,,,,,,3.2,3.1,1.0*39
$GPRMC,030737.978,A,3748.7603,N,12217.7765,W,2.28,147.90,180610,,,A*79
$GPVTG,147.90,T,,M,2.28,N,4.2,K,N*07
$GPGGA,030738.978,3748.7684,N,12217.7650,W,1,03,3.1,25.1,M,-25.1,M,,0000*5D
$GPGSA,A,2,28,04,17,,,,,,,,,,3.2,3.1,1.0*39
$GPRMC,030738.978,A,3748.7684,N,12217.7650,W,3.86,82.65,180610,,,A*49
$GPVTG,82.65,T,,M,3.86,N,7.2,K,N*33
$GPGGA,030739.978,3748.7635,N,12217.7701,W,1,03,3.1,25.1,M,-25.1,M,,0000*53
$GPGSA,A,2,28,04,17,,,,,,,,,,3.2,3.1,1.0*39
$GPRMC,030739.978,A,3748.7635,N,12217.7701,W,2.18,126.88,180610,,,A*7D
$GPVTG,126.88,T,,M,2.18,N,4.0,K,N*08
$GPGGA,030740.978,3748.7588,N,12217.7751,W,1,03,3.1,25.1,M,-25.1,M,,0000*5D
$GPGSA,A,2,28,04,17,,,,,,,,,,3.2,3.1,1.0*39
$GPGSV,3,1,10,17,50,043,36,04,48,138,20,28,24,090,33,27,60,292,*74
$GPGSV,3,2,10,09,53,302,27,02,23,180,,26,21,234,21,12,16,294,20*70
$GPGSV,3,3,10,15,16,232,,08,02,146,*71
$GPRMC,030740.978,A,3748.7588,N,12217.7751,W,2.21,139.19,180610,,,A*7F
$GPVTG,139.19,T,,M,2.21,N,4.1,K,N*05
$GPGGA,030741.978,3748.7678,N,12217.7610,W,1,03,3.1,25.1,M,-25.1,M,,0000*54
$GPGSA,A,2,28,04,17,,,,,,,,,,3.2,3.1,1.0*39
$GPRMC,030741.978,A,3748.7678,N,12217.7610,W,2.00,165.01,180610,,,A*75
$GPVTG,165.01,T,,M,2.00,N,3.7,K,N*07
$GPGGA,030742.978,3748.7732,N,12217.7556,W,1,03,3.1,25.1,M,-25.1,M,,0000*59
$GPGSA,A,2,28,04,17,,,,,,,,,,3.2,3.1,1.0*39
$GPRMC,030742.978,A,3748.7732,N,12217.7556,W,4.27,96.20,180610,,,A*45
$GPVTG,96.20,T,,M,4.27,N,7.9,K,N*30
$GPGGA,030743.978,3748.7659,N,12217.7652,W,1,03,3.1,25.1,M,-25.1,M,,0000*53
$GPGSA,A,2,28,04,17,,,,,,,,,,3.2,3.1,1.0*39
$GPRMC,030743.978,A,3748.7659,N,12217.7652,W,2.69,111.17,180610,,,A*79
$GPVTG,111.17,T,,M,2.69,N,5.0,K,N*0D
$GPGGA,030744.978,3748.7686,N,12217.7571,W,1,03,3.1,25.1,M,-25.1,M,,0000*54
$GPGSA,A,2,28,04,17,,,,,,,,,,3.2,3.1,1.0*39
$GPRMC,030744.978,A,3748.7686,N,12217.7571,W,2.89,107.42,180610,,,A*77
$GPVTG,107.42,T,,M,2.89,N,5.4,K,N*00
$GPGGA,030745.978,3748.7676,N,12217.7647,W,1,03,3.1,25.1,M,-25.1,M,,0000*5C
$GPGSA,A,2,28,04,17,,,,,,,,,,3.2,3.1,1.0*39
$GPGSV,3,1,10,17,50,043,37,04,48,138,19,28,24,090,32,27,60,292,*7E
$GPGSV,3,2,10,09,53,302,29,02,23,180,,26,21,234,21,12,16,294,24*7A
$GPGSV,3,3,10,15,16,232,,08,02,146,*71
$GPRMC,030745.978,A,3748.7676,N,12217.7647,W,2.30,55.66,180610,,,A*4D
$GPGGA,030746.978,3748.7637,N,12217.7638,W,1,03,3.1,25.1,M,-25.1,M,,0000*52
$GPGSA,A,2,28,04,17,,,,,,,,,,3.2,3.1,1.0*39
$GPRMC,030746.978,A,3748.7637,N,12217.7638,W,1.90,99.35,180610,,,A*4C
$GPVTG,99.35,T,,M,1.90,N,3.5,K,N*3A
$GPGGA,030747.978,3748.7553,N,12217.7741,W,1,03,3.1,25.1,M,-25.1,M,,0000*5D
$GPGSA,A,2,28,04,17,,,,,,,,,,3.2,3.1,1.0*39
$GPRMC,030747.978,A,3748.7553,N,12217.7741,W,3.01,88.10,180610,,,A*4E
$GPVTG,88.10,T,,M,3.01,N,5.6,K,N*32
$GPGGA,030748.978,3748.7525,N,12217.7753,W,1,03,3.1,25.1,M,-25.1,M,,0000*50
$GPGSA,A,2,28,04,17,,,,,,,,,,3.2,3.1,1.0*39
$GPRMC,030748.978,A,3748.7525,N,12217.7753,W,3.15,85.96,180610,,,A*45
$GPVTG,85.96,T,,M,3.15,N,5.8,K,N*3A
$GPGGA,030749.978,3748.7580,N,12217.7619,W,1,03,3.1,25.1,M,-25.1,M,,0000*51
$GPGSA,A,2,28,04,17,,,,,,,,,,3.2,3.1,1.0*39
$GPRMC,030749.978,A,3748.7580,N,12217.7619,W,2.55,113.05,180610,,,A*75
$GPVTG,113.05,T,,M,2.55,N,4.7,K,N*05
$GPGGA,030750.978,3748.7559,N,12217.7650,W,1,03,3.1,25.1,M,-25.1,M,,0000*50
$GPGSA,A,2,28,04,17,,,,,,,,,,3.2,3.1,1.0*39
$GPGSV,3,1,10,17,50,043,36,04,48,138,19,28,24,090,28,27,60,292,*74
$GPGSV,3,2,10,09,53,302,29,02,23,180,,26,21,234,21,12,16,294,32*7D
$GPGSV,3,3,10,15,16,232,,08,02,146,*71
$GPRMC,030750.978,A,3748.7559,N,12217.7650,W,2.52,109.68,180610,,,A*73
$GPVTG,109.68,T,,M,2.52,N,4.7,K,N*02
$GPGGA,030751.978,3748.7589,N,12217.7858,W,1,03,3.1,25.1,M,-25.1,M,,0000*5A
$GPGSA,A,2,28,04,17,,,,,,,,,,3.2,3.1,1.0*39
$GPRMC,030751.978,A,3748.7589,N,12217.7858,W,0.34,152.52,180610,,,A*7C
$GPVTG,152.52,T,,M,0.34,N,0.6,K,N*02
$GPGGA,030800.977,3748.7477,N,12217.7744,W,1,03,3.1,25.1,M,-25.1,M,,0000*5C
$GPGSA,A,2,28,04,17,,,,,,,,,,3.2,3.1,1.0*39
$GPGSV,3,1,10,17,50,043,33,04,48,138,19,28,24,090,30,27,60,292,*78
$GPGSV,3,2,10,09,53,302,20,02,23,180,,26,21,234,25,12,16,294,35*77
$GPGSV,3,3,10,15,16,232,24,08,02,146,*77
$GPRMC,030800.977,A,3748.7477,N,12217.7744,W,6.75,89.14,180610,,,A*4C
$GPVTG,89.14,T,,M,6.75,N,12.5,K,N*04
$GPGGA,030801.977,3748.7510,N,12217.7635,W,1,03,3.1,25.1,M,-25.1,M,,0000*5A
$GPGSA,A,2,28,04,17,,,,,,,,,,3.2,3.1,1.0*39
$GPRMC,030801.977,A,3748.7510,N,12217.7635,W,4.67,76.78,180610,,,A*41
$GPVTG,76.78,T,,M,4.67,N,8.7,K,N*36
$GPGGA,030802.977,3748.7503,N,12217.7602,W,1,03,3.1,25.1,M,-25.1,M,,0000*5F
$GPGSA,A,2,28,04,17,,,,,,,,,,3.2,3.1,1.0*39
$GPRMC,030802.977,A,3748.7503,N,12217.7602,W,1.29,110.78,180610,,,A*7A
$GPVTG,110.78,T,,M,1.29,N,2.4,K,N*01
$GPGGA,030803.977,3748.7516,N,12217.7668,W,1,03,3.1,25.1,M,-25.1,M,,0000*56
$GPGSA,A,2,28,04,17,,,,,,,,,,3.2,3.1,1.0*39
$GPRMC,030803.977,A,3748.7516,N,12217.7668,W,1.94,112.75,180610,,,A*7A
$GPVTG,112.75,T,,M,1.94,N,3.6,K,N*0B
$GPGGA,030804.977,3748.7468,N,12217.7649,W,1,03,3.1,25.1,M,-25.1,M,,0000*5A
$GPGSA,A,2,28,04,17,,,,,,,,,,3.2,3.1,1.0*39
$GPRMC,030804.977,A,3748.7468,N,12217.7649,W,2.51,110.99,180610,,,A*7C
$GPVTG,110.99,T,,M,2.51,N,4.7,K,N*07
$GPGGA,030805.977,3748.7436,N,12217.7664,W,1,03,3.1,25.1,M,-25.1,M,,0000*5F
$GPGSA,A,2,28,04,17,,,,,,,,,,3.2,3.1,1.0*39
$GPGSV,3,1,10,17,50,043,35,04,48,138,20,28,24,090,30,27,60,292,26*70
$GPGSV,3,2,10,09,53,302,21,02,23,180,,26,21,234,23,12,16,294,27*73
$GPGSV,3,3,10,15,16,232,20,08,02,146,*73
$GPRMC,030805.977,A,3748.7436,N,12217.7664,W,3.21,90.16,180610,,,A*41
$GPVTG,90.16,T,,M,3.21,N,5.9,K,N*30
$GPGGA,030806.977,3748.7406,N,12217.7681,W,1,03,3.1,25.1,M,-25.1,M,,0000*54
$GPGSA,A,2,28,04,17,,,,,,,,,,3.2,3.1,1.0*39
$GPRMC,030806.977,A,3748.7406,N,12217.7681,W,2.28,108.77,180610,,,A*75
$GPVTG,108.77,T,,M,2.28,N,4.2,K,N*05
$GPGGA,030807.977,3748.7486,N,12217.7572,W,1,03,3.1,25.1,M,-25.1,M,,0000*52
$GPGSA,A,2,28,04,17,,,,,,,,,,3.2,3.1,1.0*39
$GPRMC,030807.977,A,3748.7486,N,12217.7572,W,2.14,111.82,180610,,,A*7E
$GPVTG,111.82,T,,M,2.14,N,4.0,K,N*0A
$GPGGA,030808.977,3748.7510,N,12217.7551,W,1,03,3.1,25.1,M,-25.1,M,,0000*52
$GPGSA,A,2,28,04,17,,,,,,,,,,3.2,3.1,1.0*39
$GPRMC,030808.977,A,3748.7510,N,12217.7551,W,3.12,91.58,180610,,,A*47
$GPVTG,91.58,T,,M,3.12,N,5.8,K,N*3A
$GPGGA,030817.977,3748.7554,N,12217.7398,W,1,03,3.1,25.1,M,-25.1,M,,0000*5F
$GPGSA,A,2,28,04,17,,,,,,,,,,3.2,3.1,1.0*39
$GPRMC,030817.977,A,3748.7554,N,12217.7398,W,2.90,91.87,180610,,,A*43
$GPVTG,91.87,T,,M,2.90,N,5.4,K,N*3F
$GPGGA,030818.977,3748.7518,N,12217.7435,W,1,03,3.1,25.1,M,-25.1,M,,0000*58
$GPGSA,A,2,28,04,17,,,,,,,,,,3.2,3.1,1.0*39
$GPRMC,030818.977,A,3748.7518,N,12217.7435,W,3.07,99.17,180610,,,A*4A
$GPVTG,99.17,T,,M,3.07,N,5.7,K,N*32
$GPGGA,030819.977,3748.7520,N,12217.7420,W,1,03,3.1,25.1,M,-25.1,M,,0000*56
$GPGSA,A,2,28,04,17,,,,,,,,,,3.2,3.1,1.0*39
$GPRMC,030819.977,A,3748.7520,N,12217.7420,W,2.55,118.94,180610,,,A*71
$GPVTG,118.94,T,,M,2.55,N,4.7,K,N*06
$GPGGA,030820.977,3748.7461,N,12217.7538,W,1,03,3.1,25.1,M,-25.1,M,,0000*50
$GPGSA,A,2,28,04,17,,,,,,,,,,3.2,3.1,1.0*39
$GPGSV,3,1,10,17,49,044,36,04,48,138,16,28,23,091,29,27,61,291,24*77
$GPGSV,3,2,10,09,53,301,29,02,24,180,,26,20,233,23,12,17,294,27*78
$GPGSV,3,3,10,15,16,232,,08,01,146,*72
$GPRMC,030820.977,A,3748.7461,N,12217.7538,W,2.23,180.65,180610,,,A*79
$GPVTG,180.65,T,,M,2.23,N,4.1,K,N*0E
$GPGGA,030833.977,3748.7416,N,12217.7437,W,1,03,3.1,25.1,M,-25.1,M,,0000*5C
$GPGSA,A,2,28,04,17,,,,,,,,,,3.2,3.1,1.0*39
$GPRMC,030833.977,A,3748.7416,N,12217.7437,W,2.41,159.13,180610,,,A*74
$GPVTG,159.13,T,,M,2.41,N,4.5,K,N*0B
$GPGGA,030834.977,3748.7411,N,12217.7451,W,1,03,3.1,25.1,M,-25.1,M,,0000*5C
$GPGSA,A,2,28,04,17,,,,,,,,,,3.2,3.1,1.0*39
$GPRMC,030834.977,A,3748.7411,N,12217.7451,W,1.81,152.43,180610,,,A*75
$GPVTG,152.43,T,,M,1.81,N,3.3,K,N*0B
$GPGGA,030835.977,3748.7411,N,12217.7382,W,1,03,3.1,25.1,M,-25.1,M,,0000*54
$GPGSA,A,2,28,04,17,,,,,,,,,,3.2,3.1,1.0*39
$GPGSV,3,1,10,17,49,044,36,04,48,138,18,28,23,091,27,27,61,291,23*70
$GPGSV,3,2,10,09,53,301,27,02,24,180,,26,20,233,22,12,17,294,32*73
$GPGSV,3,3,10,15,16,232,,08,01,146,*72
$GPRMC,030835.977,A,3748.7411,N,12217.7382,W,2.25,143.84,180610,,,A*7B
$GPVTG,143.84,T,,M,2.25,N,4.2,K,N*0B
$GPGGA,030836.977,3748.7364,N,12217.7420,W,1,03,3.1,25.1,M,-25.1,M,,0000*5D
$GPGSA,A,2,28,04,17,,,,,,,,,,3.2,3.1,1.0*39
$GPRMC,030836.977,A,3748.7364,N,12217.7420,W,2.28,143.53,180610,,,A*75
$GPVTG,143.53,T,,M,2.28,N,4.2,K,N*0C
$GPGGA,030837.977,3748.7362,N,12217.7418,W,1,03,3.1,25.1,M,-25.1,M,,0000*51
$GPGSA,A,2,28,04,17,,,,,,,,,,3.2,3.1,1.0*39
$GPRMC,030837.977,A,3748.7362,N,12217.7418,W,2.28,144.42,180610,,,A*7E
$GPVTG,144.42,T,,M,2.28,N,4.2,K,N*0B
$GPGGA,030838.977,3748.7402,N,12217.7364,W,1,03,3.1,25.1,M,-25.1,M,,0000*53
$GPGSA,A,2,28,04,17,,,,,,,,,,3.2,3.1,1.0*39
$GPRMC,030838.977,A,3748.7402,N,12217.7364,W,2.54,92.56,180610,,,A*48
$GPVTG,92.56,T,,M,2.54,N,4.7,K,N*3A
$GPGGA,030839.977,3748.7371,N,12217.7393,W,1,03,3.1,25.1,M,-25.1,M,,0000*59
$GPGSA,A,2,28,04,17,,,,,,,,,,3.2,3.1,1.0*39
$GPRMC,030839.977,A,3748.7371,N,12217.7393,W,6.39,65.73,180610,,,A*42
$GPVTG,65.73,T,,M,6.39,N,11.8,K,N*01
$GPGGA,030840.977,3748.7379,N,12217.7369,W,1,03,3.1,25.1,M,-25.1,M,,0000*5A
$GPGSA,A,2,28,04,17,,,,,,,,,,3.2,3.1,1.0*39
$GPGSV,3,1,10,17,49,044,36,04,48,138,19,28,23,091,28,27,61,291,24*79
$GPGSV,3,2,10,09,53,301,28,02,24,180,,26,20,233,22,12,17,294,28*77
$GPGSV,3,3,10,15,16,232,23,08,01,146,*73
$GPRMC,030840.977,A,3748.7379,N,12217.7369,W,2.72,91.85,180610,,,A*48
$GPVTG,91.85,T,,M,2.72,N,5.0,K,N*35
$GPGGA,030841.977,3748.7325,N,12217.7428,W,1,03,3.1,25.1,M,-25.1,M,,0000*50
$GPGSA,A,2,28,04,17,,,,,,,,,,3.2,3.1,1.0*39
$GPRMC,030841.977,A,3748.7325,N,12217.7428,W,2.96,89.03,180610,,,A*4F
$GPVTG,89.03,T,,M,2.96,N,5.5,K,N*3D
$GPGGA,030842.977,3748.7384,N,12217.7342,W,1,03,3.1,25.1,M,-25.1,M,,0000*53
$GPGSA,A,2,28,04,17,,,,,,,,,,3.2,3.1,1.0*39
$GPRMC,030842.977,A,3748.7384,N,12217.7342,W,2.23,112.78,180610,,,A*7D
$GPVTG,112.78,T,,M,2.23,N,4.1,K,N*09
$GPGGA,030843.977,3748.7437,N,12217.7263,W,1,03,3.1,25.1,M,-25.1,M,,0000*5F
$GPGSA,A,2,28,04,17,,,,,,,,,,3.2,3.1,1.0*39
$GPRMC,030843.977,A,3748.7437,N,12217.7263,W,3.96,78.18,180610,,,A*45
$GPVTG,78.18,T,,M,3.96,N,7.3,K,N*3C
$GPGGA,030844.977,3748.7475,N,12217.7287,W,1,03,3.1,25.1,M,-25.1,M,,0000*54
$GPGSA,A,2,28,04,17,,,,,,,,,,3.2,3.1,1.0*39
$GPRMC,030844.977,A,3748.7475,N,12217.7287,W,1.77,203.51,180610,,,A*70
$GPVTG,203.51,T,,M,1.77,N,3.3,K,N*06
$GPGGA,030845.977,3748.7454,N,12217.7206,W,1,03,3.1,25.1,M,-25.1,M,,0000*5F
$GPGSA,A,2,28,04,17,,,,,,,,,,3.2,3.1,1.0*39
$GPGSV,3,1,10,17,49,044,36,04,48,138,18,28,23,091,29,27,61,291,24*79
$GPGSV,3,2,10,09,53,301,28,02,24,180,,26,20,233,17,12,17,294,23*7A
$GPGSV,3,3,10,15,16,232,,08,01,146,*72
$GPRMC,030845.977,A,3748.7454,N,12217.7206,W,2.96,76.71,180610,,,A*45
$GPVTG,76.71,T,,M,2.96,N,5.5,K,N*38
$GPGGA,030846.977,3748.7424,N,12217.7268,W,1,03,3.1,25.1,M,-25.1,M,,0000*53
$GPGSA,A,2,28,04,17,,,,,,,,,,3.2,3.1,1.0*39
$GPRMC,030846.977,A,3748.7424,N,12217.7268,W,2.86,87.01,180610,,,A*41
$GPVTG,87.01,T,,M,2.86,N,5.3,K,N*36
$GPGGA,030847.977,3748.7427,N,12217.7237,W,1,03,3.1,25.1,M,-25.1,M,,0000*5B
$GPGSA,A,2,28,04,17,,,,,,,,,,3.2,3.1,1.0*39
$GPRMC,030847.977,A,3748.7427,N,12217.7237,W,2.68,87.63,180610,,,A*4D
$GPVTG,87.63,T,,M,2.68,N,5.0,K,N*31
$GPGGA,030848.977,3748.7368,N,12217.7323,W,1,03,3.1,25.1,M,-25.1,M,,0000*5C
$GPGSA,A,2,28,04,17,,,,,,,,,,3.2,3.1,1.0*39
$GPRMC,030848.977,A,3748.7368,N,12217.7323,W,3.73,78.03,180610,,,A*47
$GPVTG,78.03,T,,M,3.73,N,6.9,K,N*36
$GPGGA,030849.977,3748.7365,N,12217.7292,W,1,03,3.1,25.1,M,-25.1,M,,0000*5B
$GPGSA,A,2,28,04,17,,,,,,,,,,3.2,3.1,1.0*39
$GPRMC,030849.977,A,3748.7365,N,12217.7292,W,2.44,97.38,180610,,,A*4C
$GPVTG,97.38,T,,M,2.44,N,4.5,K,N*34
$GPGGA,030850.977,3748.7326,N,12217.7336,W,1,03,3.1,25.1,M,-25.1,M,,0000*5B
$GPGSA,A,2,28,04,17,,,,,,,,,,3.2,3.1,1.0*39
$GPGSV,3,1,10,17,49,044,36,04,49,137,23,28,23,091,29,27,61,290,24*7E
$GPGSV,3,2,10,09,53,301,28,02,24,180,,26,20,233,,12,17,294,28*77
$GPGSV,3,3,10,15,15,232,,08,01,146,*71
$GPRMC,030850.977,A,3748.7326,N,12217.7336,W,2.52,103.78,180610,,,A*73
$GPVTG,103.78,T,,M,2.52,N,4.7,K,N*09
$GPGGA,030851.977,3748.7306,N,12217.7344,W,1,03,3.1,25.1,M,-25.1,M,,0000*5D
$GPGSA,A,2,28,04,17,,,,,,,,,,3.2,3.1,1.0*39
$GPRMC,030851.977,A,3748.7306,N,12217.7344,W,2.71,162.79,180610,,,A*72
$GPVTG,162.79,T,,M,2.71,N,5.0,K,N*08
$GPGGA,030852.977,3748.7337,N,12217.7292,W,1,03,3.1,25.1,M,-25.1,M,,0000*56
$GPGSA,A,2,28,04,17,,,,,,,,,,3.2,3.1,1.0*39
$GPRMC,030852.977,A,3748.7337,N,12217.7292,W,5.03,72.78,180610,,,A*4A
$GPVTG,72.78,T,,M,5.03,N,9.3,K,N*34
$GPGGA,030853.977,3748.7367,N,12217.7250,W,1,03,3.1,25.1,M,-25.1,M,,0000*5C
$GPGSA,A,2,28,04,17,,,,,,,,,,3.2,3.1,1.0*39
$GPRMC,030853.977,A,3748.7367,N,12217.7250,W,1.58,118.08,180610,,,A*70
$GPVTG,118.08,T,,M,1.58,N,2.9,K,N*05
$GPGGA,030854.977,3748.7376,N,12217.7229,W,1,03,3.1,25.1,M,-25.1,M,,0000*55
$GPGSA,A,2,28,04,17,,,,,,,,,,3.2,3.1,1.0*39
$GPRMC,030854.977,A,3748.7376,N,12217.7229,W,2.10,146.97,180610,,,A*7B
$GPVTG,146.97,T,,M,2.10,N,3.9,K,N*06
$GPGGA,030855.977,3748.7396,N,12217.7193,W,1,03,3.1,25.1,M,-25.1,M,,0000*58
$GPGSA,A,2,28,04,17,,,,,,,,,,3.2,3.1,1.0*39
$GPGSV,3,1,10,17,49,044,36,04,49,137,20,28,23,091,30,27,61,290,25*74
$GPGSV,3,2,10,09,53,301,26,02,24,180,,26,20,233,,12,17,294,29*78
$GPGSV,3,3,10,15,15,232,,08,01,146,*71
$GPRMC,030855.977,A,3748.7396,N,12217.7193,W,1.90,106.25,180610,,,A*70
$GPGGA,030856.977,3748.7306,N,12217.7302,W,1,03,3.1,25.1,M,-25.1,M,,0000*58
$GPGSA,A,2,28,04,17,,,,,,,,,,3.2,3.1,1.0*39
$GPRMC,030856.977,A,3748.7306,N,12217.7302,W,2.97,88.13,180610,,,A*46
$GPVTG,88.13,T,,M,2.97,N,5.5,K,N*3C
$GPGGA,030857.977,3748.7302,N,12217.7296,W,1,03,3.1,25.1,M,-25.1,M,,0000*51
$GPGSA,A,2,28,04,17,,,,,,,,,,3.2,3.1,1.0*39
$GPRMC,030857.977,A,3748.7302,N,12217.7296,W,2.40,142.11,180610,,,A*70
$GPVTG,142.11,T,,M,2.40,N,4.4,K,N*03
$GPGGA,030858.977,3748.7318,N,12217.7266,W,1,03,3.1,25.1,M,-25.1,M,,0000*5A
$GPGSA,A,2,28,04,17,,,,,,,,,,3.2,3.1,1.0*39
$GPRMC,030858.977,A,3748.7318,N,12217.7266,W,1.89,138.15,180610,,,A*74
$GPVTG,138.15,T,,M,1.89,N,3.5,K,N*0A
$GPGGA,030859.977,3748.7319,N,12217.7251,W,1,03,3.1,25.1,M,-25.1,M,,0000*5E
$GPGSA,A,2,28,04,17,,,,,,,,,,3.2,3.1,1.0*39
$GPRMC,030859.977,A,3748.7319,N,12217.7251,W,2.78,94.16,180610,,,A*49
$GPVTG,94.16,T,,M,2.78,N,5.1,K,N*31
$GPGGA,030900.977,3748.7261,N,12217.7318,W,1,03,3.1,25.1,M,-25.1,M,,0000*51
$GPGSA,A,2,28,04,17,,,,,,,,,,3.2,3.1,1.0*39
$GPGSV,3,1,10,17,49,044,36,04,49,137,21,28,23,091,30,27,61,290,24*74
$GPGSV,3,2,10,09,53,301,28,02,24,180,,26,20,233,,12,17,294,29*76
$GPGSV,3,3,10,15,15,232,23,08,01,146,*70
$GPRMC,030900.977,A,3748.7261,N,12217.7318,W,2.58,100.05,180610,,,A*7A
$GPVTG,100.05,T,,M,2.58,N,4.8,K,N*05
$GPGGA,030901.977,3748.7314,N,12217.7337,W,1,03,3.1,25.1,M,-25.1,M,,0000*5E
$GPGSA,A,2,28,04,17,,,,,,,,,,3.2,3.1,1.0*39
$GPRMC,030901.977,A,3748.7314,N,12217.7337,W,1.59,158.44,180610,,,A*7F
$GPVTG,158.44,T,,M,1.59,N,2.9,K,N*08
$GPGGA,030902.977,3748.7319,N,12217.7238,W,1,03,3.1,25.1,M,-25.1,M,,0000*5E
$GPGSA,A,2,28,04,17,,,,,,,,,,3.2,3.1,1.0*39
$GPRMC,030902.977,A,3748.7319,N,12217.7238,W,2.25,99.35,180610,,,A*4D
$GPVTG,99.35,T,,M,2.25,N,4.2,K,N*37
$GPGGA,030903.977,3748.7293,N,12217.7247,W,1,03,3.1,25.1,M,-25.1,M,,0000*54
$GPGSA,A,2,28,04,17,,,,,,,,,,3.2,3.1,1.0*39
$GPRMC,030903.977,A,3748.7293,N,12217.7247,W,2.84,89.78,180610,,,A*44
$GPVTG,89.78,T,,M,2.84,N,5.3,K,N*34
$GPGGA,030904.977,3748.7259,N,12217.7267,W,1,03,3.1,25.1,M,-25.1,M,,0000*57
$GPGSA,A,2,28,04,17,,,,,,,,,,3.2,3.1,1.0*39
$GPRMC,030904.977,A,3748.7259,N,12217.7267,W,3.23,85.74,180610,,,A*4B
$GPVTG,85.74,T,,M,3.23,N,6.0,K,N*38
$GPGGA,030905.977,3748.7338,N,12217.7145,W,1,03,3.1,25.1,M,-25.1,M,,0000*53
$GPGSA,A,2,28,04,17,,,,,,,,,,3.2,3.1,1.0*39
$GPGSV,3,1,10,17,49,044,36,04,49,137,21,28,23,091,28,27,61,290,26*7F
$GPGSV,3,2,10,09,53,301,29,02,24,180,,26,20,233,,12,17,294,29*77
$GPGSV,3,3,10,15,15,232,,08,01,146,*71
$GPVTG,114.67,T,,M,2.16,N,4.0,K,N*06
$GPGGA,030906.977,3748.7355,N,12217.7117,W,1,03,3.1,25.1,M,-25.1,M,,0000*5C
$GPGSA,A,2,28,04,17,,,,,,,,,,3.3,3.1,1.0*38
$GPRMC,030906.977,A,3748.7355,N,12217.7117,W,2.39,108.90,180610,,,A*74
$GPVTG,108.90,T,,M,2.39,N,4.4,K,N*0A
$GPGGA,030907.977,3748.7314,N,12217.7216,W,1,03,3.1,25.1,M,-25.1,M,,0000*5A
$GPGSA,A,2,28,04,17,,,,,,,,,,3.3,3.1,1.0*38
$GPRMC,030907.977,A,3748.7314,N,12217.7216,W,3.71,76.07,180610,,,A*49
$GPVTG,76.07,T,,M,3.71,N,6.9,K,N*3E
$GPGGA,030908.977,3748.7303,N,12217.7156,W,1,03,3.1,25.1,M,-25.1,M,,0000*54
$GPGSA,A,2,28,04,17,,,,,,,,,,3.3,3.1,1.0*38
$GPRMC,030908.977,A,3748.7303,N,12217.7156,W,1.77,107.73,180610,,,A*77
$GPVTG,107.73,T,,M,1.77,N,3.3,K,N*01
$GPGGA,030909.977,3748.7324,N,12217.7098,W,1,03,3.1,25.1,M,-25.1,M,,0000*53
$GPGSA,A,2,28,04,17,,,,,,,,,,3.3,3.1,1.0*38
$GPRMC,030909.977,A,3748.7324,N,12217.7098,W,1.60,92.92,180610,,,A*44
$GPVTG,92.92,T,,M,1.60,N,3.0,K,N*36
$GPGGA,030910.977,3748.7298,N,12217.7188,W,1,03,3.1,25.1,M,-25.1,M,,0000*5D
$GPGSA,A,2,28,04,17,,,,,,,,,,3.3,3.1,1.0*38
$GPGSV,3,1,10,04,49,137,20,17,49,044,36,28,23,091,24,27,61,289,24*78
$GPGSV,3,2,10,09,53,301,28,02,24,180,,26,20,233,,12,17,294,30*7E
$GPGSV,3,3,10,15,15,232,,08,01,146,*71
$GPRMC,030910.977,A,3748.7298,N,12217.7188,W,3.15,89.66,180610,,,A*4B
$GPVTG,89.66,T,,M,3.15,N,5.8,K,N*39
$GPGGA,030914.977,3748.7286,N,12217.7142,W,1,03,3.1,25.1,M,-25.1,M,,0000*50
$GPGSA,A,2,28,04,17,,,,,,,,,,3.3,3.1,1.0*38
$GPRMC,030914.977,A,3748.7286,N,12217.7142,W,4.04,70.74,180610,,,A*44
$GPVTG,70.74,T,,M,4.04,N,7.5,K,N*34
$GPGGA,030915.977,3748.7241,N,12217.7267,W,1,03,3.1,25.1,M,-25.1,M,,0000*5E
$GPGSA,A,2,28,04,17,,,,,,,,,,3.3,3.1,1.0*38
$GPGSV,3,1,10,04,49,137,25,17,49,044,37,28,23,091,26,27,61,289,25*7F
$GPGSV,3,2,10,09,53,301,28,02,24,180,,26,20,233,,12,17,294,30*7E
$GPGSV,3,3,10,15,15,232,,08,01,146,*71
$GPRMC,030915.977,A,3748.7241,N,12217.7267,W,1.53,62.00,180610,,,A*4D
$GPVTG,62.00,T,,M,1.53,N,2.8,K,N*3B
$GPGGA,030916.977,3748.7216,N,12217.7168,W,1,03,3.1,25.1,M,-25.1,M,,0000*53
$GPGSA,A,2,28,04,17,,,,,,,,,,3.3,3.1,1.0*38
$GPRMC,030916.977,A,3748.7216,N,12217.7168,W,2.46,69.14,180610,,,A*49
$GPVTG,69.14,T,,M,2.46,N,4.6,K,N*3A
$GPGGA,030918.977,3748.7302,N,12217.7059,W,1,03,3.1,25.1,M,-25.1,M,,0000*5A
$GPGSA,A,2,28,04,17,,,,,,,,,,3.3,3.1,1.0*38
$GPRMC,030918.977,A,3748.7302,N,12217.7059,W,5.75,69.02,180610,,,A*40
$GPVTG,69.02,T,,M,5.75,N,10.7,K,N*0E
$GPGGA,030919.977,3748.7314,N,12217.6966,W,1,03,3.1,25.1,M,-25.1,M,,0000*58
$GPGSA,A,2,28,04,17,,,,,,,,,,3.3,3.1,1.0*38
$GPRMC,030919.977,A,3748.7314,N,12217.6966,W,3.93,71.69,180610,,,A*48
$GPVTG,71.69,T,,M,3.93,N,7.3,K,N*36
$GPGGA,030920.977,3748.7285,N,12217.7026,W,1,03,3.1,25.1,M,-25.1,M,,0000*57
$GPGSA,A,2,28,04,17,,,,,,,,,,3.3,3.1,1.0*38
$GPGSV,3,1,10,04,49,137,19,17,49,044,37,28,23,091,26,27,61,289,24*71
$GPGSV,3,2,10,09,53,301,28,02,24,180,,26,20,233,,12,17,294,23*7C
$GPGSV,3,3,10,15,15,232,,08,01,146,*71
$GPRMC,030920.977,A,3748.7285,N,12217.7026,W,1.80,60.91,180610,,,A*40
$GPGGA,030922.977,3748.7298,N,12217.6987,W,1,03,3.1,25.1,M,-25.1,M,,0000*5A
$GPGSA,A,2,28,04,17,,,,,,,,,,3.3,3.1,1.0*38
$GPRMC,030922.977,A,3748.7298,N,12217.6987,W,3.27,75.71,180610,,,A*48
$GPVTG,75.71,T,,M,3.27,N,6.1,K,N*37
$GPGGA,030923.977,3748.7277,N,12217.7189,W,1,03,3.1,25.1,M,-25.1,M,,0000*5D
$GPGSA,A,2,28,04,17,,,,,,,,,,3.3,3.1,1.0*38
$GPRMC,030923.977,A,3748.7277,N,12217.7189,W,4.17,70.84,180610,,,A*44
$GPVTG,70.84,T,,M,4.17,N,7.7,K,N*3B
$GPGGA,030928.977,3748.7282,N,12217.7001,W,1,03,3.1,25.1,M,-25.1,M,,0000*5D
$GPGSA,A,2,28,04,17,,,,,,,,,,3.3,3.1,1.0*38
$GPRMC,030928.977,A,3748.7282,N,12217.7001,W,3.72,76.95,180610,,,A*46
$GPVTG,76.95,T,,M,3.72,N,6.9,K,N*36
$GPGGA,031034.977,3748.7316,N,12217.7273,W,1,04,2.4,-76.7,M,-25.1,M,,0000*7D
$GPGSA,A,3,28,04,17,27,,,,,,,,,5.8,2.4,5.2*33
$GPRMC,031034.977,A,3748.7316,N,12217.7273,W,0.54,249.13,180610,,,A*7F
$GPVTG,249.13,T,,M,0.54,N,1.0,K,A*00
$GPGGA,031035.977,3748.7312,N,12217.7232,W,1,04,2.4,-37.1,M,-25.1,M,,0000*7E
$GPGSA,A,3,28,04,17,27,,,,,,,,,5.8,2.4,5.2*33
$GPGSV,3,1,12,27,61,288,20,04,49,136,31,17,48,044,16,28,23,091,21*78
$GPGSV,3,2,12,09,54,300,20,02,25,180,33,26,19,233,35,12,17,295,*7D
$GPGSV,3,3,12,15,15,231,22,08,00,147,,20,00,059,,48,44,197,34*7A
$GPRMC,031035.977,A,3748.7312,N,12217.7232,W,0.81,51.21,180610,,,A*4D
$GPVTG,51.21,T,,M,0.81,N,1.5,K,A*37
$GPGGA,031036.977,3748.7362,N,12217.7190,W,1,04,2.4,-45.4,M,-25.1,M,,0000*71
$GPGSA,A,3,28,04,17,27,,,,,,,,,5.8,2.4,5.2*33
$GPRMC,031036.977,A,3748.7362,N,12217.7190,W,0.68,167.82,180610,,,A*78
$GPVTG,167.82,T,,M,0.68,N,1.3,K,A*0B
$GPGGA,031038.000,3748.7366,N,12217.7168,W,1,04,2.4,-38.5,M,-25.1,M,,0000*7E
$GPGSA,A,3,28,04,17,27,,,,,,,,,5.8,2.4,5.2*33
$GPRMC,031038.000,A,3748.7366,N,12217.7168,W,0.39,223.88,180610,,,A*71
$GPVTG,223.88,T,,M,0.39,N,0.7,K,A*03
$GPGGA,031039.000,3748.7386,N,12217.7151,W,1,03,3.1,-30.6,M,-25.1,M,,0000*73
$GPGSA,A,2,28,04,17,,,,,,,,,,3.3,3.1,1.0*38
$GPRMC,031039.000,A,3748.7386,N,12217.7151,W,0.69,330.40,180610,,,A*76
$GPVTG,330.40,T,,M,0.69,N,1.3,K,N*0B
$GPGGA,031040.000,3748.7395,N,12217.7127,W,1,04,2.4,-20.7,M,-25.1,M,,0000*7D
$GPGSA,A,3,28,04,17,27,,,,,,,,,5.8,2.4,5.2*33
$GPRMC,031040.000,A,3748.7395,N,12217.7127,W,1.38,299.15,180610,,,A*7C
$GPVTG,299.15,T,,M,1.38,N,2.6,K,A*05
$GPGGA,031041.000,3748.7382,N,12217.7123,W,1,04,2.4,-16.3,M,-25.1,M,,0000*7F
$GPGSA,A,3,28,04,17,27,,,,,,,,,5.8,2.4,5.2*33
$GPGSV,3,1,12,27,61,288,20,04,49,136,23,17,48,044,23,28,23,091,21*7D
$GPGSV,3,2,12,09,54,300,,02,25,180,29,26,19,233,26,12,17,295,21*75
$GPGSV,3,3,12,15,15,231,20,08,00,147,,20,00,059,,48,44,197,28*75
$GPRMC,031041.000,A,3748.7382,N,12217.7123,W,1.39,292.34,180610,,,A*76
$GPVTG,292.34,T,,M,1.39,N,2.6,K,A*0C
$GPGGA,031042.000,3748.7380,N,12217.7115,W,1,04,2.4,-16.1,M,-25.1,M,,0000*79
$GPGSA,A,3,28,04,17,27,,,,,,,,,5.8,2.4,5.2*33
$GPRMC,031042.000,A,3748.7380,N,12217.7115,W,0.41,252.22,180610,,,A*77
$GPVTG,252.22,T,,M,0.41,N,0.8,K,A*05
$GPGGA,031043.000,3748.7384,N,12217.7098,W,1,04,2.4,-15.2,M,-25.1,M,,0000*78
$GPGSA,A,3,28,04,17,27,,,,,,,,,5.8,2.4,5.2*33
$GPRMC,031043.000,A,3748.7384,N,12217.7098,W,0.44,189.99,180610,,,A*76
$GPVTG,189.99,T,,M,0.44,N,0.8,K,A*05
$GPGGA,031044.000,3748.7374,N,12217.7102,W,1,04,2.4,-15.9,M,-25.1,M,,0000*79
$GPGSA,A,3,28,04,17,27,,,,,,,,,5.8,2.4,5.2*33
$GPRMC,031044.000,A,3748.7374,N,12217.7102,W,0.80,227.29,180610,,,A*78
$GPVTG,227.29,T,,M,0.80,N,1.5,K,A*0D
$GPGGA,031045.000,3748.7372,N,12217.7109,W,1,04,2.4,-18.3,M,-25.1,M,,0000*72
$GPGSA,A,3,28,04,17,27,,,,,,,,,5.8,2.4,5.2*33
$GPRMC,031045.000,A,3748.7372,N,12217.7109,W,0.99,247.80,180610,,,A*79
$GPVTG,247.80,T,,M,0.99,N,1.8,K,A*0D
$GPGGA,031046.000,3748.7373,N,12217.7110,W,1,03,3.1,-18.7,M,-25.1,M,,0000*7F
$GPGSA,A,2,28,04,17,,,,,,,,,,3.3,3.1,1.0*38
$GPGSV,3,1,12,27,61,288,14,04,49,136,33,17,48,044,17,28,23,091,29*74
$GPGSV,3,2,12,09,54,300,,02,25,180,33,26,19,233,23,12,17,295,19*70
$GPGSV,3,3,12,15,15,231,19,08,00,147,,20,00,059,,48,44,197,33*75
$GPRMC,031046.000,A,3748.7373,N,12217.7110,W,0.76,227.33,180610,,,A*7C
$GPGGA,031047.000,3748.7377,N,12217.7106,W,1,03,3.1,-17.8,M,-25.1,M,,0000*7D
$GPGSA,A,2,28,04,17,,,,,,,,,,3.3,3.1,1.0*38
$GPRMC,031047.000,A,3748.7377,N,12217.7106,W,0.83,188.19,180610,,,A*7A
$GPVTG,188.19,T,,M,0.83,N,1.5,K,N*04
$GPGGA,031048.000,3748.7375,N,12217.7103,W,1,03,3.1,-17.8,M,-25.1,M,,0000*75
$GPGSA,A,2,28,04,17,,,,,,,,,,3.3,3.1,1.0*38
$GPRMC,031048.000,A,3748.7375,N,12217.7103,W,1.32,164.78,180610,,,A*7C
$GPVTG,164.78,T,,M,1.32,N,2.5,K,N*09
$GPGGA,031049.000,3748.7372,N,12217.7102,W,6,00,50.0,-18.1,M,-25.1,M,,0000*47
$GPGSA,A,2,,,,,,,,,,,,,50.0,50.0,50.0*06
$GPRMC,031049.000,A,3748.7372,N,12217.7102,W,1.32,164.78,180610,,,E*7F
$GPVTG,164.78,T,,M,1.32,N,2.5,K,N*09
$GPGGA,031050.000,3748.7368,N,12217.7101,W,6,00,50.0,-18.4,M,-25.1,M,,0000*42
$GPGSA,A,2,,,,,,,,,,,,,50.0,50.0,50.0*06
$GPRMC,031050.000,A,3748.7368,N,12217.7101,W,1.32,164.78,180610,,,E*7F
$GPVTG,164.78,T,,M,1.32,N,2.5,K,N*09
$GPGGA,031051.000,3748.7383,N,12217.7101,W,1,03,3.1,-16.5,M,-25.1,M,,0000*7A
$GPGSA,A,2,28,04,17,,,,,,,,,,3.3,3.1,1.0*38
$GPGSV,3,1,12,27,61,288,,04,49,136,34,17,48,044,23,28,23,091,30*79
$GPGSV,3,2,12,09,54,300,,02,25,180,,26,19,233,,12,17,295,20*7B
$GPGSV,3,3,12,15,15,231,19,08,00,147,,20,00,059,,48,44,197,27*70
$GPRMC,031051.000,A,3748.7383,N,12217.7101,W,0.38,318.59,180610,,,A*7E
$GPVTG,318.59,T,,M,0.38,N,0.7,K,N*08
$GPGGA,031052.000,3748.7400,N,12217.7103,W,1,03,3.1,-14.0,M,-25.1,M,,0000*70
$GPGSA,A,2,28,04,17,,,,,,,,,,3.3,3.1,1.0*38
$GPRMC,031052.000,A,3748.7400,N,12217.7103,W,0.87,265.13,180610,,,A*72
$GPVTG,265.13,T,,M,0.87,N,1.6,K,N*09
$GPGGA,031053.000,3748.7396,N,12217.7102,W,1,03,3.1,-13.9,M,-25.1,M,,0000*76
$GPGSA,A,2,28,04,17,,,,,,,,,,3.3,3.1,1.0*38
$GPRMC,031053.000,A,3748.7396,N,12217.7102,W,1.59,195.77,180610,,,A*76
$GPVTG,195.77,T,,M,1.59,N,2.9,K,N*09
$GPGGA,031054.000,3748.7397,N,12217.7103,W,1,03,3.1,-13.1,M,-25.1,M,,0000*79
$GPGSA,A,2,28,04,17,,,,,,,,,,3.3,3.1,1.0*38
$GPRMC,031054.000,A,3748.7397,N,12217.7103,W,1.59,204.13,180610,,,A*78
$GPVTG,204.13,T,,M,1.59,N,3.0,K,N*08
$GPGGA,031055.000,3748.7396,N,12217.7106,W,1,03,3.1,-12.5,M,-25.1,M,,0000*79
$GPGSA,A,2,28,04,17,,,,,,,,,,3.3,3.1,1.0*38
$GPRMC,031055.000,A,3748.7396,N,12217.7106,W,1.52,215.72,180610,,,A*71
$GPVTG,215.72,T,,M,1.52,N,2.8,K,N*0D
$GPGGA,031056.000,3748.7396,N,12217.7118,W,1,04,2.4,-13.1,M,-25.1,M,,0000*73
$GPGSA,A,3,28,04,27,17,,,,,,,,,5.8,2.4,5.2*33
$GPGSV,3,1,11,27,61,288,14,04,49,136,35,17,48,044,31,28,23,091,37*7A
$GPGSV,3,2,11,09,54,300,,02,25,180,,26,19,233,,12,17,295,19*72
$GPGSV,3,3,11,15,15,231,,08,00,147,,20,00,059,*4D
$GPVTG,207.44,T,,M,1.37,N,2.5,K,A*0A
$GPGGA,031057.000,3748.7393,N,12217.7121,W,1,04,2.4,-13.2,M,-25.1,M,,0000*7E
$GPGSA,A,3,28,04,27,17,,,,,,,,,5.8,2.4,5.2*33
$GPRMC,031057.000,A,3748.7393,N,12217.7121,W,1.54,194.21,180610,,,A*79
$GPVTG,194.21,T,,M,1.54,N,2.9,K,A*09
$GPGGA,031058.000,3748.7391,N,12217.7128,W,1,04,2.4,-13.6,M,-25.1,M,,0000*7E
$GPGSA,A,3,28,04,27,17,,,,,,,,,5.8,2.4,5.2*33
$GPRMC,031058.000,A,3748.7391,N,12217.7128,W,1.64,187.94,180610,,,A*72
$GPVTG,187.94,T,,M,1.64,N,3.0,K,A*0E
$GPGGA,031059.000,3748.7386,N,12217.7130,W,1,03,3.1,-13.8,M,-25.1,M,,0000*7D
$GPGSA,A,2,28,04,17,,,,,,,,,,3.3,3.1,1.0*38
$GPRMC,031059.000,A,3748.7386,N,12217.7130,W,1.62,194.37,180610,,,A*71
$GPVTG,194.37,T,,M,1.62,N,3.0,K,N*0C
$GPGGA,031100.000,3748.7384,N,12217.7131,W,1,03,3.1,-13.2,M,-25.1,M,,0000*79
$GPGSA,A,2,28,04,17,,,,,,,,,,3.3,3.1,1.0*38
$GPRMC,031100.000,A,3748.7384,N,12217.7131,W,1.49,201.36,180610,,,A*78
$GPVTG,201.36,T,,M,1.49,N,2.8,K,A*0D
$GPGGA,031101.000,3748.7384,N,12217.7133,W,1,03,3.1,-12.5,M,-25.1,M,,0000*7C
$GPGSA,A,2,28,04,17,,,,,,,,,,3.3,3.1,1.0*38
$GPGSV,3,1,11,27,61,288,12,04,49,136,35,17,48,044,29,28,23,091,36*74
$GPGSV,3,2,11,09,54,300,,02,25,180,,26,19,233,,12,17,295,19*72
$GPGSV,3,3,11,15,15,231,,08,00,147,,20,00,059,*4D
$GPRMC,031101.000,A,3748.7384,N,12217.7133,W,1.12,229.30,180610,,,A*79
$GPVTG,229.30,T,,M,1.12,N,2.1,K,A*06
$GPGGA,031102.000,3748.7383,N,12217.7134,W,1,03,3.1,-12.0,M,-25.1,M,,0000*7A
$GPGSA,A,2,28,04,17,,,,,,,,,,3.3,3.1,1.0*38
$GPRMC,031102.000,A,3748.7383,N,12217.7134,W,1.04,204.36,180610,,,A*74
$GPVTG,204.36,T,,M,1.04,N,1.9,K,A*03
$GPGGA,031103.000,3748.7379,N,12217.7134,W,1,03,3.1,-11.8,M,-25.1,M,,0000*75
$GPGSA,A,2,28,04,17,,,,,,,,,,3.3,3.1,1.0*38
$GPRMC,031103.000,A,3748.7379,N,12217.7134,W,0.89,201.68,180610,,,A*7A
$GPVTG,201.68,T,,M,0.89,N,1.6,K,A*06
$GPGGA,031104.000,3748.7376,N,12217.7133,W,1,03,3.1,-11.5,M,-25.1,M,,0000*77
$GPGSA,A,2,28,04,17,,,,,,,,,,3.3,3.1,1.0*38
$GPRMC,031104.000,A,3748.7376,N,12217.7133,W,0.99,186.11,180610,,,A*76
$GPVTG,186.11,T,,M,0.99,N,1.8,K,A*0B
$GPGGA,031105.000,3748.7372,N,12217.7131,W,1,03,3.1,-11.2,M,-25.1,M,,0000*77
$GPGSA,A,2,28,04,17,,,,,,,,,,3.3,3.1,1.0*38
$GPRMC,031105.000,A,3748.7372,N,12217.7131,W,1.01,174.43,180610,,,A*7B
$GPVTG,174.43,T,,M,1.01,N,1.9,K,A*00
$GPGGA,031106.000,3748.7368,N,12217.7131,W,1,03,3.1,-11.1,M,-25.1,M,,0000*7C
$GPGSA,A,2,28,04,17,,,,,,,,,,3.3,3.1,1.0*38
$GPGSV,3,1,11,27,61,288,14,04,49,136,36,17,48,044,28,28,23,091,36*70
$GPGSV,3,2,11,09,54,300,,02,25,180,,26,19,233,,12,17,295,18*73
$GPGSV,3,3,11,15,15,231,,08,00,147,,20,00,059,*4D
$GPRMC,031106.000,A,3748.7368,N,12217.7131,W,1.22,178.21,180610,,,A*7A
$GPVTG,178.21,T,,M,1.22,N,2.3,K,A*00
$GPGGA,031107.000,3748.7361,N,12217.7115,W,1,04,2.4,-9.5,M,-25.1,M,,0000*4C
$GPGSA,A,3,28,04,27,17,,,,,,,,,5.8,2.4,5.2*33
$GPRMC,031107.000,A,3748.7361,N,12217.7115,W,1.41,172.25,180610,,,A*7F
$GPVTG,172.25,T,,M,1.41,N,2.6,K,A*0E
$GPGGA,031108.000,3748.7357,N,12217.7129,W,1,04,2.4,-10.6,M,-25.1,M,,0000*72
$GPGSA,A,3,28,04,27,17,,,,,,,,,5.8,2.4,5.2*33
$GPRMC,031108.000,A,3748.7357,N,12217.7129,W,0.34,169.65,180610,,,A*77
$GPVTG,169.65,T,,M,0.34,N,0.6,K,A*01
$GPGGA,031109.000,3748.7362,N,12217.7111,W,1,04,2.4,-7.1,M,-25.1,M,,0000*4F
$GPGSA,A,3,28,04,27,17,,,,,,,,,5.8,2.4,5.2*33
$GPRMC,031109.000,A,3748.7362,N,12217.7111,W,1.53,58.97,180610,,,A*45
$GPVTG,58.97,T,,M,1.53,N,2.8,K,A*33
$GPGGA,031110.000,3748.7365,N,12217.7108,W,1,04,2.4,-6.9,M,-25.1,M,,0000*41
$GPGSA,A,3,28,04,27,17,,,,,,,,,5.8,2.4,5.2*33
$GPRMC,031110.000,A,3748.7365,N,12217.7108,W,1.59,54.23,180610,,,A*4B
$GPVTG,54.23,T,,M,1.59,N,2.9,K,A*3B
$GPGGA,031111.000,3748.7375,N,12217.7107,W,1,04,2.4,-7.2,M,-25.1,M,,0000*44
$GPGSA,A,3,28,04,27,17,,,,,,,,,5.8,2.4,5.2*33
$GPGSV,3,1,12,27,61,288,34,04,49,136,24,17,48,044,18,28,23,091,25*73
$GPGSV,3,2,12,09,54,300,36,02,25,180,,26,19,233,,12,17,295,34*7B
$GPGSV,3,3,12,15,15,231,,08,00,147,,20,00,059,,48,44,197,27*78
$GPRMC,031111.000,A,3748.7375,N,12217.7107,W,2.39,26.82,180610,,,A*4F
$GPGGA,031112.000,3748.7382,N,12217.7112,W,1,03,2.8,-8.5,M,-25.1,M,,0000*48
$GPGSA,A,2,28,04,27,,,,,,,,,,2.9,2.8,1.0*38
$GPRMC,031112.000,A,3748.7382,N,12217.7112,W,1.31,12.70,180610,,,A*41
$GPVTG,12.70,T,,M,1.31,N,2.4,K,A*3C
$GPGGA,031113.000,3748.7375,N,12217.7119,W,1,04,2.4,-9.6,M,-25.1,M,,0000*43
$GPGSA,A,3,28,04,27,17,,,,,,,,,5.8,2.4,5.2*33
$GPRMC,031113.000,A,3748.7375,N,12217.7119,W,0.50,95.61,180610,,,A*4A
$GPVTG,95.61,T,,M,0.50,N,0.9,K,A*3A
$GPGGA,031114.000,3748.7382,N,12217.7123,W,1,04,2.4,-10.5,M,-25.1,M,,0000*7E
$GPGSA,A,3,28,04,27,17,,,,,,,,,5.7,2.4,5.2*3C
$GPRMC,031114.000,A,3748.7382,N,12217.7123,W,0.62,44.86,180610,,,A*48
$GPVTG,44.86,T,,M,0.62,N,1.2,K,A*34
$GPGGA,031115.000,3748.7386,N,12217.7122,W,1,04,2.4,-11.4,M,-25.1,M,,0000*7A
$GPGSA,A,3,28,04,27,17,,,,,,,,,5.7,2.4,5.2*3C
$GPRMC,031115.000,A,3748.7386,N,12217.7122,W,1.31,6.15,180610,,,A*77
$GPVTG,6.15,T,,M,1.31,N,2.4,K,A*0A
$GPGGA,031116.000,3748.7386,N,12217.7120,W,1,04,2.4,-12.2,M,-25.1,M,,0000*7E
$GPGSA,A,3,28,04,27,17,,,,,,,,,5.7,2.4,5.2*3C
$GPGSV,3,1,11,27,61,288,28,04,49,136,32,17,48,044,18,28,23,091,25*7A
$GPGSV,3,2,11,09,54,300,24,02,25,180,,26,19,233,,12,17,295,18*75
$GPGSV,3,3,11,15,15,231,,08,00,147,,20,00,059,*4D
$GPRMC,031116.000,A,3748.7386,N,12217.7120,W,1.56,36.15,180610,,,A*44
$GPVTG,36.15,T,,M,1.56,N,2.9,K,A*35
$GPGGA,031117.000,3748.7394,N,12217.7111,W,1,04,2.4,-10.4,M,-25.1,M,,0000*7A
$GPGSA,A,3,28,04,27,17,,,,,,,,,5.7,2.4,5.2*3C
$GPRMC,031117.000,A,3748.7394,N,12217.7111,W,1.62,31.95,180610,,,A*4C
$GPVTG,31.95,T,,M,1.62,N,3.0,K,A*35
$GPGGA,031118.000,3748.7393,N,12217.7105,W,1,04,2.4,-11.0,M,-25.1,M,,0000*72
$GPGSA,A,3,28,04,27,17,,,,,,,,,5.7,2.4,5.2*3C
$GPRMC,031118.000,A,3748.7393,N,12217.7105,W,1.07,59.25,180610,,,A*47
$GPVTG,59.25,T,,M,1.07,N,2.0,K,A*32
$GPGGA,031119.000,3748.7400,N,12217.7103,W,1,04,2.4,-11.5,M,-25.1,M,,0000*7D
$GPGSA,A,3,28,04,27,17,,,,,,,,,5.7,2.4,5.2*3C
$GPRMC,031119.000,A,3748.7400,N,12217.7103,W,1.15,52.23,180610,,,A*43
$GPVTG,52.23,T,,M,1.15,N,2.1,K,A*3D
$GPGGA,031120.000,3748.7404,N,12217.7102,W,1,04,2.4,-11.2,M,-25.1,M,,0000*75
$GPGSA,A,3,28,04,27,17,,,,,,,,,5.7,2.4,5.2*3C
$GPRMC,031120.000,A,3748.7404,N,12217.7102,W,0.99,16.83,180610,,,A*43
$GPVTG,16.83,T,,M,0.99,N,1.8,K,A*38
$GPGGA,031121.000,3748.7402,N,12217.7104,W,1,04,2.4,-10.8,M,-25.1,M,,0000*7F
$GPGSA,A,3,28,04,27,17,,,,,,,,,5.7,2.4,5.2*3C
$GPGSV,3,1,11,27,61,288,31,04,49,136,26,17,48,044,19,28,23,091,22*71
$GPGSV,3,2,11,09,54,300,35,02,25,180,,26,19,233,23,12,17,295,40*79
$GPRMC,031121.000,A,3748.7402,N,12217.7104,W,0.67,330.56,180610,,,A*7C
$GPVTG,330.56,T,,M,0.67,N,1.2,K,A*0C
$GPGGA,031122.000,3748.7405,N,12217.7097,W,1,04,2.4,-11.3,M,-25.1,M,,0000*7A
$GPGSA,A,3,28,04,27,17,,,,,,,,,5.7,2.4,5.2*3C
$GPRMC,031122.000,A,3748.7405,N,12217.7097,W,1.13,78.33,180610,,,A*4D
$GPVTG,78.33,T,,M,1.13,N,2.1,K,A*32
$GPGGA,031123.000,3748.7409,N,12217.7088,W,1,04,2.4,-12.0,M,-25.1,M,,0000*79
$GPGSA,A,3,28,04,27,17,,,,,,,,,5.7,2.4,5.2*3C
$GPRMC,031123.000,A,3748.7409,N,12217.7088,W,1.63,53.43,180610,,,A*47
$GPVTG,53.43,T,,M,1.63,N,3.0,K,A*3B
$GPGGA,031124.000,3748.7408,N,12217.7085,W,1,04,2.4,-12.4,M,-25.1,M,,0000*76
$GPGSA,A,3,28,04,27,17,,,,,,,,,5.7,2.4,5.2*3C
$GPRMC,031124.000,A,3748.7408,N,12217.7085,W,1.08,33.77,180610,,,A*40
$GPVTG,33.77,T,,M,1.08,N,2.0,K,A*36
$GPGGA,031125.000,3748.7410,N,12217.7085,W,1,04,2.4,-12.1,M,-25.1,M,,0000*7B
$GPGSA,A,3,28,04,27,17,,,,,,,,,5.7,2.4,5.2*3C
$GPRMC,031125.000,A,3748.7410,N,12217.7085,W,0.86,23.04,180610,,,A*4A
$GPVTG,23.04,T,,M,0.86,N,1.6,K,A*31
$GPGGA,031126.000,3748.7411,N,12217.7089,W,1,04,2.4,-12.7,M,-25.1,M,,0000*73
$GPGSA,A,3,28,04,27,17,,,,,,,,,5.7,2.4,5.2*3C
$GPGSV,3,1,12,27,61,288,33,04,49,136,24,17,48,044,18,28,23,091,21*70
$GPGSV,3,2,12,09,54,300,32,02,25,180,,26,19,233,15,12,17,295,18*75
$GPGSV,3,3,12,15,15,231,,08,00,147,,20,00,059,,48,44,197,27*78
$GPRMC,031126.000,A,3748.7411,N,12217.7089,W,1.10,9.72,180610,,,A*73
$GPVTG,9.72,T,,M,1.10,N,2.0,K,A*03
$GPGGA,031127.000,3748.7413,N,12217.7091,W,1,04,2.4,-15.9,M,-25.1,M,,0000*70
$GPGSA,A,3,28,04,27,17,,,,,,,,,5.7,2.4,5.2*3C
$GPRMC,031127.000,A,3748.7413,N,12217.7091,W,1.66,24.13,180610,,,A*40
$GPVTG,24.13,T,,M,1.66,N,3.1,K,A*3A
$GPGGA,031128.000,3748.7412,N,12217.7090,W,1,04,2.4,-16.9,M,-25.1,M,,0000*7C
$GPGSA,A,3,28,04,27,17,,,,,,,,,5.7,2.4,5.2*3C
$GPRMC,031128.000,A,3748.7412,N,12217.7090,W,2.00,31.30,180610,,,A*49
$GPVTG,31.30,T,,M,2.00,N,3.7,K,A*3A
$GPGGA,031129.000,3748.7422,N,12217.7087,W,1,03,2.8,-17.9,M,-25.1,M,,0000*72
$GPGSA,A,2,28,04,27,,,,,,,,,,2.9,2.8,1.0*38
$GPRMC,031129.000,A,3748.7422,N,12217.7087,W,2.39,23.91,180610,,,A*4F
$GPVTG,23.91,T,,M,2.39,N,4.4,K,A*3C
$GPGGA,031130.000,3748.7433,N,12217.7080,W,1,04,2.4,-19.3,M,-25.1,M,,0000*72
$GPGSA,A,3,28,04,27,17,,,,,,,,,5.7,2.4,5.2*3C
$GPRMC,031130.000,A,3748.7433,N,12217.7080,W,1.70,21.26,180610,,,A*40
$GPVTG,21.26,T,,M,1.70,N,3.1,K,A*3E
$GPGGA,031131.000,3748.7438,N,12217.7070,W,1,04,2.4,-15.2,M,-25.1,M,,0000*7A
$GPGSA,A,3,28,04,27,17,,,,,,,,,5.7,2.4,5.2*3C
$GPGSV,3,1,11,27,61,288,29,04,49,136,18,17,48,044,21,28,23,091,17*78
$GPGSV,3,2,11,09,54,300,32,02,25,180,,26,19,233,25,12,17,295,16*7B
$GPGSV,3,3,11,15,15,231,,08,00,147,,20,00,059,*4D
$GPRMC,031131.000,A,3748.7438,N,12217.7070,W,1.95,6.85,180610,,,A*72
$GPVTG,6.85,T,,M,1.95,N,3.6,K,A*0E
$GPGGA,031132.000,3748.7445,N,12217.7057,W,1,03,2.0,-12.5,M,-25.1,M,,0000*75
$GPGSA,A,2,04,27,17,,,,,,,,,,2.3,2.0,1.0*36
$GPRMC,031132.000,A,3748.7445,N,12217.7057,W,2.08,32.41,180610,,,A*46
$GPVTG,32.41,T,,M,2.08,N,3.9,K,A*39
$GPGGA,031133.000,3748.7455,N,12217.7048,W,1,04,2.4,-11.0,M,-25.1,M,,0000*7E
$GPGSA,A,3,28,04,27,17,,,,,,,,,5.7,2.4,5.2*3C
$GPRMC,031133.000,A,3748.7455,N,12217.7048,W,2.45,35.31,180610,,,A*41
$GPVTG,35.31,T,,M,2.45,N,4.5,K,A*3B
$GPGGA,031134.000,3748.7471,N,12217.7037,W,1,04,2.4,-9.6,M,-25.1,M,,0000*48
$GPGSA,A,3,28,04,27,17,,,,,,,,,5.7,2.4,5.2*3C
$GPRMC,031134.000,A,3748.7471,N,12217.7037,W,3.47,21.83,180610,,,A*47
$GPVTG,21.83,T,,M,3.47,N,6.4,K,A*37
$GPGGA,031135.000,3748.7482,N,12217.7025,W,1,04,2.4,-5.9,M,-25.1,M,,0000*45
$GPGSA,A,3,28,04,27,17,,,,,,,,,5.7,2.4,5.2*3C
$GPRMC,031135.000,A,3748.7482,N,12217.7025,W,3.51,28.38,180610,,,A*47
$GPVTG,28.38,T,,M,3.51,N,6.5,K,A*38
$GPGGA,031136.000,3748.7499,N,12217.7014,W,1,04,2.4,-3.3,M,-25.1,M,,0000*42
$GPGSA,A,3,28,04,27,17,,,,,,,,,5.7,2.4,5.2*3C
$GPGSV,3,1,11,27,61,288,34,04,49,136,20,17,48,044,21,28,23,091,19*71
$GPGSV,3,2,11,09,54,300,38,02,25,180,,26,19,233,23,12,17,295,19*78
$GPGSV,3,3,11,15,15,231,,08,00,147,,20,00,059,*4D
$GPRMC,031136.000,A,3748.7499,N,12217.7014,W,3.30,32.49,180610,,,A*46
$GPGGA,031137.000,3748.7504,N,12217.7007,W,1,04,2.4,-0.5,M,-25.1,M,,0000*41
$GPGSA,A,3,28,04,27,17,,,,,,,,,5.7,2.4,5.2*3C
$GPRMC,031137.000,A,3748.7504,N,12217.7007,W,1.61,31.98,180610,,,A*49
$GPVTG,31.98,T,,M,1.61,N,3.0,K,A*3B
$GPGGA,031138.000,3748.7512,N,12217.6994,W,1,04,2.4,4.6,M,-25.1,M,,0000*61
$GPGSA,A,3,28,04,27,17,,,,,,,,,5.7,2.4,5.2*3C
$GPRMC,031138.000,A,3748.7512,N,12217.6994,W,2.41,32.06,180610,,,A*46
$GPVTG,32.06,T,,M,2.41,N,4.5,K,A*3C
$GPGGA,031139.000,3748.7523,N,12217.6984,W,1,04,2.4,7.6,M,-25.1,M,,0000*60
$GPGSA,A,3,28,04,27,17,,,,,,,,,5.7,2.4,5.2*3C
$GPRMC,031139.000,A,3748.7523,N,12217.6984,W,2.82,22.87,180610,,,A*43
$GPVTG,22.87,T,,M,2.82,N,5.2,K,A*3D
$GPGGA,031140.000,3748.7531,N,12217.6976,W,1,04,2.4,6.8,M,-25.1,M,,0000*6F
$GPGSA,A,3,28,04,27,17,,,,,,,,,5.7,2.4,5.2*3C
$GPRMC,031140.000,A,3748.7531,N,12217.6976,W,2.40,30.79,180610,,,A*4F
$GPVTG,30.79,T,,M,2.40,N,4.4,K,A*36
$GPGGA,031141.000,3748.7545,N,12217.6969,W,1,04,2.4,8.0,M,-25.1,M,,0000*65
$GPGSA,A,3,28,04,27,17,,,,,,,,,5.7,2.4,5.2*3C
$GPGSV,3,1,11,27,61,288,34,04,49,136,21,17,48,044,20,28,23,091,22*79
$GPGSV,3,2,11,09,54,300,30,02,25,180,,26,19,233,23,12,17,295,21*7B
$GPGSV,3,3,11,15,15,231,,08,00,147,,20,00,059,*4D
$GPRMC,031141.000,A,3748.7545,N,12217.6969,W,2.43,25.33,180610,,,A*4A
$GPVTG,25.33,T,,M,2.43,N,4.5,K,A*3E
$GPGGA,031142.000,3748.7562,N,12217.6958,W,1,04,2.4,8.5,M,-25.1,M,,0000*64
$GPGSA,A,3,28,04,27,17,,,,,,,,,5.7,2.4,5.2*3C
$GPRMC,031142.000,A,3748.7562,N,12217.6958,W,3.66,25.91,180610,,,A*40
$GPVTG,25.91,T,,M,3.66,N,6.8,K,A*3F
$GPGGA,031143.000,3748.7575,N,12217.6948,W,1,04,2.4,9.8,M,-25.1,M,,0000*6E
$GPGSA,A,3,28,04,27,17,,,,,,,,,5.7,2.4,5.2*3C
$GPRMC,031143.000,A,3748.7575,N,12217.6948,W,3.59,32.77,180610,,,A*44
$GPVTG,32.77,T,,M,3.59,N,6.7,K,A*32
$GPGGA,031144.000,3748.7583,N,12217.6940,W,1,04,2.4,9.0,M,-25.1,M,,0000*60
$GPGSA,A,3,28,04,27,17,,,,,,,,,5.7,2.4,5.2*3C
$GPRMC,031144.000,A,3748.7583,N,12217.6940,W,2.48,35.83,180610,,,A*4F
$GPVTG,35.83,T,,M,2.48,N,4.6,K,A*3C
$GPGGA,031145.000,3748.7578,N,12217.6937,W,1,04,2.4,9.1,M,-25.1,M,,0000*64
$GPGSA,A,3,28,04,27,17,,,,,,,,,5.7,2.4,5.2*3C
$GPRMC,031145.000,A,3748.7578,N,12217.6937,W,1.39,38.77,180610,,,A*49
$GPVTG,38.77,T,,M,1.39,N,2.6,K,A*39
$GPGGA,031146.000,3748.7571,N,12217.6939,W,1,04,2.4,7.9,M,-25.1,M,,0000*66
$GPGSA,A,3,28,04,27,17,,,,,,,,,5.7,2.4,5.2*3C
$GPGSV,3,1,11,27,61,288,34,04,49,136,23,17,48,044,19,28,23,091,15*75
$GPGSV,3,2,11,09,54,300,36,02,25,180,,26,19,233,23,12,17,295,*7E
$GPGSV,3,3,11,15,15,231,,08,00,147,,20,00,059,*4D
$GPRMC,031146.000,A,3748.7571,N,12217.6939,W,1.43,50.72,180610,,,A*4B
$GPVTG,50.72,T,,M,1.43,N,2.6,K,A*3F
$GPGGA,031147.000,3748.7574,N,12217.6936,W,1,04,2.4,8.5,M,-25.1,M,,0000*6E
$GPGSA,A,3,28,04,27,17,,,,,,,,,5.7,2.4,5.2*3C
$GPRMC,031147.000,A,3748.7574,N,12217.6936,W,2.00,56.98,180610,,,A*46
$GPVTG,56.98,T,,M,2.00,N,3.7,K,A*39
$GPGGA,031148.000,3748.7579,N,12217.6940,W,1,04,2.4,5.8,M,-25.1,M,,0000*6D
$GPGSA,A,3,28,04,27,17,,,,,,,,,5.7,2.4,5.2*3C
$GPRMC,031148.000,A,3748.7579,N,12217.6940,W,1.15,69.14,180610,,,A*4A
$GPVTG,69.14,T,,M,1.15,N,2.1,K,A*31
$GPGGA,031149.000,3748.7572,N,12217.6947,W,1,04,2.4,1.5,M,-25.1,M,,0000*69
$GPGSA,A,3,28,04,27,17,,,,,,,,,5.7,2.4,5.2*3C
$GPRMC,031149.000,A,3748.7572,N,12217.6947,W,0.90,97.96,180610,,,A*40
$GPVTG,97.96,T,,M,0.90,N,1.7,K,A*33
$GPGGA,031150.000,3748.7569,N,12217.6948,W,1,04,2.4,-0.2,M,-25.1,M,,0000*4F
$GPGSA,A,3,28,04,27,17,,,,,,,,,5.7,2.4,5.2*3C
$GPRMC,031150.000,A,3748.7569,N,12217.6948,W,0.49,149.55,180610,,,A*74
$GPVTG,149.55,T,,M,0.49,N,0.9,K,A*05
$GPGGA,031151.000,3748.7559,N,12217.6952,W,1,04,2.4,0.1,M,-25.1,M,,0000*68
$GPGSA,A,3,28,04,27,17,,,,,,,,,5.7,2.4,5.2*3C
$GPGSV,3,1,11,27,61,288,34,04,49,136,19,17,48,044,18,28,23,091,18*70
$GPGSV,3,2,11,09,54,300,36,02,25,180,,26,19,233,25,12,17,295,*78
$GPGSV,3,3,11,15,15,231,,08,00,147,,20,00,059,*4D
$GPRMC,031151.000,A,3748.7559,N,12217.6952,W,0.15,36.19,180610,,,A*45
$GPVTG,36.19,T,,M,0.15,N,0.3,K,A*37
$GPGGA,031152.000,3748.7571,N,12217.6944,W,1,04,2.4,1.3,M,-25.1,M,,0000*65
$GPGSA,A,3,28,04,27,17,,,,,,,,,5.7,2.4,5.2*3C
$GPRMC,031152.000,A,3748.7571,N,12217.6944,W,1.79,22.28,180610,,,A*47
$GPVTG,22.28,T,,M,1.79,N,3.3,K,A*38
$GPGGA,031153.000,3748.7592,N,12217.6937,W,1,04,2.4,2.3,M,-25.1,M,,0000*6E
$GPGSA,A,3,28,04,27,17,,,,,,,,,5.7,2.4,5.2*3C
$GPRMC,031153.000,A,3748.7592,N,12217.6937,W,2.77,11.46,180610,,,A*4A
$GPVTG,11.46,T,,M,2.77,N,5.1,K,A*39
$GPGGA,031154.000,3748.7595,N,12217.6939,W,1,04,2.4,1.7,M,-25.1,M,,0000*67
$GPGSA,A,3,28,04,27,17,,,,,,,,,5.7,2.4,5.2*3C
$GPRMC,031154.000,A,3748.7595,N,12217.6939,W,1.78,5.99,180610,,,A*7F
$GPVTG,5.99,T,,M,1.78,N,3.3,K,A*06
$GPGGA,031155.000,3748.7605,N,12217.6941,W,1,03,2.8,0.2,M,-25.1,M,,0000*6C
$GPGSA,A,2,28,04,27,,,,,,,,,,3.0,2.8,1.0*30
$GPRMC,031155.000,A,3748.7605,N,12217.6941,W,1.99,9.29,180610,,,A*73
$GPVTG,9.29,T,,M,1.99,N,3.7,K,A*0A
$GPGGA,031156.000,3748.7617,N,12217.6946,W,1,03,2.8,-1.2,M,-25.1,M,,0000*47
$GPGSA,A,2,28,04,27,,,,,,,,,,3.0,2.8,1.0*30
$GPGSV,3,1,11,27,61,288,34,04,49,136,19,17,48,044,18,28,23,091,18*70
$GPGSV,3,2,11,09,54,300,36,02,25,180,,26,19,233,19,12,17,295,32*76
$GPGSV,3,3,11,15,15,231,,08,00,147,,20,00,059,*4D
$GPRMC,031156.000,A,3748.7617,N,12217.6946,W,2.29,13.35,180610,,,A*4A
$GPVTG,13.35,T,,M,2.29,N,4.2,K,A*36
$GPGGA,031157.000,3748.7619,N,12217.6940,W,1,04,2.4,1.0,M,-25.1,M,,0000*6A
$GPGSA,A,3,28,04,27,17,,,,,,,,,5.7,2.4,5.2*3C
$GPRMC,031157.000,A,3748.7619,N,12217.6940,W,2.04,17.17,180610,,,A*48
$GPVTG,17.17,T,,M,2.04,N,3.8,K,A*30
$GPGGA,031158.000,3748.7627,N,12217.6939,W,1,03,2.8,-0.3,M,-25.1,M,,0000*42
$GPGSA,A,2,28,04,27,,,,,,,,,,3.0,2.8,1.0*30
$GPRMC,031158.000,A,3748.7627,N,12217.6939,W,2.15,25.16,180610,,,A*44
$GPVTG,25.16,T,,M,2.15,N,4.0,K,A*3F
$GPGGA,031159.000,3748.7633,N,12217.6936,W,6,00,50.0,-0.2,M,-25.1,M,,0000*73
$GPGSA,A,2,,,,,,,,,,,,,50.0,50.0,50.0*06
$GPRMC,031159.000,A,3748.7633,N,12217.6936,W,2.15,25.16,180610,,,E*4B
$GPVTG,25.16,T,,M,2.15,N,4.0,K,N*30
$GPGGA,031200.000,3748.7660,N,12217.6919,W,1,04,2.4,0.1,M,-25.1,M,,0000*69
$GPGSA,A,3,28,04,27,17,,,,,,,,,5.7,2.4,5.1*3F
$GPRMC,031200.000,A,3748.7660,N,12217.6919,W,5.20,29.77,180610,,,A*41
$GPVTG,29.77,T,,M,5.20,N,9.6,K,N*31
$GPGGA,031201.000,3748.7680,N,12217.6903,W,1,04,2.4,0.5,M,-25.1,M,,0000*69
$GPGSA,A,3,28,04,27,17,,,,,,,,,5.7,2.4,5.1*3F
$GPGSV,3,1,11,27,61,288,34,04,49,136,19,17,48,044,18,28,23,091,17*7F
$GPGSV,3,2,11,09,54,300,36,02,25,180,,26,19,233,25,12,17,295,33*78
$GPGSV,3,3,11,15,15,231,,08,00,147,,20,00,059,*4D
$GPRMC,031201.000,A,3748.7680,N,12217.6903,W,4.50,27.14,180610,,,A*48
$GPGGA,031202.000,3748.7701,N,12217.6882,W,1,04,2.4,1.8,M,-25.1,M,,0000*66
$GPGSA,A,3,28,04,27,17,,,,,,,,,5.7,2.4,5.1*3F
$GPRMC,031202.000,A,3748.7701,N,12217.6882,W,3.90,26.29,180610,,,A*4F
$GPVTG,26.29,T,,M,3.90,N,7.2,K,A*3D
$GPGGA,031203.000,3748.7698,N,12217.6872,W,1,05,2.1,2.2,M,-25.1,M,,0000*64
$GPGSA,A,3,28,04,27,17,09,,,,,,,,5.0,2.1,4.6*32
$GPRMC,031203.000,A,3748.7698,N,12217.6872,W,2.57,31.21,180610,,,A*44
$GPVTG,31.21,T,,M,2.57,N,4.8,K,A*30
$GPGGA,031204.000,3748.7699,N,12217.6861,W,1,05,2.1,3.7,M,-25.1,M,,0000*64
$GPGSA,A,3,28,04,27,17,09,,,,,,,,5.0,2.1,4.6*32
$GPRMC,031204.000,A,3748.7699,N,12217.6861,W,2.54,38.86,180610,,,A*47
$GPVTG,38.86,T,,M,2.54,N,4.7,K,A*38
$GPGGA,031205.000,3748.7695,N,12217.6852,W,1,05,2.1,6.7,M,-25.1,M,,0000*6C
$GPGSA,A,3,28,04,27,17,09,,,,,,,,5.0,2.1,4.6*32
$GPRMC,031205.000,A,3748.7695,N,12217.6852,W,2.14,37.45,180610,,,A*4E
$GPVTG,37.45,T,,M,2.14,N,4.0,K,A*3B
$GPGGA,031206.000,3748.7689,N,12217.6851,W,1,05,2.1,7.1,M,-25.1,M,,0000*66
$GPGSA,A,3,28,04,27,17,09,,,,,,,,5.0,2.1,4.6*32
$GPGSV,3,1,11,27,62,287,33,09,54,299,36,04,50,136,19,17,47,044,20*72
$GPGSV,3,2,11,02,25,180,,28,22,092,18,26,19,232,31,12,18,295,24*73
$GPGSV,3,3,11,15,14,231,22,20,00,058,,08,00,147,*4D
$GPRMC,031206.000,A,3748.7689,N,12217.6851,W,1.96,28.55,180610,,,A*45
$GPVTG,28.55,T,,M,1.96,N,3.6,K,A*3C
$GPGGA,031207.000,3748.7688,N,12217.6853,W,1,05,2.1,7.3,M,-25.1,M,,0000*66
$GPGSA,A,3,28,04,27,17,09,,,,,,,,5.0,2.1,4.6*32
$GPRMC,031207.000,A,3748.7688,N,12217.6853,W,1.67,23.72,180610,,,A*47
$GPVTG,23.72,T,,M,1.67,N,3.1,K,A*3B
$GPGGA,031208.000,3748.7692,N,12217.6854,W,1,04,2.9,8.3,M,-25.1,M,,0000*63
$GPGSA,A,3,28,27,17,09,,,,,,,,,3.1,2.9,1.0*3A
$GPRMC,031208.000,A,3748.7692,N,12217.6854,W,1.29,18.12,180610,,,A*40
$GPVTG,18.12,T,,M,1.29,N,2.4,K,A*3B
$GPGGA,031209.000,3748.7689,N,12217.6847,W,1,05,2.1,12.2,M,-25.1,M,,0000*59
$GPGSA,A,3,28,04,27,17,09,,,,,,,,5.0,2.1,4.6*32
$GPRMC,031209.000,A,3748.7689,N,12217.6847,W,1.80,14.09,180610,,,A*4C
$GPVTG,14.09,T,,M,1.80,N,3.3,K,A*38
$GPGGA,031210.000,3748.7692,N,12217.6837,W,1,05,2.1,16.6,M,-25.1,M,,0000*5C
$GPGSA,A,3,28,04,27,17,09,,,,,,,,5.0,2.1,4.6*32
$GPRMC,031210.000,A,3748.7692,N,12217.6837,W,1.99,9.39,180610,,,A*7E
$GPVTG,9.39,T,,M,1.99,N,3.7,K,A*0B
$GPGGA,031211.000,3748.7699,N,12217.6832,W,1,05,2.1,19.8,M,-25.1,M,,0000*52
$GPGSA,A,3,28,04,27,17,09,,,,,,,,5.0,2.1,4.6*32
$GPGSV,3,1,10,27,62,287,34,09,54,299,35,04,50,135,19,17,47,044,19*7E
$GPGSV,3,2,10,02,25,180,,28,22,092,18,26,19,232,31,12,18,295,18*7D
$GPGSV,3,3,10,15,14,231,31,20,00,058,*74
$GPRMC,031211.000,A,3748.7699,N,12217.6832,W,1.11,18.92,180610,,,A*40
$GPVTG,18.92,T,,M,1.11,N,2.1,K,A*3D
$GPGGA,031212.000,3748.7704,N,12217.6830,W,1,05,2.1,22.8,M,-25.1,M,,0000*5E
$GPGSA,A,3,28,04,27,17,09,,,,,,,,5.0,2.1,4.6*32
$GPRMC,031212.000,A,3748.7704,N,12217.6830,W,1.90,34.15,180610,,,A*4C
$GPVTG,34.15,T,,M,1.90,N,3.5,K,A*30
$GPGGA,031213.000,3748.7714,N,12217.6830,W,1,05,2.1,22.1,M,-25.1,M,,0000*57
$GPGSA,A,3,28,04,27,17,09,,,,,,,,5.0,2.1,4.6*32
$GPRMC,031213.000,A,3748.7714,N,12217.6830,W,2.30,47.24,180610,,,A*43
$GPVTG,47.24,T,,M,2.30,N,4.3,K,A*3E
$GPGGA,031214.000,3748.7714,N,12217.6833,W,1,05,2.1,18.3,M,-25.1,M,,0000*58
$GPGSA,A,3,28,04,27,17,09,,,,,,,,5.0,2.1,4.6*32
$GPRMC,031214.000,A,3748.7714,N,12217.6833,W,1.49,68.27,180610,,,A*44
$GPVTG,68.27,T,,M,1.49,N,2.8,K,A*30
$GPGGA,031215.000,3748.7720,N,12217.6829,W,1,05,2.1,16.4,M,-25.1,M,,0000*5C
$GPGSA,A,3,28,04,27,17,09,,,,,,,,5.0,2.1,4.5*31
$GPRMC,031215.000,A,3748.7720,N,12217.6829,W,2.12,39.05,180610,,,A*40
$GPVTG,39.05,T,,M,2.12,N,3.9,K,A*39
$GPGGA,031216.000,3748.7718,N,12217.6832,W,1,05,2.1,12.5,M,-25.1,M,,0000*5B
$GPGSA,A,3,28,04,27,17,09,,,,,,,,5.0,2.1,4.5*31
$GPGSV,3,1,10,27,62,287,34,09,54,299,35,04,50,135,19,17,47,044,19*7E
$GPGSV,3,2,10,02,25,180,,28,22,092,23,26,19,232,32,12,18,295,18*76
$GPGSV,3,3,10,15,14,231,35,20,00,058,*70
$GPRMC,031216.000,A,3748.7718,N,12217.6832,W,1.75,36.73,180610,,,A*4E
$GPVTG,36.73,T,,M,1.75,N,3.2,K,A*3E
$GPGGA,031217.000,3748.7723,N,12217.6834,W,1,05,2.1,8.7,M,-25.1,M,,0000*6D
$GPGSA,A,3,28,04,27,17,09,,,,,,,,5.0,2.1,4.5*31
$GPRMC,031217.000,A,3748.7723,N,12217.6834,W,1.79,24.31,180610,,,A*48
$GPVTG,24.31,T,,M,1.79,N,3.3,K,A*36
$GPGGA,031218.000,3748.7732,N,12217.6830,W,1,04,2.6,7.4,M,-25.1,M,,0000*6C
$GPGSA,A,3,28,04,27,09,,,,,,,,,2.8,2.6,1.0*3F
$GPRMC,031218.000,A,3748.7732,N,12217.6830,W,2.97,16.20,180610,,,A*41
$GPVTG,16.20,T,,M,2.97,N,5.5,K,A*34
$GPGGA,031219.000,3748.7731,N,12217.6833,W,1,04,2.4,4.6,M,-25.1,M,,0000*6E
$GPGSA,A,3,28,04,27,17,,,,,,,,,5.7,2.4,5.1*3F
$GPRMC,031219.000,A,3748.7731,N,12217.6833,W,2.25,27.99,180610,,,A*49
$GPVTG,27.99,T,,M,2.25,N,4.2,K,A*3B
$GPGGA,031220.000,3748.7729,N,12217.6830,W,1,04,2.4,3.9,M,-25.1,M,,0000*66
$GPGSA,A,3,28,04,27,17,,,,,,,,,5.7,2.4,5.1*3F
$GPRMC,031220.000,A,3748.7729,N,12217.6830,W,1.81,40.81,180610,,,A*4C
$GPVTG,40.81,T,,M,1.81,N,3.3,K,A*38
$GPGGA,031221.000,3748.7741,N,12217.6823,W,1,05,2.1,1.5,M,-25.1,M,,0000*61
$GPGSA,A,3,28,04,27,17,09,,,,,,,,5.0,2.1,4.5*31
$GPGSV,3,1,10,27,62,287,33,09,54,299,31,04,50,135,20,17,47,044,19*77
$GPGSV,3,2,10,02,25,180,,28,22,092,22,26,19,232,32,12,18,295,28*74
$GPGSV,3,3,10,15,14,231,29,20,00,058,*7D
$GPRMC,031221.000,A,3748.7741,N,12217.6823,W,2.29,23.41,180610,,,A*49
$GPVTG,23.41,T,,M,2.29,N,4.2,K,A*36
$GPGGA,031222.000,3748.7755,N,12217.6819,W,1,04,2.4,-2.3,M,-25.1,M,,0000*42
$GPGSA,A,3,28,04,27,17,,,,,,,,,5.7,2.4,5.1*3F
$GPRMC,031222.000,A,3748.7755,N,12217.6819,W,1.90,26.59,180610,,,A*4B
$GPVTG,26.59,T,,M,1.90,N,3.5,K,A*3B
$GPGGA,031223.000,3748.7756,N,12217.6818,W,1,04,2.5,-5.9,M,-25.1,M,,0000*4D
$GPGSA,A,3,28,04,27,17,,,,,,,,,5.7,2.5,5.1*3E
$GPRMC,031223.000,A,3748.7756,N,12217.6818,W,0.86,36.81,180610,,,A*4A
$GPVTG,36.81,T,,M,0.86,N,1.6,K,A*38
$GPGGA,031224.000,3748.7766,N,12217.6816,W,1,04,2.5,-7.9,M,-25.1,M,,0000*45
$GPGSA,A,3,28,04,27,17,,,,,,,,,5.7,2.5,5.1*3E
$GPRMC,031224.000,A,3748.7766,N,12217.6816,W,0.96,20.42,180610,,,A*49
$GPVTG,20.42,T,,M,0.96,N,1.8,K,A*3F
$GPGGA,031225.000,3748.7762,N,12217.6817,W,1,04,2.5,-11.6,M,-25.1,M,,0000*79
$GPGSA,A,3,28,04,27,17,,,,,,,,,5.7,2.5,5.1*3E
$GPRMC,031225.000,A,3748.7762,N,12217.6817,W,0.58,105.09,180610,,,A*76
$GPVTG,105.09,T,,M,0.58,N,1.1,K,A*0D
$GPGGA,031226.000,3748.7757,N,12217.6814,W,1,04,2.5,-11.4,M,-25.1,M,,0000*7D
$GPGSA,A,3,28,04,27,17,,,,,,,,,5.7,2.5,5.1*3E
$GPGSV,3,1,10,27,62,287,28,09,54,299,,04,50,135,21,17,47,044,19*7E
$GPGSV,3,2,10,02,25,180,,28,22,092,25,26,19,232,25,12,18,295,21*7C
$GPGSV,3,3,10,15,14,231,,20,00,058,*76
$GPVTG,348.39,T,,M,0.16,N,0.3,K,A*0C
$GPGGA,031227.000,3748.7761,N,12217.6807,W,1,04,2.5,-10.6,M,-25.1,M,,0000*78
$GPGSA,A,3,28,04,27,17,,,,,,,,,5.7,2.5,5.1*3E
$GPRMC,031227.000,A,3748.7761,N,12217.6807,W,1.00,13.20,180610,,,A*47
$GPVTG,13.20,T,,M,1.00,N,1.9,K,A*34
