$ADVER,3080,2.3
$GPRMC,164634.918,A,3748.8017,N,12217.8630,W,0.07,200.25,011012,,,A*73
$GPGGA,164636.023,3748.8017,N,12217.8640,W,1,05,1.5,3.4,M,-25.1,M,,0000*69
$GPGSA,A,3,27,17,04,28,26,,,,,,,,3.1,1.5,2.8*37
$GPRMC,164636.023,A,3748.8017,N,12217.8640,W,0.52,192.67,011012,,,A*79
$GPVTG,192.67,T,,M,0.52,N,1.0,K,A*00
$GPGGA,164637.000,3748.8015,N,12217.8629,W,1,05,1.5,1.4,M,-25.1,M,,0000*66
$GPGSA,A,3,27,17,04,28,26,,,,,,,,3.1,1.5,2.8*37
$GPRMC,164637.000,A,3748.8015,N,12217.8629,W,0.29,201.02,011012,,,A*72
$GPVTG,201.02,T,,M,0.29,N,0.5,K,A*02
$GPGGA,164638.000,3748.8010,N,12217.8626,W,1,05,1.5,3.3,M,-25.1,M,,0000*66
$GPGSA,A,3,27,17,04,28,26,,,,,,,,3.1,1.5,2.8*37
$GPGSV,3,1,10,17,81,062,39,28,48,057,38,27,39,315,35,26,34,220,37*7D
$GPGSV,3,2,10,04,21,160,37,08,29,131,26,09,26,315,28,01,15,045,30*7E
$GPGSV,3,3,10,11,02,037,,48,00,000,39*78
$GPRMC,164638.000,A,3748.8010,N,12217.8626,W,0.23,203.20,011012,,,A*7F
$GPVTG,203.20,T,,M,0.23,N,0.4,K,A*0B
$GPGGA,164639.000,3748.8010,N,12217.8631,W,1,05,1.5,5.7,M,-25.1,M,,0000*63
$GPGSA,A,3,27,17,04,28,26,,,,,,,,3.1,1.5,2.8*37
$GPRMC,164639.000,A,3748.8010,N,12217.8631,W,0.20,214.51,011012,,,A*7B
$GPVTG,214.51,T,,M,0.20,N,0.4,K,A*08
$GPGGA,164640.000,3748.8010,N,12217.8630,W,1,05,1.5,6.1,M,-25.1,M,,0000*69
$GPGSA,A,3,27,17,04,28,26,,,,,,,,3.1,1.5,2.8*37
$GPRMC,164640.000,A,3748.8010,N,12217.8630,W,0.15,208.09,011012,,,A*72
$GPVTG,208.09,T,,M,0.15,N,0.3,K,A*09
$GPGGA,164641.000,3748.8011,N,12217.8629,W,1,05,1.5,6.5,M,-25.1,M,,0000*65
$GPGSA,A,3,27,17,04,28,26,,,,,,,,3.1,1.5,2.8*37
$GPRMC,164641.000,A,3748.8011,N,12217.8629,W,0.15,211.80,011012,,,A*73
$GPVTG,211.80,T,,M,0.15,N,0.3,K,A*00
$GPGGA,164642.000,3748.8012,N,12217.8631,W,1,05,1.5,7.0,M,-25.1,M,,0000*68
$GPGSA,A,3,27,17,04,28,26,,,,,,,,3.1,1.5,2.8*37
$GPRMC,164642.000,A,3748.8012,N,12217.8631,W,0.14,217.78,011012,,,A*7A
$GPVTG,217.78,T,,M,0.14,N,0.3,K,A*00
$GPGGA,164643.000,3748.8010,N,12217.8632,W,1,05,1.5,7.5,M,-25.1,M,,0000*6D
$GPGSA,A,3,27,17,04,28,26,,,,,,,,3.1,1.5,2.8*37
$GPGSV,3,1,10,17,81,062,40,28,48,057,38,27,39,315,35,26,34,220,37*73
$GPGSV,3,2,10,04,21,160,36,08,29,131,35,09,26,315,29,01,15,045,29*74
$GPGSV,3,3,10,11,02,037,,48,00,000,39*78
$GPRMC,164643.000,A,3748.8010,N,12217.8632,W,0.14,218.68,011012,,,A*74
$GPVTG,218.68,T,,M,0.14,N,0.3,K,A*0E
$GPGGA,164644.000,3748.8009,N,12217.8630,W,1,05,1.5,8.1,M,-25.1,M,,0000*6B
$GPGSA,A,3,27,17,04,28,26,,,,,,,,3.1,1.5,2.8*37
$GPRMC,164644.000,A,3748.8009,N,12217.8630,W,0.14,209.54,011012,,,A*76
$GPVTG,209.54,T,,M,0.14,N,0.3,K,A*01
$GPGGA,164645.000,3748.8009,N,12217.8628,W,1,05,1.5,8.3,M,-25.1,M,,0000*61
$GPGSA,A,3,27,17,04,28,26,,,,,,,,3.1,1.5,2.8*37
$GPRMC,164645.000,A,3748.8009,N,12217.8628,W,0.10,210.36,011012,,,A*76
$GPVTG,210.36,T,,M,0.10,N,0.2,K,A*08
$GPGGA,164646.000,3748.8009,N,12217.8627,W,1,05,1.5,8.3,M,-25.1,M,,0000*6D
$GPGSA,A,3,27,17,04,28,26,,,,,,,,3.1,1.5,2.8*37
$GPRMC,164646.000,A,3748.8009,N,12217.8627,W,0.12,214.69,011012,,,A*76
$GPVTG,214.69,T,,M,0.12,N,0.2,K,A*04
$GPGGA,164647.000,3748.8009,N,12217.8627,W,1,05,1.5,8.2,M,-25.1,M,,0000*6D
$GPGSA,A,3,27,17,04,28,26,,,,,,,,3.1,1.5,2.8*37
$GPRMC,164647.000,A,3748.8009,N,12217.8627,W,0.11,214.58,011012,,,A*76
$GPVTG,214.58,T,,M,0.11,N,0.2,K,A*05
$GPGGA,164648.000,3748.8009,N,12217.8626,W,1,05,1.5,8.2,M,-25.1,M,,0000*63
$GPGSA,A,3,27,17,04,28,26,,,,,,,,3.1,1.5,2.8*37
$GPGSV,3,1,10,17,81,062,40,28,48,057,38,27,39,315,35,26,34,220,37*73
$GPGSV,3,2,10,08,29,131,35,09,26,315,29,04,21,160,36,01,15,045,29*74
$GPGSV,3,3,10,11,02,037,,48,44,197,39*77
$GPRMC,164648.000,A,3748.8009,N,12217.8626,W,0.11,222.45,011012,,,A*71
$GPVTG,222.45,T,,M,0.11,N,0.2,K,A*0C
$GPGGA,164649.000,3748.8009,N,12217.8626,W,1,05,1.5,8.2,M,-25.1,M,,0000*62
$GPGSA,A,3,27,17,04,28,26,,,,,,,,3.1,1.5,2.8*37
$GPRMC,164649.000,A,3748.8009,N,12217.8626,W,0.09,221.59,011012,,,A*77
$GPVTG,221.59,T,,M,0.09,N,0.2,K,A*0B
$GPGGA,164650.000,3748.8008,N,12217.8626,W,1,05,1.5,8.3,M,-25.1,M,,0000*6A
$GPGSA,A,3,27,17,04,28,26,,,,,,,,3.2,1.5,2.8*34
$GPRMC,164650.000,A,3748.8008,N,12217.8626,W,0.11,221.35,011012,,,A*7D
$GPVTG,221.35,T,,M,0.11,N,0.2,K,A*08
$GPGGA,164651.000,3748.8008,N,12217.8625,W,1,05,1.5,8.3,M,-25.1,M,,0000*68
$GPGSA,A,3,27,17,04,28,26,,,,,,,,3.2,1.5,2.8*34
$GPRMC,164651.000,A,3748.8008,N,12217.8625,W,0.10,227.46,011012,,,A*7C
$GPVTG,227.46,T,,M,0.10,N,0.2,K,A*0B
$GPGGA,164652.000,3748.8008,N,12217.8625,W,1,06,1.2,8.3,M,-25.1,M,,0000*6F
$GPGSA,A,3,27,17,04,28,26,01,,,,,,,2.2,1.2,1.8*30
$GPRMC,164652.000,A,3748.8008,N,12217.8625,W,0.01,170.97,011012,,,A*72
$GPVTG,170.97,T,,M,0.01,N,0.0,K,A*04
$GPGGA,164653.000,3748.8008,N,12217.8625,W,1,06,1.2,8.3,M,-25.1,M,,0000*6E
$GPGSA,A,3,27,17,04,28,26,01,,,,,,,2.2,1.2,1.8*30
$GPGSV,3,1,10,17,81,061,40,28,48,057,38,27,39,315,35,26,34,220,37*70
$GPGSV,3,2,10,08,29,131,34,09,26,315,29,04,21,160,36,01,15,045,28*74
$GPGSV,3,3,10,11,02,037,,48,44,197,38*76
$GPRMC,164653.000,A,3748.8008,N,12217.8625,W,0.02,259.78,011012,,,A*79
$GPVTG,259.78,T,,M,0.02,N,0.0,K,A*0E
$GPGGA,164654.000,3748.8008,N,12217.8624,W,1,06,1.2,8.3,M,-25.1,M,,0000*68
$GPGSA,A,3,27,17,04,28,26,01,,,,,,,2.2,1.2,1.8*30
$GPRMC,164654.000,A,3748.8008,N,12217.8624,W,0.03,244.50,011012,,,A*78
$GPVTG,244.50,T,,M,0.03,N,0.0,K,A*09
$GPGGA,164655.000,3748.8008,N,12217.8624,W,1,06,1.2,8.3,M,-25.1,M,,0000*69
$GPGSA,A,3,27,17,04,28,26,01,,,,,,,2.2,1.2,1.8*30
$GPRMC,164655.000,A,3748.8008,N,12217.8624,W,0.03,283.85,011012,,,A*7A
$GPVTG,283.85,T,,M,0.03,N,0.1,K,A*0B
$GPGGA,164656.000,3748.8008,N,12217.8624,W,1,06,1.2,8.3,M,-25.1,M,,0000*6A
$GPGSA,A,3,27,17,04,28,26,01,,,,,,,2.2,1.2,1.8*30
$GPRMC,164656.000,A,3748.8008,N,12217.8624,W,0.03,287.36,011012,,,A*75
$GPVTG,287.36,T,,M,0.03,N,0.1,K,A*07
$GPGGA,164657.000,3748.8007,N,12217.8624,W,1,06,1.2,8.3,M,-25.1,M,,0000*64
$GPGSA,A,3,27,17,04,28,26,01,,,,,,,2.2,1.2,1.8*30
$GPRMC,164657.000,A,3748.8007,N,12217.8624,W,0.06,27.08,011012,,,A*4B
$GPVTG,27.08,T,,M,0.06,N,0.1,K,A*37
$GPGGA,164658.000,3748.8007,N,12217.8624,W,1,06,1.2,8.4,M,-25.1,M,,0000*6C
$GPGSA,A,3,27,17,04,28,26,01,,,,,,,2.2,1.2,1.8*30
$GPGSV,3,1,10,17,81,061,40,28,48,057,38,27,39,315,35,26,34,220,37*70
$GPGSV,3,2,10,08,29,131,34,09,26,315,29,04,21,160,36,01,15,045,28*74
$GPGSV,3,3,10,11,02,037,,48,44,197,38*76
$GPRMC,164658.000,A,3748.8007,N,12217.8624,W,0.15,242.20,011012,,,A*7D
$GPVTG,242.20,T,,M,0.15,N,0.3,K,A*0C
$GPGGA,164659.000,3748.8007,N,12217.8624,W,1,06,1.2,8.3,M,-25.1,M,,0000*6A
$GPGSA,A,3,27,17,04,28,26,01,,,,,,,2.2,1.2,1.8*30
$GPRMC,164659.000,A,3748.8007,N,12217.8624,W,0.02,6.18,011012,,,A*73
$GPVTG,6.18,T,,M,0.02,N,0.0,K,A*00
$GPGGA,164700.000,3748.8007,N,12217.8624,W,1,06,1.2,8.4,M,-25.1,M,,0000*60
$GPGSA,A,3,27,17,04,28,26,01,,,,,,,2.2,1.2,1.8*30
$GPRMC,164700.000,A,3748.8007,N,12217.8624,W,0.05,293.58,011012,,,A*73
$GPVTG,293.58,T,,M,0.05,N,0.1,K,A*0C
$GPGGA,164701.000,3748.8006,N,12217.8624,W,1,06,1.2,8.3,M,-25.1,M,,0000*67
$GPGSA,A,3,27,17,04,28,26,01,,,,,,,2.2,1.2,1.8*30
$GPRMC,164701.000,A,3748.8006,N,12217.8624,W,0.03,297.50,011012,,,A*79
$GPVTG,297.50,T,,M,0.03,N,0.1,K,A*06
$GPGGA,164702.000,3748.8006,N,12217.8624,W,1,06,1.2,8.3,M,-25.1,M,,0000*64
$GPGSA,A,3,27,17,04,28,26,01,,,,,,,2.2,1.2,1.8*30
$GPRMC,164702.000,A,3748.8006,N,12217.8624,W,0.03,328.31,011012,,,A*78
$GPVTG,328.31,T,,M,0.03,N,0.1,K,A*04
$GPGGA,164703.000,3748.8006,N,12217.8624,W,1,06,1.2,8.3,M,-25.1,M,,0000*65
$GPGSA,A,3,27,17,04,28,26,01,,,,,,,2.2,1.2,1.8*30
$GPGSV,3,1,10,17,81,061,40,28,48,057,38,27,39,315,35,26,34,220,37*70
$GPGSV,3,2,10,08,29,131,34,09,26,315,29,04,21,160,36,01,15,045,27*7B
$GPGSV,3,3,10,11,02,037,,48,44,197,38*76
$GPRMC,164703.000,A,3748.8006,N,12217.8624,W,0.04,317.51,011012,,,A*74
$GPVTG,317.51,T,,M,0.04,N,0.1,K,A*09
$GPGGA,164704.000,3748.8006,N,12217.8624,W,1,08,0.9,8.3,M,-25.1,M,,0000*66
$GPGSA,A,3,27,17,04,28,26,01,09,08,,,,,1.9,0.9,1.7*3C
$GPRMC,164704.000,A,3748.8006,N,12217.8624,W,0.03,118.04,011012,,,A*79
$GPVTG,118.04,T,,M,0.03,N,0.1,K,A*03
$GPGGA,164705.000,3748.8006,N,12217.8624,W,1,08,0.9,8.3,M,-25.1,M,,0000*67
$GPGSA,A,3,27,17,04,28,26,01,09,08,,,,,1.9,0.9,1.7*3C
$GPRMC,164705.000,A,3748.8006,N,12217.8624,W,0.04,132.34,011012,,,A*74
$GPVTG,132.34,T,,M,0.04,N,0.1,K,A*0F
$GPGGA,164706.000,3748.8006,N,12217.8623,W,1,08,0.9,8.3,M,-25.1,M,,0000*63
$GPGSA,A,3,27,17,04,28,26,01,09,08,,,,,1.9,0.9,1.7*3C
$GPRMC,164706.000,A,3748.8006,N,12217.8623,W,0.06,153.66,011012,,,A*72
$GPVTG,153.66,T,,M,0.06,N,0.1,K,A*0D
$GPGGA,164707.000,3748.8006,N,12217.8623,W,1,08,0.9,8.3,M,-25.1,M,,0000*62
$GPGSA,A,3,27,17,04,28,26,01,09,08,,,,,1.9,0.9,1.7*3C
$GPRMC,164707.000,A,3748.8006,N,12217.8623,W,0.04,130.00,011012,,,A*74
$GPVTG,130.00,T,,M,0.04,N,0.1,K,A*0A
$GPGGA,164708.000,3748.8006,N,12217.8623,W,1,08,0.9,8.2,M,-25.1,M,,0000*6C
$GPGSA,A,3,27,17,04,28,26,01,09,08,,,,,1.9,0.9,1.7*3C
$GPGSV,3,1,10,17,81,061,40,28,48,057,37,27,39,314,35,26,34,220,37*7E
$GPGSV,3,2,10,08,29,131,30,09,26,315,29,04,21,160,35,01,15,045,28*73
$GPGSV,3,3,10,11,02,037,,48,44,197,38*76
$GPRMC,164708.000,A,3748.8006,N,12217.8623,W,0.04,155.27,011012,,,A*7D
$GPVTG,155.27,T,,M,0.04,N,0.1,K,A*0C
$GPGGA,164709.000,3748.8006,N,12217.8623,W,1,08,0.9,8.2,M,-25.1,M,,0000*6D
$GPGSA,A,3,27,17,04,28,26,01,09,08,,,,,1.9,0.9,1.7*3C
$GPRMC,164709.000,A,3748.8006,N,12217.8623,W,0.05,123.22,011012,,,A*79
$GPVTG,123.22,T,,M,0.05,N,0.1,K,A*09
$GPGGA,164710.000,3748.8006,N,12217.8623,W,1,08,0.9,8.2,M,-25.1,M,,0000*65
$GPGSA,A,3,27,17,04,28,26,01,09,08,,,,,1.9,0.9,1.7*3C
$GPRMC,164710.000,A,3748.8006,N,12217.8623,W,0.05,134.85,011012,,,A*7A
$GPVTG,134.85,T,,M,0.05,N,0.1,K,A*02
$GPGGA,164711.000,3748.8006,N,12217.8623,W,1,08,0.9,8.1,M,-25.1,M,,0000*67
$GPGSA,A,3,27,17,04,28,26,01,09,08,,,,,1.9,0.9,1.7*3C
$GPRMC,164711.000,A,3748.8006,N,12217.8623,W,0.04,134.10,011012,,,A*76
$GPVTG,134.10,T,,M,0.04,N,0.1,K,A*0F
$GPGGA,164712.000,3748.8006,N,12217.8623,W,1,08,0.9,8.1,M,-25.1,M,,0000*64
$GPGSA,A,3,27,17,04,28,26,01,09,08,,,,,1.9,0.9,1.7*3C
$GPRMC,164712.000,A,3748.8006,N,12217.8623,W,0.04,150.65,011012,,,A*75
$GPVTG,150.65,T,,M,0.04,N,0.1,K,A*0F
$GPGGA,164713.000,3748.8006,N,12217.8622,W,1,08,0.9,8.1,M,-25.1,M,,0000*64
$GPGSA,A,3,27,17,04,28,26,01,09,08,,,,,1.9,0.9,1.7*3C
$GPGSV,3,1,10,17,81,061,39,28,48,057,35,27,39,314,35,26,34,220,37*72
$GPGSV,3,2,10,08,29,131,30,09,26,315,30,04,21,160,35,01,15,045,28*7B
$GPGSV,3,3,10,11,02,037,,48,44,197,39*77
$GPRMC,164713.000,A,3748.8006,N,12217.8622,W,0.06,119.76,011012,,,A*78
$GPGGA,164714.000,3748.8006,N,12217.8622,W,1,08,0.9,8.1,M,-25.1,M,,0000*63
$GPGSA,A,3,27,17,04,28,26,01,09,08,,,,,1.9,0.9,1.7*3C
$GPRMC,164714.000,A,3748.8006,N,12217.8622,W,0.04,135.97,011012,,,A*7C
$GPVTG,135.97,T,,M,0.04,N,0.1,K,A*01
$GPGGA,164715.000,3748.8006,N,12217.8622,W,1,08,0.9,8.1,M,-25.1,M,,0000*62
$GPGSA,A,3,27,17,04,28,26,01,09,08,,,,,1.9,0.9,1.7*3C
$GPRMC,164715.000,A,3748.8006,N,12217.8622,W,0.03,147.72,011012,,,A*74
$GPVTG,147.72,T,,M,0.03,N,0.1,K,A*08
$GPGGA,164716.000,3748.8006,N,12217.8622,W,1,08,0.9,8.1,M,-25.1,M,,0000*61
$GPGSA,A,3,27,17,04,28,26,01,09,08,,,,,1.9,0.9,1.7*3C
$GPRMC,164716.000,A,3748.8006,N,12217.8622,W,0.05,132.53,011012,,,A*70
$GPVTG,132.53,T,,M,0.05,N,0.1,K,A*0F
$GPGGA,164717.000,3748.8006,N,12217.8622,W,1,08,0.9,8.0,M,-25.1,M,,0000*61
$GPGSA,A,3,27,17,04,28,26,01,09,08,,,,,1.9,0.9,1.7*3C
$GPRMC,164717.000,A,3748.8006,N,12217.8622,W,0.03,126.46,011012,,,A*76
$GPVTG,126.46,T,,M,0.03,N,0.1,K,A*08
$GPGGA,164718.000,3748.8006,N,12217.8622,W,1,08,0.9,8.0,M,-25.1,M,,0000*6E
$GPGSA,A,3,27,17,04,28,26,01,09,08,,,,,1.9,0.9,1.7*3C
$GPGSV,3,1,10,17,81,061,39,28,48,057,35,27,40,314,35,26,34,220,38*73
$GPGSV,3,2,10,08,29,131,30,09,26,315,30,04,21,160,35,01,15,045,27*74
$GPGSV,3,3,10,11,02,037,,48,44,197,38*76
$GPRMC,164718.000,A,3748.8006,N,12217.8622,W,0.04,128.57,011012,,,A*70
$GPVTG,128.57,T,,M,0.04,N,0.1,K,A*01
$GPGGA,164719.000,3748.8006,N,12217.8622,W,1,08,0.9,8.0,M,-25.1,M,,0000*6F
$GPGSA,A,3,27,17,04,28,26,01,09,08,,,,,1.9,0.9,1.7*3C
$GPRMC,164719.000,A,3748.8006,N,12217.8622,W,0.07,132.60,011012,,,A*7D
$GPVTG,132.60,T,,M,0.07,N,0.1,K,A*0D
$GPGGA,164720.000,3748.8006,N,12217.8622,W,1,08,0.9,8.0,M,-25.1,M,,0000*65
$GPGSA,A,3,27,17,04,28,26,01,09,08,,,,,1.9,0.9,1.7*3C
$GPRMC,164720.000,A,3748.8006,N,12217.8622,W,0.08,91.73,011012,,,A*42
$GPVTG,91.73,T,,M,0.08,N,0.1,K,A*38
$GPGGA,164721.000,3748.8006,N,12217.8620,W,1,07,0.9,8.0,M,-25.1,M,,0000*69
$GPGSA,A,3,27,04,28,26,01,09,08,,,,,,2.7,0.9,2.6*35
$GPRMC,164721.000,A,3748.8006,N,12217.8620,W,0.20,155.48,011012,,,A*7A
$GPVTG,155.48,T,,M,0.20,N,0.4,K,A*06
$GPGGA,164722.000,3748.8005,N,12217.8619,W,1,08,0.9,8.0,M,-25.1,M,,0000*6C
$GPGSA,A,3,27,17,04,28,26,01,09,08,,,,,1.9,0.9,1.7*3C
$GPRMC,164722.000,A,3748.8005,N,12217.8619,W,0.19,70.28,011012,,,A*4A
$GPVTG,70.28,T,,M,0.19,N,0.4,K,A*3C
$GPGGA,164723.000,3748.8004,N,12217.8618,W,1,06,1.8,7.8,M,-25.1,M,,0000*64
$GPGSA,A,3,27,17,04,28,09,08,,,,,,,3.0,1.8,2.4*32
$GPGSV,3,1,09,17,81,061,13,28,48,057,35,27,40,314,36,26,34,220,19*73
$GPGSV,3,2,09,08,29,131,32,09,26,315,30,04,21,160,32,01,15,045,19*74
$GPGSV,3,3,09,11,02,037,*46
$GPRMC,164723.000,A,3748.8004,N,12217.8618,W,0.15,91.41,011012,,,A*47
$GPVTG,91.41,T,,M,0.15,N,0.3,K,A*37
$GPGGA,164724.000,3748.8006,N,12217.8615,W,1,07,0.9,7.0,M,-25.1,M,,0000*65
$GPGSA,A,3,27,04,28,26,01,09,08,,,,,,2.7,0.9,2.6*35
$GPRMC,164724.000,A,3748.8006,N,12217.8615,W,0.37,53.68,011012,,,A*4A
$GPVTG,53.68,T,,M,0.37,N,0.7,K,A*36
$GPGGA,164725.000,3748.8007,N,12217.8612,W,1,06,1.1,6.5,M,-25.1,M,,0000*6E
$GPGSA,A,3,27,04,28,01,09,08,,,,,,,2.8,1.1,2.6*37
$GPRMC,164725.000,A,3748.8007,N,12217.8612,W,0.35,56.14,011012,,,A*41
$GPVTG,56.14,T,,M,0.35,N,0.6,K,A*3B
$GPGGA,164726.000,3748.8007,N,12217.8611,W,1,08,0.9,6.5,M,-25.1,M,,0000*69
$GPGSA,A,3,27,17,04,28,26,01,09,08,,,,,1.9,0.9,1.7*3C
$GPRMC,164726.000,A,3748.8007,N,12217.8611,W,0.39,28.62,011012,,,A*45
$GPVTG,28.62,T,,M,0.39,N,0.7,K,A*3E
$GPGGA,164727.000,3748.8009,N,12217.8615,W,1,08,0.9,5.8,M,-25.1,M,,0000*6C
$GPGSA,A,3,27,17,04,28,26,01,09,08,,,,,1.9,0.9,1.7*3C
$GPRMC,164727.000,A,3748.8009,N,12217.8615,W,0.38,288.88,011012,,,A*73
$GPVTG,288.88,T,,M,0.38,N,0.7,K,A*03
$GPGGA,164728.000,3748.8007,N,12217.8621,W,1,07,1.0,6.2,M,-25.1,M,,0000*64
$GPGSA,A,3,27,17,28,26,01,09,08,,,,,,2.1,1.0,1.8*34
$GPGSV,3,1,09,17,81,061,22,28,48,057,30,27,40,314,25,26,34,220,15*7A
$GPGSV,3,2,09,08,29,131,25,09,26,315,28,04,21,160,24,01,15,045,20*76
$GPGSV,3,3,09,11,02,037,*46
$GPRMC,164728.000,A,3748.8007,N,12217.8621,W,0.58,216.48,011012,,,A*78
$GPVTG,216.48,T,,M,0.58,N,1.1,K,A*09
$GPGGA,164729.000,3748.7998,N,12217.8632,W,1,08,0.9,6.7,M,-25.1,M,,0000*65
$GPGSA,A,3,27,17,04,28,26,01,09,08,,,,,1.9,0.9,1.7*3C
$GPRMC,164729.000,A,3748.7998,N,12217.8632,W,0.78,221.89,011012,,,A*70
$GPVTG,221.89,T,,M,0.78,N,1.4,K,A*07
$GPGGA,164730.000,3748.7997,N,12217.8631,W,1,08,0.9,6.8,M,-25.1,M,,0000*6E
$GPGSA,A,3,27,17,04,28,26,01,09,08,,,,,1.9,0.9,1.7*3C
$GPRMC,164730.000,A,3748.7997,N,12217.8631,W,0.53,51.41,011012,,,A*4C
$GPVTG,51.41,T,,M,0.53,N,1.0,K,A*3B
$GPGGA,164731.000,3748.7995,N,12217.8635,W,1,08,0.9,8.8,M,-25.1,M,,0000*67
$GPGSA,A,3,27,17,04,28,26,01,09,08,,,,,1.9,0.9,1.7*3C
$GPRMC,164731.000,A,3748.7995,N,12217.8635,W,0.22,37.95,011012,,,A*44
$GPVTG,37.95,T,,M,0.22,N,0.4,K,A*31
$GPGGA,164732.000,3748.7990,N,12217.8638,W,1,08,0.9,12.4,M,-25.1,M,,0000*5B
$GPGSA,A,3,27,17,04,28,26,01,09,08,,,,,1.9,0.9,1.7*3C
$GPRMC,164732.000,A,3748.7990,N,12217.8638,W,0.39,163.32,011012,,,A*78
$GPVTG,163.32,T,,M,0.39,N,0.7,K,A*05
$GPGGA,164733.000,3748.7988,N,12217.8641,W,1,08,0.9,14.1,M,-25.1,M,,0000*5E
$GPGSA,A,3,27,17,04,28,26,01,09,08,,,,,1.9,0.9,1.7*3C
$GPGSV,3,1,09,17,81,061,18,28,48,057,31,27,40,314,28,26,34,220,24*7D
$GPGSV,3,2,09,08,29,131,24,09,26,315,28,04,21,160,34,01,15,045,25*73
$GPGSV,3,3,09,11,02,037,*46
$GPRMC,164733.000,A,3748.7988,N,12217.8641,W,0.20,148.62,011012,,,A*7A
$GPVTG,148.62,T,,M,0.20,N,0.4,K,A*02
$GPGGA,164734.000,3748.7985,N,12217.8646,W,1,08,0.9,16.1,M,-25.1,M,,0000*51
$GPGSA,A,3,27,17,04,28,26,01,09,08,,,,,1.9,0.9,1.7*3C
$GPRMC,164734.000,A,3748.7985,N,12217.8646,W,0.12,359.44,011012,,,A*70
$GPVTG,359.44,T,,M,0.12,N,0.2,K,A*03
$GPGGA,164735.000,3748.7989,N,12217.8645,W,1,08,0.9,16.5,M,-25.1,M,,0000*5B
$GPGSA,A,3,27,17,04,28,26,01,09,08,,,,,1.9,0.9,1.7*3C
$GPRMC,164735.000,A,3748.7989,N,12217.8645,W,0.33,273.36,011012,,,A*71
$GPVTG,273.36,T,,M,0.33,N,0.6,K,A*08
$GPGGA,164736.000,3748.7991,N,12217.8644,W,1,08,0.9,16.8,M,-25.1,M,,0000*5D
$GPGSA,A,3,27,17,04,28,26,01,09,08,,,,,1.9,0.9,1.7*3C
$GPRMC,164736.000,A,3748.7991,N,12217.8644,W,0.06,6.90,011012,,,A*70
$GPVTG,6.90,T,,M,0.06,N,0.1,K,A*05
$GPGGA,164737.000,3748.7991,N,12217.8642,W,1,08,0.9,17.0,M,-25.1,M,,0000*53
$GPGSA,A,3,27,17,04,28,26,01,09,08,,,,,1.9,0.9,1.7*3C
$GPRMC,164737.000,A,3748.7991,N,12217.8642,W,0.35,141.41,011012,,,A*79
$GPVTG,141.41,T,,M,0.35,N,0.6,K,A*0C
$GPGGA,164738.000,3748.7992,N,12217.8641,W,1,08,0.9,17.0,M,-25.1,M,,0000*5C
$GPGSA,A,3,27,17,04,28,26,01,09,08,,,,,1.9,0.9,1.7*3C
$GPGSV,3,1,10,17,81,061,21,28,48,057,25,27,40,314,33,26,34,220,32*77
$GPGSV,3,2,10,08,29,131,18,09,26,315,28,04,21,160,30,01,15,045,28*7D
$GPGSV,3,3,10,11,02,037,,48,44,197,24*7B
$GPRMC,164738.000,A,3748.7992,N,12217.8641,W,0.20,124.28,011012,,,A*7E
$GPVTG,124.28,T,,M,0.20,N,0.4,K,A*06
$GPGGA,164739.000,3748.7993,N,12217.8642,W,1,08,0.9,17.6,M,-25.1,M,,0000*59
$GPGSA,A,3,27,17,04,28,26,01,09,08,,,,,1.9,0.9,1.7*3C
$GPRMC,164739.000,A,3748.7993,N,12217.8642,W,0.42,329.98,011012,,,A*7D
$GPVTG,329.98,T,,M,0.42,N,0.8,K,A*0A
$GPGGA,164740.000,3748.7995,N,12217.8643,W,1,08,0.9,17.6,M,-25.1,M,,0000*50
$GPGSA,A,3,27,17,04,28,26,01,09,08,,,,,1.9,0.9,1.7*3C
$GPRMC,164740.000,A,3748.7995,N,12217.8643,W,0.51,327.25,011012,,,A*7E
$GPVTG,327.25,T,,M,0.51,N,0.9,K,A*01
$GPGGA,164741.000,3748.7995,N,12217.8640,W,1,08,0.9,17.5,M,-25.1,M,,0000*51
$GPGSA,A,3,27,17,04,28,26,01,09,08,,,,,1.9,0.9,1.7*3C
$GPRMC,164741.000,A,3748.7995,N,12217.8640,W,0.41,144.29,011012,,,A*76
$GPVTG,144.29,T,,M,0.41,N,0.8,K,A*0A
$GPGGA,164742.000,3748.7995,N,12217.8636,W,1,08,0.9,17.7,M,-25.1,M,,0000*51
$GPGSA,A,3,27,17,04,28,26,01,09,08,,,,,1.9,0.9,1.7*3C
$GPRMC,164742.000,A,3748.7995,N,12217.8636,W,1.80,74.25,011012,,,A*46
$GPVTG,74.25,T,,M,1.80,N,3.3,K,A*30
$GPGGA,164743.000,3748.7996,N,12217.8627,W,1,08,0.9,18.4,M,-25.1,M,,0000*5F
$GPGSA,A,3,27,17,04,28,26,01,09,08,,,,,1.9,0.9,1.7*3C
$GPGSV,3,1,10,17,81,061,21,28,48,057,33,27,40,314,26,26,34,220,26*71
$GPGSV,3,2,10,08,29,131,24,09,26,315,34,04,21,160,26,01,15,045,29*79
$GPGSV,3,3,10,11,02,037,,48,44,197,29*76
$GPRMC,164743.000,A,3748.7996,N,12217.8627,W,2.05,114.43,011012,,,A*7D
$GPGGA,164744.000,3748.7995,N,12217.8620,W,1,08,0.9,18.4,M,-25.1,M,,0000*5C
$GPGSA,A,3,27,17,04,28,26,01,09,08,,,,,1.9,0.9,1.7*3C
$GPRMC,164744.000,A,3748.7995,N,12217.8620,W,1.92,117.76,011012,,,A*76
$GPVTG,117.76,T,,M,1.92,N,3.6,K,A*04
$GPGGA,164745.000,3748.7993,N,12217.8612,W,1,08,0.9,18.4,M,-25.1,M,,0000*5A
$GPGSA,A,3,27,17,04,28,26,01,09,08,,,,,1.9,0.9,1.7*3C
$GPRMC,164745.000,A,3748.7993,N,12217.8612,W,1.71,109.78,011012,,,A*7C
$GPVTG,109.78,T,,M,1.71,N,3.2,K,A*0C
$GPGGA,164746.000,3748.7991,N,12217.8607,W,1,08,0.9,18.3,M,-25.1,M,,0000*58
$GPGSA,A,3,27,17,04,28,26,01,09,08,,,,,1.9,0.9,1.7*3C
$GPRMC,164746.000,A,3748.7991,N,12217.8607,W,1.39,123.06,011012,,,A*74
$GPVTG,123.06,T,,M,1.39,N,2.6,K,A*04
$GPGGA,164747.000,3748.7987,N,12217.8601,W,1,08,0.9,18.1,M,-25.1,M,,0000*5A
$GPGSA,A,3,27,17,04,28,26,01,09,08,,,,,1.9,0.9,1.7*3C
$GPRMC,164747.000,A,3748.7987,N,12217.8601,W,1.74,142.53,011012,,,A*7A
$GPVTG,142.53,T,,M,1.74,N,3.2,K,A*0F
$GPGGA,164748.000,3748.7980,N,12217.8596,W,1,07,1.1,17.2,M,-25.1,M,,0000*55
$GPGSA,A,3,27,17,04,28,26,01,08,,,,,,2.1,1.1,1.8*38
$GPGSV,3,1,10,17,81,061,21,28,48,057,19,27,40,314,21,26,34,220,34*7D
$GPGSV,3,2,10,08,29,131,24,09,26,315,26,04,21,160,33,01,15,045,22*75
$GPGSV,3,3,10,11,02,037,,48,44,197,29*76
$GPRMC,164748.000,A,3748.7980,N,12217.8596,W,2.17,135.03,011012,,,A*7C
$GPVTG,135.03,T,,M,2.17,N,4.0,K,A*09
$GPGGA,164749.000,3748.7975,N,12217.8592,W,1,08,0.9,16.9,M,-25.1,M,,0000*56
$GPGSA,A,3,27,17,04,28,26,01,09,08,,,,,1.9,0.9,1.7*3C
$GPRMC,164749.000,A,3748.7975,N,12217.8592,W,1.99,125.92,011012,,,A*7F
$GPVTG,125.92,T,,M,1.99,N,3.7,K,A*05
$GPGGA,164750.000,3748.7970,N,12217.8587,W,1,08,0.9,17.9,M,-25.1,M,,0000*5E
$GPGSA,A,3,27,17,04,28,26,01,09,08,,,,,1.9,0.9,1.7*3C
$GPRMC,164750.000,A,3748.7970,N,12217.8587,W,1.99,124.89,011012,,,A*7D
$GPVTG,124.89,T,,M,1.99,N,3.7,K,A*0E
$GPGGA,164751.000,3748.7967,N,12217.8579,W,1,08,0.9,18.7,M,-25.1,M,,0000*59
$GPGSA,A,3,27,17,04,28,26,01,09,08,,,,,1.9,0.9,1.7*3C
$GPRMC,164751.000,A,3748.7967,N,12217.8579,W,2.03,117.64,011012,,,A*78
$GPVTG,117.64,T,,M,2.03,N,3.8,K,A*02
$GPGGA,164752.000,3748.7964,N,12217.8573,W,1,09,0.8,18.4,M,-25.1,M,,0000*50
$GPGSA,A,3,27,17,04,28,26,01,09,08,15,,,,1.9,0.8,1.7*39
$GPRMC,164752.000,A,3748.7964,N,12217.8573,W,1.90,122.74,011012,,,A*7C
$GPVTG,122.74,T,,M,1.90,N,3.5,K,A*01
$GPGGA,164753.000,3748.7962,N,12217.8561,W,1,09,0.8,18.6,M,-25.1,M,,0000*56
$GPGSA,A,3,27,17,04,28,26,01,09,08,15,,,,1.9,0.8,1.7*39
$GPGSV,3,1,11,17,81,060,21,28,47,057,20,27,40,314,28,26,34,220,32*77
$GPGSV,3,2,11,15,32,269,32,08,29,131,27,09,27,315,31,04,21,159,23*76
$GPGSV,3,3,11,01,15,045,21,11,01,037,,48,44,197,26*4C
$GPRMC,164753.000,A,3748.7962,N,12217.8561,W,1.59,117.47,011012,,,A*7B
$GPVTG,117.47,T,,M,1.59,N,2.9,K,A*0F
$GPGGA,164754.000,3748.7961,N,12217.8564,W,1,09,0.8,14.5,M,-25.1,M,,0000*58
$GPGSA,A,3,27,17,04,28,26,01,09,08,15,,,,1.9,0.8,1.7*39
$GPRMC,164754.000,A,3748.7961,N,12217.8564,W,1.31,127.86,011012,,,A*7A
$GPVTG,127.86,T,,M,1.31,N,2.4,K,A*02
$GPGGA,164755.000,3748.7961,N,12217.8564,W,1,09,0.8,13.7,M,-25.1,M,,0000*5C
$GPGSA,A,3,27,17,04,28,26,01,09,08,15,,,,1.9,0.8,1.7*39
$GPRMC,164755.000,A,3748.7961,N,12217.8564,W,1.22,129.77,011012,,,A*79
$GPVTG,129.77,T,,M,1.22,N,2.3,K,A*07
$GPGGA,164756.000,3748.7959,N,12217.8559,W,1,09,0.8,13.1,M,-25.1,M,,0000*5C
$GPGSA,A,3,27,17,04,28,26,01,09,08,15,,,,1.9,0.8,1.7*39
$GPRMC,164756.000,A,3748.7959,N,12217.8559,W,1.86,135.31,011012,,,A*7E
$GPVTG,135.31,T,,M,1.86,N,3.4,K,A*00
$GPGGA,164757.000,3748.7957,N,12217.8552,W,1,08,0.9,13.2,M,-25.1,M,,0000*5B
$GPGSA,A,3,27,17,04,28,26,01,08,15,,,,,2.0,0.9,1.8*34
$GPRMC,164757.000,A,3748.7957,N,12217.8552,W,1.43,79.04,011012,,,A*4C
$GPVTG,79.04,T,,M,1.43,N,2.6,K,A*35
$GPGGA,164758.000,3748.7957,N,12217.8542,W,1,08,0.9,13.1,M,-25.1,M,,0000*56
$GPGSA,A,3,27,17,04,28,26,01,08,15,,,,,2.0,0.9,1.8*34
$GPGSV,3,1,11,17,81,060,27,28,47,057,29,27,40,314,23,26,34,220,31*70
$GPGSV,3,2,11,15,32,269,30,08,29,131,33,09,27,315,,04,21,159,33*72
$GPGSV,3,3,11,01,15,045,21,11,01,037,,48,44,197,31*4A
$GPVTG,115.89,T,,M,1.06,N,2.0,K,A*0C
$GPGGA,164759.000,3748.7954,N,12217.8537,W,1,09,0.8,12.9,M,-25.1,M,,0000*5F
$GPGSA,A,3,27,17,04,28,26,01,09,08,15,,,,1.9,0.8,1.7*39
$GPRMC,164759.000,A,3748.7954,N,12217.8537,W,1.20,138.43,011012,,,A*70
$GPVTG,138.43,T,,M,1.20,N,2.2,K,A*03
$GPGGA,164800.000,3748.7952,N,12217.8529,W,1,09,0.8,12.2,M,-25.1,M,,0000*5E
$GPGSA,A,3,27,17,04,28,26,01,09,08,15,,,,1.9,0.8,1.7*39
$GPRMC,164800.000,A,3748.7952,N,12217.8529,W,1.50,107.50,011012,,,A*73
$GPVTG,107.50,T,,M,1.50,N,2.8,K,A*00
$GPGGA,164801.000,3748.7951,N,12217.8523,W,1,09,0.8,11.1,M,-25.1,M,,0000*56
$GPGSA,A,3,27,17,04,28,26,01,09,08,15,,,,1.9,0.8,1.7*39
$GPRMC,164801.000,A,3748.7951,N,12217.8523,W,1.84,96.99,011012,,,A*4E
$GPVTG,96.99,T,,M,1.84,N,3.4,K,A*38
$GPGGA,164802.000,3748.7951,N,12217.8517,W,1,09,0.8,10.1,M,-25.1,M,,0000*53
$GPGSA,A,3,27,17,04,28,26,01,09,08,15,,,,1.9,0.8,1.7*39
$GPRMC,164802.000,A,3748.7951,N,12217.8517,W,1.63,93.23,011012,,,A*47
$GPVTG,93.23,T,,M,1.63,N,3.0,K,A*31
$GPGGA,164803.000,3748.7950,N,12217.8512,W,1,09,0.8,9.0,M,-25.1,M,,0000*6F
$GPGSA,A,3,27,17,04,28,26,01,09,08,15,,,,1.9,0.8,1.7*39
$GPGSV,3,1,11,17,81,060,30,28,47,057,26,27,40,314,20,26,34,220,33*78
$GPGSV,3,2,11,15,32,269,27,08,29,131,31,09,27,315,21,04,21,159,37*71
$GPGSV,3,3,11,01,15,045,17,11,01,037,,48,44,197,35*4B
$GPRMC,164803.000,A,3748.7950,N,12217.8512,W,1.32,87.98,011012,,,A*43
$GPVTG,87.98,T,,M,1.32,N,2.4,K,A*35
$GPGGA,164804.000,3748.7950,N,12217.8505,W,1,09,0.8,7.8,M,-25.1,M,,0000*68
$GPGSA,A,3,27,17,04,28,26,01,09,08,15,,,,1.9,0.8,1.7*39
$GPRMC,164804.000,A,3748.7950,N,12217.8505,W,1.68,85.88,011012,,,A*4E
$GPVTG,85.88,T,,M,1.68,N,3.1,K,A*3D
$GPGGA,164805.000,3748.7949,N,12217.8499,W,1,09,0.8,6.6,M,-25.1,M,,0000*6A
$GPGSA,A,3,27,17,04,28,26,01,09,08,15,,,,1.9,0.8,1.7*39
$GPRMC,164805.000,A,3748.7949,N,12217.8499,W,1.14,101.10,011012,,,A*74
$GPVTG,101.10,T,,M,1.14,N,2.1,K,A*0B
$GPGGA,164806.000,3748.7946,N,12217.8491,W,1,09,0.8,6.2,M,-25.1,M,,0000*6A
$GPGSA,A,3,27,17,04,28,26,01,09,08,15,,,,1.9,0.8,1.7*39
$GPRMC,164806.000,A,3748.7946,N,12217.8491,W,1.56,111.26,011012,,,A*72
$GPVTG,111.26,T,,M,1.56,N,2.9,K,A*01
$GPGGA,164807.000,3748.7943,N,12217.8485,W,1,09,0.8,4.4,M,-25.1,M,,0000*6F
$GPGSA,A,3,27,17,04,28,26,01,09,08,15,,,,1.9,0.8,1.7*39
$GPRMC,164807.000,A,3748.7943,N,12217.8485,W,1.65,108.46,011012,,,A*7D
$GPVTG,108.46,T,,M,1.65,N,3.1,K,A*06
$GPGGA,164808.000,3748.7943,N,12217.8474,W,1,09,0.8,3.4,M,-25.1,M,,0000*69
$GPGSA,A,3,27,17,04,28,26,01,09,08,15,,,,1.9,0.8,1.7*39
$GPGSV,3,1,11,17,81,060,26,28,47,057,26,27,40,314,20,26,34,220,33*7F
$GPGSV,3,2,11,15,32,269,27,08,29,131,33,09,27,315,21,04,21,159,36*72
$GPGSV,3,3,11,01,15,045,19,11,01,037,,48,44,197,34*44
$GPRMC,164808.000,A,3748.7943,N,12217.8474,W,1.58,83.21,011012,,,A*41
$GPVTG,83.21,T,,M,1.58,N,2.9,K,A*32
$GPGGA,164809.000,3748.7941,N,12217.8467,W,1,09,0.8,2.5,M,-25.1,M,,0000*68
$GPGSA,A,3,27,17,04,28,26,01,09,08,15,,,,1.9,0.8,1.7*39
$GPRMC,164809.000,A,3748.7941,N,12217.8467,W,1.32,89.50,011012,,,A*40
$GPVTG,89.50,T,,M,1.32,N,2.5,K,A*3E
$GPGGA,164810.000,3748.7939,N,12217.8462,W,1,09,0.8,1.9,M,-25.1,M,,0000*65
$GPGSA,A,3,27,17,04,28,26,01,09,08,15,,,,1.9,0.8,1.7*39
$GPRMC,164810.000,A,3748.7939,N,12217.8462,W,1.01,107.70,011012,,,A*77
$GPVTG,107.70,T,,M,1.01,N,1.9,K,A*04
$GPGGA,164811.000,3748.7934,N,12217.8452,W,1,09,0.8,2.4,M,-25.1,M,,0000*64
$GPGSA,A,3,27,17,04,28,26,01,09,08,15,,,,1.9,0.8,1.7*39
$GPRMC,164811.000,A,3748.7934,N,12217.8452,W,1.33,115.10,011012,,,A*7C
$GPVTG,115.10,T,,M,1.33,N,2.5,K,A*0F
$GPGGA,164812.000,3748.7930,N,12217.8440,W,1,09,0.8,3.2,M,-25.1,M,,0000*67
$GPGSA,A,3,27,17,04,28,26,01,09,08,15,,,,1.9,0.8,1.7*39
$GPRMC,164812.000,A,3748.7930,N,12217.8440,W,1.76,98.97,011012,,,A*42
$GPVTG,98.97,T,,M,1.76,N,3.3,K,A*32
$GPGGA,164813.000,3748.7927,N,12217.8430,W,1,09,0.8,2.8,M,-25.1,M,,0000*6C
$GPGSA,A,3,27,17,04,28,26,01,09,08,15,,,,1.9,0.8,1.7*39
$GPGSV,3,1,11,17,81,060,30,28,47,057,23,27,40,314,20,26,34,220,34*7A
$GPGSV,3,2,11,15,32,269,27,08,29,131,35,09,27,315,21,04,21,159,39*7B
$GPGSV,3,3,11,01,15,045,21,11,01,037,,48,44,197,37*4C
$GPRMC,164813.000,A,3748.7927,N,12217.8430,W,1.86,109.20,011012,,,A*78
$GPVTG,109.20,T,,M,1.86,N,3.4,K,A*0F
$GPGGA,164814.000,3748.7923,N,12217.8420,W,1,09,0.8,2.6,M,-25.1,M,,0000*60
$GPGSA,A,3,27,17,04,28,26,01,09,08,15,,,,1.9,0.8,1.7*39
$GPRMC,164814.000,A,3748.7923,N,12217.8420,W,2.01,115.29,011012,,,A*72
$GPVTG,115.29,T,,M,2.01,N,3.7,K,A*04
$GPGGA,164815.000,3748.7920,N,12217.8411,W,1,09,0.8,2.0,M,-25.1,M,,0000*66
$GPGSA,A,3,27,17,04,28,26,01,09,08,15,,,,1.9,0.8,1.7*39
$GPRMC,164815.000,A,3748.7920,N,12217.8411,W,1.84,101.66,011012,,,A*72
$GPVTG,101.66,T,,M,1.84,N,3.4,K,A*07
$GPGGA,164816.000,3748.7916,N,12217.8401,W,1,09,0.8,1.7,M,-25.1,M,,0000*65
$GPGSA,A,3,27,17,04,28,26,01,09,08,15,,,,1.9,0.8,1.7*39
$GPRMC,164816.000,A,3748.7916,N,12217.8401,W,2.06,109.47,011012,,,A*77
$GPVTG,109.47,T,,M,2.06,N,3.8,K,A*09
$GPGGA,164817.000,3748.7913,N,12217.8393,W,1,09,0.8,1.8,M,-25.1,M,,0000*62
$GPGSA,A,3,27,17,04,28,26,01,09,08,15,,,,1.9,0.8,1.7*39
$GPRMC,164817.000,A,3748.7913,N,12217.8393,W,1.55,114.80,011012,,,A*7D
$GPVTG,114.80,T,,M,1.55,N,2.9,K,A*0B
$GPGGA,164818.000,3748.7909,N,12217.8386,W,1,09,0.8,0.8,M,-25.1,M,,0000*63
$GPGSA,A,3,27,17,04,28,26,01,09,08,15,,,,1.9,0.8,1.7*39
$GPGSV,3,1,11,17,80,059,30,28,47,057,27,27,40,314,20,26,34,220,34*75
$GPGSV,3,2,11,15,32,269,27,08,28,131,31,09,27,315,21,04,21,159,36*71
$GPGSV,3,3,11,01,15,045,22,11,01,037,,48,44,197,33*4B
$GPRMC,164818.000,A,3748.7909,N,12217.8386,W,1.58,112.44,011012,,,A*7E
$GPGGA,164819.000,3748.7905,N,12217.8377,W,1,09,0.8,1.1,M,-25.1,M,,0000*68
$GPGSA,A,3,27,17,04,28,26,01,09,08,15,,,,1.9,0.8,1.7*39
$GPRMC,164819.000,A,3748.7905,N,12217.8377,W,1.86,109.91,011012,,,A*7C
$GPVTG,109.91,T,,M,1.86,N,3.4,K,A*05
$GPGGA,164820.000,3748.7901,N,12217.8369,W,1,09,0.8,1.1,M,-25.1,M,,0000*69
$GPGSA,A,3,27,17,04,28,26,01,09,08,15,,,,1.9,0.8,1.7*39
$GPRMC,164820.000,A,3748.7901,N,12217.8369,W,1.91,116.60,011012,,,A*7B
$GPVTG,116.60,T,,M,1.91,N,3.5,K,A*02
$GPGGA,164821.000,3748.7895,N,12217.8359,W,1,09,0.8,1.7,M,-25.1,M,,0000*61
$GPGSA,A,3,27,17,04,28,26,01,09,08,15,,,,1.9,0.8,1.7*39
$GPRMC,164821.000,A,3748.7895,N,12217.8359,W,1.90,117.74,011012,,,A*70
$GPVTG,117.74,T,,M,1.90,N,3.5,K,A*07
$GPGGA,164822.000,3748.7890,N,12217.8350,W,1,09,0.8,1.6,M,-25.1,M,,0000*6F
$GPGSA,A,3,27,17,04,28,26,01,09,08,15,,,,1.9,0.8,1.7*39
$GPRMC,164822.000,A,3748.7890,N,12217.8350,W,1.59,111.32,011012,,,A*7E
$GPVTG,111.32,T,,M,1.59,N,2.9,K,A*0B
$GPGGA,164823.000,3748.7888,N,12217.8343,W,1,09,0.8,0.7,M,-25.1,M,,0000*65
$GPGSA,A,3,27,17,04,28,26,01,09,08,15,,,,1.9,0.8,1.7*39
$GPGSV,3,1,11,17,80,059,30,28,47,057,25,27,40,314,19,26,34,220,34*7D
$GPGSV,3,2,11,15,32,269,26,08,28,131,31,09,27,315,20,04,21,159,37*70
$GPGSV,3,3,11,01,15,045,18,11,01,037,,51,43,156,34*47
$GPRMC,164823.000,A,3748.7888,N,12217.8343,W,2.35,110.13,011012,,,A*7F
$GPVTG,110.13,T,,M,2.35,N,4.3,K,A*0C
$GPGGA,164824.000,3748.7882,N,12217.8339,W,1,09,0.8,0.0,M,-25.1,M,,0000*62
$GPGSA,A,3,27,17,04,28,26,01,09,08,15,,,,1.9,0.8,1.7*39
$GPRMC,164824.000,A,3748.7882,N,12217.8339,W,1.72,101.85,011012,,,A*70
$GPVTG,101.85,T,,M,1.72,N,3.2,K,A*05
$GPGGA,164825.000,3748.7877,N,12217.8328,W,1,09,0.8,0.4,M,-25.1,M,,0000*6D
$GPGSA,A,3,27,17,04,28,26,01,09,08,15,,,,1.9,0.8,1.7*39
$GPRMC,164825.000,A,3748.7877,N,12217.8328,W,1.85,90.19,011012,,,A*4F
$GPVTG,90.19,T,,M,1.85,N,3.4,K,A*37
$GPGGA,164826.000,3748.7872,N,12217.8320,W,1,09,0.8,0.5,M,-25.1,M,,0000*62
$GPGSA,A,3,27,17,04,28,26,01,09,08,15,,,,1.9,0.8,1.7*39
$GPRMC,164826.000,A,3748.7872,N,12217.8320,W,1.74,99.35,011012,,,A*48
$GPVTG,99.35,T,,M,1.74,N,3.2,K,A*38
$GPGGA,164827.000,3748.7867,N,12217.8311,W,1,09,0.8,0.3,M,-25.1,M,,0000*63
$GPGSA,A,3,27,17,04,28,26,01,09,08,15,,,,1.9,0.8,1.7*39
$GPRMC,164827.000,A,3748.7867,N,12217.8311,W,2.08,114.72,011012,,,A*70
$GPVTG,114.72,T,,M,2.08,N,3.9,K,A*0C
$GPGGA,164828.000,3748.7861,N,12217.8305,W,1,09,0.8,0.5,M,-25.1,M,,0000*69
$GPGSA,A,3,27,17,04,28,26,01,09,08,15,,,,1.9,0.8,1.7*39
$GPGSV,3,1,11,17,80,059,30,28,47,057,26,27,40,314,19,26,34,220,33*79
$GPGSV,3,2,11,15,32,269,26,08,28,131,27,09,27,315,19,04,21,159,35*7F
$GPGSV,3,3,11,01,15,045,18,11,01,037,,51,43,156,27*45
$GPRMC,164828.000,A,3748.7861,N,12217.8305,W,1.33,112.50,011012,,,A*71
$GPVTG,112.50,T,,M,1.33,N,2.5,K,A*0C
$GPGGA,164829.000,3748.7858,N,12217.8296,W,1,09,0.8,0.5,M,-25.1,M,,0000*69
$GPGSA,A,3,27,17,04,28,26,01,09,08,15,,,,1.9,0.8,1.7*39
$GPRMC,164829.000,A,3748.7858,N,12217.8296,W,1.61,119.21,011012,,,A*7B
$GPVTG,119.21,T,,M,1.61,N,3.0,K,A*02
$GPGGA,164830.000,3748.7855,N,12217.8287,W,1,09,0.8,1.0,M,-25.1,M,,0000*68
$GPGSA,A,3,27,17,04,28,26,01,09,08,15,,,,1.9,0.8,1.7*39
$GPRMC,164830.000,A,3748.7855,N,12217.8287,W,1.26,117.12,011012,,,A*73
$GPVTG,117.12,T,,M,1.26,N,2.3,K,A*0D
$GPGGA,164831.000,3748.7852,N,12217.8279,W,1,09,0.8,1.1,M,-25.1,M,,0000*6E
$GPGSA,A,3,27,17,04,28,26,01,09,08,15,,,,1.9,0.8,1.7*39
$GPRMC,164831.000,A,3748.7852,N,12217.8279,W,1.45,109.35,011012,,,A*7B
$GPVTG,109.35,T,,M,1.45,N,2.7,K,A*06
$GPGGA,164832.000,3748.7847,N,12217.8272,W,1,09,0.8,1.3,M,-25.1,M,,0000*60
$GPGSA,A,3,27,17,04,28,26,01,09,08,15,,,,1.9,0.8,1.7*39
$GPRMC,164832.000,A,3748.7847,N,12217.8272,W,2.09,112.55,011012,,,A*70
$GPVTG,112.55,T,,M,2.09,N,3.9,K,A*0E
$GPGGA,164833.000,3748.7843,N,12217.8263,W,1,09,0.8,1.3,M,-25.1,M,,0000*65
$GPGSA,A,3,27,17,04,28,26,01,09,08,15,,,,1.9,0.8,1.7*39
$GPGSV,3,1,11,17,80,059,29,28,47,057,26,27,40,314,19,26,34,220,35*77
$GPGSV,3,2,11,15,32,269,26,08,28,131,34,09,27,315,19,04,21,159,38*70
$GPRMC,164833.000,A,3748.7843,N,12217.8263,W,2.06,111.66,011012,,,A*79
$GPVTG,111.66,T,,M,2.06,N,3.8,K,A*03
$GPGGA,164834.000,3748.7838,N,12217.8256,W,1,09,0.8,1.2,M,-25.1,M,,0000*69
$GPGSA,A,3,27,17,04,28,26,01,09,08,15,,,,1.9,0.8,1.7*39
$GPRMC,164834.000,A,3748.7838,N,12217.8256,W,2.05,105.52,011012,,,A*75
$GPVTG,105.52,T,,M,2.05,N,3.8,K,A*02
$GPGGA,164835.000,3748.7835,N,12217.8247,W,1,09,0.8,1.3,M,-25.1,M,,0000*64
$GPGSA,A,3,27,17,04,28,26,01,09,08,15,,,,1.9,0.8,1.7*39
$GPRMC,164835.000,A,3748.7835,N,12217.8247,W,2.12,100.49,011012,,,A*70
$GPVTG,100.49,T,,M,2.12,N,3.9,K,A*0A
$GPGGA,164836.000,3748.7831,N,12217.8239,W,1,09,0.8,1.5,M,-25.1,M,,0000*6C
$GPGSA,A,3,27,17,04,28,26,01,09,08,15,,,,1.9,0.8,1.7*39
$GPRMC,164836.000,A,3748.7831,N,12217.8239,W,1.96,107.52,011012,,,A*7C
$GPVTG,107.52,T,,M,1.96,N,3.6,K,A*07
$GPGGA,164837.000,3748.7827,N,12217.8231,W,1,09,0.8,1.6,M,-25.1,M,,0000*61
$GPGSA,A,3,27,17,04,28,26,01,09,08,15,,,,1.9,0.8,1.7*39
$GPRMC,164837.000,A,3748.7827,N,12217.8231,W,1.98,112.12,011012,,,A*7C
$GPVTG,112.12,T,,M,1.98,N,3.7,K,A*08
$GPGGA,164838.000,3748.7825,N,12217.8225,W,1,09,0.8,1.0,M,-25.1,M,,0000*6F
$GPGSA,A,3,27,17,04,28,26,01,09,08,15,,,,1.9,0.8,1.7*39
$GPGSV,3,1,11,17,80,059,30,28,47,057,26,27,40,314,19,26,34,220,35*7F
$GPGSV,3,2,11,15,32,269,27,08,28,131,32,09,27,315,19,04,21,159,40*78
$GPGSV,3,3,11,01,15,045,19,11,01,037,,51,43,156,30*42
$GPRMC,164838.000,A,3748.7825,N,12217.8225,W,1.87,118.25,011012,,,A*74
$GPVTG,118.25,T,,M,1.87,N,3.5,K,A*0A
$GPGGA,164839.000,3748.7821,N,12217.8217,W,1,09,0.8,1.1,M,-25.1,M,,0000*6A
$GPGSA,A,3,27,17,04,28,26,01,09,08,15,,,,1.9,0.8,1.7*39
$GPRMC,164839.000,A,3748.7821,N,12217.8217,W,2.04,113.81,011012,,,A*7D
$GPVTG,113.81,T,,M,2.04,N,3.8,K,A*0A
$GPGGA,164840.000,3748.7819,N,12217.8211,W,1,09,0.8,0.6,M,-25.1,M,,0000*6F
$GPGSA,A,3,27,17,04,28,26,01,09,08,15,,,,1.9,0.8,1.7*39
$GPRMC,164840.000,A,3748.7819,N,12217.8211,W,1.93,106.67,011012,,,A*7F
$GPVTG,106.67,T,,M,1.93,N,3.6,K,A*05
$GPGGA,164841.000,3748.7815,N,12217.8203,W,1,09,0.8,0.5,M,-25.1,M,,0000*62
$GPGSA,A,3,27,17,04,28,26,01,09,08,15,,,,1.9,0.8,1.7*39
$GPRMC,164841.000,A,3748.7815,N,12217.8203,W,2.12,121.31,011012,,,A*7D
$GPVTG,121.31,T,,M,2.12,N,3.9,K,A*06
$GPGGA,164842.000,3748.7810,N,12217.8195,W,1,09,0.8,0.6,M,-25.1,M,,0000*6B
$GPGSA,A,3,27,17,04,28,26,01,09,08,15,,,,1.9,0.8,1.7*39
$GPRMC,164842.000,A,3748.7810,N,12217.8195,W,2.44,120.26,011012,,,A*73
$GPVTG,120.26,T,,M,2.44,N,4.5,K,A*09
$GPGGA,164843.000,3748.7806,N,12217.8187,W,1,09,0.8,0.5,M,-25.1,M,,0000*6D
$GPGSA,A,3,27,17,04,28,26,01,09,08,15,,,,1.9,0.8,1.7*39
$GPGSV,3,1,11,17,80,059,30,28,47,057,23,27,40,314,19,26,34,220,35*7A
$GPGSV,3,2,11,15,32,269,27,08,28,131,33,09,27,315,19,04,21,159,38*76
$GPGSV,3,3,11,01,15,045,18,11,01,037,,51,43,156,35*46
$GPRMC,164843.000,A,3748.7806,N,12217.8187,W,2.27,121.28,011012,,,A*7C
$GPVTG,121.28,T,,M,2.27,N,4.2,K,A*04
$GPGGA,164844.000,3748.7800,N,12217.8177,W,1,09,0.8,0.9,M,-25.1,M,,0000*6F
$GPGSA,A,3,27,17,04,28,26,01,09,08,15,,,,1.9,0.8,1.7*39
$GPRMC,164844.000,A,3748.7800,N,12217.8177,W,2.14,111.26,011012,,,A*7F
$GPVTG,111.26,T,,M,2.14,N,4.0,K,A*0B
$GPGGA,164845.000,3748.7797,N,12217.8170,W,1,09,0.8,0.8,M,-25.1,M,,0000*69
$GPGSA,A,3,27,17,04,28,26,01,09,08,15,,,,1.9,0.8,1.7*39
$GPRMC,164845.000,A,3748.7797,N,12217.8170,W,1.82,112.83,011012,,,A*78
$GPVTG,112.83,T,,M,1.82,N,3.4,K,A*08
$GPGGA,164846.000,3748.7793,N,12217.8164,W,1,09,0.8,0.6,M,-25.1,M,,0000*65
$GPGSA,A,3,27,17,04,28,26,01,09,08,15,,,,1.9,0.8,1.7*39
$GPRMC,164846.000,A,3748.7793,N,12217.8164,W,1.79,120.19,011012,,,A*7C
$GPVTG,120.19,T,,M,1.79,N,3.3,K,A*09
$GPGGA,164847.000,3748.7789,N,12217.8156,W,1,09,0.8,0.7,M,-25.1,M,,0000*6F
$GPGSA,A,3,27,17,04,28,26,01,09,08,15,,,,1.9,0.8,1.7*39
$GPRMC,164847.000,A,3748.7789,N,12217.8156,W,2.17,116.15,011012,,,A*75
$GPVTG,116.15,T,,M,2.17,N,4.0,K,A*0F
$GPGGA,164848.000,3748.7786,N,12217.8147,W,1,09,0.8,0.5,M,-25.1,M,,0000*6D
$GPGSA,A,3,27,17,04,28,26,01,09,08,15,,,,1.9,0.8,1.7*39
$GPGSV,3,1,11,17,80,058,30,28,47,058,27,27,40,314,19,26,33,220,35*77
$GPGSV,3,2,11,15,32,269,27,08,28,131,34,09,27,315,19,04,22,159,38*72
$GPGSV,3,3,11,01,15,045,18,11,01,037,,51,43,156,36*45
$GPRMC,164848.000,A,3748.7786,N,12217.8147,W,2.34,109.75,011012,,,A*7C
$GPVTG,109.75,T,,M,2.34,N,4.3,K,A*05
$GPGGA,164849.000,3748.7782,N,12217.8137,W,1,09,0.8,0.8,M,-25.1,M,,0000*62
$GPGSA,A,3,27,17,04,28,26,01,09,08,15,,,,1.9,0.8,1.7*39
$GPRMC,164849.000,A,3748.7782,N,12217.8137,W,2.06,104.58,011012,,,A*7D
$GPVTG,104.58,T,,M,2.06,N,3.8,K,A*0A
$GPGGA,164850.000,3748.7777,N,12217.8127,W,1,09,0.8,1.2,M,-25.1,M,,0000*6A
$GPGSA,A,3,27,17,04,28,26,01,09,08,15,,,,1.9,0.8,1.7*39
$GPRMC,164850.000,A,3748.7777,N,12217.8127,W,2.45,117.36,011012,,,A*73
$GPVTG,117.36,T,,M,2.45,N,4.5,K,A*0D
$GPGGA,164851.000,3748.7770,N,12217.8115,W,1,09,0.8,2.2,M,-25.1,M,,0000*6E
$GPGSA,A,3,27,17,04,28,26,01,09,08,15,,,,1.9,0.8,1.7*39
$GPRMC,164851.000,A,3748.7770,N,12217.8115,W,2.46,119.60,011012,,,A*7A
$GPVTG,119.60,T,,M,2.46,N,4.6,K,A*00
$GPGGA,164852.000,3748.7765,N,12217.8106,W,1,09,0.8,2.4,M,-25.1,M,,0000*6D
$GPGSA,A,3,27,17,04,28,26,01,09,08,15,,,,1.9,0.8,1.7*39
$GPRMC,164852.000,A,3748.7765,N,12217.8106,W,2.29,113.79,011012,,,A*74
$GPVTG,113.79,T,,M,2.29,N,4.2,K,A*0F
$GPGGA,164853.000,3748.7760,N,12217.8097,W,1,09,0.8,4.0,M,-25.1,M,,0000*62
$GPGSA,A,3,27,17,04,28,26,01,09,08,15,,,,1.9,0.8,1.7*39
$GPGSV,3,1,11,17,80,058,30,28,47,058,29,27,40,314,20,26,33,220,35*73
$GPGSV,3,2,11,15,32,269,27,08,28,131,35,09,27,315,19,04,22,159,39*72
$GPGSV,3,3,11,01,15,045,18,11,01,037,,51,43,156,37*44
$GPVTG,112.97,T,,M,2.35,N,4.4,K,A*05
$GPGGA,164854.000,3748.7756,N,12217.8089,W,1,09,0.8,4.9,M,-25.1,M,,0000*66
$GPGSA,A,3,27,17,04,28,26,01,09,08,15,,,,1.9,0.8,1.7*39
$GPRMC,164854.000,A,3748.7756,N,12217.8089,W,2.45,111.70,011012,,,A*75
$GPVTG,111.70,T,,M,2.45,N,4.5,K,A*09
$GPGGA,164855.000,3748.7753,N,12217.8083,W,2,09,0.8,4.9,M,-25.1,M,,0000*6B
$GPGSA,A,3,27,17,04,28,26,01,09,08,15,,,,1.9,0.8,1.7*39
$GPRMC,164855.000,A,3748.7753,N,12217.8083,W,2.27,111.19,011012,,,D*75
$GPVTG,111.19,T,,M,2.27,N,4.2,K,D*00
$GPGGA,164856.000,3748.7747,N,12217.8074,W,2,09,0.8,5.3,M,-25.1,M,,0000*6E
$GPGSA,A,3,27,17,04,28,26,01,09,08,15,,,,1.9,0.8,1.7*39
$GPRMC,164856.000,A,3748.7747,N,12217.8074,W,2.02,113.92,011012,,,D*7D
$GPVTG,113.92,T,,M,2.02,N,3.7,K,D*04
$GPGGA,164857.000,3748.7741,N,12217.8068,W,2,09,0.8,5.7,M,-25.1,M,,0000*60
$GPGSA,A,3,27,17,04,28,26,01,09,08,15,,,,1.9,0.8,1.7*39
$GPRMC,164857.000,A,3748.7741,N,12217.8068,W,1.90,119.11,011012,,,D*7E
$GPVTG,119.11,T,,M,1.90,N,3.5,K,D*0F
$GPGGA,164858.000,3748.7735,N,12217.8060,W,2,09,0.8,6.3,M,-25.1,M,2.8,0000*47
$GPGSA,A,3,27,17,04,28,26,01,09,08,15,,,,1.9,0.8,1.7*39
$GPGSV,3,1,11,17,80,058,30,28,47,058,28,27,40,314,19,26,33,220,35*78
$GPGSV,3,2,11,15,32,269,27,08,28,131,35,09,27,315,20,04,22,159,39*78
$GPGSV,3,3,11,01,15,045,18,11,01,037,,51,43,156,36*45
$GPRMC,164858.000,A,3748.7735,N,12217.8060,W,2.57,124.35,011012,,,D*7A
$GPVTG,124.35,T,,M,2.57,N,4.8,K,D*05
$GPGGA,164859.000,3748.7732,N,12217.8055,W,2,09,0.8,6.0,M,-25.1,M,3.8,0000*45
$GPGSA,A,3,27,17,04,28,26,01,09,08,15,,,,1.9,0.8,1.7*39
$GPRMC,164859.000,A,3748.7732,N,12217.8055,W,2.16,114.14,011012,,,D*7F
$GPVTG,114.14,T,,M,2.16,N,4.0,K,D*08
$GPGGA,164900.000,3748.7729,N,12217.8046,W,2,09,0.8,6.0,M,-25.1,M,4.8,0000*47
$GPGSA,A,3,27,17,04,28,26,01,09,08,15,,,,1.9,0.8,1.7*39
$GPRMC,164900.000,A,3748.7729,N,12217.8046,W,2.09,104.46,011012,,,D*72
$GPVTG,104.46,T,,M,2.09,N,3.9,K,D*0E
$GPGGA,164901.000,3748.7726,N,12217.8039,W,2,09,0.8,5.9,M,-25.1,M,,0000*69
$GPGSA,A,3,27,17,04,28,26,01,09,08,15,,,,1.9,0.8,1.7*39
$GPRMC,164901.000,A,3748.7726,N,12217.8039,W,1.72,105.86,011012,,,D*76
$GPVTG,105.86,T,,M,1.72,N,3.2,K,D*07
$GPGGA,164902.000,3748.7725,N,12217.8033,W,2,09,0.8,5.4,M,-25.1,M,,0000*6E
$GPGSA,A,3,27,17,04,28,26,01,09,08,15,,,,1.9,0.8,1.7*39
$GPRMC,164902.000,A,3748.7725,N,12217.8033,W,1.63,101.92,011012,,,D*7D
$GPVTG,101.92,T,,M,1.63,N,3.0,K,D*04
$GPGGA,164903.000,3748.7723,N,12217.8025,W,2,09,0.8,5.0,M,-25.1,M,,0000*6A
$GPGSA,A,3,27,17,04,28,26,01,09,08,15,,,,1.9,0.8,1.7*39
$GPGSV,3,1,11,17,80,058,30,28,47,058,29,27,40,314,19,26,33,220,35*79
$GPGSV,3,2,11,15,32,269,26,08,28,131,35,09,27,315,20,04,22,159,39*79
$GPGSV,3,3,11,01,15,045,18,11,01,037,,51,43,156,36*45
$GPRMC,164903.000,A,3748.7723,N,12217.8025,W,2.06,104.23,011012,,,D*72
$GPVTG,104.23,T,,M,2.06,N,3.8,K,D*03
$GPGGA,164904.000,3748.7722,N,12217.8015,W,2,09,0.8,4.5,M,-25.1,M,2.8,0000*4F
$GPGSA,A,3,27,17,04,28,26,01,09,08,15,,,,1.9,0.8,1.7*39
$GPRMC,164904.000,A,3748.7722,N,12217.8015,W,2.19,102.12,011012,,,D*7D
$GPVTG,102.12,T,,M,2.19,N,4.0,K,D*06
$GPGGA,164905.000,3748.7717,N,12217.8004,W,2,09,0.8,5.0,M,-25.1,M,3.8,0000*4D
$GPGSA,A,3,27,17,04,28,26,01,09,08,15,,,,1.9,0.8,1.7*39
$GPRMC,164905.000,A,3748.7717,N,12217.8004,W,1.77,108.97,011012,,,D*76
$GPVTG,108.97,T,,M,1.77,N,3.3,K,D*0E
$GPGGA,164906.000,3748.7715,N,12217.7997,W,2,09,0.8,4.6,M,-25.1,M,4.8,0000*40
$GPGSA,A,3,27,17,04,28,26,01,09,08,15,,,,1.9,0.8,1.7*39
$GPRMC,164906.000,A,3748.7715,N,12217.7997,W,1.51,120.95,011012,,,D*77
$GPVTG,120.95,T,,M,1.51,N,2.8,K,D*08
$GPGGA,164907.000,3748.7709,N,12217.7991,W,2,09,0.8,5.0,M,-25.1,M,,0000*6F
$GPGSA,A,3,27,17,04,28,26,01,09,08,15,,,,1.9,0.8,1.7*39
$GPRMC,164907.000,A,3748.7709,N,12217.7991,W,1.88,124.40,011012,,,D*75
$GPVTG,124.40,T,,M,1.88,N,3.5,K,D*0C
$GPGGA,164908.000,3748.7704,N,12217.7984,W,2,09,0.8,5.0,M,-25.1,M,,0000*69
$GPGSA,A,3,27,17,04,28,26,01,09,08,15,,,,1.9,0.8,1.7*39
$GPGSV,3,1,11,17,80,058,30,28,47,058,28,27,40,314,19,26,33,220,35*78
$GPGSV,3,2,11,15,32,269,26,08,28,131,35,09,27,315,20,04,22,159,39*79
$GPGSV,3,3,11,01,15,045,18,11,01,037,,51,43,156,37*44
$GPRMC,164908.000,A,3748.7704,N,12217.7984,W,1.87,126.84,011012,,,D*76
$GPVTG,126.84,T,,M,1.87,N,3.5,K,D*09
$GPGGA,164909.000,3748.7698,N,12217.7977,W,2,09,0.8,5.2,M,-25.1,M,,0000*62
$GPGSA,A,3,27,17,04,28,26,01,09,08,15,,,,1.9,0.8,1.7*39
$GPRMC,164909.000,A,3748.7698,N,12217.7977,W,2.18,125.93,011012,,,D*7F
$GPVTG,125.93,T,,M,2.18,N,4.0,K,D*0B
$GPGGA,164910.000,3748.7693,N,12217.7971,W,2,09,0.8,4.8,M,-25.1,M,2.8,0000*48
$GPGSA,A,3,27,17,04,28,26,01,09,08,15,,,,1.9,0.8,1.7*39
$GPRMC,164910.000,A,3748.7693,N,12217.7971,W,2.14,126.75,011012,,,D*7D
$GPVTG,126.75,T,,M,2.14,N,4.0,K,D*0C
$GPGGA,164911.000,3748.7689,N,12217.7963,W,2,09,0.8,4.7,M,-25.1,M,,0000*6A
$GPGSA,A,3,27,17,04,28,26,01,09,08,15,,,,1.9,0.8,1.7*39
$GPRMC,164911.000,A,3748.7689,N,12217.7963,W,1.98,122.67,011012,,,D*74
$GPVTG,122.67,T,,M,1.98,N,3.7,K,D*0C
$GPGGA,164912.000,3748.7684,N,12217.7954,W,2,09,0.8,4.8,M,-25.1,M,2.8,0000*4B
$GPGSA,A,3,27,17,04,28,26,01,09,08,15,,,,1.9,0.8,1.7*39
$GPRMC,164912.000,A,3748.7684,N,12217.7954,W,2.18,118.89,011012,,,D*7C
$GPVTG,118.89,T,,M,2.18,N,4.0,K,D*0E
$GPGGA,164913.000,3748.7678,N,12217.7944,W,2,09,0.8,5.1,M,-25.1,M,,0000*64
$GPGSA,A,3,27,17,04,28,26,01,09,08,15,,,,1.9,0.8,1.7*39
$GPGSV,3,1,11,17,80,058,29,28,47,058,28,27,40,314,18,26,33,220,35*71
$GPGSV,3,2,11,15,32,269,26,08,28,131,35,09,27,315,19,04,22,159,32*78
$GPGSV,3,3,11,01,15,045,26,11,01,037,,51,43,156,36*48
$GPRMC,164913.000,A,3748.7678,N,12217.7944,W,2.38,119.99,011012,,,D*7D
$GPGGA,164914.000,3748.7673,N,12217.7937,W,2,09,0.8,5.1,M,-25.1,M,,0000*6C
$GPGSA,A,3,27,17,04,28,26,01,09,08,15,,,,1.9,0.8,1.7*39
$GPRMC,164914.000,A,3748.7673,N,12217.7937,W,2.15,123.45,011012,,,D*72
$GPVTG,123.45,T,,M,2.15,N,4.0,K,D*0B
$GPGGA,164915.000,3748.7667,N,12217.7926,W,2,09,0.8,5.7,M,-25.1,M,,0000*6E
$GPGSA,A,3,27,17,04,28,26,01,09,08,15,,,,1.9,0.8,1.7*39
$GPRMC,164915.000,A,3748.7667,N,12217.7926,W,2.49,126.04,011012,,,D*7F
$GPVTG,126.04,T,,M,2.49,N,4.6,K,D*04
$GPGGA,164916.000,3748.7662,N,12217.7916,W,2,09,0.8,5.9,M,-25.1,M,,0000*65
$GPGSA,A,3,27,17,04,28,26,01,09,08,15,,,,1.9,0.8,1.7*39
$GPRMC,164916.000,A,3748.7662,N,12217.7916,W,2.37,117.27,011012,,,D*70
$GPVTG,117.27,T,,M,2.37,N,4.4,K,D*0C
$GPGGA,164917.000,3748.7656,N,12217.7907,W,2,08,1.1,5.9,M,-25.1,M,2.8,0000*4E
$GPGSA,A,3,27,17,04,28,26,09,08,15,,,,,2.5,1.1,2.3*38
$GPRMC,164917.000,A,3748.7656,N,12217.7907,W,2.13,124.14,011012,,,D*70
$GPVTG,124.14,T,,M,2.13,N,3.9,K,D*00
$GPGGA,164918.000,3748.7651,N,12217.7899,W,2,09,0.8,5.7,M,-25.1,M,,0000*63
$GPGSA,A,3,27,17,04,28,26,01,09,08,15,,,,1.9,0.8,1.7*39
$GPGSV,3,1,11,17,80,058,29,28,47,058,28,27,40,314,18,26,33,220,35*71
$GPGSV,3,2,11,15,32,269,26,08,28,131,36,09,27,315,19,04,22,159,29*71
$GPGSV,3,3,11,01,15,045,18,11,01,037,,51,43,156,36*45
$GPRMC,164918.000,A,3748.7651,N,12217.7899,W,2.08,120.86,011012,,,D*7B
$GPVTG,120.86,T,,M,2.08,N,3.8,K,D*04
$GPGGA,164919.000,3748.7647,N,12217.7892,W,2,09,0.8,5.4,M,-25.1,M,,0000*6D
$GPGSA,A,3,27,17,04,28,26,01,09,08,15,,,,1.9,0.8,1.7*39
$GPRMC,164919.000,A,3748.7647,N,12217.7892,W,2.28,116.48,011012,,,D*73
$GPVTG,116.48,T,,M,2.28,N,4.2,K,D*0C
$GPGGA,164920.000,3748.7643,N,12217.7881,W,2,09,0.8,5.4,M,-25.1,M,,0000*61
$GPGSA,A,3,27,17,04,28,26,01,09,08,15,,,,1.9,0.8,1.7*39
$GPRMC,164920.000,A,3748.7643,N,12217.7881,W,2.44,105.28,011012,,,D*71
$GPVTG,105.28,T,,M,2.44,N,4.5,K,D*05
$GPGGA,164921.000,3748.7639,N,12217.7870,W,2,09,0.8,5.5,M,-25.1,M,,0000*62
$GPGSA,A,3,27,17,04,28,26,01,09,08,15,,,,1.9,0.8,1.7*39
$GPRMC,164921.000,A,3748.7639,N,12217.7870,W,2.96,104.62,011012,,,D*73
$GPVTG,104.62,T,,M,2.96,N,5.5,K,D*04
$GPGGA,164922.000,3748.7632,N,12217.7859,W,2,09,0.8,5.6,M,-25.1,M,2.8,0000*46
$GPGSA,A,3,27,17,04,28,26,01,09,08,15,,,,1.9,0.8,1.7*39
$GPRMC,164922.000,A,3748.7632,N,12217.7859,W,2.61,107.20,011012,,,D*7D
$GPVTG,107.20,T,,M,2.61,N,4.8,K,D*05
$GPGGA,164923.000,3748.7622,N,12217.7846,W,2,09,0.8,7.9,M,-25.1,M,,0000*61
$GPGSA,A,3,27,17,04,28,26,01,09,08,15,,,,1.9,0.8,1.7*39
$GPGSV,3,1,11,17,80,058,29,28,47,058,19,27,40,314,19,26,33,220,34*73
$GPGSV,3,2,11,15,32,269,25,08,28,131,36,09,27,315,20,04,22,159,34*74
$GPGSV,3,3,11,01,15,045,19,11,01,037,,51,43,156,35*47
$GPRMC,164923.000,A,3748.7622,N,12217.7846,W,2.39,106.91,011012,,,D*75
$GPVTG,106.91,T,,M,2.39,N,4.4,K,D*0F
$GPGGA,164924.000,3748.7616,N,12217.7837,W,2,09,0.8,8.3,M,-25.1,M,2.8,0000*46
$GPGSA,A,3,27,17,04,28,26,01,09,08,15,,,,1.9,0.8,1.7*39
$GPRMC,164924.000,A,3748.7616,N,12217.7837,W,2.14,105.52,011012,,,D*70
$GPVTG,105.52,T,,M,2.14,N,4.0,K,D*08
$GPGGA,164925.000,3748.7610,N,12217.7829,W,2,09,0.8,8.3,M,-25.1,M,,0000*6A
$GPGSA,A,3,27,17,04,28,26,01,09,08,15,,,,1.9,0.8,1.7*39
$GPRMC,164925.000,A,3748.7610,N,12217.7829,W,2.49,118.79,011012,,,D*75
$GPVTG,118.79,T,,M,2.49,N,4.6,K,D*03
$GPGGA,164926.000,3748.7605,N,12217.7819,W,2,09,0.8,8.7,M,-25.1,M,,0000*6A
$GPGSA,A,3,27,17,04,28,26,01,09,08,15,,,,1.9,0.8,1.7*39
$GPRMC,164926.000,A,3748.7605,N,12217.7819,W,2.61,118.56,011012,,,D*76
$GPVTG,118.56,T,,M,2.61,N,4.8,K,D*0A
$GPGGA,164927.000,3748.7600,N,12217.7814,W,2,09,0.8,8.4,M,-25.1,M,,0000*60
$GPGSA,A,3,27,17,04,28,26,01,09,08,15,,,,1.9,0.8,1.7*39
$GPRMC,164927.000,A,3748.7600,N,12217.7814,W,2.34,109.77,011012,,,D*7C
$GPVTG,109.77,T,,M,2.34,N,4.3,K,D*02
$GPGGA,164928.000,3748.7596,N,12217.7807,W,2,09,0.8,8.4,M,-25.1,M,2.8,0000*45
$GPGSA,A,3,27,17,04,28,26,01,09,08,15,,,,1.9,0.8,1.7*39
$GPGSV,3,1,11,17,80,058,29,28,47,058,20,27,40,314,18,26,33,220,27*7A
$GPGSV,3,2,11,15,32,269,26,08,28,131,36,09,27,315,20,04,22,159,37*74
$GPGSV,3,3,11,01,15,045,17,11,01,037,,51,43,156,37*4B
$GPRMC,164928.000,A,3748.7596,N,12217.7807,W,2.13,121.21,011012,,,D*71
$GPVTG,121.21,T,,M,2.13,N,3.9,K,D*03
$GPGGA,164929.000,3748.7589,N,12217.7796,W,2,09,0.8,9.2,M,-25.1,M,3.8,0000*4B
$GPGSA,A,3,27,17,04,28,26,01,09,08,15,,,,1.9,0.8,1.7*39
$GPRMC,164929.000,A,3748.7589,N,12217.7796,W,2.63,115.52,011012,,,D*7D
$GPVTG,115.52,T,,M,2.63,N,4.9,K,D*00
$GPGGA,164930.000,3748.7585,N,12217.7787,W,2,09,0.8,9.0,M,-25.1,M,1.8,0000*4F
$GPGSA,A,3,27,17,04,28,26,01,09,08,15,,,,1.9,0.8,1.7*39
$GPRMC,164930.000,A,3748.7585,N,12217.7787,W,2.72,112.89,011012,,,D*78
$GPVTG,112.89,T,,M,2.72,N,5.0,K,D*09
$GPGGA,164931.000,3748.7579,N,12217.7779,W,2,09,0.8,9.1,M,-25.1,M,1.8,0000*4D
$GPGSA,A,3,27,17,04,28,26,01,09,08,15,,,,1.9,0.8,1.7*39
$GPRMC,164931.000,A,3748.7579,N,12217.7779,W,2.64,115.86,011012,,,D*74
$GPVTG,115.86,T,,M,2.64,N,4.9,K,D*0E
$GPGGA,164932.000,3748.7576,N,12217.7769,W,2,09,0.8,8.9,M,-25.1,M,1.8,0000*49
$GPGSA,A,3,27,17,04,28,26,01,09,08,15,,,,1.9,0.8,1.7*39
$GPRMC,164932.000,A,3748.7576,N,12217.7769,W,2.66,122.99,011012,,,D*71
$GPVTG,122.99,T,,M,2.66,N,4.9,K,D*06
$GPGGA,164933.000,3748.7570,N,12217.7760,W,2,09,0.8,9.2,M,-25.1,M,1.8,0000*4D
$GPGSA,A,3,27,17,04,28,26,01,09,08,15,,,,1.9,0.8,1.7*39
$GPGSV,3,1,11,17,80,058,29,28,47,058,20,27,40,314,18,26,33,220,29*74
$GPGSV,3,2,11,15,32,269,25,08,28,131,36,09,27,315,19,04,22,159,32*78
$GPGSV,3,3,11,01,15,045,18,11,01,037,,51,43,156,37*44
$GPRMC,164933.000,A,3748.7570,N,12217.7760,W,2.46,128.43,011012,,,D*70
$GPGGA,164934.000,3748.7564,N,12217.7752,W,2,09,0.8,9.6,M,-25.1,M,2.8,0000*49
$GPGSA,A,3,27,17,04,28,26,01,09,08,15,,,,1.9,0.8,1.7*39
$GPRMC,164934.000,A,3748.7564,N,12217.7752,W,2.45,123.42,011012,,,D*7A
$GPVTG,123.42,T,,M,2.45,N,4.5,K,D*0C
$GPGGA,164935.000,3748.7558,N,12217.7742,W,2,09,0.8,10.0,M,-25.1,M,1.8,0000*7B
$GPGSA,A,3,27,17,04,28,26,01,09,08,15,,,,1.9,0.8,1.7*39
$GPRMC,164935.000,A,3748.7558,N,12217.7742,W,2.30,113.46,011012,,,D*70
$GPVTG,113.46,T,,M,2.30,N,4.3,K,D*0F
$GPGGA,164936.000,3748.7552,N,12217.7734,W,2,09,0.8,10.3,M,-25.1,M,2.8,0000*73
$GPGSA,A,3,27,17,04,28,26,01,09,08,15,,,,1.9,0.8,1.7*39
$GPRMC,164936.000,A,3748.7552,N,12217.7734,W,2.35,121.43,011012,,,D*79
$GPVTG,121.43,T,,M,2.35,N,4.4,K,D*09
$GPGGA,164937.000,3748.7546,N,12217.7727,W,2,09,0.8,10.6,M,-25.1,M,1.8,0000*73
$GPGSA,A,3,27,17,04,28,26,01,09,08,15,,,,1.9,0.8,1.7*39
$GPRMC,164937.000,A,3748.7546,N,12217.7727,W,2.10,117.23,011012,,,D*7B
$GPVTG,117.23,T,,M,2.10,N,3.9,K,D*07
$GPGGA,164938.000,3748.7541,N,12217.7718,W,2,09,0.8,10.7,M,-25.1,M,1.8,0000*76
$GPGSA,A,3,27,17,04,28,26,01,09,08,15,,,,1.9,0.8,1.7*39
$GPGSV,3,1,11,17,80,058,30,28,47,058,20,27,40,314,17,26,33,220,35*7E
$GPGSV,3,2,11,15,32,269,25,08,28,131,35,09,27,315,19,04,22,159,40*7E
$GPGSV,3,3,11,01,15,045,19,11,01,037,,51,43,156,38*4A
$GPRMC,164938.000,A,3748.7541,N,12217.7718,W,2.20,116.66,011012,,,D*7C
$GPVTG,116.66,T,,M,2.20,N,4.1,K,D*0B
$GPGGA,164939.000,3748.7535,N,12217.7710,W,2,09,0.8,11.4,M,-25.1,M,1.8,0000*7E
$GPGSA,A,3,27,17,04,28,26,01,09,08,15,,,,1.9,0.8,1.7*39
$GPRMC,164939.000,A,3748.7535,N,12217.7710,W,2.37,113.58,011012,,,D*78
$GPVTG,113.58,T,,M,2.37,N,4.4,K,D*00
$GPGGA,164940.000,3748.7530,N,12217.7700,W,2,09,0.8,11.8,M,-25.1,M,2.8,0000*7B
$GPGSA,A,3,27,17,04,28,26,01,09,08,15,,,,1.9,0.8,1.7*39
$GPRMC,164940.000,A,3748.7530,N,12217.7700,W,2.55,112.44,011012,,,D*7A
$GPVTG,112.44,T,,M,2.55,N,4.7,K,D*0B
$GPGGA,164941.000,3748.7527,N,12217.7692,W,2,09,0.8,11.4,M,-25.1,M,3.8,0000*7B
$GPGSA,A,3,27,17,04,28,26,01,09,08,15,,,,1.9,0.8,1.7*39
$GPRMC,164941.000,A,3748.7527,N,12217.7692,W,2.29,104.57,011012,,,D*79
$GPVTG,104.57,T,,M,2.29,N,4.2,K,D*00
$GPGGA,164942.000,3748.7523,N,12217.7683,W,2,09,0.8,11.7,M,-25.1,M,4.8,0000*78
$GPGSA,A,3,27,17,04,28,26,01,09,08,15,,,,1.9,0.8,1.7*39
$GPRMC,164942.000,A,3748.7523,N,12217.7683,W,2.53,104.88,011012,,,D*71
$GPVTG,104.88,T,,M,2.53,N,4.7,K,D*0A
$GPGGA,164943.000,3748.7521,N,12217.7675,W,2,09,0.8,11.4,M,-25.1,M,1.8,0000*74
$GPGSA,A,3,27,17,04,28,26,01,09,08,15,,,,1.9,0.8,1.7*39
$GPGSV,3,1,11,17,80,058,30,28,47,058,20,27,40,314,17,26,33,220,35*7E
$GPGSV,3,2,11,15,32,269,25,08,28,131,35,09,27,315,18,04,22,159,39*71
$GPGSV,3,3,11,01,15,045,20,11,01,037,,51,43,156,38*40
$GPRMC,164943.000,A,3748.7521,N,12217.7675,W,2.53,95.93,011012,,,D*48
$GPVTG,95.93,T,,M,2.53,N,4.7,K,D*39
$GPGGA,164944.000,3748.7517,N,12217.7665,W,2,09,0.8,11.6,M,-25.1,M,1.8,0000*75
$GPGSA,A,3,27,17,04,28,26,01,09,08,15,,,,1.9,0.8,1.7*39
$GPRMC,164944.000,A,3748.7517,N,12217.7665,W,2.50,100.42,011012,,,D*79
$GPVTG,100.42,T,,M,2.50,N,4.6,K,D*0A
$GPGGA,164945.000,3748.7514,N,12217.7655,W,2,09,0.8,11.4,M,-25.1,M,1.8,0000*76
$GPGSA,A,3,27,17,04,28,26,01,09,08,15,,,,1.9,0.8,1.7*39
$GPRMC,164945.000,A,3748.7514,N,12217.7655,W,2.35,102.17,011012,,,D*79
$GPVTG,102.17,T,,M,2.35,N,4.3,K,D*0E
$GPGGA,164946.000,3748.7512,N,12217.7648,W,2,09,0.8,10.7,M,-25.1,M,2.8,0000*7E
$GPGSA,A,3,27,17,04,28,26,01,09,08,15,,,,1.9,0.8,1.7*39
$GPRMC,164946.000,A,3748.7512,N,12217.7648,W,2.12,103.33,011012,,,D*72
$GPVTG,103.33,T,,M,2.12,N,3.9,K,D*01
$GPGGA,164947.000,3748.7506,N,12217.7639,W,2,09,0.8,10.9,M,-25.1,M,1.8,0000*71
$GPGSA,A,3,27,17,04,28,26,01,09,08,15,,,,1.9,0.8,1.7*39
$GPRMC,164947.000,A,3748.7506,N,12217.7639,W,2.67,109.56,011012,,,D*7B
$GPVTG,109.56,T,,M,2.67,N,4.9,K,D*0D
$GPGGA,164948.000,3748.7500,N,12217.7629,W,2,09,0.8,11.3,M,-25.1,M,2.8,0000*71
$GPGSA,A,3,27,17,04,28,26,01,09,08,15,,,,1.9,0.8,1.7*39
$GPGSV,3,1,11,17,80,058,29,28,47,058,20,27,40,314,18,26,33,220,35*79
$GPGSV,3,2,11,15,32,269,25,08,28,131,35,09,27,315,18,04,22,159,39*71
$GPGSV,3,3,11,01,15,045,20,11,01,037,,51,43,156,38*40
$GPRMC,164948.000,A,3748.7500,N,12217.7629,W,2.33,115.80,011012,,,D*74
$GPVTG,115.80,T,,M,2.33,N,4.3,K,D*00
$GPGGA,164949.000,3748.7494,N,12217.7619,W,2,09,0.8,11.7,M,-25.1,M,1.8,0000*78
$GPGSA,A,3,27,17,04,28,26,01,09,08,15,,,,1.9,0.8,1.7*39
$GPRMC,164949.000,A,3748.7494,N,12217.7619,W,2.25,111.58,011012,,,D*7C
$GPVTG,111.58,T,,M,2.25,N,4.2,K,D*07
$GPGGA,164950.000,3748.7489,N,12217.7612,W,2,09,0.8,11.9,M,-25.1,M,1.8,0000*79
$GPGSA,A,3,27,17,04,28,26,01,09,08,15,,,,1.9,0.8,1.7*39
$GPRMC,164950.000,A,3748.7489,N,12217.7612,W,2.06,105.31,011012,,,D*78
$GPVTG,105.31,T,,M,2.06,N,3.8,K,D*01
$GPGGA,164951.000,3748.7488,N,12217.7606,W,2,09,0.8,11.2,M,-25.1,M,1.8,0000*77
$GPGSA,A,3,27,17,04,28,26,01,09,08,15,,,,1.9,0.8,1.7*39
$GPRMC,164951.000,A,3748.7488,N,12217.7606,W,2.04,98.43,011012,,,D*4F
$GPVTG,98.43,T,,M,2.04,N,3.8,K,D*33
$GPGGA,164952.000,3748.7482,N,12217.7596,W,2,09,0.8,11.9,M,-25.1,M,2.8,0000*7C
$GPGSA,A,3,27,17,04,28,26,01,09,08,15,,,,1.9,0.8,1.7*39
$GPRMC,164952.000,A,3748.7482,N,12217.7596,W,2.72,106.03,011012,,,D*7F
$GPVTG,106.03,T,,M,2.72,N,5.0,K,D*0E
$GPGGA,164953.000,3748.7477,N,12217.7586,W,2,09,0.8,12.4,M,-25.1,M,3.8,0000*79
$GPGSA,A,3,27,17,04,28,26,01,09,08,15,,,,1.9,0.8,1.7*39
$GPGSV,3,1,11,17,80,058,29,28,47,058,26,27,40,314,18,26,33,220,32*78
$GPGSV,3,2,11,15,32,269,25,08,28,131,34,09,27,315,19,04,22,159,39*71
$GPGSV,3,3,11,01,15,045,19,11,01,037,,51,43,156,37*45
$GPVTG,104.11,T,,M,2.30,N,4.3,K,D*0B
$GPGGA,164954.000,3748.7475,N,12217.7578,W,2,09,0.8,11.8,M,-25.1,M,4.8,0000*75
$GPGSA,A,3,27,17,04,28,26,01,09,08,15,,,,1.9,0.8,1.7*39
$GPRMC,164954.000,A,3748.7475,N,12217.7578,W,1.89,112.21,011012,,,D*73
$GPVTG,112.21,T,,M,1.89,N,3.5,K,D*0F
$GPGGA,164955.000,3748.7472,N,12217.7572,W,2,09,0.8,11.3,M,-25.1,M,1.8,0000*77
$GPGSA,A,3,27,17,04,28,26,01,09,08,15,,,,1.9,0.8,1.7*39
$GPRMC,164955.000,A,3748.7472,N,12217.7572,W,2.13,113.00,011012,,,D*7D
$GPVTG,113.00,T,,M,2.13,N,4.0,K,D*0F
$GPGGA,164956.000,3748.7469,N,12217.7564,W,2,09,0.8,10.7,M,-25.1,M,1.8,0000*7C
$GPGSA,A,3,27,17,04,28,26,01,09,08,15,,,,1.9,0.8,1.7*39
$GPRMC,164956.000,A,3748.7469,N,12217.7564,W,2.42,120.22,011012,,,D*77
$GPVTG,120.22,T,,M,2.42,N,4.5,K,D*0E
$GPGGA,164957.000,3748.7467,N,12217.7557,W,2,09,0.8,10.0,M,-25.1,M,1.8,0000*74
$GPGSA,A,3,27,17,04,28,26,01,09,08,15,,,,1.9,0.8,1.7*39
$GPRMC,164957.000,A,3748.7467,N,12217.7557,W,2.14,111.64,011012,,,D*7B
$GPVTG,111.64,T,,M,2.14,N,4.0,K,D*08
$GPGGA,164958.000,3748.7464,N,12217.7550,W,2,09,0.8,9.3,M,-25.1,M,2.8,0000*47
$GPGSA,A,3,27,17,04,28,26,01,09,08,15,,,,1.9,0.8,1.7*39
$GPGSV,3,1,11,17,80,058,30,28,47,058,28,27,40,314,18,26,33,220,33*7F
$GPGSV,3,2,11,15,32,269,25,08,28,131,23,09,27,315,19,04,22,159,32*7C
$GPGSV,3,3,11,01,15,045,28,11,01,037,,51,43,156,35*45
$GPRMC,164958.000,A,3748.7464,N,12217.7550,W,2.36,120.32,011012,,,D*71
$GPVTG,120.32,T,,M,2.36,N,4.4,K,D*0D
$GPGGA,164959.000,3748.7461,N,12217.7543,W,2,09,0.8,8.5,M,-25.1,M,3.8,0000*47
$GPGSA,A,3,27,17,04,28,26,01,09,08,15,,,,1.9,0.8,1.7*39
$GPRMC,164959.000,A,3748.7461,N,12217.7543,W,2.11,123.81,011012,,,D*79
$GPVTG,123.81,T,,M,2.11,N,3.9,K,D*09
$GPGGA,165000.000,3748.7457,N,12217.7535,W,2,09,0.8,7.7,M,-25.1,M,4.8,0000*4D
$GPGSA,A,3,27,17,04,28,26,01,09,08,15,,,,1.9,0.8,1.7*39
$GPRMC,165000.000,A,3748.7457,N,12217.7535,W,2.36,125.34,011012,,,D*74
$GPVTG,125.34,T,,M,2.36,N,4.4,K,D*0E
$GPGGA,165001.000,3748.7454,N,12217.7528,W,2,09,0.8,7.0,M,-25.1,M,5.8,0000*45
$GPGSA,A,3,27,17,04,28,26,01,09,08,15,,,,1.9,0.8,1.7*39
$GPRMC,165001.000,A,3748.7454,N,12217.7528,W,1.99,124.25,011012,,,D*7D
$GPVTG,124.25,T,,M,1.99,N,3.7,K,D*0D
$GPGGA,165002.000,3748.7452,N,12217.7521,W,2,09,0.8,6.4,M,-25.1,M,6.8,0000*4F
$GPGSA,A,3,27,17,04,28,26,01,09,08,15,,,,1.9,0.8,1.7*39
$GPRMC,165002.000,A,3748.7452,N,12217.7521,W,1.71,111.69,011012,,,D*79
$GPVTG,111.69,T,,M,1.71,N,3.2,K,D*00
$GPGGA,165003.000,3748.7448,N,12217.7513,W,2,09,0.8,5.8,M,-25.1,M,7.8,0000*4A
$GPGSA,A,3,27,17,04,28,26,01,09,08,15,,,,1.9,0.8,1.7*39
$GPGSV,3,1,11,17,80,058,30,28,47,058,28,27,40,314,19,26,33,220,33*7E
$GPGSV,3,2,11,15,32,269,26,08,28,131,29,09,27,315,20,04,22,159,29*75
$GPGSV,3,3,11,01,15,045,28,11,01,037,,51,43,156,32*42
$GPRMC,165003.000,A,3748.7448,N,12217.7513,W,2.29,113.39,011012,,,D*7B
$GPVTG,113.39,T,,M,2.29,N,4.2,K,D*0E
$GPGGA,165004.000,3748.7444,N,12217.7500,W,2,09,0.8,5.5,M,-25.1,M,1.8,0000*48
$GPGSA,A,3,27,17,04,28,26,01,09,08,15,,,,1.9,0.8,1.7*39
$GPRMC,165004.000,A,3748.7444,N,12217.7500,W,2.41,100.61,011012,,,D*73
$GPVTG,100.61,T,,M,2.41,N,4.5,K,D*08
$GPGGA,165005.000,3748.7442,N,12217.7485,W,2,09,0.8,5.8,M,-25.1,M,2.8,0000*4D
$GPGSA,A,3,27,17,04,28,26,01,09,08,15,,,,1.9,0.8,1.7*39
$GPRMC,165005.000,A,3748.7442,N,12217.7485,W,1.97,108.10,011012,,,D*7E
$GPVTG,108.10,T,,M,1.97,N,3.6,K,D*0A
$GPGGA,165006.000,3748.7439,N,12217.7476,W,2,09,0.8,6.0,M,-25.1,M,3.8,0000*44
$GPGSA,A,3,27,17,04,28,26,01,09,08,15,,,,1.9,0.8,1.7*39
$GPRMC,165006.000,A,3748.7439,N,12217.7476,W,1.86,103.35,011012,,,D*71
$GPVTG,103.35,T,,M,1.86,N,3.4,K,D*04
$GPGGA,165007.000,3748.7438,N,12217.7466,W,2,09,0.8,5.3,M,-25.1,M,4.8,0000*42
$GPGSA,A,3,27,17,04,28,26,01,09,08,15,,,,1.9,0.8,1.7*39
$GPRMC,165007.000,A,3748.7438,N,12217.7466,W,2.20,86.11,011012,,,D*45
$GPVTG,86.11,T,,M,2.20,N,4.1,K,D*33
$GPGGA,165008.000,3748.7435,N,12217.7460,W,2,09,0.8,4.7,M,-25.1,M,5.8,0000*42
$GPGSA,A,3,27,17,04,28,26,01,09,08,15,,,,1.9,0.8,1.7*39
$GPGSV,3,1,11,17,80,058,26,28,47,058,24,27,40,314,19,26,33,220,27*70
$GPGSV,3,2,11,15,32,269,26,08,28,131,23,09,27,315,20,04,22,159,32*75
$GPGSV,3,3,11,01,15,045,19,11,01,037,,51,43,156,31*43
$GPRMC,165008.000,A,3748.7435,N,12217.7460,W,2.21,89.33,011012,,,D*4F
$GPVTG,89.33,T,,M,2.21,N,4.1,K,D*3D
$GPGGA,165009.000,3748.7432,N,12217.7450,W,2,09,0.8,4.1,M,-25.1,M,6.8,0000*42
$GPGSA,A,3,27,17,04,28,26,01,09,08,15,,,,1.9,0.8,1.7*39
$GPRMC,165009.000,A,3748.7432,N,12217.7450,W,1.87,107.33,011012,,,D*72
$GPVTG,107.33,T,,M,1.87,N,3.5,K,D*06
$GPGGA,165010.000,3748.7428,N,12217.7442,W,2,09,0.8,4.6,M,-25.1,M,7.8,0000*44
$GPGSA,A,3,27,17,04,28,26,01,09,08,15,,,,1.9,0.8,1.7*39
$GPRMC,165010.000,A,3748.7428,N,12217.7442,W,1.55,103.26,011012,,,D*7D
$GPVTG,103.26,T,,M,1.55,N,2.9,K,D*04
$GPGGA,165011.000,3748.7425,N,12217.7436,W,2,09,0.8,5.1,M,-25.1,M,8.8,0000*42
$GPGSA,A,3,27,17,04,28,26,01,09,08,15,,,,1.9,0.8,1.7*39
$GPRMC,165011.000,A,3748.7425,N,12217.7436,W,1.49,112.27,011012,,,D*7E
$GPVTG,112.27,T,,M,1.49,N,2.8,K,D*09
$GPGGA,165012.000,3748.7421,N,12217.7429,W,2,09,0.8,4.6,M,-25.1,M,9.8,0000*4C
$GPGSA,A,3,27,17,04,28,26,01,09,08,15,,,,1.9,0.8,1.7*39
$GPRMC,165012.000,A,3748.7421,N,12217.7429,W,1.72,110.27,011012,,,D*7D
$GPVTG,110.27,T,,M,1.72,N,3.2,K,D*08
$GPGGA,165013.000,3748.7414,N,12217.7421,W,2,09,0.8,4.2,M,-25.1,M,10.8,0000*7F
$GPGSA,A,3,27,17,04,28,26,01,09,08,15,,,,1.9,0.8,1.7*39
$GPGSV,3,1,10,17,80,058,27,28,47,058,29,27,40,314,19,26,33,220,32*79
$GPGSV,3,2,10,15,32,269,23,08,28,131,23,09,27,315,20,04,22,159,30*73
$GPGSV,3,3,10,01,15,045,19,11,01,037,*71
$GPVTG,126.87,T,,M,1.80,N,3.3,K,D*0B
$GPGGA,165014.000,3748.7409,N,12217.7412,W,2,09,0.8,4.0,M,-25.1,M,11.8,0000*77
$GPGSA,A,3,27,17,04,28,26,01,09,08,15,,,,1.9,0.8,1.7*39
$GPRMC,165014.000,A,3748.7409,N,12217.7412,W,1.83,116.08,011012,,,D*7C
$GPVTG,116.08,T,,M,1.83,N,3.4,K,D*0B
