$ADVER,3080,2.3
$GPRMC,193934.542,A,3748.7713,N,12217.8781,W,0.14,134.79,280612,,,A*73
$GPRMC,193935.542,A,3748.7710,N,12217.8781,W,0.22,50.58,280612,,,A*44
$GPRMC,193936.542,A,3748.7707,N,12217.8782,W,0.19,81.40,280612,,,A*4F
$GPRMC,193937.542,A,3748.7702,N,12217.8783,W,0.15,83.75,280612,,,A*42
$GPRMC,193938.542,A,3748.7697,N,12217.8785,W,0.20,52.64,280612,,,A*4C
$GPRMC,193939.542,A,3748.7691,N,12217.8787,W,0.17,44.73,280612,,,A*4C
$GPRMC,193940.542,A,3748.7683,N,12217.8789,W,0.19,58.38,280612,,,A*43
$GPRMC,193941.542,A,3748.7676,N,12217.8791,W,0.35,60.58,280612,,,A*42
$GPRMC,193942.542,A,3748.7671,N,12217.8792,W,0.09,101.95,280612,,,A*7D
$GPRMC,193943.542,A,3748.7664,N,12217.8795,W,0.20,52.64,280612,,,A*4D
$GPRMC,193944.542,A,3748.7656,N,12217.8798,W,0.22,84.59,280612,,,A*41
$GPRMC,193945.542,A,3748.7648,N,12217.8800,W,0.16,80.26,280612,,,A*4A
$GPRMC,193946.542,A,3748.7640,N,12217.8803,W,0.26,56.05,280612,,,A*4B
$GPRMC,193947.542,A,3748.7634,N,12217.8805,W,0.27,67.67,280612,,,A*48
$GPRMC,193948.542,A,3748.7628,N,12217.8807,W,0.19,74.36,280612,,,A*43
$GPRMC,193949.542,A,3748.7623,N,12217.8809,W,0.20,64.76,280612,,,A*48
$GPRMC,193950.542,A,3748.7617,N,12217.8810,W,0.14,63.20,280612,,,A*4C
$GPRMC,193951.542,A,3748.7610,N,12217.8813,W,0.17,81.57,280612,,,A*46
$GPRMC,193952.542,A,3748.7975,N,12217.8213,W,0.18,134.13,280612,,,A*73
$GPRMC,193953.542,A,3748.7974,N,12217.8206,W,0.13,138.09,280612,,,A*7B
$GPRMC,193954.542,A,3748.7974,N,12217.8202,W,0.10,143.50,280612,,,A*7B
$GPRMC,193955.000,A,3748.7974,N,12217.8201,W,0.07,200.55,280612,,,A*7D
$GPRMC,193956.000,A,3748.7974,N,12217.8199,W,0.16,243.06,280612,,,A*7D
$GPRMC,193957.000,A,3748.7972,N,12217.8199,W,1.20,221.10,280612,,,A*7D
$GPRMC,193958.000,A,3748.7970,N,12217.8293,W,1.02,218.90,280612,,,A*7B
$GPRMC,193959.000,A,3748.7975,N,12217.8309,W,0.28,233.27,280612,,,A*71
$GPRMC,194000.000,A,3748.7973,N,12217.8297,W,0.53,206.83,280612,,,A*77
$GPRMC,194001.000,A,3748.7970,N,12217.8309,W,0.59,188.63,280612,,,A*72
$GPRMC,194002.000,A,3748.7972,N,12217.8333,W,1.99,253.79,280612,,,A*79
$GPRMC,194003.000,A,3748.7972,N,12217.8488,W,1.91,268.17,280612,,,A*77
$GPRMC,194004.000,A,3748.7977,N,12217.8538,W,1.71,268.82,280612,,,A*7D
$GPRMC,194005.000,A,3748.7979,N,12217.8576,W,1.73,247.77,280612,,,A*7D
$GPRMC,194006.000,A,3748.7980,N,12217.8596,W,1.63,226.37,280612,,,A*74
$GPRMC,194007.000,A,3748.7978,N,12217.8609,W,2.01,207.35,280612,,,A*71
$GPRMC,194008.000,A,3748.7972,N,12217.8620,W,2.74,191.77,280612,,,A*77
$GPRMC,194009.000,A,3748.7961,N,12217.8631,W,3.38,177.65,280612,,,A*76
$GPRMC,194010.000,A,3748.7953,N,12217.8632,W,2.40,174.95,280612,,,A*7E
$GPRMC,194011.000,A,3748.7947,N,12217.8634,W,2.29,206.12,280612,,,A*7A
$GPRMC,194012.000,A,3748.7942,N,12217.8646,W,0.80,244.52,280612,,,A*7A
$GPRMC,194013.000,A,3748.7949,N,12217.8652,W,0.72,273.13,280612,,,A*79
$GPRMC,194014.000,A,3748.7944,N,12217.8655,W,0.69,199.44,280612,,,A*7B
$GPRMC,194015.000,A,3748.7935,N,12217.8654,W,1.75,162.14,280612,,,A*70
$GPRMC,194016.000,A,3748.7936,N,12217.8652,W,2.19,167.12,280612,,,A*7C
$GPRMC,194017.000,A,3748.7930,N,12217.8645,W,2.02,160.45,280612,,,A*72
$GPRMC,194018.000,A,3748.7925,N,12217.8649,W,1.97,192.81,280612,,,A*7F
$GPRMC,194019.000,A,3748.7920,N,12217.8650,W,1.97,192.81,280612,,,E*77
$GPRMC,194020.000,A,3748.7915,N,12217.8652,W,1.97,192.81,280612,,,E*79
$GPRMC,194021.000,A,3748.7909,N,12217.8653,W,1.97,192.81,280612,,,E*74
$GPRMC,194022.000,A,3748.7904,N,12217.8655,W,1.97,192.81,280612,,,E*7C
$GPRMC,194023.000,A,3748.7899,N,12217.8656,W,1.97,192.81,280612,,,E*7B
$GPRMC,194024.000,A,3748.7893,N,12217.8658,W,1.97,192.81,280612,,,E*78
$GPRMC,194025.000,A,3748.7888,N,12217.8659,W,1.97,192.81,280612,,,E*72
$GPRMC,194026.000,A,3748.7883,N,12217.8661,W,1.97,192.81,280612,,,E*71
$GPRMC,194027.000,A,3748.7759,N,12217.8708,W,7.03,190.87,280612,,,A*7D
$GPRMC,194028.000,A,3748.7729,N,12217.8694,W,5.97,181.85,280612,,,A*7C
$GPRMC,194029.000,A,3748.7721,N,12217.8698,W,4.36,173.68,280612,,,A*7D
$GPRMC,194030.000,A,3748.7709,N,12217.8697,W,4.36,173.68,280612,,,E*74
$GPRMC,194031.000,A,3748.7697,N,12217.8695,W,4.36,173.68,280612,,,E*71
$GPRMC,194032.000,A,3748.7685,N,12217.8693,W,4.36,173.68,280612,,,E*77
$GPRMC,194033.000,A,3748.7673,N,12217.8692,W,4.36,173.68,280612,,,E*7E
$GPRMC,194034.000,A,3748.7661,N,12217.8690,W,4.36,173.68,280612,,,E*78
$GPRMC,194035.000,A,3748.7649,N,12217.8688,W,4.36,173.68,280612,,,E*7A
$GPRMC,194036.000,A,3748.7637,N,12217.8686,W,4.36,173.68,280612,,,E*7E
$GPRMC,194037.000,A,3748.7625,N,12217.8685,W,4.36,173.68,280612,,,E*7F
$GPRMC,194038.000,A,3748.7613,N,12217.8683,W,4.36,173.68,280612,,,E*73
$GPRMC,194039.000,A,3748.7601,N,12217.8681,W,4.36,173.68,280612,,,E*73
$GPRMC,194040.000,A,3748.7589,N,12217.8680,W,4.36,173.68,280612,,,E*7F
$GPRMC,194041.000,A,3748.7577,N,12217.8678,W,4.36,173.68,280612,,,E*78
$GPRMC,194042.000,A,3748.7565,N,12217.8676,W,4.36,173.68,280612,,,E*76
$GPRMC,194043.000,A,3748.7553,N,12217.8675,W,4.36,173.68,280612,,,E*71
$GPRMC,194053.000,A,3748.7744,N,12217.8811,W,1.71,43.69,280612,,,A*49
$GPRMC,194054.000,A,3748.7747,N,12217.8807,W,1.71,43.69,280612,,,E*4E
$GPRMC,194055.000,A,3748.7750,N,12217.8803,W,1.71,43.69,280612,,,E*4D
$GPRMC,194056.000,A,3748.7754,N,12217.8799,W,1.71,43.69,280612,,,E*46
$GPRMC,194057.000,A,3748.7752,N,12217.8730,W,2.69,9.35,280612,,,A*7B
$GPRMC,194058.000,A,3748.7785,N,12217.8733,W,1.72,27.74,280612,,,A*4D
$GPRMC,194059.000,A,3748.7789,N,12217.8730,W,1.72,27.74,280612,,,E*47
$GPRMC,194100.000,A,3748.7794,N,12217.8727,W,1.72,27.74,280612,,,E*40
$GPRMC,194101.000,A,3748.7851,N,12217.8699,W,3.70,19.54,280612,,,A*48
$GPRMC,194102.000,A,3748.7911,N,12217.8636,W,4.72,20.67,280612,,,A*44
$GPRMC,194103.000,A,3748.8001,N,12217.8624,W,6.06,14.75,280612,,,A*44
$GPRMC,194104.000,A,3748.7997,N,12217.8630,W,4.13,24.29,280612,,,A*43
$GPRMC,194105.000,A,3748.8032,N,12217.8629,W,3.89,26.07,280612,,,A*49
$GPRMC,194106.000,A,3748.8041,N,12217.8621,W,4.27,28.74,280612,,,A*4F
$GPRMC,194107.000,A,3748.8045,N,12217.8620,W,2.30,36.25,280612,,,A*40
$GPRMC,194108.000,A,3748.8013,N,12217.8631,W,2.15,24.89,280612,,,A*4E
$GPRMC,194109.000,A,3748.8014,N,12217.8629,W,1.41,29.80,280612,,,A*47
$GPRMC,194110.000,A,3748.8014,N,12217.8627,W,1.57,24.44,280612,,,A*43
$GPRMC,194111.000,A,3748.8031,N,12217.8624,W,1.67,35.61,280612,,,A*42
$GPRMC,194112.000,A,3748.8037,N,12217.8620,W,1.94,21.21,280612,,,A*4E
$GPRMC,194113.000,A,3748.8036,N,12217.8622,W,2.46,22.22,280612,,,A*40
$GPRMC,194114.000,A,3748.8047,N,12217.8619,W,2.09,43.48,280612,,,A*49
$GPRMC,194115.000,A,3748.8050,N,12217.8613,W,1.66,41.47,280612,,,A*43
$GPRMC,194116.000,A,3748.8049,N,12217.8604,W,0.51,38.51,280612,,,A*42
$GPRMC,194117.000,A,3748.8050,N,12217.8601,W,0.13,109.58,280612,,,A*72
$GPRMC,194118.000,A,3748.8045,N,12217.8601,W,0.56,170.57,280612,,,A*79
$GPRMC,194119.000,A,3748.8039,N,12217.8601,W,0.45,162.79,280612,,,A*7E
$GPRMC,194120.000,A,3748.8031,N,12217.8601,W,0.55,158.46,280612,,,A*78
$GPRMC,194121.000,A,3748.8028,N,12217.8600,W,0.18,24.07,280612,,,A*46
$GPRMC,194122.000,A,3748.8034,N,12217.8596,W,0.24,89.38,280612,,,A*40
$GPRMC,194123.000,A,3748.8053,N,12217.8589,W,0.77,58.84,280612,,,A*43
$GPRMC,194124.000,A,3748.8028,N,12217.8593,W,0.68,3.37,280612,,,A*7B
$GPRMC,194125.000,A,3748.8007,N,12217.8598,W,0.82,23.98,280612,,,A*4F
$GPRMC,194126.000,A,3748.7993,N,12217.8603,W,0.08,134.34,280612,,,A*75
$GPRMC,194127.000,A,3748.7984,N,12217.8599,W,1.00,122.51,280612,,,A*7F
$GPRMC,194128.000,A,3748.7986,N,12217.8590,W,1.21,107.52,280612,,,A*7C
$GPRMC,194129.000,A,3748.7989,N,12217.8583,W,1.03,78.45,280612,,,A*4F
$GPRMC,194130.000,A,3748.8001,N,12217.8585,W,0.42,30.67,280612,,,A*4F
$GPRMC,194131.000,A,3748.8010,N,12217.8586,W,0.48,67.97,280612,,,A*4A
$GPRMC,194132.000,A,3748.8011,N,12217.8579,W,1.27,53.80,280612,,,A*41
$GPRMC,194133.000,A,3748.8007,N,12217.8569,W,1.11,113.37,280612,,,A*7A
$GPRMC,194134.000,A,3748.8004,N,12217.8565,W,1.59,110.99,280612,,,A*79
$GPRMC,194135.000,A,3748.8002,N,12217.8552,W,1.56,124.91,280612,,,A*7A
$GPRMC,194136.000,A,3748.8004,N,12217.8541,W,1.95,114.02,280612,,,A*7B
$GPRMC,194137.000,A,3748.8000,N,12217.8530,W,1.88,129.86,280612,,,A*76
$GPRMC,194138.000,A,3748.7994,N,12217.8534,W,0.91,129.99,280612,,,A*71
$GPRMC,194139.000,A,3748.7986,N,12217.8538,W,0.94,156.87,280612,,,A*7D
$GPRMC,194140.000,A,3748.7979,N,12217.8528,W,1.37,141.48,280612,,,A*7F
$GPRMC,194141.000,A,3748.7975,N,12217.8522,W,1.07,147.44,280612,,,A*71
$GPRMC,194142.000,A,3748.7971,N,12217.8517,W,0.99,128.92,280612,,,A*74
$GPRMC,194143.000,A,3748.7966,N,12217.8511,W,1.53,131.38,280612,,,A*7A
$GPRMC,194144.000,A,3748.7964,N,12217.8508,W,1.52,141.15,280612,,,A*7E
$GPRMC,194145.000,A,3748.7960,N,12217.8505,W,1.54,153.12,280612,,,A*74
$GPRMC,194146.000,A,3748.7955,N,12217.8507,W,1.25,176.96,280612,,,A*7E
$GPRMC,194147.000,A,3748.7948,N,12217.8484,W,1.96,146.04,280612,,,A*79
$GPRMC,194148.000,A,3748.7943,N,12217.8473,W,2.47,139.56,280612,,,A*75
$GPRMC,194149.000,A,3748.7942,N,12217.8466,W,2.82,124.51,280612,,,A*73
$GPRMC,194150.000,A,3748.7941,N,12217.8454,W,2.47,115.39,280612,,,A*7C
$GPRMC,194151.000,A,3748.7935,N,12217.8445,W,2.72,117.92,280612,,,A*7B
$GPRMC,194152.000,A,3748.7933,N,12217.8434,W,2.75,115.71,280612,,,A*70
$GPRMC,194153.000,A,3748.7930,N,12217.8426,W,3.10,128.14,280612,,,A*7E
$GPRMC,194154.000,A,3748.7930,N,12217.8433,W,1.36,127.15,280612,,,A*75
$GPRMC,194155.000,A,3748.7929,N,12217.8445,W,0.50,186.04,280612,,,A*77
$GPRMC,194156.000,A,3748.7930,N,12217.8455,W,0.17,52.11,280612,,,A*42
$GPRMC,194157.000,A,3748.7934,N,12217.8455,W,0.85,130.65,280612,,,A*7A
$GPRMC,194158.000,A,3748.7932,N,12217.8462,W,0.78,125.13,280612,,,A*70
$GPRMC,194159.000,A,3748.7920,N,12217.8456,W,1.37,149.90,280612,,,A*7E
$GPRMC,194200.000,A,3748.7910,N,12217.8442,W,2.68,140.02,280612,,,A*7C
$GPRMC,194201.000,A,3748.7901,N,12217.8438,W,2.12,135.77,280612,,,A*7D
$GPRMC,194202.000,A,3748.7893,N,12217.8435,W,1.80,132.49,280612,,,A*7B
$GPRMC,194203.000,A,3748.7888,N,12217.8430,W,1.55,128.07,280612,,,A*7C
$GPRMC,194204.000,A,3748.7887,N,12217.8426,W,1.18,132.84,280612,,,A*7A
$GPRMC,194205.000,A,3748.7884,N,12217.8423,W,1.28,140.62,280612,,,A*73
$GPRMC,194206.000,A,3748.7878,N,12217.8414,W,1.65,134.68,280612,,,A*77
$GPRMC,194207.000,A,3748.7871,N,12217.8398,W,2.05,126.10,280612,,,A*75
$GPRMC,194208.000,A,3748.7866,N,12217.8390,W,2.11,139.05,280612,,,A*7B
$GPRMC,194209.000,A,3748.7862,N,12217.8388,W,1.86,164.14,280612,,,A*72
$GPRMC,194210.000,A,3748.7857,N,12217.8376,W,2.07,154.76,280612,,,A*70
$GPRMC,194211.000,A,3748.7853,N,12217.8366,W,2.29,142.24,280612,,,A*78
$GPRMC,194212.000,A,3748.7846,N,12217.8358,W,2.27,132.47,280612,,,A*7E
$GPRMC,194213.000,A,3748.7844,N,12217.8354,W,1.46,132.93,280612,,,A*7C
$GPRMC,194214.000,A,3748.7839,N,12217.8342,W,1.94,110.46,280612,,,A*71
$GPRMC,194215.000,A,3748.7837,N,12217.8336,W,2.08,112.02,280612,,,A*79
$GPRMC,194216.000,A,3748.7833,N,12217.8314,W,2.66,116.25,280612,,,A*77
$GPRMC,194217.000,A,3748.7827,N,12217.8289,W,2.28,121.70,280612,,,A*78
$GPRMC,194218.000,A,3748.7823,N,12217.8292,W,1.69,151.38,280612,,,A*74
$GPRMC,194219.000,A,3748.7823,N,12217.8279,W,2.02,119.20,280612,,,A*7B
$GPRMC,194220.000,A,3748.7821,N,12217.8267,W,1.91,114.72,280612,,,A*7F
$GPRMC,194221.000,A,3748.7823,N,12217.8259,W,1.70,95.26,280612,,,A*47
$GPRMC,194222.000,A,3748.7826,N,12217.8254,W,1.28,83.09,280612,,,A*4B
$GPRMC,194223.000,A,3748.7829,N,12217.8246,W,1.13,70.91,280612,,,A*43
$GPRMC,194224.000,A,3748.7826,N,12217.8241,W,1.54,110.43,280612,,,A*77
$GPRMC,194225.000,A,3748.7825,N,12217.8237,W,2.08,107.58,280612,,,A*72
$GPRMC,194226.000,A,3748.7823,N,12217.8229,W,2.61,101.81,280612,,,A*75
$GPRMC,194227.000,A,3748.7820,N,12217.8213,W,2.76,108.69,280612,,,A*77
$GPRMC,194228.000,A,3748.7818,N,12217.8196,W,2.49,111.37,280612,,,A*72
$GPRMC,194229.000,A,3748.7817,N,12217.8189,W,2.18,116.09,280612,,,A*7C
$GPRMC,194230.000,A,3748.7814,N,12217.8179,W,1.81,110.49,280612,,,A*79
$GPRMC,194231.000,A,3748.7810,N,12217.8163,W,2.04,103.77,280612,,,A*76
$GPRMC,194232.000,A,3748.7807,N,12217.8162,W,1.52,110.31,280612,,,A*72
$GPRMC,194233.000,A,3748.7801,N,12217.8170,W,0.74,121.16,280612,,,A*74
$GPRMC,194234.000,A,3748.7795,N,12217.8169,W,1.35,108.33,280612,,,A*71
$GPRMC,194235.000,A,3748.7787,N,12217.8168,W,1.70,126.45,280612,,,A*7E
$GPRMC,194236.000,A,3748.7783,N,12217.8152,W,2.32,109.58,280612,,,A*74
$GPRMC,194237.000,A,3748.7779,N,12217.8141,W,2.10,125.39,280612,,,A*7B
$GPRMC,194238.000,A,3748.7777,N,12217.8124,W,2.60,113.32,280612,,,A*70
$GPRMC,194239.000,A,3748.7772,N,12217.8113,W,2.11,118.99,280612,,,A*7C
$GPRMC,194240.000,A,3748.7766,N,12217.8098,W,2.09,123.92,280612,,,A*7F
$GPRMC,194241.000,A,3748.7761,N,12217.8098,W,1.39,120.98,280612,,,A*70
$GPRMC,194242.000,A,3748.7757,N,12217.8086,W,1.35,116.46,280612,,,A*73
$GPRMC,194243.000,A,3748.7752,N,12217.8079,W,1.01,112.89,280612,,,A*77
$GPRMC,194244.000,A,3748.7747,N,12217.8073,W,0.63,126.79,280612,,,A*73
$GPRMC,194245.000,A,3748.7738,N,12217.8063,W,1.20,111.45,280612,,,A*76
$GPRMC,194246.000,A,3748.7731,N,12217.8058,W,0.93,130.46,280612,,,A*7D
$GPRMC,194247.000,A,3748.7727,N,12217.8061,W,0.44,117.89,280612,,,A*7D
$GPRMC,194248.000,A,3748.7729,N,12217.8060,W,0.36,155.79,280612,,,A*71
$GPRMC,194249.000,A,3748.7733,N,12217.8047,W,1.39,127.09,280612,,,A*72
$GPRMC,194250.000,A,3748.7729,N,12217.8035,W,2.75,124.10,280612,,,A*74
$GPRMC,194251.000,A,3748.7727,N,12217.8019,W,3.73,122.48,280612,,,A*79
$GPRMC,194252.000,A,3748.7716,N,12217.8004,W,3.15,129.01,280612,,,A*72
$GPRMC,194253.000,A,3748.7711,N,12217.7989,W,2.50,126.89,280612,,,A*78
$GPRMC,194254.000,A,3748.7705,N,12217.7966,W,2.33,116.62,280612,,,A*78
$GPRMC,194255.000,A,3748.7700,N,12217.7951,W,2.82,111.73,280612,,,A*75
$GPRMC,194256.000,A,3748.7696,N,12217.7959,W,3.07,118.50,280612,,,A*74
$GPRMC,194257.000,A,3748.7691,N,12217.7958,W,2.35,106.36,280612,,,A*7C
$GPRMC,194258.000,A,3748.7687,N,12217.7950,W,2.20,102.04,280612,,,A*7D
$GPRMC,194259.000,A,3748.7684,N,12217.7945,W,1.95,109.20,280612,,,A*7B
$GPRMC,194300.000,A,3748.7675,N,12217.7949,W,1.97,107.79,280612,,,A*74
$GPRMC,194301.000,A,3748.7670,N,12217.7934,W,2.76,116.02,280612,,,A*7A
$GPRMC,194302.000,A,3748.7659,N,12217.7942,W,3.00,119.22,280612,,,A*7E
$GPRMC,194303.000,A,3748.7654,N,12217.7931,W,2.64,114.43,280612,,,A*7F
$GPRMC,194304.000,A,3748.7650,N,12217.7934,W,2.27,120.17,280612,,,A*78
$GPRMC,194305.000,A,3748.7644,N,12217.7936,W,2.50,116.76,280612,,,A*7C
$GPRMC,194306.000,A,3748.7640,N,12217.7937,W,2.22,117.76,280612,,,A*7E
$GPRMC,194307.000,A,3748.7636,N,12217.7938,W,2.60,124.31,280612,,,A*74
$GPRMC,194308.000,A,3748.7635,N,12217.7936,W,2.66,113.80,280612,,,A*7E
$GPRMC,194309.000,A,3748.7636,N,12217.7931,W,2.44,105.03,280612,,,A*77
$GPRMC,194310.000,A,3748.7635,N,12217.7924,W,2.67,111.14,280612,,,A*7A
$GPRMC,194311.000,A,3748.7633,N,12217.7917,W,3.36,112.60,280612,,,A*78
$GPRMC,194312.000,A,3748.7634,N,12217.7908,W,3.10,116.76,280612,,,A*75
$GPRMC,194313.000,A,3748.7631,N,12217.7899,W,2.69,111.31,280612,,,A*73
$GPRMC,194314.000,A,3748.7626,N,12217.7892,W,2.77,117.70,280612,,,A*75
$GPRMC,194315.000,A,3748.7620,N,12217.7885,W,2.40,118.22,280612,,,A*78
$GPRMC,194316.000,A,3748.7612,N,12217.7875,W,2.66,126.63,280612,,,A*79
$GPRMC,194317.000,A,3748.7603,N,12217.7864,W,2.93,125.91,280612,,,A*7C
$GPRMC,194318.000,A,3748.7597,N,12217.7855,W,3.09,122.62,280612,,,A*76
$GPRMC,194319.000,A,3748.7589,N,12217.7847,W,3.17,121.17,280612,,,A*75
$GPRMC,194320.000,A,3748.7581,N,12217.7838,W,3.10,111.46,280612,,,A*7F
$GPRMC,194321.000,A,3748.7576,N,12217.7829,W,2.81,109.75,280612,,,A*76
$GPRMC,194322.000,A,3748.7574,N,12217.7827,W,2.33,101.18,280612,,,A*73
$GPRMC,194323.000,A,3748.7572,N,12217.7825,W,2.66,101.81,280612,,,A*76
$GPRMC,194324.000,A,3748.7571,N,12217.7821,W,2.60,101.77,280612,,,A*79
$GPRMC,194325.000,A,3748.7569,N,12217.7816,W,2.46,93.32,280612,,,A*4A
$GPRMC,194326.000,A,3748.7568,N,12217.7812,W,1.75,98.61,280612,,,A*42
$GPRMC,194327.000,A,3748.7564,N,12217.7806,W,1.74,111.99,280612,,,A*7C
$GPRMC,194328.000,A,3748.7562,N,12217.7803,W,1.30,108.32,280612,,,A*79
$GPRMC,194329.000,A,3748.7561,N,12217.7797,W,2.03,130.11,280612,,,A*70
$GPRMC,194330.000,A,3748.7552,N,12217.7785,W,3.14,136.70,280612,,,A*7D
$GPRMC,194331.000,A,3748.7538,N,12217.7780,W,2.75,144.05,280612,,,A*74
$GPRMC,194332.000,A,3748.7527,N,12217.7774,W,2.03,131.63,280612,,,A*71
$GPRMC,194333.000,A,3748.7520,N,12217.7766,W,1.63,129.44,280612,,,A*7D
$GPRMC,194334.000,A,3748.7512,N,12217.7758,W,1.36,121.30,280612,,,A*7D
$GPRMC,194335.000,A,3748.7501,N,12217.7751,W,1.74,124.53,280612,,,A*71
$GPRMC,194336.000,A,3748.7491,N,12217.7739,W,2.71,118.99,280612,,,A*7B
$GPRMC,194337.000,A,3748.7485,N,12217.7729,W,2.01,109.43,280612,,,A*7E
$GPRMC,194338.000,A,3748.7484,N,12217.7722,W,2.02,98.41,280612,,,A*43
$GPRMC,194339.000,A,3748.7480,N,12217.7718,W,2.22,98.04,280612,,,A*4C
$GPRMC,194340.000,A,3748.7474,N,12217.7714,W,2.01,104.35,280612,,,A*72
$GPRMC,194341.000,A,3748.7469,N,12217.7709,W,1.68,102.75,280612,,,A*7D
$GPRMC,194342.000,A,3748.7460,N,12217.7704,W,1.94,110.30,280612,,,A*7B
$GPRMC,194343.000,A,3748.7455,N,12217.7702,W,1.75,115.21,280612,,,A*70
$GPRMC,194344.000,A,3748.7449,N,12217.7700,W,1.69,114.95,280612,,,A*7B
$GPRMC,194345.000,A,3748.7445,N,12217.7692,W,1.58,108.62,280612,,,A*7B
$GPRMC,194346.000,A,3748.7440,N,12217.7683,W,1.87,111.78,280612,,,A*7C
$GPRMC,194347.000,A,3748.7435,N,12217.7681,W,1.77,115.22,280612,,,A*79
$GPRMC,194348.000,A,3748.7430,N,12217.7673,W,1.76,93.26,280612,,,A*44
$GPRMC,194349.000,A,3748.7428,N,12217.7663,W,2.26,109.23,280612,,,A*7C
$GPRMC,194350.000,A,3748.7428,N,12217.7653,W,2.67,108.33,280612,,,A*72
$GPRMC,194351.000,A,3748.7425,N,12217.7641,W,2.46,108.00,280612,,,A*7E
$GPRMC,194352.000,A,3748.7425,N,12217.7631,W,1.94,99.84,280612,,,A*43
$GPRMC,194353.000,A,3748.7423,N,12217.7620,W,1.83,103.26,280612,,,A*78
$GPRMC,194354.000,A,3748.7423,N,12217.7610,W,1.44,105.71,280612,,,A*73
$GPRMC,194355.000,A,3748.7427,N,12217.7599,W,1.46,104.80,280612,,,A*79
$GPRMC,194356.000,A,3748.7432,N,12217.7589,W,1.66,101.31,280612,,,A*72
$GPRMC,194357.000,A,3748.7433,N,12217.7577,W,2.27,101.44,280612,,,A*77
$GPRMC,194358.000,A,3748.7432,N,12217.7564,W,2.79,113.03,280612,,,A*70
$GPRMC,194359.000,A,3748.7429,N,12217.7551,W,2.79,114.54,280612,,,A*78
$GPRMC,194400.000,A,3748.7426,N,12217.7541,W,2.63,114.87,280612,,,A*78
$GPRMC,194401.000,A,3748.7422,N,12217.7531,W,2.52,116.84,280612,,,A*79
$GPRMC,194402.000,A,3748.7417,N,12217.7521,W,2.45,116.73,280612,,,A*73
$GPRMC,194403.000,A,3748.7414,N,12217.7511,W,3.08,116.58,280612,,,A*73
$GPRMC,194404.000,A,3748.7410,N,12217.7502,W,2.59,120.71,280612,,,A*79
$GPRMC,194405.000,A,3748.7410,N,12217.7500,W,1.95,104.41,280612,,,A*7C
$GPRMC,194406.000,A,3748.7410,N,12217.7491,W,1.96,92.82,280612,,,A*44
$GPRMC,194407.000,A,3748.7406,N,12217.7478,W,1.56,83.44,280612,,,A*43
$GPRMC,194408.000,A,3748.7401,N,12217.7460,W,1.82,118.85,280612,,,A*75
$GPRMC,194409.000,A,3748.7394,N,12217.7449,W,2.50,123.10,280612,,,A*7C
$GPRMC,194410.000,A,3748.7387,N,12217.7437,W,2.37,131.61,280612,,,A*7B
$GPRMC,194411.000,A,3748.7381,N,12217.7430,W,2.31,129.61,280612,,,A*74
$GPRMC,194412.000,A,3748.7376,N,12217.7418,W,2.42,124.21,280612,,,A*78
$GPRMC,194413.000,A,3748.7373,N,12217.7409,W,1.57,125.38,280612,,,A*72
$GPRMC,194414.000,A,3748.7367,N,12217.7396,W,1.59,106.39,280612,,,A*7F
$GPRMC,194415.000,A,3748.7362,N,12217.7384,W,1.77,112.67,280612,,,A*7A
$GPRMC,194416.000,A,3748.7370,N,12217.7380,W,1.59,93.50,280612,,,A*4E
$GPRMC,194417.000,A,3748.7371,N,12217.7373,W,1.66,84.77,280612,,,A*4D
$GPRMC,194418.000,A,3748.7368,N,12217.7369,W,1.73,90.07,280612,,,A*47
$GPRMC,194419.000,A,3748.7364,N,12217.7366,W,1.44,108.33,280612,,,A*76
$GPRMC,194420.000,A,3748.7363,N,12217.7364,W,2.22,120.79,280612,,,A*7E
$GPRMC,194421.000,A,3748.7360,N,12217.7354,W,1.94,121.67,280612,,,A*7F
$GPRMC,194422.000,A,3748.7356,N,12217.7347,W,1.51,106.21,280612,,,A*75
$GPRMC,194423.000,A,3748.7352,N,12217.7338,W,1.60,98.60,280612,,,A*49
$GPRMC,194424.000,A,3748.7351,N,12217.7329,W,1.73,96.18,280612,,,A*4E
$GPRMC,194425.000,A,3748.7344,N,12217.7317,W,1.83,110.60,280612,,,A*79
$GPRMC,194426.000,A,3748.7338,N,12217.7306,W,1.78,107.75,280612,,,A*77
$GPRMC,194427.000,A,3748.7333,N,12217.7296,W,2.24,101.77,280612,,,A*7B
$GPRMC,194428.000,A,3748.7328,N,12217.7286,W,2.38,110.42,280612,,,A*74
$GPRMC,194429.000,A,3748.7324,N,12217.7281,W,1.96,106.15,280612,,,A*7C
$GPRMC,194430.000,A,3748.7317,N,12217.7276,W,1.83,111.16,280612,,,A*7D
$GPRMC,194431.000,A,3748.7310,N,12217.7271,W,1.57,101.91,280612,,,A*7B
$GPRMC,194432.000,A,3748.7304,N,12217.7265,W,1.93,114.58,280612,,,A*71
$GPRMC,194433.000,A,3748.7296,N,12217.7259,W,2.46,128.43,280612,,,A*7B
$GPRMC,194434.000,A,3748.7285,N,12217.7246,W,2.77,124.53,280612,,,A*7F
$GPRMC,194435.000,A,3748.7279,N,12217.7236,W,2.62,116.71,280612,,,A*7F
$GPRMC,194436.000,A,3748.7277,N,12217.7228,W,2.30,119.45,280612,,,A*72
$GPRMC,194437.000,A,3748.7273,N,12217.7218,W,2.16,108.72,280612,,,A*74
$GPRMC,194438.000,A,3748.7271,N,12217.7210,W,2.36,124.01,280612,,,A*79
$GPRMC,194439.000,A,3748.7266,N,12217.7201,W,2.12,122.29,280612,,,A*74
$GPRMC,194440.000,A,3748.7263,N,12217.7190,W,2.63,110.61,280612,,,A*7F
$GPRMC,194441.000,A,3748.7263,N,12217.7180,W,2.15,82.33,280612,,,A*43
$GPRMC,194442.000,A,3748.7269,N,12217.7174,W,2.60,44.38,280612,,,A*42
$GPRMC,194443.000,A,3748.7272,N,12217.7162,W,2.65,47.11,280612,,,A*43
$GPRMC,194444.000,A,3748.7278,N,12217.7149,W,3.27,52.97,280612,,,A*4A
$GPRMC,194445.000,A,3748.7286,N,12217.7141,W,2.84,44.26,280612,,,A*47
$GPRMC,194446.000,A,3748.7295,N,12217.7130,W,2.93,32.07,280612,,,A*44
$GPRMC,194447.000,A,3748.7304,N,12217.7121,W,2.81,23.45,280612,,,A*49
$GPRMC,194448.000,A,3748.7312,N,12217.7113,W,2.85,23.42,280612,,,A*43
$GPRMC,194449.000,A,3748.7320,N,12217.7108,W,2.59,25.29,280612,,,A*43
$GPRMC,194450.000,A,3748.7324,N,12217.7100,W,2.81,31.79,280612,,,A*42
$GPRMC,194451.000,A,3748.7332,N,12217.7094,W,2.66,21.44,280612,,,A*4E
$GPRMC,194452.000,A,3748.7341,N,12217.7089,W,2.68,33.67,280612,,,A*49
$GPRMC,194453.000,A,3748.7345,N,12217.7078,W,2.35,29.00,280612,,,A*40
$GPRMC,194454.000,A,3748.7353,N,12217.7069,W,2.80,36.11,280612,,,A*40
$GPRMC,194455.000,A,3748.7358,N,12217.7058,W,3.12,46.95,280612,,,A*49
$GPRMC,194456.000,A,3748.7365,N,12217.7052,W,2.77,33.07,280612,,,A*45
$GPRMC,194457.000,A,3748.7372,N,12217.7048,W,2.61,23.21,280612,,,A*4B
$GPRMC,194458.000,A,3748.7379,N,12217.7045,W,2.57,23.21,280612,,,A*47
$GPRMC,194459.000,A,3748.7386,N,12217.7042,W,2.48,10.81,280612,,,A*45
$GPRMC,194500.000,A,3748.7395,N,12217.7033,W,2.47,4.90,280612,,,A*76
$GPRMC,194501.000,A,3748.7400,N,12217.7026,W,2.34,23.92,280612,,,A*4B
$GPRMC,194502.000,A,3748.7405,N,12217.7014,W,2.76,43.28,280612,,,A*4D
$GPRMC,194503.000,A,3748.7412,N,12217.7010,W,2.54,32.83,280612,,,A*49
$GPRMC,194504.000,A,3748.7419,N,12217.7009,W,2.43,8.78,280612,,,A*76
$GPRMC,194505.000,A,3748.7426,N,12217.7007,W,2.42,6.52,280612,,,A*72
$GPRMC,194506.000,A,3748.7432,N,12217.7003,W,2.37,7.35,280612,,,A*72
$GPRMC,194507.000,A,3748.7441,N,12217.6994,W,2.51,353.98,280612,,,A*74
$GPRMC,194508.000,A,3748.7448,N,12217.6984,W,2.31,17.85,280612,,,A*4A
$GPRMC,194509.000,A,3748.7458,N,12217.6974,W,2.84,24.96,280612,,,A*49
$GPRMC,194510.000,A,3748.7466,N,12217.6975,W,2.37,16.86,280612,,,A*45
$GPRMC,194511.000,A,3748.7474,N,12217.6979,W,2.39,12.37,280612,,,A*4B
$GPRMC,194512.000,A,3748.7479,N,12217.6979,W,2.57,34.09,280612,,,A*44
$GPRMC,194513.000,A,3748.7485,N,12217.6980,W,2.40,24.73,280612,,,A*4A
$GPRMC,194514.000,A,3748.7492,N,12217.6979,W,2.23,13.59,280612,,,A*44
$GPRMC,194515.000,A,3748.7501,N,12217.6968,W,2.10,20.76,280612,,,A*43
$GPRMC,194516.000,A,3748.7508,N,12217.6957,W,2.10,24.04,280612,,,A*44
$GPRMC,194517.000,A,3748.7517,N,12217.6949,W,2.51,26.10,280612,,,A*46
$GPRMC,194518.000,A,3748.7523,N,12217.6944,W,2.51,13.37,280612,,,A*40
$GPRMC,194519.000,A,3748.7530,N,12217.6940,W,2.37,9.22,280612,,,A*78
$GPRMC,194520.000,A,3748.7533,N,12217.6930,W,2.33,24.88,280612,,,A*4D
$GPRMC,194521.000,A,3748.7540,N,12217.6924,W,2.62,22.22,280612,,,A*4F
$GPRMC,194522.000,A,3748.7546,N,12217.6918,W,2.65,24.59,280612,,,A*48
$GPRMC,194523.000,A,3748.7551,N,12217.6909,W,2.55,20.58,280612,,,A*49
$GPRMC,194524.000,A,3748.7558,N,12217.6902,W,3.06,26.71,280612,,,A*46
$GPRMC,194525.000,A,3748.7565,N,12217.6895,W,2.27,18.38,280612,,,A*44
$GPRMC,194526.000,A,3748.7567,N,12217.6891,W,1.81,4.60,280612,,,A*7E
$GPRMC,194527.000,A,3748.7572,N,12217.6888,W,1.62,13.69,280612,,,A*41
$GPRMC,194528.000,A,3748.7579,N,12217.6888,W,2.16,4.14,280612,,,A*79
$GPRMC,194529.000,A,3748.7586,N,12217.6881,W,2.22,6.91,280612,,,A*79
$GPRMC,194530.000,A,3748.7593,N,12217.6871,W,2.74,31.36,280612,,,A*40
$GPRMC,194531.000,A,3748.7600,N,12217.6863,W,2.24,29.83,280612,,,A*49
$GPRMC,194532.000,A,3748.7607,N,12217.6854,W,2.24,30.11,280612,,,A*4A
$GPRMC,194533.000,A,3748.7614,N,12217.6850,W,2.27,21.97,280612,,,A*40
$GPRMC,194534.000,A,3748.7620,N,12217.6845,W,2.21,15.63,280612,,,A*4E
$GPRMC,194535.000,A,3748.7626,N,12217.6838,W,2.04,13.09,280612,,,A*4E
$GPRMC,194536.000,A,3748.7632,N,12217.6832,W,2.14,32.15,280612,,,A*4D
$GPRMC,194537.000,A,3748.7638,N,12217.6827,W,2.27,26.08,280612,,,A*4B
$GPRMC,194538.000,A,3748.7646,N,12217.6828,W,2.53,2.96,280612,,,A*70
$GPRMC,194539.000,A,3748.7654,N,12217.6821,W,2.20,16.44,280612,,,A*45
$GPRMC,194540.000,A,3748.7662,N,12217.6816,W,2.45,12.70,280612,,,A*4A
$GPRMC,194541.000,A,3748.7670,N,12217.6808,W,2.67,22.48,280612,,,A*4F
$GPRMC,194542.000,A,3748.7678,N,12217.6798,W,2.64,11.38,280612,,,A*46
$GPRMC,194543.000,A,3748.7684,N,12217.6788,W,2.35,16.77,280612,,,A*4D
$GPRMC,194544.000,A,3748.7691,N,12217.6781,W,2.47,23.46,280612,,,A*46
$GPRMC,194545.000,A,3748.7699,N,12217.6777,W,2.52,21.47,280612,,,A*41
$GPRMC,194546.000,A,3748.7705,N,12217.6764,W,2.81,39.65,280612,,,A*43
$GPRMC,194547.000,A,3748.7716,N,12217.6752,W,2.78,26.14,280612,,,A*4B
$GPRMC,194548.000,A,3748.7723,N,12217.6750,W,2.55,21.53,280612,,,A*4B
$GPRMC,194549.000,A,3748.7729,N,12217.6744,W,2.83,34.27,280612,,,A*49
$GPRMC,194550.000,A,3748.7732,N,12217.6738,W,2.44,27.37,280612,,,A*48
$GPRMC,194551.000,A,3748.7735,N,12217.6731,W,2.41,27.28,280612,,,A*4C
$GPRMC,194552.000,A,3748.7740,N,12217.6731,W,2.25,21.85,280612,,,A*4E
$GPRMC,194553.000,A,3748.7745,N,12217.6728,W,2.09,25.14,280612,,,A*40
$GPRMC,194554.000,A,3748.7750,N,12217.6720,W,2.43,35.11,280612,,,A*41
$GPRMC,194555.000,A,3748.7755,N,12217.6712,W,2.46,31.82,280612,,,A*4F
$GPRMC,194556.000,A,3748.7762,N,12217.6709,W,2.38,15.37,280612,,,A*43
$GPRMC,194557.000,A,3748.7769,N,12217.6710,W,2.31,21.07,280612,,,A*4C
$GPRMC,194558.000,A,3748.7778,N,12217.6712,W,2.55,20.90,280612,,,A*4C
$GPRMC,194559.000,A,3748.7786,N,12217.6707,W,2.64,26.55,280612,,,A*45
$GPRMC,194600.000,A,3748.7793,N,12217.6699,W,2.68,28.58,280612,,,A*47
$GPRMC,194601.000,A,3748.7801,N,12217.6698,W,2.56,22.56,280612,,,A*4A
$GPRMC,194602.000,A,3748.7809,N,12217.6696,W,2.46,17.89,280612,,,A*4A
$GPRMC,194603.000,A,3748.7816,N,12217.6691,W,2.53,21.14,280612,,,A*47
$GPRMC,194604.000,A,3748.7822,N,12217.6682,W,2.49,20.54,280612,,,A*4B
$GPRMC,194605.000,A,3748.7829,N,12217.6678,W,2.53,14.08,280612,,,A*41
$GPRMC,194606.000,A,3748.7835,N,12217.6671,W,2.69,26.39,280612,,,A*4C
$GPRMC,194607.000,A,3748.7842,N,12217.6670,W,2.21,25.59,280612,,,A*45
$GPRMC,194608.000,A,3748.7848,N,12217.6666,W,2.48,19.66,280612,,,A*4B
$GPRMC,194609.000,A,3748.7856,N,12217.6667,W,2.57,5.03,280612,,,A*74
$GPRMC,194609.000,A,3748.7863,N,12217.6663,W,2.52,15.55,280612,,,A*41
$GPRMC,194610.000,A,3748.7869,N,12217.6652,W,2.52,21.42,280612,,,A*40
$GPRMC,194611.000,A,3748.7877,N,12217.6651,W,2.63,15.49,280612,,,A*43
$GPRMC,194612.000,A,3748.7884,N,12217.6645,W,2.37,11.01,280612,,,A*40
$GPRMC,194613.000,A,3748.7891,N,12217.6638,W,2.16,24.44,280612,,,A*4B
$GPRMC,194614.000,A,3748.7896,N,12217.6629,W,2.09,33.07,280612,,,A*44
$GPRMC,194615.000,A,3748.7904,N,12217.6628,W,2.50,32.98,280612,,,A*45
$GPRMC,194616.000,A,3748.7911,N,12217.6630,W,2.15,10.99,280612,,,A*4B
$GPRMC,194617.000,A,3748.7918,N,12217.6628,W,2.13,5.01,280612,,,A*79
$GPRMC,194618.000,A,3748.7926,N,12217.6626,W,2.17,18.67,280612,,,A*4D
$GPRMC,194619.000,A,3748.7933,N,12217.6625,W,2.34,19.23,280612,,,A*4B
$GPRMC,194620.000,A,3748.7940,N,12217.6623,W,2.27,21.22,280612,,,A*4B
$GPRMC,194621.000,A,3748.7947,N,12217.6616,W,2.27,15.32,280612,,,A*4D
$GPRMC,194622.000,A,3748.7954,N,12217.6609,W,2.43,17.33,280612,,,A*43
$GPRMC,194623.000,A,3748.7962,N,12217.6602,W,2.51,20.38,280612,,,A*40
$GPRMC,194624.000,A,3748.7971,N,12217.6596,W,2.50,16.33,280612,,,A*44
$GPRMC,194625.000,A,3748.7979,N,12217.6586,W,2.52,30.60,280612,,,A*4C
$GPRMC,194626.000,A,3748.7987,N,12217.6580,W,2.78,19.60,280612,,,A*4B
$GPRMC,194627.000,A,3748.7995,N,12217.6576,W,2.59,13.14,280612,,,A*4A
$GPRMC,194628.000,A,3748.8002,N,12217.6572,W,2.52,27.24,280612,,,A*46
$GPRMC,194629.000,A,3748.8007,N,12217.6560,W,2.44,18.63,280612,,,A*49
$GPRMC,194630.000,A,3748.8015,N,12217.6559,W,2.83,32.36,280612,,,A*4B
$GPRMC,194631.000,A,3748.8023,N,12217.6560,W,2.17,19.40,280612,,,A*40
$GPRMC,194632.000,A,3748.8028,N,12217.6549,W,2.30,44.83,280612,,,A*41
$GPRMC,194633.000,A,3748.8030,N,12217.6532,W,2.67,59.76,280612,,,A*41
$GPRMC,194634.000,A,3748.8034,N,12217.6526,W,2.29,48.19,280612,,,A*44
$GPRMC,194635.000,A,3748.8039,N,12217.6517,W,2.65,35.83,280612,,,A*4B
$GPRMC,194636.000,A,3748.8045,N,12217.6507,W,2.52,26.47,280612,,,A*4C
$GPRMC,194637.000,A,3748.8049,N,12217.6492,W,2.44,42.02,280612,,,A*48
$GPRMC,194638.000,A,3748.8055,N,12217.6489,W,2.16,27.64,280612,,,A*44
$GPRMC,194639.000,A,3748.8060,N,12217.6491,W,1.93,12.14,280612,,,A*45
$GPRMC,194640.000,A,3748.8067,N,12217.6490,W,2.13,353.41,280612,,,A*70
$GPRMC,194641.000,A,3748.8074,N,12217.6484,W,2.05,358.10,280612,,,A*7E
$GPRMC,194642.000,A,3748.8081,N,12217.6477,W,2.18,4.80,280612,,,A*74
$GPRMC,194643.000,A,3748.8085,N,12217.6470,W,2.25,29.38,280612,,,A*44
$GPRMC,194644.000,A,3748.8091,N,12217.6461,W,2.59,31.34,280612,,,A*48
$GPRMC,194645.000,A,3748.8097,N,12217.6447,W,2.88,38.86,280612,,,A*47
$GPRMC,194646.000,A,3748.8103,N,12217.6438,W,2.40,26.63,280612,,,A*40
$GPRMC,194647.000,A,3748.8109,N,12217.6432,W,2.37,11.69,280612,,,A*4F
$GPRMC,194648.000,A,3748.8115,N,12217.6428,W,2.01,11.38,280612,,,A*47
$GPRMC,194649.000,A,3748.8119,N,12217.6422,W,2.06,11.18,280612,,,A*45
$GPRMC,194650.000,A,3748.8126,N,12217.6424,W,2.58,12.08,280612,,,A*4E
$GPRMC,194651.000,A,3748.8134,N,12217.6428,W,2.73,358.78,280612,,,A*73
$GPRMC,194652.000,A,3748.8140,N,12217.6426,W,2.11,9.78,280612,,,A*7E
$GPRMC,194653.000,A,3748.8145,N,12217.6417,W,2.29,38.66,280612,,,A*4E
$GPRMC,194654.000,A,3748.8148,N,12217.6399,W,2.36,43.08,280612,,,A*4F
$GPRMC,194655.000,A,3748.8155,N,12217.6392,W,2.47,28.66,280612,,,A*4A
$GPRMC,194656.000,A,3748.8162,N,12217.6387,W,2.35,16.45,280612,,,A*40
$GPRMC,194657.000,A,3748.8170,N,12217.6382,W,2.64,3.30,280612,,,A*75
$GPRMC,194658.000,A,3748.8179,N,12217.6383,W,2.87,3.27,280612,,,A*79
$GPRMC,194659.000,A,3748.8184,N,12217.6378,W,2.07,21.51,280612,,,A*47
$GPRMC,194700.000,A,3748.8189,N,12217.6374,W,2.05,22.21,280612,,,A*4D
$GPRMC,194701.000,A,3748.8193,N,12217.6367,W,2.02,25.89,280612,,,A*47
$GPRMC,194702.000,A,3748.8197,N,12217.6359,W,2.28,33.05,280612,,,A*46
$GPRMC,194703.000,A,3748.8204,N,12217.6356,W,2.23,20.54,280612,,,A*4C
$GPRMC,194704.000,A,3748.8211,N,12217.6354,W,2.53,30.43,280612,,,A*4D
$GPRMC,194705.000,A,3748.8216,N,12217.6344,W,2.56,37.56,280612,,,A*4C
$GPRMC,194706.000,A,3748.8223,N,12217.6341,W,2.43,17.93,280612,,,A*43
$GPRMC,194707.000,A,3748.8230,N,12217.6340,W,2.39,12.69,280612,,,A*4C
$GPRMC,194708.000,A,3748.8239,N,12217.6344,W,2.74,7.58,280612,,,A*71
$GPRMC,194709.000,A,3748.8249,N,12217.6343,W,2.79,17.40,280612,,,A*45
$GPRMC,194710.000,A,3748.8256,N,12217.6339,W,2.66,22.34,280612,,,A*45
$GPRMC,194711.000,A,3748.8264,N,12217.6338,W,2.42,25.84,280612,,,A*4E
$GPRMC,194712.000,A,3748.8270,N,12217.6331,W,2.38,26.41,280612,,,A*46
$GPRMC,194713.000,A,3748.8275,N,12217.6322,W,2.67,35.30,280612,,,A*4E
$GPRMC,194714.000,A,3748.8280,N,12217.6312,W,2.48,31.24,280612,,,A*4C
$GPRMC,194715.000,A,3748.8286,N,12217.6305,W,2.28,24.36,280612,,,A*4C
$GPRMC,194716.000,A,3748.8293,N,12217.6295,W,2.61,36.30,280612,,,A*4B
$GPRMC,194717.000,A,3748.8302,N,12217.6283,W,2.67,35.55,280612,,,A*42
$GPRMC,194718.000,A,3748.8309,N,12217.6275,W,2.64,33.78,280612,,,A*45
$GPRMC,194719.000,A,3748.8315,N,12217.6275,W,2.34,22.34,280612,,,A*44
$GPRMC,194720.000,A,3748.8318,N,12217.6278,W,2.13,17.93,280612,,,A*40
$GPRMC,194721.000,A,3748.8325,N,12217.6277,W,2.40,19.96,280612,,,A*4D
$GPRMC,194722.000,A,3748.8330,N,12217.6271,W,2.30,25.34,280612,,,A*4C
$GPRMC,194723.000,A,3748.8337,N,12217.6269,W,2.26,21.90,280612,,,A*4E
$GPRMC,194724.000,A,3748.8342,N,12217.6264,W,2.14,18.59,280612,,,A*48
$GPRMC,194725.000,A,3748.8352,N,12217.6257,W,2.40,12.18,280612,,,A*46
$GPRMC,194726.000,A,3748.8358,N,12217.6251,W,2.70,28.45,280612,,,A*4B
$GPRMC,194727.000,A,3748.8365,N,12217.6244,W,2.45,34.64,280612,,,A*48
$GPRMC,194728.000,A,3748.8374,N,12217.6233,W,2.67,43.24,280612,,,A*43
$GPRMC,194729.000,A,3748.8381,N,12217.6226,W,2.37,41.62,280612,,,A*49
$GPRMC,194730.000,A,3748.8385,N,12217.6227,W,1.88,52.45,280612,,,D*41
$GPRMC,194731.000,A,3748.8386,N,12217.6223,W,1.15,85.91,280612,,,D*40
$GPRMC,194732.000,A,3748.8386,N,12217.6218,W,1.76,96.24,280612,,,D*42
$GPRMC,194733.000,A,3748.8388,N,12217.6212,W,1.71,85.90,280612,,,D*4D
$GPRMC,194734.000,A,3748.8387,N,12217.6208,W,1.57,103.51,280612,,,D*78
$GPRMC,194735.000,A,3748.8386,N,12217.6204,W,1.61,110.03,280612,,,D*74
$GPRMC,194736.000,A,3748.8384,N,12217.6199,W,2.03,98.69,280612,,,D*48
$GPRMC,194737.000,A,3748.8383,N,12217.6193,W,2.42,117.11,280612,,,D*78
$GPRMC,194738.000,A,3748.8379,N,12217.6188,W,2.20,105.76,280612,,,D*7E
$GPRMC,194739.000,A,3748.8377,N,12217.6179,W,2.50,111.51,280612,,,D*78
$GPRMC,194740.000,A,3748.8371,N,12217.6171,W,2.18,122.12,280612,,,D*73
$GPRMC,194741.000,A,3748.8364,N,12217.6165,W,1.90,126.40,280612,,,D*73
$GPRMC,194742.000,A,3748.8361,N,12217.6157,W,1.26,119.42,280612,,,D*77
$GPRMC,194743.000,A,3748.8353,N,12217.6149,W,0.87,139.70,280612,,,D*71
$GPRMC,194744.000,A,3748.8346,N,12217.6141,W,1.44,151.68,280612,,,D*73
$GPRMC,194745.000,A,3748.8338,N,12217.6135,W,1.31,163.92,280612,,,D*7E
$GPRMC,194746.000,A,3748.8332,N,12217.6125,W,1.68,128.85,280612,,,D*73
$GPRMC,194747.000,A,3748.8329,N,12217.6114,W,1.72,128.75,280612,,,D*7E
$GPRMC,194748.000,A,3748.8323,N,12217.6104,W,1.82,137.85,280612,,,D*74
$GPRMC,194749.000,A,3748.8315,N,12217.6095,W,2.09,129.35,280612,,,A*78
$GPRMC,194750.000,A,3748.8309,N,12217.6095,W,1.01,130.83,280612,,,A*73
$GPRMC,194751.000,A,3748.8306,N,12217.6093,W,0.33,129.38,280612,,,A*73
$GPRMC,194752.000,A,3748.8304,N,12217.6090,W,1.21,144.39,280612,,,A*79
$GPRMC,194753.000,A,3748.8302,N,12217.6081,W,1.86,111.04,280612,,,A*7D
$GPRMC,194754.000,A,3748.8296,N,12217.6061,W,3.24,118.40,280612,,,A*7B
$GPRMC,194755.000,A,3748.8292,N,12217.6047,W,2.78,116.41,280612,,,A*7D
$GPRMC,194756.000,A,3748.8289,N,12217.6034,W,2.53,115.80,280612,,,A*77
$GPRMC,194757.000,A,3748.8284,N,12217.6017,W,2.39,112.58,280612,,,A*74
$GPRMC,194758.000,A,3748.8278,N,12217.5996,W,3.46,113.13,280612,,,A*7C
$GPRMC,194759.000,A,3748.8274,N,12217.5984,W,3.04,111.32,280612,,,A*75
$GPRMC,194800.000,A,3748.8271,N,12217.5969,W,2.61,108.15,280612,,,A*7F
$GPRMC,194801.000,A,3748.8265,N,12217.5960,W,2.66,130.57,280612,,,D*7D
$GPRMC,194802.000,A,3748.8259,N,12217.5945,W,2.63,117.16,280612,,,D*73
$GPRMC,194803.000,A,3748.8252,N,12217.5953,W,1.78,116.08,280612,,,D*79
$GPRMC,194804.000,A,3748.8249,N,12217.5952,W,1.83,122.88,280612,,,D*7E
$GPRMC,194805.000,A,3748.8243,N,12217.5951,W,1.65,135.12,280612,,,D*7B
$GPRMC,194806.000,A,3748.8241,N,12217.5942,W,2.06,113.56,280612,,,A*7F
$GPRMC,194807.000,A,3748.8239,N,12217.5935,W,2.77,118.71,280612,,,D*7C
$GPRMC,194808.000,A,3748.8237,N,12217.5925,W,2.66,116.48,280612,,,D*78
$GPRMC,194809.000,A,3748.8237,N,12217.5918,W,2.22,101.51,280612,,,D*79
$GPRMC,194810.000,A,3748.8234,N,12217.5910,W,2.69,116.38,280612,,,D*7C
$GPRMC,194811.000,A,3748.8230,N,12217.5901,W,2.76,119.02,280612,,,D*71
$GPRMC,194812.000,A,3748.8227,N,12217.5893,W,2.40,115.03,280612,,,D*76
$GPRMC,194813.000,A,3748.8224,N,12217.5885,W,2.57,120.12,280612,,,D*73
$GPRMC,194814.000,A,3748.8220,N,12217.5876,W,2.81,123.72,280612,,,D*72
$GPRMC,194815.000,A,3748.8213,N,12217.5870,W,2.72,126.32,280612,,,D*78
$GPRMC,194816.000,A,3748.8209,N,12217.5862,W,2.82,121.37,280612,,,D*7E
$GPRMC,194817.000,A,3748.8205,N,12217.5854,W,2.75,119.65,280612,,,D*72
$GPRMC,194818.000,A,3748.8201,N,12217.5846,W,2.61,112.62,280612,,,D*73
$GPRMC,194819.000,A,3748.8196,N,12217.5837,W,2.77,106.38,280612,,,D*74
$GPRMC,194820.000,A,3748.8192,N,12217.5828,W,2.54,105.31,280612,,,D*7F
$GPRMC,194821.000,A,3748.8190,N,12217.5820,W,2.52,111.11,280612,,,D*75
$GPRMC,194822.000,A,3748.8187,N,12217.5813,W,2.40,113.97,280612,,,D*7F
$GPRMC,194823.000,A,3748.8182,N,12217.5805,W,2.11,113.78,280612,,,D*79
$GPRMC,194824.000,A,3748.8180,N,12217.5797,W,2.29,113.35,280612,,,D*7A
$GPRMC,194825.000,A,3748.8178,N,12217.5790,W,2.19,110.01,280612,,,D*7C
$GPRMC,194826.000,A,3748.8175,N,12217.5782,W,2.04,98.06,280612,,,D*4B
$GPRMC,194827.000,A,3748.8171,N,12217.5775,W,1.44,97.95,280612,,,D*44
$GPRMC,194828.000,A,3748.8168,N,12217.5765,W,1.96,94.86,280612,,,D*4C
$GPRMC,194829.000,A,3748.8164,N,12217.5755,W,1.67,104.51,280612,,,D*7E
$GPRMC,194830.000,A,3748.8160,N,12217.5748,W,1.23,120.03,280612,,,D*7F
$GPRMC,194831.000,A,3748.8157,N,12217.5738,W,1.05,125.02,280612,,,D*7D
$GPRMC,194832.000,A,3748.8152,N,12217.5731,W,0.98,139.64,280612,,,D*7A
$GPRMC,194833.000,A,3748.8149,N,12217.5726,W,1.41,110.33,280612,,,D*7B
$GPRMC,194834.000,A,3748.8144,N,12217.5720,W,1.86,116.33,280612,,,D*7A
$GPRMC,194835.000,A,3748.8142,N,12217.5715,W,2.20,113.90,280612,,,D*78
$GPRMC,194836.000,A,3748.8141,N,12217.5708,W,2.14,104.39,280612,,,D*76
$GPRMC,194837.000,A,3748.8141,N,12217.5702,W,1.87,94.82,280612,,,D*4C
$GPRMC,194838.000,A,3748.8141,N,12217.5696,W,1.81,102.02,280612,,,D*7F
$GPRMC,194839.000,A,3748.8141,N,12217.5690,W,1.83,100.64,280612,,,D*78
$GPRMC,194840.000,A,3748.8138,N,12217.5678,W,1.22,100.96,280612,,,D*78
$GPRMC,194841.000,A,3748.8135,N,12217.5669,W,1.28,102.37,280612,,,D*77
$GPRMC,194842.000,A,3748.8131,N,12217.5664,W,1.62,123.26,280612,,,D*70
$GPRMC,194843.000,A,3748.8121,N,12217.5649,W,2.13,139.07,280612,,,D*72
$GPRMC,194844.000,A,3748.8114,N,12217.5639,W,1.81,137.67,280612,,,D*74
$GPRMC,194845.000,A,3748.8109,N,12217.5631,W,0.69,156.59,280612,,,D*7C
$GPRMC,194846.000,A,3748.8104,N,12217.5624,W,0.82,151.66,280612,,,D*78
$GPRMC,194847.000,A,3748.8098,N,12217.5614,W,0.63,126.29,280612,,,D*7A
$GPRMC,194848.000,A,3748.8090,N,12217.5600,W,0.94,121.01,280612,,,D*7D
$GPRMC,194849.000,A,3748.8085,N,12217.5593,W,1.13,128.56,280612,,,D*74
$GPRMC,194850.000,A,3748.8075,N,12217.5579,W,1.82,132.17,280612,,,D*71
$GPRMC,194851.000,A,3748.8068,N,12217.5570,W,2.33,133.19,280612,,,D*73
$GPRMC,194852.000,A,3748.8064,N,12217.5565,W,1.61,132.90,280612,,,D*7C
$GPRMC,194853.000,A,3748.8060,N,12217.5556,W,1.39,125.12,280612,,,A*7D
$GPRMC,194854.000,A,3748.8057,N,12217.5547,W,1.84,149.22,280612,,,A*71
$GPRMC,194855.000,A,3748.8051,N,12217.5539,W,2.12,141.14,280612,,,A*7E
$GPRMC,194856.000,A,3748.8044,N,12217.5539,W,1.74,146.13,280612,,,A*7A
$GPRMC,194857.000,A,3748.8034,N,12217.5541,W,1.70,152.00,280612,,,A*70
$GPRMC,194858.000,A,3748.8028,N,12217.5536,W,1.06,174.98,280612,,,A*76
$GPRMC,194859.000,A,3748.8025,N,12217.5538,W,1.58,225.23,280612,,,A*78
$GPRMC,194900.000,A,3748.8023,N,12217.5546,W,1.11,243.45,280612,,,A*77
$GPRMC,194901.000,A,3748.8019,N,12217.5544,W,0.50,149.85,280612,,,A*7C
$GPRMC,194902.000,A,3748.8016,N,12217.5542,W,1.23,180.37,280612,,,A*7F
$GPRMC,194903.000,A,3748.8010,N,12217.5540,W,1.10,193.55,280612,,,A*7C
$GPRMC,194904.000,A,3748.7999,N,12217.5541,W,0.99,166.47,280612,,,A*74
$GPRMC,194905.000,A,3748.7989,N,12217.5537,W,1.63,181.89,280612,,,A*7A
$GPRMC,194906.000,A,3748.7981,N,12217.5530,W,1.80,205.10,280612,,,A*74
$GPRMC,194907.000,A,3748.7978,N,12217.5534,W,1.01,232.69,280612,,,A*74
$GPRMC,194908.000,A,3748.7974,N,12217.5533,W,0.72,221.91,280612,,,A*70
$GPRMC,194909.000,A,3748.7978,N,12217.5533,W,0.15,42.51,280612,,,A*47
$GPRMC,194910.000,A,3748.7979,N,12217.5537,W,0.59,189.72,280612,,,A*75
$GPRMC,194911.000,A,3748.7976,N,12217.5540,W,1.76,189.04,280612,,,A*76
$GPRMC,194912.000,A,3748.7973,N,12217.5546,W,1.57,196.09,280612,,,A*76
$GPRMC,194913.000,A,3748.7966,N,12217.5549,W,1.31,168.33,280612,,,A*74
$GPRMC,194914.000,A,3748.7956,N,12217.5552,W,1.98,191.32,280612,,,A*7E
$GPRMC,194915.000,A,3748.7951,N,12217.5563,W,1.85,219.58,280612,,,A*79
$GPRMC,194916.000,A,3748.7948,N,12217.5570,W,1.99,236.48,280612,,,A*71
$GPRMC,194917.000,A,3748.7939,N,12217.5573,W,2.05,201.57,280612,,,A*79
$GPRMC,194918.000,A,3748.7927,N,12217.5570,W,2.09,174.61,280612,,,A*72
$GPRMC,194919.000,A,3748.7919,N,12217.5568,W,1.56,153.27,280612,,,A*79
$GPRMC,194920.000,A,3748.7911,N,12217.5560,W,1.25,136.85,280612,,,A*7C
$GPRMC,194921.000,A,3748.7904,N,12217.5555,W,0.44,103.83,280612,,,A*79
$GPRMC,194922.000,A,3748.7900,N,12217.5549,W,1.63,64.84,280612,,,A*40
$GPRMC,194923.000,A,3748.7901,N,12217.5555,W,1.01,343.86,280612,,,A*7D
$GPRMC,194924.000,A,3748.7902,N,12217.5564,W,0.44,285.37,280612,,,A*7A
$GPRMC,194925.000,A,3748.7903,N,12217.5572,W,0.67,196.36,280612,,,A*7C
$GPRMC,194926.000,A,3748.7901,N,12217.5585,W,0.97,206.89,280612,,,A*74
$GPRMC,194927.000,A,3748.7901,N,12217.5595,W,1.02,223.98,280612,,,A*7E
$GPRMC,194928.000,A,3748.7898,N,12217.5600,W,1.41,205.25,280612,,,A*7A
$GPRMC,194929.000,A,3748.7892,N,12217.5599,W,1.83,185.65,280612,,,A*73
$GPRMC,194930.000,A,3748.7890,N,12217.5605,W,1.29,222.09,280612,,,A*7B
$GPRMC,194931.000,A,3748.7885,N,12217.5614,W,1.97,236.83,280612,,,A*7C
$GPRMC,194932.000,A,3748.7879,N,12217.5620,W,0.79,223.68,280612,,,A*7B
$GPRMC,194933.000,A,3748.7873,N,12217.5622,W,0.96,195.01,280612,,,A*72
$GPRMC,194934.000,A,3748.7868,N,12217.5627,W,0.79,182.00,280612,,,A*7C
$GPRMC,194935.000,A,3748.7869,N,12217.5624,W,0.81,179.21,280612,,,A*7F
$GPRMC,194936.000,A,3748.7868,N,12217.5627,W,1.56,170.98,280612,,,A*7E
$GPRMC,194937.000,A,3748.7862,N,12217.5628,W,1.48,189.93,280612,,,A*78
$GPRMC,194938.000,A,3748.7858,N,12217.5633,W,0.94,186.52,280612,,,A*76
$GPRMC,194939.000,A,3748.7851,N,12217.5631,W,1.67,193.79,280612,,,A*7C
$GPRMC,194940.000,A,3748.7845,N,12217.5633,W,1.74,191.23,280612,,,A*7A
$GPRMC,194941.000,A,3748.7842,N,12217.5638,W,1.77,212.55,280612,,,A*7D
$GPRMC,194942.000,A,3748.7837,N,12217.5639,W,1.81,206.23,280612,,,A*70
$GPRMC,194943.000,A,3748.7831,N,12217.5641,W,1.94,187.22,280612,,,A*77
$GPRMC,194944.000,A,3748.7830,N,12217.5647,W,1.30,198.98,280612,,,A*76
$GPRMC,194945.000,A,3748.7826,N,12217.5642,W,1.11,162.95,280612,,,A*7E
$GPRMC,194946.000,A,3748.7823,N,12217.5640,W,0.65,119.18,280612,,,A*71
$GPRMC,194947.000,A,3748.7823,N,12217.5641,W,1.24,122.13,280612,,,A*76
$GPRMC,194948.000,A,3748.7823,N,12217.5653,W,1.29,275.79,280612,,,A*7A
$GPRMC,194949.000,A,3748.7822,N,12217.5665,W,1.84,271.69,280612,,,A*7D
$GPRMC,194950.000,A,3748.7821,N,12217.5679,W,1.61,265.60,280612,,,A*7C
$GPRMC,194951.000,A,3748.7817,N,12217.5679,W,1.18,234.58,280612,,,A*79
$GPRMC,194952.000,A,3748.7811,N,12217.5674,W,1.78,211.17,280612,,,A*7B
$GPRMC,194953.000,A,3748.7802,N,12217.5677,W,1.95,233.00,280612,,,A*7E
$GPRMC,194954.000,A,3748.7795,N,12217.5671,W,1.64,224.06,280612,,,A*70
$GPRMC,194955.000,A,3748.7790,N,12217.5674,W,1.33,217.99,280612,,,A*75
$GPRMC,194956.000,A,3748.7783,N,12217.5670,W,0.95,240.34,280612,,,A*78
$GPRMC,194957.000,A,3748.7774,N,12217.5668,W,0.76,200.76,280612,,,A*77
$GPRMC,194958.000,A,3748.7767,N,12217.5670,W,0.84,190.32,280612,,,A*74
$GPRMC,194959.000,A,3748.7761,N,12217.5669,W,1.05,204.08,280612,,,A*74
$GPRMC,195000.000,A,3748.7751,N,12217.5669,W,1.71,218.31,280612,,,A*77
$GPRMC,195001.000,A,3748.7742,N,12217.5684,W,1.38,236.39,280612,,,A*7E
$GPRMC,195002.000,A,3748.7739,N,12217.5698,W,1.88,228.36,280612,,,A*77
$GPRMC,195003.000,A,3748.7733,N,12217.5709,W,1.94,223.91,280612,,,A*7E
$GPRMC,195004.000,A,3748.7727,N,12217.5720,W,1.83,226.39,280612,,,A*76
$GPRMC,195005.000,A,3748.7720,N,12217.5729,W,2.30,226.65,280612,,,A*7B
$GPRMC,195006.000,A,3748.7718,N,12217.5739,W,2.43,217.84,280612,,,A*7B
$GPRMC,195007.000,A,3748.7713,N,12217.5750,W,2.23,206.73,280612,,,A*70
$GPRMC,195008.000,A,3748.7707,N,12217.5758,W,2.30,209.72,280612,,,A*7E
$GPRMC,195009.000,A,3748.7699,N,12217.5764,W,2.22,220.02,280612,,,A*79
$GPRMC,195010.000,A,3748.7691,N,12217.5770,W,1.86,217.17,280612,,,A*71
$GPRMC,195011.000,A,3748.7684,N,12217.5776,W,2.08,199.16,280612,,,A*73
$GPRMC,195012.000,A,3748.7675,N,12217.5783,W,2.77,216.48,280612,,,A*73
$GPRMC,195013.000,A,3748.7669,N,12217.5792,W,2.45,221.61,280612,,,A*71
$GPRMC,195014.000,A,3748.7667,N,12217.5800,W,1.99,208.39,280612,,,A*78
$GPRMC,195015.000,A,3748.7662,N,12217.5806,W,2.04,204.35,280612,,,A*7D
$GPRMC,195016.000,A,3748.7653,N,12217.5809,W,2.42,187.21,280612,,,A*7C
$GPRMC,195017.000,A,3748.7642,N,12217.5810,W,2.25,187.26,280612,,,A*73
$GPRMC,195018.000,A,3748.7638,N,12217.5817,W,2.16,202.34,280612,,,A*7B
$GPRMC,195019.000,A,3748.7633,N,12217.5825,W,2.13,205.81,280612,,,A*7C
$GPRMC,195020.000,A,3748.7626,N,12217.5831,W,2.52,210.09,280612,,,A*76
$GPRMC,195021.000,A,3748.7617,N,12217.5835,W,2.16,196.93,280612,,,A*7F
$GPRMC,195022.000,A,3748.7608,N,12217.5838,W,1.90,202.06,280612,,,A*70
$GPRMC,195023.000,A,3748.7601,N,12217.5841,W,1.97,208.91,280612,,,A*75
$GPRMC,195024.000,A,3748.7595,N,12217.5848,W,2.42,202.27,280612,,,A*79
$GPRMC,195025.000,A,3748.7590,N,12217.5854,W,2.58,202.31,280612,,,A*7C
$GPRMC,195026.000,A,3748.7581,N,12217.5859,W,2.19,209.03,280612,,,A*7D
$GPRMC,195027.000,A,3748.7575,N,12217.5865,W,2.01,213.44,280612,,,A*79
$GPRMC,195028.000,A,3748.7569,N,12217.5868,W,1.53,185.72,280612,,,A*7B
$GPRMC,195029.000,A,3748.7565,N,12217.5871,W,1.20,188.11,280612,,,A*72
$GPRMC,195030.000,A,3748.7560,N,12217.5870,W,0.97,127.24,280612,,,A*70
$GPRMC,195031.000,A,3748.7555,N,12217.5868,W,0.64,161.23,280612,,,A*77
$GPRMC,195032.000,A,3748.7550,N,12217.5861,W,1.62,124.41,280612,,,A*7A
$GPRMC,195033.000,A,3748.7544,N,12217.5852,W,1.65,137.04,280612,,,A*7A
$GPRMC,195034.000,A,3748.7535,N,12217.5866,W,1.17,205.37,280612,,,A*7B
$GPRMC,195035.000,A,3748.7528,N,12217.5873,W,1.58,229.12,280612,,,A*70
$GPRMC,195036.000,A,3748.7521,N,12217.5885,W,1.47,213.81,280612,,,A*7E
$GPRMC,195037.000,A,3748.7514,N,12217.5894,W,1.38,218.52,280612,,,A*74
$GPRMC,195038.000,A,3748.7508,N,12217.5901,W,1.82,208.61,280612,,,A*7B
$GPRMC,195039.000,A,3748.7499,N,12217.5910,W,2.67,194.52,280612,,,A*7D
$GPRMC,195040.000,A,3748.7495,N,12217.5918,W,1.94,207.12,280612,,,A*75
$GPRMC,195041.000,A,3748.7490,N,12217.5927,W,2.38,211.35,280612,,,A*7A
$GPRMC,195042.000,A,3748.7484,N,12217.5933,W,2.45,204.70,280612,,,A*76
$GPRMC,195043.000,A,3748.7479,N,12217.5938,W,2.29,216.92,280612,,,A*7B
$GPRMC,195044.000,A,3748.7473,N,12217.5941,W,1.52,204.53,280612,,,A*79
$GPRMC,195045.000,A,3748.7467,N,12217.5945,W,1.27,196.67,280612,,,A*74
$GPRMC,195046.000,A,3748.7460,N,12217.5950,W,1.43,187.60,280612,,,A*71
$GPRMC,195047.000,A,3748.7454,N,12217.5955,W,1.54,213.74,280612,,,A*7F
$GPRMC,195048.000,A,3748.7444,N,12217.5964,W,1.61,218.65,280612,,,A*7E
$GPRMC,195049.000,A,3748.7434,N,12217.5970,W,1.83,211.79,280612,,,A*75
$GPRMC,195050.000,A,3748.7429,N,12217.5975,W,1.92,208.35,280612,,,A*74
$GPRMC,195051.000,A,3748.7422,N,12217.5983,W,1.92,230.06,280612,,,A*7C
$GPRMC,195052.000,A,3748.7418,N,12217.5991,W,1.46,235.70,280612,,,A*78
$GPRMC,195053.000,A,3748.7414,N,12217.5997,W,1.57,238.83,280612,,,A*72
$GPRMC,195054.000,A,3748.7408,N,12217.6003,W,2.09,211.73,280612,,,A*73
$GPRMC,195055.000,A,3748.7401,N,12217.6007,W,2.12,192.08,280612,,,A*71
$GPRMC,195056.000,A,3748.7394,N,12217.6010,W,2.39,184.64,280612,,,A*7B
$GPRMC,195057.000,A,3748.7388,N,12217.6013,W,2.11,189.91,280612,,,A*79
$GPRMC,195058.000,A,3748.7380,N,12217.6017,W,2.23,202.65,280612,,,A*70
$GPRMC,195059.000,A,3748.7375,N,12217.6024,W,2.51,204.74,280612,,,A*78
$GPRMC,195100.000,A,3748.7368,N,12217.6034,W,2.09,210.05,280612,,,A*76
$GPRMC,195101.000,A,3748.7361,N,12217.6040,W,2.04,206.49,280612,,,A*7F
$GPRMC,195102.000,A,3748.7354,N,12217.6047,W,2.00,208.25,280612,,,A*7D
$GPRMC,195103.000,A,3748.7348,N,12217.6055,W,1.94,216.19,280612,,,A*7C
$GPRMC,195104.000,A,3748.7342,N,12217.6062,W,1.91,206.10,280612,,,A*78
$GPRMC,195105.000,A,3748.7333,N,12217.6070,W,2.66,212.44,280612,,,A*73
$GPRMC,195106.000,A,3748.7322,N,12217.6074,W,2.20,205.69,280612,,,A*7F
$GPRMC,195107.000,A,3748.7311,N,12217.6083,W,2.12,203.86,280612,,,A*70
$GPRMC,195108.000,A,3748.7300,N,12217.6089,W,2.26,190.62,280612,,,A*71
$GPRMC,195109.000,A,3748.7293,N,12217.6092,W,2.19,195.41,280612,,,A*79
$GPRMC,195110.000,A,3748.7284,N,12217.6100,W,2.20,201.48,280612,,,A*70
$GPRMC,195111.000,A,3748.7275,N,12217.6107,W,2.58,199.25,280612,,,A*7E
$GPRMC,195112.000,A,3748.7266,N,12217.6111,W,2.73,194.58,280612,,,A*76
$GPRMC,195113.000,A,3748.7257,N,12217.6113,W,2.55,198.12,280612,,,A*71
$GPRMC,195114.000,A,3748.7254,N,12217.6121,W,2.35,194.25,280612,,,A*7A
$GPRMC,195115.000,A,3748.7244,N,12217.6127,W,2.05,190.99,280612,,,A*7C
$GPRMC,195116.000,A,3748.7235,N,12217.6132,W,2.15,197.08,280612,,,A*73
$GPRMC,195117.000,A,3748.7228,N,12217.6135,W,1.95,197.05,280612,,,A*7F
$GPRMC,195118.000,A,3748.7222,N,12217.6139,W,1.97,188.75,280612,,,A*7D
$GPRMC,195119.000,A,3748.7214,N,12217.6141,W,2.37,188.76,280612,,,A*7C
$GPRMC,195120.000,A,3748.7206,N,12217.6145,W,2.14,192.98,280612,,,A*7B
$GPRMC,195121.000,A,3748.7200,N,12217.6149,W,2.31,199.42,280612,,,A*7B
$GPRMC,195122.000,A,3748.7194,N,12217.6154,W,2.03,204.16,280612,,,A*7D
$GPRMC,195123.000,A,3748.7189,N,12217.6162,W,1.74,218.43,280612,,,A*7B
$GPRMC,195124.000,A,3748.7184,N,12217.6166,W,2.10,194.42,280612,,,A*72
$GPRMC,195125.000,A,3748.7182,N,12217.6172,W,2.22,192.98,280612,,,A*70
$GPRMC,195126.000,A,3748.7178,N,12217.6176,W,1.18,216.78,280612,,,A*79
$GPRMC,195127.000,A,3748.7173,N,12217.6181,W,1.97,197.49,280612,,,A*74
$GPRMC,195128.000,A,3748.7165,N,12217.6184,W,1.90,197.70,280612,,,A*74
$GPRMC,195129.000,A,3748.7163,N,12217.6189,W,1.75,201.38,280612,,,A*75
$GPRMC,195130.000,A,3748.7156,N,12217.6193,W,1.78,189.05,280612,,,A*70
$GPRMC,195131.000,A,3748.7152,N,12217.6200,W,1.25,214.40,280612,,,A*72
$GPRMC,195132.000,A,3748.7148,N,12217.6203,W,1.35,206.57,280612,,,A*7D
$GPRMC,195133.000,A,3748.7145,N,12217.6206,W,1.31,194.45,280612,,,A*7B
$GPRMC,195134.000,A,3748.7137,N,12217.6214,W,1.62,213.31,280612,,,A*73
$GPRMC,195135.000,A,3748.7132,N,12217.6225,W,1.67,227.92,280612,,,A*7E
$GPRMC,195136.000,A,3748.7124,N,12217.6235,W,1.72,222.24,280612,,,A*77
$GPRMC,195137.000,A,3748.7119,N,12217.6241,W,1.74,208.64,280612,,,A*71
$GPRMC,195138.000,A,3748.7113,N,12217.6247,W,1.77,207.90,280612,,,A*75
$GPRMC,195139.000,A,3748.7114,N,12217.6249,W,1.56,206.61,280612,,,A*71
$GPRMC,195140.000,A,3748.7107,N,12217.6255,W,1.92,212.43,280612,,,A*7D
$GPRMC,195141.000,A,3748.7099,N,12217.6262,W,1.70,209.56,280612,,,A*7C
$GPRMC,195142.000,A,3748.7094,N,12217.6266,W,1.50,209.26,280612,,,A*73
$GPRMC,195143.000,A,3748.7084,N,12217.6271,W,1.38,199.49,280612,,,A*78
$GPRMC,195144.000,A,3748.7075,N,12217.6276,W,1.70,198.56,280612,,,A*75
$GPRMC,195145.000,A,3748.7068,N,12217.6279,W,1.27,195.23,280612,,,A*7A
$GPRMC,195146.000,A,3748.7060,N,12217.6286,W,1.37,200.06,280612,,,A*78
$GPRMC,195147.000,A,3748.7055,N,12217.6288,W,1.24,191.04,280612,,,A*7A
$GPRMC,195148.000,A,3748.7049,N,12217.6291,W,1.63,189.08,280612,,,A*76
$GPRMC,195149.000,A,3748.7043,N,12217.6291,W,1.46,177.14,280612,,,A*76
$GPRMC,195150.000,A,3748.7038,N,12217.6292,W,1.41,190.37,280612,,,A*7E
$GPRMC,195151.000,A,3748.7030,N,12217.6301,W,1.23,201.48,280612,,,A*7B
$GPRMC,195152.000,A,3748.7024,N,12217.6307,W,1.34,208.65,280612,,,A*7B
$GPRMC,195153.000,A,3748.7015,N,12217.6311,W,1.58,196.48,280612,,,A*7E
$GPRMC,195154.000,A,3748.7007,N,12217.6316,W,1.51,199.57,280612,,,A*75
$GPRMC,195155.000,A,3748.7000,N,12217.6319,W,1.11,240.31,280612,,,A*7F
$GPRMC,195156.000,A,3748.6998,N,12217.6324,W,1.13,255.13,280612,,,A*7D
$GPRMC,195157.000,A,3748.6992,N,12217.6328,W,1.79,207.33,280612,,,A*73
$GPRMC,195158.000,A,3748.6986,N,12217.6334,W,2.14,215.68,280612,,,A*71
$GPRMC,195159.000,A,3748.6980,N,12217.6338,W,2.05,205.08,280612,,,A*7D
$GPRMC,195200.000,A,3748.6978,N,12217.6343,W,1.65,209.19,280612,,,A*70
$GPRMC,195201.000,A,3748.6975,N,12217.6346,W,1.34,206.90,280612,,,A*73
$GPRMC,195202.000,A,3748.6972,N,12217.6352,W,1.85,218.90,280612,,,A*77
$GPRMC,195203.000,A,3748.6964,N,12217.6360,W,1.75,213.92,280612,,,A*76
$GPRMC,195204.000,A,3748.6957,N,12217.6366,W,1.93,231.22,280612,,,A*74
$GPRMC,195205.000,A,3748.6948,N,12217.6371,W,2.41,206.29,280612,,,A*7E
$GPRMC,195206.000,A,3748.6941,N,12217.6376,W,2.20,211.21,280612,,,A*7A
$GPRMC,195207.000,A,3748.6933,N,12217.6385,W,2.53,211.94,280612,,,A*78
$GPRMC,195208.000,A,3748.6927,N,12217.6390,W,1.90,213.09,280612,,,A*7C
$GPRMC,195209.000,A,3748.6922,N,12217.6394,W,1.76,202.31,280612,,,A*7F
$GPRMC,195210.000,A,3748.6921,N,12217.6398,W,1.84,208.88,280612,,,A*7D
$GPRMC,195211.000,A,3748.6913,N,12217.6402,W,1.94,200.18,280612,,,A*79
$GPRMC,195212.000,A,3748.6906,N,12217.6406,W,1.93,204.54,280612,,,A*71
$GPRMC,195213.000,A,3748.6898,N,12217.6411,W,1.74,215.65,280612,,,A*7B
$GPRMC,195214.000,A,3748.6894,N,12217.6416,W,1.57,235.00,280612,,,A*77
$GPRMC,195215.000,A,3748.6888,N,12217.6421,W,1.91,203.25,280612,,,A*77
$GPRMC,195216.000,A,3748.6882,N,12217.6424,W,1.97,199.93,280612,,,A*70
$GPRMC,195217.000,A,3748.6877,N,12217.6430,W,1.68,200.34,280612,,,A*70
$GPRMC,195218.000,A,3748.6872,N,12217.6435,W,2.02,192.42,280612,,,A*79
$GPRMC,195219.000,A,3748.6862,N,12217.6438,W,2.15,178.64,280612,,,A*72
$GPRMC,195220.000,A,3748.6855,N,12217.6441,W,2.26,169.69,280612,,,A*7F
$GPRMC,195221.000,A,3748.6846,N,12217.6442,W,2.49,164.48,280612,,,A*78
$GPRMC,195222.000,A,3748.6839,N,12217.6448,W,2.27,190.60,280612,,,A*70
$GPRMC,195223.000,A,3748.6831,N,12217.6454,W,1.77,191.91,280612,,,A*7D
$GPRMC,195224.000,A,3748.6827,N,12217.6454,W,1.01,153.93,280612,,,A*70
$GPRMC,195225.000,A,3748.6823,N,12217.6454,W,1.23,129.14,280612,,,A*77
$GPRMC,195226.000,A,3748.6821,N,12217.6455,W,0.99,133.09,280612,,,A*70
$GPRMC,195227.000,A,3748.6816,N,12217.6456,W,0.72,198.31,280612,,,A*79
$GPRMC,195228.000,A,3748.6809,N,12217.6458,W,0.95,180.72,280612,,,A*71
$GPRMC,195229.000,A,3748.6800,N,12217.6464,W,1.35,205.18,280612,,,A*7F
$GPRMC,195230.000,A,3748.6791,N,12217.6469,W,1.51,210.97,280612,,,A*7C
$GPRMC,195231.000,A,3748.6785,N,12217.6479,W,1.10,214.17,280612,,,A*70
$GPRMC,195232.000,A,3748.6779,N,12217.6487,W,1.18,209.80,280612,,,A*7B
$GPRMC,195233.000,A,3748.6773,N,12217.6492,W,0.72,197.71,280612,,,A*73
$GPRMC,195234.000,A,3748.6768,N,12217.6501,W,0.83,186.00,280612,,,A*7D
$GPRMC,195235.000,A,3748.6760,N,12217.6508,W,1.80,202.21,280612,,,A*73
$GPRMC,195236.000,A,3748.6752,N,12217.6518,W,1.79,210.11,280612,,,A*76
$GPRMC,195237.000,A,3748.6745,N,12217.6526,W,1.40,212.54,280612,,,A*75
$GPRMC,195238.000,A,3748.6739,N,12217.6530,W,1.18,206.09,280612,,,A*76
$GPRMC,195239.000,A,3748.6731,N,12217.6535,W,1.01,201.93,280612,,,A*76
$GPRMC,195240.000,A,3748.6727,N,12217.6539,W,1.14,169.41,280612,,,A*75
$GPRMC,195241.000,A,3748.6722,N,12217.6548,W,1.15,234.89,280612,,,A*79
$GPRMC,195242.000,A,3748.6718,N,12217.6559,W,0.92,258.22,280612,,,A*76
$GPRMC,195243.000,A,3748.6713,N,12217.6569,W,1.38,244.11,280612,,,A*73
$GPRMC,195244.000,A,3748.6710,N,12217.6579,W,1.50,251.20,280612,,,A*7E
$GPRMC,195245.000,A,3748.6704,N,12217.6587,W,1.26,268.92,280612,,,A*79
$GPRMC,195246.000,A,3748.6700,N,12217.6593,W,1.10,268.37,280612,,,A*71
$GPRMC,195247.000,A,3748.6695,N,12217.6600,W,1.10,246.71,280612,,,A*7A
$GPRMC,195248.000,A,3748.6691,N,12217.6609,W,1.48,265.33,280612,,,A*72
$GPRMC,195249.000,A,3748.6689,N,12217.6610,W,1.63,214.95,280612,,,A*71
$GPRMC,195250.000,A,3748.6681,N,12217.6615,W,1.65,196.43,280612,,,A*70
$GPRMC,195251.000,A,3748.6671,N,12217.6616,W,1.52,195.27,280612,,,A*78
$GPRMC,195252.000,A,3748.6663,N,12217.6617,W,1.40,188.83,280612,,,A*78
$GPRMC,195253.000,A,3748.6655,N,12217.6619,W,1.92,209.31,280612,,,A*7E
$GPRMC,195254.000,A,3748.6641,N,12217.6621,W,2.22,202.13,280612,,,A*74
$GPRMC,195255.000,A,3748.6634,N,12217.6626,W,1.99,207.39,280612,,,A*7E
$GPRMC,195256.000,A,3748.6625,N,12217.6636,W,1.94,213.98,280612,,,A*7F
$GPRMC,195257.000,A,3748.6619,N,12217.6649,W,1.72,215.00,280612,,,A*76
$GPRMC,195258.000,A,3748.6616,N,12217.6657,W,1.74,193.71,280612,,,A*74
$GPRMC,195259.000,A,3748.6612,N,12217.6663,W,1.52,196.81,280612,,,A*78
$GPRMC,195300.000,A,3748.6609,N,12217.6668,W,1.59,191.85,280612,,,A*7C
$GPRMC,195301.000,A,3748.6604,N,12217.6676,W,1.85,207.52,280612,,,A*78
$GPRMC,195302.000,A,3748.6598,N,12217.6683,W,1.79,216.59,280612,,,A*7F
$GPRMC,195303.000,A,3748.6589,N,12217.6688,W,2.14,208.68,280612,,,A*70
$GPRMC,195304.000,A,3748.6580,N,12217.6693,W,2.05,214.50,280612,,,A*72
$GPRMC,195305.000,A,3748.6570,N,12217.6698,W,2.13,210.20,280612,,,A*73
$GPRMC,195306.000,A,3748.6559,N,12217.6704,W,1.97,205.28,280612,,,A*7C
$GPRMC,195307.000,A,3748.6549,N,12217.6709,W,2.18,202.28,280612,,,A*72
$GPRMC,195308.000,A,3748.6537,N,12217.6716,W,2.59,213.43,280612,,,A*72
$GPRMC,195309.000,A,3748.6526,N,12217.6722,W,2.50,209.13,280612,,,A*73
$GPRMC,195310.000,A,3748.6515,N,12217.6728,W,2.53,207.89,280612,,,A*7F
$GPRMC,195311.000,A,3748.6504,N,12217.6735,W,2.50,206.96,280612,,,A*7E
$GPRMC,195312.000,A,3748.6491,N,12217.6741,W,2.66,200.05,280612,,,A*7A
$GPRMC,195313.000,A,3748.6481,N,12217.6746,W,2.63,196.47,280612,,,A*72
$GPRMC,195314.000,A,3748.6472,N,12217.6752,W,2.68,196.39,280612,,,A*7E
$GPRMC,195315.000,A,3748.6464,N,12217.6758,W,3.03,199.66,280612,,,A*7B
$GPRMC,195316.000,A,3748.6456,N,12217.6765,W,2.62,204.14,280612,,,A*73
$GPRMC,195317.000,A,3748.6451,N,12217.6773,W,2.03,210.79,280612,,,A*7B
$GPRMC,195318.000,A,3748.6447,N,12217.6780,W,1.92,207.27,280612,,,A*79
$GPRMC,195319.000,A,3748.6441,N,12217.6783,W,2.36,189.61,280612,,,A*77
$GPRMC,195320.000,A,3748.6433,N,12217.6784,W,3.19,191.21,280612,,,A*7E
$GPRMC,195321.000,A,3748.6429,N,12217.6785,W,2.12,174.58,280612,,,A*7A
$GPRMC,195322.000,A,3748.6424,N,12217.6787,W,2.08,166.95,280612,,,A*7F
$GPRMC,195323.000,A,3748.6421,N,12217.6788,W,1.62,150.39,280612,,,A*78
$GPRMC,195324.000,A,3748.6416,N,12217.6787,W,1.41,122.51,280612,,,A*7E
$GPRMC,195325.000,A,3748.6415,N,12217.6781,W,0.84,142.31,280612,,,A*72
$GPRMC,195326.000,A,3748.6410,N,12217.6789,W,1.36,239.82,280612,,,A*73
$GPRMC,195327.000,A,3748.6403,N,12217.6800,W,1.30,242.14,280612,,,A*7B
$GPRMC,195328.000,A,3748.6401,N,12217.6803,W,0.83,249.28,280612,,,A*78
$GPRMC,195329.000,A,3748.6397,N,12217.6807,W,0.88,239.07,280612,,,A*74
$GPRMC,195330.000,A,3748.6397,N,12217.6820,W,1.32,255.22,280612,,,A*74
$GPRMC,195331.000,A,3748.6396,N,12217.6832,W,1.37,247.46,280612,,,A*73
$GPRMC,195332.000,A,3748.6393,N,12217.6841,W,1.21,231.24,280612,,,A*73
$GPRMC,195333.000,A,3748.6389,N,12217.6849,W,1.79,238.10,280612,,,A*72
$GPRMC,195334.000,A,3748.6385,N,12217.6857,W,1.07,258.45,280612,,,A*79
$GPRMC,195335.000,A,3748.6383,N,12217.6861,W,1.31,291.39,280612,,,A*70
$GPRMC,195336.000,A,3748.6381,N,12217.6866,W,1.26,291.59,280612,,,A*76
$GPRMC,195337.000,A,3748.6376,N,12217.6866,W,1.34,217.10,280612,,,A*7F
$GPRMC,195338.000,A,3748.6369,N,12217.6869,W,1.76,218.84,280612,,,A*75
$GPRMC,195339.000,A,3748.6361,N,12217.6876,W,2.14,213.77,280612,,,A*72
$GPRMC,195340.000,A,3748.6351,N,12217.6880,W,2.04,207.34,280612,,,A*75
$GPRMC,195341.000,A,3748.6341,N,12217.6881,W,2.36,202.12,280612,,,A*74
$GPRMC,195342.000,A,3748.6334,N,12217.6886,W,2.10,198.59,280612,,,A*79
$GPRMC,195343.000,A,3748.6329,N,12217.6891,W,2.02,203.27,280612,,,A*79
$GPRMC,195344.000,A,3748.6320,N,12217.6894,W,1.81,209.61,280612,,,A*72
$GPRMC,195345.000,A,3748.6312,N,12217.6897,W,1.55,206.70,280612,,,A*77
$GPRMC,195346.000,A,3748.6306,N,12217.6905,W,1.62,212.63,280612,,,A*78
$GPRMC,195347.000,A,3748.6299,N,12217.6916,W,2.20,217.04,280612,,,A*7D
$GPRMC,195348.000,A,3748.6297,N,12217.6915,W,1.52,196.06,280612,,,A*71
$GPRMC,195349.000,A,3748.6295,N,12217.6913,W,1.20,184.40,280612,,,A*70
