$ADVER,3080,2.3
$GPRMC,193322.465,A,3748.7980,N,12217.8602,W,0.24,195.94,180811,,,A*71
$GPGGA,193323.465,3748.7980,N,12217.8603,W,1,03,3.1,25.1,M,-25.1,M,,0000*58
$GPGSA,A,2,26,08,28,,,,,,,,,,3.3,3.1,1.0*36
$GPRMC,193323.465,A,3748.7980,N,12217.8603,W,0.20,196.30,180811,,,A*78
$GPVTG,196.30,T,,M,0.20,N,0.4,K,N*09
$GPGGA,193324.465,3748.7974,N,12217.8601,W,1,03,3.1,25.1,M,-25.1,M,,0000*56
$GPGSA,A,2,26,08,28,,,,,,,,,,3.3,3.1,1.0*36
$GPRMC,193324.465,A,3748.7974,N,12217.8601,W,0.19,187.78,180811,,,A*70
$GPVTG,187.78,T,,M,0.19,N,0.3,K,N*08
$GPGGA,193325.465,3748.7969,N,12217.8601,W,1,03,3.1,25.1,M,-25.1,M,,0000*5B
$GPGSA,A,2,26,08,28,,,,,,,,,,3.3,3.1,1.0*36
$GPRMC,193325.465,A,3748.7969,N,12217.8601,W,0.15,185.06,180811,,,A*7A
$GPVTG,185.06,T,,M,0.15,N,0.3,K,N*0F
$GPGGA,193326.465,3748.7968,N,12217.8603,W,1,03,3.1,25.1,M,-25.1,M,,0000*5B
$GPGSA,A,2,26,08,28,,,,,,,,,,3.3,3.1,1.0*36
$GPRMC,193326.465,A,3748.7968,N,12217.8603,W,0.17,201.59,180811,,,A*7D
$GPVTG,201.59,T,,M,0.17,N,0.3,K,N*08
$GPGGA,193327.469,3748.7965,N,12217.8600,W,1,03,3.1,25.1,M,-25.1,M,,0000*58
$GPGSA,A,2,26,08,28,,,,,,,,,,3.3,3.1,1.0*36
$GPGSV,3,1,09,28,67,008,32,26,54,269,33,08,51,100,27,17,53,187,29*75
$GPGSV,3,2,09,07,26,116,,11,20,063,27,01,19,117,,24,16,078,22*76
$GPGSV,3,3,09,27,10,309,*4E
$GPVTG,186.59,T,,M,0.18,N,0.3,K,N*0B
$GPGGA,193328.465,3748.7962,N,12217.8599,W,1,03,3.1,25.1,M,-25.1,M,,0000*5F
$GPGSA,A,2,26,08,28,,,,,,,,,,3.3,3.1,1.0*36
$GPRMC,193328.465,A,3748.7962,N,12217.8599,W,0.13,212.15,180811,,,A*77
$GPVTG,212.15,T,,M,0.13,N,0.2,K,N*07
$GPGGA,193329.465,3748.7962,N,12217.8598,W,1,03,3.1,25.1,M,-25.1,M,,0000*5F
$GPGSA,A,2,26,08,28,,,,,,,,,,3.3,3.1,1.0*36
$GPRMC,193329.465,A,3748.7962,N,12217.8598,W,0.23,178.06,180811,,,A*79
$GPVTG,178.06,T,,M,0.23,N,0.4,K,N*0F
$GPGGA,193330.465,3748.7958,N,12217.8599,W,1,03,3.1,25.1,M,-25.1,M,,0000*5F
$GPGSA,A,2,26,08,28,,,,,,,,,,3.3,3.1,1.0*36
$GPRMC,193330.465,A,3748.7958,N,12217.8599,W,0.22,177.72,180811,,,A*74
$GPVTG,177.72,T,,M,0.22,N,0.4,K,N*02
$GPGGA,193331.465,3748.7957,N,12217.8598,W,1,03,3.1,25.1,M,-25.1,M,,0000*50
$GPGSA,A,2,26,08,28,,,,,,,,,,3.3,3.1,1.0*36
$GPRMC,193331.465,A,3748.7957,N,12217.8598,W,0.14,196.33,180811,,,A*74
$GPVTG,196.33,T,,M,0.14,N,0.3,K,N*0A
$GPGGA,193332.465,3748.7957,N,12217.8597,W,1,03,3.1,25.1,M,-25.1,M,,0000*5C
$GPGSA,A,2,26,08,28,,,,,,,,,,3.3,3.1,1.0*36
$GPGSV,3,1,09,28,67,008,31,26,54,269,33,08,51,100,27,17,53,187,29*76
$GPGSV,3,2,09,07,26,116,,11,20,063,28,01,19,117,,24,16,078,26*7D
$GPGSV,3,3,09,27,10,309,*4E
$GPRMC,193332.465,A,3748.7957,N,12217.8597,W,0.24,204.66,180811,,,A*73
$GPVTG,204.66,T,,M,0.24,N,0.4,K,N*06
$GPGGA,193334.465,3748.8016,N,12217.8570,W,1,03,2.5,25.1,M,-25.1,M,,0000*55
$GPGSA,A,2,26,08,17,,,,,,,,,,2.7,2.5,1.0*3A
$GPRMC,193334.465,A,3748.8016,N,12217.8570,W,0.15,281.69,180811,,,A*7F
$GPVTG,281.69,T,,M,0.15,N,0.3,K,N*01
$GPGGA,193335.465,3748.8029,N,12217.8553,W,1,03,2.5,25.1,M,-25.1,M,,0000*59
$GPGSA,A,2,26,08,17,,,,,,,,,,2.7,2.5,1.0*3A
$GPRMC,193335.465,A,3748.8029,N,12217.8553,W,2.68,46.04,180811,,,A*49
$GPVTG,46.04,T,,M,2.68,N,5.0,K,N*3D
$GPGGA,193336.465,3748.8050,N,12217.8515,W,1,04,1.9,73.0,M,-25.1,M,,0000*5C
$GPGSA,A,3,26,08,28,17,,,,,,,,,2.1,1.9,1.0*38
$GPRMC,193336.465,A,3748.8050,N,12217.8515,W,3.93,60.91,180811,,,A*4B
$GPVTG,60.91,T,,M,3.93,N,7.3,K,A*3E
$GPGGA,193337.465,3748.8037,N,12217.8544,W,1,04,1.9,95.0,M,-25.1,M,,0000*50
$GPGSA,A,3,26,08,28,17,,,,,,,,,2.1,1.9,1.0*38
$GPGSV,3,1,09,28,67,008,20,26,54,269,32,17,53,187,32,08,51,100,15*7C
$GPGSV,3,2,09,07,26,116,,11,20,063,31,01,19,117,,24,16,078,27*74
$GPGSV,3,3,09,27,10,309,*4E
$GPRMC,193337.465,A,3748.8037,N,12217.8544,W,2.38,51.41,180811,,,A*40
$GPVTG,51.41,T,,M,2.38,N,4.4,K,A*35
$GPGGA,193338.465,3748.8026,N,12217.8547,W,1,04,1.9,90.1,M,-25.1,M,,0000*58
$GPGSA,A,3,26,08,28,17,,,,,,,,,2.1,1.9,1.0*38
$GPRMC,193338.465,A,3748.8026,N,12217.8547,W,2.14,69.15,180811,,,A*48
$GPVTG,69.15,T,,M,2.14,N,4.0,K,A*35
$GPGGA,193339.000,3748.8015,N,12217.8555,W,1,04,1.9,51.7,M,-25.1,M,,0000*56
$GPGSA,A,3,26,08,28,17,,,,,,,,,2.1,1.9,1.0*38
$GPRMC,193339.000,A,3748.8015,N,12217.8555,W,0.28,106.67,180811,,,A*7D
$GPVTG,106.67,T,,M,0.28,N,0.5,K,A*04
$GPGGA,193339.000,3748.8004,N,12217.8558,W,1,04,1.9,53.7,M,-25.1,M,,0000*59
$GPGSA,A,3,26,08,28,17,,,,,,,,,2.1,1.9,1.0*38
$GPRMC,193339.000,A,3748.8004,N,12217.8558,W,0.06,72.12,180811,,,A*4C
$GPVTG,72.12,T,,M,0.06,N,0.1,K,A*3C
$GPGGA,193340.000,3748.7988,N,12217.8551,W,1,04,1.9,49.7,M,-25.1,M,,0000*57
$GPGSA,A,3,26,08,28,17,,,,,,,,,2.1,1.9,1.0*38
$GPRMC,193340.000,A,3748.7988,N,12217.8551,W,0.05,164.78,180811,,,A*70
$GPVTG,164.78,T,,M,0.05,N,0.1,K,A*05
$GPGGA,193341.000,3748.7976,N,12217.8544,W,1,04,1.9,54.1,M,-25.1,M,,0000*59
$GPGSA,A,3,26,08,28,17,,,,,,,,,2.1,1.9,1.0*38
$GPGSV,3,1,10,28,67,008,29,26,54,269,22,17,53,187,37,08,51,100,33*7D
$GPGSV,3,2,10,07,26,116,,11,20,063,33,01,19,117,,24,16,078,28*71
$GPGSV,3,3,10,27,10,309,,48,44,197,34*72
$GPRMC,193341.000,A,3748.7976,N,12217.8544,W,0.11,283.01,180811,,,A*75
$GPVTG,283.01,T,,M,0.11,N,0.2,K,A*07
$GPGGA,193342.000,3748.7971,N,12217.8543,W,1,04,1.9,52.8,M,-25.1,M,,0000*55
$GPGSA,A,3,26,08,28,17,,,,,,,,,2.1,1.9,1.0*38
$GPRMC,193342.000,A,3748.7971,N,12217.8543,W,0.16,298.07,180811,,,A*7D
$GPVTG,298.07,T,,M,0.16,N,0.3,K,A*0D
$GPGGA,193343.000,3748.7973,N,12217.8552,W,1,04,1.9,42.7,M,-25.1,M,,0000*58
$GPGSA,A,3,26,08,28,17,,,,,,,,,2.1,1.9,1.0*38
$GPRMC,193343.000,A,3748.7973,N,12217.8552,W,0.13,285.14,180811,,,A*75
$GPVTG,285.14,T,,M,0.13,N,0.2,K,A*07
$GPGGA,193344.000,3748.7975,N,12217.8558,W,1,04,1.9,37.0,M,-25.1,M,,0000*56
$GPGSA,A,3,26,08,28,17,,,,,,,,,2.1,1.9,1.0*38
$GPRMC,193344.000,A,3748.7975,N,12217.8558,W,0.39,290.25,180811,,,A*70
$GPVTG,290.25,T,,M,0.39,N,0.7,K,A*0C
$GPGGA,193345.000,3748.7980,N,12217.8566,W,1,04,1.9,31.2,M,-25.1,M,,0000*54
$GPGSA,A,3,26,08,28,17,,,,,,,,,2.1,1.9,1.0*38
$GPRMC,193345.000,A,3748.7980,N,12217.8566,W,0.08,52.12,180811,,,A*4C
$GPVTG,52.12,T,,M,0.08,N,0.1,K,A*30
$GPGGA,193346.000,3748.7982,N,12217.8572,W,1,04,1.9,26.1,M,-25.1,M,,0000*55
$GPGSA,A,3,26,08,28,17,,,,,,,,,2.1,1.9,1.0*38
$GPGSV,3,1,10,28,67,008,30,26,54,269,23,17,53,187,31,08,51,100,27*77
$GPGSV,3,2,10,07,26,116,,11,20,063,28,01,19,117,,24,16,078,28*7B
$GPGSV,3,3,10,27,10,309,,48,44,197,29*7E
$GPRMC,193346.000,A,3748.7982,N,12217.8572,W,0.13,107.04,180811,,,A*74
$GPGGA,193347.000,3748.7981,N,12217.8571,W,1,04,1.9,27.7,M,-25.1,M,,0000*53
$GPGSA,A,3,26,08,28,17,,,,,,,,,2.1,1.9,1.0*38
$GPRMC,193347.000,A,3748.7981,N,12217.8571,W,0.21,86.69,180811,,,A*47
$GPVTG,86.69,T,,M,0.21,N,0.4,K,A*3B
$GPGGA,193348.000,3748.7985,N,12217.8579,W,1,04,1.9,21.6,M,-25.1,M,,0000*57
$GPGSA,A,3,26,08,28,17,,,,,,,,,2.1,1.9,1.0*38
$GPRMC,193348.000,A,3748.7985,N,12217.8579,W,0.58,279.74,180811,,,A*74
$GPVTG,279.74,T,,M,0.58,N,1.1,K,A*0F
$GPGGA,193349.000,3748.7985,N,12217.8583,W,1,04,1.9,19.0,M,-25.1,M,,0000*5E
$GPGSA,A,3,26,08,28,17,,,,,,,,,2.1,1.9,1.0*38
$GPRMC,193349.000,A,3748.7985,N,12217.8583,W,0.75,280.54,180811,,,A*7B
$GPVTG,280.54,T,,M,0.75,N,1.4,K,A*01
$GPGGA,193350.000,3748.7987,N,12217.8588,W,1,04,1.9,15.9,M,-25.1,M,,0000*5A
$GPGSA,A,3,26,08,28,17,,,,,,,,,2.1,1.9,1.0*38
$GPRMC,193350.000,A,3748.7987,N,12217.8588,W,0.55,282.63,180811,,,A*7E
$GPVTG,282.63,T,,M,0.55,N,1.0,K,A*01
$GPGGA,193351.000,3748.7988,N,12217.8593,W,1,04,1.9,13.6,M,-25.1,M,,0000*57
$GPGSA,A,3,26,08,28,17,,,,,,,,,2.1,1.9,1.0*38
$GPGSV,3,1,10,28,67,008,31,26,54,269,20,17,53,187,33,08,51,100,27*77
$GPGSV,3,2,10,07,26,116,,11,20,063,30,01,19,117,,24,16,078,28*72
$GPGSV,3,3,10,27,10,309,,48,44,197,28*7F
$GPRMC,193351.000,A,3748.7988,N,12217.8593,W,0.78,279.30,180811,,,A*77
$GPVTG,279.30,T,,M,0.78,N,1.5,K,A*09
$GPGGA,193352.000,3748.7991,N,12217.8600,W,1,04,1.9,9.6,M,-25.1,M,,0000*6E
$GPGSA,A,3,26,08,28,17,,,,,,,,,2.1,1.9,1.0*38
$GPRMC,193352.000,A,3748.7991,N,12217.8600,W,0.87,283.27,180811,,,A*76
$GPVTG,283.27,T,,M,0.87,N,1.6,K,A*09
$GPGGA,193353.000,3748.7989,N,12217.8597,W,1,04,1.9,11.0,M,-25.1,M,,0000*54
$GPGSA,A,3,26,08,28,17,,,,,,,,,2.1,1.9,1.0*38
$GPRMC,193353.000,A,3748.7989,N,12217.8597,W,0.33,285.81,180811,,,A*76
$GPVTG,285.81,T,,M,0.33,N,0.6,K,A*0D
$GPGGA,193354.000,3748.7989,N,12217.8594,W,1,04,1.9,11.8,M,-25.1,M,,0000*58
$GPGSA,A,3,26,08,28,17,,,,,,,,,2.1,1.9,1.0*38
$GPRMC,193354.000,A,3748.7989,N,12217.8594,W,0.10,20.79,180811,,,A*49
$GPVTG,20.79,T,,M,0.10,N,0.2,K,A*32
$GPGGA,193355.000,3748.7987,N,12217.8594,W,1,04,1.9,12.4,M,-25.1,M,,0000*58
$GPGSA,A,3,26,08,28,17,,,,,,,,,2.1,1.9,1.0*38
$GPRMC,193355.000,A,3748.7987,N,12217.8594,W,0.27,347.39,180811,,,A*74
$GPVTG,347.39,T,,M,0.27,N,0.5,K,A*07
$GPGGA,193356.000,3748.7987,N,12217.8594,W,1,04,1.9,11.8,M,-25.1,M,,0000*54
$GPGSA,A,3,26,08,28,17,,,,,,,,,2.1,1.9,1.0*38
$GPGSV,3,1,10,28,67,008,32,26,54,269,38,17,53,187,34,08,51,100,32*7E
$GPGSV,3,2,10,07,26,116,,11,20,063,26,01,19,117,,24,16,078,21*7C
$GPGSV,3,3,10,27,10,309,,48,44,197,34*72
$GPVTG,37.54,T,,M,0.22,N,0.4,K,A*3C
$GPGGA,193357.000,3748.7987,N,12217.8594,W,1,04,1.9,11.3,M,-25.1,M,,0000*5E
$GPGSA,A,3,26,08,28,17,,,,,,,,,2.1,1.9,1.0*38
$GPRMC,193357.000,A,3748.7987,N,12217.8594,W,0.16,246.84,180811,,,A*72
$GPVTG,246.84,T,,M,0.16,N,0.3,K,A*05
$GPGGA,193358.000,3748.7988,N,12217.8594,W,1,04,1.9,10.3,M,-25.1,M,,0000*5F
$GPGSA,A,3,26,08,28,17,,,,,,,,,2.1,1.9,1.0*38
$GPRMC,193358.000,A,3748.7988,N,12217.8594,W,0.47,358.68,180811,,,A*7A
$GPVTG,358.68,T,,M,0.47,N,0.9,K,A*07
$GPGGA,193359.000,3748.7988,N,12217.8595,W,1,04,1.9,9.5,M,-25.1,M,,0000*61
$GPGSA,A,3,26,08,28,17,,,,,,,,,2.1,1.9,1.0*38
$GPRMC,193359.000,A,3748.7988,N,12217.8595,W,0.45,218.61,180811,,,A*74
$GPVTG,218.61,T,,M,0.45,N,0.8,K,A*08
$GPGGA,193400.000,3748.7988,N,12217.8596,W,1,04,1.9,8.7,M,-25.1,M,,0000*6A
$GPGSA,A,3,26,08,28,17,,,,,,,,,2.1,1.9,1.0*38
$GPRMC,193400.000,A,3748.7988,N,12217.8596,W,0.21,321.95,180811,,,A*7E
$GPVTG,321.95,T,,M,0.21,N,0.4,K,A*06
$GPGGA,193401.000,3748.7995,N,12217.8596,W,1,04,1.9,5.8,M,-25.1,M,,0000*65
$GPGSA,A,3,26,08,28,17,,,,,,,,,2.1,1.9,1.0*38
$GPGSV,3,1,10,28,67,008,28,26,54,269,20,17,53,187,28,08,51,100,32*71
$GPGSV,3,2,10,07,26,116,,11,20,063,28,01,19,117,,24,16,078,26*75
$GPGSV,3,3,10,27,10,309,,48,44,197,26*71
$GPRMC,193401.000,A,3748.7995,N,12217.8596,W,0.66,27.49,180811,,,A*44
$GPVTG,27.49,T,,M,0.66,N,1.2,K,A*36
$GPGGA,193402.000,3748.8001,N,12217.8594,W,1,04,1.9,2.3,M,-25.1,M,,0000*63
$GPGSA,A,3,26,08,28,17,,,,,,,,,2.1,1.9,1.0*38
$GPRMC,193402.000,A,3748.8001,N,12217.8594,W,0.20,43.24,180811,,,A*45
$GPVTG,43.24,T,,M,0.20,N,0.4,K,A*3A
$GPGGA,193403.000,3748.8007,N,12217.8594,W,1,04,1.9,-2.0,M,-25.1,M,,0000*4A
$GPGSA,A,3,26,08,28,17,,,,,,,,,2.1,1.9,1.0*38
$GPRMC,193403.000,A,3748.8007,N,12217.8594,W,0.25,181.39,180811,,,A*74
$GPVTG,181.39,T,,M,0.25,N,0.5,K,A*0D
$GPGGA,193404.000,3748.8005,N,12217.8598,W,1,04,1.9,-3.2,M,-25.1,M,,0000*40
$GPGSA,A,3,26,08,28,17,,,,,,,,,2.1,1.9,1.0*38
$GPRMC,193404.000,A,3748.8005,N,12217.8598,W,0.62,220.70,180811,,,A*7B
$GPVTG,220.70,T,,M,0.62,N,1.1,K,A*0E
$GPGGA,193405.000,3748.8010,N,12217.8600,W,1,04,1.9,-6.0,M,-25.1,M,,0000*40
$GPGSA,A,3,26,08,28,17,,,,,,,,,2.1,1.9,1.0*38
$GPRMC,193405.000,A,3748.8010,N,12217.8600,W,0.21,315.31,180811,,,A*79
$GPVTG,315.31,T,,M,0.21,N,0.4,K,A*0F
$GPGGA,193406.000,3748.8010,N,12217.8603,W,1,04,1.9,-7.5,M,-25.1,M,,0000*44
$GPGSA,A,3,26,08,28,17,,,,,,,,,2.1,1.9,1.0*38
$GPGSV,3,1,10,28,67,008,28,26,54,269,31,17,53,187,25,08,51,100,30*7E
$GPGSV,3,2,10,07,26,116,,11,20,063,27,01,19,117,,24,16,078,28*74
$GPGSV,3,3,10,27,10,309,,48,44,197,26*71
$GPRMC,193406.000,A,3748.8010,N,12217.8603,W,0.58,336.38,180811,,,A*7F
$GPVTG,336.38,T,,M,0.58,N,1.1,K,A*0D
$GPGGA,193407.000,3748.8007,N,12217.8600,W,1,04,1.9,-5.9,M,-25.1,M,,0000*4E
$GPGSA,A,3,26,08,28,17,,,,,,,,,2.1,1.9,1.0*38
$GPRMC,193407.000,A,3748.8007,N,12217.8600,W,0.09,93.80,180811,,,A*40
$GPVTG,93.80,T,,M,0.09,N,0.2,K,A*34
$GPGGA,193408.000,3748.8009,N,12217.8597,W,1,04,1.9,-4.2,M,-25.1,M,,0000*48
$GPGSA,A,3,26,08,28,17,,,,,,,,,2.1,1.9,1.0*38
$GPRMC,193408.000,A,3748.8009,N,12217.8597,W,0.40,356.77,180811,,,A*73
$GPVTG,356.77,T,,M,0.40,N,0.7,K,A*0E
$GPGGA,193409.000,3748.8008,N,12217.8595,W,1,04,1.9,-2.1,M,-25.1,M,,0000*4F
$GPGSA,A,3,26,08,28,17,,,,,,,,,2.1,1.9,1.0*38
$GPRMC,193409.000,A,3748.8008,N,12217.8595,W,0.26,63.49,180811,,,A*49
$GPVTG,63.49,T,,M,0.26,N,0.5,K,A*34
$GPGGA,193410.000,3748.8005,N,12217.8594,W,1,04,1.9,-1.4,M,-25.1,M,,0000*4D
$GPGSA,A,3,26,08,28,17,,,,,,,,,2.1,1.9,1.0*38
$GPRMC,193410.000,A,3748.8005,N,12217.8594,W,0.08,64.06,180811,,,A*4D
$GPVTG,64.06,T,,M,0.08,N,0.2,K,A*33
$GPGGA,193411.000,3748.8003,N,12217.8593,W,1,04,1.9,-0.6,M,-25.1,M,,0000*4E
$GPGSA,A,3,26,08,28,17,,,,,,,,,2.1,1.9,1.0*38
$GPGSV,3,1,10,28,67,008,34,26,54,269,30,17,53,187,38,08,51,100,40*79
$GPGSV,3,2,10,07,26,116,25,11,20,063,34,01,19,117,,24,16,078,30*78
$GPGSV,3,3,10,27,10,309,26,48,44,197,35*77
$GPRMC,193411.000,A,3748.8003,N,12217.8593,W,0.04,264.65,180811,,,A*76
$GPVTG,264.65,T,,M,0.04,N,0.1,K,A*0B
$GPGGA,193412.000,3748.8002,N,12217.8594,W,1,04,1.9,-0.5,M,-25.1,M,,0000*48
$GPGSA,A,3,26,08,28,17,,,,,,,,,2.1,1.9,1.0*38
$GPRMC,193412.000,A,3748.8002,N,12217.8594,W,0.35,79.68,180811,,,A*42
$GPVTG,79.68,T,,M,0.35,N,0.7,K,A*3C
$GPGGA,193413.000,3748.8001,N,12217.8593,W,1,04,1.9,-1.0,M,-25.1,M,,0000*49
$GPGSA,A,3,26,08,28,17,,,,,,,,,2.1,1.9,1.0*38
$GPRMC,193413.000,A,3748.8001,N,12217.8593,W,0.36,77.53,180811,,,A*42
$GPVTG,77.53,T,,M,0.36,N,0.7,K,A*39
$GPGGA,193414.000,3748.7999,N,12217.8589,W,1,04,1.9,-1.7,M,-25.1,M,,0000*45
$GPGSA,A,3,26,08,28,17,,,,,,,,,2.1,1.9,1.0*38
$GPRMC,193414.000,A,3748.7999,N,12217.8589,W,0.63,107.47,180811,,,A*7A
$GPVTG,107.47,T,,M,0.63,N,1.2,K,A*0E
$GPGGA,193415.000,3748.7995,N,12217.8591,W,1,04,1.9,-1.2,M,-25.1,M,,0000*44
$GPGSA,A,3,26,08,28,17,,,,,,,,,2.1,1.9,1.0*38
$GPRMC,193415.000,A,3748.7995,N,12217.8591,W,0.19,237.78,180811,,,A*7F
$GPVTG,237.78,T,,M,0.19,N,0.3,K,A*0F
$GPGGA,193416.000,3748.8000,N,12217.8597,W,1,04,1.9,-1.1,M,-25.1,M,,0000*48
$GPGSA,A,3,26,08,28,17,,,,,,,,,2.1,1.9,1.0*38
$GPGSV,3,1,10,28,67,008,23,26,54,269,26,17,53,187,29,08,51,100,28*76
$GPGSV,3,2,10,07,26,116,23,11,20,063,28,01,19,117,,24,16,078,25*77
$GPGSV,3,3,10,27,10,309,24,48,44,197,24*75
$GPRMC,193416.000,A,3748.8000,N,12217.8597,W,0.46,318.61,180811,,,A*7E
$GPVTG,318.61,T,,M,0.46,N,0.8,K,A*0A
$GPGGA,193417.000,3748.8000,N,12217.8593,W,1,04,1.9,-0.5,M,-25.1,M,,0000*48
$GPGSA,A,3,26,08,28,17,,,,,,,,,2.1,1.9,1.0*38
$GPRMC,193417.000,A,3748.8000,N,12217.8593,W,0.11,245.74,180811,,,A*74
$GPVTG,245.74,T,,M,0.11,N,0.2,K,A*0F
$GPGGA,193418.000,3748.7999,N,12217.8593,W,1,04,1.9,-1.2,M,-25.1,M,,0000*47
$GPGSA,A,3,26,08,28,17,,,,,,,,,2.1,1.9,1.0*38
$GPRMC,193418.000,A,3748.7999,N,12217.8593,W,0.50,258.29,180811,,,A*7C
$GPVTG,258.29,T,,M,0.50,N,0.9,K,A*05
$GPGGA,193419.000,3748.8001,N,12217.8592,W,1,04,1.9,-2.0,M,-25.1,M,,0000*41
$GPGSA,A,3,26,08,28,17,,,,,,,,,2.1,1.9,1.0*38
$GPRMC,193419.000,A,3748.8001,N,12217.8592,W,0.67,340.02,180811,,,A*7E
$GPVTG,340.02,T,,M,0.67,N,1.2,K,A*0A
$GPGGA,193420.000,3748.8004,N,12217.8590,W,1,04,1.9,-2.0,M,-25.1,M,,0000*4C
$GPGSA,A,3,26,08,28,17,,,,,,,,,2.1,1.9,1.0*38
$GPRMC,193420.000,A,3748.8004,N,12217.8590,W,0.78,11.94,180811,,,A*45
$GPVTG,11.94,T,,M,0.78,N,1.4,K,A*3A
$GPGGA,193421.000,3748.8006,N,12217.8595,W,1,04,1.9,-3.2,M,-25.1,M,,0000*49
$GPGSA,A,3,26,08,28,17,,,,,,,,,2.1,1.9,1.0*38
$GPGSV,3,1,09,28,67,008,26,26,54,269,26,17,53,187,31,08,51,100,28*72
$GPGSV,3,2,09,07,26,116,31,11,20,063,28,01,19,117,,24,16,078,*7B
$GPGSV,3,3,09,27,10,309,31*4C
$GPVTG,287.97,T,,M,0.29,N,0.5,K,A*00
$GPGGA,193422.000,3748.8006,N,12217.8596,W,1,04,1.9,-4.4,M,-25.1,M,,0000*48
$GPGSA,A,3,26,08,28,17,,,,,,,,,2.1,1.9,1.0*38
$GPRMC,193422.000,A,3748.8006,N,12217.8596,W,0.22,286.27,180811,,,A*78
$GPVTG,286.27,T,,M,0.22,N,0.4,K,A*00
$GPGGA,193423.000,3748.8005,N,12217.8597,W,1,04,1.9,-4.8,M,-25.1,M,,0000*47
$GPGSA,A,3,26,08,28,17,,,,,,,,,2.1,1.9,1.0*38
$GPRMC,193423.000,A,3748.8005,N,12217.8597,W,0.35,16.54,180811,,,A*42
$GPVTG,16.54,T,,M,0.35,N,0.7,K,A*3A
$GPGGA,193424.000,3748.8010,N,12217.8598,W,1,04,1.9,-4.7,M,-25.1,M,,0000*44
$GPGSA,A,3,26,08,28,17,,,,,,,,,2.1,1.9,1.0*38
$GPRMC,193424.000,A,3748.8010,N,12217.8598,W,0.25,32.89,180811,,,A*49
$GPVTG,32.89,T,,M,0.25,N,0.5,K,A*3F
$GPGGA,193425.000,3748.8007,N,12217.8604,W,1,04,1.9,-5.7,M,-25.1,M,,0000*44
$GPGSA,A,3,26,08,28,17,,,,,,,,,2.1,1.9,1.0*38
$GPRMC,193425.000,A,3748.8007,N,12217.8604,W,0.33,197.72,180811,,,A*75
$GPVTG,197.72,T,,M,0.33,N,0.6,K,A*01
$GPGGA,193426.000,3748.8006,N,12217.8604,W,1,04,1.9,-7.3,M,-25.1,M,,0000*40
$GPGSA,A,3,26,08,28,17,,,,,,,,,2.1,1.9,1.0*38
$GPGSV,3,1,09,28,67,008,20,26,54,269,31,17,53,187,31,08,51,100,29*73
$GPGSV,3,2,09,07,26,116,12,11,20,063,25,01,19,117,,24,16,078,*77
$GPGSV,3,3,09,27,10,309,21*4D
$GPRMC,193426.000,A,3748.8006,N,12217.8604,W,0.31,294.66,180811,,,A*70
$GPVTG,294.66,T,,M,0.31,N,0.6,K,A*06
$GPGGA,193427.000,3748.8010,N,12217.8603,W,1,04,1.9,-7.6,M,-25.1,M,,0000*44
$GPGSA,A,3,26,08,28,17,,,,,,,,,2.1,1.9,1.0*38
$GPRMC,193427.000,A,3748.8010,N,12217.8603,W,0.36,356.00,180811,,,A*79
$GPVTG,356.00,T,,M,0.36,N,0.7,K,A*0F
$GPGGA,193428.000,3748.8004,N,12217.8604,W,1,04,1.9,-7.0,M,-25.1,M,,0000*4F
$GPGSA,A,3,26,08,28,17,,,,,,,,,2.1,1.9,1.0*38
$GPRMC,193428.000,A,3748.8004,N,12217.8604,W,0.27,337.04,180811,,,A*77
$GPVTG,337.04,T,,M,0.27,N,0.5,K,A*0E
$GPGGA,193429.000,3748.8000,N,12217.8603,W,1,04,1.9,-6.4,M,-25.1,M,,0000*48
$GPGSA,A,3,26,08,28,17,,,,,,,,,2.1,1.9,1.0*38
$GPRMC,193429.000,A,3748.8000,N,12217.8603,W,0.51,45.29,180811,,,A*4D
$GPVTG,45.29,T,,M,0.51,N,0.9,K,A*3A
$GPGGA,193430.000,3748.7996,N,12217.8604,W,1,04,1.9,-7.2,M,-25.1,M,,0000*49
$GPGSA,A,3,26,08,28,17,,,,,,,,,2.1,1.9,1.0*38
$GPRMC,193430.000,A,3748.7996,N,12217.8604,W,0.49,343.54,180811,,,A*7D
$GPVTG,343.54,T,,M,0.49,N,0.9,K,A*0C
$GPGGA,193431.000,3748.7994,N,12217.8607,W,1,04,1.9,-8.0,M,-25.1,M,,0000*44
$GPGSA,A,3,26,08,28,17,,,,,,,,,2.1,1.9,1.0*38
$GPGSV,3,1,09,28,67,008,20,26,54,269,31,17,53,187,27,08,51,100,30*7C
$GPGSV,3,2,09,07,26,116,29,11,20,063,20,01,19,117,,24,16,078,*7A
$GPGSV,3,3,09,27,10,309,31*4C
$GPRMC,193431.000,A,3748.7994,N,12217.8607,W,0.61,12.44,180811,,,A*41
$GPVTG,12.44,T,,M,0.61,N,1.1,K,A*39
$GPGGA,193432.000,3748.7991,N,12217.8607,W,1,04,1.9,-9.5,M,-25.1,M,,0000*46
$GPGSA,A,3,26,08,28,17,,,,,,,,,2.1,1.9,1.0*38
$GPRMC,193432.000,A,3748.7991,N,12217.8607,W,1.01,7.52,180811,,,A*73
$GPVTG,7.52,T,,M,1.01,N,1.9,K,A*05
$GPGGA,193433.000,3748.7994,N,12217.8606,W,1,04,1.9,-8.0,M,-25.1,M,,0000*47
$GPGSA,A,3,26,08,28,17,,,,,,,,,2.1,1.9,1.0*38
$GPRMC,193433.000,A,3748.7994,N,12217.8606,W,0.90,5.84,180811,,,A*76
$GPVTG,5.84,T,,M,0.90,N,1.7,K,A*0B
$GPGGA,193434.000,3748.7993,N,12217.8610,W,1,04,1.9,-10.0,M,-25.1,M,,0000*79
$GPGSA,A,3,26,08,28,17,,,,,,,,,2.1,1.9,1.0*38
$GPRMC,193434.000,A,3748.7993,N,12217.8610,W,1.00,322.24,180811,,,A*75
$GPVTG,322.24,T,,M,1.00,N,1.9,K,A*01
$GPGGA,193435.000,3748.7995,N,12217.8613,W,1,03,2.6,-9.7,M,-25.1,M,,0000*49
$GPGSA,A,2,26,08,17,,,,,,,,,,2.8,2.6,1.0*36
$GPRMC,193435.000,A,3748.7995,N,12217.8613,W,1.18,344.72,180811,,,A*7B
$GPVTG,344.72,T,,M,1.18,N,2.2,K,A*03
$GPGGA,193436.000,3748.7997,N,12217.8615,W,1,04,1.9,-9.0,M,-25.1,M,,0000*42
$GPGSA,A,3,26,08,28,17,,,,,,,,,2.1,1.9,1.0*38
$GPGSV,3,1,09,28,67,008,29,26,54,269,36,17,53,187,32,08,51,100,34*72
$GPGSV,3,2,09,07,26,116,31,11,20,063,26,01,19,117,,24,16,078,*75
$GPGSV,3,3,09,27,10,309,*4E
$GPRMC,193436.000,A,3748.7997,N,12217.8615,W,1.12,354.69,180811,,,A*7D
$GPVTG,354.69,T,,M,1.12,N,2.1,K,A*01
$GPGGA,193437.000,3748.8000,N,12217.8614,W,1,04,1.9,-7.9,M,-25.1,M,,0000*4D
$GPGSA,A,3,26,08,28,17,,,,,,,,,2.1,1.9,1.0*38
$GPRMC,193437.000,A,3748.8000,N,12217.8614,W,0.53,3.05,180811,,,A*7A
$GPVTG,3.05,T,,M,0.53,N,1.0,K,A*0C
$GPGGA,193438.000,3748.8003,N,12217.8615,W,1,04,1.9,-7.5,M,-25.1,M,,0000*4C
$GPGSA,A,3,26,08,28,17,,,,,,,,,2.1,1.9,1.0*38
$GPRMC,193438.000,A,3748.8003,N,12217.8615,W,0.18,269.87,180811,,,A*7C
$GPVTG,269.87,T,,M,0.18,N,0.3,K,A*05
$GPGGA,193439.000,3748.8004,N,12217.8614,W,1,04,1.9,-6.8,M,-25.1,M,,0000*47
$GPGSA,A,3,26,08,28,17,,,,,,,,,2.1,1.9,1.0*38
$GPRMC,193439.000,A,3748.8004,N,12217.8614,W,0.12,72.46,180811,,,A*44
$GPVTG,72.46,T,,M,0.12,N,0.2,K,A*3B
$GPGGA,193440.000,3748.8005,N,12217.8613,W,1,04,1.9,-6.4,M,-25.1,M,,0000*43
$GPGSA,A,3,26,08,28,17,,,,,,,,,2.1,1.9,1.0*38
$GPRMC,193440.000,A,3748.8005,N,12217.8613,W,0.21,92.82,180811,,,A*4A
$GPVTG,92.82,T,,M,0.21,N,0.4,K,A*3B
$GPGGA,193441.000,3748.8005,N,12217.8612,W,1,04,1.9,-6.2,M,-25.1,M,,0000*45
$GPGSA,A,3,26,08,28,17,,,,,,,,,2.1,1.9,1.0*38
$GPGSV,3,1,10,28,67,008,38,26,54,269,40,17,53,187,36,08,51,100,35*7E
$GPGSV,3,2,10,07,26,116,31,11,20,063,34,01,19,117,,24,16,078,*7E
$GPGSV,3,3,10,27,10,309,31,51,43,156,30*76
$GPRMC,193441.000,A,3748.8005,N,12217.8612,W,0.06,100.09,180811,,,A*76
$GPVTG,100.09,T,,M,0.06,N,0.1,K,A*02
$GPGGA,193442.000,3748.8006,N,12217.8612,W,1,04,1.9,-6.1,M,-25.1,M,,0000*46
$GPGSA,A,3,26,08,28,17,,,,,,,,,2.1,1.9,1.0*38
$GPRMC,193442.000,A,3748.8006,N,12217.8612,W,0.07,244.29,180811,,,A*76
$GPVTG,244.29,T,,M,0.07,N,0.1,K,A*02
$GPGGA,193443.000,3748.8006,N,12217.8612,W,1,04,1.9,-6.0,M,-25.1,M,,0000*46
$GPGSA,A,3,26,08,28,17,,,,,,,,,2.1,1.9,1.0*38
$GPRMC,193443.000,A,3748.8006,N,12217.8612,W,0.02,144.46,180811,,,A*78
$GPVTG,144.46,T,,M,0.02,N,0.0,K,A*0C
$GPGGA,193444.000,3748.8006,N,12217.8611,W,1,04,1.9,-6.0,M,-25.1,M,,0000*42
$GPGSA,A,3,26,08,28,17,,,,,,,,,2.1,1.9,1.0*38
$GPRMC,193444.000,A,3748.8006,N,12217.8611,W,0.19,90.87,180811,,,A*43
$GPVTG,90.87,T,,M,0.19,N,0.4,K,A*37
$GPGGA,193445.000,3748.8007,N,12217.8611,W,1,04,1.9,-6.1,M,-25.1,M,,0000*43
$GPGSA,A,3,26,08,28,17,,,,,,,,,2.1,1.9,1.0*38
$GPRMC,193445.000,A,3748.8007,N,12217.8611,W,0.27,15.40,180811,,,A*48
$GPVTG,15.40,T,,M,0.27,N,0.5,K,A*3D
$GPGGA,193446.000,3748.8008,N,12217.8611,W,1,04,1.9,-6.2,M,-25.1,M,,0000*4C
$GPGSA,A,3,26,08,28,17,,,,,,,,,2.1,1.9,1.0*38
$GPGSV,3,1,10,28,67,009,36,26,54,268,33,17,53,187,43,08,50,101,39*7A
$GPGSV,3,2,10,07,25,117,33,01,20,116,,11,20,062,35,24,16,077,*7A
$GPGSV,3,3,10,27,11,309,18,51,43,156,37*7B
$GPRMC,193446.000,A,3748.8008,N,12217.8611,W,0.14,355.85,180811,,,A*7A
$GPGGA,193447.000,3748.8008,N,12217.8610,W,1,04,1.9,-6.4,M,-25.1,M,,0000*4A
$GPGSA,A,3,26,08,28,17,,,,,,,,,2.1,1.9,1.0*38
$GPRMC,193447.000,A,3748.8008,N,12217.8610,W,0.31,122.02,180811,,,A*70
$GPVTG,122.02,T,,M,0.31,N,0.6,K,A*0A
$GPGGA,193448.000,3748.8008,N,12217.8610,W,1,04,1.9,-6.7,M,-25.1,M,,0000*46
$GPGSA,A,3,26,08,28,17,,,,,,,,,2.1,1.9,1.0*38
$GPRMC,193448.000,A,3748.8008,N,12217.8610,W,0.14,35.04,180811,,,A*49
$GPVTG,35.04,T,,M,0.14,N,0.3,K,A*39
$GPGGA,193449.000,3748.8008,N,12217.8609,W,1,04,1.9,-6.9,M,-25.1,M,,0000*41
$GPGSA,A,3,26,08,28,17,,,,,,,,,2.1,1.9,1.0*38
$GPRMC,193449.000,A,3748.8008,N,12217.8609,W,0.27,38.17,180811,,,A*4F
$GPVTG,38.17,T,,M,0.27,N,0.5,K,A*30
$GPGGA,193450.000,3748.8009,N,12217.8609,W,1,04,1.9,-7.2,M,-25.1,M,,0000*42
$GPGSA,A,3,26,08,28,17,,,,,,,,,2.1,1.9,1.0*38
$GPRMC,193450.000,A,3748.8009,N,12217.8609,W,0.24,33.34,180811,,,A*4F
$GPVTG,33.34,T,,M,0.24,N,0.4,K,A*38
$GPGGA,193451.000,3748.8009,N,12217.8608,W,1,04,1.9,-7.4,M,-25.1,M,,0000*44
$GPGSA,A,3,26,08,28,17,,,,,,,,,2.1,1.9,1.0*38
$GPGSV,3,1,09,28,67,009,38,26,54,268,36,17,53,187,32,08,50,101,40*71
$GPGSV,3,2,09,07,25,117,36,01,20,116,,11,20,062,36,24,16,077,32*75
$GPGSV,3,3,09,27,11,309,29*44
$GPRMC,193451.000,A,3748.8009,N,12217.8608,W,0.16,6.42,180811,,,A*79
$GPVTG,6.42,T,,M,0.16,N,0.3,K,A*09
$GPGGA,193452.000,3748.8010,N,12217.8609,W,1,04,1.9,-7.6,M,-25.1,M,,0000*4C
$GPGSA,A,3,26,08,28,17,,,,,,,,,2.1,1.9,1.0*38
$GPRMC,193452.000,A,3748.8010,N,12217.8609,W,0.45,290.29,180811,,,A*75
$GPVTG,290.29,T,,M,0.45,N,0.8,K,A*04
$GPGGA,193453.000,3748.8009,N,12217.8610,W,1,04,1.9,-7.8,M,-25.1,M,,0000*43
$GPGSA,A,3,26,08,28,17,,,,,,,,,2.1,1.9,1.0*38
$GPRMC,193453.000,A,3748.8009,N,12217.8610,W,0.13,142.48,180811,,,A*7C
$GPVTG,142.48,T,,M,0.13,N,0.2,K,A*06
$GPGGA,193454.000,3748.8009,N,12217.8610,W,1,04,1.9,-8.1,M,-25.1,M,,0000*42
$GPGSA,A,3,26,08,28,17,,,,,,,,,2.1,1.9,1.0*38
$GPRMC,193454.000,A,3748.8009,N,12217.8610,W,0.13,235.06,180811,,,A*72
$GPVTG,235.06,T,,M,0.13,N,0.2,K,A*0F
$GPGGA,193455.000,3748.8008,N,12217.8610,W,1,04,1.9,-8.4,M,-25.1,M,,0000*47
$GPGSA,A,3,26,08,28,17,,,,,,,,,2.1,1.9,1.0*38
$GPRMC,193455.000,A,3748.8008,N,12217.8610,W,0.08,214.74,180811,,,A*7E
$GPVTG,214.74,T,,M,0.08,N,0.1,K,A*00
$GPGGA,193456.000,3748.8009,N,12217.8610,W,1,04,1.9,-8.6,M,-25.1,M,,0000*47
$GPGSA,A,3,26,08,28,17,,,,,,,,,2.1,1.9,1.0*38
$GPGSV,3,1,09,28,67,009,28,26,54,268,24,17,53,187,33,08,50,101,36*73
$GPGSV,3,2,09,07,25,117,41,01,20,116,,11,20,062,34,24,16,077,29*7D
$GPGSV,3,3,09,27,11,309,22*4F
$GPRMC,193456.000,A,3748.8009,N,12217.8610,W,0.38,308.90,180811,,,A*79
$GPVTG,308.90,T,,M,0.38,N,0.7,K,A*03
$GPGGA,193457.000,3748.8008,N,12217.8607,W,1,04,1.9,-7.8,M,-25.1,M,,0000*40
$GPGSA,A,3,26,08,28,17,,,,,,,,,2.1,1.9,1.0*38
$GPRMC,193457.000,A,3748.8008,N,12217.8607,W,0.33,301.24,180811,,,A*72
$GPVTG,301.24,T,,M,0.33,N,0.6,K,A*0F
$GPGGA,193458.000,3748.8007,N,12217.8605,W,1,04,1.9,-7.7,M,-25.1,M,,0000*4D
$GPGSA,A,3,26,08,28,17,,,,,,,,,2.1,1.9,1.0*38
$GPRMC,193458.000,A,3748.8007,N,12217.8605,W,0.24,91.15,180811,,,A*4E
$GPVTG,91.15,T,,M,0.24,N,0.4,K,A*33
$GPGGA,193459.000,3748.8006,N,12217.8602,W,1,04,1.9,-7.3,M,-25.1,M,,0000*4E
$GPGSA,A,3,26,08,28,17,,,,,,,,,2.1,1.9,1.0*38
$GPRMC,193459.000,A,3748.8006,N,12217.8602,W,0.18,108.24,180811,,,A*75
$GPVTG,108.24,T,,M,0.18,N,0.3,K,A*08
$GPGGA,193500.000,3748.8005,N,12217.8599,W,1,04,1.9,-6.9,M,-25.1,M,,0000*4A
$GPGSA,A,3,26,08,28,17,,,,,,,,,2.1,1.9,1.0*38
$GPRMC,193500.000,A,3748.8005,N,12217.8599,W,0.10,193.23,180811,,,A*77
$GPVTG,193.23,T,,M,0.10,N,0.2,K,A*04
$GPGGA,193501.000,3748.8003,N,12217.8598,W,1,04,1.9,-6.6,M,-25.1,M,,0000*43
$GPGSA,A,3,26,08,28,17,,,,,,,,,2.1,1.9,1.0*38
$GPGSV,3,1,09,28,67,009,33,26,54,268,25,17,53,187,32,08,50,101,37*78
$GPGSV,3,2,09,07,25,117,39,01,20,116,,11,20,062,32,24,16,077,30*7C
$GPGSV,3,3,09,27,11,309,26*4B
$GPRMC,193501.000,A,3748.8003,N,12217.8598,W,0.30,104.70,180811,,,A*7B
$GPVTG,104.70,T,,M,0.30,N,0.5,K,A*09
$GPGGA,193502.000,3748.8002,N,12217.8595,W,1,04,1.9,-6.3,M,-25.1,M,,0000*49
$GPGSA,A,3,26,08,28,17,,,,,,,,,2.1,1.9,1.0*38
$GPRMC,193502.000,A,3748.8002,N,12217.8595,W,0.04,123.17,180811,,,A*77
$GPVTG,123.17,T,,M,0.04,N,0.1,K,A*0E
$GPGGA,193503.000,3748.8002,N,12217.8594,W,1,05,1.8,-6.2,M,-25.1,M,,0000*48
$GPGSA,A,3,26,08,28,11,17,,,,,,,,3.6,1.8,3.1*3C
$GPRMC,193503.000,A,3748.8002,N,12217.8594,W,0.09,148.77,180811,,,A*71
$GPVTG,148.77,T,,M,0.09,N,0.2,K,A*0B
$GPGGA,193504.000,3748.8001,N,12217.8594,W,1,05,1.8,-6.0,M,-25.1,M,,0000*4E
$GPGSA,A,3,26,08,28,11,17,,,,,,,,3.6,1.8,3.1*3C
$GPRMC,193504.000,A,3748.8001,N,12217.8594,W,0.27,241.90,180811,,,A*7A
$GPVTG,241.90,T,,M,0.27,N,0.5,K,A*03
$GPGGA,193505.000,3748.8000,N,12217.8593,W,1,05,1.8,-6.1,M,-25.1,M,,0000*48
$GPGSA,A,3,26,08,28,11,17,,,,,,,,3.6,1.8,3.1*3C
$GPRMC,193505.000,A,3748.8000,N,12217.8593,W,0.43,138.38,180811,,,A*70
$GPVTG,138.38,T,,M,0.43,N,0.8,K,A*03
$GPGGA,193506.000,3748.7999,N,12217.8593,W,1,05,1.8,-5.8,M,-25.1,M,,0000*47
$GPGSA,A,3,26,08,28,11,17,,,,,,,,3.6,1.8,3.1*3C
$GPGSV,3,1,09,28,67,010,23,26,54,268,24,17,53,187,34,08,50,101,31*70
$GPGSV,3,2,09,07,25,117,25,01,20,116,,11,20,062,35,24,16,077,32*74
$GPGSV,3,3,09,27,11,309,20*4D
$GPRMC,193506.000,A,3748.7999,N,12217.8593,W,0.81,155.70,180811,,,A*7C
$GPVTG,155.70,T,,M,0.81,N,1.5,K,A*06
$GPGGA,193507.000,3748.7997,N,12217.8590,W,1,05,1.8,-5.1,M,-25.1,M,,0000*42
$GPGSA,A,3,26,08,28,11,17,,,,,,,,3.6,1.8,3.1*3C
$GPRMC,193507.000,A,3748.7997,N,12217.8590,W,0.36,117.97,180811,,,A*73
$GPVTG,117.97,T,,M,0.36,N,0.7,K,A*06
$GPGGA,193508.000,3748.7996,N,12217.8589,W,1,05,1.8,-5.5,M,-25.1,M,,0000*40
$GPGSA,A,3,26,08,28,11,17,,,,,,,,3.6,1.8,3.1*3C
$GPRMC,193508.000,A,3748.7996,N,12217.8589,W,0.13,89.74,180811,,,A*49
$GPVTG,89.74,T,,M,0.13,N,0.2,K,A*3F
$GPGGA,193509.000,3748.7991,N,12217.8591,W,1,05,1.8,-7.7,M,-25.1,M,,0000*4F
$GPGSA,A,3,26,08,28,11,17,,,,,,,,3.6,1.8,3.1*3C
$GPRMC,193509.000,A,3748.7991,N,12217.8591,W,0.20,260.10,180811,,,A*71
$GPVTG,260.10,T,,M,0.20,N,0.4,K,A*0E
$GPGGA,193510.000,3748.7989,N,12217.8591,W,1,05,1.8,-8.5,M,-25.1,M,,0000*43
$GPGSA,A,3,26,08,28,11,17,,,,,,,,3.6,1.8,3.1*3C
$GPRMC,193510.000,A,3748.7989,N,12217.8591,W,0.44,154.79,180811,,,A*79
$GPVTG,154.79,T,,M,0.44,N,0.8,K,A*0B
$GPGGA,193511.000,3748.7982,N,12217.8585,W,1,05,1.8,-8.6,M,-25.1,M,,0000*4F
$GPGSA,A,3,26,08,28,11,17,,,,,,,,3.6,1.8,3.1*3C
$GPGSV,3,1,10,28,67,010,23,26,54,268,25,17,53,187,18,08,50,101,33*75
$GPGSV,3,2,10,07,25,117,36,01,20,116,,11,20,062,35,24,16,077,32*7E
$GPGSV,3,3,10,27,11,309,20,51,43,156,32*75
$GPRMC,193511.000,A,3748.7982,N,12217.8585,W,0.97,161.56,180811,,,A*73
$GPGGA,193512.000,3748.7977,N,12217.8579,W,1,04,2.6,-8.3,M,-25.1,M,,0000*4C
$GPGSA,A,3,26,08,28,11,,,,,,,,,4.1,2.6,3.2*34
$GPRMC,193512.000,A,3748.7977,N,12217.8579,W,0.55,172.74,180811,,,A*75
$GPVTG,172.74,T,,M,0.55,N,1.0,K,A*0B
$GPGGA,193513.000,3748.7973,N,12217.8569,W,1,04,2.6,-7.8,M,-25.1,M,,0000*4C
$GPGSA,A,3,26,08,28,11,,,,,,,,,4.1,2.6,3.2*34
$GPRMC,193513.000,A,3748.7973,N,12217.8569,W,0.92,157.92,180811,,,A*75
$GPVTG,157.92,T,,M,0.92,N,1.7,K,A*08
$GPGGA,193514.000,3748.7971,N,12217.8568,W,1,04,2.6,-8.2,M,-25.1,M,,0000*4D
$GPGSA,A,3,26,08,28,11,,,,,,,,,4.1,2.6,3.2*34
$GPRMC,193514.000,A,3748.7971,N,12217.8568,W,0.38,172.82,180811,,,A*77
$GPVTG,172.82,T,,M,0.38,N,0.7,K,A*0F
$GPGGA,193515.000,3748.7967,N,12217.8570,W,1,04,2.6,-9.1,M,-25.1,M,,0000*40
$GPGSA,A,3,26,08,28,11,,,,,,,,,4.1,2.6,3.2*34
$GPRMC,193515.000,A,3748.7967,N,12217.8570,W,0.71,189.77,180811,,,A*7B
$GPVTG,189.77,T,,M,0.71,N,1.3,K,A*09
$GPGGA,193516.000,3748.7963,N,12217.8572,W,1,04,2.6,-9.6,M,-25.1,M,,0000*42
$GPGSA,A,3,26,08,28,11,,,,,,,,,4.1,2.6,3.2*34
$GPGSV,3,1,09,28,67,010,24,26,54,267,31,17,54,187,24,08,50,101,35*7E
$GPGSV,3,2,09,07,25,117,30,01,20,116,,11,20,062,33,24,16,077,32*76
$GPGSV,3,3,09,27,11,309,17*49
$GPRMC,193516.000,A,3748.7963,N,12217.8572,W,0.90,178.91,180811,,,A*77
$GPVTG,178.91,T,,M,0.90,N,1.7,K,A*04
$GPGGA,193517.000,3748.7965,N,12217.8573,W,1,05,1.8,-9.3,M,-25.1,M,,0000*4D
$GPGSA,A,3,26,08,28,11,17,,,,,,,,3.6,1.8,3.1*3C
$GPRMC,193517.000,A,3748.7965,N,12217.8573,W,0.16,188.20,180811,,,A*7A
$GPVTG,188.20,T,,M,0.16,N,0.3,K,A*0A
$GPGGA,193518.000,3748.7965,N,12217.8573,W,1,05,1.8,-8.6,M,-25.1,M,,0000*46
$GPGSA,A,3,26,08,28,11,17,,,,,,,,3.6,1.8,3.1*3C
$GPRMC,193518.000,A,3748.7965,N,12217.8573,W,0.16,32.47,180811,,,A*44
$GPVTG,32.47,T,,M,0.16,N,0.3,K,A*3B
$GPGGA,193519.000,3748.7971,N,12217.8572,W,1,05,1.8,-7.5,M,-25.1,M,,0000*4F
$GPGSA,A,3,26,08,28,11,17,,,,,,,,3.6,1.8,3.1*3C
$GPRMC,193519.000,A,3748.7971,N,12217.8572,W,1.16,329.30,180811,,,A*79
$GPVTG,329.30,T,,M,1.16,N,2.1,K,A*03
$GPGGA,193520.000,3748.7981,N,12217.8576,W,1,05,1.8,-7.0,M,-25.1,M,,0000*4B
$GPGSA,A,3,26,08,28,11,17,,,,,,,,3.6,1.8,3.1*3C
$GPRMC,193520.000,A,3748.7981,N,12217.8576,W,0.84,296.57,180811,,,A*76
$GPVTG,296.57,T,,M,0.84,N,1.6,K,A*09
$GPGGA,193521.000,3748.7986,N,12217.8583,W,1,06,1.6,-6.4,M,-25.1,M,,0000*4F
$GPGSA,A,3,26,08,28,11,17,07,,,,,,,3.3,1.6,2.9*39
$GPGSV,3,1,09,28,67,010,34,26,54,267,33,17,54,187,24,08,50,101,30*78
$GPGSV,3,2,09,07,25,117,27,01,20,116,,11,20,062,38,24,16,077,34*7D
$GPGSV,3,3,09,27,11,309,28*45
$GPRMC,193521.000,A,3748.7986,N,12217.8583,W,0.45,291.31,180811,,,A*70
$GPVTG,291.31,T,,M,0.45,N,0.8,K,A*0C
$GPGGA,193522.000,3748.7984,N,12217.8583,W,1,06,1.6,-6.6,M,-25.1,M,,0000*4C
$GPGSA,A,3,26,08,28,11,17,07,,,,,,,3.3,1.6,2.9*39
$GPRMC,193522.000,A,3748.7984,N,12217.8583,W,0.10,219.09,180811,,,A*7A
$GPVTG,219.09,T,,M,0.10,N,0.2,K,A*0D
$GPGGA,193523.000,3748.7984,N,12217.8584,W,1,06,1.6,-6.7,M,-25.1,M,,0000*4B
$GPGSA,A,3,26,08,28,11,17,07,,,,,,,3.3,1.6,2.9*39
$GPRMC,193523.000,A,3748.7984,N,12217.8584,W,0.14,302.21,180811,,,A*79
$GPVTG,302.21,T,,M,0.14,N,0.3,K,A*09
$GPGGA,193524.000,3748.7990,N,12217.8583,W,1,06,1.6,-6.1,M,-25.1,M,,0000*48
$GPGSA,A,3,26,08,28,11,17,07,,,,,,,3.3,1.6,2.9*39
$GPRMC,193524.000,A,3748.7990,N,12217.8583,W,0.44,221.81,180811,,,A*73
$GPVTG,221.81,T,,M,0.44,N,0.8,K,A*0D
$GPGGA,193525.000,3748.7991,N,12217.8584,W,1,06,1.6,-6.0,M,-25.1,M,,0000*4E
$GPGSA,A,3,26,08,28,11,17,07,,,,,,,3.3,1.6,2.9*39
$GPRMC,193525.000,A,3748.7991,N,12217.8584,W,0.22,188.25,180811,,,A*7A
$GPVTG,188.25,T,,M,0.22,N,0.4,K,A*0F
$GPGGA,193526.000,3748.7993,N,12217.8584,W,1,06,1.6,-5.8,M,-25.1,M,,0000*44
$GPGSA,A,3,26,08,28,11,17,07,,,,,,,3.3,1.6,2.9*39
$GPGSV,3,1,09,28,67,010,34,26,54,267,39,17,54,187,37,08,50,101,38*78
$GPGSV,3,2,09,07,25,117,38,01,20,116,,11,20,062,33,24,16,077,32*7E
$GPGSV,3,3,09,27,11,309,31*4D
$GPRMC,193526.000,A,3748.7993,N,12217.8584,W,0.16,40.39,180811,,,A*44
$GPVTG,40.39,T,,M,0.16,N,0.3,K,A*37
$GPGGA,193527.000,3748.7991,N,12217.8584,W,1,06,1.6,-4.3,M,-25.1,M,,0000*4D
$GPGSA,A,3,26,08,28,11,17,07,,,,,,,3.3,1.6,2.9*39
$GPRMC,193527.000,A,3748.7991,N,12217.8584,W,0.21,74.50,180811,,,A*4B
$GPVTG,74.50,T,,M,0.21,N,0.4,K,A*3C
$GPGGA,193528.000,3748.7989,N,12217.8584,W,1,06,1.6,-3.4,M,-25.1,M,,0000*4B
$GPGSA,A,3,26,08,28,11,17,07,,,,,,,3.3,1.6,2.9*39
$GPRMC,193528.000,A,3748.7989,N,12217.8584,W,0.31,76.18,180811,,,A*42
$GPVTG,76.18,T,,M,0.31,N,0.6,K,A*31
$GPGGA,193529.000,3748.7987,N,12217.8584,W,1,06,1.6,-2.4,M,-25.1,M,,0000*45
$GPGSA,A,3,26,08,28,11,17,07,,,,,,,3.3,1.6,2.9*39
$GPRMC,193529.000,A,3748.7987,N,12217.8584,W,0.30,91.22,180811,,,A*4C
$GPVTG,91.22,T,,M,0.30,N,0.5,K,A*33
$GPGGA,193530.000,3748.7986,N,12217.8584,W,1,06,1.6,-1.6,M,-25.1,M,,0000*4D
$GPGSA,A,3,26,08,28,11,17,07,,,,,,,3.3,1.6,2.9*39
$GPRMC,193530.000,A,3748.7986,N,12217.8584,W,0.07,26.12,180811,,,A*4E
$GPVTG,26.12,T,,M,0.07,N,0.1,K,A*3C
$GPGGA,193531.000,3748.7985,N,12217.8585,W,1,06,1.6,-1.0,M,-25.1,M,,0000*48
$GPGSA,A,3,26,08,28,11,17,07,,,,,,,3.3,1.6,2.9*39
$GPGSV,3,1,09,28,67,010,35,26,54,267,32,17,54,187,33,08,50,101,36*78
$GPGSV,3,2,09,07,25,117,31,01,20,116,,11,20,062,36,24,16,077,33*73
$GPGSV,3,3,09,27,11,309,25*48
$GPRMC,193531.000,A,3748.7985,N,12217.8585,W,0.02,245.19,180811,,,A*74
$GPVTG,245.19,T,,M,0.02,N,0.0,K,A*04
$GPGGA,193532.000,3748.7985,N,12217.8585,W,1,06,1.6,-0.8,M,-25.1,M,,0000*42
$GPGSA,A,3,26,08,28,11,17,07,,,,,,,3.3,1.6,2.9*39
$GPRMC,193532.000,A,3748.7985,N,12217.8585,W,0.61,60.65,180811,,,A*4C
$GPVTG,60.65,T,,M,0.61,N,1.1,K,A*3F
$GPGGA,193533.000,3748.7985,N,12217.8584,W,1,06,1.6,-0.4,M,-25.1,M,,0000*4E
$GPGSA,A,3,26,08,28,11,17,07,,,,,,,3.3,1.6,2.9*39
$GPRMC,193533.000,A,3748.7985,N,12217.8584,W,0.45,130.23,180811,,,A*7C
$GPVTG,130.23,T,,M,0.45,N,0.8,K,A*07
$GPGGA,193534.000,3748.7984,N,12217.8585,W,1,06,1.6,-0.3,M,-25.1,M,,0000*4E
$GPGSA,A,3,26,08,28,11,17,07,,,,,,,3.3,1.6,2.9*39
$GPRMC,193534.000,A,3748.7984,N,12217.8585,W,0.25,115.20,180811,,,A*79
$GPVTG,115.20,T,,M,0.25,N,0.5,K,A*08
$GPGGA,193535.000,3748.7984,N,12217.8585,W,1,06,1.6,-0.1,M,-25.1,M,,0000*4D
$GPGSA,A,3,26,08,28,11,17,07,,,,,,,3.3,1.6,2.9*39
$GPRMC,193535.000,A,3748.7984,N,12217.8585,W,0.32,37.42,180811,,,A*4B
$GPVTG,37.42,T,,M,0.32,N,0.6,K,A*38
$GPGGA,193536.000,3748.7984,N,12217.8583,W,1,06,1.6,0.5,M,-25.1,M,,0000*61
$GPGSA,A,3,26,08,28,11,17,07,,,,,,,3.3,1.6,2.9*39
$GPGSV,3,1,09,28,67,010,30,26,54,267,28,17,54,187,23,08,50,101,36*77
$GPGSV,3,2,09,07,25,117,37,01,20,116,,11,20,062,38,24,16,077,34*7C
$GPGSV,3,3,09,27,11,309,17*49
$GPRMC,193536.000,A,3748.7984,N,12217.8583,W,0.12,59.51,180811,,,A*46
$GPVTG,59.51,T,,M,0.12,N,0.2,K,A*34
$GPGGA,193537.000,3748.7984,N,12217.8581,W,1,06,1.6,1.2,M,-25.1,M,,0000*64
$GPGSA,A,3,26,08,28,11,17,07,,,,,,,3.3,1.6,2.9*39
$GPRMC,193537.000,A,3748.7984,N,12217.8581,W,0.11,31.72,180811,,,A*49
$GPVTG,31.72,T,,M,0.11,N,0.2,K,A*38
$GPGGA,193538.000,3748.7984,N,12217.8584,W,1,06,1.6,1.0,M,-25.1,M,,0000*6C
$GPGSA,A,3,26,08,28,11,17,07,,,,,,,3.3,1.6,2.9*39
$GPRMC,193538.000,A,3748.7984,N,12217.8584,W,0.15,302.62,180811,,,A*75
$GPVTG,302.62,T,,M,0.15,N,0.3,K,A*0F
$GPGGA,193539.000,3748.7985,N,12217.8587,W,1,06,1.6,0.7,M,-25.1,M,,0000*69
$GPGSA,A,3,26,08,28,11,17,07,,,,,,,3.3,1.6,2.9*39
$GPRMC,193539.000,A,3748.7985,N,12217.8587,W,0.02,326.87,180811,,,A*7D
$GPVTG,326.87,T,,M,0.02,N,0.0,K,A*07
$GPGGA,193540.000,3748.7987,N,12217.8588,W,1,06,1.6,1.2,M,-25.1,M,,0000*6E
$GPGSA,A,3,26,08,28,11,17,07,,,,,,,3.3,1.6,2.9*39
$GPRMC,193540.000,A,3748.7987,N,12217.8588,W,0.20,256.31,180811,,,A*75
$GPVTG,256.31,T,,M,0.20,N,0.4,K,A*08
$GPGGA,193541.000,3748.7988,N,12217.8590,W,1,06,1.6,1.1,M,-25.1,M,,0000*6A
$GPGSA,A,3,26,08,28,11,17,07,,,,,,,3.3,1.6,2.9*39
$GPGSV,3,1,09,28,67,010,27,26,54,267,32,17,54,187,35,08,50,101,37*7C
$GPGSV,3,2,09,07,25,117,37,01,20,116,,11,20,062,38,24,16,077,38*70
$GPGSV,3,3,09,27,11,309,21*4C
$GPRMC,193541.000,A,3748.7988,N,12217.8590,W,0.41,96.94,180811,,,A*44
$GPVTG,96.94,T,,M,0.41,N,0.8,K,A*32
$GPGGA,193542.000,3748.7988,N,12217.8590,W,1,06,1.6,1.1,M,-25.1,M,,0000*69
$GPGSA,A,3,26,08,28,11,17,07,,,,,,,3.3,1.6,2.9*39
$GPRMC,193542.000,A,3748.7988,N,12217.8590,W,0.39,64.69,180811,,,A*47
$GPVTG,64.69,T,,M,0.39,N,0.7,K,A*3D
$GPGGA,193543.000,3748.7989,N,12217.8593,W,1,06,1.6,0.1,M,-25.1,M,,0000*6B
$GPGSA,A,3,26,08,28,11,17,07,,,,,,,3.3,1.6,2.9*39
$GPRMC,193543.000,A,3748.7989,N,12217.8593,W,1.13,94.57,180811,,,A*4F
$GPVTG,94.57,T,,M,1.13,N,2.1,K,A*32
$GPGGA,193544.000,3748.7987,N,12217.8594,W,1,06,1.6,-1.1,M,-25.1,M,,0000*49
$GPGSA,A,3,26,08,28,11,17,07,,,,,,,3.3,1.6,2.9*39
$GPRMC,193544.000,A,3748.7987,N,12217.8594,W,0.29,96.55,180811,,,A*49
$GPVTG,96.55,T,,M,0.29,N,0.5,K,A*3C
$GPGGA,193545.000,3748.7986,N,12217.8596,W,1,06,1.6,-2.3,M,-25.1,M,,0000*4A
$GPGSA,A,3,26,08,28,11,17,07,,,,,,,3.3,1.6,2.9*39
$GPRMC,193545.000,A,3748.7986,N,12217.8596,W,0.20,358.37,180811,,,A*77
$GPVTG,358.37,T,,M,0.20,N,0.4,K,A*01
$GPGGA,193546.000,3748.7984,N,12217.8597,W,1,06,1.6,-2.6,M,-25.1,M,,0000*4F
$GPGSA,A,3,26,08,28,11,17,07,,,,,,,3.3,1.6,2.9*39
$GPGSV,3,1,09,28,67,010,23,26,54,267,29,17,54,187,24,08,50,101,32*77
$GPGSV,3,2,09,07,25,117,32,01,20,116,,11,20,062,32,24,16,077,29*7F
$GPGSV,3,3,09,27,11,309,21*4C
$GPRMC,193546.000,A,3748.7984,N,12217.8597,W,0.69,190.63,180811,,,A*7D
$GPVTG,190.63,T,,M,0.69,N,1.3,K,A*0D
$GPGGA,193547.000,3748.7988,N,12217.8597,W,1,06,1.6,-2.1,M,-25.1,M,,0000*45
$GPGSA,A,3,26,08,28,11,17,07,,,,,,,3.3,1.6,2.9*39
$GPRMC,193547.000,A,3748.7988,N,12217.8597,W,0.41,311.25,180811,,,A*73
$GPVTG,311.25,T,,M,0.41,N,0.8,K,A*04
$GPGGA,193548.000,3748.7991,N,12217.8600,W,1,06,1.6,-3.7,M,-25.1,M,,0000*48
$GPGSA,A,3,26,08,28,11,17,07,,,,,,,3.3,1.6,2.9*39
$GPRMC,193548.000,A,3748.7991,N,12217.8600,W,0.67,337.64,180811,,,A*7C
$GPVTG,337.64,T,,M,0.67,N,1.2,K,A*0A
$GPGGA,193549.000,3748.7998,N,12217.8601,W,1,06,1.6,-5.1,M,-25.1,M,,0000*41
$GPGSA,A,3,26,08,28,11,17,07,,,,,,,3.3,1.6,2.9*39
$GPRMC,193549.000,A,3748.7998,N,12217.8601,W,0.66,350.46,180811,,,A*75
$GPVTG,350.46,T,,M,0.66,N,1.2,K,A*0A
$GPGGA,193550.000,3748.8005,N,12217.8596,W,1,06,1.6,-4.9,M,-25.1,M,,0000*4F
$GPGSA,A,3,26,08,28,11,17,07,,,,,,,3.3,1.6,2.9*39
$GPRMC,193550.000,A,3748.8005,N,12217.8596,W,0.10,129.46,180811,,,A*7F
$GPVTG,129.46,T,,M,0.10,N,0.2,K,A*06
$GPGGA,193551.000,3748.8006,N,12217.8594,W,1,06,1.6,-4.6,M,-25.1,M,,0000*40
$GPGSA,A,3,26,08,28,11,17,07,,,,,,,3.3,1.6,2.9*39
$GPGSV,3,1,09,28,67,010,29,26,54,267,30,17,54,187,29,08,50,101,31*7B
$GPGSV,3,2,09,07,25,117,31,01,20,116,,11,20,062,32,24,16,077,30*74
$GPGSV,3,3,09,27,11,309,21*4C
$GPVTG,184.54,T,,M,0.87,N,1.6,K,A*09
$GPGGA,193552.000,3748.8008,N,12217.8594,W,1,06,1.6,-4.1,M,-25.1,M,,0000*4A
$GPGSA,A,3,26,08,28,11,17,07,,,,,,,3.3,1.6,2.9*39
$GPRMC,193552.000,A,3748.8008,N,12217.8594,W,0.18,230.39,180811,,,A*79
$GPVTG,230.39,T,,M,0.18,N,0.3,K,A*0C
$GPGGA,193553.000,3748.8007,N,12217.8594,W,1,05,2.5,-2.6,M,-25.1,M,,0000*46
$GPGSA,A,3,08,28,11,17,07,,,,,,,,4.4,2.5,3.7*32
$GPRMC,193553.000,A,3748.8007,N,12217.8594,W,0.21,18.17,180811,,,A*49
$GPVTG,18.17,T,,M,0.21,N,0.4,K,A*35
$GPGGA,193554.000,3748.8003,N,12217.8591,W,1,06,1.6,-0.3,M,-25.1,M,,0000*44
$GPGSA,A,3,26,08,28,11,17,07,,,,,,,3.3,1.6,2.9*39
$GPRMC,193554.000,A,3748.8003,N,12217.8591,W,0.30,82.54,180811,,,A*4B
$GPVTG,82.54,T,,M,0.30,N,0.6,K,A*33
$GPGGA,193555.000,3748.8000,N,12217.8593,W,1,06,1.6,1.4,M,-25.1,M,,0000*6F
$GPGSA,A,3,26,08,28,11,17,07,,,,,,,3.3,1.6,2.9*39
$GPRMC,193555.000,A,3748.8000,N,12217.8593,W,0.83,104.30,180811,,,A*7E
$GPVTG,104.30,T,,M,0.83,N,1.5,K,A*04
$GPGGA,193556.000,3748.7998,N,12217.8598,W,1,06,1.6,1.6,M,-25.1,M,,0000*62
$GPGSA,A,3,26,08,28,11,17,07,,,,,,,3.3,1.6,2.9*39
$GPGSV,3,1,09,28,67,010,20,26,54,267,33,17,54,187,36,08,50,101,22*7D
$GPGSV,3,2,09,07,25,117,26,01,20,116,,11,20,062,25,24,16,077,25*70
$GPGSV,3,3,09,27,11,309,22*4F
$GPRMC,193556.000,A,3748.7998,N,12217.8598,W,0.19,140.30,180811,,,A*72
$GPVTG,140.30,T,,M,0.19,N,0.4,K,A*07
$GPGGA,193557.000,3748.7996,N,12217.8600,W,1,06,1.6,1.7,M,-25.1,M,,0000*6E
$GPGSA,A,3,26,08,28,11,17,07,,,,,,,3.3,1.6,2.9*39
$GPRMC,193557.000,A,3748.7996,N,12217.8600,W,0.27,40.30,180811,,,A*43
$GPVTG,40.30,T,,M,0.27,N,0.5,K,A*3A
$GPGGA,193558.000,3748.7992,N,12217.8601,W,1,06,1.6,3.3,M,-25.1,M,,0000*62
$GPGSA,A,3,26,08,28,11,17,07,,,,,,,3.3,1.6,2.9*39
$GPRMC,193558.000,A,3748.7992,N,12217.8601,W,0.25,250.60,180811,,,A*7D
$GPVTG,250.60,T,,M,0.25,N,0.5,K,A*0E
$GPGGA,193559.000,3748.7992,N,12217.8602,W,1,06,1.6,5.5,M,-25.1,M,,0000*60
$GPGSA,A,3,26,08,28,11,17,07,,,,,,,3.3,1.6,2.9*39
$GPRMC,193559.000,A,3748.7992,N,12217.8602,W,0.09,200.96,180811,,,A*7D
$GPVTG,200.96,T,,M,0.09,N,0.2,K,A*0B
$GPGGA,193600.000,3748.7990,N,12217.8601,W,1,06,1.6,6.6,M,-25.1,M,,0000*6E
$GPGSA,A,3,26,08,28,11,17,07,,,,,,,3.3,1.6,2.9*39
$GPRMC,193600.000,A,3748.7990,N,12217.8601,W,0.06,145.96,180811,,,A*7E
$GPVTG,145.96,T,,M,0.06,N,0.1,K,A*05
$GPGGA,193601.000,3748.7990,N,12217.8600,W,1,06,1.6,7.6,M,-25.1,M,,0000*6F
$GPGSA,A,3,26,08,28,11,17,07,,,,,,,3.3,1.6,2.9*39
$GPGSV,3,1,09,28,67,010,31,26,54,267,33,17,54,187,29,08,50,101,30*70
$GPGSV,3,2,09,07,25,117,25,01,20,116,,11,20,062,30,24,16,077,25*77
$GPGSV,3,3,09,27,11,309,26*4B
$GPRMC,193601.000,A,3748.7990,N,12217.8600,W,0.59,45.83,180811,,,A*41
$GPVTG,45.83,T,,M,0.59,N,1.1,K,A*3B
$GPGGA,193602.000,3748.7990,N,12217.8599,W,1,06,1.6,7.7,M,-25.1,M,,0000*6E
$GPGSA,A,3,26,08,28,11,17,07,,,,,,,3.3,1.6,2.9*39
$GPRMC,193602.000,A,3748.7990,N,12217.8599,W,0.17,72.35,180811,,,A*42
$GPVTG,72.35,T,,M,0.17,N,0.3,K,A*3B
$GPGGA,193603.000,3748.7990,N,12217.8601,W,1,06,1.6,7.8,M,-25.1,M,,0000*62
$GPGSA,A,3,26,08,28,11,17,07,,,,,,,3.3,1.6,2.9*39
$GPRMC,193603.000,A,3748.7990,N,12217.8601,W,0.26,286.12,180811,,,A*7F
$GPVTG,286.12,T,,M,0.26,N,0.5,K,A*03
$GPGGA,193604.000,3748.7988,N,12217.8601,W,1,06,1.6,7.9,M,-25.1,M,,0000*6D
$GPGSA,A,3,26,08,28,11,17,07,,,,,,,3.3,1.6,2.9*39
$GPRMC,193604.000,A,3748.7988,N,12217.8601,W,0.18,199.47,180811,,,A*71
$GPVTG,199.47,T,,M,0.18,N,0.3,K,A*05
$GPGGA,193605.000,3748.7989,N,12217.8599,W,1,06,1.6,8.9,M,-25.1,M,,0000*60
$GPGSA,A,3,26,08,28,11,17,07,,,,,,,3.3,1.6,2.9*39
$GPRMC,193605.000,A,3748.7989,N,12217.8599,W,0.38,10.18,180811,,,A*4B
$GPVTG,10.18,T,,M,0.38,N,0.7,K,A*39
$GPGGA,193606.000,3748.7987,N,12217.8600,W,1,06,1.6,8.3,M,-25.1,M,,0000*64
$GPGSA,A,3,26,08,28,11,17,07,,,,,,,3.3,1.6,2.9*39
$GPGSV,3,1,09,28,67,010,30,26,54,267,28,17,54,187,28,08,50,101,26*7D
$GPGSV,3,2,09,07,25,117,22,01,20,116,,11,20,062,29,24,16,077,26*7B
$GPGSV,3,3,09,27,11,309,18*46
$GPRMC,193606.000,A,3748.7987,N,12217.8600,W,0.36,138.56,180811,,,A*7A
$GPVTG,138.56,T,,M,0.36,N,0.7,K,A*06
$GPGGA,193607.000,3748.7985,N,12217.8598,W,1,06,1.6,7.8,M,-25.1,M,,0000*61
$GPGSA,A,3,26,08,28,11,17,07,,,,,,,3.3,1.6,2.9*39
$GPRMC,193607.000,A,3748.7985,N,12217.8598,W,0.31,27.17,180811,,,A*46
$GPVTG,27.17,T,,M,0.31,N,0.6,K,A*3A
$GPGGA,193608.000,3748.7986,N,12217.8596,W,1,06,1.6,7.7,M,-25.1,M,,0000*6C
$GPGSA,A,3,26,08,28,11,17,07,,,,,,,3.3,1.6,2.9*39
$GPRMC,193608.000,A,3748.7986,N,12217.8596,W,0.19,14.82,180811,,,A*42
$GPVTG,14.82,T,,M,0.19,N,0.4,K,A*3E
$GPGGA,193609.000,3748.7985,N,12217.8595,W,1,06,1.6,7.3,M,-25.1,M,,0000*69
$GPGSA,A,3,26,08,28,11,17,07,,,,,,,3.3,1.6,2.9*39
$GPRMC,193609.000,A,3748.7985,N,12217.8595,W,0.17,15.72,180811,,,A*43
$GPVTG,15.72,T,,M,0.17,N,0.3,K,A*39
$GPGGA,193610.000,3748.7986,N,12217.8594,W,1,06,1.6,7.1,M,-25.1,M,,0000*61
$GPGSA,A,3,26,08,28,11,17,07,,,,,,,3.3,1.6,2.9*39
$GPRMC,193610.000,A,3748.7986,N,12217.8594,W,0.17,47.48,180811,,,A*47
$GPVTG,47.48,T,,M,0.17,N,0.3,K,A*37
$GPGGA,193611.000,3748.7988,N,12217.8594,W,1,06,1.6,6.7,M,-25.1,M,,0000*69
$GPGSA,A,3,26,08,28,11,17,07,,,,,,,3.3,1.6,2.9*39
$GPGSV,3,1,09,28,67,010,25,26,54,267,29,17,54,187,37,08,50,101,35*74
$GPGSV,3,2,09,07,25,117,33,01,20,116,,11,20,062,18,24,16,077,21*7E
$GPGSV,3,3,09,27,11,309,19*47
$GPRMC,193611.000,A,3748.7988,N,12217.8594,W,0.31,21.74,180811,,,A*43
$GPVTG,21.74,T,,M,0.31,N,0.6,K,A*39
$GPGGA,193612.000,3748.7989,N,12217.8594,W,1,06,1.6,6.2,M,-25.1,M,,0000*6E
$GPGSA,A,3,26,08,28,11,17,07,,,,,,,3.3,1.6,2.9*39
$GPRMC,193612.000,A,3748.7989,N,12217.8594,W,0.27,29.13,180811,,,A*4F
$GPVTG,29.13,T,,M,0.27,N,0.5,K,A*34
$GPGGA,193613.000,3748.7987,N,12217.8594,W,1,06,1.6,5.7,M,-25.1,M,,0000*67
$GPGSA,A,3,26,08,28,11,17,07,,,,,,,3.3,1.6,2.9*39
$GPRMC,193613.000,A,3748.7987,N,12217.8594,W,0.24,52.69,180811,,,A*42
$GPVTG,52.69,T,,M,0.24,N,0.4,K,A*37
$GPGGA,193614.000,3748.7986,N,12217.8593,W,1,06,1.6,4.6,M,-25.1,M,,0000*66
$GPGSA,A,3,26,08,28,11,17,07,,,,,,,3.3,1.6,2.9*39
$GPRMC,193614.000,A,3748.7986,N,12217.8593,W,0.45,78.18,180811,,,A*4A
$GPVTG,78.18,T,,M,0.45,N,0.8,K,A*32
$GPGGA,193615.000,3748.7990,N,12217.8592,W,1,06,1.6,4.7,M,-25.1,M,,0000*60
$GPGSA,A,3,26,08,28,11,17,07,,,,,,,3.3,1.6,2.9*39
$GPRMC,193615.000,A,3748.7990,N,12217.8592,W,1.04,12.33,180811,,,A*4C
$GPVTG,12.33,T,,M,1.04,N,1.9,K,A*33
$GPGGA,193616.000,3748.7988,N,12217.8592,W,1,06,1.6,3.5,M,-25.1,M,,0000*6F
$GPGSA,A,3,26,08,28,11,17,07,,,,,,,3.3,1.6,2.9*39
$GPGSV,3,1,09,28,66,011,22,26,54,267,38,17,54,187,34,08,50,102,26*71
$GPGSV,3,2,09,07,25,117,25,01,20,116,,11,20,062,19,24,16,077,21*78
$GPGSV,3,3,09,27,11,309,29*44
$GPVTG,311.36,T,,M,0.25,N,0.5,K,A*09
$GPGGA,193617.000,3748.7988,N,12217.8594,W,1,06,1.6,3.6,M,-25.1,M,,0000*6B
$GPGSA,A,3,26,08,28,11,17,07,,,,,,,3.3,1.6,2.9*39
$GPRMC,193617.000,A,3748.7988,N,12217.8594,W,0.09,274.72,180811,,,A*7A
$GPVTG,274.72,T,,M,0.09,N,0.2,K,A*02
$GPGGA,193618.000,3748.7985,N,12217.8598,W,1,06,1.6,2.6,M,-25.1,M,,0000*64
$GPGSA,A,3,26,08,28,11,17,07,,,,,,,3.3,1.6,2.9*39
$GPRMC,193618.000,A,3748.7985,N,12217.8598,W,0.28,201.73,180811,,,A*74
$GPVTG,201.73,T,,M,0.28,N,0.5,K,A*05
$GPGGA,193619.000,3748.7981,N,12217.8599,W,1,06,1.6,2.7,M,-25.1,M,,0000*61
$GPGSA,A,3,07,26,08,28,11,17,,,,,,,3.3,1.6,2.9*39
$GPRMC,193619.000,A,3748.7981,N,12217.8599,W,0.32,249.47,180811,,,A*70
$GPVTG,249.47,T,,M,0.32,N,0.6,K,A*06
$GPGGA,193620.000,3748.7978,N,12217.8600,W,1,06,1.6,1.8,M,-25.1,M,,0000*62
$GPGSA,A,3,07,26,08,28,11,17,,,,,,,3.3,1.6,2.9*39
$GPRMC,193620.000,A,3748.7978,N,12217.8600,W,0.14,193.64,180811,,,A*7E
$GPVTG,193.64,T,,M,0.14,N,0.3,K,A*02
$GPGGA,193621.000,3748.7977,N,12217.8603,W,1,06,1.6,0.6,M,-25.1,M,,0000*60
$GPGSA,A,3,07,26,08,28,11,17,,,,,,,3.3,1.6,2.9*39
$GPGSV,3,1,09,28,66,011,27,26,54,267,36,17,54,187,38,08,50,102,33*72
$GPGSV,3,2,09,07,25,117,28,01,20,116,,11,20,062,24,24,16,077,23*79
$GPGSV,3,3,09,27,11,309,29*44
$GPRMC,193621.000,A,3748.7977,N,12217.8603,W,0.11,306.91,180811,,,A*72
$GPVTG,306.91,T,,M,0.11,N,0.2,K,A*02
$GPGGA,193622.000,3748.7974,N,12217.8606,W,1,06,1.6,-1.1,M,-25.1,M,,0000*4E
$GPGSA,A,3,07,26,08,28,11,17,,,,,,,3.3,1.6,2.9*39
$GPRMC,193622.000,A,3748.7974,N,12217.8606,W,0.05,111.50,180811,,,A*7B
$GPVTG,111.50,T,,M,0.05,N,0.1,K,A*0D
$GPGGA,193623.000,3748.7969,N,12217.8607,W,1,06,1.6,0.2,M,-25.1,M,,0000*6D
$GPGSA,A,3,07,26,08,28,11,17,,,,,,,3.3,1.6,2.9*39
$GPRMC,193623.000,A,3748.7969,N,12217.8607,W,0.20,354.83,180811,,,A*7D
$GPVTG,354.83,T,,M,0.20,N,0.4,K,A*02
$GPGGA,193624.000,3748.7974,N,12217.8607,W,1,06,1.6,0.1,M,-25.1,M,,0000*65
$GPGSA,A,3,07,26,08,28,11,17,,,,,,,3.3,1.6,2.9*39
$GPRMC,193624.000,A,3748.7974,N,12217.8607,W,0.35,28.99,180811,,,A*41
$GPVTG,28.99,T,,M,0.35,N,0.6,K,A*37
$GPGGA,193625.000,3748.7978,N,12217.8607,W,1,06,1.6,0.1,M,-25.1,M,,0000*68
$GPGSA,A,3,07,26,08,28,11,17,,,,,,,3.3,1.6,2.9*39
$GPRMC,193625.000,A,3748.7978,N,12217.8607,W,0.28,345.99,180811,,,A*78
$GPVTG,345.99,T,,M,0.28,N,0.5,K,A*00
$GPGGA,193626.000,3748.7981,N,12217.8607,W,1,06,1.6,-1.0,M,-25.1,M,,0000*40
$GPGSA,A,3,07,26,08,28,11,17,,,,,,,3.3,1.6,2.9*39
$GPGSV,3,1,09,28,66,011,23,26,54,267,36,17,54,187,35,08,50,102,29*70
$GPGSV,3,2,09,07,25,117,25,01,20,116,,11,20,062,22,24,16,077,21*70
$GPGSV,3,3,09,27,11,309,25*48
$GPRMC,193626.000,A,3748.7981,N,12217.8607,W,0.01,280.82,180811,,,A*74
$GPVTG,280.82,T,,M,0.01,N,0.0,K,A*0C
$GPGGA,193627.000,3748.7983,N,12217.8608,W,1,06,1.6,-0.7,M,-25.1,M,,0000*4A
$GPGSA,A,3,07,26,08,28,11,17,,,,,,,3.3,1.6,2.9*39
$GPRMC,193627.000,A,3748.7983,N,12217.8608,W,0.06,312.28,180811,,,A*75
$GPVTG,312.28,T,,M,0.06,N,0.1,K,A*00
$GPGGA,193628.000,3748.7982,N,12217.8609,W,1,06,1.6,-0.4,M,-25.1,M,,0000*46
$GPGSA,A,3,07,26,08,28,11,17,,,,,,,3.3,1.6,2.9*39
$GPRMC,193628.000,A,3748.7982,N,12217.8609,W,0.23,314.18,180811,,,A*78
$GPVTG,314.18,T,,M,0.23,N,0.4,K,A*07
$GPGGA,193629.000,3748.7980,N,12217.8611,W,1,06,1.6,-0.5,M,-25.1,M,,0000*4D
$GPGSA,A,3,07,26,08,28,11,17,,,,,,,3.3,1.6,2.9*39
$GPRMC,193629.000,A,3748.7980,N,12217.8611,W,0.28,212.44,180811,,,A*77
$GPVTG,212.44,T,,M,0.28,N,0.5,K,A*03
$GPGGA,193630.000,3748.7979,N,12217.8612,W,1,06,1.6,-1.2,M,-25.1,M,,0000*46
$GPGSA,A,3,07,26,08,28,11,17,,,,,,,3.3,1.6,2.9*39
$GPRMC,193630.000,A,3748.7979,N,12217.8612,W,0.15,311.18,180811,,,A*7F
$GPVTG,311.18,T,,M,0.15,N,0.3,K,A*00
$GPGGA,193631.000,3748.7976,N,12217.8613,W,1,06,1.6,-0.9,M,-25.1,M,,0000*43
$GPGSA,A,3,07,26,08,28,11,17,,,,,,,3.3,1.6,2.9*39
$GPGSV,3,1,09,28,66,011,23,26,54,267,33,17,54,187,35,08,50,102,31*7C
$GPGSV,3,2,09,07,25,117,28,01,20,116,,11,20,062,24,24,16,077,26*7C
$GPGSV,3,3,09,27,11,309,23*4E
$GPRMC,193631.000,A,3748.7976,N,12217.8613,W,0.15,245.22,180811,,,A*79
$GPVTG,245.22,T,,M,0.15,N,0.3,K,A*09
$GPGGA,193632.000,3748.7973,N,12217.8613,W,1,06,1.6,-0.9,M,-25.1,M,,0000*45
$GPGSA,A,3,07,26,08,28,11,17,,,,,,,3.3,1.6,2.9*39
$GPRMC,193632.000,A,3748.7973,N,12217.8613,W,0.13,162.95,180811,,,A*73
$GPVTG,162.95,T,,M,0.13,N,0.2,K,A*04
$GPGGA,193633.000,3748.7971,N,12217.8613,W,1,06,1.6,-0.2,M,-25.1,M,,0000*4D
$GPGSA,A,3,07,26,08,28,11,17,,,,,,,3.3,1.6,2.9*39
$GPRMC,193633.000,A,3748.7971,N,12217.8613,W,0.21,200.28,180811,,,A*70
$GPVTG,200.28,T,,M,0.21,N,0.4,K,A*02
$GPGGA,193634.000,3748.7969,N,12217.8613,W,1,06,1.6,0.1,M,-25.1,M,,0000*6D
$GPGSA,A,3,07,26,08,28,11,17,,,,,,,3.3,1.6,2.9*39
$GPRMC,193634.000,A,3748.7969,N,12217.8613,W,0.08,185.11,180811,,,A*71
$GPVTG,185.11,T,,M,0.08,N,0.1,K,A*08
$GPGGA,193635.000,3748.7968,N,12217.8613,W,1,06,1.6,0.2,M,-25.1,M,,0000*6E
$GPGSA,A,3,07,26,08,28,11,17,,,,,,,3.3,1.6,2.9*39
$GPRMC,193635.000,A,3748.7968,N,12217.8613,W,0.07,269.93,180811,,,A*75
$GPVTG,269.93,T,,M,0.07,N,0.1,K,A*0C
$GPGGA,193636.000,3748.7968,N,12217.8612,W,1,06,1.6,-0.1,M,-25.1,M,,0000*42
$GPGSA,A,3,07,26,08,28,11,17,,,,,,,3.3,1.6,2.9*39
$GPGSV,3,1,09,28,66,011,30,26,54,267,34,17,54,187,35,08,50,102,39*71
$GPGSV,3,2,09,07,25,117,36,01,20,116,,11,20,062,29,24,16,077,35*7C
$GPGSV,3,3,09,27,11,309,*4F
$GPRMC,193636.000,A,3748.7968,N,12217.8612,W,0.09,288.23,180811,,,A*7D
$GPVTG,288.23,T,,M,0.09,N,0.2,K,A*05
$GPGGA,193637.000,3748.7970,N,12217.8612,W,1,06,1.6,0.2,M,-25.1,M,,0000*64
$GPGSA,A,3,07,26,08,28,11,17,,,,,,,3.3,1.6,2.9*39
$GPRMC,193637.000,A,3748.7970,N,12217.8612,W,0.14,273.71,180811,,,A*7A
$GPVTG,273.71,T,,M,0.14,N,0.3,K,A*0B
$GPGGA,193638.000,3748.7971,N,12217.8611,W,1,06,1.6,0.5,M,-25.1,M,,0000*6E
$GPGSA,A,3,07,26,08,28,11,17,,,,,,,3.3,1.6,2.9*39
$GPRMC,193638.000,A,3748.7971,N,12217.8611,W,0.14,245.93,180811,,,A*7E
$GPVTG,245.93,T,,M,0.14,N,0.3,K,A*02
$GPGGA,193639.000,3748.7973,N,12217.8610,W,1,06,1.6,0.6,M,-25.1,M,,0000*6F
$GPGSA,A,3,07,26,08,28,11,17,,,,,,,3.3,1.6,2.9*39
$GPRMC,193639.000,A,3748.7973,N,12217.8610,W,0.27,351.74,180811,,,A*71
$GPVTG,351.74,T,,M,0.27,N,0.5,K,A*09
$GPGGA,193640.000,3748.7973,N,12217.8611,W,1,06,1.6,0.1,M,-25.1,M,,0000*67
$GPGSA,A,3,07,26,08,28,11,17,,,,,,,3.3,1.6,2.9*39
$GPRMC,193640.000,A,3748.7973,N,12217.8611,W,0.35,318.41,180811,,,A*76
$GPVTG,318.41,T,,M,0.35,N,0.6,K,A*02
$GPGGA,193641.000,3748.7976,N,12217.8612,W,1,06,1.6,-0.5,M,-25.1,M,,0000*49
$GPGSA,A,3,07,26,08,28,11,17,,,,,,,3.3,1.6,2.9*39
$GPGSV,3,1,09,28,66,011,24,26,54,267,30,17,54,187,36,08,50,102,31*7B
$GPGSV,3,2,09,07,25,117,29,01,20,116,,11,20,062,30,24,16,077,28*76
$GPGSV,3,3,09,27,11,309,*4F
$GPRMC,193641.000,A,3748.7976,N,12217.8612,W,0.45,323.27,180811,,,A*7E
$GPVTG,323.27,T,,M,0.45,N,0.8,K,A*03
$GPGGA,193642.000,3748.7979,N,12217.8613,W,1,06,1.6,-0.7,M,-25.1,M,,0000*46
$GPGSA,A,3,07,26,08,28,11,17,,,,,,,3.3,1.6,2.9*39
$GPRMC,193642.000,A,3748.7979,N,12217.8613,W,0.18,353.84,180811,,,A*75
$GPVTG,353.84,T,,M,0.18,N,0.3,K,A*0E
$GPGGA,193643.000,3748.7980,N,12217.8615,W,1,06,1.6,-1.1,M,-25.1,M,,0000*40
$GPGSA,A,3,07,26,08,28,11,17,,,,,,,3.3,1.6,2.9*39
$GPRMC,193643.000,A,3748.7980,N,12217.8615,W,0.09,306.76,180811,,,A*79
$GPVTG,306.76,T,,M,0.09,N,0.2,K,A*02
$GPGGA,193644.000,3748.7982,N,12217.8616,W,1,06,1.6,-1.0,M,-25.1,M,,0000*47
$GPGSA,A,3,07,26,08,28,11,17,,,,,,,3.3,1.6,2.9*39
$GPRMC,193644.000,A,3748.7982,N,12217.8616,W,0.09,291.90,180811,,,A*78
$GPVTG,291.90,T,,M,0.09,N,0.2,K,A*05
$GPGGA,193645.000,3748.7983,N,12217.8616,W,1,06,1.6,-1.1,M,-25.1,M,,0000*46
$GPGSA,A,3,07,26,08,28,11,17,,,,,,,3.3,1.6,2.9*39
$GPRMC,193645.000,A,3748.7983,N,12217.8616,W,0.06,316.43,180811,,,A*77
$GPVTG,316.43,T,,M,0.06,N,0.1,K,A*09
$GPGGA,193646.000,3748.7983,N,12217.8612,W,1,06,1.6,-0.6,M,-25.1,M,,0000*47
$GPGSA,A,3,07,26,08,28,11,17,,,,,,,3.3,1.6,2.9*39
$GPGSV,3,1,09,28,66,011,30,26,54,266,28,17,54,187,38,08,50,102,37*7E
$GPGSV,3,2,09,07,25,117,37,01,20,115,,11,19,062,30,24,16,077,29*71
$GPGSV,3,3,09,27,11,309,*4F
$GPRMC,193646.000,A,3748.7983,N,12217.8612,W,0.12,43.22,180811,,,A*41
$GPVTG,43.22,T,,M,0.12,N,0.2,K,A*3B
$GPGGA,193647.000,3748.7982,N,12217.8608,W,1,06,1.6,0.2,M,-25.1,M,,0000*65
$GPGSA,A,3,07,26,08,28,11,17,,,,,,,3.3,1.6,2.9*39
$GPRMC,193647.000,A,3748.7982,N,12217.8608,W,0.09,68.55,180811,,,A*49
$GPVTG,68.55,T,,M,0.09,N,0.2,K,A*38
$GPGGA,193648.000,3748.7983,N,12217.8604,W,1,06,1.6,0.6,M,-25.1,M,,0000*63
$GPGSA,A,3,07,26,08,28,11,17,,,,,,,3.3,1.6,2.9*39
$GPRMC,193648.000,A,3748.7983,N,12217.8604,W,0.18,45.45,180811,,,A*45
$GPVTG,45.45,T,,M,0.18,N,0.3,K,A*37
$GPGGA,193649.000,3748.7983,N,12217.8601,W,1,06,1.6,0.9,M,-25.1,M,,0000*68
$GPGSA,A,3,07,26,08,28,11,17,,,,,,,3.3,1.6,2.9*39
$GPRMC,193649.000,A,3748.7983,N,12217.8601,W,0.11,188.45,180811,,,A*78
$GPVTG,188.45,T,,M,0.11,N,0.2,K,A*0F
$GPGGA,193650.000,3748.7983,N,12217.8603,W,1,06,1.6,0.3,M,-25.1,M,,0000*68
$GPGSA,A,3,07,26,08,28,11,17,,,,,,,3.3,1.6,2.9*39
$GPRMC,193650.000,A,3748.7983,N,12217.8603,W,0.33,51.82,180811,,,A*4C
$GPVTG,51.82,T,,M,0.33,N,0.6,K,A*35
$GPGGA,193651.000,3748.7982,N,12217.8601,W,1,06,1.6,0.3,M,-25.1,M,,0000*6A
$GPGSA,A,3,07,26,08,28,11,17,,,,,,,3.3,1.6,2.9*39
$GPGSV,3,1,09,28,66,011,30,26,54,266,23,17,54,187,33,08,50,102,38*71
$GPGSV,3,2,09,07,25,117,29,01,20,115,,11,19,062,30,24,16,077,33*75
$GPGSV,3,3,09,27,11,309,*4F
$GPRMC,193651.000,A,3748.7982,N,12217.8601,W,0.08,243.68,180811,,,A*73
$GPVTG,243.68,T,,M,0.08,N,0.2,K,A*0C
$GPGGA,193652.000,3748.7980,N,12217.8597,W,1,06,1.6,0.8,M,-25.1,M,,0000*6C
$GPGSA,A,3,07,26,08,28,11,17,,,,,,,3.3,1.6,2.9*39
$GPRMC,193652.000,A,3748.7980,N,12217.8597,W,0.35,118.69,180811,,,A*7C
$GPVTG,118.69,T,,M,0.35,N,0.6,K,A*0A
$GPGGA,193653.000,3748.7976,N,12217.8594,W,1,06,1.6,0.5,M,-25.1,M,,0000*6A
$GPGSA,A,3,07,26,08,28,11,17,,,,,,,3.3,1.6,2.9*39
$GPRMC,193653.000,A,3748.7976,N,12217.8594,W,0.45,90.84,180811,,,A*42
$GPVTG,90.84,T,,M,0.45,N,0.8,K,A*31
$GPGGA,193654.000,3748.7976,N,12217.8593,W,1,06,1.6,0.3,M,-25.1,M,,0000*6C
$GPGSA,A,3,07,26,08,28,11,17,,,,,,,3.3,1.6,2.9*39
$GPRMC,193654.000,A,3748.7976,N,12217.8593,W,0.56,99.03,180811,,,A*46
$GPVTG,99.03,T,,M,0.56,N,1.0,K,A*3C
$GPGGA,193655.000,3748.7976,N,12217.8589,W,1,06,1.6,-0.1,M,-25.1,M,,0000*49
$GPGSA,A,3,07,26,08,28,11,17,,,,,,,3.3,1.6,2.9*39
$GPRMC,193655.000,A,3748.7976,N,12217.8589,W,1.42,108.05,180811,,,A*77
$GPVTG,108.05,T,,M,1.42,N,2.6,K,A*02
$GPGGA,193656.000,3748.7974,N,12217.8584,W,1,06,1.6,-0.6,M,-25.1,M,,0000*42
$GPGSA,A,3,07,26,08,28,11,17,,,,,,,3.3,1.6,2.9*39
$GPGSV,3,1,09,28,66,011,25,26,54,266,28,17,54,187,34,08,50,102,34*75
$GPGSV,3,2,09,07,25,117,31,01,20,115,,11,19,062,31,24,16,077,30*7E
$GPGSV,3,3,09,27,11,309,*4F
$GPVTG,121.25,T,,M,1.72,N,3.2,K,A*0D
$GPGGA,193657.000,3748.7973,N,12217.8579,W,1,06,1.6,-1.2,M,-25.1,M,,0000*43
$GPGSA,A,3,07,26,08,28,11,17,,,,,,,3.3,1.6,2.9*39
$GPRMC,193657.000,A,3748.7973,N,12217.8579,W,1.93,112.02,180811,,,A*7F
$GPVTG,112.02,T,,M,1.93,N,3.6,K,A*03
$GPGGA,193658.000,3748.7971,N,12217.8574,W,1,06,1.6,-1.6,M,-25.1,M,,0000*47
$GPGSA,A,3,07,26,08,28,11,17,,,,,,,3.3,1.6,2.9*39
$GPRMC,193658.000,A,3748.7971,N,12217.8574,W,2.09,120.78,180811,,,A*73
$GPVTG,120.78,T,,M,2.09,N,3.9,K,A*00
$GPGGA,193659.000,3748.7968,N,12217.8568,W,1,06,1.6,-1.7,M,-25.1,M,,0000*42
$GPGSA,A,3,07,26,08,28,11,17,,,,,,,3.3,1.6,2.9*39
$GPRMC,193659.000,A,3748.7968,N,12217.8568,W,2.00,120.82,180811,,,A*7B
$GPVTG,120.82,T,,M,2.00,N,3.7,K,A*02
$GPGGA,193700.000,3748.7964,N,12217.8562,W,1,06,1.6,-1.8,M,-25.1,M,,0000*46
$GPGSA,A,3,07,26,08,28,11,17,,,,,,,3.3,1.6,2.9*39
$GPRMC,193700.000,A,3748.7964,N,12217.8562,W,2.14,116.96,180811,,,A*75
$GPVTG,116.96,T,,M,2.14,N,4.0,K,A*07
$GPGGA,193701.000,3748.7961,N,12217.8556,W,1,06,1.6,-1.9,M,-25.1,M,,0000*44
$GPGSA,A,3,07,26,08,28,11,17,,,,,,,3.3,1.6,2.9*39
$GPGSV,3,1,09,28,66,011,26,26,54,266,30,17,54,187,35,08,50,102,34*7E
$GPGSV,3,2,09,07,25,117,33,01,20,115,,11,19,062,30,24,16,077,24*78
$GPGSV,3,3,09,27,11,309,*4F
$GPRMC,193701.000,A,3748.7961,N,12217.8556,W,2.19,121.70,180811,,,A*77
$GPVTG,121.70,T,,M,2.19,N,4.1,K,A*07
$GPGGA,193702.000,3748.7958,N,12217.8549,W,1,06,1.6,-1.9,M,-25.1,M,,0000*43
$GPGSA,A,3,07,26,08,28,11,17,,,,,,,3.3,1.6,2.9*39
$GPRMC,193702.000,A,3748.7958,N,12217.8549,W,2.10,117.88,180811,,,A*7B
$GPVTG,117.88,T,,M,2.10,N,3.9,K,A*03
$GPGGA,193703.000,3748.7955,N,12217.8543,W,1,06,1.6,-1.9,M,-25.1,M,,0000*45
$GPGSA,A,3,07,26,08,28,11,17,,,,,,,3.3,1.6,2.9*39
$GPRMC,193703.000,A,3748.7955,N,12217.8543,W,2.25,121.89,180811,,,A*7F
$GPVTG,121.89,T,,M,2.25,N,4.2,K,A*0D
$GPGGA,193704.000,3748.7950,N,12217.8533,W,1,06,1.6,-1.9,M,-25.1,M,,0000*40
$GPGSA,A,3,07,26,08,28,11,17,,,,,,,3.3,1.6,2.9*39
$GPRMC,193704.000,A,3748.7950,N,12217.8533,W,2.20,119.40,180811,,,A*71
$GPVTG,119.40,T,,M,2.20,N,4.1,K,A*05
$GPGGA,193705.000,3748.7947,N,12217.8526,W,1,06,1.6,-2.1,M,-25.1,M,,0000*48
$GPGSA,A,3,07,26,08,28,11,17,,,,,,,3.3,1.6,2.9*39
$GPRMC,193705.000,A,3748.7947,N,12217.8526,W,2.21,122.39,180811,,,A*75
$GPVTG,122.39,T,,M,2.21,N,4.1,K,A*02
$GPGGA,193706.000,3748.7945,N,12217.8519,W,1,06,1.6,-2.3,M,-25.1,M,,0000*47
$GPGSA,A,3,07,26,08,28,11,17,,,,,,,3.3,1.6,2.9*39
$GPGSV,3,1,09,28,66,011,26,26,54,266,33,17,54,187,35,08,50,102,33*7A
$GPGSV,3,2,09,07,25,117,33,01,20,115,,11,19,062,22,24,16,077,18*74
$GPGSV,3,3,09,27,11,309,*4F
$GPRMC,193706.000,A,3748.7945,N,12217.8519,W,2.13,114.13,180811,,,A*74
$GPVTG,114.13,T,,M,2.13,N,3.9,K,A*01
$GPGGA,193707.000,3748.7944,N,12217.8511,W,1,06,1.6,-2.0,M,-25.1,M,,0000*4C
$GPGSA,A,3,07,26,08,28,11,17,,,,,,,3.3,1.6,2.9*39
$GPRMC,193707.000,A,3748.7944,N,12217.8511,W,2.10,115.63,180811,,,A*79
$GPVTG,115.63,T,,M,2.10,N,3.9,K,A*04
$GPGGA,193708.000,3748.7941,N,12217.8505,W,1,06,1.6,-2.4,M,-25.1,M,,0000*47
$GPGSA,A,3,07,26,08,28,11,17,,,,,,,3.3,1.6,2.9*39
$GPRMC,193708.000,A,3748.7941,N,12217.8505,W,2.01,105.27,180811,,,A*77
$GPVTG,105.27,T,,M,2.01,N,3.7,K,A*0B
$GPGGA,193709.000,3748.7940,N,12217.8499,W,1,06,1.6,-2.6,M,-25.1,M,,0000*41
$GPGSA,A,3,07,26,08,28,11,17,,,,,,,3.3,1.6,2.9*39
$GPRMC,193709.000,A,3748.7940,N,12217.8499,W,1.90,116.25,180811,,,A*78
$GPVTG,116.25,T,,M,1.90,N,3.5,K,A*02
$GPGGA,193710.000,3748.7938,N,12217.8493,W,1,06,1.6,-2.5,M,-25.1,M,,0000*4F
$GPGSA,A,3,07,26,08,28,11,17,,,,,,,3.3,1.6,2.9*39
$GPRMC,193710.000,A,3748.7938,N,12217.8493,W,2.04,128.78,180811,,,A*7E
$GPVTG,128.78,T,,M,2.04,N,3.8,K,A*04
$GPGGA,193711.000,3748.7934,N,12217.8487,W,1,06,1.6,-2.6,M,-25.1,M,,0000*44
$GPGSA,A,3,07,26,08,28,11,17,,,,,,,3.3,1.6,2.9*39
$GPGSV,3,1,09,28,66,011,26,26,54,266,33,17,54,187,36,08,50,102,34*7E
