$ADVER,3080,2.3
$GPRMC,193328.112,A,3748.7984,N,12217.8616,W,0.18,307.11,180811,,,A*74
$GPRMC,193329.107,A,3748.7983,N,12217.8618,W,0.28,262.00,180811,,,A*79
$GPRMC,193330.107,A,3748.7983,N,12217.8618,W,0.04,281.85,180811,,,A*7F
$GPRMC,193331.107,A,3748.7982,N,12217.8618,W,0.15,317.14,180811,,,A*79
$GPRMC,193332.112,A,3748.7983,N,12217.8619,W,0.18,280.55,180811,,,A*79
$GPRMC,193333.107,A,3748.7982,N,12217.8619,W,0.12,294.44,180811,,,A*72
$GPRMC,193334.107,A,3748.7982,N,12217.8619,W,0.22,280.81,180811,,,A*7A
$GPRMC,193335.111,A,3748.8006,N,12217.8635,W,0.41,151.20,180811,,,A*79
$GPRMC,193336.111,A,3748.7974,N,12217.8637,W,0.38,84.36,180811,,,A*4B
$GPRMC,193337.111,A,3748.8013,N,12217.8660,W,0.16,295.27,180811,,,A*71
$GPRMC,193338.111,A,3748.7976,N,12217.8655,W,0.26,286.75,180811,,,A*7B
$GPRMC,193339.111,A,3748.7955,N,12217.8621,W,0.20,286.32,180811,,,A*7D
$GPRMC,193340.111,A,3748.8003,N,12217.8630,W,0.18,274.15,180811,,,A*75
$GPRMC,193341.111,A,3748.7975,N,12217.8625,W,0.07,283.78,180811,,,A*7A
$GPRMC,193342.111,A,3748.7972,N,12217.8607,W,0.18,289.10,180811,,,A*74
$GPRMC,193343.111,A,3748.7971,N,12217.8644,W,0.20,281.31,180811,,,A*71
$GPRMC,193344.111,A,3748.7972,N,12217.8617,W,0.23,279.33,180811,,,A*75
$GPRMC,193345.111,A,3748.7994,N,12217.8650,W,0.17,294.54,180811,,,A*7A
$GPRMC,193346.111,A,3748.7992,N,12217.8630,W,0.20,286.76,180811,,,A*7E
$GPRMC,193347.111,A,3748.7990,N,12217.8631,W,0.21,287.13,180811,,,A*7F
$GPRMC,193348.111,A,3748.7991,N,12217.8635,W,0.20,283.87,180811,,,A*7D
$GPRMC,193349.111,A,3748.7988,N,12217.8634,W,0.19,287.19,180811,,,A*7C
$GPRMC,193350.111,A,3748.7987,N,12217.8633,W,0.17,290.52,180811,,,A*7B
$GPRMC,193351.111,A,3748.7983,N,12217.8636,W,0.12,283.16,180811,,,A*7C
$GPRMC,193352.111,A,3748.7984,N,12217.8636,W,0.18,300.70,180811,,,A*78
$GPRMC,193353.111,A,3748.7985,N,12217.8634,W,0.05,119.99,180811,,,A*7B
$GPRMC,193354.111,A,3748.7985,N,12217.8634,W,0.21,267.63,180811,,,A*75
$GPRMC,193355.111,A,3748.7984,N,12217.8635,W,0.21,261.56,180811,,,A*74
$GPRMC,193356.111,A,3748.7984,N,12217.8635,W,0.29,289.98,180811,,,A*7B
$GPRMC,193401.111,A,3748.7999,N,12217.8634,W,0.17,294.38,180811,,,A*78
$GPRMC,193402.111,A,3748.7991,N,12217.8647,W,0.16,283.33,180811,,,A*7B
$GPRMC,193403.111,A,3748.7991,N,12217.8643,W,0.12,295.50,180811,,,A*78
$GPRMC,193404.111,A,3748.7986,N,12217.8636,W,0.18,283.84,180811,,,A*7F
$GPRMC,193405.111,A,3748.7982,N,12217.8634,W,0.15,279.96,180811,,,A*73
$GPRMC,193406.111,A,3748.7978,N,12217.8641,W,0.20,276.16,180811,,,A*76
$GPRMC,193407.111,A,3748.7975,N,12217.8643,W,0.13,324.13,180811,,,A*7B
$GPRMC,193408.111,A,3748.7972,N,12217.8644,W,0.24,261.01,180811,,,A*73
$GPRMC,193409.111,A,3748.7952,N,12217.8669,W,1.02,238.19,180811,,,A*7F
$GPRMC,193410.111,A,3748.8020,N,12217.8561,W,0.20,279.25,180811,,,A*74
$GPRMC,193411.111,A,3748.7953,N,12217.8663,W,0.23,11.88,180811,,,A*4E
$GPRMC,193412.111,A,3748.7937,N,12217.8690,W,0.14,331.40,180811,,,A*72
$GPRMC,193413.111,A,3748.7969,N,12217.8644,W,0.37,32.54,180811,,,A*45
$GPRMC,193414.111,A,3748.7987,N,12217.8618,W,0.36,5.05,180811,,,A*7A
$GPRMC,193415.111,A,3748.7999,N,12217.8598,W,0.99,40.01,180811,,,A*4F
$GPRMC,193416.111,A,3748.8014,N,12217.8575,W,0.52,240.11,180811,,,A*78
$GPRMC,193417.111,A,3748.8000,N,12217.8596,W,0.22,282.91,180811,,,A*70
$GPRMC,193418.111,A,3748.8009,N,12217.8584,W,0.17,286.23,180811,,,A*7E
$GPRMC,193419.111,A,3748.8004,N,12217.8592,W,0.21,266.81,180811,,,A*76
$GPRMC,193420.111,A,3748.8003,N,12217.8594,W,0.17,291.67,180811,,,A*78
$GPRMC,193421.111,A,3748.7998,N,12217.8602,W,0.16,272.68,180811,,,A*72
$GPRMC,193422.111,A,3748.7996,N,12217.8607,W,0.17,308.40,180811,,,A*7D
$GPRMC,193423.111,A,3748.7994,N,12217.8612,W,0.16,272.68,180811,,,A*7D
$GPRMC,193424.111,A,3748.7994,N,12217.8613,W,0.11,303.49,180811,,,A*78
$GPRMC,193425.111,A,3748.7993,N,12217.8615,W,0.17,283.57,180811,,,A*78
$GPRMC,193426.111,A,3748.7992,N,12217.8616,W,0.16,286.94,180811,,,A*72
$GPRMC,193427.111,A,3748.7965,N,12217.8657,W,0.14,298.38,180811,,,A*75
$GPRMC,193428.111,A,3748.7965,N,12217.8657,W,0.12,284.17,180811,,,A*7C
$GPRMC,193429.111,A,3748.7993,N,12217.8616,W,0.19,276.04,180811,,,A*75
$GPRMC,193430.111,A,3748.7990,N,12217.8621,W,0.14,287.39,180811,,,A*77
$GPRMC,193431.111,A,3748.7985,N,12217.8630,W,0.12,292.65,180811,,,A*79
$GPRMC,193432.111,A,3748.7984,N,12217.8631,W,0.22,282.14,180811,,,A*7E
$GPRMC,193433.111,A,3748.7988,N,12217.8624,W,0.16,298.82,180811,,,A*74
$GPRMC,193439.111,A,3748.7984,N,12217.8558,W,0.97,46.99,180811,,,A*48
$GPRMC,193440.111,A,3748.7977,N,12217.8597,W,0.31,18.38,180811,,,A*45
$GPRMC,193441.111,A,3748.7997,N,12217.8585,W,0.24,281.93,180811,,,A*7E
$GPRMC,193442.111,A,3748.7968,N,12217.8633,W,0.27,243.77,180811,,,A*74
$GPRMC,193443.111,A,3748.7976,N,12217.8620,W,0.29,281.59,180811,,,A*74
$GPRMC,193444.111,A,3748.7995,N,12217.8589,W,0.93,222.14,180811,,,A*7F
$GPRMC,193445.111,A,3748.7996,N,12217.8588,W,1.37,183.27,180811,,,A*7B
$GPRMC,193446.111,A,3748.7995,N,12217.8655,W,0.17,350.29,180811,,,A*79
$GPRMC,193447.111,A,3748.8013,N,12217.8656,W,0.63,140.10,180811,,,A*79
$GPRMC,193448.111,A,3748.7993,N,12217.8650,W,0.23,321.59,180811,,,A*72
$GPRMC,193449.111,A,3748.7982,N,12217.8644,W,0.30,147.25,180811,,,A*7D
$GPRMC,193450.111,A,3748.7922,N,12217.8594,W,1.36,318.34,180811,,,A*7E
$GPRMC,193451.111,A,3748.7865,N,12217.8584,W,1.83,176.83,180811,,,A*74
$GPRMC,193452.111,A,3748.7916,N,12217.8563,W,1.54,167.52,180811,,,A*7D
$GPRMC,193453.111,A,3748.7949,N,12217.8603,W,0.51,192.66,180811,,,A*7A
$GPRMC,193455.111,A,3748.8120,N,12217.8721,W,0.84,326.07,180811,,,A*77
$GPRMC,193457.111,A,3748.8059,N,12217.8677,W,0.79,323.18,180811,,,A*71
$GPRMC,193458.111,A,3748.7977,N,12217.8621,W,0.60,315.91,180811,,,A*7B
$GPRMC,193459.111,A,3748.7933,N,12217.8589,W,0.57,312.57,180811,,,A*72
$GPRMC,193500.111,A,3748.7910,N,12217.8575,W,0.22,242.15,180811,,,A*7D
$GPRMC,193518.111,A,3748.8008,N,12217.8679,W,0.44,325.45,180811,,,A*71
$GPRMC,193519.111,A,3748.8015,N,12217.8671,W,0.16,48.32,180811,,,A*4B
$GPRMC,193520.111,A,3748.7976,N,12217.8622,W,0.75,121.49,180811,,,A*73
$GPRMC,193521.111,A,3748.7934,N,12217.8579,W,0.25,11.30,180811,,,A*40
$GPRMC,193522.111,A,3748.7993,N,12217.8624,W,0.55,144.35,180811,,,A*76
$GPRMC,193523.111,A,3748.7944,N,12217.8648,W,0.08,218.68,180811,,,A*7D
$GPRMC,193524.111,A,3748.8015,N,12217.8661,W,0.92,301.71,180811,,,A*71
$GPRMC,193525.111,A,3748.7987,N,12217.8649,W,0.23,236.94,180811,,,A*73
$GPRMC,193526.111,A,3748.7977,N,12217.8635,W,0.80,149.12,180811,,,A*78
$GPRMC,193527.111,A,3748.7951,N,12217.8684,W,1.16,321.37,180811,,,A*72
$GPRMC,193528.111,A,3748.8022,N,12217.8671,W,1.26,15.29,180811,,,A*4D
$GPRMC,193529.111,A,3748.8069,N,12217.8637,W,1.05,213.06,180811,,,A*79
$GPRMC,193530.111,A,3748.8011,N,12217.8613,W,0.61,227.53,180811,,,A*7C
$GPRMC,193531.111,A,3748.7998,N,12217.8654,W,0.91,56.35,180811,,,A*42
$GPRMC,193532.111,A,3748.8083,N,12217.8562,W,0.84,28.58,180811,,,A*4D
$GPRMC,193533.110,A,3748.8048,N,12217.8593,W,0.86,335.86,180811,,,A*7A
$GPRMC,193534.110,A,3748.7914,N,12217.8653,W,1.54,125.80,180811,,,A*76
$GPRMC,193535.110,A,3748.7940,N,12217.8657,W,0.21,211.73,180811,,,A*79
$GPRMC,193536.110,A,3748.7949,N,12217.8638,W,0.29,305.38,180811,,,A*79
$GPRMC,193537.110,A,3748.7942,N,12217.8632,W,0.27,353.95,180811,,,A*73
$GPRMC,193538.110,A,3748.7991,N,12217.8661,W,0.05,80.56,180811,,,A*46
$GPRMC,193539.110,A,3748.7978,N,12217.8651,W,0.21,259.63,180811,,,A*75
$GPRMC,193540.110,A,3748.7988,N,12217.8660,W,0.27,285.26,180811,,,A*70
$GPRMC,193541.110,A,3748.7996,N,12217.8661,W,0.14,264.86,180811,,,A*7A
$GPRMC,193542.110,A,3748.8001,N,12217.8663,W,0.10,301.98,180811,,,A*7A
$GPRMC,193543.110,A,3748.8022,N,12217.8677,W,1.26,335.02,180811,,,A*7F
$GPRMC,193548.110,A,3748.8039,N,12217.8685,W,0.21,192.65,180811,,,A*7B
$GPRMC,193549.110,A,3748.8033,N,12217.8680,W,0.22,271.64,180811,,,A*79
$GPRMC,193550.110,A,3748.8028,N,12217.8677,W,0.11,287.73,180811,,,A*7C
$GPRMC,193551.110,A,3748.8026,N,12217.8674,W,0.19,275.78,180811,,,A*7E
$GPRMC,193552.110,A,3748.8027,N,12217.8675,W,0.21,301.35,180811,,,A*7D
$GPRMC,193553.110,A,3748.8027,N,12217.8675,W,0.15,260.30,180811,,,A*78
$GPRMC,193554.110,A,3748.8027,N,12217.8675,W,0.32,294.47,180811,,,A*71
$GPRMC,193555.110,A,3748.8045,N,12217.8689,W,0.19,279.33,180811,,,A*7E
$GPRMC,193556.110,A,3748.7960,N,12217.8623,W,0.69,313.66,180811,,,A*76
$GPRMC,193557.110,A,3748.7925,N,12217.8595,W,0.41,309.74,180811,,,A*7A
$GPRMC,193558.110,A,3748.8016,N,12217.8666,W,0.21,221.80,180811,,,A*7A
$GPRMC,193559.110,A,3748.7939,N,12217.8604,W,0.08,308.18,180811,,,A*74
$GPRMC,193600.110,A,3748.8006,N,12217.8655,W,0.14,267.80,180811,,,A*71
$GPRMC,193601.110,A,3748.8005,N,12217.8656,W,0.22,260.84,180811,,,A*76
$GPRMC,193602.110,A,3748.7976,N,12217.8633,W,0.41,165.55,180811,,,A*7B
$GPRMC,193603.110,A,3748.8022,N,12217.8669,W,0.19,352.42,180811,,,A*7F
$GPRMC,193604.110,A,3748.8050,N,12217.8693,W,1.29,297.04,180811,,,A*70
$GPRMC,193605.110,A,3748.8018,N,12217.8668,W,0.31,291.31,180811,,,A*71
$GPRMC,193606.110,A,3748.8018,N,12217.8667,W,0.17,300.76,180811,,,A*73
$GPRMC,193607.110,A,3748.8013,N,12217.8662,W,0.04,326.96,180811,,,A*74
$GPRMC,193608.110,A,3748.8011,N,12217.8662,W,0.47,252.73,180811,,,A*77
$GPRMC,193609.110,A,3748.8014,N,12217.8664,W,0.22,294.71,180811,,,A*7E
$GPRMC,193610.110,A,3748.8013,N,12217.8663,W,0.16,288.71,180811,,,A*7C
$GPRMC,193611.110,A,3748.8010,N,12217.8659,W,0.20,103.24,180811,,,A*72
$GPRMC,193612.110,A,3748.8012,N,12217.8658,W,0.42,56.32,180811,,,A*40
$GPRMC,193613.110,A,3748.8003,N,12217.8649,W,0.82,6.44,180811,,,A*79
$GPRMC,193614.110,A,3748.8009,N,12217.8653,W,0.49,291.22,180811,,,A*74
$GPRMC,193615.110,A,3748.8005,N,12217.8650,W,0.41,304.91,180811,,,A*77
$GPRMC,193616.110,A,3748.7999,N,12217.8646,W,0.38,294.26,180811,,,A*7A
$GPRMC,193617.110,A,3748.7997,N,12217.8646,W,0.61,292.33,180811,,,A*7B
$GPRMC,193618.110,A,3748.7996,N,12217.8645,W,0.22,257.14,180811,,,A*7D
$GPRMC,193619.110,A,3748.8002,N,12217.8637,W,0.30,235.34,180811,,,A*77
$GPRMC,193620.110,A,3748.8000,N,12217.8636,W,0.12,308.81,180811,,,A*7F
$GPRMC,193621.110,A,3748.8003,N,12217.8630,W,0.15,355.63,180811,,,A*78
$GPRMC,193622.110,A,3748.8014,N,12217.8609,W,0.20,122.81,180811,,,A*7F
$GPRMC,193623.110,A,3748.8008,N,12217.8620,W,0.88,289.47,180811,,,A*72
$GPRMC,193624.110,A,3748.8001,N,12217.8633,W,0.67,263.26,180811,,,A*7C
$GPRMC,193625.110,A,3748.7999,N,12217.8636,W,0.36,292.21,180811,,,A*72
$GPRMC,193626.110,A,3748.7997,N,12217.8635,W,0.08,134.72,180811,,,A*78
$GPRMC,193627.110,A,3748.7995,N,12217.8637,W,0.24,256.31,180811,,,A*77
$GPRMC,193628.110,A,3748.7996,N,12217.8643,W,0.16,290.78,180811,,,D*7B
$GPRMC,193629.110,A,3748.7986,N,12217.8653,W,0.31,157.78,180811,,,D*77
$GPRMC,193630.110,A,3748.7982,N,12217.8659,W,0.42,42.36,180811,,,D*4A
$GPRMC,193631.110,A,3748.7956,N,12217.8697,W,0.69,48.67,180811,,,D*47
$GPRMC,193632.110,A,3748.7965,N,12217.8684,W,0.15,91.59,180811,,,D*44
$GPRMC,193633.110,A,3748.7961,N,12217.8671,W,0.19,297.33,180811,,,D*7F
$GPRMC,193634.110,A,3748.7971,N,12217.8651,W,0.39,264.91,180811,,,D*7D
$GPRMC,193635.110,A,3748.7978,N,12217.8637,W,0.28,304.36,180811,,,D*7F
$GPRMC,193636.110,A,3748.7985,N,12217.8638,W,0.23,318.97,180811,,,D*7C
$GPRMC,193637.110,A,3748.7985,N,12217.8639,W,0.18,198.26,180811,,,D*74
$GPRMC,193638.110,A,3748.7982,N,12217.8642,W,0.17,290.17,180811,,,D*76
$GPRMC,193639.110,A,3748.7976,N,12217.8642,W,0.14,224.13,180811,,,D*74
$GPRMC,193640.110,A,3748.7975,N,12217.8641,W,0.23,266.03,180811,,,D*79
$GPRMC,193641.110,A,3748.7973,N,12217.8644,W,0.24,297.25,180811,,,D*76
$GPRMC,193642.110,A,3748.7972,N,12217.8647,W,0.31,288.41,180811,,,D*7F
$GPRMC,193643.110,A,3748.7974,N,12217.8645,W,0.05,10.14,180811,,,D*4E
$GPRMC,193644.110,A,3748.7976,N,12217.8645,W,0.03,283.15,180811,,,D*74
$GPRMC,193645.110,A,3748.7977,N,12217.8649,W,0.21,308.42,180811,,,D*78
$GPRMC,193646.110,A,3748.7977,N,12217.8652,W,0.19,315.31,180811,,,D*72
$GPRMC,193647.110,A,3748.7976,N,12217.8654,W,0.17,307.44,180811,,,D*7B
$GPRMC,193648.110,A,3748.7976,N,12217.8659,W,0.23,316.28,180811,,,D*74
$GPRMC,193649.110,A,3748.7976,N,12217.8661,W,0.22,324.08,180811,,,D*7C
$GPRMC,193650.110,A,3748.7939,N,12217.8713,W,0.20,322.12,180811,,,D*74
$GPRMC,193651.110,A,3748.7966,N,12217.8672,W,0.11,281.75,180811,,,D*72
$GPRMC,193652.110,A,3748.7966,N,12217.8670,W,0.42,61.38,180811,,,D*40
$GPRMC,193653.110,A,3748.7971,N,12217.8662,W,0.31,288.84,180811,,,D*72
$GPRMC,193654.110,A,3748.7970,N,12217.8662,W,0.10,273.44,180811,,,D*7F
$GPRMC,193655.110,A,3748.7977,N,12217.8651,W,0.34,35.86,180811,,,D*41
$GPRMC,193656.110,A,3748.7991,N,12217.8632,W,0.51,230.59,180811,,,D*79
$GPRMC,193657.110,A,3748.7985,N,12217.8643,W,0.32,293.25,180811,,,D*7C
$GPRMC,193658.110,A,3748.7988,N,12217.8639,W,0.20,295.83,180811,,,D*7A
$GPRMC,193659.110,A,3748.7981,N,12217.8648,W,0.15,327.06,180811,,,D*77
$GPRMC,193700.110,A,3748.7979,N,12217.8651,W,0.37,297.47,180811,,,D*7A
$GPRMC,193701.110,A,3748.7971,N,12217.8661,W,0.32,259.13,180811,,,D*76
$GPRMC,193702.110,A,3748.7947,N,12217.8694,W,0.80,30.06,180811,,,D*4A
$GPRMC,193703.110,A,3748.7962,N,12217.8670,W,0.78,233.56,180811,,,D*75
$GPRMC,193704.110,A,3748.7986,N,12217.8636,W,0.89,230.21,180811,,,D*77
$GPRMC,193705.110,A,3748.7939,N,12217.8700,W,0.20,26.35,180811,,,D*45
$GPRMC,193706.110,A,3748.7949,N,12217.8685,W,0.13,268.01,180811,,,D*72
$GPRMC,193707.110,A,3748.7953,N,12217.8678,W,0.07,262.07,180811,,,D*73
$GPRMC,193708.110,A,3748.7956,N,12217.8672,W,0.09,276.12,180811,,,D*7C
$GPRMC,193709.110,A,3748.7961,N,12217.8670,W,0.23,312.01,180811,,,D*72
$GPRMC,193710.110,A,3748.7951,N,12217.8682,W,0.20,306.92,180811,,,D*78
$GPRMC,193711.110,A,3748.7956,N,12217.8676,W,0.17,324.68,180811,,,D*74
$GPRMC,193712.110,A,3748.7953,N,12217.8681,W,0.18,313.36,180811,,,D*7A
$GPRMC,193713.110,A,3748.7953,N,12217.8681,W,0.19,283.25,180811,,,D*70
$GPRMC,193714.110,A,3748.7956,N,12217.8677,W,0.25,279.02,180811,,,D*74
$GPRMC,193715.110,A,3748.7958,N,12217.8674,W,0.22,277.62,180811,,,D*77
$GPRMC,193716.110,A,3748.7959,N,12217.8674,W,0.29,275.55,180811,,,D*78
$GPRMC,193717.110,A,3748.7956,N,12217.8679,W,0.20,275.23,180811,,,D*73
$GPRMC,193718.110,A,3748.7953,N,12217.8684,W,0.22,301.77,180811,,,D*7A
$GPRMC,193719.110,A,3748.7949,N,12217.8689,W,0.21,285.59,180811,,,D*7F
$GPRMC,193720.110,A,3748.7946,N,12217.8693,W,0.21,296.65,180811,,,D*7C
$GPRMC,193721.110,A,3748.7945,N,12217.8691,W,0.73,245.97,180811,,,D*78
$GPRMC,193722.110,A,3748.7937,N,12217.8702,W,0.51,24.97,180811,,,D*40
$GPRMC,193723.110,A,3748.7943,N,12217.8692,W,2.40,225.15,180811,,,D*71
$GPRMC,193724.110,A,3748.7958,N,12217.8670,W,2.49,225.95,180811,,,D*71
$GPRMC,193725.110,A,3748.7950,N,12217.8680,W,3.06,224.32,180811,,,D*71
$GPRMC,193726.110,A,3748.7953,N,12217.8673,W,2.76,221.90,180811,,,D*76
$GPRMC,193727.110,A,3748.7939,N,12217.8689,W,2.50,222.94,180811,,,D*7D
$GPRMC,193728.110,A,3748.7936,N,12217.8690,W,2.56,222.81,180811,,,D*77
$GPRMC,193729.110,A,3748.7931,N,12217.8677,W,2.57,220.63,180811,,,D*77
$GPRMC,193730.110,A,3748.7906,N,12217.8708,W,2.58,222.66,180811,,,D*7A
$GPRMC,193731.110,A,3748.7902,N,12217.8710,W,1.79,206.45,180811,,,D*71
$GPRMC,193732.110,A,3748.7895,N,12217.8716,W,2.15,212.78,180811,,,D*79
$GPRMC,193733.110,A,3748.7878,N,12217.8736,W,2.37,211.01,180811,,,D*74
$GPRMC,193734.110,A,3748.7873,N,12217.8739,W,2.46,211.26,180811,,,D*74
$GPRMC,193735.110,A,3748.7893,N,12217.8709,W,2.68,216.43,180811,,,D*70
$GPRMC,193736.110,A,3748.7893,N,12217.8706,W,2.52,223.33,180811,,,D*74
$GPRMC,193737.110,A,3748.7877,N,12217.8725,W,2.74,218.27,180811,,,D*77
$GPRMC,193738.110,A,3748.7893,N,12217.8699,W,2.20,214.14,180811,,,D*79
$GPRMC,193739.110,A,3748.7889,N,12217.8701,W,1.88,214.05,180811,,,D*72
$GPRMC,193740.110,A,3748.7896,N,12217.8738,W,2.56,209.80,180811,,,D*79
$GPRMC,193741.110,A,3748.7842,N,12217.8746,W,2.89,201.10,180811,,,D*7B
$GPRMC,193742.110,A,3748.7867,N,12217.8741,W,2.59,219.47,180811,,,D*7E
$GPRMC,193743.110,A,3748.7865,N,12217.8757,W,2.79,215.12,180811,,,D*74
$GPRMC,193744.110,A,3748.7866,N,12217.8762,W,2.46,214.18,180811,,,D*71
$GPRMC,193745.110,A,3748.7840,N,12217.8790,W,2.18,217.78,180811,,,D*77
$GPRMC,193746.110,A,3748.7844,N,12217.8787,W,2.18,216.57,180811,,,D*7A
$GPRMC,193747.110,A,3748.7837,N,12217.8794,W,2.47,217.42,180811,,,D*72
$GPRMC,193748.110,A,3748.7838,N,12217.8792,W,2.11,216.33,180811,,,D*70
$GPRMC,193749.110,A,3748.7833,N,12217.8795,W,2.35,207.12,180811,,,D*78
$GPRMC,193750.110,A,3748.7831,N,12217.8794,W,1.90,206.65,180811,,,D*7E
$GPRMC,193751.110,A,3748.7824,N,12217.8799,W,2.47,202.61,180811,,,D*7F
$GPRMC,193752.110,A,3748.7823,N,12217.8805,W,2.50,210.91,180811,,,D*7B
$GPRMC,193753.110,A,3748.7828,N,12217.8814,W,2.40,221.15,180811,,,D*7E
$GPRMC,193754.110,A,3748.7876,N,12217.8859,W,2.36,202.89,180811,,,D*7E
$GPRMC,193755.110,A,3748.7808,N,12217.8811,W,1.84,208.77,180811,,,D*7B
$GPRMC,193756.110,A,3748.7814,N,12217.8826,W,2.27,218.84,180811,,,D*76
$GPRMC,193757.110,A,3748.7804,N,12217.8826,W,2.37,219.71,180811,,,D*7C
$GPRMC,193758.110,A,3748.7790,N,12217.8823,W,2.60,227.90,180811,,,D*74
$GPRMC,193759.110,A,3748.7786,N,12217.8832,W,2.64,222.51,180811,,,D*7E
$GPRMC,193800.110,A,3748.7797,N,12217.8815,W,2.96,215.97,180811,,,D*7B
$GPRMC,193801.110,A,3748.7787,N,12217.8829,W,2.56,208.79,180811,,,D*74
$GPRMC,193802.110,A,3748.7781,N,12217.8832,W,2.45,208.85,180811,,,D*7A
$GPRMC,193803.110,A,3748.7755,N,12217.8831,W,3.46,188.17,180811,,,D*73
$GPRMC,193804.110,A,3748.7790,N,12217.8873,W,2.55,224.86,180811,,,D*75
$GPRMC,193805.110,A,3748.7791,N,12217.8884,W,2.68,215.78,180811,,,D*70
$GPRMC,193806.110,A,3748.7787,N,12217.8891,W,2.58,216.80,180811,,,D*77
$GPRMC,193807.110,A,3748.7742,N,12217.8871,W,2.52,220.57,180811,,,D*74
$GPRMC,193808.110,A,3748.7737,N,12217.8883,W,2.46,215.24,180811,,,D*73
$GPRMC,193809.110,A,3748.7730,N,12217.8888,W,2.40,220.95,180811,,,D*74
$GPRMC,193810.110,A,3748.7721,N,12217.8896,W,2.18,216.68,180811,,,D*79
$GPRMC,193811.110,A,3748.7711,N,12217.8897,W,2.46,215.37,180811,,,D*78
$GPRMC,193812.110,A,3748.7711,N,12217.8896,W,2.65,216.16,180811,,,D*7B
$GPRMC,193813.110,A,3748.7725,N,12217.8873,W,3.19,218.43,180811,,,D*72
$GPRMC,193814.110,A,3748.7703,N,12217.8902,W,2.53,213.46,180811,,,D*77
$GPRMC,193815.110,A,3748.7695,N,12217.8910,W,2.73,214.76,180811,,,D*7D
$GPRMC,193816.110,A,3748.7684,N,12217.8923,W,2.44,231.14,180811,,,D*79
$GPRMC,193817.110,A,3748.7673,N,12217.8939,W,2.46,224.88,180811,,,D*78
$GPRMC,193818.110,A,3748.7676,N,12217.8933,W,2.72,217.43,180811,,,D*78
$GPRMC,193819.110,A,3748.7670,N,12217.8935,W,2.59,212.67,180811,,,D*73
$GPRMC,193820.110,A,3748.7648,N,12217.8958,W,2.61,213.16,180811,,,D*75
$GPRMC,193821.110,A,3748.7636,N,12217.8965,W,2.57,211.72,180811,,,D*76
$GPRMC,193822.110,A,3748.7641,N,12217.8951,W,2.94,209.56,180811,,,D*72
$GPRMC,193823.110,A,3748.7636,N,12217.8962,W,2.67,212.94,180811,,,D*7B
$GPRMC,193824.110,A,3748.7634,N,12217.8957,W,2.42,221.45,180811,,,D*73
$GPRMC,193825.000,A,3748.7632,N,12217.8956,W,2.35,221.71,180811,,,D*72
$GPRMC,193826.000,A,3748.7629,N,12217.8957,W,2.51,218.59,180811,,,D*78
$GPRMC,193827.000,A,3748.7623,N,12217.8961,W,2.82,214.18,180811,,,D*71
$GPRMC,193828.000,A,3748.7618,N,12217.8962,W,2.78,208.26,180811,,,D*70
$GPRMC,193829.000,A,3748.7612,N,12217.8964,W,2.33,200.87,180811,,,D*71
$GPRMC,193830.000,A,3748.7603,N,12217.8963,W,2.11,207.64,180811,,,D*74
$GPRMC,193831.000,A,3748.7601,N,12217.8964,W,2.06,219.99,180811,,,D*7B
$GPRMC,193832.000,A,3748.7597,N,12217.8970,W,2.45,217.98,180811,,,D*79
$GPRMC,193833.000,A,3748.7590,N,12217.8981,W,2.63,225.26,180811,,,D*71
$GPRMC,193834.000,A,3748.7581,N,12217.8993,W,2.79,221.29,180811,,,D*75
$GPRMC,193835.000,A,3748.7575,N,12217.9001,W,2.86,221.84,180811,,,D*7B
$GPRMC,193836.000,A,3748.7568,N,12217.9010,W,2.52,216.86,180811,,,D*7B
$GPRMC,193837.000,A,3748.7560,N,12217.9018,W,2.72,219.63,180811,,,D*7C
$GPRMC,193838.000,A,3748.7554,N,12217.9026,W,2.65,224.92,180811,,,D*7F
$GPRMC,193839.000,A,3748.7548,N,12217.9032,W,2.58,220.15,180811,,,D*73
$GPRMC,193840.000,A,3748.7543,N,12217.9038,W,2.16,216.07,180811,,,D*70
$GPRMC,193841.000,A,3748.7538,N,12217.9043,W,2.13,216.39,180811,,,D*79
$GPRMC,193842.000,A,3748.7531,N,12217.9051,W,2.78,220.36,180811,,,D*77
$GPRMC,193843.000,A,3748.7524,N,12217.9057,W,3.12,210.08,180811,,,D*77
$GPRMC,193844.000,A,3748.7518,N,12217.9060,W,2.78,198.45,180811,,,D*7C
$GPRMC,193845.000,A,3748.7514,N,12217.9059,W,2.39,194.66,180811,,,D*73
$GPRMC,193846.000,A,3748.7511,N,12217.9058,W,1.87,190.95,180811,,,D*7A
$GPRMC,193847.000,A,3748.7502,N,12217.9064,W,1.62,190.91,180811,,,D*79
$GPRMC,193848.000,A,3748.7503,N,12217.9053,W,1.19,188.52,180811,,,D*79
$GPRMC,193849.000,A,3748.7497,N,12217.9046,W,1.46,195.07,180811,,,D*76
$GPRMC,193850.000,A,3748.7491,N,12217.9047,W,1.41,177.88,180811,,,D*75
$GPRMC,193851.000,A,3748.7487,N,12217.9051,W,1.69,208.35,180811,,,D*73
$GPRMC,193852.000,A,3748.7475,N,12217.9057,W,3.00,215.03,180811,,,D*7F
$GPRMC,193853.000,A,3748.7466,N,12217.9064,W,2.89,216.71,180811,,,D*7A
$GPRMC,193854.000,A,3748.7463,N,12217.9063,W,2.06,202.49,180811,,,D*76
$GPRMC,193855.000,A,3748.7460,N,12217.9062,W,2.19,209.11,180811,,,D*7D
$GPRMC,193856.000,A,3748.7458,N,12217.9060,W,2.11,212.37,180811,,,D*71
$GPRMC,193857.000,A,3748.7452,N,12217.9064,W,2.59,214.16,180811,,,D*77
$GPRMC,193858.000,A,3748.7447,N,12217.9067,W,2.47,210.05,180811,,,D*76
$GPRMC,193859.000,A,3748.7440,N,12217.9072,W,2.33,209.53,180811,,,D*7C
$GPRMC,193900.000,A,3748.7431,N,12217.9078,W,2.43,211.63,180811,,,D*70
$GPRMC,193901.000,A,3748.7422,N,12217.9086,W,2.45,210.69,180811,,,D*7F
$GPRMC,193902.000,A,3748.7417,N,12217.9088,W,2.26,208.39,180811,,,D*7D
$GPRMC,193903.000,A,3748.7411,N,12217.9094,W,2.19,215.79,180811,,,D*73
$GPRMC,193904.000,A,3748.7407,N,12217.9097,W,2.24,215.97,180811,,,D*7E
$GPRMC,193905.000,A,3748.7402,N,12217.9101,W,2.52,210.77,180811,,,D*7E
$GPRMC,193906.000,A,3748.7395,N,12217.9107,W,2.74,208.23,180811,,,D*7E
$GPRMC,193907.000,A,3748.7388,N,12217.9113,W,2.65,213.39,180811,,,D*77
$GPRMC,193908.000,A,3748.7382,N,12217.9118,W,2.59,213.44,180811,,,D*7C
$GPRMC,193909.000,A,3748.7375,N,12217.9123,W,2.58,212.21,180811,,,D*7E
$GPRMC,193910.000,A,3748.7369,N,12217.9127,W,2.50,205.91,180811,,,D*7A
$GPRMC,193911.000,A,3748.7363,N,12217.9131,W,2.42,200.82,180811,,,D*72
$GPRMC,193912.000,A,3748.7357,N,12217.9133,W,2.21,200.94,180811,,,D*76
$GPRMC,193913.000,A,3748.7352,N,12217.9136,W,2.08,206.15,180811,,,D*73
$GPRMC,193914.000,A,3748.7348,N,12217.9135,W,1.99,207.54,180811,,,D*73
$GPRMC,193915.000,A,3748.7341,N,12217.9135,W,2.27,205.55,180811,,,D*7E
$GPRMC,193916.000,A,3748.7333,N,12217.9139,W,2.19,206.51,180811,,,D*7E
$GPRMC,193917.000,A,3748.7323,N,12217.9146,W,2.13,205.57,180811,,,D*79
$GPRMC,193918.000,A,3748.7317,N,12217.9150,W,2.74,215.29,180811,,,D*7F
$GPRMC,193919.000,A,3748.7306,N,12217.9161,W,2.62,218.70,180811,,,D*7A
$GPRMC,193920.000,A,3748.7302,N,12217.9163,W,2.59,217.29,180811,,,D*7D
$GPRMC,193921.000,A,3748.7297,N,12217.9168,W,2.58,218.32,180811,,,D*7E
$GPRMC,193922.000,A,3748.7287,N,12217.9180,W,3.32,219.66,180811,,,D*77
$GPRMC,193923.000,A,3748.7281,N,12217.9185,W,2.71,211.80,180811,,,D*73
$GPRMC,193924.000,A,3748.7274,N,12217.9192,W,2.74,210.48,180811,,,D*78
$GPRMC,193925.000,A,3748.7267,N,12217.9195,W,2.33,203.01,180811,,,D*70
$GPRMC,193926.000,A,3748.7261,N,12217.9202,W,2.41,208.67,180811,,,D*76
$GPRMC,193927.000,A,3748.7258,N,12217.9205,W,2.17,209.40,180811,,,D*7D
$GPRMC,193928.000,A,3748.7253,N,12217.9210,W,2.43,211.11,180811,,,D*71
$GPRMC,193929.000,A,3748.7250,N,12217.9214,W,2.40,204.24,180811,,,D*76
$GPRMC,193930.000,A,3748.7246,N,12217.9215,W,2.42,202.05,180811,,,D*7F
$GPRMC,193931.000,A,3748.7241,N,12217.9220,W,2.29,206.28,180811,,,D*79
$GPRMC,193932.000,A,3748.7236,N,12217.9226,W,2.26,210.66,180811,,,D*7E
$GPRMC,193933.000,A,3748.7230,N,12217.9233,W,1.99,209.93,180811,,,D*78
$GPRMC,193934.000,A,3748.7224,N,12217.9239,W,2.12,213.04,180811,,,D*75
$GPRMC,193935.000,A,3748.7221,N,12217.9236,W,1.90,199.33,180811,,,D*72
$GPRMC,193936.000,A,3748.7220,N,12217.9232,W,1.44,186.07,180811,,,D*74
$GPRMC,193937.000,A,3748.7217,N,12217.9233,W,1.57,205.56,180811,,,D*7E
$GPRMC,193938.000,A,3748.7212,N,12217.9238,W,1.84,217.92,180811,,,D*7A
$GPRMC,193939.000,A,3748.7208,N,12217.9245,W,2.39,219.42,180811,,,D*7C
$GPRMC,193940.000,A,3748.7203,N,12217.9250,W,2.40,217.61,180811,,,D*7C
$GPRMC,193941.000,A,3748.7199,N,12217.9255,W,2.40,214.73,180811,,,D*78
$GPRMC,193942.000,A,3748.7193,N,12217.9262,W,2.51,215.30,180811,,,D*73
$GPRMC,193943.000,A,3748.7188,N,12217.9267,W,2.13,211.74,180811,,,D*7F
$GPRMC,193944.000,A,3748.7182,N,12217.9273,W,2.52,217.57,180811,,,D*75
$GPRMC,193945.000,A,3748.7175,N,12217.9282,W,2.72,218.55,180811,,,D*7D
$GPRMC,193946.000,A,3748.7172,N,12217.9284,W,2.12,212.09,180811,,,D*7A
$GPRMC,193947.000,A,3748.7168,N,12217.9288,W,2.18,216.51,180811,,,D*7F
$GPRMC,193948.000,A,3748.7167,N,12217.9289,W,2.09,214.72,180811,,,D*7D
$GPRMC,193949.000,A,3748.7162,N,12217.9294,W,2.28,217.77,180811,,,D*70
$GPRMC,193950.000,A,3748.7157,N,12217.9299,W,1.97,215.81,180811,,,D*7F
$GPRMC,193951.000,A,3748.7151,N,12217.9305,W,2.19,209.88,180811,,,D*7D
$GPRMC,193952.000,A,3748.7145,N,12217.9310,W,2.16,214.67,180811,,,D*7D
$GPRMC,193953.000,A,3748.7138,N,12217.9317,W,2.43,214.06,180811,,,D*76
$GPRMC,193954.000,A,3748.7132,N,12217.9322,W,2.38,207.19,180811,,,D*7D
$GPRMC,193955.000,A,3748.7128,N,12217.9324,W,1.96,206.48,180811,,,D*73
$GPRMC,193956.000,A,3748.7124,N,12217.9327,W,2.54,214.00,180811,,,D*7D
$GPRMC,193957.000,A,3748.7120,N,12217.9331,W,2.32,220.17,180811,,,D*7E
$GPRMC,193958.000,A,3748.7112,N,12217.9339,W,2.32,219.05,180811,,,D*71
$GPRMC,193959.000,A,3748.7104,N,12217.9347,W,2.42,216.81,180811,,,D*7A
$GPRMC,194000.000,A,3748.7095,N,12217.9355,W,2.53,214.61,180811,,,D*7E
$GPRMC,194001.000,A,3748.7090,N,12217.9360,W,2.49,216.52,180811,,,D*75
$GPRMC,194002.000,A,3748.7086,N,12217.9362,W,2.24,214.10,180811,,,D*7C
$GPRMC,194003.000,A,3748.7080,N,12217.9367,W,2.74,216.05,180811,,,D*7D
$GPRMC,194004.000,A,3748.7075,N,12217.9372,W,2.66,217.40,180811,,,D*77
$GPRMC,194005.000,A,3748.7070,N,12217.9376,W,2.72,219.22,180811,,,D*78
$GPRMC,194006.000,A,3748.7066,N,12217.9380,W,2.67,225.02,180811,,,D*7C
$GPRMC,194007.000,A,3748.7061,N,12217.9385,W,2.91,217.28,180811,,,D*7F
$GPRMC,194008.000,A,3748.7055,N,12217.9389,W,2.88,211.84,180811,,,D*73
$GPRMC,194009.000,A,3748.7049,N,12217.9394,W,2.79,216.91,180811,,,D*7E
$GPRMC,194010.000,A,3748.7043,N,12217.9399,W,2.83,214.19,180811,,,D*76
$GPRMC,194011.000,A,3748.7037,N,12217.9404,W,2.76,216.77,180811,,,D*77
$GPRMC,194012.000,A,3748.7031,N,12217.9409,W,2.84,217.80,180811,,,D*7B
$GPRMC,194013.000,A,3748.7025,N,12217.9413,W,2.69,215.19,180811,,,D*75
$GPRMC,194014.000,A,3748.7020,N,12217.9416,W,2.59,208.35,180811,,,D*73
$GPRMC,194015.000,A,3748.7013,N,12217.9422,W,2.56,214.59,180811,,,D*7D
$GPRMC,194016.000,A,3748.7006,N,12217.9429,W,2.71,218.48,180811,,,D*78
$GPRMC,194017.000,A,3748.6998,N,12217.9436,W,2.77,216.11,180811,,,D*7C
$GPRMC,194018.000,A,3748.6991,N,12217.9441,W,2.68,211.22,180811,,,D*73
$GPRMC,194019.000,A,3748.6986,N,12217.9443,W,2.31,202.47,180811,,,D*7B
$GPRMC,194020.000,A,3748.6979,N,12217.9446,W,2.63,205.07,180811,,,D*70
$GPRMC,194021.000,A,3748.6973,N,12217.9451,W,2.64,213.18,180811,,,D*73
$GPRMC,194022.000,A,3748.6966,N,12217.9456,W,2.74,214.02,180811,,,D*7E
$GPRMC,194023.000,A,3748.6962,N,12217.9455,W,2.43,191.04,180811,,,D*74
$GPRMC,194024.000,A,3748.6955,N,12217.9458,W,2.23,210.47,180811,,,D*71
$GPRMC,194025.000,A,3748.6948,N,12217.9466,W,2.56,220.97,180811,,,D*7D
$GPRMC,194026.000,A,3748.6940,N,12217.9475,W,2.46,223.91,180811,,,D*70
$GPRMC,194027.000,A,3748.6932,N,12217.9484,W,2.89,222.38,180811,,,D*7B
$GPRMC,194028.000,A,3748.6925,N,12217.9495,W,2.95,227.04,180811,,,D*75
$GPRMC,194029.000,A,3748.6920,N,12217.9501,W,3.03,222.07,180811,,,D*75
$GPRMC,194030.000,A,3748.6913,N,12217.9507,W,3.04,215.53,180811,,,D*79
$GPRMC,194031.000,A,3748.6904,N,12217.9515,W,3.55,215.46,180811,,,D*7D
$GPRMC,194032.000,A,3748.6896,N,12217.9522,W,3.18,209.84,180811,,,D*7A
$GPRMC,194033.000,A,3748.6891,N,12217.9525,W,3.20,215.75,180811,,,D*73
$GPRMC,194034.000,A,3748.6885,N,12217.9529,W,2.96,218.80,180811,,,D*76
$GPRMC,194035.000,A,3748.6881,N,12217.9533,W,2.77,216.87,180811,,,D*7E
$GPRMC,194036.000,A,3748.6877,N,12217.9535,W,2.07,211.45,180811,,,D*7C
$GPRMC,194037.000,A,3748.6868,N,12217.9544,W,2.66,215.40,180811,,,D*73
$GPRMC,194038.000,A,3748.6861,N,12217.9550,W,2.62,208.94,180811,,,D*71
$GPRMC,194039.000,A,3748.6856,N,12217.9552,W,2.39,208.33,180811,,,D*75
$GPRMC,194040.000,A,3748.6848,N,12217.9558,W,2.43,208.19,180811,,,D*7B
$GPRMC,194041.000,A,3748.6841,N,12217.9564,W,2.79,211.66,180811,,,D*75
$GPRMC,194042.000,A,3748.6834,N,12217.9570,W,2.84,210.76,180811,,,D*73
$GPRMC,194043.000,A,3748.6827,N,12217.9574,W,2.78,209.07,180811,,,D*79
$GPRMC,194044.000,A,3748.6821,N,12217.9578,W,2.67,211.25,180811,,,D*73
$GPRMC,194045.000,A,3748.6816,N,12217.9583,W,2.70,219.64,180811,,,D*79
$GPRMC,194046.000,A,3748.6811,N,12217.9587,W,2.79,214.62,180811,,,D*7B
$GPRMC,194047.000,A,3748.6805,N,12217.9591,W,2.68,210.26,180811,,,D*7C
$GPRMC,194048.000,A,3748.6799,N,12217.9595,W,2.77,210.11,180811,,,D*77
$GPRMC,194049.000,A,3748.6793,N,12217.9598,W,2.74,207.02,180811,,,D*76
$GPRMC,194050.000,A,3748.6788,N,12217.9602,W,2.63,209.99,180811,,,D*7E
$GPRMC,194051.000,A,3748.6782,N,12217.9606,W,2.72,210.54,180811,,,D*78
$GPRMC,194052.000,A,3748.6775,N,12217.9610,W,2.82,210.73,180811,,,D*7E
$GPRMC,194053.000,A,3748.6769,N,12217.9614,W,2.45,209.93,180811,,,D*7B
$GPRMC,194054.000,A,3748.6763,N,12217.9619,W,2.69,219.87,180811,,,D*71
$GPRMC,194055.000,A,3748.6758,N,12217.9624,W,2.86,217.38,180811,,,D*7D
$GPRMC,194056.000,A,3748.6752,N,12217.9629,W,2.87,218.24,180811,,,D*7A
$GPRMC,194057.000,A,3748.6744,N,12217.9636,W,3.02,211.65,180811,,,D*72
$GPRMC,194058.000,A,3748.6738,N,12217.9643,W,2.97,212.40,180811,,,D*7D
$GPRMC,194059.000,A,3748.6735,N,12217.9647,W,2.23,219.33,180811,,,D*75
$GPRMC,194100.000,A,3748.6732,N,12217.9654,W,2.81,223.43,180811,,,D*7B
$GPRMC,194101.000,A,3748.6728,N,12217.9659,W,2.94,221.43,180811,,,D*7A
$GPRMC,194102.000,A,3748.6720,N,12217.9667,W,3.51,220.88,180811,,,D*72
$GPRMC,194103.000,A,3748.6711,N,12217.9674,W,3.01,217.54,180811,,,D*73
$GPRMC,194104.000,A,3748.6705,N,12217.9678,W,2.87,216.83,180811,,,D*79
$GPRMC,194105.000,A,3748.6699,N,12217.9682,W,2.82,214.50,180811,,,D*70
$GPRMC,194106.000,A,3748.6688,N,12217.9692,W,3.28,222.03,180811,,,D*70
$GPRMC,194107.000,A,3748.6679,N,12217.9696,W,2.79,220.27,180811,,,D*7A
$GPRMC,194108.000,A,3748.6673,N,12217.9701,W,2.67,221.66,180811,,,D*7B
$GPRMC,194109.000,A,3748.6669,N,12217.9705,W,2.85,224.64,180811,,,D*7E
$GPRMC,194110.000,A,3748.6663,N,12217.9711,W,2.71,222.00,180811,,,D*76
$GPRMC,194111.000,A,3748.6656,N,12217.9716,W,2.97,211.37,180811,,,D*7A
$GPRMC,194112.000,A,3748.6651,N,12217.9719,W,2.95,205.32,180811,,,D*73
$GPRMC,194113.000,A,3748.6649,N,12217.9726,W,2.79,206.47,180811,,,D*74
$GPRMC,194114.000,A,3748.6646,N,12217.9731,W,2.87,203.29,180811,,,D*76
$GPRMC,194115.000,A,3748.6642,N,12217.9736,W,3.07,204.16,180811,,,D*76
$GPRMC,194116.000,A,3748.6632,N,12217.9740,W,3.11,193.79,180811,,,D*70
$GPRMC,194117.000,A,3748.6631,N,12217.9744,W,2.79,185.70,180811,,,D*77
$GPRMC,194118.000,A,3748.6621,N,12217.9748,W,2.48,190.16,180811,,,D*73
$GPRMC,194119.000,A,3748.6616,N,12217.9756,W,2.29,207.47,180811,,,D*77
$GPRMC,194120.000,A,3748.6612,N,12217.9764,W,2.10,215.74,180811,,,D*71
$GPRMC,194121.000,A,3748.6605,N,12217.9768,W,2.53,219.42,180811,,,D*74
$GPRMC,194122.000,A,3748.6595,N,12217.9773,W,2.49,212.73,180811,,,D*75
$GPRMC,194123.000,A,3748.6585,N,12217.9777,W,2.50,207.83,180811,,,D*72
$GPRMC,194124.000,A,3748.6574,N,12217.9783,W,2.43,208.07,180811,,,A*74
$GPRMC,194125.000,A,3748.6565,N,12217.9786,W,2.14,197.81,180811,,,A*79
$GPRMC,194126.000,A,3748.6554,N,12217.9792,W,2.66,210.99,180811,,,A*7D
$GPRMC,194127.000,A,3748.6544,N,12217.9798,W,2.28,212.03,180811,,,D*79
$GPRMC,194128.000,A,3748.6540,N,12217.9796,W,1.67,199.52,180811,,,D*70
$GPRMC,194129.000,A,3748.6537,N,12217.9796,W,2.31,191.68,180811,,,D*70
$GPRMC,194130.000,A,3748.6532,N,12217.9794,W,2.29,173.00,180811,,,D*74
$GPRMC,194131.000,A,3748.6528,N,12217.9791,W,1.99,167.70,180811,,,D*71
$GPRMC,194132.000,A,3748.6520,N,12217.9796,W,2.20,203.38,180811,,,D*71
$GPRMC,194133.000,A,3748.6511,N,12217.9803,W,2.37,200.46,180811,,,D*7D
$GPRMC,194134.000,A,3748.6504,N,12217.9808,W,2.51,194.33,180811,,,D*79
$GPRMC,194135.000,A,3748.6497,N,12217.9811,W,2.48,203.25,180811,,,D*79
$GPRMC,194136.000,A,3748.6491,N,12217.9816,W,2.66,210.54,180811,,,D*73
$GPRMC,194137.000,A,3748.6486,N,12217.9819,W,2.76,213.47,180811,,,D*7B
$GPRMC,194138.000,A,3748.6479,N,12217.9827,W,2.99,220.22,180811,,,D*7B
$GPRMC,194139.000,A,3748.6474,N,12217.9832,W,2.75,219.48,180811,,,D*77
$GPRMC,194140.000,A,3748.6471,N,12217.9835,W,2.76,218.95,180811,,,D*79
$GPRMC,194141.000,A,3748.6467,N,12217.9838,W,2.23,211.37,180811,,,D*73
$GPRMC,194142.000,A,3748.6455,N,12217.9850,W,3.13,217.22,180811,,,D*7F
$GPRMC,194143.000,A,3748.6447,N,12217.9857,W,2.85,214.63,180811,,,D*72
$GPRMC,194144.000,A,3748.6438,N,12217.9865,W,3.14,216.36,180811,,,D*77
$GPRMC,194145.000,A,3748.6435,N,12217.9868,W,2.60,218.53,180811,,,D*79
$GPRMC,194146.000,A,3748.6427,N,12217.9875,W,3.16,218.83,180811,,,D*78
$GPRMC,194147.000,A,3748.6421,N,12217.9881,W,2.86,214.78,180811,,,D*74
$GPRMC,194148.000,A,3748.6415,N,12217.9886,W,2.77,215.17,180811,,,D*7D
$GPRMC,194149.000,A,3748.6409,N,12217.9892,W,2.80,219.44,180811,,,D*76
$GPRMC,194150.000,A,3748.6403,N,12217.9897,W,2.86,221.27,180811,,,D*79
$GPRMC,194151.000,A,3748.6393,N,12217.9907,W,3.09,215.66,180811,,,D*7A
$GPRMC,194152.000,A,3748.6384,N,12217.9914,W,3.09,210.35,180811,,,D*7E
$GPRMC,194153.000,A,3748.6375,N,12217.9920,W,3.08,207.74,180811,,,D*74
$GPRMC,194154.000,A,3748.6367,N,12217.9925,W,2.83,215.95,180811,,,D*7B
$GPRMC,194155.000,A,3748.6363,N,12217.9928,W,2.63,214.43,180811,,,D*77
$GPRMC,194156.000,A,3748.6357,N,12217.9932,W,2.80,212.03,180811,,,D*77
$GPRMC,194157.000,A,3748.6351,N,12217.9936,W,2.75,215.56,180811,,,D*79
$GPRMC,194158.000,A,3748.6345,N,12217.9942,W,2.92,215.48,180811,,,D*76
$GPRMC,194159.000,A,3748.6336,N,12217.9950,W,3.23,218.73,180811,,,D*7E
$GPRMC,194200.000,A,3748.6329,N,12217.9958,W,3.05,220.20,180811,,,D*7E
$GPRMC,194201.000,A,3748.6321,N,12217.9965,W,2.93,219.88,180811,,,D*7F
$GPRMC,194202.000,A,3748.6314,N,12217.9972,W,2.88,218.55,180811,,,D*77
$GPRMC,194203.000,A,3748.6307,N,12217.9977,W,3.03,210.11,180811,,,D*7B
$GPRMC,194204.000,A,3748.6300,N,12217.9981,W,2.96,207.83,180811,,,D*72
$GPRMC,194205.000,A,3748.6294,N,12217.9985,W,2.88,212.87,180811,,,D*74
$GPRMC,194206.000,A,3748.6287,N,12217.9990,W,2.80,221.13,180811,,,D*74
$GPRMC,194207.000,A,3748.6282,N,12217.9994,W,2.88,220.58,180811,,,D*72
$GPRMC,194208.000,A,3748.6275,N,12217.9999,W,2.91,217.68,180811,,,D*77
$GPRMC,194209.000,A,3748.6269,N,12218.0003,W,3.02,210.67,180811,,,D*74
$GPRMC,194210.000,A,3748.6261,N,12218.0007,W,2.99,212.37,180811,,,D*74
$GPRMC,194211.000,A,3748.6254,N,12218.0011,W,2.90,227.47,180811,,,D*7C
$GPRMC,194212.000,A,3748.6249,N,12218.0015,W,2.71,207.63,180811,,,D*7C
$GPRMC,194213.000,A,3748.6247,N,12218.0022,W,2.36,218.51,180811,,,D*7B
$GPRMC,194214.000,A,3748.6242,N,12218.0024,W,2.43,204.71,180811,,,D*72
$GPRMC,194215.000,A,3748.6232,N,12218.0030,W,2.78,196.81,180811,,,D*7E
$GPRMC,194216.000,A,3748.6220,N,12218.0034,W,2.83,190.95,180811,,,D*7D
$GPRMC,194217.000,A,3748.6210,N,12218.0035,W,2.42,161.69,180811,,,D*7E
$GPRMC,194218.000,A,3748.6202,N,12218.0031,W,2.65,147.05,180811,,,D*7D
$GPRMC,194219.000,A,3748.6190,N,12218.0030,W,2.67,142.77,180811,,,D*77
$GPRMC,194220.000,A,3748.6182,N,12218.0027,W,2.16,129.69,180811,,,D*7C
$GPRMC,194221.000,A,3748.6173,N,12218.0024,W,2.21,109.80,180811,,,D*71
$GPRMC,194222.000,A,3748.6170,N,12218.0013,W,2.64,94.51,180811,,,D*4D
$GPRMC,194223.000,A,3748.6176,N,12217.9997,W,2.25,87.30,180811,,,D*49
$GPRMC,194224.000,A,3748.6171,N,12217.9993,W,1.79,107.11,180811,,,D*7D
$GPRMC,194225.000,A,3748.6164,N,12217.9990,W,2.41,105.44,180811,,,D*71
$GPRMC,194226.000,A,3748.6154,N,12217.9989,W,2.56,99.56,180811,,,D*48
$GPRMC,194227.000,A,3748.6155,N,12217.9974,W,3.37,82.79,180811,,,D*4B
$GPRMC,194228.000,A,3748.6156,N,12217.9959,W,3.27,83.14,180811,,,D*43
$GPRMC,194229.000,A,3748.6158,N,12217.9941,W,3.65,82.03,180811,,,D*44
$GPRMC,194230.000,A,3748.6155,N,12217.9930,W,2.41,107.84,180811,,,D*73
$GPRMC,194231.000,A,3748.6149,N,12217.9920,W,2.37,118.26,180811,,,D*79
$GPRMC,194232.000,A,3748.6138,N,12217.9920,W,2.50,129.70,180811,,,D*7C
$GPRMC,194233.000,A,3748.6136,N,12217.9908,W,2.67,122.10,180811,,,D*70
$GPRMC,194234.000,A,3748.6131,N,12217.9899,W,2.45,124.22,180811,,,D*7E
$GPRMC,194235.000,A,3748.6126,N,12217.9890,W,2.38,114.38,180811,,,D*72
$GPRMC,194236.000,A,3748.6122,N,12217.9880,W,2.53,109.13,180811,,,D*7C
$GPRMC,194237.000,A,3748.6117,N,12217.9871,W,2.50,112.25,180811,,,D*79
$GPRMC,194238.000,A,3748.6112,N,12217.9862,W,2.61,118.10,180811,,,D*7F
$GPRMC,194239.000,A,3748.6110,N,12217.9849,W,2.79,111.67,180811,,,D*75
$GPRMC,194240.000,A,3748.6106,N,12217.9839,W,2.51,111.76,180811,,,D*71
$GPRMC,194241.000,A,3748.6103,N,12217.9828,W,2.49,103.68,180811,,,D*70
$GPRMC,194242.000,A,3748.6096,N,12217.9823,W,2.30,118.96,180811,,,D*70
$GPRMC,194243.000,A,3748.6094,N,12217.9815,W,1.94,120.61,180811,,,D*78
$GPRMC,194244.000,A,3748.6095,N,12217.9804,W,2.01,101.91,180811,,,D*7D
$GPRMC,194245.000,A,3748.6093,N,12217.9795,W,2.21,94.19,180811,,,D*42
$GPRMC,194246.000,A,3748.6091,N,12217.9786,W,2.27,104.54,180811,,,D*76
$GPRMC,194247.000,A,3748.6088,N,12217.9777,W,2.18,112.91,180811,,,D*73
$GPRMC,194248.000,A,3748.6085,N,12217.9769,W,2.36,113.67,180811,,,D*7A
$GPRMC,194249.000,A,3748.6077,N,12217.9766,W,2.09,125.65,180811,,,D*72
$GPRMC,194250.000,A,3748.6079,N,12217.9753,W,2.32,122.67,180811,,,D*7F
$GPRMC,194251.000,A,3748.6074,N,12217.9743,W,2.21,128.09,180811,,,D*72
$GPRMC,194252.000,A,3748.6066,N,12217.9736,W,2.70,125.54,180811,,,D*71
$GPRMC,194253.000,A,3748.6055,N,12217.9732,W,2.57,127.10,180811,,,D*73
$GPRMC,194254.000,A,3748.6051,N,12217.9722,W,2.53,122.56,180811,,,D*72
$GPRMC,194255.000,A,3748.6043,N,12217.9717,W,2.59,124.13,180811,,,D*7B
$GPRMC,194256.000,A,3748.6035,N,12217.9709,W,2.80,121.84,180811,,,D*79
$GPRMC,194257.000,A,3748.6029,N,12217.9705,W,2.40,120.80,180811,,,D*70
$GPRMC,194258.000,A,3748.6026,N,12217.9696,W,2.28,105.11,180811,,,D*7A
$GPRMC,194259.000,A,3748.6026,N,12217.9690,W,1.65,104.01,180811,,,D*77
$GPRMC,194300.000,A,3748.6025,N,12217.9685,W,1.62,111.73,180811,,,D*7B
$GPRMC,194301.000,A,3748.6021,N,12217.9679,W,2.15,126.50,180811,,,D*7B
$GPRMC,194302.000,A,3748.6018,N,12217.9670,W,2.08,116.79,180811,,,D*7F
$GPRMC,194303.000,A,3748.6016,N,12217.9660,W,2.04,124.43,180811,,,D*75
$GPRMC,194304.000,A,3748.6006,N,12217.9639,W,2.40,120.36,180811,,,D*79
$GPRMC,194305.000,A,3748.6003,N,12217.9631,W,2.82,119.65,180811,,,D*77
$GPRMC,194306.000,A,3748.6000,N,12217.9619,W,2.61,120.77,180811,,,D*79
$GPRMC,194307.000,A,3748.5998,N,12217.9609,W,2.24,118.45,180811,,,D*79
$GPRMC,194308.000,A,3748.5996,N,12217.9601,W,2.38,109.91,180811,,,D*74
$GPRMC,194309.000,A,3748.5991,N,12217.9590,W,2.61,109.27,180811,,,D*78
$GPRMC,194310.000,A,3748.5986,N,12217.9581,W,2.36,122.20,180811,,,D*7A
$GPRMC,194311.000,A,3748.5977,N,12217.9562,W,2.76,112.44,180811,,,D*7D
$GPRMC,194312.000,A,3748.5972,N,12217.9546,W,2.54,114.17,180811,,,D*7D
$GPRMC,194313.000,A,3748.5968,N,12217.9537,W,2.33,115.20,180811,,,D*75
$GPRMC,194314.000,A,3748.5966,N,12217.9534,W,2.57,115.20,180811,,,D*7D
$GPRMC,194315.000,A,3748.5960,N,12217.9526,W,2.38,124.07,180811,,,D*77
$GPRMC,194316.000,A,3748.5953,N,12217.9521,W,2.07,129.29,180811,,,D*7E
$GPRMC,194317.000,A,3748.5943,N,12217.9522,W,2.03,143.90,180811,,,D*77
$GPRMC,194318.000,A,3748.5940,N,12217.9523,W,2.24,135.73,180811,,,D*73
$GPRMC,194319.000,A,3748.5938,N,12217.9523,W,2.10,132.77,180811,,,D*79
$GPRMC,194320.000,A,3748.5936,N,12217.9521,W,1.78,138.77,180811,,,D*78
$GPRMC,194321.000,A,3748.5933,N,12217.9516,W,2.22,124.00,180811,,,D*79
$GPRMC,194322.000,A,3748.5930,N,12217.9509,W,2.42,113.00,180811,,,D*75
$GPRMC,194323.000,A,3748.5927,N,12217.9499,W,2.15,118.08,180811,,,D*7B
$GPRMC,194324.000,A,3748.5923,N,12217.9489,W,2.23,112.71,180811,,,D*78
$GPRMC,194325.000,A,3748.5922,N,12217.9483,W,2.25,100.61,180811,,,D*76
$GPRMC,194326.000,A,3748.5921,N,12217.9476,W,2.02,107.31,180811,,,D*7B
$GPRMC,194327.000,A,3748.5919,N,12217.9468,W,2.19,119.20,180811,,,D*7B
$GPRMC,194328.000,A,3748.5916,N,12217.9458,W,3.07,113.99,180811,,,D*7E
$GPRMC,194329.000,A,3748.5907,N,12217.9445,W,2.60,126.37,180811,,,D*71
$GPRMC,194330.000,A,3748.5901,N,12217.9437,W,2.34,124.12,180811,,,D*7E
$GPRMC,194331.000,A,3748.5896,N,12217.9430,W,1.93,126.92,180811,,,D*73
$GPRMC,194332.000,A,3748.5891,N,12217.9421,W,2.53,119.68,180811,,,D*71
$GPRMC,194333.000,A,3748.5892,N,12217.9413,W,2.00,110.98,180811,,,D*72
$GPRMC,194334.000,A,3748.5892,N,12217.9407,W,1.12,119.04,180811,,,D*7C
$GPRMC,194335.000,A,3748.5891,N,12217.9398,W,1.71,126.82,180811,,,D*78
$GPRMC,194336.000,A,3748.5886,N,12217.9393,W,2.04,137.48,180811,,,D*71
$GPRMC,194337.000,A,3748.5882,N,12217.9394,W,1.97,144.12,180811,,,D*71
$GPRMC,194338.000,A,3748.5875,N,12217.9398,W,2.17,172.21,180811,,,D*74
$GPRMC,194339.000,A,3748.5867,N,12217.9401,W,1.79,168.12,180811,,,D*71
$GPRMC,194340.000,A,3748.5854,N,12217.9408,W,1.57,171.07,180811,,,D*76
$GPRMC,194341.000,A,3748.5845,N,12217.9413,W,2.08,197.65,180811,,,D*78
$GPRMC,194342.000,A,3748.5837,N,12217.9416,W,2.36,198.90,180811,,,D*73
$GPRMC,194343.000,A,3748.5827,N,12217.9423,W,2.69,204.97,180811,,,D*7E
$GPRMC,194344.000,A,3748.5817,N,12217.9427,W,2.68,205.61,180811,,,D*77
$GPRMC,194345.000,A,3748.5809,N,12217.9436,W,2.50,205.62,180811,,,D*71
$GPRMC,194346.000,A,3748.5801,N,12217.9439,W,2.30,197.72,180811,,,D*7A
$GPRMC,194347.000,A,3748.5792,N,12217.9444,W,2.24,194.23,180811,,,D*76
$GPRMC,194348.000,A,3748.5783,N,12217.9449,W,2.18,194.07,180811,,,D*7D
$GPRMC,194349.000,A,3748.5771,N,12217.9456,W,2.80,215.04,180811,,,D*77
$GPRMC,194350.000,A,3748.5763,N,12217.9456,W,2.24,198.34,180811,,,D*77
$GPRMC,194351.000,A,3748.5760,N,12217.9453,W,1.71,197.29,180811,,,D*70
$GPRMC,194352.000,A,3748.5758,N,12217.9454,W,1.75,189.13,180811,,,D*7D
$GPRMC,194353.000,A,3748.5750,N,12217.9458,W,1.88,174.22,180811,,,D*7A
$GPRMC,194354.000,A,3748.5746,N,12217.9453,W,1.55,175.58,180811,,,D*7D
$GPRMC,194355.000,A,3748.5738,N,12217.9456,W,1.79,194.46,180811,,,D*7E
$GPRMC,194356.000,A,3748.5732,N,12217.9463,W,1.65,201.57,180811,,,D*73
$GPRMC,194357.000,A,3748.5727,N,12217.9471,W,1.90,199.19,180811,,,D*77
$GPRMC,194358.000,A,3748.5722,N,12217.9475,W,1.37,210.03,180811,,,D*7D
$GPRMC,194359.000,A,3748.5715,N,12217.9478,W,1.42,208.16,180811,,,D*7A
$GPRMC,194400.000,A,3748.5709,N,12217.9480,W,1.80,206.51,180811,,,D*78
$GPRMC,194401.000,A,3748.5701,N,12217.9485,W,1.90,209.79,180811,,,D*70
$GPRMC,194402.000,A,3748.5694,N,12217.9491,W,2.20,198.03,180811,,,D*75
$GPRMC,194403.000,A,3748.5686,N,12217.9496,W,2.41,190.24,180811,,,D*7A
$GPRMC,194404.000,A,3748.5678,N,12217.9501,W,2.70,197.84,180811,,,D*7C
$GPRMC,194405.000,A,3748.5671,N,12217.9508,W,2.67,199.17,180811,,,D*7F
$GPRMC,194406.000,A,3748.5661,N,12217.9516,W,2.78,196.24,180811,,,D*73
$GPRMC,194407.000,A,3748.5655,N,12217.9525,W,2.70,187.92,180811,,,D*70
$GPRMC,194408.000,A,3748.5646,N,12217.9532,W,2.25,198.31,180811,,,D*7C
$GPRMC,194409.000,A,3748.5639,N,12217.9541,W,1.98,214.56,180811,,,D*72
$GPRMC,194410.000,A,3748.5634,N,12217.9548,W,1.96,209.50,180811,,,D*7A
$GPRMC,194411.000,A,3748.5632,N,12217.9551,W,1.82,196.95,180811,,,D*7C
$GPRMC,194412.000,A,3748.5627,N,12217.9555,W,2.72,201.88,180811,,,D*72
$GPRMC,194413.000,A,3748.5618,N,12217.9563,W,2.71,199.01,180811,,,D*7A
$GPRMC,194414.000,A,3748.5613,N,12217.9570,W,2.15,196.25,180811,,,D*7F
$GPRMC,194415.000,A,3748.5609,N,12217.9571,W,1.59,193.98,180811,,,D*7C
$GPRMC,194416.000,A,3748.5607,N,12217.9573,W,1.41,211.73,180811,,,D*76
$GPRMC,194417.000,A,3748.5601,N,12217.9575,W,1.34,202.13,180811,,,D*71
$GPRMC,194418.000,A,3748.5593,N,12217.9580,W,1.57,196.07,180811,,,D*72
$GPRMC,194419.000,A,3748.5588,N,12217.9580,W,2.01,185.20,180811,,,D*7E
$GPRMC,194420.000,A,3748.5581,N,12217.9582,W,1.53,173.75,180811,,,D*72
$GPRMC,194421.000,A,3748.5575,N,12217.9583,W,1.22,178.78,180811,,,D*79
$GPRMC,194422.000,A,3748.5573,N,12217.9583,W,1.41,168.10,180811,,,D*76
$GPRMC,194423.000,A,3748.5566,N,12217.9588,W,1.67,187.41,180811,,,D*79
$GPRMC,194424.000,A,3748.5562,N,12217.9597,W,2.61,215.27,180811,,,D*79
$GPRMC,194425.000,A,3748.5557,N,12217.9608,W,2.41,221.45,180811,,,D*7A
$GPRMC,194426.000,A,3748.5551,N,12217.9619,W,2.90,216.64,180811,,,D*74
$GPRMC,194427.000,A,3748.5544,N,12217.9628,W,2.54,215.40,180811,,,D*7E
$GPRMC,194428.000,A,3748.5539,N,12217.9637,W,2.64,213.26,180811,,,D*70
$GPRMC,194429.000,A,3748.5532,N,12217.9643,W,2.17,200.32,180811,,,D*7A
$GPRMC,194430.000,A,3748.5525,N,12217.9651,W,2.24,202.61,180811,,,D*73
$GPRMC,194431.000,A,3748.5517,N,12217.9659,W,2.65,210.65,180811,,,D*79
$GPRMC,194432.000,A,3748.5513,N,12217.9664,W,1.68,202.73,180811,,,D*7A
$GPRMC,194433.000,A,3748.5503,N,12217.9671,W,2.43,208.89,180811,,,D*7B
$GPRMC,194434.000,A,3748.5497,N,12217.9679,W,2.60,209.74,180811,,,D*7A
$GPRMC,194435.000,A,3748.5489,N,12217.9687,W,2.54,206.00,180811,,,D*7E
$GPRMC,194436.000,A,3748.5481,N,12217.9693,W,2.55,204.05,180811,,,D*76
$GPRMC,194437.000,A,3748.5471,N,12217.9698,W,2.60,206.01,180811,,,D*73
$GPRMC,194438.000,A,3748.5463,N,12217.9704,W,2.45,203.77,180811,,,D*78
$GPRMC,194439.000,A,3748.5460,N,12217.9710,W,2.63,215.04,180811,,,D*78
$GPRMC,194440.000,A,3748.5457,N,12217.9714,W,1.94,202.72,180811,,,D*7A
$GPRMC,194441.000,A,3748.5446,N,12217.9717,W,2.96,204.47,180811,,,D*79
$GPRMC,194442.000,A,3748.5438,N,12217.9717,W,2.39,199.86,180811,,,D*7C
$GPRMC,194443.000,A,3748.5425,N,12217.9721,W,3.04,207.76,180811,,,D*70
$GPRMC,194444.000,A,3748.5416,N,12217.9727,W,2.67,204.37,180811,,,D*73
$GPRMC,194445.000,A,3748.5407,N,12217.9734,W,2.59,202.33,180811,,,D*7F
$GPRMC,194446.000,A,3748.5400,N,12217.9740,W,2.49,191.12,180811,,,D*73
$GPRMC,194447.000,A,3748.5392,N,12217.9744,W,2.34,180.85,180811,,,D*7E
$GPRMC,194448.000,A,3748.5385,N,12217.9750,W,2.83,196.53,180811,,,D*72
$GPRMC,194449.000,A,3748.5376,N,12217.9756,W,2.57,195.96,180811,,,D*7A
$GPRMC,194450.000,A,3748.5371,N,12217.9759,W,2.40,193.99,180811,,,D*75
$GPRMC,194451.000,A,3748.5368,N,12217.9764,W,1.90,200.34,180811,,,D*72
$GPRMC,194452.000,A,3748.5365,N,12217.9772,W,1.88,197.93,180811,,,D*72
$GPRMC,194453.000,A,3748.5360,N,12217.9778,W,1.91,189.77,180811,,,D*71
$GPRMC,194454.000,A,3748.5353,N,12217.9784,W,2.24,192.63,180811,,,D*77
$GPRMC,194455.000,A,3748.5348,N,12217.9788,W,2.38,206.73,180811,,,D*72
$GPRMC,194456.000,A,3748.5346,N,12217.9793,W,1.89,205.81,180811,,,D*72
$GPRMC,194457.000,A,3748.5340,N,12217.9798,W,2.06,206.15,180811,,,D*74
$GPRMC,194458.000,A,3748.5330,N,12217.9803,W,2.22,208.27,180811,,,D*78
$GPRMC,194459.000,A,3748.5319,N,12217.9808,W,2.34,199.25,180811,,,D*77
$GPRMC,194500.000,A,3748.5314,N,12217.9814,W,2.37,216.46,180811,,,D*78
$GPRMC,194501.000,A,3748.5308,N,12217.9820,W,2.30,217.63,180811,,,D*72
$GPRMC,194502.000,A,3748.5302,N,12217.9825,W,2.26,213.92,180811,,,D*73
$GPRMC,194503.000,A,3748.5296,N,12217.9828,W,1.93,211.66,180811,,,D*77
$GPRMC,194504.000,A,3748.5286,N,12217.9833,W,2.73,218.06,180811,,,D*79
$GPRMC,194505.000,A,3748.5279,N,12217.9838,W,2.16,217.70,180811,,,D*7E
$GPRMC,194506.000,A,3748.5271,N,12217.9843,W,1.54,202.88,180811,,,D*7F
$GPRMC,194507.000,A,3748.5264,N,12217.9844,W,2.08,200.18,180811,,,D*7C
$GPRMC,194508.000,A,3748.5257,N,12217.9846,W,2.32,202.76,180811,,,D*72
$GPRMC,194509.000,A,3748.5250,N,12217.9848,W,1.94,202.21,180811,,,D*77
$GPRMC,194510.000,A,3748.5243,N,12217.9854,W,1.89,210.28,180811,,,D*76
$GPRMC,194511.000,A,3748.5236,N,12217.9859,W,1.98,208.93,180811,,,D*71
$GPRMC,194512.000,A,3748.5231,N,12217.9867,W,2.40,216.44,180811,,,D*7B
$GPRMC,194513.000,A,3748.5225,N,12217.9869,W,2.08,206.90,180811,,,D*75
$GPRMC,194514.000,A,3748.5218,N,12217.9878,W,2.06,215.39,180811,,,D*73
$GPRMC,194515.000,A,3748.5212,N,12217.9885,W,1.91,196.90,180811,,,D*7C
$GPRMC,194516.000,A,3748.5205,N,12217.9887,W,1.87,179.04,180811,,,D*70
$GPRMC,194517.000,A,3748.5199,N,12217.9891,W,1.98,169.77,180811,,,D*7B
$GPRMC,194518.000,A,3748.5192,N,12217.9896,W,1.95,179.01,180811,,,D*75
$GPRMC,194519.000,A,3748.5182,N,12217.9904,W,1.88,188.13,180811,,,D*7E
$GPRMC,194520.000,A,3748.5178,N,12217.9909,W,1.49,178.70,180811,,,D*7B
$GPRMC,194521.000,A,3748.5175,N,12217.9914,W,1.84,195.61,180811,,,D*79
$GPRMC,194522.000,A,3748.5169,N,12217.9919,W,1.93,194.66,180811,,,D*7A
$GPRMC,194523.000,A,3748.5166,N,12217.9921,W,1.85,196.53,180811,,,D*7C
$GPRMC,194524.000,A,3748.5161,N,12217.9924,W,1.68,195.36,180811,,,D*7A
$GPRMC,194525.000,A,3748.5152,N,12217.9933,W,2.38,210.29,180811,,,D*7B
$GPRMC,194526.000,A,3748.5141,N,12217.9940,W,2.74,218.26,180811,,,D*71
$GPRMC,194527.000,A,3748.5133,N,12217.9949,W,2.53,211.81,180811,,,D*7D
$GPRMC,194528.000,A,3748.5125,N,12217.9953,W,2.06,211.45,180811,,,D*76
$GPRMC,194529.000,A,3748.5122,N,12217.9957,W,1.88,204.12,180811,,,D*77
$GPRMC,194530.000,A,3748.5122,N,12217.9959,W,1.96,194.43,180811,,,D*70
$GPRMC,194531.000,A,3748.5116,N,12217.9964,W,1.97,194.92,180811,,,D*75
$GPRMC,194532.000,A,3748.5108,N,12217.9971,W,2.34,205.63,180811,,,D*72
$GPRMC,194533.000,A,3748.5098,N,12217.9975,W,2.01,204.60,180811,,,D*7B
$GPRMC,194534.000,A,3748.5096,N,12217.9978,W,1.41,188.29,180811,,,D*72
$GPRMC,194535.000,A,3748.5089,N,12217.9980,W,1.43,178.65,180811,,,D*7F
$GPRMC,194536.000,A,3748.5082,N,12217.9985,W,2.10,204.19,180811,,,D*74
$GPRMC,194537.000,A,3748.5076,N,12217.9991,W,1.84,207.46,180811,,,D*7C
$GPRMC,194538.000,A,3748.5072,N,12217.9992,W,1.23,196.97,180811,,,D*7E
$GPRMC,194539.000,A,3748.5066,N,12217.9999,W,2.14,199.46,180811,,,D*75
$GPRMC,194540.000,A,3748.5058,N,12218.0005,W,2.09,201.86,180811,,,D*7E
$GPRMC,194541.000,A,3748.5051,N,12218.0012,W,2.33,191.76,180811,,,D*7C
$GPRMC,194542.000,A,3748.5046,N,12218.0020,W,1.80,199.14,180811,,,D*7F
$GPRMC,194543.000,A,3748.5045,N,12218.0027,W,1.91,204.79,180811,,,D*76
$GPRMC,194544.000,A,3748.5038,N,12218.0031,W,1.95,191.99,180811,,,D*79
$GPRMC,194545.000,A,3748.5032,N,12218.0034,W,1.66,205.92,180811,,,D*7E
$GPRMC,194546.000,A,3748.5024,N,12218.0032,W,1.94,218.85,180811,,,D*7B
$GPRMC,194547.000,A,3748.5019,N,12218.0035,W,1.78,202.39,180811,,,D*7D
$GPRMC,194548.000,A,3748.5014,N,12218.0041,W,1.92,215.54,180811,,,D*75
$GPRMC,194549.000,A,3748.5004,N,12218.0048,W,2.31,210.44,180811,,,D*72
$GPRMC,194550.000,A,3748.4995,N,12218.0054,W,2.24,213.16,180811,,,D*77
$GPRMC,194551.000,A,3748.4985,N,12218.0060,W,2.27,206.79,180811,,,D*7E
$GPRMC,194552.000,A,3748.4977,N,12218.0067,W,2.65,217.64,180811,,,D*7D
$GPRMC,194553.000,A,3748.4969,N,12218.0077,W,2.76,222.96,180811,,,D*7B
$GPRMC,194554.000,A,3748.4963,N,12218.0086,W,2.58,215.07,180811,,,D*78
$GPRMC,194555.000,A,3748.4956,N,12218.0089,W,2.95,207.17,180811,,,D*73
$GPRMC,194556.000,A,3748.4949,N,12218.0096,W,2.56,206.56,180811,,,D*7B
$GPRMC,194557.000,A,3748.4940,N,12218.0103,W,2.34,199.88,180811,,,D*7C
$GPRMC,194558.000,A,3748.4936,N,12218.0111,W,2.46,205.12,180811,,,D*71
$GPRMC,194559.000,A,3748.4928,N,12218.0121,W,2.17,202.20,180811,,,D*7E
$GPRMC,194600.000,A,3748.4925,N,12218.0128,W,2.09,206.31,180811,,,D*7E
$GPRMC,194601.000,A,3748.4919,N,12218.0135,W,1.98,197.21,180811,,,D*7D
$GPRMC,194602.000,A,3748.4912,N,12218.0143,W,2.53,205.58,180811,,,D*76
$GPRMC,194603.000,A,3748.4905,N,12218.0151,W,2.70,210.94,180811,,,D*77
$GPRMC,194604.000,A,3748.4896,N,12218.0161,W,2.83,210.55,180811,,,D*79
$GPRMC,194605.000,A,3748.4886,N,12218.0170,W,2.80,209.48,180811,,,D*7E
$GPRMC,194606.000,A,3748.4877,N,12218.0177,W,2.63,209.41,180811,,,D*70
$GPRMC,194607.000,A,3748.4871,N,12218.0179,W,2.28,207.23,180811,,,D*7C
$GPRMC,194608.000,A,3748.4865,N,12218.0177,W,2.50,196.75,180811,,,D*7F
$GPRMC,194609.000,A,3748.4862,N,12218.0173,W,1.73,191.34,180811,,,D*7D
$GPRMC,194609.000,A,3748.4858,N,12218.0174,W,2.22,220.86,180811,,,D*74
$GPRMC,194610.000,A,3748.4853,N,12218.0180,W,2.42,223.99,180811,,,D*77
$GPRMC,194611.000,A,3748.4846,N,12218.0184,W,2.21,209.82,180811,,,D*71
$GPRMC,194612.000,A,3748.4843,N,12218.0190,W,1.77,209.74,180811,,,D*7B
$GPRMC,194613.000,A,3748.4836,N,12218.0197,W,2.02,196.77,180811,,,D*78
$GPRMC,194614.000,A,3748.4830,N,12218.0205,W,2.03,198.65,180811,,,D*7D
$GPRMC,194615.000,A,3748.4824,N,12218.0214,W,2.05,207.70,180811,,,D*7E
$GPRMC,194616.000,A,3748.4820,N,12218.0217,W,1.90,211.23,180811,,,D*74
$GPRMC,194617.000,A,3748.4816,N,12218.0224,W,2.10,208.65,180811,,,D*71
$GPRMC,194618.000,A,3748.4811,N,12218.0226,W,2.25,204.24,180811,,,D*74
$GPRMC,194619.000,A,3748.4801,N,12218.0231,W,2.23,198.58,180811,,,D*79
$GPRMC,194620.000,A,3748.4793,N,12218.0234,W,2.68,201.92,180811,,,D*78
$GPRMC,194621.000,A,3748.4789,N,12218.0235,W,2.55,198.67,180811,,,D*74
$GPRMC,194622.000,A,3748.4781,N,12218.0238,W,2.61,200.15,180811,,,D*72
$GPRMC,194623.000,A,3748.4774,N,12218.0241,W,2.49,204.69,180811,,,D*72
$GPRMC,194624.000,A,3748.4766,N,12218.0245,W,2.66,206.61,180811,,,D*75
$GPRMC,194625.000,A,3748.4759,N,12218.0256,W,2.62,202.05,180811,,,D*78
$GPRMC,194626.000,A,3748.4755,N,12218.0263,W,2.24,199.94,180811,,,D*7A
$GPRMC,194627.000,A,3748.4750,N,12218.0272,W,2.47,211.50,180811,,,D*70
$GPRMC,194628.000,A,3748.4742,N,12218.0277,W,2.29,208.61,180811,,,D*7B
$GPRMC,194629.000,A,3748.4734,N,12218.0281,W,2.18,205.44,180811,,,D*7A
$GPRMC,194630.000,A,3748.4728,N,12218.0290,W,2.15,203.57,180811,,,D*76
$GPRMC,194631.000,A,3748.4719,N,12218.0302,W,2.23,204.31,180811,,,D*7D
$GPRMC,194632.000,A,3748.4713,N,12218.0311,W,2.26,202.70,180811,,,D*70
$GPRMC,194633.000,A,3748.4706,N,12218.0319,W,2.34,198.66,180811,,,D*79
$GPRMC,194634.000,A,3748.4702,N,12218.0326,W,2.21,201.33,180811,,,D*71
$GPRMC,194635.000,A,3748.4696,N,12218.0328,W,1.97,197.13,180811,,,D*72
$GPRMC,194636.000,A,3748.4690,N,12218.0329,W,2.06,195.49,180811,,,D*70
$GPRMC,194637.000,A,3748.4684,N,12218.0336,W,1.99,199.81,180811,,,D*77
$GPRMC,194638.000,A,3748.4679,N,12218.0344,W,2.50,210.87,180811,,,D*7D
$GPRMC,194639.000,A,3748.4673,N,12218.0350,W,2.56,198.64,180811,,,D*7B
$GPRMC,194640.000,A,3748.4667,N,12218.0357,W,2.73,201.99,180811,,,D*71
$GPRMC,194641.000,A,3748.4660,N,12218.0362,W,2.54,197.08,180811,,,D*70
$GPRMC,194642.000,A,3748.4652,N,12218.0366,W,2.93,204.58,180811,,,D*71
$GPRMC,194643.000,A,3748.4644,N,12218.0372,W,2.69,201.61,180811,,,D*78
$GPRMC,194644.000,A,3748.4637,N,12218.0376,W,2.44,193.61,180811,,,D*78
$GPRMC,194645.000,A,3748.4631,N,12218.0382,W,2.33,191.94,180811,,,D*7C
$GPRMC,194646.000,A,3748.4625,N,12218.0385,W,2.40,189.65,180811,,,D*7E
$GPRMC,194647.000,A,3748.4619,N,12218.0389,W,2.29,189.50,180811,,,D*75
$GPRMC,194648.000,A,3748.4612,N,12218.0394,W,2.65,191.73,180811,,,D*7D
$GPRMC,194649.000,A,3748.4604,N,12218.0397,W,2.63,187.10,180811,,,D*7C
$GPRMC,194650.000,A,3748.4597,N,12218.0397,W,2.28,177.92,180811,,,D*77
$GPRMC,194651.000,A,3748.4589,N,12218.0400,W,2.41,190.25,180811,,,D*7A
$GPRMC,194652.000,A,3748.4581,N,12218.0400,W,2.36,184.36,180811,,,D*76
$GPRMC,194653.000,A,3748.4573,N,12218.0401,W,2.69,195.16,180811,,,D*73
$GPRMC,194654.000,A,3748.4565,N,12218.0397,W,2.45,179.98,180811,,,D*71
$GPRMC,194655.000,A,3748.4558,N,12218.0389,W,2.43,173.91,180811,,,D*74
$GPRMC,194656.000,A,3748.4551,N,12218.0391,W,2.39,199.07,180811,,,D*71
$GPRMC,194657.000,A,3748.4543,N,12218.0390,W,1.89,175.29,180811,,,D*74
$GPRMC,194658.000,A,3748.4534,N,12218.0392,W,1.82,191.13,180811,,,D*71
$GPRMC,194659.000,A,3748.4529,N,12218.0393,W,2.11,185.18,180811,,,D*7A
$GPRMC,194700.000,A,3748.4521,N,12218.0399,W,1.77,188.85,180811,,,D*7F
$GPRMC,194701.000,A,3748.4512,N,12218.0401,W,2.29,165.26,180811,,,D*7A
$GPRMC,194702.000,A,3748.4504,N,12218.0403,W,2.26,187.05,180811,,,D*7E
$GPRMC,194703.000,A,3748.4497,N,12218.0405,W,2.07,187.52,180811,,,D*73
$GPRMC,194704.000,A,3748.4488,N,12218.0406,W,2.12,189.05,180811,,,D*71
$GPRMC,194705.000,A,3748.4483,N,12218.0411,W,2.36,176.15,180811,,,D*7A
$GPRMC,194706.000,A,3748.4476,N,12218.0413,W,2.67,177.25,180811,,,D*77
$GPRMC,194707.000,A,3748.4468,N,12218.0420,W,3.07,184.67,180811,,,D*74
$GPRMC,194708.000,A,3748.4460,N,12218.0424,W,3.11,195.30,180811,,,D*72
$GPRMC,194709.000,A,3748.4451,N,12218.0432,W,2.68,196.47,180811,,,D*7A
$GPRMC,194710.000,A,3748.4444,N,12218.0441,W,2.60,196.91,180811,,,D*71
$GPRMC,194711.000,A,3748.4436,N,12218.0444,W,2.70,187.46,180811,,,D*7B
$GPRMC,194712.000,A,3748.4427,N,12218.0447,W,2.46,178.35,180811,,,D*7A
$GPRMC,194713.000,A,3748.4419,N,12218.0454,W,2.81,183.41,180811,,,D*78
$GPRMC,194714.000,A,3748.4409,N,12218.0459,W,2.85,182.27,180811,,,D*76
$GPRMC,194715.000,A,3748.4400,N,12218.0465,W,2.78,183.41,180811,,,D*72
$GPRMC,194716.000,A,3748.4392,N,12218.0471,W,2.42,190.64,180811,,,D*74
$GPRMC,194717.000,A,3748.4386,N,12218.0475,W,2.41,194.78,180811,,,D*7E
$GPRMC,194718.000,A,3748.4379,N,12218.0478,W,2.70,199.43,180811,,,D*7B
$GPRMC,194719.000,A,3748.4373,N,12218.0478,W,2.24,193.26,180811,,,D*78
$GPRMC,194720.000,A,3748.4365,N,12218.0475,W,2.57,196.64,180811,,,D*7F
$GPRMC,194721.000,A,3748.4358,N,12218.0475,W,2.55,184.17,180811,,,D*75
$GPRMC,194722.000,A,3748.4351,N,12218.0470,W,2.75,173.10,180811,,,D*77
$GPRMC,194723.000,A,3748.4343,N,12218.0466,W,2.47,178.80,180811,,,D*71
$GPRMC,194724.000,A,3748.4337,N,12218.0465,W,2.49,193.76,180811,,,D*74
$GPRMC,194725.000,A,3748.4331,N,12218.0468,W,2.55,187.77,180811,,,D*77
$GPRMC,194726.000,A,3748.4324,N,12218.0471,W,2.30,185.19,180811,,,D*71
$GPRMC,194727.000,A,3748.4318,N,12218.0471,W,2.34,175.68,180811,,,D*72
$GPRMC,194728.000,A,3748.4310,N,12218.0471,W,2.24,188.46,180811,,,D*7A
$GPRMC,194729.000,A,3748.4304,N,12218.0471,W,2.10,191.37,180811,,,D*77
$GPRMC,194730.000,A,3748.4296,N,12218.0474,W,2.45,181.41,180811,,,D*70
$GPRMC,194731.000,A,3748.4289,N,12218.0475,W,2.59,173.06,180811,,,D*7D
$GPRMC,194732.000,A,3748.4281,N,12218.0477,W,2.70,182.43,180811,,,D*70
$GPRMC,194733.000,A,3748.4272,N,12218.0478,W,2.51,180.92,180811,,,D*7F
$GPRMC,194734.000,A,3748.4265,N,12218.0479,W,2.24,182.08,180811,,,D*7C
$GPRMC,194735.000,A,3748.4258,N,12218.0482,W,1.96,184.95,180811,,,D*7F
$GPRMC,194736.000,A,3748.4254,N,12218.0488,W,2.06,206.49,180811,,,D*78
$GPRMC,194737.000,A,3748.4246,N,12218.0493,W,2.43,185.02,180811,,,D*76
$GPRMC,194738.000,A,3748.4237,N,12218.0495,W,2.80,192.67,180811,,,D*73
$GPRMC,194739.000,A,3748.4228,N,12218.0497,W,2.07,198.95,180811,,,D*76
$GPRMC,194740.000,A,3748.4226,N,12218.0497,W,1.79,199.49,180811,,,D*7C
$GPRMC,194741.000,A,3748.4220,N,12218.0501,W,2.46,196.80,180811,,,D*70
$GPRMC,194742.000,A,3748.4212,N,12218.0504,W,2.67,193.23,180811,,,D*78
$GPRMC,194743.000,A,3748.4205,N,12218.0509,W,2.67,186.29,180811,,,D*7C
$GPRMC,194744.000,A,3748.4198,N,12218.0513,W,2.60,184.37,180811,,,D*7D
$GPRMC,194745.000,A,3748.4191,N,12218.0518,W,2.55,186.54,180811,,,D*7F
$GPRMC,194746.000,A,3748.4184,N,12218.0519,W,2.54,183.19,180811,,,D*74
$GPRMC,194747.000,A,3748.4177,N,12218.0520,W,2.77,188.50,180811,,,D*74
$GPRMC,194748.000,A,3748.4169,N,12218.0521,W,2.51,190.07,180811,,,D*7A
$GPRMC,194749.000,A,3748.4162,N,12218.0522,W,2.43,182.25,180811,,,D*73
$GPRMC,194750.000,A,3748.4155,N,12218.0521,W,2.76,177.28,180811,,,D*7D
$GPRMC,194751.000,A,3748.4147,N,12218.0520,W,2.70,174.45,180811,,,D*70
$GPRMC,194752.000,A,3748.4139,N,12218.0521,W,2.74,180.04,180811,,,D*71
$GPRMC,194753.000,A,3748.4132,N,12218.0523,W,2.74,184.11,180811,,,D*79
$GPRMC,194754.000,A,3748.4125,N,12218.0525,W,2.37,166.55,180811,,,D*75
$GPRMC,194755.000,A,3748.4119,N,12218.0527,W,2.61,185.72,180811,,,D*72
$GPRMC,194756.000,A,3748.4109,N,12218.0536,W,3.04,199.71,180811,,,D*7C
$GPRMC,194757.000,A,3748.4102,N,12218.0542,W,2.81,195.63,180811,,,D*76
$GPRMC,194758.000,A,3748.4095,N,12218.0554,W,2.52,186.05,180811,,,D*7D
$GPRMC,194759.000,A,3748.4086,N,12218.0562,W,2.31,185.17,180811,,,D*7E
$GPRMC,194800.000,A,3748.4081,N,12218.0571,W,1.76,182.97,180811,,,D*77
$GPRMC,194801.000,A,3748.4080,N,12218.0578,W,1.03,213.01,180811,,,D*78
$GPRMC,194802.000,A,3748.4080,N,12218.0588,W,2.16,253.61,180811,,,D*71
$GPRMC,194803.000,A,3748.4082,N,12218.0597,W,2.31,283.99,180811,,,D*73
