$ADVER,3080,2.3
$GPRMC,200252.308,A,3748.7753,N,12217.8140,W,2.01,127.18,010611,,,A*7D
$GPGGA,200253.308,3748.7765,N,12217.8169,W,1,05,2.1,16.3,M,-25.1,M,,0000*50
$GPGSA,A,3,16,23,03,32,20,,,,,,,,2.3,2.1,1.0*37
$GPRMC,200253.308,A,3748.7765,N,12217.8169,W,1.95,126.87,010611,,,A*7B
$GPVTG,126.87,T,,M,1.95,N,3.6,K,A*0F
$GPGGA,200254.308,3748.7766,N,12217.8170,W,1,05,2.1,14.8,M,-25.1,M,,0000*55
$GPGSA,A,3,16,23,03,32,20,,,,,,,,2.3,2.1,1.0*37
$GPRMC,200254.308,A,3748.7766,N,12217.8170,W,1.99,121.14,010611,,,A*76
$GPVTG,121.14,T,,M,1.99,N,3.7,K,A*0F
$GPGGA,200255.000,3748.7765,N,12217.8168,W,1,05,2.1,14.4,M,-25.1,M,,0000*59
$GPGSA,A,3,16,23,03,32,20,,,,,,,,2.3,2.1,1.0*37
$GPRMC,200255.000,A,3748.7765,N,12217.8168,W,1.90,123.46,010611,,,A*7A
$GPVTG,123.46,T,,M,1.90,N,3.5,K,A*01
$GPGGA,200256.000,3748.7763,N,12217.8161,W,1,05,2.1,14.2,M,-25.1,M,,0000*53
$GPGSA,A,3,16,23,03,32,20,,,,,,,,2.3,2.1,1.0*37
$GPRMC,200256.000,A,3748.7763,N,12217.8161,W,1.90,121.45,010611,,,A*77
$GPVTG,121.45,T,,M,1.90,N,3.5,K,A*00
$GPGGA,200257.000,3748.7761,N,12217.8154,W,1,05,2.1,14.1,M,-25.1,M,,0000*55
$GPGSA,A,3,16,23,03,32,20,,,,,,,,2.3,2.1,1.0*37
$GPGSV,3,1,12,23,67,067,31,16,45,061,33,20,39,179,39,32,21,159,37*7C
$GPGSV,3,2,12,03,15,112,37,13,60,332,23,07,38,259,35,10,27,312,24*7B
$GPGSV,3,3,12,30,24,045,,08,13,246,35,06,12,096,22,04,10,273,*7B
$GPRMC,200257.000,A,3748.7761,N,12217.8154,W,1.85,128.90,010611,,,A*77
$GPVTG,128.90,T,,M,1.85,N,3.4,K,A*04
$GPGGA,200258.000,3748.7758,N,12217.8147,W,1,05,2.1,14.2,M,-25.1,M,,0000*51
$GPGSA,A,3,16,23,03,32,20,,,,,,,,2.3,2.1,1.0*37
$GPRMC,200258.000,A,3748.7758,N,12217.8147,W,1.83,124.39,010611,,,A*79
$GPVTG,124.39,T,,M,1.83,N,3.4,K,A*0D
$GPGGA,200259.000,3748.7755,N,12217.8140,W,1,05,2.1,14.1,M,-25.1,M,,0000*59
$GPGSA,A,3,16,23,03,32,20,,,,,,,,2.3,2.1,1.0*37
$GPRMC,200259.000,A,3748.7755,N,12217.8140,W,1.84,123.36,010611,,,A*7D
$GPVTG,123.36,T,,M,1.84,N,3.4,K,A*02
$GPGGA,200300.000,3748.7753,N,12217.8133,W,1,05,2.1,14.0,M,-25.1,M,,0000*57
$GPGSA,A,3,16,23,03,32,20,,,,,,,,2.3,2.1,1.0*37
$GPRMC,200300.000,A,3748.7753,N,12217.8133,W,1.80,122.35,010611,,,A*74
$GPVTG,122.35,T,,M,1.80,N,3.3,K,A*03
$GPGGA,200301.000,3748.7751,N,12217.8128,W,1,05,2.1,13.8,M,-25.1,M,,0000*51
$GPGSA,A,3,16,23,03,32,20,,,,,,,,2.3,2.1,1.0*37
$GPRMC,200301.000,A,3748.7751,N,12217.8128,W,1.77,123.11,010611,,,A*72
$GPVTG,123.11,T,,M,1.77,N,3.3,K,A*0C
$GPGGA,200302.000,3748.7748,N,12217.8122,W,1,05,2.1,13.6,M,-25.1,M,,0000*5E
$GPGSA,A,3,16,23,03,32,20,,,,,,,,2.3,2.1,1.0*37
$GPGSV,3,1,12,23,67,067,32,16,45,061,33,20,39,179,40,32,21,159,40*71
$GPGSV,3,2,12,03,15,112,38,13,60,332,27,07,38,259,35,10,27,312,24*70
$GPGSV,3,3,12,30,24,045,,08,13,246,34,06,12,096,25,04,10,273,*7D
$GPRMC,200302.000,A,3748.7748,N,12217.8122,W,1.76,122.63,010611,,,A*76
$GPGGA,200303.000,3748.7746,N,12217.8116,W,1,05,2.1,13.4,M,-25.1,M,,0000*54
$GPGSA,A,3,16,23,03,32,20,,,,,,,,2.3,2.1,1.0*37
$GPRMC,200303.000,A,3748.7746,N,12217.8116,W,1.88,126.13,010611,,,A*7C
$GPVTG,126.13,T,,M,1.88,N,3.5,K,A*0D
$GPGGA,200304.000,3748.7743,N,12217.8111,W,1,05,2.1,13.2,M,-25.1,M,,0000*57
$GPGSA,A,3,16,23,03,32,20,,,,,,,,2.3,2.1,1.0*37
$GPRMC,200304.000,A,3748.7743,N,12217.8111,W,1.98,122.43,010611,,,A*79
$GPVTG,122.43,T,,M,1.98,N,3.7,K,A*0F
$GPGGA,200305.000,3748.7741,N,12217.8105,W,1,05,2.1,13.0,M,-25.1,M,,0000*53
$GPGSA,A,3,16,23,03,32,20,,,,,,,,2.3,2.1,1.0*37
$GPRMC,200305.000,A,3748.7741,N,12217.8105,W,1.94,114.68,010611,,,A*7F
$GPVTG,114.68,T,,M,1.94,N,3.6,K,A*0E
$GPGGA,200306.000,3748.7740,N,12217.8099,W,1,05,2.1,12.7,M,-25.1,M,,0000*53
$GPGSA,A,3,16,23,03,32,20,,,,,,,,2.3,2.1,1.0*37
$GPRMC,200306.000,A,3748.7740,N,12217.8099,W,1.96,113.12,010611,,,A*71
$GPVTG,113.12,T,,M,1.96,N,3.6,K,A*06
$GPGGA,200307.000,3748.7738,N,12217.8093,W,1,05,2.1,12.5,M,-25.1,M,,0000*55
$GPGSA,A,3,16,23,03,32,20,,,,,,,,2.3,2.1,1.0*37
$GPGSV,3,1,12,23,67,067,33,16,45,061,33,20,39,179,40,32,21,159,41*71
$GPGSV,3,2,12,03,15,112,38,13,60,332,27,07,38,259,34,10,27,312,22*77
$GPGSV,3,3,12,30,24,045,,08,13,246,31,06,12,096,22,04,10,273,*7F
$GPRMC,200307.000,A,3748.7738,N,12217.8093,W,2.03,120.64,010611,,,A*7B
$GPVTG,120.64,T,,M,2.03,N,3.8,K,A*06
$GPGGA,200308.000,3748.7735,N,12217.8087,W,1,05,2.1,12.3,M,-25.1,M,,0000*54
$GPGSA,A,3,16,23,03,32,20,,,,,,,,2.3,2.1,1.0*37
$GPRMC,200308.000,A,3748.7735,N,12217.8087,W,2.15,124.81,010611,,,A*74
$GPVTG,124.81,T,,M,2.15,N,4.0,K,A*01
$GPGGA,200309.000,3748.7732,N,12217.8080,W,1,05,2.1,12.1,M,-25.1,M,,0000*57
$GPGSA,A,3,16,23,03,32,20,,,,,,,,2.3,2.1,1.0*37
$GPRMC,200309.000,A,3748.7732,N,12217.8080,W,2.24,116.55,010611,,,A*7F
$GPVTG,116.55,T,,M,2.24,N,4.1,K,A*0A
$GPGGA,200310.000,3748.7729,N,12217.8073,W,1,05,2.1,12.0,M,-25.1,M,,0000*58
$GPGSA,A,3,16,23,03,32,20,,,,,,,,2.3,2.1,1.0*37
$GPRMC,200310.000,A,3748.7729,N,12217.8073,W,2.25,117.04,010611,,,A*75
$GPVTG,117.04,T,,M,2.25,N,4.2,K,A*0D
$GPGGA,200311.000,3748.7726,N,12217.8066,W,1,05,2.1,11.9,M,-25.1,M,,0000*58
$GPGSA,A,3,16,23,03,32,20,,,,,,,,2.3,2.1,1.0*37
$GPRMC,200311.000,A,3748.7726,N,12217.8066,W,2.22,120.66,010611,,,A*78
$GPVTG,120.66,T,,M,2.22,N,4.1,K,A*09
$GPGGA,200312.000,3748.7723,N,12217.8059,W,1,05,2.1,11.8,M,-25.1,M,,0000*53
$GPGSA,A,3,16,23,03,32,20,,,,,,,,2.3,2.1,1.0*37
$GPGSV,3,1,12,23,67,067,33,16,45,061,33,20,39,179,41,32,21,159,41*70
$GPGSV,3,2,12,03,15,112,39,13,60,332,28,07,38,259,32,10,27,312,21*7C
$GPGSV,3,3,12,30,24,045,,08,13,246,38,06,12,096,21,04,10,273,*75
$GPRMC,200312.000,A,3748.7723,N,12217.8059,W,2.27,125.57,010611,,,A*70
$GPVTG,125.57,T,,M,2.27,N,4.2,K,A*08
$GPGGA,200313.000,3748.7719,N,12217.8052,W,1,05,2.1,11.7,M,-25.1,M,,0000*5F
$GPGSA,A,3,16,23,03,32,20,,,,,,,,2.3,2.1,1.0*37
$GPRMC,200313.000,A,3748.7719,N,12217.8052,W,2.29,125.69,010611,,,A*70
$GPVTG,125.69,T,,M,2.29,N,4.2,K,A*0B
$GPGGA,200314.000,3748.7716,N,12217.8046,W,1,05,2.1,11.6,M,-25.1,M,,0000*53
$GPGSA,A,3,16,23,03,32,20,,,,,,,,2.3,2.1,1.0*37
$GPRMC,200314.000,A,3748.7716,N,12217.8046,W,2.20,119.71,010611,,,A*72
$GPVTG,119.71,T,,M,2.20,N,4.1,K,A*07
$GPGGA,200315.000,3748.7713,N,12217.8039,W,1,05,2.1,11.5,M,-25.1,M,,0000*5C
$GPGSA,A,3,16,23,03,32,20,,,,,,,,2.3,2.1,1.0*37
$GPRMC,200315.000,A,3748.7713,N,12217.8039,W,2.28,119.50,010611,,,A*75
$GPVTG,119.50,T,,M,2.28,N,4.2,K,A*0F
$GPGGA,200316.000,3748.7710,N,12217.8032,W,1,05,2.1,11.4,M,-25.1,M,,0000*56
$GPGSA,A,3,16,23,03,32,20,,,,,,,,2.3,2.1,1.0*37
$GPRMC,200316.000,A,3748.7710,N,12217.8032,W,2.21,123.45,010611,,,A*7A
$GPVTG,123.45,T,,M,2.21,N,4.1,K,A*08
$GPGGA,200317.000,3748.7706,N,12217.8025,W,1,05,2.1,11.3,M,-25.1,M,,0000*51
$GPGSA,A,3,16,23,03,32,20,,,,,,,,2.3,2.1,1.0*37
$GPGSV,3,1,12,23,67,067,33,13,61,333,27,16,45,061,33,07,39,259,33*78
$GPGSV,3,2,12,20,38,179,41,10,27,312,22,30,24,045,,32,20,160,41*79
$GPGSV,3,3,12,03,15,111,38,08,14,246,37,06,12,096,33,04,10,273,*77
$GPRMC,200317.000,A,3748.7706,N,12217.8025,W,2.46,125.60,010611,,,A*7A
$GPGGA,200318.000,3748.7702,N,12217.8019,W,1,05,2.1,11.2,M,-25.1,M,,0000*54
$GPGSA,A,3,16,23,03,32,20,,,,,,,,2.3,2.1,1.0*37
$GPRMC,200318.000,A,3748.7702,N,12217.8019,W,2.40,128.72,010611,,,A*76
$GPVTG,128.72,T,,M,2.40,N,4.5,K,A*04
$GPGGA,200319.000,3748.7698,N,12217.8012,W,1,05,2.1,11.1,M,-25.1,M,,0000*5F
$GPGSA,A,3,16,23,03,32,20,,,,,,,,2.3,2.1,1.0*37
$GPRMC,200319.000,A,3748.7698,N,12217.8012,W,2.38,128.97,010611,,,A*7A
$GPVTG,128.97,T,,M,2.38,N,4.4,K,A*01
$GPGGA,200320.000,3748.7694,N,12217.8005,W,1,05,2.1,11.0,M,-25.1,M,,0000*5E
$GPGSA,A,3,16,23,03,32,20,,,,,,,,2.3,2.1,1.0*37
$GPRMC,200320.000,A,3748.7694,N,12217.8005,W,2.46,126.74,010611,,,A*70
$GPVTG,126.74,T,,M,2.46,N,4.5,K,A*0A
$GPGGA,200321.000,3748.7690,N,12217.7998,W,1,05,2.1,10.9,M,-25.1,M,,0000*51
$GPGSA,A,3,16,23,03,32,20,,,,,,,,2.3,2.1,1.0*37
$GPRMC,200321.000,A,3748.7690,N,12217.7998,W,2.49,121.57,010611,,,A*7E
$GPVTG,121.57,T,,M,2.49,N,4.6,K,A*00
$GPGGA,200322.000,3748.7687,N,12217.7990,W,1,05,2.1,10.8,M,-25.1,M,,0000*5D
$GPGSA,A,3,16,23,03,32,20,,,,,,,,2.3,2.1,1.0*37
$GPGSV,3,1,12,23,67,067,33,13,61,333,27,16,45,061,33,07,39,259,33*78
$GPGSV,3,2,12,20,38,179,41,10,27,312,23,30,24,045,,32,20,160,41*78
$GPGSV,3,3,12,03,15,111,37,08,14,246,37,06,12,096,33,04,10,273,*78
$GPRMC,200322.000,A,3748.7687,N,12217.7990,W,2.42,121.96,010611,,,A*75
$GPVTG,121.96,T,,M,2.42,N,4.5,K,A*05
$GPGGA,200323.000,3748.7684,N,12217.7983,W,1,05,2.1,10.7,M,-25.1,M,,0000*52
$GPGSA,A,3,16,23,03,32,20,,,,,,,,2.3,2.1,1.0*37
$GPRMC,200323.000,A,3748.7684,N,12217.7983,W,2.26,114.86,010611,,,A*70
$GPVTG,114.86,T,,M,2.26,N,4.2,K,A*07
$GPGGA,200324.000,3748.7681,N,12217.7976,W,1,05,2.1,10.6,M,-25.1,M,,0000*5B
$GPGSA,A,3,16,23,03,32,20,,,,,,,,2.3,2.1,1.0*37
$GPRMC,200324.000,A,3748.7681,N,12217.7976,W,2.23,114.53,010611,,,A*75
$GPVTG,114.53,T,,M,2.23,N,4.1,K,A*09
$GPGGA,200325.000,3748.7679,N,12217.7969,W,1,05,2.1,10.5,M,-25.1,M,,0000*50
$GPGSA,A,3,16,23,03,32,20,,,,,,,,2.3,2.1,1.0*37
$GPRMC,200325.000,A,3748.7679,N,12217.7969,W,2.31,118.83,010611,,,A*7F
$GPVTG,118.83,T,,M,2.31,N,4.3,K,A*09
$GPGGA,200326.000,3748.7675,N,12217.7962,W,1,05,2.1,10.4,M,-25.1,M,,0000*55
$GPGSA,A,3,16,23,03,32,20,,,,,,,,2.3,2.1,1.0*37
$GPRMC,200326.000,A,3748.7675,N,12217.7962,W,2.35,125.94,010611,,,A*77
$GPVTG,125.94,T,,M,2.35,N,4.4,K,A*02
$GPGGA,200327.000,3748.7671,N,12217.7956,W,1,05,2.1,10.3,M,-25.1,M,,0000*50
$GPGSA,A,3,16,23,03,32,20,,,,,,,,2.3,2.1,1.0*37
$GPGSV,3,1,12,23,67,067,33,13,61,333,28,16,45,061,34,07,39,259,33*70
$GPGSV,3,2,12,20,38,179,41,10,27,312,22,30,24,045,,32,20,160,41*79
$GPGSV,3,3,12,03,15,111,35,08,14,246,37,06,12,096,24,04,10,273,*7C
$GPRMC,200327.000,A,3748.7671,N,12217.7956,W,2.40,129.83,010611,,,A*7D
$GPVTG,129.83,T,,M,2.40,N,4.4,K,A*0A
$GPGGA,200328.000,3748.7667,N,12217.7949,W,1,05,2.1,10.2,M,-25.1,M,,0000*57
$GPGSA,A,3,16,23,03,32,20,,,,,,,,2.3,2.1,1.0*37
$GPRMC,200328.000,A,3748.7667,N,12217.7949,W,2.31,129.66,010611,,,A*76
$GPVTG,129.66,T,,M,2.31,N,4.3,K,A*00
$GPGGA,200329.000,3748.7663,N,12217.7943,W,1,05,2.1,10.1,M,-25.1,M,,0000*5B
$GPGSA,A,3,16,23,03,32,20,,,,,,,,2.4,2.1,1.0*30
$GPRMC,200329.000,A,3748.7663,N,12217.7943,W,2.45,128.47,010611,,,A*78
$GPVTG,128.47,T,,M,2.45,N,4.5,K,A*07
$GPGGA,200330.000,3748.7659,N,12217.7936,W,1,05,2.1,9.9,M,-25.1,M,,0000*68
$GPGSA,A,3,16,23,03,32,20,,,,,,,,2.4,2.1,1.0*30
$GPRMC,200330.000,A,3748.7659,N,12217.7936,W,2.52,125.88,010611,,,A*73
$GPVTG,125.88,T,,M,2.52,N,4.7,K,A*0D
$GPGGA,200331.000,3748.7655,N,12217.7929,W,1,05,2.1,9.8,M,-25.1,M,,0000*6A
$GPGSA,A,3,16,23,03,32,20,,,,,,,,2.4,2.1,1.0*30
$GPRMC,200331.000,A,3748.7655,N,12217.7929,W,2.44,120.37,010611,,,A*76
$GPVTG,120.37,T,,M,2.44,N,4.5,K,A*09
$GPGGA,200332.000,3748.7653,N,12217.7921,W,1,05,2.1,9.6,M,-25.1,M,,0000*69
$GPGSA,A,3,16,23,03,32,20,,,,,,,,2.4,2.1,1.0*30
$GPGSV,3,1,12,23,67,067,33,13,61,333,28,16,45,061,30,07,39,259,34*73
$GPGSV,3,2,12,20,38,179,41,10,27,312,23,30,24,045,25,32,20,160,36*7F
$GPGSV,3,3,12,03,15,111,33,08,14,246,36,06,12,096,30,04,10,273,*7E
$GPRMC,200332.000,A,3748.7653,N,12217.7921,W,2.52,112.26,010611,,,A*7D
$GPGGA,200333.000,3748.7649,N,12217.7912,W,1,05,2.1,9.5,M,-25.1,M,,0000*60
$GPGSA,A,3,16,23,03,32,20,,,,,,,,2.4,2.1,1.0*30
$GPRMC,200333.000,A,3748.7649,N,12217.7912,W,2.64,118.26,010611,,,A*78
$GPVTG,118.26,T,,M,2.64,N,4.9,K,A*0C
$GPGGA,200334.000,3748.7647,N,12217.7906,W,1,05,2.1,9.3,M,-25.1,M,,0000*6A
$GPGSA,A,3,16,23,03,32,20,,,,,,,,2.4,2.1,1.0*30
$GPRMC,200334.000,A,3748.7647,N,12217.7906,W,2.25,124.86,010611,,,A*74
$GPVTG,124.86,T,,M,2.25,N,4.2,K,A*07
$GPGGA,200335.000,3748.7645,N,12217.7902,W,1,05,2.1,9.1,M,-25.1,M,,0000*6F
$GPGSA,A,3,16,23,03,32,20,,,,,,,,2.4,2.1,1.0*30
$GPRMC,200335.000,A,3748.7645,N,12217.7902,W,1.84,125.39,010611,,,A*7E
$GPVTG,125.39,T,,M,1.84,N,3.4,K,A*0B
$GPGGA,200336.000,3748.7643,N,12217.7898,W,1,05,2.1,8.8,M,-25.1,M,,0000*60
$GPGSA,A,3,16,23,03,32,20,,,,,,,,2.4,2.1,1.0*30
$GPRMC,200336.000,A,3748.7643,N,12217.7898,W,1.66,122.96,010611,,,A*77
$GPVTG,122.96,T,,M,1.66,N,3.1,K,A*00
$GPGGA,200337.000,3748.7641,N,12217.7893,W,1,05,2.1,8.4,M,-25.1,M,,0000*64
$GPGSA,A,3,16,23,03,32,20,,,,,,,,2.4,2.1,1.0*30
$GPGSV,3,1,12,23,67,067,33,13,61,333,20,16,45,061,31,07,39,259,34*7A
$GPGSV,3,2,12,20,38,179,41,10,27,312,23,30,24,045,29,32,20,160,33*76
$GPGSV,3,3,12,03,15,111,24,08,14,246,30,06,12,096,25,04,10,273,*7A
$GPRMC,200337.000,A,3748.7641,N,12217.7893,W,2.40,117.55,010611,,,A*71
$GPVTG,117.55,T,,M,2.40,N,4.4,K,A*0C
$GPGGA,200338.000,3748.7638,N,12217.7886,W,1,05,2.1,8.1,M,-25.1,M,,0000*64
$GPGSA,A,3,16,23,03,32,20,,,,,,,,2.4,2.1,1.0*30
$GPRMC,200338.000,A,3748.7638,N,12217.7886,W,2.39,118.68,010611,,,A*7B
$GPVTG,118.68,T,,M,2.39,N,4.4,K,A*03
$GPGGA,200339.000,3748.7636,N,12217.7881,W,1,05,2.1,7.8,M,-25.1,M,,0000*6A
$GPGSA,A,3,16,23,03,32,20,,,,,,,,2.4,2.1,1.0*30
$GPRMC,200339.000,A,3748.7636,N,12217.7881,W,2.06,126.19,010611,,,A*74
$GPVTG,126.19,T,,M,2.06,N,3.8,K,A*0F
$GPGGA,200340.000,3748.7631,N,12217.7872,W,1,05,2.1,7.8,M,-25.1,M,,0000*6F
$GPGSA,A,3,16,23,03,32,20,,,,,,,,2.4,2.1,1.0*30
$GPRMC,200340.000,A,3748.7631,N,12217.7872,W,2.15,123.50,010611,,,A*7B
$GPVTG,123.50,T,,M,2.15,N,4.0,K,A*0A
$GPGGA,200341.000,3748.7630,N,12217.7869,W,1,05,2.1,7.4,M,-25.1,M,,0000*69
$GPGSA,A,3,16,23,03,32,20,,,,,,,,2.4,2.1,1.0*30
$GPRMC,200341.000,A,3748.7630,N,12217.7869,W,2.20,114.34,010611,,,A*71
$GPVTG,114.34,T,,M,2.20,N,4.1,K,A*0B
$GPGGA,200342.000,3748.7626,N,12217.7859,W,1,05,2.1,7.6,M,-25.1,M,,0000*6C
$GPGSA,A,3,16,23,03,32,20,,,,,,,,2.4,2.1,1.0*30
$GPGSV,3,1,12,23,67,067,31,13,61,333,25,16,45,061,30,07,39,259,34*7C
$GPGSV,3,2,12,20,38,179,40,10,27,312,19,30,24,045,25,32,20,160,31*70
$GPGSV,3,3,12,03,15,111,21,08,14,246,29,06,12,096,20,04,10,273,*72
$GPRMC,200342.000,A,3748.7626,N,12217.7859,W,2.04,115.51,010611,,,A*72
$GPVTG,115.51,T,,M,2.04,N,3.8,K,A*01
$GPGGA,200343.000,3748.7618,N,12217.7849,W,1,05,2.1,9.3,M,-25.1,M,,0000*6A
$GPGSA,A,3,16,23,03,32,20,,,,,,,,2.4,2.1,1.0*30
$GPRMC,200343.000,A,3748.7618,N,12217.7849,W,1.84,117.27,010611,,,A*77
$GPVTG,117.27,T,,M,1.84,N,3.4,K,A*05
$GPGGA,200344.000,3748.7606,N,12217.7838,W,1,05,2.1,11.0,M,-25.1,M,,0000*5E
$GPGSA,A,3,16,23,03,32,20,,,,,,,,2.4,2.1,1.0*30
$GPRMC,200344.000,A,3748.7606,N,12217.7838,W,1.78,129.12,010611,,,A*71
$GPVTG,129.12,T,,M,1.78,N,3.3,K,A*0A
$GPGGA,200345.000,3748.7601,N,12217.7835,W,1,05,2.1,9.6,M,-25.1,M,,0000*6A
$GPGSA,A,3,16,23,03,32,20,,,,,,,,2.4,2.1,1.0*30
$GPRMC,200345.000,A,3748.7601,N,12217.7835,W,2.58,119.48,010611,,,A*77
$GPVTG,119.48,T,,M,2.58,N,4.8,K,A*0B
$GPGGA,200346.000,3748.7587,N,12217.7817,W,1,05,2.1,10.7,M,-25.1,M,,0000*5D
$GPGSA,A,3,16,23,03,32,20,,,,,,,,2.4,2.1,1.0*30
$GPRMC,200346.000,A,3748.7587,N,12217.7817,W,2.47,125.12,010611,,,A*77
$GPVTG,125.12,T,,M,2.47,N,4.6,K,A*0B
$GPGGA,200347.000,3748.7583,N,12217.7814,W,1,05,2.1,10.7,M,-25.1,M,,0000*5B
$GPGSA,A,3,16,23,03,32,20,,,,,,,,2.4,2.1,1.0*30
$GPGSV,3,1,12,23,67,067,26,13,61,333,25,16,45,061,22,07,39,259,34*79
$GPGSV,3,2,12,20,38,179,40,10,27,312,20,30,24,045,22,32,20,160,40*7B
$GPGSV,3,3,12,03,15,111,22,08,14,246,33,06,12,096,25,04,10,273,*7F
$GPVTG,123.44,T,,M,2.37,N,4.4,K,A*0B
$GPGGA,200348.000,3748.7571,N,12217.7799,W,1,05,2.1,11.9,M,-25.1,M,,0000*5C
$GPGSA,A,3,16,23,03,32,20,,,,,,,,2.4,2.1,1.0*30
$GPRMC,200348.000,A,3748.7571,N,12217.7799,W,2.68,123.47,010611,,,A*72
$GPVTG,123.47,T,,M,2.68,N,5.0,K,A*07
$GPGGA,200349.000,3748.7565,N,12217.7789,W,1,05,2.1,12.1,M,-25.1,M,,0000*52
$GPGSA,A,3,16,23,03,32,20,,,,,,,,2.4,2.1,1.0*30
$GPRMC,200349.000,A,3748.7565,N,12217.7789,W,2.64,128.90,010611,,,A*7A
$GPVTG,128.90,T,,M,2.64,N,4.9,K,A*02
$GPGGA,200350.000,3748.7557,N,12217.7779,W,2,05,2.1,12.8,M,-25.1,M,,0000*5E
$GPGSA,A,3,16,23,03,32,20,,,,,,,,2.4,2.1,1.0*30
$GPRMC,200350.000,A,3748.7557,N,12217.7779,W,2.31,136.31,010611,,,D*7D
$GPVTG,136.31,T,,M,2.31,N,4.3,K,D*09
$GPGGA,200351.000,3748.7552,N,12217.7772,W,2,05,2.1,13.2,M,-25.1,M,,0000*5A
$GPGSA,A,3,16,23,03,32,20,,,,,,,,2.4,2.1,1.0*30
$GPRMC,200351.000,A,3748.7552,N,12217.7772,W,1.93,134.92,010611,,,D*72
$GPVTG,134.92,T,,M,1.93,N,3.6,K,D*0B
$GPGGA,200352.000,3748.7547,N,12217.7757,W,2,05,2.1,14.6,M,-25.1,M,2.8,0000*7D
$GPGSA,A,3,16,23,03,32,20,,,,,,,,2.4,2.1,1.0*30
$GPGSV,3,1,12,23,67,067,30,13,61,333,25,16,45,061,16,07,39,259,28*74
$GPGSV,3,2,12,20,38,179,32,10,27,312,19,30,24,045,17,32,20,160,27*73
$GPGSV,3,3,12,03,15,111,19,08,14,246,23,06,12,096,17,04,10,273,*77
$GPRMC,200352.000,A,3748.7547,N,12217.7757,W,2.47,122.26,010611,,,D*70
$GPVTG,122.26,T,,M,2.47,N,4.6,K,D*0E
$GPGGA,200353.000,3748.7539,N,12217.7740,W,2,05,2.1,15.9,M,-25.1,M,3.8,0000*7C
$GPGSA,A,3,16,23,03,32,20,,,,,,,,2.4,2.1,1.0*30
$GPRMC,200353.000,A,3748.7539,N,12217.7740,W,3.49,116.58,010611,,,D*7F
$GPVTG,116.58,T,,M,3.49,N,6.5,K,D*0E
$GPGGA,200354.000,3748.7536,N,12217.7730,W,2,05,2.1,16.2,M,-25.1,M,4.8,0000*7C
$GPGSA,A,3,16,23,03,32,20,,,,,,,,2.4,2.1,1.0*30
$GPRMC,200354.000,A,3748.7536,N,12217.7730,W,2.72,118.27,010611,,,D*7F
$GPVTG,118.27,T,,M,2.72,N,5.0,K,D*07
$GPGGA,200355.000,3748.7527,N,12217.7716,W,2,05,2.1,17.5,M,-25.1,M,5.8,0000*7E
$GPGSA,A,3,16,23,03,32,20,,,,,,,,2.4,2.1,1.0*30
$GPRMC,200355.000,A,3748.7527,N,12217.7716,W,2.65,127.73,010611,,,D*71
$GPVTG,127.73,T,,M,2.65,N,4.9,K,D*04
$GPGGA,200356.000,3748.7518,N,12217.7703,W,2,05,2.1,18.8,M,-25.1,M,,0000*54
$GPGSA,A,3,16,23,03,32,20,,,,,,,,2.4,2.1,1.0*30
$GPRMC,200356.000,A,3748.7518,N,12217.7703,W,2.90,128.35,010611,,,D*7D
$GPVTG,128.35,T,,M,2.90,N,5.4,K,D*0F
$GPGGA,200357.000,3748.7507,N,12217.7688,W,2,05,2.1,20.7,M,-25.1,M,,0000*5D
$GPGSA,A,3,16,23,03,32,20,,,,,,,,2.4,2.1,1.0*30
$GPGSV,3,1,12,23,67,067,31,13,61,333,27,16,45,061,22,07,39,259,32*7B
$GPGSV,3,2,12,20,38,179,41,10,27,312,19,30,24,045,21,32,20,160,34*70
$GPGSV,3,3,12,03,15,111,30,08,14,246,32,06,12,096,22,04,10,273,*7A
$GPRMC,200357.000,A,3748.7507,N,12217.7688,W,3.03,124.95,010611,,,D*7D
$GPVTG,124.95,T,,M,3.03,N,5.6,K,D*00
$GPGGA,200358.000,3748.7499,N,12217.7674,W,2,05,2.1,22.0,M,-25.1,M,,0000*52
$GPGSA,A,3,16,23,03,32,20,,,,,,,,2.4,2.1,1.0*30
$GPRMC,200358.000,A,3748.7499,N,12217.7674,W,3.09,125.49,010611,,,D*7D
$GPVTG,125.49,T,,M,3.09,N,5.7,K,D*0B
$GPGGA,200359.000,3748.7491,N,12217.7663,W,2,05,2.1,23.1,M,-25.1,M,,0000*5D
$GPGSA,A,3,16,23,03,32,20,,,,,,,,2.4,2.1,1.0*30
$GPRMC,200359.000,A,3748.7491,N,12217.7663,W,3.04,125.15,010611,,,D*76
$GPVTG,125.15,T,,M,3.04,N,5.6,K,D*0E
$GPGGA,200400.000,3748.7482,N,12217.7650,W,2,05,2.1,24.5,M,-25.1,M,2.8,0000*73
$GPGSA,A,3,16,23,03,32,20,,,,,,,,2.4,2.1,1.0*30
$GPRMC,200400.000,A,3748.7482,N,12217.7650,W,3.27,124.30,010611,,,D*78
$GPVTG,124.30,T,,M,3.27,N,6.1,K,D*0D
$GPGGA,200401.000,3748.7476,N,12217.7643,W,2,05,2.1,25.4,M,-25.1,M,3.8,0000*7A
$GPGSA,A,3,16,23,03,32,20,,,,,,,,2.4,2.1,1.0*30
$GPRMC,200401.000,A,3748.7476,N,12217.7643,W,2.99,126.61,010611,,,D*72
$GPVTG,126.61,T,,M,2.99,N,5.5,K,D*08
$GPGGA,200402.000,3748.7469,N,12217.7632,W,2,05,2.1,26.4,M,-25.1,M,,0000*57
$GPGSA,A,3,16,23,03,32,20,,,,,,,,2.4,2.1,1.0*30
$GPGSV,3,1,12,23,67,067,32,13,61,333,28,16,45,061,22,07,39,259,32*77
$GPGSV,3,2,12,20,38,179,41,10,27,312,19,30,24,045,20,32,20,160,43*71
$GPGSV,3,3,12,03,15,111,22,08,14,246,27,06,12,096,23,04,10,273,*7C
$GPVTG,124.92,T,,M,2.99,N,5.5,K,D*06
$GPGGA,200403.000,3748.7463,N,12217.7622,W,2,05,2.1,27.0,M,-25.1,M,,0000*58
$GPGSA,A,3,16,23,03,32,20,,,,,,,,2.4,2.1,1.0*30
$GPRMC,200403.000,A,3748.7463,N,12217.7622,W,2.92,119.67,010611,,,D*72
$GPVTG,119.67,T,,M,2.92,N,5.4,K,D*08
$GPGGA,200404.000,3748.7458,N,12217.7609,W,2,05,2.1,27.6,M,-25.1,M,1.8,0000*7F
$GPGSA,A,3,16,23,03,32,20,,,,,,,,2.4,2.1,1.0*30
$GPRMC,200404.000,A,3748.7458,N,12217.7609,W,2.99,116.24,010611,,,D*77
$GPVTG,116.24,T,,M,2.99,N,5.5,K,D*0A
$GPGGA,200405.000,3748.7446,N,12217.7591,W,2,05,2.1,29.9,M,-25.1,M,,0000*55
$GPGSA,A,3,16,23,03,32,20,,,,,,,,2.4,2.1,1.0*30
$GPRMC,200405.000,A,3748.7446,N,12217.7591,W,2.94,118.91,010611,,,D*76
$GPVTG,118.91,T,,M,2.94,N,5.4,K,D*06
$GPGGA,200406.000,3748.7439,N,12217.7576,W,2,05,2.1,30.7,M,-25.1,M,,0000*51
$GPGSA,A,3,16,23,03,32,20,,,,,,,,2.4,2.1,1.0*30
$GPRMC,200406.000,A,3748.7439,N,12217.7576,W,3.01,120.31,010611,,,D*78
$GPVTG,120.31,T,,M,3.01,N,5.6,K,D*08
$GPGGA,200407.000,3748.7433,N,12217.7563,W,2,05,2.1,31.3,M,-25.1,M,2.8,0000*7F
$GPGSA,A,3,16,23,03,32,20,,,,,,,,2.4,2.1,1.0*30
$GPGSV,3,1,12,23,67,067,30,13,61,333,27,16,45,061,22,07,39,259,33*7B
$GPGSV,3,2,12,20,38,179,40,10,27,312,19,30,24,045,21,32,20,160,42*70
$GPGSV,3,3,12,03,15,111,28,08,14,246,34,06,12,096,27,04,10,273,*70
$GPRMC,200407.000,A,3748.7433,N,12217.7563,W,2.81,120.69,010611,,,D*73
$GPVTG,120.69,T,,M,2.81,N,5.2,K,D*08
$GPGGA,200408.000,3748.7427,N,12217.7551,W,2,05,2.1,32.1,M,-25.1,M,,0000*51
$GPGSA,A,3,16,23,03,32,20,,,,,,,,2.4,2.1,1.0*30
$GPRMC,200408.000,A,3748.7427,N,12217.7551,W,2.75,125.74,010611,,,D*7A
$GPVTG,125.74,T,,M,2.75,N,5.1,K,D*09
$GPGGA,200409.000,3748.7415,N,12217.7534,W,2,05,2.1,34.2,M,-25.1,M,,0000*57
$GPGSA,A,3,16,23,03,32,20,,,,,,,,2.4,2.1,1.0*30
$GPRMC,200409.000,A,3748.7415,N,12217.7534,W,2.78,127.11,010611,,,D*75
$GPVTG,127.11,T,,M,2.78,N,5.1,K,D*05
$GPGGA,200410.000,3748.7403,N,12217.7517,W,2,05,2.1,35.9,M,-25.1,M,,0000*53
$GPGSA,A,3,16,23,03,32,20,,,,,,,,2.4,2.1,1.0*30
$GPRMC,200410.000,A,3748.7403,N,12217.7517,W,3.06,129.61,010611,,,D*7A
$GPVTG,129.61,T,,M,3.06,N,5.7,K,D*02
$GPGGA,200411.000,3748.7393,N,12217.7502,W,2,05,2.1,37.3,M,-25.1,M,,0000*50
$GPGSA,A,3,16,23,03,32,20,,,,,,,,2.4,2.1,1.0*30
$GPRMC,200411.000,A,3748.7393,N,12217.7502,W,3.13,128.80,010611,,,D*7B
$GPVTG,128.80,T,,M,3.13,N,5.8,K,D*07
$GPGGA,200412.000,3748.7386,N,12217.7488,W,2,05,2.1,38.3,M,-25.1,M,2.8,0000*7F
$GPGSA,A,3,16,23,03,32,20,,,,,,,,2.4,2.1,1.0*30
$GPGSV,3,1,12,23,67,067,29,13,61,333,28,16,45,061,21,07,39,259,33*7F
$GPGSV,3,2,12,20,38,179,40,10,27,312,20,30,24,045,21,32,20,160,41*79
$GPGSV,3,3,12,03,15,111,31,08,14,246,34,06,12,096,21,04,10,273,*7E
$GPRMC,200412.000,A,3748.7386,N,12217.7488,W,2.87,120.01,010611,,,D*72
$GPVTG,120.01,T,,M,2.87,N,5.3,K,D*01
$GPGGA,200413.000,3748.7372,N,12217.7467,W,2,05,2.1,40.9,M,-25.1,M,3.8,0000*70
$GPGSA,A,3,16,23,03,32,20,,,,,,,,2.4,2.1,1.0*30
$GPRMC,200413.000,A,3748.7372,N,12217.7467,W,2.82,121.34,010611,,,D*7B
$GPVTG,121.34,T,,M,2.82,N,5.2,K,D*02
$GPGGA,200414.000,3748.7362,N,12217.7450,W,2,05,2.1,43.3,M,-25.1,M,,0000*5E
$GPGSA,A,3,16,23,03,32,20,,,,,,,,2.4,2.1,1.0*30
$GPRMC,200414.000,A,3748.7362,N,12217.7450,W,2.49,120.81,010611,,,D*71
$GPVTG,120.81,T,,M,2.49,N,4.6,K,D*0F
$GPGGA,200415.000,3748.7353,N,12217.7433,W,2,05,2.1,45.1,M,-25.1,M,2.8,0000*78
$GPGSA,A,3,16,23,03,32,20,,,,,,,,2.4,2.1,1.0*30
$GPRMC,200415.000,A,3748.7353,N,12217.7433,W,3.20,125.61,010611,,,D*72
$GPVTG,125.61,T,,M,3.20,N,5.9,K,D*04
$GPGGA,200416.000,3748.7352,N,12217.7426,W,2,05,2.1,44.5,M,-25.1,M,3.8,0000*7A
$GPGSA,A,3,16,23,03,32,20,,,,,,,,2.4,2.1,1.0*30
$GPRMC,200416.000,A,3748.7352,N,12217.7426,W,2.73,112.62,010611,,,D*74
$GPVTG,112.62,T,,M,2.73,N,5.0,K,D*0D
$GPGGA,200417.000,3748.7357,N,12217.7423,W,2,05,2.1,42.6,M,-25.1,M,4.8,0000*79
$GPGSA,A,3,16,23,03,32,20,,,,,,,,2.4,2.1,1.0*30
$GPGSV,3,1,12,23,67,068,34,13,61,333,28,16,45,061,33,07,39,259,29*74
$GPGSV,3,2,12,20,38,179,39,10,27,311,20,30,23,044,28,32,20,160,40*7A
$GPGSV,3,3,12,03,15,111,34,08,14,246,26,06,12,095,22,04,10,272,*79
$GPVTG,120.71,T,,M,2.81,N,5.2,K,D*01
$GPGGA,200418.000,3748.7359,N,12217.7419,W,2,05,2.1,41.2,M,-25.1,M,5.8,0000*77
$GPGSA,A,3,16,23,03,32,20,,,,,,,,2.4,2.1,1.0*30
$GPRMC,200418.000,A,3748.7359,N,12217.7419,W,2.66,122.92,010611,,,D*75
$GPVTG,122.92,T,,M,2.66,N,4.9,K,D*0D
$GPGGA,200419.000,3748.7361,N,12217.7416,W,2,05,2.1,39.9,M,-25.1,M,1.8,0000*72
$GPGSA,A,3,16,23,03,32,20,,,,,,,,2.4,2.1,1.0*30
$GPRMC,200419.000,A,3748.7361,N,12217.7416,W,2.59,123.29,010611,,,D*7D
$GPVTG,123.29,T,,M,2.59,N,4.8,K,D*01
$GPGGA,200420.000,3748.7363,N,12217.7413,W,2,05,2.1,38.5,M,-25.1,M,1.8,0000*72
$GPGSA,A,3,16,23,03,32,20,,,,,,,,2.4,2.1,1.0*30
$GPRMC,200420.000,A,3748.7363,N,12217.7413,W,2.60,119.89,010611,,,D*79
$GPVTG,119.89,T,,M,2.60,N,4.8,K,D*08
$GPGGA,200421.000,3748.7364,N,12217.7409,W,2,05,2.1,37.2,M,-25.1,M,1.8,0000*77
$GPGSA,A,3,16,23,03,32,20,,,,,,,,2.4,2.1,1.0*30
$GPRMC,200421.000,A,3748.7364,N,12217.7409,W,2.61,119.06,010611,,,D*72
$GPVTG,119.06,T,,M,2.61,N,4.8,K,D*0E
$GPGGA,200422.000,3748.7365,N,12217.7406,W,2,05,2.1,36.2,M,-25.1,M,1.8,0000*7B
$GPGSA,A,3,16,23,03,32,20,,,,,,,,2.4,2.1,1.0*30
$GPGSV,3,1,12,23,67,068,34,13,61,333,28,16,45,061,33,07,39,259,29*74
$GPGSV,3,2,12,20,38,179,39,10,27,311,20,30,23,044,28,32,20,160,33*7E
$GPGSV,3,3,12,03,15,111,34,08,14,246,27,06,12,095,21,04,10,272,*7B
$GPRMC,200422.000,A,3748.7365,N,12217.7406,W,2.59,129.16,010611,,,D*76
$GPVTG,129.16,T,,M,2.59,N,4.8,K,D*07
$GPGGA,200423.000,3748.7365,N,12217.7403,W,2,05,2.1,35.1,M,-25.1,M,2.8,0000*7C
$GPGSA,A,3,16,23,03,32,20,,,,,,,,2.4,2.1,1.0*30
$GPRMC,200423.000,A,3748.7365,N,12217.7403,W,2.51,131.46,010611,,,D*76
$GPVTG,131.46,T,,M,2.51,N,4.6,K,D*0D
$GPGGA,200424.000,3748.7365,N,12217.7401,W,2,05,2.1,34.1,M,-25.1,M,3.8,0000*79
$GPGSA,A,3,16,23,03,32,20,,,,,,,,2.4,2.1,1.0*30
$GPRMC,200424.000,A,3748.7365,N,12217.7401,W,2.46,128.08,010611,,,D*77
$GPVTG,128.08,T,,M,2.46,N,4.6,K,D*09
$GPGGA,200425.000,3748.7365,N,12217.7397,W,2,05,2.1,33.2,M,-25.1,M,4.8,0000*73
$GPGSA,A,3,16,23,03,32,20,,,,,,,,2.4,2.1,1.0*30
$GPRMC,200425.000,A,3748.7365,N,12217.7397,W,2.20,117.61,010611,,,D*7D
$GPVTG,117.61,T,,M,2.20,N,4.1,K,D*0D
$GPGGA,200426.000,3748.7365,N,12217.7390,W,2,05,2.1,32.3,M,-25.1,M,1.8,0000*72
$GPGSA,A,3,16,23,03,32,20,,,,,,,,2.4,2.1,1.0*30
$GPRMC,200426.000,A,3748.7365,N,12217.7390,W,2.42,115.80,010611,,,D*70
$GPVTG,115.80,T,,M,2.42,N,4.5,K,D*00
$GPGGA,200427.000,3748.7367,N,12217.7388,W,2,05,2.1,30.9,M,-25.1,M,2.8,0000*73
$GPGSA,A,3,16,23,03,32,20,,,,,,,,2.4,2.1,1.0*30
$GPGSV,3,1,12,23,67,068,34,13,61,333,28,16,45,061,33,07,39,259,31*7D
$GPGSV,3,2,12,20,38,179,29,10,27,311,23,30,23,044,29,32,20,160,32*7C
$GPGSV,3,3,12,03,15,111,34,08,14,246,30,06,12,095,22,04,10,272,*7E
$GPRMC,200427.000,A,3748.7367,N,12217.7388,W,2.30,126.40,010611,,,D*73
$GPVTG,126.40,T,,M,2.30,N,4.3,K,D*0F
$GPGGA,200428.000,3748.7367,N,12217.7384,W,2,05,2.1,30.0,M,-25.1,M,3.8,0000*78
$GPGSA,A,3,16,23,03,32,20,,,,,,,,2.4,2.1,1.0*30
$GPRMC,200428.000,A,3748.7367,N,12217.7384,W,1.97,132.69,010611,,,D*70
$GPVTG,132.69,T,,M,1.97,N,3.7,K,D*0C
$GPGGA,200429.000,3748.7362,N,12217.7375,W,2,05,2.1,30.4,M,-25.1,M,4.8,0000*71
$GPGSA,A,3,16,23,03,32,20,,,,,,,,2.4,2.1,1.0*30
$GPRMC,200429.000,A,3748.7362,N,12217.7375,W,2.23,127.21,010611,,,D*7E
$GPVTG,127.21,T,,M,2.23,N,4.1,K,D*09
$GPGGA,200430.000,3748.7358,N,12217.7369,W,2,05,2.1,29.6,M,-25.1,M,5.8,0000*76
$GPGSA,A,3,16,23,03,32,20,,,,,,,,2.4,2.1,1.0*30
$GPRMC,200430.000,A,3748.7358,N,12217.7369,W,2.45,131.28,010611,,,D*7C
$GPVTG,131.28,T,,M,2.45,N,4.5,K,D*03
$GPGGA,200431.000,3748.7354,N,12217.7364,W,2,05,2.1,28.4,M,-25.1,M,6.8,0000*76
$GPGSA,A,3,16,23,03,32,20,,,,,,,,2.4,2.1,1.0*30
$GPRMC,200431.000,A,3748.7354,N,12217.7364,W,2.48,126.16,010611,,,D*7A
$GPVTG,126.16,T,,M,2.48,N,4.6,K,D*06
$GPGGA,200432.000,3748.7358,N,12217.7362,W,2,05,2.1,26.8,M,-25.1,M,7.8,0000*7C
$GPGSA,A,3,16,23,03,32,20,,,,,,,,2.4,2.1,1.0*30
$GPGSV,3,1,12,23,67,068,27,13,61,333,28,16,45,061,27,07,39,259,26*7C
$GPGSV,3,2,12,20,38,179,35,10,27,311,23,30,23,044,22,32,20,160,35*7D
$GPRMC,200432.000,A,3748.7358,N,12217.7362,W,2.17,117.87,010611,,,D*73
$GPVTG,117.87,T,,M,2.17,N,4.0,K,D*00
$GPGGA,200433.000,3748.7357,N,12217.7355,W,2,05,2.1,26.4,M,-25.1,M,1.8,0000*7C
$GPGSA,A,3,16,23,03,32,20,,,,,,,,2.4,2.1,1.0*30
$GPRMC,200433.000,A,3748.7357,N,12217.7355,W,2.07,111.90,010611,,,D*78
$GPVTG,111.90,T,,M,2.07,N,3.8,K,D*0E
$GPGGA,200434.000,3748.7354,N,12217.7349,W,2,05,2.1,25.7,M,-25.1,M,2.8,0000*76
$GPGSA,A,3,16,23,03,32,20,,,,,,,,2.4,2.1,1.0*30
$GPRMC,200434.000,A,3748.7354,N,12217.7349,W,2.25,122.22,010611,,,D*78
$GPVTG,122.22,T,,M,2.25,N,4.2,K,D*0A
$GPGGA,200435.000,3748.7351,N,12217.7340,W,2,05,2.1,25.5,M,-25.1,M,0.8,0000*7B
$GPGSA,A,3,16,23,03,32,20,,,,,,,,2.4,2.1,1.0*30
$GPRMC,200435.000,A,3748.7351,N,12217.7340,W,2.36,116.10,010611,,,D*71
$GPVTG,116.10,T,,M,2.36,N,4.4,K,D*08
$GPGGA,200436.000,3748.7348,N,12217.7333,W,2,05,2.1,25.1,M,-25.1,M,1.8,0000*71
$GPGSA,A,3,16,23,03,32,20,,,,,,,,2.4,2.1,1.0*30
$GPRMC,200436.000,A,3748.7348,N,12217.7333,W,2.40,121.82,010611,,,D*70
$GPVTG,121.82,T,,M,2.40,N,4.4,K,D*06
$GPGGA,200437.000,3748.7345,N,12217.7325,W,2,05,2.1,24.9,M,-25.1,M,2.8,0000*70
$GPGSA,A,3,16,23,03,32,20,,,,,,,,2.4,2.1,1.0*30
$GPGSV,3,1,12,23,67,068,33,13,61,333,23,16,45,061,33,07,39,259,26*77
$GPGSV,3,2,12,20,38,179,39,10,27,311,23,30,23,044,27,32,20,160,34*75
$GPGSV,3,3,12,03,15,111,35,08,14,246,26,06,12,095,24,04,10,272,*7E
$GPRMC,200437.000,A,3748.7345,N,12217.7325,W,2.41,122.79,010611,,,D*7D
$GPVTG,122.79,T,,M,2.41,N,4.5,K,D*01
$GPGGA,200438.000,3748.7342,N,12217.7320,W,2,05,2.1,24.1,M,-25.1,M,1.8,0000*76
$GPGSA,A,3,16,23,03,32,20,,,,,,,,2.4,2.1,1.0*30
$GPRMC,200438.000,A,3748.7342,N,12217.7320,W,2.55,126.32,010611,,,D*7E
$GPVTG,126.32,T,,M,2.55,N,4.7,K,D*0D
$GPGGA,200439.000,3748.7338,N,12217.7313,W,2,05,2.1,23.6,M,-25.1,M,1.8,0000*7A
$GPGSA,A,3,16,23,03,32,20,,,,,,,,2.4,2.1,1.0*30
$GPRMC,200439.000,A,3748.7338,N,12217.7313,W,2.45,131.49,010611,,,D*79
$GPVTG,131.49,T,,M,2.45,N,4.5,K,D*04
$GPGGA,200440.000,3748.7336,N,12217.7309,W,2,05,2.1,22.5,M,-25.1,M,1.8,0000*73
$GPGSA,A,3,16,23,03,32,20,,,,,,,,2.4,2.1,1.0*30
$GPRMC,200440.000,A,3748.7336,N,12217.7309,W,2.50,129.15,010611,,,D*76
$GPVTG,129.15,T,,M,2.50,N,4.6,K,D*03
$GPGGA,200441.000,3748.7334,N,12217.7305,W,2,05,2.1,21.5,M,-25.1,M,2.8,0000*7C
$GPGSA,A,3,16,23,03,32,20,,,,,,,,2.4,2.1,1.0*30
$GPRMC,200441.000,A,3748.7334,N,12217.7305,W,2.23,113.57,010611,,,D*72
$GPVTG,113.57,T,,M,2.23,N,4.1,K,D*0F
$GPGGA,200442.000,3748.7334,N,12217.7299,W,2,05,2.1,20.6,M,-25.1,M,3.8,0000*78
$GPGSA,A,3,16,23,03,32,20,,,,,,,,2.4,2.1,1.0*30
$GPGSV,3,1,12,23,67,068,33,13,61,333,28,16,45,061,32,07,39,259,27*7C
$GPGSV,3,2,12,20,38,179,31,10,27,311,21,30,23,044,33,32,20,160,33*7D
$GPGSV,3,3,12,03,15,111,35,08,14,246,18,06,12,095,24,04,10,272,*73
$GPRMC,200442.000,A,3748.7334,N,12217.7299,W,2.37,111.80,010611,,,D*78
$GPVTG,111.80,T,,M,2.37,N,4.4,K,D*07
$GPGGA,200443.000,3748.7332,N,12217.7292,W,2,05,2.1,20.3,M,-25.1,M,4.8,0000*76
$GPGSA,A,3,16,23,03,32,20,,,,,,,,2.4,2.1,1.0*30
$GPRMC,200443.000,A,3748.7332,N,12217.7292,W,2.40,114.54,010611,,,D*78
$GPVTG,114.54,T,,M,2.40,N,4.4,K,D*0B
$GPGGA,200444.000,3748.7329,N,12217.7286,W,2,05,2.1,19.5,M,-25.1,M,5.8,0000*73
$GPGSA,A,3,16,23,03,32,20,,,,,,,,2.4,2.1,1.0*30
$GPRMC,200444.000,A,3748.7329,N,12217.7286,W,2.39,125.98,010611,,,D*7C
$GPVTG,125.98,T,,M,2.39,N,4.4,K,D*07
$GPGGA,200445.000,3748.7326,N,12217.7281,W,2,05,2.1,19.0,M,-25.1,M,6.8,0000*7C
$GPGSA,A,3,16,23,03,32,20,,,,,,,,2.4,2.1,1.0*30
$GPRMC,200445.000,A,3748.7326,N,12217.7281,W,2.33,132.36,010611,,,D*7D
$GPVTG,132.36,T,,M,2.33,N,4.3,K,D*08
$GPGGA,200446.000,3748.7323,N,12217.7276,W,2,05,2.1,18.3,M,-25.1,M,1.8,0000*77
$GPGSA,A,3,16,23,03,32,20,,,,,,,,2.4,2.1,1.0*30
$GPRMC,200446.000,A,3748.7323,N,12217.7276,W,2.22,126.32,010611,,,D*72
$GPVTG,126.32,T,,M,2.22,N,4.1,K,D*0B
$GPGGA,200447.000,3748.7321,N,12217.7273,W,2,05,2.1,17.2,M,-25.1,M,2.8,0000*7C
$GPGSA,A,3,16,23,03,32,20,,,,,,,,2.4,2.1,1.0*30
$GPGSV,3,1,12,23,67,068,30,13,61,333,23,16,45,061,33,07,39,259,26*74
$GPGSV,3,2,12,20,38,179,34,10,27,311,21,30,23,044,24,32,20,160,37*7A
$GPGSV,3,3,12,03,15,111,37,08,14,246,19,06,12,095,24,04,10,272,*70
$GPRMC,200447.000,A,3748.7321,N,12217.7273,W,2.26,125.57,010611,,,D*70
$GPVTG,125.57,T,,M,2.26,N,4.2,K,D*0C
$GPGGA,200448.000,3748.7319,N,12217.7269,W,2,05,2.1,16.3,M,-25.1,M,3.8,0000*72
$GPGSA,A,3,16,23,03,32,20,,,,,,,,2.4,2.1,1.0*30
$GPRMC,200448.000,A,3748.7319,N,12217.7269,W,2.06,130.26,010611,,,D*7F
$GPVTG,130.26,T,,M,2.06,N,3.8,K,D*01
$GPGGA,200449.000,3748.7317,N,12217.7263,W,2,05,2.1,15.6,M,-25.1,M,4.8,0000*76
$GPGSA,A,3,16,23,03,32,20,,,,,,,,2.4,2.1,1.0*30
$GPRMC,200449.000,A,3748.7317,N,12217.7263,W,2.56,118.80,010611,,,D*79
$GPVTG,118.80,T,,M,2.56,N,4.7,K,D*0A
$GPGGA,200450.000,3748.7315,N,12217.7256,W,2,05,2.1,15.1,M,-25.1,M,1.8,0000*78
$GPGSA,A,3,16,23,03,32,20,,,,,,,,2.4,2.1,1.0*30
$GPRMC,200450.000,A,3748.7315,N,12217.7256,W,2.61,119.98,010611,,,D*79
$GPVTG,119.98,T,,M,2.61,N,4.8,K,D*09
$GPGGA,200451.000,3748.7312,N,12217.7250,W,2,05,2.1,14.5,M,-25.1,M,1.8,0000*7D
$GPGSA,A,3,16,23,03,32,20,,,,,,,,2.4,2.1,1.0*30
$GPRMC,200451.000,A,3748.7312,N,12217.7250,W,2.52,124.06,010611,,,D*70
$GPVTG,124.06,T,,M,2.52,N,4.7,K,D*0F
$GPGGA,200452.000,3748.7309,N,12217.7244,W,2,05,2.1,14.0,M,-25.1,M,1.8,0000*74
$GPGSA,A,3,16,23,03,32,20,,,,,,,,2.4,2.1,1.0*30
$GPGSV,3,1,12,23,67,068,31,13,61,333,24,16,45,061,32,07,39,259,30*74
$GPGSV,3,2,12,20,38,179,39,10,27,311,20,30,23,044,20,32,20,160,39*7C
$GPGSV,3,3,12,03,15,111,37,08,14,246,19,06,12,095,24,04,10,272,*70
$GPRMC,200452.000,A,3748.7309,N,12217.7244,W,2.45,127.37,010611,,,D*7B
$GPGGA,200453.000,3748.7307,N,12217.7238,W,2,05,2.1,13.5,M,-25.1,M,2.8,0000*71
$GPGSA,A,3,16,23,03,32,20,,,,,,,,2.4,2.1,1.0*30
$GPRMC,200453.000,A,3748.7307,N,12217.7238,W,2.38,126.82,010611,,,D*7A
$GPVTG,126.82,T,,M,2.38,N,4.4,K,D*0E
$GPGGA,200454.000,3748.7304,N,12217.7232,W,2,05,2.1,13.0,M,-25.1,M,3.8,0000*7B
$GPGSA,A,3,16,23,03,32,20,,,,,,,,2.4,2.1,1.0*30
$GPRMC,200454.000,A,3748.7304,N,12217.7232,W,2.37,123.35,010611,,,D*72
$GPVTG,123.35,T,,M,2.37,N,4.4,K,D*08
$GPGGA,200455.000,3748.7301,N,12217.7226,W,2,05,2.1,12.5,M,-25.1,M,4.8,0000*79
$GPGSA,A,3,16,23,03,32,20,,,,,,,,2.4,2.1,1.0*30
$GPRMC,200455.000,A,3748.7301,N,12217.7226,W,2.52,118.71,010611,,,D*78
$GPVTG,118.71,T,,M,2.52,N,4.7,K,D*00
$GPGGA,200456.000,3748.7299,N,12217.7219,W,2,05,2.1,12.1,M,-25.1,M,1.8,0000*77
$GPGSA,A,3,16,23,03,32,20,,,,,,,,2.4,2.1,1.0*30
$GPRMC,200456.000,A,3748.7299,N,12217.7219,W,2.47,116.37,010611,,,D*7F
$GPVTG,116.37,T,,M,2.47,N,4.6,K,D*09
$GPGGA,200457.000,3748.7295,N,12217.7211,W,2,05,2.1,12.2,M,-25.1,M,1.8,0000*71
$GPGSA,A,3,16,23,03,32,20,,,,,,,,2.4,2.1,1.0*30
$GPGSV,3,1,12,23,67,068,33,13,61,333,25,16,45,061,25,07,39,259,31*70
$GPGSV,3,2,12,20,38,179,39,10,27,311,20,30,23,044,22,32,20,160,40*70
$GPGSV,3,3,12,03,15,111,38,08,14,246,29,06,12,095,33,04,10,272,*7A
$GPRMC,200457.000,A,3748.7295,N,12217.7211,W,2.49,114.45,010611,,,D*73
$GPVTG,114.45,T,,M,2.49,N,4.6,K,D*00
$GPGGA,200458.000,3748.7293,N,12217.7204,W,2,05,2.1,11.9,M,-25.1,M,1.8,0000*74
$GPGSA,A,3,16,23,03,32,20,,,,,,,,2.4,2.1,1.0*30
$GPRMC,200458.000,A,3748.7293,N,12217.7204,W,2.25,114.77,010611,,,D*75
$GPVTG,114.77,T,,M,2.25,N,4.2,K,D*0F
$GPGGA,200459.000,3748.7294,N,12217.7202,W,2,05,2.1,10.4,M,-25.1,M,2.8,0000*7B
$GPGSA,A,3,16,23,03,32,20,,,,,,,,2.4,2.1,1.0*30
$GPRMC,200459.000,A,3748.7294,N,12217.7202,W,2.29,121.51,010611,,,D*7B
$GPVTG,121.51,T,,M,2.29,N,4.2,K,D*01
$GPGGA,200500.000,3748.7294,N,12217.7199,W,2,05,2.1,9.3,M,-25.1,M,3.8,0000*49
$GPGSA,A,3,16,23,03,32,20,,,,,,,,2.4,2.1,1.0*30
$GPRMC,200500.000,A,3748.7294,N,12217.7199,W,2.25,122.29,010611,,,D*77
$GPVTG,122.29,T,,M,2.25,N,4.2,K,D*01
$GPGGA,200501.000,3748.7293,N,12217.7195,W,2,05,2.1,8.4,M,-25.1,M,1.8,0000*47
$GPGSA,A,3,16,23,03,32,20,,,,,,,,2.4,2.1,1.0*30
$GPRMC,200501.000,A,3748.7293,N,12217.7195,W,2.35,124.80,010611,,,D*79
$GPVTG,124.80,T,,M,2.35,N,4.4,K,D*03
$GPGGA,200502.000,3748.7292,N,12217.7190,W,2,05,2.1,7.7,M,-25.1,M,1.8,0000*4C
$GPGSA,A,3,16,23,03,32,20,,,,,,,,2.4,2.1,1.0*30
$GPGSV,3,1,12,23,67,068,32,13,61,333,26,16,45,061,33,07,39,259,31*75
$GPGSV,3,2,12,20,38,179,39,10,27,311,21,30,23,044,24,32,20,160,33*73
$GPGSV,3,3,12,03,15,111,39,08,14,246,32,06,12,095,26,04,10,272,*75
$GPRMC,200502.000,A,3748.7292,N,12217.7190,W,2.55,121.43,010611,,,D*72
$GPVTG,121.43,T,,M,2.55,N,4.7,K,D*0C
$GPGGA,200503.000,3748.7290,N,12217.7184,W,2,05,2.1,7.0,M,-25.1,M,1.8,0000*4D
$GPGSA,A,3,16,23,03,32,20,,,,,,,,2.4,2.1,1.0*30
$GPRMC,200503.000,A,3748.7290,N,12217.7184,W,2.58,112.32,010611,,,D*7F
$GPVTG,112.32,T,,M,2.58,N,4.8,K,D*08
$GPGGA,200504.000,3748.7291,N,12217.7178,W,2,05,2.1,6.3,M,-25.1,M,1.8,0000*4A
$GPGSA,A,3,16,23,03,32,20,,,,,,,,2.4,2.1,1.0*30
$GPRMC,200504.000,A,3748.7291,N,12217.7178,W,2.52,84.23,010611,,,D*4E
$GPVTG,84.23,T,,M,2.52,N,4.7,K,D*33
$GPGGA,200505.000,3748.7294,N,12217.7170,W,2,05,2.1,6.0,M,-25.1,M,2.8,0000*46
$GPGSA,A,3,16,23,03,32,20,,,,,,,,2.4,2.1,1.0*30
$GPRMC,200505.000,A,3748.7294,N,12217.7170,W,2.72,62.46,010611,,,D*4B
$GPVTG,62.46,T,,M,2.72,N,5.0,K,D*3C
$GPGGA,200506.000,3748.7300,N,12217.7163,W,2,05,2.1,5.5,M,-25.1,M,1.8,0000*4E
$GPGSA,A,3,16,23,03,32,20,,,,,,,,2.4,2.1,1.0*30
$GPRMC,200506.000,A,3748.7300,N,12217.7163,W,2.77,53.58,010611,,,D*4E
$GPVTG,53.58,T,,M,2.77,N,5.1,K,D*35
$GPGGA,200507.000,3748.7307,N,12217.7157,W,2,05,2.1,5.0,M,-25.1,M,0.8,0000*4B
$GPGSA,A,3,16,23,03,32,20,,,,,,,,2.4,2.1,1.0*30
$GPGSV,3,1,12,23,67,068,33,13,61,333,32,16,45,061,39,07,39,259,23*78
$GPGSV,3,2,12,20,38,179,32,10,27,311,21,30,23,044,37,32,20,160,34*7D
$GPGSV,3,3,12,03,15,111,30,08,14,246,23,06,12,095,26,04,10,272,*7C
$GPVTG,42.33,T,,M,2.75,N,5.1,K,D*3A
$GPGGA,200508.000,3748.7316,N,12217.7154,W,2,05,2.1,4.5,M,-25.1,M,1.8,0000*42
$GPGSA,A,3,16,23,03,32,20,,,,,,,,2.4,2.1,1.0*30
$GPRMC,200508.000,A,3748.7316,N,12217.7154,W,2.82,34.61,010611,,,D*42
$GPVTG,34.61,T,,M,2.82,N,5.2,K,D*37
$GPGGA,200509.000,3748.7326,N,12217.7154,W,2,05,2.1,3.7,M,-25.1,M,2.8,0000*46
$GPGSA,A,3,16,23,03,32,20,,,,,,,,2.4,2.1,1.0*30
$GPRMC,200509.000,A,3748.7326,N,12217.7154,W,3.09,34.31,010611,,,D*47
$GPVTG,34.31,T,,M,3.09,N,5.7,K,D*35
$GPGGA,200510.000,3748.7336,N,12217.7154,W,2,05,2.1,3.0,M,-25.1,M,3.8,0000*49
$GPGSA,A,3,16,23,03,32,20,,,,,,,,2.4,2.1,1.0*30
$GPRMC,200510.000,A,3748.7336,N,12217.7154,W,2.96,29.14,010611,,,D*42
$GPVTG,29.14,T,,M,2.96,N,5.5,K,D*3B
$GPGGA,200511.000,3748.7346,N,12217.7153,W,2,05,2.1,2.4,M,-25.1,M,4.8,0000*4A
$GPGSA,A,3,16,23,03,32,20,,,,,,,,2.4,2.1,1.0*30
$GPRMC,200511.000,A,3748.7346,N,12217.7153,W,3.06,29.58,010611,,,D*43
$GPVTG,29.58,T,,M,3.06,N,5.7,K,D*39
$GPGGA,200512.000,3748.7354,N,12217.7148,W,2,05,2.1,2.1,M,-25.1,M,5.8,0000*44
$GPGSA,A,3,16,23,03,32,20,,,,,,,,2.4,2.1,1.0*30
$GPGSV,3,1,12,23,67,068,33,13,61,333,31,16,45,061,39,07,39,259,23*7B
$GPGSV,3,2,12,20,38,179,27,10,27,311,22,30,23,044,38,32,20,160,27*77
$GPGSV,3,3,12,03,15,111,25,08,14,246,22,06,12,095,30,04,10,272,*7E
$GPRMC,200512.000,A,3748.7354,N,12217.7148,W,2.91,33.19,010611,,,D*48
$GPVTG,33.19,T,,M,2.91,N,5.4,K,D*3B
$GPGGA,200513.000,3748.7362,N,12217.7142,W,2,05,2.1,1.9,M,-25.1,M,6.8,0000*42
$GPGSA,A,3,16,23,03,32,20,,,,,,,,2.4,2.1,1.0*30
$GPRMC,200513.000,A,3748.7362,N,12217.7142,W,2.83,36.20,010611,,,D*4A
$GPVTG,36.20,T,,M,2.83,N,5.2,K,D*31
$GPGGA,200514.000,3748.7370,N,12217.7138,W,2,05,2.1,1.5,M,-25.1,M,7.8,0000*46
$GPGSA,A,3,16,23,03,32,20,,,,,,,,2.4,2.1,1.0*30
$GPRMC,200514.000,A,3748.7370,N,12217.7138,W,2.79,30.30,010611,,,D*41
$GPVTG,30.30,T,,M,2.79,N,5.2,K,D*33
$GPGGA,200515.000,3748.7376,N,12217.7135,W,2,05,2.1,1.0,M,-25.1,M,8.8,0000*46
$GPGSA,A,3,16,23,03,32,20,,,,,,,,2.4,2.1,1.0*30
$GPRMC,200515.000,A,3748.7376,N,12217.7135,W,2.68,33.40,010611,,,D*4F
$GPVTG,33.40,T,,M,2.68,N,5.0,K,D*35
$GPGGA,200516.000,3748.7383,N,12217.7127,W,2,05,2.1,0.6,M,-25.1,M,9.8,0000*4A
$GPGSA,A,3,16,23,03,32,20,,,,,,,,2.4,2.1,1.0*30
$GPRMC,200516.000,A,3748.7383,N,12217.7127,W,2.57,27.06,010611,,,D*4E
$GPVTG,27.06,T,,M,2.57,N,4.8,K,D*37
$GPGGA,200517.000,3748.7389,N,12217.7122,W,2,05,2.1,0.3,M,-25.1,M,10.8,0000*79
$GPGSA,A,3,16,23,03,32,20,,,,,,,,2.4,2.1,1.0*30
$GPGSV,3,1,12,23,67,068,34,13,61,333,32,16,45,061,39,07,39,259,22*7E
$GPGSV,3,2,12,20,38,179,28,10,27,311,31,30,23,044,39,32,20,160,28*74
$GPGSV,3,3,12,03,15,111,35,08,14,246,18,06,12,095,30,04,10,272,*76
$GPRMC,200517.000,A,3748.7389,N,12217.7122,W,2.80,25.33,010611,,,D*4E
$GPVTG,25.33,T,,M,2.80,N,5.2,K,D*32
$GPGGA,200518.000,3748.7396,N,12217.7118,W,2,05,2.1,-0.0,M,-25.1,M,11.8,0000*5E
$GPGSA,A,3,16,23,03,32,20,,,,,,,,2.4,2.1,1.0*30
$GPRMC,200518.000,A,3748.7396,N,12217.7118,W,2.99,27.23,010611,,,D*4D
$GPVTG,27.23,T,,M,2.99,N,5.5,K,D*3E
$GPGGA,200519.000,3748.7403,N,12217.7113,W,2,05,2.1,-0.4,M,-25.1,M,12.8,0000*58
$GPGSA,A,3,16,23,03,32,20,,,,,,,,2.4,2.1,1.0*30
$GPRMC,200519.000,A,3748.7403,N,12217.7113,W,2.61,25.74,010611,,,D*4B
$GPVTG,25.74,T,,M,2.61,N,4.8,K,D*35
$GPGGA,200520.000,3748.7410,N,12217.7107,W,2,05,2.1,-0.6,M,-25.1,M,13.8,0000*56
$GPGSA,A,3,16,23,03,32,20,,,,,,,,2.4,2.1,1.0*30
$GPRMC,200520.000,A,3748.7410,N,12217.7107,W,2.83,24.39,010611,,,D*42
$GPVTG,24.39,T,,M,2.83,N,5.2,K,D*3A
$GPGGA,200521.000,3748.7418,N,12217.7107,W,2,05,2.1,-1.0,M,-25.1,M,14.8,0000*5F
$GPGSA,A,3,16,23,03,32,20,,,,,,,,2.4,2.1,1.0*30
$GPRMC,200521.000,A,3748.7418,N,12217.7107,W,2.09,9.09,010611,,,D*75
$GPVTG,9.09,T,,M,2.09,N,3.9,K,D*09
$GPGGA,200522.000,3748.7425,N,12217.7107,W,2,05,2.1,-1.3,M,-25.1,M,15.8,0000*50
$GPGSA,A,3,16,23,03,32,20,,,,,,,,2.4,2.1,1.0*30
$GPGSV,3,1,12,23,67,068,35,13,61,333,29,16,45,061,38,07,39,259,23*75
$GPGSV,3,2,12,20,38,179,29,10,27,311,20,30,23,044,39,32,20,160,29*74
$GPGSV,3,3,12,03,15,111,35,08,14,246,18,06,12,095,30,04,10,272,*76
$GPVTG,11.38,T,,M,2.23,N,4.1,K,D*35
$GPGGA,200523.000,3748.7432,N,12217.7109,W,2,05,2.1,-1.9,M,-25.1,M,16.8,0000*50
$GPGSA,A,3,16,23,03,32,20,,,,,,,,2.4,2.1,1.0*30
$GPRMC,200523.000,A,3748.7432,N,12217.7109,W,2.31,8.90,010611,,,D*7B
$GPVTG,8.90,T,,M,2.31,N,4.3,K,D*0E
$GPGGA,200524.000,3748.7439,N,12217.7100,W,2,05,2.1,-1.8,M,-25.1,M,17.8,0000*55
$GPGSA,A,3,16,23,03,32,20,,,,,,,,2.4,2.1,1.0*30
$GPRMC,200524.000,A,3748.7439,N,12217.7100,W,2.39,15.72,010611,,,D*46
$GPVTG,15.72,T,,M,2.39,N,4.4,K,D*31
$GPGGA,200525.000,3748.7446,N,12217.7095,W,1,05,2.1,-1.8,M,-25.1,M,,0000*42
$GPGSA,A,3,16,23,03,32,20,,,,,,,,2.4,2.1,1.0*30
$GPRMC,200525.000,A,3748.7446,N,12217.7095,W,2.56,18.79,010611,,,A*48
$GPVTG,18.79,T,,M,2.56,N,4.7,K,A*38
$GPGGA,200526.000,3748.7454,N,12217.7088,W,1,05,2.1,-1.8,M,-25.1,M,,0000*4E
$GPGSA,A,3,16,23,03,32,20,,,,,,,,2.4,2.1,1.0*30
$GPRMC,200526.000,A,3748.7454,N,12217.7088,W,2.94,25.70,010611,,,A*4D
$GPVTG,25.70,T,,M,2.94,N,5.4,K,A*33
$GPGGA,200527.000,3748.7461,N,12217.7082,W,1,05,2.1,-1.9,M,-25.1,M,,0000*42
$GPGSA,A,3,16,23,03,32,20,,,,,,,,2.4,2.1,1.0*30
$GPGSV,3,1,12,23,67,068,34,13,61,333,31,16,45,061,38,07,39,259,23*7D
$GPGSV,3,2,12,20,38,179,29,10,27,311,17,30,23,044,29,32,20,160,30*79
$GPGSV,3,3,12,03,15,111,35,08,14,246,17,06,12,095,34,04,10,272,*7D
$GPRMC,200527.000,A,3748.7461,N,12217.7082,W,2.74,29.08,010611,,,A*4D
$GPVTG,29.08,T,,M,2.74,N,5.1,K,A*3B
$GPGGA,200528.000,3748.7468,N,12217.7075,W,1,05,2.1,-1.9,M,-25.1,M,,0000*4C
$GPGSA,A,3,16,23,03,32,20,,,,,,,,2.4,2.1,1.0*30
$GPRMC,200528.000,A,3748.7468,N,12217.7075,W,2.71,25.97,010611,,,A*4C
$GPVTG,25.97,T,,M,2.71,N,5.0,K,A*35
$GPGGA,200529.000,3748.7473,N,12217.7067,W,1,05,2.1,-1.6,M,-25.1,M,,0000*4B
$GPGSA,A,3,16,23,03,32,20,,,,,,,,2.4,2.1,1.0*30
$GPRMC,200529.000,A,3748.7473,N,12217.7067,W,2.74,25.52,010611,,,A*48
$GPVTG,25.52,T,,M,2.74,N,5.1,K,A*38
$GPGGA,200530.000,3748.7478,N,12217.7061,W,1,05,2.1,-1.1,M,-25.1,M,,0000*49
$GPGSA,A,3,16,23,03,32,20,,,,,,,,2.4,2.1,1.0*30
$GPRMC,200530.000,A,3748.7478,N,12217.7061,W,2.26,14.41,010611,,,A*4A
$GPVTG,14.41,T,,M,2.26,N,4.2,K,A*3D
$GPGGA,200531.000,3748.7483,N,12217.7056,W,1,05,2.1,-0.5,M,-25.1,M,,0000*4D
$GPGSA,A,3,16,23,03,32,20,,,,,,,,2.4,2.1,1.0*30
$GPRMC,200531.000,A,3748.7483,N,12217.7056,W,2.71,9.54,010611,,,A*71
$GPVTG,9.54,T,,M,2.71,N,5.0,K,A*04
$GPGGA,200532.000,3748.7489,N,12217.7050,W,1,05,2.1,-0.5,M,-25.1,M,,0000*42
$GPGSA,A,3,16,23,03,32,20,,,,,,,,2.4,2.1,1.0*30
$GPGSV,3,1,12,23,67,068,26,13,61,333,31,16,45,061,31,07,39,259,22*76
$GPGSV,3,2,12,20,38,179,28,10,27,311,22,30,23,044,31,32,20,160,30*77
$GPGSV,3,3,12,03,15,111,36,08,14,246,17,06,12,095,31,04,10,272,*7B
$GPRMC,200532.000,A,3748.7489,N,12217.7050,W,2.76,20.02,010611,,,A*41
$GPVTG,20.02,T,,M,2.76,N,5.1,K,A*3A
$GPGGA,200533.000,3748.7493,N,12217.7043,W,1,05,2.1,0.2,M,-25.1,M,,0000*60
$GPGSA,A,3,16,23,03,32,20,,,,,,,,2.4,2.1,1.0*30
$GPRMC,200533.000,A,3748.7493,N,12217.7043,W,2.36,16.24,010611,,,A*4C
$GPVTG,16.24,T,,M,2.36,N,4.4,K,A*3B
$GPGGA,200534.000,3748.7499,N,12217.7040,W,1,05,2.1,-0.1,M,-25.1,M,,0000*40
$GPGSA,A,3,16,23,03,32,20,,,,,,,,2.4,2.1,1.0*30
$GPRMC,200534.000,A,3748.7499,N,12217.7040,W,2.66,11.04,010611,,,A*42
$GPVTG,11.04,T,,M,2.66,N,4.9,K,A*36
$GPGGA,200535.000,3748.7505,N,12217.7034,W,1,05,2.1,0.6,M,-25.1,M,,0000*6C
$GPGSA,A,3,16,23,03,32,20,,,,,,,,2.4,2.1,1.0*30
$GPRMC,200535.000,A,3748.7505,N,12217.7034,W,2.24,10.69,010611,,,A*48
$GPVTG,10.69,T,,M,2.24,N,4.1,K,A*32
$GPGGA,200536.000,3748.7513,N,12217.7024,W,1,05,2.1,1.0,M,-25.1,M,,0000*6E
$GPGSA,A,3,16,23,03,32,20,,,,,,,,2.4,2.1,1.0*30
$GPRMC,200536.000,A,3748.7513,N,12217.7024,W,2.69,17.97,010611,,,A*42
$GPVTG,17.97,T,,M,2.69,N,5.0,K,A*3D
$GPGGA,200537.000,3748.7521,N,12217.7007,W,1,05,2.1,1.6,M,-25.1,M,,0000*69
$GPGSA,A,3,16,23,03,32,20,,,,,,,,2.4,2.1,1.0*30
$GPGSV,3,1,12,23,67,068,33,13,61,333,31,16,45,061,37,07,39,259,22*74
$GPGSV,3,2,12,20,38,179,23,10,27,311,22,30,23,044,39,32,20,160,30*74
$GPGSV,3,3,12,03,15,111,30,08,14,246,16,06,12,095,30,04,10,272,*7D
$GPVTG,22.13,T,,M,2.78,N,5.2,K,A*35
$GPGGA,200538.000,3748.7530,N,12217.6997,W,1,05,2.1,1.8,M,-25.1,M,,0000*69
$GPGSA,A,3,16,23,03,32,20,,,,,,,,2.4,2.1,1.0*30
$GPRMC,200538.000,A,3748.7530,N,12217.6997,W,2.82,27.42,010611,,,A*43
$GPVTG,27.42,T,,M,2.82,N,5.2,K,A*31
$GPGGA,200539.000,3748.7537,N,12217.6988,W,1,05,2.1,1.8,M,-25.1,M,,0000*61
$GPGSA,A,3,16,23,03,32,20,,,,,,,,2.4,2.1,1.0*30
$GPRMC,200539.000,A,3748.7537,N,12217.6988,W,2.55,28.52,010611,,,A*4F
$GPVTG,28.52,T,,M,2.55,N,4.7,K,A*31
$GPGGA,200540.000,3748.7544,N,12217.6983,W,1,05,2.1,1.7,M,-25.1,M,,0000*6F
$GPGSA,A,3,16,23,03,32,20,,,,,,,,2.4,2.1,1.0*30
$GPRMC,200540.000,A,3748.7544,N,12217.6983,W,2.60,26.72,010611,,,A*44
$GPVTG,26.72,T,,M,2.60,N,4.8,K,A*34
$GPGGA,200541.000,3748.7551,N,12217.6979,W,1,05,2.1,1.7,M,-25.1,M,,0000*6F
$GPGSA,A,3,16,23,03,32,20,,,,,,,,2.4,2.1,1.0*30
$GPRMC,200541.000,A,3748.7551,N,12217.6979,W,2.32,20.87,010611,,,A*4F
$GPVTG,20.87,T,,M,2.32,N,4.3,K,A*34
$GPGGA,200542.000,3748.7558,N,12217.6976,W,1,05,2.1,1.6,M,-25.1,M,,0000*6B
$GPGSA,A,3,16,23,03,32,20,,,,,,,,2.4,2.1,1.0*30
$GPGSV,3,1,12,23,66,070,34,13,61,334,31,16,44,060,37,07,39,260,22*76
$GPGSV,3,2,12,20,37,179,24,10,28,311,22,30,23,044,39,32,19,160,30*79
$GPGSV,3,3,12,03,15,110,35,08,14,247,16,06,12,095,31,04,10,272,*79
$GPRMC,200542.000,A,3748.7558,N,12217.6976,W,2.76,25.19,010611,,,A*48
$GPVTG,25.19,T,,M,2.76,N,5.1,K,A*35
$GPGGA,200543.000,3748.7566,N,12217.6975,W,1,05,2.1,1.4,M,-25.1,M,,0000*66
$GPGSA,A,3,16,23,03,32,20,,,,,,,,2.4,2.1,1.0*30
$GPRMC,200543.000,A,3748.7566,N,12217.6975,W,2.53,21.86,010611,,,A*42
$GPVTG,21.86,T,,M,2.53,N,4.7,K,A*37
$GPGGA,200544.000,3748.7573,N,12217.6969,W,1,05,2.1,1.4,M,-25.1,M,,0000*68
$GPGSA,A,3,16,23,03,32,20,,,,,,,,2.4,2.1,1.0*30
$GPRMC,200544.000,A,3748.7573,N,12217.6969,W,2.54,29.30,010611,,,A*4E
$GPVTG,29.30,T,,M,2.54,N,4.7,K,A*35
$GPGGA,200545.000,3748.7579,N,12217.6963,W,1,05,2.1,1.4,M,-25.1,M,,0000*69
$GPGSA,A,3,16,23,03,32,20,,,,,,,,2.4,2.1,1.0*30
$GPRMC,200545.000,A,3748.7579,N,12217.6963,W,2.43,33.11,010611,,,A*41
$GPVTG,33.11,T,,M,2.43,N,4.5,K,A*39
$GPGGA,200546.000,3748.7584,N,12217.6955,W,1,05,2.1,2.0,M,-25.1,M,,0000*6A
$GPGSA,A,3,16,23,03,32,20,,,,,,,,2.4,2.1,1.0*30
$GPRMC,200546.000,A,3748.7584,N,12217.6955,W,2.75,24.82,010611,,,A*4C
$GPVTG,24.82,T,,M,2.75,N,5.1,K,A*35
$GPGGA,200547.000,3748.7590,N,12217.6948,W,1,05,2.1,2.8,M,-25.1,M,,0000*6A
$GPGSA,A,3,16,23,03,32,20,,,,,,,,2.4,2.1,1.0*30
$GPGSV,3,1,12,23,66,070,27,13,61,334,32,16,44,060,31,07,39,260,22*71
$GPGSV,3,2,12,20,37,179,28,10,28,311,26,30,23,044,39,32,19,160,30*71
$GPGSV,3,3,12,03,15,110,31,08,14,247,16,06,12,095,37,04,09,272,*73
$GPRMC,200547.000,A,3748.7590,N,12217.6948,W,2.43,16.12,010611,,,A*49
$GPVTG,16.12,T,,M,2.43,N,4.5,K,A*3D
$GPGGA,200548.000,3748.7597,N,12217.6943,W,1,05,2.1,3.1,M,-25.1,M,,0000*61
$GPGSA,A,3,16,23,03,32,20,,,,,,,,2.4,2.1,1.0*30
$GPRMC,200548.000,A,3748.7597,N,12217.6943,W,2.22,13.33,010611,,,A*4B
$GPVTG,13.33,T,,M,2.22,N,4.1,K,A*38
$GPGGA,200549.000,3748.7604,N,12217.6937,W,1,05,2.1,3.3,M,-25.1,M,,0000*68
$GPGSA,A,3,16,23,03,32,20,,,,,,,,2.4,2.1,1.0*30
$GPRMC,200549.000,A,3748.7604,N,12217.6937,W,2.36,5.40,010611,,,A*76
$GPVTG,5.40,T,,M,2.36,N,4.4,K,A*0B
$GPGGA,200550.000,3748.7613,N,12217.6929,W,1,05,2.1,3.6,M,-25.1,M,,0000*6C
$GPGSA,A,3,16,23,03,32,20,,,,,,,,2.4,2.1,1.0*30
$GPRMC,200550.000,A,3748.7613,N,12217.6929,W,2.65,2.06,010611,,,A*74
$GPVTG,2.06,T,,M,2.65,N,4.9,K,A*05
$GPGGA,200551.000,3748.7622,N,12217.6921,W,1,05,2.1,3.8,M,-25.1,M,,0000*69
$GPGSA,A,3,16,23,03,32,20,,,,,,,,2.4,2.1,1.0*30
$GPRMC,200551.000,A,3748.7622,N,12217.6921,W,2.60,6.18,010611,,,A*71
$GPVTG,6.18,T,,M,2.60,N,4.8,K,A*0A
$GPGGA,200552.000,3748.7631,N,12217.6915,W,1,05,2.1,4.0,M,-25.1,M,,0000*60
$GPGSA,A,3,16,23,03,32,20,,,,,,,,2.4,2.1,1.0*30
$GPGSV,3,1,12,23,66,070,31,13,61,334,32,16,44,060,38,07,39,260,22*7F
$GPGSV,3,2,12,20,37,179,21,10,28,311,27,30,23,044,41,32,19,160,26*71
$GPGSV,3,3,12,03,15,110,36,08,14,247,18,06,12,095,37,04,09,272,*7A
$GPRMC,200552.000,A,3748.7631,N,12217.6915,W,3.10,16.57,010611,,,A*4B
$GPGGA,200553.000,3748.7638,N,12217.6910,W,1,05,2.1,4.0,M,-25.1,M,,0000*6D
$GPGSA,A,3,16,23,03,32,20,,,,,,,,2.4,2.1,1.0*30
$GPRMC,200553.000,A,3748.7638,N,12217.6910,W,2.71,19.48,010611,,,A*41
$GPVTG,19.48,T,,M,2.71,N,5.0,K,A*38
$GPGGA,200554.000,3748.7645,N,12217.6901,W,1,05,2.1,4.2,M,-25.1,M,,0000*62
$GPGSA,A,3,16,23,03,32,20,,,,,,,,2.4,2.1,1.0*30
$GPRMC,200554.000,A,3748.7645,N,12217.6901,W,2.78,25.76,010611,,,A*47
$GPVTG,25.76,T,,M,2.78,N,5.2,K,A*31
$GPGGA,200555.000,3748.7651,N,12217.6894,W,1,05,2.1,4.3,M,-25.1,M,,0000*6A
$GPGSA,A,3,16,23,03,32,20,,,,,,,,2.4,2.1,1.0*30
$GPRMC,200555.000,A,3748.7651,N,12217.6894,W,2.62,31.52,010611,,,A*46
$GPVTG,31.52,T,,M,2.62,N,4.8,K,A*32
$GPGGA,200556.000,3748.7656,N,12217.6886,W,1,05,2.2,4.3,M,-25.1,M,,0000*6E
$GPGSA,A,3,16,23,03,32,20,,,,,,,,2.4,2.2,1.0*33
$GPRMC,200556.000,A,3748.7656,N,12217.6886,W,2.81,38.73,010611,,,A*46
$GPVTG,38.73,T,,M,2.81,N,5.2,K,A*3E
$GPGGA,200557.000,3748.7661,N,12217.6877,W,1,05,2.2,4.4,M,-25.1,M,,0000*62
$GPGSA,A,3,16,23,03,32,20,,,,,,,,2.4,2.2,1.0*33
$GPGSV,3,1,12,23,66,070,32,13,61,334,32,16,44,060,38,07,39,260,22*7C
$GPGSV,3,2,12,20,37,179,30,10,28,311,27,30,23,044,41,32,19,160,33*75
$GPGSV,3,3,12,03,15,110,37,08,14,247,20,06,12,095,37,04,09,272,*70
$GPRMC,200557.000,A,3748.7661,N,12217.6877,W,2.76,44.19,010611,,,A*42
$GPVTG,44.19,T,,M,2.76,N,5.1,K,A*32
$GPGGA,200558.000,3748.7666,N,12217.6868,W,1,05,2.2,4.4,M,-25.1,M,,0000*64
$GPGSA,A,3,16,23,03,32,20,,,,,,,,2.4,2.2,1.0*33
$GPRMC,200558.000,A,3748.7666,N,12217.6868,W,2.76,43.93,010611,,,A*41
$GPVTG,43.93,T,,M,2.76,N,5.1,K,A*37
$GPGGA,200559.000,3748.7672,N,12217.6865,W,1,05,2.2,4.2,M,-25.1,M,,0000*6B
$GPGSA,A,3,16,23,03,32,20,,,,,,,,2.4,2.2,1.0*33
$GPRMC,200559.000,A,3748.7672,N,12217.6865,W,2.80,19.68,010611,,,A*4A
$GPVTG,19.68,T,,M,2.80,N,5.2,K,A*36
$GPGGA,200600.000,3748.7680,N,12217.6856,W,1,05,2.2,4.9,M,-25.1,M,,0000*62
$GPGSA,A,3,16,23,03,32,20,,,,,,,,2.4,2.2,1.0*33
$GPRMC,200600.000,A,3748.7680,N,12217.6856,W,2.63,8.83,010611,,,A*70
$GPVTG,8.83,T,,M,2.63,N,4.9,K,A*04
$GPGGA,200601.000,3748.7686,N,12217.6851,W,1,05,2.2,4.6,M,-25.1,M,,0000*6D
$GPGSA,A,3,16,23,03,32,20,,,,,,,,2.4,2.2,1.0*33
$GPRMC,200601.000,A,3748.7686,N,12217.6851,W,2.58,11.05,010611,,,A*4E
$GPVTG,11.05,T,,M,2.58,N,4.8,K,A*3B
$GPGGA,200602.000,3748.7693,N,12217.6842,W,1,05,2.2,5.0,M,-25.1,M,,0000*6F
$GPGSA,A,3,16,23,03,32,20,,,,,,,,2.4,2.2,1.0*33
$GPGSV,3,1,12,23,66,070,33,13,61,334,32,16,44,060,39,07,39,260,23*7D
$GPGSV,3,2,12,20,37,179,26,10,28,311,31,30,23,044,41,32,19,160,31*77
$GPGSV,3,3,12,03,15,110,36,08,14,247,21,06,12,095,25,04,09,272,*73
$GPRMC,200602.000,A,3748.7693,N,12217.6842,W,2.89,21.60,010611,,,A*47
$GPVTG,21.60,T,,M,2.89,N,5.3,K,A*3D
$GPGGA,200603.000,3748.7699,N,12217.6836,W,1,05,2.2,5.1,M,-25.1,M,,0000*66
$GPGSA,A,3,16,23,03,32,20,,,,,,,,2.4,2.2,1.0*33
$GPRMC,200603.000,A,3748.7699,N,12217.6836,W,2.91,28.72,010611,,,A*4C
$GPVTG,28.72,T,,M,2.91,N,5.4,K,A*39
$GPGGA,200604.000,3748.7702,N,12217.6823,W,1,06,2.2,6.0,M,-25.1,M,,0000*67
$GPGSA,A,3,16,13,23,03,32,20,,,,,,,4.2,2.2,3.6*35
$GPRMC,200604.000,A,3748.7702,N,12217.6823,W,2.93,38.23,010611,,,A*4B
$GPVTG,38.23,T,,M,2.93,N,5.4,K,A*3E
$GPGGA,200605.000,3748.7707,N,12217.6815,W,1,06,2.2,6.4,M,-25.1,M,,0000*62
$GPGSA,A,3,16,13,23,03,32,20,,,,,,,4.2,2.2,3.6*35
$GPRMC,200605.000,A,3748.7707,N,12217.6815,W,2.62,37.47,010611,,,A*49
$GPVTG,37.47,T,,M,2.62,N,4.9,K,A*31
$GPGGA,200606.000,3748.7713,N,12217.6810,W,1,06,2.2,6.2,M,-25.1,M,,0000*67
$GPGSA,A,3,16,13,23,03,32,20,,,,,,,4.2,2.2,3.6*35
$GPRMC,200606.000,A,3748.7713,N,12217.6810,W,2.39,26.05,010611,,,A*42
$GPVTG,26.05,T,,M,2.39,N,4.4,K,A*34
$GPGGA,200607.000,3748.7717,N,12217.6806,W,1,06,2.2,6.5,M,-25.1,M,,0000*62
$GPGSA,A,3,16,13,23,03,32,20,,,,,,,4.2,2.2,3.6*35
$GPGSV,3,1,12,23,66,070,34,13,62,335,32,16,44,060,38,07,39,260,23*79
$GPGSV,3,2,12,20,37,179,29,10,28,311,24,30,23,044,40,32,19,160,26*7B
$GPGSV,3,3,12,03,15,110,27,08,14,247,21,06,12,095,25,04,09,272,*73
$GPRMC,200607.000,A,3748.7717,N,12217.6806,W,2.18,33.46,010611,,,A*40
$GPGGA,200608.000,3748.7721,N,12217.6801,W,1,06,2.2,6.7,M,-25.1,M,,0000*6D
$GPGSA,A,3,16,13,23,03,32,20,,,,,,,4.2,2.2,3.6*35
$GPRMC,200608.000,A,3748.7721,N,12217.6801,W,2.21,39.74,010611,,,A*4C
$GPVTG,39.74,T,,M,2.21,N,4.1,K,A*30
$GPGGA,200609.000,3748.7728,N,12217.6797,W,1,06,2.2,6.6,M,-25.1,M,,0000*64
$GPGSA,A,3,16,13,23,03,32,20,,,,,,,4.2,2.2,3.6*35
$GPRMC,200609.000,A,3748.7728,N,12217.6797,W,2.62,31.72,010611,,,A*4D
$GPVTG,31.72,T,,M,2.62,N,4.9,K,A*31
$GPGGA,200610.000,3748.7737,N,12217.6791,W,1,06,2.2,6.3,M,-25.1,M,,0000*61
$GPGSA,A,3,16,13,23,03,32,20,,,,,,,4.2,2.2,3.6*35
$GPRMC,200610.000,A,3748.7737,N,12217.6791,W,2.98,33.99,010611,,,A*4F
$GPVTG,33.99,T,,M,2.98,N,5.5,K,A*3E
$GPGGA,200611.000,3748.7744,N,12217.6786,W,1,06,2.2,6.5,M,-25.1,M,,0000*64
$GPGSA,A,3,16,13,23,03,32,20,,,,,,,4.2,2.2,3.6*35
$GPRMC,200611.000,A,3748.7744,N,12217.6786,W,2.95,35.86,010611,,,A*49
$GPVTG,35.86,T,,M,2.95,N,5.5,K,A*3B
$GPGGA,200612.000,3748.7750,N,12217.6780,W,1,06,2.2,6.9,M,-25.1,M,,0000*68
$GPGSA,A,3,16,13,23,03,32,20,,,,,,,4.2,2.2,3.6*35
$GPGSV,3,1,12,23,66,070,33,13,62,335,32,16,44,060,38,07,40,260,23*70
$GPGSV,3,2,12,20,37,179,29,10,28,311,28,30,23,044,41,32,19,160,31*70
$GPGSV,3,3,12,03,15,110,37,08,15,247,21,06,12,095,34,04,09,272,*73
$GPRMC,200612.000,A,3748.7750,N,12217.6780,W,2.93,37.24,010611,,,A*45
$GPVTG,37.24,T,,M,2.93,N,5.4,K,A*36
$GPGGA,200613.000,3748.7756,N,12217.6771,W,1,06,2.2,7.3,M,-25.1,M,,0000*6A
$GPGSA,A,3,16,13,23,03,32,20,,,,,,,4.2,2.2,3.6*35
$GPRMC,200613.000,A,3748.7756,N,12217.6771,W,2.80,39.15,010611,,,A*42
$GPVTG,39.15,T,,M,2.80,N,5.2,K,A*3E
$GPGGA,200614.000,3748.7765,N,12217.6769,W,1,06,2.2,6.7,M,-25.1,M,,0000*61
$GPGSA,A,3,16,13,23,03,32,20,,,,,,,4.2,2.2,3.6*35
$GPRMC,200614.000,A,3748.7765,N,12217.6769,W,2.71,26.45,010611,,,A*49
$GPVTG,26.45,T,,M,2.71,N,5.0,K,A*39
$GPGGA,200615.000,3748.7768,N,12217.6756,W,1,06,2.2,8.0,M,-25.1,M,,0000*68
$GPGSA,A,3,16,13,23,03,32,20,,,,,,,4.2,2.2,3.6*35
$GPRMC,200615.000,A,3748.7768,N,12217.6756,W,2.48,31.74,010611,,,A*47
$GPVTG,31.74,T,,M,2.48,N,4.6,K,A*30
$GPGGA,200616.000,3748.7772,N,12217.6753,W,1,06,2.2,8.6,M,-25.1,M,,0000*63
$GPGSA,A,3,16,13,23,03,32,20,,,,,,,4.2,2.2,3.6*35
$GPRMC,200616.000,A,3748.7772,N,12217.6753,W,2.36,35.09,010611,,,A*4D
$GPVTG,35.09,T,,M,2.36,N,4.4,K,A*35
$GPGGA,200617.000,3748.7777,N,12217.6747,W,1,06,2.2,8.7,M,-25.1,M,,0000*63
$GPGSA,A,3,16,13,23,03,32,20,,,,,,,4.2,2.2,3.6*35
$GPGSV,3,1,12,23,66,071,33,13,62,335,33,16,44,060,38,07,40,260,23*70
$GPGSV,3,2,12,20,37,179,29,10,28,311,22,30,23,044,39,32,19,160,26*73
$GPGSV,3,3,12,03,15,110,39,08,15,247,21,06,12,094,36,04,09,272,*7E
$GPRMC,200617.000,A,3748.7777,N,12217.6747,W,2.56,37.48,010611,,,A*4D
$GPVTG,37.48,T,,M,2.56,N,4.7,K,A*37
$GPGGA,200618.000,3748.7784,N,12217.6742,W,1,06,2.2,8.6,M,-25.1,M,,0000*64
$GPGSA,A,3,16,13,23,03,32,20,,,,,,,4.2,2.2,3.6*35
$GPRMC,200618.000,A,3748.7784,N,12217.6742,W,2.27,39.62,010611,,,A*4B
$GPVTG,39.62,T,,M,2.27,N,4.2,K,A*32
$GPGGA,200619.000,3748.7788,N,12217.6738,W,1,06,2.2,8.7,M,-25.1,M,,0000*65
$GPGSA,A,3,16,13,23,03,32,20,,,,,,,4.2,2.2,3.6*35
$GPRMC,200619.000,A,3748.7788,N,12217.6738,W,1.74,36.11,010611,,,A*45
$GPVTG,36.11,T,,M,1.74,N,3.2,K,A*3B
$GPGGA,200620.000,3748.7795,N,12217.6735,W,1,06,2.2,8.5,M,-25.1,M,,0000*6C
$GPGSA,A,3,16,13,23,03,32,20,,,,,,,4.2,2.2,3.6*35
$GPRMC,200620.000,A,3748.7795,N,12217.6735,W,1.97,24.81,010611,,,A*49
$GPVTG,24.81,T,,M,1.97,N,3.6,K,A*38
$GPGGA,200621.000,3748.7803,N,12217.6731,W,1,06,2.2,8.3,M,-25.1,M,,0000*6F
$GPGSA,A,3,16,13,23,03,32,20,,,,,,,4.2,2.2,3.6*35
$GPRMC,200621.000,A,3748.7803,N,12217.6731,W,2.12,23.72,010611,,,A*49
$GPVTG,23.72,T,,M,2.12,N,3.9,K,A*32
$GPGGA,200622.000,3748.7811,N,12217.6727,W,1,06,2.2,8.2,M,-25.1,M,,0000*69
$GPGSA,A,3,16,13,23,03,32,20,,,,,,,4.2,2.2,3.6*35
$GPGSV,3,1,12,23,66,071,33,13,62,335,33,16,44,060,38,07,40,260,23*70
$GPGSV,3,2,12,20,37,179,26,10,28,311,29,30,23,044,41,32,19,160,28*76
$GPGSV,3,3,12,03,15,110,38,08,15,247,20,06,12,094,27,04,09,272,*7E
$GPRMC,200622.000,A,3748.7811,N,12217.6727,W,2.67,30.34,010611,,,A*4C
$GPGGA,200623.000,3748.7821,N,12217.6722,W,1,06,2.2,7.8,M,-25.1,M,,0000*6B
$GPGSA,A,3,16,13,23,03,32,20,,,,,,,4.2,2.2,3.6*35
$GPRMC,200623.000,A,3748.7821,N,12217.6722,W,2.72,27.97,010611,,,A*40
$GPVTG,27.97,T,,M,2.72,N,5.0,K,A*34
$GPGGA,200624.000,3748.7830,N,12217.6718,W,1,06,2.2,7.3,M,-25.1,M,,0000*6E
$GPGSA,A,3,16,13,23,03,32,20,,,,,,,4.2,2.2,3.6*35
$GPRMC,200624.000,A,3748.7830,N,12217.6718,W,2.43,30.56,010611,,,A*47
$GPVTG,30.56,T,,M,2.43,N,4.5,K,A*39
$GPGGA,200625.000,3748.7839,N,12217.6712,W,1,06,2.2,6.9,M,-25.1,M,,0000*67
$GPGSA,A,3,16,13,23,03,32,20,,,,,,,4.2,2.2,3.6*35
$GPRMC,200625.000,A,3748.7839,N,12217.6712,W,2.60,32.52,010611,,,A*42
$GPVTG,32.52,T,,M,2.60,N,4.8,K,A*33
$GPGGA,200626.000,3748.7847,N,12217.6708,W,1,06,2.2,6.7,M,-25.1,M,,0000*68
$GPGSA,A,3,16,13,23,03,32,20,,,,,,,4.2,2.2,3.6*35
$GPRMC,200626.000,A,3748.7847,N,12217.6708,W,2.55,27.65,010611,,,A*45
$GPVTG,27.65,T,,M,2.55,N,4.7,K,A*3A
$GPGGA,200627.000,3748.7852,N,12217.6703,W,1,06,2.2,7.1,M,-25.1,M,,0000*61
$GPGSA,A,3,16,13,23,03,32,20,,,,,,,4.2,2.2,3.6*35
$GPGSV,3,1,12,23,66,071,34,13,62,335,33,16,44,060,39,07,40,260,24*71
$GPGSV,3,2,12,20,37,179,27,10,28,311,24,30,23,044,36,32,19,160,32*71
$GPGSV,3,3,12,03,15,110,26,08,15,247,20,06,12,094,28,04,09,272,*7E
$GPRMC,200627.000,A,3748.7852,N,12217.6703,W,2.49,35.37,010611,,,A*42
$GPVTG,35.37,T,,M,2.49,N,4.6,K,A*32
$GPGGA,200628.000,3748.7859,N,12217.6699,W,1,06,2.2,7.1,M,-25.1,M,,0000*67
$GPGSA,A,3,16,13,23,03,32,20,,,,,,,4.2,2.2,3.6*35
$GPRMC,200628.000,A,3748.7859,N,12217.6699,W,2.54,34.10,010611,,,A*4C
$GPVTG,34.10,T,,M,2.54,N,4.7,K,A*3B
$GPGGA,200629.000,3748.7867,N,12217.6694,W,1,06,2.2,6.5,M,-25.1,M,,0000*63
$GPGSA,A,3,16,13,23,03,32,20,,,,,,,4.2,2.2,3.6*35
$GPRMC,200629.000,A,3748.7867,N,12217.6694,W,1.84,45.34,010611,,,A*43
$GPVTG,45.34,T,,M,1.84,N,3.4,K,A*31
$GPGGA,200630.000,3748.7873,N,12217.6690,W,1,06,2.2,6.4,M,-25.1,M,,0000*6B
$GPGSA,A,3,16,13,23,03,32,20,,,,,,,4.2,2.2,3.6*35
$GPRMC,200630.000,A,3748.7873,N,12217.6690,W,2.57,37.80,010611,,,A*4D
$GPVTG,37.80,T,,M,2.57,N,4.8,K,A*3D
$GPGGA,200631.000,3748.7881,N,12217.6685,W,1,06,2.2,6.1,M,-25.1,M,,0000*66
$GPGSA,A,3,16,13,23,03,32,20,,,,,,,4.2,2.2,3.6*35
$GPRMC,200631.000,A,3748.7881,N,12217.6685,W,2.68,27.37,010611,,,A*44
$GPVTG,27.37,T,,M,2.68,N,5.0,K,A*35
$GPGGA,200632.000,3748.7887,N,12217.6680,W,1,06,2.2,6.2,M,-25.1,M,,0000*65
$GPGSA,A,3,16,13,23,03,32,20,,,,,,,4.2,2.2,3.6*35
$GPGSV,3,1,12,23,66,071,34,13,62,335,33,16,44,060,38,07,40,260,24*70
$GPGSV,3,2,12,20,37,179,27,10,28,311,24,30,23,044,39,32,19,160,32*7E
$GPGSV,3,3,12,03,15,110,36,08,15,247,19,06,12,094,38,04,09,272,*74
$GPRMC,200632.000,A,3748.7887,N,12217.6680,W,2.50,30.04,010611,,,A*49
$GPVTG,30.04,T,,M,2.50,N,4.6,K,A*3F
$GPGGA,200633.000,3748.7895,N,12217.6676,W,1,06,2.2,5.7,M,-25.1,M,,0000*68
$GPGSA,A,3,16,13,23,03,32,20,,,,,,,4.2,2.2,3.6*35
$GPRMC,200633.000,A,3748.7895,N,12217.6676,W,2.10,30.24,010611,,,A*44
$GPVTG,30.24,T,,M,2.10,N,3.9,K,A*31
$GPGGA,200634.000,3748.7901,N,12217.6673,W,2,07,2.1,5.6,M,-25.1,M,1.8,0000*41
$GPGSA,A,3,16,13,23,03,32,20,06,,,,,,3.8,2.1,3.1*3A
$GPRMC,200634.000,A,3748.7901,N,12217.6673,W,2.40,27.02,010611,,,D*48
$GPVTG,27.02,T,,M,2.40,N,4.5,K,D*38
$GPGGA,200635.000,3748.7907,N,12217.6668,W,2,07,2.1,5.3,M,-25.1,M,1.8,0000*49
