$ADVER,3080,2.3
$GPRMC,202807.074,A,3748.7880,N,12217.8316,W,0.93,135.75,130611,,,A*7F
$GPGGA,202808.074,3748.7877,N,12217.8316,W,1,04,3.0,13.6,M,-25.1,M,,0000*59
$GPGSA,A,3,05,13,19,03,,,,,,,,,3.6,3.0,1.9*30
$GPRMC,202808.074,A,3748.7877,N,12217.8316,W,0.54,162.30,130611,,,A*70
$GPVTG,162.30,T,,M,0.54,N,1.0,K,A*0B
$GPGGA,202809.074,3748.7872,N,12217.8302,W,1,04,3.0,14.7,M,-25.1,M,,0000*5E
$GPGSA,A,3,05,13,19,03,,,,,,,,,3.6,3.0,1.9*30
$GPRMC,202809.074,A,3748.7872,N,12217.8302,W,1.06,148.59,130611,,,A*70
$GPVTG,148.59,T,,M,1.06,N,2.0,K,A*09
$GPGGA,202810.000,3748.7866,N,12217.8279,W,1,04,3.0,17.4,M,-25.1,M,,0000*5D
$GPGSA,A,3,05,13,19,03,,,,,,,,,3.6,3.0,1.9*30
$GPRMC,202810.000,A,3748.7866,N,12217.8279,W,0.78,153.99,130611,,,A*7D
$GPVTG,153.99,T,,M,0.78,N,1.4,K,A*00
$GPGGA,202811.000,3748.7865,N,12217.8269,W,1,04,3.0,17.5,M,-25.1,M,,0000*5F
$GPGSA,A,3,05,13,19,03,,,,,,,,,3.6,3.0,1.9*30
$GPGSV,3,1,12,13,74,080,32,03,27,077,33,19,21,110,36,05,11,320,20*7E
$GPGSV,3,2,12,07,59,305,22,10,43,276,28,23,43,120,36,08,36,275,27*71
$GPGSV,3,3,12,16,20,042,26,06,19,063,27,28,12,211,28,20,06,174,*74
$GPRMC,202811.000,A,3748.7865,N,12217.8269,W,1.16,162.15,130611,,,A*71
$GPVTG,162.15,T,,M,1.16,N,2.1,K,A*09
$GPGGA,202812.000,3748.7865,N,12217.8258,W,1,04,3.0,17.6,M,-25.1,M,,0000*5D
$GPGSA,A,3,05,13,19,03,,,,,,,,,3.6,3.0,1.9*30
$GPRMC,202812.000,A,3748.7865,N,12217.8258,W,0.66,162.91,130611,,,A*7A
$GPVTG,162.91,T,,M,0.66,N,1.2,K,A*03
$GPGGA,202813.000,3748.7862,N,12217.8245,W,1,04,3.0,18.4,M,-25.1,M,,0000*5A
$GPGSA,A,3,05,13,19,03,,,,,,,,,3.6,3.0,1.9*30
$GPRMC,202813.000,A,3748.7862,N,12217.8245,W,1.08,146.59,130611,,,A*7B
$GPVTG,146.59,T,,M,1.08,N,2.0,K,A*09
$GPGGA,202814.000,3748.7855,N,12217.8231,W,1,04,3.0,19.2,M,-25.1,M,,0000*5D
$GPGSA,A,3,05,13,19,03,,,,,,,,,3.6,3.0,1.9*30
$GPRMC,202814.000,A,3748.7855,N,12217.8231,W,1.66,164.15,130611,,,A*7B
$GPVTG,164.15,T,,M,1.66,N,3.1,K,A*09
$GPGGA,202815.000,3748.7847,N,12217.8226,W,1,04,3.0,18.7,M,-25.1,M,,0000*5D
$GPGSA,A,3,05,13,19,03,,,,,,,,,3.6,3.0,1.9*30
$GPRMC,202815.000,A,3748.7847,N,12217.8226,W,1.73,168.01,130611,,,A*72
$GPVTG,168.01,T,,M,1.73,N,3.2,K,A*07
$GPGGA,202816.000,3748.7840,N,12217.8217,W,1,04,3.0,19.1,M,-25.1,M,,0000*5C
$GPGSA,A,3,05,13,19,03,,,,,,,,,3.6,3.0,1.9*30
$GPGSV,3,1,12,13,74,080,32,03,27,077,35,19,21,110,34,05,11,320,20*7A
$GPGSV,3,2,12,07,59,305,24,10,43,276,27,23,43,120,37,08,36,275,26*78
$GPGSV,3,3,12,16,20,042,26,06,19,063,22,28,12,211,31,20,06,174,*79
$GPRMC,202816.000,A,3748.7840,N,12217.8217,W,1.17,163.92,130611,,,A*77
$GPVTG,163.92,T,,M,1.17,N,2.2,K,A*05
$GPGGA,202817.000,3748.7835,N,12217.8207,W,1,04,3.0,19.4,M,-25.1,M,,0000*5B
$GPGSA,A,3,05,13,19,03,,,,,,,,,3.6,3.0,1.9*30
$GPRMC,202817.000,A,3748.7835,N,12217.8207,W,0.98,151.48,130611,,,A*75
$GPVTG,151.48,T,,M,0.98,N,1.8,K,A*0C
$GPGGA,202818.000,3748.7830,N,12217.8201,W,1,04,3.0,19.1,M,-25.1,M,,0000*52
$GPGSA,A,3,05,13,19,03,,,,,,,,,3.6,3.0,1.9*30
$GPRMC,202818.000,A,3748.7830,N,12217.8201,W,0.54,136.36,130611,,,A*71
$GPVTG,136.36,T,,M,0.54,N,1.0,K,A*0C
$GPGGA,202819.000,3748.7827,N,12217.8195,W,1,04,3.0,18.6,M,-25.1,M,,0000*5D
$GPGSA,A,3,05,13,19,03,,,,,,,,,3.6,3.0,1.9*30
$GPRMC,202819.000,A,3748.7827,N,12217.8195,W,0.54,139.29,130611,,,A*79
$GPVTG,139.29,T,,M,0.54,N,1.0,K,A*0D
$GPGGA,202820.000,3748.7823,N,12217.8192,W,1,04,3.0,18.5,M,-25.1,M,,0000*57
$GPGSA,A,3,05,13,19,03,,,,,,,,,3.6,3.0,1.9*30
$GPRMC,202820.000,A,3748.7823,N,12217.8192,W,0.39,176.97,130611,,,A*75
$GPVTG,176.97,T,,M,0.39,N,0.7,K,A*0E
$GPGGA,202821.000,3748.7819,N,12217.8188,W,1,04,3.0,18.2,M,-25.1,M,,0000*53
$GPGSA,A,3,05,13,19,03,,,,,,,,,3.6,3.0,1.9*30
$GPGSV,3,1,12,13,74,081,30,07,59,305,24,10,43,276,25,23,43,120,37*7B
$GPGSV,3,2,12,08,36,275,24,03,27,077,35,19,21,110,35,16,20,042,20*7C
$GPGSV,3,3,12,06,19,063,24,28,12,211,32,05,11,320,20,20,06,174,*7D
$GPVTG,152.62,T,,M,0.98,N,1.8,K,A*07
$GPGGA,202822.000,3748.7814,N,12217.8178,W,1,05,2.5,18.2,M,-25.1,M,,0000*57
$GPGSA,A,3,05,13,19,03,23,,,,,,,,3.2,2.5,1.9*31
$GPRMC,202822.000,A,3748.7814,N,12217.8178,W,1.69,152.57,130611,,,A*79
$GPVTG,152.57,T,,M,1.69,N,3.1,K,A*05
$GPGGA,202823.000,3748.7809,N,12217.8173,W,1,05,2.5,17.6,M,-25.1,M,,0000*5A
$GPGSA,A,3,05,13,19,03,23,,,,,,,,3.2,2.5,1.9*31
$GPRMC,202823.000,A,3748.7809,N,12217.8173,W,1.27,162.80,130611,,,A*7C
$GPVTG,162.80,T,,M,1.27,N,2.3,K,A*05
$GPGGA,202824.000,3748.7804,N,12217.8166,W,1,05,2.5,17.5,M,-25.1,M,,0000*57
$GPGSA,A,3,05,13,19,03,23,,,,,,,,3.2,2.5,1.9*31
$GPRMC,202824.000,A,3748.7804,N,12217.8166,W,1.51,158.29,130611,,,A*79
$GPVTG,158.29,T,,M,1.51,N,2.8,K,A*05
$GPGGA,202825.000,3748.7794,N,12217.8163,W,1,05,2.5,17.3,M,-25.1,M,,0000*53
$GPGSA,A,3,05,13,19,03,23,,,,,,,,3.2,2.5,1.9*31
$GPRMC,202825.000,A,3748.7794,N,12217.8163,W,1.74,157.77,130611,,,A*78
$GPVTG,157.77,T,,M,1.74,N,3.2,K,A*0D
$GPGGA,202826.000,3748.7780,N,12217.8170,W,1,05,2.5,16.3,M,-25.1,M,,0000*56
$GPGSA,A,3,05,13,19,03,23,,,,,,,,3.2,2.5,1.9*31
$GPGSV,3,1,12,13,74,081,32,07,59,305,23,10,43,276,26,23,43,120,38*72
$GPGSV,3,2,12,08,36,275,25,03,27,077,24,19,21,110,35,16,19,042,22*75
$GPGSV,3,3,12,06,19,063,18,28,12,211,31,05,11,320,19,20,06,174,*7B
$GPRMC,202826.000,A,3748.7780,N,12217.8170,W,1.23,168.17,130611,,,A*74
$GPVTG,168.17,T,,M,1.23,N,2.3,K,A*05
$GPGGA,202827.000,3748.7775,N,12217.8169,W,1,05,2.5,15.5,M,-25.1,M,,0000*50
$GPGSA,A,3,05,13,19,03,23,,,,,,,,3.2,2.5,1.9*31
$GPRMC,202827.000,A,3748.7775,N,12217.8169,W,0.76,158.78,130611,,,A*7C
$GPVTG,158.78,T,,M,0.76,N,1.4,K,A*0A
$GPGGA,202828.000,3748.7775,N,12217.8161,W,1,05,2.5,15.1,M,-25.1,M,,0000*53
$GPGSA,A,3,05,13,19,03,23,,,,,,,,3.2,2.5,1.9*31
$GPRMC,202828.000,A,3748.7775,N,12217.8161,W,1.08,181.47,130611,,,A*7B
$GPVTG,181.47,T,,M,1.08,N,2.0,K,A*0D
$GPGGA,202829.000,3748.7772,N,12217.8157,W,1,05,2.5,14.6,M,-25.1,M,,0000*56
$GPGSA,A,3,05,13,19,03,23,,,,,,,,3.2,2.5,1.9*31
$GPRMC,202829.000,A,3748.7772,N,12217.8157,W,0.45,156.23,130611,,,A*78
$GPVTG,156.23,T,,M,0.45,N,0.8,K,A*07
$GPGGA,202830.000,3748.7770,N,12217.8154,W,1,05,2.5,13.9,M,-25.1,M,,0000*57
$GPGSA,A,3,05,13,19,03,23,,,,,,,,3.2,2.5,1.9*31
$GPRMC,202830.000,A,3748.7770,N,12217.8154,W,0.40,145.38,130611,,,A*7C
$GPVTG,145.38,T,,M,0.40,N,0.7,K,A*05
$GPGGA,202831.000,3748.7768,N,12217.8148,W,1,05,2.5,13.5,M,-25.1,M,,0000*5E
$GPGSA,A,3,05,13,19,03,23,,,,,,,,3.2,2.5,1.9*31
$GPGSV,3,1,12,13,74,081,32,07,59,305,24,10,43,276,27,23,43,120,38*74
$GPGSV,3,2,12,08,36,275,30,03,27,077,31,19,21,110,35,16,19,042,21*76
$GPGSV,3,3,12,06,19,063,21,28,12,211,31,05,11,320,19,20,06,174,*71
$GPRMC,202831.000,A,3748.7768,N,12217.8148,W,0.78,152.01,130611,,,A*7E
$GPVTG,152.01,T,,M,0.78,N,1.5,K,A*01
$GPGGA,202832.000,3748.7767,N,12217.8141,W,1,05,2.5,13.2,M,-25.1,M,,0000*5C
$GPGSA,A,3,05,13,19,03,23,,,,,,,,3.2,2.5,1.9*31
$GPRMC,202832.000,A,3748.7767,N,12217.8141,W,1.00,146.21,130611,,,A*72
$GPVTG,146.21,T,,M,1.00,N,1.9,K,A*04
$GPGGA,202833.000,3748.7765,N,12217.8136,W,1,05,2.5,12.7,M,-25.1,M,,0000*5B
$GPGSA,A,3,05,13,19,03,23,,,,,,,,3.2,2.5,1.9*31
$GPRMC,202833.000,A,3748.7765,N,12217.8136,W,1.42,149.59,130611,,,A*77
$GPVTG,149.59,T,,M,1.42,N,2.6,K,A*0E
$GPGGA,202834.000,3748.7762,N,12217.8131,W,1,05,2.5,12.3,M,-25.1,M,,0000*58
$GPGSA,A,3,05,13,19,03,23,,,,,,,,3.2,2.5,1.9*31
$GPRMC,202834.000,A,3748.7762,N,12217.8131,W,1.03,162.77,130611,,,A*70
$GPVTG,162.77,T,,M,1.03,N,1.9,K,A*02
$GPGGA,202835.000,3748.7760,N,12217.8125,W,1,05,2.5,12.0,M,-25.1,M,,0000*5D
$GPGSA,A,3,05,13,19,03,23,,,,,,,,3.2,2.5,1.9*31
$GPRMC,202835.000,A,3748.7760,N,12217.8125,W,0.84,170.73,130611,,,A*7F
$GPVTG,170.73,T,,M,0.84,N,1.6,K,A*04
$GPGGA,202836.000,3748.7758,N,12217.8121,W,1,05,2.5,11.4,M,-25.1,M,,0000*56
$GPGSA,A,3,05,13,19,03,23,,,,,,,,3.2,2.5,1.9*31
$GPGSV,3,1,12,13,74,081,32,07,59,305,23,10,43,276,27,23,43,120,37*7C
$GPGSV,3,2,12,08,36,275,30,03,27,077,34,19,21,110,34,16,19,042,21*72
$GPGSV,3,3,12,06,19,063,21,28,12,211,32,05,11,320,19,20,06,174,*72
$GPVTG,167.09,T,,M,1.00,N,1.9,K,A*0D
$GPGGA,202837.000,3748.7755,N,12217.8121,W,1,05,2.5,10.3,M,-25.1,M,,0000*5C
$GPGSA,A,3,05,13,19,03,23,,,,,,,,3.2,2.5,1.9*31
$GPRMC,202837.000,A,3748.7755,N,12217.8121,W,1.40,179.53,130611,,,A*7D
$GPVTG,179.53,T,,M,1.40,N,2.6,K,A*05
$GPGGA,202838.000,3748.7749,N,12217.8124,W,1,05,2.5,9.3,M,-25.1,M,,0000*63
$GPGSA,A,3,05,13,19,03,23,,,,,,,,3.2,2.5,1.9*31
$GPRMC,202838.000,A,3748.7749,N,12217.8124,W,1.85,176.27,130611,,,A*7F
$GPVTG,176.27,T,,M,1.85,N,3.4,K,A*03
$GPGGA,202839.000,3748.7747,N,12217.8119,W,1,05,2.5,8.8,M,-25.1,M,,0000*68
$GPGSA,A,3,05,13,19,03,23,,,,,,,,3.2,2.5,1.9*31
$GPRMC,202839.000,A,3748.7747,N,12217.8119,W,1.69,150.08,130611,,,A*75
$GPVTG,150.08,T,,M,1.69,N,3.1,K,A*0D
$GPGGA,202840.000,3748.7747,N,12217.8112,W,1,05,2.5,8.1,M,-25.1,M,,0000*64
$GPGSA,A,3,05,13,19,03,23,,,,,,,,3.2,2.5,1.9*31
$GPRMC,202840.000,A,3748.7747,N,12217.8112,W,1.15,154.43,130611,,,A*70
$GPVTG,154.43,T,,M,1.15,N,2.1,K,A*0C
$GPGGA,202841.000,3748.7747,N,12217.8105,W,1,05,2.5,7.7,M,-25.1,M,,0000*6A
$GPGSA,A,3,05,13,19,03,23,,,,,,,,3.2,2.5,1.9*31
$GPGSV,3,1,12,13,74,081,33,07,59,305,23,10,43,276,28,23,43,120,37*72
$GPGSV,3,2,12,08,36,275,29,03,27,077,31,19,21,110,35,16,19,042,20*7F
$GPGSV,3,3,12,06,19,063,21,28,12,211,33,05,11,320,19,20,06,174,*73
$GPRMC,202841.000,A,3748.7747,N,12217.8105,W,1.01,163.86,130611,,,A*7F
$GPVTG,163.86,T,,M,1.01,N,1.9,K,A*0F
$GPGGA,202842.000,3748.7746,N,12217.8097,W,1,05,2.5,7.4,M,-25.1,M,,0000*61
$GPGSA,A,3,05,13,19,03,23,,,,,,,,3.2,2.5,1.9*31
$GPRMC,202842.000,A,3748.7746,N,12217.8097,W,1.30,156.94,130611,,,A*70
$GPVTG,156.94,T,,M,1.30,N,2.4,K,A*06
$GPGGA,202843.000,3748.7746,N,12217.8090,W,1,05,2.5,7.0,M,-25.1,M,,0000*63
$GPGSA,A,3,05,13,19,03,23,,,,,,,,3.2,2.5,1.9*31
$GPRMC,202843.000,A,3748.7746,N,12217.8090,W,1.41,141.91,130611,,,A*73
$GPVTG,141.91,T,,M,1.41,N,2.6,K,A*01
$GPGGA,202844.000,3748.7744,N,12217.8080,W,1,05,2.5,7.1,M,-25.1,M,,0000*66
$GPGSA,A,3,05,13,19,03,23,,,,,,,,3.2,2.5,1.9*31
$GPRMC,202844.000,A,3748.7744,N,12217.8080,W,1.89,133.68,130611,,,A*70
$GPVTG,133.68,T,,M,1.89,N,3.5,K,A*04
$GPGGA,202845.000,3748.7743,N,12217.8065,W,1,05,2.5,7.7,M,-25.1,M,,0000*6D
$GPGSA,A,3,05,13,19,03,23,,,,,,,,3.2,2.5,1.9*31
$GPRMC,202845.000,A,3748.7743,N,12217.8065,W,2.35,124.44,130611,,,A*71
$GPVTG,124.44,T,,M,2.35,N,4.4,K,A*0E
$GPGGA,202846.000,3748.7741,N,12217.8056,W,1,05,2.5,7.7,M,-25.1,M,,0000*6C
$GPGSA,A,3,05,13,19,03,23,,,,,,,,3.2,2.5,1.9*31
$GPGSV,3,1,12,13,74,081,33,07,59,305,23,10,43,276,27,23,43,120,37*7D
$GPGSV,3,2,12,08,36,275,28,03,27,077,36,19,21,110,35,16,19,042,20*79
$GPGSV,3,3,12,06,19,063,28,28,12,211,33,05,11,320,18,20,06,174,*7B
$GPRMC,202846.000,A,3748.7741,N,12217.8056,W,1.78,122.45,130611,,,A*7D
$GPVTG,122.45,T,,M,1.78,N,3.3,K,A*03
$GPGGA,202847.000,3748.7739,N,12217.8047,W,1,05,2.5,7.9,M,-25.1,M,,0000*6C
$GPGSA,A,3,05,13,19,03,23,,,,,,,,3.2,2.5,1.9*31
$GPRMC,202847.000,A,3748.7739,N,12217.8047,W,1.31,133.49,130611,,,A*72
$GPVTG,133.49,T,,M,1.31,N,2.4,K,A*04
$GPGGA,202848.000,3748.7735,N,12217.8039,W,1,05,2.5,8.1,M,-25.1,M,,0000*61
$GPGSA,A,3,05,13,19,03,23,,,,,,,,3.2,2.5,1.9*31
$GPRMC,202848.000,A,3748.7735,N,12217.8039,W,1.28,151.01,130611,,,A*78
$GPVTG,151.01,T,,M,1.28,N,2.4,K,A*04
$GPGGA,202849.000,3748.7732,N,12217.8038,W,1,04,3.1,7.6,M,-25.1,M,,0000*6A
$GPGSA,A,3,13,19,03,23,,,,,,,,,3.2,3.1,1.0*38
$GPRMC,202849.000,A,3748.7732,N,12217.8038,W,1.00,159.19,130611,,,A*74
$GPVTG,159.19,T,,M,1.00,N,1.9,K,A*01
$GPGGA,202850.000,3748.7731,N,12217.8036,W,1,04,3.1,6.9,M,-25.1,M,,0000*61
$GPGSA,A,3,13,19,03,23,,,,,,,,,3.2,3.1,1.0*38
$GPRMC,202850.000,A,3748.7731,N,12217.8036,W,0.74,161.83,130611,,,A*7B
$GPVTG,161.83,T,,M,0.74,N,1.4,K,A*06
$GPGGA,202851.000,3748.7729,N,12217.8034,W,1,05,2.5,6.4,M,-25.1,M,,0000*62
$GPGSA,A,3,05,13,19,03,23,,,,,,,,3.2,2.5,1.9*31
$GPGSV,3,1,12,13,74,082,32,07,59,305,24,10,43,276,28,23,43,120,37*77
$GPGSV,3,2,12,08,36,275,28,03,27,077,25,19,21,110,36,16,19,042,20*78
$GPGSV,3,3,12,06,19,063,20,28,12,211,34,05,11,320,20,20,06,174,*7F
$GPVTG,156.08,T,,M,0.48,N,0.9,K,A*02
$GPGGA,202852.000,3748.7730,N,12217.8030,W,1,05,2.5,5.8,M,-25.1,M,,0000*62
$GPGSA,A,3,05,13,19,03,23,,,,,,,,3.2,2.5,1.9*31
$GPRMC,202852.000,A,3748.7730,N,12217.8030,W,0.44,205.03,130611,,,A*74
$GPVTG,205.03,T,,M,0.44,N,0.8,K,A*01
$GPGGA,202853.000,3748.7731,N,12217.8024,W,1,05,2.5,5.5,M,-25.1,M,,0000*6A
$GPGSA,A,3,05,13,19,03,23,,,,,,,,3.2,2.5,1.9*31
$GPRMC,202853.000,A,3748.7731,N,12217.8024,W,1.03,182.57,130611,,,A*7E
$GPVTG,182.57,T,,M,1.03,N,1.9,K,A*0E
$GPGGA,202854.000,3748.7728,N,12217.8020,W,1,05,2.5,5.3,M,-25.1,M,,0000*67
$GPGSA,A,3,05,13,19,03,23,,,,,,,,3.2,2.5,1.9*31
$GPRMC,202854.000,A,3748.7728,N,12217.8020,W,1.18,130.79,130611,,,A*7A
$GPVTG,130.79,T,,M,1.18,N,2.2,K,A*09
$GPGGA,202855.000,3748.7727,N,12217.8015,W,1,05,2.5,5.1,M,-25.1,M,,0000*6D
$GPGSA,A,3,05,13,19,03,23,,,,,,,,3.2,2.5,1.9*31
$GPRMC,202855.000,A,3748.7727,N,12217.8015,W,0.79,125.70,130611,,,A*79
$GPVTG,125.70,T,,M,0.79,N,1.5,K,A*06
$GPGGA,202856.000,3748.7725,N,12217.8010,W,1,05,2.5,4.9,M,-25.1,M,,0000*60
$GPGSA,A,3,05,13,19,03,23,,,,,,,,3.2,2.5,1.9*31
$GPGSV,3,1,12,13,74,082,32,07,59,305,25,10,43,276,26,23,43,120,37*78
$GPGSV,3,2,12,08,36,275,25,03,27,077,32,19,21,110,39,16,19,042,20*7C
$GPGSV,3,3,12,06,19,063,26,28,12,211,31,05,11,320,21,20,06,174,*7D
$GPRMC,202856.000,A,3748.7725,N,12217.8010,W,0.81,109.84,130611,,,A*7F
$GPVTG,109.84,T,,M,0.81,N,1.5,K,A*04
$GPGGA,202857.000,3748.7723,N,12217.8005,W,1,05,2.5,4.8,M,-25.1,M,,0000*62
$GPGSA,A,3,05,13,19,03,23,,,,,,,,3.2,2.5,1.9*31
$GPRMC,202857.000,A,3748.7723,N,12217.8005,W,1.10,114.56,130611,,,A*76
$GPVTG,114.56,T,,M,1.10,N,2.0,K,A*08
$GPGGA,202858.000,3748.7720,N,12217.7999,W,1,05,2.5,4.7,M,-25.1,M,,0000*62
$GPGSA,A,3,05,13,19,03,23,,,,,,,,3.2,2.5,1.9*31
$GPRMC,202858.000,A,3748.7720,N,12217.7999,W,1.58,124.93,130611,,,A*7F
$GPVTG,124.93,T,,M,1.58,N,2.9,K,A*07
$GPGGA,202859.000,3748.7716,N,12217.7995,W,1,05,2.5,4.5,M,-25.1,M,,0000*68
$GPGSA,A,3,05,13,19,03,23,,,,,,,,3.2,2.5,1.9*31
$GPRMC,202859.000,A,3748.7716,N,12217.7995,W,1.17,130.47,130611,,,A*70
$GPVTG,130.47,T,,M,1.17,N,2.2,K,A*0B
$GPGGA,202900.000,3748.7712,N,12217.7992,W,1,05,2.5,4.1,M,-25.1,M,,0000*62
$GPGSA,A,3,05,13,19,03,23,,,,,,,,3.2,2.5,1.9*31
$GPRMC,202900.000,A,3748.7712,N,12217.7992,W,0.98,142.67,130611,,,A*7F
$GPVTG,142.67,T,,M,0.98,N,1.8,K,A*03
$GPGGA,202901.000,3748.7709,N,12217.7989,W,1,05,2.5,3.7,M,-25.1,M,,0000*62
$GPGSA,A,3,05,13,19,03,23,,,,,,,,3.2,2.5,1.9*31
$GPGSV,3,1,12,13,74,082,32,07,59,305,25,10,43,276,25,23,43,120,37*7B
$GPGSV,3,2,12,08,36,275,26,03,27,077,35,19,21,110,40,16,19,042,24*72
$GPGSV,3,3,12,06,19,063,34,28,12,211,29,05,11,320,20,20,06,174,*76
$GPRMC,202901.000,A,3748.7709,N,12217.7989,W,0.88,157.80,130611,,,A*72
$GPVTG,157.80,T,,M,0.88,N,1.6,K,A*01
$GPGGA,202902.000,3748.7705,N,12217.7984,W,1,05,2.5,3.7,M,-25.1,M,,0000*60
$GPGSA,A,3,05,13,19,03,23,,,,,,,,3.2,2.5,1.9*31
$GPRMC,202902.000,A,3748.7705,N,12217.7984,W,0.95,157.03,130611,,,A*77
$GPVTG,157.03,T,,M,0.95,N,1.8,K,A*08
$GPGGA,202903.000,3748.7702,N,12217.7981,W,1,05,2.5,3.3,M,-25.1,M,,0000*67
$GPGSA,A,3,05,13,19,03,23,,,,,,,,3.2,2.5,1.9*31
$GPRMC,202903.000,A,3748.7702,N,12217.7981,W,0.85,160.57,130611,,,A*70
$GPVTG,160.57,T,,M,0.85,N,1.6,K,A*02
$GPGGA,202904.000,3748.7698,N,12217.7978,W,1,05,2.5,2.9,M,-25.1,M,,0000*6F
$GPGSA,A,3,05,13,19,03,23,,,,,,,,3.2,2.5,1.9*31
$GPRMC,202904.000,A,3748.7698,N,12217.7978,W,0.73,167.45,130611,,,A*7E
$GPVTG,167.45,T,,M,0.73,N,1.3,K,A*0A
$GPGGA,202905.000,3748.7692,N,12217.7978,W,1,05,2.5,2.6,M,-25.1,M,,0000*6B
$GPGSA,A,3,05,13,19,03,23,,,,,,,,3.2,2.5,1.9*31
$GPRMC,202905.000,A,3748.7692,N,12217.7978,W,1.23,157.55,130611,,,A*73
$GPVTG,157.55,T,,M,1.23,N,2.3,K,A*0F
$GPGGA,202906.000,3748.7687,N,12217.7971,W,1,05,2.5,3.0,M,-25.1,M,,0000*62
$GPGSA,A,3,05,13,19,03,23,,,,,,,,3.2,2.5,1.9*31
$GPGSV,3,1,12,13,74,082,32,07,59,305,25,10,43,276,26,23,43,120,38*77
$GPGSV,3,2,12,08,36,275,28,03,27,077,27,19,21,110,36,16,19,042,27*7D
$GPGSV,3,3,12,06,19,063,24,28,12,211,28,05,11,320,25,20,06,174,*73
$GPRMC,202906.000,A,3748.7687,N,12217.7971,W,1.22,178.87,130611,,,A*7E
$GPGGA,202907.000,3748.7685,N,12217.7961,W,1,05,2.5,3.5,M,-25.1,M,,0000*65
$GPGSA,A,3,05,13,19,03,23,,,,,,,,3.2,2.5,1.9*31
$GPRMC,202907.000,A,3748.7685,N,12217.7961,W,0.96,173.58,130611,,,A*7B
$GPVTG,173.58,T,,M,0.96,N,1.8,K,A*03
$GPGGA,202908.000,3748.7681,N,12217.7944,W,1,05,2.5,5.2,M,-25.1,M,,0000*68
$GPGSA,A,3,05,13,19,03,23,,,,,,,,3.2,2.5,1.9*31
$GPRMC,202908.000,A,3748.7681,N,12217.7944,W,0.84,154.83,130611,,,A*77
$GPVTG,154.83,T,,M,0.84,N,1.6,K,A*0D
$GPGGA,202909.000,3748.7679,N,12217.7925,W,1,05,2.5,7.1,M,-25.1,M,,0000*68
$GPGSA,A,3,05,13,19,03,23,,,,,,,,3.2,2.5,1.9*31
$GPRMC,202909.000,A,3748.7679,N,12217.7925,W,0.71,136.82,130611,,,A*79
$GPVTG,136.82,T,,M,0.71,N,1.3,K,A*07
$GPGGA,202910.000,3748.7676,N,12217.7907,W,1,05,2.5,8.6,M,-25.1,M,,0000*67
$GPGSA,A,3,05,13,19,03,23,,,,,,,,3.2,2.5,1.9*31
$GPRMC,202910.000,A,3748.7676,N,12217.7907,W,1.04,134.81,130611,,,A*7C
$GPVTG,134.81,T,,M,1.04,N,1.9,K,A*0F
$GPGGA,202911.000,3748.7674,N,12217.7893,W,1,05,2.5,9.6,M,-25.1,M,,0000*69
$GPGSA,A,3,05,13,19,03,23,,,,,,,,3.2,2.5,1.9*31
$GPGSV,3,1,12,13,74,082,32,07,59,305,24,10,43,276,26,23,43,120,38*76
$GPGSV,3,2,12,08,36,275,24,03,27,077,36,19,21,110,36,16,19,042,26*70
$GPGSV,3,3,12,06,19,063,30,28,12,211,35,05,11,320,24,20,06,174,*7B
$GPRMC,202911.000,A,3748.7674,N,12217.7893,W,1.02,124.63,130611,,,A*78
$GPVTG,124.63,T,,M,1.02,N,1.9,K,A*04
$GPGGA,202912.000,3748.7671,N,12217.7883,W,1,05,2.5,9.7,M,-25.1,M,,0000*6F
$GPGSA,A,3,05,13,19,03,23,,,,,,,,3.2,2.5,1.9*31
$GPRMC,202912.000,A,3748.7671,N,12217.7883,W,0.94,126.74,130611,,,A*75
$GPVTG,126.74,T,,M,0.94,N,1.7,K,A*00
$GPGGA,202913.000,3748.7669,N,12217.7877,W,1,05,2.5,9.4,M,-25.1,M,,0000*6F
$GPGSA,A,3,05,13,19,03,23,,,,,,,,3.2,2.5,1.9*31
$GPRMC,202913.000,A,3748.7669,N,12217.7877,W,0.88,146.27,130611,,,A*7B
$GPVTG,146.27,T,,M,0.88,N,1.6,K,A*0C
$GPGGA,202914.000,3748.7665,N,12217.7870,W,1,05,2.5,9.5,M,-25.1,M,,0000*62
$GPGSA,A,3,05,13,19,03,23,,,,,,,,3.2,2.5,1.9*31
$GPRMC,202914.000,A,3748.7665,N,12217.7870,W,0.93,163.49,130611,,,A*72
$GPVTG,163.49,T,,M,0.93,N,1.7,K,A*08
$GPGGA,202915.000,3748.7662,N,12217.7864,W,1,05,2.5,9.2,M,-25.1,M,,0000*66
$GPGSA,A,3,05,13,19,03,23,,,,,,,,3.2,2.5,1.9*31
$GPRMC,202915.000,A,3748.7662,N,12217.7864,W,0.74,170.23,130611,,,A*76
$GPVTG,170.23,T,,M,0.74,N,1.4,K,A*0C
$GPGGA,202916.000,3748.7659,N,12217.7859,W,1,05,2.5,8.9,M,-25.1,M,,0000*69
$GPGSA,A,3,05,13,19,03,23,,,,,,,,3.2,2.5,1.9*31
$GPGSV,3,1,12,13,74,082,32,07,59,305,23,10,43,276,26,23,43,120,37*7E
$GPGSV,3,2,12,08,36,275,27,03,27,077,35,19,21,110,28,16,19,042,22*7B
$GPGSV,3,3,12,06,19,063,31,28,12,211,35,05,11,320,25,20,06,174,*7B
$GPRMC,202916.000,A,3748.7659,N,12217.7859,W,0.70,174.27,130611,,,A*77
$GPVTG,174.27,T,,M,0.70,N,1.3,K,A*0F
$GPGGA,202917.000,3748.7655,N,12217.7852,W,1,05,2.5,8.5,M,-25.1,M,,0000*63
$GPGSA,A,3,05,13,19,03,23,,,,,,,,3.2,2.5,1.9*31
$GPRMC,202917.000,A,3748.7655,N,12217.7852,W,0.79,155.26,130611,,,A*7A
$GPVTG,155.26,T,,M,0.79,N,1.5,K,A*02
$GPGGA,202918.000,3748.7643,N,12217.7850,W,1,05,2.5,8.1,M,-25.1,M,,0000*6D
$GPGSA,A,3,05,13,19,03,23,,,,,,,,3.2,2.5,1.9*31
$GPRMC,202918.000,A,3748.7643,N,12217.7850,W,1.75,157.78,130611,,,A*74
$GPVTG,157.78,T,,M,1.75,N,3.2,K,A*03
$GPGGA,202919.000,3748.7630,N,12217.7853,W,2,05,2.5,7.4,M,-25.1,M,1.8,0000*45
$GPGSA,A,3,05,13,19,03,23,,,,,,,,3.2,2.5,1.9*31
$GPRMC,202919.000,A,3748.7630,N,12217.7853,W,1.60,168.27,130611,,,D*75
$GPVTG,168.27,T,,M,1.60,N,3.0,K,D*06
$GPGGA,202920.000,3748.7623,N,12217.7850,W,2,05,2.5,7.0,M,-25.1,M,1.8,0000*4A
$GPGSA,A,3,05,13,19,03,23,,,,,,,,3.2,2.5,1.9*31
$GPRMC,202920.000,A,3748.7623,N,12217.7850,W,1.02,154.51,130611,,,D*74
$GPVTG,154.51,T,,M,1.02,N,1.9,K,D*07
$GPGGA,202921.000,3748.7615,N,12217.7847,W,2,05,2.5,6.9,M,-25.1,M,1.8,0000*40
$GPGSA,A,3,05,13,19,03,23,,,,,,,,3.2,2.5,1.9*31
$GPGSV,3,1,12,13,74,082,35,07,60,305,24,10,43,276,26,23,43,120,38*7B
$GPGSV,3,2,12,08,36,276,26,03,27,077,26,19,21,110,28,06,19,063,21*7A
$GPGSV,3,3,12,16,19,042,23,28,13,211,34,05,11,320,22,20,06,173,*7A
$GPVTG,157.85,T,,M,1.01,N,1.9,K,D*0E
$GPGGA,202922.000,3748.7601,N,12217.7848,W,2,05,2.5,6.7,M,-25.1,M,2.8,0000*44
$GPGSA,A,3,05,13,19,03,23,,,,,,,,3.2,2.5,1.9*31
$GPRMC,202922.000,A,3748.7601,N,12217.7848,W,1.62,175.37,130611,,,D*7A
$GPVTG,175.37,T,,M,1.62,N,3.0,K,D*09
$GPGGA,202923.000,3748.7594,N,12217.7851,W,2,04,3.1,6.3,M,-25.1,M,1.8,0000*41
$GPGSA,A,3,13,19,03,23,,,,,,,,,3.2,3.1,1.0*38
$GPRMC,202923.000,A,3748.7594,N,12217.7851,W,1.64,178.57,130611,,,D*71
$GPVTG,178.57,T,,M,1.64,N,3.0,K,D*04
$GPGGA,202924.000,3748.7584,N,12217.7851,W,2,05,2.5,6.6,M,-25.1,M,2.8,0000*45
$GPGSA,A,3,05,13,19,03,23,,,,,,,,3.2,2.5,1.9*31
$GPRMC,202924.000,A,3748.7584,N,12217.7851,W,2.41,173.75,130611,,,D*78
$GPVTG,173.75,T,,M,2.41,N,4.5,K,D*09
$GPGGA,202925.000,3748.7579,N,12217.7847,W,2,04,3.1,6.9,M,-25.1,M,1.8,0000*49
$GPGSA,A,3,13,19,03,23,,,,,,,,,3.2,3.1,1.0*38
$GPRMC,202925.000,A,3748.7579,N,12217.7847,W,2.38,156.51,130611,,,D*73
$GPVTG,156.51,T,,M,2.38,N,4.4,K,D*07
$GPGGA,202926.000,3748.7581,N,12217.7839,W,2,04,3.1,7.1,M,-25.1,M,0.8,0000*4C
$GPGSA,A,3,13,19,03,23,,,,,,,,,3.2,3.1,1.0*38
$GPGSV,3,1,12,13,74,082,34,07,60,305,23,10,43,276,27,23,43,120,37*73
$GPGSV,3,2,12,08,36,276,26,03,27,077,21,19,21,110,24,06,19,063,18*7B
$GPGSV,3,3,12,16,19,042,20,28,13,211,35,05,11,320,18,20,06,173,*71
$GPRMC,202926.000,A,3748.7581,N,12217.7839,W,1.71,164.07,130611,,,D*72
$GPVTG,164.07,T,,M,1.71,N,3.2,K,D*0A
$GPGGA,202927.000,3748.7569,N,12217.7846,W,2,04,3.1,7.0,M,-25.1,M,1.8,0000*43
$GPGSA,A,3,13,19,03,23,,,,,,,,,3.2,3.1,1.0*38
$GPRMC,202927.000,A,3748.7569,N,12217.7846,W,2.26,183.07,130611,,,D*75
$GPVTG,183.07,T,,M,2.26,N,4.2,K,D*05
$GPGGA,202928.000,3748.7568,N,12217.7842,W,2,04,3.1,6.5,M,-25.1,M,2.8,0000*4E
$GPGSA,A,3,13,19,03,23,,,,,,,,,3.2,3.1,1.0*38
$GPRMC,202928.000,A,3748.7568,N,12217.7842,W,1.54,175.67,130611,,,D*76
$GPVTG,175.67,T,,M,1.54,N,2.9,K,D*01
$GPGGA,202929.000,3748.7560,N,12217.7842,W,2,05,2.5,6.7,M,-25.1,M,3.8,0000*40
$GPGSA,A,3,05,13,19,03,23,,,,,,,,3.2,2.5,1.9*31
$GPRMC,202929.000,A,3748.7560,N,12217.7842,W,2.17,191.87,130611,,,D*7F
$GPVTG,191.87,T,,M,2.17,N,4.0,K,D*0E
$GPGGA,202930.000,3748.7554,N,12217.7841,W,2,05,2.5,7.0,M,-25.1,M,1.8,0000*48
$GPGSA,A,3,05,13,19,03,23,,,,,,,,3.2,2.5,1.9*31
$GPRMC,202930.000,A,3748.7554,N,12217.7841,W,1.70,172.50,130611,,,D*76
$GPVTG,172.50,T,,M,1.70,N,3.1,K,D*0D
$GPGGA,202931.000,3748.7536,N,12217.7846,W,2,05,2.5,7.2,M,-25.1,M,1.8,0000*48
$GPGSA,A,3,05,13,19,03,23,,,,,,,,3.2,2.5,1.9*31
$GPGSV,3,1,12,13,74,082,33,07,60,305,23,10,43,276,27,23,43,120,37*74
$GPGSV,3,2,12,08,36,276,27,03,27,077,21,19,21,110,24,06,19,063,19*7B
$GPGSV,3,3,12,16,19,042,19,28,13,211,26,05,11,320,19,20,06,173,*78
$GPRMC,202931.000,A,3748.7536,N,12217.7846,W,3.06,177.71,130611,,,D*71
$GPVTG,177.71,T,,M,3.06,N,5.7,K,D*08
$GPGGA,202932.000,3748.7523,N,12217.7846,W,2,05,2.5,7.0,M,-25.1,M,1.8,0000*4D
$GPGSA,A,3,05,13,19,03,23,,,,,,,,3.2,2.5,1.9*31
$GPRMC,202932.000,A,3748.7523,N,12217.7846,W,2.74,166.25,130611,,,D*73
$GPVTG,166.25,T,,M,2.74,N,5.1,K,D*0B
$GPGGA,202933.000,3748.7509,N,12217.7847,W,2,05,2.5,6.3,M,-25.1,M,1.8,0000*47
$GPGSA,A,3,05,13,19,03,23,,,,,,,,3.2,2.5,1.9*31
$GPRMC,202933.000,A,3748.7509,N,12217.7847,W,1.95,167.73,130611,,,D*75
$GPVTG,167.73,T,,M,1.95,N,3.6,K,D*04
$GPGGA,202934.000,3748.7495,N,12217.7854,W,2,05,2.5,5.9,M,-25.1,M,2.8,0000*4C
$GPGSA,A,3,05,13,19,03,23,,,,,,,,3.2,2.5,1.9*31
$GPRMC,202934.000,A,3748.7495,N,12217.7854,W,2.06,185.47,130611,,,D*76
$GPVTG,185.47,T,,M,2.06,N,3.8,K,D*08
$GPGGA,202935.000,3748.7480,N,12217.7861,W,2,05,2.5,5.3,M,-25.1,M,1.8,0000*46
$GPGSA,A,3,05,13,19,03,23,,,,,,,,3.2,2.5,1.9*31
$GPRMC,202935.000,A,3748.7480,N,12217.7861,W,1.42,189.44,130611,,,D*79
$GPVTG,189.44,T,,M,1.42,N,2.6,K,D*0B
$GPGGA,202936.000,3748.7470,N,12217.7866,W,2,05,2.5,4.7,M,-25.1,M,2.8,0000*4B
$GPGSA,A,3,05,13,19,03,23,,,,,,,,3.2,2.5,1.9*31
$GPGSV,3,1,12,13,74,082,33,07,60,305,20,10,43,276,27,23,43,120,37*77
$GPGSV,3,2,12,08,36,276,27,03,27,077,21,19,21,110,26,06,19,063,20*73
$GPGSV,3,3,12,16,19,042,19,28,13,211,29,05,11,320,19,20,06,173,*77
$GPVTG,179.77,T,,M,1.19,N,2.2,K,D*0E
$GPGGA,202937.000,3748.7469,N,12217.7860,W,2,05,2.5,3.1,M,-25.1,M,1.8,0000*46
$GPGSA,A,3,05,13,19,03,23,,,,,,,,3.2,2.5,1.9*31
$GPRMC,202937.000,A,3748.7469,N,12217.7860,W,0.55,116.79,130611,,,D*72
$GPVTG,116.79,T,,M,0.55,N,1.0,K,D*01
$GPGGA,202938.000,3748.7460,N,12217.7863,W,2,05,2.5,1.7,M,-25.1,M,1.8,0000*47
$GPGSA,A,3,05,13,19,03,23,,,,,,,,3.2,2.5,1.9*31
$GPRMC,202938.000,A,3748.7460,N,12217.7863,W,1.19,173.14,130611,,,D*76
$GPVTG,173.14,T,,M,1.19,N,2.2,K,D*01
$GPGGA,202939.000,3748.7449,N,12217.7865,W,2,05,2.5,0.5,M,-25.1,M,2.8,0000*4B
$GPGSA,A,3,05,13,19,03,23,,,,,,,,3.2,2.5,1.9*31
$GPRMC,202939.000,A,3748.7449,N,12217.7865,W,1.45,155.78,130611,,,D*7D
$GPVTG,155.78,T,,M,1.45,N,2.7,K,D*03
$GPGGA,202940.000,3748.7444,N,12217.7865,W,2,05,2.5,0.8,M,-25.1,M,1.8,0000*46
$GPGSA,A,3,05,13,19,03,23,,,,,,,,3.2,2.5,1.9*31
$GPRMC,202940.000,A,3748.7444,N,12217.7865,W,1.30,148.94,130611,,,D*72
$GPVTG,148.94,T,,M,1.30,N,2.4,K,D*0C
$GPGGA,202941.000,3748.7434,N,12217.7866,W,2,05,2.5,0.5,M,-25.1,M,2.8,0000*4D
$GPGSA,A,3,05,13,19,03,23,,,,,,,,3.2,2.5,1.9*31
$GPGSV,3,1,12,13,74,082,33,07,60,305,21,10,43,276,26,23,43,120,37*77
$GPGSV,3,2,12,08,36,276,23,03,27,077,21,19,21,110,28,06,19,063,20*79
$GPGSV,3,3,12,16,19,042,18,28,13,211,35,05,11,320,19,20,06,173,*7B
$GPRMC,202941.000,A,3748.7434,N,12217.7866,W,1.82,144.26,130611,,,D*7B
$GPVTG,144.26,T,,M,1.82,N,3.4,K,D*01
$GPGGA,202942.000,3748.7433,N,12217.7856,W,2,05,2.5,0.3,M,-25.1,M,3.8,0000*4D
$GPGSA,A,3,05,13,19,03,23,,,,,,,,3.2,2.5,1.9*31
$GPRMC,202942.000,A,3748.7433,N,12217.7856,W,2.03,125.85,130611,,,D*78
$GPVTG,125.85,T,,M,2.03,N,3.8,K,D*09
$GPGGA,202943.000,3748.7431,N,12217.7849,W,2,05,2.5,-0.2,M,-25.1,M,1.8,0000*6E
$GPGSA,A,3,05,13,19,03,23,,,,,,,,3.2,2.5,1.9*31
$GPRMC,202943.000,A,3748.7431,N,12217.7849,W,1.58,153.36,130611,,,D*71
$GPVTG,153.36,T,,M,1.58,N,2.9,K,D*0D
$GPGGA,202944.000,3748.7422,N,12217.7852,W,2,05,2.5,-0.9,M,-25.1,M,1.8,0000*6A
$GPGSA,A,3,05,13,19,03,23,,,,,,,,3.2,2.5,1.9*31
$GPRMC,202944.000,A,3748.7422,N,12217.7852,W,1.66,180.49,130611,,,D*75
$GPVTG,180.49,T,,M,1.66,N,3.1,K,D*0F
$GPGGA,202945.000,3748.7423,N,12217.7846,W,2,05,2.5,-1.6,M,-25.1,M,1.8,0000*61
$GPGSA,A,3,05,13,19,03,23,,,,,,,,3.2,2.5,1.9*31
$GPRMC,202945.000,A,3748.7423,N,12217.7846,W,0.80,159.58,130611,,,D*7D
$GPVTG,159.58,T,,M,0.80,N,1.5,K,D*04
$GPGGA,202946.000,3748.7415,N,12217.7846,W,2,05,2.5,-2.1,M,-25.1,M,2.8,0000*60
$GPGSA,A,3,05,13,19,03,23,,,,,,,,3.2,2.5,1.9*31
$GPGSV,3,1,12,13,74,082,32,07,60,305,22,10,43,276,26,23,43,120,36*74
$GPGSV,3,2,12,08,36,276,25,03,27,077,20,19,21,110,31,06,19,063,19*7C
$GPGSV,3,3,12,16,19,042,19,28,13,211,35,05,11,320,19,20,06,173,*7A
$GPRMC,202946.000,A,3748.7415,N,12217.7846,W,1.74,164.69,130611,,,D*7D
$GPVTG,164.69,T,,M,1.74,N,3.2,K,D*07
$GPGGA,202947.000,3748.7414,N,12217.7841,W,2,05,2.5,-2.7,M,-25.1,M,3.8,0000*60
$GPGSA,A,3,05,13,19,03,23,,,,,,,,3.2,2.5,1.9*31
$GPRMC,202947.000,A,3748.7414,N,12217.7841,W,1.27,172.99,130611,,,D*74
$GPVTG,172.99,T,,M,1.27,N,2.4,K,D*0E
$GPGGA,202948.000,3748.7403,N,12217.7848,W,2,05,2.5,-3.5,M,-25.1,M,4.8,0000*64
$GPGSA,A,3,05,13,19,03,23,,,,,,,,3.2,2.5,1.9*31
$GPRMC,202948.000,A,3748.7403,N,12217.7848,W,1.23,189.46,130611,,,D*76
$GPVTG,189.46,T,,M,1.23,N,2.3,K,D*0B
$GPGGA,202949.000,3748.7391,N,12217.7856,W,2,05,2.5,-4.6,M,-25.1,M,1.8,0000*67
$GPGSA,A,3,05,13,19,03,23,,,,,,,,3.2,2.5,1.9*31
$GPRMC,202949.000,A,3748.7391,N,12217.7856,W,1.25,203.15,130611,,,D*75
$GPVTG,203.15,T,,M,1.25,N,2.3,K,D*0A
$GPGGA,202950.000,3748.7387,N,12217.7858,W,2,05,2.5,-5.6,M,-25.1,M,1.8,0000*67
$GPGSA,A,3,05,13,19,03,23,,,,,,,,3.2,2.5,1.9*31
$GPRMC,202950.000,A,3748.7387,N,12217.7858,W,1.64,205.61,130611,,,D*74
$GPVTG,205.61,T,,M,1.64,N,3.0,K,D*08
$GPGGA,202951.000,3748.7384,N,12217.7855,W,2,05,2.5,-6.4,M,-25.1,M,1.8,0000*69
$GPGSA,A,3,05,13,19,03,23,,,,,,,,3.2,2.5,1.9*31
$GPGSV,3,1,12,13,74,083,32,07,60,306,23,10,43,275,26,23,42,121,37*75
$GPGSV,3,2,12,08,37,276,29,03,27,076,20,19,21,110,31,06,19,062,20*7B
$GPRMC,202951.000,A,3748.7384,N,12217.7855,W,1.94,190.31,130611,,,D*7E
$GPVTG,190.31,T,,M,1.94,N,3.6,K,D*0B
$GPGGA,202952.000,3748.7382,N,12217.7852,W,2,05,2.5,-7.3,M,-25.1,M,2.8,0000*6E
$GPGSA,A,3,05,13,19,03,23,,,,,,,,3.2,2.5,1.9*31
$GPRMC,202952.000,A,3748.7382,N,12217.7852,W,0.88,183.60,130611,,,D*76
$GPVTG,183.60,T,,M,0.88,N,1.6,K,D*03
$GPGGA,202953.000,3748.7380,N,12217.7849,W,2,04,3.1,-8.1,M,-25.1,M,3.8,0000*6F
$GPGSA,A,3,13,19,03,23,,,,,,,,,3.2,3.1,1.0*38
$GPRMC,202953.000,A,3748.7380,N,12217.7849,W,0.98,151.22,130611,,,D*77
$GPVTG,151.22,T,,M,0.98,N,1.8,K,D*05
$GPGGA,202954.000,3748.7381,N,12217.7845,W,2,04,3.1,-9.0,M,-25.1,M,4.8,0000*62
$GPGSA,A,3,13,19,03,23,,,,,,,,,3.2,3.1,1.0*38
$GPRMC,202954.000,A,3748.7381,N,12217.7845,W,0.87,112.73,130611,,,D*70
$GPVTG,112.73,T,,M,0.87,N,1.6,K,D*06
$GPGGA,202955.000,3748.7392,N,12217.7828,W,2,05,2.5,-9.7,M,-25.1,M,1.8,0000*6C
$GPGSA,A,3,05,13,19,03,23,,,,,,,,3.2,2.5,1.9*31
$GPRMC,202955.000,A,3748.7392,N,12217.7828,W,0.53,106.18,130611,,,D*79
$GPVTG,106.18,T,,M,0.53,N,1.0,K,D*01
$GPGGA,202956.000,3748.7387,N,12217.7829,W,2,05,2.5,-10.5,M,-25.1,M,1.8,0000*50
$GPGSA,A,3,05,13,19,03,23,,,,,,,,3.2,2.5,1.9*31
$GPGSV,3,1,12,13,74,083,33,07,60,306,24,10,43,275,26,23,42,121,37*73
$GPGSV,3,2,12,08,37,276,28,03,27,076,24,19,21,110,32,06,19,062,19*77
$GPGSV,3,3,12,16,19,042,19,28,13,211,31,05,11,320,19,20,06,173,*7E
$GPRMC,202956.000,A,3748.7387,N,12217.7829,W,1.20,192.78,130611,,,D*71
$GPVTG,192.78,T,,M,1.20,N,2.2,K,D*0E
$GPGGA,202957.000,3748.7386,N,12217.7823,W,2,05,2.5,-11.2,M,-25.1,M,1.8,0000*5C
$GPGSA,A,3,05,13,19,03,23,,,,,,,,3.2,2.5,1.9*31
$GPRMC,202957.000,A,3748.7386,N,12217.7823,W,1.67,183.70,130611,,,D*70
$GPVTG,183.70,T,,M,1.67,N,3.1,K,D*07
$GPGGA,202958.000,3748.7379,N,12217.7821,W,2,05,2.5,-11.7,M,-25.1,M,2.8,0000*57
$GPGSA,A,3,05,13,19,03,23,,,,,,,,3.2,2.5,1.9*31
$GPRMC,202958.000,A,3748.7379,N,12217.7821,W,2.29,184.36,130611,,,D*71
$GPVTG,184.36,T,,M,2.29,N,4.2,K,D*0F
$GPGGA,202959.000,3748.7383,N,12217.7809,W,2,05,2.5,-12.1,M,-25.1,M,3.8,0000*5D
$GPGSA,A,3,05,13,19,03,23,,,,,,,,3.2,2.5,1.9*31
$GPRMC,202959.000,A,3748.7383,N,12217.7809,W,1.87,185.18,130611,,,D*75
$GPVTG,185.18,T,,M,1.87,N,3.5,K,D*05
$GPGGA,203000.000,3748.7384,N,12217.7800,W,2,05,2.5,-12.7,M,-25.1,M,4.8,0000*56
$GPGSA,A,3,05,13,19,03,23,,,,,,,,3.2,2.5,1.9*31
$GPRMC,203000.000,A,3748.7384,N,12217.7800,W,1.24,178.91,130611,,,D*75
$GPVTG,178.91,T,,M,1.24,N,2.3,K,D*08
$GPGGA,203001.000,3748.7379,N,12217.7797,W,2,05,2.5,-13.0,M,-25.1,M,1.8,0000*57
$GPGSA,A,3,05,13,19,03,23,,,,,,,,3.2,2.5,1.9*31
$GPGSV,3,1,12,13,74,083,33,07,60,306,24,10,43,275,26,23,42,121,37*73
$GPGSV,3,2,12,08,37,276,28,03,27,076,23,19,21,110,28,06,19,062,19*7B
$GPGSV,3,3,12,16,19,042,19,28,13,211,33,05,11,320,24,20,06,173,*72
$GPRMC,203001.000,A,3748.7379,N,12217.7797,W,2.18,198.41,130611,,,D*78
$GPVTG,198.41,T,,M,2.18,N,4.0,K,D*02
$GPGGA,203002.000,3748.7389,N,12217.7779,W,2,05,2.5,-13.0,M,-25.1,M,1.8,0000*5B
$GPGSA,A,3,05,13,19,03,23,,,,,,,,3.2,2.5,1.9*31
$GPRMC,203002.000,A,3748.7389,N,12217.7779,W,0.88,141.55,130611,,,D*7E
$GPVTG,141.55,T,,M,0.88,N,1.6,K,D*0B
$GPGGA,203003.000,3748.7394,N,12217.7765,W,2,05,2.5,-13.3,M,-25.1,M,1.8,0000*58
$GPGSA,A,3,05,13,19,03,23,,,,,,,,3.2,2.5,1.9*31
$GPRMC,203003.000,A,3748.7394,N,12217.7765,W,1.10,143.29,130611,,,D*77
$GPVTG,143.29,T,,M,1.10,N,2.0,K,D*07
$GPGGA,203004.000,3748.7402,N,12217.7750,W,2,05,2.5,-13.3,M,-25.1,M,1.8,0000*51
$GPGSA,A,3,05,13,19,03,23,,,,,,,,3.2,2.5,1.9*31
$GPRMC,203004.000,A,3748.7402,N,12217.7750,W,0.76,141.19,130611,,,D*7E
$GPVTG,141.19,T,,M,0.76,N,1.4,K,D*00
$GPGGA,203005.000,3748.7412,N,12217.7735,W,2,05,2.5,-13.1,M,-25.1,M,1.8,0000*50
$GPGSA,A,3,05,13,19,03,23,,,,,,,,3.2,2.5,1.9*31
$GPRMC,203005.000,A,3748.7412,N,12217.7735,W,0.29,134.68,130611,,,D*73
$GPVTG,134.68,T,,M,0.29,N,0.5,K,D*0E
$GPGGA,203006.000,3748.7419,N,12217.7723,W,2,05,2.5,-13.7,M,-25.1,M,2.8,0000*5A
$GPGSA,A,3,05,13,19,03,23,,,,,,,,3.2,2.5,1.9*31
$GPGSV,3,1,12,13,74,083,32,07,60,306,25,10,43,275,26,23,42,121,37*73
$GPGSV,3,2,12,08,37,276,25,03,27,076,34,19,21,110,24,06,19,062,33*74
$GPGSV,3,3,12,16,19,042,31,28,13,211,26,05,11,320,22,20,06,173,*7A
$GPRMC,203006.000,A,3748.7419,N,12217.7723,W,0.23,163.68,130611,,,D*74
$GPVTG,163.68,T,,M,0.23,N,0.4,K,D*07
$GPGGA,203007.000,3748.7426,N,12217.7713,W,2,05,2.5,-14.4,M,-25.1,M,1.8,0000*53
$GPGSA,A,3,05,13,19,03,23,,,,,,,,3.2,2.5,1.9*31
$GPRMC,203007.000,A,3748.7426,N,12217.7713,W,0.10,197.85,130611,,,D*72
$GPVTG,197.85,T,,M,0.10,N,0.2,K,D*09
$GPGGA,203008.000,3748.7431,N,12217.7702,W,2,05,2.5,-15.0,M,-25.1,M,1.8,0000*5F
$GPGSA,A,3,05,13,19,03,23,,,,,,,,3.2,2.5,1.9*31
$GPRMC,203008.000,A,3748.7431,N,12217.7702,W,0.72,155.88,130611,,,D*7C
$GPVTG,155.88,T,,M,0.72,N,1.3,K,D*0E
$GPGGA,203009.000,3748.7433,N,12217.7693,W,2,05,2.5,-16.0,M,-25.1,M,1.8,0000*56
$GPGSA,A,3,05,13,19,03,23,,,,,,,,3.2,2.5,1.9*31
$GPRMC,203009.000,A,3748.7433,N,12217.7693,W,0.63,183.49,130611,,,D*70
$GPVTG,183.49,T,,M,0.63,N,1.2,K,D*09
$GPGGA,203010.000,3748.7436,N,12217.7683,W,2,05,2.5,-16.2,M,-25.1,M,2.8,0000*5B
$GPGSA,A,3,05,13,19,03,23,,,,,,,,3.2,2.5,1.9*31
$GPRMC,203010.000,A,3748.7436,N,12217.7683,W,0.77,173.31,130611,,,D*79
$GPVTG,173.31,T,,M,0.77,N,1.4,K,D*0A
$GPGGA,203011.000,3748.7438,N,12217.7675,W,2,05,2.5,-16.6,M,-25.1,M,1.8,0000*5A
$GPGSA,A,3,05,13,19,03,23,,,,,,,,3.2,2.5,1.9*31
$GPGSV,3,1,12,13,74,083,33,07,60,306,24,10,43,275,26,23,42,121,37*73
$GPGSV,3,2,12,08,37,276,27,03,27,076,35,19,21,110,25,06,19,062,33*76
$GPGSV,3,3,12,16,19,042,31,28,13,211,23,05,11,320,22,20,06,173,*7F
$GPRMC,203011.000,A,3748.7438,N,12217.7675,W,0.71,190.75,130611,,,D*74
$GPGGA,203012.000,3748.7439,N,12217.7668,W,2,05,2.5,-17.4,M,-25.1,M,2.8,0000*54
$GPGSA,A,3,05,13,19,03,23,,,,,,,,3.2,2.5,1.9*31
$GPRMC,203012.000,A,3748.7439,N,12217.7668,W,0.71,184.47,130611,,,D*7E
$GPVTG,184.47,T,,M,0.71,N,1.3,K,D*02
$GPGGA,203013.000,3748.7437,N,12217.7662,W,2,05,2.5,-17.9,M,-25.1,M,1.8,0000*5F
$GPGSA,A,3,05,13,19,03,23,,,,,,,,3.2,2.5,1.9*31
$GPRMC,203013.000,A,3748.7437,N,12217.7662,W,0.66,182.32,130611,,,D*79
$GPVTG,182.32,T,,M,0.66,N,1.2,K,D*01
$GPGGA,203014.000,3748.7438,N,12217.7655,W,2,05,2.5,-18.0,M,-25.1,M,2.8,0000*56
$GPGSA,A,3,05,13,19,03,23,,,,,,,,3.2,2.5,1.9*31
$GPRMC,203014.000,A,3748.7438,N,12217.7655,W,0.52,156.19,130611,,,D*72
$GPVTG,156.19,T,,M,0.52,N,1.0,K,D*04
$GPGGA,203015.000,3748.7443,N,12217.7643,W,2,05,2.5,-18.2,M,-25.1,M,1.8,0000*5D
$GPGSA,A,3,05,13,19,03,23,,,,,,,,3.2,2.5,1.9*31
$GPRMC,203015.000,A,3748.7443,N,12217.7643,W,0.92,142.06,130611,,,D*7F
$GPVTG,142.06,T,,M,0.92,N,1.7,K,D*04
$GPGGA,203016.000,3748.7433,N,12217.7646,W,2,05,2.5,-18.4,M,-25.1,M,2.8,0000*59
$GPGSA,A,3,05,13,19,03,23,,,,,,,,3.2,2.5,1.9*31
$GPGSV,3,1,12,13,74,083,33,07,60,306,24,10,43,275,27,23,42,121,29*7D
$GPGSV,3,2,12,08,37,276,27,03,27,076,23,19,21,110,33,06,19,062,22*76
$GPGSV,3,3,12,16,19,042,31,28,13,211,32,05,11,320,22,20,06,173,*7F
$GPRMC,203016.000,A,3748.7433,N,12217.7646,W,1.38,194.24,130611,,,D*74
$GPVTG,194.24,T,,M,1.38,N,2.6,K,D*0C
$GPGGA,203017.000,3748.7417,N,12217.7650,W,2,05,2.5,-18.8,M,-25.1,M,3.8,0000*54
$GPGSA,A,3,05,13,19,03,23,,,,,,,,3.2,2.5,1.9*31
$GPRMC,203017.000,A,3748.7417,N,12217.7650,W,2.34,189.17,130611,,,D*77
$GPVTG,189.17,T,,M,2.34,N,4.3,K,D*0C
$GPGGA,203018.000,3748.7405,N,12217.7651,W,2,05,2.5,-19.7,M,-25.1,M,4.8,0000*50
$GPGSA,A,3,05,13,19,03,23,,,,,,,,3.2,2.5,1.9*31
$GPRMC,203018.000,A,3748.7405,N,12217.7651,W,1.28,189.88,130611,,,D*72
$GPVTG,189.88,T,,M,1.28,N,2.4,K,D*05
$GPGGA,203019.000,3748.7407,N,12217.7644,W,2,05,2.5,-20.4,M,-25.1,M,5.8,0000*5F
$GPGSA,A,3,05,13,19,03,23,,,,,,,,3.2,2.5,1.9*31
$GPRMC,203019.000,A,3748.7407,N,12217.7644,W,1.08,215.23,130611,,,D*70
$GPVTG,215.23,T,,M,1.08,N,2.0,K,D*04
$GPGGA,203020.000,3748.7404,N,12217.7641,W,2,05,2.5,-20.7,M,-25.1,M,6.8,0000*53
$GPGSA,A,3,05,13,19,03,23,,,,,,,,3.2,2.5,1.9*31
$GPRMC,203020.000,A,3748.7404,N,12217.7641,W,0.62,229.37,130611,,,D*7B
$GPVTG,229.37,T,,M,0.62,N,1.1,K,D*01
$GPGGA,203021.000,3748.7397,N,12217.7641,W,2,05,2.5,-21.3,M,-25.1,M,7.8,0000*5B
$GPGSA,A,3,05,13,19,03,23,,,,,,,,3.2,2.5,1.9*31
$GPGSV,3,1,12,13,74,084,22,07,60,306,25,10,43,275,24,23,42,121,33*73
$GPGSV,3,2,12,08,37,276,25,03,27,076,25,19,21,109,35,06,19,062,21*7F
$GPGSV,3,3,12,16,19,042,17,28,13,211,31,05,11,320,21,20,06,173,*7B
$GPRMC,203021.000,A,3748.7397,N,12217.7641,W,1.14,256.70,130611,,,D*7C
$GPVTG,256.70,T,,M,1.14,N,2.1,K,D*09
$GPGGA,203022.000,3748.7392,N,12217.7646,W,2,04,3.1,-22.3,M,-25.1,M,8.8,0000*52
$GPGSA,A,3,13,19,03,23,,,,,,,,,3.2,3.1,1.0*38
$GPRMC,203022.000,A,3748.7392,N,12217.7646,W,1.01,270.84,130611,,,D*76
$GPVTG,270.84,T,,M,1.01,N,1.9,K,D*09
$GPGGA,203023.000,3748.7390,N,12217.7647,W,2,04,3.1,-23.2,M,-25.1,M,9.8,0000*51
$GPGSA,A,3,13,19,03,23,,,,,,,,,3.2,3.1,1.0*38
$GPRMC,203023.000,A,3748.7390,N,12217.7647,W,0.57,260.82,130611,,,D*71
$GPVTG,260.82,T,,M,0.57,N,1.1,K,D*04
$GPGGA,203024.000,3748.7386,N,12217.7638,W,2,05,2.5,-24.5,M,-25.1,M,10.8,0000*65
$GPGSA,A,3,05,13,19,03,23,,,,,,,,3.2,2.5,1.9*31
$GPRMC,203024.000,A,3748.7386,N,12217.7638,W,0.36,253.40,130611,,,D*70
$GPVTG,253.40,T,,M,0.36,N,0.7,K,D*0A
$GPGGA,203025.000,3748.7388,N,12217.7618,W,2,05,2.5,-25.4,M,-25.1,M,11.8,0000*69
$GPGSA,A,3,05,13,19,03,23,,,,,,,,3.2,2.5,1.9*31
$GPRMC,203025.000,A,3748.7388,N,12217.7618,W,1.40,80.44,130611,,,D*45
$GPVTG,80.44,T,,M,1.40,N,2.6,K,D*31
$GPGGA,203026.000,3748.7387,N,12217.7598,W,2,05,2.5,-26.8,M,-25.1,M,12.8,0000*62
$GPGSA,A,3,05,13,19,03,23,,,,,,,,3.2,2.5,1.9*31
$GPGSV,3,1,12,13,74,084,23,07,60,306,25,10,43,275,27,23,42,121,33*71
$GPGSV,3,2,12,08,37,276,28,03,27,076,35,19,21,109,34,06,19,062,21*72
$GPRMC,203026.000,A,3748.7387,N,12217.7598,W,1.65,112.42,130611,,,D*79
$GPVTG,112.42,T,,M,1.65,N,3.1,K,D*0C
$GPGGA,203027.000,3748.7391,N,12217.7581,W,2,05,2.5,-27.0,M,-25.1,M,13.8,0000*64
$GPGSA,A,3,05,13,19,03,23,,,,,,,,3.2,2.5,2.0*3B
$GPRMC,203027.000,A,3748.7391,N,12217.7581,W,1.04,112.32,130611,,,D*77
$GPVTG,112.32,T,,M,1.04,N,1.9,K,D*06
$GPGGA,203028.000,3748.7389,N,12217.7576,W,2,05,2.5,-25.8,M,-25.1,M,14.8,0000*67
$GPGSA,A,3,05,13,19,03,23,,,,,,,,3.2,2.5,2.0*3B
$GPRMC,203028.000,A,3748.7389,N,12217.7576,W,1.29,145.67,130611,,,D*74
$GPVTG,145.67,T,,M,1.29,N,2.4,K,D*05
$GPGGA,203029.000,3748.7383,N,12217.7569,W,2,05,2.5,-24.8,M,-25.1,M,15.8,0000*62
$GPGSA,A,3,05,13,19,03,23,,,,,,,,3.2,2.5,2.0*3B
$GPRMC,203029.000,A,3748.7383,N,12217.7569,W,1.72,167.48,130611,,,D*72
$GPVTG,167.48,T,,M,1.72,N,3.2,K,D*01
$GPGGA,203030.000,3748.7380,N,12217.7563,W,2,05,2.5,-23.4,M,-25.1,M,16.8,0000*6B
$GPGSA,A,3,05,13,19,03,23,,,,,,,,3.2,2.5,2.0*3B
$GPRMC,203030.000,A,3748.7380,N,12217.7563,W,1.86,156.00,130611,,,D*76
$GPVTG,156.00,T,,M,1.86,N,3.5,K,D*03
$GPGGA,203031.000,3748.7375,N,12217.7558,W,2,05,2.5,-22.5,M,-25.1,M,17.8,0000*69
$GPGSA,A,3,05,13,19,03,23,,,,,,,,3.2,2.5,2.0*3B
$GPGSV,3,1,12,13,74,084,31,07,60,306,21,10,43,275,24,23,42,121,33*75
$GPGSV,3,2,12,08,37,276,22,03,27,076,31,19,21,109,34,06,19,062,22*7F
$GPGSV,3,3,12,16,19,042,28,28,13,211,34,05,11,320,21,20,06,173,*72
$GPRMC,203031.000,A,3748.7375,N,12217.7558,W,1.49,150.14,130611,,,D*75
$GPVTG,150.14,T,,M,1.49,N,2.8,K,D*0F
$GPGGA,203032.000,3748.7371,N,12217.7554,W,1,05,2.5,-21.5,M,-25.1,M,,0000*72
$GPGSA,A,3,05,13,19,03,23,,,,,,,,3.2,2.5,2.0*3B
$GPRMC,203032.000,A,3748.7371,N,12217.7554,W,0.86,139.41,130611,,,A*76
$GPVTG,139.41,T,,M,0.86,N,1.6,K,A*0A
$GPGGA,203033.000,3748.7369,N,12217.7548,W,1,05,2.5,-20.5,M,-25.1,M,,0000*76
$GPGSA,A,3,05,13,19,03,23,,,,,,,,3.2,2.5,2.0*3B
$GPRMC,203033.000,A,3748.7369,N,12217.7548,W,1.07,125.26,130611,,,A*77
$GPVTG,125.26,T,,M,1.07,N,2.0,K,A*0B
$GPGGA,203034.000,3748.7367,N,12217.7537,W,1,05,2.5,-19.2,M,-25.1,M,,0000*7A
$GPGSA,A,3,05,13,19,03,23,,,,,,,,3.2,2.5,2.0*3B
$GPRMC,203034.000,A,3748.7367,N,12217.7537,W,1.59,121.78,130611,,,A*72
$GPVTG,121.78,T,,M,1.59,N,2.9,K,A*06
$GPGGA,203035.000,3748.7366,N,12217.7528,W,1,05,2.5,-18.2,M,-25.1,M,,0000*75
$GPGSA,A,3,05,13,19,03,23,,,,,,,,3.2,2.5,2.0*3B
$GPRMC,203035.000,A,3748.7366,N,12217.7528,W,1.33,118.36,130611,,,A*70
$GPVTG,118.36,T,,M,1.33,N,2.5,K,A*06
$GPGGA,203036.000,3748.7365,N,12217.7520,W,1,05,2.5,-17.5,M,-25.1,M,,0000*75
$GPGSA,A,3,05,13,19,03,23,,,,,,,,3.2,2.5,2.0*3B
$GPGSV,3,1,12,13,74,085,31,07,60,307,22,10,43,275,24,23,42,121,31*74
$GPGSV,3,2,12,08,37,276,22,03,27,076,35,19,21,109,34,06,19,062,22*7B
$GPGSV,3,3,12,16,19,042,23,28,13,211,36,05,11,320,21,20,06,173,*7B
$GPRMC,203036.000,A,3748.7365,N,12217.7520,W,1.03,118.81,130611,,,A*77
$GPVTG,118.81,T,,M,1.03,N,1.9,K,A*06
$GPGGA,203037.000,3748.7362,N,12217.7512,W,1,05,2.5,-16.9,M,-25.1,M,,0000*7F
$GPGSA,A,3,05,13,19,03,23,,,,,,,,3.2,2.5,2.0*3B
$GPRMC,203037.000,A,3748.7362,N,12217.7512,W,0.72,133.51,130611,,,A*73
$GPVTG,133.51,T,,M,0.72,N,1.3,K,A*0F
$GPGGA,203038.000,3748.7365,N,12217.7502,W,1,05,2.5,-15.7,M,-25.1,M,,0000*7B
$GPGSA,A,3,05,13,19,03,23,,,,,,,,3.2,2.5,2.0*3B
$GPRMC,203038.000,A,3748.7365,N,12217.7502,W,0.95,117.75,130611,,,A*73
$GPVTG,117.75,T,,M,0.95,N,1.8,K,A*0D
$GPGGA,203039.000,3748.7364,N,12217.7490,W,1,05,2.5,-14.7,M,-25.1,M,,0000*70
$GPGSA,A,3,05,13,19,03,23,,,,,,,,3.2,2.5,2.0*3B
$GPRMC,203039.000,A,3748.7364,N,12217.7490,W,1.04,122.16,130611,,,A*73
$GPVTG,122.16,T,,M,1.04,N,1.9,K,A*06
$GPGGA,203040.000,3748.7364,N,12217.7482,W,1,05,2.5,-13.8,M,-25.1,M,,0000*75
$GPGSA,A,3,05,13,19,03,23,,,,,,,,3.2,2.5,2.0*3B
$GPRMC,203040.000,A,3748.7364,N,12217.7482,W,0.74,154.39,130611,,,A*74
$GPVTG,154.39,T,,M,0.74,N,1.4,K,A*01
$GPGGA,203041.000,3748.7361,N,12217.7472,W,1,05,2.5,-14.2,M,-25.1,M,,0000*73
$GPGSA,A,3,05,13,19,03,23,,,,,,,,3.2,2.5,2.0*3B
$GPGSV,3,1,12,13,74,085,25,07,60,307,23,10,43,275,24,23,42,121,31*70
$GPGSV,3,2,12,08,37,276,23,03,27,076,26,19,21,109,32,06,19,062,22*7E
$GPGSV,3,3,12,16,19,042,22,28,13,211,32,05,11,320,21,20,06,173,*7E
$GPRMC,203041.000,A,3748.7361,N,12217.7472,W,1.02,162.64,130611,,,A*72
$GPVTG,162.64,T,,M,1.02,N,1.9,K,A*01
$GPGGA,203042.000,3748.7356,N,12217.7464,W,1,05,2.5,-14.1,M,-25.1,M,,0000*70
$GPGSA,A,3,05,13,19,03,23,,,,,,,,3.2,2.5,2.0*3B
$GPRMC,203042.000,A,3748.7356,N,12217.7464,W,1.02,153.02,130611,,,A*70
$GPVTG,153.02,T,,M,1.02,N,1.9,K,A*03
$GPGGA,203043.000,3748.7349,N,12217.7455,W,1,05,2.5,-15.1,M,-25.1,M,,0000*7C
$GPGSA,A,3,05,13,19,03,23,,,,,,,,3.2,2.5,2.0*3B
$GPRMC,203043.000,A,3748.7349,N,12217.7455,W,1.21,157.24,130611,,,A*7C
$GPVTG,157.24,T,,M,1.21,N,2.2,K,A*0A
$GPGGA,203044.000,3748.7344,N,12217.7449,W,1,05,2.5,-14.9,M,-25.1,M,,0000*72
$GPGSA,A,3,05,13,19,03,23,,,,,,,,3.2,2.5,2.0*3B
$GPRMC,203044.000,A,3748.7344,N,12217.7449,W,1.13,153.37,130611,,,A*7C
$GPVTG,153.37,T,,M,1.13,N,2.1,K,A*0E
$GPGGA,203045.000,3748.7341,N,12217.7443,W,1,05,2.5,-14.6,M,-25.1,M,,0000*73
$GPGSA,A,3,05,13,19,03,23,,,,,,,,3.2,2.5,2.0*3B
$GPRMC,203045.000,A,3748.7341,N,12217.7443,W,0.79,148.85,130611,,,A*7C
$GPVTG,148.85,T,,M,0.79,N,1.5,K,A*07
$GPGGA,203046.000,3748.7338,N,12217.7439,W,2,05,2.5,-15.0,M,-25.1,M,,0000*77
$GPGSA,A,3,05,13,19,03,23,,,,,,,,3.2,2.5,2.0*3B
$GPGSV,3,1,12,13,74,085,31,07,60,307,23,10,43,275,23,23,42,121,38*7B
$GPGSV,3,2,12,08,37,276,23,03,27,076,35,19,21,109,37,06,19,062,31*7B
$GPGSV,3,3,12,16,19,042,21,28,13,211,29,05,11,320,20,20,06,173,*76
$GPRMC,203046.000,A,3748.7338,N,12217.7439,W,0.77,150.24,130611,,,D*75
$GPGGA,203047.000,3748.7336,N,12217.7432,W,2,05,2.5,-14.9,M,-25.1,M,,0000*7B
$GPGSA,A,3,05,13,19,03,23,,,,,,,,3.2,2.5,2.0*3B
$GPRMC,203047.000,A,3748.7336,N,12217.7432,W,1.34,137.50,130611,,,D*75
$GPVTG,137.50,T,,M,1.34,N,2.5,K,D*09
$GPGGA,203048.000,3748.7335,N,12217.7425,W,2,05,2.5,-15.0,M,-25.1,M,2.8,0000*5D
$GPGSA,A,3,05,13,19,03,23,,,,,,,,3.2,2.5,2.0*3B
$GPRMC,203048.000,A,3748.7335,N,12217.7425,W,1.03,119.61,130611,,,D*75
$GPVTG,119.61,T,,M,1.03,N,1.9,K,D*0C
$GPGGA,203049.000,3748.7327,N,12217.7425,W,2,05,2.5,-15.3,M,-25.1,M,3.8,0000*5D
$GPGSA,A,3,05,13,19,03,23,,,,,,,,3.2,2.5,2.0*3B
$GPRMC,203049.000,A,3748.7327,N,12217.7425,W,1.08,170.45,130611,,,D*75
$GPVTG,170.45,T,,M,1.08,N,2.0,K,D*04
$GPGGA,203050.000,3748.7322,N,12217.7423,W,2,05,2.5,-15.6,M,-25.1,M,,0000*76
$GPGSA,A,3,05,13,19,03,23,,,,,,,,3.2,2.5,2.0*3B
$GPRMC,203050.000,A,3748.7322,N,12217.7423,W,0.62,153.68,130611,,,D*7D
$GPVTG,153.68,T,,M,0.62,N,1.1,K,D*05
$GPGGA,203051.000,3748.7314,N,12217.7425,W,2,05,2.5,-15.8,M,-25.1,M,,0000*7A
$GPGSA,A,3,05,13,19,03,23,,,,,,,,3.2,2.5,2.0*3B
$GPGSV,3,1,12,13,74,085,32,07,60,307,23,10,43,275,23,23,42,121,38*78
$GPGSV,3,2,12,08,37,276,23,03,27,076,22,19,21,109,37,06,19,062,21*7C
$GPGSV,3,3,12,16,19,042,25,28,13,211,33,05,11,320,20,20,06,173,*79
$GPRMC,203051.000,A,3748.7314,N,12217.7425,W,0.33,149.65,130611,,,D*7D
$GPVTG,149.65,T,,M,0.33,N,0.6,K,D*01
$GPGGA,203052.000,3748.7304,N,12217.7428,W,2,05,2.5,-16.2,M,-25.1,M,,0000*7C
$GPGSA,A,3,05,13,19,03,23,,,,,,,,3.2,2.5,2.0*3B
$GPRMC,203052.000,A,3748.7304,N,12217.7428,W,1.80,194.09,130611,,,D*71
$GPVTG,194.09,T,,M,1.80,N,3.3,K,D*04
$GPGGA,203053.000,3748.7294,N,12217.7431,W,2,05,2.5,-16.7,M,-25.1,M,,0000*78
$GPGSA,A,3,05,13,19,03,23,,,,,,,,3.2,2.5,2.0*3B
$GPRMC,203053.000,A,3748.7294,N,12217.7431,W,1.92,189.74,130611,,,D*75
$GPVTG,189.74,T,,M,1.92,N,3.6,K,D*04
$GPGGA,203054.000,3748.7284,N,12217.7433,W,2,05,2.5,-17.0,M,-25.1,M,2.8,0000*5E
$GPGSA,A,3,05,13,19,03,23,,,,,,,,3.2,2.5,2.0*3B
$GPRMC,203054.000,A,3748.7284,N,12217.7433,W,1.91,170.96,130611,,,D*78
$GPVTG,170.96,T,,M,1.91,N,3.5,K,D*0E
$GPGGA,203055.000,3748.7272,N,12217.7437,W,2,05,2.5,-17.7,M,-25.1,M,3.8,0000*54
$GPGSA,A,3,05,13,19,03,23,,,,,,,,3.2,2.5,2.0*3B
$GPRMC,203055.000,A,3748.7272,N,12217.7437,W,1.51,175.42,130611,,,D*74
$GPVTG,175.42,T,,M,1.51,N,2.8,K,D*02
$GPGGA,203056.000,3748.7273,N,12217.7428,W,2,05,2.5,-18.1,M,-25.1,M,4.8,0000*56
$GPGSA,A,3,05,13,19,03,23,,,,,,,,3.2,2.5,2.0*3B
$GPGSV,3,1,12,13,74,085,32,07,60,307,24,10,43,275,31,23,42,121,38*7C
$GPGSV,3,2,12,08,37,276,31,03,27,076,22,19,21,109,36,06,19,062,21*7E
$GPGSV,3,3,12,16,19,042,19,28,13,211,36,05,11,320,19,20,06,173,*79
$GPRMC,203056.000,A,3748.7273,N,12217.7428,W,1.32,136.66,130611,,,D*7C
$GPVTG,136.66,T,,M,1.32,N,2.4,K,D*0A
$GPGGA,203057.000,3748.7269,N,12217.7423,W,2,05,2.5,-18.6,M,-25.1,M,,0000*72
$GPGSA,A,3,05,13,19,03,23,,,,,,,,3.2,2.5,2.0*3B
$GPRMC,203057.000,A,3748.7269,N,12217.7423,W,1.45,134.44,130611,,,D*7F
$GPVTG,134.44,T,,M,1.45,N,2.7,K,D*0B
$GPGGA,203058.000,3748.7258,N,12217.7425,W,2,05,2.5,-19.1,M,-25.1,M,,0000*7F
$GPGSA,A,3,05,13,19,03,23,,,,,,,,3.2,2.5,2.0*3B
$GPRMC,203058.000,A,3748.7258,N,12217.7425,W,1.77,166.46,130611,,,D*70
$GPVTG,166.46,T,,M,1.77,N,3.3,K,D*0A
$GPGGA,203059.000,3748.7250,N,12217.7425,W,2,05,2.5,-19.6,M,-25.1,M,,0000*71
$GPGSA,A,3,05,13,19,03,23,,,,,,,,3.2,2.5,2.0*3B
$GPRMC,203059.000,A,3748.7250,N,12217.7425,W,1.54,184.76,130611,,,D*77
$GPVTG,184.76,T,,M,1.54,N,2.8,K,D*0E
$GPGGA,203100.000,3748.7251,N,12217.7418,W,2,05,2.5,-20.1,M,-25.1,M,2.8,0000*5A
$GPGSA,A,3,05,13,19,03,23,,,,,,,,3.2,2.5,2.0*3B
$GPRMC,203100.000,A,3748.7251,N,12217.7418,W,0.85,159.10,130611,,,D*78
$GPVTG,159.10,T,,M,0.85,N,1.6,K,D*0E
$GPGGA,203101.000,3748.7254,N,12217.7410,W,2,05,2.5,-20.6,M,-25.1,M,3.8,0000*50
$GPGSA,A,3,05,13,19,03,23,,,,,,,,3.2,2.5,2.0*3B
$GPGSV,3,1,12,13,74,085,32,07,60,307,23,10,43,275,29,23,42,121,38*72
$GPGSV,3,2,12,08,37,276,29,03,27,076,27,19,21,109,37,06,19,062,24*76
$GPGSV,3,3,12,16,19,042,20,28,13,211,32,05,11,320,20,20,06,173,*7D
$GPVTG,148.75,T,,M,0.71,N,1.3,K,D*03
$GPGGA,203102.000,3748.7256,N,12217.7403,W,2,05,2.5,-21.2,M,-25.1,M,4.8,0000*51
$GPGSA,A,3,05,13,19,03,23,,,,,,,,3.2,2.5,2.0*3B
$GPRMC,203102.000,A,3748.7256,N,12217.7403,W,0.89,189.61,130611,,,D*70
$GPVTG,189.61,T,,M,0.89,N,1.7,K,D*08
$GPGGA,203103.000,3748.7259,N,12217.7395,W,2,05,2.5,-21.4,M,-25.1,M,,0000*73
$GPGSA,A,3,05,13,19,03,23,,,,,,,,3.2,2.5,2.0*3B
$GPRMC,203103.000,A,3748.7259,N,12217.7395,W,0.74,212.72,130611,,,D*77
$GPVTG,212.72,T,,M,0.74,N,1.4,K,D*0A
$GPGGA,203104.000,3748.7265,N,12217.7379,W,2,05,1.3,-19.8,M,-25.1,M,1.8,0000*5C
$GPGSA,A,3,05,19,03,23,28,,,,,,,,4.0,1.3,3.8*3A
$GPRMC,203104.000,A,3748.7265,N,12217.7379,W,0.37,140.68,130611,,,D*75
$GPVTG,140.68,T,,M,0.37,N,0.7,K,D*00
$GPGGA,203105.000,3748.7273,N,12217.7356,W,2,06,1.1,-17.5,M,-25.1,M,2.8,0000*56
$GPGSA,A,3,05,13,19,03,23,28,,,,,,,2.0,1.1,1.7*31
$GPRMC,203105.000,A,3748.7273,N,12217.7356,W,0.69,69.02,130611,,,D*43
$GPVTG,69.02,T,,M,0.69,N,1.3,K,D*38
$GPGGA,203106.000,3748.7274,N,12217.7347,W,2,05,2.5,-18.6,M,-25.1,M,3.8,0000*5B
$GPGSA,A,3,05,13,19,03,23,,,,,,,,3.2,2.5,2.0*3B
$GPGSV,3,1,12,13,74,085,20,07,60,307,14,10,43,274,22,23,42,121,26*70
$GPGSV,3,2,12,08,37,276,17,03,27,076,26,19,21,109,30,06,19,062,25*7C
$GPGSV,3,3,12,16,18,042,16,28,13,211,15,05,12,320,20,20,05,173,*7C
$GPRMC,203106.000,A,3748.7274,N,12217.7347,W,1.46,42.75,130611,,,D*42
$GPVTG,42.75,T,,M,1.46,N,2.7,K,D*3A
$GPGGA,203107.000,3748.7278,N,12217.7338,W,2,05,2.5,-19.3,M,-25.1,M,4.8,0000*5D
$GPGSA,A,3,05,13,19,03,23,,,,,,,,3.2,2.5,2.0*3B
$GPRMC,203107.000,A,3748.7278,N,12217.7338,W,1.77,48.26,130611,,,D*49
$GPVTG,48.26,T,,M,1.77,N,3.3,K,D*31
$GPGGA,203108.000,3748.7281,N,12217.7332,W,2,05,2.5,-18.3,M,-25.1,M,5.8,0000*5E
$GPGSA,A,3,05,13,19,03,23,,,,,,,,3.2,2.5,2.0*3B
$GPRMC,203108.000,A,3748.7281,N,12217.7332,W,0.93,76.53,130611,,,D*4E
$GPVTG,76.53,T,,M,0.93,N,1.7,K,D*33
$GPGGA,203109.000,3748.7286,N,12217.7318,W,2,06,1.1,-17.0,M,-25.1,M,1.8,0000*5C
$GPGSA,A,3,05,13,19,03,23,28,,,,,,,2.0,1.1,1.7*31
$GPRMC,203109.000,A,3748.7286,N,12217.7318,W,1.25,68.66,130611,,,D*45
$GPVTG,68.66,T,,M,1.25,N,2.3,K,D*31
$GPGGA,203110.000,3748.7295,N,12217.7294,W,2,06,1.1,-14.5,M,-25.1,M,1.8,0000*55
$GPGSA,A,3,05,13,19,03,23,28,,,,,,,2.0,1.1,1.7*31
$GPRMC,203110.000,A,3748.7295,N,12217.7294,W,0.66,80.10,130611,,,D*4B
$GPVTG,80.10,T,,M,0.66,N,1.2,K,D*32
$GPGGA,203111.000,3748.7309,N,12217.7255,W,2,06,1.1,-9.8,M,-25.1,M,1.8,0000*6C
$GPGSA,A,3,05,13,19,03,23,28,,,,,,,2.0,1.1,1.7*31
$GPGSV,3,1,12,13,74,085,33,07,60,307,25,10,43,274,24,23,42,121,37*76
$GPGSV,3,2,12,08,37,276,25,03,27,076,35,19,21,109,41,06,19,062,33*7E
$GPGSV,3,3,12,16,18,042,30,28,13,211,25,05,12,320,19,20,05,173,*71
$GPRMC,203111.000,A,3748.7309,N,12217.7255,W,1.34,54.75,130611,,,D*4F
$GPVTG,54.75,T,,M,1.34,N,2.5,K,D*3A
$GPGGA,203112.000,3748.7316,N,12217.7231,W,2,06,1.1,-7.4,M,-25.1,M,1.8,0000*61
$GPGSA,A,3,05,13,19,03,23,28,,,,,,,2.0,1.1,1.7*31
$GPRMC,203112.000,A,3748.7316,N,12217.7231,W,1.99,63.90,130611,,,D*48
$GPVTG,63.90,T,,M,1.99,N,3.7,K,D*31
$GPGGA,203113.000,3748.7323,N,12217.7206,W,2,06,1.1,-4.5,M,-25.1,M,2.8,0000*63
$GPGSA,A,3,05,13,19,03,23,28,,,,,,,2.0,1.1,1.7*31
$GPRMC,203113.000,A,3748.7323,N,12217.7206,W,2.25,49.84,130611,,,D*42
$GPVTG,49.84,T,,M,2.25,N,4.2,K,D*3A
$GPGGA,203114.000,3748.7325,N,12217.7179,W,2,06,1.1,-1.2,M,-25.1,M,3.8,0000*6A
$GPGSA,A,3,05,13,19,03,23,28,,,,,,,2.0,1.1,1.7*31
$GPRMC,203114.000,A,3748.7325,N,12217.7179,W,2.15,37.21,130611,,,D*4D
$GPVTG,37.21,T,,M,2.15,N,4.0,K,D*3D
$GPGGA,203115.000,3748.7324,N,12217.7153,W,2,06,1.1,2.1,M,-25.1,M,1.8,0000*4D
$GPGSA,A,3,05,13,19,03,23,28,,,,,,,2.0,1.1,1.7*31
$GPRMC,203115.000,A,3748.7324,N,12217.7153,W,1.95,45.99,130611,,,D*48
$GPVTG,45.99,T,,M,1.95,N,3.6,K,D*31
$GPGGA,203116.000,3748.7324,N,12217.7133,W,2,06,1.1,4.8,M,-25.1,M,1.8,0000*47
$GPGSA,A,3,05,13,19,03,23,28,,,,,,,2.0,1.1,1.7*31
$GPGSV,3,1,12,13,74,085,33,07,60,307,26,10,43,274,20,23,42,121,38*7E
$GPGSV,3,2,12,08,37,276,23,03,27,076,39,19,21,109,40,06,19,062,38*7E
$GPRMC,203116.000,A,3748.7324,N,12217.7133,W,1.86,30.19,130611,,,D*45
$GPVTG,30.19,T,,M,1.86,N,3.4,K,D*3B
$GPGGA,203117.000,3748.7326,N,12217.7114,W,2,06,1.1,7.3,M,-25.1,M,2.8,0000*4A
$GPGSA,A,3,05,13,19,03,23,28,,,,,,,2.0,1.1,1.7*31
$GPRMC,203117.000,A,3748.7326,N,12217.7114,W,2.51,32.19,130611,,,D*48
$GPVTG,32.19,T,,M,2.51,N,4.6,K,D*35
$GPGGA,203118.000,3748.7330,N,12217.7100,W,2,06,1.1,9.3,M,-25.1,M,3.8,0000*48
$GPGSA,A,3,05,13,19,03,23,28,,,,,,,2.0,1.1,1.7*31
$GPRMC,203118.000,A,3748.7330,N,12217.7100,W,2.23,20.39,130611,,,D*41
$GPVTG,20.39,T,,M,2.23,N,4.1,K,D*36
$GPGGA,203119.000,3748.7331,N,12217.7089,W,2,05,2.5,10.7,M,-25.1,M,4.8,0000*77
$GPGSA,A,3,05,13,19,03,23,,,,,,,,3.2,2.5,2.0*3B
$GPRMC,203119.000,A,3748.7331,N,12217.7089,W,2.01,34.73,130611,,,D*4A
$GPVTG,34.73,T,,M,2.01,N,3.7,K,D*3C
$GPGGA,203120.000,3748.7336,N,12217.7074,W,2,06,1.1,12.4,M,-25.1,M,5.8,0000*7C
$GPGSA,A,3,05,13,19,03,23,28,,,,,,,2.0,1.1,1.7*31
$GPRMC,203120.000,A,3748.7336,N,12217.7074,W,1.92,42.80,130611,,,D*41
$GPVTG,42.80,T,,M,1.92,N,3.6,K,D*39
$GPGGA,203121.000,3748.7338,N,12217.7067,W,2,06,1.1,12.7,M,-25.1,M,6.8,0000*71
$GPGSA,A,3,05,13,19,03,23,28,,,,,,,2.1,1.1,1.7*30
$GPGSV,3,1,12,13,73,086,33,07,60,307,19,10,43,274,20,23,42,121,38*76
$GPGSV,3,2,12,08,37,277,19,03,27,076,39,19,21,109,40,06,19,062,38*76
$GPGSV,3,3,12,16,18,042,36,28,13,211,33,05,12,319,22,20,05,173,*72
$GPRMC,203121.000,A,3748.7338,N,12217.7067,W,2.13,46.63,130611,,,D*4F
$GPVTG,46.63,T,,M,2.13,N,3.9,K,D*35
$GPGGA,203122.000,3748.7341,N,12217.7061,W,2,06,1.1,12.8,M,-25.1,M,1.8,0000*72
$GPGSA,A,3,05,13,19,03,23,28,,,,,,,2.1,1.1,1.7*30
$GPRMC,203122.000,A,3748.7341,N,12217.7061,W,2.46,40.72,130611,,,D*42
$GPVTG,40.72,T,,M,2.46,N,4.6,K,D*3B
$GPGGA,203123.000,3748.7342,N,12217.7056,W,2,06,1.1,12.7,M,-25.1,M,1.8,0000*7B
$GPGSA,A,3,05,13,19,03,23,28,,,,,,,2.1,1.1,1.7*30
$GPRMC,203123.000,A,3748.7342,N,12217.7056,W,2.20,29.95,130611,,,D*42
$GPVTG,29.95,T,,M,2.20,N,4.1,K,D*3A
$GPGGA,203124.000,3748.7345,N,12217.7051,W,2,06,1.1,13.1,M,-25.1,M,2.8,0000*78
$GPGSA,A,3,05,13,19,03,23,28,,,,,,,2.1,1.1,1.7*30
$GPRMC,203124.000,A,3748.7345,N,12217.7051,W,1.93,21.85,130611,,,D*47
$GPVTG,21.85,T,,M,1.93,N,3.6,K,D*38
$GPGGA,203125.000,3748.7351,N,12217.7049,W,2,06,1.1,12.8,M,-25.1,M,3.8,0000*7C
$GPGSA,A,3,05,13,19,03,23,28,,,,,,,2.1,1.1,1.7*30
$GPRMC,203125.000,A,3748.7351,N,12217.7049,W,1.94,27.88,130611,,,D*46
$GPVTG,27.88,T,,M,1.94,N,3.6,K,D*34
$GPGGA,203126.000,3748.7356,N,12217.7048,W,2,06,1.1,12.0,M,-25.1,M,1.8,0000*73
$GPGSA,A,3,05,13,19,03,23,28,,,,,,,2.1,1.1,1.7*30
$GPGSV,3,1,12,13,73,086,33,07,60,307,24,10,43,274,20,23,42,121,39*79
$GPGSV,3,2,12,08,37,277,19,03,27,076,39,19,21,109,36,06,19,062,36*79
$GPGSV,3,3,12,16,18,042,36,28,13,211,23,05,12,319,28,20,05,173,*79
$GPRMC,203126.000,A,3748.7356,N,12217.7048,W,2.05,40.58,130611,,,D*44
$GPVTG,40.58,T,,M,2.05,N,3.8,K,D*3D
$GPGGA,203127.000,3748.7361,N,12217.7046,W,2,06,1.1,11.4,M,-25.1,M,2.8,0000*7C
$GPGSA,A,3,05,13,19,03,23,28,,,,,,,2.1,1.1,1.7*30
$GPRMC,203127.000,A,3748.7361,N,12217.7046,W,2.22,42.26,130611,,,D*41
$GPVTG,42.26,T,,M,2.22,N,4.1,K,D*3D
$GPGGA,203128.000,3748.7364,N,12217.7041,W,2,06,1.1,11.1,M,-25.1,M,1.8,0000*77
$GPGSA,A,3,05,13,19,03,23,28,,,,,,,2.1,1.1,1.7*30
$GPRMC,203128.000,A,3748.7364,N,12217.7041,W,2.29,37.45,130611,,,D*40
$GPVTG,37.45,T,,M,2.29,N,4.2,K,D*32
$GPGGA,203129.000,3748.7366,N,12217.7034,W,2,06,1.1,11.5,M,-25.1,M,1.8,0000*72
$GPGSA,A,3,05,13,19,03,23,28,,,,,,,2.1,1.1,1.7*30
$GPRMC,203129.000,A,3748.7366,N,12217.7034,W,1.84,44.09,130611,,,D*49
$GPVTG,44.09,T,,M,1.84,N,3.4,K,D*3B
$GPGGA,203130.000,3748.7368,N,12217.7027,W,2,06,1.1,11.8,M,-25.1,M,2.8,0000*78
$GPGSA,A,3,05,13,19,03,23,28,,,,,,,2.1,1.1,1.7*30
$GPRMC,203130.000,A,3748.7368,N,12217.7027,W,1.85,25.80,130611,,,D*4A
$GPVTG,25.80,T,,M,1.85,N,3.4,K,D*3C
$GPGGA,203131.000,3748.7372,N,12217.7022,W,2,06,1.1,11.9,M,-25.1,M,3.8,0000*77
$GPGSA,A,3,05,13,19,03,23,28,,,,,,,2.1,1.1,1.7*30
$GPGSV,3,1,12,13,73,086,33,07,60,307,25,10,43,274,21,23,42,121,38*78
$GPGSV,3,2,12,08,37,277,20,03,27,076,39,19,21,109,38,06,19,062,38*73
$GPGSV,3,3,12,16,18,042,33,28,13,211,21,05,12,319,21,20,05,173,*77
$GPRMC,203131.000,A,3748.7372,N,12217.7022,W,1.97,39.07,130611,,,D*44
$GPVTG,39.07,T,,M,1.97,N,3.6,K,D*3F
$GPGGA,203132.000,3748.7375,N,12217.7013,W,2,06,1.1,12.6,M,-25.1,M,1.8,0000*7F
$GPGSA,A,3,05,13,19,03,23,28,,,,,,,2.1,1.1,1.7*30
$GPRMC,203132.000,A,3748.7375,N,12217.7013,W,2.02,52.89,130611,,,D*46
$GPVTG,52.89,T,,M,2.02,N,3.7,K,D*3A
$GPGGA,203133.000,3748.7379,N,12217.7002,W,2,06,1.1,13.6,M,-25.1,M,2.8,0000*70
$GPGSA,A,3,05,13,19,03,23,28,,,,,,,2.1,1.1,1.7*30
$GPRMC,203133.000,A,3748.7379,N,12217.7002,W,2.38,50.70,130611,,,D*46
$GPVTG,50.70,T,,M,2.38,N,4.4,K,D*33
$GPGGA,203134.000,3748.7383,N,12217.6992,W,2,06,1.1,14.4,M,-25.1,M,3.8,0000*77
$GPGSA,A,3,05,13,19,03,23,28,,,,,,,2.1,1.1,1.7*30
$GPRMC,203134.000,A,3748.7383,N,12217.6992,W,2.13,40.04,130611,,,D*4E
$GPVTG,40.04,T,,M,2.13,N,3.9,K,D*32
$GPGGA,203135.000,3748.7387,N,12217.6984,W,2,06,1.1,15.1,M,-25.1,M,4.8,0000*76
$GPGSA,A,3,05,13,19,03,23,28,,,,,,,2.1,1.1,1.7*30
$GPRMC,203135.000,A,3748.7387,N,12217.6984,W,2.24,31.22,130611,,,D*4A
$GPVTG,31.22,T,,M,2.24,N,4.2,K,D*38
$GPGGA,203136.000,3748.7392,N,12217.6980,W,2,06,1.1,15.1,M,-25.1,M,5.8,0000*74
$GPGSA,A,3,05,13,19,03,23,28,,,,,,,2.1,1.1,1.7*30
$GPGSV,3,1,12,13,73,086,33,07,60,307,23,10,43,274,21,23,42,121,39*7F
$GPGSV,3,2,12,08,37,277,21,03,27,076,39,19,21,109,38,06,19,062,38*72
$GPGSV,3,3,12,16,18,042,27,28,13,211,20,05,12,319,20,20,05,173,*72
$GPRMC,203136.000,A,3748.7392,N,12217.6980,W,2.34,22.22,130611,,,D*4A
$GPGGA,203137.000,3748.7397,N,12217.6977,W,2,06,1.1,15.0,M,-25.1,M,6.8,0000*7A
$GPGSA,A,3,05,13,19,03,23,28,,,,,,,2.1,1.1,1.7*30
$GPRMC,203137.000,A,3748.7397,N,12217.6977,W,2.23,28.90,130611,,,D*43
$GPVTG,28.90,T,,M,2.23,N,4.1,K,D*3D
$GPGGA,203138.000,3748.7403,N,12217.6975,W,2,06,1.1,14.8,M,-25.1,M,7.8,0000*75
$GPGSA,A,3,05,13,19,03,23,28,,,,,,,2.1,1.1,1.7*30
$GPRMC,203138.000,A,3748.7403,N,12217.6975,W,2.21,23.66,130611,,,D*44
$GPVTG,23.66,T,,M,2.21,N,4.1,K,D*3D
$GPGGA,203139.000,3748.7408,N,12217.6972,W,2,06,1.1,14.6,M,-25.1,M,1.8,0000*70
$GPGSA,A,3,05,13,19,03,23,28,,,,,,,2.1,1.1,1.7*30
$GPRMC,203139.000,A,3748.7408,N,12217.6972,W,2.17,14.78,130611,,,D*47
$GPVTG,14.78,T,,M,2.17,N,4.0,K,D*32
$GPGGA,203140.000,3748.7415,N,12217.6967,W,2,06,1.1,14.9,M,-25.1,M,1.8,0000*79
$GPGSA,A,3,05,13,19,03,23,28,,,,,,,2.1,1.1,1.7*30
$GPRMC,203140.000,A,3748.7415,N,12217.6967,W,2.33,25.63,130611,,,D*4F
$GPVTG,25.63,T,,M,2.33,N,4.3,K,D*3F
$GPGGA,203141.000,3748.7421,N,12217.6960,W,2,06,1.1,15.3,M,-25.1,M,1.8,0000*73
$GPGSA,A,3,05,13,19,03,23,28,,,,,,,2.1,1.1,1.7*30
$GPGSV,3,1,12,13,73,086,33,07,60,307,27,10,43,274,21,23,42,121,39*7B
$GPGSV,3,2,12,08,37,277,21,03,27,076,40,19,21,109,39,06,19,062,36*73
$GPGSV,3,3,12,16,18,042,27,28,13,211,20,05,12,319,20,20,05,173,*72
$GPRMC,203141.000,A,3748.7421,N,12217.6960,W,2.22,33.65,130611,,,D*4F
$GPVTG,33.65,T,,M,2.22,N,4.1,K,D*3C
$GPGGA,203142.000,3748.7423,N,12217.6954,W,2,06,1.1,15.5,M,-25.1,M,2.8,0000*70
$GPGSA,A,3,05,13,19,03,23,28,,,,,,,2.1,1.1,1.7*30
$GPRMC,203142.000,A,3748.7423,N,12217.6954,W,1.98,33.80,130611,,,D*40
$GPVTG,33.80,T,,M,1.98,N,3.7,K,D*34
$GPGGA,203143.000,3748.7427,N,12217.6946,W,2,06,1.1,16.1,M,-25.1,M,3.8,0000*70
$GPGSA,A,3,05,13,19,03,23,28,,,,,,,2.1,1.1,1.7*30
$GPRMC,203143.000,A,3748.7427,N,12217.6946,W,2.26,29.23,130611,,,D*42
$GPVTG,29.23,T,,M,2.26,N,4.2,K,D*32
$GPGGA,203144.000,3748.7431,N,12217.6940,W,2,06,1.1,16.3,M,-25.1,M,4.8,0000*73
$GPGSA,A,3,05,13,19,03,23,28,,,,,,,2.1,1.1,1.7*30
$GPRMC,203144.000,A,3748.7431,N,12217.6940,W,2.05,20.96,130611,,,D*42
$GPVTG,20.96,T,,M,2.05,N,3.8,K,D*39
$GPGGA,203145.000,3748.7434,N,12217.6936,W,2,06,1.1,16.4,M,-25.1,M,1.8,0000*74
$GPGSA,A,3,05,13,19,03,23,28,,,,,,,2.1,1.1,1.7*30
$GPRMC,203145.000,A,3748.7434,N,12217.6936,W,1.81,23.09,130611,,,D*4D
$GPVTG,23.09,T,,M,1.81,N,3.4,K,D*3F
$GPGGA,203146.000,3748.7440,N,12217.6932,W,2,06,1.1,16.5,M,-25.1,M,1.8,0000*71
$GPGSA,A,3,05,13,19,03,23,28,,,,,,,2.1,1.1,1.7*30
$GPGSV,3,1,12,13,73,086,31,07,60,307,28,10,43,274,22,23,42,121,39*75
$GPGSV,3,2,12,08,37,277,21,03,27,076,39,19,21,109,39,06,19,062,37*7C
$GPGSV,3,3,12,16,18,042,28,28,13,211,21,05,12,319,19,20,05,173,*76
$GPRMC,203146.000,A,3748.7440,N,12217.6932,W,1.97,13.92,130611,,,D*4F
$GPVTG,13.92,T,,M,1.97,N,3.6,K,D*3B
$GPGGA,203147.000,3748.7447,N,12217.6931,W,2,06,1.1,17.3,M,-25.1,M,1.8,0000*73
$GPGSA,A,3,05,13,19,03,23,28,,,,,,,2.1,1.1,1.7*30
$GPRMC,203147.000,A,3748.7447,N,12217.6931,W,1.90,20.51,130611,,,D*42
$GPVTG,20.51,T,,M,1.90,N,3.5,K,D*30
$GPGGA,203148.000,3748.7451,N,12217.6930,W,2,06,1.1,16.6,M,-25.1,M,2.8,0000*7D
$GPGSA,A,3,05,13,19,03,23,28,,,,,,,2.1,1.1,1.7*30
$GPRMC,203148.000,A,3748.7451,N,12217.6930,W,1.93,23.29,130611,,,D*44
$GPVTG,23.29,T,,M,1.93,N,3.6,K,D*3C
