$ADVER,3080,2.3
$GPRMC,232017.302,A,3748.8086,N,12217.8685,W,1.47,131.51,010611,,,A*70
$GPGGA,232111.301,3748.8109,N,12217.8738,W,1,03,3.7,-14.1,M,-25.1,M,,0000*70
$GPGSA,A,2,10,08,19,,,,,,,,,,3.8,3.7,1.0*3C
$GPRMC,232111.301,A,3748.8109,N,12217.8738,W,0.13,100.42,010611,,,A*75
$GPVTG,100.42,T,,M,0.13,N,0.2,K,N*05
$GPGGA,232121.301,3748.7971,N,12217.8679,W,1,04,2.1,16.6,M,-25.1,M,,0000*57
$GPGSA,A,3,10,08,05,19,,,,,,,,,3.2,2.1,2.5*33
$GPRMC,232121.301,A,3748.7971,N,12217.8679,W,2.31,102.44,010611,,,A*7C
$GPVTG,102.44,T,,M,2.31,N,4.3,K,A*09
$GPGGA,232122.301,3748.7938,N,12217.8661,W,1,04,2.1,25.4,M,-25.1,M,,0000*52
$GPGSA,A,3,10,08,05,19,,,,,,,,,3.2,2.1,2.5*33
$GPRMC,232122.301,A,3748.7938,N,12217.8661,W,5.49,116.37,010611,,,A*72
$GPVTG,116.37,T,,M,5.49,N,10.2,K,A*34
$GPGGA,232123.301,3748.7971,N,12217.8685,W,1,03,2.3,18.4,M,-25.1,M,,0000*5F
$GPGSA,A,2,10,08,05,,,,,,,,,,2.5,2.3,1.0*38
$GPRMC,232123.301,A,3748.7971,N,12217.8685,W,6.73,118.87,010611,,,A*7B
$GPVTG,118.87,T,,M,6.73,N,12.5,K,N*31
$GPGGA,232124.000,3748.7986,N,12217.8643,W,1,04,2.1,8.3,M,-25.1,M,,0000*6B
$GPGSA,A,3,10,08,05,19,,,,,,,,,3.2,2.1,2.5*33
$GPGSV,3,1,11,08,65,000,32,19,24,050,19,05,19,269,30,10,13,220,33*72
$GPGSV,3,2,11,03,00,035,,28,63,256,36,07,56,069,24,26,28,316,26*75
$GPGSV,3,3,11,13,23,151,35,17,13,186,29,11,12,104,15*4B
$GPRMC,232124.000,A,3748.7986,N,12217.8643,W,7.22,115.74,010611,,,A*78
$GPVTG,115.74,T,,M,7.22,N,13.4,K,A*3A
$GPGGA,232125.000,3748.8000,N,12217.8615,W,1,04,2.1,0.1,M,-25.1,M,,0000*6B
$GPGSA,A,3,10,08,05,19,,,,,,,,,3.2,2.1,2.5*33
$GPRMC,232125.000,A,3748.8000,N,12217.8615,W,5.26,109.41,010611,,,A*7F
$GPVTG,109.41,T,,M,5.26,N,9.7,K,A*0F
$GPGGA,232126.000,3748.8006,N,12217.8613,W,1,04,2.1,-1.9,M,-25.1,M,,0000*4C
$GPGSA,A,3,10,08,05,19,,,,,,,,,3.2,2.1,2.5*33
$GPRMC,232126.000,A,3748.8006,N,12217.8613,W,2.58,100.46,010611,,,A*7C
$GPVTG,100.46,T,,M,2.58,N,4.8,K,A*0D
$GPGGA,232127.000,3748.8007,N,12217.8615,W,1,04,2.1,-2.7,M,-25.1,M,,0000*47
$GPGSA,A,3,10,08,05,19,,,,,,,,,3.2,2.1,2.5*33
$GPRMC,232127.000,A,3748.8007,N,12217.8615,W,1.04,100.77,010611,,,A*72
$GPVTG,100.77,T,,M,1.04,N,1.9,K,A*01
$GPGGA,232128.000,3748.8010,N,12217.8625,W,1,04,2.1,-2.2,M,-25.1,M,,0000*48
$GPGSA,A,3,10,08,05,19,,,,,,,,,3.2,2.1,2.5*33
$GPRMC,232128.000,A,3748.8010,N,12217.8625,W,0.96,335.20,010611,,,A*74
$GPVTG,335.20,T,,M,0.96,N,1.8,K,A*0C
$GPGGA,232129.000,3748.8024,N,12217.8641,W,1,04,2.1,-4.8,M,-25.1,M,,0000*40
$GPGSA,A,3,10,08,05,19,,,,,,,,,3.2,2.1,2.5*33
$GPGSV,3,1,11,08,65,000,34,19,24,050,27,05,19,269,25,10,13,220,29*76
$GPGSV,3,2,11,03,00,035,,28,63,256,28,07,56,069,26,26,28,316,23*7D
$GPGSV,3,3,11,13,23,151,26,17,13,186,26,11,12,104,19*4A
$GPRMC,232129.000,A,3748.8024,N,12217.8641,W,1.19,283.50,010611,,,A*7D
$GPVTG,283.50,T,,M,1.19,N,2.2,K,A*08
$GPGGA,232130.000,3748.8023,N,12217.8644,W,1,04,2.1,-5.3,M,-25.1,M,,0000*40
$GPGSA,A,3,10,08,05,19,,,,,,,,,3.2,2.1,2.5*33
$GPRMC,232130.000,A,3748.8023,N,12217.8644,W,0.16,248.95,010611,,,A*77
$GPVTG,248.95,T,,M,0.16,N,0.3,K,A*0B
$GPGGA,232131.000,3748.8022,N,12217.8642,W,1,04,2.1,-6.4,M,-25.1,M,,0000*42
$GPGSA,A,3,10,08,05,19,,,,,,,,,3.2,2.1,2.5*33
$GPRMC,232131.000,A,3748.8022,N,12217.8642,W,0.38,135.63,010611,,,A*7D
$GPVTG,135.63,T,,M,0.38,N,0.7,K,A*03
$GPGGA,232132.000,3748.8021,N,12217.8643,W,1,04,2.1,-6.7,M,-25.1,M,,0000*40
$GPGSA,A,3,10,08,05,19,,,,,,,,,3.2,2.1,2.5*33
$GPRMC,232132.000,A,3748.8021,N,12217.8643,W,0.90,167.07,010611,,,A*7B
$GPVTG,167.07,T,,M,0.90,N,1.7,K,A*05
$GPGGA,232133.000,3748.8020,N,12217.8649,W,1,04,2.1,-7.6,M,-25.1,M,,0000*4A
$GPGSA,A,3,10,08,05,19,,,,,,,,,3.2,2.1,2.5*33
$GPRMC,232133.000,A,3748.8020,N,12217.8649,W,0.89,238.38,010611,,,A*7C
$GPVTG,238.38,T,,M,0.89,N,1.7,K,A*08
$GPGGA,232134.000,3748.8018,N,12217.8655,W,1,04,2.1,-7.6,M,-25.1,M,,0000*4B
$GPGSA,A,3,10,08,05,19,,,,,,,,,3.2,2.1,2.5*33
$GPGSV,3,1,11,08,65,000,17,19,24,050,20,05,19,269,31,10,13,220,39*74
$GPGSV,3,2,11,03,00,035,,28,63,256,28,07,56,069,19,26,28,316,22*70
$GPGSV,3,3,11,13,23,151,27,17,13,186,27,11,12,104,*42
$GPRMC,232134.000,A,3748.8018,N,12217.8655,W,1.08,246.39,010611,,,A*7D
$GPVTG,246.39,T,,M,1.08,N,2.0,K,A*0C
$GPGGA,232135.000,3748.8014,N,12217.8664,W,1,04,2.1,-5.3,M,-25.1,M,,0000*43
$GPGSA,A,3,10,08,05,19,,,,,,,,,3.2,2.1,2.5*33
$GPRMC,232135.000,A,3748.8014,N,12217.8664,W,1.32,246.29,010611,,,A*7A
$GPVTG,246.29,T,,M,1.32,N,2.4,K,A*00
$GPGGA,232136.000,3748.8011,N,12217.8672,W,1,04,2.1,-4.1,M,-25.1,M,,0000*41
$GPGSA,A,3,10,08,05,19,,,,,,,,,3.2,2.1,2.5*33
$GPRMC,232136.000,A,3748.8011,N,12217.8672,W,1.09,249.53,010611,,,A*71
$GPVTG,249.53,T,,M,1.09,N,2.0,K,A*0E
$GPGGA,232137.000,3748.8013,N,12217.8670,W,1,04,2.1,-6.0,M,-25.1,M,,0000*43
$GPGSA,A,3,10,08,05,19,,,,,,,,,3.2,2.1,2.5*33
$GPRMC,232137.000,A,3748.8013,N,12217.8670,W,0.26,17.72,010611,,,A*46
$GPVTG,17.72,T,,M,0.26,N,0.5,K,A*3F
$GPGGA,232138.000,3748.8018,N,12217.8667,W,1,04,2.1,-9.2,M,-25.1,M,,0000*4C
$GPGSA,A,3,10,08,05,19,,,,,,,,,3.2,2.1,2.5*33
$GPRMC,232138.000,A,3748.8018,N,12217.8667,W,0.52,34.80,010611,,,A*4B
$GPVTG,34.80,T,,M,0.52,N,1.0,K,A*34
$GPGGA,232139.000,3748.8020,N,12217.8663,W,1,04,2.1,-10.1,M,-25.1,M,,0000*79
$GPGSA,A,3,10,08,05,19,,,,,,,,,3.2,2.1,2.5*33
$GPGSV,3,1,11,08,65,000,21,19,24,050,24,05,19,269,32,10,13,220,39*76
$GPGSV,3,2,11,03,00,035,,28,63,256,30,07,56,069,22,26,28,316,29*7A
$GPGSV,3,3,11,13,23,151,31,17,13,186,29,11,12,104,*4B
$GPVTG,40.98,T,,M,0.65,N,1.2,K,A*38
$GPGGA,232140.000,3748.8022,N,12217.8658,W,1,04,2.1,-9.6,M,-25.1,M,,0000*42
$GPGSA,A,3,10,08,05,19,,,,,,,,,3.2,2.1,2.5*33
$GPRMC,232140.000,A,3748.8022,N,12217.8658,W,0.53,14.61,010611,,,A*4D
$GPVTG,14.61,T,,M,0.53,N,1.0,K,A*38
$GPGGA,232141.000,3748.8023,N,12217.8655,W,1,04,2.1,-9.3,M,-25.1,M,,0000*4A
$GPGSA,A,3,10,08,05,19,,,,,,,,,3.2,2.1,2.5*33
$GPRMC,232141.000,A,3748.8023,N,12217.8655,W,0.31,30.79,010611,,,A*4B
$GPVTG,30.79,T,,M,0.31,N,0.6,K,A*34
$GPGGA,232142.000,3748.8027,N,12217.8649,W,1,04,2.1,-11.8,M,-25.1,M,,0000*72
$GPGSA,A,3,10,08,05,19,,,,,,,,,3.2,2.1,2.5*33
$GPRMC,232142.000,A,3748.8027,N,12217.8649,W,0.77,41.42,010611,,,A*4D
$GPVTG,41.42,T,,M,0.77,N,1.4,K,A*3B
$GPGGA,232143.000,3748.8030,N,12217.8646,W,1,04,2.1,-12.1,M,-25.1,M,,0000*70
$GPGSA,A,3,10,08,05,19,,,,,,,,,3.2,2.1,2.5*33
$GPRMC,232143.000,A,3748.8030,N,12217.8646,W,0.73,49.10,010611,,,A*4E
$GPVTG,49.10,T,,M,0.73,N,1.3,K,A*37
$GPGGA,232144.000,3748.8030,N,12217.8647,W,1,04,2.1,-11.3,M,-25.1,M,,0000*77
$GPGSA,A,3,10,08,05,19,,,,,,,,,3.2,2.1,2.5*33
$GPGSV,3,1,11,08,65,000,28,19,24,050,25,05,19,269,35,10,13,220,36*76
$GPGSV,3,2,11,03,00,035,,28,63,256,29,07,56,069,24,26,28,316,29*74
$GPGSV,3,3,11,13,23,151,34,17,13,186,29,11,12,104,23*4F
$GPRMC,232144.000,A,3748.8030,N,12217.8647,W,0.74,308.05,010611,,,A*7D
$GPVTG,308.05,T,,M,0.74,N,1.4,K,A*05
$GPGGA,232145.000,3748.8029,N,12217.8646,W,1,04,2.1,-9.6,M,-25.1,M,,0000*43
$GPGSA,A,3,10,08,05,19,,,,,,,,,3.2,2.1,2.5*33
$GPRMC,232145.000,A,3748.8029,N,12217.8646,W,1.93,60.96,010611,,,A*4A
$GPVTG,60.96,T,,M,1.93,N,3.6,K,A*3A
$GPGGA,232146.000,3748.8027,N,12217.8639,W,1,04,2.1,-8.0,M,-25.1,M,,0000*41
$GPGSA,A,3,10,08,05,19,,,,,,,,,3.2,2.1,2.5*33
$GPRMC,232146.000,A,3748.8027,N,12217.8639,W,1.40,35.85,010611,,,A*43
$GPVTG,35.85,T,,M,1.40,N,2.6,K,A*37
$GPGGA,232147.000,3748.8031,N,12217.8641,W,1,04,2.1,-6.7,M,-25.1,M,,0000*41
$GPGSA,A,3,10,08,05,19,,,,,,,,,3.2,2.1,2.5*33
$GPRMC,232147.000,A,3748.8031,N,12217.8641,W,1.59,2.25,010611,,,A*7C
$GPVTG,2.25,T,,M,1.59,N,2.9,K,A*0E
$GPGGA,232148.000,3748.8036,N,12217.8640,W,1,04,2.1,-5.7,M,-25.1,M,,0000*4B
$GPGSA,A,3,10,08,05,19,,,,,,,,,3.2,2.1,2.5*33
$GPRMC,232148.000,A,3748.8036,N,12217.8640,W,2.27,16.71,010611,,,A*4B
$GPVTG,16.71,T,,M,2.27,N,4.2,K,A*3D
$GPGGA,232149.000,3748.8043,N,12217.8633,W,1,04,2.1,-5.3,M,-25.1,M,,0000*48
$GPGSA,A,3,10,08,05,19,,,,,,,,,3.2,2.1,2.5*33
$GPGSV,3,1,12,08,65,000,28,19,24,050,32,05,19,269,37,10,13,220,35*72
$GPGSV,3,2,12,03,00,035,,28,63,256,35,07,56,069,34,26,28,316,28*7A
$GPGSV,3,3,12,13,23,151,34,17,13,186,36,11,12,104,22,46,41,141,32*71
$GPRMC,232149.000,A,3748.8043,N,12217.8633,W,3.36,36.59,010611,,,A*45
$GPVTG,36.59,T,,M,3.36,N,6.2,K,A*36
$GPGGA,232150.000,3748.8051,N,12217.8626,W,1,04,2.1,-4.7,M,-25.1,M,,0000*42
$GPGSA,A,3,10,08,05,19,,,,,,,,,3.2,2.1,2.5*33
$GPRMC,232150.000,A,3748.8051,N,12217.8626,W,2.29,29.93,010611,,,A*4D
$GPVTG,29.93,T,,M,2.29,N,4.2,K,A*33
$GPGGA,232151.000,3748.8058,N,12217.8620,W,1,04,2.1,-5.2,M,-25.1,M,,0000*48
$GPGSA,A,3,10,08,05,19,,,,,,,,,3.2,2.1,2.5*33
$GPRMC,232151.000,A,3748.8058,N,12217.8620,W,1.94,34.65,010611,,,A*43
$GPVTG,34.65,T,,M,1.94,N,3.6,K,A*30
$GPGGA,232152.000,3748.8066,N,12217.8616,W,1,04,2.1,-6.1,M,-25.1,M,,0000*43
$GPGSA,A,3,10,08,05,19,,,,,,,,,3.2,2.1,2.5*33
$GPRMC,232152.000,A,3748.8066,N,12217.8616,W,1.86,54.71,010611,,,A*48
$GPVTG,54.71,T,,M,1.86,N,3.4,K,A*32
$GPGGA,232153.000,3748.8067,N,12217.8606,W,1,04,2.1,-5.9,M,-25.1,M,,0000*49
$GPGSA,A,3,10,08,05,19,,,,,,,,,3.2,2.1,2.5*33
$GPRMC,232153.000,A,3748.8067,N,12217.8606,W,1.79,75.20,010611,,,A*4E
$GPVTG,75.20,T,,M,1.79,N,3.3,K,A*32
$GPGGA,232154.000,3748.8067,N,12217.8597,W,1,04,2.1,-6.0,M,-25.1,M,,0000*4F
$GPGSA,A,3,10,08,05,19,,,,,,,,,3.2,2.1,2.5*33
$GPGSV,3,1,12,08,66,001,31,28,63,256,23,07,56,070,35,26,28,316,29*78
$GPGSV,3,2,12,19,24,050,39,13,23,151,30,05,19,268,25,17,13,186,21*71
$GPGSV,3,3,12,10,13,220,18,11,12,104,29,03,00,035,,46,41,141,30*78
$GPRMC,232154.000,A,3748.8067,N,12217.8597,W,1.53,98.92,010611,,,A*40
$GPGGA,232155.000,3748.8069,N,12217.8592,W,1,04,2.1,-6.6,M,-25.1,M,,0000*43
$GPGSA,A,3,10,08,05,19,,,,,,,,,3.2,2.1,2.5*33
$GPRMC,232155.000,A,3748.8069,N,12217.8592,W,1.72,105.95,010611,,,A*7B
$GPVTG,105.95,T,,M,1.72,N,3.2,K,A*00
$GPGGA,232156.000,3748.8078,N,12217.8589,W,1,04,2.1,-7.0,M,-25.1,M,,0000*4D
$GPGSA,A,3,10,08,05,19,,,,,,,,,3.2,2.1,2.5*33
$GPRMC,232156.000,A,3748.8078,N,12217.8589,W,1.94,89.23,010611,,,A*42
$GPVTG,89.23,T,,M,1.94,N,3.6,K,A*34
$GPGGA,232157.000,3748.8080,N,12217.8581,W,1,04,2.1,-7.0,M,-25.1,M,,0000*43
$GPGSA,A,3,10,08,05,19,,,,,,,,,3.2,2.1,2.5*33
$GPRMC,232157.000,A,3748.8080,N,12217.8581,W,1.45,73.49,010611,,,A*49
$GPVTG,73.49,T,,M,1.45,N,2.7,K,A*31
$GPGGA,232158.000,3748.8081,N,12217.8575,W,1,04,2.1,-7.3,M,-25.1,M,,0000*45
$GPGSA,A,3,10,08,05,19,,,,,,,,,3.2,2.1,2.5*33
$GPRMC,232158.000,A,3748.8081,N,12217.8575,W,1.49,45.47,010611,,,A*4B
$GPVTG,45.47,T,,M,1.49,N,2.8,K,A*39
$GPGGA,232159.000,3748.8082,N,12217.8566,W,1,04,2.1,-7.1,M,-25.1,M,,0000*47
$GPGSA,A,3,10,08,05,19,,,,,,,,,3.2,2.1,2.5*33
$GPGSV,3,1,12,08,66,001,31,28,63,256,22,07,56,070,35,26,28,316,30*71
$GPGSV,3,2,12,19,24,050,40,13,23,151,29,05,19,268,25,17,13,186,21*77
$GPGSV,3,3,12,10,13,220,20,11,12,104,27,03,00,035,,46,41,141,30*7D
$GPRMC,232159.000,A,3748.8082,N,12217.8566,W,1.87,43.87,010611,,,A*43
$GPVTG,43.87,T,,M,1.87,N,3.5,K,A*3D
$GPGGA,232200.000,3748.8087,N,12217.8557,W,1,04,2.1,-6.3,M,-25.1,M,,0000*4C
$GPGSA,A,3,10,08,05,19,,,,,,,,,3.2,2.1,2.5*33
$GPRMC,232200.000,A,3748.8087,N,12217.8557,W,2.46,23.31,010611,,,A*4E
$GPVTG,23.31,T,,M,2.46,N,4.6,K,A*3C
$GPGGA,232201.000,3748.8092,N,12217.8552,W,1,04,2.1,-5.8,M,-25.1,M,,0000*44
$GPGSA,A,3,10,08,05,19,,,,,,,,,3.2,2.1,2.5*33
$GPRMC,232201.000,A,3748.8092,N,12217.8552,W,1.68,9.31,010611,,,A*79
$GPVTG,9.31,T,,M,1.68,N,3.1,K,A*0B
$GPGGA,232202.000,3748.8097,N,12217.8552,W,1,04,2.1,-6.2,M,-25.1,M,,0000*4B
$GPGSA,A,3,10,08,05,19,,,,,,,,,3.2,2.1,2.5*33
$GPRMC,232202.000,A,3748.8097,N,12217.8552,W,0.45,9.52,010611,,,A*74
$GPVTG,9.52,T,,M,0.45,N,0.8,K,A*0A
$GPGGA,232203.000,3748.8100,N,12217.8555,W,1,04,2.1,-6.5,M,-25.1,M,,0000*45
$GPGSA,A,3,10,08,05,19,,,,,,,,,3.2,2.1,2.5*33
$GPRMC,232203.000,A,3748.8100,N,12217.8555,W,1.19,261.71,010611,,,A*78
$GPVTG,261.71,T,,M,1.19,N,2.2,K,A*07
$GPGGA,232204.000,3748.8102,N,12217.8555,W,1,04,2.1,-6.5,M,-25.1,M,,0000*40
$GPGSA,A,3,10,08,05,19,,,,,,,,,3.2,2.1,2.5*33
$GPGSV,3,1,11,08,66,001,32,28,63,256,30,07,56,070,24,26,28,316,39*7B
$GPGSV,3,2,11,19,24,050,31,13,23,151,20,05,19,268,32,17,13,186,22*7E
$GPGSV,3,3,11,10,13,220,30,11,12,104,20,03,00,035,*48
$GPRMC,232204.000,A,3748.8102,N,12217.8555,W,1.00,45.46,010611,,,A*45
$GPVTG,45.46,T,,M,1.00,N,1.9,K,A*37
$GPGGA,232205.000,3748.8100,N,12217.8545,W,1,04,2.1,-5.8,M,-25.1,M,,0000*4C
$GPGSA,A,3,10,08,05,19,,,,,,,,,3.2,2.1,2.5*33
$GPRMC,232205.000,A,3748.8100,N,12217.8545,W,1.52,41.55,010611,,,A*46
$GPVTG,41.55,T,,M,1.52,N,2.8,K,A*34
$GPGGA,232206.000,3748.8105,N,12217.8539,W,1,04,2.1,-5.5,M,-25.1,M,,0000*4C
$GPGSA,A,3,10,08,05,19,,,,,,,,,3.2,2.1,2.5*33
$GPRMC,232206.000,A,3748.8105,N,12217.8539,W,1.91,29.59,010611,,,A*46
$GPVTG,29.59,T,,M,1.91,N,3.5,K,A*35
$GPGGA,232207.000,3748.8116,N,12217.8536,W,1,04,2.1,-5.3,M,-25.1,M,,0000*46
$GPGSA,A,3,10,08,05,19,,,,,,,,,3.2,2.1,2.5*33
$GPRMC,232207.000,A,3748.8116,N,12217.8536,W,2.54,17.75,010611,,,A*43
$GPVTG,17.75,T,,M,2.54,N,4.7,K,A*39
$GPGGA,232208.000,3748.8129,N,12217.8535,W,1,04,2.1,-5.5,M,-25.1,M,,0000*40
$GPGSA,A,3,10,08,05,19,,,,,,,,,3.2,2.1,2.5*33
$GPRMC,232208.000,A,3748.8129,N,12217.8535,W,2.38,15.03,010611,,,A*4A
$GPVTG,15.03,T,,M,2.38,N,4.4,K,A*33
$GPGGA,232209.000,3748.8139,N,12217.8532,W,1,04,2.1,-5.5,M,-25.1,M,,0000*47
$GPGSA,A,3,10,08,05,19,,,,,,,,,3.2,2.1,2.5*33
$GPGSV,3,1,12,08,66,001,32,28,63,256,21,07,56,070,35,26,28,316,32*73
$GPGSV,3,2,12,19,24,050,40,13,23,151,30,05,19,268,24,17,13,186,22*7D
$GPGSV,3,3,12,10,13,220,20,11,12,104,26,03,00,035,,46,41,141,30*7C
$GPRMC,232209.000,A,3748.8139,N,12217.8532,W,1.75,19.36,010611,,,A*4D
$GPGGA,232210.000,3748.8148,N,12217.8531,W,1,04,2.1,-6.0,M,-25.1,M,,0000*4C
$GPGSA,A,3,10,08,05,19,,,,,,,,,3.2,2.1,2.4*32
$GPRMC,232210.000,A,3748.8148,N,12217.8531,W,1.32,33.79,010611,,,A*40
$GPVTG,33.79,T,,M,1.32,N,2.4,K,A*35
$GPGGA,232211.000,3748.8158,N,12217.8527,W,1,04,2.1,-5.6,M,-25.1,M,,0000*4E
$GPGSA,A,3,10,08,05,19,,,,,,,,,3.2,2.1,2.4*32
$GPRMC,232211.000,A,3748.8158,N,12217.8527,W,2.35,33.40,010611,,,A*49
$GPVTG,33.40,T,,M,2.35,N,4.3,K,A*3A
$GPGGA,232212.000,3748.8164,N,12217.8520,W,1,04,2.1,-4.7,M,-25.1,M,,0000*45
$GPGSA,A,3,10,08,05,19,,,,,,,,,3.2,2.1,2.4*32
$GPRMC,232212.000,A,3748.8164,N,12217.8520,W,1.36,27.80,010611,,,A*4B
$GPVTG,27.80,T,,M,1.36,N,2.5,K,A*33
$GPGGA,232213.000,3748.8171,N,12217.8518,W,1,04,2.1,-4.3,M,-25.1,M,,0000*4F
$GPGSA,A,3,10,08,05,19,,,,,,,,,3.2,2.1,2.4*32
$GPRMC,232213.000,A,3748.8171,N,12217.8518,W,0.61,342.29,010611,,,A*75
$GPVTG,342.29,T,,M,0.61,N,1.1,K,A*04
$GPGGA,232214.000,3748.8178,N,12217.8521,W,1,04,2.1,-4.5,M,-25.1,M,,0000*4D
$GPGSA,A,3,10,08,05,19,,,,,,,,,3.2,2.1,2.4*32
$GPGSV,3,1,11,08,66,001,32,28,63,256,23,07,56,070,35,26,28,316,30*70
$GPGSV,3,2,11,19,24,050,41,13,23,151,37,05,19,268,24,17,13,186,29*73
$GPGSV,3,3,11,10,13,220,20,11,12,104,26,03,00,035,*4F
$GPRMC,232214.000,A,3748.8178,N,12217.8521,W,1.01,342.82,010611,,,A*77
$GPVTG,342.82,T,,M,1.01,N,1.9,K,A*0A
$GPGGA,232215.000,3748.8202,N,12217.8537,W,1,04,2.1,-6.2,M,-25.1,M,,0000*40
$GPGSA,A,3,10,08,05,19,,,,,,,,,3.2,2.1,2.4*32
$GPRMC,232215.000,A,3748.8202,N,12217.8537,W,2.50,341.90,010611,,,A*78
$GPVTG,341.90,T,,M,2.50,N,4.6,K,A*07
$GPGGA,232216.000,3748.8209,N,12217.8540,W,1,03,3.8,-6.7,M,-25.1,M,,0000*42
$GPGSA,A,2,10,08,19,,,,,,,,,,3.9,3.8,1.0*32
$GPRMC,232216.000,A,3748.8209,N,12217.8540,W,2.87,339.81,010611,,,A*75
$GPVTG,339.81,T,,M,2.87,N,5.3,K,A*06
$GPGGA,232217.000,3748.8212,N,12217.8543,W,1,04,2.1,-8.0,M,-25.1,M,,0000*4C
$GPGSA,A,3,10,08,05,19,,,,,,,,,3.2,2.1,2.4*32
$GPRMC,232217.000,A,3748.8212,N,12217.8543,W,2.07,7.57,010611,,,A*70
$GPVTG,7.57,T,,M,2.07,N,3.8,K,A*06
$GPGGA,232218.000,3748.8212,N,12217.8537,W,1,04,2.1,-8.1,M,-25.1,M,,0000*41
$GPGSA,A,3,10,08,05,19,,,,,,,,,3.2,2.1,2.4*32
$GPRMC,232218.000,A,3748.8212,N,12217.8537,W,2.50,19.39,010611,,,A*49
$GPVTG,19.39,T,,M,2.50,N,4.6,K,A*3A
$GPGGA,232219.000,3748.8217,N,12217.8533,W,1,04,2.1,-8.6,M,-25.1,M,,0000*46
$GPGSA,A,3,10,08,05,19,,,,,,,,,3.2,2.1,2.4*32
$GPGSV,3,1,11,08,66,001,32,28,63,256,26,07,56,070,35,26,28,316,36*73
$GPGSV,3,2,11,19,24,050,39,13,23,151,32,05,19,268,23,17,13,186,24*73
$GPRMC,232219.000,A,3748.8217,N,12217.8533,W,1.98,36.30,010611,,,A*4A
$GPVTG,36.30,T,,M,1.98,N,3.7,K,A*3F
$GPGGA,232220.000,3748.8221,N,12217.8527,W,1,04,2.1,-8.7,M,-25.1,M,,0000*4D
$GPGSA,A,3,10,08,05,19,,,,,,,,,3.2,2.1,2.4*32
$GPRMC,232220.000,A,3748.8221,N,12217.8527,W,1.61,60.84,010611,,,A*4A
$GPVTG,60.84,T,,M,1.61,N,3.0,K,A*32
$GPGGA,232221.000,3748.8227,N,12217.8523,W,1,04,2.1,-9.1,M,-25.1,M,,0000*49
$GPGSA,A,3,10,08,05,19,,,,,,,,,3.2,2.1,2.4*32
$GPRMC,232221.000,A,3748.8227,N,12217.8523,W,1.69,36.19,010611,,,A*46
$GPVTG,36.19,T,,M,1.69,N,3.1,K,A*3C
$GPGGA,232222.000,3748.8238,N,12217.8523,W,1,04,2.1,-9.8,M,-25.1,M,,0000*4D
$GPGSA,A,3,10,08,05,19,,,,,,,,,3.2,2.1,2.4*32
$GPRMC,232222.000,A,3748.8238,N,12217.8523,W,2.26,12.67,010611,,,A*4C
$GPVTG,12.67,T,,M,2.26,N,4.2,K,A*3F
$GPGGA,232223.000,3748.8250,N,12217.8524,W,1,04,2.1,-10.7,M,-25.1,M,,0000*72
$GPGSA,A,3,10,08,05,19,,,,,,,,,3.2,2.1,2.4*32
$GPRMC,232223.000,A,3748.8250,N,12217.8524,W,1.80,29.56,010611,,,A*41
$GPVTG,29.56,T,,M,1.80,N,3.3,K,A*3C
$GPGGA,232224.000,3748.8251,N,12217.8516,W,1,04,2.1,-10.5,M,-25.1,M,,0000*77
$GPGSA,A,3,10,08,05,19,,,,,,,,,3.2,2.1,2.4*32
$GPGSV,3,1,11,08,66,001,32,28,63,256,26,07,56,070,35,26,28,316,30*75
$GPGSV,3,2,11,19,24,050,39,13,23,151,30,05,19,268,25,17,13,186,25*76
$GPGSV,3,3,11,10,13,220,23,11,12,104,31,03,00,035,*4A
$GPRMC,232224.000,A,3748.8251,N,12217.8516,W,1.54,60.64,010611,,,A*43
$GPVTG,60.64,T,,M,1.54,N,2.9,K,A*32
$GPGGA,232225.000,3748.8261,N,12217.8513,W,1,04,2.1,-10.6,M,-25.1,M,,0000*73
$GPGSA,A,3,10,08,05,19,,,,,,,,,3.2,2.1,2.4*32
$GPRMC,232225.000,A,3748.8261,N,12217.8513,W,1.91,26.91,010611,,,A*45
$GPVTG,26.91,T,,M,1.91,N,3.5,K,A*3E
$GPGGA,232226.000,3748.8264,N,12217.8506,W,1,04,2.1,-10.5,M,-25.1,M,,0000*72
$GPGSA,A,3,10,08,05,19,,,,,,,,,3.2,2.1,2.4*32
$GPRMC,232226.000,A,3748.8264,N,12217.8506,W,1.85,24.43,010611,,,A*4F
$GPVTG,24.43,T,,M,1.85,N,3.4,K,A*37
$GPGGA,232227.000,3748.8252,N,12217.8490,W,1,04,2.1,-9.2,M,-25.1,M,,0000*47
$GPGSA,A,3,10,08,05,19,,,,,,,,,3.2,2.1,2.4*32
$GPRMC,232227.000,A,3748.8252,N,12217.8490,W,2.14,34.51,010611,,,A*4C
$GPVTG,34.51,T,,M,2.14,N,4.0,K,A*3D
$GPGGA,232228.000,3748.8246,N,12217.8476,W,1,04,2.1,-8.5,M,-25.1,M,,0000*43
$GPGSA,A,3,10,08,05,19,,,,,,,,,3.2,2.1,2.4*32
$GPRMC,232228.000,A,3748.8246,N,12217.8476,W,2.06,55.41,010611,,,A*4B
$GPVTG,55.41,T,,M,2.06,N,3.8,K,A*37
$GPGGA,232229.000,3748.8243,N,12217.8463,W,1,04,2.1,-7.4,M,-25.1,M,,0000*4D
$GPGSA,A,3,10,08,05,19,,,,,,,,,3.2,2.1,2.4*32
$GPGSV,3,1,12,08,66,001,32,28,63,256,26,07,56,070,35,26,28,316,29*7E
$GPGSV,3,2,12,19,24,050,39,13,23,151,30,05,19,268,24,17,13,186,26*77
$GPGSV,3,3,12,10,13,220,22,11,12,104,30,03,00,035,,48,44,197,26*7E
$GPRMC,232229.000,A,3748.8243,N,12217.8463,W,1.54,80.56,010611,,,A*41
$GPVTG,80.56,T,,M,1.54,N,2.9,K,A*3D
$GPGGA,232230.000,3748.8240,N,12217.8451,W,1,04,2.1,-6.6,M,-25.1,M,,0000*44
$GPGSA,A,3,10,08,05,19,,,,,,,,,3.2,2.1,2.4*32
$GPRMC,232230.000,A,3748.8240,N,12217.8451,W,2.01,109.79,010611,,,A*75
$GPVTG,109.79,T,,M,2.01,N,3.7,K,A*0C
$GPGGA,232231.000,3748.8239,N,12217.8444,W,1,04,2.1,-6.4,M,-25.1,M,,0000*4D
$GPGSA,A,3,10,08,05,19,,,,,,,,,3.2,2.1,2.4*32
$GPRMC,232231.000,A,3748.8239,N,12217.8444,W,1.89,117.59,010611,,,A*70
$GPVTG,117.59,T,,M,1.89,N,3.5,K,A*00
$GPGGA,232232.000,3748.8231,N,12217.8433,W,1,04,2.1,-6.0,M,-25.1,M,,0000*42
$GPGSA,A,3,10,08,05,19,,,,,,,,,3.2,2.1,2.4*32
$GPRMC,232232.000,A,3748.8231,N,12217.8433,W,2.13,130.67,010611,,,A*73
$GPVTG,130.67,T,,M,2.13,N,4.0,K,A*0A
$GPGGA,232233.000,3748.8229,N,12217.8424,W,1,04,2.1,-5.5,M,-25.1,M,,0000*4A
$GPGSA,A,3,10,08,05,19,,,,,,,,,3.2,2.1,2.4*32
$GPRMC,232233.000,A,3748.8229,N,12217.8424,W,1.52,119.62,010611,,,A*75
$GPVTG,119.62,T,,M,1.52,N,2.8,K,A*0C
$GPGGA,232234.000,3748.8232,N,12217.8415,W,1,04,2.1,-4.4,M,-25.1,M,,0000*45
$GPGSA,A,3,10,08,05,19,,,,,,,,,3.2,2.1,2.4*32
$GPGSV,3,1,12,08,66,001,33,28,63,256,25,07,56,070,35,26,28,316,29*7C
$GPGSV,3,2,12,19,24,050,39,13,23,151,30,05,19,268,21,17,13,186,26*72
$GPGSV,3,3,12,10,13,220,21,11,12,104,30,03,00,035,,48,44,197,28*73
$GPVTG,75.77,T,,M,2.09,N,3.9,K,A*3E
$GPGGA,232235.000,3748.8237,N,12217.8407,W,1,04,2.1,-4.1,M,-25.1,M,,0000*47
$GPGSA,A,3,10,08,05,19,,,,,,,,,3.2,2.1,2.4*32
$GPRMC,232235.000,A,3748.8237,N,12217.8407,W,2.39,43.95,010611,,,A*45
$GPVTG,43.95,T,,M,2.39,N,4.4,K,A*3E
$GPGGA,232236.000,3748.8234,N,12217.8395,W,1,04,2.1,-3.3,M,-25.1,M,,0000*4E
$GPGSA,A,3,10,08,05,19,,,,,,,,,3.2,2.1,2.4*32
$GPRMC,232236.000,A,3748.8234,N,12217.8395,W,1.99,54.29,010611,,,A*41
$GPVTG,54.29,T,,M,1.99,N,3.7,K,A*32
$GPGGA,232237.000,3748.8236,N,12217.8385,W,1,04,2.1,-2.6,M,-25.1,M,,0000*48
$GPGSA,A,3,10,08,05,19,,,,,,,,,3.2,2.1,2.4*32
$GPRMC,232237.000,A,3748.8236,N,12217.8385,W,1.60,84.29,010611,,,A*48
$GPVTG,84.29,T,,M,1.60,N,3.0,K,A*3E
$GPGGA,232238.000,3748.8252,N,12217.8389,W,1,04,2.1,-3.6,M,-25.1,M,,0000*48
$GPGSA,A,3,10,08,05,19,,,,,,,,,3.2,2.1,2.4*32
$GPRMC,232238.000,A,3748.8252,N,12217.8389,W,1.33,54.95,010611,,,A*45
$GPVTG,54.95,T,,M,1.33,N,2.5,K,A*36
$GPGGA,232239.000,3748.8265,N,12217.8388,W,1,04,2.1,-3.6,M,-25.1,M,,0000*4C
$GPGSA,A,3,10,08,05,19,,,,,,,,,3.2,2.1,2.4*32
$GPGSV,3,1,12,08,66,001,32,28,63,256,25,07,56,070,35,26,28,316,29*7D
$GPGSV,3,2,12,19,24,050,39,13,23,151,34,05,19,268,21,17,13,186,27*77
$GPGSV,3,3,12,10,13,220,21,11,12,104,32,03,00,035,,48,44,197,23*7A
$GPRMC,232239.000,A,3748.8265,N,12217.8388,W,1.36,40.97,010611,,,A*43
$GPVTG,40.97,T,,M,1.36,N,2.5,K,A*34
$GPGGA,232240.000,3748.8266,N,12217.8378,W,1,04,2.1,-2.6,M,-25.1,M,,0000*4F
$GPGSA,A,3,10,08,05,19,,,,,,,,,3.2,2.1,2.4*32
$GPRMC,232240.000,A,3748.8266,N,12217.8378,W,1.66,49.03,010611,,,A*40
$GPVTG,49.03,T,,M,1.66,N,3.1,K,A*30
$GPGGA,232241.000,3748.8267,N,12217.8367,W,1,04,2.1,-1.7,M,-25.1,M,,0000*43
$GPGSA,A,3,10,08,05,19,,,,,,,,,3.2,2.1,2.4*32
$GPRMC,232241.000,A,3748.8267,N,12217.8367,W,1.52,80.33,010611,,,A*4F
$GPVTG,80.33,T,,M,1.52,N,2.8,K,A*39
$GPGGA,232242.000,3748.8276,N,12217.8361,W,1,04,2.1,-1.0,M,-25.1,M,,0000*41
$GPGSA,A,3,10,08,05,19,,,,,,,,,3.2,2.1,2.4*32
$GPRMC,232242.000,A,3748.8276,N,12217.8361,W,1.68,45.75,010611,,,A*48
$GPVTG,45.75,T,,M,1.68,N,3.1,K,A*33
$GPGGA,232243.000,3748.8277,N,12217.8351,W,1,04,2.1,-0.1,M,-25.1,M,,0000*42
$GPGSA,A,3,10,08,05,19,,,,,,,,,3.2,2.1,2.4*32
$GPRMC,232243.000,A,3748.8277,N,12217.8351,W,2.05,85.66,010611,,,A*4D
$GPVTG,85.66,T,,M,2.05,N,3.8,K,A*3C
$GPGGA,232244.000,3748.8278,N,12217.8342,W,1,04,2.1,0.2,M,-25.1,M,,0000*66
$GPGSA,A,3,10,08,05,19,,,,,,,,,3.2,2.1,2.4*32
$GPGSV,3,1,12,08,66,001,32,28,63,256,25,07,56,070,35,26,28,316,27*73
$GPGSV,3,2,12,19,24,050,39,13,23,151,35,05,19,268,21,17,13,186,28*79
$GPGSV,3,3,12,10,13,220,20,11,12,104,35,03,00,035,,48,44,197,23*7C
$GPRMC,232244.000,A,3748.8278,N,12217.8342,W,2.19,100.70,010611,,,A*71
$GPVTG,100.70,T,,M,2.19,N,4.1,K,A*04
$GPGGA,232245.000,3748.8288,N,12217.8338,W,1,04,2.1,0.2,M,-25.1,M,,0000*65
$GPGSA,A,3,10,08,05,19,,,,,,,,,3.2,2.1,2.4*32
$GPRMC,232245.000,A,3748.8288,N,12217.8338,W,1.81,100.82,010611,,,A*7D
$GPVTG,100.82,T,,M,1.81,N,3.3,K,A*0E
$GPGGA,232246.000,3748.8292,N,12217.8332,W,1,04,2.1,0.3,M,-25.1,M,,0000*66
$GPGSA,A,3,10,08,05,19,,,,,,,,,3.2,2.1,2.4*32
$GPRMC,232246.000,A,3748.8292,N,12217.8332,W,2.27,79.54,010611,,,A*44
$GPVTG,79.54,T,,M,2.27,N,4.2,K,A*33
$GPGGA,232247.000,3748.8294,N,12217.8319,W,1,04,2.1,1.3,M,-25.1,M,,0000*69
$GPGSA,A,3,10,08,05,19,,,,,,,,,3.2,2.1,2.4*32
$GPRMC,232247.000,A,3748.8294,N,12217.8319,W,2.36,69.93,010611,,,A*40
$GPVTG,69.93,T,,M,2.36,N,4.4,K,A*3F
$GPGGA,232248.000,3748.8297,N,12217.8309,W,1,04,2.1,2.0,M,-25.1,M,,0000*64
$GPGSA,A,3,10,08,05,19,,,,,,,,,3.2,2.1,2.4*32
$GPRMC,232248.000,A,3748.8297,N,12217.8309,W,2.03,84.53,010611,,,A*44
$GPVTG,84.53,T,,M,2.03,N,3.8,K,A*3D
$GPGGA,232249.000,3748.8293,N,12217.8293,W,1,04,2.1,3.5,M,-25.1,M,,0000*67
$GPGSA,A,3,10,08,05,19,,,,,,,,,3.2,2.1,2.4*32
$GPGSV,3,1,11,08,66,001,33,28,63,256,19,07,56,070,35,26,28,316,27*7E
$GPGSV,3,2,11,19,24,050,39,13,23,151,35,05,19,268,21,17,13,186,34*77
$GPGSV,3,3,11,10,13,220,21,11,12,104,38,03,00,035,*41
$GPRMC,232249.000,A,3748.8293,N,12217.8293,W,2.46,116.59,010611,,,A*72
$GPGGA,232250.000,3748.8305,N,12217.8292,W,1,04,2.1,3.1,M,-25.1,M,,0000*64
$GPGSA,A,3,10,08,05,19,,,,,,,,,3.2,2.1,2.4*32
$GPRMC,232250.000,A,3748.8305,N,12217.8292,W,1.58,79.51,010611,,,A*49
$GPVTG,79.51,T,,M,1.58,N,2.9,K,A*30
$GPGGA,232251.000,3748.8307,N,12217.8282,W,1,04,2.1,4.0,M,-25.1,M,,0000*60
$GPGSA,A,3,10,08,05,19,,,,,,,,,3.2,2.1,2.4*32
$GPRMC,232251.000,A,3748.8307,N,12217.8282,W,1.78,106.81,010611,,,A*7D
$GPVTG,106.81,T,,M,1.78,N,3.3,K,A*0D
$GPGGA,232252.000,3748.8315,N,12217.8281,W,1,04,2.1,3.6,M,-25.1,M,,0000*62
$GPGSA,A,3,10,08,05,19,,,,,,,,,3.2,2.1,2.4*32
$GPRMC,232252.000,A,3748.8315,N,12217.8281,W,1.88,120.55,010611,,,A*7C
$GPVTG,120.55,T,,M,1.88,N,3.5,K,A*09
$GPGGA,232253.000,3748.8323,N,12217.8276,W,1,04,2.1,4.1,M,-25.1,M,,0000*6E
$GPGSA,A,3,10,08,05,19,,,,,,,,,3.2,2.1,2.4*32
$GPRMC,232253.000,A,3748.8323,N,12217.8276,W,1.36,100.82,010611,,,A*7D
$GPVTG,100.82,T,,M,1.36,N,2.5,K,A*05
$GPGGA,232254.000,3748.8329,N,12217.8270,W,1,04,2.1,4.5,M,-25.1,M,,0000*61
$GPGSA,A,3,10,08,05,19,,,,,,,,,3.2,2.1,2.4*32
$GPGSV,3,1,11,08,66,002,33,28,63,257,25,07,56,070,34,26,29,316,26*72
$GPGSV,3,2,11,19,24,049,35,13,22,151,37,05,18,268,24,17,13,186,34*74
$GPGSV,3,3,11,11,12,104,38,10,12,219,25,03,00,035,*4E
$GPRMC,232254.000,A,3748.8329,N,12217.8270,W,1.42,100.86,010611,,,A*71
$GPVTG,100.86,T,,M,1.42,N,2.6,K,A*01
$GPGGA,232255.000,3748.8342,N,12217.8271,W,1,04,2.1,4.0,M,-25.1,M,,0000*69
$GPGSA,A,3,10,08,05,19,,,,,,,,,3.2,2.1,2.4*32
$GPRMC,232255.000,A,3748.8342,N,12217.8271,W,1.50,115.72,010611,,,A*70
$GPVTG,115.72,T,,M,1.50,N,2.8,K,A*03
$GPGGA,232256.000,3748.8355,N,12217.8279,W,1,04,2.1,3.1,M,-25.1,M,,0000*62
$GPGSA,A,3,10,08,05,19,,,,,,,,,3.2,2.1,2.4*32
$GPRMC,232256.000,A,3748.8355,N,12217.8279,W,0.83,112.76,010611,,,A*71
$GPVTG,112.76,T,,M,0.83,N,1.5,K,A*01
$GPGGA,232257.000,3748.8357,N,12217.8280,W,1,05,1.8,2.9,M,-25.1,M,,0000*65
$GPGSA,A,3,10,08,05,19,07,,,,,,,,2.7,1.8,2.0*3F
$GPRMC,232257.000,A,3748.8357,N,12217.8280,W,0.32,72.16,010611,,,A*4F
$GPVTG,72.16,T,,M,0.32,N,0.6,K,A*38
$GPGGA,232258.000,3748.8362,N,12217.8284,W,1,05,1.8,2.6,M,-25.1,M,,0000*67
$GPGSA,A,3,10,08,05,19,07,,,,,,,,2.7,1.8,2.0*3F
$GPRMC,232258.000,A,3748.8362,N,12217.8284,W,0.70,126.21,010611,,,A*70
$GPVTG,126.21,T,,M,0.70,N,1.3,K,A*0E
$GPGGA,232259.000,3748.8362,N,12217.8285,W,1,04,2.1,2.5,M,-25.1,M,,0000*6F
$GPGSA,A,3,10,08,05,19,,,,,,,,,3.2,2.1,2.4*32
$GPGSV,3,1,12,08,66,002,37,28,63,257,25,07,56,071,19,26,29,316,28*75
$GPGSV,3,2,12,19,24,049,17,13,22,151,29,05,18,268,26,17,13,186,28*77
$GPGSV,3,3,12,11,13,104,18,10,12,219,26,03,00,035,,48,44,197,27*7B
$GPVTG,127.44,T,,M,1.28,N,2.4,K,A*04
$GPGGA,232300.000,3748.8372,N,12217.8293,W,1,05,1.8,2.7,M,-25.1,M,,0000*6D
$GPGSA,A,3,10,08,05,19,07,,,,,,,,2.7,1.8,2.0*3F
$GPRMC,232300.000,A,3748.8372,N,12217.8293,W,0.91,81.60,010611,,,A*4D
$GPVTG,81.60,T,,M,0.91,N,1.7,K,A*3C
$GPGGA,232301.000,3748.8386,N,12217.8301,W,1,05,1.8,2.1,M,-25.1,M,,0000*6B
$GPGSA,A,3,10,08,05,19,07,,,,,,,,2.7,1.8,2.0*3F
$GPRMC,232301.000,A,3748.8386,N,12217.8301,W,1.18,70.80,010611,,,A*4D
$GPVTG,70.80,T,,M,1.18,N,2.2,K,A*3A
$GPGGA,232302.000,3748.8398,N,12217.8308,W,1,05,1.8,1.4,M,-25.1,M,,0000*68
$GPGSA,A,3,10,08,05,19,07,,,,,,,,2.7,1.8,2.0*3F
$GPRMC,232302.000,A,3748.8398,N,12217.8308,W,0.79,44.91,010611,,,A*49
$GPVTG,44.91,T,,M,0.79,N,1.5,K,A*3F
$GPGGA,232303.000,3748.8408,N,12217.8318,W,1,05,1.8,0.6,M,-25.1,M,,0000*65
$GPGSA,A,3,10,08,05,19,07,,,,,,,,2.7,1.8,2.0*3F
$GPRMC,232303.000,A,3748.8408,N,12217.8318,W,0.36,310.85,010611,,,A*7B
$GPVTG,310.85,T,,M,0.36,N,0.7,K,A*00
$GPGGA,232304.000,3748.8408,N,12217.8327,W,1,05,1.8,1.7,M,-25.1,M,,0000*6E
$GPGSA,A,3,10,08,05,19,07,,,,,,,,2.7,1.8,2.0*3F
$GPGSV,3,1,12,08,66,002,28,28,63,257,30,07,56,071,19,26,29,316,25*72
$GPGSV,3,2,12,19,24,049,17,13,22,151,19,05,18,268,33,17,13,186,29*71
$GPGSV,3,3,12,11,13,104,17,10,12,219,40,03,00,035,,48,44,197,32*70
$GPRMC,232304.000,A,3748.8408,N,12217.8327,W,0.87,257.43,010611,,,A*72
$GPVTG,257.43,T,,M,0.87,N,1.6,K,A*02
$GPGGA,232305.000,3748.8407,N,12217.8339,W,1,05,1.8,2.5,M,-25.1,M,,0000*6E
$GPGSA,A,3,10,08,05,19,07,,,,,,,,2.7,1.8,2.0*3F
$GPRMC,232305.000,A,3748.8407,N,12217.8339,W,1.82,220.47,010611,,,A*73
$GPVTG,220.47,T,,M,1.82,N,3.4,K,A*02
$GPGGA,232306.000,3748.8402,N,12217.8349,W,1,04,2.1,5.1,M,-25.1,M,,0000*67
$GPGSA,A,3,10,08,05,19,,,,,,,,,3.2,2.1,2.4*32
$GPRMC,232306.000,A,3748.8402,N,12217.8349,W,1.70,235.27,010611,,,A*7D
$GPVTG,235.27,T,,M,1.70,N,3.2,K,A*0B
$GPGGA,232307.000,3748.8404,N,12217.8360,W,1,05,1.8,6.5,M,-25.1,M,,0000*67
$GPGSA,A,3,10,08,05,19,07,,,,,,,,2.7,1.8,2.0*3F
$GPRMC,232307.000,A,3748.8404,N,12217.8360,W,0.64,248.17,010611,,,A*7C
$GPVTG,248.17,T,,M,0.64,N,1.2,K,A*04
$GPGGA,232308.000,3748.8404,N,12217.8368,W,1,05,1.8,8.2,M,-25.1,M,,0000*69
$GPGSA,A,3,10,08,05,19,07,,,,,,,,2.7,1.8,2.0*3F
$GPRMC,232308.000,A,3748.8404,N,12217.8368,W,0.81,246.76,010611,,,A*79
$GPVTG,246.76,T,,M,0.81,N,1.5,K,A*01
$GPGGA,232309.000,3748.8404,N,12217.8369,W,1,05,1.8,8.6,M,-25.1,M,,0000*6D
$GPGSA,A,3,10,08,05,19,07,,,,,,,,2.7,1.8,2.0*3F
$GPGSV,3,1,12,08,66,002,28,28,63,257,22,07,56,071,19,26,29,316,34*71
$GPGSV,3,2,12,19,24,049,18,13,22,151,28,05,18,268,28,17,13,186,43*7A
$GPGSV,3,3,12,11,13,104,,10,12,219,40,03,00,035,,48,44,197,42*71
$GPRMC,232309.000,A,3748.8404,N,12217.8369,W,0.51,221.55,010611,,,A*74
$GPVTG,221.55,T,,M,0.51,N,0.9,K,A*01
$GPGGA,232310.000,3748.8398,N,12217.8365,W,1,05,1.8,9.7,M,-25.1,M,,0000*6B
$GPGSA,A,3,10,08,05,19,07,,,,,,,,2.7,1.8,2.0*3F
$GPRMC,232310.000,A,3748.8398,N,12217.8365,W,0.43,187.65,010611,,,A*7D
$GPVTG,187.65,T,,M,0.43,N,0.8,K,A*0F
$GPGGA,232311.000,3748.8402,N,12217.8371,W,1,05,1.8,10.0,M,-25.1,M,,0000*54
$GPGSA,A,3,10,08,05,19,07,,,,,,,,2.7,1.8,2.0*3F
$GPRMC,232311.000,A,3748.8402,N,12217.8371,W,0.42,234.21,010611,,,A*77
$GPVTG,234.21,T,,M,0.42,N,0.8,K,A*05
$GPGGA,232312.000,3748.8399,N,12217.8372,W,1,05,1.8,11.7,M,-25.1,M,,0000*57
$GPGSA,A,3,10,08,05,19,07,,,,,,,,2.7,1.8,2.0*3F
$GPRMC,232312.000,A,3748.8399,N,12217.8372,W,0.39,200.53,010611,,,A*7C
$GPVTG,200.53,T,,M,0.39,N,0.7,K,A*04
$GPGGA,232313.000,3748.8399,N,12217.8374,W,1,05,1.8,12.4,M,-25.1,M,,0000*50
$GPGSA,A,3,10,08,05,19,07,,,,,,,,2.7,1.8,2.0*3F
$GPRMC,232313.000,A,3748.8399,N,12217.8374,W,0.36,202.98,010611,,,A*71
$GPVTG,202.98,T,,M,0.36,N,0.7,K,A*0E
$GPGGA,232314.000,3748.8399,N,12217.8372,W,1,04,2.1,12.7,M,-25.1,M,,0000*59
$GPGSA,A,3,10,08,05,19,,,,,,,,,3.2,2.1,2.4*32
$GPGSV,3,1,11,08,66,002,29,28,63,257,25,07,56,071,18,26,29,316,28*78
$GPGSV,3,2,11,19,24,049,18,13,22,151,28,05,18,268,34,17,13,186,43*74
$GPGSV,3,3,11,11,13,104,,10,12,219,40,03,00,035,*47
$GPVTG,179.78,T,,M,0.36,N,0.7,K,A*0F
$GPGGA,232315.000,3748.8396,N,12217.8375,W,1,04,2.1,14.2,M,-25.1,M,,0000*53
$GPGSA,A,3,10,08,05,19,,,,,,,,,3.2,2.1,2.4*32
$GPRMC,232315.000,A,3748.8396,N,12217.8375,W,0.35,194.66,010611,,,A*77
$GPVTG,194.66,T,,M,0.35,N,0.6,K,A*01
$GPGGA,232316.000,3748.8397,N,12217.8370,W,1,04,2.1,13.5,M,-25.1,M,,0000*54
$GPGSA,A,3,10,08,05,19,,,,,,,,,3.2,2.1,2.4*32
$GPRMC,232316.000,A,3748.8397,N,12217.8370,W,0.27,179.20,010611,,,A*72
$GPVTG,179.20,T,,M,0.27,N,0.5,K,A*00
$GPGGA,232317.000,3748.8396,N,12217.8370,W,1,04,2.1,14.4,M,-25.1,M,,0000*52
$GPGSA,A,3,10,08,05,19,,,,,,,,,3.2,2.1,2.4*32
$GPRMC,232317.000,A,3748.8396,N,12217.8370,W,0.26,152.11,010611,,,A*78
$GPVTG,152.11,T,,M,0.26,N,0.5,K,A*0A
$GPGGA,232318.000,3748.8395,N,12217.8371,W,1,04,2.1,15.4,M,-25.1,M,,0000*5E
$GPGSA,A,3,10,08,05,19,,,,,,,,,3.2,2.1,2.4*32
$GPRMC,232318.000,A,3748.8395,N,12217.8371,W,0.34,215.33,010611,,,A*76
$GPVTG,215.33,T,,M,0.34,N,0.6,K,A*0A
$GPGGA,232319.000,3748.8393,N,12217.8373,W,1,04,2.1,16.3,M,-25.1,M,,0000*5F
$GPGSA,A,3,10,08,05,19,,,,,,,,,3.2,2.1,2.4*32
$GPGSV,3,1,10,08,66,002,28,28,63,257,25,07,55,071,,26,29,316,28*72
$GPGSV,3,2,10,19,24,049,18,13,22,151,28,05,18,268,34,17,14,186,43*72
$GPGSV,3,3,10,11,13,104,,10,12,219,40*73
$GPRMC,232319.000,A,3748.8393,N,12217.8373,W,0.74,241.30,010611,,,A*75
$GPVTG,241.30,T,,M,0.74,N,1.4,K,A*0F
$GPGGA,232320.000,3748.8390,N,12217.8378,W,1,04,2.1,18.4,M,-25.1,M,,0000*54
$GPGSA,A,3,10,08,05,19,,,,,,,,,3.2,2.1,2.4*32
$GPRMC,232320.000,A,3748.8390,N,12217.8378,W,0.68,236.03,010611,,,A*7A
$GPVTG,236.03,T,,M,0.68,N,1.3,K,A*05
$GPGGA,232321.000,3748.8389,N,12217.8378,W,1,04,2.1,18.9,M,-25.1,M,,0000*50
$GPGSA,A,3,10,08,05,19,,,,,,,,,3.2,2.1,2.4*32
$GPRMC,232321.000,A,3748.8389,N,12217.8378,W,0.47,223.43,010611,,,A*7E
$GPVTG,223.43,T,,M,0.47,N,0.9,K,A*03
$GPGGA,232322.000,3748.8386,N,12217.8382,W,1,04,2.1,20.8,M,-25.1,M,,0000*53
$GPGSA,A,3,10,08,05,19,,,,,,,,,3.2,2.1,2.4*32
$GPRMC,232322.000,A,3748.8386,N,12217.8382,W,0.56,230.44,010611,,,A*72
$GPVTG,230.44,T,,M,0.56,N,1.0,K,A*0E
$GPGGA,232323.000,3748.8384,N,12217.8384,W,1,04,2.1,22.0,M,-25.1,M,,0000*5C
$GPGSA,A,3,10,08,05,19,,,,,,,,,3.2,2.1,2.4*32
$GPRMC,232323.000,A,3748.8384,N,12217.8384,W,0.51,219.94,010611,,,A*76
$GPVTG,219.94,T,,M,0.51,N,0.9,K,A*07
$GPGGA,232324.000,3748.8382,N,12217.8387,W,1,04,2.1,23.1,M,-25.1,M,,0000*5E
$GPGSA,A,3,10,08,05,19,,,,,,,,,3.2,2.1,2.4*32
$GPGSV,3,1,10,08,66,002,28,28,63,257,25,07,55,071,,26,29,316,28*72
$GPGSV,3,2,10,19,24,049,17,13,22,151,28,05,18,268,35,17,14,186,43*7C
$GPGSV,3,3,10,11,13,104,,10,12,219,41*72
$GPRMC,232324.000,A,3748.8382,N,12217.8387,W,0.64,225.36,010611,,,A*75
$GPVTG,225.36,T,,M,0.64,N,1.2,K,A*0C
$GPGGA,232325.000,3748.8380,N,12217.8388,W,1,04,2.1,24.0,M,-25.1,M,,0000*54
$GPGSA,A,3,10,08,05,19,,,,,,,,,3.2,2.1,2.4*32
$GPRMC,232325.000,A,3748.8380,N,12217.8388,W,0.55,221.83,010611,,,A*71
$GPVTG,221.83,T,,M,0.55,N,1.0,K,A*06
$GPGGA,232326.000,3748.8377,N,12217.8393,W,1,04,2.1,25.8,M,-25.1,M,,0000*5C
$GPGSA,A,3,10,08,05,19,,,,,,,,,3.2,2.1,2.4*32
$GPRMC,232326.000,A,3748.8377,N,12217.8393,W,0.94,236.05,010611,,,A*75
$GPVTG,236.05,T,,M,0.94,N,1.7,K,A*04
$GPGGA,232327.000,3748.8376,N,12217.8395,W,1,03,2.3,26.4,M,-25.1,M,,0000*50
$GPGSA,A,2,10,08,05,,,,,,,,,,2.5,2.3,1.0*38
$GPRMC,232327.000,A,3748.8376,N,12217.8395,W,0.86,237.24,010611,,,A*72
$GPVTG,237.24,T,,M,0.86,N,1.6,K,N*0B
$GPGGA,232328.000,3748.8375,N,12217.8397,W,1,03,2.3,26.8,M,-25.1,M,,0000*52
$GPGSA,A,2,10,08,05,,,,,,,,,,2.5,2.3,1.0*38
$GPRMC,232328.000,A,3748.8375,N,12217.8397,W,0.83,238.83,010611,,,A*7B
$GPVTG,238.83,T,,M,0.83,N,1.5,K,N*0F
$GPGGA,232329.000,3748.8374,N,12217.8398,W,1,03,2.3,27.2,M,-25.1,M,,0000*56
$GPGSA,A,2,10,08,05,,,,,,,,,,2.5,2.3,1.0*38
$GPGSV,3,1,10,08,66,002,29,28,63,257,26,07,55,071,,26,29,316,29*71
$GPGSV,3,2,10,19,24,049,,13,22,151,28,05,18,268,36,17,14,186,43*79
$GPGSV,3,3,10,11,13,104,19,10,12,219,41*7A
$GPRMC,232329.000,A,3748.8374,N,12217.8398,W,0.75,240.76,010611,,,A*78
$GPVTG,240.76,T,,M,0.75,N,1.4,K,N*02
$GPGGA,232330.000,3748.8373,N,12217.8399,W,1,03,2.3,27.6,M,-25.1,M,,0000*5C
$GPGSA,A,2,10,08,05,,,,,,,,,,2.5,2.3,1.0*38
$GPRMC,232330.000,A,3748.8373,N,12217.8399,W,0.68,240.16,010611,,,A*7C
$GPVTG,240.16,T,,M,0.68,N,1.3,K,N*0F
$GPGGA,232331.000,3748.8373,N,12217.8400,W,1,03,2.3,27.9,M,-25.1,M,,0000*55
$GPGSA,A,2,10,08,05,,,,,,,,,,2.5,2.3,1.0*38
$GPRMC,232331.000,A,3748.8373,N,12217.8400,W,0.63,240.99,010611,,,A*76
$GPVTG,240.99,T,,M,0.63,N,1.2,K,N*02
$GPGGA,232332.000,3748.8372,N,12217.8401,W,1,03,2.3,28.2,M,-25.1,M,,0000*52
$GPGSA,A,2,10,08,05,,,,,,,,,,2.5,2.3,1.0*38
$GPRMC,232332.000,A,3748.8372,N,12217.8401,W,0.56,238.13,010611,,,A*7E
$GPVTG,238.13,T,,M,0.56,N,1.0,K,N*0B
$GPGGA,232333.000,3748.8371,N,12217.8401,W,1,03,2.3,28.4,M,-25.1,M,,0000*56
$GPGSA,A,2,10,08,05,,,,,,,,,,2.5,2.3,1.0*38
$GPRMC,232333.000,A,3748.8371,N,12217.8401,W,0.50,234.93,010611,,,A*7E
$GPVTG,234.93,T,,M,0.50,N,0.9,K,N*01
$GPGGA,232334.000,3748.8370,N,12217.8402,W,1,03,2.3,28.6,M,-25.1,M,,0000*51
$GPGSA,A,2,10,08,05,,,,,,,,,,2.5,2.3,1.0*38
$GPGSV,3,1,10,08,66,002,29,28,63,257,34,07,55,071,,26,29,316,29*72
$GPGSV,3,2,10,19,24,049,,13,22,151,28,05,18,268,36,17,14,186,43*79
$GPGSV,3,3,10,11,13,104,19,10,12,219,41*7A
$GPRMC,232334.000,A,3748.8370,N,12217.8402,W,0.49,244.07,010611,,,A*79
$GPVTG,244.07,T,,M,0.49,N,0.9,K,N*03
$GPGGA,232335.000,3748.8370,N,12217.8402,W,1,03,2.3,28.8,M,-25.1,M,,0000*5E
$GPGSA,A,2,10,08,05,,,,,,,,,,2.5,2.3,1.0*38
$GPRMC,232335.000,A,3748.8370,N,12217.8402,W,0.43,240.44,010611,,,A*71
$GPVTG,240.44,T,,M,0.43,N,0.8,K,N*0B
$GPGGA,232336.000,3748.8369,N,12217.8402,W,1,03,2.3,29.0,M,-25.1,M,,0000*5C
$GPGSA,A,2,10,08,05,,,,,,,,,,2.5,2.3,1.0*38
$GPRMC,232336.000,A,3748.8369,N,12217.8402,W,0.40,242.28,010611,,,A*71
$GPVTG,242.28,T,,M,0.40,N,0.7,K,N*0F
$GPGGA,232337.000,3748.8370,N,12217.8401,W,1,03,2.3,28.7,M,-25.1,M,,0000*50
$GPGSA,A,2,10,08,05,,,,,,,,,,2.5,2.3,1.0*38
$GPRMC,232337.000,A,3748.8370,N,12217.8401,W,0.06,205.75,010611,,,A*72
$GPVTG,205.75,T,,M,0.06,N,0.1,K,A*0F
$GPGGA,232338.000,3748.8370,N,12217.8400,W,1,03,2.3,28.7,M,-25.1,M,,0000*5E
$GPGSA,A,2,10,08,05,,,,,,,,,,2.5,2.3,1.0*38
$GPRMC,232338.000,A,3748.8370,N,12217.8400,W,0.08,208.68,010611,,,A*73
$GPVTG,208.68,T,,M,0.08,N,0.2,K,A*03
$GPGGA,232339.000,3748.8369,N,12217.8401,W,1,03,2.3,28.9,M,-25.1,M,,0000*58
$GPGSA,A,2,10,08,05,,,,,,,,,,2.5,2.3,1.0*38
$GPGSV,3,1,10,08,66,002,29,28,63,257,31,07,55,071,,26,29,316,27*79
$GPGSV,3,2,10,19,24,049,18,13,22,151,25,05,18,268,37,17,14,186,43*7C
$GPGSV,3,3,10,11,13,104,19,10,12,219,40*7B
$GPVTG,253.34,T,,M,0.43,N,0.8,K,A*01
$GPGGA,232340.000,3748.8368,N,12217.8403,W,1,03,2.3,29.3,M,-25.1,M,,0000*5E
$GPGSA,A,2,10,08,05,,,,,,,,,,2.5,2.3,1.0*38
$GPRMC,232340.000,A,3748.8368,N,12217.8403,W,0.63,253.40,010611,,,A*7F
$GPVTG,253.40,T,,M,0.63,N,1.2,K,A*0B
$GPGGA,232341.000,3748.8367,N,12217.8403,W,1,03,2.3,29.2,M,-25.1,M,,0000*51
$GPGSA,A,2,10,08,05,,,,,,,,,,2.5,2.3,1.0*38
$GPRMC,232341.000,A,3748.8367,N,12217.8403,W,0.52,216.99,010611,,,A*76
$GPVTG,216.99,T,,M,0.52,N,1.0,K,A*0E
$GPGGA,232342.000,3748.8366,N,12217.8404,W,1,03,2.3,28.9,M,-25.1,M,,0000*5E
$GPGSA,A,2,10,08,05,,,,,,,,,,2.5,2.3,1.0*38
$GPRMC,232342.000,A,3748.8366,N,12217.8404,W,1.15,185.08,010611,,,A*70
$GPVTG,185.08,T,,M,1.15,N,2.1,K,A*0F
$GPGGA,232343.000,3748.8363,N,12217.8407,W,1,03,2.3,28.3,M,-25.1,M,,0000*53
$GPGSA,A,2,10,08,05,,,,,,,,,,2.5,2.3,1.0*38
$GPRMC,232343.000,A,3748.8363,N,12217.8407,W,1.53,199.50,010611,,,A*75
$GPVTG,199.50,T,,M,1.53,N,2.8,K,A*04
$GPGGA,232344.000,3748.8360,N,12217.8411,W,1,03,2.3,28.1,M,-25.1,M,,0000*52
$GPGSA,A,2,10,08,05,,,,,,,,,,2.5,2.3,1.0*38
$GPGSV,3,1,10,08,66,002,25,28,63,257,32,07,55,071,,26,29,316,34*74
$GPGSV,3,2,10,19,24,049,18,13,22,151,33,05,18,268,36,17,14,186,43*7A
$GPGSV,3,3,10,11,13,104,18,10,12,219,40*7A
$GPRMC,232344.000,A,3748.8360,N,12217.8411,W,1.90,210.93,010611,,,A*74
$GPVTG,210.93,T,,M,1.90,N,3.5,K,A*0A
$GPGGA,232345.000,3748.8357,N,12217.8416,W,1,03,2.3,27.4,M,-25.1,M,,0000*5A
$GPGSA,A,2,10,08,05,,,,,,,,,,2.5,2.3,1.0*38
$GPRMC,232345.000,A,3748.8357,N,12217.8416,W,1.64,197.19,010611,,,A*73
$GPVTG,197.19,T,,M,1.64,N,3.0,K,A*0A
$GPGGA,232346.000,3748.8351,N,12217.8433,W,1,05,1.8,29.3,M,-25.1,M,,0000*5F
$GPGSA,A,3,10,08,05,19,07,,,,,,,,2.7,1.8,2.0*3F
$GPRMC,232346.000,A,3748.8351,N,12217.8433,W,1.34,181.18,010611,,,A*72
$GPVTG,181.18,T,,M,1.34,N,2.5,K,A*0D
$GPGGA,232347.000,3748.8358,N,12217.8422,W,1,05,1.8,24.8,M,-25.1,M,,0000*51
$GPGSA,A,3,10,08,05,19,07,,,,,,,,2.7,1.8,2.0*3F
$GPRMC,232347.000,A,3748.8358,N,12217.8422,W,0.50,182.95,010611,,,A*7F
$GPVTG,182.95,T,,M,0.50,N,0.9,K,A*06
$GPGGA,232348.000,3748.8363,N,12217.8415,W,1,05,1.8,22.0,M,-25.1,M,,0000*5C
$GPGSA,A,3,10,08,05,19,07,,,,,,,,2.7,1.8,2.0*3F
$GPRMC,232348.000,A,3748.8363,N,12217.8415,W,0.25,69.69,010611,,,A*49
$GPVTG,69.69,T,,M,0.25,N,0.5,K,A*3F
$GPGGA,232349.000,3748.8368,N,12217.8416,W,1,05,1.8,20.3,M,-25.1,M,,0000*54
$GPGSA,A,3,10,08,05,19,07,,,,,,,,2.7,1.8,2.0*3F
$GPGSV,3,1,10,08,66,002,29,28,63,257,32,07,55,071,22,26,29,316,29*74
$GPGSV,3,2,10,19,24,049,24,13,22,151,33,05,18,268,37,17,14,186,42*75
$GPGSV,3,3,10,11,13,104,20,10,12,219,35*73
$GPRMC,232349.000,A,3748.8368,N,12217.8416,W,0.37,14.93,010611,,,A*4C
$GPVTG,14.93,T,,M,0.37,N,0.7,K,A*31
$GPGGA,232350.000,3748.8372,N,12217.8418,W,1,05,1.8,19.7,M,-25.1,M,,0000*57
$GPGSA,A,3,10,08,05,19,07,,,,,,,,2.7,1.8,2.0*3F
$GPRMC,232350.000,A,3748.8372,N,12217.8418,W,0.28,20.49,010611,,,A*4F
$GPVTG,20.49,T,,M,0.28,N,0.5,K,A*3D
$GPGGA,232351.000,3748.8371,N,12217.8419,W,1,05,1.8,20.3,M,-25.1,M,,0000*5A
$GPGSA,A,3,10,08,05,19,07,,,,,,,,2.7,1.8,2.0*3F
$GPRMC,232351.000,A,3748.8371,N,12217.8419,W,0.24,18.31,010611,,,A*44
$GPVTG,18.31,T,,M,0.24,N,0.4,K,A*34
$GPGGA,232352.000,3748.8369,N,12217.8420,W,1,05,1.8,21.4,M,-25.1,M,,0000*5C
$GPGSA,A,3,10,08,05,19,07,,,,,,,,2.7,1.8,2.0*3F
$GPRMC,232352.000,A,3748.8369,N,12217.8420,W,0.16,5.20,010611,,,A*79
$GPVTG,5.20,T,,M,0.16,N,0.3,K,A*0E
$GPGGA,232353.000,3748.8363,N,12217.8418,W,1,05,1.8,23.4,M,-25.1,M,,0000*5E
$GPGSA,A,3,10,08,05,19,07,,,,,,,,2.7,1.8,2.0*3F
$GPRMC,232353.000,A,3748.8363,N,12217.8418,W,0.11,70.60,010611,,,A*48
$GPVTG,70.60,T,,M,0.11,N,0.2,K,A*3E
$GPGGA,232354.000,3748.8360,N,12217.8413,W,1,05,1.8,23.8,M,-25.1,M,,0000*5D
$GPGSA,A,3,10,08,05,19,07,,,,,,,,2.7,1.8,2.0*3F
$GPGSV,3,1,10,08,66,002,27,28,63,257,33,07,55,071,23,26,29,316,29*7A
$GPGSV,3,2,10,19,24,049,24,13,22,151,33,05,18,268,36,17,14,186,41*77
$GPGSV,3,3,10,11,13,104,10,10,12,219,35*70
$GPRMC,232354.000,A,3748.8360,N,12217.8413,W,0.07,348.39,010611,,,A*74
$GPVTG,348.39,T,,M,0.07,N,0.1,K,A*0E
$GPGGA,232355.000,3748.8358,N,12217.8410,W,1,05,1.8,24.0,M,-25.1,M,,0000*5B
$GPGSA,A,3,10,08,05,19,07,,,,,,,,2.7,1.8,2.0*3F
$GPRMC,232355.000,A,3748.8358,N,12217.8410,W,0.14,293.52,010611,,,A*75
$GPVTG,293.52,T,,M,0.14,N,0.3,K,A*04
$GPGGA,232356.000,3748.8358,N,12217.8404,W,1,05,1.8,23.4,M,-25.1,M,,0000*5E
$GPGSA,A,3,10,08,05,19,07,,,,,,,,2.7,1.8,2.0*3F
$GPRMC,232356.000,A,3748.8358,N,12217.8404,W,0.10,123.35,010611,,,A*7E
$GPVTG,123.35,T,,M,0.10,N,0.2,K,A*08
$GPGGA,232357.000,3748.8361,N,12217.8399,W,1,05,1.8,21.7,M,-25.1,M,,0000*57
$GPGSA,A,3,10,08,05,19,07,,,,,,,,2.7,1.8,2.0*3F
$GPRMC,232357.000,A,3748.8361,N,12217.8399,W,0.26,59.28,010611,,,A*43
$GPVTG,59.28,T,,M,0.26,N,0.5,K,A*3A
$GPGGA,232358.000,3748.8361,N,12217.8393,W,1,05,1.8,20.3,M,-25.1,M,,0000*57
$GPGSA,A,3,10,08,05,19,07,,,,,,,,2.7,1.8,2.0*3F
$GPRMC,232358.000,A,3748.8361,N,12217.8393,W,0.39,55.16,010611,,,A*49
$GPVTG,55.16,T,,M,0.39,N,0.7,K,A*37
$GPGGA,232359.000,3748.8361,N,12217.8385,W,1,05,1.8,18.7,M,-25.1,M,,0000*5E
$GPGSA,A,3,10,08,05,19,07,,,,,,,,2.7,1.8,2.0*3F
$GPGSV,3,1,10,08,66,002,27,28,63,257,33,07,55,071,23,26,29,316,27*74
$GPGSV,3,2,10,19,24,049,24,13,22,151,32,05,18,268,37,17,14,186,41*77
$GPGSV,3,3,10,11,13,104,13,10,12,219,35*73
$GPRMC,232359.000,A,3748.8361,N,12217.8385,W,0.13,21.43,010611,,,A*44
$GPVTG,21.43,T,,M,0.13,N,0.2,K,A*39
$GPGGA,232400.000,3748.8360,N,12217.8382,W,1,05,1.8,18.1,M,-25.1,M,,0000*55
$GPGSA,A,3,10,08,05,19,07,,,,,,,,2.7,1.8,2.0*3F
$GPRMC,232400.000,A,3748.8360,N,12217.8382,W,0.15,14.92,010611,,,A*45
$GPVTG,14.92,T,,M,0.15,N,0.3,K,A*34
$GPGGA,232401.000,3748.8359,N,12217.8379,W,1,05,1.8,17.4,M,-25.1,M,,0000*50
$GPGSA,A,3,10,08,05,19,07,,,,,,,,2.7,1.8,2.0*3F
$GPRMC,232401.000,A,3748.8359,N,12217.8379,W,0.47,53.92,010611,,,A*4E
$GPVTG,53.92,T,,M,0.47,N,0.9,K,A*3A
$GPGGA,232402.000,3748.8359,N,12217.8377,W,1,05,1.8,16.7,M,-25.1,M,,0000*5F
$GPGSA,A,3,10,08,05,19,07,,,,,,,,2.7,1.8,2.0*3F
$GPRMC,232402.000,A,3748.8359,N,12217.8377,W,0.29,34.15,010611,,,A*45
$GPVTG,34.15,T,,M,0.29,N,0.5,K,A*30
$GPGGA,232403.000,3748.8360,N,12217.8375,W,1,05,1.8,15.8,M,-25.1,M,,0000*5A
$GPGSA,A,3,10,08,05,19,07,,,,,,,,2.7,1.8,2.0*3F
$GPRMC,232403.000,A,3748.8360,N,12217.8375,W,0.35,8.33,010611,,,A*7A
$GPVTG,8.33,T,,M,0.35,N,0.6,K,A*05
$GPGGA,232404.000,3748.8359,N,12217.8375,W,1,05,1.8,15.3,M,-25.1,M,,0000*5C
$GPGSA,A,3,10,08,05,19,07,,,,,,,,2.7,1.8,2.0*3F
$GPGSV,3,1,10,08,66,002,27,28,63,257,32,07,55,071,22,26,29,316,29*7A
$GPGSV,3,2,10,19,24,049,24,13,22,151,32,05,18,268,36,17,14,186,40*77
$GPGSV,3,3,10,11,13,104,14,10,12,219,35*74
$GPRMC,232404.000,A,3748.8359,N,12217.8375,W,0.28,3.53,010611,,,A*76
$GPVTG,3.53,T,,M,0.28,N,0.5,K,A*07
$GPGGA,232405.000,3748.8359,N,12217.8375,W,1,05,1.8,15.1,M,-25.1,M,,0000*5F
$GPGSA,A,3,10,08,05,19,07,,,,,,,,2.7,1.8,2.0*3F
$GPRMC,232405.000,A,3748.8359,N,12217.8375,W,0.25,34.98,010611,,,A*49
$GPVTG,34.98,T,,M,0.25,N,0.5,K,A*39
$GPGGA,232406.000,3748.8357,N,12217.8375,W,1,05,1.8,15.3,M,-25.1,M,,0000*50
$GPGSA,A,3,10,08,05,19,07,,,,,,,,2.7,1.8,2.0*3F
$GPRMC,232406.000,A,3748.8357,N,12217.8375,W,0.22,6.76,010611,,,A*72
$GPVTG,6.76,T,,M,0.22,N,0.4,K,A*0E
$GPGGA,232407.000,3748.8353,N,12217.8376,W,1,05,1.8,16.2,M,-25.1,M,,0000*54
$GPGSA,A,3,10,08,05,19,07,,,,,,,,2.7,1.8,2.0*3F
$GPRMC,232407.000,A,3748.8353,N,12217.8376,W,0.20,69.55,010611,,,A*4E
$GPVTG,69.55,T,,M,0.20,N,0.4,K,A*34
$GPGGA,232408.000,3748.8346,N,12217.8376,W,1,05,1.8,18.0,M,-25.1,M,,0000*53
$GPGSA,A,3,10,08,05,19,07,,,,,,,,2.7,1.8,2.0*3F
$GPRMC,232408.000,A,3748.8346,N,12217.8376,W,0.19,272.57,010611,,,A*75
$GPVTG,272.57,T,,M,0.19,N,0.3,K,A*03
$GPGGA,232409.000,3748.8338,N,12217.8377,W,1,05,1.8,19.8,M,-25.1,M,,0000*53
$GPGSA,A,3,10,08,05,19,07,,,,,,,,2.7,1.8,2.0*3F
$GPGSV,3,1,10,08,66,002,27,28,63,257,33,07,55,071,22,26,29,316,30*73
$GPGSV,3,2,10,19,24,049,25,13,22,151,31,05,18,268,36,17,14,186,40*75
$GPGSV,3,3,10,11,13,104,15,10,12,219,35*75
$GPRMC,232409.000,A,3748.8338,N,12217.8377,W,0.20,179.25,010611,,,A*7B
$GPVTG,179.25,T,,M,0.20,N,0.4,K,A*03
$GPGGA,232410.000,3748.8336,N,12217.8380,W,1,05,1.8,20.7,M,-25.1,M,,0000*58
$GPGSA,A,3,10,08,05,19,07,,,,,,,,2.7,1.8,2.0*3F
$GPRMC,232410.000,A,3748.8336,N,12217.8380,W,0.25,274.82,010611,,,A*73
$GPVTG,274.82,T,,M,0.25,N,0.5,K,A*04
$GPGGA,232411.000,3748.8334,N,12217.8383,W,1,05,1.8,21.5,M,-25.1,M,,0000*5B
$GPGSA,A,3,10,08,05,19,07,,,,,,,,2.7,1.8,2.0*3F
$GPRMC,232411.000,A,3748.8334,N,12217.8383,W,0.11,264.33,010611,,,A*7F
$GPVTG,264.33,T,,M,0.11,N,0.2,K,A*0F
$GPGGA,232412.000,3748.8331,N,12217.8384,W,1,05,1.8,22.6,M,-25.1,M,,0000*5A
$GPGSA,A,3,10,08,05,19,07,,,,,,,,2.7,1.8,2.0*3F
$GPRMC,232412.000,A,3748.8331,N,12217.8384,W,0.15,246.33,010611,,,A*7A
$GPVTG,246.33,T,,M,0.15,N,0.3,K,A*0A
$GPGGA,232413.000,3748.8326,N,12217.8385,W,1,05,1.8,23.9,M,-25.1,M,,0000*52
$GPGSA,A,3,10,08,05,19,07,,,,,,,,2.7,1.8,2.0*3F
$GPRMC,232413.000,A,3748.8326,N,12217.8385,W,0.17,242.93,010611,,,A*70
$GPVTG,242.93,T,,M,0.17,N,0.3,K,A*06
$GPGGA,232414.000,3748.8324,N,12217.8387,W,1,05,1.8,24.5,M,-25.1,M,,0000*5E
$GPGSA,A,3,10,08,05,19,07,,,,,,,,2.7,1.8,2.0*3F
$GPGSV,3,1,10,08,66,002,26,28,63,257,33,07,55,071,23,26,29,316,30*73
$GPGSV,3,2,10,19,24,049,27,13,22,151,31,05,18,268,36,17,14,186,41*76
$GPGSV,3,3,10,11,13,104,17,10,12,219,35*77
$GPRMC,232414.000,A,3748.8324,N,12217.8387,W,0.26,257.92,010611,,,A*70
$GPVTG,257.92,T,,M,0.26,N,0.5,K,A*07
$GPGGA,232415.000,3748.8321,N,12217.8388,W,1,05,1.8,25.4,M,-25.1,M,,0000*55
$GPGSA,A,3,10,08,05,19,07,,,,,,,,2.7,1.8,2.0*3F
$GPRMC,232415.000,A,3748.8321,N,12217.8388,W,0.16,181.95,010611,,,A*77
$GPVTG,181.95,T,,M,0.16,N,0.3,K,A*0D
$GPGGA,232416.000,3748.8317,N,12217.8388,W,1,05,1.8,26.5,M,-25.1,M,,0000*51
$GPGSA,A,3,10,08,05,19,07,,,,,,,,2.7,1.8,2.0*3F
$GPRMC,232416.000,A,3748.8317,N,12217.8388,W,0.22,218.52,010611,,,A*7E
$GPVTG,218.52,T,,M,0.22,N,0.4,K,A*05
$GPGGA,232417.000,3748.8315,N,12217.8390,W,1,05,1.8,27.2,M,-25.1,M,,0000*5D
$GPGSA,A,3,10,08,05,19,07,,,,,,,,2.7,1.8,2.0*3F
$GPRMC,232417.000,A,3748.8315,N,12217.8390,W,0.17,213.00,010611,,,A*7E
$GPVTG,213.00,T,,M,0.17,N,0.3,K,A*08
$GPGGA,232418.000,3748.8312,N,12217.8391,W,1,05,1.8,27.9,M,-25.1,M,,0000*5F
$GPGSA,A,3,10,08,05,19,07,,,,,,,,2.7,1.8,2.0*3F
$GPRMC,232418.000,A,3748.8312,N,12217.8391,W,0.19,208.95,010611,,,A*7F
$GPVTG,208.95,T,,M,0.19,N,0.3,K,A*00
$GPGGA,232419.000,3748.8314,N,12217.8395,W,1,05,1.8,27.6,M,-25.1,M,,0000*53
$GPGSA,A,3,10,08,05,19,07,,,,,,,,2.7,1.8,2.0*3F
$GPGSV,3,1,10,08,66,002,24,28,63,257,32,07,55,071,23,26,29,316,31*71
$GPGSV,3,2,10,19,24,049,28,13,22,151,31,05,18,268,38,17,14,186,41*77
$GPGSV,3,3,10,11,13,104,24,10,12,219,35*77
$GPVTG,246.98,T,,M,0.24,N,0.4,K,A*0E
$GPGGA,232420.000,3748.8309,N,12217.8399,W,1,05,1.8,28.3,M,-25.1,M,,0000*53
$GPGSA,A,3,10,08,05,19,07,,,,,,,,2.7,1.8,2.0*3F
$GPRMC,232420.000,A,3748.8309,N,12217.8399,W,1.85,220.66,010611,,,A*74
$GPVTG,220.66,T,,M,1.85,N,3.4,K,A*06
$GPGGA,232421.000,3748.8301,N,12217.8405,W,1,05,1.8,28.7,M,-25.1,M,,0000*5C
$GPGSA,A,3,10,08,05,19,07,,,,,,,,2.7,1.8,2.0*3F
$GPRMC,232421.000,A,3748.8301,N,12217.8405,W,2.54,210.12,010611,,,A*70
$GPVTG,210.12,T,,M,2.54,N,4.7,K,A*0D
$GPGGA,232422.000,3748.8294,N,12217.8411,W,1,05,1.8,29.2,M,-25.1,M,,0000*53
$GPGSA,A,3,10,08,05,19,07,,,,,,,,2.7,1.8,2.0*3F
$GPRMC,232422.000,A,3748.8294,N,12217.8411,W,2.27,202.66,010611,,,A*7F
$GPVTG,202.66,T,,M,2.27,N,4.2,K,A*0C
$GPGGA,232423.000,3748.8289,N,12217.8413,W,1,05,1.8,28.3,M,-25.1,M,,0000*5C
$GPGSA,A,3,10,08,05,19,07,,,,,,,,2.7,1.8,2.0*3F
$GPRMC,232423.000,A,3748.8289,N,12217.8413,W,1.70,208.22,010611,,,A*7B
$GPVTG,208.22,T,,M,1.70,N,3.2,K,A*00
$GPGGA,232424.000,3748.8288,N,12217.8415,W,1,05,1.8,26.9,M,-25.1,M,,0000*58
$GPGSA,A,3,10,08,05,19,07,,,,,,,,2.7,1.8,2.0*3F
$GPGSV,3,1,10,08,66,002,26,28,63,257,32,07,55,071,19,26,29,316,35*7E
$GPGSV,3,2,10,19,24,049,20,13,22,151,29,05,18,268,41,17,14,186,41*78
$GPGSV,3,3,10,11,13,104,22,10,12,219,39*7D
$GPRMC,232424.000,A,3748.8288,N,12217.8415,W,1.41,192.57,010611,,,A*7B
$GPVTG,192.57,T,,M,1.41,N,2.6,K,A*05
$GPGGA,232425.000,3748.8290,N,12217.8416,W,1,05,1.8,24.8,M,-25.1,M,,0000*50
$GPGSA,A,3,10,08,05,19,07,,,,,,,,2.7,1.8,2.0*3F
$GPRMC,232425.000,A,3748.8290,N,12217.8416,W,1.30,197.84,010611,,,A*7D
$GPVTG,197.84,T,,M,1.30,N,2.4,K,A*0A
$GPGGA,232426.000,3748.8294,N,12217.8418,W,1,05,1.8,22.8,M,-25.1,M,,0000*5F
$GPGSA,A,3,10,08,05,19,07,,,,,,,,2.7,1.8,2.0*3F
$GPRMC,232426.000,A,3748.8294,N,12217.8418,W,1.29,189.67,010611,,,A*7E
$GPVTG,189.67,T,,M,1.29,N,2.4,K,A*00
$GPGGA,232427.000,3748.8294,N,12217.8420,W,1,05,1.8,21.4,M,-25.1,M,,0000*5A
$GPGSA,A,3,10,08,05,19,07,,,,,,,,2.7,1.8,2.0*3F
$GPRMC,232427.000,A,3748.8294,N,12217.8420,W,1.50,202.44,010611,,,A*7B
$GPVTG,202.44,T,,M,1.50,N,2.8,K,A*03
$GPGGA,232428.000,3748.8294,N,12217.8420,W,1,05,1.8,18.9,M,-25.1,M,,0000*52
$GPGSA,A,3,10,08,05,19,07,,,,,,,,2.7,1.8,2.0*3F
$GPRMC,232428.000,A,3748.8294,N,12217.8420,W,1.94,217.85,010611,,,A*75
$GPVTG,217.85,T,,M,1.94,N,3.6,K,A*0D
$GPGGA,232429.000,3748.8293,N,12217.8418,W,1,05,1.8,15.0,M,-25.1,M,,0000*5B
$GPGSA,A,3,10,08,05,19,07,,,,,,,,2.7,1.8,2.0*3F
$GPGSV,3,1,10,08,66,002,26,28,63,257,32,07,55,071,24,26,29,316,36*73
$GPGSV,3,2,10,19,24,049,20,13,22,151,30,05,18,268,40,17,14,186,36*71
$GPGSV,3,3,10,11,13,104,21,10,12,219,39*7E
$GPRMC,232429.000,A,3748.8293,N,12217.8418,W,1.83,203.69,010611,,,A*79
$GPVTG,203.69,T,,M,1.83,N,3.4,K,A*0E
$GPGGA,232430.000,3748.8293,N,12217.8424,W,1,05,1.8,12.6,M,-25.1,M,,0000*5D
$GPGSA,A,3,10,08,05,19,07,,,,,,,,2.7,1.8,2.0*3F
$GPRMC,232430.000,A,3748.8293,N,12217.8424,W,1.46,204.65,010611,,,A*7C
$GPVTG,204.65,T,,M,1.46,N,2.7,K,A*0E
$GPGGA,232431.000,3748.8295,N,12217.8424,W,1,05,1.8,8.5,M,-25.1,M,,0000*62
$GPGSA,A,3,10,08,05,19,07,,,,,,,,2.7,1.8,2.0*3F
$GPRMC,232431.000,A,3748.8295,N,12217.8424,W,1.03,199.79,010611,,,A*70
$GPVTG,199.79,T,,M,1.03,N,1.9,K,A*08
$GPGGA,232432.000,3748.8296,N,12217.8429,W,1,05,1.8,7.0,M,-25.1,M,,0000*65
$GPGSA,A,3,10,08,05,19,07,,,,,,,,2.7,1.8,2.0*3F
$GPRMC,232432.000,A,3748.8296,N,12217.8429,W,1.22,204.11,010611,,,A*77
$GPVTG,204.11,T,,M,1.22,N,2.3,K,A*0B
$GPGGA,232433.000,3748.8293,N,12217.8433,W,1,05,1.8,6.5,M,-25.1,M,,0000*6E
$GPGSA,A,3,10,08,05,19,07,,,,,,,,2.7,1.8,2.0*3F
$GPRMC,232433.000,A,3748.8293,N,12217.8433,W,1.37,198.02,010611,,,A*78
$GPVTG,198.02,T,,M,1.37,N,2.5,K,A*0D
$GPGGA,232434.000,3748.8291,N,12217.8436,W,1,05,1.8,4.8,M,-25.1,M,,0000*61
$GPGSA,A,3,10,08,05,19,07,,,,,,,,2.7,1.8,2.0*3F
$GPGSV,3,1,10,08,66,002,26,28,63,257,32,07,55,071,22,26,29,316,36*75
$GPGSV,3,2,10,19,24,049,19,13,22,151,28,05,18,268,41,17,14,186,37*72
$GPGSV,3,3,10,11,13,104,21,10,12,219,37*70
$GPRMC,232434.000,A,3748.8291,N,12217.8436,W,1.48,197.52,010611,,,A*7A
$GPGGA,232435.000,3748.8290,N,12217.8440,W,1,05,1.8,2.9,M,-25.1,M,,0000*67
$GPGSA,A,3,10,08,05,19,07,,,,,,,,2.7,1.8,2.0*3F
$GPRMC,232435.000,A,3748.8290,N,12217.8440,W,1.36,199.13,010611,,,A*79
$GPVTG,199.13,T,,M,1.36,N,2.5,K,A*0D
$GPGGA,232436.000,3748.8291,N,12217.8443,W,1,05,1.8,0.4,M,-25.1,M,,0000*69
$GPGSA,A,3,10,08,05,19,07,,,,,,,,2.7,1.8,2.0*3F
$GPRMC,232436.000,A,3748.8291,N,12217.8443,W,1.24,202.34,010611,,,A*7F
$GPVTG,202.34,T,,M,1.24,N,2.3,K,A*0C
$GPGGA,232437.000,3748.8290,N,12217.8441,W,1,05,1.8,-3.0,M,-25.1,M,,0000*41
$GPGSA,A,3,10,08,05,19,07,,,,,,,,2.7,1.8,2.0*3F
$GPRMC,232437.000,A,3748.8290,N,12217.8441,W,0.77,197.96,010611,,,A*7D
$GPVTG,197.96,T,,M,0.77,N,1.4,K,A*08
$GPGGA,232438.000,3748.8290,N,12217.8437,W,1,05,1.8,-6.4,M,-25.1,M,,0000*4E
$GPGSA,A,3,10,08,05,19,07,,,,,,,,2.7,1.8,2.0*3F
$GPRMC,232438.000,A,3748.8290,N,12217.8437,W,0.81,135.93,010611,,,A*77
$GPVTG,135.93,T,,M,0.81,N,1.5,K,A*0D
$GPGGA,232439.000,3748.8292,N,12217.8436,W,1,05,1.8,-9.0,M,-25.1,M,,0000*47
$GPGSA,A,3,10,08,05,19,07,,,,,,,,2.7,1.8,2.0*3F
$GPGSV,3,1,10,08,66,002,26,28,63,257,32,07,55,071,22,26,29,316,37*74
$GPGSV,3,2,10,19,24,049,19,13,22,151,29,05,18,268,40,17,14,186,37*72
$GPGSV,3,3,10,11,13,104,21,10,12,219,35*72
$GPRMC,232439.000,A,3748.8292,N,12217.8436,W,0.78,179.18,010611,,,A*78
$GPVTG,179.18,T,,M,0.78,N,1.4,K,A*01
$GPGGA,232440.000,3748.8291,N,12217.8442,W,1,05,1.8,-9.5,M,-25.1,M,,0000*4C
$GPGSA,A,3,10,08,05,19,07,,,,,,,,2.7,1.8,2.0*3F
$GPRMC,232440.000,A,3748.8291,N,12217.8442,W,1.16,187.02,010611,,,A*75
$GPVTG,187.02,T,,M,1.16,N,2.1,K,A*04
$GPGGA,232441.000,3748.8287,N,12217.8444,W,1,05,1.8,-9.9,M,-25.1,M,,0000*40
$GPGSA,A,3,10,08,05,19,07,,,,,,,,2.7,1.8,2.0*3F
$GPRMC,232441.000,A,3748.8287,N,12217.8444,W,1.02,185.43,010611,,,A*77
$GPVTG,185.43,T,,M,1.02,N,1.9,K,A*0D
$GPGGA,232442.000,3748.8283,N,12217.8449,W,1,05,1.8,-10.2,M,-25.1,M,,0000*79
$GPGSA,A,3,10,08,05,19,07,,,,,,,,2.7,1.8,2.0*3F
$GPRMC,232442.000,A,3748.8283,N,12217.8449,W,1.39,200.14,010611,,,A*79
$GPVTG,200.14,T,,M,1.39,N,2.6,K,A*05
$GPGGA,232443.000,3748.8283,N,12217.8452,W,1,05,1.8,-12.2,M,-25.1,M,,0000*70
$GPGSA,A,3,10,08,05,19,07,,,,,,,,2.7,1.8,2.0*3F
$GPRMC,232443.000,A,3748.8283,N,12217.8452,W,1.03,196.56,010611,,,A*71
$GPVTG,196.56,T,,M,1.03,N,1.9,K,A*0A
$GPGGA,232444.000,3748.8283,N,12217.8457,W,1,04,4.4,-13.7,M,-25.1,M,,0000*7E
$GPGSA,A,3,10,08,05,07,,,,,,,,,9.2,4.4,8.1*3B
$GPGSV,3,1,10,08,66,002,26,28,63,257,33,07,55,071,22,26,29,316,37*75
$GPGSV,3,2,10,19,24,049,18,13,22,151,30,05,18,268,39,17,14,186,37*75
$GPGSV,3,3,10,11,13,104,21,10,12,219,40*70
$GPRMC,232444.000,A,3748.8283,N,12217.8457,W,0.84,198.33,010611,,,A*70
$GPVTG,198.33,T,,M,0.84,N,1.6,K,A*06
$GPGGA,232445.000,3748.8282,N,12217.8460,W,1,04,4.4,-15.1,M,-25.1,M,,0000*7A
$GPGSA,A,3,10,08,05,07,,,,,,,,,9.2,4.4,8.1*3B
$GPRMC,232445.000,A,3748.8282,N,12217.8460,W,1.09,175.21,010611,,,A*70
$GPVTG,175.21,T,,M,1.09,N,2.0,K,A*07
$GPGGA,232446.000,3748.8275,N,12217.8468,W,1,05,1.8,-13.9,M,-25.1,M,,0000*7F
$GPGSA,A,3,10,08,05,19,07,,,,,,,,2.7,1.8,2.0*3F
$GPRMC,232446.000,A,3748.8275,N,12217.8468,W,1.13,190.78,010611,,,A*7F
$GPVTG,190.78,T,,M,1.13,N,2.1,K,A*0A
$GPGGA,232447.000,3748.8274,N,12217.8472,W,1,05,1.8,-15.0,M,-25.1,M,,0000*7B
$GPGSA,A,3,10,08,05,19,07,,,,,,,,2.7,1.8,2.0*3F
$GPRMC,232447.000,A,3748.8274,N,12217.8472,W,0.97,175.21,010611,,,A*7E
$GPVTG,175.21,T,,M,0.97,N,1.8,K,A*0A
$GPGGA,232448.000,3748.8267,N,12217.8478,W,1,05,1.8,-14.0,M,-25.1,M,,0000*7D
$GPGSA,A,3,10,08,05,19,07,,,,,,,,2.7,1.8,2.0*3F
$GPRMC,232448.000,A,3748.8267,N,12217.8478,W,1.42,199.35,010611,,,A*77
$GPVTG,199.35,T,,M,1.42,N,2.6,K,A*09
$GPGGA,232449.000,3748.8261,N,12217.8483,W,1,05,1.8,-14.0,M,-25.1,M,,0000*7E
$GPGSA,A,3,10,08,05,19,07,,,,,,,,2.7,1.8,2.0*3F
$GPGSV,3,1,10,08,66,002,27,28,63,257,33,07,55,071,22,26,29,316,36*75
$GPGSV,3,2,10,19,24,049,24,13,22,151,31,05,18,268,38,17,14,186,36*7B
$GPGSV,3,3,10,11,13,104,21,10,12,219,40*70
$GPRMC,232449.000,A,3748.8261,N,12217.8483,W,1.58,181.10,010611,,,A*71
$GPVTG,181.10,T,,M,1.58,N,2.9,K,A*03
$GPGGA,232450.000,3748.8255,N,12217.8487,W,1,05,1.8,-13.8,M,-25.1,M,,0000*7A
$GPGSA,A,3,10,08,05,19,07,,,,,,,,2.7,1.8,2.0*3F
$GPRMC,232450.000,A,3748.8255,N,12217.8487,W,1.48,176.67,010611,,,A*73
$GPVTG,176.67,T,,M,1.48,N,2.7,K,A*04
$GPGGA,232451.000,3748.8250,N,12217.8486,W,1,05,1.8,-15.5,M,-25.1,M,,0000*74
$GPGSA,A,3,10,08,05,19,07,,,,,,,,2.7,1.8,2.0*3F
$GPRMC,232451.000,A,3748.8250,N,12217.8486,W,1.38,175.67,010611,,,A*72
$GPVTG,175.67,T,,M,1.38,N,2.6,K,A*01
$GPGGA,232452.000,3748.8240,N,12217.8488,W,1,05,1.8,-14.5,M,-25.1,M,,0000*79
$GPGSA,A,3,10,08,05,19,07,,,,,,,,2.7,1.8,2.0*3F
$GPRMC,232452.000,A,3748.8240,N,12217.8488,W,1.44,181.89,010611,,,A*7E
$GPVTG,181.89,T,,M,1.44,N,2.7,K,A*00
$GPGGA,232453.000,3748.8234,N,12217.8488,W,1,05,1.8,-14.9,M,-25.1,M,,0000*77
$GPGSA,A,3,10,08,05,19,07,,,,,,,,2.7,1.8,2.0*3F
$GPRMC,232453.000,A,3748.8234,N,12217.8488,W,1.46,202.16,010611,,,A*70
$GPVTG,202.16,T,,M,1.46,N,2.7,K,A*0C
$GPGGA,232454.000,3748.8228,N,12217.8490,W,1,05,1.8,-15.7,M,-25.1,M,,0000*7B
$GPGSA,A,3,10,08,05,19,07,,,,,,,,2.7,1.8,2.0*3F
$GPGSV,3,1,10,08,66,002,27,28,63,257,33,07,55,071,22,26,29,316,37*74
$GPGSV,3,2,10,19,24,049,22,13,22,151,24,05,18,268,38,17,14,186,32*7D
$GPGSV,3,3,10,11,13,104,21,10,12,219,40*70
$GPRMC,232454.000,A,3748.8228,N,12217.8490,W,1.71,212.57,010611,,,A*73
$GPVTG,212.57,T,,M,1.71,N,3.2,K,A*08
$GPGGA,232455.000,3748.8226,N,12217.8495,W,1,04,4.4,-16.9,M,-25.1,M,,0000*74
$GPGSA,A,3,10,08,05,07,,,,,,,,,9.2,4.4,8.1*3B
$GPRMC,232455.000,A,3748.8226,N,12217.8495,W,1.46,194.24,010611,,,A*74
$GPVTG,194.24,T,,M,1.46,N,2.7,K,A*01
$GPGGA,232456.000,3748.8221,N,12217.8494,W,1,04,4.4,-18.2,M,-25.1,M,,0000*74
$GPGSA,A,3,10,08,05,07,,,,,,,,,9.2,4.4,8.1*3B
$GPRMC,232456.000,A,3748.8221,N,12217.8494,W,1.58,189.99,010611,,,A*74
$GPVTG,189.99,T,,M,1.58,N,2.9,K,A*0A
$GPGGA,232457.000,3748.8213,N,12217.8492,W,1,05,1.8,-19.4,M,-25.1,M,,0000*7D
$GPGSA,A,3,10,08,05,19,07,,,,,,,,2.7,1.8,2.0*3F
$GPRMC,232457.000,A,3748.8213,N,12217.8492,W,1.78,195.18,010611,,,A*74
$GPVTG,195.18,T,,M,1.78,N,3.3,K,A*07
$GPGGA,232458.000,3748.8209,N,12217.8492,W,1,04,4.4,-21.2,M,-25.1,M,,0000*7C
$GPGSA,A,3,10,08,05,07,,,,,,,,,9.2,4.4,8.1*3B
$GPRMC,232458.000,A,3748.8209,N,12217.8492,W,1.52,186.28,010611,,,A*79
$GPVTG,186.28,T,,M,1.52,N,2.8,K,A*04
$GPGGA,232459.000,3748.8207,N,12217.8495,W,1,04,4.4,-22.2,M,-25.1,M,,0000*77
$GPGSA,A,3,10,08,05,07,,,,,,,,,9.2,4.4,8.1*3B
$GPGSV,3,1,10,08,66,002,27,28,63,257,33,07,55,071,23,26,29,316,37*75
$GPGSV,3,2,10,19,24,049,18,13,22,151,25,05,18,268,37,17,14,186,33*7B
$GPGSV,3,3,10,11,13,104,21,10,12,219,40*70
$GPRMC,232459.000,A,3748.8207,N,12217.8495,W,1.24,174.77,010611,,,A*77
$GPVTG,174.77,T,,M,1.24,N,2.3,K,A*09
$GPGGA,232500.000,3748.8204,N,12217.8500,W,1,04,4.4,-22.7,M,-25.1,M,,0000*71
$GPGSA,A,3,10,08,05,07,,,,,,,,,9.2,4.4,8.1*3B
$GPRMC,232500.000,A,3748.8204,N,12217.8500,W,1.74,216.17,010611,,,A*70
$GPVTG,216.17,T,,M,1.74,N,3.2,K,A*0D
$GPGGA,232501.000,3748.8200,N,12217.8508,W,1,04,4.4,-22.5,M,-25.1,M,,0000*7E
$GPGSA,A,3,10,08,05,07,,,,,,,,,9.2,4.4,8.1*3B
$GPRMC,232501.000,A,3748.8200,N,12217.8508,W,1.78,218.84,010611,,,A*75
$GPVTG,218.84,T,,M,1.78,N,3.3,K,A*04
$GPGGA,232502.000,3748.8196,N,12217.8520,W,1,04,4.4,-22.0,M,-25.1,M,,0000*7E
$GPGSA,A,3,10,08,05,07,,,,,,,,,9.2,4.4,8.1*3B
$GPRMC,232502.000,A,3748.8196,N,12217.8520,W,1.99,210.87,010611,,,A*74
$GPVTG,210.87,T,,M,1.99,N,3.7,K,A*04
$GPGGA,232503.000,3748.8193,N,12217.8528,W,1,04,4.4,-22.2,M,-25.1,M,,0000*70
$GPGSA,A,3,10,08,05,07,,,,,,,,,9.2,4.4,8.1*3B
$GPRMC,232503.000,A,3748.8193,N,12217.8528,W,1.86,197.71,010611,,,A*73
$GPVTG,197.71,T,,M,1.86,N,3.4,K,A*0C
$GPGGA,232504.000,3748.8188,N,12217.8530,W,1,04,4.4,-23.2,M,-25.1,M,,0000*75
$GPGSA,A,3,10,08,05,07,,,,,,,,,9.2,4.4,8.1*3B
$GPGSV,3,1,10,08,66,002,27,28,63,257,33,07,55,071,23,26,29,316,37*75
$GPGSV,3,2,10,19,24,049,18,13,22,151,25,05,18,268,39,17,14,186,34*72
$GPGSV,3,3,10,11,13,104,20,10,12,219,40*71
$GPRMC,232504.000,A,3748.8188,N,12217.8530,W,1.85,194.19,010611,,,A*79
$GPVTG,194.19,T,,M,1.85,N,3.4,K,A*02
$GPGGA,232505.000,3748.8184,N,12217.8532,W,1,04,4.4,-24.2,M,-25.1,M,,0000*7D
$GPGSA,A,3,10,08,05,07,,,,,,,,,9.2,4.4,8.1*3B
$GPRMC,232505.000,A,3748.8184,N,12217.8532,W,1.79,196.20,010611,,,A*7D
$GPVTG,196.20,T,,M,1.79,N,3.3,K,A*0E
$GPGGA,232506.000,3748.8180,N,12217.8536,W,1,04,4.4,-25.0,M,-25.1,M,,0000*7D
