$ADVER,3080,2.3
$GPRMC,183834.720,A,3748.7982,N,12217.8615,W,0.31,28.57,180612,,,A*4B
$GPRMC,183835.720,A,3748.7979,N,12217.8617,W,0.21,4.97,180612,,,A*7F
$GPRMC,183836.720,A,3748.7976,N,12217.8632,W,0.31,65.11,180612,,,A*4C
$GPRMC,183837.000,A,3748.7975,N,12217.8632,W,0.97,118.93,180612,,,A*76
$GPRMC,183838.000,A,3748.7975,N,12217.8628,W,0.36,98.62,180612,,,A*4E
$GPRMC,183839.000,A,3748.7976,N,12217.8625,W,0.19,109.95,180612,,,A*7D
$GPRMC,183839.000,A,3748.7977,N,12217.8624,W,0.17,8.94,180612,,,A*72
$GPRMC,183840.000,A,3748.7978,N,12217.8624,W,0.23,1.39,180612,,,A*7A
$GPRMC,183841.000,A,3748.7979,N,12217.8624,W,0.26,25.51,180612,,,A*47
$GPRMC,183842.000,A,3748.7979,N,12217.8623,W,0.23,38.73,180612,,,A*4A
$GPRMC,183843.000,A,3748.7980,N,12217.8624,W,0.30,19.44,180612,,,A*4F
$GPRMC,183844.000,A,3748.7980,N,12217.8624,W,0.24,23.35,180612,,,A*42
$GPRMC,183845.000,A,3748.7981,N,12217.8624,W,0.25,28.10,180612,,,A*4F
$GPRMC,183846.000,A,3748.7979,N,12217.8625,W,0.20,21.96,180612,,,A*48
$GPRMC,183847.000,A,3748.7978,N,12217.8626,W,0.17,25.98,180612,,,A*45
$GPRMC,183848.000,A,3748.7977,N,12217.8627,W,0.15,28.05,180612,,,A*4F
$GPRMC,183849.000,A,3748.7976,N,12217.8628,W,0.16,347.60,180612,,,A*7A
$GPRMC,183850.000,A,3748.7975,N,12217.8629,W,0.18,20.00,180612,,,A*4A
$GPRMC,183851.000,A,3748.7973,N,12217.8630,W,0.12,37.59,180612,,,A*45
$GPRMC,183852.000,A,3748.7972,N,12217.8629,W,0.55,92.05,180612,,,A*4A
$GPRMC,183853.000,A,3748.7969,N,12217.8628,W,0.88,110.96,180612,,,A*71
$GPRMC,183854.000,A,3748.7969,N,12217.8627,W,0.44,47.37,180612,,,A*41
$GPRMC,183855.000,A,3748.7971,N,12217.8628,W,1.01,36.41,180612,,,A*41
$GPRMC,183856.000,A,3748.7987,N,12217.8626,W,2.07,22.79,180612,,,A*4E
$GPRMC,183857.000,A,3748.7986,N,12217.8625,W,1.83,21.30,180612,,,A*4C
$GPRMC,183858.000,A,3748.7973,N,12217.8628,W,1.92,30.77,180612,,,A*47
$GPRMC,183859.000,A,3748.7967,N,12217.8624,W,0.97,31.19,180612,,,A*42
$GPRMC,183900.000,A,3748.7949,N,12217.8626,W,1.32,191.35,180612,,,A*7A
$GPRMC,183901.000,A,3748.7955,N,12217.8621,W,0.25,127.57,180612,,,A*7F
$GPRMC,183902.000,A,3748.7970,N,12217.8612,W,1.49,28.67,180612,,,A*4D
$GPRMC,183903.000,A,3748.7979,N,12217.8605,W,1.26,20.31,180612,,,A*41
$GPRMC,183904.000,A,3748.7985,N,12217.8602,W,1.00,12.78,180612,,,A*4A
$GPRMC,183905.000,A,3748.7991,N,12217.8600,W,0.64,18.91,180612,,,A*42
$GPRMC,183906.000,A,3748.7995,N,12217.8602,W,0.83,7.07,180612,,,A*7F
$GPRMC,183907.000,A,3748.8002,N,12217.8603,W,1.19,0.49,180612,,,A*78
$GPRMC,183908.000,A,3748.7982,N,12217.8609,W,0.11,349.19,180612,,,A*71
$GPRMC,183909.000,A,3748.7962,N,12217.8620,W,0.13,118.48,180612,,,A*75
$GPRMC,183910.000,A,3748.7960,N,12217.8627,W,0.33,304.93,180612,,,A*73
$GPRMC,183911.000,A,3748.7959,N,12217.8634,W,0.73,332.28,180612,,,A*7B
$GPRMC,183912.000,A,3748.7953,N,12217.8640,W,0.24,332.39,180612,,,D*76
$GPRMC,183913.000,A,3748.7954,N,12217.8640,W,0.20,91.46,180612,,,D*46
$GPRMC,183914.000,A,3748.7954,N,12217.8641,W,0.61,21.78,180612,,,D*43
$GPRMC,183915.000,A,3748.7951,N,12217.8643,W,0.36,15.75,180612,,,D*4D
$GPRMC,183916.000,A,3748.7950,N,12217.8643,W,0.20,25.20,180612,,,D*4B
$GPRMC,183917.000,A,3748.7952,N,12217.8642,W,0.27,357.50,180612,,,D*7F
$GPRMC,183918.000,A,3748.7954,N,12217.8639,W,0.14,48.03,180612,,,D*41
$GPRMC,183919.000,A,3748.7956,N,12217.8637,W,0.13,64.20,180612,,,D*44
$GPRMC,183920.000,A,3748.7960,N,12217.8635,W,0.16,39.41,180612,,,D*43
$GPRMC,183921.000,A,3748.7950,N,12217.8640,W,0.13,231.83,180612,,,D*72
$GPRMC,183922.000,A,3748.7937,N,12217.8640,W,1.25,168.10,180612,,,D*71
$GPRMC,183923.000,A,3748.7950,N,12217.8625,W,1.30,88.86,180612,,,D*46
$GPRMC,183924.000,A,3748.7964,N,12217.8616,W,0.77,30.26,180612,,,D*4D
$GPRMC,183925.000,A,3748.7976,N,12217.8608,W,0.83,8.89,180612,,,D*75
$GPRMC,183926.000,A,3748.7999,N,12217.8601,W,0.88,346.55,180612,,,D*7D
$GPRMC,183927.000,A,3748.8003,N,12217.8598,W,1.04,2.62,180612,,,D*78
$GPRMC,183928.000,A,3748.8010,N,12217.8590,W,1.15,17.80,180612,,,D*45
$GPRMC,183929.000,A,3748.8050,N,12217.8582,W,1.70,8.30,180612,,,D*75
$GPRMC,183930.000,A,3748.8076,N,12217.8575,W,1.52,11.30,180612,,,D*49
$GPRMC,183931.000,A,3748.8094,N,12217.8569,W,1.18,16.01,180612,,,D*42
$GPRMC,183932.000,A,3748.8108,N,12217.8564,W,1.02,18.09,180612,,,D*45
$GPRMC,183933.000,A,3748.8120,N,12217.8560,W,0.88,17.26,180612,,,D*4B
$GPRMC,183934.000,A,3748.8127,N,12217.8552,W,0.74,32.50,180612,,,D*4F
$GPRMC,183935.000,A,3748.8132,N,12217.8547,W,0.67,23.45,180612,,,D*48
$GPRMC,183936.000,A,3748.8122,N,12217.8542,W,0.25,85.97,180612,,,D*4A
$GPRMC,183937.000,A,3748.8106,N,12217.8547,W,0.35,240.95,180612,,,D*70
$GPRMC,183938.000,A,3748.8098,N,12217.8553,W,0.41,288.33,180612,,,D*77
$GPRMC,183939.000,A,3748.8102,N,12217.8551,W,0.48,358.94,180612,,,D*7E
$GPRMC,183940.000,A,3748.8093,N,12217.8552,W,0.50,161.67,180612,,,D*77
$GPRMC,183941.000,A,3748.8094,N,12217.8552,W,0.61,176.74,180612,,,D*77
$GPRMC,183942.000,A,3748.8097,N,12217.8553,W,0.44,155.26,180612,,,A*72
$GPRMC,183943.000,A,3748.8097,N,12217.8553,W,0.91,178.84,180612,,,A*7C
$GPRMC,183944.000,A,3748.8091,N,12217.8562,W,1.01,218.12,180612,,,A*7D
$GPRMC,183945.000,A,3748.8087,N,12217.8570,W,0.81,190.41,180612,,,A*74
$GPRMC,183946.000,A,3748.8085,N,12217.8571,W,0.81,190.41,180612,,,E*70
$GPRMC,183947.000,A,3748.8083,N,12217.8589,W,2.76,259.93,180612,,,A*77
$GPRMC,183948.000,A,3748.8050,N,12217.8610,W,3.53,236.88,180612,,,A*70
$GPRMC,183949.000,A,3748.8020,N,12217.8613,W,4.00,197.62,180612,,,A*78
$GPRMC,183950.000,A,3748.8027,N,12217.8624,W,1.79,205.11,180612,,,A*74
$GPRMC,183951.000,A,3748.8007,N,12217.8644,W,1.11,210.78,180612,,,A*74
$GPRMC,183952.000,A,3748.8014,N,12217.8648,W,0.34,135.39,180612,,,A*7E
$GPRMC,183953.000,A,3748.8027,N,12217.8639,W,0.88,162.31,180612,,,A*74
$GPRMC,183954.000,A,3748.8019,N,12217.8644,W,1.07,166.90,180612,,,A*7D
$GPRMC,183955.000,A,3748.8012,N,12217.8648,W,0.93,163.11,180612,,,A*7B
$GPRMC,183956.000,A,3748.8022,N,12217.8652,W,0.71,226.33,180612,,,A*7E
$GPRMC,183957.000,A,3748.8023,N,12217.8653,W,1.11,161.68,180612,,,A*76
$GPRMC,183958.000,A,3748.8039,N,12217.8639,W,1.59,125.40,180612,,,A*78
$GPRMC,183959.000,A,3748.8060,N,12217.8619,W,1.45,77.39,180612,,,A*42
$GPRMC,184000.000,A,3748.8067,N,12217.8602,W,1.05,86.71,180612,,,A*4B
$GPRMC,184001.000,A,3748.8053,N,12217.8596,W,0.67,102.52,180612,,,A*7A
$GPRMC,184002.000,A,3748.8061,N,12217.8602,W,1.22,341.59,180612,,,A*78
$GPRMC,184003.000,A,3748.8074,N,12217.8607,W,2.16,351.98,180612,,,A*70
$GPRMC,184004.000,A,3748.8069,N,12217.8597,W,1.34,35.02,180612,,,A*40
$GPRMC,184005.000,A,3748.8097,N,12217.8592,W,1.96,32.55,180612,,,A*48
$GPRMC,184006.000,A,3748.8096,N,12217.8601,W,0.62,31.34,180612,,,A*4D
$GPRMC,184007.000,A,3748.8092,N,12217.8602,W,0.80,58.20,180612,,,A*4D
$GPRMC,184008.000,A,3748.8100,N,12217.8600,W,1.13,68.98,180612,,,A*41
$GPRMC,184009.000,A,3748.8085,N,12217.8603,W,1.19,108.22,180612,,,A*73
$GPRMC,184010.000,A,3748.8078,N,12217.8600,W,1.53,103.01,180612,,,A*7E
$GPRMC,184011.000,A,3748.8066,N,12217.8596,W,1.89,121.22,180612,,,A*7A
$GPRMC,184012.000,A,3748.8058,N,12217.8589,W,1.79,119.57,180612,,,A*7C
$GPRMC,184013.000,A,3748.8039,N,12217.8585,W,2.18,165.22,180612,,,A*7B
$GPRMC,184014.000,A,3748.8029,N,12217.8584,W,1.74,154.86,180612,,,A*79
$GPRMC,184015.000,A,3748.8025,N,12217.8577,W,1.42,143.13,180612,,,A*77
$GPRMC,184016.000,A,3748.8007,N,12217.8574,W,2.03,140.74,180612,,,A*73
$GPRMC,184017.000,A,3748.7985,N,12217.8572,W,2.47,149.47,180612,,,A*71
$GPRMC,184018.000,A,3748.7977,N,12217.8565,W,2.49,166.94,180612,,,A*78
$GPRMC,184019.000,A,3748.7976,N,12217.8562,W,1.27,154.91,180612,,,A*70
$GPRMC,184020.000,A,3748.7981,N,12217.8568,W,0.27,228.76,180612,,,A*78
$GPRMC,184021.000,A,3748.7989,N,12217.8572,W,0.18,115.17,180612,,,A*7C
$GPRMC,184022.000,A,3748.7989,N,12217.8572,W,0.52,103.64,180612,,,A*72
$GPRMC,184023.000,A,3748.7993,N,12217.8578,W,0.55,3.17,180612,,,A*70
$GPRMC,184024.000,A,3748.7994,N,12217.8579,W,0.97,34.53,180612,,,A*4B
$GPRMC,184025.000,A,3748.8002,N,12217.8587,W,1.13,14.41,180612,,,A*4E
$GPRMC,184026.000,A,3748.8006,N,12217.8596,W,0.74,353.26,180612,,,A*78
$GPRMC,184027.000,A,3748.8007,N,12217.8601,W,0.53,350.43,180612,,,A*70
$GPRMC,184028.000,A,3748.8008,N,12217.8610,W,0.33,347.72,180612,,,A*72
$GPRMC,184029.000,A,3748.8007,N,12217.8615,W,0.11,228.07,180612,,,A*73
$GPRMC,184030.000,A,3748.8006,N,12217.8618,W,0.10,312.00,180612,,,A*79
$GPRMC,184031.000,A,3748.8005,N,12217.8623,W,0.15,280.51,180612,,,A*78
$GPRMC,184032.000,A,3748.8005,N,12217.8628,W,0.16,309.94,180612,,,A*7A
$GPRMC,184033.000,A,3748.8004,N,12217.8634,W,0.13,314.71,180612,,,A*75
$GPRMC,184034.000,A,3748.8004,N,12217.8640,W,0.26,336.56,180612,,,A*72
$GPRMC,184035.000,A,3748.8004,N,12217.8646,W,0.21,333.00,180612,,,A*74
$GPRMC,184036.000,A,3748.8003,N,12217.8652,W,0.15,307.40,180612,,,A*71
$GPRMC,184037.000,A,3748.8003,N,12217.8658,W,0.18,327.35,180612,,,A*77
$GPRMC,184038.000,A,3748.8003,N,12217.8664,W,0.17,317.12,180612,,,A*7E
$GPRMC,184039.000,A,3748.8002,N,12217.8669,W,0.18,326.30,180612,,,A*7E
$GPRMC,184040.000,A,3748.8002,N,12217.8675,W,0.16,317.44,180612,,,A*72
$GPRMC,184041.000,A,3748.8001,N,12217.8680,W,0.00,4.86,180612,,,A*72
$GPRMC,184042.000,A,3748.7999,N,12217.8681,W,0.58,121.09,180612,,,A*7B
$GPRMC,184043.000,A,3748.7993,N,12217.8688,W,0.77,127.20,180612,,,A*79
$GPRMC,184044.000,A,3748.7967,N,12217.8689,W,2.49,164.24,180612,,,A*78
$GPRMC,184045.000,A,3748.7955,N,12217.8679,W,1.86,154.64,180612,,,A*70
$GPRMC,184046.000,A,3748.7943,N,12217.8669,W,2.58,163.00,180612,,,A*73
$GPRMC,184047.000,A,3748.7921,N,12217.8664,W,2.37,159.04,180612,,,A*7F
$GPRMC,184048.000,A,3748.7908,N,12217.8655,W,2.28,161.99,180612,,,A*78
$GPRMC,184049.000,A,3748.7895,N,12217.8647,W,3.94,176.54,180612,,,A*7E
$GPRMC,184050.000,A,3748.7876,N,12217.8642,W,3.20,181.92,180612,,,A*73
$GPRMC,184051.000,A,3748.7862,N,12217.8636,W,2.31,182.17,180612,,,A*7B
$GPRMC,184052.000,A,3748.7853,N,12217.8632,W,1.32,181.26,180612,,,A*7F
$GPRMC,184053.000,A,3748.7846,N,12217.8630,W,0.28,158.28,180612,,,A*78
$GPRMC,184054.000,A,3748.7833,N,12217.8627,W,1.43,178.05,180612,,,A*7A
$GPRMC,184055.000,A,3748.7831,N,12217.8621,W,1.29,165.57,180612,,,A*78
$GPRMC,184056.000,A,3748.7827,N,12217.8620,W,0.83,200.02,180612,,,A*7C
$GPRMC,184057.000,A,3748.7834,N,12217.8616,W,0.55,130.76,180612,,,A*72
$GPRMC,184058.000,A,3748.7826,N,12217.8614,W,1.43,166.46,180612,,,A*7A
$GPRMC,184059.000,A,3748.7814,N,12217.8610,W,0.91,168.75,180612,,,A*7E
$GPRMC,184100.000,A,3748.7812,N,12217.8601,W,1.52,166.72,180612,,,A*72
$GPRMC,184101.000,A,3748.7828,N,12217.8588,W,0.74,114.33,180612,,,A*7D
$GPRMC,184102.000,A,3748.7835,N,12217.8578,W,0.68,89.64,180612,,,A*47
$GPRMC,184103.000,A,3748.7839,N,12217.8572,W,1.04,77.87,180612,,,A*47
$GPRMC,184104.000,A,3748.7814,N,12217.8573,W,2.15,165.26,180612,,,A*74
$GPRMC,184105.000,A,3748.7794,N,12217.8573,W,3.44,180.11,180612,,,A*78
$GPRMC,184106.000,A,3748.7787,N,12217.8571,W,3.27,176.31,180612,,,A*75
$GPRMC,184107.000,A,3748.7787,N,12217.8558,W,2.60,155.78,180612,,,A*71
$GPRMC,184108.000,A,3748.7790,N,12217.8554,W,2.24,153.46,180612,,,A*7F
$GPRMC,184109.000,A,3748.7778,N,12217.8550,W,2.39,161.48,180612,,,A*7F
$GPRMC,184110.000,A,3748.7762,N,12217.8547,W,1.76,153.01,180612,,,A*7E
$GPRMC,184111.000,A,3748.7754,N,12217.8540,W,1.00,107.99,180612,,,A*7C
$GPRMC,184112.000,A,3748.7731,N,12217.8533,W,1.41,162.13,180612,,,A*7C
$GPRMC,184113.000,A,3748.7708,N,12217.8528,W,1.72,146.97,180612,,,A*77
$GPRMC,184114.000,A,3748.7684,N,12217.8525,W,2.53,161.93,180612,,,A*79
$GPRMC,184115.000,A,3748.7680,N,12217.8523,W,1.33,163.14,180612,,,A*72
$GPRMC,184116.000,A,3748.7674,N,12217.8519,W,1.52,178.24,180612,,,A*7D
$GPRMC,184117.000,A,3748.7662,N,12217.8514,W,2.27,176.51,180612,,,A*7B
$GPRMC,184118.000,A,3748.7654,N,12217.8509,W,2.94,178.06,180612,,,A*79
$GPRMC,184119.000,A,3748.7658,N,12217.8505,W,1.99,170.55,180612,,,A*78
$GPRMC,184120.000,A,3748.7665,N,12217.8497,W,1.46,153.21,180612,,,A*76
$GPRMC,184121.000,A,3748.7683,N,12217.8486,W,0.46,42.37,180612,,,A*48
$GPRMC,184122.000,A,3748.7692,N,12217.8481,W,0.32,34.05,180612,,,D*4A
$GPRMC,184123.000,A,3748.7694,N,12217.8476,W,0.23,46.89,180612,,,D*44
$GPRMC,184124.000,A,3748.7691,N,12217.8472,W,0.28,170.98,180612,,,D*7D
$GPRMC,184125.000,A,3748.7686,N,12217.8468,W,0.73,143.18,180612,,,D*77
$GPRMC,184126.000,A,3748.7704,N,12217.8461,W,0.31,77.56,180612,,,D*4C
$GPRMC,184127.000,A,3748.7702,N,12217.8458,W,1.23,149.15,180612,,,D*78
$GPRMC,184128.000,A,3748.7710,N,12217.8451,W,1.43,128.12,180612,,,D*7B
$GPRMC,184129.000,A,3748.7713,N,12217.8445,W,1.29,89.39,180612,,,D*43
$GPRMC,184130.000,A,3748.7718,N,12217.8435,W,1.46,83.07,180612,,,D*49
$GPRMC,184131.000,A,3748.7731,N,12217.8424,W,1.13,101.39,180612,,,D*75
$GPRMC,184132.000,A,3748.7739,N,12217.8418,W,1.48,77.62,180612,,,D*41
$GPRMC,184133.000,A,3748.7744,N,12217.8412,W,0.72,74.69,180612,,,D*40
$GPRMC,184134.000,A,3748.7762,N,12217.8406,W,1.30,46.81,180612,,,D*46
$GPRMC,184135.000,A,3748.7767,N,12217.8399,W,1.59,54.62,180612,,,D*42
$GPRMC,184136.000,A,3748.7764,N,12217.8394,W,1.09,123.67,180612,,,D*7E
$GPRMC,184137.000,A,3748.7763,N,12217.8389,W,1.31,99.15,180612,,,D*4A
$GPRMC,184138.000,A,3748.7773,N,12217.8379,W,1.64,88.19,180612,,,D*47
$GPRMC,184139.000,A,3748.7777,N,12217.8370,W,1.52,60.20,180612,,,D*42
$GPRMC,184140.000,A,3748.7780,N,12217.8365,W,1.49,86.33,180612,,,D*40
$GPRMC,184141.000,A,3748.7792,N,12217.8365,W,1.40,55.24,180612,,,D*43
$GPRMC,184142.000,A,3748.7793,N,12217.8361,W,1.58,72.85,180612,,,D*42
$GPRMC,184143.000,A,3748.7761,N,12217.8356,W,1.88,103.54,180612,,,D*7C
$GPRMC,184144.000,A,3748.7748,N,12217.8351,W,0.92,148.66,180612,,,D*73
$GPRMC,184145.000,A,3748.7748,N,12217.8342,W,0.99,111.29,180612,,,D*7C
$GPRMC,184146.000,A,3748.7736,N,12217.8336,W,1.52,121.98,180612,,,D*7A
$GPRMC,184147.000,A,3748.7730,N,12217.8333,W,1.33,95.75,180612,,,D*42
$GPRMC,184148.000,A,3748.7727,N,12217.8324,W,1.53,111.21,180612,,,D*77
$GPRMC,184149.000,A,3748.7736,N,12217.8314,W,1.52,52.10,180612,,,D*40
$GPRMC,184150.000,A,3748.7740,N,12217.8302,W,0.69,96.58,180612,,,D*43
$GPRMC,184151.000,A,3748.7718,N,12217.8303,W,2.40,173.84,180612,,,D*7C
$GPRMC,184152.000,A,3748.7690,N,12217.8306,W,3.84,183.43,180612,,,D*76
$GPRMC,184153.000,A,3748.7670,N,12217.8306,W,4.15,174.80,180612,,,D*71
$GPRMC,184154.000,A,3748.7685,N,12217.8294,W,3.59,164.48,180612,,,D*7C
$GPRMC,184155.000,A,3748.7684,N,12217.8282,W,2.84,170.29,180612,,,D*78
$GPRMC,184156.000,A,3748.7695,N,12217.8272,W,2.80,171.00,180612,,,D*7A
$GPRMC,184157.000,A,3748.7687,N,12217.8265,W,2.47,161.34,180612,,,D*73
$GPRMC,184158.000,A,3748.7673,N,12217.8261,W,3.46,173.40,180612,,,D*73
$GPRMC,184159.000,A,3748.7668,N,12217.8254,W,2.54,162.24,180612,,,D*7E
$GPRMC,184200.000,A,3748.7669,N,12217.8250,W,2.05,159.84,180612,,,D*72
$GPRMC,184201.000,A,3748.7679,N,12217.8241,W,1.48,100.57,180612,,,D*7A
$GPRMC,184202.000,A,3748.7689,N,12217.8233,W,2.45,50.05,180612,,,D*4E
$GPRMC,184203.000,A,3748.7693,N,12217.8225,W,2.19,50.46,180612,,,D*4D
$GPRMC,184204.000,A,3748.7710,N,12217.8213,W,2.59,34.76,180612,,,D*40
$GPRMC,184205.000,A,3748.7706,N,12217.8205,W,2.03,34.65,180612,,,D*4C
$GPRMC,184206.000,A,3748.7691,N,12217.8202,W,1.08,44.94,180612,,,D*46
$GPRMC,184207.000,A,3748.7683,N,12217.8197,W,1.14,151.16,180612,,,D*79
$GPRMC,184208.000,A,3748.7692,N,12217.8187,W,0.37,147.90,180612,,,D*7E
$GPRMC,184209.000,A,3748.7681,N,12217.8180,W,1.60,143.08,180612,,,D*7C
$GPRMC,184210.000,A,3748.7676,N,12217.8169,W,1.36,118.53,180612,,,D*78
$GPRMC,184211.000,A,3748.7659,N,12217.8166,W,1.85,165.93,180612,,,D*75
$GPRMC,184212.000,A,3748.7650,N,12217.8170,W,1.10,167.48,180612,,,D*70
$GPRMC,184213.000,A,3748.7652,N,12217.8171,W,0.21,238.09,180612,,,D*7D
$GPRMC,184214.000,A,3748.7659,N,12217.8177,W,0.68,27.46,180612,,,D*4D
$GPRMC,184215.000,A,3748.7661,N,12217.8179,W,0.25,8.39,180612,,,D*75
$GPRMC,184216.000,A,3748.7651,N,12217.8187,W,0.91,307.12,180612,,,D*7E
$GPRMC,184217.000,A,3748.7641,N,12217.8195,W,1.52,291.29,180612,,,D*75
$GPRMC,184218.000,A,3748.7632,N,12217.8205,W,2.02,293.79,180612,,,D*75
$GPRMC,184219.000,A,3748.7624,N,12217.8216,W,2.41,299.81,180612,,,D*7B
$GPRMC,184220.000,A,3748.7602,N,12217.8230,W,2.55,265.76,180612,,,D*7F
$GPRMC,184221.000,A,3748.7568,N,12217.8245,W,2.64,261.28,180612,,,D*7E
$GPRMC,184222.000,A,3748.7546,N,12217.8253,W,1.92,250.27,180612,,,D*71
$GPRMC,184223.000,A,3748.7526,N,12217.8251,W,1.53,208.90,180612,,,A*7D
$GPRMC,184224.000,A,3748.7494,N,12217.8244,W,2.33,165.59,180612,,,A*7E
$GPRMC,184225.000,A,3748.7501,N,12217.8243,W,1.22,170.06,180612,,,A*78
$GPRMC,184226.000,A,3748.7511,N,12217.8235,W,0.45,128.58,180612,,,A*7D
$GPRMC,184227.000,A,3748.7507,N,12217.8225,W,1.63,160.32,180612,,,A*7F
$GPRMC,184228.000,A,3748.7523,N,12217.8236,W,0.97,16.65,180612,,,A*4C
$GPRMC,184229.000,A,3748.7548,N,12217.8249,W,1.19,19.46,180612,,,A*41
$GPRMC,184230.000,A,3748.7557,N,12217.8249,W,1.21,34.27,180612,,,A*44
$GPRMC,184231.000,A,3748.7552,N,12217.8235,W,1.13,48.85,180612,,,A*49
$GPRMC,184232.000,A,3748.7566,N,12217.8221,W,1.80,31.44,180612,,,A*41
$GPRMC,184233.000,A,3748.7581,N,12217.8205,W,2.30,43.05,180612,,,A*47
$GPRMC,184234.000,A,3748.7601,N,12217.8189,W,2.33,40.37,180612,,,A*4D
$GPRMC,184235.000,A,3748.7610,N,12217.8175,W,1.80,42.69,180612,,,A*4D
$GPRMC,184236.000,A,3748.7597,N,12217.8165,W,0.75,70.41,180612,,,D*46
$GPRMC,184237.000,A,3748.7592,N,12217.8163,W,0.86,121.60,180612,,,D*7E
$GPRMC,184238.000,A,3748.7597,N,12217.8154,W,2.05,143.64,180612,,,D*79
$GPRMC,184239.000,A,3748.7611,N,12217.8141,W,1.66,150.71,180612,,,D*71
$GPRMC,184240.000,A,3748.7613,N,12217.8135,W,1.34,127.86,180612,,,D*71
$GPRMC,184241.000,A,3748.7607,N,12217.8132,W,1.38,107.52,180612,,,D*75
$GPRMC,184242.000,A,3748.7595,N,12217.8128,W,2.28,157.48,180612,,,D*79
$GPRMC,184243.000,A,3748.7574,N,12217.8125,W,4.36,169.89,180612,,,D*73
$GPRMC,184244.000,A,3748.7562,N,12217.8119,W,4.44,178.51,180612,,,D*7C
$GPRMC,184245.000,A,3748.7565,N,12217.8107,W,2.74,171.87,180612,,,D*72
$GPRMC,184246.000,A,3748.7573,N,12217.8099,W,1.90,158.38,180612,,,D*76
$GPRMC,184247.000,A,3748.7586,N,12217.8087,W,1.87,158.23,180612,,,D*7E
$GPRMC,184248.000,A,3748.7562,N,12217.8084,W,3.25,179.57,180612,,,D*72
$GPRMC,184249.000,A,3748.7543,N,12217.8081,W,3.80,179.71,180612,,,D*7E
$GPRMC,184250.000,A,3748.7531,N,12217.8079,W,3.86,178.59,180612,,,D*79
$GPRMC,184251.000,A,3748.7519,N,12217.8076,W,3.72,179.16,180612,,,D*7C
$GPRMC,184252.000,A,3748.7504,N,12217.8071,W,3.64,173.18,180612,,,D*77
$GPRMC,184253.000,A,3748.7498,N,12217.8068,W,3.71,168.12,180612,,,D*7E
$GPRMC,184254.000,A,3748.7514,N,12217.8055,W,2.96,162.02,180612,,,D*71
$GPRMC,184255.000,A,3748.7522,N,12217.8043,W,2.22,155.36,180612,,,D*7E
$GPRMC,184256.000,A,3748.7540,N,12217.8032,W,1.67,148.02,180612,,,D*76
$GPRMC,184257.000,A,3748.7557,N,12217.8018,W,1.58,140.96,180612,,,D*70
$GPRMC,184258.000,A,3748.7565,N,12217.8004,W,1.15,93.58,180612,,,D*47
$GPRMC,184259.000,A,3748.7586,N,12217.7990,W,1.15,82.55,180612,,,D*4D
$GPRMC,184300.000,A,3748.7607,N,12217.7976,W,1.51,69.88,180612,,,D*47
$GPRMC,184301.000,A,3748.7583,N,12217.7972,W,1.60,107.01,180612,,,D*77
$GPRMC,184302.000,A,3748.7566,N,12217.7963,W,1.92,136.19,180612,,,D*79
$GPRMC,184303.000,A,3748.7578,N,12217.7943,W,1.80,128.28,180612,,,D*7B
$GPRMC,184304.000,A,3748.7583,N,12217.7927,W,2.10,132.71,180612,,,D*77
$GPRMC,184305.000,A,3748.7606,N,12217.7910,W,1.91,115.41,180612,,,D*70
$GPRMC,184306.000,A,3748.7619,N,12217.7897,W,1.49,117.93,180612,,,D*7B
$GPRMC,184307.000,A,3748.7614,N,12217.7887,W,2.46,143.68,180612,,,D*7F
$GPRMC,184308.000,A,3748.7621,N,12217.7875,W,2.37,151.53,180612,,,D*76
$GPRMC,184309.000,A,3748.7636,N,12217.7866,W,1.94,151.64,180612,,,D*7D
$GPRMC,184310.000,A,3748.7638,N,12217.7857,W,1.62,134.50,180612,,,D*74
$GPRMC,184311.000,A,3748.7633,N,12217.7849,W,1.96,116.91,180612,,,D*77
$GPRMC,184312.000,A,3748.7612,N,12217.7845,W,1.89,137.57,180612,,,D*7C
$GPRMC,184313.000,A,3748.7593,N,12217.7850,W,1.96,151.57,180612,,,D*7D
$GPRMC,184314.000,A,3748.7578,N,12217.7843,W,2.15,145.66,180612,,,D*72
$GPRMC,184315.000,A,3748.7559,N,12217.7840,W,2.61,138.40,180612,,,D*7E
$GPRMC,184316.000,A,3748.7554,N,12217.7835,W,2.34,136.68,180612,,,D*76
$GPRMC,184317.000,A,3748.7562,N,12217.7828,W,2.00,114.28,180612,,,D*7D
$GPRMC,184318.000,A,3748.7570,N,12217.7820,W,1.71,106.86,180612,,,D*7B
$GPRMC,184319.000,A,3748.7588,N,12217.7809,W,1.48,104.48,180612,,,D*7C
$GPRMC,184320.000,A,3748.7599,N,12217.7800,W,1.74,67.72,180612,,,D*4D
$GPRMC,184321.000,A,3748.7614,N,12217.7784,W,2.27,53.86,180612,,,D*40
$GPRMC,184322.000,A,3748.7610,N,12217.7773,W,1.55,91.63,180612,,,D*4C
$GPRMC,184323.000,A,3748.7594,N,12217.7770,W,2.09,121.22,180612,,,D*74
$GPRMC,184324.000,A,3748.7587,N,12217.7765,W,2.09,107.76,180612,,,D*70
$GPRMC,184325.000,A,3748.7580,N,12217.7761,W,1.69,100.88,180612,,,D*71
$GPRMC,184326.000,A,3748.7577,N,12217.7756,W,2.02,121.16,180612,,,D*74
$GPRMC,184327.000,A,3748.7593,N,12217.7736,W,1.89,108.81,180612,,,D*7C
$GPRMC,184328.000,A,3748.7608,N,12217.7718,W,1.78,105.70,180612,,,D*73
$GPRMC,184329.000,A,3748.7616,N,12217.7704,W,1.53,109.94,180612,,,D*7F
$GPRMC,184330.000,A,3748.7623,N,12217.7696,W,1.66,90.10,180612,,,D*40
$GPRMC,184331.000,A,3748.7615,N,12217.7689,W,1.76,93.14,180612,,,D*4C
$GPRMC,184332.000,A,3748.7605,N,12217.7682,W,2.28,140.92,180612,,,D*7C
$GPRMC,184333.000,A,3748.7584,N,12217.7675,W,2.43,144.76,180612,,,D*7C
$GPRMC,184334.000,A,3748.7577,N,12217.7667,W,2.46,149.56,180612,,,D*7E
$GPRMC,184335.000,A,3748.7591,N,12217.7652,W,2.40,149.57,180612,,,D*76
$GPRMC,184336.000,A,3748.7589,N,12217.7643,W,2.95,164.45,180612,,,D*78
$GPRMC,184337.000,A,3748.7617,N,12217.7625,W,1.77,139.39,180612,,,D*71
$GPRMC,184338.000,A,3748.7622,N,12217.7613,W,1.43,133.54,180612,,,D*7B
$GPRMC,184339.000,A,3748.7627,N,12217.7602,W,1.30,94.69,180612,,,D*49
$GPRMC,184340.000,A,3748.7613,N,12217.7598,W,1.63,122.17,180612,,,D*73
$GPRMC,184341.000,A,3748.7608,N,12217.7594,W,1.82,144.49,180612,,,D*70
$GPRMC,184342.000,A,3748.7624,N,12217.7579,W,1.75,139.94,180612,,,D*7C
$GPRMC,184343.000,A,3748.7619,N,12217.7573,W,1.57,134.89,180612,,,D*78
$GPRMC,184344.000,A,3748.7616,N,12217.7570,W,1.95,110.22,180612,,,D*7A
$GPRMC,184345.000,A,3748.7604,N,12217.7571,W,2.02,140.68,180612,,,D*7F
$GPRMC,184346.000,A,3748.7594,N,12217.7570,W,1.76,124.68,180612,,,D*75
$GPRMC,184347.000,A,3748.7576,N,12217.7563,W,1.95,111.64,180612,,,D*7D
$GPRMC,184348.000,A,3748.7571,N,12217.7555,W,1.21,87.97,180612,,,D*4D
$GPRMC,184349.000,A,3748.7563,N,12217.7553,W,1.91,137.01,180612,,,D*77
$GPRMC,184350.000,A,3748.7548,N,12217.7552,W,2.56,144.19,180612,,,D*72
$GPRMC,184351.000,A,3748.7524,N,12217.7554,W,2.69,146.64,180612,,,D*7B
$GPRMC,184352.000,A,3748.7521,N,12217.7555,W,1.86,159.90,180612,,,D*7B
$GPRMC,184353.000,A,3748.7505,N,12217.7554,W,2.38,147.32,180612,,,D*7C
$GPRMC,184354.000,A,3748.7487,N,12217.7559,W,2.62,149.54,180612,,,D*7C
$GPRMC,184355.000,A,3748.7469,N,12217.7560,W,2.70,146.98,180612,,,D*7B
$GPRMC,184356.000,A,3748.7452,N,12217.7558,W,2.66,158.20,180612,,,D*70
$GPRMC,184357.000,A,3748.7441,N,12217.7554,W,2.33,152.03,180612,,,D*74
$GPRMC,184358.000,A,3748.7421,N,12217.7549,W,2.39,146.00,180612,,,D*7D
$GPRMC,184359.000,A,3748.7391,N,12217.7550,W,2.52,151.99,180612,,,D*73
$GPRMC,184400.000,A,3748.7378,N,12217.7549,W,2.61,147.99,180612,,,D*70
$GPRMC,184401.000,A,3748.7369,N,12217.7547,W,2.92,154.82,180612,,,D*7B
$GPRMC,184402.000,A,3748.7374,N,12217.7540,W,2.69,150.45,180612,,,D*78
$GPRMC,184403.000,A,3748.7370,N,12217.7535,W,2.60,159.91,180612,,,D*76
$GPRMC,184404.000,A,3748.7359,N,12217.7532,W,1.91,140.85,180612,,,D*7D
$GPRMC,184405.000,A,3748.7368,N,12217.7523,W,1.64,130.64,180612,,,D*7C
$GPRMC,184406.000,A,3748.7380,N,12217.7513,W,2.24,127.13,180612,,,D*7B
$GPRMC,184407.000,A,3748.7368,N,12217.7512,W,2.68,156.98,180612,,,D*70
$GPRMC,184408.000,A,3748.7376,N,12217.7505,W,2.14,150.74,180612,,,D*79
$GPRMC,184409.000,A,3748.7362,N,12217.7504,W,2.31,151.35,180612,,,D*7F
$GPRMC,184410.000,A,3748.7377,N,12217.7490,W,1.86,146.91,180612,,,D*78
$GPRMC,184411.000,A,3748.7406,N,12217.7472,W,1.17,138.05,180612,,,D*78
$GPRMC,184412.000,A,3748.7447,N,12217.7454,W,1.80,60.94,180612,,,D*40
$GPRMC,184413.000,A,3748.7454,N,12217.7446,W,2.08,61.14,180612,,,D*4A
$GPRMC,184414.000,A,3748.7429,N,12217.7444,W,1.43,122.26,180612,,,D*7E
$GPRMC,184415.000,A,3748.7429,N,12217.7431,W,1.70,131.16,180612,,,D*7C
$GPRMC,184416.000,A,3748.7408,N,12217.7427,W,1.81,124.23,180612,,,D*77
$GPRMC,184417.000,A,3748.7393,N,12217.7423,W,1.48,150.32,180612,,,D*71
$GPRMC,184418.000,A,3748.7397,N,12217.7414,W,0.95,157.16,180612,,,D*7E
$GPRMC,184419.000,A,3748.7425,N,12217.7395,W,0.81,105.94,180612,,,D*77
$GPRMC,184420.000,A,3748.7423,N,12217.7386,W,1.07,113.95,180612,,,D*70
$GPRMC,184421.000,A,3748.7395,N,12217.7386,W,1.39,141.99,180612,,,D*7D
$GPRMC,184422.000,A,3748.7347,N,12217.7394,W,1.75,159.43,180612,,,D*74
$GPRMC,184423.000,A,3748.7322,N,12217.7392,W,2.28,178.22,180612,,,D*7F
$GPRMC,184424.000,A,3748.7299,N,12217.7391,W,2.45,173.77,180612,,,D*7A
$GPRMC,184425.000,A,3748.7297,N,12217.7383,W,2.53,175.27,180612,,,D*72
$GPRMC,184426.000,A,3748.7288,N,12217.7378,W,2.40,178.39,180612,,,D*7B
$GPRMC,184427.000,A,3748.7278,N,12217.7376,W,1.79,171.21,180612,,,D*72
$GPRMC,184428.000,A,3748.7271,N,12217.7372,W,2.01,169.69,180612,,,D*79
$GPRMC,184429.000,A,3748.7271,N,12217.7369,W,1.90,170.72,180612,,,D*7B
$GPRMC,184430.000,A,3748.7261,N,12217.7371,W,2.27,175.95,180612,,,D*78
$GPRMC,184431.000,A,3748.7258,N,12217.7371,W,1.92,168.85,180612,,,D*73
$GPRMC,184432.000,A,3748.7265,N,12217.7364,W,1.19,163.92,180612,,,D*74
$GPRMC,184433.000,A,3748.7275,N,12217.7357,W,1.08,138.89,180612,,,D*70
$GPRMC,184434.000,A,3748.7280,N,12217.7346,W,1.14,131.84,180612,,,D*74
$GPRMC,184435.000,A,3748.7286,N,12217.7336,W,1.39,76.83,180612,,,D*4E
$GPRMC,184436.000,A,3748.7287,N,12217.7327,W,1.90,64.49,180612,,,D*4A
$GPRMC,184437.000,A,3748.7274,N,12217.7319,W,2.12,65.34,180612,,,D*48
$GPRMC,184438.000,A,3748.7257,N,12217.7318,W,1.20,144.88,180612,,,D*70
$GPRMC,184439.000,A,3748.7232,N,12217.7320,W,1.80,153.68,180612,,,A*7E
$GPRMC,184440.000,A,3748.7218,N,12217.7317,W,2.45,171.80,180612,,,A*70
$GPRMC,184441.000,A,3748.7202,N,12217.7315,W,2.85,174.58,180612,,,A*74
$GPRMC,184442.000,A,3748.7216,N,12217.7305,W,2.90,183.57,180612,,,A*70
$GPRMC,184443.000,A,3748.7207,N,12217.7302,W,3.15,171.98,180612,,,A*74
$GPRMC,184444.000,A,3748.7206,N,12217.7294,W,3.15,172.25,180612,,,A*79
$GPRMC,184445.000,A,3748.7211,N,12217.7285,W,2.22,159.53,180612,,,A*73
$GPRMC,184446.000,A,3748.7229,N,12217.7274,W,1.81,161.34,180612,,,A*75
$GPRMC,184447.000,A,3748.7227,N,12217.7270,W,1.48,159.60,180612,,,A*71
$GPRMC,184448.000,A,3748.7233,N,12217.7269,W,0.29,194.39,180612,,,A*78
$GPRMC,184449.000,A,3748.7215,N,12217.7272,W,0.48,91.07,180612,,,A*49
$GPRMC,184450.000,A,3748.7198,N,12217.7272,W,1.10,150.84,180612,,,A*7C
$GPRMC,184451.000,A,3748.7227,N,12217.7253,W,0.94,73.97,180612,,,A*46
$GPRMC,184452.000,A,3748.7211,N,12217.7252,W,0.42,88.26,180612,,,A*44
$GPRMC,184453.000,A,3748.7226,N,12217.7239,W,1.34,140.66,180612,,,A*7D
$GPRMC,184454.000,A,3748.7261,N,12217.7219,W,2.06,67.44,180612,,,D*48
$GPRMC,184455.000,A,3748.7275,N,12217.7204,W,1.88,62.97,180612,,,D*4E
$GPRMC,184456.000,A,3748.7292,N,12217.7189,W,2.24,59.63,180612,,,D*44
$GPRMC,184457.000,A,3748.7301,N,12217.7179,W,1.34,90.40,180612,,,D*47
$GPRMC,184458.000,A,3748.7320,N,12217.7164,W,1.50,97.08,180612,,,D*4E
$GPRMC,184459.000,A,3748.7353,N,12217.7140,W,1.67,69.78,180612,,,D*4F
$GPRMC,184500.000,A,3748.7362,N,12217.7130,W,1.66,67.24,180612,,,D*41
$GPRMC,184501.000,A,3748.7376,N,12217.7119,W,0.87,72.20,180612,,,D*40
$GPRMC,184502.000,A,3748.7390,N,12217.7106,W,1.19,79.58,180612,,,D*47
$GPRMC,184503.000,A,3748.7372,N,12217.7108,W,1.58,51.72,180612,,,D*43
$GPRMC,184504.000,A,3748.7357,N,12217.7108,W,1.96,41.14,180612,,,D*40
$GPRMC,184505.000,A,3748.7345,N,12217.7107,W,1.18,49.55,180612,,,D*46
$GPRMC,184506.000,A,3748.7372,N,12217.7090,W,1.59,41.24,180612,,,D*45
$GPRMC,184507.000,A,3748.7377,N,12217.7077,W,1.47,48.00,180612,,,D*48
$GPRMC,184508.000,A,3748.7373,N,12217.7069,W,1.07,50.95,180612,,,D*4D
$GPRMC,184509.000,A,3748.7384,N,12217.7056,W,2.07,17.26,180612,,,D*40
$GPRMC,184510.000,A,3748.7404,N,12217.7044,W,3.70,11.00,180612,,,D*47
$GPRMC,184511.000,A,3748.7381,N,12217.7046,W,1.10,24.59,180612,,,D*40
$GPRMC,184512.000,A,3748.7355,N,12217.7048,W,0.22,350.69,180612,,,D*77
$GPRMC,184513.000,A,3748.7339,N,12217.7050,W,1.25,10.14,180612,,,D*4E
$GPRMC,184514.000,A,3748.7325,N,12217.7052,W,0.11,175.72,180612,,,D*72
$GPRMC,184515.000,A,3748.7295,N,12217.7058,W,1.90,200.24,180612,,,D*79
$GPRMC,184516.000,A,3748.7250,N,12217.7072,W,3.24,199.57,180612,,,D*71
$GPRMC,184517.000,A,3748.7224,N,12217.7082,W,3.25,200.86,180612,,,D*72
$GPRMC,184518.000,A,3748.7210,N,12217.7091,W,3.40,205.64,180612,,,D*72
$GPRMC,184519.000,A,3748.7212,N,12217.7094,W,1.60,215.34,180612,,,A*75
$GPRMC,184520.000,A,3748.7209,N,12217.7096,W,1.02,177.45,180612,,,A*72
$GPRMC,184521.000,A,3748.7206,N,12217.7094,W,1.25,174.09,180612,,,A*70
$GPRMC,184522.000,A,3748.7225,N,12217.7084,W,1.31,191.35,180612,,,A*72
$GPRMC,184523.000,A,3748.7210,N,12217.7093,W,3.05,195.30,180612,,,A*77
$GPRMC,184524.000,A,3748.7224,N,12217.7090,W,2.40,192.38,180612,,,A*7B
$GPRMC,184525.000,A,3748.7231,N,12217.7088,W,1.53,184.92,180612,,,A*71
$GPRMC,184526.000,A,3748.7227,N,12217.7087,W,1.22,188.97,180612,,,A*75
$GPRMC,184527.000,A,3748.7201,N,12217.7100,W,1.87,197.98,180612,,,A*70
$GPRMC,184528.000,A,3748.7204,N,12217.7104,W,0.87,212.23,180612,,,A*71
$GPRMC,184529.000,A,3748.7184,N,12217.7117,W,1.71,198.54,180612,,,A*70
$GPRMC,184530.000,A,3748.7210,N,12217.7107,W,1.43,202.35,180612,,,A*71
$GPRMC,184531.000,A,3748.7228,N,12217.7099,W,0.47,183.35,180612,,,A*72
$GPRMC,184532.000,A,3748.7242,N,12217.7093,W,0.14,279.42,180612,,,A*77
$GPRMC,184533.000,A,3748.7278,N,12217.7079,W,1.57,24.52,180612,,,A*46
$GPRMC,184534.000,A,3748.7313,N,12217.7065,W,1.89,21.63,180612,,,A*44
$GPRMC,184535.000,A,3748.7344,N,12217.7051,W,2.18,18.46,180612,,,A*46
$GPRMC,184536.000,A,3748.7371,N,12217.7036,W,3.21,16.38,180612,,,A*4E
$GPRMC,184537.000,A,3748.7383,N,12217.7030,W,4.38,16.31,180612,,,A*42
$GPRMC,184538.000,A,3748.7385,N,12217.7028,W,3.59,22.32,180612,,,A*46
$GPRMC,184539.000,A,3748.7400,N,12217.7019,W,2.38,20.04,180612,,,A*4E
$GPRMC,184540.000,A,3748.7396,N,12217.7011,W,0.77,48.59,180612,,,A*4F
$GPRMC,184541.000,A,3748.7400,N,12217.7006,W,1.52,27.37,180612,,,A*47
$GPRMC,184542.000,A,3748.7418,N,12217.6995,W,2.11,20.74,180612,,,A*4B
$GPRMC,184543.000,A,3748.7428,N,12217.6986,W,2.55,15.18,180612,,,A*47
$GPRMC,184544.000,A,3748.7418,N,12217.6983,W,1.58,20.80,180612,,,A*4F
$GPRMC,184545.000,A,3748.7421,N,12217.6976,W,0.86,27.09,180612,,,A*4A
$GPRMC,184546.000,A,3748.7419,N,12217.6970,W,0.33,52.31,180612,,,A*43
$GPRMC,184547.000,A,3748.7424,N,12217.6967,W,0.86,4.65,180612,,,A*76
$GPRMC,184548.000,A,3748.7442,N,12217.6955,W,1.10,21.94,180612,,,A*4F
$GPRMC,184549.000,A,3748.7463,N,12217.6938,W,1.05,28.00,180612,,,A*46
$GPRMC,184550.000,A,3748.7460,N,12217.6931,W,0.91,172.58,180612,,,A*7B
$GPRMC,184551.000,A,3748.7463,N,12217.6925,W,0.31,127.15,180612,,,A*7F
$GPRMC,184552.000,A,3748.7464,N,12217.6923,W,0.99,9.57,180612,,,A*74
$GPRMC,184553.000,A,3748.7471,N,12217.6922,W,1.30,8.55,180612,,,A*71
$GPRMC,184554.000,A,3748.7483,N,12217.6922,W,1.99,355.84,180612,,,A*7F
$GPRMC,184555.000,A,3748.7490,N,12217.6921,W,1.60,2.38,180612,,,A*7F
$GPRMC,184556.000,A,3748.7496,N,12217.6923,W,1.03,19.08,180612,,,A*44
$GPRMC,184557.000,A,3748.7504,N,12217.6921,W,1.31,11.11,180612,,,A*4C
$GPRMC,184558.000,A,3748.7512,N,12217.6918,W,1.82,19.92,180612,,,A*45
$GPRMC,184559.000,A,3748.7518,N,12217.6915,W,0.99,44.46,180612,,,A*49
$GPRMC,184600.000,A,3748.7525,N,12217.6917,W,1.19,356.18,180612,,,A*78
$GPRMC,184601.000,A,3748.7531,N,12217.6920,W,1.11,358.92,180612,,,A*7C
$GPRMC,184602.000,A,3748.7537,N,12217.6921,W,1.39,11.73,180612,,,A*43
$GPRMC,184603.000,A,3748.7541,N,12217.6923,W,1.28,29.75,180612,,,A*4C
$GPRMC,184604.000,A,3748.7544,N,12217.6919,W,1.25,41.46,180612,,,A*44
$GPRMC,184605.000,A,3748.7545,N,12217.6914,W,1.22,45.88,180612,,,A*48
$GPRMC,184606.000,A,3748.7546,N,12217.6908,W,1.05,42.76,180612,,,A*46
$GPRMC,184607.000,A,3748.7548,N,12217.6902,W,0.95,42.38,180612,,,A*41
$GPRMC,184608.000,A,3748.7551,N,12217.6898,W,0.76,20.58,180612,,,A*4B
$GPRMC,184609.000,A,3748.7555,N,12217.6903,W,1.27,341.38,180612,,,A*7A
$GPRMC,184610.000,A,3748.7560,N,12217.6905,W,1.52,353.83,180612,,,A*73
$GPRMC,184611.000,A,3748.7565,N,12217.6904,W,1.49,8.23,180612,,,A*7B
$GPRMC,184612.000,A,3748.7569,N,12217.6905,W,1.43,6.45,180612,,,A*71
$GPRMC,184613.000,A,3748.7576,N,12217.6905,W,1.83,355.83,180612,,,A*7D
$GPRMC,184614.000,A,3748.7579,N,12217.6901,W,1.63,352.70,180612,,,A*74
$GPRMC,184615.000,A,3748.7584,N,12217.6899,W,1.79,2.29,180612,,,A*76
$GPRMC,184616.000,A,3748.7592,N,12217.6901,W,2.14,2.10,180612,,,A*70
$GPRMC,184617.000,A,3748.7596,N,12217.6897,W,1.22,22.32,180612,,,A*4F
$GPRMC,184618.000,A,3748.7604,N,12217.6889,W,1.32,26.29,180612,,,A*48
$GPRMC,184619.000,A,3748.7610,N,12217.6883,W,1.27,27.02,180612,,,A*4A
$GPRMC,184620.000,A,3748.7617,N,12217.6879,W,1.37,16.86,180612,,,A*4D
$GPRMC,184621.000,A,3748.7620,N,12217.6872,W,1.41,33.38,180612,,,A*40
$GPRMC,184622.000,A,3748.7624,N,12217.6866,W,1.35,35.94,180612,,,A*41
$GPRMC,184623.000,A,3748.7628,N,12217.6862,W,1.69,6.75,180612,,,A*7E
$GPRMC,184624.000,A,3748.7632,N,12217.6855,W,2.11,4.23,180612,,,A*7B
$GPRMC,184625.000,A,3748.7636,N,12217.6852,W,1.55,11.01,180612,,,A*4E
$GPRMC,184626.000,A,3748.7639,N,12217.6851,W,1.57,16.43,180612,,,A*42
$GPRMC,184627.000,A,3748.7643,N,12217.6848,W,1.63,16.87,180612,,,A*49
$GPRMC,184628.000,A,3748.7646,N,12217.6845,W,1.46,14.48,180612,,,A*48
$GPRMC,184629.000,A,3748.7650,N,12217.6842,W,1.37,2.49,180612,,,A*79
$GPRMC,184630.000,A,3748.7652,N,12217.6841,W,1.65,11.64,180612,,,A*4A
$GPRMC,184631.000,A,3748.7656,N,12217.6840,W,1.53,348.25,180612,,,A*71
$GPRMC,184632.000,A,3748.7663,N,12217.6834,W,1.61,353.71,180612,,,A*7D
$GPRMC,184633.000,A,3748.7672,N,12217.6826,W,1.95,352.38,180612,,,A*78
$GPRMC,184634.000,A,3748.7678,N,12217.6824,W,1.70,355.17,180612,,,A*76
$GPRMC,184635.000,A,3748.7684,N,12217.6820,W,1.81,7.49,180612,,,A*71
$GPRMC,184636.000,A,3748.7687,N,12217.6818,W,1.26,358.67,180612,,,A*72
$GPRMC,184637.000,A,3748.7689,N,12217.6813,W,1.58,28.71,180612,,,A*4C
$GPRMC,184638.000,A,3748.7693,N,12217.6809,W,1.21,17.03,180612,,,A*44
$GPRMC,184639.000,A,3748.7697,N,12217.6802,W,1.20,12.55,180612,,,A*4D
$GPRMC,184640.000,A,3748.7700,N,12217.6797,W,1.33,28.58,180612,,,A*49
$GPRMC,184641.000,A,3748.7704,N,12217.6793,W,1.55,22.62,180612,,,A*4B
$GPRMC,184642.000,A,3748.7709,N,12217.6789,W,1.67,31.19,180612,,,A*41
$GPRMC,184643.000,A,3748.7714,N,12217.6785,W,1.84,28.46,180612,,,A*4F
$GPRMC,184644.000,A,3748.7719,N,12217.6778,W,1.97,19.35,180612,,,A*43
$GPRMC,184645.000,A,3748.7724,N,12217.6777,W,1.68,8.85,180612,,,A*78
$GPRMC,184646.000,A,3748.7729,N,12217.6778,W,1.58,9.36,180612,,,A*73
$GPRMC,184647.000,A,3748.7734,N,12217.6780,W,1.66,2.15,180612,,,A*7E
$GPRMC,184648.000,A,3748.7739,N,12217.6781,W,1.80,2.82,180612,,,A*7B
$GPRMC,184649.000,A,3748.7746,N,12217.6773,W,2.06,6.96,180612,,,A*73
$GPRMC,184650.000,A,3748.7753,N,12217.6764,W,1.68,14.61,180612,,,A*49
$GPRMC,184651.000,A,3748.7756,N,12217.6757,W,1.33,19.51,180612,,,A*4D
$GPRMC,184652.000,A,3748.7761,N,12217.6751,W,1.24,24.85,180612,,,A*4D
$GPRMC,184653.000,A,3748.7765,N,12217.6751,W,1.13,13.61,180612,,,A*42
$GPRMC,184654.000,A,3748.7770,N,12217.6745,W,1.19,18.16,180612,,,A*45
$GPRMC,184655.000,A,3748.7777,N,12217.6740,W,1.78,15.74,180612,,,A*48
$GPRMC,184656.000,A,3748.7783,N,12217.6738,W,1.55,25.34,180612,,,A*47
$GPRMC,184657.000,A,3748.7786,N,12217.6736,W,1.28,33.61,180612,,,A*40
$GPRMC,184658.000,A,3748.7788,N,12217.6731,W,1.18,54.04,180612,,,A*47
$GPRMC,184659.000,A,3748.7788,N,12217.6728,W,1.31,7.68,180612,,,A*79
$GPRMC,184700.000,A,3748.7791,N,12217.6721,W,1.77,5.74,180612,,,A*78
$GPRMC,184701.000,A,3748.7797,N,12217.6716,W,2.10,7.60,180612,,,A*7E
$GPRMC,184702.000,A,3748.7801,N,12217.6710,W,1.47,26.18,180612,,,A*46
$GPRMC,184703.000,A,3748.7805,N,12217.6703,W,1.52,37.15,180612,,,A*48
$GPRMC,184704.000,A,3748.7813,N,12217.6699,W,2.15,15.58,180612,,,A*43
$GPRMC,184705.000,A,3748.7818,N,12217.6696,W,1.54,18.98,180612,,,A*41
$GPRMC,184706.000,A,3748.7823,N,12217.6692,W,1.27,21.94,180612,,,A*4C
$GPRMC,184707.000,A,3748.7829,N,12217.6691,W,1.29,31.30,180612,,,A*45
$GPRMC,184708.000,A,3748.7835,N,12217.6690,W,1.59,18.05,180612,,,A*4C
$GPRMC,184709.000,A,3748.7840,N,12217.6688,W,1.72,20.60,180612,,,A*47
$GPRMC,184710.000,A,3748.7846,N,12217.6686,W,1.68,22.42,180612,,,A*4E
$GPRMC,184711.000,A,3748.7852,N,12217.6686,W,1.63,21.79,180612,,,A*4A
$GPRMC,184712.000,A,3748.7857,N,12217.6686,W,1.61,16.43,180612,,,A*43
$GPRMC,184713.000,A,3748.7861,N,12217.6683,W,1.81,24.20,180612,,,A*48
$GPRMC,184714.000,A,3748.7865,N,12217.6683,W,1.77,13.60,180612,,,A*42
$GPRMC,184715.000,A,3748.7868,N,12217.6679,W,1.41,33.78,180612,,,A*45
$GPRMC,184716.000,A,3748.7872,N,12217.6676,W,1.42,22.59,180612,,,A*42
$GPRMC,184717.000,A,3748.7875,N,12217.6674,W,1.28,20.12,180612,,,A*47
$GPRMC,184718.000,A,3748.7876,N,12217.6672,W,1.12,27.35,180612,,,A*46
$GPRMC,184719.000,A,3748.7881,N,12217.6668,W,1.70,26.95,180612,,,A*4B
$GPRMC,184720.000,A,3748.7883,N,12217.6666,W,1.60,31.06,180612,,,A*40
$GPRMC,184721.000,A,3748.7887,N,12217.6659,W,1.50,49.67,180612,,,A*42
$GPRMC,184722.000,A,3748.7894,N,12217.6651,W,2.18,34.32,180612,,,A*4E
$GPRMC,184723.000,A,3748.7903,N,12217.6641,W,2.39,18.04,180612,,,A*49
$GPRMC,184724.000,A,3748.7910,N,12217.6634,W,2.35,8.56,180612,,,A*74
$GPRMC,184725.000,A,3748.7918,N,12217.6624,W,2.04,32.57,180612,,,A*46
$GPRMC,184726.000,A,3748.7924,N,12217.6615,W,1.64,35.52,180612,,,A*4F
$GPRMC,184727.000,A,3748.7927,N,12217.6611,W,1.21,16.59,180612,,,A*42
$GPRMC,184728.000,A,3748.7929,N,12217.6608,W,1.11,26.11,180612,,,A*47
$GPRMC,184729.000,A,3748.7932,N,12217.6604,W,1.24,32.98,180612,,,A*42
$GPRMC,184730.000,A,3748.7936,N,12217.6598,W,1.30,23.68,180612,,,A*42
$GPRMC,184731.000,A,3748.7939,N,12217.6594,W,1.36,34.69,180612,,,A*41
$GPRMC,184732.000,A,3748.7946,N,12217.6594,W,0.96,24.87,180612,,,A*40
$GPRMC,184733.000,A,3748.7952,N,12217.6598,W,0.41,321.56,180612,,,A*78
$GPRMC,184734.000,A,3748.7955,N,12217.6601,W,0.45,303.64,180612,,,A*7E
$GPRMC,184735.000,A,3748.7956,N,12217.6601,W,0.41,26.00,180612,,,A*4E
$GPRMC,184736.000,A,3748.7957,N,12217.6603,W,0.33,43.05,180612,,,A*4D
$GPRMC,184737.000,A,3748.7958,N,12217.6603,W,0.45,62.34,180612,,,A*43
$GPRMC,184738.000,A,3748.7959,N,12217.6603,W,0.36,317.35,180612,,,A*79
$GPRMC,184739.000,A,3748.7958,N,12217.6606,W,0.13,223.60,180612,,,A*7D
$GPRMC,184740.000,A,3748.7960,N,12217.6607,W,0.24,319.73,180612,,,A*77
$GPRMC,184741.000,A,3748.7964,N,12217.6607,W,0.54,349.20,180612,,,A*76
$GPRMC,184742.000,A,3748.7967,N,12217.6607,W,0.26,11.91,180612,,,A*47
$GPRMC,184743.000,A,3748.7971,N,12217.6607,W,0.51,29.72,180612,,,A*47
$GPRMC,184744.000,A,3748.7974,N,12217.6607,W,1.08,15.53,180612,,,A*44
$GPRMC,184745.000,A,3748.7976,N,12217.6607,W,1.15,0.74,180612,,,A*7A
$GPRMC,184746.000,A,3748.7978,N,12217.6605,W,1.09,5.98,180612,,,A*7F
$GPRMC,184747.000,A,3748.7980,N,12217.6605,W,1.22,356.47,180612,,,A*77
$GPRMC,184748.000,A,3748.7984,N,12217.6605,W,1.46,2.44,180612,,,A*7F
$GPRMC,184749.000,A,3748.7987,N,12217.6605,W,1.17,15.97,180612,,,A*41
$GPRMC,184750.000,A,3748.7989,N,12217.6603,W,0.35,45.38,180612,,,A*40
$GPRMC,184751.000,A,3748.7989,N,12217.6602,W,0.44,276.24,180612,,,A*79
$GPRMC,184752.000,A,3748.7993,N,12217.6596,W,1.59,358.12,180612,,,A*7A
$GPRMC,184753.000,A,3748.7999,N,12217.6586,W,2.09,18.81,180612,,,A*4B
$GPRMC,184754.000,A,3748.8001,N,12217.6577,W,2.06,23.31,180612,,,A*49
$GPRMC,184755.000,A,3748.8003,N,12217.6570,W,1.97,18.70,180612,,,A*4B
$GPRMC,184756.000,A,3748.8006,N,12217.6564,W,1.46,14.39,180612,,,A*45
$GPRMC,184757.000,A,3748.8009,N,12217.6557,W,0.90,29.98,180612,,,A*44
$GPRMC,184758.000,A,3748.8009,N,12217.6551,W,0.91,47.56,180612,,,A*46
$GPRMC,184759.000,A,3748.8009,N,12217.6546,W,0.57,71.11,180612,,,A*4D
$GPRMC,184800.000,A,3748.8011,N,12217.6550,W,0.66,274.19,180612,,,A*7D
$GPRMC,184801.000,A,3748.8010,N,12217.6551,W,0.23,135.84,180612,,,A*7F
$GPRMC,184802.000,A,3748.8008,N,12217.6549,W,0.05,305.98,180612,,,A*74
$GPRMC,184803.000,A,3748.8009,N,12217.6548,W,0.36,9.18,180612,,,A*72
$GPRMC,184804.000,A,3748.8010,N,12217.6545,W,0.66,34.68,180612,,,A*4C
$GPRMC,184805.000,A,3748.8012,N,12217.6534,W,0.45,54.38,180612,,,A*4B
$GPRMC,184806.000,A,3748.8012,N,12217.6528,W,0.37,34.19,180612,,,A*45
$GPRMC,184807.000,A,3748.8014,N,12217.6522,W,0.36,44.53,180612,,,A*40
$GPRMC,184808.000,A,3748.8016,N,12217.6516,W,0.30,35.68,180612,,,A*42
$GPRMC,184809.000,A,3748.8018,N,12217.6506,W,0.33,71.36,180612,,,A*44
$GPRMC,184810.000,A,3748.8015,N,12217.6502,W,0.56,58.38,180612,,,A*43
$GPRMC,184811.000,A,3748.8018,N,12217.6493,W,0.86,78.60,180612,,,A*44
$GPRMC,184812.000,A,3748.8024,N,12217.6486,W,0.60,76.41,180612,,,A*49
$GPRMC,184813.000,A,3748.8030,N,12217.6483,W,1.06,20.25,180612,,,A*48
$GPRMC,184814.000,A,3748.8033,N,12217.6478,W,0.64,22.05,180612,,,A*4D
$GPRMC,184815.000,A,3748.8034,N,12217.6480,W,1.20,341.09,180612,,,A*77
$GPRMC,184816.000,A,3748.8038,N,12217.6482,W,1.54,0.96,180612,,,A*79
$GPRMC,184817.000,A,3748.8043,N,12217.6481,W,1.38,15.17,180612,,,A*40
$GPRMC,184818.000,A,3748.8044,N,12217.6475,W,1.95,27.13,180612,,,A*41
$GPRMC,184819.000,A,3748.8049,N,12217.6473,W,2.04,14.72,180612,,,A*47
$GPRMC,184820.000,A,3748.8054,N,12217.6474,W,1.66,12.97,180612,,,A*4C
$GPRMC,184821.000,A,3748.8057,N,12217.6478,W,1.78,1.35,180612,,,A*77
$GPRMC,184822.000,A,3748.8060,N,12217.6478,W,1.81,7.41,180612,,,A*73
$GPRMC,184823.000,A,3748.8066,N,12217.6478,W,1.71,19.00,180612,,,A*41
$GPRMC,184824.000,A,3748.8070,N,12217.6478,W,1.39,8.76,180612,,,A*7C
$GPRMC,184825.000,A,3748.8073,N,12217.6476,W,1.71,7.41,180612,,,A*77
$GPRMC,184826.000,A,3748.8078,N,12217.6477,W,1.44,9.73,180612,,,A*77
$GPRMC,184827.000,A,3748.8080,N,12217.6474,W,1.49,25.58,180612,,,A*48
$GPRMC,184828.000,A,3748.8082,N,12217.6468,W,1.58,48.20,180612,,,A*4C
$GPRMC,184829.000,A,3748.8085,N,12217.6464,W,1.71,41.91,180612,,,A*4E
$GPRMC,184830.000,A,3748.8086,N,12217.6459,W,1.40,38.03,180612,,,A*4C
$GPRMC,184831.000,A,3748.8085,N,12217.6459,W,1.10,55.13,180612,,,A*41
$GPRMC,184832.000,A,3748.8083,N,12217.6451,W,1.22,80.31,180612,,,A*45
$GPRMC,184833.000,A,3748.8081,N,12217.6446,W,1.35,102.38,180612,,,A*74
$GPRMC,184834.000,A,3748.8082,N,12217.6439,W,1.51,91.90,180612,,,A*43
$GPRMC,184835.000,A,3748.8083,N,12217.6429,W,1.26,81.62,180612,,,A*4E
$GPRMC,184836.000,A,3748.8082,N,12217.6423,W,0.92,108.94,180612,,,A*71
$GPRMC,184837.000,A,3748.8076,N,12217.6421,W,1.42,147.46,180612,,,A*71
$GPRMC,184838.000,A,3748.8076,N,12217.6414,W,1.32,100.85,180612,,,A*73
$GPRMC,184839.000,A,3748.8083,N,12217.6410,W,1.26,32.89,180612,,,A*45
$GPRMC,184840.000,A,3748.8094,N,12217.6399,W,1.76,38.52,180612,,,A*42
$GPRMC,184841.000,A,3748.8105,N,12217.6397,W,2.57,10.49,180612,,,A*44
$GPRMC,184842.000,A,3748.8114,N,12217.6395,W,2.21,6.55,180612,,,A*7E
$GPRMC,184843.000,A,3748.8126,N,12217.6395,W,1.88,14.45,180612,,,A*4C
$GPRMC,184844.000,A,3748.8134,N,12217.6395,W,1.25,11.53,180612,,,A*4D
$GPRMC,184845.000,A,3748.8139,N,12217.6395,W,1.46,6.83,180612,,,A*7F
$GPRMC,184846.000,A,3748.8146,N,12217.6401,W,1.70,333.50,180612,,,A*70
$GPRMC,184847.000,A,3748.8156,N,12217.6405,W,2.67,355.71,180612,,,A*72
$GPRMC,184848.000,A,3748.8166,N,12217.6403,W,2.86,13.65,180612,,,A*43
$GPRMC,184849.000,A,3748.8179,N,12217.6404,W,2.98,15.59,180612,,,A*4D
$GPRMC,184850.000,A,3748.8187,N,12217.6403,W,1.70,16.40,180612,,,A*4D
$GPRMC,184851.000,A,3748.8178,N,12217.6400,W,1.03,49.02,180612,,,A*47
$GPRMC,184852.000,A,3748.8168,N,12217.6394,W,1.65,87.78,180612,,,A*40
$GPRMC,184853.000,A,3748.8165,N,12217.6392,W,1.76,131.10,180612,,,A*7A
$GPRMC,184854.000,A,3748.8167,N,12217.6389,W,1.68,93.32,180612,,,A*43
$GPRMC,184855.000,A,3748.8172,N,12217.6383,W,1.48,81.40,180612,,,A*48
$GPRMC,184856.000,A,3748.8184,N,12217.6383,W,1.20,65.28,180612,,,A*48
$GPRMC,184857.000,A,3748.8198,N,12217.6382,W,2.15,31.08,180612,,,A*43
$GPRMC,184858.000,A,3748.8208,N,12217.6387,W,2.10,353.10,180612,,,A*78
$GPRMC,184859.000,A,3748.8213,N,12217.6392,W,2.18,4.45,180612,,,A*7E
$GPRMC,184900.000,A,3748.8224,N,12217.6391,W,2.68,20.05,180612,,,A*41
$GPRMC,184901.000,A,3748.8231,N,12217.6388,W,3.23,38.81,180612,,,A*47
$GPRMC,184902.000,A,3748.8237,N,12217.6380,W,3.03,47.51,180612,,,A*4D
$GPRMC,184903.000,A,3748.8232,N,12217.6380,W,2.21,38.04,180612,,,A*40
$GPRMC,184904.000,A,3748.8228,N,12217.6379,W,0.81,61.75,180612,,,A*48
$GPRMC,184905.000,A,3748.8226,N,12217.6384,W,0.86,1.61,180612,,,A*71
$GPRMC,184906.000,A,3748.8233,N,12217.6386,W,1.84,330.98,180612,,,A*70
$GPRMC,184907.000,A,3748.8239,N,12217.6391,W,2.71,316.73,180612,,,A*75
$GPRMC,184908.000,A,3748.8264,N,12217.6408,W,3.46,312.99,180612,,,A*70
$GPRMC,184909.000,A,3748.8286,N,12217.6422,W,3.70,329.64,180612,,,A*7A
$GPRMC,184910.000,A,3748.8297,N,12217.6428,W,3.11,339.68,180612,,,A*72
$GPRMC,184911.000,A,3748.8306,N,12217.6429,W,2.53,354.34,180612,,,A*7E
$GPRMC,184912.000,A,3748.8309,N,12217.6426,W,1.49,19.18,180612,,,A*41
$GPRMC,184913.000,A,3748.8311,N,12217.6423,W,1.02,63.88,180612,,,A*47
$GPRMC,184914.000,A,3748.8306,N,12217.6418,W,1.67,137.66,180612,,,A*7D
$GPRMC,184915.000,A,3748.8302,N,12217.6427,W,0.77,181.46,180612,,,A*7B
$GPRMC,184916.000,A,3748.8308,N,12217.6431,W,0.58,257.77,180612,,,A*72
$GPRMC,184917.000,A,3748.8302,N,12217.6442,W,0.44,314.34,180612,,,A*71
$GPRMC,184918.000,A,3748.8301,N,12217.6442,W,0.22,147.29,180612,,,A*75
$GPRMC,184919.000,A,3748.8296,N,12217.6440,W,1.08,165.84,180612,,,A*77
$GPRMC,184920.000,A,3748.8289,N,12217.6438,W,1.93,154.08,180612,,,A*78
$GPRMC,184921.000,A,3748.8281,N,12217.6432,W,1.40,128.05,180612,,,A*73
$GPRMC,184922.000,A,3748.8292,N,12217.6424,W,1.78,58.71,180612,,,A*4B
$GPRMC,184923.000,A,3748.8297,N,12217.6419,W,2.18,41.28,180612,,,A*40
$GPRMC,184924.000,A,3748.8303,N,12217.6415,W,1.92,32.53,180612,,,A*4E
$GPRMC,184925.000,A,3748.8315,N,12217.6407,W,2.39,18.08,180612,,,A*4F
$GPRMC,184926.000,A,3748.8327,N,12217.6400,W,2.55,22.39,180612,,,A*4B
$GPRMC,184927.000,A,3748.8339,N,12217.6396,W,3.19,12.65,180612,,,A*4E
$GPRMC,184928.000,A,3748.8363,N,12217.6396,W,3.96,19.97,180612,,,A*4F
$GPRMC,184929.000,A,3748.8387,N,12217.6392,W,4.56,11.11,180612,,,A*4D
$GPRMC,184930.000,A,3748.8397,N,12217.6385,W,3.95,0.16,180612,,,A*7D
$GPRMC,184931.000,A,3748.8418,N,12217.6381,W,4.17,8.91,180612,,,A*72
$GPRMC,184932.000,A,3748.8431,N,12217.6377,W,4.19,15.41,180612,,,A*4C
$GPRMC,184933.000,A,3748.8446,N,12217.6379,W,3.20,6.22,180612,,,A*79
$GPRMC,184934.000,A,3748.8448,N,12217.6383,W,1.31,353.72,180612,,,A*71
$GPRMC,184935.000,A,3748.8440,N,12217.6380,W,0.19,74.62,180612,,,A*47
$GPRMC,184936.000,A,3748.8432,N,12217.6372,W,1.12,138.27,180612,,,A*7E
$GPRMC,184937.000,A,3748.8425,N,12217.6356,W,2.67,144.12,180612,,,A*73
$GPRMC,184938.000,A,3748.8419,N,12217.6344,W,2.45,150.37,180612,,,A*72
$GPRMC,184939.000,A,3748.8429,N,12217.6340,W,0.41,63.66,180612,,,A*47
$GPRMC,184940.000,A,3748.8440,N,12217.6346,W,1.63,6.52,180612,,,A*75
$GPRMC,184941.000,A,3748.8450,N,12217.6332,W,2.74,30.43,180612,,,A*46
$GPRMC,184942.000,A,3748.8444,N,12217.6316,W,2.46,44.17,180612,,,A*45
$GPRMC,184943.000,A,3748.8447,N,12217.6304,W,1.84,56.30,180612,,,A*4F
$GPRMC,184944.000,A,3748.8445,N,12217.6285,W,2.09,87.66,180612,,,A*4B
$GPRMC,184945.000,A,3748.8445,N,12217.6272,W,1.18,64.09,180612,,,A*45
$GPRMC,184946.000,A,3748.8450,N,12217.6265,W,1.50,19.84,180612,,,A*47
$GPRMC,184947.000,A,3748.8457,N,12217.6258,W,1.94,32.46,180612,,,A*40
$GPRMC,184948.000,A,3748.8460,N,12217.6250,W,2.02,36.69,180612,,,A*46
$GPRMC,184949.000,A,3748.8471,N,12217.6246,W,2.30,24.71,180612,,,A*4B
$GPRMC,184950.000,A,3748.8478,N,12217.6244,W,1.82,31.27,180612,,,A*45
$GPRMC,184951.000,A,3748.8485,N,12217.6242,W,1.56,38.36,180612,,,A*40
$GPRMC,184952.000,A,3748.8487,N,12217.6235,W,1.38,47.11,180612,,,A*44
$GPRMC,184953.000,A,3748.8485,N,12217.6222,W,1.03,57.24,180612,,,A*4E
$GPRMC,184954.000,A,3748.8470,N,12217.6208,W,0.87,84.81,180612,,,A*47
$GPRMC,184955.000,A,3748.8459,N,12217.6197,W,0.65,87.09,180612,,,A*47
$GPRMC,184956.000,A,3748.8454,N,12217.6190,W,0.44,122.79,180612,,,A*74
$GPRMC,184957.000,A,3748.8445,N,12217.6180,W,0.23,121.17,180612,,,A*7E
$GPRMC,184958.000,A,3748.8438,N,12217.6172,W,0.78,64.38,180612,,,A*45
$GPRMC,184959.000,A,3748.8435,N,12217.6163,W,1.15,50.23,180612,,,A*4E
$GPRMC,185000.000,A,3748.8430,N,12217.6154,W,0.60,49.12,180612,,,A*42
$GPRMC,185001.000,A,3748.8424,N,12217.6144,W,0.82,122.01,180612,,,A*75
$GPRMC,185002.000,A,3748.8417,N,12217.6141,W,1.61,112.44,180612,,,A*7D
$GPRMC,185003.000,A,3748.8413,N,12217.6133,W,1.79,119.21,180612,,,A*7C
$GPRMC,185004.000,A,3748.8405,N,12217.6125,W,1.46,97.29,180612,,,A*48
$GPRMC,185005.000,A,3748.8399,N,12217.6120,W,1.31,118.07,180612,,,A*74
$GPRMC,185006.000,A,3748.8390,N,12217.6118,W,1.39,142.11,180612,,,A*75
$GPRMC,185007.000,A,3748.8380,N,12217.6114,W,1.44,139.82,180612,,,A*75
$GPRMC,185008.000,A,3748.8374,N,12217.6114,W,1.70,126.26,180612,,,A*76
$GPRMC,185009.000,A,3748.8367,N,12217.6110,W,2.22,129.05,180612,,,A*7B
$GPRMC,185010.000,A,3748.8359,N,12217.6105,W,1.70,128.37,180612,,,A*7E
$GPRMC,185011.000,A,3748.8352,N,12217.6100,W,1.53,138.99,180612,,,A*75
$GPRMC,185012.000,A,3748.8347,N,12217.6092,W,1.55,143.56,180612,,,A*71
$GPRMC,185013.000,A,3748.8341,N,12217.6084,W,1.66,138.84,180612,,,A*72
$GPRMC,185014.000,A,3748.8334,N,12217.6071,W,1.86,138.35,180612,,,A*79
$GPRMC,185015.000,A,3748.8328,N,12217.6060,W,1.81,119.38,180612,,,A*7C
$GPRMC,185016.000,A,3748.8322,N,12217.6052,W,1.98,125.80,180612,,,A*70
$GPRMC,185017.000,A,3748.8317,N,12217.6045,W,2.03,124.38,180612,,,A*72
$GPRMC,185018.000,A,3748.8314,N,12217.6038,W,1.52,115.91,180612,,,A*72
$GPRMC,185019.000,A,3748.8310,N,12217.6032,W,1.35,132.10,180612,,,A*70
$GPRMC,185020.000,A,3748.8305,N,12217.6024,W,2.00,151.88,180612,,,A*78
$GPRMC,185021.000,A,3748.8297,N,12217.6018,W,1.92,138.87,180612,,,A*74
$GPRMC,185022.000,A,3748.8294,N,12217.6009,W,1.54,129.94,180612,,,A*7C
$GPRMC,185023.000,A,3748.8289,N,12217.6003,W,1.72,134.77,180612,,,A*7E
$GPRMC,185024.000,A,3748.8285,N,12217.5995,W,1.25,131.11,180612,,,A*77
$GPRMC,185025.000,A,3748.8282,N,12217.5985,W,1.93,106.13,180612,,,A*7B
$GPRMC,185026.000,A,3748.8277,N,12217.5976,W,1.65,135.48,180612,,,A*79
$GPRMC,185027.000,A,3748.8276,N,12217.5970,W,1.41,121.54,180612,,,A*71
$GPRMC,185028.000,A,3748.8275,N,12217.5966,W,1.37,132.97,180612,,,A*76
$GPRMC,185029.000,A,3748.8273,N,12217.5960,W,0.80,127.52,180612,,,A*77
$GPRMC,185030.000,A,3748.8272,N,12217.5958,W,1.13,164.82,180612,,,A*74
$GPRMC,185031.000,A,3748.8267,N,12217.5956,W,1.91,177.91,180612,,,A*75
$GPRMC,185032.000,A,3748.8267,N,12217.5946,W,1.25,138.88,180612,,,A*7B
$GPRMC,185033.000,A,3748.8267,N,12217.5939,W,0.80,142.19,180612,,,A*79
$GPRMC,185034.000,A,3748.8268,N,12217.5932,W,0.76,122.86,180612,,,A*73
$GPRMC,185035.000,A,3748.8267,N,12217.5925,W,1.15,156.39,180612,,,A*78
$GPRMC,185036.000,A,3748.8261,N,12217.5916,W,1.24,142.23,180612,,,A*71
$GPRMC,185037.000,A,3748.8260,N,12217.5908,W,0.77,112.30,180612,,,A*7E
$GPRMC,185038.000,A,3748.8262,N,12217.5901,W,0.63,97.02,180612,,,A*42
$GPRMC,185039.000,A,3748.8261,N,12217.5897,W,0.63,119.16,180612,,,A*7C
$GPRMC,185040.000,A,3748.8260,N,12217.5886,W,0.93,103.83,180612,,,A*7B
$GPRMC,185041.000,A,3748.8260,N,12217.5878,W,1.16,89.13,180612,,,A*4D
$GPRMC,185042.000,A,3748.8260,N,12217.5866,W,1.09,88.11,180612,,,A*4C
$GPRMC,185043.000,A,3748.8256,N,12217.5858,W,0.87,97.82,180612,,,A*46
$GPRMC,185044.000,A,3748.8255,N,12217.5850,W,0.82,111.67,180612,,,A*7B
$GPRMC,185045.000,A,3748.8256,N,12217.5843,W,0.93,74.18,180612,,,A*41
$GPRMC,185046.000,A,3748.8256,N,12217.5840,W,1.25,83.93,180612,,,A*46
$GPRMC,185047.000,A,3748.8256,N,12217.5834,W,1.15,128.24,180612,,,A*7B
$GPRMC,185048.000,A,3748.8255,N,12217.5831,W,0.88,137.80,180612,,,A*77
$GPRMC,185049.000,A,3748.8251,N,12217.5826,W,1.30,142.33,180612,,,A*7C
$GPRMC,185050.000,A,3748.8242,N,12217.5823,W,1.24,126.59,180612,,,A*78
$GPRMC,185051.000,A,3748.8237,N,12217.5819,W,1.43,143.48,180612,,,A*70
$GPRMC,185052.000,A,3748.8230,N,12217.5816,W,1.73,161.02,180612,,,A*76
$GPRMC,185053.000,A,3748.8224,N,12217.5810,W,1.48,147.42,180612,,,A*7C
$GPRMC,185054.000,A,3748.8222,N,12217.5804,W,1.40,139.42,180612,,,A*79
$GPRMC,185055.000,A,3748.8221,N,12217.5794,W,1.21,79.21,180612,,,A*4A
$GPRMC,185056.000,A,3748.8222,N,12217.5780,W,1.16,82.84,180612,,,A*40
$GPRMC,185057.000,A,3748.8223,N,12217.5771,W,1.19,64.62,180612,,,A*41
$GPRMC,185058.000,A,3748.8222,N,12217.5763,W,0.67,81.23,180612,,,A*4A
$GPRMC,185059.000,A,3748.8213,N,12217.5759,W,0.81,149.26,180612,,,A*78
$GPRMC,185100.000,A,3748.8203,N,12217.5756,W,1.36,156.38,180612,,,A*77
$GPRMC,185101.000,A,3748.8192,N,12217.5753,W,1.16,167.23,180612,,,A*72
$GPRMC,185102.000,A,3748.8190,N,12217.5749,W,0.96,155.95,180612,,,A*7D
$GPRMC,185103.000,A,3748.8181,N,12217.5749,W,0.80,166.92,180612,,,A*7C
$GPRMC,185104.000,A,3748.8178,N,12217.5747,W,0.47,181.71,180612,,,A*7C
$GPRMC,185105.000,A,3748.8169,N,12217.5750,W,0.87,182.25,180612,,,A*75
$GPRMC,185106.000,A,3748.8157,N,12217.5754,W,0.71,190.91,180612,,,A*7A
$GPRMC,185107.000,A,3748.8148,N,12217.5758,W,0.62,185.32,180612,,,A*76
$GPRMC,185108.000,A,3748.8144,N,12217.5760,W,0.39,159.76,180612,,,A*71
$GPRMC,185109.000,A,3748.8143,N,12217.5757,W,0.96,145.68,180612,,,A*74
$GPRMC,185110.000,A,3748.8145,N,12217.5754,W,0.73,107.90,180612,,,A*73
$GPRMC,185111.000,A,3748.8146,N,12217.5750,W,0.85,150.94,180612,,,A*7A
$GPRMC,185112.000,A,3748.8145,N,12217.5745,W,0.58,143.11,180612,,,A*71
$GPRMC,185113.000,A,3748.8146,N,12217.5743,W,0.28,130.78,180612,,,A*79
$GPRMC,185114.000,A,3748.8151,N,12217.5740,W,0.03,194.94,180612,,,A*7E
$GPRMC,185115.000,A,3748.8158,N,12217.5738,W,0.21,11.36,180612,,,A*4D
$GPRMC,185116.000,A,3748.8165,N,12217.5736,W,0.59,13.95,180612,,,A*4A
$GPRMC,185117.000,A,3748.8177,N,12217.5734,W,1.09,12.30,180612,,,A*40
$GPRMC,185118.000,A,3748.8188,N,12217.5735,W,1.29,7.49,180612,,,A*76
$GPRMC,185119.000,A,3748.8195,N,12217.5735,W,0.79,14.81,180612,,,A*49
$GPRMC,185120.000,A,3748.8196,N,12217.5738,W,0.63,341.73,180612,,,A*78
$GPRMC,185121.000,A,3748.8199,N,12217.5739,W,0.53,322.16,180612,,,A*72
$GPRMC,185122.000,A,3748.8204,N,12217.5741,W,1.12,351.35,180612,,,A*78
$GPRMC,185123.000,A,3748.8212,N,12217.5740,W,1.78,15.08,180612,,,A*4E
$GPRMC,185124.000,A,3748.8211,N,12217.5744,W,1.51,11.68,180612,,,A*47
$GPRMC,185125.000,A,3748.8215,N,12217.5747,W,1.65,8.01,180612,,,A*71
$GPRMC,185126.000,A,3748.8220,N,12217.5750,W,1.44,9.90,180612,,,A*78
$GPRMC,185127.000,A,3748.8221,N,12217.5754,W,1.25,6.40,180612,,,A*79
$GPRMC,185128.000,A,3748.8224,N,12217.5755,W,1.28,14.87,180612,,,A*47
$GPRMC,185129.000,A,3748.8232,N,12217.5755,W,1.39,7.57,180612,,,A*7E
$GPRMC,185130.000,A,3748.8239,N,12217.5753,W,1.08,26.69,180612,,,A*47
$GPRMC,185131.000,A,3748.8245,N,12217.5749,W,0.51,108.05,180612,,,A*7C
$GPRMC,185132.000,A,3748.8242,N,12217.5749,W,0.78,167.79,180612,,,A*71
$GPRMC,185133.000,A,3748.8235,N,12217.5755,W,0.58,215.06,180612,,,A*71
$GPRMC,185134.000,A,3748.8235,N,12217.5759,W,0.08,232.96,180612,,,A*73
$GPRMC,185135.000,A,3748.8220,N,12217.5763,W,0.03,325.64,180612,,,A*7E
$GPRMC,185136.000,A,3748.8212,N,12217.5768,W,0.55,195.67,180612,,,A*7E
$GPRMC,185137.000,A,3748.8206,N,12217.5770,W,1.17,191.15,180612,,,A*75
$GPRMC,185138.000,A,3748.8205,N,12217.5768,W,1.11,179.08,180612,,,A*7C
$GPRMC,185139.000,A,3748.8198,N,12217.5768,W,0.58,207.63,180612,,,A*71
$GPRMC,185140.000,A,3748.8201,N,12217.5766,W,0.38,202.31,180612,,,A*76
$GPRMC,185141.000,A,3748.8198,N,12217.5764,W,0.15,229.68,180612,,,A*7C
$GPRMC,185142.000,A,3748.8193,N,12217.5762,W,0.86,193.10,180612,,,A*75
$GPRMC,185143.000,A,3748.8185,N,12217.5763,W,0.47,223.14,180612,,,A*73
$GPRMC,185144.000,A,3748.8184,N,12217.5761,W,0.44,132.34,180612,,,A*75
$GPRMC,185145.000,A,3748.8181,N,12217.5757,W,0.59,141.01,180612,,,A*7A
$GPRMC,185146.000,A,3748.8181,N,12217.5761,W,1.01,166.10,180612,,,A*75
$GPRMC,185147.000,A,3748.8177,N,12217.5765,W,1.37,180.94,180612,,,A*78
$GPRMC,185148.000,A,3748.8176,N,12217.5766,W,0.83,192.04,180612,,,A*71
$GPRMC,185149.000,A,3748.8178,N,12217.5769,W,0.12,333.21,180612,,,A*77
$GPRMC,185150.000,A,3748.8180,N,12217.5772,W,0.87,357.56,180612,,,A*7C
$GPRMC,185151.000,A,3748.8183,N,12217.5776,W,0.82,11.45,180612,,,A*4C
$GPRMC,185152.000,A,3748.8185,N,12217.5778,W,0.09,94.68,180612,,,A*46
$GPRMC,185153.000,A,3748.8189,N,12217.5780,W,0.23,181.32,180612,,,A*7E
$GPRMC,185154.000,A,3748.8192,N,12217.5781,W,0.28,348.70,180612,,,A*78
$GPRMC,185155.000,A,3748.8194,N,12217.5783,W,0.45,349.32,180612,,,A*71
$GPRMC,185156.000,A,3748.8203,N,12217.5784,W,0.53,3.46,180612,,,A*71
$GPRMC,185157.000,A,3748.8206,N,12217.5781,W,0.64,54.06,180612,,,A*42
$GPRMC,185158.000,A,3748.8206,N,12217.5775,W,0.69,73.20,180612,,,A*4A
$GPRMC,185159.000,A,3748.8207,N,12217.5768,W,0.61,84.00,180612,,,A*44
$GPRMC,185200.000,A,3748.8206,N,12217.5759,W,0.70,137.57,180612,,,A*73
$GPRMC,185201.000,A,3748.8204,N,12217.5750,W,0.66,120.91,180612,,,A*72
$GPRMC,185202.000,A,3748.8197,N,12217.5745,W,0.56,122.67,180612,,,A*74
$GPRMC,185203.000,A,3748.8191,N,12217.5741,W,0.44,104.54,180612,,,A*70
$GPRMC,185204.000,A,3748.8182,N,12217.5739,W,0.59,85.48,180612,,,A*43
$GPRMC,185205.000,A,3748.8177,N,12217.5734,W,0.23,72.74,180612,,,A*4F
$GPRMC,185206.000,A,3748.8177,N,12217.5729,W,0.48,114.15,180612,,,A*7B
$GPRMC,185207.000,A,3748.8176,N,12217.5726,W,0.61,138.18,180612,,,A*7C
$GPRMC,185208.000,A,3748.8172,N,12217.5723,W,0.84,148.03,180612,,,A*74
$GPRMC,185209.000,A,3748.8176,N,12217.5716,W,0.50,161.29,180612,,,A*7D
$GPRMC,185210.000,A,3748.8178,N,12217.5711,W,0.24,2.64,180612,,,A*72
$GPRMC,185211.000,A,3748.8174,N,12217.5716,W,0.81,209.43,180612,,,A*7B
$GPRMC,185212.000,A,3748.8176,N,12217.5717,W,0.62,296.25,180612,,,A*70
$GPRMC,185213.000,A,3748.8177,N,12217.5717,W,0.24,242.11,180612,,,A*7C
$GPRMC,185214.000,A,3748.8175,N,12217.5714,W,0.84,175.91,180612,,,A*7F
$GPRMC,185215.000,A,3748.8167,N,12217.5714,W,1.01,205.71,180612,,,A*7B
$GPRMC,185216.000,A,3748.8163,N,12217.5712,W,0.17,156.97,180612,,,A*71
$GPRMC,185217.000,A,3748.8160,N,12217.5711,W,0.08,60.01,180612,,,A*45
$GPRMC,185218.000,A,3748.8158,N,12217.5709,W,0.24,53.53,180612,,,A*41
$GPRMC,185219.000,A,3748.8158,N,12217.5705,W,0.11,358.13,180612,,,A*76
$GPRMC,185220.000,A,3748.8155,N,12217.5705,W,0.29,187.46,180612,,,A*7A
$GPRMC,185221.000,A,3748.8155,N,12217.5703,W,0.15,123.21,180612,,,A*7D
$GPRMC,185222.000,A,3748.8154,N,12217.5702,W,0.20,111.85,180612,,,A*77
$GPRMC,185223.000,A,3748.8153,N,12217.5702,W,0.17,31.11,180612,,,A*4B
$GPRMC,185224.000,A,3748.8150,N,12217.5698,W,0.28,156.57,180612,,,A*73
$GPRMC,185225.000,A,3748.8151,N,12217.5694,W,0.09,128.38,180612,,,A*7C
$GPRMC,185226.000,A,3748.8157,N,12217.5690,W,0.70,46.46,180612,,,A*43
$GPRMC,185227.000,A,3748.8162,N,12217.5685,W,0.52,135.20,180612,,,A*75
$GPRMC,185228.000,A,3748.8162,N,12217.5683,W,0.45,132.50,180612,,,A*7A
$GPRMC,185229.000,A,3748.8161,N,12217.5683,W,0.42,60.26,180612,,,A*48
$GPRMC,185230.000,A,3748.8160,N,12217.5681,W,0.46,76.91,180612,,,A*4C
$GPRMC,185231.000,A,3748.8163,N,12217.5681,W,0.56,15.84,180612,,,A*4E
$GPRMC,185232.000,A,3748.8165,N,12217.5680,W,0.91,2.10,180612,,,A*7A
$GPRMC,185233.000,A,3748.8164,N,12217.5678,W,0.57,39.39,180612,,,A*44
$GPRMC,185234.000,A,3748.8163,N,12217.5675,W,0.43,82.80,180612,,,A*4E
$GPRMC,185235.000,A,3748.8161,N,12217.5666,W,0.48,108.61,180612,,,A*78
$GPRMC,185236.000,A,3748.8162,N,12217.5666,W,0.53,118.68,180612,,,A*7A
$GPRMC,185237.000,A,3748.8159,N,12217.5663,W,1.12,142.42,180612,,,A*75
$GPRMC,185238.000,A,3748.8157,N,12217.5656,W,1.26,145.31,180612,,,A*76
$GPRMC,185239.000,A,3748.8151,N,12217.5650,W,1.57,136.55,180612,,,A*77
$GPRMC,185240.000,A,3748.8146,N,12217.5643,W,1.44,122.52,180612,,,A*7D
$GPRMC,185241.000,A,3748.8146,N,12217.5636,W,1.30,121.19,180612,,,A*71
$GPRMC,185242.000,A,3748.8141,N,12217.5629,W,1.66,139.83,180612,,,A*72
$GPRMC,185243.000,A,3748.8136,N,12217.5619,W,1.59,128.32,180612,,,A*76
