$ADVER,3080,2.3
$GPRMC,231204.924,A,3748.8064,N,12217.8508,W,0.16,245.15,270411,,,A*74
$GPGGA,231205.924,3748.8067,N,12217.8506,W,1,03,5.9,25.1,M,-25.1,M,,0000*59
$GPGSA,A,2,03,13,06,,,,,,,,,,6.0,5.9,1.0*3F
$GPRMC,231205.924,A,3748.8067,N,12217.8506,W,0.53,190.92,270411,,,A*7D
$GPVTG,190.92,T,,M,0.53,N,1.0,K,N*06
$GPGGA,231206.924,3748.8070,N,12217.8505,W,1,03,5.9,25.1,M,-25.1,M,,0000*5F
$GPGSA,A,2,03,13,06,,,,,,,,,,6.0,5.9,1.0*3F
$GPRMC,231206.924,A,3748.8070,N,12217.8505,W,0.14,215.12,270411,,,A*7E
$GPVTG,215.12,T,,M,0.14,N,0.3,K,N*01
$GPGGA,231207.924,3748.8072,N,12217.8504,W,1,03,5.9,25.1,M,-25.1,M,,0000*5D
$GPGSA,A,2,03,13,06,,,,,,,,,,6.0,5.9,1.0*3F
$GPRMC,231207.924,A,3748.8072,N,12217.8504,W,0.18,255.52,270411,,,A*70
$GPVTG,255.52,T,,M,0.18,N,0.3,K,N*0D
$GPGGA,231208.924,3748.8073,N,12217.8503,W,1,03,5.9,25.1,M,-25.1,M,,0000*54
$GPGSA,A,2,03,13,06,,,,,,,,,,6.0,5.9,1.0*3F
$GPRMC,231208.924,A,3748.8073,N,12217.8503,W,0.32,197.59,270411,,,A*77
$GPVTG,197.59,T,,M,0.32,N,0.6,K,N*06
$GPGGA,231209.924,3748.8077,N,12217.8501,W,1,03,5.9,25.1,M,-25.1,M,,0000*53
$GPGSA,A,2,03,13,06,,,,,,,,,,6.0,5.9,1.0*3F
$GPGSV,3,1,12,13,74,017,37,03,24,092,36,06,19,077,33,23,52,106,39*75
$GPGSV,3,2,12,07,52,284,41,10,39,295,35,16,28,044,27,08,26,262,40*75
$GPGSV,3,3,12,20,18,176,40,19,12,121,23,30,06,039,31,01,05,208,*7E
$GPVTG,202.78,T,,M,0.27,N,0.5,K,N*0D
$GPGGA,231210.924,3748.8080,N,12217.8500,W,1,03,5.9,25.1,M,-25.1,M,,0000*52
$GPGSA,A,2,03,13,06,,,,,,,,,,6.0,5.9,1.0*3F
$GPRMC,231210.924,A,3748.8080,N,12217.8500,W,0.14,194.94,270411,,,A*77
$GPVTG,194.94,T,,M,0.14,N,0.3,K,N*05
$GPGGA,231211.924,3748.8082,N,12217.8499,W,1,03,5.9,25.1,M,-25.1,M,,0000*50
$GPGSA,A,2,03,13,06,,,,,,,,,,6.0,5.9,1.0*3F
$GPRMC,231211.924,A,3748.8082,N,12217.8499,W,0.28,190.96,270411,,,A*7C
$GPVTG,190.96,T,,M,0.28,N,0.5,K,N*0A
$GPGGA,231212.924,3748.8087,N,12217.8497,W,1,03,5.9,25.1,M,-25.1,M,,0000*58
$GPGSA,A,2,03,13,06,,,,,,,,,,6.0,5.9,1.0*3F
$GPRMC,231212.924,A,3748.8087,N,12217.8497,W,0.29,189.09,270411,,,A*7B
$GPVTG,189.09,T,,M,0.29,N,0.5,K,N*05
$GPGGA,231213.924,3748.8088,N,12217.8496,W,1,03,5.9,25.1,M,-25.1,M,,0000*57
$GPGSA,A,2,03,13,06,,,,,,,,,,6.0,5.9,1.0*3F
$GPRMC,231213.924,A,3748.8088,N,12217.8496,W,0.13,224.68,270411,,,A*7E
$GPVTG,224.68,T,,M,0.13,N,0.2,K,N*08
$GPGGA,231214.924,3748.8089,N,12217.8496,W,1,03,5.9,25.1,M,-25.1,M,,0000*51
$GPGSA,A,2,03,13,06,,,,,,,,,,6.0,5.9,1.0*3F
$GPGSV,3,1,12,13,74,017,37,03,24,092,35,06,19,077,34,23,52,106,39*71
$GPGSV,3,2,12,07,52,284,41,10,39,295,37,16,28,044,27,08,26,262,40*77
$GPGSV,3,3,12,20,18,176,39,19,12,121,10,30,06,039,31,01,05,208,*70
$GPRMC,231214.924,A,3748.8089,N,12217.8496,W,0.52,191.96,270411,,,A*71
$GPVTG,191.96,T,,M,0.52,N,1.0,K,N*02
$GPGGA,231215.924,3748.8090,N,12217.8496,W,1,03,5.9,25.1,M,-25.1,M,,0000*58
$GPGSA,A,2,03,13,06,,,,,,,,,,6.0,5.9,1.0*3F
$GPRMC,231215.924,A,3748.8090,N,12217.8496,W,0.24,294.38,270411,,,A*7B
$GPVTG,294.38,T,,M,0.24,N,0.4,K,N*04
$GPGGA,231216.924,3748.8088,N,12217.8496,W,1,03,5.9,25.1,M,-25.1,M,,0000*52
$GPGSA,A,2,03,13,06,,,,,,,,,,6.0,5.9,1.0*3F
$GPRMC,231216.924,A,3748.8088,N,12217.8496,W,0.28,190.96,270411,,,A*7E
$GPVTG,190.96,T,,M,0.28,N,0.5,K,N*0A
$GPGGA,231217.924,3748.8087,N,12217.8496,W,1,03,5.9,25.1,M,-25.1,M,,0000*5C
$GPGSA,A,2,03,13,06,,,,,,,,,,6.0,5.9,1.0*3F
$GPRMC,231217.924,A,3748.8087,N,12217.8496,W,0.43,217.10,270411,,,A*7F
$GPVTG,217.10,T,,M,0.43,N,0.8,K,N*08
$GPGGA,231218.924,3748.8053,N,12217.8511,W,1,03,5.9,25.1,M,-25.1,M,,0000*54
$GPGSA,A,2,03,13,06,,,,,,,,,,6.0,5.9,1.0*3F
$GPRMC,231218.924,A,3748.8053,N,12217.8511,W,1.55,18.87,270411,,,A*42
$GPVTG,18.87,T,,M,1.55,N,2.9,K,N*3E
$GPGGA,231219.924,3748.7974,N,12217.8547,W,1,03,5.9,25.1,M,-25.1,M,,0000*55
$GPGSA,A,2,03,13,06,,,,,,,,,,6.0,5.9,1.0*3F
$GPGSV,3,1,12,13,74,017,38,03,24,092,35,06,19,077,28,23,52,106,38*72
$GPGSV,3,2,12,07,52,284,40,10,39,295,36,16,28,044,26,08,26,262,36*77
$GPGSV,3,3,12,20,18,176,40,19,12,121,,30,06,039,24,01,05,208,*7B
$GPRMC,231219.924,A,3748.7974,N,12217.8547,W,0.72,199.84,270411,,,A*7C
$GPVTG,199.84,T,,M,0.72,N,1.3,K,N*08
$GPGGA,231220.924,3748.7968,N,12217.8550,W,1,03,5.9,25.1,M,-25.1,M,,0000*54
$GPGSA,A,2,03,13,06,,,,,,,,,,6.0,5.9,1.0*3F
$GPRMC,231220.924,A,3748.7968,N,12217.8550,W,0.25,49.82,270411,,,A*45
$GPVTG,49.82,T,,M,0.25,N,0.5,K,N*37
$GPGGA,231221.924,3748.8095,N,12217.8562,W,1,03,5.9,25.1,M,-25.1,M,,0000*50
$GPGSA,A,2,03,13,06,,,,,,,,,,6.0,5.9,1.0*3F
$GPRMC,231221.924,A,3748.8095,N,12217.8562,W,5.62,184.29,270411,,,A*76
$GPVTG,184.29,T,,M,5.62,N,10.4,K,N*30
$GPGGA,231222.924,3748.8058,N,12217.8660,W,1,04,5.3,4.1,M,-25.1,M,,0000*6D
$GPGSA,A,3,03,13,06,07,,,,,,,,,6.3,5.3,3.5*37
$GPRMC,231222.924,A,3748.8058,N,12217.8660,W,3.46,175.33,270411,,,A*70
$GPVTG,175.33,T,,M,3.46,N,6.4,K,A*0D
$GPGGA,231223.924,3748.7979,N,12217.8636,W,1,04,5.3,12.8,M,-25.1,M,,0000*54
$GPGSA,A,3,03,13,06,07,,,,,,,,,6.3,5.3,3.5*37
$GPRMC,231223.924,A,3748.7979,N,12217.8636,W,1.76,177.94,270411,,,A*79
$GPVTG,177.94,T,,M,1.76,N,3.3,K,A*01
$GPGGA,231224.924,3748.7987,N,12217.8637,W,1,04,5.3,13.1,M,-25.1,M,,0000*5B
$GPGSA,A,3,03,13,06,07,,,,,,,,,6.3,5.3,3.5*37
$GPGSV,3,1,12,13,74,017,28,07,52,284,34,03,24,092,27,06,19,077,26*7D
$GPGSV,3,2,12,23,52,107,35,10,39,295,36,16,27,044,15,08,26,262,38*7A
$GPGSV,3,3,12,20,18,176,42,19,12,121,,30,06,039,29,01,05,209,*75
$GPVTG,177.30,T,,M,1.03,N,1.9,K,A*05
$GPGGA,231226.000,3748.7998,N,12217.8638,W,1,04,5.3,12.2,M,-25.1,M,,0000*55
$GPGSA,A,3,03,13,06,07,,,,,,,,,6.3,5.3,3.5*37
$GPRMC,231226.000,A,3748.7998,N,12217.8638,W,0.72,171.75,270411,,,A*7E
$GPVTG,171.75,T,,M,0.72,N,1.3,K,A*0F
$GPGGA,231227.000,3748.7984,N,12217.8634,W,1,04,5.3,12.2,M,-25.1,M,,0000*55
$GPGSA,A,3,03,13,06,07,,,,,,,,,6.3,5.3,3.5*37
$GPRMC,231227.000,A,3748.7984,N,12217.8634,W,0.75,164.52,270411,,,A*78
$GPVTG,164.52,T,,M,0.75,N,1.4,K,A*0E
$GPGGA,231228.000,3748.7991,N,12217.8630,W,1,06,1.5,11.6,M,-25.1,M,,0000*5D
$GPGSA,A,3,03,13,06,07,08,20,,,,,,,2.7,1.5,2.3*38
$GPRMC,231228.000,A,3748.7991,N,12217.8630,W,0.38,203.21,270411,,,A*78
$GPVTG,203.21,T,,M,0.38,N,0.7,K,A*03
$GPGGA,231229.000,3748.7993,N,12217.8628,W,1,06,1.5,10.8,M,-25.1,M,,0000*58
$GPGSA,A,3,03,13,06,07,08,20,,,,,,,2.7,1.5,2.3*38
$GPRMC,231229.000,A,3748.7993,N,12217.8628,W,0.11,85.15,270411,,,A*42
$GPVTG,85.15,T,,M,0.11,N,0.2,K,A*36
$GPGGA,231230.000,3748.7994,N,12217.8626,W,1,06,1.5,10.0,M,-25.1,M,,0000*51
$GPGSA,A,3,03,13,06,07,08,20,,,,,,,2.7,1.5,2.3*38
$GPGSV,3,1,12,13,74,017,29,07,52,284,26,23,52,107,36,10,39,295,28*74
$GPGSV,3,2,12,16,27,044,30,08,27,262,31,03,24,092,36,06,19,077,34*71
$GPGSV,3,3,12,20,18,176,43,19,13,121,,30,06,039,29,01,05,209,*75
$GPRMC,231230.000,A,3748.7994,N,12217.8626,W,0.28,126.16,270411,,,A*72
$GPVTG,126.16,T,,M,0.28,N,0.5,K,A*00
$GPGGA,231231.000,3748.7995,N,12217.8625,W,1,06,1.5,9.3,M,-25.1,M,,0000*69
$GPGSA,A,3,03,13,06,07,08,20,,,,,,,2.7,1.5,2.3*38
$GPRMC,231231.000,A,3748.7995,N,12217.8625,W,0.11,153.26,270411,,,A*7A
$GPVTG,153.26,T,,M,0.11,N,0.2,K,A*0C
$GPGGA,231232.000,3748.7996,N,12217.8625,W,1,06,1.5,8.6,M,-25.1,M,,0000*6D
$GPGSA,A,3,03,13,06,07,08,20,,,,,,,2.7,1.5,2.3*38
$GPRMC,231232.000,A,3748.7996,N,12217.8625,W,0.09,140.61,270411,,,A*72
$GPVTG,140.61,T,,M,0.09,N,0.2,K,A*04
$GPGGA,231233.000,3748.7997,N,12217.8625,W,1,06,1.5,7.9,M,-25.1,M,,0000*6D
$GPGSA,A,3,03,13,06,07,08,20,,,,,,,2.7,1.5,2.3*38
$GPRMC,231233.000,A,3748.7997,N,12217.8625,W,0.04,104.38,270411,,,A*73
$GPVTG,104.38,T,,M,0.04,N,0.1,K,A*06
$GPGGA,231234.000,3748.7995,N,12217.8623,W,1,07,1.3,8.9,M,-25.1,M,,0000*66
$GPGSA,A,3,23,03,13,06,07,08,20,,,,,,2.3,1.3,1.9*32
$GPRMC,231234.000,A,3748.7995,N,12217.8623,W,0.04,148.20,270411,,,A*71
$GPVTG,148.20,T,,M,0.04,N,0.1,K,A*07
$GPGGA,231235.000,3748.7994,N,12217.8621,W,1,06,1.4,9.6,M,-25.1,M,,0000*6C
$GPGSA,A,3,23,03,13,06,08,20,,,,,,,2.3,1.4,1.9*32
$GPGSV,3,1,12,13,74,018,30,07,52,284,21,23,52,107,38,10,39,295,26*74
$GPGSV,3,2,12,16,27,044,31,08,27,262,33,03,24,092,36,06,19,077,35*73
$GPGSV,3,3,12,20,18,176,43,19,13,121,33,30,06,039,24,01,05,209,*78
$GPRMC,231235.000,A,3748.7994,N,12217.8621,W,0.16,147.24,270411,,,A*7B
$GPVTG,147.24,T,,M,0.16,N,0.3,K,A*0D
$GPGGA,231236.000,3748.7993,N,12217.8620,W,1,06,1.4,10.1,M,-25.1,M,,0000*56
$GPGSA,A,3,23,03,13,06,08,20,,,,,,,2.3,1.4,1.9*32
$GPRMC,231236.000,A,3748.7993,N,12217.8620,W,0.08,122.58,270411,,,A*79
$GPVTG,122.58,T,,M,0.08,N,0.1,K,A*08
$GPGGA,231237.000,3748.7993,N,12217.8620,W,1,06,1.4,10.4,M,-25.1,M,,0000*52
$GPGSA,A,3,23,03,13,06,08,20,,,,,,,2.3,1.4,1.9*32
$GPRMC,231237.000,A,3748.7993,N,12217.8620,W,0.15,153.62,270411,,,A*7B
$GPVTG,153.62,T,,M,0.15,N,0.3,K,A*09
$GPGGA,231238.000,3748.7993,N,12217.8619,W,1,06,1.4,10.7,M,-25.1,M,,0000*54
$GPGSA,A,3,23,03,13,06,08,20,,,,,,,2.3,1.4,1.9*32
$GPRMC,231238.000,A,3748.7993,N,12217.8619,W,0.14,177.40,270411,,,A*79
$GPVTG,177.40,T,,M,0.14,N,0.3,K,A*0E
$GPGGA,231239.000,3748.7992,N,12217.8619,W,1,07,1.3,10.6,M,-25.1,M,,0000*53
$GPGSA,A,3,23,03,13,06,07,08,20,,,,,,2.3,1.3,1.9*32
$GPRMC,231239.000,A,3748.7992,N,12217.8619,W,0.17,169.83,270411,,,A*7A
$GPVTG,169.83,T,,M,0.17,N,0.3,K,A*0D
$GPGGA,231240.000,3748.7991,N,12217.8618,W,1,07,1.3,10.4,M,-25.1,M,,0000*5D
$GPGSA,A,3,23,03,13,06,07,08,20,,,,,,2.3,1.3,1.9*32
$GPGSV,3,1,12,13,74,018,30,07,52,284,39,23,52,107,35,10,39,295,35*72
$GPGSV,3,2,12,16,27,044,26,08,27,262,41,03,24,092,28,06,19,077,26*7D
$GPGSV,3,3,12,20,18,176,42,19,13,121,19,30,06,039,25,01,05,209,*70
$GPVTG,151.29,T,,M,0.22,N,0.4,K,A*07
$GPGGA,231241.000,3748.7989,N,12217.8616,W,1,07,1.3,10.5,M,-25.1,M,,0000*5A
$GPGSA,A,3,23,03,13,06,07,08,20,,,,,,2.3,1.3,1.9*32
$GPRMC,231241.000,A,3748.7989,N,12217.8616,W,0.16,101.60,270411,,,A*72
$GPVTG,101.60,T,,M,0.16,N,0.3,K,A*0F
$GPGGA,231242.000,3748.7988,N,12217.8614,W,1,07,1.3,10.6,M,-25.1,M,,0000*59
$GPGSA,A,3,23,03,13,06,07,08,20,,,,,,2.3,1.3,1.9*32
$GPRMC,231242.000,A,3748.7988,N,12217.8614,W,0.45,84.55,270411,,,A*4E
$GPVTG,84.55,T,,M,0.45,N,0.8,K,A*38
$GPGGA,231243.000,3748.7986,N,12217.8609,W,1,07,1.3,11.5,M,-25.1,M,,0000*58
$GPGSA,A,3,23,03,13,06,07,08,20,,,,,,2.3,1.3,1.9*32
$GPRMC,231243.000,A,3748.7986,N,12217.8609,W,0.61,157.97,270411,,,A*7A
$GPVTG,157.97,T,,M,0.61,N,1.1,K,A*07
$GPGGA,231244.000,3748.7983,N,12217.8605,W,1,07,1.3,12.3,M,-25.1,M,,0000*53
$GPGSA,A,3,23,03,13,06,07,08,20,,,,,,2.3,1.3,1.9*32
$GPRMC,231244.000,A,3748.7983,N,12217.8605,W,0.18,122.39,270411,,,A*7C
$GPVTG,122.39,T,,M,0.18,N,0.3,K,A*0C
$GPGGA,231245.000,3748.7981,N,12217.8601,W,1,07,1.3,13.1,M,-25.1,M,,0000*57
$GPGSA,A,3,23,03,13,06,07,08,20,,,,,,2.3,1.3,1.9*32
$GPGSV,3,1,12,13,74,018,31,07,52,284,27,23,52,107,38,10,39,295,29*7C
$GPGSV,3,2,12,16,27,044,29,08,27,262,28,03,24,092,34,06,19,077,37*70
$GPGSV,3,3,12,20,18,176,42,19,13,121,35,30,06,039,34,01,05,209,*7E
$GPRMC,231245.000,A,3748.7981,N,12217.8601,W,0.31,135.41,270411,,,A*79
$GPVTG,135.41,T,,M,0.31,N,0.6,K,A*0B
$GPGGA,231246.000,3748.7979,N,12217.8597,W,1,06,1.4,13.9,M,-25.1,M,,0000*51
$GPGSA,A,3,23,03,13,06,08,20,,,,,,,2.3,1.4,1.9*32
$GPRMC,231246.000,A,3748.7979,N,12217.8597,W,0.26,142.06,270411,,,A*74
$GPVTG,142.06,T,,M,0.26,N,0.5,K,A*0D
$GPGGA,231247.000,3748.7977,N,12217.8593,W,1,06,1.4,14.5,M,-25.1,M,,0000*51
$GPGSA,A,3,23,03,13,06,08,20,,,,,,,2.3,1.4,1.9*32
$GPRMC,231247.000,A,3748.7977,N,12217.8593,W,0.31,138.91,270411,,,A*7A
$GPVTG,138.91,T,,M,0.31,N,0.6,K,A*0B
$GPGGA,231248.000,3748.7976,N,12217.8591,W,1,07,1.3,15.1,M,-25.1,M,,0000*5E
$GPGSA,A,3,23,03,13,06,07,08,20,,,,,,2.3,1.3,1.9*32
$GPRMC,231248.000,A,3748.7976,N,12217.8591,W,0.23,197.16,270411,,,A*7F
$GPVTG,197.16,T,,M,0.23,N,0.4,K,A*00
$GPGGA,231249.000,3748.7975,N,12217.8589,W,1,07,1.3,15.5,M,-25.1,M,,0000*51
$GPGSA,A,3,23,03,13,06,07,08,20,,,,,,2.3,1.3,1.9*32
$GPRMC,231249.000,A,3748.7975,N,12217.8589,W,0.28,128.12,270411,,,A*7F
$GPVTG,128.12,T,,M,0.28,N,0.5,K,A*0A
$GPGGA,231250.000,3748.7974,N,12217.8587,W,1,07,1.3,15.8,M,-25.1,M,,0000*5B
$GPGSA,A,3,23,03,13,06,07,08,20,,,,,,2.3,1.3,1.9*32
$GPGSV,3,1,12,13,74,018,31,07,52,284,27,23,52,107,38,10,39,295,28*7D
$GPGSV,3,2,12,16,27,044,30,08,27,262,33,03,24,092,35,06,19,077,38*7C
$GPGSV,3,3,12,20,18,176,41,19,13,121,35,30,06,039,33,01,05,209,*7A
$GPRMC,231250.000,A,3748.7974,N,12217.8587,W,0.29,138.43,270411,,,A*7C
$GPVTG,138.43,T,,M,0.29,N,0.5,K,A*0E
$GPGGA,231251.000,3748.7973,N,12217.8585,W,1,07,1.3,16.0,M,-25.1,M,,0000*54
$GPGSA,A,3,23,03,13,06,07,08,20,,,,,,2.3,1.3,1.9*32
$GPRMC,231251.000,A,3748.7973,N,12217.8585,W,0.28,143.32,270411,,,A*73
$GPVTG,143.32,T,,M,0.28,N,0.5,K,A*05
$GPGGA,231252.000,3748.7973,N,12217.8584,W,1,07,1.3,16.3,M,-25.1,M,,0000*55
$GPGSA,A,3,23,03,13,06,07,08,20,,,,,,2.3,1.3,1.9*32
$GPRMC,231252.000,A,3748.7973,N,12217.8584,W,0.18,161.26,270411,,,A*77
$GPVTG,161.26,T,,M,0.18,N,0.3,K,A*05
$GPGGA,231253.000,3748.7972,N,12217.8583,W,1,07,1.3,16.5,M,-25.1,M,,0000*54
$GPGSA,A,3,23,03,13,06,07,08,20,,,,,,2.3,1.3,1.9*32
$GPRMC,231253.000,A,3748.7972,N,12217.8583,W,0.23,161.26,270411,,,A*78
$GPVTG,161.26,T,,M,0.23,N,0.4,K,A*0A
$GPGGA,231254.000,3748.7971,N,12217.8582,W,1,07,1.3,16.6,M,-25.1,M,,0000*52
$GPGSA,A,3,23,03,13,06,07,08,20,,,,,,2.3,1.3,1.9*32
$GPRMC,231254.000,A,3748.7971,N,12217.8582,W,0.51,196.27,270411,,,A*71
$GPVTG,196.27,T,,M,0.51,N,0.9,K,A*0B
$GPGGA,231255.000,3748.7970,N,12217.8583,W,1,07,1.3,17.0,M,-25.1,M,,0000*54
$GPGSA,A,3,23,03,13,06,07,08,20,,,,,,2.3,1.3,1.9*32
$GPGSV,3,1,12,13,74,018,31,07,52,284,33,23,52,107,38,10,39,295,29*79
$GPGSV,3,2,12,16,27,044,30,08,27,262,40,03,24,092,33,06,19,077,32*74
$GPGSV,3,3,12,20,18,176,41,19,13,121,28,30,06,039,26,01,05,209,*72
$GPVTG,225.41,T,,M,0.37,N,0.7,K,A*0E
$GPGGA,231256.000,3748.7969,N,12217.8583,W,1,07,1.3,17.0,M,-25.1,M,,0000*5F
$GPGSA,A,3,23,03,13,06,07,08,20,,,,,,2.3,1.3,1.9*32
$GPRMC,231256.000,A,3748.7969,N,12217.8583,W,0.59,197.30,270411,,,A*74
$GPVTG,197.30,T,,M,0.59,N,1.1,K,A*0D
$GPGGA,231257.000,3748.7970,N,12217.8584,W,1,07,1.3,17.3,M,-25.1,M,,0000*52
$GPGSA,A,3,23,03,13,06,07,08,20,,,,,,2.3,1.3,1.9*32
$GPRMC,231257.000,A,3748.7970,N,12217.8584,W,0.34,66.81,270411,,,A*44
$GPVTG,66.81,T,,M,0.34,N,0.6,K,A*35
$GPGGA,231258.000,3748.7971,N,12217.8584,W,1,06,1.4,17.3,M,-25.1,M,,0000*5A
$GPGSA,A,3,23,13,06,07,08,20,,,,,,,2.3,1.4,1.9*36
$GPRMC,231258.000,A,3748.7971,N,12217.8584,W,0.14,262.75,270411,,,A*75
$GPVTG,262.75,T,,M,0.14,N,0.3,K,A*0F
$GPGGA,231259.000,3748.7971,N,12217.8587,W,1,06,1.4,17.3,M,-25.1,M,,0000*58
$GPGSA,A,3,23,13,06,07,08,20,,,,,,,2.3,1.4,1.9*36
$GPRMC,231259.000,A,3748.7971,N,12217.8587,W,0.30,209.91,270411,,,A*76
$GPVTG,209.91,T,,M,0.30,N,0.6,K,A*0B
$GPGGA,231300.000,3748.7973,N,12217.8589,W,1,06,1.4,16.8,M,-25.1,M,,0000*53
$GPGSA,A,3,23,13,06,07,08,20,,,,,,,2.3,1.4,1.9*36
$GPGSV,3,1,12,13,74,018,31,07,52,284,41,23,52,107,30,10,39,295,38*74
$GPGSV,3,2,12,16,27,044,30,08,27,262,39,03,24,092,,06,19,077,22*7B
$GPGSV,3,3,12,20,18,176,42,19,13,121,25,30,06,039,28,01,05,209,*72
$GPRMC,231300.000,A,3748.7973,N,12217.8589,W,0.40,218.08,270411,,,A*70
$GPVTG,218.08,T,,M,0.40,N,0.7,K,A*0D
$GPGGA,231301.000,3748.7972,N,12217.8592,W,1,06,1.4,17.0,M,-25.1,M,,0000*50
$GPGSA,A,3,23,13,06,07,08,20,,,,,,,2.3,1.4,1.9*36
$GPRMC,231301.000,A,3748.7972,N,12217.8592,W,0.38,203.84,270411,,,A*7B
$GPVTG,203.84,T,,M,0.38,N,0.7,K,A*0C
$GPGGA,231302.000,3748.7972,N,12217.8594,W,1,06,1.4,17.2,M,-25.1,M,,0000*57
$GPGSA,A,3,23,13,06,07,08,20,,,,,,,2.3,1.4,1.9*36
$GPRMC,231302.000,A,3748.7972,N,12217.8594,W,0.47,208.88,270411,,,A*71
$GPVTG,208.88,T,,M,0.47,N,0.9,K,A*0D
$GPGGA,231303.000,3748.7970,N,12217.8596,W,1,06,1.4,17.7,M,-25.1,M,,0000*53
$GPGSA,A,3,23,13,06,07,08,20,,,,,,,2.3,1.4,1.9*36
$GPRMC,231303.000,A,3748.7970,N,12217.8596,W,0.23,172.48,270411,,,A*70
$GPVTG,172.48,T,,M,0.23,N,0.4,K,A*00
$GPGGA,231304.000,3748.7971,N,12217.8598,W,1,07,1.2,17.4,M,-25.1,M,,0000*5F
$GPGSA,A,3,23,13,06,07,08,20,10,,,,,,2.2,1.2,1.9*30
$GPRMC,231304.000,A,3748.7971,N,12217.8598,W,0.20,183.03,270411,,,A*7A
$GPVTG,183.03,T,,M,0.20,N,0.4,K,A*02
$GPGGA,231305.000,3748.7972,N,12217.8599,W,1,07,1.2,17.1,M,-25.1,M,,0000*59
$GPGSA,A,3,23,13,06,07,08,20,10,,,,,,2.2,1.2,1.9*30
$GPGSV,3,1,12,13,75,018,30,07,52,284,41,23,52,107,30,10,39,294,38*75
$GPGSV,3,2,12,16,27,044,30,08,27,263,40,03,24,092,,06,19,076,27*70
$GPGSV,3,3,12,20,18,176,42,19,13,121,24,30,06,039,28,05,02,326,*7C
$GPRMC,231305.000,A,3748.7972,N,12217.8599,W,0.14,153.05,270411,,,A*75
$GPVTG,153.05,T,,M,0.14,N,0.3,K,A*09
$GPGGA,231306.000,3748.7973,N,12217.8600,W,1,07,1.2,16.8,M,-25.1,M,,0000*50
$GPGSA,A,3,23,13,06,07,08,20,10,,,,,,2.2,1.2,1.9*30
$GPRMC,231306.000,A,3748.7973,N,12217.8600,W,0.13,164.98,270411,,,A*73
$GPVTG,164.98,T,,M,0.13,N,0.2,K,A*0F
$GPGGA,231307.000,3748.7974,N,12217.8601,W,1,07,1.2,16.6,M,-25.1,M,,0000*59
$GPGSA,A,3,23,13,06,07,08,20,10,,,,,,2.2,1.2,1.9*30
$GPRMC,231307.000,A,3748.7974,N,12217.8601,W,0.13,164.71,270411,,,A*73
$GPVTG,164.71,T,,M,0.13,N,0.2,K,A*08
$GPGGA,231308.000,3748.7974,N,12217.8603,W,1,07,1.2,16.3,M,-25.1,M,,0000*51
$GPGSA,A,3,23,13,06,07,08,20,10,,,,,,2.2,1.2,1.9*30
$GPRMC,231308.000,A,3748.7974,N,12217.8603,W,0.23,161.26,270411,,,A*7A
$GPVTG,161.26,T,,M,0.23,N,0.4,K,A*0A
$GPGGA,231309.000,3748.7974,N,12217.8605,W,1,08,1.2,16.2,M,-25.1,M,,0000*58
$GPGSA,A,3,23,03,13,06,07,08,20,10,,,,,2.2,1.2,1.8*32
$GPRMC,231309.000,A,3748.7974,N,12217.8605,W,0.48,225.69,270411,,,A*78
$GPVTG,225.69,T,,M,0.48,N,0.9,K,A*02
$GPGGA,231310.000,3748.7974,N,12217.8607,W,1,08,1.2,16.1,M,-25.1,M,,0000*51
$GPGSA,A,3,23,03,13,06,07,08,20,10,,,,,2.2,1.2,1.8*32
$GPGSV,3,1,12,13,75,018,30,07,52,284,30,23,52,107,36,10,39,294,37*7A
$GPGSV,3,2,12,16,27,044,,08,27,263,40,03,24,092,23,06,19,076,27*72
$GPGSV,3,3,12,20,18,176,42,19,13,121,30,30,06,039,28,05,02,326,*79
$GPRMC,231310.000,A,3748.7974,N,12217.8607,W,0.20,220.10,270411,,,A*77
$GPVTG,220.10,T,,M,0.20,N,0.4,K,A*0A
$GPGGA,231311.000,3748.7974,N,12217.8608,W,1,08,1.2,16.1,M,-25.1,M,,0000*5F
$GPGSA,A,3,23,03,13,06,07,08,20,10,,,,,2.2,1.2,1.8*32
$GPRMC,231311.000,A,3748.7974,N,12217.8608,W,0.18,208.67,270411,,,A*78
$GPVTG,208.67,T,,M,0.18,N,0.3,K,A*0C
$GPGGA,231312.000,3748.7974,N,12217.8610,W,1,08,1.2,16.1,M,-25.1,M,,0000*55
$GPGSA,A,3,23,03,13,06,07,08,20,10,,,,,2.2,1.2,1.8*32
$GPRMC,231312.000,A,3748.7974,N,12217.8610,W,0.14,200.97,270411,,,A*79
$GPVTG,200.97,T,,M,0.14,N,0.3,K,A*07
$GPGGA,231313.000,3748.7974,N,12217.8611,W,1,08,1.2,16.0,M,-25.1,M,,0000*54
$GPGSA,A,3,23,03,13,06,07,08,20,10,,,,,2.2,1.2,1.8*32
$GPRMC,231313.000,A,3748.7974,N,12217.8611,W,0.12,180.47,270411,,,A*79
$GPVTG,180.47,T,,M,0.12,N,0.2,K,A*06
$GPGGA,231314.000,3748.7975,N,12217.8611,W,1,08,1.2,15.9,M,-25.1,M,,0000*58
$GPGSA,A,3,23,03,13,06,07,08,20,10,,,,,2.2,1.2,1.8*32
$GPRMC,231314.000,A,3748.7975,N,12217.8611,W,0.11,94.11,270411,,,A*4B
$GPVTG,94.11,T,,M,0.11,N,0.2,K,A*32
$GPGGA,231315.000,3748.7975,N,12217.8612,W,1,08,1.2,15.9,M,-25.1,M,,0000*5A
$GPGSA,A,3,23,03,13,06,07,08,20,10,,,,,2.2,1.2,1.8*32
$GPGSV,3,1,12,13,75,019,30,07,52,284,29,23,52,107,36,10,39,294,36*72
$GPGSV,3,2,12,16,27,044,25,08,27,263,39,03,24,092,23,06,19,076,27*7B
$GPGSV,3,3,12,20,18,176,40,19,13,121,30,30,06,039,27,05,02,326,*74
$GPRMC,231315.000,A,3748.7975,N,12217.8612,W,0.08,196.37,270411,,,A*76
$GPGGA,231316.000,3748.7974,N,12217.8613,W,1,08,1.2,15.9,M,-25.1,M,,0000*59
$GPGSA,A,3,23,03,13,06,07,08,20,10,,,,,2.2,1.2,1.8*32
$GPRMC,231316.000,A,3748.7974,N,12217.8613,W,0.10,206.21,270411,,,A*71
$GPVTG,206.21,T,,M,0.10,N,0.2,K,A*09
$GPGGA,231317.000,3748.7975,N,12217.8614,W,1,08,1.2,16.0,M,-25.1,M,,0000*54
$GPGSA,A,3,23,03,13,06,07,08,20,10,,,,,2.2,1.2,1.8*32
$GPRMC,231317.000,A,3748.7975,N,12217.8614,W,0.28,323.53,270411,,,A*7E
$GPVTG,323.53,T,,M,0.28,N,0.5,K,A*06
$GPGGA,231318.000,3748.7974,N,12217.8612,W,1,07,1.2,16.5,M,-25.1,M,,0000*56
$GPGSA,A,3,23,13,06,07,08,20,10,,,,,,2.2,1.2,1.9*30
$GPRMC,231318.000,A,3748.7974,N,12217.8612,W,0.21,71.57,270411,,,A*4F
$GPVTG,71.57,T,,M,0.21,N,0.4,K,A*3E
$GPGGA,231319.000,3748.7974,N,12217.8609,W,1,07,1.2,16.4,M,-25.1,M,,0000*5C
$GPGSA,A,3,23,13,06,07,08,20,10,,,,,,2.2,1.2,1.9*30
$GPRMC,231319.000,A,3748.7974,N,12217.8609,W,0.42,96.96,270411,,,A*45
$GPVTG,96.96,T,,M,0.42,N,0.8,K,A*33
$GPGGA,231320.000,3748.7974,N,12217.8608,W,1,07,1.2,16.4,M,-25.1,M,,0000*57
$GPGSA,A,3,23,13,06,07,08,20,10,,,,,,2.2,1.2,1.9*30
$GPGSV,3,1,12,13,75,019,29,07,53,284,29,23,52,107,35,10,39,294,39*77
$GPGSV,3,2,12,16,27,044,25,08,27,263,39,03,24,092,,06,19,076,25*78
$GPGSV,3,3,12,20,18,176,34,19,13,121,27,30,06,039,27,05,02,326,*71
$GPRMC,231320.000,A,3748.7974,N,12217.8608,W,0.14,59.42,270411,,,A*47
$GPVTG,59.42,T,,M,0.14,N,0.3,K,A*31
$GPGGA,231321.000,3748.7974,N,12217.8607,W,1,07,1.2,16.4,M,-25.1,M,,0000*59
$GPGSA,A,3,23,13,06,07,08,20,10,,,,,,2.2,1.2,1.9*30
$GPRMC,231321.000,A,3748.7974,N,12217.8607,W,0.07,67.55,270411,,,A*40
$GPVTG,67.55,T,,M,0.07,N,0.1,K,A*3A
$GPGGA,231322.000,3748.7974,N,12217.8606,W,1,07,1.2,16.5,M,-25.1,M,,0000*5A
$GPGSA,A,3,23,13,06,07,08,20,10,,,,,,2.2,1.2,1.9*30
$GPRMC,231322.000,A,3748.7974,N,12217.8606,W,0.11,68.22,270411,,,A*4A
$GPVTG,68.22,T,,M,0.11,N,0.2,K,A*31
$GPGGA,231323.000,3748.7974,N,12217.8604,W,1,07,1.2,16.6,M,-25.1,M,,0000*5A
$GPGSA,A,3,23,13,06,07,08,20,10,,,,,,2.2,1.2,1.9*30
$GPRMC,231323.000,A,3748.7974,N,12217.8604,W,0.20,120.91,270411,,,A*7E
$GPVTG,120.91,T,,M,0.20,N,0.4,K,A*00
$GPGGA,231324.000,3748.7976,N,12217.8601,W,1,08,1.2,16.1,M,-25.1,M,,0000*52
$GPGSA,A,3,23,03,13,06,07,08,20,10,,,,,2.2,1.2,1.8*32
$GPRMC,231324.000,A,3748.7976,N,12217.8601,W,0.41,92.76,270411,,,A*48
$GPVTG,92.76,T,,M,0.41,N,0.8,K,A*3A
$GPGGA,231325.000,3748.7974,N,12217.8601,W,1,07,1.2,16.8,M,-25.1,M,,0000*57
$GPGSA,A,3,23,03,06,07,08,20,10,,,,,,2.6,1.2,2.3*3C
$GPGSV,3,1,12,13,75,019,16,07,53,284,19,23,52,107,29,10,39,294,26*7B
$GPGSV,3,2,12,16,27,044,32,08,27,263,26,03,24,092,32,06,19,076,28*7C
$GPGSV,3,3,12,20,18,176,31,19,13,121,31,30,06,039,25,05,02,326,*71
$GPRMC,231325.000,A,3748.7974,N,12217.8601,W,0.14,182.43,270411,,,A*7D
$GPVTG,182.43,T,,M,0.14,N,0.3,K,A*07
$GPGGA,231326.000,3748.7974,N,12217.8601,W,1,07,1.2,17.1,M,-25.1,M,,0000*5C
$GPGSA,A,3,23,03,06,07,08,20,10,,,,,,2.6,1.2,2.3*3C
$GPRMC,231326.000,A,3748.7974,N,12217.8601,W,0.04,105.95,270411,,,A*7B
$GPVTG,105.95,T,,M,0.04,N,0.1,K,A*00
$GPGGA,231327.000,3748.7976,N,12217.8598,W,1,08,1.2,16.4,M,-25.1,M,,0000*57
$GPGSA,A,3,23,03,13,06,07,08,20,10,,,,,2.2,1.2,1.8*32
$GPRMC,231327.000,A,3748.7976,N,12217.8598,W,0.47,119.11,270411,,,A*7D
$GPVTG,119.11,T,,M,0.47,N,0.9,K,A*0E
$GPGGA,231328.000,3748.7978,N,12217.8597,W,1,08,1.2,15.0,M,-25.1,M,,0000*5E
$GPGSA,A,3,23,03,13,06,07,08,20,10,,,,,2.2,1.2,1.8*32
$GPRMC,231328.000,A,3748.7978,N,12217.8597,W,0.28,339.85,270411,,,A*77
$GPVTG,339.85,T,,M,0.28,N,0.5,K,A*06
$GPGGA,231329.000,3748.7979,N,12217.8596,W,1,08,1.2,15.1,M,-25.1,M,,0000*5E
$GPGSA,A,3,23,03,13,06,07,08,20,10,,,,,2.2,1.2,1.8*32
$GPRMC,231329.000,A,3748.7979,N,12217.8596,W,0.17,63.28,270411,,,A*41
$GPVTG,63.28,T,,M,0.17,N,0.3,K,A*37
$GPGGA,231330.000,3748.7980,N,12217.8595,W,1,08,1.2,14.2,M,-25.1,M,,0000*51
$GPGSA,A,3,23,03,13,06,07,08,20,10,,,,,2.2,1.2,1.8*32
$GPGSV,3,1,12,13,75,019,30,07,53,284,29,23,52,107,35,10,39,294,15*71
$GPGSV,3,2,12,16,27,044,30,08,27,263,29,03,24,092,32,06,19,076,35*7D
$GPRMC,231330.000,A,3748.7980,N,12217.8595,W,0.19,15.89,270411,,,A*48
$GPVTG,15.89,T,,M,0.19,N,0.3,K,A*33
$GPGGA,231331.000,3748.7980,N,12217.8596,W,1,08,1.2,14.3,M,-25.1,M,,0000*52
$GPGSA,A,3,23,03,13,06,07,08,20,10,,,,,2.2,1.2,1.8*32
$GPRMC,231331.000,A,3748.7980,N,12217.8596,W,0.04,21.79,270411,,,A*4E
$GPVTG,21.79,T,,M,0.04,N,0.1,K,A*35
$GPGGA,231332.000,3748.7980,N,12217.8596,W,1,08,1.2,14.3,M,-25.1,M,,0000*51
$GPGSA,A,3,23,03,13,06,07,08,20,10,,,,,2.2,1.2,1.8*32
$GPRMC,231332.000,A,3748.7980,N,12217.8596,W,0.02,249.44,270411,,,A*79
$GPVTG,249.44,T,,M,0.02,N,0.0,K,A*00
$GPGGA,231333.000,3748.7981,N,12217.8596,W,1,08,1.2,14.4,M,-25.1,M,,0000*56
$GPGSA,A,3,23,03,13,06,07,08,20,10,,,,,2.2,1.2,1.8*32
$GPRMC,231333.000,A,3748.7981,N,12217.8596,W,0.03,157.80,270411,,,A*7C
$GPVTG,157.80,T,,M,0.03,N,0.1,K,A*04
$GPGGA,231334.000,3748.7981,N,12217.8597,W,1,09,1.2,14.4,M,-25.1,M,,0000*51
$GPGSA,A,3,23,03,13,06,07,08,20,10,19,,,,2.1,1.2,1.7*36
$GPRMC,231334.000,A,3748.7981,N,12217.8597,W,0.09,317.63,270411,,,A*7B
$GPVTG,317.63,T,,M,0.09,N,0.2,K,A*06
$GPGGA,231335.000,3748.7982,N,12217.8597,W,1,09,1.2,14.3,M,-25.1,M,,0000*54
$GPGSA,A,3,23,03,13,06,07,08,20,10,19,,,,2.1,1.2,1.7*36
$GPGSV,3,1,12,13,75,019,29,07,53,285,21,23,52,107,36,10,40,294,21*7A
$GPGSV,3,2,12,16,27,044,29,08,27,263,30,03,24,092,37,06,19,076,29*75
$GPGSV,3,3,12,20,17,176,37,19,13,121,35,30,06,039,20,05,02,326,*79
$GPRMC,231335.000,A,3748.7982,N,12217.8597,W,0.10,132.53,270411,,,A*77
$GPVTG,132.53,T,,M,0.10,N,0.2,K,A*08
$GPGGA,231336.000,3748.7983,N,12217.8598,W,1,09,1.2,14.1,M,-25.1,M,,0000*5B
$GPGSA,A,3,23,03,13,06,07,08,20,10,19,,,,2.1,1.2,1.7*36
$GPRMC,231336.000,A,3748.7983,N,12217.8598,W,0.07,315.67,270411,,,A*7C
$GPVTG,315.67,T,,M,0.07,N,0.1,K,A*0D
$GPGGA,231337.000,3748.7984,N,12217.8598,W,1,09,1.2,13.9,M,-25.1,M,,0000*52
$GPGSA,A,3,23,03,13,06,07,08,20,10,19,,,,2.1,1.2,1.7*36
$GPRMC,231337.000,A,3748.7984,N,12217.8598,W,0.03,61.34,270411,,,A*48
$GPVTG,61.34,T,,M,0.03,N,0.1,K,A*3F
$GPGGA,231338.000,3748.7984,N,12217.8598,W,1,09,1.2,13.7,M,-25.1,M,,0000*53
$GPGSA,A,3,23,03,13,06,07,08,20,10,19,,,,2.1,1.2,1.7*36
$GPRMC,231338.000,A,3748.7984,N,12217.8598,W,0.14,134.23,270411,,,A*76
$GPVTG,134.23,T,,M,0.14,N,0.3,K,A*0C
$GPGGA,231339.000,3748.7985,N,12217.8599,W,1,09,1.2,13.4,M,-25.1,M,,0000*51
$GPGSA,A,3,23,03,13,06,07,08,20,10,19,,,,2.1,1.2,1.7*36
$GPRMC,231339.000,A,3748.7985,N,12217.8599,W,0.09,141.98,270411,,,A*79
$GPVTG,141.98,T,,M,0.09,N,0.2,K,A*03
$GPGGA,231340.000,3748.7986,N,12217.8599,W,1,09,1.2,13.1,M,-25.1,M,,0000*59
$GPGSA,A,3,23,03,13,06,07,08,20,10,19,,,,2.1,1.2,1.7*36
$GPGSV,3,1,12,13,75,019,28,07,53,285,23,23,52,107,36,10,40,294,17*7C
$GPGSV,3,2,12,16,27,044,29,08,27,263,29,03,24,092,37,06,19,076,35*70
$GPGSV,3,3,12,20,17,176,38,19,13,121,35,30,06,039,20,05,02,326,*76
$GPRMC,231340.000,A,3748.7986,N,12217.8599,W,0.06,131.15,270411,,,A*79
$GPVTG,131.15,T,,M,0.06,N,0.1,K,A*0D
$GPGGA,231341.000,3748.7987,N,12217.8600,W,1,09,1.2,12.8,M,-25.1,M,,0000*52
$GPGSA,A,3,23,03,13,06,07,08,20,10,19,,,,2.1,1.2,1.7*36
$GPRMC,231341.000,A,3748.7987,N,12217.8600,W,0.16,317.59,270411,,,A*75
$GPVTG,317.59,T,,M,0.16,N,0.3,K,A*00
$GPGGA,231342.000,3748.7989,N,12217.8601,W,1,09,1.2,12.5,M,-25.1,M,,0000*53
$GPGSA,A,3,23,03,13,06,07,08,20,10,19,,,,2.1,1.2,1.7*36
$GPRMC,231342.000,A,3748.7989,N,12217.8601,W,0.02,139.97,270411,,,A*70
$GPVTG,139.97,T,,M,0.02,N,0.0,K,A*0A
$GPGGA,231343.000,3748.7990,N,12217.8602,W,1,09,1.2,12.1,M,-25.1,M,,0000*5D
$GPGSA,A,3,23,03,13,06,07,08,20,10,19,,,,2.1,1.2,1.7*36
$GPRMC,231343.000,A,3748.7990,N,12217.8602,W,0.04,23.49,270411,,,A*45
$GPVTG,23.49,T,,M,0.04,N,0.1,K,A*34
$GPGGA,231344.000,3748.7990,N,12217.8601,W,1,09,1.2,11.6,M,-25.1,M,,0000*5D
$GPGSA,A,3,23,03,13,06,07,08,20,10,19,,,,2.1,1.2,1.7*36
$GPRMC,231344.000,A,3748.7990,N,12217.8601,W,0.13,137.46,270411,,,A*7C
$GPVTG,137.46,T,,M,0.13,N,0.2,K,A*0A
$GPGGA,231345.000,3748.7990,N,12217.8601,W,1,09,1.2,11.2,M,-25.1,M,,0000*58
$GPGSA,A,3,23,03,13,06,07,08,20,10,19,,,,2.1,1.2,1.7*36
$GPGSV,3,1,12,13,75,020,29,07,53,285,28,23,52,107,37,10,40,294,19*73
$GPGSV,3,2,12,16,27,044,29,08,27,263,28,03,24,091,37,06,19,076,35*72
$GPGSV,3,3,12,20,17,176,39,19,13,121,36,30,06,039,21,05,02,326,*75
$GPRMC,231345.000,A,3748.7990,N,12217.8601,W,0.12,126.04,270411,,,A*7A
$GPVTG,126.04,T,,M,0.12,N,0.2,K,A*0D
$GPGGA,231346.000,3748.7990,N,12217.8600,W,1,09,1.2,10.9,M,-25.1,M,,0000*50
$GPGSA,A,3,23,03,13,06,07,08,20,10,19,,,,2.1,1.2,1.7*36
$GPRMC,231346.000,A,3748.7990,N,12217.8600,W,0.01,159.01,270411,,,A*77
$GPVTG,159.01,T,,M,0.01,N,0.0,K,A*00
$GPGGA,231347.000,3748.7990,N,12217.8600,W,1,09,1.2,10.5,M,-25.1,M,,0000*5D
$GPGSA,A,3,23,03,13,06,07,08,20,10,19,,,,2.1,1.2,1.7*36
$GPRMC,231347.000,A,3748.7990,N,12217.8600,W,0.15,281.79,270411,,,A*7A
$GPVTG,281.79,T,,M,0.15,N,0.3,K,A*0F
$GPGGA,231348.000,3748.7992,N,12217.8602,W,1,09,1.2,10.2,M,-25.1,M,,0000*55
$GPGSA,A,3,23,03,13,06,07,08,20,10,19,,,,2.1,1.2,1.7*36
$GPRMC,231348.000,A,3748.7992,N,12217.8602,W,0.11,308.17,270411,,,A*79
$GPVTG,308.17,T,,M,0.11,N,0.2,K,A*02
$GPGGA,231349.000,3748.7992,N,12217.8603,W,1,09,1.2,10.1,M,-25.1,M,,0000*56
$GPGSA,A,3,23,03,13,06,07,08,20,10,19,,,,2.1,1.2,1.7*36
$GPRMC,231349.000,A,3748.7992,N,12217.8603,W,0.12,316.01,270411,,,A*72
$GPVTG,316.01,T,,M,0.12,N,0.2,K,A*09
$GPGGA,231350.000,3748.7993,N,12217.8604,W,1,09,1.2,10.0,M,-25.1,M,,0000*59
$GPGSA,A,3,23,03,13,06,07,08,20,10,19,,,,2.1,1.2,1.7*36
$GPGSV,3,1,12,13,75,020,30,07,53,285,32,23,52,107,36,10,40,294,29*72
$GPGSV,3,2,12,16,27,044,29,08,27,263,37,03,24,091,35,06,19,076,29*73
$GPRMC,231350.000,A,3748.7993,N,12217.8604,W,0.13,199.44,270411,,,A*79
$GPVTG,199.44,T,,M,0.13,N,0.2,K,A*0C
$GPGGA,231351.000,3748.7994,N,12217.8606,W,1,09,1.2,10.1,M,-25.1,M,,0000*5C
$GPGSA,A,3,23,03,13,06,07,08,20,10,19,,,,2.1,1.2,1.7*36
$GPRMC,231351.000,A,3748.7994,N,12217.8606,W,0.05,39.82,270411,,,A*4B
$GPVTG,39.82,T,,M,0.05,N,0.1,K,A*39
$GPGGA,231352.000,3748.7994,N,12217.8606,W,1,09,1.2,10.0,M,-25.1,M,,0000*5E
$GPGSA,A,3,23,03,13,06,07,08,20,10,19,,,,2.1,1.2,1.7*36
$GPRMC,231352.000,A,3748.7994,N,12217.8606,W,0.05,89.07,270411,,,A*4E
$GPVTG,89.07,T,,M,0.05,N,0.1,K,A*3F
$GPGGA,231353.000,3748.7994,N,12217.8607,W,1,09,1.2,9.9,M,-25.1,M,,0000*6F
$GPGSA,A,3,23,03,13,06,07,08,20,10,19,,,,2.1,1.2,1.7*36
$GPRMC,231353.000,A,3748.7994,N,12217.8607,W,0.03,156.69,270411,,,A*73
$GPVTG,156.69,T,,M,0.03,N,0.0,K,A*03
$GPGGA,231354.000,3748.7995,N,12217.8607,W,1,09,1.2,9.8,M,-25.1,M,,0000*68
$GPGSA,A,3,23,03,13,06,07,08,20,10,19,,,,2.1,1.2,1.7*36
$GPRMC,231354.000,A,3748.7995,N,12217.8607,W,0.02,140.19,270411,,,A*74
$GPVTG,140.19,T,,M,0.02,N,0.0,K,A*02
$GPGGA,231355.000,3748.7995,N,12217.8608,W,1,09,1.2,9.7,M,-25.1,M,,0000*69
$GPGSA,A,3,23,03,13,06,07,08,20,10,19,,,,2.1,1.2,1.7*36
$GPGSV,3,1,12,13,75,020,29,07,53,285,31,23,52,107,36,10,40,294,29*79
$GPGSV,3,2,12,16,27,044,29,08,27,263,37,03,24,091,33,06,19,076,28*74
$GPGSV,3,3,12,20,17,176,39,19,13,121,35,30,06,039,25,05,03,326,*73
$GPRMC,231355.000,A,3748.7995,N,12217.8608,W,0.02,147.47,270411,,,A*76
$GPVTG,147.47,T,,M,0.02,N,0.0,K,A*0E
$GPGGA,231356.000,3748.7995,N,12217.8608,W,1,09,1.2,9.6,M,-25.1,M,,0000*6B
$GPGSA,A,3,23,03,13,06,07,08,20,10,19,,,,2.1,1.2,1.7*36
$GPRMC,231356.000,A,3748.7995,N,12217.8608,W,0.02,185.40,270411,,,A*7C
$GPVTG,185.40,T,,M,0.02,N,0.0,K,A*07
$GPGGA,231357.000,3748.7995,N,12217.8609,W,1,09,1.2,9.5,M,-25.1,M,,0000*68
$GPGSA,A,3,23,03,13,06,07,08,20,10,19,,,,2.1,1.2,1.7*36
$GPRMC,231357.000,A,3748.7995,N,12217.8609,W,0.05,158.86,270411,,,A*71
$GPVTG,158.86,T,,M,0.05,N,0.1,K,A*0B
$GPGGA,231358.000,3748.7995,N,12217.8609,W,1,10,1.0,9.4,M,-25.1,M,,0000*6C
$GPGSA,A,3,23,03,16,13,06,07,08,20,10,19,,,1.9,1.0,1.6*39
$GPRMC,231358.000,A,3748.7995,N,12217.8609,W,0.02,61.78,270411,,,A*43
$GPVTG,61.78,T,,M,0.02,N,0.0,K,A*37
$GPGGA,231359.000,3748.7995,N,12217.8610,W,1,10,1.0,9.4,M,-25.1,M,,0000*65
$GPGSA,A,3,23,03,16,13,06,07,08,20,10,19,,,1.9,1.0,1.6*39
$GPRMC,231359.000,A,3748.7995,N,12217.8610,W,0.06,112.59,270411,,,A*78
$GPVTG,112.59,T,,M,0.06,N,0.1,K,A*04
$GPGGA,231400.000,3748.7996,N,12217.8610,W,1,10,1.0,9.3,M,-25.1,M,,0000*6A
$GPGSA,A,3,23,03,16,13,06,07,08,20,10,19,,,1.9,1.0,1.6*39
$GPGSV,3,1,12,13,75,020,28,07,53,285,31,23,52,107,36,10,40,294,28*79
$GPGSV,3,2,12,08,27,263,37,16,27,044,25,03,24,091,33,06,19,076,27*77
$GPGSV,3,3,12,20,17,176,39,19,13,121,35,30,06,039,24,05,03,326,*72
$GPRMC,231400.000,A,3748.7996,N,12217.8610,W,0.04,151.44,270411,,,A*79
$GPVTG,151.44,T,,M,0.04,N,0.1,K,A*0D
$GPGGA,231401.000,3748.7996,N,12217.8610,W,1,10,1.0,9.3,M,-25.1,M,,0000*6B
$GPGSA,A,3,23,03,16,13,06,07,08,20,10,19,,,1.9,1.0,1.6*39
$GPRMC,231401.000,A,3748.7996,N,12217.8610,W,0.06,67.52,270411,,,A*49
$GPVTG,67.52,T,,M,0.06,N,0.1,K,A*3C
$GPGGA,231402.000,3748.7996,N,12217.8611,W,1,10,1.0,9.3,M,-25.1,M,,0000*69
$GPGSA,A,3,23,03,16,13,06,07,08,20,10,19,,,1.9,1.0,1.6*39
$GPRMC,231402.000,A,3748.7996,N,12217.8611,W,0.03,115.97,270411,,,A*73
$GPVTG,115.97,T,,M,0.03,N,0.1,K,A*04
$GPGGA,231403.000,3748.7996,N,12217.8611,W,1,10,1.0,9.3,M,-25.1,M,,0000*68
$GPGSA,A,3,23,03,16,13,06,07,08,20,10,19,,,1.9,1.0,1.6*39
$GPRMC,231403.000,A,3748.7996,N,12217.8611,W,0.09,189.85,270411,,,A*7E
$GPVTG,189.85,T,,M,0.09,N,0.2,K,A*0B
$GPGGA,231404.000,3748.7996,N,12217.8612,W,1,10,1.0,9.2,M,-25.1,M,,0000*6D
$GPGSA,A,3,23,03,16,13,06,07,08,20,10,19,,,1.9,1.0,1.6*39
$GPRMC,231404.000,A,3748.7996,N,12217.8612,W,0.02,181.74,270411,,,A*77
$GPVTG,181.74,T,,M,0.02,N,0.0,K,A*04
$GPGGA,231405.000,3748.7997,N,12217.8612,W,1,10,1.0,9.1,M,-25.1,M,,0000*6E
$GPGSA,A,3,23,03,16,13,06,07,08,20,10,19,,,1.9,1.0,1.6*39
$GPGSV,3,1,12,13,75,020,28,07,53,285,31,23,52,107,35,10,40,294,29*7B
$GPGSV,3,2,12,08,27,263,37,16,27,044,24,03,24,091,32,06,19,076,27*77
$GPGSV,3,3,12,20,17,176,39,19,13,121,34,30,06,039,24,05,03,326,*73
$GPRMC,231405.000,A,3748.7997,N,12217.8612,W,0.08,42.37,270411,,,A*44
$GPVTG,42.37,T,,M,0.08,N,0.2,K,A*35
$GPGGA,231406.000,3748.7997,N,12217.8612,W,1,09,1.2,9.0,M,-25.1,M,,0000*66
$GPGSA,A,3,23,03,13,06,07,08,20,10,19,,,,2.1,1.2,1.7*36
$GPRMC,231406.000,A,3748.7997,N,12217.8612,W,0.09,35.96,270411,,,A*4D
$GPVTG,35.96,T,,M,0.09,N,0.2,K,A*3F
$GPGGA,231407.000,3748.7998,N,12217.8613,W,1,10,1.0,8.9,M,-25.1,M,,0000*6B
$GPGSA,A,3,23,03,16,13,06,07,08,20,10,19,,,1.9,1.0,1.6*39
$GPRMC,231407.000,A,3748.7998,N,12217.8613,W,0.07,48.63,270411,,,A*4C
$GPVTG,48.63,T,,M,0.07,N,0.1,K,A*32
$GPGGA,231408.000,3748.7998,N,12217.8613,W,1,10,1.0,8.9,M,-25.1,M,,0000*64
$GPGSA,A,3,23,03,16,13,06,07,08,20,10,19,,,1.9,1.0,1.6*39
$GPRMC,231408.000,A,3748.7998,N,12217.8613,W,0.13,210.51,270411,,,A*78
$GPVTG,210.51,T,,M,0.13,N,0.2,K,A*0A
$GPGGA,231409.000,3748.7998,N,12217.8614,W,1,10,1.0,8.9,M,-25.1,M,,0000*62
$GPGSA,A,3,23,03,16,13,06,07,08,20,10,19,,,1.9,1.0,1.6*39
$GPRMC,231409.000,A,3748.7998,N,12217.8614,W,0.01,115.84,270411,,,A*73
$GPVTG,115.84,T,,M,0.01,N,0.0,K,A*05
$GPGGA,231410.000,3748.7998,N,12217.8614,W,1,10,1.0,8.8,M,-25.1,M,,0000*6B
$GPGSA,A,3,23,03,16,13,06,07,08,20,10,19,,,1.9,1.0,1.6*39
$GPGSV,3,1,12,13,75,020,28,07,53,285,31,23,52,107,34,10,40,294,29*7A
$GPGSV,3,2,12,08,27,263,36,16,27,044,24,03,24,091,32,06,19,076,26*77
$GPRMC,231410.000,A,3748.7998,N,12217.8614,W,0.13,41.56,270411,,,A*47
$GPVTG,41.56,T,,M,0.13,N,0.2,K,A*3B
$GPGGA,231411.000,3748.7998,N,12217.8614,W,1,10,1.0,8.8,M,-25.1,M,,0000*6A
$GPGSA,A,3,23,03,16,13,06,07,08,20,10,19,,,1.9,1.0,1.6*39
$GPRMC,231411.000,A,3748.7998,N,12217.8614,W,0.03,353.40,270411,,,A*70
$GPVTG,353.40,T,,M,0.03,N,0.1,K,A*0E
$GPGGA,231412.000,3748.7998,N,12217.8614,W,1,10,1.0,8.8,M,-25.1,M,,0000*69
$GPGSA,A,3,23,03,16,13,06,07,08,20,10,19,,,1.9,1.0,1.6*39
$GPRMC,231412.000,A,3748.7998,N,12217.8614,W,0.08,14.06,270411,,,A*4A
$GPVTG,14.06,T,,M,0.08,N,0.1,K,A*37
$GPGGA,231413.000,3748.7999,N,12217.8615,W,1,10,1.0,8.8,M,-25.1,M,,0000*68
$GPGSA,A,3,23,03,16,13,06,07,08,20,10,19,,,1.9,1.0,1.6*39
$GPRMC,231413.000,A,3748.7999,N,12217.8615,W,0.07,351.16,270411,,,A*77
$GPVTG,351.16,T,,M,0.07,N,0.1,K,A*0B
$GPGGA,231414.000,3748.7997,N,12217.8615,W,1,10,1.0,9.3,M,-25.1,M,,0000*6B
$GPGSA,A,3,23,03,16,13,06,07,08,20,10,19,,,1.9,1.0,1.6*39
$GPRMC,231414.000,A,3748.7997,N,12217.8615,W,0.17,311.49,270411,,,A*71
$GPVTG,311.49,T,,M,0.17,N,0.3,K,A*06
$GPGGA,231415.000,3748.7995,N,12217.8614,W,1,10,1.0,9.9,M,-25.1,M,,0000*63
$GPGSA,A,3,23,03,16,13,06,07,08,20,10,19,,,1.9,1.0,1.6*39
$GPGSV,3,1,12,13,75,020,28,07,53,285,32,23,52,108,34,10,40,294,35*7B
$GPGSV,3,2,12,08,27,263,37,16,27,044,25,03,25,091,22,06,19,076,27*76
$GPGSV,3,3,12,20,17,176,38,19,13,121,32,30,06,039,33,05,03,326,*72
$GPRMC,231415.000,A,3748.7995,N,12217.8614,W,0.19,155.05,270411,,,A*77
$GPVTG,155.05,T,,M,0.19,N,0.4,K,A*05
$GPGGA,231416.000,3748.7992,N,12217.8614,W,1,10,1.0,10.4,M,-25.1,M,,0000*52
$GPGSA,A,3,23,03,16,13,06,07,08,20,10,19,,,1.9,1.0,1.6*39
$GPRMC,231416.000,A,3748.7992,N,12217.8614,W,0.03,171.17,270411,,,A*7D
$GPVTG,171.17,T,,M,0.03,N,0.1,K,A*0E
$GPGGA,231417.000,3748.7991,N,12217.8614,W,1,09,1.0,10.8,M,-25.1,M,,0000*54
$GPGSA,A,3,23,03,16,06,07,08,20,10,19,,,,2.3,1.0,2.1*36
$GPRMC,231417.000,A,3748.7991,N,12217.8614,W,0.09,148.43,270411,,,A*7E
$GPVTG,148.43,T,,M,0.09,N,0.2,K,A*0C
$GPGGA,231418.000,3748.7989,N,12217.8614,W,1,10,1.0,11.4,M,-25.1,M,,0000*57
$GPGSA,A,3,23,03,16,13,06,07,08,20,10,19,,,1.9,1.0,1.6*39
$GPRMC,231418.000,A,3748.7989,N,12217.8614,W,0.05,104.26,270411,,,A*7F
$GPVTG,104.26,T,,M,0.05,N,0.1,K,A*08
$GPGGA,231419.000,3748.7987,N,12217.8614,W,1,10,1.0,12.0,M,-25.1,M,,0000*5F
$GPGSA,A,3,23,03,16,13,06,07,08,20,10,19,,,1.9,1.0,1.6*39
$GPRMC,231419.000,A,3748.7987,N,12217.8614,W,0.07,140.71,270411,,,A*70
$GPVTG,140.71,T,,M,0.07,N,0.1,K,A*08
$GPGGA,231420.000,3748.7986,N,12217.8615,W,1,10,1.0,12.5,M,-25.1,M,,0000*50
$GPGSA,A,3,23,03,16,13,06,07,08,20,10,19,,,1.9,1.0,1.6*39
$GPGSV,3,1,12,13,75,021,25,07,53,285,31,23,52,108,34,10,40,294,34*75
$GPGSV,3,2,12,08,27,263,37,16,27,044,18,03,25,091,27,06,19,076,29*73
$GPGSV,3,3,12,20,17,176,38,19,13,121,31,30,05,039,32,05,03,326,*73
$GPRMC,231420.000,A,3748.7986,N,12217.8615,W,0.07,84.52,270411,,,A*42
$GPVTG,84.52,T,,M,0.07,N,0.1,K,A*30
$GPGGA,231421.000,3748.7985,N,12217.8615,W,1,10,1.0,13.0,M,-25.1,M,,0000*56
$GPGSA,A,3,23,03,16,13,06,07,08,20,10,19,,,1.9,1.0,1.6*39
$GPRMC,231421.000,A,3748.7985,N,12217.8615,W,0.12,142.35,270411,,,A*7E
$GPVTG,142.35,T,,M,0.12,N,0.2,K,A*0D
$GPGGA,231422.000,3748.7981,N,12217.8616,W,1,10,1.0,14.1,M,-25.1,M,,0000*54
$GPGSA,A,3,23,03,16,13,06,07,08,20,10,19,,,1.9,1.0,1.6*39
$GPRMC,231422.000,A,3748.7981,N,12217.8616,W,0.09,144.97,270411,,,A*7E
$GPVTG,144.97,T,,M,0.09,N,0.2,K,A*09
$GPGGA,231423.000,3748.7978,N,12217.8618,W,1,10,1.0,15.2,M,-25.1,M,,0000*5F
$GPGSA,A,3,23,03,16,13,06,07,08,20,10,19,,,1.9,1.0,1.6*39
$GPRMC,231423.000,A,3748.7978,N,12217.8618,W,0.18,139.14,270411,,,A*76
$GPVTG,139.14,T,,M,0.18,N,0.3,K,A*09
$GPGGA,231424.000,3748.7975,N,12217.8619,W,1,10,1.0,16.3,M,-25.1,M,,0000*56
$GPGSA,A,3,23,03,16,13,06,07,08,20,10,19,,,1.9,1.0,1.6*39
$GPRMC,231424.000,A,3748.7975,N,12217.8619,W,0.46,114.76,270411,,,A*7D
$GPVTG,114.76,T,,M,0.46,N,0.9,K,A*03
$GPGGA,231425.000,3748.7974,N,12217.8620,W,1,10,1.0,15.8,M,-25.1,M,,0000*54
$GPGSA,A,3,23,03,16,13,06,07,08,20,10,19,,,1.9,1.0,1.6*39
$GPGSV,3,1,12,13,75,021,31,07,53,285,34,23,52,108,34,10,40,294,30*71
$GPGSV,3,2,12,08,27,263,37,16,27,044,29,03,25,091,27,06,19,076,29*71
$GPGSV,3,3,12,20,17,176,38,19,13,121,28,30,05,039,32,05,03,326,*7B
$GPRMC,231425.000,A,3748.7974,N,12217.8620,W,0.24,259.72,270411,,,A*7D
$GPVTG,259.72,T,,M,0.24,N,0.4,K,A*04
$GPGGA,231426.000,3748.7973,N,12217.8622,W,1,10,1.0,15.4,M,-25.1,M,,0000*5E
$GPGSA,A,3,23,03,16,13,06,07,08,20,10,19,,,1.9,1.0,1.6*39
$GPRMC,231426.000,A,3748.7973,N,12217.8622,W,0.18,291.28,270411,,,A*7F
$GPVTG,291.28,T,,M,0.18,N,0.3,K,A*07
$GPGGA,231427.000,3748.7973,N,12217.8623,W,1,10,1.0,15.1,M,-25.1,M,,0000*5B
$GPGSA,A,3,23,03,16,13,06,07,08,20,10,19,,,1.9,1.0,1.6*39
$GPRMC,231427.000,A,3748.7973,N,12217.8623,W,0.11,86.11,270411,,,A*48
$GPVTG,86.11,T,,M,0.11,N,0.2,K,A*31
$GPGGA,231428.000,3748.7972,N,12217.8623,W,1,10,1.0,14.8,M,-25.1,M,,0000*5D
$GPGSA,A,3,23,03,16,13,06,07,08,20,10,19,,,1.9,1.0,1.6*39
$GPRMC,231428.000,A,3748.7972,N,12217.8623,W,0.12,96.06,270411,,,A*42
$GPVTG,96.06,T,,M,0.12,N,0.2,K,A*35
$GPGGA,231429.000,3748.7971,N,12217.8624,W,1,10,1.0,14.5,M,-25.1,M,,0000*55
$GPGSA,A,3,23,03,16,13,06,07,08,20,10,19,,,1.9,1.0,1.6*39
$GPRMC,231429.000,A,3748.7971,N,12217.8624,W,0.04,108.83,270411,,,A*7B
$GPVTG,108.83,T,,M,0.04,N,0.1,K,A*0A
$GPGGA,231430.000,3748.7970,N,12217.8624,W,1,10,1.0,15.1,M,-25.1,M,,0000*59
$GPGSA,A,3,23,03,16,13,06,07,08,20,10,19,,,1.9,1.0,1.6*39
$GPGSV,3,1,12,13,75,021,28,07,53,285,33,23,52,108,34,10,40,294,33*7D
$GPGSV,3,2,12,08,27,263,37,16,27,044,28,03,25,091,24,06,19,076,25*7F
$GPGSV,3,3,12,20,17,176,38,19,13,121,28,30,05,039,33,05,03,326,*7A
$GPRMC,231430.000,A,3748.7970,N,12217.8624,W,0.01,232.37,270411,,,A*72
$GPVTG,232.37,T,,M,0.01,N,0.0,K,A*0B
$GPGGA,231431.000,3748.7969,N,12217.8625,W,1,10,1.0,14.7,M,-25.1,M,,0000*56
$GPGSA,A,3,23,03,16,13,06,07,08,20,10,19,,,1.9,1.0,1.6*39
$GPRMC,231431.000,A,3748.7969,N,12217.8625,W,0.03,25.35,270411,,,A*4E
$GPVTG,25.35,T,,M,0.03,N,0.1,K,A*3E
$GPGGA,231432.000,3748.7967,N,12217.8626,W,1,10,1.0,15.5,M,-25.1,M,,0000*5B
$GPGSA,A,3,23,03,16,13,06,07,08,20,10,19,,,1.9,1.0,1.6*39
$GPRMC,231432.000,A,3748.7967,N,12217.8626,W,0.12,223.29,270411,,,A*79
$GPVTG,223.29,T,,M,0.12,N,0.2,K,A*04
$GPGGA,231433.000,3748.7966,N,12217.8627,W,1,09,1.0,15.8,M,-25.1,M,,0000*5F
$GPGSA,A,3,23,16,13,06,07,08,20,10,19,,,,1.9,1.0,1.6*3A
$GPRMC,231433.000,A,3748.7966,N,12217.8627,W,0.12,204.54,270411,,,A*77
$GPVTG,204.54,T,,M,0.12,N,0.2,K,A*0B
$GPGGA,231434.000,3748.7965,N,12217.8627,W,1,09,1.0,16.2,M,-25.1,M,,0000*52
$GPGSA,A,3,23,16,13,06,07,08,20,10,19,,,,1.9,1.0,1.6*3A
$GPRMC,231434.000,A,3748.7965,N,12217.8627,W,0.14,203.45,270411,,,A*72
$GPVTG,203.45,T,,M,0.14,N,0.3,K,A*0B
$GPGGA,231435.000,3748.7965,N,12217.8627,W,1,09,1.0,16.6,M,-25.1,M,,0000*57
$GPGSA,A,3,23,16,13,06,07,08,20,10,19,,,,1.9,1.0,1.6*3A
$GPGSV,3,1,12,13,75,021,28,07,53,285,33,23,52,108,34,10,40,294,34*7A
$GPGSV,3,2,12,08,27,263,37,16,27,044,28,03,25,091,,06,19,076,24*78
$GPGSV,3,3,12,20,17,176,38,19,13,121,29,30,05,039,33,05,03,326,*7B
$GPVTG,208.10,T,,M,0.13,N,0.2,K,A*06
$GPGGA,231436.000,3748.7964,N,12217.8628,W,1,09,1.0,16.9,M,-25.1,M,,0000*55
$GPGSA,A,3,23,16,13,06,07,08,20,10,19,,,,1.9,1.0,1.6*3A
$GPRMC,231436.000,A,3748.7964,N,12217.8628,W,0.08,156.19,270411,,,A*79
$GPVTG,156.19,T,,M,0.08,N,0.2,K,A*0D
$GPGGA,231437.000,3748.7964,N,12217.8628,W,1,09,1.0,17.2,M,-25.1,M,,0000*5E
$GPGSA,A,3,23,16,13,06,07,08,20,10,19,,,,1.9,1.0,1.6*3A
$GPRMC,231437.000,A,3748.7964,N,12217.8628,W,0.11,178.34,270411,,,A*73
$GPVTG,178.34,T,,M,0.11,N,0.2,K,A*06
$GPGGA,231438.000,3748.7964,N,12217.8628,W,1,09,1.0,17.5,M,-25.1,M,,0000*56
$GPGSA,A,3,23,16,13,06,07,08,20,10,19,,,,1.9,1.0,1.6*3A
$GPRMC,231438.000,A,3748.7964,N,12217.8628,W,0.22,289.65,270411,,,A*75
$GPVTG,289.65,T,,M,0.22,N,0.4,K,A*09
$GPGGA,231439.000,3748.7964,N,12217.8630,W,1,10,1.0,16.4,M,-25.1,M,,0000*56
$GPGSA,A,3,23,03,16,13,06,07,08,20,10,19,,,1.9,1.0,1.6*39
$GPRMC,231439.000,A,3748.7964,N,12217.8630,W,0.82,187.81,270411,,,A*70
$GPVTG,187.81,T,,M,0.82,N,1.5,K,A*04
$GPGGA,231440.000,3748.7961,N,12217.8632,W,1,10,1.0,15.9,M,-25.1,M,,0000*51
$GPGSA,A,3,23,03,16,13,06,07,08,20,10,19,,,1.9,1.0,1.6*39
$GPGSV,3,1,12,13,75,021,26,07,53,285,41,23,52,108,30,10,40,294,40*76
$GPGSV,3,2,12,08,27,263,38,16,27,044,21,03,25,091,21,06,19,076,19*73
$GPGSV,3,3,12,20,17,176,34,19,13,121,25,30,05,039,33,05,03,326,*7B
$GPRMC,231440.000,A,3748.7961,N,12217.8632,W,1.10,205.04,270411,,,A*77
$GPVTG,205.04,T,,M,1.10,N,2.0,K,A*0C
$GPGGA,231441.000,3748.7959,N,12217.8636,W,1,10,1.0,14.9,M,-25.1,M,,0000*5E
$GPGSA,A,3,23,03,16,13,06,07,08,20,10,19,,,1.9,1.0,1.6*39
$GPRMC,231441.000,A,3748.7959,N,12217.8636,W,0.92,194.07,270411,,,A*7A
$GPVTG,194.07,T,,M,0.92,N,1.7,K,A*0B
$GPGGA,231442.000,3748.7957,N,12217.8640,W,1,10,1.0,13.4,M,-25.1,M,,0000*58
$GPGSA,A,3,23,03,16,13,06,07,08,20,10,19,,,1.9,1.0,1.6*39
$GPRMC,231442.000,A,3748.7957,N,12217.8640,W,1.04,205.14,270411,,,A*71
$GPVTG,205.14,T,,M,1.04,N,1.9,K,A*02
$GPGGA,231443.000,3748.7955,N,12217.8642,W,1,10,1.0,12.8,M,-25.1,M,,0000*54
$GPGSA,A,3,23,03,16,13,06,07,08,20,10,19,,,1.9,1.0,1.6*39
$GPRMC,231443.000,A,3748.7955,N,12217.8642,W,0.83,216.87,270411,,,A*76
$GPVTG,216.87,T,,M,0.83,N,1.5,K,A*08
$GPGGA,231444.000,3748.7952,N,12217.8644,W,1,10,1.0,13.1,M,-25.1,M,,0000*5A
$GPGSA,A,3,23,03,16,13,06,07,08,20,10,19,,,1.9,1.0,1.6*39
$GPRMC,231444.000,A,3748.7952,N,12217.8644,W,1.30,197.17,270411,,,A*7A
$GPVTG,197.17,T,,M,1.30,N,2.4,K,A*00
$GPGGA,231445.000,3748.7948,N,12217.8645,W,1,10,1.0,13.4,M,-25.1,M,,0000*54
$GPGSA,A,3,23,03,16,13,06,07,08,20,10,19,,,1.9,1.0,1.6*39
$GPGSV,3,1,12,13,75,021,26,07,53,285,40,23,51,108,28,10,40,294,39*73
$GPGSV,3,2,12,08,27,263,39,16,27,044,22,03,25,091,23,06,19,076,21*78
$GPGSV,3,3,12,20,17,176,35,19,13,120,27,30,05,039,33,05,03,326,*79
$GPRMC,231445.000,A,3748.7948,N,12217.8645,W,1.10,185.41,270411,,,A*73
$GPVTG,185.41,T,,M,1.10,N,2.0,K,A*06
$GPGGA,231446.000,3748.7945,N,12217.8646,W,1,10,1.0,13.7,M,-25.1,M,,0000*5A
$GPGSA,A,3,23,03,16,13,06,07,08,20,10,19,,,1.9,1.0,1.6*39
$GPRMC,231446.000,A,3748.7945,N,12217.8646,W,0.97,188.94,270411,,,A*75
$GPVTG,188.94,T,,M,0.97,N,1.8,K,A*06
$GPGGA,231447.000,3748.7942,N,12217.8647,W,1,10,1.0,13.9,M,-25.1,M,,0000*53
$GPGSA,A,3,23,03,16,13,06,07,08,20,10,19,,,1.9,1.0,1.6*39
$GPRMC,231447.000,A,3748.7942,N,12217.8647,W,1.10,191.45,270411,,,A*78
$GPVTG,191.45,T,,M,1.10,N,2.0,K,A*07
$GPGGA,231448.000,3748.7931,N,12217.8648,W,1,10,1.0,16.1,M,-25.1,M,,0000*5A
$GPGSA,A,3,23,03,16,13,06,07,08,20,10,19,,,1.9,1.0,1.6*39
$GPRMC,231448.000,A,3748.7931,N,12217.8648,W,1.58,177.83,270411,,,A*72
$GPVTG,177.83,T,,M,1.58,N,2.9,K,A*00
$GPGGA,231449.000,3748.7925,N,12217.8648,W,1,10,1.0,16.6,M,-25.1,M,,0000*59
$GPGSA,A,3,23,03,16,13,06,07,08,20,10,19,,,1.9,1.0,1.6*39
$GPRMC,231449.000,A,3748.7925,N,12217.8648,W,2.25,167.21,270411,,,A*76
$GPVTG,167.21,T,,M,2.25,N,4.2,K,A*0D
$GPGGA,231450.000,3748.7913,N,12217.8649,W,1,10,1.0,18.4,M,-25.1,M,,0000*59
$GPGSA,A,3,23,03,16,13,06,07,08,20,10,19,,,1.9,1.0,1.6*39
$GPGSV,3,1,12,13,75,021,26,07,53,285,39,23,51,108,30,10,40,294,39*74
$GPGSV,3,2,12,08,27,263,39,16,27,044,29,03,25,091,24,06,19,076,26*73
$GPGSV,3,3,12,20,17,176,30,19,13,120,28,30,05,039,33,05,03,326,*73
$GPRMC,231450.000,A,3748.7913,N,12217.8649,W,2.29,167.47,270411,,,A*76
$GPVTG,167.47,T,,M,2.29,N,4.2,K,A*01
$GPGGA,231451.000,3748.7904,N,12217.8650,W,1,10,1.0,19.6,M,-25.1,M,,0000*55
$GPGSA,A,3,23,03,16,13,06,07,08,20,10,19,,,1.9,1.0,1.6*39
$GPRMC,231451.000,A,3748.7904,N,12217.8650,W,2.10,174.06,270411,,,A*74
$GPVTG,174.06,T,,M,2.10,N,3.9,K,A*00
$GPGGA,231452.000,3748.7902,N,12217.8650,W,1,10,1.0,19.5,M,-25.1,M,,0000*53
$GPGSA,A,3,23,03,16,13,06,07,08,20,10,19,,,1.9,1.0,1.6*39
$GPRMC,231452.000,A,3748.7902,N,12217.8650,W,1.61,151.94,270411,,,A*78
$GPVTG,151.94,T,,M,1.61,N,3.0,K,A*00
$GPGGA,231453.000,3748.7899,N,12217.8648,W,1,10,1.0,18.8,M,-25.1,M,,0000*54
$GPGSA,A,3,23,03,16,13,06,07,08,20,10,19,,,1.9,1.0,1.6*39
$GPRMC,231453.000,A,3748.7899,N,12217.8648,W,1.26,144.36,270411,,,A*7C
$GPVTG,144.36,T,,M,1.26,N,2.3,K,A*0D
$GPGGA,231454.000,3748.7896,N,12217.8646,W,1,10,1.0,17.8,M,-25.1,M,,0000*5D
$GPGSA,A,3,23,03,16,13,06,07,08,20,10,19,,,1.9,1.0,1.6*39
$GPRMC,231454.000,A,3748.7896,N,12217.8646,W,1.43,141.78,270411,,,A*76
$GPVTG,141.78,T,,M,1.43,N,2.7,K,A*05
$GPGGA,231455.000,3748.7892,N,12217.8643,W,1,10,1.0,17.3,M,-25.1,M,,0000*56
$GPGSA,A,3,23,03,16,13,06,07,08,20,10,19,,,1.9,1.0,1.6*39
$GPGSV,3,1,12,13,75,021,27,07,53,285,39,23,51,108,30,10,40,294,39*75
$GPGSV,3,2,12,08,27,263,39,16,27,044,30,03,25,091,31,06,19,076,33*7B
$GPGSV,3,3,12,20,17,176,20,19,13,120,28,30,05,039,36,05,03,326,*77
$GPVTG,122.10,T,,M,1.33,N,2.5,K,A*0B
$GPGGA,231456.000,3748.7891,N,12217.8638,W,1,10,1.0,16.5,M,-25.1,M,,0000*5D
$GPGSA,A,3,23,03,16,13,06,07,08,20,10,19,,,1.9,1.0,1.6*39
$GPRMC,231456.000,A,3748.7891,N,12217.8638,W,1.36,79.76,270411,,,A*4C
$GPVTG,79.76,T,,M,1.36,N,2.5,K,A*31
$GPGGA,231457.000,3748.7894,N,12217.8633,W,1,09,1.1,15.4,M,-25.1,M,,0000*59
$GPGSA,A,3,23,03,16,13,06,07,20,10,19,,,,2.1,1.1,1.8*35
$GPRMC,231457.000,A,3748.7894,N,12217.8633,W,1.46,90.19,270411,,,A*4A
$GPVTG,90.19,T,,M,1.46,N,2.7,K,A*3A
$GPGGA,231458.000,3748.7892,N,12217.8627,W,1,09,1.1,15.0,M,-25.1,M,,0000*51
$GPGSA,A,3,23,03,16,13,06,07,20,10,19,,,,2.1,1.1,1.8*35
$GPRMC,231458.000,A,3748.7892,N,12217.8627,W,2.03,113.77,270411,,,A*76
$GPVTG,113.77,T,,M,2.03,N,3.8,K,A*04
$GPGGA,231459.000,3748.7890,N,12217.8619,W,1,09,1.1,14.8,M,-25.1,M,,0000*56
$GPGSA,A,3,23,03,16,13,06,07,20,10,19,,,,2.1,1.1,1.8*35
$GPRMC,231459.000,A,3748.7890,N,12217.8619,W,2.23,103.44,270411,,,A*7B
$GPVTG,103.44,T,,M,2.23,N,4.1,K,A*09
$GPGGA,231500.000,3748.7886,N,12217.8610,W,1,09,1.1,14.6,M,-25.1,M,,0000*5B
$GPGSA,A,3,23,03,16,13,06,07,20,10,19,,,,2.1,1.1,1.8*35
$GPGSV,3,1,12,13,75,021,27,07,53,285,30,23,51,108,35,10,40,294,31*71
$GPGSV,3,2,12,08,27,263,,16,27,044,32,03,25,091,36,06,19,076,33*74
$GPGSV,3,3,12,20,17,176,21,19,13,120,36,30,05,039,31,05,03,326,*7E
$GPRMC,231500.000,A,3748.7886,N,12217.8610,W,2.43,121.84,270411,,,A*72
$GPVTG,121.84,T,,M,2.43,N,4.5,K,A*07
$GPGGA,231501.000,3748.7882,N,12217.8601,W,1,09,1.1,14.4,M,-25.1,M,,0000*5C
$GPGSA,A,3,23,03,16,13,06,07,20,10,19,,,,2.1,1.1,1.8*35
$GPRMC,231501.000,A,3748.7882,N,12217.8601,W,2.43,127.34,270411,,,A*7A
$GPVTG,127.34,T,,M,2.43,N,4.5,K,A*0A
$GPGGA,231502.000,3748.7877,N,12217.8594,W,1,09,1.1,14.2,M,-25.1,M,,0000*5C
$GPGSA,A,3,23,03,16,13,06,07,20,10,19,,,,2.1,1.1,1.8*35
$GPRMC,231502.000,A,3748.7877,N,12217.8594,W,2.45,129.19,270411,,,A*7B
$GPVTG,129.19,T,,M,2.45,N,4.5,K,A*0D
$GPGGA,231503.000,3748.7870,N,12217.8588,W,1,09,1.1,14.1,M,-25.1,M,,0000*54
$GPGSA,A,3,23,03,16,13,06,07,20,10,19,,,,2.1,1.1,1.8*35
$GPRMC,231503.000,A,3748.7870,N,12217.8588,W,3.08,147.63,270411,,,A*7D
$GPVTG,147.63,T,,M,3.08,N,5.7,K,A*03
$GPGGA,231504.000,3748.7865,N,12217.8581,W,1,10,1.0,13.7,M,-25.1,M,,0000*56
$GPGSA,A,3,23,03,16,13,06,07,20,10,08,19,,,1.9,1.0,1.6*39
$GPRMC,231504.000,A,3748.7865,N,12217.8581,W,2.51,127.52,270411,,,A*7E
$GPVTG,127.52,T,,M,2.51,N,4.6,K,A*0A
$GPGGA,231505.000,3748.7860,N,12217.8574,W,1,10,1.0,13.3,M,-25.1,M,,0000*5C
$GPGSA,A,3,23,03,16,13,06,07,20,10,08,19,,,1.9,1.0,1.6*39
$GPGSV,3,1,12,13,75,021,28,07,53,285,30,23,51,108,36,10,40,294,30*7C
$GPGSV,3,2,12,08,27,263,21,16,27,044,26,03,25,091,34,06,19,076,31*72
$GPGSV,3,3,12,20,17,176,34,19,13,120,33,30,05,039,27,05,03,326,*78
$GPRMC,231505.000,A,3748.7860,N,12217.8574,W,2.51,127.47,270411,,,A*74
$GPVTG,127.47,T,,M,2.51,N,4.7,K,A*0F
$GPGGA,231506.000,3748.7857,N,12217.8567,W,1,10,1.0,12.2,M,-25.1,M,,0000*59
$GPGSA,A,3,23,03,16,13,06,07,20,10,08,19,,,1.9,1.0,1.6*39
$GPRMC,231506.000,A,3748.7857,N,12217.8567,W,2.19,116.07,270411,,,A*7B
$GPVTG,116.07,T,,M,2.19,N,4.1,K,A*03
$GPGGA,231507.000,3748.7853,N,12217.8560,W,1,10,1.0,11.2,M,-25.1,M,,0000*58
$GPGSA,A,3,23,03,16,13,06,07,20,10,08,19,,,1.9,1.0,1.6*39
$GPRMC,231507.000,A,3748.7853,N,12217.8560,W,2.65,113.73,270411,,,A*74
$GPVTG,113.73,T,,M,2.65,N,4.9,K,A*06
$GPGGA,231508.000,3748.7850,N,12217.8554,W,1,10,1.0,10.0,M,-25.1,M,,0000*50
$GPGSA,A,3,23,03,16,13,06,07,20,10,08,19,,,1.9,1.0,1.6*39
$GPRMC,231508.000,A,3748.7850,N,12217.8554,W,2.25,117.74,270411,,,A*78
$GPVTG,117.74,T,,M,2.25,N,4.2,K,A*0A
$GPGGA,231509.000,3748.7846,N,12217.8547,W,1,10,1.0,9.2,M,-25.1,M,,0000*6E
$GPGSA,A,3,23,03,16,13,06,07,20,10,08,19,,,1.9,1.0,1.6*39
$GPRMC,231509.000,A,3748.7846,N,12217.8547,W,2.35,117.02,270411,,,A*7C
$GPVTG,117.02,T,,M,2.35,N,4.4,K,A*0C
$GPGGA,231510.000,3748.7843,N,12217.8540,W,1,10,1.0,8.6,M,-25.1,M,,0000*61
$GPGSA,A,3,23,03,16,13,06,07,20,10,08,19,,,1.9,1.0,1.6*39
$GPGSV,3,1,12,13,75,021,29,07,53,285,24,23,51,108,36,10,40,294,23*7A
$GPGSV,3,2,12,08,27,263,33,16,27,044,26,03,25,091,34,06,19,076,33*73
$GPGSV,3,3,12,20,17,176,25,19,13,120,41,30,05,039,24,05,03,326,*7E
$GPRMC,231510.000,A,3748.7843,N,12217.8540,W,2.48,118.03,270411,,,A*72
$GPVTG,118.03,T,,M,2.48,N,4.6,K,A*0A
$GPGGA,231511.000,3748.7839,N,12217.8532,W,1,10,1.0,8.1,M,-25.1,M,,0000*6F
$GPGSA,A,3,23,03,16,13,06,07,20,10,08,19,,,1.9,1.0,1.6*39
$GPRMC,231511.000,A,3748.7839,N,12217.8532,W,2.25,124.36,270411,,,A*79
$GPVTG,124.36,T,,M,2.25,N,4.2,K,A*0C
$GPGGA,231512.000,3748.7836,N,12217.8525,W,1,10,1.0,7.7,M,-25.1,M,,0000*6C
$GPGSA,A,3,23,03,16,13,06,07,20,10,08,19,,,1.9,1.0,1.6*39
$GPRMC,231512.000,A,3748.7836,N,12217.8525,W,2.18,117.98,270411,,,A*79
$GPVTG,117.98,T,,M,2.18,N,4.0,K,A*04
$GPGGA,231513.000,3748.7833,N,12217.8518,W,1,10,1.0,7.2,M,-25.1,M,,0000*63
$GPGSA,A,3,23,03,16,13,06,07,20,10,08,19,,,1.9,1.0,1.6*39
$GPRMC,231513.000,A,3748.7833,N,12217.8518,W,2.51,108.41,270411,,,A*74
$GPVTG,108.41,T,,M,2.51,N,4.6,K,A*05
$GPGGA,231514.000,3748.7830,N,12217.8510,W,1,10,1.0,6.8,M,-25.1,M,,0000*64
$GPGSA,A,3,23,03,16,13,06,07,20,10,08,19,,,1.9,1.0,1.6*39
$GPRMC,231514.000,A,3748.7830,N,12217.8510,W,2.29,116.47,270411,,,A*7E
$GPVTG,116.47,T,,M,2.29,N,4.2,K,A*07
$GPGGA,231515.000,3748.7827,N,12217.8502,W,1,10,1.0,6.7,M,-25.1,M,,0000*6F
$GPGSA,A,3,23,03,16,13,06,07,20,10,08,19,,,1.9,1.0,1.6*39
$GPGSV,3,1,12,13,75,021,29,07,53,285,25,23,51,108,36,10,40,294,29*71
$GPGSV,3,2,12,08,27,263,33,16,27,044,27,03,25,091,31,06,19,076,33*77
$GPGSV,3,3,12,20,17,176,25,19,13,120,40,30,05,039,28,05,03,326,*73
$GPVTG,113.31,T,,M,2.25,N,4.2,K,A*0F
$GPGGA,231516.000,3748.7825,N,12217.8494,W,2,10,1.0,6.5,M,-25.1,M,1.8,0000*46
$GPGSA,A,3,23,03,16,13,06,07,20,10,08,19,,,1.9,1.0,1.6*39
$GPRMC,231516.000,A,3748.7825,N,12217.8494,W,2.44,114.83,270411,,,D*71
$GPVTG,114.83,T,,M,2.44,N,4.5,K,D*04
$GPGGA,231517.000,3748.7822,N,12217.8486,W,2,10,1.0,6.8,M,-25.1,M,1.8,0000*4E
$GPGSA,A,3,23,03,16,13,06,07,20,10,08,19,,,1.9,1.0,1.6*39
$GPRMC,231517.000,A,3748.7822,N,12217.8486,W,2.13,127.73,270411,,,D*79
$GPVTG,127.73,T,,M,2.13,N,4.0,K,D*0C
$GPGGA,231518.000,3748.7818,N,12217.8479,W,2,10,1.0,7.2,M,-25.1,M,1.8,0000*43
$GPGSA,A,3,23,03,16,13,06,07,20,10,08,19,,,1.9,1.0,1.6*39
$GPRMC,231518.000,A,3748.7818,N,12217.8479,W,1.75,153.07,270411,,,D*7C
$GPVTG,153.07,T,,M,1.75,N,3.2,K,D*0A
$GPGGA,231519.000,3748.7814,N,12217.8473,W,2,10,1.0,7.3,M,-25.1,M,2.8,0000*46
$GPGSA,A,3,23,03,16,13,06,07,20,10,08,19,,,1.9,1.0,1.6*39
$GPRMC,231519.000,A,3748.7814,N,12217.8473,W,1.97,141.22,270411,,,D*73
$GPVTG,141.22,T,,M,1.97,N,3.6,K,D*06
$GPGGA,231520.000,3748.7810,N,12217.8465,W,2,10,1.0,7.5,M,-25.1,M,3.8,0000*48
$GPGSA,A,3,23,03,16,13,06,07,20,10,08,19,,,1.9,1.0,1.6*39
$GPGSV,3,1,12,13,75,022,29,07,53,286,26,23,51,108,36,10,40,293,28*74
$GPGSV,3,2,12,08,27,264,32,16,26,044,28,03,25,091,30,06,19,075,29*76
$GPGSV,3,3,12,20,17,176,21,19,13,120,39,30,05,039,29,05,03,326,*78
$GPRMC,231520.000,A,3748.7810,N,12217.8465,W,2.34,116.77,270411,,,D*72
$GPVTG,116.77,T,,M,2.34,N,4.3,K,D*0C
$GPGGA,231521.000,3748.7804,N,12217.8458,W,2,10,1.0,8.0,M,-25.1,M,4.8,0000*4F
$GPGSA,A,3,23,03,16,13,06,07,20,10,08,19,,,1.9,1.0,1.6*39
$GPRMC,231521.000,A,3748.7804,N,12217.8458,W,2.04,122.81,270411,,,D*75
$GPVTG,122.81,T,,M,2.04,N,3.8,K,D*0D
$GPGGA,231522.000,3748.7799,N,12217.8450,W,2,10,1.0,8.3,M,-25.1,M,1.8,0000*49
$GPGSA,A,3,23,03,16,13,06,07,20,10,08,19,,,1.9,1.0,1.6*39
$GPRMC,231522.000,A,3748.7799,N,12217.8450,W,2.38,114.70,270411,,,D*71
$GPVTG,114.70,T,,M,2.38,N,4.4,K,D*02
$GPGGA,231523.000,3748.7794,N,12217.8442,W,2,10,1.0,8.7,M,-25.1,M,1.8,0000*42
$GPGSA,A,3,23,03,16,13,06,07,20,10,08,19,,,1.9,1.0,1.6*39
$GPRMC,231523.000,A,3748.7794,N,12217.8442,W,2.38,112.77,270411,,,D*7F
$GPVTG,112.77,T,,M,2.38,N,4.4,K,D*03
$GPGGA,231524.000,3748.7791,N,12217.8434,W,2,10,1.0,8.5,M,-25.1,M,2.8,0000*40
$GPGSA,A,3,23,03,16,13,06,07,20,10,08,19,,,1.9,1.0,1.6*39
$GPRMC,231524.000,A,3748.7791,N,12217.8434,W,2.36,121.74,270411,,,D*71
$GPVTG,121.74,T,,M,2.36,N,4.4,K,D*0E
$GPGGA,231525.000,3748.7787,N,12217.8426,W,2,10,1.0,8.3,M,-25.1,M,3.8,0000*42
$GPGSA,A,3,23,03,16,13,06,07,20,10,08,19,,,1.9,1.0,1.6*39
$GPGSV,3,1,12,13,75,022,29,07,53,286,32,23,51,108,36,10,40,293,28*71
$GPGSV,3,2,12,08,27,264,31,16,26,044,26,03,25,091,32,06,19,075,29*79
$GPGSV,3,3,12,20,17,176,21,19,13,120,39,30,05,039,29,05,03,326,*78
$GPRMC,231525.000,A,3748.7787,N,12217.8426,W,2.26,117.03,270411,,,D*70
$GPVTG,117.03,T,,M,2.26,N,4.2,K,D*0C
$GPGGA,231526.000,3748.7784,N,12217.8418,W,2,10,1.0,8.4,M,-25.1,M,4.8,0000*4F
$GPGSA,A,3,23,03,16,13,06,07,20,10,08,19,,,1.9,1.0,1.6*39
$GPRMC,231526.000,A,3748.7784,N,12217.8418,W,2.16,120.98,270411,,,D*78
$GPVTG,120.98,T,,M,2.16,N,4.0,K,D*0B
$GPGGA,231527.000,3748.7780,N,12217.8409,W,2,10,1.0,8.4,M,-25.1,M,5.8,0000*4B
$GPGSA,A,3,23,03,16,13,06,07,20,10,08,19,,,1.9,1.0,1.6*39
$GPRMC,231527.000,A,3748.7780,N,12217.8409,W,2.45,119.10,270411,,,D*71
$GPVTG,119.10,T,,M,2.45,N,4.5,K,D*02
$GPGGA,231528.000,3748.7777,N,12217.8401,W,2,09,1.1,8.0,M,-25.1,M,1.8,0000*4D
$GPGSA,A,3,23,03,16,13,06,07,20,10,19,,,,2.1,1.1,1.8*35
$GPRMC,231528.000,A,3748.7777,N,12217.8401,W,2.17,124.13,270411,,,D*74
$GPVTG,124.13,T,,M,2.17,N,4.0,K,D*0D
$GPGGA,231529.000,3748.7773,N,12217.8394,W,2,10,1.0,8.0,M,-25.1,M,1.8,0000*4A
$GPGSA,A,3,23,03,16,13,06,07,20,10,08,19,,,1.9,1.0,1.6*39
$GPRMC,231529.000,A,3748.7773,N,12217.8394,W,2.36,120.71,270411,,,D*79
$GPVTG,120.71,T,,M,2.36,N,4.4,K,D*0A
$GPGGA,231530.000,3748.7769,N,12217.8385,W,2,09,1.0,8.0,M,-25.1,M,1.8,0000*41
$GPGSA,A,3,23,03,16,13,07,20,10,08,19,,,,2.0,1.0,1.7*34
$GPGSV,3,1,12,13,75,022,29,07,53,286,24,23,51,108,36,10,40,293,26*78
$GPGSV,3,2,12,08,27,264,23,16,26,044,27,03,25,091,32,06,19,075,31*72
$GPGSV,3,3,12,20,17,176,21,19,13,120,41,30,05,039,19,05,03,326,*74
$GPRMC,231530.000,A,3748.7769,N,12217.8385,W,2.26,123.53,270411,,,D*78
$GPVTG,123.53,T,,M,2.26,N,4.2,K,D*0E
$GPGGA,231531.000,3748.7767,N,12217.8375,W,2,10,1.0,7.9,M,-25.1,M,2.8,0000*4C
$GPGSA,A,3,23,03,16,13,06,07,20,10,08,19,,,1.9,1.0,1.6*39
$GPRMC,231531.000,A,3748.7767,N,12217.8375,W,2.64,111.82,270411,,,D*73
$GPVTG,111.82,T,,M,2.64,N,4.9,K,D*0E
$GPGGA,231532.000,3748.7764,N,12217.8367,W,2,10,1.0,8.3,M,-25.1,M,1.8,0000*49
$GPGSA,A,3,23,03,16,13,06,07,20,10,08,19,,,1.9,1.0,1.6*39
$GPRMC,231532.000,A,3748.7764,N,12217.8367,W,1.98,113.28,270411,,,D*72
$GPVTG,113.28,T,,M,1.98,N,3.7,K,D*05
$GPGGA,231533.000,3748.7762,N,12217.8360,W,2,10,1.0,8.5,M,-25.1,M,2.8,0000*4C
$GPGSA,A,3,23,03,16,13,06,07,20,10,08,19,,,1.9,1.0,1.6*39
$GPRMC,231533.000,A,3748.7762,N,12217.8360,W,1.97,120.30,270411,,,D*74
$GPVTG,120.30,T,,M,1.97,N,3.7,K,D*03
$GPGGA,231534.000,3748.7758,N,12217.8352,W,2,10,1.0,8.4,M,-25.1,M,1.8,0000*41
$GPGSA,A,3,23,03,16,13,06,07,20,10,08,19,,,1.9,1.0,1.6*39
$GPRMC,231534.000,A,3748.7758,N,12217.8352,W,2.44,124.18,270411,,,D*78
$GPVTG,124.18,T,,M,2.44,N,4.5,K,D*05
$GPGGA,231535.000,3748.7754,N,12217.8345,W,2,10,1.0,8.3,M,-25.1,M,1.8,0000*4D
$GPGSA,A,3,23,03,16,13,06,07,20,10,08,19,,,1.9,1.0,1.6*39
$GPGSV,3,1,12,13,75,022,29,07,53,286,26,23,51,108,36,10,40,293,29*75
$GPGSV,3,2,12,08,27,264,28,16,26,044,33,03,25,091,33,06,19,075,36*7A
$GPGSV,3,3,12,20,17,176,22,19,13,120,42,30,05,039,21,05,03,326,*7F
$GPRMC,231535.000,A,3748.7754,N,12217.8345,W,2.49,119.12,270411,,,D*7A
$GPVTG,119.12,T,,M,2.49,N,4.6,K,D*0F
$GPGGA,231536.000,3748.7749,N,12217.8337,W,2,10,1.0,8.2,M,-25.1,M,2.8,0000*45
$GPGSA,A,3,23,03,16,13,06,07,20,10,08,19,,,1.9,1.0,1.6*39
$GPRMC,231536.000,A,3748.7749,N,12217.8337,W,2.36,128.62,270411,,,D*7D
$GPVTG,128.62,T,,M,2.36,N,4.4,K,D*00
$GPGGA,231537.000,3748.7743,N,12217.8331,W,2,10,1.0,8.4,M,-25.1,M,3.8,0000*4F
$GPGSA,A,3,23,03,16,13,06,07,20,10,08,19,,,1.9,1.0,1.6*39
$GPRMC,231537.000,A,3748.7743,N,12217.8331,W,2.17,128.52,270411,,,D*70
$GPVTG,128.52,T,,M,2.17,N,4.0,K,D*04
$GPGGA,231538.000,3748.7738,N,12217.8323,W,2,10,1.0,8.6,M,-25.1,M,4.8,0000*4A
$GPGSA,A,3,23,03,16,13,06,07,20,10,08,19,,,1.9,1.0,1.6*39
$GPRMC,231538.000,A,3748.7738,N,12217.8323,W,2.61,120.15,270411,,,D*7A
$GPVTG,120.15,T,,M,2.61,N,4.8,K,D*06
$GPGGA,231539.000,3748.7735,N,12217.8316,W,2,10,1.0,8.4,M,-25.1,M,5.8,0000*43
$GPGSA,A,3,23,03,16,13,06,07,20,10,08,19,,,1.9,1.0,1.6*39
$GPRMC,231539.000,A,3748.7735,N,12217.8316,W,2.15,119.94,270411,,,D*70
$GPVTG,119.94,T,,M,2.15,N,4.0,K,D*0E
$GPGGA,231540.000,3748.7730,N,12217.8309,W,2,10,1.0,8.2,M,-25.1,M,6.8,0000*43
$GPGSA,A,3,23,03,16,13,06,07,20,10,08,19,,,1.9,1.0,1.6*39
$GPGSV,3,1,12,13,75,022,29,07,53,286,25,23,51,108,37,10,40,293,22*7C
$GPGSV,3,2,12,08,27,264,19,16,26,044,30,03,25,091,34,06,19,075,31*7B
$GPGSV,3,3,12,20,17,176,19,19,13,120,42,30,05,039,23,05,03,326,*75
$GPVTG,124.12,T,,M,2.23,N,4.1,K,D*0A
$GPGGA,231541.000,3748.7726,N,12217.8298,W,2,10,1.0,8.3,M,-25.1,M,7.8,0000*4C
$GPGSA,A,3,23,03,16,13,06,07,20,10,08,19,,,1.9,1.0,1.6*39
$GPRMC,231541.000,A,3748.7726,N,12217.8298,W,2.26,127.30,270411,,,D*79
$GPVTG,127.30,T,,M,2.26,N,4.2,K,D*0F
$GPGGA,231542.000,3748.7722,N,12217.8289,W,2,10,1.0,8.4,M,-25.1,M,8.8,0000*43
$GPGSA,A,3,23,03,16,13,06,07,20,10,08,19,,,1.9,1.0,1.6*39
$GPRMC,231542.000,A,3748.7722,N,12217.8289,W,2.59,116.07,270411,,,D*70
$GPVTG,116.07,T,,M,2.59,N,4.8,K,D*0B
$GPGGA,231543.000,3748.7721,N,12217.8279,W,2,10,1.0,8.2,M,-25.1,M,9.8,0000*49
$GPGSA,A,3,23,03,16,13,06,07,20,10,08,19,,,1.9,1.0,1.6*39
$GPRMC,231543.000,A,3748.7721,N,12217.8279,W,2.69,113.68,270411,,,D*72
