$ADVER,3080,2.3
$GPRMC,185707.426,A,3748.7758,N,12217.7918,W,2.25,99.26,090611,,,A*4B
$GPGGA,185708.426,3748.7759,N,12217.7884,W,1,03,3.1,0.1,M,-25.1,M,,0000*66
$GPGSA,A,2,03,13,32,,,,,,,,,,3.3,3.1,1.0*30
$GPGSV,3,1,12,13,49,315,24,32,35,156,38,03,06,123,28,23,70,021,27*77
$GPGSV,3,2,12,20,55,183,37,16,50,085,31,07,27,245,34,10,15,317,*7C
$GPGSV,3,3,12,04,14,287,24,06,04,108,,08,03,236,,31,01,055,*74
$GPRMC,185708.426,A,3748.7759,N,12217.7884,W,1.89,101.05,090611,,,A*75
$GPVTG,101.05,T,,M,1.89,N,3.5,K,N*01
$GPGGA,185709.426,3748.7797,N,12217.7832,W,1,03,3.1,0.1,M,-25.1,M,,0000*68
$GPGSA,A,2,03,13,32,,,,,,,,,,3.3,3.1,1.0*30
$GPRMC,185709.426,A,3748.7797,N,12217.7832,W,3.10,129.46,090611,,,A*74
$GPVTG,129.46,T,,M,3.10,N,5.7,K,N*0A
$GPGGA,185710.426,3748.7756,N,12217.7813,W,1,03,3.1,0.1,M,-25.1,M,,0000*6E
$GPGSA,A,2,03,13,32,,,,,,,,,,3.3,3.1,1.0*30
$GPRMC,185710.426,A,3748.7756,N,12217.7813,W,1.92,112.57,090611,,,A*72
$GPVTG,112.57,T,,M,1.92,N,3.6,K,N*0D
$GPGGA,185721.426,3748.7582,N,12217.7927,W,1,04,1.8,-38.2,M,-25.1,M,,0000*78
$GPGSA,A,3,03,13,07,32,,,,,,,,,3.4,1.8,2.9*30
$GPRMC,185721.426,A,3748.7582,N,12217.7927,W,2.85,112.30,090611,,,A*79
$GPVTG,112.30,T,,M,2.85,N,5.3,K,A*05
$GPGGA,185722.426,3748.7591,N,12217.7917,W,1,04,1.8,-33.4,M,-25.1,M,,0000*77
$GPGSA,A,3,03,13,07,32,,,,,,,,,3.4,1.8,2.9*30
$GPRMC,185722.426,A,3748.7591,N,12217.7917,W,2.89,93.12,090611,,,A*4F
$GPVTG,93.12,T,,M,2.89,N,5.4,K,A*36
$GPGGA,185723.426,3748.7581,N,12217.7907,W,1,04,1.8,-36.4,M,-25.1,M,,0000*73
$GPGSA,A,3,03,13,07,32,,,,,,,,,3.4,1.8,2.9*30
$GPGSV,3,1,12,13,49,315,22,32,35,156,38,07,28,245,35,03,06,123,26*77
$GPGSV,3,2,12,23,70,021,27,20,54,183,36,16,50,085,27,10,15,317,24*7B
$GPGSV,3,3,12,04,14,286,28,06,04,108,20,08,03,236,18,31,01,055,*72
$GPRMC,185723.426,A,3748.7581,N,12217.7907,W,3.34,100.06,090611,,,A*77
$GPGGA,185724.000,3748.7582,N,12217.7900,W,1,04,1.8,-36.3,M,-25.1,M,,0000*77
$GPGSA,A,3,03,13,07,32,,,,,,,,,3.4,1.8,2.9*30
$GPRMC,185724.000,A,3748.7582,N,12217.7900,W,3.14,99.13,090611,,,A*43
$GPVTG,99.13,T,,M,3.14,N,5.8,K,A*34
$GPGGA,185725.000,3748.7587,N,12217.7888,W,1,04,1.8,-34.6,M,-25.1,M,,0000*75
$GPGSA,A,3,03,13,07,32,,,,,,,,,3.4,1.8,2.9*30
$GPRMC,185725.000,A,3748.7587,N,12217.7888,W,2.83,93.03,090611,,,A*42
$GPVTG,93.03,T,,M,2.83,N,5.2,K,A*3A
$GPGGA,185726.000,3748.7574,N,12217.7883,W,1,04,1.8,-35.2,M,-25.1,M,,0000*74
$GPGSA,A,3,03,13,07,32,,,,,,,,,3.4,1.8,2.9*30
$GPRMC,185726.000,A,3748.7574,N,12217.7883,W,2.73,93.41,090611,,,A*4F
$GPVTG,93.41,T,,M,2.73,N,5.0,K,A*31
$GPGGA,185727.000,3748.7551,N,12217.7882,W,2,05,1.6,-21.2,M,-25.1,M,2.8,0000*5E
$GPGSA,A,3,03,13,07,20,32,,,,,,,,2.6,1.6,2.1*37
$GPRMC,185727.000,A,3748.7551,N,12217.7882,W,2.68,107.96,090611,,,D*71
$GPVTG,107.96,T,,M,2.68,N,5.0,K,D*08
$GPGGA,185728.000,3748.7546,N,12217.7875,W,2,05,1.6,-16.4,M,-25.1,M,3.8,0000*5C
$GPGSA,A,3,03,13,07,20,32,,,,,,,,2.6,1.6,2.1*37
$GPGSV,3,1,12,23,70,021,22,20,54,183,36,16,50,085,21,13,49,315,22*75
$GPGSV,3,2,12,32,35,156,38,07,28,245,35,10,15,317,23,04,14,286,28*7B
$GPGSV,3,3,12,03,06,123,27,06,04,108,20,08,03,236,18,31,01,055,*75
$GPRMC,185728.000,A,3748.7546,N,12217.7875,W,2.77,105.55,090611,,,D*73
$GPVTG,105.55,T,,M,2.77,N,5.1,K,D*0A
$GPGGA,185729.000,3748.7546,N,12217.7867,W,2,05,1.6,-12.5,M,-25.1,M,4.8,0000*5C
$GPGSA,A,3,03,13,07,20,32,,,,,,,,2.6,1.6,2.1*37
$GPRMC,185729.000,A,3748.7546,N,12217.7867,W,2.63,114.63,090611,,,D*71
$GPVTG,114.63,T,,M,2.63,N,4.9,K,D*03
$GPGGA,185730.000,3748.7538,N,12217.7862,W,2,05,1.6,-9.7,M,-25.1,M,,0000*42
$GPGSA,A,3,03,13,07,20,32,,,,,,,,2.6,1.6,2.1*37
$GPRMC,185730.000,A,3748.7538,N,12217.7862,W,2.40,108.00,090611,,,D*7C
$GPVTG,108.00,T,,M,2.40,N,4.4,K,D*07
$GPGGA,185731.000,3748.7530,N,12217.7856,W,2,05,1.6,-8.2,M,-25.1,M,,0000*48
$GPGSA,A,3,03,13,07,20,32,,,,,,,,2.6,1.6,2.1*37
$GPRMC,185731.000,A,3748.7530,N,12217.7856,W,2.63,116.70,090611,,,D*7B
$GPVTG,116.70,T,,M,2.63,N,4.9,K,D*03
$GPGGA,185732.000,3748.7535,N,12217.7844,W,2,05,1.6,-7.5,M,-25.1,M,,0000*45
$GPGSA,A,3,03,13,07,20,32,,,,,,,,2.6,1.6,2.1*37
$GPRMC,185732.000,A,3748.7535,N,12217.7844,W,2.93,113.46,090611,,,D*71
$GPVTG,113.46,T,,M,2.93,N,5.4,K,D*00
$GPGGA,185733.000,3748.7539,N,12217.7832,W,2,05,1.6,-6.3,M,-25.1,M,2.8,0000*6A
$GPGSA,A,3,03,13,07,20,32,,,,,,,,2.7,1.6,2.1*36
$GPGSV,3,1,12,23,70,021,24,20,54,183,36,16,50,085,22,13,49,315,23*71
$GPGSV,3,2,12,32,35,156,37,07,28,245,36,10,15,317,18,04,14,286,28*7F
$GPGSV,3,3,12,03,06,123,24,06,04,108,17,08,03,236,20,31,01,055,*79
$GPRMC,185733.000,A,3748.7539,N,12217.7832,W,2.92,113.28,090611,,,D*74
$GPVTG,113.28,T,,M,2.92,N,5.4,K,D*09
$GPGGA,185734.000,3748.7544,N,12217.7819,W,2,05,1.6,-5.5,M,-25.1,M,3.8,0000*6A
$GPGSA,A,3,03,13,07,20,32,,,,,,,,2.7,1.6,2.1*36
$GPRMC,185734.000,A,3748.7544,N,12217.7819,W,2.96,107.99,090611,,,D*7B
$GPVTG,107.99,T,,M,2.96,N,5.5,K,D*03
$GPGGA,185735.000,3748.7546,N,12217.7804,W,2,05,1.6,-3.9,M,-25.1,M,4.8,0000*68
$GPGSA,A,3,03,13,07,20,32,,,,,,,,2.7,1.6,2.1*36
$GPRMC,185735.000,A,3748.7546,N,12217.7804,W,2.53,102.42,090611,,,D*7E
$GPVTG,102.42,T,,M,2.53,N,4.7,K,D*0A
$GPGGA,185736.000,3748.7535,N,12217.7798,W,2,05,1.6,-3.0,M,-25.1,M,,0000*4E
$GPGSA,A,3,03,13,07,20,32,,,,,,,,2.7,1.6,2.1*36
$GPRMC,185736.000,A,3748.7535,N,12217.7798,W,2.27,112.34,090611,,,D*70
$GPVTG,112.34,T,,M,2.27,N,4.2,K,D*0C
$GPGGA,185737.000,3748.7519,N,12217.7794,W,2,05,1.6,-2.0,M,-25.1,M,,0000*4C
$GPGSA,A,3,03,13,07,20,32,,,,,,,,2.7,1.6,2.1*36
$GPRMC,185737.000,A,3748.7519,N,12217.7794,W,3.18,138.75,090611,,,D*73
$GPVTG,138.75,T,,M,3.18,N,5.9,K,D*06
$GPGGA,185738.000,3748.7518,N,12217.7781,W,2,05,1.6,-0.5,M,-25.1,M,,0000*41
$GPGSA,A,3,03,13,07,20,32,,,,,,,,2.7,1.6,2.1*36
$GPGSV,3,1,12,23,70,021,25,20,54,183,36,16,50,085,23,13,49,315,23*71
$GPGSV,3,2,12,32,35,156,38,07,28,245,26,10,15,317,18,04,14,286,27*7E
$GPGSV,3,3,12,03,06,123,23,06,04,108,16,08,03,236,20,31,01,055,*7F
$GPVTG,123.71,T,,M,2.99,N,5.5,K,D*0C
$GPGGA,185739.000,3748.7514,N,12217.7777,W,2,05,1.6,-0.3,M,-25.1,M,2.8,0000*67
$GPGSA,A,3,03,13,07,20,32,,,,,,,,2.7,1.6,2.1*36
$GPRMC,185739.000,A,3748.7514,N,12217.7777,W,2.88,125.51,090611,,,D*7F
$GPVTG,125.51,T,,M,2.88,N,5.3,K,D*0E
$GPGGA,185740.000,3748.7513,N,12217.7766,W,2,05,1.6,1.3,M,-25.1,M,3.8,0000*43
$GPGSA,A,3,03,13,07,20,32,,,,,,,,2.7,1.6,2.1*36
$GPRMC,185740.000,A,3748.7513,N,12217.7766,W,2.73,113.35,090611,,,D*75
$GPVTG,113.35,T,,M,2.73,N,5.1,K,D*0F
$GPGGA,185741.000,3748.7505,N,12217.7759,W,2,04,2.5,2.4,M,-25.1,M,4.8,0000*4B
$GPGSA,A,3,13,07,20,32,,,,,,,,,5.4,2.5,4.8*3E
$GPRMC,185741.000,A,3748.7505,N,12217.7759,W,2.61,123.38,090611,,,D*72
$GPVTG,123.38,T,,M,2.61,N,4.8,K,D*0A
$GPGGA,185742.000,3748.7490,N,12217.7759,W,2,04,2.5,2.5,M,-25.1,M,,0000*66
$GPGSA,A,3,13,07,20,32,,,,,,,,,5.4,2.5,4.8*3E
$GPRMC,185742.000,A,3748.7490,N,12217.7759,W,2.86,130.45,090611,,,D*7D
$GPVTG,130.45,T,,M,2.86,N,5.3,K,D*01
$GPGGA,185743.000,3748.7475,N,12217.7757,W,2,05,1.6,2.6,M,-25.1,M,,0000*60
$GPGSA,A,3,03,13,07,20,32,,,,,,,,2.7,1.6,2.1*36
$GPGSV,3,1,12,23,70,021,26,20,54,183,36,16,50,085,28,13,49,315,23*79
$GPGSV,3,2,12,32,35,156,38,07,28,245,32,10,15,317,17,04,14,286,27*74
$GPGSV,3,3,12,03,06,123,22,06,04,108,17,08,03,236,28,31,01,055,*77
$GPRMC,185743.000,A,3748.7475,N,12217.7757,W,2.94,128.71,090611,,,D*74
$GPVTG,128.71,T,,M,2.94,N,5.4,K,D*0B
$GPGGA,185744.000,3748.7468,N,12217.7750,W,2,05,1.6,2.5,M,-25.1,M,,0000*6F
$GPGSA,A,3,03,13,07,20,32,,,,,,,,2.7,1.6,2.1*36
$GPRMC,185744.000,A,3748.7468,N,12217.7750,W,2.92,123.13,090611,,,D*71
$GPVTG,123.13,T,,M,2.92,N,5.4,K,D*02
$GPGGA,185745.000,3748.7463,N,12217.7741,W,2,05,1.6,2.5,M,-25.1,M,,0000*65
$GPGSA,A,3,03,13,07,20,32,,,,,,,,2.7,1.6,2.1*36
$GPRMC,185745.000,A,3748.7463,N,12217.7741,W,2.82,124.83,090611,,,D*74
$GPVTG,124.83,T,,M,2.82,N,5.2,K,D*0B
$GPGGA,185746.000,3748.7458,N,12217.7733,W,2,05,1.6,2.5,M,-25.1,M,2.8,0000*4F
$GPGSA,A,3,03,13,07,20,32,,,,,,,,2.7,1.6,2.1*36
$GPRMC,185746.000,A,3748.7458,N,12217.7733,W,2.95,116.17,090611,,,D*70
$GPVTG,116.17,T,,M,2.95,N,5.5,K,D*06
$GPGGA,185747.000,3748.7449,N,12217.7726,W,2,05,1.6,2.5,M,-25.1,M,,0000*6E
$GPGSA,A,3,03,13,07,20,32,,,,,,,,2.7,1.6,2.1*36
$GPRMC,185747.000,A,3748.7449,N,12217.7726,W,2.92,120.82,090611,,,D*7B
$GPVTG,120.82,T,,M,2.92,N,5.4,K,D*09
$GPGGA,185748.000,3748.7447,N,12217.7716,W,2,05,1.6,2.2,M,-25.1,M,,0000*6B
$GPGSA,A,3,03,13,07,20,32,,,,,,,,2.7,1.6,2.1*36
$GPGSV,3,1,12,23,70,021,26,20,54,183,36,16,50,084,27,13,49,315,22*76
$GPGSV,3,2,12,32,35,156,38,07,28,246,34,10,15,317,17,04,14,286,26*70
$GPGSV,3,3,12,03,06,123,22,06,04,108,17,08,03,236,24,31,01,055,*7B
$GPRMC,185748.000,A,3748.7447,N,12217.7716,W,3.06,99.62,090611,,,D*48
$GPVTG,99.62,T,,M,3.06,N,5.7,K,D*3B
$GPGGA,185749.000,3748.7443,N,12217.7707,W,2,05,1.6,2.2,M,-25.1,M,,0000*6E
$GPGSA,A,3,03,13,07,20,32,,,,,,,,2.7,1.6,2.1*36
$GPRMC,185749.000,A,3748.7443,N,12217.7707,W,2.76,97.49,090611,,,D*4C
$GPVTG,97.49,T,,M,2.76,N,5.1,K,D*3C
$GPGGA,185750.000,3748.7441,N,12217.7697,W,2,05,1.6,2.0,M,-25.1,M,,0000*6E
$GPGSA,A,3,03,13,07,20,32,,,,,,,,2.7,1.6,2.1*36
$GPRMC,185750.000,A,3748.7441,N,12217.7697,W,2.79,99.19,090611,,,D*4A
$GPVTG,99.19,T,,M,2.79,N,5.2,K,D*3B
$GPGGA,185751.000,3748.7430,N,12217.7691,W,2,05,1.6,1.9,M,-25.1,M,2.8,0000*41
$GPGSA,A,3,03,13,07,20,32,,,,,,,,2.7,1.6,2.1*36
$GPRMC,185751.000,A,3748.7430,N,12217.7691,W,2.76,106.02,090611,,,D*79
$GPVTG,106.02,T,,M,2.76,N,5.1,K,D*0A
$GPGGA,185752.000,3748.7420,N,12217.7683,W,2,05,1.6,1.3,M,-25.1,M,3.8,0000*4B
$GPGSA,A,3,03,13,07,20,32,,,,,,,,2.7,1.6,2.1*36
$GPRMC,185752.000,A,3748.7420,N,12217.7683,W,2.93,99.56,090611,,,D*45
$GPVTG,99.56,T,,M,2.93,N,5.4,K,D*32
$GPGGA,185753.000,3748.7408,N,12217.7676,W,2,05,1.6,0.9,M,-25.1,M,4.8,0000*46
$GPGSA,A,3,03,13,07,20,32,,,,,,,,2.7,1.6,2.1*36
$GPGSV,3,1,12,23,70,021,27,20,54,183,36,16,50,084,27,13,49,315,22*77
$GPGSV,3,2,12,32,35,156,38,07,28,246,34,10,15,317,18,04,14,286,25*7C
$GPGSV,3,3,12,03,06,123,30,06,04,108,18,08,03,236,25,31,01,055,*76
$GPVTG,104.74,T,,M,2.87,N,5.3,K,D*05
$GPGGA,185754.000,3748.7403,N,12217.7667,W,2,05,1.6,0.6,M,-25.1,M,,0000*67
$GPGSA,A,3,03,13,07,20,32,,,,,,,,2.7,1.6,2.1*36
$GPRMC,185754.000,A,3748.7403,N,12217.7667,W,2.89,107.65,090611,,,D*75
$GPVTG,107.65,T,,M,2.89,N,5.4,K,D*0F
$GPGGA,185755.000,3748.7397,N,12217.7658,W,2,05,1.6,0.4,M,-25.1,M,,0000*62
$GPGSA,A,3,03,13,07,20,32,,,,,,,,2.7,1.6,2.1*36
$GPRMC,185755.000,A,3748.7397,N,12217.7658,W,2.80,104.19,090611,,,D*73
$GPVTG,104.19,T,,M,2.80,N,5.2,K,D*08
$GPGGA,185756.000,3748.7389,N,12217.7650,W,2,05,1.6,0.2,M,-25.1,M,,0000*60
$GPGSA,A,3,03,13,07,20,32,,,,,,,,2.7,1.6,2.1*36
$GPRMC,185756.000,A,3748.7389,N,12217.7650,W,2.85,104.62,090611,,,D*7E
$GPVTG,104.62,T,,M,2.85,N,5.3,K,D*00
$GPGGA,185757.000,3748.7389,N,12217.7639,W,2,05,1.6,0.7,M,-25.1,M,2.8,0000*4F
$GPGSA,A,3,03,13,07,20,32,,,,,,,,2.7,1.6,2.1*36
$GPRMC,185757.000,A,3748.7389,N,12217.7639,W,2.69,102.06,090611,,,D*76
$GPVTG,102.06,T,,M,2.69,N,5.0,K,D*05
$GPGGA,185758.000,3748.7391,N,12217.7625,W,2,05,1.6,2.1,M,-25.1,M,3.8,0000*41
$GPGSA,A,3,03,13,07,20,32,,,,,,,,2.7,1.6,2.1*36
$GPGSV,3,1,12,23,70,021,21,20,54,183,32,16,50,084,30,13,49,315,14*76
$GPGSV,3,2,12,32,35,156,27,07,28,246,27,10,15,317,18,04,14,286,16*70
$GPGSV,3,3,12,03,06,123,16,06,04,108,18,08,03,236,21,31,01,055,*76
$GPRMC,185758.000,A,3748.7391,N,12217.7625,W,2.93,86.39,090611,,,D*49
$GPVTG,86.39,T,,M,2.93,N,5.4,K,D*35
$GPGGA,185759.000,3748.7391,N,12217.7611,W,2,05,1.6,3.0,M,-25.1,M,4.8,0000*40
$GPGSA,A,3,03,13,07,20,32,,,,,,,,2.7,1.6,2.1*36
$GPRMC,185759.000,A,3748.7391,N,12217.7611,W,2.72,96.21,090611,,,D*48
$GPVTG,96.21,T,,M,2.72,N,5.0,K,D*36
$GPGGA,185800.000,3748.7387,N,12217.7601,W,2,05,1.6,3.0,M,-25.1,M,,0000*67
$GPGSA,A,3,03,13,07,20,32,,,,,,,,2.7,1.6,2.1*36
$GPRMC,185800.000,A,3748.7387,N,12217.7601,W,2.95,99.38,090611,,,D*43
$GPVTG,99.38,T,,M,2.95,N,5.5,K,D*3D
$GPGGA,185801.000,3748.7384,N,12217.7590,W,2,05,1.6,2.9,M,-25.1,M,,0000*66
$GPGSA,A,3,03,13,07,20,32,,,,,,,,2.7,1.6,2.1*36
$GPRMC,185801.000,A,3748.7384,N,12217.7590,W,2.95,103.55,090611,,,D*73
$GPVTG,103.55,T,,M,2.95,N,5.5,K,D*04
$GPGGA,185802.000,3748.7379,N,12217.7579,W,2,05,1.6,3.1,M,-25.1,M,,0000*69
$GPGSA,A,3,03,13,07,20,32,,,,,,,,2.7,1.6,2.1*36
$GPRMC,185802.000,A,3748.7379,N,12217.7579,W,2.41,100.67,090611,,,D*7E
$GPVTG,100.67,T,,M,2.41,N,4.5,K,D*0E
$GPGGA,185803.000,3748.7379,N,12217.7569,W,2,05,1.6,2.9,M,-25.1,M,2.8,0000*44
$GPGSA,A,3,03,13,07,20,32,,,,,,,,2.7,1.6,2.1*36
$GPGSV,3,1,12,23,70,021,27,20,54,183,34,16,50,084,30,13,49,315,20*71
$GPGSV,3,2,12,32,35,156,29,07,28,246,30,10,15,317,18,04,14,286,27*7A
$GPGSV,3,3,12,03,06,123,23,06,04,108,18,08,03,236,21,31,01,055,*70
$GPRMC,185803.000,A,3748.7379,N,12217.7569,W,2.69,92.06,090611,,,D*49
$GPVTG,92.06,T,,M,2.69,N,5.0,K,D*3D
$GPGGA,185804.000,3748.7372,N,12217.7561,W,2,05,1.6,2.7,M,-25.1,M,3.8,0000*4F
$GPGSA,A,3,03,13,07,20,32,,,,,,,,2.7,1.6,2.1*36
$GPRMC,185804.000,A,3748.7372,N,12217.7561,W,2.98,109.10,090611,,,D*77
$GPVTG,109.10,T,,M,2.98,N,5.5,K,D*02
$GPGGA,185805.000,3748.7367,N,12217.7553,W,2,05,1.6,2.5,M,-25.1,M,4.8,0000*4E
$GPGSA,A,3,03,13,07,20,32,,,,,,,,2.7,1.6,2.1*36
$GPRMC,185805.000,A,3748.7367,N,12217.7553,W,2.36,104.74,090611,,,D*78
$GPVTG,104.74,T,,M,2.36,N,4.4,K,D*09
$GPGGA,185806.000,3748.7360,N,12217.7548,W,2,05,1.6,2.2,M,-25.1,M,5.8,0000*46
$GPGSA,A,3,03,13,07,20,32,,,,,,,,2.7,1.6,2.1*36
$GPRMC,185806.000,A,3748.7360,N,12217.7548,W,2.36,111.67,090611,,,D*70
$GPVTG,111.67,T,,M,2.36,N,4.4,K,D*0F
$GPGGA,185807.000,3748.7353,N,12217.7542,W,2,05,1.6,1.9,M,-25.1,M,6.8,0000*46
$GPGSA,A,3,03,13,07,20,32,,,,,,,,2.7,1.6,2.1*36
$GPRMC,185807.000,A,3748.7353,N,12217.7542,W,2.56,108.08,090611,,,D*7C
$GPVTG,108.08,T,,M,2.56,N,4.7,K,D*0B
$GPGGA,185808.000,3748.7354,N,12217.7533,W,2,05,1.6,1.7,M,-25.1,M,7.8,0000*47
$GPGSA,A,3,03,13,07,20,32,,,,,,,,2.7,1.6,2.1*36
$GPGSV,3,1,12,23,70,021,27,20,54,183,26,16,50,084,23,13,49,315,21*71
$GPGSV,3,2,12,32,35,156,30,07,28,246,32,10,15,317,19,04,14,286,26*70
$GPGSV,3,3,12,03,06,123,27,06,04,108,18,08,03,236,19,31,01,055,*7F
$GPVTG,102.41,T,,M,2.64,N,4.9,K,D*03
$GPGGA,185809.000,3748.7357,N,12217.7523,W,2,05,1.6,2.0,M,-25.1,M,8.8,0000*4F
$GPGSA,A,3,03,13,07,20,32,,,,,,,,2.7,1.6,2.1*36
$GPRMC,185809.000,A,3748.7357,N,12217.7523,W,2.76,97.88,090611,,,D*4C
$GPVTG,97.88,T,,M,2.76,N,5.1,K,D*31
$GPGGA,185810.000,3748.7361,N,12217.7512,W,2,05,1.6,2.0,M,-25.1,M,9.8,0000*41
$GPGSA,A,3,03,13,07,20,32,,,,,,,,2.7,1.6,2.1*36
$GPRMC,185810.000,A,3748.7361,N,12217.7512,W,2.81,93.78,090611,,,D*40
$GPVTG,93.78,T,,M,2.81,N,5.2,K,D*31
$GPGGA,185811.000,3748.7363,N,12217.7503,W,2,05,1.6,0.6,M,-25.1,M,10.8,0000*7E
$GPGSA,A,3,03,13,07,20,32,,,,,,,,2.7,1.6,2.1*36
$GPRMC,185811.000,A,3748.7363,N,12217.7503,W,2.62,85.75,090611,,,D*44
$GPVTG,85.75,T,,M,2.62,N,4.9,K,D*3C
$GPGGA,185812.000,3748.7363,N,12217.7495,W,2,05,1.6,-0.3,M,-25.1,M,11.8,0000*5A
$GPGSA,A,3,03,13,07,20,32,,,,,,,,2.7,1.6,2.1*36
$GPRMC,185812.000,A,3748.7363,N,12217.7495,W,2.06,99.32,090611,,,D*45
$GPVTG,99.32,T,,M,2.06,N,3.8,K,D*36
$GPGGA,185813.000,3748.7359,N,12217.7488,W,2,05,1.6,0.0,M,-25.1,M,12.8,0000*73
$GPGSA,A,3,03,13,07,20,32,,,,,,,,2.7,1.6,2.1*36
$GPGSV,3,1,12,23,70,021,21,20,54,183,31,16,50,084,28,13,49,315,22*79
$GPGSV,3,2,12,32,35,156,33,07,28,246,28,10,15,317,23,04,14,286,22*75
$GPGSV,3,3,12,03,06,123,21,06,04,108,18,08,03,236,18,31,01,055,*78
$GPRMC,185813.000,A,3748.7359,N,12217.7488,W,2.38,86.32,090611,,,D*42
$GPVTG,86.32,T,,M,2.38,N,4.4,K,D*3E
$GPGGA,185814.000,3748.7359,N,12217.7476,W,2,05,1.6,0.6,M,-25.1,M,13.8,0000*72
$GPGSA,A,3,03,13,07,20,32,,,,,,,,2.7,1.6,2.1*36
$GPRMC,185814.000,A,3748.7359,N,12217.7476,W,2.88,87.38,090611,,,D*44
$GPVTG,87.38,T,,M,2.88,N,5.3,K,D*38
$GPGGA,185815.000,3748.7355,N,12217.7470,W,2,05,1.6,0.2,M,-25.1,M,14.8,0000*7A
$GPGSA,A,3,03,13,07,20,32,,,,,,,,2.7,1.6,2.1*36
$GPRMC,185815.000,A,3748.7355,N,12217.7470,W,2.10,81.87,090611,,,D*4C
$GPVTG,81.87,T,,M,2.10,N,3.9,K,D*37
$GPGGA,185816.000,3748.7355,N,12217.7458,W,2,05,1.6,0.7,M,-25.1,M,15.8,0000*77
$GPGSA,A,3,03,13,07,20,32,,,,,,,,2.7,1.6,2.1*36
$GPRMC,185816.000,A,3748.7355,N,12217.7458,W,2.98,72.00,090611,,,D*46
$GPVTG,72.00,T,,M,2.98,N,5.5,K,D*3E
$GPGGA,185817.000,3748.7355,N,12217.7446,W,2,05,1.6,1.0,M,-25.1,M,16.8,0000*7C
$GPGSA,A,3,03,13,07,20,32,,,,,,,,2.7,1.6,2.1*36
$GPRMC,185817.000,A,3748.7355,N,12217.7446,W,3.24,71.57,090611,,,D*4F
$GPVTG,71.57,T,,M,3.24,N,6.0,K,D*3F
$GPGGA,185818.000,3748.7352,N,12217.7434,W,2,05,1.6,0.6,M,-25.1,M,17.8,0000*77
$GPGSA,A,3,03,13,07,20,32,,,,,,,,2.7,1.6,2.1*36
$GPGSV,3,1,12,23,70,021,23,20,54,183,32,16,50,084,29,13,49,315,22*79
$GPGSV,3,2,12,32,35,156,30,07,28,246,32,10,15,317,17,04,14,286,21*79
$GPGSV,3,3,12,03,06,123,25,06,04,108,18,08,03,236,10,31,01,055,*74
$GPRMC,185818.000,A,3748.7352,N,12217.7434,W,3.44,72.00,090611,,,D*45
$GPVTG,72.00,T,,M,3.44,N,6.4,K,D*3C
$GPGGA,185819.000,3748.7344,N,12217.7425,W,1,05,1.6,-0.3,M,-25.1,M,,0000*4A
$GPGSA,A,3,03,13,07,20,32,,,,,,,,2.7,1.6,2.1*36
$GPRMC,185819.000,A,3748.7344,N,12217.7425,W,2.85,88.74,090611,,,A*4C
$GPVTG,88.74,T,,M,2.85,N,5.3,K,A*37
$GPGGA,185820.000,3748.7341,N,12217.7416,W,1,05,1.6,-0.5,M,-25.1,M,,0000*43
$GPGSA,A,3,03,13,07,20,32,,,,,,,,2.7,1.6,2.1*36
$GPRMC,185820.000,A,3748.7341,N,12217.7416,W,2.99,79.06,090611,,,A*45
$GPVTG,79.06,T,,M,2.99,N,5.5,K,A*37
$GPGGA,185821.000,3748.7342,N,12217.7406,W,1,05,1.6,0.6,M,-25.1,M,,0000*6E
$GPGSA,A,3,03,13,07,20,32,,,,,,,,2.7,1.6,2.1*36
$GPRMC,185821.000,A,3748.7342,N,12217.7406,W,3.12,73.48,090611,,,A*44
$GPVTG,73.48,T,,M,3.12,N,5.8,K,A*38
$GPGGA,185822.000,3748.7340,N,12217.7393,W,1,05,1.6,2.0,M,-25.1,M,,0000*60
$GPGSA,A,3,03,13,07,20,32,,,,,,,,2.7,1.6,2.1*36
$GPRMC,185822.000,A,3748.7340,N,12217.7393,W,3.24,71.02,090611,,,A*47
$GPVTG,71.02,T,,M,3.24,N,6.0,K,A*3A
$GPGGA,185823.000,3748.7340,N,12217.7377,W,1,05,1.6,4.1,M,-25.1,M,,0000*6C
$GPGSA,A,3,03,13,07,20,32,,,,,,,,2.7,1.6,2.1*36
$GPGSV,3,1,12,23,70,021,24,20,54,183,27,16,50,084,29,13,49,315,22*7A
$GPGSV,3,2,12,32,35,156,31,07,28,246,26,10,15,317,18,04,14,286,21*72
$GPGSV,3,3,12,03,06,123,20,06,04,108,19,08,03,236,,31,01,055,*71
$GPVTG,73.91,T,,M,3.54,N,6.6,K,A*33
$GPGGA,185824.000,3748.7334,N,12217.7366,W,1,05,1.6,5.8,M,-25.1,M,,0000*60
$GPGSA,A,3,03,13,07,20,32,,,,,,,,2.7,1.6,2.1*36
$GPRMC,185824.000,A,3748.7334,N,12217.7366,W,2.87,89.15,090611,,,A*41
$GPVTG,89.15,T,,M,2.87,N,5.3,K,A*33
$GPGGA,185825.000,3748.7326,N,12217.7361,W,1,05,1.6,5.9,M,-25.1,M,,0000*64
$GPGSA,A,3,03,13,07,20,32,,,,,,,,2.7,1.6,2.1*36
$GPRMC,185825.000,A,3748.7326,N,12217.7361,W,2.88,100.15,090611,,,A*7B
$GPVTG,100.15,T,,M,2.88,N,5.3,K,A*0C
$GPGGA,185826.000,3748.7327,N,12217.7351,W,1,05,1.6,6.8,M,-25.1,M,,0000*67
$GPGSA,A,3,03,13,07,20,32,,,,,,,,2.7,1.6,2.1*36
$GPRMC,185826.000,A,3748.7327,N,12217.7351,W,2.82,91.00,090611,,,A*4D
$GPVTG,91.00,T,,M,2.82,N,5.2,K,A*3A
$GPGGA,185827.000,3748.7330,N,12217.7336,W,1,06,1.3,7.7,M,-25.1,M,,0000*69
$GPGSA,A,3,03,13,16,07,20,32,,,,,,,2.3,1.3,1.9*3B
$GPRMC,185827.000,A,3748.7330,N,12217.7336,W,2.80,112.33,090611,,,A*73
$GPVTG,112.33,T,,M,2.80,N,5.2,K,A*02
$GPGGA,185828.000,3748.7330,N,12217.7324,W,1,06,1.3,8.6,M,-25.1,M,,0000*6B
$GPGSA,A,3,03,13,16,07,20,32,,,,,,,2.3,1.3,1.9*3B
$GPGSV,3,1,12,23,70,022,25,20,54,182,34,16,50,084,30,13,50,315,21*78
$GPGSV,3,2,12,32,35,156,36,07,28,246,32,10,16,317,17,04,14,286,20*7D
$GPGSV,3,3,12,03,06,123,26,06,05,108,27,08,04,237,,31,00,055,*7C
$GPRMC,185828.000,A,3748.7330,N,12217.7324,W,2.58,116.16,090611,,,A*79
$GPVTG,116.16,T,,M,2.58,N,4.8,K,A*0F
$GPGGA,185829.000,3748.7331,N,12217.7313,W,1,06,1.3,9.4,M,-25.1,M,,0000*6C
$GPGSA,A,3,03,13,16,07,20,32,,,,,,,2.3,1.3,1.9*3B
$GPRMC,185829.000,A,3748.7331,N,12217.7313,W,2.56,112.08,090611,,,A*78
$GPVTG,112.08,T,,M,2.56,N,4.7,K,A*05
$GPGGA,185830.000,3748.7331,N,12217.7301,W,1,06,1.3,9.9,M,-25.1,M,,0000*6A
$GPGSA,A,3,03,13,16,07,20,32,,,,,,,2.3,1.3,1.9*3B
$GPRMC,185830.000,A,3748.7331,N,12217.7301,W,2.74,115.30,090611,,,A*7F
$GPVTG,115.30,T,,M,2.74,N,5.1,K,A*0E
$GPGGA,185831.000,3748.7330,N,12217.7291,W,1,06,1.3,10.4,M,-25.1,M,,0000*57
$GPGSA,A,3,03,13,16,07,20,32,,,,,,,2.3,1.3,1.9*3B
$GPRMC,185831.000,A,3748.7330,N,12217.7291,W,2.80,114.05,090611,,,A*7B
$GPVTG,114.05,T,,M,2.80,N,5.2,K,A*01
$GPGGA,185832.000,3748.7329,N,12217.7281,W,2,06,1.3,11.0,M,-25.1,M,,0000*5B
$GPGSA,A,3,03,13,16,07,20,32,,,,,,,2.3,1.3,1.9*3B
$GPRMC,185832.000,A,3748.7329,N,12217.7281,W,2.85,113.91,090611,,,D*7B
$GPVTG,113.91,T,,M,2.85,N,5.3,K,D*0A
$GPGGA,185833.000,3748.7326,N,12217.7272,W,2,06,1.3,11.6,M,-25.1,M,,0000*5F
$GPGSA,A,3,03,13,16,07,20,32,,,,,,,2.3,1.3,1.9*3B
$GPGSV,3,1,12,23,70,022,25,20,54,182,35,16,50,084,30,13,50,315,21*79
$GPGSV,3,2,12,32,35,156,37,07,28,246,35,10,16,317,17,04,14,286,20*7B
$GPGSV,3,3,12,03,06,123,25,06,05,108,18,08,04,237,,31,00,055,*73
$GPRMC,185833.000,A,3748.7326,N,12217.7272,W,2.83,115.74,090611,,,D*72
$GPVTG,115.74,T,,M,2.83,N,5.2,K,D*00
$GPGGA,185834.000,3748.7322,N,12217.7263,W,2,06,1.3,12.2,M,-25.1,M,2.8,0000*7F
$GPGSA,A,3,03,13,16,07,20,32,,,,,,,2.3,1.3,1.9*3B
$GPRMC,185834.000,A,3748.7322,N,12217.7263,W,2.94,129.29,090611,,,D*70
$GPVTG,129.29,T,,M,2.94,N,5.5,K,D*06
$GPGGA,185835.000,3748.7314,N,12217.7258,W,2,06,1.3,12.7,M,-25.1,M,3.8,0000*77
$GPGSA,A,3,03,13,16,07,20,32,,,,,,,2.3,1.3,1.9*3B
$GPRMC,185835.000,A,3748.7314,N,12217.7258,W,2.99,119.48,090611,,,D*75
$GPVTG,119.48,T,,M,2.99,N,5.5,K,D*0F
$GPGGA,185836.000,3748.7310,N,12217.7249,W,2,06,1.3,13.1,M,-25.1,M,,0000*52
$GPGSA,A,3,03,13,16,07,20,32,,,,,,,2.3,1.3,1.9*3B
$GPRMC,185836.000,A,3748.7310,N,12217.7249,W,3.06,120.99,090611,,,D*73
$GPVTG,120.99,T,,M,3.06,N,5.7,K,D*0C
$GPGGA,185837.000,3748.7308,N,12217.7239,W,2,05,1.6,13.6,M,-25.1,M,,0000*5C
$GPGSA,A,3,13,16,07,20,32,,,,,,,,4.7,1.6,4.4*37
$GPRMC,185837.000,A,3748.7308,N,12217.7239,W,2.82,123.52,090611,,,D*75
$GPVTG,123.52,T,,M,2.82,N,5.2,K,D*00
$GPGGA,185838.000,3748.7305,N,12217.7231,W,2,05,1.6,14.0,M,-25.1,M,,0000*57
$GPGSA,A,3,13,16,07,20,32,,,,,,,,4.7,1.6,4.5*36
$GPGSV,3,1,12,23,70,022,25,20,54,182,35,16,50,084,30,13,50,315,20*78
$GPGSV,3,2,12,32,35,156,37,07,28,246,34,10,16,317,18,04,14,286,20*75
$GPGSV,3,3,12,03,06,123,,06,05,108,19,08,04,237,,31,00,055,*75
$GPVTG,116.06,T,,M,2.81,N,5.2,K,D*04
$GPGGA,185839.000,3748.7303,N,12217.7222,W,2,05,1.6,14.4,M,-25.1,M,2.8,0000*72
$GPGSA,A,3,13,16,07,20,32,,,,,,,,4.7,1.6,4.5*36
$GPRMC,185839.000,A,3748.7303,N,12217.7222,W,2.71,117.88,090611,,,D*76
$GPVTG,117.88,T,,M,2.71,N,5.0,K,D*0E
$GPGGA,185840.000,3748.7302,N,12217.7213,W,2,06,1.3,14.6,M,-25.1,M,3.8,0000*7A
$GPGSA,A,3,03,13,16,07,20,32,,,,,,,2.3,1.3,1.9*3B
$GPRMC,185840.000,A,3748.7302,N,12217.7213,W,2.96,112.26,090611,,,D*73
$GPVTG,112.26,T,,M,2.96,N,5.5,K,D*03
$GPGGA,185841.000,3748.7302,N,12217.7202,W,2,06,1.3,14.8,M,-25.1,M,4.8,0000*72
$GPGSA,A,3,03,13,16,07,20,32,,,,,,,2.3,1.3,1.9*3B
$GPRMC,185841.000,A,3748.7302,N,12217.7202,W,3.10,94.39,090611,,,D*4C
$GPVTG,94.39,T,,M,3.10,N,5.7,K,D*3F
$GPGGA,185842.000,3748.7303,N,12217.7188,W,2,06,1.3,13.9,M,-25.1,M,5.8,0000*76
$GPGSA,A,3,03,13,16,07,20,32,,,,,,,2.3,1.3,1.9*3B
$GPRMC,185842.000,A,3748.7303,N,12217.7188,W,2.84,72.65,090611,,,D*42
$GPVTG,72.65,T,,M,2.84,N,5.3,K,D*36
$GPGGA,185843.000,3748.7307,N,12217.7174,W,2,06,1.3,14.7,M,-25.1,M,,0000*5A
$GPGSA,A,3,03,13,16,07,20,32,,,,,,,2.3,1.3,1.9*3B
$GPGSV,3,1,12,23,70,022,28,20,54,182,33,16,50,084,36,13,50,315,21*74
$GPGSV,3,2,12,32,35,156,36,07,28,246,20,10,16,317,18,04,14,286,20*71
$GPGSV,3,3,12,03,06,123,25,06,05,108,19,08,04,237,,31,00,055,*72
$GPRMC,185843.000,A,3748.7307,N,12217.7174,W,3.11,52.17,090611,,,D*4E
$GPVTG,52.17,T,,M,3.11,N,5.8,K,D*37
$GPGGA,185844.000,3748.7314,N,12217.7163,W,2,05,1.6,14.4,M,-25.1,M,2.8,0000*78
$GPGSA,A,3,13,16,07,20,32,,,,,,,,4.7,1.6,4.5*36
$GPRMC,185844.000,A,3748.7314,N,12217.7163,W,2.74,34.75,090611,,,D*4B
$GPVTG,34.75,T,,M,2.74,N,5.1,K,D*38
$GPGGA,185845.000,3748.7318,N,12217.7154,W,2,06,1.3,13.5,M,-25.1,M,3.8,0000*70
$GPGSA,A,3,03,13,16,07,20,32,,,,,,,2.3,1.3,1.9*3B
$GPRMC,185845.000,A,3748.7318,N,12217.7154,W,2.62,8.27,090611,,,D*7D
$GPVTG,8.27,T,,M,2.62,N,4.9,K,D*0E
$GPGGA,185846.000,3748.7325,N,12217.7154,W,2,05,1.6,12.4,M,-25.1,M,4.8,0000*7C
$GPGSA,A,3,03,13,16,07,32,,,,,,,,2.9,1.6,2.5*39
$GPRMC,185846.000,A,3748.7325,N,12217.7154,W,1.80,356.87,090611,,,D*7D
$GPVTG,356.87,T,,M,1.80,N,3.3,K,D*0E
$GPGGA,185847.000,3748.7324,N,12217.7150,W,2,05,1.6,12.6,M,-25.1,M,5.8,0000*7B
$GPGSA,A,3,03,13,16,07,32,,,,,,,,2.9,1.6,2.5*39
$GPRMC,185847.000,A,3748.7324,N,12217.7150,W,1.38,347.20,090611,,,D*77
$GPVTG,347.20,T,,M,1.38,N,2.5,K,D*07
$GPGGA,185848.000,3748.7323,N,12217.7143,W,2,06,1.3,11.6,M,-25.1,M,6.8,0000*77
$GPGSA,A,3,03,13,16,07,20,32,,,,,,,2.3,1.3,1.9*3B
$GPGSV,3,1,12,23,70,022,34,20,54,182,21,16,50,084,39,13,50,315,21*75
$GPGSV,3,2,12,32,35,156,27,07,28,246,20,10,16,317,20,04,14,286,20*7A
$GPGSV,3,3,12,03,06,123,16,06,05,108,18,08,04,237,,31,00,055,*73
$GPRMC,185848.000,A,3748.7323,N,12217.7143,W,1.42,37.98,090611,,,D*47
$GPVTG,37.98,T,,M,1.42,N,2.6,K,D*3E
$GPGGA,185849.000,3748.7335,N,12217.7143,W,2,06,1.3,9.3,M,-25.1,M,7.8,0000*4C
$GPGSA,A,3,03,13,16,07,20,32,,,,,,,2.3,1.3,1.9*3B
$GPRMC,185849.000,A,3748.7335,N,12217.7143,W,2.17,356.00,090611,,,D*77
$GPVTG,356.00,T,,M,2.17,N,4.0,K,D*08
$GPGGA,185850.000,3748.7341,N,12217.7134,W,2,05,1.8,7.8,M,-25.1,M,8.8,0000*45
$GPGSA,A,3,03,13,16,20,32,,,,,,,,2.9,1.8,2.3*34
$GPRMC,185850.000,A,3748.7341,N,12217.7134,W,2.80,32.91,090611,,,D*4B
$GPVTG,32.91,T,,M,2.80,N,5.2,K,D*3C
$GPGGA,185851.000,3748.7349,N,12217.7125,W,2,06,1.3,7.3,M,-25.1,M,9.8,0000*4E
$GPGSA,A,3,03,13,16,07,20,32,,,,,,,2.3,1.3,1.9*3B
$GPRMC,185851.000,A,3748.7349,N,12217.7125,W,2.96,41.25,090611,,,D*4E
$GPVTG,41.25,T,,M,2.96,N,5.5,K,D*37
$GPGGA,185852.000,3748.7352,N,12217.7117,W,2,05,1.8,8.8,M,-25.1,M,10.8,0000*72
$GPGSA,A,3,03,13,16,20,32,,,,,,,,2.9,1.8,2.3*34
$GPRMC,185852.000,A,3748.7352,N,12217.7117,W,2.87,49.88,090611,,,D*49
$GPVTG,49.88,T,,M,2.87,N,5.3,K,D*3E
$GPGGA,185853.000,3748.7356,N,12217.7104,W,2,06,1.3,10.4,M,-25.1,M,11.8,0000*49
$GPGSA,A,3,03,13,16,07,20,32,,,,,,,2.3,1.3,1.9*3B
$GPGSV,3,1,12,23,70,022,33,20,54,182,31,16,50,084,37,13,50,315,21*7D
$GPGSV,3,2,12,32,35,156,36,07,28,246,12,10,16,317,24,04,14,286,19*75
$GPGSV,3,3,12,03,06,123,16,06,05,108,17,08,04,237,,31,00,055,*7C
$GPVTG,47.16,T,,M,3.42,N,6.3,K,D*3C
$GPGGA,185854.000,3748.7360,N,12217.7094,W,2,05,1.8,11.8,M,-25.1,M,12.8,0000*45
$GPGSA,A,3,03,13,16,20,32,,,,,,,,2.9,1.8,2.3*34
$GPRMC,185854.000,A,3748.7360,N,12217.7094,W,3.07,32.72,090611,,,D*44
$GPVTG,32.72,T,,M,3.07,N,5.7,K,D*3A
$GPGGA,185855.000,3748.7365,N,12217.7089,W,2,05,1.8,13.8,M,-25.1,M,13.8,0000*4E
$GPGSA,A,3,03,13,16,20,32,,,,,,,,2.9,1.8,2.3*34
$GPRMC,185855.000,A,3748.7365,N,12217.7089,W,3.00,32.71,090611,,,D*48
$GPVTG,32.71,T,,M,3.00,N,5.6,K,D*3F
$GPGGA,185856.000,3748.7367,N,12217.7077,W,2,05,1.8,15.2,M,-25.1,M,14.8,0000*45
$GPGSA,A,3,03,13,16,20,32,,,,,,,,2.9,1.8,2.3*34
$GPRMC,185856.000,A,3748.7367,N,12217.7077,W,2.80,33.15,090611,,,D*42
$GPVTG,33.15,T,,M,2.80,N,5.2,K,D*31
$GPGGA,185857.000,3748.7367,N,12217.7063,W,2,06,1.3,16.6,M,-25.1,M,15.8,0000*4F
$GPGSA,A,3,03,13,16,07,20,32,,,,,,,2.3,1.3,1.9*3B
$GPRMC,185857.000,A,3748.7367,N,12217.7063,W,2.08,29.84,090611,,,D*45
$GPVTG,29.84,T,,M,2.08,N,3.8,K,D*3E
$GPGGA,185858.000,3748.7370,N,12217.7056,W,2,06,1.3,16.8,M,-25.1,M,16.8,0000*4D
$GPGSA,A,3,03,13,16,07,20,32,,,,,,,2.3,1.3,1.9*3B
$GPGSV,3,1,12,23,70,022,33,20,54,182,27,16,50,084,38,13,50,315,25*71
$GPGSV,3,2,12,32,35,156,31,07,28,246,22,10,16,317,23,04,14,286,20*7C
$GPGSV,3,3,12,03,06,123,17,06,05,108,16,08,04,237,,31,00,055,*7C
$GPRMC,185858.000,A,3748.7370,N,12217.7056,W,2.21,18.31,090611,,,D*4D
$GPVTG,18.31,T,,M,2.21,N,4.1,K,D*37
$GPGGA,185859.000,3748.7371,N,12217.7047,W,2,06,1.3,16.9,M,-25.1,M,17.8,0000*4D
$GPGSA,A,3,03,13,16,07,20,32,,,,,,,2.3,1.3,1.9*3B
$GPRMC,185859.000,A,3748.7371,N,12217.7047,W,2.52,17.62,090611,,,D*40
$GPVTG,17.62,T,,M,2.52,N,4.7,K,D*3C
$GPGGA,185900.000,3748.7375,N,12217.7040,W,1,06,1.3,17.2,M,-25.1,M,,0000*5A
$GPGSA,A,3,03,13,16,07,20,32,,,,,,,2.3,1.3,1.9*3B
$GPRMC,185900.000,A,3748.7375,N,12217.7040,W,2.81,12.08,090611,,,A*4C
$GPVTG,12.08,T,,M,2.81,N,5.2,K,A*3A
$GPGGA,185901.000,3748.7376,N,12217.7029,W,1,06,1.3,18.1,M,-25.1,M,,0000*5B
$GPGSA,A,3,03,13,16,07,20,32,,,,,,,2.3,1.3,1.9*3B
$GPRMC,185901.000,A,3748.7376,N,12217.7029,W,2.50,25.39,090611,,,A*4B
$GPVTG,25.39,T,,M,2.50,N,4.6,K,A*35
$GPGGA,185902.000,3748.7382,N,12217.7017,W,1,06,1.3,18.6,M,-25.1,M,,0000*59
$GPGSA,A,3,03,13,16,07,20,32,,,,,,,2.3,1.3,1.9*3B
$GPRMC,185902.000,A,3748.7382,N,12217.7017,W,2.68,34.62,090611,,,A*4B
$GPVTG,34.62,T,,M,2.68,N,5.0,K,A*37
$GPGGA,185903.000,3748.7385,N,12217.7006,W,1,06,1.3,19.1,M,-25.1,M,,0000*59
$GPGSA,A,3,03,13,16,07,20,32,,,,,,,2.3,1.3,1.9*3B
$GPGSV,3,1,12,23,70,022,33,20,54,182,29,16,50,084,37,13,50,315,23*76
$GPGSV,3,2,12,32,35,156,34,07,28,246,20,10,16,317,18,04,14,286,20*73
$GPGSV,3,3,12,03,06,123,25,06,05,108,17,08,04,237,,31,00,055,*7C
$GPRMC,185903.000,A,3748.7385,N,12217.7006,W,2.95,45.34,090611,,,A*4A
$GPVTG,45.34,T,,M,2.95,N,5.5,K,A*35
$GPGGA,185904.000,3748.7391,N,12217.6998,W,1,06,1.3,19.0,M,-25.1,M,,0000*55
$GPGSA,A,3,03,13,16,07,20,32,,,,,,,2.3,1.3,1.9*3B
$GPRMC,185904.000,A,3748.7391,N,12217.6998,W,2.98,30.49,090611,,,A*42
$GPVTG,30.49,T,,M,2.98,N,5.5,K,A*30
$GPGGA,185905.000,3748.7400,N,12217.6994,W,1,06,1.3,18.6,M,-25.1,M,,0000*50
$GPGSA,A,3,03,13,16,07,20,32,,,,,,,2.3,1.3,1.9*3B
$GPRMC,185905.000,A,3748.7400,N,12217.6994,W,3.11,17.48,090611,,,A*44
$GPVTG,17.48,T,,M,3.11,N,5.8,K,A*39
$GPGGA,185906.000,3748.7415,N,12217.6997,W,1,06,1.3,17.6,M,-25.1,M,,0000*5B
$GPGSA,A,3,03,13,16,07,20,32,,,,,,,2.3,1.3,1.9*3B
$GPRMC,185906.000,A,3748.7415,N,12217.6997,W,2.97,17.07,090611,,,A*44
$GPVTG,17.07,T,,M,2.97,N,5.5,K,A*30
$GPGGA,185907.000,3748.7424,N,12217.6995,W,1,06,1.3,17.1,M,-25.1,M,,0000*5D
$GPGSA,A,3,03,13,16,07,20,32,,,,,,,2.3,1.3,1.9*3B
$GPRMC,185907.000,A,3748.7424,N,12217.6995,W,2.65,21.01,090611,,,A*4B
$GPVTG,21.01,T,,M,2.65,N,4.9,K,A*33
$GPGGA,185908.000,3748.7429,N,12217.6987,W,1,06,1.3,17.4,M,-25.1,M,,0000*59
$GPGSA,A,3,03,13,16,07,20,32,,,,,,,2.3,1.3,1.9*3B
$GPGSV,3,1,12,23,70,022,33,20,54,182,29,16,50,084,38,13,50,315,24*7E
$GPGSV,3,2,12,32,35,156,35,07,28,246,21,10,16,317,19,04,14,286,21*73
$GPGSV,3,3,12,03,06,123,21,06,05,108,16,08,04,237,,31,00,055,*79
$GPVTG,28.91,T,,M,2.71,N,5.0,K,A*3E
$GPGGA,185909.000,3748.7433,N,12217.6978,W,1,06,1.3,18.0,M,-25.1,M,,0000*58
$GPGSA,A,3,03,13,16,07,20,32,,,,,,,2.3,1.3,1.9*3B
$GPRMC,185909.000,A,3748.7433,N,12217.6978,W,2.50,27.93,090611,,,A*4B
$GPVTG,27.93,T,,M,2.50,N,4.6,K,A*37
$GPGGA,185910.000,3748.7439,N,12217.6975,W,1,06,1.3,17.8,M,-25.1,M,,0000*50
$GPGSA,A,3,03,13,16,07,20,32,,,,,,,2.3,1.3,1.9*3B
$GPRMC,185910.000,A,3748.7439,N,12217.6975,W,2.40,20.68,090611,,,A*46
$GPVTG,20.68,T,,M,2.40,N,4.4,K,A*37
$GPGGA,185911.000,3748.7443,N,12217.6975,W,1,06,1.3,18.2,M,-25.1,M,,0000*59
$GPGSA,A,3,03,13,16,07,20,32,,,,,,,2.3,1.3,1.9*3B
$GPRMC,185911.000,A,3748.7443,N,12217.6975,W,1.72,16.16,090611,,,A*44
$GPVTG,16.16,T,,M,1.72,N,3.2,K,A*38
$GPGGA,185912.000,3748.7451,N,12217.6976,W,1,06,1.3,18.8,M,-25.1,M,,0000*50
$GPGSA,A,3,03,13,16,07,20,32,,,,,,,2.3,1.3,1.9*3B
$GPRMC,185912.000,A,3748.7451,N,12217.6976,W,2.28,18.28,090611,,,A*48
$GPVTG,18.28,T,,M,2.28,N,4.2,K,A*30
$GPGGA,185913.000,3748.7460,N,12217.6974,W,1,06,1.3,18.3,M,-25.1,M,,0000*5A
$GPGSA,A,3,03,13,16,07,20,32,,,,,,,2.3,1.3,1.9*3B
$GPGSV,3,1,12,23,70,022,31,20,54,182,23,16,50,084,32,13,50,315,29*71
$GPGSV,3,2,12,32,35,156,27,07,28,246,20,10,16,317,19,04,14,286,20*70
$GPGSV,3,3,12,03,06,123,20,06,05,108,16,08,04,237,,31,00,055,*78
$GPRMC,185913.000,A,3748.7460,N,12217.6974,W,1.97,20.04,090611,,,A*4B
$GPVTG,20.04,T,,M,1.97,N,3.7,K,A*30
$GPGGA,185914.000,3748.7471,N,12217.6971,W,1,06,1.3,17.4,M,-25.1,M,,0000*50
$GPGSA,A,3,03,13,16,07,20,32,,,,,,,2.3,1.3,1.9*3B
$GPRMC,185914.000,A,3748.7471,N,12217.6971,W,2.60,10.67,090611,,,A*44
$GPVTG,10.67,T,,M,2.60,N,4.8,K,A*35
$GPGGA,185915.000,3748.7481,N,12217.6972,W,1,06,1.3,16.8,M,-25.1,M,,0000*50
$GPGSA,A,3,03,13,16,07,20,32,,,,,,,2.3,1.3,1.9*3B
$GPRMC,185915.000,A,3748.7481,N,12217.6972,W,3.12,347.63,090611,,,A*78
$GPVTG,347.63,T,,M,3.12,N,5.8,K,A*05
$GPGGA,185916.000,3748.7491,N,12217.6971,W,1,06,1.3,15.7,M,-25.1,M,,0000*5D
$GPGSA,A,3,03,13,16,07,20,32,,,,,,,2.3,1.3,1.9*3B
$GPRMC,185916.000,A,3748.7491,N,12217.6971,W,3.02,351.19,090611,,,A*72
$GPVTG,351.19,T,,M,3.02,N,5.6,K,A*00
$GPGGA,185917.000,3748.7492,N,12217.6967,W,1,06,1.3,17.4,M,-25.1,M,,0000*59
$GPGSA,A,3,03,13,16,07,20,32,,,,,,,2.3,1.3,1.9*3B
$GPRMC,185917.000,A,3748.7492,N,12217.6967,W,2.23,4.13,090611,,,A*7C
$GPVTG,4.13,T,,M,2.23,N,4.1,K,A*0D
$GPGGA,185918.000,3748.7496,N,12217.6956,W,1,06,1.3,17.4,M,-25.1,M,,0000*50
$GPGSA,A,3,03,13,16,07,20,32,,,,,,,2.3,1.3,1.9*3B
$GPGSV,3,1,12,23,70,022,32,20,54,182,22,16,50,084,36,13,50,315,22*7C
$GPGSV,3,2,12,32,35,156,34,07,28,246,20,10,16,317,20,04,14,286,20*78
$GPGSV,3,3,12,03,06,123,20,06,05,108,17,08,04,237,,31,00,055,*79
$GPRMC,185918.000,A,3748.7496,N,12217.6956,W,2.32,26.22,090611,,,A*47
$GPVTG,26.22,T,,M,2.32,N,4.3,K,A*3D
$GPGGA,185919.000,3748.7501,N,12217.6945,W,1,06,1.3,16.6,M,-25.1,M,,0000*5F
$GPGSA,A,3,03,13,16,07,20,32,,,,,,,2.3,1.3,1.9*3B
$GPRMC,185919.000,A,3748.7501,N,12217.6945,W,2.41,27.83,090611,,,A*45
$GPVTG,27.83,T,,M,2.41,N,4.5,K,A*35
$GPGGA,185920.000,3748.7508,N,12217.6939,W,1,06,1.3,15.9,M,-25.1,M,,0000*5B
$GPGSA,A,3,03,13,16,07,20,32,,,,,,,2.3,1.3,1.9*3B
$GPRMC,185920.000,A,3748.7508,N,12217.6939,W,2.31,22.97,090611,,,A*4A
$GPVTG,22.97,T,,M,2.31,N,4.3,K,A*34
$GPGGA,185921.000,3748.7515,N,12217.6935,W,1,06,1.3,15.4,M,-25.1,M,,0000*57
$GPGSA,A,3,03,13,16,07,20,32,,,,,,,2.3,1.3,1.9*3B
$GPRMC,185921.000,A,3748.7515,N,12217.6935,W,2.29,26.83,090611,,,A*43
$GPVTG,26.83,T,,M,2.29,N,4.2,K,A*3D
$GPGGA,185922.000,3748.7526,N,12217.6933,W,1,06,1.3,12.3,M,-25.1,M,,0000*52
$GPGSA,A,3,03,13,16,07,20,32,,,,,,,2.4,1.3,1.9*3C
$GPRMC,185922.000,A,3748.7526,N,12217.6933,W,2.14,21.30,090611,,,A*47
$GPVTG,21.30,T,,M,2.14,N,4.0,K,A*3E
$GPGGA,185923.000,3748.7539,N,12217.6931,W,1,06,1.3,9.9,M,-25.1,M,,0000*6F
$GPGSA,A,3,03,13,16,07,20,32,,,,,,,2.4,1.3,1.9*3C
$GPGSV,3,1,12,23,70,022,33,20,54,182,24,16,50,084,37,13,50,315,29*71
$GPGSV,3,2,12,32,35,156,28,07,28,246,20,10,16,317,19,04,14,286,20*7F
$GPGSV,3,3,12,03,06,123,20,06,05,108,17,08,04,237,,31,00,055,*79
$GPVTG,30.67,T,,M,2.17,N,4.0,K,A*3F
$GPGGA,185924.000,3748.7549,N,12217.6927,W,1,06,1.3,8.7,M,-25.1,M,,0000*67
$GPGSA,A,3,03,13,16,07,20,32,,,,,,,2.4,1.3,1.9*3C
$GPRMC,185924.000,A,3748.7549,N,12217.6927,W,2.65,32.46,090611,,,A*48
$GPVTG,32.46,T,,M,2.65,N,4.9,K,A*32
$GPGGA,185925.000,3748.7557,N,12217.6923,W,1,06,1.3,8.3,M,-25.1,M,,0000*69
$GPGSA,A,3,03,13,16,07,20,32,,,,,,,2.4,1.3,1.9*3C
$GPRMC,185925.000,A,3748.7557,N,12217.6923,W,2.81,36.13,090611,,,A*4C
$GPVTG,36.13,T,,M,2.81,N,5.2,K,A*36
$GPGGA,185926.000,3748.7565,N,12217.6914,W,1,06,1.3,7.8,M,-25.1,M,,0000*6B
$GPGSA,A,3,03,13,16,07,20,32,,,,,,,2.4,1.3,1.9*3C
$GPRMC,185926.000,A,3748.7565,N,12217.6914,W,3.43,36.65,090611,,,A*44
$GPVTG,36.65,T,,M,3.43,N,6.4,K,A*3D
$GPGGA,185927.000,3748.7578,N,12217.6907,W,1,06,1.3,5.3,M,-25.1,M,,0000*6D
$GPGSA,A,3,03,13,16,07,20,32,,,,,,,2.4,1.3,1.9*3C
$GPRMC,185927.000,A,3748.7578,N,12217.6907,W,3.04,34.38,090611,,,A*42
$GPVTG,34.38,T,,M,3.04,N,5.6,K,A*35
$GPGGA,185928.000,3748.7589,N,12217.6901,W,1,06,1.3,2.2,M,-25.1,M,,0000*6C
$GPGSA,A,3,03,13,16,07,20,32,,,,,,,2.4,1.3,1.9*3C
$GPGSV,3,1,12,23,70,022,33,20,54,182,25,16,50,084,33,13,50,315,28*75
$GPGSV,3,2,12,32,35,156,26,07,28,246,19,10,16,317,20,04,14,286,19*7B
$GPGSV,3,3,12,03,06,123,20,06,05,108,36,08,04,237,,31,00,055,*7A
$GPRMC,185928.000,A,3748.7589,N,12217.6901,W,2.63,24.68,090611,,,A*41
$GPVTG,24.68,T,,M,2.63,N,4.9,K,A*3F
$GPGGA,185929.000,3748.7599,N,12217.6897,W,1,06,1.3,1.5,M,-25.1,M,,0000*66
$GPGSA,A,3,03,13,16,07,20,32,,,,,,,2.4,1.3,1.9*3C
$GPRMC,185929.000,A,3748.7599,N,12217.6897,W,2.40,11.94,090611,,,A*4B
$GPVTG,11.94,T,,M,2.40,N,4.4,K,A*36
$GPGGA,185930.000,3748.7608,N,12217.6895,W,1,06,1.3,1.1,M,-25.1,M,,0000*63
$GPGSA,A,3,03,13,16,07,20,32,,,,,,,2.4,1.3,1.9*3C
$GPRMC,185930.000,A,3748.7608,N,12217.6895,W,2.48,1.52,090611,,,A*79
$GPVTG,1.52,T,,M,2.48,N,4.6,K,A*07
$GPGGA,185931.000,3748.7617,N,12217.6893,W,1,06,1.3,0.1,M,-25.1,M,,0000*6B
$GPGSA,A,3,03,13,16,07,20,32,,,,,,,2.4,1.3,1.9*3C
$GPRMC,185931.000,A,3748.7617,N,12217.6893,W,2.63,12.74,090611,,,A*4F
$GPVTG,12.74,T,,M,2.63,N,4.9,K,A*37
$GPGGA,185932.000,3748.7625,N,12217.6888,W,1,06,1.3,-0.2,M,-25.1,M,,0000*4D
$GPGSA,A,3,03,13,16,07,20,32,,,,,,,2.4,1.3,1.9*3C
$GPRMC,185932.000,A,3748.7625,N,12217.6888,W,2.65,10.20,090611,,,A*42
$GPVTG,10.20,T,,M,2.65,N,4.9,K,A*32
$GPGGA,185933.000,3748.7634,N,12217.6881,W,1,06,1.3,-1.4,M,-25.1,M,,0000*42
$GPGSA,A,3,03,13,16,07,20,32,,,,,,,2.4,1.3,1.9*3C
$GPGSV,3,1,12,23,70,022,33,20,54,182,25,16,50,084,36,13,50,315,24*7C
$GPGSV,3,2,12,32,35,156,32,07,28,246,19,10,16,317,22,04,14,286,19*7C
$GPGSV,3,3,12,03,06,123,35,06,05,108,31,08,04,237,,31,00,055,*79
$GPRMC,185933.000,A,3748.7634,N,12217.6881,W,2.70,9.88,090611,,,A*74
$GPVTG,9.88,T,,M,2.70,N,5.0,K,A*04
$GPGGA,185934.000,3748.7645,N,12217.6879,W,1,06,1.3,-2.5,M,-25.1,M,,0000*46
$GPGSA,A,3,03,13,16,07,20,32,,,,,,,2.4,1.3,1.9*3C
$GPRMC,185934.000,A,3748.7645,N,12217.6879,W,2.98,4.20,090611,,,A*7B
$GPVTG,4.20,T,,M,2.98,N,5.5,K,A*08
$GPGGA,185935.000,3748.7651,N,12217.6871,W,1,06,1.3,-2.9,M,-25.1,M,,0000*46
$GPGSA,A,3,03,13,16,07,20,32,,,,,,,2.4,1.3,1.9*3C
$GPRMC,185935.000,A,3748.7651,N,12217.6871,W,2.71,7.23,090611,,,A*70
$GPVTG,7.23,T,,M,2.71,N,5.0,K,A*0A
$GPGGA,185936.000,3748.7660,N,12217.6867,W,1,06,1.3,-3.3,M,-25.1,M,,0000*4B
$GPGSA,A,3,03,13,16,07,20,32,,,,,,,2.4,1.3,1.9*3C
$GPRMC,185936.000,A,3748.7660,N,12217.6867,W,2.65,4.36,090611,,,A*74
$GPVTG,4.36,T,,M,2.65,N,4.9,K,A*00
$GPGGA,185937.000,3748.7668,N,12217.6861,W,1,06,1.3,-3.1,M,-25.1,M,,0000*46
$GPGSA,A,3,03,13,16,07,20,32,,,,,,,2.4,1.3,1.9*3C
$GPRMC,185937.000,A,3748.7668,N,12217.6861,W,3.05,23.35,090611,,,A*4A
$GPVTG,23.35,T,,M,3.05,N,5.7,K,A*3E
$GPGGA,185938.000,3748.7676,N,12217.6854,W,1,06,1.3,-3.2,M,-25.1,M,,0000*43
$GPGSA,A,3,03,13,16,07,20,32,,,,,,,2.4,1.3,1.9*3C
$GPGSV,3,1,12,23,70,022,33,20,54,182,27,16,50,084,36,13,50,315,28*72
$GPGSV,3,2,12,32,35,156,33,07,28,246,20,10,16,317,20,04,14,286,26*79
$GPGSV,3,3,12,03,06,123,36,06,05,108,26,08,04,237,,31,00,055,*7C
$GPVTG,15.10,T,,M,2.94,N,5.4,K,A*36
$GPGGA,185939.000,3748.7683,N,12217.6847,W,1,06,1.3,-3.0,M,-25.1,M,,0000*48
$GPGSA,A,3,03,13,16,07,20,32,,,,,,,2.4,1.3,1.9*3C
$GPRMC,185939.000,A,3748.7683,N,12217.6847,W,2.83,26.58,090611,,,A*44
$GPVTG,26.58,T,,M,2.83,N,5.2,K,A*3A
$GPGGA,185940.000,3748.7688,N,12217.6839,W,1,06,1.3,-2.7,M,-25.1,M,,0000*42
$GPGSA,A,3,03,13,16,07,20,32,,,,,,,2.4,1.3,1.9*3C
$GPRMC,185940.000,A,3748.7688,N,12217.6839,W,2.22,19.43,090611,,,A*45
$GPVTG,19.43,T,,M,2.22,N,4.1,K,A*35
$GPGGA,185941.000,3748.7694,N,12217.6834,W,1,06,1.3,-2.6,M,-25.1,M,,0000*42
$GPGSA,A,3,03,13,16,07,20,32,,,,,,,2.4,1.3,1.9*3C
$GPRMC,185941.000,A,3748.7694,N,12217.6834,W,2.15,18.88,090611,,,A*46
$GPVTG,18.88,T,,M,2.15,N,4.0,K,A*36
$GPGGA,185942.000,3748.7700,N,12217.6829,W,1,06,1.3,-2.8,M,-25.1,M,,0000*4F
$GPGSA,A,3,03,13,16,07,20,32,,,,,,,2.4,1.3,1.9*3C
$GPRMC,185942.000,A,3748.7700,N,12217.6829,W,2.27,23.73,090611,,,A*48
$GPVTG,23.73,T,,M,2.27,N,4.2,K,A*39
$GPGGA,185943.000,3748.7701,N,12217.6819,W,1,06,1.3,-1.4,M,-25.1,M,,0000*43
$GPGSA,A,3,03,13,16,07,20,32,,,,,,,2.4,1.3,1.9*3C
$GPGSV,3,1,12,23,70,022,33,20,54,182,28,16,50,084,37,13,50,315,27*73
$GPGSV,3,2,12,32,35,156,33,07,28,246,21,10,16,317,21,04,14,286,18*74
$GPGSV,3,3,12,03,06,123,35,06,05,108,18,08,04,237,,31,00,055,*72
$GPRMC,185943.000,A,3748.7701,N,12217.6819,W,2.46,33.73,090611,,,A*4D
$GPVTG,33.73,T,,M,2.46,N,4.6,K,A*3B
$GPGGA,185944.000,3748.7699,N,12217.6808,W,1,06,1.3,0.7,M,-25.1,M,,0000*6B
$GPGSA,A,3,03,13,16,07,20,32,,,,,,,2.4,1.3,1.9*3C
$GPRMC,185944.000,A,3748.7699,N,12217.6808,W,2.58,34.76,090611,,,A*47
$GPVTG,34.76,T,,M,2.58,N,4.8,K,A*38
$GPGGA,185945.000,3748.7704,N,12217.6803,W,1,06,1.3,1.5,M,-25.1,M,,0000*67
$GPGSA,A,3,03,13,16,07,20,32,,,,,,,2.4,1.3,1.9*3C
$GPRMC,185945.000,A,3748.7704,N,12217.6803,W,2.68,21.40,090611,,,A*4A
$GPVTG,21.40,T,,M,2.68,N,5.0,K,A*33
$GPGGA,185946.000,3748.7707,N,12217.6796,W,1,06,1.3,3.0,M,-25.1,M,,0000*63
$GPGSA,A,3,03,13,16,07,20,32,,,,,,,2.4,1.3,1.9*3C
$GPRMC,185946.000,A,3748.7707,N,12217.6796,W,2.59,35.71,090611,,,A*4C
$GPVTG,35.71,T,,M,2.59,N,4.8,K,A*3F
$GPGGA,185947.000,3748.7713,N,12217.6793,W,1,06,1.3,3.7,M,-25.1,M,,0000*65
$GPGSA,A,3,03,13,16,07,20,32,,,,,,,2.4,1.3,1.9*3C
$GPRMC,185947.000,A,3748.7713,N,12217.6793,W,2.45,27.81,090611,,,A*4C
$GPVTG,27.81,T,,M,2.45,N,4.5,K,A*33
$GPGGA,185948.000,3748.7722,N,12217.6793,W,1,06,1.3,3.7,M,-25.1,M,,0000*68
$GPGSA,A,3,03,13,16,07,20,32,,,,,,,2.4,1.3,1.9*3C
$GPGSV,3,1,12,23,70,022,33,20,54,182,28,16,50,084,37,13,50,315,27*73
$GPGSV,3,2,12,32,35,156,33,07,28,246,22,10,16,317,26,04,14,286,21*7A
$GPGSV,3,3,12,03,06,123,20,06,05,108,18,08,04,237,,31,00,055,*76
$GPRMC,185948.000,A,3748.7722,N,12217.6793,W,2.68,13.83,090611,,,A*4B
$GPVTG,13.83,T,,M,2.68,N,5.0,K,A*3D
$GPGGA,185949.000,3748.7731,N,12217.6789,W,1,06,1.3,3.6,M,-25.1,M,,0000*61
$GPGSA,A,3,03,13,16,07,20,32,,,,,,,2.4,1.3,1.9*3C
$GPRMC,185949.000,A,3748.7731,N,12217.6789,W,2.83,23.43,090611,,,A*49
$GPVTG,23.43,T,,M,2.83,N,5.2,K,A*35
$GPGGA,185950.000,3748.7739,N,12217.6784,W,1,06,1.3,3.5,M,-25.1,M,,0000*6F
$GPGSA,A,3,03,13,16,07,20,32,,,,,,,2.4,1.3,1.9*3C
$GPRMC,185950.000,A,3748.7739,N,12217.6784,W,2.35,21.97,090611,,,A*42
$GPVTG,21.97,T,,M,2.35,N,4.4,K,A*34
$GPGGA,185951.000,3748.7747,N,12217.6781,W,1,06,1.3,3.5,M,-25.1,M,,0000*62
$GPGSA,A,3,03,13,16,07,20,32,,,,,,,2.4,1.3,1.9*3C
$GPRMC,185951.000,A,3748.7747,N,12217.6781,W,2.25,16.00,090611,,,A*44
$GPVTG,16.00,T,,M,2.25,N,4.2,K,A*39
$GPGGA,185952.000,3748.7754,N,12217.6777,W,1,06,1.3,3.5,M,-25.1,M,,0000*6A
$GPGSA,A,3,03,13,16,07,20,32,,,,,,,2.4,1.3,1.9*3C
$GPRMC,185952.000,A,3748.7754,N,12217.6777,W,2.05,19.58,090611,,,A*4C
$GPVTG,19.58,T,,M,2.05,N,3.8,K,A*34
$GPGGA,185953.000,3748.7757,N,12217.6771,W,1,06,1.3,4.4,M,-25.1,M,,0000*68
$GPGSA,A,3,03,13,16,07,20,32,,,,,,,2.4,1.3,1.9*3C
$GPGSV,3,1,12,23,70,022,25,20,54,182,28,16,50,084,38,13,50,315,27*7B
$GPGSV,3,2,12,32,35,156,33,07,28,246,22,10,16,317,18,04,14,286,22*74
$GPGSV,3,3,12,03,06,123,19,06,05,108,18,08,04,237,,31,00,055,*7C
$GPVTG,25.07,T,,M,2.03,N,3.8,K,A*37
$GPGGA,185954.000,3748.7762,N,12217.6764,W,1,06,1.3,4.6,M,-25.1,M,,0000*6F
$GPGSA,A,3,03,13,16,07,20,32,,,,,,,2.4,1.3,1.9*3C
$GPRMC,185954.000,A,3748.7762,N,12217.6764,W,2.17,26.86,090611,,,A*41
$GPVTG,26.86,T,,M,2.17,N,4.0,K,A*37
$GPGGA,185955.000,3748.7766,N,12217.6755,W,1,06,1.3,4.9,M,-25.1,M,,0000*67
$GPGSA,A,3,03,13,16,07,20,32,,,,,,,2.4,1.3,1.9*3C
$GPRMC,185955.000,A,3748.7766,N,12217.6755,W,2.05,33.41,090611,,,A*4A
$GPVTG,33.41,T,,M,2.05,N,3.8,K,A*34
$GPGGA,185956.000,3748.7771,N,12217.6745,W,1,06,1.3,4.9,M,-25.1,M,,0000*63
$GPGSA,A,3,03,13,16,07,20,32,,,,,,,2.4,1.3,1.9*3C
$GPRMC,185956.000,A,3748.7771,N,12217.6745,W,2.22,37.36,090611,,,A*4F
$GPVTG,37.36,T,,M,2.22,N,4.1,K,A*3B
$GPGGA,185957.000,3748.7777,N,12217.6738,W,1,06,1.3,4.6,M,-25.1,M,,0000*61
$GPGSA,A,3,03,13,16,07,20,32,,,,,,,2.4,1.3,1.9*3C
$GPRMC,185957.000,A,3748.7777,N,12217.6738,W,2.34,36.28,090611,,,A*4B
$GPVTG,36.28,T,,M,2.34,N,4.3,K,A*30
$GPGGA,185958.000,3748.7784,N,12217.6732,W,1,06,1.3,5.0,M,-25.1,M,,0000*6F
$GPGSA,A,3,03,13,16,07,20,32,,,,,,,2.4,1.3,2.0*36
$GPGSV,3,1,12,23,70,022,33,20,54,182,27,16,50,084,38,13,50,315,27*73
$GPGSV,3,2,12,32,35,156,33,07,28,246,21,10,16,317,20,04,14,286,21*7F
$GPGSV,3,3,12,03,06,123,21,06,05,108,23,08,04,237,,31,00,055,*7F
$GPRMC,185958.000,A,3748.7784,N,12217.6732,W,2.36,25.22,090611,,,A*48
$GPVTG,25.22,T,,M,2.36,N,4.4,K,A*3D
$GPGGA,185959.000,3748.7790,N,12217.6726,W,1,06,1.3,5.5,M,-25.1,M,,0000*6B
$GPGSA,A,3,03,13,16,07,20,32,,,,,,,2.4,1.3,2.0*36
$GPRMC,185959.000,A,3748.7790,N,12217.6726,W,2.55,35.29,090611,,,A*46
$GPVTG,35.29,T,,M,2.55,N,4.7,K,A*31
$GPGGA,190000.000,3748.7798,N,12217.6721,W,1,06,1.3,6.2,M,-25.1,M,,0000*61
$GPGSA,A,3,03,13,16,07,20,32,,,,,,,2.4,1.3,2.0*36
$GPRMC,190000.000,A,3748.7798,N,12217.6721,W,2.59,24.96,090611,,,A*40
$GPVTG,24.96,T,,M,2.59,N,4.8,K,A*36
$GPGGA,190001.000,3748.7811,N,12217.6717,W,1,06,1.3,4.3,M,-25.1,M,,0000*68
$GPGSA,A,3,03,13,16,07,20,32,,,,,,,2.4,1.3,2.0*36
$GPRMC,190001.000,A,3748.7811,N,12217.6717,W,2.70,23.28,090611,,,A*43
$GPVTG,23.28,T,,M,2.70,N,5.0,K,A*36
$GPGGA,190002.000,3748.7818,N,12217.6714,W,2,06,1.3,4.6,M,-25.1,M,,0000*67
$GPGSA,A,3,03,13,16,07,20,32,,,,,,,2.4,1.3,2.0*36
$GPRMC,190002.000,A,3748.7818,N,12217.6714,W,2.31,24.07,090611,,,D*40
$GPVTG,24.07,T,,M,2.31,N,4.3,K,D*3E
$GPGGA,190003.000,3748.7824,N,12217.6711,W,2,06,1.3,4.2,M,-25.1,M,2.8,0000*4C
$GPGSA,A,3,03,13,16,07,20,32,,,,,,,2.4,1.3,2.0*36
$GPGSV,3,1,12,23,70,022,33,20,54,182,23,16,50,084,38,13,50,315,27*77
$GPGSV,3,2,12,32,35,156,32,07,28,246,20,10,16,317,13,04,14,286,25*7B
$GPGSV,3,3,12,03,06,123,21,06,05,108,34,08,04,237,,31,00,055,*79
$GPRMC,190003.000,A,3748.7824,N,12217.6711,W,2.21,30.20,090611,,,D*4A
$GPVTG,30.20,T,,M,2.21,N,4.1,K,D*3D
$GPGGA,190004.000,3748.7828,N,12217.6705,W,2,06,1.3,4.4,M,-25.1,M,3.8,0000*45
$GPGSA,A,3,03,13,16,07,20,32,,,,,,,2.4,1.3,2.0*36
$GPRMC,190004.000,A,3748.7828,N,12217.6705,W,2.10,32.14,090611,,,D*43
$GPVTG,32.14,T,,M,2.10,N,3.9,K,D*35
$GPGGA,190005.000,3748.7833,N,12217.6696,W,2,06,1.3,3.9,M,-25.1,M,4.8,0000*48
$GPGSA,A,3,03,13,16,07,20,32,,,,,,,2.4,1.3,2.0*36
$GPRMC,190005.000,A,3748.7833,N,12217.6696,W,2.82,33.85,090611,,,D*41
$GPVTG,33.85,T,,M,2.82,N,5.2,K,D*3A
$GPGGA,190006.000,3748.7840,N,12217.6690,W,2,06,1.3,3.4,M,-25.1,M,,0000*66
$GPGSA,A,3,03,13,16,07,20,32,,,,,,,2.4,1.3,2.0*36
$GPRMC,190006.000,A,3748.7840,N,12217.6690,W,2.60,25.26,090611,,,D*42
$GPVTG,25.26,T,,M,2.60,N,4.8,K,D*33
$GPGGA,190007.000,3748.7846,N,12217.6683,W,2,06,1.3,3.3,M,-25.1,M,2.8,0000*40
$GPGSA,A,3,03,13,16,07,20,32,,,,,,,2.4,1.3,2.0*36
$GPRMC,190007.000,A,3748.7846,N,12217.6683,W,2.75,31.79,090611,,,D*4C
$GPVTG,31.79,T,,M,2.75,N,5.1,K,D*30
$GPGGA,190008.000,3748.7852,N,12217.6677,W,2,06,1.3,3.2,M,-25.1,M,,0000*64
$GPGSA,A,3,03,13,16,07,20,32,,,,,,,2.4,1.3,2.0*36
$GPGSV,3,1,12,23,70,022,33,20,54,182,25,16,50,084,38,13,50,315,27*71
$GPGSV,3,2,12,32,35,156,32,07,28,246,21,10,16,317,22,04,14,286,20*7D
$GPGSV,3,3,12,03,06,123,33,06,05,108,22,08,04,237,,31,00,055,*7D
$GPRMC,190008.000,A,3748.7852,N,12217.6677,W,2.38,26.36,090611,,,D*49
$GPGGA,190009.000,3748.7862,N,12217.6673,W,2,06,1.3,1.8,M,-25.1,M,2.8,0000*4E
$GPGSA,A,3,03,13,16,07,20,32,,,,,,,2.4,1.3,2.0*36
$GPRMC,190009.000,A,3748.7862,N,12217.6673,W,2.28,17.40,090611,,,D*4D
$GPVTG,17.40,T,,M,2.28,N,4.2,K,D*34
$GPGGA,190010.000,3748.7869,N,12217.6669,W,2,06,1.3,2.0,M,-25.1,M,3.8,0000*4C
$GPGSA,A,3,03,13,16,07,20,32,,,,,,,2.4,1.3,2.0*36
$GPRMC,190010.000,A,3748.7869,N,12217.6669,W,2.56,9.85,090611,,,D*7A
$GPVTG,9.85,T,,M,2.56,N,4.7,K,D*0E
$GPGGA,190011.000,3748.7877,N,12217.6665,W,2,06,1.3,1.5,M,-25.1,M,4.8,0000*4F
$GPGSA,A,3,03,13,16,07,20,32,,,,,,,2.4,1.3,2.0*36
$GPRMC,190011.000,A,3748.7877,N,12217.6665,W,2.62,11.91,090611,,,D*43
$GPVTG,11.91,T,,M,2.62,N,4.9,K,D*3B
$GPGGA,190012.000,3748.7884,N,12217.6660,W,2,06,1.3,1.6,M,-25.1,M,5.8,0000*47
$GPGSA,A,3,03,13,16,07,20,32,,,,,,,2.4,1.3,2.0*36
$GPRMC,190012.000,A,3748.7884,N,12217.6660,W,2.51,13.50,090611,,,D*46
$GPVTG,13.50,T,,M,2.51,N,4.7,K,D*3A
$GPGGA,190013.000,3748.7889,N,12217.6654,W,2,06,1.3,2.6,M,-25.1,M,6.8,0000*4C
$GPGSA,A,3,03,13,16,07,20,32,,,,,,,2.4,1.3,2.0*36
$GPGSV,3,1,12,23,70,022,33,20,54,182,26,16,50,084,38,13,50,315,26*73
$GPGSV,3,2,12,32,35,156,32,07,28,246,21,10,16,317,20,04,14,286,19*75
$GPGSV,3,3,12,03,06,123,21,06,05,108,21,08,04,237,,31,00,055,*7D
$GPRMC,190013.000,A,3748.7889,N,12217.6654,W,2.31,18.77,090611,,,D*45
$GPVTG,18.77,T,,M,2.31,N,4.3,K,D*36
$GPGGA,190014.000,3748.7895,N,12217.6650,W,2,06,1.3,3.4,M,-25.1,M,,0000*61
$GPGSA,A,3,03,13,16,07,20,32,,,,,,,2.4,1.3,2.0*36
$GPRMC,190014.000,A,3748.7895,N,12217.6650,W,2.33,33.61,090611,,,D*47
$GPVTG,33.61,T,,M,2.33,N,4.3,K,D*3A
$GPGGA,190015.000,3748.7898,N,12217.6642,W,2,06,1.3,4.6,M,-25.1,M,2.8,0000*4F
$GPGSA,A,3,03,13,16,07,20,32,,,,,,,2.4,1.3,2.0*36
$GPRMC,190015.000,A,3748.7898,N,12217.6642,W,1.99,36.57,090611,,,D*4B
$GPVTG,36.57,T,,M,1.99,N,3.7,K,D*3A
$GPGGA,190016.000,3748.7906,N,12217.6639,W,2,06,1.3,5.1,M,-25.1,M,3.8,0000*41
$GPGSA,A,3,03,13,16,07,20,32,,,,,,,2.4,1.3,2.0*36
$GPRMC,190016.000,A,3748.7906,N,12217.6639,W,2.26,23.50,090611,,,D*46
$GPVTG,23.50,T,,M,2.26,N,4.2,K,D*3C
$GPGGA,190017.000,3748.7910,N,12217.6631,W,2,06,1.3,6.2,M,-25.1,M,4.8,0000*48
$GPGSA,A,3,03,13,16,07,20,32,,,,,,,2.4,1.3,2.0*36
$GPRMC,190017.000,A,3748.7910,N,12217.6631,W,2.65,28.63,090611,,,D*44
$GPVTG,28.63,T,,M,2.65,N,4.9,K,D*3B
$GPGGA,190018.000,3748.7918,N,12217.6627,W,2,06,1.3,6.5,M,-25.1,M,,0000*6D
$GPGSA,A,3,03,13,16,07,20,32,,,,,,,2.4,1.3,2.0*36
$GPGSV,3,1,12,23,70,022,33,20,54,182,27,16,50,084,38,13,50,315,28*7C
$GPGSV,3,2,12,32,35,156,33,07,28,246,22,10,16,317,21,04,14,286,19*76
$GPGSV,3,3,12,03,06,123,19,06,05,108,21,08,04,237,,31,00,055,*76
$GPRMC,190018.000,A,3748.7918,N,12217.6627,W,2.64,20.09,090611,,,D*41
$GPVTG,20.09,T,,M,2.64,N,4.9,K,D*3E
$GPGGA,190019.000,3748.7926,N,12217.6623,W,2,06,1.3,6.9,M,-25.1,M,2.8,0000*4D
$GPGSA,A,3,03,13,16,07,20,32,,,,,,,2.4,1.3,2.0*36
$GPRMC,190019.000,A,3748.7926,N,12217.6623,W,2.39,21.08,090611,,,D*41
$GPVTG,21.08,T,,M,2.39,N,4.4,K,D*3B
$GPGGA,190020.000,3748.7934,N,12217.6621,W,2,06,1.3,6.6,M,-25.1,M,3.8,0000*48
$GPGSA,A,3,03,13,16,07,20,32,,,,,,,2.4,1.3,2.0*36
$GPRMC,190020.000,A,3748.7934,N,12217.6621,W,2.20,17.20,090611,,,D*4D
$GPVTG,17.20,T,,M,2.20,N,4.1,K,D*39
$GPGGA,190021.000,3748.7942,N,12217.6617,W,2,06,1.3,5.9,M,-25.1,M,4.8,0000*46
$GPGSA,A,3,03,13,16,07,20,32,,,,,,,2.4,1.3,2.0*36
$GPRMC,190021.000,A,3748.7942,N,12217.6617,W,2.38,12.71,090611,,,D*40
$GPVTG,12.71,T,,M,2.38,N,4.4,K,D*34
$GPGGA,190022.000,3748.7949,N,12217.6613,W,2,06,1.3,6.1,M,-25.1,M,5.8,0000*40
$GPGSA,A,3,03,13,16,07,20,32,,,,,,,2.4,1.3,2.0*36
$GPRMC,190022.000,A,3748.7949,N,12217.6613,W,2.60,23.17,090611,,,D*43
$GPVTG,23.17,T,,M,2.60,N,4.8,K,D*37
$GPGGA,190023.000,3748.7956,N,12217.6608,W,2,06,1.3,6.3,M,-25.1,M,6.8,0000*44
$GPGSA,A,3,03,13,16,07,20,32,,,,,,,2.4,1.3,2.0*36
$GPGSV,3,1,12,23,70,022,33,20,54,182,28,16,50,084,38,13,50,315,27*7C
$GPGSV,3,2,12,32,35,156,33,07,28,246,23,10,16,317,22,04,14,286,20*7E
$GPGSV,3,3,12,03,06,123,29,06,05,108,16,08,04,237,,31,00,055,*71
$GPVTG,26.14,T,,M,2.78,N,5.2,K,D*33
$GPGGA,190024.000,3748.7963,N,12217.6601,W,2,06,1.3,6.4,M,-25.1,M,7.8,0000*4A
$GPGSA,A,3,03,13,16,07,20,32,,,,,,,2.4,1.3,2.0*36
$GPRMC,190024.000,A,3748.7963,N,12217.6601,W,2.62,32.01,090611,,,D*4B
$GPVTG,32.01,T,,M,2.62,N,4.9,K,D*33
$GPGGA,190025.000,3748.7970,N,12217.6595,W,2,04,2.1,6.9,M,-25.1,M,8.8,0000*46
$GPGSA,A,3,16,07,20,32,,,,,,,,,5.2,2.1,4.8*39
$GPRMC,190025.000,A,3748.7970,N,12217.6595,W,2.60,16.68,090611,,,D*4D
$GPVTG,16.68,T,,M,2.60,N,4.8,K,D*39
$GPGGA,190026.000,3748.7976,N,12217.6585,W,2,05,1.6,9.1,M,-25.1,M,1.8,0000*49
$GPGSA,A,3,13,16,07,20,32,,,,,,,,4.8,1.6,4.5*39
$GPRMC,190026.000,A,3748.7976,N,12217.6585,W,2.06,20.35,090611,,,D*44
$GPVTG,20.35,T,,M,2.06,N,3.8,K,D*33
$GPGGA,190027.000,3748.7984,N,12217.6582,W,2,05,1.6,9.1,M,-25.1,M,2.8,0000*41
$GPGSA,A,3,13,16,07,20,32,,,,,,,,4.8,1.6,4.5*39
$GPRMC,190027.000,A,3748.7984,N,12217.6582,W,2.11,19.01,090611,,,D*44
$GPVTG,19.01,T,,M,2.11,N,3.9,K,D*39
$GPGGA,190028.000,3748.7990,N,12217.6580,W,2,05,1.6,9.9,M,-25.1,M,3.8,0000*40
$GPGSA,A,3,13,16,07,20,32,,,,,,,,4.8,1.6,4.5*39
$GPGSV,3,1,12,23,70,022,33,20,54,182,28,16,50,084,38,13,50,315,23*78
$GPGSV,3,2,12,32,35,156,33,07,28,246,23,10,16,317,21,04,14,286,20*7D
$GPGSV,3,3,12,03,06,123,,06,05,108,,08,04,237,,31,00,055,*7D
$GPRMC,190028.000,A,3748.7990,N,12217.6580,W,2.46,15.83,090611,,,D*48
$GPVTG,15.83,T,,M,2.46,N,4.5,K,D*36
$GPGGA,190029.000,3748.7996,N,12217.6566,W,2,05,1.6,12.7,M,-25.1,M,4.8,0000*7C
$GPGSA,A,3,13,16,07,20,32,,,,,,,,4.8,1.6,4.5*39
$GPRMC,190029.000,A,3748.7996,N,12217.6566,W,2.37,26.29,090611,,,D*41
$GPVTG,26.29,T,,M,2.37,N,4.4,K,D*31
$GPGGA,190030.000,3748.8004,N,12217.6560,W,2,06,1.3,12.6,M,-25.1,M,1.8,0000*7D
$GPGSA,A,3,03,13,16,07,20,32,,,,,,,2.4,1.3,2.0*36
$GPRMC,190030.000,A,3748.8004,N,12217.6560,W,2.56,30.57,090611,,,D*4B
$GPVTG,30.57,T,,M,2.56,N,4.7,K,D*3B
$GPGGA,190031.000,3748.8013,N,12217.6559,W,2,06,1.3,12.8,M,-25.1,M,,0000*59
$GPGSA,A,3,03,13,16,07,20,32,,,,,,,2.4,1.3,2.0*36
$GPRMC,190031.000,A,3748.8013,N,12217.6559,W,2.16,26.63,090611,,,D*42
$GPVTG,26.63,T,,M,2.16,N,4.0,K,D*38
$GPGGA,190032.000,3748.8021,N,12217.6554,W,2,06,1.3,12.0,M,-25.1,M,,0000*5E
$GPGSA,A,3,03,13,16,07,20,32,,,,,,,2.4,1.3,2.0*36
$GPRMC,190032.000,A,3748.8021,N,12217.6554,W,2.94,33.51,090611,,,D*42
$GPVTG,33.51,T,,M,2.94,N,5.5,K,D*33
$GPGGA,190033.000,3748.8028,N,12217.6547,W,2,06,1.3,11.8,M,-25.1,M,2.8,0000*7B
$GPGSA,A,3,03,13,16,07,20,32,,,,,,,2.4,1.3,2.0*36
$GPGSV,3,1,12,23,70,022,33,20,54,182,26,16,50,084,37,13,50,315,24*7E
$GPGSV,3,2,12,32,35,156,33,07,28,246,19,10,16,317,22,04,14,286,20*77
$GPGSV,3,3,12,03,06,123,34,06,05,108,,08,04,237,,31,00,055,*7A
$GPRMC,190033.000,A,3748.8028,N,12217.6547,W,2.70,37.85,090611,,,D*4F
$GPVTG,37.85,T,,M,2.70,N,5.0,K,D*31
$GPGGA,190034.000,3748.8036,N,12217.6542,W,2,06,1.3,10.8,M,-25.1,M,3.8,0000*76
$GPGSA,A,3,03,13,16,07,20,32,,,,,,,2.4,1.3,2.0*36
$GPRMC,190034.000,A,3748.8036,N,12217.6542,W,2.56,26.85,090611,,,D*46
$GPVTG,26.85,T,,M,2.56,N,4.7,K,D*33
$GPGGA,190035.000,3748.8042,N,12217.6533,W,2,06,1.3,10.3,M,-25.1,M,4.8,0000*7E
$GPGSA,A,3,03,13,16,07,20,32,,,,,,,2.4,1.3,2.0*36
$GPRMC,190035.000,A,3748.8042,N,12217.6533,W,2.93,41.57,090611,,,D*45
$GPVTG,41.57,T,,M,2.93,N,5.4,K,D*36
$GPGGA,190036.000,3748.8047,N,12217.6527,W,2,06,1.3,10.5,M,-25.1,M,,0000*59
$GPGSA,A,3,03,13,16,07,20,32,,,,,,,2.4,1.3,2.0*36
$GPRMC,190036.000,A,3748.8047,N,12217.6527,W,2.50,35.90,090611,,,D*41
$GPVTG,35.90,T,,M,2.50,N,4.6,K,D*32
$GPGGA,190037.000,3748.8051,N,12217.6519,W,2,06,1.3,10.8,M,-25.1,M,,0000*5F
$GPGSA,A,3,03,13,16,07,20,32,,,,,,,2.4,1.3,2.0*36
$GPRMC,190037.000,A,3748.8051,N,12217.6519,W,2.56,26.84,090611,,,D*4B
$GPVTG,26.84,T,,M,2.56,N,4.7,K,D*32
$GPGGA,190038.000,3748.8055,N,12217.6512,W,2,06,1.3,11.2,M,-25.1,M,,0000*54
$GPGSA,A,3,03,13,16,07,20,32,,,,,,,2.4,1.3,2.0*36
$GPGSV,3,1,12,23,70,022,33,20,54,182,28,16,50,084,37,13,50,315,23*77
$GPGSV,3,2,12,32,35,156,32,07,28,246,20,10,16,317,22,04,14,286,21*7D
$GPGSV,3,3,12,03,06,123,37,06,05,108,24,08,04,237,,31,00,055,*7F
$GPVTG,37.18,T,,M,2.64,N,4.9,K,D*38
$GPGGA,190039.000,3748.8061,N,12217.6506,W,2,06,1.3,11.3,M,-25.1,M,2.8,0000*72
$GPGSA,A,3,03,13,16,07,20,32,,,,,,,2.4,1.3,2.0*36
$GPRMC,190039.000,A,3748.8061,N,12217.6506,W,2.88,23.54,090611,,,D*43
$GPVTG,23.54,T,,M,2.88,N,5.3,K,D*3C
$GPGGA,190040.000,3748.8066,N,12217.6497,W,2,06,1.3,11.8,M,-25.1,M,3.8,0000*78
$GPGSA,A,3,03,13,16,07,20,32,,,,,,,2.4,1.3,2.0*36
$GPRMC,190040.000,A,3748.8066,N,12217.6497,W,2.91,41.08,090611,,,D*46
$GPVTG,41.08,T,,M,2.91,N,5.4,K,D*3E
$GPGGA,190041.000,3748.8067,N,12217.6488,W,2,06,1.3,13.1,M,-25.1,M,4.8,0000*7A
$GPGSA,A,3,03,13,16,07,20,32,,,,,,,2.4,1.3,2.0*36
$GPRMC,190041.000,A,3748.8067,N,12217.6488,W,2.52,39.41,090611,,,D*45
$GPVTG,39.41,T,,M,2.52,N,4.7,K,D*31
$GPGGA,190042.000,3748.8073,N,12217.6482,W,2,06,1.3,13.4,M,-25.1,M,,0000*51
$GPGSA,A,3,03,13,16,07,20,32,,,,,,,2.4,1.3,2.0*36
$GPRMC,190042.000,A,3748.8073,N,12217.6482,W,2.52,41.31,090611,,,D*41
$GPVTG,41.31,T,,M,2.52,N,4.7,K,D*39
$GPGGA,190043.000,3748.8080,N,12217.6477,W,2,05,1.6,13.6,M,-25.1,M,,0000*52
$GPGSA,A,3,13,16,07,20,32,,,,,,,,4.8,1.6,4.5*39
$GPGSV,3,1,12,23,70,026,32,20,53,182,29,13,50,316,24,16,50,082,37*76
$GPGSV,3,2,12,32,34,157,33,07,29,247,24,10,16,317,21,04,14,285,21*78
$GPGSV,3,3,12,03,07,122,17,06,05,107,17,08,04,237,,02,00,323,*70
$GPRMC,190043.000,A,3748.8080,N,12217.6477,W,2.41,39.40,090611,,,D*4D
$GPVTG,39.40,T,,M,2.41,N,4.5,K,D*30
$GPGGA,190044.000,3748.8091,N,12217.6476,W,2,05,1.6,13.0,M,-25.1,M,2.8,0000*76
$GPGSA,A,3,13,16,07,20,32,,,,,,,,4.8,1.6,4.5*39
$GPRMC,190044.000,A,3748.8091,N,12217.6476,W,2.72,14.09,090611,,,D*49
$GPVTG,14.09,T,,M,2.72,N,5.0,K,D*36
$GPGGA,190045.000,3748.8099,N,12217.6475,W,2,04,1.8,13.4,M,-25.1,M,3.8,0000*76
$GPGSA,A,3,13,16,20,32,,,,,,,,,6.6,1.8,6.4*3F
$GPRMC,190045.000,A,3748.8099,N,12217.6475,W,2.85,15.18,090611,,,D*4A
$GPVTG,15.18,T,,M,2.85,N,5.3,K,D*3C
$GPGGA,190046.000,3748.8104,N,12217.6470,W,2,05,1.6,14.2,M,-25.1,M,4.8,0000*7C
$GPGSA,A,3,13,16,07,20,32,,,,,,,,4.8,1.6,4.5*39
$GPRMC,190046.000,A,3748.8104,N,12217.6470,W,2.35,18.34,090611,,,D*41
$GPVTG,18.34,T,,M,2.35,N,4.4,K,D*32
$GPGGA,190047.000,3748.8106,N,12217.6462,W,2,05,1.6,15.7,M,-25.1,M,5.8,0000*79
$GPGSA,A,3,13,16,07,20,32,,,,,,,,4.8,1.6,4.6*3A
$GPRMC,190047.000,A,3748.8106,N,12217.6462,W,2.22,29.12,090611,,,D*41
$GPVTG,29.12,T,,M,2.22,N,4.1,K,D*37
$GPGGA,190048.000,3748.8113,N,12217.6459,W,2,05,1.6,16.0,M,-25.1,M,6.8,0000*7D
$GPGSA,A,3,13,16,07,20,32,,,,,,,,4.8,1.6,4.6*3A
$GPGSV,3,1,12,23,70,026,33,20,53,182,28,13,51,317,25,16,50,082,37*77
$GPGSV,3,2,12,32,34,157,33,07,29,247,22,10,16,317,22,04,14,285,21*7D
$GPGSV,3,3,12,03,07,122,,06,05,107,16,08,04,237,,02,00,323,*77
$GPRMC,190048.000,A,3748.8113,N,12217.6459,W,2.61,21.68,090611,,,D*40
$GPVTG,21.68,T,,M,2.61,N,4.8,K,D*3C
$GPGGA,190049.000,3748.8122,N,12217.6456,W,2,05,1.6,16.1,M,-25.1,M,7.8,0000*71
$GPGSA,A,3,13,16,07,20,32,,,,,,,,4.8,1.6,4.6*3A
$GPRMC,190049.000,A,3748.8122,N,12217.6456,W,2.54,20.40,090611,,,D*41
$GPVTG,20.40,T,,M,2.54,N,4.7,K,D*3E
$GPGGA,190050.000,3748.8132,N,12217.6452,W,2,05,1.6,16.5,M,-25.1,M,8.8,0000*77
$GPGSA,A,3,13,16,07,20,32,,,,,,,,4.8,1.6,4.6*3A
$GPRMC,190050.000,A,3748.8132,N,12217.6452,W,2.56,20.11,090611,,,D*4A
$GPVTG,20.11,T,,M,2.56,N,4.7,K,D*38
$GPGGA,190051.000,3748.8142,N,12217.6449,W,2,05,1.6,17.3,M,-25.1,M,9.8,0000*7D
$GPGSA,A,3,13,16,07,20,32,,,,,,,,4.8,1.6,4.6*3A
$GPRMC,190051.000,A,3748.8142,N,12217.6449,W,2.86,26.97,090611,,,D*43
$GPVTG,26.97,T,,M,2.86,N,5.3,K,D*38
$GPGGA,190052.000,3748.8150,N,12217.6438,W,2,05,1.6,17.2,M,-25.1,M,10.8,0000*42
$GPGSA,A,3,13,16,07,20,32,,,,,,,,4.8,1.6,4.6*3A
$GPRMC,190052.000,A,3748.8150,N,12217.6438,W,2.40,30.25,090611,,,D*41
$GPVTG,30.25,T,,M,2.40,N,4.5,K,D*3B
$GPGGA,190053.000,3748.8156,N,12217.6432,W,2,05,1.6,17.5,M,-25.1,M,11.8,0000*49
$GPGSA,A,3,13,16,07,20,32,,,,,,,,4.8,1.6,4.6*3A
$GPGSV,3,1,12,23,70,026,32,20,53,182,28,13,51,317,26,16,50,082,37*75
$GPGSV,3,2,12,32,34,157,25,07,29,247,21,10,16,317,25,04,14,285,21*7E
$GPGSV,3,3,12,03,07,122,,06,05,107,15,08,04,237,,02,00,323,*74
$GPVTG,33.10,T,,M,1.96,N,3.6,K,D*32
$GPGGA,190054.000,3748.8158,N,12217.6422,W,2,05,1.6,19.3,M,-25.1,M,,0000*5F
$GPGSA,A,3,13,16,07,20,32,,,,,,,,4.8,1.6,4.6*3A
$GPRMC,190054.000,A,3748.8158,N,12217.6422,W,2.33,52.80,090611,,,D*4B
$GPVTG,52.80,T,,M,2.33,N,4.3,K,D*32
$GPGGA,190055.000,3748.8157,N,12217.6410,W,2,05,1.6,21.0,M,-25.1,M,2.8,0000*7C
$GPGSA,A,3,13,16,07,20,32,,,,,,,,4.8,1.6,4.6*3A
$GPRMC,190055.000,A,3748.8157,N,12217.6410,W,2.25,48.35,090611,,,D*46
$GPVTG,48.35,T,,M,2.25,N,4.2,K,D*31
$GPGGA,190056.000,3748.8163,N,12217.6406,W,2,05,1.6,22.1,M,-25.1,M,3.8,0000*7C
$GPGSA,A,3,13,16,07,20,32,,,,,,,,4.8,1.6,4.6*3A
$GPRMC,190056.000,A,3748.8163,N,12217.6406,W,2.59,29.32,090611,,,D*4E
$GPVTG,29.32,T,,M,2.59,N,4.8,K,D*30
$GPGGA,190057.000,3748.8171,N,12217.6401,W,2,05,1.6,20.5,M,-25.1,M,4.8,0000*78
$GPGSA,A,3,13,16,07,20,32,,,,,,,,4.8,1.6,4.6*3A
$GPRMC,190057.000,A,3748.8171,N,12217.6401,W,2.14,29.64,090611,,,D*41
$GPVTG,29.64,T,,M,2.14,N,4.0,K,D*32
$GPGGA,190058.000,3748.8182,N,12217.6402,W,2,05,1.6,18.5,M,-25.1,M,5.8,0000*72
$GPGSA,A,3,13,16,07,20,32,,,,,,,,4.8,1.6,4.6*3A
$GPGSV,3,1,12,23,70,026,32,20,53,182,28,13,51,317,26,16,50,082,37*75
$GPGSV,3,2,12,32,34,157,24,07,29,247,21,10,16,317,23,04,14,285,21*79
$GPGSV,3,3,12,03,07,122,,06,05,107,16,08,04,237,,02,00,323,*77
$GPRMC,190058.000,A,3748.8182,N,12217.6402,W,2.05,14.27,090611,,,D*48
$GPVTG,14.27,T,,M,2.05,N,3.8,K,D*34
$GPGGA,190059.000,3748.8187,N,12217.6399,W,2,05,1.6,19.7,M,-25.1,M,6.8,0000*73
$GPGSA,A,3,13,16,07,20,32,,,,,,,,4.8,1.6,4.6*3A
$GPRMC,190059.000,A,3748.8187,N,12217.6399,W,1.99,17.47,090611,,,D*4A
$GPVTG,17.47,T,,M,1.99,N,3.7,K,D*38
$GPGGA,190100.000,3748.8192,N,12217.6395,W,2,05,1.6,20.1,M,-25.1,M,7.8,0000*7B
$GPGSA,A,3,13,16,07,20,32,,,,,,,,4.8,1.6,4.6*3A
