$ADVER,3080,2.3
$GPRMC,225103.329,A,3748.8012,N,12217.8630,W,0.10,125.41,030412,,,A*7C
$GPGGA,225104.329,3748.7998,N,12217.8608,W,1,06,1.5,-2.0,M,-25.1,M,,0000*46
$GPGSA,A,3,23,13,16,10,20,32,,,,,,,3.0,1.5,2.6*37
$GPRMC,225104.329,A,3748.7998,N,12217.8608,W,0.12,112.89,030412,,,A*76
$GPVTG,112.89,T,,M,0.12,N,0.2,K,A*0F
$GPGGA,225105.000,3748.8003,N,12217.8618,W,1,06,1.5,5.8,M,-25.1,M,,0000*68
$GPGSA,A,3,23,13,16,10,20,32,,,,,,,3.0,1.5,2.6*37
$GPRMC,225105.000,A,3748.8003,N,12217.8618,W,0.07,114.24,030412,,,A*7F
$GPVTG,114.24,T,,M,0.07,N,0.1,K,A*09
$GPGGA,225106.000,3748.8001,N,12217.8614,W,1,06,1.5,3.7,M,-25.1,M,,0000*6C
$GPGSA,A,3,23,13,16,10,20,32,,,,,,,3.0,1.5,2.6*37
$GPRMC,225106.000,A,3748.8001,N,12217.8614,W,0.12,121.96,030412,,,A*79
$GPVTG,121.96,T,,M,0.12,N,0.2,K,A*01
$GPGGA,225107.000,3748.8000,N,12217.8612,W,1,06,1.5,2.4,M,-25.1,M,,0000*68
$GPGSA,A,3,23,13,16,10,20,32,,,,,,,3.0,1.5,2.6*37
$GPGSV,3,1,12,23,72,031,36,13,53,321,33,16,49,070,37,20,43,180,36*7F
$GPGSV,3,2,12,10,27,312,29,32,24,158,33,07,39,255,29,30,28,047,23*70
$GPGSV,3,3,12,03,12,117,29,04,11,282,26,06,10,101,,08,07,241,*71
$GPRMC,225107.000,A,3748.8000,N,12217.8612,W,0.10,103.43,030412,,,A*75
$GPVTG,103.43,T,,M,0.10,N,0.2,K,A*0B
$GPGGA,225108.000,3748.7999,N,12217.8611,W,1,06,1.5,1.4,M,-25.1,M,,0000*61
$GPGSA,A,3,23,13,16,10,20,32,,,,,,,3.0,1.5,2.6*37
$GPRMC,225108.000,A,3748.7999,N,12217.8611,W,0.11,112.47,030412,,,A*7A
$GPVTG,112.47,T,,M,0.11,N,0.2,K,A*0E
$GPGGA,225109.000,3748.7999,N,12217.8611,W,1,06,1.5,0.7,M,-25.1,M,,0000*62
$GPGSA,A,3,23,13,16,10,20,32,,,,,,,3.0,1.5,2.6*37
$GPRMC,225109.000,A,3748.7999,N,12217.8611,W,0.09,111.97,030412,,,A*7C
$GPVTG,111.97,T,,M,0.09,N,0.2,K,A*09
$GPGGA,225110.000,3748.7999,N,12217.8611,W,1,06,1.5,0.1,M,-25.1,M,,0000*6C
$GPGSA,A,3,23,13,16,10,20,32,,,,,,,3.0,1.5,2.6*37
$GPRMC,225110.000,A,3748.7999,N,12217.8611,W,0.10,107.73,030412,,,A*71
$GPVTG,107.73,T,,M,0.10,N,0.2,K,A*0C
$GPGGA,225111.000,3748.7999,N,12217.8610,W,1,06,1.5,-0.4,M,-25.1,M,,0000*44
$GPGSA,A,3,23,13,16,10,20,32,,,,,,,3.0,1.5,2.6*37
$GPRMC,225111.000,A,3748.7999,N,12217.8610,W,0.19,103.05,030412,,,A*7D
$GPVTG,103.05,T,,M,0.19,N,0.4,K,A*06
$GPGGA,225112.000,3748.8002,N,12217.8610,W,1,06,1.5,2.8,M,-25.1,M,,0000*60
$GPGSA,A,3,23,13,16,10,20,32,,,,,,,3.0,1.5,2.6*37
$GPGSV,3,1,12,23,72,031,26,13,53,321,27,16,48,070,28,20,43,180,32*70
$GPGSV,3,2,12,07,40,256,24,30,28,047,23,10,27,312,29,32,24,158,33*70
$GPGSV,3,3,12,03,12,117,30,04,11,282,29,06,10,101,,08,07,241,*76
$GPRMC,225112.000,A,3748.8002,N,12217.8610,W,0.62,57.64,030412,,,A*41
$GPVTG,57.64,T,,M,0.62,N,1.2,K,A*3A
$GPGGA,225113.000,3748.8005,N,12217.8607,W,1,06,1.5,4.2,M,-25.1,M,,0000*6C
$GPGSA,A,3,23,13,16,10,20,32,,,,,,,3.0,1.5,2.6*37
$GPRMC,225113.000,A,3748.8005,N,12217.8607,W,1.05,56.31,030412,,,A*40
$GPVTG,56.31,T,,M,1.05,N,1.9,K,A*30
$GPGGA,225114.000,3748.8007,N,12217.8603,W,1,06,1.5,5.0,M,-25.1,M,,0000*6E
$GPGSA,A,3,23,13,16,10,20,32,,,,,,,3.0,1.5,2.6*37
$GPRMC,225114.000,A,3748.8007,N,12217.8603,W,0.17,268.50,030412,,,A*7B
$GPVTG,268.50,T,,M,0.17,N,0.3,K,A*01
$GPGGA,225115.000,3748.8011,N,12217.8600,W,1,06,1.5,7.4,M,-25.1,M,,0000*6D
$GPGSA,A,3,23,13,16,10,20,32,,,,,,,3.0,1.5,2.6*37
$GPRMC,225115.000,A,3748.8011,N,12217.8600,W,0.31,61.88,030412,,,A*44
$GPVTG,61.88,T,,M,0.31,N,0.6,K,A*3E
$GPGGA,225116.000,3748.8011,N,12217.8599,W,1,06,1.5,6.5,M,-25.1,M,,0000*6D
$GPGSA,A,3,23,13,16,10,20,32,,,,,,,3.0,1.5,2.6*37
$GPRMC,225116.000,A,3748.8011,N,12217.8599,W,0.09,88.96,030412,,,A*47
$GPVTG,88.96,T,,M,0.09,N,0.2,K,A*39
$GPGGA,225117.000,3748.8010,N,12217.8601,W,1,06,1.5,4.3,M,-25.1,M,,0000*6B
$GPGSA,A,3,23,13,16,10,20,32,,,,,,,3.0,1.5,2.6*37
$GPGSV,3,1,12,23,72,031,25,13,53,321,28,16,48,070,22,20,43,180,20*75
$GPGSV,3,2,12,07,40,256,32,30,28,047,21,10,27,312,25,32,24,158,19*71
$GPRMC,225117.000,A,3748.8010,N,12217.8601,W,0.50,147.53,030412,,,A*72
$GPVTG,147.53,T,,M,0.50,N,0.9,K,A*05
$GPGGA,225118.000,3748.8011,N,12217.8608,W,1,06,1.5,4.9,M,-25.1,M,,0000*66
$GPGSA,A,3,23,13,16,10,20,32,,,,,,,3.0,1.5,2.6*37
$GPRMC,225118.000,A,3748.8011,N,12217.8608,W,0.50,193.84,030412,,,A*76
$GPVTG,193.84,T,,M,0.50,N,0.9,K,A*06
$GPGGA,225119.000,3748.8011,N,12217.8610,W,1,05,2.1,4.2,M,-25.1,M,,0000*61
$GPGSA,A,3,23,13,16,10,32,,,,,,,,3.8,2.1,3.1*3C
$GPRMC,225119.000,A,3748.8011,N,12217.8610,W,0.04,96.37,030412,,,A*43
$GPVTG,96.37,T,,M,0.04,N,0.1,K,A*33
$GPGGA,225120.000,3748.8010,N,12217.8611,W,1,06,1.5,3.1,M,-25.1,M,,0000*6B
$GPGSA,A,3,23,13,16,10,20,32,,,,,,,3.0,1.5,2.6*37
$GPRMC,225120.000,A,3748.8010,N,12217.8611,W,0.18,129.67,030412,,,A*74
$GPVTG,129.67,T,,M,0.18,N,0.3,K,A*0C
$GPGGA,225121.000,3748.8015,N,12217.8612,W,1,06,1.5,3.2,M,-25.1,M,,0000*6F
$GPGSA,A,3,23,13,16,10,20,32,,,,,,,3.0,1.5,2.6*37
$GPRMC,225121.000,A,3748.8015,N,12217.8612,W,0.49,53.27,030412,,,A*4F
$GPVTG,53.27,T,,M,0.49,N,0.9,K,A*3A
$GPGGA,225122.000,3748.8019,N,12217.8613,W,1,05,2.1,2.8,M,-25.1,M,,0000*6E
$GPGSA,A,3,23,13,16,10,32,,,,,,,,3.8,2.1,3.1*3C
$GPGSV,3,1,12,23,72,031,31,13,53,321,30,16,48,070,27,20,43,180,16*79
$GPGSV,3,2,12,07,40,256,32,30,28,047,25,10,27,312,27,32,24,158,19*77
$GPGSV,3,3,12,03,12,117,23,04,11,282,30,06,10,101,,08,07,241,*7C
$GPRMC,225122.000,A,3748.8019,N,12217.8613,W,1.34,16.20,030412,,,A*4C
$GPVTG,16.20,T,,M,1.34,N,2.5,K,A*39
$GPGGA,225123.000,3748.8023,N,12217.8613,W,1,05,2.1,1.8,M,-25.1,M,,0000*65
$GPGSA,A,3,23,13,16,10,32,,,,,,,,3.8,2.1,3.1*3C
$GPRMC,225123.000,A,3748.8023,N,12217.8613,W,0.66,27.77,030412,,,A*42
$GPVTG,27.77,T,,M,0.66,N,1.2,K,A*3B
$GPGGA,225124.000,3748.8031,N,12217.8603,W,1,06,1.5,1.7,M,-25.1,M,,0000*6B
$GPGSA,A,3,23,13,16,10,20,32,,,,,,,3.0,1.5,2.6*37
$GPRMC,225124.000,A,3748.8031,N,12217.8603,W,2.08,50.63,030412,,,A*48
$GPVTG,50.63,T,,M,2.08,N,3.9,K,A*3D
$GPGGA,225125.000,3748.8036,N,12217.8593,W,1,06,1.5,0.8,M,-25.1,M,,0000*69
$GPGSA,A,3,23,13,16,10,20,32,,,,,,,3.0,1.5,2.6*37
$GPRMC,225125.000,A,3748.8036,N,12217.8593,W,1.87,105.82,030412,,,A*7E
$GPVTG,105.82,T,,M,1.87,N,3.5,K,A*0B
$GPGGA,225126.000,3748.8030,N,12217.8592,W,1,06,1.5,2.9,M,-25.1,M,,0000*6E
$GPGSA,A,3,23,13,16,10,20,32,,,,,,,3.0,1.5,2.6*37
$GPRMC,225126.000,A,3748.8030,N,12217.8592,W,1.00,91.17,030412,,,A*45
$GPVTG,91.17,T,,M,1.00,N,1.9,K,A*3A
$GPGGA,225127.000,3748.8034,N,12217.8592,W,1,06,1.5,3.0,M,-25.1,M,,0000*63
$GPGSA,A,3,23,13,16,10,20,32,,,,,,,3.0,1.5,2.6*37
$GPGSV,3,1,12,23,72,031,22,13,53,321,23,16,48,070,24,20,43,180,19*75
$GPGSV,3,2,12,07,40,256,26,30,28,047,28,10,27,312,23,32,24,158,24*75
$GPGSV,3,3,12,03,12,117,24,04,11,282,22,06,10,101,,08,07,241,*78
$GPRMC,225127.000,A,3748.8034,N,12217.8592,W,0.77,47.68,030412,,,A*42
$GPVTG,47.68,T,,M,0.77,N,1.4,K,A*35
$GPGGA,225128.000,3748.8039,N,12217.8592,W,1,05,2.1,2.6,M,-25.1,M,,0000*62
$GPGSA,A,3,23,13,16,10,32,,,,,,,,3.8,2.1,3.1*3C
$GPRMC,225128.000,A,3748.8039,N,12217.8592,W,0.69,30.75,030412,,,A*43
$GPVTG,30.75,T,,M,0.69,N,1.3,K,A*31
$GPGGA,225129.000,3748.8040,N,12217.8598,W,1,05,2.1,3.9,M,-25.1,M,,0000*69
$GPGSA,A,3,23,13,16,10,32,,,,,,,,3.8,2.1,3.1*3C
$GPRMC,225129.000,A,3748.8040,N,12217.8598,W,1.26,17.80,030412,,,A*43
$GPVTG,17.80,T,,M,1.26,N,2.3,K,A*37
$GPGGA,225130.000,3748.8051,N,12217.8591,W,1,06,1.5,4.7,M,-25.1,M,,0000*65
$GPGSA,A,3,23,13,16,10,20,32,,,,,,,3.0,1.5,2.6*37
$GPRMC,225130.000,A,3748.8051,N,12217.8591,W,3.07,20.31,030412,,,A*4D
$GPVTG,20.31,T,,M,3.07,N,5.7,K,A*3B
$GPGGA,225131.000,3748.8062,N,12217.8586,W,1,06,1.5,5.2,M,-25.1,M,,0000*66
$GPGSA,A,3,23,13,16,10,20,32,,,,,,,3.0,1.5,2.6*37
$GPRMC,225131.000,A,3748.8062,N,12217.8586,W,3.72,21.28,030412,,,A*41
$GPVTG,21.28,T,,M,3.72,N,6.9,K,A*3D
$GPGGA,225132.000,3748.8073,N,12217.8582,W,1,06,1.5,6.3,M,-25.1,M,,0000*63
$GPGSA,A,3,23,13,16,10,20,32,,,,,,,3.0,1.5,2.6*37
$GPGSV,3,1,12,23,72,031,18,13,53,321,27,16,48,070,28,20,43,180,13*7E
$GPGSV,3,2,12,07,40,256,18,30,28,047,24,10,27,312,32,32,24,158,15*76
$GPGSV,3,3,12,03,12,117,21,04,11,282,24,06,10,101,,08,07,241,*7B
$GPVTG,22.36,T,,M,3.19,N,5.9,K,A*3F
$GPGGA,225133.000,3748.8079,N,12217.8587,W,1,06,1.5,8.3,M,-25.1,M,,0000*63
$GPGSA,A,3,23,13,16,10,20,32,,,,,,,3.0,1.5,2.6*37
$GPRMC,225133.000,A,3748.8079,N,12217.8587,W,3.00,22.76,030412,,,A*45
$GPVTG,22.76,T,,M,3.00,N,5.6,K,A*3C
$GPGGA,225134.000,3748.8082,N,12217.8587,W,1,06,1.5,7.7,M,-25.1,M,,0000*6B
$GPGSA,A,3,23,13,16,10,20,32,,,,,,,3.0,1.5,2.6*37
$GPRMC,225134.000,A,3748.8082,N,12217.8587,W,1.68,36.77,030412,,,A*4E
$GPVTG,36.77,T,,M,1.68,N,3.1,K,A*35
$GPGGA,225135.000,3748.8081,N,12217.8590,W,1,06,1.5,8.1,M,-25.1,M,,0000*66
$GPGSA,A,3,23,13,16,10,20,32,,,,,,,3.0,1.5,2.6*37
$GPRMC,225135.000,A,3748.8081,N,12217.8590,W,0.27,144.21,030412,,,A*77
$GPVTG,144.21,T,,M,0.27,N,0.5,K,A*0F
$GPGGA,225136.000,3748.8066,N,12217.8601,W,1,06,1.5,10.0,M,-25.1,M,,0000*5F
$GPGSA,A,3,23,13,16,10,20,32,,,,,,,3.0,1.5,2.6*37
$GPRMC,225136.000,A,3748.8066,N,12217.8601,W,0.53,94.80,030412,,,A*42
$GPVTG,94.80,T,,M,0.53,N,1.0,K,A*3F
$GPGGA,225137.000,3748.8055,N,12217.8608,W,1,06,1.5,13.8,M,-25.1,M,,0000*5C
$GPGSA,A,3,23,13,16,10,20,32,,,,,,,3.0,1.5,2.6*37
$GPGSV,3,1,12,23,72,031,19,13,53,321,24,16,48,070,35,20,43,180,26*76
$GPGSV,3,2,12,07,40,256,23,30,28,047,34,10,27,312,24,32,24,158,28*76
$GPGSV,3,3,12,03,12,117,26,04,11,282,15,06,10,101,24,08,07,241,*78
$GPRMC,225137.000,A,3748.8055,N,12217.8608,W,0.30,312.62,030412,,,A*7E
$GPVTG,312.62,T,,M,0.30,N,0.6,K,A*0C
$GPGGA,225138.000,3748.8050,N,12217.8608,W,1,06,1.5,14.9,M,-25.1,M,,0000*50
$GPGSA,A,3,23,13,16,10,20,32,,,,,,,3.0,1.5,2.6*37
$GPRMC,225138.000,A,3748.8050,N,12217.8608,W,0.49,131.80,030412,,,A*75
$GPVTG,131.80,T,,M,0.49,N,0.9,K,A*02
$GPGGA,225139.000,3748.8054,N,12217.8604,W,1,06,1.5,14.2,M,-25.1,M,,0000*52
$GPGSA,A,3,23,13,16,10,20,32,,,,,,,3.0,1.5,2.6*37
$GPRMC,225139.000,A,3748.8054,N,12217.8604,W,0.11,160.99,030412,,,A*7D
$GPVTG,160.99,T,,M,0.11,N,0.2,K,A*08
$GPGGA,225140.000,3748.8053,N,12217.8601,W,1,06,1.5,14.5,M,-25.1,M,,0000*59
$GPGSA,A,3,23,13,16,10,20,32,,,,,,,3.0,1.5,2.6*37
$GPRMC,225140.000,A,3748.8053,N,12217.8601,W,1.05,137.98,030412,,,A*76
$GPVTG,137.98,T,,M,1.05,N,1.9,K,A*05
$GPGGA,225141.000,3748.8047,N,12217.8605,W,1,06,1.5,15.7,M,-25.1,M,,0000*5A
$GPGSA,A,3,23,13,16,10,20,32,,,,,,,3.0,1.5,2.6*37
$GPRMC,225141.000,A,3748.8047,N,12217.8605,W,1.02,157.34,030412,,,A*71
$GPVTG,157.34,T,,M,1.02,N,1.9,K,A*02
$GPGGA,225142.000,3748.8043,N,12217.8608,W,1,06,1.5,16.6,M,-25.1,M,,0000*52
$GPGSA,A,3,23,13,16,10,20,32,,,,,,,3.0,1.5,2.6*37
$GPGSV,3,1,12,23,72,031,31,13,53,321,24,16,48,070,35,20,43,180,30*7B
$GPGSV,3,2,12,07,40,256,17,30,28,047,34,10,27,312,16,32,24,158,23*7B
$GPGSV,3,3,12,03,12,117,26,04,11,282,19,06,10,101,14,08,07,241,*77
$GPRMC,225142.000,A,3748.8043,N,12217.8608,W,0.65,149.32,030412,,,A*72
$GPVTG,149.32,T,,M,0.65,N,1.2,K,A*00
$GPGGA,225143.000,3748.8040,N,12217.8612,W,1,06,1.5,17.2,M,-25.1,M,,0000*5E
$GPGSA,A,3,23,13,16,10,20,32,,,,,,,3.0,1.5,2.6*37
$GPRMC,225143.000,A,3748.8040,N,12217.8612,W,0.78,129.81,030412,,,A*79
$GPVTG,129.81,T,,M,0.78,N,1.4,K,A*04
$GPGGA,225144.000,3748.8035,N,12217.8610,W,1,06,1.5,17.8,M,-25.1,M,,0000*53
$GPGSA,A,3,23,13,16,10,20,32,,,,,,,3.0,1.5,2.6*37
$GPRMC,225144.000,A,3748.8035,N,12217.8610,W,0.69,132.11,030412,,,A*7D
$GPVTG,132.11,T,,M,0.69,N,1.3,K,A*00
$GPGGA,225145.000,3748.8033,N,12217.8609,W,1,06,1.5,17.9,M,-25.1,M,,0000*5D
$GPGSA,A,3,23,13,16,10,20,32,,,,,,,3.0,1.5,2.6*37
$GPRMC,225145.000,A,3748.8033,N,12217.8609,W,0.70,137.01,030412,,,A*7E
$GPVTG,137.01,T,,M,0.70,N,1.3,K,A*0C
$GPGGA,225146.000,3748.8033,N,12217.8613,W,1,06,1.5,18.3,M,-25.1,M,,0000*50
$GPGSA,A,3,23,13,16,10,20,32,,,,,,,3.0,1.5,2.6*37
$GPRMC,225146.000,A,3748.8033,N,12217.8613,W,0.34,163.04,030412,,,A*72
$GPVTG,163.04,T,,M,0.34,N,0.6,K,A*0C
$GPGGA,225147.000,3748.8033,N,12217.8618,W,1,06,1.5,18.2,M,-25.1,M,,0000*5B
$GPGSA,A,3,23,13,16,10,20,32,,,,,,,3.0,1.5,2.6*37
$GPGSV,3,1,12,23,72,032,30,13,53,321,25,16,48,070,35,20,43,180,22*7B
$GPGSV,3,2,12,07,40,256,17,30,28,047,35,10,27,312,15,32,24,158,28*72
$GPGSV,3,3,12,03,12,116,26,04,11,281,18,06,10,101,16,08,08,242,*7A
$GPVTG,154.95,T,,M,0.37,N,0.7,K,A*02
$GPGGA,225148.000,3748.8030,N,12217.8619,W,1,06,1.5,19.0,M,-25.1,M,,0000*55
$GPGSA,A,3,23,13,16,10,20,32,,,,,,,3.0,1.5,2.6*37
$GPRMC,225148.000,A,3748.8030,N,12217.8619,W,0.41,113.22,030412,,,A*74
$GPVTG,113.22,T,,M,0.41,N,0.8,K,A*03
$GPGGA,225149.000,3748.8031,N,12217.8622,W,1,06,1.5,18.2,M,-25.1,M,,0000*5E
$GPGSA,A,3,23,13,16,10,20,32,,,,,,,3.0,1.5,2.6*37
$GPRMC,225149.000,A,3748.8031,N,12217.8622,W,0.10,311.91,030412,,,A*70
$GPVTG,311.91,T,,M,0.10,N,0.2,K,A*05
$GPGGA,225150.000,3748.8030,N,12217.8624,W,1,06,1.5,18.5,M,-25.1,M,,0000*56
$GPGSA,A,3,23,13,16,10,20,32,,,,,,,3.0,1.5,2.6*37
$GPRMC,225150.000,A,3748.8030,N,12217.8624,W,0.84,270.70,030412,,,A*7B
$GPVTG,270.70,T,,M,0.84,N,1.5,K,A*07
$GPGGA,225151.000,3748.8032,N,12217.8630,W,1,06,1.5,16.1,M,-25.1,M,,0000*5A
$GPGSA,A,3,23,13,16,10,20,32,,,,,,,3.0,1.5,2.6*37
$GPRMC,225151.000,A,3748.8032,N,12217.8630,W,0.47,278.29,030412,,,A*76
$GPVTG,278.29,T,,M,0.47,N,0.9,K,A*01
$GPGGA,225152.000,3748.8026,N,12217.8628,W,1,06,1.5,18.6,M,-25.1,M,,0000*5C
$GPGSA,A,3,23,13,16,10,20,32,,,,,,,3.0,1.5,2.6*37
$GPGSV,3,1,12,23,72,032,26,13,53,321,18,16,48,070,28,20,43,180,30*7D
$GPGSV,3,2,12,07,40,256,18,30,28,047,23,10,27,312,29,32,24,158,28*75
$GPGSV,3,3,12,03,12,116,32,04,11,281,21,06,10,101,22,08,08,242,*72
$GPRMC,225152.000,A,3748.8026,N,12217.8628,W,0.33,195.97,030412,,,A*7F
$GPVTG,195.97,T,,M,0.33,N,0.6,K,A*08
$GPGGA,225153.000,3748.8024,N,12217.8631,W,1,05,1.5,19.2,M,-25.1,M,,0000*51
$GPGSA,A,3,13,16,10,20,32,,,,,,,,3.5,1.5,3.2*36
$GPRMC,225153.000,A,3748.8024,N,12217.8631,W,0.51,230.17,030412,,,A*74
$GPVTG,230.17,T,,M,0.51,N,0.9,K,A*07
$GPGGA,225154.000,3748.8023,N,12217.8633,W,1,06,1.5,19.6,M,-25.1,M,,0000*54
$GPGSA,A,3,23,13,16,10,20,32,,,,,,,3.0,1.5,2.6*37
$GPRMC,225154.000,A,3748.8023,N,12217.8633,W,0.15,295.32,030412,,,A*7E
$GPVTG,295.32,T,,M,0.15,N,0.3,K,A*05
$GPGGA,225155.000,3748.8025,N,12217.8637,W,1,06,1.5,19.4,M,-25.1,M,,0000*55
$GPGSA,A,3,23,13,16,10,20,32,,,,,,,3.0,1.5,2.6*37
$GPRMC,225155.000,A,3748.8025,N,12217.8637,W,0.37,302.81,030412,,,A*7A
$GPVTG,302.81,T,,M,0.37,N,0.7,K,A*06
$GPGGA,225156.000,3748.8023,N,12217.8634,W,1,06,1.5,18.8,M,-25.1,M,,0000*5E
$GPGSA,A,3,23,13,16,10,20,32,,,,,,,3.0,1.5,2.6*37
$GPRMC,225156.000,A,3748.8023,N,12217.8634,W,0.39,311.81,030412,,,A*70
$GPVTG,311.81,T,,M,0.39,N,0.7,K,A*0A
$GPGGA,225157.000,3748.8023,N,12217.8637,W,1,06,1.5,19.1,M,-25.1,M,,0000*54
$GPGSA,A,3,23,13,16,10,20,32,,,,,,,3.0,1.5,2.6*37
$GPGSV,3,1,12,23,72,032,17,13,53,321,26,16,48,070,27,20,43,180,32*7F
$GPGSV,3,2,12,07,40,256,31,30,28,047,26,10,27,312,19,32,24,158,33*72
$GPGSV,3,3,12,03,12,116,30,04,11,281,12,06,10,101,23,08,08,242,*71
$GPRMC,225157.000,A,3748.8023,N,12217.8637,W,0.37,134.36,030412,,,A*75
$GPVTG,134.36,T,,M,0.37,N,0.7,K,A*0D
$GPGGA,225158.000,3748.8020,N,12217.8630,W,1,06,1.5,18.0,M,-25.1,M,,0000*5F
$GPGSA,A,3,23,13,16,10,20,32,,,,,,,3.0,1.5,2.6*37
$GPRMC,225158.000,A,3748.8020,N,12217.8630,W,0.53,86.37,030412,,,A*45
$GPVTG,86.37,T,,M,0.53,N,1.0,K,A*30
$GPGGA,225159.000,3748.8021,N,12217.8625,W,1,06,1.5,14.8,M,-25.1,M,,0000*5F
$GPGSA,A,3,23,13,16,10,20,32,,,,,,,3.0,1.5,2.6*37
$GPRMC,225159.000,A,3748.8021,N,12217.8625,W,0.47,136.81,030412,,,A*73
$GPVTG,136.81,T,,M,0.47,N,0.9,K,A*0A
$GPGGA,225200.000,3748.8014,N,12217.8626,W,1,06,1.5,14.6,M,-25.1,M,,0000*5B
$GPGSA,A,3,23,13,16,10,20,32,,,,,,,3.0,1.5,2.6*37
$GPRMC,225200.000,A,3748.8014,N,12217.8626,W,1.21,175.53,030412,,,A*70
$GPVTG,175.53,T,,M,1.21,N,2.2,K,A*0A
$GPGGA,225201.000,3748.8008,N,12217.8624,W,1,06,1.5,14.1,M,-25.1,M,,0000*52
$GPGSA,A,3,23,13,16,10,20,32,,,,,,,3.0,1.5,2.6*37
$GPRMC,225201.000,A,3748.8008,N,12217.8624,W,0.27,192.27,030412,,,A*73
$GPVTG,192.27,T,,M,0.27,N,0.5,K,A*02
$GPGGA,225202.000,3748.8005,N,12217.8619,W,1,06,1.5,13.5,M,-25.1,M,,0000*51
$GPGSA,A,3,23,13,16,10,20,32,,,,,,,3.0,1.5,2.6*37
$GPGSV,3,1,12,23,72,032,29,13,53,321,30,16,48,070,31,20,43,180,28*79
$GPGSV,3,2,12,07,40,256,29,30,28,047,33,10,27,312,24,32,24,158,24*77
$GPGSV,3,3,12,03,12,116,31,04,11,281,26,06,10,101,23,08,08,242,*77
$GPRMC,225202.000,A,3748.8005,N,12217.8619,W,0.63,120.70,030412,,,A*78
$GPVTG,120.70,T,,M,0.63,N,1.2,K,A*0F
$GPGGA,225203.000,3748.8005,N,12217.8618,W,1,06,1.5,13.0,M,-25.1,M,,0000*54
$GPGSA,A,3,23,13,16,10,20,32,,,,,,,3.0,1.5,2.6*37
$GPRMC,225203.000,A,3748.8005,N,12217.8618,W,0.50,117.63,030412,,,A*7E
$GPVTG,117.63,T,,M,0.50,N,0.9,K,A*03
$GPGGA,225204.000,3748.8005,N,12217.8616,W,1,06,1.5,12.4,M,-25.1,M,,0000*58
$GPGSA,A,3,23,13,16,10,20,32,,,,,,,3.0,1.5,2.6*37
$GPRMC,225204.000,A,3748.8005,N,12217.8616,W,0.29,220.46,030412,,,A*79
$GPVTG,220.46,T,,M,0.29,N,0.5,K,A*01
$GPGGA,225205.000,3748.8007,N,12217.8615,W,1,06,1.5,12.9,M,-25.1,M,,0000*55
$GPGSA,A,3,23,13,16,10,20,32,,,,,,,3.0,1.5,2.6*37
$GPRMC,225205.000,A,3748.8007,N,12217.8615,W,0.33,1.35,030412,,,A*77
$GPVTG,1.35,T,,M,0.33,N,0.6,K,A*0C
$GPGGA,225206.000,3748.8011,N,12217.8611,W,1,06,1.5,14.7,M,-25.1,M,,0000*5D
$GPGSA,A,3,23,13,16,10,20,32,,,,,,,3.0,1.5,2.6*37
$GPRMC,225206.000,A,3748.8011,N,12217.8611,W,1.38,35.61,030412,,,A*4B
$GPVTG,35.61,T,,M,1.38,N,2.6,K,A*32
$GPGGA,225207.000,3748.8011,N,12217.8614,W,1,06,1.5,15.6,M,-25.1,M,,0000*59
$GPGSA,A,3,23,13,16,10,20,32,,,,,,,3.0,1.5,2.6*37
$GPGSV,3,1,12,23,72,032,27,13,53,321,24,16,48,070,32,20,43,180,25*7C
$GPGSV,3,2,12,07,40,256,21,30,28,047,33,10,27,312,15,32,24,158,27*7E
$GPGSV,3,3,12,03,12,116,26,04,11,281,14,06,10,101,21,08,08,242,*72
$GPRMC,225207.000,A,3748.8011,N,12217.8614,W,0.13,240.73,030412,,,A*74
$GPGGA,225208.000,3748.8011,N,12217.8613,W,1,06,1.5,15.0,M,-25.1,M,,0000*57
$GPGSA,A,3,23,13,16,10,20,32,,,,,,,3.0,1.5,2.6*37
$GPRMC,225208.000,A,3748.8011,N,12217.8613,W,0.16,43.86,030412,,,A*42
$GPVTG,43.86,T,,M,0.16,N,0.3,K,A*30
$GPGGA,225209.000,3748.8011,N,12217.8612,W,1,06,1.5,14.0,M,-25.1,M,,0000*56
$GPGSA,A,3,23,13,16,10,20,32,,,,,,,3.0,1.5,2.6*37
$GPRMC,225209.000,A,3748.8011,N,12217.8612,W,0.29,275.95,030412,,,A*7B
$GPVTG,275.95,T,,M,0.29,N,0.5,K,A*0F
$GPGGA,225210.000,3748.8010,N,12217.8609,W,1,06,1.5,13.1,M,-25.1,M,,0000*53
$GPGSA,A,3,23,13,16,10,20,32,,,,,,,3.0,1.5,2.6*37
$GPRMC,225210.000,A,3748.8010,N,12217.8609,W,0.16,225.80,030412,,,A*75
$GPVTG,225.80,T,,M,0.16,N,0.3,K,A*04
$GPGGA,225211.000,3748.8007,N,12217.8603,W,1,06,1.5,12.9,M,-25.1,M,,0000*57
$GPGSA,A,3,23,13,16,10,20,32,,,,,,,3.0,1.5,2.6*37
$GPRMC,225211.000,A,3748.8007,N,12217.8603,W,0.44,115.48,030412,,,A*7B
$GPVTG,115.48,T,,M,0.44,N,0.8,K,A*0C
$GPGGA,225212.000,3748.8003,N,12217.8594,W,1,06,1.5,13.4,M,-25.1,M,,0000*51
$GPGSA,A,3,23,13,16,10,20,32,,,,,,,3.0,1.5,2.6*37
$GPGSV,3,1,12,23,72,032,30,13,53,321,27,16,48,070,35,20,43,180,17*7F
$GPGSV,3,2,12,07,40,256,20,30,28,047,34,10,27,312,13,32,24,158,27*7E
$GPGSV,3,3,12,03,12,116,32,04,11,281,,06,10,101,20,08,08,242,*73
$GPRMC,225212.000,A,3748.8003,N,12217.8594,W,0.43,123.16,030412,,,A*78
$GPVTG,123.16,T,,M,0.43,N,0.8,K,A*05
$GPGGA,225213.000,3748.8005,N,12217.8591,W,1,06,1.5,13.5,M,-25.1,M,,0000*52
$GPGSA,A,3,23,13,16,10,20,32,,,,,,,3.0,1.5,2.6*37
$GPRMC,225213.000,A,3748.8005,N,12217.8591,W,0.34,70.41,030412,,,A*4F
$GPVTG,70.41,T,,M,0.34,N,0.6,K,A*3E
$GPGGA,225214.000,3748.8004,N,12217.8591,W,1,06,1.5,15.3,M,-25.1,M,,0000*54
$GPGSA,A,3,23,13,16,10,20,32,,,,,,,3.0,1.5,2.6*37
$GPRMC,225214.000,A,3748.8004,N,12217.8591,W,0.25,165.40,030412,,,A*7D
$GPVTG,165.40,T,,M,0.25,N,0.5,K,A*09
$GPGGA,225215.000,3748.8009,N,12217.8594,W,1,06,1.5,14.0,M,-25.1,M,,0000*5F
$GPGSA,A,3,23,13,16,10,20,32,,,,,,,3.0,1.5,2.6*37
$GPRMC,225215.000,A,3748.8009,N,12217.8594,W,0.22,270.01,030412,,,A*71
$GPVTG,270.01,T,,M,0.22,N,0.4,K,A*0D
$GPGGA,225216.000,3748.8010,N,12217.8598,W,1,06,1.5,12.6,M,-25.1,M,,0000*58
$GPGSA,A,3,23,13,16,10,20,32,,,,,,,3.0,1.5,2.6*37
$GPRMC,225216.000,A,3748.8010,N,12217.8598,W,0.14,97.66,030412,,,A*49
$GPVTG,97.66,T,,M,0.14,N,0.3,K,A*35
$GPGGA,225217.000,3748.8007,N,12217.8589,W,1,06,1.5,13.4,M,-25.1,M,,0000*5C
$GPGSA,A,3,23,13,16,10,20,32,,,,,,,3.0,1.5,2.6*37
$GPGSV,3,1,12,23,72,032,30,13,53,321,24,16,48,070,34,20,43,180,25*7C
$GPGSV,3,2,12,07,40,256,19,30,28,047,34,10,27,312,14,32,24,158,23*77
$GPGSV,3,3,12,03,12,116,25,04,11,281,,06,10,101,20,08,08,242,*75
$GPRMC,225217.000,A,3748.8007,N,12217.8589,W,0.48,94.53,030412,,,A*42
$GPVTG,94.53,T,,M,0.48,N,0.9,K,A*33
$GPGGA,225218.000,3748.8002,N,12217.8576,W,1,06,1.5,15.0,M,-25.1,M,,0000*54
$GPGSA,A,3,23,13,16,10,20,32,,,,,,,3.0,1.5,2.6*37
$GPRMC,225218.000,A,3748.8002,N,12217.8576,W,0.96,111.99,030412,,,A*71
$GPVTG,111.99,T,,M,0.96,N,1.8,K,A*0A
$GPGGA,225219.000,3748.7999,N,12217.8575,W,1,05,1.6,16.2,M,-25.1,M,,0000*53
$GPGSA,A,3,23,16,10,20,32,,,,,,,,3.3,1.6,2.8*3B
$GPRMC,225219.000,A,3748.7999,N,12217.8575,W,0.98,118.15,030412,,,A*74
$GPVTG,118.15,T,,M,0.98,N,1.8,K,A*09
$GPGGA,225220.000,3748.7996,N,12217.8576,W,1,05,1.6,15.7,M,-25.1,M,,0000*53
$GPGSA,A,3,23,16,10,20,32,,,,,,,,3.3,1.6,2.8*3B
$GPRMC,225220.000,A,3748.7996,N,12217.8576,W,0.78,148.26,030412,,,A*79
$GPVTG,148.26,T,,M,0.78,N,1.4,K,A*0E
$GPGGA,225221.000,3748.7991,N,12217.8577,W,1,05,1.6,17.6,M,-25.1,M,,0000*57
$GPGSA,A,3,23,16,10,20,32,,,,,,,,3.3,1.6,2.8*3B
$GPRMC,225221.000,A,3748.7991,N,12217.8577,W,0.61,156.00,030412,,,A*7D
$GPVTG,156.00,T,,M,0.61,N,1.1,K,A*08
$GPGGA,225222.000,3748.7986,N,12217.8578,W,1,05,2.0,20.7,M,-25.1,M,,0000*5D
$GPGSA,A,3,23,13,16,20,32,,,,,,,,4.8,2.0,4.4*3B
$GPGSV,3,1,12,23,72,032,30,13,53,321,19,16,48,070,34,20,43,180,25*72
$GPGSV,3,2,12,07,40,256,19,30,28,047,34,10,27,312,,32,24,158,24*75
$GPGSV,3,3,12,03,12,116,25,04,11,281,16,06,10,101,21,08,08,242,*73
$GPRMC,225222.000,A,3748.7986,N,12217.8578,W,0.56,213.46,030412,,,A*73
$GPGGA,225223.000,3748.7987,N,12217.8578,W,1,05,2.0,22.0,M,-25.1,M,,0000*58
$GPGSA,A,3,23,13,16,20,32,,,,,,,,4.8,2.0,4.4*3B
$GPRMC,225223.000,A,3748.7987,N,12217.8578,W,0.66,114.55,030412,,,A*76
$GPVTG,114.55,T,,M,0.66,N,1.2,K,A*0A
$GPGGA,225224.000,3748.7990,N,12217.8581,W,1,05,2.0,22.6,M,-25.1,M,,0000*59
$GPGSA,A,3,23,13,16,20,32,,,,,,,,4.8,2.0,4.4*3B
$GPRMC,225224.000,A,3748.7990,N,12217.8581,W,0.42,144.23,030412,,,A*73
$GPVTG,144.23,T,,M,0.42,N,0.8,K,A*03
$GPGGA,225225.000,3748.7993,N,12217.8584,W,1,06,1.5,23.8,M,-25.1,M,,0000*54
$GPGSA,A,3,23,13,16,10,20,32,,,,,,,3.0,1.5,2.6*37
$GPRMC,225225.000,A,3748.7993,N,12217.8584,W,0.24,150.16,030412,,,A*77
$GPVTG,150.16,T,,M,0.24,N,0.4,K,A*0C
$GPGGA,225226.000,3748.7995,N,12217.8587,W,1,06,1.5,24.9,M,-25.1,M,,0000*54
$GPGSA,A,3,23,13,16,10,20,32,,,,,,,3.0,1.5,2.6*37
$GPRMC,225226.000,A,3748.7995,N,12217.8587,W,0.26,124.75,030412,,,A*75
$GPVTG,124.75,T,,M,0.26,N,0.5,K,A*09
$GPGGA,225227.000,3748.7996,N,12217.8586,W,1,06,1.5,26.2,M,-25.1,M,,0000*5E
$GPGSA,A,3,23,13,16,10,20,32,,,,,,,3.0,1.5,2.6*37
$GPGSV,3,1,12,23,72,032,27,13,53,321,23,16,48,070,35,20,43,180,31*79
$GPGSV,3,2,12,07,40,256,23,30,28,047,34,10,27,312,20,32,24,158,29*73
$GPGSV,3,3,12,03,12,116,33,04,11,281,20,06,10,101,21,08,08,242,*71
$GPRMC,225227.000,A,3748.7996,N,12217.8586,W,0.13,164.94,030412,,,A*7B
$GPVTG,164.94,T,,M,0.13,N,0.2,K,A*03
$GPGGA,225228.000,3748.7996,N,12217.8581,W,1,06,1.5,27.9,M,-25.1,M,,0000*5C
$GPGSA,A,3,23,13,16,10,20,32,,,,,,,3.0,1.5,2.6*37
$GPRMC,225228.000,A,3748.7996,N,12217.8581,W,0.39,143.78,030412,,,A*7C
$GPVTG,143.78,T,,M,0.39,N,0.7,K,A*09
$GPGGA,225229.000,3748.7995,N,12217.8580,W,1,06,1.5,29.1,M,-25.1,M,,0000*59
$GPGSA,A,3,23,13,16,10,20,32,,,,,,,3.0,1.5,2.6*37
$GPRMC,225229.000,A,3748.7995,N,12217.8580,W,0.26,147.88,030412,,,A*7A
$GPVTG,147.88,T,,M,0.26,N,0.5,K,A*0E
$GPGGA,225230.000,3748.7994,N,12217.8577,W,1,06,1.5,30.2,M,-25.1,M,,0000*53
$GPGSA,A,3,23,13,16,10,20,32,,,,,,,3.0,1.5,2.6*37
$GPRMC,225230.000,A,3748.7994,N,12217.8577,W,0.56,139.66,030412,,,A*75
$GPVTG,139.66,T,,M,0.56,N,1.0,K,A*04
$GPGGA,225231.000,3748.7994,N,12217.8576,W,1,06,1.5,30.8,M,-25.1,M,,0000*59
$GPGSA,A,3,23,13,16,10,20,32,,,,,,,3.0,1.5,2.6*37
$GPRMC,225231.000,A,3748.7994,N,12217.8576,W,0.61,140.56,030412,,,A*7C
$GPVTG,140.56,T,,M,0.61,N,1.1,K,A*0C
$GPGGA,225232.000,3748.7990,N,12217.8567,W,1,06,1.5,32.7,M,-25.1,M,,0000*53
$GPGSA,A,3,23,13,16,10,20,32,,,,,,,3.0,1.5,2.6*37
$GPGSV,3,1,12,23,72,032,29,13,53,321,25,16,48,070,35,20,43,180,31*71
$GPGSV,3,2,12,07,40,256,24,30,28,047,25,10,27,312,12,32,24,158,31*7C
$GPGSV,3,3,12,03,12,116,32,04,11,281,18,06,10,101,21,08,08,242,*7B
$GPRMC,225232.000,A,3748.7990,N,12217.8567,W,0.74,132.44,030412,,,A*79
$GPVTG,132.44,T,,M,0.74,N,1.4,K,A*0B
$GPGGA,225233.000,3748.7986,N,12217.8562,W,1,06,1.5,34.0,M,-25.1,M,,0000*51
$GPGSA,A,3,23,13,16,10,20,32,,,,,,,3.0,1.5,2.6*37
$GPRMC,225233.000,A,3748.7986,N,12217.8562,W,0.81,133.18,030412,,,A*78
$GPVTG,133.18,T,,M,0.81,N,1.5,K,A*08
$GPGGA,225234.000,3748.7984,N,12217.8563,W,1,06,1.5,34.2,M,-25.1,M,,0000*57
$GPGSA,A,3,23,13,16,10,20,32,,,,,,,3.0,1.5,2.6*37
$GPRMC,225234.000,A,3748.7984,N,12217.8563,W,0.67,142.54,030412,,,A*7A
$GPVTG,142.54,T,,M,0.67,N,1.2,K,A*09
$GPGGA,225235.000,3748.7977,N,12217.8567,W,1,06,1.5,35.6,M,-25.1,M,,0000*5B
$GPGSA,A,3,23,13,16,10,20,32,,,,,,,3.0,1.5,2.6*37
$GPRMC,225235.000,A,3748.7977,N,12217.8567,W,0.71,205.11,030412,,,A*75
$GPVTG,205.11,T,,M,0.71,N,1.3,K,A*0E
$GPGGA,225236.000,3748.7980,N,12217.8577,W,1,05,1.6,32.7,M,-25.1,M,,0000*57
$GPGSA,A,3,23,16,10,20,32,,,,,,,,3.3,1.6,2.8*3B
$GPRMC,225236.000,A,3748.7980,N,12217.8577,W,0.63,246.49,030412,,,A*76
$GPVTG,246.49,T,,M,0.63,N,1.2,K,A*06
$GPGGA,225237.000,3748.7983,N,12217.8587,W,1,05,1.6,30.8,M,-25.1,M,,0000*57
$GPGSA,A,3,23,16,10,20,32,,,,,,,,3.3,1.6,2.8*3B
$GPGSV,3,1,12,23,72,032,26,13,53,321,10,16,48,070,34,20,43,180,28*71
$GPGSV,3,2,12,07,40,256,24,30,28,047,23,10,27,312,24,32,24,158,30*7E
$GPGSV,3,3,12,03,12,116,23,04,11,281,17,06,10,101,21,08,08,242,*74
$GPVTG,262.61,T,,M,0.48,N,0.9,K,A*09
$GPGGA,225238.000,3748.7990,N,12217.8599,W,1,05,1.6,26.6,M,-25.1,M,,0000*5C
$GPGSA,A,3,23,16,10,20,32,,,,,,,,3.3,1.6,2.8*3B
$GPRMC,225238.000,A,3748.7990,N,12217.8599,W,0.22,247.83,030412,,,A*7B
$GPVTG,247.83,T,,M,0.22,N,0.4,K,A*03
$GPGGA,225239.000,3748.7992,N,12217.8606,W,1,05,1.6,24.7,M,-25.1,M,,0000*59
$GPGSA,A,3,23,16,10,20,32,,,,,,,,3.3,1.6,2.8*3B
$GPRMC,225239.000,A,3748.7992,N,12217.8606,W,0.19,275.94,030412,,,A*72
$GPVTG,275.94,T,,M,0.19,N,0.4,K,A*0C
$GPGGA,225240.000,3748.7993,N,12217.8610,W,1,06,1.5,24.0,M,-25.1,M,,0000*56
$GPGSA,A,3,23,13,16,10,20,32,,,,,,,3.0,1.5,2.6*37
$GPRMC,225240.000,A,3748.7993,N,12217.8610,W,0.13,279.48,030412,,,A*7D
$GPVTG,279.48,T,,M,0.13,N,0.2,K,A*0D
$GPGGA,225241.000,3748.7987,N,12217.8608,W,1,06,1.5,26.3,M,-25.1,M,,0000*5A
$GPGSA,A,3,23,13,16,10,20,32,,,,,,,3.0,1.5,2.6*37
$GPRMC,225241.000,A,3748.7987,N,12217.8608,W,0.10,249.09,030412,,,A*75
$GPVTG,249.09,T,,M,0.10,N,0.2,K,A*08
$GPGGA,225242.000,3748.7983,N,12217.8606,W,1,06,1.5,28.0,M,-25.1,M,,0000*5E
$GPGSA,A,3,23,13,16,10,20,32,,,,,,,3.0,1.5,2.6*37
$GPGSV,3,1,12,23,72,032,27,13,53,321,21,16,48,070,33,20,43,180,28*75
$GPGSV,3,2,12,07,40,256,24,30,28,047,23,10,27,312,23,32,24,158,30*79
$GPGSV,3,3,12,03,12,116,23,04,11,281,16,06,10,101,21,08,08,242,*75
$GPRMC,225242.000,A,3748.7983,N,12217.8606,W,0.11,145.80,030412,,,A*73
$GPVTG,145.80,T,,M,0.11,N,0.2,K,A*07
$GPGGA,225243.000,3748.7983,N,12217.8605,W,1,05,2.0,28.3,M,-25.1,M,,0000*5A
$GPGSA,A,3,23,13,16,20,32,,,,,,,,4.8,2.0,4.4*3B
$GPRMC,225243.000,A,3748.7983,N,12217.8605,W,0.23,129.14,030412,,,A*77
$GPVTG,129.14,T,,M,0.23,N,0.4,K,A*07
$GPGGA,225244.000,3748.7981,N,12217.8600,W,1,05,2.0,27.8,M,-25.1,M,,0000*5E
$GPGSA,A,3,23,13,16,20,32,,,,,,,,4.8,2.0,4.4*3B
$GPRMC,225244.000,A,3748.7981,N,12217.8600,W,0.60,123.21,030412,,,A*7C
$GPVTG,123.21,T,,M,0.60,N,1.1,K,A*08
$GPGGA,225245.000,3748.7984,N,12217.8601,W,1,06,1.5,25.0,M,-25.1,M,,0000*54
$GPGSA,A,3,23,13,16,10,20,32,,,,,,,3.0,1.5,2.6*37
$GPRMC,225245.000,A,3748.7984,N,12217.8601,W,0.68,94.02,030412,,,A*4D
$GPVTG,94.02,T,,M,0.68,N,1.3,K,A*3E
$GPGGA,225246.000,3748.7989,N,12217.8606,W,1,06,1.5,22.3,M,-25.1,M,,0000*59
$GPGSA,A,3,23,13,16,10,20,32,,,,,,,3.0,1.5,2.6*37
$GPRMC,225246.000,A,3748.7989,N,12217.8606,W,0.53,12.43,030412,,,A*47
$GPVTG,12.43,T,,M,0.53,N,1.0,K,A*3E
$GPGGA,225247.000,3748.7991,N,12217.8611,W,1,06,1.5,20.8,M,-25.1,M,,0000*5E
$GPGSA,A,3,23,13,16,10,20,32,,,,,,,3.0,1.5,2.6*37
$GPGSV,3,1,12,23,72,032,29,13,53,321,31,16,48,070,32,20,43,180,25*76
$GPGSV,3,2,12,07,40,256,30,30,28,047,33,10,27,312,31,32,24,158,22*7D
$GPGSV,3,3,12,03,12,116,27,04,11,281,35,06,10,101,21,08,08,242,*70
$GPRMC,225247.000,A,3748.7991,N,12217.8611,W,0.87,218.71,030412,,,A*79
$GPVTG,218.71,T,,M,0.87,N,1.6,K,A*08
$GPGGA,225248.000,3748.7991,N,12217.8615,W,1,06,1.5,19.1,M,-25.1,M,,0000*56
$GPGSA,A,3,23,13,16,10,20,32,,,,,,,3.0,1.5,2.6*37
$GPRMC,225248.000,A,3748.7991,N,12217.8615,W,0.77,222.16,030412,,,A*75
$GPVTG,222.16,T,,M,0.77,N,1.4,K,A*0D
$GPGGA,225249.000,3748.7987,N,12217.8621,W,1,06,1.5,15.9,M,-25.1,M,,0000*53
$GPGSA,A,3,23,13,16,10,20,32,,,,,,,3.0,1.5,2.6*37
$GPRMC,225249.000,A,3748.7987,N,12217.8621,W,1.53,221.04,030412,,,A*73
$GPVTG,221.04,T,,M,1.53,N,2.8,K,A*05
$GPGGA,225250.000,3748.7986,N,12217.8623,W,1,04,13.1,14.2,M,-25.1,M,,0000*67
$GPGSA,A,3,23,13,16,10,,,,,,,,,13.2,13.1,1.0*35
$GPRMC,225250.000,A,3748.7986,N,12217.8623,W,0.90,197.96,030412,,,A*73
$GPVTG,197.96,T,,M,0.90,N,1.7,K,A*02
$GPGGA,225251.000,3748.7985,N,12217.8621,W,1,05,1.7,10.9,M,-25.1,M,,0000*5C
$GPGSA,A,3,23,13,16,10,20,,,,,,,,3.8,1.7,3.4*3F
$GPRMC,225251.000,A,3748.7985,N,12217.8621,W,1.40,195.36,030412,,,A*77
$GPVTG,195.36,T,,M,1.40,N,2.6,K,A*04
$GPGGA,225252.000,3748.7983,N,12217.8624,W,1,04,13.1,8.1,M,-25.1,M,,0000*59
$GPGSA,A,3,23,13,16,10,,,,,,,,,13.2,13.1,1.0*35
$GPGSV,3,1,12,23,72,032,24,13,53,321,34,16,48,070,23,20,43,180,12*7A
$GPGSV,3,2,12,07,40,256,32,30,28,047,,10,27,312,32,32,24,158,*7C
$GPGSV,3,3,12,03,12,116,,04,11,281,28,06,10,101,,08,08,242,*7A
$GPVTG,205.22,T,,M,1.55,N,2.9,K,A*00
$GPGGA,225253.000,3748.7981,N,12217.8620,W,1,04,13.1,6.2,M,-25.1,M,,0000*53
$GPGSA,A,3,23,13,16,10,,,,,,,,,13.1,13.1,1.0*36
$GPRMC,225253.000,A,3748.7981,N,12217.8620,W,1.54,208.01,030412,,,A*76
$GPVTG,208.01,T,,M,1.54,N,2.8,K,A*0C
$GPGGA,225254.000,3748.7981,N,12217.8616,W,1,04,13.1,2.8,M,-25.1,M,,0000*5F
$GPGSA,A,3,23,13,16,10,,,,,,,,,13.1,13.1,1.0*36
$GPRMC,225254.000,A,3748.7981,N,12217.8616,W,1.32,204.46,030412,,,A*7B
$GPVTG,204.46,T,,M,1.32,N,2.4,K,A*0F
$GPGGA,225255.000,3748.7978,N,12217.8616,W,1,04,13.1,0.8,M,-25.1,M,,0000*5A
$GPGSA,A,3,23,13,16,10,,,,,,,,,13.1,13.1,1.0*36
$GPRMC,225255.000,A,3748.7978,N,12217.8616,W,1.51,204.26,030412,,,A*7F
$GPVTG,204.26,T,,M,1.51,N,2.8,K,A*00
$GPGGA,225256.000,3748.7972,N,12217.8620,W,1,04,13.1,0.2,M,-25.1,M,,0000*5C
$GPGSA,A,3,23,13,16,10,,,,,,,,,13.1,13.1,1.0*36
$GPRMC,225256.000,A,3748.7972,N,12217.8620,W,2.03,207.48,030412,,,A*7C
$GPVTG,207.48,T,,M,2.03,N,3.8,K,A*0E
$GPGGA,225257.000,3748.7979,N,12217.8614,W,1,04,13.1,-1.5,M,-25.1,M,,0000*7A
$GPGSA,A,3,23,13,16,10,,,,,,,,,13.1,13.1,1.0*36
$GPGSV,3,1,12,23,72,032,24,13,53,321,34,16,48,070,22,20,43,180,*78
$GPGSV,3,2,12,07,40,256,31,30,28,047,,10,27,312,31,32,24,158,*7C
$GPGSV,3,3,12,03,12,116,,04,11,281,28,06,10,101,,08,08,242,*7A
$GPRMC,225257.000,A,3748.7979,N,12217.8614,W,0.73,140.67,030412,,,A*79
$GPVTG,140.67,T,,M,0.73,N,1.4,K,A*08
$GPGGA,225258.000,3748.7974,N,12217.8619,W,1,04,13.1,-2.0,M,-25.1,M,,0000*73
$GPGSA,A,3,23,13,16,10,,,,,,,,,13.1,13.1,1.0*36
$GPRMC,225258.000,A,3748.7974,N,12217.8619,W,1.06,143.05,030412,,,A*72
$GPVTG,143.05,T,,M,1.06,N,2.0,K,A*0B
$GPGGA,225259.000,3748.7960,N,12217.8633,W,1,04,13.0,-2.7,M,-25.1,M,,0000*79
$GPGSA,A,3,23,13,16,10,,,,,,,,,13.1,13.0,1.0*37
$GPRMC,225259.000,A,3748.7960,N,12217.8633,W,2.36,195.82,030412,,,A*7A
$GPVTG,195.82,T,,M,2.36,N,4.4,K,A*0D
$GPGGA,225300.000,3748.7958,N,12217.8639,W,1,04,13.0,-3.8,M,-25.1,M,,0000*7B
$GPGSA,A,3,23,13,16,10,,,,,,,,,13.1,13.0,1.0*37
$GPRMC,225300.000,A,3748.7958,N,12217.8639,W,2.78,202.99,030412,,,A*7B
$GPVTG,202.99,T,,M,2.78,N,5.2,K,A*07
$GPGGA,225301.000,3748.7949,N,12217.8642,W,1,04,13.0,-4.2,M,-25.1,M,,0000*7B
$GPGSA,A,3,23,13,16,10,,,,,,,,,13.1,13.0,1.0*37
$GPRMC,225301.000,A,3748.7949,N,12217.8642,W,3.09,204.42,030412,,,A*71
$GPVTG,204.42,T,,M,3.09,N,5.7,K,A*05
$GPGGA,225302.000,3748.7942,N,12217.8643,W,1,04,13.0,-4.5,M,-25.1,M,,0000*75
$GPGSA,A,3,23,13,16,10,,,,,,,,,13.1,13.0,1.0*37
$GPGSV,3,1,12,23,72,032,24,13,53,321,34,16,48,070,21,20,43,180,*7B
$GPGSV,3,2,12,07,40,256,31,30,28,047,,10,27,312,31,32,24,158,*7C
$GPGSV,3,3,12,03,12,116,,04,11,281,,06,10,101,,08,08,242,*70
$GPRMC,225302.000,A,3748.7942,N,12217.8643,W,3.11,199.14,030412,,,A*75
$GPVTG,199.14,T,,M,3.11,N,5.8,K,A*07
$GPGGA,225303.000,3748.7935,N,12217.8648,W,1,04,13.0,-4.8,M,-25.1,M,,0000*72
$GPGSA,A,3,23,13,16,10,,,,,,,,,13.0,13.0,1.0*36
$GPRMC,225303.000,A,3748.7935,N,12217.8648,W,3.15,198.83,030412,,,A*74
$GPVTG,198.83,T,,M,3.15,N,5.8,K,A*0C
$GPGGA,225304.000,3748.7920,N,12217.8658,W,1,04,13.0,-4.9,M,-25.1,M,,0000*71
$GPGSA,A,3,23,13,16,10,,,,,,,,,13.0,13.0,1.0*36
$GPRMC,225304.000,A,3748.7920,N,12217.8658,W,3.56,195.80,030412,,,A*7F
$GPVTG,195.80,T,,M,3.56,N,6.6,K,A*08
$GPGGA,225305.000,3748.7936,N,12217.8648,W,1,05,1.7,-5.0,M,-25.1,M,,0000*4B
$GPGSA,A,3,23,13,16,10,20,,,,,,,,3.8,1.7,3.4*3F
$GPRMC,225305.000,A,3748.7936,N,12217.8648,W,1.59,180.12,030412,,,A*7A
$GPVTG,180.12,T,,M,1.59,N,2.9,K,A*01
$GPGGA,225306.000,3748.7971,N,12217.8631,W,1,05,1.7,-4.9,M,-25.1,M,,0000*4D
$GPGSA,A,3,23,13,16,10,20,,,,,,,,3.8,1.7,3.4*3F
$GPRMC,225306.000,A,3748.7971,N,12217.8631,W,0.49,155.22,030412,,,A*7F
$GPVTG,155.22,T,,M,0.49,N,0.9,K,A*08
$GPGGA,225307.000,3748.8000,N,12217.8616,W,1,05,1.7,-5.0,M,-25.1,M,,0000*41
$GPGSA,A,3,23,13,16,10,20,,,,,,,,3.8,1.7,3.4*3F
$GPGSV,3,1,12,23,72,032,31,13,53,321,35,16,48,070,25,20,43,180,24*7C
$GPGSV,3,2,12,07,40,256,32,30,28,047,,10,27,312,31,32,24,158,*7F
$GPGSV,3,3,12,03,12,116,,04,11,281,28,06,10,101,,08,08,242,*7A
$GPVTG,38.24,T,,M,0.87,N,1.6,K,A*38
$GPGGA,225308.000,3748.8017,N,12217.8607,W,1,05,1.7,-5.1,M,-25.1,M,,0000*49
$GPGSA,A,3,23,13,16,10,20,,,,,,,,3.8,1.7,3.4*3F
$GPRMC,225308.000,A,3748.8017,N,12217.8607,W,0.56,44.81,030412,,,A*44
$GPVTG,44.81,T,,M,0.56,N,1.0,K,A*36
$GPGGA,225309.000,3748.8025,N,12217.8602,W,1,05,1.7,-5.4,M,-25.1,M,,0000*49
$GPGSA,A,3,23,13,16,10,20,,,,,,,,3.8,1.7,3.4*3F
$GPRMC,225309.000,A,3748.8025,N,12217.8602,W,1.03,28.72,030412,,,A*46
$GPVTG,28.72,T,,M,1.03,N,1.9,K,A*38
$GPGGA,225310.000,3748.8031,N,12217.8599,W,1,05,1.7,-5.8,M,-25.1,M,,0000*49
$GPGSA,A,3,23,13,16,10,20,,,,,,,,3.8,1.7,3.4*3F
$GPRMC,225310.000,A,3748.8031,N,12217.8599,W,0.46,49.51,030412,,,A*4C
$GPVTG,49.51,T,,M,0.46,N,0.9,K,A*3F
$GPGGA,225311.000,3748.8026,N,12217.8599,W,1,05,1.7,-6.3,M,-25.1,M,,0000*46
$GPGSA,A,3,23,13,16,10,20,,,,,,,,3.8,1.7,3.4*3F
$GPRMC,225311.000,A,3748.8026,N,12217.8599,W,0.76,31.70,030412,,,A*44
$GPVTG,31.70,T,,M,0.76,N,1.4,K,A*3C
$GPGGA,225312.000,3748.8026,N,12217.8598,W,1,05,1.7,-6.8,M,-25.1,M,,0000*4F
$GPGSA,A,3,23,13,16,10,20,,,,,,,,3.8,1.7,3.4*3F
$GPGSV,3,1,12,23,72,035,32,13,54,322,37,16,48,069,31,20,42,180,21*77
$GPGSV,3,2,12,07,40,256,32,10,28,312,34,30,27,046,21,32,23,158,*7F
$GPGSV,3,3,12,03,12,116,,04,11,281,29,06,10,100,,08,08,242,*7A
$GPRMC,225312.000,A,3748.8026,N,12217.8598,W,0.61,37.24,030412,,,A*47
$GPVTG,37.24,T,,M,0.61,N,1.1,K,A*38
$GPGGA,225313.000,3748.8028,N,12217.8596,W,1,05,1.7,-7.1,M,-25.1,M,,0000*46
$GPGSA,A,3,23,13,16,10,20,,,,,,,,3.8,1.7,3.4*3F
$GPRMC,225313.000,A,3748.8028,N,12217.8596,W,0.27,133.82,030412,,,A*7D
$GPVTG,133.82,T,,M,0.27,N,0.5,K,A*06
$GPGGA,225314.000,3748.8022,N,12217.8597,W,1,05,1.7,-7.6,M,-25.1,M,,0000*4D
$GPGSA,A,3,23,13,16,10,20,,,,,,,,3.8,1.7,3.4*3F
$GPRMC,225314.000,A,3748.8022,N,12217.8597,W,0.20,82.81,030412,,,A*4E
$GPVTG,82.81,T,,M,0.20,N,0.4,K,A*38
$GPGGA,225315.000,3748.8020,N,12217.8597,W,1,05,1.7,-8.0,M,-25.1,M,,0000*47
$GPGSA,A,3,23,13,16,10,20,,,,,,,,3.8,1.7,3.4*3F
$GPRMC,225315.000,A,3748.8020,N,12217.8597,W,0.75,178.46,030412,,,A*72
$GPVTG,178.46,T,,M,0.75,N,1.4,K,A*06
$GPGGA,225316.000,3748.8022,N,12217.8595,W,1,05,1.7,-8.2,M,-25.1,M,,0000*46
$GPGSA,A,3,23,13,16,10,20,,,,,,,,3.8,1.7,3.4*3F
$GPRMC,225316.000,A,3748.8022,N,12217.8595,W,0.19,108.79,030412,,,A*70
$GPVTG,108.79,T,,M,0.19,N,0.4,K,A*06
$GPGGA,225317.000,3748.8022,N,12217.8594,W,1,05,1.7,-8.4,M,-25.1,M,,0000*40
$GPGSA,A,3,23,13,16,10,20,,,,,,,,3.8,1.7,3.4*3F
$GPGSV,3,1,12,23,72,035,32,13,54,322,38,16,48,069,31,20,42,180,20*79
$GPGSV,3,2,12,07,40,256,33,10,28,312,34,30,27,046,21,32,23,158,*7E
$GPGSV,3,3,12,03,12,116,,04,11,281,29,06,10,100,,08,08,242,*7A
$GPRMC,225317.000,A,3748.8022,N,12217.8594,W,0.69,32.35,030412,,,A*47
$GPVTG,32.35,T,,M,0.69,N,1.3,K,A*37
$GPGGA,225318.000,3748.8025,N,12217.8593,W,1,05,1.7,-8.5,M,-25.1,M,,0000*4E
$GPGSA,A,3,23,13,16,10,20,,,,,,,,3.8,1.7,3.4*3F
$GPRMC,225318.000,A,3748.8025,N,12217.8593,W,1.46,22.43,030412,,,A*44
$GPVTG,22.43,T,,M,1.46,N,2.7,K,A*3C
$GPGGA,225319.000,3748.8020,N,12217.8594,W,1,05,1.7,-8.8,M,-25.1,M,,0000*40
$GPGSA,A,3,23,13,16,10,20,,,,,,,,3.8,1.7,3.4*3F
$GPRMC,225319.000,A,3748.8020,N,12217.8594,W,0.27,143.88,030412,,,A*70
$GPVTG,143.88,T,,M,0.27,N,0.5,K,A*0B
$GPGGA,225320.000,3748.8022,N,12217.8593,W,1,05,1.7,-8.8,M,-25.1,M,,0000*4F
$GPGSA,A,3,23,13,16,10,20,,,,,,,,3.8,1.7,3.4*3F
$GPRMC,225320.000,A,3748.8022,N,12217.8593,W,0.28,151.80,030412,,,A*7B
$GPVTG,151.80,T,,M,0.28,N,0.5,K,A*0F
$GPGGA,225321.000,3748.8026,N,12217.8591,W,1,05,1.7,-8.9,M,-25.1,M,,0000*49
$GPGSA,A,3,23,13,16,10,20,,,,,,,,3.8,1.7,3.4*3F
$GPRMC,225321.000,A,3748.8026,N,12217.8591,W,0.62,177.53,030412,,,A*78
$GPVTG,177.53,T,,M,0.62,N,1.1,K,A*0E
$GPGGA,225322.000,3748.8029,N,12217.8589,W,1,05,1.7,-8.9,M,-25.1,M,,0000*4C
$GPGSA,A,3,23,13,16,10,20,,,,,,,,3.8,1.7,3.4*3F
$GPGSV,3,1,12,23,72,035,33,13,54,322,38,16,48,069,31,20,42,180,20*78
$GPGSV,3,2,12,07,40,256,33,10,28,312,34,30,27,046,21,32,23,158,*7E
$GPGSV,3,3,12,03,12,116,,04,11,281,29,06,10,100,,08,08,242,*7A
$GPRMC,225322.000,A,3748.8029,N,12217.8589,W,0.40,39.53,030412,,,A*46
$GPGGA,225323.000,3748.8032,N,12217.8588,W,1,05,1.7,-8.8,M,-25.1,M,,0000*47
$GPGSA,A,3,23,13,16,10,20,,,,,,,,3.8,1.7,3.4*3F
$GPRMC,225323.000,A,3748.8032,N,12217.8588,W,0.38,41.21,030412,,,A*49
$GPVTG,41.21,T,,M,0.38,N,0.7,K,A*37
$GPGGA,225324.000,3748.8039,N,12217.8586,W,1,05,1.7,-8.7,M,-25.1,M,,0000*4A
$GPGSA,A,3,23,13,16,10,20,,,,,,,,3.8,1.7,3.4*3F
$GPRMC,225324.000,A,3748.8039,N,12217.8586,W,0.19,71.82,030412,,,A*42
$GPVTG,71.82,T,,M,0.19,N,0.4,K,A*3D
$GPGGA,225325.000,3748.8042,N,12217.8585,W,1,05,1.7,-8.6,M,-25.1,M,,0000*45
$GPGSA,A,3,23,13,16,10,20,,,,,,,,3.8,1.7,3.4*3F
$GPRMC,225325.000,A,3748.8042,N,12217.8585,W,0.75,26.86,030412,,,A*40
$GPVTG,26.86,T,,M,0.75,N,1.4,K,A*30
$GPGGA,225326.000,3748.8038,N,12217.8586,W,1,05,1.7,-8.6,M,-25.1,M,,0000*48
$GPGSA,A,3,23,13,16,10,20,,,,,,,,3.8,1.7,3.4*3F
$GPRMC,225326.000,A,3748.8038,N,12217.8586,W,0.34,168.31,030412,,,A*7F
$GPVTG,168.31,T,,M,0.34,N,0.6,K,A*01
$GPGGA,225327.000,3748.8034,N,12217.8588,W,1,05,1.7,-8.7,M,-25.1,M,,0000*4A
$GPGSA,A,3,23,13,16,10,20,,,,,,,,3.8,1.7,3.4*3F
$GPGSV,3,1,12,23,72,035,33,13,54,322,38,16,48,069,31,20,42,180,20*78
$GPGSV,3,2,12,07,40,256,33,10,28,312,34,30,27,046,20,32,23,158,*7F
$GPGSV,3,3,12,03,12,116,,04,11,281,29,06,10,100,,08,08,242,*7A
$GPRMC,225327.000,A,3748.8034,N,12217.8588,W,0.50,180.35,030412,,,A*7C
$GPVTG,180.35,T,,M,0.50,N,0.9,K,A*0E
$GPGGA,225328.000,3748.8031,N,12217.8589,W,1,05,1.7,-8.7,M,-25.1,M,,0000*41
$GPGSA,A,3,23,13,16,10,20,,,,,,,,3.8,1.7,3.4*3F
$GPRMC,225328.000,A,3748.8031,N,12217.8589,W,0.51,176.23,030412,,,A*78
$GPVTG,176.23,T,,M,0.51,N,0.9,K,A*01
$GPGGA,225329.000,3748.8030,N,12217.8591,W,1,05,1.7,-8.3,M,-25.1,M,,0000*4C
$GPGSA,A,3,23,13,16,10,20,,,,,,,,3.8,1.7,3.4*3F
$GPRMC,225329.000,A,3748.8030,N,12217.8591,W,0.19,159.12,030412,,,A*72
$GPVTG,159.12,T,,M,0.19,N,0.4,K,A*0F
$GPGGA,225330.000,3748.8031,N,12217.8593,W,1,05,1.7,-7.4,M,-25.1,M,,0000*4F
$GPGSA,A,3,23,13,16,10,20,,,,,,,,3.8,1.7,3.4*3F
$GPRMC,225330.000,A,3748.8031,N,12217.8593,W,0.45,169.56,030412,,,A*73
$GPVTG,169.56,T,,M,0.45,N,0.8,K,A*09
$GPGGA,225331.000,3748.8032,N,12217.8597,W,1,05,1.7,-7.5,M,-25.1,M,,0000*48
$GPGSA,A,3,23,13,16,10,20,,,,,,,,3.8,1.7,3.4*3F
$GPRMC,225331.000,A,3748.8032,N,12217.8597,W,1.11,236.74,030412,,,A*7C
$GPVTG,236.74,T,,M,1.11,N,2.1,K,A*0B
$GPGGA,225332.000,3748.8033,N,12217.8597,W,1,05,1.7,-6.3,M,-25.1,M,,0000*4D
$GPGSA,A,3,23,13,16,10,20,,,,,,,,3.8,1.7,3.4*3F
$GPGSV,3,1,12,23,72,035,26,13,54,322,22,16,48,069,27,20,42,180,20*70
$GPGSV,3,2,12,07,40,256,31,10,28,312,21,30,27,046,22,32,23,158,*7B
$GPGSV,3,3,12,03,12,116,20,04,11,281,,06,10,100,,08,08,242,*73
$GPRMC,225332.000,A,3748.8033,N,12217.8597,W,0.80,210.12,030412,,,A*73
$GPVTG,210.12,T,,M,0.80,N,1.5,K,A*01
$GPGGA,225333.000,3748.8032,N,12217.8595,W,1,05,1.7,-6.9,M,-25.1,M,,0000*45
$GPGSA,A,3,23,13,16,10,20,,,,,,,,3.8,1.7,3.4*3F
$GPRMC,225333.000,A,3748.8032,N,12217.8595,W,0.36,105.77,030412,,,A*78
$GPVTG,105.77,T,,M,0.36,N,0.7,K,A*0B
$GPGGA,225334.000,3748.8028,N,12217.8601,W,1,04,1.9,-6.7,M,-25.1,M,,0000*46
$GPGSA,A,3,23,16,10,20,,,,,,,,,4.5,1.9,4.1*3B
$GPRMC,225334.000,A,3748.8028,N,12217.8601,W,0.43,302.76,030412,,,A*7C
$GPVTG,302.76,T,,M,0.43,N,0.8,K,A*02
$GPGGA,225335.000,3748.8033,N,12217.8601,W,1,06,1.5,-7.6,M,-25.1,M,,0000*43
$GPGSA,A,3,23,16,32,10,20,13,,,,,,,3.0,1.5,2.6*37
$GPRMC,225335.000,A,3748.8033,N,12217.8601,W,0.76,26.62,030412,,,A*41
$GPVTG,26.62,T,,M,0.76,N,1.4,K,A*39
$GPGGA,225336.000,3748.8037,N,12217.8608,W,1,06,1.5,-5.8,M,-25.1,M,,0000*41
$GPGSA,A,3,23,16,32,10,20,13,,,,,,,3.0,1.5,2.6*37
$GPRMC,225336.000,A,3748.8037,N,12217.8608,W,0.49,352.85,030412,,,A*7A
$GPVTG,352.85,T,,M,0.49,N,0.9,K,A*00
$GPGGA,225337.000,3748.8040,N,12217.8615,W,1,06,1.5,-4.8,M,-25.1,M,,0000*4D
$GPGSA,A,3,23,16,32,10,20,13,,,,,,,3.0,1.5,2.6*37
$GPGSV,3,1,12,23,72,035,27,13,54,322,29,16,48,069,27,20,42,180,14*7D
$GPGSV,3,2,12,07,40,256,30,10,28,312,31,30,27,046,21,32,23,158,19*70
$GPGSV,3,3,12,03,12,116,31,04,11,281,38,06,10,100,22,08,08,242,*78
$GPRMC,225337.000,A,3748.8040,N,12217.8615,W,1.17,281.61,030412,,,A*78
$GPGGA,225338.000,3748.8040,N,12217.8622,W,1,05,1.6,-3.8,M,-25.1,M,,0000*41
$GPGSA,A,3,23,16,32,10,20,,,,,,,,3.3,1.6,2.8*3B
$GPRMC,225338.000,A,3748.8040,N,12217.8622,W,1.29,215.45,030412,,,A*75
$GPVTG,215.45,T,,M,1.29,N,2.4,K,A*06
$GPGGA,225339.000,3748.8038,N,12217.8626,W,1,04,2.4,-3.2,M,-25.1,M,,0000*41
$GPGSA,A,3,23,16,32,10,,,,,,,,,4.4,2.4,3.7*36
$GPRMC,225339.000,A,3748.8038,N,12217.8626,W,0.92,233.47,030412,,,A*78
$GPVTG,233.47,T,,M,0.92,N,1.7,K,A*01
$GPGGA,225340.000,3748.8036,N,12217.8632,W,1,04,2.4,-2.7,M,-25.1,M,,0000*40
$GPGSA,A,3,23,16,32,10,,,,,,,,,4.4,2.4,3.7*36
$GPRMC,225340.000,A,3748.8036,N,12217.8632,W,1.37,231.74,030412,,,A*71
$GPVTG,231.74,T,,M,1.37,N,2.5,K,A*0C
$GPGGA,225341.000,3748.8032,N,12217.8635,W,1,03,2.8,-2.9,M,-25.1,M,,0000*47
$GPGSA,A,2,23,32,10,,,,,,,,,,3.0,2.8,1.0*3A
$GPRMC,225341.000,A,3748.8032,N,12217.8635,W,1.60,236.30,030412,,,A*76
$GPVTG,236.30,T,,M,1.60,N,3.0,K,A*0D
$GPGGA,225342.000,3748.8029,N,12217.8646,W,1,05,2.1,-1.0,M,-25.1,M,,0000*4F
$GPGSA,A,3,23,13,16,32,10,,,,,,,,3.8,2.1,3.2*3F
$GPGSV,3,1,12,23,72,035,27,13,54,322,28,16,48,069,16,20,42,180,*7B
$GPGSV,3,2,12,07,40,256,30,10,28,312,26,30,27,046,21,32,23,158,22*7E
$GPGSV,3,3,12,03,12,116,,04,11,281,,06,10,100,,08,08,242,*71
$GPRMC,225342.000,A,3748.8029,N,12217.8646,W,2.11,236.36,030412,,,A*78
$GPVTG,236.36,T,,M,2.11,N,3.9,K,A*07
$GPGGA,225343.000,3748.8033,N,12217.8641,W,1,04,2.4,-0.9,M,-25.1,M,,0000*4E
$GPGSA,A,3,23,16,32,10,,,,,,,,,4.4,2.4,3.7*36
$GPRMC,225343.000,A,3748.8033,N,12217.8641,W,1.10,260.00,030412,,,A*71
$GPVTG,260.00,T,,M,1.10,N,2.0,K,A*0B
$GPGGA,225344.000,3748.8033,N,12217.8650,W,1,04,2.4,0.4,M,-25.1,M,,0000*69
$GPGSA,A,3,23,16,32,10,,,,,,,,,4.4,2.4,3.7*36
$GPRMC,225344.000,A,3748.8033,N,12217.8650,W,0.81,247.37,030412,,,A*7E
$GPVTG,247.37,T,,M,0.81,N,1.5,K,A*05
$GPGGA,225345.000,3748.8034,N,12217.8652,W,1,04,2.4,1.5,M,-25.1,M,,0000*6D
$GPGSA,A,3,23,16,32,10,,,,,,,,,4.4,2.4,3.7*36
$GPRMC,225345.000,A,3748.8034,N,12217.8652,W,0.19,270.50,030412,,,A*7E
$GPVTG,270.50,T,,M,0.19,N,0.3,K,A*06
$GPGGA,225346.000,3748.8038,N,12217.8655,W,1,04,2.4,3.1,M,-25.1,M,,0000*63
$GPGSA,A,3,23,16,32,10,,,,,,,,,4.4,2.4,3.7*36
$GPRMC,225346.000,A,3748.8038,N,12217.8655,W,0.67,246.92,030412,,,A*74
$GPVTG,246.92,T,,M,0.67,N,1.2,K,A*04
$GPGGA,225347.000,3748.8043,N,12217.8647,W,1,04,2.4,2.9,M,-25.1,M,,0000*64
$GPGSA,A,3,23,16,32,10,,,,,,,,,4.4,2.4,3.7*36
$GPGSV,3,1,12,23,72,036,27,13,54,322,,16,48,068,18,20,42,180,*7D
$GPGSV,3,2,12,07,40,257,30,10,28,311,26,30,27,046,21,32,23,158,23*7D
$GPGSV,3,3,12,03,13,116,,04,11,280,,06,10,100,,08,08,242,*71
$GPRMC,225347.000,A,3748.8043,N,12217.8647,W,0.20,16.94,030412,,,A*48
$GPVTG,16.94,T,,M,0.20,N,0.4,K,A*31
$GPGGA,225348.000,3748.8043,N,12217.8642,W,1,04,2.4,2.6,M,-25.1,M,,0000*61
$GPGSA,A,3,23,16,32,10,,,,,,,,,4.4,2.4,3.7*36
$GPRMC,225348.000,A,3748.8043,N,12217.8642,W,0.48,76.76,030412,,,A*46
$GPVTG,76.76,T,,M,0.48,N,0.9,K,A*38
$GPGGA,225349.000,3748.8037,N,12217.8648,W,1,04,2.4,3.5,M,-25.1,M,,0000*6B
$GPGSA,A,3,23,16,32,10,,,,,,,,,4.4,2.4,3.7*36
$GPRMC,225349.000,A,3748.8037,N,12217.8648,W,0.08,46.39,030412,,,A*42
$GPVTG,46.39,T,,M,0.08,N,0.1,K,A*3C
$GPGGA,225350.000,3748.8035,N,12217.8653,W,1,05,2.1,4.7,M,-25.1,M,,0000*6A
$GPGSA,A,3,23,13,16,32,10,,,,,,,,3.8,2.1,3.2*3F
$GPRMC,225350.000,A,3748.8035,N,12217.8653,W,0.87,1.30,030412,,,A*7F
$GPVTG,1.30,T,,M,0.87,N,1.6,K,A*07
$GPGGA,225351.000,3748.8036,N,12217.8651,W,1,06,1.4,4.8,M,-25.1,M,,0000*60
$GPGSA,A,3,23,13,16,32,10,07,,,,,,,3.0,1.4,2.7*32
$GPRMC,225351.000,A,3748.8036,N,12217.8651,W,0.93,341.25,030412,,,A*79
$GPVTG,341.25,T,,M,0.93,N,1.7,K,A*00
$GPGGA,225352.000,3748.8036,N,12217.8645,W,1,07,1.2,3.7,M,-25.1,M,,0000*69
$GPGSA,A,3,23,13,16,32,10,20,07,,,,,,2.8,1.2,2.5*3D
$GPGSV,3,1,12,23,72,036,32,13,54,322,35,16,48,068,28,20,42,180,25*7B
$GPGSV,3,2,12,07,40,257,33,10,28,311,31,30,27,046,,32,23,158,29*71
$GPGSV,3,3,12,03,13,116,32,04,11,280,29,06,10,100,,08,08,242,*7B
$GPRMC,225352.000,A,3748.8036,N,12217.8645,W,0.30,35.30,030412,,,A*42
$GPGGA,225353.000,3748.8037,N,12217.8636,W,1,06,1.7,2.5,M,-25.1,M,,0000*6A
$GPGSA,A,3,23,13,16,32,20,07,,,,,,,4.5,1.7,4.2*33
$GPRMC,225353.000,A,3748.8037,N,12217.8636,W,0.03,330.43,030412,,,A*74
$GPVTG,330.43,T,,M,0.03,N,0.1,K,A*08
$GPGGA,225354.000,3748.8033,N,12217.8635,W,1,07,1.2,2.8,M,-25.1,M,,0000*63
$GPGSA,A,3,23,13,16,32,10,20,07,,,,,,2.8,1.2,2.5*3D
$GPRMC,225354.000,A,3748.8033,N,12217.8635,W,0.24,151.50,030412,,,A*76
$GPVTG,151.50,T,,M,0.24,N,0.4,K,A*0F
$GPGGA,225355.000,3748.8026,N,12217.8633,W,1,07,1.2,3.3,M,-25.1,M,,0000*6A
$GPGSA,A,3,23,13,16,32,10,20,07,,,,,,2.8,1.2,2.5*3D
$GPRMC,225355.000,A,3748.8026,N,12217.8633,W,0.28,90.96,030412,,,A*4F
$GPVTG,90.96,T,,M,0.28,N,0.5,K,A*34
$GPGGA,225356.000,3748.8026,N,12217.8629,W,1,07,1.2,3.9,M,-25.1,M,,0000*68
$GPGSA,A,3,23,13,16,32,10,20,07,,,,,,2.8,1.2,2.5*3D
$GPRMC,225356.000,A,3748.8026,N,12217.8629,W,0.57,259.25,030412,,,A*70
$GPVTG,259.25,T,,M,0.57,N,1.1,K,A*06
$GPGGA,225357.000,3748.8030,N,12217.8625,W,1,06,1.3,4.4,M,-25.1,M,,0000*68
$GPGSA,A,3,23,16,32,10,20,07,,,,,,,2.9,1.3,2.6*3C
$GPGSV,3,1,12,23,72,036,31,13,54,322,,16,48,068,32,20,42,180,16*75
$GPGSV,3,2,12,07,40,257,31,10,28,311,30,30,27,046,17,32,23,158,25*78
$GPGSV,3,3,12,03,13,116,30,04,11,280,,06,10,100,19,08,08,242,*7A
$GPRMC,225357.000,A,3748.8030,N,12217.8625,W,0.33,4.08,030412,,,A*7D
$GPVTG,4.08,T,,M,0.33,N,0.6,K,A*07
$GPGGA,225358.000,3748.8033,N,12217.8621,W,1,07,1.2,3.9,M,-25.1,M,,0000*6A
$GPGSA,A,3,23,13,16,32,10,20,07,,,,,,2.8,1.2,2.5*3D
$GPRMC,225358.000,A,3748.8033,N,12217.8621,W,0.14,158.00,030412,,,A*70
$GPVTG,158.00,T,,M,0.14,N,0.3,K,A*07
$GPGGA,225359.000,3748.8034,N,12217.8619,W,1,07,1.2,3.2,M,-25.1,M,,0000*6C
$GPGSA,A,3,23,13,16,32,10,20,07,,,,,,2.8,1.2,2.5*3D
$GPRMC,225359.000,A,3748.8034,N,12217.8619,W,0.42,157.52,030412,,,A*76
$GPVTG,157.52,T,,M,0.42,N,0.8,K,A*07
$GPGGA,225400.000,3748.8035,N,12217.8618,W,1,07,1.2,2.1,M,-25.1,M,,0000*65
$GPGSA,A,3,23,13,16,32,10,20,07,,,,,,2.8,1.2,2.5*3D
$GPRMC,225400.000,A,3748.8035,N,12217.8618,W,0.30,136.92,030412,,,A*73
$GPVTG,136.92,T,,M,0.30,N,0.6,K,A*07
$GPGGA,225401.000,3748.8034,N,12217.8616,W,1,07,1.2,1.9,M,-25.1,M,,0000*60
$GPGSA,A,3,23,13,16,32,10,20,07,,,,,,2.8,1.2,2.5*3D
$GPRMC,225401.000,A,3748.8034,N,12217.8616,W,0.80,128.93,030412,,,A*78
$GPVTG,128.93,T,,M,0.80,N,1.5,K,A*00
$GPGGA,225402.000,3748.8025,N,12217.8619,W,1,07,1.2,3.0,M,-25.1,M,,0000*67
$GPGSA,A,3,23,13,16,32,10,20,07,,,,,,2.8,1.2,2.5*3D
$GPGSV,3,1,12,23,72,036,30,13,54,322,26,16,48,068,28,20,42,180,28*76
$GPGSV,3,2,12,07,40,257,25,10,28,311,23,30,27,046,24,32,23,158,31*7A
$GPGSV,3,3,12,03,13,116,26,04,11,280,28,06,10,100,,08,08,242,*7F
$GPRMC,225402.000,A,3748.8025,N,12217.8619,W,0.48,178.46,030412,,,A*7D
$GPVTG,178.46,T,,M,0.48,N,0.9,K,A*04
$GPGGA,225403.000,3748.8019,N,12217.8621,W,1,07,1.2,4.4,M,-25.1,M,,0000*61
$GPGSA,A,3,23,13,16,32,10,20,07,,,,,,2.8,1.2,2.5*3D
$GPRMC,225403.000,A,3748.8019,N,12217.8621,W,0.59,323.38,030412,,,A*7D
$GPVTG,323.38,T,,M,0.59,N,1.1,K,A*08
$GPGGA,225404.000,3748.8019,N,12217.8622,W,1,07,1.2,5.4,M,-25.1,M,,0000*64
$GPGSA,A,3,23,13,16,32,10,20,07,,,,,,2.8,1.2,2.5*3D
$GPRMC,225404.000,A,3748.8019,N,12217.8622,W,0.52,11.00,030412,,,A*4B
$GPVTG,11.00,T,,M,0.52,N,1.0,K,A*3B
$GPGGA,225405.000,3748.8018,N,12217.8625,W,1,06,1.3,6.6,M,-25.1,M,,0000*62
$GPGSA,A,3,23,16,32,10,20,07,,,,,,,2.9,1.3,2.6*3C
$GPRMC,225405.000,A,3748.8018,N,12217.8625,W,1.30,155.96,030412,,,A*77
$GPVTG,155.96,T,,M,1.30,N,2.4,K,A*07
$GPGGA,225406.000,3748.8013,N,12217.8627,W,1,04,2.0,7.8,M,-25.1,M,,0000*65
$GPGSA,A,3,16,10,20,07,,,,,,,,,9.7,2.0,9.5*31
$GPRMC,225406.000,A,3748.8013,N,12217.8627,W,0.12,106.97,030412,,,A*7B
$GPVTG,106.97,T,,M,0.12,N,0.2,K,A*05
$GPGGA,225407.000,3748.8010,N,12217.8628,W,1,07,1.2,8.2,M,-25.1,M,,0000*6F
$GPGSA,A,3,23,13,16,32,10,20,07,,,,,,2.8,1.2,2.5*3D
$GPGSV,3,1,12,23,72,036,22,13,54,322,32,16,48,068,20,20,42,180,29*79
$GPGSV,3,2,12,07,40,257,33,10,28,311,31,30,27,046,,32,23,158,28*70
$GPGSV,3,3,12,03,13,116,,04,11,280,39,06,10,100,20,08,08,242,*79
$GPRMC,225407.000,A,3748.8010,N,12217.8628,W,0.74,154.32,030412,,,A*7E
$GPGGA,225408.000,3748.8007,N,12217.8627,W,1,07,1.2,8.5,M,-25.1,M,,0000*6E
$GPGSA,A,3,23,13,16,32,10,20,07,,,,,,2.8,1.2,2.5*3D
$GPRMC,225408.000,A,3748.8007,N,12217.8627,W,2.35,127.09,030412,,,A*73
$GPVTG,127.09,T,,M,2.35,N,4.4,K,A*04
$GPGGA,225409.000,3748.8005,N,12217.8618,W,1,06,1.3,9.1,M,-25.1,M,,0000*64
$GPGSA,A,3,23,16,32,10,20,07,,,,,,,2.9,1.3,2.6*3C
$GPRMC,225409.000,A,3748.8005,N,12217.8618,W,1.97,130.33,030412,,,A*78
$GPVTG,130.33,T,,M,1.97,N,3.7,K,A*04
$GPGGA,225410.000,3748.8000,N,12217.8615,W,1,06,1.3,9.7,M,-25.1,M,,0000*62
$GPGSA,A,3,23,16,32,10,20,07,,,,,,,2.9,1.3,2.6*3C
$GPRMC,225410.000,A,3748.8000,N,12217.8615,W,2.17,141.14,030412,,,A*70
$GPVTG,141.14,T,,M,2.17,N,4.0,K,A*0C
$GPGGA,225411.000,3748.7994,N,12217.8611,W,1,06,1.3,9.9,M,-25.1,M,,0000*62
$GPGSA,A,3,23,16,32,10,20,07,,,,,,,2.9,1.3,2.6*3C
$GPRMC,225411.000,A,3748.7994,N,12217.8611,W,1.85,130.96,030412,,,A*7A
$GPVTG,130.96,T,,M,1.85,N,3.4,K,A*0B
$GPGGA,225412.000,3748.7988,N,12217.8608,W,1,06,1.3,11.3,M,-25.1,M,,0000*57
$GPGSA,A,3,23,16,32,10,20,07,,,,,,,2.9,1.3,2.6*3C
$GPGSV,3,1,12,23,72,036,23,13,54,322,,16,48,068,26,20,42,180,33*74
$GPGSV,3,2,12,07,40,257,23,10,28,311,14,30,27,046,21,32,23,158,30*7C
$GPGSV,3,3,12,03,13,116,31,04,11,280,21,06,10,100,20,08,08,242,*72
$GPRMC,225412.000,A,3748.7988,N,12217.8608,W,2.59,125.72,030412,,,A*70
$GPVTG,125.72,T,,M,2.59,N,4.8,K,A*0C
$GPGGA,225413.000,3748.7980,N,12217.8605,W,1,06,1.3,12.6,M,-25.1,M,,0000*55
$GPGSA,A,3,23,16,32,10,20,07,,,,,,,2.9,1.3,2.6*3C
$GPRMC,225413.000,A,3748.7980,N,12217.8605,W,2.70,139.84,030412,,,A*7B
$GPVTG,139.84,T,,M,2.70,N,5.0,K,A*0A
$GPGGA,225414.000,3748.7972,N,12217.8601,W,1,07,1.2,13.2,M,-25.1,M,,0000*5E
$GPGSA,A,3,23,13,16,32,10,20,07,,,,,,2.8,1.2,2.5*3D
$GPRMC,225414.000,A,3748.7972,N,12217.8601,W,2.77,138.28,030412,,,A*75
$GPVTG,138.28,T,,M,2.77,N,5.1,K,A*0B
$GPGGA,225415.000,3748.7966,N,12217.8591,W,1,07,1.2,12.8,M,-25.1,M,,0000*5B
$GPGSA,A,3,23,13,16,32,10,20,07,,,,,,2.8,1.2,2.5*3D
$GPRMC,225415.000,A,3748.7966,N,12217.8591,W,2.91,130.26,030412,,,A*75
$GPVTG,130.26,T,,M,2.91,N,5.4,K,A*00
$GPGGA,225416.000,3748.7962,N,12217.8581,W,1,07,1.2,13.2,M,-25.1,M,,0000*56
$GPGSA,A,3,23,13,16,32,10,20,07,,,,,,2.8,1.2,2.5*3D
$GPRMC,225416.000,A,3748.7962,N,12217.8581,W,2.69,119.24,030412,,,A*7D
$GPVTG,119.24,T,,M,2.69,N,5.0,K,A*0A
$GPGGA,225417.000,3748.7960,N,12217.8572,W,1,07,1.2,14.2,M,-25.1,M,,0000*5E
$GPGSA,A,3,23,13,16,32,10,20,07,,,,,,2.8,1.2,2.5*3D
$GPGSV,3,1,12,23,72,036,26,13,54,322,20,16,48,068,23,20,42,180,36*73
$GPGSV,3,2,12,07,40,257,31,10,28,311,21,30,27,046,20,32,23,158,34*7C
$GPGSV,3,3,12,03,13,116,24,04,11,280,22,06,10,100,27,08,08,242,*72
$GPRMC,225417.000,A,3748.7960,N,12217.8572,W,2.44,110.98,030412,,,A*73
$GPVTG,110.98,T,,M,2.44,N,4.5,K,A*0F
$GPGGA,225418.000,3748.7957,N,12217.8566,W,1,07,1.2,13.5,M,-25.1,M,,0000*50
$GPGSA,A,3,23,13,16,32,10,20,07,,,,,,2.8,1.2,2.5*3D
$GPRMC,225418.000,A,3748.7957,N,12217.8566,W,2.37,130.33,030412,,,A*7A
$GPVTG,130.33,T,,M,2.37,N,4.4,K,A*09
$GPGGA,225419.000,3748.7952,N,12217.8560,W,1,07,1.2,14.5,M,-25.1,M,,0000*55
$GPGSA,A,3,23,13,16,32,10,20,07,,,,,,2.8,1.2,2.5*3D
$GPRMC,225419.000,A,3748.7952,N,12217.8560,W,2.60,124.91,030412,,,A*77
$GPVTG,124.91,T,,M,2.60,N,4.8,K,A*0A
$GPGGA,225420.000,3748.7948,N,12217.8552,W,1,07,1.2,14.6,M,-25.1,M,,0000*56
$GPGSA,A,3,23,13,16,32,10,20,07,,,,,,2.8,1.2,2.5*3D
$GPRMC,225420.000,A,3748.7948,N,12217.8552,W,2.36,116.93,030412,,,A*77
$GPVTG,116.93,T,,M,2.36,N,4.4,K,A*06
$GPGGA,225421.000,3748.7945,N,12217.8544,W,1,07,1.2,12.9,M,-25.1,M,,0000*54
$GPGSA,A,3,23,13,16,32,10,20,07,,,,,,2.8,1.2,2.5*3D
$GPRMC,225421.000,A,3748.7945,N,12217.8544,W,2.28,124.97,030412,,,A*76
$GPVTG,124.97,T,,M,2.28,N,4.2,K,A*0A
$GPGGA,225422.000,3748.7940,N,12217.8538,W,1,07,1.2,13.7,M,-25.1,M,,0000*56
$GPGSA,A,3,23,13,16,32,10,20,07,,,,,,2.8,1.2,2.5*3D
$GPGSV,3,1,12,23,72,036,25,13,54,322,21,16,48,068,24,20,42,180,36*76
$GPGSV,3,2,12,07,40,257,31,10,28,311,22,30,27,046,20,32,23,158,32*79
$GPRMC,225422.000,A,3748.7940,N,12217.8538,W,2.44,117.79,030412,,,A*71
$GPVTG,117.79,T,,M,2.44,N,4.5,K,A*07
$GPGGA,225423.000,3748.7938,N,12217.8528,W,1,07,1.2,13.5,M,-25.1,M,,0000*5B
$GPGSA,A,3,23,13,16,32,10,20,07,,,,,,2.8,1.2,2.5*3D
$GPRMC,225423.000,A,3748.7938,N,12217.8528,W,2.57,111.06,030412,,,A*72
$GPVTG,111.06,T,,M,2.57,N,4.8,K,A*06
$GPGGA,225424.000,3748.7936,N,12217.8519,W,1,07,1.2,13.8,M,-25.1,M,,0000*5D
$GPGSA,A,3,23,13,16,32,10,20,07,,,,,,2.8,1.2,2.5*3D
$GPRMC,225424.000,A,3748.7936,N,12217.8519,W,2.33,114.73,030412,,,A*7C
$GPVTG,114.73,T,,M,2.33,N,4.3,K,A*08
$GPGGA,225425.000,3748.7933,N,12217.8511,W,1,07,1.2,14.7,M,-25.1,M,,0000*59
$GPGSA,A,3,23,13,16,32,10,20,07,,,,,,2.8,1.2,2.5*3D
$GPRMC,225425.000,A,3748.7933,N,12217.8511,W,2.89,103.99,030412,,,A*73
$GPVTG,103.99,T,,M,2.89,N,5.3,K,A*0A
$GPGGA,225426.000,3748.7932,N,12217.8502,W,1,07,1.2,14.7,M,-25.1,M,,0000*59
$GPGSA,A,3,23,13,16,32,10,20,07,,,,,,2.8,1.2,2.5*3D
$GPRMC,225426.000,A,3748.7932,N,12217.8502,W,1.93,108.59,030412,,,A*7C
$GPVTG,108.59,T,,M,1.93,N,3.6,K,A*06
$GPGGA,225427.000,3748.7933,N,12217.8490,W,1,07,1.2,14.2,M,-25.1,M,,0000*56
$GPGSA,A,3,23,13,16,32,10,20,07,,,,,,2.8,1.2,2.5*3D
$GPGSV,3,1,12,23,72,036,25,13,54,322,21,16,48,068,24,20,42,180,32*72
$GPGSV,3,2,12,07,40,257,31,10,28,311,22,30,27,046,20,32,23,158,29*73
$GPGSV,3,3,12,03,13,116,25,04,11,280,23,06,10,100,21,08,08,242,*74
$GPRMC,225427.000,A,3748.7933,N,12217.8490,W,2.50,99.30,030412,,,A*4C
$GPVTG,99.30,T,,M,2.50,N,4.6,K,A*3B
$GPGGA,225428.000,3748.7932,N,12217.8481,W,1,07,1.2,12.8,M,-25.1,M,,0000*54
$GPGSA,A,3,23,13,16,32,10,20,07,,,,,,2.8,1.2,2.5*3D
$GPRMC,225428.000,A,3748.7932,N,12217.8481,W,2.15,108.46,030412,,,A*7B
$GPVTG,108.46,T,,M,2.15,N,4.0,K,A*04
$GPGGA,225429.000,3748.7929,N,12217.8470,W,1,07,1.2,12.8,M,-25.1,M,,0000*51
$GPGSA,A,3,23,13,16,32,10,20,07,,,,,,2.8,1.2,2.5*3D
$GPRMC,225429.000,A,3748.7929,N,12217.8470,W,2.14,113.07,030412,,,A*70
$GPVTG,113.07,T,,M,2.14,N,4.0,K,A*0A
$GPGGA,225430.000,3748.7925,N,12217.8461,W,1,07,1.2,13.4,M,-25.1,M,,0000*58
$GPGSA,A,3,23,13,16,32,10,20,07,,,,,,2.8,1.2,2.5*3D
$GPRMC,225430.000,A,3748.7925,N,12217.8461,W,2.44,133.64,030412,,,A*76
$GPVTG,133.64,T,,M,2.44,N,4.5,K,A*0D
$GPGGA,225431.000,3748.7919,N,12217.8455,W,1,07,1.2,14.7,M,-25.1,M,,0000*55
$GPGSA,A,3,23,13,16,32,10,20,07,,,,,,2.8,1.2,2.5*3D
$GPRMC,225431.000,A,3748.7919,N,12217.8455,W,2.31,117.45,030412,,,A*78
$GPVTG,117.45,T,,M,2.31,N,4.3,K,A*0C
$GPGGA,225432.000,3748.7914,N,12217.8449,W,1,07,1.2,13.9,M,-25.1,M,,0000*5F
$GPGSA,A,3,23,13,16,32,10,20,07,,,,,,2.8,1.2,2.5*3D
$GPGSV,3,1,12,23,72,036,24,13,54,322,21,16,48,068,24,20,42,180,32*73
$GPGSV,3,2,12,07,40,257,26,10,28,311,21,30,27,046,19,32,23,158,34*70
$GPGSV,3,3,12,03,13,116,32,04,11,280,23,06,10,100,20,08,08,242,*73
$GPRMC,225432.000,A,3748.7914,N,12217.8449,W,2.68,116.60,030412,,,A*71
$GPVTG,116.60,T,,M,2.68,N,5.0,K,A*04
$GPGGA,225433.000,3748.7912,N,12217.8439,W,1,07,1.2,13.0,M,-25.1,M,,0000*56
$GPGSA,A,3,23,13,16,32,10,20,07,,,,,,2.8,1.2,2.5*3D
$GPRMC,225433.000,A,3748.7912,N,12217.8439,W,2.69,109.52,030412,,,A*7F
$GPVTG,109.52,T,,M,2.69,N,5.0,K,A*0A
$GPGGA,225434.000,3748.7905,N,12217.8437,W,1,07,1.2,13.9,M,-25.1,M,,0000*50
$GPGSA,A,3,23,13,16,32,10,20,07,,,,,,2.8,1.2,2.5*3D
$GPRMC,225434.000,A,3748.7905,N,12217.8437,W,2.30,131.33,030412,,,A*70
$GPVTG,131.33,T,,M,2.30,N,4.3,K,A*08
$GPGGA,225435.000,3748.7900,N,12217.8432,W,1,07,1.2,13.0,M,-25.1,M,,0000*58
$GPGSA,A,3,23,13,16,32,10,20,07,,,,,,2.8,1.2,2.5*3D
$GPRMC,225435.000,A,3748.7900,N,12217.8432,W,2.44,124.39,030412,,,A*7C
$GPVTG,124.39,T,,M,2.44,N,4.5,K,A*03
$GPGGA,225436.000,3748.7897,N,12217.8425,W,1,07,1.2,12.7,M,-25.1,M,,0000*54
$GPGSA,A,3,23,13,16,32,10,20,07,,,,,,2.8,1.2,2.5*3D
$GPRMC,225436.000,A,3748.7897,N,12217.8425,W,2.50,104.75,030412,,,A*79
$GPVTG,104.75,T,,M,2.50,N,4.6,K,A*0F
$GPGGA,225437.000,3748.7893,N,12217.8420,W,1,07,1.2,12.5,M,-25.1,M,,0000*56
$GPGSA,A,3,23,13,16,32,10,20,07,,,,,,2.8,1.2,2.5*3D
$GPGSV,3,1,12,23,72,036,24,13,54,322,21,16,48,068,23,20,42,180,31*77
$GPGSV,3,2,12,07,40,257,29,10,28,311,21,30,27,046,20,32,23,158,33*72
$GPGSV,3,3,12,03,13,116,32,04,11,280,23,06,10,100,19,08,08,242,*79
$GPRMC,225437.000,A,3748.7893,N,12217.8420,W,1.93,124.59,030412,,,A*79
$GPVTG,124.59,T,,M,1.93,N,3.6,K,A*08
$GPGGA,225438.000,3748.7895,N,12217.8410,W,1,07,1.2,12.3,M,-25.1,M,,0000*5A
$GPGSA,A,3,23,13,16,32,10,20,07,,,,,,2.8,1.2,2.5*3D
$GPRMC,225438.000,A,3748.7895,N,12217.8410,W,1.94,104.43,030412,,,A*7D
$GPVTG,104.43,T,,M,1.94,N,3.6,K,A*06
$GPGGA,225439.000,3748.7892,N,12217.8404,W,1,07,1.2,12.3,M,-25.1,M,,0000*59
$GPGSA,A,3,23,13,16,32,10,20,07,,,,,,2.8,1.2,2.5*3D
$GPRMC,225439.000,A,3748.7892,N,12217.8404,W,1.54,104.31,030412,,,A*77
$GPVTG,104.31,T,,M,1.54,N,2.8,K,A*00
$GPGGA,225440.000,3748.7886,N,12217.8402,W,1,07,1.2,12.7,M,-25.1,M,,0000*50
$GPGSA,A,3,23,13,16,32,10,20,07,,,,,,2.8,1.2,2.5*3D
$GPRMC,225440.000,A,3748.7886,N,12217.8402,W,1.82,126.41,030412,,,A*76
$GPVTG,126.41,T,,M,1.82,N,3.4,K,A*01
$GPGGA,225441.000,3748.7881,N,12217.8394,W,1,07,1.2,12.6,M,-25.1,M,,0000*5F
$GPGSA,A,3,23,13,16,32,10,20,07,,,,,,2.8,1.2,2.5*3D
$GPRMC,225441.000,A,3748.7881,N,12217.8394,W,2.69,120.25,030412,,,A*7A
$GPVTG,120.25,T,,M,2.69,N,5.0,K,A*01
$GPGGA,225442.000,3748.7878,N,12217.8387,W,1,07,1.2,12.0,M,-25.1,M,,0000*5E
$GPGSA,A,3,23,13,16,32,10,20,07,,,,,,2.8,1.2,2.5*3D
$GPGSV,3,1,12,23,72,037,25,13,55,322,21,16,48,068,24,20,41,179,36*73
$GPGSV,3,2,12,07,41,257,29,10,28,311,21,30,27,046,20,32,23,158,33*73
$GPGSV,3,3,12,03,13,115,22,04,11,280,22,06,10,100,18,08,08,242,*7B
$GPVTG,109.30,T,,M,2.89,N,5.4,K,A*04
$GPGGA,225443.000,3748.7872,N,12217.8379,W,1,07,1.2,11.9,M,-25.1,M,,0000*5E
$GPGSA,A,3,23,13,16,32,10,20,07,,,,,,2.8,1.2,2.5*3D
$GPRMC,225443.000,A,3748.7872,N,12217.8379,W,2.59,114.84,030412,,,A*78
$GPVTG,114.84,T,,M,2.59,N,4.8,K,A*07
$GPGGA,225444.000,3748.7867,N,12217.8371,W,1,07,1.2,10.4,M,-25.1,M,,0000*59
$GPGSA,A,3,23,13,16,32,10,20,07,,,,,,2.8,1.2,2.5*3D
$GPRMC,225444.000,A,3748.7867,N,12217.8371,W,2.33,118.57,030412,,,A*7D
$GPVTG,118.57,T,,M,2.33,N,4.3,K,A*02
$GPGGA,225445.000,3748.7862,N,12217.8363,W,1,07,1.2,10.0,M,-25.1,M,,0000*5A
$GPGSA,A,3,23,13,16,32,10,20,07,,,,,,2.8,1.2,2.5*3D
$GPRMC,225445.000,A,3748.7862,N,12217.8363,W,2.30,114.89,030412,,,A*76
$GPVTG,114.89,T,,M,2.30,N,4.3,K,A*0E
$GPGGA,225446.000,3748.7857,N,12217.8358,W,1,07,1.2,10.0,M,-25.1,M,,0000*57
