$ADVER,3080,2.3
$GPRMC,192452.848,A,3748.8017,N,12217.8675,W,0.66,137.14,041012,,,A*7A
$GPRMC,192453.848,A,3748.8014,N,12217.8676,W,0.36,185.79,041012,,,A*7C
$GPRMC,192454.848,A,3748.8011,N,12217.8677,W,0.31,201.60,041012,,,A*7F
$GPRMC,192456.000,A,3748.8000,N,12217.8680,W,0.34,121.55,041012,,,A*73
$GPRMC,192457.000,A,3748.7966,N,12217.8674,W,0.32,146.08,041012,,,A*70
$GPRMC,192458.000,A,3748.7952,N,12217.8719,W,0.21,180.14,041012,,,A*77
$GPRMC,192459.000,A,3748.7951,N,12217.8740,W,0.28,209.67,041012,,,A*76
$GPRMC,192500.000,A,3748.7953,N,12217.8724,W,0.35,203.39,041012,,,A*76
$GPRMC,192501.000,A,3748.7959,N,12217.8703,W,0.39,237.55,041012,,,A*79
$GPRMC,192502.000,A,3748.7963,N,12217.8696,W,0.57,241.96,041012,,,A*78
$GPRMC,192503.000,A,3748.7966,N,12217.8688,W,0.47,234.07,041012,,,A*78
$GPRMC,192504.000,A,3748.7961,N,12217.8705,W,0.57,174.00,041012,,,A*7D
$GPRMC,192505.000,A,3748.7953,N,12217.8712,W,0.47,129.07,041012,,,A*75
$GPRMC,192506.000,A,3748.7947,N,12217.8715,W,1.91,155.22,041012,,,A*72
$GPRMC,192507.000,A,3748.7947,N,12217.8708,W,0.66,121.71,041012,,,A*73
$GPRMC,192508.000,A,3748.7949,N,12217.8708,W,0.48,119.61,041012,,,A*74
$GPRMC,192509.000,A,3748.7949,N,12217.8712,W,0.31,155.42,041012,,,A*79
$GPRMC,192510.000,A,3748.7946,N,12217.8725,W,1.34,179.39,041012,,,A*7C
$GPRMC,192511.000,A,3748.7946,N,12217.8725,W,1.89,212.43,041012,,,A*78
$GPRMC,192512.000,A,3748.7941,N,12217.8728,W,1.53,228.47,041012,,,A*7B
$GPRMC,192513.000,A,3748.7940,N,12217.8739,W,1.95,217.23,041012,,,A*7F
$GPRMC,192514.000,A,3748.7936,N,12217.8742,W,2.39,206.44,041012,,,A*71
$GPRMC,192515.000,A,3748.7934,N,12217.8746,W,1.77,226.76,041012,,,A*7C
$GPRMC,192516.000,A,3748.7927,N,12217.8740,W,2.03,218.54,041012,,,A*76
$GPRMC,192517.000,A,3748.7926,N,12217.8741,W,1.88,200.57,041012,,,A*7D
$GPRMC,192518.000,A,3748.7912,N,12217.8752,W,2.00,199.20,041012,,,A*77
$GPRMC,192519.000,A,3748.7903,N,12217.8766,W,2.86,223.82,041012,,,A*75
$GPRMC,192520.000,A,3748.7899,N,12217.8770,W,2.23,235.46,041012,,,A*7A
$GPRMC,192521.000,A,3748.7892,N,12217.8766,W,1.79,204.07,041012,,,A*7C
$GPRMC,192522.000,A,3748.7886,N,12217.8768,W,2.46,188.00,041012,,,A*7B
$GPRMC,192523.000,A,3748.7878,N,12217.8794,W,2.45,204.97,041012,,,A*72
$GPRMC,192524.000,A,3748.7870,N,12217.8808,W,1.82,219.95,041012,,,A*71
$GPRMC,192525.000,A,3748.7864,N,12217.8801,W,1.10,196.35,041012,,,A*79
$GPRMC,192526.000,A,3748.7869,N,12217.8791,W,0.68,118.34,041012,,,A*78
$GPRMC,192527.000,A,3748.7874,N,12217.8778,W,2.12,115.65,041012,,,A*74
$GPRMC,192528.000,A,3748.7872,N,12217.8756,W,2.65,132.38,041012,,,A*7C
$GPRMC,192529.000,A,3748.7871,N,12217.8724,W,2.76,112.44,041012,,,A*70
$GPRMC,192530.000,A,3748.7878,N,12217.8717,W,2.32,80.94,041012,,,A*46
$GPRMC,192531.000,A,3748.7883,N,12217.8733,W,0.23,137.40,041012,,,A*73
$GPRMC,192532.000,A,3748.7884,N,12217.8744,W,0.53,292.25,041012,,,A*7F
$GPRMC,192533.000,A,3748.7881,N,12217.8752,W,1.54,231.72,041012,,,A*71
$GPRMC,192534.000,A,3748.7879,N,12217.8744,W,2.26,221.43,041012,,,A*73
$GPRMC,192535.000,A,3748.7871,N,12217.8733,W,1.81,164.36,041012,,,A*74
$GPRMC,192536.000,A,3748.7867,N,12217.8718,W,1.54,126.28,041012,,,A*78
$GPRMC,192537.000,A,3748.7862,N,12217.8699,W,1.22,121.77,041012,,,A*78
$GPRMC,192538.000,A,3748.7865,N,12217.8712,W,0.75,348.55,041012,,,A*7C
$GPRMC,192539.000,A,3748.7864,N,12217.8752,W,2.00,274.96,041012,,,A*79
$GPRMC,192540.000,A,3748.7862,N,12217.8765,W,1.45,255.11,041012,,,A*7B
$GPRMC,192541.000,A,3748.7862,N,12217.8782,W,1.66,256.36,041012,,,A*74
$GPRMC,192542.000,A,3748.7854,N,12217.8788,W,0.89,241.15,041012,,,A*7F
$GPRMC,192543.000,A,3748.7846,N,12217.8791,W,0.87,241.53,041012,,,A*79
$GPRMC,192544.000,A,3748.7836,N,12217.8801,W,1.71,216.66,041012,,,A*73
$GPRMC,192545.000,A,3748.7835,N,12217.8824,W,2.01,256.71,041012,,,A*70
$GPRMC,192546.000,A,3748.7829,N,12217.8834,W,2.12,263.73,041012,,,A*79
$GPRMC,192547.000,A,3748.7832,N,12217.8856,W,2.77,267.58,041012,,,A*78
$GPRMC,192548.000,A,3748.7833,N,12217.8851,W,1.46,272.60,041012,,,A*7F
$GPRMC,192549.000,A,3748.7833,N,12217.8855,W,0.88,236.13,041012,,,A*7D
$GPRMC,192550.000,A,3748.7834,N,12217.8843,W,1.42,270.56,041012,,,A*71
$GPRMC,192551.000,A,3748.7833,N,12217.8828,W,1.49,277.95,041012,,,A*79
$GPRMC,192552.000,A,3748.7830,N,12217.8826,W,0.98,265.51,041012,,,A*71
$GPRMC,192553.000,A,3748.7834,N,12217.8821,W,0.30,229.68,041012,,,A*73
$GPRMC,192554.000,A,3748.7834,N,12217.8800,W,1.02,102.43,041012,,,A*74
$GPRMC,192555.000,A,3748.7837,N,12217.8788,W,1.06,92.45,041012,,,A*43
$GPRMC,192556.000,A,3748.7839,N,12217.8782,W,1.38,110.76,041012,,,A*72
$GPRMC,192557.000,A,3748.7845,N,12217.8790,W,0.47,74.56,041012,,,A*43
$GPRMC,192558.000,A,3748.7849,N,12217.8796,W,0.51,294.76,041012,,,A*7F
$GPRMC,192559.000,A,3748.7848,N,12217.8808,W,1.61,263.01,041012,,,A*7D
$GPRMC,192600.000,A,3748.7851,N,12217.8816,W,2.29,283.22,041012,,,A*75
$GPRMC,192601.000,A,3748.7851,N,12217.8813,W,0.68,265.79,041012,,,A*70
$GPRMC,192602.000,A,3748.7851,N,12217.8806,W,0.61,192.10,041012,,,A*7A
$GPRMC,192603.000,A,3748.7842,N,12217.8806,W,1.29,201.26,041012,,,A*78
$GPRMC,192604.000,A,3748.7837,N,12217.8796,W,0.97,205.32,041012,,,A*7E
$GPRMC,192605.000,A,3748.7834,N,12217.8788,W,0.87,238.49,041012,,,A*70
$GPRMC,192606.000,A,3748.7824,N,12217.8776,W,1.26,168.65,041012,,,A*71
$GPRMC,192607.000,A,3748.7821,N,12217.8757,W,1.92,124.07,041012,,,A*75
$GPRMC,192608.000,A,3748.7821,N,12217.8744,W,2.72,107.73,041012,,,A*77
$GPRMC,192609.000,A,3748.7827,N,12217.8752,W,0.72,69.21,041012,,,A*4B
$GPRMC,192610.000,A,3748.7826,N,12217.8747,W,0.45,3.58,041012,,,A*70
$GPRMC,192611.000,A,3748.7830,N,12217.8748,W,0.71,288.13,041012,,,A*70
$GPRMC,192612.000,A,3748.7825,N,12217.8739,W,1.22,200.52,041012,,,A*73
$GPRMC,192613.000,A,3748.7816,N,12217.8716,W,1.05,153.51,041012,,,A*7C
$GPRMC,192614.000,A,3748.7820,N,12217.8707,W,1.22,80.40,041012,,,A*44
$GPRMC,192615.000,A,3748.7818,N,12217.8688,W,2.44,105.17,041012,,,A*75
$GPRMC,192616.000,A,3748.7814,N,12217.8667,W,3.25,98.96,041012,,,A*41
$GPRMC,192617.000,A,3748.7813,N,12217.8656,W,3.25,98.96,041012,,,E*41
$GPRMC,192618.000,A,3748.7809,N,12217.8671,W,2.12,116.49,041012,,,A*74
$GPRMC,192619.000,A,3748.7807,N,12217.8649,W,3.11,97.66,041012,,,A*47
$GPRMC,192620.000,A,3748.7796,N,12217.8670,W,2.11,115.50,041012,,,A*7F
$GPRMC,192621.000,A,3748.7798,N,12217.8677,W,1.67,91.81,041012,,,A*44
$GPRMC,192622.000,A,3748.7802,N,12217.8674,W,2.41,69.56,041012,,,A*42
$GPRMC,192623.000,A,3748.7803,N,12217.8650,W,2.54,87.95,041012,,,A*4F
$GPRMC,192624.000,A,3748.7809,N,12217.8671,W,1.10,89.22,041012,,,A*40
$GPRMC,192625.000,A,3748.7810,N,12217.8684,W,0.51,347.96,041012,,,A*79
$GPRMC,192626.000,A,3748.7813,N,12217.8712,W,2.00,281.52,041012,,,A*72
$GPRMC,192627.000,A,3748.7819,N,12217.8718,W,1.39,274.34,041012,,,A*70
$GPRMC,192628.000,A,3748.7825,N,12217.8720,W,1.16,290.06,041012,,,D*78
$GPRMC,192629.000,A,3748.7833,N,12217.8732,W,2.05,292.21,041012,,,D*7B
$GPRMC,192630.000,A,3748.7838,N,12217.8746,W,2.67,281.64,041012,,,D*7C
$GPRMC,192631.000,A,3748.7839,N,12217.8755,W,2.67,281.64,041012,,,E*7F
$GPRMC,192632.000,A,3748.7837,N,12217.8770,W,2.18,274.13,041012,,,D*76
$GPRMC,192633.000,A,3748.7839,N,12217.8791,W,2.69,271.24,041012,,,D*71
$GPRMC,192634.000,A,3748.7844,N,12217.8826,W,4.63,272.32,041012,,,D*77
$GPRMC,192635.000,A,3748.7834,N,12217.8836,W,4.21,256.45,041012,,,D*70
$GPRMC,192636.000,A,3748.7827,N,12217.8840,W,4.40,261.99,041012,,,D*72
$GPRMC,192637.000,A,3748.7831,N,12217.8832,W,3.48,267.03,041012,,,D*7B
$GPRMC,192638.000,A,3748.7825,N,12217.8809,W,2.06,268.83,041012,,,D*75
$GPRMC,192639.000,A,3748.7827,N,12217.8783,W,1.14,262.84,041012,,,D*76
$GPRMC,192640.000,A,3748.7826,N,12217.8787,W,1.14,262.84,041012,,,E*7C
$GPRMC,192641.000,A,3748.7826,N,12217.8791,W,1.14,262.84,041012,,,E*7A
$GPRMC,192642.000,A,3748.7839,N,12217.8780,W,1.56,331.36,041012,,,D*7E
$GPRMC,192643.000,A,3748.7844,N,12217.8765,W,0.60,16.65,041012,,,D*4A
$GPRMC,192644.000,A,3748.7858,N,12217.8781,W,0.32,334.83,041012,,,D*76
$GPRMC,192645.000,A,3748.7860,N,12217.8780,W,0.25,311.45,041012,,,D*76
$GPRMC,192646.000,A,3748.7858,N,12217.8738,W,0.72,67.15,041012,,,D*48
$GPRMC,192647.000,A,3748.7865,N,12217.8738,W,0.59,30.89,041012,,,D*49
$GPRMC,192648.000,A,3748.7866,N,12217.8701,W,1.15,86.42,041012,,,D*4C
$GPRMC,192649.000,A,3748.7856,N,12217.8613,W,3.53,96.66,041012,,,D*4B
$GPRMC,192650.000,A,3748.7855,N,12217.8585,W,3.70,87.74,041012,,,D*4E
$GPRMC,192651.000,A,3748.7860,N,12217.8597,W,3.48,86.06,041012,,,D*45
$GPRMC,192652.000,A,3748.7862,N,12217.8603,W,3.35,94.27,041012,,,D*40
$GPRMC,192653.000,A,3748.7868,N,12217.8676,W,1.33,85.45,041012,,,D*49
$GPRMC,192654.000,A,3748.7878,N,12217.8706,W,0.50,11.40,041012,,,D*45
$GPRMC,192655.000,A,3748.7872,N,12217.8676,W,1.13,76.94,041012,,,D*46
$GPRMC,192656.000,A,3748.7875,N,12217.8653,W,1.35,75.56,041012,,,D*4C
$GPRMC,192657.000,A,3748.7882,N,12217.8674,W,0.52,73.87,041012,,,D*4A
$GPRMC,192658.000,A,3748.7890,N,12217.8681,W,0.83,5.23,041012,,,D*7F
$GPRMC,192659.000,A,3748.7888,N,12217.8734,W,1.02,280.67,041012,,,D*7F
$GPRMC,192700.000,A,3748.7879,N,12217.8734,W,1.00,211.06,041012,,,D*71
$GPRMC,192701.000,A,3748.7870,N,12217.8724,W,0.72,207.05,041012,,,D*78
$GPRMC,192702.000,A,3748.7868,N,12217.8732,W,0.40,230.92,041012,,,D*7E
$GPRMC,192703.000,A,3748.7868,N,12217.8729,W,0.46,296.97,041012,,,D*7A
$GPRMC,192704.000,A,3748.7866,N,12217.8751,W,0.69,240.79,041012,,,D*7A
$GPRMC,192705.000,A,3748.7869,N,12217.8790,W,1.55,258.87,041012,,,D*7F
$GPRMC,192706.000,A,3748.7873,N,12217.8850,W,2.22,275.86,041012,,,D*79
$GPRMC,192707.000,A,3748.7876,N,12217.8880,W,2.85,280.50,041012,,,D*7C
$GPRMC,192708.000,A,3748.7884,N,12217.8935,W,4.45,287.71,041012,,,D*7F
$GPRMC,192709.000,A,3748.7890,N,12217.8968,W,4.30,285.68,041012,,,D*7B
$GPRMC,192710.000,A,3748.7887,N,12217.8990,W,3.23,271.23,041012,,,D*73
$GPRMC,192711.000,A,3748.7881,N,12217.9004,W,2.59,251.26,041012,,,D*7A
$GPRMC,192712.000,A,3748.7876,N,12217.9024,W,2.59,246.92,041012,,,D*7A
$GPRMC,192713.000,A,3748.7874,N,12217.9049,W,2.74,251.32,041012,,,D*71
$GPRMC,192714.000,A,3748.7873,N,12217.9077,W,3.11,260.92,041012,,,D*76
$GPRMC,192715.000,A,3748.7874,N,12217.9102,W,3.57,273.13,041012,,,D*7A
$GPRMC,192716.000,A,3748.7880,N,12217.9141,W,4.60,276.61,041012,,,D*76
$GPRMC,192717.000,A,3748.7890,N,12217.9180,W,6.25,283.65,041012,,,D*76
$GPRMC,192718.000,A,3748.7897,N,12217.9202,W,6.53,286.90,041012,,,D*79
$GPRMC,192719.000,A,3748.7901,N,12217.9216,W,5.71,281.47,041012,,,D*7D
$GPRMC,192720.000,A,3748.7905,N,12217.9238,W,5.61,276.03,041012,,,D*76
$GPRMC,192721.000,A,3748.7910,N,12217.9254,W,5.90,280.58,041012,,,D*70
$GPRMC,192722.000,A,3748.7916,N,12217.9278,W,6.31,278.69,041012,,,D*76
$GPRMC,192723.000,A,3748.7916,N,12217.9279,W,5.46,279.78,041012,,,D*74
$GPRMC,192724.000,A,3748.7912,N,12217.9266,W,3.89,271.12,041012,,,D*78
$GPRMC,192725.000,A,3748.7908,N,12217.9243,W,3.56,277.40,041012,,,D*76
$GPRMC,192726.000,A,3748.7912,N,12217.9248,W,3.89,279.57,041012,,,D*7F
$GPRMC,192727.000,A,3748.7911,N,12217.9255,W,3.20,267.10,041012,,,D*7E
$GPRMC,192728.000,A,3748.7910,N,12217.9268,W,3.12,259.91,041012,,,D*7B
$GPRMC,192729.000,A,3748.7907,N,12217.9273,W,2.75,267.47,041012,,,D*70
$GPRMC,192730.000,A,3748.7901,N,12217.9269,W,2.08,242.67,041012,,,D*7A
$GPRMC,192731.000,A,3748.7898,N,12217.9276,W,2.26,233.20,041012,,,D*7D
$GPRMC,192732.000,A,3748.7888,N,12217.9263,W,1.54,215.29,041012,,,D*70
$GPRMC,192733.000,A,3748.7880,N,12217.9249,W,1.02,190.06,041012,,,D*71
$GPRMC,192734.000,A,3748.7873,N,12217.9214,W,2.05,117.81,041012,,,D*76
$GPRMC,192735.000,A,3748.7876,N,12217.9179,W,3.20,97.38,041012,,,D*47
$GPRMC,192736.000,A,3748.7880,N,12217.9187,W,1.76,75.03,041012,,,D*49
$GPRMC,192737.000,A,3748.7882,N,12217.9189,W,0.87,94.83,041012,,,D*4C
$GPRMC,192738.000,A,3748.7881,N,12217.9195,W,0.61,197.77,041012,,,D*7C
$GPRMC,192739.000,A,3748.7882,N,12217.9194,W,0.63,282.30,041012,,,D*79
$GPRMC,192740.000,A,3748.7879,N,12217.9199,W,1.01,268.55,041012,,,D*7C
$GPRMC,192741.000,A,3748.7884,N,12217.9201,W,1.27,303.52,041012,,,D*72
$GPRMC,192742.000,A,3748.7890,N,12217.9199,W,0.41,324.84,041012,,,D*79
$GPRMC,192743.000,A,3748.7893,N,12217.9195,W,0.47,97.55,041012,,,D*46
$GPRMC,192744.000,A,3748.7894,N,12217.9194,W,0.45,22.39,041012,,,D*41
$GPRMC,192745.000,A,3748.7893,N,12217.9197,W,0.71,299.06,041012,,,D*7D
$GPRMC,192746.000,A,3748.7890,N,12217.9202,W,1.18,270.24,041012,,,D*7B
$GPRMC,192747.000,A,3748.7890,N,12217.9199,W,0.51,214.78,041012,,,D*7C
$GPRMC,192748.000,A,3748.7878,N,12217.9050,W,1.36,132.84,041012,,,D*75
$GPRMC,192749.000,A,3748.7858,N,12217.8795,W,1.71,108.39,041012,,,D*75
$GPRMC,192750.000,A,3748.7848,N,12217.8736,W,2.28,126.74,041012,,,D*7F
$GPRMC,192751.000,A,3748.7836,N,12217.8703,W,1.97,129.32,041012,,,D*7B
$GPRMC,192752.000,A,3748.7837,N,12217.8690,W,1.16,130.66,041012,,,D*72
$GPRMC,192753.000,A,3748.7837,N,12217.8673,W,1.58,127.80,041012,,,D*7A
$GPRMC,192754.000,A,3748.7843,N,12217.8665,W,0.59,67.61,041012,,,D*43
$GPRMC,192755.000,A,3748.7851,N,12217.8675,W,1.49,335.09,041012,,,D*7A
$GPRMC,192756.000,A,3748.7851,N,12217.8678,W,1.03,353.66,041012,,,D*73
$GPRMC,192757.000,A,3748.7861,N,12217.8695,W,1.55,310.10,041012,,,D*77
$GPRMC,192758.000,A,3748.7866,N,12217.8710,W,0.90,306.43,041012,,,D*7A
$GPRMC,192759.000,A,3748.7867,N,12217.8721,W,0.67,291.47,041012,,,D*7B
$GPRMC,192800.000,A,3748.7867,N,12217.8731,W,0.15,227.97,041012,,,D*7C
$GPRMC,192801.000,A,3748.7869,N,12217.8738,W,0.70,314.18,041012,,,D*7F
$GPRMC,192802.000,A,3748.7870,N,12217.8744,W,1.10,314.28,041012,,,D*7B
$GPRMC,192803.000,A,3748.7875,N,12217.8756,W,1.33,292.31,041012,,,D*7A
$GPRMC,192804.000,A,3748.7879,N,12217.8765,W,1.02,294.32,041012,,,D*76
$GPRMC,192805.000,A,3748.7876,N,12217.8786,W,1.12,272.68,041012,,,D*73
$GPRMC,192806.000,A,3748.7873,N,12217.8782,W,0.20,272.40,041012,,,D*7B
$GPRMC,192807.000,A,3748.7870,N,12217.8772,W,0.51,35.76,041012,,,D*44
$GPRMC,192808.000,A,3748.7866,N,12217.8761,W,0.47,89.66,041012,,,D*4F
$GPRMC,192809.000,A,3748.7862,N,12217.8750,W,0.27,122.00,041012,,,D*7E
$GPRMC,192810.000,A,3748.7857,N,12217.8742,W,0.69,114.21,041012,,,D*7F
$GPRMC,192811.000,A,3748.7851,N,12217.8731,W,1.17,147.90,041012,,,D*78
$GPRMC,192812.000,A,3748.7849,N,12217.8734,W,0.33,166.70,041012,,,D*7D
$GPRMC,192813.000,A,3748.7854,N,12217.8748,W,0.66,314.29,041012,,,D*70
$GPRMC,192814.000,A,3748.7855,N,12217.8759,W,0.47,283.51,041012,,,D*75
$GPRMC,192815.000,A,3748.7851,N,12217.8759,W,0.69,171.25,041012,,,D*71
$GPRMC,192816.000,A,3748.7851,N,12217.8757,W,1.20,144.85,041012,,,D*7C
$GPRMC,192817.000,A,3748.7851,N,12217.8768,W,0.57,144.21,041012,,,D*7E
$GPRMC,192818.000,A,3748.7856,N,12217.8783,W,0.89,307.61,041012,,,D*71
$GPRMC,192819.000,A,3748.7861,N,12217.8796,W,1.51,310.64,041012,,,D*77
$GPRMC,192820.000,A,3748.7863,N,12217.8804,W,0.88,296.27,041012,,,D*76
$GPRMC,192821.000,A,3748.7867,N,12217.8808,W,0.24,273.00,041012,,,D*77
$GPRMC,192822.000,A,3748.7869,N,12217.8811,W,0.49,131.47,041012,,,D*7F
$GPRMC,192823.000,A,3748.7871,N,12217.8822,W,0.31,277.27,041012,,,D*7F
$GPRMC,192824.000,A,3748.7869,N,12217.8827,W,0.53,180.49,041012,,,D*73
$GPRMC,192825.000,A,3748.7866,N,12217.8828,W,1.28,157.43,041012,,,D*7F
$GPRMC,192826.000,A,3748.7868,N,12217.8833,W,0.52,174.15,041012,,,D*76
$GPRMC,192827.000,A,3748.7872,N,12217.8840,W,0.54,173.76,041012,,,D*7C
$GPRMC,192828.000,A,3748.7875,N,12217.8845,W,0.62,175.35,041012,,,D*75
$GPRMC,192829.000,A,3748.7875,N,12217.8844,W,1.06,155.59,041012,,,D*7E
$GPRMC,192830.000,A,3748.7875,N,12217.8845,W,0.81,156.02,041012,,,D*74
$GPRMC,192831.000,A,3748.7877,N,12217.8847,W,0.12,208.43,041012,,,D*72
$GPRMC,192832.000,A,3748.7886,N,12217.8853,W,1.12,321.58,041012,,,D*7B
$GPRMC,192833.000,A,3748.7888,N,12217.8853,W,1.21,322.30,041012,,,D*79
$GPRMC,192834.000,A,3748.7896,N,12217.8859,W,0.97,318.49,041012,,,D*70
$GPRMC,192835.000,A,3748.7902,N,12217.8862,W,0.57,307.68,041012,,,D*74
$GPRMC,192836.000,A,3748.7905,N,12217.8862,W,0.17,204.11,041012,,,D*78
$GPRMC,192837.000,A,3748.7903,N,12217.8858,W,0.22,159.98,041012,,,D*7A
$GPRMC,192838.000,A,3748.7900,N,12217.8852,W,0.28,333.43,041012,,,D*7E
$GPRMC,192839.000,A,3748.7910,N,12217.8858,W,1.06,322.87,041012,,,D*71
$GPRMC,192840.000,A,3748.7909,N,12217.8855,W,0.31,316.98,041012,,,D*76
$GPRMC,192841.000,A,3748.7913,N,12217.8855,W,0.91,320.73,041012,,,D*76
$GPRMC,192842.000,A,3748.7912,N,12217.8851,W,0.53,320.83,041012,,,D*71
$GPRMC,192843.000,A,3748.7908,N,12217.8844,W,0.21,134.86,041012,,,D*78
$GPRMC,192844.000,A,3748.7903,N,12217.8837,W,1.18,143.03,041012,,,D*76
$GPRMC,192845.000,A,3748.7896,N,12217.8827,W,1.20,138.85,041012,,,D*72
$GPRMC,192846.000,A,3748.7894,N,12217.8823,W,1.01,134.70,041012,,,D*72
$GPRMC,192847.000,A,3748.7891,N,12217.8818,W,0.53,128.07,041012,,,D*75
$GPRMC,192848.000,A,3748.7887,N,12217.8811,W,0.26,110.99,041012,,,D*7A
$GPRMC,192849.000,A,3748.7879,N,12217.8801,W,0.57,123.85,041012,,,D*70
$GPRMC,192850.000,A,3748.7880,N,12217.8802,W,0.90,143.11,041012,,,D*7D
$GPRMC,192851.000,A,3748.7885,N,12217.8806,W,0.15,331.75,041012,,,D*75
$GPRMC,192852.000,A,3748.7888,N,12217.8807,W,0.42,310.34,041012,,,D*7E
$GPRMC,192853.000,A,3748.7892,N,12217.8811,W,0.15,226.80,041012,,,D*7A
$GPRMC,192854.000,A,3748.7895,N,12217.8814,W,0.16,262.13,041012,,,D*76
$GPRMC,192855.000,A,3748.7894,N,12217.8812,W,0.11,246.29,041012,,,D*78
$GPRMC,192856.000,A,3748.7890,N,12217.8806,W,1.00,146.43,041012,,,D*74
$GPRMC,192857.000,A,3748.7886,N,12217.8801,W,0.77,144.86,041012,,,D*7F
$GPRMC,192858.000,A,3748.7878,N,12217.8792,W,0.84,134.24,041012,,,D*77
$GPRMC,192859.000,A,3748.7874,N,12217.8787,W,0.32,128.82,041012,,,D*72
$GPRMC,192900.000,A,3748.7877,N,12217.8789,W,0.85,326.83,041012,,,D*73
$GPRMC,192901.000,A,3748.7874,N,12217.8785,W,0.41,147.94,041012,,,D*76
$GPRMC,192902.000,A,3748.7868,N,12217.8779,W,0.40,143.98,041012,,,D*72
$GPRMC,192903.000,A,3748.7864,N,12217.8774,W,0.08,116.91,041012,,,D*77
$GPRMC,192904.000,A,3748.7859,N,12217.8769,W,0.11,143.08,041012,,,D*7A
$GPRMC,192905.000,A,3748.7854,N,12217.8764,W,0.65,144.87,041012,,,D*78
$GPRMC,192906.000,A,3748.7845,N,12217.8755,W,0.81,135.84,041012,,,D*76
$GPRMC,192907.000,A,3748.7838,N,12217.8748,W,0.91,139.05,041012,,,D*75
$GPRMC,192908.000,A,3748.7838,N,12217.8748,W,0.19,130.75,041012,,,D*74
$GPRMC,192909.000,A,3748.7844,N,12217.8753,W,0.69,322.56,041012,,,D*73
$GPRMC,192910.000,A,3748.7846,N,12217.8756,W,0.35,314.36,041012,,,D*76
$GPRMC,192911.000,A,3748.7844,N,12217.8754,W,0.36,151.52,041012,,,D*75
$GPRMC,192912.000,A,3748.7844,N,12217.8753,W,0.86,148.04,041012,,,D*71
$GPRMC,192913.000,A,3748.7839,N,12217.8749,W,0.41,138.29,041012,,,D*72
$GPRMC,192914.000,A,3748.7838,N,12217.8748,W,0.13,312.75,041012,,,D*71
$GPRMC,192915.000,A,3748.7841,N,12217.8750,W,0.63,320.18,041012,,,D*7A
$GPRMC,192916.000,A,3748.7839,N,12217.8749,W,0.44,315.49,041012,,,D*79
$GPRMC,192917.000,A,3748.7832,N,12217.8742,W,0.58,148.35,041012,,,D*74
$GPRMC,192918.000,A,3748.7830,N,12217.8740,W,0.11,134.03,041012,,,D*78
$GPRMC,192919.000,A,3748.7833,N,12217.8742,W,0.19,310.17,041012,,,D*71
$GPRMC,192920.000,A,3748.7834,N,12217.8743,W,0.04,210.34,041012,,,D*71
$GPRMC,192921.000,A,3748.7835,N,12217.8744,W,0.67,320.44,041012,,,D*76
$GPRMC,192922.000,A,3748.7837,N,12217.8746,W,0.27,310.06,041012,,,D*74
$GPRMC,192923.000,A,3748.7849,N,12217.8758,W,1.33,318.92,041012,,,D*72
$GPRMC,192924.000,A,3748.7853,N,12217.8760,W,0.67,313.26,041012,,,D*71
$GPRMC,192925.000,A,3748.7860,N,12217.8767,W,0.61,310.00,041012,,,D*76
$GPRMC,192926.000,A,3748.7867,N,12217.8773,W,0.50,302.75,041012,,,D*74
$GPRMC,192927.000,A,3748.7869,N,12217.8775,W,0.32,295.54,041012,,,D*75
$GPRMC,192928.000,A,3748.7870,N,12217.8774,W,0.09,191.08,041012,,,D*75
$GPRMC,192929.000,A,3748.7872,N,12217.8777,W,0.50,161.72,041012,,,D*7B
$GPRMC,192930.000,A,3748.7871,N,12217.8774,W,0.08,202.64,041012,,,D*7F
$GPRMC,192931.000,A,3748.7870,N,12217.8772,W,0.50,153.05,041012,,,D*74
$GPRMC,192932.000,A,3748.7864,N,12217.8766,W,1.15,146.11,041012,,,D*76
$GPRMC,192933.000,A,3748.7859,N,12217.8761,W,1.15,143.46,041012,,,D*79
$GPRMC,192934.000,A,3748.7856,N,12217.8757,W,1.45,143.99,041012,,,D*73
$GPRMC,192935.000,A,3748.7852,N,12217.8752,W,0.81,145.53,041012,,,D*7A
$GPRMC,192936.000,A,3748.7856,N,12217.8757,W,0.38,305.98,041012,,,D*7B
$GPRMC,192937.000,A,3748.7859,N,12217.8760,W,0.18,252.36,041012,,,D*74
$GPRMC,192938.000,A,3748.7861,N,12217.8761,W,0.36,171.51,041012,,,D*7E
$GPRMC,192939.000,A,3748.7865,N,12217.8765,W,0.58,305.63,041012,,,D*77
$GPRMC,192940.000,A,3748.7869,N,12217.8768,W,1.47,316.90,041012,,,D*79
$GPRMC,192941.000,A,3748.7867,N,12217.8765,W,0.29,298.65,041012,,,D*7F
$GPRMC,192942.000,A,3748.7870,N,12217.8768,W,0.35,162.56,041012,,,D*7C
$GPRMC,192943.000,A,3748.7869,N,12217.8766,W,0.88,150.18,041012,,,D*76
$GPRMC,192944.000,A,3748.7872,N,12217.8768,W,0.24,320.84,041012,,,D*73
$GPRMC,192945.000,A,3748.7877,N,12217.8771,W,0.09,216.39,041012,,,D*72
$GPRMC,192946.000,A,3748.7881,N,12217.8775,W,0.33,175.08,041012,,,D*71
$GPRMC,192947.000,A,3748.7886,N,12217.8779,W,0.37,167.13,041012,,,D*76
$GPRMC,192948.000,A,3748.7886,N,12217.8778,W,0.31,168.05,041012,,,D*76
$GPRMC,192949.000,A,3748.7882,N,12217.8773,W,0.12,182.50,041012,,,D*7D
$GPRMC,192950.000,A,3748.7887,N,12217.8778,W,0.61,311.80,041012,,,D*7A
$GPRMC,192951.000,A,3748.7889,N,12217.8778,W,1.09,318.09,041012,,,D*72
$GPRMC,192952.000,A,3748.7887,N,12217.8776,W,1.05,320.52,041012,,,D*78
$GPRMC,192953.000,A,3748.7887,N,12217.8774,W,0.68,316.50,041012,,,D*76
$GPRMC,192954.000,A,3748.7887,N,12217.8774,W,0.31,304.40,041012,,,D*7F
$GPRMC,192955.000,A,3748.7892,N,12217.8779,W,0.28,305.56,041012,,,D*79
$GPRMC,192956.000,A,3748.7896,N,12217.8781,W,1.12,318.62,041012,,,D*7A
$GPRMC,192957.000,A,3748.7900,N,12217.8785,W,0.62,309.48,041012,,,D*7F
$GPRMC,192958.000,A,3748.7902,N,12217.8786,W,0.63,312.12,041012,,,D*75
$GPRMC,192959.000,A,3748.7904,N,12217.8787,W,1.24,319.84,041012,,,D*75
$GPRMC,193000.000,A,3748.7909,N,12217.8792,W,1.15,315.04,041012,,,D*7E
$GPRMC,193001.000,A,3748.7917,N,12217.8799,W,1.02,311.79,041012,,,D*73
$GPRMC,193002.000,A,3748.7918,N,12217.8799,W,1.46,318.38,041012,,,D*73
$GPRMC,193003.000,A,3748.7920,N,12217.8800,W,0.61,306.34,041012,,,D*71
$GPRMC,193004.000,A,3748.7920,N,12217.8799,W,0.34,180.47,041012,,,D*71
$GPRMC,193005.000,A,3748.7919,N,12217.8797,W,0.82,147.07,041012,,,D*76
$GPRMC,193006.000,A,3748.7918,N,12217.8795,W,0.37,134.37,041012,,,D*7F
$GPRMC,193007.000,A,3748.7911,N,12217.8787,W,0.24,119.23,041012,,,D*7C
$GPRMC,193008.000,A,3748.7913,N,12217.8789,W,0.21,335.08,041012,,,D*7F
$GPRMC,193009.000,A,3748.7913,N,12217.8789,W,0.26,327.58,041012,,,D*7F
$GPRMC,193010.000,A,3748.7909,N,12217.8785,W,0.60,329.99,041012,,,D*71
$GPRMC,193011.000,A,3748.7902,N,12217.8779,W,0.54,144.85,041012,,,D*7B
$GPRMC,193012.000,A,3748.7896,N,12217.8773,W,0.58,137.00,041012,,,D*7B
$GPRMC,193013.000,A,3748.7893,N,12217.8771,W,0.02,232.25,041012,,,D*73
$GPRMC,193014.000,A,3748.7887,N,12217.8767,W,0.05,298.79,041012,,,D*78
$GPRMC,193015.000,A,3748.7893,N,12217.8774,W,0.69,316.31,041012,,,D*7F
$GPRMC,193016.000,A,3748.7893,N,12217.8775,W,0.53,308.51,041012,,,D*7D
$GPRMC,193017.000,A,3748.7892,N,12217.8774,W,0.09,228.00,041012,,,D*74
$GPRMC,193018.000,A,3748.7885,N,12217.8768,W,0.86,146.17,041012,,,D*7A
$GPRMC,193019.000,A,3748.7878,N,12217.8762,W,1.68,145.24,041012,,,D*71
$GPRMC,193020.000,A,3748.7872,N,12217.8757,W,1.30,142.01,041012,,,D*7A
$GPRMC,193021.000,A,3748.7872,N,12217.8757,W,0.31,134.46,041012,,,D*79
$GPRMC,193022.000,A,3748.7865,N,12217.8751,W,0.10,97.68,041012,,,D*4D
$GPRMC,193023.000,A,3748.7863,N,12217.8750,W,0.66,321.79,041012,,,D*74
$GPRMC,193024.000,A,3748.7866,N,12217.8753,W,0.19,283.23,041012,,,D*7B
$GPRMC,193025.000,A,3748.7868,N,12217.8756,W,0.47,160.45,041012,,,D*74
$GPRMC,193026.000,A,3748.7868,N,12217.8756,W,0.34,309.02,041012,,,D*7D
$GPRMC,193027.000,A,3748.7866,N,12217.8754,W,0.15,279.89,041012,,,D*76
$GPRMC,193028.000,A,3748.7860,N,12217.8748,W,0.04,0.64,041012,,,D*7D
$GPRMC,193029.000,A,3748.7862,N,12217.8750,W,0.51,322.14,041012,,,D*73
$GPRMC,193030.000,A,3748.7864,N,12217.8752,W,0.16,311.86,041012,,,D*77
$GPRMC,193031.000,A,3748.7864,N,12217.8751,W,0.55,321.91,041012,,,D*77
$GPRMC,193032.000,A,3748.7862,N,12217.8749,W,0.35,149.93,041012,,,D*73
$GPRMC,193033.000,A,3748.7854,N,12217.8740,W,1.20,140.12,041012,,,D*7B
$GPRMC,193034.000,A,3748.7848,N,12217.8734,W,0.73,134.58,041012,,,D*78
$GPRMC,193035.000,A,3748.7845,N,12217.8731,W,0.21,125.99,041012,,,D*7B
$GPRMC,193036.000,A,3748.7840,N,12217.8725,W,0.76,139.42,041012,,,D*71
$GPRMC,193037.000,A,3748.7844,N,12217.8729,W,0.14,306.53,041012,,,D*72
$GPRMC,193038.000,A,3748.7848,N,12217.8734,W,0.42,311.53,041012,,,D*78
$GPRMC,193039.000,A,3748.7850,N,12217.8736,W,0.51,313.48,041012,,,D*78
$GPRMC,193040.000,A,3748.7855,N,12217.8741,W,1.34,318.46,041012,,,D*74
$GPRMC,193041.000,A,3748.7858,N,12217.8743,W,0.96,316.78,041012,,,D*70
$GPRMC,193042.000,A,3748.7854,N,12217.8738,W,0.42,155.34,041012,,,D*77
$GPRMC,193043.000,A,3748.7844,N,12217.8729,W,1.92,144.59,041012,,,D*70
$GPRMC,193044.000,A,3748.7835,N,12217.8719,W,1.74,141.97,041012,,,D*7D
$GPRMC,193045.000,A,3748.7828,N,12217.8712,W,1.28,139.12,041012,,,D*70
$GPRMC,193046.000,A,3748.7827,N,12217.8712,W,0.97,142.90,041012,,,D*7F
$GPRMC,193047.000,A,3748.7830,N,12217.8715,W,0.92,144.41,041012,,,D*70
$GPRMC,193048.000,A,3748.7829,N,12217.8713,W,0.16,128.99,041012,,,D*72
$GPRMC,193049.000,A,3748.7828,N,12217.8712,W,0.07,328.41,041012,,,D*74
$GPRMC,193050.000,A,3748.7827,N,12217.8711,W,0.40,325.62,041012,,,D*7F
$GPRMC,193051.000,A,3748.7829,N,12217.8712,W,0.19,153.39,041012,,,D*72
$GPRMC,193052.000,A,3748.7829,N,12217.8712,W,0.78,146.73,041012,,,D*7C
$GPRMC,193053.000,A,3748.7831,N,12217.8716,W,0.46,163.08,041012,,,D*76
$GPRMC,193054.000,A,3748.7836,N,12217.8722,W,0.33,306.23,041012,,,D*7B
$GPRMC,193055.000,A,3748.7835,N,12217.8721,W,0.20,265.78,041012,,,D*72
$GPRMC,193056.000,A,3748.7835,N,12217.8722,W,0.20,294.26,041012,,,D*77
$GPRMC,193057.000,A,3748.7839,N,12217.8726,W,0.59,307.99,041012,,,D*7F
$GPRMC,193058.000,A,3748.7846,N,12217.8733,W,1.04,310.57,041012,,,D*71
$GPRMC,193059.000,A,3748.7847,N,12217.8735,W,0.64,305.31,041012,,,D*74
$GPRMC,193100.000,A,3748.7850,N,12217.8738,W,0.41,292.09,041012,,,D*71
$GPRMC,193101.000,A,3748.7855,N,12217.8744,W,0.71,304.37,041012,,,D*7E
$GPRMC,193102.000,A,3748.7861,N,12217.8749,W,0.45,288.59,041012,,,D*7D
$GPRMC,193103.000,A,3748.7868,N,12217.8757,W,0.90,306.71,041012,,,D*7F
$GPRMC,193104.000,A,3748.7870,N,12217.8758,W,0.73,303.32,041012,,,D*71
$GPRMC,193105.000,A,3748.7876,N,12217.8764,W,0.50,298.62,041012,,,D*7E
$GPRMC,193106.000,A,3748.7874,N,12217.8761,W,0.51,309.60,041012,,,D*70
$GPRMC,193107.000,A,3748.7871,N,12217.8756,W,0.42,151.16,041012,,,D*7C
$GPRMC,193108.000,A,3748.7866,N,12217.8750,W,0.83,143.90,041012,,,D*73
$GPRMC,193109.000,A,3748.7860,N,12217.8742,W,1.20,141.45,041012,,,D*75
$GPRMC,193110.000,A,3748.7853,N,12217.8735,W,1.28,142.02,041012,,,D*75
$GPRMC,193111.000,A,3748.7846,N,12217.8727,W,2.02,142.81,041012,,,D*73
$GPRMC,193112.000,A,3748.7843,N,12217.8723,W,1.94,143.67,041012,,,D*74
$GPRMC,193113.000,A,3748.7838,N,12217.8718,W,1.89,143.94,041012,,,D*71
$GPRMC,193114.000,A,3748.7838,N,12217.8718,W,0.72,145.43,041012,,,D*7F
$GPRMC,193115.000,A,3748.7843,N,12217.8722,W,0.64,316.16,041012,,,D*78
$GPRMC,193116.000,A,3748.7847,N,12217.8725,W,1.26,320.98,041012,,,D*7C
$GPRMC,193117.000,A,3748.7845,N,12217.8722,W,1.24,322.60,041012,,,D*7F
$GPRMC,193118.000,A,3748.7843,N,12217.8719,W,0.99,322.10,041012,,,D*7E
$GPRMC,193119.000,A,3748.7845,N,12217.8719,W,0.34,316.38,041012,,,D*73
$GPRMC,193120.000,A,3748.7848,N,12217.8721,W,0.07,157.72,041012,,,D*76
$GPRMC,193121.000,A,3748.7854,N,12217.8727,W,0.13,292.56,041012,,,D*75
$GPRMC,193122.000,A,3748.7855,N,12217.8727,W,0.22,179.32,041012,,,D*71
$GPRMC,193123.000,A,3748.7850,N,12217.8721,W,0.10,290.16,041012,,,D*70
$GPRMC,193124.000,A,3748.7849,N,12217.8719,W,0.59,319.88,041012,,,D*7E
$GPRMC,193125.000,A,3748.7847,N,12217.8716,W,1.05,319.84,041012,,,D*7A
$GPRMC,193126.000,A,3748.7842,N,12217.8710,W,1.09,319.35,041012,,,D*7C
$GPRMC,193127.000,A,3748.7834,N,12217.8701,W,0.38,150.67,041012,,,D*77
$GPRMC,193128.000,A,3748.7832,N,12217.8697,W,1.16,141.73,041012,,,D*78
$GPRMC,193129.000,A,3748.7826,N,12217.8691,W,2.34,141.09,041012,,,D*74
$GPRMC,193130.000,A,3748.7818,N,12217.8682,W,3.30,140.42,041012,,,D*78
$GPRMC,193131.000,A,3748.7797,N,12217.8659,W,3.43,137.54,041012,,,D*74
$GPRMC,193132.000,A,3748.7794,N,12217.8656,W,2.97,138.25,041012,,,D*7A
$GPRMC,193133.000,A,3748.7792,N,12217.8653,W,2.03,137.55,041012,,,D*7D
$GPRMC,193134.000,A,3748.7789,N,12217.8649,W,1.54,136.87,041012,,,D*74
$GPRMC,193135.000,A,3748.7787,N,12217.8647,W,1.01,140.82,041012,,,D*71
$GPRMC,193136.000,A,3748.7793,N,12217.8653,W,0.30,158.16,041012,,,D*75
$GPRMC,193137.000,A,3748.7795,N,12217.8655,W,0.23,304.86,041012,,,D*74
$GPRMC,193138.000,A,3748.7797,N,12217.8657,W,0.54,309.16,041012,,,D*7F
$GPRMC,193139.000,A,3748.7800,N,12217.8659,W,1.02,316.16,041012,,,D*7D
$GPRMC,193140.000,A,3748.7803,N,12217.8662,W,0.76,313.39,041012,,,D*72
$GPRMC,193141.000,A,3748.7804,N,12217.8663,W,0.73,319.08,041012,,,D*78
$GPRMC,193142.000,A,3748.7806,N,12217.8664,W,0.79,320.14,041012,,,D*73
$GPRMC,193143.000,A,3748.7809,N,12217.8666,W,0.89,318.08,041012,,,D*76
$GPRMC,193144.000,A,3748.7811,N,12217.8668,W,0.95,322.56,041012,,,D*79
$GPRMC,193145.000,A,3748.7814,N,12217.8671,W,1.10,320.36,041012,,,D*7D
$GPRMC,193146.000,A,3748.7817,N,12217.8673,W,1.16,319.57,041012,,,D*74
$GPRMC,193147.000,A,3748.7819,N,12217.8675,W,0.98,313.72,041012,,,D*77
$GPRMC,193148.000,A,3748.7820,N,12217.8676,W,0.88,313.97,041012,,,D*7B
$GPRMC,193149.000,A,3748.7822,N,12217.8677,W,0.73,309.82,041012,,,D*72
$GPRMC,193150.000,A,3748.7823,N,12217.8679,W,0.68,308.47,041012,,,D*77
$GPRMC,193151.000,A,3748.7824,N,12217.8680,W,0.64,306.02,041012,,,D*74
$GPRMC,193152.000,A,3748.7826,N,12217.8682,W,0.67,313.58,041012,,,D*7F
$GPRMC,193153.000,A,3748.7830,N,12217.8686,W,0.83,319.68,041012,,,D*7E
$GPRMC,193154.000,A,3748.7835,N,12217.8689,W,0.98,319.18,041012,,,D*7E
$GPRMC,193155.000,A,3748.7840,N,12217.8694,W,1.20,321.32,041012,,,D*70
$GPRMC,193156.000,A,3748.7845,N,12217.8698,W,1.31,320.26,041012,,,D*7E
$GPRMC,193157.000,A,3748.7850,N,12217.8703,W,1.46,319.03,041012,,,D*75
$GPRMC,193158.000,A,3748.7853,N,12217.8706,W,1.34,319.33,041012,,,D*7A
$GPRMC,193159.000,A,3748.7854,N,12217.8706,W,1.17,316.08,041012,,,D*7A
$GPRMC,193200.000,A,3748.7854,N,12217.8706,W,0.90,309.77,041012,,,D*7D
$GPRMC,193201.000,A,3748.7855,N,12217.8706,W,0.75,310.26,041012,,,D*7A
$GPRMC,193202.000,A,3748.7854,N,12217.8705,W,0.52,309.88,041012,,,D*72
$GPRMC,193203.000,A,3748.7854,N,12217.8705,W,0.40,301.73,041012,,,D*7C
$GPRMC,193204.000,A,3748.7855,N,12217.8706,W,0.39,306.91,041012,,,D*7C
$GPRMC,193205.000,A,3748.7858,N,12217.8708,W,0.52,321.27,041012,,,D*7B
$GPRMC,193206.000,A,3748.7863,N,12217.8712,W,0.72,323.06,041012,,,D*78
$GPRMC,193207.000,A,3748.7867,N,12217.8715,W,0.91,321.00,041012,,,D*73
$GPRMC,193208.000,A,3748.7872,N,12217.8719,W,1.06,321.75,041012,,,D*79
$GPRMC,193209.000,A,3748.7876,N,12217.8723,W,1.12,318.89,041012,,,D*79
$GPRMC,193210.000,A,3748.7879,N,12217.8724,W,1.03,317.61,041012,,,D*70
$GPRMC,193211.000,A,3748.7879,N,12217.8725,W,0.88,313.26,041012,,,D*75
$GPRMC,193212.000,A,3748.7879,N,12217.8724,W,0.69,311.59,041012,,,D*72
$GPRMC,193213.000,A,3748.7878,N,12217.8723,W,0.54,310.66,041012,,,D*76
$GPRMC,193214.000,A,3748.7877,N,12217.8722,W,0.35,302.33,041012,,,D*7B
$GPRMC,193215.000,A,3748.7877,N,12217.8721,W,0.23,299.70,041012,,,D*7A
$GPRMC,193216.000,A,3748.7877,N,12217.8720,W,0.20,293.40,041012,,,D*72
$GPRMC,193217.000,A,3748.7877,N,12217.8719,W,0.16,323.74,041012,,,D*71
$GPRMC,193218.000,A,3748.7878,N,12217.8718,W,0.09,332.82,041012,,,D*77
$GPRMC,193219.000,A,3748.7878,N,12217.8718,W,0.07,330.16,041012,,,D*77
$GPRMC,193220.000,A,3748.7879,N,12217.8717,W,0.11,356.02,041012,,,D*71
$GPRMC,193221.000,A,3748.7880,N,12217.8717,W,0.08,350.05,041012,,,D*7F
$GPRMC,193222.000,A,3748.7881,N,12217.8717,W,0.10,332.88,041012,,,D*75
$GPRMC,193223.000,A,3748.7882,N,12217.8717,W,0.20,292.37,041012,,,D*7B
$GPRMC,193224.000,A,3748.7883,N,12217.8718,W,0.24,290.67,041012,,,D*71
$GPRMC,193225.000,A,3748.7884,N,12217.8719,W,0.24,296.27,041012,,,D*74
$GPRMC,193226.000,A,3748.7886,N,12217.8720,W,0.31,294.05,041012,,,D*79
$GPRMC,193227.000,A,3748.7887,N,12217.8722,W,0.37,299.17,041012,,,D*73
$GPRMC,193228.000,A,3748.7887,N,12217.8721,W,0.25,292.03,041012,,,D*72
$GPRMC,193229.000,A,3748.7888,N,12217.8722,W,0.24,292.57,041012,,,D*7F
$GPRMC,193230.000,A,3748.7889,N,12217.8722,W,0.23,310.55,041012,,,D*78
$GPRMC,193231.000,A,3748.7890,N,12217.8723,W,0.30,308.85,041012,,,D*76
$GPRMC,193232.000,A,3748.7891,N,12217.8723,W,0.27,312.74,041012,,,D*77
$GPRMC,193233.000,A,3748.7892,N,12217.8724,W,0.29,307.43,041012,,,D*7C
$GPRMC,193234.000,A,3748.7896,N,12217.8727,W,0.51,320.32,041012,,,D*70
$GPRMC,193235.000,A,3748.7900,N,12217.8730,W,0.66,321.78,041012,,,D*72
$GPRMC,193236.000,A,3748.7904,N,12217.8733,W,0.80,319.62,041012,,,D*7E
$GPRMC,193237.000,A,3748.7908,N,12217.8736,W,0.91,321.72,041012,,,D*7C
$GPRMC,193238.000,A,3748.7912,N,12217.8739,W,1.00,319.72,041012,,,D*75
$GPRMC,193239.000,A,3748.7916,N,12217.8743,W,1.11,319.81,041012,,,D*71
$GPRMC,193240.000,A,3748.7918,N,12217.8744,W,1.03,318.31,041012,,,D*7F
$GPRMC,193241.000,A,3748.7918,N,12217.8743,W,0.81,316.17,041012,,,D*78
$GPRMC,193242.000,A,3748.7918,N,12217.8742,W,0.64,314.54,041012,,,D*74
$GPRMC,193243.000,A,3748.7917,N,12217.8742,W,0.50,311.54,041012,,,D*78
$GPRMC,193244.000,A,3748.7917,N,12217.8740,W,0.36,313.28,041012,,,D*74
$GPRMC,193245.000,A,3748.7916,N,12217.8739,W,0.23,299.59,041012,,,D*7B
$GPRMC,193246.000,A,3748.7918,N,12217.8741,W,0.31,316.44,041012,,,D*70
$GPRMC,193247.000,A,3748.7921,N,12217.8743,W,0.42,311.70,041012,,,D*7D
$GPRMC,193248.000,A,3748.7923,N,12217.8746,W,0.55,308.69,041012,,,D*73
$GPRMC,193249.000,A,3748.7926,N,12217.8749,W,0.67,310.10,041012,,,D*7E
$GPRMC,193250.000,A,3748.7929,N,12217.8752,W,0.70,310.07,041012,,,D*73
$GPRMC,193251.000,A,3748.7931,N,12217.8755,W,0.76,311.37,041012,,,D*78
$GPRMC,193252.000,A,3748.7932,N,12217.8756,W,0.68,306.33,041012,,,D*76
$GPRMC,193253.000,A,3748.7933,N,12217.8756,W,0.53,313.15,041012,,,D*7E
$GPRMC,193254.000,A,3748.7933,N,12217.8756,W,0.46,315.57,041012,,,D*7D
$GPRMC,193255.000,A,3748.7933,N,12217.8755,W,0.32,309.90,041012,,,D*7A
$GPRMC,193256.000,A,3748.7933,N,12217.8754,W,0.29,313.79,041012,,,D*7E
$GPRMC,193257.000,A,3748.7933,N,12217.8753,W,0.18,304.66,041012,,,D*72
$GPRMC,193258.000,A,3748.7935,N,12217.8754,W,0.27,320.88,041012,,,D*76
$GPRMC,193259.000,A,3748.7936,N,12217.8755,W,0.32,312.34,041012,,,D*77
$GPRMC,193300.000,A,3748.7936,N,12217.8755,W,0.25,302.63,041012,,,D*7F
$GPRMC,193301.000,A,3748.7937,N,12217.8756,W,0.28,302.71,041012,,,D*72
$GPRMC,193302.000,A,3748.7938,N,12217.8756,W,0.26,305.29,041012,,,D*7A
$GPRMC,193303.000,A,3748.7938,N,12217.8757,W,0.24,304.56,041012,,,D*71
$GPRMC,193304.000,A,3748.7937,N,12217.8756,W,0.21,283.51,041012,,,D*74
$GPRMC,193305.000,A,3748.7938,N,12217.8757,W,0.23,304.24,041012,,,D*75
$GPRMC,193306.000,A,3748.7939,N,12217.8757,W,0.22,303.46,041012,,,D*75
$GPRMC,193307.000,A,3748.7940,N,12217.8758,W,0.26,302.86,041012,,,D*7C
$GPRMC,193308.000,A,3748.7941,N,12217.8759,W,0.27,307.37,041012,,,D*7D
$GPRMC,193309.000,A,3748.7942,N,12217.8759,W,0.29,305.54,041012,,,D*76
$GPRMC,193310.000,A,3748.7945,N,12217.8762,W,0.47,317.12,041012,,,D*78
$GPRMC,193311.000,A,3748.7946,N,12217.8763,W,0.52,310.80,041012,,,D*73
$GPRMC,193312.000,A,3748.7949,N,12217.8765,W,0.59,311.64,041012,,,D*79
$GPRMC,193313.000,A,3748.7951,N,12217.8768,W,0.65,310.03,041012,,,D*73
$GPRMC,193314.000,A,3748.7953,N,12217.8770,W,0.70,309.41,041012,,,D*75
$GPRMC,193315.000,A,3748.7954,N,12217.8771,W,0.67,309.37,041012,,,D*75
$GPRMC,193316.000,A,3748.7953,N,12217.8771,W,0.53,301.16,041012,,,D*7D
$GPRMC,193317.000,A,3748.7953,N,12217.8770,W,0.38,307.42,041012,,,D*77
$GPRMC,193318.000,A,3748.7952,N,12217.8769,W,0.28,313.31,041012,,,D*71
$GPRMC,193319.000,A,3748.7952,N,12217.8769,W,0.24,308.17,041012,,,D*72
$GPRMC,193320.000,A,3748.7952,N,12217.8767,W,0.13,303.11,041012,,,D*7F
$GPRMC,193321.000,A,3748.7950,N,12217.8766,W,0.04,248.17,041012,,,D*73
$GPRMC,193322.000,A,3748.7951,N,12217.8766,W,0.14,333.03,041012,,,D*78
$GPRMC,193323.000,A,3748.7951,N,12217.8765,W,0.13,308.46,041012,,,D*74
$GPRMC,193324.000,A,3748.7951,N,12217.8764,W,0.12,298.90,041012,,,D*70
$GPRMC,193325.000,A,3748.7951,N,12217.8765,W,0.18,302.36,041012,,,D*74
$GPRMC,193326.000,A,3748.7951,N,12217.8764,W,0.19,294.28,041012,,,D*76
$GPRMC,193327.000,A,3748.7950,N,12217.8764,W,0.14,293.12,041012,,,D*75
$GPRMC,193328.000,A,3748.7948,N,12217.8761,W,0.13,201.54,041012,,,D*78
$GPRMC,193329.000,A,3748.7947,N,12217.8760,W,0.12,181.23,041012,,,D*7D
$GPRMC,193330.000,A,3748.7947,N,12217.8760,W,0.11,190.41,041012,,,D*72
$GPRMC,193331.000,A,3748.7946,N,12217.8759,W,0.08,180.60,041012,,,D*72
$GPRMC,193332.000,A,3748.7946,N,12217.8759,W,0.05,179.21,041012,,,D*7F
$GPRMC,193333.000,A,3748.7946,N,12217.8758,W,0.07,187.59,041012,,,D*73
$GPRMC,193334.000,A,3748.7948,N,12217.8761,W,0.19,309.12,041012,,,D*74
$GPRMC,193335.000,A,3748.7949,N,12217.8761,W,0.24,305.84,041012,,,D*79
$GPRMC,193336.000,A,3748.7950,N,12217.8762,W,0.33,301.20,041012,,,D*7D
$GPRMC,193337.000,A,3748.7950,N,12217.8763,W,0.31,300.62,041012,,,D*78
$GPRMC,193338.000,A,3748.7973,N,12217.8784,W,1.12,313.70,041012,,,D*7E
$GPRMC,193339.000,A,3748.8003,N,12217.8810,W,2.29,317.21,041012,,,D*77
$GPRMC,193338.000,A,3748.8023,N,12217.8829,W,3.60,317.32,041012,,,D*70
$GPRMC,193339.000,A,3748.8021,N,12217.8826,W,3.10,317.59,041012,,,D*76
$GPRMC,193340.000,A,3748.8016,N,12217.8821,W,2.26,317.56,041012,,,D*70
$GPRMC,193341.000,A,3748.8020,N,12217.8823,W,1.40,314.89,041012,,,D*74
$GPRMC,193342.000,A,3748.8020,N,12217.8821,W,0.26,295.19,041012,,,D*75
$GPRMC,193343.000,A,3748.8019,N,12217.8818,W,0.53,147.98,041012,,,D*73
$GPRMC,193344.000,A,3748.8016,N,12217.8813,W,1.21,139.14,041012,,,D*79
$GPRMC,193345.000,A,3748.8012,N,12217.8808,W,2.04,142.00,041012,,,D*7B
$GPRMC,193346.000,A,3748.8006,N,12217.8800,W,2.65,140.71,041012,,,D*76
$GPRMC,193347.000,A,3748.8000,N,12217.8794,W,2.52,139.75,041012,,,D*7D
$GPRMC,193348.000,A,3748.7995,N,12217.8788,W,2.37,139.90,041012,,,D*7D
$GPRMC,193349.000,A,3748.7991,N,12217.8783,W,2.19,140.39,041012,,,D*72
$GPRMC,193350.000,A,3748.7986,N,12217.8778,W,2.16,141.86,041012,,,D*72
$GPRMC,193351.000,A,3748.7982,N,12217.8772,W,2.04,139.10,041012,,,D*7E
$GPRMC,193352.000,A,3748.7978,N,12217.8767,W,1.96,139.23,041012,,,D*74
$GPRMC,193353.000,A,3748.7974,N,12217.8762,W,1.90,139.23,041012,,,D*7A
$GPRMC,193354.000,A,3748.7971,N,12217.8757,W,1.77,138.51,041012,,,D*73
$GPRMC,193355.000,A,3748.7968,N,12217.8753,W,1.63,138.76,041012,,,D*7E
$GPRMC,193356.000,A,3748.7966,N,12217.8750,W,1.35,136.19,041012,,,D*74
$GPRMC,193357.000,A,3748.7965,N,12217.8748,W,1.09,138.43,041012,,,D*71
$GPRMC,193358.000,A,3748.7964,N,12217.8747,W,0.92,143.62,041012,,,D*7C
$GPRMC,193359.000,A,3748.7963,N,12217.8746,W,0.76,147.29,041012,,,D*7A
$GPRMC,193400.000,A,3748.7963,N,12217.8746,W,0.57,144.40,041012,,,D*7E
$GPRMC,193401.000,A,3748.7962,N,12217.8746,W,0.43,150.54,041012,,,D*7B
$GPRMC,193402.000,A,3748.7962,N,12217.8745,W,0.37,154.33,041012,,,D*7D
$GPRMC,193403.000,A,3748.7961,N,12217.8743,W,0.34,142.46,041012,,,D*7F
$GPRMC,193404.000,A,3748.7960,N,12217.8741,W,0.33,130.07,041012,,,D*7C
$GPRMC,193405.000,A,3748.7959,N,12217.8740,W,0.30,136.72,041012,,,D*71
$GPRMC,193406.000,A,3748.7958,N,12217.8739,W,0.30,141.88,041012,,,D*78
$GPRMC,193407.000,A,3748.7958,N,12217.8738,W,0.22,135.47,041012,,,D*7B
$GPRMC,193408.000,A,3748.7958,N,12217.8737,W,0.22,130.81,041012,,,D*74
$GPRMC,193409.000,A,3748.7959,N,12217.8737,W,0.06,111.37,041012,,,D*7C
$GPRMC,193410.000,A,3748.7959,N,12217.8737,W,0.06,101.09,041012,,,D*78
$GPRMC,193411.000,A,3748.7960,N,12217.8737,W,0.08,328.66,041012,,,D*7D
$GPRMC,193412.000,A,3748.7961,N,12217.8737,W,0.12,337.23,041012,,,D*7B
$GPRMC,193413.000,A,3748.7962,N,12217.8738,W,0.18,329.77,041012,,,D*72
$GPRMC,193414.000,A,3748.7961,N,12217.8736,W,0.08,314.71,041012,,,D*71
$GPRMC,193415.000,A,3748.7961,N,12217.8736,W,0.13,274.20,041012,,,D*79
$GPRMC,193416.000,A,3748.7959,N,12217.8734,W,0.11,222.41,041012,,,D*75
$GPRMC,193417.000,A,3748.7958,N,12217.8733,W,0.12,211.67,041012,,,D*75
$GPRMC,193418.000,A,3748.7957,N,12217.8732,W,0.15,178.70,041012,,,D*79
$GPRMC,193419.000,A,3748.7956,N,12217.8731,W,0.16,177.20,041012,,,D*73
$GPRMC,193420.000,A,3748.7957,N,12217.8732,W,0.07,228.33,041012,,,D*70
$GPRMC,193421.000,A,3748.7990,N,12217.8762,W,0.33,150.37,041012,,,D*70
$GPRMC,193422.000,A,3748.7999,N,12217.8770,W,0.06,207.69,041012,,,D*75
$GPRMC,193423.000,A,3748.8009,N,12217.8778,W,0.94,318.65,041012,,,D*7B
$GPRMC,193424.000,A,3748.8010,N,12217.8778,W,0.29,301.17,041012,,,D*7F
$GPRMC,193425.000,A,3748.8001,N,12217.8770,W,0.82,317.36,041012,,,D*73
$GPRMC,193426.000,A,3748.8001,N,12217.8770,W,0.27,296.56,041012,,,D*71
$GPRMC,193427.000,A,3748.8001,N,12217.8769,W,0.20,170.77,041012,,,D*77
$GPRMC,193428.000,A,3748.7989,N,12217.8757,W,0.07,140.04,041012,,,D*71
$GPRMC,193429.000,A,3748.7990,N,12217.8757,W,0.40,326.31,041012,,,D*7F
$GPRMC,193430.000,A,3748.7992,N,12217.8759,W,0.98,318.05,041012,,,D*74
$GPRMC,193431.000,A,3748.7995,N,12217.8762,W,1.72,319.83,041012,,,D*70
$GPRMC,193432.000,A,3748.8001,N,12217.8767,W,2.49,319.49,041012,,,D*70
$GPRMC,193433.000,A,3748.8005,N,12217.8771,W,2.00,315.65,041012,,,D*7D
$GPRMC,193434.000,A,3748.8007,N,12217.8773,W,1.07,311.04,041012,,,D*7D
$GPRMC,193435.000,A,3748.8009,N,12217.8775,W,1.17,315.36,041012,,,D*70
$GPRMC,193436.000,A,3748.8013,N,12217.8779,W,1.91,317.75,041012,,,D*7F
$GPRMC,193437.000,A,3748.8016,N,12217.8781,W,1.53,315.74,041012,,,D*71
$GPRMC,193438.000,A,3748.8018,N,12217.8783,W,1.03,311.82,041012,,,D*7A
$GPRMC,193439.000,A,3748.8019,N,12217.8783,W,0.43,298.20,041012,,,D*77
$GPRMC,193440.000,A,3748.8018,N,12217.8782,W,0.35,171.02,041012,,,D*7C
$GPRMC,193441.000,A,3748.8016,N,12217.8779,W,0.99,148.73,041012,,,D*7D
$GPRMC,193442.000,A,3748.8015,N,12217.8779,W,0.11,186.29,041012,,,D*70
$GPRMC,193443.000,A,3748.8015,N,12217.8779,W,0.20,292.39,041012,,,D*74
$GPRMC,193444.000,A,3748.8011,N,12217.8775,W,0.87,318.67,041012,,,D*7E
$GPRMC,193445.000,A,3748.8001,N,12217.8764,W,0.42,146.45,041012,,,D*7E
$GPRMC,193446.000,A,3748.7993,N,12217.8755,W,0.33,133.91,041012,,,D*7F
$GPRMC,193447.000,A,3748.7986,N,12217.8748,W,0.53,132.55,041012,,,D*79
$GPRMC,193448.000,A,3748.7973,N,12217.8735,W,0.44,128.51,041012,,,D*7F
$GPRMC,193449.000,A,3748.7964,N,12217.8725,W,0.29,118.12,041012,,,D*76
$GPRMC,193450.000,A,3748.7953,N,12217.8715,W,0.10,85.14,041012,,,D*40
$GPRMC,193451.000,A,3748.7944,N,12217.8706,W,1.06,143.58,041012,,,D*70
$GPRMC,193452.000,A,3748.7921,N,12217.8685,W,1.01,138.48,041012,,,D*70
$GPRMC,193453.000,A,3748.7921,N,12217.8686,W,0.04,120.13,041012,,,D*71
$GPRMC,193454.000,A,3748.7923,N,12217.8689,W,0.96,315.67,041012,,,D*77
$GPRMC,193455.000,A,3748.7920,N,12217.8686,W,0.23,292.45,041012,,,D*7A
$GPRMC,193456.000,A,3748.7918,N,12217.8686,W,0.83,316.63,041012,,,D*71
$GPRMC,193457.000,A,3748.7908,N,12217.8676,W,0.73,137.94,041012,,,D*78
$GPRMC,193458.000,A,3748.7896,N,12217.8662,W,2.18,137.27,041012,,,D*73
$GPRMC,193459.000,A,3748.7886,N,12217.8652,W,1.77,133.09,041012,,,D*72
$GPRMC,193500.000,A,3748.7882,N,12217.8649,W,1.34,132.98,041012,,,D*7F
$GPRMC,193501.000,A,3748.7872,N,12217.8638,W,1.08,128.63,041012,,,D*77
$GPRMC,193502.000,A,3748.7876,N,12217.8642,W,0.42,127.56,041012,,,D*7B
$GPRMC,193503.000,A,3748.7869,N,12217.8636,W,0.91,138.53,041012,,,D*72
$GPRMC,193504.000,A,3748.7863,N,12217.8631,W,0.93,138.28,041012,,,D*76
$GPRMC,193505.000,A,3748.7857,N,12217.8626,W,1.91,142.09,041012,,,D*7B
$GPRMC,193506.000,A,3748.7851,N,12217.8620,W,1.99,140.32,041012,,,D*7A
$GPRMC,193507.000,A,3748.7843,N,12217.8614,W,1.59,137.91,041012,,,D*7A
$GPRMC,193508.000,A,3748.7831,N,12217.8602,W,1.50,134.42,041012,,,D*73
$GPRMC,193509.000,A,3748.7835,N,12217.8607,W,0.15,355.46,041012,,,D*72
$GPRMC,193510.000,A,3748.7837,N,12217.8610,W,0.31,137.91,041012,,,D*74
$GPRMC,193511.000,A,3748.7840,N,12217.8614,W,0.08,338.59,041012,,,D*72
$GPRMC,193512.000,A,3748.7850,N,12217.8627,W,1.16,316.68,041012,,,D*70
$GPRMC,193513.000,A,3748.7853,N,12217.8630,W,0.44,305.87,041012,,,D*71
$GPRMC,193514.000,A,3748.7858,N,12217.8637,W,0.16,225.33,041012,,,D*71
$GPRMC,193515.000,A,3748.7856,N,12217.8636,W,0.16,190.89,041012,,,D*73
$GPRMC,193516.000,A,3748.7857,N,12217.8638,W,0.32,176.09,041012,,,D*79
$GPRMC,193517.000,A,3748.7858,N,12217.8640,W,0.45,301.49,041012,,,D*7E
$GPRMC,193518.000,A,3748.7854,N,12217.8637,W,0.51,158.26,041012,,,D*7F
$GPRMC,193519.000,A,3748.7854,N,12217.8638,W,0.35,166.37,041012,,,D*7E
$GPRMC,193520.000,A,3748.7851,N,12217.8635,W,0.92,147.85,041012,,,D*7B
$GPRMC,193521.000,A,3748.7853,N,12217.8639,W,0.12,135.06,041012,,,D*72
$GPRMC,193522.000,A,3748.7859,N,12217.8645,W,0.33,320.49,041012,,,D*7E
$GPRMC,193523.000,A,3748.7864,N,12217.8650,W,1.35,321.33,041012,,,D*7E
$GPRMC,193524.000,A,3748.7871,N,12217.8657,W,1.11,316.53,041012,,,D*7E
$GPRMC,193525.000,A,3748.7877,N,12217.8664,W,2.13,318.80,041012,,,D*78
$GPRMC,193526.000,A,3748.7879,N,12217.8665,W,1.26,315.28,041012,,,D*7E
$GPRMC,193527.000,A,3748.7873,N,12217.8659,W,0.34,173.14,041012,,,D*75
$GPRMC,193528.000,A,3748.7873,N,12217.8661,W,0.43,290.09,041012,,,D*73
$GPRMC,193529.000,A,3748.7878,N,12217.8667,W,0.80,302.08,041012,,,D*7B
$GPRMC,193530.000,A,3748.7879,N,12217.8670,W,1.26,309.12,041012,,,D*79
$GPRMC,193531.000,A,3748.7883,N,12217.8675,W,0.91,299.82,041012,,,D*74
$GPRMC,193532.000,A,3748.7878,N,12217.8670,W,0.54,163.53,041012,,,D*75
$GPRMC,193533.000,A,3748.7872,N,12217.8662,W,0.96,139.84,041012,,,D*76
$GPRMC,193534.000,A,3748.7868,N,12217.8658,W,1.36,135.96,041012,,,D*77
$GPRMC,193535.000,A,3748.7867,N,12217.8656,W,0.74,129.03,041012,,,D*71
$GPRMC,193536.000,A,3748.7868,N,12217.8655,W,0.29,348.70,041012,,,D*77
$GPRMC,193537.000,A,3748.7866,N,12217.8652,W,0.52,132.26,041012,,,D*7F
$GPRMC,193538.000,A,3748.7870,N,12217.8656,W,0.10,121.16,041012,,,D*74
$GPRMC,193539.000,A,3748.7875,N,12217.8663,W,0.87,310.88,041012,,,D*7F
$GPRMC,193540.000,A,3748.7881,N,12217.8670,W,0.86,298.85,041012,,,D*75
$GPRMC,193541.000,A,3748.7884,N,12217.8674,W,0.44,275.10,041012,,,D*74
$GPRMC,193542.000,A,3748.7883,N,12217.8675,W,0.38,268.19,041012,,,D*7F
$GPRMC,193543.000,A,3748.7878,N,12217.8669,W,0.19,262.27,041012,,,D*73
$GPRMC,193544.000,A,3748.7881,N,12217.8673,W,0.24,201.80,041012,,,D*7F
$GPRMC,193545.000,A,3748.7878,N,12217.8671,W,0.16,214.99,041012,,,D*77
$GPRMC,193546.000,A,3748.7884,N,12217.8679,W,1.07,311.31,041012,,,D*78
$GPRMC,193547.000,A,3748.7889,N,12217.8685,W,1.78,313.18,041012,,,D*76
$GPRMC,193548.000,A,3748.7896,N,12217.8693,W,1.49,308.21,041012,,,D*72
$GPRMC,193549.000,A,3748.7905,N,12217.8704,W,1.55,306.27,041012,,,D*72
$GPRMC,193550.000,A,3748.7914,N,12217.8714,W,1.57,305.38,041012,,,D*74
$GPRMC,193551.000,A,3748.7918,N,12217.8719,W,1.07,301.74,041012,,,D*7D
$GPRMC,193552.000,A,3748.7924,N,12217.8725,W,0.69,295.41,041012,,,D*7D
$GPRMC,193553.000,A,3748.7931,N,12217.8732,W,0.38,275.91,041012,,,D*79
$GPRMC,193554.000,A,3748.7934,N,12217.8734,W,0.40,173.68,041012,,,D*71
$GPRMC,193555.000,A,3748.7934,N,12217.8732,W,0.41,162.77,041012,,,D*79
$GPRMC,193556.000,A,3748.7939,N,12217.8737,W,0.54,153.56,041012,,,D*77
$GPRMC,193557.000,A,3748.7944,N,12217.8741,W,0.32,154.09,041012,,,D*70
$GPRMC,193558.000,A,3748.7950,N,12217.8745,W,0.25,146.55,041012,,,D*72
$GPRMC,193559.000,A,3748.7944,N,12217.8736,W,1.33,140.12,041012,,,D*71
$GPRMC,193600.000,A,3748.7948,N,12217.8738,W,0.52,134.99,041012,,,D*7A
$GPRMC,193601.000,A,3748.7949,N,12217.8736,W,0.19,1.84,041012,,,D*70
$GPRMC,193602.000,A,3748.7948,N,12217.8732,W,0.57,328.24,041012,,,D*7E
$GPRMC,193603.000,A,3748.7951,N,12217.8734,W,0.91,314.14,041012,,,D*77
$GPRMC,193604.000,A,3748.7951,N,12217.8733,W,0.54,301.23,041012,,,D*7E
$GPRMC,193605.000,A,3748.7952,N,12217.8734,W,0.22,245.50,041012,,,D*7F
$GPRMC,193606.000,A,3748.7948,N,12217.8728,W,0.47,302.01,041012,,,D*7F
$GPRMC,193607.000,A,3748.7943,N,12217.8720,W,0.38,309.28,041012,,,D*75
$GPRMC,193608.000,A,3748.7939,N,12217.8714,W,0.51,149.58,041012,,,D*7E
$GPRMC,193609.000,A,3748.7932,N,12217.8704,W,1.58,136.10,041012,,,D*79
$GPRMC,193610.000,A,3748.7928,N,12217.8696,W,1.20,129.17,041012,,,D*76
$GPRMC,193611.000,A,3748.7924,N,12217.8688,W,0.79,118.03,041012,,,D*7E
$GPRMC,193612.000,A,3748.7922,N,12217.8683,W,0.88,128.37,041012,,,D*7A
$GPRMC,193613.000,A,3748.7915,N,12217.8672,W,1.11,124.80,041012,,,D*70
$GPRMC,193614.000,A,3748.7912,N,12217.8666,W,0.79,119.14,041012,,,D*79
$GPRMC,193615.000,A,3748.7910,N,12217.8662,W,0.13,77.57,041012,,,D*4C
$GPRMC,193616.000,A,3748.7909,N,12217.8659,W,0.33,138.48,041012,,,D*79
$GPRMC,193617.000,A,3748.7907,N,12217.8656,W,0.62,144.05,041012,,,D*7F
$GPRMC,193618.000,A,3748.7909,N,12217.8659,W,0.32,310.77,041012,,,D*72
$GPRMC,193619.000,A,3748.7909,N,12217.8658,W,0.42,310.35,041012,,,D*73
$GPRMC,193620.000,A,3748.7914,N,12217.8662,W,0.48,303.68,041012,,,D*7C
$GPRMC,193621.000,A,3748.7921,N,12217.8669,W,0.51,309.13,041012,,,D*7E
$GPRMC,193622.000,A,3748.7923,N,12217.8669,W,0.10,187.03,041012,,,D*7F
$GPRMC,193623.000,A,3748.7927,N,12217.8672,W,0.49,145.06,041012,,,D*77
$GPRMC,193624.000,A,3748.7931,N,12217.8674,W,0.07,313.86,041012,,,D*72
$GPRMC,193625.000,A,3748.7934,N,12217.8676,W,0.04,196.28,041012,,,D*7C
$GPRMC,193626.000,A,3748.7936,N,12217.8675,W,0.55,322.26,041012,,,D*79
$GPRMC,193627.000,A,3748.7940,N,12217.8677,W,0.10,295.56,041012,,,D*70
$GPRMC,193628.000,A,3748.7933,N,12217.8667,W,0.47,138.98,041012,,,D*7E
$GPRMC,193629.000,A,3748.7930,N,12217.8662,W,0.08,62.80,041012,,,D*45
$GPRMC,193630.000,A,3748.7929,N,12217.8659,W,0.63,330.02,041012,,,D*7E
$GPRMC,193631.000,A,3748.7926,N,12217.8654,W,1.01,325.08,041012,,,D*76
$GPRMC,193632.000,A,3748.7918,N,12217.8642,W,0.62,137.34,041012,,,D*75
$GPRMC,193633.000,A,3748.7919,N,12217.8642,W,0.87,139.15,041012,,,D*73
$GPRMC,193634.000,A,3748.7919,N,12217.8641,W,0.06,66.08,041012,,,D*49
$GPRMC,193635.000,A,3748.7918,N,12217.8637,W,0.67,326.66,041012,,,D*70
$GPRMC,193636.000,A,3748.7919,N,12217.8637,W,0.60,317.71,041012,,,D*71
$GPRMC,193637.000,A,3748.7918,N,12217.8634,W,0.17,305.59,041012,,,D*7B
$GPRMC,193638.000,A,3748.7912,N,12217.8626,W,1.10,141.20,041012,,,D*77
$GPRMC,193639.000,A,3748.7908,N,12217.8620,W,0.59,131.08,041012,,,D*7A
$GPRMC,193640.000,A,3748.7903,N,12217.8613,W,0.41,118.08,041012,,,D*7D
$GPRMC,193641.000,A,3748.7900,N,12217.8609,W,0.15,14.20,041012,,,D*42
$GPRMC,193642.000,A,3748.7897,N,12217.8603,W,0.39,340.43,041012,,,D*7D
$GPRMC,193643.000,A,3748.7894,N,12217.8599,W,0.66,327.50,041012,,,D*76
$GPRMC,193644.000,A,3748.7892,N,12217.8595,W,0.34,337.63,041012,,,D*7D
$GPRMC,193645.000,A,3748.7896,N,12217.8599,W,0.21,319.56,041012,,,D*7A
$GPRMC,193646.000,A,3748.7903,N,12217.8606,W,1.26,318.55,041012,,,D*75
$GPRMC,193647.000,A,3748.7905,N,12217.8608,W,0.85,315.21,041012,,,D*7A
$GPRMC,193648.000,A,3748.7910,N,12217.8613,W,1.23,315.73,041012,,,D*71
$GPRMC,193649.000,A,3748.7911,N,12217.8613,W,0.41,304.21,041012,,,D*73
$GPRMC,193650.000,A,3748.7902,N,12217.8602,W,1.35,141.38,041012,,,D*70
$GPRMC,193651.000,A,3748.7898,N,12217.8596,W,0.97,134.95,041012,,,D*71
$GPRMC,193652.000,A,3748.7904,N,12217.8603,W,0.28,319.51,041012,,,D*78
$GPRMC,193653.000,A,3748.7907,N,12217.8605,W,0.37,317.17,041012,,,D*7E
$GPRMC,193654.000,A,3748.7913,N,12217.8613,W,0.60,310.10,041012,,,D*79
$GPRMC,193655.000,A,3748.7911,N,12217.8609,W,0.11,176.70,041012,,,D*73
$GPRMC,193656.000,A,3748.7907,N,12217.8604,W,0.31,323.43,041012,,,D*7A
$GPRMC,193657.000,A,3748.7913,N,12217.8610,W,0.27,301.14,041012,,,D*7E
$GPRMC,193658.000,A,3748.7917,N,12217.8613,W,0.57,309.03,041012,,,D*7F
$GPRMC,193659.000,A,3748.7922,N,12217.8619,W,1.02,315.23,041012,,,D*7C
$GPRMC,193700.000,A,3748.7925,N,12217.8621,W,0.80,313.74,041012,,,D*72
$GPRMC,193701.000,A,3748.7928,N,12217.8623,W,0.17,264.53,041012,,,D*76
$GPRMC,193702.000,A,3748.7929,N,12217.8623,W,0.35,157.78,041012,,,D*7E
$GPRMC,193703.000,A,3748.7919,N,12217.8610,W,1.37,138.21,041012,,,D*7A
$GPRMC,193704.000,A,3748.7916,N,12217.8606,W,0.61,126.29,041012,,,D*70
$GPRMC,193705.000,A,3748.7916,N,12217.8604,W,1.25,138.29,041012,,,D*7D
$GPRMC,193706.000,A,3748.7917,N,12217.8605,W,0.51,134.92,041012,,,D*70
$GPRMC,193707.000,A,3748.7920,N,12217.8606,W,0.36,133.57,041012,,,D*79
$GPRMC,193708.000,A,3748.7921,N,12217.8607,W,0.30,134.88,041012,,,D*75
$GPRMC,193709.000,A,3748.7921,N,12217.8606,W,0.15,143.97,041012,,,D*7C
$GPRMC,193710.000,A,3748.7918,N,12217.8602,W,0.33,319.77,041012,,,D*7D
$GPRMC,193711.000,A,3748.7916,N,12217.8598,W,0.79,320.10,041012,,,D*77
$GPRMC,193712.000,A,3748.7911,N,12217.8593,W,0.79,320.79,041012,,,D*77
$GPRMC,193713.000,A,3748.7915,N,12217.8597,W,0.92,313.23,041012,,,D*7C
$GPRMC,193714.000,A,3748.7922,N,12217.8605,W,0.67,301.58,041012,,,D*72
$GPRMC,193715.000,A,3748.7916,N,12217.8598,W,0.49,148.47,041012,,,D*7E
$GPRMC,193716.000,A,3748.7910,N,12217.8591,W,0.69,136.25,041012,,,D*7D
$GPRMC,193717.000,A,3748.7907,N,12217.8585,W,0.21,108.66,041012,,,D*79
$GPRMC,193718.000,A,3748.7902,N,12217.8580,W,0.11,21.98,041012,,,D*4E
$GPRMC,193719.000,A,3748.7905,N,12217.8582,W,0.58,323.50,041012,,,D*72
$GPRMC,193720.000,A,3748.7904,N,12217.8581,W,0.10,137.64,041012,,,D*76
$GPRMC,193721.000,A,3748.7909,N,12217.8587,W,0.83,319.81,041012,,,D*73
$GPRMC,193722.000,A,3748.7913,N,12217.8592,W,1.30,318.78,041012,,,D*71
$GPRMC,193723.000,A,3748.7916,N,12217.8595,W,1.15,314.83,041012,,,D*7D
$GPRMC,193724.000,A,3748.7918,N,12217.8598,W,0.48,303.73,041012,,,D*79
$GPRMC,193725.000,A,3748.7916,N,12217.8595,W,0.21,153.51,041012,,,D*73
$GPRMC,193726.000,A,3748.7911,N,12217.8588,W,0.23,124.57,041012,,,D*7F
$GPRMC,193727.000,A,3748.7909,N,12217.8586,W,0.20,137.49,041012,,,D*77
$GPRMC,193728.000,A,3748.7909,N,12217.8585,W,0.07,324.61,041012,,,D*74
$GPRMC,193729.000,A,3748.7905,N,12217.8582,W,0.43,142.33,041012,,,D*7B
$GPRMC,193730.000,A,3748.7904,N,12217.8581,W,0.26,327.07,041012,,,D*74
$GPRMC,193731.000,A,3748.7906,N,12217.8582,W,0.60,317.28,041012,,,D*78
$GPRMC,193732.000,A,3748.7909,N,12217.8586,W,0.18,289.95,041012,,,D*7F
$GPRMC,193733.000,A,3748.7913,N,12217.8592,W,1.27,315.52,041012,,,D*72
$GPRMC,193734.000,A,3748.7912,N,12217.8591,W,0.98,315.89,041012,,,D*74
$GPRMC,193735.000,A,3748.7909,N,12217.8587,W,0.15,173.20,041012,,,D*7C
$GPRMC,193736.000,A,3748.7907,N,12217.8586,W,0.69,143.37,041012,,,D*7E
$GPRMC,193737.000,A,3748.7901,N,12217.8578,W,0.82,137.11,041012,,,D*7A
$GPRMC,193738.000,A,3748.7897,N,12217.8574,W,0.26,128.88,041012,,,D*77
$GPRMC,193739.000,A,3748.7902,N,12217.8581,W,0.72,313.59,041012,,,D*76
$GPRMC,193740.000,A,3748.7911,N,12217.8593,W,0.82,307.17,041012,,,D*79
$GPRMC,193741.000,A,3748.7912,N,12217.8593,W,0.35,300.45,041012,,,D*77
$GPRMC,193742.000,A,3748.7912,N,12217.8594,W,0.14,208.56,041012,,,D*7B
$GPRMC,193743.000,A,3748.7914,N,12217.8597,W,0.48,308.09,041012,,,D*7D
$GPRMC,193744.000,A,3748.7916,N,12217.8600,W,0.77,314.95,041012,,,D*71
$GPRMC,193745.000,A,3748.7917,N,12217.8601,W,1.00,314.53,041012,,,D*7B
$GPRMC,193746.000,A,3748.7922,N,12217.8608,W,1.01,309.29,041012,,,D*77
$GPRMC,193747.000,A,3748.7925,N,12217.8612,W,0.40,285.60,041012,,,D*76
$GPRMC,193748.000,A,3748.7930,N,12217.8620,W,0.43,291.12,041012,,,D*7F
$GPRMC,193749.000,A,3748.7939,N,12217.8630,W,1.12,308.08,041012,,,D*79
$GPRMC,193750.000,A,3748.7945,N,12217.8638,W,1.53,309.60,041012,,,D*78
$GPRMC,193751.000,A,3748.7943,N,12217.8636,W,0.39,284.28,041012,,,D*74
$GPRMC,193752.000,A,3748.7946,N,12217.8640,W,0.18,238.78,041012,,,D*72
$GPRMC,193753.000,A,3748.7945,N,12217.8639,W,0.39,154.10,041012,,,D*7A
$GPRMC,193754.000,A,3748.7947,N,12217.8641,W,0.14,280.48,041012,,,D*78
$GPRMC,193755.000,A,3748.7943,N,12217.8637,W,0.69,149.25,041012,,,D*7B
$GPRMC,193756.000,A,3748.7941,N,12217.8634,W,0.32,138.11,041012,,,D*76
$GPRMC,193757.000,A,3748.7937,N,12217.8629,W,0.44,136.95,041012,,,D*79
$GPRMC,193758.000,A,3748.7932,N,12217.8622,W,0.33,133.90,041012,,,D*78
$GPRMC,193759.000,A,3748.7934,N,12217.8625,W,0.11,153.23,041012,,,D*76
$GPRMC,193800.000,A,3748.7932,N,12217.8623,W,0.19,313.66,041012,,,D*7A
$GPRMC,193801.000,A,3748.7930,N,12217.8621,W,0.61,319.57,041012,,,D*7C
$GPRMC,193802.000,A,3748.7926,N,12217.8616,W,0.45,158.93,041012,,,D*75
$GPRMC,193803.000,A,3748.7930,N,12217.8621,W,0.64,309.18,041012,,,D*71
$GPRMC,193804.000,A,3748.7929,N,12217.8619,W,0.26,158.54,041012,,,D*7D
$GPRMC,193805.000,A,3748.7924,N,12217.8612,W,0.14,185.16,041012,,,D*7D
$GPRMC,193806.000,A,3748.7920,N,12217.8606,W,0.37,307.20,041012,,,D*73
$GPRMC,193807.000,A,3748.7917,N,12217.8600,W,0.07,265.80,041012,,,D*7C
$GPRMC,193808.000,A,3748.7913,N,12217.8594,W,0.43,138.20,041012,,,D*78
$GPRMC,193809.000,A,3748.7908,N,12217.8585,W,0.81,135.31,041012,,,D*70
$GPRMC,193810.000,A,3748.7904,N,12217.8578,W,0.51,129.62,041012,,,D*70
$GPRMC,193811.000,A,3748.7898,N,12217.8567,W,0.53,123.89,041012,,,D*76
$GPRMC,193812.000,A,3748.7892,N,12217.8557,W,0.58,125.86,041012,,,D*7E
$GPRMC,193813.000,A,3748.7891,N,12217.8554,W,0.29,119.20,041012,,,D*7A
$GPRMC,193814.000,A,3748.7890,N,12217.8550,W,0.25,142.82,041012,,,D*72
$GPRMC,193815.000,A,3748.7888,N,12217.8546,W,0.30,113.31,041012,,,D*75
$GPRMC,193816.000,A,3748.7890,N,12217.8545,W,0.34,68.36,041012,,,D*42
$GPRMC,193817.000,A,3748.7896,N,12217.8552,W,0.26,352.17,041012,,,D*79
$GPRMC,193818.000,A,3748.7903,N,12217.8560,W,0.46,328.37,041012,,,D*73
$GPRMC,193819.000,A,3748.7906,N,12217.8561,W,0.40,292.80,041012,,,D*7C
$GPRMC,193820.000,A,3748.7908,N,12217.8562,W,0.40,348.64,041012,,,D*77
$GPRMC,193821.000,A,3748.7907,N,12217.8560,W,0.33,110.57,041012,,,D*70
$GPRMC,193822.000,A,3748.7902,N,12217.8552,W,0.95,135.49,041012,,,D*73
$GPRMC,193823.000,A,3748.7903,N,12217.8552,W,0.33,129.54,041012,,,D*7E
$GPRMC,193824.000,A,3748.7904,N,12217.8553,W,0.08,141.88,041012,,,D*78
$GPRMC,193825.000,A,3748.7904,N,12217.8552,W,0.14,188.36,041012,,,D*75
$GPRMC,193826.000,A,3748.7907,N,12217.8554,W,0.10,50.21,041012,,,D*45
$GPRMC,193827.000,A,3748.7909,N,12217.8556,W,0.23,44.95,041012,,,D*42
$GPRMC,193828.000,A,3748.7911,N,12217.8558,W,0.17,62.74,041012,,,D*46
$GPRMC,193829.000,A,3748.7912,N,12217.8561,W,0.06,33.30,041012,,,D*4A
$GPRMC,193830.000,A,3748.7913,N,12217.8563,W,0.10,80.46,041012,,,D*4F
$GPRMC,193831.000,A,3748.7914,N,12217.8566,W,0.01,314.14,041012,,,D*75
$GPRMC,193832.000,A,3748.7915,N,12217.8568,W,0.12,338.66,041012,,,D*70
$GPRMC,193833.000,A,3748.7915,N,12217.8570,W,0.07,260.29,041012,,,D*7B
$GPRMC,193834.000,A,3748.7914,N,12217.8571,W,0.11,201.50,041012,,,D*72
$GPRMC,193835.000,A,3748.7911,N,12217.8570,W,0.24,199.87,041012,,,D*79
$GPRMC,193836.000,A,3748.7910,N,12217.8569,W,0.20,198.02,041012,,,D*7B
$GPRMC,193837.000,A,3748.7909,N,12217.8569,W,0.18,202.41,041012,,,D*7E
$GPRMC,193838.000,A,3748.7908,N,12217.8568,W,0.22,198.49,041012,,,D*70
$GPRMC,193839.000,A,3748.7907,N,12217.8567,W,0.16,206.63,041012,,,D*7A
$GPRMC,193840.000,A,3748.7906,N,12217.8566,W,0.16,200.97,041012,,,D*79
$GPRMC,193841.000,A,3748.7906,N,12217.8566,W,0.13,211.07,041012,,,D*74
$GPRMC,193842.000,A,3748.7904,N,12217.8563,W,0.19,151.33,041012,,,D*7A
$GPRMC,193843.000,A,3748.7902,N,12217.8559,W,0.25,144.95,041012,,,D*73
$GPRMC,193844.000,A,3748.7900,N,12217.8555,W,0.23,136.16,041012,,,D*72
$GPRMC,193845.000,A,3748.7898,N,12217.8550,W,0.28,132.26,041012,,,D*7A
$GPRMC,193846.000,A,3748.7895,N,12217.8546,W,0.38,165.14,041012,,,D*71
$GPRMC,193847.000,A,3748.7894,N,12217.8544,W,0.21,172.29,041012,,,D*73
$GPRMC,193848.000,A,3748.7896,N,12217.8544,W,0.06,190.35,041012,,,D*7A
$GPRMC,193849.000,A,3748.7897,N,12217.8543,W,0.11,146.48,041012,,,D*7A
$GPRMC,193850.000,A,3748.7896,N,12217.8540,W,0.12,169.10,041012,,,D*73
$GPRMC,193851.000,A,3748.7896,N,12217.8538,W,0.10,146.48,041012,,,D*7F
$GPRMC,193852.000,A,3748.7895,N,12217.8535,W,0.14,147.17,041012,,,D*7D
$GPRMC,193853.000,A,3748.7894,N,12217.8532,W,0.24,142.95,041012,,,D*76
$GPRMC,193854.000,A,3748.7893,N,12217.8530,W,0.14,120.57,041012,,,D*7D
$GPRMC,193855.000,A,3748.7893,N,12217.8528,W,0.16,120.63,041012,,,D*70
