$ADVER,3080,2.3
$GPRMC,202856.894,A,3748.8088,N,12217.8656,W,0.00,,201212,,,A*64
$GPGGA,202857.895,3748.8078,N,12217.8650,W,1,04,14.2,-4.4,M,-25.1,M,,0000*76
$GPGSA,A,3,15,18,21,22,,,,,,,,,14.3,14.2,1.0*3C
$GPRMC,202857.895,A,3748.8078,N,12217.8650,W,0.00,,201212,,,A*6D
$GPVTG,,T,,M,0.00,N,0.0,K,N*1C
$GPGGA,202858.895,3748.8065,N,12217.8641,W,1,04,14.2,-3.7,M,-25.1,M,,0000*71
$GPGSA,A,3,15,18,21,22,,,,,,,,,14.3,14.2,1.0*3C
$GPRMC,202858.895,A,3748.8065,N,12217.8641,W,0.00,,201212,,,A*6E
$GPVTG,,T,,M,0.00,N,0.0,K,N*1C
$GPGGA,202859.895,3748.8050,N,12217.8632,W,1,04,14.2,-3.6,M,-25.1,M,,0000*73
$GPGSA,A,3,15,18,21,22,,,,,,,,,14.3,14.2,1.0*3C
$GPRMC,202859.895,A,3748.8050,N,12217.8632,W,0.00,,201212,,,A*6D
$GPVTG,,T,,M,0.00,N,0.0,K,N*1C
$GPGGA,202900.894,3748.8045,N,12217.8628,W,1,04,14.2,-3.3,M,-25.1,M,,0000*75
$GPGSA,A,3,15,18,21,22,,,,,,,,,14.2,14.2,1.0*3D
$GPGSV,3,1,12,18,81,326,34,21,67,054,36,22,47,247,34,15,34,058,38*7E
$GPGSV,3,2,12,06,42,304,34,03,24,312,33,16,22,274,25,29,21,152,35*77
$GPGSV,3,3,12,30,13,242,,14,13,183,26,26,06,033,32,19,05,319,*73
$GPRMC,202900.894,A,3748.8045,N,12217.8628,W,0.00,,201212,,,A*6E
$GPVTG,,T,,M,0.00,N,0.0,K,N*1C
$GPGGA,202901.895,3748.8036,N,12217.8623,W,1,04,14.2,-2.8,M,-25.1,M,,0000*70
$GPGSA,A,3,15,18,21,22,,,,,,,,,14.2,14.2,1.0*3D
$GPRMC,202901.895,A,3748.8036,N,12217.8623,W,0.00,,201212,,,A*61
$GPVTG,,T,,M,0.00,N,0.0,K,N*1C
$GPGGA,202902.895,3748.8017,N,12217.8620,W,1,08,1.0,11.1,M,-25.1,M,,0000*5F
$GPGSA,A,3,15,26,18,21,22,06,29,03,,,,,1.7,1.0,1.4*34
$GPRMC,202902.895,A,3748.8017,N,12217.8620,W,0.07,95.52,201212,,,A*40
$GPVTG,95.52,T,,M,0.07,N,0.1,K,A*30
$GPGGA,202903.895,3748.8047,N,12217.8628,W,1,08,1.0,-1.1,M,-25.1,M,,0000*4F
$GPGSA,A,3,15,26,18,21,22,06,29,03,,,,,1.7,1.0,1.4*34
$GPRMC,202903.895,A,3748.8047,N,12217.8628,W,0.09,83.47,201212,,,A*41
$GPVTG,83.47,T,,M,0.09,N,0.2,K,A*3E
$GPGGA,202905.000,3748.8049,N,12217.8631,W,1,08,1.0,-2.1,M,-25.1,M,,0000*48
$GPGSA,A,3,15,26,18,21,22,06,29,03,,,,,1.7,1.0,1.4*34
$GPRMC,202905.000,A,3748.8049,N,12217.8631,W,0.08,84.88,201212,,,A*40
$GPVTG,84.88,T,,M,0.08,N,0.2,K,A*3B
$GPGGA,202906.000,3748.8037,N,12217.8613,W,1,08,1.0,2.0,M,-25.1,M,,0000*6E
$GPGSA,A,3,15,26,18,21,22,06,29,03,,,,,1.7,1.0,1.4*34
$GPGSV,3,1,12,18,81,326,34,21,67,055,36,22,47,247,34,06,42,304,34*7A
$GPGSV,3,2,12,15,34,058,38,03,24,312,33,29,21,152,35,26,06,033,33*71
$GPGSV,3,3,12,16,22,274,26,14,13,183,26,30,13,242,,19,05,319,*72
$GPRMC,202906.000,A,3748.8037,N,12217.8613,W,0.08,91.25,201212,,,A*49
$GPVTG,91.25,T,,M,0.08,N,0.2,K,A*38
$GPGGA,202907.000,3748.8036,N,12217.8607,W,1,08,1.0,2.9,M,-25.1,M,,0000*62
$GPGSA,A,3,15,26,18,21,22,06,29,03,,,,,1.7,1.0,1.4*34
$GPRMC,202907.000,A,3748.8036,N,12217.8607,W,0.09,79.86,201212,,,A*42
$GPVTG,79.86,T,,M,0.09,N,0.2,K,A*36
$GPGGA,202908.000,3748.8036,N,12217.8605,W,1,08,1.0,3.0,M,-25.1,M,,0000*67
$GPGSA,A,3,15,26,18,21,22,06,29,03,,,,,1.7,1.0,1.4*34
$GPRMC,202908.000,A,3748.8036,N,12217.8605,W,0.08,91.62,201212,,,A*42
$GPVTG,91.62,T,,M,0.08,N,0.1,K,A*38
$GPGGA,202909.000,3748.8036,N,12217.8603,W,1,08,1.0,2.9,M,-25.1,M,,0000*68
$GPGSA,A,3,15,26,18,21,22,06,29,03,,,,,1.7,1.0,1.4*34
$GPRMC,202909.000,A,3748.8036,N,12217.8603,W,0.04,149.67,201212,,,A*78
$GPVTG,149.67,T,,M,0.04,N,0.1,K,A*05
$GPGGA,202910.000,3748.8035,N,12217.8603,W,1,08,1.0,3.5,M,-25.1,M,,0000*6E
$GPGSA,A,3,15,26,18,21,22,06,29,03,,,,,1.7,1.0,1.4*34
$GPRMC,202910.000,A,3748.8035,N,12217.8603,W,0.13,150.11,201212,,,A*7C
$GPVTG,150.11,T,,M,0.13,N,0.2,K,A*09
$GPGGA,202911.000,3748.8034,N,12217.8605,W,1,08,1.0,3.6,M,-25.1,M,,0000*6B
$GPGSA,A,3,15,26,18,21,22,06,29,03,,,,,1.7,1.0,1.4*34
$GPGSV,3,1,12,18,81,326,24,21,67,055,25,22,47,247,20,06,42,304,23*7A
$GPGSV,3,2,12,15,34,058,26,03,24,312,33,29,21,152,28,26,06,033,27*77
$GPGSV,3,3,12,16,22,274,18,14,13,183,26,30,13,242,,19,05,319,*7F
$GPVTG,61.50,T,,M,0.15,N,0.3,K,A*38
$GPGGA,202912.000,3748.8033,N,12217.8606,W,1,08,1.0,3.8,M,-25.1,M,,0000*62
$GPGSA,A,3,15,26,18,21,22,06,29,03,,,,,1.7,1.0,1.4*34
$GPRMC,202912.000,A,3748.8033,N,12217.8606,W,0.35,91.12,201212,,,A*46
$GPVTG,91.12,T,,M,0.35,N,0.6,K,A*36
$GPGGA,202913.000,3748.8031,N,12217.8608,W,1,06,1.2,3.8,M,-25.1,M,,0000*63
$GPGSA,A,3,15,26,18,06,29,03,,,,,,,2.0,1.2,1.7*32
$GPRMC,202913.000,A,3748.8031,N,12217.8608,W,0.27,85.44,201212,,,A*4E
$GPVTG,85.44,T,,M,0.27,N,0.5,K,A*30
$GPGGA,202914.000,3748.8031,N,12217.8613,W,1,05,1.2,4.1,M,-25.1,M,,0000*63
$GPGSA,A,3,15,26,06,29,03,,,,,,,,2.9,1.2,2.7*31
$GPRMC,202914.000,A,3748.8031,N,12217.8613,W,0.37,62.01,201212,,,A*4A
$GPVTG,62.01,T,,M,0.37,N,0.7,K,A*3B
$GPGGA,202915.000,3748.8032,N,12217.8613,W,1,08,1.0,0.9,M,-25.1,M,,0000*62
$GPGSA,A,3,15,26,21,22,18,06,29,03,,,,,1.7,1.0,1.4*34
$GPRMC,202915.000,A,3748.8032,N,12217.8613,W,0.96,54.54,201212,,,A*46
$GPVTG,54.54,T,,M,0.96,N,1.8,K,A*3B
$GPGGA,202916.000,3748.8034,N,12217.8613,W,1,08,1.0,-0.8,M,-25.1,M,,0000*4B
$GPGSA,A,3,15,26,21,22,18,06,29,03,,,,,1.7,1.0,1.4*34
$GPGSV,3,1,12,18,81,326,31,21,67,055,32,22,47,247,26,06,42,304,30*7C
$GPGSV,3,2,12,15,34,058,33,03,24,312,24,29,21,152,35,26,06,033,30*7F
$GPGSV,3,3,12,16,22,274,27,14,13,183,26,30,13,242,,19,05,319,*73
$GPRMC,202916.000,A,3748.8034,N,12217.8613,W,0.18,282.48,201212,,,A*71
$GPVTG,282.48,T,,M,0.18,N,0.3,K,A*03
$GPGGA,202917.000,3748.8035,N,12217.8612,W,1,08,1.0,-0.1,M,-25.1,M,,0000*43
$GPGSA,A,3,15,26,21,22,18,06,29,03,,,,,1.7,1.0,1.4*34
$GPRMC,202917.000,A,3748.8035,N,12217.8612,W,0.72,350.95,201212,,,A*72
$GPVTG,350.95,T,,M,0.72,N,1.3,K,A*00
$GPGGA,202918.000,3748.8036,N,12217.8610,W,1,08,1.0,0.0,M,-25.1,M,,0000*61
$GPGSA,A,3,15,26,21,22,18,06,29,03,,,,,1.7,1.0,1.4*34
$GPRMC,202918.000,A,3748.8036,N,12217.8610,W,0.39,358.14,201212,,,A*72
$GPVTG,358.14,T,,M,0.39,N,0.7,K,A*0B
$GPGGA,202919.000,3748.8034,N,12217.8609,W,1,08,1.0,-0.7,M,-25.1,M,,0000*40
$GPGSA,A,3,15,26,21,22,18,06,29,03,,,,,1.7,1.0,1.4*34
$GPRMC,202919.000,A,3748.8034,N,12217.8609,W,0.32,110.34,201212,,,A*7E
$GPVTG,110.34,T,,M,0.32,N,0.6,K,A*0D
$GPGGA,202920.000,3748.8035,N,12217.8605,W,1,08,1.0,-0.2,M,-25.1,M,,0000*42
$GPGSA,A,3,15,26,21,22,18,06,29,03,,,,,1.7,1.0,1.4*34
$GPRMC,202920.000,A,3748.8035,N,12217.8605,W,1.32,89.66,201212,,,A*4E
$GPVTG,89.66,T,,M,1.32,N,2.4,K,A*3A
$GPGGA,202921.000,3748.8030,N,12217.8609,W,1,08,1.0,0.9,M,-25.1,M,,0000*6C
$GPGSA,A,3,15,26,21,22,18,06,29,03,,,,,1.7,1.0,1.4*34
$GPGSV,3,1,12,18,81,326,21,21,67,055,18,22,47,247,26,06,42,304,26*72
$GPGSV,3,2,12,15,34,058,24,03,24,312,32,29,21,152,14,26,06,033,24*78
$GPGSV,3,3,12,16,22,274,25,14,13,183,24,30,13,242,28,19,05,319,*79
$GPRMC,202921.000,A,3748.8030,N,12217.8609,W,1.51,106.27,201212,,,A*70
$GPVTG,106.27,T,,M,1.51,N,2.8,K,A*00
$GPGGA,202922.000,3748.8030,N,12217.8605,W,1,07,1.1,2.7,M,-25.1,M,,0000*61
$GPGSA,A,3,26,21,22,18,06,29,03,,,,,,1.8,1.1,1.4*3E
$GPRMC,202922.000,A,3748.8030,N,12217.8605,W,1.61,100.52,201212,,,A*78
$GPVTG,100.52,T,,M,1.61,N,3.0,K,A*0E
$GPGGA,202923.000,3748.8030,N,12217.8601,W,1,07,1.1,4.6,M,-25.1,M,,0000*63
$GPGSA,A,3,26,21,22,18,06,29,03,,,,,,1.8,1.1,1.4*3E
$GPRMC,202923.000,A,3748.8030,N,12217.8601,W,1.05,106.32,201212,,,A*7F
$GPVTG,106.32,T,,M,1.05,N,1.9,K,A*07
$GPGGA,202924.000,3748.8029,N,12217.8598,W,1,05,2.4,5.6,M,-25.1,M,,0000*6A
$GPGSA,A,3,26,22,06,29,03,,,,,,,,5.9,2.4,5.4*33
$GPRMC,202924.000,A,3748.8029,N,12217.8598,W,1.16,90.17,201212,,,A*48
$GPVTG,90.17,T,,M,1.16,N,2.2,K,A*34
$GPGGA,202925.000,3748.8026,N,12217.8596,W,1,07,1.1,6.0,M,-25.1,M,,0000*6B
$GPGSA,A,3,26,21,22,18,06,29,03,,,,,,1.8,1.1,1.4*3E
$GPRMC,202925.000,A,3748.8026,N,12217.8596,W,1.20,114.01,201212,,,A*77
$GPVTG,114.01,T,,M,1.20,N,2.2,K,A*0B
$GPGGA,202926.000,3748.8023,N,12217.8594,W,1,08,1.0,6.8,M,-25.1,M,,0000*69
$GPGSA,A,3,15,26,21,22,18,06,29,03,,,,,1.7,1.0,1.4*34
$GPGSV,3,1,12,18,81,326,25,21,67,055,17,22,47,247,33,06,42,304,27*7C
$GPGSV,3,2,12,15,34,058,18,03,24,312,31,29,21,152,19,26,06,033,29*74
$GPRMC,202926.000,A,3748.8023,N,12217.8594,W,1.35,96.53,201212,,,A*4B
$GPVTG,96.53,T,,M,1.35,N,2.5,K,A*34
$GPGGA,202927.000,3748.8019,N,12217.8593,W,1,07,1.1,7.8,M,-25.1,M,,0000*69
$GPGSA,A,3,26,21,22,18,06,29,03,,,,,,1.8,1.1,1.4*3E
$GPRMC,202927.000,A,3748.8019,N,12217.8593,W,1.34,128.32,201212,,,A*76
$GPVTG,128.32,T,,M,1.34,N,2.5,K,A*06
$GPGGA,202928.000,3748.8013,N,12217.8588,W,1,07,1.1,7.8,M,-25.1,M,,0000*66
$GPGSA,A,3,26,21,22,18,06,29,03,,,,,,1.8,1.1,1.4*3E
$GPRMC,202928.000,A,3748.8013,N,12217.8588,W,1.88,117.72,201212,,,A*76
$GPVTG,117.72,T,,M,1.88,N,3.5,K,A*08
$GPGGA,202929.000,3748.8006,N,12217.8585,W,1,08,1.0,8.8,M,-25.1,M,,0000*6F
$GPGSA,A,3,26,21,22,18,06,29,03,15,,,,,1.7,1.0,1.4*34
$GPRMC,202929.000,A,3748.8006,N,12217.8585,W,1.93,126.23,201212,,,A*72
$GPVTG,126.23,T,,M,1.93,N,3.6,K,A*07
$GPGGA,202930.000,3748.7999,N,12217.8584,W,1,08,1.0,8.9,M,-25.1,M,,0000*67
$GPGSA,A,3,26,21,22,18,06,29,03,15,,,,,1.7,1.0,1.4*34
$GPRMC,202930.000,A,3748.7999,N,12217.8584,W,2.08,118.94,201212,,,A*7B
$GPVTG,118.94,T,,M,2.08,N,3.9,K,A*08
$GPGGA,202931.000,3748.7995,N,12217.8581,W,1,08,1.0,8.8,M,-25.1,M,,0000*6E
$GPGSA,A,3,26,21,22,18,06,29,03,15,,,,,1.7,1.0,1.4*34
$GPGSV,3,1,12,18,81,326,27,21,67,055,23,22,47,247,35,06,42,304,34*7D
$GPGSV,3,2,12,15,34,058,24,03,24,312,35,29,21,152,30,26,06,033,26*7B
$GPGSV,3,3,12,16,22,274,36,14,13,183,24,30,13,242,36,19,05,319,*74
$GPRMC,202931.000,A,3748.7995,N,12217.8581,W,1.94,120.60,201212,,,A*75
$GPVTG,120.60,T,,M,1.94,N,3.6,K,A*01
$GPGGA,202932.000,3748.7993,N,12217.8570,W,1,07,1.0,9.4,M,-25.1,M,,0000*67
$GPGSA,A,3,26,21,22,06,29,03,15,,,,,,1.9,1.0,1.6*31
$GPRMC,202932.000,A,3748.7993,N,12217.8570,W,2.20,114.60,201212,,,A*75
$GPVTG,114.60,T,,M,2.20,N,4.1,K,A*0A
$GPGGA,202933.000,3748.7987,N,12217.8568,W,1,07,1.1,10.0,M,-25.1,M,,0000*57
$GPGSA,A,3,26,21,22,18,06,29,03,,,,,,1.8,1.1,1.4*3E
$GPRMC,202933.000,A,3748.7987,N,12217.8568,W,1.46,111.13,201212,,,A*7A
$GPVTG,111.13,T,,M,1.46,N,2.7,K,A*08
$GPGGA,202934.000,3748.7982,N,12217.8564,W,1,08,1.0,8.9,M,-25.1,M,,0000*67
$GPGSA,A,3,26,21,22,18,06,29,03,15,,,,,1.7,1.0,1.4*34
$GPRMC,202934.000,A,3748.7982,N,12217.8564,W,2.55,123.73,201212,,,A*72
$GPVTG,123.73,T,,M,2.55,N,4.7,K,A*08
$GPGGA,202935.000,3748.7980,N,12217.8553,W,1,08,1.0,8.7,M,-25.1,M,,0000*6E
$GPGSA,A,3,26,21,22,18,06,29,03,15,,,,,1.7,1.0,1.4*34
$GPRMC,202935.000,A,3748.7980,N,12217.8553,W,2.31,130.47,201212,,,A*72
$GPVTG,130.47,T,,M,2.31,N,4.3,K,A*0B
$GPGGA,202936.000,3748.7978,N,12217.8544,W,1,08,1.0,7.8,M,-25.1,M,,0000*6C
$GPGSA,A,3,26,21,22,18,06,29,03,15,,,,,1.7,1.0,1.4*34
$GPGSV,3,1,12,18,81,326,29,21,67,055,28,22,47,247,34,06,42,304,21*7D
$GPGSV,3,2,12,15,34,058,30,03,24,312,22,29,21,152,39,26,06,033,15*71
$GPGSV,3,3,12,16,22,274,28,14,13,183,29,30,13,242,27,19,05,319,*76
$GPRMC,202936.000,A,3748.7978,N,12217.8544,W,2.13,123.63,201212,,,A*74
$GPVTG,123.63,T,,M,2.13,N,3.9,K,A*02
$GPGGA,202937.000,3748.7976,N,12217.8536,W,1,08,1.0,7.8,M,-25.1,M,,0000*66
$GPGSA,A,3,26,21,22,18,06,29,03,15,,,,,1.7,1.0,1.4*34
$GPRMC,202937.000,A,3748.7976,N,12217.8536,W,2.30,114.83,201212,,,A*75
$GPVTG,114.83,T,,M,2.30,N,4.3,K,A*04
$GPGGA,202938.000,3748.7974,N,12217.8529,W,1,08,1.0,7.6,M,-25.1,M,,0000*6B
$GPGSA,A,3,26,21,22,18,06,29,03,15,,,,,1.7,1.0,1.4*34
$GPRMC,202938.000,A,3748.7974,N,12217.8529,W,2.00,114.58,201212,,,A*73
$GPVTG,114.58,T,,M,2.00,N,3.7,K,A*02
$GPGGA,202939.000,3748.7972,N,12217.8522,W,1,08,1.0,7.5,M,-25.1,M,,0000*64
$GPGSA,A,3,26,21,22,18,06,29,03,15,,,,,1.7,1.0,1.4*34
$GPRMC,202939.000,A,3748.7972,N,12217.8522,W,1.46,120.63,201212,,,A*71
$GPVTG,120.63,T,,M,1.46,N,2.7,K,A*0D
$GPGGA,202940.000,3748.7969,N,12217.8518,W,1,08,1.0,7.6,M,-25.1,M,,0000*6A
$GPGSA,A,3,26,21,22,18,06,29,03,15,,,,,1.7,1.0,1.4*34
$GPRMC,202940.000,A,3748.7969,N,12217.8518,W,1.62,133.66,201212,,,A*7D
$GPVTG,133.66,T,,M,1.62,N,3.0,K,A*0A
$GPGGA,202941.000,3748.7965,N,12217.8516,W,1,08,1.0,7.3,M,-25.1,M,,0000*6C
$GPGSA,A,3,26,21,22,18,06,29,03,15,,,,,1.7,1.0,1.4*34
$GPGSV,3,1,12,18,81,326,23,21,67,055,28,22,47,247,30,06,42,304,23*71
$GPGSV,3,2,12,15,34,058,25,03,24,312,22,29,21,152,35,26,06,033,20*7F
$GPGSV,3,3,12,16,22,274,24,14,13,183,35,30,13,242,23,19,05,319,*73
$GPRMC,202941.000,A,3748.7965,N,12217.8516,W,1.61,114.73,201212,,,A*7C
$GPVTG,114.73,T,,M,1.61,N,3.0,K,A*08
$GPGGA,202942.000,3748.7960,N,12217.8512,W,1,08,1.0,6.7,M,-25.1,M,,0000*6B
$GPGSA,A,3,26,21,22,18,06,29,03,15,,,,,1.7,1.0,1.4*34
$GPRMC,202942.000,A,3748.7960,N,12217.8512,W,1.72,122.61,201212,,,A*7A
$GPVTG,122.61,T,,M,1.72,N,3.2,K,A*0E
$GPGGA,202943.000,3748.7958,N,12217.8505,W,2,08,1.0,6.4,M,-25.1,M,1.8,0000*40
$GPGSA,A,3,26,21,22,18,06,29,03,15,,,,,1.7,1.0,1.4*34
$GPRMC,202943.000,A,3748.7958,N,12217.8505,W,1.39,121.45,201212,,,D*79
$GPVTG,121.45,T,,M,1.39,N,2.6,K,D*04
$GPGGA,202944.000,3748.7957,N,12217.8501,W,2,08,1.0,6.2,M,-25.1,M,2.8,0000*49
$GPGSA,A,3,26,21,22,18,06,29,03,15,,,,,1.7,1.0,1.4*34
$GPRMC,202944.000,A,3748.7957,N,12217.8501,W,1.37,128.56,201212,,,D*70
$GPVTG,128.56,T,,M,1.37,N,2.5,K,D*02
$GPGGA,202945.000,3748.7958,N,12217.8490,W,2,08,1.0,7.4,M,-25.1,M,3.8,0000*48
$GPGSA,A,3,26,21,22,18,06,29,03,15,,,,,1.7,1.0,1.4*34
$GPRMC,202945.000,A,3748.7958,N,12217.8490,W,2.54,86.14,201212,,,D*42
$GPVTG,86.14,T,,M,2.54,N,4.7,K,D*33
$GPGGA,202946.000,3748.7957,N,12217.8479,W,2,08,1.0,6.8,M,-25.1,M,4.8,0000*49
$GPGSA,A,3,26,21,22,18,06,29,03,15,,,,,1.7,1.0,1.4*34
$GPGSV,3,1,12,18,81,326,23,21,67,055,21,22,47,247,29,06,42,304,23*70
$GPGSV,3,2,12,15,34,058,26,03,24,312,22,29,21,152,30,26,06,033,19*73
$GPGSV,3,3,12,16,22,274,23,14,13,183,30,30,13,242,27,19,05,319,*75
$GPVTG,93.82,T,,M,2.34,N,4.3,K,D*3A
$GPGGA,202947.000,3748.7956,N,12217.8473,W,2,08,1.0,5.7,M,-25.1,M,5.8,0000*4E
$GPGSA,A,3,26,21,22,18,06,29,03,15,,,,,1.7,1.0,1.4*34
$GPRMC,202947.000,A,3748.7956,N,12217.8473,W,1.41,100.65,201212,,,D*7D
$GPVTG,100.65,T,,M,1.41,N,2.6,K,D*0A
$GPGGA,202948.000,3748.7953,N,12217.8467,W,2,08,1.0,5.4,M,-25.1,M,6.8,0000*41
$GPGSA,A,3,26,21,22,18,06,29,03,15,,,,,1.7,1.0,1.4*34
$GPRMC,202948.000,A,3748.7953,N,12217.8467,W,1.39,124.97,201212,,,D*76
$GPVTG,124.97,T,,M,1.39,N,2.6,K,D*0E
$GPGGA,202949.000,3748.7951,N,12217.8462,W,2,08,1.0,5.2,M,-25.1,M,1.8,0000*46
$GPGSA,A,3,26,21,22,18,06,29,03,15,,,,,1.7,1.0,1.4*34
$GPRMC,202949.000,A,3748.7951,N,12217.8462,W,1.61,107.17,201212,,,D*74
$GPVTG,107.17,T,,M,1.61,N,3.0,K,D*0D
$GPGGA,202950.000,3748.7948,N,12217.8457,W,2,08,1.0,4.8,M,-25.1,M,2.8,0000*48
$GPGSA,A,3,26,21,22,18,06,29,03,15,,,,,1.7,1.0,1.4*34
$GPRMC,202950.000,A,3748.7948,N,12217.8457,W,1.66,111.12,201212,,,D*77
$GPVTG,111.12,T,,M,1.66,N,3.1,K,D*09
$GPGGA,202951.000,3748.7944,N,12217.8454,W,2,08,1.0,4.5,M,-25.1,M,3.8,0000*4A
$GPGSA,A,3,26,21,22,18,06,29,03,15,,,,,1.7,1.0,1.4*34
$GPGSV,3,1,12,18,81,326,23,21,67,055,24,22,47,247,29,06,42,304,23*75
$GPGSV,3,2,12,15,34,058,27,03,24,312,21,29,21,152,37,26,06,033,20*7C
$GPGSV,3,3,12,16,22,274,26,14,13,183,31,30,13,242,32,19,05,319,*75
$GPRMC,202951.000,A,3748.7944,N,12217.8454,W,1.57,123.93,201212,,,D*73
$GPVTG,123.93,T,,M,1.57,N,2.9,K,D*0A
$GPGGA,202952.000,3748.7940,N,12217.8452,W,2,08,1.0,3.4,M,-25.1,M,4.8,0000*4A
$GPGSA,A,3,26,21,22,18,06,29,03,15,,,,,1.7,1.0,1.4*34
$GPRMC,202952.000,A,3748.7940,N,12217.8452,W,1.58,120.36,201212,,,D*71
$GPVTG,120.36,T,,M,1.58,N,2.9,K,D*09
$GPGGA,202953.000,3748.7937,N,12217.8448,W,2,08,1.0,2.3,M,-25.1,M,1.8,0000*43
$GPGSA,A,3,26,21,22,18,06,29,03,15,,,,,1.7,1.0,1.4*34
$GPRMC,202953.000,A,3748.7937,N,12217.8448,W,1.54,119.18,201212,,,D*71
$GPVTG,119.18,T,,M,1.54,N,2.9,K,D*03
$GPGGA,202954.000,3748.7935,N,12217.8442,W,2,08,1.0,2.0,M,-25.1,M,1.8,0000*4F
$GPGSA,A,3,26,21,22,18,06,29,03,15,,,,,1.7,1.0,1.4*34
$GPRMC,202954.000,A,3748.7935,N,12217.8442,W,1.48,112.63,201212,,,D*74
$GPVTG,112.63,T,,M,1.48,N,2.7,K,D*07
$GPGGA,202955.000,3748.7930,N,12217.8440,W,2,08,1.0,1.7,M,-25.1,M,1.8,0000*4D
$GPGSA,A,3,26,21,22,18,06,29,03,15,,,,,1.7,1.0,1.4*34
$GPRMC,202955.000,A,3748.7930,N,12217.8440,W,1.91,110.80,201212,,,D*79
$GPVTG,110.80,T,,M,1.91,N,3.5,K,D*0F
$GPGGA,202956.000,3748.7927,N,12217.8434,W,2,08,1.0,1.9,M,-25.1,M,2.8,0000*46
$GPGSA,A,3,26,21,22,18,06,29,03,15,,,,,1.7,1.0,1.4*34
$GPGSV,3,1,12,18,81,326,24,21,67,055,24,22,47,247,33,06,42,304,23*79
$GPGSV,3,2,12,15,34,058,26,03,24,312,20,29,21,152,34,26,06,033,21*7E
$GPGSV,3,3,12,16,22,274,28,14,13,183,37,30,13,242,32,19,05,319,*7D
$GPRMC,202956.000,A,3748.7927,N,12217.8434,W,1.98,100.63,201212,,,D*7A
$GPVTG,100.63,T,,M,1.98,N,3.7,K,D*08
$GPGGA,202957.000,3748.7922,N,12217.8429,W,2,08,1.0,2.4,M,-25.1,M,3.8,0000*41
$GPGSA,A,3,26,21,22,18,06,29,03,15,,,,,1.7,1.0,1.4*34
$GPRMC,202957.000,A,3748.7922,N,12217.8429,W,2.05,113.33,201212,,,D*72
$GPVTG,113.33,T,,M,2.05,N,3.8,K,D*07
$GPGGA,202958.000,3748.7918,N,12217.8423,W,2,08,1.0,2.6,M,-25.1,M,4.8,0000*48
$GPGSA,A,3,26,21,22,18,06,29,03,15,,,,,1.7,1.0,1.4*34
$GPRMC,202958.000,A,3748.7918,N,12217.8423,W,1.68,114.88,201212,,,D*71
$GPVTG,114.88,T,,M,1.68,N,3.1,K,D*01
$GPGGA,202959.000,3748.7914,N,12217.8419,W,2,08,1.0,2.1,M,-25.1,M,5.8,0000*4A
$GPGSA,A,3,26,21,22,18,06,29,03,15,,,,,1.7,1.0,1.4*34
$GPRMC,202959.000,A,3748.7914,N,12217.8419,W,1.62,117.93,201212,,,D*76
$GPVTG,117.93,T,,M,1.62,N,3.0,K,D*03
$GPGGA,203000.000,3748.7911,N,12217.8413,W,2,08,1.0,1.5,M,-25.1,M,1.8,0000*42
$GPGSA,A,3,26,21,22,18,06,29,03,15,,,,,1.7,1.0,1.4*34
$GPRMC,203000.000,A,3748.7911,N,12217.8413,W,2.13,122.26,201212,,,D*70
$GPVTG,122.26,T,,M,2.13,N,3.9,K,D*07
$GPGGA,203001.000,3748.7908,N,12217.8408,W,2,08,1.0,0.5,M,-25.1,M,1.8,0000*40
$GPGSA,A,3,26,21,22,18,06,29,03,15,,,,,1.7,1.0,1.4*34
$GPGSV,3,1,12,18,81,326,24,21,67,055,25,22,47,247,28,06,42,304,17*75
$GPGSV,3,2,12,15,34,058,27,03,24,312,20,29,21,152,34,26,06,033,20*7E
$GPGSV,3,3,12,16,22,274,24,14,13,183,34,30,13,242,28,19,05,319,*79
$GPRMC,203001.000,A,3748.7908,N,12217.8408,W,1.25,127.62,201212,,,D*70
$GPVTG,127.62,T,,M,1.25,N,2.3,K,D*0F
$GPGGA,203002.000,3748.7904,N,12217.8401,W,2,08,1.0,0.6,M,-25.1,M,1.8,0000*45
$GPGSA,A,3,26,21,22,18,06,29,03,15,,,,,1.7,1.0,1.4*34
$GPRMC,203002.000,A,3748.7904,N,12217.8401,W,1.69,112.08,201212,,,D*74
$GPVTG,112.08,T,,M,1.69,N,3.1,K,D*0E
$GPGGA,203003.000,3748.7901,N,12217.8393,W,2,08,1.0,0.9,M,-25.1,M,2.8,0000*41
$GPGSA,A,3,26,21,22,18,06,29,03,15,,,,,1.7,1.0,1.4*34
$GPRMC,203003.000,A,3748.7901,N,12217.8393,W,1.86,108.44,201212,,,D*7E
$GPVTG,108.44,T,,M,1.86,N,3.4,K,D*09
$GPGGA,203004.000,3748.7896,N,12217.8387,W,2,08,1.0,1.4,M,-25.1,M,3.8,0000*41
$GPGSA,A,3,26,21,22,18,06,29,03,15,,,,,1.7,1.0,1.4*34
$GPRMC,203004.000,A,3748.7896,N,12217.8387,W,2.36,106.98,201212,,,D*74
$GPVTG,106.98,T,,M,2.36,N,4.4,K,D*09
$GPGGA,203005.000,3748.7893,N,12217.8380,W,2,08,1.0,0.5,M,-25.1,M,1.8,0000*40
$GPGSA,A,3,26,21,22,18,06,29,03,15,,,,,1.7,1.0,1.4*34
$GPRMC,203005.000,A,3748.7893,N,12217.8380,W,2.05,125.70,201212,,,D*70
$GPVTG,125.70,T,,M,2.05,N,3.8,K,D*05
$GPGGA,203006.000,3748.7892,N,12217.8371,W,2,08,1.0,-1.4,M,-25.1,M,1.8,0000*61
$GPGSA,A,3,26,21,22,18,06,29,03,15,,,,,1.7,1.0,1.4*34
$GPGSV,3,1,12,18,81,326,24,21,67,055,24,22,47,247,31,06,42,304,21*79
$GPGSV,3,2,12,15,34,058,24,03,24,312,21,29,21,152,30,26,06,033,20*78
$GPGSV,3,3,12,16,22,274,26,14,13,183,34,30,13,242,30,19,05,319,*72
$GPVTG,109.30,T,,M,2.38,N,4.4,K,D*0A
$GPGGA,203007.000,3748.7892,N,12217.8365,W,2,08,1.0,-3.9,M,-25.1,M,2.8,0000*69
$GPGSA,A,3,26,21,22,18,06,29,03,15,,,,,1.7,1.0,1.4*34
$GPRMC,203007.000,A,3748.7892,N,12217.8365,W,1.89,96.38,201212,,,D*4A
$GPVTG,96.38,T,,M,1.89,N,3.5,K,D*3A
$GPGGA,203008.000,3748.7889,N,12217.8364,W,2,08,1.0,-5.7,M,-25.1,M,3.8,0000*64
$GPGSA,A,3,26,21,22,18,06,29,03,15,,,,,1.7,1.0,1.4*34
$GPRMC,203008.000,A,3748.7889,N,12217.8364,W,1.73,105.92,201212,,,D*70
$GPVTG,105.92,T,,M,1.73,N,3.2,K,D*03
$GPGGA,203009.000,3748.7888,N,12217.8361,W,2,08,1.0,-7.1,M,-25.1,M,1.8,0000*67
$GPGSA,A,3,26,21,22,18,06,29,03,15,,,,,1.7,1.0,1.4*34
$GPRMC,203009.000,A,3748.7888,N,12217.8361,W,1.67,117.91,201212,,,D*70
$GPVTG,117.91,T,,M,1.67,N,3.1,K,D*05
$GPGGA,203010.000,3748.7882,N,12217.8355,W,2,08,1.0,-6.3,M,-25.1,M,2.8,0000*62
$GPGSA,A,3,26,21,22,18,06,29,03,15,,,,,1.7,1.0,1.4*34
$GPRMC,203010.000,A,3748.7882,N,12217.8355,W,2.05,126.07,201212,,,D*7F
$GPVTG,126.07,T,,M,2.05,N,3.8,K,D*06
$GPGGA,203011.000,3748.7874,N,12217.8347,W,2,07,1.1,-4.9,M,-25.1,M,,0000*4B
$GPGSA,A,3,26,21,22,18,06,29,03,,,,,,1.8,1.1,1.4*3E
$GPGSV,3,1,12,18,81,326,24,21,67,055,24,22,47,247,31,06,42,304,24*7C
$GPGSV,3,2,12,15,34,058,23,03,24,312,20,29,21,152,26,26,06,033,26*7F
$GPGSV,3,3,12,16,22,274,26,14,13,183,28,30,13,242,30,19,05,319,*7F
$GPRMC,203011.000,A,3748.7874,N,12217.8347,W,1.81,133.03,201212,,,D*7B
$GPVTG,133.03,T,,M,1.81,N,3.4,K,D*05
$GPGGA,203012.000,3748.7863,N,12217.8335,W,2,08,1.0,-2.0,M,-25.1,M,2.8,0000*6E
$GPGSA,A,3,26,21,22,18,06,29,03,15,,,,,1.7,1.0,1.4*34
$GPRMC,203012.000,A,3748.7863,N,12217.8335,W,1.98,128.47,201212,,,D*79
$GPVTG,128.47,T,,M,1.98,N,3.7,K,D*04
$GPGGA,203013.000,3748.7853,N,12217.8324,W,2,08,1.0,0.0,M,-25.1,M,3.8,0000*42
$GPGSA,A,3,26,21,22,18,06,29,03,15,,,,,1.7,1.0,1.4*34
$GPRMC,203013.000,A,3748.7853,N,12217.8324,W,1.84,109.66,201212,,,D*76
$GPVTG,109.66,T,,M,1.84,N,3.4,K,D*0A
$GPGGA,203014.000,3748.7848,N,12217.8314,W,2,08,1.0,0.4,M,-25.1,M,4.8,0000*4F
$GPGSA,A,3,26,21,22,18,06,29,03,15,,,,,1.7,1.0,1.4*34
$GPRMC,203014.000,A,3748.7848,N,12217.8314,W,1.56,98.60,201212,,,D*48
$GPVTG,98.60,T,,M,1.56,N,2.9,K,D*36
$GPGGA,203015.000,3748.7847,N,12217.8305,W,2,08,1.0,-0.1,M,-25.1,M,5.8,0000*68
$GPGSA,A,3,26,21,22,18,06,29,03,15,,,,,1.7,1.0,1.4*34
$GPRMC,203015.000,A,3748.7847,N,12217.8305,W,1.93,109.16,201212,,,D*77
$GPVTG,109.16,T,,M,1.93,N,3.6,K,D*09
$GPGGA,203016.000,3748.7842,N,12217.8295,W,2,08,1.0,-0.3,M,-25.1,M,1.8,0000*60
$GPGSA,A,3,26,21,22,18,06,29,03,15,,,,,1.7,1.0,1.4*34
$GPGSV,3,1,12,18,81,326,21,21,67,055,21,22,47,247,27,06,42,304,22*7D
$GPGSV,3,2,12,15,34,058,33,03,24,312,20,29,21,152,36,26,06,033,15*7F
$GPGSV,3,3,12,16,22,274,26,14,13,183,31,30,13,242,25,19,05,319,*73
$GPRMC,203016.000,A,3748.7842,N,12217.8295,W,2.15,114.59,201212,,,D*73
$GPVTG,114.59,T,,M,2.15,N,4.0,K,D*02
$GPGGA,203017.000,3748.7841,N,12217.8283,W,2,08,1.0,-0.5,M,-25.1,M,1.8,0000*63
$GPGSA,A,3,26,21,22,18,06,29,03,15,,,,,1.7,1.0,1.4*34
$GPRMC,203017.000,A,3748.7841,N,12217.8283,W,1.68,103.58,201212,,,D*78
$GPVTG,103.58,T,,M,1.68,N,3.1,K,D*0A
$GPGGA,203018.000,3748.7838,N,12217.8281,W,2,08,1.0,-1.5,M,-25.1,M,1.8,0000*61
$GPGSA,A,3,26,21,22,18,06,29,03,15,,,,,1.7,1.0,1.4*34
$GPRMC,203018.000,A,3748.7838,N,12217.8281,W,1.92,118.56,201212,,,D*7A
$GPVTG,118.56,T,,M,1.92,N,3.5,K,D*0F
$GPGGA,203019.000,3748.7834,N,12217.8275,W,2,08,1.0,-1.0,M,-25.1,M,1.8,0000*62
$GPGSA,A,3,26,21,22,18,06,29,03,15,,,,,1.7,1.0,1.4*34
$GPRMC,203019.000,A,3748.7834,N,12217.8275,W,1.89,121.24,201212,,,D*79
$GPVTG,121.24,T,,M,1.89,N,3.5,K,D*0A
$GPGGA,203020.000,3748.7833,N,12217.8269,W,2,08,1.0,-1.6,M,-25.1,M,2.8,0000*67
$GPGSA,A,3,26,21,22,18,06,29,03,15,,,,,1.7,1.0,1.4*34
$GPRMC,203020.000,A,3748.7833,N,12217.8269,W,1.79,116.08,201212,,,D*7C
$GPVTG,116.08,T,,M,1.79,N,3.3,K,D*09
$GPGGA,203021.000,3748.7831,N,12217.8266,W,2,08,1.0,-3.4,M,-25.1,M,3.8,0000*6A
$GPGSA,A,3,26,21,22,18,06,29,03,15,,,,,1.7,1.0,1.4*34
$GPGSV,3,1,12,18,81,326,23,21,67,055,22,22,47,247,34,06,42,304,22*7E
$GPGSV,3,2,12,15,34,058,23,03,24,312,20,29,21,152,37,26,06,033,20*79
$GPGSV,3,3,12,16,22,274,26,14,13,183,31,30,13,242,26,19,05,319,*70
$GPRMC,203021.000,A,3748.7831,N,12217.8266,W,1.76,105.34,201212,,,D*72
$GPVTG,105.34,T,,M,1.76,N,3.3,K,D*0B
$GPGGA,203022.000,3748.7828,N,12217.8258,W,2,08,1.0,-4.3,M,-25.1,M,4.8,0000*6B
$GPGSA,A,3,26,21,22,18,06,29,03,15,,,,,1.7,1.0,1.4*34
$GPRMC,203022.000,A,3748.7828,N,12217.8258,W,1.75,115.43,201212,,,D*76
$GPVTG,115.43,T,,M,1.75,N,3.2,K,D*08
$GPGGA,203023.000,3748.7823,N,12217.8254,W,2,08,1.0,-4.3,M,-25.1,M,1.8,0000*68
$GPGSA,A,3,26,21,22,18,06,29,03,15,,,,,1.7,1.0,1.4*34
$GPRMC,203023.000,A,3748.7823,N,12217.8254,W,1.78,118.63,201212,,,D*72
$GPVTG,118.63,T,,M,1.78,N,3.3,K,D*0B
$GPGGA,203024.000,3748.7820,N,12217.8248,W,2,08,1.0,-3.9,M,-25.1,M,2.8,0000*6F
$GPGSA,A,3,26,21,22,18,06,29,03,15,,,,,1.7,1.0,1.4*34
$GPRMC,203024.000,A,3748.7820,N,12217.8248,W,1.87,112.55,201212,,,D*74
$GPVTG,112.55,T,,M,1.87,N,3.5,K,D*02
$GPGGA,203025.000,3748.7820,N,12217.8244,W,2,08,1.0,-5.9,M,-25.1,M,1.8,0000*67
$GPGSA,A,3,26,21,22,18,06,29,03,15,,,,,1.7,1.0,1.4*34
$GPRMC,203025.000,A,3748.7820,N,12217.8244,W,2.03,97.05,201212,,,D*4F
$GPVTG,97.05,T,,M,2.03,N,3.8,K,D*39
$GPGGA,203026.000,3748.7819,N,12217.8238,W,2,08,1.0,-7.4,M,-25.1,M,1.8,0000*6A
$GPGSA,A,3,26,21,22,18,06,29,03,15,,,,,1.7,1.0,1.4*34
$GPGSV,3,1,12,18,81,326,23,21,67,055,23,22,47,247,30,06,42,304,21*78
$GPGSV,3,2,12,15,34,058,23,03,24,312,19,29,21,152,37,26,06,033,15*75
$GPGSV,3,3,12,16,22,274,24,14,13,183,31,30,13,242,27,19,05,319,*73
$GPVTG,106.19,T,,M,1.84,N,3.4,K,D*0D
$GPGGA,203027.000,3748.7819,N,12217.8231,W,2,08,1.0,-7.6,M,-25.1,M,2.8,0000*63
$GPGSA,A,3,26,21,22,18,06,29,03,15,,,,,1.7,1.0,1.4*34
$GPRMC,203027.000,A,3748.7819,N,12217.8231,W,1.51,121.65,201212,,,D*7B
$GPVTG,121.65,T,,M,1.51,N,2.8,K,D*06
$GPGGA,203028.000,3748.7815,N,12217.8225,W,2,08,1.0,-7.3,M,-25.1,M,3.8,0000*61
$GPGSA,A,3,26,21,22,18,06,29,03,15,,,,,1.7,1.0,1.4*34
$GPRMC,203028.000,A,3748.7815,N,12217.8225,W,1.95,120.77,201212,,,D*77
$GPVTG,120.77,T,,M,1.95,N,3.6,K,D*03
$GPGGA,203029.000,3748.7808,N,12217.8220,W,2,08,1.0,-6.4,M,-25.1,M,1.8,0000*6D
$GPGSA,A,3,26,21,22,18,06,29,03,15,,,,,1.7,1.0,1.4*34
$GPRMC,203029.000,A,3748.7808,N,12217.8220,W,2.36,124.98,201212,,,D*70
$GPVTG,124.98,T,,M,2.36,N,4.4,K,D*09
$GPGGA,203030.000,3748.7800,N,12217.8217,W,2,08,1.0,-5.5,M,-25.1,M,0.8,0000*6A
$GPGSA,A,3,26,21,22,18,06,29,03,15,,,,,1.7,1.0,1.4*34
$GPRMC,203030.000,A,3748.7800,N,12217.8217,W,1.90,139.32,201212,,,D*77
$GPVTG,139.32,T,,M,1.90,N,3.5,K,D*0C
$GPGGA,203031.000,3748.7790,N,12217.8214,W,2,08,1.0,-3.1,M,-25.1,M,1.8,0000*6D
$GPGSA,A,3,26,21,22,18,06,29,03,15,,,,,1.7,1.0,1.4*34
$GPGSV,3,1,12,18,81,326,24,21,67,055,23,22,47,247,32,06,42,304,21*7D
$GPGSV,3,2,12,15,34,058,23,03,24,312,19,29,21,152,38,26,06,033,14*7B
$GPGSV,3,3,12,16,22,274,28,14,13,183,38,30,13,242,27,19,05,319,*76
$GPRMC,203031.000,A,3748.7790,N,12217.8214,W,2.11,136.01,201212,,,D*76
$GPVTG,136.01,T,,M,2.11,N,3.9,K,D*05
$GPGGA,203032.000,3748.7779,N,12217.8206,W,2,08,1.0,-0.9,M,-25.1,M,2.8,0000*62
$GPGSA,A,3,26,21,22,18,06,29,03,15,,,,,1.7,1.0,1.4*34
$GPRMC,203032.000,A,3748.7779,N,12217.8206,W,2.42,152.59,201212,,,D*78
$GPVTG,152.59,T,,M,2.42,N,4.5,K,D*07
$GPGGA,203033.000,3748.7774,N,12217.8203,W,2,08,1.0,-1.8,M,-25.1,M,1.8,0000*68
$GPGSA,A,3,26,21,22,18,06,29,03,15,,,,,1.7,1.0,1.4*34
$GPRMC,203033.000,A,3748.7774,N,12217.8203,W,2.04,130.00,201212,,,D*7B
$GPVTG,130.00,T,,M,2.04,N,3.8,K,D*07
$GPGGA,203034.000,3748.7767,N,12217.8199,W,2,08,1.0,-0.8,M,-25.1,M,2.8,0000*6F
$GPGSA,A,3,26,21,22,18,06,29,03,15,,,,,1.7,1.0,1.4*34
$GPRMC,203034.000,A,3748.7767,N,12217.8199,W,2.03,109.13,201212,,,D*71
$GPVTG,109.13,T,,M,2.03,N,3.8,K,D*08
$GPGGA,203035.000,3748.7761,N,12217.8192,W,2,08,1.0,0.9,M,-25.1,M,1.8,0000*4C
$GPGSA,A,3,26,21,22,18,06,29,03,15,,,,,1.7,1.0,1.4*34
$GPRMC,203035.000,A,3748.7761,N,12217.8192,W,2.12,123.18,201212,,,D*7E
$GPVTG,123.18,T,,M,2.12,N,3.9,K,D*0A
$GPGGA,203036.000,3748.7757,N,12217.8185,W,2,08,1.0,1.5,M,-25.1,M,2.8,0000*42
$GPGSA,A,3,26,21,22,18,06,29,03,15,,,,,1.7,1.0,1.4*34
$GPGSV,3,1,12,18,81,326,24,21,67,055,23,22,47,247,32,06,42,304,21*7D
$GPGSV,3,2,12,15,34,058,21,03,24,312,26,29,21,152,38,26,06,033,14*75
$GPGSV,3,3,12,16,22,274,28,14,13,183,35,30,13,242,27,19,05,319,*7B
$GPRMC,203036.000,A,3748.7757,N,12217.8185,W,2.66,121.89,201212,,,D*77
$GPVTG,121.89,T,,M,2.66,N,4.9,K,D*04
$GPGGA,203037.000,3748.7751,N,12217.8174,W,2,08,1.0,2.7,M,-25.1,M,1.8,0000*49
$GPGSA,A,3,26,21,22,18,06,29,03,15,,,,,1.7,1.0,1.4*34
$GPRMC,203037.000,A,3748.7751,N,12217.8174,W,2.42,126.29,201212,,,D*75
$GPVTG,126.29,T,,M,2.42,N,4.5,K,D*03
$GPGGA,203038.000,3748.7744,N,12217.8163,W,2,08,1.0,4.3,M,-25.1,M,2.8,0000*45
$GPGSA,A,3,26,21,22,18,06,29,03,15,,,,,1.7,1.0,1.4*34
$GPRMC,203038.000,A,3748.7744,N,12217.8163,W,2.50,110.59,201212,,,D*79
$GPVTG,110.59,T,,M,2.50,N,4.6,K,D*01
$GPGGA,203039.000,3748.7739,N,12217.8147,W,2,08,1.0,6.1,M,-25.1,M,3.8,0000*49
$GPGSA,A,3,26,21,22,18,06,29,03,15,,,,,1.7,1.0,1.4*34
$GPRMC,203039.000,A,3748.7739,N,12217.8147,W,2.48,108.10,201212,,,D*79
$GPVTG,108.10,T,,M,2.48,N,4.6,K,D*0C
$GPGGA,203040.000,3748.7732,N,12217.8134,W,2,08,1.0,8.1,M,-25.1,M,4.8,0000*41
$GPGSA,A,3,26,21,22,18,06,29,03,15,,,,,1.7,1.0,1.4*34
$GPRMC,203040.000,A,3748.7732,N,12217.8134,W,2.60,113.95,201212,,,D*75
$GPVTG,113.95,T,,M,2.60,N,4.8,K,D*0F
$GPGGA,203041.000,3748.7725,N,12217.8121,W,2,08,1.0,10.2,M,-25.1,M,1.8,0000*7D
$GPGSA,A,3,26,21,22,18,06,29,03,15,,,,,1.7,1.0,1.4*34
$GPGSV,3,1,12,18,81,331,24,21,67,056,23,22,48,247,32,06,43,303,21*71
$GPGSV,3,2,12,15,33,057,26,03,25,312,24,16,21,273,27,29,21,152,39*78
$GPGSV,3,3,12,14,13,183,34,30,12,242,27,26,05,033,18,19,05,319,*7F
$GPRMC,203041.000,A,3748.7725,N,12217.8121,W,2.21,114.96,201212,,,D*77
$GPVTG,114.96,T,,M,2.21,N,4.1,K,D*07
$GPGGA,203042.000,3748.7723,N,12217.8109,W,2,08,1.0,11.2,M,-25.1,M,1.8,0000*73
$GPGSA,A,3,26,21,22,18,06,29,03,15,,,,,1.7,1.0,1.4*34
$GPRMC,203042.000,A,3748.7723,N,12217.8109,W,2.76,104.86,201212,,,D*7A
$GPVTG,104.86,T,,M,2.76,N,5.1,K,D*04
$GPGGA,203043.000,3748.7721,N,12217.8102,W,2,08,1.0,11.0,M,-25.1,M,1.8,0000*79
$GPGSA,A,3,26,21,22,18,06,29,03,15,,,,,1.7,1.0,1.4*34
$GPRMC,203043.000,A,3748.7721,N,12217.8102,W,2.49,117.67,201212,,,D*73
$GPVTG,117.67,T,,M,2.49,N,4.6,K,D*03
$GPGGA,203044.000,3748.7719,N,12217.8098,W,2,08,1.0,9.2,M,-25.1,M,2.8,0000*4F
$GPGSA,A,3,26,21,22,18,06,29,03,15,,,,,1.7,1.0,1.4*34
$GPRMC,203044.000,A,3748.7719,N,12217.8098,W,2.17,118.00,201212,,,D*78
$GPVTG,118.00,T,,M,2.17,N,4.0,K,D*00
$GPGGA,203045.000,3748.7716,N,12217.8095,W,2,08,1.0,7.8,M,-25.1,M,3.8,0000*49
$GPGSA,A,3,26,21,22,18,06,29,03,15,,,,,1.7,1.0,1.4*34
$GPRMC,203045.000,A,3748.7716,N,12217.8095,W,2.10,118.65,201212,,,D*7F
$GPVTG,118.65,T,,M,2.10,N,3.9,K,D*0A
$GPGGA,203046.000,3748.7713,N,12217.8092,W,2,08,1.0,6.1,M,-25.1,M,4.8,0000*47
$GPGSA,A,3,26,21,22,18,06,29,03,15,,,,,1.7,1.0,1.4*34
$GPGSV,3,1,12,18,81,331,24,21,67,056,23,22,48,247,32,06,43,303,22*72
$GPGSV,3,2,12,15,33,057,19,03,25,312,24,16,21,273,27,29,21,152,39*74
$GPRMC,203046.000,A,3748.7713,N,12217.8092,W,1.92,132.16,201212,,,D*7B
$GPVTG,132.16,T,,M,1.92,N,3.6,K,D*00
$GPGGA,203047.000,3748.7710,N,12217.8088,W,2,08,1.0,5.0,M,-25.1,M,1.8,0000*49
$GPGSA,A,3,26,21,22,18,06,29,03,15,,,,,1.7,1.0,1.4*34
$GPRMC,203047.000,A,3748.7710,N,12217.8088,W,2.17,120.94,201212,,,D*75
$GPVTG,120.94,T,,M,2.17,N,4.0,K,D*06
$GPGGA,203048.000,3748.7705,N,12217.8092,W,2,08,1.0,3.9,M,-25.1,M,1.8,0000*46
$GPGSA,A,3,26,21,22,18,06,29,03,15,,,,,1.7,1.0,1.4*34
$GPRMC,203048.000,A,3748.7705,N,12217.8092,W,1.81,128.55,201212,,,D*7C
$GPVTG,128.55,T,,M,1.81,N,3.4,K,D*0C
$GPGGA,203049.000,3748.7703,N,12217.8087,W,2,08,1.0,3.8,M,-25.1,M,1.8,0000*44
$GPGSA,A,3,26,21,22,18,06,29,03,15,,,,,1.7,1.0,1.4*34
$GPRMC,203049.000,A,3748.7703,N,12217.8087,W,1.75,130.04,201212,,,D*79
$GPVTG,130.04,T,,M,1.75,N,3.2,K,D*0C
$GPGGA,203050.000,3748.7699,N,12217.8079,W,2,08,1.0,4.1,M,-25.1,M,1.8,0000*41
$GPGSA,A,3,26,21,22,18,06,29,03,15,,,,,1.7,1.0,1.4*34
$GPRMC,203050.000,A,3748.7699,N,12217.8079,W,1.80,116.45,201212,,,D*79
$GPVTG,116.45,T,,M,1.80,N,3.3,K,D*06
$GPGGA,203051.000,3748.7698,N,12217.8076,W,2,08,1.0,2.7,M,-25.1,M,1.8,0000*4E
$GPGSA,A,3,26,21,22,18,06,29,03,15,,,,,1.7,1.0,1.4*34
$GPGSV,3,1,12,18,81,331,25,21,67,056,23,22,48,247,33,06,43,303,23*73
$GPGSV,3,2,12,15,33,057,24,03,25,312,24,16,21,273,28,29,21,152,38*74
$GPGSV,3,3,12,14,13,183,29,30,12,241,31,26,05,033,21,19,05,319,*7D
$GPRMC,203051.000,A,3748.7698,N,12217.8076,W,1.53,98.76,201212,,,D*4F
$GPVTG,98.76,T,,M,1.53,N,2.8,K,D*35
$GPGGA,203052.000,3748.7701,N,12217.8061,W,2,08,1.0,2.2,M,-25.1,M,2.8,0000*4C
$GPGSA,A,3,26,21,22,18,06,29,03,15,,,,,1.7,1.0,1.4*34
$GPRMC,203052.000,A,3748.7701,N,12217.8061,W,2.10,89.81,201212,,,D*47
$GPVTG,89.81,T,,M,2.10,N,3.9,K,D*39
$GPGGA,203053.000,3748.7701,N,12217.8053,W,2,08,1.0,2.7,M,-25.1,M,1.8,0000*4A
$GPGSA,A,3,26,21,22,18,06,29,03,15,,,,,1.7,1.0,1.4*34
$GPRMC,203053.000,A,3748.7701,N,12217.8053,W,1.94,98.11,201212,,,D*41
$GPVTG,98.11,T,,M,1.94,N,3.6,K,D*30
$GPGGA,203054.000,3748.7700,N,12217.8046,W,2,08,1.0,2.1,M,-25.1,M,2.8,0000*4D
$GPGSA,A,3,26,21,22,18,06,29,03,15,,,,,1.7,1.0,1.4*34
$GPRMC,203054.000,A,3748.7700,N,12217.8046,W,2.10,117.36,201212,,,D*7F
$GPVTG,117.36,T,,M,2.10,N,3.9,K,D*03
$GPGGA,203055.000,3748.7698,N,12217.8039,W,2,08,1.0,2.2,M,-25.1,M,1.8,0000*44
$GPGSA,A,3,26,21,22,18,06,29,03,15,,,,,1.7,1.0,1.4*34
$GPRMC,203055.000,A,3748.7698,N,12217.8039,W,1.77,118.87,201212,,,D*71
$GPVTG,118.87,T,,M,1.77,N,3.3,K,D*0E
$GPGGA,203056.000,3748.7696,N,12217.8033,W,2,08,1.0,2.7,M,-25.1,M,2.8,0000*45
$GPGSA,A,3,26,21,22,18,06,29,03,15,,,,,1.7,1.0,1.4*34
$GPGSV,3,1,12,18,81,331,24,21,67,056,23,22,48,247,32,06,43,303,22*72
$GPGSV,3,2,12,15,33,057,26,03,25,312,21,16,21,273,22,29,21,152,33*72
$GPGSV,3,3,12,14,13,183,36,30,12,241,28,26,05,033,13,19,05,319,*7A
$GPRMC,203056.000,A,3748.7696,N,12217.8033,W,1.71,106.73,201212,,,D*74
$GPVTG,106.73,T,,M,1.71,N,3.2,K,D*0D
$GPGGA,203057.000,3748.7698,N,12217.8025,W,2,07,1.1,0.8,M,-25.1,M,1.8,0000*4D
$GPGSA,A,3,21,22,18,06,29,03,15,,,,,,2.1,1.1,1.8*38
$GPRMC,203057.000,A,3748.7698,N,12217.8025,W,1.80,108.34,201212,,,D*7F
$GPVTG,108.34,T,,M,1.80,N,3.3,K,D*0F
$GPGGA,203058.000,3748.7697,N,12217.8021,W,2,07,1.1,-0.3,M,-25.1,M,1.8,0000*6F
$GPGSA,A,3,21,22,18,06,29,03,15,,,,,,2.1,1.1,1.8*38
$GPRMC,203058.000,A,3748.7697,N,12217.8021,W,1.56,103.97,201212,,,D*72
$GPVTG,103.97,T,,M,1.56,N,2.9,K,D*0D
$GPGGA,203059.000,3748.7697,N,12217.8015,W,2,07,1.1,-1.3,M,-25.1,M,1.8,0000*68
$GPGSA,A,3,21,22,18,06,29,03,15,,,,,,2.1,1.1,1.8*38
$GPRMC,203059.000,A,3748.7697,N,12217.8015,W,1.93,89.35,201212,,,D*46
$GPVTG,89.35,T,,M,1.93,N,3.6,K,D*31
$GPGGA,203100.000,3748.7699,N,12217.8006,W,2,07,1.1,-1.0,M,-25.1,M,1.8,0000*6A
$GPGSA,A,3,21,22,18,06,29,03,15,,,,,,2.1,1.1,1.8*38
$GPRMC,203100.000,A,3748.7699,N,12217.8006,W,2.27,74.18,201212,,,D*46
$GPVTG,74.18,T,,M,2.27,N,4.2,K,D*33
$GPGGA,203101.000,3748.7704,N,12217.7996,W,2,07,1.1,-1.8,M,-25.1,M,1.8,0000*69
$GPGSA,A,3,21,22,18,06,29,03,15,,,,,,2.1,1.1,1.8*38
$GPGSV,3,1,12,18,81,331,24,21,67,056,23,22,48,247,32,06,43,303,21*71
$GPGSV,3,2,12,15,33,057,25,03,25,312,20,16,21,273,25,29,21,152,26*73
$GPGSV,3,3,12,14,13,183,33,30,12,241,28,26,05,033,,19,05,319,*7D
$GPRMC,203101.000,A,3748.7704,N,12217.7996,W,2.13,71.49,201212,,,D*4B
$GPVTG,71.49,T,,M,2.13,N,3.9,K,D*39
$GPGGA,203102.000,3748.7708,N,12217.7986,W,2,07,1.1,-3.9,M,-25.1,M,2.8,0000*67
$GPGSA,A,3,21,22,18,06,29,03,15,,,,,,2.1,1.1,1.8*38
$GPRMC,203102.000,A,3748.7708,N,12217.7986,W,2.01,85.72,201212,,,D*45
$GPVTG,85.72,T,,M,2.01,N,3.7,K,D*37
$GPGGA,203103.000,3748.7706,N,12217.7980,W,2,07,1.1,-4.4,M,-25.1,M,3.8,0000*65
$GPGSA,A,3,21,22,18,06,29,03,15,,,,,,2.1,1.1,1.8*38
$GPRMC,203103.000,A,3748.7706,N,12217.7980,W,2.01,122.14,201212,,,D*70
$GPVTG,122.14,T,,M,2.01,N,3.7,K,D*0B
$GPGGA,203104.000,3748.7696,N,12217.7975,W,2,07,1.1,-3.3,M,-25.1,M,1.8,0000*62
$GPGSA,A,3,21,22,18,06,29,03,15,,,,,,2.1,1.1,1.8*38
$GPRMC,203104.000,A,3748.7696,N,12217.7975,W,2.23,128.96,201212,,,D*75
$GPVTG,128.96,T,,M,2.23,N,4.1,K,D*0A
$GPGGA,203105.000,3748.7689,N,12217.7971,W,2,07,1.1,-2.2,M,-25.1,M,1.8,0000*69
$GPGSA,A,3,21,22,18,06,29,03,15,,,,,,2.1,1.1,1.8*38
$GPRMC,203105.000,A,3748.7689,N,12217.7971,W,1.79,121.56,201212,,,D*77
$GPVTG,121.56,T,,M,1.79,N,3.3,K,D*06
$GPGGA,203106.000,3748.7688,N,12217.7965,W,2,07,1.1,-3.4,M,-25.1,M,1.8,0000*69
$GPGSA,A,3,21,22,18,06,29,03,15,,,,,,2.1,1.1,1.8*38
$GPGSV,3,1,12,18,81,331,24,21,67,056,23,22,48,247,32,06,43,303,21*71
$GPGSV,3,2,12,15,33,057,26,03,25,312,22,16,21,273,31,29,21,152,30*70
$GPGSV,3,3,12,14,13,183,30,30,12,241,24,26,05,033,,19,05,319,*72
$GPVTG,104.40,T,,M,1.76,N,3.3,K,D*09
$GPGGA,203107.000,3748.7688,N,12217.7958,W,2,08,1.0,-3.9,M,-25.1,M,1.8,0000*65
$GPGSA,A,3,26,21,22,18,06,29,03,15,,,,,1.7,1.0,1.4*34
$GPRMC,203107.000,A,3748.7688,N,12217.7958,W,1.65,104.22,201212,,,D*76
$GPVTG,104.22,T,,M,1.65,N,3.1,K,D*0D
$GPGGA,203108.000,3748.7684,N,12217.7952,W,2,08,1.0,-3.4,M,-25.1,M,2.8,0000*62
$GPGSA,A,3,26,21,22,18,06,29,03,15,,,,,1.7,1.0,1.4*34
$GPRMC,203108.000,A,3748.7684,N,12217.7952,W,1.92,116.39,201212,,,D*7E
$GPVTG,116.39,T,,M,1.92,N,3.6,K,D*0B
$GPGGA,203109.000,3748.7678,N,12217.7947,W,2,07,1.1,-2.5,M,-25.1,M,3.8,0000*6B
$GPGSA,A,3,21,22,18,06,29,03,15,,,,,,2.1,1.1,1.8*38
$GPRMC,203109.000,A,3748.7678,N,12217.7947,W,2.15,120.78,201212,,,D*74
$GPVTG,120.78,T,,M,2.15,N,4.0,K,D*06
$GPGGA,203110.000,3748.7666,N,12217.7939,W,2,06,1.2,-0.4,M,-25.1,M,4.8,0000*63
$GPGSA,A,3,22,18,06,29,03,15,,,,,,,2.3,1.2,2.0*31
$GPRMC,203110.000,A,3748.7666,N,12217.7939,W,2.47,141.94,201212,,,D*78
$GPVTG,141.94,T,,M,2.47,N,4.6,K,D*02
$GPGGA,203111.000,3748.7658,N,12217.7936,W,2,07,1.1,0.2,M,-25.1,M,1.8,0000*4C
$GPGSA,A,3,21,22,18,06,29,03,15,,,,,,2.1,1.1,1.8*38
$GPGSV,3,1,12,18,81,332,20,21,66,057,16,22,48,248,32,06,43,303,21*7F
$GPGSV,3,2,12,15,33,057,24,03,25,312,22,16,21,273,25,29,21,152,31*76
$GPGSV,3,3,12,14,13,183,31,30,12,241,31,19,05,319,,26,05,033,*77
$GPRMC,203111.000,A,3748.7658,N,12217.7936,W,1.76,134.53,201212,,,D*73
$GPVTG,134.53,T,,M,1.76,N,3.3,K,D*08
$GPGGA,203112.000,3748.7656,N,12217.7934,W,2,06,1.2,-0.1,M,-25.1,M,2.8,0000*6C
$GPGSA,A,3,22,18,06,29,03,15,,,,,,,2.3,1.2,2.0*31
$GPRMC,203112.000,A,3748.7656,N,12217.7934,W,0.63,165.73,201212,,,D*7F
$GPVTG,165.73,T,,M,0.63,N,1.2,K,D*08
$GPGGA,203113.000,3748.7647,N,12217.7938,W,2,07,1.1,0.4,M,-25.1,M,3.8,0000*4A
$GPGSA,A,3,21,22,18,06,29,03,15,,,,,,2.1,1.1,1.8*38
$GPRMC,203113.000,A,3748.7647,N,12217.7938,W,1.56,205.90,201212,,,D*7D
$GPVTG,205.90,T,,M,1.56,N,2.9,K,D*0F
$GPGGA,203114.000,3748.7639,N,12217.7943,W,2,07,1.1,1.4,M,-25.1,M,4.8,0000*4E
$GPGSA,A,3,21,22,18,06,29,03,15,,,,,,2.1,1.1,1.8*38
$GPRMC,203114.000,A,3748.7639,N,12217.7943,W,1.83,211.73,201212,,,D*7F
$GPVTG,211.73,T,,M,1.83,N,3.4,K,D*03
$GPGGA,203115.000,3748.7637,N,12217.7934,W,2,07,1.1,2.5,M,-25.1,M,5.8,0000*42
$GPGSA,A,3,21,22,18,06,29,03,15,,,,,,2.1,1.1,1.8*38
$GPRMC,203115.000,A,3748.7637,N,12217.7934,W,0.27,190.68,201212,,,D*7F
$GPVTG,190.68,T,,M,0.27,N,0.5,K,D*0E
$GPGGA,203116.000,3748.7639,N,12217.7931,W,2,07,1.1,0.2,M,-25.1,M,6.8,0000*4C
$GPGSA,A,3,21,22,18,06,29,03,15,,,,,,2.1,1.1,1.8*38
$GPGSV,3,1,12,18,81,332,26,21,66,057,18,22,48,248,23,06,43,303,16*73
$GPGSV,3,2,12,15,33,057,32,03,25,312,23,16,21,273,20,29,21,152,32*76
$GPGSV,3,3,12,14,13,183,26,30,12,241,21,19,05,319,,26,05,033,28*7A
$GPRMC,203116.000,A,3748.7639,N,12217.7931,W,0.79,71.26,201212,,,D*48
$GPVTG,71.26,T,,M,0.79,N,1.5,K,D*30
$GPGGA,203117.000,3748.7643,N,12217.7918,W,2,07,1.1,0.9,M,-25.1,M,1.8,0000*47
$GPGSA,A,3,21,22,18,06,29,03,15,,,,,,2.1,1.1,1.8*38
$GPRMC,203117.000,A,3748.7643,N,12217.7918,W,1.36,38.38,201212,,,D*47
$GPVTG,38.38,T,,M,1.36,N,2.5,K,D*3B
$GPGGA,203118.000,3748.7646,N,12217.7905,W,2,07,1.1,2.7,M,-25.1,M,2.8,0000*4E
$GPGSA,A,3,21,22,18,06,29,03,15,,,,,,2.1,1.1,1.8*38
$GPRMC,203118.000,A,3748.7646,N,12217.7905,W,1.42,66.84,201212,,,D*4E
$GPVTG,66.84,T,,M,1.42,N,2.6,K,D*37
$GPGGA,203119.000,3748.7649,N,12217.7901,W,2,07,1.1,1.1,M,-25.1,M,1.8,0000*42
$GPGSA,A,3,21,22,18,06,29,03,15,,,,,,2.1,1.1,1.8*38
$GPRMC,203119.000,A,3748.7649,N,12217.7901,W,1.09,106.97,201212,,,D*7E
$GPVTG,106.97,T,,M,1.09,N,2.0,K,D*0B
$GPGGA,203120.000,3748.7646,N,12217.7898,W,2,07,1.1,0.8,M,-25.1,M,2.8,0000*4D
$GPGSA,A,3,21,22,18,06,29,03,15,,,,,,2.1,1.1,1.8*38
$GPRMC,203120.000,A,3748.7646,N,12217.7898,W,1.54,116.43,201212,,,D*7A
$GPVTG,116.43,T,,M,1.54,N,2.9,K,D*02
$GPGGA,203121.000,3748.7639,N,12217.7893,W,2,07,1.1,1.4,M,-25.1,M,3.8,0000*43
$GPGSA,A,3,21,22,18,06,29,03,15,,,,,,2.1,1.1,1.8*38
$GPGSV,3,1,12,18,81,332,18,21,66,057,20,22,48,248,32,06,43,303,19*7A
$GPGSV,3,2,12,15,33,057,19,03,25,312,18,16,21,273,31,29,21,152,36*73
$GPGSV,3,3,12,14,13,183,24,30,12,241,30,19,05,319,,26,05,033,*72
$GPRMC,203121.000,A,3748.7639,N,12217.7893,W,1.85,134.76,201212,,,D*72
$GPVTG,134.76,T,,M,1.85,N,3.4,K,D*04
$GPGGA,203122.000,3748.7631,N,12217.7885,W,2,07,1.1,3.6,M,-25.1,M,4.8,0000*48
$GPGSA,A,3,21,22,18,06,29,03,15,,,,,,2.1,1.1,1.8*38
$GPRMC,203122.000,A,3748.7631,N,12217.7885,W,2.07,126.35,201212,,,D*73
$GPVTG,126.35,T,,M,2.07,N,3.8,K,D*05
$GPGGA,203123.000,3748.7626,N,12217.7880,W,2,07,1.1,3.4,M,-25.1,M,1.8,0000*4D
$GPGSA,A,3,21,22,18,06,29,03,15,,,,,,2.1,1.1,1.8*38
$GPRMC,203123.000,A,3748.7626,N,12217.7880,W,2.25,103.88,201212,,,D*70
$GPVTG,103.88,T,,M,2.25,N,4.2,K,D*09
$GPGGA,203124.000,3748.7620,N,12217.7871,W,2,07,1.1,4.5,M,-25.1,M,1.8,0000*44
$GPGSA,A,3,21,22,18,06,29,03,15,,,,,,2.1,1.1,1.8*38
$GPRMC,203124.000,A,3748.7620,N,12217.7871,W,2.33,111.55,201212,,,D*7B
$GPVTG,111.55,T,,M,2.33,N,4.3,K,D*0C
$GPGGA,203125.000,3748.7614,N,12217.7863,W,2,07,1.1,6.4,M,-25.1,M,2.8,0000*41
$GPGSA,A,3,21,22,18,06,29,03,15,,,,,,2.1,1.1,1.8*38
$GPRMC,203125.000,A,3748.7614,N,12217.7863,W,2.33,120.68,201212,,,D*72
$GPVTG,120.68,T,,M,2.33,N,4.3,K,D*00
$GPGGA,203126.000,3748.7609,N,12217.7855,W,2,07,1.1,7.7,M,-25.1,M,3.8,0000*48
$GPGSA,A,3,21,22,18,06,29,03,15,,,,,,2.1,1.1,1.8*38
$GPGSV,3,1,12,18,81,332,24,21,66,057,19,22,48,248,32,06,43,303,21*74
$GPGSV,3,2,12,15,33,057,20,03,25,312,21,16,21,273,26,29,21,152,39*7A
$GPGSV,3,3,12,14,13,183,32,30,12,241,29,19,05,319,,26,05,033,*7D
$GPVTG,123.42,T,,M,2.41,N,4.5,K,D*08
$GPGGA,203127.000,3748.7602,N,12217.7847,W,2,07,1.1,8.7,M,-25.1,M,4.8,0000*49
$GPGSA,A,3,21,22,18,06,29,03,15,,,,,,2.1,1.1,1.8*38
$GPRMC,203127.000,A,3748.7602,N,12217.7847,W,2.64,122.28,201212,,,D*75
$GPVTG,122.28,T,,M,2.64,N,4.9,K,D*0E
$GPGGA,203128.000,3748.7599,N,12217.7840,W,2,07,1.1,8.2,M,-25.1,M,5.8,0000*44
$GPGSA,A,3,21,22,18,06,29,03,15,,,,,,2.1,1.1,1.8*38
$GPRMC,203128.000,A,3748.7599,N,12217.7840,W,2.40,122.80,201212,,,D*78
$GPVTG,122.80,T,,M,2.40,N,4.4,K,D*07
$GPGGA,203129.000,3748.7595,N,12217.7833,W,2,07,1.1,8.3,M,-25.1,M,1.8,0000*48
$GPGSA,A,3,21,22,18,06,29,03,15,,,,,,2.1,1.1,1.8*38
$GPRMC,203129.000,A,3748.7595,N,12217.7833,W,2.68,143.73,201212,,,D*70
$GPVTG,143.73,T,,M,2.68,N,5.0,K,D*03
$GPGGA,203130.000,3748.7591,N,12217.7829,W,2,07,1.1,8.5,M,-25.1,M,2.8,0000*4A
$GPGSA,A,3,21,22,18,06,29,03,15,,,,,,2.1,1.1,1.8*38
$GPRMC,203130.000,A,3748.7591,N,12217.7829,W,1.75,148.75,201212,,,D*75
$GPVTG,148.75,T,,M,1.75,N,3.2,K,D*05
$GPGGA,203131.000,3748.7590,N,12217.7825,W,2,07,1.1,8.5,M,-25.1,M,3.8,0000*47
$GPGSA,A,3,21,22,18,06,29,03,15,,,,,,2.1,1.1,1.8*38
$GPGSV,3,1,12,18,81,332,25,21,66,057,20,22,48,248,33,06,43,303,28*77
$GPGSV,3,2,12,15,33,057,19,03,25,312,26,16,21,273,31,29,21,152,31*79
$GPGSV,3,3,12,14,13,183,29,30,12,241,29,19,05,319,17,26,05,033,*71
$GPRMC,203131.000,A,3748.7590,N,12217.7825,W,1.33,112.24,201212,,,D*70
$GPVTG,112.24,T,,M,1.33,N,2.5,K,D*0A
$GPGGA,203132.000,3748.7586,N,12217.7821,W,2,07,1.1,8.3,M,-25.1,M,4.8,0000*46
$GPGSA,A,3,21,22,18,06,29,03,15,,,,,,2.1,1.1,1.8*38
$GPRMC,203132.000,A,3748.7586,N,12217.7821,W,1.67,124.98,201212,,,D*73
$GPVTG,124.98,T,,M,1.67,N,3.1,K,D*0C
$GPGGA,203133.000,3748.7580,N,12217.7818,W,2,06,1.4,9.1,M,-25.1,M,5.8,0000*4D
$GPGSA,A,3,21,22,18,06,29,15,,,,,,,2.8,1.4,2.4*38
$GPRMC,203133.000,A,3748.7580,N,12217.7818,W,2.01,110.75,201212,,,D*79
$GPVTG,110.75,T,,M,2.01,N,3.7,K,D*0D
$GPGGA,203134.000,3748.7574,N,12217.7813,W,2,07,1.1,10.1,M,-25.1,M,6.8,0000*75
$GPGSA,A,3,21,22,18,06,29,03,15,,,,,,2.1,1.1,1.8*38
$GPRMC,203134.000,A,3748.7574,N,12217.7813,W,1.99,110.60,201212,,,D*78
$GPVTG,110.60,T,,M,1.99,N,3.7,K,D*0B
$GPGGA,203135.000,3748.7568,N,12217.7806,W,2,07,1.1,11.1,M,-25.1,M,7.8,0000*7D
$GPGSA,A,3,21,22,18,06,29,03,15,,,,,,2.1,1.1,1.8*38
$GPRMC,203135.000,A,3748.7568,N,12217.7806,W,2.44,112.72,201212,,,D*72
$GPVTG,112.72,T,,M,2.44,N,4.5,K,D*0C
$GPGGA,203136.000,3748.7563,N,12217.7801,W,2,07,1.1,10.4,M,-25.1,M,1.8,0000*70
$GPGSA,A,3,21,22,18,06,29,03,15,,,,,,2.1,1.1,1.8*38
$GPGSV,3,1,12,18,81,332,24,21,66,057,21,22,48,248,33,06,43,303,23*7C
$GPGSV,3,2,12,15,33,057,20,03,25,312,23,16,21,273,26,29,21,152,38*79
$GPGSV,3,3,12,14,13,183,33,30,12,241,25,19,05,319,18,26,05,033,*79
$GPRMC,203136.000,A,3748.7563,N,12217.7801,W,2.26,122.92,201212,,,D*74
$GPVTG,122.92,T,,M,2.26,N,4.2,K,D*02
$GPGGA,203137.000,3748.7560,N,12217.7799,W,2,07,1.1,8.9,M,-25.1,M,1.8,0000*48
$GPGSA,A,3,21,22,18,06,29,03,15,,,,,,2.1,1.1,1.8*38
$GPRMC,203137.000,A,3748.7560,N,12217.7799,W,2.33,131.18,201212,,,D*7C
$GPVTG,131.18,T,,M,2.33,N,4.3,K,D*07
$GPGGA,203138.000,3748.7557,N,12217.7792,W,2,07,1.1,9.3,M,-25.1,M,1.8,0000*43
$GPGSA,A,3,21,22,18,06,29,03,15,,,,,,2.1,1.1,1.8*38
$GPRMC,203138.000,A,3748.7557,N,12217.7792,W,2.44,125.87,201212,,,D*7F
$GPVTG,125.87,T,,M,2.44,N,4.5,K,D*02
$GPGGA,203139.000,3748.7550,N,12217.7789,W,2,07,1.1,9.1,M,-25.1,M,1.8,0000*4D
$GPGSA,A,3,21,22,18,06,29,03,15,,,,,,2.1,1.1,1.8*38
$GPRMC,203139.000,A,3748.7550,N,12217.7789,W,2.27,128.34,201212,,,D*73
$GPVTG,128.34,T,,M,2.27,N,4.2,K,D*05
$GPGGA,203140.000,3748.7545,N,12217.7783,W,2,07,1.1,9.9,M,-25.1,M,2.8,0000*46
$GPGSA,A,3,21,22,18,06,29,03,15,,,,,,2.1,1.1,1.8*38
$GPRMC,203140.000,A,3748.7545,N,12217.7783,W,2.35,130.37,201212,,,D*7A
$GPVTG,130.37,T,,M,2.35,N,4.4,K,D*0A
$GPGGA,203141.000,3748.7537,N,12217.7776,W,2,07,1.1,11.3,M,-25.1,M,1.8,0000*78
$GPGSA,A,3,21,22,18,06,29,03,15,,,,,,2.1,1.1,1.8*38
$GPGSV,3,1,12,18,81,334,25,21,66,057,22,22,48,248,33,06,43,303,22*79
$GPGSV,3,2,12,15,33,057,20,03,25,311,18,16,21,272,28,29,20,152,39*7D
$GPGSV,3,3,12,14,14,183,24,30,12,241,26,19,06,319,,26,05,033,*71
$GPRMC,203141.000,A,3748.7537,N,12217.7776,W,2.38,132.92,201212,,,D*74
$GPVTG,132.92,T,,M,2.38,N,4.4,K,D*0A
$GPGGA,203142.000,3748.7534,N,12217.7768,W,2,07,1.1,12.0,M,-25.1,M,1.8,0000*77
$GPGSA,A,3,21,22,18,06,29,03,15,,,,,,2.1,1.1,1.8*38
$GPRMC,203142.000,A,3748.7534,N,12217.7768,W,2.41,108.39,201212,,,D*7D
$GPVTG,108.39,T,,M,2.41,N,4.5,K,D*0D
$GPGGA,203143.000,3748.7529,N,12217.7760,W,2,07,1.1,13.4,M,-25.1,M,1.8,0000*77
$GPGSA,A,3,21,22,18,06,29,03,15,,,,,,2.1,1.1,1.8*38
$GPRMC,203143.000,A,3748.7529,N,12217.7760,W,2.62,113.63,201212,,,D*7C
$GPVTG,113.63,T,,M,2.62,N,4.9,K,D*05
$GPGGA,203144.000,3748.7524,N,12217.7751,W,2,07,1.1,14.7,M,-25.1,M,2.8,0000*78
$GPGSA,A,3,21,22,18,06,29,03,15,,,,,,2.1,1.1,1.8*38
$GPRMC,203144.000,A,3748.7524,N,12217.7751,W,3.01,120.40,201212,,,D*71
$GPVTG,120.40,T,,M,3.01,N,5.6,K,D*0E
$GPGGA,203145.000,3748.7514,N,12217.7742,W,2,07,1.1,17.3,M,-25.1,M,3.8,0000*7E
$GPGSA,A,3,21,22,18,06,29,03,15,,,,,,2.1,1.1,1.8*38
$GPRMC,203145.000,A,3748.7514,N,12217.7742,W,2.85,124.77,201212,,,D*7C
$GPVTG,124.77,T,,M,2.85,N,5.3,K,D*06
$GPGGA,203146.000,3748.7509,N,12217.7734,W,2,07,1.1,17.1,M,-25.1,M,4.8,0000*75
$GPGSA,A,3,21,22,18,06,29,03,15,,,,,,2.1,1.1,1.8*38
$GPGSV,3,1,12,18,81,334,24,21,66,057,22,22,48,248,33,06,43,303,21*7B
$GPGSV,3,2,12,15,33,057,19,03,25,311,19,16,21,272,24,29,20,152,39*7A
$GPGSV,3,3,12,14,14,183,20,30,12,241,25,19,06,319,,26,05,033,*76
$GPRMC,203146.000,A,3748.7509,N,12217.7734,W,2.91,117.08,201212,,,D*7F
$GPGGA,203147.000,3748.7503,N,12217.7728,W,2,07,1.1,16.8,M,-25.1,M,1.8,0000*7E
$GPGSA,A,3,21,22,18,06,29,03,15,,,,,,2.1,1.1,1.8*38
$GPRMC,203147.000,A,3748.7503,N,12217.7728,W,2.90,105.86,201212,,,D*7D
$GPVTG,105.86,T,,M,2.90,N,5.4,K,D*08
$GPGGA,203148.000,3748.7496,N,12217.7724,W,2,07,1.1,18.2,M,-25.1,M,1.8,0000*74
$GPGSA,A,3,21,22,18,06,29,03,15,,,,,,2.1,1.1,1.8*38
$GPRMC,203148.000,A,3748.7496,N,12217.7724,W,2.86,100.01,201212,,,D*7E
$GPVTG,100.01,T,,M,2.86,N,5.3,K,D*02
$GPGGA,203149.000,3748.7495,N,12217.7717,W,2,07,1.1,18.1,M,-25.1,M,1.8,0000*75
$GPGSA,A,3,21,22,18,06,29,03,15,,,,,,2.1,1.1,1.8*38
$GPRMC,203149.000,A,3748.7495,N,12217.7717,W,3.15,92.60,201212,,,D*4A
$GPVTG,92.60,T,,M,3.15,N,5.8,K,D*3F
$GPGGA,203150.000,3748.7493,N,12217.7705,W,2,07,1.1,18.9,M,-25.1,M,2.8,0000*73
$GPGSA,A,3,21,22,18,06,29,03,15,,,,,,2.1,1.1,1.8*38
$GPRMC,203150.000,A,3748.7493,N,12217.7705,W,3.16,89.02,201212,,,D*4A
$GPVTG,89.02,T,,M,3.16,N,5.9,K,D*33
$GPGGA,203151.000,3748.7490,N,12217.7696,W,2,07,1.1,19.4,M,-25.1,M,3.8,0000*77
$GPGSA,A,3,21,22,18,06,29,03,15,,,,,,2.1,1.1,1.8*38
$GPGSV,3,1,12,18,81,334,24,21,66,057,19,22,48,248,33,06,43,303,22*70
$GPGSV,3,2,12,15,33,057,19,03,25,311,20,16,21,272,24,29,20,152,39*70
$GPGSV,3,3,12,14,14,183,24,30,12,241,26,19,06,319,,26,05,033,*71
$GPRMC,203151.000,A,3748.7490,N,12217.7696,W,2.86,104.03,201212,,,D*7E
$GPVTG,104.03,T,,M,2.86,N,5.3,K,D*04
$GPGGA,203152.000,3748.7485,N,12217.7688,W,2,07,1.1,19.5,M,-25.1,M,4.8,0000*79
$GPGSA,A,3,21,22,18,06,29,03,15,,,,,,2.1,1.1,1.8*38
$GPRMC,203152.000,A,3748.7485,N,12217.7688,W,2.76,112.81,201212,,,D*74
$GPVTG,112.81,T,,M,2.76,N,5.1,K,D*04
$GPGGA,203153.000,3748.7480,N,12217.7679,W,2,07,1.1,20.1,M,-25.1,M,1.8,0000*78
$GPGSA,A,3,21,22,18,06,29,03,15,,,,,,2.1,1.1,1.8*38
$GPRMC,203153.000,A,3748.7480,N,12217.7679,W,2.87,125.84,201212,,,D*71
$GPVTG,125.84,T,,M,2.87,N,5.3,K,D*09
$GPGGA,203154.000,3748.7475,N,12217.7672,W,2,07,1.1,20.2,M,-25.1,M,1.8,0000*7D
$GPGSA,A,3,21,22,18,06,29,03,15,,,,,,2.1,1.1,1.8*38
$GPRMC,203154.000,A,3748.7475,N,12217.7672,W,2.71,135.35,201212,,,D*75
$GPVTG,135.35,T,,M,2.71,N,5.0,K,D*08
$GPGGA,203155.000,3748.7470,N,12217.7665,W,2,07,1.1,20.0,M,-25.1,M,1.8,0000*7D
$GPGSA,A,3,21,22,18,06,29,03,15,,,,,,2.1,1.1,1.8*38
$GPRMC,203155.000,A,3748.7470,N,12217.7665,W,2.72,121.82,201212,,,D*7D
$GPVTG,121.82,T,,M,2.72,N,5.0,K,D*02
$GPGGA,203156.000,3748.7469,N,12217.7656,W,2,07,1.1,19.4,M,-25.1,M,2.8,0000*7B
$GPGSA,A,3,21,22,18,06,29,03,15,,,,,,2.1,1.1,1.8*38
$GPGSV,3,1,12,18,81,334,24,21,66,057,25,22,48,248,33,06,43,303,27*7A
$GPGSV,3,2,12,15,33,057,20,03,25,311,25,16,21,272,25,29,20,152,40*70
$GPGSV,3,3,12,14,14,183,22,30,12,241,27,19,06,319,,26,05,033,*76
$GPRMC,203156.000,A,3748.7469,N,12217.7656,W,2.68,116.27,201212,,,D*76
$GPVTG,116.27,T,,M,2.68,N,5.0,K,D*02
$GPGGA,203157.000,3748.7466,N,12217.7648,W,2,07,1.1,19.9,M,-25.1,M,3.8,0000*76
$GPGSA,A,3,21,22,18,06,29,03,15,,,,,,2.1,1.1,1.8*38
$GPRMC,203157.000,A,3748.7466,N,12217.7648,W,2.28,122.77,201212,,,D*71
$GPVTG,122.77,T,,M,2.28,N,4.2,K,D*07
$GPGGA,203158.000,3748.7460,N,12217.7636,W,2,07,1.1,22.3,M,-25.1,M,4.8,0000*73
$GPGSA,A,3,21,22,18,06,29,03,15,,,,,,2.1,1.1,1.8*38
$GPRMC,203158.000,A,3748.7460,N,12217.7636,W,2.65,119.80,201212,,,D*78
$GPVTG,119.80,T,,M,2.65,N,4.9,K,D*05
$GPGGA,203159.000,3748.7457,N,12217.7624,W,2,07,1.1,23.7,M,-25.1,M,1.8,0000*75
$GPGSA,A,3,21,22,18,06,29,03,15,,,,,,2.1,1.1,1.8*38
$GPRMC,203159.000,A,3748.7457,N,12217.7624,W,2.77,106.93,201212,,,D*71
$GPVTG,106.93,T,,M,2.77,N,5.1,K,D*03
$GPGGA,203200.000,3748.7453,N,12217.7612,W,2,07,1.1,24.4,M,-25.1,M,1.8,0000*7F
$GPGSA,A,3,21,22,18,06,29,03,15,,,,,,2.1,1.1,1.8*38
$GPRMC,203200.000,A,3748.7453,N,12217.7612,W,2.56,115.73,201212,,,D*70
$GPVTG,115.73,T,,M,2.56,N,4.7,K,D*0B
$GPGGA,203201.000,3748.7446,N,12217.7603,W,2,07,1.1,25.9,M,-25.1,M,1.8,0000*76
$GPGSA,A,3,21,22,18,06,29,03,15,,,,,,2.1,1.1,1.8*38
$GPGSV,3,1,12,18,81,334,24,21,66,057,23,22,48,248,33,06,43,303,22*79
$GPGSV,3,2,12,15,33,057,20,03,25,311,20,16,21,272,26,29,20,152,40*76
$GPGSV,3,3,12,14,14,183,33,30,12,241,27,19,06,319,,26,05,033,*76
$GPRMC,203201.000,A,3748.7446,N,12217.7603,W,2.63,115.05,201212,,,D*72
$GPVTG,115.05,T,,M,2.63,N,4.9,K,D*02
$GPGGA,203202.000,3748.7440,N,12217.7597,W,2,07,1.1,26.0,M,-25.1,M,1.8,0000*77
$GPGSA,A,3,21,22,18,06,29,03,15,,,,,,2.1,1.1,1.8*38
$GPRMC,203202.000,A,3748.7440,N,12217.7597,W,2.51,117.77,201212,,,D*7F
$GPVTG,117.77,T,,M,2.51,N,4.6,K,D*0B
$GPGGA,203203.000,3748.7437,N,12217.7588,W,2,07,1.1,25.8,M,-25.1,M,1.8,0000*73
$GPGSA,A,3,21,22,18,06,29,03,15,,,,,,2.1,1.1,1.8*38
$GPRMC,203203.000,A,3748.7437,N,12217.7588,W,2.42,120.44,201212,,,D*76
$GPVTG,120.44,T,,M,2.42,N,4.5,K,D*0E
$GPGGA,203204.000,3748.7437,N,12217.7578,W,2,07,1.1,25.6,M,-25.1,M,2.8,0000*76
$GPGSA,A,3,21,22,18,06,29,03,15,,,,,,2.1,1.1,1.8*38
$GPRMC,203204.000,A,3748.7437,N,12217.7578,W,2.28,107.00,201212,,,D*77
$GPVTG,107.00,T,,M,2.28,N,4.2,K,D*00
$GPGGA,203205.000,3748.7443,N,12217.7562,W,2,07,1.1,23.2,M,-25.1,M,1.8,0000*7E
$GPGSA,A,3,21,22,18,06,29,03,15,,,,,,2.1,1.1,1.8*38
$GPRMC,203205.000,A,3748.7443,N,12217.7562,W,2.35,98.61,201212,,,D*42
$GPVTG,98.61,T,,M,2.35,N,4.3,K,D*3D
$GPGGA,203206.000,3748.7447,N,12217.7553,W,2,07,1.1,21.6,M,-25.1,M,0.8,0000*7C
$GPGSA,A,3,21,22,18,06,29,03,15,,,,,,2.1,1.1,1.8*38
$GPGSV,3,1,12,18,81,334,24,21,66,057,24,22,48,248,32,06,43,303,22*7F
$GPGSV,3,2,12,15,33,057,29,03,25,311,20,16,21,272,27,29,20,152,35*7C
$GPGSV,3,3,12,14,14,183,35,30,12,241,27,19,06,319,,26,05,033,*70
$GPRMC,203206.000,A,3748.7447,N,12217.7553,W,1.66,98.54,201212,,,D*44
$GPGGA,203207.000,3748.7453,N,12217.7543,W,2,07,1.1,18.6,M,-25.1,M,1.8,0000*72
$GPGSA,A,3,21,22,18,06,29,03,15,,,,,,2.1,1.1,1.8*38
$GPRMC,203207.000,A,3748.7453,N,12217.7543,W,1.74,109.79,201212,,,D*74
$GPVTG,109.79,T,,M,1.74,N,3.2,K,D*0D
$GPGGA,203208.000,3748.7457,N,12217.7533,W,2,07,1.1,16.7,M,-25.1,M,1.8,0000*71
$GPGSA,A,3,21,22,18,06,29,03,15,,,,,,2.1,1.1,1.8*38
$GPRMC,203208.000,A,3748.7457,N,12217.7533,W,1.64,85.97,201212,,,D*4C
$GPVTG,85.97,T,,M,1.64,N,3.0,K,D*3B
$GPGGA,203209.000,3748.7461,N,12217.7523,W,2,07,1.1,14.4,M,-25.1,M,2.8,0000*76
$GPGSA,A,3,21,22,18,06,29,03,15,,,,,,2.1,1.1,1.8*38
$GPRMC,203209.000,A,3748.7461,N,12217.7523,W,2.20,83.41,201212,,,D*47
$GPVTG,83.41,T,,M,2.20,N,4.1,K,D*33
$GPGGA,203210.000,3748.7462,N,12217.7518,W,2,07,1.1,12.0,M,-25.1,M,3.8,0000*76
$GPGSA,A,3,21,22,18,06,29,03,15,,,,,,2.1,1.1,1.8*38
$GPRMC,203210.000,A,3748.7462,N,12217.7518,W,1.72,99.18,201212,,,D*47
$GPVTG,99.18,T,,M,1.72,N,3.2,K,D*34
$GPGGA,203211.000,3748.7460,N,12217.7513,W,2,07,1.1,10.3,M,-25.1,M,4.8,0000*78
$GPGSA,A,3,21,22,18,06,29,03,15,,,,,,2.1,1.1,1.8*38
$GPGSV,3,1,12,18,81,334,25,21,66,057,23,22,48,248,32,06,43,303,22*79
$GPGSV,3,2,12,15,33,057,24,03,25,311,21,16,21,272,28,29,20,152,35*7F
$GPGSV,3,3,12,14,14,183,36,30,12,241,28,19,06,319,17,26,05,033,*7A
$GPRMC,203211.000,A,3748.7460,N,12217.7513,W,2.31,112.70,201212,,,D*77
$GPVTG,112.70,T,,M,2.31,N,4.3,K,D*0A
$GPGGA,203212.000,3748.7457,N,12217.7506,W,2,07,1.1,9.5,M,-25.1,M,5.8,0000*44
$GPGSA,A,3,21,22,18,06,29,03,15,,,,,,2.1,1.1,1.8*38
$GPRMC,203212.000,A,3748.7457,N,12217.7506,W,2.33,116.75,201212,,,D*77
$GPVTG,116.75,T,,M,2.33,N,4.3,K,D*09
$GPGGA,203213.000,3748.7453,N,12217.7499,W,2,07,1.1,9.2,M,-25.1,M,6.8,0000*42
$GPGSA,A,3,21,22,18,06,29,03,15,,,,,,2.1,1.1,1.8*38
$GPRMC,203213.000,A,3748.7453,N,12217.7499,W,2.06,118.99,201212,,,D*7F
$GPVTG,118.99,T,,M,2.06,N,3.8,K,D*0F
$GPGGA,203214.000,3748.7445,N,12217.7493,W,2,07,1.1,9.2,M,-25.1,M,7.8,0000*49
$GPGSA,A,3,21,22,18,06,29,03,15,,,,,,2.1,1.1,1.8*38
$GPRMC,203214.000,A,3748.7445,N,12217.7493,W,1.88,120.03,201212,,,D*78
$GPVTG,120.03,T,,M,1.88,N,3.5,K,D*0F
$GPGGA,203215.000,3748.7441,N,12217.7488,W,2,07,1.1,8.1,M,-25.1,M,8.8,0000*4B
$GPGSA,A,3,21,22,18,06,29,03,15,,,,,,2.1,1.1,1.8*38
$GPRMC,203215.000,A,3748.7441,N,12217.7488,W,2.24,118.95,201212,,,D*76
$GPVTG,118.95,T,,M,2.24,N,4.2,K,D*0E
$GPGGA,203216.000,3748.7436,N,12217.7482,W,2,07,1.1,8.0,M,-25.1,M,9.8,0000*42
$GPGSA,A,3,21,22,18,06,29,03,15,,,,,,2.1,1.1,1.8*38
$GPGSV,3,1,12,18,81,336,25,21,66,058,23,22,48,248,32,06,43,302,24*73
$GPGSV,3,2,12,15,33,056,23,03,26,311,24,16,21,272,29,29,20,152,34*7F
$GPGSV,3,3,12,14,14,183,36,30,12,241,29,19,06,319,,26,05,032,*7C
$GPRMC,203216.000,A,3748.7436,N,12217.7482,W,2.03,120.03,201212,,,D*7E
$GPVTG,120.03,T,,M,2.03,N,3.8,K,D*02
$GPGGA,203217.000,3748.7431,N,12217.7474,W,2,07,1.1,8.5,M,-25.1,M,10.8,0000*70
$GPGSA,A,3,21,22,18,06,29,03,15,,,,,,2.1,1.1,1.8*38
$GPRMC,203217.000,A,3748.7431,N,12217.7474,W,2.34,112.14,201212,,,D*72
$GPVTG,112.14,T,,M,2.34,N,4.3,K,D*0D
$GPGGA,203218.000,3748.7427,N,12217.7465,W,2,07,1.1,8.8,M,-25.1,M,11.8,0000*74
$GPGSA,A,3,21,22,18,06,29,03,15,,,,,,2.1,1.1,1.8*38
$GPRMC,203218.000,A,3748.7427,N,12217.7465,W,2.25,104.34,201212,,,D*7F
$GPVTG,104.34,T,,M,2.25,N,4.2,K,D*09
$GPGGA,203219.000,3748.7422,N,12217.7455,W,2,07,1.1,8.7,M,-25.1,M,12.8,0000*7F
$GPGSA,A,3,21,22,18,06,29,03,15,,,,,,2.1,1.1,1.8*38
$GPRMC,203219.000,A,3748.7422,N,12217.7455,W,1.68,132.29,201212,,,D*7B
$GPVTG,132.29,T,,M,1.68,N,3.1,K,D*0E
$GPGGA,203220.000,3748.7415,N,12217.7447,W,2,07,1.1,9.2,M,-25.1,M,13.8,0000*77
$GPGSA,A,3,21,22,18,06,29,03,15,,,,,,2.1,1.1,1.8*38
$GPRMC,203220.000,A,3748.7415,N,12217.7447,W,2.10,120.80,201212,,,D*7A
$GPVTG,120.80,T,,M,2.10,N,3.9,K,D*0A
$GPGGA,203221.000,3748.7409,N,12217.7447,W,2,07,1.1,7.2,M,-25.1,M,14.8,0000*72
$GPGSA,A,3,21,22,18,06,29,03,15,,,,,,2.1,1.1,1.8*38
$GPGSV,3,1,12,18,81,336,22,21,66,058,23,22,48,248,26,06,43,302,24*71
$GPGSV,3,2,12,15,33,056,23,03,26,311,24,16,21,272,28,29,20,152,37*7D
$GPGSV,3,3,12,14,14,183,35,30,12,241,20,19,06,319,,26,05,032,*76
$GPRMC,203221.000,A,3748.7409,N,12217.7447,W,2.08,130.83,201212,,,D*7D
$GPVTG,130.83,T,,M,2.08,N,3.8,K,D*00
$GPGGA,203222.000,3748.7404,N,12217.7441,W,2,07,1.1,7.0,M,-25.1,M,15.8,0000*79
$GPGSA,A,3,21,22,18,06,29,03,15,,,,,,2.1,1.1,1.8*38
$GPRMC,203222.000,A,3748.7404,N,12217.7441,W,2.05,120.82,201212,,,D*78
$GPVTG,120.82,T,,M,2.05,N,3.8,K,D*0D
$GPGGA,203223.000,3748.7402,N,12217.7435,W,2,07,1.1,6.5,M,-25.1,M,16.8,0000*7A
$GPGSA,A,3,21,22,18,06,29,03,15,,,,,,2.1,1.1,1.8*38
$GPRMC,203223.000,A,3748.7402,N,12217.7435,W,1.69,118.86,201212,,,D*7A
$GPVTG,118.86,T,,M,1.69,N,3.1,K,D*02
$GPGGA,203224.000,3748.7393,N,12217.7431,W,2,07,1.1,7.4,M,-25.1,M,17.8,0000*77
$GPGSA,A,3,21,22,18,06,29,03,15,,,,,,2.1,1.1,1.8*38
$GPRMC,203224.000,A,3748.7393,N,12217.7431,W,2.59,108.88,201212,,,D*79
$GPVTG,108.88,T,,M,2.59,N,4.8,K,D*03
$GPGGA,203225.000,3748.7387,N,12217.7422,W,2,07,1.1,7.8,M,-25.1,M,18.8,0000*72
$GPGSA,A,3,21,22,18,06,29,03,15,,,,,,2.1,1.1,1.8*38
$GPRMC,203225.000,A,3748.7387,N,12217.7422,W,2.33,115.55,201212,,,D*7F
$GPVTG,115.55,T,,M,2.33,N,4.3,K,D*08
$GPGGA,203226.000,3748.7387,N,12217.7412,W,2,07,1.1,5.9,M,-25.1,M,4.8,0000*4C
$GPGSA,A,3,21,22,18,06,29,03,15,,,,,,2.1,1.1,1.8*38
$GPGSV,3,1,12,18,81,336,23,21,66,058,23,22,48,248,32,06,43,302,20*71
$GPGSV,3,2,12,15,33,056,23,03,26,311,23,16,21,272,23,29,20,152,38*7E
$GPGSV,3,3,12,14,14,183,33,30,12,241,19,19,06,319,,26,05,032,*7A
$GPRMC,203226.000,A,3748.7387,N,12217.7412,W,2.36,100.43,201212,,,D*79
$GPGGA,203227.000,3748.7389,N,12217.7404,W,2,07,1.1,3.5,M,-25.1,M,1.8,0000*4B
$GPGSA,A,3,21,22,18,06,29,03,15,,,,,,2.1,1.1,1.8*38
$GPRMC,203227.000,A,3748.7389,N,12217.7404,W,1.90,95.40,201212,,,D*40
$GPVTG,95.40,T,,M,1.90,N,3.5,K,D*3E
$GPGGA,203228.000,3748.7390,N,12217.7396,W,2,07,1.1,0.1,M,-25.1,M,2.8,0000*44
$GPGSA,A,3,21,22,18,06,29,03,15,,,,,,2.1,1.1,1.8*38
$GPRMC,203228.000,A,3748.7390,N,12217.7396,W,2.22,105.21,201212,,,D*7E
$GPVTG,105.21,T,,M,2.22,N,4.1,K,D*08
$GPGGA,203229.000,3748.7393,N,12217.7386,W,2,07,1.1,-2.9,M,-25.1,M,3.8,0000*61
$GPGSA,A,3,21,22,18,06,29,03,15,,,,,,2.1,1.1,1.8*38
$GPRMC,203229.000,A,3748.7393,N,12217.7386,W,2.72,81.02,201212,,,D*44
$GPVTG,81.02,T,,M,2.72,N,5.0,K,D*31
$GPGGA,203230.000,3748.7397,N,12217.7372,W,2,07,1.1,-4.7,M,-25.1,M,4.8,0000*69
$GPGSA,A,3,21,22,18,06,29,03,15,,,,,,2.1,1.1,1.8*38
$GPRMC,203230.000,A,3748.7397,N,12217.7372,W,2.96,78.88,201212,,,D*4D
$GPVTG,78.88,T,,M,2.96,N,5.5,K,D*3A
$GPGGA,203231.000,3748.7393,N,12217.7364,W,2,07,1.1,-3.8,M,-25.1,M,1.8,0000*66
$GPGSA,A,3,21,22,18,06,29,03,15,,,,,,2.1,1.1,1.8*38
$GPGSV,3,1,12,18,81,336,22,21,66,058,22,22,48,248,24,06,43,302,21*77
$GPGSV,3,2,12,15,33,056,22,03,26,311,19,16,21,272,28,29,20,152,37*72
$GPGSV,3,3,12,14,14,183,33,30,12,241,19,19,06,319,,26,05,032,*7A
$GPRMC,203231.000,A,3748.7393,N,12217.7364,W,2.22,101.33,201212,,,D*7F
$GPVTG,101.33,T,,M,2.22,N,4.1,K,D*0F
$GPGGA,203232.000,3748.7387,N,12217.7356,W,2,07,1.1,-4.0,M,-25.1,M,2.8,0000*6D
$GPGSA,A,3,21,22,18,06,29,03,15,,,,,,2.1,1.1,1.8*38
$GPRMC,203232.000,A,3748.7387,N,12217.7356,W,2.51,98.18,201212,,,D*44
$GPVTG,98.18,T,,M,2.51,N,4.6,K,D*34
$GPGGA,203233.000,3748.7379,N,12217.7355,W,2,07,1.1,-4.2,M,-25.1,M,1.8,0000*6F
$GPGSA,A,3,21,22,18,06,29,03,15,,,,,,2.1,1.1,1.8*38
$GPRMC,203233.000,A,3748.7379,N,12217.7355,W,1.67,110.60,201212,,,D*7F
$GPVTG,110.60,T,,M,1.67,N,3.1,K,D*0C
$GPGGA,203234.000,3748.7374,N,12217.7353,W,2,07,1.1,-3.6,M,-25.1,M,2.8,0000*63
$GPGSA,A,3,21,22,18,06,29,03,15,,,,,,2.1,1.1,1.8*38
$GPRMC,203234.000,A,3748.7374,N,12217.7353,W,1.60,116.72,201212,,,D*71
$GPVTG,116.72,T,,M,1.60,N,3.0,K,D*0F
$GPGGA,203235.000,3748.7373,N,12217.7346,W,2,07,1.1,-4.0,M,-25.1,M,1.8,0000*63
$GPGSA,A,3,21,22,18,06,29,03,15,,,,,,2.1,1.1,1.8*38
