$ADVER,3080,2.3
$GPRMC,184852.876,A,3748.8010,N,12217.8597,W,0.23,118.68,100413,,,A*72
$GPRMC,184853.876,A,3748.8010,N,12217.8597,W,0.15,130.78,100413,,,A*7D
$GPRMC,184854.876,A,3748.8010,N,12217.8596,W,0.17,140.18,100413,,,A*78
$GPRMC,184856.000,A,3748.8009,N,12217.8596,W,0.17,132.30,100413,,,A*74
$GPRMC,184857.000,A,3748.8009,N,12217.8596,W,0.19,137.12,100413,,,A*7E
$GPRMC,184858.000,A,3748.8009,N,12217.8596,W,0.16,143.41,100413,,,A*7B
$GPRMC,184859.000,A,3748.8009,N,12217.8596,W,0.18,135.54,100413,,,A*71
$GPRMC,184900.000,A,3748.8008,N,12217.8595,W,0.19,143.50,100413,,,A*7A
$GPRMC,184901.000,A,3748.8008,N,12217.8595,W,0.19,140.45,100413,,,A*7C
$GPRMC,184902.000,A,3748.8008,N,12217.8595,W,0.18,137.31,100413,,,A*7D
$GPRMC,184903.000,A,3748.8008,N,12217.8595,W,0.17,137.31,100413,,,A*73
$GPRMC,184904.000,A,3748.8009,N,12217.8595,W,0.12,119.21,100413,,,A*7D
$GPRMC,184905.000,A,3748.8009,N,12217.8596,W,0.15,116.16,100413,,,A*73
$GPRMC,184906.000,A,3748.8010,N,12217.8596,W,0.11,116.65,100413,,,A*78
$GPRMC,184907.000,A,3748.8010,N,12217.8596,W,0.14,129.73,100413,,,A*77
$GPRMC,184908.000,A,3748.8010,N,12217.8596,W,0.12,108.74,100413,,,A*7A
$GPRMC,184909.000,A,3748.8011,N,12217.8596,W,0.13,128.53,100413,,,A*7C
$GPRMC,184910.000,A,3748.8011,N,12217.8596,W,0.13,122.14,100413,,,A*7D
$GPRMC,184911.000,A,3748.8011,N,12217.8595,W,0.13,116.36,100413,,,A*78
$GPRMC,184912.000,A,3748.8011,N,12217.8595,W,0.16,125.73,100413,,,A*7F
$GPRMC,184913.000,A,3748.8011,N,12217.8595,W,0.13,123.33,100413,,,A*79
$GPRMC,184914.000,A,3748.8011,N,12217.8595,W,0.14,125.98,100413,,,A*7E
$GPRMC,184915.000,A,3748.8011,N,12217.8595,W,0.16,130.10,100413,,,A*79
$GPRMC,184916.000,A,3748.8011,N,12217.8595,W,0.15,134.60,100413,,,A*7A
$GPRMC,184917.000,A,3748.8011,N,12217.8595,W,0.15,133.04,100413,,,A*7E
$GPRMC,184918.000,A,3748.8012,N,12217.8595,W,0.15,128.76,100413,,,A*7D
$GPRMC,184919.000,A,3748.8012,N,12217.8595,W,0.16,131.80,100413,,,A*7E
$GPRMC,184920.000,A,3748.8012,N,12217.8595,W,0.13,132.87,100413,,,A*75
$GPRMC,184921.000,A,3748.8012,N,12217.8595,W,0.15,129.92,100413,,,A*7C
$GPRMC,184922.000,A,3748.8012,N,12217.8594,W,0.18,128.78,100413,,,A*76
$GPRMC,184923.000,A,3748.8012,N,12217.8594,W,0.17,132.46,100413,,,A*7E
$GPRMC,184924.000,A,3748.8011,N,12217.8594,W,0.19,130.98,100413,,,A*75
$GPRMC,184925.000,A,3748.8011,N,12217.8593,W,0.17,132.19,100413,,,A*76
$GPRMC,184926.000,A,3748.8011,N,12217.8593,W,0.17,128.15,100413,,,A*72
$GPRMC,184927.000,A,3748.8011,N,12217.8593,W,0.17,130.80,100413,,,A*76
$GPRMC,184928.000,A,3748.8011,N,12217.8593,W,0.18,133.16,100413,,,A*7A
$GPRMC,184929.000,A,3748.8011,N,12217.8592,W,0.18,133.28,100413,,,A*77
$GPRMC,184930.000,A,3748.8011,N,12217.8592,W,0.17,131.43,100413,,,A*7F
$GPRMC,184931.000,A,3748.8011,N,12217.8592,W,0.17,131.99,100413,,,A*79
$GPRMC,184932.000,A,3748.8010,N,12217.8592,W,0.16,126.36,100413,,,A*79
$GPRMC,184933.000,A,3748.8010,N,12217.8592,W,0.18,131.79,100413,,,A*7B
$GPRMC,184934.000,A,3748.8010,N,12217.8591,W,0.16,127.36,100413,,,A*7D
$GPRMC,184935.000,A,3748.8010,N,12217.8591,W,0.16,129.89,100413,,,A*76
$GPRMC,184936.000,A,3748.8010,N,12217.8591,W,0.18,130.15,100413,,,A*76
$GPRMC,184937.000,A,3748.8010,N,12217.8591,W,0.17,128.56,100413,,,A*76
$GPRMC,184938.000,A,3748.8010,N,12217.8591,W,0.16,127.72,100413,,,A*71
$GPRMC,184939.000,A,3748.8010,N,12217.8591,W,0.15,118.07,100413,,,A*7D
$GPRMC,184940.000,A,3748.8010,N,12217.8591,W,0.15,119.13,100413,,,A*77
$GPRMC,184941.000,A,3748.8010,N,12217.8590,W,0.14,124.11,100413,,,A*7A
$GPRMC,184942.000,A,3748.8010,N,12217.8590,W,0.15,117.35,100413,,,A*7E
$GPRMC,184943.000,A,3748.8010,N,12217.8590,W,0.15,120.30,100413,,,A*7E
$GPRMC,184944.000,A,3748.8010,N,12217.8590,W,0.14,120.26,100413,,,A*7F
$GPRMC,184945.000,A,3748.8010,N,12217.8590,W,0.16,127.63,100413,,,A*7A
$GPRMC,184946.000,A,3748.8010,N,12217.8590,W,0.16,114.55,100413,,,A*7C
$GPRMC,184947.000,A,3748.8010,N,12217.8590,W,0.17,129.13,100413,,,A*70
$GPRMC,184948.000,A,3748.8010,N,12217.8589,W,0.13,128.56,100413,,,A*73
$GPRMC,184949.000,A,3748.8010,N,12217.8589,W,0.14,111.69,100413,,,A*73
$GPRMC,184950.000,A,3748.8010,N,12217.8589,W,0.25,148.16,100413,,,A*7D
$GPRMC,184951.000,A,3748.8010,N,12217.8589,W,0.14,101.28,100413,,,A*7E
$GPRMC,184952.000,A,3748.8010,N,12217.8589,W,0.16,124.60,100413,,,A*74
$GPRMC,184953.000,A,3748.8010,N,12217.8589,W,0.13,54.14,100413,,,A*45
$GPRMC,184954.000,A,3748.8011,N,12217.8589,W,0.20,32.89,100413,,,A*47
$GPRMC,184955.000,A,3748.8015,N,12217.8591,W,0.61,312.91,100413,,,A*76
$GPRMC,184956.000,A,3748.8018,N,12217.8594,W,0.18,237.05,100413,,,A*78
$GPRMC,184957.000,A,3748.8016,N,12217.8594,W,0.30,152.72,100413,,,A*7D
$GPRMC,184958.000,A,3748.8017,N,12217.8594,W,0.12,275.17,100413,,,A*76
$GPRMC,184959.000,A,3748.8019,N,12217.8597,W,0.44,337.62,100413,,,A*7C
$GPRMC,185000.000,A,3748.8018,N,12217.8598,W,0.44,174.28,100413,,,A*7D
$GPRMC,185001.000,A,3748.8017,N,12217.8596,W,0.44,147.52,100413,,,A*70
$GPRMC,185002.000,A,3748.8019,N,12217.8595,W,0.13,128.09,100413,,,A*7B
$GPRMC,185003.000,A,3748.8019,N,12217.8594,W,0.11,285.79,100413,,,A*7A
$GPRMC,185004.000,A,3748.8020,N,12217.8594,W,0.19,44.95,100413,,,A*42
$GPRMC,185005.000,A,3748.8025,N,12217.8597,W,0.22,36.60,100413,,,A*42
$GPRMC,185006.000,A,3748.8031,N,12217.8601,W,0.05,71.60,100413,,,A*4E
$GPRMC,185007.000,A,3748.8031,N,12217.8603,W,0.29,319.07,100413,,,A*7F
$GPRMC,185008.000,A,3748.8031,N,12217.8605,W,0.67,305.35,100413,,,A*70
$GPRMC,185009.000,A,3748.8027,N,12217.8603,W,0.14,152.85,100413,,,A*7F
$GPRMC,185010.000,A,3748.8025,N,12217.8603,W,0.46,321.44,100413,,,A*79
$GPRMC,185011.000,A,3748.8025,N,12217.8602,W,0.29,50.08,100413,,,A*4D
$GPRMC,185012.000,A,3748.8022,N,12217.8604,W,0.54,168.99,100413,,,A*77
$GPRMC,185013.000,A,3748.8017,N,12217.8603,W,0.93,152.73,100413,,,A*71
$GPRMC,185014.000,A,3748.8013,N,12217.8606,W,0.32,206.55,100413,,,A*7A
$GPRMC,185015.000,A,3748.8011,N,12217.8608,W,0.66,86.16,100413,,,A*4B
$GPRMC,185016.000,A,3748.8010,N,12217.8609,W,0.32,214.31,100413,,,A*75
$GPRMC,185017.000,A,3748.8008,N,12217.8609,W,0.36,100.00,100413,,,A*7D
$GPRMC,185018.000,A,3748.8005,N,12217.8608,W,0.52,217.16,100413,,,A*7E
$GPRMC,185019.000,A,3748.8004,N,12217.8610,W,0.41,193.21,100413,,,A*7E
$GPRMC,185020.000,A,3748.8003,N,12217.8610,W,0.27,18.47,100413,,,A*41
$GPRMC,185021.000,A,3748.8006,N,12217.8609,W,0.49,159.22,100413,,,A*72
$GPRMC,185022.000,A,3748.8006,N,12217.8610,W,0.26,119.06,100413,,,A*72
$GPRMC,185023.000,A,3748.8006,N,12217.8610,W,0.24,171.87,100413,,,A*76
$GPRMC,185024.000,A,3748.8005,N,12217.8611,W,0.41,215.03,100413,,,A*7D
$GPRMC,185025.000,A,3748.8003,N,12217.8611,W,0.04,355.72,100413,,,A*78
$GPRMC,185026.000,A,3748.8003,N,12217.8612,W,0.25,241.47,100413,,,A*79
$GPRMC,185027.000,A,3748.8000,N,12217.8613,W,1.19,151.13,100413,,,A*77
$GPRMC,185028.000,A,3748.8002,N,12217.8610,W,0.88,32.67,100413,,,A*47
$GPRMC,185029.000,A,3748.8006,N,12217.8604,W,0.85,118.95,100413,,,A*7E
$GPRMC,185030.000,A,3748.8003,N,12217.8606,W,1.16,137.29,100413,,,A*70
$GPRMC,185031.000,A,3748.7999,N,12217.8603,W,1.60,131.53,100413,,,A*7B
$GPRMC,185032.000,A,3748.7995,N,12217.8599,W,1.77,121.81,100413,,,A*7C
$GPRMC,185033.000,A,3748.7995,N,12217.8599,W,1.15,142.95,100413,,,A*79
$GPRMC,185034.000,A,3748.7998,N,12217.8600,W,1.29,135.71,100413,,,A*75
$GPRMC,185035.000,A,3748.7995,N,12217.8597,W,2.67,131.92,100413,,,A*74
$GPRMC,185036.000,A,3748.7992,N,12217.8590,W,2.68,115.79,100413,,,A*7B
$GPRMC,185037.000,A,3748.7988,N,12217.8582,W,1.27,123.86,100413,,,A*7F
$GPRMC,185038.000,A,3748.7984,N,12217.8578,W,2.31,134.03,100413,,,A*76
$GPRMC,185039.000,A,3748.7980,N,12217.8570,W,2.27,136.04,100413,,,A*79
$GPRMC,185040.000,A,3748.7974,N,12217.8567,W,1.58,166.57,100413,,,A*72
$GPRMC,185041.000,A,3748.7969,N,12217.8559,W,1.51,142.11,100413,,,A*7F
$GPRMC,185042.000,A,3748.7964,N,12217.8551,W,2.10,121.56,100413,,,A*79
$GPRMC,185043.000,A,3748.7959,N,12217.8540,W,2.20,121.43,100413,,,A*71
$GPRMC,185044.000,A,3748.7957,N,12217.8532,W,0.95,116.33,100413,,,A*72
$GPRMC,185045.000,A,3748.7957,N,12217.8528,W,0.60,101.71,100413,,,A*72
$GPRMC,185046.000,A,3748.7954,N,12217.8520,W,1.41,113.84,100413,,,A*71
$GPRMC,185047.000,A,3748.7948,N,12217.8513,W,1.91,114.71,100413,,,A*7D
$GPRMC,185048.000,A,3748.7944,N,12217.8506,W,1.08,103.63,100413,,,A*7F
$GPRMC,185049.000,A,3748.7938,N,12217.8497,W,1.75,120.40,100413,,,A*76
$GPRMC,185050.000,A,3748.7935,N,12217.8488,W,2.00,118.46,100413,,,A*71
$GPRMC,185051.000,A,3748.7932,N,12217.8480,W,2.17,123.24,100413,,,A*75
$GPRMC,185052.000,A,3748.7927,N,12217.8471,W,2.29,126.35,100413,,,A*74
$GPRMC,185053.000,A,3748.7921,N,12217.8460,W,2.45,117.04,100413,,,A*79
$GPRMC,185054.000,A,3748.7921,N,12217.8454,W,1.15,106.44,100413,,,A*7B
$GPRMC,185055.000,A,3748.7920,N,12217.8452,W,0.95,111.17,100413,,,A*74
$GPRMC,185056.000,A,3748.7917,N,12217.8451,W,0.17,147.47,100413,,,A*7C
$GPRMC,185057.000,A,3748.7914,N,12217.8450,W,0.44,291.05,100413,,,A*77
$GPRMC,185058.000,A,3748.7913,N,12217.8448,W,0.68,50.96,100413,,,A*4D
$GPRMC,185059.000,A,3748.7913,N,12217.8444,W,1.15,104.07,100413,,,A*73
$GPRMC,185100.000,A,3748.7911,N,12217.8438,W,0.64,54.17,100413,,,A*45
$GPRMC,185101.000,A,3748.7908,N,12217.8432,W,1.94,112.71,100413,,,A*7B
$GPRMC,185102.000,A,3748.7903,N,12217.8423,W,1.73,117.53,100413,,,A*7F
$GPRMC,185103.000,A,3748.7897,N,12217.8414,W,2.34,117.32,100413,,,A*71
$GPRMC,185104.000,A,3748.7894,N,12217.8408,W,2.30,117.56,100413,,,A*7E
$GPRMC,185105.000,A,3748.7888,N,12217.8397,W,1.38,121.21,100413,,,A*7D
$GPRMC,185106.000,A,3748.7886,N,12217.8390,W,1.29,111.95,100413,,,A*7B
$GPRMC,185107.000,A,3748.7883,N,12217.8381,W,1.19,97.30,100413,,,A*4C
$GPRMC,185108.000,A,3748.7882,N,12217.8374,W,0.93,86.77,100413,,,A*48
$GPRMC,185109.000,A,3748.7881,N,12217.8369,W,1.60,113.70,100413,,,A*71
$GPRMC,185110.000,A,3748.7879,N,12217.8361,W,2.02,119.36,100413,,,A*79
$GPRMC,185111.000,A,3748.7876,N,12217.8355,W,2.15,118.01,100413,,,A*73
$GPRMC,185112.000,A,3748.7872,N,12217.8346,W,2.61,117.97,100413,,,A*75
$GPRMC,185113.000,A,3748.7869,N,12217.8339,W,2.00,111.67,100413,,,D*7D
$GPRMC,185114.000,A,3748.7865,N,12217.8332,W,2.19,118.29,100413,,,D*76
$GPRMC,185115.000,A,3748.7861,N,12217.8326,W,2.34,121.09,100413,,,D*71
$GPRMC,185116.000,A,3748.7857,N,12217.8319,W,2.01,112.48,100413,,,D*78
$GPRMC,185117.000,A,3748.7852,N,12217.8309,W,2.06,114.27,100413,,,D*75
$GPRMC,185118.000,A,3748.7847,N,12217.8301,W,2.11,117.32,100413,,,D*77
$GPRMC,185119.000,A,3748.7845,N,12217.8294,W,2.26,117.13,100413,,,D*7E
$GPRMC,185120.000,A,3748.7841,N,12217.8287,W,2.42,119.36,100413,,,D*79
$GPRMC,185121.000,A,3748.7837,N,12217.8279,W,1.90,122.67,100413,,,D*78
$GPRMC,185122.000,A,3748.7832,N,12217.8269,W,0.96,112.16,100413,,,D*7D
$GPRMC,185123.000,A,3748.7822,N,12217.8259,W,1.40,87.10,100413,,,D*4F
$GPRMC,185124.000,A,3748.7812,N,12217.8252,W,1.42,107.96,100413,,,D*75
$GPRMC,185125.000,A,3748.7808,N,12217.8247,W,1.26,113.44,100413,,,D*73
$GPRMC,185126.000,A,3748.7804,N,12217.8242,W,1.46,120.85,100413,,,D*72
$GPRMC,185127.000,A,3748.7799,N,12217.8241,W,1.21,117.90,100413,,,D*7A
$GPRMC,185128.000,A,3748.7794,N,12217.8240,W,1.80,127.48,100413,,,D*74
$GPRMC,185129.000,A,3748.7793,N,12217.8239,W,1.81,120.18,100413,,,D*7F
$GPRMC,185130.000,A,3748.7791,N,12217.8235,W,1.74,117.96,100413,,,D*71
$GPRMC,185131.000,A,3748.7788,N,12217.8229,W,2.23,126.53,100413,,,D*7F
$GPRMC,185132.000,A,3748.7785,N,12217.8223,W,2.42,125.14,100413,,,D*7C
$GPRMC,185133.000,A,3748.7782,N,12217.8220,W,1.64,123.91,100413,,,D*75
$GPRMC,185134.000,A,3748.7779,N,12217.8213,W,2.11,121.38,100413,,,D*76
$GPRMC,185135.000,A,3748.7777,N,12217.8205,W,2.46,120.49,100413,,,D*7B
$GPRMC,185136.000,A,3748.7775,N,12217.8194,W,2.86,119.12,100413,,,D*79
$GPRMC,185137.000,A,3748.7770,N,12217.8188,W,2.05,113.34,100413,,,D*75
$GPRMC,185138.000,A,3748.7763,N,12217.8176,W,1.49,107.35,100413,,,D*76
$GPRMC,185139.000,A,3748.7762,N,12217.8172,W,0.78,99.22,100413,,,D*41
$GPRMC,185140.000,A,3748.7759,N,12217.8168,W,2.07,112.22,100413,,,D*74
$GPRMC,185141.000,A,3748.7756,N,12217.8161,W,2.50,115.74,100413,,,D*75
$GPRMC,185142.000,A,3748.7753,N,12217.8154,W,1.83,112.75,100413,,,D*7E
$GPRMC,185143.000,A,3748.7748,N,12217.8145,W,1.50,105.77,100413,,,D*7F
$GPRMC,185144.000,A,3748.7747,N,12217.8134,W,1.69,99.37,100413,,,D*4B
$GPRMC,185145.000,A,3748.7746,N,12217.8124,W,1.89,107.35,100413,,,D*70
$GPRMC,185146.000,A,3748.7743,N,12217.8114,W,1.76,115.01,100413,,,D*71
$GPRMC,185147.000,A,3748.7739,N,12217.8104,W,2.41,117.62,100413,,,D*7C
$GPRMC,185148.000,A,3748.7735,N,12217.8100,W,2.07,117.49,100413,,,D*70
$GPRMC,185149.000,A,3748.7731,N,12217.8094,W,2.35,115.34,100413,,,D*70
$GPRMC,185150.000,A,3748.7728,N,12217.8089,W,2.49,113.56,100413,,,D*75
$GPRMC,185151.000,A,3748.7728,N,12217.8083,W,1.29,104.18,100413,,,D*77
$GPRMC,185152.000,A,3748.7726,N,12217.8078,W,2.13,120.54,100413,,,D*7A
$GPRMC,185153.000,A,3748.7723,N,12217.8071,W,1.98,121.09,100413,,,D*7E
$GPRMC,185154.000,A,3748.7722,N,12217.8063,W,1.89,108.48,100413,,,D*75
$GPRMC,185155.000,A,3748.7720,N,12217.8056,W,1.72,114.02,100413,,,D*77
$GPRMC,185156.000,A,3748.7718,N,12217.8049,W,1.82,109.70,100413,,,D*77
$GPRMC,185157.000,A,3748.7716,N,12217.8042,W,1.65,117.52,100413,,,D*75
$GPRMC,185158.000,A,3748.7714,N,12217.8034,W,2.59,117.59,100413,,,D*7E
$GPRMC,185159.000,A,3748.7712,N,12217.8027,W,1.88,104.20,100413,,,D*78
$GPRMC,185200.000,A,3748.7711,N,12217.8021,W,1.01,89.00,100413,,,D*45
$GPRMC,185201.000,A,3748.7709,N,12217.8015,W,1.16,88.46,100413,,,D*4F
$GPRMC,185202.000,A,3748.7707,N,12217.8008,W,1.82,104.49,100413,,,D*79
$GPRMC,185203.000,A,3748.7704,N,12217.8001,W,1.25,109.38,100413,,,D*74
$GPRMC,185204.000,A,3748.7699,N,12217.7993,W,1.60,118.22,100413,,,D*71
$GPRMC,185205.000,A,3748.7695,N,12217.7986,W,1.92,118.95,100413,,,D*79
$GPRMC,185206.000,A,3748.7690,N,12217.7977,W,2.38,116.55,100413,,,D*70
$GPRMC,185207.000,A,3748.7686,N,12217.7967,W,2.80,110.84,100413,,,D*7E
$GPRMC,185208.000,A,3748.7683,N,12217.7957,W,2.15,101.49,100413,,,D*7A
$GPRMC,185209.000,A,3748.7681,N,12217.7949,W,1.66,104.86,100413,,,D*77
$GPRMC,185210.000,A,3748.7679,N,12217.7942,W,2.22,113.89,100413,,,D*79
$GPRMC,185211.000,A,3748.7673,N,12217.7937,W,2.01,120.52,100413,,,D*77
$GPRMC,185212.000,A,3748.7665,N,12217.7929,W,2.63,122.20,100413,,,D*7F
$GPRMC,185213.000,A,3748.7658,N,12217.7916,W,2.35,113.19,100413,,,D*77
$GPRMC,185214.000,A,3748.7653,N,12217.7905,W,2.09,115.76,100413,,,D*79
$GPRMC,185215.000,A,3748.7652,N,12217.7898,W,1.87,113.90,100413,,,D*77
$GPRMC,185216.000,A,3748.7650,N,12217.7892,W,2.13,122.74,100413,,,D*7A
$GPRMC,185217.000,A,3748.7645,N,12217.7884,W,2.36,120.35,100413,,,D*78
$GPRMC,185218.000,A,3748.7643,N,12217.7876,W,2.07,103.62,100413,,,D*7D
$GPRMC,185219.000,A,3748.7639,N,12217.7868,W,2.26,113.69,100413,,,D*77
$GPRMC,185220.000,A,3748.7637,N,12217.7860,W,2.03,109.77,100413,,,D*78
$GPRMC,185221.000,A,3748.7629,N,12217.7851,W,2.04,112.48,100413,,,D*75
$GPRMC,185222.000,A,3748.7626,N,12217.7846,W,1.99,112.82,100413,,,D*7E
$GPRMC,185223.000,A,3748.7624,N,12217.7842,W,2.20,115.28,100413,,,D*7F
$GPRMC,185224.000,A,3748.7621,N,12217.7834,W,2.76,114.46,100413,,,D*76
$GPRMC,185225.000,A,3748.7616,N,12217.7832,W,2.70,126.82,100413,,,D*7A
$GPRMC,185226.000,A,3748.7610,N,12217.7824,W,2.04,135.57,100413,,,D*71
$GPRMC,185227.000,A,3748.7605,N,12217.7819,W,2.36,132.25,100413,,,D*79
$GPRMC,185228.000,A,3748.7598,N,12217.7811,W,2.40,125.48,100413,,,D*75
$GPRMC,185229.000,A,3748.7593,N,12217.7803,W,2.20,116.23,100413,,,D*77
$GPRMC,185230.000,A,3748.7584,N,12217.7792,W,2.35,121.08,100413,,,D*77
$GPRMC,185231.000,A,3748.7578,N,12217.7784,W,1.84,124.16,100413,,,D*71
$GPRMC,185232.000,A,3748.7573,N,12217.7779,W,1.95,131.98,100413,,,D*79
$GPRMC,185233.000,A,3748.7567,N,12217.7773,W,2.42,123.31,100413,,,D*7E
$GPRMC,185234.000,A,3748.7563,N,12217.7767,W,2.30,133.10,100413,,,D*7F
$GPRMC,185235.000,A,3748.7557,N,12217.7758,W,2.45,128.08,100413,,,D*74
$GPRMC,185236.000,A,3748.7553,N,12217.7750,W,2.02,115.46,100413,,,D*7C
$GPRMC,185237.000,A,3748.7548,N,12217.7740,W,1.92,116.47,100413,,,D*7E
$GPRMC,185238.000,A,3748.7542,N,12217.7730,W,2.17,124.37,100413,,,D*74
$GPRMC,185239.000,A,3748.7533,N,12217.7722,W,2.28,124.37,100413,,,D*7C
$GPRMC,185240.000,A,3748.7532,N,12217.771.7496,W,11.39,180.23,210113,,,A*46
$GPRMC,184727.000,A,3749.1083,N,12216.7527,W,15.17,188.24,210113,,,A*44
$GPRMC,184728.000,A,3749.1041,N,12216.7535,W,15.17,188.24,210113,,,E*42
$GPRMC,184729.000,A,3749.0999,N,12216.7542,W,15.17,188.24,210113,,,E*4E
$GPRMC,184730.000,A,3749.0945,N,12216.7620,W,17.57,209.30,210113,,,A*4D
$GPRMC,184731.000,A,3749.0903,N,12216.7650,W,17.57,209.30,210113,,,E*4D
$GPRMC,184732.000,A,3749.0970,N,12216.7611,W,11.17,201.87,210113,,,A*4D
$GPRMC,184733.000,A,3749.0941,N,12216.7626,W,11.17,201.87,210113,,,E*4E
$GPRMC,184734.000,A,3749.0912,N,12216.7640,W,11.17,201.87,210113,,,E*4F
$GPRMC,184735.000,A,3749.0996,N,12216.7604,W,5.80,196.02,210113,,,A*7D
$GPRMC,184736.000,A,3749.1014,N,12216.7606,W,3.70,180.86,210113,,,A*7C
$GPRMC,184737.000,A,3749.1067,N,12216.7595,W,1.15,93.85,210113,,,A*41
$GPRMC,184738.000,A,3749.1160,N,12216.7568,W,3.88,32.78,210113,,,A*45
$GPRMC,184739.000,A,3749.1231,N,12216.7524,W,6.00,24.27,210113,,,A*43
$GPRMC,184740.000,A,3749.1234,N,12216.7531,W,6.4,W,2.22,108.89,100413,,,D*77
$GPRMC,185241.000,A,3748.7531,N,12217.7705,W,2.02,109.93,100413,,,D*7D
$GPRMC,185242.000,A,3748.7527,N,12217.7699,W,1.99,112.27,100413,,,D*79
$GPRMC,185243.000,A,3748.7520,N,12217.7689,W,2.56,112.76,100413,,,D*7A
$GPRMC,185244.000,A,3748.7520,N,12217.7685,W,1.94,119.01,100413,,,D*77
$GPRMC,185245.000,A,3748.7515,N,12217.7685,W,1.58,121.52,100413,,,D*7D
$GPRMC,185246.000,A,3748.7510,N,12217.7679,W,1.92,124.31,100413,,,D*7E
$GPRMC,185247.000,A,3748.7511,N,12217.7676,W,1.81,125.29,100413,,,D*7B
$GPRMC,185248.000,A,3748.7508,N,12217.7671,W,2.00,112.82,100413,,,D*74
$GPRMC,185249.000,A,3748.7505,N,12217.7664,W,1.43,114.62,100413,,,D*70
$GPRMC,185250.000,A,3748.7502,N,12217.7657,W,1.88,118.52,100413,,,D*77
$GPRMC,185251.000,A,3748.7501,N,12217.7649,W,2.08,105.72,100413,,,D*7F
$GPRMC,185252.000,A,3748.7500,N,12217.7642,W,1.91,104.43,100413,,,D*76
$GPRMC,185253.000,A,3748.7500,N,12217.7635,W,1.52,111.24,100413,,,D*7D
$GPRMC,185254.000,A,3748.7493,N,12217.7626,W,1.61,114.16,100413,,,D*77
$GPRMC,185255.000,A,3748.7487,N,12217.7620,W,1.75,118.37,100413,,,D*7F
$GPRMC,185256.000,A,3748.7484,N,12217.7614,W,1.42,105.08,100413,,,D*7C
$GPRMC,185257.000,A,3748.7482,N,12217.7611,W,1.54,92.80,100413,,,D*46
$GPRMC,185258.000,A,3748.7478,N,12217.7603,W,1.86,94.05,100413,,,D*4B
$GPRMC,185259.000,A,3748.7476,N,12217.7591,W,1.75,104.59,100413,,,D*71
$GPRMC,185300.000,A,3748.7477,N,12217.7581,W,1.78,111.73,100413,,,D*7D
$GPRMC,185301.000,A,3748.7480,N,12217.7573,W,1.60,115.34,100413,,,D*77
$GPRMC,185302.000,A,3748.7474,N,12217.7560,W,1.46,124.73,100413,,,D*78
$GPRMC,185303.000,A,3748.7471,N,12217.7549,W,1.88,118.79,100413,,,D*70
$GPRMC,185304.000,A,3748.7467,N,12217.7538,W,2.11,106.31,100413,,,D*76
$GPRMC,185305.000,A,3748.7464,N,12217.7529,W,2.24,115.77,100413,,,D*72
$GPRMC,185306.000,A,3748.7463,N,12217.7519,W,1.79,112.13,100413,,,D*7B
$GPRMC,185307.000,A,3748.7462,N,12217.7512,W,1.66,108.30,100413,,,D*74
$GPRMC,185308.000,A,3748.7458,N,12217.7506,W,1.60,116.71,100413,,,D*7B
$GPRMC,185309.000,A,3748.7456,N,12217.7501,W,1.53,117.08,100413,,,D*7C
$GPRMC,185310.000,A,3748.7450,N,12217.7493,W,1.28,132.67,100413,,,D*7A
$GPRMC,185311.000,A,3748.7446,N,12217.7486,W,1.55,122.71,100413,,,D*74
$GPRMC,185312.000,A,3748.7439,N,12217.7479,W,1.76,115.94,100413,,,D*71
$GPRMC,185313.000,A,3748.7433,N,12217.7470,W,2.30,113.46,100413,,,D*7B
$GPRMC,185314.000,A,3748.7428,N,12217.7462,W,2.23,123.82,100413,,,D*7C
$GPRMC,185315.000,A,3748.7424,N,12217.7455,W,2.18,126.14,100413,,,D*77
$GPRMC,185316.000,A,3748.7417,N,12217.7448,W,1.70,121.92,100413,,,D*7C
$GPRMC,185317.000,A,3748.7414,N,12217.7444,W,1.62,125.30,100413,,,D*7D
$GPRMC,185318.000,A,3748.7403,N,12217.7434,W,2.37,117.70,100413,,,D*75
$GPRMC,185319.000,A,3748.7395,N,12217.7422,W,2.39,119.20,100413,,,D*7E
$GPRMC,185320.000,A,3748.7387,N,12217.7412,W,2.48,124.75,100413,,,D*7C
$GPRMC,185321.000,A,3748.7382,N,12217.7404,W,2.30,117.18,100413,,,D*7B
$GPRMC,185322.000,A,3748.7376,N,12217.7396,W,2.28,126.74,100413,,,D*7E
$GPRMC,185323.000,A,3748.7371,N,12217.7388,W,2.25,127.80,100413,,,D*70
$GPRMC,185324.000,A,3748.7364,N,12217.7379,W,2.19,115.43,100413,,,D*7C
$GPRMC,185325.000,A,3748.7361,N,12217.7370,W,1.99,116.12,100413,,,D*7D
$GPRMC,185326.000,A,3748.7357,N,12217.7361,W,2.01,110.73,100413,,,D*78
$GPRMC,185327.000,A,3748.7357,N,12217.7358,W,1.77,122.45,100413,,,D*75
$GPRMC,185328.000,A,3748.7358,N,12217.7357,W,1.77,118.98,100413,,,D*73
$GPRMC,185329.000,A,3748.7357,N,12217.7353,W,1.80,116.72,100413,,,D*7B
$GPRMC,185330.000,A,3748.7353,N,12217.7342,W,2.04,106.87,100413,,,D*73
$GPRMC,185331.000,A,3748.7354,N,12217.7337,W,1.75,119.23,100413,,,D*72
$GPRMC,185332.000,A,3748.7342,N,12217.7325,W,1.99,117.43,100413,,,D*7F
$GPRMC,185333.000,A,3748.7336,N,12217.7316,W,1.87,120.19,100413,,,D*79
$GPRMC,185334.000,A,3748.7327,N,12217.7307,W,2.30,126.30,100413,,,D*7C
$GPRMC,185335.000,A,3748.7316,N,12217.7295,W,2.35,123.31,100413,,,D*74
$GPRMC,185336.000,A,3748.7308,N,12217.7282,W,2.33,122.70,100413,,,D*7C
$GPRMC,185337.000,A,3748.7298,N,12217.7272,W,2.13,143.92,100413,,,D*73
$GPRMC,185338.000,A,3748.7291,N,12217.7265,W,2.60,138.33,100413,,,D*70
$GPRMC,185339.000,A,3748.7286,N,12217.7259,W,2.33,127.01,100413,,,D*71
$GPRMC,185340.000,A,3748.7285,N,12217.7253,W,2.37,126.01,100413,,,D*73
$GPRMC,185341.000,A,3748.7284,N,12217.7250,W,1.99,126.92,100413,,,D*7D
$GPRMC,185342.000,A,3748.7279,N,12217.7242,W,2.48,125.99,100413,,,D*78
$GPRMC,185343.000,A,3748.7277,N,12217.7237,W,2.41,122.06,100413,,,D*7D
$GPRMC,185344.000,A,3748.7274,N,12217.7231,W,1.91,128.28,100413,,,D*77
$GPRMC,185345.000,A,3748.7274,N,12217.7227,W,1.79,122.70,100413,,,D*70
$GPRMC,185346.000,A,3748.7274,N,12217.7225,W,1.68,119.67,100413,,,D*7F
$GPRMC,185347.000,A,3748.7273,N,12217.7220,W,1.59,116.89,100413,,,D*71
$GPRMC,185348.000,A,3748.7275,N,12217.7217,W,1.56,114.35,100413,,,D*76
$GPRMC,185349.000,A,3748.7271,N,12217.7211,W,1.93,110.39,100413,,,D*74
$GPRMC,185350.000,A,3748.7269,N,12217.7204,W,1.98,110.47,100413,,,D*73
$GPRMC,185351.000,A,3748.7272,N,12217.7200,W,1.35,91.70,100413,,,D*47
$GPRMC,185352.000,A,3748.7274,N,12217.7195,W,1.66,94.15,100413,,,D*4D
$GPRMC,185353.000,A,3748.7276,N,12217.7190,W,1.83,88.91,100413,,,D*41
$GPRMC,185354.000,A,3748.7272,N,12217.7179,W,2.24,70.17,100413,,,D*42
$GPRMC,185355.000,A,3748.7273,N,12217.7169,W,1.89,46.65,100413,,,D*47
$GPRMC,185356.000,A,3748.7278,N,12217.7161,W,1.64,12.68,100413,,,D*48
$GPRMC,185357.000,A,3748.7286,N,12217.7159,W,1.83,16.44,100413,,,D*40
$GPRMC,185358.000,A,3748.7295,N,12217.7156,W,2.15,1.60,100413,,,D*7E
$GPRMC,185359.000,A,3748.7297,N,12217.7150,W,1.96,5.11,100413,,,D*71
$GPRMC,185400.000,A,3748.7306,N,12217.7146,W,1.98,19.20,100413,,,D*45
$GPRMC,185401.000,A,3748.7314,N,12217.7137,W,2.11,23.91,100413,,,D*40
$GPRMC,185402.000,A,3748.7324,N,12217.7127,W,2.36,21.47,100413,,,D*4D
$GPRMC,185403.000,A,3748.7331,N,12217.7119,W,2.34,17.51,100413,,,D*45
$GPRMC,185404.000,A,3748.7344,N,12217.7113,W,2.78,4.41,100413,,,D*71
$GPRMC,185405.000,A,3748.7353,N,12217.7109,W,2.80,1.75,100413,,,D*78
$GPRMC,185406.000,A,3748.7353,N,12217.7100,W,2.38,10.05,100413,,,D*46
$GPRMC,185407.000,A,3748.7359,N,12217.7098,W,1.80,20.70,100413,,,D*4C
$GPRMC,185408.000,A,3748.7356,N,12217.7091,W,1.78,37.89,100413,,,D*42
$GPRMC,185409.000,A,3748.7359,N,12217.7090,W,1.86,20.26,100413,,,D*4F
$GPRMC,185410.000,A,3748.7354,N,12217.7084,W,1.12,53.90,100413,,,D*4B
$GPRMC,185411.000,A,3748.7360,N,12217.7082,W,1.55,47.09,100413,,,D*4D
$GPRMC,185412.000,A,3748.7362,N,12217.7073,W,1.80,48.55,100413,,,D*4C
$GPRMC,185413.000,A,3748.7366,N,12217.7066,W,1.55,70.34,100413,,,D*49
$GPRMC,185414.000,A,3748.7373,N,12217.7061,W,1.37,16.78,100413,,,D*41
$GPRMC,185415.000,A,3748.7379,N,12217.7058,W,1.41,41.33,100413,,,D*4C
$GPRMC,185416.000,A,3748.7381,N,12217.7051,W,1.50,46.83,100413,,,D*4D
$GPRMC,185417.000,A,3748.7383,N,12217.7043,W,1.31,61.64,100413,,,D*46
$GPRMC,185418.000,A,3748.7387,N,12217.7036,W,1.39,67.48,100413,,,D*4F
$GPRMC,185419.000,A,3748.7388,N,12217.7024,W,1.88,50.32,100413,,,D*41
$GPRMC,185420.000,A,3748.7395,N,12217.7021,W,1.59,16.32,100413,,,D*4C
$GPRMC,185421.000,A,3748.7398,N,12217.7016,W,1.01,60.72,100413,,,D*4C
$GPRMC,185422.000,A,3748.7397,N,12217.7008,W,1.04,95.14,100413,,,D*40
$GPRMC,185423.000,A,3748.7397,N,12217.7003,W,0.77,89.52,100413,,,D*40
$GPRMC,185424.000,A,3748.7401,N,12217.6998,W,1.58,39.88,100413,,,D*45
$GPRMC,185425.000,A,3748.7407,N,12217.6992,W,1.68,36.39,100413,,,D*4E
$GPRMC,185426.000,A,3748.7411,N,12217.6986,W,1.23,3.28,100413,,,D*76
$GPRMC,185427.000,A,3748.7421,N,12217.6980,W,1.59,18.20,100413,,,D*4D
$GPRMC,185428.000,A,3748.7425,N,12217.6981,W,1.46,25.23,100413,,,D*44
$GPRMC,185429.000,A,3748.7429,N,12217.6975,W,1.31,32.43,100413,,,D*42
$GPRMC,185430.000,A,3748.7435,N,12217.6966,W,2.11,30.21,100413,,,D*42
$GPRMC,185431.000,A,3748.7444,N,12217.6960,W,1.65,21.95,100413,,,D*4C
$GPRMC,185432.000,A,3748.7449,N,12217.6954,W,1.43,5.81,100413,,,D*72
$GPRMC,185433.000,A,3748.7463,N,12217.6951,W,1.94,1.13,100413,,,D*7B
$GPRMC,185434.000,A,3748.7472,N,12217.6948,W,1.76,12.04,100413,,,D*4C
$GPRMC,185435.000,A,3748.7483,N,12217.6945,W,1.64,7.95,100413,,,D*71
$GPRMC,185436.000,A,3748.7488,N,12217.6939,W,1.73,20.30,100413,,,D*4E
$GPRMC,185437.000,A,3748.7496,N,12217.6934,W,2.00,356.42,100413,,,D*7D
$GPRMC,185438.000,A,3748.7501,N,12217.6928,W,1.52,350.84,100413,,,D*78
$GPRMC,185439.000,A,3748.7511,N,12217.6928,W,1.43,344.62,100413,,,D*75
$GPRMC,185440.000,A,3748.7523,N,12217.6925,W,1.98,6.39,100413,,,D*7A
$GPRMC,185441.000,A,3748.7534,N,12217.6921,W,1.95,11.23,100413,,,D*49
$GPRMC,185442.000,A,3748.7542,N,12217.6914,W,1.49,29.19,100413,,,D*4E
$GPRMC,185443.000,A,3748.7549,N,12217.6909,W,1.65,27.72,100413,,,D*45
$GPRMC,185444.000,A,3748.7554,N,12217.6903,W,2.03,15.32,100413,,,D*42
$GPRMC,185445.000,A,3748.7556,N,12217.6901,W,1.34,359.94,100413,,,D*73
$GPRMC,185446.000,A,3748.7559,N,12217.6900,W,1.33,45.43,100413,,,D*4D
$GPRMC,185447.000,A,3748.7561,N,12217.6895,W,1.24,61.46,100413,,,D*4F
$GPRMC,185448.000,A,3748.7565,N,12217.6887,W,1.56,42.24,100413,,,D*47
$GPRMC,185449.000,A,3748.7568,N,12217.6877,W,1.54,31.82,100413,,,D*4E
$GPRMC,185450.000,A,3748.7569,N,12217.6869,W,1.63,32.60,100413,,,D*43
$GPRMC,185451.000,A,3748.7581,N,12217.6866,W,1.96,34.64,100413,,,D*43
$GPRMC,185452.000,A,3748.7587,N,12217.6861,W,2.04,38.69,100413,,,D*48
$GPRMC,185453.000,A,3748.7595,N,12217.6859,W,1.46,40.70,100413,,,D*43
$GPRMC,185454.000,A,3748.7606,N,12217.6859,W,0.90,27.76,100413,,,D*40
$GPRMC,185455.000,A,3748.7608,N,12217.6857,W,1.40,21.31,100413,,,D*48
$GPRMC,185456.000,A,3748.7617,N,12217.6857,W,1.68,7.83,100413,,,D*72
$GPRMC,185457.000,A,3748.7626,N,12217.6854,W,0.98,26.06,100413,,,D*42
$GPRMC,185458.000,A,3748.7632,N,12217.6849,W,0.92,356.58,100413,,,D*71
$GPRMC,185459.000,A,3748.7633,N,12217.6840,W,1.08,21.49,100413,,,D*49
$GPRMC,185500.000,A,3748.7639,N,12217.6836,W,1.76,18.31,100413,,,D*43
$GPRMC,185501.000,A,3748.7649,N,12217.6836,W,2.20,356.49,100413,,,D*73
$GPRMC,185502.000,A,3748.7659,N,12217.6837,W,1.99,355.46,100413,,,D*7D
$GPRMC,185503.000,A,3748.7666,N,12217.6834,W,1.71,18.49,100413,,,D*40
$GPRMC,185504.000,A,3748.7673,N,12217.6831,W,2.26,11.27,100413,,,D*46
$GPRMC,185505.000,A,3748.7682,N,12217.6828,W,2.46,6.85,100413,,,D*79
$GPRMC,185506.000,A,3748.7690,N,12217.6822,W,2.16,17.05,100413,,,D*4E
$GPRMC,185507.000,A,3748.7699,N,12217.6818,W,1.95,14.40,100413,,,D*45
$GPRMC,185508.000,A,3748.7704,N,12217.6814,W,1.54,8.48,100413,,,D*7B
$GPRMC,185509.000,A,3748.7706,N,12217.6805,W,1.75,2.97,100413,,,D*73
$GPRMC,185510.000,A,3748.7706,N,12217.6795,W,1.61,11.62,100413,,,D*40
$GPRMC,185511.000,A,3748.7710,N,12217.6786,W,1.89,7.34,100413,,,D*76
$GPRMC,185512.000,A,3748.7713,N,12217.6778,W,1.13,36.16,100413,,,D*46
$GPRMC,185513.000,A,3748.7717,N,12217.6773,W,1.75,10.03,100413,,,D*48
$GPRMC,185514.000,A,3748.7720,N,12217.6766,W,1.91,1.79,100413,,,D*78
$GPRMC,185515.000,A,3748.7721,N,12217.6764,W,1.39,0.69,100413,,,D*78
$GPRMC,185516.000,A,3748.7726,N,12217.6765,W,1.65,20.11,100413,,,D*49
$GPRMC,185517.000,A,3748.7731,N,12217.6759,W,1.71,25.12,100413,,,D*42
$GPRMC,185518.000,A,3748.7736,N,12217.6752,W,1.17,52.17,100413,,,D*44
$GPRMC,185519.000,A,3748.7739,N,12217.6747,W,0.84,24.02,100413,,,D*40
$GPRMC,185520.000,A,3748.7739,N,12217.6739,W,1.11,28.55,100413,,,D*40
$GPRMC,185521.000,A,3748.7741,N,12217.6730,W,1.12,72.79,100413,,,D*45
$GPRMC,185522.000,A,3748.7740,N,12217.6717,W,1.39,97.93,100413,,,D*44
$GPRMC,185523.000,A,3748.7751,N,12217.6712,W,1.32,77.37,100413,,,D*4B
$GPRMC,185524.000,A,3748.7758,N,12217.6708,W,1.37,79.66,100413,,,D*41
$GPRMC,185525.000,A,3748.7765,N,12217.6703,W,1.19,76.70,100413,,,D*41
$GPRMC,185526.000,A,3748.7767,N,12217.6696,W,1.21,56.18,100413,,,D*4A
$GPRMC,185527.000,A,3748.7767,N,12217.6688,W,1.31,76.03,100413,,,D*4D
$GPRMC,185528.000,A,3748.7766,N,12217.6683,W,0.81,104.45,100413,,,D*74
$GPRMC,185529.000,A,3748.7771,N,12217.6684,W,0.47,112.13,100413,,,D*7A
$GPRMC,185530.000,A,3748.7782,N,12217.6687,W,0.70,67.09,100413,,,D*41
$GPRMC,185531.000,A,3748.7791,N,12217.6686,W,1.53,25.16,100413,,,D*4B
$GPRMC,185532.000,A,3748.7797,N,12217.6684,W,1.42,13.75,100413,,,D*4C
$GPRMC,185533.000,A,3748.7802,N,12217.6685,W,1.72,0.50,100413,,,D*79
$GPRMC,185534.000,A,3748.7809,N,12217.6683,W,1.99,13.94,100413,,,D*4C
$GPRMC,185535.000,A,3748.7809,N,12217.6673,W,2.63,35.93,100413,,,D*47
$GPRMC,185536.000,A,3748.7818,N,12217.6669,W,1.94,29.48,100413,,,D*4F
$GPRMC,185537.000,A,3748.7827,N,12217.6665,W,1.64,26.83,100413,,,D*49
$GPRMC,185538.000,A,3748.7834,N,12217.6664,W,1.63,18.60,100413,,,D*42
$GPRMC,185539.000,A,3748.7838,N,12217.6660,W,1.47,39.38,100413,,,D*43
$GPRMC,185540.000,A,3748.7844,N,12217.6657,W,1.27,18.50,100413,,,D*49
$GPRMC,185541.000,A,3748.7848,N,12217.6651,W,1.52,24.74,100413,,,D*49
$GPRMC,185542.000,A,3748.7855,N,12217.6645,W,1.65,21.05,100413,,,D*44
$GPRMC,185543.000,A,3748.7862,N,12217.6640,W,2.22,29.01,100413,,,D*48
$GPRMC,185544.000,A,3748.7870,N,12217.6634,W,2.20,29.08,100413,,,D*44
$GPRMC,185545.000,A,3748.7879,N,12217.6626,W,2.75,29.31,100413,,,D*45
$GPRMC,185546.000,A,3748.7890,N,12217.6622,W,2.11,34.64,100413,,,D*4B
$GPRMC,185547.000,A,3748.7900,N,12217.6620,W,1.16,34.76,100413,,,D*47
$GPRMC,185548.000,A,3748.7909,N,12217.6620,W,0.73,24.81,100413,,,D*4A
$GPRMC,185549.000,A,3748.7915,N,12217.6623,W,0.74,0.84,100413,,,D*71
$GPRMC,185550.000,A,3748.7918,N,12217.6625,W,1.31,24.82,100413,,,D*42
$GPRMC,185551.000,A,3748.7923,N,12217.6622,W,1.15,79.25,100413,,,D*4F
$GPRMC,185552.000,A,3748.7927,N,12217.6614,W,1.05,60.92,100413,,,D*48
$GPRMC,185553.000,A,3748.7934,N,12217.6605,W,1.30,56.07,100413,,,D*44
$GPRMC,185554.000,A,3748.7937,N,12217.6600,W,1.40,67.31,100413,,,D*45
$GPRMC,185555.000,A,3748.7939,N,12217.6594,W,1.39,70.54,100413,,,D*4F
$GPRMC,185556.000,A,3748.7942,N,12217.6592,W,1.43,44.73,100413,,,D*49
$GPRMC,185557.000,A,3748.7946,N,12217.6585,W,1.70,34.56,100413,,,D*4A
$GPRMC,185558.000,A,3748.7949,N,12217.6577,W,1.80,48.48,100413,,,D*4C
$GPRMC,185559.000,A,3748.7953,N,12217.6566,W,1.80,36.32,100413,,,D*42
$GPRMC,185600.000,A,3748.7957,N,12217.6559,W,1.76,22.94,100413,,,D*45
$GPRMC,185601.000,A,3748.7966,N,12217.6555,W,2.17,21.42,100413,,,D*46
$GPRMC,185602.000,A,3748.7971,N,12217.6547,W,1.90,42.40,100413,,,D*4B
$GPRMC,185603.000,A,3748.7980,N,12217.6540,W,2.03,48.56,100413,,,D*47
$GPRMC,185604.000,A,3748.7986,N,12217.6533,W,1.62,42.21,100413,,,D*4C
$GPRMC,185605.000,A,3748.7994,N,12217.6531,W,0.76,21.86,100413,,,D*40
$GPRMC,185606.000,A,3748.8000,N,12217.6531,W,1.21,4.67,100413,,,D*73
$GPRMC,185607.000,A,3748.8009,N,12217.6532,W,1.48,8.84,100413,,,D*76
$GPRMC,185608.000,A,3748.8016,N,12217.6527,W,1.84,29.48,100413,,,D*40
$GPRMC,185609.000,A,3748.8020,N,12217.6520,W,1.63,43.86,100413,,,D*44
$GPRMC,185610.000,A,3748.8024,N,12217.6514,W,1.91,69.92,100413,,,D*4F
$GPRMC,185611.000,A,3748.8027,N,12217.6509,W,2.15,64.66,100413,,,D*48
$GPRMC,185612.000,A,3748.8030,N,12217.6505,W,2.07,56.27,100413,,,D*46
$GPRMC,185613.000,A,3748.8034,N,12217.6500,W,1.68,59.22,100413,,,D*46
$GPRMC,185614.000,A,3748.8041,N,12217.6501,W,1.65,20.08,100413,,,D*49
$GPRMC,185615.000,A,3748.8050,N,12217.6504,W,1.76,18.07,100413,,,D*4B
$GPRMC,185616.000,A,3748.8058,N,12217.6501,W,2.59,18.99,100413,,,D*4C
$GPRMC,185617.000,A,3748.8064,N,12217.6497,W,2.06,355.10,100413,,,D*7D
$GPRMC,185618.000,A,3748.8073,N,12217.6499,W,1.88,353.37,100413,,,D*7C
$GPRMC,185619.000,A,3748.8079,N,12217.6496,W,2.53,13.65,100413,,,D*4D
$GPRMC,185620.000,A,3748.8084,N,12217.6487,W,2.20,19.11,100413,,,D*48
$GPRMC,185621.000,A,3748.8095,N,12217.6482,W,2.38,8.27,100413,,,D*70
$GPRMC,185622.000,A,3748.8107,N,12217.6481,W,2.64,6.54,100413,,,D*79
$GPRMC,185623.000,A,3748.8118,N,12217.6479,W,2.57,2.86,100413,,,D*7A
$GPRMC,185624.000,A,3748.8127,N,12217.6477,W,2.46,358.38,100413,,,D*76
$GPRMC,185625.000,A,3748.8136,N,12217.6476,W,2.57,351.16,100413,,,D*73
$GPRMC,185626.000,A,3748.8138,N,12217.6466,W,2.21,11.66,100413,,,D*4E
$GPRMC,185627.000,A,3748.8143,N,12217.6454,W,1.82,30.28,100413,,,D*41
$GPRMC,185628.000,A,3748.8143,N,12217.6442,W,1.35,37.38,100413,,,D*43
$GPRMC,185629.000,A,3748.8146,N,12217.6429,W,1.24,37.53,100413,,,D*47
$GPRMC,185630.000,A,3748.8150,N,12217.6423,W,1.34,19.28,100413,,,D*43
$GPRMC,185631.000,A,3748.8148,N,12217.6414,W,1.83,44.03,100413,,,D*42
$GPRMC,185632.000,A,3748.8147,N,12217.6404,W,1.36,41.34,100413,,,D*40
$GPRMC,185633.000,A,3748.8146,N,12217.6396,W,1.64,54.04,100413,,,D*4C
$GPRMC,185634.000,A,3748.8154,N,12217.6389,W,1.85,32.69,100413,,,D*42
$GPRMC,185635.000,A,3748.8160,N,12217.6384,W,1.71,31.01,100413,,,D*4F
$GPRMC,185636.000,A,3748.8167,N,12217.6379,W,1.87,18.57,100413,,,D*48
$GPRMC,185637.000,A,3748.8175,N,12217.6379,W,1.64,358.24,100413,,,D*74
$GPRMC,185638.000,A,3748.8179,N,12217.6379,W,1.51,357.63,100413,,,D*7D
$GPRMC,185639.000,A,3748.8183,N,12217.6378,W,1.78,0.64,100413,,,D*75
$GPRMC,185640.000,A,3748.8184,N,12217.6372,W,2.39,21.12,100413,,,D*42
$GPRMC,185641.000,A,3748.8187,N,12217.6362,W,2.69,17.50,100413,,,D*47
$GPRMC,185642.000,A,3748.8190,N,12217.6354,W,2.58,10.98,100413,,,D*46
$GPRMC,185643.000,A,3748.8189,N,12217.6345,W,1.92,14.02,100413,,,D*4D
$GPRMC,185644.000,A,3748.8198,N,12217.6337,W,1.61,34.88,100413,,,D*43
$GPRMC,185645.000,A,3748.8194,N,12217.6327,W,1.11,85.22,100413,,,D*42
$GPRMC,185646.000,A,3748.8189,N,12217.6320,W,1.19,122.97,100413,,,D*70
$GPRMC,185647.000,A,3748.8191,N,12217.6318,W,1.10,59.80,100413,,,D*41
$GPRMC,185648.000,A,3748.8187,N,12217.6309,W,1.24,60.68,100413,,,D*42
$GPRMC,185649.000,A,3748.8194,N,12217.6302,W,1.01,71.93,100413,,,D*49
$GPRMC,185650.000,A,3748.8199,N,12217.6299,W,1.45,37.43,100413,,,D*40
$GPRMC,185651.000,A,3748.8204,N,12217.6292,W,2.08,34.31,100413,,,D*41
$GPRMC,185652.000,A,3748.8214,N,12217.6291,W,1.50,36.71,100413,,,D*48
$GPRMC,185653.000,A,3748.8227,N,12217.6290,W,1.69,28.60,100413,,,D*4D
$GPRMC,185654.000,A,3748.8240,N,12217.6292,W,1.46,38.29,100413,,,D*48
$GPRMC,185655.000,A,3748.8253,N,12217.6289,W,1.69,41.43,100413,,,D*4E
$GPRMC,185656.000,A,3748.8261,N,12217.6287,W,1.97,47.33,100413,,,D*42
$GPRMC,185657.000,A,3748.8264,N,12217.6282,W,1.62,54.00,100413,,,D*4B
$GPRMC,185658.000,A,3748.8266,N,12217.6275,W,1.40,51.79,100413,,,D*45
$GPRMC,185659.000,A,3748.8264,N,12217.6267,W,1.07,85.85,100413,,,D*4C
$GPRMC,185700.000,A,3748.8268,N,12217.6262,W,1.09,84.19,100413,,,D*42
$GPRMC,185701.000,A,3748.8269,N,12217.6257,W,1.20,96.53,100413,,,D*42
$GPRMC,185702.000,A,3748.8271,N,12217.6251,W,1.58,116.61,100413,,,D*79
$GPRMC,185703.000,A,3748.8274,N,12217.6247,W,1.73,119.01,100413,,,D*7A
$GPRMC,185704.000,A,3748.8278,N,12217.6243,W,1.24,99.26,100413,,,D*4B
$GPRMC,185705.000,A,3748.8280,N,12217.6237,W,1.92,117.59,100413,,,D*7C
$GPRMC,185706.000,A,3748.8281,N,12217.6229,W,1.62,109.41,100413,,,D*78
$GPRMC,185707.000,A,3748.8285,N,12217.6222,W,1.45,103.12,100413,,,D*7F
$GPRMC,185708.000,A,3748.8287,N,12217.6215,W,1.61,111.53,100413,,,D*76
$GPRMC,185709.000,A,3748.8291,N,12217.6209,W,1.56,78.38,100413,,,D*4A
$GPRMC,185710.000,A,3748.8295,N,12217.6202,W,2.02,75.74,100413,,,D*4A
$GPRMC,185711.000,A,3748.8295,N,12217.6194,W,1.45,77.36,100413,,,D*43
$GPRMC,185712.000,A,3748.8298,N,12217.6187,W,1.32,83.55,100413,,,D*41
$GPRMC,185713.000,A,3748.8305,N,12217.6184,W,0.92,79.15,100413,,,D*4C
$GPRMC,185714.000,A,3748.8312,N,12217.6182,W,0.64,63.44,100413,,,D*4D
$GPRMC,185715.000,A,3748.8316,N,12217.6176,W,0.85,55.65,100413,,,D*4A
$GPRMC,185716.000,A,3748.8325,N,12217.6176,W,0.88,32.92,100413,,,D*4D
$GPRMC,185717.000,A,3748.8333,N,12217.6174,W,1.45,44.60,100413,,,D*45
$GPRMC,185718.000,A,3748.8340,N,12217.6171,W,1.19,49.59,100413,,,D*45
$GPRMC,185719.000,A,3748.8348,N,12217.6170,W,1.09,56.22,100413,,,D*4E
$GPRMC,185720.000,A,3748.8350,N,12217.6165,W,1.30,66.16,100413,,,D*47
$GPRMC,185721.000,A,3748.8352,N,12217.6162,W,1.24,75.16,100413,,,D*44
$GPRMC,185722.000,A,3748.8360,N,12217.6165,W,0.80,59.82,100413,,,D*4D
$GPRMC,185723.000,A,3748.8364,N,12217.6166,W,0.75,72.95,100413,,,D*4E
$GPRMC,185724.000,A,3748.8367,N,12217.6164,W,1.17,87.53,100413,,,D*4D
$GPRMC,185725.000,A,3748.8367,N,12217.6161,W,1.18,102.41,100413,,,D*79
$GPRMC,185726.000,A,3748.8369,N,12217.6158,W,1.48,95.75,100413,,,D*43
$GPRMC,185727.000,A,3748.8373,N,12217.6158,W,1.47,85.71,100413,,,D*43
$GPRMC,185728.000,A,3748.8372,N,12217.6155,W,1.57,103.03,100413,,,D*7B
$GPRMC,185729.000,A,3748.8369,N,12217.6149,W,2.48,111.72,100413,,,D*75
$GPRMC,185730.000,A,3748.8366,N,12217.6143,W,1.75,99.53,100413,,,D*47
$GPRMC,185731.000,A,3748.8365,N,12217.6138,W,1.20,68.84,100413,,,D*4D
$GPRMC,185732.000,A,3748.8368,N,12217.6139,W,1.91,94.12,100413,,,D*44
$GPRMC,185733.000,A,3748.8364,N,12217.6134,W,1.82,110.32,100413,,,D*79
$GPRMC,185734.000,A,3748.8360,N,12217.6127,W,1.92,100.63,100413,,,D*7C
$GPRMC,185735.000,A,3748.8357,N,12217.6121,W,1.48,104.65,100413,,,D*7A
$GPRMC,185736.000,A,3748.8356,N,12217.6118,W,1.42,106.93,100413,,,D*73
$GPRMC,185737.000,A,3748.8353,N,12217.6116,W,1.30,134.37,100413,,,D*73
$GPRMC,185738.000,A,3748.8350,N,12217.6114,W,1.68,123.14,100413,,,A*72
$GPRMC,185739.000,A,3748.8346,N,12217.6110,W,1.58,127.41,100413,,,A*77
$GPRMC,185740.000,A,3748.8344,N,12217.6106,W,1.88,116.81,100413,,,A*7F
$GPRMC,185741.000,A,3748.8346,N,12217.6100,W,2.27,107.01,100413,,,A*74
$GPRMC,185742.000,A,3748.8349,N,12217.6093,W,2.06,104.61,100413,,,A*75
$GPRMC,185743.000,A,3748.8347,N,12217.6086,W,1.82,110.33,100413,,,A*73
$GPRMC,185744.000,A,3748.8343,N,12217.6079,W,2.08,108.15,100413,,,D*79
$GPRMC,185745.000,A,3748.8338,N,12217.6067,W,1.96,124.77,100413,,,D*75
$GPRMC,185746.000,A,3748.8332,N,12217.6057,W,1.81,146.12,100413,,,D*7E
$GPRMC,185747.000,A,3748.8332,N,12217.6046,W,1.96,144.12,100413,,,D*7B
$GPRMC,185748.000,A,3748.8327,N,12217.6036,W,1.76,127.61,100413,,,D*78
$GPRMC,185749.000,A,3748.8324,N,12217.6027,W,2.01,129.59,100413,,,D*7C
$GPRMC,185750.000,A,3748.8323,N,12217.6024,W,1.79,123.79,100413,,,D*74
$GPRMC,185751.000,A,3748.8318,N,12217.6021,W,1.92,129.51,100413,,,D*7D
$GPRMC,185752.000,A,3748.8310,N,12217.6017,W,1.73,125.76,100413,,,D*75
$GPRMC,185753.000,A,3748.8305,N,12217.6016,W,1.81,136.80,100413,,,D*77
$GPRMC,185754.000,A,3748.8294,N,12217.6011,W,2.33,119.77,100413,,,D*71
$GPRMC,185755.000,A,3748.8291,N,12217.6005,W,0.91,122.02,100413,,,D*70
$GPRMC,185756.000,A,3748.8288,N,12217.6001,W,1.51,132.79,100413,,,D*7F
$GPRMC,185757.000,A,3748.8279,N,12217.5994,W,1.48,131.42,100413,,,D*75
$GPRMC,185758.000,A,3748.8273,N,12217.5987,W,0.78,113.43,100413,,,D*71
$GPRMC,185759.000,A,3748.8272,N,12217.5985,W,1.03,127.59,100413,,,D*72
$GPRMC,185800.000,A,3748.8260,N,12217.5975,W,1.26,132.74,100413,,,D*71
$GPRMC,185801.000,A,3748.8249,N,12217.5962,W,1.43,117.32,100413,,,D*7B
$GPRMC,185802.000,A,3748.8238,N,12217.5948,W,1.95,125.45,100413,,,D*7C
$GPRMC,185803.000,A,3748.8225,N,12217.5932,W,2.85,130.14,100413,,,D*7E
$GPRMC,185804.000,A,3748.8227,N,12217.5932,W,2.29,124.61,100413,,,D*7A
$GPRMC,185805.000,A,3748.8226,N,12217.5929,W,2.35,122.77,100413,,,D*7C
$GPRMC,185806.000,A,3748.8223,N,12217.5922,W,2.27,124.34,100413,,,D*73
$GPRMC,185807.000,A,3748.8219,N,12217.5912,W,2.28,115.46,100413,,,D*70
$GPRMC,185808.000,A,3748.8220,N,12217.5908,W,1.93,120.69,100413,,,D*76
$GPRMC,185809.000,A,3748.8217,N,12217.5903,W,1.81,106.65,100413,,,D*73
$GPRMC,185810.000,A,3748.8216,N,12217.5899,W,1.43,111.98,100413,,,D*72
$GPRMC,185811.000,A,3748.8213,N,12217.5891,W,1.94,118.68,100413,,,D*72
$GPRMC,185812.000,A,3748.8211,N,12217.5884,W,1.79,115.14,100413,,,D*72
$GPRMC,185813.000,A,3748.8208,N,12217.5877,W,1.87,111.14,100413,,,D*72
$GPRMC,185814.000,A,3748.8205,N,12217.5869,W,1.87,111.71,100413,,,D*74
$GPRMC,185815.000,A,3748.8202,N,12217.5860,W,1.81,109.22,100413,,,D*72
$GPRMC,185816.000,A,3748.8195,N,12217.5850,W,1.83,111.69,100413,,,D*7B
$GPRMC,185817.000,A,3748.8192,N,12217.5846,W,1.74,107.92,100413,,,D*71
$GPRMC,185818.000,A,3748.8193,N,12217.5842,W,1.46,100.53,100413,,,D*70
$GPRMC,185819.000,A,3748.8194,N,12217.5837,W,1.11,75.66,100413,,,D*43
$GPRMC,185820.000,A,3748.8198,N,12217.5834,W,1.60,86.28,100413,,,D*46
$GPRMC,185821.000,A,3748.8196,N,12217.5827,W,1.71,96.28,100413,,,D*4A
$GPRMC,185822.000,A,3748.8195,N,12217.5818,W,1.22,110.35,100413,,,D*73
$GPRMC,185823.000,A,3748.8194,N,12217.5813,W,1.00,107.80,100413,,,D*70
$GPRMC,185824.000,A,3748.8196,N,12217.5810,W,1.12,98.39,100413,,,D*40
$GPRMC,185825.000,A,3748.8192,N,12217.5802,W,1.61,115.20,100413,,,D*7E
$GPRMC,185826.000,A,3748.8187,N,12217.5795,W,1.24,102.16,100413,,,D*7A
$GPRMC,185827.000,A,3748.8182,N,12217.5790,W,1.12,97.21,100413,,,D*47
$GPRMC,185828.000,A,3748.8177,N,12217.5787,W,0.85,79.40,100413,,,D*4C
$GPRMC,185829.000,A,3748.8177,N,12217.5786,W,0.77,82.70,100413,,,D*46
$GPRMC,185830.000,A,3748.8173,N,12217.5778,W,1.70,117.72,100413,,,D*72
$GPRMC,185831.000,A,3748.8167,N,12217.5772,W,0.71,160.71,100413,,,D*7F
$GPRMC,185832.000,A,3748.8163,N,12217.5763,W,1.32,158.15,100413,,,D*77
$GPRMC,185833.000,A,3748.8161,N,12217.5760,W,0.51,103.86,100413,,,D*77
$GPRMC,185834.000,A,3748.8159,N,12217.5751,W,1.26,88.86,100413,,,D*4A
$GPRMC,185835.000,A,3748.8154,N,12217.5739,W,1.18,98.08,100413,,,D*42
$GPRMC,185836.000,A,3748.8150,N,12217.5729,W,1.92,121.39,100413,,,D*77
$GPRMC,185837.000,A,3748.8145,N,12217.5719,W,0.70,104.83,100413,,,D*7A
$GPRMC,185838.000,A,3748.8142,N,12217.5711,W,0.27,85.55,100413,,,D*4B
$GPRMC,185839.000,A,3748.8138,N,12217.5704,W,0.94,112.61,100413,,,D*73
$GPRMC,185838.000,A,3748.8136,N,12217.5699,W,0.34,58.81,100413,,,D*42
$GPRMC,185839.000,A,3748.8137,N,12217.5699,W,0.44,45.10,100413,,,D*41
$GPRMC,185840.000,A,3748.8135,N,12217.5696,W,0.80,79.65,100413,,,D*47
$GPRMC,185841.000,A,3748.8133,N,12217.5691,W,1.08,81.71,100413,,,D*44
$GPRMC,185842.000,A,3748.8130,N,12217.5683,W,1.11,98.90,100413,,,D*48
$GPRMC,185843.000,A,3748.8126,N,12217.5674,W,1.12,116.19,100413,,,D*73
$GPRMC,185844.000,A,3748.8123,N,12217.5668,W,1.22,146.40,100413,,,D*76
$GPRMC,185845.000,A,3748.8120,N,12217.5660,W,1.03,134.11,100413,,,D*7E
$GPRMC,185846.000,A,3748.8115,N,12217.5655,W,1.34,148.81,100413,,,D*7B
$GPRMC,185847.000,A,3748.8112,N,12217.5649,W,1.68,146.96,100413,,,D*71
$GPRMC,185848.000,A,3748.8104,N,12217.5647,W,1.61,144.35,100413,,,D*75
$GPRMC,185849.000,A,3748.8111,N,12217.5634,W,1.39,76.77,100413,,,D*4F
$GPRMC,185850.000,A,3748.8112,N,12217.5628,W,0.99,58.25,100413,,,D*49
$GPRMC,185851.000,A,3748.8110,N,12217.5619,W,0.81,50.30,100413,,,D*4D
$GPRMC,185852.000,A,3748.8106,N,12217.5613,W,1.47,102.81,100413,,,D*74
$GPRMC,185853.000,A,3748.8101,N,12217.5606,W,1.43,104.01,100413,,,D*7C
$GPRMC,185854.000,A,3748.8098,N,12217.5600,W,0.89,127.61,100413,,,A*79
$GPRMC,185855.000,A,3748.8092,N,12217.5596,W,0.94,126.05,100413,,,A*71
$GPRMC,185856.000,A,3748.8087,N,12217.5589,W,1.74,132.59,100413,,,A*7B
$GPRMC,185857.000,A,3748.8083,N,12217.5583,W,2.00,126.13,100413,,,A*7F
$GPRMC,185858.000,A,3748.8076,N,12217.5572,W,1.54,108.84,100413,,,A*74
$GPRMC,185859.000,A,3748.8068,N,12217.5563,W,1.00,105.59,100413,,,A*76
$GPRMC,185900.000,A,3748.8056,N,12217.5558,W,1.47,165.06,100413,,,A*71
$GPRMC,185901.000,A,3748.8055,N,12217.5550,W,1.19,149.87,100413,,,A*77
$GPRMC,185902.000,A,3748.8052,N,12217.5543,W,0.98,161.12,100413,,,A*7F
$GPRMC,185903.000,A,3748.8039,N,12217.5538,W,1.62,197.83,100413,,,A*7A
$GPRMC,185904.000,A,3748.8031,N,12217.5530,W,1.76,185.68,100413,,,A*7E
$GPRMC,185905.000,A,3748.8025,N,12217.5526,W,1.48,207.55,100413,,,A*77
$GPRMC,185906.000,A,3748.8021,N,12217.5522,W,1.47,213.51,100413,,,A*7A
$GPRMC,185907.000,A,3748.8015,N,12217.5524,W,1.37,220.47,100413,,,A*7A
$GPRMC,185908.000,A,3748.8011,N,12217.5528,W,1.73,214.42,100413,,,A*7F
$GPRMC,185909.000,A,3748.8006,N,12217.5533,W,1.82,213.45,100413,,,A*7C
$GPRMC,185910.000,A,3748.7997,N,12217.5533,W,1.60,211.33,100413,,,A*75
$GPRMC,185911.000,A,3748.7991,N,12217.5538,W,1.59,214.74,100413,,,A*75
$GPRMC,185912.000,A,3748.7983,N,12217.5542,W,1.71,202.02,100413,,,A*74
$GPRMC,185913.000,A,3748.7976,N,12217.5537,W,1.68,209.12,100413,,,A*7F
$GPRMC,185914.000,A,3748.7963,N,12217.5543,W,1.80,206.00,100413,,,A*75
$GPRMC,185915.000,A,3748.7949,N,12217.5546,W,1.94,193.70,100413,,,A*74
$GPRMC,185916.000,A,3748.7942,N,12217.5548,W,1.82,202.56,100413,,,A*7A
$GPRMC,185917.000,A,3748.7937,N,12217.5549,W,1.92,201.56,100413,,,D*7F
$GPRMC,185918.000,A,3748.7934,N,12217.5551,W,1.82,202.69,100413,,,D*74
$GPRMC,185919.000,A,3748.7931,N,12217.5554,W,1.62,204.97,100413,,,D*7C
$GPRMC,185920.000,A,3748.7927,N,12217.5559,W,1.95,213.13,100413,,,D*7E
$GPRMC,185921.000,A,3748.7924,N,12217.5570,W,1.89,234.03,100413,,,D*7E
$GPRMC,185922.000,A,3748.7918,N,12217.5579,W,1.94,222.07,100413,,,D*74
$GPRMC,185923.000,A,3748.7916,N,12217.5585,W,1.78,222.61,100413,,,D*7A
$GPRMC,185924.000,A,3748.7909,N,12217.5591,W,2.37,217.73,100413,,,D*7B
$GPRMC,185925.000,A,3748.7910,N,12217.5594,W,1.97,213.66,100413,,,D*7E
$GPRMC,185926.000,A,3748.7906,N,12217.5595,W,1.57,213.66,100413,,,D*77
$GPRMC,185927.000,A,3748.7897,N,12217.5598,W,1.69,226.12,100413,,,D*7A
$GPRMC,185928.000,A,3748.7887,N,12217.5600,W,1.60,232.25,100413,,,D*7E
$GPRMC,185929.000,A,3748.7880,N,12217.5609,W,2.06,233.09,100413,,,D*7D
$GPRMC,185930.000,A,3748.7874,N,12217.5617,W,2.11,227.35,100413,,,D*7D
$GPRMC,185931.000,A,3748.7871,N,12217.5622,W,2.14,228.39,100413,,,D*79
$GPRMC,185932.000,A,3748.7866,N,12217.5623,W,1.84,211.65,100413,,,D*74
$GPRMC,185933.000,A,3748.7863,N,12217.5624,W,2.12,218.60,100413,,,D*77
$GPRMC,185934.000,A,3748.7856,N,12217.5627,W,2.19,213.98,100413,,,D*72
$GPRMC,185935.000,A,3748.7850,N,12217.5631,W,2.50,213.06,100413,,,D*78
$GPRMC,185936.000,A,3748.7847,N,12217.5641,W,2.07,217.22,100413,,,D*7A
$GPRMC,185937.000,A,3748.7838,N,12217.5644,W,2.30,210.92,100413,,,D*7E
$GPRMC,185938.000,A,3748.7823,N,12217.5645,W,2.57,214.02,100413,,,D*76
$GPRMC,185939.000,A,3748.7811,N,12217.5648,W,2.45,213.03,100413,,,D*7E
$GPRMC,185940.000,A,3748.7803,N,12217.5647,W,2.35,205.62,100413,,,D*7B
$GPRMC,185941.000,A,3748.7792,N,12217.5657,W,2.74,208.02,100413,,,D*72
$GPRMC,185942.000,A,3748.7784,N,12217.5660,W,2.60,208.93,100413,,,D*7F
$GPRMC,185943.000,A,3748.7774,N,12217.5661,W,2.45,203.93,100413,,,D*7C
$GPRMC,185944.000,A,3748.7768,N,12217.5665,W,2.22,213.22,100413,,,D*78
$GPRMC,185945.000,A,3748.7764,N,12217.5667,W,2.17,212.97,100413,,,D*7E
$GPRMC,185946.000,A,3748.7764,N,12217.5672,W,2.12,215.99,100413,,,D*75
$GPRMC,185947.000,A,3748.7760,N,12217.5678,W,2.16,213.23,100413,,,D*79
$GPRMC,185948.000,A,3748.7757,N,12217.5684,W,2.19,215.19,100413,,,D*71
$GPRMC,185949.000,A,3748.7756,N,12217.5684,W,1.99,213.97,100413,,,D*7A
$GPRMC,185950.000,A,3748.7752,N,12217.5688,W,2.03,211.53,100413,,,D*70
$GPRMC,185951.000,A,3748.7745,N,12217.5693,W,2.15,217.96,100413,,,D*75
$GPRMC,185952.000,A,3748.7742,N,12217.5700,W,2.31,216.72,100413,,,D*77
$GPRMC,185953.000,A,3748.7736,N,12217.5704,W,2.25,209.07,100413,,,D*78
$GPRMC,185954.000,A,3748.7731,N,12217.5707,W,1.81,202.17,100413,,,D*7C
$GPRMC,185955.000,A,3748.7725,N,12217.5713,W,1.82,219.39,100413,,,D*78
$GPRMC,185956.000,A,3748.7723,N,12217.5720,W,1.81,206.93,100413,,,D*70
$GPRMC,185957.000,A,3748.7714,N,12217.5721,W,2.02,212.28,100413,,,D*79
$GPRMC,185958.000,A,3748.7710,N,12217.5732,W,2.18,226.38,100413,,,D*7D
$GPRMC,185959.000,A,3748.7709,N,12217.5739,W,1.96,234.91,100413,,,D*7A
$GPRMC,190000.000,A,3748.7708,N,12217.5747,W,1.87,236.16,100413,,,D*7E
$GPRMC,190001.000,A,3748.7706,N,12217.5753,W,1.76,236.99,100413,,,D*7D
$GPRMC,190002.000,A,3748.7702,N,12217.5759,W,2.11,226.28,100413,,,D*79
$GPRMC,190003.000,A,3748.7698,N,12217.5764,W,2.26,208.18,100413,,,D*7F
$GPRMC,190004.000,A,3748.7692,N,12217.5768,W,2.41,202.53,100413,,,D*7A
$GPRMC,190005.000,A,3748.7686,N,12217.5772,W,2.23,209.66,100413,,,D*7C
$GPRMC,190006.000,A,3748.7681,N,12217.5777,W,2.14,209.81,100413,,,D*70
$GPRMC,190007.000,A,3748.7676,N,12217.5781,W,2.14,207.53,100413,,,D*71
$GPRMC,190008.000,A,3748.7670,N,12217.5785,W,2.30,206.33,100413,,,D*7D
$GPRMC,190009.000,A,3748.7665,N,12217.5789,W,2.24,203.65,100413,,,D*77
$GPRMC,190010.000,A,3748.7659,N,12217.5793,W,2.17,205.37,100413,,,D*7A
$GPRMC,190011.000,A,3748.7653,N,12217.5796,W,2.19,201.45,100413,,,D*7B
$GPRMC,190012.000,A,3748.7647,N,12217.5800,W,2.29,205.65,100413,,,D*78
$GPRMC,190013.000,A,3748.7642,N,12217.5803,W,2.33,200.61,100413,,,D*75
$GPRMC,190014.000,A,3748.7635,N,12217.5807,W,2.48,204.24,100413,,,D*7F
$GPRMC,190015.000,A,3748.7629,N,12217.5811,W,2.30,205.11,100413,,,D*7C
$GPRMC,190016.000,A,3748.7623,N,12217.5815,W,2.25,210.01,100413,,,D*70
$GPRMC,190017.000,A,3748.7618,N,12217.5820,W,2.31,213.35,100413,,,D*7E
$GPRMC,190018.000,A,3748.7612,N,12217.5825,W,2.31,220.06,100413,,,D*7E
$GPRMC,190019.000,A,3748.7606,N,12217.5831,W,2.27,219.64,100413,,,D*76
$GPRMC,190020.000,A,3748.7601,N,12217.5836,W,2.16,208.34,100413,,,D*7B
$GPRMC,190021.000,A,3748.7595,N,12217.5841,W,2.48,208.86,100413,,,D*76
$GPRMC,190022.000,A,3748.7589,N,12217.5845,W,2.28,207.74,100413,,,D*78
$GPRMC,190023.000,A,3748.7583,N,12217.5850,W,2.49,209.38,100413,,,D*76
$GPRMC,190024.000,A,3748.7577,N,12217.5854,W,2.41,207.23,100413,,,D*72
$GPRMC,190025.000,A,3748.7571,N,12217.5859,W,2.25,206.68,100413,,,D*74
$GPRMC,190026.000,A,3748.7566,N,12217.5862,W,2.26,203.40,100413,,,D*75
$GPRMC,190027.000,A,3748.7560,N,12217.5866,W,2.30,207.53,100413,,,D*77
$GPRMC,190028.000,A,3748.7557,N,12217.5869,W,2.18,217.23,100413,,,D*7F
$GPRMC,190029.000,A,3748.7549,N,12217.5876,W,2.23,216.83,100413,,,D*7C
$GPRMC,190030.000,A,3748.7540,N,12217.5886,W,2.25,213.98,100413,,,D*7B
$GPRMC,190031.000,A,3748.7535,N,12217.5891,W,2.12,208.94,100413,,,D*7C
$GPRMC,190032.000,A,3748.7526,N,12217.5892,W,1.94,206.49,100413,,,D*7D
$GPRMC,190033.000,A,3748.7519,N,12217.5896,W,2.01,201.55,100413,,,D*71
$GPRMC,190034.000,A,3748.7508,N,12217.5901,W,2.20,205.81,100413,,,D*77
$GPRMC,190035.000,A,3748.7494,N,12217.5904,W,2.35,209.69,100413,,,D*79
$GPRMC,190036.000,A,3748.7485,N,12217.5908,W,2.40,208.29,100413,,,D*71
$GPRMC,190037.000,A,3748.7476,N,12217.5912,W,2.46,203.68,100413,,,D*7F
$GPRMC,190038.000,A,3748.7464,N,12217.5915,W,2.49,196.93,100413,,,D*70
$GPRMC,190039.000,A,3748.7453,N,12217.5916,W,2.78,188.94,100413,,,D*7C
$GPRMC,190040.000,A,3748.7445,N,12217.5914,W,2.72,189.28,100413,,,D*7B
$GPRMC,190041.000,A,3748.7435,N,12217.5918,W,2.69,210.34,100413,,,D*75
$GPRMC,190042.000,A,3748.7418,N,12217.5917,W,3.00,207.50,100413,,,D*7C
$GPRMC,190043.000,A,3748.7420,N,12217.5922,W,2.41,212.30,100413,,,D*76
$GPRMC,190044.000,A,3748.7417,N,12217.5931,W,2.52,210.91,100413,,,D*7C
$GPRMC,190045.000,A,3748.7417,N,12217.5937,W,2.40,205.36,100413,,,D*71
$GPRMC,190046.000,A,3748.7415,N,12217.5944,W,2.52,214.58,100413,,,D*7F
$GPRMC,190047.000,A,3748.7412,N,12217.5949,W,2.30,210.62,100413,,,D*7D
$GPRMC,190048.000,A,3748.7410,N,12217.5956,W,2.17,213.77,100413,,,D*7C
$GPRMC,190049.000,A,3748.7405,N,12217.5960,W,2.03,211.65,100413,,,D*78
$GPRMC,190050.000,A,3748.7399,N,12217.5963,W,2.16,204.65,100413,,,D*71
$GPRMC,190051.000,A,3748.7390,N,12217.5964,W,2.11,219.74,100413,,,D*75
$GPRMC,190052.000,A,3748.7385,N,12217.5969,W,2.23,205.29,100413,,,D*7B
$GPRMC,190053.000,A,3748.7377,N,12217.5976,W,2.29,195.58,100413,,,D*7F
$GPRMC,190054.000,A,3748.7369,N,12217.5985,W,2.33,205.00,100413,,,D*77
$GPRMC,190055.000,A,3748.7365,N,12217.5994,W,1.97,219.83,100413,,,D*71
$GPRMC,190056.000,A,3748.7364,N,12217.6001,W,2.28,216.31,100413,,,D*74
$GPRMC,190057.000,A,3748.7362,N,12217.6009,W,2.33,211.88,100413,,,D*74
$GPRMC,190058.000,A,3748.7359,N,12217.6016,W,2.57,210.47,100413,,,D*7D
$GPRMC,190059.000,A,3748.7355,N,12217.6022,W,2.46,212.86,100413,,,D*78
$GPRMC,190100.000,A,3748.7352,N,12217.6028,W,2.02,208.53,100413,,,D*7B
$GPRMC,190101.000,A,3748.7348,N,12217.6034,W,2.16,205.04,100413,,,D*76
$GPRMC,190102.000,A,3748.7343,N,12217.6037,W,1.96,193.59,100413,,,D*72
$GPRMC,190103.000,A,3748.7339,N,12217.6038,W,1.93,195.47,100413,,,D*7D
$GPRMC,190104.000,A,3748.7334,N,12217.6041,W,1.90,221.76,100413,,,D*74
$GPRMC,190105.000,A,3748.7331,N,12217.6047,W,2.30,223.34,100413,,,D*7B
$GPRMC,190106.000,A,3748.7328,N,12217.6053,W,2.06,214.48,100413,,,D*7F
$GPRMC,190107.000,A,3748.7326,N,12217.6051,W,2.07,206.02,100413,,,D*7E
$GPRMC,190108.000,A,3748.7322,N,12217.6053,W,2.17,207.08,100413,,,D*7D
$GPRMC,190109.000,A,3748.7316,N,12217.6058,W,2.09,212.16,100413,,,D*74
$GPRMC,190110.000,A,3748.7309,N,12217.6064,W,1.97,217.37,100413,,,D*7F
$GPRMC,190111.000,A,3748.7304,N,12217.6070,W,2.01,207.52,100413,,,D*78
$GPRMC,190112.000,A,3748.7300,N,12217.6077,W,2.01,210.74,100413,,,D*7A
$GPRMC,190113.000,A,3748.7294,N,12217.6086,W,2.08,220.44,100413,,,D*70
$GPRMC,190114.000,A,3748.7287,N,12217.6093,W,2.20,205.70,100413,,,D*7B
$GPRMC,190115.000,A,3748.7282,N,12217.6097,W,2.17,209.27,100413,,,D*71
$GPRMC,190116.000,A,3748.7277,N,12217.6100,W,2.09,211.24,100413,,,D*72
$GPRMC,190117.000,A,3748.7272,N,12217.6104,W,2.06,208.97,100413,,,D*7D
$GPRMC,190118.000,A,3748.7267,N,12217.6106,W,2.17,202.61,100413,,,D*77
$GPRMC,190119.000,A,3748.7261,N,12217.6110,W,2.58,204.15,100413,,,D*79
$GPRMC,190120.000,A,3748.7254,N,12217.6116,W,2.49,206.74,100413,,,D*76
$GPRMC,190121.000,A,3748.7248,N,12217.6121,W,2.30,197.29,100413,,,D*73
$GPRMC,190122.000,A,3748.7243,N,12217.6124,W,2.15,197.95,100413,,,D*7E
$GPRMC,190123.000,A,3748.7234,N,12217.6132,W,2.14,204.74,100413,,,D*7F
$GPRMC,190124.000,A,3748.7228,N,12217.6138,W,2.11,210.48,100413,,,D*70
$GPRMC,190125.000,A,3748.7219,N,12217.6147,W,2.26,209.12,100413,,,D*78
$GPRMC,190126.000,A,3748.7213,N,12217.6153,W,2.11,210.61,100413,,,D*7C
$GPRMC,190127.000,A,3748.7205,N,12217.6163,W,2.20,204.13,100413,,,D*7B
$GPRMC,190128.000,A,3748.7196,N,12217.6172,W,2.40,207.32,100413,,,D*7B
$GPRMC,190129.000,A,3748.7196,N,12217.6170,W,1.85,197.84,100413,,,D*75
$GPRMC,190130.000,A,3748.7189,N,12217.6177,W,2.15,201.78,100413,,,D*71
$GPRMC,190131.000,A,3748.7184,N,12217.6183,W,2.21,213.66,100413,,,D*7D
$GPRMC,190132.000,A,3748.7180,N,12217.6188,W,2.11,207.24,100413,,,D*71
$GPRMC,190133.000,A,3748.7176,N,12217.6192,W,2.18,199.50,100413,,,D*7C
$GPRMC,190134.000,A,3748.7171,N,12217.6197,W,2.15,202.96,100413,,,D*7F
$GPRMC,190135.000,A,3748.7166,N,12217.6202,W,2.12,202.99,100413,,,D*7F
$GPRMC,190136.000,A,3748.7158,N,12217.6211,W,2.22,206.79,100413,,,D*7A
$GPRMC,190137.000,A,3748.7152,N,12217.6214,W,2.41,211.05,100413,,,D*7C
$GPRMC,190138.000,A,3748.7148,N,12217.6217,W,2.16,207.81,100413,,,D*72
$GPRMC,190139.000,A,3748.7143,N,12217.6219,W,2.16,206.69,100413,,,D*71
$GPRMC,190140.000,A,3748.7137,N,12217.6224,W,2.17,212.54,100413,,,D*78
$GPRMC,190141.000,A,3748.7132,N,12217.6226,W,2.06,193.64,100413,,,D*77
$GPRMC,190142.000,A,3748.7127,N,12217.6227,W,2.13,202.69,100413,,,D*73
$GPRMC,190143.000,A,3748.7122,N,12217.6230,W,2.07,208.18,100413,,,D*78
$GPRMC,190144.000,A,3748.7111,N,12217.6239,W,2.19,215.78,100413,,,D*73
$GPRMC,190145.000,A,3748.7105,N,12217.6245,W,2.00,215.28,100413,,,D*71
$GPRMC,190146.000,A,3748.7096,N,12217.6255,W,2.33,207.14,100413,,,D*74
$GPRMC,190147.000,A,3748.7091,N,12217.6258,W,2.29,211.19,100413,,,D*7E
$GPRMC,190148.000,A,3748.7085,N,12217.6263,W,2.10,202.66,100413,,,D*7C
$GPRMC,190149.000,A,3748.7079,N,12217.6269,W,2.17,208.87,100413,,,D*76
$GPRMC,190150.000,A,3748.7071,N,12217.6278,W,2.40,213.39,100413,,,D*7B
$GPRMC,190151.000,A,3748.7066,N,12217.6283,W,2.39,218.38,100413,,,D*7C
$GPRMC,190152.000,A,3748.7061,N,12217.6288,W,2.39,216.32,100413,,,D*77
$GPRMC,190153.000,A,3748.7059,N,12217.6289,W,2.22,217.03,100413,,,D*75
$GPRMC,190154.000,A,3748.7053,N,12217.6296,W,2.46,209.84,100413,,,D*74
$GPRMC,190155.000,A,3748.7048,N,12217.6300,W,2.28,212.71,100413,,,D*79
$GPRMC,190156.000,A,3748.7041,N,12217.6306,W,2.44,207.16,100413,,,D*7A
$GPRMC,190157.000,A,3748.7037,N,12217.6310,W,2.16,206.21,100413,,,D*7F
$GPRMC,190158.000,A,3748.7032,N,12217.6314,W,2.18,212.02,100413,,,D*7B
$GPRMC,190159.000,A,3748.7021,N,12217.6328,W,2.72,221.07,100413,,,D*7E
$GPRMC,190200.000,A,3748.7012,N,12217.6338,W,2.68,214.93,100413,,,D*70
$GPRMC,190201.000,A,3748.7007,N,12217.6342,W,2.55,207.37,100413,,,D*7A
$GPRMC,190202.000,A,3748.7000,N,12217.6347,W,2.58,207.01,100413,,,D*73
$GPRMC,190203.000,A,3748.6995,N,12217.6343,W,2.38,193.43,100413,,,D*7C
$GPRMC,190204.000,A,3748.6986,N,12217.6342,W,2.74,188.99,100413,,,D*7D
$GPRMC,190205.000,A,3748.6976,N,12217.6344,W,2.50,195.17,100413,,,D*79
$GPRMC,190206.000,A,3748.6970,N,12217.6346,W,2.38,205.98,100413,,,D*7D
$GPRMC,190207.000,A,3748.6961,N,12217.6349,W,2.24,214.11,100413,,,D*7F
$GPRMC,190208.000,A,3748.6958,N,12217.6352,W,1.98,217.95,100413,,,D*7B
$GPRMC,190209.000,A,3748.6950,N,12217.6362,W,2.10,205.53,100413,,,D*7B
$GPRMC,190210.000,A,3748.6942,N,12217.6371,W,2.42,205.41,100413,,,D*76
$GPRMC,190211.000,A,3748.6937,N,12217.6374,W,2.27,207.78,100413,,,D*7B
$GPRMC,190212.000,A,3748.6933,N,12217.6377,W,2.27,208.97,100413,,,D*71
$GPRMC,190213.000,A,3748.6928,N,12217.6382,W,2.44,217.89,100413,,,D*74
$GPRMC,190214.000,A,3748.6923,N,12217.6386,W,2.31,214.26,100413,,,D*78
$GPRMC,190215.000,A,3748.6918,N,12217.6390,W,2.30,216.06,100413,,,D*77
$GPRMC,190216.000,A,3748.6913,N,12217.6393,W,2.35,210.34,100413,,,D*7E
$GPRMC,190217.000,A,3748.6909,N,12217.6396,W,2.16,208.55,100413,,,D*7E
$GPRMC,190218.000,A,3748.6904,N,12217.6400,W,2.31,211.84,100413,,,D*75
$GPRMC,190219.000,A,3748.6899,N,12217.6405,W,2.41,210.37,100413,,,D*7A
$GPRMC,190220.000,A,3748.6893,N,12217.6409,W,2.35,210.09,100413,,,D*78
$GPRMC,190221.000,A,3748.6888,N,12217.6413,W,2.01,206.92,100413,,,D*7A
$GPRMC,190222.000,A,3748.6884,N,12217.6417,W,1.97,222.15,100413,,,D*74
$GPRMC,190223.000,A,3748.6881,N,12217.6421,W,1.88,214.73,100413,,,D*7E
$GPRMC,190224.000,A,3748.6877,N,12217.6424,W,1.88,217.79,100413,,,D*7C
$GPRMC,190225.000,A,3748.6874,N,12217.6428,W,1.66,225.26,100413,,,D*79
$GPRMC,190226.000,A,3748.6871,N,12217.6430,W,1.30,209.45,100413,,,D*7E
$GPRMC,190227.000,A,3748.6867,N,12217.6435,W,0.61,205.47,100413,,,D*76
$GPRMC,190228.000,A,3748.6865,N,12217.6435,W,0.12,196.48,100413,,,D*79
$GPRMC,190229.000,A,3748.6865,N,12217.6434,W,0.08,273.78,100413,,,D*79
$GPRMC,190230.000,A,3748.6865,N,12217.6434,W,0.05,281.33,100413,,,D*7E
$GPRMC,190231.000,A,3748.6867,N,12217.6433,W,0.18,48.29,100413,,,D*4A
$GPRMC,190232.000,A,3748.6868,N,12217.6432,W,0.15,168.89,100413,,,D*73
$GPRMC,190233.000,A,3748.6867,N,12217.6432,W,1.09,204.06,100413,,,D*7F
$GPRMC,190234.000,A,3748.6864,N,12217.6434,W,2.19,199.47,100413,,,D*7D
$GPRMC,190235.000,A,3748.6858,N,12217.6438,W,2.72,206.48,100413,,,D*78
$GPRMC,190236.000,A,3748.6852,N,12217.6441,W,2.48,200.22,100413,,,D*7C
$GPRMC,190237.000,A,3748.6846,N,12217.6444,W,2.30,198.59,100413,,,D*7C
$GPRMC,190238.000,A,3748.6841,N,12217.6447,W,2.23,203.09,100413,,,D*71
$GPRMC,190239.000,A,3748.6835,N,12217.6451,W,2.34,210.81,100413,,,D*70
$GPRMC,190240.000,A,3748.6830,N,12217.6453,W,2.22,198.91,100413,,,D*7C
$GPRMC,190241.000,A,3748.6825,N,12217.6456,W,2.13,204.66,100413,,,D*70
$GPRMC,190242.000,A,3748.6819,N,12217.6460,W,2.53,208.20,100413,,,D*73
$GPRMC,190243.000,A,3748.6814,N,12217.6465,W,2.29,218.47,100413,,,D*77
$GPRMC,190244.000,A,3748.6811,N,12217.6469,W,1.63,226.64,100413,,,D*78
