$ADVER,3080,2.3
$GPRMC,210123.095,A,3748.8150,N,12217.8759,W,0.12,8.86,250612,,,A*74
$GPRMC,210124.095,A,3748.8154,N,12217.8763,W,0.10,355.52,250612,,,A*7E
$GPRMC,210125.096,A,3748.8161,N,12217.8772,W,0.07,16.17,250612,,,A*49
$GPRMC,210126.000,A,3748.8167,N,12217.8780,W,0.13,311.21,250612,,,A*7A
$GPRMC,210127.000,A,3748.8175,N,12217.8789,W,0.11,327.73,250612,,,A*71
$GPRMC,210128.000,A,3748.8177,N,12217.8789,W,0.17,354.38,250612,,,A*71
$GPRMC,210129.000,A,3748.8174,N,12217.8785,W,0.14,0.31,250612,,,A*77
$GPRMC,210130.000,A,3748.8171,N,12217.8780,W,0.12,18.01,250612,,,A*43
$GPRMC,210131.000,A,3748.8166,N,12217.8774,W,0.08,16.32,250612,,,A*4A
$GPRMC,210132.000,A,3748.8157,N,12217.8761,W,0.12,343.19,250612,,,A*7E
$GPRMC,210133.000,A,3748.8148,N,12217.8750,W,0.34,65.60,250612,,,A*4E
$GPRMC,210134.000,A,3748.7998,N,12217.8657,W,0.44,64.16,250612,,,A*42
$GPRMC,210135.000,A,3748.7993,N,12217.8651,W,0.24,62.09,250612,,,A*40
$GPRMC,210136.000,A,3748.7992,N,12217.8651,W,0.10,130.89,250612,,,A*7B
$GPRMC,210137.000,A,3748.7991,N,12217.8650,W,0.36,264.94,250612,,,A*72
$GPRMC,210138.000,A,3748.7991,N,12217.8650,W,0.43,269.38,250612,,,A*74
$GPRMC,210139.000,A,3748.7991,N,12217.8649,W,0.17,55.19,250612,,,A*42
$GPRMC,210140.000,A,3748.7991,N,12217.8646,W,0.44,71.76,250612,,,A*4A
$GPRMC,210141.000,A,3748.7991,N,12217.8644,W,0.30,60.12,250612,,,A*48
$GPRMC,210142.000,A,3748.7991,N,12217.8645,W,0.42,63.94,250612,,,A*42
$GPRMC,210143.000,A,3748.7991,N,12217.8656,W,0.14,335.00,250612,,,A*7F
$GPRMC,210144.000,A,3748.7992,N,12217.8656,W,0.39,151.86,250612,,,A*7A
$GPRMC,210145.000,A,3748.7995,N,12217.8641,W,0.95,86.18,250612,,,A*40
$GPRMC,210146.000,A,3748.7997,N,12217.8632,W,0.30,73.29,250612,,,A*42
$GPRMC,210147.000,A,3748.8000,N,12217.8622,W,0.34,49.03,250612,,,A*4F
$GPRMC,210148.000,A,3748.8001,N,12217.8621,W,0.14,347.64,250612,,,A*7C
$GPRMC,210149.000,A,3748.8002,N,12217.8618,W,0.31,90.24,250612,,,A*4E
$GPRMC,210150.000,A,3748.8003,N,12217.8614,W,0.63,71.41,250612,,,A*40
$GPRMC,210151.000,A,3748.8003,N,12217.8620,W,0.31,57.47,250612,,,A*43
$GPRMC,210152.000,A,3748.7999,N,12217.8622,W,0.73,188.76,250612,,,A*70
$GPRMC,210153.000,A,3748.7999,N,12217.8615,W,0.27,147.26,250612,,,A*72
$GPRMC,210154.000,A,3748.8002,N,12217.8606,W,0.09,66.01,250612,,,A*48
$GPRMC,210155.000,A,3748.8003,N,12217.8605,W,0.45,85.36,250612,,,A*4A
$GPRMC,210156.000,A,3748.8003,N,12217.8610,W,0.02,40.76,250612,,,A*43
$GPRMC,210157.000,A,3748.8003,N,12217.8617,W,0.04,74.33,250612,,,A*45
$GPRMC,210158.000,A,3748.8004,N,12217.8619,W,0.56,12.00,250612,,,A*44
$GPRMC,210159.000,A,3748.8006,N,12217.8622,W,0.11,192.83,250612,,,A*7E
$GPRMC,210200.000,A,3748.8005,N,12217.8630,W,0.23,237.02,250612,,,A*75
$GPRMC,210201.000,A,3748.8004,N,12217.8644,W,0.35,156.38,250612,,,A*7C
$GPRMC,210202.000,A,3748.8003,N,12217.8653,W,0.45,312.17,250612,,,A*76
$GPRMC,210203.000,A,3748.8003,N,12217.8662,W,1.02,265.22,250612,,,A*70
$GPRMC,210204.000,A,3748.8003,N,12217.8671,W,0.65,275.88,250612,,,A*74
$GPRMC,210205.000,A,3748.8002,N,12217.8681,W,0.68,271.74,250612,,,A*71
$GPRMC,210206.000,A,3748.8001,N,12217.8687,W,0.40,295.91,250612,,,A*7C
$GPRMC,210207.000,A,3748.8003,N,12217.8684,W,0.53,32.13,250612,,,A*4B
$GPRMC,210208.000,A,3748.8004,N,12217.8687,W,0.26,6.28,250612,,,A*7D
$GPRMC,210209.000,A,3748.8004,N,12217.8693,W,0.27,353.09,250612,,,A*78
$GPRMC,210210.000,A,3748.8007,N,12217.8691,W,0.57,35.64,250612,,,A*4E
$GPRMC,210211.000,A,3748.8012,N,12217.8688,W,0.63,27.71,250612,,,A*43
$GPRMC,210212.000,A,3748.8013,N,12217.8695,W,0.49,22.22,250612,,,A*46
$GPRMC,210213.000,A,3748.8013,N,12217.8692,W,0.75,59.44,250612,,,A*43
$GPRMC,210214.000,A,3748.8013,N,12217.8693,W,0.21,14.01,250612,,,A*4C
$GPRMC,210215.000,A,3748.8010,N,12217.8707,W,0.25,306.20,250612,,,A*75
$GPRMC,210216.000,A,3748.8005,N,12217.8723,W,0.41,235.51,250612,,,A*71
$GPRMC,210217.000,A,3748.8001,N,12217.8726,W,0.40,265.06,250612,,,A*77
$GPRMC,210218.000,A,3748.7998,N,12217.8728,W,0.12,96.36,250612,,,A*4A
$GPRMC,210219.000,A,3748.8000,N,12217.8721,W,0.58,72.57,250612,,,A*46
$GPRMC,210220.000,A,3748.8006,N,12217.8709,W,0.73,26.45,250612,,,A*4B
$GPRMC,210221.000,A,3748.8008,N,12217.8688,W,1.03,68.94,250612,,,A*4C
$GPRMC,210222.000,A,3748.8007,N,12217.8676,W,0.50,94.34,250612,,,A*4F
$GPRMC,210223.000,A,3748.8008,N,12217.8667,W,0.27,109.01,250612,,,A*72
$GPRMC,210224.000,A,3748.8011,N,12217.8658,W,0.31,66.00,250612,,,A*4F
$GPRMC,210225.000,A,3748.8014,N,12217.8649,W,0.28,68.28,250612,,,A*47
$GPRMC,210226.000,A,3748.8015,N,12217.8641,W,0.30,58.45,250612,,,A*4C
$GPRMC,210227.000,A,3748.8015,N,12217.8640,W,0.20,122.57,250612,,,A*72
$GPRMC,210228.000,A,3748.8013,N,12217.8643,W,0.36,122.62,250612,,,A*79
$GPRMC,210229.000,A,3748.8010,N,12217.8648,W,0.40,70.08,250612,,,A*4B
$GPRMC,210230.000,A,3748.8010,N,12217.8648,W,0.54,60.61,250612,,,A*48
$GPRMC,210231.000,A,3748.8008,N,12217.8649,W,0.14,273.53,250612,,,D*71
$GPRMC,210232.000,A,3748.8007,N,12217.8651,W,0.09,81.93,250612,,,D*4B
$GPRMC,210233.000,A,3748.8006,N,12217.8652,W,0.08,257.70,250612,,,D*7D
$GPRMC,210234.000,A,3748.8005,N,12217.8653,W,0.30,261.96,250612,,,D*7E
$GPRMC,210235.000,A,3748.8003,N,12217.8655,W,0.34,266.64,250612,,,D*71
$GPRMC,210236.000,A,3748.8002,N,12217.8656,W,0.15,59.59,250612,,,D*43
$GPRMC,210237.000,A,3748.8002,N,12217.8656,W,0.45,79.81,250612,,,D*40
$GPRMC,210238.000,A,3748.7999,N,12217.8656,W,1.19,95.98,250612,,,D*49
$GPRMC,210239.000,A,3748.7999,N,12217.8655,W,0.69,61.55,250612,,,D*47
$GPRMC,210240.000,A,3748.8001,N,12217.8656,W,0.20,298.99,250612,,,D*74
$GPRMC,210241.000,A,3748.8002,N,12217.8664,W,1.30,249.65,250612,,,D*78
$GPRMC,210242.000,A,3748.7998,N,12217.8674,W,2.07,247.27,250612,,,D*70
$GPRMC,210243.000,A,3748.7992,N,12217.8684,W,2.63,242.03,250612,,,D*75
$GPRMC,210244.000,A,3748.7989,N,12217.8692,W,3.56,253.07,250612,,,D*7C
$GPRMC,210245.000,A,3748.7987,N,12217.8695,W,3.32,251.76,250612,,,D*72
$GPRMC,210246.000,A,3748.7985,N,12217.8697,W,1.43,249.48,250612,,,D*71
$GPRMC,210247.000,A,3748.7980,N,12217.8713,W,0.85,227.12,250612,,,D*74
$GPRMC,210248.000,A,3748.7976,N,12217.8720,W,0.17,190.69,250612,,,D*7A
$GPRMC,210249.000,A,3748.7979,N,12217.8706,W,0.89,80.36,250612,,,D*4D
$GPRMC,210250.000,A,3748.7982,N,12217.8689,W,0.66,66.46,250612,,,D*49
$GPRMC,210251.000,A,3748.7985,N,12217.8670,W,0.44,78.14,250612,,,D*41
$GPRMC,210252.000,A,3748.7987,N,12217.8654,W,0.38,82.29,250612,,,D*46
$GPRMC,210253.000,A,3748.7993,N,12217.8637,W,0.67,79.99,250612,,,D*42
$GPRMC,210254.000,A,3748.7995,N,12217.8626,W,0.43,68.46,250612,,,D*47
$GPRMC,210255.000,A,3748.7993,N,12217.8613,W,0.52,91.41,250612,,,D*47
$GPRMC,210256.000,A,3748.7988,N,12217.8605,W,1.13,162.87,250612,,,D*7A
$GPRMC,210257.000,A,3748.7979,N,12217.8609,W,0.97,189.46,250612,,,D*7C
$GPRMC,210258.000,A,3748.7973,N,12217.8618,W,0.13,316.81,250612,,,D*7A
$GPRMC,210259.000,A,3748.7977,N,12217.8622,W,0.42,289.89,250612,,,D*7D
$GPRMC,210300.000,A,3748.7981,N,12217.8621,W,0.38,63.73,250612,,,D*44
$GPRMC,210301.000,A,3748.7982,N,12217.8623,W,0.62,199.96,250612,,,D*74
$GPRMC,210302.000,A,3748.7981,N,12217.8625,W,1.16,201.04,250612,,,D*79
$GPRMC,210303.000,A,3748.7980,N,12217.8628,W,1.37,195.69,250612,,,D*72
$GPRMC,210304.000,A,3748.7977,N,12217.8633,W,1.92,218.41,250612,,,D*74
$GPRMC,210305.000,A,3748.7975,N,12217.8638,W,1.67,209.66,250612,,,D*73
$GPRMC,210306.000,A,3748.7972,N,12217.8642,W,1.81,214.04,250612,,,D*7A
$GPRMC,210307.000,A,3748.7968,N,12217.8647,W,1.61,204.90,250612,,,D*77
$GPRMC,210308.000,A,3748.7964,N,12217.8652,W,1.87,206.37,250612,,,D*77
$GPRMC,210309.000,A,3748.7961,N,12217.8657,W,1.63,205.02,250612,,,D*79
$GPRMC,210310.000,A,3748.7957,N,12217.8662,W,1.49,207.70,250612,,,D*7D
$GPRMC,210311.000,A,3748.7953,N,12217.8667,W,1.81,203.64,250612,,,D*78
$GPRMC,210312.000,A,3748.7949,N,12217.8673,W,2.18,201.32,250612,,,D*77
$GPRMC,210313.000,A,3748.7947,N,12217.8682,W,2.00,223.70,250612,,,D*79
$GPRMC,210314.000,A,3748.7947,N,12217.8693,W,1.42,242.95,250612,,,D*77
$GPRMC,210315.000,A,3748.7942,N,12217.8700,W,2.16,214.80,250612,,,D*7D
$GPRMC,210316.000,A,3748.7938,N,12217.8697,W,1.97,198.59,250612,,,D*75
$GPRMC,210317.000,A,3748.7933,N,12217.8692,W,2.14,190.68,250612,,,D*78
$GPRMC,210318.000,A,3748.7927,N,12217.8694,W,1.95,204.34,250612,,,D*79
$GPRMC,210319.000,A,3748.7921,N,12217.8696,W,2.54,209.54,250612,,,D*79
$GPRMC,210320.000,A,3748.7915,N,12217.8707,W,2.32,210.95,250612,,,D*78
$GPRMC,210321.000,A,3748.7911,N,12217.8713,W,2.24,203.20,250612,,,D*73
$GPRMC,210322.000,A,3748.7916,N,12217.8719,W,1.80,209.82,250612,,,D*72
$GPRMC,210323.000,A,3748.7916,N,12217.8724,W,1.92,203.66,250612,,,D*7E
$GPRMC,210324.000,A,3748.7912,N,12217.8729,W,1.75,207.57,250612,,,D*7F
$GPRMC,210325.000,A,3748.7910,N,12217.8734,W,1.70,221.68,250612,,,D*7D
$GPRMC,210326.000,A,3748.7907,N,12217.8740,W,1.72,207.89,250612,,,D*72
$GPRMC,210327.000,A,3748.7905,N,12217.8745,W,1.00,210.93,250612,,,D*7C
$GPRMC,210328.000,A,3748.7905,N,12217.8751,W,1.22,200.57,250612,,,D*7F
$GPRMC,210329.000,A,3748.7906,N,12217.8756,W,1.06,211.83,250612,,,D*75
$GPRMC,210330.000,A,3748.7906,N,12217.8763,W,1.21,211.85,250612,,,D*78
$GPRMC,210331.000,A,3748.7902,N,12217.8768,W,0.77,207.69,250612,,,D*71
$GPRMC,210332.000,A,3748.7900,N,12217.8776,W,1.10,223.20,250612,,,A*71
$GPRMC,210333.000,A,3748.7894,N,12217.8782,W,1.21,210.76,250612,,,A*76
$GPRMC,210334.000,A,3748.7890,N,12217.8787,W,1.47,198.31,250612,,,A*70
$GPRMC,210335.000,A,3748.7886,N,12217.8792,W,1.12,214.92,250612,,,A*7C
$GPRMC,210336.000,A,3748.7883,N,12217.8795,W,0.68,209.03,250612,,,A*75
$GPRMC,210337.000,A,3748.7877,N,12217.8801,W,1.43,198.33,250612,,,A*7D
$GPRMC,210338.000,A,3748.7874,N,12217.8814,W,1.21,208.68,250612,,,A*75
$GPRMC,210339.000,A,3748.7872,N,12217.8820,W,1.66,215.50,250612,,,A*71
$GPRMC,210340.000,A,3748.7871,N,12217.8829,W,1.63,206.21,250612,,,A*74
$GPRMC,210341.000,A,3748.7870,N,12217.8837,W,2.11,221.71,250612,,,A*7D
$GPRMC,210342.000,A,3748.7866,N,12217.8845,W,2.10,217.92,250612,,,A*75
$GPRMC,210343.000,A,3748.7863,N,12217.8849,W,1.64,215.19,250612,,,A*7C
$GPRMC,210344.000,A,3748.7858,N,12217.8858,W,1.80,212.79,250612,,,A*78
$GPRMC,210345.000,A,3748.7853,N,12217.8865,W,1.49,215.45,250612,,,A*71
$GPRMC,210346.000,A,3748.7850,N,12217.8870,W,1.87,209.40,250612,,,A*7F
$GPRMC,210347.000,A,3748.7848,N,12217.8877,W,1.61,236.37,250612,,,A*74
$GPRMC,210348.000,A,3748.7845,N,12217.8884,W,1.54,206.78,250612,,,A*74
$GPRMC,210349.000,A,3748.7841,N,12217.8892,W,1.41,210.99,250612,,,A*7A
$GPRMC,210350.000,A,3748.7833,N,12217.8905,W,2.09,202.14,250612,,,A*71
$GPRMC,210351.000,A,3748.7827,N,12217.8912,W,1.89,226.56,250612,,,A*78
$GPRMC,210352.000,A,3748.7819,N,12217.8918,W,2.16,215.53,250612,,,A*7C
$GPRMC,210353.000,A,3748.7810,N,12217.8932,W,2.39,229.28,250612,,,A*72
$GPRMC,210354.000,A,3748.7802,N,12217.8938,W,2.00,218.79,250612,,,A*70
$GPRMC,210355.000,A,3748.7795,N,12217.8948,W,2.48,208.63,250612,,,A*71
$GPRMC,210356.000,A,3748.7790,N,12217.8953,W,1.92,206.98,250612,,,A*73
$GPRMC,210357.000,A,3748.7781,N,12217.8958,W,1.63,210.78,250612,,,A*7E
$GPRMC,210358.000,A,3748.7774,N,12217.8965,W,1.40,208.32,250612,,,A*73
$GPRMC,210359.000,A,3748.7770,N,12217.8966,W,1.21,207.83,250612,,,A*77
$GPRMC,210400.000,A,3748.7765,N,12217.8973,W,1.81,209.16,250612,,,A*74
$GPRMC,210401.000,A,3748.7763,N,12217.8974,W,1.50,225.81,250612,,,A*78
$GPRMC,210402.000,A,3748.7757,N,12217.8982,W,1.34,237.33,250612,,,A*7D
$GPRMC,210403.000,A,3748.7753,N,12217.8990,W,1.49,222.98,250612,,,A*74
$GPRMC,210404.000,A,3748.7747,N,12217.8993,W,1.57,210.41,250612,,,A*7F
$GPRMC,210405.000,A,3748.7743,N,12217.8998,W,1.48,210.37,250612,,,A*7E
$GPRMC,210406.000,A,3748.7739,N,12217.9005,W,2.16,207.39,250612,,,A*7C
$GPRMC,210407.000,A,3748.7736,N,12217.9011,W,1.31,211.50,250612,,,A*79
$GPRMC,210408.000,A,3748.7731,N,12217.9016,W,2.08,203.01,250612,,,A*78
$GPRMC,210409.000,A,3748.7722,N,12217.9023,W,2.02,204.31,250612,,,A*73
$GPRMC,210410.000,A,3748.7715,N,12217.9027,W,1.59,208.78,250612,,,A*77
$GPRMC,210411.000,A,3748.7710,N,12217.9035,W,1.29,214.70,250612,,,A*72
$GPRMC,210412.000,A,3748.7704,N,12217.9033,W,1.05,208.91,250612,,,A*7E
$GPRMC,210413.000,A,3748.7701,N,12217.9029,W,0.79,189.45,250612,,,A*78
$GPRMC,210414.000,A,3748.7698,N,12217.9024,W,0.94,203.05,250612,,,A*75
$GPRMC,210415.000,A,3748.7694,N,12217.9019,W,1.57,183.95,250612,,,A*7A
$GPRMC,210416.000,A,3748.7690,N,12217.9015,W,1.17,179.75,250612,,,A*7E
$GPRMC,210417.000,A,3748.7684,N,12217.9015,W,1.09,195.03,250612,,,A*76
$GPRMC,210418.000,A,3748.7677,N,12217.9016,W,2.28,187.72,250612,,,A*73
$GPRMC,210419.000,A,3748.7667,N,12217.9020,W,1.94,187.40,250612,,,A*73
$GPRMC,210420.000,A,3748.7653,N,12217.9028,W,1.77,204.37,250612,,,A*73
$GPRMC,210421.000,A,3748.7642,N,12217.9035,W,1.82,200.00,250612,,,A*74
$GPRMC,210422.000,A,3748.7632,N,12217.9043,W,2.08,216.22,250612,,,A*77
$GPRMC,210423.000,A,3748.7624,N,12217.9046,W,1.77,210.14,250612,,,A*7C
$GPRMC,210424.000,A,3748.7616,N,12217.9050,W,1.85,198.59,250612,,,A*7A
$GPRMC,210425.000,A,3748.7608,N,12217.9055,W,1.32,198.01,250612,,,A*70
$GPRMC,210426.000,A,3748.7604,N,12217.9058,W,1.50,225.36,250612,,,A*77
$GPRMC,210427.000,A,3748.7599,N,12217.9064,W,1.30,209.81,250612,,,A*7A
$GPRMC,210428.000,A,3748.7592,N,12217.9067,W,1.67,205.64,250612,,,A*78
$GPRMC,210429.000,A,3748.7585,N,12217.9073,W,1.57,205.36,250612,,,A*7E
$GPRMC,210430.000,A,3748.7579,N,12217.9075,W,1.60,198.75,250612,,,A*77
$GPRMC,210431.000,A,3748.7576,N,12217.9078,W,1.23,194.59,250612,,,A*71
$GPRMC,210432.000,A,3748.7572,N,12217.9082,W,1.08,190.81,250612,,,A*7B
$GPRMC,210433.000,A,3748.7573,N,12217.9079,W,1.48,192.13,250612,,,A*72
$GPRMC,210434.000,A,3748.7573,N,12217.9086,W,1.75,213.28,250612,,,A*79
$GPRMC,210435.000,A,3748.7567,N,12217.9091,W,1.77,206.09,250612,,,A*7E
$GPRMC,210436.000,A,3748.7562,N,12217.9101,W,1.12,218.42,250612,,,A*73
$GPRMC,210437.000,A,3748.7554,N,12217.9108,W,1.59,212.93,250612,,,A*77
$GPRMC,210438.000,A,3748.7545,N,12217.9121,W,1.76,212.57,250612,,,A*76
$GPRMC,210439.000,A,3748.7536,N,12217.9128,W,1.82,203.78,250612,,,A*7C
$GPRMC,210440.000,A,3748.7530,N,12217.9131,W,1.87,197.67,250612,,,A*79
$GPRMC,210441.000,A,3748.7522,N,12217.9132,W,1.62,192.39,250612,,,A*7D
$GPRMC,210442.000,A,3748.7514,N,12217.9133,W,1.81,196.48,250612,,,A*75
$GPRMC,210443.000,A,3748.7510,N,12217.9131,W,1.34,171.78,250612,,,A*76
$GPRMC,210444.000,A,3748.7506,N,12217.9134,W,1.05,138.32,250612,,,A*72
$GPRMC,210445.000,A,3748.7499,N,12217.9142,W,1.65,170.35,250612,,,A*78
$GPRMC,210446.000,A,3748.7493,N,12217.9146,W,1.82,181.30,250612,,,A*77
$GPRMC,210447.000,A,3748.7482,N,12217.9153,W,1.79,178.48,250612,,,A*7F
$GPRMC,210448.000,A,3748.7479,N,12217.9149,W,1.33,189.39,250612,,,A*79
$GPRMC,210449.000,A,3748.7476,N,12217.9149,W,0.98,173.32,250612,,,A*79
$GPRMC,210450.000,A,3748.7475,N,12217.9146,W,1.09,201.01,250612,,,A*72
$GPRMC,210451.000,A,3748.7472,N,12217.9143,W,1.12,181.58,250612,,,A*7C
$GPRMC,210452.000,A,3748.7468,N,12217.9140,W,0.88,159.75,250612,,,A*7F
$GPRMC,210453.000,A,3748.7461,N,12217.9147,W,1.75,207.15,250612,,,A*7D
$GPRMC,210454.000,A,3748.7455,N,12217.9153,W,1.26,200.90,250612,,,A*74
$GPRMC,210455.000,A,3748.7450,N,12217.9158,W,1.17,212.63,250612,,,A*76
$GPRMC,210456.000,A,3748.7445,N,12217.9162,W,1.34,202.27,250612,,,A*78
$GPRMC,210457.000,A,3748.7439,N,12217.9165,W,1.45,209.20,250612,,,A*7F
$GPRMC,210458.000,A,3748.7437,N,12217.9169,W,1.56,219.93,250612,,,A*79
$GPRMC,210459.000,A,3748.7435,N,12217.9171,W,2.09,218.26,250612,,,A*75
$GPRMC,210500.000,A,3748.7429,N,12217.9178,W,1.84,215.61,250612,,,A*74
$GPRMC,210501.000,A,3748.7428,N,12217.9183,W,1.53,220.35,250612,,,A*7D
$GPRMC,210502.000,A,3748.7422,N,12217.9193,W,1.35,205.49,250612,,,A*79
$GPRMC,210503.000,A,3748.7420,N,12217.9200,W,1.24,205.90,250612,,,A*77
$GPRMC,210504.000,A,3748.7418,N,12217.9205,W,1.40,245.57,250612,,,A*73
$GPRMC,210505.000,A,3748.7417,N,12217.9211,W,1.18,232.70,250612,,,A*70
$GPRMC,210506.000,A,3748.7414,N,12217.9216,W,1.51,213.93,250612,,,A*74
$GPRMC,210507.000,A,3748.7415,N,12217.9225,W,0.98,234.95,250612,,,A*73
$GPRMC,210508.000,A,3748.7411,N,12217.9236,W,1.42,223.19,250612,,,A*7E
$GPRMC,210509.000,A,3748.7408,N,12217.9246,W,1.38,225.34,250612,,,A*74
$GPRMC,210510.000,A,3748.7405,N,12217.9252,W,1.24,220.50,250612,,,A*7E
$GPRMC,210511.000,A,3748.7400,N,12217.9259,W,1.92,205.45,250612,,,A*7F
$GPRMC,210512.000,A,3748.7397,N,12217.9259,W,1.75,209.05,250612,,,A*74
$GPRMC,210513.000,A,3748.7392,N,12217.9259,W,1.61,205.25,250612,,,A*7B
$GPRMC,210514.000,A,3748.7387,N,12217.9260,W,1.88,210.53,250612,,,A*70
$GPRMC,210515.000,A,3748.7379,N,12217.9261,W,1.83,202.90,250612,,,A*76
$GPRMC,210516.000,A,3748.7372,N,12217.9259,W,1.54,194.28,250612,,,A*70
$GPRMC,210517.000,A,3748.7366,N,12217.9256,W,1.83,204.08,250612,,,A*79
$GPRMC,210518.000,A,3748.7357,N,12217.9257,W,1.24,187.11,250612,,,A*78
$GPRMC,210519.000,A,3748.7352,N,12217.9258,W,1.44,205.53,250612,,,A*7A
$GPRMC,210520.000,A,3748.7351,N,12217.9256,W,1.62,211.25,250612,,,A*7D
$GPRMC,210521.000,A,3748.7350,N,12217.9254,W,1.21,203.72,250612,,,A*79
$GPRMC,210522.000,A,3748.7344,N,12217.9256,W,1.74,193.12,250612,,,A*71
$GPRMC,210523.000,A,3748.7337,N,12217.9256,W,1.80,204.70,250612,,,A*76
$GPRMC,210524.000,A,3748.7330,N,12217.9256,W,1.71,192.60,250612,,,A*75
$GPRMC,210525.000,A,3748.7323,N,12217.9257,W,1.53,190.35,250612,,,A*75
$GPRMC,210526.000,A,3748.7318,N,12217.9262,W,1.29,215.78,250612,,,A*72
$GPRMC,210527.000,A,3748.7312,N,12217.9270,W,1.15,221.48,250612,,,A*71
$GPRMC,210528.000,A,3748.7307,N,12217.9277,W,1.67,232.41,250612,,,A*73
$GPRMC,210529.000,A,3748.7302,N,12217.9282,W,2.26,210.46,250612,,,A*7C
$GPRMC,210530.000,A,3748.7301,N,12217.9284,W,1.30,210.44,250612,,,A*77
$GPRMC,210531.000,A,3748.7300,N,12217.9283,W,1.74,192.68,250612,,,A*77
$GPRMC,210532.000,A,3748.7292,N,12217.9284,W,1.51,199.05,250612,,,A*7E
$GPRMC,210533.000,A,3748.7287,N,12217.9287,W,1.22,204.01,250612,,,A*7F
$GPRMC,210534.000,A,3748.7283,N,12217.9292,W,1.39,201.63,250612,,,A*73
$GPRMC,210535.000,A,3748.7279,N,12217.9294,W,1.14,192.78,250612,,,A*7D
$GPRMC,210536.000,A,3748.7276,N,12217.9302,W,0.87,211.65,250612,,,A*70
$GPRMC,210537.000,A,3748.7273,N,12217.9311,W,0.71,225.09,250612,,,A*72
$GPRMC,210538.000,A,3748.7266,N,12217.9321,W,1.84,213.33,250612,,,A*7D
$GPRMC,210539.000,A,3748.7266,N,12217.9322,W,2.20,213.16,250612,,,A*75
$GPRMC,210540.000,A,3748.7267,N,12217.9319,W,1.89,207.27,250612,,,A*75
$GPRMC,210541.000,A,3748.7264,N,12217.9320,W,1.89,199.72,250612,,,A*79
$GPRMC,210542.000,A,3748.7258,N,12217.9322,W,2.24,197.93,250612,,,A*72
$GPRMC,210543.000,A,3748.7255,N,12217.9326,W,1.47,207.30,250612,,,A*7F
$GPRMC,210544.000,A,3748.7256,N,12217.9334,W,0.83,222.22,250612,,,A*75
$GPRMC,210545.000,A,3748.7258,N,12217.9341,W,1.17,219.74,250612,,,A*7F
$GPRMC,210546.000,A,3748.7255,N,12217.9347,W,1.22,225.29,250612,,,A*76
$GPRMC,210547.000,A,3748.7249,N,12217.9360,W,2.07,217.91,250612,,,A*79
$GPRMC,210548.000,A,3748.7239,N,12217.9371,W,2.59,223.37,250612,,,A*71
$GPRMC,210549.000,A,3748.7229,N,12217.9380,W,2.18,215.26,250612,,,A*7F
$GPRMC,210550.000,A,3748.7222,N,12217.9386,W,1.60,215.65,250612,,,A*71
$GPRMC,210551.000,A,3748.7218,N,12217.9393,W,1.20,225.81,250612,,,A*70
$GPRMC,210552.000,A,3748.7211,N,12217.9402,W,1.68,245.40,250612,,,A*72
$GPRMC,210553.000,A,3748.7206,N,12217.9409,W,1.31,241.69,250612,,,A*7D
$GPRMC,210554.000,A,3748.7200,N,12217.9415,W,1.47,213.97,250612,,,A*76
$GPRMC,210555.000,A,3748.7193,N,12217.9413,W,2.20,194.73,250612,,,A*7C
$GPRMC,210556.000,A,3748.7184,N,12217.9416,W,2.13,210.92,250612,,,A*7C
$GPRMC,210557.000,A,3748.7178,N,12217.9421,W,1.73,215.84,250612,,,A*7D
$GPRMC,210558.000,A,3748.7168,N,12217.9429,W,2.04,211.18,250612,,,A*79
$GPRMC,210559.000,A,3748.7166,N,12217.9438,W,1.88,215.74,250612,,,A*7F
$GPRMC,210600.000,A,3748.7159,N,12217.9445,W,1.85,213.18,250612,,,A*77
$GPRMC,210601.000,A,3748.7151,N,12217.9453,W,2.21,211.48,250612,,,A*73
$GPRMC,210602.000,A,3748.7144,N,12217.9457,W,1.89,214.08,250612,,,A*70
$GPRMC,210603.000,A,3748.7138,N,12217.9461,W,1.51,209.95,250612,,,A*72
$GPRMC,210604.000,A,3748.7129,N,12217.9464,W,2.51,211.40,250612,,,A*72
$GPRMC,210605.000,A,3748.7121,N,12217.9474,W,2.61,207.91,250612,,,A*72
$GPRMC,210606.000,A,3748.7113,N,12217.9479,W,2.13,211.03,250612,,,A*74
$GPRMC,210607.000,A,3748.7109,N,12217.9477,W,1.49,197.96,250612,,,A*7D
$GPRMC,210608.000,A,3748.7101,N,12217.9479,W,2.15,213.27,250612,,,A*7B
$GPRMC,210609.000,A,3748.7090,N,12217.9487,W,2.39,212.69,250612,,,A*77
$GPRMC,210610.000,A,3748.7081,N,12217.9495,W,2.05,205.53,250612,,,A*7C
$GPRMC,210611.000,A,3748.7075,N,12217.9496,W,1.72,215.58,250612,,,A*7C
$GPRMC,210612.000,A,3748.7068,N,12217.9498,W,1.40,214.08,250612,,,A*78
$GPRMC,210613.000,A,3748.7062,N,12217.9495,W,1.88,190.93,250612,,,A*77
$GPRMC,210614.000,A,3748.7058,N,12217.9494,W,1.37,183.69,250612,,,A*7B
$GPRMC,210615.000,A,3748.7057,N,12217.9493,W,1.19,208.17,250612,,,A*77
$GPRMC,210616.000,A,3748.7053,N,12217.9495,W,1.22,207.91,250612,,,A*7F
$GPRMC,210617.000,A,3748.7047,N,12217.9495,W,1.60,192.58,250612,,,A*77
$GPRMC,210618.000,A,3748.7040,N,12217.9501,W,1.54,194.27,250612,,,A*7A
$GPRMC,210619.000,A,3748.7035,N,12217.9502,W,1.46,187.84,250612,,,A*72
$GPRMC,210620.000,A,3748.7027,N,12217.9502,W,1.53,182.75,250612,,,A*74
$GPRMC,210621.000,A,3748.7020,N,12217.9504,W,1.84,187.66,250612,,,A*79
$GPRMC,210622.000,A,3748.7014,N,12217.9509,W,1.59,199.26,250612,,,A*7B
$GPRMC,210623.000,A,3748.7011,N,12217.9512,W,1.21,189.43,250612,,,A*78
$GPRMC,210624.000,A,3748.7009,N,12217.9511,W,1.08,184.24,250612,,,A*72
$GPRMC,210625.000,A,3748.7005,N,12217.9512,W,0.95,184.31,250612,,,A*7D
$GPRMC,210626.000,A,3748.7001,N,12217.9519,W,1.38,215.65,250612,,,A*7D
$GPRMC,210627.000,A,3748.6998,N,12217.9524,W,1.50,205.14,250612,,,A*73
$GPRMC,210628.000,A,3748.6994,N,12217.9528,W,1.29,202.78,250612,,,A*7F
$GPRMC,210629.000,A,3748.6995,N,12217.9524,W,1.35,204.93,250612,,,A*7D
$GPRMC,210630.000,A,3748.6986,N,12217.9525,W,2.30,194.77,250612,,,A*70
$GPRMC,210631.000,A,3748.6982,N,12217.9523,W,1.85,193.98,250612,,,A*78
$GPRMC,210632.000,A,3748.6979,N,12217.9516,W,1.78,187.79,250612,,,A*71
$GPRMC,210633.000,A,3748.6975,N,12217.9516,W,1.95,185.89,250612,,,A*72
$GPRMC,210634.000,A,3748.6968,N,12217.9515,W,2.00,195.47,250612,,,A*76
$GPRMC,210635.000,A,3748.6963,N,12217.9516,W,1.71,204.37,250612,,,A*76
$GPRMC,210636.000,A,3748.6957,N,12217.9520,W,1.62,211.95,250612,,,A*79
$GPRMC,210637.000,A,3748.6947,N,12217.9528,W,2.16,216.51,250612,,,A*7E
$GPRMC,210638.000,A,3748.6942,N,12217.9532,W,2.03,201.80,250612,,,A*71
$GPRMC,210639.000,A,3748.6937,N,12217.9535,W,2.35,193.89,250612,,,A*71
$GPRMC,210640.000,A,3748.6928,N,12217.9538,W,2.08,198.81,250612,,,A*71
$GPRMC,210641.000,A,3748.6924,N,12217.9543,W,1.74,202.48,250612,,,A*7D
$GPRMC,210642.000,A,3748.6919,N,12217.9546,W,1.74,211.37,250612,,,A*7F
$GPRMC,210643.000,A,3748.6916,N,12217.9548,W,1.56,207.05,250612,,,A*79
$GPRMC,210644.000,A,3748.6913,N,12217.9547,W,1.74,216.63,250612,,,A*74
$GPRMC,210645.000,A,3748.6909,N,12217.9547,W,1.51,217.33,250612,,,A*7D
$GPRMC,210646.000,A,3748.6903,N,12217.9555,W,2.07,222.90,250612,,,A*78
$GPRMC,210647.000,A,3748.6900,N,12217.9559,W,1.53,219.09,250612,,,A*7C
$GPRMC,210648.000,A,3748.6895,N,12217.9564,W,1.68,213.94,250612,,,A*76
$GPRMC,210649.000,A,3748.6888,N,12217.9569,W,1.92,203.65,250612,,,A*7C
$GPRMC,210650.000,A,3748.6882,N,12217.9571,W,1.74,201.35,250612,,,A*78
$GPRMC,210651.000,A,3748.6874,N,12217.9575,W,2.00,198.84,250612,,,A*7D
$GPRMC,210652.000,A,3748.6866,N,12217.9582,W,1.88,210.42,250612,,,A*7F
$GPRMC,210653.000,A,3748.6864,N,12217.9585,W,1.77,206.10,250612,,,A*7B
$GPRMC,210654.000,A,3748.6861,N,12217.9587,W,1.52,213.60,250612,,,A*7F
$GPRMC,210655.000,A,3748.6857,N,12217.9587,W,1.89,192.28,250612,,,A*7B
$GPRMC,210656.000,A,3748.6853,N,12217.9589,W,1.68,189.71,250612,,,A*7B
$GPRMC,210657.000,A,3748.6849,N,12217.9595,W,1.49,196.91,250612,,,A*7F
$GPRMC,210658.000,A,3748.6848,N,12217.9600,W,1.41,213.22,250612,,,A*70
$GPRMC,210659.000,A,3748.6845,N,12217.9605,W,1.52,209.11,250612,,,A*70
$GPRMC,210700.000,A,3748.6841,N,12217.9615,W,1.44,219.70,250612,,,A*79
$GPRMC,210701.000,A,3748.6839,N,12217.9623,W,1.74,218.61,250612,,,A*70
$GPRMC,210702.000,A,3748.6837,N,12217.9630,W,1.75,221.79,250612,,,A*7D
$GPRMC,210703.000,A,3748.6831,N,12217.9637,W,2.17,215.23,250612,,,A*72
$GPRMC,210704.000,A,3748.6824,N,12217.9642,W,2.09,210.24,250612,,,A*7E
$GPRMC,210705.000,A,3748.6821,N,12217.9652,W,2.01,222.39,250612,,,A*7E
$GPRMC,210706.000,A,3748.6819,N,12217.9657,W,2.05,214.69,250612,,,A*77
$GPRMC,210707.000,A,3748.6812,N,12217.9663,W,2.02,212.81,250612,,,A*7D
$GPRMC,210708.000,A,3748.6806,N,12217.9665,W,2.04,212.23,250612,,,A*7F
$GPRMC,210709.000,A,3748.6805,N,12217.9672,W,1.95,222.51,250612,,,A*76
$GPRMC,210710.000,A,3748.6803,N,12217.9682,W,2.02,222.41,250612,,,A*7B
$GPRMC,210711.000,A,3748.6801,N,12217.9694,W,2.29,237.87,250612,,,A*78
$GPRMC,210712.000,A,3748.6803,N,12217.9703,W,2.15,241.48,250612,,,A*7B
$GPRMC,210713.000,A,3748.6799,N,12217.9714,W,2.26,232.23,250612,,,A*79
$GPRMC,210714.000,A,3748.6796,N,12217.9718,W,2.25,217.18,250612,,,A*71
$GPRMC,210715.000,A,3748.6791,N,12217.9722,W,2.31,222.05,250612,,,A*71
$GPRMC,210716.000,A,3748.6786,N,12217.9725,W,2.63,203.16,250612,,,A*75
$GPRMC,210717.000,A,3748.6781,N,12217.9727,W,2.24,205.83,250612,,,A*78
$GPRMC,210718.000,A,3748.6776,N,12217.9730,W,2.31,200.67,250612,,,A*72
$GPRMC,210719.000,A,3748.6774,N,12217.9737,W,2.31,204.19,250612,,,A*7B
$GPRMC,210720.000,A,3748.6773,N,12217.9738,W,2.34,202.54,250612,,,A*73
$GPRMC,210721.000,A,3748.6765,N,12217.9749,W,2.39,219.21,250612,,,A*76
$GPRMC,210722.000,A,3748.6757,N,12217.9756,W,2.41,210.02,250612,,,A*7D
$GPRMC,210723.000,A,3748.6748,N,12217.9762,W,2.64,216.51,250612,,,A*72
$GPRMC,210724.000,A,3748.6741,N,12217.9769,W,2.69,214.58,250612,,,A*71
$GPRMC,210725.000,A,3748.6730,N,12217.9778,W,2.44,212.95,250612,,,A*7E
$GPRMC,210726.000,A,3748.6721,N,12217.9785,W,2.14,204.71,250612,,,A*77
$GPRMC,210727.000,A,3748.6709,N,12217.9788,W,2.54,213.85,250612,,,A*78
$GPRMC,210728.000,A,3748.6703,N,12217.9791,W,2.49,207.39,250612,,,A*7B
$GPRMC,210729.000,A,3748.6698,N,12217.9792,W,1.66,211.67,250612,,,A*78
$GPRMC,210730.000,A,3748.6697,N,12217.9794,W,1.10,224.33,250612,,,A*7F
$GPRMC,210731.000,A,3748.6691,N,12217.9794,W,0.55,236.70,250612,,,A*7C
$GPRMC,210732.000,A,3748.6690,N,12217.9793,W,0.77,194.65,250612,,,A*76
$GPRMC,210733.000,A,3748.6683,N,12217.9791,W,1.85,196.71,250612,,,A*7C
$GPRMC,210734.000,A,3748.6674,N,12217.9790,W,1.77,214.77,250612,,,A*70
$GPRMC,210735.000,A,3748.6665,N,12217.9792,W,2.17,213.83,250612,,,A*7A
$GPRMC,210736.000,A,3748.6657,N,12217.9793,W,1.60,205.43,250612,,,A*71
$GPRMC,210737.000,A,3748.6651,N,12217.9794,W,1.61,196.78,250612,,,A*71
$GPRMC,210738.000,A,3748.6645,N,12217.9803,W,2.09,210.66,250612,,,A*75
$GPRMC,210739.000,A,3748.6643,N,12217.9804,W,1.76,222.67,250612,,,A*7E
$GPRMC,210740.000,A,3748.6641,N,12217.9803,W,1.79,229.59,250612,,,A*7C
$GPRMC,210741.000,A,3748.6638,N,12217.9805,W,1.83,224.83,250612,,,A*7A
$GPRMC,210742.000,A,3748.6633,N,12217.9808,W,1.64,215.07,250612,,,A*78
$GPRMC,210743.000,A,3748.6626,N,12217.9813,W,1.94,202.09,250612,,,A*70
$GPRMC,210744.000,A,3748.6621,N,12217.9820,W,1.94,201.69,250612,,,A*75
$GPRMC,210745.000,A,3748.6617,N,12217.9826,W,1.88,195.78,250612,,,A*74
$GPRMC,210746.000,A,3748.6614,N,12217.9826,W,1.79,188.71,250612,,,A*7F
$GPRMC,210747.000,A,3748.6612,N,12217.9825,W,1.83,191.24,250612,,,A*76
$GPRMC,210748.000,A,3748.6610,N,12217.9820,W,1.59,189.22,250612,,,A*76
$GPRMC,210749.000,A,3748.6608,N,12217.9819,W,1.37,211.33,250612,,,A*7E
$GPRMC,210750.000,A,3748.6608,N,12217.9816,W,1.10,202.90,250612,,,A*77
$GPRMC,210751.000,A,3748.6608,N,12217.9814,W,1.41,187.46,250612,,,A*75
$GPRMC,210752.000,A,3748.6608,N,12217.9814,W,1.54,191.06,250612,,,A*71
$GPRMC,210753.000,A,3748.6607,N,12217.9817,W,1.59,189.24,250612,,,A*78
$GPRMC,210754.000,A,3748.6603,N,12217.9822,W,1.55,184.10,250612,,,A*7B
$GPRMC,210755.000,A,3748.6600,N,12217.9824,W,1.11,212.18,250612,,,A*7B
$GPRMC,210756.000,A,3748.6600,N,12217.9830,W,1.03,222.99,250612,,,A*74
$GPRMC,210757.000,A,3748.6595,N,12217.9832,W,1.05,207.78,250612,,,A*76
$GPRMC,210758.000,A,3748.6587,N,12217.9836,W,1.54,192.82,250612,,,A*70
$GPRMC,210759.000,A,3748.6581,N,12217.9836,W,1.67,201.20,250612,,,A*76
$GPRMC,210800.000,A,3748.6579,N,12217.9838,W,1.53,231.97,250612,,,A*74
$GPRMC,210801.000,A,3748.6572,N,12217.9845,W,1.41,220.53,250612,,,A*7F
$GPRMC,210802.000,A,3748.6564,N,12217.9854,W,1.94,215.39,250612,,,A*79
$GPRMC,210803.000,A,3748.6555,N,12217.9859,W,1.74,205.78,250612,,,A*7D
$GPRMC,210804.000,A,3748.6552,N,12217.9861,W,0.70,217.83,250612,,,A*74
$GPRMC,210805.000,A,3748.6544,N,12217.9868,W,1.61,230.09,250612,,,A*7D
$GPRMC,210806.000,A,3748.6536,N,12217.9874,W,1.50,217.86,250612,,,A*76
$GPRMC,210807.000,A,3748.6531,N,12217.9887,W,1.91,235.14,250612,,,A*7A
$GPRMC,210808.000,A,3748.6525,N,12217.9895,W,2.20,221.93,250612,,,A*70
$GPRMC,210809.000,A,3748.6518,N,12217.9907,W,2.20,234.46,250612,,,A*79
$GPRMC,210810.000,A,3748.6511,N,12217.9917,W,2.21,222.16,250612,,,A*7A
$GPRMC,210811.000,A,3748.6511,N,12217.9922,W,1.72,231.09,250612,,,A*74
$GPRMC,210812.000,A,3748.6506,N,12217.9926,W,1.98,205.92,250612,,,A*74
$GPRMC,210813.000,A,3748.6498,N,12217.9929,W,1.95,201.39,250612,,,A*74
$GPRMC,210814.000,A,3748.6491,N,12217.9931,W,2.35,205.95,250612,,,A*78
$GPRMC,210815.000,A,3748.6488,N,12217.9934,W,2.05,228.53,250612,,,A*72
$GPRMC,210816.000,A,3748.6485,N,12217.9941,W,1.85,230.68,250612,,,A*74
$GPRMC,210817.000,A,3748.6486,N,12217.9947,W,1.97,217.15,250612,,,A*7C
$GPRMC,210818.000,A,3748.6484,N,12217.9951,W,1.92,211.20,250612,,,A*73
$GPRMC,210819.000,A,3748.6481,N,12217.9953,W,1.70,213.69,250612,,,A*76
$GPRMC,210820.000,A,3748.6475,N,12217.9957,W,1.77,210.28,250612,,,A*72
$GPRMC,210821.000,A,3748.6476,N,12217.9960,W,1.60,216.25,250612,,,A*79
$GPRMC,210822.000,A,3748.6477,N,12217.9959,W,1.79,206.88,250612,,,A*7F
$GPRMC,210823.000,A,3748.6478,N,12217.9959,W,1.45,215.90,250612,,,A*75
$GPRMC,210824.000,A,3748.6476,N,12217.9962,W,1.55,216.02,250612,,,A*7D
$GPRMC,210825.000,A,3748.6474,N,12217.9966,W,2.03,214.09,250612,,,A*73
$GPRMC,210826.000,A,3748.6473,N,12217.9966,W,1.91,208.03,250612,,,A*78
$GPRMC,210827.000,A,3748.6468,N,12217.9965,W,1.32,200.58,250612,,,A*7F
$GPRMC,210828.000,A,3748.6459,N,12217.9972,W,1.55,212.92,250612,,,A*70
$GPRMC,210829.000,A,3748.6451,N,12217.9977,W,1.80,201.91,250612,,,A*75
$GPRMC,210830.000,A,3748.6443,N,12217.9981,W,1.69,207.16,250612,,,A*79
$GPRMC,210831.000,A,3748.6436,N,12217.9986,W,1.92,213.68,250612,,,A*75
$GPRMC,210832.000,A,3748.6431,N,12217.9989,W,2.10,220.58,250612,,,A*74
$GPRMC,210833.000,A,3748.6425,N,12217.9993,W,1.49,222.83,250612,,,A*70
$GPRMC,210834.000,A,3748.6419,N,12217.9997,W,0.94,206.27,250612,,,A*75
$GPRMC,210835.000,A,3748.6419,N,12217.9999,W,1.37,187.72,250612,,,A*78
$GPRMC,210836.000,A,3748.6414,N,12218.0004,W,1.48,204.27,250612,,,A*7D
$GPRMC,210837.000,A,3748.6406,N,12218.0009,W,1.89,215.12,250612,,,A*79
$GPRMC,210838.000,A,3748.6394,N,12218.0015,W,1.87,207.88,250612,,,A*79
$GPRMC,210839.000,A,3748.6385,N,12218.0021,W,1.75,204.04,250612,,,A*75
$GPRMC,210839.000,A,3748.6378,N,12218.0021,W,1.45,200.70,250612,,,A*73
$GPRMC,210840.000,A,3748.6369,N,12218.0016,W,1.75,191.83,250612,,,A*7D
$GPRMC,210841.000,A,3748.6360,N,12218.0016,W,1.70,190.00,250612,,,A*7A
$GPRMC,210842.000,A,3748.6353,N,12218.0017,W,1.59,188.91,250612,,,A*72
$GPRMC,210843.000,A,3748.6345,N,12218.0023,W,1.89,199.80,250612,,,A*7E
$GPRMC,210844.000,A,3748.6341,N,12218.0028,W,1.67,208.63,250612,,,A*70
$GPRMC,210845.000,A,3748.6337,N,12218.0029,W,1.43,212.29,250612,,,A*72
$GPRMC,210846.000,A,3748.6337,N,12218.0031,W,1.42,224.45,250612,,,A*76
$GPRMC,210847.000,A,3748.6334,N,12218.0035,W,1.82,203.31,250612,,,A*7A
$GPRMC,210848.000,A,3748.6329,N,12218.0036,W,1.75,191.26,250612,,,A*7C
$GPRMC,210849.000,A,3748.6321,N,12218.0037,W,1.86,195.30,250612,,,A*7B
$GPRMC,210850.000,A,3748.6319,N,12218.0035,W,1.71,199.88,250612,,,A*7D
$GPRMC,210851.000,A,3748.6321,N,12218.0034,W,1.42,222.18,250612,,,A*7C
$GPRMC,210852.000,A,3748.6324,N,12218.0030,W,1.20,218.57,250612,,,A*78
$GPRMC,210853.000,A,3748.6327,N,12218.0024,W,0.91,209.36,250612,,,A*73
$GPRMC,210854.000,A,3748.6327,N,12218.0023,W,0.96,215.76,250612,,,A*7D
$GPRMC,210855.000,A,3748.6330,N,12218.0026,W,0.92,242.89,250612,,,A*79
$GPRMC,210856.000,A,3748.6329,N,12218.0030,W,1.03,204.88,250612,,,A*7F
$GPRMC,210857.000,A,3748.6323,N,12218.0033,W,1.16,197.53,250612,,,A*7C
$GPRMC,210858.000,A,3748.6319,N,12218.0040,W,1.22,237.56,250612,,,A*75
$GPRMC,210859.000,A,3748.6316,N,12218.0048,W,1.41,247.35,250612,,,A*74
$GPRMC,210900.000,A,3748.6315,N,12218.0053,W,1.43,229.93,250612,,,A*76
$GPRMC,210901.000,A,3748.6310,N,12218.0060,W,1.88,205.50,250612,,,A*74
$GPRMC,210902.000,A,3748.6302,N,12218.0062,W,1.67,199.37,250612,,,A*70
$GPRMC,210903.000,A,3748.6296,N,12218.0067,W,1.64,228.07,250612,,,A*71
$GPRMC,210904.000,A,3748.6288,N,12218.0072,W,1.79,227.19,250612,,,A*71
$GPRMC,210905.000,A,3748.6282,N,12218.0073,W,1.10,209.88,250612,,,A*70
$GPRMC,210906.000,A,3748.6279,N,12218.0074,W,0.52,189.46,250612,,,A*7E
$GPRMC,210907.000,A,3748.6277,N,12218.0075,W,0.15,251.69,250612,,,A*78
$GPRMC,210908.000,A,3748.6278,N,12218.0077,W,0.76,327.03,250612,,,A*73
$GPRMC,210909.000,A,3748.6279,N,12218.0079,W,0.29,24.99,250612,,,A*44
$GPRMC,210910.000,A,3748.6281,N,12218.0081,W,0.16,332.01,250612,,,A*75
$GPRMC,210911.000,A,3748.6282,N,12218.0083,W,0.25,337.08,250612,,,A*79
$GPRMC,210912.000,A,3748.6282,N,12218.0085,W,0.22,50.41,250612,,,A*44
$GPRMC,210913.000,A,3748.6281,N,12218.0091,W,0.23,283.25,250612,,,A*7C
$GPRMC,210914.000,A,3748.6281,N,12218.0094,W,0.71,308.87,250612,,,A*73
$GPRMC,210915.000,A,3748.6278,N,12218.0103,W,0.51,318.49,250612,,,A*7A
$GPRMC,210916.000,A,3748.6275,N,12218.0108,W,0.86,331.53,250612,,,A*75
$GPRMC,210917.000,A,3748.6273,N,12218.0108,W,0.34,296.76,250612,,,A*70
$GPRMC,210918.000,A,3748.6268,N,12218.0100,W,0.50,39.50,250612,,,A*4C
$GPRMC,210919.000,A,3748.6261,N,12218.0101,W,0.76,46.25,250612,,,A*4B
$GPRMC,210920.000,A,3748.6253,N,12218.0099,W,0.54,134.21,250612,,,A*70
$GPRMC,210921.000,A,3748.6245,N,12218.0098,W,0.39,204.28,250612,,,A*75
$GPRMC,210922.000,A,3748.6238,N,12218.0103,W,0.46,215.69,250612,,,A*72
$GPRMC,210923.000,A,3748.6231,N,12218.0110,W,0.83,249.04,250612,,,A*73
$GPRMC,210924.000,A,3748.6227,N,12218.0113,W,0.49,238.09,250612,,,A*7D
$GPRMC,210925.000,A,3748.6222,N,12218.0118,W,0.41,217.54,250612,,,A*7F
$GPRMC,210926.000,A,3748.6219,N,12218.0120,W,0.28,204.73,250612,,,A*77
$GPRMC,210927.000,A,3748.6216,N,12218.0123,W,0.29,215.80,250612,,,A*77
$GPRMC,210928.000,A,3748.6212,N,12218.0125,W,1.25,246.65,250612,,,A*7A
$GPRMC,210929.000,A,3748.6207,N,12218.0129,W,1.13,228.77,250612,,,A*7D
$GPRMC,210930.000,A,3748.6201,N,12218.0133,W,1.44,198.76,250612,,,A*73
$GPRMC,210931.000,A,3748.6196,N,12218.0137,W,2.43,182.27,250612,,,A*70
$GPRMC,210932.000,A,3748.6191,N,12218.0139,W,2.03,167.71,250612,,,A*76
$GPRMC,210933.000,A,3748.6183,N,12218.0136,W,2.12,139.49,250612,,,A*7B
$GPRMC,210934.000,A,3748.6174,N,12218.0134,W,2.02,137.76,250612,,,A*75
$GPRMC,210935.000,A,3748.6167,N,12218.0129,W,1.51,145.89,250612,,,A*7A
$GPRMC,210936.000,A,3748.6159,N,12218.0124,W,1.40,136.47,250612,,,A*7F
$GPRMC,210937.000,A,3748.6153,N,12218.0120,W,1.45,118.63,250612,,,A*7F
$GPRMC,210938.000,A,3748.6152,N,12218.0117,W,1.28,154.52,250612,,,A*74
$GPRMC,210939.000,A,3748.6148,N,12218.0108,W,1.40,173.77,250612,,,A*7C
$GPRMC,210940.000,A,3748.6146,N,12218.0097,W,1.89,145.86,250612,,,A*75
$GPRMC,210941.000,A,3748.6149,N,12218.0080,W,2.04,123.35,250612,,,A*73
$GPRMC,210942.000,A,3748.6152,N,12218.0059,W,2.04,117.15,250612,,,A*7B
$GPRMC,210943.000,A,3748.6152,N,12218.0045,W,2.11,111.15,250612,,,A*75
$GPRMC,210944.000,A,3748.6157,N,12218.0024,W,2.52,93.12,250612,,,A*4B
$GPRMC,210945.000,A,3748.6160,N,12218.0006,W,2.76,94.96,250612,,,A*43
$GPRMC,210946.000,A,3748.6159,N,12217.9995,W,2.02,93.17,250612,,,A*42
$GPRMC,210947.000,A,3748.6157,N,12217.9989,W,1.89,95.93,250612,,,A*4A
$GPRMC,210948.000,A,3748.6154,N,12217.9982,W,1.84,110.99,250612,,,A*76
$GPRMC,210949.000,A,3748.6151,N,12217.9975,W,1.75,115.47,250612,,,A*72
$GPRMC,210950.000,A,3748.6149,N,12217.9965,W,2.09,111.56,250612,,,A*7E
$GPRMC,210951.000,A,3748.6149,N,12217.9953,W,2.06,107.18,250612,,,A*78
$GPRMC,210952.000,A,3748.6149,N,12217.9939,W,1.89,102.38,250612,,,A*74
$GPRMC,210953.000,A,3748.6148,N,12217.9931,W,1.78,103.24,250612,,,A*7E
$GPRMC,210954.000,A,3748.6146,N,12217.9928,W,1.28,121.63,250612,,,A*79
$GPRMC,210955.000,A,3748.6146,N,12217.9920,W,1.61,109.47,250612,,,A*71
$GPRMC,210956.000,A,3748.6145,N,12217.9914,W,1.26,109.80,250612,,,A*7E
$GPRMC,210957.000,A,3748.6142,N,12217.9909,W,2.00,100.75,250612,,,A*70
$GPRMC,210958.000,A,3748.6137,N,12217.9909,W,1.75,114.47,250612,,,A*78
$GPRMC,210959.000,A,3748.6135,N,12217.9902,W,2.00,111.24,250612,,,A*71
$GPRMC,211000.000,A,3748.6131,N,12217.9897,W,1.57,118.11,250612,,,A*72
$GPRMC,211001.000,A,3748.6130,N,12217.9889,W,1.23,128.66,250612,,,A*7D
$GPRMC,211002.000,A,3748.6127,N,12217.9887,W,1.29,124.81,250612,,,A*79
$GPRMC,211003.000,A,3748.6125,N,12217.9881,W,1.56,114.58,250612,,,A*73
$GPRMC,211004.000,A,3748.6125,N,12217.9870,W,1.98,106.70,250612,,,A*71
$GPRMC,211005.000,A,3748.6123,N,12217.9861,W,1.58,104.37,250612,,,A*7B
$GPRMC,211006.000,A,3748.6124,N,12217.9850,W,1.44,93.21,250612,,,A*48
$GPRMC,211007.000,A,3748.6125,N,12217.9842,W,1.31,84.50,250612,,,A*49
$GPRMC,211008.000,A,3748.6123,N,12217.9836,W,1.48,95.71,250612,,,A*4E
$GPRMC,211009.000,A,3748.6123,N,12217.9829,W,1.37,117.04,250612,,,A*70
$GPRMC,211010.000,A,3748.6120,N,12217.9821,W,1.47,111.11,250612,,,A*76
$GPRMC,211011.000,A,3748.6116,N,12217.9817,W,1.83,112.81,250612,,,A*75
$GPRMC,211012.000,A,3748.6112,N,12217.9810,W,2.30,120.29,250612,,,A*7D
$GPRMC,211013.000,A,3748.6108,N,12217.9800,W,2.01,110.16,250612,,,A*7B
$GPRMC,211014.000,A,3748.6105,N,12217.9790,W,1.94,105.66,250612,,,A*7B
$GPRMC,211015.000,A,3748.6102,N,12217.9781,W,1.79,96.94,250612,,,A*48
$GPRMC,211016.000,A,3748.6100,N,12217.9772,W,2.08,96.26,250612,,,A*49
$GPRMC,211017.000,A,3748.6098,N,12217.9766,W,1.74,105.10,250612,,,A*7B
$GPRMC,211018.000,A,3748.6096,N,12217.9763,W,1.23,108.82,250612,,,A*7B
$GPRMC,211019.000,A,3748.6092,N,12217.9757,W,1.66,120.43,250612,,,A*7F
$GPRMC,211020.000,A,3748.6088,N,12217.9752,W,1.93,111.82,250612,,,A*7E
$GPRMC,211021.000,A,3748.6089,N,12217.9748,W,2.00,111.79,250612,,,A*78
$GPRMC,211022.000,A,3748.6086,N,12217.9742,W,1.97,115.12,250612,,,A*7A
$GPRMC,211023.000,A,3748.6082,N,12217.9734,W,1.90,130.55,250612,,,A*7D
$GPRMC,211024.000,A,3748.6077,N,12217.9729,W,1.65,132.58,250612,,,A*79
$GPRMC,211025.000,A,3748.6073,N,12217.9726,W,1.80,122.65,250612,,,A*77
$GPRMC,211026.000,A,3748.6067,N,12217.9716,W,1.68,121.51,250612,,,A*70
$GPRMC,211027.000,A,3748.6063,N,12217.9709,W,1.22,74.26,250612,,,A*44
$GPRMC,211028.000,A,3748.6064,N,12217.9706,W,0.71,323.02,250612,,,A*73
$GPRMC,211029.000,A,3748.6065,N,12217.9705,W,0.51,317.60,250612,,,A*71
$GPRMC,211030.000,A,3748.6064,N,12217.9703,W,0.30,285.42,250612,,,A*73
$GPRMC,211031.000,A,3748.6060,N,12217.9700,W,0.31,198.21,250612,,,A*7E
$GPRMC,211032.000,A,3748.6059,N,12217.9699,W,0.29,60.21,250612,,,A*49
$GPRMC,211033.000,A,3748.6056,N,12217.9692,W,1.18,94.68,250612,,,A*49
$GPRMC,211034.000,A,3748.6052,N,12217.9695,W,0.72,161.83,250612,,,A*7E
$GPRMC,211035.000,A,3748.6049,N,12217.9698,W,0.71,148.12,250612,,,A*78
$GPRMC,211036.000,A,3748.6046,N,12217.9698,W,0.53,197.19,250612,,,A*7D
$GPRMC,211037.000,A,3748.6044,N,12217.9696,W,0.90,123.12,250612,,,A*7B
$GPRMC,211038.000,A,3748.6043,N,12217.9687,W,1.54,128.18,250612,,,A*7B
$GPRMC,211039.000,A,3748.6038,N,12217.9685,W,1.88,132.52,250612,,,A*70
$GPRMC,211040.000,A,3748.6033,N,12217.9684,W,1.68,125.82,250612,,,A*71
$GPRMC,211041.000,A,3748.6032,N,12217.9679,W,1.44,111.00,250612,,,A*70
$GPRMC,211042.000,A,3748.6029,N,12217.9672,W,1.35,116.49,250612,,,A*7E
$GPRMC,211043.000,A,3748.6022,N,12217.9672,W,2.00,134.60,250612,,,A*7A
$GPRMC,211044.000,A,3748.6019,N,12217.9664,W,2.19,137.56,250612,,,A*7C
$GPRMC,211045.000,A,3748.6018,N,12217.9655,W,1.70,118.78,250612,,,A*73
$GPRMC,211046.000,A,3748.6017,N,12217.9649,W,1.28,129.51,250612,,,A*76
$GPRMC,211047.000,A,3748.6015,N,12217.9644,W,0.80,118.44,250612,,,A*7D
$GPRMC,211048.000,A,3748.6012,N,12217.9640,W,1.36,108.70,250612,,,A*7B
$GPRMC,211049.000,A,3748.6010,N,12217.9634,W,1.48,119.38,250612,,,A*7E
$GPRMC,211050.000,A,3748.6008,N,12217.9626,W,1.52,110.54,250612,,,A*74
$GPRMC,211051.000,A,3748.6005,N,12217.9621,W,1.58,117.96,250612,,,A*7C
$GPRMC,211052.000,A,3748.6001,N,12217.9617,W,1.68,127.16,250612,,,A*76
$GPRMC,211053.000,A,3748.5999,N,12217.9608,W,1.60,113.93,250612,,,A*70
$GPRMC,211054.000,A,3748.5998,N,12217.9599,W,1.66,100.55,250612,,,A*73
$GPRMC,211055.000,A,3748.5998,N,12217.9590,W,1.73,110.65,250612,,,A*7D
$GPRMC,211056.000,A,3748.5998,N,12217.9581,W,1.87,119.25,250612,,,A*78
$GPRMC,211057.000,A,3748.5994,N,12217.9579,W,1.56,112.91,250612,,,A*7A
$GPRMC,211058.000,A,3748.5990,N,12217.9574,W,1.56,105.47,250612,,,A*71
$GPRMC,211059.000,A,3748.5988,N,12217.9570,W,1.72,104.09,250612,,,A*70
$GPRMC,211100.000,A,3748.5987,N,12217.9563,W,1.69,105.66,250612,,,A*72
$GPRMC,211101.000,A,3748.5979,N,12217.9560,W,1.35,125.39,250612,,,A*70
$GPRMC,211102.000,A,3748.5973,N,12217.9555,W,1.86,126.27,250612,,,A*7B
$GPRMC,211103.000,A,3748.5970,N,12217.9553,W,1.88,117.39,250612,,,A*7C
$GPRMC,211104.000,A,3748.5968,N,12217.9552,W,2.25,108.41,250612,,,A*76
$GPRMC,211105.000,A,3748.5963,N,12217.9552,W,2.04,111.18,250612,,,A*7B
$GPRMC,211106.000,A,3748.5961,N,12217.9543,W,2.14,107.68,250612,,,A*7B
$GPRMC,211107.000,A,3748.5961,N,12217.9533,W,2.29,107.22,250612,,,A*7D
$GPRMC,211108.000,A,3748.5957,N,12217.9527,W,2.04,123.58,250612,,,A*76
$GPRMC,211109.000,A,3748.5952,N,12217.9525,W,1.84,122.62,250612,,,D*76
$GPRMC,211110.000,A,3748.5949,N,12217.9519,W,1.92,114.00,250612,,,D*7D
$GPRMC,211111.000,A,3748.5945,N,12217.9514,W,1.95,118.03,250612,,,D*75
$GPRMC,211112.000,A,3748.5942,N,12217.9508,W,2.00,116.67,250612,,,D*7F
$GPRMC,211113.000,A,3748.5944,N,12217.9505,W,1.88,117.59,250612,,,D*7A
$GPRMC,211114.000,A,3748.5940,N,12217.9498,W,2.15,120.06,250612,,,D*75
$GPRMC,211115.000,A,3748.5938,N,12217.9487,W,2.25,111.11,250612,,,D*72
$GPRMC,211116.000,A,3748.5933,N,12217.9480,W,2.27,117.68,250612,,,D*77
$GPRMC,211117.000,A,3748.5931,N,12217.9472,W,2.08,124.24,250612,,,D*7C
$GPRMC,211118.000,A,3748.5928,N,12217.9464,W,2.23,119.96,250612,,,D*72
$GPRMC,211119.000,A,3748.5925,N,12217.9457,W,1.91,119.19,250612,,,D*73
$GPRMC,211120.000,A,3748.5923,N,12217.9448,W,1.89,126.99,250612,,,D*7C
$GPRMC,211121.000,A,3748.5920,N,12217.9443,W,1.76,141.98,250612,,,D*75
$GPRMC,211122.000,A,3748.5913,N,12217.9445,W,1.77,163.96,250612,,,D*7F
$GPRMC,211123.000,A,3748.5906,N,12217.9448,W,1.88,165.72,250612,,,D*7B
$GPRMC,211124.000,A,3748.5900,N,12217.9450,W,2.11,179.59,250612,,,D*74
$GPRMC,211125.000,A,3748.5893,N,12217.9452,W,2.25,182.89,250612,,,D*72
$GPRMC,211126.000,A,3748.5886,N,12217.9455,W,2.37,175.87,250612,,,D*77
$GPRMC,211127.000,A,3748.5879,N,12217.9456,W,2.41,176.13,250612,,,D*7A
$GPRMC,211128.000,A,3748.5872,N,12217.9455,W,2.27,166.70,250612,,,D*79
$GPRMC,211129.000,A,3748.5865,N,12217.9458,W,2.37,164.56,250612,,,D*74
$GPRMC,211130.000,A,3748.5855,N,12217.9462,W,2.46,170.78,250612,,,D*79
$GPRMC,211131.000,A,3748.5846,N,12217.9469,W,2.41,176.93,250612,,,D*75
$GPRMC,211132.000,A,3748.5841,N,12217.9470,W,1.70,158.59,250612,,,D*72
$GPRMC,211133.000,A,3748.5836,N,12217.9469,W,1.83,167.40,250612,,,D*73
$GPRMC,211134.000,A,3748.5834,N,12217.9459,W,2.16,145.72,250612,,,D*7B
$GPRMC,211135.000,A,3748.5830,N,12217.9452,W,2.17,151.31,250612,,,D*76
$GPRMC,211136.000,A,3748.5825,N,12217.9450,W,1.89,149.98,250612,,,D*7D
$GPRMC,211137.000,A,3748.5818,N,12217.9446,W,1.54,151.85,250612,,,A*75
$GPRMC,211138.000,A,3748.5812,N,12217.9444,W,1.57,174.12,250612,,,A*78
$GPRMC,211139.000,A,3748.5808,N,12217.9441,W,1.38,154.48,250612,,,A*73
$GPRMC,211140.000,A,3748.5803,N,12217.9437,W,1.04,150.16,250612,,,A*77
$GPRMC,211141.000,A,3748.5800,N,12217.9431,W,1.27,120.91,250612,,,A*7A
$GPRMC,211142.000,A,3748.5799,N,12217.9422,W,0.92,110.34,250612,,,A*77
$GPRMC,211143.000,A,3748.5796,N,12217.9422,W,0.40,140.69,250612,,,D*7E
$GPRMC,211144.000,A,3748.5795,N,12217.9426,W,0.37,224.61,250612,,,D*77
$GPRMC,211145.000,A,3748.5794,N,12217.9432,W,0.33,304.52,250612,,,D*75
$GPRMC,211146.000,A,3748.5795,N,12217.9440,W,0.43,290.48,250612,,,D*72
$GPRMC,211147.000,A,3748.5797,N,12217.9442,W,0.19,70.51,250612,,,D*48
$GPRMC,211148.000,A,3748.5798,N,12217.9444,W,0.28,204.87,250612,,,D*76
$GPRMC,211149.000,A,3748.5801,N,12217.9443,W,0.68,138.42,250612,,,D*7E
$GPRMC,211150.000,A,3748.5804,N,12217.9442,W,0.51,118.49,250612,,,D*71
$GPRMC,211151.000,A,3748.5803,N,12217.9445,W,0.68,175.63,250612,,,D*79
$GPRMC,211152.000,A,3748.5804,N,12217.9449,W,1.30,241.74,250612,,,D*7F
$GPRMC,211153.000,A,3748.5805,N,12217.9452,W,1.18,203.99,250612,,,D*7A
$GPRMC,211154.000,A,3748.5806,N,12217.9452,W,1.18,221.36,250612,,,D*7B
$GPRMC,211155.000,A,3748.5806,N,12217.9452,W,1.21,239.27,250612,,,D*79
$GPRMC,211156.000,A,3748.5799,N,12217.9458,W,0.93,207.32,250612,,,D*78
$GPRMC,211157.000,A,3748.5792,N,12217.9463,W,1.64,211.76,250612,,,D*74
$GPRMC,211158.000,A,3748.5787,N,12217.9466,W,1.26,206.61,250612,,,D*7C
$GPRMC,211159.000,A,3748.5783,N,12217.9468,W,1.13,198.81,250612,,,D*7B
$GPRMC,211200.000,A,3748.5781,N,12217.9469,W,1.25,190.42,250612,,,D*75
$GPRMC,211201.000,A,3748.5776,N,12217.9472,W,1.25,213.93,250612,,,D*72
$GPRMC,211202.000,A,3748.5771,N,12217.9478,W,1.39,214.32,250612,,,D*7D
$GPRMC,211203.000,A,3748.5767,N,12217.9484,W,1.67,207.24,250612,,,D*76
$GPRMC,211204.000,A,3748.5762,N,12217.9490,W,1.57,218.84,250612,,,D*76
$GPRMC,211205.000,A,3748.5757,N,12217.9495,W,1.24,225.69,250612,,,D*7D
$GPRMC,211206.000,A,3748.5753,N,12217.9498,W,0.90,208.68,250612,,,A*72
$GPRMC,211207.000,A,3748.5748,N,12217.9496,W,1.28,194.73,250612,,,A*79
$GPRMC,211208.000,A,3748.5740,N,12217.9497,W,1.30,174.25,250612,,,A*7B
$GPRMC,211209.000,A,3748.5729,N,12217.9501,W,2.17,196.54,250612,,,A*77
$GPRMC,211210.000,A,3748.5713,N,12217.9512,W,2.64,198.52,250612,,,A*78
$GPRMC,211211.000,A,3748.5700,N,12217.9523,W,2.25,203.06,250612,,,A*7C
$GPRMC,211212.000,A,3748.5695,N,12217.9528,W,1.73,199.77,250612,,,A*7F
$GPRMC,211213.000,A,3748.5691,N,12217.9531,W,1.03,160.84,250612,,,A*7F
$GPRMC,211214.000,A,3748.5688,N,12217.9529,W,0.54,161.44,250612,,,A*77
$GPRMC,211215.000,A,3748.5688,N,12217.9523,W,0.12,89.98,250612,,,A*48
$GPRMC,211216.000,A,3748.5689,N,12217.9518,W,0.61,84.12,250612,,,A*49
$GPRMC,211217.000,A,3748.5693,N,12217.9515,W,0.51,30.03,250612,,,A*42
$GPRMC,211218.000,A,3748.5692,N,12217.9516,W,0.41,44.71,250612,,,A*48
$GPRMC,211219.000,A,3748.5689,N,12217.9519,W,0.23,23.78,250612,,,A*40
$GPRMC,211220.000,A,3748.5688,N,12217.9516,W,0.22,77.83,250612,,,A*40
$GPRMC,211221.000,A,3748.5689,N,12217.9512,W,0.25,332.27,250612,,,A*7F
$GPRMC,211222.000,A,3748.5691,N,12217.9511,W,0.21,316.51,250612,,,A*75
$GPRMC,211223.000,A,3748.5692,N,12217.9507,W,0.23,300.15,250612,,,A*75
$GPRMC,211224.000,A,3748.5692,N,12217.9502,W,0.25,322.17,250612,,,D*76
$GPRMC,211225.000,A,3748.5692,N,12217.9498,W,0.49,42.39,250612,,,D*46
$GPRMC,211226.000,A,3748.5691,N,12217.9496,W,0.60,65.57,250612,,,D*4E
$GPRMC,211227.000,A,3748.5691,N,12217.9493,W,0.48,101.15,250612,,,D*75
$GPRMC,211228.000,A,3748.5691,N,12217.9493,W,0.55,83.61,250612,,,D*4E
$GPRMC,211229.000,A,3748.5694,N,12217.9494,W,0.43,8.55,250612,,,D*7E
$GPRMC,211230.000,A,3748.5698,N,12217.9498,W,0.52,314.12,250612,,,D*7B
$GPRMC,211231.000,A,3748.5698,N,12217.9500,W,0.87,278.51,250612,,,D*7E
$GPRMC,211232.000,A,3748.5699,N,12217.9501,W,0.23,311.45,250612,,,D*78
$GPRMC,211233.000,A,3748.5698,N,12217.9499,W,0.46,229.18,250612,,,D*79
$GPRMC,211234.000,A,3748.5694,N,12217.9500,W,1.08,203.48,250612,,,D*75
$GPRMC,211235.000,A,3748.5692,N,12217.9495,W,0.58,134.95,250612,,,D*7C
$GPRMC,211236.000,A,3748.5694,N,12217.9487,W,0.60,87.19,250612,,,D*4C
$GPRMC,211237.000,A,3748.5697,N,12217.9483,W,0.69,64.89,250612,,,D*47
$GPRMC,211238.000,A,3748.5696,N,12217.9487,W,0.22,347.46,250612,,,D*73
$GPRMC,211239.000,A,3748.5695,N,12217.9490,W,0.09,332.82,250612,,,D*74
$GPRMC,211240.000,A,3748.5692,N,12217.9499,W,0.54,262.02,250612,,,D*70
$GPRMC,211241.000,A,3748.5690,N,12217.9503,W,0.15,303.08,250612,,,D*78
$GPRMC,211242.000,A,3748.5688,N,12217.9503,W,0.12,6.28,250612,,,D*71
$GPRMC,211243.000,A,3748.5682,N,12217.9497,W,0.34,103.30,250612,,,D*7F
$GPRMC,211244.000,A,3748.5679,N,12217.9498,W,0.10,175.77,250612,,,D*77
$GPRMC,211245.000,A,3748.5678,N,12217.9492,W,0.11,293.23,250612,,,D*76
$GPRMC,211246.000,A,3748.5677,N,12217.9489,W,0.06,15.75,250612,,,D*49
$GPRMC,211247.000,A,3748.5672,N,12217.9493,W,0.36,96.86,250612,,,D*42
$GPRMC,211248.000,A,3748.5668,N,12217.9495,W,0.27,141.80,250612,,,D*7D
$GPRMC,211249.000,A,3748.5667,N,12217.9503,W,0.49,269.35,250612,,,D*72
$GPRMC,211250.000,A,3748.5666,N,12217.9511,W,0.41,221.77,250612,,,D*7A
$GPRMC,211251.000,A,3748.5672,N,12217.9514,W,0.31,287.38,250612,,,D*7B
$GPRMC,211252.000,A,3748.5677,N,12217.9512,W,0.41,57.77,250612,,,D*48
$GPRMC,211253.000,A,3748.5679,N,12217.9511,W,0.38,106.35,250612,,,D*79
$GPRMC,211254.000,A,3748.5679,N,12217.9511,W,0.44,157.46,250612,,,D*75
$GPRMC,211255.000,A,3748.5680,N,12217.9514,W,1.17,177.85,250612,,,D*7D
$GPRMC,211256.000,A,3748.5677,N,12217.9514,W,1.26,199.38,250612,,,D*72
$GPRMC,211257.000,A,3748.5678,N,12217.9508,W,0.95,154.33,250612,,,D*72
$GPRMC,211258.000,A,3748.5676,N,12217.9511,W,1.18,150.78,250612,,,D*74
$GPRMC,211259.000,A,3748.5674,N,12217.9513,W,1.43,184.80,250612,,,D*75
$GPRMC,211300.000,A,3748.5667,N,12217.9527,W,1.85,221.12,250612,,,D*70
$GPRMC,211301.000,A,3748.5658,N,12217.9541,W,2.19,203.73,250612,,,D*7C
$GPRMC,211302.000,A,3748.5648,N,12217.9549,W,2.68,197.35,250612,,,D*7C
$GPRMC,211303.000,A,3748.5649,N,12217.9552,W,1.91,191.47,250612,,,D*70
$GPRMC,211304.000,A,3748.5650,N,12217.9552,W,0.86,214.26,250612,,,D*71
$GPRMC,211305.000,A,3748.5653,N,12217.9555,W,0.87,251.86,250612,,,D*7E
$GPRMC,211306.000,A,3748.5659,N,12217.9551,W,0.35,263.64,250612,,,D*77
$GPRMC,211307.000,A,3748.5662,N,12217.9553,W,0.30,20.90,250612,,,D*47
$GPRMC,211308.000,A,3748.5660,N,12217.9561,W,0.20,5.24,250612,,,A*77
$GPRMC,211309.000,A,3748.5660,N,12217.9562,W,0.38,312.97,250612,,,A*71
$GPRMC,211310.000,A,3748.5659,N,12217.9562,W,0.04,215.30,250612,,,A*77
$GPRMC,211311.000,A,3748.5659,N,12217.9554,W,0.84,61.13,250612,,,A*4B
$GPRMC,211312.000,A,3748.5656,N,12217.9551,W,0.62,72.78,250612,,,A*45
$GPRMC,211313.000,A,3748.5660,N,12217.9553,W,0.25,99.50,250612,,,A*4F
$GPRMC,211314.000,A,3748.5664,N,12217.9554,W,0.91,286.44,250612,,,A*7D
$GPRMC,211315.000,A,3748.5661,N,12217.9563,W,1.49,233.85,250612,,,A*7A
$GPRMC,211316.000,A,3748.5654,N,12217.9576,W,1.23,228.21,250612,,,A*73
$GPRMC,211317.000,A,3748.5652,N,12217.9578,W,0.27,237.19,250612,,,A*7A
$GPRMC,211318.000,A,3748.5648,N,12217.9583,W,0.36,264.61,250612,,,A*73
$GPRMC,211319.000,A,3748.5639,N,12217.9588,W,0.44,234.00,250612,,,A*78
$GPRMC,211320.000,A,3748.5638,N,12217.9593,W,0.44,209.41,250612,,,A*72
$GPRMC,211321.000,A,3748.5642,N,12217.9596,W,0.64,195.96,250612,,,A*75
$GPRMC,211322.000,A,3748.5637,N,12217.9599,W,0.82,171.31,250612,,,A*74
$GPRMC,211323.000,A,3748.5640,N,12217.9595,W,0.10,102.38,250612,,,A*7F
$GPRMC,211324.000,A,3748.5649,N,12217.9595,W,1.27,342.96,250612,,,A*76
$GPRMC,211325.000,A,3748.5654,N,12217.9599,W,1.06,308.96,250612,,,A*7A
$GPRMC,211326.000,A,3748.5658,N,12217.9606,W,1.39,310.99,250612,,,A*7A
$GPRMC,211327.000,A,3748.5660,N,12217.9610,W,1.39,310.99,250612,,,E*73
$GPRMC,211328.000,A,3748.5663,N,12217.9613,W,1.39,310.99,250612,,,E*7C
$GPRMC,211329.000,A,3748.5665,N,12217.9617,W,1.39,310.99,250612,,,E*7F
$GPRMC,211330.000,A,3748.5668,N,12217.9621,W,1.39,310.99,250612,,,E*7F
$GPRMC,211331.000,A,3748.5670,N,12217.9624,W,1.39,310.99,250612,,,E*72
$GPRMC,211332.000,A,3748.5673,N,12217.9628,W,1.39,310.99,250612,,,E*7E
$GPRMC,211333.000,A,3748.5675,N,12217.9632,W,1.39,310.99,250612,,,E*72
$GPRMC,211334.000,A,3748.5678,N,12217.9635,W,1.39,310.99,250612,,,E*7F
$GPRMC,211335.000,A,3748.5680,N,12217.9639,W,1.39,310.99,250612,,,E*75
$GPRMC,211336.000,A,3748.5683,N,12217.9643,W,1.39,310.99,250612,,,E*78
$GPRMC,211337.000,A,3748.5685,N,12217.9646,W,1.39,310.99,250612,,,E*7A
$GPRMC,211338.000,A,3748.5615,N,12217.9561,W,2.65,155.39,250612,,,A*7D
$GPRMC,211339.000,A,3748.5672,N,12217.9516,W,1.93,53.31,250612,,,A*48
$GPRMC,211340.000,A,3748.5655,N,12217.9510,W,1.68,61.64,250612,,,A*40
$GPRMC,211341.000,A,3748.5666,N,12217.9509,W,1.32,32.45,250612,,,A*43
$GPRMC,211342.000,A,3748.5684,N,12217.9486,W,2.17,49.65,250612,,,A*40
$GPRMC,211343.000,A,3748.5664,N,12217.9493,W,1.77,94.16,250612,,,A*4A
$GPRMC,211344.000,A,3748.5634,N,12217.9495,W,0.55,150.77,250612,,,A*71
$GPRMC,211345.000,A,3748.5637,N,12217.9515,W,0.79,285.11,250612,,,A*7F
$GPRMC,211346.000,A,3748.5622,N,12217.9523,W,0.83,268.57,250612,,,A*79
$GPRMC,211347.000,A,3748.5607,N,12217.9532,W,1.82,246.41,250612,,,A*74
$GPRMC,211348.000,A,3748.5607,N,12217.9526,W,1.88,223.71,250612,,,A*74
$GPRMC,211349.000,A,3748.5603,N,12217.9537,W,2.89,223.70,250612,,,A*72
$GPRMC,211350.000,A,3748.5602,N,12217.9547,W,2.11,237.66,250612,,,A*7F
$GPRMC,211351.000,A,3748.5597,N,12217.9554,W,1.25,221.83,250612,,,A*7B
$GPRMC,211352.000,A,3748.5590,N,12217.9570,W,0.62,238.52,250612,,,A*7F
$GPRMC,211353.000,A,3748.5602,N,12217.9570,W,1.47,346.29,250612,,,A*74
$GPRMC,211354.000,A,3748.5614,N,12217.9570,W,2.62,345.03,250612,,,A*7B
$GPRMC,211355.000,A,3748.5626,N,12217.9555,W,2.19,3.05,250612,,,A*77
$GPRMC,211356.000,A,3748.5623,N,12217.9562,W,0.97,342.81,250612,,,A*7B
$GPRMC,211357.000,A,3748.5620,N,12217.9571,W,1.07,249.85,250612,,,A*7D
$GPRMC,211358.000,A,3748.5621,N,12217.9571,W,1.62,246.03,250612,,,A*71
$GPRMC,211359.000,A,3748.5625,N,12217.9559,W,0.46,218.72,250612,,,A*74
$GPRMC,211400.000,A,3748.5623,N,12217.9556,W,0.38,164.81,250612,,,A*7B
$GPRMC,211401.000,A,3748.5629,N,12217.9544,W,0.34,49.95,250612,,,A*44
$GPRMC,211402.000,A,3748.5633,N,12217.9530,W,1.14,88.71,250612,,,A*4B
$GPRMC,211403.000,A,3748.5632,N,12217.9527,W,0.95,139.76,250612,,,A*79
$GPRMC,211404.000,A,3748.5626,N,12217.9544,W,0.99,225.23,250612,,,A*7C
$GPRMC,211405.000,A,3748.5627,N,12217.9553,W,1.04,235.36,250612,,,A*7A
$GPRMC,211406.000,A,3748.5622,N,12217.9562,W,1.07,191.27,250612,,,A*70
$GPRMC,211407.000,A,3748.5618,N,12217.9565,W,1.26,166.04,250612,,,A*75
$GPRMC,211408.000,A,3748.5613,N,12217.9570,W,1.26,153.16,250612,,,A*70
$GPRMC,211409.000,A,3748.5600,N,12217.9585,W,1.18,221.66,250612,,,A*75
$GPRMC,211410.000,A,3748.5597,N,12217.9582,W,0.43,104.72,250612,,,A*79
$GPRMC,211411.000,A,3748.5600,N,12217.9585,W,1.96,39.42,250612,,,A*47
$GPRMC,211412.000,A,3748.5605,N,12217.9577,W,2.07,54.88,250612,,,A*4A
$GPRMC,211413.000,A,3748.5593,N,12217.9587,W,0.84,67.10,250612,,,A*40
$GPRMC,211414.000,A,3748.5594,N,12217.9590,W,0.77,49.50,250612,,,A*42
$GPRMC,211415.000,A,3748.5588,N,12217.9590,W,0.96,35.42,250612,,,A*49
$GPRMC,211416.000,A,3748.5585,N,12217.9587,W,1.01,21.12,250612,,,A*4E
$GPRMC,211417.000,A,3748.5577,N,12217.9604,W,0.51,248.43,250612,,,A*77
$GPRMC,211418.000,A,3748.5569,N,12217.9617,W,0.81,203.63,250612,,,A*75
$GPRMC,211419.000,A,3748.5564,N,12217.9620,W,0.86,216.12,250612,,,A*78
$GPRMC,211420.000,A,3748.5561,N,12217.9620,W,0.22,244.29,250612,,,A*76
$GPRMC,211421.000,A,3748.5562,N,12217.9615,W,0.26,78.01,250612,,,A*41
$GPRMC,211422.000,A,3748.5562,N,12217.9613,W,0.61,67.76,250612,,,A*49
$GPRMC,211423.000,A,3748.5561,N,12217.9616,W,0.27,62.20,250612,,,A*4A
$GPRMC,211424.000,A,3748.5560,N,12217.9619,W,0.24,308.70,250612,,,A*7A
$GPRMC,211425.000,A,3748.5560,N,12217.9615,W,0.17,129.45,250612,,,A*70
$GPRMC,211426.000,A,3748.5557,N,12217.9612,W,1.36,187.36,250612,,,A*72
$GPRMC,211427.000,A,3748.5549,N,12217.9614,W,2.38,204.18,250612,,,A*73
$GPRMC,211428.000,A,3748.5546,N,12217.9617,W,1.13,196.82,250612,,,A*71
$GPRMC,211429.000,A,3748.5540,N,12217.9619,W,0.69,185.86,250612,,,A*72
$GPRMC,211430.000,A,3748.5539,N,12217.9624,W,0.77,197.81,250612,,,A*71
$GPRMC,211431.000,A,3748.5542,N,12217.9626,W,0.21,1.54,250612,,,A*7B
$GPRMC,211432.000,A,3748.5551,N,12217.9624,W,1.02,28.31,250612,,,A*40
$GPRMC,211433.000,A,3748.5563,N,12217.9624,W,1.14,341.81,250612,,,A*70
$GPRMC,211434.000,A,3748.5565,N,12217.9618,W,0.54,346.85,250612,,,A*78
$GPRMC,211435.000,A,3748.5567,N,12217.9610,W,0.61,102.70,250612,,,A*7D
$GPRMC,211436.000,A,3748.5562,N,12217.9602,W,0.57,126.30,250612,,,A*7F
$GPRMC,211437.000,A,3748.5560,N,12217.9596,W,0.52,113.00,250612,,,A*72
$GPRMC,211438.000,A,3748.5555,N,12217.9601,W,0.67,174.83,250612,,,A*7A
$GPRMC,211439.000,A,3748.5553,N,12217.9606,W,0.17,48.07,250612,,,A*4F
$GPRMC,211440.000,A,3748.5549,N,12217.9610,W,0.65,344.51,250612,,,A*74
$GPRMC,211441.000,A,3748.5547,N,12217.9613,W,1.25,331.97,250612,,,A*75
$GPRMC,211442.000,A,3748.5552,N,12217.9612,W,1.01,341.40,250612,,,A*78
$GPRMC,211443.000,A,3748.5550,N,12217.9605,W,1.04,77.71,250612,,,A*4C
$GPRMC,211444.000,A,3748.5555,N,12217.9594,W,2.00,101.67,250612,,,A*75
$GPRMC,211445.000,A,3748.5553,N,12217.9593,W,1.58,140.67,250612,,,A*7E
$GPRMC,211446.000,A,3748.5551,N,12217.9593,W,0.99,118.10,250612,,,A*7E
$GPRMC,211447.000,A,3748.5558,N,12217.9591,W,0.78,167.29,250612,,,A*79
$GPRMC,211448.000,A,3748.5563,N,12217.9592,W,0.93,212.63,250612,,,A*77
$GPRMC,211449.000,A,3748.5566,N,12217.9590,W,0.50,357.07,250612,,,A*7C
$GPRMC,211450.000,A,3748.5574,N,12217.9595,W,1.39,359.37,250612,,,A*71
$GPRMC,211451.000,A,3748.5574,N,12217.9594,W,1.12,39.71,250612,,,A*4F
$GPRMC,211452.000,A,3748.5572,N,12217.9594,W,0.18,146.07,250612,,,A*79
$GPRMC,211453.000,A,3748.5564,N,12217.9599,W,0.55,149.22,250612,,,A*73
$GPRMC,211454.000,A,3748.5564,N,12217.9588,W,1.04,104.58,250612,,,A*75
$GPRMC,211455.000,A,3748.5564,N,12217.9585,W,0.42,178.42,250612,,,A*7A
$GPRMC,211456.000,A,3748.5556,N,12217.9579,W,0.33,123.60,250612,,,A*73
$GPRMC,211457.000,A,3748.5556,N,12217.9573,W,0.41,48.07,250612,,,A*40
$GPRMC,211458.000,A,3748.5559,N,12217.9580,W,0.29,182.69,250612,,,A*7D
$GPRMC,211459.000,A,3748.5561,N,12217.9588,W,0.81,206.51,250612,,,A*79
$GPRMC,211500.000,A,3748.5559,N,12217.9596,W,0.83,202.11,250612,,,A*72
$GPRMC,211501.000,A,3748.5557,N,12217.9605,W,0.69,229.08,250612,,,A*71
$GPRMC,211502.000,A,3748.5558,N,12217.9610,W,1.37,224.66,250612,,,A*76
$GPRMC,211503.000,A,3748.5559,N,12217.9609,W,1.12,201.83,250612,,,A*75
$GPRMC,211504.000,A,3748.5558,N,12217.9617,W,0.60,191.80,250612,,,A*71
$GPRMC,211505.000,A,3748.5551,N,12217.9626,W,1.09,222.26,250612,,,A*72
$GPRMC,211506.000,A,3748.5549,N,12217.9633,W,1.29,230.08,250612,,,A*71
$GPRMC,211507.000,A,3748.5551,N,12217.9638,W,0.96,243.26,250612,,,A*7F
$GPRMC,211508.000,A,3748.5553,N,12217.9644,W,0.92,243.05,250612,,,A*7C
$GPRMC,211509.000,A,3748.5552,N,12217.9645,W,0.92,224.34,250612,,,A*7E
$GPRMC,211510.000,A,3748.5552,N,12217.9643,W,1.10,206.40,250612,,,A*78
$GPRMC,211511.000,A,3748.5552,N,12217.9646,W,0.92,220.33,250612,,,A*77
$GPRMC,211512.000,A,3748.5547,N,12217.9649,W,1.45,198.16,250612,,,A*73
$GPRMC,211513.000,A,3748.5541,N,12217.9654,W,1.51,205.81,250612,,,A*74
$GPRMC,211514.000,A,3748.5529,N,12217.9660,W,1.79,205.67,250612,,,A*78
$GPRMC,211515.000,A,3748.5519,N,12217.9669,W,2.08,207.31,250612,,,A*77
$GPRMC,211516.000,A,3748.5511,N,12217.9673,W,1.85,208.01,250612,,,A*7D
$GPRMC,211517.000,A,3748.5508,N,12217.9677,W,1.41,211.53,250612,,,A*77
$GPRMC,211518.000,A,3748.5503,N,12217.9682,W,1.60,211.87,250612,,,A*73
$GPRMC,211519.000,A,3748.5498,N,12217.9686,W,1.62,207.63,250612,,,A*7A
$GPRMC,211520.000,A,3748.5493,N,12217.9687,W,1.81,188.57,250612,,,A*74
$GPRMC,211521.000,A,3748.5497,N,12217.9688,W,1.15,210.41,250612,,,A*76
$GPRMC,211522.000,A,3748.5492,N,12217.9689,W,0.92,210.76,250612,,,A*7B
$GPRMC,211523.000,A,3748.5496,N,12217.9691,W,0.83,223.75,250612,,,A*74
$GPRMC,211524.000,A,3748.5497,N,12217.9692,W,1.71,221.65,250612,,,A*7E
$GPRMC,211525.000,A,3748.5495,N,12217.9697,W,1.32,231.26,250612,,,A*79
$GPRMC,211526.000,A,3748.5489,N,12217.9702,W,1.53,219.52,250612,,,A*74
$GPRMC,211527.000,A,3748.5480,N,12217.9709,W,2.10,214.28,250612,,,A*73
