$ADVER,3080,2.3
$GPRMC,201928.008,A,3748.7979,N,12217.8616,W,0.46,109.02,180711,,,A*74
$GPGGA,201929.008,3748.7948,N,12217.8615,W,1,03,3.3,25.1,M,-25.1,M,,0000*5E
$GPGSA,A,2,07,13,17,,,,,,,,,,3.4,3.3,1.0*36
$GPRMC,201929.008,A,3748.7948,N,12217.8615,W,0.26,104.04,180711,,,A*79
$GPVTG,104.04,T,,M,0.26,N,0.5,K,N*02
$GPGGA,201930.008,3748.7946,N,12217.8616,W,1,03,3.3,25.1,M,-25.1,M,,0000*5B
$GPGSA,A,2,07,13,17,,,,,,,,,,3.4,3.3,1.0*36
$GPRMC,201930.008,A,3748.7946,N,12217.8616,W,0.44,103.67,180711,,,A*7A
$GPVTG,103.67,T,,M,0.44,N,0.8,K,N*09
$GPGGA,201931.008,3748.7949,N,12217.8614,W,1,03,3.3,25.1,M,-25.1,M,,0000*57
$GPGSA,A,2,07,13,17,,,,,,,,,,3.4,3.3,1.0*36
$GPGSV,3,1,12,07,53,077,29,13,17,152,34,17,15,187,39,08,67,018,26*75
$GPGSV,3,2,12,28,65,264,35,26,33,314,23,01,27,246,,19,22,046,23*78
$GPGSV,3,3,12,05,17,265,33,11,14,100,,10,09,216,39,48,00,000,38*7C
$GPRMC,201931.008,A,3748.7949,N,12217.8614,W,0.32,93.96,180711,,,A*41
$GPVTG,93.96,T,,M,0.32,N,0.6,K,N*30
$GPGGA,201932.008,3748.7949,N,12217.8613,W,1,03,3.3,25.1,M,-25.1,M,,0000*53
$GPGSA,A,2,07,13,17,,,,,,,,,,3.4,3.3,1.0*36
$GPRMC,201932.008,A,3748.7949,N,12217.8613,W,0.39,100.90,180711,,,A*73
$GPVTG,100.90,T,,M,0.39,N,0.7,K,N*07
$GPGGA,201933.008,3748.7954,N,12217.8616,W,1,03,3.3,25.1,M,-25.1,M,,0000*5B
$GPGSA,A,2,07,13,17,,,,,,,,,,3.4,3.3,1.0*36
$GPRMC,201933.008,A,3748.7954,N,12217.8616,W,0.41,100.98,180711,,,A*7C
$GPVTG,100.98,T,,M,0.41,N,0.8,K,N*0F
$GPGGA,201934.008,3748.7958,N,12217.8618,W,1,03,3.3,25.1,M,-25.1,M,,0000*5E
$GPGSA,A,2,07,13,17,,,,,,,,,,3.4,3.3,1.0*36
$GPRMC,201934.008,A,3748.7958,N,12217.8618,W,0.26,98.03,180711,,,A*4A
$GPVTG,98.03,T,,M,0.26,N,0.5,K,N*31
$GPGGA,201935.008,3748.7968,N,12217.8619,W,1,03,3.3,25.1,M,-25.1,M,,0000*5D
$GPGSA,A,2,07,13,17,,,,,,,,,,3.4,3.3,1.0*36
$GPRMC,201935.008,A,3748.7968,N,12217.8619,W,0.56,133.43,180711,,,A*7A
$GPVTG,133.43,T,,M,0.56,N,1.0,K,N*06
$GPGGA,201936.008,3748.7939,N,12217.8610,W,1,03,3.3,25.1,M,-25.1,M,,0000*53
$GPGSA,A,2,07,13,17,,,,,,,,,,3.4,3.3,1.0*36
$GPGSV,3,1,12,07,53,077,29,13,17,152,31,17,15,187,38,08,67,018,33*75
$GPGSV,3,2,12,28,65,264,35,26,33,314,26,01,27,246,,19,22,046,22*7C
$GPGSV,3,3,12,05,17,265,16,11,14,100,,10,09,216,38,48,00,000,40*75
$GPRMC,201936.008,A,3748.7939,N,12217.8610,W,0.36,96.91,180711,,,A*43
$GPGGA,201937.008,3748.7938,N,12217.8608,W,1,03,3.3,25.1,M,-25.1,M,,0000*5A
$GPGSA,A,2,07,13,17,,,,,,,,,,3.4,3.3,1.0*36
$GPRMC,201937.008,A,3748.7938,N,12217.8608,W,0.38,107.82,180711,,,A*7F
$GPVTG,107.82,T,,M,0.38,N,0.7,K,N*02
$GPGGA,201938.008,3748.7950,N,12217.8610,W,1,03,3.3,25.1,M,-25.1,M,,0000*52
$GPGSA,A,2,07,13,17,,,,,,,,,,3.4,3.3,1.0*36
$GPRMC,201938.008,A,3748.7950,N,12217.8610,W,0.33,97.10,180711,,,A*4F
$GPVTG,97.10,T,,M,0.33,N,0.6,K,N*3B
$GPGGA,201939.008,3748.7957,N,12217.8611,W,1,03,3.3,25.1,M,-25.1,M,,0000*55
$GPGSA,A,2,07,13,17,,,,,,,,,,3.4,3.3,1.0*36
$GPRMC,201939.008,A,3748.7957,N,12217.8611,W,0.47,108.81,180711,,,A*74
$GPVTG,108.81,T,,M,0.47,N,0.9,K,N*08
$GPGGA,201940.008,3748.7955,N,12217.8609,W,1,03,3.3,25.1,M,-25.1,M,,0000*50
$GPGSA,A,2,07,13,17,,,,,,,,,,3.4,3.3,1.0*36
$GPRMC,201940.008,A,3748.7955,N,12217.8609,W,0.43,108.37,180711,,,A*78
$GPVTG,108.37,T,,M,0.43,N,0.8,K,N*00
$GPGGA,201941.008,3748.7957,N,12217.8607,W,1,03,3.3,25.1,M,-25.1,M,,0000*5D
$GPGSA,A,2,07,13,17,,,,,,,,,,3.4,3.3,1.0*36
$GPGSV,3,1,12,07,53,077,28,13,17,152,30,17,15,187,38,08,67,018,35*73
$GPGSV,3,2,12,28,65,264,35,26,33,314,26,01,27,246,,19,22,046,22*7C
$GPGSV,3,3,12,05,17,265,18,11,14,100,,10,09,216,38,48,00,000,40*7B
$GPRMC,201941.008,A,3748.7957,N,12217.8607,W,0.32,96.12,180711,,,A*42
$GPVTG,96.12,T,,M,0.32,N,0.6,K,N*39
$GPGGA,201942.008,3748.7960,N,12217.8607,W,1,03,3.3,25.1,M,-25.1,M,,0000*5A
$GPGSA,A,2,07,13,17,,,,,,,,,,3.4,3.3,1.0*36
$GPRMC,201942.008,A,3748.7960,N,12217.8607,W,0.35,107.60,180711,,,A*7E
$GPVTG,107.60,T,,M,0.35,N,0.7,K,N*03
$GPGGA,201943.008,3748.7970,N,12217.8609,W,1,03,3.3,25.1,M,-25.1,M,,0000*54
$GPGSA,A,2,07,13,17,,,,,,,,,,3.4,3.3,1.0*36
$GPRMC,201943.008,A,3748.7970,N,12217.8609,W,0.41,81.45,180711,,,A*4B
$GPVTG,81.45,T,,M,0.41,N,0.8,K,N*37
$GPGGA,201944.008,3748.8013,N,12217.8618,W,1,03,3.3,25.1,M,-25.1,M,,0000*50
$GPGSA,A,2,07,13,17,,,,,,,,,,3.4,3.3,1.0*36
$GPRMC,201944.008,A,3748.8013,N,12217.8618,W,1.03,116.76,180711,,,A*77
$GPVTG,116.76,T,,M,1.03,N,1.9,K,N*0F
$GPGGA,201945.008,3748.8017,N,12217.8676,W,1,03,3.3,25.1,M,-25.1,M,,0000*5D
$GPGSA,A,2,07,13,17,,,,,,,,,,3.4,3.3,1.0*36
$GPRMC,201945.008,A,3748.8017,N,12217.8676,W,2.72,129.90,180711,,,A*7B
$GPVTG,129.90,T,,M,2.72,N,5.0,K,N*03
$GPGGA,201946.008,3748.7999,N,12217.8649,W,1,03,3.3,25.1,M,-25.1,M,,0000*52
$GPGSA,A,2,07,13,17,,,,,,,,,,3.4,3.3,1.0*36
$GPGSV,3,1,12,07,53,077,25,13,17,152,21,17,15,187,37,08,67,018,28*7D
$GPGSV,3,2,12,28,65,264,35,26,33,314,26,01,27,246,,19,22,046,21*7F
$GPGSV,3,3,12,05,17,265,19,11,14,100,,10,09,216,31,48,00,000,39*7D
$GPVTG,307.28,T,,M,2.97,N,5.5,K,N*00
$GPGGA,201947.008,3748.7989,N,12217.8682,W,1,03,3.3,25.1,M,-25.1,M,,0000*55
$GPGSA,A,2,07,13,17,,,,,,,,,,3.4,3.3,1.0*36
$GPRMC,201947.008,A,3748.7989,N,12217.8682,W,0.49,87.03,180711,,,A*46
$GPVTG,87.03,T,,M,0.49,N,0.9,K,N*3A
$GPGGA,201948.008,3748.7958,N,12217.8602,W,1,03,3.3,25.1,M,-25.1,M,,0000*5E
$GPGSA,A,2,07,13,17,,,,,,,,,,3.4,3.3,1.0*36
$GPRMC,201948.008,A,3748.7958,N,12217.8602,W,0.53,111.64,180711,,,A*79
$GPVTG,111.64,T,,M,0.53,N,1.0,K,N*06
$GPGGA,201949.008,3748.7955,N,12217.8604,W,1,03,3.3,25.1,M,-25.1,M,,0000*54
$GPGSA,A,2,07,13,17,,,,,,,,,,3.4,3.3,1.0*36
$GPRMC,201949.008,A,3748.7955,N,12217.8604,W,0.57,119.74,180711,,,A*7E
$GPVTG,119.74,T,,M,0.57,N,1.1,K,N*0A
$GPGGA,201950.008,3748.7949,N,12217.8592,W,1,03,3.3,25.1,M,-25.1,M,,0000*5D
$GPGSA,A,2,07,13,17,,,,,,,,,,3.4,3.3,1.0*36
$GPRMC,201950.008,A,3748.7949,N,12217.8592,W,0.04,128.07,180711,,,A*77
$GPVTG,128.07,T,,M,0.04,N,0.1,K,N*0B
$GPGGA,201953.008,3748.7902,N,12217.8548,W,1,03,3.3,25.1,M,-25.1,M,,0000*56
$GPGSA,A,2,07,13,17,,,,,,,,,,3.4,3.3,1.0*36
$GPRMC,201953.008,A,3748.7902,N,12217.8548,W,1.14,100.42,180711,,,A*77
$GPVTG,100.42,T,,M,1.14,N,2.1,K,N*02
$GPGGA,201954.008,3748.7949,N,12217.8557,W,1,03,3.3,25.1,M,-25.1,M,,0000*50
$GPGSA,A,2,07,13,17,,,,,,,,,,3.4,3.3,1.0*36
$GPRMC,201954.008,A,3748.7949,N,12217.8557,W,0.34,136.15,180711,,,A*75
$GPVTG,136.15,T,,M,0.34,N,0.6,K,N*03
$GPGGA,201955.008,3748.7942,N,12217.8537,W,1,03,3.3,25.1,M,-25.1,M,,0000*5C
$GPGSA,A,2,07,13,17,,,,,,,,,,3.4,3.3,1.0*36
$GPRMC,201955.008,A,3748.7942,N,12217.8537,W,0.56,113.15,180711,,,A*7A
$GPVTG,113.15,T,,M,0.56,N,1.0,K,N*07
$GPGGA,201956.008,3748.7943,N,12217.8547,W,1,03,3.3,25.1,M,-25.1,M,,0000*59
$GPGSA,A,2,07,13,17,,,,,,,,,,3.4,3.3,1.0*36
$GPGSV,3,1,12,07,53,077,29,13,17,152,38,17,16,187,28,08,67,018,23*7F
$GPGSV,3,2,12,28,65,264,23,26,33,314,,01,27,246,,19,22,046,27*7A
$GPGSV,3,3,12,05,17,265,28,11,14,099,32,10,09,216,24,48,44,197,34*79
$GPVTG,111.84,T,,M,0.62,N,1.1,K,N*0B
$GPGGA,201957.008,3748.7931,N,12217.8548,W,1,03,3.3,25.1,M,-25.1,M,,0000*52
$GPGSA,A,2,07,13,17,,,,,,,,,,3.4,3.3,1.0*36
$GPRMC,201957.008,A,3748.7931,N,12217.8548,W,0.28,129.51,180711,,,A*74
$GPVTG,129.51,T,,M,0.28,N,0.5,K,N*03
$GPGGA,201958.008,3748.7924,N,12217.8557,W,1,03,3.3,25.1,M,-25.1,M,,0000*57
$GPGSA,A,2,07,13,17,,,,,,,,,,3.4,3.3,1.0*36
$GPRMC,201958.008,A,3748.7924,N,12217.8557,W,0.26,105.71,180711,,,A*73
$GPVTG,105.71,T,,M,0.26,N,0.5,K,N*01
$GPGGA,201959.008,3748.7872,N,12217.8465,W,1,03,3.3,25.1,M,-25.1,M,,0000*54
$GPGSA,A,2,07,13,17,,,,,,,,,,3.4,3.3,1.0*36
$GPRMC,201959.008,A,3748.7872,N,12217.8465,W,0.73,317.33,180711,,,A*77
$GPVTG,317.33,T,,M,0.73,N,1.4,K,N*06
$GPGGA,202000.008,3748.7866,N,12217.8500,W,1,03,3.3,25.1,M,-25.1,M,,0000*55
$GPGSA,A,2,07,13,17,,,,,,,,,,3.4,3.3,1.0*36
$GPRMC,202000.008,A,3748.7866,N,12217.8500,W,0.87,307.75,180711,,,A*7E
$GPVTG,307.75,T,,M,0.87,N,1.6,K,N*0C
$GPGGA,202001.008,3748.7904,N,12217.8602,W,1,03,3.3,25.1,M,-25.1,M,,0000*50
$GPGSA,A,2,07,13,17,,,,,,,,,,3.4,3.3,1.0*36
$GPGSV,3,1,12,07,53,077,24,13,17,152,25,17,16,187,29,08,67,018,19*76
$GPGSV,3,2,12,28,65,264,23,26,33,314,,01,27,246,,19,22,046,22*7F
$GPGSV,3,3,12,05,17,265,19,11,14,099,20,10,09,216,31,48,44,197,26*7F
$GPRMC,202001.008,A,3748.7904,N,12217.8602,W,0.94,206.11,180711,,,A*7B
$GPVTG,206.11,T,,M,0.94,N,1.7,K,N*0D
$GPGGA,202002.008,3748.7971,N,12217.8697,W,1,03,3.3,25.1,M,-25.1,M,,0000*5D
$GPGSA,A,2,07,13,17,,,,,,,,,,3.4,3.3,1.0*36
$GPRMC,202002.008,A,3748.7971,N,12217.8697,W,1.53,178.02,180711,,,A*74
$GPVTG,178.02,T,,M,1.53,N,2.8,K,N*03
$GPGGA,202003.008,3748.7909,N,12217.8608,W,1,03,3.3,25.1,M,-25.1,M,,0000*55
$GPGSA,A,2,07,13,17,,,,,,,,,,3.4,3.3,1.0*36
$GPRMC,202003.008,A,3748.7909,N,12217.8608,W,1.79,162.33,180711,,,A*7D
$GPVTG,162.33,T,,M,1.79,N,3.3,K,N*08
$GPGGA,202004.008,3748.7837,N,12217.8487,W,1,03,3.3,25.1,M,-25.1,M,,0000*5B
$GPGSA,A,2,07,13,17,,,,,,,,,,3.4,3.3,1.0*36
$GPRMC,202004.008,A,3748.7837,N,12217.8487,W,1.65,148.32,180711,,,A*77
$GPVTG,148.32,T,,M,1.65,N,3.0,K,N*0F
$GPGGA,202005.008,3748.7858,N,12217.8521,W,1,03,3.3,25.1,M,-25.1,M,,0000*5E
$GPGSA,A,2,07,13,17,,,,,,,,,,3.4,3.3,1.0*36
$GPRMC,202005.008,A,3748.7858,N,12217.8521,W,3.02,162.38,180711,,,A*73
$GPVTG,162.38,T,,M,3.02,N,5.6,K,N*0E
$GPGGA,202006.008,3748.7846,N,12217.8555,W,1,03,3.3,25.1,M,-25.1,M,,0000*51
$GPGSA,A,2,07,13,17,,,,,,,,,,3.4,3.3,1.0*36
$GPGSV,3,1,12,07,53,077,22,13,17,152,26,17,16,187,26,08,67,018,27*71
$GPGSV,3,2,12,28,65,264,28,26,33,314,,01,27,246,,19,22,046,21*77
$GPGSV,3,3,12,05,17,265,30,11,14,099,19,10,09,216,29,48,44,197,29*78
$GPRMC,202006.008,A,3748.7846,N,12217.8555,W,1.09,220.08,180711,,,A*73
$GPVTG,220.08,T,,M,1.09,N,2.0,K,N*00
$GPGGA,202007.008,3748.7950,N,12217.8732,W,1,03,3.3,25.1,M,-25.1,M,,0000*55
$GPGSA,A,2,07,13,17,,,,,,,,,,3.4,3.3,1.0*36
$GPRMC,202007.008,A,3748.7950,N,12217.8732,W,3.38,131.55,180711,,,A*7C
$GPVTG,131.55,T,,M,3.38,N,6.3,K,N*0C
$GPGGA,202008.008,3748.7986,N,12217.8741,W,1,03,3.3,25.1,M,-25.1,M,,0000*55
$GPGSA,A,2,07,13,17,,,,,,,,,,3.4,3.3,1.0*36
$GPRMC,202008.008,A,3748.7986,N,12217.8741,W,1.75,245.71,180711,,,A*71
$GPVTG,245.71,T,,M,1.75,N,3.2,K,N*05
$GPGGA,202009.008,3748.7876,N,12217.8582,W,1,03,3.3,25.1,M,-25.1,M,,0000*57
$GPGSA,A,2,07,13,17,,,,,,,,,,3.4,3.3,1.0*36
$GPRMC,202009.008,A,3748.7876,N,12217.8582,W,2.03,234.95,180711,,,A*7D
$GPVTG,234.95,T,,M,2.03,N,3.8,K,N*01
$GPGGA,202010.008,3748.7828,N,12217.8575,W,1,03,3.3,25.1,M,-25.1,M,,0000*5C
$GPGSA,A,2,07,13,17,,,,,,,,,,3.4,3.3,1.0*36
$GPRMC,202010.008,A,3748.7828,N,12217.8575,W,3.71,172.94,180711,,,A*72
$GPVTG,172.94,T,,M,3.71,N,6.9,K,N*01
$GPGGA,202011.008,3748.7756,N,12217.8466,W,1,03,3.3,25.1,M,-25.1,M,,0000*58
$GPGSA,A,2,07,13,17,,,,,,,,,,3.4,3.3,1.0*36
$GPGSV,3,1,12,07,53,077,20,13,17,152,24,17,16,187,18,08,67,018,24*7F
$GPGSV,3,2,12,28,65,264,26,26,33,314,,01,27,246,,19,22,046,24*7C
$GPGSV,3,3,12,05,17,265,28,11,14,099,25,10,09,216,20,48,44,197,23*7D
$GPRMC,202011.008,A,3748.7756,N,12217.8466,W,2.49,145.02,180711,,,A*77
$GPGGA,202012.008,3748.7958,N,12217.8899,W,1,03,3.3,25.1,M,-25.1,M,,0000*57
$GPGSA,A,2,07,13,17,,,,,,,,,,3.4,3.3,1.0*36
$GPRMC,202012.008,A,3748.7958,N,12217.8899,W,2.39,170.28,180711,,,A*71
$GPVTG,170.28,T,,M,2.39,N,4.4,K,N*06
$GPGGA,202013.008,3748.8006,N,12217.8792,W,1,03,3.3,25.1,M,-25.1,M,,0000*5F
$GPGSA,A,2,07,13,17,,,,,,,,,,3.4,3.3,1.0*36
$GPRMC,202013.008,A,3748.8006,N,12217.8792,W,3.80,150.78,180711,,,A*7D
$GPVTG,150.78,T,,M,3.80,N,7.0,K,N*05
$GPGGA,202014.008,3748.7991,N,12217.8722,W,1,03,3.3,25.1,M,-25.1,M,,0000*5B
$GPGSA,A,2,07,13,17,,,,,,,,,,3.4,3.3,1.0*36
$GPRMC,202014.008,A,3748.7991,N,12217.8722,W,1.76,188.54,180711,,,A*79
$GPVTG,188.54,T,,M,1.76,N,3.3,K,N*02
$GPGGA,202015.008,3748.7926,N,12217.8686,W,1,03,3.3,25.1,M,-25.1,M,,0000*59
$GPGSA,A,2,07,13,17,,,,,,,,,,3.4,3.3,1.0*36
$GPRMC,202015.008,A,3748.7926,N,12217.8686,W,2.39,144.35,180711,,,A*74
$GPVTG,144.35,T,,M,2.39,N,4.4,K,N*0D
$GPGGA,202016.008,3748.7857,N,12217.8418,W,1,03,3.3,25.1,M,-25.1,M,,0000*58
$GPGSA,A,2,07,13,17,,,,,,,,,,3.4,3.3,1.0*36
$GPGSV,3,1,11,07,53,077,20,13,17,152,25,17,16,187,19,08,67,018,28*70
$GPGSV,3,2,11,28,65,264,27,26,33,314,,01,27,246,,19,22,046,26*7C
$GPGSV,3,3,11,05,17,265,25,11,14,099,21,10,09,216,*47
$GPRMC,202016.008,A,3748.7857,N,12217.8418,W,6.78,137.97,180711,,,A*78
$GPVTG,137.97,T,,M,6.78,N,12.6,K,N*35
$GPGGA,202017.008,3748.7829,N,12217.8376,W,1,03,3.3,25.1,M,-25.1,M,,0000*5F
$GPGSA,A,2,07,13,17,,,,,,,,,,3.4,3.3,1.0*36
$GPRMC,202017.008,A,3748.7829,N,12217.8376,W,4.23,113.53,180711,,,A*7D
$GPVTG,113.53,T,,M,4.23,N,7.8,K,N*0D
$GPGGA,202019.008,3748.7821,N,12217.8327,W,1,03,3.3,25.1,M,-25.1,M,,0000*5D
$GPGSA,A,2,07,13,17,,,,,,,,,,3.4,3.3,1.0*36
$GPRMC,202019.008,A,3748.7821,N,12217.8327,W,4.07,158.93,180711,,,A*7A
$GPVTG,158.93,T,,M,4.07,N,7.5,K,N*05
$GPGGA,202020.008,3748.7816,N,12217.8319,W,1,03,3.3,25.1,M,-25.1,M,,0000*5E
$GPGSA,A,2,07,13,17,,,,,,,,,,3.4,3.3,1.0*36
$GPRMC,202020.008,A,3748.7816,N,12217.8319,W,4.67,284.97,180711,,,A*79
$GPVTG,284.97,T,,M,4.67,N,8.7,K,N*08
$GPGGA,202021.008,3748.7701,N,12217.8112,W,1,03,3.3,25.1,M,-25.1,M,,0000*5F
$GPGSA,A,2,07,13,17,,,,,,,,,,3.4,3.3,1.0*36
$GPGSV,3,1,11,07,53,077,23,13,17,152,19,17,16,187,18,08,67,018,26*73
$GPGSV,3,2,11,28,65,264,26,26,33,314,,01,27,246,,19,22,046,32*78
$GPGSV,3,3,11,05,17,265,13,11,14,099,22,10,09,216,*41
$GPRMC,202021.008,A,3748.7701,N,12217.8112,W,6.62,293.38,180711,,,A*7C
$GPVTG,293.38,T,,M,6.62,N,12.3,K,N*33
$GPGGA,202312.008,3748.7518,N,12217.8012,W,1,03,3.3,25.1,M,-25.1,M,,0000*57
$GPGSA,A,2,07,13,17,,,,,,,,,,3.4,3.3,1.0*36
$GPRMC,202312.008,A,3748.7518,N,12217.8012,W,0.63,126.98,180711,,,A*74
$GPVTG,126.98,T,,M,0.63,N,1.2,K,N*00
$GPGGA,202313.008,3748.7497,N,12217.7923,W,1,03,3.3,25.1,M,-25.1,M,,0000*54
$GPGSA,A,2,07,13,17,,,,,,,,,,3.4,3.3,1.0*36
$GPRMC,202313.008,A,3748.7497,N,12217.7923,W,5.69,118.98,180711,,,A*75
$GPVTG,118.98,T,,M,5.69,N,10.5,K,N*35
$GPGGA,202314.008,3748.7475,N,12217.7923,W,1,03,3.3,25.1,M,-25.1,M,,0000*5F
$GPGSA,A,2,07,13,17,,,,,,,,,,3.4,3.3,1.0*36
$GPRMC,202314.008,A,3748.7475,N,12217.7923,W,0.56,33.90,180711,,,A*47
$GPVTG,33.90,T,,M,0.56,N,1.0,K,N*39
$GPGGA,202315.008,3748.7499,N,12217.7982,W,1,03,3.3,25.1,M,-25.1,M,,0000*57
$GPGSA,A,2,07,13,17,,,,,,,,,,3.4,3.3,1.0*36
$GPRMC,202315.008,A,3748.7499,N,12217.7982,W,0.48,21.66,180711,,,A*4A
$GPVTG,21.66,T,,M,0.48,N,0.9,K,N*34
$GPGGA,202316.008,3748.7482,N,12217.7916,W,1,03,3.3,25.1,M,-25.1,M,,0000*53
$GPGSA,A,2,07,13,17,,,,,,,,,,3.4,3.3,1.0*36
$GPGSV,3,1,12,07,52,079,34,17,17,187,30,13,15,152,22,08,67,022,22*75
$GPGSV,3,2,12,28,66,267,25,26,34,314,25,01,28,247,,19,21,045,26*73
$GPGSV,3,3,12,05,16,263,20,11,15,098,28,10,08,215,30,24,00,110,*78
$GPRMC,202316.008,A,3748.7482,N,12217.7916,W,3.88,125.12,180711,,,A*77
$GPVTG,125.12,T,,M,3.88,N,7.2,K,N*01
$GPGGA,202317.008,3748.7487,N,12217.7896,W,1,03,3.3,25.1,M,-25.1,M,,0000*5E
$GPGSA,A,2,07,13,17,,,,,,,,,,3.4,3.3,1.0*36
$GPRMC,202317.008,A,3748.7487,N,12217.7896,W,2.24,123.77,180711,,,A*78
$GPVTG,123.77,T,,M,2.24,N,4.2,K,N*00
$GPGGA,202318.008,3748.7487,N,12217.7920,W,1,03,3.3,25.1,M,-25.1,M,,0000*5D
$GPGSA,A,2,07,13,17,,,,,,,,,,3.4,3.3,1.0*36
$GPRMC,202318.008,A,3748.7487,N,12217.7920,W,1.26,298.01,180711,,,A*78
$GPVTG,298.01,T,,M,1.26,N,2.3,K,N*04
$GPGGA,202319.008,3748.7488,N,12217.7894,W,1,03,3.3,25.1,M,-25.1,M,,0000*5D
$GPGSA,A,2,07,13,17,,,,,,,,,,3.4,3.3,1.0*36
$GPRMC,202319.008,A,3748.7488,N,12217.7894,W,0.88,327.63,180711,,,A*7C
$GPVTG,327.63,T,,M,0.88,N,1.6,K,N*06
$GPGGA,202320.008,3748.7441,N,12217.7799,W,1,03,3.3,25.1,M,-25.1,M,,0000*50
$GPGSA,A,2,07,13,17,,,,,,,,,,3.4,3.3,1.0*36
$GPRMC,202320.008,A,3748.7441,N,12217.7799,W,1.78,121.41,180711,,,A*7B
$GPVTG,121.41,T,,M,1.78,N,3.3,K,N*0B
$GPGGA,202321.008,3748.7553,N,12217.7964,W,1,03,3.3,25.1,M,-25.1,M,,0000*5F
$GPGSA,A,2,07,13,17,,,,,,,,,,3.4,3.3,1.0*36
$GPGSV,3,1,12,07,52,079,26,17,17,187,26,13,15,152,20,08,67,022,22*73
$GPGSV,3,2,12,28,66,267,25,26,34,314,26,01,28,247,,19,21,045,23*75
$GPGSV,3,3,12,05,16,263,24,11,15,098,25,10,08,215,23,24,00,110,*73
$GPRMC,202321.008,A,3748.7553,N,12217.7964,W,5.42,116.53,180711,,,A*7E
$GPGGA,202322.008,3748.7651,N,12217.8207,W,1,03,3.3,25.1,M,-25.1,M,,0000*5C
$GPGSA,A,2,07,13,17,,,,,,,,,,3.4,3.3,1.0*36
$GPRMC,202322.008,A,3748.7651,N,12217.8207,W,5.63,114.97,180711,,,A*74
$GPVTG,114.97,T,,M,5.63,N,10.4,K,N*3D
$GPGGA,202323.008,3748.7616,N,12217.8073,W,1,03,3.3,25.1,M,-25.1,M,,0000*5F
$GPGSA,A,2,07,13,17,,,,,,,,,,3.4,3.3,1.0*36
$GPRMC,202323.008,A,3748.7616,N,12217.8073,W,0.70,63.31,180711,,,A*4D
$GPVTG,63.31,T,,M,0.70,N,1.3,K,N*30
$GPGGA,202324.008,3748.7496,N,12217.7997,W,1,03,3.3,25.1,M,-25.1,M,,0000*5E
$GPGSA,A,2,07,13,17,,,,,,,,,,3.4,3.3,1.0*36
$GPRMC,202324.008,A,3748.7496,N,12217.7997,W,3.90,285.90,180711,,,A*70
$GPVTG,285.90,T,,M,3.90,N,7.2,K,N*0B
$GPGGA,202326.008,3748.7342,N,12217.7757,W,1,03,3.3,25.1,M,-25.1,M,,0000*50
$GPGSA,A,2,07,13,17,,,,,,,,,,3.4,3.3,1.0*36
$GPGSV,3,1,12,07,52,079,22,17,17,187,27,13,15,152,17,08,67,022,14*77
$GPGSV,3,2,12,28,66,267,24,26,34,314,26,01,28,247,,19,21,045,22*75
$GPGSV,3,3,12,05,16,263,23,11,15,098,21,10,08,215,26,24,00,110,*75
$GPVTG,314.81,T,,M,4.39,N,8.1,K,N*0A
$GPGGA,202328.008,3748.7441,N,12217.7766,W,1,03,3.3,25.1,M,-25.1,M,,0000*58
$GPGSA,A,2,07,13,17,,,,,,,,,,3.5,3.3,1.0*37
$GPRMC,202328.008,A,3748.7441,N,12217.7766,W,1.15,334.13,180711,,,A*79
$GPVTG,334.13,T,,M,1.15,N,2.1,K,N*02
$GPGGA,202329.008,3748.7589,N,12217.8073,W,1,03,3.3,25.1,M,-25.1,M,,0000*50
$GPGSA,A,2,07,13,17,,,,,,,,,,3.5,3.3,1.0*37
$GPRMC,202329.008,A,3748.7589,N,12217.8073,W,0.82,90.25,180711,,,A*46
$GPVTG,90.25,T,,M,0.82,N,1.5,K,N*32
$GPGGA,202330.008,3748.7495,N,12217.7791,W,1,03,3.3,25.1,M,-25.1,M,,0000*50
$GPGSA,A,2,07,13,17,,,,,,,,,,3.5,3.3,1.0*37
$GPRMC,202330.008,A,3748.7495,N,12217.7791,W,5.91,128.36,180711,,,A*71
$GPVTG,128.36,T,,M,5.91,N,10.9,K,N*39
$GPGGA,202331.008,3748.7422,N,12217.7743,W,1,03,3.3,25.1,M,-25.1,M,,0000*52
$GPGSA,A,2,07,13,17,,,,,,,,,,3.5,3.3,1.0*37
$GPGSV,3,1,12,07,52,079,28,17,17,187,26,13,15,152,18,08,67,022,17*70
$GPGSV,3,2,12,28,66,267,16,26,34,314,17,01,28,247,,19,21,045,*76
$GPGSV,3,3,12,05,16,263,19,11,15,098,22,10,08,215,16,24,00,110,*7C
$GPRMC,202331.008,A,3748.7422,N,12217.7743,W,13.71,121.48,180711,,,A*4A
$GPVTG,121.48,T,,M,13.71,N,25.4,K,N*0B
$GPGGA,202332.008,3748.7488,N,12217.7915,W,1,03,3.3,25.1,M,-25.1,M,,0000*5C
$GPGSA,A,2,07,13,17,,,,,,,,,,3.5,3.3,1.0*37
$GPRMC,202332.008,A,3748.7488,N,12217.7915,W,10.17,117.60,180711,,,A*48
$GPVTG,117.60,T,,M,10.17,N,18.8,K,N*05
$GPGGA,202350.008,3748.7656,N,12217.8201,W,1,03,3.3,25.1,M,-25.1,M,,0000*58
$GPGSA,A,2,07,13,17,,,,,,,,,,3.5,3.3,1.0*37
$GPRMC,202350.008,A,3748.7656,N,12217.8201,W,1.31,115.53,180711,,,A*7A
$GPVTG,115.53,T,,M,1.31,N,2.4,K,N*04
$GPGGA,202351.008,3748.7702,N,12217.8300,W,1,03,3.3,25.1,M,-25.1,M,,0000*59
$GPGSA,A,2,07,13,17,,,,,,,,,,3.5,3.3,1.0*37
$GPGSV,3,1,12,07,52,079,31,17,17,187,27,13,15,152,20,08,67,022,*74
$GPGSV,3,2,12,28,66,267,24,26,34,314,,01,28,247,,19,21,045,33*71
$GPGSV,3,3,12,05,16,263,,11,15,098,19,10,08,215,,24,00,110,*7B
$GPRMC,202351.008,A,3748.7702,N,12217.8300,W,3.14,118.74,180711,,,A*76
$GPGGA,202352.008,3748.7665,N,12217.8337,W,1,03,3.3,25.1,M,-25.1,M,,0000*5E
$GPGSA,A,2,07,13,17,,,,,,,,,,3.5,3.3,1.0*37
$GPRMC,202352.008,A,3748.7665,N,12217.8337,W,4.10,103.21,180711,,,A*78
$GPVTG,103.21,T,,M,4.10,N,7.6,K,N*07
$GPGGA,202353.009,3748.7628,N,12217.8199,W,1,03,3.3,25.1,M,-25.1,M,,0000*51
$GPGSA,A,2,07,13,17,,,,,,,,,,3.5,3.3,1.0*37
$GPRMC,202353.009,A,3748.7628,N,12217.8199,W,2.03,332.85,180711,,,A*7D
$GPVTG,332.85,T,,M,2.03,N,3.8,K,N*07
$GPGGA,202354.008,3748.7443,N,12217.7839,W,1,03,3.3,25.1,M,-25.1,M,,0000*54
$GPGSA,A,2,07,13,17,,,,,,,,,,3.5,3.3,1.0*37
$GPRMC,202354.008,A,3748.7443,N,12217.7839,W,5.93,301.65,180711,,,A*78
$GPVTG,301.65,T,,M,5.93,N,11.0,K,N*3C
$GPGGA,202355.008,3748.7458,N,12217.7837,W,1,03,3.3,25.1,M,-25.1,M,,0000*51
$GPGSA,A,2,07,13,17,,,,,,,,,,3.5,3.3,1.0*37
$GPRMC,202355.008,A,3748.7458,N,12217.7837,W,0.20,214.78,180711,,,A*79
$GPVTG,214.78,T,,M,0.20,N,0.4,K,N*0C
$GPGGA,202356.008,3748.7443,N,12217.7799,W,1,03,3.3,25.1,M,-25.1,M,,0000*53
$GPGSA,A,2,07,13,17,,,,,,,,,,3.5,3.3,1.0*37
$GPGSV,3,1,12,07,52,079,30,17,17,187,20,13,15,152,20,08,67,022,28*78
$GPGSV,3,2,12,28,66,267,17,26,34,314,,01,28,247,,19,21,045,34*76
$GPGSV,3,3,12,05,16,263,22,11,15,098,23,10,08,215,,24,00,110,*72
$GPRMC,202356.008,A,3748.7443,N,12217.7799,W,6.30,121.40,180711,,,A*72
$GPVTG,121.40,T,,M,6.30,N,11.7,K,N*36
$GPGGA,202358.008,3748.7366,N,12217.7723,W,1,03,3.3,25.1,M,-25.1,M,,0000*5C
$GPGSA,A,2,07,13,17,,,,,,,,,,3.5,3.3,1.0*37
$GPRMC,202358.008,A,3748.7366,N,12217.7723,W,1.70,289.19,180711,,,A*73
$GPVTG,289.19,T,,M,1.70,N,3.2,K,N*0E
$GPGGA,202359.008,3748.7449,N,12217.7917,W,1,03,3.3,25.1,M,-25.1,M,,0000*5E
$GPGSA,A,2,07,13,17,,,,,,,,,,3.5,3.3,1.0*37
$GPRMC,202359.008,A,3748.7449,N,12217.7917,W,3.37,287.20,180711,,,A*74
$GPVTG,287.20,T,,M,3.37,N,6.2,K,N*0E
$GPGGA,202400.008,3748.7500,N,12217.8016,W,1,03,3.3,25.1,M,-25.1,M,,0000*5E
$GPGSA,A,2,07,13,17,,,,,,,,,,3.5,3.3,1.0*37
$GPRMC,202400.008,A,3748.7500,N,12217.8016,W,1.75,307.90,180711,,,A*72
$GPVTG,307.90,T,,M,1.75,N,3.2,K,N*0D
$GPGGA,202401.008,3748.7487,N,12217.7884,W,1,03,3.3,25.1,M,-25.1,M,,0000*5D
$GPGSA,A,2,07,13,17,,,,,,,,,,3.5,3.3,1.0*37
$GPGSV,3,1,12,07,52,079,28,17,17,187,21,13,15,152,20,08,67,022,26*7E
$GPGSV,3,2,12,28,66,267,18,26,34,314,,01,28,247,,19,21,045,36*7B
$GPGSV,3,3,12,05,16,263,20,11,15,098,,10,08,215,,24,00,110,*71
$GPRMC,202401.008,A,3748.7487,N,12217.7884,W,1.03,32.07,180711,,,A*4B
$GPVTG,32.07,T,,M,1.03,N,1.9,K,N*3E
$GPGGA,202402.008,3748.7423,N,12217.7732,W,1,03,3.3,25.1,M,-25.1,M,,0000*52
$GPGSA,A,2,07,13,17,,,,,,,,,,3.5,3.3,1.0*37
$GPRMC,202402.008,A,3748.7423,N,12217.7732,W,2.22,9.26,180711,,,A*7F
$GPVTG,9.26,T,,M,2.22,N,4.1,K,N*08
$GPGGA,202403.008,3748.7488,N,12217.7842,W,1,03,3.3,25.1,M,-25.1,M,,0000*5A
$GPGSA,A,2,07,13,17,,,,,,,,,,3.5,3.3,1.0*37
$GPRMC,202403.008,A,3748.7488,N,12217.7842,W,3.40,324.62,180711,,,A*7E
$GPVTG,324.62,T,,M,3.40,N,6.3,K,N*01
$GPGGA,202404.008,3748.7462,N,12217.7843,W,1,03,3.3,25.1,M,-25.1,M,,0000*58
$GPGSA,A,2,07,13,17,,,,,,,,,,3.5,3.3,1.0*37
$GPRMC,202404.008,A,3748.7462,N,12217.7843,W,2.06,76.48,180711,,,A*43
$GPVTG,76.48,T,,M,2.06,N,3.8,K,N*30
$GPGGA,202405.009,3748.7522,N,12217.7926,W,1,03,3.3,25.1,M,-25.1,M,,0000*5F
$GPGSA,A,2,07,13,17,,,,,,,,,,3.5,3.3,1.0*37
$GPRMC,202405.009,A,3748.7522,N,12217.7926,W,2.28,309.60,180711,,,A*79
$GPVTG,309.60,T,,M,2.28,N,4.2,K,N*00
$GPGGA,202439.008,3748.7471,N,12217.7896,W,1,03,3.3,25.1,M,-25.1,M,,0000*5C
$GPGSA,A,2,07,17,13,,,,,,,,,,3.5,3.3,1.0*37
$GPRMC,202439.008,A,3748.7471,N,12217.7896,W,3.60,125.28,180711,,,A*77
$GPVTG,125.28,T,,M,3.60,N,6.7,K,N*0A
$GPGGA,202440.008,3748.7541,N,12217.7959,W,1,03,3.3,25.1,M,-25.1,M,,0000*52
$GPGSA,A,2,07,17,13,,,,,,,,,,3.5,3.3,1.0*37
$GPRMC,202440.008,A,3748.7541,N,12217.7959,W,2.47,110.12,180711,,,A*72
$GPVTG,110.12,T,,M,2.47,N,4.6,K,N*02
$GPGGA,202441.008,3748.7454,N,12217.7839,W,1,03,3.3,25.1,M,-25.1,M,,0000*51
$GPGSA,A,2,07,17,13,,,,,,,,,,3.5,3.3,1.0*37
$GPGSV,3,1,12,07,52,079,23,17,17,187,22,13,15,152,20,08,67,022,*72
$GPGSV,3,2,12,28,66,267,,26,34,314,,01,28,247,,19,21,045,*77
$GPGSV,3,3,12,05,16,263,23,11,15,098,,10,08,215,,24,00,110,*72
$GPRMC,202441.008,A,3748.7454,N,12217.7839,W,2.84,342.87,180711,,,A*77
$GPVTG,342.87,T,,M,2.84,N,5.3,K,N*00
$GPGGA,202442.008,3748.7440,N,12217.7735,W,1,03,3.3,25.1,M,-25.1,M,,0000*54
$GPGSA,A,2,07,17,13,,,,,,,,,,3.5,3.3,1.0*37
$GPRMC,202442.008,A,3748.7440,N,12217.7735,W,1.95,123.60,180711,,,A*7D
$GPVTG,123.60,T,,M,1.95,N,3.6,K,N*0C
$GPGGA,202443.008,3748.7442,N,12217.7751,W,1,03,3.3,25.1,M,-25.1,M,,0000*55
$GPGSA,A,2,07,17,13,,,,,,,,,,3.5,3.3,1.0*37
$GPRMC,202443.008,A,3748.7442,N,12217.7751,W,1.11,108.18,180711,,,A*76
$GPVTG,108.18,T,,M,1.11,N,2.1,K,N*00
$GPGGA,202445.008,3748.7381,N,12217.7787,W,1,03,3.3,25.1,M,-25.1,M,,0000*50
$GPGSA,A,2,07,17,13,,,,,,,,,,3.5,3.3,1.0*37
$GPRMC,202445.008,A,3748.7381,N,12217.7787,W,6.64,129.61,180711,,,A*7B
$GPVTG,129.61,T,,M,6.64,N,12.3,K,N*3B
$GPGGA,202705.008,3748.7408,N,12217.7829,W,1,03,3.3,25.1,M,-25.1,M,,0000*5A
$GPGSA,A,2,17,13,07,,,,,,,,,,3.5,3.3,1.0*37
$GPRMC,202705.008,A,3748.7408,N,12217.7829,W,1.72,111.61,180711,,,A*7A
$GPVTG,111.61,T,,M,1.72,N,3.2,K,N*01
$GPGGA,202706.008,3748.7416,N,12217.7887,W,1,03,3.3,25.1,M,-25.1,M,,0000*52
$GPGSA,A,2,17,13,07,,,,,,,,,,3.5,3.3,1.0*37
$GPGSV,3,1,12,07,51,081,31,17,18,187,24,13,14,153,31,28,67,270,19*73
$GPGSV,3,2,12,08,67,025,19,26,35,313,,01,29,248,,19,20,044,26*74
$GPGSV,3,3,12,11,16,097,27,05,15,262,25,10,07,214,,24,01,109,*78
$GPRMC,202706.008,A,3748.7416,N,12217.7887,W,0.13,356.90,180711,,,A*7B
$GPGGA,202707.008,3748.7349,N,12217.7678,W,1,03,3.3,25.1,M,-25.1,M,,0000*50
$GPGSA,A,2,17,13,07,,,,,,,,,,3.5,3.3,1.0*37
$GPRMC,202707.008,A,3748.7349,N,12217.7678,W,2.10,100.61,180711,,,A*77
$GPVTG,100.61,T,,M,2.10,N,3.9,K,N*0D
$GPGGA,202709.007,3748.7268,N,12217.7389,W,1,03,3.3,25.1,M,-25.1,M,,0000*58
$GPGSA,A,2,17,13,07,,,,,,,,,,3.5,3.3,1.0*37
$GPRMC,202709.007,A,3748.7268,N,12217.7389,W,1.77,81.84,180711,,,A*4E
$GPVTG,81.84,T,,M,1.77,N,3.3,K,N*36
$GPGGA,202711.008,3748.7233,N,12217.7535,W,1,03,3.3,25.1,M,-25.1,M,,0000*51
$GPGSA,A,2,17,13,07,,,,,,,,,,3.5,3.3,1.0*37
$GPGSV,3,1,12,07,51,081,25,17,18,187,25,13,14,153,22,28,67,270,14*78
$GPGSV,3,2,12,08,67,025,19,26,35,313,,01,29,248,,19,20,044,27*75
$GPGSV,3,3,12,11,16,097,20,05,15,262,23,10,07,214,21,24,01,109,*7A
$GPRMC,202711.008,A,3748.7233,N,12217.7535,W,2.32,310.45,180711,,,A*73
$GPVTG,310.45,T,,M,2.32,N,4.3,K,N*05
$GPGGA,202754.007,3748.7430,N,12217.7750,W,1,03,3.4,25.1,M,-25.1,M,,0000*5C
$GPGSA,A,2,17,13,07,,,,,,,,,,3.5,3.4,1.0*30
$GPRMC,202754.007,A,3748.7430,N,12217.7750,W,0.62,283.88,180711,,,A*74
$GPVTG,283.88,T,,M,0.62,N,1.2,K,N*0C
$GPGGA,202758.008,3748.7413,N,12217.7651,W,1,03,3.4,25.1,M,-25.1,M,,0000*5E
$GPGSA,A,2,17,13,07,,,,,,,,,,3.5,3.4,1.0*30
$GPRMC,202758.008,A,3748.7413,N,12217.7651,W,2.46,141.37,180711,,,A*7B
$GPVTG,141.37,T,,M,2.46,N,4.6,K,N*00
$GPGGA,202817.008,3748.7467,N,12217.7784,W,1,03,3.4,25.1,M,-25.1,M,,0000*50
$GPGSA,A,2,17,13,07,,,,,,,,,,3.5,3.4,1.0*30
$GPRMC,202817.008,A,3748.7467,N,12217.7784,W,0.54,142.67,180711,,,A*72
$GPVTG,142.67,T,,M,0.54,N,1.0,K,N*04
$GPGGA,202818.008,3748.7425,N,12217.7764,W,1,03,3.4,25.1,M,-25.1,M,,0000*57
$GPGSA,A,2,17,13,07,,,,,,,,,,3.5,3.4,1.0*30
$GPRMC,202818.008,A,3748.7425,N,12217.7764,W,0.30,61.67,180711,,,A*47
$GPVTG,61.67,T,,M,0.30,N,0.6,K,N*31
$GPGGA,202819.008,3748.7460,N,12217.7775,W,1,03,3.4,25.1,M,-25.1,M,,0000*57
$GPGSA,A,2,17,13,07,,,,,,,,,,3.5,3.4,1.0*30
$GPRMC,202819.008,A,3748.7460,N,12217.7775,W,0.52,32.13,180711,,,A*46
$GPVTG,32.13,T,,M,0.52,N,1.0,K,N*37
$GPGGA,202820.008,3748.7454,N,12217.7786,W,1,03,3.4,25.1,M,-25.1,M,,0000*56
$GPGSA,A,2,17,13,07,,,,,,,,,,3.5,3.4,1.0*30
$GPRMC,202820.008,A,3748.7454,N,12217.7786,W,0.33,101.18,180711,,,A*7A
$GPVTG,101.18,T,,M,0.33,N,0.6,K,N*0D
$GPGGA,202821.008,3748.7426,N,12217.7787,W,1,03,3.4,25.1,M,-25.1,M,,0000*53
$GPGSA,A,2,17,13,07,,,,,,,,,,3.5,3.4,1.0*30
$GPGSV,3,1,12,07,51,081,23,17,18,187,30,13,14,153,28,28,67,270,23*74
$GPGSV,3,2,12,08,67,025,,26,35,313,15,01,29,248,,19,20,044,28*76
$GPGSV,3,3,12,11,16,097,30,05,15,262,22,10,07,214,18,24,01,109,*70
$GPRMC,202821.008,A,3748.7426,N,12217.7787,W,0.34,50.92,180711,,,A*4F
$GPVTG,50.92,T,,M,0.34,N,0.6,K,N*3D
$GPGGA,202822.008,3748.7425,N,12217.7791,W,1,03,3.4,25.1,M,-25.1,M,,0000*54
$GPGSA,A,2,17,13,07,,,,,,,,,,3.5,3.4,1.0*30
$GPRMC,202822.008,A,3748.7425,N,12217.7791,W,0.35,117.95,180711,,,A*7C
$GPVTG,117.95,T,,M,0.35,N,0.6,K,N*09
$GPGGA,202823.008,3748.7440,N,12217.7792,W,1,03,3.4,25.1,M,-25.1,M,,0000*55
$GPGSA,A,2,17,13,07,,,,,,,,,,3.5,3.4,1.0*30
$GPRMC,202823.008,A,3748.7440,N,12217.7792,W,0.48,110.69,180711,,,A*73
$GPVTG,110.69,T,,M,0.48,N,0.9,K,N*08
$GPGGA,202824.008,3748.7441,N,12217.7790,W,1,03,3.4,25.1,M,-25.1,M,,0000*51
$GPGSA,A,2,17,13,07,,,,,,,,,,3.5,3.4,1.0*30
$GPRMC,202824.008,A,3748.7441,N,12217.7790,W,0.54,131.08,180711,,,A*7E
$GPVTG,131.08,T,,M,0.54,N,1.0,K,N*09
$GPGGA,202825.008,3748.7431,N,12217.7790,W,1,03,3.4,25.1,M,-25.1,M,,0000*57
$GPGSA,A,2,17,13,07,,,,,,,,,,3.5,3.4,1.0*30
$GPRMC,202825.008,A,3748.7431,N,12217.7790,W,0.58,131.35,180711,,,A*7A
$GPVTG,131.35,T,,M,0.58,N,1.1,K,N*0A
$GPGGA,202826.008,3748.7431,N,12217.7792,W,1,03,3.4,25.1,M,-25.1,M,,0000*56
$GPGSA,A,2,17,13,07,,,,,,,,,,3.5,3.4,1.0*30
$GPGSV,3,1,12,07,51,081,25,17,18,187,30,13,14,153,28,28,67,270,22*73
$GPGSV,3,2,12,08,67,025,,26,35,313,20,01,29,248,,19,20,044,33*7A
$GPGSV,3,3,12,11,16,097,29,05,15,262,23,10,07,214,15,24,01,109,*74
$GPRMC,202826.008,A,3748.7431,N,12217.7792,W,0.31,99.53,180711,,,A*47
$GPVTG,99.53,T,,M,0.31,N,0.6,K,N*30
$GPGGA,202827.008,3748.7431,N,12217.7788,W,1,03,3.4,25.1,M,-25.1,M,,0000*5C
$GPGSA,A,2,17,13,07,,,,,,,,,,3.5,3.4,1.0*30
$GPRMC,202827.008,A,3748.7431,N,12217.7788,W,0.29,104.72,180711,,,A*72
$GPVTG,104.72,T,,M,0.29,N,0.5,K,N*0C
$GPGGA,202828.008,3748.7431,N,12217.7785,W,1,03,3.4,25.1,M,-25.1,M,,0000*5E
$GPGSA,A,2,17,13,07,,,,,,,,,,3.5,3.4,1.0*30
$GPRMC,202828.008,A,3748.7431,N,12217.7785,W,0.34,87.67,180711,,,A*42
$GPVTG,87.67,T,,M,0.34,N,0.6,K,N*3D
$GPGGA,202829.008,3748.7451,N,12217.7785,W,1,03,3.4,25.1,M,-25.1,M,,0000*59
$GPGSA,A,2,17,13,07,,,,,,,,,,3.5,3.4,1.0*30
$GPRMC,202829.008,A,3748.7451,N,12217.7785,W,0.83,21.59,180711,,,A*48
$GPVTG,21.59,T,,M,0.83,N,1.5,K,N*32
$GPGGA,202830.008,3748.7421,N,12217.7783,W,1,03,3.4,25.1,M,-25.1,M,,0000*50
$GPGSA,A,2,17,13,07,,,,,,,,,,3.5,3.4,1.0*30
$GPRMC,202830.008,A,3748.7421,N,12217.7783,W,0.44,64.95,180711,,,A*4B
$GPVTG,64.95,T,,M,0.44,N,0.8,K,N*34
$GPGGA,202831.008,3748.7409,N,12217.7779,W,1,03,3.4,25.1,M,-25.1,M,,0000*5E
$GPGSA,A,2,17,13,07,,,,,,,,,,3.5,3.4,1.0*30
$GPGSV,3,1,12,07,51,081,28,17,18,187,32,13,14,153,28,28,67,270,25*7B
$GPGSV,3,2,12,08,67,025,,26,35,313,19,01,29,248,,19,20,044,30*73
$GPGSV,3,3,12,11,16,097,28,05,15,262,23,10,07,214,,24,01,109,*71
$GPRMC,202831.008,A,3748.7409,N,12217.7779,W,0.35,105.71,180711,,,A*7F
$GPVTG,105.71,T,,M,0.35,N,0.6,K,N*00
$GPGGA,202832.008,3748.7412,N,12217.7782,W,1,03,3.4,25.1,M,-25.1,M,,0000*53
$GPGSA,A,2,17,13,07,,,,,,,,,,3.5,3.4,1.0*30
$GPRMC,202832.008,A,3748.7412,N,12217.7782,W,0.31,106.00,180711,,,A*73
$GPVTG,106.00,T,,M,0.31,N,0.6,K,N*01
$GPGGA,202833.008,3748.7414,N,12217.7781,W,1,03,3.4,25.1,M,-25.1,M,,0000*57
$GPGSA,A,2,17,13,07,,,,,,,,,,3.5,3.4,1.0*30
$GPRMC,202833.008,A,3748.7414,N,12217.7781,W,0.42,102.11,180711,,,A*77
$GPVTG,102.11,T,,M,0.42,N,0.8,K,N*0F
$GPGGA,202834.008,3748.7414,N,12217.7781,W,1,03,3.4,25.1,M,-25.1,M,,0000*50
$GPGSA,A,2,17,13,07,,,,,,,,,,3.5,3.4,1.0*30
$GPRMC,202834.008,A,3748.7414,N,12217.7781,W,0.31,101.73,180711,,,A*73
$GPVTG,101.73,T,,M,0.31,N,0.6,K,N*02
$GPGGA,202835.008,3748.7421,N,12217.7783,W,1,03,3.4,25.1,M,-25.1,M,,0000*55
$GPGSA,A,2,17,13,07,,,,,,,,,,3.5,3.4,1.0*30
$GPRMC,202835.008,A,3748.7421,N,12217.7783,W,0.22,73.67,180711,,,A*45
$GPVTG,73.67,T,,M,0.22,N,0.4,K,N*33
$GPGGA,202836.008,3748.7422,N,12217.7783,W,1,03,3.4,25.1,M,-25.1,M,,0000*55
$GPGSA,A,2,17,13,07,,,,,,,,,,3.5,3.4,1.0*30
$GPGSV,3,1,12,07,51,081,31,17,18,187,31,13,14,153,27,28,67,270,24*7E
$GPGSV,3,2,12,08,67,025,19,26,35,313,,01,29,248,,19,20,044,31*72
$GPGSV,3,3,12,11,16,097,29,05,15,262,27,10,07,214,,24,01,109,*74
$GPVTG,115.30,T,,M,0.41,N,0.8,K,N*09
$GPGGA,202837.008,3748.7418,N,12217.7785,W,1,03,3.4,25.1,M,-25.1,M,,0000*5B
$GPGSA,A,2,17,13,07,,,,,,,,,,3.5,3.4,1.0*30
$GPRMC,202837.008,A,3748.7418,N,12217.7785,W,0.30,109.80,180711,,,A*7D
$GPVTG,109.80,T,,M,0.30,N,0.6,K,N*07
$GPGGA,202838.008,3748.7415,N,12217.7785,W,1,03,3.4,25.1,M,-25.1,M,,0000*59
$GPGSA,A,2,17,13,07,,,,,,,,,,3.5,3.4,1.0*30
$GPRMC,202838.008,A,3748.7415,N,12217.7785,W,0.44,105.71,180711,,,A*7E
$GPVTG,105.71,T,,M,0.44,N,0.8,K,N*08
$GPGGA,202839.008,3748.7414,N,12217.7788,W,1,03,3.4,25.1,M,-25.1,M,,0000*54
$GPGSA,A,2,17,13,07,,,,,,,,,,3.5,3.4,1.0*30
$GPRMC,202839.008,A,3748.7414,N,12217.7788,W,0.24,84.21,180711,,,A*48
$GPVTG,84.21,T,,M,0.24,N,0.4,K,N*3F
$GPGGA,202840.008,3748.7415,N,12217.7791,W,1,03,3.4,25.1,M,-25.1,M,,0000*53
$GPGSA,A,2,17,13,07,,,,,,,,,,3.5,3.4,1.0*30
$GPRMC,202840.008,A,3748.7415,N,12217.7791,W,0.45,109.09,180711,,,A*76
$GPVTG,109.09,T,,M,0.45,N,0.8,K,N*0A
$GPGGA,202841.008,3748.7417,N,12217.7792,W,1,03,3.4,25.1,M,-25.1,M,,0000*53
$GPGSA,A,2,17,13,07,,,,,,,,,,3.5,3.4,1.0*30
$GPGSV,3,1,12,07,51,081,31,17,18,187,31,13,14,153,27,28,67,270,24*7E
$GPGSV,3,2,12,08,67,025,19,26,35,313,,01,29,248,,19,20,044,32*71
$GPGSV,3,3,12,11,16,097,29,05,15,262,26,10,07,214,,24,01,109,*75
$GPRMC,202841.008,A,3748.7417,N,12217.7792,W,0.44,107.22,180711,,,A*70
$GPVTG,107.22,T,,M,0.44,N,0.8,K,N*0C
$GPGGA,202842.008,3748.7418,N,12217.7795,W,1,03,3.4,25.1,M,-25.1,M,,0000*58
$GPGSA,A,2,17,13,07,,,,,,,,,,3.5,3.4,1.0*30
$GPRMC,202842.008,A,3748.7418,N,12217.7795,W,0.22,79.80,180711,,,A*4B
$GPVTG,79.80,T,,M,0.22,N,0.4,K,N*30
$GPGGA,202843.008,3748.7421,N,12217.7797,W,1,03,3.4,25.1,M,-25.1,M,,0000*51
$GPGSA,A,2,17,13,07,,,,,,,,,,3.5,3.4,1.0*30
$GPRMC,202843.008,A,3748.7421,N,12217.7797,W,0.37,103.16,180711,,,A*75
$GPVTG,103.16,T,,M,0.37,N,0.7,K,N*04
$GPGGA,202844.008,3748.7425,N,12217.7801,W,1,03,3.4,25.1,M,-25.1,M,,0000*52
$GPGSA,A,2,17,13,07,,,,,,,,,,3.5,3.4,1.0*30
$GPRMC,202844.008,A,3748.7425,N,12217.7801,W,0.40,104.28,180711,,,A*7C
$GPVTG,104.28,T,,M,0.40,N,0.7,K,N*0E
$GPGGA,202845.008,3748.7430,N,12217.7808,W,1,03,3.4,25.1,M,-25.1,M,,0000*5E
$GPGSA,A,2,17,13,07,,,,,,,,,,3.5,3.4,1.0*30
$GPRMC,202845.008,A,3748.7430,N,12217.7808,W,0.26,103.15,180711,,,A*79
$GPVTG,103.15,T,,M,0.26,N,0.5,K,N*05
$GPGGA,202846.008,3748.7437,N,12217.7815,W,1,03,3.4,25.1,M,-25.1,M,,0000*56
$GPGSA,A,2,17,13,07,,,,,,,,,,3.5,3.4,1.0*30
$GPGSV,3,1,12,07,51,081,31,17,18,187,31,13,14,153,26,28,67,270,24*7F
$GPGSV,3,2,12,08,67,025,19,26,35,313,,01,29,248,,19,20,044,32*71
$GPGSV,3,3,12,11,16,097,30,05,15,262,14,10,07,214,,24,01,109,*7C
$GPRMC,202846.008,A,3748.7437,N,12217.7815,W,0.33,86.67,180711,,,A*4C
$GPVTG,86.67,T,,M,0.33,N,0.6,K,N*3B
$GPGGA,202847.008,3748.7437,N,12217.7810,W,1,03,3.4,25.1,M,-25.1,M,,0000*52
$GPGSA,A,2,17,13,07,,,,,,,,,,3.5,3.4,1.0*30
$GPRMC,202847.008,A,3748.7437,N,12217.7810,W,0.38,110.14,180711,,,A*79
$GPVTG,110.14,T,,M,0.38,N,0.7,K,N*0B
$GPGGA,202848.008,3748.7441,N,12217.7813,W,1,03,3.4,25.1,M,-25.1,M,,0000*5F
$GPGSA,A,2,17,13,07,,,,,,,,,,3.5,3.4,1.0*30
$GPRMC,202848.008,A,3748.7441,N,12217.7813,W,0.38,110.14,180711,,,A*74
$GPVTG,110.14,T,,M,0.38,N,0.7,K,N*0B
$GPGGA,202849.008,3748.7444,N,12217.7816,W,1,03,3.4,25.1,M,-25.1,M,,0000*5E
$GPGSA,A,2,17,13,07,,,,,,,,,,3.5,3.4,1.0*30
$GPRMC,202849.008,A,3748.7444,N,12217.7816,W,0.28,99.99,180711,,,A*41
$GPVTG,99.99,T,,M,0.28,N,0.5,K,N*3D
$GPGGA,202850.008,3748.7446,N,12217.7817,W,1,03,3.4,25.1,M,-25.1,M,,0000*55
$GPGSA,A,2,17,13,07,,,,,,,,,,3.5,3.4,1.0*30
$GPRMC,202850.008,A,3748.7446,N,12217.7817,W,0.42,98.89,180711,,,A*46
$GPVTG,98.89,T,,M,0.42,N,0.8,K,N*3C
$GPGGA,202851.008,3748.7451,N,12217.7821,W,1,03,3.4,25.1,M,-25.1,M,,0000*57
$GPGSA,A,2,17,13,07,,,,,,,,,,3.5,3.4,1.0*30
$GPGSV,3,1,12,07,50,083,30,17,19,187,31,13,13,153,27,28,68,273,24*76
$GPGSV,3,2,12,08,67,029,18,26,36,312,,01,31,249,,19,19,044,33*7D
$GPGSV,3,3,12,11,16,096,30,05,15,261,25,10,06,213,,24,02,108,*78
$GPRMC,202851.008,A,3748.7451,N,12217.7821,W,0.27,91.56,180711,,,A*4C
$GPGGA,202852.008,3748.7504,N,12217.7849,W,1,04,2.8,10.6,M,-25.1,M,,0000*50
$GPGSA,A,3,17,13,19,07,,,,,,,,,3.8,2.8,2.6*3C
$GPRMC,202852.008,A,3748.7504,N,12217.7849,W,0.22,77.72,180711,,,A*4B
$GPVTG,77.72,T,,M,0.22,N,0.4,K,A*3C
$GPGGA,202853.008,3748.7504,N,12217.7852,W,1,04,2.8,11.2,M,-25.1,M,,0000*5E
$GPGSA,A,3,17,13,19,07,,,,,,,,,3.8,2.8,2.6*3C
$GPRMC,202853.008,A,3748.7504,N,12217.7852,W,0.29,90.34,180711,,,A*40
$GPVTG,90.34,T,,M,0.29,N,0.5,K,A*3D
$GPGGA,202854.008,3748.7504,N,12217.7852,W,1,04,2.8,11.6,M,-25.1,M,,0000*5D
$GPGSA,A,3,17,13,19,07,,,,,,,,,3.8,2.8,2.6*3C
$GPRMC,202854.008,A,3748.7504,N,12217.7852,W,0.34,100.97,180711,,,A*7A
$GPVTG,100.97,T,,M,0.34,N,0.6,K,A*03
$GPGGA,202855.000,3748.7504,N,12217.7852,W,1,04,2.8,12.3,M,-25.1,M,,0000*52
$GPGSA,A,3,17,13,19,07,,,,,,,,,3.8,2.8,2.6*3C
$GPRMC,202855.000,A,3748.7504,N,12217.7852,W,0.26,87.88,180711,,,A*40
$GPVTG,87.88,T,,M,0.26,N,0.5,K,A*33
$GPGGA,202856.000,3748.7500,N,12217.7842,W,1,03,5.8,16.9,M,-25.1,M,,0000*5A
$GPGSA,A,2,17,19,07,,,,,,,,,,5.9,5.8,1.0*3A
$GPGSV,3,1,12,07,50,083,24,17,20,187,31,19,19,044,33,13,13,153,*78
$GPGSV,3,2,12,28,68,273,24,08,67,029,,26,37,312,16,01,31,249,*76
$GPGSV,3,3,12,11,16,096,30,05,15,261,24,10,06,213,,24,02,108,*79
$GPRMC,202856.000,A,3748.7500,N,12217.7842,W,0.36,102.69,180711,,,A*74
$GPVTG,102.69,T,,M,0.36,N,0.7,K,N*0C
$GPGGA,202857.000,3748.7485,N,12217.7816,W,1,03,5.8,24.0,M,-25.1,M,,0000*5E
$GPGSA,A,2,17,19,07,,,,,,,,,,5.9,5.8,1.0*3A
$GPRMC,202857.000,A,3748.7485,N,12217.7816,W,0.88,118.62,180711,,,A*7D
$GPVTG,118.62,T,,M,0.88,N,1.6,K,N*09
$GPGGA,202858.000,3748.7481,N,12217.7813,W,1,04,2.8,24.7,M,-25.1,M,,0000*57
$GPGSA,A,3,17,13,19,07,,,,,,,,,3.8,2.8,2.6*3C
$GPRMC,202858.000,A,3748.7481,N,12217.7813,W,0.15,141.98,180711,,,A*7E
$GPVTG,141.98,T,,M,0.15,N,0.3,K,A*0F
$GPGGA,202859.000,3748.7483,N,12217.7806,W,1,04,2.8,20.1,M,-25.1,M,,0000*52
$GPGSA,A,3,17,13,19,07,,,,,,,,,3.8,2.8,2.6*3C
$GPRMC,202859.000,A,3748.7483,N,12217.7806,W,0.46,90.62,180711,,,A*47
$GPVTG,90.62,T,,M,0.46,N,0.9,K,A*3B
$GPGGA,202900.000,3748.7495,N,12217.7828,W,1,04,2.8,20.0,M,-25.1,M,,0000*55
$GPGSA,A,3,17,13,19,07,,,,,,,,,3.8,2.8,2.6*3C
$GPRMC,202900.000,A,3748.7495,N,12217.7828,W,0.30,90.12,180711,,,A*47
$GPVTG,90.12,T,,M,0.30,N,0.5,K,A*31
$GPGGA,202901.000,3748.7514,N,12217.7868,W,1,04,2.8,21.6,M,-25.1,M,,0000*5F
$GPGSA,A,3,17,13,19,07,,,,,,,,,3.8,2.8,2.6*3C
$GPGSV,3,1,12,07,50,083,26,17,20,187,33,19,19,044,24,13,13,153,26*7A
$GPGSV,3,2,12,28,68,273,25,08,67,029,24,26,37,312,08,01,31,249,*7E
$GPGSV,3,3,12,11,16,096,31,05,15,261,18,10,06,213,,24,02,108,*77
$GPRMC,202901.000,A,3748.7514,N,12217.7868,W,0.17,345.44,180711,,,A*77
$GPVTG,345.44,T,,M,0.17,N,0.3,K,A*0A
$GPGGA,202902.000,3748.7521,N,12217.7881,W,1,04,2.8,21.7,M,-25.1,M,,0000*5C
$GPGSA,A,3,17,13,19,07,,,,,,,,,3.8,2.8,2.6*3C
$GPRMC,202902.000,A,3748.7521,N,12217.7881,W,0.15,2.68,180711,,,A*79
$GPVTG,2.68,T,,M,0.15,N,0.3,K,A*06
$GPGGA,202903.000,3748.7518,N,12217.7868,W,1,04,2.8,20.3,M,-25.1,M,,0000*55
$GPGSA,A,3,17,13,19,07,,,,,,,,,3.8,2.8,2.6*3C
$GPRMC,202903.000,A,3748.7518,N,12217.7868,W,0.42,78.41,180711,,,A*41
$GPVTG,78.41,T,,M,0.42,N,0.8,K,A*39
$GPGGA,202904.000,3748.7524,N,12217.7879,W,1,04,2.8,20.6,M,-25.1,M,,0000*58
$GPGSA,A,3,17,13,19,07,,,,,,,,,3.8,2.8,2.6*3C
$GPRMC,202904.000,A,3748.7524,N,12217.7879,W,0.08,18.48,180711,,,A*48
$GPVTG,18.48,T,,M,0.08,N,0.2,K,A*32
$GPGGA,202905.000,3748.7527,N,12217.7889,W,1,04,2.8,21.9,M,-25.1,M,,0000*5B
$GPGSA,A,3,17,13,19,07,,,,,,,,,3.8,2.8,2.6*3C
$GPRMC,202905.000,A,3748.7527,N,12217.7889,W,0.12,77.79,180711,,,A*45
$GPVTG,77.79,T,,M,0.12,N,0.2,K,A*32
$GPGGA,202906.000,3748.7524,N,12217.7888,W,1,04,2.8,23.1,M,-25.1,M,,0000*50
$GPGSA,A,3,17,13,19,07,,,,,,,,,3.8,2.8,2.6*3C
$GPGSV,3,1,12,07,50,083,31,17,20,187,33,19,19,044,24,13,13,153,25*7F
$GPGSV,3,2,12,28,68,273,25,08,67,029,13,26,37,312,15,01,31,249,*76
$GPGSV,3,3,12,11,16,096,28,05,15,261,16,10,06,213,19,24,02,108,*79
$GPRMC,202906.000,A,3748.7524,N,12217.7888,W,0.56,115.98,180711,,,A*7E
$GPGGA,202907.000,3748.7525,N,12217.7888,W,1,03,5.8,22.8,M,-25.1,M,,0000*58
$GPGSA,A,2,17,19,07,,,,,,,,,,5.9,5.8,1.0*3A
$GPRMC,202907.000,A,3748.7525,N,12217.7888,W,0.47,105.75,180711,,,A*7C
$GPVTG,105.75,T,,M,0.47,N,0.9,K,N*0E
$GPGGA,202908.000,3748.7526,N,12217.7889,W,1,03,5.8,22.4,M,-25.1,M,,0000*59
$GPGSA,A,2,17,19,07,,,,,,,,,,5.9,5.8,1.0*3A
$GPRMC,202908.000,A,3748.7526,N,12217.7889,W,0.24,125.84,180711,,,A*78
$GPVTG,125.84,T,,M,0.24,N,0.4,K,N*0A
$GPGGA,202909.000,3748.7530,N,12217.7897,W,1,04,2.8,22.6,M,-25.1,M,,0000*52
$GPGSA,A,3,17,13,19,07,,,,,,,,,3.8,2.8,2.6*3C
$GPRMC,202909.000,A,3748.7530,N,12217.7897,W,0.59,118.15,180711,,,A*7D
$GPVTG,118.15,T,,M,0.59,N,1.1,K,A*0D
$GPGGA,202910.000,3748.7536,N,12217.7913,W,1,04,2.8,23.3,M,-25.1,M,,0000*55
$GPGSA,A,3,17,13,19,07,,,,,,,,,3.8,2.8,2.6*3C
$GPRMC,202910.000,A,3748.7536,N,12217.7913,W,0.19,85.70,180711,,,A*4C
$GPVTG,85.70,T,,M,0.19,N,0.3,K,A*3C
$GPGGA,202911.000,3748.7538,N,12217.7915,W,1,04,2.8,22.8,M,-25.1,M,,0000*56
$GPGSA,A,3,17,13,19,07,,,,,,,,,3.8,2.8,2.6*3C
$GPGSV,3,1,12,07,50,083,30,17,20,187,28,19,19,044,32,13,13,153,28*7E
$GPGSV,3,2,12,28,68,273,19,08,67,029,19,26,37,312,14,01,31,249,*72
$GPGSV,3,3,12,11,16,096,34,05,15,261,22,10,06,213,20,24,02,108,*79
$GPRMC,202911.000,A,3748.7538,N,12217.7915,W,0.08,53.67,180711,,,A*48
$GPVTG,53.67,T,,M,0.08,N,0.2,K,A*30
$GPGGA,202912.000,3748.7540,N,12217.7917,W,1,03,5.8,22.3,M,-25.1,M,,0000*53
$GPGSA,A,2,17,19,07,,,,,,,,,,5.8,5.8,1.0*3B
$GPRMC,202912.000,A,3748.7540,N,12217.7917,W,0.21,349.89,180711,,,A*75
$GPVTG,349.89,T,,M,0.21,N,0.4,K,N*0A
$GPGGA,202913.000,3748.7541,N,12217.7926,W,1,04,2.8,22.0,M,-25.1,M,,0000*52
$GPGSA,A,3,17,13,19,07,,,,,,,,,3.8,2.8,2.6*3C
$GPRMC,202913.000,A,3748.7541,N,12217.7926,W,0.37,246.20,180711,,,A*7D
$GPVTG,246.20,T,,M,0.37,N,0.7,K,A*0C
$GPGGA,202914.000,3748.7542,N,12217.7935,W,1,03,5.8,21.6,M,-25.1,M,,0000*51
$GPGSA,A,2,17,19,07,,,,,,,,,,5.8,5.8,1.0*3B
$GPRMC,202914.000,A,3748.7542,N,12217.7935,W,0.42,292.82,180711,,,A*78
$GPVTG,292.82,T,,M,0.42,N,0.8,K,N*0F
$GPGGA,202915.000,3748.7542,N,12217.7931,W,1,03,5.7,22.0,M,-25.1,M,,0000*5E
$GPGSA,A,2,17,19,07,,,,,,,,,,5.8,5.7,1.0*34
$GPRMC,202915.000,A,3748.7542,N,12217.7931,W,0.23,286.88,180711,,,A*75
$GPVTG,286.88,T,,M,0.23,N,0.4,K,N*0B
$GPGGA,202916.000,3748.7544,N,12217.7936,W,1,03,5.7,21.6,M,-25.1,M,,0000*59
$GPGSA,A,2,17,19,07,,,,,,,,,,5.8,5.7,1.0*34
$GPGSV,3,1,12,07,50,083,21,17,20,187,21,19,19,044,29,13,13,153,*77
$GPGSV,3,2,12,28,68,273,18,08,67,029,27,26,37,312,13,01,31,249,*79
$GPGSV,3,3,12,11,16,096,27,05,15,261,25,10,06,213,,24,02,108,*7E
$GPVTG,299.42,T,,M,0.55,N,1.0,K,N*07
$GPGGA,202917.000,3748.7544,N,12217.7939,W,1,03,5.7,21.6,M,-25.1,M,,0000*57
$GPGSA,A,2,17,19,07,,,,,,,,,,5.8,5.7,1.0*34
$GPRMC,202917.000,A,3748.7544,N,12217.7939,W,0.37,312.35,180711,,,A*76
$GPVTG,312.35,T,,M,0.37,N,0.7,K,N*07
$GPGGA,202918.000,3748.7545,N,12217.7948,W,1,04,2.8,21.5,M,-25.1,M,,0000*53
$GPGSA,A,3,17,13,19,07,,,,,,,,,3.8,2.8,2.6*3C
$GPRMC,202918.000,A,3748.7545,N,12217.7948,W,0.15,119.81,180711,,,A*78
$GPVTG,119.81,T,,M,0.15,N,0.3,K,A*0A
$GPGGA,202919.000,3748.7544,N,12217.7950,W,1,03,5.7,21.8,M,-25.1,M,,0000*58
$GPGSA,A,2,17,19,07,,,,,,,,,,5.8,5.7,1.0*34
$GPRMC,202919.000,A,3748.7544,N,12217.7950,W,0.40,85.22,180711,,,A*4C
$GPVTG,85.22,T,,M,0.40,N,0.7,K,N*3C
$GPGGA,202920.000,3748.7543,N,12217.7947,W,1,03,5.7,22.1,M,-25.1,M,,0000*59
$GPGSA,A,2,17,19,07,,,,,,,,,,5.8,5.7,1.0*34
$GPRMC,202920.000,A,3748.7543,N,12217.7947,W,0.82,71.12,180711,,,A*41
$GPVTG,71.12,T,,M,0.82,N,1.5,K,N*39
$GPGGA,202921.000,3748.7541,N,12217.7944,W,1,03,5.7,22.5,M,-25.1,M,,0000*5D
$GPGSA,A,2,17,19,07,,,,,,,,,,5.8,5.7,1.0*34
$GPGSV,3,1,12,07,50,083,27,17,20,187,20,19,19,044,30,13,13,153,*78
$GPGSV,3,2,12,28,68,273,09,08,67,029,26,26,37,312,,01,31,249,*7A
$GPGSV,3,3,12,11,16,096,27,05,15,261,23,10,06,213,,24,02,108,*78
$GPRMC,202921.000,A,3748.7541,N,12217.7944,W,0.93,88.50,180711,,,A*41
$GPVTG,88.50,T,,M,0.93,N,1.7,K,N*3B
$GPGGA,202922.000,3748.7547,N,12217.7963,W,1,04,2.8,23.8,M,-25.1,M,,0000*5E
$GPGSA,A,3,17,19,13,07,,,,,,,,,3.8,2.8,2.6*3C
$GPRMC,202922.000,A,3748.7547,N,12217.7963,W,0.56,314.65,180711,,,A*78
$GPVTG,314.65,T,,M,0.56,N,1.0,K,A*0A
$GPGGA,202923.000,3748.7548,N,12217.7976,W,1,03,5.7,24.0,M,-25.1,M,,0000*54
$GPGSA,A,2,17,19,07,,,,,,,,,,5.8,5.7,1.0*34
$GPRMC,202923.000,A,3748.7548,N,12217.7976,W,0.67,306.01,180711,,,A*71
$GPVTG,306.01,T,,M,0.67,N,1.2,K,N*04
$GPGGA,202924.000,3748.7543,N,12217.7964,W,1,04,2.8,23.1,M,-25.1,M,,0000*52
$GPGSA,A,3,17,13,19,07,,,,,,,,,3.8,2.8,2.6*3C
$GPRMC,202924.000,A,3748.7543,N,12217.7964,W,0.78,322.47,180711,,,A*74
$GPVTG,322.47,T,,M,0.78,N,1.4,K,A*07
$GPGGA,202925.000,3748.7535,N,12217.7939,W,1,04,2.8,21.6,M,-25.1,M,,0000*5F
$GPGSA,A,3,17,13,19,07,,,,,,,,,3.8,2.8,2.6*3C
$GPRMC,202925.000,A,3748.7535,N,12217.7939,W,0.14,121.33,180711,,,A*74
$GPVTG,121.33,T,,M,0.14,N,0.3,K,A*09
$GPGGA,202926.000,3748.7517,N,12217.7891,W,1,04,2.8,18.2,M,-25.1,M,,0000*51
$GPGSA,A,3,17,13,19,07,,,,,,,,,3.8,2.8,2.6*3C
$GPGSV,3,1,12,07,50,083,27,17,20,187,18,19,19,044,29,13,13,153,22*7B
$GPGSV,3,2,12,28,68,273,,08,67,029,26,26,37,312,,01,31,249,*73
$GPGSV,3,3,12,11,16,096,28,05,15,261,23,10,06,213,,24,02,108,*77
$GPRMC,202926.000,A,3748.7517,N,12217.7891,W,1.32,85.57,180711,,,A*4C
$GPVTG,85.57,T,,M,1.32,N,2.5,K,A*35
$GPGGA,202927.000,3748.7505,N,12217.7857,W,1,04,2.8,15.4,M,-25.1,M,,0000*52
$GPGSA,A,3,17,13,19,07,,,,,,,,,3.8,2.8,2.6*3C
$GPRMC,202927.000,A,3748.7505,N,12217.7857,W,1.95,102.54,180711,,,A*74
$GPVTG,102.54,T,,M,1.95,N,3.6,K,A*07
$GPGGA,202928.000,3748.7505,N,12217.7857,W,1,03,5.7,15.1,M,-25.1,M,,0000*57
$GPGSA,A,2,17,19,07,,,,,,,,,,5.8,5.7,1.0*34
$GPRMC,202928.000,A,3748.7505,N,12217.7857,W,1.61,101.86,180711,,,A*7C
$GPVTG,101.86,T,,M,1.61,N,3.0,K,N*09
$GPGGA,202929.000,3748.7505,N,12217.7858,W,1,03,5.7,14.8,M,-25.1,M,,0000*51
$GPGSA,A,2,17,19,07,,,,,,,,,,5.8,5.7,1.0*34
$GPRMC,202929.000,A,3748.7505,N,12217.7858,W,1.14,113.18,180711,,,A*74
$GPVTG,113.18,T,,M,1.14,N,2.1,K,N*0F
$GPGGA,202930.000,3748.7505,N,12217.7852,W,1,03,5.7,14.4,M,-25.1,M,,0000*5F
$GPGSA,A,2,17,19,07,,,,,,,,,,5.8,5.7,1.0*34
$GPRMC,202930.000,A,3748.7505,N,12217.7852,W,0.96,123.49,180711,,,A*7A
$GPVTG,123.49,T,,M,0.96,N,1.8,K,N*09
$GPGGA,202931.000,3748.7506,N,12217.7863,W,1,03,5.7,14.2,M,-25.1,M,,0000*59
$GPGSA,A,2,17,19,07,,,,,,,,,,5.8,5.7,1.0*34
$GPGSV,3,1,12,07,50,083,29,17,20,187,18,19,19,044,29,13,13,153,*75
$GPGSV,3,2,12,28,68,273,18,08,67,029,25,26,37,312,,01,31,249,*79
$GPGSV,3,3,12,11,16,096,27,05,15,261,23,10,06,213,,24,02,108,*78
$GPRMC,202931.000,A,3748.7506,N,12217.7863,W,0.58,123.05,180711,,,A*70
$GPGGA,202932.000,3748.7507,N,12217.7871,W,1,03,5.7,14.0,M,-25.1,M,,0000*5A
$GPGSA,A,2,17,19,07,,,,,,,,,,5.8,5.7,1.0*34
$GPRMC,202932.000,A,3748.7507,N,12217.7871,W,0.49,191.40,180711,,,A*79
$GPVTG,191.40,T,,M,0.49,N,0.9,K,N*0B
$GPGGA,202933.000,3748.7508,N,12217.7885,W,1,03,5.7,13.8,M,-25.1,M,,0000*50
$GPGSA,A,2,17,19,07,,,,,,,,,,5.8,5.7,1.0*34
$GPRMC,202933.000,A,3748.7508,N,12217.7885,W,0.81,236.60,180711,,,A*74
$GPVTG,236.60,T,,M,0.81,N,1.5,K,N*0E
$GPGGA,202934.000,3748.7508,N,12217.7878,W,1,03,5.7,13.6,M,-25.1,M,,0000*5B
$GPGSA,A,2,17,19,07,,,,,,,,,,5.8,5.7,1.0*34
$GPRMC,202934.000,A,3748.7508,N,12217.7878,W,0.35,298.45,180711,,,A*7D
$GPVTG,298.45,T,,M,0.35,N,0.6,K,N*00
$GPGGA,202935.000,3748.7509,N,12217.7872,W,1,03,5.7,13.4,M,-25.1,M,,0000*53
$GPGSA,A,2,17,19,07,,,,,,,,,,5.8,5.7,1.0*34
$GPRMC,202935.000,A,3748.7509,N,12217.7872,W,0.47,27.86,180711,,,A*4B
$GPVTG,27.86,T,,M,0.47,N,0.9,K,N*33
$GPGGA,202936.000,3748.7511,N,12217.7873,W,1,03,5.7,13.3,M,-25.1,M,,0000*5F
$GPGSA,A,2,17,19,07,,,,,,,,,,5.8,5.7,1.0*34
$GPGSV,3,1,12,07,50,083,28,17,20,187,19,19,19,044,28,13,13,153,*74
$GPGSV,3,2,12,28,68,273,14,08,67,029,25,26,37,312,,01,31,249,*75
$GPGSV,3,3,12,11,16,096,20,05,15,261,23,10,06,213,,24,02,108,*7F
$GPRMC,202936.000,A,3748.7511,N,12217.7873,W,0.15,193.13,180711,,,A*75
$GPVTG,193.13,T,,M,0.15,N,0.3,K,N*0C
$GPGGA,202937.000,3748.7508,N,12217.7863,W,1,03,5.7,12.9,M,-25.1,M,,0000*5C
$GPGSA,A,2,17,19,07,,,,,,,,,,5.7,5.7,1.0*3B
$GPRMC,202937.000,A,3748.7508,N,12217.7863,W,0.90,131.61,180711,,,A*7D
$GPVTG,131.61,T,,M,0.90,N,1.7,K,A*06
$GPGGA,202938.000,3748.7473,N,12217.7767,W,1,04,2.8,7.7,M,-25.1,M,,0000*60
$GPGSA,A,3,17,13,19,07,,,,,,,,,3.8,2.8,2.6*3C
$GPRMC,202938.000,A,3748.7473,N,12217.7767,W,3.26,109.86,180711,,,A*78
$GPVTG,109.86,T,,M,3.26,N,6.0,K,A*0A
$GPGGA,202939.000,3748.7475,N,12217.7766,W,1,03,5.7,7.0,M,-25.1,M,,0000*6E
$GPGSA,A,2,17,19,07,,,,,,,,,,5.7,5.7,1.0*3B
$GPRMC,202939.000,A,3748.7475,N,12217.7766,W,2.75,112.50,180711,,,A*78
$GPVTG,112.50,T,,M,2.75,N,5.1,K,N*01
$GPGGA,202940.000,3748.7479,N,12217.7768,W,1,04,2.8,7.1,M,-25.1,M,,0000*6C
$GPGSA,A,3,17,13,19,07,,,,,,,,,3.8,2.8,2.6*3C
$GPRMC,202940.000,A,3748.7479,N,12217.7768,W,2.35,104.60,180711,,,A*74
$GPVTG,104.60,T,,M,2.35,N,4.4,K,A*0A
$GPGGA,202941.000,3748.7475,N,12217.7765,W,1,03,5.6,7.2,M,-25.1,M,,0000*61
$GPGSA,A,2,17,19,07,,,,,,,,,,5.7,5.6,1.0*3A
$GPGSV,3,1,12,07,50,083,21,17,20,187,29,19,19,044,28,13,13,153,30*7D
$GPGSV,3,2,12,28,68,273,24,08,67,029,20,26,37,312,,01,31,249,*73
$GPGSV,3,3,12,11,16,096,20,05,15,261,27,10,06,213,,24,02,108,*7B
$GPRMC,202941.000,A,3748.7475,N,12217.7765,W,2.08,125.93,180711,,,A*75
$GPVTG,125.93,T,,M,2.08,N,3.8,K,N*0F
$GPGGA,202942.000,3748.7477,N,12217.7772,W,1,04,2.8,6.5,M,-25.1,M,,0000*6E
$GPGSA,A,3,17,13,19,07,,,,,,,,,3.8,2.8,2.6*3C
$GPRMC,202942.000,A,3748.7477,N,12217.7772,W,0.94,52.86,180711,,,A*40
$GPVTG,52.86,T,,M,0.94,N,1.7,K,A*3F
$GPGGA,202943.000,3748.7481,N,12217.7780,W,1,03,5.6,5.9,M,-25.1,M,,0000*6A
$GPGSA,A,2,17,19,07,,,,,,,,,,5.7,5.6,1.0*3A
$GPRMC,202943.000,A,3748.7481,N,12217.7780,W,0.42,47.39,180711,,,A*4E
$GPVTG,47.39,T,,M,0.42,N,0.8,K,N*35
$GPGGA,202944.000,3748.7484,N,12217.7795,W,1,03,5.6,5.4,M,-25.1,M,,0000*61
$GPGSA,A,2,17,19,07,,,,,,,,,,5.7,5.6,1.0*3A
$GPRMC,202944.000,A,3748.7484,N,12217.7795,W,0.28,236.75,180711,,,A*78
$GPVTG,236.75,T,,M,0.28,N,0.5,K,N*08
$GPGGA,202945.000,3748.7487,N,12217.7806,W,1,03,5.6,4.9,M,-25.1,M,,0000*6A
$GPGSA,A,2,17,19,07,,,,,,,,,,5.7,5.6,1.0*3A
$GPRMC,202945.000,A,3748.7487,N,12217.7806,W,0.33,309.29,180711,,,A*71
$GPVTG,309.29,T,,M,0.33,N,0.6,K,N*05
$GPGGA,202946.000,3748.7484,N,12217.7801,W,1,04,2.8,3.6,M,-25.1,M,,0000*6B
$GPGSA,A,3,17,13,19,07,,,,,,,,,3.8,2.8,2.6*3C
$GPGSV,3,1,12,07,50,083,31,17,20,187,25,19,19,044,33,13,13,153,17*7F
$GPGSV,3,2,12,28,68,273,17,08,67,029,27,26,37,312,,01,31,249,*74
$GPGSV,3,3,12,11,16,096,31,05,15,261,23,10,06,213,,24,02,108,*7F
$GPRMC,202946.000,A,3748.7484,N,12217.7801,W,0.59,106.93,180711,,,A*76
$GPVTG,106.93,T,,M,0.59,N,1.1,K,A*0C
$GPGGA,202947.000,3748.7482,N,12217.7804,W,1,04,2.8,2.3,M,-25.1,M,,0000*6D
$GPGSA,A,3,17,13,19,07,,,,,,,,,3.8,2.8,2.6*3C
$GPRMC,202947.000,A,3748.7482,N,12217.7804,W,0.51,163.54,180711,,,A*74
$GPVTG,163.54,T,,M,0.51,N,0.9,K,A*05
$GPGGA,202948.000,3748.7489,N,12217.7827,W,1,04,2.8,3.6,M,-25.1,M,,0000*6C
$GPGSA,A,3,17,13,19,07,,,,,,,,,3.8,2.8,2.6*3C
$GPRMC,202948.000,A,3748.7489,N,12217.7827,W,0.30,212.21,180711,,,A*71
$GPVTG,212.21,T,,M,0.30,N,0.5,K,A*09
$GPGGA,202949.000,3748.7499,N,12217.7865,W,1,04,2.8,5.2,M,-25.1,M,,0000*68
$GPGSA,A,3,17,13,19,07,,,,,,,,,3.8,2.8,2.6*3C
$GPRMC,202949.000,A,3748.7499,N,12217.7865,W,0.15,159.29,180711,,,A*74
$GPVTG,159.29,T,,M,0.15,N,0.3,K,A*0C
$GPGGA,202950.000,3748.7506,N,12217.7886,W,1,04,2.8,5.8,M,-25.1,M,,0000*60
$GPGSA,A,3,17,13,19,07,,,,,,,,,3.8,2.8,2.6*3C
$GPRMC,202950.000,A,3748.7506,N,12217.7886,W,0.43,273.82,180711,,,A*7F
$GPVTG,273.82,T,,M,0.43,N,0.8,K,A*0E
$GPGGA,202951.000,3748.7494,N,12217.7855,W,1,05,2.3,4.6,M,-25.1,M,,0000*60
$GPGSA,A,3,17,13,08,19,07,,,,,,,,3.1,2.3,2.0*30
$GPGSV,3,1,12,07,50,083,17,17,20,187,24,19,19,044,24,13,13,153,21*79
$GPGSV,3,2,12,28,68,273,24,08,67,029,20,26,37,312,21,01,31,249,*70
$GPGSV,3,3,12,11,16,096,20,05,15,261,31,10,06,213,15,24,02,108,*78
$GPRMC,202951.000,A,3748.7494,N,12217.7855,W,1.19,125.02,180711,,,A*7C
$GPVTG,125.02,T,,M,1.19,N,2.2,K,A*00
$GPGGA,202952.000,3748.7482,N,12217.7822,W,1,05,2.3,2.4,M,-25.1,M,,0000*60
$GPGSA,A,3,17,13,08,19,07,,,,,,,,3.1,2.3,2.0*30
$GPRMC,202952.000,A,3748.7482,N,12217.7822,W,2.99,115.78,180711,,,A*7D
$GPVTG,115.78,T,,M,2.99,N,5.5,K,A*05
$GPGGA,202953.000,3748.7481,N,12217.7818,W,1,05,2.3,1.6,M,-25.1,M,,0000*6A
$GPGSA,A,3,17,13,08,19,07,,,,,,,,3.1,2.3,2.0*30
$GPRMC,202953.000,A,3748.7481,N,12217.7818,W,2.50,109.02,180711,,,A*73
$GPVTG,109.02,T,,M,2.50,N,4.6,K,A*02
$GPGGA,202954.000,3748.7483,N,12217.7814,W,1,05,2.3,1.2,M,-25.1,M,,0000*67
$GPGSA,A,3,17,13,08,19,07,,,,,,,,3.1,2.3,2.0*30
$GPRMC,202954.000,A,3748.7483,N,12217.7814,W,2.21,99.23,180711,,,A*47
$GPVTG,99.23,T,,M,2.21,N,4.1,K,A*38
$GPGGA,202955.000,3748.7486,N,12217.7813,W,1,05,2.3,0.6,M,-25.1,M,,0000*61
$GPGSA,A,3,17,13,08,19,07,,,,,,,,3.1,2.3,2.0*30
$GPRMC,202955.000,A,3748.7486,N,12217.7813,W,0.97,107.09,180711,,,A*75
$GPVTG,107.09,T,,M,0.97,N,1.8,K,A*05
$GPGGA,202956.000,3748.7485,N,12217.7810,W,1,05,2.3,1.3,M,-25.1,M,,0000*66
$GPGSA,A,3,17,13,08,19,07,,,,,,,,3.1,2.3,2.0*30
$GPGSV,3,1,12,28,68,275,17,08,67,030,25,07,50,084,29,26,37,312,07*75
$GPGSV,3,2,12,01,31,250,,17,20,187,32,19,19,043,25,11,16,095,34*78
$GPGSV,3,3,12,05,14,261,22,13,12,153,21,10,06,213,18,24,02,108,*79
$GPRMC,202956.000,A,3748.7485,N,12217.7810,W,0.98,98.52,180711,,,A*40
$GPVTG,98.52,T,,M,0.98,N,1.8,K,A*33
$GPGGA,202957.000,3748.7486,N,12217.7805,W,1,05,2.3,1.5,M,-25.1,M,,0000*66
$GPGSA,A,3,17,13,08,19,07,,,,,,,,3.1,2.3,2.0*30
$GPRMC,202957.000,A,3748.7486,N,12217.7805,W,0.53,84.13,180711,,,A*49
$GPVTG,84.13,T,,M,0.53,N,1.0,K,A*34
$GPGGA,202958.000,3748.7487,N,12217.7803,W,1,05,2.3,2.5,M,-25.1,M,,0000*6D
$GPGSA,A,3,17,13,08,19,07,,,,,,,,3.1,2.3,2.0*30
$GPRMC,202958.000,A,3748.7487,N,12217.7803,W,0.54,98.28,180711,,,A*43
$GPVTG,98.28,T,,M,0.54,N,1.0,K,A*36
$GPGGA,202959.000,3748.7490,N,12217.7804,W,1,05,2.3,3.0,M,-25.1,M,,0000*69
$GPGSA,A,3,17,13,08,19,07,,,,,,,,3.1,2.3,2.0*30
$GPRMC,202959.000,A,3748.7490,N,12217.7804,W,0.67,114.95,180711,,,A*70
$GPVTG,114.95,T,,M,0.67,N,1.2,K,A*07
$GPGGA,203000.000,3748.7493,N,12217.7805,W,1,05,2.3,3.6,M,-25.1,M,,0000*69
$GPGSA,A,3,17,13,08,19,07,,,,,,,,3.1,2.3,2.0*30
$GPRMC,203000.000,A,3748.7493,N,12217.7805,W,0.07,183.22,180711,,,A*72
$GPVTG,183.22,T,,M,0.07,N,0.1,K,A*01
$GPGGA,203001.000,3748.7491,N,12217.7807,W,1,05,2.3,5.9,M,-25.1,M,,0000*61
$GPGSA,A,3,17,13,08,19,07,,,,,,,,3.1,2.3,2.0*30
$GPGSV,3,1,12,28,68,275,23,08,67,030,23,07,50,084,28,26,37,312,15*76
$GPGSV,3,2,12,01,31,250,,17,20,187,31,19,19,043,24,11,16,095,33*7D
$GPGSV,3,3,12,05,14,261,,13,12,153,23,10,06,213,20,24,02,108,*70
$GPRMC,203001.000,A,3748.7491,N,12217.7807,W,0.78,136.24,180711,,,A*73
$GPGGA,203002.000,3748.7489,N,12217.7802,W,1,05,2.3,7.6,M,-25.1,M,,0000*63
$GPGSA,A,3,17,13,08,19,07,,,,,,,,3.1,2.3,2.0*30
$GPRMC,203002.000,A,3748.7489,N,12217.7802,W,0.86,118.72,180711,,,A*72
$GPVTG,118.72,T,,M,0.86,N,1.6,K,A*09
$GPGGA,203003.000,3748.7486,N,12217.7794,W,1,05,2.3,8.9,M,-25.1,M,,0000*6D
$GPGSA,A,3,17,13,08,19,07,,,,,,,,3.1,2.3,2.0*30
$GPRMC,203003.000,A,3748.7486,N,12217.7794,W,1.53,118.84,180711,,,A*7C
$GPVTG,118.84,T,,M,1.53,N,2.8,K,A*04
$GPGGA,203004.000,3748.7483,N,12217.7787,W,1,05,2.3,9.9,M,-25.1,M,,0000*6C
$GPGSA,A,3,17,13,08,19,07,,,,,,,,3.1,2.3,2.0*30
$GPRMC,203004.000,A,3748.7483,N,12217.7787,W,1.45,115.37,180711,,,A*7E
$GPVTG,115.37,T,,M,1.45,N,2.7,K,A*09
$GPGGA,203005.000,3748.7482,N,12217.7784,W,1,05,2.3,11.1,M,-25.1,M,,0000*5E
$GPGSA,A,3,17,13,08,19,07,,,,,,,,3.1,2.3,2.0*30
$GPRMC,203005.000,A,3748.7482,N,12217.7784,W,1.04,114.62,180711,,,A*79
$GPVTG,114.62,T,,M,1.04,N,1.9,K,A*00
$GPGGA,203006.000,3748.7479,N,12217.7777,W,1,05,2.3,11.7,M,-25.1,M,,0000*53
$GPGSA,A,3,17,13,08,19,07,,,,,,,,3.1,2.3,2.0*30
$GPGSV,3,1,12,28,68,275,23,08,67,030,15,07,50,084,28,26,37,312,16*70
$GPGSV,3,2,12,01,31,250,,17,20,187,31,19,19,043,29,11,16,095,29*7B
$GPGSV,3,3,12,05,14,261,,13,12,153,24,10,06,213,21,24,02,108,*76
$GPRMC,203006.000,A,3748.7479,N,12217.7777,W,1.46,115.40,180711,,,A*75
$GPVTG,115.40,T,,M,1.46,N,2.7,K,A*0A
$GPGGA,203007.000,3748.7476,N,12217.7765,W,1,05,2.3,11.6,M,-25.1,M,,0000*5F
$GPGSA,A,3,17,13,08,19,07,,,,,,,,3.1,2.3,2.0*30
$GPRMC,203007.000,A,3748.7476,N,12217.7765,W,1.38,112.08,180711,,,A*7A
$GPVTG,112.08,T,,M,1.38,N,2.6,K,A*09
$GPGGA,203008.000,3748.7478,N,12217.7768,W,1,05,2.3,12.6,M,-25.1,M,,0000*50
$GPGSA,A,3,17,13,08,19,07,,,,,,,,3.1,2.3,2.0*30
$GPRMC,203008.000,A,3748.7478,N,12217.7768,W,1.35,116.26,180711,,,A*73
$GPVTG,116.26,T,,M,1.35,N,2.5,K,A*0F
$GPGGA,203009.000,3748.7479,N,12217.7769,W,1,05,2.3,13.2,M,-25.1,M,,0000*54
$GPGSA,A,3,17,13,08,19,07,,,,,,,,3.1,2.3,2.0*30
$GPRMC,203009.000,A,3748.7479,N,12217.7769,W,1.78,110.25,180711,,,A*7E
$GPVTG,110.25,T,,M,1.78,N,3.3,K,A*04
$GPGGA,203010.000,3748.7480,N,12217.7770,W,1,05,2.3,13.9,M,-25.1,M,,0000*59
$GPGSA,A,3,17,13,08,19,07,,,,,,,,3.1,2.3,2.0*30
$GPRMC,203010.000,A,3748.7480,N,12217.7770,W,1.15,112.34,180711,,,A*71
$GPVTG,112.34,T,,M,1.15,N,2.1,K,A*0E
$GPGGA,203011.000,3748.7479,N,12217.7772,W,1,05,2.3,14.2,M,-25.1,M,,0000*50
$GPGSA,A,3,17,13,08,19,07,,,,,,,,3.1,2.3,2.0*30
$GPGSV,3,1,12,28,68,275,18,08,67,030,17,07,50,084,29,26,37,312,*7C
$GPGSV,3,2,12,01,31,250,,17,20,187,32,19,19,043,29,11,16,095,28*79
$GPGSV,3,3,12,05,14,261,,13,12,153,23,10,06,213,20,24,02,108,*70
$GPRMC,203011.000,A,3748.7479,N,12217.7772,W,0.53,108.05,180711,,,A*7E
$GPVTG,108.05,T,,M,0.53,N,1.0,K,A*06
$GPGGA,203012.000,3748.7479,N,12217.7773,W,1,03,5.5,14.4,M,-25.1,M,,0000*53
$GPGSA,A,2,17,19,07,,,,,,,,,,5.6,5.5,1.0*38
$GPRMC,203012.000,A,3748.7479,N,12217.7773,W,0.07,36.98,180711,,,A*45
$GPVTG,36.98,T,,M,0.07,N,0.1,K,A*3F
$GPGGA,203013.000,3748.7479,N,12217.7774,W,1,03,5.5,14.5,M,-25.1,M,,0000*54
$GPGSA,A,2,17,19,07,,,,,,,,,,5.6,5.5,1.0*38
$GPRMC,203013.000,A,3748.7479,N,12217.7774,W,0.12,319.43,180711,,,A*7F
$GPVTG,319.43,T,,M,0.12,N,0.2,K,A*00
$GPGGA,203014.000,3748.7481,N,12217.7780,W,1,05,2.3,15.1,M,-25.1,M,,0000*5D
$GPGSA,A,3,17,13,08,19,07,,,,,,,,3.1,2.3,2.0*30
$GPRMC,203014.000,A,3748.7481,N,12217.7780,W,1.00,302.67,180711,,,A*7A
$GPVTG,302.67,T,,M,1.00,N,1.8,K,A*05
$GPGGA,203015.000,3748.7486,N,12217.7793,W,1,05,2.3,16.2,M,-25.1,M,,0000*59
$GPGSA,A,3,17,13,08,19,07,,,,,,,,3.1,2.3,2.0*30
$GPRMC,203015.000,A,3748.7486,N,12217.7793,W,1.52,299.37,180711,,,A*7F
$GPVTG,299.37,T,,M,1.52,N,2.8,K,A*07
$GPGGA,203016.000,3748.7490,N,12217.7802,W,1,05,2.3,16.7,M,-25.1,M,,0000*5F
$GPGSA,A,3,17,13,08,19,07,,,,,,,,3.1,2.3,2.0*30
$GPGSV,3,1,12,28,68,275,15,08,67,031,16,07,50,084,30,26,37,312,16*7E
$GPGSV,3,2,12,01,31,250,,17,20,187,33,19,19,043,23,11,16,095,22*78
$GPGSV,3,3,12,05,14,260,23,13,12,153,23,10,06,213,27,24,02,108,*77
$GPRMC,203016.000,A,3748.7490,N,12217.7802,W,1.63,298.81,180711,,,A*72
$GPGGA,203017.000,3748.7493,N,12217.7808,W,1,04,2.8,16.9,M,-25.1,M,,0000*53
$GPGSA,A,3,17,13,19,07,,,,,,,,,3.8,2.8,2.6*3C
$GPRMC,203017.000,A,3748.7493,N,12217.7808,W,1.00,293.38,180711,,,A*76
$GPVTG,293.38,T,,M,1.00,N,1.8,K,A*06
$GPGGA,203018.000,3748.7493,N,12217.7812,W,1,04,2.8,17.2,M,-25.1,M,,0000*5D
$GPGSA,A,3,17,13,19,07,,,,,,,,,3.8,2.8,2.6*3C
$GPRMC,203018.000,A,3748.7493,N,12217.7812,W,0.37,262.39,180711,,,A*78
$GPVTG,262.39,T,,M,0.37,N,0.7,K,A*02
$GPGGA,203019.000,3748.7497,N,12217.7817,W,1,04,2.8,16.8,M,-25.1,M,,0000*56
$GPGSA,A,3,17,13,19,07,,,,,,,,,3.8,2.8,2.6*3C
$GPRMC,203019.000,A,3748.7497,N,12217.7817,W,0.27,315.85,180711,,,A*7F
$GPVTG,315.85,T,,M,0.27,N,0.5,K,A*07
$GPGGA,203020.000,3748.7496,N,12217.7812,W,1,05,2.3,16.2,M,-25.1,M,,0000*58
$GPGSA,A,3,17,13,08,19,07,,,,,,,,3.1,2.3,2.0*30
$GPRMC,203020.000,A,3748.7496,N,12217.7812,W,0.22,67.79,180711,,,A*41
$GPVTG,67.79,T,,M,0.22,N,0.4,K,A*36
$GPGGA,203021.000,3748.7489,N,12217.7793,W,1,05,2.3,14.6,M,-25.1,M,,0000*57
$GPGSA,A,3,17,13,08,19,07,,,,,,,,3.1,2.3,2.0*30
$GPGSV,3,1,12,28,68,275,22,08,67,031,19,07,50,084,14,26,37,312,17*72
$GPGSV,3,2,12,01,31,250,,17,20,187,32,19,19,043,17,11,16,095,12*7D
$GPGSV,3,3,12,05,14,260,28,13,12,153,22,10,06,213,20,24,02,108,*7A
$GPRMC,203021.000,A,3748.7489,N,12217.7793,W,1.62,75.03,180711,,,A*43
$GPVTG,75.03,T,,M,1.62,N,3.0,K,A*3A
$GPGGA,203022.000,3748.7484,N,12217.7779,W,1,05,2.0,15.9,M,-25.1,M,,0000*50
$GPGSA,A,3,11,17,13,19,07,,,,,,,,3.2,2.0,2.5*3D
$GPRMC,203022.000,A,3748.7484,N,12217.7779,W,2.30,96.47,180711,,,A*40
$GPVTG,96.47,T,,M,2.30,N,4.3,K,A*37
$GPGGA,203023.000,3748.7478,N,12217.7768,W,1,05,2.0,16.1,M,-25.1,M,,0000*59
$GPGSA,A,3,11,17,13,19,07,,,,,,,,3.2,2.0,2.4*3C
$GPRMC,203023.000,A,3748.7478,N,12217.7768,W,2.64,115.71,180711,,,A*7C
$GPVTG,115.71,T,,M,2.64,N,4.9,K,A*03
$GPGGA,203024.000,3748.7471,N,12217.7754,W,1,05,2.0,14.0,M,-25.1,M,,0000*5B
$GPGSA,A,3,11,17,13,19,07,,,,,,,,3.2,2.0,2.4*3C
$GPRMC,203024.000,A,3748.7471,N,12217.7754,W,2.27,113.95,180711,,,A*76
$GPVTG,113.95,T,,M,2.27,N,4.2,K,A*03
$GPGGA,203025.000,3748.7468,N,12217.7748,W,1,05,2.0,11.7,M,-25.1,M,,0000*5D
$GPGSA,A,3,11,17,13,19,07,,,,,,,,3.2,2.0,2.4*3C
$GPRMC,203025.000,A,3748.7468,N,12217.7748,W,1.86,115.31,180711,,,A*72
$GPVTG,115.31,T,,M,1.86,N,3.4,K,A*02
