$ADVER,3080,2.3
$GPRMC,201834.641,A,3748.8062,N,12217.8694,W,0.09,93.43,180711,,,A*49
$GPGGA,201835.641,3748.8061,N,12217.8694,W,1,03,2.9,25.1,M,-25.1,M,,0000*56
$GPGSA,A,2,08,26,28,,,,,,,,,,3.1,2.9,1.0*3D
$GPRMC,201835.641,A,3748.8061,N,12217.8694,W,0.14,178.24,180711,,,A*72
$GPVTG,178.24,T,,M,0.14,N,0.3,K,N*0C
$GPGGA,201836.641,3748.8062,N,12217.8695,W,1,03,2.9,25.1,M,-25.1,M,,0000*57
$GPGSA,A,2,08,26,28,,,,,,,,,,3.1,2.9,1.0*3D
$GPRMC,201836.641,A,3748.8062,N,12217.8695,W,0.12,269.58,180711,,,A*7D
$GPVTG,269.58,T,,M,0.12,N,0.2,K,N*03
$GPGGA,201837.641,3748.8061,N,12217.8698,W,1,03,2.9,25.1,M,-25.1,M,,0000*58
$GPGSA,A,2,08,26,28,,,,,,,,,,3.1,2.9,1.0*3D
$GPGSV,3,1,12,08,66,016,33,28,65,263,39,26,32,314,37,07,53,076,30*77
$GPGSV,3,2,12,01,27,245,,19,22,047,27,13,17,152,40,05,17,265,36*73
$GPGSV,3,3,12,17,15,187,41,11,14,100,18,10,09,216,36,48,00,000,38*71
$GPRMC,201837.641,A,3748.8061,N,12217.8698,W,0.09,103.16,180711,,,A*7D
$GPVTG,103.16,T,,M,0.09,N,0.2,K,N*0C
$GPGGA,201838.641,3748.8061,N,12217.8699,W,1,03,3.0,25.1,M,-25.1,M,,0000*5E
$GPGSA,A,2,08,26,28,,,,,,,,,,3.1,3.0,1.0*35
$GPRMC,201838.641,A,3748.8061,N,12217.8699,W,0.09,101.95,180711,,,A*7A
$GPVTG,101.95,T,,M,0.09,N,0.2,K,N*05
$GPGGA,201839.641,3748.8063,N,12217.8698,W,1,03,3.0,25.1,M,-25.1,M,,0000*5C
$GPGSA,A,2,08,26,28,,,,,,,,,,3.1,3.0,1.0*35
$GPRMC,201839.641,A,3748.8063,N,12217.8698,W,0.31,37.99,180711,,,A*4B
$GPVTG,37.99,T,,M,0.31,N,0.6,K,N*32
$GPGGA,201839.641,3748.8065,N,12217.8697,W,1,03,3.0,25.1,M,-25.1,M,,0000*55
$GPGSA,A,2,08,26,28,,,,,,,,,,3.1,3.0,1.0*35
$GPRMC,201839.641,A,3748.8065,N,12217.8697,W,0.37,5.44,180711,,,A*75
$GPVTG,5.44,T,,M,0.37,N,0.7,K,N*04
$GPGGA,201840.641,3748.8065,N,12217.8697,W,1,03,3.0,25.1,M,-25.1,M,,0000*5B
$GPGSA,A,2,08,26,28,,,,,,,,,,3.1,3.0,1.0*35
$GPRMC,201840.641,A,3748.8065,N,12217.8697,W,0.12,126.64,180711,,,A*7E
$GPVTG,126.64,T,,M,0.12,N,0.2,K,N*04
$GPGGA,201841.641,3748.8050,N,12217.8769,W,1,03,3.0,25.1,M,-25.1,M,,0000*5C
$GPGSA,A,2,08,26,28,,,,,,,,,,3.1,3.0,1.0*35
$GPGSV,3,1,12,08,66,016,32,28,65,263,31,26,32,314,38,07,53,076,19*7A
$GPGSV,3,2,12,01,27,245,,19,22,047,29,13,17,152,28,05,17,265,36*73
$GPGSV,3,3,12,17,15,187,29,11,14,100,19,10,09,216,28,48,00,000,29*71
$GPRMC,201841.641,A,3748.8050,N,12217.8769,W,0.11,301.10,180711,,,A*7E
$GPGGA,201842.641,3748.8038,N,12217.8825,W,1,03,3.0,25.1,M,-25.1,M,,0000*56
$GPGSA,A,2,08,26,28,,,,,,,,,,3.1,3.0,1.0*35
$GPRMC,201842.641,A,3748.8038,N,12217.8825,W,0.05,121.48,180711,,,A*7C
$GPVTG,121.48,T,,M,0.05,N,0.1,K,N*08
$GPGGA,201843.641,3748.7993,N,12217.9025,W,1,03,3.0,25.1,M,-25.1,M,,0000*59
$GPGSA,A,2,08,26,28,,,,,,,,,,3.1,3.0,1.0*35
$GPRMC,201843.641,A,3748.7993,N,12217.9025,W,0.61,88.50,180711,,,A*4A
$GPVTG,88.50,T,,M,0.61,N,1.1,K,N*30
$GPGGA,201844.641,3748.7995,N,12217.9019,W,1,03,3.0,25.1,M,-25.1,M,,0000*57
$GPGSA,A,2,08,26,28,,,,,,,,,,3.1,3.0,1.0*35
$GPRMC,201844.641,A,3748.7995,N,12217.9019,W,0.09,202.78,180711,,,A*70
$GPVTG,202.78,T,,M,0.09,N,0.2,K,N*06
$GPGGA,201845.641,3748.7977,N,12217.9100,W,1,03,3.0,25.1,M,-25.1,M,,0000*53
$GPGSA,A,2,08,26,28,,,,,,,,,,3.1,3.0,1.0*35
$GPRMC,201845.641,A,3748.7977,N,12217.9100,W,2.85,76.67,180711,,,A*4D
$GPVTG,76.67,T,,M,2.85,N,5.3,K,N*3B
$GPGGA,201846.641,3748.8000,N,12217.9069,W,1,03,3.0,25.1,M,-25.1,M,,0000*58
$GPGSA,A,2,08,26,28,,,,,,,,,,3.1,3.0,1.0*35
$GPGSV,3,1,12,08,66,017,15,28,65,263,31,26,32,314,37,07,53,077,21*7B
$GPGSV,3,2,12,01,27,245,,19,22,047,22,13,17,152,27,05,17,265,36*77
$GPGSV,3,3,12,17,15,187,29,11,14,100,18,10,09,216,30,48,44,197,32*7C
$GPRMC,201846.641,A,3748.8000,N,12217.9069,W,6.77,75.04,180711,,,A*49
$GPVTG,75.04,T,,M,6.77,N,12.5,K,N*04
$GPGGA,201847.641,3748.8041,N,12217.8889,W,1,03,3.0,25.1,M,-25.1,M,,0000*5B
$GPGSA,A,2,08,26,28,,,,,,,,,,3.1,3.0,1.0*35
$GPRMC,201847.641,A,3748.8041,N,12217.8889,W,1.22,74.37,180711,,,A*4C
$GPVTG,74.37,T,,M,1.22,N,2.3,K,N*35
$GPGGA,201848.641,3748.8066,N,12217.8775,W,1,03,3.0,25.1,M,-25.1,M,,0000*5D
$GPGSA,A,2,08,26,28,,,,,,,,,,3.1,3.0,1.0*35
$GPRMC,201848.641,A,3748.8066,N,12217.8775,W,0.07,122.88,180711,,,A*7A
$GPVTG,122.88,T,,M,0.07,N,0.1,K,N*05
$GPGGA,201849.641,3748.8077,N,12217.8726,W,1,03,3.0,25.1,M,-25.1,M,,0000*5A
$GPGSA,A,2,08,26,28,,,,,,,,,,3.1,3.0,1.0*35
$GPRMC,201849.641,A,3748.8077,N,12217.8726,W,0.37,245.04,180711,,,A*78
$GPVTG,245.04,T,,M,0.37,N,0.7,K,N*06
$GPGGA,201850.641,3748.8028,N,12217.8711,W,1,03,3.0,25.1,M,-25.1,M,,0000*5C
$GPGSA,A,2,08,26,28,,,,,,,,,,3.1,3.0,1.0*35
$GPRMC,201850.641,A,3748.8028,N,12217.8711,W,0.09,64.46,180711,,,A*44
$GPVTG,64.46,T,,M,0.09,N,0.2,K,N*39
$GPGGA,201851.641,3748.8036,N,12217.8714,W,1,03,3.0,25.1,M,-25.1,M,,0000*57
$GPGSA,A,2,08,26,28,,,,,,,,,,3.1,3.0,1.0*35
$GPGSV,3,1,11,08,66,017,30,28,65,263,27,26,32,314,26,07,53,077,27*7E
$GPGSV,3,2,11,01,27,245,,19,22,047,31,13,17,152,21,05,17,265,27*70
$GPGSV,3,3,11,17,15,187,30,11,14,100,18,10,09,216,28*4C
$GPVTG,291.28,T,,M,0.34,N,0.6,K,N*03
$GPGGA,201852.641,3748.8084,N,12217.8688,W,1,03,3.0,25.1,M,-25.1,M,,0000*59
$GPGSA,A,2,08,26,28,,,,,,,,,,3.1,3.0,1.0*35
$GPRMC,201852.641,A,3748.8084,N,12217.8688,W,0.56,44.42,180711,,,A*4D
$GPVTG,44.42,T,,M,0.56,N,1.0,K,N*36
$GPGGA,201853.641,3748.7994,N,12217.8713,W,1,03,3.0,25.1,M,-25.1,M,,0000*5C
$GPGSA,A,2,08,26,28,,,,,,,,,,3.1,3.0,1.0*35
$GPRMC,201853.641,A,3748.7994,N,12217.8713,W,2.09,22.86,180711,,,A*48
$GPVTG,22.86,T,,M,2.09,N,3.9,K,N*3D
$GPGGA,201854.641,3748.7941,N,12217.8675,W,1,03,3.0,25.1,M,-25.1,M,,0000*52
$GPGSA,A,2,08,26,28,,,,,,,,,,3.1,3.0,1.0*35
$GPRMC,201854.641,A,3748.7941,N,12217.8675,W,0.22,263.37,180711,,,A*70
$GPVTG,263.37,T,,M,0.22,N,0.4,K,N*05
$GPGGA,201855.641,3748.7958,N,12217.8613,W,1,03,3.0,25.1,M,-25.1,M,,0000*5B
$GPGSA,A,2,08,26,28,,,,,,,,,,3.1,3.0,1.0*35
$GPRMC,201855.641,A,3748.7958,N,12217.8613,W,2.87,285.36,180711,,,A*7D
$GPVTG,285.36,T,,M,2.87,N,5.3,K,N*03
$GPGGA,201856.641,3748.8032,N,12217.8709,W,1,03,3.0,25.1,M,-25.1,M,,0000*58
$GPGSA,A,2,08,26,28,,,,,,,,,,3.1,3.0,1.0*35
$GPGSV,3,1,11,08,66,017,28,28,65,263,25,26,32,314,27,07,53,077,31*73
$GPGSV,3,2,11,01,27,245,,19,22,047,29,13,17,152,20,05,17,265,24*7B
$GPGSV,3,3,11,17,15,187,17,11,14,100,18,10,09,216,22*43
$GPRMC,201856.641,A,3748.8032,N,12217.8709,W,1.39,109.42,180711,,,A*7C
$GPVTG,109.42,T,,M,1.39,N,2.6,K,N*03
$GPGGA,201857.641,3748.8027,N,12217.8660,W,1,03,3.0,25.1,M,-25.1,M,,0000*53
$GPGSA,A,2,08,26,28,,,,,,,,,,3.1,3.0,1.0*35
$GPRMC,201857.641,A,3748.8027,N,12217.8660,W,0.84,196.38,180711,,,A*7B
$GPVTG,196.38,T,,M,0.84,N,1.6,K,N*0C
$GPGGA,201858.641,3748.8001,N,12217.8667,W,1,03,3.0,25.1,M,-25.1,M,,0000*5F
$GPGSA,A,2,08,26,28,,,,,,,,,,3.1,3.0,1.0*35
$GPRMC,201858.641,A,3748.8001,N,12217.8667,W,0.18,162.19,180711,,,A*7A
$GPVTG,162.19,T,,M,0.18,N,0.3,K,N*05
$GPGGA,201859.641,3748.8038,N,12217.8655,W,1,03,3.0,25.1,M,-25.1,M,,0000*55
$GPGSA,A,2,08,26,28,,,,,,,,,,3.1,3.0,1.0*35
$GPRMC,201859.641,A,3748.8038,N,12217.8655,W,0.10,55.75,180711,,,A*47
$GPVTG,55.75,T,,M,0.10,N,0.2,K,N*33
$GPGGA,201900.641,3748.8040,N,12217.8664,W,1,03,3.0,25.1,M,-25.1,M,,0000*55
$GPGSA,A,2,08,26,28,,,,,,,,,,3.1,3.0,1.0*35
$GPRMC,201900.641,A,3748.8040,N,12217.8664,W,0.27,212.70,180711,,,A*77
$GPVTG,212.70,T,,M,0.27,N,0.5,K,N*04
$GPGGA,201901.641,3748.8053,N,12217.8663,W,1,03,3.0,25.1,M,-25.1,M,,0000*51
$GPGSA,A,2,08,26,28,,,,,,,,,,3.1,3.0,1.0*35
$GPGSV,3,1,12,08,66,017,32,28,65,263,30,26,32,314,33,07,53,077,23*79
$GPGSV,3,2,12,01,27,245,,19,22,047,26,13,17,152,21,05,17,265,27*75
$GPGSV,3,3,12,17,15,187,21,11,14,100,19,10,09,216,24,48,44,197,31*73
$GPRMC,201901.641,A,3748.8053,N,12217.8663,W,0.16,60.65,180711,,,A*42
$GPVTG,60.65,T,,M,0.16,N,0.3,K,N*33
$GPGGA,201902.641,3748.8060,N,12217.8667,W,1,03,3.0,25.1,M,-25.1,M,,0000*56
$GPGSA,A,2,08,26,28,,,,,,,,,,3.1,3.0,1.0*35
$GPRMC,201902.641,A,3748.8060,N,12217.8667,W,0.16,137.91,180711,,,A*7D
$GPVTG,137.91,T,,M,0.16,N,0.3,K,N*0B
$GPGGA,201903.641,3748.8064,N,12217.8675,W,1,03,3.0,25.1,M,-25.1,M,,0000*50
$GPGSA,A,2,08,26,28,,,,,,,,,,3.1,3.0,1.0*35
$GPRMC,201903.641,A,3748.8064,N,12217.8675,W,0.09,169.25,180711,,,A*71
$GPVTG,169.25,T,,M,0.09,N,0.2,K,N*00
$GPGGA,201904.641,3748.8068,N,12217.8677,W,1,03,3.0,25.1,M,-25.1,M,,0000*59
$GPGSA,A,2,08,26,28,,,,,,,,,,3.1,3.0,1.0*35
$GPRMC,201904.641,A,3748.8068,N,12217.8677,W,0.13,115.09,180711,,,A*76
$GPVTG,115.09,T,,M,0.13,N,0.2,K,N*0E
$GPGGA,201905.641,3748.8070,N,12217.8676,W,1,03,3.0,25.1,M,-25.1,M,,0000*50
$GPGSA,A,2,08,26,28,,,,,,,,,,3.1,3.0,1.0*35
$GPRMC,201905.641,A,3748.8070,N,12217.8676,W,0.20,162.32,180711,,,A*77
$GPVTG,162.32,T,,M,0.20,N,0.4,K,N*00
$GPGGA,201906.641,3748.8069,N,12217.8673,W,1,03,3.0,25.1,M,-25.1,M,,0000*5E
$GPGSA,A,2,08,26,28,,,,,,,,,,3.1,3.0,1.0*35
$GPGSV,3,1,11,08,66,017,32,28,65,263,30,26,32,314,32,07,53,077,21*79
$GPGSV,3,2,11,01,27,245,,19,22,047,27,13,17,152,21,05,17,265,25*75
$GPGSV,3,3,11,17,15,187,18,11,14,100,,10,09,216,28*4F
$GPRMC,201906.641,A,3748.8069,N,12217.8673,W,0.10,164.51,180711,,,A*79
$GPGGA,201907.641,3748.8067,N,12217.8673,W,1,03,3.0,25.1,M,-25.1,M,,0000*51
$GPGSA,A,2,08,26,28,,,,,,,,,,3.1,3.0,1.0*35
$GPRMC,201907.641,A,3748.8067,N,12217.8673,W,0.03,142.08,180711,,,A*7C
$GPVTG,142.08,T,,M,0.03,N,0.1,K,N*0F
$GPGGA,201908.641,3748.8068,N,12217.8673,W,1,03,3.0,25.1,M,-25.1,M,,0000*51
$GPGSA,A,2,08,26,28,,,,,,,,,,3.1,3.0,1.0*35
$GPRMC,201908.641,A,3748.8068,N,12217.8673,W,0.09,90.63,180711,,,A*45
$GPVTG,90.63,T,,M,0.09,N,0.2,K,N*35
$GPGGA,201909.641,3748.8067,N,12217.8614,W,1,03,3.0,25.1,M,-25.1,M,,0000*5E
$GPGSA,A,2,08,26,28,,,,,,,,,,3.1,3.0,1.0*35
$GPRMC,201909.641,A,3748.8067,N,12217.8614,W,0.05,112.39,180711,,,A*72
$GPVTG,112.39,T,,M,0.05,N,0.1,K,N*0E
$GPGGA,201910.641,3748.8021,N,12217.8643,W,1,03,3.0,25.1,M,-25.1,M,,0000*56
$GPGSA,A,2,08,26,28,,,,,,,,,,3.1,3.0,1.0*35
$GPRMC,201910.641,A,3748.8021,N,12217.8643,W,0.23,343.98,180711,,,A*73
$GPVTG,343.98,T,,M,0.23,N,0.4,K,N*02
$GPGGA,201911.641,3748.8066,N,12217.8641,W,1,03,3.0,25.1,M,-25.1,M,,0000*56
$GPGSA,A,2,08,26,28,,,,,,,,,,3.1,3.0,1.0*35
$GPGSV,3,1,11,08,66,017,31,28,65,263,25,26,32,314,28,07,53,077,26*72
$GPGSV,3,2,11,01,27,245,,19,22,047,30,13,17,152,21,05,17,265,29*7F
$GPGSV,3,3,11,17,15,187,23,11,14,100,,10,09,216,20*4F
$GPRMC,201911.641,A,3748.8066,N,12217.8641,W,0.30,183.24,180711,,,A*78
$GPVTG,183.24,T,,M,0.30,N,0.6,K,N*0B
$GPGGA,201912.641,3748.8081,N,12217.8637,W,1,03,3.0,25.1,M,-25.1,M,,0000*5D
$GPGSA,A,2,08,26,28,,,,,,,,,,3.1,3.0,1.0*35
$GPRMC,201912.641,A,3748.8081,N,12217.8637,W,0.45,165.13,180711,,,A*7D
$GPVTG,165.13,T,,M,0.45,N,0.8,K,N*0B
$GPGGA,201913.640,3748.8093,N,12217.8642,W,1,03,3.0,25.1,M,-25.1,M,,0000*5C
$GPGSA,A,2,08,26,28,,,,,,,,,,3.1,3.0,1.0*35
$GPRMC,201913.640,A,3748.8093,N,12217.8642,W,3.82,200.32,180711,,,A*77
$GPVTG,200.32,T,,M,3.82,N,7.1,K,N*0E
$GPGGA,201914.640,3748.8091,N,12217.8651,W,1,03,3.0,25.1,M,-25.1,M,,0000*5B
$GPGSA,A,2,08,26,28,,,,,,,,,,3.1,3.0,1.0*35
$GPRMC,201914.640,A,3748.8091,N,12217.8651,W,0.28,29.38,180711,,,A*40
$GPVTG,29.38,T,,M,0.28,N,0.5,K,N*3D
$GPGGA,201915.640,3748.8077,N,12217.8659,W,1,03,3.0,25.1,M,-25.1,M,,0000*5A
$GPGSA,A,2,08,26,28,,,,,,,,,,3.1,3.0,1.0*35
$GPRMC,201915.640,A,3748.8077,N,12217.8659,W,0.49,197.04,180711,,,A*7D
$GPVTG,197.04,T,,M,0.49,N,0.9,K,N*0D
$GPGGA,201916.640,3748.8078,N,12217.8661,W,1,03,3.0,25.1,M,-25.1,M,,0000*5D
$GPGSA,A,2,08,26,28,,,,,,,,,,3.1,3.0,1.0*35
$GPGSV,3,1,11,08,66,017,31,28,65,264,32,26,33,314,28,07,53,077,27*73
$GPGSV,3,2,11,01,27,246,,19,22,046,31,13,17,152,21,05,17,265,28*7D
$GPGSV,3,3,11,17,15,187,23,11,14,100,,10,09,216,20*4F
$GPRMC,201916.640,A,3748.8078,N,12217.8661,W,0.11,105.61,180711,,,A*7F
$GPVTG,105.61,T,,M,0.11,N,0.2,K,N*03
$GPGGA,201917.640,3748.8080,N,12217.8660,W,1,03,3.0,25.1,M,-25.1,M,,0000*5A
$GPGSA,A,2,08,26,28,,,,,,,,,,3.1,3.0,1.0*35
$GPRMC,201917.640,A,3748.8080,N,12217.8660,W,0.13,54.99,180711,,,A*48
$GPVTG,54.99,T,,M,0.13,N,0.2,K,N*33
$GPGGA,201918.640,3748.8079,N,12217.8661,W,1,03,3.0,25.1,M,-25.1,M,,0000*52
$GPGSA,A,2,08,26,28,,,,,,,,,,3.1,3.0,1.0*35
$GPRMC,201918.640,A,3748.8079,N,12217.8661,W,0.11,171.53,180711,,,A*72
$GPVTG,171.53,T,,M,0.11,N,0.2,K,N*01
$GPGGA,201919.640,3748.8079,N,12217.8661,W,1,03,3.0,25.1,M,-25.1,M,,0000*53
$GPGSA,A,2,08,26,28,,,,,,,,,,3.1,3.0,1.0*35
$GPRMC,201919.640,A,3748.8079,N,12217.8661,W,0.06,343.90,180711,,,A*79
$GPVTG,343.90,T,,M,0.06,N,0.1,K,N*08
$GPGGA,201920.640,3748.8079,N,12217.8663,W,1,03,3.0,25.1,M,-25.1,M,,0000*5B
$GPGSA,A,2,08,26,28,,,,,,,,,,3.1,3.0,1.0*35
$GPRMC,201920.640,A,3748.8079,N,12217.8663,W,0.21,141.09,180711,,,A*74
$GPVTG,141.09,T,,M,0.21,N,0.4,K,N*08
$GPGGA,201921.640,3748.8081,N,12217.8665,W,1,03,3.0,25.1,M,-25.1,M,,0000*5B
$GPGSA,A,2,08,26,28,,,,,,,,,,3.1,3.0,1.0*35
$GPGSV,3,1,11,08,66,017,32,28,65,264,32,26,33,314,33,07,53,077,18*76
$GPGSV,3,2,11,01,27,246,,19,22,046,30,13,17,152,21,05,17,265,28*7C
$GPGSV,3,3,11,17,15,187,25,11,14,100,,10,09,216,29*40
$GPRMC,201921.640,A,3748.8081,N,12217.8665,W,0.03,165.71,180711,,,A*7D
$GPVTG,165.71,T,,M,0.03,N,0.1,K,N*04
$GPGGA,201922.640,3748.8083,N,12217.8665,W,1,03,3.0,25.1,M,-25.1,M,,0000*5A
$GPGSA,A,2,08,26,28,,,,,,,,,,3.1,3.0,1.0*35
$GPRMC,201922.640,A,3748.8083,N,12217.8665,W,0.07,150.30,180711,,,A*7B
$GPVTG,150.30,T,,M,0.07,N,0.1,K,N*03
$GPGGA,201923.640,3748.8087,N,12217.8663,W,1,03,3.0,25.1,M,-25.1,M,,0000*59
$GPGSA,A,2,08,26,28,,,,,,,,,,3.1,3.0,1.0*35
$GPRMC,201923.640,A,3748.8087,N,12217.8663,W,0.04,187.30,180711,,,A*71
$GPVTG,187.30,T,,M,0.04,N,0.1,K,N*0A
$GPGGA,201924.640,3748.8090,N,12217.8662,W,1,03,3.0,25.1,M,-25.1,M,,0000*59
$GPGSA,A,2,08,26,28,,,,,,,,,,3.1,3.0,1.0*35
$GPRMC,201924.640,A,3748.8090,N,12217.8662,W,0.07,171.57,180711,,,A*7A
$GPVTG,171.57,T,,M,0.07,N,0.1,K,N*01
$GPGGA,201925.640,3748.8093,N,12217.8661,W,1,03,3.0,25.1,M,-25.1,M,,0000*58
$GPGSA,A,2,08,26,28,,,,,,,,,,3.1,3.0,1.0*35
$GPRMC,201925.640,A,3748.8093,N,12217.8661,W,0.14,102.01,180711,,,A*7E
$GPVTG,102.01,T,,M,0.14,N,0.3,K,N*06
$GPGGA,201926.640,3748.8107,N,12217.8622,W,1,03,3.0,25.1,M,-25.1,M,,0000*50
$GPGSA,A,2,08,26,28,,,,,,,,,,3.1,3.0,1.0*35
$GPGSV,3,1,11,08,66,017,25,28,65,264,31,26,33,314,33,07,53,077,22*7A
$GPGSV,3,2,11,01,27,246,,19,22,046,26,13,17,152,20,05,17,265,20*72
$GPGSV,3,3,11,17,15,187,24,11,14,100,,10,09,216,*4A
$GPRMC,201926.640,A,3748.8107,N,12217.8622,W,0.50,90.46,180711,,,A*4F
$GPVTG,90.46,T,,M,0.50,N,0.9,K,N*35
$GPGGA,201927.640,3748.8097,N,12217.8668,W,1,03,3.0,25.1,M,-25.1,M,,0000*57
$GPGSA,A,2,08,26,28,,,,,,,,,,3.1,3.0,1.0*35
$GPRMC,201927.640,A,3748.8097,N,12217.8668,W,0.14,247.67,180711,,,A*73
$GPVTG,247.67,T,,M,0.14,N,0.3,K,N*04
$GPGGA,201928.640,3748.8092,N,12217.8689,W,1,03,3.0,25.1,M,-25.1,M,,0000*52
$GPGSA,A,2,08,26,28,,,,,,,,,,3.1,3.0,1.0*35
$GPRMC,201928.640,A,3748.8092,N,12217.8689,W,1.03,248.42,180711,,,A*79
$GPVTG,248.42,T,,M,1.03,N,1.9,K,N*00
$GPGGA,201929.640,3748.8035,N,12217.8669,W,1,03,3.0,25.1,M,-25.1,M,,0000*50
$GPGSA,A,2,08,26,28,,,,,,,,,,3.1,3.0,1.0*35
$GPRMC,201929.640,A,3748.8035,N,12217.8669,W,1.25,15.74,180711,,,A*40
$GPVTG,15.74,T,,M,1.25,N,2.3,K,N*32
$GPGGA,201930.640,3748.8037,N,12217.8674,W,1,03,3.0,25.1,M,-25.1,M,,0000*56
$GPGSA,A,2,08,26,28,,,,,,,,,,3.1,3.0,1.0*35
$GPRMC,201930.640,A,3748.8037,N,12217.8674,W,3.14,352.56,180711,,,A*76
$GPVTG,352.56,T,,M,3.14,N,5.8,K,N*0E
$GPGGA,201931.640,3748.8070,N,12217.8678,W,1,03,3.0,25.1,M,-25.1,M,,0000*58
$GPGSA,A,2,08,26,28,,,,,,,,,,3.1,3.0,1.0*35
$GPGSV,3,1,11,08,66,017,28,28,65,264,21,26,33,314,23,07,53,077,32*76
$GPGSV,3,2,11,01,27,246,,19,22,046,28,13,17,152,36,05,17,265,27*7C
$GPGSV,3,3,11,17,15,187,37,11,14,100,25,10,09,216,25*48
$GPVTG,82.56,T,,M,2.32,N,4.3,K,N*3F
$GPGGA,201932.640,3748.8037,N,12217.8656,W,1,03,3.0,25.1,M,-25.1,M,,0000*54
$GPGSA,A,2,08,26,28,,,,,,,,,,3.1,3.0,1.0*35
$GPRMC,201932.640,A,3748.8037,N,12217.8656,W,1.40,131.33,180711,,,A*73
$GPVTG,131.33,T,,M,1.40,N,2.6,K,N*00
$GPGGA,201933.640,3748.7972,N,12217.8626,W,1,03,3.0,25.1,M,-25.1,M,,0000*55
$GPGSA,A,2,08,26,28,,,,,,,,,,3.1,3.0,1.0*35
$GPRMC,201933.640,A,3748.7972,N,12217.8626,W,1.83,93.02,180711,,,A*46
$GPVTG,93.02,T,,M,1.83,N,3.4,K,N*37
$GPGGA,201934.640,3748.7978,N,12217.8608,W,1,03,3.0,25.1,M,-25.1,M,,0000*54
$GPGSA,A,2,08,26,28,,,,,,,,,,3.1,3.0,1.0*35
$GPRMC,201934.640,A,3748.7978,N,12217.8608,W,1.12,62.08,180711,,,A*4B
$GPVTG,62.08,T,,M,1.12,N,2.1,K,N*3F
$GPGGA,201935.640,3748.7932,N,12217.8543,W,1,03,3.0,25.1,M,-25.1,M,,0000*57
$GPGSA,A,2,08,26,28,,,,,,,,,,3.1,3.0,1.0*35
$GPRMC,201935.640,A,3748.7932,N,12217.8543,W,1.81,80.13,180711,,,A*44
$GPVTG,80.13,T,,M,1.81,N,3.4,K,N*37
$GPGGA,201936.640,3748.8023,N,12217.8593,W,1,03,3.0,25.1,M,-25.1,M,,0000*5F
$GPGSA,A,2,08,26,28,,,,,,,,,,3.1,3.0,1.0*35
$GPGSV,3,1,12,08,66,017,26,28,65,264,27,26,33,314,22,07,53,077,31*7F
$GPGSV,3,2,12,01,27,246,,19,22,046,28,13,17,152,37,05,17,265,31*79
$GPGSV,3,3,12,17,15,187,34,11,14,100,26,10,09,216,25,48,44,197,35*7E
$GPRMC,201936.640,A,3748.8023,N,12217.8593,W,2.89,128.80,180711,,,A*7E
$GPVTG,128.80,T,,M,2.89,N,5.4,K,N*03
$GPGGA,201937.640,3748.7997,N,12217.8573,W,1,03,3.0,25.1,M,-25.1,M,,0000*59
$GPGSA,A,2,08,26,28,,,,,,,,,,3.1,3.0,1.0*35
$GPRMC,201937.640,A,3748.7997,N,12217.8573,W,2.17,160.32,180711,,,A*7A
$GPVTG,160.32,T,,M,2.17,N,4.0,K,N*04
$GPGGA,201938.640,3748.8041,N,12217.8579,W,1,03,3.0,25.1,M,-25.1,M,,0000*51
$GPGSA,A,2,08,26,28,,,,,,,,,,3.1,3.0,1.0*35
$GPRMC,201938.640,A,3748.8041,N,12217.8579,W,1.62,328.25,180711,,,A*7B
$GPVTG,328.25,T,,M,1.62,N,3.0,K,N*0A
$GPGGA,201939.640,3748.7996,N,12217.8575,W,1,03,3.0,25.1,M,-25.1,M,,0000*50
$GPGSA,A,2,08,26,28,,,,,,,,,,3.1,3.0,1.0*35
$GPRMC,201939.640,A,3748.7996,N,12217.8575,W,1.43,335.57,180711,,,A*70
$GPVTG,335.57,T,,M,1.43,N,2.6,K,N*07
$GPGGA,201940.640,3748.8024,N,12217.8614,W,1,03,3.0,25.1,M,-25.1,M,,0000*55
$GPGSA,A,2,08,26,28,,,,,,,,,,3.1,3.0,1.0*35
$GPRMC,201940.640,A,3748.8024,N,12217.8614,W,1.26,153.19,180711,,,A*7E
$GPVTG,153.19,T,,M,1.26,N,2.3,K,N*09
$GPGGA,201941.640,3748.7975,N,12217.8579,W,1,03,3.0,25.1,M,-25.1,M,,0000*5E
$GPGSA,A,2,08,26,28,,,,,,,,,,3.1,3.0,1.0*35
$GPGSV,3,1,12,08,66,017,26,28,65,264,26,26,33,314,23,07,53,077,32*7C
$GPGSV,3,2,12,01,27,246,,19,22,046,35,13,17,152,34,05,17,265,26*70
$GPGSV,3,3,12,17,15,187,31,11,14,100,37,10,09,216,18,48,44,197,32*72
$GPRMC,201941.640,A,3748.7975,N,12217.8579,W,2.91,166.91,180711,,,A*7C
$GPVTG,166.91,T,,M,2.91,N,5.4,K,N*00
$GPGGA,201942.640,3748.7971,N,12217.8550,W,1,03,3.0,25.1,M,-25.1,M,,0000*52
$GPGSA,A,2,08,26,28,,,,,,,,,,3.1,3.0,1.0*35
$GPRMC,201942.640,A,3748.7971,N,12217.8550,W,1.73,172.18,180711,,,A*7B
$GPVTG,172.18,T,,M,1.73,N,3.2,K,N*0B
$GPGGA,201943.640,3748.8075,N,12217.8456,W,1,03,3.0,25.1,M,-25.1,M,,0000*56
$GPGSA,A,2,08,26,28,,,,,,,,,,3.1,3.0,1.0*35
$GPRMC,201943.640,A,3748.8075,N,12217.8456,W,3.13,127.16,180711,,,A*75
$GPVTG,127.16,T,,M,3.13,N,5.8,K,N*0D
$GPGGA,201944.640,3748.8064,N,12217.8514,W,1,03,3.0,25.1,M,-25.1,M,,0000*56
$GPGSA,A,2,08,26,28,,,,,,,,,,3.1,3.0,1.0*35
$GPRMC,201944.640,A,3748.8064,N,12217.8514,W,1.81,187.93,180711,,,A*7B
$GPVTG,187.93,T,,M,1.81,N,3.4,K,N*09
$GPGGA,201945.640,3748.8022,N,12217.8601,W,1,03,3.0,25.1,M,-25.1,M,,0000*52
$GPGSA,A,2,08,26,28,,,,,,,,,,3.1,3.0,1.0*35
$GPRMC,201945.640,A,3748.8022,N,12217.8601,W,3.24,142.95,180711,,,A*7D
$GPVTG,142.95,T,,M,3.24,N,6.0,K,N*0A
$GPGGA,201946.640,3748.7990,N,12217.8604,W,1,03,3.0,25.1,M,-25.1,M,,0000*5B
$GPGSA,A,2,08,26,28,,,,,,,,,,3.1,3.0,1.0*35
$GPGSV,3,1,12,08,66,017,26,28,65,264,26,26,33,314,23,07,53,077,32*7C
$GPGSV,3,2,12,01,27,246,,19,22,046,23,13,17,152,37,05,17,265,29*7B
$GPGSV,3,3,12,17,15,187,31,11,14,100,31,10,09,216,32,48,44,197,33*7D
$GPRMC,201946.640,A,3748.7990,N,12217.8604,W,1.58,155.03,180711,,,A*74
$GPGGA,201947.640,3748.8019,N,12217.8595,W,1,03,3.0,25.1,M,-25.1,M,,0000*56
$GPGSA,A,2,08,26,28,,,,,,,,,,3.1,3.0,1.0*35
$GPRMC,201947.640,A,3748.8019,N,12217.8595,W,4.29,350.28,180711,,,A*74
$GPVTG,350.28,T,,M,4.29,N,8.0,K,N*09
$GPGGA,201948.640,3748.7996,N,12217.8495,W,1,03,3.0,25.1,M,-25.1,M,,0000*59
$GPGSA,A,2,08,26,28,,,,,,,,,,3.1,3.0,1.0*35
$GPRMC,201948.640,A,3748.7996,N,12217.8495,W,4.69,8.47,180711,,,A*78
$GPVTG,8.47,T,,M,4.69,N,8.7,K,N*0D
$GPGGA,201950.640,3748.7937,N,12217.8611,W,1,03,3.0,25.1,M,-25.1,M,,0000*55
$GPGSA,A,2,08,26,28,,,,,,,,,,3.1,3.0,1.0*35
$GPRMC,201950.640,A,3748.7937,N,12217.8611,W,1.05,338.02,180711,,,A*7A
$GPVTG,338.02,T,,M,1.05,N,2.0,K,N*0E
$GPGGA,201951.640,3748.8044,N,12217.8544,W,1,03,3.0,25.1,M,-25.1,M,,0000*55
$GPGSA,A,2,08,26,28,,,,,,,,,,3.1,3.0,1.0*35
$GPGSV,3,1,12,08,66,017,24,28,65,264,22,26,33,314,23,07,53,077,31*79
$GPGSV,3,2,12,01,27,246,,19,22,046,22,13,17,152,34,05,17,265,25*75
$GPGSV,3,3,12,17,15,187,37,11,14,100,32,10,09,216,30,48,44,197,31*78
$GPVTG,197.40,T,,M,1.60,N,3.0,K,N*0D
$GPGGA,201952.640,3748.7920,N,12217.8523,W,1,03,3.0,25.1,M,-25.1,M,,0000*53
$GPGSA,A,2,08,26,28,,,,,,,,,,3.1,3.0,1.0*35
$GPRMC,201952.640,A,3748.7920,N,12217.8523,W,3.61,101.11,180711,,,A*76
$GPVTG,101.11,T,,M,3.61,N,6.7,K,N*07
$GPGGA,201953.640,3748.8012,N,12217.8477,W,1,03,3.0,25.1,M,-25.1,M,,0000*55
$GPGSA,A,2,08,26,28,,,,,,,,,,3.1,3.0,1.0*35
$GPRMC,201953.640,A,3748.8012,N,12217.8477,W,4.58,132.69,180711,,,A*72
$GPVTG,132.69,T,,M,4.58,N,8.5,K,N*09
$GPGGA,201954.640,3748.7998,N,12217.8440,W,1,03,3.0,25.1,M,-25.1,M,,0000*52
$GPGSA,A,2,08,26,28,,,,,,,,,,3.1,3.0,1.0*35
$GPRMC,201954.640,A,3748.7998,N,12217.8440,W,2.31,309.42,180711,,,A*7F
$GPVTG,309.42,T,,M,2.31,N,4.3,K,N*09
$GPGGA,201955.640,3748.8001,N,12217.8435,W,1,03,3.0,25.1,M,-25.1,M,,0000*57
$GPGSA,A,2,08,26,28,,,,,,,,,,3.1,3.0,1.0*35
$GPRMC,201955.640,A,3748.8001,N,12217.8435,W,1.14,333.39,180711,,,A*7B
$GPVTG,333.39,T,,M,1.14,N,2.1,K,N*0C
$GPGGA,201956.640,3748.7989,N,12217.8454,W,1,03,3.0,25.1,M,-25.1,M,,0000*55
$GPGSA,A,2,08,26,28,,,,,,,,,,3.1,3.0,1.0*35
$GPGSV,3,1,12,08,66,017,25,28,65,264,23,26,33,314,23,07,53,077,32*7A
$GPGSV,3,2,12,01,27,246,,19,22,046,28,13,17,152,39,05,17,265,30*76
$GPGSV,3,3,12,17,15,187,36,11,14,100,28,10,09,216,28,48,44,197,34*7E
$GPRMC,201956.640,A,3748.7989,N,12217.8454,W,1.48,6.72,180711,,,A*7A
$GPVTG,6.72,T,,M,1.48,N,2.7,K,N*09
$GPGGA,201957.640,3748.8076,N,12217.8637,W,1,03,3.0,25.1,M,-25.1,M,,0000*55
$GPGSA,A,2,08,26,28,,,,,,,,,,3.1,3.0,1.0*35
$GPRMC,201957.640,A,3748.8076,N,12217.8637,W,9.94,335.75,180711,,,A*77
$GPVTG,335.75,T,,M,9.94,N,18.4,K,N*3C
$GPGGA,201958.640,3748.8064,N,12217.8557,W,1,03,3.0,25.1,M,-25.1,M,,0000*5C
$GPGSA,A,2,08,26,28,,,,,,,,,,3.1,3.0,1.0*35
$GPRMC,201958.640,A,3748.8064,N,12217.8557,W,3.60,48.92,180711,,,A*4F
$GPVTG,48.92,T,,M,3.60,N,6.7,K,N*31
$GPGGA,201959.640,3748.7982,N,12217.8481,W,1,03,3.0,25.1,M,-25.1,M,,0000*59
$GPGSA,A,2,08,26,28,,,,,,,,,,3.1,3.0,1.0*35
$GPRMC,201959.640,A,3748.7982,N,12217.8481,W,2.02,53.30,180711,,,A*4D
$GPVTG,53.30,T,,M,2.02,N,3.7,K,N*33
$GPGGA,202000.640,3748.7961,N,12217.8391,W,1,03,3.0,25.1,M,-25.1,M,,0000*54
$GPGSA,A,2,08,26,28,,,,,,,,,,3.1,3.0,1.0*35
$GPRMC,202000.640,A,3748.7961,N,12217.8391,W,0.52,128.59,180711,,,A*75
$GPVTG,128.59,T,,M,0.52,N,1.0,K,N*03
$GPGGA,202001.640,3748.8092,N,12217.8410,W,1,03,3.0,25.1,M,-25.1,M,,0000*51
$GPGSA,A,2,08,26,28,,,,,,,,,,3.1,3.0,1.0*35
$GPGSV,3,1,12,08,66,017,25,28,65,264,24,26,33,314,22,07,53,077,32*7C
$GPGSV,3,2,12,01,27,246,,19,22,046,28,13,17,152,33,05,17,265,28*75
$GPGSV,3,3,12,17,15,187,29,11,14,100,28,10,09,216,23,48,44,197,30*7F
$GPRMC,202001.640,A,3748.8092,N,12217.8410,W,2.63,150.76,180711,,,A*72
$GPVTG,150.76,T,,M,2.63,N,4.9,K,N*0D
$GPGGA,202002.640,3748.8060,N,12217.8411,W,1,03,3.0,25.1,M,-25.1,M,,0000*5E
$GPGSA,A,2,08,26,28,,,,,,,,,,3.1,3.0,1.0*35
$GPRMC,202002.640,A,3748.8060,N,12217.8411,W,2.61,146.32,180711,,,A*78
$GPVTG,146.32,T,,M,2.61,N,4.8,K,N*09
$GPGGA,202003.640,3748.7894,N,12217.8438,W,1,03,3.0,25.1,M,-25.1,M,,0000*58
$GPGSA,A,2,08,26,28,,,,,,,,,,3.1,3.0,1.0*35
$GPRMC,202003.640,A,3748.7894,N,12217.8438,W,1.19,200.86,180711,,,A*7C
$GPVTG,200.86,T,,M,1.19,N,2.2,K,N*07
$GPGGA,202004.640,3748.7930,N,12217.8444,W,1,03,3.0,25.1,M,-25.1,M,,0000*5B
$GPGSA,A,2,08,26,28,,,,,,,,,,3.1,3.0,1.0*35
$GPRMC,202004.640,A,3748.7930,N,12217.8444,W,1.73,83.82,180711,,,A*4E
$GPVTG,83.82,T,,M,1.73,N,3.2,K,N*37
$GPGGA,202005.640,3748.7953,N,12217.8374,W,1,03,3.0,25.1,M,-25.1,M,,0000*5B
$GPGSA,A,2,08,26,28,,,,,,,,,,3.1,3.0,1.0*35
$GPRMC,202005.640,A,3748.7953,N,12217.8374,W,1.07,24.94,180711,,,A*47
$GPVTG,24.94,T,,M,1.07,N,2.0,K,N*3D
$GPGGA,202006.640,3748.7897,N,12217.8381,W,1,03,3.0,25.1,M,-25.1,M,,0000*5B
$GPGSA,A,2,08,26,28,,,,,,,,,,3.1,3.0,1.0*35
$GPGSV,3,1,12,08,66,017,25,28,65,264,24,26,33,314,23,07,53,077,30*7F
$GPGSV,3,2,12,01,27,246,,19,22,046,34,13,17,152,34,05,17,265,29*7E
$GPGSV,3,3,12,17,15,187,38,11,14,100,26,10,09,216,22,48,44,197,34*74
$GPRMC,202006.640,A,3748.7897,N,12217.8381,W,1.09,349.40,180711,,,A*78
$GPGGA,202007.640,3748.7934,N,12217.8339,W,1,03,3.0,25.1,M,-25.1,M,,0000*51
$GPGSA,A,2,08,26,28,,,,,,,,,,3.1,3.0,1.0*35
$GPRMC,202007.640,A,3748.7934,N,12217.8339,W,3.75,149.82,180711,,,A*77
$GPVTG,149.82,T,,M,3.75,N,7.0,K,N*02
$GPGGA,202008.640,3748.8005,N,12217.8383,W,1,03,3.0,25.1,M,-25.1,M,,0000*5B
$GPGSA,A,2,08,26,28,,,,,,,,,,3.1,3.0,1.0*35
$GPRMC,202008.640,A,3748.8005,N,12217.8383,W,0.46,114.72,180711,,,A*79
$GPVTG,114.72,T,,M,0.46,N,0.8,K,N*09
$GPGGA,202009.640,3748.7921,N,12217.8342,W,1,03,3.0,25.1,M,-25.1,M,,0000*57
$GPGSA,A,2,08,26,28,,,,,,,,,,3.1,3.0,1.0*35
$GPRMC,202009.640,A,3748.7921,N,12217.8342,W,1.10,73.68,180711,,,A*4C
$GPVTG,73.68,T,,M,1.10,N,2.0,K,N*3A
$GPGGA,202010.640,3748.7928,N,12217.8296,W,1,03,3.0,25.1,M,-25.1,M,,0000*5E
$GPGSA,A,2,08,26,28,,,,,,,,,,3.1,3.0,1.0*35
$GPRMC,202010.640,A,3748.7928,N,12217.8296,W,2.54,29.09,180711,,,A*4E
$GPVTG,29.09,T,,M,2.54,N,4.7,K,N*30
$GPGGA,202011.640,3748.7948,N,12217.8356,W,1,03,3.0,25.1,M,-25.1,M,,0000*54
$GPGSA,A,2,08,26,28,,,,,,,,,,3.1,3.0,1.0*35
$GPGSV,3,1,12,08,66,017,32,28,65,264,24,26,33,314,23,07,53,077,32*7B
$GPGSV,3,2,12,01,27,246,,19,22,046,24,13,17,152,31,05,17,265,26*75
$GPGSV,3,3,12,17,15,187,30,11,14,100,17,10,09,216,20,48,44,197,33*7B
$GPRMC,202011.640,A,3748.7948,N,12217.8356,W,2.16,24.88,180711,,,A*46
$GPVTG,24.88,T,,M,2.16,N,4.0,K,N*35
$GPGGA,202012.640,3748.7869,N,12217.8353,W,1,03,3.0,25.1,M,-25.1,M,,0000*50
$GPGSA,A,2,08,26,28,,,,,,,,,,3.1,3.0,1.0*35
$GPRMC,202012.640,A,3748.7869,N,12217.8353,W,3.32,348.16,180711,,,A*7B
$GPVTG,348.16,T,,M,3.32,N,6.1,K,N*0F
$GPGGA,202013.640,3748.7915,N,12217.8281,W,1,03,3.0,25.1,M,-25.1,M,,0000*55
$GPGSA,A,2,08,26,28,,,,,,,,,,3.1,3.0,1.0*35
$GPRMC,202013.640,A,3748.7915,N,12217.8281,W,1.93,137.45,180711,,,A*7B
$GPVTG,137.45,T,,M,1.93,N,3.6,K,N*08
$GPGGA,202014.640,3748.7803,N,12217.8386,W,1,03,3.0,25.1,M,-25.1,M,,0000*52
$GPGSA,A,2,08,26,28,,,,,,,,,,3.1,3.0,1.0*35
$GPRMC,202014.640,A,3748.7803,N,12217.8386,W,1.93,87.14,180711,,,A*42
$GPVTG,87.14,T,,M,1.93,N,3.6,K,N*36
$GPGGA,202015.640,3748.7861,N,12217.8327,W,1,03,3.0,25.1,M,-25.1,M,,0000*5C
$GPGSA,A,2,08,26,28,,,,,,,,,,3.1,3.0,1.0*35
$GPRMC,202015.640,A,3748.7861,N,12217.8327,W,2.12,112.36,180711,,,A*7B
$GPVTG,112.36,T,,M,2.12,N,3.9,K,N*0E
$GPGGA,202016.640,3748.7839,N,12217.8357,W,1,03,3.0,25.1,M,-25.1,M,,0000*55
$GPGSA,A,2,08,26,28,,,,,,,,,,3.1,3.0,1.0*35
$GPGSV,3,1,12,08,66,017,25,28,65,264,24,26,33,314,24,07,53,077,31*79
$GPGSV,3,2,12,01,27,246,,19,22,046,25,13,17,152,35,05,17,265,32*75
$GPRMC,202016.640,A,3748.7839,N,12217.8357,W,2.72,90.68,180711,,,A*44
$GPVTG,90.68,T,,M,2.72,N,5.0,K,N*37
$GPGGA,202017.640,3748.7861,N,12217.8382,W,1,03,3.0,25.1,M,-25.1,M,,0000*51
$GPGSA,A,2,08,26,28,,,,,,,,,,3.1,3.0,1.0*35
$GPRMC,202017.640,A,3748.7861,N,12217.8382,W,1.14,33.53,180711,,,A*42
$GPVTG,33.53,T,,M,1.14,N,2.1,K,N*33
$GPGGA,202018.640,3748.7795,N,12217.8413,W,1,03,3.0,25.1,M,-25.1,M,,0000*55
$GPGSA,A,2,08,26,28,,,,,,,,,,3.1,3.0,1.0*35
$GPRMC,202018.640,A,3748.7795,N,12217.8413,W,0.97,317.58,180711,,,A*72
$GPVTG,317.58,T,,M,0.97,N,1.8,K,N*0D
$GPGGA,202019.640,3748.7724,N,12217.8367,W,1,03,3.0,25.1,M,-25.1,M,,0000*5A
$GPGSA,A,2,08,26,28,,,,,,,,,,3.1,3.0,1.0*35
$GPRMC,202019.640,A,3748.7724,N,12217.8367,W,0.68,241.02,180711,,,A*70
$GPVTG,241.02,T,,M,0.68,N,1.3,K,N*0B
$GPGGA,202020.640,3748.7786,N,12217.8401,W,1,03,3.0,25.1,M,-25.1,M,,0000*5F
$GPGSA,A,2,08,26,28,,,,,,,,,,3.1,3.0,1.0*35
$GPRMC,202020.640,A,3748.7786,N,12217.8401,W,2.99,147.98,180711,,,A*7F
$GPVTG,147.98,T,,M,2.99,N,5.5,K,N*03
$GPGGA,202021.640,3748.7882,N,12217.8393,W,1,03,3.0,25.1,M,-25.1,M,,0000*59
$GPGSA,A,2,08,26,28,,,,,,,,,,3.1,3.0,1.0*35
$GPGSV,3,1,12,08,66,017,24,28,65,264,26,26,33,314,23,07,53,077,27*7A
$GPGSV,3,2,12,01,27,246,,19,22,046,26,13,17,152,35,05,17,265,34*70
$GPGSV,3,3,12,17,15,187,36,11,14,100,23,10,09,216,23,48,44,197,36*7C
$GPRMC,202021.640,A,3748.7882,N,12217.8393,W,1.96,91.05,180711,,,A*4B
$GPVTG,91.05,T,,M,1.96,N,3.6,K,N*34
$GPGGA,202022.640,3748.7829,N,12217.8372,W,1,03,3.0,25.1,M,-25.1,M,,0000*54
$GPGSA,A,2,08,26,28,,,,,,,,,,3.1,3.0,1.0*35
$GPRMC,202022.640,A,3748.7829,N,12217.8372,W,3.34,99.82,180711,,,A*4B
$GPVTG,99.82,T,,M,3.34,N,6.2,K,N*38
$GPGGA,202023.640,3748.7895,N,12217.8254,W,1,03,3.0,25.1,M,-25.1,M,,0000*57
$GPGSA,A,2,08,26,28,,,,,,,,,,3.1,3.0,1.0*35
$GPRMC,202023.640,A,3748.7895,N,12217.8254,W,0.87,151.58,180711,,,A*71
$GPVTG,151.58,T,,M,0.87,N,1.6,K,N*02
$GPGGA,202024.640,3748.7864,N,12217.8310,W,1,03,3.0,25.1,M,-25.1,M,,0000*5F
$GPGSA,A,2,08,26,28,,,,,,,,,,3.1,3.0,1.0*35
$GPRMC,202024.640,A,3748.7864,N,12217.8310,W,1.22,107.73,180711,,,A*7D
$GPVTG,107.73,T,,M,1.22,N,2.3,K,N*00
$GPGGA,202025.640,3748.7863,N,12217.8299,W,1,03,3.0,25.1,M,-25.1,M,,0000*59
$GPGSA,A,2,08,26,28,,,,,,,,,,3.1,3.0,1.0*35
$GPRMC,202025.640,A,3748.7863,N,12217.8299,W,1.19,150.02,180711,,,A*77
$GPVTG,150.02,T,,M,1.19,N,2.2,K,N*0D
$GPGGA,202026.640,3748.7870,N,12217.8314,W,1,03,3.0,25.1,M,-25.1,M,,0000*5C
$GPGSA,A,2,08,26,28,,,,,,,,,,3.1,3.0,1.0*35
$GPGSV,3,1,12,08,66,017,25,28,65,264,27,26,33,314,25,07,53,077,28*73
$GPGSV,3,2,12,01,27,246,,19,22,046,23,13,17,152,30,05,17,265,35*71
$GPGSV,3,3,12,17,15,187,36,11,14,100,26,10,09,216,24,48,44,197,34*7C
$GPRMC,202026.640,A,3748.7870,N,12217.8314,W,2.07,100.47,180711,,,A*7A
$GPVTG,100.47,T,,M,2.07,N,3.8,K,N*0E
$GPGGA,202027.640,3748.7806,N,12217.8196,W,1,03,3.0,25.1,M,-25.1,M,,0000*54
$GPGSA,A,2,08,26,28,,,,,,,,,,3.1,3.0,1.0*35
$GPRMC,202027.640,A,3748.7806,N,12217.8196,W,3.32,167.34,180711,,,A*70
$GPVTG,167.34,T,,M,3.32,N,6.1,K,N*00
$GPGGA,202028.640,3748.7871,N,12217.8251,W,1,03,3.0,25.1,M,-25.1,M,,0000*53
$GPGSA,A,2,08,26,28,,,,,,,,,,3.1,3.0,1.0*35
$GPRMC,202028.640,A,3748.7871,N,12217.8251,W,2.15,129.18,180711,,,A*77
$GPVTG,129.18,T,,M,2.15,N,4.0,K,N*03
$GPGGA,202029.640,3748.7795,N,12217.8246,W,1,03,3.0,25.1,M,-25.1,M,,0000*51
$GPGSA,A,2,08,26,28,,,,,,,,,,3.1,3.0,1.0*35
$GPRMC,202029.640,A,3748.7795,N,12217.8246,W,1.28,132.15,180711,,,A*7F
$GPVTG,132.15,T,,M,1.28,N,2.4,K,N*0B
$GPGGA,202030.640,3748.7804,N,12217.8218,W,1,03,3.0,25.1,M,-25.1,M,,0000*55
$GPGSA,A,2,08,26,28,,,,,,,,,,3.2,3.0,1.0*36
$GPRMC,202030.640,A,3748.7804,N,12217.8218,W,0.72,60.48,180711,,,A*4B
$GPVTG,60.48,T,,M,0.72,N,1.3,K,N*3F
$GPGGA,202031.640,3748.7804,N,12217.8307,W,1,03,3.0,25.1,M,-25.1,M,,0000*5B
$GPGSA,A,2,08,26,28,,,,,,,,,,3.2,3.0,1.0*36
$GPGSV,3,1,12,08,66,017,27,28,65,264,27,26,33,314,26,07,53,077,31*7A
$GPGSV,3,2,12,01,27,246,,19,22,046,23,13,17,152,32,05,17,265,34*72
$GPGSV,3,3,12,17,15,187,36,11,14,100,26,10,09,216,36,48,44,197,35*7E
$GPRMC,202031.640,A,3748.7804,N,12217.8307,W,1.46,87.20,180711,,,A*44
$GPGGA,202032.640,3748.7797,N,12217.8186,W,1,03,3.0,25.1,M,-25.1,M,,0000*56
$GPGSA,A,2,08,26,28,,,,,,,,,,3.2,3.0,1.0*36
$GPRMC,202032.640,A,3748.7797,N,12217.8186,W,3.05,48.99,180711,,,A*4D
$GPVTG,48.99,T,,M,3.05,N,5.6,K,N*3B
$GPGGA,202033.640,3748.7897,N,12217.8152,W,1,03,3.0,25.1,M,-25.1,M,,0000*51
$GPGSA,A,2,08,26,28,,,,,,,,,,3.2,3.0,1.0*36
$GPRMC,202033.640,A,3748.7897,N,12217.8152,W,0.69,47.49,180711,,,A*41
$GPVTG,47.49,T,,M,0.69,N,1.3,K,N*31
$GPGGA,202034.640,3748.7921,N,12217.8145,W,1,03,3.0,25.1,M,-25.1,M,,0000*5C
$GPGSA,A,2,08,26,28,,,,,,,,,,3.2,3.0,1.0*36
$GPRMC,202034.640,A,3748.7921,N,12217.8145,W,2.32,184.02,180711,,,A*71
$GPVTG,184.02,T,,M,2.32,N,4.3,K,N*09
$GPGGA,202035.640,3748.7869,N,12217.8104,W,1,03,3.0,25.1,M,-25.1,M,,0000*55
$GPGSA,A,2,08,26,28,,,,,,,,,,3.2,3.0,1.0*36
$GPRMC,202035.640,A,3748.7869,N,12217.8104,W,0.91,142.57,180711,,,A*79
$GPVTG,142.57,T,,M,0.91,N,1.7,K,N*09
$GPGGA,202036.640,3748.7826,N,12217.8078,W,1,03,3.0,25.1,M,-25.1,M,,0000*57
$GPGSA,A,2,08,26,28,,,,,,,,,,3.2,3.0,1.0*36
$GPGSV,3,1,12,08,66,017,26,28,65,264,22,26,33,314,25,07,53,077,31*7D
$GPGSV,3,2,12,01,27,246,,19,22,046,18,13,17,152,37,05,17,265,29*73
$GPGSV,3,3,12,17,15,187,34,11,14,100,31,10,09,216,31,48,44,197,36*7E
$GPRMC,202036.640,A,3748.7826,N,12217.8078,W,3.25,295.92,180711,,,A*77
$GPVTG,295.92,T,,M,3.25,N,6.0,K,N*05
$GPGGA,202037.640,3748.7699,N,12217.8067,W,1,03,3.0,25.1,M,-25.1,M,,0000*52
$GPGSA,A,2,08,26,28,,,,,,,,,,3.2,3.0,1.0*36
$GPRMC,202037.640,A,3748.7699,N,12217.8067,W,2.06,339.17,180711,,,A*78
$GPVTG,339.17,T,,M,2.06,N,3.8,K,N*02
$GPGGA,202038.640,3748.7744,N,12217.8155,W,1,03,3.0,25.1,M,-25.1,M,,0000*5C
$GPGSA,A,2,08,26,28,,,,,,,,,,3.2,3.0,1.0*36
$GPRMC,202038.640,A,3748.7744,N,12217.8155,W,3.12,29.20,180711,,,A*44
$GPVTG,29.20,T,,M,3.12,N,5.8,K,N*36
$GPGGA,202039.640,3748.7797,N,12217.8132,W,1,03,3.0,25.1,M,-25.1,M,,0000*52
$GPGSA,A,2,08,26,28,,,,,,,,,,3.2,3.0,1.0*36
$GPRMC,202039.640,A,3748.7797,N,12217.8132,W,2.79,352.25,180711,,,A*7C
$GPVTG,352.25,T,,M,2.79,N,5.2,K,N*0A
$GPGGA,202040.640,3748.7705,N,12217.8126,W,1,03,3.0,25.1,M,-25.1,M,,0000*52
$GPGSA,A,2,08,26,28,,,,,,,,,,3.2,3.0,1.0*36
$GPRMC,202040.640,A,3748.7705,N,12217.8126,W,1.44,146.50,180711,,,A*74
$GPVTG,146.50,T,,M,1.44,N,2.7,K,N*00
$GPGGA,202041.640,3748.7770,N,12217.8134,W,1,03,3.0,25.1,M,-25.1,M,,0000*52
$GPGSA,A,2,08,26,28,,,,,,,,,,3.2,3.0,1.0*36
$GPGSV,3,1,12,08,66,017,26,28,65,264,24,26,33,314,25,07,53,077,31*7B
$GPGSV,3,2,12,01,27,246,,19,22,046,22,13,17,152,41,05,17,265,26*74
$GPGSV,3,3,12,17,15,187,31,11,14,100,21,10,09,216,23,48,44,197,38*77
$GPRMC,202041.640,A,3748.7770,N,12217.8134,W,2.41,325.99,180711,,,A*70
$GPVTG,325.99,T,,M,2.41,N,4.5,K,N*00
$GPGGA,202042.640,3748.7616,N,12217.8058,W,1,03,3.0,25.1,M,-25.1,M,,0000*5B
$GPGSA,A,2,08,26,28,,,,,,,,,,3.2,3.0,1.0*36
$GPRMC,202042.640,A,3748.7616,N,12217.8058,W,2.59,308.11,180711,,,A*7F
$GPVTG,308.11,T,,M,2.59,N,4.8,K,N*0B
$GPGGA,202043.640,3748.7691,N,12217.8011,W,1,03,3.0,25.1,M,-25.1,M,,0000*58
$GPGSA,A,2,08,26,28,,,,,,,,,,3.2,3.0,1.0*36
$GPRMC,202043.640,A,3748.7691,N,12217.8011,W,3.50,339.83,180711,,,A*7D
$GPVTG,339.83,T,,M,3.50,N,6.5,K,N*05
$GPGGA,202044.640,3748.7730,N,12217.8018,W,1,03,3.0,25.1,M,-25.1,M,,0000*5C
$GPGSA,A,2,08,26,28,,,,,,,,,,3.2,3.0,1.0*36
$GPRMC,202044.640,A,3748.7730,N,12217.8018,W,1.71,75.92,180711,,,A*43
$GPVTG,75.92,T,,M,1.71,N,3.2,K,N*3D
$GPGGA,202045.640,3748.7685,N,12217.8094,W,1,03,3.0,25.1,M,-25.1,M,,0000*56
$GPGSA,A,2,08,26,28,,,,,,,,,,3.2,3.0,1.0*36
$GPRMC,202045.640,A,3748.7685,N,12217.8094,W,4.42,49.13,180711,,,A*4A
$GPVTG,49.13,T,,M,4.42,N,8.2,K,N*35
$GPGGA,202046.640,3748.7702,N,12217.7973,W,1,03,3.0,25.1,M,-25.1,M,,0000*54
$GPGSA,A,2,08,26,28,,,,,,,,,,3.2,3.0,1.0*36
$GPGSV,3,1,12,08,67,019,25,28,66,265,24,26,33,314,22,07,52,078,31*7C
$GPGSV,3,2,12,01,28,246,,19,21,046,23,05,16,264,34,13,16,152,40*7A
$GPGSV,3,3,12,17,16,187,32,11,15,099,32,10,09,215,30,24,00,111,*7B
$GPRMC,202046.640,A,3748.7702,N,12217.7973,W,4.40,42.02,180711,,,A*41
$GPGGA,202047.640,3748.7813,N,12217.8076,W,1,03,3.0,25.1,M,-25.1,M,,0000*59
$GPGSA,A,2,08,26,28,,,,,,,,,,3.2,3.0,1.0*36
$GPRMC,202047.640,A,3748.7813,N,12217.8076,W,1.97,342.64,180711,,,A*70
$GPVTG,342.64,T,,M,1.97,N,3.6,K,N*0F
$GPGGA,202048.640,3748.7780,N,12217.8083,W,1,03,3.0,25.1,M,-25.1,M,,0000*59
$GPGSA,A,2,08,26,28,,,,,,,,,,3.2,3.0,1.0*36
$GPRMC,202048.640,A,3748.7780,N,12217.8083,W,2.32,46.02,180711,,,A*4B
$GPVTG,46.02,T,,M,2.32,N,4.3,K,N*36
$GPGGA,202049.640,3748.7848,N,12217.8151,W,1,03,3.0,25.1,M,-25.1,M,,0000*5D
$GPGSA,A,2,08,26,28,,,,,,,,,,3.2,3.0,1.0*36
$GPRMC,202049.640,A,3748.7848,N,12217.8151,W,0.99,321.07,180711,,,A*7B
$GPVTG,321.07,T,,M,0.99,N,1.8,K,N*0C
$GPGGA,202050.640,3748.7880,N,12217.8122,W,1,03,3.0,25.1,M,-25.1,M,,0000*55
$GPGSA,A,2,08,26,28,,,,,,,,,,3.2,3.0,1.0*36
$GPRMC,202050.640,A,3748.7880,N,12217.8122,W,4.13,145.55,180711,,,A*72
$GPVTG,145.55,T,,M,4.13,N,7.6,K,N*05
$GPGGA,202051.640,3748.7794,N,12217.8167,W,1,03,3.0,25.1,M,-25.1,M,,0000*5F
$GPGSA,A,2,08,26,28,,,,,,,,,,3.2,3.0,1.0*36
$GPGSV,3,1,12,08,67,019,26,28,66,265,25,26,33,314,23,07,52,078,33*7D
$GPGSV,3,2,12,01,28,246,,19,21,046,23,05,16,264,28,13,16,152,31*71
$GPGSV,3,3,12,17,16,187,28,11,15,099,24,10,09,215,23,24,00,111,*75
$GPRMC,202051.640,A,3748.7794,N,12217.8167,W,2.34,352.24,180711,,,A*79
$GPVTG,352.24,T,,M,2.34,N,4.3,K,N*02
$GPGGA,202052.640,3748.7739,N,12217.8121,W,1,03,3.0,25.1,M,-25.1,M,,0000*59
$GPGSA,A,2,08,26,28,,,,,,,,,,3.2,3.0,1.0*36
$GPRMC,202052.640,A,3748.7739,N,12217.8121,W,3.07,16.07,180711,,,A*4C
$GPVTG,16.07,T,,M,3.07,N,5.7,K,N*34
$GPGGA,202053.640,3748.7733,N,12217.8127,W,1,03,3.0,25.1,M,-25.1,M,,0000*54
$GPGSA,A,2,08,26,28,,,,,,,,,,3.2,3.0,1.0*36
$GPRMC,202053.640,A,3748.7733,N,12217.8127,W,1.96,10.72,180711,,,A*4F
$GPVTG,10.72,T,,M,1.96,N,3.6,K,N*3D
$GPGGA,202054.640,3748.7733,N,12217.8165,W,1,03,3.0,25.1,M,-25.1,M,,0000*55
$GPGSA,A,2,08,26,28,,,,,,,,,,3.2,3.0,1.0*36
$GPRMC,202054.640,A,3748.7733,N,12217.8165,W,1.94,68.57,180711,,,A*44
$GPVTG,68.57,T,,M,1.94,N,3.6,K,N*37
$GPGGA,202055.640,3748.7779,N,12217.8122,W,1,03,3.0,25.1,M,-25.1,M,,0000*59
$GPGSA,A,2,08,26,28,,,,,,,,,,3.2,3.0,1.0*36
$GPRMC,202055.640,A,3748.7779,N,12217.8122,W,2.75,105.96,180711,,,A*73
$GPVTG,105.96,T,,M,2.75,N,5.1,K,N*0D
$GPGGA,202056.640,3748.7594,N,12217.8027,W,1,03,3.0,25.1,M,-25.1,M,,0000*5F
$GPGSA,A,2,08,26,28,,,,,,,,,,3.2,3.0,1.0*36
$GPGSV,3,1,12,08,67,019,26,28,66,265,28,26,33,314,23,07,52,078,32*71
$GPGSV,3,2,12,01,28,246,,19,21,046,29,05,16,264,30,13,16,152,24*76
$GPGSV,3,3,12,17,16,187,36,11,15,099,28,10,09,215,24,24,00,111,*71
$GPRMC,202056.640,A,3748.7594,N,12217.8027,W,3.53,138.36,180711,,,A*74
$GPVTG,138.36,T,,M,3.53,N,6.5,K,N*0B
$GPGGA,202057.640,3748.7673,N,12217.7905,W,2,04,2.4,-5.7,M,-25.1,M,3.5,0000*62
$GPGSA,A,3,08,26,28,17,,,,,,,,,3.6,2.4,2.6*35
$GPRMC,202057.640,A,3748.7673,N,12217.7905,W,2.05,152.88,180711,,,D*77
$GPVTG,152.88,T,,M,2.05,N,3.8,K,D*02
$GPGGA,202058.640,3748.7711,N,12217.7857,W,2,04,2.4,-22.5,M,-25.1,M,4.5,0000*5E
$GPGSA,A,3,08,26,28,17,,,,,,,,,3.6,2.4,2.6*35
$GPRMC,202058.640,A,3748.7711,N,12217.7857,W,2.62,130.53,180711,,,D*78
$GPVTG,130.53,T,,M,2.62,N,4.9,K,D*07
$GPGGA,202059.640,3748.7658,N,12217.7907,W,2,04,2.4,-0.8,M,-25.1,M,5.5,0000*6B
$GPGSA,A,3,08,26,28,17,,,,,,,,,3.6,2.4,2.6*35
$GPRMC,202059.640,A,3748.7658,N,12217.7907,W,2.03,133.92,180711,,,D*78
$GPVTG,133.92,T,,M,2.03,N,3.8,K,D*08
$GPGGA,202100.000,3748.7648,N,12217.7909,W,2,04,2.4,3.2,M,-25.1,M,5.8,0000*42
$GPGSA,A,3,08,26,28,17,,,,,,,,,3.6,2.4,2.6*35
$GPRMC,202100.000,A,3748.7648,N,12217.7909,W,1.87,106.94,180711,,,D*77
$GPVTG,106.94,T,,M,1.87,N,3.5,K,D*0A
$GPGGA,202101.000,3748.7629,N,12217.7939,W,2,04,2.4,6.8,M,-25.1,M,6.8,0000*4B
$GPGSA,A,3,08,26,28,17,,,,,,,,,3.6,2.4,2.6*35
$GPGSV,3,1,12,08,67,019,25,28,66,265,27,26,33,314,23,17,16,187,33*7C
$GPGSV,3,2,12,07,52,078,32,01,28,246,,19,21,046,25,05,16,264,31*70
$GPGSV,3,3,12,13,16,152,23,11,15,099,25,10,09,215,24,24,00,111,*74
$GPRMC,202101.000,A,3748.7629,N,12217.7939,W,1.71,102.45,180711,,,D*73
$GPGGA,202102.000,3748.7613,N,12217.7939,W,2,04,2.4,9.5,M,-25.1,M,7.8,0000*42
$GPGSA,A,3,08,26,28,17,,,,,,,,,3.6,2.4,2.6*35
$GPRMC,202102.000,A,3748.7613,N,12217.7939,W,1.94,131.43,180711,,,D*74
$GPVTG,131.43,T,,M,1.94,N,3.6,K,D*05
$GPGGA,202103.000,3748.7598,N,12217.7937,W,2,04,2.4,13.3,M,-25.1,M,1.8,0000*76
$GPGSA,A,3,08,26,28,17,,,,,,,,,3.6,2.4,2.6*35
$GPRMC,202103.000,A,3748.7598,N,12217.7937,W,1.56,166.49,180711,,,D*7D
$GPVTG,166.49,T,,M,1.56,N,2.9,K,D*0D
$GPGGA,202104.000,3748.7588,N,12217.7925,W,2,04,2.4,14.2,M,-25.1,M,2.8,0000*76
$GPGSA,A,3,08,26,28,17,,,,,,,,,3.6,2.4,2.6*35
$GPRMC,202104.000,A,3748.7588,N,12217.7925,W,1.40,156.54,180711,,,D*70
$GPVTG,156.54,T,,M,1.40,N,2.6,K,D*0A
$GPGGA,202105.000,3748.7583,N,12217.7919,W,2,04,2.4,14.8,M,-25.1,M,3.8,0000*78
$GPGSA,A,3,08,26,28,17,,,,,,,,,3.6,2.4,2.6*35
$GPRMC,202105.000,A,3748.7583,N,12217.7919,W,1.23,175.44,180711,,,D*70
$GPVTG,175.44,T,,M,1.23,N,2.3,K,D*0A
$GPGGA,202106.000,3748.7589,N,12217.7887,W,2,04,2.4,11.1,M,-25.1,M,1.8,0000*79
$GPGSA,A,3,08,26,28,17,,,,,,,,,3.6,2.4,2.6*35
$GPGSV,3,1,12,08,67,019,25,28,66,265,27,26,33,314,23,17,16,187,38*77
$GPGSV,3,2,12,07,52,078,27,01,28,246,,19,21,046,27,05,16,264,33*74
$GPGSV,3,3,12,13,16,152,23,11,15,099,22,10,09,215,43,24,00,111,*72
$GPRMC,202106.000,A,3748.7589,N,12217.7887,W,1.79,121.36,180711,,,D*74
$GPVTG,121.36,T,,M,1.79,N,3.3,K,D*00
$GPGGA,202107.000,3748.7594,N,12217.7877,W,2,04,2.4,7.5,M,-25.1,M,2.8,0000*4B
$GPGSA,A,3,08,26,28,17,,,,,,,,,3.6,2.4,2.6*35
$GPRMC,202107.000,A,3748.7594,N,12217.7877,W,1.46,108.03,180711,,,D*77
$GPVTG,108.03,T,,M,1.46,N,2.7,K,D*04
$GPGGA,202108.000,3748.7597,N,12217.7875,W,2,04,2.4,5.7,M,-25.1,M,1.8,0000*46
$GPGSA,A,3,08,26,28,17,,,,,,,,,3.6,2.4,2.6*35
$GPRMC,202108.000,A,3748.7597,N,12217.7875,W,0.81,107.69,180711,,,D*70
$GPVTG,107.69,T,,M,0.81,N,1.5,K,D*0C
$GPGGA,202109.000,3748.7599,N,12217.7878,W,2,04,2.4,4.2,M,-25.1,M,1.8,0000*40
$GPGSA,A,3,08,26,28,17,,,,,,,,,3.6,2.4,2.6*35
$GPRMC,202109.000,A,3748.7599,N,12217.7878,W,1.25,114.37,180711,,,D*74
$GPVTG,114.37,T,,M,1.25,N,2.3,K,D*0F
$GPGGA,202110.000,3748.7598,N,12217.7883,W,2,04,2.4,3.7,M,-25.1,M,2.8,0000*4C
$GPGSA,A,3,08,26,28,17,,,,,,,,,3.6,2.4,2.6*35
$GPRMC,202110.000,A,3748.7598,N,12217.7883,W,1.55,112.80,180711,,,D*74
$GPVTG,112.80,T,,M,1.55,N,2.9,K,D*08
$GPGGA,202111.000,3748.7599,N,12217.7884,W,2,04,2.4,2.3,M,-25.1,M,3.8,0000*4F
$GPGSA,A,3,08,26,28,17,,,,,,,,,3.6,2.4,2.6*35
$GPGSV,3,1,12,08,67,019,25,28,66,265,27,26,33,314,24,17,16,187,38*70
$GPGSV,3,2,12,07,52,078,34,01,28,246,,19,21,046,27,05,16,264,34*71
$GPGSV,3,3,12,13,16,152,27,11,15,099,22,10,09,215,43,24,00,111,*76
$GPRMC,202111.000,A,3748.7599,N,12217.7884,W,1.36,105.06,180711,,,D*7E
$GPVTG,105.06,T,,M,1.36,N,2.5,K,D*09
$GPGGA,202112.000,3748.7604,N,12217.7864,W,2,04,2.4,0.6,M,-25.1,M,4.8,0000*45
$GPGSA,A,3,08,26,28,17,,,,,,,,,3.6,2.4,2.6*35
$GPRMC,202112.000,A,3748.7604,N,12217.7864,W,2.33,87.31,180711,,,D*4D
$GPVTG,87.31,T,,M,2.33,N,4.3,K,D*30
$GPGGA,202113.000,3748.7600,N,12217.7852,W,2,04,2.4,2.2,M,-25.1,M,5.8,0000*42
$GPGSA,A,3,08,26,28,17,,,,,,,,,3.6,2.4,2.6*35
$GPRMC,202113.000,A,3748.7600,N,12217.7852,W,2.99,91.01,180711,,,D*49
$GPVTG,91.01,T,,M,2.99,N,5.5,K,D*33
$GPGGA,202114.000,3748.7600,N,12217.7846,W,2,04,2.4,1.0,M,-25.1,M,6.8,0000*42
$GPGSA,A,3,08,26,28,17,,,,,,,,,3.6,2.4,2.6*35
$GPRMC,202114.000,A,3748.7600,N,12217.7846,W,2.53,94.70,180711,,,D*4E
$GPVTG,94.70,T,,M,2.53,N,4.7,K,D*35
$GPGGA,202115.000,3748.7593,N,12217.7854,W,2,04,2.4,1.9,M,-25.1,M,7.8,0000*41
$GPGSA,A,3,08,26,28,17,,,,,,,,,3.6,2.4,2.6*35
$GPRMC,202115.000,A,3748.7593,N,12217.7854,W,1.43,110.94,180711,,,D*70
$GPVTG,110.94,T,,M,1.43,N,2.6,K,D*07
$GPGGA,202116.000,3748.7586,N,12217.7848,W,2,04,2.4,4.5,M,-25.1,M,8.8,0000*4D
$GPGSA,A,3,08,26,28,17,,,,,,,,,3.6,2.4,2.6*35
$GPGSV,3,1,12,08,67,020,25,28,66,265,27,07,52,078,24,26,33,314,24*77
$GPGSV,3,2,12,01,28,246,,19,21,046,20,05,16,264,34,17,16,187,30*72
$GPGSV,3,3,12,13,16,152,28,11,15,099,21,10,09,215,34,24,00,111,*7A
$GPRMC,202116.000,A,3748.7586,N,12217.7848,W,1.66,90.68,180711,,,D*47
$GPGGA,202117.000,3748.7581,N,12217.7830,W,2,04,2.4,5.7,M,-25.1,M,9.8,0000*46
$GPGSA,A,3,08,26,28,17,,,,,,,,,3.6,2.4,2.6*35
$GPRMC,202117.000,A,3748.7581,N,12217.7830,W,2.61,110.66,180711,,,D*7D
$GPVTG,110.66,T,,M,2.61,N,4.8,K,D*01
$GPGGA,202118.000,3748.7574,N,12217.7811,W,2,04,2.4,7.5,M,-25.1,M,10.8,0000*78
$GPGSA,A,3,08,26,28,17,,,,,,,,,3.6,2.4,2.6*35
$GPRMC,202118.000,A,3748.7574,N,12217.7811,W,2.68,121.61,180711,,,D*77
$GPVTG,121.61,T,,M,2.68,N,5.0,K,D*04
$GPGGA,202119.000,3748.7572,N,12217.7796,W,2,04,2.4,6.9,M,-25.1,M,11.8,0000*73
$GPGSA,A,3,08,26,28,17,,,,,,,,,3.6,2.4,2.6*35
$GPRMC,202119.000,A,3748.7572,N,12217.7796,W,1.61,120.73,180711,,,D*78
$GPVTG,120.73,T,,M,1.61,N,3.0,K,D*0A
$GPGGA,202120.000,3748.7569,N,12217.7789,W,2,04,2.4,7.7,M,-25.1,M,1.8,0000*43
$GPGSA,A,3,08,26,28,17,,,,,,,,,3.6,2.4,2.6*35
$GPRMC,202120.000,A,3748.7569,N,12217.7789,W,1.48,127.76,180711,,,D*7F
$GPVTG,127.76,T,,M,1.48,N,2.7,K,D*05
$GPGGA,202121.000,3748.7565,N,12217.7777,W,2,04,2.4,8.3,M,-25.1,M,1.8,0000*44
$GPGSA,A,3,08,26,28,17,,,,,,,,,3.6,2.4,2.6*35
$GPGSV,3,1,12,08,67,020,28,28,66,265,24,07,52,078,31,26,33,314,21*78
$GPGSV,3,2,12,01,28,246,,19,21,046,20,05,16,264,34,17,16,187,32*70
$GPGSV,3,3,12,13,16,152,28,11,15,099,21,10,09,215,40,24,00,111,*79
$GPRMC,202121.000,A,3748.7565,N,12217.7777,W,1.62,123.52,180711,,,D*79
$GPVTG,123.52,T,,M,1.62,N,3.0,K,D*09
$GPGGA,202122.000,3748.7559,N,12217.7767,W,2,04,2.4,9.9,M,-25.1,M,1.8,0000*42
$GPGSA,A,3,08,26,28,17,,,,,,,,,3.6,2.4,2.6*35
$GPRMC,202122.000,A,3748.7559,N,12217.7767,W,1.68,130.84,180711,,,D*77
$GPVTG,130.84,T,,M,1.68,N,3.1,K,D*0B
$GPGGA,202123.000,3748.7559,N,12217.7771,W,2,04,2.4,8.4,M,-25.1,M,1.8,0000*48
$GPGSA,A,3,08,26,28,17,,,,,,,,,3.6,2.4,2.6*35
$GPRMC,202123.000,A,3748.7559,N,12217.7771,W,1.55,135.28,180711,,,D*7C
$GPVTG,135.28,T,,M,1.55,N,2.9,K,D*0F
$GPGGA,202124.000,3748.7556,N,12217.7763,W,2,04,2.4,8.3,M,-25.1,M,2.8,0000*47
$GPGSA,A,3,08,26,28,17,,,,,,,,,3.6,2.4,2.6*35
$GPRMC,202124.000,A,3748.7556,N,12217.7763,W,1.45,134.61,180711,,,D*7A
$GPVTG,134.61,T,,M,1.45,N,2.7,K,D*0C
$GPGGA,202125.000,3748.7550,N,12217.7749,W,2,04,2.4,9.5,M,-25.1,M,3.8,0000*4E
$GPGSA,A,3,08,26,28,17,,,,,,,,,3.6,2.4,2.6*35
$GPRMC,202125.000,A,3748.7550,N,12217.7749,W,1.87,124.23,180711,,,D*7C
$GPVTG,124.23,T,,M,1.87,N,3.5,K,D*06
$GPGGA,202126.000,3748.7549,N,12217.7737,W,2,04,2.4,8.8,M,-25.1,M,1.8,0000*42
$GPGSA,A,3,08,26,28,17,,,,,,,,,3.6,2.4,2.6*35
$GPGSV,3,1,12,08,67,020,30,28,66,265,25,07,52,078,24,26,33,314,23*76
$GPGSV,3,2,12,01,28,246,,19,21,046,20,05,16,264,33,17,16,187,39*7C
$GPGSV,3,3,12,13,16,152,31,11,15,099,21,10,09,215,34,24,00,111,*72
$GPRMC,202126.000,A,3748.7549,N,12217.7737,W,1.87,119.77,180711,,,D*71
$GPVTG,119.77,T,,M,1.87,N,3.5,K,D*09
$GPGGA,202127.000,3748.7548,N,12217.7730,W,2,04,2.4,8.1,M,-25.1,M,2.8,0000*4F
$GPGSA,A,3,08,26,28,17,,,,,,,,,3.6,2.4,2.6*35
$GPRMC,202127.000,A,3748.7548,N,12217.7730,W,1.78,119.16,180711,,,D*71
$GPVTG,119.16,T,,M,1.78,N,3.3,K,D*08
$GPGGA,202128.000,3748.7552,N,12217.7719,W,2,04,2.4,5.3,M,-25.1,M,3.8,0000*4E
$GPGSA,A,3,08,26,28,17,,,,,,,,,3.6,2.4,2.6*35
$GPRMC,202128.000,A,3748.7552,N,12217.7719,W,1.62,124.39,180711,,,D*76
$GPVTG,124.39,T,,M,1.62,N,3.0,K,D*03
$GPGGA,202129.000,3748.7553,N,12217.7713,W,2,04,2.4,3.6,M,-25.1,M,4.8,0000*40
$GPGSA,A,3,08,26,28,17,,,,,,,,,3.6,2.4,2.6*35
$GPRMC,202129.000,A,3748.7553,N,12217.7713,W,1.44,131.09,180711,,,D*7F
$GPVTG,131.09,T,,M,1.44,N,2.7,K,D*06
$GPGGA,202130.000,3748.7556,N,12217.7707,W,2,04,2.4,1.2,M,-25.1,M,5.8,0000*4F
$GPGSA,A,3,08,26,28,17,,,,,,,,,3.6,2.4,2.6*35
$GPRMC,202130.000,A,3748.7556,N,12217.7707,W,1.45,119.90,180711,,,D*7C
$GPVTG,119.90,T,,M,1.45,N,2.7,K,D*0D
$GPGGA,202131.000,3748.7558,N,12217.7700,W,2,04,2.4,-0.7,M,-25.1,M,6.8,0000*6D
$GPGSA,A,3,08,26,28,17,,,,,,,,,3.6,2.4,2.6*35
$GPGSV,3,1,12,08,67,020,29,28,66,265,25,07,52,078,29,26,33,314,26*76
$GPGSV,3,2,12,01,28,246,,19,21,046,23,05,16,264,30,17,16,187,39*7C
$GPGSV,3,3,12,13,16,152,38,11,15,099,20,10,09,215,41,24,00,111,*78
$GPRMC,202131.000,A,3748.7558,N,12217.7700,W,1.87,105.36,180711,,,D*7B
$GPGGA,202132.000,3748.7556,N,12217.7694,W,2,04,2.4,-1.1,M,-25.1,M,1.8,0000*6C
$GPGSA,A,3,08,26,28,17,,,,,,,,,3.6,2.4,2.6*35
$GPRMC,202132.000,A,3748.7556,N,12217.7694,W,2.11,104.92,180711,,,D*79
$GPVTG,104.92,T,,M,2.11,N,3.9,K,D*0E
$GPGGA,202133.000,3748.7556,N,12217.7684,W,2,04,2.4,-2.4,M,-25.1,M,1.8,0000*6A
$GPGSA,A,3,08,26,28,17,,,,,,,,,3.6,2.4,2.6*35
$GPRMC,202133.000,A,3748.7556,N,12217.7684,W,1.44,104.25,180711,,,D*76
$GPVTG,104.25,T,,M,1.44,N,2.7,K,D*0E
$GPGGA,202134.000,3748.7558,N,12217.7671,W,2,04,2.4,-4.6,M,-25.1,M,1.8,0000*6D
$GPGSA,A,3,08,26,28,17,,,,,,,,,3.6,2.4,2.6*35
$GPRMC,202134.000,A,3748.7558,N,12217.7671,W,1.89,103.96,180711,,,D*7B
$GPVTG,103.96,T,,M,1.89,N,3.5,K,D*03
$GPGGA,202135.000,3748.7561,N,12217.7657,W,2,04,2.4,-7.6,M,-25.1,M,2.8,0000*62
$GPGSA,A,3,08,26,28,17,,,,,,,,,3.6,2.4,2.6*35
$GPRMC,202135.000,A,3748.7561,N,12217.7657,W,1.06,103.99,180711,,,D*7C
$GPVTG,103.99,T,,M,1.06,N,2.0,K,D*0F
$GPGGA,202136.000,3748.7558,N,12217.7662,W,2,04,2.4,-8.3,M,-25.1,M,3.8,0000*66
$GPGSA,A,3,08,26,28,17,,,,,,,,,3.6,2.4,2.6*35
$GPGSV,3,1,12,08,67,020,28,28,66,265,25,07,52,078,29,26,33,314,22*73
$GPGSV,3,2,12,01,28,246,,19,21,046,23,05,16,264,25,17,16,187,29*79
$GPGSV,3,3,12,13,16,152,33,11,15,099,20,10,09,215,41,24,00,111,*73
$GPRMC,202136.000,A,3748.7558,N,12217.7662,W,1.17,166.69,180711,,,D*7F
$GPVTG,166.69,T,,M,1.17,N,2.2,K,D*01
$GPGGA,202137.000,3748.7556,N,12217.7650,W,2,04,2.4,-9.4,M,-25.1,M,4.8,0000*69
$GPGSA,A,3,08,26,28,17,,,,,,,,,3.6,2.4,2.6*35
$GPRMC,202137.000,A,3748.7556,N,12217.7650,W,1.59,119.23,180711,,,D*7D
$GPVTG,119.23,T,,M,1.59,N,2.9,K,D*06
$GPGGA,202138.000,3748.7554,N,12217.7647,W,2,04,2.4,-9.3,M,-25.1,M,1.8,0000*60
$GPGSA,A,3,08,26,28,17,,,,,,,,,3.6,2.4,2.6*35
$GPRMC,202138.000,A,3748.7554,N,12217.7647,W,2.15,96.87,180711,,,D*45
$GPVTG,96.87,T,,M,2.15,N,4.0,K,D*3A
$GPGGA,202139.000,3748.7550,N,12217.7620,W,2,04,2.4,-7.5,M,-25.1,M,1.8,0000*6C
$GPGSA,A,3,08,26,28,17,,,,,,,,,3.6,2.4,2.6*35
$GPRMC,202139.000,A,3748.7550,N,12217.7620,W,3.26,100.10,180711,,,D*70
$GPVTG,100.10,T,,M,3.26,N,6.0,K,D*09
$GPGGA,202140.000,3748.7544,N,12217.7608,W,2,04,2.4,-6.9,M,-25.1,M,1.8,0000*60
$GPGSA,A,3,08,26,28,17,,,,,,,,,3.6,2.4,2.6*35
$GPRMC,202140.000,A,3748.7544,N,12217.7608,W,2.88,110.70,180711,,,D*73
$GPVTG,110.70,T,,M,2.88,N,5.3,K,D*0B
$GPGGA,202141.000,3748.7540,N,12217.7595,W,2,04,2.4,-5.9,M,-25.1,M,2.8,0000*62
$GPGSA,A,3,08,26,28,17,,,,,,,,,3.6,2.4,2.6*35
$GPGSV,3,1,12,08,67,020,23,28,66,265,25,07,52,078,29,26,33,314,24*7E
$GPGSV,3,2,12,01,28,246,,19,21,046,22,05,16,264,25,17,16,187,25*74
$GPGSV,3,3,12,13,16,152,38,11,15,099,20,10,09,215,36,24,00,111,*78
$GPRMC,202141.000,A,3748.7540,N,12217.7595,W,1.78,108.58,180711,,,D*7E
$GPVTG,108.58,T,,M,1.78,N,3.3,K,D*02
$GPGGA,202142.000,3748.7538,N,12217.7588,W,2,04,2.4,-6.2,M,-25.1,M,3.8,0000*6B
$GPGSA,A,3,08,26,28,17,,,,,,,,,3.6,2.4,2.6*35
$GPRMC,202142.000,A,3748.7538,N,12217.7588,W,1.32,106.88,180711,,,D*73
$GPVTG,106.88,T,,M,1.32,N,2.4,K,D*09
$GPGGA,202143.000,3748.7532,N,12217.7580,W,2,04,2.4,-5.3,M,-25.1,M,4.8,0000*6D
$GPGSA,A,3,08,26,28,17,,,,,,,,,3.6,2.4,2.6*35
$GPRMC,202143.000,A,3748.7532,N,12217.7580,W,2.03,122.29,180711,,,D*7C
$GPVTG,122.29,T,,M,2.03,N,3.8,K,D*08
$GPGGA,202144.000,3748.7523,N,12217.7581,W,2,04,2.4,-3.4,M,-25.1,M,1.8,0000*6F
$GPGSA,A,3,08,26,28,17,,,,,,,,,3.6,2.4,2.6*35
$GPRMC,202144.000,A,3748.7523,N,12217.7581,W,1.86,127.02,180711,,,D*78
$GPVTG,127.02,T,,M,1.86,N,3.4,K,D*06
$GPGGA,202145.000,3748.7518,N,12217.7582,W,2,04,2.4,-2.5,M,-25.1,M,2.8,0000*66
$GPGSA,A,3,08,26,28,17,,,,,,,,,3.6,2.4,2.6*35
$GPRMC,202145.000,A,3748.7518,N,12217.7582,W,2.30,132.10,180711,,,D*7B
$GPVTG,132.10,T,,M,2.30,N,4.3,K,D*0F
$GPGGA,202146.000,3748.7508,N,12217.7592,W,2,04,2.4,-1.6,M,-25.1,M,3.8,0000*64
$GPGSA,A,3,08,26,28,17,,,,,,,,,3.6,2.4,2.6*35
$GPGSV,3,1,12,08,67,020,20,28,66,266,28,07,52,079,23,26,34,314,29*72
$GPGSV,3,2,12,01,28,246,,19,21,046,18,17,16,187,21,05,16,264,29*75
$GPGSV,3,3,12,13,16,152,38,11,15,099,20,10,08,215,29,24,00,111,*77
$GPVTG,157.94,T,,M,1.99,N,3.7,K,D*03
$GPGGA,202147.000,3748.7499,N,12217.7599,W,2,04,2.4,-0.6,M,-25.1,M,4.8,0000*61
$GPGSA,A,3,08,26,28,17,,,,,,,,,3.6,2.4,2.6*35
$GPRMC,202147.000,A,3748.7499,N,12217.7599,W,2.50,155.28,180711,,,D*77
$GPVTG,155.28,T,,M,2.50,N,4.6,K,D*06
$GPGGA,202148.000,3748.7487,N,12217.7604,W,2,04,2.4,0.2,M,-25.1,M,5.8,0000*4E
$GPGSA,A,3,08,26,28,17,,,,,,,,,3.6,2.4,2.6*35
$GPRMC,202148.000,A,3748.7487,N,12217.7604,W,1.70,162.91,180711,,,D*77
$GPVTG,162.91,T,,M,1.70,N,3.2,K,D*02
$GPGGA,202149.000,3748.7480,N,12217.7600,W,2,04,2.4,0.2,M,-25.1,M,6.8,0000*4F
$GPGSA,A,3,08,26,28,17,,,,,,,,,3.6,2.4,2.6*35
$GPRMC,202149.000,A,3748.7480,N,12217.7600,W,1.87,152.87,180711,,,D*79
$GPVTG,152.87,T,,M,1.87,N,3.5,K,D*09
$GPGGA,202150.000,3748.7473,N,12217.7608,W,2,04,2.4,0.1,M,-25.1,M,7.8,0000*41
$GPGSA,A,3,08,26,28,17,,,,,,,,,3.6,2.4,2.6*35
$GPRMC,202150.000,A,3748.7473,N,12217.7608,W,2.21,143.93,180711,,,D*7F
$GPVTG,143.93,T,,M,2.21,N,4.1,K,D*00
$GPGGA,202151.000,3748.7462,N,12217.7616,W,2,04,2.4,1.5,M,-25.1,M,1.8,0000*4C
$GPGSA,A,3,08,26,28,17,,,,,,,,,3.6,2.4,2.6*35
$GPGSV,3,1,12,08,67,020,21,28,66,266,28,07,52,079,28,26,34,314,25*74
$GPGSV,3,2,12,01,28,246,,19,21,046,17,17,16,187,24,05,16,264,36*71
$GPGSV,3,3,12,13,16,152,38,11,15,099,20,10,08,215,32,24,00,111,*7D
$GPRMC,202151.000,A,3748.7462,N,12217.7616,W,1.90,160.42,180711,,,D*75
$GPVTG,160.42,T,,M,1.90,N,3.5,K,D*07
$GPGGA,202152.000,3748.7455,N,12217.7620,W,2,04,2.4,2.0,M,-25.1,M,2.8,0000*4B
$GPGSA,A,3,08,26,28,17,,,,,,,,,3.6,2.4,2.6*35
$GPRMC,202152.000,A,3748.7455,N,12217.7620,W,2.22,151.55,180711,,,D*79
$GPVTG,151.55,T,,M,2.22,N,4.1,K,D*0A
$GPGGA,202153.000,3748.7447,N,12217.7610,W,2,04,2.4,3.5,M,-25.1,M,3.8,0000*4F
$GPGSA,A,3,08,26,28,17,,,,,,,,,3.6,2.4,2.6*35
$GPRMC,202153.000,A,3748.7447,N,12217.7610,W,2.31,125.22,180711,,,D*79
$GPVTG,125.22,T,,M,2.31,N,4.3,K,D*09
$GPGGA,202154.000,3748.7445,N,12217.7600,W,2,04,2.4,3.8,M,-25.1,M,4.8,0000*41
$GPGSA,A,3,08,26,28,17,,,,,,,,,3.6,2.4,2.6*35
$GPRMC,202154.000,A,3748.7445,N,12217.7600,W,3.22,113.63,180711,,,D*7E
$GPVTG,113.63,T,,M,3.22,N,6.0,K,D*0B
$GPGGA,202155.000,3748.7439,N,12217.7591,W,2,04,2.4,5.1,M,-25.1,M,5.8,0000*4E
$GPGSA,A,3,08,26,28,17,,,,,,,,,3.6,2.4,2.6*35
$GPRMC,202155.000,A,3748.7439,N,12217.7591,W,2.16,126.50,180711,,,D*7F
$GPVTG,126.50,T,,M,2.16,N,4.0,K,D*09
$GPGGA,202156.000,3748.7437,N,12217.7578,W,2,04,2.4,5.8,M,-25.1,M,6.8,0000*4E
$GPGSA,A,3,08,26,28,17,,,,,,,,,3.6,2.4,2.6*35
$GPGSV,3,1,12,08,67,020,22,28,66,266,28,07,52,079,31,26,34,314,25*7F
$GPGSV,3,2,12,01,28,246,,19,21,046,27,17,16,187,36,05,16,264,36*71
$GPGSV,3,3,12,13,16,152,27,11,15,099,20,10,08,215,25,24,00,111,*75
$GPRMC,202156.000,A,3748.7437,N,12217.7578,W,2.36,118.18,180711,,,D*76
$GPVTG,118.18,T,,M,2.36,N,4.4,K,D*0E
$GPGGA,202157.000,3748.7438,N,12217.7554,W,2,04,2.4,5.1,M,-25.1,M,1.8,0000*40
$GPGSA,A,3,08,26,28,17,,,,,,,,,3.6,2.4,2.6*35
$GPRMC,202157.000,A,3748.7438,N,12217.7554,W,2.55,106.78,180711,,,D*7A
$GPVTG,106.78,T,,M,2.55,N,4.7,K,D*01
$GPGGA,202158.000,3748.7436,N,12217.7549,W,2,04,2.4,5.0,M,-25.1,M,2.8,0000*4F
$GPGSA,A,3,08,26,28,17,,,,,,,,,3.6,2.4,2.6*35
$GPRMC,202158.000,A,3748.7436,N,12217.7549,W,2.63,107.68,180711,,,D*72
$GPVTG,107.68,T,,M,2.63,N,4.9,K,D*0A
$GPGGA,202159.000,3748.7438,N,12217.7541,W,2,04,2.4,3.0,M,-25.1,M,3.8,0000*4F
$GPGSA,A,3,08,26,28,17,,,,,,,,,3.6,2.4,2.6*35
$GPRMC,202159.000,A,3748.7438,N,12217.7541,W,2.23,116.25,180711,,,D*78
$GPVTG,116.25,T,,M,2.23,N,4.1,K,D*0F
$GPGGA,202200.000,3748.7438,N,12217.7532,W,2,04,2.4,3.1,M,-25.1,M,4.8,0000*42
$GPGSA,A,3,08,26,28,17,,,,,,,,,3.6,2.4,2.6*35
$GPRMC,202200.000,A,3748.7438,N,12217.7532,W,2.41,101.74,180711,,,D*75
$GPVTG,101.74,T,,M,2.41,N,4.5,K,D*0D
$GPGGA,202201.000,3748.7438,N,12217.7524,W,2,04,2.4,2.6,M,-25.1,M,5.8,0000*43
$GPGSA,A,3,08,26,28,17,,,,,,,,,3.6,2.4,2.6*35
$GPGSV,3,1,12,08,67,020,25,28,66,266,27,07,52,079,31,26,34,314,25*77
$GPGSV,3,2,12,01,28,246,,19,21,046,26,17,16,187,30,05,16,264,33*73
$GPGSV,3,3,12,13,16,152,27,11,15,099,21,10,08,215,19,24,00,111,*7B
$GPVTG,111.35,T,,M,2.45,N,4.5,K,D*0D
$GPGGA,202202.000,3748.7434,N,12217.7516,W,2,04,2.4,3.4,M,-25.1,M,6.8,0000*4D
$GPGSA,A,3,08,26,28,17,,,,,,,,,3.6,2.4,2.6*35
$GPRMC,202202.000,A,3748.7434,N,12217.7516,W,2.17,115.14,180711,,,D*7D
$GPVTG,115.14,T,,M,2.17,N,4.0,K,D*08
$GPGGA,202203.000,3748.7428,N,12217.7504,W,2,04,2.4,4.5,M,-25.1,M,7.8,0000*45
$GPGSA,A,3,08,26,28,17,,,,,,,,,3.6,2.4,2.6*35
$GPRMC,202203.000,A,3748.7428,N,12217.7504,W,1.90,114.93,180711,,,D*70
$GPVTG,114.93,T,,M,1.90,N,3.5,K,D*08
$GPGGA,202204.000,3748.7420,N,12217.7492,W,2,04,2.4,6.0,M,-25.1,M,8.8,0000*4C
$GPGSA,A,3,08,26,28,17,,,,,,,,,3.6,2.4,2.6*35
$GPRMC,202204.000,A,3748.7420,N,12217.7492,W,1.77,114.04,180711,,,D*76
$GPVTG,114.04,T,,M,1.77,N,3.3,K,D*09
$GPGGA,202205.000,3748.7415,N,12217.7482,W,2,04,2.4,6.4,M,-25.1,M,9.8,0000*4F
$GPGSA,A,3,08,26,28,17,,,,,,,,,3.6,2.4,2.6*35
$GPRMC,202205.000,A,3748.7415,N,12217.7482,W,1.74,123.37,180711,,,D*77
$GPVTG,123.37,T,,M,1.74,N,3.2,K,D*0F
$GPGGA,202206.000,3748.7413,N,12217.7471,W,2,04,2.4,6.6,M,-25.1,M,10.8,0000*7C
$GPGSA,A,3,08,26,28,17,,,,,,,,,3.6,2.4,2.7*34
$GPGSV,3,1,12,08,67,020,26,28,66,266,27,07,52,079,23,26,34,314,26*74
$GPGSV,3,2,12,01,28,246,,19,21,046,20,17,16,187,35,05,16,264,28*7A
$GPGSV,3,3,12,13,16,152,34,11,15,099,22,10,08,215,27,24,00,111,*77
$GPRMC,202206.000,A,3748.7413,N,12217.7471,W,1.85,133.78,180711,,,D*7A
$GPVTG,133.78,T,,M,1.85,N,3.4,K,D*0D
$GPGGA,202207.000,3748.7408,N,12217.7467,W,2,04,2.4,7.6,M,-25.1,M,11.8,0000*70
$GPGSA,A,3,08,26,28,17,,,,,,,,,3.6,2.4,2.7*34
$GPRMC,202207.000,A,3748.7408,N,12217.7467,W,2.23,116.98,180711,,,D*70
$GPVTG,116.98,T,,M,2.23,N,4.1,K,D*09
$GPGGA,202208.000,3748.7401,N,12217.7476,W,2,04,2.4,7.7,M,-25.1,M,12.8,0000*74
$GPGSA,A,3,08,26,28,17,,,,,,,,,3.6,2.4,2.7*34
$GPRMC,202208.000,A,3748.7401,N,12217.7476,W,1.84,134.40,180711,,,D*7D
$GPVTG,134.40,T,,M,1.84,N,3.4,K,D*00
$GPGGA,202209.000,3748.7398,N,12217.7465,W,2,04,2.4,8.7,M,-25.1,M,13.8,0000*7E
$GPGSA,A,3,08,26,28,17,,,,,,,,,3.6,2.4,2.7*34
$GPRMC,202209.000,A,3748.7398,N,12217.7465,W,1.88,107.57,180711,,,D*73
$GPVTG,107.57,T,,M,1.88,N,3.5,K,D*0B
$GPGGA,202210.000,3748.7391,N,12217.7472,W,2,04,2.4,9.7,M,-25.1,M,14.8,0000*7F
$GPGSA,A,3,08,26,28,17,,,,,,,,,3.6,2.4,2.7*34
$GPRMC,202210.000,A,3748.7391,N,12217.7472,W,1.10,143.41,180711,,,D*72
$GPVTG,143.41,T,,M,1.10,N,2.0,K,D*09
$GPGGA,202211.000,3748.7382,N,12217.7483,W,2,04,2.4,10.6,M,-25.1,M,15.8,0000*4A
$GPGSA,A,3,08,26,28,17,,,,,,,,,3.6,2.4,2.7*34
$GPGSV,3,1,12,08,67,020,25,28,66,266,22,07,52,079,29,26,34,314,26*78
$GPGSV,3,2,12,01,28,246,,19,21,046,24,17,16,187,37,05,16,264,25*71
$GPGSV,3,3,12,13,16,152,29,11,15,099,23,10,08,215,36,24,00,111,*7A
$GPRMC,202211.000,A,3748.7382,N,12217.7483,W,1.39,187.26,180711,,,D*7D
$GPVTG,187.26,T,,M,1.39,N,2.6,K,D*0D
$GPGGA,202212.000,3748.7376,N,12217.7489,W,2,04,2.4,10.2,M,-25.1,M,16.8,0000*4F
$GPGSA,A,3,08,26,28,17,,,,,,,,,3.6,2.4,2.7*34
$GPRMC,202212.000,A,3748.7376,N,12217.7489,W,1.23,178.87,180711,,,D*7F
$GPVTG,178.87,T,,M,1.23,N,2.3,K,D*08
$GPGGA,202213.000,3748.7370,N,12217.7497,W,2,04,2.4,9.4,M,-25.1,M,17.8,0000*78
$GPGSA,A,3,08,26,28,17,,,,,,,,,3.6,2.4,2.7*34
$GPRMC,202213.000,A,3748.7370,N,12217.7497,W,1.44,190.51,180711,,,D*7B
$GPVTG,190.51,T,,M,1.44,N,2.7,K,D*00
$GPGGA,202214.000,3748.7370,N,12217.7482,W,1,04,2.4,7.5,M,-25.1,M,,0000*67
$GPGSA,A,3,08,26,28,17,,,,,,,,,3.6,2.4,2.7*34
$GPRMC,202214.000,A,3748.7370,N,12217.7482,W,1.26,137.32,180711,,,A*71
$GPVTG,137.32,T,,M,1.26,N,2.3,K,A*0D
$GPGGA,202215.000,3748.7365,N,12217.7483,W,2,03,3.0,7.3,M,-25.1,M,1.8,0000*43
$GPGSA,A,2,08,28,17,,,,,,,,,,3.2,3.0,1.0*34
$GPRMC,202215.000,A,3748.7365,N,12217.7483,W,1.60,165.66,180711,,,D*74
$GPVTG,165.66,T,,M,1.60,N,3.0,K,N*04
$GPGGA,202216.000,3748.7361,N,12217.7481,W,2,04,2.4,7.2,M,-25.1,M,2.8,0000*46
$GPGSA,A,3,08,26,28,17,,,,,,,,,3.6,2.4,2.7*34
$GPGSV,3,1,12,08,67,020,24,28,66,266,23,07,52,079,28,26,34,314,14*78
$GPGSV,3,2,12,01,28,246,,19,21,046,23,17,16,187,38,05,16,264,26*7A
$GPGSV,3,3,12,13,16,152,30,11,15,099,23,10,08,215,26,24,00,111,*73
$GPVTG,193.06,T,,M,1.66,N,3.1,K,D*06
$GPGGA,202217.000,3748.7361,N,12217.7486,W,2,04,2.4,5.7,M,-25.1,M,1.8,0000*44
$GPGSA,A,3,08,26,28,17,,,,,,,,,3.6,2.4,2.7*34
$GPRMC,202217.000,A,3748.7361,N,12217.7486,W,1.11,220.43,180711,,,D*74
$GPVTG,220.43,T,,M,1.11,N,2.1,K,D*0D
$GPGGA,202218.000,3748.7361,N,12217.7471,W,2,04,2.4,5.0,M,-25.1,M,2.8,0000*47
$GPGSA,A,3,08,26,28,17,,,,,,,,,3.6,2.4,2.7*34
$GPRMC,202218.000,A,3748.7361,N,12217.7471,W,0.98,136.04,180711,,,D*74
$GPVTG,136.04,T,,M,0.98,N,1.8,K,D*00
$GPGGA,202219.000,3748.7363,N,12217.7463,W,2,04,2.4,2.7,M,-25.1,M,3.8,0000*46
$GPGSA,A,3,08,26,28,17,,,,,,,,,3.6,2.4,2.7*34
$GPRMC,202219.000,A,3748.7363,N,12217.7463,W,0.57,152.11,180711,,,D*71
$GPVTG,152.11,T,,M,0.57,N,1.1,K,D*0C
$GPGGA,202220.000,3748.7362,N,12217.7438,W,2,04,2.4,1.6,M,-25.1,M,4.8,0000*46
