$ADVER,3080,2.3
$GPRMC,223634.188,A,3748.5488,N,12217.8438,W,0.29,172.13,120712,,,A*7C
$GPGGA,223635.188,3748.5488,N,12217.8439,W,1,03,3.1,25.1,M,-25.1,M,,0000*58
$GPGSA,A,2,15,28,27,,,,,,,,,,3.2,3.1,1.0*3A
$GPRMC,223635.188,A,3748.5488,N,12217.8439,W,0.19,142.20,120712,,,A*7C
$GPVTG,142.20,T,,M,0.19,N,0.4,K,N*0B
$GPGGA,223636.188,3748.5490,N,12217.8439,W,1,03,3.1,25.1,M,-25.1,M,,0000*52
$GPGSA,A,2,15,28,27,,,,,,,,,,3.2,3.1,1.0*3A
$GPGSV,3,1,10,27,48,312,34,28,44,065,28,15,29,263,34,17,70,044,31*7B
$GPGSV,3,2,10,09,32,315,36,04,28,156,,26,27,215,31,01,12,040,*7C
$GPGSV,3,3,10,02,05,184,24,12,04,279,*7F
$GPRMC,223636.188,A,3748.5490,N,12217.8439,W,0.21,163.34,120712,,,A*7B
$GPVTG,163.34,T,,M,0.21,N,0.4,K,N*06
$GPGGA,223637.188,3748.5493,N,12217.8442,W,1,03,3.1,25.1,M,-25.1,M,,0000*5C
$GPGSA,A,2,15,28,27,,,,,,,,,,3.2,3.1,1.0*3A
$GPRMC,223637.188,A,3748.5493,N,12217.8442,W,0.38,198.83,120712,,,A*75
$GPVTG,198.83,T,,M,0.38,N,0.7,K,N*05
$GPGGA,223638.188,3748.5486,N,12217.8426,W,1,03,3.1,25.1,M,-25.1,M,,0000*55
$GPGSA,A,2,15,28,27,,,,,,,,,,3.2,3.1,1.0*3A
$GPRMC,223638.188,A,3748.5486,N,12217.8426,W,0.23,145.33,120712,,,A*7D
$GPVTG,145.33,T,,M,0.23,N,0.4,K,N*07
$GPGGA,223639.188,3748.5494,N,12217.8444,W,1,03,3.1,25.1,M,-25.1,M,,0000*53
$GPGSA,A,2,15,28,27,,,,,,,,,,3.2,3.1,1.0*3A
$GPRMC,223639.188,A,3748.5494,N,12217.8444,W,0.03,267.41,120712,,,A*7F
$GPVTG,267.41,T,,M,0.03,N,0.1,K,N*06
$GPGGA,223644.188,3748.5500,N,12217.8451,W,1,03,3.1,25.1,M,-25.1,M,,0000*51
$GPGSA,A,2,15,28,27,,,,,,,,,,3.2,3.1,1.0*3A
$GPRMC,223644.188,A,3748.5500,N,12217.8451,W,0.26,22.85,120712,,,A*41
$GPVTG,22.85,T,,M,0.26,N,0.5,K,N*3E
$GPGGA,223645.188,3748.5531,N,12217.8442,W,1,03,3.1,25.1,M,-25.1,M,,0000*50
$GPGSA,A,2,15,28,27,,,,,,,,,,3.2,3.1,1.0*3A
$GPRMC,223645.188,A,3748.5531,N,12217.8442,W,3.37,185.97,120712,,,A*7C
$GPVTG,185.97,T,,M,3.37,N,6.2,K,N*03
$GPGGA,223646.188,3748.5560,N,12217.8433,W,1,03,3.1,25.1,M,-25.1,M,,0000*51
$GPGSA,A,2,15,28,27,,,,,,,,,,3.2,3.1,1.0*3A
$GPGSV,3,1,10,27,48,312,30,28,44,065,28,15,29,263,19,17,70,044,32*73
$GPGSV,3,2,10,09,32,315,26,04,28,156,,26,27,215,19,01,12,040,22*77
$GPGSV,3,3,10,02,05,184,15,12,04,279,*7D
$GPRMC,223646.188,A,3748.5560,N,12217.8433,W,2.90,186.70,120712,,,A*7B
$GPVTG,186.70,T,,M,2.90,N,5.4,K,N*00
$GPGGA,223647.188,3748.5653,N,12217.8414,W,1,03,3.1,25.1,M,-25.1,M,,0000*56
$GPGSA,A,2,15,28,27,,,,,,,,,,3.2,3.1,1.0*3A
$GPRMC,223647.188,A,3748.5653,N,12217.8414,W,4.55,186.89,120712,,,A*75
$GPVTG,186.89,T,,M,4.55,N,8.4,K,N*04
$GPGGA,223648.188,3748.5689,N,12217.8404,W,1,03,3.1,25.1,M,-25.1,M,,0000*5F
$GPGSA,A,2,15,28,27,,,,,,,,,,3.2,3.1,1.0*3A
$GPRMC,223648.188,A,3748.5689,N,12217.8404,W,3.99,187.98,120712,,,A*7A
$GPVTG,187.98,T,,M,3.99,N,7.4,K,N*0D
$GPGGA,223649.188,3748.5770,N,12217.8388,W,1,03,3.1,25.1,M,-25.1,M,,0000*5A
$GPGSA,A,2,15,28,27,,,,,,,,,,3.2,3.1,1.0*3A
$GPRMC,223649.188,A,3748.5770,N,12217.8388,W,1.87,186.32,120712,,,A*73
$GPVTG,186.32,T,,M,1.87,N,3.5,K,N*04
$GPGGA,223650.188,3748.5656,N,12217.8404,W,1,03,3.1,25.1,M,-25.1,M,,0000*54
$GPGSA,A,2,15,28,27,,,,,,,,,,3.2,3.1,1.0*3A
$GPRMC,223650.188,A,3748.5656,N,12217.8404,W,1.71,185.10,120712,,,A*77
$GPVTG,185.10,T,,M,1.71,N,3.2,K,N*09
$GPGGA,223651.188,3748.5561,N,12217.8417,W,1,03,3.1,25.1,M,-25.1,M,,0000*50
$GPGSA,A,2,15,28,27,,,,,,,,,,3.2,3.1,1.0*3A
$GPGSV,3,1,10,27,48,312,30,28,44,065,28,15,29,263,15,17,70,044,31*7C
$GPGSV,3,2,10,09,32,315,12,04,28,156,26,26,27,215,23,01,12,040,28*77
$GPGSV,3,3,10,02,05,184,,12,04,279,*79
$GPRMC,223651.188,A,3748.5561,N,12217.8417,W,0.81,185.85,120712,,,A*71
$GPVTG,185.85,T,,M,0.81,N,1.5,K,N*0E
$GPGGA,223652.188,3748.5555,N,12217.8416,W,1,03,3.1,25.1,M,-25.1,M,,0000*55
$GPGSA,A,2,15,28,27,,,,,,,,,,3.2,3.1,1.0*3A
$GPRMC,223652.188,A,3748.5555,N,12217.8416,W,3.09,187.48,120712,,,A*74
$GPVTG,187.48,T,,M,3.09,N,5.7,K,N*08
$GPGGA,223653.188,3748.5488,N,12217.8427,W,1,03,3.1,25.1,M,-25.1,M,,0000*57
$GPGSA,A,2,15,28,27,,,,,,,,,,3.2,3.1,1.0*3A
$GPRMC,223653.188,A,3748.5488,N,12217.8427,W,0.36,168.89,120712,,,A*75
$GPVTG,168.89,T,,M,0.36,N,0.7,K,N*0E
$GPGGA,223654.188,3748.5542,N,12217.8418,W,1,03,3.1,25.1,M,-25.1,M,,0000*5B
$GPGSA,A,2,15,28,27,,,,,,,,,,3.2,3.1,1.0*3A
$GPRMC,223654.188,A,3748.5542,N,12217.8418,W,1.44,182.38,120712,,,A*73
$GPVTG,182.38,T,,M,1.44,N,2.7,K,N*06
$GPGGA,223655.188,3748.5595,N,12217.8411,W,1,03,3.1,25.1,M,-25.1,M,,0000*59
$GPGSA,A,2,15,28,27,,,,,,,,,,3.2,3.1,1.0*3A
$GPRMC,223655.188,A,3748.5595,N,12217.8411,W,0.46,230.91,120712,,,A*7B
$GPVTG,230.91,T,,M,0.46,N,0.9,K,N*00
$GPGGA,223656.188,3748.5498,N,12217.8388,W,1,03,3.1,25.1,M,-25.1,M,,0000*51
$GPGSA,A,2,15,28,27,,,,,,,,,,3.2,3.1,1.0*3A
$GPGSV,3,1,10,27,48,312,25,28,44,065,28,15,29,263,22,17,70,044,32*7F
$GPGSV,3,2,10,09,32,315,25,04,28,156,11,26,27,215,26,01,12,040,28*72
$GPGSV,3,3,10,02,05,184,,12,04,279,*79
$GPVTG,20.63,T,,M,0.59,N,1.1,K,N*39
$GPGGA,223657.188,3748.5539,N,12217.8435,W,1,03,3.1,25.1,M,-25.1,M,,0000*5B
$GPGSA,A,2,15,28,27,,,,,,,,,,3.2,3.1,1.0*3A
$GPRMC,223657.188,A,3748.5539,N,12217.8435,W,1.05,180.70,120712,,,A*78
$GPVTG,180.70,T,,M,1.05,N,1.9,K,N*00
$GPGGA,223658.188,3748.5446,N,12217.8465,W,1,03,3.1,25.1,M,-25.1,M,,0000*58
$GPGSA,A,2,15,28,27,,,,,,,,,,3.2,3.1,1.0*3A
$GPRMC,223658.188,A,3748.5446,N,12217.8465,W,1.48,185.94,120712,,,A*7D
$GPVTG,185.94,T,,M,1.48,N,2.7,K,N*0B
$GPGGA,223659.188,3748.5513,N,12217.8492,W,1,03,3.1,25.1,M,-25.1,M,,0000*50
$GPGSA,A,2,15,28,27,,,,,,,,,,3.2,3.1,1.0*3A
$GPRMC,223659.188,A,3748.5513,N,12217.8492,W,1.32,162.71,120712,,,A*7A
$GPVTG,162.71,T,,M,1.32,N,2.4,K,N*07
$GPGGA,223700.188,3748.5495,N,12217.8381,W,1,03,3.1,25.1,M,-25.1,M,,0000*57
$GPGSA,A,2,15,28,27,,,,,,,,,,3.2,3.1,1.0*3A
$GPRMC,223700.188,A,3748.5495,N,12217.8381,W,0.91,156.59,120712,,,A*78
$GPVTG,156.59,T,,M,0.91,N,1.7,K,N*02
$GPGGA,223701.188,3748.5522,N,12217.8366,W,1,03,3.1,25.1,M,-25.1,M,,0000*52
$GPGSA,A,2,15,28,27,,,,,,,,,,3.2,3.1,1.0*3A
$GPGSV,3,1,10,27,48,312,23,28,44,065,29,15,29,263,21,17,70,044,33*7A
$GPGSV,3,2,10,09,32,315,15,04,28,156,,26,27,215,25,01,12,040,27*7D
$GPGSV,3,3,10,02,05,184,,12,04,279,*79
$GPRMC,223701.188,A,3748.5522,N,12217.8366,W,1.12,232.21,120712,,,A*79
$GPVTG,232.21,T,,M,1.12,N,2.1,K,N*03
$GPGGA,223702.188,3748.5557,N,12217.8396,W,1,03,3.1,25.1,M,-25.1,M,,0000*5C
$GPGSA,A,2,15,28,27,,,,,,,,,,3.2,3.1,1.0*3A
$GPRMC,223702.188,A,3748.5557,N,12217.8396,W,2.59,355.67,120712,,,A*79
$GPVTG,355.67,T,,M,2.59,N,4.8,K,N*02
$GPGGA,223703.188,3748.5618,N,12217.8407,W,1,03,3.1,25.1,M,-25.1,M,,0000*5A
$GPGSA,A,2,15,28,27,,,,,,,,,,3.2,3.1,1.0*3A
$GPRMC,223703.188,A,3748.5618,N,12217.8407,W,0.43,269.21,120712,,,A*7A
$GPVTG,269.21,T,,M,0.43,N,0.8,K,N*03
$GPGGA,223704.188,3748.5557,N,12217.8418,W,1,03,3.1,25.1,M,-25.1,M,,0000*5B
$GPGSA,A,2,15,28,27,,,,,,,,,,3.2,3.1,1.0*3A
$GPRMC,223704.188,A,3748.5557,N,12217.8418,W,1.35,340.02,120712,,,A*70
$GPVTG,340.02,T,,M,1.35,N,2.5,K,N*07
$GPGGA,223705.188,3748.5608,N,12217.8390,W,1,03,3.1,25.1,M,-25.1,M,,0000*54
$GPGSA,A,2,15,28,27,,,,,,,,,,3.2,3.1,1.0*3A
$GPRMC,223705.188,A,3748.5608,N,12217.8390,W,0.77,187.59,120712,,,A*7F
$GPVTG,187.59,T,,M,0.77,N,1.4,K,N*05
$GPGGA,223706.187,3748.5549,N,12217.8394,W,1,03,3.1,25.1,M,-25.1,M,,0000*5A
$GPGSA,A,2,15,28,27,,,,,,,,,,3.2,3.1,1.0*3A
$GPGSV,3,1,10,27,48,312,32,28,44,065,25,15,29,263,26,17,70,044,33*71
$GPGSV,3,2,10,09,32,315,25,04,28,156,,26,27,215,10,01,12,040,28*77
$GPGSV,3,3,10,02,05,184,,12,04,279,*79
$GPRMC,223706.187,A,3748.5549,N,12217.8394,W,0.08,203.24,120712,,,A*7C
$GPVTG,203.24,T,,M,0.08,N,0.1,K,N*0C
$GPGGA,223707.187,3748.5545,N,12217.8395,W,1,03,3.1,25.1,M,-25.1,M,,0000*56
$GPGSA,A,2,15,28,27,,,,,,,,,,3.2,3.1,1.0*3A
$GPRMC,223707.187,A,3748.5545,N,12217.8395,W,0.12,150.19,120712,,,A*70
$GPVTG,150.19,T,,M,0.12,N,0.2,K,N*0F
$GPGGA,223708.187,3748.5578,N,12217.8390,W,1,03,3.1,25.1,M,-25.1,M,,0000*52
$GPGSA,A,2,15,28,27,,,,,,,,,,3.2,3.1,1.0*3A
$GPRMC,223708.187,A,3748.5578,N,12217.8390,W,0.12,127.65,120712,,,A*7F
$GPVTG,127.65,T,,M,0.12,N,0.2,K,N*04
$GPGGA,223709.187,3748.5558,N,12217.8389,W,1,03,3.1,25.1,M,-25.1,M,,0000*59
$GPGSA,A,2,15,28,27,,,,,,,,,,3.2,3.1,1.0*3A
$GPRMC,223709.187,A,3748.5558,N,12217.8389,W,0.25,181.82,120712,,,A*75
$GPVTG,181.82,T,,M,0.25,N,0.5,K,N*02
$GPGGA,223710.187,3748.5559,N,12217.8389,W,1,03,3.1,25.1,M,-25.1,M,,0000*50
$GPGSA,A,2,15,28,27,,,,,,,,,,3.2,3.1,1.0*3A
$GPRMC,223710.187,A,3748.5559,N,12217.8389,W,0.32,358.97,120712,,,A*78
$GPVTG,358.97,T,,M,0.32,N,0.6,K,N*05
$GPGGA,223711.187,3748.5545,N,12217.8390,W,1,03,3.1,25.1,M,-25.1,M,,0000*54
$GPGSA,A,2,15,28,27,,,,,,,,,,3.2,3.1,1.0*3A
$GPGSV,3,1,10,27,48,312,31,28,44,065,26,15,29,263,26,17,69,044,33*79
$GPGSV,3,2,10,09,32,315,26,04,28,156,,26,27,215,22,01,12,040,28*75
$GPGSV,3,3,10,02,05,184,,12,04,280,*7F
$GPRMC,223711.187,A,3748.5545,N,12217.8390,W,0.29,316.28,120712,,,A*78
$GPVTG,316.28,T,,M,0.29,N,0.5,K,N*02
$GPGGA,223712.187,3748.5516,N,12217.8442,W,1,03,3.1,25.1,M,-25.1,M,,0000*59
$GPGSA,A,2,15,28,27,,,,,,,,,,3.2,3.1,1.0*3A
$GPRMC,223712.187,A,3748.5516,N,12217.8442,W,0.57,297.22,120712,,,A*7E
$GPVTG,297.22,T,,M,0.57,N,1.0,K,N*0D
$GPGGA,223713.187,3748.5694,N,12217.8515,W,1,03,3.1,25.1,M,-25.1,M,,0000*52
$GPGSA,A,2,15,28,27,,,,,,,,,,3.2,3.1,1.0*3A
$GPRMC,223713.187,A,3748.5694,N,12217.8515,W,0.81,1.75,120712,,,A*71
$GPVTG,1.75,T,,M,0.81,N,1.5,K,N*0C
$GPGGA,223714.187,3748.5524,N,12217.8449,W,1,03,3.1,25.1,M,-25.1,M,,0000*55
$GPGSA,A,2,15,28,27,,,,,,,,,,3.2,3.1,1.0*3A
$GPRMC,223714.187,A,3748.5524,N,12217.8449,W,0.84,4.08,120712,,,A*7C
$GPVTG,4.08,T,,M,0.84,N,1.6,K,N*05
$GPGGA,223715.187,3748.5558,N,12217.8477,W,1,03,3.1,25.1,M,-25.1,M,,0000*52
$GPGSA,A,2,15,28,27,,,,,,,,,,3.2,3.1,1.0*3A
$GPRMC,223715.187,A,3748.5558,N,12217.8477,W,1.76,351.73,120712,,,A*78
$GPVTG,351.73,T,,M,1.76,N,3.3,K,N*01
$GPGGA,223716.187,3748.5538,N,12217.8437,W,1,03,3.1,25.1,M,-25.1,M,,0000*53
$GPGSA,A,2,15,28,27,,,,,,,,,,3.2,3.1,1.0*3A
$GPGSV,3,1,10,27,48,312,31,28,44,065,27,15,29,263,26,17,69,044,29*73
$GPGSV,3,2,10,09,32,315,30,04,28,156,,26,27,215,27,01,12,040,24*7B
$GPGSV,3,3,10,02,05,184,21,12,04,280,*7C
$GPRMC,223716.187,A,3748.5538,N,12217.8437,W,1.90,352.87,120712,,,A*79
$GPVTG,352.87,T,,M,1.90,N,3.5,K,N*07
$GPGGA,223717.187,3748.5581,N,12217.8429,W,1,03,3.1,25.1,M,-25.1,M,,0000*5F
$GPGSA,A,2,15,28,27,,,,,,,,,,3.2,3.1,1.0*3A
$GPRMC,223717.187,A,3748.5581,N,12217.8429,W,0.96,161.97,120712,,,A*71
$GPVTG,161.97,T,,M,0.96,N,1.8,K,N*0C
$GPGGA,223718.187,3748.5518,N,12217.8408,W,1,03,3.1,25.1,M,-25.1,M,,0000*53
$GPGSA,A,2,15,28,27,,,,,,,,,,3.2,3.1,1.0*3A
$GPRMC,223718.187,A,3748.5518,N,12217.8408,W,1.14,348.73,120712,,,A*75
$GPVTG,348.73,T,,M,1.14,N,2.1,K,N*0E
$GPGGA,223719.187,3748.5525,N,12217.8435,W,1,03,3.1,25.1,M,-25.1,M,,0000*52
$GPGSA,A,2,15,28,27,,,,,,,,,,3.2,3.1,1.0*3A
$GPRMC,223719.187,A,3748.5525,N,12217.8435,W,1.41,339.54,120712,,,A*77
$GPVTG,339.54,T,,M,1.41,N,2.6,K,N*0A
$GPGGA,223720.187,3748.5629,N,12217.8454,W,1,03,3.1,25.1,M,-25.1,M,,0000*50
$GPGSA,A,2,15,28,27,,,,,,,,,,3.2,3.1,1.0*3A
$GPRMC,223720.187,A,3748.5629,N,12217.8454,W,1.77,351.60,120712,,,A*79
$GPVTG,351.60,T,,M,1.77,N,3.3,K,N*02
$GPGGA,223721.187,3748.5554,N,12217.8467,W,1,03,3.1,25.1,M,-25.1,M,,0000*58
$GPGSA,A,2,15,28,27,,,,,,,,,,3.2,3.1,1.0*3A
$GPGSV,3,1,10,27,48,312,28,28,44,065,29,15,29,263,26,17,69,044,30*7D
$GPGSV,3,2,10,09,32,315,27,04,28,156,,26,27,215,23,01,12,040,30*7C
$GPGSV,3,3,10,02,05,184,20,12,04,280,*7D
$GPRMC,223721.187,A,3748.5554,N,12217.8467,W,1.19,342.47,120712,,,A*7E
$GPGGA,223722.187,3748.5608,N,12217.8461,W,1,03,3.1,25.1,M,-25.1,M,,0000*57
$GPGSA,A,2,15,28,27,,,,,,,,,,3.2,3.1,1.0*3A
$GPRMC,223722.187,A,3748.5608,N,12217.8461,W,0.93,335.71,120712,,,A*77
$GPVTG,335.71,T,,M,0.93,N,1.7,K,N*0D
$GPGGA,223723.187,3748.5549,N,12217.8477,W,1,03,3.1,25.1,M,-25.1,M,,0000*57
$GPGSA,A,2,15,28,27,,,,,,,,,,3.2,3.1,1.0*3A
$GPRMC,223723.187,A,3748.5549,N,12217.8477,W,0.86,339.34,120712,,,A*7E
$GPVTG,339.34,T,,M,0.86,N,1.6,K,N*05
$GPGGA,223724.187,3748.5531,N,12217.8471,W,1,03,3.1,25.1,M,-25.1,M,,0000*59
$GPGSA,A,2,15,28,27,,,,,,,,,,3.2,3.1,1.0*3A
$GPRMC,223724.187,A,3748.5531,N,12217.8471,W,0.16,245.57,120712,,,A*76
$GPVTG,245.57,T,,M,0.16,N,0.3,K,N*07
$GPGGA,223725.187,3748.5543,N,12217.8464,W,1,03,3.1,25.1,M,-25.1,M,,0000*59
$GPGSA,A,2,15,28,27,,,,,,,,,,3.2,3.1,1.0*3A
$GPRMC,223725.187,A,3748.5543,N,12217.8464,W,0.12,239.89,120712,,,A*7A
$GPVTG,239.89,T,,M,0.12,N,0.2,K,N*0A
$GPGGA,223726.187,3748.5642,N,12217.8445,W,1,03,3.1,25.1,M,-25.1,M,,0000*5B
$GPGSA,A,2,15,28,27,,,,,,,,,,3.2,3.1,1.0*3A
$GPGSV,3,1,10,27,48,312,30,28,44,065,31,15,29,263,21,17,69,044,35*7F
$GPGSV,3,2,10,09,32,315,30,04,28,156,,26,27,215,22,01,12,040,20*7A
$GPGSV,3,3,10,02,05,184,22,12,04,280,*7F
$GPRMC,223726.187,A,3748.5642,N,12217.8445,W,2.43,5.74,120712,,,A*71
$GPVTG,5.74,T,,M,2.43,N,4.5,K,N*00
$GPGGA,223727.187,3748.5617,N,12217.8440,W,1,03,3.1,25.1,M,-25.1,M,,0000*5F
$GPGSA,A,2,15,28,27,,,,,,,,,,3.2,3.1,1.0*3A
$GPRMC,223727.187,A,3748.5617,N,12217.8440,W,0.12,12.56,120712,,,A*45
$GPVTG,12.56,T,,M,0.12,N,0.2,K,N*33
$GPGGA,223728.187,3748.5649,N,12217.8455,W,1,03,3.1,25.1,M,-25.1,M,,0000*5F
$GPGSA,A,2,15,28,27,,,,,,,,,,3.2,3.1,1.0*3A
$GPRMC,223728.187,A,3748.5649,N,12217.8455,W,0.35,124.51,120712,,,A*73
$GPVTG,124.51,T,,M,0.35,N,0.6,K,N*01
$GPGGA,223729.187,3748.5525,N,12217.8451,W,1,03,3.1,25.1,M,-25.1,M,,0000*53
$GPGSA,A,2,15,28,27,,,,,,,,,,3.2,3.1,1.0*3A
$GPRMC,223729.187,A,3748.5525,N,12217.8451,W,1.65,185.35,120712,,,A*72
$GPVTG,185.35,T,,M,1.65,N,3.1,K,N*08
$GPGGA,223730.187,3748.5575,N,12217.8454,W,1,03,3.1,25.1,M,-25.1,M,,0000*5B
$GPGSA,A,2,15,28,27,,,,,,,,,,3.2,3.1,1.0*3A
$GPRMC,223730.187,A,3748.5575,N,12217.8454,W,0.65,13.66,120712,,,A*43
$GPVTG,13.66,T,,M,0.65,N,1.2,K,N*30
$GPGGA,223731.187,3748.5684,N,12217.8441,W,1,03,3.1,25.1,M,-25.1,M,,0000*53
$GPGSA,A,2,15,28,27,,,,,,,,,,3.2,3.1,1.0*3A
$GPGSV,3,1,10,27,48,312,30,28,44,065,36,15,29,263,26,17,69,044,27*7C
$GPGSV,3,2,10,09,32,315,31,04,28,156,,26,27,215,22,01,12,040,27*7C
$GPGSV,3,3,10,02,05,184,21,12,04,280,*7C
$GPVTG,167.02,T,,M,0.35,N,0.6,K,N*00
$GPGGA,223732.187,3748.5666,N,12217.8449,W,1,03,3.1,25.1,M,-25.1,M,,0000*54
$GPGSA,A,2,15,28,27,,,,,,,,,,3.2,3.1,1.0*3A
$GPRMC,223732.187,A,3748.5666,N,12217.8449,W,0.82,8.74,120712,,,A*7C
$GPVTG,8.74,T,,M,0.82,N,1.5,K,N*07
$GPGGA,223733.187,3748.5715,N,12217.8442,W,1,03,3.1,25.1,M,-25.1,M,,0000*5B
$GPGSA,A,2,15,28,27,,,,,,,,,,3.2,3.1,1.0*3A
$GPRMC,223733.187,A,3748.5715,N,12217.8442,W,1.17,183.72,120712,,,A*7A
$GPVTG,183.72,T,,M,1.17,N,2.2,K,N*0A
$GPGGA,223734.187,3748.5664,N,12217.8449,W,1,03,3.1,25.1,M,-25.1,M,,0000*50
$GPGSA,A,2,15,28,27,,,,,,,,,,3.2,3.1,1.0*3A
$GPRMC,223734.187,A,3748.5664,N,12217.8449,W,0.16,44.17,120712,,,A*48
$GPVTG,44.17,T,,M,0.16,N,0.3,K,N*30
$GPGGA,223735.187,3748.5657,N,12217.8449,W,1,03,3.1,25.1,M,-25.1,M,,0000*51
$GPGSA,A,2,15,28,27,,,,,,,,,,3.2,3.1,1.0*3A
$GPRMC,223735.187,A,3748.5657,N,12217.8449,W,0.16,169.00,120712,,,A*71
$GPVTG,169.00,T,,M,0.16,N,0.3,K,N*08
$GPGGA,223736.187,3748.5679,N,12217.8444,W,1,03,3.1,25.1,M,-25.1,M,,0000*53
$GPGSA,A,2,15,28,27,,,,,,,,,,3.2,3.1,1.0*3A
$GPGSV,3,1,10,27,48,312,31,28,44,065,35,15,29,263,25,17,69,044,35*7E
$GPGSV,3,2,10,09,32,315,32,04,28,156,,26,27,215,22,01,12,040,33*7A
$GPGSV,3,3,10,02,05,184,20,12,04,280,*7D
$GPRMC,223736.187,A,3748.5679,N,12217.8444,W,0.50,176.21,120712,,,A*7C
$GPVTG,176.21,T,,M,0.50,N,0.9,K,N*0D
$GPGGA,223737.187,3748.5739,N,12217.8435,W,1,03,3.1,25.1,M,-25.1,M,,0000*51
$GPGSA,A,2,15,28,27,,,,,,,,,,3.2,3.1,1.0*3A
$GPRMC,223737.187,A,3748.5739,N,12217.8435,W,0.36,43.98,120712,,,A*4B
$GPVTG,43.98,T,,M,0.36,N,0.7,K,N*36
$GPGGA,223738.187,3748.5582,N,12217.8462,W,1,03,3.1,25.1,M,-25.1,M,,0000*5E
$GPGSA,A,2,15,28,27,,,,,,,,,,3.2,3.1,1.0*3A
$GPRMC,223738.187,A,3748.5582,N,12217.8462,W,1.57,351.35,120712,,,A*75
$GPVTG,351.35,T,,M,1.57,N,2.9,K,N*0B
$GPGGA,223739.187,3748.5685,N,12217.8469,W,1,03,3.1,25.1,M,-25.1,M,,0000*50
$GPGSA,A,2,15,28,27,,,,,,,,,,3.2,3.1,1.0*3A
$GPRMC,223739.187,A,3748.5685,N,12217.8469,W,0.74,0.20,120712,,,A*78
$GPVTG,0.20,T,,M,0.74,N,1.4,K,N*06
$GPGGA,223740.187,3748.5536,N,12217.8389,W,1,03,3.1,25.1,M,-25.1,M,,0000*5C
$GPGSA,A,2,15,28,27,,,,,,,,,,3.2,3.1,1.0*3A
$GPRMC,223740.187,A,3748.5536,N,12217.8389,W,4.32,174.68,120712,,,A*7C
$GPVTG,174.68,T,,M,4.32,N,8.0,K,N*03
$GPGGA,223741.187,3748.5642,N,12217.8380,W,1,03,3.1,25.1,M,-25.1,M,,0000*54
$GPGSA,A,2,15,28,27,,,,,,,,,,3.2,3.1,1.0*3A
$GPGSV,3,1,10,27,48,312,23,28,44,065,35,15,29,263,25,17,69,044,33*7B
$GPGSV,3,2,10,09,32,315,26,04,28,156,,26,27,215,22,01,12,040,35*79
$GPGSV,3,3,10,02,05,184,21,12,04,280,*7C
$GPRMC,223741.187,A,3748.5642,N,12217.8380,W,0.40,127.91,120712,,,A*75
$GPVTG,127.91,T,,M,0.40,N,0.7,K,N*0D
$GPGGA,223742.187,3748.5719,N,12217.8395,W,1,03,3.1,25.1,M,-25.1,M,,0000*5C
$GPGSA,A,2,15,28,27,,,,,,,,,,3.2,3.1,1.0*3A
$GPRMC,223742.187,A,3748.5719,N,12217.8395,W,0.76,24.93,120712,,,A*48
$GPVTG,24.93,T,,M,0.76,N,1.4,K,N*3A
$GPGGA,223743.187,3748.5537,N,12217.8357,W,1,03,3.1,25.1,M,-25.1,M,,0000*5D
$GPGSA,A,2,15,28,27,,,,,,,,,,3.2,3.1,1.0*3A
$GPRMC,223743.187,A,3748.5537,N,12217.8357,W,1.35,169.80,120712,,,A*75
$GPVTG,169.80,T,,M,1.35,N,2.5,K,N*04
$GPGGA,223744.187,3748.5790,N,12217.8375,W,1,03,3.1,25.1,M,-25.1,M,,0000*55
$GPGSA,A,2,15,28,27,,,,,,,,,,3.2,3.1,1.0*3A
$GPRMC,223744.187,A,3748.5790,N,12217.8375,W,2.70,170.34,120712,,,A*78
$GPVTG,170.34,T,,M,2.70,N,5.0,K,N*03
$GPGGA,223745.187,3748.5742,N,12217.8398,W,1,03,3.1,25.1,M,-25.1,M,,0000*58
$GPGSA,A,2,15,28,27,,,,,,,,,,3.2,3.1,1.0*3A
$GPRMC,223745.187,A,3748.5742,N,12217.8398,W,0.87,138.53,120712,,,A*72
$GPVTG,138.53,T,,M,0.87,N,1.6,K,N*06
$GPGGA,223746.187,3748.5672,N,12217.8400,W,1,03,3.1,25.1,M,-25.1,M,,0000*5F
$GPGSA,A,2,15,28,27,,,,,,,,,,3.2,3.1,1.0*3A
$GPGSV,3,1,10,27,48,312,23,28,44,065,35,15,29,263,17,17,69,044,32*7B
$GPGSV,3,2,10,09,32,315,25,04,28,156,24,26,27,215,22,01,12,040,36*7F
$GPGSV,3,3,10,02,05,184,22,12,04,280,*7F
$GPRMC,223746.187,A,3748.5672,N,12217.8400,W,4.75,3.86,120712,,,A*7D
$GPVTG,3.86,T,,M,4.75,N,8.8,K,N*09
$GPGGA,223747.187,3748.5603,N,12217.8374,W,1,03,3.1,25.1,M,-25.1,M,,0000*5C
$GPGSA,A,2,15,28,27,,,,,,,,,,3.2,3.1,1.0*3A
$GPRMC,223747.187,A,3748.5603,N,12217.8374,W,3.81,6.28,120712,,,A*73
$GPVTG,6.28,T,,M,3.81,N,7.1,K,N*02
$GPGGA,223748.187,3748.5491,N,12217.8338,W,1,03,3.1,25.1,M,-25.1,M,,0000*52
$GPGSA,A,2,15,28,27,,,,,,,,,,3.2,3.1,1.0*3A
$GPRMC,223748.187,A,3748.5491,N,12217.8338,W,1.72,345.11,120712,,,A*7D
$GPVTG,345.11,T,,M,1.72,N,3.2,K,N*05
$GPGGA,223749.187,3748.5557,N,12217.8342,W,1,03,3.1,25.1,M,-25.1,M,,0000*55
$GPGSA,A,2,15,28,27,,,,,,,,,,3.2,3.1,1.0*3A
$GPRMC,223749.187,A,3748.5557,N,12217.8342,W,2.12,342.51,120712,,,A*7C
$GPVTG,342.51,T,,M,2.12,N,3.9,K,N*08
$GPGGA,223750.187,3748.5604,N,12217.8378,W,1,03,3.1,25.1,M,-25.1,M,,0000*51
$GPGSA,A,2,15,28,27,,,,,,,,,,3.2,3.1,1.0*3A
$GPRMC,223750.187,A,3748.5604,N,12217.8378,W,3.18,170.24,120712,,,A*72
$GPVTG,170.24,T,,M,3.18,N,5.9,K,N*04
$GPGGA,223751.187,3748.5535,N,12217.8380,W,1,03,3.1,25.1,M,-25.1,M,,0000*56
$GPGSA,A,2,15,28,27,,,,,,,,,,3.2,3.1,1.0*3A
$GPGSV,3,1,10,27,48,312,24,28,44,065,34,15,29,263,20,17,69,044,32*79
$GPGSV,3,2,10,09,33,315,26,04,28,156,26,26,26,215,21,01,12,040,36*7D
$GPGSV,3,3,10,02,06,184,21,12,04,280,*7F
$GPRMC,223751.187,A,3748.5535,N,12217.8380,W,2.76,164.84,120712,,,A*73
$GPVTG,164.84,T,,M,2.76,N,5.1,K,N*0A
$GPGGA,223752.187,3748.5596,N,12217.8407,W,1,03,3.1,25.1,M,-25.1,M,,0000*54
$GPGSA,A,2,15,28,27,,,,,,,,,,3.2,3.1,1.0*3A
$GPRMC,223752.187,A,3748.5596,N,12217.8407,W,0.66,20.97,120712,,,A*41
$GPVTG,20.97,T,,M,0.66,N,1.2,K,N*3D
$GPGGA,223753.187,3748.5578,N,12217.8402,W,1,03,3.1,25.1,M,-25.1,M,,0000*50
$GPGSA,A,2,15,28,27,,,,,,,,,,3.2,3.1,1.0*3A
$GPRMC,223753.187,A,3748.5578,N,12217.8402,W,1.36,154.64,120712,,,A*7F
$GPVTG,154.64,T,,M,1.36,N,2.5,K,N*03
$GPGGA,223754.187,3748.5573,N,12217.8430,W,1,03,3.1,25.1,M,-25.1,M,,0000*5D
$GPGSA,A,2,15,28,27,,,,,,,,,,3.2,3.1,1.0*3A
$GPRMC,223754.187,A,3748.5573,N,12217.8430,W,3.71,181.93,120712,,,A*73
$GPVTG,181.93,T,,M,3.71,N,6.9,K,N*0A
$GPGGA,223755.187,3748.5748,N,12217.8392,W,1,03,3.1,25.1,M,-25.1,M,,0000*59
$GPGSA,A,2,15,28,27,,,,,,,,,,3.2,3.1,1.0*3A
$GPRMC,223755.187,A,3748.5748,N,12217.8392,W,1.43,170.68,120712,,,A*7E
$GPVTG,170.68,T,,M,1.43,N,2.7,K,N*09
$GPGGA,223756.187,3748.5798,N,12217.8384,W,1,03,3.1,25.1,M,-25.1,M,,0000*50
$GPGSA,A,2,15,28,27,,,,,,,,,,3.2,3.1,1.0*3A
$GPGSV,3,1,10,27,48,312,29,28,44,065,35,15,29,263,20,17,69,044,32*75
$GPGSV,3,2,10,09,33,315,29,04,28,156,20,26,26,215,21,01,12,040,36*74
$GPGSV,3,3,10,02,06,184,15,12,04,280,*78
$GPRMC,223756.187,A,3748.5798,N,12217.8384,W,0.89,148.75,120712,,,A*77
$GPGGA,223757.187,3748.5776,N,12217.8372,W,1,03,3.1,25.1,M,-25.1,M,,0000*58
$GPGSA,A,2,15,28,27,,,,,,,,,,3.2,3.1,1.0*3A
$GPRMC,223757.187,A,3748.5776,N,12217.8372,W,0.19,144.41,120712,,,A*7D
$GPVTG,144.41,T,,M,0.19,N,0.4,K,N*0A
$GPGGA,223758.187,3748.5562,N,12217.8311,W,1,03,3.1,25.1,M,-25.1,M,,0000*55
$GPGSA,A,2,15,28,27,,,,,,,,,,3.2,3.1,1.0*3A
$GPRMC,223758.187,A,3748.5562,N,12217.8311,W,0.46,146.46,120712,,,A*7F
$GPVTG,146.46,T,,M,0.46,N,0.8,K,N*09
$GPGGA,223759.187,3748.5716,N,12217.8380,W,1,03,3.1,25.1,M,-25.1,M,,0000*5D
$GPGSA,A,2,15,28,27,,,,,,,,,,3.2,3.1,1.0*3A
$GPRMC,223759.187,A,3748.5716,N,12217.8380,W,1.29,136.44,120712,,,A*7A
$GPVTG,136.44,T,,M,1.29,N,2.4,K,N*0A
$GPGGA,223800.187,3748.5643,N,12217.8358,W,1,03,3.1,25.1,M,-25.1,M,,0000*5A
$GPGSA,A,2,15,28,27,,,,,,,,,,3.2,3.1,1.0*3A
$GPRMC,223800.187,A,3748.5643,N,12217.8358,W,0.91,164.71,120712,,,A*7E
$GPVTG,164.71,T,,M,0.91,N,1.7,K,N*09
$GPGGA,223801.187,3748.5623,N,12217.8366,W,1,03,3.1,25.1,M,-25.1,M,,0000*50
$GPGSA,A,2,15,28,27,,,,,,,,,,3.2,3.1,1.0*3A
$GPGSV,3,1,10,27,48,312,24,28,44,065,36,15,29,263,21,17,69,044,31*79
$GPGSV,3,2,10,09,33,315,24,04,28,156,21,26,26,215,20,01,12,040,36*79
$GPGSV,3,3,10,02,06,184,15,12,04,280,*78
$GPRMC,223801.187,A,3748.5623,N,12217.8366,W,3.75,348.80,120712,,,A*7F
$GPVTG,348.80,T,,M,3.75,N,7.0,K,N*03
$GPGGA,223802.187,3748.5749,N,12217.8364,W,1,03,3.1,25.1,M,-25.1,M,,0000*5C
$GPGSA,A,2,15,28,27,,,,,,,,,,3.2,3.1,1.0*3A
$GPRMC,223802.187,A,3748.5749,N,12217.8364,W,0.46,5.34,120712,,,A*75
$GPVTG,5.34,T,,M,0.46,N,0.9,K,N*0B
$GPGGA,223803.187,3748.5633,N,12217.8352,W,1,03,3.1,25.1,M,-25.1,M,,0000*54
$GPGSA,A,2,15,28,27,,,,,,,,,,3.2,3.1,1.0*3A
$GPRMC,223803.187,A,3748.5633,N,12217.8352,W,2.20,173.89,120712,,,A*79
$GPVTG,173.89,T,,M,2.20,N,4.1,K,N*03
$GPGGA,223804.187,3748.5602,N,12217.8361,W,1,03,3.1,25.1,M,-25.1,M,,0000*51
$GPGSA,A,2,15,28,27,,,,,,,,,,3.2,3.1,1.0*3A
$GPRMC,223804.187,A,3748.5602,N,12217.8361,W,0.20,132.34,120712,,,A*7D
$GPVTG,132.34,T,,M,0.20,N,0.4,K,N*03
$GPGGA,223805.187,3748.5595,N,12217.8331,W,1,03,3.1,25.1,M,-25.1,M,,0000*58
$GPGSA,A,2,15,28,27,,,,,,,,,,3.2,3.1,1.0*3A
$GPRMC,223805.187,A,3748.5595,N,12217.8331,W,0.90,53.28,120712,,,A*44
$GPVTG,53.28,T,,M,0.90,N,1.7,K,N*31
$GPGGA,223806.187,3748.5792,N,12217.8346,W,1,03,3.1,25.1,M,-25.1,M,,0000*5E
$GPGSA,A,2,15,28,27,,,,,,,,,,3.2,3.1,1.0*3A
$GPGSV,3,1,10,27,48,312,25,28,44,065,37,15,29,263,23,17,69,044,31*7B
$GPGSV,3,2,10,09,33,315,27,04,28,156,20,26,26,215,20,01,12,040,40*7A
$GPGSV,3,3,10,02,06,184,15,12,04,280,*78
$GPRMC,223806.187,A,3748.5792,N,12217.8346,W,0.22,126.59,120712,,,A*7E
$GPVTG,126.59,T,,M,0.22,N,0.4,K,N*0F
$GPGGA,223807.187,3748.5804,N,12217.8323,W,1,03,3.1,25.1,M,-25.1,M,,0000*5C
$GPGSA,A,2,15,28,27,,,,,,,,,,3.2,3.1,1.0*3A
$GPRMC,223807.187,A,3748.5804,N,12217.8323,W,0.31,73.60,120712,,,A*45
$GPVTG,73.60,T,,M,0.31,N,0.6,K,N*34
$GPGGA,223808.187,3748.5669,N,12217.8333,W,1,03,3.1,25.1,M,-25.1,M,,0000*57
$GPGSA,A,2,15,28,27,,,,,,,,,,3.2,3.1,1.0*3A
$GPRMC,223808.187,A,3748.5669,N,12217.8333,W,1.21,58.15,120712,,,A*45
$GPVTG,58.15,T,,M,1.21,N,2.2,K,N*39
$GPGGA,223809.187,3748.5626,N,12217.8345,W,1,03,3.1,25.1,M,-25.1,M,,0000*5C
$GPGSA,A,2,15,28,27,,,,,,,,,,3.2,3.1,1.0*3A
$GPRMC,223809.187,A,3748.5626,N,12217.8345,W,1.51,12.10,120712,,,A*42
$GPVTG,12.10,T,,M,1.51,N,2.8,K,N*3F
$GPGGA,223810.187,3748.5856,N,12217.8358,W,1,03,3.1,25.1,M,-25.1,M,,0000*51
$GPGSA,A,2,15,28,27,,,,,,,,,,3.2,3.1,1.0*3A
$GPRMC,223810.187,A,3748.5856,N,12217.8358,W,2.16,158.40,120712,,,A*75
$GPVTG,158.40,T,,M,2.16,N,4.0,K,N*0B
$GPGGA,223811.187,3748.5913,N,12217.8337,W,1,03,3.1,25.1,M,-25.1,M,,0000*59
$GPGSA,A,2,15,28,27,,,,,,,,,,3.2,3.1,1.0*3A
$GPGSV,3,1,10,27,48,312,25,28,44,065,37,15,29,263,23,17,69,044,31*7B
$GPGSV,3,2,10,09,33,315,19,04,28,156,19,26,26,215,19,01,12,040,39*79
$GPGSV,3,3,10,02,06,184,14,12,04,280,*79
$GPRMC,223811.187,A,3748.5913,N,12217.8337,W,2.31,170.51,120712,,,A*72
$GPVTG,170.51,T,,M,2.31,N,4.3,K,N*07
$GPGGA,223812.187,3748.5645,N,12217.8316,W,1,03,3.1,25.1,M,-25.1,M,,0000*55
$GPGSA,A,2,15,28,27,,,,,,,,,,3.2,3.1,1.0*3A
$GPRMC,223812.187,A,3748.5645,N,12217.8316,W,0.81,159.58,120712,,,A*75
$GPVTG,159.58,T,,M,0.81,N,1.5,K,N*0F
$GPGGA,223813.187,3748.5729,N,12217.8322,W,1,03,3.1,25.1,M,-25.1,M,,0000*58
$GPGSA,A,2,15,28,27,,,,,,,,,,3.2,3.1,1.0*3A
$GPRMC,223813.187,A,3748.5729,N,12217.8322,W,0.69,168.60,120712,,,A*77
$GPVTG,168.60,T,,M,0.69,N,1.3,K,N*06
$GPGGA,223814.187,3748.5758,N,12217.8303,W,1,03,3.1,25.1,M,-25.1,M,,0000*5A
$GPGSA,A,2,15,28,27,,,,,,,,,,3.2,3.1,1.0*3A
$GPRMC,223814.187,A,3748.5758,N,12217.8303,W,1.76,176.80,120712,,,A*7B
$GPVTG,176.80,T,,M,1.76,N,3.3,K,N*0A
$GPGGA,223815.187,3748.5774,N,12217.8271,W,1,03,3.1,25.1,M,-25.1,M,,0000*51
$GPGSA,A,2,15,28,27,,,,,,,,,,3.2,3.1,1.0*3A
$GPRMC,223815.187,A,3748.5774,N,12217.8271,W,0.76,35.12,120712,,,A*4C
$GPVTG,35.12,T,,M,0.76,N,1.4,K,N*33
$GPGGA,223816.187,3748.5711,N,12217.8260,W,1,03,3.1,25.1,M,-25.1,M,,0000*51
$GPGSA,A,2,15,28,27,,,,,,,,,,3.2,3.1,1.0*3A
$GPGSV,3,1,10,27,48,312,24,28,44,065,37,15,29,263,23,17,69,044,31*7A
$GPGSV,3,2,10,09,33,315,21,04,28,156,19,26,26,215,21,01,12,040,39*79
$GPGSV,3,3,10,02,06,184,,12,04,280,*7C
$GPRMC,223816.187,A,3748.5711,N,12217.8260,W,1.75,146.28,120712,,,A*72
$GPVTG,146.28,T,,M,1.75,N,3.2,K,N*09
$GPGGA,223817.187,3748.5726,N,12217.8274,W,1,03,3.1,25.1,M,-25.1,M,,0000*51
$GPGSA,A,2,15,28,27,,,,,,,,,,3.2,3.1,1.0*3A
$GPRMC,223817.187,A,3748.5726,N,12217.8274,W,2.51,358.83,120712,,,A*7B
$GPVTG,358.83,T,,M,2.51,N,4.6,K,N*03
$GPGGA,223818.187,3748.5642,N,12217.8291,W,1,03,3.1,25.1,M,-25.1,M,,0000*56
$GPGSA,A,2,15,28,27,,,,,,,,,,3.2,3.1,1.0*3A
$GPRMC,223818.187,A,3748.5642,N,12217.8291,W,1.32,169.07,120712,,,A*76
$GPVTG,169.07,T,,M,1.32,N,2.4,K,N*0D
$GPGGA,223819.187,3748.5691,N,12217.8308,W,1,03,3.1,25.1,M,-25.1,M,,0000*58
$GPGSA,A,2,15,28,27,,,,,,,,,,3.2,3.1,1.0*3A
$GPRMC,223819.187,A,3748.5691,N,12217.8308,W,5.46,183.26,120712,,,A*78
$GPVTG,183.26,T,,M,5.46,N,10.1,K,N*3B
$GPGGA,223820.187,3748.5851,N,12217.8296,W,1,03,3.1,25.1,M,-25.1,M,,0000*56
$GPGSA,A,2,15,28,27,,,,,,,,,,3.2,3.1,1.0*3A
$GPRMC,223820.187,A,3748.5851,N,12217.8296,W,5.72,177.70,120712,,,A*79
$GPVTG,177.70,T,,M,5.72,N,10.6,K,N*33
$GPGGA,223821.187,3748.5935,N,12217.8284,W,1,03,3.1,25.1,M,-25.1,M,,0000*57
$GPGSA,A,2,15,28,27,,,,,,,,,,3.2,3.1,1.0*3A
$GPGSV,3,1,10,27,48,312,30,28,43,065,37,15,29,262,22,17,69,044,31*78
$GPGSV,3,2,10,09,33,315,31,04,28,156,29,26,26,214,21,01,11,040,39*79
$GPGSV,3,3,10,02,06,184,,12,05,280,*7D
$GPRMC,223821.187,A,3748.5935,N,12217.8284,W,2.17,171.57,120712,,,A*7F
$GPGGA,223822.187,3748.5996,N,12217.8269,W,1,03,3.1,25.1,M,-25.1,M,,0000*5E
$GPGSA,A,2,15,28,27,,,,,,,,,,3.2,3.1,1.0*3A
$GPRMC,223822.187,A,3748.5996,N,12217.8269,W,0.59,82.56,120712,,,A*42
$GPVTG,82.56,T,,M,0.59,N,1.1,K,N*37
$GPGGA,223823.187,3748.5865,N,12217.8298,W,1,03,3.1,25.1,M,-25.1,M,,0000*5C
$GPGSA,A,2,15,28,27,,,,,,,,,,3.2,3.1,1.0*3A
$GPRMC,223823.187,A,3748.5865,N,12217.8298,W,1.49,161.84,120712,,,A*73
$GPVTG,161.84,T,,M,1.49,N,2.8,K,N*0E
$GPGGA,223824.187,3748.6014,N,12217.8290,W,1,03,3.1,25.1,M,-25.1,M,,0000*5E
$GPGSA,A,2,15,28,27,,,,,,,,,,3.2,3.1,1.0*3A
$GPRMC,223824.187,A,3748.6014,N,12217.8290,W,1.66,16.09,120712,,,A*48
$GPVTG,16.09,T,,M,1.66,N,3.1,K,N*3F
$GPGGA,223825.187,3748.5893,N,12217.8272,W,1,03,3.1,25.1,M,-25.1,M,,0000*57
$GPGSA,A,2,15,28,27,,,,,,,,,,3.2,3.1,1.0*3A
$GPRMC,223825.187,A,3748.5893,N,12217.8272,W,1.87,165.67,120712,,,A*73
$GPVTG,165.67,T,,M,1.87,N,3.5,K,N*09
$GPGGA,223826.187,3748.5799,N,12217.8251,W,1,03,3.1,25.1,M,-25.1,M,,0000*50
$GPGSA,A,2,15,28,27,,,,,,,,,,3.2,3.1,1.0*3A
$GPGSV,3,1,10,27,48,312,24,28,43,065,37,15,29,262,22,17,69,044,32*7E
$GPGSV,3,2,10,09,33,315,23,04,28,156,30,26,26,214,21,01,11,040,39*72
$GPGSV,3,3,10,02,06,184,,12,05,280,*7D
$GPRMC,223826.187,A,3748.5799,N,12217.8251,W,2.65,172.20,120712,,,A*7E
$GPVTG,172.20,T,,M,2.65,N,4.9,K,N*08
$GPGGA,223827.187,3748.5833,N,12217.8254,W,1,03,3.1,25.1,M,-25.1,M,,0000*5B
$GPGSA,A,2,15,28,27,,,,,,,,,,3.2,3.1,1.0*3A
$GPRMC,223827.187,A,3748.5833,N,12217.8254,W,1.19,71.65,120712,,,A*4E
$GPVTG,71.65,T,,M,1.19,N,2.2,K,N*3E
$GPGGA,223828.187,3748.5886,N,12217.8289,W,1,03,3.1,25.1,M,-25.1,M,,0000*5A
$GPGSA,A,2,15,28,27,,,,,,,,,,3.2,3.1,1.0*3A
$GPRMC,223828.187,A,3748.5886,N,12217.8289,W,3.53,6.62,120712,,,A*74
$GPVTG,6.62,T,,M,3.53,N,6.5,K,N*06
$GPGGA,223829.187,3748.5819,N,12217.8233,W,1,03,3.1,25.1,M,-25.1,M,,0000*5C
$GPGSA,A,2,15,28,27,,,,,,,,,,3.2,3.1,1.0*3A
$GPRMC,223829.187,A,3748.5819,N,12217.8233,W,1.75,173.46,120712,,,A*71
$GPVTG,173.46,T,,M,1.75,N,3.2,K,N*07
$GPGGA,223830.187,3748.5913,N,12217.8244,W,1,03,3.1,25.1,M,-25.1,M,,0000*5F
$GPGSA,A,2,15,28,27,,,,,,,,,,3.2,3.1,1.0*3A
$GPRMC,223830.187,A,3748.5913,N,12217.8244,W,2.78,1.38,120712,,,A*71
$GPVTG,1.38,T,,M,2.78,N,5.1,K,N*01
$GPGGA,223831.187,3748.5924,N,12217.8234,W,1,03,3.1,25.1,M,-25.1,M,,0000*5D
$GPGSA,A,2,15,28,27,,,,,,,,,,3.2,3.1,1.0*3A
$GPGSV,3,1,10,27,48,312,25,28,43,065,37,15,29,262,21,17,69,044,32*7C
$GPGSV,3,2,10,09,33,315,24,04,28,156,30,26,26,214,21,01,11,040,39*75
$GPGSV,3,3,10,02,06,184,,12,05,280,*7D
$GPRMC,223831.187,A,3748.5924,N,12217.8234,W,1.67,7.78,120712,,,A*7C
$GPVTG,7.78,T,,M,1.67,N,3.1,K,N*08
$GPGGA,223832.187,3748.5873,N,12217.8159,W,1,03,3.1,25.1,M,-25.1,M,,0000*55
$GPGSA,A,2,15,28,27,,,,,,,,,,3.2,3.1,1.0*3A
$GPRMC,223832.187,A,3748.5873,N,12217.8159,W,0.33,62.24,120712,,,A*4E
$GPVTG,62.24,T,,M,0.33,N,0.6,K,N*36
$GPGGA,223833.187,3748.5870,N,12217.8205,W,1,03,3.1,25.1,M,-25.1,M,,0000*5D
$GPGSA,A,2,15,28,27,,,,,,,,,,3.2,3.1,1.0*3A
$GPRMC,223833.187,A,3748.5870,N,12217.8205,W,0.22,257.67,120712,,,A*75
$GPVTG,257.67,T,,M,0.22,N,0.4,K,N*07
$GPGGA,223834.187,3748.5945,N,12217.8246,W,1,04,2.5,25.5,M,-25.1,M,,0000*5C
$GPGSA,A,3,15,28,27,01,,,,,,,,,3.6,2.5,2.5*3D
$GPRMC,223834.187,A,3748.5945,N,12217.8246,W,2.62,155.52,120712,,,A*73
$GPVTG,155.52,T,,M,2.62,N,4.8,K,A*01
$GPGGA,223835.187,3748.5988,N,12217.8236,W,1,04,2.5,32.1,M,-25.1,M,,0000*59
$GPGSA,A,3,15,28,27,01,,,,,,,,,3.6,2.5,2.5*3D
$GPRMC,223835.187,A,3748.5988,N,12217.8236,W,2.47,149.12,120712,,,A*7A
$GPVTG,149.12,T,,M,2.47,N,4.6,K,A*01
$GPGGA,223836.187,3748.5959,N,12217.8228,W,1,04,2.5,26.7,M,-25.1,M,,0000*5A
$GPGSA,A,3,15,28,27,01,,,,,,,,,3.6,2.5,2.5*3D
$GPGSV,3,1,10,27,49,311,23,28,43,066,36,15,29,262,21,01,11,040,36*72
$GPGSV,3,2,10,17,69,044,32,09,33,315,19,04,29,156,30,26,26,214,21*7D
$GPGSV,3,3,10,02,06,183,16,12,05,280,*7D
$GPRMC,223836.187,A,3748.5959,N,12217.8228,W,2.12,163.26,120712,,,A*75
$GPVTG,163.26,T,,M,2.12,N,3.9,K,A*06
$GPGGA,223837.000,3748.5955,N,12217.8236,W,1,04,2.5,25.4,M,-25.1,M,,0000*56
$GPGSA,A,3,15,28,27,01,,,,,,,,,3.6,2.5,2.5*3D
$GPRMC,223837.000,A,3748.5955,N,12217.8236,W,2.06,179.45,120712,,,A*72
$GPVTG,179.45,T,,M,2.06,N,3.8,K,A*0C
$GPGGA,223838.000,3748.5936,N,12217.8243,W,1,04,2.5,21.6,M,-25.1,M,,0000*58
$GPGSA,A,3,15,28,27,01,,,,,,,,,3.6,2.5,2.5*3D
$GPRMC,223838.000,A,3748.5936,N,12217.8243,W,2.61,188.13,120712,,,A*76
$GPVTG,188.13,T,,M,2.61,N,4.8,K,A*07
$GPGGA,223839.000,3748.5899,N,12217.8239,W,1,04,2.5,14.5,M,-25.1,M,,0000*55
$GPGSA,A,3,15,28,27,01,,,,,,,,,3.6,2.5,2.5*3D
$GPRMC,223839.000,A,3748.5899,N,12217.8239,W,3.10,178.20,120712,,,A*76
$GPVTG,178.20,T,,M,3.10,N,5.7,K,A*01
$GPGGA,223840.000,3748.5886,N,12217.8234,W,1,04,2.5,11.6,M,-25.1,M,,0000*5E
$GPGSA,A,3,15,28,27,01,,,,,,,,,3.6,2.5,2.5*3D
$GPRMC,223840.000,A,3748.5886,N,12217.8234,W,2.88,167.72,120712,,,A*72
$GPVTG,167.72,T,,M,2.88,N,5.3,K,A*0C
$GPGGA,223841.000,3748.5892,N,12217.8230,W,1,04,2.5,11.7,M,-25.1,M,,0000*5F
$GPGSA,A,3,15,28,27,01,,,,,,,,,3.6,2.5,2.5*3D
$GPGSV,3,1,11,27,49,311,23,28,43,066,36,15,29,262,20,01,11,040,38*7C
$GPGSV,3,2,11,17,69,044,31,09,33,315,20,04,29,156,28,26,26,214,21*7C
$GPGSV,3,3,11,02,06,183,16,12,05,280,,51,43,156,34*4A
$GPRMC,223841.000,A,3748.5892,N,12217.8230,W,1.98,155.96,120712,,,A*7B
$GPVTG,155.96,T,,M,1.98,N,3.7,K,A*07
$GPGGA,223842.000,3748.5898,N,12217.8223,W,1,04,2.5,11.7,M,-25.1,M,,0000*54
$GPGSA,A,3,15,28,27,01,,,,,,,,,3.6,2.5,2.5*3D
$GPRMC,223842.000,A,3748.5898,N,12217.8223,W,1.48,135.39,120712,,,A*7E
$GPVTG,135.39,T,,M,1.48,N,2.7,K,A*08
$GPGGA,223843.000,3748.5901,N,12217.8220,W,1,04,2.5,11.3,M,-25.1,M,,0000*53
$GPGSA,A,3,15,28,27,01,,,,,,,,,3.6,2.5,2.5*3D
$GPRMC,223843.000,A,3748.5901,N,12217.8220,W,1.01,140.44,120712,,,A*78
$GPVTG,140.44,T,,M,1.01,N,1.9,K,A*00
$GPGGA,223844.000,3748.5904,N,12217.8211,W,1,04,2.5,11.0,M,-25.1,M,,0000*50
$GPGSA,A,3,15,28,27,01,,,,,,,,,3.6,2.5,2.5*3D
$GPRMC,223844.000,A,3748.5904,N,12217.8211,W,1.31,144.73,120712,,,A*7B
$GPVTG,144.73,T,,M,1.31,N,2.4,K,A*0D
$GPGGA,223845.000,3748.5914,N,12217.8211,W,1,04,2.5,11.9,M,-25.1,M,,0000*59
$GPGSA,A,3,15,28,27,01,,,,,,,,,3.6,2.5,2.5*3D
$GPRMC,223845.000,A,3748.5914,N,12217.8211,W,0.54,179.05,120712,,,A*76
$GPVTG,179.05,T,,M,0.54,N,1.0,K,A*07
$GPGGA,223846.000,3748.5923,N,12217.8214,W,1,04,2.5,12.7,M,-25.1,M,,0000*56
$GPGSA,A,3,15,28,27,01,,,,,,,,,3.6,2.5,2.5*3D
$GPGSV,3,1,11,27,49,311,28,28,43,066,36,15,29,262,19,01,11,040,33*76
$GPGSV,3,2,11,17,69,044,31,09,33,315,29,04,29,156,29,26,26,214,21*74
$GPGSV,3,3,11,02,06,183,16,12,05,280,,51,43,156,32*4C
$GPVTG,168.43,T,,M,0.70,N,1.3,K,A*00
$GPGGA,223847.000,3748.5920,N,12217.8210,W,1,04,2.5,11.7,M,-25.1,M,,0000*53
$GPGSA,A,3,15,28,27,01,,,,,,,,,3.6,2.5,2.5*3D
$GPRMC,223847.000,A,3748.5920,N,12217.8210,W,1.11,145.41,120712,,,A*7D
$GPVTG,145.41,T,,M,1.11,N,2.1,K,A*0A
$GPGGA,223848.000,3748.5927,N,12217.8208,W,1,04,2.5,12.6,M,-25.1,M,,0000*50
$GPGSA,A,3,15,28,27,01,,,,,,,,,3.6,2.5,2.5*3D
$GPRMC,223848.000,A,3748.5927,N,12217.8208,W,0.76,155.06,120712,,,A*7E
$GPVTG,155.06,T,,M,0.76,N,1.4,K,A*0E
$GPGGA,223849.000,3748.5934,N,12217.8209,W,1,04,2.5,13.5,M,-25.1,M,,0000*50
$GPGSA,A,3,15,28,27,01,,,,,,,,,3.6,2.5,2.5*3D
$GPRMC,223849.000,A,3748.5934,N,12217.8209,W,0.26,190.25,120712,,,A*71
$GPVTG,190.25,T,,M,0.26,N,0.5,K,A*03
$GPGGA,223850.000,3748.5943,N,12217.8211,W,1,04,2.5,14.8,M,-25.1,M,,0000*5B
$GPGSA,A,3,15,28,27,01,,,,,,,,,3.6,2.5,2.5*3D
$GPRMC,223850.000,A,3748.5943,N,12217.8211,W,0.61,208.61,120712,,,A*71
$GPVTG,208.61,T,,M,0.61,N,1.1,K,A*07
$GPGGA,223851.000,3748.5947,N,12217.8210,W,1,04,2.5,15.7,M,-25.1,M,,0000*51
$GPGSA,A,3,15,28,27,01,,,,,,,,,3.6,2.5,2.5*3D
$GPGSV,3,1,11,17,69,044,31,27,49,311,26,28,43,066,36,09,33,315,25*7E
$GPGSV,3,2,11,15,29,262,19,04,29,156,30,26,26,214,21,01,11,040,35*70
$GPGSV,3,3,11,02,06,183,16,12,05,280,21,51,43,156,33*4E
$GPRMC,223851.000,A,3748.5947,N,12217.8210,W,1.00,213.31,120712,,,A*7C
$GPVTG,213.31,T,,M,1.00,N,1.9,K,A*06
$GPGGA,223852.000,3748.5953,N,12217.8216,W,1,05,2.0,15.3,M,-25.1,M,,0000*51
$GPGSA,A,3,15,28,27,09,01,,,,,,,,3.2,2.0,2.5*35
$GPRMC,223852.000,A,3748.5953,N,12217.8216,W,1.26,215.83,120712,,,A*77
$GPVTG,215.83,T,,M,1.26,N,2.3,K,A*04
$GPGGA,223853.000,3748.5971,N,12217.8220,W,1,05,2.0,16.7,M,-25.1,M,,0000*52
$GPGSA,A,3,15,28,27,09,01,,,,,,,,3.2,2.0,2.5*35
$GPRMC,223853.000,A,3748.5971,N,12217.8220,W,0.55,276.81,120712,,,A*71
$GPVTG,276.81,T,,M,0.55,N,1.0,K,A*06
$GPGGA,223854.000,3748.5976,N,12217.8224,W,1,05,2.0,16.7,M,-25.1,M,,0000*56
$GPGSA,A,3,15,28,27,09,01,,,,,,,,3.2,2.0,2.5*35
$GPRMC,223854.000,A,3748.5976,N,12217.8224,W,0.73,332.55,120712,,,A*79
$GPVTG,332.55,T,,M,0.73,N,1.4,K,A*0E
$GPGGA,223855.000,3748.5982,N,12217.8225,W,1,05,2.0,17.0,M,-25.1,M,,0000*5B
$GPGSA,A,3,15,28,27,09,01,,,,,,,,3.2,2.0,2.5*35
$GPRMC,223855.000,A,3748.5982,N,12217.8225,W,0.45,33.34,120712,,,A*42
$GPVTG,33.34,T,,M,0.45,N,0.8,K,A*33
$GPGGA,223856.000,3748.5979,N,12217.8226,W,1,05,2.0,15.4,M,-25.1,M,,0000*59
$GPGSA,A,3,15,28,27,09,01,,,,,,,,3.2,2.0,2.5*35
$GPGSV,3,1,11,17,69,044,32,27,49,311,25,28,43,066,36,09,33,315,30*7A
$GPGSV,3,2,11,15,29,262,19,04,29,156,30,26,26,214,21,01,11,040,31*74
$GPGSV,3,3,11,02,06,183,15,12,05,281,19,51,43,156,39*4D
$GPRMC,223856.000,A,3748.5979,N,12217.8226,W,0.52,12.79,120712,,,A*4A
$GPVTG,12.79,T,,M,0.52,N,1.0,K,A*36
$GPGGA,223857.000,3748.5981,N,12217.8230,W,1,05,2.0,16.2,M,-25.1,M,,0000*5D
$GPGSA,A,3,15,28,27,09,01,,,,,,,,3.2,2.0,2.5*35
$GPRMC,223857.000,A,3748.5981,N,12217.8230,W,0.36,334.98,120712,,,A*71
$GPVTG,334.98,T,,M,0.36,N,0.7,K,A*0A
$GPGGA,223858.000,3748.5991,N,12217.8232,W,1,05,2.0,18.0,M,-25.1,M,,0000*5D
$GPGSA,A,3,15,28,27,09,01,,,,,,,,3.2,2.0,2.5*35
$GPRMC,223858.000,A,3748.5991,N,12217.8232,W,1.04,11.90,120712,,,A*41
$GPVTG,11.90,T,,M,1.04,N,1.9,K,A*39
$GPGGA,223859.000,3748.6005,N,12217.8232,W,1,05,2.0,20.2,M,-25.1,M,,0000*52
$GPGSA,A,3,15,28,27,09,01,,,,,,,,3.2,2.0,2.5*35
$GPRMC,223859.000,A,3748.6005,N,12217.8232,W,1.49,10.58,120712,,,A*4B
$GPVTG,10.58,T,,M,1.49,N,2.8,K,A*37
$GPGGA,223900.000,3748.6015,N,12217.8232,W,1,05,2.0,21.8,M,-25.1,M,,0000*55
$GPGSA,A,3,15,28,27,09,01,,,,,,,,3.2,2.0,2.5*35
$GPRMC,223900.000,A,3748.6015,N,12217.8232,W,1.20,4.06,120712,,,A*76
$GPVTG,4.06,T,,M,1.20,N,2.2,K,A*0C
$GPGGA,223901.000,3748.6017,N,12217.8232,W,1,05,2.0,22.1,M,-25.1,M,,0000*5C
$GPGSA,A,3,15,28,27,09,01,,,,,,,,3.2,2.0,2.5*35
$GPGSV,3,1,11,17,69,044,32,27,49,311,29,28,43,066,36,09,33,315,30*76
$GPGSV,3,2,11,15,29,262,18,04,29,156,28,26,26,214,11,01,11,040,32*7C
$GPGSV,3,3,11,02,06,183,23,12,05,281,,51,43,156,28*40
$GPRMC,223901.000,A,3748.6017,N,12217.8232,W,0.67,3.84,120712,,,A*7A
$GPGGA,223902.000,3748.6013,N,12217.8234,W,1,05,2.0,21.6,M,-25.1,M,,0000*59
$GPGSA,A,3,15,28,27,09,01,,,,,,,,3.2,2.0,2.5*35
$GPRMC,223902.000,A,3748.6013,N,12217.8234,W,0.20,353.99,120712,,,A*72
$GPVTG,353.99,T,,M,0.20,N,0.4,K,A*0E
$GPGGA,223903.000,3748.6016,N,12217.8234,W,1,05,2.0,22.1,M,-25.1,M,,0000*59
$GPGSA,A,3,15,28,27,09,01,,,,,,,,3.2,2.0,2.5*35
$GPRMC,223903.000,A,3748.6016,N,12217.8234,W,0.05,315.69,120712,,,A*7C
$GPVTG,315.69,T,,M,0.05,N,0.1,K,A*01
$GPGGA,223904.000,3748.6020,N,12217.8234,W,1,05,2.0,22.8,M,-25.1,M,,0000*52
$GPGSA,A,3,15,28,27,09,01,,,,,,,,3.2,2.0,2.5*35
$GPRMC,223904.000,A,3748.6020,N,12217.8234,W,0.06,16.40,120712,,,A*46
$GPVTG,16.40,T,,M,0.06,N,0.1,K,A*39
$GPGGA,223905.000,3748.6020,N,12217.8234,W,1,05,2.0,22.7,M,-25.1,M,,0000*5C
$GPGSA,A,3,15,28,27,09,01,,,,,,,,3.2,2.0,2.5*35
$GPRMC,223905.000,A,3748.6020,N,12217.8234,W,0.31,19.31,120712,,,A*4A
$GPVTG,19.31,T,,M,0.31,N,0.6,K,A*33
$GPGGA,223906.000,3748.6024,N,12217.8233,W,1,05,2.0,23.2,M,-25.1,M,,0000*58
$GPGSA,A,3,15,28,27,09,01,,,,,,,,3.2,2.0,2.5*35
$GPGSV,3,1,10,17,69,044,32,27,49,311,29,28,43,066,36,09,33,315,30*77
$GPGSV,3,2,10,15,29,262,20,04,29,156,26,26,26,214,,01,11,040,33*79
$GPGSV,3,3,10,02,06,183,23,12,05,281,*7A
$GPRMC,223906.000,A,3748.6024,N,12217.8233,W,0.16,358.96,120712,,,A*74
$GPVTG,358.96,T,,M,0.16,N,0.3,K,A*08
$GPGGA,223907.000,3748.6018,N,12217.8233,W,1,05,2.0,21.8,M,-25.1,M,,0000*5E
$GPGSA,A,3,15,28,27,09,01,,,,,,,,3.2,2.0,2.5*35
$GPRMC,223907.000,A,3748.6018,N,12217.8233,W,0.45,197.60,120712,,,A*74
$GPVTG,197.60,T,,M,0.45,N,0.8,K,A*0D
$GPGGA,223908.000,3748.6014,N,12217.8232,W,1,05,2.0,20.4,M,-25.1,M,,0000*51
$GPGSA,A,3,15,28,27,09,01,,,,,,,,3.2,2.0,2.5*35
$GPRMC,223908.000,A,3748.6014,N,12217.8232,W,0.57,181.51,120712,,,A*70
$GPVTG,181.51,T,,M,0.57,N,1.1,K,A*03
$GPGGA,223909.000,3748.6006,N,12217.8233,W,1,05,2.0,18.8,M,-25.1,M,,0000*55
$GPGSA,A,3,15,28,27,09,01,,,,,,,,3.2,2.0,2.5*35
$GPRMC,223909.000,A,3748.6006,N,12217.8233,W,0.85,178.33,120712,,,A*7E
$GPVTG,178.33,T,,M,0.85,N,1.6,K,A*09
$GPGGA,223910.000,3748.5997,N,12217.8229,W,1,05,2.0,17.7,M,-25.1,M,,0000*54
$GPGSA,A,3,15,28,27,09,01,,,,,,,,3.2,2.0,2.5*35
$GPRMC,223910.000,A,3748.5997,N,12217.8229,W,1.26,158.67,120712,,,A*74
$GPVTG,158.67,T,,M,1.26,N,2.3,K,A*04
$GPGGA,223911.000,3748.5985,N,12217.8227,W,1,05,2.0,15.5,M,-25.1,M,,0000*58
$GPGSA,A,3,15,28,27,09,01,,,,,,,,3.2,2.0,2.5*35
$GPGSV,3,1,11,17,69,044,32,27,49,311,24,28,43,066,36,09,33,315,28*72
$GPGSV,3,2,11,15,29,262,20,04,29,156,30,26,26,214,,01,11,040,30*7C
$GPGSV,3,3,11,02,06,183,14,12,05,281,18,51,43,156,34*40
$GPRMC,223911.000,A,3748.5985,N,12217.8227,W,0.79,134.57,120712,,,A*7A
$GPVTG,134.57,T,,M,0.79,N,1.5,K,A*03
$GPGGA,223912.000,3748.5978,N,12217.8226,W,1,05,2.0,14.5,M,-25.1,M,,0000*59
$GPGSA,A,3,15,28,27,09,01,,,,,,,,3.2,2.0,2.5*35
$GPRMC,223912.000,A,3748.5978,N,12217.8226,W,0.34,136.90,120712,,,A*7A
$GPVTG,136.90,T,,M,0.34,N,0.6,K,A*01
$GPGGA,223913.000,3748.5983,N,12217.8224,W,1,05,2.0,15.3,M,-25.1,M,,0000*59
$GPGSA,A,3,15,28,27,09,01,,,,,,,,3.2,2.0,2.5*35
$GPRMC,223913.000,A,3748.5983,N,12217.8224,W,0.39,114.15,120712,,,A*7D
$GPVTG,114.15,T,,M,0.39,N,0.7,K,A*00
$GPGGA,223914.000,3748.5986,N,12217.8221,W,1,05,2.0,16.0,M,-25.1,M,,0000*5E
$GPGSA,A,3,15,28,27,09,01,,,,,,,,3.2,2.0,2.5*35
$GPRMC,223914.000,A,3748.5986,N,12217.8221,W,0.16,87.88,120712,,,A*48
$GPVTG,87.88,T,,M,0.16,N,0.3,K,A*36
$GPGGA,223915.000,3748.5987,N,12217.8222,W,1,05,2.0,15.5,M,-25.1,M,,0000*5B
$GPGSA,A,3,15,28,27,09,01,,,,,,,,3.2,2.0,2.5*35
$GPRMC,223915.000,A,3748.5987,N,12217.8222,W,0.11,345.48,120712,,,A*7D
$GPVTG,345.48,T,,M,0.11,N,0.2,K,A*01
$GPGGA,223916.000,3748.5991,N,12217.8222,W,1,05,2.0,15.9,M,-25.1,M,,0000*53
$GPGSA,A,3,15,28,27,09,01,,,,,,,,3.2,2.0,2.5*35
$GPGSV,3,1,11,17,69,044,32,27,49,311,27,28,43,066,37,09,33,315,35*7C
$GPGSV,3,2,11,15,29,262,20,04,29,156,30,26,26,214,,01,11,040,33*7F
$GPGSV,3,3,11,02,06,183,15,12,05,281,18,51,43,156,28*4C
$GPRMC,223916.000,A,3748.5991,N,12217.8222,W,0.81,6.71,120712,,,A*7E
$GPGGA,223917.000,3748.5994,N,12217.8222,W,1,05,2.0,16.1,M,-25.1,M,,0000*5C
$GPGSA,A,3,15,28,27,09,01,,,,,,,,3.2,2.0,2.5*35
$GPRMC,223917.000,A,3748.5994,N,12217.8222,W,0.63,33.80,120712,,,A*4E
$GPVTG,33.80,T,,M,0.63,N,1.2,K,A*33
$GPGGA,223918.000,3748.6000,N,12217.8220,W,1,05,2.0,17.1,M,-25.1,M,,0000*57
$GPGSA,A,3,15,28,27,09,01,,,,,,,,3.2,2.0,2.5*35
$GPRMC,223918.000,A,3748.6000,N,12217.8220,W,0.65,74.28,120712,,,A*43
$GPVTG,74.28,T,,M,0.65,N,1.2,K,A*34
$GPGGA,223919.000,3748.6007,N,12217.8216,W,1,05,2.0,17.1,M,-25.1,M,,0000*54
$GPGSA,A,3,15,28,27,09,01,,,,,,,,3.2,2.0,2.5*35
$GPRMC,223919.000,A,3748.6007,N,12217.8216,W,0.79,97.02,120712,,,A*48
$GPVTG,97.02,T,,M,0.79,N,1.5,K,A*3B
$GPGGA,223920.000,3748.6008,N,12217.8214,W,1,05,2.0,17.6,M,-25.1,M,,0000*54
$GPGSA,A,3,15,28,27,09,01,,,,,,,,3.2,2.0,2.5*35
$GPRMC,223920.000,A,3748.6008,N,12217.8214,W,0.53,56.77,120712,,,A*48
$GPVTG,56.77,T,,M,0.53,N,1.0,K,A*39
$GPGGA,223921.000,3748.6002,N,12217.8211,W,1,05,2.0,16.3,M,-25.1,M,,0000*5E
$GPGSA,A,3,15,28,27,09,01,,,,,,,,3.2,2.0,2.5*35
$GPGSV,3,1,11,17,68,044,32,27,49,311,24,28,43,066,37,09,33,315,30*7B
$GPGSV,3,2,11,04,29,155,32,15,29,262,21,26,26,214,,01,11,039,33*71
$GPGSV,3,3,11,02,06,183,19,12,06,281,17,51,43,156,33*46
$GPRMC,223921.000,A,3748.6002,N,12217.8211,W,1.14,80.46,120712,,,A*4D
$GPVTG,80.46,T,,M,1.14,N,2.1,K,A*30
$GPGGA,223922.000,3748.6009,N,12217.8208,W,1,05,2.0,15.8,M,-25.1,M,,0000*56
$GPGSA,A,3,15,28,27,09,01,,,,,,,,3.2,2.0,2.5*35
$GPRMC,223922.000,A,3748.6009,N,12217.8208,W,1.29,46.47,120712,,,A*48
$GPVTG,46.47,T,,M,1.29,N,2.4,K,A*30
$GPGGA,223923.000,3748.6001,N,12217.8205,W,1,05,2.0,13.6,M,-25.1,M,,0000*5A
$GPGSA,A,3,15,28,27,09,01,,,,,,,,3.2,2.0,2.5*35
$GPRMC,223923.000,A,3748.6001,N,12217.8205,W,0.84,88.86,120712,,,A*45
$GPVTG,88.86,T,,M,0.84,N,1.6,K,A*38
$GPGGA,223924.000,3748.5992,N,12217.8203,W,1,05,2.0,11.5,M,-25.1,M,,0000*5A
$GPGSA,A,3,15,28,27,09,01,,,,,,,,3.2,2.0,2.5*35
$GPRMC,223924.000,A,3748.5992,N,12217.8203,W,1.18,119.45,120712,,,A*76
$GPVTG,119.45,T,,M,1.18,N,2.2,K,A*0D
$GPGGA,223925.000,3748.5991,N,12217.8199,W,1,05,2.0,10.6,M,-25.1,M,,0000*5A
$GPGSA,A,3,15,28,27,09,01,,,,,,,,3.2,2.0,2.5*35
$GPRMC,223925.000,A,3748.5991,N,12217.8199,W,1.16,102.27,120712,,,A*74
$GPVTG,102.27,T,,M,1.16,N,2.1,K,A*0E
$GPGGA,223926.000,3748.5981,N,12217.8194,W,1,05,2.0,7.2,M,-25.1,M,,0000*67
$GPGSA,A,3,15,28,27,09,01,,,,,,,,3.2,2.0,2.5*35
$GPGSV,3,1,11,17,68,044,32,27,49,311,24,28,43,066,37,09,33,315,28*72
$GPGSV,3,2,11,04,29,155,31,15,29,262,21,26,26,214,,01,11,039,34*75
$GPGSV,3,3,11,02,06,183,20,12,06,281,17,51,43,156,33*4C
$GPRMC,223926.000,A,3748.5981,N,12217.8194,W,1.12,118.43,120712,,,A*76
$GPVTG,118.43,T,,M,1.12,N,2.1,K,A*03
$GPGGA,223927.000,3748.5978,N,12217.8188,W,1,05,2.0,5.1,M,-25.1,M,,0000*6C
$GPGSA,A,3,15,28,27,09,01,,,,,,,,3.2,2.0,2.5*35
$GPRMC,223927.000,A,3748.5978,N,12217.8188,W,1.00,99.00,120712,,,A*40
$GPVTG,99.00,T,,M,1.00,N,1.9,K,A*34
$GPGGA,223928.000,3748.5988,N,12217.8181,W,1,05,2.0,5.3,M,-25.1,M,,0000*67
$GPGSA,A,3,15,28,27,09,01,,,,,,,,3.2,2.0,2.5*35
$GPRMC,223928.000,A,3748.5988,N,12217.8181,W,1.42,66.37,120712,,,A*4B
$GPVTG,66.37,T,,M,1.42,N,2.6,K,A*3A
$GPGGA,223929.000,3748.5992,N,12217.8177,W,1,05,2.0,4.6,M,-25.1,M,,0000*60
$GPGSA,A,3,15,28,27,09,01,,,,,,,,3.2,2.0,2.5*35
$GPRMC,223929.000,A,3748.5992,N,12217.8177,W,0.73,58.38,120712,,,A*49
$GPVTG,58.38,T,,M,0.73,N,1.4,K,A*3A
$GPGGA,223930.000,3748.5999,N,12217.8171,W,1,05,2.0,4.1,M,-25.1,M,,0000*62
$GPGSA,A,3,15,28,27,09,01,,,,,,,,3.2,2.0,2.5*35
$GPRMC,223930.000,A,3748.5999,N,12217.8171,W,1.37,26.34,120712,,,A*48
$GPVTG,26.34,T,,M,1.37,N,2.5,K,A*3C
$GPGGA,223931.000,3748.6004,N,12217.8168,W,1,05,2.0,5.2,M,-25.1,M,,0000*67
$GPGSA,A,3,15,28,27,09,01,,,,,,,,3.2,2.0,2.5*35
$GPGSV,3,1,11,17,68,044,32,27,49,311,24,28,43,066,36,09,33,315,21*7A
$GPGSV,3,2,11,04,29,155,32,15,29,262,21,26,26,214,,01,11,039,25*76
$GPGSV,3,3,11,02,06,183,21,12,06,281,16,51,43,156,34*4B
$GPRMC,223931.000,A,3748.6004,N,12217.8168,W,1.51,18.70,120712,,,A*42
$GPVTG,18.70,T,,M,1.51,N,2.8,K,A*3C
$GPGGA,223932.000,3748.6004,N,12217.8163,W,1,05,2.0,5.5,M,-25.1,M,,0000*68
$GPGSA,A,3,15,28,27,09,01,,,,,,,,3.2,2.0,2.5*35
$GPRMC,223932.000,A,3748.6004,N,12217.8163,W,1.40,24.91,120712,,,A*4A
$GPVTG,24.91,T,,M,1.40,N,2.6,K,A*32
$GPGGA,223933.000,3748.6008,N,12217.8155,W,1,05,2.0,6.3,M,-25.1,M,,0000*65
$GPGSA,A,3,15,28,27,09,01,,,,,,,,3.2,2.0,2.5*35
$GPRMC,223933.000,A,3748.6008,N,12217.8155,W,1.02,71.59,120712,,,A*40
$GPVTG,71.59,T,,M,1.02,N,1.9,K,A*3C
$GPGGA,223934.000,3748.6011,N,12217.8150,W,1,05,2.0,7.6,M,-25.1,M,,0000*6B
$GPGSA,A,3,15,28,27,09,01,,,,,,,,3.2,2.0,2.5*35
$GPRMC,223934.000,A,3748.6011,N,12217.8150,W,1.48,61.38,120712,,,A*42
$GPVTG,61.38,T,,M,1.48,N,2.7,K,A*39
$GPGGA,223935.000,3748.6007,N,12217.8145,W,1,04,2.4,6.9,M,-25.1,M,,0000*62
$GPGSA,A,3,15,28,27,09,,,,,,,,,6.7,2.4,6.3*32
$GPRMC,223935.000,A,3748.6007,N,12217.8145,W,1.72,54.46,120712,,,A*46
$GPVTG,54.46,T,,M,1.72,N,3.2,K,A*3B
$GPGGA,223936.000,3748.6009,N,12217.8139,W,1,05,2.0,7.6,M,-25.1,M,,0000*6F
$GPGSA,A,3,15,28,27,09,01,,,,,,,,3.2,2.0,2.5*35
$GPGSV,3,1,11,17,68,044,31,27,49,311,24,28,43,066,36,09,33,315,21*79
$GPGSV,3,2,11,04,29,155,33,15,29,262,22,26,26,214,,01,11,039,14*76
$GPGSV,3,3,11,02,06,183,30,12,06,281,16,51,43,156,36*49
$GPRMC,223936.000,A,3748.6009,N,12217.8139,W,2.32,32.38,120712,,,A*4E
$GPVTG,32.38,T,,M,2.32,N,4.3,K,A*33
$GPGGA,223937.000,3748.6006,N,12217.8134,W,1,05,2.0,5.7,M,-25.1,M,,0000*6F
$GPGSA,A,3,15,28,27,09,01,,,,,,,,3.2,2.0,2.5*35
$GPRMC,223937.000,A,3748.6006,N,12217.8134,W,1.71,44.97,120712,,,A*4D
$GPVTG,44.97,T,,M,1.71,N,3.2,K,A*35
$GPGGA,223938.000,3748.6014,N,12217.8131,W,1,05,2.0,5.9,M,-25.1,M,,0000*68
$GPGSA,A,3,15,28,27,09,01,,,,,,,,3.2,2.0,2.5*35
$GPRMC,223938.000,A,3748.6014,N,12217.8131,W,2.10,30.23,120712,,,A*4C
$GPVTG,30.23,T,,M,2.10,N,3.9,K,A*36
$GPGGA,223939.000,3748.6016,N,12217.8126,W,1,05,2.0,6.3,M,-25.1,M,,0000*64
$GPGSA,A,3,15,28,27,09,01,,,,,,,,3.2,2.0,2.5*35
$GPRMC,223939.000,A,3748.6016,N,12217.8126,W,1.52,56.11,120712,,,A*4D
$GPVTG,56.11,T,,M,1.52,N,2.8,K,A*32
$GPGGA,223940.000,3748.6008,N,12217.8119,W,1,05,2.0,4.7,M,-25.1,M,,0000*6F
$GPGSA,A,3,15,28,27,09,01,,,,,,,,3.2,2.0,2.5*35
$GPRMC,223940.000,A,3748.6008,N,12217.8119,W,1.09,76.62,120712,,,A*48
$GPVTG,76.62,T,,M,1.09,N,2.0,K,A*32
$GPGGA,223941.000,3748.5997,N,12217.8113,W,1,05,2.0,2.8,M,-25.1,M,,0000*61
$GPGSA,A,3,15,28,27,09,01,,,,,,,,3.2,2.0,2.5*35
$GPGSV,3,1,11,17,68,044,31,27,49,311,23,28,43,066,36,09,33,315,27*78
$GPGSV,3,2,11,04,29,155,32,15,29,262,22,26,26,214,24,01,11,039,28*7E
$GPRMC,223941.000,A,3748.5997,N,12217.8113,W,0.99,71.50,120712,,,A*41
$GPVTG,71.50,T,,M,0.99,N,1.8,K,A*37
$GPGGA,223942.000,3748.5986,N,12217.8109,W,1,05,2.0,1.2,M,-25.1,M,,0000*60
$GPGSA,A,3,15,28,27,09,01,,,,,,,,3.2,2.0,2.5*35
$GPRMC,223942.000,A,3748.5986,N,12217.8109,W,0.92,106.79,120712,,,A*78
$GPVTG,106.79,T,,M,0.92,N,1.7,K,A*09
$GPGGA,223943.000,3748.5979,N,12217.8105,W,1,05,2.0,0.1,M,-25.1,M,,0000*6F
$GPGSA,A,3,15,28,27,09,01,,,,,,,,3.2,2.0,2.5*35
$GPRMC,223943.000,A,3748.5979,N,12217.8105,W,1.24,115.59,120712,,,A*79
$GPVTG,115.59,T,,M,1.24,N,2.3,K,A*02
$GPGGA,223944.000,3748.5971,N,12217.8101,W,1,05,2.0,-1.1,M,-25.1,M,,0000*48
$GPGSA,A,3,15,28,27,09,01,,,,,,,,3.2,2.0,2.5*35
$GPRMC,223944.000,A,3748.5971,N,12217.8101,W,1.11,110.90,120712,,,A*74
$GPVTG,110.90,T,,M,1.11,N,2.0,K,A*07
$GPGGA,223945.000,3748.5969,N,12217.8095,W,1,05,2.0,-1.9,M,-25.1,M,,0000*44
$GPGSA,A,3,15,28,27,09,01,,,,,,,,3.2,2.0,2.5*35
$GPRMC,223945.000,A,3748.5969,N,12217.8095,W,1.16,132.03,120712,,,A*7D
$GPVTG,132.03,T,,M,1.16,N,2.1,K,A*0B
$GPGGA,223946.000,3748.5971,N,12217.8091,W,1,05,2.0,-1.6,M,-25.1,M,,0000*45
$GPGSA,A,3,15,28,27,09,01,,,,,,,,3.2,2.0,2.5*35
$GPGSV,3,1,11,17,68,044,31,27,49,311,26,28,43,066,36,09,33,315,31*7A
$GPGSV,3,2,11,04,29,155,31,15,29,262,23,26,26,214,24,01,11,039,19*7E
$GPGSV,3,3,11,02,06,183,20,12,06,281,16,51,43,156,29*46
$GPRMC,223946.000,A,3748.5971,N,12217.8091,W,1.31,146.93,120712,,,A*7C
$GPVTG,146.93,T,,M,1.31,N,2.4,K,A*01
$GPGGA,223947.000,3748.5978,N,12217.8085,W,1,05,2.0,-1.2,M,-25.1,M,,0000*4C
$GPGSA,A,3,15,28,27,09,01,,,,,,,,3.2,2.0,2.5*35
$GPRMC,223947.000,A,3748.5978,N,12217.8085,W,1.20,112.03,120712,,,A*79
$GPVTG,112.03,T,,M,1.20,N,2.2,K,A*0F
$GPGGA,223948.000,3748.5986,N,12217.8082,W,1,05,2.0,-0.1,M,-25.1,M,,0000*47
$GPGSA,A,3,15,28,27,09,01,,,,,,,,3.2,2.0,2.5*35
$GPRMC,223948.000,A,3748.5986,N,12217.8082,W,0.64,128.58,120712,,,A*76
$GPVTG,128.58,T,,M,0.64,N,1.2,K,A*0A
$GPGGA,223949.000,3748.5989,N,12217.8077,W,1,05,2.0,-1.0,M,-25.1,M,,0000*43
$GPGSA,A,3,15,28,27,09,01,,,,,,,,3.2,2.0,2.5*35
$GPRMC,223949.000,A,3748.5989,N,12217.8077,W,1.13,143.36,120712,,,A*76
$GPVTG,143.36,T,,M,1.13,N,2.1,K,A*0E
$GPGGA,223950.000,3748.5991,N,12217.8075,W,1,05,2.0,-0.6,M,-25.1,M,,0000*47
$GPGSA,A,3,15,28,27,09,01,,,,,,,,3.2,2.0,2.5*35
$GPRMC,223950.000,A,3748.5991,N,12217.8075,W,0.96,71.50,120712,,,A*49
$GPVTG,71.50,T,,M,0.96,N,1.8,K,A*38
$GPGGA,223951.000,3748.5992,N,12217.8071,W,1,05,2.0,-0.6,M,-25.1,M,,0000*41
$GPGSA,A,3,15,28,27,09,01,,,,,,,,3.2,2.0,2.5*35
$GPGSV,3,1,11,17,68,044,31,27,49,311,26,28,43,066,36,09,33,315,32*79
$GPGSV,3,2,11,04,29,155,30,15,29,262,24,26,26,214,24,01,11,039,26*74
$GPGSV,3,3,11,02,06,183,20,12,06,281,16,51,43,156,31*4F
$GPRMC,223951.000,A,3748.5992,N,12217.8071,W,1.42,64.49,120712,,,A*4B
$GPVTG,64.49,T,,M,1.42,N,2.6,K,A*31
$GPGGA,223952.000,3748.5997,N,12217.8069,W,1,05,2.0,1.8,M,-25.1,M,,0000*6C
$GPGSA,A,3,15,28,27,09,01,,,,,,,,3.2,2.0,2.5*35
$GPRMC,223952.000,A,3748.5997,N,12217.8069,W,0.95,80.48,120712,,,A*44
$GPVTG,80.48,T,,M,0.95,N,1.8,K,A*3C
$GPGGA,223953.000,3748.5999,N,12217.8067,W,1,05,1.9,4.3,M,-25.1,M,,0000*69
$GPGSA,A,3,15,28,27,09,01,,,,,,,,3.2,1.9,2.5*3F
$GPRMC,223953.000,A,3748.5999,N,12217.8067,W,1.57,39.93,120712,,,A*4E
$GPVTG,39.93,T,,M,1.57,N,2.9,K,A*35
$GPGGA,223954.000,3748.6003,N,12217.8063,W,1,05,1.9,4.7,M,-25.1,M,,0000*67
$GPGSA,A,3,15,28,27,09,01,,,,,,,,3.2,1.9,2.5*3F
$GPRMC,223954.000,A,3748.6003,N,12217.8063,W,1.02,68.39,120712,,,A*40
$GPVTG,68.39,T,,M,1.02,N,1.9,K,A*32
$GPGGA,223955.000,3748.6005,N,12217.8057,W,1,05,1.9,3.3,M,-25.1,M,,0000*64
$GPGSA,A,3,15,28,27,09,01,,,,,,,,3.2,1.9,2.5*3F
$GPRMC,223955.000,A,3748.6005,N,12217.8057,W,1.20,62.93,120712,,,A*4A
$GPVTG,62.93,T,,M,1.20,N,2.2,K,A*30
$GPGGA,223956.000,3748.6012,N,12217.8052,W,1,05,1.9,3.2,M,-25.1,M,,0000*65
$GPGSA,A,3,15,28,27,09,01,,,,,,,,3.2,1.9,2.5*3F
$GPGSV,3,1,11,17,68,044,31,27,49,311,24,28,43,066,36,09,33,315,30*79
$GPGSV,3,2,11,04,29,155,31,15,29,262,25,26,26,214,26,01,11,039,24*74
$GPGSV,3,3,11,02,06,183,19,12,06,281,15,51,43,156,39*4E
$GPVTG,38.43,T,,M,1.30,N,2.4,K,A*35
$GPGGA,223957.000,3748.6010,N,12217.8047,W,1,05,1.9,2.3,M,-25.1,M,,0000*62
$GPGSA,A,3,15,28,27,09,01,,,,,,,,3.2,1.9,2.5*3F
$GPRMC,223957.000,A,3748.6010,N,12217.8047,W,1.19,51.41,120712,,,A*48
$GPVTG,51.41,T,,M,1.19,N,2.2,K,A*35
$GPGGA,223958.000,3748.6016,N,12217.8044,W,1,05,1.9,1.8,M,-25.1,M,,0000*60
$GPGSA,A,3,15,28,27,09,01,,,,,,,,3.2,1.9,2.5*3F
$GPRMC,223958.000,A,3748.6016,N,12217.8044,W,1.93,23.54,120712,,,A*41
$GPVTG,23.54,T,,M,1.93,N,3.6,K,A*33
$GPGGA,223959.000,3748.6029,N,12217.8038,W,1,05,1.9,2.3,M,-25.1,M,,0000*6E
$GPGSA,A,3,15,28,27,09,01,,,,,,,,3.2,1.9,2.5*3F
$GPRMC,223959.000,A,3748.6029,N,12217.8038,W,2.22,34.23,120712,,,A*48
$GPVTG,34.23,T,,M,2.22,N,4.1,K,A*3C
$GPGGA,224000.000,3748.6039,N,12217.8030,W,1,05,1.9,1.2,M,-25.1,M,,0000*67
$GPGSA,A,3,15,28,27,09,01,,,,,,,,3.2,1.9,2.5*3F
$GPRMC,224000.000,A,3748.6039,N,12217.8030,W,2.32,27.88,120712,,,A*41
$GPVTG,27.88,T,,M,2.32,N,4.3,K,A*3C
$GPGGA,224001.000,3748.6047,N,12217.8026,W,1,05,1.9,2.2,M,-25.1,M,,0000*6B
$GPGSA,A,3,15,28,27,09,01,,,,,,,,3.2,1.9,2.5*3F
$GPGSV,3,1,11,17,68,044,31,27,49,311,26,28,43,066,36,09,33,315,29*73
$GPGSV,3,2,11,04,29,155,28,15,29,262,25,26,26,214,26,01,11,039,29*71
$GPGSV,3,3,11,02,06,183,18,12,06,281,17,51,43,156,36*42
$GPRMC,224001.000,A,3748.6047,N,12217.8026,W,1.85,23.82,120712,,,A*4F
$GPVTG,23.82,T,,M,1.85,N,3.4,K,A*3D
$GPGGA,224002.000,3748.6054,N,12217.8020,W,1,05,1.9,2.8,M,-25.1,M,,0000*66
$GPGSA,A,3,15,28,27,09,01,,,,,,,,3.2,1.9,2.5*3F
$GPRMC,224002.000,A,3748.6054,N,12217.8020,W,1.72,36.83,120712,,,A*45
$GPVTG,36.83,T,,M,1.72,N,3.2,K,A*36
$GPGGA,224003.000,3748.6056,N,12217.8014,W,1,05,1.9,2.9,M,-25.1,M,,0000*63
$GPGSA,A,3,15,28,27,09,01,,,,,,,,3.2,1.9,2.5*3F
$GPRMC,224003.000,A,3748.6056,N,12217.8014,W,1.25,46.23,120712,,,A*4E
$GPVTG,46.23,T,,M,1.25,N,2.3,K,A*39
$GPGGA,224004.000,3748.6057,N,12217.8008,W,1,05,1.9,2.1,M,-25.1,M,,0000*60
$GPGSA,A,3,15,28,27,09,01,,,,,,,,3.2,1.9,2.5*3F
$GPRMC,224004.000,A,3748.6057,N,12217.8008,W,0.92,51.43,120712,,,A*48
$GPVTG,51.43,T,,M,0.92,N,1.7,K,A*33
$GPGGA,224005.000,3748.6060,N,12217.8003,W,1,05,1.9,2.2,M,-25.1,M,,0000*6D
$GPGSA,A,3,15,28,27,09,01,,,,,,,,3.2,1.9,2.5*3F
$GPRMC,224005.000,A,3748.6060,N,12217.8003,W,1.42,54.42,120712,,,A*4E
$GPVTG,54.42,T,,M,1.42,N,2.6,K,A*39
$GPGGA,224006.000,3748.6061,N,12217.7997,W,1,05,1.9,2.2,M,-25.1,M,,0000*64
$GPGSA,A,3,15,28,27,09,01,,,,,,,,3.2,1.9,2.5*3F
$GPGSV,3,1,11,17,68,044,31,27,49,311,26,28,43,066,36,09,33,315,29*73
$GPGSV,3,2,11,04,29,155,24,15,29,262,25,26,26,214,27,01,11,039,38*7C
$GPGSV,3,3,11,02,06,183,18,12,06,281,22,51,43,156,33*41
$GPRMC,224006.000,A,3748.6061,N,12217.7997,W,1.16,51.98,120712,,,A*44
$GPVTG,51.98,T,,M,1.16,N,2.1,K,A*3D
$GPGGA,224007.000,3748.6069,N,12217.7991,W,1,05,1.9,3.6,M,-25.1,M,,0000*6E
$GPGSA,A,3,15,28,27,09,01,,,,,,,,3.2,1.9,2.5*3F
$GPRMC,224007.000,A,3748.6069,N,12217.7991,W,1.93,44.35,120712,,,A*45
$GPVTG,44.35,T,,M,1.93,N,3.6,K,A*35
$GPGGA,224008.000,3748.6072,N,12217.7986,W,1,05,1.9,3.7,M,-25.1,M,,0000*6C
$GPGSA,A,3,15,28,27,09,01,,,,,,,,3.2,1.9,2.5*3F
$GPRMC,224008.000,A,3748.6072,N,12217.7986,W,1.75,45.81,120712,,,A*40
$GPVTG,45.81,T,,M,1.75,N,3.2,K,A*37
$GPGGA,224009.000,3748.6070,N,12217.7983,W,1,05,1.9,2.4,M,-25.1,M,,0000*68
$GPGSA,A,3,15,28,27,09,01,,,,,,,,3.2,1.9,2.5*3F
$GPRMC,224009.000,A,3748.6070,N,12217.7983,W,1.34,47.50,120712,,,A*4D
$GPVTG,47.50,T,,M,1.34,N,2.5,K,A*3A
$GPGGA,224010.000,3748.6081,N,12217.7979,W,1,05,1.9,3.0,M,-25.1,M,,0000*6E
$GPGSA,A,3,15,28,27,09,01,,,,,,,,3.2,1.9,2.5*3F
$GPRMC,224010.000,A,3748.6081,N,12217.7979,W,1.56,46.02,120712,,,A*4C
$GPVTG,46.02,T,,M,1.56,N,2.9,K,A*34
$GPGGA,224011.000,3748.6093,N,12217.7978,W,1,05,1.9,4.2,M,-25.1,M,,0000*68
$GPGSA,A,3,15,28,27,09,01,,,,,,,,3.2,1.9,2.5*3F
$GPGSV,3,1,11,17,68,044,32,27,49,311,26,28,43,066,36,09,33,315,27*7E
$GPGSV,3,2,11,04,29,155,20,15,29,262,25,26,26,214,24,01,11,039,36*75
$GPGSV,3,3,11,02,06,183,18,12,06,281,16,51,43,156,30*45
$GPRMC,224011.000,A,3748.6093,N,12217.7978,W,1.68,31.63,120712,,,A*45
$GPGGA,224012.000,3748.6101,N,12217.7977,W,1,05,1.9,4.9,M,-25.1,M,,0000*65
$GPGSA,A,3,15,28,27,09,01,,,,,,,,3.2,1.9,2.5*3F
$GPRMC,224012.000,A,3748.6101,N,12217.7977,W,1.50,25.25,120712,,,A*4F
$GPVTG,25.25,T,,M,1.50,N,2.8,K,A*33
$GPGGA,224013.000,3748.6106,N,12217.7976,W,1,05,1.9,5.1,M,-25.1,M,,0000*6B
$GPGSA,A,3,15,28,27,09,01,,,,,,,,3.2,1.9,2.5*3F
$GPRMC,224013.000,A,3748.6106,N,12217.7976,W,1.16,43.26,120712,,,A*49
$GPVTG,43.26,T,,M,1.16,N,2.1,K,A*3B
$GPGGA,224014.000,3748.6108,N,12217.7972,W,1,05,1.9,4.1,M,-25.1,M,,0000*67
$GPGSA,A,3,15,28,27,09,01,,,,,,,,3.2,1.9,2.5*3F
$GPRMC,224014.000,A,3748.6108,N,12217.7972,W,1.91,40.39,120712,,,A*46
$GPVTG,40.39,T,,M,1.91,N,3.5,K,A*3C
$GPGGA,224015.000,3748.6112,N,12217.7969,W,1,05,1.9,3.8,M,-25.1,M,,0000*69
$GPGSA,A,3,15,28,27,09,01,,,,,,,,3.2,1.9,2.5*3F
$GPRMC,224015.000,A,3748.6112,N,12217.7969,W,1.54,32.79,120712,,,A*4E
$GPVTG,32.79,T,,M,1.54,N,2.9,K,A*39
$GPGGA,224016.000,3748.6114,N,12217.7967,W,1,05,1.9,3.7,M,-25.1,M,,0000*6D
$GPGSA,A,3,15,28,27,09,01,,,,,,,,3.2,1.9,2.5*3F
$GPGSV,3,1,11,17,68,044,26,27,49,311,27,28,43,066,30,09,33,315,30*7A
$GPGSV,3,2,11,04,29,155,21,15,29,262,25,26,26,214,23,01,11,039,35*70
$GPGSV,3,3,11,02,06,183,17,12,06,281,15,51,43,156,26*4E
$GPRMC,224016.000,A,3748.6114,N,12217.7967,W,1.28,38.33,120712,,,A*4A
$GPVTG,38.33,T,,M,1.28,N,2.4,K,A*3B
$GPGGA,224017.000,3748.6113,N,12217.7965,W,1,05,1.9,3.0,M,-25.1,M,,0000*6E
$GPGSA,A,3,15,28,27,09,01,,,,,,,,3.2,1.9,2.5*3F
$GPRMC,224017.000,A,3748.6113,N,12217.7965,W,1.05,67.98,120712,,,A*4A
$GPVTG,67.98,T,,M,1.05,N,1.9,K,A*31
$GPGGA,224018.000,3748.6124,N,12217.7958,W,1,05,1.9,4.5,M,-25.1,M,,0000*69
$GPGSA,A,3,15,28,27,09,01,,,,,,,,3.2,1.9,2.5*3F
$GPRMC,224018.000,A,3748.6124,N,12217.7958,W,1.36,69.70,120712,,,A*47
$GPVTG,69.70,T,,M,1.36,N,2.5,K,A*36
$GPGGA,224019.000,3748.6123,N,12217.7955,W,1,05,1.9,4.0,M,-25.1,M,,0000*67
$GPGSA,A,3,15,28,27,09,01,,,,,,,,3.2,1.9,2.5*3F
$GPRMC,224019.000,A,3748.6123,N,12217.7955,W,1.20,47.12,120712,,,A*43
$GPVTG,47.12,T,,M,1.20,N,2.2,K,A*3E
$GPGGA,224020.000,3748.6138,N,12217.7952,W,1,05,1.9,5.4,M,-25.1,M,,0000*65
$GPGSA,A,3,15,28,27,09,01,,,,,,,,3.2,1.9,2.5*3F
$GPRMC,224020.000,A,3748.6138,N,12217.7952,W,2.21,19.92,120712,,,A*45
$GPVTG,19.92,T,,M,2.21,N,4.1,K,A*3A
$GPGGA,224021.000,3748.6147,N,12217.7949,W,1,05,1.9,6.0,M,-25.1,M,,0000*61
$GPGSA,A,3,15,28,27,09,01,,,,,,,,3.2,1.9,2.5*3F
$GPGSV,3,1,10,17,68,044,26,27,49,311,21,28,43,066,37,09,34,315,27*7B
$GPGSV,3,2,10,04,29,155,22,15,28,261,23,26,25,214,23,01,11,039,35*75
$GPGSV,3,3,10,02,07,183,17,12,06,281,20*7D
$GPRMC,224021.000,A,3748.6147,N,12217.7949,W,2.07,8.29,120712,,,A*72
$GPVTG,8.29,T,,M,2.07,N,3.8,K,A*00
$GPGGA,224022.000,3748.6154,N,12217.7944,W,1,06,1.9,5.8,M,-25.1,M,,0000*65
$GPGSA,A,3,15,28,17,27,09,01,,,,,,,2.7,1.9,1.9*32
$GPRMC,224022.000,A,3748.6154,N,12217.7944,W,1.46,20.54,120712,,,A*48
$GPVTG,20.54,T,,M,1.46,N,2.7,K,A*38
$GPGGA,224023.000,3748.6161,N,12217.7939,W,1,06,1.9,5.9,M,-25.1,M,,0000*69
$GPGSA,A,3,15,28,17,27,09,01,,,,,,,2.7,1.9,1.9*32
$GPRMC,224023.000,A,3748.6161,N,12217.7939,W,2.30,30.10,120712,,,A*46
$GPVTG,30.10,T,,M,2.30,N,4.3,K,A*39
$GPGGA,224024.000,3748.6171,N,12217.7933,W,1,06,1.9,6.4,M,-25.1,M,,0000*6B
$GPGSA,A,3,15,28,17,27,09,01,,,,,,,2.7,1.9,1.9*32
$GPRMC,224024.000,A,3748.6171,N,12217.7933,W,2.02,31.38,120712,,,A*40
$GPVTG,31.38,T,,M,2.02,N,3.7,K,A*30
$GPGGA,224025.000,3748.6181,N,12217.7928,W,1,06,1.9,7.2,M,-25.1,M,,0000*68
$GPGSA,A,3,15,28,17,27,09,01,,,,,,,2.7,1.9,1.9*32
$GPRMC,224025.000,A,3748.6181,N,12217.7928,W,2.01,28.71,120712,,,A*42
$GPVTG,28.71,T,,M,2.01,N,3.7,K,A*36
$GPGGA,224026.000,3748.6195,N,12217.7922,W,1,06,1.9,8.6,M,-25.1,M,,0000*6F
$GPGSA,A,3,15,28,17,27,09,01,,,,,,,2.7,1.9,1.9*32
$GPGSV,3,1,10,17,69,043,33,27,49,311,27,28,43,066,37,09,34,315,30*79
$GPGSV,3,2,10,04,29,155,18,15,28,261,24,26,25,214,22,01,11,039,37*78
