$ADVER,3080,2.3
$GPRMC,223252.487,A,3748.5559,N,12217.8495,W,0.55,357.17,120712,,,A*72
$GPGGA,223253.487,3748.5558,N,12217.8495,W,1,03,7.5,25.1,M,-25.1,M,,0000*5C
$GPGSA,A,2,08,26,04,,,,,,,,,,7.6,7.5,1.0*39
$GPGSV,3,1,11,26,28,216,36,04,26,158,39,08,23,135,37,17,72,046,*78
$GPGSV,3,2,11,27,46,313,,28,45,063,,09,30,315,,15,30,265,30*78
$GPGSV,3,3,11,01,13,041,,02,04,184,28,12,03,278,*43
$GPRMC,223253.487,A,3748.5558,N,12217.8495,W,1.62,353.47,120712,,,A*76
$GPVTG,353.47,T,,M,1.62,N,3.0,K,N*02
$GPGGA,223254.487,3748.5556,N,12217.8495,W,1,03,7.5,25.1,M,-25.1,M,,0000*55
$GPGSA,A,2,08,26,04,,,,,,,,,,7.6,7.5,1.0*39
$GPRMC,223254.487,A,3748.5556,N,12217.8495,W,1.05,349.90,120712,,,A*7F
$GPVTG,349.90,T,,M,1.05,N,1.9,K,N*09
$GPGGA,223255.487,3748.5552,N,12217.8494,W,1,03,7.5,25.1,M,-25.1,M,,0000*51
$GPGSA,A,2,08,26,04,,,,,,,,,,7.6,7.5,1.0*39
$GPRMC,223255.487,A,3748.5552,N,12217.8494,W,0.65,15.82,120712,,,A*45
$GPVTG,15.82,T,,M,0.65,N,1.2,K,N*3C
$GPGGA,223256.487,3748.5553,N,12217.8494,W,1,03,7.5,25.1,M,-25.1,M,,0000*53
$GPGSA,A,2,08,26,04,,,,,,,,,,7.6,7.5,1.0*39
$GPRMC,223256.487,A,3748.5553,N,12217.8494,W,0.72,355.66,120712,,,A*7C
$GPVTG,355.66,T,,M,0.72,N,1.3,K,N*06
$GPGGA,223257.487,3748.5554,N,12217.8494,W,1,03,7.5,25.1,M,-25.1,M,,0000*55
$GPGSA,A,2,08,26,04,,,,,,,,,,7.6,7.5,1.0*39
$GPRMC,223257.487,A,3748.5554,N,12217.8494,W,1.33,2.08,120712,,,A*77
$GPVTG,2.08,T,,M,1.33,N,2.5,K,N*0E
$GPGGA,223258.487,3748.5593,N,12217.8491,W,1,04,2.6,32.4,M,-25.1,M,,0000*56
$GPGSA,A,3,15,08,26,04,,,,,,,,,2.8,2.6,1.0*31
$GPGSV,3,1,12,26,28,216,36,04,26,158,39,08,23,135,37,17,72,046,*7B
$GPGSV,3,2,12,27,46,313,,28,45,063,26,09,30,315,,15,30,265,31*7E
$GPGSV,3,3,12,01,13,041,,02,04,184,29,12,03,278,,48,00,000,31*7F
$GPRMC,223258.487,A,3748.5593,N,12217.8491,W,0.07,345.71,120712,,,A*7E
$GPGGA,223259.487,3748.5595,N,12217.8490,W,1,04,2.6,31.7,M,-25.1,M,,0000*50
$GPGSA,A,3,15,08,26,04,,,,,,,,,2.8,2.6,1.0*31
$GPRMC,223259.487,A,3748.5595,N,12217.8490,W,0.22,357.87,120712,,,A*75
$GPVTG,357.87,T,,M,0.22,N,0.4,K,A*07
$GPGGA,223300.487,3748.5596,N,12217.8490,W,1,04,2.6,31.4,M,-25.1,M,,0000*5D
$GPGSA,A,3,15,08,26,04,,,,,,,,,2.8,2.6,1.0*31
$GPRMC,223300.487,A,3748.5596,N,12217.8490,W,0.25,1.49,120712,,,A*7E
$GPVTG,1.49,T,,M,0.25,N,0.5,K,A*03
$GPGGA,223301.000,3748.5596,N,12217.8490,W,1,04,2.6,30.5,M,-25.1,M,,0000*57
$GPGSA,A,3,15,08,26,04,,,,,,,,,2.8,2.6,1.0*31
$GPRMC,223301.000,A,3748.5596,N,12217.8490,W,0.25,358.82,120712,,,A*7C
$GPVTG,358.82,T,,M,0.25,N,0.5,K,A*0B
$GPGGA,223302.000,3748.5596,N,12217.8490,W,1,04,2.6,30.7,M,-25.1,M,,0000*56
$GPGSA,A,3,15,08,26,04,,,,,,,,,2.8,2.6,1.0*31
$GPRMC,223302.000,A,3748.5596,N,12217.8490,W,0.23,10.68,120712,,,A*42
$GPVTG,10.68,T,,M,0.23,N,0.4,K,A*37
$GPGGA,223303.000,3748.5597,N,12217.8490,W,1,04,2.6,30.9,M,-25.1,M,,0000*58
$GPGSA,A,3,15,08,26,04,,,,,,,,,2.8,2.6,1.0*31
$GPGSV,3,1,12,15,30,265,32,26,28,216,35,04,26,158,40,08,23,135,38*7F
$GPGSV,3,2,12,17,72,046,,27,46,313,,28,45,063,21,09,30,315,*7C
$GPGSV,3,3,12,01,13,041,,02,04,184,29,12,03,278,,48,44,197,32*73
$GPRMC,223303.000,A,3748.5597,N,12217.8490,W,0.31,10.08,120712,,,A*47
$GPVTG,10.08,T,,M,0.31,N,0.6,K,A*30
$GPGGA,223304.000,3748.5598,N,12217.8489,W,1,04,2.6,31.0,M,-25.1,M,,0000*50
$GPGSA,A,3,15,08,26,04,,,,,,,,,2.8,2.6,1.0*31
$GPRMC,223304.000,A,3748.5598,N,12217.8489,W,0.40,9.78,120712,,,A*7E
$GPVTG,9.78,T,,M,0.40,N,0.7,K,A*08
$GPGGA,223305.000,3748.5595,N,12217.8489,W,1,04,2.6,30.8,M,-25.1,M,,0000*55
$GPGSA,A,3,15,08,26,04,,,,,,,,,2.8,2.6,1.0*31
$GPRMC,223305.000,A,3748.5595,N,12217.8489,W,0.39,353.70,120712,,,A*78
$GPVTG,353.70,T,,M,0.39,N,0.7,K,A*02
$GPGGA,223306.000,3748.5594,N,12217.8489,W,1,04,2.6,30.7,M,-25.1,M,,0000*58
$GPGSA,A,3,15,08,26,04,,,,,,,,,2.8,2.6,1.0*31
$GPRMC,223306.000,A,3748.5594,N,12217.8489,W,0.44,359.92,120712,,,A*76
$GPVTG,359.92,T,,M,0.44,N,0.8,K,A*01
$GPGGA,223307.000,3748.5597,N,12217.8489,W,1,04,2.6,31.1,M,-25.1,M,,0000*5D
$GPGSA,A,3,15,08,26,04,,,,,,,,,2.8,2.6,1.0*31
$GPRMC,223307.000,A,3748.5597,N,12217.8489,W,0.46,8.88,120712,,,A*7A
$GPVTG,8.88,T,,M,0.46,N,0.8,K,A*0F
$GPGGA,223308.000,3748.5616,N,12217.8478,W,1,04,2.6,34.9,M,-25.1,M,,0000*5B
$GPGSA,A,3,15,08,26,04,,,,,,,,,2.8,2.6,1.0*31
$GPGSV,3,1,12,15,30,265,30,26,28,216,25,04,26,158,36,08,23,135,37*72
$GPGSV,3,2,12,17,72,046,,27,46,313,,28,45,063,28,09,30,315,*75
$GPGSV,3,3,12,01,13,041,19,02,04,184,29,12,03,278,23,48,44,197,31*79
$GPRMC,223308.000,A,3748.5616,N,12217.8478,W,0.86,14.00,120712,,,A*40
$GPVTG,14.00,T,,M,0.86,N,1.6,K,A*31
$GPGGA,223309.000,3748.5621,N,12217.8477,W,1,04,2.6,35.6,M,-25.1,M,,0000*5F
$GPGSA,A,3,15,08,26,04,,,,,,,,,2.8,2.6,1.0*31
$GPRMC,223309.000,A,3748.5621,N,12217.8477,W,0.63,22.52,120712,,,A*43
$GPVTG,22.52,T,,M,0.63,N,1.2,K,A*3C
$GPGGA,223310.000,3748.5625,N,12217.8476,W,1,04,2.6,36.3,M,-25.1,M,,0000*54
$GPGSA,A,3,15,08,26,04,,,,,,,,,2.8,2.6,1.0*31
$GPRMC,223310.000,A,3748.5625,N,12217.8476,W,0.49,17.11,120712,,,A*47
$GPVTG,17.11,T,,M,0.49,N,0.9,K,A*3F
$GPGGA,223311.000,3748.5627,N,12217.8476,W,1,04,2.6,36.7,M,-25.1,M,,0000*53
$GPGSA,A,3,15,08,26,04,,,,,,,,,2.8,2.6,1.0*31
$GPRMC,223311.000,A,3748.5627,N,12217.8476,W,0.32,11.67,120712,,,A*4F
$GPVTG,11.67,T,,M,0.32,N,0.6,K,A*3B
$GPGGA,223312.000,3748.5616,N,12217.8476,W,1,04,2.6,35.9,M,-25.1,M,,0000*5F
$GPGSA,A,3,15,08,26,04,,,,,,,,,2.8,2.6,1.0*31
$GPRMC,223312.000,A,3748.5616,N,12217.8476,W,0.22,132.08,120712,,,A*76
$GPVTG,132.08,T,,M,0.22,N,0.4,K,A*01
$GPGGA,223313.000,3748.5610,N,12217.8477,W,1,04,2.6,35.3,M,-25.1,M,,0000*53
$GPGSA,A,3,15,08,26,04,,,,,,,,,2.8,2.6,1.0*31
$GPGSV,3,1,12,17,72,046,,27,46,313,,28,45,063,29,09,31,315,*76
$GPGSV,3,2,12,15,30,265,28,26,28,216,33,04,26,157,38,08,23,135,37*7E
$GPGSV,3,3,12,01,13,041,19,02,04,184,29,12,03,279,23,48,44,197,31*78
$GPRMC,223313.000,A,3748.5610,N,12217.8477,W,0.16,186.36,120712,,,A*75
$GPVTG,186.36,T,,M,0.16,N,0.3,K,A*03
$GPGGA,223314.000,3748.5605,N,12217.8478,W,1,04,2.6,34.9,M,-25.1,M,,0000*54
$GPGSA,A,3,15,08,26,04,,,,,,,,,2.8,2.6,1.0*31
$GPRMC,223314.000,A,3748.5605,N,12217.8478,W,0.06,239.35,120712,,,A*7C
$GPVTG,239.35,T,,M,0.06,N,0.1,K,A*04
$GPGGA,223315.000,3748.5602,N,12217.8479,W,1,04,2.6,34.6,M,-25.1,M,,0000*5C
$GPGSA,A,3,15,08,26,04,,,,,,,,,2.8,2.6,1.0*31
$GPRMC,223315.000,A,3748.5602,N,12217.8479,W,0.04,349.65,120712,,,A*7A
$GPVTG,349.65,T,,M,0.04,N,0.1,K,A*05
$GPGGA,223316.000,3748.5599,N,12217.8480,W,1,04,2.6,34.3,M,-25.1,M,,0000*5D
$GPGSA,A,3,15,08,26,04,,,,,,,,,2.8,2.6,1.0*31
$GPRMC,223316.000,A,3748.5599,N,12217.8480,W,0.07,345.97,120712,,,A*7C
$GPVTG,345.97,T,,M,0.07,N,0.1,K,A*07
$GPGGA,223317.000,3748.5596,N,12217.8481,W,1,04,2.6,34.0,M,-25.1,M,,0000*51
$GPGSA,A,3,15,08,26,04,,,,,,,,,2.8,2.6,1.0*31
$GPRMC,223317.000,A,3748.5596,N,12217.8481,W,0.07,352.79,120712,,,A*75
$GPVTG,352.79,T,,M,0.07,N,0.1,K,A*01
$GPGGA,223318.000,3748.5594,N,12217.8481,W,1,04,2.6,33.8,M,-25.1,M,,0000*53
$GPGSA,A,3,15,08,26,04,,,,,,,,,2.8,2.6,1.0*31
$GPGSV,3,1,12,17,72,046,,27,46,313,,28,45,063,30,09,31,315,*7E
$GPGSV,3,2,12,15,30,265,30,26,28,216,32,04,26,157,38,08,23,135,37*76
$GPGSV,3,3,12,01,13,041,20,02,04,184,29,12,03,279,24,48,44,197,31*75
$GPRMC,223318.000,A,3748.5594,N,12217.8481,W,0.08,357.57,120712,,,A*7E
$GPVTG,357.57,T,,M,0.08,N,0.2,K,A*04
$GPGGA,223319.000,3748.5593,N,12217.8482,W,1,04,2.6,33.6,M,-25.1,M,,0000*58
$GPGSA,A,3,15,08,26,04,,,,,,,,,2.8,2.6,1.0*31
$GPRMC,223319.000,A,3748.5593,N,12217.8482,W,0.10,1.96,120712,,,A*7F
$GPVTG,1.96,T,,M,0.10,N,0.2,K,A*00
$GPGGA,223320.000,3748.5591,N,12217.8482,W,1,04,2.6,33.5,M,-25.1,M,,0000*53
$GPGSA,A,3,15,08,26,04,,,,,,,,,2.8,2.6,1.0*31
$GPRMC,223320.000,A,3748.5591,N,12217.8482,W,0.09,17.86,120712,,,A*49
$GPVTG,17.86,T,,M,0.09,N,0.2,K,A*3E
$GPGGA,223321.000,3748.5590,N,12217.8482,W,1,04,2.6,33.4,M,-25.1,M,,0000*52
$GPGSA,A,3,15,08,26,04,,,,,,,,,2.8,2.6,1.0*31
$GPRMC,223321.000,A,3748.5590,N,12217.8482,W,0.14,24.28,120712,,,A*41
$GPVTG,24.28,T,,M,0.14,N,0.3,K,A*37
$GPGGA,223322.000,3748.5593,N,12217.8481,W,1,04,2.6,33.5,M,-25.1,M,,0000*50
$GPGSA,A,3,15,08,26,04,,,,,,,,,2.8,2.6,1.0*31
$GPRMC,223322.000,A,3748.5593,N,12217.8481,W,0.67,61.56,120712,,,A*4E
$GPVTG,61.56,T,,M,0.67,N,1.2,K,A*3B
$GPGGA,223323.000,3748.5589,N,12217.8481,W,1,04,2.6,33.2,M,-25.1,M,,0000*5D
$GPGSA,A,3,15,08,26,04,,,,,,,,,2.8,2.6,1.0*31
$GPGSV,3,1,12,17,72,046,,27,46,313,,28,45,063,24,09,31,315,*7B
$GPGSV,3,2,12,15,30,265,25,26,28,216,32,04,26,157,35,08,23,135,37*7F
$GPGSV,3,3,12,01,13,041,26,02,04,184,29,12,03,279,26,48,44,197,30*70
$GPRMC,223323.000,A,3748.5589,N,12217.8481,W,0.41,316.99,120712,,,A*70
$GPVTG,316.99,T,,M,0.41,N,0.8,K,A*04
$GPGGA,223324.000,3748.5589,N,12217.8481,W,1,04,2.6,33.0,M,-25.1,M,,0000*58
$GPGSA,A,3,15,08,26,04,,,,,,,,,2.8,2.6,1.0*31
$GPRMC,223324.000,A,3748.5589,N,12217.8481,W,0.74,35.40,120712,,,A*47
$GPVTG,35.40,T,,M,0.74,N,1.4,K,A*39
$GPGGA,223325.000,3748.5587,N,12217.8480,W,1,04,2.6,32.8,M,-25.1,M,,0000*5F
$GPGSA,A,3,15,08,26,04,,,,,,,,,2.8,2.6,1.0*31
$GPRMC,223325.000,A,3748.5587,N,12217.8480,W,0.51,344.95,120712,,,A*73
$GPVTG,344.95,T,,M,0.51,N,0.9,K,A*0F
$GPGGA,223326.000,3748.5585,N,12217.8479,W,1,04,2.6,32.8,M,-25.1,M,,0000*58
$GPGSA,A,3,15,08,26,04,,,,,,,,,2.8,2.6,1.0*31
$GPRMC,223326.000,A,3748.5585,N,12217.8479,W,0.36,66.39,120712,,,A*40
$GPVTG,66.39,T,,M,0.36,N,0.7,K,A*35
$GPGGA,223327.000,3748.5586,N,12217.8476,W,1,04,2.6,33.2,M,-25.1,M,,0000*5E
$GPGSA,A,3,15,08,26,04,,,,,,,,,2.8,2.6,1.0*31
$GPRMC,223327.000,A,3748.5586,N,12217.8476,W,0.32,341.61,120712,,,A*72
$GPVTG,341.61,T,,M,0.32,N,0.6,K,A*0B
$GPGGA,223328.000,3748.5586,N,12217.8475,W,1,04,2.6,33.4,M,-25.1,M,,0000*54
$GPGSA,A,3,15,08,26,04,,,,,,,,,2.8,2.6,1.0*31
$GPGSV,3,1,12,17,72,046,,27,46,313,,28,45,063,22,09,31,315,*7D
$GPGSV,3,2,12,15,30,265,29,26,28,216,29,04,26,157,36,08,23,135,38*75
$GPGSV,3,3,12,01,13,041,18,02,04,184,21,12,03,279,22,48,44,197,28*78
$GPRMC,223328.000,A,3748.5586,N,12217.8475,W,0.29,12.10,120712,,,A*47
$GPGGA,223329.000,3748.5585,N,12217.8473,W,1,04,2.6,33.6,M,-25.1,M,,0000*52
$GPGSA,A,3,15,08,26,04,,,,,,,,,2.8,2.6,1.0*31
$GPRMC,223329.000,A,3748.5585,N,12217.8473,W,0.26,28.19,120712,,,A*4C
$GPVTG,28.19,T,,M,0.26,N,0.5,K,A*3E
$GPGGA,223330.000,3748.5584,N,12217.8471,W,1,04,2.6,33.7,M,-25.1,M,,0000*58
$GPGSA,A,3,15,08,26,04,,,,,,,,,2.8,2.6,1.0*31
$GPRMC,223330.000,A,3748.5584,N,12217.8471,W,0.28,21.09,120712,,,A*41
$GPVTG,21.09,T,,M,0.28,N,0.5,K,A*38
$GPGGA,223331.000,3748.5583,N,12217.8474,W,1,04,2.6,33.3,M,-25.1,M,,0000*5F
$GPGSA,A,3,15,08,26,04,,,,,,,,,2.8,2.6,1.0*31
$GPRMC,223331.000,A,3748.5583,N,12217.8474,W,0.15,237.74,120712,,,A*73
$GPVTG,237.74,T,,M,0.15,N,0.3,K,A*0F
$GPGGA,223332.000,3748.5580,N,12217.8476,W,1,04,2.6,33.2,M,-25.1,M,,0000*5C
$GPGSA,A,3,15,08,26,04,,,,,,,,,2.8,2.6,1.0*31
$GPRMC,223332.000,A,3748.5580,N,12217.8476,W,0.67,207.74,120712,,,A*77
$GPVTG,207.74,T,,M,0.67,N,1.2,K,A*09
$GPGGA,223333.000,3748.5581,N,12217.8475,W,1,04,2.6,33.3,M,-25.1,M,,0000*5E
$GPGSA,A,3,15,08,26,04,,,,,,,,,2.8,2.6,1.0*31
$GPGSV,3,1,12,17,72,046,,27,46,313,,28,45,063,20,09,31,315,*7F
$GPGSV,3,2,12,15,30,265,35,26,28,216,30,04,26,157,36,08,23,135,34*7C
$GPGSV,3,3,12,01,13,041,18,02,04,184,31,12,03,279,20,48,44,197,27*74
$GPRMC,223333.000,A,3748.5581,N,12217.8475,W,0.15,9.19,120712,,,A*76
$GPVTG,9.19,T,,M,0.15,N,0.3,K,A*0B
$GPGGA,223334.000,3748.5582,N,12217.8475,W,1,04,2.6,33.5,M,-25.1,M,,0000*5C
$GPGSA,A,3,15,08,26,04,,,,,,,,,2.8,2.6,1.0*31
$GPRMC,223334.000,A,3748.5582,N,12217.8475,W,0.16,191.00,120712,,,A*79
$GPVTG,191.00,T,,M,0.16,N,0.3,K,A*00
$GPGGA,223335.000,3748.5582,N,12217.8475,W,1,04,2.6,33.5,M,-25.1,M,,0000*5D
$GPGSA,A,3,15,08,26,04,,,,,,,,,2.8,2.6,1.0*31
$GPRMC,223335.000,A,3748.5582,N,12217.8475,W,0.05,323.24,120712,,,A*77
$GPVTG,323.24,T,,M,0.05,N,0.1,K,A*0D
$GPGGA,223336.000,3748.5582,N,12217.8476,W,1,04,2.6,33.5,M,-25.1,M,,0000*5D
$GPGSA,A,3,15,08,26,04,,,,,,,,,2.8,2.6,1.0*31
$GPRMC,223336.000,A,3748.5582,N,12217.8476,W,0.58,254.37,120712,,,A*7C
$GPVTG,254.37,T,,M,0.58,N,1.1,K,A*07
$GPGGA,223337.000,3748.5574,N,12217.8480,W,1,04,2.6,32.4,M,-25.1,M,,0000*5C
$GPGSA,A,3,15,08,26,04,,,,,,,,,2.8,2.6,1.0*31
$GPRMC,223337.000,A,3748.5574,N,12217.8480,W,0.37,222.65,120712,,,A*72
$GPVTG,222.65,T,,M,0.37,N,0.7,K,A*0F
$GPGGA,223338.000,3748.5563,N,12217.8481,W,1,04,2.6,31.2,M,-25.1,M,,0000*51
$GPGSA,A,3,15,08,26,04,,,,,,,,,2.8,2.6,1.0*31
$GPGSV,3,1,11,17,72,046,,27,46,313,,28,45,063,31,09,31,315,*7C
$GPGSV,3,2,11,15,30,265,25,26,28,216,30,04,26,157,34,08,23,135,34*7C
$GPGSV,3,3,11,01,13,041,26,02,04,184,19,12,03,279,22*44
$GPRMC,223338.000,A,3748.5563,N,12217.8481,W,0.23,161.59,120712,,,A*74
$GPVTG,161.59,T,,M,0.23,N,0.4,K,A*02
$GPGGA,223339.000,3748.5561,N,12217.8478,W,1,04,2.6,30.1,M,-25.1,M,,0000*56
$GPGSA,A,3,15,08,26,04,,,,,,,,,2.8,2.6,1.0*31
$GPRMC,223339.000,A,3748.5561,N,12217.8478,W,0.43,40.75,120712,,,A*4B
$GPVTG,40.75,T,,M,0.43,N,0.8,K,A*34
$GPGGA,223340.000,3748.5554,N,12217.8476,W,1,04,2.6,28.4,M,-25.1,M,,0000*5C
$GPGSA,A,3,15,08,26,04,,,,,,,,,2.8,2.6,1.0*31
$GPRMC,223340.000,A,3748.5554,N,12217.8476,W,0.53,69.19,120712,,,A*4D
$GPVTG,69.19,T,,M,0.53,N,1.0,K,A*3D
$GPGGA,223341.000,3748.5551,N,12217.8474,W,1,04,2.6,27.6,M,-25.1,M,,0000*57
$GPGSA,A,3,15,08,26,04,,,,,,,,,2.8,2.6,1.0*31
$GPRMC,223341.000,A,3748.5551,N,12217.8474,W,0.22,77.37,120712,,,A*4E
$GPVTG,77.37,T,,M,0.22,N,0.4,K,A*3D
$GPGGA,223342.000,3748.5547,N,12217.8472,W,1,04,2.6,27.3,M,-25.1,M,,0000*50
$GPGSA,A,3,15,08,26,04,,,,,,,,,2.8,2.6,1.0*31
$GPRMC,223342.000,A,3748.5547,N,12217.8472,W,0.04,103.03,120712,,,A*7D
$GPVTG,103.03,T,,M,0.04,N,0.1,K,A*09
$GPGGA,223343.000,3748.5545,N,12217.8473,W,1,04,2.6,26.6,M,-25.1,M,,0000*56
$GPGSA,A,3,15,08,26,04,,,,,,,,,2.8,2.6,1.0*31
$GPGSV,3,1,11,17,72,046,,27,46,313,,28,45,063,29,09,31,315,*75
$GPGSV,3,2,11,15,30,265,28,26,28,216,26,04,26,157,32,08,23,135,32*76
$GPGSV,3,3,11,01,13,041,26,02,04,184,19,12,03,279,21*47
$GPRMC,223343.000,A,3748.5545,N,12217.8473,W,0.01,335.58,120712,,,A*73
$GPVTG,335.58,T,,M,0.01,N,0.0,K,A*04
$GPGGA,223344.000,3748.5543,N,12217.8474,W,1,04,2.6,25.9,M,-25.1,M,,0000*5C
$GPGSA,A,3,15,08,26,04,,,,,,,,,2.8,2.6,1.0*31
$GPRMC,223344.000,A,3748.5543,N,12217.8474,W,0.06,218.50,120712,,,A*74
$GPVTG,218.50,T,,M,0.06,N,0.1,K,A*04
$GPGGA,223345.000,3748.5542,N,12217.8475,W,1,04,2.6,25.4,M,-25.1,M,,0000*50
$GPGSA,A,3,15,08,26,04,,,,,,,,,2.8,2.6,1.0*31
$GPRMC,223345.000,A,3748.5542,N,12217.8475,W,0.09,294.61,120712,,,A*7C
$GPVTG,294.61,T,,M,0.09,N,0.2,K,A*0E
$GPGGA,223346.000,3748.5546,N,12217.8476,W,1,04,2.6,25.1,M,-25.1,M,,0000*51
$GPGSA,A,3,15,08,26,04,,,,,,,,,2.8,2.6,1.0*31
$GPRMC,223346.000,A,3748.5546,N,12217.8476,W,0.59,338.21,120712,,,A*7E
$GPVTG,338.21,T,,M,0.59,N,1.1,K,A*0A
$GPGGA,223347.000,3748.5553,N,12217.8477,W,1,04,2.6,25.1,M,-25.1,M,,0000*55
$GPGSA,A,3,15,08,26,04,,,,,,,,,2.8,2.6,1.0*31
$GPRMC,223347.000,A,3748.5553,N,12217.8477,W,0.65,359.13,120712,,,A*73
$GPVTG,359.13,T,,M,0.65,N,1.2,K,A*00
$GPGGA,223348.000,3748.5565,N,12217.8477,W,1,04,2.6,25.3,M,-25.1,M,,0000*5D
$GPGSA,A,3,15,08,26,04,,,,,,,,,2.8,2.6,1.0*31
$GPGSV,3,1,11,17,72,045,,27,46,313,,28,45,063,29,09,31,315,*76
$GPGSV,3,2,11,15,30,265,24,26,28,216,33,04,26,157,35,08,23,135,33*78
$GPGSV,3,3,11,01,13,041,24,02,04,184,24,12,03,279,20*4A
$GPRMC,223348.000,A,3748.5565,N,12217.8477,W,1.27,353.26,120712,,,A*72
$GPVTG,353.26,T,,M,1.27,N,2.4,K,A*0E
$GPGGA,223349.000,3748.5575,N,12217.8478,W,1,04,2.6,25.4,M,-25.1,M,,0000*55
$GPGSA,A,3,15,08,26,04,,,,,,,,,2.8,2.6,1.0*31
$GPRMC,223349.000,A,3748.5575,N,12217.8478,W,1.57,356.60,120712,,,A*7D
$GPVTG,356.60,T,,M,1.57,N,2.9,K,A*03
$GPGGA,223350.000,3748.5583,N,12217.8479,W,1,04,2.6,25.5,M,-25.1,M,,0000*54
$GPGSA,A,3,15,08,26,04,,,,,,,,,2.8,2.6,1.0*31
$GPRMC,223350.000,A,3748.5583,N,12217.8479,W,1.45,2.08,120712,,,A*72
$GPVTG,2.08,T,,M,1.45,N,2.7,K,A*02
$GPGGA,223351.000,3748.5597,N,12217.8479,W,1,04,2.6,25.9,M,-25.1,M,,0000*5C
$GPGSA,A,3,15,08,26,04,,,,,,,,,2.8,2.6,1.0*31
$GPRMC,223351.000,A,3748.5597,N,12217.8479,W,1.55,1.36,120712,,,A*79
$GPVTG,1.36,T,,M,1.55,N,2.9,K,A*03
$GPGGA,223352.000,3748.5609,N,12217.8479,W,1,04,2.6,26.4,M,-25.1,M,,0000*55
$GPGSA,A,3,15,08,26,04,,,,,,,,,2.8,2.6,1.0*31
$GPRMC,223352.000,A,3748.5609,N,12217.8479,W,1.43,5.14,120712,,,A*7D
$GPVTG,5.14,T,,M,1.43,N,2.6,K,A*0F
$GPGGA,223353.000,3748.5622,N,12217.8479,W,1,04,2.6,27.0,M,-25.1,M,,0000*58
$GPGSA,A,3,15,08,26,04,,,,,,,,,2.8,2.6,1.0*31
$GPGSV,3,1,12,17,72,045,,27,46,313,,28,45,063,17,09,31,315,31*7A
$GPGSV,3,2,12,15,30,265,25,26,28,216,33,04,26,157,35,08,23,135,34*7D
$GPGSV,3,3,12,01,13,041,23,02,04,184,25,12,03,279,27,48,44,197,28*71
$GPVTG,4.39,T,,M,1.36,N,2.5,K,A*00
$GPGGA,223354.000,3748.5632,N,12217.8479,W,1,04,2.6,27.4,M,-25.1,M,,0000*5A
$GPGSA,A,3,15,08,26,04,,,,,,,,,2.8,2.6,1.0*31
$GPRMC,223354.000,A,3748.5632,N,12217.8479,W,1.26,6.63,120712,,,A*73
$GPVTG,6.63,T,,M,1.26,N,2.3,K,A*0A
$GPGGA,223355.000,3748.5643,N,12217.8479,W,1,04,2.6,27.9,M,-25.1,M,,0000*50
$GPGSA,A,3,15,08,26,04,,,,,,,,,2.8,2.6,1.0*31
$GPRMC,223355.000,A,3748.5643,N,12217.8479,W,1.47,359.96,120712,,,A*70
$GPVTG,359.96,T,,M,1.47,N,2.7,K,A*0A
$GPGGA,223356.000,3748.5644,N,12217.8479,W,1,04,2.6,28.1,M,-25.1,M,,0000*53
$GPGSA,A,3,15,08,26,04,,,,,,,,,2.8,2.6,1.0*31
$GPRMC,223356.000,A,3748.5644,N,12217.8479,W,0.96,7.96,120712,,,A*71
$GPVTG,7.96,T,,M,0.96,N,1.8,K,A*03
$GPGGA,223357.000,3748.5644,N,12217.8479,W,1,04,2.6,28.1,M,-25.1,M,,0000*52
$GPGSA,A,3,15,08,26,04,,,,,,,,,2.8,2.6,1.0*31
$GPRMC,223357.000,A,3748.5644,N,12217.8479,W,0.61,10.86,120712,,,A*4F
$GPVTG,10.86,T,,M,0.61,N,1.1,K,A*35
$GPGGA,223358.000,3748.5642,N,12217.8478,W,1,04,2.6,28.2,M,-25.1,M,,0000*59
$GPGSA,A,3,15,08,26,04,,,,,,,,,2.8,2.6,1.0*31
$GPGSV,3,1,12,17,72,045,,27,46,313,,28,45,063,22,09,31,315,31*7C
$GPGSV,3,2,12,15,30,265,25,26,28,216,33,04,26,157,36,08,23,135,34*7E
$GPGSV,3,3,12,01,13,041,23,02,04,184,26,12,03,279,26,48,44,197,28*73
$GPRMC,223358.000,A,3748.5642,N,12217.8478,W,0.39,11.78,120712,,,A*4A
$GPVTG,11.78,T,,M,0.39,N,0.7,K,A*3F
$GPGGA,223359.000,3748.5639,N,12217.8478,W,1,04,2.6,28.1,M,-25.1,M,,0000*57
$GPGSA,A,3,15,08,26,04,,,,,,,,,2.8,2.6,1.0*31
$GPRMC,223359.000,A,3748.5639,N,12217.8478,W,0.22,15.86,120712,,,A*48
$GPVTG,15.86,T,,M,0.22,N,0.4,K,A*33
$GPGGA,223400.000,3748.5637,N,12217.8477,W,1,04,2.6,27.9,M,-25.1,M,,0000*5A
$GPGSA,A,3,15,08,26,04,,,,,,,,,2.8,2.6,1.0*31
$GPRMC,223400.000,A,3748.5637,N,12217.8477,W,0.20,359.88,120712,,,A*75
$GPVTG,359.88,T,,M,0.20,N,0.4,K,A*04
$GPGGA,223401.000,3748.5636,N,12217.8475,W,1,04,2.6,28.0,M,-25.1,M,,0000*5E
$GPGSA,A,3,15,08,26,04,,,,,,,,,2.8,2.6,1.0*31
$GPRMC,223401.000,A,3748.5636,N,12217.8475,W,0.36,4.65,120712,,,A*78
$GPVTG,4.65,T,,M,0.36,N,0.7,K,A*08
$GPGGA,223402.000,3748.5630,N,12217.8474,W,1,04,2.6,27.8,M,-25.1,M,,0000*5D
$GPGSA,A,3,15,08,26,04,,,,,,,,,2.8,2.6,1.0*31
$GPRMC,223402.000,A,3748.5630,N,12217.8474,W,0.13,277.64,120712,,,A*7C
$GPVTG,277.64,T,,M,0.13,N,0.2,K,A*0D
$GPGGA,223403.000,3748.5631,N,12217.8474,W,1,04,2.6,27.9,M,-25.1,M,,0000*5C
$GPGSA,A,3,15,08,26,04,,,,,,,,,2.8,2.6,1.0*31
$GPGSV,3,1,11,17,72,045,,27,46,313,,28,45,063,20,09,31,315,26*7B
$GPGSV,3,2,11,15,30,265,24,26,28,216,25,04,26,157,35,08,23,135,35*79
$GPGSV,3,3,11,01,13,041,23,02,04,184,19,12,03,279,22*41
$GPRMC,223403.000,A,3748.5631,N,12217.8474,W,0.17,196.92,120712,,,A*7D
$GPVTG,196.92,T,,M,0.17,N,0.3,K,A*0D
$GPGGA,223404.000,3748.5627,N,12217.8476,W,1,04,2.6,27.9,M,-25.1,M,,0000*5E
$GPGSA,A,3,15,08,26,04,,,,,,,,,2.8,2.6,1.0*31
$GPRMC,223404.000,A,3748.5627,N,12217.8476,W,0.13,183.59,120712,,,A*78
$GPVTG,183.59,T,,M,0.13,N,0.2,K,A*0B
$GPGGA,223405.000,3748.5617,N,12217.8479,W,1,04,2.6,28.1,M,-25.1,M,,0000*54
$GPGSA,A,3,15,08,26,04,,,,,,,,,2.8,2.6,1.0*31
$GPRMC,223405.000,A,3748.5617,N,12217.8479,W,0.42,200.40,120712,,,A*71
$GPVTG,200.40,T,,M,0.42,N,0.8,K,A*05
$GPGGA,223406.000,3748.5604,N,12217.8481,W,1,04,2.6,27.7,M,-25.1,M,,0000*5B
$GPGSA,A,3,15,08,26,04,,,,,,,,,2.8,2.6,1.0*31
$GPRMC,223406.000,A,3748.5604,N,12217.8481,W,0.44,206.88,120712,,,A*73
$GPVTG,206.88,T,,M,0.44,N,0.8,K,A*01
$GPGGA,223407.000,3748.5591,N,12217.8481,W,1,04,2.6,27.6,M,-25.1,M,,0000*54
$GPGSA,A,3,15,08,26,04,,,,,,,,,2.8,2.6,1.0*31
$GPRMC,223407.000,A,3748.5591,N,12217.8481,W,1.00,214.07,120712,,,A*78
$GPVTG,214.07,T,,M,1.00,N,1.9,K,A*04
$GPGGA,223408.000,3748.5589,N,12217.8481,W,1,04,2.6,28.4,M,-25.1,M,,0000*5F
$GPGSA,A,3,15,08,26,04,,,,,,,,,2.8,2.6,1.0*31
$GPGSV,3,1,11,17,72,045,,27,46,313,,28,45,063,22,09,31,315,26*79
$GPGSV,3,2,11,15,30,265,25,26,28,216,23,04,26,157,25,08,23,135,32*78
$GPGSV,3,3,11,01,13,041,24,02,04,184,18,12,03,279,26*43
$GPRMC,223408.000,A,3748.5589,N,12217.8481,W,0.79,240.59,120712,,,A*7B
$GPGGA,223409.000,3748.5586,N,12217.8477,W,1,04,2.6,28.3,M,-25.1,M,,0000*5F
$GPGSA,A,3,15,08,26,04,,,,,,,,,2.8,2.6,1.0*31
$GPRMC,223409.000,A,3748.5586,N,12217.8477,W,0.26,122.98,120712,,,A*7C
$GPVTG,122.98,T,,M,0.26,N,0.5,K,A*0C
$GPGGA,223410.000,3748.5590,N,12217.8466,W,1,04,2.6,29.1,M,-25.1,M,,0000*53
$GPGSA,A,3,15,08,26,04,,,,,,,,,2.8,2.6,1.0*31
$GPRMC,223410.000,A,3748.5590,N,12217.8466,W,1.29,37.66,120712,,,A*49
$GPVTG,37.66,T,,M,1.29,N,2.4,K,A*35
$GPGGA,223411.000,3748.5587,N,12217.8455,W,1,04,2.6,28.9,M,-25.1,M,,0000*5D
$GPGSA,A,3,15,08,26,04,,,,,,,,,2.8,2.6,1.0*31
$GPRMC,223411.000,A,3748.5587,N,12217.8455,W,1.36,50.21,120712,,,A*42
$GPVTG,50.21,T,,M,1.36,N,2.5,K,A*38
$GPGGA,223412.000,3748.5578,N,12217.8451,W,1,04,2.6,27.9,M,-25.1,M,,0000*55
$GPGSA,A,3,15,08,26,04,,,,,,,,,2.8,2.6,1.0*31
$GPRMC,223412.000,A,3748.5578,N,12217.8451,W,0.57,140.80,120712,,,A*78
$GPVTG,140.80,T,,M,0.57,N,1.1,K,A*02
$GPGGA,223413.000,3748.5576,N,12217.8447,W,1,04,2.6,26.5,M,-25.1,M,,0000*50
$GPGSA,A,3,15,08,26,04,,,,,,,,,2.8,2.6,1.0*31
$GPGSV,3,1,11,17,72,045,26,27,46,313,23,28,45,063,29,09,31,315,24*75
$GPGSV,3,2,11,15,30,265,24,26,28,216,22,04,26,157,25,08,23,135,28*73
$GPGSV,3,3,11,01,13,041,38,02,04,184,20,12,03,279,25*46
$GPRMC,223413.000,A,3748.5576,N,12217.8447,W,0.31,210.47,120712,,,A*7D
$GPVTG,210.47,T,,M,0.31,N,0.6,K,A*09
$GPGGA,223414.000,3748.5564,N,12217.8442,W,1,04,2.6,25.7,M,-25.1,M,,0000*50
$GPGSA,A,3,15,08,26,04,,,,,,,,,2.8,2.6,1.0*31
$GPRMC,223414.000,A,3748.5564,N,12217.8442,W,0.06,278.99,120712,,,A*75
$GPVTG,278.99,T,,M,0.06,N,0.1,K,A*07
$GPGGA,223415.000,3748.5556,N,12217.8443,W,1,04,2.6,24.7,M,-25.1,M,,0000*50
$GPGSA,A,3,15,08,26,04,,,,,,,,,2.8,2.6,1.0*31
$GPRMC,223415.000,A,3748.5556,N,12217.8443,W,0.41,266.48,120712,,,A*74
$GPVTG,266.48,T,,M,0.41,N,0.8,K,A*0E
$GPGGA,223416.000,3748.5562,N,12217.8434,W,1,04,2.7,25.2,M,-25.1,M,,0000*51
$GPGSA,A,3,15,08,26,04,,,,,,,,,2.8,2.7,1.0*30
$GPRMC,223416.000,A,3748.5562,N,12217.8434,W,1.33,16.23,120712,,,A*4C
$GPVTG,16.23,T,,M,1.33,N,2.5,K,A*3D
$GPGGA,223417.000,3748.5585,N,12217.8427,W,1,04,2.7,26.5,M,-25.1,M,,0000*5F
$GPGSA,A,3,15,08,26,04,,,,,,,,,2.8,2.7,1.0*30
$GPRMC,223417.000,A,3748.5585,N,12217.8427,W,2.59,15.11,120712,,,A*4B
$GPVTG,15.11,T,,M,2.59,N,4.8,K,A*3B
$GPGGA,223418.000,3748.5615,N,12217.8423,W,1,04,2.7,26.0,M,-25.1,M,,0000*5B
$GPGSA,A,3,15,08,26,04,,,,,,,,,2.8,2.7,1.0*30
$GPGSV,3,1,11,17,72,045,26,27,46,313,32,28,45,063,26,09,31,315,33*7C
$GPGSV,3,2,11,15,30,265,30,26,28,216,22,04,26,157,25,08,23,135,25*7B
$GPGSV,3,3,11,01,13,041,29,02,04,184,21,12,03,279,24*46
$GPRMC,223418.000,A,3748.5615,N,12217.8423,W,3.01,13.30,120712,,,A*43
$GPVTG,13.30,T,,M,3.01,N,5.6,K,A*3D
$GPGGA,223419.000,3748.5635,N,12217.8423,W,1,04,2.7,26.6,M,-25.1,M,,0000*5E
$GPGSA,A,3,15,08,26,04,,,,,,,,,2.8,2.7,1.0*30
$GPRMC,223419.000,A,3748.5635,N,12217.8423,W,2.94,7.68,120712,,,A*75
$GPVTG,7.68,T,,M,2.94,N,5.5,K,A*0B
$GPGGA,223420.000,3748.5642,N,12217.8422,W,1,04,2.7,26.0,M,-25.1,M,,0000*53
$GPGSA,A,3,15,08,26,04,,,,,,,,,2.8,2.7,1.0*30
$GPRMC,223420.000,A,3748.5642,N,12217.8422,W,2.45,4.03,120712,,,A*7C
$GPVTG,4.03,T,,M,2.45,N,4.5,K,A*08
$GPGGA,223421.000,3748.5638,N,12217.8429,W,1,04,2.7,24.9,M,-25.1,M,,0000*5F
$GPGSA,A,3,15,08,26,04,,,,,,,,,2.8,2.7,1.0*30
$GPRMC,223421.000,A,3748.5638,N,12217.8429,W,1.85,11.39,120712,,,A*49
$GPVTG,11.39,T,,M,1.85,N,3.4,K,A*3C
$GPGGA,223422.000,3748.5631,N,12217.8436,W,1,04,2.7,23.9,M,-25.1,M,,0000*5C
$GPGSA,A,3,15,08,26,04,,,,,,,,,2.8,2.7,1.0*30
$GPRMC,223422.000,A,3748.5631,N,12217.8436,W,0.85,340.82,120712,,,A*7B
$GPVTG,340.82,T,,M,0.85,N,1.6,K,A*0A
$GPGGA,223423.000,3748.5624,N,12217.8443,W,1,04,2.7,23.0,M,-25.1,M,,0000*52
$GPGSA,A,3,15,08,26,04,,,,,,,,,2.8,2.7,1.0*30
$GPGSV,3,1,11,17,72,045,27,27,46,313,36,28,45,063,29,09,31,315,26*72
$GPGSV,3,2,11,15,30,265,29,26,28,216,22,04,26,157,27,08,23,135,28*7C
$GPGSV,3,3,11,01,13,041,23,02,04,184,21,12,03,279,23*4B
$GPRMC,223423.000,A,3748.5624,N,12217.8443,W,0.36,66.58,120712,,,A*44
$GPVTG,66.58,T,,M,0.36,N,0.7,K,A*32
$GPGGA,223424.000,3748.5625,N,12217.8443,W,1,04,2.7,21.6,M,-25.1,M,,0000*50
$GPGSA,A,3,15,08,26,04,,,,,,,,,2.8,2.7,1.0*30
$GPRMC,223424.000,A,3748.5625,N,12217.8443,W,1.00,31.53,120712,,,A*4F
$GPVTG,31.53,T,,M,1.00,N,1.9,K,A*30
$GPGGA,223425.000,3748.5630,N,12217.8444,W,1,04,2.7,20.9,M,-25.1,M,,0000*5C
$GPGSA,A,3,15,08,26,04,,,,,,,,,2.8,2.7,1.0*30
$GPRMC,223425.000,A,3748.5630,N,12217.8444,W,0.74,2.20,120712,,,A*7B
$GPVTG,2.20,T,,M,0.74,N,1.4,K,A*0B
$GPGGA,223426.000,3748.5647,N,12217.8436,W,1,04,2.7,20.2,M,-25.1,M,,0000*51
$GPGSA,A,3,15,08,26,04,,,,,,,,,2.8,2.7,1.0*30
$GPRMC,223426.000,A,3748.5647,N,12217.8436,W,1.09,33.27,120712,,,A*43
$GPVTG,33.27,T,,M,1.09,N,2.0,K,A*32
$GPGGA,223427.000,3748.5660,N,12217.8433,W,1,03,3.6,19.4,M,-25.1,M,,0000*5B
$GPGSA,A,2,15,26,04,,,,,,,,,,3.7,3.6,1.0*37
$GPRMC,223427.000,A,3748.5660,N,12217.8433,W,1.24,24.82,120712,,,A*44
$GPVTG,24.82,T,,M,1.24,N,2.3,K,N*38
$GPGGA,223428.000,3748.5679,N,12217.8426,W,1,03,3.6,19.7,M,-25.1,M,,0000*5B
$GPGSA,A,2,15,26,04,,,,,,,,,,3.7,3.6,1.0*37
$GPGSV,3,1,11,17,72,045,20,27,46,313,36,28,45,063,22,09,31,315,33*7A
$GPGSV,3,2,11,15,30,265,36,26,28,216,23,04,26,157,27,08,23,135,09*70
$GPGSV,3,3,11,01,13,041,22,02,04,184,21,12,03,279,18*42
$GPRMC,223428.000,A,3748.5679,N,12217.8426,W,1.48,23.78,120712,,,A*4F
$GPVTG,23.78,T,,M,1.48,N,2.7,K,N*34
$GPGGA,223429.000,3748.5674,N,12217.8435,W,1,03,3.6,18.6,M,-25.1,M,,0000*55
$GPGSA,A,2,15,26,04,,,,,,,,,,3.7,3.6,1.0*37
$GPRMC,223429.000,A,3748.5674,N,12217.8435,W,0.25,264.59,120712,,,A*79
$GPVTG,264.59,T,,M,0.25,N,0.5,K,N*0C
$GPGGA,223430.000,3748.5685,N,12217.8432,W,1,03,3.6,18.3,M,-25.1,M,,0000*51
$GPGSA,A,2,15,26,04,,,,,,,,,,3.7,3.6,1.0*37
$GPRMC,223430.000,A,3748.5685,N,12217.8432,W,0.97,14.31,120712,,,A*4A
$GPVTG,14.31,T,,M,0.97,N,1.8,K,N*32
$GPGGA,223431.000,3748.5702,N,12217.8425,W,1,03,3.6,18.6,M,-25.1,M,,0000*5D
$GPGSA,A,2,15,26,04,,,,,,,,,,3.7,3.6,1.0*37
$GPRMC,223431.000,A,3748.5702,N,12217.8425,W,1.20,23.72,120712,,,A*4D
$GPVTG,23.72,T,,M,1.20,N,2.2,K,N*35
$GPGGA,223432.000,3748.5719,N,12217.8418,W,1,03,3.6,18.7,M,-25.1,M,,0000*5B
$GPGSA,A,2,15,26,04,,,,,,,,,,3.7,3.6,1.0*37
$GPRMC,223432.000,A,3748.5719,N,12217.8418,W,1.87,26.05,120712,,,A*42
$GPVTG,26.05,T,,M,1.87,N,3.5,K,N*3B
$GPGGA,223433.000,3748.5722,N,12217.8421,W,1,03,3.6,18.5,M,-25.1,M,,0000*5A
$GPGSA,A,2,15,26,04,,,,,,,,,,3.7,3.6,1.0*37
$GPGSV,3,1,11,17,72,045,22,27,46,313,36,28,45,063,22,09,31,315,33*78
$GPGSV,3,2,11,15,30,265,36,26,28,216,23,04,26,157,26,08,23,135,*78
$GPGSV,3,3,11,01,13,041,22,02,04,184,23,12,03,279,17*4F
$GPVTG,20.18,T,,M,0.77,N,1.4,K,N*3C
$GPGGA,223434.000,3748.5727,N,12217.8422,W,1,03,3.6,18.5,M,-25.1,M,,0000*5B
$GPGSA,A,2,15,26,04,,,,,,,,,,3.7,3.6,1.0*37
$GPRMC,223434.000,A,3748.5727,N,12217.8422,W,0.35,1.75,120712,,,A*7A
$GPVTG,1.75,T,,M,0.35,N,0.6,K,N*01
$GPGGA,223435.000,3748.5746,N,12217.8410,W,1,04,2.7,17.7,M,-25.1,M,,0000*56
$GPGSA,A,3,15,08,26,04,,,,,,,,,2.8,2.7,1.0*30
$GPRMC,223435.000,A,3748.5746,N,12217.8410,W,0.77,27.34,120712,,,A*4A
$GPVTG,27.34,T,,M,0.77,N,1.4,K,A*3A
$GPGGA,223436.000,3748.5769,N,12217.8396,W,1,04,2.7,17.8,M,-25.1,M,,0000*5E
$GPGSA,A,3,15,08,26,04,,,,,,,,,2.8,2.7,1.0*30
$GPRMC,223436.000,A,3748.5769,N,12217.8396,W,1.56,29.02,120712,,,A*44
$GPVTG,29.02,T,,M,1.56,N,2.9,K,A*3D
$GPGGA,223437.000,3748.5774,N,12217.8398,W,1,04,2.7,18.5,M,-25.1,M,,0000*5F
$GPGSA,A,3,15,08,26,04,,,,,,,,,2.8,2.7,1.0*30
$GPRMC,223437.000,A,3748.5774,N,12217.8398,W,0.70,14.12,120712,,,A*4D
$GPVTG,14.12,T,,M,0.70,N,1.3,K,A*3E
$GPGGA,223438.000,3748.5779,N,12217.8400,W,1,04,2.7,19.9,M,-25.1,M,,0000*56
$GPGSA,A,3,15,08,26,04,,,,,,,,,2.8,2.7,1.0*30
$GPGSV,3,1,11,17,72,045,22,27,46,313,37,28,45,063,22,09,31,315,34*7E
$GPGSV,3,2,11,15,30,265,36,26,28,216,23,04,26,157,27,08,23,135,25*7E
$GPGSV,3,3,11,01,13,041,22,02,04,184,24,12,03,279,18*47
$GPRMC,223438.000,A,3748.5779,N,12217.8400,W,0.60,33.71,120712,,,A*48
$GPVTG,33.71,T,,M,0.60,N,1.1,K,A*3D
$GPGGA,223439.000,3748.5777,N,12217.8406,W,1,03,5.1,21.4,M,-25.1,M,,0000*5F
$GPGSA,A,2,15,08,04,,,,,,,,,,5.2,5.1,1.0*39
$GPRMC,223439.000,A,3748.5777,N,12217.8406,W,0.27,40.02,120712,,,A*42
$GPVTG,40.02,T,,M,0.27,N,0.5,K,A*3B
$GPGGA,223440.000,3748.5790,N,12217.8404,W,1,04,2.7,22.2,M,-25.1,M,,0000*59
$GPGSA,A,3,15,08,26,04,,,,,,,,,2.8,2.7,1.0*30
$GPRMC,223440.000,A,3748.5790,N,12217.8404,W,0.62,25.10,120712,,,A*46
$GPVTG,25.10,T,,M,0.62,N,1.1,K,A*3F
$GPGGA,223441.000,3748.5802,N,12217.8391,W,1,04,2.7,22.0,M,-25.1,M,,0000*55
$GPGSA,A,3,15,08,26,04,,,,,,,,,2.8,2.7,1.0*30
$GPRMC,223441.000,A,3748.5802,N,12217.8391,W,0.17,3.41,120712,,,A*7A
$GPVTG,3.41,T,,M,0.17,N,0.3,K,A*0E
$GPGGA,223442.000,3748.5804,N,12217.8385,W,1,04,2.7,23.0,M,-25.1,M,,0000*54
$GPGSA,A,3,15,08,26,04,,,,,,,,,2.8,2.7,1.0*30
$GPRMC,223442.000,A,3748.5804,N,12217.8385,W,0.05,316.92,120712,,,A*70
$GPVTG,316.92,T,,M,0.05,N,0.1,K,A*06
$GPGGA,223443.000,3748.5802,N,12217.8382,W,1,03,5.1,22.5,M,-25.1,M,,0000*56
$GPGSA,A,2,15,08,04,,,,,,,,,,5.2,5.1,1.0*39
$GPGSV,3,1,11,17,71,045,27,27,47,312,28,28,44,064,21,09,31,315,24*72
$GPGSV,3,2,11,15,29,264,22,26,28,215,19,04,27,157,23,08,22,136,25*7F
$GPGSV,3,3,11,01,12,041,24,02,04,184,16,12,04,279,24*49
$GPRMC,223443.000,A,3748.5802,N,12217.8382,W,0.26,291.65,120712,,,A*77
$GPVTG,291.65,T,,M,0.26,N,0.5,K,A*05
$GPGGA,223444.000,3748.5769,N,12217.8398,W,1,04,2.7,21.5,M,-25.1,M,,0000*5D
$GPGSA,A,3,15,08,26,04,,,,,,,,,2.8,2.7,1.0*30
$GPRMC,223444.000,A,3748.5769,N,12217.8398,W,2.36,196.23,120712,,,A*7C
$GPVTG,196.23,T,,M,2.36,N,4.4,K,A*05
$GPGGA,223445.000,3748.5741,N,12217.8401,W,1,04,2.7,21.9,M,-25.1,M,,0000*5D
$GPGSA,A,3,15,08,26,04,,,,,,,,,2.8,2.7,1.0*30
$GPRMC,223445.000,A,3748.5741,N,12217.8401,W,2.90,194.30,120712,,,A*7C
$GPVTG,194.30,T,,M,2.90,N,5.4,K,A*08
$GPGGA,223446.000,3748.5718,N,12217.8408,W,1,04,2.7,21.7,M,-25.1,M,,0000*55
$GPGSA,A,3,15,08,26,04,,,,,,,,,2.8,2.7,1.0*30
$GPRMC,223446.000,A,3748.5718,N,12217.8408,W,2.90,194.88,120712,,,A*79
$GPVTG,194.88,T,,M,2.90,N,5.4,K,A*0B
$GPGGA,223447.000,3748.5699,N,12217.8413,W,1,04,2.7,22.3,M,-25.1,M,,0000*51
$GPGSA,A,3,15,08,26,04,,,,,,,,,2.8,2.7,1.0*30
$GPRMC,223447.000,A,3748.5699,N,12217.8413,W,2.71,193.02,120712,,,A*70
$GPVTG,193.02,T,,M,2.71,N,5.0,K,A*05
$GPGGA,223448.000,3748.5699,N,12217.8417,W,1,04,2.7,21.5,M,-25.1,M,,0000*5F
$GPGSA,A,3,15,08,26,04,,,,,,,,,2.8,2.7,1.0*30
$GPGSV,3,1,11,17,71,045,27,27,47,312,21,28,44,064,24,09,31,315,18*71
$GPGSV,3,2,11,15,29,264,25,26,28,215,26,04,27,157,16,08,22,136,30*76
$GPGSV,3,3,11,01,12,041,26,02,04,184,18,12,04,279,23*42
$GPRMC,223448.000,A,3748.5699,N,12217.8417,W,1.28,200.79,120712,,,A*71
$GPGGA,223449.000,3748.5686,N,12217.8422,W,1,04,2.7,20.7,M,-25.1,M,,0000*55
$GPGSA,A,3,15,08,26,04,,,,,,,,,2.8,2.7,1.0*30
$GPRMC,223449.000,A,3748.5686,N,12217.8422,W,1.00,207.87,120712,,,A*74
$GPVTG,207.87,T,,M,1.00,N,1.9,K,A*0E
$GPGGA,223450.000,3748.5666,N,12217.8428,W,1,04,2.7,20.5,M,-25.1,M,,0000*5B
$GPGSA,A,3,15,08,26,04,,,,,,,,,2.8,2.7,1.0*30
$GPRMC,223450.000,A,3748.5666,N,12217.8428,W,1.05,206.09,120712,,,A*7A
$GPVTG,206.09,T,,M,1.05,N,1.9,K,A*0C
$GPGGA,223451.000,3748.5661,N,12217.8434,W,1,04,2.7,18.4,M,-25.1,M,,0000*5A
$GPGSA,A,3,15,08,26,04,,,,,,,,,2.8,2.7,1.0*30
$GPRMC,223451.000,A,3748.5661,N,12217.8434,W,0.68,234.15,120712,,,A*77
$GPVTG,234.15,T,,M,0.68,N,1.3,K,A*00
$GPGGA,223452.000,3748.5642,N,12217.8445,W,1,04,2.7,19.3,M,-25.1,M,,0000*58
$GPGSA,A,3,15,08,26,04,,,,,,,,,2.8,2.7,1.0*30
$GPRMC,223452.000,A,3748.5642,N,12217.8445,W,0.85,210.14,120712,,,A*77
$GPVTG,210.14,T,,M,0.85,N,1.6,K,A*01
$GPGGA,223453.000,3748.5624,N,12217.8454,W,1,04,2.7,20.8,M,-25.1,M,,0000*58
$GPGSA,A,3,15,08,26,04,,,,,,,,,2.8,2.7,1.0*30
$GPGSV,3,1,11,17,71,045,28,27,47,312,25,28,44,064,26,09,31,315,26*75
$GPGSV,3,2,11,15,29,264,25,26,28,215,26,04,27,157,22,08,22,136,24*74
$GPGSV,3,3,11,01,12,041,18,02,04,184,16,12,04,279,14*45
$GPRMC,223453.000,A,3748.5624,N,12217.8454,W,1.04,206.59,120712,,,A*70
$GPVTG,206.59,T,,M,1.04,N,1.9,K,A*08
$GPGGA,223454.000,3748.5607,N,12217.8464,W,1,04,2.7,21.3,M,-25.1,M,,0000*57
$GPGSA,A,3,15,08,26,04,,,,,,,,,2.8,2.7,1.0*30
$GPRMC,223454.000,A,3748.5607,N,12217.8464,W,1.20,206.61,120712,,,A*78
$GPVTG,206.61,T,,M,1.20,N,2.2,K,A*0D
$GPGGA,223455.000,3748.5579,N,12217.8476,W,1,04,2.7,20.1,M,-25.1,M,,0000*5C
$GPGSA,A,3,15,08,26,04,,,,,,,,,2.8,2.7,1.0*30
$GPRMC,223455.000,A,3748.5579,N,12217.8476,W,2.32,206.46,120712,,,A*75
$GPVTG,206.46,T,,M,2.32,N,4.3,K,A*0F
$GPGGA,223456.000,3748.5579,N,12217.8472,W,1,04,2.7,20.4,M,-25.1,M,,0000*5E
$GPGSA,A,3,15,08,26,04,,,,,,,,,2.8,2.7,1.0*30
$GPRMC,223456.000,A,3748.5579,N,12217.8472,W,0.71,213.15,120712,,,A*75
$GPVTG,213.15,T,,M,0.71,N,1.3,K,A*0D
$GPGGA,223457.000,3748.5583,N,12217.8467,W,1,03,2.8,20.2,M,-25.1,M,,0000*50
$GPGSA,A,2,15,08,26,,,,,,,,,,3.0,2.8,1.0*33
$GPRMC,223457.000,A,3748.5583,N,12217.8467,W,0.49,38.17,120712,,,A*47
$GPVTG,38.17,T,,M,0.49,N,0.9,K,N*3B
$GPGGA,223458.000,3748.5580,N,12217.8460,W,1,04,2.7,19.7,M,-25.1,M,,0000*5C
$GPGSA,A,3,15,08,26,04,,,,,,,,,2.8,2.7,1.0*30
$GPGSV,3,1,11,17,71,045,30,27,47,312,23,28,44,064,25,09,31,315,23*7C
$GPGSV,3,2,11,15,29,264,24,26,28,215,25,04,27,157,14,08,22,136,26*71
$GPGSV,3,3,11,01,12,041,18,02,04,184,17,12,04,279,23*40
$GPRMC,223458.000,A,3748.5580,N,12217.8460,W,0.99,144.34,120712,,,A*7A
$GPVTG,144.34,T,,M,0.99,N,1.8,K,A*02
$GPGGA,223459.000,3748.5564,N,12217.8454,W,1,04,2.7,19.8,M,-25.1,M,,0000*5F
$GPGSA,A,3,15,08,26,04,,,,,,,,,2.8,2.7,1.0*30
$GPRMC,223459.000,A,3748.5564,N,12217.8454,W,1.32,160.48,120712,,,A*7B
$GPVTG,160.48,T,,M,1.32,N,2.4,K,A*00
$GPGGA,223500.000,3748.5564,N,12217.8451,W,1,04,2.7,18.6,M,-25.1,M,,0000*58
$GPGSA,A,3,15,08,26,04,,,,,,,,,2.8,2.7,1.0*30
$GPRMC,223500.000,A,3748.5564,N,12217.8451,W,0.79,182.11,120712,,,A*7D
$GPVTG,182.11,T,,M,0.79,N,1.5,K,A*0C
$GPGGA,223501.000,3748.5570,N,12217.8449,W,1,04,2.7,17.6,M,-25.1,M,,0000*5A
$GPGSA,A,3,15,08,26,04,,,,,,,,,2.8,2.7,1.0*30
$GPRMC,223501.000,A,3748.5570,N,12217.8449,W,0.17,227.01,120712,,,A*75
$GPVTG,227.01,T,,M,0.17,N,0.3,K,A*0E
$GPGGA,223502.000,3748.5565,N,12217.8448,W,1,04,2.7,15.4,M,-25.1,M,,0000*5C
$GPGSA,A,3,15,08,26,04,,,,,,,,,2.9,2.7,1.0*31
$GPRMC,223502.000,A,3748.5565,N,12217.8448,W,0.78,156.50,120712,,,A*7B
$GPVTG,156.50,T,,M,0.78,N,1.5,K,A*01
$GPGGA,223503.000,3748.5563,N,12217.8444,W,1,04,2.7,15.4,M,-25.1,M,,0000*57
$GPGSA,A,3,15,08,26,04,,,,,,,,,2.9,2.7,1.0*31
$GPGSV,3,1,11,17,71,045,30,27,47,312,17,28,44,064,24,09,31,315,22*7B
$GPGSV,3,2,11,15,29,264,23,26,28,215,26,04,27,157,22,08,22,136,32*75
$GPGSV,3,3,11,01,12,041,18,02,04,184,18,12,04,279,26*4A
$GPRMC,223503.000,A,3748.5563,N,12217.8444,W,0.88,167.21,120712,,,A*7B
$GPVTG,167.21,T,,M,0.88,N,1.6,K,A*09
$GPGGA,223504.000,3748.5561,N,12217.8443,W,1,04,2.7,13.2,M,-25.1,M,,0000*55
$GPGSA,A,3,15,08,26,04,,,,,,,,,2.9,2.7,1.0*31
$GPRMC,223504.000,A,3748.5561,N,12217.8443,W,0.11,248.31,120712,,,A*76
$GPVTG,248.31,T,,M,0.11,N,0.2,K,A*03
$GPGGA,223505.000,3748.5564,N,12217.8440,W,1,04,2.7,12.4,M,-25.1,M,,0000*55
$GPGSA,A,3,15,08,26,04,,,,,,,,,2.9,2.7,1.0*31
$GPRMC,223505.000,A,3748.5564,N,12217.8440,W,0.22,10.00,120712,,,A*4C
$GPVTG,10.00,T,,M,0.22,N,0.4,K,A*38
$GPGGA,223506.000,3748.5585,N,12217.8432,W,1,04,2.7,11.5,M,-25.1,M,,0000*5E
$GPGSA,A,3,15,08,26,04,,,,,,,,,2.9,2.7,1.0*31
$GPRMC,223506.000,A,3748.5585,N,12217.8432,W,1.26,9.43,120712,,,A*7F
$GPVTG,9.43,T,,M,1.26,N,2.3,K,A*07
$GPGGA,223507.000,3748.5606,N,12217.8425,W,1,04,2.7,9.7,M,-25.1,M,,0000*6A
$GPGSA,A,3,15,08,26,04,,,,,,,,,2.9,2.7,1.0*31
$GPRMC,223507.000,A,3748.5606,N,12217.8425,W,1.37,12.50,120712,,,A*48
$GPVTG,12.50,T,,M,1.37,N,2.5,K,A*39
$GPGGA,223508.000,3748.5601,N,12217.8420,W,1,04,2.7,8.6,M,-25.1,M,,0000*67
$GPGSA,A,3,15,08,26,04,,,,,,,,,2.9,2.7,1.0*31
$GPGSV,3,1,11,17,71,045,30,27,47,312,22,28,44,064,22,09,31,315,22*7B
$GPGSV,3,2,11,15,29,264,23,26,28,215,27,04,27,157,25,08,22,136,28*78
$GPGSV,3,3,11,01,12,041,17,02,04,184,17,12,04,279,18*47
$GPRMC,223508.000,A,3748.5601,N,12217.8420,W,0.57,24.56,120712,,,A*41
$GPVTG,24.56,T,,M,0.57,N,1.0,K,A*3B
$GPGGA,223509.000,3748.5607,N,12217.8414,W,1,04,2.7,7.7,M,-25.1,M,,0000*69
$GPGSA,A,3,15,08,26,04,,,,,,,,,2.9,2.7,1.0*31
$GPRMC,223509.000,A,3748.5607,N,12217.8414,W,1.07,2.04,120712,,,A*76
$GPVTG,2.04,T,,M,1.07,N,2.0,K,A*0F
$GPGGA,223510.000,3748.5613,N,12217.8408,W,1,04,2.7,7.4,M,-25.1,M,,0000*6A
$GPGSA,A,3,15,08,26,04,,,,,,,,,2.9,2.7,1.0*31
$GPRMC,223510.000,A,3748.5613,N,12217.8408,W,0.72,21.02,120712,,,A*42
$GPVTG,21.02,T,,M,0.72,N,1.3,K,A*3B
$GPGGA,223511.000,3748.5608,N,12217.8404,W,1,04,2.7,6.4,M,-25.1,M,,0000*6C
$GPGSA,A,3,15,08,26,04,,,,,,,,,2.9,2.7,1.0*31
$GPRMC,223511.000,A,3748.5608,N,12217.8404,W,0.34,54.13,120712,,,A*45
$GPVTG,54.13,T,,M,0.34,N,0.6,K,A*3F
$GPGGA,223512.000,3748.5601,N,12217.8408,W,1,04,2.7,4.5,M,-25.1,M,,0000*69
$GPGSA,A,3,15,08,26,04,,,,,,,,,2.9,2.7,1.0*31
$GPRMC,223512.000,A,3748.5601,N,12217.8408,W,0.63,255.53,120712,,,A*76
$GPVTG,255.53,T,,M,0.63,N,1.2,K,A*0F
$GPGGA,223513.000,3748.5582,N,12217.8412,W,1,04,2.7,3.6,M,-25.1,M,,0000*6F
$GPGSA,A,3,15,08,26,04,,,,,,,,,2.9,2.7,1.0*31
$GPGSV,3,1,11,17,71,045,24,27,47,312,22,28,44,064,23,09,31,315,28*75
$GPGSV,3,2,11,15,29,264,23,26,28,215,19,04,27,157,19,08,22,136,30*73
$GPRMC,223513.000,A,3748.5582,N,12217.8412,W,1.31,195.31,120712,,,A*79
$GPVTG,195.31,T,,M,1.31,N,2.4,K,A*07
$GPGGA,223514.000,3748.5574,N,12217.8417,W,1,04,2.7,3.8,M,-25.1,M,,0000*6A
$GPGSA,A,3,15,08,26,04,,,,,,,,,2.9,2.7,1.0*31
$GPRMC,223514.000,A,3748.5574,N,12217.8417,W,2.02,221.11,120712,,,A*7F
$GPVTG,221.11,T,,M,2.02,N,3.7,K,A*08
$GPGGA,223515.000,3748.5577,N,12217.8425,W,1,04,2.7,3.1,M,-25.1,M,,0000*60
$GPGSA,A,3,15,08,26,04,,,,,,,,,2.9,2.7,1.0*31
$GPRMC,223515.000,A,3748.5577,N,12217.8425,W,1.15,262.68,120712,,,A*70
$GPVTG,262.68,T,,M,1.15,N,2.1,K,A*03
$GPGGA,223516.000,3748.5576,N,12217.8425,W,1,04,2.7,5.0,M,-25.1,M,,0000*65
$GPGSA,A,3,15,08,26,04,,,,,,,,,2.9,2.7,1.0*31
$GPRMC,223516.000,A,3748.5576,N,12217.8425,W,0.95,288.84,120712,,,A*7D
$GPVTG,288.84,T,,M,0.95,N,1.8,K,A*06
$GPGGA,223517.000,3748.5580,N,12217.8421,W,1,04,2.7,8.0,M,-25.1,M,,0000*64
$GPGSA,A,3,15,08,26,04,,,,,,,,,2.9,2.7,1.0*31
$GPRMC,223517.000,A,3748.5580,N,12217.8421,W,0.66,18.45,120712,,,A*4B
$GPVTG,18.45,T,,M,0.66,N,1.2,K,A*36
$GPGGA,223518.000,3748.5590,N,12217.8418,W,1,04,2.7,10.4,M,-25.1,M,,0000*5D
$GPGSA,A,3,15,08,26,04,,,,,,,,,2.9,2.7,1.0*31
$GPGSV,3,1,12,17,71,045,27,27,47,312,14,28,44,064,29,09,31,315,24*76
$GPGSV,3,2,12,15,29,264,19,26,27,215,20,04,27,157,22,08,22,136,28*7D
$GPGSV,3,3,12,01,12,041,25,02,05,184,18,12,04,279,18,51,43,156,23*7B
$GPRMC,223518.000,A,3748.5590,N,12217.8418,W,1.08,56.21,120712,,,A*4E
$GPVTG,56.21,T,,M,1.08,N,2.0,K,A*36
$GPGGA,223519.000,3748.5589,N,12217.8420,W,1,04,2.7,12.5,M,-25.1,M,,0000*5C
$GPGSA,A,3,15,08,26,04,,,,,,,,,2.9,2.7,1.0*31
$GPRMC,223519.000,A,3748.5589,N,12217.8420,W,0.53,128.75,120712,,,A*7A
$GPVTG,128.75,T,,M,0.53,N,1.0,K,A*03
$GPGGA,223520.000,3748.5603,N,12217.8415,W,1,04,2.7,14.9,M,-25.1,M,,0000*5B
$GPGSA,A,3,15,08,26,04,,,,,,,,,2.9,2.7,1.0*31
$GPRMC,223520.000,A,3748.5603,N,12217.8415,W,0.10,358.29,120712,,,A*7C
$GPVTG,358.29,T,,M,0.10,N,0.2,K,A*0B
$GPGGA,223521.000,3748.5595,N,12217.8417,W,1,04,2.7,15.6,M,-25.1,M,,0000*5A
$GPGSA,A,3,15,08,26,04,,,,,,,,,2.9,2.7,1.0*31
$GPRMC,223521.000,A,3748.5595,N,12217.8417,W,0.50,17.26,120712,,,A*40
$GPVTG,17.26,T,,M,0.50,N,0.9,K,A*33
$GPGGA,223522.000,3748.5582,N,12217.8425,W,1,04,2.7,15.9,M,-25.1,M,,0000*51
$GPGSA,A,3,15,08,26,04,,,,,,,,,2.9,2.7,1.0*31
$GPRMC,223522.000,A,3748.5582,N,12217.8425,W,0.24,114.16,120712,,,A*76
$GPVTG,114.16,T,,M,0.24,N,0.4,K,A*0C
$GPGGA,223523.000,3748.5578,N,12217.8425,W,1,04,2.7,16.4,M,-25.1,M,,0000*5B
$GPGSA,A,3,15,08,26,04,,,,,,,,,2.9,2.7,1.0*31
$GPGSV,3,1,11,17,71,045,24,27,47,312,25,28,44,064,27,09,31,315,21*7F
$GPGSV,3,2,11,15,29,264,22,26,27,215,20,04,27,157,32,08,22,136,38*76
$GPGSV,3,3,11,01,12,041,29,02,05,184,22,12,04,279,23*45
$GPRMC,223523.000,A,3748.5578,N,12217.8425,W,0.51,44.04,120712,,,A*47
$GPVTG,44.04,T,,M,0.51,N,1.0,K,A*3C
$GPGGA,223524.000,3748.5579,N,12217.8421,W,1,04,2.7,17.1,M,-25.1,M,,0000*5D
$GPGSA,A,3,15,08,26,04,,,,,,,,,2.9,2.7,1.0*31
$GPRMC,223524.000,A,3748.5579,N,12217.8421,W,0.83,100.02,120712,,,A*7D
$GPVTG,100.02,T,,M,0.83,N,1.5,K,A*01
$GPGGA,223525.000,3748.5581,N,12217.8414,W,1,04,2.7,17.9,M,-25.1,M,,0000*55
$GPGSA,A,3,15,08,26,04,,,,,,,,,2.9,2.7,1.0*31
$GPRMC,223525.000,A,3748.5581,N,12217.8414,W,1.00,116.72,120712,,,A*77
$GPVTG,116.72,T,,M,1.00,N,1.9,K,A*07
$GPGGA,223526.000,3748.5582,N,12217.8412,W,1,04,2.7,17.3,M,-25.1,M,,0000*59
$GPGSA,A,3,15,08,26,04,,,,,,,,,2.9,2.7,1.0*31
$GPRMC,223526.000,A,3748.5582,N,12217.8412,W,0.54,74.87,120712,,,A*4E
$GPVTG,74.87,T,,M,0.54,N,1.0,K,A*31
$GPGGA,223527.000,3748.5591,N,12217.8408,W,1,04,2.7,17.8,M,-25.1,M,,0000*5A
$GPGSA,A,3,15,08,26,04,,,,,,,,,2.9,2.7,1.0*31
$GPRMC,223527.000,A,3748.5591,N,12217.8408,W,0.31,94.00,120712,,,A*44
$GPVTG,94.00,T,,M,0.31,N,0.6,K,A*34
$GPGGA,223528.000,3748.5607,N,12217.8400,W,1,04,2.7,19.4,M,-25.1,M,,0000*53
$GPGSA,A,3,15,08,26,04,,,,,,,,,2.9,2.7,1.0*31
$GPGSV,3,1,12,17,71,045,25,27,47,312,25,28,44,064,36,09,31,315,23*7F
$GPGSV,3,2,12,15,29,264,22,26,27,215,27,04,27,157,27,08,22,136,24*7B
$GPGSV,3,3,12,01,12,041,33,02,05,184,29,12,04,279,19,51,43,156,26*7A
$GPVTG,62.44,T,,M,1.13,N,2.1,K,A*39
$GPGGA,223529.000,3748.5604,N,12217.8406,W,1,04,2.7,21.5,M,-25.1,M,,0000*5D
$GPGSA,A,3,15,08,26,04,,,,,,,,,2.9,2.7,1.0*31
$GPRMC,223529.000,A,3748.5604,N,12217.8406,W,0.25,31.46,120712,,,A*43
$GPVTG,31.46,T,,M,0.25,N,0.5,K,A*3F
$GPGGA,223530.000,3748.5592,N,12217.8413,W,1,03,5.2,24.0,M,-25.1,M,,0000*58
$GPGSA,A,2,15,08,04,,,,,,,,,,5.3,5.2,1.0*3B
$GPRMC,223530.000,A,3748.5592,N,12217.8413,W,0.65,213.03,120712,,,A*74
$GPVTG,213.03,T,,M,0.65,N,1.2,K,N*01
$GPGGA,223531.000,3748.5580,N,12217.8420,W,1,03,5.2,26.0,M,-25.1,M,,0000*58
$GPGSA,A,2,15,08,04,,,,,,,,,,5.3,5.2,1.0*3B
$GPRMC,223531.000,A,3748.5580,N,12217.8420,W,1.42,213.00,120712,,,A*71
$GPVTG,213.00,T,,M,1.42,N,2.6,K,N*01
$GPGGA,223532.000,3748.5569,N,12217.8423,W,1,03,5.2,27.1,M,-25.1,M,,0000*5F
$GPGSA,A,2,15,08,04,,,,,,,,,,5.3,5.2,1.0*3B
$GPRMC,223532.000,A,3748.5569,N,12217.8423,W,1.44,200.62,120712,,,A*76
$GPVTG,200.62,T,,M,1.44,N,2.7,K,N*00
$GPGGA,223533.000,3748.5565,N,12217.8436,W,1,04,2.7,28.1,M,-25.1,M,,0000*5C
$GPGSA,A,3,15,08,26,04,,,,,,,,,2.9,2.7,1.0*31
$GPGSV,3,1,12,17,71,045,24,27,47,312,36,28,44,064,30,09,31,315,33*7B
$GPGSV,3,2,12,15,29,264,26,26,27,215,20,04,27,157,26,08,22,136,24*79
$GPGSV,3,3,12,01,12,041,25,02,05,184,24,12,04,279,21,51,43,156,26*7B
$GPRMC,223533.000,A,3748.5565,N,12217.8436,W,1.95,206.77,120712,,,A*71
$GPVTG,206.77,T,,M,1.95,N,3.6,K,A*01
$GPGGA,223534.000,3748.5556,N,12217.8454,W,1,04,2.7,28.8,M,-25.1,M,,0000*56
$GPGSA,A,3,15,08,26,04,,,,,,,,,2.9,2.7,1.0*31
$GPRMC,223534.000,A,3748.5556,N,12217.8454,W,2.25,224.63,120712,,,A*7F
$GPVTG,224.63,T,,M,2.25,N,4.2,K,A*0F
$GPGGA,223535.000,3748.5550,N,12217.8467,W,1,04,2.7,29.5,M,-25.1,M,,0000*5D
$GPGSA,A,3,15,08,26,04,,,,,,,,,2.9,2.7,1.0*31
$GPRMC,223535.000,A,3748.5550,N,12217.8467,W,1.33,213.95,120712,,,A*71
$GPVTG,213.95,T,,M,1.33,N,2.5,K,A*07
$GPGGA,223536.000,3748.5547,N,12217.8476,W,1,04,2.7,30.1,M,-25.1,M,,0000*54
$GPGSA,A,3,15,08,26,04,,,,,,,,,2.9,2.7,1.0*31
$GPRMC,223536.000,A,3748.5547,N,12217.8476,W,0.88,208.90,120712,,,A*7A
$GPVTG,208.90,T,,M,0.88,N,1.6,K,A*09
$GPGGA,223537.000,3748.5546,N,12217.8482,W,1,04,2.7,30.8,M,-25.1,M,,0000*56
$GPGSA,A,3,15,08,26,04,,,,,,,,,2.9,2.7,1.0*31
$GPRMC,223537.000,A,3748.5546,N,12217.8482,W,0.16,247.28,120712,,,A*7E
$GPVTG,247.28,T,,M,0.16,N,0.3,K,A*02
$GPGGA,223538.000,3748.5557,N,12217.8483,W,1,04,2.7,31.0,M,-25.1,M,,0000*51
$GPGSA,A,3,15,08,26,04,,,,,,,,,2.9,2.7,1.0*31
$GPGSV,3,1,12,17,71,045,23,27,47,312,33,28,44,064,23,09,31,315,25*7C
$GPGSV,3,2,12,15,29,264,34,26,27,215,33,04,27,157,23,08,22,136,29*70
$GPGSV,3,3,12,01,12,041,20,02,05,184,34,12,04,279,20,51,43,156,25*7D
$GPRMC,223538.000,A,3748.5557,N,12217.8483,W,0.16,351.19,120712,,,A*74
$GPVTG,351.19,T,,M,0.16,N,0.3,K,A*06
$GPGGA,223539.000,3748.5562,N,12217.8485,W,1,04,2.7,30.5,M,-25.1,M,,0000*54
$GPGSA,A,3,15,08,26,04,,,,,,,,,2.9,2.7,1.0*31
$GPRMC,223539.000,A,3748.5562,N,12217.8485,W,0.13,181.99,120712,,,A*77
$GPVTG,181.99,T,,M,0.13,N,0.2,K,A*05
$GPGGA,223540.000,3748.5565,N,12217.8486,W,1,04,2.7,30.6,M,-25.1,M,,0000*5D
$GPGSA,A,3,15,08,26,04,,,,,,,,,2.9,2.7,1.0*31
$GPRMC,223540.000,A,3748.5565,N,12217.8486,W,0.40,136.10,120712,,,A*76
$GPVTG,136.10,T,,M,0.40,N,0.7,K,A*0B
$GPGGA,223541.000,3748.5553,N,12217.8488,W,1,04,2.7,30.0,M,-25.1,M,,0000*51
$GPGSA,A,3,15,08,26,04,,,,,,,,,2.9,2.7,1.0*31
$GPRMC,223541.000,A,3748.5553,N,12217.8488,W,0.53,162.26,120712,,,A*7A
$GPVTG,162.26,T,,M,0.53,N,1.0,K,A*0B
$GPGGA,223542.000,3748.5543,N,12217.8487,W,1,04,2.7,29.6,M,-25.1,M,,0000*52
$GPGSA,A,3,15,08,26,04,,,,,,,,,2.9,2.7,1.0*31
$GPRMC,223542.000,A,3748.5543,N,12217.8487,W,0.54,134.68,120712,,,A*79
$GPVTG,134.68,T,,M,0.54,N,1.0,K,A*05
$GPGGA,223543.000,3748.5540,N,12217.8481,W,1,04,2.7,28.7,M,-25.1,M,,0000*56
$GPGSA,A,3,15,08,26,04,,,,,,,,,2.9,2.7,1.0*31
$GPGSV,3,1,12,17,71,045,24,27,47,312,22,28,44,064,36,09,31,315,23*79
$GPGSV,3,2,12,15,29,264,24,26,27,215,27,04,27,157,33,08,22,136,31*7C
$GPGSV,3,3,12,01,12,041,29,02,05,184,33,12,04,279,24,51,43,156,30*73
$GPRMC,223543.000,A,3748.5540,N,12217.8481,W,1.05,118.10,120712,,,A*79
$GPGGA,223544.000,3748.5530,N,12217.8475,W,1,04,2.7,27.7,M,-25.1,M,,0000*52
$GPGSA,A,3,15,08,26,04,,,,,,,,,2.9,2.7,1.0*31
$GPRMC,223544.000,A,3748.5530,N,12217.8475,W,1.09,149.24,120712,,,A*7D
$GPVTG,149.24,T,,M,1.09,N,2.0,K,A*0D
$GPGGA,223545.000,3748.5517,N,12217.8470,W,1,04,2.7,26.5,M,-25.1,M,,0000*50
$GPGSA,A,3,15,08,26,04,,,,,,,,,2.9,2.7,1.0*31
$GPRMC,223545.000,A,3748.5517,N,12217.8470,W,1.01,165.95,120712,,,A*70
$GPVTG,165.95,T,,M,1.01,N,1.9,K,A*0B
$GPGGA,223546.000,3748.5517,N,12217.8466,W,1,04,2.7,25.7,M,-25.1,M,,0000*55
$GPGSA,A,3,15,08,26,04,,,,,,,,,2.9,2.7,1.0*31
$GPRMC,223546.000,A,3748.5517,N,12217.8466,W,0.86,136.83,120712,,,A*7B
$GPVTG,136.83,T,,M,0.86,N,1.6,K,A*0B
$GPGGA,223547.000,3748.5513,N,12217.8463,W,1,04,2.7,25.2,M,-25.1,M,,0000*50
$GPGSA,A,3,15,08,26,04,,,,,,,,,2.9,2.7,1.0*31
$GPRMC,223547.000,A,3748.5513,N,12217.8463,W,0.76,148.35,120712,,,A*70
$GPVTG,148.35,T,,M,0.76,N,1.4,K,A*02
$GPGGA,223548.000,3748.5517,N,12217.8462,W,1,04,2.7,25.3,M,-25.1,M,,0000*5B
$GPGSA,A,3,15,08,26,04,,,,,,,,,2.9,2.7,1.0*31
$GPGSV,3,1,11,17,71,045,23,27,47,312,26,28,44,064,29,09,32,315,23*74
$GPGSV,3,2,11,15,29,264,25,26,27,215,33,04,27,157,40,08,22,136,35*7B
$GPGSV,3,3,11,01,12,040,22,02,05,184,36,12,04,279,27*4E
$GPRMC,223548.000,A,3748.5517,N,12217.8462,W,0.55,159.50,120712,,,A*78
$GPVTG,159.50,T,,M,0.55,N,1.0,K,A*04
$GPGGA,223549.000,3748.5510,N,12217.8461,W,1,04,2.7,24.8,M,-25.1,M,,0000*54
$GPGSA,A,3,15,08,26,04,,,,,,,,,2.9,2.7,1.0*31
$GPRMC,223549.000,A,3748.5510,N,12217.8461,W,0.66,162.80,120712,,,A*78
$GPVTG,162.80,T,,M,0.66,N,1.2,K,A*03
$GPGGA,223550.000,3748.5503,N,12217.8463,W,1,04,2.7,24.1,M,-25.1,M,,0000*55
$GPGSA,A,3,15,08,26,04,,,,,,,,,2.9,2.7,1.0*31
$GPRMC,223550.000,A,3748.5503,N,12217.8463,W,0.51,184.15,120712,,,A*70
$GPVTG,184.15,T,,M,0.51,N,0.9,K,A*09
$GPGGA,223551.000,3748.5503,N,12217.8462,W,1,04,2.7,23.9,M,-25.1,M,,0000*5A
$GPGSA,A,3,15,08,26,04,,,,,,,,,2.9,2.7,1.0*31
$GPRMC,223551.000,A,3748.5503,N,12217.8462,W,0.66,147.38,120712,,,A*74
$GPVTG,147.38,T,,M,0.66,N,1.2,K,A*07
$GPGGA,223552.000,3748.5500,N,12217.8460,W,1,04,2.7,23.5,M,-25.1,M,,0000*54
$GPGSA,A,3,15,08,26,04,,,,,,,,,2.9,2.7,1.0*31
$GPRMC,223552.000,A,3748.5500,N,12217.8460,W,0.50,191.28,120712,,,A*79
$GPVTG,191.28,T,,M,0.50,N,0.9,K,A*02
$GPGGA,223553.000,3748.5503,N,12217.8453,W,1,04,2.7,23.6,M,-25.1,M,,0000*55
$GPGSA,A,3,15,08,26,04,,,,,,,,,2.9,2.7,1.0*31
$GPGSV,3,1,12,17,71,045,23,27,47,312,21,28,44,064,27,09,32,315,23*7E
$GPGSV,3,2,12,15,29,264,31,26,27,215,33,04,27,157,33,08,22,136,28*75
$GPGSV,3,3,12,01,12,040,26,02,05,184,25,12,04,279,24,51,43,156,31*7B
$GPRMC,223553.000,A,3748.5503,N,12217.8453,W,0.81,129.74,120712,,,A*7D
$GPVTG,129.74,T,,M,0.81,N,1.5,K,A*09
$GPGGA,223554.000,3748.5507,N,12217.8448,W,1,04,2.7,23.6,M,-25.1,M,,0000*5C
$GPGSA,A,3,15,08,26,04,,,,,,,,,2.9,2.7,1.0*31
$GPRMC,223554.000,A,3748.5507,N,12217.8448,W,0.27,191.82,120712,,,A*72
$GPVTG,191.82,T,,M,0.27,N,0.5,K,A*0E
$GPGGA,223555.000,3748.5515,N,12217.8444,W,1,04,2.7,23.7,M,-25.1,M,,0000*53
$GPGSA,A,3,15,08,26,04,,,,,,,,,2.9,2.7,1.0*31
$GPRMC,223555.000,A,3748.5515,N,12217.8444,W,0.37,112.36,120712,,,A*79
$GPVTG,112.36,T,,M,0.37,N,0.7,K,A*09
$GPGGA,223556.000,3748.5525,N,12217.8443,W,1,04,2.7,24.8,M,-25.1,M,,0000*5C
$GPGSA,A,3,15,08,26,04,,,,,,,,,2.9,2.7,1.0*31
$GPRMC,223556.000,A,3748.5525,N,12217.8443,W,0.65,23.35,120712,,,A*49
$GPVTG,23.35,T,,M,0.65,N,1.2,K,A*3A
$GPGGA,223557.000,3748.5533,N,12217.8443,W,1,03,5.3,25.1,M,-25.1,M,,0000*56
$GPGSA,A,2,15,08,04,,,,,,,,,,5.4,5.3,1.0*3D
$GPRMC,223557.000,A,3748.5533,N,12217.8443,W,0.78,25.05,120712,,,A*46
$GPVTG,25.05,T,,M,0.78,N,1.5,K,N*3B
$GPGGA,223558.000,3748.5538,N,12217.8438,W,1,03,5.3,23.9,M,-25.1,M,,0000*50
$GPGSA,A,2,15,08,04,,,,,,,,,,5.4,5.3,1.0*3D
$GPGSV,3,1,12,17,71,045,24,27,47,312,23,28,44,064,21,09,32,315,23*7D
$GPGSV,3,2,12,15,29,264,27,26,27,215,,04,27,157,27,08,22,136,25*7A
$GPGSV,3,3,12,01,12,040,20,02,05,184,32,12,04,279,26,51,43,156,40*7F
$GPRMC,223558.000,A,3748.5538,N,12217.8438,W,1.04,34.27,120712,,,A*44
$GPGGA,223559.000,3748.5535,N,12217.8435,W,1,04,2.7,23.3,M,-25.1,M,,0000*5F
$GPGSA,A,3,15,08,26,04,,,,,,,,,2.9,2.7,1.0*31
$GPRMC,223559.000,A,3748.5535,N,12217.8435,W,0.74,35.24,120712,,,A*41
$GPVTG,35.24,T,,M,0.74,N,1.4,K,A*3B
$GPGGA,223600.000,3748.5531,N,12217.8436,W,1,04,2.7,23.3,M,-25.1,M,,0000*57
$GPGSA,A,3,15,08,26,04,,,,,,,,,2.9,2.7,1.0*31
$GPRMC,223600.000,A,3748.5531,N,12217.8436,W,0.29,27.98,120712,,,A*45
$GPVTG,27.98,T,,M,0.29,N,0.5,K,A*37
$GPGGA,223601.000,3748.5535,N,12217.8431,W,1,04,2.7,23.7,M,-25.1,M,,0000*51
$GPGSA,A,3,15,08,26,04,,,,,,,,,2.9,2.7,1.0*31
$GPRMC,223601.000,A,3748.5535,N,12217.8431,W,1.25,30.71,120712,,,A*4B
$GPVTG,30.71,T,,M,1.25,N,2.3,K,A*3F
$GPGGA,223602.000,3748.5526,N,12217.8434,W,1,04,2.7,23.5,M,-25.1,M,,0000*57
$GPGSA,A,3,15,08,26,04,,,,,,,,,2.9,2.7,1.0*31
$GPRMC,223602.000,A,3748.5526,N,12217.8434,W,0.18,53.41,120712,,,A*46
$GPVTG,53.41,T,,M,0.18,N,0.3,K,A*34
$GPGGA,223603.000,3748.5504,N,12217.8443,W,1,04,2.7,22.9,M,-25.1,M,,0000*5B
$GPGSA,A,3,15,08,26,04,,,,,,,,,2.9,2.7,1.0*31
$GPGSV,3,1,12,17,71,045,29,27,47,312,22,28,44,064,20,09,32,315,28*7B
$GPGSV,3,2,12,15,29,264,23,26,27,215,30,04,27,157,27,08,22,136,20*78
$GPGSV,3,3,12,01,12,040,18,02,05,184,30,12,04,279,24,51,43,156,39*7A
$GPRMC,223603.000,A,3748.5504,N,12217.8443,W,1.18,157.99,120712,,,A*76
$GPVTG,157.99,T,,M,1.18,N,2.2,K,A*06
$GPGGA,223604.000,3748.5485,N,12217.8449,W,1,04,2.7,23.3,M,-25.1,M,,0000*55
$GPGSA,A,3,15,08,26,04,,,,,,,,,2.9,2.7,1.0*31
$GPRMC,223604.000,A,3748.5485,N,12217.8449,W,1.41,180.10,120712,,,A*74
$GPVTG,180.10,T,,M,1.41,N,2.6,K,A*05
$GPGGA,223605.000,3748.5474,N,12217.8452,W,1,04,2.7,24.2,M,-25.1,M,,0000*56
$GPGSA,A,3,15,08,26,04,,,,,,,,,2.9,2.7,1.0*31
$GPRMC,223605.000,A,3748.5474,N,12217.8452,W,1.22,199.89,120712,,,A*7C
$GPVTG,199.89,T,,M,1.22,N,2.3,K,A*0D
$GPGGA,223606.000,3748.5468,N,12217.8456,W,1,04,2.7,24.3,M,-25.1,M,,0000*5D
$GPGSA,A,3,15,08,26,04,,,,,,,,,2.9,2.7,1.0*31
$GPRMC,223606.000,A,3748.5468,N,12217.8456,W,0.64,192.91,120712,,,A*77
$GPVTG,192.91,T,,M,0.64,N,1.2,K,A*0E
$GPGGA,223607.000,3748.5465,N,12217.8461,W,1,04,2.7,24.0,M,-25.1,M,,0000*56
$GPGSA,A,3,15,08,26,04,,,,,,,,,2.9,2.7,1.0*31
$GPRMC,223607.000,A,3748.5465,N,12217.8461,W,0.39,211.50,120712,,,A*72
$GPVTG,211.50,T,,M,0.39,N,0.7,K,A*07
$GPGGA,223608.000,3748.5462,N,12217.8466,W,1,04,2.7,24.1,M,-25.1,M,,0000*58
$GPGSA,A,3,15,08,26,04,,,,,,,,,2.9,2.7,1.0*31
$GPGSV,3,1,12,17,71,045,20,27,47,312,22,28,44,064,12,09,32,315,24*7F
$GPGSV,3,2,12,15,29,264,34,26,27,215,35,04,27,157,26,08,22,136,22*78
$GPGSV,3,3,12,01,12,040,17,02,05,184,30,12,04,279,25,51,43,156,37*7A
$GPRMC,223608.000,A,3748.5462,N,12217.8466,W,0.42,236.76,120712,,,A*70
$GPVTG,236.76,T,,M,0.42,N,0.8,K,A*05
$GPGGA,223609.000,3748.5457,N,12217.8474,W,1,04,2.7,25.1,M,-25.1,M,,0000*5D
$GPGSA,A,3,15,08,26,04,,,,,,,,,2.9,2.7,1.0*31
$GPRMC,223609.000,A,3748.5457,N,12217.8474,W,0.35,227.34,120712,,,A*72
$GPVTG,227.34,T,,M,0.35,N,0.7,K,A*0C
$GPGGA,223610.000,3748.5454,N,12217.8478,W,2,04,2.7,25.7,M,-25.1,M,,0000*5F
$GPGSA,A,3,15,08,26,04,,,,,,,,,2.9,2.7,1.0*31
$GPRMC,223610.000,A,3748.5454,N,12217.8478,W,0.19,222.98,120712,,,D*7D
$GPVTG,222.98,T,,M,0.19,N,0.4,K,D*07
$GPGGA,223611.000,3748.5448,N,12217.8483,W,2,04,2.7,27.5,M,-25.1,M,,0000*57
$GPGSA,A,3,15,08,26,04,,,,,,,,,2.9,2.7,1.0*31
$GPRMC,223611.000,A,3748.5448,N,12217.8483,W,0.21,210.41,120712,,,D*7B
$GPVTG,210.41,T,,M,0.21,N,0.4,K,D*09
$GPGGA,223612.000,3748.5441,N,12217.8486,W,2,04,2.7,29.7,M,-25.1,M,,0000*54
$GPGSA,A,3,15,08,26,04,,,,,,,,,2.9,2.7,1.0*31
$GPRMC,223612.000,A,3748.5441,N,12217.8486,W,0.45,205.84,120712,,,D*7B
$GPVTG,205.84,T,,M,0.45,N,0.8,K,D*0A
$GPGGA,223613.000,3748.5434,N,12217.8487,W,2,04,2.7,32.7,M,-25.1,M,,0000*5C
$GPGSA,A,3,15,08,26,04,,,,,,,,,2.9,2.7,1.0*31
$GPGSV,3,1,12,17,70,045,29,27,47,312,23,28,44,064,17,09,32,315,28*7F
$GPGSV,3,2,12,15,29,263,32,04,27,157,26,26,27,215,35,08,22,136,22*79
$GPGSV,3,3,12,01,12,040,17,02,05,184,30,12,04,279,20,51,43,156,39*71
$GPRMC,223613.000,A,3748.5434,N,12217.8487,W,0.72,223.14,120712,,,D*70
$GPGGA,223614.000,3748.5429,N,12217.8485,W,2,04,2.7,35.5,M,-25.1,M,,0000*50
$GPGSA,A,3,15,08,26,04,,,,,,,,,2.9,2.7,1.0*31
$GPRMC,223614.000,A,3748.5429,N,12217.8485,W,0.81,221.41,120712,,,D*77
$GPVTG,221.41,T,,M,0.81,N,1.5,K,D*01
$GPGGA,223615.000,3748.5427,N,12217.8482,W,2,04,2.7,36.9,M,-25.1,M,2.8,0000*73
$GPGSA,A,3,15,08,26,04,,,,,,,,,2.9,2.7,1.0*31
$GPRMC,223615.000,A,3748.5427,N,12217.8482,W,0.91,236.87,120712,,,D*72
$GPVTG,236.87,T,,M,0.91,N,1.7,K,D*0E
$GPGGA,223616.000,3748.5427,N,12217.8480,W,2,03,3.6,37.9,M,-25.1,M,,0000*50
$GPGSA,A,2,15,26,04,,,,,,,,,,3.7,3.6,1.0*37
$GPRMC,223616.000,A,3748.5427,N,12217.8480,W,0.58,212.49,120712,,,D*72
$GPVTG,212.49,T,,M,0.58,N,1.1,K,N*03
$GPGGA,223617.000,3748.5428,N,12217.8480,W,2,03,3.6,37.9,M,-25.1,M,,0000*5E
$GPGSA,A,2,15,26,04,,,,,,,,,,3.7,3.6,1.0*37
$GPRMC,223617.000,A,3748.5428,N,12217.8480,W,0.21,210.62,120712,,,D*79
$GPVTG,210.62,T,,M,0.21,N,0.4,K,N*02
$GPGGA,223618.000,3748.5429,N,12217.8478,W,2,03,3.6,38.7,M,-25.1,M,,0000*56
$GPGSA,A,2,15,26,04,,,,,,,,,,3.7,3.6,1.0*37
$GPGSV,3,1,12,17,70,045,23,27,47,312,25,28,44,065,22,09,32,315,23*7F
$GPGSV,3,2,12,15,29,263,37,04,27,157,26,26,27,215,35,08,22,136,*7C
$GPGSV,3,3,12,01,12,040,16,02,05,184,31,12,04,279,21,51,43,156,37*7E
$GPRMC,223618.000,A,3748.5429,N,12217.8478,W,0.36,276.88,120712,,,D*72
$GPVTG,276.88,T,,M,0.36,N,0.7,K,N*03
$GPGGA,223619.000,3748.5430,N,12217.8483,W,2,03,3.6,37.8,M,-25.1,M,,0000*5B
$GPGSA,A,2,15,26,04,,,,,,,,,,3.7,3.6,1.0*37
$GPRMC,223619.000,A,3748.5430,N,12217.8483,W,0.31,244.59,120712,,,D*75
$GPVTG,244.59,T,,M,0.31,N,0.6,K,N*08
$GPGGA,223620.000,3748.5430,N,12217.8486,W,2,03,3.6,37.5,M,-25.1,M,2.8,0000*7D
$GPGSA,A,2,15,26,04,,,,,,,,,,3.7,3.6,1.0*37
$GPRMC,223620.000,A,3748.5430,N,12217.8486,W,0.33,245.91,120712,,,D*7D
$GPVTG,245.91,T,,M,0.33,N,0.6,K,N*0F
$GPGGA,223621.000,3748.5430,N,12217.8488,W,2,03,3.6,37.3,M,-25.1,M,3.8,0000*75
$GPGSA,A,2,15,26,04,,,,,,,,,,3.7,3.6,1.0*37
$GPRMC,223621.000,A,3748.5430,N,12217.8488,W,0.30,253.38,120712,,,D*75
$GPVTG,253.38,T,,M,0.30,N,0.6,K,N*08
$GPGGA,223622.000,3748.5430,N,12217.8491,W,2,03,3.6,36.9,M,-25.1,M,,0000*50
$GPGSA,A,2,15,26,04,,,,,,,,,,3.7,3.6,1.0*37
$GPRMC,223622.000,A,3748.5430,N,12217.8491,W,0.32,252.26,120712,,,D*72
$GPVTG,252.26,T,,M,0.32,N,0.6,K,N*04
$GPGGA,223623.000,3748.5429,N,12217.8495,W,2,03,3.6,36.5,M,-25.1,M,,0000*51
$GPGSA,A,2,15,26,04,,,,,,,,,,3.7,3.6,1.0*37
$GPGSV,3,1,12,17,70,045,28,27,47,312,21,28,44,065,16,09,32,315,15*72
$GPGSV,3,2,12,15,29,263,36,04,27,157,26,26,27,215,34,08,22,136,*7C
$GPGSV,3,3,12,01,12,040,15,02,05,184,31,12,04,279,22,51,43,156,38*71
$GPRMC,223623.000,A,3748.5429,N,12217.8495,W,0.33,240.31,120712,,,D*7B
$GPVTG,240.31,T,,M,0.33,N,0.6,K,N*00
$GPGGA,223624.000,3748.5428,N,12217.8499,W,2,03,3.6,36.2,M,-25.1,M,,0000*5C
$GPGSA,A,2,15,26,04,,,,,,,,,,3.7,3.6,1.0*37
$GPRMC,223624.000,A,3748.5428,N,12217.8499,W,0.37,234.77,120712,,,D*74
$GPVTG,234.77,T,,M,0.37,N,0.7,K,N*04
$GPGGA,223625.000,3748.5426,N,12217.8502,W,2,03,3.6,35.9,M,-25.1,M,2.8,0000*7C
$GPGSA,A,2,15,26,04,,,,,,,,,,3.7,3.6,1.0*37
$GPRMC,223625.000,A,3748.5426,N,12217.8502,W,0.37,236.39,120712,,,D*70
$GPVTG,236.39,T,,M,0.37,N,0.7,K,N*0C
$GPGGA,223626.000,3748.5425,N,12217.8505,W,2,03,3.6,35.7,M,-25.1,M,,0000*51
$GPGSA,A,2,15,26,04,,,,,,,,,,3.7,3.6,1.0*37
$GPRMC,223626.000,A,3748.5425,N,12217.8505,W,0.36,229.65,120712,,,D*71
$GPVTG,229.65,T,,M,0.36,N,0.7,K,N*0A
$GPGGA,223627.000,3748.5424,N,12217.8508,W,2,03,3.6,35.5,M,-25.1,M,2.8,0000*7A
$GPGSA,A,2,15,26,04,,,,,,,,,,3.7,3.6,1.0*37
$GPRMC,223627.000,A,3748.5424,N,12217.8508,W,0.34,235.40,120712,,,D*74
$GPVTG,235.40,T,,M,0.34,N,0.6,K,N*03
$GPGGA,223628.000,3748.5422,N,12217.8510,W,2,03,3.6,35.3,M,-25.1,M,,0000*58
$GPGSA,A,2,15,26,04,,,,,,,,,,3.7,3.6,1.0*37
$GPGSV,3,1,12,17,70,045,27,27,47,312,27,28,44,065,17,09,32,315,23*7F
$GPGSV,3,2,12,15,29,263,36,04,27,157,26,26,27,215,34,08,22,136,*7C
$GPGSV,3,3,12,01,12,040,,02,05,184,31,12,04,279,21,51,43,156,39*77
$GPRMC,223628.000,A,3748.5422,N,12217.8510,W,0.41,229.32,120712,,,D*7E
$GPGGA,223629.000,3748.5421,N,12217.8513,W,2,03,3.6,35.1,M,-25.1,M,,0000*5B
$GPGSA,A,2,15,26,04,,,,,,,,,,3.7,3.6,1.0*37
$GPRMC,223629.000,A,3748.5421,N,12217.8513,W,0.33,233.88,120712,,,D*70
$GPVTG,233.88,T,,M,0.33,N,0.6,K,N*06
$GPGGA,223630.000,3748.5417,N,12217.8518,W,2,04,2.7,35.3,M,-25.1,M,,0000*58
$GPGSA,A,3,15,08,26,04,,,,,,,,,2.9,2.7,1.0*31
$GPRMC,223630.000,A,3748.5417,N,12217.8518,W,0.78,238.28,120712,,,D*78
$GPVTG,238.28,T,,M,0.78,N,1.4,K,D*01
$GPGGA,223631.000,3748.5413,N,12217.8524,W,2,04,2.7,35.6,M,-25.1,M,2.8,0000*73
$GPGSA,A,3,15,08,26,04,,,,,,,,,2.9,2.7,1.0*31
$GPRMC,223631.000,A,3748.5413,N,12217.8524,W,0.99,230.15,120712,,,D*7B
$GPVTG,230.15,T,,M,0.99,N,1.8,K,D*04
$GPGGA,223632.000,3748.5410,N,12217.8528,W,2,04,2.7,35.8,M,-25.1,M,3.8,0000*70
$GPGSA,A,3,15,08,26,04,,,,,,,,,2.9,2.7,1.0*31
$GPRMC,223632.000,A,3748.5410,N,12217.8528,W,1.13,230.86,120712,,,D*7E
$GPVTG,230.86,T,,M,1.13,N,2.1,K,D*07
$GPGGA,223633.000,3748.5407,N,12217.8533,W,2,04,2.7,36.1,M,-25.1,M,4.8,0000*70
$GPGSA,A,3,15,08,26,04,,,,,,,,,2.9,2.7,1.0*31
$GPGSV,3,1,12,17,70,045,28,27,47,312,19,28,44,065,16,09,32,315,16*7A
$GPGSV,3,2,12,15,29,263,35,04,27,157,26,26,27,215,34,08,22,136,20*7D
$GPGSV,3,3,12,01,12,040,,02,05,184,31,12,04,279,20,51,43,156,39*76
$GPRMC,223633.000,A,3748.5407,N,12217.8533,W,1.16,228.62,120712,,,D*75
$GPVTG,228.62,T,,M,1.16,N,2.1,K,D*01
$GPGGA,223634.000,3748.5404,N,12217.8537,W,2,04,2.7,36.7,M,-25.1,M,,0000*54
$GPGSA,A,3,15,08,26,04,,,,,,,,,2.9,2.7,1.0*31
$GPRMC,223634.000,A,3748.5404,N,12217.8537,W,0.72,212.07,120712,,,D*7C
$GPVTG,212.07,T,,M,0.72,N,1.3,K,D*09
$GPGGA,223635.000,3748.5399,N,12217.8542,W,2,04,2.7,37.9,M,-25.1,M,,0000*5B
$GPGSA,A,3,15,08,26,04,,,,,,,,,2.9,2.7,1.0*31
$GPRMC,223635.000,A,3748.5399,N,12217.8542,W,0.68,215.52,120712,,,D*70
$GPVTG,215.52,T,,M,0.68,N,1.3,K,D*05
$GPGGA,223636.000,3748.5395,N,12217.8550,W,2,04,2.7,40.3,M,-25.1,M,,0000*5D
$GPGSA,A,3,15,08,26,04,,,,,,,,,2.9,2.7,1.0*31
$GPRMC,223636.000,A,3748.5395,N,12217.8550,W,0.32,200.61,120712,,,D*77
$GPVTG,200.61,T,,M,0.32,N,0.6,K,D*0A
$GPGGA,223637.000,3748.5391,N,12217.8553,W,2,04,2.7,43.1,M,-25.1,M,2.8,0000*7E
$GPGSA,A,3,15,08,26,04,,,,,,,,,2.9,2.7,1.0*31
$GPRMC,223637.000,A,3748.5391,N,12217.8553,W,0.56,237.06,120712,,,D*76
$GPVTG,237.06,T,,M,0.56,N,1.0,K,D*0A
