$ADVER,3080,2.3
$GPRMC,202828.857,A,3748.8024,N,12217.8599,W,0.45,237.75,270911,,,A*71
$GPGGA,202829.857,3748.8028,N,12217.8592,W,1,04,4.0,9.9,M,-25.1,M,,0000*67
$GPGSA,A,3,02,09,12,25,,,,,,,,,5.1,4.0,3.2*3C
$GPRMC,202829.857,A,3748.8028,N,12217.8592,W,0.42,239.57,270911,,,A*7E
$GPVTG,239.57,T,,M,0.42,N,0.8,K,A*09
$GPGGA,202830.857,3748.8030,N,12217.8591,W,1,04,4.0,10.5,M,-25.1,M,,0000*51
$GPGSA,A,3,02,09,12,25,,,,,,,,,5.1,4.0,3.2*3C
$GPRMC,202830.857,A,3748.8030,N,12217.8591,W,0.33,238.19,270911,,,A*71
$GPVTG,238.19,T,,M,0.33,N,0.6,K,A*0A
$GPGGA,202832.000,3748.8031,N,12217.8590,W,1,04,4.0,10.7,M,-25.1,M,,0000*5B
$GPGSA,A,3,02,09,12,25,,,,,,,,,5.1,4.0,3.2*3C
$GPRMC,202832.000,A,3748.8031,N,12217.8590,W,0.29,244.54,270911,,,A*70
$GPVTG,244.54,T,,M,0.29,N,0.5,K,A*00
$GPGGA,202833.000,3748.8030,N,12217.8590,W,1,04,4.0,10.7,M,-25.1,M,,0000*5B
$GPGSA,A,3,02,09,12,25,,,,,,,,,5.1,4.0,3.2*3C
$GPGSV,3,1,11,02,57,176,36,09,56,240,37,27,52,218,38,12,44,314,33*71
$GPGSV,3,2,11,25,12,305,30,04,58,074,33,17,24,058,19,10,13,118,24*7B
$GPGSV,3,3,11,28,04,114,,14,02,315,22,48,00,000,31*4D
$GPRMC,202833.000,A,3748.8030,N,12217.8590,W,0.35,241.23,270911,,,A*78
$GPVTG,241.23,T,,M,0.35,N,0.6,K,A*0B
$GPGGA,202834.000,3748.8029,N,12217.8591,W,1,04,4.0,10.4,M,-25.1,M,,0000*56
$GPGSA,A,3,02,09,12,25,,,,,,,,,5.1,4.0,3.2*3C
$GPRMC,202834.000,A,3748.8029,N,12217.8591,W,0.45,239.57,270911,,,A*7D
$GPVTG,239.57,T,,M,0.45,N,0.8,K,A*0E
$GPGGA,202835.000,3748.8027,N,12217.8591,W,1,04,4.0,10.0,M,-25.1,M,,0000*5D
$GPGSA,A,3,02,09,12,25,,,,,,,,,5.1,4.0,3.2*3C
$GPRMC,202835.000,A,3748.8027,N,12217.8591,W,0.43,247.22,270911,,,A*7F
$GPVTG,247.22,T,,M,0.43,N,0.8,K,A*03
$GPGGA,202836.000,3748.8027,N,12217.8591,W,1,04,4.0,9.7,M,-25.1,M,,0000*61
$GPGSA,A,3,02,09,12,25,,,,,,,,,5.1,4.0,3.2*3C
$GPRMC,202836.000,A,3748.8027,N,12217.8591,W,0.30,246.59,270911,,,A*75
$GPVTG,246.59,T,,M,0.30,N,0.6,K,A*04
$GPGGA,202837.000,3748.8025,N,12217.8595,W,1,04,4.0,8.2,M,-25.1,M,,0000*62
$GPGSA,A,3,02,09,12,25,,,,,,,,,5.1,4.0,3.2*3C
$GPRMC,202837.000,A,3748.8025,N,12217.8595,W,0.44,259.96,270911,,,A*7C
$GPVTG,259.96,T,,M,0.44,N,0.8,K,A*04
$GPGGA,202838.000,3748.8020,N,12217.8599,W,1,04,4.0,7.8,M,-25.1,M,,0000*61
$GPGSA,A,3,02,09,12,25,,,,,,,,,5.1,4.0,3.2*3C
$GPGSV,3,1,11,02,57,176,24,09,56,240,29,27,52,218,30,12,44,314,34*72
$GPGSV,3,2,11,25,12,305,34,04,58,074,23,17,24,058,17,10,13,118,15*72
$GPGSV,3,3,11,28,04,114,,14,02,315,29,48,00,000,27*41
$GPRMC,202838.000,A,3748.8020,N,12217.8599,W,1.91,250.46,270911,,,A*77
$GPVTG,250.46,T,,M,1.91,N,3.5,K,A*07
$GPGGA,202839.000,3748.8018,N,12217.8610,W,1,04,4.0,8.9,M,-25.1,M,,0000*67
$GPGSA,A,3,02,09,12,25,,,,,,,,,5.1,4.0,3.2*3C
$GPRMC,202839.000,A,3748.8018,N,12217.8610,W,1.53,252.91,270911,,,A*79
$GPVTG,252.91,T,,M,1.53,N,2.8,K,A*0D
$GPGGA,202840.000,3748.8013,N,12217.8625,W,1,04,3.9,9.5,M,-25.1,M,,0000*67
$GPGSA,A,3,02,09,12,25,,,,,,,,,5.1,3.9,3.2*32
$GPRMC,202840.000,A,3748.8013,N,12217.8625,W,2.59,233.80,270911,,,A*74
$GPVTG,233.80,T,,M,2.59,N,4.8,K,A*05
$GPGGA,202841.000,3748.8013,N,12217.8625,W,1,04,3.9,9.9,M,-25.1,M,,0000*6A
$GPGSA,A,3,02,09,12,25,,,,,,,,,5.1,3.9,3.2*32
$GPRMC,202841.000,A,3748.8013,N,12217.8625,W,1.28,232.52,270911,,,A*7E
$GPVTG,232.52,T,,M,1.28,N,2.4,K,A*04
$GPGGA,202842.000,3748.8012,N,12217.8626,W,1,04,3.9,10.4,M,-25.1,M,,0000*5E
$GPGSA,A,3,02,09,12,25,,,,,,,,,5.1,3.9,3.2*32
$GPRMC,202842.000,A,3748.8012,N,12217.8626,W,0.17,221.97,270911,,,A*79
$GPVTG,221.97,T,,M,0.17,N,0.3,K,A*07
$GPGGA,202843.000,3748.8014,N,12217.8625,W,1,04,3.9,11.0,M,-25.1,M,,0000*5F
$GPGSA,A,3,02,09,12,25,,,,,,,,,5.1,3.9,3.2*32
$GPGSV,3,1,11,02,57,176,35,09,56,240,38,27,52,218,38,12,44,314,36*78
$GPGSV,3,2,11,25,12,305,32,04,58,074,23,17,24,058,20,10,13,118,29*7F
$GPGSV,3,3,11,28,04,114,,14,02,315,23,48,00,000,38*45
$GPRMC,202843.000,A,3748.8014,N,12217.8625,W,0.51,240.08,270911,,,A*7E
$GPGGA,202844.000,3748.8017,N,12217.8619,W,1,04,3.9,11.0,M,-25.1,M,,0000*54
$GPGSA,A,3,02,09,12,25,,,,,,,,,5.1,3.9,3.2*32
$GPRMC,202844.000,A,3748.8017,N,12217.8619,W,0.36,260.49,270911,,,A*73
$GPVTG,260.49,T,,M,0.36,N,0.7,K,A*06
$GPGGA,202845.000,3748.8018,N,12217.8616,W,1,04,3.9,11.2,M,-25.1,M,,0000*57
$GPGSA,A,3,02,09,12,25,,,,,,,,,5.1,3.9,3.2*32
$GPRMC,202845.000,A,3748.8018,N,12217.8616,W,0.24,256.25,270911,,,A*7E
$GPVTG,256.25,T,,M,0.24,N,0.4,K,A*09
$GPGGA,202846.000,3748.8019,N,12217.8613,W,1,04,3.9,11.2,M,-25.1,M,,0000*50
$GPGSA,A,3,02,09,12,25,,,,,,,,,5.1,3.9,3.2*32
$GPRMC,202846.000,A,3748.8019,N,12217.8613,W,0.37,239.34,270911,,,A*72
$GPVTG,239.34,T,,M,0.37,N,0.7,K,A*01
$GPGGA,202847.000,3748.8020,N,12217.8610,W,1,04,3.9,11.2,M,-25.1,M,,0000*58
$GPGSA,A,3,02,09,12,25,,,,,,,,,5.1,3.9,3.2*32
$GPRMC,202847.000,A,3748.8020,N,12217.8610,W,0.40,235.51,270911,,,A*75
$GPVTG,235.51,T,,M,0.40,N,0.7,K,A*0E
$GPGGA,202848.000,3748.8021,N,12217.8608,W,1,04,3.9,11.3,M,-25.1,M,,0000*5E
$GPGSA,A,3,02,09,12,25,,,,,,,,,5.1,3.9,3.2*32
$GPGSV,3,1,11,04,58,074,27,02,57,176,34,09,56,240,39,27,51,218,37*7B
$GPGSV,3,2,11,12,44,314,36,17,24,058,,10,13,118,23,25,12,305,35*7B
$GPGSV,3,3,11,28,04,114,,14,02,315,32,48,44,197,34*46
$GPRMC,202848.000,A,3748.8021,N,12217.8608,W,0.30,265.49,270911,,,A*79
$GPVTG,265.49,T,,M,0.30,N,0.6,K,A*04
$GPGGA,202849.000,3748.8022,N,12217.8607,W,1,04,3.9,11.4,M,-25.1,M,,0000*54
$GPGSA,A,3,02,09,12,25,,,,,,,,,5.1,3.9,3.2*32
$GPRMC,202849.000,A,3748.8022,N,12217.8607,W,0.25,248.28,270911,,,A*78
$GPVTG,248.28,T,,M,0.25,N,0.5,K,A*0B
$GPGGA,202850.000,3748.8022,N,12217.8606,W,1,04,3.9,11.6,M,-25.1,M,,0000*5F
$GPGSA,A,3,02,09,12,25,,,,,,,,,5.1,3.9,3.2*32
$GPRMC,202850.000,A,3748.8022,N,12217.8606,W,0.32,243.82,270911,,,A*7C
$GPVTG,243.82,T,,M,0.32,N,0.6,K,A*05
$GPGGA,202851.000,3748.8023,N,12217.8605,W,1,04,3.9,11.7,M,-25.1,M,,0000*5D
$GPGSA,A,3,02,09,12,25,,,,,,,,,5.1,3.9,3.2*32
$GPRMC,202851.000,A,3748.8023,N,12217.8605,W,0.28,237.38,270911,,,A*76
$GPVTG,237.38,T,,M,0.28,N,0.5,K,A*0F
$GPGGA,202852.000,3748.8023,N,12217.8603,W,1,04,3.9,11.8,M,-25.1,M,,0000*57
$GPGSA,A,3,02,09,12,25,,,,,,,,,5.1,3.9,3.2*32
$GPRMC,202852.000,A,3748.8023,N,12217.8603,W,0.26,217.64,270911,,,A*76
$GPVTG,217.64,T,,M,0.26,N,0.5,K,A*0A
$GPGGA,202853.000,3748.8023,N,12217.8602,W,1,04,3.9,11.8,M,-25.1,M,,0000*57
$GPGSA,A,3,02,09,12,25,,,,,,,,,5.1,3.9,3.2*32
$GPGSV,3,1,11,04,58,074,22,02,57,176,33,09,56,240,38,27,51,218,36*79
$GPGSV,3,2,11,12,44,314,37,17,24,058,,10,13,118,24,25,12,305,39*71
$GPGSV,3,3,11,28,04,114,,14,02,315,32,48,44,197,33*41
$GPRMC,202853.000,A,3748.8023,N,12217.8602,W,0.26,232.76,270911,,,A*72
$GPVTG,232.76,T,,M,0.26,N,0.5,K,A*0E
$GPGGA,202854.000,3748.8023,N,12217.8601,W,1,04,3.9,11.8,M,-25.1,M,,0000*53
$GPGSA,A,3,02,09,12,25,,,,,,,,,5.1,3.9,3.2*32
$GPRMC,202854.000,A,3748.8023,N,12217.8601,W,0.33,233.10,270911,,,A*73
$GPVTG,233.10,T,,M,0.33,N,0.6,K,A*08
$GPGGA,202855.000,3748.8023,N,12217.8600,W,1,04,3.9,11.8,M,-25.1,M,,0000*53
$GPGSA,A,3,02,09,12,25,,,,,,,,,5.1,3.9,3.2*32
$GPRMC,202855.000,A,3748.8023,N,12217.8600,W,0.27,224.38,270911,,,A*7A
$GPVTG,224.38,T,,M,0.27,N,0.5,K,A*02
$GPGGA,202856.000,3748.8024,N,12217.8598,W,1,04,3.9,11.8,M,-25.1,M,,0000*55
$GPGSA,A,3,02,09,12,25,,,,,,,,,5.1,3.9,3.2*32
$GPRMC,202856.000,A,3748.8024,N,12217.8598,W,0.27,238.42,270911,,,A*7C
$GPVTG,238.42,T,,M,0.27,N,0.5,K,A*02
$GPGGA,202857.000,3748.8024,N,12217.8597,W,1,04,3.9,11.9,M,-25.1,M,,0000*5A
$GPGSA,A,3,02,09,12,25,,,,,,,,,5.1,3.9,3.2*32
$GPRMC,202857.000,A,3748.8024,N,12217.8597,W,0.22,242.87,270911,,,A*73
$GPVTG,242.87,T,,M,0.22,N,0.4,K,A*02
$GPGGA,202858.000,3748.8024,N,12217.8596,W,1,04,3.9,11.8,M,-25.1,M,,0000*55
$GPGSA,A,3,02,09,12,25,,,,,,,,,5.1,3.9,3.2*32
$GPGSV,3,1,11,04,58,074,26,02,57,176,30,09,56,240,36,27,51,218,36*70
$GPGSV,3,2,11,12,44,314,37,17,24,058,26,10,13,118,24,25,12,305,38*74
$GPGSV,3,3,11,28,04,114,,14,02,315,29,48,44,197,31*49
$GPRMC,202858.000,A,3748.8024,N,12217.8596,W,0.30,235.59,270911,,,A*7D
$GPGGA,202859.000,3748.8024,N,12217.8595,W,1,04,3.9,11.9,M,-25.1,M,,0000*56
$GPGSA,A,3,02,09,12,25,,,,,,,,,5.1,3.9,3.2*32
$GPRMC,202859.000,A,3748.8024,N,12217.8595,W,0.32,240.52,270911,,,A*74
$GPVTG,240.52,T,,M,0.32,N,0.6,K,A*0B
$GPGGA,202900.000,3748.8026,N,12217.8594,W,1,04,3.9,12.2,M,-25.1,M,,0000*50
$GPGSA,A,3,02,09,12,25,,,,,,,,,5.1,3.9,3.2*32
$GPRMC,202900.000,A,3748.8026,N,12217.8594,W,0.35,250.20,270911,,,A*79
$GPVTG,250.20,T,,M,0.35,N,0.7,K,A*09
$GPGGA,202901.000,3748.8028,N,12217.8593,W,1,04,3.9,12.6,M,-25.1,M,,0000*5C
$GPGSA,A,3,02,09,12,25,,,,,,,,,5.1,3.9,3.2*32
$GPRMC,202901.000,A,3748.8028,N,12217.8593,W,0.28,220.86,270911,,,A*76
$GPVTG,220.86,T,,M,0.28,N,0.5,K,A*0C
$GPGGA,202902.000,3748.8029,N,12217.8591,W,1,04,3.9,12.9,M,-25.1,M,,0000*53
$GPGSA,A,3,02,09,12,25,,,,,,,,,5.1,3.9,3.2*32
$GPRMC,202902.000,A,3748.8029,N,12217.8591,W,0.32,233.64,270911,,,A*73
$GPVTG,233.64,T,,M,0.32,N,0.6,K,A*0A
$GPGGA,202903.000,3748.8031,N,12217.8590,W,1,04,3.9,13.2,M,-25.1,M,,0000*50
$GPGSA,A,3,02,09,12,25,,,,,,,,,5.1,3.9,3.2*32
$GPGSV,3,1,11,04,58,074,30,02,57,176,36,09,56,240,39,27,51,218,37*7F
$GPGSV,3,2,11,12,44,314,38,17,24,058,26,10,13,118,21,25,12,305,38*7E
$GPGSV,3,3,11,28,04,114,,14,02,315,34,48,44,197,37*43
$GPRMC,202903.000,A,3748.8031,N,12217.8590,W,0.26,267.01,270911,,,A*7D
$GPVTG,267.01,T,,M,0.26,N,0.5,K,A*0E
$GPGGA,202904.000,3748.8031,N,12217.8590,W,1,04,3.9,13.5,M,-25.1,M,,0000*50
$GPGSA,A,3,02,09,12,25,,,,,,,,,5.1,3.9,3.2*32
$GPRMC,202904.000,A,3748.8031,N,12217.8590,W,0.41,231.82,270911,,,A*73
$GPVTG,231.82,T,,M,0.41,N,0.8,K,A*0A
$GPGGA,202905.000,3748.8032,N,12217.8590,W,1,04,3.9,13.6,M,-25.1,M,,0000*51
$GPGSA,A,3,02,09,12,25,,,,,,,,,5.1,3.9,3.2*32
$GPRMC,202905.000,A,3748.8032,N,12217.8590,W,0.35,236.46,270911,,,A*7D
$GPVTG,236.46,T,,M,0.35,N,0.7,K,A*09
$GPGGA,202906.000,3748.8031,N,12217.8590,W,1,04,3.9,13.7,M,-25.1,M,,0000*50
$GPGSA,A,3,02,09,12,25,,,,,,,,,5.1,3.9,3.2*32
$GPRMC,202906.000,A,3748.8031,N,12217.8590,W,0.36,241.67,270911,,,A*7D
$GPVTG,241.67,T,,M,0.36,N,0.7,K,A*09
$GPGGA,202907.000,3748.8031,N,12217.8590,W,1,04,3.9,13.8,M,-25.1,M,,0000*5E
$GPGSA,A,3,02,09,12,25,,,,,,,,,5.1,3.9,3.2*32
$GPRMC,202907.000,A,3748.8031,N,12217.8590,W,0.37,238.90,270911,,,A*7B
$GPVTG,238.90,T,,M,0.37,N,0.7,K,A*0E
$GPGGA,202908.000,3748.8031,N,12217.8590,W,1,04,3.9,13.8,M,-25.1,M,,0000*51
$GPGSA,A,3,02,09,12,25,,,,,,,,,5.1,3.9,3.2*32
$GPGSV,3,1,11,04,58,074,24,02,57,176,31,09,56,240,39,27,51,218,37*7D
$GPGSV,3,2,11,12,44,314,39,17,24,058,18,10,13,118,25,25,12,305,39*77
$GPGSV,3,3,11,28,04,114,,14,02,315,34,48,44,197,35*41
$GPRMC,202908.000,A,3748.8031,N,12217.8590,W,0.40,242.24,270911,,,A*76
$GPVTG,242.24,T,,M,0.40,N,0.7,K,A*0C
$GPGGA,202909.000,3748.8031,N,12217.8590,W,1,04,3.9,13.8,M,-25.1,M,,0000*50
$GPGSA,A,3,02,09,12,25,,,,,,,,,5.1,3.9,3.2*32
$GPRMC,202909.000,A,3748.8031,N,12217.8590,W,0.31,239.60,270911,,,A*7D
$GPVTG,239.60,T,,M,0.31,N,0.6,K,A*07
$GPGGA,202910.000,3748.8031,N,12217.8590,W,1,04,3.9,13.8,M,-25.1,M,,0000*58
$GPGSA,A,3,02,09,12,25,,,,,,,,,5.1,3.9,3.2*32
$GPRMC,202910.000,A,3748.8031,N,12217.8590,W,0.34,238.32,270911,,,A*76
$GPVTG,238.32,T,,M,0.34,N,0.6,K,A*04
$GPGGA,202911.000,3748.8030,N,12217.8590,W,1,04,3.9,13.8,M,-25.1,M,,0000*58
$GPGSA,A,3,02,09,12,25,,,,,,,,,5.1,3.9,3.2*32
$GPRMC,202911.000,A,3748.8030,N,12217.8590,W,0.37,241.67,270911,,,A*7B
$GPVTG,241.67,T,,M,0.37,N,0.7,K,A*08
$GPGGA,202912.000,3748.8030,N,12217.8590,W,1,04,3.9,13.8,M,-25.1,M,,0000*5B
$GPGSA,A,3,02,09,12,25,,,,,,,,,5.1,3.9,3.2*32
$GPRMC,202912.000,A,3748.8030,N,12217.8590,W,0.37,225.87,270911,,,A*74
$GPVTG,225.87,T,,M,0.37,N,0.7,K,A*04
$GPGGA,202913.000,3748.8029,N,12217.8590,W,1,04,3.9,13.8,M,-25.1,M,,0000*52
$GPGSA,A,3,02,09,12,25,,,,,,,,,5.1,3.9,3.2*32
$GPGSV,3,1,11,04,58,074,30,02,57,176,33,09,56,240,39,27,51,218,37*7A
$GPGSV,3,2,11,12,44,314,40,17,24,058,26,10,13,118,25,25,12,305,40*7A
$GPGSV,3,3,11,28,04,114,,14,02,315,34,48,44,197,37*43
$GPRMC,202913.000,A,3748.8029,N,12217.8590,W,0.46,214.24,270911,,,A*70
$GPVTG,214.24,T,,M,0.46,N,0.8,K,A*06
$GPGGA,202914.000,3748.8029,N,12217.8589,W,1,04,3.9,13.8,M,-25.1,M,,0000*5D
$GPGSA,A,3,02,09,12,25,,,,,,,,,5.1,3.9,3.2*32
$GPRMC,202914.000,A,3748.8029,N,12217.8589,W,0.32,230.90,270911,,,A*75
$GPVTG,230.90,T,,M,0.32,N,0.6,K,A*02
$GPGGA,202915.000,3748.8028,N,12217.8589,W,1,04,3.9,13.8,M,-25.1,M,,0000*5D
$GPGSA,A,3,02,09,12,25,,,,,,,,,5.1,3.9,3.2*32
$GPRMC,202915.000,A,3748.8028,N,12217.8589,W,0.32,203.05,270911,,,A*79
$GPVTG,203.05,T,,M,0.32,N,0.6,K,A*0E
$GPGGA,202916.000,3748.8028,N,12217.8590,W,1,04,3.9,13.9,M,-25.1,M,,0000*57
$GPGSA,A,3,02,09,12,25,,,,,,,,,5.1,3.9,3.2*32
$GPRMC,202916.000,A,3748.8028,N,12217.8590,W,0.37,267.79,270911,,,A*7E
$GPVTG,267.79,T,,M,0.37,N,0.7,K,A*03
$GPGGA,202917.000,3748.8028,N,12217.8592,W,1,04,3.9,14.0,M,-25.1,M,,0000*5A
$GPGSA,A,3,02,09,12,25,,,,,,,,,5.1,3.9,3.2*32
$GPRMC,202917.000,A,3748.8028,N,12217.8592,W,0.74,275.00,270911,,,A*77
$GPVTG,275.00,T,,M,0.74,N,1.4,K,A*0B
$GPGGA,202918.000,3748.8028,N,12217.8593,W,1,04,3.9,13.9,M,-25.1,M,,0000*5A
$GPGSA,A,3,02,09,12,25,,,,,,,,,5.1,3.9,3.2*32
$GPGSV,3,1,11,04,58,074,21,02,57,176,26,09,56,240,32,27,51,218,30*72
$GPGSV,3,2,11,12,44,315,35,17,24,058,23,10,13,118,22,25,12,305,36*7A
$GPGSV,3,3,11,28,03,114,,14,02,314,25,48,44,197,33*41
$GPWPL,3748.8028,N,12217.8593,W,00001*62
$ADPMB,5,0
$GPRMC,202918.000,A,3748.8028,N,12217.8593,W,0.99,276.54,270911,,,A*78
$GPVTG,276.54,T,,M,0.99,N,1.8,K,A*06
$GPGGA,202919.000,3748.8028,N,12217.8590,W,1,04,3.9,13.7,M,-25.1,M,,0000*56
$GPGSA,A,3,02,09,12,25,,,,,,,,,5.1,3.9,3.2*32
$GPRMC,202919.000,A,3748.8028,N,12217.8590,W,0.15,38.17,270911,,,A*41
$GPVTG,38.17,T,,M,0.15,N,0.3,K,A*37
$GPGGA,202920.000,3748.8029,N,12217.8589,W,1,04,3.9,13.8,M,-25.1,M,,0000*5A
$GPGSA,A,3,02,09,12,25,,,,,,,,,5.1,3.9,3.2*32
$GPRMC,202920.000,A,3748.8029,N,12217.8589,W,0.09,238.71,270911,,,A*7D
$GPVTG,238.71,T,,M,0.09,N,0.2,K,A*09
$GPGGA,202921.000,3748.8029,N,12217.8588,W,1,04,3.9,13.7,M,-25.1,M,,0000*55
$GPGSA,A,3,02,09,12,25,,,,,,,,,5.1,3.9,3.2*32
$GPRMC,202921.000,A,3748.8029,N,12217.8588,W,0.12,266.39,270911,,,A*70
$GPVTG,266.39,T,,M,0.12,N,0.2,K,A*04
$GPGGA,202922.000,3748.8028,N,12217.8588,W,1,04,3.9,13.5,M,-25.1,M,,0000*55
$GPGSA,A,3,02,09,12,25,,,,,,,,,5.1,3.9,3.2*32
$GPRMC,202922.000,A,3748.8028,N,12217.8588,W,0.25,229.76,270911,,,A*76
$GPVTG,229.76,T,,M,0.25,N,0.5,K,A*07
$GPGGA,202923.000,3748.8027,N,12217.8588,W,1,04,3.9,13.4,M,-25.1,M,,0000*5A
$GPGSA,A,3,02,09,12,25,,,,,,,,,5.1,3.9,3.2*32
$GPGSV,3,1,11,04,58,074,12,02,57,176,36,09,56,240,36,27,51,218,34*73
$GPGSV,3,2,11,12,44,315,38,17,24,058,22,10,13,118,23,25,12,305,43*75
$GPGSV,3,3,11,28,03,114,,14,02,314,31,48,44,197,37*40
$GPRMC,202923.000,A,3748.8027,N,12217.8588,W,0.28,233.45,270911,,,A*7E
$GPVTG,233.45,T,,M,0.28,N,0.5,K,A*01
$GPGGA,202924.000,3748.8026,N,12217.8588,W,1,04,3.9,13.3,M,-25.1,M,,0000*5B
$GPGSA,A,3,02,09,12,25,,,,,,,,,5.1,3.9,3.2*32
$GPRMC,202924.000,A,3748.8026,N,12217.8588,W,0.35,225.40,270911,,,A*76
$GPVTG,225.40,T,,M,0.35,N,0.6,K,A*0C
$GPGGA,202925.000,3748.8026,N,12217.8589,W,1,04,3.9,13.3,M,-25.1,M,,0000*5B
$GPGSA,A,3,02,09,12,25,,,,,,,,,5.1,3.9,3.2*32
$GPRMC,202925.000,A,3748.8026,N,12217.8589,W,0.30,232.47,270911,,,A*72
$GPVTG,232.47,T,,M,0.30,N,0.6,K,A*08
$GPGGA,202926.000,3748.8025,N,12217.8589,W,1,04,3.9,13.3,M,-25.1,M,,0000*5B
$GPGSA,A,3,02,09,12,25,,,,,,,,,5.1,3.9,3.2*32
$GPRMC,202926.000,A,3748.8025,N,12217.8589,W,0.37,252.35,270911,,,A*76
$GPVTG,252.35,T,,M,0.37,N,0.7,K,A*0D
$GPGGA,202927.000,3748.8025,N,12217.8590,W,1,04,3.9,13.3,M,-25.1,M,,0000*52
$GPGSA,A,3,02,09,12,25,,,,,,,,,5.1,3.9,3.2*32
$GPRMC,202927.000,A,3748.8025,N,12217.8590,W,0.29,231.26,270911,,,A*77
$GPVTG,231.26,T,,M,0.29,N,0.5,K,A*07
$GPGGA,202928.000,3748.8025,N,12217.8590,W,1,04,3.9,13.3,M,-25.1,M,,0000*5D
$GPGSA,A,3,02,09,12,25,,,,,,,,,5.1,3.9,3.2*32
$GPGSV,3,1,11,04,58,074,22,02,57,176,34,09,56,240,36,27,51,218,35*73
$GPGSV,3,2,11,12,44,315,37,17,24,058,24,10,13,118,19,25,12,305,43*75
$GPGSV,3,3,11,28,03,114,,14,02,314,31,48,44,197,34*43
$GPRMC,202928.000,A,3748.8025,N,12217.8590,W,0.31,208.43,270911,,,A*78
$GPGGA,202929.000,3748.8024,N,12217.8591,W,1,04,3.9,13.4,M,-25.1,M,,0000*5B
$GPGSA,A,3,02,09,12,25,,,,,,,,,5.1,3.9,3.2*32
$GPRMC,202929.000,A,3748.8024,N,12217.8591,W,0.33,218.28,270911,,,A*77
$GPVTG,218.28,T,,M,0.33,N,0.6,K,A*0A
$GPGGA,202930.000,3748.8024,N,12217.8591,W,1,04,3.9,13.5,M,-25.1,M,,0000*52
$GPGSA,A,3,02,09,12,25,,,,,,,,,5.1,3.9,3.2*32
$GPRMC,202930.000,A,3748.8024,N,12217.8591,W,0.31,228.51,270911,,,A*70
$GPVTG,228.51,T,,M,0.31,N,0.6,K,A*05
$GPGGA,202931.000,3748.8023,N,12217.8595,W,2,04,3.9,13.6,M,-25.1,M,,0000*50
$GPGSA,A,3,02,09,12,25,,,,,,,,,5.1,3.9,3.2*32
$GPRMC,202931.000,A,3748.8023,N,12217.8595,W,0.29,249.99,270911,,,D*7D
$GPVTG,249.99,T,,M,0.29,N,0.5,K,D*09
$GPGGA,202932.000,3748.8022,N,12217.8597,W,2,04,3.9,13.8,M,-25.1,M,2.8,0000*7A
$GPGSA,A,3,02,09,12,25,,,,,,,,,5.1,3.9,3.2*32
$GPRMC,202932.000,A,3748.8022,N,12217.8597,W,0.35,239.09,270911,,,D*7E
$GPVTG,239.09,T,,M,0.35,N,0.7,K,D*08
$GPGGA,202933.000,3748.8021,N,12217.8600,W,2,04,3.9,14.0,M,-25.1,M,,0000*5E
$GPGSA,A,3,02,09,12,25,,,,,,,,,5.1,3.9,3.2*32
$GPGSV,3,1,11,04,58,074,27,02,57,176,34,09,56,240,36,27,51,218,35*76
$GPGSV,3,2,11,12,44,315,37,17,24,058,17,10,13,118,27,25,12,305,42*79
$GPGSV,3,3,11,28,03,114,,14,02,314,31,48,44,197,37*40
$GPRMC,202933.000,A,3748.8021,N,12217.8600,W,0.38,245.08,270911,,,D*76
$GPVTG,245.08,T,,M,0.38,N,0.7,K,D*0F
$GPGGA,202934.000,3748.8020,N,12217.8602,W,2,04,3.9,14.1,M,-25.1,M,,0000*5B
$GPGSA,A,3,02,09,12,25,,,,,,,,,5.1,3.9,3.2*32
$GPRMC,202934.000,A,3748.8020,N,12217.8602,W,0.43,236.19,270911,,,D*7A
$GPVTG,236.19,T,,M,0.43,N,0.8,K,D*08
$GPGGA,202935.000,3748.8019,N,12217.8604,W,2,04,3.9,14.1,M,-25.1,M,,0000*56
$GPGSA,A,3,02,09,12,25,,,,,,,,,5.1,3.9,3.2*32
$GPRMC,202935.000,A,3748.8019,N,12217.8604,W,0.40,238.81,270911,,,D*7B
$GPVTG,238.81,T,,M,0.40,N,0.7,K,D*0B
$GPGGA,202936.000,3748.8018,N,12217.8606,W,2,04,3.9,14.2,M,-25.1,M,0.8,0000*73
$GPGSA,A,3,02,09,12,25,,,,,,,,,5.1,3.9,3.2*32
$GPRMC,202936.000,A,3748.8018,N,12217.8606,W,0.38,239.00,270911,,,D*7C
$GPVTG,239.00,T,,M,0.38,N,0.7,K,D*0C
$GPGGA,202937.000,3748.8017,N,12217.8607,W,2,04,3.9,14.3,M,-25.1,M,1.8,0000*7C
$GPGSA,A,3,02,09,12,25,,,,,,,,,5.1,3.9,3.2*32
$GPRMC,202937.000,A,3748.8017,N,12217.8607,W,0.42,238.90,270911,,,D*76
$GPVTG,238.90,T,,M,0.42,N,0.8,K,D*06
$GPGGA,202938.000,3748.8017,N,12217.8608,W,2,04,3.9,14.4,M,-25.1,M,2.8,0000*78
$GPGSA,A,3,02,09,12,25,,,,,,,,,5.1,3.9,3.2*32
$GPGSV,3,1,11,04,58,074,26,02,58,176,34,09,56,240,37,27,51,217,36*75
$GPGSV,3,2,11,12,44,315,38,17,24,058,20,10,13,118,27,25,12,305,41*71
$GPGSV,3,3,11,28,03,115,,14,02,314,31,48,44,197,37*41
$GPRMC,202938.000,A,3748.8017,N,12217.8608,W,0.39,240.04,270911,,,D*78
$GPVTG,240.04,T,,M,0.39,N,0.7,K,D*07
$GPGGA,202939.000,3748.8016,N,12217.8609,W,2,04,3.9,14.5,M,-25.1,M,1.8,0000*7B
$GPGSA,A,3,02,09,12,25,,,,,,,,,5.1,3.9,3.2*32
$GPRMC,202939.000,A,3748.8016,N,12217.8609,W,0.41,245.13,270911,,,D*75
$GPVTG,245.13,T,,M,0.41,N,0.8,K,D*04
$GPGGA,202940.000,3748.8016,N,12217.8610,W,2,04,3.9,14.6,M,-25.1,M,1.8,0000*7E
$GPGSA,A,3,02,09,12,25,,,,,,,,,5.1,3.9,3.2*32
$GPRMC,202940.000,A,3748.8016,N,12217.8610,W,0.42,229.22,270911,,,D*78
$GPVTG,229.22,T,,M,0.42,N,0.8,K,D*0F
$GPGGA,202941.000,3748.8015,N,12217.8611,W,2,04,3.9,14.7,M,-25.1,M,1.8,0000*7C
$GPGSA,A,3,02,09,12,25,,,,,,,,,5.1,3.9,3.2*32
$GPRMC,202941.000,A,3748.8015,N,12217.8611,W,0.43,232.50,270911,,,D*75
$GPVTG,232.50,T,,M,0.43,N,0.8,K,D*01
$GPGGA,202942.000,3748.8015,N,12217.8612,W,2,04,3.9,14.8,M,-25.1,M,2.8,0000*70
$GPGSA,A,3,02,09,12,25,,,,,,,,,5.1,3.9,3.2*32
$GPRMC,202942.000,A,3748.8015,N,12217.8612,W,0.43,230.59,270911,,,D*7E
$GPVTG,230.59,T,,M,0.43,N,0.8,K,D*0A
$GPGGA,202943.000,3748.8014,N,12217.8612,W,2,04,3.9,14.8,M,-25.1,M,3.8,0000*71
$GPGSA,A,3,02,09,12,25,,,,,,,,,5.1,3.9,3.2*32
$GPGSV,3,1,11,04,58,074,27,02,58,176,33,09,56,240,38,27,51,217,36*7C
$GPGSV,3,2,11,12,44,315,39,17,24,058,23,10,13,118,27,25,12,305,41*73
$GPGSV,3,3,11,28,03,115,,14,02,314,30,48,44,197,37*40
$GPRMC,202943.000,A,3748.8014,N,12217.8612,W,0.45,233.74,270911,,,D*74
$GPGGA,202944.000,3748.8014,N,12217.8612,W,2,04,3.9,14.9,M,-25.1,M,4.8,0000*70
$GPGSA,A,3,02,09,12,25,,,,,,,,,5.1,3.9,3.2*32
$GPRMC,202944.000,A,3748.8014,N,12217.8612,W,0.46,226.93,270911,,,D*7D
$GPVTG,226.93,T,,M,0.46,N,0.8,K,D*0E
$GPGGA,202945.000,3748.8013,N,12217.8612,W,2,04,3.9,14.9,M,-25.1,M,1.8,0000*73
$GPGSA,A,3,02,09,12,25,,,,,,,,,5.1,3.9,3.2*32
$GPRMC,202945.000,A,3748.8013,N,12217.8612,W,0.39,232.75,270911,,,D*7E
$GPVTG,232.75,T,,M,0.39,N,0.7,K,D*04
$GPGGA,202946.000,3748.8013,N,12217.8611,W,2,04,3.9,15.0,M,-25.1,M,1.8,0000*7B
$GPGSA,A,3,02,09,12,25,,,,,,,,,5.1,3.9,3.2*32
$GPRMC,202946.000,A,3748.8013,N,12217.8611,W,0.24,240.18,270911,,,D*7C
$GPVTG,240.18,T,,M,0.24,N,0.4,K,D*05
$GPGGA,202947.000,3748.8013,N,12217.8611,W,2,04,3.9,15.0,M,-25.1,M,1.8,0000*7A
$GPGSA,A,3,02,09,12,25,,,,,,,,,5.1,3.9,3.2*32
$GPRMC,202947.000,A,3748.8013,N,12217.8611,W,0.31,243.93,270911,,,D*79
$GPVTG,243.93,T,,M,0.31,N,0.6,K,D*03
$GPGGA,202948.000,3748.8013,N,12217.8610,W,2,04,3.9,15.0,M,-25.1,M,1.8,0000*74
$GPGSA,A,3,02,09,12,25,,,,,,,,,5.1,3.9,3.2*32
$GPGSV,3,1,11,04,58,073,21,02,58,176,33,09,56,239,38,27,51,217,36*73
$GPGSV,3,2,11,12,44,315,40,17,24,058,24,10,13,118,27,25,12,305,41*7A
$GPGSV,3,3,11,28,03,115,,14,02,314,26,48,44,197,37*47
$GPRMC,202948.000,A,3748.8013,N,12217.8610,W,0.32,234.36,270911,,,D*7B
$GPVTG,234.36,T,,M,0.32,N,0.6,K,D*0F
$GPGGA,202949.000,3748.8013,N,12217.8610,W,2,04,3.9,14.9,M,-25.1,M,1.8,0000*7D
$GPGSA,A,3,02,09,12,25,,,,,,,,,5.1,3.9,3.2*32
$GPRMC,202949.000,A,3748.8013,N,12217.8610,W,0.55,252.24,270911,,,D*78
$GPVTG,252.24,T,,M,0.55,N,1.0,K,D*0A
$GPGGA,202950.000,3748.8013,N,12217.8610,W,2,04,3.9,14.9,M,-25.1,M,1.8,0000*75
$GPGSA,A,3,02,09,12,25,,,,,,,,,5.1,3.9,3.2*32
$GPRMC,202950.000,A,3748.8013,N,12217.8610,W,0.40,220.25,270911,,,D*70
$GPVTG,220.25,T,,M,0.40,N,0.7,K,D*0C
$GPGGA,202951.000,3748.8014,N,12217.8609,W,2,04,3.9,14.9,M,-25.1,M,1.8,0000*7B
$GPGSA,A,3,02,09,12,25,,,,,,,,,5.1,3.9,3.2*32
$GPRMC,202951.000,A,3748.8014,N,12217.8609,W,0.15,285.60,270911,,,D*70
$GPVTG,285.60,T,,M,0.15,N,0.3,K,D*06
$GPGGA,202952.000,3748.8013,N,12217.8608,W,2,04,3.9,15.0,M,-25.1,M,1.8,0000*76
$GPGSA,A,3,02,09,12,25,,,,,,,,,5.1,3.9,3.3*33
$GPRMC,202952.000,A,3748.8013,N,12217.8608,W,0.31,191.15,270911,,,D*77
$GPVTG,191.15,T,,M,0.31,N,0.6,K,D*01
$GPGGA,202953.000,3748.8013,N,12217.8608,W,2,04,3.9,15.0,M,-25.1,M,1.8,0000*77
$GPGSA,A,3,02,09,12,25,,,,,,,,,5.1,3.9,3.3*33
$GPGSV,3,1,11,04,58,073,10,02,58,176,33,09,56,239,38,27,51,217,37*70
$GPGSV,3,2,11,12,44,315,39,17,24,058,22,10,13,118,23,25,12,305,41*76
$GPGSV,3,3,11,28,03,115,,14,02,314,27,48,44,197,31*40
$GPRMC,202953.000,A,3748.8013,N,12217.8608,W,0.32,204.82,270911,,,D*74
$GPVTG,204.82,T,,M,0.32,N,0.6,K,D*03
$GPGGA,202954.000,3748.8013,N,12217.8608,W,2,04,3.9,15.1,M,-25.1,M,2.8,0000*72
$GPGSA,A,3,02,09,12,25,,,,,,,,,5.1,3.9,3.3*33
$GPRMC,202954.000,A,3748.8013,N,12217.8608,W,0.27,210.10,270911,,,D*79
$GPVTG,210.10,T,,M,0.27,N,0.5,K,D*0A
$GPGGA,202955.000,3748.8012,N,12217.8607,W,2,04,3.9,15.1,M,-25.1,M,3.8,0000*7C
$GPGSA,A,3,02,09,12,25,,,,,,,,,5.1,3.9,3.3*33
$GPRMC,202955.000,A,3748.8012,N,12217.8607,W,0.28,218.85,270911,,,D*7D
$GPVTG,218.85,T,,M,0.28,N,0.5,K,D*01
$GPGGA,202956.000,3748.8012,N,12217.8607,W,2,04,3.9,15.2,M,-25.1,M,1.8,0000*7E
$GPGSA,A,3,02,09,12,25,,,,,,,,,5.1,3.9,3.3*33
$GPRMC,202956.000,A,3748.8012,N,12217.8607,W,0.26,222.44,270911,,,D*74
$GPVTG,222.44,T,,M,0.26,N,0.5,K,D*0B
$GPGGA,202957.000,3748.8011,N,12217.8607,W,2,04,3.9,15.2,M,-25.1,M,1.8,0000*7C
$GPGSA,A,3,02,09,12,25,,,,,,,,,5.1,3.9,3.3*33
$GPRMC,202957.000,A,3748.8011,N,12217.8607,W,0.40,231.16,270911,,,D*73
$GPVTG,231.16,T,,M,0.40,N,0.7,K,D*0C
$GPGGA,202958.000,3748.8011,N,12217.8607,W,2,04,3.9,15.2,M,-25.1,M,1.8,0000*73
$GPGSA,A,3,02,09,12,25,,,,,,,,,5.1,3.9,3.3*33
$GPGSV,3,1,11,04,58,073,17,02,58,176,32,09,56,239,38,27,51,217,37*76
$GPGSV,3,2,11,12,44,315,39,17,24,058,17,10,13,118,29,25,12,305,41*7A
$GPGSV,3,3,11,28,03,115,,14,02,314,28,48,44,197,36*48
$GPRMC,202958.000,A,3748.8011,N,12217.8607,W,0.33,242.06,270911,,,D*7D
$GPGGA,202959.000,3748.8011,N,12217.8607,W,2,04,3.9,15.1,M,-25.1,M,1.8,0000*71
$GPGSA,A,3,02,09,12,25,,,,,,,,,5.1,3.9,3.3*33
$GPRMC,202959.000,A,3748.8011,N,12217.8607,W,0.27,251.09,270911,,,D*74
$GPVTG,251.09,T,,M,0.27,N,0.5,K,D*07
$GPGGA,203000.000,3748.8011,N,12217.8606,W,2,04,3.9,15.1,M,-25.1,M,2.8,0000*77
$GPGSA,A,3,02,09,12,25,,,,,,,,,5.1,3.9,3.3*33
$GPRMC,203000.000,A,3748.8011,N,12217.8606,W,0.33,221.89,270911,,,D*7B
$GPVTG,221.89,T,,M,0.33,N,0.6,K,D*0E
$GPGGA,203001.000,3748.8012,N,12217.8606,W,2,04,3.9,14.9,M,-25.1,M,3.8,0000*7D
$GPGSA,A,3,02,09,12,25,,,,,,,,,5.1,3.9,3.3*33
$GPRMC,203001.000,A,3748.8012,N,12217.8606,W,0.14,332.12,270911,,,D*7D
$GPVTG,332.12,T,,M,0.14,N,0.3,K,D*0F
$GPGGA,203002.000,3748.8011,N,12217.8607,W,2,04,3.9,14.7,M,-25.1,M,4.8,0000*75
$GPGSA,A,3,02,09,12,25,,,,,,,,,5.1,3.9,3.3*33
$GPRMC,203002.000,A,3748.8011,N,12217.8607,W,0.20,197.71,270911,,,D*73
$GPVTG,197.71,T,,M,0.20,N,0.4,K,D*07
$GPGGA,203003.000,3748.8011,N,12217.8606,W,2,04,3.9,14.7,M,-25.1,M,1.8,0000*70
$GPGSA,A,3,02,09,12,25,,,,,,,,,5.1,3.9,3.3*33
$GPGSV,3,1,11,04,58,073,34,02,58,176,37,09,56,239,31,27,51,217,37*7B
$GPGSV,3,2,11,12,44,315,29,17,24,058,31,10,13,118,39,25,12,305,22*7B
$GPGSV,3,3,11,28,03,115,,14,02,314,19,48,44,197,39*45
$GPRMC,203003.000,A,3748.8011,N,12217.8606,W,0.26,247.44,270911,,,D*7D
$GPVTG,247.44,T,,M,0.26,N,0.5,K,D*08
$GPGGA,203004.000,3748.8012,N,12217.8605,W,2,04,3.9,15.3,M,-25.1,M,1.8,0000*72
$GPGSA,A,3,02,09,12,25,,,,,,,,,5.1,3.9,3.3*33
$GPRMC,203004.000,A,3748.8012,N,12217.8605,W,0.22,238.48,270911,,,D*7A
$GPVTG,238.48,T,,M,0.22,N,0.4,K,D*09
$GPGGA,203005.000,3748.8012,N,12217.8605,W,2,04,3.9,15.6,M,-25.1,M,1.8,0000*76
$GPGSA,A,3,02,09,12,25,,,,,,,,,5.1,3.9,3.3*33
$GPRMC,203005.000,A,3748.8012,N,12217.8605,W,0.20,242.92,270911,,,D*73
$GPVTG,242.92,T,,M,0.20,N,0.4,K,D*01
$GPGGA,203006.000,3748.8012,N,12217.8604,W,2,04,3.9,15.9,M,-25.1,M,2.8,0000*78
$GPGSA,A,3,02,09,12,25,,,,,,,,,5.1,3.9,3.3*33
$GPRMC,203006.000,A,3748.8012,N,12217.8604,W,0.22,212.17,270911,,,D*7B
$GPVTG,212.17,T,,M,0.22,N,0.4,K,D*0B
$GPGGA,203007.000,3748.8013,N,12217.8604,W,2,04,3.9,16.4,M,-25.1,M,3.8,0000*77
$GPGSA,A,3,02,09,12,25,,,,,,,,,5.1,3.9,3.3*33
$GPRMC,203007.000,A,3748.8013,N,12217.8604,W,0.11,185.08,270911,,,D*78
$GPVTG,185.08,T,,M,0.11,N,0.2,K,D*0E
$GPGGA,203008.000,3748.8013,N,12217.8603,W,2,04,3.9,17.2,M,-25.1,M,4.8,0000*7F
$GPGSA,A,3,02,09,12,25,,,,,,,,,5.1,3.9,3.3*33
$GPGSV,3,1,11,04,58,073,34,02,58,176,39,09,56,239,34,27,51,217,37*70
$GPGSV,3,2,11,12,44,315,29,17,24,058,32,10,13,118,37,25,12,305,24*70
$GPGSV,3,3,11,28,03,115,,14,02,314,08,48,44,197,41*4A
$GPRMC,203008.000,A,3748.8013,N,12217.8603,W,0.12,208.40,270911,,,D*79
$GPVTG,208.40,T,,M,0.12,N,0.2,K,D*07
$GPGGA,203009.000,3748.8013,N,12217.8603,W,2,04,3.9,17.2,M,-25.1,M,5.8,0000*7F
$GPGSA,A,3,02,09,12,25,,,,,,,,,5.1,3.9,3.3*33
$GPRMC,203009.000,A,3748.8013,N,12217.8603,W,0.25,255.32,270911,,,D*71
$GPVTG,255.32,T,,M,0.25,N,0.5,K,D*09
$GPGGA,203010.000,3748.8013,N,12217.8603,W,2,04,3.9,17.3,M,-25.1,M,1.8,0000*72
$GPGSA,A,3,02,09,12,25,,,,,,,,,5.1,3.9,3.3*33
$GPRMC,203010.000,A,3748.8013,N,12217.8603,W,0.23,237.25,270911,,,D*7D
$GPVTG,237.25,T,,M,0.23,N,0.4,K,D*0C
$GPGGA,203011.000,3748.8014,N,12217.8602,W,2,04,3.9,17.6,M,-25.1,M,1.8,0000*70
$GPGSA,A,3,02,09,12,25,,,,,,,,,5.1,3.9,3.3*33
$GPRMC,203011.000,A,3748.8014,N,12217.8602,W,0.27,240.49,270911,,,D*74
$GPVTG,240.49,T,,M,0.27,N,0.5,K,D*03
$GPGGA,203012.000,3748.8014,N,12217.8602,W,2,04,3.9,18.0,M,-25.1,M,2.8,0000*79
$GPGSA,A,3,02,09,12,25,,,,,,,,,5.1,3.9,3.3*33
$GPRMC,203012.000,A,3748.8014,N,12217.8602,W,0.27,235.74,270911,,,D*7B
$GPVTG,235.74,T,,M,0.27,N,0.5,K,D*0F
$GPGGA,203013.000,3748.8014,N,12217.8602,W,2,04,3.9,18.3,M,-25.1,M,3.8,0000*7A
$GPGSA,A,3,02,09,12,25,,,,,,,,,5.1,3.9,3.3*33
$GPGSV,3,1,11,04,58,073,34,02,58,176,40,09,56,239,34,27,51,217,36*7F
$GPGSV,3,2,11,12,44,315,28,17,24,058,33,10,13,118,37,25,12,305,27*73
$GPGSV,3,3,11,28,03,115,,14,02,314,,48,44,197,41*42
$GPRMC,203013.000,A,3748.8014,N,12217.8602,W,0.26,235.22,270911,,,D*78
$GPGGA,203014.000,3748.8006,N,12217.8607,W,2,04,3.9,17.5,M,-25.1,M,4.8,0000*75
$GPGSA,A,3,02,09,12,25,,,,,,,,,5.1,3.9,3.3*33
$GPRMC,203014.000,A,3748.8006,N,12217.8607,W,0.59,227.27,270911,,,D*77
$GPVTG,227.27,T,,M,0.59,N,1.1,K,D*06
$GPGGA,203015.000,3748.7999,N,12217.8612,W,2,04,3.9,16.8,M,-25.1,M,1.8,0000*79
$GPGSA,A,3,02,09,12,25,,,,,,,,,5.1,3.9,3.3*33
$GPRMC,203015.000,A,3748.7999,N,12217.8612,W,0.75,224.26,270911,,,D*7E
$GPVTG,224.26,T,,M,0.75,N,1.4,K,D*0F
$GPGGA,203016.000,3748.7997,N,12217.8615,W,2,04,3.9,16.8,M,-25.1,M,1.8,0000*73
$GPGSA,A,3,02,09,12,25,,,,,,,,,5.1,3.9,3.3*33
$GPRMC,203016.000,A,3748.7997,N,12217.8615,W,0.46,250.72,270911,,,D*76
$GPVTG,250.72,T,,M,0.46,N,0.9,K,D*01
$GPGGA,203017.000,3748.8006,N,12217.8609,W,2,04,3.9,18.4,M,-25.1,M,1.8,0000*73
$GPGSA,A,3,02,09,12,25,,,,,,,,,5.1,3.9,3.3*33
$GPRMC,203017.000,A,3748.8006,N,12217.8609,W,0.46,4.52,270911,,,D*75
$GPVTG,4.52,T,,M,0.46,N,0.8,K,D*01
$GPGGA,203018.000,3748.8003,N,12217.8612,W,2,04,3.9,18.1,M,-25.1,M,2.8,0000*75
$GPGSA,A,3,02,09,12,25,,,,,,,,,5.1,3.9,3.3*33
$GPGSV,3,1,11,02,58,176,40,04,58,073,29,09,56,239,35,27,51,217,35*71
$GPGSV,3,2,11,12,44,315,23,17,23,058,34,10,13,117,36,25,12,305,27*76
$GPGSV,3,3,11,28,03,115,27,14,02,314,21,48,44,197,41*44
$GPRMC,203018.000,A,3748.8003,N,12217.8612,W,0.31,236.28,270911,,,D*7B
$GPVTG,236.28,T,,M,0.31,N,0.6,K,D*01
$GPGGA,203019.000,3748.8001,N,12217.8614,W,2,04,3.9,18.1,M,-25.1,M,3.8,0000*71
$GPGSA,A,3,02,09,12,25,,,,,,,,,5.1,3.9,3.3*33
$GPRMC,203019.000,A,3748.8001,N,12217.8614,W,0.59,233.04,270911,,,D*7B
$GPVTG,233.04,T,,M,0.59,N,1.1,K,D*02
$GPGGA,203020.000,3748.7996,N,12217.8618,W,2,04,3.9,17.6,M,-25.1,M,4.8,0000*70
$GPGSA,A,3,02,09,12,25,,,,,,,,,5.1,3.9,3.3*33
$GPRMC,203020.000,A,3748.7996,N,12217.8618,W,0.70,233.92,270911,,,D*71
$GPVTG,233.92,T,,M,0.70,N,1.3,K,D*04
$GPGGA,203021.000,3748.7980,N,12217.8631,W,2,04,3.9,15.3,M,-25.1,M,1.8,0000*7F
$GPGSA,A,3,02,09,12,25,,,,,,,,,5.1,3.9,3.3*33
$GPRMC,203021.000,A,3748.7980,N,12217.8631,W,1.69,220.43,270911,,,D*7B
$GPVTG,220.43,T,,M,1.69,N,3.1,K,D*03
$GPGGA,203022.000,3748.7968,N,12217.8640,W,2,04,3.9,13.5,M,-25.1,M,1.8,0000*7C
$GPGSA,A,3,02,09,12,25,,,,,,,,,5.1,3.9,3.3*33
$GPRMC,203022.000,A,3748.7968,N,12217.8640,W,1.65,220.73,270911,,,D*77
$GPVTG,220.73,T,,M,1.65,N,3.0,K,D*0D
$GPGGA,203023.000,3748.7974,N,12217.8635,W,2,04,3.9,14.3,M,-25.1,M,1.8,0000*73
$GPGSA,A,3,02,09,12,25,,,,,,,,,5.1,3.9,3.3*33
$GPGSV,3,1,11,02,58,176,40,04,58,073,30,09,56,239,36,27,51,217,35*7A
$GPGSV,3,2,11,12,44,315,23,17,23,058,34,10,13,117,32,25,12,305,28*7D
$GPGSV,3,3,11,28,03,115,27,14,02,314,20,48,44,197,42*46
$GPRMC,203023.000,A,3748.7974,N,12217.8635,W,0.88,217.50,270911,,,D*7E
$GPVTG,217.50,T,,M,0.88,N,1.6,K,D*0E
$GPGGA,203024.000,3748.7979,N,12217.8631,W,2,04,3.9,15.1,M,-25.1,M,2.8,0000*7D
$GPGSA,A,3,02,09,12,25,,,,,,,,,5.1,3.9,3.3*33
$GPRMC,203024.000,A,3748.7979,N,12217.8631,W,0.31,229.91,270911,,,D*72
$GPVTG,229.91,T,,M,0.31,N,0.6,K,D*0D
$GPGGA,203025.000,3748.7977,N,12217.8632,W,2,04,3.9,14.8,M,-25.1,M,3.8,0000*78
$GPGSA,A,3,02,09,12,25,,,,,,,,,5.1,3.9,3.3*33
$GPRMC,203025.000,A,3748.7977,N,12217.8632,W,0.08,261.24,270911,,,D*76
$GPVTG,261.24,T,,M,0.08,N,0.1,K,D*02
$GPGGA,203026.000,3748.7976,N,12217.8632,W,2,04,3.9,14.7,M,-25.1,M,4.8,0000*72
$GPGSA,A,3,02,09,12,25,,,,,,,,,5.1,3.9,3.3*33
$GPRMC,203026.000,A,3748.7976,N,12217.8632,W,0.15,11.59,270911,,,D*47
$GPVTG,11.59,T,,M,0.15,N,0.3,K,D*33
$GPGGA,203027.000,3748.7985,N,12217.8626,W,2,04,3.9,16.2,M,-25.1,M,1.8,0000*78
$GPGSA,A,3,02,09,12,25,,,,,,,,,5.1,3.9,3.3*33
$GPRMC,203027.000,A,3748.7985,N,12217.8626,W,0.77,29.14,270911,,,D*49
$GPVTG,29.14,T,,M,0.77,N,1.4,K,D*33
$GPGGA,203028.000,3748.7993,N,12217.8621,W,2,04,3.9,17.6,M,-25.1,M,1.8,0000*72
$GPGSA,A,3,02,09,12,25,,,,,,,,,5.1,3.9,3.3*33
$GPGSV,3,1,11,02,58,176,40,04,58,073,30,09,56,239,36,27,51,217,35*7A
$GPGSV,3,2,11,12,44,315,22,17,23,058,35,10,13,117,33,25,12,305,27*73
$GPGSV,3,3,11,28,03,115,28,14,02,314,,48,44,197,41*48
$GPRMC,203028.000,A,3748.7993,N,12217.8621,W,1.02,29.73,270911,,,D*44
$GPGGA,203029.000,3748.7998,N,12217.8618,W,2,04,3.9,18.7,M,-25.1,M,1.8,0000*7C
$GPGSA,A,3,02,09,12,25,,,,,,,,,5.1,3.9,3.3*33
$GPRMC,203029.000,A,3748.7998,N,12217.8618,W,1.06,22.95,270911,,,D*43
$GPVTG,22.95,T,,M,1.06,N,2.0,K,D*31
$GPGGA,203030.000,3748.7995,N,12217.8621,W,2,04,3.9,18.1,M,-25.1,M,1.8,0000*75
$GPGSA,A,3,02,09,12,25,,,,,,,,,5.1,3.9,3.3*33
$GPRMC,203030.000,A,3748.7995,N,12217.8621,W,0.15,8.00,270911,,,D*7B
$GPVTG,8.00,T,,M,0.15,N,0.3,K,D*07
$GPGGA,203031.000,3748.7988,N,12217.8626,W,2,04,3.9,17.1,M,-25.1,M,2.8,0000*73
$GPGSA,A,3,02,09,12,25,,,,,,,,,5.1,3.9,3.3*33
$GPRMC,203031.000,A,3748.7988,N,12217.8626,W,0.77,219.22,270911,,,D*77
$GPVTG,219.22,T,,M,0.77,N,1.4,K,D*07
$GPGGA,203032.000,3748.7983,N,12217.8630,W,2,04,3.9,16.6,M,-25.1,M,3.8,0000*7B
$GPGSA,A,3,02,09,12,25,,,,,,,,,5.1,3.9,3.3*33
$GPRMC,203032.000,A,3748.7983,N,12217.8630,W,0.80,231.62,270911,,,D*7E
$GPVTG,231.62,T,,M,0.80,N,1.5,K,D*00
$GPGGA,203033.000,3748.7974,N,12217.8636,W,2,04,3.9,15.2,M,-25.1,M,1.8,0000*71
$GPGSA,A,3,02,09,12,25,,,,,,,,,5.1,3.9,3.3*33
$GPGSV,3,1,11,02,58,176,40,04,58,073,30,09,56,239,36,27,51,217,36*79
$GPGSV,3,2,11,12,44,315,22,17,23,058,35,10,13,117,34,25,12,305,27*74
$GPGSV,3,3,11,28,03,115,28,14,02,314,,48,44,197,41*48
$GPRMC,203033.000,A,3748.7974,N,12217.8636,W,1.38,219.25,270911,,,D*7A
$GPVTG,219.25,T,,M,1.38,N,2.5,K,D*08
$GPGGA,203034.000,3748.7966,N,12217.8642,W,2,04,3.9,13.8,M,-25.1,M,1.8,0000*7A
$GPGSA,A,3,02,09,12,25,,,,,,,,,5.1,3.9,3.3*33
$GPRMC,203034.000,A,3748.7966,N,12217.8642,W,1.12,222.01,270911,,,D*7B
$GPVTG,222.01,T,,M,1.12,N,2.1,K,D*0A
$GPGGA,203035.000,3748.7960,N,12217.8646,W,2,04,3.9,12.8,M,-25.1,M,1.8,0000*78
$GPGSA,A,3,02,09,12,25,,,,,,,,,5.1,3.9,3.3*33
$GPRMC,203035.000,A,3748.7960,N,12217.8646,W,0.92,222.40,270911,,,D*74
$GPVTG,222.40,T,,M,0.92,N,1.7,K,D*03
$GPGGA,203036.000,3748.7959,N,12217.8647,W,2,04,3.8,12.6,M,-25.1,M,1.8,0000*7F
$GPGSA,A,3,02,09,12,25,,,,,,,,,5.1,3.8,3.3*32
$GPRMC,203036.000,A,3748.7959,N,12217.8647,W,0.78,215.44,270911,,,D*78
$GPVTG,215.44,T,,M,0.78,N,1.5,K,D*05
$GPGGA,203037.000,3748.7958,N,12217.8648,W,2,04,3.8,12.5,M,-25.1,M,1.8,0000*73
$GPGSA,A,3,02,09,12,25,,,,,,,,,5.1,3.8,3.3*32
$GPRMC,203037.000,A,3748.7958,N,12217.8648,W,1.04,212.55,270911,,,D*7A
$GPVTG,212.55,T,,M,1.04,N,1.9,K,D*04
$GPGGA,203038.000,3748.7954,N,12217.8650,W,2,04,3.8,11.9,M,-25.1,M,1.8,0000*76
$GPGSA,A,3,02,09,12,25,,,,,,,,,5.1,3.8,3.3*32
$GPGSV,3,1,11,02,58,176,40,04,58,073,30,09,56,239,36,27,51,217,36*79
$GPGSV,3,2,11,12,44,315,22,17,23,058,35,10,13,117,34,25,12,305,27*74
$GPGSV,3,3,11,28,03,115,29,14,02,314,24,48,44,197,42*4C
$GPRMC,203038.000,A,3748.7954,N,12217.8650,W,1.02,214.13,270911,,,D*72
$GPVTG,214.13,T,,M,1.02,N,1.9,K,D*06
$GPGGA,203039.000,3748.7944,N,12217.8656,W,2,04,3.8,10.2,M,-25.1,M,1.8,0000*7A
$GPGSA,A,3,02,09,12,25,,,,,,,,,5.1,3.8,3.3*32
$GPRMC,203039.000,A,3748.7944,N,12217.8656,W,1.12,212.38,270911,,,D*7A
$GPVTG,212.38,T,,M,1.12,N,2.1,K,D*03
$GPGGA,203040.000,3748.7946,N,12217.8656,W,2,04,3.8,10.7,M,-25.1,M,0.8,0000*72
$GPGSA,A,3,02,09,12,25,,,,,,,,,5.1,3.8,3.3*32
$GPRMC,203040.000,A,3748.7946,N,12217.8656,W,0.69,222.25,270911,,,D*74
$GPVTG,222.25,T,,M,0.69,N,1.3,K,D*00
$GPGGA,203041.000,3748.7953,N,12217.8651,W,2,04,3.8,11.0,M,-25.1,M,1.8,0000*77
$GPGSA,A,3,02,09,12,25,,,,,,,,,5.1,3.8,3.3*32
$GPRMC,203041.000,A,3748.7953,N,12217.8651,W,0.19,238.18,270911,,,D*74
$GPVTG,238.18,T,,M,0.19,N,0.4,K,D*04
$GPGGA,203042.000,3748.7949,N,12217.8654,W,2,04,3.8,10.1,M,-25.1,M,2.8,0000*79
$GPGSA,A,3,02,09,12,25,,,,,,,,,5.1,3.8,3.3*32
$GPRMC,203042.000,A,3748.7949,N,12217.8654,W,0.80,208.28,270911,,,D*79
$GPVTG,208.28,T,,M,0.80,N,1.5,K,D*04
$GPGGA,203043.000,3748.7940,N,12217.8660,W,2,04,3.8,8.4,M,-25.1,M,3.8,0000*4B
$GPGSA,A,3,02,09,12,25,,,,,,,,,5.1,3.8,3.3*32
$GPGSV,3,1,11,02,58,176,40,04,58,073,31,09,56,239,37,27,51,217,36*79
$GPGSV,3,2,11,12,44,315,23,17,23,058,35,10,13,117,34,25,12,305,27*75
$GPGSV,3,3,11,28,03,115,29,14,02,314,24,48,44,197,42*4C
$GPRMC,203043.000,A,3748.7940,N,12217.8660,W,0.86,217.57,270911,,,D*76
$GPGGA,203044.000,3748.7927,N,12217.8669,W,2,04,3.8,5.6,M,-25.1,M,1.8,0000*49
$GPGSA,A,3,02,09,12,25,,,,,,,,,5.1,3.8,3.3*32
$GPRMC,203044.000,A,3748.7927,N,12217.8669,W,1.35,217.19,270911,,,D*7A
$GPVTG,217.19,T,,M,1.35,N,2.5,K,D*04
$GPGGA,203045.000,3748.7924,N,12217.8672,W,2,04,3.8,4.5,M,-25.1,M,1.8,0000*43
$GPGSA,A,3,02,09,12,25,,,,,,,,,5.1,3.8,3.3*32
$GPRMC,203045.000,A,3748.7924,N,12217.8672,W,1.35,215.65,270911,,,D*7B
$GPVTG,215.65,T,,M,1.35,N,2.5,K,D*0D
$GPGGA,203046.000,3748.7918,N,12217.8675,W,2,04,3.8,3.0,M,-25.1,M,1.8,0000*4A
$GPGSA,A,3,02,09,12,25,,,,,,,,,5.1,3.8,3.3*32
$GPRMC,203046.000,A,3748.7918,N,12217.8675,W,1.72,212.56,270911,,,D*74
$GPVTG,212.56,T,,M,1.72,N,3.2,K,D*0F
$GPGGA,203047.000,3748.7912,N,12217.8679,W,2,04,3.8,1.5,M,-25.1,M,1.8,0000*4A
$GPGSA,A,3,02,09,12,25,,,,,,,,,5.1,3.8,3.3*32
$GPRMC,203047.000,A,3748.7912,N,12217.8679,W,1.45,214.57,270911,,,D*70
$GPVTG,214.57,T,,M,1.45,N,2.7,K,D*08
$GPGGA,203048.000,3748.7908,N,12217.8681,W,2,04,3.8,0.4,M,-25.1,M,2.8,0000*4A
$GPGSA,A,3,02,09,12,25,,,,,,,,,5.1,3.8,3.3*32
$GPGSV,3,1,11,02,58,176,41,04,58,073,33,09,56,239,37,27,51,217,36*7A
$GPGSV,3,2,11,12,45,315,22,17,23,059,35,10,13,117,35,25,13,305,27*74
$GPGSV,3,3,11,28,03,115,27,14,02,314,25,48,44,197,42*43
$GPRMC,203048.000,A,3748.7908,N,12217.8681,W,1.16,209.09,270911,,,D*72
$GPVTG,209.09,T,,M,1.16,N,2.1,K,D*0F
$GPGGA,203049.000,3748.7897,N,12217.8688,W,2,04,3.8,-1.7,M,-25.1,M,3.8,0000*6B
$GPGSA,A,3,02,09,12,25,,,,,,,,,5.1,3.8,3.3*32
$GPRMC,203049.000,A,3748.7897,N,12217.8688,W,1.40,208.97,270911,,,D*78
$GPVTG,208.97,T,,M,1.40,N,2.6,K,D*0D
$GPGGA,203050.000,3748.7881,N,12217.8698,W,2,04,3.8,-4.6,M,-25.1,M,1.8,0000*63
$GPGSA,A,3,02,09,12,25,,,,,,,,,5.1,3.8,3.3*32
$GPRMC,203050.000,A,3748.7881,N,12217.8698,W,1.36,209.77,270911,,,D*78
$GPVTG,209.77,T,,M,1.36,N,2.5,K,D*00
$GPGGA,203051.000,3748.7869,N,12217.8706,W,2,04,3.8,-6.9,M,-25.1,M,1.8,0000*6F
$GPGSA,A,3,02,09,12,25,,,,,,,,,5.1,3.8,3.3*32
$GPRMC,203051.000,A,3748.7869,N,12217.8706,W,1.27,205.51,270911,,,D*71
$GPVTG,205.51,T,,M,1.27,N,2.3,K,D*0E
$GPGGA,203052.000,3748.7860,N,12217.8712,W,2,04,3.8,-8.5,M,-25.1,M,1.8,0000*62
$GPGSA,A,3,02,09,12,25,,,,,,,,,5.1,3.8,3.3*32
$GPRMC,203052.000,A,3748.7860,N,12217.8712,W,1.46,211.29,270911,,,D*73
$GPVTG,211.29,T,,M,1.46,N,2.7,K,D*07
$GPGGA,203053.000,3748.7855,N,12217.8716,W,2,04,3.8,-9.2,M,-25.1,M,1.8,0000*67
$GPGSA,A,3,02,09,12,25,,,,,,,,,5.1,3.8,3.3*32
$GPGSV,3,1,11,02,58,176,40,04,58,073,33,09,56,239,36,27,51,217,34*78
$GPGSV,3,2,11,12,45,315,27,17,23,059,35,10,13,117,35,25,13,305,23*75
$GPGSV,3,3,11,28,03,115,23,14,02,314,24,48,44,197,41*45
$GPRMC,203053.000,A,3748.7855,N,12217.8716,W,1.41,212.29,270911,,,D*74
$GPVTG,212.29,T,,M,1.41,N,2.6,K,D*02
$GPGGA,203054.000,3748.7857,N,12217.8715,W,2,04,3.8,-8.5,M,-25.1,M,2.8,0000*64
$GPGSA,A,3,02,09,12,25,,,,,,,,,5.1,3.8,3.3*32
$GPRMC,203054.000,A,3748.7857,N,12217.8715,W,1.04,220.46,270911,,,D*7B
$GPVTG,220.46,T,,M,1.04,N,1.9,K,D*07
$GPGGA,203055.000,3748.7864,N,12217.8711,W,2,04,3.8,-6.5,M,-25.1,M,3.8,0000*6E
$GPGSA,A,3,02,09,12,25,,,,,,,,,5.1,3.8,3.3*32
$GPRMC,203055.000,A,3748.7864,N,12217.8711,W,0.71,207.29,270911,,,D*71
$GPVTG,207.29,T,,M,0.71,N,1.3,K,D*02
$GPGGA,203056.000,3748.7868,N,12217.8708,W,2,04,3.8,-4.9,M,-25.1,M,4.8,0000*60
$GPGSA,A,3,02,09,12,25,,,,,,,,,5.1,3.8,3.3*32
$GPRMC,203056.000,A,3748.7868,N,12217.8708,W,0.52,217.52,270911,,,D*7A
$GPVTG,217.52,T,,M,0.52,N,1.0,K,D*0D
$GPGGA,203057.000,3748.7876,N,12217.8704,W,2,04,3.8,-2.5,M,-25.1,M,1.8,0000*6D
$GPGSA,A,3,02,09,12,25,,,,,,,,,5.1,3.8,3.3*32
$GPRMC,203057.000,A,3748.7876,N,12217.8704,W,0.31,268.51,270911,,,D*76
$GPVTG,268.51,T,,M,0.31,N,0.6,K,D*04
$GPGGA,203058.000,3748.7898,N,12217.8664,W,2,05,1.8,-1.6,M,-25.1,M,1.8,0000*66
$GPGSA,A,3,02,09,12,25,17,,,,,,,,3.5,1.8,3.0*37
$GPGSV,3,1,11,02,58,176,40,04,58,073,32,09,56,239,36,27,51,217,36*7B
$GPGSV,3,2,11,12,45,315,27,17,23,059,34,10,13,117,35,25,13,305,24*73
$GPGSV,3,3,11,28,03,115,23,14,02,314,19,48,44,197,42*48
$GPRMC,203058.000,A,3748.7898,N,12217.8664,W,0.21,145.96,270911,,,D*78
$GPGGA,203059.000,3748.7909,N,12217.8648,W,2,05,1.8,0.4,M,-25.1,M,1.8,0000*4E
$GPGSA,A,3,02,09,12,25,17,,,,,,,,3.5,1.8,3.0*37
$GPRMC,203059.000,A,3748.7909,N,12217.8648,W,0.11,131.55,270911,,,D*71
$GPVTG,131.55,T,,M,0.11,N,0.2,K,D*09
$GPGGA,203100.000,3748.7918,N,12217.8638,W,2,05,1.8,2.4,M,-25.1,M,1.8,0000*46
$GPGSA,A,3,02,09,12,25,17,,,,,,,,3.5,1.8,3.0*37
$GPRMC,203100.000,A,3748.7918,N,12217.8638,W,0.16,118.31,270911,,,D*75
$GPVTG,118.31,T,,M,0.16,N,0.3,K,D*06
$GPGGA,203101.000,3748.7922,N,12217.8631,W,2,04,1.5,2.9,M,-25.1,M,2.8,0000*45
$GPGSA,A,3,02,09,25,17,,,,,,,,,1.8,1.5,1.0*34
$GPRMC,203101.000,A,3748.7922,N,12217.8631,W,0.82,54.62,270911,,,D*46
$GPVTG,54.62,T,,M,0.82,N,1.5,K,D*33
$GPGGA,203102.000,3748.7927,N,12217.8623,W,2,05,1.8,4.6,M,-25.1,M,3.8,0000*44
$GPGSA,A,3,02,09,12,25,17,,,,,,,,3.5,1.8,3.0*37
$GPRMC,203102.000,A,3748.7927,N,12217.8623,W,0.89,76.28,270911,,,D*46
$GPVTG,76.28,T,,M,0.89,N,1.6,K,D*35
$GPGGA,203103.000,3748.7932,N,12217.8619,W,2,05,1.8,5.5,M,-25.1,M,1.8,0000*48
$GPGSA,A,3,02,09,12,25,17,,,,,,,,3.5,1.8,3.0*37
$GPGSV,3,1,11,02,58,176,39,04,58,072,33,09,56,238,36,27,51,217,36*74
$GPGSV,3,2,11,12,45,315,23,17,23,059,35,10,13,117,36,25,13,305,25*74
$GPGSV,3,3,11,28,03,115,28,14,02,314,18,48,44,197,41*41
$GPRMC,203103.000,A,3748.7932,N,12217.8619,W,0.90,112.06,270911,,,D*7D
$GPVTG,112.06,T,,M,0.90,N,1.7,K,D*03
$GPGGA,203104.000,3748.7933,N,12217.8615,W,2,05,1.8,5.8,M,-25.1,M,1.8,0000*4F
$GPGSA,A,3,02,09,12,25,17,,,,,,,,3.5,1.8,3.0*37
$GPRMC,203104.000,A,3748.7933,N,12217.8615,W,1.29,114.91,270911,,,D*7C
$GPVTG,114.91,T,,M,1.29,N,2.4,K,D*08
$GPGGA,203105.000,3748.7940,N,12217.8609,W,2,05,1.8,8.5,M,-25.1,M,1.8,0000*47
$GPGSA,A,3,02,09,12,25,17,,,,,,,,3.5,1.8,3.0*37
$GPRMC,203105.000,A,3748.7940,N,12217.8609,W,1.33,106.74,270911,,,D*77
$GPVTG,106.74,T,,M,1.33,N,2.5,K,D*0A
$GPGGA,203106.000,3748.7944,N,12217.8602,W,2,05,1.8,10.9,M,-25.1,M,1.8,0000*7E
$GPGSA,A,3,02,09,12,25,17,,,,,,,,3.5,1.8,3.0*37
$GPRMC,203106.000,A,3748.7944,N,12217.8602,W,1.45,108.37,270911,,,D*73
$GPVTG,108.37,T,,M,1.45,N,2.7,K,D*00
$GPGGA,203107.000,3748.7946,N,12217.8592,W,2,05,1.8,13.2,M,-25.1,M,2.8,0000*7C
$GPGSA,A,3,02,09,12,25,17,,,,,,,,3.5,1.8,3.0*37
$GPRMC,203107.000,A,3748.7946,N,12217.8592,W,1.58,101.07,270911,,,D*7C
$GPVTG,101.07,T,,M,1.58,N,2.9,K,D*08
$GPGGA,203108.000,3748.7944,N,12217.8582,W,2,05,1.8,14.4,M,-25.1,M,1.8,0000*72
$GPGSA,A,3,02,09,12,25,17,,,,,,,,3.5,1.8,3.0*37
$GPGSV,3,1,11,02,58,176,39,04,58,072,34,09,56,238,36,27,51,217,36*73
$GPGSV,3,2,11,12,45,315,23,17,23,059,34,10,13,117,42,25,13,305,24*77
$GPGSV,3,3,11,28,03,115,27,14,02,314,18,48,44,197,41*4E
$GPRMC,203108.000,A,3748.7944,N,12217.8582,W,1.47,104.25,270911,,,D*7B
$GPVTG,104.25,T,,M,1.47,N,2.7,K,D*0D
$GPGGA,203109.000,3748.7942,N,12217.8574,W,2,05,1.8,15.3,M,-25.1,M,1.8,0000*7A
$GPGSA,A,3,02,09,12,25,17,,,,,,,,3.5,1.8,3.0*37
$GPRMC,203109.000,A,3748.7942,N,12217.8574,W,1.43,113.35,270911,,,D*76
$GPVTG,113.35,T,,M,1.43,N,2.7,K,D*0E
$GPGGA,203110.000,3748.7944,N,12217.8569,W,2,05,1.8,16.6,M,-25.1,M,1.8,0000*7E
$GPGSA,A,3,02,09,12,25,17,,,,,,,,3.5,1.8,3.0*37
$GPRMC,203110.000,A,3748.7944,N,12217.8569,W,1.78,112.51,270911,,,D*7F
$GPVTG,112.51,T,,M,1.78,N,3.3,K,D*00
$GPGGA,203111.000,3748.7943,N,12217.8562,W,2,05,1.8,16.8,M,-25.1,M,1.8,0000*7D
$GPGSA,A,3,02,09,12,25,17,,,,,,,,3.5,1.8,3.0*37
$GPRMC,203111.000,A,3748.7943,N,12217.8562,W,1.92,104.60,270911,,,D*73
$GPVTG,104.60,T,,M,1.92,N,3.6,K,D*04
$GPGGA,203112.000,3748.7942,N,12217.8554,W,2,05,1.8,17.4,M,-25.1,M,2.8,0000*74
$GPGSA,A,3,02,09,12,25,17,,,,,,,,3.5,1.8,3.0*37
$GPRMC,203112.000,A,3748.7942,N,12217.8554,W,1.95,106.51,270911,,,D*73
$GPVTG,106.51,T,,M,1.95,N,3.6,K,D*03
$GPGGA,203113.000,3748.7944,N,12217.8548,W,2,05,1.8,18.6,M,-25.1,M,3.8,0000*72
$GPGSA,A,3,02,09,12,25,17,,,,,,,,3.5,1.8,3.0*37
$GPGSV,3,1,11,02,58,176,39,04,58,072,35,09,56,238,36,27,51,217,37*73
$GPGSV,3,2,11,12,45,315,23,17,23,059,34,10,13,117,42,25,13,305,23*70
$GPGSV,3,3,11,28,03,115,27,14,02,314,18,48,44,197,39*41
$GPVTG,103.68,T,,M,1.64,N,3.0,K,D*04
$GPGGA,203114.000,3748.7943,N,12217.8540,W,2,05,1.8,19.5,M,-25.1,M,4.8,0000*7F
$GPGSA,A,3,02,09,12,25,17,,,,,,,,3.5,1.8,3.0*37
$GPRMC,203114.000,A,3748.7943,N,12217.8540,W,1.66,97.93,270911,,,D*4A
$GPVTG,97.93,T,,M,1.66,N,3.1,K,D*3F
$GPGGA,203115.000,3748.7937,N,12217.8534,W,2,05,1.8,18.0,M,-25.1,M,1.8,0000*7F
$GPGSA,A,3,02,09,12,25,17,,,,,,,,3.5,1.8,3.0*37
$GPRMC,203115.000,A,3748.7937,N,12217.8534,W,1.50,106.93,270911,,,D*77
$GPVTG,106.93,T,,M,1.50,N,2.8,K,D*0B
$GPGGA,203116.000,3748.7929,N,12217.8529,W,2,05,1.8,15.1,M,-25.1,M,1.8,0000*73
$GPGSA,A,3,02,09,12,25,17,,,,,,,,3.5,1.8,3.0*37
$GPRMC,203116.000,A,3748.7929,N,12217.8529,W,2.07,109.17,270911,,,D*75
$GPVTG,109.17,T,,M,2.07,N,3.8,K,D*08
$GPGGA,203117.000,3748.7923,N,12217.8526,W,2,05,1.8,13.6,M,-25.1,M,1.8,0000*76
$GPGSA,A,3,02,09,12,25,17,,,,,,,,3.5,1.8,3.0*37
$GPRMC,203117.000,A,3748.7923,N,12217.8526,W,2.14,122.01,270911,,,D*7D
$GPVTG,122.01,T,,M,2.14,N,4.0,K,D*0B
$GPGGA,203118.000,3748.7918,N,12217.8522,W,2,05,1.8,12.8,M,-25.1,M,1.8,0000*7A
$GPGSA,A,3,02,09,12,25,17,,,,,,,,3.5,1.8,3.0*37
$GPGSV,3,1,11,02,58,176,39,04,58,072,35,09,56,238,36,27,50,217,37*72
$GPGSV,3,2,11,12,45,315,25,17,23,059,25,10,13,117,37,25,13,305,24*73
$GPGSV,3,3,11,28,03,115,19,14,02,314,19,48,44,197,40*43
$GPRMC,203118.000,A,3748.7918,N,12217.8522,W,1.57,114.71,270911,,,D*78
$GPVTG,114.71,T,,M,1.57,N,2.9,K,D*02
$GPGGA,203119.000,3748.7918,N,12217.8516,W,2,05,1.8,13.8,M,-25.1,M,2.8,0000*7E
$GPGSA,A,3,02,09,12,25,17,,,,,,,,3.5,1.8,3.0*37
$GPRMC,203119.000,A,3748.7918,N,12217.8516,W,2.05,119.37,270911,,,D*75
$GPVTG,119.37,T,,M,2.05,N,3.8,K,D*09
$GPGGA,203120.000,3748.7916,N,12217.8509,W,2,05,1.8,13.3,M,-25.1,M,3.8,0000*7E
$GPGSA,A,3,02,09,12,25,17,,,,,,,,3.5,1.8,3.0*37
$GPRMC,203120.000,A,3748.7916,N,12217.8509,W,1.50,107.23,270911,,,D*76
$GPVTG,107.23,T,,M,1.50,N,2.8,K,D*01
$GPGGA,203121.000,3748.7916,N,12217.8503,W,2,05,1.8,12.5,M,-25.1,M,1.8,0000*70
$GPGSA,A,3,02,09,12,25,17,,,,,,,,3.5,1.8,3.0*37
$GPRMC,203121.000,A,3748.7916,N,12217.8503,W,1.83,87.43,270911,,,D*4C
$GPVTG,87.43,T,,M,1.83,N,3.4,K,D*3D
$GPGGA,203122.000,3748.7916,N,12217.8496,W,2,05,1.8,12.6,M,-25.1,M,1.8,0000*7D
$GPGSA,A,3,02,09,12,25,17,,,,,,,,3.5,1.8,3.0*37
$GPRMC,203122.000,A,3748.7916,N,12217.8496,W,1.47,92.06,270911,,,D*4F
$GPVTG,92.06,T,,M,1.47,N,2.7,K,D*32
$GPGGA,203123.000,3748.7920,N,12217.8489,W,2,05,1.8,14.7,M,-25.1,M,1.8,0000*70
$GPGSA,A,3,02,09,12,25,17,,,,,,,,3.5,1.8,3.0*37
$GPGSV,3,1,11,02,58,176,37,04,58,072,35,09,56,238,35,27,50,217,37*7F
$GPGSV,3,2,11,12,45,315,27,17,23,059,25,10,13,117,20,25,13,305,23*70
$GPGSV,3,3,11,28,03,115,19,14,02,314,18,48,44,197,40*42
$GPRMC,203123.000,A,3748.7920,N,12217.8489,W,1.48,84.15,270911,,,D*4F
$GPVTG,84.15,T,,M,1.48,N,2.7,K,D*38
$GPGGA,203124.000,3748.7922,N,12217.8485,W,2,05,1.8,14.4,M,-25.1,M,2.8,0000*79
$GPGSA,A,3,02,09,12,25,17,,,,,,,,3.5,1.8,3.0*37
$GPRMC,203124.000,A,3748.7922,N,12217.8485,W,0.88,79.03,270911,,,D*4E
$GPVTG,79.03,T,,M,0.88,N,1.6,K,D*32
$GPGGA,203125.000,3748.7916,N,12217.8478,W,2,05,1.8,12.5,M,-25.1,M,3.8,0000*7B
$GPGSA,A,3,02,09,12,25,17,,,,,,,,3.5,1.8,3.0*37
$GPRMC,203125.000,A,3748.7916,N,12217.8478,W,1.21,121.24,270911,,,D*71
$GPVTG,121.24,T,,M,1.21,N,2.2,K,D*0E
$GPGGA,203126.000,3748.7913,N,12217.8471,W,2,05,1.8,11.5,M,-25.1,M,4.8,0000*70
$GPGSA,A,3,02,09,12,25,17,,,,,,,,3.5,1.8,3.0*37
$GPRMC,203126.000,A,3748.7913,N,12217.8471,W,0.88,99.25,270911,,,D*4F
$GPVTG,99.25,T,,M,0.88,N,1.6,K,D*38
$GPGGA,203127.000,3748.7907,N,12217.8462,W,2,05,1.8,10.2,M,-25.1,M,1.8,0000*75
$GPGSA,A,3,02,09,12,25,17,,,,,,,,3.5,1.8,3.0*37
$GPRMC,203127.000,A,3748.7907,N,12217.8462,W,0.98,111.55,270911,,,D*7E
$GPVTG,111.55,T,,M,0.98,N,1.8,K,D*01
$GPGGA,203128.000,3748.7901,N,12217.8454,W,2,05,1.8,9.3,M,-25.1,M,1.8,0000*40
$GPGSA,A,3,02,09,12,25,17,,,,,,,,3.5,1.8,3.0*37
$GPGSV,3,1,11,02,58,176,33,04,58,072,34,09,56,238,31,27,50,217,34*7D
$GPGSV,3,2,11,12,45,315,20,17,23,059,32,10,13,117,38,25,13,305,23*78
$GPGSV,3,3,11,28,03,115,25,14,02,314,19,48,44,197,36*4D
$GPRMC,203128.000,A,3748.7901,N,12217.8454,W,1.06,133.52,270911,,,D*73
$GPGGA,203129.000,3748.7895,N,12217.8446,W,2,05,1.8,8.2,M,-25.1,M,1.8,0000*4E
$GPGSA,A,3,02,09,12,25,17,,,,,,,,3.5,1.8,3.0*37
$GPRMC,203129.000,A,3748.7895,N,12217.8446,W,2.11,133.31,270911,,,D*7D
$GPVTG,133.31,T,,M,2.11,N,3.9,K,D*03
$GPGGA,203130.000,3748.7892,N,12217.8439,W,2,05,1.8,7.7,M,-25.1,M,2.8,0000*40
$GPGSA,A,3,02,09,12,25,17,,,,,,,,3.5,1.8,3.0*37
$GPRMC,203130.000,A,3748.7892,N,12217.8439,W,1.97,133.59,270911,,,D*79
$GPVTG,133.59,T,,M,1.97,N,3.7,K,D*0E
$GPGGA,203131.000,3748.7885,N,12217.8434,W,2,05,1.8,5.4,M,-25.1,M,3.8,0000*4A
$GPGSA,A,3,02,09,12,25,17,,,,,,,,3.5,1.8,3.0*37
$GPRMC,203131.000,A,3748.7885,N,12217.8434,W,1.43,129.87,270911,,,D*72
$GPVTG,129.87,T,,M,1.43,N,2.7,K,D*0E
$GPGGA,203132.000,3748.7879,N,12217.8429,W,2,05,1.8,3.0,M,-25.1,M,4.8,0000*43
$GPGSA,A,3,02,09,12,25,17,,,,,,,,3.5,1.8,3.0*37
$GPRMC,203132.000,A,3748.7879,N,12217.8429,W,1.10,126.89,270911,,,D*79
$GPVTG,126.89,T,,M,1.10,N,2.0,K,D*0E
$GPGGA,203133.000,3748.7867,N,12217.8421,W,2,05,1.8,-0.0,M,-25.1,M,1.8,0000*6E
$GPGSA,A,3,02,09,12,25,17,,,,,,,,3.5,1.8,3.0*37
$GPGSV,3,1,11,02,58,176,38,04,58,072,34,09,56,238,36,27,50,217,37*72
$GPGSV,3,2,11,12,45,315,24,17,23,059,32,10,13,117,39,25,13,305,23*7D
$GPGSV,3,3,11,28,03,115,25,14,02,314,18,48,44,197,40*4D
$GPRMC,203133.000,A,3748.7867,N,12217.8421,W,1.78,132.75,270911,,,D*77
$GPVTG,132.75,T,,M,1.78,N,3.3,K,D*04
$GPGGA,203134.000,3748.7863,N,12217.8411,W,2,05,1.8,-0.1,M,-25.1,M,1.8,0000*6F
$GPGSA,A,3,02,09,12,25,17,,,,,,,,3.5,1.8,3.0*37
$GPRMC,203134.000,A,3748.7863,N,12217.8411,W,1.89,111.11,270911,,,D*7A
$GPVTG,111.11,T,,M,1.89,N,3.5,K,D*0F
$GPGGA,203135.000,3748.7862,N,12217.8403,W,2,05,1.8,-0.2,M,-25.1,M,1.8,0000*6F
$GPGSA,A,3,02,09,12,25,17,,,,,,,,3.5,1.8,3.0*37
$GPRMC,203135.000,A,3748.7862,N,12217.8403,W,1.30,125.78,270911,,,D*73
$GPVTG,125.78,T,,M,1.30,N,2.4,K,D*05
$GPGGA,203136.000,3748.7857,N,12217.8397,W,2,05,1.8,-1.8,M,-25.1,M,2.8,0000*68
$GPGSA,A,3,02,09,12,25,17,,,,,,,,3.5,1.8,3.0*37
$GPRMC,203136.000,A,3748.7857,N,12217.8397,W,0.95,136.31,270911,,,D*7D
$GPVTG,136.31,T,,M,0.95,N,1.8,K,D*0B
$GPGGA,203137.000,3748.7855,N,12217.8388,W,2,05,1.8,-1.5,M,-25.1,M,3.8,0000*69
$GPGSA,A,3,02,09,12,25,17,,,,,,,,3.5,1.8,3.0*37
$GPRMC,203137.000,A,3748.7855,N,12217.8388,W,1.36,133.82,270911,,,D*75
$GPVTG,133.82,T,,M,1.36,N,2.5,K,D*00
$GPGGA,203138.000,3748.7854,N,12217.8379,W,2,05,1.8,-0.6,M,-25.1,M,4.8,0000*6C
$GPGSA,A,3,02,09,12,25,17,,,,,,,,3.5,1.8,3.0*37
$GPGSV,3,1,11,02,58,176,35,04,58,072,34,09,56,238,34,27,50,217,35*7F
$GPGSV,3,2,11,12,45,315,24,17,23,059,32,10,13,117,40,25,13,305,23*73
$GPGSV,3,3,11,28,03,115,28,14,02,314,19,48,44,197,39*4F
$GPRMC,203138.000,A,3748.7854,N,12217.8379,W,1.78,135.01,270911,,,D*72
$GPVTG,135.01,T,,M,1.78,N,3.3,K,D*00
$GPGGA,203139.000,3748.7845,N,12217.8369,W,2,05,1.8,-1.8,M,-25.1,M,1.8,0000*66
$GPGSA,A,3,02,09,12,25,17,,,,,,,,3.5,1.8,3.0*37
$GPRMC,203139.000,A,3748.7845,N,12217.8369,W,2.24,134.76,270911,,,D*79
$GPVTG,134.76,T,,M,2.24,N,4.2,K,D*0D
$GPGGA,203140.000,3748.7834,N,12217.8359,W,2,05,1.8,-4.0,M,-25.1,M,1.8,0000*60
$GPGSA,A,3,02,09,12,25,17,,,,,,,,3.5,1.8,3.0*37
$GPRMC,203140.000,A,3748.7834,N,12217.8359,W,2.14,135.55,270911,,,D*71
$GPVTG,135.55,T,,M,2.14,N,4.0,K,D*0C
$GPGGA,203141.000,3748.7823,N,12217.8352,W,2,05,1.8,-6.8,M,-25.1,M,1.8,0000*66
$GPGSA,A,3,02,09,12,25,17,,,,,,,,3.5,1.8,3.0*37
$GPRMC,203141.000,A,3748.7823,N,12217.8352,W,2.19,135.06,270911,,,D*76
$GPVTG,135.06,T,,M,2.19,N,4.1,K,D*06
$GPGGA,203142.000,3748.7819,N,12217.8342,W,2,05,1.8,-6.8,M,-25.1,M,2.8,0000*6E
$GPGSA,A,3,02,09,12,25,17,,,,,,,,3.5,1.8,3.0*37
$GPRMC,203142.000,A,3748.7819,N,12217.8342,W,1.77,132.99,270911,,,D*77
$GPVTG,132.99,T,,M,1.77,N,3.3,K,D*09
$GPGGA,203143.000,3748.7812,N,12217.8334,W,2,05,1.8,-7.7,M,-25.1,M,3.8,0000*6A
$GPGSA,A,3,02,09,12,25,17,,,,,,,,3.5,1.8,3.0*37
$GPGSV,3,1,11,02,58,176,37,04,58,072,34,09,56,238,35,27,50,217,38*71
$GPGSV,3,2,11,12,45,315,23,17,23,059,32,10,13,117,40,25,13,305,23*74
$GPGSV,3,3,11,28,03,115,16,14,02,314,19,48,44,197,39*42
$GPVTG,140.51,T,,M,1.58,N,2.9,K,D*0E
$GPGGA,203144.000,3748.7813,N,12217.8327,W,2,05,1.8,-6.6,M,-25.1,M,0.8,0000*6D
$GPGSA,A,3,02,09,12,25,17,,,,,,,,3.5,1.8,3.0*37
$GPRMC,203144.000,A,3748.7813,N,12217.8327,W,1.54,134.26,270911,,,D*7B
$GPVTG,134.26,T,,M,1.54,N,2.9,K,D*01
$GPGGA,203145.000,3748.7815,N,12217.8321,W,2,05,1.8,-5.0,M,-25.1,M,1.8,0000*68
$GPGSA,A,3,02,09,12,25,17,,,,,,,,3.5,1.8,3.0*37
$GPRMC,203145.000,A,3748.7815,N,12217.8321,W,1.83,136.77,270911,,,D*76
$GPVTG,136.77,T,,M,1.83,N,3.4,K,D*01
$GPGGA,203146.000,3748.7818,N,12217.8315,W,2,05,1.8,-4.3,M,-25.1,M,1.8,0000*63
$GPGSA,A,3,02,09,12,25,17,,,,,,,,3.5,1.8,3.0*37
$GPRMC,203146.000,A,3748.7818,N,12217.8315,W,1.76,125.29,270911,,,D*7C
$GPVTG,125.29,T,,M,1.76,N,3.3,K,D*05
$GPGGA,203147.000,3748.7817,N,12217.8308,W,2,05,1.8,-3.9,M,-25.1,M,1.8,0000*6C
$GPGSA,A,3,02,09,12,25,17,,,,,,,,3.5,1.8,3.0*37
$GPRMC,203147.000,A,3748.7817,N,12217.8308,W,1.69,124.64,270911,,,D*78
$GPVTG,124.64,T,,M,1.69,N,3.1,K,D*01
$GPGGA,203148.000,3748.7818,N,12217.8302,W,2,05,1.8,-2.2,M,-25.1,M,1.8,0000*6C
$GPGSA,A,3,02,09,12,25,17,,,,,,,,3.5,1.8,3.0*37
$GPGSV,3,1,11,02,59,176,36,04,57,072,34,09,55,238,35,27,50,216,38*7C
$GPGSV,3,2,11,12,45,315,24,17,23,059,25,10,14,117,40,25,13,305,23*72
$GPGSV,3,3,11,28,03,115,18,14,02,313,17,48,44,197,38*44
$GPRMC,203148.000,A,3748.7818,N,12217.8302,W,1.80,117.37,270911,,,D*73
$GPVTG,117.37,T,,M,1.80,N,3.3,K,D*02
$GPGGA,203149.000,3748.7812,N,12217.8297,W,2,05,1.8,-2.5,M,-25.1,M,2.8,0000*6E
$GPGSA,A,3,02,09,12,25,17,,,,,,,,3.5,1.8,3.0*37
$GPRMC,203149.000,A,3748.7812,N,12217.8297,W,2.00,110.68,270911,,,D*73
$GPVTG,110.68,T,,M,2.00,N,3.7,K,D*00
$GPGGA,203150.000,3748.7814,N,12217.8293,W,2,05,1.8,-1.0,M,-25.1,M,3.8,0000*63
$GPGSA,A,3,02,09,12,25,17,,,,,,,,3.5,1.8,3.0*37
$GPRMC,203150.000,A,3748.7814,N,12217.8293,W,1.88,121.74,270911,,,D*75
$GPVTG,121.74,T,,M,1.88,N,3.5,K,D*0E
$GPGGA,203151.000,3748.7810,N,12217.8287,W,2,05,1.8,-1.7,M,-25.1,M,1.8,0000*66
$GPGSA,A,3,02,09,12,25,17,,,,,,,,3.5,1.8,3.0*37
$GPRMC,203151.000,A,3748.7810,N,12217.8287,W,2.08,128.36,270911,,,D*71
$GPVTG,128.36,T,,M,2.08,N,3.9,K,D*06
$GPGGA,203152.000,3748.7807,N,12217.8279,W,2,05,1.8,-3.1,M,-25.1,M,2.8,0000*65
$GPGSA,A,3,02,09,12,25,17,,,,,,,,3.5,1.8,3.0*37
$GPRMC,203152.000,A,3748.7807,N,12217.8279,W,1.80,128.76,270911,,,D*72
$GPVTG,128.76,T,,M,1.80,N,3.3,K,D*0B
$GPGGA,203153.000,3748.7801,N,12217.8270,W,2,05,1.8,-3.9,M,-25.1,M,1.8,0000*60
$GPGSA,A,3,02,09,12,25,17,,,,,,,,3.5,1.8,3.0*37
$GPGSV,3,1,11,02,59,176,36,04,57,072,34,09,55,238,31,27,50,216,37*77
$GPGSV,3,2,11,12,45,315,24,17,23,059,25,10,14,117,41,25,13,305,27*77
$GPGSV,3,3,11,28,03,115,23,14,02,313,18,48,44,197,39*42
$GPRMC,203153.000,A,3748.7801,N,12217.8270,W,2.05,131.69,270911,,,D*74
$GPVTG,131.69,T,,M,2.05,N,3.8,K,D*08
$GPGGA,203154.000,3748.7794,N,12217.8262,W,2,05,1.8,-4.5,M,-25.1,M,1.8,0000*6C
$GPGSA,A,3,02,09,12,25,17,,,,,,,,3.5,1.8,3.0*37
$GPRMC,203154.000,A,3748.7794,N,12217.8262,W,2.11,131.26,270911,,,D*7D
$GPVTG,131.26,T,,M,2.11,N,3.9,K,D*07
$GPGGA,203155.000,3748.7793,N,12217.8252,W,2,05,1.8,-3.8,M,-25.1,M,1.8,0000*63
$GPGSA,A,3,02,09,12,25,17,,,,,,,,3.5,1.8,3.0*37
$GPRMC,203155.000,A,3748.7793,N,12217.8252,W,2.24,129.30,270911,,,D*70
$GPVTG,129.30,T,,M,2.24,N,4.1,K,D*00
$GPGGA,203156.000,3748.7792,N,12217.8244,W,2,05,1.8,-1.9,M,-25.1,M,2.8,0000*66
$GPGSA,A,3,02,09,12,25,17,,,,,,,,3.5,1.8,3.0*37
$GPRMC,203156.000,A,3748.7792,N,12217.8244,W,2.27,131.99,270911,,,D*7C
$GPVTG,131.99,T,,M,2.27,N,4.2,K,D*0A
$GPGGA,203157.000,3748.7790,N,12217.8237,W,2,05,1.8,-0.6,M,-25.1,M,1.8,0000*6C
$GPGSA,A,3,02,09,12,25,17,,,,,,,,3.5,1.8,3.0*37
$GPRMC,203157.000,A,3748.7790,N,12217.8237,W,1.91,133.74,270911,,,D*74
$GPVTG,133.74,T,,M,1.91,N,3.5,K,D*05
$GPGGA,203158.000,3748.7790,N,12217.8233,W,2,05,1.8,1.8,M,-25.1,M,1.8,0000*45
$GPGSA,A,3,02,09,12,25,17,,,,,,,,3.5,1.8,3.0*37
$GPGSV,3,1,11,02,59,176,38,04,57,072,34,09,55,238,34,27,50,216,38*73
$GPGSV,3,2,11,12,45,315,26,17,23,059,26,10,14,117,42,25,13,305,20*72
$GPGSV,3,3,11,28,03,115,23,14,02,313,17,48,44,197,41*42
$GPVTG,123.52,T,,M,1.49,N,2.8,K,D*09
$GPGGA,203159.000,3748.7789,N,12217.8230,W,2,05,1.8,3.2,M,-25.1,M,1.8,0000*47
$GPGSA,A,3,02,09,12,25,17,,,,,,,,3.5,1.8,3.0*37
$GPRMC,203159.000,A,3748.7789,N,12217.8230,W,1.21,123.48,270911,,,D*70
$GPVTG,123.48,T,,M,1.21,N,2.2,K,D*06
$GPGGA,203200.000,3748.7788,N,12217.8227,W,2,05,1.8,4.8,M,-25.1,M,2.8,0000*41
$GPGSA,A,3,02,09,12,25,17,,,,,,,,3.5,1.8,3.0*37
$GPRMC,203200.000,A,3748.7788,N,12217.8227,W,1.08,107.55,270911,,,D*79
$GPVTG,107.55,T,,M,1.08,N,2.0,K,D*05
$GPGGA,203201.000,3748.7786,N,12217.8225,W,2,05,1.8,5.2,M,-25.1,M,3.8,0000*46
$GPGSA,A,3,02,09,12,25,17,,,,,,,,3.5,1.8,3.0*37
$GPRMC,203201.000,A,3748.7786,N,12217.8225,W,1.47,105.41,270911,,,D*78
$GPVTG,105.41,T,,M,1.47,N,2.7,K,D*0E
$GPGGA,203202.000,3748.7783,N,12217.8223,W,2,05,1.8,5.2,M,-25.1,M,4.8,0000*41
$GPGSA,A,3,02,09,12,25,17,,,,,,,,3.5,1.8,3.0*37
$GPRMC,203202.000,A,3748.7783,N,12217.8223,W,1.12,111.14,270911,,,D*7D
$GPVTG,111.14,T,,M,1.12,N,2.1,K,D*0D
$GPGGA,203203.000,3748.7780,N,12217.8216,W,2,05,1.8,4.2,M,-25.1,M,5.8,0000*45
$GPGSA,A,3,02,09,12,25,17,,,,,,,,3.5,1.8,3.0*37
$GPGSV,3,1,11,02,59,176,38,04,57,072,34,09,55,238,35,27,50,216,38*72
$GPGSV,3,2,11,12,45,315,26,17,23,059,26,10,14,117,42,25,13,305,24*76
$GPGSV,3,3,11,28,03,115,15,14,02,313,18,48,44,197,40*49
$GPRMC,203203.000,A,3748.7780,N,12217.8216,W,1.31,105.10,270911,,,D*79
$GPVTG,105.10,T,,M,1.31,N,2.4,K,D*08
$GPGGA,203204.000,3748.7776,N,12217.8208,W,2,06,1.6,3.5,M,-25.1,M,1.8,0000*4D
$GPGSA,A,3,02,04,09,12,25,17,,,,,,,3.0,1.6,2.5*3C
$GPRMC,203204.000,A,3748.7776,N,12217.8208,W,1.58,119.09,270911,,,D*72
$GPVTG,119.09,T,,M,1.58,N,2.9,K,D*0F
$GPGGA,203205.000,3748.7773,N,12217.8201,W,2,06,1.6,4.4,M,-25.1,M,1.8,0000*46
$GPGSA,A,3,02,04,09,12,25,17,,,,,,,3.0,1.6,2.5*3C
$GPRMC,203205.000,A,3748.7773,N,12217.8201,W,1.61,123.32,270911,,,D*74
$GPVTG,123.32,T,,M,1.61,N,3.0,K,D*0C
$GPGGA,203206.000,3748.7775,N,12217.8195,W,2,05,2.5,6.3,M,-25.1,M,2.8,0000*48
$GPGSA,A,3,02,04,09,25,17,,,,,,,,4.6,2.5,3.8*32
$GPRMC,203206.000,A,3748.7775,N,12217.8195,W,0.84,92.22,270911,,,D*4F
$GPVTG,92.22,T,,M,0.84,N,1.6,K,D*38
$GPGGA,203207.000,3748.7778,N,12217.8189,W,2,05,2.5,6.7,M,-25.1,M,3.8,0000*4C
$GPGSA,A,3,02,04,09,25,17,,,,,,,,4.6,2.5,3.8*32
$GPRMC,203207.000,A,3748.7778,N,12217.8189,W,0.43,14.21,270911,,,D*48
$GPVTG,14.21,T,,M,0.43,N,0.8,K,D*31
$GPGGA,203208.000,3748.7780,N,12217.8185,W,2,06,1.6,7.4,M,-25.1,M,4.8,0000*4E
$GPGSA,A,3,02,04,09,12,25,17,,,,,,,3.0,1.6,2.5*3C
$GPGSV,3,1,11,02,59,175,37,04,57,072,35,09,55,238,26,27,50,216,31*74
$GPGSV,3,2,11,12,45,315,28,17,23,059,33,10,14,117,37,25,13,306,23*7A
$GPGSV,3,3,11,28,03,115,20,14,02,313,18,48,44,197,35*4D
$GPRMC,203208.000,A,3748.7780,N,12217.8185,W,0.20,25.70,270911,,,D*4F
$GPVTG,25.70,T,,M,0.20,N,0.4,K,D*3E
$GPGGA,203209.000,3748.7774,N,12217.8179,W,2,06,1.6,6.4,M,-25.1,M,1.8,0000*43
$GPGSA,A,3,02,04,09,12,25,17,,,,,,,3.0,1.6,2.5*3C
$GPRMC,203209.000,A,3748.7774,N,12217.8179,W,0.14,119.82,270911,,,D*72
$GPVTG,119.82,T,,M,0.14,N,0.3,K,D*0D
$GPGGA,203210.000,3748.7775,N,12217.8174,W,2,05,2.5,7.5,M,-25.1,M,1.8,0000*44
$GPGSA,A,3,02,04,09,25,17,,,,,,,,4.6,2.5,3.8*32
$GPRMC,203210.000,A,3748.7775,N,12217.8174,W,0.22,142.20,270911,,,D*75
$GPVTG,142.20,T,,M,0.22,N,0.4,K,D*09
$GPGGA,203211.000,3748.7776,N,12217.8173,W,2,06,1.6,8.1,M,-25.1,M,2.8,0000*4A
$GPGSA,A,3,02,04,09,12,25,17,,,,,,,3.0,1.6,2.5*3C
$GPRMC,203211.000,A,3748.7776,N,12217.8173,W,0.74,300.23,270911,,,D*74
$GPVTG,300.23,T,,M,0.74,N,1.4,K,D*0C
$GPGGA,203212.000,3748.7778,N,12217.8170,W,2,05,2.5,9.5,M,-25.1,M,1.8,0000*41
$GPGSA,A,3,02,04,09,25,17,,,,,,,,4.6,2.5,3.8*32
$GPRMC,203212.000,A,3748.7778,N,12217.8170,W,0.45,318.29,270911,,,D*7B
$GPVTG,318.29,T,,M,0.45,N,0.8,K,D*00
$GPGGA,203213.000,3748.7780,N,12217.8171,W,2,06,1.6,10.3,M,-25.1,M,2.8,0000*78
