$ADVER,3080,2.3
$GPRMC,172135.003,A,3748.8000,N,12217.8589,W,0.05,238.04,270911,,,A*73
$GPRMC,172136.003,A,3748.8001,N,12217.8591,W,0.08,247.44,270911,,,A*79
$GPRMC,172137.003,A,3748.8002,N,12217.8592,W,0.05,230.72,270911,,,A*70
$GPRMC,172138.000,A,3748.8003,N,12217.8594,W,0.04,246.38,270911,,,A*75
$GPRMC,172139.000,A,3748.8003,N,12217.8595,W,0.06,223.91,270911,,,A*77
$GPRMC,172140.000,A,3748.8004,N,12217.8596,W,0.06,227.87,270911,,,A*7E
$GPRMC,172141.000,A,3748.8005,N,12217.8597,W,0.06,239.60,270911,,,A*79
$GPRMC,172142.000,A,3748.8005,N,12217.8598,W,0.07,206.17,270911,,,A*78
$GPRMC,172143.000,A,3748.8006,N,12217.8600,W,0.06,243.73,270911,,,A*7A
$GPRMC,172144.000,A,3748.8007,N,12217.8601,W,0.07,221.85,270911,,,A*71
$GPRMC,172145.000,A,3748.8007,N,12217.8602,W,0.06,224.38,270911,,,A*71
$GPRMC,172146.000,A,3748.8007,N,12217.8603,W,0.06,224.42,270911,,,A*7E
$GPRMC,172147.000,A,3748.8008,N,12217.8604,W,0.06,226.11,270911,,,A*73
$GPRMC,172148.000,A,3748.8008,N,12217.8605,W,0.05,221.46,270911,,,A*7B
$GPRMC,172149.000,A,3748.8008,N,12217.8606,W,0.05,225.71,270911,,,A*79
$GPRMC,172150.000,A,3748.8009,N,12217.8607,W,0.06,213.18,270911,,,A*78
$GPRMC,172151.000,A,3748.8009,N,12217.8607,W,0.04,204.81,270911,,,A*7D
$GPRMC,172152.000,A,3748.8009,N,12217.8608,W,0.06,221.02,270911,,,A*7F
$GPRMC,172153.000,A,3748.8009,N,12217.8608,W,0.05,216.81,270911,,,A*72
$GPRMC,172154.000,A,3748.8009,N,12217.8609,W,0.07,218.24,270911,,,A*77
$GPRMC,172155.000,A,3748.8009,N,12217.8609,W,0.04,208.33,270911,,,A*72
$GPRMC,172156.000,A,3748.8009,N,12217.8610,W,0.07,213.62,270911,,,A*74
$GPRMC,172157.000,A,3748.8009,N,12217.8610,W,0.04,227.16,270911,,,A*72
$GPRMC,172158.000,A,3748.8009,N,12217.8610,W,0.05,208.49,270911,,,A*7B
$GPRMC,172159.000,A,3748.8009,N,12217.8611,W,0.07,213.57,270911,,,A*7C
$GPRMC,172200.000,A,3748.8009,N,12217.8611,W,0.05,213.95,270911,,,A*7F
$GPRMC,172201.000,A,3748.8009,N,12217.8611,W,0.06,220.31,270911,,,A*73
$GPRMC,172202.000,A,3748.8009,N,12217.8612,W,0.05,221.65,270911,,,A*70
$GPRMC,172203.000,A,3748.8009,N,12217.8612,W,0.07,194.99,270911,,,A*7D
$GPRMC,172204.000,A,3748.8039,N,12217.8664,W,0.03,216.77,270911,,,A*75
$GPRMC,172205.000,A,3748.8043,N,12217.8671,W,0.05,200.12,270911,,,A*7F
$GPRMC,172206.000,A,3748.8045,N,12217.8674,W,0.04,197.04,270911,,,A*74
$GPRMC,172207.000,A,3748.8046,N,12217.8676,W,0.04,181.57,270911,,,A*75
$GPRMC,172208.000,A,3748.8046,N,12217.8677,W,0.05,210.64,270911,,,A*71
$GPRMC,172209.000,A,3748.8047,N,12217.8678,W,0.04,213.05,270911,,,A*7B
$GPRMC,172210.000,A,3748.8047,N,12217.8679,W,0.05,187.64,270911,,,A*7A
$GPRMC,172211.000,A,3748.8047,N,12217.8680,W,0.03,199.63,270911,,,A*73
$GPRMC,172212.000,A,3748.8047,N,12217.8680,W,0.04,213.34,270911,,,A*74
$GPRMC,172213.000,A,3748.8047,N,12217.8681,W,0.05,197.28,270911,,,A*77
$GPRMC,172214.000,A,3748.8047,N,12217.8681,W,0.06,186.34,270911,,,A*7E
$GPRMC,172215.000,A,3748.8047,N,12217.8681,W,0.08,215.04,270911,,,D*7E
$GPRMC,172216.000,A,3748.8046,N,12217.8681,W,0.08,219.90,270911,,,D*7D
$GPRMC,172217.000,A,3748.8046,N,12217.8681,W,0.03,244.92,270911,,,D*7D
$GPRMC,172218.000,A,3748.8046,N,12217.8681,W,0.03,344.01,270911,,,D*79
$GPRMC,172219.000,A,3748.8047,N,12217.8681,W,0.05,307.34,270911,,,D*7E
$GPRMC,172220.000,A,3748.8047,N,12217.8681,W,0.04,338.79,270911,,,D*70
$GPRMC,172221.000,A,3748.8047,N,12217.8681,W,0.04,113.08,270911,,,D*7C
$GPRMC,172222.000,A,3748.8047,N,12217.8681,W,0.02,105.47,270911,,,D*75
$GPRMC,172223.000,A,3748.8046,N,12217.8680,W,0.09,165.92,270911,,,D*71
$GPRMC,172224.000,A,3748.8046,N,12217.8680,W,0.10,185.60,270911,,,D*7D
$GPRMC,172225.000,A,3748.8045,N,12217.8680,W,0.09,175.25,270911,,,D*79
$GPRMC,172226.000,A,3748.8045,N,12217.8680,W,0.09,178.89,270911,,,D*71
$GPRMC,172227.000,A,3748.8045,N,12217.8680,W,0.08,205.12,270911,,,D*7A
$GPRMC,172228.000,A,3748.8045,N,12217.8680,W,0.08,187.50,270911,,,D*7A
$GPRMC,172229.000,A,3748.8045,N,12217.8680,W,0.02,129.69,270911,,,D*7F
$GPRMC,172230.000,A,3748.8045,N,12217.8679,W,0.01,93.75,270911,,,D*4F
$GPRMC,172231.000,A,3748.8045,N,12217.8679,W,0.02,78.19,270911,,,D*42
$GPRMC,172232.000,A,3748.8039,N,12217.8673,W,0.08,135.85,270911,,,D*77
$GPRMC,172233.000,A,3748.8035,N,12217.8668,W,0.11,130.16,270911,,,D*77
$GPRMC,172234.000,A,3748.8032,N,12217.8664,W,0.08,121.52,270911,,,D*73
$GPRMC,172235.000,A,3748.8029,N,12217.8661,W,0.16,152.64,270911,,,D*73
$GPRMC,172236.000,A,3748.8027,N,12217.8658,W,0.12,193.54,270911,,,D*7E
$GPRMC,172237.000,A,3748.8025,N,12217.8656,W,0.14,154.24,270911,,,D*79
$GPRMC,172238.000,A,3748.8023,N,12217.8654,W,0.14,197.74,270911,,,D*78
$GPRMC,172239.000,A,3748.8022,N,12217.8653,W,0.14,203.53,270911,,,D*74
$GPRMC,172240.000,A,3748.8020,N,12217.8651,W,0.15,153.09,270911,,,D*72
$GPRMC,172241.000,A,3748.8020,N,12217.8650,W,0.08,168.32,270911,,,D*7E
$GPRMC,172242.000,A,3748.8019,N,12217.8648,W,0.06,158.94,270911,,,D*7F
$GPRMC,172243.000,A,3748.8018,N,12217.8647,W,0.11,120.48,270911,,,D*78
$GPRMC,172244.000,A,3748.8018,N,12217.8646,W,0.12,121.06,270911,,,D*76
$GPRMC,172245.000,A,3748.8017,N,12217.8645,W,0.05,148.96,270911,,,D*7B
$GPRMC,172246.000,A,3748.8017,N,12217.8644,W,0.01,297.10,270911,,,D*72
$GPRMC,172247.000,A,3748.8017,N,12217.8643,W,0.07,201.08,270911,,,D*74
$GPRMC,172248.000,A,3748.8016,N,12217.8643,W,0.07,180.18,270911,,,D*71
$GPRMC,172249.000,A,3748.8016,N,12217.8642,W,0.07,182.29,270911,,,D*71
$GPRMC,172250.000,A,3748.8016,N,12217.8641,W,0.08,171.15,270911,,,D*76
$GPRMC,172251.000,A,3748.8015,N,12217.8641,W,0.11,203.90,270911,,,D*77
$GPRMC,172252.000,A,3748.8015,N,12217.8641,W,0.16,170.15,270911,,,D*79
$GPRMC,172253.000,A,3748.8015,N,12217.8640,W,0.03,77.06,270911,,,D*49
$GPRMC,172254.000,A,3748.8015,N,12217.8639,W,0.06,114.17,270911,,,D*71
$GPRMC,172255.000,A,3748.8013,N,12217.8637,W,0.23,218.76,270911,,,D*77
$GPRMC,172256.000,A,3748.8014,N,12217.8637,W,0.72,0.94,270911,,,D*70
$GPRMC,172257.000,A,3748.8014,N,12217.8637,W,0.35,224.30,270911,,,D*78
$GPRMC,172258.000,A,3748.8015,N,12217.8636,W,0.22,116.44,270911,,,D*70
$GPRMC,172259.000,A,3748.8014,N,12217.8635,W,0.36,11.30,270911,,,D*43
$GPRMC,172300.000,A,3748.8010,N,12217.8632,W,0.51,146.18,270911,,,D*75
$GPRMC,172301.000,A,3748.8008,N,12217.8634,W,0.45,244.55,270911,,,D*76
$GPRMC,172302.000,A,3748.8006,N,12217.8640,W,0.25,16.68,270911,,,D*45
$GPRMC,172303.000,A,3748.8004,N,12217.8642,W,0.23,178.34,270911,,,D*72
$GPRMC,172304.000,A,3748.8004,N,12217.8645,W,0.52,340.42,270911,,,D*7C
$GPRMC,172305.000,A,3748.8002,N,12217.8646,W,0.14,163.49,270911,,,D*72
$GPRMC,172306.000,A,3748.8002,N,12217.8647,W,0.42,5.96,270911,,,D*70
$GPRMC,172307.000,A,3748.8003,N,12217.8646,W,0.93,116.26,270911,,,D*75
$GPRMC,172308.000,A,3748.8005,N,12217.8644,W,0.42,39.79,270911,,,D*44
$GPRMC,172309.000,A,3748.8007,N,12217.8643,W,0.61,344.04,270911,,,D*72
$GPRMC,172310.000,A,3748.8004,N,12217.8645,W,0.46,125.39,270911,,,A*74
$GPRMC,172311.000,A,3748.7999,N,12217.8650,W,0.57,174.44,270911,,,A*7D
$GPRMC,172312.000,A,3748.7994,N,12217.8654,W,0.53,177.49,270911,,,A*7D
$GPRMC,172313.000,A,3748.7987,N,12217.8655,W,0.21,156.16,270911,,,A*73
$GPRMC,172314.000,A,3748.7983,N,12217.8656,W,0.09,118.64,270911,,,A*76
$GPRMC,172315.000,A,3748.7979,N,12217.8655,W,0.49,159.45,270911,,,A*73
$GPRMC,172316.000,A,3748.7979,N,12217.8652,W,0.24,118.56,270911,,,A*7B
$GPRMC,172317.000,A,3748.7980,N,12217.8650,W,0.60,142.86,270911,,,A*7C
$GPRMC,172318.000,A,3748.7978,N,12217.8652,W,0.41,275.12,270911,,,A*7F
$GPRMC,172319.000,A,3748.7972,N,12217.8654,W,0.58,180.62,270911,,,A*74
$GPRMC,172320.000,A,3748.7971,N,12217.8658,W,0.68,188.85,270911,,,A*73
$GPRMC,172321.000,A,3748.7970,N,12217.8657,W,0.76,126.21,270911,,,D*7C
$GPRMC,172322.000,A,3748.7967,N,12217.8655,W,0.59,180.60,270911,,,D*7F
$GPRMC,172323.000,A,3748.7963,N,12217.8650,W,0.63,165.20,270911,,,D*79
$GPRMC,172324.000,A,3748.7957,N,12217.8646,W,0.62,164.17,270911,,,D*7A
$GPRMC,172325.000,A,3748.7958,N,12217.8645,W,0.72,294.78,270911,,,D*73
$GPRMC,172326.000,A,3748.7961,N,12217.8643,W,0.60,222.97,270911,,,D*73
$GPRMC,172327.000,A,3748.7963,N,12217.8638,W,0.50,142.67,270911,,,D*75
$GPRMC,172328.000,A,3748.7963,N,12217.8634,W,0.40,168.39,270911,,,D*74
$GPRMC,172329.000,A,3748.7964,N,12217.8632,W,0.61,221.75,270911,,,D*71
$GPRMC,172330.000,A,3748.7964,N,12217.8622,W,0.36,184.83,270911,,,D*7F
$GPRMC,172331.000,A,3748.7966,N,12217.8617,W,0.13,47.09,270911,,,D*41
$GPRMC,172332.000,A,3748.7967,N,12217.8614,W,0.63,25.82,270911,,,D*40
$GPRMC,172333.000,A,3748.7969,N,12217.8610,W,0.66,96.40,270911,,,D*48
$GPRMC,172334.000,A,3748.7968,N,12217.8605,W,0.52,94.86,270911,,,D*45
$GPRMC,172335.000,A,3748.7969,N,12217.8600,W,0.99,96.44,270911,,,D*4B
$GPRMC,172336.000,A,3748.7971,N,12217.8589,W,1.57,94.83,270911,,,D*49
$GPRMC,172337.000,A,3748.7971,N,12217.8583,W,1.75,96.92,270911,,,D*40
$GPRMC,172338.000,A,3748.7974,N,12217.8591,W,0.65,71.41,270911,,,D*4E
$GPRMC,172339.000,A,3748.7975,N,12217.8596,W,0.57,129.83,270911,,,D*7A
$GPRMC,172340.000,A,3748.7972,N,12217.8598,W,0.50,215.81,270911,,,D*74
$GPRMC,172341.000,A,3748.7971,N,12217.8597,W,0.55,14.36,270911,,,D*43
$GPRMC,172342.000,A,3748.7978,N,12217.8594,W,0.30,26.65,270911,,,D*4E
$GPRMC,172343.000,A,3748.7980,N,12217.8591,W,0.05,90.36,270911,,,D*40
$GPRMC,172344.000,A,3748.7982,N,12217.8584,W,0.20,123.92,270911,,,D*71
$GPRMC,172345.000,A,3748.7982,N,12217.8581,W,0.33,128.68,270911,,,A*7C
$GPRMC,172346.000,A,3748.7983,N,12217.8579,W,0.17,294.32,270911,,,A*74
$GPRMC,172347.000,A,3748.7982,N,12217.8581,W,0.21,87.72,270911,,,A*42
$GPRMC,172348.000,A,3748.7981,N,12217.8584,W,0.15,112.69,270911,,,A*7B
$GPRMC,172349.000,A,3748.7981,N,12217.8583,W,0.22,130.91,270911,,,A*7E
$GPRMC,172350.000,A,3748.7982,N,12217.8582,W,0.55,105.11,270911,,,A*7A
$GPRMC,172351.000,A,3748.7980,N,12217.8581,W,0.60,168.02,270911,,,A*75
$GPRMC,172352.000,A,3748.7983,N,12217.8579,W,0.32,121.44,270911,,,A*7A
$GPRMC,172353.000,A,3748.7985,N,12217.8577,W,0.28,83.29,270911,,,A*4A
$GPRMC,172354.000,A,3748.7987,N,12217.8578,W,0.21,350.48,270911,,,A*73
$GPRMC,172355.000,A,3748.7988,N,12217.8580,W,0.28,107.01,270911,,,A*7E
$GPRMC,172356.000,A,3748.7990,N,12217.8584,W,0.38,98.58,270911,,,A*4A
$GPRMC,172357.000,A,3748.7994,N,12217.8591,W,0.33,16.50,270911,,,A*4E
$GPRMC,172358.000,A,3748.7998,N,12217.8598,W,0.13,57.89,270911,,,A*47
$GPRMC,172359.000,A,3748.8001,N,12217.8604,W,0.19,99.81,270911,,,A*46
$GPRMC,172400.000,A,3748.8003,N,12217.8607,W,0.21,112.60,270911,,,A*7A
$GPRMC,172401.000,A,3748.8005,N,12217.8609,W,0.10,157.84,270911,,,A*7A
$GPRMC,172402.000,A,3748.8006,N,12217.8610,W,0.04,92.71,270911,,,A*45
$GPRMC,172403.000,A,3748.8007,N,12217.8612,W,0.61,0.54,270911,,,A*78
$GPRMC,172404.000,A,3748.8010,N,12217.8611,W,0.41,36.75,270911,,,A*4E
$GPRMC,172405.000,A,3748.8012,N,12217.8612,W,0.14,154.21,270911,,,A*7A
$GPRMC,172406.000,A,3748.8012,N,12217.8609,W,0.52,143.66,270911,,,A*74
$GPRMC,172407.000,A,3748.8009,N,12217.8615,W,0.43,218.21,270911,,,A*7C
$GPRMC,172408.000,A,3748.8006,N,12217.8616,W,0.11,116.76,270911,,,A*77
$GPRMC,172409.000,A,3748.8004,N,12217.8616,W,0.14,328.32,270911,,,A*7E
$GPRMC,172410.000,A,3748.8001,N,12217.8616,W,0.09,205.95,270911,,,A*7C
$GPRMC,172411.000,A,3748.7997,N,12217.8609,W,0.16,182.97,270911,,,A*7A
$GPRMC,172412.000,A,3748.7996,N,12217.8607,W,0.40,273.06,270911,,,A*70
$GPRMC,172413.000,A,3748.7996,N,12217.8610,W,0.85,300.69,270911,,,A*72
$GPRMC,172414.000,A,3748.7996,N,12217.8612,W,0.17,26.56,270911,,,A*47
$GPRMC,172415.000,A,3748.7999,N,12217.8608,W,0.45,100.08,270911,,,A*7B
$GPRMC,172416.000,A,3748.7994,N,12217.8597,W,0.27,65.58,270911,,,A*43
$GPRMC,172417.000,A,3748.7991,N,12217.8596,W,0.49,148.44,270911,,,A*7D
$GPRMC,172418.000,A,3748.7989,N,12217.8589,W,0.25,126.06,270911,,,A*71
$GPRMC,172419.000,A,3748.7987,N,12217.8591,W,0.14,110.22,270911,,,A*76
$GPRMC,172420.000,A,3748.7984,N,12217.8593,W,0.02,327.37,270911,,,A*78
$GPRMC,172421.000,A,3748.7983,N,12217.8595,W,0.20,46.41,270911,,,A*4D
$GPRMC,172422.000,A,3748.7981,N,12217.8589,W,0.31,63.19,270911,,,A*4B
$GPRMC,172423.000,A,3748.7982,N,12217.8590,W,0.42,63.88,270911,,,A*4D
$GPRMC,172424.000,A,3748.7982,N,12217.8580,W,0.66,84.45,270911,,,A*45
$GPRMC,172425.000,A,3748.7982,N,12217.8581,W,0.23,35.99,270911,,,A*4F
$GPRMC,172426.000,A,3748.7977,N,12217.8585,W,0.07,2.38,270911,,,A*7B
$GPRMC,172427.000,A,3748.7975,N,12217.8589,W,0.15,29.07,270911,,,A*42
$GPRMC,172428.000,A,3748.7977,N,12217.8592,W,0.27,315.33,270911,,,A*7F
$GPRMC,172429.000,A,3748.7977,N,12217.8599,W,0.60,307.93,270911,,,A*7F
$GPRMC,172430.000,A,3748.7974,N,12217.8605,W,0.56,203.29,270911,,,A*73
$GPRMC,172431.000,A,3748.7976,N,12217.8607,W,0.10,276.80,270911,,,A*71
$GPRMC,172432.000,A,3748.7975,N,12217.8609,W,0.31,258.33,270911,,,A*78
$GPRMC,172433.000,A,3748.7974,N,12217.8609,W,0.06,178.68,270911,,,A*73
$GPRMC,172434.000,A,3748.7964,N,12217.8609,W,0.37,162.40,270911,,,A*76
$GPRMC,172435.000,A,3748.7959,N,12217.8606,W,0.45,182.89,270911,,,A*78
$GPRMC,172436.000,A,3748.7952,N,12217.8606,W,0.68,199.19,270911,,,A*7C
$GPRMC,172437.000,A,3748.7945,N,12217.8611,W,0.76,198.81,270911,,,A*72
$GPRMC,172438.000,A,3748.7942,N,12217.8615,W,0.50,196.35,270911,,,A*7B
$GPRMC,172439.000,A,3748.7936,N,12217.8620,W,0.77,188.70,270911,,,A*74
$GPRMC,172440.000,A,3748.7935,N,12217.8623,W,0.69,179.03,270911,,,A*7F
$GPRMC,172441.000,A,3748.7937,N,12217.8624,W,0.38,210.61,270911,,,A*77
$GPRMC,172442.000,A,3748.7939,N,12217.8625,W,0.25,256.93,270911,,,A*78
$GPRMC,172443.000,A,3748.7941,N,12217.8620,W,0.11,105.57,270911,,,A*79
$GPRMC,172444.000,A,3748.7943,N,12217.8614,W,0.37,66.66,270911,,,A*49
$GPRMC,172445.000,A,3748.7949,N,12217.8610,W,0.09,56.54,270911,,,A*49
$GPRMC,172446.000,A,3748.7945,N,12217.8601,W,0.42,118.52,270911,,,A*74
$GPRMC,172447.000,A,3748.7942,N,12217.8599,W,0.34,115.09,270911,,,A*72
$GPRMC,172448.000,A,3748.7941,N,12217.8597,W,0.48,124.78,270911,,,A*7F
$GPRMC,172449.000,A,3748.7940,N,12217.8594,W,0.45,127.70,270911,,,A*7A
$GPRMC,172450.000,A,3748.7941,N,12217.8592,W,0.19,333.27,270911,,,A*79
$GPRMC,172451.000,A,3748.7942,N,12217.8590,W,0.96,36.76,270911,,,D*49
$GPRMC,172452.000,A,3748.7950,N,12217.8588,W,1.07,55.32,270911,,,D*4C
$GPRMC,172453.000,A,3748.7962,N,12217.8589,W,0.97,6.82,270911,,,D*78
$GPRMC,172454.000,A,3748.7970,N,12217.8595,W,0.29,316.61,270911,,,D*7B
$GPRMC,172455.000,A,3748.7972,N,12217.8601,W,0.27,248.82,270911,,,D*7F
$GPRMC,172456.000,A,3748.7979,N,12217.8602,W,0.79,358.16,270911,,,D*72
$GPRMC,172457.000,A,3748.7981,N,12217.8604,W,0.05,181.66,270911,,,D*78
$GPRMC,172458.000,A,3748.7984,N,12217.8608,W,0.17,155.36,270911,,,D*71
$GPRMC,172459.000,A,3748.7987,N,12217.8608,W,0.73,77.69,270911,,,D*4A
$GPRMC,172500.000,A,3748.7987,N,12217.8607,W,0.55,87.51,270911,,,D*48
$GPRMC,172501.000,A,3748.7993,N,12217.8610,W,0.27,285.91,270911,,,D*73
$GPRMC,172502.000,A,3748.8002,N,12217.8614,W,0.19,252.92,270911,,,D*7E
$GPRMC,172503.000,A,3748.8012,N,12217.8617,W,0.47,328.48,270911,,,D*7D
$GPRMC,172504.000,A,3748.8011,N,12217.8619,W,0.14,356.88,270911,,,D*74
$GPRMC,172505.000,A,3748.8012,N,12217.8622,W,0.17,22.57,270911,,,D*4F
$GPRMC,172506.000,A,3748.8013,N,12217.8625,W,0.17,140.72,270911,,,D*78
$GPRMC,172507.000,A,3748.8013,N,12217.8626,W,0.44,145.84,270911,,,D*70
$GPRMC,172508.000,A,3748.8011,N,12217.8627,W,0.28,194.43,270911,,,D*71
$GPRMC,172509.000,A,3748.8010,N,12217.8628,W,0.22,203.47,270911,,,D*7D
$GPRMC,172510.000,A,3748.8010,N,12217.8629,W,0.20,249.88,270911,,,D*7B
$GPRMC,172511.000,A,3748.8010,N,12217.8630,W,0.14,228.59,270911,,,D*7E
$GPRMC,172512.000,A,3748.8011,N,12217.8631,W,0.13,312.18,270911,,,D*77
$GPRMC,172513.000,A,3748.8011,N,12217.8631,W,0.24,317.75,270911,,,D*7C
$GPRMC,172514.000,A,3748.8011,N,12217.8632,W,0.30,177.90,270911,,,A*77
$GPRMC,172515.000,A,3748.8010,N,12217.8632,W,0.35,152.95,270911,,,A*70
$GPRMC,172516.000,A,3748.8009,N,12217.8632,W,0.15,237.84,270911,,,A*79
$GPRMC,172517.000,A,3748.8012,N,12217.8634,W,0.33,318.19,270911,,,A*78
$GPRMC,172518.000,A,3748.8014,N,12217.8637,W,0.18,211.23,270911,,,A*7A
$GPRMC,172519.000,A,3748.8012,N,12217.8636,W,0.16,206.80,270911,,,A*7D
$GPRMC,172520.000,A,3748.8019,N,12217.8639,W,0.37,44.21,270911,,,A*4F
$GPRMC,172521.000,A,3748.8022,N,12217.8639,W,0.11,111.14,270911,,,A*75
$GPRMC,172522.000,A,3748.8023,N,12217.8640,W,0.09,205.00,270911,,,A*73
$GPRMC,172523.000,A,3748.8022,N,12217.8642,W,0.16,189.64,270911,,,A*7A
$GPRMC,172524.000,A,3748.8021,N,12217.8643,W,0.33,152.91,270911,,,A*74
$GPRMC,172525.000,A,3748.8020,N,12217.8644,W,0.07,180.05,270911,,,A*76
$GPRMC,172526.000,A,3748.8020,N,12217.8646,W,0.04,83.15,270911,,,A*47
$GPRMC,172527.000,A,3748.8021,N,12217.8646,W,0.29,345.35,270911,,,A*73
$GPRMC,172528.000,A,3748.8026,N,12217.8649,W,0.26,344.27,270911,,,A*79
$GPRMC,172529.000,A,3748.8024,N,12217.8648,W,0.42,3.42,270911,,,A*7A
$GPRMC,172530.000,A,3748.8025,N,12217.8647,W,0.21,32.86,270911,,,A*43
$GPRMC,172531.000,A,3748.8024,N,12217.8645,W,0.14,265.51,270911,,,A*7D
$GPRMC,172532.000,A,3748.8023,N,12217.8645,W,0.18,159.28,270911,,,A*77
$GPRMC,172533.000,A,3748.8021,N,12217.8643,W,0.04,168.23,270911,,,A*76
$GPRMC,172534.000,A,3748.8020,N,12217.8643,W,0.12,225.94,270911,,,A*71
$GPRMC,172535.000,A,3748.8019,N,12217.8643,W,0.10,189.74,270911,,,A*73
$GPRMC,172536.000,A,3748.8017,N,12217.8642,W,0.18,185.34,270911,,,A*7F
$GPRMC,172537.000,A,3748.8015,N,12217.8642,W,0.62,114.40,270911,,,A*7A
$GPRMC,172538.000,A,3748.8014,N,12217.8643,W,0.51,139.24,270911,,,A*78
$GPRMC,172539.000,A,3748.8017,N,12217.8644,W,0.78,148.71,270911,,,A*70
$GPRMC,172540.000,A,3748.8014,N,12217.8648,W,0.43,174.86,270911,,,A*7E
$GPRMC,172541.000,A,3748.8019,N,12217.8655,W,0.12,270.80,270911,,,A*7B
$GPRMC,172542.000,A,3748.8017,N,12217.8660,W,0.06,351.85,270911,,,A*72
$GPRMC,172543.000,A,3748.8011,N,12217.8667,W,0.15,215.88,270911,,,A*7C
$GPRMC,172544.000,A,3748.8011,N,12217.8672,W,0.26,226.32,270911,,,A*7E
$GPRMC,172545.000,A,3748.8011,N,12217.8676,W,0.17,283.58,270911,,,A*7A
$GPRMC,172546.000,A,3748.8014,N,12217.8679,W,0.29,352.84,270911,,,A*72
$GPRMC,172547.000,A,3748.8009,N,12217.8684,W,0.13,324.23,270911,,,A*78
$GPRMC,172548.000,A,3748.8006,N,12217.8689,W,0.10,290.58,270911,,,A*74
$GPRMC,172549.000,A,3748.8005,N,12217.8692,W,0.14,299.82,270911,,,A*76
$GPRMC,172550.000,A,3748.8009,N,12217.8695,W,0.30,349.45,270911,,,A*74
$GPRMC,172551.000,A,3748.8014,N,12217.8697,W,0.43,351.56,270911,,,A*74
$GPRMC,172552.000,A,3748.8017,N,12217.8700,W,0.32,263.45,270911,,,A*7F
$GPRMC,172553.000,A,3748.8019,N,12217.8704,W,0.82,227.73,270911,,,A*7A
$GPRMC,172554.000,A,3748.8024,N,12217.8707,W,0.32,268.11,270911,,,A*74
$GPRMC,172555.000,A,3748.8029,N,12217.8711,W,0.54,344.25,270911,,,A*77
$GPRMC,172556.000,A,3748.8034,N,12217.8713,W,0.83,2.29,270911,,,A*7D
$GPRMC,172557.000,A,3748.8034,N,12217.8716,W,0.56,347.10,270911,,,A*79
$GPRMC,172558.000,A,3748.8032,N,12217.8719,W,0.73,5.76,270911,,,A*7D
$GPRMC,172559.000,A,3748.8030,N,12217.8719,W,0.17,313.49,270911,,,A*74
$GPRMC,172600.000,A,3748.8026,N,12217.8721,W,0.37,355.13,270911,,,A*78
$GPRMC,172601.000,A,3748.8017,N,12217.8717,W,0.14,109.24,270911,,,A*70
$GPRMC,172602.000,A,3748.8012,N,12217.8710,W,0.43,57.74,270911,,,A*4C
$GPRMC,172603.000,A,3748.8002,N,12217.8707,W,0.47,202.88,270911,,,A*7F
$GPRMC,172604.000,A,3748.7999,N,12217.8709,W,0.38,145.44,270911,,,A*7A
$GPRMC,172605.000,A,3748.7996,N,12217.8708,W,0.80,93.02,270911,,,A*4E
$GPRMC,172606.000,A,3748.7996,N,12217.8707,W,0.11,166.25,270911,,,A*74
$GPRMC,172607.000,A,3748.7990,N,12217.8704,W,0.76,188.28,270911,,,A*7C
$GPRMC,172608.000,A,3748.7985,N,12217.8698,W,0.29,133.02,270911,,,A*71
$GPRMC,172609.000,A,3748.7984,N,12217.8690,W,0.53,34.67,270911,,,D*44
$GPRMC,172610.000,A,3748.7983,N,12217.8687,W,0.40,182.16,270911,,,D*75
$GPRMC,172611.000,A,3748.7982,N,12217.8688,W,0.60,159.79,270911,,,D*77
$GPRMC,172612.000,A,3748.7981,N,12217.8690,W,0.14,171.98,270911,,,D*78
$GPRMC,172613.000,A,3748.7985,N,12217.8688,W,0.26,181.09,270911,,,D*72
$GPRMC,172614.000,A,3748.7986,N,12217.8689,W,0.17,293.99,270911,,,D*7C
$GPRMC,172615.000,A,3748.7990,N,12217.8692,W,0.24,208.02,270911,,,D*70
$GPRMC,172616.000,A,3748.7995,N,12217.8690,W,0.16,132.45,270911,,,D*7C
$GPRMC,172617.000,A,3748.7997,N,12217.8690,W,0.16,310.84,270911,,,D*70
$GPRMC,172618.000,A,3748.7992,N,12217.8692,W,0.16,194.68,270911,,,D*74
$GPRMC,172619.000,A,3748.7983,N,12217.8689,W,0.29,184.13,270911,,,D*7E
$GPRMC,172620.000,A,3748.7976,N,12217.8685,W,0.16,33.26,270911,,,D*45
$GPRMC,172621.000,A,3748.7973,N,12217.8689,W,0.18,122.24,270911,,,D*70
$GPRMC,172622.000,A,3748.7969,N,12217.8691,W,0.35,342.68,270911,,,D*72
$GPRMC,172623.000,A,3748.7971,N,12217.8694,W,0.11,226.97,270911,,,D*7A
$GPRMC,172624.000,A,3748.7972,N,12217.8696,W,0.37,173.35,270911,,,D*73
$GPRMC,172625.000,A,3748.7974,N,12217.8697,W,0.20,143.60,270911,,,D*70
$GPRMC,172626.000,A,3748.7976,N,12217.8699,W,0.16,252.61,270911,,,A*7D
$GPRMC,172627.000,A,3748.7979,N,12217.8700,W,0.28,144.90,270911,,,A*75
$GPRMC,172628.000,A,3748.7981,N,12217.8700,W,0.35,134.68,270911,,,A*71
$GPRMC,172629.000,A,3748.7983,N,12217.8699,W,0.09,318.98,270911,,,A*7F
$GPRMC,172630.000,A,3748.7985,N,12217.8699,W,0.18,268.19,270911,,,A*7E
$GPRMC,172631.000,A,3748.7987,N,12217.8697,W,0.55,304.82,270911,,,A*73
$GPRMC,172632.000,A,3748.7989,N,12217.8696,W,0.15,307.28,270911,,,A*78
$GPRMC,172633.000,A,3748.7993,N,12217.8698,W,0.15,300.24,270911,,,A*77
$GPRMC,172634.000,A,3748.7995,N,12217.8696,W,0.16,130.02,270911,,,A*7E
$GPRMC,172635.000,A,3748.7996,N,12217.8693,W,0.25,3.32,270911,,,A*7B
$GPRMC,172636.000,A,3748.7997,N,12217.8691,W,0.22,163.13,270911,,,A*78
$GPRMC,172637.000,A,3748.7999,N,12217.8689,W,0.13,115.92,270911,,,A*74
$GPRMC,172638.000,A,3748.8004,N,12217.8692,W,0.09,252.48,270911,,,A*7F
$GPRMC,172639.000,A,3748.8008,N,12217.8690,W,0.14,353.69,270911,,,A*7F
$GPRMC,172640.000,A,3748.8009,N,12217.8692,W,0.34,324.41,270911,,,A*7A
$GPRMC,172641.000,A,3748.8011,N,12217.8691,W,0.68,354.34,270911,,,A*7D
$GPRMC,172642.000,A,3748.8013,N,12217.8686,W,0.29,32.00,270911,,,A*4B
$GPRMC,172643.000,A,3748.8014,N,12217.8682,W,0.22,209.93,270911,,,A*72
$GPRMC,172644.000,A,3748.8017,N,12217.8682,W,0.24,152.33,270911,,,A*77
$GPRMC,172645.000,A,3748.8019,N,12217.8680,W,0.31,20.70,270911,,,A*4D
$GPRMC,172646.000,A,3748.8021,N,12217.8681,W,0.51,158.72,270911,,,A*7E
$GPRMC,172647.000,A,3748.8023,N,12217.8685,W,0.76,175.26,270911,,,A*72
$GPRMC,172648.000,A,3748.8024,N,12217.8689,W,0.46,321.59,270911,,,A*7E
$GPRMC,172649.000,A,3748.8026,N,12217.8690,W,0.36,68.45,270911,,,A*41
$GPRMC,172650.000,A,3748.8028,N,12217.8691,W,0.53,18.74,270911,,,A*40
$GPRMC,172651.000,A,3748.8029,N,12217.8690,W,0.29,32.93,270911,,,A*4D
$GPRMC,172652.000,A,3748.8029,N,12217.8689,W,0.19,350.92,270911,,,A*73
$GPRMC,172653.000,A,3748.8028,N,12217.8688,W,0.23,75.15,270911,,,A*40
$GPRMC,172654.000,A,3748.8027,N,12217.8686,W,0.24,51.04,270911,,,A*47
$GPRMC,172655.000,A,3748.8026,N,12217.8684,W,0.28,149.58,270911,,,A*78
$GPRMC,172656.000,A,3748.8025,N,12217.8682,W,0.41,147.70,270911,,,A*75
$GPRMC,172657.000,A,3748.8024,N,12217.8680,W,0.23,132.95,270911,,,A*7A
$GPRMC,172658.000,A,3748.8021,N,12217.8678,W,0.15,199.48,270911,,,A*73
$GPRMC,172659.000,A,3748.8017,N,12217.8677,W,0.35,159.02,270911,,,A*78
$GPRMC,172700.000,A,3748.8014,N,12217.8675,W,0.28,156.01,270911,,,A*74
$GPRMC,172701.000,A,3748.8011,N,12217.8673,W,0.40,156.87,270911,,,A*76
$GPRMC,172702.000,A,3748.8008,N,12217.8671,W,0.52,164.83,270911,,,A*79
$GPRMC,172703.000,A,3748.8005,N,12217.8668,W,0.57,165.10,270911,,,A*73
$GPRMC,172704.000,A,3748.8003,N,12217.8666,W,0.55,166.69,270911,,,A*73
$GPRMC,172705.000,A,3748.8001,N,12217.8664,W,0.53,159.83,270911,,,A*7C
$GPRMC,172706.000,A,3748.7999,N,12217.8662,W,0.58,163.34,270911,,,A*70
$GPRMC,172707.000,A,3748.7994,N,12217.8659,W,0.34,153.46,270911,,,A*78
$GPRMC,172708.000,A,3748.7992,N,12217.8657,W,0.28,174.68,270911,,,A*7B
$GPRMC,172709.000,A,3748.7989,N,12217.8656,W,0.42,185.87,270911,,,A*72
$GPRMC,172710.000,A,3748.7992,N,12217.8654,W,0.40,115.28,270911,,,A*7C
$GPRMC,172711.000,A,3748.7994,N,12217.8652,W,0.50,160.14,270911,,,A*71
$GPRMC,172712.000,A,3748.7996,N,12217.8650,W,0.15,19.80,270911,,,A*41
$GPRMC,172713.000,A,3748.7999,N,12217.8649,W,0.23,325.95,270911,,,A*7A
$GPRMC,172714.000,A,3748.8003,N,12217.8649,W,0.14,235.34,270911,,,A*77
$GPRMC,172715.000,A,3748.8005,N,12217.8648,W,0.19,58.28,270911,,,A*48
$GPRMC,172716.000,A,3748.8007,N,12217.8649,W,1.05,234.23,270911,,,A*77
$GPRMC,172717.000,A,3748.8011,N,12217.8654,W,1.78,211.25,270911,,,A*76
$GPRMC,172718.000,A,3748.8008,N,12217.8661,W,1.74,205.07,270911,,,A*7E
$GPRMC,172719.000,A,3748.8005,N,12217.8668,W,1.46,190.87,270911,,,A*7D
$GPRMC,172720.000,A,3748.8003,N,12217.8673,W,0.94,136.78,270911,,,A*79
$GPRMC,172721.000,A,3748.8001,N,12217.8677,W,0.73,137.34,270911,,,A*7E
$GPRMC,172722.000,A,3748.8000,N,12217.8682,W,0.81,115.60,270911,,,A*7A
$GPRMC,172723.000,A,3748.7999,N,12217.8685,W,0.77,106.42,270911,,,A*71
$GPRMC,172724.000,A,3748.7998,N,12217.8688,W,0.73,95.47,270911,,,A*40
$GPRMC,172725.000,A,3748.8000,N,12217.8689,W,0.87,81.85,270911,,,A*47
$GPRMC,172726.000,A,3748.8000,N,12217.8690,W,1.17,103.90,270911,,,A*7B
$GPRMC,172727.000,A,3748.7996,N,12217.8690,W,1.23,114.38,270911,,,A*70
$GPRMC,172728.000,A,3748.7998,N,12217.8689,W,1.30,83.56,270911,,,A*4C
$GPRMC,172729.000,A,3748.8000,N,12217.8688,W,1.23,67.96,270911,,,A*4F
$GPRMC,172730.000,A,3748.8002,N,12217.8688,W,1.11,57.32,270911,,,A*49
$GPRMC,172731.000,A,3748.8003,N,12217.8689,W,0.59,74.39,270911,,,A*4F
$GPRMC,172732.000,A,3748.7992,N,12217.8691,W,1.00,160.78,270911,,,A*77
$GPRMC,172733.000,A,3748.7990,N,12217.8695,W,1.15,155.56,270911,,,A*7E
$GPRMC,172734.000,A,3748.7979,N,12217.8702,W,1.75,177.22,270911,,,A*74
$GPRMC,172735.000,A,3748.7952,N,12217.8707,W,1.84,185.89,270911,,,A*7B
$GPRMC,172736.000,A,3748.7930,N,12217.8716,W,2.38,191.47,270911,,,A*7F
$GPRMC,172737.000,A,3748.7923,N,12217.8720,W,2.37,188.62,270911,,,A*79
$GPRMC,172738.000,A,3748.7909,N,12217.8724,W,2.52,182.96,270911,,,A*78
$GPRMC,172739.000,A,3748.7903,N,12217.8726,W,2.49,184.55,270911,,,A*72
$GPRMC,172740.000,A,3748.7888,N,12217.8730,W,2.15,187.92,270911,,,A*78
$GPRMC,172741.000,A,3748.7884,N,12217.8733,W,2.07,177.35,270911,,,A*77
$GPRMC,172742.000,A,3748.7877,N,12217.8734,W,1.86,175.94,270911,,,A*7C
$GPRMC,172743.000,A,3748.7874,N,12217.8736,W,1.66,171.10,270911,,,A*7A
$GPRMC,172744.000,A,3748.7855,N,12217.8741,W,1.80,173.73,270911,,,A*71
$GPRMC,172745.000,A,3748.7841,N,12217.8745,W,1.86,184.82,270911,,,A*71
$GPRMC,172746.000,A,3748.7830,N,12217.8750,W,1.95,188.96,270911,,,A*7B
$GPRMC,172747.000,A,3748.7818,N,12217.8754,W,2.13,185.39,270911,,,A*71
$GPRMC,172748.000,A,3748.7803,N,12217.8759,W,2.19,179.14,270911,,,A*7F
$GPRMC,172749.000,A,3748.7795,N,12217.8762,W,2.32,182.67,270911,,,A*7F
$GPRMC,172750.000,A,3748.7788,N,12217.8765,W,2.25,181.75,270911,,,A*7A
$GPRMC,172751.000,A,3748.7785,N,12217.8767,W,1.94,180.15,270911,,,A*7A
$GPRMC,172752.000,A,3748.7777,N,12217.8769,W,2.05,178.76,270911,,,A*73
$GPRMC,172753.000,A,3748.7772,N,12217.8772,W,2.20,183.04,270911,,,A*7B
$GPRMC,172754.000,A,3748.7763,N,12217.8774,W,2.32,183.46,270911,,,A*7F
$GPRMC,172755.000,A,3748.7759,N,12217.8776,W,2.28,178.53,270911,,,A*7E
$GPRMC,172756.000,A,3748.7749,N,12217.8778,W,2.33,173.85,270911,,,A*78
$GPRMC,172757.000,A,3748.7742,N,12217.8780,W,2.34,180.94,270911,,,A*7E
$GPRMC,172758.000,A,3748.7737,N,12217.8782,W,2.19,186.76,270911,,,A*74
$GPRMC,172759.000,A,3748.7724,N,12217.8787,W,2.72,178.89,270911,,,A*7E
$GPRMC,172800.000,A,3748.7712,N,12217.8791,W,2.74,181.44,270911,,,A*7E
$GPRMC,172801.000,A,3748.7697,N,12217.8795,W,2.65,171.04,270911,,,A*7C
$GPRMC,172802.000,A,3748.7682,N,12217.8799,W,2.88,173.88,270911,,,A*72
$GPRMC,172803.000,A,3748.7673,N,12217.8803,W,3.05,186.93,270911,,,A*75
$GPRMC,172804.000,A,3748.7668,N,12217.8806,W,2.70,177.61,270911,,,A*7D
$GPRMC,172805.000,A,3748.7660,N,12217.8808,W,2.31,175.07,270911,,,A*7D
$GPRMC,172806.000,A,3748.7656,N,12217.8809,W,2.25,167.24,270911,,,A*7D
$GPRMC,172807.000,A,3748.7652,N,12217.8811,W,2.09,176.18,270911,,,A*70
$GPRMC,172808.000,A,3748.7650,N,12217.8813,W,2.61,189.43,270911,,,A*7F
$GPRMC,172809.000,A,3748.7644,N,12217.8816,W,2.47,182.86,270911,,,A*78
$GPRMC,172810.000,A,3748.7639,N,12217.8818,W,2.60,170.54,270911,,,A*73
$GPRMC,172811.000,A,3748.7627,N,12217.8822,W,2.64,177.73,270911,,,A*72
$GPRMC,172812.000,A,3748.7618,N,12217.8826,W,2.41,177.30,270911,,,A*79
$GPRMC,172813.000,A,3748.7610,N,12217.8828,W,2.49,177.49,270911,,,A*78
$GPRMC,172814.000,A,3748.7606,N,12217.8830,W,2.24,178.24,270911,,,A*7E
$GPRMC,172815.000,A,3748.7600,N,12217.8831,W,2.29,175.61,270911,,,A*79
$GPRMC,172816.000,A,3748.7600,N,12217.8831,W,2.26,177.75,270911,,,A*72
$GPRMC,172817.000,A,3748.7591,N,12217.8836,W,2.87,196.69,270911,,,A*76
$GPRMC,172818.000,A,3748.7584,N,12217.8841,W,2.76,194.69,270911,,,A*71
$GPRMC,172819.000,A,3748.7573,N,12217.8846,W,2.89,189.85,270911,,,A*71
$GPRMC,172820.000,A,3748.7566,N,12217.8849,W,2.47,174.22,270911,,,A*7D
$GPRMC,172821.000,A,3748.7558,N,12217.8851,W,2.16,177.00,270911,,,A*7F
$GPRMC,172822.000,A,3748.7548,N,12217.8854,W,2.40,175.91,270911,,,A*71
$GPRMC,172823.000,A,3748.7543,N,12217.8856,W,2.27,173.93,270911,,,A*7C
$GPRMC,172824.000,A,3748.7539,N,12217.8857,W,2.33,167.79,270911,,,A*73
$GPRMC,172825.000,A,3748.7529,N,12217.8859,W,2.47,165.05,270911,,,A*77
$GPRMC,172826.000,A,3748.7518,N,12217.8861,W,2.38,166.25,270911,,,A*74
$GPRMC,172827.000,A,3748.7509,N,12217.8864,W,2.76,180.07,270911,,,A*72
$GPRMC,172828.000,A,3748.7499,N,12217.8868,W,2.55,181.83,270911,,,A*75
$GPRMC,172829.000,A,3748.7489,N,12217.8872,W,2.76,192.21,270911,,,A*75
$GPRMC,172830.000,A,3748.7481,N,12217.8877,W,2.78,187.79,270911,,,A*77
$GPRMC,172831.000,A,3748.7469,N,12217.8882,W,3.12,181.77,270911,,,A*7F
$GPRMC,172832.000,A,3748.7458,N,12217.8886,W,2.95,176.83,270911,,,A*77
$GPRMC,172833.000,A,3748.7453,N,12217.8888,W,2.36,176.22,270911,,,A*71
$GPRMC,172834.000,A,3748.7447,N,12217.8891,W,2.43,180.02,270911,,,A*72
$GPRMC,172835.000,A,3748.7441,N,12217.8895,W,2.58,168.80,270911,,,A*77
$GPRMC,172836.000,A,3748.7432,N,12217.8898,W,2.80,175.59,270911,,,A*70
$GPRMC,172837.000,A,3748.7425,N,12217.8902,W,2.53,177.98,270911,,,A*74
$GPRMC,172838.000,A,3748.7416,N,12217.8906,W,2.44,173.80,270911,,,A*74
$GPRMC,172839.000,A,3748.7413,N,12217.8910,W,2.25,180.84,270911,,,A*78
$GPRMC,172840.000,A,3748.7411,N,12217.8914,W,2.34,176.51,270911,,,A*71
$GPRMC,172841.000,A,3748.7407,N,12217.8918,W,1.78,171.06,270911,,,A*75
$GPRMC,172842.000,A,3748.7407,N,12217.8921,W,1.91,160.81,270911,,,A*74
$GPRMC,172843.000,A,3748.7396,N,12217.8924,W,2.51,173.30,270911,,,A*78
$GPRMC,172844.000,A,3748.7385,N,12217.8927,W,2.45,168.79,270911,,,A*7C
$GPRMC,172845.000,A,3748.7379,N,12217.8929,W,2.40,172.20,270911,,,A*72
$GPRMC,172846.000,A,3748.7374,N,12217.8933,W,2.43,177.88,270911,,,A*73
$GPRMC,172847.000,A,3748.7370,N,12217.8934,W,2.42,168.31,270911,,,A*7C
$GPRMC,172848.000,A,3748.7367,N,12217.8936,W,2.31,170.28,270911,,,A*72
$GPRMC,172849.000,A,3748.7362,N,12217.8939,W,2.26,176.32,270911,,,A*72
$GPRMC,172850.000,A,3748.7354,N,12217.8942,W,1.87,177.90,270911,,,A*72
$GPRMC,172851.000,A,3748.7348,N,12217.8945,W,2.04,168.11,270911,,,A*76
$GPRMC,172852.000,A,3748.7341,N,12217.8949,W,2.59,195.22,270911,,,A*7A
$GPRMC,172853.000,A,3748.7332,N,12217.8955,W,2.05,183.88,270911,,,A*7C
$GPRMC,172854.000,A,3748.7320,N,12217.8961,W,2.13,175.82,270911,,,A*7B
$GPRMC,172855.000,A,3748.7315,N,12217.8964,W,2.13,174.60,270911,,,A*74
$GPRMC,172856.000,A,3748.7309,N,12217.8967,W,2.29,168.34,270911,,,A*7C
$GPRMC,172857.000,A,3748.7307,N,12217.8968,W,1.99,165.69,270911,,,A*71
$GPRMC,172858.000,A,3748.7301,N,12217.8972,W,2.14,183.89,270911,,,A*73
$GPRMC,172859.000,A,3748.7295,N,12217.8976,W,1.78,174.45,270911,,,A*7B
$GPRMC,172900.000,A,3748.7290,N,12217.8978,W,1.93,168.41,270911,,,A*71
$GPRMC,172901.000,A,3748.7293,N,12217.8979,W,1.79,182.66,270911,,,A*77
$GPRMC,172902.000,A,3748.7289,N,12217.8982,W,2.14,186.56,270911,,,A*74
$GPRMC,172903.000,A,3748.7285,N,12217.8986,W,2.02,174.27,270911,,,A*71
$GPRMC,172904.000,A,3748.7280,N,12217.8988,W,2.12,164.72,270911,,,A*7D
$GPRMC,172905.000,A,3748.7276,N,12217.8990,W,1.77,168.53,270911,,,A*73
$GPRMC,172906.000,A,3748.7274,N,12217.8993,W,1.73,176.39,270911,,,A*76
$GPRMC,172907.000,A,3748.7272,N,12217.8997,W,2.42,170.02,270911,,,A*7A
$GPRMC,172908.000,A,3748.7273,N,12217.8999,W,1.64,160.91,270911,,,A*76
$GPRMC,172909.000,A,3748.7271,N,12217.9001,W,1.63,180.70,270911,,,A*7A
$GPRMC,172910.000,A,3748.7266,N,12217.9004,W,2.30,178.24,270911,,,A*72
$GPRMC,172911.000,A,3748.7265,N,12217.9009,W,1.99,185.59,270911,,,A*75
$GPRMC,172912.000,A,3748.7256,N,12217.9014,W,1.91,192.59,270911,,,A*74
$GPRMC,172913.000,A,3748.7256,N,12217.9022,W,1.90,250.18,270911,,,A*79
$GPRMC,172914.000,A,3748.7257,N,12217.9031,W,2.10,256.62,270911,,,A*7D
$GPRMC,172915.000,A,3748.7253,N,12217.9037,W,1.75,193.78,270911,,,A*7F
$GPRMC,172916.000,A,3748.7242,N,12217.9043,W,1.91,183.41,270911,,,A*7E
$GPRMC,172917.000,A,3748.7231,N,12217.9048,W,1.72,184.44,270911,,,A*7F
$GPRMC,172918.000,A,3748.7219,N,12217.9054,W,1.78,185.22,270911,,,A*7C
$GPRMC,172919.000,A,3748.7213,N,12217.9058,W,1.78,180.93,270911,,,A*74
$GPRMC,172920.000,A,3748.7207,N,12217.9063,W,2.44,190.92,270911,,,A*7F
$GPRMC,172921.000,A,3748.7197,N,12217.9068,W,2.67,179.22,270911,,,A*72
$GPRMC,172922.000,A,3748.7188,N,12217.9073,W,2.76,186.61,270911,,,A*72
$GPRMC,172923.000,A,3748.7184,N,12217.9077,W,2.22,187.66,270911,,,A*7C
$GPRMC,172924.000,A,3748.7178,N,12217.9082,W,2.36,190.10,270911,,,A*70
$GPRMC,172925.000,A,3748.7177,N,12217.9088,W,2.07,198.39,270911,,,A*75
$GPRMC,172926.000,A,3748.7176,N,12217.9092,W,1.49,186.94,270911,,,A*7D
$GPRMC,172927.000,A,3748.7176,N,12217.9096,W,1.92,200.70,270911,,,A*79
$GPRMC,172928.000,A,3748.7167,N,12217.9102,W,1.82,179.78,270911,,,A*7E
$GPRMC,172929.000,A,3748.7158,N,12217.9107,W,1.58,180.59,270911,,,A*74
$GPRMC,172930.000,A,3748.7148,N,12217.9113,W,2.56,196.54,270911,,,A*7F
$GPRMC,172931.000,A,3748.7143,N,12217.9117,W,2.02,178.69,270911,,,A*7E
$GPRMC,172932.000,A,3748.7133,N,12217.9123,W,2.01,174.70,270911,,,A*7A
$GPRMC,172933.000,A,3748.7123,N,12217.9128,W,2.38,188.12,270911,,,A*7C
$GPRMC,172934.000,A,3748.7110,N,12217.9136,W,2.87,178.62,270911,,,A*78
$GPRMC,172935.000,A,3748.7098,N,12217.9144,W,3.10,189.74,270911,,,A*7B
$GPRMC,172936.000,A,3748.7085,N,12217.9153,W,2.96,194.09,270911,,,A*7B
$GPRMC,172937.000,A,3748.7072,N,12217.9163,W,3.46,196.20,270911,,,A*74
$GPRMC,172938.000,A,3748.7065,N,12217.9170,W,3.34,196.58,270911,,,A*75
$GPRMC,172939.000,A,3748.7060,N,12217.9178,W,3.10,204.69,270911,,,A*75
$GPRMC,172940.000,A,3748.7053,N,12217.9184,W,2.43,187.94,270911,,,A*75
$GPRMC,172941.000,A,3748.7046,N,12217.9189,W,2.48,187.48,270911,,,A*77
$GPRMC,172942.000,A,3748.7037,N,12217.9196,W,2.63,188.50,270911,,,A*73
$GPRMC,172943.000,A,3748.7031,N,12217.9201,W,2.34,190.30,270911,,,A*74
$GPRMC,172944.000,A,3748.7028,N,12217.9207,W,2.58,194.16,270911,,,A*77
$GPRMC,172945.000,A,3748.7024,N,12217.9210,W,2.26,191.21,270911,,,A*74
$GPRMC,172946.000,A,3748.7018,N,12217.9215,W,1.90,191.51,270911,,,A*74
$GPRMC,172947.000,A,3748.7009,N,12217.9221,W,3.00,193.63,270911,,,A*7A
$GPRMC,172948.000,A,3748.7002,N,12217.9223,W,2.75,176.34,270911,,,A*76
$GPRMC,172949.000,A,3748.6996,N,12217.9227,W,2.47,181.60,270911,,,A*7E
$GPRMC,172950.000,A,3748.6987,N,12217.9232,W,2.68,186.94,270911,,,A*73
$GPRMC,172951.000,A,3748.6989,N,12217.9242,W,1.90,201.15,270911,,,A*7A
$GPRMC,172952.000,A,3748.6985,N,12217.9249,W,1.89,199.39,270911,,,A*7A
$GPRMC,172953.000,A,3748.6980,N,12217.9255,W,2.17,199.77,270911,,,A*7D
$GPRMC,172954.000,A,3748.6974,N,12217.9263,W,2.51,187.57,270911,,,A*7B
$GPRMC,172955.000,A,3748.6969,N,12217.9267,W,2.80,178.01,270911,,,A*7D
$GPRMC,172956.000,A,3748.6968,N,12217.9270,W,2.70,180.56,270911,,,A*73
$GPRMC,172957.000,A,3748.6970,N,12217.9272,W,2.29,186.86,270911,,,A*7E
$GPRMC,172958.000,A,3748.6970,N,12217.9277,W,1.63,195.61,270911,,,A*72
$GPRMC,172959.000,A,3748.6965,N,12217.9284,W,1.83,189.58,270911,,,A*72
$GPRMC,173000.000,A,3748.6959,N,12217.9291,W,1.54,189.07,270911,,,A*7D
$GPRMC,173001.000,A,3748.6957,N,12217.9296,W,1.70,201.81,270911,,,A*7E
$GPRMC,173002.000,A,3748.6957,N,12217.9300,W,1.87,185.15,270911,,,A*79
$GPRMC,173003.000,A,3748.6958,N,12217.9303,W,1.95,193.63,270911,,,A*71
$GPRMC,173004.000,A,3748.6952,N,12217.9311,W,1.91,191.59,270911,,,A*70
$GPRMC,173005.000,A,3748.6949,N,12217.9317,W,1.37,200.92,270911,,,A*7D
$GPRMC,173006.000,A,3748.6943,N,12217.9324,W,1.67,206.58,270911,,,A*71
$GPRMC,173007.000,A,3748.6939,N,12217.9330,W,1.70,204.58,270911,,,A*7C
$GPRMC,173008.000,A,3748.6935,N,12217.9336,W,1.61,196.91,270911,,,A*74
$GPRMC,173009.000,A,3748.6929,N,12217.9342,W,1.86,198.10,270911,,,A*75
$GPRMC,173010.000,A,3748.6925,N,12217.9348,W,2.33,211.99,270911,,,A*75
$GPRMC,173011.000,A,3748.6920,N,12217.9354,W,2.34,204.94,270911,,,A*72
$GPRMC,173012.000,A,3748.6917,N,12217.9362,W,1.97,210.06,270911,,,A*74
$GPRMC,173013.000,A,3748.6913,N,12217.9369,W,1.52,201.47,270911,,,A*76
$GPRMC,173014.000,A,3748.6906,N,12217.9376,W,1.41,204.93,270911,,,A*75
$GPRMC,173015.000,A,3748.6902,N,12217.9383,W,1.00,197.11,270911,,,A*7C
$GPRMC,173016.000,A,3748.6903,N,12217.9386,W,0.91,201.96,270911,,,A*71
$GPRMC,173017.000,A,3748.6901,N,12217.9391,W,1.23,207.27,270911,,,A*70
$GPRMC,173018.000,A,3748.6900,N,12217.9395,W,0.96,205.54,270911,,,A*73
$GPRMC,173019.000,A,3748.6900,N,12217.9396,W,0.83,194.68,270911,,,A*71
$GPRMC,173020.000,A,3748.6896,N,12217.9400,W,1.17,185.31,270911,,,A*7D
$GPRMC,173021.000,A,3748.6890,N,12217.9406,W,1.33,193.88,270911,,,A*7F
$GPRMC,173022.000,A,3748.6885,N,12217.9413,W,1.16,186.21,270911,,,A*7C
$GPRMC,173023.000,A,3748.6878,N,12217.9418,W,1.50,179.83,270911,,,A*7E
$GPRMC,173024.000,A,3748.6870,N,12217.9423,W,1.95,182.71,270911,,,A*79
$GPRMC,173025.000,A,3748.6864,N,12217.9429,W,1.75,187.52,270911,,,A*7D
$GPRMC,173026.000,A,3748.6860,N,12217.9438,W,2.12,201.87,270911,,,A*7D
$GPRMC,173027.000,A,3748.6854,N,12217.9446,W,2.52,208.06,270911,,,A*76
$GPRMC,173028.000,A,3748.6851,N,12217.9454,W,2.27,206.01,270911,,,A*74
$GPRMC,173029.000,A,3748.6853,N,12217.9468,W,2.23,198.42,270911,,,A*7F
$GPRMC,173030.000,A,3748.6852,N,12217.9476,W,2.28,201.08,270911,,,A*7F
$GPRMC,173031.000,A,3748.6848,N,12217.9484,W,2.34,198.68,270911,,,A*70
$GPRMC,173032.000,A,3748.6844,N,12217.9494,W,2.08,201.81,270911,,,A*75
$GPRMC,173033.000,A,3748.6840,N,12217.9499,W,2.04,196.26,270911,,,A*71
$GPRMC,173034.000,A,3748.6837,N,12217.9503,W,2.08,203.10,270911,,,A*72
$GPRMC,173035.000,A,3748.6833,N,12217.9510,W,1.87,202.61,270911,,,A*76
$GPRMC,173036.000,A,3748.6827,N,12217.9516,W,1.78,200.92,270911,,,A*78
$GPRMC,173037.000,A,3748.6836,N,12217.9534,W,1.59,200.26,270911,,,A*75
$GPRMC,173038.000,A,3748.6839,N,12217.9544,W,1.91,205.24,270911,,,A*71
$GPRMC,173039.000,A,3748.6838,N,12217.9553,W,1.70,203.01,270911,,,A*79
$GPRMC,173040.000,A,3748.6838,N,12217.9562,W,1.63,207.20,270911,,,A*70
$GPRMC,173041.000,A,3748.6834,N,12217.9573,W,2.26,206.31,270911,,,A*7E
$GPRMC,173042.000,A,3748.6821,N,12217.9586,W,3.20,212.98,270911,,,A*72
$GPRMC,173043.000,A,3748.6809,N,12217.9597,W,2.78,207.96,270911,,,A*7F
$GPRMC,173044.000,A,3748.6806,N,12217.9611,W,2.38,211.77,270911,,,A*76
$GPRMC,173045.000,A,3748.6794,N,12217.9621,W,1.83,207.95,270911,,,A*78
$GPRMC,173046.000,A,3748.6789,N,12217.9626,W,1.17,191.49,270911,,,A*70
$GPRMC,173047.000,A,3748.6782,N,12217.9634,W,0.74,188.06,270911,,,A*7E
$GPRMC,173048.000,A,3748.6778,N,12217.9640,W,1.00,193.02,270911,,,A*7B
$GPRMC,173049.000,A,3748.6770,N,12217.9645,W,1.18,183.77,270911,,,A*7D
$GPRMC,173050.000,A,3748.6761,N,12217.9648,W,1.70,203.34,270911,,,A*7A
$GPRMC,173051.000,A,3748.6752,N,12217.9653,W,2.14,206.85,270911,,,A*7F
$GPRMC,173052.000,A,3748.6741,N,12217.9658,W,1.98,205.98,270911,,,A*7D
$GPRMC,173053.000,A,3748.6736,N,12217.9662,W,1.77,200.86,270911,,,A*7E
$GPRMC,173054.000,A,3748.6732,N,12217.9665,W,1.75,188.78,270911,,,A*7A
$GPRMC,173055.000,A,3748.6731,N,12217.9668,W,1.85,198.88,270911,,,A*74
$GPRMC,173056.000,A,3748.6727,N,12217.9670,W,1.51,189.54,270911,,,A*71
$GPRMC,173057.000,A,3748.6724,N,12217.9673,W,1.42,197.75,270911,,,A*7E
$GPRMC,173058.000,A,3748.6721,N,12217.9676,W,1.89,196.63,270911,,,A*70
$GPRMC,173059.000,A,3748.6718,N,12217.9679,W,2.05,206.94,270911,,,A*71
$GPRMC,173100.000,A,3748.6715,N,12217.9683,W,2.57,202.11,270911,,,A*7A
$GPRMC,173101.000,A,3748.6708,N,12217.9686,W,2.06,181.35,270911,,,A*78
$GPRMC,173102.000,A,3748.6701,N,12217.9690,W,1.92,195.92,270911,,,A*73
$GPRMC,173103.000,A,3748.6691,N,12217.9696,W,1.21,194.34,270911,,,A*79
$GPRMC,173104.000,A,3748.6686,N,12217.9701,W,1.05,199.62,270911,,,A*7F
$GPRMC,173105.000,A,3748.6685,N,12217.9703,W,1.47,199.31,270911,,,A*7F
$GPRMC,173106.000,A,3748.6691,N,12217.9704,W,0.17,125.13,270911,,,A*7D
$GPRMC,173107.000,A,3748.6689,N,12217.9708,W,0.52,143.57,270911,,,A*78
$GPRMC,173108.000,A,3748.6689,N,12217.9717,W,1.18,226.52,270911,,,A*73
$GPRMC,173109.000,A,3748.6686,N,12217.9725,W,1.09,222.38,270911,,,A*74
$GPRMC,173110.000,A,3748.6688,N,12217.9729,W,1.71,214.17,270911,,,A*79
$GPRMC,173111.000,A,3748.6691,N,12217.9739,W,2.33,226.82,270911,,,A*79
$GPRMC,173112.000,A,3748.6687,N,12217.9746,W,2.26,215.52,270911,,,A*7C
$GPRMC,173113.000,A,3748.6672,N,12217.9758,W,3.11,192.96,270911,,,A*79
$GPRMC,173114.000,A,3748.6658,N,12217.9766,W,2.67,174.65,270911,,,A*7F
$GPRMC,173115.000,A,3748.6653,N,12217.9772,W,2.05,158.19,270911,,,A*71
$GPRMC,173116.000,A,3748.6650,N,12217.9777,W,1.91,152.33,270911,,,A*78
$GPRMC,173117.000,A,3748.6639,N,12217.9780,W,2.28,160.39,270911,,,A*74
$GPRMC,173118.000,A,3748.6630,N,12217.9782,W,2.04,175.58,270911,,,A*7D
$GPRMC,173119.000,A,3748.6626,N,12217.9785,W,1.40,175.36,270911,,,A*77
$GPRMC,173120.000,A,3748.6618,N,12217.9785,W,1.23,168.64,270911,,,A*7E
$GPRMC,173121.000,A,3748.6615,N,12217.9786,W,1.86,170.97,270911,,,A*7B
$GPRMC,173122.000,A,3748.6608,N,12217.9788,W,1.36,181.86,270911,,,A*7F
$GPRMC,173123.000,A,3748.6609,N,12217.9794,W,0.60,215.24,270911,,,A*76
$GPRMC,173124.000,A,3748.6599,N,12217.9801,W,0.68,212.85,270911,,,A*7C
$GPRMC,173125.000,A,3748.6592,N,12217.9804,W,1.03,196.88,270911,,,A*7D
$GPRMC,173126.000,A,3748.6587,N,12217.9806,W,1.72,176.96,270911,,,A*7F
$GPRMC,173127.000,A,3748.6579,N,12217.9806,W,1.76,174.44,270911,,,A*76
$GPRMC,173128.000,A,3748.6567,N,12217.9810,W,1.58,185.69,270911,,,A*7C
$GPRMC,173129.000,A,3748.6560,N,12217.9813,W,1.38,175.82,270911,,,A*75
$GPRMC,173130.000,A,3748.6553,N,12217.9815,W,1.11,177.93,270911,,,A*72
$GPRMC,173131.000,A,3748.6546,N,12217.9817,W,1.11,176.79,270911,,,A*70
$GPRMC,173132.000,A,3748.6539,N,12217.9819,W,1.65,182.55,270911,,,A*73
$GPRMC,173133.000,A,3748.6530,N,12217.9822,W,2.40,185.12,270911,,,A*73
$GPRMC,173134.000,A,3748.6522,N,12217.9824,W,1.66,183.48,270911,,,A*7F
$GPRMC,173135.000,A,3748.6514,N,12217.9828,W,1.55,194.55,270911,,,A*7D
$GPRMC,173136.000,A,3748.6509,N,12217.9832,W,1.52,202.37,270911,,,A*76
$GPRMC,173137.000,A,3748.6499,N,12217.9837,W,1.95,202.29,270911,,,A*7E
$GPRMC,173138.000,A,3748.6492,N,12217.9842,W,2.06,214.27,270911,,,A*78
$GPRMC,173139.000,A,3748.6486,N,12217.9847,W,1.82,211.85,270911,,,A*7B
$GPRMC,173140.000,A,3748.6477,N,12217.9853,W,1.46,196.78,270911,,,A*78
$GPRMC,173141.000,A,3748.6472,N,12217.9855,W,1.01,169.25,270911,,,A*71
$GPRMC,173142.000,A,3748.6467,N,12217.9859,W,0.80,192.82,270911,,,A*7B
$GPRMC,173143.000,A,3748.6464,N,12217.9864,W,0.39,185.77,270911,,,A*79
$GPRMC,173144.000,A,3748.6465,N,12217.9873,W,1.70,210.77,270911,,,A*7A
$GPRMC,173145.000,A,3748.6458,N,12217.9880,W,1.33,203.09,270911,,,A*75
$GPRMC,173146.000,A,3748.6449,N,12217.9886,W,1.08,187.14,270911,,,A*7B
$GPRMC,173147.000,A,3748.6436,N,12217.9893,W,1.60,196.57,270911,,,A*7F
$GPRMC,173148.000,A,3748.6430,N,12217.9897,W,1.67,194.54,270911,,,A*74
$GPRMC,173149.000,A,3748.6423,N,12217.9902,W,1.81,195.49,270911,,,A*7F
$GPRMC,173150.000,A,3748.6416,N,12217.9908,W,2.01,203.14,270911,,,A*74
$GPRMC,173151.000,A,3748.6408,N,12217.9913,W,1.89,200.58,270911,,,A*78
$GPRMC,173152.000,A,3748.6398,N,12217.9919,W,1.69,190.57,270911,,,A*74
$GPRMC,173153.000,A,3748.6390,N,12217.9924,W,2.03,183.07,270911,,,A*7B
$GPRMC,173154.000,A,3748.6384,N,12217.9928,W,2.04,184.69,270911,,,A*7D
$GPRMC,173155.000,A,3748.6379,N,12217.9933,W,1.83,189.78,270911,,,A*75
$GPRMC,173156.000,A,3748.6374,N,12217.9940,W,1.44,191.34,270911,,,A*75
$GPRMC,173157.000,A,3748.6370,N,12217.9947,W,1.60,196.69,270911,,,A*7E
$GPRMC,173158.000,A,3748.6366,N,12217.9953,W,1.90,196.55,270911,,,A*73
$GPRMC,173159.000,A,3748.6357,N,12217.9959,W,1.95,195.93,270911,,,A*76
$GPRMC,173200.000,A,3748.6350,N,12217.9966,W,1.98,193.08,270911,,,A*7B
$GPRMC,173201.000,A,3748.6344,N,12217.9972,W,1.59,198.85,270911,,,A*79
$GPRMC,173202.000,A,3748.6333,N,12217.9981,W,1.92,191.63,270911,,,A*70
$GPRMC,173203.000,A,3748.6323,N,12217.9992,W,2.65,198.42,270911,,,A*73
$GPRMC,173204.000,A,3748.6321,N,12218.0004,W,1.65,204.21,270911,,,A*76
$GPRMC,173205.000,A,3748.6319,N,12218.0014,W,1.51,204.29,270911,,,A*72
$GPRMC,173206.000,A,3748.6314,N,12218.0019,W,1.89,186.26,270911,,,A*72
$GPRMC,173207.000,A,3748.6308,N,12218.0023,W,1.40,186.16,270911,,,A*71
$GPRMC,173208.000,A,3748.6302,N,12218.0028,W,1.67,197.57,270911,,,A*7F
$GPRMC,173209.000,A,3748.6295,N,12218.0031,W,1.71,175.61,270911,,,A*77
$GPRMC,173210.000,A,3748.6290,N,12218.0035,W,1.54,176.39,270911,,,A*77
$GPRMC,173211.000,A,3748.6287,N,12218.0039,W,1.18,182.12,270911,,,A*76
$GPRMC,173212.000,A,3748.6279,N,12218.0043,W,1.96,208.50,270911,,,A*78
$GPRMC,173213.000,A,3748.6272,N,12218.0047,W,1.59,178.75,270911,,,A*76
$GPRMC,173214.000,A,3748.6263,N,12218.0051,W,1.43,169.78,270911,,,A*70
$GPRMC,173215.000,A,3748.6256,N,12218.0057,W,1.96,146.96,270911,,,A*74
$GPRMC,173216.000,A,3748.6245,N,12218.0058,W,2.81,139.63,270911,,,A*7D
$GPRMC,173217.000,A,3748.6239,N,12218.0060,W,2.04,122.81,270911,,,A*77
$GPRMC,173218.000,A,3748.6226,N,12218.0053,W,2.24,117.90,270911,,,A*72
$GPRMC,173219.000,A,3748.6216,N,12218.0043,W,2.75,121.15,270911,,,A*7D
$GPRMC,173220.000,A,3748.6205,N,12218.0033,W,2.81,114.35,270911,,,A*7D
$GPRMC,173221.000,A,3748.6193,N,12218.0024,W,2.67,119.20,270911,,,A*77
$GPRMC,173222.000,A,3748.6183,N,12218.0017,W,2.00,120.99,270911,,,A*7C
$GPRMC,173223.000,A,3748.6170,N,12218.0011,W,1.85,118.23,270911,,,A*73
$GPRMC,173224.000,A,3748.6160,N,12218.0001,W,2.25,123.07,270911,,,A*73
$GPRMC,173225.000,A,3748.6151,N,12217.9993,W,2.69,133.97,270911,,,A*74
$GPRMC,173226.000,A,3748.6137,N,12217.9986,W,2.63,137.33,270911,,,A*73
$GPRMC,173227.000,A,3748.6128,N,12217.9976,W,2.90,135.61,270911,,,A*7A
$GPRMC,173228.000,A,3748.6122,N,12217.9966,W,2.76,125.31,270911,,,A*72
$GPRMC,173229.000,A,3748.6122,N,12217.9954,W,2.42,116.83,270911,,,A*7C
$GPRMC,173230.000,A,3748.6119,N,12217.9945,W,2.48,125.92,270911,,,A*76
$GPRMC,173231.000,A,3748.6119,N,12217.9935,W,2.46,125.44,270911,,,A*75
$GPRMC,173232.000,A,3748.6115,N,12217.9925,W,2.90,116.84,270911,,,A*7C
$GPRMC,173233.000,A,3748.6106,N,12217.9917,W,2.78,116.82,270911,,,A*7E
$GPRMC,173234.000,A,3748.6104,N,12217.9908,W,2.43,112.75,270911,,,A*71
$GPRMC,173235.000,A,3748.6102,N,12217.9899,W,2.61,117.02,270911,,,A*7A
$GPRMC,173236.000,A,3748.6099,N,12217.9889,W,2.65,114.66,270911,,,A*7E
$GPRMC,173237.000,A,3748.6094,N,12217.9881,W,2.55,121.72,270911,,,A*7A
$GPRMC,173238.000,A,3748.6091,N,12217.9870,W,2.67,117.53,270911,,,A*79
$GPRMC,173239.000,A,3748.6089,N,12217.9859,W,2.74,110.21,270911,,,A*7A
$GPRMC,173240.000,A,3748.6085,N,12217.9849,W,2.70,112.43,270911,,,A*7B
$GPRMC,173241.000,A,3748.6084,N,12217.9838,W,2.68,102.15,270911,,,A*76
$GPRMC,173242.000,A,3748.6083,N,12217.9827,W,2.29,110.78,270911,,,A*71
$GPRMC,173243.000,A,3748.6080,N,12217.9819,W,2.61,120.50,270911,,,A*7B
$GPRMC,173244.000,A,3748.6075,N,12217.9810,W,2.84,125.76,270911,,,A*75
$GPRMC,173245.000,A,3748.6070,N,12217.9802,W,2.72,119.91,270911,,,A*7D
$GPRMC,173246.000,A,3748.6067,N,12217.9792,W,2.33,99.84,270911,,,A*46
$GPRMC,173247.000,A,3748.6063,N,12217.9783,W,2.09,104.88,270911,,,A*73
$GPRMC,173248.000,A,3748.6059,N,12217.9773,W,2.38,99.71,270911,,,A*4B
$GPRMC,173249.000,A,3748.6055,N,12217.9765,W,2.00,108.13,270911,,,A*77
$GPRMC,173250.000,A,3748.6052,N,12217.9756,W,2.07,107.93,270911,,,A*78
$GPRMC,173251.000,A,3748.6045,N,12217.9747,W,2.76,128.78,270911,,,A*71
$GPRMC,173252.000,A,3748.6040,N,12217.9735,W,2.79,124.60,270911,,,A*78
$GPRMC,173253.000,A,3748.6034,N,12217.9729,W,2.63,137.16,270911,,,A*7F
$GPRMC,173254.000,A,3748.6026,N,12217.9725,W,2.62,138.68,270911,,,A*70
$GPRMC,173255.000,A,3748.6019,N,12217.9720,W,2.33,117.26,270911,,,A*7B
$GPRMC,173256.000,A,3748.6018,N,12217.9713,W,2.18,117.72,270911,,,A*71
$GPRMC,173257.000,A,3748.6010,N,12217.9708,W,2.26,132.46,270911,,,A*7F
$GPRMC,173258.000,A,3748.6004,N,12217.9701,W,2.19,109.09,270911,,,A*73
$GPRMC,173259.000,A,3748.6002,N,12217.9691,W,2.50,109.29,270911,,,A*73
$GPRMC,173300.000,A,3748.5997,N,12217.9683,W,2.56,123.10,270911,,,A*7F
$GPRMC,173301.000,A,3748.5996,N,12217.9675,W,2.26,98.91,270911,,,A*49
$GPRMC,173302.000,A,3748.5994,N,12217.9667,W,2.14,111.26,270911,,,A*76
$GPRMC,173303.000,A,3748.5991,N,12217.9659,W,2.18,112.90,270911,,,A*7D
$GPRMC,173304.000,A,3748.5987,N,12217.9651,W,1.99,121.63,270911,,,A*73
$GPRMC,173305.000,A,3748.5982,N,12217.9643,W,2.42,123.97,270911,,,A*78
$GPRMC,173306.000,A,3748.5976,N,12217.9637,W,2.51,122.27,270911,,,A*7B
$GPRMC,173307.000,A,3748.5969,N,12217.9630,W,2.48,118.92,270911,,,A*7C
$GPRMC,173308.000,A,3748.5964,N,12217.9622,W,2.59,126.47,270911,,,A*78
$GPRMC,173309.000,A,3748.5957,N,12217.9614,W,2.36,116.94,270911,,,A*78
$GPRMC,173310.000,A,3748.5952,N,12217.9608,W,2.31,109.62,270911,,,A*78
$GPRMC,173311.000,A,3748.5946,N,12217.9601,W,2.56,98.81,270911,,,A*40
$GPRMC,173312.000,A,3748.5941,N,12217.9596,W,2.25,103.56,270911,,,A*74
$GPRMC,173313.000,A,3748.5936,N,12217.9589,W,2.68,109.77,270911,,,A*7B
$GPRMC,173314.000,A,3748.5933,N,12217.9577,W,2.56,111.78,270911,,,A*73
$GPRMC,173315.000,A,3748.5928,N,12217.9567,W,2.47,109.82,270911,,,A*75
$GPRMC,173316.000,A,3748.5926,N,12217.9556,W,2.65,125.07,270911,,,A*79
$GPRMC,173317.000,A,3748.5924,N,12217.9546,W,2.25,123.86,270911,,,A*70
$GPRMC,173318.000,A,3748.5921,N,12217.9537,W,2.73,116.72,270911,,,A*72
$GPRMC,173319.000,A,3748.5921,N,12217.9526,W,2.69,100.63,270911,,,A*7F
$GPRMC,173320.000,A,3748.5918,N,12217.9517,W,2.63,97.36,270911,,,A*48
$GPRMC,173321.000,A,3748.5917,N,12217.9506,W,2.76,104.19,270911,,,A*74
$GPRMC,173322.000,A,3748.5910,N,12217.9499,W,2.53,102.90,270911,,,A*77
$GPRMC,173323.000,A,3748.5901,N,12217.9494,W,2.73,111.76,270911,,,A*73
$GPRMC,173324.000,A,3748.5895,N,12217.9486,W,2.62,122.83,270911,,,A*71
$GPRMC,173325.000,A,3748.5886,N,12217.9481,W,2.56,126.37,270911,,,A*79
$GPRMC,173326.000,A,3748.5880,N,12217.9475,W,2.62,137.73,270911,,,A*70
$GPRMC,173327.000,A,3748.5877,N,12217.9467,W,1.80,109.89,270911,,,A*7D
$GPRMC,173328.000,A,3748.5872,N,12217.9464,W,1.34,130.14,270911,,,A*75
$GPRMC,173329.000,A,3748.5868,N,12217.9460,W,1.88,109.53,270911,,,A*75
$GPRMC,173330.000,A,3748.5864,N,12217.9455,W,1.75,109.61,270911,,,A*74
$GPRMC,173331.000,A,3748.5862,N,12217.9450,W,2.42,97.38,270911,,,A*4B
$GPRMC,173332.000,A,3748.5853,N,12217.9448,W,1.89,101.07,270911,,,A*75
$GPRMC,173333.000,A,3748.5852,N,12217.9443,W,1.98,102.56,270911,,,A*79
$GPRMC,173334.000,A,3748.5849,N,12217.9437,W,2.46,123.74,270911,,,A*74
$GPRMC,173335.000,A,3748.5844,N,12217.9427,W,2.88,104.77,270911,,,A*7D
$GPRMC,173336.000,A,3748.5839,N,12217.9421,W,1.98,97.14,270911,,,A*4E
$GPRMC,173337.000,A,3748.5838,N,12217.9415,W,1.04,114.74,270911,,,A*70
$GPRMC,173338.000,A,3748.5832,N,12217.9420,W,2.18,176.43,270911,,,A*7D
$GPRMC,173339.000,A,3748.5828,N,12217.9420,W,1.70,181.20,270911,,,A*77
$GPRMC,173340.000,A,3748.5824,N,12217.9419,W,1.64,177.03,270911,,,A*72
$GPRMC,173341.000,A,3748.5819,N,12217.9420,W,2.19,206.50,270911,,,A*7D
$GPRMC,173342.000,A,3748.5816,N,12217.9424,W,2.12,217.92,270911,,,A*70
$GPRMC,173343.000,A,3748.5814,N,12217.9428,W,1.91,209.19,270911,,,A*7B
$GPRMC,173344.000,A,3748.5803,N,12217.9438,W,2.21,204.42,270911,,,A*70
$GPRMC,173345.000,A,3748.5803,N,12217.9439,W,2.33,206.27,270911,,,A*72
$GPRMC,173346.000,A,3748.5803,N,12217.9441,W,1.98,202.68,270911,,,A*73
$GPRMC,173347.000,A,3748.5798,N,12217.9445,W,1.39,189.25,270911,,,A*79
$GPRMC,173348.000,A,3748.5794,N,12217.9447,W,2.13,198.79,270911,,,A*7A
$GPRMC,173349.000,A,3748.5791,N,12217.9451,W,1.68,189.87,270911,,,A*77
$GPRMC,173350.000,A,3748.5786,N,12217.9455,W,0.93,202.58,270911,,,A*7A
$GPRMC,173351.000,A,3748.5780,N,12217.9459,W,1.06,203.66,270911,,,A*70
$GPRMC,173352.000,A,3748.5774,N,12217.9462,W,1.17,192.25,270911,,,A*7C
$GPRMC,173353.000,A,3748.5772,N,12217.9462,W,1.34,176.49,270911,,,A*7A
$GPRMC,173354.000,A,3748.5769,N,12217.9464,W,0.86,204.07,270911,,,A*75
$GPRMC,173355.000,A,3748.5764,N,12217.9467,W,1.06,204.57,270911,,,A*76
$GPRMC,173356.000,A,3748.5756,N,12217.9470,W,1.55,206.18,270911,,,A*7D
$GPRMC,173357.000,A,3748.5744,N,12217.9472,W,1.62,205.06,270911,,,A*75
$GPRMC,173358.000,A,3748.5731,N,12217.9477,W,1.74,231.38,270911,,,A*70
$GPRMC,173359.000,A,3748.5723,N,12217.9481,W,1.89,200.29,270911,,,A*7B
$GPRMC,173400.000,A,3748.5720,N,12217.9487,W,1.63,223.87,270911,,,A*74
$GPRMC,173401.000,A,3748.5719,N,12217.9496,W,1.16,254.64,270911,,,A*70
$GPRMC,173402.000,A,3748.5718,N,12217.9502,W,0.51,190.18,270911,,,A*7C
$GPRMC,173403.000,A,3748.5718,N,12217.9510,W,0.87,208.69,270911,,,A*71
$GPRMC,173404.000,A,3748.5713,N,12217.9515,W,1.17,202.56,270911,,,A*76
$GPRMC,173405.000,A,3748.5707,N,12217.9519,W,1.51,204.51,270911,,,A*7D
$GPRMC,173406.000,A,3748.5702,N,12217.9522,W,1.76,203.36,270911,,,A*70
$GPRMC,173407.000,A,3748.5695,N,12217.9527,W,1.59,199.48,270911,,,A*7F
$GPRMC,173408.000,A,3748.5688,N,12217.9530,W,1.40,198.72,270911,,,A*7A
$GPRMC,173409.000,A,3748.5679,N,12217.9532,W,1.48,206.41,270911,,,A*7B
$GPRMC,173410.000,A,3748.5673,N,12217.9534,W,1.47,210.97,270911,,,A*7C
$GPRMC,173411.000,A,3748.5670,N,12217.9538,W,1.45,211.17,270911,,,A*79
$GPRMC,173412.000,A,3748.5665,N,12217.9543,W,1.79,198.43,270911,,,A*7E
$GPRMC,173413.000,A,3748.5664,N,12217.9549,W,1.82,211.47,270911,,,A*76
$GPRMC,173414.000,A,3748.5653,N,12217.9555,W,1.73,209.29,270911,,,A*77
$GPRMC,173415.000,A,3748.5646,N,12217.9558,W,2.12,191.01,270911,,,A*73
$GPRMC,173416.000,A,3748.5637,N,12217.9558,W,1.72,180.16,270911,,,A*75
$GPRMC,173417.000,A,3748.5630,N,12217.9561,W,2.14,197.78,270911,,,A*74
$GPRMC,173418.000,A,3748.5623,N,12217.9564,W,2.44,191.49,270911,,,A*7D
$GPRMC,173419.000,A,3748.5616,N,12217.9568,W,2.15,211.96,270911,,,A*7B
$GPRMC,173420.000,A,3748.5612,N,12217.9571,W,1.41,192.10,270911,,,A*79
$GPRMC,173421.000,A,3748.5607,N,12217.9573,W,1.27,185.77,270911,,,A*79
$GPRMC,173422.000,A,3748.5604,N,12217.9576,W,1.06,211.01,270911,,,A*70
$GPRMC,173423.000,A,3748.5601,N,12217.9580,W,1.05,236.39,270911,,,A*70
$GPRMC,173424.000,A,3748.5597,N,12217.9584,W,0.81,221.05,270911,,,A*7B
$GPRMC,173425.000,A,3748.5592,N,12217.9590,W,1.39,198.66,270911,,,A*7C
$GPRMC,173426.000,A,3748.5588,N,12217.9596,W,2.39,216.15,270911,,,A*70
$GPRMC,173427.000,A,3748.5580,N,12217.9602,W,2.38,215.14,270911,,,A*74
$GPRMC,173428.000,A,3748.5571,N,12217.9607,W,0.61,232.17,270911,,,A*78
$GPRMC,173429.000,A,3748.5565,N,12217.9609,W,0.76,30.17,270911,,,A*44
$GPRMC,173430.000,A,3748.5564,N,12217.9607,W,2.27,15.41,270911,,,A*41
$GPRMC,173431.000,A,3748.5565,N,12217.9607,W,2.02,12.80,270911,,,A*4C
$GPRMC,173432.000,A,3748.5565,N,12217.9611,W,0.62,339.39,270911,,,A*74
$GPRMC,173433.000,A,3748.5566,N,12217.9613,W,0.62,220.96,270911,,,A*78
$GPRMC,173434.000,A,3748.5562,N,12217.9615,W,0.81,287.29,270911,,,A*79
$GPRMC,173435.000,A,3748.5560,N,12217.9617,W,1.11,210.62,270911,,,A*71
$GPRMC,173436.000,A,3748.5558,N,12217.9615,W,0.59,66.44,270911,,,A*41
$GPRMC,173437.000,A,3748.5559,N,12217.9612,W,1.55,14.86,270911,,,A*40
$GPRMC,173438.000,A,3748.5562,N,12217.9605,W,1.77,2.97,270911,,,A*76
$GPRMC,173439.000,A,3748.5564,N,12217.9600,W,1.21,358.77,270911,,,A*75
$GPRMC,173440.000,A,3748.5566,N,12217.9598,W,1.20,334.19,270911,,,A*78
$GPRMC,173441.000,A,3748.5566,N,12217.9596,W,0.46,24.38,270911,,,A*47
$GPRMC,173442.000,A,3748.5568,N,12217.9598,W,0.45,359.49,270911,,,A*78
$GPRMC,173443.000,A,3748.5569,N,12217.9600,W,0.25,172.25,270911,,,A*7D
$GPRMC,173444.000,A,3748.5568,N,12217.9603,W,0.54,173.15,270911,,,A*7C
$GPRMC,173445.000,A,3748.5561,N,12217.9600,W,0.79,149.79,270911,,,A*7B
$GPRMC,173446.000,A,3748.5560,N,12217.9602,W,0.08,22.99,270911,,,A*4F
$GPRMC,173447.000,A,3748.5561,N,12217.9604,W,0.41,351.50,270911,,,A*76
$GPRMC,173448.000,A,3748.5562,N,12217.9607,W,0.09,278.49,270911,,,A*77
$GPRMC,173449.000,A,3748.5561,N,12217.9609,W,0.21,155.25,270911,,,A*77
$GPRMC,173450.000,A,3748.5561,N,12217.9609,W,0.19,14.55,270911,,,A*47
$GPRMC,173451.000,A,3748.5560,N,12217.9613,W,0.34,264.14,270911,,,A*73
$GPRMC,173452.000,A,3748.5561,N,12217.9616,W,0.35,196.38,270911,,,A*75
$GPRMC,173453.000,A,3748.5560,N,12217.9617,W,0.42,156.10,270911,,,A*72
$GPRMC,173454.000,A,3748.5557,N,12217.9616,W,0.66,169.55,270911,,,A*7B
$GPRMC,173455.000,A,3748.5555,N,12217.9617,W,0.50,172.67,270911,,,A*77
$GPRMC,173456.000,A,3748.5555,N,12217.9618,W,0.64,136.34,270911,,,A*7A
$GPRMC,173457.000,A,3748.5555,N,12217.9617,W,0.49,157.04,270911,,,A*7F
$GPRMC,173458.000,A,3748.5556,N,12217.9616,W,0.24,35.36,270911,,,A*4D
$GPRMC,173459.000,A,3748.5560,N,12217.9620,W,0.43,334.43,270911,,,A*7D
$GPRMC,173500.000,A,3748.5564,N,12217.9622,W,0.20,11.03,270911,,,A*43
$GPRMC,173501.000,A,3748.5567,N,12217.9623,W,0.46,356.29,270911,,,A*78
$GPRMC,173502.000,A,3748.5568,N,12217.9623,W,0.40,5.65,270911,,,A*7F
$GPRMC,173503.000,A,3748.5567,N,12217.9622,W,0.20,260.94,270911,,,A*79
$GPRMC,173504.000,A,3748.5567,N,12217.9621,W,0.31,250.70,270911,,,A*74
$GPRMC,173505.000,A,3748.5567,N,12217.9622,W,0.42,267.13,270911,,,A*73
$GPRMC,173506.000,A,3748.5567,N,12217.9623,W,0.04,179.46,270911,,,A*7F
$GPRMC,173507.000,A,3748.5568,N,12217.9623,W,0.24,102.33,270911,,,A*7D
$GPRMC,173508.000,A,3748.5572,N,12217.9627,W,0.16,179.30,270911,,,A*73
$GPRMC,173509.000,A,3748.5573,N,12217.9628,W,0.28,221.10,270911,,,A*7D
$GPRMC,173510.000,A,3748.5572,N,12217.9628,W,0.51,170.02,270911,,,A*7E
$GPRMC,173511.000,A,3748.5569,N,12217.9629,W,1.41,194.76,270911,,,A*7D
$GPRMC,173512.000,A,3748.5560,N,12217.9632,W,1.32,204.08,270911,,,A*7A
$GPRMC,173513.000,A,3748.5557,N,12217.9632,W,0.22,78.77,270911,,,A*4E
$GPRMC,173514.000,A,3748.5556,N,12217.9632,W,0.06,71.47,270911,,,A*44
$GPRMC,173515.000,A,3748.5551,N,12217.9625,W,0.53,175.98,270911,,,A*73
$GPRMC,173516.000,A,3748.5544,N,12217.9619,W,0.37,219.41,270911,,,A*74
$GPRMC,173517.000,A,3748.5539,N,12217.9616,W,0.44,173.60,270911,,,A*78
$GPRMC,173518.000,A,3748.5531,N,12217.9608,W,0.45,140.77,270911,,,A*77
$GPRMC,173519.000,A,3748.5528,N,12217.9606,W,0.39,177.57,270911,,,A*7D
$GPRMC,173520.000,A,3748.5526,N,12217.9606,W,0.06,204.25,270911,,,A*77
$GPRMC,173521.000,A,3748.5524,N,12217.9606,W,0.38,151.83,270911,,,A*76
$GPRMC,173522.000,A,3748.5523,N,12217.9605,W,0.24,245.88,270911,,,A*71
$GPRMC,173523.000,A,3748.5524,N,12217.9604,W,0.68,315.11,270911,,,A*7A
$GPRMC,173524.000,A,3748.5526,N,12217.9606,W,0.60,305.89,270911,,,A*75
$GPRMC,173525.000,A,3748.5528,N,12217.9607,W,0.62,313.59,270911,,,A*73
$GPRMC,173526.000,A,3748.5531,N,12217.9606,W,0.55,316.35,270911,,,A*72
$GPRMC,173527.000,A,3748.5533,N,12217.9608,W,0.36,334.73,270911,,,A*78
$GPRMC,173528.000,A,3748.5535,N,12217.9606,W,0.13,355.79,270911,,,A*75
$GPRMC,173529.000,A,3748.5537,N,12217.9601,W,0.14,53.72,270911,,,A*48
$GPRMC,173530.000,A,3748.5539,N,12217.9596,W,0.29,80.96,270911,,,A*49
$GPRMC,173531.000,A,3748.5541,N,12217.9591,W,0.26,25.41,270911,,,A*4A
$GPRMC,173532.000,A,3748.5543,N,12217.9587,W,0.22,78.84,270911,,,A*49
$GPRMC,173533.000,A,3748.5543,N,12217.9587,W,0.36,125.02,270911,,,A*7A
$GPRMC,173534.000,A,3748.5544,N,12217.9593,W,0.19,306.55,270911,,,A*73
$GPRMC,173535.000,A,3748.5546,N,12217.9597,W,0.59,308.82,270911,,,A*74
$GPRMC,173536.000,A,3748.5549,N,12217.9597,W,0.35,337.78,270911,,,A*7B
$GPRMC,173537.000,A,3748.5551,N,12217.9604,W,0.61,324.10,270911,,,A*77
$GPRMC,173538.000,A,3748.5553,N,12217.9604,W,0.30,82.14,270911,,,A*45
$GPRMC,173539.000,A,3748.5553,N,12217.9604,W,0.14,140.46,270911,,,A*7A
$GPRMC,173540.000,A,3748.5552,N,12217.9607,W,0.41,127.67,270911,,,A*74
