$ADVER,3080,2.3
$GPRMC,172234.876,A,3748.8016,N,12217.8652,W,0.09,236.14,270911,,,A*7A
$GPGGA,172235.876,3748.8017,N,12217.8653,W,1,04,1.9,13.8,M,-25.1,M,,0000*53
$GPGSA,A,3,28,17,15,26,,,,,,,,,2.2,1.9,1.0*37
$GPRMC,172235.876,A,3748.8017,N,12217.8653,W,0.06,247.04,270911,,,A*73
$GPVTG,247.04,T,,M,0.06,N,0.1,K,A*0F
$GPGGA,172236.876,3748.8017,N,12217.8655,W,1,04,1.9,14.5,M,-25.1,M,,0000*5C
$GPGSA,A,3,28,17,15,26,,,,,,,,,2.2,1.9,1.0*37
$GPRMC,172236.876,A,3748.8017,N,12217.8655,W,0.05,256.16,270911,,,A*76
$GPVTG,256.16,T,,M,0.05,N,0.1,K,A*0F
$GPGGA,172238.000,3748.8018,N,12217.8656,W,1,04,1.9,15.2,M,-25.1,M,,0000*51
$GPGSA,A,3,28,17,15,26,,,,,,,,,2.2,1.9,1.0*37
$GPRMC,172238.000,A,3748.8018,N,12217.8656,W,0.08,263.36,270911,,,A*74
$GPVTG,263.36,T,,M,0.08,N,0.1,K,A*06
$GPGGA,172239.000,3748.8019,N,12217.8658,W,1,04,1.9,15.9,M,-25.1,M,,0000*54
$GPGSA,A,3,28,17,15,26,,,,,,,,,2.2,1.9,1.0*37
$GPGSV,3,1,12,17,71,182,42,28,59,034,40,26,49,243,37,15,32,293,40*71
$GPGSV,3,2,12,27,22,313,32,08,40,117,29,01,22,067,34,24,16,059,32*75
$GPGSV,3,3,12,11,15,050,34,07,13,126,33,04,05,169,23,09,03,312,*78
$GPRMC,172239.000,A,3748.8019,N,12217.8658,W,0.06,260.12,270911,,,A*71
$GPVTG,260.12,T,,M,0.06,N,0.1,K,A*0D
$GPGGA,172240.000,3748.8020,N,12217.8659,W,1,04,1.9,16.5,M,-25.1,M,,0000*5E
$GPGSA,A,3,28,17,15,26,,,,,,,,,2.2,1.9,1.0*37
$GPRMC,172240.000,A,3748.8020,N,12217.8659,W,0.05,226.59,270911,,,A*7A
$GPVTG,226.59,T,,M,0.05,N,0.1,K,A*03
$GPGGA,172241.000,3748.8021,N,12217.8660,W,1,04,1.9,17.1,M,-25.1,M,,0000*51
$GPGSA,A,3,28,17,15,26,,,,,,,,,2.2,1.9,1.0*37
$GPRMC,172241.000,A,3748.8021,N,12217.8660,W,0.05,260.31,270911,,,A*7C
$GPVTG,260.31,T,,M,0.05,N,0.1,K,A*0F
$GPGGA,172242.000,3748.8022,N,12217.8661,W,1,04,1.9,17.5,M,-25.1,M,,0000*54
$GPGSA,A,3,28,17,15,26,,,,,,,,,2.2,1.9,1.0*37
$GPRMC,172242.000,A,3748.8022,N,12217.8661,W,0.07,234.40,270911,,,A*78
$GPVTG,234.40,T,,M,0.07,N,0.1,K,A*0A
$GPGGA,172243.000,3748.8022,N,12217.8662,W,1,04,1.9,17.9,M,-25.1,M,,0000*5A
$GPGSA,A,3,28,17,15,26,,,,,,,,,2.2,1.9,1.0*37
$GPRMC,172243.000,A,3748.8022,N,12217.8662,W,0.06,254.27,270911,,,A*7C
$GPVTG,254.27,T,,M,0.06,N,0.1,K,A*0C
$GPGGA,172244.000,3748.8023,N,12217.8662,W,1,04,1.9,18.3,M,-25.1,M,,0000*59
$GPGSA,A,3,28,17,15,26,,,,,,,,,2.2,1.9,1.0*37
$GPGSV,3,1,12,17,71,182,42,28,59,034,40,26,49,243,37,15,32,293,40*71
$GPGSV,3,2,12,27,22,313,33,08,40,117,29,01,22,067,34,24,16,059,27*70
$GPGSV,3,3,12,11,15,050,35,07,13,126,32,04,05,169,24,09,03,312,*7F
$GPRMC,172244.000,A,3748.8023,N,12217.8662,W,0.06,245.06,270911,,,A*79
$GPVTG,245.06,T,,M,0.06,N,0.1,K,A*0F
$GPGGA,172245.000,3748.8023,N,12217.8663,W,1,04,1.9,18.6,M,-25.1,M,,0000*5C
$GPGSA,A,3,28,17,15,26,,,,,,,,,2.2,1.9,1.0*37
$GPRMC,172245.000,A,3748.8023,N,12217.8663,W,0.05,257.98,270911,,,A*7E
$GPVTG,257.98,T,,M,0.05,N,0.1,K,A*08
$GPGGA,172246.000,3748.8023,N,12217.8663,W,1,04,1.9,18.9,M,-25.1,M,,0000*50
$GPGSA,A,3,28,17,15,26,,,,,,,,,2.2,1.9,1.0*37
$GPRMC,172246.000,A,3748.8023,N,12217.8663,W,0.05,238.56,270911,,,A*76
$GPVTG,238.56,T,,M,0.05,N,0.1,K,A*03
$GPGGA,172247.000,3748.8024,N,12217.8664,W,1,04,1.9,19.1,M,-25.1,M,,0000*58
$GPGSA,A,3,28,17,15,26,,,,,,,,,2.2,1.9,1.0*37
$GPRMC,172247.000,A,3748.8024,N,12217.8664,W,0.05,240.71,270911,,,A*7D
$GPVTG,240.71,T,,M,0.05,N,0.1,K,A*09
$GPGGA,172248.000,3748.8024,N,12217.8664,W,1,04,1.9,19.3,M,-25.1,M,,0000*55
$GPGSA,A,3,28,17,15,26,,,,,,,,,2.2,1.9,1.0*37
$GPRMC,172248.000,A,3748.8024,N,12217.8664,W,0.05,242.53,270911,,,A*70
$GPVTG,242.53,T,,M,0.05,N,0.1,K,A*0B
$GPGGA,172249.000,3748.8024,N,12217.8665,W,1,04,1.9,19.5,M,-25.1,M,,0000*53
$GPGSA,A,3,28,17,15,26,,,,,,,,,2.2,1.9,1.0*37
$GPGSV,3,1,12,17,71,182,42,28,59,034,40,26,49,242,37,08,40,117,29*79
$GPGSV,3,2,12,15,32,293,41,27,23,313,33,01,22,067,33,24,16,059,27*7E
$GPGSV,3,3,12,11,15,050,35,07,13,126,32,04,05,169,25,09,04,312,*79
$GPVTG,235.87,T,,M,0.05,N,0.1,K,A*02
$GPGGA,172250.000,3748.8025,N,12217.8665,W,1,04,1.9,19.7,M,-25.1,M,,0000*58
$GPGSA,A,3,28,17,15,26,,,,,,,,,2.2,1.9,1.0*37
$GPRMC,172250.000,A,3748.8025,N,12217.8665,W,0.06,246.42,270911,,,A*7E
$GPVTG,246.42,T,,M,0.06,N,0.1,K,A*0C
$GPGGA,172251.000,3748.8025,N,12217.8665,W,1,04,1.9,19.9,M,-25.1,M,,0000*57
$GPGSA,A,3,28,17,15,26,,,,,,,,,2.2,1.9,1.0*37
$GPRMC,172251.000,A,3748.8025,N,12217.8665,W,0.05,223.35,270911,,,A*7F
$GPVTG,223.35,T,,M,0.05,N,0.1,K,A*0C
$GPGGA,172252.000,3748.8012,N,12217.8642,W,1,05,1.6,9.6,M,-25.1,M,,0000*65
$GPGSA,A,3,28,17,15,07,26,,,,,,,,2.5,1.6,1.9*31
$GPRMC,172252.000,A,3748.8012,N,12217.8642,W,0.05,5.05,270911,,,A*78
$GPVTG,5.05,T,,M,0.05,N,0.1,K,A*09
$GPGGA,172253.000,3748.8016,N,12217.8642,W,1,05,1.6,10.3,M,-25.1,M,,0000*5D
$GPGSA,A,3,28,17,15,07,26,,,,,,,,2.5,1.6,1.9*31
$GPRMC,172253.000,A,3748.8016,N,12217.8642,W,0.93,20.23,270911,,,A*41
$GPVTG,20.23,T,,M,0.93,N,1.7,K,A*32
$GPGGA,172254.000,3748.8016,N,12217.8642,W,1,05,1.6,10.5,M,-25.1,M,,0000*5C
$GPGSA,A,3,28,17,15,07,26,,,,,,,,2.5,1.6,1.9*31
$GPGSV,3,1,12,17,71,182,29,28,59,034,30,26,49,242,30,08,40,117,19*77
$GPGSV,3,2,12,15,32,293,28,27,23,313,22,01,22,067,25,24,16,059,17*75
$GPGSV,3,3,12,11,15,050,25,07,13,127,23,04,05,169,24,09,04,312,*78
$GPRMC,172254.000,A,3748.8016,N,12217.8642,W,0.17,336.97,270911,,,A*71
$GPVTG,336.97,T,,M,0.17,N,0.3,K,A*00
$GPGGA,172255.000,3748.8015,N,12217.8639,W,1,05,1.6,10.7,M,-25.1,M,,0000*50
$GPGSA,A,3,28,17,15,07,26,,,,,,,,2.5,1.6,1.9*31
$GPRMC,172255.000,A,3748.8015,N,12217.8639,W,0.20,267.76,270911,,,A*71
$GPVTG,267.76,T,,M,0.20,N,0.4,K,A*09
$GPGGA,172256.000,3748.8018,N,12217.8641,W,1,05,1.6,12.1,M,-25.1,M,,0000*55
$GPGSA,A,3,28,17,15,07,26,,,,,,,,2.5,1.6,1.9*31
$GPRMC,172256.000,A,3748.8018,N,12217.8641,W,1.12,317.38,270911,,,A*7C
$GPVTG,317.38,T,,M,1.12,N,2.1,K,A*02
$GPGGA,172257.000,3748.8027,N,12217.8641,W,1,05,1.6,12.2,M,-25.1,M,,0000*5B
$GPGSA,A,3,28,17,15,07,26,,,,,,,,2.5,1.6,1.9*31
$GPRMC,172257.000,A,3748.8027,N,12217.8641,W,1.36,337.25,270911,,,A*79
$GPVTG,337.25,T,,M,1.36,N,2.5,K,A*0E
$GPGGA,172258.000,3748.8031,N,12217.8639,W,1,05,1.6,13.1,M,-25.1,M,,0000*5E
$GPGSA,A,3,28,17,15,07,26,,,,,,,,2.5,1.6,1.9*31
$GPRMC,172258.000,A,3748.8031,N,12217.8639,W,0.99,93.86,270911,,,A*4E
$GPVTG,93.86,T,,M,0.99,N,1.8,K,A*30
$GPGGA,172259.000,3748.8036,N,12217.8644,W,1,05,1.6,15.8,M,-25.1,M,,0000*5D
$GPGSA,A,3,28,17,15,07,26,,,,,,,,2.5,1.6,1.9*31
$GPGSV,3,1,12,17,71,182,30,28,59,034,27,26,49,242,29,08,40,117,24*7F
$GPGSV,3,2,12,15,32,293,34,27,23,313,28,01,22,067,22,24,16,059,21*70
$GPGSV,3,3,12,11,15,050,24,07,13,127,19,04,05,169,17,09,04,312,*70
$GPRMC,172259.000,A,3748.8036,N,12217.8644,W,0.57,334.03,270911,,,A*73
$GPVTG,334.03,T,,M,0.57,N,1.1,K,A*08
$GPGGA,172300.000,3748.8041,N,12217.8649,W,1,05,1.6,17.6,M,-25.1,M,,0000*51
$GPGSA,A,3,28,17,15,07,26,,,,,,,,2.5,1.6,1.9*31
$GPRMC,172300.000,A,3748.8041,N,12217.8649,W,0.26,327.06,270911,,,A*72
$GPVTG,327.06,T,,M,0.26,N,0.5,K,A*0C
$GPGGA,172301.000,3748.8040,N,12217.8652,W,1,05,1.6,18.8,M,-25.1,M,,0000*5A
$GPGSA,A,3,28,17,15,07,26,,,,,,,,2.5,1.6,1.9*31
$GPRMC,172301.000,A,3748.8040,N,12217.8652,W,0.35,214.70,270911,,,A*7A
$GPVTG,214.70,T,,M,0.35,N,0.6,K,A*0D
$GPGGA,172302.000,3748.8038,N,12217.8655,W,1,05,1.6,19.5,M,-25.1,M,,0000*5D
$GPGSA,A,3,28,17,15,07,26,,,,,,,,2.5,1.6,1.9*31
$GPRMC,172302.000,A,3748.8038,N,12217.8655,W,0.60,184.27,270911,,,A*79
$GPVTG,184.27,T,,M,0.60,N,1.1,K,A*03
$GPGGA,172303.000,3748.8036,N,12217.8656,W,1,05,1.6,20.1,M,-25.1,M,,0000*5F
$GPGSA,A,3,28,17,15,07,26,,,,,,,,2.5,1.6,1.9*31
$GPRMC,172303.000,A,3748.8036,N,12217.8656,W,0.38,207.96,270911,,,A*7A
$GPVTG,207.96,T,,M,0.38,N,0.7,K,A*0B
$GPGGA,172304.000,3748.8034,N,12217.8654,W,1,05,1.6,19.0,M,-25.1,M,,0000*53
$GPGSA,A,3,28,17,15,07,26,,,,,,,,2.5,1.6,1.9*31
$GPGSV,3,1,12,17,71,182,30,28,59,034,28,26,49,242,29,08,40,117,22*76
$GPGSV,3,2,12,15,32,293,31,27,23,313,28,01,22,067,20,24,16,059,19*7C
$GPGSV,3,3,12,11,15,050,,07,13,127,19,04,05,169,16,09,04,312,*77
$GPVTG,228.06,T,,M,0.06,N,0.1,K,A*04
$GPGGA,172305.000,3748.8032,N,12217.8656,W,1,05,1.6,17.4,M,-25.1,M,,0000*5C
$GPGSA,A,3,28,17,15,07,26,,,,,,,,2.5,1.6,1.9*31
$GPRMC,172305.000,A,3748.8032,N,12217.8656,W,0.39,317.77,270911,,,A*76
$GPVTG,317.77,T,,M,0.39,N,0.7,K,A*05
$GPGGA,172306.000,3748.8029,N,12217.8653,W,1,05,1.6,16.9,M,-25.1,M,,0000*5C
$GPGSA,A,3,28,17,15,07,26,,,,,,,,2.5,1.6,1.9*31
$GPRMC,172306.000,A,3748.8029,N,12217.8653,W,0.33,89.01,270911,,,A*45
$GPVTG,89.01,T,,M,0.33,N,0.6,K,A*3B
$GPGGA,172307.000,3748.8030,N,12217.8652,W,1,04,1.9,16.8,M,-25.1,M,,0000*5B
$GPGSA,A,3,28,17,15,26,,,,,,,,,2.2,1.9,1.0*37
$GPRMC,172307.000,A,3748.8030,N,12217.8652,W,0.27,128.07,270911,,,A*74
$GPVTG,128.07,T,,M,0.27,N,0.5,K,A*01
$GPGGA,172308.000,3748.8031,N,12217.8651,W,1,04,1.9,16.8,M,-25.1,M,,0000*56
$GPGSA,A,3,28,17,15,26,,,,,,,,,2.2,1.9,1.0*37
$GPRMC,172308.000,A,3748.8031,N,12217.8651,W,0.77,28.29,270911,,,A*41
$GPVTG,28.29,T,,M,0.77,N,1.4,K,A*39
$GPGGA,172309.000,3748.8029,N,12217.8647,W,1,05,1.6,14.5,M,-25.1,M,,0000*58
$GPGSA,A,3,28,17,15,07,26,,,,,,,,2.5,1.6,1.9*31
$GPGSV,3,1,12,17,71,182,33,28,59,034,34,26,49,242,38,08,40,117,18*71
$GPGSV,3,2,12,15,32,293,31,27,23,313,29,01,22,067,21,24,16,059,26*70
$GPGSV,3,3,12,11,15,050,24,07,13,127,12,04,05,169,21,09,04,312,*7E
$GPRMC,172309.000,A,3748.8029,N,12217.8647,W,0.29,163.09,270911,,,A*79
$GPVTG,163.09,T,,M,0.29,N,0.5,K,A*0E
$GPGGA,172310.000,3748.8028,N,12217.8644,W,1,05,1.6,12.5,M,-25.1,M,,0000*54
$GPGSA,A,3,28,17,15,07,26,,,,,,,,2.5,1.6,1.9*31
$GPRMC,172310.000,A,3748.8028,N,12217.8644,W,0.60,140.81,270911,,,A*7F
$GPVTG,140.81,T,,M,0.60,N,1.1,K,A*07
$GPGGA,172311.000,3748.8028,N,12217.8644,W,1,05,1.6,11.6,M,-25.1,M,,0000*55
$GPGSA,A,3,28,17,15,07,26,,,,,,,,2.5,1.6,1.9*31
$GPRMC,172311.000,A,3748.8028,N,12217.8644,W,0.16,141.01,270911,,,A*76
$GPVTG,141.01,T,,M,0.16,N,0.3,K,A*0C
$GPGGA,172312.000,3748.8029,N,12217.8645,W,1,05,1.6,11.4,M,-25.1,M,,0000*54
$GPGSA,A,3,28,17,15,07,26,,,,,,,,2.5,1.6,1.9*31
$GPRMC,172312.000,A,3748.8029,N,12217.8645,W,0.12,255.61,270911,,,A*71
$GPVTG,255.61,T,,M,0.12,N,0.2,K,A*09
$GPGGA,172313.000,3748.8030,N,12217.8647,W,1,05,1.6,10.6,M,-25.1,M,,0000*5C
$GPGSA,A,3,28,17,15,07,26,,,,,,,,2.5,1.6,1.9*31
$GPRMC,172313.000,A,3748.8030,N,12217.8647,W,0.15,329.93,270911,,,A*7A
$GPVTG,329.93,T,,M,0.15,N,0.3,K,A*08
$GPGGA,172314.000,3748.8033,N,12217.8649,W,1,05,1.6,10.2,M,-25.1,M,,0000*52
$GPGSA,A,3,28,17,15,07,26,,,,,,,,2.5,1.6,1.9*31
$GPGSV,3,1,12,17,71,182,35,28,59,034,31,26,49,242,32,08,40,117,34*76
$GPGSV,3,2,12,15,32,293,27,27,23,313,25,01,22,067,23,24,16,059,27*78
$GPGSV,3,3,12,11,15,050,25,07,13,127,15,04,05,169,20,09,04,312,*79
$GPRMC,172314.000,A,3748.8033,N,12217.8649,W,0.43,304.10,270911,,,A*77
$GPVTG,304.10,T,,M,0.43,N,0.8,K,A*04
$GPGGA,172315.000,3748.8035,N,12217.8650,W,1,05,1.6,9.7,M,-25.1,M,,0000*60
$GPGSA,A,3,28,17,15,07,26,,,,,,,,2.5,1.6,1.9*31
$GPRMC,172315.000,A,3748.8035,N,12217.8650,W,0.26,275.29,270911,,,A*76
$GPVTG,275.29,T,,M,0.26,N,0.5,K,A*07
$GPGGA,172316.000,3748.8038,N,12217.8647,W,1,05,1.6,9.2,M,-25.1,M,,0000*6D
$GPGSA,A,3,28,17,15,07,26,,,,,,,,2.5,1.6,1.9*31
$GPRMC,172316.000,A,3748.8038,N,12217.8647,W,0.27,355.27,270911,,,A*72
$GPVTG,355.27,T,,M,0.27,N,0.5,K,A*0B
$GPGGA,172317.000,3748.8040,N,12217.8644,W,1,05,1.6,8.5,M,-25.1,M,,0000*66
$GPGSA,A,3,28,17,15,07,26,,,,,,,,2.5,1.6,1.9*31
$GPRMC,172317.000,A,3748.8040,N,12217.8644,W,0.23,3.66,270911,,,A*7E
$GPVTG,3.66,T,,M,0.23,N,0.4,K,A*0B
$GPGGA,172318.000,3748.8036,N,12217.8644,W,1,05,1.6,8.2,M,-25.1,M,,0000*6F
$GPGSA,A,3,28,17,15,07,26,,,,,,,,2.5,1.6,1.9*31
$GPRMC,172318.000,A,3748.8036,N,12217.8644,W,0.32,69.25,270911,,,A*4B
$GPVTG,69.25,T,,M,0.32,N,0.6,K,A*32
$GPGGA,172319.000,3748.8032,N,12217.8644,W,1,05,1.6,7.8,M,-25.1,M,,0000*6F
$GPGSA,A,3,28,17,15,07,26,,,,,,,,2.5,1.6,1.9*31
$GPGSV,3,1,12,17,71,182,32,28,59,034,21,26,49,242,38,08,40,117,26*79
$GPGSV,3,2,12,15,32,293,31,27,23,313,27,01,22,066,23,24,16,058,19*70
$GPGSV,3,3,12,11,15,050,24,07,13,127,29,04,05,169,31,09,04,312,*77
$GPRMC,172319.000,A,3748.8032,N,12217.8644,W,0.19,248.75,270911,,,A*73
$GPGGA,172320.000,3748.8027,N,12217.8645,W,1,05,1.6,7.3,M,-25.1,M,,0000*6B
$GPGSA,A,3,28,17,15,07,26,,,,,,,,2.5,1.6,1.9*31
$GPRMC,172320.000,A,3748.8027,N,12217.8645,W,0.21,99.92,270911,,,A*40
$GPVTG,99.92,T,,M,0.21,N,0.4,K,A*31
$GPGGA,172321.000,3748.8024,N,12217.8645,W,1,05,1.6,6.9,M,-25.1,M,,0000*62
$GPGSA,A,3,28,17,15,07,26,,,,,,,,2.5,1.6,1.9*31
$GPRMC,172321.000,A,3748.8024,N,12217.8645,W,0.29,20.83,270911,,,A*48
$GPVTG,20.83,T,,M,0.29,N,0.5,K,A*3A
$GPGGA,172322.000,3748.8023,N,12217.8643,W,1,05,1.6,6.5,M,-25.1,M,,0000*6C
$GPGSA,A,3,28,17,15,07,26,,,,,,,,2.5,1.6,1.9*31
$GPRMC,172322.000,A,3748.8023,N,12217.8643,W,0.20,183.31,270911,,,A*72
$GPVTG,183.31,T,,M,0.20,N,0.4,K,A*03
$GPGGA,172323.000,3748.8022,N,12217.8642,W,1,05,1.6,6.1,M,-25.1,M,,0000*69
$GPGSA,A,3,28,17,15,07,26,,,,,,,,2.5,1.6,1.9*31
$GPRMC,172323.000,A,3748.8022,N,12217.8642,W,0.27,320.11,270911,,,A*7D
$GPVTG,320.11,T,,M,0.27,N,0.5,K,A*0C
$GPGGA,172324.000,3748.8019,N,12217.8644,W,1,05,1.6,6.0,M,-25.1,M,,0000*61
$GPGSA,A,3,28,17,15,07,26,,,,,,,,2.5,1.6,1.9*31
$GPGSV,3,1,12,17,71,182,29,28,59,034,28,26,49,242,35,08,40,117,17*75
$GPGSV,3,2,12,15,32,293,36,27,23,313,33,01,22,066,27,24,16,058,24*78
$GPGSV,3,3,12,11,15,050,30,07,13,127,29,04,05,169,22,09,04,312,*70
$GPRMC,172324.000,A,3748.8019,N,12217.8644,W,0.24,71.16,270911,,,A*47
$GPVTG,71.16,T,,M,0.24,N,0.4,K,A*3E
$GPGGA,172325.000,3748.8017,N,12217.8645,W,1,05,1.6,5.9,M,-25.1,M,,0000*65
$GPGSA,A,3,28,17,15,07,26,,,,,,,,2.5,1.6,1.9*31
$GPRMC,172325.000,A,3748.8017,N,12217.8645,W,0.36,270.12,270911,,,A*7D
$GPVTG,270.12,T,,M,0.36,N,0.7,K,A*09
$GPGGA,172326.000,3748.8017,N,12217.8643,W,1,05,1.6,6.6,M,-25.1,M,,0000*6C
$GPGSA,A,3,28,17,15,07,26,,,,,,,,2.5,1.6,1.9*31
$GPRMC,172326.000,A,3748.8017,N,12217.8643,W,0.30,8.77,270911,,,A*70
$GPVTG,8.77,T,,M,0.30,N,0.6,K,A*00
$GPGGA,172327.000,3748.8015,N,12217.8645,W,1,05,1.6,7.0,M,-25.1,M,,0000*6E
$GPGSA,A,3,28,17,15,07,26,,,,,,,,2.5,1.6,1.9*31
$GPRMC,172327.000,A,3748.8015,N,12217.8645,W,0.63,195.67,270911,,,A*77
$GPVTG,195.67,T,,M,0.63,N,1.2,K,A*07
$GPGGA,172328.000,3748.8013,N,12217.8648,W,1,05,1.6,7.0,M,-25.1,M,,0000*6A
$GPGSA,A,3,28,17,15,07,26,,,,,,,,2.5,1.6,1.9*31
$GPRMC,172328.000,A,3748.8013,N,12217.8648,W,1.52,231.69,270911,,,A*73
$GPVTG,231.69,T,,M,1.52,N,2.8,K,A*0E
$GPGGA,172329.000,3748.8012,N,12217.8651,W,1,05,1.6,7.6,M,-25.1,M,,0000*64
$GPGSA,A,3,28,17,15,07,26,,,,,,,,2.5,1.6,1.9*31
$GPGSV,3,1,12,17,71,182,25,28,59,034,23,26,49,242,35,08,40,117,23*75
$GPGSV,3,2,12,15,32,293,31,27,23,313,34,01,22,066,20,24,16,058,26*7D
$GPGSV,3,3,12,11,15,050,31,07,13,127,29,04,05,169,24,09,04,312,*77
$GPRMC,172329.000,A,3748.8012,N,12217.8651,W,0.82,243.58,270911,,,A*70
$GPVTG,243.58,T,,M,0.82,N,1.5,K,A*0B
$GPGGA,172330.000,3748.8016,N,12217.8650,W,1,05,1.6,8.7,M,-25.1,M,,0000*67
$GPGSA,A,3,28,17,15,07,26,,,,,,,,2.5,1.6,1.9*31
$GPRMC,172330.000,A,3748.8016,N,12217.8650,W,0.23,329.66,270911,,,A*76
$GPVTG,329.66,T,,M,0.23,N,0.4,K,A*00
$GPGGA,172331.000,3748.8016,N,12217.8650,W,1,05,1.6,8.7,M,-25.1,M,,0000*66
$GPGSA,A,3,28,17,15,07,26,,,,,,,,2.5,1.6,1.9*31
$GPRMC,172331.000,A,3748.8016,N,12217.8650,W,0.40,174.01,270911,,,A*79
$GPVTG,174.01,T,,M,0.40,N,0.7,K,A*0D
$GPGGA,172332.000,3748.8017,N,12217.8652,W,1,05,1.6,6.8,M,-25.1,M,,0000*67
$GPGSA,A,3,28,17,15,07,26,,,,,,,,2.5,1.6,1.9*31
$GPRMC,172332.000,A,3748.8017,N,12217.8652,W,0.37,176.65,270911,,,A*79
$GPVTG,176.65,T,,M,0.37,N,0.7,K,A*0D
$GPGGA,172333.000,3748.8016,N,12217.8653,W,1,05,1.6,5.4,M,-25.1,M,,0000*69
$GPGSA,A,3,28,17,15,07,26,,,,,,,,2.5,1.6,1.9*31
$GPRMC,172333.000,A,3748.8016,N,12217.8653,W,0.32,180.98,270911,,,A*76
$GPVTG,180.98,T,,M,0.32,N,0.6,K,A*02
$GPGGA,172334.000,3748.8016,N,12217.8654,W,1,05,1.6,4.9,M,-25.1,M,,0000*65
$GPGSA,A,3,28,17,15,07,26,,,,,,,,2.5,1.6,1.9*31
$GPGSV,3,1,12,17,71,182,29,28,59,034,31,26,49,242,31,08,40,117,22*7F
$GPGSV,3,2,12,15,32,293,26,27,23,313,36,01,22,066,22,24,16,058,25*78
$GPGSV,3,3,12,11,15,050,28,07,13,127,26,04,05,169,22,09,04,312,*76
$GPVTG,143.21,T,,M,0.34,N,0.6,K,A*09
$GPGGA,172335.000,3748.8015,N,12217.8654,W,1,05,1.6,3.5,M,-25.1,M,,0000*6C
$GPGSA,A,3,28,17,15,07,26,,,,,,,,2.5,1.6,1.9*31
$GPRMC,172335.000,A,3748.8015,N,12217.8654,W,0.42,313.81,270911,,,A*73
$GPVTG,313.81,T,,M,0.42,N,0.8,K,A*0B
$GPGGA,172336.000,3748.8016,N,12217.8653,W,1,05,1.6,2.9,M,-25.1,M,,0000*66
$GPGSA,A,3,28,17,15,07,26,,,,,,,,2.5,1.6,1.9*31
$GPRMC,172336.000,A,3748.8016,N,12217.8653,W,0.43,356.85,270911,,,A*70
$GPVTG,356.85,T,,M,0.43,N,0.8,K,A*0F
$GPGGA,172337.000,3748.8020,N,12217.8650,W,1,05,1.6,1.9,M,-25.1,M,,0000*62
$GPGSA,A,3,28,17,15,07,26,,,,,,,,2.5,1.6,1.9*31
$GPRMC,172337.000,A,3748.8020,N,12217.8650,W,0.56,303.26,270911,,,A*7A
$GPVTG,303.26,T,,M,0.56,N,1.0,K,A*0B
$GPGGA,172338.000,3748.8026,N,12217.8645,W,1,05,1.6,2.9,M,-25.1,M,,0000*6C
$GPGSA,A,3,28,17,15,07,26,,,,,,,,2.5,1.6,1.9*31
$GPRMC,172338.000,A,3748.8026,N,12217.8645,W,0.64,28.79,270911,,,A*46
$GPVTG,28.79,T,,M,0.64,N,1.2,K,A*38
$GPGGA,172339.000,3748.8026,N,12217.8644,W,1,05,1.6,3.9,M,-25.1,M,,0000*6D
$GPGSA,A,3,28,17,15,07,26,,,,,,,,2.5,1.6,1.9*31
$GPGSV,3,1,12,17,71,182,26,28,59,034,27,26,49,242,30,08,40,117,22*76
$GPGSV,3,2,12,15,32,293,33,27,23,313,27,01,22,066,20,24,16,058,23*78
$GPGSV,3,3,12,11,15,050,24,07,13,127,21,04,05,169,22,09,04,312,*7D
$GPRMC,172339.000,A,3748.8026,N,12217.8644,W,0.30,105.56,270911,,,A*74
$GPVTG,105.56,T,,M,0.30,N,0.6,K,A*0F
$GPGGA,172340.000,3748.8028,N,12217.8646,W,1,05,1.6,5.2,M,-25.1,M,,0000*62
$GPGSA,A,3,28,17,15,07,26,,,,,,,,2.5,1.6,1.9*31
$GPRMC,172340.000,A,3748.8028,N,12217.8646,W,0.23,314.08,270911,,,A*7D
$GPVTG,314.08,T,,M,0.23,N,0.4,K,A*06
$GPGGA,172341.000,3748.8034,N,12217.8651,W,1,05,1.6,6.3,M,-25.1,M,,0000*6A
$GPGSA,A,3,28,17,15,07,26,,,,,,,,2.5,1.6,1.9*31
$GPRMC,172341.000,A,3748.8034,N,12217.8651,W,0.36,349.45,270911,,,A*72
$GPVTG,349.45,T,,M,0.36,N,0.7,K,A*00
$GPGGA,172342.000,3748.8037,N,12217.8654,W,1,05,1.6,7.7,M,-25.1,M,,0000*6A
$GPGSA,A,3,28,17,15,07,26,,,,,,,,2.5,1.6,1.9*31
$GPRMC,172342.000,A,3748.8037,N,12217.8654,W,0.18,341.16,270911,,,A*75
$GPVTG,341.16,T,,M,0.18,N,0.3,K,A*06
$GPGGA,172343.000,3748.8039,N,12217.8657,W,1,05,1.6,9.1,M,-25.1,M,,0000*6E
$GPGSA,A,3,28,17,15,07,26,,,,,,,,2.5,1.6,1.9*31
$GPRMC,172343.000,A,3748.8039,N,12217.8657,W,0.19,237.50,270911,,,A*7A
$GPVTG,237.50,T,,M,0.19,N,0.3,K,A*05
$GPGGA,172344.000,3748.8043,N,12217.8661,W,1,05,1.6,10.7,M,-25.1,M,,0000*5F
$GPGSA,A,3,28,17,15,07,26,,,,,,,,2.5,1.6,1.9*31
$GPGSV,3,1,12,17,71,182,26,28,59,034,35,26,49,242,31,08,40,117,17*72
$GPGSV,3,2,12,15,32,293,35,27,23,313,33,01,22,066,31,24,16,058,34*7D
$GPGSV,3,3,12,11,15,050,35,07,13,127,26,04,05,169,19,09,04,312,*72
$GPRMC,172344.000,A,3748.8043,N,12217.8661,W,0.26,280.69,270911,,,A*7F
$GPVTG,280.69,T,,M,0.26,N,0.5,K,A*09
$GPGGA,172345.000,3748.8045,N,12217.8664,W,1,05,1.6,11.8,M,-25.1,M,,0000*53
$GPGSA,A,3,28,17,15,07,26,,,,,,,,2.5,1.6,1.9*31
$GPRMC,172345.000,A,3748.8045,N,12217.8664,W,0.17,245.47,270911,,,A*7A
$GPVTG,245.47,T,,M,0.17,N,0.3,K,A*08
$GPGGA,172346.000,3748.8046,N,12217.8664,W,1,04,1.9,12.0,M,-25.1,M,,0000*56
$GPGSA,A,3,28,17,15,26,,,,,,,,,2.2,1.9,1.0*37
$GPRMC,172346.000,A,3748.8046,N,12217.8664,W,0.20,275.85,270911,,,A*73
$GPVTG,275.85,T,,M,0.20,N,0.4,K,A*06
$GPGGA,172347.000,3748.8046,N,12217.8664,W,1,04,1.9,12.3,M,-25.1,M,,0000*54
$GPGSA,A,3,28,17,15,26,,,,,,,,,2.2,1.9,1.0*37
$GPRMC,172347.000,A,3748.8046,N,12217.8664,W,0.19,303.87,270911,,,A*7A
$GPVTG,303.87,T,,M,0.19,N,0.3,K,A*09
$GPGGA,172348.000,3748.8046,N,12217.8664,W,1,04,1.9,12.6,M,-25.1,M,,0000*5E
$GPGSA,A,3,28,17,15,26,,,,,,,,,2.2,1.9,1.0*37
$GPRMC,172348.000,A,3748.8046,N,12217.8664,W,0.16,289.58,270911,,,A*7B
$GPVTG,289.58,T,,M,0.16,N,0.3,K,A*07
$GPGGA,172349.000,3748.8046,N,12217.8664,W,1,04,1.9,13.0,M,-25.1,M,,0000*58
$GPGSA,A,3,28,17,15,26,,,,,,,,,2.2,1.9,1.0*37
$GPGSV,3,1,12,17,72,182,26,28,59,034,35,26,49,242,31,08,39,117,23*78
$GPGSV,3,2,12,15,32,293,37,27,23,314,34,01,22,066,31,24,16,058,33*78
$GPGSV,3,3,12,11,14,049,34,07,13,127,,04,05,169,19,09,04,312,*7E
$GPRMC,172349.000,A,3748.8046,N,12217.8664,W,0.16,283.23,270911,,,A*7C
$GPGGA,172350.000,3748.8045,N,12217.8663,W,1,04,1.9,13.4,M,-25.1,M,,0000*50
$GPGSA,A,3,28,17,15,26,,,,,,,,,2.2,1.9,1.0*37
$GPRMC,172350.000,A,3748.8045,N,12217.8663,W,0.17,287.07,270911,,,A*73
$GPVTG,287.07,T,,M,0.17,N,0.3,K,A*02
$GPGGA,172351.000,3748.8040,N,12217.8662,W,1,05,1.6,15.0,M,-25.1,M,,0000*59
$GPGSA,A,3,28,17,15,07,26,,,,,,,,2.5,1.6,1.9*31
$GPRMC,172351.000,A,3748.8040,N,12217.8662,W,0.35,172.41,270911,,,A*7D
$GPVTG,172.41,T,,M,0.35,N,0.7,K,A*0D
$GPGGA,172352.000,3748.8035,N,12217.8660,W,1,04,1.9,16.0,M,-25.1,M,,0000*57
$GPGSA,A,3,28,17,15,26,,,,,,,,,2.2,1.9,1.0*37
$GPRMC,172352.000,A,3748.8035,N,12217.8660,W,0.13,256.50,270911,,,A*7F
$GPVTG,256.50,T,,M,0.13,N,0.2,K,A*09
$GPGGA,172353.000,3748.8031,N,12217.8658,W,1,04,1.9,17.0,M,-25.1,M,,0000*58
$GPGSA,A,3,28,17,15,26,,,,,,,,,2.2,1.9,1.0*37
$GPRMC,172353.000,A,3748.8031,N,12217.8658,W,0.13,221.58,270911,,,A*79
$GPVTG,221.58,T,,M,0.13,N,0.2,K,A*01
$GPGGA,172354.000,3748.8024,N,12217.8655,W,1,04,1.9,18.2,M,-25.1,M,,0000*5B
$GPGSA,A,3,28,17,15,26,,,,,,,,,2.2,1.9,1.0*37
$GPGSV,3,1,12,17,72,182,25,28,59,034,35,26,49,242,31,08,39,117,23*7B
$GPGSV,3,2,12,15,32,293,37,27,23,314,35,01,22,066,31,24,16,058,27*7C
$GPGSV,3,3,12,11,14,049,33,07,13,127,,04,05,169,18,09,04,312,*78
$GPRMC,172354.000,A,3748.8024,N,12217.8655,W,0.18,213.36,270911,,,A*75
$GPVTG,213.36,T,,M,0.18,N,0.3,K,A*02
$GPGGA,172355.000,3748.8018,N,12217.8653,W,1,04,1.9,19.1,M,-25.1,M,,0000*51
$GPGSA,A,3,28,17,15,26,,,,,,,,,2.2,1.9,1.0*37
$GPRMC,172355.000,A,3748.8018,N,12217.8653,W,0.35,181.62,270911,,,A*7B
$GPVTG,181.62,T,,M,0.35,N,0.6,K,A*01
$GPGGA,172356.000,3748.8013,N,12217.8650,W,1,04,1.9,19.9,M,-25.1,M,,0000*52
$GPGSA,A,3,28,17,15,26,,,,,,,,,2.2,1.9,1.0*37
$GPRMC,172356.000,A,3748.8013,N,12217.8650,W,0.44,174.97,270911,,,A*76
$GPVTG,174.97,T,,M,0.44,N,0.8,K,A*09
$GPGGA,172357.000,3748.8010,N,12217.8648,W,1,04,1.9,20.4,M,-25.1,M,,0000*5E
$GPGSA,A,3,28,17,15,26,,,,,,,,,2.2,1.9,1.0*37
$GPRMC,172357.000,A,3748.8010,N,12217.8648,W,0.18,282.87,270911,,,A*7F
$GPVTG,282.87,T,,M,0.18,N,0.3,K,A*00
$GPGGA,172358.000,3748.8004,N,12217.8646,W,1,04,1.9,21.1,M,-25.1,M,,0000*5E
$GPGSA,A,3,28,17,15,26,,,,,,,,,2.2,1.9,1.0*37
$GPRMC,172358.000,A,3748.8004,N,12217.8646,W,0.39,175.47,270911,,,A*7F
$GPVTG,175.47,T,,M,0.39,N,0.7,K,A*00
$GPGGA,172359.000,3748.7999,N,12217.8643,W,1,04,1.9,21.6,M,-25.1,M,,0000*5F
$GPGSA,A,3,28,17,15,26,,,,,,,,,2.2,1.9,1.0*37
$GPGSV,3,1,12,17,72,182,24,28,59,034,35,26,49,242,32,08,39,117,24*7E
$GPGSV,3,2,12,15,32,293,36,27,23,314,36,01,22,066,31,24,16,058,28*71
$GPGSV,3,3,12,11,14,049,32,07,13,127,,04,05,169,16,09,04,312,*77
$GPRMC,172359.000,A,3748.7999,N,12217.8643,W,0.61,169.47,270911,,,A*79
$GPVTG,169.47,T,,M,0.61,N,1.1,K,A*07
$GPGGA,172400.000,3748.7997,N,12217.8642,W,1,04,1.9,21.9,M,-25.1,M,,0000*54
$GPGSA,A,3,28,17,15,26,,,,,,,,,2.2,1.9,1.0*37
$GPRMC,172400.000,A,3748.7997,N,12217.8642,W,0.20,216.30,270911,,,A*73
$GPVTG,216.30,T,,M,0.20,N,0.4,K,A*0D
$GPGGA,172401.000,3748.7994,N,12217.8641,W,1,04,1.9,22.3,M,-25.1,M,,0000*5C
$GPGSA,A,3,28,17,15,26,,,,,,,,,2.2,1.9,1.0*37
$GPRMC,172401.000,A,3748.7994,N,12217.8641,W,0.21,251.13,270911,,,A*71
$GPVTG,251.13,T,,M,0.21,N,0.4,K,A*0E
$GPGGA,172402.000,3748.7996,N,12217.8642,W,1,04,1.9,22.2,M,-25.1,M,,0000*5F
$GPGSA,A,3,28,17,15,26,,,,,,,,,2.2,1.9,1.0*37
$GPRMC,172402.000,A,3748.7996,N,12217.8642,W,0.25,302.41,270911,,,A*77
$GPVTG,302.41,T,,M,0.25,N,0.5,K,A*0B
$GPGGA,172403.000,3748.7993,N,12217.8641,W,1,04,1.9,22.6,M,-25.1,M,,0000*5C
$GPGSA,A,3,28,17,15,26,,,,,,,,,2.2,1.9,1.0*37
$GPRMC,172403.000,A,3748.7993,N,12217.8641,W,0.33,193.26,270911,,,A*7C
$GPVTG,193.26,T,,M,0.33,N,0.6,K,A*04
$GPGGA,172404.000,3748.7991,N,12217.8641,W,1,04,1.9,22.8,M,-25.1,M,,0000*57
$GPGSA,A,3,28,17,15,26,,,,,,,,,2.2,1.9,1.0*37
$GPGSV,3,1,12,17,72,182,24,28,59,034,35,26,49,242,32,08,39,117,24*7E
$GPGSV,3,2,12,15,32,293,36,27,23,314,36,01,22,066,23,24,16,058,27*7D
$GPGSV,3,3,12,11,14,049,28,07,13,127,,04,05,169,,09,04,312,*7B
$GPRMC,172404.000,A,3748.7991,N,12217.8641,W,0.28,207.67,270911,,,A*78
$GPGGA,172405.000,3748.7994,N,12217.8646,W,1,04,1.9,22.7,M,-25.1,M,,0000*5B
$GPGSA,A,3,28,17,15,26,,,,,,,,,2.2,1.9,1.0*37
$GPRMC,172405.000,A,3748.7994,N,12217.8646,W,0.65,290.38,270911,,,A*76
$GPVTG,290.38,T,,M,0.65,N,1.2,K,A*0D
$GPGGA,172406.000,3748.7991,N,12217.8645,W,1,05,1.6,22.2,M,-25.1,M,,0000*55
$GPGSA,A,3,28,17,15,26,07,,,,,,,,2.5,1.6,1.9*31
$GPRMC,172406.000,A,3748.7991,N,12217.8645,W,1.00,161.92,270911,,,A*7C
$GPVTG,161.92,T,,M,1.00,N,1.9,K,A*09
$GPGGA,172407.000,3748.7990,N,12217.8645,W,1,05,1.6,20.9,M,-25.1,M,,0000*5C
$GPGSA,A,3,28,17,15,26,07,,,,,,,,2.5,1.6,1.9*31
$GPRMC,172407.000,A,3748.7990,N,12217.8645,W,1.44,151.23,270911,,,A*75
$GPVTG,151.23,T,,M,1.44,N,2.7,K,A*0D
$GPGGA,172408.000,3748.7985,N,12217.8646,W,1,05,1.6,19.8,M,-25.1,M,,0000*5F
$GPGSA,A,3,28,17,15,26,07,,,,,,,,2.5,1.6,1.9*31
$GPRMC,172408.000,A,3748.7985,N,12217.8646,W,0.33,137.61,270911,,,A*7A
$GPVTG,137.61,T,,M,0.33,N,0.6,K,A*09
$GPGGA,172409.000,3748.7982,N,12217.8643,W,1,05,1.6,17.8,M,-25.1,M,,0000*52
$GPGSA,A,3,28,17,15,26,07,,,,,,,,2.5,1.6,1.9*31
$GPGSV,3,1,12,17,72,182,24,28,59,034,27,26,49,242,24,08,39,117,32*7D
$GPGSV,3,2,12,15,32,293,23,27,23,314,25,01,22,066,26,24,16,058,24*7D
$GPGSV,3,3,12,11,14,049,,07,13,127,33,04,05,169,27,09,04,312,*74
$GPRMC,172409.000,A,3748.7982,N,12217.8643,W,0.32,23.02,270911,,,A*49
$GPVTG,23.02,T,,M,0.32,N,0.6,K,A*39
$GPGGA,172410.000,3748.7978,N,12217.8643,W,1,05,1.6,16.2,M,-25.1,M,,0000*54
$GPGSA,A,3,28,17,15,26,07,,,,,,,,2.5,1.6,1.9*31
$GPRMC,172410.000,A,3748.7978,N,12217.8643,W,0.08,240.79,270911,,,A*76
$GPVTG,240.79,T,,M,0.08,N,0.1,K,A*0C
$GPGGA,172411.000,3748.7973,N,12217.8645,W,1,05,1.6,14.7,M,-25.1,M,,0000*5F
$GPGSA,A,3,28,17,15,26,07,,,,,,,,2.5,1.6,1.9*31
$GPRMC,172411.000,A,3748.7973,N,12217.8645,W,0.22,241.98,270911,,,A*7C
$GPVTG,241.98,T,,M,0.22,N,0.4,K,A*0F
$GPGGA,172412.000,3748.7973,N,12217.8649,W,1,05,1.6,13.9,M,-25.1,M,,0000*59
$GPGSA,A,3,28,17,15,26,07,,,,,,,,2.5,1.6,1.9*31
$GPRMC,172412.000,A,3748.7973,N,12217.8649,W,0.58,248.88,270911,,,A*76
$GPVTG,248.88,T,,M,0.58,N,1.1,K,A*0E
$GPGGA,172413.000,3748.7977,N,12217.8647,W,1,05,1.6,13.2,M,-25.1,M,,0000*59
$GPGSA,A,3,28,17,15,26,07,,,,,,,,2.5,1.6,1.9*31
$GPRMC,172413.000,A,3748.7977,N,12217.8647,W,0.62,13.42,270911,,,A*4E
$GPVTG,13.42,T,,M,0.62,N,1.2,K,A*3E
$GPGGA,172414.000,3748.7974,N,12217.8646,W,1,05,1.6,12.4,M,-25.1,M,,0000*5B
$GPGSA,A,3,28,17,15,26,07,,,,,,,,2.5,1.6,1.9*31
$GPGSV,3,1,12,17,72,182,35,28,59,034,27,26,49,242,25,08,39,117,28*77
$GPGSV,3,2,12,15,32,293,26,27,23,314,25,01,22,066,27,24,16,058,26*7B
$GPGSV,3,3,12,11,14,049,25,07,13,127,35,04,05,169,29,09,04,312,*7B
$GPRMC,172414.000,A,3748.7974,N,12217.8646,W,0.34,343.22,270911,,,A*78
$GPVTG,343.22,T,,M,0.34,N,0.6,K,A*08
$GPGGA,172415.000,3748.7978,N,12217.8642,W,1,05,1.6,12.4,M,-25.1,M,,0000*52
$GPGSA,A,3,28,17,15,26,07,,,,,,,,2.5,1.6,1.9*31
$GPRMC,172415.000,A,3748.7978,N,12217.8642,W,0.23,327.99,270911,,,A*75
$GPVTG,327.99,T,,M,0.23,N,0.4,K,A*0E
$GPGGA,172416.000,3748.7982,N,12217.8639,W,1,05,1.6,12.0,M,-25.1,M,,0000*5C
$GPGSA,A,3,28,17,15,26,07,,,,,,,,2.5,1.6,1.9*31
$GPRMC,172416.000,A,3748.7982,N,12217.8639,W,0.27,14.07,270911,,,A*4F
$GPVTG,14.07,T,,M,0.27,N,0.5,K,A*3F
$GPGGA,172417.000,3748.7990,N,12217.8637,W,1,05,1.6,10.4,M,-25.1,M,,0000*56
$GPGSA,A,3,28,17,15,26,07,,,,,,,,2.5,1.6,1.9*31
$GPRMC,172417.000,A,3748.7990,N,12217.8637,W,0.22,291.44,270911,,,A*7E
$GPVTG,291.44,T,,M,0.22,N,0.4,K,A*03
$GPGGA,172418.000,3748.7995,N,12217.8633,W,1,05,1.6,10.1,M,-25.1,M,,0000*5D
$GPGSA,A,3,28,17,15,26,07,,,,,,,,2.5,1.6,1.9*31
$GPRMC,172418.000,A,3748.7995,N,12217.8633,W,0.26,209.65,270911,,,A*76
$GPVTG,209.65,T,,M,0.26,N,0.5,K,A*04
$GPGGA,172419.000,3748.7998,N,12217.8631,W,1,05,1.6,10.0,M,-25.1,M,,0000*52
$GPGSA,A,3,28,17,15,26,07,,,,,,,,2.5,1.6,1.9*31
$GPGSV,3,1,12,17,72,182,37,28,59,034,29,26,49,242,34,08,39,117,35*77
$GPGSV,3,2,12,15,32,293,28,27,23,314,25,01,22,066,27,24,16,058,25*76
$GPGSV,3,3,12,11,14,049,29,07,13,127,32,04,05,169,22,09,04,312,*7B
$GPRMC,172419.000,A,3748.7998,N,12217.8631,W,0.68,26.18,270911,,,A*47
$GPGGA,172420.000,3748.7998,N,12217.8630,W,1,05,1.6,9.7,M,-25.1,M,,0000*66
$GPGSA,A,3,28,17,15,26,07,,,,,,,,2.5,1.6,1.9*31
$GPRMC,172420.000,A,3748.7998,N,12217.8630,W,0.47,32.34,270911,,,A*4A
$GPVTG,32.34,T,,M,0.47,N,0.9,K,A*31
$GPGGA,172421.000,3748.7995,N,12217.8627,W,1,05,1.6,10.8,M,-25.1,M,,0000*5B
$GPGSA,A,3,28,17,15,26,07,,,,,,,,2.5,1.6,1.9*31
$GPRMC,172421.000,A,3748.7995,N,12217.8627,W,0.18,320.71,270911,,,A*7B
$GPVTG,320.71,T,,M,0.18,N,0.3,K,A*00
$GPGGA,172422.000,3748.7997,N,12217.8629,W,1,05,1.6,10.1,M,-25.1,M,,0000*5D
$GPGSA,A,3,28,17,15,26,07,,,,,,,,2.5,1.6,1.9*31
$GPRMC,172422.000,A,3748.7997,N,12217.8629,W,0.16,240.95,270911,,,A*77
$GPVTG,240.95,T,,M,0.16,N,0.3,K,A*03
$GPGGA,172423.000,3748.7999,N,12217.8632,W,1,05,1.6,7.8,M,-25.1,M,,0000*67
$GPGSA,A,3,28,17,15,26,07,,,,,,,,2.5,1.6,1.9*31
$GPRMC,172423.000,A,3748.7999,N,12217.8632,W,0.36,124.23,270911,,,A*7C
$GPVTG,124.23,T,,M,0.36,N,0.7,K,A*09
$GPGGA,172424.000,3748.8008,N,12217.8633,W,1,05,1.6,5.2,M,-25.1,M,,0000*67
$GPGSA,A,3,28,17,15,26,07,,,,,,,,2.5,1.6,1.9*31
$GPGSV,3,1,12,17,72,182,26,28,59,034,27,26,49,242,24,08,39,117,27*7B
$GPGSV,3,2,12,15,32,293,25,27,23,314,28,01,22,066,29,24,16,058,27*7A
$GPGSV,3,3,12,11,14,049,25,07,13,127,32,04,05,169,32,09,04,312,*76
$GPRMC,172424.000,A,3748.8008,N,12217.8633,W,0.70,15.50,270911,,,A*41
$GPVTG,15.50,T,,M,0.70,N,1.3,K,A*39
$GPGGA,172425.000,3748.8014,N,12217.8636,W,1,05,1.6,3.1,M,-25.1,M,,0000*6B
$GPGSA,A,3,28,17,15,26,07,,,,,,,,2.5,1.6,1.9*31
$GPRMC,172425.000,A,3748.8014,N,12217.8636,W,0.79,353.46,270911,,,A*77
$GPVTG,353.46,T,,M,0.79,N,1.5,K,A*00
$GPGGA,172426.000,3748.8014,N,12217.8639,W,1,05,1.6,2.7,M,-25.1,M,,0000*60
$GPGSA,A,3,28,17,15,26,07,,,,,,,,2.5,1.6,1.9*31
$GPRMC,172426.000,A,3748.8014,N,12217.8639,W,0.67,300.57,270911,,,A*72
$GPVTG,300.57,T,,M,0.67,N,1.2,K,A*0E
$GPGGA,172427.000,3748.8017,N,12217.8642,W,1,05,1.6,1.9,M,-25.1,M,,0000*63
$GPGSA,A,3,28,17,15,26,07,,,,,,,,2.5,1.6,1.9*31
$GPRMC,172427.000,A,3748.8017,N,12217.8642,W,1.26,7.21,270911,,,A*7D
$GPVTG,7.21,T,,M,1.26,N,2.3,K,A*0D
$GPGGA,172428.000,3748.8016,N,12217.8643,W,1,04,2.4,1.3,M,-25.1,M,,0000*66
$GPGSA,A,3,28,17,26,07,,,,,,,,,4.2,2.4,3.4*3A
$GPRMC,172428.000,A,3748.8016,N,12217.8643,W,0.98,46.52,270911,,,A*47
$GPVTG,46.52,T,,M,0.98,N,1.8,K,A*30
$GPGGA,172429.000,3748.8016,N,12217.8645,W,1,04,2.4,0.9,M,-25.1,M,,0000*6A
$GPGSA,A,3,28,17,26,07,,,,,,,,,4.2,2.4,3.4*3A
$GPGSV,3,1,12,17,72,182,29,28,59,034,26,26,49,242,19,08,39,117,31*7C
$GPGSV,3,2,12,15,32,293,,27,23,314,26,01,22,066,33,24,16,058,30*7E
$GPGSV,3,3,12,11,14,049,22,07,13,127,29,04,05,169,27,09,04,312,*7F
$GPRMC,172429.000,A,3748.8016,N,12217.8645,W,0.21,338.95,270911,,,A*73
$GPVTG,338.95,T,,M,0.21,N,0.4,K,A*0E
$GPGGA,172430.000,3748.8018,N,12217.8645,W,1,05,1.6,0.9,M,-25.1,M,,0000*6C
$GPGSA,A,3,28,17,15,26,07,,,,,,,,2.5,1.6,1.9*31
$GPRMC,172430.000,A,3748.8018,N,12217.8645,W,1.17,17.76,270911,,,A*42
$GPVTG,17.76,T,,M,1.17,N,2.2,K,A*3D
$GPGGA,172431.000,3748.8018,N,12217.8648,W,1,05,1.6,1.5,M,-25.1,M,,0000*6D
$GPGSA,A,3,28,17,15,26,07,,,,,,,,2.5,1.6,1.9*31
$GPRMC,172431.000,A,3748.8018,N,12217.8648,W,0.74,307.40,270911,,,A*7D
$GPVTG,307.40,T,,M,0.74,N,1.4,K,A*0B
$GPGGA,172432.000,3748.8023,N,12217.8648,W,1,05,1.6,1.6,M,-25.1,M,,0000*65
$GPGSA,A,3,28,17,15,26,07,,,,,,,,2.5,1.6,1.9*31
$GPRMC,172432.000,A,3748.8023,N,12217.8648,W,0.74,324.00,270911,,,A*73
$GPVTG,324.00,T,,M,0.74,N,1.4,K,A*0E
$GPGGA,172433.000,3748.8026,N,12217.8647,W,1,04,2.4,1.6,M,-25.1,M,,0000*6E
$GPGSA,A,3,28,17,26,07,,,,,,,,,4.2,2.4,3.4*3A
$GPRMC,172433.000,A,3748.8026,N,12217.8647,W,0.38,343.79,270911,,,A*7F
$GPVTG,343.79,T,,M,0.38,N,0.7,K,A*0B
$GPGGA,172434.000,3748.8028,N,12217.8642,W,1,05,1.6,1.3,M,-25.1,M,,0000*67
$GPGSA,A,3,28,17,15,26,07,,,,,,,,2.5,1.6,1.9*31
$GPGSV,3,1,12,17,72,182,30,28,59,034,29,26,49,242,19,08,39,117,32*78
$GPGSV,3,2,12,15,32,293,18,27,23,314,18,01,22,066,33,24,16,058,30*7A
$GPGSV,3,3,12,11,14,049,33,07,13,127,23,04,05,169,24,09,04,312,*76
$GPRMC,172434.000,A,3748.8028,N,12217.8642,W,0.50,341.14,270911,,,A*74
$GPGGA,172435.000,3748.8022,N,12217.8634,W,1,05,1.6,2.9,M,-25.1,M,,0000*64
$GPGSA,A,3,28,17,15,26,07,,,,,,,,2.5,1.6,1.9*31
$GPRMC,172435.000,A,3748.8022,N,12217.8634,W,1.20,150.39,270911,,,A*75
$GPVTG,150.39,T,,M,1.20,N,2.2,K,A*00
$GPGGA,172436.000,3748.8018,N,12217.8631,W,1,05,1.6,2.7,M,-25.1,M,,0000*65
$GPGSA,A,3,28,17,15,26,07,,,,,,,,2.5,1.6,1.9*31
$GPRMC,172436.000,A,3748.8018,N,12217.8631,W,1.02,158.65,270911,,,A*7B
$GPVTG,158.65,T,,M,1.02,N,1.9,K,A*09
$GPGGA,172437.000,3748.8018,N,12217.8628,W,1,05,1.6,2.7,M,-25.1,M,,0000*6C
$GPGSA,A,3,28,17,15,26,07,,,,,,,,2.5,1.6,1.9*31
$GPRMC,172437.000,A,3748.8018,N,12217.8628,W,0.69,58.78,270911,,,A*43
$GPVTG,58.78,T,,M,0.69,N,1.3,K,A*32
$GPGGA,172438.000,3748.8023,N,12217.8628,W,1,05,1.6,1.5,M,-25.1,M,,0000*6A
$GPGSA,A,3,28,17,15,26,07,,,,,,,,2.5,1.6,1.9*31
$GPRMC,172438.000,A,3748.8023,N,12217.8628,W,0.81,1.78,270911,,,A*7E
$GPVTG,1.78,T,,M,0.81,N,1.5,K,A*0E
$GPGGA,172439.000,3748.8025,N,12217.8631,W,1,05,1.6,0.7,M,-25.1,M,,0000*66
$GPGSA,A,3,28,17,15,26,07,,,,,,,,2.5,1.6,1.9*31
$GPGSV,3,1,12,17,72,182,35,28,59,034,33,26,49,242,22,08,39,117,32*7E
$GPGSV,3,2,12,15,32,293,23,27,23,314,24,01,22,066,33,24,16,058,30*7D
$GPGSV,3,3,12,11,14,049,30,07,13,127,29,04,05,169,32,09,04,312,*78
$GPRMC,172439.000,A,3748.8025,N,12217.8631,W,0.28,312.76,270911,,,A*7D
$GPVTG,312.76,T,,M,0.28,N,0.5,K,A*03
$GPGGA,172440.000,3748.8024,N,12217.8626,W,1,05,1.6,1.7,M,-25.1,M,,0000*6E
$GPGSA,A,3,28,17,15,26,07,,,,,,,,2.5,1.6,1.9*31
$GPRMC,172440.000,A,3748.8024,N,12217.8626,W,0.72,66.58,270911,,,A*47
$GPVTG,66.58,T,,M,0.72,N,1.3,K,A*37
$GPGGA,172441.000,3748.8014,N,12217.8620,W,1,05,1.6,4.0,M,-25.1,M,,0000*68
$GPGSA,A,3,28,17,15,26,07,,,,,,,,2.5,1.6,1.9*31
$GPRMC,172441.000,A,3748.8014,N,12217.8620,W,0.61,90.56,270911,,,A*46
$GPVTG,90.56,T,,M,0.61,N,1.1,K,A*30
$GPGGA,172442.000,3748.8006,N,12217.8626,W,1,04,2.4,4.1,M,-25.1,M,,0000*6F
$GPGSA,A,3,28,17,26,07,,,,,,,,,4.1,2.4,3.3*3E
$GPRMC,172442.000,A,3748.8006,N,12217.8626,W,0.69,194.60,270911,,,A*78
$GPVTG,194.60,T,,M,0.69,N,1.3,K,A*0A
$GPGGA,172443.000,3748.8003,N,12217.8629,W,1,04,2.5,4.3,M,-25.1,M,,0000*67
$GPGSA,A,3,28,17,26,07,,,,,,,,,4.1,2.5,3.3*3F
$GPRMC,172443.000,A,3748.8003,N,12217.8629,W,1.20,157.28,270911,,,A*7C
$GPVTG,157.28,T,,M,1.20,N,2.2,K,A*07
$GPGGA,172444.000,3748.7998,N,12217.8627,W,1,04,2.5,3.7,M,-25.1,M,,0000*69
$GPGSA,A,3,28,17,26,07,,,,,,,,,4.1,2.5,3.3*3F
$GPGSV,3,1,12,17,72,182,27,28,59,034,24,26,49,242,24,08,39,117,28*76
$GPGSV,3,2,12,15,32,293,19,27,23,314,16,01,22,066,28,24,16,058,23*7D
$GPGSV,3,3,12,11,14,049,28,07,13,127,20,04,05,169,32,09,04,312,*78
$GPRMC,172444.000,A,3748.7998,N,12217.8627,W,1.02,139.41,270911,,,A*76
$GPVTG,139.41,T,,M,1.02,N,1.9,K,A*08
$GPGGA,172445.000,3748.8005,N,12217.8622,W,1,04,2.5,3.4,M,-25.1,M,,0000*6C
$GPGSA,A,3,28,17,26,07,,,,,,,,,4.1,2.5,3.3*3F
$GPRMC,172445.000,A,3748.8005,N,12217.8622,W,1.41,80.56,270911,,,A*42
$GPVTG,80.56,T,,M,1.41,N,2.6,K,A*36
$GPGGA,172446.000,3748.8012,N,12217.8616,W,1,04,2.5,2.8,M,-25.1,M,,0000*63
$GPGSA,A,3,28,17,26,07,,,,,,,,,4.1,2.5,3.3*3F
$GPRMC,172446.000,A,3748.8012,N,12217.8616,W,0.82,41.64,270911,,,A*42
$GPVTG,41.64,T,,M,0.82,N,1.5,K,A*34
$GPGGA,172447.000,3748.8015,N,12217.8618,W,1,05,1.6,1.7,M,-25.1,M,,0000*66
$GPGSA,A,3,28,17,15,26,07,,,,,,,,2.5,1.6,1.9*31
$GPRMC,172447.000,A,3748.8015,N,12217.8618,W,0.44,42.47,270911,,,A*42
$GPVTG,42.47,T,,M,0.44,N,0.8,K,A*30
$GPGGA,172448.000,3748.8020,N,12217.8622,W,1,04,3.5,-0.2,M,-25.1,M,,0000*4F
$GPGSA,A,3,17,15,26,07,,,,,,,,,4.3,3.5,2.5*35
$GPRMC,172448.000,A,3748.8020,N,12217.8622,W,0.66,15.33,270911,,,A*43
$GPVTG,15.33,T,,M,0.66,N,1.2,K,A*3A
$GPGGA,172449.000,3748.8011,N,12217.8621,W,1,05,1.6,1.4,M,-25.1,M,,0000*65
$GPGSA,A,3,28,17,15,26,07,,,,,,,,2.5,1.6,1.9*31
$GPGSV,3,1,12,17,72,182,28,28,59,034,29,26,49,242,22,08,39,117,29*73
$GPGSV,3,2,12,15,32,293,22,27,23,314,22,01,22,066,26,24,16,058,23*7C
$GPGSV,3,3,12,11,14,049,23,07,13,127,28,04,05,169,27,09,04,312,*7F
$GPRMC,172449.000,A,3748.8011,N,12217.8621,W,0.40,82.22,270911,,,A*49
$GPGGA,172450.000,3748.8007,N,12217.8623,W,1,05,1.6,1.7,M,-25.1,M,,0000*6B
$GPGSA,A,3,28,17,15,26,07,,,,,,,,2.5,1.6,1.9*31
$GPRMC,172450.000,A,3748.8007,N,12217.8623,W,0.72,155.31,270911,,,A*7C
$GPVTG,155.31,T,,M,0.72,N,1.3,K,A*09
$GPGGA,172451.000,3748.8005,N,12217.8626,W,1,05,1.6,1.9,M,-25.1,M,,0000*63
$GPGSA,A,3,28,17,15,26,07,,,,,,,,2.5,1.6,1.9*31
$GPRMC,172451.000,A,3748.8005,N,12217.8626,W,1.18,177.48,270911,,,A*79
$GPVTG,177.48,T,,M,1.18,N,2.2,K,A*08
$GPGGA,172452.000,3748.8004,N,12217.8630,W,1,05,1.6,2.6,M,-25.1,M,,0000*6A
$GPGSA,A,3,28,17,15,26,07,,,,,,,,2.5,1.6,1.9*31
$GPRMC,172452.000,A,3748.8004,N,12217.8630,W,0.45,254.94,270911,,,A*76
$GPVTG,254.94,T,,M,0.45,N,0.8,K,A*0A
$GPGGA,172453.000,3748.8005,N,12217.8631,W,1,05,1.6,3.0,M,-25.1,M,,0000*6C
$GPGSA,A,3,28,17,15,26,07,,,,,,,,2.5,1.6,1.9*31
$GPRMC,172453.000,A,3748.8005,N,12217.8631,W,0.11,143.60,270911,,,A*78
$GPVTG,143.60,T,,M,0.11,N,0.2,K,A*0F
$GPGGA,172454.000,3748.8006,N,12217.8633,W,1,05,1.6,3.6,M,-25.1,M,,0000*6C
$GPGSA,A,3,28,17,15,26,07,,,,,,,,2.5,1.6,1.9*31
$GPGSV,3,1,12,17,72,182,34,28,59,034,30,26,49,242,38,08,39,117,24*70
$GPGSV,3,2,12,15,32,293,41,27,23,314,39,01,22,066,23,24,16,058,22*77
$GPGSV,3,3,12,11,14,049,24,07,13,127,22,04,05,169,07,09,04,312,*70
$GPRMC,172454.000,A,3748.8006,N,12217.8633,W,0.30,274.79,270911,,,A*72
$GPVTG,274.79,T,,M,0.30,N,0.6,K,A*07
$GPGGA,172455.000,3748.8008,N,12217.8634,W,1,05,1.6,4.5,M,-25.1,M,,0000*60
$GPGSA,A,3,28,17,15,26,07,,,,,,,,2.5,1.6,1.9*31
$GPRMC,172455.000,A,3748.8008,N,12217.8634,W,0.42,307.83,270911,,,A*7F
$GPVTG,307.83,T,,M,0.42,N,0.8,K,A*0C
$GPGGA,172456.000,3748.8011,N,12217.8635,W,1,05,1.6,5.0,M,-25.1,M,,0000*6E
$GPGSA,A,3,28,17,15,26,07,,,,,,,,2.5,1.6,1.9*31
$GPRMC,172456.000,A,3748.8011,N,12217.8635,W,0.07,178.55,270911,,,A*75
$GPVTG,178.55,T,,M,0.07,N,0.1,K,A*05
$GPGGA,172457.000,3748.8012,N,12217.8636,W,1,05,1.6,5.6,M,-25.1,M,,0000*69
$GPGSA,A,3,28,17,15,26,07,,,,,,,,2.5,1.6,1.9*31
$GPRMC,172457.000,A,3748.8012,N,12217.8636,W,0.13,250.15,270911,,,A*7C
$GPVTG,250.15,T,,M,0.13,N,0.2,K,A*0E
$GPGGA,172458.000,3748.8014,N,12217.8637,W,1,05,1.6,6.6,M,-25.1,M,,0000*62
$GPGSA,A,3,28,17,15,26,07,,,,,,,,2.5,1.6,1.9*31
$GPRMC,172458.000,A,3748.8014,N,12217.8637,W,0.47,296.94,270911,,,A*76
$GPVTG,296.94,T,,M,0.47,N,0.9,K,A*07
$GPGGA,172459.000,3748.8015,N,12217.8639,W,1,05,1.6,7.6,M,-25.1,M,,0000*6D
$GPGSA,A,3,28,17,15,26,07,,,,,,,,2.5,1.6,1.9*31
$GPGSV,3,1,12,17,72,182,26,28,59,034,22,26,49,242,33,08,39,117,14*78
$GPGSV,3,2,12,15,32,293,40,27,23,314,38,01,22,066,22,24,16,058,23*77
$GPGSV,3,3,12,11,14,049,26,07,13,127,21,04,05,169,22,09,04,312,*76
$GPRMC,172459.000,A,3748.8015,N,12217.8639,W,0.54,340.15,270911,,,A*79
$GPVTG,340.15,T,,M,0.54,N,1.0,K,A*0E
$GPGGA,172500.000,3748.8011,N,12217.8645,W,1,05,1.6,7.9,M,-25.1,M,,0000*60
$GPGSA,A,3,28,17,15,26,07,,,,,,,,2.5,1.6,1.9*31
$GPRMC,172500.000,A,3748.8011,N,12217.8645,W,0.48,252.54,270911,,,A*71
$GPVTG,252.54,T,,M,0.48,N,0.9,K,A*0C
$GPGGA,172501.000,3748.8009,N,12217.8649,W,1,05,1.6,8.1,M,-25.1,M,,0000*63
$GPGSA,A,3,28,17,15,26,07,,,,,,,,2.5,1.6,1.9*31
$GPRMC,172501.000,A,3748.8009,N,12217.8649,W,0.39,228.50,270911,,,A*7A
$GPVTG,228.50,T,,M,0.39,N,0.7,K,A*0D
$GPGGA,172502.000,3748.8009,N,12217.8651,W,1,05,1.6,8.7,M,-25.1,M,,0000*6F
$GPGSA,A,3,28,17,15,26,07,,,,,,,,2.5,1.6,1.9*31
$GPRMC,172502.000,A,3748.8009,N,12217.8651,W,0.56,220.56,270911,,,A*77
$GPVTG,220.56,T,,M,0.56,N,1.0,K,A*0C
$GPGGA,172503.000,3748.8009,N,12217.8652,W,1,05,1.6,9.3,M,-25.1,M,,0000*68
$GPGSA,A,3,28,17,15,26,07,,,,,,,,2.5,1.6,1.9*31
$GPRMC,172503.000,A,3748.8009,N,12217.8652,W,0.14,230.87,270911,,,A*7E
$GPVTG,230.87,T,,M,0.14,N,0.3,K,A*05
$GPGGA,172504.000,3748.8002,N,12217.8660,W,1,05,1.6,9.3,M,-25.1,M,,0000*65
$GPGSA,A,3,28,17,15,26,07,,,,,,,,2.5,1.6,1.9*31
$GPGSV,3,1,12,17,72,182,30,28,59,034,25,26,49,242,36,08,39,117,25*7F
$GPGSV,3,2,12,15,32,293,34,27,23,314,30,01,22,066,20,24,16,058,13*7D
$GPGSV,3,3,12,11,14,049,16,07,13,127,22,04,05,169,26,09,04,312,*72
$GPRMC,172504.000,A,3748.8002,N,12217.8660,W,0.60,200.97,270911,,,A*72
$GPGGA,172505.000,3748.7998,N,12217.8665,W,1,05,1.6,9.6,M,-25.1,M,,0000*61
$GPGSA,A,3,28,17,15,26,07,,,,,,,,2.5,1.6,1.9*31
$GPRMC,172505.000,A,3748.7998,N,12217.8665,W,0.43,217.97,270911,,,A*74
$GPVTG,217.97,T,,M,0.43,N,0.8,K,A*08
$GPGGA,172506.000,3748.7996,N,12217.8667,W,1,05,1.6,10.1,M,-25.1,M,,0000*51
$GPGSA,A,3,28,17,15,26,07,,,,,,,,2.5,1.6,1.9*31
$GPRMC,172506.000,A,3748.7996,N,12217.8667,W,0.39,136.66,270911,,,A*78
$GPVTG,136.66,T,,M,0.39,N,0.7,K,A*04
$GPGGA,172507.000,3748.7995,N,12217.8668,W,1,05,1.6,10.9,M,-25.1,M,,0000*54
$GPGSA,A,3,28,17,15,26,07,,,,,,,,2.5,1.6,1.9*31
$GPRMC,172507.000,A,3748.7995,N,12217.8668,W,0.16,204.96,270911,,,A*75
$GPVTG,204.96,T,,M,0.16,N,0.3,K,A*00
$GPGGA,172508.000,3748.7999,N,12217.8670,W,1,05,1.6,11.2,M,-25.1,M,,0000*54
$GPGSA,A,3,28,17,15,26,07,,,,,,,,2.5,1.6,1.9*31
$GPRMC,172508.000,A,3748.7999,N,12217.8670,W,0.24,335.14,270911,,,A*77
$GPVTG,335.14,T,,M,0.24,N,0.5,K,A*0E
$GPGGA,172509.000,3748.7999,N,12217.8665,W,1,03,2.3,12.1,M,-25.1,M,,0000*51
$GPGSA,A,2,28,17,15,,,,,,,,,,2.5,2.3,1.0*3C
$GPGSV,3,1,12,17,72,182,22,28,59,034,15,26,49,242,19,08,39,117,15*71
$GPGSV,3,2,12,15,32,293,20,27,23,314,26,01,22,066,19,24,16,058,25*70
$GPGSV,3,3,12,11,14,049,20,07,13,127,16,04,05,169,21,09,04,312,*77
$GPRMC,172509.000,A,3748.7999,N,12217.8665,W,0.99,152.27,270911,,,A*77
$GPVTG,152.27,T,,M,0.99,N,1.8,K,A*07
$GPGGA,172510.000,3748.7997,N,12217.8663,W,6,00,50.0,12.3,M,-25.1,M,,0000*63
$GPGSA,A,2,,,,,,,,,,,,,50.0,50.0,50.0*06
$GPRMC,172510.000,A,3748.7997,N,12217.8663,W,0.99,152.27,270911,,,E*73
$GPVTG,152.27,T,,M,0.99,N,1.8,K,N*08
$GPGGA,172511.000,3748.7995,N,12217.8658,W,1,03,2.3,12.7,M,-25.1,M,,0000*5C
$GPGSA,A,2,28,17,15,,,,,,,,,,2.5,2.3,1.0*3C
$GPRMC,172511.000,A,3748.7995,N,12217.8658,W,1.29,125.82,270911,,,A*79
$GPVTG,125.82,T,,M,1.29,N,2.4,K,N*02
$GPGGA,172512.000,3748.8003,N,12217.8657,W,1,03,2.3,12.1,M,-25.1,M,,0000*5F
$GPGSA,A,2,28,17,15,,,,,,,,,,2.5,2.3,1.0*3C
$GPRMC,172512.000,A,3748.8003,N,12217.8657,W,0.88,58.38,270911,,,A*4C
$GPVTG,58.38,T,,M,0.88,N,1.6,K,N*33
$GPGGA,172513.000,3748.8019,N,12217.8654,W,1,04,1.9,11.3,M,-25.1,M,,0000*59
$GPGSA,A,3,28,17,15,26,,,,,,,,,2.2,1.9,1.0*37
$GPRMC,172513.000,A,3748.8019,N,12217.8654,W,2.02,59.96,270911,,,A*40
$GPVTG,59.96,T,,M,2.02,N,3.7,K,A*3A
$GPGGA,172514.000,3748.8020,N,12217.8649,W,1,03,3.7,11.5,M,-25.1,M,,0000*55
$GPGSA,A,2,17,15,26,,,,,,,,,,3.8,3.7,1.0*3B
$GPGSV,3,1,12,17,72,182,23,28,59,034,15,26,49,242,31,08,39,117,16*79
$GPGSV,3,2,12,15,32,293,31,27,23,314,27,01,22,066,16,24,16,058,12*7A
$GPGSV,3,3,12,11,14,049,15,07,13,127,,04,05,169,26,09,04,312,*71
$GPRMC,172514.000,A,3748.8020,N,12217.8649,W,0.55,35.49,270911,,,A*49
$GPVTG,35.49,T,,M,0.55,N,1.0,K,A*37
$GPGGA,172515.000,3748.8012,N,12217.8644,W,1,04,1.9,11.9,M,-25.1,M,,0000*5F
$GPGSA,A,3,28,17,15,26,,,,,,,,,2.2,1.9,1.0*37
$GPRMC,172515.000,A,3748.8012,N,12217.8644,W,0.57,137.54,270911,,,A*79
$GPVTG,137.54,T,,M,0.57,N,1.1,K,A*0B
$GPGGA,172516.000,3748.8011,N,12217.8650,W,1,05,1.6,14.2,M,-25.1,M,,0000*5A
$GPGSA,A,3,28,17,15,26,07,,,,,,,,2.5,1.6,1.9*31
$GPRMC,172516.000,A,3748.8011,N,12217.8650,W,0.12,220.54,270911,,,A*78
$GPVTG,220.54,T,,M,0.12,N,0.2,K,A*0D
$GPGGA,172517.000,3748.8018,N,12217.8665,W,1,04,3.5,17.5,M,-25.1,M,,0000*50
$GPGSA,A,3,17,15,26,07,,,,,,,,,4.3,3.5,2.5*35
$GPRMC,172517.000,A,3748.8018,N,12217.8665,W,0.14,98.64,270911,,,A*42
$GPVTG,98.64,T,,M,0.14,N,0.3,K,A*38
$GPGGA,172518.000,3748.8017,N,12217.8674,W,1,05,1.6,21.0,M,-25.1,M,,0000*50
$GPGSA,A,3,28,17,15,26,07,,,,,,,,2.5,1.6,1.9*31
$GPRMC,172518.000,A,3748.8017,N,12217.8674,W,0.43,168.32,270911,,,A*7D
$GPVTG,168.32,T,,M,0.43,N,0.8,K,A*0C
$GPGGA,172519.000,3748.8017,N,12217.8678,W,1,05,1.6,24.6,M,-25.1,M,,0000*5E
$GPGSA,A,3,28,17,15,26,07,,,,,,,,2.5,1.6,1.9*31
$GPGSV,3,1,12,17,72,182,29,28,59,034,27,26,49,242,31,08,39,117,16*72
$GPGSV,3,2,12,15,32,293,36,27,23,314,30,01,22,066,13,24,16,058,*7D
$GPGSV,3,3,12,11,14,049,16,07,13,127,21,04,05,169,21,09,04,312,*76
$GPRMC,172519.000,A,3748.8017,N,12217.8678,W,0.22,201.61,270911,,,A*7D
$GPGGA,172520.000,3748.8023,N,12217.8679,W,1,05,1.6,26.2,M,-25.1,M,,0000*54
$GPGSA,A,3,28,17,15,26,07,,,,,,,,2.5,1.6,1.9*31
$GPRMC,172520.000,A,3748.8023,N,12217.8679,W,0.11,137.93,270911,,,A*7A
$GPVTG,137.93,T,,M,0.11,N,0.2,K,A*00
$GPGGA,172521.000,3748.8030,N,12217.8681,W,1,05,1.6,28.6,M,-25.1,M,,0000*5A
$GPGSA,A,3,28,17,15,26,07,,,,,,,,2.5,1.6,1.9*31
$GPRMC,172521.000,A,3748.8030,N,12217.8681,W,0.24,313.83,270911,,,A*7D
$GPVTG,313.83,T,,M,0.24,N,0.5,K,A*04
$GPGGA,172522.000,3748.8030,N,12217.8686,W,1,05,1.6,29.0,M,-25.1,M,,0000*59
$GPGSA,A,3,28,17,15,26,07,,,,,,,,2.5,1.6,1.9*31
$GPRMC,172522.000,A,3748.8030,N,12217.8686,W,0.74,295.81,270911,,,A*71
$GPVTG,295.81,T,,M,0.74,N,1.4,K,A*0C
$GPGGA,172523.000,3748.8036,N,12217.8689,W,1,05,1.6,29.6,M,-25.1,M,,0000*57
$GPGSA,A,3,28,17,15,26,07,,,,,,,,2.5,1.6,1.9*31
$GPRMC,172523.000,A,3748.8036,N,12217.8689,W,1.20,300.37,270911,,,A*79
$GPVTG,300.37,T,,M,1.20,N,2.2,K,A*09
$GPGGA,172524.000,3748.8042,N,12217.8697,W,1,05,1.6,30.4,M,-25.1,M,,0000*56
$GPGSA,A,3,28,17,15,26,07,,,,,,,,2.5,1.6,1.9*31
$GPGSV,3,1,12,17,72,182,22,28,59,034,25,26,49,242,27,08,39,117,16*7C
$GPGSV,3,2,12,15,32,293,23,27,23,314,24,01,22,066,,24,16,058,*7E
$GPGSV,3,3,12,11,14,049,17,07,13,127,13,04,05,169,17,09,04,312,*73
$GPRMC,172524.000,A,3748.8042,N,12217.8697,W,2.66,309.11,270911,,,A*7E
$GPVTG,309.11,T,,M,2.66,N,4.9,K,A*08
$GPGGA,172525.000,3748.8050,N,12217.8698,W,1,05,1.6,32.2,M,-25.1,M,,0000*5F
$GPGSA,A,3,28,17,15,26,07,,,,,,,,2.5,1.6,1.9*31
$GPRMC,172525.000,A,3748.8050,N,12217.8698,W,2.11,323.25,270911,,,A*7C
$GPVTG,323.25,T,,M,2.11,N,3.9,K,A*00
$GPGGA,172526.000,3748.8050,N,12217.8697,W,1,05,1.6,33.9,M,-25.1,M,,0000*59
$GPGSA,A,3,28,17,15,26,07,,,,,,,,2.5,1.6,1.9*31
$GPRMC,172526.000,A,3748.8050,N,12217.8697,W,1.16,289.52,270911,,,A*75
$GPVTG,289.52,T,,M,1.16,N,2.1,K,A*0C
$GPGGA,172527.000,3748.8050,N,12217.8699,W,1,03,3.7,34.6,M,-25.1,M,,0000*5B
$GPGSA,A,2,17,15,26,,,,,,,,,,3.8,3.7,1.0*3B
$GPRMC,172527.000,A,3748.8050,N,12217.8699,W,0.81,275.04,270911,,,A*75
$GPVTG,275.04,T,,M,0.81,N,1.5,K,N*0B
$GPGGA,172528.000,3748.8050,N,12217.8698,W,1,04,1.9,35.1,M,-25.1,M,,0000*58
$GPGSA,A,3,28,17,15,26,,,,,,,,,2.2,1.9,1.0*37
$GPRMC,172528.000,A,3748.8050,N,12217.8698,W,0.63,316.39,270911,,,A*7D
$GPVTG,316.39,T,,M,0.63,N,1.2,K,A*05
$GPGGA,172529.000,3748.8050,N,12217.8699,W,1,04,1.9,35.5,M,-25.1,M,,0000*5C
$GPGSA,A,3,28,17,15,26,,,,,,,,,2.2,1.9,1.0*37
$GPGSV,3,1,12,17,72,182,24,28,59,034,20,26,49,242,31,08,39,117,*7F
$GPGSV,3,2,12,15,32,293,17,27,23,314,22,01,22,066,,24,16,058,21*7C
$GPGSV,3,3,12,11,14,049,18,07,13,127,,04,05,169,17,09,04,312,*7E
$GPRMC,172529.000,A,3748.8050,N,12217.8699,W,1.35,309.97,270911,,,A*75
$GPVTG,309.97,T,,M,1.35,N,2.5,K,A*09
$GPGGA,172530.000,3748.8060,N,12217.8698,W,1,03,3.7,35.8,M,-25.1,M,,0000*50
$GPGSA,A,2,28,17,26,,,,,,,,,,3.9,3.7,1.0*34
$GPRMC,172530.000,A,3748.8060,N,12217.8698,W,2.06,324.82,270911,,,A*77
$GPVTG,324.82,T,,M,2.06,N,3.8,K,N*02
$GPGGA,172531.000,3748.8067,N,12217.8701,W,1,03,3.7,36.1,M,-25.1,M,,0000*5D
$GPGSA,A,2,28,17,26,,,,,,,,,,3.9,3.7,1.0*34
$GPRMC,172531.000,A,3748.8067,N,12217.8701,W,2.40,318.39,270911,,,A*7D
$GPVTG,318.39,T,,M,2.40,N,4.4,K,A*0B
$GPGGA,172532.000,3748.8059,N,12217.8703,W,1,04,1.9,36.7,M,-25.1,M,,0000*5C
$GPGSA,A,3,28,17,15,26,,,,,,,,,2.2,1.9,1.0*37
$GPRMC,172532.000,A,3748.8059,N,12217.8703,W,1.94,294.29,270911,,,A*7F
$GPVTG,294.29,T,,M,1.94,N,3.6,K,A*00
$GPGGA,172533.000,3748.8050,N,12217.8707,W,1,04,1.9,37.1,M,-25.1,M,,0000*57
$GPGSA,A,3,28,17,15,26,,,,,,,,,2.2,1.9,1.0*37
$GPRMC,172533.000,A,3748.8050,N,12217.8707,W,1.03,244.09,270911,,,A*72
$GPVTG,244.09,T,,M,1.03,N,1.9,K,A*0C
$GPGGA,172534.000,3748.8037,N,12217.8707,W,1,04,1.9,37.3,M,-25.1,M,,0000*53
$GPGSA,A,3,28,17,15,26,,,,,,,,,2.2,1.9,1.0*37
$GPGSV,3,1,12,17,72,182,18,28,59,034,20,26,49,242,19,08,39,117,*7A
$GPGSV,3,2,12,15,32,293,22,27,23,314,23,01,22,066,,24,16,058,*78
$GPGSV,3,3,12,11,14,049,18,07,13,127,,04,05,169,16,09,04,312,*7F
$GPRMC,172534.000,A,3748.8037,N,12217.8707,W,1.01,161.89,270911,,,A*7A
$GPGGA,172535.000,3748.8043,N,12217.8702,W,1,04,1.9,37.3,M,-25.1,M,,0000*54
$GPGSA,A,3,28,17,15,26,,,,,,,,,2.2,1.9,1.0*37
$GPRMC,172535.000,A,3748.8043,N,12217.8702,W,0.38,47.79,270911,,,A*4C
$GPVTG,47.79,T,,M,0.38,N,0.7,K,A*3C
$GPGGA,172536.000,3748.8044,N,12217.8698,W,1,04,1.9,37.7,M,-25.1,M,,0000*56
$GPGSA,A,3,28,17,15,26,,,,,,,,,2.2,1.9,1.0*37
$GPRMC,172536.000,A,3748.8044,N,12217.8698,W,0.30,286.11,270911,,,A*73
$GPVTG,286.11,T,,M,0.30,N,0.5,K,A*07
$GPGGA,172537.000,3748.8050,N,12217.8697,W,1,04,1.9,37.8,M,-25.1,M,,0000*52
$GPGSA,A,3,28,17,15,26,,,,,,,,,2.2,1.9,1.0*37
$GPRMC,172537.000,A,3748.8050,N,12217.8697,W,0.32,276.06,270911,,,A*73
$GPVTG,276.06,T,,M,0.32,N,0.6,K,A*0F
$GPGGA,172538.000,3748.8052,N,12217.8701,W,1,04,1.9,37.8,M,-25.1,M,,0000*51
$GPGSA,A,3,28,17,15,26,,,,,,,,,2.2,1.9,1.0*37
$GPRMC,172538.000,A,3748.8052,N,12217.8701,W,0.33,288.77,270911,,,A*76
$GPVTG,288.77,T,,M,0.33,N,0.6,K,A*09
$GPGGA,172539.000,3748.8058,N,12217.8709,W,1,04,1.9,37.4,M,-25.1,M,,0000*5E
$GPGSA,A,3,28,17,15,26,,,,,,,,,2.2,1.9,1.0*37
$GPGSV,3,1,12,17,72,182,27,28,59,034,28,26,49,242,25,08,39,117,*71
$GPGSV,3,2,12,15,32,293,33,27,23,314,24,01,22,066,,24,16,058,27*7A
$GPGSV,3,3,12,11,14,049,25,07,13,127,,04,05,169,15,09,04,312,*72
$GPRMC,172539.000,A,3748.8058,N,12217.8709,W,0.67,301.73,270911,,,A*70
$GPVTG,301.73,T,,M,0.67,N,1.2,K,A*09
$GPGGA,172540.000,3748.8061,N,12217.8711,W,1,05,1.6,36.8,M,-25.1,M,,0000*50
$GPGSA,A,3,28,17,15,26,07,,,,,,,,2.5,1.6,1.9*31
$GPRMC,172540.000,A,3748.8061,N,12217.8711,W,0.49,317.39,270911,,,A*78
$GPVTG,317.39,T,,M,0.49,N,0.9,K,A*06
$GPGGA,172541.000,3748.8062,N,12217.8712,W,1,05,1.6,36.1,M,-25.1,M,,0000*58
$GPGSA,A,3,28,17,15,26,07,,,,,,,,2.5,1.6,1.9*31
$GPRMC,172541.000,A,3748.8062,N,12217.8712,W,0.53,292.11,270911,,,A*74
$GPVTG,292.11,T,,M,0.53,N,1.0,K,A*03
$GPGGA,172542.000,3748.8060,N,12217.8709,W,1,05,1.6,34.5,M,-25.1,M,,0000*55
$GPGSA,A,3,28,17,15,26,07,,,,,,,,2.5,1.6,1.9*31
$GPRMC,172542.000,A,3748.8060,N,12217.8709,W,0.54,218.43,270911,,,A*7D
$GPVTG,218.43,T,,M,0.54,N,1.0,K,A*01
$GPGGA,172543.000,3748.8054,N,12217.8706,W,1,05,1.6,33.1,M,-25.1,M,,0000*5F
$GPGSA,A,3,28,17,15,26,07,,,,,,,,2.5,1.6,1.9*31
$GPRMC,172543.000,A,3748.8054,N,12217.8706,W,0.13,304.46,270911,,,A*7E
$GPVTG,304.46,T,,M,0.13,N,0.2,K,A*08
$GPGGA,172544.000,3748.8049,N,12217.8698,W,1,05,1.6,30.9,M,-25.1,M,,0000*59
$GPGSA,A,3,28,17,15,26,07,,,,,,,,2.5,1.6,1.9*31
$GPGSV,3,1,12,17,72,182,29,28,59,034,20,26,49,242,35,08,39,117,27*73
$GPGSV,3,2,12,15,32,293,26,27,23,314,24,01,22,066,,24,16,058,22*7B
$GPGSV,3,3,12,11,14,049,16,07,13,127,21,04,05,169,17,09,04,312,*73
$GPRMC,172544.000,A,3748.8049,N,12217.8698,W,0.25,315.22,270911,,,A*74
$GPVTG,315.22,T,,M,0.25,N,0.5,K,A*08
$GPGGA,172545.000,3748.8039,N,12217.8687,W,1,05,1.6,25.4,M,-25.1,M,,0000*58
$GPGSA,A,3,28,17,15,26,07,,,,,,,,2.5,1.6,1.9*31
$GPRMC,172545.000,A,3748.8039,N,12217.8687,W,0.29,140.80,270911,,,A*7A
$GPVTG,140.80,T,,M,0.29,N,0.5,K,A*0E
$GPGGA,172546.000,3748.8029,N,12217.8684,W,1,05,1.6,21.8,M,-25.1,M,,0000*51
$GPGSA,A,3,28,17,15,26,07,,,,,,,,2.5,1.6,1.9*31
$GPRMC,172546.000,A,3748.8029,N,12217.8684,W,0.64,125.58,270911,,,A*74
$GPVTG,125.58,T,,M,0.64,N,1.2,K,A*07
$GPGGA,172547.000,3748.8025,N,12217.8676,W,1,05,1.6,18.9,M,-25.1,M,,0000*5A
$GPGSA,A,3,28,17,15,26,07,,,,,,,,2.5,1.6,1.9*31
$GPRMC,172547.000,A,3748.8025,N,12217.8676,W,0.78,110.89,270911,,,A*73
$GPVTG,110.89,T,,M,0.78,N,1.4,K,A*06
$GPGGA,172548.000,3748.8021,N,12217.8665,W,1,05,1.6,15.1,M,-25.1,M,,0000*56
$GPGSA,A,3,28,17,15,26,07,,,,,,,,2.5,1.6,1.9*31
$GPRMC,172548.000,A,3748.8021,N,12217.8665,W,0.34,176.63,270911,,,A*76
$GPVTG,176.63,T,,M,0.34,N,0.6,K,A*09
$GPGGA,172549.000,3748.8017,N,12217.8661,W,1,05,1.6,11.5,M,-25.1,M,,0000*56
$GPGSA,A,3,28,17,15,26,07,,,,,,,,2.5,1.6,1.9*31
$GPGSV,3,1,12,17,73,182,30,28,58,036,20,26,48,241,27,08,39,118,27*77
$GPGSV,3,2,12,15,33,292,23,27,24,314,17,24,16,057,24,11,14,049,26*7D
$GPGSV,3,3,12,07,12,127,20,04,06,168,17,09,05,312,,51,43,156,35*78
$GPRMC,172549.000,A,3748.8017,N,12217.8661,W,0.92,307.01,270911,,,A*7A
$GPGGA,172550.000,3748.8014,N,12217.8669,W,1,04,1.9,11.4,M,-25.1,M,,0000*5A
$GPGSA,A,3,28,17,15,26,,,,,,,,,2.2,1.9,1.0*37
$GPRMC,172550.000,A,3748.8014,N,12217.8669,W,1.16,279.86,270911,,,A*73
$GPVTG,279.86,T,,M,1.16,N,2.2,K,A*09
$GPGGA,172551.000,3748.8005,N,12217.8667,W,1,05,1.6,9.1,M,-25.1,M,,0000*67
$GPGSA,A,3,28,17,15,26,07,,,,,,,,2.5,1.6,1.9*31
$GPRMC,172551.000,A,3748.8005,N,12217.8667,W,0.25,166.70,270911,,,A*79
$GPVTG,166.70,T,,M,0.25,N,0.5,K,A*09
$GPGGA,172552.000,3748.8005,N,12217.8670,W,1,05,1.6,8.8,M,-25.1,M,,0000*6A
$GPGSA,A,3,28,17,15,26,07,,,,,,,,2.5,1.6,1.9*31
$GPRMC,172552.000,A,3748.8005,N,12217.8670,W,0.41,86.69,270911,,,A*49
$GPVTG,86.69,T,,M,0.41,N,0.8,K,A*31
$GPGGA,172553.000,3748.8005,N,12217.8672,W,1,05,1.6,8.3,M,-25.1,M,,0000*62
$GPGSA,A,3,28,17,15,26,07,,,,,,,,2.5,1.6,1.9*31
$GPRMC,172553.000,A,3748.8005,N,12217.8672,W,0.22,160.73,270911,,,A*7D
$GPVTG,160.73,T,,M,0.22,N,0.4,K,A*0A
$GPGGA,172554.000,3748.8007,N,12217.8673,W,1,04,2.5,8.6,M,-25.1,M,,0000*62
$GPGSA,A,3,28,17,26,07,,,,,,,,,4.1,2.5,3.3*3F
$GPGSV,3,1,12,17,73,182,32,28,58,036,26,26,48,241,31,08,39,118,27*74
$GPGSV,3,2,12,15,33,292,22,27,24,314,18,24,16,057,09,11,14,049,10*79
$GPGSV,3,3,12,07,12,127,16,04,06,168,,09,05,312,,51,43,156,32*7C
$GPRMC,172554.000,A,3748.8007,N,12217.8673,W,0.52,319.13,270911,,,A*74
$GPVTG,319.13,T,,M,0.52,N,1.0,K,A*02
$GPGGA,172555.000,3748.8006,N,12217.8672,W,1,05,1.6,9.1,M,-25.1,M,,0000*64
$GPGSA,A,3,28,17,15,26,07,,,,,,,,2.5,1.6,1.9*31
$GPRMC,172555.000,A,3748.8006,N,12217.8672,W,0.27,325.51,270911,,,A*7E
$GPVTG,325.51,T,,M,0.27,N,0.5,K,A*0D
$GPGGA,172556.000,3748.8005,N,12217.8671,W,1,05,1.6,8.9,M,-25.1,M,,0000*6E
$GPGSA,A,3,28,17,15,26,07,,,,,,,,2.5,1.6,1.9*31
$GPRMC,172556.000,A,3748.8005,N,12217.8671,W,0.19,107.27,270911,,,A*73
$GPVTG,107.27,T,,M,0.19,N,0.4,K,A*02
$GPGGA,172557.000,3748.8004,N,12217.8670,W,1,05,1.6,9.0,M,-25.1,M,,0000*67
$GPGSA,A,3,28,17,15,26,07,,,,,,,,2.5,1.6,1.9*31
$GPRMC,172557.000,A,3748.8004,N,12217.8670,W,0.79,134.82,270911,,,A*7B
$GPVTG,134.82,T,,M,0.79,N,1.5,K,A*0B
$GPGGA,172558.000,3748.8003,N,12217.8671,W,1,05,1.6,8.1,M,-25.1,M,,0000*6E
$GPGSA,A,3,28,17,15,26,07,,,,,,,,2.5,1.6,1.9*31
$GPRMC,172558.000,A,3748.8003,N,12217.8671,W,1.31,136.75,270911,,,A*75
$GPVTG,136.75,T,,M,1.31,N,2.4,K,A*0E
$GPGGA,172559.000,3748.7998,N,12217.8672,W,1,04,1.9,7.8,M,-25.1,M,,0000*60
$GPGSA,A,3,28,17,15,26,,,,,,,,,2.2,1.9,1.0*37
$GPGSV,3,1,11,17,73,182,31,28,58,036,14,26,48,241,31,08,39,118,27*75
$GPGSV,3,2,11,15,33,292,27,27,24,314,18,24,16,057,15,11,14,049,15*77
$GPGSV,3,3,11,07,12,127,,04,06,168,,09,05,312,*48
$GPRMC,172559.000,A,3748.7998,N,12217.8672,W,0.85,166.15,270911,,,A*7E
$GPVTG,166.15,T,,M,0.85,N,1.6,K,A*02
$GPGGA,172600.000,3748.7997,N,12217.8667,W,1,04,1.9,8.2,M,-25.1,M,,0000*61
$GPGSA,A,3,28,17,15,26,,,,,,,,,2.2,1.9,1.0*37
$GPRMC,172600.000,A,3748.7997,N,12217.8667,W,0.52,159.81,270911,,,A*71
$GPVTG,159.81,T,,M,0.52,N,1.0,K,A*0F
$GPGGA,172601.000,3748.7998,N,12217.8662,W,1,04,1.9,8.6,M,-25.1,M,,0000*6E
$GPGSA,A,3,28,17,15,26,,,,,,,,,2.2,1.9,1.0*37
$GPRMC,172601.000,A,3748.7998,N,12217.8662,W,0.31,130.30,270911,,,A*7A
$GPVTG,130.30,T,,M,0.31,N,0.6,K,A*08
$GPGGA,172602.000,3748.7999,N,12217.8658,W,1,04,1.9,8.9,M,-25.1,M,,0000*6A
$GPGSA,A,3,28,17,15,26,,,,,,,,,2.2,1.9,1.0*37
$GPRMC,172602.000,A,3748.7999,N,12217.8658,W,0.25,164.95,270911,,,A*7A
$GPVTG,164.95,T,,M,0.25,N,0.5,K,A*00
$GPGGA,172603.000,3748.8000,N,12217.8654,W,1,04,1.9,9.2,M,-25.1,M,,0000*6B
$GPGSA,A,3,28,17,15,26,,,,,,,,,2.2,1.9,1.0*37
$GPRMC,172603.000,A,3748.8000,N,12217.8654,W,0.17,139.47,270911,,,A*77
$GPVTG,139.47,T,,M,0.17,N,0.3,K,A*00
$GPGGA,172604.000,3748.8002,N,12217.8651,W,1,04,1.9,9.4,M,-25.1,M,,0000*6D
$GPGSA,A,3,28,17,15,26,,,,,,,,,2.2,1.9,1.0*37
$GPGSV,3,1,11,17,73,182,34,28,58,036,26,26,48,241,34,08,39,118,28*7B
$GPGSV,3,2,11,15,33,292,25,27,24,314,20,24,16,057,17,11,14,049,22*78
$GPGSV,3,3,11,07,12,127,,04,06,168,,09,05,312,*48
$GPRMC,172604.000,A,3748.8002,N,12217.8651,W,0.16,339.37,270911,,,A*73
$GPGGA,172605.000,3748.8001,N,12217.8649,W,1,04,1.9,9.5,M,-25.1,M,,0000*67
$GPGSA,A,3,28,17,15,26,,,,,,,,,2.2,1.9,1.0*37
$GPRMC,172605.000,A,3748.8001,N,12217.8649,W,0.27,91.43,270911,,,A*48
$GPVTG,91.43,T,,M,0.27,N,0.5,K,A*32
$GPGGA,172606.000,3748.8003,N,12217.8643,W,1,04,1.9,9.7,M,-25.1,M,,0000*6E
$GPGSA,A,3,28,17,15,26,,,,,,,,,2.2,1.9,1.0*37
$GPRMC,172606.000,A,3748.8003,N,12217.8643,W,0.85,54.90,270911,,,A*4C
$GPVTG,54.90,T,,M,0.85,N,1.6,K,A*3F
$GPGGA,172607.000,3748.8008,N,12217.8639,W,1,04,1.9,9.7,M,-25.1,M,,0000*69
$GPGSA,A,3,28,17,15,26,,,,,,,,,2.2,1.9,1.0*37
$GPRMC,172607.000,A,3748.8008,N,12217.8639,W,1.36,29.98,270911,,,A*40
$GPVTG,29.98,T,,M,1.36,N,2.5,K,A*34
$GPGGA,172608.000,3748.8005,N,12217.8642,W,1,05,1.6,8.0,M,-25.1,M,,0000*6F
$GPGSA,A,3,28,17,15,26,07,,,,,,,,2.5,1.6,1.9*31
$GPRMC,172608.000,A,3748.8005,N,12217.8642,W,0.06,333.44,270911,,,A*75
$GPVTG,333.44,T,,M,0.06,N,0.1,K,A*09
$GPGGA,172609.000,3748.8001,N,12217.8631,W,1,05,1.6,5.2,M,-25.1,M,,0000*61
$GPGSA,A,3,28,17,15,26,07,,,,,,,,2.5,1.6,1.9*31
$GPGSV,3,1,11,17,73,182,28,28,58,036,21,26,48,241,31,08,39,118,19*76
$GPGSV,3,2,11,15,33,292,25,27,24,314,16,24,16,057,18,11,14,049,*72
$GPGSV,3,3,11,07,12,127,17,04,06,168,,09,05,312,*4E
$GPRMC,172609.000,A,3748.8001,N,12217.8631,W,0.11,162.05,270911,,,A*71
$GPVTG,162.05,T,,M,0.11,N,0.2,K,A*0F
$GPGGA,172610.000,3748.8007,N,12217.8627,W,1,05,1.6,4.4,M,-25.1,M,,0000*6F
$GPGSA,A,3,28,17,15,26,07,,,,,,,,2.5,1.6,1.9*31
$GPRMC,172610.000,A,3748.8007,N,12217.8627,W,0.78,356.06,270911,,,A*71
$GPVTG,356.06,T,,M,0.78,N,1.5,K,A*00
$GPGGA,172611.000,3748.8009,N,12217.8623,W,1,05,1.6,4.4,M,-25.1,M,,0000*64
$GPGSA,A,3,28,17,15,26,07,,,,,,,,2.5,1.6,1.9*31
$GPRMC,172611.000,A,3748.8009,N,12217.8623,W,1.47,45.85,270911,,,A*4D
$GPVTG,45.85,T,,M,1.47,N,2.7,K,A*36
$GPGGA,172612.000,3748.8009,N,12217.8619,W,1,05,1.6,4.4,M,-25.1,M,,0000*6E
$GPGSA,A,3,28,17,15,26,07,,,,,,,,2.5,1.6,1.9*31
$GPRMC,172612.000,A,3748.8009,N,12217.8619,W,0.05,47.88,270911,,,A*4F
$GPVTG,47.88,T,,M,0.05,N,0.1,K,A*3A
$GPGGA,172613.000,3748.8011,N,12217.8618,W,1,05,1.6,5.2,M,-25.1,M,,0000*60
$GPGSA,A,3,28,17,15,26,07,,,,,,,,2.5,1.6,1.9*31
$GPRMC,172613.000,A,3748.8011,N,12217.8618,W,0.60,148.53,270911,,,A*7D
$GPVTG,148.53,T,,M,0.60,N,1.1,K,A*00
$GPGGA,172614.000,3748.8009,N,12217.8618,W,1,04,3.4,5.4,M,-25.1,M,,0000*69
$GPGSA,A,3,17,15,26,07,,,,,,,,,4.1,3.4,2.4*37
$GPGSV,3,1,11,17,73,181,32,28,58,036,23,26,48,240,37,08,39,118,27*76
$GPGSV,3,2,11,15,33,291,29,27,24,314,25,24,16,057,25,11,14,049,22*73
$GPRMC,172614.000,A,3748.8009,N,12217.8618,W,0.29,204.06,270911,,,A*75
$GPVTG,204.06,T,,M,0.29,N,0.5,K,A*03
$GPGGA,172615.000,3748.8007,N,12217.8619,W,1,05,1.6,5.8,M,-25.1,M,,0000*6A
$GPGSA,A,3,28,17,15,26,07,,,,,,,,2.5,1.6,1.9*31
$GPRMC,172615.000,A,3748.8007,N,12217.8619,W,0.56,213.15,270911,,,A*77
$GPVTG,213.15,T,,M,0.56,N,1.0,K,A*0B
$GPGGA,172616.000,3748.8007,N,12217.8620,W,1,05,1.6,6.5,M,-25.1,M,,0000*6D
$GPGSA,A,3,28,17,15,26,07,,,,,,,,2.5,1.6,1.9*31
$GPRMC,172616.000,A,3748.8007,N,12217.8620,W,0.49,194.65,270911,,,A*7B
$GPVTG,194.65,T,,M,0.49,N,0.9,K,A*06
$GPGGA,172617.000,3748.8012,N,12217.8619,W,1,05,1.6,8.2,M,-25.1,M,,0000*6B
$GPGSA,A,3,28,17,15,26,07,,,,,,,,2.5,1.6,1.9*31
$GPRMC,172617.000,A,3748.8012,N,12217.8619,W,0.87,56.98,270911,,,A*4B
$GPVTG,56.98,T,,M,0.87,N,1.6,K,A*37
$GPGGA,172618.000,3748.8018,N,12217.8621,W,1,05,1.6,9.6,M,-25.1,M,,0000*60
$GPGSA,A,3,28,17,15,26,07,,,,,,,,2.5,1.6,1.9*31
$GPRMC,172618.000,A,3748.8018,N,12217.8621,W,1.28,31.54,270911,,,A*40
$GPVTG,31.54,T,,M,1.28,N,2.4,K,A*33
$GPGGA,172619.000,3748.8021,N,12217.8626,W,1,05,1.6,11.0,M,-25.1,M,,0000*53
$GPGSA,A,3,28,17,15,26,07,,,,,,,,2.5,1.6,1.9*31
$GPGSV,3,1,11,17,73,181,25,28,58,036,20,26,48,240,30,08,38,118,19*78
$GPGSV,3,2,11,15,33,291,26,27,24,314,23,24,16,057,21,11,14,049,20*7C
