$ADVER,3080,2.3
$GPRMC,221934.817,A,3748.8001,N,12217.8598,W,0.03,140.29,220710,,,A*7C
$GPRMC,221935.817,A,3748.8002,N,12217.8598,W,0.03,232.35,220710,,,A*75
$GPRMC,221936.000,A,3748.8002,N,12217.8598,W,0.05,71.65,220710,,,A*4E
$GPRMC,221937.000,A,3748.8002,N,12217.8598,W,0.02,225.19,220710,,,A*70
$GPRMC,221938.000,A,3748.8001,N,12217.8598,W,0.03,219.26,220710,,,A*7E
$GPRMC,221939.000,A,3748.8001,N,12217.8598,W,0.03,346.82,220710,,,A*7A
$GPRMC,221940.000,A,3748.8001,N,12217.8598,W,0.02,242.06,220710,,,A*7C
$GPRMC,221941.000,A,3748.8000,N,12217.8598,W,0.01,206.70,220710,,,A*7E
$GPRMC,221942.000,A,3748.8000,N,12217.8598,W,0.08,343.05,220710,,,A*76
$GPRMC,221943.000,A,3748.8001,N,12217.8599,W,0.28,319.86,220710,,,A*71
$GPRMC,221944.000,A,3748.8001,N,12217.8599,W,0.16,137.56,220710,,,A*78
$GPRMC,221945.000,A,3748.8005,N,12217.8601,W,0.15,294.88,220710,,,A*75
$GPRMC,221946.000,A,3748.7997,N,12217.8610,W,0.29,218.15,220710,,,A*74
$GPRMC,221947.000,A,3748.8002,N,12217.8610,W,0.69,247.06,220710,,,A*73
$GPRMC,221948.000,A,3748.8002,N,12217.8617,W,1.60,232.88,220710,,,A*77
$GPRMC,221949.000,A,3748.7995,N,12217.8627,W,1.50,243.91,220710,,,A*70
$GPRMC,221950.000,A,3748.7985,N,12217.8641,W,1.38,224.97,220710,,,A*70
$GPRMC,221951.000,A,3748.7986,N,12217.8647,W,0.26,291.35,220710,,,A*7C
$GPRMC,221952.000,A,3748.7986,N,12217.8639,W,0.61,73.43,220710,,,A*4A
$GPRMC,221953.000,A,3748.7985,N,12217.8639,W,0.22,247.87,220710,,,A*72
$GPRMC,221954.000,A,3748.7982,N,12217.8640,W,0.68,246.24,220710,,,A*7A
$GPRMC,221955.000,A,3748.7980,N,12217.8641,W,0.86,240.44,220710,,,A*78
$GPRMC,221956.000,A,3748.7979,N,12217.8639,W,0.14,254.74,220710,,,A*7F
$GPRMC,221957.000,A,3748.7979,N,12217.8638,W,0.11,219.06,220710,,,A*76
$GPRMC,221958.000,A,3748.7980,N,12217.8637,W,0.40,38.23,220710,,,A*42
$GPRMC,221959.000,A,3748.7977,N,12217.8637,W,0.59,55.31,220710,,,A*4B
$GPRMC,222000.000,A,3748.7981,N,12217.8632,W,1.06,48.20,220710,,,A*46
$GPRMC,222001.000,A,3748.7980,N,12217.8629,W,0.67,65.20,220710,,,A*45
$GPRMC,222002.000,A,3748.7979,N,12217.8628,W,0.26,93.81,220710,,,A*46
$GPRMC,222003.000,A,3748.7975,N,12217.8628,W,0.30,134.96,220710,,,A*76
$GPRMC,222004.000,A,3748.7971,N,12217.8628,W,0.36,122.95,220710,,,A*77
$GPRMC,222005.000,A,3748.7974,N,12217.8620,W,0.63,79.64,220710,,,A*4A
$GPRMC,222006.000,A,3748.7975,N,12217.8620,W,0.10,135.31,220710,,,A*75
$GPRMC,222007.000,A,3748.7977,N,12217.8621,W,0.08,185.52,220710,,,A*70
$GPRMC,222008.000,A,3748.7977,N,12217.8624,W,0.27,214.91,220710,,,A*73
$GPRMC,222009.000,A,3748.7978,N,12217.8626,W,0.35,206.01,220710,,,A*76
$GPRMC,222010.000,A,3748.7979,N,12217.8627,W,0.33,202.95,220710,,,A*71
$GPRMC,222011.000,A,3748.7979,N,12217.8627,W,0.35,207.26,220710,,,A*7B
$GPRMC,222012.000,A,3748.7979,N,12217.8626,W,0.33,200.35,220710,,,A*7A
$GPRMC,222013.000,A,3748.7980,N,12217.8625,W,0.00,289.11,220710,,,A*79
$GPRMC,222014.000,A,3748.7981,N,12217.8625,W,0.22,215.51,220710,,,A*7E
$GPRMC,222015.000,A,3748.7982,N,12217.8625,W,0.11,193.40,220710,,,A*71
$GPRMC,222016.000,A,3748.7983,N,12217.8624,W,0.04,80.92,220710,,,A*4A
$GPRMC,222017.000,A,3748.7985,N,12217.8623,W,0.15,26.65,220710,,,A*4E
$GPRMC,222018.000,A,3748.7986,N,12217.8621,W,0.13,37.32,220710,,,A*44
$GPRMC,222019.000,A,3748.7988,N,12217.8620,W,0.38,32.40,220710,,,A*43
$GPRMC,222020.000,A,3748.7990,N,12217.8618,W,0.35,33.26,220710,,,A*47
$GPRMC,222021.000,A,3748.7992,N,12217.8616,W,0.56,35.59,220710,,,A*41
$GPRMC,222022.000,A,3748.8006,N,12217.8607,W,0.94,29.78,220710,,,A*49
$GPRMC,222023.000,A,3748.8012,N,12217.8603,W,0.55,24.97,220710,,,A*48
$GPRMC,222024.000,A,3748.8015,N,12217.8600,W,0.38,23.77,220710,,,A*49
$GPRMC,222025.000,A,3748.8015,N,12217.8597,W,0.07,328.97,220710,,,A*7F
$GPRMC,222026.000,A,3748.8015,N,12217.8598,W,0.18,270.57,220710,,,A*7D
$GPRMC,222027.000,A,3748.8012,N,12217.8599,W,0.53,239.72,220710,,,A*7F
$GPRMC,222028.000,A,3748.8012,N,12217.8602,W,0.14,259.40,220710,,,A*75
$GPRMC,222029.000,A,3748.8010,N,12217.8603,W,0.06,162.97,220710,,,A*75
$GPRMC,222030.000,A,3748.8011,N,12217.8603,W,0.45,55.93,220710,,,A*4A
$GPRMC,222031.000,A,3748.8008,N,12217.8603,W,0.56,72.29,220710,,,A*45
$GPRMC,222032.000,A,3748.8003,N,12217.8604,W,0.13,179.44,220710,,,A*7A
$GPRMC,222033.000,A,3748.8002,N,12217.8605,W,0.28,238.05,220710,,,A*70
$GPRMC,222034.000,A,3748.8002,N,12217.8606,W,0.42,219.92,220710,,,A*75
$GPRMC,222035.000,A,3748.8004,N,12217.8604,W,0.41,198.70,220710,,,A*75
$GPRMC,222036.000,A,3748.8004,N,12217.8603,W,0.30,160.73,220710,,,A*73
$GPRMC,222037.000,A,3748.8006,N,12217.8601,W,0.24,144.51,220710,,,A*71
$GPRMC,222038.000,A,3748.8012,N,12217.8598,W,0.38,28.44,220710,,,A*4A
$GPRMC,222039.000,A,3748.8017,N,12217.8595,W,0.30,56.99,220710,,,A*42
$GPRMC,222040.000,A,3748.8013,N,12217.8597,W,0.35,178.98,220710,,,A*73
$GPRMC,222041.000,A,3748.8013,N,12217.8597,W,0.25,160.49,220710,,,A*76
$GPRMC,222042.000,A,3748.8017,N,12217.8594,W,0.42,78.59,220710,,,A*4A
$GPRMC,222043.000,A,3748.8013,N,12217.8595,W,0.34,97.36,220710,,,A*47
$GPRMC,222044.000,A,3748.8012,N,12217.8597,W,0.25,215.42,220710,,,A*78
$GPRMC,222045.000,A,3748.8007,N,12217.8600,W,0.37,227.79,220710,,,A*7A
$GPRMC,222046.000,A,3748.8005,N,12217.8603,W,0.55,224.92,220710,,,A*7A
$GPRMC,222047.000,A,3748.8001,N,12217.8606,W,0.58,227.68,220710,,,A*71
$GPRMC,222048.000,A,3748.7998,N,12217.8607,W,0.27,157.90,220710,,,A*72
$GPRMC,222049.000,A,3748.7993,N,12217.8610,W,0.42,210.09,220710,,,A*7D
$GPRMC,222050.000,A,3748.7986,N,12217.8613,W,0.45,202.62,220710,,,A*7B
$GPRMC,222051.000,A,3748.7982,N,12217.8615,W,0.26,197.01,220710,,,A*77
$GPRMC,222052.000,A,3748.7980,N,12217.8616,W,0.20,175.79,220710,,,A*70
$GPRMC,222053.000,A,3748.7979,N,12217.8616,W,0.34,133.60,220710,,,A*78
$GPRMC,222054.000,A,3748.7979,N,12217.8615,W,0.49,177.87,220710,,,A*7F
$GPRMC,222055.000,A,3748.7980,N,12217.8620,W,0.51,234.66,220710,,,A*7C
$GPRMC,222056.000,A,3748.7980,N,12217.8628,W,1.21,209.64,220710,,,A*7D
$GPRMC,222057.000,A,3748.7972,N,12217.8633,W,2.01,214.83,220710,,,A*7F
$GPRMC,222058.000,A,3748.7967,N,12217.8640,W,2.74,210.01,220710,,,A*7C
$GPRMC,222059.000,A,3748.7959,N,12217.8651,W,3.10,218.54,220710,,,A*7B
$GPRMC,222100.000,A,3748.7953,N,12217.8661,W,2.67,217.13,220710,,,A*72
$GPRMC,222101.000,A,3748.7946,N,12217.8666,W,2.52,208.13,220710,,,A*78
$GPRMC,222102.000,A,3748.7938,N,12217.8671,W,2.74,204.83,220710,,,A*75
$GPRMC,222103.000,A,3748.7931,N,12217.8678,W,2.86,210.40,220710,,,A*73
$GPRMC,222104.000,A,3748.7923,N,12217.8684,W,2.32,209.64,220710,,,A*75
$GPRMC,222105.000,A,3748.7914,N,12217.8687,W,2.11,198.10,220710,,,A*7A
$GPRMC,222106.000,A,3748.7910,N,12217.8688,W,1.74,198.67,220710,,,A*72
$GPRMC,222107.000,A,3748.7900,N,12217.8692,W,1.80,187.06,220710,,,A*7B
$GPRMC,222108.000,A,3748.7894,N,12217.8699,W,1.57,185.67,220710,,,A*7C
$GPRMC,222109.000,A,3748.7891,N,12217.8700,W,1.50,170.51,220710,,,A*71
$GPRMC,222110.000,A,3748.7887,N,12217.8698,W,1.81,180.02,220710,,,A*7B
$GPRMC,222111.000,A,3748.7881,N,12217.8701,W,1.97,162.57,220710,,,A*76
$GPRMC,222112.000,A,3748.7877,N,12217.8700,W,1.14,170.89,220710,,,A*76
$GPRMC,222113.000,A,3748.7873,N,12217.8698,W,1.26,141.31,220710,,,A*73
$GPRMC,222114.000,A,3748.7869,N,12217.8698,W,0.90,147.77,220710,,,A*77
$GPRMC,222115.000,A,3748.7864,N,12217.8700,W,0.66,181.71,220710,,,A*7E
$GPRMC,222116.000,A,3748.7863,N,12217.8700,W,0.48,153.80,220710,,,A*77
$GPRMC,222117.000,A,3748.7867,N,12217.8696,W,0.71,54.00,220710,,,A*48
$GPRMC,222118.000,A,3748.7877,N,12217.8686,W,0.75,47.47,220710,,,A*42
$GPRMC,222119.000,A,3748.7882,N,12217.8678,W,0.84,51.73,220710,,,A*46
$GPRMC,222120.000,A,3748.7884,N,12217.8675,W,1.10,43.30,220710,,,A*4F
$GPRMC,222121.000,A,3748.7887,N,12217.8670,W,0.98,61.25,220710,,,A*4D
$GPRMC,222122.000,A,3748.7891,N,12217.8665,W,0.43,38.98,220710,,,A*41
$GPRMC,222123.000,A,3748.7896,N,12217.8665,W,0.29,7.39,220710,,,A*7C
$GPRMC,222124.000,A,3748.7896,N,12217.8667,W,0.39,207.23,220710,,,A*71
$GPRMC,222125.000,A,3748.7896,N,12217.8668,W,0.23,236.67,220710,,,A*76
$GPRMC,222126.000,A,3748.7899,N,12217.8666,W,0.16,86.69,220710,,,A*45
$GPRMC,222127.000,A,3748.7899,N,12217.8665,W,0.17,217.71,220710,,,A*75
$GPRMC,222128.000,A,3748.7897,N,12217.8667,W,0.09,231.22,220710,,,A*7B
$GPRMC,222129.000,A,3748.7895,N,12217.8668,W,0.06,194.79,220710,,,A*7A
$GPRMC,222130.000,A,3748.7894,N,12217.8668,W,0.20,36.16,220710,,,A*47
$GPRMC,222131.000,A,3748.7893,N,12217.8670,W,0.25,213.28,220710,,,A*75
$GPRMC,222132.000,A,3748.7892,N,12217.8671,W,0.40,243.45,220710,,,A*7B
$GPRMC,222133.000,A,3748.7892,N,12217.8672,W,0.17,235.68,220710,,,A*75
$GPRMC,222134.000,A,3748.7892,N,12217.8669,W,0.24,81.82,220710,,,A*41
$GPRMC,222135.000,A,3748.7893,N,12217.8664,W,0.07,109.08,220710,,,A*7E
$GPRMC,222136.000,A,3748.7894,N,12217.8664,W,0.07,150.77,220710,,,A*7E
$GPRMC,222137.000,A,3748.7893,N,12217.8660,W,0.18,105.66,220710,,,A*72
$GPRMC,222138.000,A,3748.7896,N,12217.8657,W,0.18,87.73,220710,,,A*43
$GPRMC,222139.000,A,3748.7898,N,12217.8656,W,0.24,17.40,220710,,,A*4B
$GPRMC,222140.000,A,3748.7900,N,12217.8656,W,0.44,8.43,220710,,,D*7B
$GPRMC,222141.000,A,3748.7905,N,12217.8652,W,0.61,33.13,220710,,,D*41
$GPRMC,222142.000,A,3748.7903,N,12217.8654,W,0.04,50.92,220710,,,D*4D
$GPRMC,222143.000,A,3748.7904,N,12217.8653,W,0.21,345.10,220710,,,D*76
$GPRMC,222144.000,A,3748.7905,N,12217.8653,W,0.16,6.99,220710,,,D*71
$GPRMC,222145.000,A,3748.7905,N,12217.8653,W,0.29,238.95,220710,,,D*7F
$GPRMC,222146.000,A,3748.7905,N,12217.8656,W,0.14,321.50,220710,,,D*77
$GPRMC,222147.000,A,3748.7901,N,12217.8658,W,0.58,245.92,220710,,,D*79
$GPRMC,222148.000,A,3748.7902,N,12217.8661,W,1.00,247.64,220710,,,D*78
$GPRMC,222149.000,A,3748.7902,N,12217.8659,W,0.79,241.81,220710,,,D*70
$GPRMC,222150.000,A,3748.7903,N,12217.8660,W,0.73,241.61,220710,,,D*77
$GPRMC,222151.000,A,3748.7905,N,12217.8660,W,0.46,233.87,220710,,,D*7B
$GPRMC,222152.000,A,3748.7908,N,12217.8656,W,0.31,14.93,220710,,,D*42
$GPRMC,222153.000,A,3748.7915,N,12217.8647,W,0.83,36.91,220710,,,D*44
$GPRMC,222154.000,A,3748.7921,N,12217.8639,W,1.17,36.93,220710,,,D*43
$GPRMC,222155.000,A,3748.7926,N,12217.8633,W,1.23,35.36,220710,,,D*44
$GPRMC,222156.000,A,3748.7929,N,12217.8630,W,1.27,36.74,220710,,,D*4A
$GPRMC,222157.000,A,3748.7931,N,12217.8628,W,1.04,34.31,220710,,,D*49
$GPRMC,222158.000,A,3748.7932,N,12217.8627,W,0.35,5.93,220710,,,D*73
$GPRMC,222159.000,A,3748.7932,N,12217.8628,W,0.57,265.85,220710,,,D*7A
$GPRMC,222200.000,A,3748.7931,N,12217.8629,W,0.51,232.78,220710,,,D*71
$GPRMC,222201.000,A,3748.7930,N,12217.8629,W,0.26,222.53,220710,,,D*79
$GPRMC,222202.000,A,3748.7929,N,12217.8628,W,0.21,233.72,220710,,,D*77
$GPRMC,222203.000,A,3748.7918,N,12217.8635,W,0.34,198.10,220710,,,D*7A
$GPRMC,222204.000,A,3748.7917,N,12217.8635,W,0.22,106.23,220710,,,D*72
$GPRMC,222205.000,A,3748.7917,N,12217.8633,W,0.24,74.76,220710,,,D*47
$GPRMC,222206.000,A,3748.7919,N,12217.8630,W,0.13,90.75,220710,,,D*44
$GPRMC,222207.000,A,3748.7912,N,12217.8633,W,0.04,107.68,220710,,,D*78
$GPRMC,222208.000,A,3748.7907,N,12217.8636,W,0.12,252.99,220710,,,D*7C
$GPRMC,222209.000,A,3748.7899,N,12217.8646,W,0.35,241.78,220710,,,D*74
$GPRMC,222210.000,A,3748.7891,N,12217.8656,W,0.61,237.62,220710,,,D*7E
$GPRMC,222211.000,A,3748.7885,N,12217.8664,W,0.38,215.34,220710,,,D*74
$GPRMC,222212.000,A,3748.7878,N,12217.8671,W,0.31,217.28,220710,,,D*77
$GPRMC,222213.000,A,3748.7874,N,12217.8676,W,0.60,225.37,220710,,,D*76
$GPRMC,222214.000,A,3748.7870,N,12217.8680,W,0.96,224.46,220710,,,D*72
$GPRMC,222215.000,A,3748.7869,N,12217.8684,W,0.53,201.86,220710,,,D*7D
$GPRMC,222216.000,A,3748.7868,N,12217.8685,W,0.19,135.30,220710,,,D*79
$GPRMC,222217.000,A,3748.7873,N,12217.8682,W,0.39,44.04,220710,,,D*47
$GPRMC,222218.000,A,3748.7873,N,12217.8682,W,0.24,63.83,220710,,,D*4E
$GPRMC,222219.000,A,3748.7874,N,12217.8681,W,0.26,130.68,220710,,,D*7B
$GPRMC,222220.000,A,3748.7874,N,12217.8681,W,0.41,193.66,220710,,,D*77
$GPRMC,222221.000,A,3748.7878,N,12217.8674,W,0.49,45.50,220710,,,D*47
$GPRMC,222222.000,A,3748.7877,N,12217.8674,W,0.61,64.95,220710,,,D*4B
$GPRMC,222223.000,A,3748.7875,N,12217.8673,W,0.33,110.55,220710,,,D*76
$GPRMC,222224.000,A,3748.7880,N,12217.8665,W,0.83,46.76,220710,,,D*44
$GPRMC,222225.000,A,3748.7882,N,12217.8659,W,0.76,62.27,220710,,,D*40
$GPRMC,222226.000,A,3748.7881,N,12217.8654,W,0.18,77.51,220710,,,D*40
$GPRMC,222227.000,A,3748.7885,N,12217.8658,W,0.23,252.57,220710,,,D*72
$GPRMC,222228.000,A,3748.7886,N,12217.8656,W,0.34,7.95,220710,,,D*7A
$GPRMC,222229.000,A,3748.7893,N,12217.8653,W,0.86,17.27,220710,,,D*4B
$GPRMC,222230.000,A,3748.7897,N,12217.8651,W,0.20,18.55,220710,,,D*43
$GPRMC,222231.000,A,3748.7903,N,12217.8648,W,0.54,40.56,220710,,,D*4B
$GPRMC,222232.000,A,3748.7907,N,12217.8645,W,0.68,38.68,220710,,,D*4C
$GPRMC,222233.000,A,3748.7910,N,12217.8643,W,0.31,359.63,220710,,,D*7E
$GPRMC,222234.000,A,3748.7910,N,12217.8648,W,0.39,6.75,220710,,,D*74
$GPRMC,222235.000,A,3748.7913,N,12217.8651,W,0.36,0.70,220710,,,D*72
$GPRMC,222236.000,A,3748.7910,N,12217.8653,W,0.35,21.68,220710,,,D*49
$GPRMC,222237.000,A,3748.7911,N,12217.8654,W,0.34,28.38,220710,,,D*43
$GPRMC,222238.000,A,3748.7915,N,12217.8657,W,0.46,5.69,220710,,,D*75
$GPRMC,222239.000,A,3748.7920,N,12217.8659,W,0.62,3.02,220710,,,D*71
$GPRMC,222240.000,A,3748.7926,N,12217.8661,W,0.88,13.92,220710,,,D*4E
$GPRMC,222241.000,A,3748.7927,N,12217.8661,W,0.50,31.10,220710,,,D*41
$GPRMC,222242.000,A,3748.7927,N,12217.8660,W,0.21,65.45,220710,,,D*44
$GPRMC,222243.000,A,3748.7927,N,12217.8660,W,0.17,93.29,220710,,,D*43
$GPRMC,222244.000,A,3748.7928,N,12217.8660,W,0.46,21.23,220710,,,D*4C
$GPRMC,222245.000,A,3748.7934,N,12217.8659,W,0.83,6.45,220710,,,D*76
$GPRMC,222246.000,A,3748.7935,N,12217.8659,W,0.45,15.75,220710,,,D*4F
$GPRMC,222247.000,A,3748.7934,N,12217.8659,W,0.11,26.15,220710,,,D*48
$GPRMC,222248.000,A,3748.7934,N,12217.8659,W,0.34,23.68,220710,,,D*4F
$GPRMC,222249.000,A,3748.7933,N,12217.8659,W,0.12,28.36,220710,,,D*4D
$GPRMC,222250.000,A,3748.7932,N,12217.8659,W,0.14,63.59,220710,,,D*44
$GPRMC,222251.000,A,3748.7930,N,12217.8658,W,0.13,152.59,220710,,,D*72
$GPRMC,222252.000,A,3748.7929,N,12217.8658,W,0.04,78.48,220710,,,D*46
$GPRMC,222253.000,A,3748.7930,N,12217.8658,W,0.29,31.54,220710,,,D*40
$GPRMC,222254.000,A,3748.7931,N,12217.8658,W,0.26,356.43,220710,,,D*7D
$GPRMC,222255.000,A,3748.7928,N,12217.8658,W,0.23,150.76,220710,,,D*73
$GPRMC,222256.000,A,3748.7924,N,12217.8659,W,0.24,175.77,220710,,,D*7C
$GPRMC,222257.000,A,3748.7918,N,12217.8661,W,0.52,182.26,220710,,,D*74
$GPRMC,222258.000,A,3748.7912,N,12217.8663,W,0.15,222.50,220710,,,D*78
$GPRMC,222259.000,A,3748.7909,N,12217.8664,W,0.26,194.99,220710,,,D*7F
$GPRMC,222300.000,A,3748.7913,N,12217.8664,W,0.25,358.48,220710,,,D*74
$GPRMC,222301.000,A,3748.7917,N,12217.8663,W,0.05,89.06,220710,,,D*41
$GPRMC,222302.000,A,3748.7919,N,12217.8663,W,0.09,9.17,220710,,,D*78
$GPRMC,222303.000,A,3748.7922,N,12217.8662,W,0.10,43.58,220710,,,D*4D
$GPRMC,222304.000,A,3748.7924,N,12217.8662,W,0.11,73.33,220710,,,D*43
$GPRMC,222305.000,A,3748.7925,N,12217.8661,W,0.09,46.83,220710,,,D*44
$GPRMC,222306.000,A,3748.7928,N,12217.8661,W,0.08,31.14,220710,,,D*45
$GPRMC,222307.000,A,3748.7929,N,12217.8660,W,0.11,342.40,220710,,,D*7A
$GPRMC,222308.000,A,3748.7930,N,12217.8661,W,0.01,135.47,220710,,,D*78
$GPRMC,222309.000,A,3748.7930,N,12217.8661,W,0.03,40.94,220710,,,D*46
$GPRMC,222310.000,A,3748.7930,N,12217.8661,W,0.01,116.47,220710,,,D*70
$GPRMC,222311.000,A,3748.7930,N,12217.8660,W,0.02,178.38,220710,,,D*73
$GPRMC,222312.000,A,3748.7931,N,12217.8660,W,0.02,106.27,220710,,,D*76
$GPRMC,222313.000,A,3748.7932,N,12217.8660,W,0.17,79.26,220710,,,D*48
$GPRMC,222314.000,A,3748.7927,N,12217.8659,W,0.87,123.67,220710,,,D*73
$GPRMC,222315.000,A,3748.7923,N,12217.8655,W,1.26,132.71,220710,,,D*77
$GPRMC,222316.000,A,3748.7918,N,12217.8651,W,1.39,113.21,220710,,,D*70
$GPRMC,222317.000,A,3748.7915,N,12217.8647,W,1.03,117.25,220710,,,D*72
$GPRMC,222318.000,A,3748.7913,N,12217.8646,W,0.36,80.19,220710,,,D*4D
$GPRMC,222319.000,A,3748.7912,N,12217.8644,W,0.43,266.07,220710,,,D*78
$GPRMC,222320.000,A,3748.7914,N,12217.8646,W,0.58,322.88,220710,,,D*7A
$GPRMC,222321.000,A,3748.7913,N,12217.8650,W,0.83,262.97,220710,,,D*76
$GPRMC,222322.000,A,3748.7914,N,12217.8652,W,1.03,270.08,220710,,,D*7C
$GPRMC,222323.000,A,3748.7915,N,12217.8654,W,0.67,292.65,220710,,,D*7E
$GPRMC,222324.000,A,3748.7915,N,12217.8654,W,0.10,11.51,220710,,,D*47
$GPRMC,222325.000,A,3748.7918,N,12217.8653,W,0.23,216.86,220710,,,D*73
$GPRMC,222326.000,A,3748.7912,N,12217.8657,W,0.58,204.50,220710,,,D*7A
$GPRMC,222327.000,A,3748.7912,N,12217.8656,W,0.14,345.03,220710,,,D*70
$GPRMC,222328.000,A,3748.7914,N,12217.8654,W,0.13,351.87,220710,,,D*75
$GPRMC,222329.000,A,3748.7915,N,12217.8655,W,0.21,19.41,220710,,,A*45
$GPRMC,222330.000,A,3748.7914,N,12217.8655,W,0.10,270.95,220710,,,A*7A
$GPRMC,222331.000,A,3748.7914,N,12217.8654,W,0.11,52.57,220710,,,A*47
$GPRMC,222332.000,A,3748.7913,N,12217.8654,W,0.14,4.90,220710,,,A*7E
$GPRMC,222333.000,A,3748.7912,N,12217.8654,W,0.14,31.14,220710,,,A*44
$GPRMC,222334.000,A,3748.7911,N,12217.8653,W,0.21,3.77,220710,,,A*75
$GPRMC,222335.000,A,3748.7912,N,12217.8654,W,0.33,359.49,220710,,,A*72
$GPRMC,222336.000,A,3748.7911,N,12217.8654,W,0.09,317.74,220710,,,A*7F
$GPRMC,222337.000,A,3748.7910,N,12217.8654,W,0.07,91.27,220710,,,A*4A
$GPRMC,222338.000,A,3748.7910,N,12217.8654,W,0.16,355.99,220710,,,A*7B
$GPRMC,222339.000,A,3748.7909,N,12217.8654,W,0.09,311.17,220710,,,A*7A
$GPRMC,222340.000,A,3748.7908,N,12217.8655,W,0.19,201.04,220710,,,A*77
$GPRMC,222341.000,A,3748.7907,N,12217.8655,W,0.27,214.24,220710,,,A*72
$GPRMC,222342.000,A,3748.7903,N,12217.8659,W,0.16,224.18,220710,,,A*77
$GPRMC,222343.000,A,3748.7902,N,12217.8659,W,0.37,194.63,220710,,,A*70
$GPRMC,222344.000,A,3748.7901,N,12217.8659,W,0.11,201.42,220710,,,A*7C
$GPRMC,222345.000,A,3748.7899,N,12217.8661,W,0.26,208.29,220710,,,A*76
$GPRMC,222346.000,A,3748.7901,N,12217.8660,W,0.07,261.88,220710,,,A*73
$GPRMC,222347.000,A,3748.7899,N,12217.8661,W,0.25,209.09,220710,,,A*74
$GPRMC,222348.000,A,3748.7896,N,12217.8664,W,0.16,206.81,220710,,,A*7E
$GPRMC,222349.000,A,3748.7897,N,12217.8663,W,0.13,162.07,220710,,,A*73
$GPRMC,222350.000,A,3748.7901,N,12217.8660,W,0.13,85.60,220710,,,A*4F
$GPRMC,222351.000,A,3748.7902,N,12217.8660,W,0.22,40.63,220710,,,A*45
$GPRMC,222352.000,A,3748.7903,N,12217.8659,W,0.15,45.26,220710,,,A*4D
$GPRMC,222353.000,A,3748.7902,N,12217.8659,W,0.03,190.11,220710,,,A*77
$GPRMC,222354.000,A,3748.7907,N,12217.8656,W,0.14,42.79,220710,,,A*4C
$GPRMC,222355.000,A,3748.7907,N,12217.8656,W,0.30,49.80,220710,,,A*46
$GPRMC,222356.000,A,3748.7903,N,12217.8659,W,0.12,216.68,220710,,,A*70
$GPRMC,222357.000,A,3748.7902,N,12217.8660,W,0.20,223.07,220710,,,A*74
$GPRMC,222358.000,A,3748.7899,N,12217.8662,W,0.06,192.62,220710,,,A*74
$GPRMC,222359.000,A,3748.7895,N,12217.8665,W,0.31,158.85,220710,,,A*75
$GPRMC,222400.000,A,3748.7896,N,12217.8666,W,0.18,204.75,220710,,,A*70
$GPRMC,222401.000,A,3748.7897,N,12217.8665,W,0.03,216.01,220710,,,A*79
$GPRMC,222402.000,A,3748.7899,N,12217.8666,W,0.37,344.10,220710,,,A*76
$GPRMC,222403.000,A,3748.7902,N,12217.8664,W,0.13,354.60,220710,,,A*76
$GPRMC,222404.000,A,3748.7901,N,12217.8664,W,0.08,43.80,220710,,,A*43
$GPRMC,222405.000,A,3748.7905,N,12217.8663,W,0.07,42.41,220710,,,A*42
$GPRMC,222406.000,A,3748.7905,N,12217.8663,W,0.19,12.32,220710,,,A*4F
$GPRMC,222407.000,A,3748.7906,N,12217.8662,W,0.29,3.42,220710,,,A*78
$GPRMC,222408.000,A,3748.7908,N,12217.8662,W,0.18,31.60,220710,,,A*4A
$GPRMC,222409.000,A,3748.7908,N,12217.8661,W,0.09,223.16,220710,,,A*78
$GPRMC,222410.000,A,3748.7905,N,12217.8663,W,0.18,161.64,220710,,,A*7F
$GPRMC,222411.000,A,3748.7905,N,12217.8662,W,0.10,75.88,220710,,,A*41
$GPRMC,222412.000,A,3748.7903,N,12217.8661,W,0.16,216.96,220710,,,A*79
$GPRMC,222413.000,A,3748.7901,N,12217.8661,W,0.30,175.22,220710,,,A*77
$GPRMC,222414.000,A,3748.7899,N,12217.8659,W,0.15,66.48,220710,,,A*43
$GPRMC,222415.000,A,3748.7897,N,12217.8658,W,0.13,68.41,220710,,,A*4C
$GPRMC,222416.000,A,3748.7896,N,12217.8661,W,0.17,196.64,220710,,,A*77
$GPRMC,222417.000,A,3748.7897,N,12217.8660,W,0.22,4.45,220710,,,A*79
$GPRMC,222418.000,A,3748.7901,N,12217.8659,W,0.33,349.37,220710,,,A*7D
$GPRMC,222419.000,A,3748.7902,N,12217.8659,W,0.59,5.53,220710,,,A*7A
$GPRMC,222420.000,A,3748.7902,N,12217.8660,W,0.11,284.62,220710,,,A*7F
$GPRMC,222421.000,A,3748.7902,N,12217.8660,W,0.22,179.94,220710,,,A*76
$GPRMC,222422.000,A,3748.7901,N,12217.8658,W,0.30,149.21,220710,,,A*73
$GPRMC,222423.000,A,3748.7903,N,12217.8655,W,0.13,35.60,220710,,,A*43
$GPRMC,222424.000,A,3748.7904,N,12217.8654,W,0.07,87.44,220710,,,A*48
$GPRMC,222425.000,A,3748.7902,N,12217.8654,W,0.12,172.72,220710,,,A*75
$GPRMC,222426.000,A,3748.7900,N,12217.8654,W,0.26,193.20,220710,,,A*7B
$GPRMC,222427.000,A,3748.7899,N,12217.8654,W,0.08,233.19,220710,,,A*74
$GPRMC,222428.000,A,3748.7898,N,12217.8654,W,0.13,208.35,220710,,,A*76
$GPRMC,222429.000,A,3748.7898,N,12217.8654,W,0.03,267.49,220710,,,A*74
$GPRMC,222430.000,A,3748.7898,N,12217.8654,W,0.19,190.60,220710,,,A*77
$GPRMC,222431.000,A,3748.7897,N,12217.8654,W,0.27,205.40,220710,,,A*79
$GPRMC,222432.000,A,3748.7896,N,12217.8654,W,0.03,49.92,220710,,,A*48
$GPRMC,222433.000,A,3748.7896,N,12217.8654,W,0.20,185.76,220710,,,A*73
$GPRMC,222434.000,A,3748.7895,N,12217.8653,W,0.17,178.59,220710,,,A*7B
$GPRMC,222435.000,A,3748.7895,N,12217.8653,W,0.18,53.29,220710,,,A*4A
$GPRMC,222436.000,A,3748.7896,N,12217.8652,W,0.25,44.50,220710,,,A*4D
$GPRMC,222437.000,A,3748.7897,N,12217.8650,W,0.33,41.64,220710,,,A*4A
$GPRMC,222438.000,A,3748.7897,N,12217.8649,W,0.19,56.96,220710,,,A*4E
$GPRMC,222439.000,A,3748.7897,N,12217.8649,W,0.09,122.99,220710,,,A*73
$GPRMC,222440.000,A,3748.7896,N,12217.8649,W,0.10,183.07,220710,,,A*78
$GPRMC,222441.000,A,3748.7895,N,12217.8649,W,0.08,198.99,220710,,,A*7E
$GPRMC,222442.000,A,3748.7894,N,12217.8649,W,0.04,273.40,220710,,,A*72
$GPRMC,222443.000,A,3748.7894,N,12217.8649,W,0.06,151.55,220710,,,A*76
$GPRMC,222444.000,A,3748.7893,N,12217.8649,W,0.09,225.04,220710,,,A*7D
$GPRMC,222445.000,A,3748.7892,N,12217.8649,W,0.23,185.36,220710,,,A*7D
$GPRMC,222446.000,A,3748.7889,N,12217.8652,W,0.10,161.02,220710,,,A*73
$GPRMC,222447.000,A,3748.7883,N,12217.8655,W,0.27,176.64,220710,,,A*7D
$GPRMC,222448.000,A,3748.7879,N,12217.8657,W,0.40,185.44,220710,,,A*7A
$GPRMC,222449.000,A,3748.7884,N,12217.8655,W,0.30,66.44,220710,,,A*40
$GPRMC,222450.000,A,3748.7888,N,12217.8652,W,0.24,130.57,220710,,,A*76
$GPRMC,222451.000,A,3748.7885,N,12217.8653,W,0.50,144.25,220710,,,A*7E
$GPRMC,222452.000,A,3748.7883,N,12217.8650,W,0.34,83.55,220710,,,A*47
$GPRMC,222453.000,A,3748.7885,N,12217.8650,W,0.01,94.08,220710,,,A*48
$GPRMC,222454.000,A,3748.7886,N,12217.8654,W,0.04,175.08,220710,,,A*73
$GPRMC,222455.000,A,3748.7887,N,12217.8654,W,0.25,20.81,220710,,,A*40
$GPRMC,222456.000,A,3748.7892,N,12217.8651,W,0.73,22.97,220710,,,A*44
$GPRMC,222457.000,A,3748.7895,N,12217.8651,W,0.89,353.32,220710,,,A*7D
$GPRMC,222458.000,A,3748.7897,N,12217.8652,W,0.47,1.28,220710,,,A*7E
$GPRMC,222459.000,A,3748.7894,N,12217.8654,W,0.20,311.00,220710,,,A*73
$GPRMC,222500.000,A,3748.7896,N,12217.8653,W,0.33,113.42,220710,,,A*7F
$GPRMC,222501.000,A,3748.7895,N,12217.8650,W,0.13,9.65,220710,,,A*73
$GPRMC,222502.000,A,3748.7898,N,12217.8647,W,0.33,21.87,220710,,,A*4F
$GPRMC,222503.000,A,3748.7896,N,12217.8647,W,0.30,57.32,220710,,,A*4C
$GPRMC,222504.000,A,3748.7891,N,12217.8646,W,0.49,127.78,220710,,,A*7B
$GPRMC,222505.000,A,3748.7890,N,12217.8647,W,0.02,245.80,220710,,,A*75
$GPRMC,222506.000,A,3748.7885,N,12217.8651,W,0.16,232.95,220710,,,A*74
$GPRMC,222507.000,A,3748.7881,N,12217.8654,W,0.57,199.95,220710,,,A*73
$GPRMC,222508.000,A,3748.7878,N,12217.8655,W,0.56,194.87,220710,,,A*74
$GPRMC,222509.000,A,3748.7876,N,12217.8656,W,0.18,186.94,220710,,,A*73
$GPRMC,222510.000,A,3748.7875,N,12217.8658,W,0.18,206.33,220710,,,A*70
$GPRMC,222511.000,A,3748.7874,N,12217.8659,W,0.23,188.85,220710,,,A*71
$GPRMC,222512.000,A,3748.7874,N,12217.8660,W,0.21,186.09,220710,,,A*70
$GPRMC,222513.000,A,3748.7873,N,12217.8661,W,0.12,174.15,220710,,,A*77
$GPRMC,222514.000,A,3748.7873,N,12217.8662,W,0.15,171.98,220710,,,A*74
$GPRMC,222515.000,A,3748.7873,N,12217.8663,W,0.07,31.63,220710,,,A*46
$GPRMC,222516.000,A,3748.7869,N,12217.8668,W,0.09,112.43,220710,,,A*79
$GPRMC,222517.000,A,3748.7865,N,12217.8672,W,0.38,188.03,220710,,,A*7A
$GPRMC,222518.000,A,3748.7873,N,12217.8671,W,0.12,342.89,220710,,,A*7F
$GPRMC,222519.000,A,3748.7874,N,12217.8672,W,0.08,293.38,220710,,,A*76
$GPRMC,222520.000,A,3748.7873,N,12217.8672,W,0.08,298.97,220710,,,A*75
$GPRMC,222521.000,A,3748.7874,N,12217.8672,W,0.18,357.92,220710,,,A*75
$GPRMC,222522.000,A,3748.7871,N,12217.8676,W,0.17,191.83,220710,,,A*70
$GPRMC,222523.000,A,3748.7873,N,12217.8677,W,0.33,236.39,220710,,,A*7B
$GPRMC,222524.000,A,3748.7870,N,12217.8680,W,0.24,206.19,220710,,,A*70
$GPRMC,222525.000,A,3748.7869,N,12217.8681,W,0.28,137.47,220710,,,A*7E
$GPRMC,222526.000,A,3748.7869,N,12217.8681,W,0.40,68.32,220710,,,A*4A
$GPRMC,222527.000,A,3748.7870,N,12217.8681,W,0.35,357.23,220710,,,A*7E
$GPRMC,222528.000,A,3748.7868,N,12217.8680,W,0.08,23.61,220710,,,A*41
$GPRMC,222529.000,A,3748.7869,N,12217.8679,W,0.07,109.14,220710,,,A*73
$GPRMC,222530.000,A,3748.7868,N,12217.8679,W,0.41,164.76,220710,,,A*77
$GPRMC,222531.000,A,3748.7868,N,12217.8678,W,0.31,191.41,220710,,,A*7E
$GPRMC,222532.000,A,3748.7868,N,12217.8677,W,0.04,30.08,220710,,,A*43
$GPRMC,222533.000,A,3748.7871,N,12217.8676,W,0.30,214.97,220710,,,A*7E
$GPRMC,222534.000,A,3748.7869,N,12217.8676,W,0.21,163.77,220710,,,A*7D
$GPRMC,222535.000,A,3748.7871,N,12217.8675,W,0.30,193.77,220710,,,A*79
$GPRMC,222536.000,A,3748.7872,N,12217.8674,W,0.17,181.04,220710,,,A*7A
$GPRMC,222537.000,A,3748.7870,N,12217.8676,W,0.22,165.21,220710,,,A*70
$GPRMC,222538.000,A,3748.7869,N,12217.8680,W,0.23,233.57,220710,,,A*7E
$GPRMC,222539.000,A,3748.7868,N,12217.8684,W,0.06,94.28,220710,,,A*4A
$GPRMC,222540.000,A,3748.7867,N,12217.8685,W,0.14,196.76,220710,,,A*71
$GPRMC,222541.000,A,3748.7866,N,12217.8686,W,0.18,37.25,220710,,,A*42
$GPRMC,222542.000,A,3748.7870,N,12217.8684,W,0.28,69.60,220710,,,A*4D
$GPRMC,222543.000,A,3748.7872,N,12217.8684,W,0.23,156.22,220710,,,A*7E
$GPRMC,222544.000,A,3748.7873,N,12217.8684,W,0.21,171.87,220710,,,A*70
$GPRMC,222545.000,A,3748.7875,N,12217.8683,W,0.23,41.12,220710,,,A*4C
$GPRMC,222546.000,A,3748.7877,N,12217.8683,W,0.39,27.42,220710,,,A*43
$GPRMC,222547.000,A,3748.7879,N,12217.8683,W,0.21,284.08,220710,,,A*70
$GPRMC,222548.000,A,3748.7881,N,12217.8683,W,0.36,249.54,220710,,,A*76
$GPRMC,222549.000,A,3748.7883,N,12217.8683,W,0.03,347.71,220710,,,A*7B
$GPRMC,222550.000,A,3748.7883,N,12217.8681,W,0.20,62.71,220710,,,A*44
$GPRMC,222551.000,A,3748.7884,N,12217.8679,W,0.23,55.68,220710,,,A*4A
$GPRMC,222552.000,A,3748.7885,N,12217.8677,W,0.26,35.24,220710,,,A*4D
$GPRMC,222553.000,A,3748.7885,N,12217.8676,W,0.06,38.29,220710,,,A*4F
$GPRMC,222554.000,A,3748.7885,N,12217.8676,W,0.11,175.29,220710,,,A*76
$GPRMC,222555.000,A,3748.7884,N,12217.8677,W,0.16,224.19,220710,,,A*74
$GPRMC,222556.000,A,3748.7883,N,12217.8680,W,0.19,277.56,220710,,,A*7A
$GPRMC,222557.000,A,3748.7882,N,12217.8681,W,0.21,275.20,220710,,,A*73
$GPRMC,222558.000,A,3748.7881,N,12217.8682,W,0.14,197.19,220710,,,A*7F
$GPRMC,222559.000,A,3748.7881,N,12217.8681,W,0.10,215.72,220710,,,A*7D
$GPRMC,222600.000,A,3748.7881,N,12217.8681,W,0.20,46.72,220710,,,A*45
$GPRMC,222601.000,A,3748.7883,N,12217.8680,W,0.25,44.39,220710,,,A*4F
$GPRMC,222602.000,A,3748.7884,N,12217.8680,W,0.14,16.33,220710,,,A*44
$GPRMC,222603.000,A,3748.7882,N,12217.8682,W,0.14,233.51,220710,,,A*70
$GPRMC,222604.000,A,3748.7883,N,12217.8681,W,0.13,80.99,220710,,,A*4C
$GPRMC,222605.000,A,3748.7885,N,12217.8679,W,0.07,64.56,220710,,,A*40
$GPRMC,222606.000,A,3748.7885,N,12217.8679,W,0.04,259.04,220710,,,A*7B
$GPRMC,222607.000,A,3748.7885,N,12217.8679,W,0.15,37.07,220710,,,A*43
$GPRMC,222608.000,A,3748.7886,N,12217.8679,W,0.10,55.91,220710,,,A*41
$GPRMC,222609.000,A,3748.7885,N,12217.8677,W,0.29,43.59,220710,,,A*44
$GPRMC,222610.000,A,3748.7888,N,12217.8677,W,0.40,26.93,220710,,,A*4B
$GPRMC,222611.000,A,3748.7892,N,12217.8677,W,0.19,28.95,220710,,,A*45
$GPRMC,222612.000,A,3748.7888,N,12217.8679,W,0.04,244.01,220710,,,A*7A
$GPRMC,222613.000,A,3748.7890,N,12217.8676,W,0.09,0.42,220710,,,A*75
$GPRMC,222614.000,A,3748.7892,N,12217.8674,W,0.36,7.45,220710,,,A*7E
$GPRMC,222615.000,A,3748.7888,N,12217.8676,W,0.13,172.49,220710,,,A*7E
$GPRMC,222616.000,A,3748.7886,N,12217.8679,W,0.26,165.32,220710,,,A*70
$GPRMC,222617.000,A,3748.7885,N,12217.8680,W,0.35,205.25,220710,,,A*75
$GPRMC,222618.000,A,3748.7886,N,12217.8683,W,0.26,249.97,220710,,,A*79
$GPRMC,222619.000,A,3748.7885,N,12217.8685,W,0.15,314.52,220710,,,A*7D
$GPRMC,222620.000,A,3748.7886,N,12217.8686,W,0.10,358.58,220710,,,A*70
$GPRMC,222621.000,A,3748.7886,N,12217.8687,W,0.28,32.38,220710,,,A*42
$GPRMC,222622.000,A,3748.7886,N,12217.8687,W,0.19,44.63,220710,,,A*4C
$GPRMC,222623.000,A,3748.7886,N,12217.8685,W,0.10,63.68,220710,,,A*48
$GPRMC,222624.000,A,3748.7888,N,12217.8682,W,0.16,183.57,220710,,,A*73
$GPRMC,222625.000,A,3748.7887,N,12217.8680,W,0.19,122.74,220710,,,A*7A
$GPRMC,222626.000,A,3748.7886,N,12217.8679,W,0.23,148.67,220710,,,A*79
$GPRMC,222627.000,A,3748.7884,N,12217.8678,W,0.39,160.34,220710,,,A*7C
$GPRMC,222628.000,A,3748.7883,N,12217.8676,W,0.25,159.25,220710,,,A*7D
$GPRMC,222629.000,A,3748.7880,N,12217.8677,W,0.43,154.99,220710,,,A*74
$GPRMC,222630.000,A,3748.7882,N,12217.8677,W,0.07,193.15,220710,,,A*71
$GPRMC,222631.000,A,3748.7880,N,12217.8678,W,0.20,178.81,220710,,,A*70
$GPRMC,222632.000,A,3748.7878,N,12217.8681,W,0.30,215.18,220710,,,A*7B
$GPRMC,222633.000,A,3748.7877,N,12217.8682,W,0.12,274.85,220710,,,A*75
$GPRMC,222634.000,A,3748.7875,N,12217.8684,W,0.40,216.96,220710,,,A*77
$GPRMC,222635.000,A,3748.7873,N,12217.8685,W,0.49,212.02,220710,,,A*71
$GPRMC,222636.000,A,3748.7874,N,12217.8687,W,0.36,219.54,220710,,,A*77
$GPRMC,222637.000,A,3748.7874,N,12217.8689,W,0.24,237.33,220710,,,A*76
$GPRMC,222638.000,A,3748.7869,N,12217.8691,W,0.43,206.15,220710,,,A*7B
$GPRMC,222639.000,A,3748.7865,N,12217.8693,W,0.49,200.67,220710,,,A*7D
$GPRMC,222640.000,A,3748.7865,N,12217.8693,W,0.09,313.67,220710,,,A*74
$GPRMC,222641.000,A,3748.7865,N,12217.8691,W,0.31,74.44,220710,,,A*4F
$GPRMC,222642.000,A,3748.7865,N,12217.8690,W,0.10,294.48,220710,,,A*7E
$GPRMC,222643.000,A,3748.7867,N,12217.8690,W,0.10,77.10,220710,,,A*4F
$GPRMC,222644.000,A,3748.7869,N,12217.8690,W,0.11,45.10,220710,,,A*46
$GPRMC,222645.000,A,3748.7868,N,12217.8690,W,0.10,338.16,220710,,,A*78
$GPRMC,222646.000,A,3748.7869,N,12217.8689,W,0.17,29.81,220710,,,A*48
$GPRMC,222647.000,A,3748.7864,N,12217.8691,W,0.40,26.23,220710,,,A*48
$GPRMC,222648.000,A,3748.7865,N,12217.8692,W,0.40,352.67,220710,,,A*75
$GPRMC,222649.000,A,3748.7869,N,12217.8688,W,0.45,354.94,220710,,,A*7C
$GPRMC,222650.000,A,3748.7870,N,12217.8690,W,0.12,126.74,220710,,,A*7E
$GPRMC,222651.000,A,3748.7868,N,12217.8692,W,0.17,264.97,220710,,,A*79
$GPRMC,222652.000,A,3748.7869,N,12217.8692,W,0.28,244.25,220710,,,A*7C
$GPRMC,222653.000,A,3748.7871,N,12217.8692,W,0.42,234.07,220710,,,A*7F
$GPRMC,222654.000,A,3748.7872,N,12217.8692,W,0.09,304.00,220710,,,A*71
$GPRMC,222655.000,A,3748.7867,N,12217.8693,W,0.11,60.49,220710,,,A*40
$GPRMC,222656.000,A,3748.7863,N,12217.8694,W,0.28,221.00,220710,,,A*70
$GPRMC,222657.000,A,3748.7860,N,12217.8696,W,0.08,80.68,220710,,,A*45
$GPRMC,222658.000,A,3748.7861,N,12217.8695,W,0.04,307.16,220710,,,A*71
$GPRMC,222659.000,A,3748.7863,N,12217.8695,W,0.08,329.97,220710,,,A*7B
$GPRMC,222700.000,A,3748.7864,N,12217.8695,W,0.12,355.80,220710,,,A*77
$GPRMC,222701.000,A,3748.7866,N,12217.8693,W,0.33,32.55,220710,,,A*4B
$GPRMC,222702.000,A,3748.7864,N,12217.8696,W,0.37,48.24,220710,,,A*40
$GPRMC,222703.000,A,3748.7861,N,12217.8698,W,0.24,121.18,220710,,,A*79
$GPRMC,222704.000,A,3748.7859,N,12217.8701,W,0.27,203.20,220710,,,A*7F
$GPRMC,222705.000,A,3748.7858,N,12217.8702,W,0.06,128.36,220710,,,A*72
$GPRMC,222706.000,A,3748.7856,N,12217.8704,W,0.05,189.93,220710,,,A*7E
$GPRMC,222707.000,A,3748.7855,N,12217.8706,W,0.15,316.20,220710,,,A*73
$GPRMC,222708.000,A,3748.7855,N,12217.8708,W,0.08,334.82,220710,,,A*76
$GPRMC,222709.000,A,3748.7855,N,12217.8709,W,0.32,223.04,220710,,,A*76
$GPRMC,222710.000,A,3748.7854,N,12217.8710,W,0.33,167.59,220710,,,A*7D
$GPRMC,222711.000,A,3748.7854,N,12217.8710,W,0.14,151.87,220710,,,A*7F
$GPRMC,222712.000,A,3748.7854,N,12217.8710,W,0.11,116.69,220710,,,A*7A
$GPRMC,222713.000,A,3748.7854,N,12217.8711,W,0.11,42.45,220710,,,A*44
$GPRMC,222714.000,A,3748.7854,N,12217.8711,W,0.13,107.79,220710,,,A*7E
$GPRMC,222715.000,A,3748.7854,N,12217.8711,W,0.42,1.91,220710,,,A*7A
$GPRMC,222716.000,A,3748.7854,N,12217.8712,W,0.12,169.54,220710,,,A*79
$GPRMC,222717.000,A,3748.7852,N,12217.8713,W,0.07,78.65,220710,,,A*48
$GPRMC,222718.000,A,3748.7851,N,12217.8714,W,0.12,6.29,220710,,,A*76
$GPRMC,222719.000,A,3748.7850,N,12217.8716,W,0.23,30.82,220710,,,A*42
$GPRMC,222720.000,A,3748.7848,N,12217.8715,W,0.19,33.39,220710,,,A*48
$GPRMC,222721.000,A,3748.7845,N,12217.8715,W,0.09,128.93,220710,,,A*7E
$GPRMC,222722.000,A,3748.7843,N,12217.8714,W,0.29,70.36,220710,,,A*4B
$GPRMC,222723.000,A,3748.7841,N,12217.8715,W,0.23,22.04,220710,,,A*45
$GPRMC,222724.000,A,3748.7836,N,12217.8717,W,0.12,105.97,220710,,,D*79
$GPRMC,222725.000,A,3748.7834,N,12217.8718,W,0.24,209.27,220710,,,D*74
$GPRMC,222726.000,A,3748.7831,N,12217.8720,W,0.07,216.27,220710,,,D*76
$GPRMC,222727.000,A,3748.7830,N,12217.8721,W,0.05,108.11,220710,,,D*7C
$GPRMC,222728.000,A,3748.7829,N,12217.8722,W,0.04,351.11,220710,,,D*77
$GPRMC,222729.000,A,3748.7829,N,12217.8722,W,0.05,30.83,220710,,,D*48
$GPRMC,222730.000,A,3748.7828,N,12217.8722,W,0.18,48.16,220710,,,D*4E
$GPRMC,222731.000,A,3748.7828,N,12217.8722,W,0.08,17.51,220710,,,D*47
$GPRMC,222732.000,A,3748.7828,N,12217.8723,W,0.11,53.02,220710,,,D*4B
$GPRMC,222733.000,A,3748.7827,N,12217.8723,W,0.13,182.82,220710,,,D*72
$GPRMC,222734.000,A,3748.7827,N,12217.8723,W,0.11,39.44,220710,,,D*4C
$GPRMC,222735.000,A,3748.7827,N,12217.8722,W,0.10,178.85,220710,,,D*74
$GPRMC,222736.000,A,3748.7828,N,12217.8721,W,0.13,115.23,220710,,,D*7F
$GPRMC,222737.000,A,3748.7828,N,12217.8719,W,0.29,115.48,220710,,,D*71
$GPRMC,222738.000,A,3748.7832,N,12217.8715,W,0.48,29.45,220710,,,D*4D
$GPRMC,222739.000,A,3748.7837,N,12217.8712,W,0.31,8.61,220710,,,D*75
$GPRMC,222740.000,A,3748.7839,N,12217.8710,W,0.22,20.43,220710,,,D*4F
$GPRMC,222741.000,A,3748.7840,N,12217.8709,W,0.08,246.30,220710,,,D*76
$GPRMC,222742.000,A,3748.7841,N,12217.8707,W,0.11,342.56,220710,,,D*77
$GPRMC,222743.000,A,3748.7845,N,12217.8706,W,0.07,45.19,220710,,,D*4B
$GPRMC,222744.000,A,3748.7846,N,12217.8704,W,0.21,21.65,220710,,,D*40
$GPRMC,222745.000,A,3748.7846,N,12217.8703,W,0.08,72.23,220710,,,D*49
$GPRMC,222746.000,A,3748.7846,N,12217.8702,W,0.09,113.60,220710,,,D*7B
$GPRMC,222747.000,A,3748.7846,N,12217.8701,W,0.11,145.92,220710,,,D*7E
$GPRMC,222748.000,A,3748.7846,N,12217.8700,W,0.13,189.99,220710,,,D*79
$GPRMC,222749.000,A,3748.7846,N,12217.8699,W,0.07,129.42,220710,,,D*70
$GPRMC,222750.000,A,3748.7846,N,12217.8698,W,0.15,161.29,220710,,,D*7B
$GPRMC,222751.000,A,3748.7845,N,12217.8697,W,0.13,155.48,220710,,,D*70
$GPRMC,222752.000,A,3748.7845,N,12217.8696,W,0.13,24.01,220710,,,D*48
$GPRMC,222753.000,A,3748.7845,N,12217.8695,W,0.18,184.06,220710,,,D*7D
$GPRMC,222754.000,A,3748.7842,N,12217.8695,W,0.24,186.79,220710,,,D*78
$GPRMC,222755.000,A,3748.7842,N,12217.8695,W,0.35,167.01,220710,,,D*79
$GPRMC,222756.000,A,3748.7841,N,12217.8694,W,0.28,190.93,220710,,,D*77
$GPRMC,222757.000,A,3748.7841,N,12217.8694,W,0.32,173.27,220710,,,D*7F
$GPRMC,222758.000,A,3748.7843,N,12217.8693,W,0.09,44.61,220710,,,D*4A
$GPRMC,222759.000,A,3748.7845,N,12217.8691,W,0.44,8.92,220710,,,D*72
$GPRMC,222800.000,A,3748.7844,N,12217.8691,W,0.10,148.78,220710,,,D*70
$GPRMC,222801.000,A,3748.7843,N,12217.8691,W,0.23,191.20,220710,,,D*7F
$GPRMC,222802.000,A,3748.7841,N,12217.8689,W,0.48,171.28,220710,,,D*7C
$GPRMC,222803.000,A,3748.7839,N,12217.8688,W,0.29,187.33,220710,,,D*77
$GPRMC,222804.000,A,3748.7838,N,12217.8687,W,0.28,180.40,220710,,,D*7C
$GPRMC,222805.000,A,3748.7836,N,12217.8686,W,0.34,172.32,220710,,,D*77
$GPRMC,222806.000,A,3748.7834,N,12217.8685,W,0.21,173.50,220710,,,D*74
$GPRMC,222807.000,A,3748.7834,N,12217.8684,W,0.21,181.41,220710,,,D*79
$GPRMC,222808.000,A,3748.7834,N,12217.8683,W,0.30,194.76,220710,,,D*71
$GPRMC,222809.000,A,3748.7834,N,12217.8683,W,0.06,145.55,220710,,,D*78
$GPRMC,222810.000,A,3748.7834,N,12217.8682,W,0.06,135.74,220710,,,D*75
$GPRMC,222811.000,A,3748.7834,N,12217.8681,W,0.16,19.46,220710,,,D*48
$GPRMC,222812.000,A,3748.7834,N,12217.8680,W,0.08,181.84,220710,,,D*7B
$GPRMC,222813.000,A,3748.7833,N,12217.8679,W,0.30,165.80,220710,,,D*7E
$GPRMC,222814.000,A,3748.7831,N,12217.8679,W,0.45,171.14,220710,,,D*71
$GPRMC,222815.000,A,3748.7829,N,12217.8678,W,0.36,193.39,220710,,,D*7F
$GPRMC,222816.000,A,3748.7828,N,12217.8678,W,0.42,183.89,220710,,,D*74
$GPRMC,222817.000,A,3748.7826,N,12217.8677,W,0.36,183.72,220710,,,D*73
$GPRMC,222818.000,A,3748.7824,N,12217.8676,W,0.24,159.71,220710,,,D*78
$GPRMC,222819.000,A,3748.7824,N,12217.8674,W,0.06,87.62,220710,,,D*4B
$GPRMC,222820.000,A,3748.7824,N,12217.8673,W,0.13,64.77,220710,,,D*4B
$GPRMC,222821.000,A,3748.7823,N,12217.8672,W,0.06,162.55,220710,,,D*7F
$GPRMC,222822.000,A,3748.7824,N,12217.8672,W,0.17,187.86,220710,,,D*7E
$GPRMC,222823.000,A,3748.7826,N,12217.8671,W,0.23,30.59,220710,,,D*46
$GPRMC,222824.000,A,3748.7826,N,12217.8669,W,0.26,29.42,220710,,,D*4F
$GPRMC,222825.000,A,3748.7827,N,12217.8668,W,0.40,14.50,220710,,,D*43
$GPRMC,222826.000,A,3748.7828,N,12217.8666,W,0.18,18.71,220710,,,D*43
$GPRMC,222827.000,A,3748.7830,N,12217.8666,W,0.24,2.92,220710,,,D*72
$GPRMC,222828.000,A,3748.7832,N,12217.8666,W,0.20,5.81,220710,,,D*7E
$GPRMC,222829.000,A,3748.7833,N,12217.8666,W,0.07,347.08,220710,,,D*7F
$GPRMC,222830.000,A,3748.7834,N,12217.8666,W,0.10,75.40,220710,,,D*48
$GPRMC,222831.000,A,3748.7835,N,12217.8665,W,0.10,116.42,220710,,,D*7D
$GPRMC,222832.000,A,3748.7836,N,12217.8665,W,0.07,61.29,220710,,,D*47
$GPRMC,222833.000,A,3748.7842,N,12217.8664,W,0.39,46.87,220710,,,D*48
$GPRMC,222834.000,A,3748.7847,N,12217.8665,W,0.55,30.22,220710,,,D*4F
$GPRMC,222835.000,A,3748.7848,N,12217.8666,W,0.62,350.18,220710,,,D*7A
$GPRMC,222836.000,A,3748.7849,N,12217.8668,W,0.33,354.17,220710,,,D*79
$GPRMC,222837.000,A,3748.7850,N,12217.8669,W,0.32,30.58,220710,,,D*4A
$GPRMC,222838.000,A,3748.7849,N,12217.8669,W,0.31,24.91,220710,,,D*4E
$GPRMC,222839.000,A,3748.7847,N,12217.8669,W,0.21,139.82,220710,,,D*7F
$GPRMC,222839.000,A,3748.7846,N,12217.8670,W,0.33,166.71,220710,,,D*73
$GPRMC,222840.000,A,3748.7844,N,12217.8669,W,0.06,326.13,220710,,,D*73
$GPRMC,222841.000,A,3748.7843,N,12217.8669,W,0.23,35.86,220710,,,D*4F
$GPRMC,222842.000,A,3748.7844,N,12217.8670,W,0.21,19.37,220710,,,D*45
$GPRMC,222843.000,A,3748.7844,N,12217.8671,W,0.29,34.73,220710,,,D*42
$GPRMC,222844.000,A,3748.7845,N,12217.8671,W,0.18,25.31,220710,,,D*40
$GPRMC,222845.000,A,3748.7839,N,12217.8674,W,0.28,216.66,220710,,,D*7C
$GPRMC,222846.000,A,3748.7841,N,12217.8674,W,0.17,156.05,220710,,,D*7E
$GPRMC,222847.000,A,3748.7840,N,12217.8676,W,0.32,241.80,220710,,,D*73
$GPRMC,222848.000,A,3748.7836,N,12217.8677,W,0.20,249.32,220710,,,D*7E
$GPRMC,222849.000,A,3748.7836,N,12217.8677,W,0.05,169.65,220710,,,D*7B
$GPRMC,222850.000,A,3748.7833,N,12217.8682,W,0.36,232.48,220710,,,D*7E
$GPRMC,222851.000,A,3748.7831,N,12217.8684,W,0.12,170.84,220710,,,D*78
$GPRMC,222852.000,A,3748.7828,N,12217.8686,W,0.33,104.20,220710,,,D*7F
$GPRMC,222853.000,A,3748.7824,N,12217.8690,W,0.30,88.44,220710,,,D*41
$GPRMC,222854.000,A,3748.7822,N,12217.8692,W,0.16,172.63,220710,,,D*77
$GPRMC,222855.000,A,3748.7821,N,12217.8694,W,0.01,316.91,220710,,,D*78
$GPRMC,222856.000,A,3748.7820,N,12217.8696,W,0.57,212.82,220710,,,D*7C
$GPRMC,222857.000,A,3748.7818,N,12217.8698,W,0.20,163.89,220710,,,D*76
$GPRMC,222858.000,A,3748.7816,N,12217.8700,W,0.44,40.77,220710,,,D*44
$GPRMC,222859.000,A,3748.7816,N,12217.8700,W,0.21,280.98,220710,,,D*79
$GPRMC,222900.000,A,3748.7821,N,12217.8699,W,0.35,10.85,220710,,,D*43
$GPRMC,222901.000,A,3748.7827,N,12217.8696,W,0.30,254.81,220710,,,D*78
$GPRMC,222902.000,A,3748.7831,N,12217.8695,W,0.15,301.32,220710,,,D*71
$GPRMC,222903.000,A,3748.7836,N,12217.8692,W,0.42,17.71,220710,,,D*41
$GPRMC,222904.000,A,3748.7841,N,12217.8690,W,0.24,342.53,220710,,,D*77
$GPRMC,222905.000,A,3748.7844,N,12217.8688,W,0.18,341.15,220710,,,D*74
$GPRMC,222906.000,A,3748.7847,N,12217.8686,W,0.19,61.17,220710,,,D*48
$GPRMC,222907.000,A,3748.7850,N,12217.8683,W,0.30,34.39,220710,,,D*4D
$GPRMC,222908.000,A,3748.7853,N,12217.8679,W,0.15,21.31,220710,,,D*4F
$GPRMC,222909.000,A,3748.7862,N,12217.8673,W,0.34,6.97,220710,,,D*7C
$GPRMC,222910.000,A,3748.7869,N,12217.8670,W,0.88,19.32,220710,,,D*4A
$GPRMC,222911.000,A,3748.7868,N,12217.8673,W,0.38,7.59,220710,,,D*70
$GPRMC,222912.000,A,3748.7866,N,12217.8676,W,0.25,350.87,220710,,,D*76
$GPRMC,222913.000,A,3748.7865,N,12217.8677,W,0.11,72.03,220710,,,D*4D
$GPRMC,222914.000,A,3748.7864,N,12217.8678,W,0.10,42.86,220710,,,D*4B
$GPRMC,222915.000,A,3748.7863,N,12217.8678,W,0.12,35.87,220710,,,D*4E
$GPRMC,222916.000,A,3748.7863,N,12217.8679,W,0.10,15.64,220710,,,D*41
$GPRMC,222917.000,A,3748.7863,N,12217.8680,W,0.16,326.04,220710,,,D*75
$GPRMC,222918.000,A,3748.7863,N,12217.8682,W,0.07,343.35,220710,,,D*79
$GPRMC,222919.000,A,3748.7866,N,12217.8679,W,0.50,20.31,220710,,,D*49
$GPRMC,222920.000,A,3748.7867,N,12217.8681,W,0.34,6.26,220710,,,D*75
$GPRMC,222921.000,A,3748.7868,N,12217.8683,W,0.23,348.72,220710,,,D*77
$GPRMC,222922.000,A,3748.7867,N,12217.8685,W,0.09,152.25,220710,,,D*7E
$GPRMC,222923.000,A,3748.7868,N,12217.8684,W,0.05,318.52,220710,,,D*71
$GPRMC,222924.000,A,3748.7869,N,12217.8682,W,0.17,125.03,220710,,,D*7A
$GPRMC,222925.000,A,3748.7870,N,12217.8682,W,0.15,22.14,220710,,,D*41
$GPRMC,222926.000,A,3748.7869,N,12217.8681,W,0.11,114.84,220710,,,D*70
$GPRMC,222927.000,A,3748.7865,N,12217.8682,W,0.05,107.41,220710,,,D*70
$GPRMC,222928.000,A,3748.7867,N,12217.8680,W,0.10,42.55,220710,,,D*4E
$GPRMC,222929.000,A,3748.7867,N,12217.8680,W,0.24,356.14,220710,,,D*7B
$GPRMC,222930.000,A,3748.7867,N,12217.8679,W,0.23,50.84,220710,,,D*4E
$GPRMC,222931.000,A,3748.7865,N,12217.8678,W,0.22,4.42,220710,,,D*76
$GPRMC,222932.000,A,3748.7865,N,12217.8677,W,0.05,63.19,220710,,,D*40
$GPRMC,222933.000,A,3748.7865,N,12217.8677,W,0.11,54.39,220710,,,D*42
$GPRMC,222934.000,A,3748.7865,N,12217.8676,W,0.09,157.70,220710,,,D*72
$GPRMC,222935.000,A,3748.7864,N,12217.8676,W,0.37,186.64,220710,,,D*76
$GPRMC,222936.000,A,3748.7863,N,12217.8675,W,0.20,18.34,220710,,,D*44
$GPRMC,222937.000,A,3748.7862,N,12217.8675,W,0.19,55.99,220710,,,D*40
$GPRMC,222938.000,A,3748.7862,N,12217.8675,W,0.10,158.09,220710,,,D*73
$GPRMC,222939.000,A,3748.7861,N,12217.8675,W,0.17,226.62,220710,,,D*71
$GPRMC,222940.000,A,3748.7856,N,12217.8678,W,0.61,188.02,220710,,,D*76
$GPRMC,222941.000,A,3748.7854,N,12217.8679,W,0.33,197.39,220710,,,D*75
$GPRMC,222942.000,A,3748.7851,N,12217.8681,W,0.20,215.13,220710,,,D*77
$GPRMC,222943.000,A,3748.7849,N,12217.8682,W,0.27,289.81,220710,,,D*75
$GPRMC,222944.000,A,3748.7847,N,12217.8683,W,0.24,146.62,220710,,,D*73
$GPRMC,222945.000,A,3748.7846,N,12217.8683,W,0.23,202.18,220710,,,D*7A
$GPRMC,222946.000,A,3748.7845,N,12217.8683,W,0.06,189.31,220710,,,D*76
$GPRMC,222947.000,A,3748.7845,N,12217.8683,W,0.09,291.59,220710,,,D*7C
$GPRMC,222948.000,A,3748.7844,N,12217.8683,W,0.17,326.71,220710,,,D*7A
$GPRMC,222949.000,A,3748.7844,N,12217.8681,W,0.11,337.18,220710,,,D*70
$GPRMC,222950.000,A,3748.7843,N,12217.8680,W,0.07,148.94,220710,,,D*77
$GPRMC,222951.000,A,3748.7843,N,12217.8678,W,0.15,111.70,220710,,,D*74
$GPRMC,222952.000,A,3748.7842,N,12217.8676,W,0.16,132.96,220710,,,D*72
$GPRMC,222953.000,A,3748.7840,N,12217.8675,W,0.18,169.07,220710,,,D*7A
$GPRMC,222954.000,A,3748.7838,N,12217.8675,W,0.14,149.29,220710,,,D*70
$GPRMC,222955.000,A,3748.7837,N,12217.8674,W,0.06,236.92,220710,,,D*77
$GPRMC,222956.000,A,3748.7837,N,12217.8675,W,0.10,192.53,220710,,,D*72
$GPRMC,222957.000,A,3748.7836,N,12217.8675,W,0.19,156.66,220710,,,D*75
$GPRMC,222958.000,A,3748.7835,N,12217.8676,W,0.13,175.73,220710,,,D*75
$GPRMC,222959.000,A,3748.7836,N,12217.8677,W,0.11,321.49,220710,,,D*7E
$GPRMC,223000.000,A,3748.7835,N,12217.8679,W,0.05,8.30,220710,,,D*74
$GPRMC,223001.000,A,3748.7833,N,12217.8681,W,0.12,130.46,220710,,,D*79
$GPRMC,223002.000,A,3748.7830,N,12217.8682,W,0.07,233.95,220710,,,D*70
$GPRMC,223003.000,A,3748.7829,N,12217.8683,W,0.12,154.15,220710,,,D*76
$GPRMC,223004.000,A,3748.7831,N,12217.8687,W,0.19,0.61,220710,,,D*74
$GPRMC,223005.000,A,3748.7832,N,12217.8692,W,0.27,35.57,220710,,,D*4C
$GPRMC,223006.000,A,3748.7831,N,12217.8696,W,0.18,303.34,220710,,,D*77
$GPRMC,223007.000,A,3748.7835,N,12217.8698,W,0.32,39.75,220710,,,D*4B
$GPRMC,223008.000,A,3748.7840,N,12217.8700,W,0.20,285.26,220710,,,D*76
$GPRMC,223009.000,A,3748.7844,N,12217.8704,W,0.29,260.44,220710,,,D*71
$GPRMC,223010.000,A,3748.7845,N,12217.8706,W,0.21,6.98,220710,,,D*71
$GPRMC,223011.000,A,3748.7845,N,12217.8705,W,0.20,49.63,220710,,,D*4D
$GPRMC,223012.000,A,3748.7845,N,12217.8705,W,0.21,48.80,220710,,,D*43
$GPRMC,223013.000,A,3748.7844,N,12217.8705,W,0.16,39.46,220710,,,D*4B
$GPRMC,223014.000,A,3748.7844,N,12217.8705,W,0.11,38.88,220710,,,D*48
$GPRMC,223015.000,A,3748.7844,N,12217.8704,W,0.16,36.33,220710,,,D*41
$GPRMC,223016.000,A,3748.7844,N,12217.8704,W,0.19,180.44,220710,,,A*74
$GPRMC,223017.000,A,3748.7842,N,12217.8704,W,0.37,228.87,220710,,,A*71
$GPRMC,223018.000,A,3748.7843,N,12217.8703,W,0.02,32.08,220710,,,A*40
$GPRMC,223019.000,A,3748.7844,N,12217.8702,W,0.16,344.13,220710,,,A*7A
$GPRMC,223020.000,A,3748.7846,N,12217.8702,W,0.21,22.55,220710,,,A*47
$GPRMC,223021.000,A,3748.7846,N,12217.8705,W,0.20,277.72,220710,,,A*77
$GPRMC,223022.000,A,3748.7843,N,12217.8709,W,0.39,215.11,220710,,,A*74
$GPRMC,223023.000,A,3748.7840,N,12217.8713,W,0.25,100.07,220710,,,A*70
$GPRMC,223024.000,A,3748.7842,N,12217.8712,W,0.46,183.83,220710,,,A*76
$GPRMC,223025.000,A,3748.7843,N,12217.8715,W,0.34,197.89,220710,,,A*7B
$GPRMC,223026.000,A,3748.7844,N,12217.8717,W,0.29,198.35,220710,,,A*79
$GPRMC,223027.000,A,3748.7841,N,12217.8720,W,0.22,227.91,220710,,,A*7B
$GPRMC,223028.000,A,3748.7839,N,12217.8723,W,0.57,224.00,220710,,,A*71
$GPRMC,223029.000,A,3748.7838,N,12217.8725,W,0.49,237.41,220710,,,A*7F
$GPRMC,223030.000,A,3748.7836,N,12217.8728,W,0.46,228.54,220710,,,A*71
$GPRMC,223031.000,A,3748.7835,N,12217.8729,W,0.14,223.47,220710,,,A*7C
$GPRMC,223032.000,A,3748.7834,N,12217.8730,W,0.15,172.28,220710,,,A*79
$GPRMC,223033.000,A,3748.7833,N,12217.8731,W,0.07,192.09,220710,,,A*70
$GPRMC,223034.000,A,3748.7833,N,12217.8731,W,0.17,173.31,220710,,,A*72
$GPRMC,223035.000,A,3748.7833,N,12217.8730,W,0.30,176.40,220710,,,A*74
$GPRMC,223036.000,A,3748.7834,N,12217.8729,W,0.07,225.78,220710,,,A*72
$GPRMC,223037.000,A,3748.7836,N,12217.8728,W,0.05,286.34,220710,,,A*73
$GPRMC,223038.000,A,3748.7835,N,12217.8728,W,0.10,309.65,220710,,,A*79
$GPRMC,223039.000,A,3748.7837,N,12217.8728,W,0.03,342.11,220710,,,A*74
$GPRMC,223040.000,A,3748.7838,N,12217.8728,W,0.05,0.72,220710,,,A*73
$GPRMC,223041.000,A,3748.7841,N,12217.8728,W,0.03,108.96,220710,,,A*79
$GPRMC,223042.000,A,3748.7848,N,12217.8726,W,0.12,21.72,220710,,,A*4D
$GPRMC,223043.000,A,3748.7852,N,12217.8725,W,0.18,18.24,220710,,,A*47
$GPRMC,223044.000,A,3748.7853,N,12217.8723,W,0.11,22.26,220710,,,A*45
$GPRMC,223045.000,A,3748.7854,N,12217.8722,W,0.04,67.39,220710,,,A*49
$GPRMC,223046.000,A,3748.7854,N,12217.8721,W,0.21,131.21,220710,,,A*75
$GPRMC,223047.000,A,3748.7853,N,12217.8720,W,0.15,148.28,220710,,,A*72
$GPRMC,223048.000,A,3748.7854,N,12217.8720,W,0.02,222.71,220710,,,A*7F
$GPRMC,223049.000,A,3748.7855,N,12217.8720,W,0.30,332.51,220710,,,A*7C
$GPRMC,223050.000,A,3748.7856,N,12217.8720,W,0.11,1.89,220710,,,A*72
$GPRMC,223051.000,A,3748.7857,N,12217.8722,W,0.16,332.00,220710,,,A*75
$GPRMC,223052.000,A,3748.7858,N,12217.8723,W,0.18,128.30,220710,,,A*7C
$GPRMC,223053.000,A,3748.7857,N,12217.8723,W,0.44,183.32,220710,,,A*78
$GPRMC,223054.000,A,3748.7856,N,12217.8726,W,1.41,298.34,220710,,,A*70
$GPRMC,223055.000,A,3748.7859,N,12217.8729,W,1.83,306.22,220710,,,A*7E
$GPRMC,223056.000,A,3748.7864,N,12217.8731,W,0.88,272.75,220710,,,A*70
$GPRMC,223057.000,A,3748.7868,N,12217.8731,W,0.17,249.34,220710,,,A*76
$GPRMC,223058.000,A,3748.7872,N,12217.8726,W,0.25,337.41,220710,,,A*7F
$GPRMC,223059.000,A,3748.7876,N,12217.8722,W,0.25,182.61,220710,,,A*70
$GPRMC,223100.000,A,3748.7879,N,12217.8716,W,0.40,115.11,220710,,,A*7F
$GPRMC,223101.000,A,3748.7884,N,12217.8708,W,0.63,67.00,220710,,,A*46
$GPRMC,223102.000,A,3748.7887,N,12217.8704,W,0.13,145.22,220710,,,A*7C
$GPRMC,223103.000,A,3748.7887,N,12217.8704,W,0.61,168.27,220710,,,A*72
$GPRMC,223104.000,A,3748.7891,N,12217.8700,W,0.18,160.20,220710,,,A*77
$GPRMC,223105.000,A,3748.7892,N,12217.8699,W,0.32,249.28,220710,,,A*7C
$GPRMC,223106.000,A,3748.7892,N,12217.8701,W,0.71,252.83,220710,,,A*73
$GPRMC,223107.000,A,3748.7893,N,12217.8703,W,1.10,241.75,220710,,,A*7C
$GPRMC,223108.000,A,3748.7892,N,12217.8708,W,1.01,211.71,220710,,,A*78
$GPRMC,223109.000,A,3748.7891,N,12217.8710,W,0.57,186.79,220710,,,A*74
$GPRMC,223110.000,A,3748.7885,N,12217.8717,W,1.01,209.87,220710,,,A*79
$GPRMC,223111.000,A,3748.7882,N,12217.8724,W,1.64,209.99,220710,,,A*73
$GPRMC,223112.000,A,3748.7885,N,12217.8722,W,0.16,146.21,220710,,,A*7E
$GPRMC,223113.000,A,3748.7890,N,12217.8719,W,0.09,90.43,220710,,,A*43
$GPRMC,223114.000,A,3748.7893,N,12217.8717,W,0.08,319.20,220710,,,A*7F
$GPRMC,223115.000,A,3748.7895,N,12217.8716,W,0.02,162.38,220710,,,A*74
$GPRMC,223116.000,A,3748.7893,N,12217.8715,W,0.22,166.03,220710,,,A*7C
$GPRMC,223117.000,A,3748.7898,N,12217.8712,W,0.71,9.61,220710,,,A*7B
$GPRMC,223118.000,A,3748.7904,N,12217.8707,W,0.24,15.27,220710,,,A*4B
$GPRMC,223119.000,A,3748.7906,N,12217.8705,W,0.20,20.19,220710,,,A*45
$GPRMC,223120.000,A,3748.7911,N,12217.8705,W,0.18,14.28,220710,,,A*47
$GPRMC,223121.000,A,3748.7911,N,12217.8703,W,0.20,34.78,220710,,,A*4C
$GPRMC,223122.000,A,3748.7909,N,12217.8703,W,0.10,84.46,220710,,,A*43
$GPRMC,223123.000,A,3748.7907,N,12217.8703,W,0.30,169.88,220710,,,A*7E
$GPRMC,223124.000,A,3748.7904,N,12217.8703,W,0.18,28.76,220710,,,A*45
$GPRMC,223125.000,A,3748.7904,N,12217.8703,W,0.39,13.68,220710,,,A*40
$GPRMC,223126.000,A,3748.7906,N,12217.8702,W,0.16,153.64,220710,,,A*74
$GPRMC,223127.000,A,3748.7906,N,12217.8703,W,0.19,175.68,220710,,,A*73
$GPRMC,223128.000,A,3748.7903,N,12217.8706,W,0.27,175.41,220710,,,A*7A
$GPRMC,223129.000,A,3748.7898,N,12217.8708,W,0.75,184.28,220710,,,A*70
$GPRMC,223130.000,A,3748.7898,N,12217.8708,W,0.10,10.48,220710,,,A*41
$GPRMC,223131.000,A,3748.7892,N,12217.8709,W,0.38,178.09,220710,,,A*7B
$GPRMC,223132.000,A,3748.7887,N,12217.8710,W,0.59,181.54,220710,,,A*7D
$GPRMC,223133.000,A,3748.7882,N,12217.8711,W,0.53,183.15,220710,,,A*75
$GPRMC,223134.000,A,3748.7884,N,12217.8709,W,0.52,222.51,220710,,,A*74
$GPRMC,223135.000,A,3748.7888,N,12217.8708,W,0.08,294.94,220710,,,A*73
$GPRMC,223136.000,A,3748.7893,N,12217.8706,W,0.31,39.41,220710,,,A*43
$GPRMC,223137.000,A,3748.7895,N,12217.8705,W,0.05,209.36,220710,,,A*71
$GPRMC,223138.000,A,3748.7897,N,12217.8704,W,0.03,61.41,220710,,,A*47
$GPRMC,223139.000,A,3748.7899,N,12217.8704,W,0.16,47.21,220710,,,A*4E
$GPRMC,223140.000,A,3748.7900,N,12217.8703,W,0.08,156.69,220710,,,A*74
$GPRMC,223141.000,A,3748.7895,N,12217.8705,W,0.16,176.83,220710,,,A*77
$GPRMC,223142.000,A,3748.7900,N,12217.8705,W,0.06,75.78,220710,,,A*4E
$GPRMC,223143.000,A,3748.7896,N,12217.8706,W,0.10,161.00,220710,,,A*7E
$GPRMC,223144.000,A,3748.7893,N,12217.8707,W,0.22,195.54,220710,,,A*76
$GPRMC,223145.000,A,3748.7896,N,12217.8707,W,1.18,214.23,220710,,,A*70
$GPRMC,223146.000,A,3748.7893,N,12217.8711,W,1.54,211.68,220710,,,A*73
$GPRMC,223147.000,A,3748.7885,N,12217.8718,W,1.67,201.07,220710,,,A*74
$GPRMC,223148.000,A,3748.7883,N,12217.8722,W,0.91,219.72,220710,,,A*77
$GPRMC,223149.000,A,3748.7883,N,12217.8725,W,0.65,227.41,220710,,,A*77
$GPRMC,223150.000,A,3748.7881,N,12217.8725,W,0.73,219.48,220710,,,A*7E
$GPRMC,223151.000,A,3748.7883,N,12217.8728,W,1.07,222.12,220710,,,A*75
$GPRMC,223152.000,A,3748.7884,N,12217.8731,W,0.13,144.00,220710,,,A*7D
$GPRMC,223153.000,A,3748.7880,N,12217.8735,W,0.44,177.09,220710,,,A*77
$GPRMC,223154.000,A,3748.7876,N,12217.8739,W,0.54,183.32,220710,,,A*77
$GPRMC,223155.000,A,3748.7874,N,12217.8739,W,0.55,146.82,220710,,,A*77
$GPRMC,223156.000,A,3748.7876,N,12217.8740,W,0.96,216.99,220710,,,A*7B
$GPRMC,223157.000,A,3748.7873,N,12217.8743,W,1.19,212.71,220710,,,A*78
$GPRMC,223158.000,A,3748.7870,N,12217.8748,W,1.49,208.09,220710,,,A*7E
$GPRMC,223159.000,A,3748.7868,N,12217.8750,W,0.76,206.65,220710,,,A*76
$GPRMC,223200.000,A,3748.7862,N,12217.8755,W,0.63,201.32,220710,,,A*77
$GPRMC,223201.000,A,3748.7853,N,12217.8766,W,0.82,202.08,220710,,,A*71
$GPRMC,223202.000,A,3748.7847,N,12217.8776,W,0.55,230.23,220710,,,A*74
$GPRMC,223203.000,A,3748.7846,N,12217.8783,W,0.85,203.09,220710,,,A*7B
$GPRMC,223204.000,A,3748.7842,N,12217.8789,W,0.65,186.77,220710,,,A*7B
$GPRMC,223205.000,A,3748.7839,N,12217.8792,W,1.34,199.52,220710,,,A*70
$GPRMC,223206.000,A,3748.7843,N,12217.8804,W,1.33,208.35,220710,,,A*73
$GPRMC,223207.000,A,3748.7838,N,12217.8815,W,1.22,204.94,220710,,,A*79
$GPRMC,223208.000,A,3748.7831,N,12217.8818,W,0.79,204.04,220710,,,A*74
$GPRMC,223209.000,A,3748.7834,N,12217.8827,W,0.74,226.13,220710,,,A*77
$GPRMC,223210.000,A,3748.7828,N,12217.8835,W,0.85,221.82,220710,,,A*70
$GPRMC,223211.000,A,3748.7828,N,12217.8843,W,0.54,197.84,220710,,,A*74
$GPRMC,223212.000,A,3748.7827,N,12217.8847,W,0.46,187.99,220710,,,A*72
$GPRMC,223213.000,A,3748.7827,N,12217.8849,W,0.16,255.97,220710,,,A*7A
$GPRMC,223214.000,A,3748.7832,N,12217.8851,W,0.19,215.68,220710,,,A*7B
$GPRMC,223215.000,A,3748.7829,N,12217.8857,W,0.49,217.70,220710,,,A*78
$GPRMC,223216.000,A,3748.7828,N,12217.8860,W,0.26,194.91,220710,,,A*70
$GPRMC,223217.000,A,3748.7830,N,12217.8861,W,0.09,334.27,220710,,,A*71
$GPRMC,223218.000,A,3748.7823,N,12217.8869,W,0.57,209.81,220710,,,A*7C
$GPRMC,223219.000,A,3748.7815,N,12217.8873,W,1.14,192.22,220710,,,A*7D
$GPRMC,223220.000,A,3748.7803,N,12217.8880,W,1.10,194.22,220710,,,A*7E
$GPRMC,223221.000,A,3748.7799,N,12217.8885,W,0.68,190.93,220710,,,A*76
$GPRMC,223222.000,A,3748.7791,N,12217.8894,W,0.51,208.62,220710,,,A*7B
$GPRMC,223223.000,A,3748.7789,N,12217.8900,W,0.71,189.35,220710,,,A*75
$GPRMC,223224.000,A,3748.7786,N,12217.8907,W,0.69,194.98,220710,,,A*78
$GPRMC,223225.000,A,3748.7782,N,12217.8914,W,1.00,215.71,220710,,,A*7C
$GPRMC,223226.000,A,3748.7779,N,12217.8918,W,1.25,206.70,220710,,,A*73
$GPRMC,223227.000,A,3748.7775,N,12217.8924,W,1.10,201.68,220710,,,A*79
$GPRMC,223228.000,A,3748.7768,N,12217.8928,W,1.15,207.62,220710,,,A*7F
$GPRMC,223229.000,A,3748.7767,N,12217.8929,W,0.98,197.78,220710,,,A*75
$GPRMC,223230.000,A,3748.7759,N,12217.8935,W,0.96,194.73,220710,,,A*7B
$GPRMC,223231.000,A,3748.7759,N,12217.8935,W,0.36,149.79,220710,,,A*7A
$GPRMC,223232.000,A,3748.7754,N,12217.8938,W,0.51,179.72,220710,,,A*70
$GPRMC,223233.000,A,3748.7748,N,12217.8941,W,1.26,198.54,220710,,,A*78
$GPRMC,223234.000,A,3748.7742,N,12217.8946,W,1.06,193.39,220710,,,A*70
$GPRMC,223235.000,A,3748.7737,N,12217.8948,W,1.34,188.43,220710,,,D*7E
$GPRMC,223236.000,A,3748.7729,N,12217.8950,W,1.53,186.74,220710,,,D*70
$GPRMC,223237.000,A,3748.7723,N,12217.8952,W,1.31,190.39,220710,,,D*73
$GPRMC,223238.000,A,3748.7717,N,12217.8956,W,1.51,202.12,220710,,,D*78
$GPRMC,223239.000,A,3748.7713,N,12217.8959,W,1.53,194.98,220710,,,D*7E
$GPRMC,223240.000,A,3748.7713,N,12217.8960,W,1.15,189.44,220710,,,D*75
$GPRMC,223241.000,A,3748.7709,N,12217.8963,W,0.98,194.56,220710,,,D*77
$GPRMC,223242.000,A,3748.7708,N,12217.8965,W,0.82,186.90,220710,,,D*71
$GPRMC,223243.000,A,3748.7702,N,12217.8968,W,0.49,168.08,220710,,,D*71
$GPRMC,223244.000,A,3748.7694,N,12217.8971,W,0.53,138.45,220710,,,D*77
$GPRMC,223245.000,A,3748.7686,N,12217.8974,W,0.81,170.24,220710,,,D*74
$GPRMC,223246.000,A,3748.7683,N,12217.8976,W,1.45,188.83,220710,,,D*73
$GPRMC,223247.000,A,3748.7677,N,12217.8980,W,0.70,186.05,220710,,,D*77
$GPRMC,223248.000,A,3748.7676,N,12217.8980,W,0.66,193.22,220710,,,D*7F
$GPRMC,223249.000,A,3748.7673,N,12217.8984,W,1.25,198.25,220710,,,D*75
$GPRMC,223250.000,A,3748.7671,N,12217.8987,W,1.13,192.41,220710,,,D*71
$GPRMC,223251.000,A,3748.7669,N,12217.8990,W,0.89,190.91,220710,,,D*72
$GPRMC,223252.000,A,3748.7668,N,12217.8993,W,0.78,193.75,220710,,,D*74
$GPRMC,223253.000,A,3748.7664,N,12217.8996,W,0.87,178.51,220710,,,D*7F
$GPRMC,223254.000,A,3748.7665,N,12217.8997,W,0.13,119.16,220710,,,D*71
$GPRMC,223255.000,A,3748.7669,N,12217.9001,W,0.38,266.82,220710,,,D*74
$GPRMC,223256.000,A,3748.7670,N,12217.9004,W,0.49,210.82,220710,,,D*7D
$GPRMC,223257.000,A,3748.7669,N,12217.9007,W,0.34,144.14,220710,,,D*70
$GPRMC,223258.000,A,3748.7663,N,12217.9010,W,0.45,127.81,220710,,,D*7C
$GPRMC,223259.000,A,3748.7659,N,12217.9013,W,0.24,55.65,220710,,,D*4E
$GPRMC,223300.000,A,3748.7662,N,12217.9011,W,0.74,45.68,220710,,,D*40
$GPRMC,223301.000,A,3748.7664,N,12217.9010,W,0.17,126.28,220710,,,D*73
$GPRMC,223302.000,A,3748.7668,N,12217.9006,W,0.69,64.21,220710,,,D*4C
$GPRMC,223303.000,A,3748.7670,N,12217.9001,W,0.71,40.15,220710,,,D*4B
$GPRMC,223304.000,A,3748.7679,N,12217.8990,W,0.72,11.63,220710,,,D*43
$GPRMC,223305.000,A,3748.7680,N,12217.8991,W,0.09,61.31,220710,,,D*49
$GPRMC,223306.000,A,3748.7679,N,12217.8993,W,0.25,144.68,220710,,,D*7A
$GPRMC,223307.000,A,3748.7673,N,12217.8995,W,0.33,172.88,220710,,,D*7B
$GPRMC,223308.000,A,3748.7663,N,12217.9002,W,0.53,191.62,220710,,,D*7C
$GPRMC,223309.000,A,3748.7659,N,12217.9004,W,0.95,191.94,220710,,,D*71
$GPRMC,223310.000,A,3748.7656,N,12217.9003,W,1.40,194.93,220710,,,D*7A
$GPRMC,223311.000,A,3748.7653,N,12217.9005,W,1.87,215.45,220710,,,D*72
$GPRMC,223312.000,A,3748.7647,N,12217.9010,W,2.32,206.22,220710,,,D*7E
$GPRMC,223313.000,A,3748.7643,N,12217.9011,W,2.03,204.77,220710,,,D*7A
$GPRMC,223314.000,A,3748.7641,N,12217.9015,W,1.78,208.28,220710,,,D*72
$GPRMC,223315.000,A,3748.7629,N,12217.9022,W,1.77,204.75,220710,,,D*72
$GPRMC,223316.000,A,3748.7619,N,12217.9027,W,1.23,201.73,220710,,,D*75
$GPRMC,223317.000,A,3748.7613,N,12217.9031,W,1.00,198.66,220710,,,D*7F
$GPRMC,223318.000,A,3748.7607,N,12217.9036,W,1.31,193.38,220710,,,D*70
$GPRMC,223319.000,A,3748.7601,N,12217.9040,W,1.60,189.54,220710,,,D*73
$GPRMC,223320.000,A,3748.7595,N,12217.9044,W,1.34,190.35,220710,,,D*7D
$GPRMC,223321.000,A,3748.7591,N,12217.9047,W,1.33,182.78,220710,,,D*76
$GPRMC,223322.000,A,3748.7576,N,12217.9055,W,0.98,176.03,220710,,,D*78
$GPRMC,223323.000,A,3748.7561,N,12217.9064,W,1.23,191.05,220710,,,D*73
$GPRMC,223324.000,A,3748.7552,N,12217.9070,W,1.49,194.05,220710,,,D*78
$GPRMC,223325.000,A,3748.7546,N,12217.9076,W,1.15,180.28,220710,,,D*79
$GPRMC,223326.000,A,3748.7541,N,12217.9080,W,1.15,184.67,220710,,,D*7B
$GPRMC,223327.000,A,3748.7538,N,12217.9081,W,1.16,198.32,220710,,,D*7B
$GPRMC,223328.000,A,3748.7537,N,12217.9083,W,0.85,197.62,220710,,,D*78
$GPRMC,223329.000,A,3748.7532,N,12217.9087,W,0.64,197.86,220710,,,D*7D
$GPRMC,223330.000,A,3748.7523,N,12217.9093,W,0.65,204.63,220710,,,D*73
$GPRMC,223331.000,A,3748.7520,N,12217.9094,W,0.81,202.76,220710,,,D*7E
$GPRMC,223332.000,A,3748.7508,N,12217.9099,W,0.65,220.19,220710,,,D*79
$GPRMC,223333.000,A,3748.7495,N,12217.9106,W,0.67,201.06,220710,,,D*75
$GPRMC,223334.000,A,3748.7491,N,12217.9112,W,1.41,211.80,220710,,,D*79
$GPRMC,223335.000,A,3748.7483,N,12217.9121,W,0.98,204.63,220710,,,D*77
$GPRMC,223336.000,A,3748.7473,N,12217.9129,W,1.31,193.43,220710,,,D*7E
$GPRMC,223337.000,A,3748.7465,N,12217.9135,W,1.25,202.74,220710,,,D*7F
$GPRMC,223338.000,A,3748.7458,N,12217.9140,W,1.68,198.81,220710,,,D*7F
$GPRMC,223339.000,A,3748.7448,N,12217.9145,W,1.60,206.96,220710,,,D*70
$GPRMC,223340.000,A,3748.7442,N,12217.9150,W,1.81,214.05,220710,,,D*76
$GPRMC,223341.000,A,3748.7437,N,12217.9157,W,1.76,204.37,220710,,,D*7A
