$ADVER,3080,2.3
$GPRMC,194728.660,A,3748.8058,N,12217.8750,W,0.26,149.67,061112,,,A*71
$GPRMC,194729.660,A,3748.8058,N,12217.8749,W,0.29,135.41,061112,,,A*78
$GPRMC,194730.660,A,3748.8057,N,12217.8748,W,0.75,96.05,061112,,,A*4F
$GPRMC,194731.660,A,3748.8058,N,12217.8749,W,0.54,119.97,061112,,,A*7E
$GPRMC,194732.660,A,3748.8058,N,12217.8750,W,0.27,229.47,061112,,,A*7C
$GPRMC,194733.660,A,3748.8058,N,12217.8749,W,0.41,305.41,061112,,,A*7C
$GPRMC,194734.660,A,3748.7990,N,12217.8595,W,0.09,239.55,061112,,,A*7D
$GPRMC,194735.660,A,3748.7990,N,12217.8596,W,0.11,155.16,061112,,,A*78
$GPRMC,194736.660,A,3748.7990,N,12217.8596,W,0.11,142.67,061112,,,A*7B
$GPRMC,194737.000,A,3748.7990,N,12217.8596,W,0.12,136.81,061112,,,A*72
$GPRMC,194738.000,A,3748.7990,N,12217.8596,W,0.12,144.61,061112,,,A*76
$GPRMC,194739.000,A,3748.7990,N,12217.8596,W,0.12,133.54,061112,,,A*71
$GPRMC,194740.000,A,3748.7990,N,12217.8596,W,0.11,140.47,061112,,,A*7A
$GPRMC,194741.000,A,3748.7990,N,12217.8596,W,0.11,140.48,061112,,,A*74
$GPRMC,194742.000,A,3748.7995,N,12217.8592,W,0.16,80.83,061112,,,A*4B
$GPRMC,194743.000,A,3748.8000,N,12217.8589,W,0.14,135.71,061112,,,A*7A
$GPRMC,194744.000,A,3748.8002,N,12217.8591,W,0.04,289.84,061112,,,A*79
$GPRMC,194745.000,A,3748.8001,N,12217.8594,W,0.25,203.68,061112,,,A*7D
$GPRMC,194746.000,A,3748.7999,N,12217.8596,W,0.19,130.45,061112,,,A*78
$GPRMC,194747.000,A,3748.7997,N,12217.8595,W,0.81,123.39,061112,,,A*7C
$GPRMC,194748.000,A,3748.8002,N,12217.8592,W,0.54,6.72,061112,,,A*7F
$GPRMC,194749.000,A,3748.8005,N,12217.8591,W,0.65,192.37,061112,,,A*75
$GPRMC,194750.000,A,3748.8003,N,12217.8592,W,0.65,192.37,061112,,,E*7C
$GPRMC,194751.000,A,3748.7998,N,12217.8578,W,2.33,122.50,061112,,,A*72
$GPRMC,194752.000,A,3748.8000,N,12217.8582,W,0.19,125.54,061112,,,A*7A
$GPRMC,194753.000,A,3748.8000,N,12217.8582,W,0.19,125.54,061112,,,E*7F
$GPRMC,194754.000,A,3748.7999,N,12217.8581,W,0.19,125.54,061112,,,E*7D
$GPRMC,194755.000,A,3748.8009,N,12217.8592,W,0.46,30.04,061112,,,A*4F
$GPRMC,194756.000,A,3748.8007,N,12217.8591,W,0.78,344.48,061112,,,A*74
$GPRMC,194757.000,A,3748.8008,N,12217.8595,W,0.59,314.06,061112,,,A*72
$GPRMC,194758.000,A,3748.8028,N,12217.8586,W,0.72,32.46,061112,,,A*47
$GPRMC,194759.000,A,3748.8040,N,12217.8580,W,0.14,346.27,061112,,,A*79
$GPRMC,194800.000,A,3748.8054,N,12217.8559,W,0.84,88.70,061112,,,A*41
$GPRMC,194801.000,A,3748.8054,N,12217.8558,W,0.35,59.83,061112,,,A*4B
$GPRMC,194802.000,A,3748.8045,N,12217.8557,W,1.34,174.50,061112,,,A*77
$GPRMC,194803.000,A,3748.8021,N,12217.8563,W,0.49,154.09,061112,,,A*76
$GPRMC,194804.000,A,3748.8007,N,12217.8572,W,0.52,93.97,061112,,,A*42
$GPRMC,194805.000,A,3748.8006,N,12217.8576,W,0.20,295.53,061112,,,A*7F
$GPRMC,194806.000,A,3748.8005,N,12217.8584,W,0.76,153.92,061112,,,A*75
$GPRMC,194807.000,A,3748.8001,N,12217.8583,W,1.48,141.12,061112,,,A*70
$GPRMC,194808.000,A,3748.7994,N,12217.8581,W,1.76,126.91,061112,,,A*70
$GPRMC,194809.000,A,3748.7986,N,12217.8579,W,1.20,146.14,061112,,,A*7D
$GPRMC,194810.000,A,3748.7989,N,12217.8572,W,2.05,90.48,061112,,,A*46
$GPRMC,194811.000,A,3748.7995,N,12217.8565,W,1.81,93.08,061112,,,A*44
$GPRMC,194812.000,A,3748.7998,N,12217.8563,W,0.87,139.86,061112,,,A*7C
$GPRMC,194813.000,A,3748.7997,N,12217.8562,W,0.58,112.96,061112,,,A*79
$GPRMC,194814.000,A,3748.8001,N,12217.8558,W,1.45,30.48,061112,,,A*41
$GPRMC,194815.000,A,3748.8003,N,12217.8551,W,1.25,52.03,061112,,,A*46
$GPRMC,194816.000,A,3748.8002,N,12217.8557,W,0.57,73.13,061112,,,A*44
$GPRMC,194817.000,A,3748.7993,N,12217.8562,W,0.61,121.35,061112,,,A*7A
$GPRMC,194818.000,A,3748.7993,N,12217.8560,W,0.79,107.69,061112,,,A*73
$GPRMC,194819.000,A,3748.7980,N,12217.8563,W,0.83,144.32,061112,,,A*7F
$GPRMC,194820.000,A,3748.7978,N,12217.8562,W,0.22,176.20,061112,,,A*7A
$GPRMC,194821.000,A,3748.7977,N,12217.8560,W,0.79,165.04,061112,,,A*7C
$GPRMC,194822.000,A,3748.7973,N,12217.8550,W,2.58,116.42,061112,,,A*7F
$GPRMC,194823.000,A,3748.7972,N,12217.8545,W,2.15,128.48,061112,,,A*75
$GPRMC,194824.000,A,3748.7972,N,12217.8547,W,1.26,130.24,061112,,,A*70
$GPRMC,194825.000,A,3748.7971,N,12217.8546,W,0.85,134.31,061112,,,A*7B
$GPRMC,194826.000,A,3748.7971,N,12217.8546,W,0.42,170.09,061112,,,A*78
$GPRMC,194827.000,A,3748.7970,N,12217.8544,W,0.60,150.17,061112,,,A*77
$GPRMC,194828.000,A,3748.7969,N,12217.8547,W,0.83,156.35,061112,,,A*78
$GPRMC,194829.000,A,3748.7968,N,12217.8548,W,0.43,158.05,061112,,,A*76
$GPRMC,194830.000,A,3748.7962,N,12217.8536,W,1.43,139.01,061112,,,A*7F
$GPRMC,194831.000,A,3748.7957,N,12217.8532,W,1.85,129.09,061112,,,A*7F
$GPRMC,194832.000,A,3748.7950,N,12217.8521,W,1.59,129.46,061112,,,A*73
$GPRMC,194833.000,A,3748.7945,N,12217.8518,W,1.03,119.34,061112,,,A*75
$GPRMC,194834.000,A,3748.7934,N,12217.8507,W,1.24,108.91,061112,,,A*70
$GPRMC,194835.000,A,3748.7928,N,12217.8503,W,1.19,118.27,061112,,,A*7A
$GPRMC,194836.000,A,3748.7920,N,12217.8493,W,1.51,114.87,061112,,,A*73
$GPRMC,194837.000,A,3748.7914,N,12217.8482,W,2.43,118.14,061112,,,A*73
$GPRMC,194838.000,A,3748.7908,N,12217.8471,W,1.92,125.83,061112,,,A*72
$GPRMC,194839.000,A,3748.7913,N,12217.8475,W,0.42,113.62,061112,,,A*7B
$GPRMC,194840.000,A,3748.7918,N,12217.8476,W,0.35,211.51,061112,,,A*7C
$GPRMC,194841.000,A,3748.7921,N,12217.8479,W,0.37,185.39,061112,,,A*7A
$GPRMC,194842.000,A,3748.7927,N,12217.8480,W,0.37,35.78,061112,,,A*46
$GPRMC,194843.000,A,3748.7925,N,12217.8471,W,1.51,111.63,061112,,,A*77
$GPRMC,194844.000,A,3748.7920,N,12217.8457,W,1.34,144.69,061112,,,A*78
$GPRMC,194845.000,A,3748.7915,N,12217.8446,W,1.97,126.85,061112,,,A*70
$GPRMC,194846.000,A,3748.7911,N,12217.8435,W,2.53,120.54,061112,,,A*72
$GPRMC,194847.000,A,3748.7909,N,12217.8427,W,2.43,122.37,061112,,,A*7F
$GPRMC,194848.000,A,3748.7907,N,12217.8421,W,1.75,110.30,061112,,,A*78
$GPRMC,194849.000,A,3748.7907,N,12217.8409,W,1.77,80.93,061112,,,A*40
$GPRMC,194850.000,A,3748.7903,N,12217.8400,W,1.65,120.20,061112,,,A*75
$GPRMC,194851.000,A,3748.7896,N,12217.8384,W,1.61,131.44,061112,,,A*74
$GPRMC,194852.000,A,3748.7889,N,12217.8372,W,1.89,124.62,061112,,,A*76
$GPRMC,194853.000,A,3748.7884,N,12217.8363,W,1.91,124.31,061112,,,A*75
$GPRMC,194854.000,A,3748.7879,N,12217.8355,W,1.55,138.63,061112,,,D*72
$GPRMC,194855.000,A,3748.7871,N,12217.8340,W,2.09,128.04,061112,,,D*75
$GPRMC,194856.000,A,3748.7867,N,12217.8336,W,2.46,122.83,061112,,,D*7E
$GPRMC,194857.000,A,3748.7863,N,12217.8328,W,1.98,124.10,061112,,,D*78
$GPRMC,194858.000,A,3748.7860,N,12217.8323,W,1.43,127.80,061112,,,D*73
$GPRMC,194859.000,A,3748.7861,N,12217.8325,W,0.52,179.35,061112,,,D*71
$GPRMC,194900.000,A,3748.7856,N,12217.8317,W,0.65,165.84,061112,,,D*7A
$GPRMC,194901.000,A,3748.7850,N,12217.8305,W,1.26,134.99,061112,,,D*70
$GPRMC,194902.000,A,3748.7846,N,12217.8296,W,1.23,130.52,061112,,,D*79
$GPRMC,194903.000,A,3748.7843,N,12217.8289,W,0.67,110.10,061112,,,D*76
$GPRMC,194904.000,A,3748.7835,N,12217.8279,W,1.03,120.20,061112,,,D*7C
$GPRMC,194905.000,A,3748.7827,N,12217.8267,W,2.32,101.31,061112,,,D*73
$GPRMC,194906.000,A,3748.7825,N,12217.8260,W,1.51,120.08,061112,,,D*7A
$GPRMC,194907.000,A,3748.7820,N,12217.8254,W,1.27,130.11,061112,,,D*71
$GPRMC,194908.000,A,3748.7817,N,12217.8250,W,0.66,145.62,061112,,,D*7C
$GPRMC,194909.000,A,3748.7815,N,12217.8245,W,0.19,140.94,061112,,,D*7F
$GPRMC,194910.000,A,3748.7811,N,12217.8240,W,0.51,171.25,061112,,,D*72
$GPRMC,194911.000,A,3748.7806,N,12217.8232,W,1.14,131.73,061112,,,D*77
$GPRMC,194912.000,A,3748.7801,N,12217.8221,W,1.91,125.21,061112,,,D*7E
$GPRMC,194913.000,A,3748.7797,N,12217.8220,W,1.48,131.84,061112,,,D*70
$GPRMC,194914.000,A,3748.7787,N,12217.8208,W,1.52,146.44,061112,,,D*7B
$GPRMC,194915.000,A,3748.7775,N,12217.8197,W,1.79,136.16,061112,,,D*7B
$GPRMC,194916.000,A,3748.7768,N,12217.8184,W,1.55,121.22,061112,,,D*79
$GPRMC,194917.000,A,3748.7763,N,12217.8171,W,1.28,110.26,061112,,,D*75
$GPRMC,194918.000,A,3748.7760,N,12217.8159,W,1.24,117.34,061112,,,D*7B
$GPRMC,194919.000,A,3748.7759,N,12217.8154,W,0.72,110.45,061112,,,D*7E
$GPRMC,194920.000,A,3748.7758,N,12217.8151,W,0.44,184.88,061112,,,D*79
$GPRMC,194921.000,A,3748.7754,N,12217.8143,W,1.04,139.85,061112,,,D*79
$GPRMC,194922.000,A,3748.7750,N,12217.8135,W,1.64,122.03,061112,,,D*7D
$GPRMC,194923.000,A,3748.7744,N,12217.8118,W,1.64,111.26,061112,,,D*71
$GPRMC,194924.000,A,3748.7742,N,12217.8114,W,1.05,121.84,061112,,,D*70
$GPRMC,194925.000,A,3748.7742,N,12217.8113,W,0.87,105.93,061112,,,D*7D
$GPRMC,194926.000,A,3748.7736,N,12217.8104,W,0.59,155.41,061112,,,D*72
$GPRMC,194927.000,A,3748.7732,N,12217.8095,W,1.64,125.66,061112,,,D*73
$GPRMC,194928.000,A,3748.7728,N,12217.8085,W,1.50,131.95,061112,,,D*78
$GPRMC,194929.000,A,3748.7722,N,12217.8072,W,1.36,131.39,061112,,,D*7D
$GPRMC,194930.000,A,3748.7716,N,12217.8059,W,1.61,139.31,061112,,,D*79
$GPRMC,194931.000,A,3748.7713,N,12217.8055,W,1.68,137.54,061112,,,D*75
$GPRMC,194932.000,A,3748.7709,N,12217.8044,W,1.98,123.72,061112,,,D*73
$GPRMC,194933.000,A,3748.7706,N,12217.8036,W,1.42,118.08,061112,,,D*7A
$GPRMC,194934.000,A,3748.7701,N,12217.8023,W,1.46,120.88,061112,,,D*79
$GPRMC,194935.000,A,3748.7695,N,12217.8008,W,2.40,125.62,061112,,,D*79
$GPRMC,194936.000,A,3748.7692,N,12217.8002,W,1.94,129.13,061112,,,D*77
$GPRMC,194937.000,A,3748.7694,N,12217.8006,W,0.27,152.27,061112,,,D*76
$GPRMC,194938.000,A,3748.7695,N,12217.8009,W,0.59,103.18,061112,,,D*76
$GPRMC,194939.000,A,3748.7695,N,12217.8008,W,1.25,128.20,061112,,,D*7E
$GPRMC,194940.000,A,3748.7691,N,12217.8002,W,1.38,138.33,061112,,,D*71
$GPRMC,194941.000,A,3748.7691,N,12217.8003,W,0.70,152.81,061112,,,D*79
$GPRMC,194942.000,A,3748.7686,N,12217.7995,W,1.50,137.92,061112,,,D*77
$GPRMC,194943.000,A,3748.7680,N,12217.7981,W,2.09,130.33,061112,,,D*76
$GPRMC,194944.000,A,3748.7674,N,12217.7969,W,2.46,130.32,061112,,,D*76
$GPRMC,194945.000,A,3748.7669,N,12217.7961,W,2.23,129.16,061112,,,D*7E
$GPRMC,194946.000,A,3748.7667,N,12217.7953,W,1.81,119.66,061112,,,D*7D
$GPRMC,194947.000,A,3748.7665,N,12217.7947,W,1.23,104.36,061112,,,D*7A
$GPRMC,194948.000,A,3748.7660,N,12217.7932,W,2.31,108.87,061112,,,D*74
$GPRMC,194949.000,A,3748.7653,N,12217.7914,W,2.51,118.05,061112,,,D*7C
$GPRMC,194950.000,A,3748.7648,N,12217.7903,W,2.17,118.76,061112,,,D*7E
$GPRMC,194951.000,A,3748.7646,N,12217.7891,W,1.87,117.45,061112,,,D*7E
$GPRMC,194952.000,A,3748.7643,N,12217.7879,W,1.47,130.28,061112,,,D*7C
$GPRMC,194953.000,A,3748.7642,N,12217.7866,W,1.46,123.62,061112,,,D*7F
$GPRMC,194954.000,A,3748.7640,N,12217.7856,W,0.96,147.22,061112,,,D*73
$GPRMC,194955.000,A,3748.7635,N,12217.7840,W,2.26,129.34,061112,,,D*71
$GPRMC,194956.000,A,3748.7627,N,12217.7818,W,3.21,120.00,061112,,,D*74
$GPRMC,194957.000,A,3748.7616,N,12217.7792,W,2.89,119.04,061112,,,D*77
$GPRMC,194958.000,A,3748.7610,N,12217.7782,W,2.17,121.99,061112,,,D*77
$GPRMC,194959.000,A,3748.7602,N,12217.7772,W,1.97,132.58,061112,,,A*7B
$GPRMC,195000.000,A,3748.7593,N,12217.7764,W,1.84,150.27,061112,,,A*7D
$GPRMC,195001.000,A,3748.7583,N,12217.7753,W,2.15,138.60,061112,,,A*7F
$GPRMC,195002.000,A,3748.7571,N,12217.7748,W,2.29,176.39,061112,,,A*72
$GPRMC,195003.000,A,3748.7560,N,12217.7743,W,1.33,167.40,061112,,,A*7E
$GPRMC,195004.000,A,3748.7549,N,12217.7739,W,0.98,153.70,061112,,,A*7B
$GPRMC,195005.000,A,3748.7553,N,12217.7749,W,0.58,227.08,061112,,,A*75
$GPRMC,195006.000,A,3748.7551,N,12217.7750,W,0.68,247.77,061112,,,A*71
$GPRMC,195007.000,A,3748.7552,N,12217.7756,W,1.28,256.42,061112,,,A*76
$GPRMC,195008.000,A,3748.7549,N,12217.7763,W,0.27,147.24,061112,,,A*78
$GPRMC,195009.000,A,3748.7547,N,12217.7771,W,0.28,317.20,061112,,,A*78
$GPRMC,195010.000,A,3748.7545,N,12217.7776,W,0.69,172.75,061112,,,A*71
$GPRMC,195011.000,A,3748.7536,N,12217.7775,W,1.24,170.13,061112,,,A*7D
$GPRMC,195012.000,A,3748.7529,N,12217.7766,W,1.54,138.47,061112,,,A*78
$GPRMC,195013.000,A,3748.7521,N,12217.7752,W,2.99,127.20,061112,,,D*7E
$GPRMC,195014.000,A,3748.7513,N,12217.7737,W,2.48,115.40,061112,,,D*70
$GPRMC,195015.000,A,3748.7503,N,12217.7713,W,2.74,114.62,061112,,,D*78
$GPRMC,195016.000,A,3748.7492,N,12217.7692,W,2.80,116.72,061112,,,D*72
$GPRMC,195017.000,A,3748.7479,N,12217.7665,W,3.11,117.49,061112,,,D*7E
$GPRMC,195018.000,A,3748.7474,N,12217.7655,W,3.48,115.97,061112,,,D*72
$GPRMC,195019.000,A,3748.7467,N,12217.7650,W,2.79,118.70,061112,,,D*73
$GPRMC,195020.000,A,3748.7465,N,12217.7659,W,1.37,155.03,061112,,,D*76
$GPRMC,195021.000,A,3748.7459,N,12217.7651,W,2.30,126.69,061112,,,D*7C
$GPRMC,195022.000,A,3748.7453,N,12217.7642,W,3.27,121.88,061112,,,D*78
$GPRMC,195023.000,A,3748.7444,N,12217.7629,W,2.94,121.23,061112,,,D*7A
$GPRMC,195024.000,A,3748.7439,N,12217.7625,W,1.87,116.90,061112,,,D*76
$GPRMC,195025.000,A,3748.7431,N,12217.7615,W,1.76,118.25,061112,,,D*72
$GPRMC,195026.000,A,3748.7427,N,12217.7619,W,2.16,145.24,061112,,,D*76
$GPRMC,195027.000,A,3748.7415,N,12217.7617,W,2.14,133.50,061112,,,D*78
$GPRMC,195028.000,A,3748.7406,N,12217.7608,W,2.01,129.59,061112,,,D*7D
$GPRMC,195029.000,A,3748.7399,N,12217.7599,W,2.70,126.34,061112,,,D*74
$GPRMC,195030.000,A,3748.7394,N,12217.7588,W,2.55,126.51,061112,,,D*75
$GPRMC,195031.000,A,3748.7393,N,12217.7585,W,2.54,124.96,061112,,,D*76
$GPRMC,195032.000,A,3748.7386,N,12217.7585,W,2.03,127.91,061112,,,D*77
$GPRMC,195033.000,A,3748.7377,N,12217.7569,W,2.90,110.82,061112,,,D*76
$GPRMC,195034.000,A,3748.7369,N,12217.7560,W,1.97,140.66,061112,,,D*7C
$GPRMC,195035.000,A,3748.7358,N,12217.7552,W,1.91,133.15,061112,,,D*78
$GPRMC,195036.000,A,3748.7354,N,12217.7536,W,2.15,120.27,061112,,,D*79
$GPRMC,195037.000,A,3748.7349,N,12217.7519,W,2.61,118.09,061112,,,D*7D
$GPRMC,195038.000,A,3748.7345,N,12217.7510,W,2.29,124.18,061112,,,D*74
$GPRMC,195039.000,A,3748.7343,N,12217.7499,W,2.67,116.55,061112,,,D*71
$GPRMC,195040.000,A,3748.7342,N,12217.7484,W,2.65,113.70,061112,,,D*72
$GPRMC,195041.000,A,3748.7336,N,12217.7467,W,2.49,114.81,061112,,,D*7A
$GPRMC,195042.000,A,3748.7330,N,12217.7453,W,2.28,111.02,061112,,,D*71
$GPRMC,195043.000,A,3748.7328,N,12217.7446,W,1.90,101.25,061112,,,D*79
$GPRMC,195044.000,A,3748.7327,N,12217.7440,W,1.98,112.34,061112,,,D*7D
$GPRMC,195045.000,A,3748.7329,N,12217.7445,W,1.75,120.97,061112,,,D*7C
$GPRMC,195046.000,A,3748.7326,N,12217.7441,W,1.30,137.14,061112,,,D*78
$GPRMC,195047.000,A,3748.7324,N,12217.7438,W,0.71,111.77,061112,,,D*70
$GPRMC,195048.000,A,3748.7321,N,12217.7431,W,1.19,110.48,061112,,,D*71
$GPRMC,195049.000,A,3748.7319,N,12217.7416,W,1.18,133.85,061112,,,D*7F
$GPRMC,195050.000,A,3748.7314,N,12217.7394,W,2.75,123.57,061112,,,D*71
$GPRMC,195051.000,A,3748.7313,N,12217.7384,W,2.08,113.00,061112,,,D*7D
$GPRMC,195052.000,A,3748.7317,N,12217.7387,W,1.51,128.71,061112,,,D*78
$GPRMC,195053.000,A,3748.7320,N,12217.7387,W,0.84,128.94,061112,,,D*7F
$GPRMC,195054.000,A,3748.7324,N,12217.7383,W,0.24,143.95,061112,,,D*7E
$GPRMC,195055.000,A,3748.7325,N,12217.7373,W,0.52,130.98,061112,,,D*79
$GPRMC,195056.000,A,3748.7325,N,12217.7368,W,0.69,107.56,061112,,,D*7E
$GPRMC,195057.000,A,3748.7328,N,12217.7355,W,1.53,89.61,061112,,,D*47
$GPRMC,195058.000,A,3748.7328,N,12217.7345,W,1.69,128.46,061112,,,D*7F
$GPRMC,195059.000,A,3748.7329,N,12217.7342,W,1.34,142.69,061112,,,D*71
$GPRMC,195100.000,A,3748.7325,N,12217.7337,W,1.08,117.27,061112,,,D*77
$GPRMC,195101.000,A,3748.7318,N,12217.7321,W,2.72,120.75,061112,,,D*72
$GPRMC,195102.000,A,3748.7311,N,12217.7308,W,2.85,126.06,061112,,,D*79
$GPRMC,195103.000,A,3748.7306,N,12217.7290,W,3.22,114.97,061112,,,D*7B
$GPRMC,195104.000,A,3748.7304,N,12217.7280,W,2.84,118.89,061112,,,D*71
$GPRMC,195105.000,A,3748.7299,N,12217.7264,W,3.69,130.22,061112,,,D*76
$GPRMC,195106.000,A,3748.7302,N,12217.7269,W,2.02,133.73,061112,,,D*70
$GPRMC,195107.000,A,3748.7298,N,12217.7261,W,1.70,114.81,061112,,,D*75
$GPRMC,195108.000,A,3748.7292,N,12217.7244,W,1.75,116.36,061112,,,D*7C
$GPRMC,195109.000,A,3748.7285,N,12217.7229,W,1.76,117.48,061112,,,D*7B
$GPRMC,195110.000,A,3748.7280,N,12217.7215,W,1.48,129.02,061112,,,D*77
$GPRMC,195111.000,A,3748.7274,N,12217.7199,W,1.59,117.54,061112,,,D*74
$GPRMC,195112.000,A,3748.7272,N,12217.7193,W,1.18,137.99,061112,,,D*7D
$GPRMC,195113.000,A,3748.7274,N,12217.7191,W,1.33,136.28,061112,,,D*7A
$GPRMC,195114.000,A,3748.7277,N,12217.7184,W,1.03,126.26,061112,,,D*76
$GPRMC,195115.000,A,3748.7276,N,12217.7175,W,1.59,156.89,061112,,,D*75
$GPRMC,195116.000,A,3748.7279,N,12217.7178,W,1.35,147.98,061112,,,D*7E
$GPRMC,195117.000,A,3748.7275,N,12217.7168,W,1.29,142.70,061112,,,D*7C
$GPRMC,195118.000,A,3748.7269,N,12217.7157,W,1.27,133.94,061112,,,D*70
$GPRMC,195119.000,A,3748.7265,N,12217.7150,W,0.78,117.01,061112,,,D*7B
$GPRMC,195120.000,A,3748.7264,N,12217.7138,W,0.96,100.12,061112,,,D*7A
$GPRMC,195121.000,A,3748.7260,N,12217.7129,W,0.50,100.03,061112,,,D*75
$GPRMC,195122.000,A,3748.7256,N,12217.7118,W,0.47,139.56,061112,,,D*7D
$GPRMC,195123.000,A,3748.7249,N,12217.7112,W,0.71,190.53,061112,,,D*7B
$GPRMC,195124.000,A,3748.7242,N,12217.7101,W,0.35,168.96,061112,,,D*7B
$GPRMC,195125.000,A,3748.7242,N,12217.7088,W,1.20,105.82,061112,,,D*71
$GPRMC,195126.000,A,3748.7240,N,12217.7085,W,1.96,140.75,061112,,,D*79
$GPRMC,195127.000,A,3748.7243,N,12217.7089,W,1.04,151.58,061112,,,D*73
$GPRMC,195128.000,A,3748.7243,N,12217.7079,W,1.63,120.65,061112,,,D*7A
$GPRMC,195129.000,A,3748.7245,N,12217.7067,W,1.70,96.18,061112,,,D*46
$GPRMC,195130.000,A,3748.7253,N,12217.7061,W,2.25,73.41,061112,,,A*4E
$GPRMC,195131.000,A,3748.7265,N,12217.7060,W,2.18,55.61,061112,,,A*43
$GPRMC,195132.000,A,3748.7274,N,12217.7063,W,1.69,57.55,061112,,,A*43
$GPRMC,195133.000,A,3748.7286,N,12217.7071,W,1.48,46.04,061112,,,A*4B
$GPRMC,195134.000,A,3748.7299,N,12217.7080,W,1.19,17.48,061112,,,A*44
$GPRMC,195135.000,A,3748.7315,N,12217.7085,W,1.95,24.28,061112,,,A*47
$GPRMC,195136.000,A,3748.7330,N,12217.7083,W,2.32,41.54,061112,,,A*43
$GPRMC,195137.000,A,3748.7347,N,12217.7077,W,2.57,14.97,061112,,,A*45
$GPRMC,195138.000,A,3748.7363,N,12217.7079,W,2.58,10.89,061112,,,A*46
$GPRMC,195139.000,A,3748.7374,N,12217.7081,W,1.86,34.83,061112,,,A*4A
$GPRMC,195140.000,A,3748.7388,N,12217.7079,W,1.95,59.24,061112,,,A*44
$GPRMC,195141.000,A,3748.7399,N,12217.7077,W,1.72,55.21,061112,,,A*4B
$GPRMC,195142.000,A,3748.7404,N,12217.7077,W,2.37,39.83,061112,,,A*4B
$GPRMC,195143.000,A,3748.7407,N,12217.7077,W,1.81,47.99,061112,,,A*45
$GPRMC,195144.000,A,3748.7407,N,12217.7076,W,1.57,49.79,061112,,,A*48
$GPRMC,195145.000,A,3748.7409,N,12217.7068,W,1.58,62.07,061112,,,A*47
$GPRMC,195146.000,A,3748.7417,N,12217.7062,W,1.41,59.09,061112,,,A*4F
$GPRMC,195147.000,A,3748.7418,N,12217.7058,W,1.38,69.52,061112,,,A*4B
$GPRMC,195148.000,A,3748.7427,N,12217.7053,W,1.26,45.72,061112,,,A*40
$GPRMC,195149.000,A,3748.7433,N,12217.7042,W,1.46,51.20,061112,,,A*40
$GPRMC,195150.000,A,3748.7439,N,12217.7034,W,1.92,49.23,061112,,,A*40
$GPRMC,195151.000,A,3748.7445,N,12217.7024,W,2.01,63.28,061112,,,A*41
$GPRMC,195152.000,A,3748.7447,N,12217.7022,W,1.84,49.13,061112,,,A*48
$GPRMC,195153.000,A,3748.7454,N,12217.7019,W,1.89,39.23,061112,,,A*4A
$GPRMC,195154.000,A,3748.7459,N,12217.7015,W,1.39,52.86,061112,,,A*45
$GPRMC,195155.000,A,3748.7463,N,12217.7017,W,1.31,75.32,061112,,,A*4D
$GPRMC,195156.000,A,3748.7473,N,12217.7019,W,1.64,55.37,061112,,,A*46
$GPRMC,195157.000,A,3748.7482,N,12217.7012,W,1.34,55.17,061112,,,A*45
$GPRMC,195158.000,A,3748.7493,N,12217.7006,W,1.82,59.23,061112,,,A*49
$GPRMC,195159.000,A,3748.7497,N,12217.7002,W,1.69,74.60,061112,,,A*45
$GPRMC,195200.000,A,3748.7500,N,12217.6997,W,1.69,79.34,061112,,,A*4D
$GPRMC,195201.000,A,3748.7501,N,12217.6985,W,1.96,93.76,061112,,,A*4C
$GPRMC,195202.000,A,3748.7502,N,12217.6980,W,1.68,92.95,061112,,,A*44
$GPRMC,195203.000,A,3748.7505,N,12217.6976,W,1.54,94.80,061112,,,A*46
$GPRMC,195204.000,A,3748.7510,N,12217.6975,W,1.59,70.05,061112,,,A*4C
$GPRMC,195205.000,A,3748.7513,N,12217.6972,W,1.40,78.59,061112,,,A*40
$GPRMC,195206.000,A,3748.7521,N,12217.6968,W,1.71,48.22,061112,,,A*44
$GPRMC,195207.000,A,3748.7530,N,12217.6965,W,1.75,45.42,061112,,,A*47
$GPRMC,195208.000,A,3748.7548,N,12217.6956,W,1.66,53.60,061112,,,A*42
$GPRMC,195209.000,A,3748.7560,N,12217.6948,W,2.11,47.37,061112,,,A*42
$GPRMC,195210.000,A,3748.7572,N,12217.6944,W,2.05,51.62,061112,,,A*47
$GPRMC,195211.000,A,3748.7577,N,12217.6942,W,1.84,68.15,061112,,,A*45
$GPRMC,195212.000,A,3748.7583,N,12217.6944,W,1.62,59.39,061112,,,A*4F
$GPRMC,195213.000,A,3748.7585,N,12217.6943,W,1.34,94.65,061112,,,A*44
$GPRMC,195214.000,A,3748.7590,N,12217.6939,W,1.38,74.15,061112,,,A*4F
$GPRMC,195215.000,A,3748.7593,N,12217.6938,W,1.03,82.06,061112,,,A*4F
$GPRMC,195216.000,A,3748.7598,N,12217.6938,W,1.51,36.35,061112,,,A*4F
$GPRMC,195217.000,A,3748.7603,N,12217.6936,W,1.66,62.28,061112,,,A*48
$GPRMC,195218.000,A,3748.7609,N,12217.6932,W,1.87,65.32,061112,,,A*4A
$GPRMC,195219.000,A,3748.7616,N,12217.6930,W,1.98,47.94,061112,,,A*45
$GPRMC,195220.000,A,3748.7623,N,12217.6928,W,1.76,49.91,061112,,,A*4B
$GPRMC,195221.000,A,3748.7627,N,12217.6922,W,1.53,68.40,061112,,,A*4C
$GPRMC,195222.000,A,3748.7631,N,12217.6918,W,1.17,90.52,061112,,,A*45
$GPRMC,195223.000,A,3748.7637,N,12217.6918,W,1.01,104.16,061112,,,A*79
$GPRMC,195224.000,A,3748.7640,N,12217.6917,W,1.21,91.68,061112,,,A*47
$GPRMC,195225.000,A,3748.7644,N,12217.6913,W,0.82,43.87,061112,,,A*40
$GPRMC,195226.000,A,3748.7648,N,12217.6907,W,0.78,69.75,061112,,,A*4A
$GPRMC,195227.000,A,3748.7652,N,12217.6902,W,1.03,60.67,061112,,,A*42
$GPRMC,195228.000,A,3748.7654,N,12217.6895,W,1.16,97.35,061112,,,A*4F
$GPRMC,195229.000,A,3748.7656,N,12217.6887,W,1.26,106.54,061112,,,A*72
$GPRMC,195230.000,A,3748.7661,N,12217.6883,W,1.00,64.39,061112,,,A*40
$GPRMC,195231.000,A,3748.7666,N,12217.6877,W,1.14,89.74,061112,,,A*42
$GPRMC,195232.000,A,3748.7675,N,12217.6870,W,1.08,75.87,061112,,,A*46
$GPRMC,195233.000,A,3748.7683,N,12217.6864,W,1.62,27.28,061112,,,A*45
$GPRMC,195234.000,A,3748.7688,N,12217.6860,W,1.47,69.86,061112,,,A*44
$GPRMC,195235.000,A,3748.7691,N,12217.6854,W,1.32,87.01,061112,,,A*47
$GPRMC,195236.000,A,3748.7694,N,12217.6850,W,1.18,91.84,061112,,,A*47
$GPRMC,195237.000,A,3748.7699,N,12217.6845,W,1.38,60.28,061112,,,A*45
$GPRMC,195238.000,A,3748.7707,N,12217.6840,W,1.75,58.23,061112,,,A*40
$GPRMC,195239.000,A,3748.7712,N,12217.6829,W,2.14,87.55,061112,,,A*4D
$GPRMC,195240.000,A,3748.7714,N,12217.6816,W,2.44,90.91,061112,,,A*42
$GPRMC,195241.000,A,3748.7718,N,12217.6805,W,1.75,101.85,061112,,,A*70
$GPRMC,195242.000,A,3748.7726,N,12217.6814,W,0.70,58.36,061112,,,A*4F
$GPRMC,195243.000,A,3748.7731,N,12217.6815,W,1.11,92.32,061112,,,A*4D
$GPRMC,195244.000,A,3748.7736,N,12217.6813,W,1.19,50.42,061112,,,A*4A
$GPRMC,195245.000,A,3748.7742,N,12217.6814,W,0.94,57.36,061112,,,A*4F
$GPRMC,195246.000,A,3748.7747,N,12217.6807,W,1.11,61.34,061112,,,A*40
$GPRMC,195247.000,A,3748.7753,N,12217.6800,W,1.05,67.80,061112,,,A*4F
$GPRMC,195248.000,A,3748.7782,N,12217.6779,W,1.51,63.26,061112,,,A*44
$GPRMC,195249.000,A,3748.7803,N,12217.6765,W,1.89,52.19,061112,,,A*45
$GPRMC,195250.000,A,3748.7810,N,12217.6759,W,1.53,49.49,061112,,,A*48
$GPRMC,195251.000,A,3748.7831,N,12217.6745,W,1.97,43.59,061112,,,A*44
$GPRMC,195252.000,A,3748.7844,N,12217.6735,W,2.17,48.88,061112,,,A*4E
$GPRMC,195253.000,A,3748.7854,N,12217.6726,W,2.34,52.31,061112,,,A*44
$GPRMC,195254.000,A,3748.7858,N,12217.6721,W,2.15,42.69,061112,,,A*47
$GPRMC,195255.000,A,3748.7866,N,12217.6717,W,2.20,34.96,061112,,,A*49
$GPRMC,195256.000,A,3748.7872,N,12217.6713,W,2.29,44.60,061112,,,A*4C
$GPRMC,195257.000,A,3748.7885,N,12217.6703,W,2.60,52.40,061112,,,A*4C
$GPRMC,195258.000,A,3748.7899,N,12217.6694,W,2.73,44.50,061112,,,A*45
$GPRMC,195259.000,A,3748.7908,N,12217.6689,W,2.35,42.76,061112,,,A*41
$GPRMC,195300.000,A,3748.7916,N,12217.6684,W,2.48,48.34,061112,,,A*48
$GPRMC,195301.000,A,3748.7927,N,12217.6675,W,2.66,42.40,061112,,,A*40
$GPRMC,195302.000,A,3748.7939,N,12217.6664,W,2.89,46.46,061112,,,A*4F
$GPRMC,195303.000,A,3748.7954,N,12217.6652,W,2.84,40.68,061112,,,A*47
$GPRMC,195304.000,A,3748.7968,N,12217.6644,W,3.11,33.54,061112,,,A*4E
$GPRMC,195305.000,A,3748.7970,N,12217.6642,W,2.08,45.43,061112,,,A*4E
$GPRMC,195306.000,A,3748.7973,N,12217.6644,W,2.22,46.25,061112,,,A*43
$GPRMC,195307.000,A,3748.7979,N,12217.6636,W,2.43,60.39,061112,,,A*43
$GPRMC,195308.000,A,3748.7986,N,12217.6623,W,3.03,48.49,061112,,,A*40
$GPRMC,195309.000,A,3748.7984,N,12217.6609,W,2.58,71.91,061112,,,A*4B
$GPRMC,195310.000,A,3748.7981,N,12217.6593,W,2.88,71.31,061112,,,A*41
$GPRMC,195311.000,A,3748.7981,N,12217.6574,W,2.80,70.01,061112,,,A*43
$GPRMC,195312.000,A,3748.7985,N,12217.6563,W,2.24,52.34,061112,,,A*4A
$GPRMC,195313.000,A,3748.7988,N,12217.6561,W,2.13,45.31,061112,,,A*43
$GPRMC,195314.000,A,3748.7998,N,12217.6557,W,2.61,14.63,061112,,,A*46
$GPRMC,195315.000,A,3748.8010,N,12217.6553,W,2.91,11.62,061112,,,A*4E
$GPRMC,195316.000,A,3748.8021,N,12217.6550,W,2.64,27.07,061112,,,A*40
$GPRMC,195317.000,A,3748.8035,N,12217.6551,W,2.90,29.44,061112,,,A*47
$GPRMC,195318.000,A,3748.8049,N,12217.6544,W,3.20,43.32,061112,,,A*40
$GPRMC,195319.000,A,3748.8059,N,12217.6536,W,3.40,41.57,061112,,,A*42
$GPRMC,195320.000,A,3748.8070,N,12217.6529,W,3.22,38.49,061112,,,A*48
$GPRMC,195321.000,A,3748.8082,N,12217.6519,W,3.50,35.82,061112,,,A*48
$GPRMC,195322.000,A,3748.8095,N,12217.6511,W,3.47,34.72,061112,,,A*4D
$GPRMC,195323.000,A,3748.8105,N,12217.6504,W,3.36,31.61,061112,,,A*41
$GPRMC,195324.000,A,3748.8114,N,12217.6498,W,3.22,28.51,061112,,,A*4C
$GPRMC,195325.000,A,3748.8117,N,12217.6492,W,2.74,45.00,061112,,,A*49
$GPRMC,195326.000,A,3748.8129,N,12217.6486,W,2.93,35.09,061112,,,A*45
$GPRMC,195327.000,A,3748.8133,N,12217.6482,W,2.39,37.37,061112,,,A*44
$GPRMC,195328.000,A,3748.8131,N,12217.6481,W,2.32,48.35,061112,,,A*4B
$GPRMC,195329.000,A,3748.8133,N,12217.6480,W,2.28,51.79,061112,,,A*42
$GPRMC,195330.000,A,3748.8132,N,12217.6477,W,2.03,60.20,061112,,,A*44
$GPRMC,195331.000,A,3748.8132,N,12217.6474,W,2.18,42.33,061112,,,A*4E
$GPRMC,195332.000,A,3748.8141,N,12217.6470,W,2.49,35.04,061112,,,A*4D
$GPRMC,195333.000,A,3748.8145,N,12217.6470,W,1.79,50.83,061112,,,A*44
$GPRMC,195334.000,A,3748.8150,N,12217.6467,W,1.74,49.22,061112,,,A*4F
$GPRMC,195335.000,A,3748.8159,N,12217.6462,W,1.91,49.58,061112,,,A*44
$GPRMC,195336.000,A,3748.8163,N,12217.6459,W,1.67,59.11,061112,,,A*43
$GPRMC,195337.000,A,3748.8164,N,12217.6457,W,1.65,62.49,061112,,,A*4C
$GPRMC,195338.000,A,3748.8168,N,12217.6450,W,1.78,71.02,061112,,,A*49
$GPRMC,195339.000,A,3748.8168,N,12217.6444,W,1.43,80.24,061112,,,A*4F
$GPRMC,195340.000,A,3748.8169,N,12217.6443,W,1.31,70.23,061112,,,A*4A
$GPRMC,195341.000,A,3748.8173,N,12217.6440,W,1.82,54.51,061112,,,A*48
$GPRMC,195342.000,A,3748.8179,N,12217.6435,W,1.74,59.78,061112,,,A*4C
$GPRMC,195343.000,A,3748.8182,N,12217.6434,W,1.47,54.71,061112,,,A*4C
$GPRMC,195344.000,A,3748.8188,N,12217.6431,W,1.71,43.23,061112,,,A*40
$GPRMC,195345.000,A,3748.8196,N,12217.6424,W,2.19,35.00,061112,,,A*47
$GPRMC,195346.000,A,3748.8207,N,12217.6416,W,2.51,33.43,061112,,,A*43
$GPRMC,195347.000,A,3748.8218,N,12217.6414,W,2.23,41.93,061112,,,A*43
$GPRMC,195348.000,A,3748.8229,N,12217.6410,W,2.38,40.92,061112,,,A*40
$GPRMC,195349.000,A,3748.8239,N,12217.6405,W,2.25,39.19,061112,,,A*45
$GPRMC,195350.000,A,3748.8247,N,12217.6399,W,2.15,49.34,061112,,,A*4D
$GPRMC,195351.000,A,3748.8258,N,12217.6393,W,2.12,55.10,061112,,,A*44
$GPRMC,195352.000,A,3748.8268,N,12217.6386,W,2.33,43.72,061112,,,A*40
$GPRMC,195353.000,A,3748.8278,N,12217.6381,W,2.21,36.89,061112,,,A*42
$GPRMC,195354.000,A,3748.8285,N,12217.6375,W,2.22,48.16,061112,,,A*40
$GPRMC,195355.000,A,3748.8297,N,12217.6367,W,2.79,37.86,061112,,,A*4E
$GPRMC,195356.000,A,3748.8308,N,12217.6354,W,2.87,44.20,061112,,,A*43
$GPRMC,195357.000,A,3748.8314,N,12217.6342,W,2.64,41.49,061112,,,A*4F
$GPRMC,195358.000,A,3748.8313,N,12217.6340,W,2.42,37.91,061112,,,A*45
$GPRMC,195359.000,A,3748.8316,N,12217.6339,W,2.52,36.30,061112,,,A*44
$GPRMC,195400.000,A,3748.8323,N,12217.6334,W,2.88,31.02,061112,,,A*45
$GPRMC,195401.000,A,3748.8328,N,12217.6332,W,2.50,37.86,061112,,,A*46
$GPRMC,195402.000,A,3748.8336,N,12217.6327,W,2.94,32.76,061112,,,A*4C
$GPRMC,195403.000,A,3748.8339,N,12217.6324,W,2.41,41.20,061112,,,A*4E
$GPRMC,195404.000,A,3748.8347,N,12217.6320,W,2.25,44.04,061112,,,A*45
$GPRMC,195405.000,A,3748.8357,N,12217.6313,W,2.29,49.13,061112,,,A*42
$GPRMC,195406.000,A,3748.8364,N,12217.6310,W,2.55,37.61,061112,,,A*45
$GPRMC,195407.000,A,3748.8372,N,12217.6310,W,2.17,39.24,061112,,,A*4A
$GPRMC,195408.000,A,3748.8381,N,12217.6303,W,2.07,54.74,061112,,,A*44
$GPRMC,195409.000,A,3748.8386,N,12217.6295,W,2.05,55.21,061112,,,A*4F
$GPRMC,195410.000,A,3748.8389,N,12217.6288,W,1.87,61.77,061112,,,A*49
$GPRMC,195411.000,A,3748.8394,N,12217.6282,W,1.70,63.07,061112,,,A*43
$GPRMC,195412.000,A,3748.8402,N,12217.6276,W,1.52,62.92,061112,,,A*4E
$GPRMC,195413.000,A,3748.8410,N,12217.6267,W,1.79,61.62,061112,,,A*49
$GPRMC,195414.000,A,3748.8417,N,12217.6259,W,1.83,69.12,061112,,,A*4E
$GPRMC,195415.000,A,3748.8425,N,12217.6252,W,2.01,63.58,061112,,,A*48
$GPRMC,195416.000,A,3748.8427,N,12217.6243,W,2.12,71.00,061112,,,A*45
$GPRMC,195417.000,A,3748.8423,N,12217.6232,W,1.95,107.74,061112,,,A*79
$GPRMC,195418.000,A,3748.8421,N,12217.6223,W,1.94,119.51,061112,,,A*7D
$GPRMC,195419.000,A,3748.8416,N,12217.6213,W,2.22,126.15,061112,,,A*79
$GPRMC,195420.000,A,3748.8412,N,12217.6205,W,2.07,126.86,061112,,,A*7D
$GPRMC,195421.000,A,3748.8409,N,12217.6195,W,1.84,112.65,061112,,,A*7E
$GPRMC,195422.000,A,3748.8407,N,12217.6181,W,1.48,118.98,061112,,,A*7E
$GPRMC,195423.000,A,3748.8410,N,12217.6166,W,0.79,120.23,061112,,,A*78
$GPRMC,195424.000,A,3748.8407,N,12217.6159,W,0.78,169.90,061112,,,A*71
$GPRMC,195425.000,A,3748.8400,N,12217.6145,W,1.05,169.84,061112,,,A*74
$GPRMC,195426.000,A,3748.8393,N,12217.6135,W,1.27,170.47,061112,,,A*7A
$GPRMC,195427.000,A,3748.8396,N,12217.6115,W,1.06,115.33,061112,,,A*7F
$GPRMC,195428.000,A,3748.8406,N,12217.6096,W,1.28,120.09,061112,,,A*77
$GPRMC,195429.000,A,3748.8408,N,12217.6081,W,1.70,118.08,061112,,,A*79
$GPRMC,195430.000,A,3748.8406,N,12217.6067,W,1.68,126.57,061112,,,A*79
$GPRMC,195431.000,A,3748.8407,N,12217.6053,W,1.36,137.62,061112,,,A*73
$GPRMC,195432.000,A,3748.8411,N,12217.6035,W,0.46,108.25,061112,,,A*7E
$GPRMC,195433.000,A,3748.8411,N,12217.6023,W,0.49,137.96,061112,,,A*73
$GPRMC,195434.000,A,3748.8400,N,12217.6018,W,0.92,169.85,061112,,,A*73
$GPRMC,195435.000,A,3748.8384,N,12217.6006,W,1.37,146.09,061112,,,A*71
$GPRMC,195436.000,A,3748.8374,N,12217.6000,W,2.31,134.12,061112,,,A*71
$GPRMC,195437.000,A,3748.8369,N,12217.5978,W,2.29,137.64,061112,,,A*72
$GPRMC,195438.000,A,3748.8365,N,12217.5968,W,1.70,132.01,061112,,,A*79
$GPRMC,195439.000,A,3748.8359,N,12217.5955,W,1.34,143.41,061112,,,A*7B
$GPRMC,195440.000,A,3748.8346,N,12217.5944,W,1.54,156.87,061112,,,A*73
$GPRMC,195441.000,A,3748.8336,N,12217.5939,W,1.58,154.67,061112,,,A*7F
$GPRMC,195442.000,A,3748.8321,N,12217.5933,W,2.39,136.01,061112,,,A*70
$GPRMC,195443.000,A,3748.8307,N,12217.5926,W,2.04,144.94,061112,,,A*76
$GPRMC,195444.000,A,3748.8297,N,12217.5922,W,2.02,147.02,061112,,,A*77
$GPRMC,195445.000,A,3748.8290,N,12217.5918,W,2.05,137.20,061112,,,A*78
$GPRMC,195446.000,A,3748.8287,N,12217.5917,W,2.04,133.51,061112,,,A*71
$GPRMC,195447.000,A,3748.8281,N,12217.5910,W,1.57,136.00,061112,,,A*75
$GPRMC,195448.000,A,3748.8281,N,12217.5913,W,0.52,142.44,061112,,,A*7E
$GPRMC,195449.000,A,3748.8280,N,12217.5920,W,1.19,232.33,061112,,,A*74
$GPRMC,195450.000,A,3748.8274,N,12217.5914,W,0.91,173.13,061112,,,A*75
$GPRMC,195451.000,A,3748.8272,N,12217.5911,W,1.13,168.97,061112,,,A*7A
$GPRMC,195452.000,A,3748.8268,N,12217.5904,W,0.82,187.95,061112,,,A*7C
$GPRMC,195453.000,A,3748.8261,N,12217.5897,W,0.89,152.41,061112,,,A*75
$GPRMC,195454.000,A,3748.8254,N,12217.5890,W,1.11,169.39,061112,,,A*74
$GPRMC,195455.000,A,3748.8249,N,12217.5884,W,0.88,180.13,061112,,,A*72
$GPRMC,195456.000,A,3748.8245,N,12217.5877,W,1.02,171.14,061112,,,A*7B
$GPRMC,195457.000,A,3748.8236,N,12217.5867,W,0.85,161.55,061112,,,A*75
$GPRMC,195458.000,A,3748.8229,N,12217.5866,W,0.93,199.47,061112,,,A*76
$GPRMC,195459.000,A,3748.8221,N,12217.5854,W,1.85,139.62,061112,,,A*75
$GPRMC,195500.000,A,3748.8215,N,12217.5843,W,1.86,142.20,061112,,,A*70
$GPRMC,195501.000,A,3748.8211,N,12217.5835,W,1.40,140.56,061112,,,A*7D
$GPRMC,195502.000,A,3748.8207,N,12217.5827,W,1.72,170.74,061112,,,A*78
$GPRMC,195503.000,A,3748.8198,N,12217.5817,W,1.08,190.09,061112,,,A*76
$GPRMC,195504.000,A,3748.8191,N,12217.5805,W,1.21,172.97,061112,,,A*7B
$GPRMC,195505.000,A,3748.8182,N,12217.5802,W,1.23,182.84,061112,,,A*70
$GPRMC,195506.000,A,3748.8178,N,12217.5797,W,0.79,210.73,061112,,,A*7B
$GPRMC,195507.000,A,3748.8171,N,12217.5788,W,1.28,157.26,061112,,,A*78
$GPRMC,195508.000,A,3748.8167,N,12217.5778,W,1.10,161.53,061112,,,A*73
$GPRMC,195509.000,A,3748.8165,N,12217.5774,W,1.15,173.83,061112,,,A*77
$GPRMC,195510.000,A,3748.8165,N,12217.5768,W,1.26,141.49,061112,,,A*75
$GPRMC,195511.000,A,3748.8162,N,12217.5754,W,1.24,146.51,061112,,,A*70
$GPRMC,195512.000,A,3748.8160,N,12217.5744,W,1.23,145.32,061112,,,A*71
$GPRMC,195513.000,A,3748.8159,N,12217.5738,W,1.15,153.95,061112,,,A*7E
$GPRMC,195514.000,A,3748.8158,N,12217.5721,W,2.20,124.41,061112,,,A*7C
$GPRMC,195515.000,A,3748.8159,N,12217.5723,W,1.36,137.39,061112,,,A*77
$GPRMC,195516.000,A,3748.8157,N,12217.5720,W,1.17,131.35,061112,,,A*70
$GPRMC,195517.000,A,3748.8155,N,12217.5720,W,1.63,142.21,061112,,,A*71
$GPRMC,195518.000,A,3748.8149,N,12217.5712,W,1.35,141.46,061112,,,A*73
$GPRMC,195519.000,A,3748.8146,N,12217.5699,W,0.94,102.32,061112,,,A*71
$GPRMC,195520.000,A,3748.8142,N,12217.5681,W,1.52,118.15,061112,,,A*73
$GPRMC,195521.000,A,3748.8138,N,12217.5670,W,1.20,135.83,061112,,,A*74
$GPRMC,195522.000,A,3748.8133,N,12217.5658,W,1.28,138.99,061112,,,A*78
$GPRMC,195523.000,A,3748.8129,N,12217.5647,W,1.33,134.36,061112,,,A*7F
$GPRMC,195524.000,A,3748.8128,N,12217.5638,W,1.15,161.31,061112,,,A*72
$GPRMC,195525.000,A,3748.8123,N,12217.5630,W,1.15,158.22,061112,,,A*78
$GPRMC,195526.000,A,3748.8123,N,12217.5623,W,0.66,159.21,061112,,,A*7E
$GPRMC,195527.000,A,3748.8119,N,12217.5618,W,1.64,144.66,061112,,,A*72
$GPRMC,195528.000,A,3748.8114,N,12217.5605,W,1.68,118.33,061112,,,A*79
$GPRMC,195529.000,A,3748.8113,N,12217.5595,W,1.51,114.28,061112,,,A*79
$GPRMC,195530.000,A,3748.8106,N,12217.5583,W,1.61,133.30,061112,,,A*7D
$GPRMC,195531.000,A,3748.8099,N,12217.5575,W,1.49,141.05,061112,,,A*7B
$GPRMC,195532.000,A,3748.8095,N,12217.5568,W,1.27,127.72,061112,,,A*70
$GPRMC,195533.000,A,3748.8092,N,12217.5559,W,1.87,116.82,061112,,,A*73
$GPRMC,195534.000,A,3748.8092,N,12217.5555,W,0.80,126.02,061112,,,A*75
$GPRMC,195535.000,A,3748.8088,N,12217.5552,W,0.96,129.07,061112,,,A*75
$GPRMC,195536.000,A,3748.8081,N,12217.5545,W,1.45,140.84,061112,,,A*72
$GPRMC,195537.000,A,3748.8078,N,12217.5537,W,0.76,110.49,061112,,,A*75
$GPRMC,195538.000,A,3748.8074,N,12217.5532,W,1.05,133.31,061112,,,A*78
$GPRMC,195539.000,A,3748.8073,N,12217.5524,W,1.16,112.03,061112,,,A*79
$GPRMC,195540.000,A,3748.8074,N,12217.5515,W,0.93,123.57,061112,,,A*7D
$GPRMC,195541.000,A,3748.8072,N,12217.5502,W,1.55,117.97,061112,,,A*7C
$GPRMC,195542.000,A,3748.8069,N,12217.5492,W,2.34,122.83,061112,,,A*7A
$GPRMC,195543.000,A,3748.8064,N,12217.5484,W,2.32,149.99,061112,,,A*71
$GPRMC,195544.000,A,3748.8051,N,12217.5478,W,2.97,146.62,061112,,,A*77
$GPRMC,195545.000,A,3748.8034,N,12217.5462,W,2.46,145.67,061112,,,A*74
$GPRMC,195546.000,A,3748.8025,N,12217.5470,W,0.91,156.72,061112,,,A*7A
$GPRMC,195547.000,A,3748.8017,N,12217.5479,W,0.77,243.94,061112,,,A*74
$GPRMC,195548.000,A,3748.8007,N,12217.5488,W,1.10,246.06,061112,,,A*7A
$GPRMC,195549.000,A,3748.7998,N,12217.5496,W,0.77,206.71,061112,,,A*70
$GPRMC,195550.000,A,3748.7987,N,12217.5489,W,0.39,172.80,061112,,,A*7C
$GPRMC,195551.000,A,3748.7978,N,12217.5481,W,0.52,182.98,061112,,,A*7E
$GPRMC,195552.000,A,3748.7972,N,12217.5478,W,0.25,289.47,061112,,,A*7B
$GPRMC,195553.000,A,3748.7964,N,12217.5480,W,0.64,269.18,061112,,,A*7B
$GPRMC,195554.000,A,3748.7958,N,12217.5488,W,2.27,258.89,061112,,,A*74
$GPRMC,195555.000,A,3748.7953,N,12217.5505,W,3.73,261.19,061112,,,A*79
$GPRMC,195556.000,A,3748.7947,N,12217.5520,W,3.48,267.21,061112,,,A*7D
$GPRMC,195557.000,A,3748.7940,N,12217.5525,W,2.29,259.84,061112,,,A*7A
$GPRMC,195558.000,A,3748.7932,N,12217.5529,W,2.07,239.88,061112,,,A*7A
$GPRMC,195559.000,A,3748.7921,N,12217.5534,W,2.40,248.86,061112,,,A*7E
$GPRMC,195600.000,A,3748.7913,N,12217.5541,W,2.42,227.58,061112,,,A*7A
$GPRMC,195601.000,A,3748.7901,N,12217.5551,W,2.21,234.24,061112,,,A*75
$GPRMC,195602.000,A,3748.7889,N,12217.5545,W,1.47,203.63,061112,,,A*76
$GPRMC,195603.000,A,3748.7882,N,12217.5563,W,1.61,244.16,061112,,,A*7D
$GPRMC,195604.000,A,3748.7875,N,12217.5577,W,1.48,256.58,061112,,,A*75
$GPRMC,195605.000,A,3748.7872,N,12217.5595,W,2.00,281.70,061112,,,A*70
$GPRMC,195606.000,A,3748.7867,N,12217.5607,W,1.78,275.33,061112,,,A*7F
$GPRMC,195607.000,A,3748.7864,N,12217.5621,W,1.12,253.22,061112,,,A*71
$GPRMC,195608.000,A,3748.7860,N,12217.5634,W,1.45,265.43,061112,,,A*7E
$GPRMC,195609.000,A,3748.7858,N,12217.5654,W,2.32,261.33,061112,,,A*72
$GPRMC,195610.000,A,3748.7858,N,12217.5676,W,3.47,266.55,061112,,,A*7E
$GPRMC,195611.000,A,3748.7856,N,12217.5691,W,3.06,266.22,061112,,,A*7D
$GPRMC,195612.000,A,3748.7850,N,12217.5702,W,3.13,260.95,061112,,,A*7D
$GPRMC,195613.000,A,3748.7845,N,12217.5712,W,2.49,250.86,061112,,,A*76
$GPRMC,195614.000,A,3748.7839,N,12217.5724,W,2.11,260.42,061112,,,A*79
$GPRMC,195615.000,A,3748.7838,N,12217.5733,W,2.41,288.10,061112,,,A*7B
$GPRMC,195616.000,A,3748.7832,N,12217.5744,W,2.21,255.38,061112,,,A*7E
$GPRMC,195617.000,A,3748.7825,N,12217.5745,W,1.93,260.75,061112,,,A*7D
$GPRMC,195618.000,A,3748.7825,N,12217.5756,W,2.60,271.71,061112,,,A*7B
$GPRMC,195619.000,A,3748.7824,N,12217.5768,W,2.97,270.00,061112,,,A*79
$GPRMC,195620.000,A,3748.7823,N,12217.5776,W,2.11,274.00,061112,,,A*71
$GPRMC,195621.000,A,3748.7823,N,12217.5780,W,1.61,273.46,061112,,,A*78
$GPRMC,195622.000,A,3748.7820,N,12217.5790,W,0.98,248.45,061112,,,A*75
$GPRMC,195623.000,A,3748.7814,N,12217.5798,W,1.39,185.69,061112,,,A*7D
$GPRMC,195624.000,A,3748.7807,N,12217.5796,W,2.02,149.71,061112,,,A*74
$GPRMC,195625.000,A,3748.7801,N,12217.5805,W,1.75,189.34,061112,,,A*78
$GPRMC,195626.000,A,3748.7795,N,12217.5814,W,2.07,213.02,061112,,,A*7A
$GPRMC,195627.000,A,3748.7790,N,12217.5828,W,1.79,258.26,061112,,,A*72
$GPRMC,195628.000,A,3748.7790,N,12217.5843,W,2.94,269.71,061112,,,A*70
$GPRMC,195629.000,A,3748.7789,N,12217.5858,W,3.34,277.56,061112,,,A*72
$GPRMC,195630.000,A,3748.7786,N,12217.5886,W,3.28,276.41,061112,,,A*7C
$GPRMC,195631.000,A,3748.7782,N,12217.5904,W,2.78,262.36,061112,,,A*73
$GPRMC,195632.000,A,3748.7777,N,12217.5920,W,1.62,257.18,061112,,,A*7E
$GPRMC,195633.000,A,3748.7766,N,12217.5917,W,2.18,221.08,061112,,,A*75
$GPRMC,195634.000,A,3748.7751,N,12217.5918,W,2.48,228.46,061112,,,A*7F
$GPRMC,195635.000,A,3748.7736,N,12217.5910,W,2.16,235.54,061112,,,A*73
$GPRMC,195636.000,A,3748.7715,N,12217.5886,W,1.38,205.64,061112,,,A*70
$GPRMC,195637.000,A,3748.7706,N,12217.5890,W,1.64,176.87,061112,,,A*77
$GPRMC,195638.000,A,3748.7695,N,12217.5894,W,1.90,150.75,061112,,,A*75
$GPRMC,195639.000,A,3748.7687,N,12217.5890,W,1.17,163.67,061112,,,A*7F
$GPRMC,195640.000,A,3748.7679,N,12217.5874,W,1.00,156.57,061112,,,A*79
$GPRMC,195641.000,A,3748.7672,N,12217.5879,W,1.15,220.11,061112,,,A*7A
$GPRMC,195642.000,A,3748.7670,N,12217.5887,W,1.23,223.10,061112,,,A*7D
$GPRMC,195643.000,A,3748.7664,N,12217.5890,W,1.10,211.87,061112,,,A*70
$GPRMC,195644.000,A,3748.7660,N,12217.5903,W,1.57,222.50,061112,,,A*71
$GPRMC,195645.000,A,3748.7656,N,12217.5909,W,2.04,229.50,061112,,,A*71
$GPRMC,195646.000,A,3748.7653,N,12217.5922,W,1.77,222.25,061112,,,A*70
$GPRMC,195647.000,A,3748.7650,N,12217.5923,W,0.67,213.88,061112,,,A*76
$GPRMC,195648.000,A,3748.7649,N,12217.5919,W,1.09,106.97,061112,,,A*78
$GPRMC,195649.000,A,3748.7643,N,12217.5912,W,1.40,154.74,061112,,,A*7F
$GPRMC,195650.000,A,3748.7640,N,12217.5923,W,1.40,217.16,061112,,,A*76
$GPRMC,195651.000,A,3748.7637,N,12217.5945,W,2.25,248.50,061112,,,A*7F
$GPRMC,195652.000,A,3748.7631,N,12217.5961,W,2.29,240.63,061112,,,A*78
$GPRMC,195653.000,A,3748.7624,N,12217.5975,W,1.66,224.06,061112,,,A*71
$GPRMC,195654.000,A,3748.7614,N,12217.5979,W,1.19,242.54,061112,,,A*76
$GPRMC,195655.000,A,3748.7610,N,12217.5998,W,2.60,266.11,061112,,,A*76
$GPRMC,195656.000,A,3748.7603,N,12217.5996,W,2.73,240.08,061112,,,A*77
$GPRMC,195657.000,A,3748.7598,N,12217.5996,W,2.21,230.33,061112,,,A*7F
$GPRMC,195658.000,A,3748.7593,N,12217.5995,W,1.20,217.27,061112,,,A*7A
$GPRMC,195659.000,A,3748.7587,N,12217.5997,W,1.73,210.11,061112,,,A*78
$GPRMC,195700.000,A,3748.7582,N,12217.6010,W,2.41,230.57,061112,,,A*77
$GPRMC,195701.000,A,3748.7578,N,12217.6031,W,2.76,260.47,061112,,,A*70
$GPRMC,195702.000,A,3748.7565,N,12217.6028,W,2.14,243.15,061112,,,A*75
$GPRMC,195703.000,A,3748.7547,N,12217.6012,W,2.06,251.14,061112,,,A*7C
$GPRMC,195704.000,A,3748.7530,N,12217.5995,W,1.34,214.16,061112,,,A*7F
$GPRMC,195705.000,A,3748.7529,N,12217.6017,W,0.57,171.30,061112,,,A*76
$GPRMC,195706.000,A,3748.7529,N,12217.6037,W,1.34,264.04,061112,,,A*73
$GPRMC,195707.000,A,3748.7529,N,12217.6059,W,1.67,249.25,061112,,,A*70
$GPRMC,195708.000,A,3748.7521,N,12217.6058,W,2.56,240.41,061112,,,A*7C
$GPRMC,195709.000,A,3748.7514,N,12217.6046,W,2.43,246.26,061112,,,A*77
$GPRMC,195710.000,A,3748.7510,N,12217.6050,W,2.26,248.78,061112,,,A*7A
$GPRMC,195711.000,A,3748.7508,N,12217.6054,W,3.18,250.75,061112,,,A*7E
$GPRMC,195712.000,A,3748.7500,N,12217.6049,W,3.30,252.13,061112,,,A*71
$GPRMC,195713.000,A,3748.7499,N,12217.6055,W,3.47,264.89,061112,,,A*7A
$GPRMC,195714.000,A,3748.7497,N,12217.6069,W,3.45,270.16,061112,,,A*7D
$GPRMC,195715.000,A,3748.7490,N,12217.6060,W,1.54,271.01,061112,,,A*77
$GPRMC,195716.000,A,3748.7483,N,12217.6045,W,1.46,277.08,061112,,,A*7D
$GPRMC,195717.000,A,3748.7483,N,12217.6054,W,0.77,253.71,061112,,,A*77
$GPRMC,195718.000,A,3748.7480,N,12217.6060,W,0.50,194.86,061112,,,A*79
$GPRMC,195719.000,A,3748.7478,N,12217.6071,W,0.60,126.11,061112,,,A*7B
$GPRMC,195720.000,A,3748.7476,N,12217.6078,W,0.95,200.70,061112,,,A*7C
$GPRMC,195721.000,A,3748.7467,N,12217.6078,W,1.24,191.92,061112,,,A*71
$GPRMC,195722.000,A,3748.7460,N,12217.6076,W,1.23,205.73,061112,,,A*7D
$GPRMC,195723.000,A,3748.7453,N,12217.6076,W,0.95,173.26,061112,,,A*72
$GPRMC,195724.000,A,3748.7446,N,12217.6078,W,1.37,142.70,061112,,,A*77
$GPRMC,195725.000,A,3748.7439,N,12217.6083,W,1.49,198.56,061112,,,A*70
$GPRMC,195726.000,A,3748.7436,N,12217.6097,W,1.42,239.17,061112,,,A*7F
$GPRMC,195727.000,A,3748.7432,N,12217.6107,W,1.48,256.19,061112,,,A*7F
$GPRMC,195728.000,A,3748.7427,N,12217.6113,W,0.49,191.94,061112,,,A*7C
$GPRMC,195729.000,A,3748.7419,N,12217.6111,W,1.24,171.21,061112,,,A*78
$GPRMC,195730.000,A,3748.7409,N,12217.6113,W,1.69,182.84,061112,,,A*79
$GPRMC,195731.000,A,3748.7399,N,12217.6110,W,1.82,197.13,061112,,,A*7A
$GPRMC,195732.000,A,3748.7389,N,12217.6108,W,1.48,194.13,061112,,,A*74
$GPRMC,195733.000,A,3748.7380,N,12217.6105,W,1.16,181.28,061112,,,A*76
$GPRMC,195734.000,A,3748.7371,N,12217.6100,W,1.16,173.17,061112,,,A*7B
$GPRMC,195735.000,A,3748.7362,N,12217.6104,W,1.03,189.41,061112,,,A*7E
$GPRMC,195736.000,A,3748.7355,N,12217.6106,W,0.81,196.96,061112,,,A*74
$GPRMC,195737.000,A,3748.7346,N,12217.6107,W,0.68,209.07,061112,,,A*7C
$GPRMC,195738.000,A,3748.7337,N,12217.6110,W,1.08,173.99,061112,,,A*7D
$GPRMC,195739.000,A,3748.7330,N,12217.6110,W,1.36,169.88,061112,,,A*7D
$GPRMC,195740.000,A,3748.7325,N,12217.6112,W,1.03,191.75,061112,,,A*76
$GPRMC,195741.000,A,3748.7321,N,12217.6115,W,0.66,159.55,061112,,,A*70
$GPRMC,195742.000,A,3748.7316,N,12217.6111,W,0.46,133.21,061112,,,A*7E
$GPRMC,195743.000,A,3748.7310,N,12217.6111,W,0.46,181.86,061112,,,A*7D
$GPRMC,195744.000,A,3748.7308,N,12217.6114,W,0.77,182.87,061112,,,A*76
$GPRMC,195745.000,A,3748.7307,N,12217.6121,W,0.60,218.94,061112,,,A*7A
$GPRMC,195746.000,A,3748.7307,N,12217.6129,W,0.53,257.07,061112,,,A*70
$GPRMC,195747.000,A,3748.7302,N,12217.6132,W,0.64,192.11,061112,,,A*77
$GPRMC,195748.000,A,3748.7294,N,12217.6134,W,0.46,192.60,061112,,,A*76
$GPRMC,195749.000,A,3748.7288,N,12217.6138,W,0.54,171.97,061112,,,A*70
$GPRMC,195750.000,A,3748.7274,N,12217.6129,W,0.72,146.73,061112,,,A*71
$GPRMC,195751.000,A,3748.7264,N,12217.6125,W,1.05,156.06,061112,,,A*7F
$GPRMC,195752.000,A,3748.7255,N,12217.6121,W,0.55,170.67,061112,,,A*7D
$GPRMC,195753.000,A,3748.7246,N,12217.6119,W,0.56,193.75,061112,,,A*78
$GPRMC,195754.000,A,3748.7239,N,12217.6123,W,0.31,257.79,061112,,,A*78
$GPRMC,195755.000,A,3748.7231,N,12217.6128,W,0.38,231.98,061112,,,A*7C
$GPRMC,195756.000,A,3748.7223,N,12217.6132,W,0.31,233.64,061112,,,A*7F
$GPRMC,195757.000,A,3748.7214,N,12217.6135,W,1.16,203.32,061112,,,A*79
$GPRMC,195758.000,A,3748.7206,N,12217.6142,W,0.99,190.27,061112,,,A*7E
$GPRMC,195759.000,A,3748.7197,N,12217.6147,W,1.03,185.52,061112,,,A*75
$GPRMC,195800.000,A,3748.7189,N,12217.6148,W,0.33,209.47,061112,,,A*77
$GPRMC,195801.000,A,3748.7183,N,12217.6152,W,0.61,212.52,061112,,,A*7E
$GPRMC,195802.000,A,3748.7175,N,12217.6158,W,1.39,196.21,061112,,,A*79
$GPRMC,195803.000,A,3748.7168,N,12217.6160,W,0.60,181.29,061112,,,A*7C
$GPRMC,195804.000,A,3748.7159,N,12217.6168,W,1.19,179.40,061112,,,A*76
$GPRMC,195805.000,A,3748.7150,N,12217.6170,W,1.28,158.81,061112,,,A*7B
$GPRMC,195806.000,A,3748.7143,N,12217.6174,W,1.06,177.47,061112,,,A*75
$GPRMC,195807.000,A,3748.7135,N,12217.6177,W,0.65,199.91,061112,,,A*79
$GPRMC,195808.000,A,3748.7131,N,12217.6181,W,0.98,234.23,061112,,,A*74
$GPRMC,195809.000,A,3748.7125,N,12217.6187,W,0.36,208.31,061112,,,A*7E
$GPRMC,195810.000,A,3748.7116,N,12217.6188,W,0.31,257.15,061112,,,A*72
$GPRMC,195811.000,A,3748.7108,N,12217.6189,W,0.60,189.29,061112,,,A*76
$GPRMC,195812.000,A,3748.7101,N,12217.6196,W,0.74,217.43,061112,,,A*7F
$GPRMC,195813.000,A,3748.7092,N,12217.6200,W,0.97,211.51,061112,,,A*71
$GPRMC,195814.000,A,3748.7082,N,12217.6203,W,0.92,199.91,061112,,,A*7E
$GPRMC,195815.000,A,3748.7070,N,12217.6206,W,1.00,197.03,061112,,,A*78
$GPRMC,195816.000,A,3748.7061,N,12217.6212,W,1.34,215.34,061112,,,A*74
$GPRMC,195817.000,A,3748.7053,N,12217.6215,W,1.59,200.64,061112,,,A*79
$GPRMC,195818.000,A,3748.7045,N,12217.6218,W,1.73,207.69,061112,,,A*7E
$GPRMC,195819.000,A,3748.7038,N,12217.6222,W,1.92,196.35,061112,,,A*71
$GPRMC,195820.000,A,3748.7033,N,12217.6224,W,1.12,172.09,061112,,,A*7B
$GPRMC,195821.000,A,3748.7028,N,12217.6224,W,0.97,171.17,061112,,,A*70
$GPRMC,195822.000,A,3748.7025,N,12217.6224,W,0.70,179.17,061112,,,A*7F
$GPRMC,195823.000,A,3748.7023,N,12217.6227,W,0.58,208.06,061112,,,A*74
$GPRMC,195824.000,A,3748.7021,N,12217.6230,W,0.84,211.77,061112,,,A*78
$GPRMC,195825.000,A,3748.7017,N,12217.6234,W,1.45,223.33,061112,,,A*75
$GPRMC,195826.000,A,3748.7011,N,12217.6238,W,1.48,205.94,061112,,,A*78
$GPRMC,195827.000,A,3748.7003,N,12217.6243,W,1.88,192.19,061112,,,A*72
$GPRMC,195828.000,A,3748.6994,N,12217.6246,W,2.85,200.53,061112,,,A*76
$GPRMC,195829.000,A,3748.6982,N,12217.6249,W,1.99,201.13,061112,,,A*74
$GPRMC,195830.000,A,3748.6972,N,12217.6251,W,1.34,186.66,061112,,,A*73
$GPRMC,195831.000,A,3748.6965,N,12217.6254,W,1.27,191.91,061112,,,A*7D
$GPRMC,195832.000,A,3748.6958,N,12217.6256,W,1.35,200.99,061112,,,A*72
$GPRMC,195833.000,A,3748.6954,N,12217.6262,W,1.24,208.01,061112,,,A*71
$GPRMC,195834.000,A,3748.6948,N,12217.6266,W,1.34,201.69,061112,,,A*79
$GPRMC,195835.000,A,3748.6943,N,12217.6268,W,0.78,179.06,061112,,,A*71
$GPRMC,195836.000,A,3748.6937,N,12217.6269,W,0.86,178.48,061112,,,A*7A
$GPRMC,195837.000,A,3748.6934,N,12217.6270,W,0.46,133.55,061112,,,A*7F
$GPRMC,195838.000,A,3748.6930,N,12217.6272,W,0.90,162.67,061112,,,A*78
$GPRMC,195839.000,A,3748.6926,N,12217.6276,W,0.66,162.13,061112,,,A*70
$GPRMC,195840.000,A,3748.6922,N,12217.6276,W,1.06,152.34,061112,,,A*7B
$GPRMC,195841.000,A,3748.6915,N,12217.6277,W,1.26,159.11,061112,,,A*71
$GPRMC,195842.000,A,3748.6909,N,12217.6280,W,0.87,186.52,061112,,,A*78
$GPRMC,195843.000,A,3748.6901,N,12217.6283,W,0.94,190.22,061112,,,A*70
$GPRMC,195844.000,A,3748.6898,N,12217.6284,W,0.67,194.19,061112,,,A*71
$GPRMC,195845.000,A,3748.6895,N,12217.6289,W,0.59,201.16,061112,,,A*7D
$GPRMC,195846.000,A,3748.6892,N,12217.6291,W,0.34,156.36,061112,,,A*78
$GPRMC,195847.000,A,3748.6886,N,12217.6290,W,0.69,169.49,061112,,,A*71
$GPRMC,195848.000,A,3748.6877,N,12217.6285,W,0.89,158.23,061112,,,A*74
$GPRMC,195849.000,A,3748.6869,N,12217.6285,W,1.00,177.45,061112,,,A*77
$GPRMC,195850.000,A,3748.6862,N,12217.6284,W,0.78,193.29,061112,,,A*7B
$GPRMC,195851.000,A,3748.6858,N,12217.6290,W,0.95,241.01,061112,,,A*73
$GPRMC,195852.000,A,3748.6853,N,12217.6297,W,1.77,241.15,061112,,,A*74
$GPRMC,195853.000,A,3748.6844,N,12217.6302,W,1.62,191.76,061112,,,A*71
$GPRMC,195854.000,A,3748.6837,N,12217.6306,W,1.66,163.19,061112,,,A*76
$GPRMC,195855.000,A,3748.6832,N,12217.6310,W,0.64,214.56,061112,,,A*7E
$GPRMC,195856.000,A,3748.6825,N,12217.6313,W,0.45,233.90,061112,,,A*74
$GPRMC,195857.000,A,3748.6817,N,12217.6313,W,1.17,166.51,061112,,,A*7C
$GPRMC,195858.000,A,3748.6809,N,12217.6316,W,1.55,191.44,061112,,,A*73
$GPRMC,195859.000,A,3748.6805,N,12217.6323,W,1.18,209.36,061112,,,A*76
$GPRMC,195900.000,A,3748.6804,N,12217.6331,W,0.25,233.30,061112,,,A*79
$GPRMC,195901.000,A,3748.6803,N,12217.6338,W,0.12,240.24,061112,,,A*73
$GPRMC,195902.000,A,3748.6798,N,12217.6344,W,0.74,200.88,061112,,,A*74
$GPRMC,195903.000,A,3748.6791,N,12217.6350,W,1.31,186.81,061112,,,A*7D
$GPRMC,195904.000,A,3748.6788,N,12217.6356,W,1.20,189.90,061112,,,A*7B
$GPRMC,195905.000,A,3748.6784,N,12217.6362,W,0.78,190.67,061112,,,A*7D
$GPRMC,195906.000,A,3748.6782,N,12217.6367,W,0.74,197.07,061112,,,A*70
$GPRMC,195907.000,A,3748.6782,N,12217.6373,W,0.87,220.39,061112,,,A*7A
$GPRMC,195908.000,A,3748.6780,N,12217.6378,W,1.04,197.69,061112,,,A*7C
$GPRMC,195909.000,A,3748.6777,N,12217.6380,W,0.58,170.49,061112,,,A*71
$GPRMC,195910.000,A,3748.6773,N,12217.6381,W,0.85,169.97,061112,,,A*77
$GPRMC,195911.000,A,3748.6768,N,12217.6381,W,1.16,163.30,061112,,,A*70
$GPRMC,195912.000,A,3748.6764,N,12217.6382,W,0.67,181.33,061112,,,A*74
$GPRMC,195913.000,A,3748.6760,N,12217.6385,W,1.03,184.46,061112,,,A*72
$GPRMC,195914.000,A,3748.6756,N,12217.6387,W,0.92,192.10,061112,,,A*7F
$GPRMC,195915.000,A,3748.6755,N,12217.6393,W,0.89,168.82,061112,,,A*7C
$GPRMC,195916.000,A,3748.6754,N,12217.6395,W,1.08,162.69,061112,,,A*7F
$GPRMC,195917.000,A,3748.6751,N,12217.6396,W,1.00,165.38,061112,,,A*73
$GPRMC,195918.000,A,3748.6746,N,12217.6397,W,0.91,189.43,061112,,,A*7C
$GPRMC,195919.000,A,3748.6743,N,12217.6399,W,0.92,214.03,061112,,,A*76
$GPRMC,195920.000,A,3748.6739,N,12217.6402,W,0.77,220.18,061112,,,A*72
$GPRMC,195921.000,A,3748.6737,N,12217.6405,W,0.72,219.48,061112,,,A*70
$GPRMC,195922.000,A,3748.6733,N,12217.6407,W,0.74,208.46,061112,,,A*7D
$GPRMC,195923.000,A,3748.6728,N,12217.6408,W,0.91,169.91,061112,,,A*7C
$GPRMC,195924.000,A,3748.6723,N,12217.6409,W,0.78,204.81,061112,,,A*7F
$GPRMC,195925.000,A,3748.6717,N,12217.6411,W,0.90,205.96,061112,,,A*71
$GPRMC,195926.000,A,3748.6713,N,12217.6413,W,1.01,191.29,061112,,,A*77
$GPRMC,195927.000,A,3748.6710,N,12217.6414,W,0.71,196.53,061112,,,A*7E
$GPRMC,195928.000,A,3748.6707,N,12217.6416,W,1.20,183.84,061112,,,A*7E
$GPRMC,195929.000,A,3748.6700,N,12217.6418,W,1.93,184.65,061112,,,A*76
$GPRMC,195930.000,A,3748.6693,N,12217.6420,W,1.90,186.81,061112,,,A*75
$GPRMC,195931.000,A,3748.6687,N,12217.6423,W,1.40,195.81,061112,,,A*7D
$GPRMC,195932.000,A,3748.6684,N,12217.6427,W,1.11,197.75,061112,,,A*74
$GPRMC,195933.000,A,3748.6683,N,12217.6432,W,0.86,189.66,061112,,,D*71
$GPRMC,195934.000,A,3748.6682,N,12217.6433,W,0.87,145.06,061112,,,D*71
$GPRMC,195935.000,A,3748.6680,N,12217.6434,W,1.08,155.31,061112,,,D*76
$GPRMC,195936.000,A,3748.6676,N,12217.6438,W,2.13,209.50,061112,,,D*74
$GPRMC,195937.000,A,3748.6670,N,12217.6443,W,2.33,203.65,061112,,,D*71
$GPRMC,195938.000,A,3748.6656,N,12217.6446,W,1.23,188.66,061112,,,D*7E
$GPRMC,195939.000,A,3748.6653,N,12217.6451,W,0.97,235.54,061112,,,D*76
$GPRMC,195940.000,A,3748.6649,N,12217.6452,W,0.30,261.93,061112,,,D*77
$GPRMC,195941.000,A,3748.6647,N,12217.6453,W,0.40,302.02,061112,,,D*72
$GPRMC,195942.000,A,3748.6640,N,12217.6452,W,0.35,185.37,061112,,,D*7E
$GPRMC,195943.000,A,3748.6632,N,12217.6444,W,0.66,196.45,061112,,,D*7C
$GPRMC,195944.000,A,3748.6629,N,12217.6445,W,1.21,295.23,061112,,,D*72
$GPRMC,195945.000,A,3748.6622,N,12217.6440,W,0.09,205.05,061112,,,D*7B
$GPRMC,195946.000,A,3748.6615,N,12217.6435,W,1.00,139.44,061112,,,D*7F
$GPRMC,195947.000,A,3748.6606,N,12217.6429,W,1.24,118.13,061112,,,D*76
$GPRMC,195948.000,A,3748.6606,N,12217.6435,W,0.42,13.91,061112,,,D*45
$GPRMC,195949.000,A,3748.6606,N,12217.6445,W,0.65,292.20,061112,,,D*77
$GPRMC,195950.000,A,3748.6597,N,12217.6438,W,1.38,110.54,061112,,,D*7D
$GPRMC,195951.000,A,3748.6591,N,12217.6438,W,1.55,117.40,061112,,,D*73
$GPRMC,195952.000,A,3748.6586,N,12217.6444,W,0.36,160.12,061112,,,D*7E
$GPRMC,195953.000,A,3748.6583,N,12217.6455,W,0.47,160.53,061112,,,D*79
$GPRMC,195954.000,A,3748.6579,N,12217.6463,W,0.49,165.19,061112,,,D*7B
$GPRMC,195955.000,A,3748.6580,N,12217.6470,W,0.62,157.26,061112,,,D*7A
$GPRMC,195956.000,A,3748.6579,N,12217.6481,W,0.78,230.03,061112,,,D*7F
$GPRMC,195957.000,A,3748.6576,N,12217.6486,W,0.87,222.43,061112,,,D*71
$GPRMC,195958.000,A,3748.6572,N,12217.6490,W,0.88,182.27,061112,,,D*79
$GPRMC,195959.000,A,3748.6570,N,12217.6496,W,0.94,179.95,061112,,,D*7C
$GPRMC,200000.000,A,3748.6568,N,12217.6504,W,1.03,182.02,061112,,,D*70
$GPRMC,200001.000,A,3748.6564,N,12217.6504,W,1.58,157.56,061112,,,D*7A
$GPRMC,200002.000,A,3748.6554,N,12217.6496,W,1.70,166.76,061112,,,D*7A
$GPRMC,200003.000,A,3748.6548,N,12217.6496,W,1.76,193.84,061112,,,D*77
$GPRMC,200004.000,A,3748.6545,N,12217.6511,W,2.34,235.32,061112,,,D*74
$GPRMC,200005.000,A,3748.6538,N,12217.6520,W,2.30,236.75,061112,,,D*79
$GPRMC,200006.000,A,3748.6529,N,12217.6523,W,1.12,197.89,061112,,,D*71
$GPRMC,200007.000,A,3748.6522,N,12217.6524,W,0.90,186.97,061112,,,D*78
$GPRMC,200008.000,A,3748.6518,N,12217.6528,W,0.65,133.64,061112,,,D*7A
$GPRMC,200009.000,A,3748.6515,N,12217.6526,W,1.38,119.39,061112,,,D*71
$GPRMC,200010.000,A,3748.6511,N,12217.6524,W,1.47,116.24,061112,,,D*74
$GPRMC,200011.000,A,3748.6507,N,12217.6525,W,0.59,141.61,061112,,,D*7E
$GPRMC,200012.000,A,3748.6504,N,12217.6531,W,0.68,239.73,061112,,,D*76
$GPRMC,200013.000,A,3748.6499,N,12217.6537,W,0.73,215.07,061112,,,D*73
$GPRMC,200014.000,A,3748.6494,N,12217.6537,W,0.70,215.32,061112,,,D*7C
$GPRMC,200015.000,A,3748.6493,N,12217.6539,W,0.44,205.93,061112,,,D*79
$GPRMC,200016.000,A,3748.6491,N,12217.6541,W,0.47,176.34,061112,,,D*7E
$GPRMC,200017.000,A,3748.6489,N,12217.6543,W,0.39,163.83,061112,,,D*75
$GPRMC,200018.000,A,3748.6489,N,12217.6543,W,0.60,113.01,061112,,,D*7B
$GPRMC,200019.000,A,3748.6488,N,12217.6542,W,0.58,152.03,061112,,,D*76
$GPRMC,200020.000,A,3748.6488,N,12217.6544,W,0.46,217.11,061112,,,D*74
$GPRMC,200021.000,A,3748.6487,N,12217.6547,W,0.35,198.44,061112,,,D*79
$GPRMC,200022.000,A,3748.6485,N,12217.6548,W,1.26,145.68,061112,,,D*7A
$GPRMC,200023.000,A,3748.6480,N,12217.6548,W,2.20,134.78,061112,,,D*7C
$GPRMC,200024.000,A,3748.6474,N,12217.6544,W,3.13,135.03,061112,,,D*70
$GPRMC,200025.000,A,3748.6464,N,12217.6547,W,3.59,150.85,061112,,,D*70
$GPRMC,200026.000,A,3748.6455,N,12217.6546,W,3.28,158.93,061112,,,D*79
$GPRMC,200027.000,A,3748.6446,N,12217.6546,W,3.19,156.72,061112,,,D*79
$GPRMC,200028.000,A,3748.6418,N,12217.6561,W,2.94,156.44,061112,,,D*79
$GPRMC,200029.000,A,3748.6409,N,12217.6561,W,2.27,162.55,061112,,,D*77
$GPRMC,200030.000,A,3748.6367,N,12217.6587,W,2.20,152.81,061112,,,D*75
$GPRMC,200031.000,A,3748.6358,N,12217.6581,W,2.12,131.73,061112,,,D*77
$GPRMC,200032.000,A,3748.6347,N,12217.6582,W,2.30,123.21,061112,,,D*7D
$GPRMC,200033.000,A,3748.6341,N,12217.6574,W,1.92,126.20,061112,,,D*7C
$GPRMC,200034.000,A,3748.6338,N,12217.6569,W,1.77,132.19,061112,,,D*7D
$GPRMC,200035.000,A,3748.6332,N,12217.6555,W,1.43,132.31,061112,,,D*74
$GPRMC,200036.000,A,3748.6321,N,12217.6559,W,0.98,134.27,061112,,,D*7F
$GPRMC,200037.000,A,3748.6323,N,12217.6553,W,0.93,127.96,061112,,,D*75
$GPRMC,200038.000,A,3748.6316,N,12217.6556,W,1.34,122.18,061112,,,D*76
$GPRMC,200039.000,A,3748.6312,N,12217.6555,W,1.55,114.04,061112,,,D*7F
$GPRMC,200040.000,A,3748.6305,N,12217.6554,W,2.05,112.30,061112,,,D*71
$GPRMC,200041.000,A,3748.6303,N,12217.6548,W,1.36,112.90,061112,,,D*72
$GPRMC,200042.000,A,3748.6294,N,12217.6553,W,1.31,119.74,061112,,,D*72
$GPRMC,200043.000,A,3748.6258,N,12217.6579,W,1.65,125.01,061112,,,D*77
$GPRMC,200044.000,A,3748.6254,N,12217.6579,W,1.13,102.46,061112,,,A*7E
$GPRMC,200045.000,A,3748.6247,N,12217.6572,W,0.68,85.93,061112,,,A*4D
$GPRMC,200046.000,A,3748.6244,N,12217.6574,W,0.55,70.75,061112,,,A*47
$GPRMC,200047.000,A,3748.6239,N,12217.6566,W,0.95,101.84,061112,,,A*7A
$GPRMC,200048.000,A,3748.6235,N,12217.6560,W,0.58,117.32,061112,,,A*74
$GPRMC,200049.000,A,3748.6228,N,12217.6550,W,0.60,170.03,061112,,,A*72
$GPRMC,200050.000,A,3748.6220,N,12217.6546,W,0.58,177.10,061112,,,A*7B
$GPRMC,200051.000,A,3748.6221,N,12217.6543,W,0.30,97.47,061112,,,A*4D
$GPRMC,200052.000,A,3748.6222,N,12217.6540,W,0.28,69.95,061112,,,A*49
$GPRMC,200053.000,A,3748.6224,N,12217.6537,W,0.36,47.60,061112,,,A*47
$GPRMC,200054.000,A,3748.6229,N,12217.6536,W,0.43,355.86,061112,,,A*76
$GPRMC,200055.000,A,3748.6228,N,12217.6533,W,0.14,202.91,061112,,,A*74
$GPRMC,200056.000,A,3748.6229,N,12217.6534,W,0.24,272.79,061112,,,A*73
$GPRMC,200057.000,A,3748.6230,N,12217.6530,W,0.43,97.03,061112,,,A*4B
$GPRMC,200058.000,A,3748.6226,N,12217.6524,W,0.68,107.43,061112,,,A*73
$GPRMC,200059.000,A,3748.6224,N,12217.6525,W,0.59,118.94,061112,,,A*77
$GPRMC,200100.000,A,3748.6209,N,12217.6540,W,1.04,134.92,061112,,,A*77
$GPRMC,200101.000,A,3748.6196,N,12217.6550,W,1.43,98.25,061112,,,A*4A
$GPRMC,200102.000,A,3748.6184,N,12217.6558,W,1.41,106.54,061112,,,A*70
$GPRMC,200103.000,A,3748.6170,N,12217.6567,W,2.01,145.86,061112,,,A*79
$GPRMC,200104.000,A,3748.6149,N,12217.6585,W,1.06,109.85,061112,,,A*77
$GPRMC,200105.000,A,3748.6136,N,12217.6598,W,0.93,99.44,061112,,,A*4A
$GPRMC,200106.000,A,3748.6129,N,12217.6603,W,1.01,94.84,061112,,,A*4D
$GPRMC,200107.000,A,3748.6120,N,12217.6603,W,1.11,106.41,061112,,,A*77
$GPRMC,200108.000,A,3748.6108,N,12217.6601,W,1.19,119.36,061112,,,A*76
$GPRMC,200109.000,A,3748.6098,N,12217.6587,W,2.71,114.84,061112,,,A*7B
$GPRMC,200110.000,A,3748.6082,N,12217.6599,W,2.32,115.36,061112,,,A*78
$GPRMC,200111.000,A,3748.6070,N,12217.6608,W,1.75,118.57,061112,,,A*75
$GPRMC,200112.000,A,3748.6047,N,12217.6603,W,1.52,117.90,061112,,,A*78
$GPRMC,200113.000,A,3748.6034,N,12217.6608,W,0.60,108.07,061112,,,A*76
$GPRMC,200114.000,A,3748.6024,N,12217.6610,W,0.90,85.28,061112,,,A*4F
$GPRMC,200115.000,A,3748.6029,N,12217.6607,W,0.79,67.30,061112,,,A*47
$GPRMC,200116.000,A,3748.6026,N,12217.6611,W,0.43,131.10,061112,,,A*75
$GPRMC,200117.000,A,3748.6020,N,12217.6610,W,0.85,90.95,061112,,,A*4E
$GPRMC,200118.000,A,3748.6011,N,12217.6604,W,1.07,95.22,061112,,,A*44
$GPRMC,200119.000,A,3748.6004,N,12217.6589,W,1.60,99.30,061112,,,A*49
$GPRMC,200120.000,A,3748.6001,N,12217.6580,W,1.88,98.89,061112,,,A*4A
$GPRMC,200121.000,A,3748.5995,N,12217.6568,W,1.50,89.79,061112,,,A*40
$GPRMC,200122.000,A,3748.5994,N,12217.6557,W,0.98,89.39,061112,,,A*4F
$GPRMC,200123.000,A,3748.5986,N,12217.6549,W,0.79,86.72,061112,,,A*4D
$GPRMC,200124.000,A,3748.5977,N,12217.6538,W,1.08,97.55,061112,,,A*40
$GPRMC,200125.000,A,3748.5970,N,12217.6523,W,2.57,103.28,061112,,,A*73
$GPRMC,200126.000,A,3748.5966,N,12217.6516,W,1.54,96.17,061112,,,A*40
$GPRMC,200127.000,A,3748.5962,N,12217.6511,W,0.63,92.69,061112,,,A*4A
$GPRMC,200128.000,A,3748.5956,N,12217.6493,W,0.47,112.03,061112,,,A*7A
$GPRMC,200129.000,A,3748.5953,N,12217.6487,W,0.40,119.16,061112,,,A*73
$GPRMC,200130.000,A,3748.5947,N,12217.6480,W,0.08,151.44,061112,,,A*7E
$GPRMC,200131.000,A,3748.5944,N,12217.6476,W,0.40,90.02,061112,,,A*47
$GPRMC,200132.000,A,3748.5941,N,12217.6472,W,0.88,107.42,061112,,,A*7A
$GPRMC,200133.000,A,3748.5939,N,12217.6467,W,1.34,104.81,061112,,,A*7A
$GPRMC,200134.000,A,3748.5939,N,12217.6459,W,0.60,70.65,061112,,,A*48
