$ADVER,3080,2.3
$GPWPL,3748.7700,N,12217.7972,W,00001*6C
$ADPMB,5,0
$GPRMC,195128.401,A,3748.7700,N,12217.7972,W,2.02,132.64,200611,,,A*7D
$GPGGA,195129.401,3748.7688,N,12217.7967,W,1,05,2.4,6.5,M,-25.1,M,,0000*66
$GPGSA,A,3,20,23,13,08,19,,,,,,,,3.8,2.4,2.9*35
$GPRMC,195129.401,A,3748.7688,N,12217.7967,W,2.24,128.07,200611,,,A*73
$GPVTG,128.07,T,,M,2.24,N,4.2,K,A*03
$GPGGA,195130.000,3748.7686,N,12217.7964,W,1,05,2.4,6.5,M,-25.1,M,,0000*66
$GPGSA,A,3,20,23,13,08,19,,,,,,,,3.8,2.4,2.9*35
$GPRMC,195130.000,A,3748.7686,N,12217.7964,W,2.07,123.29,200611,,,A*75
$GPVTG,123.29,T,,M,2.07,N,3.8,K,A*08
$GPGGA,195131.000,3748.7683,N,12217.7958,W,1,05,2.4,6.7,M,-25.1,M,,0000*6F
$GPGSA,A,3,20,23,13,08,19,,,,,,,,3.8,2.4,2.9*35
$GPRMC,195131.000,A,3748.7683,N,12217.7958,W,2.06,122.12,200611,,,A*76
$GPVTG,122.12,T,,M,2.06,N,3.8,K,A*00
$GPGGA,195132.000,3748.7680,N,12217.7952,W,1,05,2.4,6.9,M,-25.1,M,,0000*6B
$GPGSA,A,3,20,23,13,08,19,,,,,,,,3.8,2.4,2.9*35
$GPGSV,3,1,12,13,75,066,30,23,47,116,37,08,34,272,33,19,18,113,37*75
$GPGSV,3,2,12,20,09,174,39,07,58,298,25,10,43,281,29,03,26,081,28*74
$GPGSV,3,3,12,16,23,043,23,06,19,067,23,28,09,210,25,05,08,322,*7D
$GPRMC,195132.000,A,3748.7680,N,12217.7952,W,2.22,124.55,200611,,,A*7F
$GPVTG,124.55,T,,M,2.22,N,4.1,K,A*0D
$GPGGA,195133.000,3748.7680,N,12217.7944,W,1,05,2.4,6.0,M,-25.1,M,,0000*64
$GPGSA,A,3,20,23,13,08,19,,,,,,,,3.8,2.4,2.9*35
$GPRMC,195133.000,A,3748.7680,N,12217.7944,W,2.21,131.03,200611,,,A*7D
$GPVTG,131.03,T,,M,2.21,N,4.1,K,A*09
$GPGGA,195134.000,3748.7675,N,12217.7939,W,1,05,2.4,6.5,M,-25.1,M,,0000*66
$GPGSA,A,3,20,23,13,08,19,,,,,,,,3.8,2.4,2.9*35
$GPRMC,195134.000,A,3748.7675,N,12217.7939,W,2.09,124.22,200611,,,A*77
$GPVTG,124.22,T,,M,2.09,N,3.9,K,A*0B
$GPGGA,195135.000,3748.7671,N,12217.7933,W,1,05,2.4,7.0,M,-25.1,M,,0000*6D
$GPGSA,A,3,20,23,13,08,19,,,,,,,,3.8,2.4,2.9*35
$GPRMC,195135.000,A,3748.7671,N,12217.7933,W,1.91,118.11,200611,,,A*75
$GPVTG,118.11,T,,M,1.91,N,3.5,K,A*0A
$GPGGA,195136.000,3748.7667,N,12217.7925,W,1,05,2.4,7.7,M,-25.1,M,,0000*69
$GPGSA,A,3,20,23,13,08,19,,,,,,,,3.8,2.4,2.9*35
$GPRMC,195136.000,A,3748.7667,N,12217.7925,W,1.81,119.44,200611,,,A*76
$GPVTG,119.44,T,,M,1.81,N,3.3,K,A*0C
$GPGGA,195137.000,3748.7665,N,12217.7918,W,1,05,2.4,7.7,M,-25.1,M,,0000*64
$GPGSA,A,3,20,23,13,08,19,,,,,,,,3.8,2.4,2.9*35
$GPGSV,3,1,12,13,75,066,31,23,47,116,37,08,34,272,32,19,18,113,34*76
$GPGSV,3,2,12,20,09,174,39,07,58,298,25,10,43,281,28,03,26,081,34*78
$GPGSV,3,3,12,16,23,043,22,06,19,067,27,28,09,210,36,05,08,322,*7A
$GPRMC,195137.000,A,3748.7665,N,12217.7918,W,2.10,114.97,200611,,,A*73
$GPVTG,114.97,T,,M,2.10,N,3.9,K,A*0E
$GPGGA,195138.000,3748.7666,N,12217.7910,W,1,05,2.4,7.4,M,-25.1,M,,0000*63
$GPGSA,A,3,20,23,13,08,19,,,,,,,,3.8,2.4,2.9*35
$GPRMC,195138.000,A,3748.7666,N,12217.7910,W,2.48,121.98,200611,,,A*73
$GPVTG,121.98,T,,M,2.48,N,4.6,K,A*02
$GPGGA,195139.000,3748.7659,N,12217.7905,W,1,05,2.4,7.3,M,-25.1,M,,0000*6D
$GPGSA,A,3,20,23,13,08,19,,,,,,,,3.8,2.4,2.9*35
$GPRMC,195139.000,A,3748.7659,N,12217.7905,W,2.49,141.34,200611,,,A*7B
$GPVTG,141.34,T,,M,2.49,N,4.6,K,A*03
$GPGGA,195140.000,3748.7651,N,12217.7901,W,1,05,2.4,7.8,M,-25.1,M,,0000*64
$GPGSA,A,3,20,23,13,08,19,,,,,,,,3.8,2.4,2.9*35
$GPRMC,195140.000,A,3748.7651,N,12217.7901,W,2.40,134.36,200611,,,A*70
$GPVTG,134.36,T,,M,2.40,N,4.5,K,A*09
$GPGGA,195141.000,3748.7645,N,12217.7895,W,1,05,2.4,8.3,M,-25.1,M,,0000*68
$GPGSA,A,3,20,23,13,08,19,,,,,,,,3.8,2.4,2.9*35
$GPRMC,195141.000,A,3748.7645,N,12217.7895,W,2.51,120.05,200611,,,A*7D
$GPVTG,120.05,T,,M,2.51,N,4.6,K,A*0F
$GPGGA,195142.000,3748.7641,N,12217.7889,W,1,05,2.4,8.8,M,-25.1,M,,0000*69
$GPGSA,A,3,20,23,13,08,19,,,,,,,,3.8,2.4,2.9*35
$GPGSV,3,1,12,13,75,066,30,23,47,116,36,08,34,272,33,19,18,113,31*72
$GPGSV,3,2,12,20,09,174,40,07,58,298,26,10,43,281,29,03,26,081,29*78
$GPGSV,3,3,12,16,23,043,23,06,19,067,28,28,09,210,32,05,08,322,*70
$GPRMC,195142.000,A,3748.7641,N,12217.7889,W,2.42,123.05,200611,,,A*76
$GPVTG,123.05,T,,M,2.42,N,4.5,K,A*0D
$GPGGA,195143.000,3748.7636,N,12217.7883,W,1,05,2.4,9.5,M,-25.1,M,,0000*6E
$GPGSA,A,3,20,23,13,08,19,,,,,,,,3.8,2.4,2.9*35
$GPRMC,195143.000,A,3748.7636,N,12217.7883,W,2.42,126.05,200611,,,A*78
$GPVTG,126.05,T,,M,2.42,N,4.5,K,A*08
$GPGGA,195144.000,3748.7631,N,12217.7877,W,1,05,2.4,10.1,M,-25.1,M,,0000*59
$GPGSA,A,3,20,23,13,08,19,,,,,,,,3.8,2.4,2.9*35
$GPRMC,195144.000,A,3748.7631,N,12217.7877,W,2.62,136.03,200611,,,A*76
$GPVTG,136.03,T,,M,2.62,N,4.9,K,A*01
$GPGGA,195145.000,3748.7626,N,12217.7871,W,1,05,2.4,10.6,M,-25.1,M,,0000*5F
$GPGSA,A,3,20,23,13,08,19,,,,,,,,3.8,2.4,2.9*35
$GPRMC,195145.000,A,3748.7626,N,12217.7871,W,2.74,138.59,200611,,,A*71
$GPVTG,138.59,T,,M,2.74,N,5.1,K,A*0E
$GPGGA,195146.000,3748.7623,N,12217.7863,W,1,05,2.4,10.5,M,-25.1,M,,0000*59
$GPGSA,A,3,20,23,13,08,19,,,,,,,,3.8,2.4,2.9*35
$GPRMC,195146.000,A,3748.7623,N,12217.7863,W,2.54,126.81,200611,,,A*7C
$GPVTG,126.81,T,,M,2.54,N,4.7,K,A*01
$GPGGA,195147.000,3748.7621,N,12217.7855,W,1,05,2.4,9.9,M,-25.1,M,,0000*6B
$GPGSA,A,3,20,23,13,08,19,,,,,,,,3.8,2.4,2.9*35
$GPGSV,3,1,12,13,75,067,24,07,58,298,27,23,46,116,36,10,43,281,29*75
$GPGSV,3,2,12,08,34,272,33,03,26,081,22,16,23,042,23,06,19,066,18*7B
$GPGSV,3,3,12,19,18,113,31,20,09,174,29,28,09,210,33,05,08,322,*76
$GPRMC,195147.000,A,3748.7621,N,12217.7855,W,2.47,114.32,200611,,,A*71
$GPGGA,195148.000,3748.7619,N,12217.7847,W,1,05,2.4,10.3,M,-25.1,M,,0000*5E
$GPGSA,A,3,20,23,13,08,19,,,,,,,,3.8,2.4,2.9*35
$GPRMC,195148.000,A,3748.7619,N,12217.7847,W,2.46,101.43,200611,,,A*75
$GPVTG,101.43,T,,M,2.46,N,4.6,K,A*08
$GPGGA,195149.000,3748.7617,N,12217.7838,W,1,05,2.4,10.4,M,-25.1,M,,0000*5E
$GPGSA,A,3,20,23,13,08,19,,,,,,,,3.8,2.4,2.9*35
$GPRMC,195149.000,A,3748.7617,N,12217.7838,W,2.34,116.56,200611,,,A*75
$GPVTG,116.56,T,,M,2.34,N,4.3,K,A*0A
$GPGGA,195150.000,3748.7614,N,12217.7831,W,1,05,2.4,10.4,M,-25.1,M,,0000*5C
$GPGSA,A,3,20,23,13,08,19,,,,,,,,3.8,2.4,2.9*35
$GPRMC,195150.000,A,3748.7614,N,12217.7831,W,2.35,135.39,200611,,,A*7E
$GPVTG,135.39,T,,M,2.35,N,4.4,K,A*04
$GPGGA,195151.000,3748.7611,N,12217.7824,W,1,05,2.4,10.4,M,-25.1,M,,0000*5C
$GPGSA,A,3,20,23,13,08,19,,,,,,,,3.8,2.4,2.9*35
$GPRMC,195151.000,A,3748.7611,N,12217.7824,W,2.51,134.53,200611,,,A*71
$GPVTG,134.53,T,,M,2.51,N,4.6,K,A*09
$GPGGA,195152.000,3748.7608,N,12217.7817,W,1,05,2.4,10.4,M,-25.1,M,,0000*57
$GPGSA,A,3,20,23,13,08,19,,,,,,,,3.8,2.4,2.9*35
$GPGSV,3,1,12,13,75,067,30,07,58,298,27,23,46,116,36,10,43,281,34*7C
$GPGSV,3,2,12,08,34,272,33,03,26,081,21,16,23,042,17,06,19,066,19*7E
$GPGSV,3,3,12,19,18,113,35,20,09,174,35,28,09,210,32,05,08,322,*7E
$GPRMC,195152.000,A,3748.7608,N,12217.7817,W,2.49,129.26,200611,,,A*7D
$GPVTG,129.26,T,,M,2.49,N,4.6,K,A*0E
$GPGGA,195153.000,3748.7605,N,12217.7810,W,1,05,2.4,10.4,M,-25.1,M,,0000*5C
$GPGSA,A,3,20,23,13,08,19,,,,,,,,3.8,2.4,2.9*35
$GPRMC,195153.000,A,3748.7605,N,12217.7810,W,2.47,122.36,200611,,,A*72
$GPVTG,122.36,T,,M,2.47,N,4.6,K,A*0A
$GPGGA,195154.000,3748.7603,N,12217.7803,W,1,05,2.4,9.8,M,-25.1,M,,0000*6B
$GPGSA,A,3,20,23,13,08,19,,,,,,,,3.8,2.4,2.9*35
$GPRMC,195154.000,A,3748.7603,N,12217.7803,W,2.48,124.75,200611,,,A*7F
$GPVTG,124.75,T,,M,2.48,N,4.6,K,A*04
$GPGGA,195155.000,3748.7599,N,12217.7796,W,1,05,2.4,9.3,M,-25.1,M,,0000*62
$GPGSA,A,3,20,23,13,08,19,,,,,,,,3.8,2.4,2.9*35
$GPRMC,195155.000,A,3748.7599,N,12217.7796,W,2.54,129.20,200611,,,A*7D
$GPVTG,129.20,T,,M,2.54,N,4.7,K,A*05
$GPGGA,195156.000,3748.7595,N,12217.7789,W,1,05,2.4,8.8,M,-25.1,M,,0000*69
$GPGSA,A,3,20,23,13,08,19,,,,,,,,3.8,2.4,2.9*35
$GPRMC,195156.000,A,3748.7595,N,12217.7789,W,2.42,131.87,200611,,,A*7F
$GPVTG,131.87,T,,M,2.42,N,4.5,K,A*04
$GPGGA,195157.000,3748.7591,N,12217.7782,W,1,05,2.4,8.5,M,-25.1,M,,0000*6A
$GPGSA,A,3,20,23,13,08,19,,,,,,,,3.8,2.4,2.9*35
$GPGSV,3,1,12,13,75,067,30,07,58,298,27,23,46,116,36,10,43,281,33*7B
$GPGSV,3,2,12,08,34,272,33,03,26,081,21,16,23,042,19,06,19,066,20*7A
$GPGSV,3,3,12,19,18,113,36,20,09,174,31,28,09,210,30,05,08,322,*7B
$GPRMC,195157.000,A,3748.7591,N,12217.7782,W,2.40,129.10,200611,,,A*74
$GPVTG,129.10,T,,M,2.40,N,4.4,K,A*00
$GPGGA,195158.000,3748.7592,N,12217.7774,W,1,06,2.3,8.0,M,-25.1,M,,0000*6E
$GPGSA,A,3,20,23,10,13,08,19,,,,,,,3.7,2.3,2.9*3C
$GPRMC,195158.000,A,3748.7592,N,12217.7774,W,2.39,113.31,200611,,,A*75
$GPVTG,113.31,T,,M,2.39,N,4.4,K,A*04
$GPGGA,195159.000,3748.7593,N,12217.7766,W,1,06,2.3,7.4,M,-25.1,M,,0000*66
$GPGSA,A,3,20,23,10,13,08,19,,,,,,,3.7,2.3,2.9*3C
$GPRMC,195159.000,A,3748.7593,N,12217.7766,W,2.30,115.53,200611,,,A*7D
$GPVTG,115.53,T,,M,2.30,N,4.3,K,A*08
$GPGGA,195200.000,3748.7592,N,12217.7759,W,1,06,2.3,7.2,M,-25.1,M,,0000*62
$GPGSA,A,3,20,23,10,13,08,19,,,,,,,3.7,2.3,2.9*3C
$GPRMC,195200.000,A,3748.7592,N,12217.7759,W,2.24,121.55,200611,,,A*7B
$GPVTG,121.55,T,,M,2.24,N,4.2,K,A*0D
$GPGGA,195201.000,3748.7589,N,12217.7752,W,1,06,2.3,7.0,M,-25.1,M,,0000*60
$GPGSA,A,3,20,23,10,13,08,19,,,,,,,3.7,2.3,2.9*3C
$GPRMC,195201.000,A,3748.7589,N,12217.7752,W,2.51,120.00,200611,,,A*78
$GPVTG,120.00,T,,M,2.51,N,4.6,K,A*0A
$GPGGA,195202.000,3748.7586,N,12217.7744,W,1,06,2.3,6.9,M,-25.1,M,,0000*63
$GPGSA,A,3,20,23,10,13,08,19,,,,,,,3.7,2.3,2.9*3C
$GPGSV,3,1,12,13,75,067,30,07,58,299,27,23,46,116,36,10,43,281,33*7A
$GPGSV,3,2,12,08,34,272,33,03,26,081,21,16,23,042,19,06,19,066,20*7A
$GPGSV,3,3,12,19,18,113,37,20,09,174,28,28,09,210,36,05,08,322,*74
$GPRMC,195202.000,A,3748.7586,N,12217.7744,W,2.46,114.80,200611,,,A*7A
$GPGGA,195203.000,3748.7583,N,12217.7738,W,2,06,2.3,6.5,M,-25.1,M,1.8,0000*44
$GPGSA,A,3,20,23,10,13,08,19,,,,,,,3.7,2.3,2.9*3C
$GPRMC,195203.000,A,3748.7583,N,12217.7738,W,2.21,121.44,200611,,,D*7F
$GPVTG,121.44,T,,M,2.21,N,4.1,K,D*0E
$GPGGA,195204.000,3748.7581,N,12217.7732,W,2,06,2.3,6.1,M,-25.1,M,1.8,0000*4F
$GPGSA,A,3,20,23,10,13,08,19,,,,,,,3.7,2.3,2.9*3C
$GPRMC,195204.000,A,3748.7581,N,12217.7732,W,2.15,120.32,200611,,,D*77
$GPVTG,120.32,T,,M,2.15,N,4.0,K,D*08
$GPGGA,195205.000,3748.7578,N,12217.7726,W,2,05,6.2,5.8,M,-25.1,M,1.8,0000*41
$GPGSA,A,3,23,10,13,08,19,,,,,,,,7.2,6.2,3.6*34
$GPRMC,195205.000,A,3748.7578,N,12217.7726,W,2.34,121.31,200611,,,D*74
$GPVTG,121.31,T,,M,2.34,N,4.3,K,D*0A
$GPGGA,195206.000,3748.7575,N,12217.7719,W,2,05,6.2,5.5,M,-25.1,M,2.8,0000*4D
$GPGSA,A,3,23,10,13,08,19,,,,,,,,7.2,6.2,3.6*34
$GPRMC,195206.000,A,3748.7575,N,12217.7719,W,2.36,116.13,200611,,,D*70
$GPVTG,116.13,T,,M,2.36,N,4.4,K,D*0B
$GPGGA,195207.000,3748.7568,N,12217.7712,W,2,06,2.3,5.6,M,-25.1,M,3.8,0000*4F
$GPGSA,A,3,20,23,10,13,08,19,,,,,,,3.7,2.3,2.9*3C
$GPGSV,3,1,12,13,75,067,31,07,58,299,26,23,46,116,36,10,43,281,33*7A
$GPGSV,3,2,12,08,34,272,33,03,26,081,21,16,23,042,20,06,19,066,20*70
$GPGSV,3,3,12,19,18,113,38,20,09,174,23,28,09,210,37,05,08,322,*71
$GPRMC,195207.000,A,3748.7568,N,12217.7712,W,2.68,134.68,200611,,,D*71
$GPVTG,134.68,T,,M,2.68,N,5.0,K,D*09
$GPGGA,195208.000,3748.7561,N,12217.7705,W,2,06,2.3,5.9,M,-25.1,M,4.8,0000*47
$GPGSA,A,3,20,23,10,13,08,19,,,,,,,3.7,2.3,2.9*3C
$GPRMC,195208.000,A,3748.7561,N,12217.7705,W,2.63,129.31,200611,,,D*7A
$GPVTG,129.31,T,,M,2.63,N,4.9,K,D*0A
$GPGGA,195209.000,3748.7555,N,12217.7699,W,2,06,2.3,6.0,M,-25.1,M,1.8,0000*4A
$GPGSA,A,3,20,23,10,13,08,19,,,,,,,3.7,2.3,2.9*3C
$GPRMC,195209.000,A,3748.7555,N,12217.7699,W,2.80,141.43,200611,,,D*7E
$GPVTG,141.43,T,,M,2.80,N,5.2,K,D*06
$GPGGA,195210.000,3748.7551,N,12217.7692,W,2,06,2.3,6.1,M,-25.1,M,1.8,0000*4C
$GPGSA,A,3,20,23,10,13,08,19,,,,,,,3.7,2.3,2.9*3C
$GPRMC,195210.000,A,3748.7551,N,12217.7692,W,2.43,124.82,200611,,,D*78
$GPVTG,124.82,T,,M,2.43,N,4.5,K,D*01
$GPGGA,195211.000,3748.7550,N,12217.7684,W,2,06,2.3,6.1,M,-25.1,M,1.8,0000*4B
$GPGSA,A,3,20,23,10,13,08,19,,,,,,,3.7,2.3,2.9*3C
$GPRMC,195211.000,A,3748.7550,N,12217.7684,W,2.44,121.98,200611,,,D*76
$GPVTG,121.98,T,,M,2.44,N,4.5,K,D*08
$GPGGA,195212.000,3748.7546,N,12217.7676,W,2,06,2.3,6.1,M,-25.1,M,1.8,0000*42
$GPGSA,A,3,20,23,10,13,08,19,,,,,,,3.7,2.3,2.9*3C
$GPGSV,3,1,12,13,75,067,30,07,58,299,27,23,46,116,36,10,43,281,33*7A
$GPGSV,3,2,12,08,34,272,33,03,26,081,21,16,23,042,20,06,19,066,20*70
$GPGSV,3,3,12,19,18,113,38,20,09,174,26,28,09,210,37,05,08,322,*74
$GPRMC,195212.000,A,3748.7546,N,12217.7676,W,2.57,127.52,200611,,,D*7D
$GPVTG,127.52,T,,M,2.57,N,4.8,K,D*07
$GPGGA,195213.000,3748.7541,N,12217.7669,W,2,06,2.3,6.4,M,-25.1,M,1.8,0000*4F
$GPGSA,A,3,20,23,10,13,08,19,,,,,,,3.7,2.3,2.9*3C
$GPRMC,195213.000,A,3748.7541,N,12217.7669,W,2.50,124.50,200611,,,D*73
$GPVTG,124.50,T,,M,2.50,N,4.6,K,D*0F
$GPGGA,195214.000,3748.7537,N,12217.7662,W,2,06,2.3,6.4,M,-25.1,M,2.8,0000*41
$GPGSA,A,3,20,23,10,13,08,19,,,,,,,3.7,2.3,2.9*3C
$GPRMC,195214.000,A,3748.7537,N,12217.7662,W,2.56,130.94,200611,,,D*75
$GPVTG,130.94,T,,M,2.56,N,4.7,K,D*05
$GPGGA,195215.000,3748.7532,N,12217.7656,W,2,06,2.3,6.4,M,-25.1,M,1.8,0000*41
$GPGSA,A,3,20,23,10,13,08,19,,,,,,,3.7,2.3,2.9*3C
$GPRMC,195215.000,A,3748.7532,N,12217.7656,W,2.39,128.86,200611,,,D*75
$GPVTG,128.86,T,,M,2.39,N,4.4,K,D*05
$GPGGA,195216.000,3748.7528,N,12217.7650,W,2,06,2.3,6.4,M,-25.1,M,1.8,0000*4F
$GPGSA,A,3,20,23,10,13,08,19,,,,,,,3.7,2.3,2.9*3C
$GPRMC,195216.000,A,3748.7528,N,12217.7650,W,2.01,123.52,200611,,,D*72
$GPVTG,123.52,T,,M,2.01,N,3.7,K,D*08
$GPGGA,195217.000,3748.7526,N,12217.7644,W,2,06,2.3,6.2,M,-25.1,M,1.8,0000*43
$GPGSA,A,3,20,23,10,13,08,19,,,,,,,3.7,2.3,2.9*3C
$GPGSV,3,1,12,13,75,068,31,07,58,299,28,23,46,117,37,10,43,281,33*7B
$GPGSV,3,2,12,08,34,272,33,03,26,081,21,16,23,042,20,06,19,066,20*70
$GPRMC,195217.000,A,3748.7526,N,12217.7644,W,2.05,123.46,200611,,,D*79
$GPVTG,123.46,T,,M,2.05,N,3.8,K,D*06
$GPGGA,195218.000,3748.7525,N,12217.7637,W,2,06,2.3,6.0,M,-25.1,M,2.8,0000*4A
$GPGSA,A,3,20,23,10,13,08,19,,,,,,,3.7,2.3,2.9*3C
$GPRMC,195218.000,A,3748.7525,N,12217.7637,W,2.17,114.26,200611,,,D*70
$GPVTG,114.26,T,,M,2.17,N,4.0,K,D*08
$GPGGA,195219.000,3748.7524,N,12217.7630,W,2,06,2.3,5.7,M,-25.1,M,3.8,0000*48
$GPGSA,A,3,20,23,10,13,08,19,,,,,,,3.7,2.3,2.9*3C
$GPRMC,195219.000,A,3748.7524,N,12217.7630,W,2.17,113.43,200611,,,D*73
$GPVTG,113.43,T,,M,2.17,N,4.0,K,D*0C
$GPGGA,195220.000,3748.7522,N,12217.7623,W,2,06,2.3,5.5,M,-25.1,M,4.8,0000*43
$GPGSA,A,3,20,23,10,13,08,19,,,,,,,3.7,2.3,2.9*3C
$GPRMC,195220.000,A,3748.7522,N,12217.7623,W,2.48,125.13,200611,,,D*77
$GPVTG,125.13,T,,M,2.48,N,4.6,K,D*00
$GPGGA,195221.000,3748.7518,N,12217.7616,W,2,06,2.3,5.6,M,-25.1,M,1.8,0000*4B
$GPGSA,A,3,20,23,10,13,08,19,,,,,,,3.7,2.3,2.9*3C
$GPRMC,195221.000,A,3748.7518,N,12217.7616,W,2.06,115.59,200611,,,D*7E
$GPVTG,115.59,T,,M,2.06,N,3.8,K,D*0E
$GPGGA,195222.000,3748.7517,N,12217.7609,W,2,06,2.3,5.2,M,-25.1,M,1.8,0000*4D
$GPGSA,A,3,20,23,10,13,08,19,,,,,,,3.7,2.3,2.9*3C
$GPGSV,3,1,12,13,75,068,31,07,58,299,28,23,46,117,37,10,43,281,32*7A
$GPGSV,3,2,12,08,34,272,33,03,26,081,21,16,23,042,20,06,19,066,20*70
$GPGSV,3,3,12,19,19,113,28,20,09,174,31,28,09,210,32,05,09,322,*76
$GPRMC,195222.000,A,3748.7517,N,12217.7609,W,2.14,117.59,200611,,,D*7D
$GPVTG,117.59,T,,M,2.14,N,4.0,K,D*00
$GPGGA,195223.000,3748.7516,N,12217.7601,W,2,06,2.3,4.8,M,-25.1,M,1.8,0000*4E
$GPGSA,A,3,20,23,10,13,08,19,,,,,,,3.7,2.3,2.9*3C
$GPRMC,195223.000,A,3748.7516,N,12217.7601,W,2.32,115.66,200611,,,D*7F
$GPVTG,115.66,T,,M,2.32,N,4.3,K,D*09
$GPGGA,195224.000,3748.7514,N,12217.7594,W,2,06,2.3,4.5,M,-25.1,M,2.8,0000*4A
$GPGSA,A,3,20,23,10,13,08,19,,,,,,,3.7,2.3,2.9*3C
$GPRMC,195224.000,A,3748.7514,N,12217.7594,W,2.31,117.95,200611,,,D*78
$GPVTG,117.95,T,,M,2.31,N,4.3,K,D*04
$GPGGA,195225.000,3748.7512,N,12217.7587,W,2,06,2.3,3.9,M,-25.1,M,3.8,0000*45
$GPGSA,A,3,20,23,10,13,08,19,,,,,,,3.7,2.3,2.9*3C
$GPRMC,195225.000,A,3748.7512,N,12217.7587,W,2.35,124.56,200611,,,D*76
$GPVTG,124.56,T,,M,2.35,N,4.3,K,D*0F
$GPGGA,195226.000,3748.7509,N,12217.7579,W,2,06,2.3,3.6,M,-25.1,M,1.8,0000*40
$GPGSA,A,3,20,23,10,13,08,19,,,,,,,3.7,2.3,2.9*3C
$GPRMC,195226.000,A,3748.7509,N,12217.7579,W,2.01,120.00,200611,,,D*7E
$GPVTG,120.00,T,,M,2.01,N,3.7,K,D*0C
$GPGGA,195227.000,3748.7507,N,12217.7571,W,2,06,2.3,3.5,M,-25.1,M,1.8,0000*44
$GPGSA,A,3,20,23,10,13,08,19,,,,,,,3.7,2.3,2.9*3C
$GPGSV,3,1,12,13,75,068,31,07,58,299,27,23,46,117,36,10,43,281,32*74
$GPGSV,3,2,12,08,34,272,33,03,26,081,29,16,23,042,20,06,19,066,23*7B
$GPGSV,3,3,12,19,19,113,29,20,09,174,37,28,09,210,27,05,09,322,*75
$GPRMC,195227.000,A,3748.7507,N,12217.7571,W,2.43,116.90,200611,,,D*73
$GPVTG,116.90,T,,M,2.43,N,4.5,K,D*03
$GPGGA,195228.000,3748.7504,N,12217.7564,W,2,06,2.3,3.4,M,-25.1,M,1.8,0000*4D
$GPGSA,A,3,20,23,10,13,08,19,,,,,,,3.7,2.3,2.9*3C
$GPRMC,195228.000,A,3748.7504,N,12217.7564,W,2.34,121.06,200611,,,D*70
$GPVTG,121.06,T,,M,2.34,N,4.3,K,D*0E
$GPGGA,195229.000,3748.7502,N,12217.7557,W,2,06,2.3,2.7,M,-25.1,M,1.8,0000*48
$GPGSA,A,3,20,23,10,13,08,19,,,,,,,3.7,2.3,2.9*3C
$GPRMC,195229.000,A,3748.7502,N,12217.7557,W,2.37,118.30,200611,,,D*7B
$GPVTG,118.30,T,,M,2.37,N,4.4,K,D*05
$GPGGA,195230.000,3748.7501,N,12217.7549,W,2,06,2.3,2.1,M,-25.1,M,1.8,0000*4A
$GPGSA,A,3,20,23,10,13,08,19,,,,,,,3.7,2.3,2.9*3C
$GPRMC,195230.000,A,3748.7501,N,12217.7549,W,2.40,116.92,200611,,,D*79
$GPVTG,116.92,T,,M,2.40,N,4.5,K,D*02
$GPGGA,195231.000,3748.7495,N,12217.7543,W,2,06,2.3,2.6,M,-25.1,M,1.8,0000*4A
$GPGSA,A,3,20,23,10,13,08,19,,,,,,,3.7,2.3,2.9*3C
$GPRMC,195231.000,A,3748.7495,N,12217.7543,W,2.37,115.07,200611,,,D*71
$GPVTG,115.07,T,,M,2.37,N,4.4,K,D*0C
$GPGGA,195232.000,3748.7491,N,12217.7537,W,2,06,2.3,2.9,M,-25.1,M,2.8,0000*42
$GPGSA,A,3,20,23,10,13,08,19,,,,,,,3.7,2.3,2.9*3C
$GPGSV,3,1,12,13,75,068,31,07,58,299,27,23,46,117,37,10,43,281,32*75
$GPGSV,3,2,12,08,34,272,33,03,26,081,29,16,23,042,26,06,19,066,27*79
$GPGSV,3,3,12,19,19,113,27,20,09,174,38,28,09,210,21,05,09,322,*72
$GPRMC,195232.000,A,3748.7491,N,12217.7537,W,2.23,115.93,200611,,,D*7D
$GPVTG,115.93,T,,M,2.23,N,4.1,K,D*01
$GPGGA,195233.000,3748.7487,N,12217.7530,W,2,06,2.3,3.1,M,-25.1,M,1.8,0000*49
$GPGSA,A,3,20,23,10,13,08,19,,,,,,,3.7,2.3,2.9*3C
$GPRMC,195233.000,A,3748.7487,N,12217.7530,W,2.15,117.22,200611,,,D*71
$GPVTG,117.22,T,,M,2.15,N,4.0,K,D*0D
$GPGGA,195234.000,3748.7483,N,12217.7523,W,2,06,2.3,3.2,M,-25.1,M,1.8,0000*4B
$GPGSA,A,3,20,23,10,13,08,19,,,,,,,3.7,2.3,2.9*3C
$GPRMC,195234.000,A,3748.7483,N,12217.7523,W,2.34,122.34,200611,,,D*72
$GPVTG,122.34,T,,M,2.34,N,4.3,K,D*0C
$GPGGA,195235.000,3748.7478,N,12217.7516,W,2,06,2.3,3.3,M,-25.1,M,1.8,0000*49
$GPGSA,A,3,20,23,10,13,08,19,,,,,,,3.7,2.3,2.9*3C
$GPRMC,195235.000,A,3748.7478,N,12217.7516,W,2.37,121.65,200611,,,D*75
$GPVTG,121.65,T,,M,2.37,N,4.4,K,D*0F
$GPGGA,195236.000,3748.7474,N,12217.7509,W,2,06,2.3,3.4,M,-25.1,M,2.8,0000*4C
$GPGSA,A,3,20,23,10,13,08,19,,,,,,,3.7,2.3,2.9*3C
$GPRMC,195236.000,A,3748.7474,N,12217.7509,W,2.37,122.46,200611,,,D*76
$GPVTG,122.46,T,,M,2.37,N,4.4,K,D*0D
$GPGGA,195237.000,3748.7471,N,12217.7502,W,2,06,2.3,3.5,M,-25.1,M,3.8,0000*43
$GPGSA,A,3,20,23,10,13,08,19,,,,,,,3.7,2.3,2.9*3C
$GPGSV,3,1,12,13,75,068,31,07,58,299,27,23,46,117,37,10,43,281,32*75
$GPGSV,3,2,12,08,34,272,33,03,26,081,20,16,23,042,25,06,19,066,18*7F
$GPGSV,3,3,12,19,19,113,34,20,09,174,30,28,09,210,23,05,09,322,*7A
$GPVTG,117.97,T,,M,2.11,N,3.9,K,D*09
$GPGGA,195238.000,3748.7467,N,12217.7496,W,2,06,2.3,3.5,M,-25.1,M,4.8,0000*40
$GPGSA,A,3,20,23,10,13,08,19,,,,,,,3.7,2.3,2.9*3C
$GPRMC,195238.000,A,3748.7467,N,12217.7496,W,2.11,120.04,200611,,,D*7D
$GPVTG,120.04,T,,M,2.11,N,3.9,K,D*07
$GPGGA,195239.000,3748.7464,N,12217.7490,W,2,06,2.3,3.5,M,-25.1,M,1.8,0000*41
$GPGSA,A,3,20,23,10,13,08,19,,,,,,,3.7,2.3,2.9*3C
$GPRMC,195239.000,A,3748.7464,N,12217.7490,W,1.78,121.44,200611,,,D*70
$GPVTG,121.44,T,,M,1.78,N,3.3,K,D*04
$GPGGA,195240.000,3748.7462,N,12217.7484,W,2,06,2.3,3.2,M,-25.1,M,1.8,0000*4B
$GPGSA,A,3,20,23,10,13,08,19,,,,,,,3.7,2.3,2.9*3C
$GPRMC,195240.000,A,3748.7462,N,12217.7484,W,1.98,122.65,200611,,,D*73
$GPVTG,122.65,T,,M,1.98,N,3.7,K,D*0E
$GPGGA,195241.000,3748.7460,N,12217.7477,W,2,06,2.3,2.9,M,-25.1,M,2.8,0000*4D
$GPGSA,A,3,20,23,10,13,08,19,,,,,,,3.7,2.3,2.9*3C
$GPRMC,195241.000,A,3748.7460,N,12217.7477,W,2.15,120.24,200611,,,D*7D
$GPVTG,120.24,T,,M,2.15,N,4.0,K,D*0F
$GPGGA,195242.000,3748.7458,N,12217.7470,W,2,06,2.3,2.5,M,-25.1,M,3.8,0000*4F
$GPGSA,A,3,20,23,10,13,08,19,,,,,,,3.7,2.3,2.9*3C
$GPGSV,3,1,12,13,75,068,31,07,58,299,27,23,46,117,28,10,43,281,32*7B
$GPGSV,3,2,12,08,34,272,33,03,26,081,25,16,23,042,24,06,19,066,18*7B
$GPGSV,3,3,12,19,19,113,35,20,09,174,32,28,09,210,37,05,09,322,*7C
$GPRMC,195242.000,A,3748.7458,N,12217.7470,W,2.31,120.40,200611,,,D*76
$GPVTG,120.40,T,,M,2.31,N,4.3,K,D*08
$GPGGA,195243.000,3748.7455,N,12217.7463,W,2,06,2.3,2.9,M,-25.1,M,4.8,0000*4A
$GPGSA,A,3,20,23,10,13,08,19,,,,,,,3.7,2.3,2.9*3C
$GPRMC,195243.000,A,3748.7455,N,12217.7463,W,2.36,117.64,200611,,,D*7D
$GPVTG,117.64,T,,M,2.36,N,4.4,K,D*0A
$GPGGA,195244.000,3748.7452,N,12217.7454,W,2,06,2.3,3.7,M,-25.1,M,5.8,0000*40
$GPGSA,A,3,20,23,10,13,08,19,,,,,,,3.7,2.3,2.9*3C
$GPRMC,195244.000,A,3748.7452,N,12217.7454,W,2.23,113.90,200611,,,D*72
$GPVTG,113.90,T,,M,2.23,N,4.1,K,D*04
$GPGGA,195245.000,3748.7449,N,12217.7447,W,2,06,2.3,3.2,M,-25.1,M,6.8,0000*4F
$GPGSA,A,3,20,23,10,13,08,19,,,,,,,3.7,2.3,2.9*3C
$GPRMC,195245.000,A,3748.7449,N,12217.7447,W,1.80,119.13,200611,,,D*70
$GPVTG,119.13,T,,M,1.80,N,3.3,K,D*0A
$GPGGA,195246.000,3748.7445,N,12217.7439,W,2,06,2.3,2.5,M,-25.1,M,7.8,0000*4E
$GPGSA,A,3,20,23,10,13,08,19,,,,,,,3.7,2.3,2.9*3C
$GPRMC,195246.000,A,3748.7445,N,12217.7439,W,1.67,115.28,200611,,,D*7B
$GPVTG,115.28,T,,M,1.67,N,3.1,K,D*05
$GPGGA,195247.000,3748.7441,N,12217.7430,W,2,06,2.3,3.3,M,-25.1,M,1.8,0000*43
$GPGSA,A,3,20,23,10,13,08,19,,,,,,,3.7,2.3,2.9*3C
$GPGSV,3,1,12,13,75,069,24,07,58,299,23,23,46,117,32,10,43,280,25*76
$GPGSV,3,2,12,08,34,272,26,03,26,081,26,16,23,042,21,06,19,066,24*76
$GPGSV,3,3,12,19,19,113,35,28,09,210,33,20,09,174,23,05,09,322,*78
$GPRMC,195247.000,A,3748.7441,N,12217.7430,W,1.67,122.66,200611,,,D*79
$GPVTG,122.66,T,,M,1.67,N,3.1,K,D*0B
$GPGGA,195248.000,3748.7436,N,12217.7420,W,2,06,2.3,4.1,M,-25.1,M,2.8,0000*4B
$GPGSA,A,3,20,23,10,13,08,19,,,,,,,3.7,2.3,2.9*3C
$GPRMC,195248.000,A,3748.7436,N,12217.7420,W,1.45,110.71,200611,,,D*70
$GPVTG,110.71,T,,M,1.45,N,2.7,K,D*0B
$GPGGA,195249.000,3748.7435,N,12217.7412,W,2,06,2.3,3.7,M,-25.1,M,3.8,0000*48
$GPGSA,A,3,20,23,10,13,08,19,,,,,,,3.7,2.3,2.9*3C
$GPRMC,195249.000,A,3748.7435,N,12217.7412,W,1.04,111.34,200611,,,D*76
$GPVTG,111.34,T,,M,1.04,N,1.9,K,D*03
$GPGGA,195250.000,3748.7431,N,12217.7404,W,2,06,2.3,4.4,M,-25.1,M,4.8,0000*40
$GPGSA,A,3,20,23,10,13,08,19,,,,,,,3.7,2.3,2.9*3C
$GPRMC,195250.000,A,3748.7431,N,12217.7404,W,1.38,115.12,200611,,,D*72
$GPVTG,115.12,T,,M,1.38,N,2.6,K,D*00
$GPGGA,195251.000,3748.7426,N,12217.7396,W,2,06,2.3,4.9,M,-25.1,M,1.8,0000*43
$GPGSA,A,3,20,23,10,13,08,19,,,,,,,3.7,2.3,2.9*3C
$GPRMC,195251.000,A,3748.7426,N,12217.7396,W,1.68,130.77,200611,,,D*78
$GPVTG,130.77,T,,M,1.68,N,3.1,K,D*07
$GPGGA,195252.000,3748.7424,N,12217.7388,W,2,06,2.3,5.4,M,-25.1,M,2.8,0000*42
$GPGSA,A,3,20,23,10,13,08,19,,,,,,,3.7,2.3,2.9*3C
$GPGSV,3,1,12,13,75,069,27,07,58,299,23,23,46,117,35,10,43,280,25*72
$GPGSV,3,2,12,08,34,272,26,03,26,081,32,16,23,042,23,06,19,066,23*76
$GPGSV,3,3,12,19,19,113,36,28,09,210,36,20,09,174,29,05,09,322,*74
$GPVTG,108.88,T,,M,1.27,N,2.4,K,D*03
$GPGGA,195253.000,3748.7423,N,12217.7383,W,2,06,2.3,5.1,M,-25.1,M,1.8,0000*49
$GPGSA,A,3,20,23,10,13,08,19,,,,,,,3.7,2.3,2.9*3C
$GPRMC,195253.000,A,3748.7423,N,12217.7383,W,0.88,113.22,200611,,,D*75
$GPVTG,113.22,T,,M,0.88,N,1.6,K,D*0C
$GPGGA,195254.000,3748.7419,N,12217.7375,W,2,06,2.3,5.8,M,-25.1,M,2.8,0000*44
$GPGSA,A,3,20,23,10,13,08,19,,,,,,,3.7,2.3,2.9*3C
$GPRMC,195254.000,A,3748.7419,N,12217.7375,W,1.12,125.43,200611,,,D*72
$GPVTG,125.43,T,,M,1.12,N,2.1,K,D*08
$GPGGA,195255.000,3748.7414,N,12217.7369,W,2,06,2.3,6.3,M,-25.1,M,3.8,0000*4C
$GPGSA,A,3,20,23,10,13,08,19,,,,,,,3.7,2.3,2.9*3C
$GPRMC,195255.000,A,3748.7414,N,12217.7369,W,0.93,140.25,200611,,,D*78
$GPVTG,140.25,T,,M,0.93,N,1.7,K,D*06
$GPGGA,195256.000,3748.7411,N,12217.7365,W,2,06,2.3,6.4,M,-25.1,M,4.8,0000*46
$GPGSA,A,3,20,23,10,13,08,19,,,,,,,3.7,2.3,2.9*3C
$GPRMC,195256.000,A,3748.7411,N,12217.7365,W,1.24,122.15,200611,,,D*78
$GPVTG,122.15,T,,M,1.24,N,2.3,K,D*0B
$GPGGA,195257.000,3748.7409,N,12217.7357,W,2,06,2.3,6.5,M,-25.1,M,5.8,0000*4F
$GPGSA,A,3,20,23,10,13,08,19,,,,,,,3.7,2.3,2.9*3C
$GPGSV,3,1,12,13,75,069,28,07,58,299,24,23,46,117,30,10,43,280,25*7F
$GPGSV,3,2,12,08,34,272,26,03,26,081,26,16,23,042,22,06,19,066,23*72
$GPGSV,3,3,12,19,19,113,37,28,09,210,27,20,09,174,26,05,09,322,*7A
$GPRMC,195257.000,A,3748.7409,N,12217.7357,W,1.76,102.83,200611,,,D*7B
$GPVTG,102.83,T,,M,1.76,N,3.3,K,D*00
$GPGGA,195258.000,3748.7406,N,12217.7348,W,2,06,2.3,6.4,M,-25.1,M,6.8,0000*43
$GPGSA,A,3,20,23,10,13,08,19,,,,,,,3.7,2.3,2.9*3C
$GPRMC,195258.000,A,3748.7406,N,12217.7348,W,1.88,117.69,200611,,,D*74
$GPVTG,117.69,T,,M,1.88,N,3.5,K,D*07
$GPGGA,195259.000,3748.7402,N,12217.7343,W,2,06,2.3,5.8,M,-25.1,M,7.8,0000*43
$GPGSA,A,3,20,23,10,13,08,19,,,,,,,3.7,2.3,2.9*3C
$GPRMC,195259.000,A,3748.7402,N,12217.7343,W,2.08,118.71,200611,,,D*77
$GPVTG,118.71,T,,M,2.08,N,3.9,K,D*06
$GPGGA,195300.000,3748.7397,N,12217.7338,W,2,06,2.3,4.7,M,-25.1,M,8.8,0000*48
$GPGSA,A,3,20,23,10,13,08,19,,,,,,,3.7,2.3,2.9*3C
$GPRMC,195300.000,A,3748.7397,N,12217.7338,W,1.99,131.53,200611,,,D*7D
$GPVTG,131.53,T,,M,1.99,N,3.7,K,D*08
$GPGGA,195301.000,3748.7397,N,12217.7332,W,2,06,2.3,3.6,M,-25.1,M,9.8,0000*44
$GPGSA,A,3,20,23,10,13,08,19,,,,,,,3.7,2.3,2.9*3C
$GPRMC,195301.000,A,3748.7397,N,12217.7332,W,1.38,124.85,200611,,,D*72
$GPVTG,124.85,T,,M,1.38,N,2.6,K,D*0C
$GPGGA,195302.000,3748.7392,N,12217.7325,W,2,06,2.3,3.0,M,-25.1,M,1.8,0000*4A
$GPGSA,A,3,20,23,10,13,08,19,,,,,,,3.7,2.3,2.9*3C
$GPGSV,3,1,12,13,75,069,24,07,58,299,24,23,46,117,35,10,43,280,25*76
$GPGSV,3,2,12,08,34,272,29,03,26,081,27,16,23,042,22,06,19,066,23*7C
$GPGSV,3,3,12,19,19,113,37,28,09,210,27,20,09,174,25,05,09,322,*79
$GPRMC,195302.000,A,3748.7392,N,12217.7325,W,2.05,122.64,200611,,,D*76
$GPVTG,122.64,T,,M,2.05,N,3.8,K,D*07
$GPGGA,195303.000,3748.7387,N,12217.7315,W,2,06,2.3,3.1,M,-25.1,M,1.8,0000*4D
$GPGSA,A,3,20,23,10,13,08,19,,,,,,,3.7,2.3,2.9*3C
$GPRMC,195303.000,A,3748.7387,N,12217.7315,W,2.28,119.88,200611,,,D*75
$GPVTG,119.88,T,,M,2.28,N,4.2,K,D*0F
$GPGGA,195304.000,3748.7386,N,12217.7306,W,2,06,2.3,2.9,M,-25.1,M,1.8,0000*40
$GPGSA,A,3,20,23,10,13,08,19,,,,,,,3.7,2.3,2.9*3C
$GPRMC,195304.000,A,3748.7386,N,12217.7306,W,1.72,119.34,200611,,,D*7A
$GPVTG,119.34,T,,M,1.72,N,3.2,K,D*03
$GPGGA,195305.000,3748.7382,N,12217.7300,W,2,06,2.3,2.4,M,-25.1,M,1.8,0000*4E
$GPGSA,A,3,20,23,10,13,08,19,,,,,,,3.7,2.3,2.9*3C
$GPRMC,195305.000,A,3748.7382,N,12217.7300,W,1.83,117.47,200611,,,D*7D
$GPVTG,117.47,T,,M,1.83,N,3.4,K,D*01
$GPGGA,195306.000,3748.7381,N,12217.7294,W,2,06,2.3,1.8,M,-25.1,M,2.8,0000*4E
$GPGSA,A,3,20,23,10,13,08,19,,,,,,,3.7,2.3,2.9*3C
$GPRMC,195306.000,A,3748.7381,N,12217.7294,W,1.78,111.84,200611,,,D*7C
$GPVTG,111.84,T,,M,1.78,N,3.3,K,D*0B
$GPGGA,195307.000,3748.7377,N,12217.7286,W,2,06,2.3,1.8,M,-25.1,M,1.8,0000*46
$GPGSA,A,3,20,23,10,13,08,19,,,,,,,3.7,2.3,2.9*3C
$GPGSV,3,1,12,13,75,069,28,07,58,299,24,23,46,117,37,10,43,280,25*78
$GPGSV,3,2,12,08,34,272,23,03,26,081,24,16,23,042,29,06,19,066,23*7E
$GPGSV,3,3,12,19,19,113,37,28,09,210,26,20,09,174,25,05,09,322,*78
$GPRMC,195307.000,A,3748.7377,N,12217.7286,W,1.52,110.84,200611,,,D*7E
$GPVTG,110.84,T,,M,1.52,N,2.8,K,D*08
$GPGGA,195308.000,3748.7375,N,12217.7278,W,2,06,2.3,1.7,M,-25.1,M,2.8,0000*46
$GPGSA,A,3,20,23,10,13,08,19,,,,,,,3.7,2.3,2.9*3C
$GPRMC,195308.000,A,3748.7375,N,12217.7278,W,1.59,109.36,200611,,,D*78
$GPVTG,109.36,T,,M,1.59,N,2.9,K,D*03
$GPGGA,195309.000,3748.7374,N,12217.7271,W,2,06,2.3,1.4,M,-25.1,M,1.8,0000*4F
$GPGSA,A,3,20,23,10,13,08,19,,,,,,,3.7,2.3,2.9*3C
$GPRMC,195309.000,A,3748.7374,N,12217.7271,W,1.47,94.56,200611,,,D*4D
$GPVTG,94.56,T,,M,1.47,N,2.7,K,D*31
$GPGGA,195310.000,3748.7369,N,12217.7266,W,2,06,2.3,1.3,M,-25.1,M,1.8,0000*4A
$GPGSA,A,3,20,23,10,13,08,19,,,,,,,3.7,2.3,2.9*3C
$GPRMC,195310.000,A,3748.7369,N,12217.7266,W,2.17,116.02,200611,,,D*73
$GPVTG,116.02,T,,M,2.17,N,4.0,K,D*0C
$GPGGA,195311.000,3748.7364,N,12217.7260,W,2,06,2.3,1.2,M,-25.1,M,1.8,0000*41
$GPGSA,A,3,20,23,10,13,08,19,,,,,,,3.7,2.3,2.9*3C
$GPRMC,195311.000,A,3748.7364,N,12217.7260,W,2.28,118.57,200611,,,D*7B
$GPVTG,118.57,T,,M,2.28,N,4.2,K,D*0C
$GPGGA,195312.000,3748.7359,N,12217.7254,W,2,06,2.3,1.0,M,-25.1,M,2.8,0000*4A
$GPGSA,A,3,20,23,10,13,08,19,,,,,,,3.7,2.3,2.9*3C
$GPGSV,3,1,12,13,75,069,29,07,58,299,24,23,46,117,37,10,43,280,28*74
$GPGSV,3,2,12,08,34,272,33,03,26,081,22,16,23,042,21,06,19,066,18*79
$GPGSV,3,3,12,19,19,113,38,28,09,210,24,20,09,174,30,05,09,322,*71
$GPRMC,195312.000,A,3748.7359,N,12217.7254,W,2.27,118.72,200611,,,D*79
$GPGGA,195313.000,3748.7355,N,12217.7248,W,2,06,2.3,0.9,M,-25.1,M,3.8,0000*43
$GPGSA,A,3,20,23,10,13,08,19,,,,,,,3.7,2.3,2.9*3C
$GPRMC,195313.000,A,3748.7355,N,12217.7248,W,2.28,119.90,200611,,,D*7B
$GPVTG,119.90,T,,M,2.28,N,4.2,K,D*06
$GPGGA,195314.000,3748.7350,N,12217.7242,W,2,06,2.3,0.9,M,-25.1,M,4.8,0000*4C
$GPGSA,A,3,20,23,10,13,08,19,,,,,,,3.7,2.3,2.9*3C
$GPRMC,195314.000,A,3748.7350,N,12217.7242,W,2.28,121.61,200611,,,D*76
$GPVTG,121.61,T,,M,2.28,N,4.2,K,D*03
$GPGGA,195315.000,3748.7348,N,12217.7236,W,2,06,2.3,0.6,M,-25.1,M,1.8,0000*4D
$GPGSA,A,3,20,23,10,13,08,19,,,,,,,3.7,2.3,2.9*3C
$GPRMC,195315.000,A,3748.7348,N,12217.7236,W,1.90,121.49,200611,,,D*77
$GPVTG,121.49,T,,M,1.90,N,3.5,K,D*09
$GPGGA,195316.000,3748.7346,N,12217.7232,W,2,06,2.3,0.3,M,-25.1,M,1.8,0000*41
$GPGSA,A,3,20,23,10,13,08,19,,,,,,,3.7,2.3,2.9*3C
$GPRMC,195316.000,A,3748.7346,N,12217.7232,W,1.26,117.29,200611,,,D*70
$GPVTG,117.29,T,,M,1.26,N,2.3,K,D*00
$GPGGA,195317.000,3748.7346,N,12217.7227,W,2,05,6.2,-0.3,M,-25.1,M,1.8,0000*6F
$GPGSA,A,3,23,10,13,08,19,,,,,,,,7.2,6.2,3.6*34
$GPGSV,3,1,12,13,75,070,30,07,58,300,34,23,46,117,27,10,43,280,38*74
$GPGSV,3,2,12,08,35,272,40,03,27,080,22,16,22,042,21,06,19,066,18*7D
$GPGSV,3,3,12,19,19,113,27,28,09,210,24,05,09,322,,20,09,174,*7C
$GPRMC,195317.000,A,3748.7346,N,12217.7227,W,1.71,113.66,200611,,,D*78
$GPVTG,113.66,T,,M,1.71,N,3.2,K,D*0D
$GPGGA,195318.000,3748.7343,N,12217.7221,W,2,05,6.2,-0.4,M,-25.1,M,1.8,0000*64
$GPGSA,A,3,23,10,13,08,19,,,,,,,,7.2,6.2,3.6*34
$GPRMC,195318.000,A,3748.7343,N,12217.7221,W,2.31,112.89,200611,,,D*73
$GPVTG,112.89,T,,M,2.31,N,4.3,K,D*0C
$GPGGA,195319.000,3748.7337,N,12217.7214,W,2,05,6.2,-0.2,M,-25.1,M,2.8,0000*65
$GPGSA,A,3,23,10,13,08,19,,,,,,,,7.2,6.2,3.6*34
$GPRMC,195319.000,A,3748.7337,N,12217.7214,W,2.06,126.64,200611,,,D*77
$GPVTG,126.64,T,,M,2.06,N,3.8,K,D*00
$GPGGA,195320.000,3748.7332,N,12217.7208,W,2,05,6.2,0.1,M,-25.1,M,3.8,0000*48
$GPGSA,A,3,23,10,13,08,19,,,,,,,,7.2,6.2,3.6*34
$GPRMC,195320.000,A,3748.7332,N,12217.7208,W,2.05,122.46,200611,,,D*72
$GPVTG,122.46,T,,M,2.05,N,3.8,K,D*07
$GPGGA,195321.000,3748.7324,N,12217.7202,W,2,05,6.2,0.6,M,-25.1,M,1.8,0000*41
$GPGSA,A,3,23,10,13,08,19,,,,,,,,7.2,6.2,3.6*34
$GPRMC,195321.000,A,3748.7324,N,12217.7202,W,2.28,128.61,200611,,,D*7E
$GPVTG,128.61,T,,M,2.28,N,4.2,K,D*0A
$GPGGA,195322.000,3748.7317,N,12217.7195,W,2,05,6.2,1.2,M,-25.1,M,1.8,0000*4A
$GPGSA,A,3,23,10,13,08,19,,,,,,,,7.2,6.2,3.6*34
$GPGSV,3,1,12,13,75,070,30,07,58,300,25,23,46,117,39,10,43,280,29*7B
$GPGSV,3,2,12,08,35,272,31,03,27,080,31,16,22,042,21,06,19,066,28*7A
$GPGSV,3,3,12,19,19,113,41,28,09,210,23,05,09,322,22,20,09,174,*7B
$GPRMC,195322.000,A,3748.7317,N,12217.7195,W,2.39,125.41,200611,,,D*7F
$GPVTG,125.41,T,,M,2.39,N,4.4,K,D*03
$GPGGA,195323.000,3748.7310,N,12217.7188,W,2,05,6.2,1.7,M,-25.1,M,1.8,0000*45
$GPGSA,A,3,23,10,13,08,19,,,,,,,,7.2,6.2,3.6*34
$GPRMC,195323.000,A,3748.7310,N,12217.7188,W,2.29,124.06,200611,,,D*76
$GPVTG,124.06,T,,M,2.29,N,4.2,K,D*06
$GPGGA,195324.000,3748.7304,N,12217.7181,W,2,05,6.2,2.2,M,-25.1,M,1.8,0000*48
$GPGSA,A,3,23,10,13,08,19,,,,,,,,7.2,6.2,3.6*34
$GPRMC,195324.000,A,3748.7304,N,12217.7181,W,2.31,122.29,200611,,,D*7F
$GPVTG,122.29,T,,M,2.31,N,4.3,K,D*05
$GPGGA,195325.000,3748.7297,N,12217.7176,W,2,05,6.2,2.6,M,-25.1,M,2.8,0000*4D
$GPGSA,A,3,23,10,13,08,19,,,,,,,,7.2,6.2,3.6*34
$GPRMC,195325.000,A,3748.7297,N,12217.7176,W,2.00,137.88,200611,,,D*70
$GPVTG,137.88,T,,M,2.00,N,3.7,K,D*0B
$GPGGA,195326.000,3748.7294,N,12217.7167,W,2,05,6.2,3.5,M,-25.1,M,1.8,0000*4C
$GPGSA,A,3,23,10,13,08,19,,,,,,,,7.2,6.2,3.6*34
$GPRMC,195326.000,A,3748.7294,N,12217.7167,W,1.59,142.57,200611,,,D*7F
$GPVTG,142.57,T,,M,1.59,N,2.9,K,D*0B
$GPGGA,195327.000,3748.7293,N,12217.7158,W,2,05,6.2,4.1,M,-25.1,M,1.8,0000*45
$GPGSA,A,3,23,10,13,08,19,,,,,,,,7.2,6.2,3.6*34
$GPGSV,3,1,12,13,75,070,31,07,58,300,25,23,46,117,39,10,43,280,22*71
$GPGSV,3,2,12,08,35,272,24,03,27,080,38,16,22,042,33,06,19,066,37*7A
$GPGSV,3,3,12,19,19,113,40,28,09,210,29,05,09,322,24,20,09,174,*76
$GPVTG,129.05,T,,M,1.31,N,2.4,K,D*02
$GPGGA,195328.000,3748.7290,N,12217.7154,W,2,05,6.2,4.4,M,-25.1,M,1.8,0000*40
$GPGSA,A,3,23,10,13,08,19,,,,,,,,7.2,6.2,3.6*34
$GPRMC,195328.000,A,3748.7290,N,12217.7154,W,0.93,150.10,200611,,,D*72
$GPVTG,150.10,T,,M,0.93,N,1.7,K,D*01
$GPGGA,195329.000,3748.7294,N,12217.7145,W,2,05,6.2,5.0,M,-25.1,M,1.8,0000*40
$GPGSA,A,3,23,10,13,08,19,,,,,,,,7.2,6.2,3.6*34
$GPRMC,195329.000,A,3748.7294,N,12217.7145,W,0.54,138.39,200611,,,D*79
$GPVTG,138.39,T,,M,0.54,N,1.0,K,D*08
$GPGGA,195330.000,3748.7299,N,12217.7138,W,2,05,6.2,5.5,M,-25.1,M,2.8,0000*49
$GPGSA,A,3,23,10,13,08,19,,,,,,,,7.2,6.2,3.6*34
$GPRMC,195330.000,A,3748.7299,N,12217.7138,W,0.62,43.24,200611,,,D*42
$GPVTG,43.24,T,,M,0.62,N,1.1,K,D*3D
$GPGGA,195331.000,3748.7305,N,12217.7129,W,2,05,6.2,6.3,M,-25.1,M,3.8,0000*48
$GPGSA,A,3,23,10,13,08,19,,,,,,,,7.2,6.2,3.5*37
$GPRMC,195331.000,A,3748.7305,N,12217.7129,W,0.98,22.34,200611,,,D*44
$GPVTG,22.34,T,,M,0.98,N,1.8,K,D*37
$GPGGA,195332.000,3748.7311,N,12217.7122,W,2,05,6.2,7.0,M,-25.1,M,4.8,0000*40
$GPGSA,A,3,23,10,13,08,19,,,,,,,,7.2,6.2,3.5*37
$GPGSV,3,1,12,13,75,070,33,07,58,300,26,23,46,117,40,10,43,280,22*7E
$GPGSV,3,2,12,08,35,272,19,03,27,080,39,16,22,042,34,06,19,066,38*7D
$GPGSV,3,3,12,19,19,113,34,28,09,210,27,05,09,322,25,20,09,174,*7A
$GPRMC,195332.000,A,3748.7311,N,12217.7122,W,0.95,13.30,200611,,,D*42
$GPVTG,13.30,T,,M,0.95,N,1.8,K,D*3C
$GPGGA,195333.000,3748.7313,N,12217.7116,W,2,05,6.2,7.6,M,-25.1,M,5.8,0000*43
$GPGSA,A,3,23,10,13,08,19,,,,,,,,7.2,6.2,3.5*37
$GPRMC,195333.000,A,3748.7313,N,12217.7116,W,0.70,19.90,200611,,,D*4D
$GPVTG,19.90,T,,M,0.70,N,1.3,K,D*3C
$GPGGA,195334.000,3748.7314,N,12217.7112,W,2,05,6.2,8.2,M,-25.1,M,6.8,0000*4F
$GPGSA,A,3,23,10,13,08,19,,,,,,,,7.2,6.2,3.5*37
$GPRMC,195334.000,A,3748.7314,N,12217.7112,W,0.59,9.30,200611,,,D*79
$GPVTG,9.30,T,,M,0.59,N,1.1,K,D*0E
$GPGGA,195335.000,3748.7319,N,12217.7108,W,2,05,6.2,8.5,M,-25.1,M,7.8,0000*4E
$GPGSA,A,3,23,10,13,08,19,,,,,,,,7.2,6.2,3.5*37
$GPRMC,195335.000,A,3748.7319,N,12217.7108,W,0.65,314.09,200611,,,D*74
$GPVTG,314.09,T,,M,0.65,N,1.2,K,D*07
$GPGGA,195336.000,3748.7323,N,12217.7103,W,2,05,6.2,9.0,M,-25.1,M,8.8,0000*44
$GPGSA,A,3,23,10,13,08,19,,,,,,,,7.2,6.2,3.5*37
$GPRMC,195336.000,A,3748.7323,N,12217.7103,W,0.91,342.66,200611,,,D*74
$GPVTG,342.66,T,,M,0.91,N,1.7,K,D*03
$GPGGA,195337.000,3748.7327,N,12217.7100,W,2,05,6.2,9.3,M,-25.1,M,9.8,0000*40
$GPGSA,A,3,23,10,13,08,19,,,,,,,,7.2,6.2,3.5*37
$GPGSV,3,1,12,13,75,070,34,07,58,300,26,23,46,117,40,10,43,280,22*79
$GPGSV,3,2,12,08,35,272,19,03,27,080,41,16,22,042,35,06,19,066,39*72
$GPGSV,3,3,12,19,19,113,34,28,09,210,24,05,09,322,19,20,09,174,*76
$GPRMC,195337.000,A,3748.7327,N,12217.7100,W,0.72,344.36,200611,,,D*7C
$GPVTG,344.36,T,,M,0.72,N,1.3,K,D*09
$GPGGA,195338.000,3748.7330,N,12217.7095,W,2,05,6.2,9.8,M,-25.1,M,10.8,0000*77
$GPGSA,A,3,23,10,13,08,19,,,,,,,,7.2,6.2,3.5*37
$GPRMC,195338.000,A,3748.7330,N,12217.7095,W,0.48,354.83,200611,,,D*7E
$GPVTG,354.83,T,,M,0.48,N,0.9,K,D*04
$GPGGA,195339.000,3748.7341,N,12217.7085,W,2,05,6.2,10.1,M,-25.1,M,11.8,0000*41
$GPGSA,A,3,23,10,13,08,19,,,,,,,,7.2,6.2,3.5*37
$GPRMC,195339.000,A,3748.7341,N,12217.7085,W,0.72,20.71,200611,,,D*4C
$GPVTG,20.71,T,,M,0.72,N,1.3,K,D*3B
$GPGGA,195339.000,3748.7353,N,12217.7073,W,2,05,6.2,10.4,M,-25.1,M,12.8,0000*4D
$GPGSA,A,3,23,10,13,08,19,,,,,,,,7.2,6.2,3.5*37
$GPRMC,195339.000,A,3748.7353,N,12217.7073,W,1.08,31.56,200611,,,D*4F
$GPVTG,31.56,T,,M,1.08,N,2.0,K,D*32
$GPGGA,195340.000,3748.7355,N,12217.7070,W,2,05,6.2,10.4,M,-25.1,M,1.8,0000*74
$GPGSA,A,3,23,10,13,08,19,,,,,,,,7.2,6.2,3.5*37
$GPRMC,195340.000,A,3748.7355,N,12217.7070,W,0.76,17.70,200611,,,D*4C
$GPVTG,17.70,T,,M,0.76,N,1.4,K,D*3D
$GPGGA,195341.000,3748.7365,N,12217.7065,W,2,05,6.2,10.1,M,-25.1,M,2.8,0000*74
$GPGSA,A,3,23,10,13,08,19,,,,,,,,7.2,6.2,3.5*37
$GPGSV,3,1,12,13,75,070,34,07,58,300,26,23,46,117,39,10,43,280,22*77
$GPGSV,3,2,12,08,35,272,22,03,27,080,41,16,22,042,36,06,19,066,39*79
$GPRMC,195341.000,A,3748.7365,N,12217.7065,W,0.91,9.76,200611,,,D*7A
$GPVTG,9.76,T,,M,0.91,N,1.7,K,D*0E
$GPGGA,195342.000,3748.7374,N,12217.7057,W,2,05,6.2,10.2,M,-25.1,M,3.8,0000*74
$GPGSA,A,3,23,10,13,08,19,,,,,,,,7.2,6.2,3.5*37
$GPRMC,195342.000,A,3748.7374,N,12217.7057,W,0.89,16.72,200611,,,D*4B
$GPVTG,16.72,T,,M,0.89,N,1.6,K,D*3C
$GPGGA,195343.000,3748.7377,N,12217.7053,W,2,05,6.2,10.1,M,-25.1,M,4.8,0000*76
$GPGSA,A,3,23,10,13,08,19,,,,,,,,7.2,6.2,3.5*37
$GPRMC,195343.000,A,3748.7377,N,12217.7053,W,1.06,36.53,200611,,,D*4A
$GPVTG,36.53,T,,M,1.06,N,2.0,K,D*3E
$GPGGA,195344.000,3748.7371,N,12217.7055,W,2,05,6.2,10.0,M,-25.1,M,1.8,0000*75
$GPGSA,A,3,23,10,13,08,19,,,,,,,,7.2,6.2,3.5*37
$GPRMC,195344.000,A,3748.7371,N,12217.7055,W,0.86,60.34,200611,,,D*46
$GPVTG,60.34,T,,M,0.86,N,1.6,K,D*30
$GPGGA,195345.000,3748.7369,N,12217.7054,W,2,05,6.2,10.1,M,-25.1,M,1.8,0000*7D
$GPGSA,A,3,23,10,13,08,19,,,,,,,,7.2,6.2,3.5*37
$GPRMC,195345.000,A,3748.7369,N,12217.7054,W,0.85,49.91,200611,,,D*48
$GPVTG,49.91,T,,M,0.85,N,1.6,K,D*37
$GPGGA,195346.000,3748.7368,N,12217.7052,W,2,05,6.2,10.0,M,-25.1,M,2.8,0000*7B
$GPGSA,A,3,23,10,13,08,19,,,,,,,,7.2,6.2,3.5*37
$GPGSV,3,1,12,13,75,071,34,07,58,300,24,23,46,117,40,10,43,280,20*78
$GPGSV,3,2,12,08,35,273,24,03,27,080,41,16,22,042,33,06,19,066,40*75
$GPGSV,3,3,12,19,19,113,38,28,10,210,29,05,09,322,19,20,09,174,*7F
$GPRMC,195346.000,A,3748.7368,N,12217.7052,W,0.74,27.65,200611,,,D*41
$GPVTG,27.65,T,,M,0.74,N,1.4,K,D*38
$GPGGA,195347.000,3748.7378,N,12217.7044,W,2,05,6.2,10.2,M,-25.1,M,3.8,0000*7F
$GPGSA,A,3,23,10,13,08,19,,,,,,,,7.2,6.2,3.5*37
$GPRMC,195347.000,A,3748.7378,N,12217.7044,W,1.04,0.93,200611,,,D*7C
$GPVTG,0.93,T,,M,1.04,N,1.9,K,D*0F
$GPGGA,195348.000,3748.7383,N,12217.7038,W,2,05,6.2,10.7,M,-25.1,M,4.8,0000*7D
$GPGSA,A,3,23,10,13,08,19,,,,,,,,7.2,6.2,3.5*37
$GPRMC,195348.000,A,3748.7383,N,12217.7038,W,0.97,343.60,200611,,,D*7F
$GPVTG,343.60,T,,M,0.97,N,1.8,K,D*0D
$GPGGA,195349.000,3748.7388,N,12217.7033,W,2,05,6.2,11.0,M,-25.1,M,5.8,0000*7B
$GPGSA,A,3,23,10,13,08,19,,,,,,,,7.2,6.2,3.5*37
$GPRMC,195349.000,A,3748.7388,N,12217.7033,W,1.06,344.66,200611,,,D*76
$GPVTG,344.66,T,,M,1.06,N,2.0,K,D*0E
$GPGGA,195350.000,3748.7393,N,12217.7030,W,2,05,6.2,11.0,M,-25.1,M,6.8,0000*79
$GPGSA,A,3,23,10,13,08,19,,,,,,,,7.2,6.2,3.5*37
$GPRMC,195350.000,A,3748.7393,N,12217.7030,W,0.99,334.14,200611,,,D*72
$GPVTG,334.14,T,,M,0.99,N,1.8,K,D*00
$GPGGA,195351.000,3748.7418,N,12217.7021,W,2,06,2.4,9.0,M,-25.1,M,7.8,0000*45
$GPGSA,A,3,23,10,13,08,19,03,,,,,,,3.2,2.4,2.2*34
$GPGSV,3,1,12,13,75,071,34,07,58,300,24,23,46,117,40,10,43,280,20*78
$GPGSV,3,2,12,08,35,273,19,03,27,080,41,16,22,042,30,06,19,066,38*77
$GPGSV,3,3,12,19,19,113,38,28,10,210,25,05,09,322,19,20,09,174,*73
$GPRMC,195351.000,A,3748.7418,N,12217.7021,W,2.34,9.56,200611,,,D*79
$GPVTG,9.56,T,,M,2.34,N,4.3,K,D*00
$GPGGA,195352.000,3748.7434,N,12217.7011,W,2,06,2.4,8.3,M,-25.1,M,8.8,0000*46
$GPGSA,A,3,23,10,13,08,19,03,,,,,,,3.2,2.4,2.2*34
$GPRMC,195352.000,A,3748.7434,N,12217.7011,W,2.23,22.09,200611,,,D*42
$GPVTG,22.09,T,,M,2.23,N,4.1,K,D*37
$GPGGA,195353.000,3748.7448,N,12217.7000,W,2,06,2.4,7.9,M,-25.1,M,9.8,0000*48
$GPGSA,A,3,23,10,13,08,19,03,,,,,,,3.2,2.4,2.2*34
$GPRMC,195353.000,A,3748.7448,N,12217.7000,W,2.35,16.68,200611,,,D*4F
$GPVTG,16.68,T,,M,2.35,N,4.4,K,D*35
$GPGGA,195354.000,3748.7456,N,12217.6996,W,2,06,2.4,7.7,M,-25.1,M,10.8,0000*71
$GPGSA,A,3,23,10,13,08,19,03,,,,,,,3.2,2.4,2.2*34
$GPRMC,195354.000,A,3748.7456,N,12217.6996,W,2.39,18.82,200611,,,D*46
$GPVTG,18.82,T,,M,2.39,N,4.4,K,D*33
$GPGGA,195355.000,3748.7463,N,12217.6991,W,2,06,2.4,7.5,M,-25.1,M,11.8,0000*72
$GPGSA,A,3,23,10,13,08,19,03,,,,,,,3.2,2.4,2.2*34
$GPRMC,195355.000,A,3748.7463,N,12217.6991,W,2.36,14.05,200611,,,D*4A
$GPVTG,14.05,T,,M,2.36,N,4.4,K,D*3F
$GPGGA,195356.000,3748.7472,N,12217.6984,W,2,06,2.4,7.1,M,-25.1,M,1.8,0000*40
$GPGSA,A,3,23,10,13,08,19,03,,,,,,,3.2,2.4,2.2*34
$GPGSV,3,1,12,13,75,071,32,07,58,300,27,23,46,117,40,10,43,280,22*7F
$GPGSV,3,2,12,08,35,273,21,03,27,080,41,16,22,042,30,06,19,065,41*71
$GPGSV,3,3,12,19,19,112,38,28,10,210,26,05,09,322,19,20,09,174,*71
$GPRMC,195356.000,A,3748.7472,N,12217.6984,W,2.29,10.72,200611,,,D*47
$GPVTG,10.72,T,,M,2.29,N,4.2,K,D*33
$GPGGA,195357.000,3748.7480,N,12217.6976,W,2,06,2.4,7.1,M,-25.1,M,1.8,0000*41
$GPGSA,A,3,23,10,13,08,19,03,,,,,,,3.2,2.4,2.2*34
$GPRMC,195357.000,A,3748.7480,N,12217.6976,W,2.56,21.16,200611,,,D*4E
$GPVTG,21.16,T,,M,2.56,N,4.7,K,D*3E
$GPGGA,195358.000,3748.7488,N,12217.6969,W,2,06,2.4,7.6,M,-25.1,M,2.8,0000*4C
$GPGSA,A,3,23,10,13,08,19,03,,,,,,,3.2,2.4,2.2*34
$GPRMC,195358.000,A,3748.7488,N,12217.6969,W,2.47,35.94,200611,,,D*48
$GPVTG,35.94,T,,M,2.47,N,4.6,K,D*30
$GPGGA,195359.000,3748.7492,N,12217.6960,W,2,06,2.4,8.0,M,-25.1,M,3.8,0000*47
$GPGSA,A,3,23,10,13,08,19,03,,,,,,,3.2,2.4,2.2*34
$GPRMC,195359.000,A,3748.7492,N,12217.6960,W,2.38,27.78,200611,,,D*42
$GPVTG,27.78,T,,M,2.38,N,4.4,K,D*3B
$GPGGA,195400.000,3748.7498,N,12217.6956,W,2,06,2.4,8.2,M,-25.1,M,4.8,0000*46
$GPGSA,A,3,23,10,13,08,19,03,,,,,,,3.2,2.4,2.2*34
$GPRMC,195400.000,A,3748.7498,N,12217.6956,W,2.78,27.39,200611,,,D*47
$GPVTG,27.39,T,,M,2.78,N,5.1,K,D*3E
$GPGGA,195401.000,3748.7504,N,12217.6952,W,2,06,2.4,8.1,M,-25.1,M,5.8,0000*45
$GPGSA,A,3,23,10,13,08,19,03,,,,,,,3.2,2.4,2.2*34
$GPGSV,3,1,12,13,75,071,30,07,58,300,26,23,46,117,35,10,43,280,21*7D
$GPGSV,3,2,12,08,35,273,20,03,27,080,40,16,22,042,31,06,19,065,38*7E
$GPGSV,3,3,12,19,19,112,39,28,10,210,26,05,09,322,20,20,09,174,*7A
$GPRMC,195401.000,A,3748.7504,N,12217.6952,W,2.65,22.59,200611,,,D*49
$GPGGA,195402.000,3748.7510,N,12217.6943,W,2,06,2.4,8.4,M,-25.1,M,6.8,0000*45
$GPGSA,A,3,23,10,13,08,19,03,,,,,,,3.2,2.4,2.2*34
$GPRMC,195402.000,A,3748.7510,N,12217.6943,W,2.44,16.50,200611,,,D*42
$GPVTG,16.50,T,,M,2.44,N,4.5,K,D*39
$GPGGA,195403.000,3748.7515,N,12217.6939,W,2,07,1.7,8.1,M,-25.1,M,7.8,0000*49
$GPGSA,A,3,23,10,13,08,19,03,06,,,,,,2.6,1.7,2.0*35
$GPRMC,195403.000,A,3748.7515,N,12217.6939,W,2.17,15.60,200611,,,D*4D
$GPVTG,15.60,T,,M,2.17,N,4.0,K,D*3A
$GPGGA,195404.000,3748.7520,N,12217.6931,W,2,07,1.7,8.5,M,-25.1,M,8.8,0000*4B
$GPGSA,A,3,23,10,13,08,19,03,06,,,,,,2.6,1.7,2.0*35
$GPRMC,195404.000,A,3748.7520,N,12217.6931,W,2.24,23.57,200611,,,D*45
$GPVTG,23.57,T,,M,2.24,N,4.2,K,D*39
$GPGGA,195405.000,3748.7524,N,12217.6923,W,2,07,1.7,8.5,M,-25.1,M,9.8,0000*4C
$GPGSA,A,3,23,10,13,08,19,03,06,,,,,,2.6,1.7,2.0*35
$GPRMC,195405.000,A,3748.7524,N,12217.6923,W,2.53,32.93,200611,,,D*4B
$GPVTG,32.93,T,,M,2.53,N,4.7,K,D*34
$GPGGA,195406.000,3748.7529,N,12217.6916,W,2,07,1.7,8.5,M,-25.1,M,10.8,0000*7C
$GPGSA,A,3,23,10,13,08,19,03,06,,,,,,2.6,1.7,2.0*35
$GPGSV,3,1,12,13,75,071,34,07,58,300,25,23,46,117,36,10,43,279,21*7F
$GPGSV,3,2,12,08,35,273,20,03,27,080,41,16,22,042,35,06,19,065,40*74
$GPGSV,3,3,12,19,19,112,38,28,10,210,26,05,09,322,20,20,08,174,*7A
$GPRMC,195406.000,A,3748.7529,N,12217.6916,W,2.36,32.52,200611,,,D*4D
$GPVTG,32.52,T,,M,2.36,N,4.4,K,D*39
$GPGGA,195407.000,3748.7533,N,12217.6912,W,2,07,1.7,8.0,M,-25.1,M,11.8,0000*76
$GPGSA,A,3,23,10,13,08,19,03,06,,,,,,2.6,1.7,2.0*35
$GPRMC,195407.000,A,3748.7533,N,12217.6912,W,2.21,25.82,200611,,,D*4E
$GPVTG,25.82,T,,M,2.21,N,4.1,K,D*31
$GPGGA,195408.000,3748.7537,N,12217.6910,W,2,07,1.7,7.4,M,-25.1,M,12.8,0000*77
$GPGSA,A,3,23,10,13,08,19,03,06,,,,,,2.6,1.7,2.0*35
$GPRMC,195408.000,A,3748.7537,N,12217.6910,W,2.14,26.72,200611,,,D*4D
$GPVTG,26.72,T,,M,2.14,N,4.0,K,D*3A
$GPGGA,195409.000,3748.7541,N,12217.6907,W,2,07,1.7,6.9,M,-25.1,M,13.8,0000*7C
$GPGSA,A,3,23,10,13,08,19,03,06,,,,,,2.6,1.7,2.0*35
$GPRMC,195409.000,A,3748.7541,N,12217.6907,W,2.11,26.74,200611,,,D*48
$GPVTG,26.74,T,,M,2.11,N,3.9,K,D*37
$GPGGA,195410.000,3748.7546,N,12217.6903,W,2,07,1.7,6.5,M,-25.1,M,14.8,0000*7C
$GPGSA,A,3,23,10,13,08,19,03,06,,,,,,2.6,1.7,2.0*35
$GPRMC,195410.000,A,3748.7546,N,12217.6903,W,2.27,16.22,200611,,,D*46
$GPVTG,16.22,T,,M,2.27,N,4.2,K,D*3E
$GPGGA,195411.000,3748.7550,N,12217.6896,W,2,07,1.7,6.6,M,-25.1,M,15.8,0000*75
$GPGSA,A,3,23,10,13,08,19,03,06,,,,,,2.6,1.7,2.0*35
$GPGSV,3,1,12,13,75,071,35,07,58,300,25,23,46,117,40,10,43,279,21*7F
$GPGSV,3,2,12,08,35,273,19,03,27,080,41,16,22,042,28,06,19,065,40*72
$GPGSV,3,3,12,19,19,112,38,28,10,210,24,05,09,322,20,20,08,174,*78
$GPRMC,195411.000,A,3748.7550,N,12217.6896,W,2.14,22.87,200611,,,D*45
$GPVTG,22.87,T,,M,2.14,N,4.0,K,D*34
$GPGGA,195412.000,3748.7555,N,12217.6895,W,2,07,1.7,6.0,M,-25.1,M,16.8,0000*75
$GPGSA,A,3,23,10,13,08,19,03,06,,,,,,2.6,1.7,2.0*35
$GPRMC,195412.000,A,3748.7555,N,12217.6895,W,2.17,6.22,200611,,,D*7A
$GPVTG,6.22,T,,M,2.17,N,4.0,K,D*0E
$GPGGA,195413.000,3748.7560,N,12217.6894,W,2,07,1.7,5.5,M,-25.1,M,17.8,0000*74
$GPGSA,A,3,23,10,13,08,19,03,06,,,,,,2.6,1.7,2.0*35
$GPRMC,195413.000,A,3748.7560,N,12217.6894,W,2.26,0.88,200611,,,D*78
$GPVTG,0.88,T,,M,2.26,N,4.2,K,D*08
$GPGGA,195414.000,3748.7566,N,12217.6889,W,1,07,1.7,5.7,M,-25.1,M,,0000*68
$GPGSA,A,3,23,10,13,08,19,03,06,,,,,,2.6,1.7,2.0*35
$GPRMC,195414.000,A,3748.7566,N,12217.6889,W,2.18,7.97,200611,,,A*74
$GPVTG,7.97,T,,M,2.18,N,4.0,K,A*0B
$GPGGA,195415.000,3748.7570,N,12217.6883,W,1,07,1.7,6.0,M,-25.1,M,,0000*60
$GPGSA,A,3,23,10,13,08,19,03,06,,,,,,2.6,1.7,2.0*35
$GPRMC,195415.000,A,3748.7570,N,12217.6883,W,2.09,19.68,200611,,,A*47
$GPVTG,19.68,T,,M,2.09,N,3.9,K,A*3A
$GPGGA,195416.000,3748.7574,N,12217.6876,W,1,07,1.7,6.3,M,-25.1,M,,0000*6E
$GPGSA,A,3,23,10,13,08,19,03,06,,,,,,2.6,1.7,2.0*35
$GPGSV,3,1,12,13,75,072,32,07,58,300,25,23,45,118,36,10,43,279,21*76
$GPGSV,3,2,12,08,35,273,20,03,27,080,31,16,22,042,37,06,19,065,30*76
$GPGSV,3,3,12,19,19,112,33,28,10,210,24,05,09,322,20,20,08,174,*73
$GPVTG,21.08,T,,M,1.98,N,3.7,K,A*32
$GPGGA,195417.000,3748.7580,N,12217.6872,W,1,07,1.7,6.1,M,-25.1,M,,0000*62
$GPGSA,A,3,23,10,13,08,19,03,06,,,,,,2.6,1.7,2.0*35
$GPRMC,195417.000,A,3748.7580,N,12217.6872,W,2.34,16.33,200611,,,A*4B
$GPVTG,16.33,T,,M,2.34,N,4.3,K,A*38
$GPGGA,195418.000,3748.7587,N,12217.6871,W,1,07,1.7,5.8,M,-25.1,M,,0000*63
$GPGSA,A,3,23,10,13,08,19,03,06,,,,,,2.6,1.7,2.0*35
$GPRMC,195418.000,A,3748.7587,N,12217.6871,W,2.36,16.18,200611,,,A*4B
$GPVTG,16.18,T,,M,2.36,N,4.4,K,A*34
$GPGGA,195419.000,3748.7594,N,12217.6870,W,1,07,1.7,5.4,M,-25.1,M,,0000*6D
$GPGSA,A,3,23,10,13,08,19,03,06,,,,,,2.6,1.7,2.0*35
$GPRMC,195419.000,A,3748.7594,N,12217.6870,W,2.38,358.95,200611,,,A*7B
$GPVTG,358.95,T,,M,2.38,N,4.4,K,A*06
$GPGGA,195420.000,3748.7600,N,12217.6868,W,1,07,1.7,5.3,M,-25.1,M,,0000*67
$GPGSA,A,3,23,10,13,08,19,03,06,,,,,,2.6,1.7,2.0*35
$GPRMC,195420.000,A,3748.7600,N,12217.6868,W,2.39,356.58,200611,,,A*78
$GPVTG,356.58,T,,M,2.39,N,4.4,K,A*08
$GPGGA,195421.000,3748.7607,N,12217.6869,W,1,08,1.3,4.8,M,-25.1,M,,0000*61
$GPGSA,A,3,23,10,13,08,19,03,06,16,,,,,2.4,1.3,2.0*34
$GPGSV,3,1,12,13,75,072,33,07,58,300,26,23,45,118,36,10,43,279,22*77
$GPGSV,3,2,12,08,35,273,20,03,27,080,39,16,22,042,39,06,19,065,37*77
$GPGSV,3,3,12,19,19,112,35,28,10,210,22,05,09,322,31,20,08,174,*73
$GPRMC,195421.000,A,3748.7607,N,12217.6869,W,2.16,351.96,200611,,,A*77
$GPVTG,351.96,T,,M,2.16,N,4.0,K,A*04
$GPGGA,195422.000,3748.7613,N,12217.6869,W,1,08,1.3,4.5,M,-25.1,M,,0000*6A
$GPGSA,A,3,23,10,13,08,19,03,06,16,,,,,2.4,1.3,2.0*34
$GPRMC,195422.000,A,3748.7613,N,12217.6869,W,2.31,7.83,200611,,,A*70
$GPVTG,7.83,T,,M,2.31,N,4.3,K,A*06
$GPGGA,195423.000,3748.7620,N,12217.6866,W,1,08,1.3,4.2,M,-25.1,M,,0000*63
$GPGSA,A,3,23,10,13,08,19,03,06,16,,,,,2.4,1.3,2.0*34
$GPRMC,195423.000,A,3748.7620,N,12217.6866,W,2.30,18.85,200611,,,A*47
$GPVTG,18.85,T,,M,2.30,N,4.3,K,A*3F
$GPGGA,195424.000,3748.7626,N,12217.6864,W,1,08,1.3,4.0,M,-25.1,M,,0000*62
$GPGSA,A,3,23,10,13,08,19,03,06,16,,,,,2.4,1.3,2.0*34
$GPRMC,195424.000,A,3748.7626,N,12217.6864,W,2.13,18.57,200611,,,A*4A
$GPVTG,18.57,T,,M,2.13,N,4.0,K,A*32
$GPGGA,195425.000,3748.7631,N,12217.6862,W,1,08,1.3,3.5,M,-25.1,M,,0000*61
$GPGSA,A,3,23,10,13,08,19,03,06,16,,,,,2.4,1.3,2.0*34
$GPRMC,195425.000,A,3748.7631,N,12217.6862,W,1.77,9.25,200611,,,A*7F
$GPVTG,9.25,T,,M,1.77,N,3.3,K,A*02
$GPGGA,195426.000,3748.7636,N,12217.6860,W,1,08,1.3,3.2,M,-25.1,M,,0000*60
$GPGSA,A,3,23,10,13,08,19,03,06,16,,,,,2.4,1.3,2.0*34
$GPGSV,3,1,12,13,75,072,34,07,58,300,26,23,45,118,37,10,43,279,22*71
$GPGSV,3,2,12,08,35,273,20,03,27,080,39,16,22,042,35,06,19,065,38*74
$GPGSV,3,3,12,19,19,112,40,28,10,210,21,05,09,322,,20,08,174,*70
$GPRMC,195426.000,A,3748.7636,N,12217.6860,W,1.94,22.05,200611,,,A*4F
$GPVTG,22.05,T,,M,1.94,N,3.6,K,A*31
$GPGGA,195427.000,3748.7642,N,12217.6856,W,1,08,1.3,3.0,M,-25.1,M,,0000*65
$GPGSA,A,3,23,10,13,08,19,03,06,16,,,,,2.4,1.3,2.0*34
$GPRMC,195427.000,A,3748.7642,N,12217.6856,W,2.33,34.22,200611,,,A*44
$GPVTG,34.22,T,,M,2.33,N,4.3,K,A*3F
$GPGGA,195428.000,3748.7647,N,12217.6852,W,1,08,1.3,2.7,M,-25.1,M,,0000*6D
$GPGSA,A,3,23,10,13,08,19,03,06,16,,,,,2.4,1.3,2.0*34
$GPRMC,195428.000,A,3748.7647,N,12217.6852,W,2.16,30.15,200611,,,A*4D
$GPVTG,30.15,T,,M,2.16,N,4.0,K,A*3B
$GPGGA,195429.000,3748.7652,N,12217.6849,W,1,08,1.3,2.3,M,-25.1,M,,0000*66
$GPGSA,A,3,23,10,13,08,19,03,06,16,,,,,2.4,1.3,2.0*34
$GPRMC,195429.000,A,3748.7652,N,12217.6849,W,2.25,24.94,200611,,,A*4E
$GPVTG,24.94,T,,M,2.25,N,4.2,K,A*35
$GPGGA,195430.000,3748.7658,N,12217.6847,W,1,08,1.3,1.8,M,-25.1,M,,0000*62
$GPGSA,A,3,23,10,13,08,19,03,06,16,,,,,2.4,1.3,2.0*34
$GPRMC,195430.000,A,3748.7658,N,12217.6847,W,2.35,11.71,200611,,,A*4E
$GPVTG,11.71,T,,M,2.35,N,4.4,K,A*3F
$GPGGA,195431.000,3748.7665,N,12217.6846,W,1,08,1.3,1.4,M,-25.1,M,,0000*60
$GPGSA,A,3,23,10,13,08,19,03,06,16,,,,,2.4,1.3,2.0*34
$GPGSV,3,1,12,13,75,072,34,07,58,300,26,23,45,118,39,10,43,279,22*7F
$GPGSV,3,2,12,08,35,273,21,03,27,080,40,16,22,042,34,06,19,065,38*7A
$GPRMC,195431.000,A,3748.7665,N,12217.6846,W,2.39,6.09,200611,,,A*75
$GPVTG,6.09,T,,M,2.39,N,4.4,K,A*0A
$GPGGA,195432.000,3748.7670,N,12217.6845,W,1,08,1.3,1.0,M,-25.1,M,,0000*60
$GPGSA,A,3,23,10,13,08,19,03,06,16,,,,,2.4,1.3,2.0*34
$GPRMC,195432.000,A,3748.7670,N,12217.6845,W,1.69,6.94,200611,,,A*73
$GPVTG,6.94,T,,M,1.69,N,3.1,K,A*0A
$GPGGA,195433.000,3748.7674,N,12217.6842,W,1,08,1.3,0.7,M,-25.1,M,,0000*64
$GPGSA,A,3,23,10,13,08,19,03,06,16,,,,,2.4,1.3,2.0*34
$GPRMC,195433.000,A,3748.7674,N,12217.6842,W,1.83,32.65,200611,,,A*4C
$GPVTG,32.65,T,,M,1.83,N,3.4,K,A*32
$GPGGA,195434.000,3748.7679,N,12217.6837,W,1,08,1.3,0.6,M,-25.1,M,,0000*6D
$GPGSA,A,3,23,10,13,08,19,03,06,16,,,,,2.4,1.3,2.0*34
$GPRMC,195434.000,A,3748.7679,N,12217.6837,W,2.32,41.27,200611,,,A*4F
$GPVTG,41.27,T,,M,2.32,N,4.3,K,A*39
$GPGGA,195435.000,3748.7684,N,12217.6833,W,1,08,1.3,0.2,M,-25.1,M,,0000*6E
$GPGSA,A,3,23,10,13,08,19,03,06,16,,,,,2.4,1.3,2.0*34
$GPRMC,195435.000,A,3748.7684,N,12217.6833,W,2.11,26.78,200611,,,A*42
$GPVTG,26.78,T,,M,2.11,N,3.9,K,A*3E
$GPGGA,195436.000,3748.7689,N,12217.6830,W,1,08,1.3,-0.3,M,-25.1,M,,0000*4F
$GPGSA,A,3,23,10,13,08,19,03,06,16,,,,,2.4,1.3,2.0*34
$GPGSV,3,1,12,13,75,072,34,07,58,300,26,23,45,118,39,10,43,279,23*7E
$GPGSV,3,2,12,08,35,273,21,03,27,080,40,16,22,042,35,06,19,065,39*7A
$GPGSV,3,3,12,19,19,112,36,28,10,210,21,05,09,322,21,20,08,174,*72
$GPRMC,195436.000,A,3748.7689,N,12217.6830,W,1.99,17.33,200611,,,A*41
$GPVTG,17.33,T,,M,1.99,N,3.7,K,A*3E
$GPGGA,195437.000,3748.7694,N,12217.6827,W,1,08,1.3,-0.5,M,-25.1,M,,0000*42
$GPGSA,A,3,23,10,13,08,19,03,06,16,,,,,2.4,1.3,2.0*34
$GPRMC,195437.000,A,3748.7694,N,12217.6827,W,2.10,30.67,200611,,,A*4C
$GPVTG,30.67,T,,M,2.10,N,3.9,K,A*36
$GPGGA,195438.000,3748.7699,N,12217.6824,W,1,08,1.3,-0.9,M,-25.1,M,,0000*4F
$GPGSA,A,3,23,10,13,08,19,03,06,16,,,,,2.4,1.3,2.0*34
$GPRMC,195438.000,A,3748.7699,N,12217.6824,W,2.05,18.68,200611,,,A*4C
$GPVTG,18.68,T,,M,2.05,N,3.8,K,A*36
$GPGGA,195439.000,3748.7705,N,12217.6822,W,1,08,1.3,-1.3,M,-25.1,M,,0000*47
$GPGSA,A,3,23,10,13,08,19,03,06,16,,,,,2.4,1.3,2.0*34
$GPRMC,195439.000,A,3748.7705,N,12217.6822,W,2.14,12.08,200611,,,A*43
$GPVTG,12.08,T,,M,2.14,N,4.0,K,A*35
$GPGGA,195440.000,3748.7710,N,12217.6821,W,1,08,1.3,-1.9,M,-25.1,M,,0000*44
$GPGSA,A,3,23,10,13,08,19,03,06,16,,,,,2.4,1.3,2.0*34
$GPRMC,195440.000,A,3748.7710,N,12217.6821,W,1.97,358.64,200611,,,A*75
$GPVTG,358.64,T,,M,1.97,N,3.7,K,A*0A
$GPGGA,195441.000,3748.7716,N,12217.6820,W,1,08,1.3,-2.2,M,-25.1,M,,0000*4A
$GPGSA,A,3,23,10,13,08,19,03,06,16,,,,,2.4,1.3,2.0*34
$GPGSV,3,1,12,13,75,072,35,07,58,300,26,23,45,118,40,10,43,279,23*71
$GPGSV,3,2,12,08,35,273,21,03,27,080,40,16,22,042,35,06,19,065,39*7A
$GPGSV,3,3,12,19,19,112,27,28,10,210,21,05,09,322,21,20,08,174,*72
$GPRMC,195441.000,A,3748.7716,N,12217.6820,W,2.12,5.91,200611,,,A*7C
$GPVTG,5.91,T,,M,2.12,N,3.9,K,A*0B
$GPGGA,195442.000,3748.7722,N,12217.6818,W,1,08,1.3,-2.3,M,-25.1,M,,0000*44
$GPGSA,A,3,23,10,13,08,19,03,06,16,,,,,2.4,1.3,2.0*34
$GPRMC,195442.000,A,3748.7722,N,12217.6818,W,2.07,16.81,200611,,,A*44
$GPVTG,16.81,T,,M,2.07,N,3.8,K,A*3D
$GPGGA,195443.000,3748.7728,N,12217.6815,W,1,08,1.3,-2.4,M,-25.1,M,,0000*45
$GPGSA,A,3,23,10,13,08,19,03,06,16,,,,,2.4,1.3,2.0*34
$GPRMC,195443.000,A,3748.7728,N,12217.6815,W,2.07,24.38,200611,,,A*41
$GPVTG,24.38,T,,M,2.07,N,3.8,K,A*3E
$GPGGA,195444.000,3748.7734,N,12217.6812,W,2,08,1.3,-2.7,M,-25.1,M,1.8,0000*6F
$GPGSA,A,3,23,10,13,08,19,03,06,16,,,,,2.4,1.3,2.0*34
$GPRMC,195444.000,A,3748.7734,N,12217.6812,W,2.01,8.24,200611,,,D*7C
$GPVTG,8.24,T,,M,2.01,N,3.7,K,D*01
$GPGGA,195445.000,3748.7739,N,12217.6811,W,2,08,1.3,-3.2,M,-25.1,M,2.8,0000*67
$GPGSA,A,3,23,10,13,08,19,03,06,16,,,,,2.4,1.3,2.0*34
$GPRMC,195445.000,A,3748.7739,N,12217.6811,W,1.84,7.28,200611,,,D*7E
$GPVTG,7.28,T,,M,1.84,N,3.4,K,D*0F
$GPGGA,195446.000,3748.7744,N,12217.6810,W,2,08,1.3,-3.8,M,-25.1,M,3.8,0000*64
$GPGSA,A,3,23,10,13,08,19,03,06,16,,,,,2.4,1.3,2.0*34
$GPGSV,3,1,12,13,75,073,35,07,58,301,27,23,45,118,40,10,43,279,22*71
$GPGSV,3,2,12,08,35,273,21,03,27,080,40,16,22,042,35,06,19,065,40*74
$GPGSV,3,3,12,19,19,112,31,28,10,210,21,05,09,321,21,20,08,174,*76
$GPRMC,195446.000,A,3748.7744,N,12217.6810,W,1.87,9.61,200611,,,D*76
$GPVTG,9.61,T,,M,1.87,N,3.5,K,D*0E
$GPGGA,195447.000,3748.7748,N,12217.6808,W,2,08,1.3,-4.3,M,-25.1,M,4.8,0000*6B
$GPGSA,A,3,23,10,13,08,19,03,06,16,,,,,2.4,1.3,2.0*34
$GPRMC,195447.000,A,3748.7748,N,12217.6808,W,1.84,15.72,200611,,,D*4E
$GPVTG,15.72,T,,M,1.84,N,3.4,K,D*33
$GPGGA,195448.000,3748.7753,N,12217.6806,W,2,08,1.3,-5.1,M,-25.1,M,5.8,0000*62
$GPGSA,A,3,23,10,13,08,19,03,06,16,,,,,2.4,1.3,2.0*34
$GPRMC,195448.000,A,3748.7753,N,12217.6806,W,1.99,16.28,200611,,,D*45
$GPVTG,16.28,T,,M,1.99,N,3.7,K,D*30
$GPGGA,195449.000,3748.7757,N,12217.6804,W,2,08,1.3,-5.9,M,-25.1,M,6.8,0000*6E
$GPGSA,A,3,23,10,13,08,19,03,06,16,,,,,2.4,1.3,2.0*34
$GPRMC,195449.000,A,3748.7757,N,12217.6804,W,2.07,10.69,200611,,,D*45
$GPVTG,10.69,T,,M,2.07,N,3.8,K,D*38
$GPGGA,195450.000,3748.7763,N,12217.6802,W,2,08,1.3,-6.0,M,-25.1,M,7.8,0000*6C
$GPGSA,A,3,23,10,13,08,19,03,06,16,,,,,2.4,1.3,2.0*34
$GPRMC,195450.000,A,3748.7763,N,12217.6802,W,2.02,13.88,200611,,,D*45
$GPVTG,13.88,T,,M,2.02,N,3.7,K,D*3E
$GPGGA,195451.000,3748.7769,N,12217.6798,W,2,08,1.3,-6.1,M,-25.1,M,8.8,0000*65
$GPGSA,A,3,23,10,13,08,19,03,06,16,,,,,2.4,1.3,2.0*34
$GPGSV,3,1,12,13,75,073,30,07,58,301,23,23,45,118,40,10,43,279,23*71
$GPGSV,3,2,12,08,35,273,21,03,27,080,40,16,22,042,36,06,19,065,40*77
$GPGSV,3,3,12,19,19,112,36,28,10,210,23,05,09,321,21,20,08,174,*73
$GPVTG,24.02,T,,M,2.10,N,3.9,K,D*35
$GPGGA,195452.000,3748.7774,N,12217.6795,W,2,08,1.3,-6.3,M,-25.1,M,9.8,0000*64
$GPGSA,A,3,23,10,13,08,19,03,06,16,,,,,2.4,1.3,2.0*34
$GPRMC,195452.000,A,3748.7774,N,12217.6795,W,2.01,18.71,200611,,,D*4E
$GPVTG,18.71,T,,M,2.01,N,3.7,K,D*30
$GPGGA,195453.000,3748.7780,N,12217.6792,W,2,08,1.3,-6.5,M,-25.1,M,10.8,0000*57
$GPGSA,A,3,23,10,13,08,19,03,06,16,,,,,2.4,1.3,2.0*34
$GPRMC,195453.000,A,3748.7780,N,12217.6792,W,2.20,18.67,200611,,,D*47
$GPVTG,18.67,T,,M,2.20,N,4.1,K,D*35
$GPGGA,195454.000,3748.7785,N,12217.6790,W,2,08,1.3,-6.8,M,-25.1,M,11.8,0000*5B
$GPGSA,A,3,23,10,13,08,19,03,06,16,,,,,2.4,1.3,2.0*34
$GPRMC,195454.000,A,3748.7785,N,12217.6790,W,1.99,14.43,200611,,,D*4C
$GPVTG,14.43,T,,M,1.99,N,3.7,K,D*3F
$GPGGA,195455.000,3748.7790,N,12217.6787,W,2,08,1.3,-7.0,M,-25.1,M,12.8,0000*52
$GPGSA,A,3,23,10,13,08,19,03,06,16,,,,,2.4,1.3,2.0*34
$GPRMC,195455.000,A,3748.7790,N,12217.6787,W,2.00,21.01,200611,,,D*4C
$GPVTG,21.01,T,,M,2.00,N,3.7,K,D*3C
$GPGGA,195456.000,3748.7795,N,12217.6786,W,2,08,1.3,-7.4,M,-25.1,M,13.8,0000*50
$GPGSA,A,3,23,10,13,08,19,03,06,16,,,,,2.4,1.3,2.0*34
$GPGSV,3,1,12,13,75,073,33,07,58,301,23,23,45,118,40,10,43,279,22*73
$GPGSV,3,2,12,08,35,273,21,03,27,080,40,16,22,042,37,06,19,065,40*76
$GPGSV,3,3,12,19,19,112,36,28,10,210,23,05,09,321,20,20,08,174,*72
$GPRMC,195456.000,A,3748.7795,N,12217.6786,W,2.00,6.97,200611,,,D*71
$GPVTG,6.97,T,,M,2.00,N,3.7,K,D*06
$GPGGA,195457.000,3748.7801,N,12217.6784,W,2,08,1.3,-7.8,M,-25.1,M,14.8,0000*5A
$GPGSA,A,3,23,10,13,08,19,03,06,16,,,,,2.4,1.3,2.0*34
$GPRMC,195457.000,A,3748.7801,N,12217.6784,W,1.98,9.32,200611,,,D*72
$GPVTG,9.32,T,,M,1.98,N,3.7,K,D*04
$GPGGA,195458.000,3748.7806,N,12217.6783,W,2,08,1.3,-8.2,M,-25.1,M,15.8,0000*51
$GPGSA,A,3,23,10,13,08,19,03,06,16,,,,,2.4,1.3,2.0*34
$GPRMC,195458.000,A,3748.7806,N,12217.6783,W,1.95,10.14,200611,,,D*4C
$GPVTG,10.14,T,,M,1.95,N,3.6,K,D*34
$GPGGA,195459.000,3748.7811,N,12217.6781,W,2,08,1.3,-8.5,M,-25.1,M,16.8,0000*50
$GPGSA,A,3,23,10,13,08,19,03,06,16,,,,,2.4,1.3,2.0*34
$GPRMC,195459.000,A,3748.7811,N,12217.6781,W,1.99,12.81,200611,,,D*4B
$GPVTG,12.81,T,,M,1.99,N,3.7,K,D*37
$GPGGA,195500.000,3748.7816,N,12217.6779,W,2,08,1.3,-8.9,M,-25.1,M,17.8,0000*50
$GPGSA,A,3,23,10,13,08,19,03,06,16,,,,,2.4,1.3,2.0*34
$GPRMC,195500.000,A,3748.7816,N,12217.6779,W,1.98,6.17,200611,,,D*7D
$GPVTG,6.17,T,,M,1.98,N,3.7,K,D*0C
$GPGGA,195501.000,3748.7821,N,12217.6777,W,1,08,1.3,-9.2,M,-25.1,M,,0000*42
$GPGSA,A,3,23,10,13,08,19,03,06,16,,,,,2.4,1.3,2.0*34
$GPGSV,3,1,12,13,75,073,33,07,58,301,24,23,45,118,40,10,43,279,23*75
$GPGSV,3,2,12,08,35,273,21,03,27,080,40,16,22,042,37,06,19,065,40*76
$GPGSV,3,3,12,19,19,112,36,28,10,210,24,05,09,321,19,20,08,174,*7F
$GPRMC,195501.000,A,3748.7821,N,12217.6777,W,1.84,15.36,200611,,,A*4F
$GPVTG,15.36,T,,M,1.84,N,3.4,K,A*36
$GPGGA,195502.000,3748.7826,N,12217.6775,W,1,08,1.3,-9.5,M,-25.1,M,,0000*43
$GPGSA,A,3,23,10,13,08,19,03,06,16,,,,,2.4,1.3,2.0*34
$GPRMC,195502.000,A,3748.7826,N,12217.6775,W,1.95,20.51,200611,,,A*4E
$GPVTG,20.51,T,,M,1.95,N,3.6,K,A*33
$GPGGA,195503.000,3748.7831,N,12217.6771,W,1,08,1.3,-9.8,M,-25.1,M,,0000*4D
$GPGSA,A,3,23,10,13,08,19,03,06,16,,,,,2.4,1.3,2.0*34
$GPRMC,195503.000,A,3748.7831,N,12217.6771,W,2.18,28.24,200611,,,A*41
$GPVTG,28.24,T,,M,2.18,N,4.0,K,A*3E
$GPGGA,195504.000,3748.7836,N,12217.6768,W,1,08,1.3,-10.1,M,-25.1,M,,0000*74
$GPGSA,A,3,23,10,13,08,19,03,06,16,,,,,2.4,1.3,2.0*34
$GPRMC,195504.000,A,3748.7836,N,12217.6768,W,2.06,14.46,200611,,,A*4D
$GPVTG,14.46,T,,M,2.06,N,3.8,K,A*35
$GPGGA,195505.000,3748.7842,N,12217.6765,W,1,08,1.3,-10.3,M,-25.1,M,,0000*79
$GPGSA,A,3,23,10,13,08,19,03,06,16,,,,,2.4,1.3,2.0*34
$GPRMC,195505.000,A,3748.7842,N,12217.6765,W,2.01,19.72,200611,,,A*4F
$GPVTG,19.72,T,,M,2.01,N,3.7,K,A*37
$GPGGA,195506.000,3748.7851,N,12217.6732,W,1,08,1.3,-6.1,M,-25.1,M,,0000*4F
$GPGSA,A,3,23,10,13,08,19,03,06,16,,,,,2.4,1.3,2.0*34
$GPGSV,3,1,12,13,75,073,33,07,58,301,28,23,45,118,40,10,43,279,28*72
$GPGSV,3,2,12,08,35,273,24,03,27,080,40,16,22,042,32,06,19,065,37*76
$GPGSV,3,3,12,19,19,112,28,28,10,210,24,05,09,321,24,20,08,174,*7E
$GPRMC,195506.000,A,3748.7851,N,12217.6732,W,1.70,24.09,200611,,,A*4B
$GPVTG,24.09,T,,M,1.70,N,3.1,K,A*36
$GPGGA,195507.000,3748.7857,N,12217.6729,W,1,08,1.3,-5.9,M,-25.1,M,,0000*49
